passes_logs/2026/01/07/T1/T1__20260107_132511_AQUA_rec.log

#Pass ID: 20260107_132511_AQUA
#Satellite: AQUA
#Configuration: AQUA
#almurnet v.1.7.20251203
#Start time: 2026-01-07 13:25:12

#Version: 2.0.20230620
#Station: T1
#Location: 37.570604 lon 55.790049 lat
#TLE: 1 27424U 02022A   26004.96787593  .00001598  00000+0  32997-3 0  9996
#TLE: 2 27424  98.4069 331.2279 0002002  90.2377   0.6092 14.61798176259425

#Time	Az	El	Level	Level2	SNR	BER	BlckErr	Temp	State	Recorded	gain1	gain2
2026-01-07 13:25:12.26	224.94	5.04	-53.4	-74.3	3.8	7.41e-01	0	37	0	0	78	39964
2026-01-07 13:25:14.24	225.18	5.14	-53.4	-74.3	3.8	7.46e-01	0	37	104	0	77	42112
2026-01-07 13:25:16.24	225.43	5.25	-53.3	-74.3	3.8	7.46e-01	0	37	104	0	77	42084
2026-01-07 13:25:18.23	225.67	5.36	-53.3	-74.2	3.8	7.45e-01	0	37	104	0	77	41799
2026-01-07 13:25:20.22	225.92	5.47	-53.3	-74.2	3.8	7.46e-01	0	37	104	0	77	41696
2026-01-07 13:25:22.22	226.17	5.58	-53.3	-74.2	3.8	7.45e-01	0	37	104	0	77	41748
2026-01-07 13:25:24.22	226.42	5.68	-53.3	-74.3	3.8	7.46e-01	0	37	104	0	77	41999
2026-01-07 13:25:26.20	226.67	5.79	-53.3	-74.3	3.8	7.49e-01	0	37	104	0	77	42108
2026-01-07 13:25:28.20	226.93	5.90	-53.3	-74.3	3.8	7.45e-01	0	37	104	0	77	42063
2026-01-07 13:25:30.20	227.19	6.01	-53.3	-74.3	3.8	7.45e-01	0	37	104	0	77	42191
2026-01-07 13:25:32.19	227.45	6.11	-53.3	-74.3	3.8	7.46e-01	0	38	104	0	77	42182
2026-01-07 13:25:34.19	227.71	6.22	-53.3	-74.2	3.8	7.40e-01	0	38	104	0	77	41696
2026-01-07 13:25:36.18	227.97	6.33	-53.3	-74.1	3.8	7.44e-01	0	37	104	0	77	41425
2026-01-07 13:25:38.18	228.24	6.44	-53.3	-74.1	3.8	7.43e-01	0	38	104	0	77	41337
2026-01-07 13:25:40.18	228.50	6.55	-53.3	-74.1	3.8	7.47e-01	0	38	104	0	77	41202
2026-01-07 13:25:42.17	228.77	6.66	-53.3	-74.0	3.8	7.45e-01	0	38	104	0	77	40977
2026-01-07 13:25:44.17	229.05	6.76	-53.3	-74.1	3.8	7.45e-01	0	38	104	0	77	41195
2026-01-07 13:25:46.17	229.32	6.87	-53.3	-74.1	3.8	7.41e-01	0	38	104	0	77	41353
2026-01-07 13:25:48.16	229.60	6.98	-53.3	-74.0	3.8	7.45e-01	0	38	104	0	77	40891
2026-01-07 13:25:50.15	229.87	7.09	-53.3	-73.9	3.8	7.43e-01	0	38	104	0	77	40253
2026-01-07 13:25:52.14	230.15	7.20	-53.3	-73.6	3.8	7.44e-01	0	38	104	0	77	39051
2026-01-07 13:25:54.14	230.44	7.30	-53.3	-73.6	3.8	7.47e-01	0	38	104	0	77	38967
2026-01-07 13:25:56.14	230.72	7.41	-53.3	-74.3	3.8	7.47e-01	0	38	104	0	77	42028
2026-01-07 13:25:58.13	231.01	7.52	-53.3	-73.8	3.8	7.45e-01	0	38	104	0	77	39754
2026-01-07 13:26:00.13	231.30	7.63	-53.3	-73.6	3.8	7.42e-01	0	38	104	0	77	38911
2026-01-07 13:26:02.13	231.59	7.74	-53.3	-74.2	3.8	7.47e-01	0	38	104	0	77	41894
2026-01-07 13:26:04.12	231.88	7.84	-53.3	-73.5	3.8	7.41e-01	0	38	104	0	77	38269
2026-01-07 13:26:06.11	232.18	7.95	-53.3	-73.0	3.8	7.48e-01	0	39	104	0	77	36286
2026-01-07 13:26:08.10	232.48	8.06	-53.3	-73.9	3.8	7.48e-01	0	39	104	0	77	40379
2026-01-07 13:26:10.10	232.78	8.17	-53.3	-70.5	4.2	7.32e-01	0	38	104	0	77	27315
2026-01-07 13:26:12.09	233.08	8.27	-53.2	-68.1	5.4	7.01e-01	0	39	0	0	77	20674
2026-01-07 13:26:14.09	233.39	8.38	-53.3	-72.0	3.9	7.42e-01	0	38	104	0	77	32366
2026-01-07 13:26:16.08	233.69	8.49	-52.2	-60.4	12.5	6.12e-01	0	38	0	1572864	76	9036
2026-01-07 13:26:18.08	234.01	8.59	-50.2	-54.8	18.2	6.08e-01	0	39	0	5242880	72	5965
2026-01-07 13:26:20.07	234.32	8.70	-49.5	-53.6	19.6	6.06e-01	0	39	0	9437184	71	5471
2026-01-07 13:26:22.07	234.63	8.81	-50.5	-55.5	17.8	6.07e-01	0	38	0	13107200	71	6820
2026-01-07 13:26:24.06	234.95	8.91	-52.0	-59.6	13.6	6.11e-01	0	38	0	16777216	74	9232
2026-01-07 13:26:26.06	235.27	9.02	-52.8	-63.5	9.6	6.30e-01	0	39	0	20447232	76	12845
2026-01-07 13:26:28.04	235.59	9.12	-51.8	-58.6	14.7	6.06e-01	0	39	0	24117248	74	8178
2026-01-07 13:26:30.03	235.91	9.23	-53.1	-66.1	7.0	6.66e-01	0	39	0	27787264	76	17307
2026-01-07 13:26:32.03	236.24	9.33	-51.4	-57.0	16.3	6.09e-01	0	39	0	31457280	74	6836
2026-01-07 13:26:34.02	236.57	9.44	-50.7	-55.4	17.8	6.06e-01	0	39	0	35127296	73	6044
2026-01-07 13:26:36.02	236.90	9.54	-49.5	-53.2	19.9	6.06e-01	0	39	0	39321600	71	5257
2026-01-07 13:26:38.02	237.24	9.65	-49.0	-52.5	20.6	6.06e-01	0	39	0	42991616	69	5415
2026-01-07 13:26:40.01	237.58	9.75	-48.4	-51.6	21.5	6.06e-01	0	39	0	46661632	68	5205
2026-01-07 13:26:42.01	237.92	9.85	-48.1	-51.3	21.8	6.07e-01	0	39	0	50331648	68	5014
2026-01-07 13:26:44.00	238.26	9.96	-48.0	-51.1	22.0	6.05e-01	0	39	0	54001664	68	4918
2026-01-07 13:26:46.00	238.60	10.06	-48.2	-51.3	21.8	6.07e-01	0	39	0	57671680	68	5026
2026-01-07 13:26:48.00	238.95	10.16	-48.2	-51.2	21.9	6.08e-01	0	39	0	61341696	68	4974
2026-01-07 13:26:49.99	239.30	10.27	-48.1	-51.1	22.0	6.06e-01	0	39	0	65011712	68	4919
2026-01-07 13:26:51.99	239.65	10.37	-48.0	-51.2	21.9	6.06e-01	0	39	0	69206016	68	4937
2026-01-07 13:26:53.98	240.01	10.47	-47.8	-50.8	22.2	6.07e-01	0	39	0	72876032	67	5025
2026-01-07 13:26:55.98	240.37	10.57	-47.9	-50.9	22.1	6.08e-01	0	39	0	76546048	67	5068
2026-01-07 13:26:57.98	240.73	10.67	-47.7	-50.7	22.3	6.08e-01	0	39	0	80216064	67	4950
2026-01-07 13:26:59.99	241.09	10.77	-47.8	-50.8	22.3	6.09e-01	0	39	0	83886080	67	4990
2026-01-07 13:27:01.98	241.46	10.87	-47.8	-50.9	22.1	6.07e-01	0	39	0	87556096	67	5087
2026-01-07 13:27:03.98	241.83	10.97	-47.5	-50.7	22.3	6.06e-01	0	39	0	91750400	67	4979
2026-01-07 13:27:05.97	242.20	11.06	-47.3	-50.6	22.4	6.06e-01	0	39	0	95420416	66	5216
2026-01-07 13:27:07.97	242.57	11.16	-47.5	-50.7	22.3	6.06e-01	0	39	0	99090432	66	5244
2026-01-07 13:27:09.96	242.95	11.26	-47.8	-50.8	22.3	6.08e-01	0	39	0	102760448	66	5280
2026-01-07 13:27:11.96	243.33	11.36	-47.7	-50.6	22.5	6.07e-01	0	39	0	106430464	66	5167
2026-01-07 13:27:13.96	243.71	11.45	-47.7	-50.5	22.6	6.08e-01	0	39	0	110100480	66	5139
2026-01-07 13:27:15.95	244.09	11.55	-47.7	-50.6	22.5	6.05e-01	0	39	0	113770496	66	5182
2026-01-07 13:27:17.95	244.48	11.64	-47.5	-50.4	22.6	6.06e-01	0	39	0	117440512	66	5095
2026-01-07 13:27:19.95	244.87	11.73	-47.6	-50.5	22.5	6.09e-01	0	39	0	121634816	66	5145
2026-01-07 13:27:21.94	245.26	11.83	-46.7	-50.4	22.6	6.08e-01	0	39	0	125304832	65	5386
2026-01-07 13:27:23.94	245.65	11.92	-46.7	-50.5	22.0	6.06e-01	0	39	0	128974848	64	5787
2026-01-07 13:27:25.93	246.05	12.01	-46.3	-50.5	22.4	6.08e-01	0	39	0	132644864	64	5746
2026-01-07 13:27:27.92	246.45	12.10	-45.6	-50.4	22.5	6.07e-01	0	39	0	136314880	63	6026
2026-01-07 13:27:29.91	246.85	12.19	-46.4	-50.5	22.2	6.07e-01	0	39	0	139984896	63	6114
2026-01-07 13:27:31.91	247.25	12.28	-46.7	-50.5	22.2	6.07e-01	0	39	0	143654912	64	5760
2026-01-07 13:27:33.90	247.66	12.36	-46.4	-50.4	22.4	6.06e-01	0	39	0	147324928	63	5998
2026-01-07 13:27:35.90	248.07	12.45	-44.9	-50.3	22.4	6.08e-01	0	39	0	151519232	61	6690
2026-01-07 13:27:37.89	248.48	12.54	-45.3	-50.4	22.1	6.08e-01	0	39	0	155189248	62	6372
2026-01-07 13:27:39.88	248.89	12.62	-46.0	-50.4	21.9	6.05e-01	0	39	0	158859264	63	6042
2026-01-07 13:27:41.87	249.31	12.71	-45.7	-50.5	22.0	6.08e-01	0	39	0	162529280	63	6077
2026-01-07 13:27:43.87	249.73	12.79	-45.4	-50.5	22.4	6.07e-01	0	39	0	166199296	61	6856
2026-01-07 13:27:45.87	250.15	12.87	-45.1	-50.3	22.2	6.09e-01	0	39	0	169869312	61	6709
2026-01-07 13:27:47.87	250.57	12.95	-47.4	-50.4	22.6	6.05e-01	0	39	0	174063616	65	5363
2026-01-07 13:27:49.86	251.00	13.03	-47.3	-50.2	22.9	6.09e-01	0	39	0	177733632	65	5258
2026-01-07 13:27:51.84	251.43	13.11	-47.5	-50.5	22.6	6.07e-01	0	39	0	181403648	65	5404
2026-01-07 13:27:53.84	251.86	13.19	-47.5	-50.3	22.8	6.06e-01	0	39	0	185073664	65	5327
2026-01-07 13:27:55.83	252.29	13.26	-47.3	-50.1	23.0	6.06e-01	0	39	0	188743680	65	5190
2026-01-07 13:27:57.83	252.73	13.34	-47.4	-50.2	22.9	6.05e-01	0	39	0	192413696	65	5233
2026-01-07 13:27:59.82	253.16	13.41	-47.3	-50.1	23.0	6.08e-01	0	39	0	196083712	65	5162
2026-01-07 13:28:01.82	253.61	13.49	-47.2	-50.0	23.1	6.07e-01	0	39	0	199753728	65	5130
2026-01-07 13:28:03.82	254.05	13.56	-47.3	-50.1	23.0	6.07e-01	0	39	0	203948032	65	5201
2026-01-07 13:28:05.81	254.49	13.63	-47.1	-50.0	23.0	6.08e-01	0	39	0	207618048	65	5158
2026-01-07 13:28:07.81	254.94	13.70	-47.2	-50.1	23.0	6.07e-01	0	39	0	211288064	65	5188
2026-01-07 13:28:09.81	255.39	13.76	-47.1	-49.9	23.1	6.06e-01	0	39	0	214958080	65	5099
2026-01-07 13:28:11.80	255.84	13.83	-47.3	-50.1	22.9	6.06e-01	0	39	0	218628096	65	5213
2026-01-07 13:28:13.80	256.30	13.90	-47.2	-50.0	23.0	6.08e-01	0	39	0	222298112	65	5145
2026-01-07 13:28:15.79	256.75	13.96	-47.3	-50.2	22.9	6.07e-01	0	39	0	225968128	65	5245
2026-01-07 13:28:17.79	257.21	14.02	-47.4	-50.2	22.8	6.06e-01	0	39	0	229638144	65	5260
2026-01-07 13:28:19.79	257.67	14.08	-47.4	-50.2	22.9	6.07e-01	0	39	0	233832448	65	5249
2026-01-07 13:28:21.79	258.13	14.14	-47.2	-49.9	23.1	6.07e-01	0	39	0	237502464	65	5097
2026-01-07 13:28:23.78	258.59	14.20	-47.4	-50.2	22.8	6.08e-01	0	39	0	241172480	65	5278
2026-01-07 13:28:25.77	259.06	14.25	-47.3	-50.1	22.9	6.06e-01	0	39	0	244842496	65	5200
2026-01-07 13:28:27.77	259.53	14.31	-47.2	-50.0	23.1	6.06e-01	0	39	0	248512512	65	5110
2026-01-07 13:28:29.77	260.00	14.36	-47.2	-50.0	23.0	6.06e-01	0	39	0	252182528	65	5153
2026-01-07 13:28:31.78	260.47	14.41	-47.2	-50.1	23.1	6.06e-01	0	39	0	256376832	65	5162
2026-01-07 13:28:33.77	260.94	14.46	-47.2	-50.1	23.0	6.05e-01	0	39	0	260046848	65	5162
2026-01-07 13:28:35.77	261.41	14.51	-47.2	-50.0	23.1	6.09e-01	0	39	0	263716864	65	5114
2026-01-07 13:28:37.77	261.89	14.56	-47.2	-50.0	23.1	6.08e-01	0	39	0	267386880	65	5116
2026-01-07 13:28:39.77	262.37	14.60	-47.2	-49.9	23.1	6.07e-01	0	39	0	271056896	65	5092
2026-01-07 13:28:41.76	262.85	14.65	-47.0	-49.8	23.2	6.09e-01	0	39	0	274726912	65	5032
2026-01-07 13:28:43.76	263.33	14.69	-47.0	-49.8	23.3	6.07e-01	0	39	0	278396928	65	5004
2026-01-07 13:28:45.75	263.81	14.73	-47.1	-49.8	23.2	6.06e-01	0	39	0	282066944	65	5024
2026-01-07 13:28:47.75	264.29	14.77	-47.2	-49.9	23.2	6.08e-01	0	39	0	286261248	65	5059
2026-01-07 13:28:49.75	264.77	14.80	-47.3	-50.0	23.1	6.08e-01	0	39	0	289931264	65	5118
2026-01-07 13:28:51.75	265.26	14.84	-47.3	-50.0	23.1	6.05e-01	0	39	0	293601280	65	5132
2026-01-07 13:28:53.74	265.74	14.87	-47.2	-50.0	23.1	6.07e-01	0	39	0	297271296	65	5115
2026-01-07 13:28:55.73	266.23	14.90	-47.2	-49.9	23.1	6.05e-01	0	39	0	300941312	65	5086
2026-01-07 13:28:57.73	266.72	14.93	-47.3	-50.1	23.0	6.06e-01	0	39	0	304611328	65	5194
2026-01-07 13:28:59.73	267.21	14.96	-47.3	-50.1	23.0	6.07e-01	0	39	0	308281344	65	5174
2026-01-07 13:29:01.72	267.70	14.98	-47.2	-50.0	23.1	6.05e-01	0	39	0	312475648	65	5107
2026-01-07 13:29:03.72	268.19	15.01	-47.1	-49.9	23.2	6.07e-01	0	39	0	316145664	65	5048
2026-01-07 13:29:05.72	268.68	15.03	-47.2	-49.9	23.1	6.08e-01	0	39	0	319815680	65	5095
2026-01-07 13:29:07.72	269.17	15.05	-47.2	-50.0	23.1	6.06e-01	0	39	0	323485696	65	5104
2026-01-07 13:29:09.72	269.67	15.07	-47.2	-49.9	23.2	6.05e-01	0	39	0	327155712	65	5065
2026-01-07 13:29:11.71	270.16	15.08	-47.1	-49.8	23.3	6.05e-01	0	39	0	330825728	65	5011
2026-01-07 13:29:13.71	270.65	15.10	-47.1	-49.9	23.2	6.06e-01	0	39	0	335020032	65	5067
2026-01-07 13:29:15.71	271.15	15.11	-47.3	-50.0	23.1	6.06e-01	0	39	0	338690048	65	5134
2026-01-07 13:29:17.70	271.64	15.12	-47.2	-49.9	23.2	6.06e-01	0	39	0	342360064	65	5044
2026-01-07 13:29:19.69	272.13	15.13	-47.2	-49.9	23.2	6.08e-01	0	39	0	346030080	65	5053
2026-01-07 13:29:21.69	272.63	15.13	-47.2	-49.9	23.1	6.06e-01	0	39	0	349700096	65	5092
2026-01-07 13:29:23.68	273.12	15.14	-47.0	-49.7	23.4	6.06e-01	0	40	0	353370112	65	4969
2026-01-07 13:29:25.67	273.62	15.14	-47.1	-49.9	23.2	6.06e-01	0	39	0	357040128	65	5078
2026-01-07 13:29:27.67	274.11	15.14	-47.2	-49.9	23.2	6.05e-01	0	39	0	360710144	65	5078
2026-01-07 13:29:29.67	274.61	15.14	-47.2	-50.0	23.1	6.05e-01	0	39	0	364904448	65	5118
2026-01-07 13:29:31.66	275.10	15.14	-47.1	-49.8	23.3	6.06e-01	0	39	0	368574464	65	5026
2026-01-07 13:29:33.66	275.60	15.13	-47.2	-49.9	23.2	6.07e-01	0	39	0	372244480	65	5090
2026-01-07 13:29:35.65	276.09	15.13	-47.3	-50.1	23.0	6.07e-01	0	39	0	375914496	65	5170
2026-01-07 13:29:37.65	276.59	15.12	-47.2	-49.9	23.2	6.07e-01	0	39	0	379584512	65	5062
2026-01-07 13:29:39.65	277.08	15.11	-47.2	-49.8	23.3	6.06e-01	0	39	0	383254528	65	5040
2026-01-07 13:29:41.64	277.58	15.10	-47.2	-50.0	23.1	6.06e-01	0	39	0	386924544	65	5125
2026-01-07 13:29:43.64	278.07	15.08	-47.1	-49.9	23.2	6.07e-01	0	39	0	390594560	65	5091
2026-01-07 13:29:45.64	278.56	15.07	-47.3	-50.0	23.1	6.07e-01	0	39	0	394788864	65	5125
2026-01-07 13:29:47.64	279.06	15.05	-47.3	-50.0	23.1	6.07e-01	0	39	0	398458880	65	5146
2026-01-07 13:29:49.64	279.55	15.03	-47.0	-49.7	23.4	6.06e-01	0	39	0	402128896	65	4962
2026-01-07 13:29:51.63	280.04	15.01	-47.2	-49.9	23.2	6.06e-01	0	39	0	405798912	65	5070
2026-01-07 13:29:53.63	280.53	14.98	-47.2	-49.9	23.2	6.08e-01	0	39	0	409468928	65	5084
2026-01-07 13:29:55.62	281.02	14.96	-47.0	-49.7	23.4	6.07e-01	0	39	0	413138944	65	4947
2026-01-07 13:29:57.62	281.50	14.93	-47.3	-50.0	23.1	6.07e-01	0	39	0	417333248	65	5115
2026-01-07 13:29:59.62	281.99	14.90	-47.2	-49.8	23.3	6.08e-01	0	39	0	421003264	65	5033
2026-01-07 13:30:01.61	282.48	14.87	-47.2	-49.8	23.3	6.07e-01	0	39	0	424673280	65	5035
2026-01-07 13:30:03.61	282.96	14.84	-47.2	-49.9	23.2	6.08e-01	0	40	0	428343296	65	5082
2026-01-07 13:30:05.61	283.45	14.80	-47.1	-49.8	23.3	6.06e-01	0	39	0	432013312	65	5011
2026-01-07 13:30:07.61	283.93	14.76	-47.2	-49.9	23.2	6.07e-01	0	39	0	435683328	65	5045
2026-01-07 13:30:09.61	284.41	14.73	-47.2	-50.0	23.1	6.05e-01	0	39	0	439353344	65	5101
2026-01-07 13:30:11.61	284.89	14.69	-47.2	-49.9	23.2	6.06e-01	0	39	0	443547648	65	5071
2026-01-07 13:30:13.61	285.37	14.65	-47.4	-50.1	23.0	6.07e-01	0	39	0	447217664	65	5181
2026-01-07 13:30:15.61	285.85	14.60	-47.1	-49.8	23.3	6.06e-01	0	39	0	450887680	65	5025
2026-01-07 13:30:17.61	286.33	14.56	-47.2	-49.9	23.2	6.06e-01	0	39	0	454557696	65	5063
2026-01-07 13:30:19.61	286.80	14.51	-47.3	-50.1	23.0	6.05e-01	0	39	0	458227712	65	5170
2026-01-07 13:30:21.61	287.28	14.46	-47.2	-49.9	23.2	6.08e-01	0	39	0	461897728	65	5056
2026-01-07 13:30:23.60	287.74	14.41	-47.3	-49.9	23.2	6.08e-01	0	39	0	465567744	65	5084
2026-01-07 13:30:25.60	288.21	14.36	-47.2	-50.0	23.1	6.06e-01	0	39	0	469237760	65	5114
2026-01-07 13:30:27.60	288.68	14.31	-47.2	-50.0	23.0	6.07e-01	0	39	0	473432064	65	5143
2026-01-07 13:30:29.60	289.15	14.25	-47.2	-50.0	23.1	6.06e-01	0	39	0	477102080	65	5123
2026-01-07 13:30:31.59	289.61	14.20	-47.3	-50.1	23.0	6.06e-01	0	39	0	480772096	65	5172
2026-01-07 13:30:33.59	290.07	14.14	-47.3	-50.1	22.9	6.06e-01	0	39	0	484442112	65	5184
2026-01-07 13:30:35.59	290.53	14.08	-47.3	-50.0	23.1	6.08e-01	0	39	0	488112128	65	5117
2026-01-07 13:30:37.59	290.99	14.02	-47.4	-50.1	23.0	6.06e-01	0	39	0	491782144	65	5194
2026-01-07 13:30:39.58	291.45	13.96	-47.4	-50.2	22.9	6.06e-01	0	39	0	495976448	65	5269
2026-01-07 13:30:41.58	291.90	13.90	-47.4	-50.1	23.0	6.06e-01	0	39	0	499646464	65	5205
2026-01-07 13:30:43.57	292.35	13.83	-47.4	-50.2	22.8	6.06e-01	0	39	0	503316480	65	5277
2026-01-07 13:30:45.57	292.80	13.77	-47.5	-50.3	22.9	6.07e-01	0	39	0	506986496	65	5284
2026-01-07 13:30:47.57	293.25	13.70	-47.4	-50.2	22.9	6.08e-01	0	39	0	510656512	65	5241
2026-01-07 13:30:49.57	293.70	13.63	-47.5	-50.3	22.8	6.06e-01	0	39	0	514326528	65	5324
2026-01-07 13:30:51.56	294.14	13.56	-47.6	-50.4	22.6	6.05e-01	0	39	0	517996544	65	5378
2026-01-07 13:30:53.56	294.58	13.49	-47.5	-50.3	22.8	6.07e-01	0	39	0	522190848	65	5290
2026-01-07 13:30:55.56	295.02	13.42	-47.6	-50.5	22.6	6.08e-01	0	39	0	525860864	65	5408
2026-01-07 13:30:57.56	295.46	13.34	-47.7	-50.6	22.5	6.07e-01	0	39	0	529530880	66	5198
2026-01-07 13:30:59.55	295.89	13.27	-47.6	-50.4	22.6	6.04e-01	0	39	0	533200896	66	5082
2026-01-07 13:31:01.55	296.32	13.19	-47.6	-50.4	22.7	6.06e-01	0	39	0	536870912	66	5066
2026-01-07 13:31:03.55	296.75	13.11	-47.6	-50.4	22.7	6.07e-01	0	39	0	540540928	66	5081
2026-01-07 13:31:05.54	297.18	13.04	-47.5	-50.3	22.7	6.06e-01	0	39	0	544210944	66	5017
2026-01-07 13:31:07.52	297.60	12.96	-47.5	-50.4	22.6	6.07e-01	0	40	0	548405248	66	5086
2026-01-07 13:31:09.52	298.02	12.88	-47.7	-50.7	22.4	6.07e-01	0	39	0	552075264	66	5221
2026-01-07 13:31:11.51	298.44	12.80	-47.6	-50.5	22.6	6.07e-01	0	39	0	555745280	66	5114
2026-01-07 13:31:13.51	298.86	12.71	-47.6	-50.4	22.6	6.07e-01	0	39	0	559415296	66	5088
2026-01-07 13:31:15.51	299.27	12.63	-47.6	-50.4	22.6	6.08e-01	0	39	0	563085312	66	5092
2026-01-07 13:31:17.51	299.69	12.55	-47.6	-50.6	22.5	6.07e-01	0	39	0	566755328	66	5175
2026-01-07 13:31:19.51	300.10	12.46	-47.8	-50.7	22.3	6.06e-01	0	39	0	570425344	66	5254
2026-01-07 13:31:21.50	300.50	12.37	-47.8	-50.7	22.3	6.06e-01	0	39	0	574095360	66	5234
2026-01-07 13:31:23.50	300.91	12.29	-47.7	-50.6	22.4	6.07e-01	0	40	0	578289664	66	5188
2026-01-07 13:31:25.50	301.31	12.20	-47.7	-50.6	22.4	6.07e-01	0	39	0	581959680	66	5191
2026-01-07 13:31:27.50	301.71	12.11	-47.7	-50.6	22.4	6.06e-01	0	39	0	585629696	66	5218
2026-01-07 13:31:29.50	302.11	12.02	-47.8	-50.7	22.3	6.05e-01	0	39	0	589299712	66	5251
2026-01-07 13:31:31.50	302.51	11.93	-47.8	-50.6	22.4	6.08e-01	0	39	0	592969728	66	5207
2026-01-07 13:31:33.50	302.90	11.84	-47.6	-50.5	22.5	6.04e-01	0	39	0	596639744	66	5141
2026-01-07 13:31:35.49	303.29	11.75	-47.7	-50.6	22.4	6.07e-01	0	39	0	600309760	66	5213
2026-01-07 13:31:37.49	303.68	11.65	-47.8	-50.8	22.2	6.09e-01	0	39	0	604504064	66	5317
2026-01-07 13:31:39.49	304.06	11.56	-47.8	-50.8	22.2	6.08e-01	0	39	0	608174080	66	5339
2026-01-07 13:31:41.48	304.44	11.47	-47.7	-50.6	22.4	6.07e-01	0	39	0	611844096	66	5163
2026-01-07 13:31:43.48	304.82	11.37	-47.8	-50.8	22.3	6.06e-01	0	39	0	615514112	66	5285
2026-01-07 13:31:45.48	305.20	11.28	-47.9	-50.9	22.1	6.06e-01	0	39	0	619184128	66	5358
2026-01-07 13:31:47.47	305.57	11.18	-47.8	-50.8	22.2	6.08e-01	0	39	0	622854144	66	5314
2026-01-07 13:31:49.46	305.94	11.09	-47.7	-50.9	22.2	6.06e-01	0	39	0	627048448	66	5343
2026-01-07 13:31:51.46	306.31	10.99	-47.6	-50.8	22.2	6.08e-01	0	39	0	630718464	66	5337
2026-01-07 13:31:53.46	306.68	10.89	-47.9	-50.9	22.1	6.07e-01	0	39	0	634388480	66	5397
2026-01-07 13:31:55.46	307.04	10.79	-48.0	-51.1	22.0	6.07e-01	0	39	0	638058496	66	5480
2026-01-07 13:31:57.45	307.40	10.69	-47.9	-50.9	22.0	6.08e-01	0	39	0	641728512	66	5398
2026-01-07 13:31:59.46	307.76	10.59	-47.6	-51.0	22.0	6.08e-01	0	39	0	645398528	66	5454
2026-01-07 13:32:01.45	308.12	10.49	-47.7	-51.0	21.9	6.06e-01	0	39	0	649068544	66	5462
2026-01-07 13:32:03.45	308.47	10.39	-47.7	-51.1	21.8	6.08e-01	0	39	0	652738560	66	5506
2026-01-07 13:32:05.45	308.82	10.29	-47.3	-51.0	21.7	6.09e-01	0	39	0	656932864	66	5428
2026-01-07 13:32:07.45	309.17	10.19	-46.4	-51.0	21.0	6.08e-01	0	39	0	660602880	64	6121
2026-01-07 13:32:09.43	309.51	10.09	-45.5	-51.1	20.1	6.09e-01	0	39	0	664272896	62	6943
2026-01-07 13:32:11.43	309.86	9.99	-46.1	-51.3	20.2	6.06e-01	0	39	0	667942912	63	6690
2026-01-07 13:32:13.42	310.20	9.89	-47.8	-51.2	21.5	6.08e-01	0	39	0	671612928	66	5587
2026-01-07 13:32:15.42	310.54	9.78	-48.2	-51.4	21.6	6.09e-01	0	39	0	675282944	67	5351
2026-01-07 13:32:17.41	310.87	9.68	-48.0	-51.1	21.9	6.05e-01	0	39	0	678952960	67	5169
2026-01-07 13:32:19.41	311.21	9.58	-47.9	-51.0	21.9	6.07e-01	0	39	0	683147264	67	5139
2026-01-07 13:32:21.40	311.53	9.48	-47.9	-51.2	21.8	6.09e-01	0	39	0	686817280	67	5232
2026-01-07 13:32:23.39	311.86	9.37	-47.9	-51.2	21.7	6.07e-01	0	39	0	690487296	67	5260
2026-01-07 13:32:25.38	312.19	9.27	-48.0	-51.3	21.7	6.08e-01	0	39	0	694157312	67	5303
2026-01-07 13:32:27.38	312.51	9.16	-48.0	-51.4	21.5	6.06e-01	0	39	0	697827328	67	5397
2026-01-07 13:32:29.38	312.83	9.06	-47.9	-51.4	21.6	6.08e-01	0	39	0	701497344	67	5348
2026-01-07 13:32:31.37	313.15	8.95	-53.7	-74.3	3.7	7.44e-01	0	39	104	704643072	78	39747
2026-01-07 13:32:33.37	313.47	8.85	-54.3	-74.7	3.8	7.45e-01	0	40	104	704643072	79	39533
2026-01-07 13:32:35.37	313.78	8.74	-54.3	-74.9	3.8	7.47e-01	0	39	104	704643072	79	40406
2026-01-07 13:32:37.37	314.09	8.64	-54.4	-75.0	3.8	7.46e-01	0	39	104	704643072	79	40860
2026-01-07 13:32:39.36	314.40	8.53	-54.5	-75.1	3.8	7.49e-01	0	39	104	704643072	79	41140
2026-01-07 13:32:41.36	314.71	8.43	-54.4	-75.0	3.8	7.48e-01	0	39	104	704643072	80	38625
2026-01-07 13:32:43.36	315.01	8.32	-54.4	-75.0	3.8	7.46e-01	0	39	104	704643072	80	38644
2026-01-07 13:32:45.36	315.31	8.21	-54.4	-75.0	3.8	7.46e-01	0	39	104	704643072	80	38682
2026-01-07 13:32:47.36	315.61	8.11	-54.2	-75.0	3.8	7.43e-01	0	39	104	704643072	80	38591
2026-01-07 13:32:49.36	315.91	8.00	-54.2	-75.0	3.8	7.45e-01	0	39	104	704643072	80	38510
2026-01-07 13:32:51.35	316.21	7.90	-54.1	-75.0	3.8	7.46e-01	0	39	104	704643072	80	38325
2026-01-07 13:32:53.34	316.50	7.79	-54.0	-75.0	3.8	7.43e-01	0	39	104	704643072	80	38257
2026-01-07 13:32:55.34	316.79	7.68	-54.0	-74.9	3.8	7.48e-01	0	39	104	704643072	80	38222
2026-01-07 13:32:57.33	317.08	7.58	-54.0	-74.9	3.8	7.47e-01	0	39	104	704643072	80	38240
2026-01-07 13:32:59.32	317.36	7.47	-54.0	-74.9	3.8	7.44e-01	0	39	104	704643072	80	38233
2026-01-07 13:33:01.33	317.65	7.36	-54.0	-74.9	3.8	7.44e-01	0	39	104	704643072	80	38228
2026-01-07 13:33:03.32	317.93	7.26	-54.0	-74.9	3.8	7.47e-01	0	39	104	704643072	80	38133
2026-01-07 13:33:05.31	318.21	7.15	-54.0	-74.9	3.8	7.45e-01	0	40	104	704643072	80	38172
2026-01-07 13:33:07.31	318.49	7.04	-54.0	-74.9	3.8	7.48e-01	0	40	104	704643072	80	38152
2026-01-07 13:33:09.30	318.76	6.93	-54.0	-74.9	3.8	7.45e-01	0	39	104	704643072	80	38183
2026-01-07 13:33:11.30	319.03	6.83	-54.0	-74.9	3.8	7.46e-01	0	39	104	704643072	80	38155
2026-01-07 13:33:13.30	319.30	6.72	-54.0	-74.9	3.8	7.47e-01	0	39	104	704643072	80	38187
2026-01-07 13:33:15.30	319.57	6.61	-54.0	-74.9	3.8	7.48e-01	0	39	104	704643072	80	38161
2026-01-07 13:33:17.30	319.84	6.51	-54.0	-74.9	3.8	7.46e-01	0	40	104	704643072	80	38149
2026-01-07 13:33:19.30	320.11	6.40	-54.0	-74.9	3.8	7.46e-01	0	40	104	704643072	80	38104
2026-01-07 13:33:21.30	320.37	6.29	-54.0	-74.9	3.8	7.47e-01	0	39	104	704643072	80	38188
2026-01-07 13:33:23.30	320.63	6.18	-54.0	-74.9	3.8	7.46e-01	0	39	104	704643072	80	38119
2026-01-07 13:33:25.29	320.89	6.08	-54.0	-74.9	3.8	7.45e-01	0	39	104	704643072	80	38183
2026-01-07 13:33:27.29	321.15	5.97	-54.0	-74.9	3.8	7.45e-01	0	39	104	704643072	80	38144
2026-01-07 13:33:29.29	321.40	5.86	-54.0	-74.9	3.8	7.48e-01	0	39	104	704643072	80	38179
