passes_logs/2026/01/07/T1/T1__20260107_144243_FENGYUN_3E_rec.log

#Pass ID: 20260107_144243_FENGYUN 3E
#Satellite: FENGYUN 3E
#Configuration: FENGYUN 3E
#almurnet v.1.7.20251203
#Start time: 2026-01-07 14:42:43

#Version: 2.0.20230620
#Station: T1
#Location: 37.570604 lon 55.790049 lat
#TLE: 1 49008U 21062A   26006.26767912  .00000427  00000+0  22170-3 0  9993
#TLE: 2 49008  98.7475  11.4982 0001602 156.1158 204.0093 14.19885456233607

#Time	Az	El	Level	Level2	SNR	BER	BlckErr	Temp	State	Recorded	gain1	gain2
2026-01-07 14:42:43.99	176.21	5.04	-53.1	-64.2	3.8	8.48e-01	0	40	0	0	76	13095
2026-01-07 14:42:47.00	176.30	5.26	-51.9	-63.0	3.8	8.47e-01	0	41	104	0	74	12678
2026-01-07 14:42:50.01	176.39	5.47	-51.9	-62.9	3.8	8.46e-01	0	41	104	0	74	12566
2026-01-07 14:42:53.02	176.48	5.69	-52.0	-63.0	3.8	8.46e-01	0	41	104	0	74	12769
2026-01-07 14:42:56.04	176.57	5.91	-52.0	-63.2	3.8	8.47e-01	0	41	104	0	74	12984
2026-01-07 14:42:59.05	176.67	6.13	-52.0	-63.3	3.8	8.46e-01	0	41	104	0	74	13164
2026-01-07 14:43:02.06	176.76	6.35	-51.9	-62.9	3.8	8.46e-01	0	41	104	0	74	12623
2026-01-07 14:43:05.08	176.86	6.57	-51.8	-61.7	3.8	8.46e-01	0	41	104	0	74	10961
2026-01-07 14:43:08.09	176.96	6.80	-51.6	-60.6	4.1	8.42e-01	0	41	0	0	74	9682
2026-01-07 14:43:11.10	177.06	7.03	-51.4	-59.3	4.5	8.25e-01	0	41	0	0	73	8796
2026-01-07 14:43:14.11	177.16	7.26	-50.3	-55.3	7.2	1.81e-01	0	41	0	7340032	71	6272
2026-01-07 14:43:17.13	177.26	7.49	-47.9	-50.8	11.7	1.31e-03	0	41	0	29360128	66	4980
2026-01-07 14:43:20.14	177.37	7.72	-46.0	-48.2	14.4	0.00e+00	0	42	0	51380224	62	4620
2026-01-07 14:43:23.15	177.47	7.96	-45.2	-47.2	15.4	0.00e+00	0	42	0	73400320	61	4361
2026-01-07 14:43:26.17	177.58	8.20	-45.6	-47.7	14.9	0.00e+00	0	42	0	94371840	60	4888
2026-01-07 14:43:29.18	177.69	8.44	-47.2	-49.8	12.9	5.37e-05	0	42	0	116391936	63	5222
2026-01-07 14:43:32.19	177.80	8.68	-49.6	-53.7	8.9	2.65e-02	0	42	0	138412032	68	6165
2026-01-07 14:43:35.21	177.91	8.93	-51.1	-58.1	5.1	7.29e-01	0	42	0	157286400	71	8572
2026-01-07 14:43:38.30	178.03	9.18	-51.4	-58.6	4.8	8.16e-01	0	42	0	157286400	72	8574
2026-01-07 14:43:41.26	178.14	9.43	-51.3	-57.8	5.2	7.80e-01	0	42	0	164626432	73	7430
2026-01-07 14:43:44.60	178.28	9.71	-50.2	-54.9	7.7	1.22e-01	0	42	0	186646528	71	5947
2026-01-07 14:43:47.32	178.38	9.94	-48.9	-52.4	10.3	8.99e-03	0	42	0	205520896	68	5301
2026-01-07 14:43:51.14	178.54	10.26	-48.2	-51.5	11.1	3.50e-03	0	42	0	233832448	67	5050
2026-01-07 14:43:53.97	178.66	10.51	-46.8	-49.4	13.2	1.18e-03	0	42	0	253755392	64	4727
2026-01-07 14:43:57.12	178.79	10.78	-46.4	-48.7	14.1	3.40e-06	0	43	0	276824064	63	4601
2026-01-07 14:44:00.05	178.91	11.04	-46.1	-48.2	14.5	1.10e-06	0	43	0	297795584	62	4631
2026-01-07 14:44:03.20	179.05	11.32	-44.0	-45.6	16.9	0.00e+00	0	43	0	320864256	58	4299
2026-01-07 14:44:06.13	179.18	11.59	-43.5	-45.1	17.4	0.00e+00	0	43	0	341835776	57	4298
2026-01-07 14:44:09.43	179.33	11.89	-42.2	-43.7	18.5	0.00e+00	0	43	0	365953024	55	4114
2026-01-07 14:44:12.34	179.46	12.16	-42.1	-43.6	18.6	0.00e+00	0	43	0	386924544	54	4300
2026-01-07 14:44:16.10	179.64	12.51	-41.6	-43.0	19.1	0.00e+00	0	42	0	414187520	53	4251
2026-01-07 14:44:19.00	179.78	12.78	-41.4	-42.8	19.3	0.00e+00	0	43	0	435159040	53	4189
2026-01-07 14:44:22.15	179.93	13.08	-41.2	-42.6	19.4	0.00e+00	0	43	0	457179136	53	4091
2026-01-07 14:44:25.34	180.09	13.39	-41.1	-42.5	19.5	0.00e+00	0	43	0	480247808	53	4050
2026-01-07 14:44:28.57	180.25	13.71	-41.0	-42.4	19.6	0.00e+00	0	43	0	503316480	52	4223
2026-01-07 14:44:31.62	180.41	14.01	-41.0	-42.3	19.7	0.00e+00	0	43	0	525336576	52	4178
2026-01-07 14:44:35.15	180.59	14.36	-40.7	-42.1	19.9	0.00e+00	0	43	0	551550976	52	4056
2026-01-07 14:44:38.21	180.76	14.68	-40.6	-42.0	20.0	0.00e+00	0	43	0	573571072	52	4029
2026-01-07 14:44:41.44	180.93	15.01	-40.7	-42.1	19.9	0.00e+00	0	43	0	596639744	51	4312
2026-01-07 14:44:44.31	181.10	15.31	-40.7	-42.1	20.0	0.00e+00	0	43	0	617611264	51	4300
2026-01-07 14:44:47.46	181.27	15.64	-40.8	-42.2	19.8	0.00e+00	0	43	0	640679936	51	4380
2026-01-07 14:44:50.33	181.44	15.95	-40.6	-42.0	20.0	0.00e+00	0	43	0	660602880	51	4271
2026-01-07 14:44:53.61	181.64	16.30	-40.5	-41.9	20.0	0.00e+00	0	43	0	684720128	51	4226
2026-01-07 14:44:56.33	181.80	16.60	-40.5	-41.9	20.0	0.00e+00	0	43	0	703594496	51	4235
2026-01-07 14:44:59.63	182.01	16.97	-40.7	-42.1	19.9	0.00e+00	0	43	0	727711744	51	4292
2026-01-07 14:45:02.96	182.22	17.34	-40.3	-41.7	20.2	0.00e+00	0	43	0	751828992	51	4127
2026-01-07 14:45:05.71	182.40	17.66	-40.3	-41.7	20.2	0.00e+00	0	43	0	771751936	50	4352
2026-01-07 14:45:09.01	182.61	18.04	-40.1	-41.5	20.4	0.00e+00	0	43	0	795869184	50	4267
2026-01-07 14:45:11.73	182.80	18.36	-40.0	-41.3	20.5	0.00e+00	0	43	0	815792128	50	4184
2026-01-07 14:45:15.04	183.03	18.75	-39.9	-41.2	20.6	0.00e+00	0	43	0	838860800	50	4130
2026-01-07 14:45:18.05	183.24	19.11	-39.8	-41.1	20.7	0.00e+00	0	43	0	860880896	50	4095
2026-01-07 14:45:21.06	183.46	19.48	-40.0	-41.3	20.5	0.00e+00	0	43	0	882900992	50	4173
2026-01-07 14:45:24.05	183.68	19.85	-39.8	-41.1	20.7	0.00e+00	0	43	0	904921088	50	4088
2026-01-07 14:45:27.28	183.93	20.26	-39.9	-41.2	20.7	0.00e+00	0	43	0	927989760	50	4135
2026-01-07 14:45:30.24	184.16	20.64	-39.8	-41.1	20.8	0.00e+00	0	43	0	948961280	50	4090
2026-01-07 14:45:33.84	184.45	21.10	-40.1	-41.4	20.6	0.00e+00	0	43	0	975175680	50	4209
2026-01-07 14:45:36.56	184.67	21.46	-40.2	-41.6	20.4	0.00e+00	0	43	0	995098624	50	4293
2026-01-07 14:45:39.86	184.95	21.90	-40.0	-41.3	20.6	0.00e+00	0	43	0	1018167296	50	4167
2026-01-07 14:45:42.59	185.18	22.27	-39.8	-41.1	20.8	0.00e+00	0	43	0	1038090240	50	4082
2026-01-07 14:45:45.88	185.47	22.73	-39.7	-40.9	20.9	0.00e+00	0	43	0	1062207488	50	3995
2026-01-07 14:45:48.61	185.72	23.11	-39.7	-41.0	20.9	0.00e+00	0	43	0	1082130432	49	4250
2026-01-07 14:45:51.90	186.03	23.57	-39.6	-40.9	20.9	0.00e+00	0	43	0	1105199104	49	4219
2026-01-07 14:45:54.62	186.29	23.96	-39.3	-40.5	21.2	0.00e+00	0	43	0	1125122048	49	4029
2026-01-07 14:45:57.92	186.61	24.44	-39.2	-40.5	21.3	0.00e+00	0	43	0	1149239296	48	4244
2026-01-07 14:46:00.82	186.91	24.87	-39.2	-40.5	21.3	0.00e+00	0	43	0	1170210816	48	4263
2026-01-07 14:46:04.56	187.30	25.44	-39.1	-40.3	21.4	0.00e+00	0	43	0	1196425216	48	4186
2026-01-07 14:46:07.33	187.59	25.86	-38.9	-40.2	21.5	0.00e+00	0	43	0	1216348160	48	4107
2026-01-07 14:46:11.09	188.01	26.45	-38.9	-40.2	21.5	0.00e+00	0	43	0	1243611136	48	4130
2026-01-07 14:46:13.86	188.32	26.89	-38.9	-40.2	21.5	0.00e+00	0	43	0	1263534080	48	4138
2026-01-07 14:46:17.72	188.78	27.51	-38.9	-40.1	21.6	0.00e+00	0	43	0	1291845632	48	4081
2026-01-07 14:46:20.47	189.12	27.96	-38.7	-39.9	21.8	0.00e+00	0	43	0	1311768576	48	3998
2026-01-07 14:46:24.21	189.59	28.58	-38.4	-39.6	21.7	0.00e+00	0	43	0	1339031552	46	4301
2026-01-07 14:46:27.06	189.96	29.07	-38.3	-39.5	21.8	0.00e+00	0	43	0	1358954496	46	4291
2026-01-07 14:46:30.31	190.39	29.63	-38.5	-39.7	21.7	0.00e+00	0	43	0	1383071744	46	4378
2026-01-07 14:46:33.17	190.79	30.13	-38.6	-39.8	21.6	0.00e+00	0	43	0	1402994688	46	4436
2026-01-07 14:46:36.32	191.24	30.69	-38.8	-40.1	21.3	0.00e+00	0	43	0	1426063360	47	4337
2026-01-07 14:46:39.19	191.67	31.21	-38.6	-39.9	21.4	0.00e+00	0	43	0	1447034880	47	4219
2026-01-07 14:46:42.35	192.15	31.78	-38.6	-39.9	21.4	0.00e+00	0	43	0	1470103552	47	4239
2026-01-07 14:46:45.21	192.60	32.32	-38.3	-39.6	21.7	0.00e+00	0	43	0	1490026496	47	4074
2026-01-07 14:46:48.44	193.13	32.93	-38.5	-39.8	21.5	0.00e+00	0	43	0	1513095168	47	4176
2026-01-07 14:46:51.31	193.61	33.48	-38.4	-39.7	21.6	0.00e+00	0	43	0	1534066688	47	4124
2026-01-07 14:46:54.45	194.16	34.09	-38.4	-39.7	21.6	0.00e+00	0	43	0	1557135360	47	4127
2026-01-07 14:46:57.31	194.68	34.65	-38.6	-39.9	21.5	0.00e+00	0	43	0	1577058304	46	4460
2026-01-07 14:47:00.46	195.28	35.28	-38.6	-39.9	21.4	0.00e+00	0	43	0	1600126976	47	4213
2026-01-07 14:47:03.33	195.84	35.87	-38.7	-40.0	21.4	0.00e+00	0	43	0	1621098496	47	4264
2026-01-07 14:47:06.57	196.49	36.53	-38.8	-40.0	21.7	0.00e+00	0	44	0	1644167168	48	4018
2026-01-07 14:47:09.49	197.11	37.14	-39.1	-40.4	21.4	0.00e+00	0	43	0	1665138688	48	4231
2026-01-07 14:47:12.74	197.82	37.83	-39.1	-40.4	21.5	0.00e+00	0	43	0	1689255936	48	4221
2026-01-07 14:47:15.69	198.49	38.46	-39.1	-40.3	21.6	0.00e+00	0	43	0	1710227456	48	4186
2026-01-07 14:47:19.26	199.34	39.23	-39.0	-40.3	21.2	0.00e+00	0	43	0	1736441856	47	4427
2026-01-07 14:47:22.04	200.03	39.85	-39.4	-40.7	21.2	0.00e+00	0	43	0	1756364800	48	4391
2026-01-07 14:47:25.48	200.92	40.61	-38.8	-40.0	21.8	0.00e+00	0	43	0	1781530624	48	4027
2026-01-07 14:47:28.20	201.65	41.22	-38.7	-40.0	21.5	0.00e+00	0	43	0	1800404992	47	4267
2026-01-07 14:47:31.50	202.58	41.97	-39.1	-40.5	21.1	0.00e+00	0	43	0	1824522240	47	4500
2026-01-07 14:47:34.22	203.37	42.59	-39.2	-40.4	21.6	0.00e+00	0	44	0	1844445184	48	4211
2026-01-07 14:47:37.51	204.38	43.34	-39.7	-41.0	21.1	0.00e+00	0	43	0	1867513856	48	4529
2026-01-07 14:47:40.53	205.34	44.04	-39.2	-40.4	21.5	0.00e+00	0	43	0	1889533952	48	4224
2026-01-07 14:47:43.54	206.35	44.74	-39.1	-40.4	21.6	0.00e+00	0	43	0	1911554048	48	4203
2026-01-07 14:47:46.55	207.39	45.44	-39.2	-40.4	21.7	0.00e+00	0	44	0	1933574144	48	4196
2026-01-07 14:47:49.73	208.55	46.18	-39.5	-40.8	21.3	0.00e+00	0	43	0	1956642816	48	4395
2026-01-07 14:47:52.62	209.65	46.86	-40.4	-41.3	21.4	0.00e+00	0	44	0	1976565760	50	4166
2026-01-07 14:47:55.78	210.91	47.60	-40.6	-41.5	21.2	0.00e+00	0	44	0	1999634432	50	4250
2026-01-07 14:47:58.65	212.11	48.27	-39.8	-40.7	21.8	0.00e+00	0	43	0	2020605952	50	3879
2026-01-07 14:48:01.85	213.50	49.01	-40.3	-41.2	21.4	0.00e+00	0	43	0	2043674624	50	4129
2026-01-07 14:48:04.79	214.84	49.68	-40.5	-41.4	21.3	0.00e+00	0	44	0	2064646144	50	4198
2026-01-07 14:48:08.08	216.41	50.43	-40.9	-41.8	20.9	0.00e+00	0	44	0	2088763392	51	4173
2026-01-07 14:48:11.42	218.08	51.17	-40.7	-41.6	21.1	0.00e+00	0	43	0	2112880640	51	4068
2026-01-07 14:48:14.14	219.51	51.77	-41.0	-41.9	20.8	0.00e+00	0	43	0	2132803584	51	4230
2026-01-07 14:48:17.44	221.32	52.48	-40.7	-41.6	21.1	0.00e+00	0	43	0	2155872256	51	4093
2026-01-07 14:48:20.16	222.87	53.05	-40.7	-41.6	21.1	0.00e+00	0	43	0	2175795200	51	4091
2026-01-07 14:48:23.45	224.83	53.71	-40.8	-41.7	21.0	0.00e+00	0	43	0	2199912448	51	4099
2026-01-07 14:48:26.17	226.52	54.24	-40.6	-41.5	21.2	0.00e+00	0	44	0	2218786816	51	4038
2026-01-07 14:48:29.47	228.65	54.86	-40.5	-41.3	21.4	0.00e+00	0	43	0	2242904064	51	3951
2026-01-07 14:48:32.30	230.55	55.36	-40.7	-41.6	21.1	0.00e+00	0	43	0	2263875584	51	4095
2026-01-07 14:48:35.66	232.89	55.93	-41.0	-41.9	20.7	0.00e+00	0	43	0	2287992832	52	3997
2026-01-07 14:48:38.67	235.07	56.39	-41.4	-42.4	20.3	0.00e+00	0	44	0	2308964352	52	4216
2026-01-07 14:48:41.68	237.31	56.82	-40.6	-41.5	21.2	0.00e+00	0	44	0	2330984448	51	4039
2026-01-07 14:48:44.99	239.86	57.25	-40.8	-41.7	21.0	0.00e+00	0	43	0	2355101696	51	4123
2026-01-07 14:48:47.94	242.20	57.58	-41.1	-42.0	20.7	0.00e+00	0	43	0	2376073216	52	4044
2026-01-07 14:48:51.23	244.87	57.91	-40.7	-41.6	21.1	0.00e+00	0	44	0	2400190464	51	4091
2026-01-07 14:48:53.96	247.12	58.13	-40.3	-41.1	21.5	0.00e+00	0	43	0	2420113408	51	3853
2026-01-07 14:48:57.25	249.89	58.35	-40.7	-41.6	21.2	0.00e+00	0	44	0	2443182080	50	4295
2026-01-07 14:48:59.98	252.22	58.48	-41.0	-42.0	20.8	0.00e+00	0	43	0	2463105024	51	4243
2026-01-07 14:49:03.19	254.98	58.58	-40.7	-41.6	21.1	0.00e+00	0	43	0	2486173696	51	4096
2026-01-07 14:49:06.55	257.88	58.62	-40.5	-41.4	21.3	0.00e+00	0	43	0	2510290944	51	3972
2026-01-07 14:49:09.27	260.23	58.60	-40.8	-41.7	21.0	0.00e+00	0	44	0	2530213888	51	4126
2026-01-07 14:49:12.57	263.07	58.52	-40.5	-41.4	21.3	0.00e+00	0	44	0	2554331136	51	3964
2026-01-07 14:49:15.71	265.75	58.38	-40.8	-41.8	21.0	0.00e+00	0	43	0	2576351232	51	4148
2026-01-07 14:49:18.57	268.17	58.21	-40.7	-41.6	21.2	0.00e+00	0	44	0	2597322752	51	4061
2026-01-07 14:49:21.77	270.83	57.96	-41.0	-42.0	20.8	0.00e+00	0	43	0	2620391424	51	4244
2026-01-07 14:49:24.72	273.23	57.69	-40.5	-41.4	21.3	0.00e+00	0	44	0	2641362944	51	3969
2026-01-07 14:49:27.93	275.79	57.34	-40.7	-41.6	21.2	0.00e+00	0	43	0	2665480192	51	4069
2026-01-07 14:49:30.79	278.00	56.98	-40.3	-41.2	21.5	0.00e+00	0	44	0	2685403136	51	3870
2026-01-07 14:49:34.12	280.51	56.52	-41.2	-42.1	20.6	0.00e+00	0	44	0	2709520384	52	4094
2026-01-07 14:49:37.32	282.84	56.04	-40.9	-41.8	20.9	0.00e+00	0	44	0	2732589056	52	3944
2026-01-07 14:49:40.25	284.90	55.56	-40.7	-41.6	21.1	0.00e+00	0	44	0	2753560576	51	4074
2026-01-07 14:49:43.49	287.10	54.99	-41.1	-42.1	20.7	0.00e+00	0	44	0	2777677824	52	4070
2026-01-07 14:49:46.36	288.97	54.46	-40.9	-41.8	20.9	0.00e+00	0	44	0	2797600768	52	3927
2026-01-07 14:49:49.51	290.95	53.86	-41.0	-41.9	20.8	0.00e+00	0	44	0	2820669440	52	3988
2026-01-07 14:49:52.63	292.82	53.23	-40.5	-41.4	21.3	0.00e+00	0	43	0	2843738112	51	3980
2026-01-07 14:49:55.63	294.55	52.61	-41.1	-42.1	20.7	0.00e+00	0	43	0	2864709632	51	4298
2026-01-07 14:49:58.64	296.21	51.97	-40.8	-41.7	21.0	0.00e+00	0	43	0	2886729728	51	4143
2026-01-07 14:50:01.65	297.80	51.32	-41.3	-42.2	20.5	0.00e+00	0	43	0	2908749824	52	4130
2026-01-07 14:50:04.63	299.31	50.66	-40.9	-41.8	20.9	0.00e+00	0	43	0	2929721344	52	3922
2026-01-07 14:50:07.88	300.88	49.93	-40.8	-41.7	20.9	0.00e+00	0	44	0	2953838592	52	3887
2026-01-07 14:50:10.81	302.23	49.26	-40.4	-41.3	21.3	0.00e+00	0	43	0	2974810112	51	3935
2026-01-07 14:50:14.12	303.69	48.50	-40.2	-41.1	21.6	0.00e+00	0	44	0	2997878784	51	3827
2026-01-07 14:50:17.36	305.05	47.75	-40.7	-41.6	21.1	0.00e+00	0	43	0	3021996032	51	4081
2026-01-07 14:50:20.51	306.31	47.02	-40.5	-41.3	21.1	0.00e+00	0	44	0	3044016128	51	3949
2026-01-07 14:50:23.37	307.41	46.35	-39.9	-40.8	21.9	0.00e+00	0	44	0	3064987648	50	3921
2026-01-07 14:50:26.61	308.60	45.60	-39.7	-40.6	22.0	0.00e+00	0	44	0	3088056320	50	3831
2026-01-07 14:50:29.47	309.60	44.93	-39.8	-40.6	22.0	0.00e+00	0	44	0	3109027840	49	4092
2026-01-07 14:50:32.62	310.66	44.20	-39.6	-40.5	22.1	0.00e+00	0	44	0	3132096512	49	4026
2026-01-07 14:50:35.63	311.62	43.51	-39.4	-40.2	22.3	0.00e+00	0	43	0	3154116608	49	3889
2026-01-07 14:50:39.23	312.73	42.69	-39.3	-40.2	22.4	0.00e+00	0	44	0	3179282432	49	3877
2026-01-07 14:50:41.95	313.53	42.07	-39.8	-40.6	21.9	0.00e+00	0	44	0	3199205376	49	4093
2026-01-07 14:50:45.25	314.45	41.33	-39.6	-40.4	22.1	0.00e+00	0	43	0	3223322624	49	4001
2026-01-07 14:50:48.00	315.20	40.71	-39.3	-40.2	22.3	0.00e+00	0	43	0	3243245568	49	3880
2026-01-07 14:50:51.30	316.05	39.98	-39.4	-40.3	22.3	0.00e+00	0	44	0	3266314240	49	3917
2026-01-07 14:50:54.36	316.81	39.31	-39.4	-40.2	22.3	0.00e+00	0	44	0	3288334336	49	3896
2026-01-07 14:50:57.65	317.59	38.60	-39.6	-40.5	22.1	0.00e+00	0	43	0	3312451584	49	4005
2026-01-07 14:51:00.38	318.22	38.02	-39.7	-40.6	22.0	0.00e+00	0	44	0	3332374528	49	4068
2026-01-07 14:51:03.59	318.93	37.34	-39.3	-40.1	22.4	0.00e+00	0	44	0	3355443200	49	3859
2026-01-07 14:51:06.60	319.56	36.72	-39.0	-39.8	22.6	0.00e+00	0	44	0	3377463296	48	3951
2026-01-07 14:51:09.64	320.18	36.09	-38.9	-39.7	22.7	0.00e+00	0	43	0	3399483392	48	3905
2026-01-07 14:51:12.74	320.79	35.46	-39.0	-39.8	22.6	0.00e+00	0	43	0	3421503488	48	3942
2026-01-07 14:51:15.63	321.34	34.89	-39.2	-40.1	22.4	0.00e+00	0	43	0	3442475008	48	4056
2026-01-07 14:51:18.78	321.92	34.27	-39.5	-40.4	22.1	0.00e+00	0	43	0	3465543680	48	4231
2026-01-07 14:51:21.64	322.42	33.71	-39.4	-40.3	22.2	0.00e+00	0	43	0	3485466624	48	4181
2026-01-07 14:51:24.79	322.96	33.11	-39.1	-39.9	22.6	0.00e+00	0	43	0	3508535296	48	3990
2026-01-07 14:51:27.65	323.43	32.57	-38.8	-39.7	22.8	0.00e+00	0	43	0	3529506816	48	3880
2026-01-07 14:51:31.24	324.00	31.90	-38.9	-39.8	22.6	0.00e+00	0	43	0	3554672640	48	3928
2026-01-07 14:51:33.96	324.42	31.41	-39.1	-40.0	22.2	0.00e+00	0	44	0	3574595584	48	4023
2026-01-07 14:51:37.26	324.91	30.81	-39.2	-40.1	22.4	0.00e+00	0	44	0	3598712832	48	4055
2026-01-07 14:51:39.98	325.30	30.33	-39.4	-40.2	22.2	0.00e+00	0	43	0	3618635776	48	4125
2026-01-07 14:51:43.98	325.86	29.63	-39.4	-40.3	22.2	0.00e+00	0	43	0	3646947328	48	4154
2026-01-07 14:51:46.72	326.22	29.17	-39.5	-40.4	22.1	0.00e+00	0	43	0	3666870272	48	4217
2026-01-07 14:51:50.46	326.71	28.54	-39.5	-40.4	22.1	0.00e+00	0	44	0	3694133248	48	4230
2026-01-07 14:51:53.39	327.08	28.05	-39.5	-40.4	22.1	0.00e+00	0	44	0	3715104768	48	4232
2026-01-07 14:51:56.60	327.47	27.53	-39.6	-40.5	21.9	0.00e+00	0	43	0	3738173440	48	4270
2026-01-07 14:51:59.70	327.83	27.03	-39.6	-40.5	22.0	0.00e+00	0	43	0	3760193536	48	4247
2026-01-07 14:52:03.00	328.21	26.51	-39.4	-40.3	22.2	0.00e+00	0	44	0	3784310784	48	4163
2026-01-07 14:52:05.72	328.51	26.09	-39.5	-40.3	22.2	0.00e+00	0	44	0	3804233728	48	4182
2026-01-07 14:52:09.03	328.87	25.58	-39.4	-40.3	22.2	0.00e+00	0	44	0	3828350976	48	4187
2026-01-07 14:52:12.13	329.20	25.12	-39.6	-40.5	22.0	0.00e+00	0	44	0	3850371072	48	4265
2026-01-07 14:52:15.48	329.54	24.62	-39.7	-40.6	22.0	0.00e+00	0	43	0	3874488320	48	4297
2026-01-07 14:52:18.20	329.81	24.23	-39.6	-40.5	22.0	0.00e+00	0	43	0	3894411264	48	4274
2026-01-07 14:52:21.53	330.13	23.75	-39.8	-40.7	21.9	0.00e+00	0	43	0	3918528512	49	4109
2026-01-07 14:52:24.25	330.39	23.36	-39.9	-40.8	21.8	0.00e+00	0	43	0	3937402880	49	4154
2026-01-07 14:52:27.77	330.71	22.87	-39.9	-40.8	21.8	0.00e+00	0	44	0	3962568704	49	4166
2026-01-07 14:52:30.57	330.96	22.49	-40.0	-40.9	21.6	0.00e+00	0	43	0	3983540224	49	4196
2026-01-07 14:52:33.98	331.25	22.03	-40.0	-41.0	21.6	0.00e+00	0	44	0	4007657472	49	4246
2026-01-07 14:52:36.76	331.49	21.66	-39.9	-40.8	21.6	0.00e+00	0	43	0	4027580416	49	4191
2026-01-07 14:52:40.18	331.77	21.21	-40.1	-41.0	21.6	0.00e+00	0	44	0	4052746240	49	4261
2026-01-07 14:52:43.19	332.01	20.82	-40.2	-41.1	21.4	0.00e+00	0	43	0	4074766336	49	4328
2026-01-07 14:52:46.49	332.27	20.40	-40.4	-41.3	21.3	0.00e+00	0	43	0	4097835008	50	4161
2026-01-07 14:52:49.21	332.48	20.06	-40.5	-41.4	21.2	0.00e+00	0	43	0	4117757952	50	4237
2026-01-07 14:52:52.53	332.73	19.65	-40.8	-41.7	20.9	0.00e+00	0	43	0	4141875200	50	4383
2026-01-07 14:52:55.66	332.96	19.27	-40.8	-41.8	20.8	0.00e+00	0	44	0	4163895296	51	4150
2026-01-07 14:52:58.98	333.20	18.87	-40.8	-41.8	20.8	0.00e+00	0	44	0	4188012544	51	4165
2026-01-07 14:53:01.70	333.39	18.55	-40.8	-41.8	20.8	0.00e+00	0	44	0	4207935488	51	4186
2026-01-07 14:53:05.00	333.61	18.16	-40.8	-41.8	20.8	0.00e+00	0	44	0	4232052736	51	4158
2026-01-07 14:53:08.07	333.82	17.81	-40.9	-41.8	20.8	0.00e+00	0	43	0	4254072832	51	4178
2026-01-07 14:53:11.77	334.06	17.39	-40.8	-41.8	20.8	0.00e+00	0	44	0	4280287232	51	4151
2026-01-07 14:53:14.76	334.25	17.06	-41.0	-42.0	20.6	0.00e+00	0	44	0	4302307328	51	4256
2026-01-07 14:53:18.50	334.48	16.64	-41.0	-41.9	20.6	0.00e+00	0	44	0	4329570304	51	4233
2026-01-07 14:53:21.49	334.67	16.32	-41.1	-42.1	20.5	0.00e+00	0	44	0	4350541824	51	4302
2026-01-07 14:53:25.24	334.89	15.92	-41.3	-42.3	20.2	0.00e+00	0	44	0	4377804800	52	4183
2026-01-07 14:53:28.01	335.05	15.62	-41.2	-42.1	20.4	0.00e+00	0	44	0	4397727744	52	4091
2026-01-07 14:53:31.64	335.26	15.25	-41.5	-42.6	20.0	0.00e+00	0	43	0	4423942144	52	4296
2026-01-07 14:53:34.60	335.42	14.94	-41.4	-42.4	20.1	0.00e+00	0	44	0	4445962240	52	4231
2026-01-07 14:53:37.70	335.59	14.63	-41.5	-42.5	20.0	0.00e+00	0	44	0	4467982336	52	4257
2026-01-07 14:53:41.00	335.77	14.29	-41.6	-42.6	19.9	0.00e+00	0	44	0	4492099584	52	4310
2026-01-07 14:53:43.90	335.92	14.01	-41.7	-42.7	19.8	0.00e+00	0	44	0	4513071104	52	4361
2026-01-07 14:53:47.25	336.10	13.68	-41.7	-42.7	19.8	0.00e+00	0	44	0	4537188352	52	4378
2026-01-07 14:53:50.01	336.24	13.41	-41.7	-42.7	19.8	0.00e+00	0	44	0	4557111296	52	4391
2026-01-07 14:53:53.65	336.42	13.06	-41.6	-42.7	19.7	0.00e+00	0	44	0	4583325696	52	4381
2026-01-07 14:53:56.57	336.56	12.79	-41.7	-42.8	19.7	0.00e+00	0	44	0	4604297216	52	4412
2026-01-07 14:53:59.86	336.72	12.48	-41.8	-42.9	19.6	0.00e+00	0	44	0	4627365888	53	4203
2026-01-07 14:54:02.58	336.85	12.23	-41.9	-43.0	19.4	0.00e+00	0	44	0	4647288832	53	4273
2026-01-07 14:54:06.04	337.01	11.91	-42.0	-43.1	19.3	0.00e+00	0	44	0	4672454656	53	4329
2026-01-07 14:54:08.89	337.14	11.65	-42.0	-43.2	19.2	0.00e+00	0	44	0	4693426176	53	4367
2026-01-07 14:54:12.18	337.28	11.36	-42.2	-43.5	19.0	0.00e+00	0	44	0	4716494848	54	4247
2026-01-07 14:54:14.90	337.40	11.12	-42.4	-43.6	18.9	0.00e+00	0	44	0	4736417792	54	4301
2026-01-07 14:54:18.20	337.55	10.83	-42.5	-43.7	18.8	0.00e+00	0	44	0	4760535040	54	4367
2026-01-07 14:54:21.11	337.67	10.58	-42.7	-43.9	18.6	0.00e+00	0	43	0	4781506560	54	4443
2026-01-07 14:54:24.12	337.80	10.32	-42.8	-44.0	18.4	0.00e+00	0	43	0	4802478080	55	4267
2026-01-07 14:54:27.13	337.92	10.06	-42.8	-44.0	18.4	0.00e+00	0	43	0	4824498176	55	4283
2026-01-07 14:54:30.24	338.05	9.80	-43.0	-44.3	18.1	0.00e+00	0	44	0	4847566848	55	4428
2026-01-07 14:54:33.20	338.17	9.56	-43.4	-44.7	17.9	0.00e+00	0	44	0	4868538368	56	4369
2026-01-07 14:54:36.57	338.30	9.28	-43.4	-44.7	17.9	0.00e+00	0	43	0	4892655616	56	4363
2026-01-07 14:54:39.30	338.41	9.06	-43.5	-44.8	17.8	0.00e+00	0	44	0	4912578560	56	4401
2026-01-07 14:54:42.60	338.53	8.79	-52.5	-64.2	3.8	8.46e-01	0	44	104	4916772864	75	13785
2026-01-07 14:54:45.32	338.63	8.57	-52.3	-64.4	3.8	8.47e-01	0	44	104	4916772864	75	14069
2026-01-07 14:54:48.62	338.76	8.31	-53.3	-64.5	3.8	8.47e-01	0	44	104	4916772864	76	13548
2026-01-07 14:54:51.35	338.86	8.10	-53.6	-64.5	3.8	8.46e-01	0	44	104	4916772864	76	13512
2026-01-07 14:54:54.65	338.98	7.84	-53.8	-64.6	3.8	8.47e-01	0	44	104	4916772864	77	12868
2026-01-07 14:54:57.37	339.07	7.63	-53.8	-64.6	3.8	8.47e-01	0	44	104	4916772864	77	12851
2026-01-07 14:55:00.67	339.19	7.38	-53.5	-64.5	3.8	8.46e-01	0	44	104	4916772864	77	12792
2026-01-07 14:55:03.39	339.28	7.17	-53.5	-64.5	3.8	8.47e-01	0	44	104	4916772864	77	12747
2026-01-07 14:55:06.70	339.40	6.92	-53.4	-64.5	3.8	8.46e-01	0	44	104	4916772864	77	12666
2026-01-07 14:55:09.42	339.49	6.72	-53.4	-64.5	3.8	8.47e-01	0	44	104	4916772864	77	12689
2026-01-07 14:55:12.72	339.60	6.47	-53.4	-64.4	3.8	8.47e-01	0	44	104	4916772864	77	12653
2026-01-07 14:55:15.45	339.69	6.27	-53.4	-64.4	3.8	8.48e-01	0	44	104	4916772864	77	12657
2026-01-07 14:55:18.75	339.79	6.03	-53.4	-64.4	3.8	8.46e-01	0	44	104	4916772864	77	12640
2026-01-07 14:55:21.47	339.88	5.84	-53.4	-64.5	3.8	8.47e-01	0	44	104	4916772864	77	12768
2026-01-07 14:55:24.77	339.99	5.60	-53.4	-64.5	3.8	8.47e-01	0	44	104	4916772864	77	12690
2026-01-07 14:55:27.50	340.07	5.41	-53.4	-64.5	3.8	8.47e-01	0	44	104	4916772864	77	12695
2026-01-07 14:55:30.80	340.17	5.17	-53.4	-64.5	3.8	8.47e-01	0	44	104	4916772864	77	12683
2026-01-07 14:55:33.53	340.26	4.98	-53.4	-64.5	3.8	8.47e-01	0	44	104	4916772864	77	12676

#Closed at: 2026-01-07 14:55:34
#Recorded file [4916 MB]: D:/Data/31040_260107_174243.dat