passes_logs/2026/01/07/T1/T1__20260107_103637_NOAA_20_JPSS-1_rec.log

#Pass ID: 20260107_103637_NOAA 20 (JPSS-1)
#Satellite: NOAA 20 (JPSS-1)
#Configuration: NOAA 20
#almurnet v.1.7.20251203
#Start time: 2026-01-07 10:36:37

#Version: 2.0.20230620
#Station: T1
#Location: 37.570604 lon 55.790049 lat
#TLE: 1 43013U 17073A   26006.30790171  .00000126  00000+0  80695-4 0  9991
#TLE: 2 43013  98.7629 307.3394 0001808  51.8724 308.2615 14.19533762421505

#Time	Az	El	Level	Level2	SNR	BER	BlckErr	Temp	State	Recorded	gain1	gain2
2026-01-07 10:36:37.50	181.95	5.03	-49.8	-65.5	3.8	1.49e+00	0	39	0	0	71	21610
2026-01-07 10:36:41.51	182.11	5.31	-49.3	-65.1	3.8	1.49e+00	0	39	104	0	70	21906
2026-01-07 10:36:45.52	182.27	5.59	-49.3	-65.2	3.8	1.49e+00	0	40	104	0	70	22021
2026-01-07 10:36:49.53	182.44	5.88	-49.2	-65.1	3.8	1.49e+00	0	39	104	0	70	21817
2026-01-07 10:36:53.54	182.60	6.17	-49.2	-65.1	3.8	1.49e+00	0	40	104	0	70	21976
2026-01-07 10:36:57.56	182.78	6.46	-49.2	-64.7	3.8	1.49e+00	0	40	104	0	70	20803
2026-01-07 10:37:01.54	182.95	6.75	-49.1	-63.3	3.9	1.49e+00	0	40	104	0	70	17776
2026-01-07 10:37:05.56	183.13	7.05	-49.2	-65.0	3.8	1.49e+00	0	40	104	0	70	21526
2026-01-07 10:37:09.57	183.31	7.35	-48.6	-58.0	6.0	5.36e-01	0	40	0	2097152	69	10246
2026-01-07 10:37:13.59	183.50	7.66	-46.5	-51.3	12.4	4.39e-04	0	40	0	9437184	65	5957
2026-01-07 10:37:17.60	183.69	7.97	-45.5	-49.3	14.5	7.00e-07	0	41	0	16777216	63	5330
2026-01-07 10:37:21.62	183.88	8.28	-46.3	-50.8	13.0	7.60e-06	0	41	0	24117248	63	6291
2026-01-07 10:37:25.64	184.08	8.60	-47.8	-54.9	8.7	2.40e-02	0	41	0	31457280	66	8521
2026-01-07 10:37:29.65	184.28	8.92	-48.7	-60.0	4.7	7.80e-01	0	41	0	39845888	67	14412
2026-01-07 10:37:33.66	184.48	9.24	-49.0	-62.3	4.0	3.34e-01	0	41	0	44040192	68	17862
2026-01-07 10:37:37.67	184.69	9.57	-47.6	-54.1	9.7	1.81e-02	0	41	0	49283072	67	7325
2026-01-07 10:37:41.68	184.91	9.90	-47.2	-53.3	10.5	8.52e-03	0	41	0	56623104	66	7109
2026-01-07 10:37:45.68	185.13	10.23	-46.9	-52.4	11.4	5.19e-04	0	41	0	63963136	65	6748
2026-01-07 10:37:49.69	185.35	10.57	-46.9	-52.2	11.8	4.00e-04	0	41	0	71303168	65	6590
2026-01-07 10:37:53.70	185.58	10.92	-46.5	-51.0	12.9	9.00e-05	0	41	0	79691776	64	6101
2026-01-07 10:37:57.70	185.81	11.26	-46.1	-50.2	13.7	1.06e-05	0	41	0	87031808	63	5881
2026-01-07 10:38:01.70	186.05	11.62	-45.3	-49.0	15.1	0.00e+00	0	41	0	94371840	62	5405
2026-01-07 10:38:05.71	186.30	11.97	-45.1	-48.5	15.5	0.00e+00	0	41	0	101711872	62	5129
2026-01-07 10:38:09.72	186.55	12.34	-44.7	-47.8	16.1	0.00e+00	0	41	0	109051904	61	5040
2026-01-07 10:38:13.73	186.80	12.70	-44.5	-47.5	16.5	0.00e+00	0	41	0	116391936	60	5126
2026-01-07 10:38:17.73	187.06	13.08	-44.4	-47.4	16.5	0.00e+00	0	41	0	124780544	60	5085
2026-01-07 10:38:21.74	187.33	13.45	-44.1	-46.9	17.1	0.00e+00	0	41	0	132120576	60	4796
2026-01-07 10:38:25.75	187.61	13.84	-43.9	-46.8	17.2	0.00e+00	0	41	0	139460608	59	4999
2026-01-07 10:38:29.76	187.89	14.23	-44.0	-46.8	17.2	0.00e+00	0	41	0	146800640	59	5034
2026-01-07 10:38:33.77	188.18	14.62	-43.9	-46.7	17.3	0.00e+00	0	41	0	154140672	59	4967
2026-01-07 10:38:37.78	188.48	15.02	-43.8	-46.5	17.5	0.00e+00	0	42	0	161480704	59	4832
2026-01-07 10:38:41.77	188.78	15.43	-43.7	-46.4	17.6	0.00e+00	0	42	0	169869312	59	4783
2026-01-07 10:38:45.78	189.10	15.84	-43.5	-46.2	17.8	0.00e+00	0	42	0	177209344	59	4668
2026-01-07 10:38:49.78	189.42	16.26	-43.6	-46.2	17.9	0.00e+00	0	42	0	184549376	59	4665
2026-01-07 10:38:53.79	189.75	16.68	-43.5	-46.0	18.1	0.00e+00	0	42	0	191889408	58	4854
2026-01-07 10:38:57.80	190.09	17.12	-43.2	-45.7	18.3	0.00e+00	0	42	0	199229440	58	4699
2026-01-07 10:39:01.80	190.44	17.55	-43.3	-45.8	18.3	0.00e+00	0	42	0	206569472	58	4731
2026-01-07 10:39:05.81	190.79	18.00	-43.1	-45.5	18.6	0.00e+00	0	42	0	214958080	58	4576
2026-01-07 10:39:09.82	191.16	18.45	-43.1	-45.5	18.6	0.00e+00	0	42	0	222298112	58	4577
2026-01-07 10:39:13.83	191.54	18.91	-43.0	-45.5	18.7	0.00e+00	0	42	0	229638144	58	4552
2026-01-07 10:39:17.84	191.94	19.38	-43.0	-45.4	18.7	0.00e+00	0	42	0	236978176	58	4540
2026-01-07 10:39:21.84	192.34	19.86	-43.2	-45.7	18.5	0.00e+00	0	42	0	244318208	58	4658
2026-01-07 10:39:25.84	192.75	20.34	-43.3	-45.7	18.5	0.00e+00	0	42	0	251658240	58	4668
2026-01-07 10:39:29.84	193.18	20.83	-43.3	-45.8	18.4	0.00e+00	0	42	0	260046848	58	4713
2026-01-07 10:39:33.85	193.62	21.33	-43.2	-45.6	18.7	0.00e+00	0	42	0	267386880	58	4599
2026-01-07 10:39:37.86	194.08	21.84	-43.0	-45.3	18.9	0.00e+00	0	42	0	274726912	58	4470
2026-01-07 10:39:41.87	194.55	22.35	-42.8	-45.1	19.1	0.00e+00	0	42	0	282066944	57	4619
2026-01-07 10:39:45.88	195.04	22.88	-42.8	-45.1	19.1	0.00e+00	0	42	0	289406976	57	4651
2026-01-07 10:39:49.87	195.54	23.41	-42.9	-45.3	19.0	0.00e+00	0	42	0	296747008	57	4714
2026-01-07 10:39:53.87	196.06	23.95	-43.1	-45.5	18.8	0.00e+00	0	42	0	305135616	57	4824
2026-01-07 10:39:57.88	196.59	24.51	-43.3	-45.7	18.6	0.00e+00	0	42	0	312475648	57	4946
2026-01-07 10:40:01.89	197.15	25.07	-43.6	-46.0	18.3	0.00e+00	0	42	0	319815680	57	5127
2026-01-07 10:40:05.89	197.72	25.64	-43.6	-46.1	18.2	0.00e+00	0	42	0	327155712	58	4902
2026-01-07 10:40:09.90	198.32	26.22	-43.8	-46.3	18.1	0.00e+00	0	42	0	334495744	58	4995
2026-01-07 10:40:13.91	198.94	26.80	-43.9	-46.4	18.0	0.00e+00	0	42	0	341835776	58	5063
2026-01-07 10:40:17.92	199.58	27.40	-43.8	-46.3	18.1	0.00e+00	0	42	0	350224384	58	5011
2026-01-07 10:40:21.92	200.24	28.01	-44.4	-47.1	17.3	0.00e+00	0	42	0	357564416	59	5166
2026-01-07 10:40:25.93	200.94	28.63	-44.9	-47.8	16.7	0.00e+00	0	42	0	364904448	60	5312
2026-01-07 10:40:29.93	201.65	29.25	-45.2	-48.1	16.4	0.00e+00	0	42	0	372244480	61	5204
2026-01-07 10:40:33.94	202.40	29.89	-45.5	-48.5	16.0	0.00e+00	0	42	0	379584512	61	5455
2026-01-07 10:40:37.94	203.17	30.53	-45.7	-48.9	15.7	0.00e+00	0	42	0	386924544	62	5366
2026-01-07 10:40:41.95	203.98	31.18	-45.6	-48.8	15.7	0.00e+00	0	42	0	395313152	62	5300
2026-01-07 10:40:45.96	204.81	31.85	-45.6	-48.7	15.8	0.00e+00	0	42	0	402653184	62	5276
2026-01-07 10:40:49.97	205.69	32.52	-45.4	-48.6	16.0	0.00e+00	0	42	0	409993216	62	5174
2026-01-07 10:40:53.97	206.59	33.19	-45.0	-47.9	16.6	0.00e+00	0	42	0	417333248	62	4801
2026-01-07 10:40:57.98	207.54	33.88	-44.8	-47.7	16.8	0.00e+00	0	42	0	424673280	61	4953
2026-01-07 10:41:01.99	208.53	34.57	-44.5	-47.3	17.2	0.00e+00	0	42	0	432013312	61	4725
2026-01-07 10:41:06.00	209.56	35.27	-44.5	-47.3	17.3	0.00e+00	0	42	0	439353344	60	4990
2026-01-07 10:41:10.00	210.63	35.97	-43.6	-46.1	18.4	0.00e+00	0	42	0	447741952	59	4612
2026-01-07 10:41:14.01	211.75	36.67	-43.6	-46.1	18.4	0.00e+00	0	42	0	455081984	59	4610
2026-01-07 10:41:18.02	212.92	37.38	-43.6	-46.1	18.3	0.00e+00	0	42	0	462422016	59	4646
2026-01-07 10:41:22.03	214.14	38.09	-43.3	-45.6	18.8	0.00e+00	0	42	0	469762048	58	4640
2026-01-07 10:41:26.05	215.41	38.81	-43.3	-45.6	18.8	0.00e+00	0	42	0	477102080	57	4908
2026-01-07 10:41:30.05	216.74	39.51	-44.0	-46.4	18.0	0.00e+00	0	42	0	485490688	58	5100
2026-01-07 10:41:34.06	218.13	40.22	-43.8	-46.2	18.3	0.00e+00	0	42	0	492830720	58	4966
2026-01-07 10:41:38.06	219.57	40.92	-44.4	-47.0	17.4	0.00e+00	0	42	0	500170752	59	5141
2026-01-07 10:41:42.06	221.08	41.61	-44.4	-47.0	17.5	0.00e+00	0	42	0	507510784	59	5144
2026-01-07 10:41:46.07	222.66	42.29	-44.7	-47.4	17.2	0.00e+00	0	42	0	514850816	60	5099
2026-01-07 10:41:50.08	224.30	42.96	-44.3	-47.0	17.6	0.00e+00	0	42	0	522190848	60	4845
2026-01-07 10:41:54.09	226.01	43.62	-44.5	-47.1	17.4	0.00e+00	0	42	0	530579456	60	4918
2026-01-07 10:41:58.10	227.79	44.26	-44.1	-46.7	17.8	0.00e+00	0	42	0	537919488	60	4655
2026-01-07 10:42:02.11	229.64	44.87	-44.3	-47.1	17.5	0.00e+00	0	43	0	545259520	60	4875
2026-01-07 10:42:06.13	231.57	45.47	-43.9	-46.4	18.1	0.00e+00	0	42	0	552599552	59	4760
2026-01-07 10:42:10.13	233.55	46.03	-44.6	-47.3	17.3	0.00e+00	0	42	0	559939584	60	5019
2026-01-07 10:42:14.14	235.62	46.56	-44.3	-46.9	17.7	0.00e+00	0	42	0	567279616	60	4775
2026-01-07 10:42:18.14	237.74	47.06	-45.1	-48.1	16.4	0.00e+00	0	42	0	575668224	61	5168
2026-01-07 10:42:22.16	239.94	47.52	-45.8	-49.0	15.6	0.00e+00	0	42	0	583008256	62	5417
2026-01-07 10:42:26.16	242.19	47.94	-45.2	-48.2	16.3	0.00e+00	0	42	0	590348288	62	4963
2026-01-07 10:42:30.17	244.51	48.31	-46.2	-49.5	15.0	0.00e+00	0	42	0	597688320	63	5454
2026-01-07 10:42:34.18	246.88	48.64	-45.7	-48.8	15.8	0.00e+00	0	42	0	605028352	62	5303
2026-01-07 10:42:38.19	249.29	48.91	-45.6	-48.7	15.9	0.00e+00	0	42	0	612368384	63	4950
2026-01-07 10:42:42.19	251.73	49.13	-45.4	-48.4	16.3	0.00e+00	0	42	0	620756992	61	5348
2026-01-07 10:42:46.20	254.22	49.30	-45.4	-48.5	16.1	0.00e+00	0	42	0	628097024	62	5107
2026-01-07 10:42:50.19	256.71	49.41	-45.1	-48.1	16.5	0.00e+00	0	42	0	635437056	62	4878
2026-01-07 10:42:54.20	259.23	49.46	-44.5	-47.1	17.5	0.00e+00	0	42	0	642777088	60	4903
2026-01-07 10:42:58.21	261.75	49.46	-44.0	-46.6	18.0	0.00e+00	0	42	0	650117120	59	4880
2026-01-07 10:43:02.22	264.26	49.39	-44.5	-47.2	17.4	0.00e+00	0	42	0	657457152	60	4945
2026-01-07 10:43:06.23	266.76	49.27	-45.1	-48.1	16.6	0.00e+00	0	42	0	665845760	60	5503
2026-01-07 10:43:10.24	269.24	49.10	-45.1	-48.0	16.6	0.00e+00	0	42	0	673185792	61	5145
2026-01-07 10:43:14.25	271.68	48.87	-45.1	-48.0	16.7	0.00e+00	0	42	0	680525824	61	5112
2026-01-07 10:43:18.26	274.09	48.58	-45.3	-48.3	16.2	0.00e+00	0	42	0	687865856	62	5034
2026-01-07 10:43:22.26	276.44	48.25	-46.0	-49.2	15.4	0.00e+00	0	42	0	695205888	62	5564
2026-01-07 10:43:26.27	278.74	47.87	-46.7	-50.5	14.2	0.00e+00	0	42	0	702545920	63	6086
2026-01-07 10:43:30.28	280.98	47.45	-46.5	-50.1	14.5	0.00e+00	0	42	0	710934528	64	5499
2026-01-07 10:43:34.29	283.16	46.98	-47.2	-51.4	13.0	1.67e-04	0	42	0	718274560	66	5704
2026-01-07 10:43:38.30	285.28	46.48	-47.4	-51.7	12.8	2.74e-05	0	42	0	725614592	65	6255
2026-01-07 10:43:42.31	287.32	45.94	-45.7	-48.8	15.7	0.00e+00	0	42	0	732954624	63	5031
2026-01-07 10:43:46.31	289.29	45.38	-44.6	-47.4	17.2	0.00e+00	0	42	0	740294656	61	4763
2026-01-07 10:43:50.32	291.20	44.78	-45.1	-47.9	16.6	0.00e+00	0	43	0	747634688	60	5385
2026-01-07 10:43:54.31	293.02	44.17	-44.3	-46.9	17.6	0.00e+00	0	42	0	756023296	60	4799
2026-01-07 10:43:58.31	294.78	43.53	-43.6	-46.0	18.5	0.00e+00	0	42	0	763363328	58	4848
2026-01-07 10:44:02.33	296.48	42.88	-43.6	-46.0	18.4	0.00e+00	0	42	0	770703360	58	4852
2026-01-07 10:44:06.33	298.11	42.21	-43.8	-46.4	18.1	0.00e+00	0	43	0	778043392	58	5061
2026-01-07 10:44:10.34	299.67	41.53	-45.0	-47.9	16.6	0.00e+00	0	43	0	785383424	60	5389
2026-01-07 10:44:14.35	301.17	40.84	-43.8	-46.2	18.3	0.00e+00	0	42	0	792723456	59	4690
2026-01-07 10:44:18.36	302.60	40.14	-45.1	-48.1	16.5	0.00e+00	0	42	0	801112064	62	4892
2026-01-07 10:44:22.37	303.98	39.44	-45.6	-48.7	15.9	0.00e+00	0	42	0	808452096	61	5552
2026-01-07 10:44:26.37	305.29	38.74	-45.0	-47.8	16.7	0.00e+00	0	42	0	815792128	61	5041
2026-01-07 10:44:30.37	306.55	38.03	-47.2	-51.6	12.7	1.90e-05	0	42	0	823132160	65	6191
2026-01-07 10:44:34.37	307.75	37.33	-44.7	-47.5	17.0	0.00e+00	0	42	0	830472192	61	4853
2026-01-07 10:44:38.38	308.91	36.62	-46.2	-49.9	14.6	2.20e-06	0	42	0	837812224	64	5355
2026-01-07 10:44:42.39	310.02	35.92	-44.5	-47.3	17.3	0.00e+00	0	42	0	845152256	60	4988
2026-01-07 10:44:46.40	311.09	35.22	-46.4	-50.1	14.5	0.00e+00	0	42	0	853540864	63	5789
2026-01-07 10:44:50.40	312.11	34.53	-45.4	-48.4	16.1	0.00e+00	0	42	0	860880896	62	5080
2026-01-07 10:44:54.41	313.09	33.85	-47.5	-52.1	12.4	1.37e-04	0	42	0	868220928	65	6501
2026-01-07 10:44:58.42	314.02	33.17	-44.7	-47.4	17.1	0.00e+00	0	42	0	875560960	61	4800
2026-01-07 10:45:02.43	314.93	32.49	-46.4	-50.2	14.3	0.00e+00	0	42	0	882900992	63	5880
2026-01-07 10:45:06.42	315.79	31.83	-46.2	-50.0	14.4	3.80e-06	0	42	0	890241024	64	5452
2026-01-07 10:45:10.43	316.62	31.18	-44.3	-47.2	17.3	0.00e+00	0	42	0	898629632	60	4974
2026-01-07 10:45:14.44	317.42	30.53	-46.1	-49.9	14.7	0.00e+00	0	42	0	905969664	62	6009
2026-01-07 10:45:18.45	318.19	29.89	-45.5	-48.7	15.8	0.00e+00	0	42	0	913309696	62	5277
2026-01-07 10:45:22.46	318.93	29.26	-45.2	-48.3	16.3	0.00e+00	0	42	0	920649728	61	5300
2026-01-07 10:45:26.47	319.65	28.64	-45.3	-48.8	15.7	0.00e+00	0	43	0	927989760	61	5604
2026-01-07 10:45:30.48	320.33	28.02	-44.0	-46.8	17.6	0.00e+00	0	43	0	935329792	60	4744
2026-01-07 10:45:34.49	320.99	27.42	-43.8	-46.5	17.9	0.00e+00	0	42	0	943718400	59	4819
2026-01-07 10:45:38.50	321.63	26.83	-44.5	-47.3	17.1	0.00e+00	0	42	0	951058432	59	5322
2026-01-07 10:45:42.50	322.25	26.24	-44.4	-47.3	17.1	0.00e+00	0	43	0	958398464	59	5291
2026-01-07 10:45:46.50	322.84	25.67	-44.2	-47.0	17.3	0.00e+00	0	42	0	965738496	59	5155
2026-01-07 10:45:50.51	323.41	25.11	-43.9	-46.6	17.7	0.00e+00	0	42	0	973078528	59	4912
2026-01-07 10:45:54.52	323.97	24.55	-44.4	-47.4	17.0	0.00e+00	0	43	0	980418560	59	5377
2026-01-07 10:45:58.53	324.50	24.00	-45.2	-48.4	16.0	0.00e+00	0	42	0	988807168	61	5374
2026-01-07 10:46:02.53	325.02	23.46	-44.8	-47.7	16.7	0.00e+00	0	42	0	996147200	61	4980
2026-01-07 10:46:06.54	325.52	22.94	-44.2	-47.0	17.4	0.00e+00	0	42	0	1003487232	60	4835
2026-01-07 10:46:10.54	326.00	22.42	-44.3	-47.5	16.8	0.00e+00	0	43	0	1010827264	60	5149
2026-01-07 10:46:14.55	326.47	21.90	-44.2	-47.5	16.9	0.00e+00	0	42	0	1018167296	60	5107
2026-01-07 10:46:18.55	326.93	21.40	-44.1	-46.9	17.5	0.00e+00	0	42	0	1025507328	60	4772
2026-01-07 10:46:22.56	327.37	20.90	-44.2	-47.0	17.3	0.00e+00	0	43	0	1033895936	60	4853
2026-01-07 10:46:26.57	327.80	20.42	-44.3	-47.2	17.1	0.00e+00	0	43	0	1041235968	60	4940
2026-01-07 10:46:30.58	328.21	19.94	-44.3	-47.3	17.0	0.00e+00	0	43	0	1048576000	60	5033
2026-01-07 10:46:34.58	328.62	19.47	-44.2	-47.5	16.8	0.00e+00	0	43	0	1055916032	60	5128
2026-01-07 10:46:38.59	329.01	19.00	-44.5	-47.9	16.4	0.00e+00	0	43	0	1063256064	60	5373
2026-01-07 10:46:42.59	329.39	18.55	-44.7	-47.9	16.4	0.00e+00	0	43	0	1070596096	60	5380
2026-01-07 10:46:46.60	329.76	18.10	-44.6	-47.6	16.8	0.00e+00	0	43	0	1078984704	60	5160
2026-01-07 10:46:50.60	330.12	17.66	-44.7	-47.6	16.7	0.00e+00	0	43	0	1086324736	60	5195
2026-01-07 10:46:54.60	330.47	17.22	-44.6	-47.6	16.7	0.00e+00	0	43	0	1093664768	60	5186
2026-01-07 10:46:58.61	330.81	16.79	-44.7	-47.7	16.6	0.00e+00	0	43	0	1101004800	60	5227
2026-01-07 10:47:02.62	331.14	16.37	-44.5	-47.5	16.8	0.00e+00	0	42	0	1108344832	60	5109
2026-01-07 10:47:06.63	331.46	15.95	-44.3	-47.3	17.0	0.00e+00	0	43	0	1115684864	60	4994
2026-01-07 10:47:10.63	331.77	15.54	-44.4	-47.3	16.9	0.00e+00	0	43	0	1124073472	60	5030
2026-01-07 10:47:14.64	332.08	15.14	-44.5	-47.6	16.6	0.00e+00	0	43	0	1131413504	60	5192
2026-01-07 10:47:18.64	332.38	14.74	-44.7	-47.9	16.3	0.00e+00	0	43	0	1138753536	60	5382
2026-01-07 10:47:22.64	332.67	14.35	-45.0	-48.4	15.8	0.00e+00	0	42	0	1146093568	60	5658
2026-01-07 10:47:26.65	332.95	13.97	-45.1	-48.5	15.7	0.00e+00	0	42	0	1153433600	61	5451
2026-01-07 10:47:30.66	333.23	13.59	-45.0	-48.3	15.9	0.00e+00	0	42	0	1160773632	61	5286
2026-01-07 10:47:34.67	333.50	13.21	-44.9	-48.1	16.0	0.00e+00	0	43	0	1169162240	61	5209
2026-01-07 10:47:38.68	333.77	12.84	-44.5	-47.5	16.6	0.00e+00	0	43	0	1176502272	61	4859
2026-01-07 10:47:42.68	334.03	12.48	-44.5	-47.5	16.6	0.00e+00	0	43	0	1183842304	60	5120
2026-01-07 10:47:46.69	334.28	12.12	-44.5	-47.5	16.6	0.00e+00	0	43	0	1191182336	60	5128
2026-01-07 10:47:50.70	334.53	11.76	-44.8	-47.9	16.2	0.00e+00	0	43	0	1198522368	60	5389
2026-01-07 10:47:54.70	334.77	11.41	-45.3	-48.6	15.5	0.00e+00	0	43	0	1205862400	61	5485
2026-01-07 10:47:58.71	335.00	11.06	-45.7	-49.2	14.9	0.00e+00	0	43	0	1214251008	62	5569
2026-01-07 10:48:02.72	335.24	10.72	-45.7	-49.5	14.5	0.00e+00	0	42	0	1221591040	62	5786
2026-01-07 10:48:06.73	335.46	10.39	-45.7	-49.6	14.5	1.50e-06	0	43	0	1228931072	62	5827
2026-01-07 10:48:10.74	335.68	10.05	-45.4	-49.3	14.8	7.00e-07	0	43	0	1236271104	62	5605
2026-01-07 10:48:14.75	335.90	9.72	-45.1	-49.0	15.1	0.00e+00	0	43	0	1243611136	62	5407
2026-01-07 10:48:18.75	336.11	9.40	-44.9	-48.8	15.2	0.00e+00	0	43	0	1250951168	61	5634
2026-01-07 10:48:22.76	336.32	9.08	-44.7	-48.6	15.4	0.00e+00	0	43	0	1259339776	61	5502
2026-01-07 10:48:26.77	336.53	8.76	-50.0	-65.6	3.8	1.49e+00	0	43	104	1261436928	70	23216
2026-01-07 10:48:30.78	336.73	8.45	-50.3	-65.9	3.8	1.49e+00	0	43	104	1261436928	71	22547
2026-01-07 10:48:34.79	336.92	8.14	-50.7	-65.9	3.8	1.49e+00	0	43	104	1261436928	72	21353
2026-01-07 10:48:38.81	337.12	7.83	-50.5	-65.9	3.8	1.49e+00	0	43	104	1261436928	72	21428
2026-01-07 10:48:42.82	337.31	7.53	-50.7	-65.9	3.8	1.49e+00	0	42	104	1261436928	72	21407
2026-01-07 10:48:46.83	337.49	7.23	-50.5	-65.9	3.8	1.49e+00	0	43	104	1261436928	72	21354
2026-01-07 10:48:50.85	337.67	6.93	-50.5	-65.9	3.8	1.49e+00	0	43	104	1261436928	72	21336
2026-01-07 10:48:54.86	337.85	6.64	-50.5	-65.9	3.8	1.49e+00	0	43	104	1261436928	72	21370
2026-01-07 10:48:58.87	338.03	6.35	-50.5	-65.9	3.8	1.49e+00	0	43	104	1261436928	72	21288
2026-01-07 10:49:02.89	338.20	6.06	-50.5	-65.9	3.8	1.49e+00	0	43	104	1261436928	72	21326
2026-01-07 10:49:06.89	338.37	5.78	-50.5	-65.9	3.8	1.49e+00	0	43	104	1261436928	72	21384
2026-01-07 10:49:10.91	338.54	5.49	-50.4	-65.9	3.8	1.49e+00	0	43	104	1261436928	72	21275
2026-01-07 10:49:14.92	338.70	5.22	-50.5	-65.9	3.8	1.49e+00	0	43	104	1261436928	72	21375
2026-01-07 10:49:18.93	338.86	4.94	-50.5	-65.9	3.8	1.49e+00	0	43	104	1261436928	72	21422

#Closed at: 2026-01-07 10:49:19
#Recorded file [1261 MB]: D:/Data/31040_260107_133637.dat