passes_logs/2026/01/07/T1/T1__20260107_080748_NOAA_21_JPSS-2_rec.log

#Pass ID: 20260107_080748_NOAA 21 (JPSS-2)
#Satellite: NOAA 21 (JPSS-2)
#Configuration: NOAA 21
#almurnet v.1.7.20251203
#Start time: 2026-01-07 08:07:48

#Version: 2.0.20230620
#Station: T1
#Location: 37.570604 lon 55.790049 lat
#TLE: 1 54234U 22150A   26005.56767909  .00000152  00000+0  92756-4 0  9990
#TLE: 2 54234  98.7490 306.5820 0001036 340.2747  19.8389 14.19532370163472

#Time	Az	El	Level	Level2	SNR	BER	BlckErr	Temp	State	Recorded	gain1	gain2
2026-01-07 08:07:48.89	103.02	5.02	-49.6	-62.5	3.8	1.49e+00	0	40	0	0	71	15358
2026-01-07 08:07:51.90	102.75	5.19	-49.6	-62.5	3.8	1.49e+00	0	40	104	0	71	15346
2026-01-07 08:07:54.91	102.48	5.37	-49.6	-62.5	3.8	1.49e+00	0	41	104	0	71	15362
2026-01-07 08:07:57.92	102.20	5.54	-49.6	-62.6	3.8	1.49e+00	0	41	104	0	71	15437
2026-01-07 08:08:00.94	101.92	5.72	-49.6	-62.6	3.8	1.49e+00	0	41	104	0	71	15462
2026-01-07 08:08:03.95	101.64	5.90	-49.6	-62.6	3.8	1.49e+00	0	41	104	0	71	15462
2026-01-07 08:08:06.96	101.35	6.08	-49.6	-62.6	3.8	1.49e+00	0	41	104	0	71	15490
2026-01-07 08:08:09.98	101.06	6.26	-49.6	-62.5	3.8	1.49e+00	0	41	104	0	71	15259
2026-01-07 08:08:12.99	100.77	6.44	-49.6	-62.3	3.8	1.49e+00	0	41	104	0	71	15041
2026-01-07 08:08:16.00	100.47	6.61	-49.6	-62.4	3.8	1.49e+00	0	41	104	0	71	15091
2026-01-07 08:08:19.01	100.17	6.80	-49.6	-62.5	3.8	1.49e+00	0	42	104	0	71	15288
2026-01-07 08:08:22.02	99.86	6.98	-49.6	-62.5	3.8	1.49e+00	0	41	104	0	71	15259
2026-01-07 08:08:25.03	99.55	7.16	-49.6	-62.2	3.8	1.49e+00	0	42	104	0	71	14826
2026-01-07 08:08:28.04	99.24	7.34	-49.6	-62.2	3.8	1.49e+00	0	42	104	0	71	14770
2026-01-07 08:08:31.06	98.92	7.52	-49.6	-62.3	3.8	1.49e+00	0	42	104	0	71	14950
2026-01-07 08:08:34.07	98.60	7.70	-49.5	-61.7	3.8	1.49e+00	0	42	104	0	71	13989
2026-01-07 08:08:37.08	98.28	7.89	-49.4	-60.5	3.9	1.49e+00	0	42	104	0	70	12918
2026-01-07 08:08:40.09	97.95	8.07	-49.5	-61.6	3.8	1.49e+00	0	42	104	0	70	14673
2026-01-07 08:08:43.10	97.61	8.25	-47.6	-52.9	8.2	1.53e-01	0	42	0	0	67	6390
2026-01-07 08:08:46.11	97.28	8.44	-44.1	-46.7	14.6	2.20e-06	0	42	0	0	60	4673
2026-01-07 08:08:49.12	96.93	8.62	-42.8	-45.0	16.2	0.00e+00	0	42	0	0	57	4573
2026-01-07 08:08:52.13	96.59	8.81	-44.7	-47.6	13.7	2.20e-06	0	42	0	0	60	5173
2026-01-07 08:08:55.14	96.24	8.99	-48.1	-54.3	6.8	9.59e-02	0	42	0	0	66	7943
2026-01-07 08:08:58.26	95.87	9.19	-48.9	-57.0	5.1	5.72e-01	0	42	0	0	68	9630
2026-01-07 08:09:01.21	95.51	9.37	-49.4	-61.1	3.8	1.49e+00	0	42	104	0	69	14573
2026-01-07 08:09:04.50	95.11	9.57	-47.0	-51.6	9.5	2.62e-02	0	42	0	0	66	5845
2026-01-07 08:09:07.41	94.75	9.75	-44.8	-47.8	13.7	2.36e-05	0	43	0	0	61	4990
2026-01-07 08:09:11.18	94.28	9.99	-42.9	-45.1	16.2	0.00e+00	0	43	0	0	57	4639
2026-01-07 08:09:14.07	93.92	10.17	-42.3	-44.4	17.0	0.00e+00	0	43	0	0	56	4511
2026-01-07 08:09:17.54	93.47	10.38	-41.4	-43.4	17.9	0.00e+00	0	43	0	0	54	4497
2026-01-07 08:09:20.26	93.12	10.55	-41.4	-43.4	17.9	0.00e+00	0	43	0	0	54	4511
2026-01-07 08:09:23.56	92.68	10.76	-41.3	-43.2	18.0	0.00e+00	0	43	0	0	54	4429
2026-01-07 08:09:26.28	92.32	10.93	-41.4	-43.3	17.9	0.00e+00	0	43	0	0	54	4470
2026-01-07 08:09:29.68	91.86	11.14	-41.4	-43.4	17.9	0.00e+00	0	43	0	0	54	4505
2026-01-07 08:09:32.70	91.44	11.33	-41.2	-43.1	18.1	0.00e+00	0	43	0	0	54	4391
2026-01-07 08:09:36.00	90.99	11.53	-41.4	-43.3	18.0	0.00e+00	0	43	0	0	54	4466
2026-01-07 08:09:38.72	90.60	11.70	-41.0	-42.8	18.4	0.00e+00	0	43	0	0	53	4492
2026-01-07 08:09:42.39	90.08	11.93	-40.9	-42.8	18.5	0.00e+00	0	43	0	0	53	4477
2026-01-07 08:09:45.33	89.65	12.12	-41.0	-42.8	18.4	0.00e+00	0	43	0	0	53	4486
2026-01-07 08:09:49.38	89.06	12.37	-41.2	-43.1	18.1	0.00e+00	0	43	0	0	53	4651
2026-01-07 08:09:52.12	88.65	12.54	-41.3	-43.2	18.1	0.00e+00	0	43	0	0	53	4687
2026-01-07 08:09:56.11	88.04	12.78	-41.3	-43.2	18.1	0.00e+00	0	43	0	0	53	4697
2026-01-07 08:09:59.06	87.59	12.97	-41.4	-43.3	18.0	0.00e+00	0	43	0	0	53	4742
2026-01-07 08:10:02.09	87.12	13.15	-41.2	-43.1	18.2	0.00e+00	0	43	0	0	53	4635
2026-01-07 08:10:05.16	86.63	13.34	-41.1	-43.0	18.4	0.00e+00	0	43	0	0	54	4302
2026-01-07 08:10:08.03	86.17	13.52	-40.8	-42.6	18.7	0.00e+00	0	43	0	0	53	4383
2026-01-07 08:10:11.19	85.66	13.71	-41.0	-42.9	18.4	0.00e+00	0	43	0	0	53	4513
2026-01-07 08:10:14.05	85.20	13.89	-41.0	-42.9	18.4	0.00e+00	0	43	0	0	53	4511
2026-01-07 08:10:17.34	84.65	14.08	-40.8	-42.7	18.6	0.00e+00	0	43	0	0	53	4433
2026-01-07 08:10:20.07	84.19	14.25	-41.0	-43.0	18.4	0.00e+00	0	43	0	0	53	4557
2026-01-07 08:10:23.37	83.63	14.45	-41.2	-43.1	18.3	0.00e+00	0	43	0	0	53	4647
2026-01-07 08:10:26.09	83.16	14.61	-41.3	-43.2	18.2	0.00e+00	0	43	0	0	53	4694
2026-01-07 08:10:29.45	82.58	14.81	-41.1	-43.0	18.4	0.00e+00	0	43	0	0	53	4588
2026-01-07 08:10:32.17	82.10	14.97	-41.2	-43.2	18.3	0.00e+00	0	43	0	0	53	4659
2026-01-07 08:10:35.47	81.51	15.16	-41.1	-43.0	18.5	0.00e+00	0	43	0	0	53	4556
2026-01-07 08:10:38.34	80.99	15.33	-40.9	-42.8	18.6	0.00e+00	0	43	0	0	53	4460
2026-01-07 08:10:42.14	80.30	15.55	-41.3	-43.3	18.2	0.00e+00	0	43	0	0	53	4710
2026-01-07 08:10:44.92	79.78	15.71	-41.3	-43.1	18.3	0.00e+00	0	43	0	0	53	4650
2026-01-07 08:10:48.96	79.02	15.93	-41.4	-43.3	18.2	0.00e+00	0	43	0	0	53	4727
2026-01-07 08:10:51.70	78.50	16.09	-41.2	-43.0	18.4	0.00e+00	0	43	0	0	53	4598
2026-01-07 08:10:55.44	77.78	16.29	-41.3	-43.2	18.3	0.00e+00	0	43	0	0	53	4663
2026-01-07 08:10:58.20	77.25	16.44	-41.2	-43.1	18.4	0.00e+00	0	43	0	0	53	4623
2026-01-07 08:11:02.05	76.49	16.65	-40.8	-42.6	18.8	0.00e+00	0	43	0	0	53	4385
2026-01-07 08:11:05.12	75.88	16.81	-40.8	-42.6	18.7	0.00e+00	0	43	0	0	53	4390
2026-01-07 08:11:08.88	75.12	17.01	-40.9	-42.7	18.7	0.00e+00	0	43	0	0	53	4424
2026-01-07 08:11:11.64	74.55	17.15	-41.0	-42.8	18.6	0.00e+00	0	43	0	0	53	4479
2026-01-07 08:11:15.58	73.74	17.35	-40.9	-42.8	18.6	0.00e+00	0	43	0	0	53	4445
2026-01-07 08:11:18.56	73.12	17.50	-41.1	-43.0	18.5	0.00e+00	0	43	0	0	53	4548
2026-01-07 08:11:21.57	72.48	17.64	-40.7	-42.6	18.9	0.00e+00	0	43	0	0	53	4342
2026-01-07 08:11:24.57	71.84	17.79	-40.4	-42.2	19.2	0.00e+00	0	43	0	0	52	4408
2026-01-07 08:11:27.58	71.20	17.93	-40.4	-42.2	19.2	0.00e+00	0	43	0	0	52	4393
2026-01-07 08:11:30.59	70.54	18.06	-40.4	-42.1	19.3	0.00e+00	0	43	0	0	52	4384
2026-01-07 08:11:33.68	69.87	18.20	-40.3	-42.0	19.3	0.00e+00	0	43	0	0	52	4324
2026-01-07 08:11:36.97	69.14	18.34	-40.4	-42.1	19.3	0.00e+00	0	43	0	0	52	4372
2026-01-07 08:11:39.70	68.53	18.46	-40.4	-42.1	19.3	0.00e+00	0	43	0	0	52	4371
2026-01-07 08:11:43.14	67.76	18.60	-40.3	-42.1	19.3	0.00e+00	0	43	0	0	52	4351
2026-01-07 08:11:46.20	67.06	18.72	-40.4	-42.2	19.2	0.00e+00	0	43	0	0	52	4419
2026-01-07 08:11:49.49	66.31	18.85	-40.3	-42.0	19.4	0.00e+00	0	43	0	0	52	4335
2026-01-07 08:11:52.21	65.69	18.95	-40.3	-42.0	19.4	0.00e+00	0	43	0	0	52	4327
2026-01-07 08:11:55.57	64.91	19.07	-40.2	-41.9	19.5	0.00e+00	0	43	0	0	52	4267
2026-01-07 08:11:58.29	64.27	19.17	-40.2	-42.0	19.4	0.00e+00	0	43	0	0	52	4302
2026-01-07 08:12:01.78	63.45	19.28	-40.3	-42.0	19.4	0.00e+00	0	43	0	0	52	4318
2026-01-07 08:12:04.56	62.79	19.37	-40.3	-42.0	19.4	0.00e+00	0	43	0	0	52	4329
2026-01-07 08:12:07.86	62.00	19.47	-40.3	-42.1	19.3	0.00e+00	0	43	0	0	52	4360
2026-01-07 08:12:10.59	61.35	19.55	-40.4	-42.2	19.2	0.00e+00	0	43	0	0	52	4394
2026-01-07 08:12:14.25	60.47	19.65	-40.3	-42.1	19.3	0.00e+00	0	43	0	0	52	4349
2026-01-07 08:12:17.05	59.79	19.72	-40.5	-42.3	19.2	0.00e+00	0	43	0	0	52	4442
2026-01-07 08:12:20.84	58.87	19.81	-40.6	-42.4	19.1	0.00e+00	0	43	0	0	52	4499
2026-01-07 08:12:23.60	58.19	19.87	-40.8	-42.6	18.9	0.00e+00	0	43	0	0	52	4628
2026-01-07 08:12:27.15	57.32	19.95	-40.6	-42.4	19.1	0.00e+00	0	43	0	0	52	4505
2026-01-07 08:12:30.34	56.53	20.01	-40.5	-42.2	19.3	0.00e+00	0	43	0	0	52	4428
2026-01-07 08:12:33.56	55.73	20.06	-40.4	-42.2	19.3	0.00e+00	0	43	0	0	52	4412
2026-01-07 08:12:36.43	55.02	20.11	-40.6	-42.4	19.1	0.00e+00	0	43	0	0	52	4515
2026-01-07 08:12:39.58	54.23	20.15	-40.4	-42.2	19.2	0.00e+00	0	43	0	0	52	4407
2026-01-07 08:12:42.44	53.51	20.18	-40.4	-42.2	19.2	0.00e+00	0	43	0	0	52	4411
2026-01-07 08:12:45.64	52.71	20.22	-40.5	-42.3	19.2	0.00e+00	0	43	0	0	52	4460
2026-01-07 08:12:48.51	51.99	20.24	-40.5	-42.3	19.2	0.00e+00	0	43	0	0	52	4449
2026-01-07 08:12:51.57	51.22	20.26	-40.4	-42.2	19.2	0.00e+00	0	43	0	0	52	4394
2026-01-07 08:12:54.58	50.46	20.28	-40.5	-42.2	19.3	0.00e+00	0	43	0	0	52	4426
2026-01-07 08:12:57.58	49.71	20.29	-40.4	-42.2	19.3	0.00e+00	0	43	0	0	52	4401
2026-01-07 08:13:00.59	48.95	20.29	-40.5	-42.3	19.2	0.00e+00	0	43	0	0	52	4485
2026-01-07 08:13:03.60	48.19	20.29	-40.6	-42.4	19.0	0.00e+00	0	43	0	0	52	4525
2026-01-07 08:13:06.92	47.36	20.28	-40.3	-42.0	19.4	0.00e+00	0	43	0	0	52	4324
2026-01-07 08:13:09.65	46.67	20.27	-40.1	-41.8	19.6	0.00e+00	0	43	0	0	52	4206
2026-01-07 08:13:12.94	45.84	20.25	-40.3	-42.0	19.4	0.00e+00	0	43	0	0	52	4323
2026-01-07 08:13:15.66	45.16	20.23	-40.2	-41.9	19.5	0.00e+00	0	43	0	0	52	4270
2026-01-07 08:13:19.05	44.31	20.20	-40.3	-42.1	19.4	0.00e+00	0	43	0	0	52	4344
2026-01-07 08:13:21.87	43.60	20.17	-40.5	-42.3	19.2	0.00e+00	0	43	0	0	52	4466
2026-01-07 08:13:25.30	42.75	20.13	-40.5	-42.3	19.2	0.00e+00	0	43	0	0	52	4459
2026-01-07 08:13:28.02	42.07	20.09	-40.5	-42.2	19.3	0.00e+00	0	43	0	0	52	4436
2026-01-07 08:13:31.31	41.25	20.04	-40.2	-41.9	19.5	0.00e+00	0	43	0	0	52	4274
2026-01-07 08:13:34.17	40.55	19.99	-40.3	-42.1	19.4	0.00e+00	0	43	0	0	52	4360
2026-01-07 08:13:37.64	39.69	19.92	-40.5	-42.3	19.2	0.00e+00	0	43	0	0	52	4453
2026-01-07 08:13:40.36	39.02	19.86	-40.6	-42.4	19.1	0.00e+00	0	43	0	0	52	4526
2026-01-07 08:13:43.60	38.23	19.79	-40.4	-42.2	19.2	0.00e+00	0	43	0	0	52	4415
2026-01-07 08:13:46.56	37.51	19.72	-40.2	-42.0	19.4	0.00e+00	0	43	0	0	52	4302
2026-01-07 08:13:49.57	36.78	19.64	-40.4	-42.1	19.4	0.00e+00	0	43	0	0	52	4372
2026-01-07 08:13:52.58	36.06	19.56	-40.5	-42.2	19.3	0.00e+00	0	43	0	0	52	4437
2026-01-07 08:13:55.59	35.34	19.47	-40.6	-42.3	19.2	0.00e+00	0	43	0	0	52	4488
2026-01-07 08:13:58.76	34.59	19.38	-40.6	-42.4	19.0	0.00e+00	0	43	0	0	52	4545
2026-01-07 08:14:01.65	33.90	19.28	-40.6	-42.4	19.1	0.00e+00	0	43	0	0	52	4517
2026-01-07 08:14:04.80	33.17	19.18	-40.7	-42.5	19.0	0.00e+00	0	43	0	0	52	4557
2026-01-07 08:14:07.66	32.50	19.08	-40.5	-42.3	19.2	0.00e+00	0	43	0	0	52	4468
2026-01-07 08:14:10.81	31.77	18.97	-40.4	-42.2	19.3	0.00e+00	0	43	0	0	52	4427
2026-01-07 08:14:13.67	31.11	18.86	-40.5	-42.3	19.2	0.00e+00	0	43	0	0	52	4451
2026-01-07 08:14:16.82	30.39	18.74	-40.4	-42.2	19.3	0.00e+00	0	43	0	0	52	4416
2026-01-07 08:14:19.81	29.72	18.62	-40.5	-42.4	19.1	0.00e+00	0	43	0	0	52	4498
2026-01-07 08:14:22.80	29.05	18.50	-40.9	-42.7	18.8	0.00e+00	0	43	0	0	52	4700
2026-01-07 08:14:25.79	28.38	18.38	-40.7	-42.5	19.0	0.00e+00	0	43	0	0	52	4592
2026-01-07 08:14:28.79	27.72	18.25	-40.5	-42.3	19.3	0.00e+00	0	44	0	0	52	4451
2026-01-07 08:14:31.78	27.06	18.12	-40.4	-42.2	19.3	0.00e+00	0	43	0	0	52	4435
2026-01-07 08:14:34.77	26.42	17.98	-40.5	-42.5	19.0	0.00e+00	0	43	0	0	52	4557
2026-01-07 08:14:37.76	25.77	17.84	-40.7	-42.6	18.7	0.00e+00	0	43	0	0	52	4624
2026-01-07 08:14:40.76	25.13	17.70	-40.4	-42.2	19.2	0.00e+00	0	43	0	0	52	4406
2026-01-07 08:14:43.76	24.50	17.56	-40.5	-42.3	19.1	0.00e+00	0	43	0	0	52	4455
2026-01-07 08:14:46.76	23.88	17.41	-40.6	-42.5	18.8	0.00e+00	0	43	0	0	52	4577
2026-01-07 08:14:49.75	23.26	17.26	-40.8	-42.7	18.6	0.00e+00	0	43	0	0	52	4689
2026-01-07 08:14:52.74	22.65	17.11	-40.5	-42.4	19.0	0.00e+00	0	43	0	0	52	4533
2026-01-07 08:14:55.73	22.04	16.96	-40.4	-42.3	19.0	0.00e+00	0	43	0	0	52	4481
2026-01-07 08:14:58.74	21.44	16.80	-40.5	-42.3	19.0	0.00e+00	0	43	0	0	52	4466
2026-01-07 08:15:01.74	20.84	16.64	-40.6	-42.4	19.0	0.00e+00	0	43	0	0	52	4533
2026-01-07 08:15:04.73	20.26	16.48	-40.7	-42.6	18.9	0.00e+00	0	43	0	0	52	4608
2026-01-07 08:15:07.73	19.67	16.32	-40.8	-42.7	18.7	0.00e+00	0	43	0	0	52	4675
2026-01-07 08:15:10.73	19.10	16.15	-40.8	-42.7	18.7	0.00e+00	0	43	0	0	52	4701
2026-01-07 08:15:13.72	18.53	15.99	-40.9	-42.8	18.6	0.00e+00	0	43	0	0	52	4726
2026-01-07 08:15:16.72	17.97	15.82	-40.9	-42.8	18.6	0.00e+00	0	43	0	0	52	4737
2026-01-07 08:15:19.73	17.41	15.65	-41.0	-42.9	18.6	0.00e+00	0	43	0	0	52	4790
2026-01-07 08:15:22.72	16.86	15.48	-41.2	-43.1	18.4	0.00e+00	0	43	0	0	53	4618
2026-01-07 08:15:25.72	16.32	15.31	-41.0	-42.9	18.6	0.00e+00	0	43	0	0	53	4511
2026-01-07 08:15:28.72	15.78	15.13	-41.0	-42.9	18.5	0.00e+00	0	43	0	0	53	4545
2026-01-07 08:15:31.73	15.25	14.96	-40.8	-42.8	18.6	0.00e+00	0	43	0	0	53	4468
2026-01-07 08:15:34.73	14.72	14.78	-40.7	-42.8	18.7	0.00e+00	0	43	0	0	53	4449
2026-01-07 08:15:37.72	14.21	14.60	-40.5	-42.6	18.9	0.00e+00	0	44	0	0	53	4356
2026-01-07 08:15:40.72	13.70	14.42	-40.8	-42.9	18.6	0.00e+00	0	43	0	0	53	4520
2026-01-07 08:15:43.71	13.19	14.25	-41.0	-43.1	18.4	0.00e+00	0	43	0	0	53	4616
2026-01-07 08:15:46.71	12.69	14.07	-41.0	-43.0	18.5	0.00e+00	0	43	0	0	53	4569
2026-01-07 08:15:49.71	12.20	13.88	-40.9	-42.8	18.7	0.00e+00	0	43	0	0	53	4460
2026-01-07 08:15:52.71	11.71	13.70	-40.8	-42.7	18.7	0.00e+00	0	43	0	0	53	4418
2026-01-07 08:15:55.71	11.23	13.52	-41.2	-43.2	18.3	0.00e+00	0	43	0	0	53	4669
2026-01-07 08:15:58.71	10.76	13.34	-41.1	-43.2	18.3	0.00e+00	0	43	0	0	53	4659
2026-01-07 08:16:01.71	10.29	13.15	-40.9	-43.1	18.3	0.00e+00	0	43	0	0	53	4606
2026-01-07 08:16:04.72	9.82	12.97	-41.0	-43.1	18.2	0.00e+00	0	43	0	0	53	4645
2026-01-07 08:16:07.71	9.37	12.78	-41.0	-43.0	18.4	0.00e+00	0	43	0	0	53	4570
2026-01-07 08:16:10.70	8.92	12.60	-40.9	-43.0	18.4	0.00e+00	0	43	0	0	53	4591
2026-01-07 08:16:13.70	8.47	12.41	-40.9	-43.2	18.2	0.00e+00	0	43	0	0	53	4692
2026-01-07 08:16:16.69	8.03	12.23	-41.1	-43.5	17.9	0.00e+00	0	43	0	0	53	4832
2026-01-07 08:16:19.69	7.60	12.04	-41.6	-44.0	17.4	0.00e+00	0	43	0	0	53	5124
2026-01-07 08:16:22.68	7.17	11.86	-41.6	-43.8	17.5	0.00e+00	0	43	0	0	54	4756
2026-01-07 08:16:25.67	6.75	11.67	-41.8	-44.0	17.4	0.00e+00	0	43	0	0	54	4836
2026-01-07 08:16:28.67	6.33	11.49	-41.4	-43.5	17.9	0.00e+00	0	43	0	0	54	4584
2026-01-07 08:16:31.66	5.92	11.30	-41.3	-43.5	17.9	0.00e+00	0	43	0	0	54	4582
2026-01-07 08:16:34.65	5.52	11.11	-41.6	-44.0	17.4	0.00e+00	0	43	0	0	54	4869
2026-01-07 08:16:37.64	5.12	10.93	-41.9	-44.3	17.1	0.00e+00	0	43	0	0	54	5035
2026-01-07 08:16:40.63	4.72	10.74	-42.1	-44.4	17.0	0.00e+00	0	43	0	0	55	4802
2026-01-07 08:16:43.63	4.33	10.56	-41.9	-44.3	17.1	0.00e+00	0	43	0	0	55	4735
2026-01-07 08:16:46.62	3.94	10.37	-42.0	-44.4	17.0	0.00e+00	0	43	0	0	55	4768
2026-01-07 08:16:49.60	3.57	10.19	-42.4	-44.5	16.9	0.00e+00	0	43	0	0	55	4863
2026-01-07 08:16:52.60	3.19	10.00	-42.5	-45.0	16.4	0.00e+00	0	43	0	0	55	5106
2026-01-07 08:16:55.59	2.82	9.82	-42.0	-44.9	16.4	0.00e+00	0	43	0	0	55	5065
2026-01-07 08:16:58.60	2.45	9.63	-42.1	-44.7	16.6	0.00e+00	0	43	0	0	55	4953
2026-01-07 08:17:01.59	2.09	9.45	-42.1	-44.5	16.8	0.00e+00	0	43	0	0	55	4828
2026-01-07 08:17:04.59	1.73	9.26	-41.9	-44.6	16.8	0.00e+00	0	43	0	0	55	4873
2026-01-07 08:17:07.57	1.38	9.08	-42.2	-44.9	16.5	0.00e+00	0	43	0	0	55	5055
2026-01-07 08:17:10.57	1.03	8.89	-48.8	-62.9	3.8	1.49e+00	0	43	104	0	69	18054
2026-01-07 08:17:13.57	0.69	8.71	-50.3	-63.4	3.8	1.49e+00	0	43	104	0	71	16999
2026-01-07 08:17:16.56	0.35	8.53	-50.3	-63.5	3.8	1.49e+00	0	43	104	0	71	17157
2026-01-07 08:17:19.56	0.02	8.34	-50.5	-63.5	3.8	1.49e+00	0	43	104	0	71	17178
2026-01-07 08:17:22.56	359.69	8.16	-50.6	-63.5	3.8	1.49e+00	0	43	104	0	71	17253
2026-01-07 08:17:25.55	359.36	7.98	-50.6	-63.6	3.8	1.49e+00	0	43	104	0	71	17323
2026-01-07 08:17:28.54	359.04	7.80	-50.3	-63.6	3.8	1.49e+00	0	43	104	0	71	17342
2026-01-07 08:17:31.53	358.72	7.62	-50.6	-63.5	3.8	1.49e+00	0	43	104	0	71	17269
2026-01-07 08:17:34.52	358.41	7.44	-50.4	-63.5	3.8	1.49e+00	0	43	104	0	71	17183
2026-01-07 08:17:37.52	358.10	7.26	-50.2	-63.5	3.8	1.49e+00	0	43	104	0	71	17207
2026-01-07 08:17:40.51	357.80	7.08	-50.2	-63.5	3.8	1.49e+00	0	44	104	0	71	17257
2026-01-07 08:17:43.51	357.49	6.90	-50.2	-63.5	3.8	1.49e+00	0	43	104	0	71	17238
2026-01-07 08:17:46.51	357.20	6.72	-50.2	-63.5	3.8	1.49e+00	0	44	104	0	71	17187
2026-01-07 08:17:49.50	356.90	6.54	-50.2	-63.5	3.8	1.49e+00	0	44	104	0	71	17213
2026-01-07 08:17:52.50	356.61	6.36	-50.2	-63.5	3.8	1.49e+00	0	43	104	0	71	17264
2026-01-07 08:17:55.49	356.33	6.18	-50.2	-63.6	3.8	1.49e+00	0	43	104	0	71	17284
2026-01-07 08:17:58.48	356.04	6.01	-50.2	-63.5	3.8	1.49e+00	0	43	104	0	71	17202
2026-01-07 08:18:01.47	355.76	5.83	-50.2	-63.5	3.8	1.49e+00	0	44	104	0	71	17159
2026-01-07 08:18:04.47	355.49	5.66	-50.2	-63.5	3.8	1.49e+00	0	44	104	0	71	17208
2026-01-07 08:18:07.47	355.22	5.48	-50.2	-63.5	3.8	1.49e+00	0	43	104	0	71	17191
2026-01-07 08:18:10.47	354.95	5.31	-50.2	-63.5	3.8	1.49e+00	0	44	104	0	71	17225
2026-01-07 08:18:13.46	354.68	5.13	-50.2	-63.5	3.8	1.49e+00	0	44	104	0	71	17211
2026-01-07 08:18:16.45	354.42	4.96	-50.2	-63.5	3.8	1.49e+00	0	44	104	0	71	17210

#Closed at: 2026-01-07 08:18:17
#Recorded file [0 MB]: D:/Data/31040_260107_110748.dat