passes_logs/2026/01/07/T1/T1__20260107_162618_FENGYUN_3E_rec.log

#Pass ID: 20260107_162618_FENGYUN 3E
#Satellite: FENGYUN 3E
#Configuration: FENGYUN 3E
#almurnet v.1.7.20251203
#Start time: 2026-01-07 16:26:20

#Version: 2.0.20230620
#Station: T1
#Location: 37.570604 lon 55.790049 lat
#TLE: 1 49008U 21062A   26006.26767912  .00000427  00000+0  22170-3 0  9993
#TLE: 2 49008  98.7475  11.4982 0001602 156.1158 204.0093 14.19885456233607

#Time	Az	El	Level	Level2	SNR	BER	BlckErr	Temp	State	Recorded	gain1	gain2
2026-01-07 16:26:20.03	238.28	5.05	-52.6	-63.9	3.8	8.46e-01	0	41	0	0	75	13307
2026-01-07 16:26:22.03	238.52	5.14	-52.6	-63.9	3.8	8.46e-01	0	41	104	0	76	12636
2026-01-07 16:26:24.04	238.77	5.22	-52.6	-63.9	3.8	8.47e-01	0	41	104	0	76	12659
2026-01-07 16:26:26.05	239.02	5.31	-52.6	-63.9	3.8	8.46e-01	0	42	104	0	76	12605
2026-01-07 16:26:28.06	239.27	5.40	-52.6	-63.9	3.8	8.47e-01	0	42	104	0	76	12583
2026-01-07 16:26:30.07	239.52	5.48	-52.6	-63.8	3.8	8.47e-01	0	42	104	0	75	13243
2026-01-07 16:26:32.08	239.77	5.57	-52.6	-63.8	3.8	8.47e-01	0	42	104	0	75	13251
2026-01-07 16:26:34.08	240.02	5.65	-52.6	-63.9	3.8	8.48e-01	0	42	104	0	75	13295
2026-01-07 16:26:36.09	240.28	5.74	-52.6	-63.8	3.8	8.46e-01	0	42	104	0	75	13216
2026-01-07 16:26:38.10	240.53	5.82	-52.6	-63.8	3.8	8.48e-01	0	42	104	0	75	13190
2026-01-07 16:26:40.11	240.79	5.91	-52.6	-63.8	3.8	8.47e-01	0	42	104	0	75	13236
2026-01-07 16:26:42.11	241.05	5.99	-52.6	-63.8	3.8	8.46e-01	0	42	104	0	75	13200
2026-01-07 16:26:44.12	241.31	6.08	-52.6	-63.9	3.8	8.47e-01	0	42	104	0	75	13268
2026-01-07 16:26:46.13	241.57	6.16	-52.6	-63.8	3.8	8.48e-01	0	42	104	0	75	13179
2026-01-07 16:26:48.14	241.84	6.25	-52.5	-63.7	3.8	8.46e-01	0	42	104	0	75	13102
2026-01-07 16:26:50.15	242.10	6.33	-52.6	-63.7	3.8	8.48e-01	0	42	104	0	75	13100
2026-01-07 16:26:52.16	242.37	6.42	-52.6	-63.8	3.8	8.47e-01	0	42	104	0	75	13119
2026-01-07 16:26:54.17	242.64	6.50	-52.6	-63.8	3.8	8.47e-01	0	43	104	0	75	13153
2026-01-07 16:26:56.18	242.91	6.58	-52.6	-63.8	3.8	8.48e-01	0	43	104	0	75	13245
2026-01-07 16:26:58.18	243.18	6.67	-52.6	-63.9	3.8	8.47e-01	0	42	104	0	75	13268
2026-01-07 16:27:00.19	243.45	6.75	-52.6	-63.8	3.8	8.47e-01	0	43	104	0	75	13195
2026-01-07 16:27:02.20	243.73	6.83	-52.6	-63.8	3.8	8.46e-01	0	43	104	0	75	13155
2026-01-07 16:27:04.21	244.00	6.91	-52.6	-63.7	3.8	8.48e-01	0	43	104	0	75	13108
2026-01-07 16:27:06.22	244.28	6.99	-52.6	-63.7	3.8	8.48e-01	0	43	104	0	75	12998
2026-01-07 16:27:08.23	244.56	7.08	-52.6	-63.7	3.8	8.46e-01	0	43	104	0	75	12994
2026-01-07 16:27:10.24	244.84	7.16	-52.5	-63.6	3.8	8.47e-01	0	43	104	0	75	12891
2026-01-07 16:27:12.25	245.12	7.24	-52.5	-63.5	3.8	8.47e-01	0	43	104	0	75	12759
2026-01-07 16:27:14.26	245.41	7.32	-52.5	-63.6	3.8	8.47e-01	0	43	104	0	75	12904
2026-01-07 16:27:16.27	245.69	7.40	-52.5	-63.7	3.8	8.46e-01	0	43	104	0	75	12977
2026-01-07 16:27:18.27	245.98	7.48	-52.5	-63.7	3.8	8.48e-01	0	43	104	0	75	13048
2026-01-07 16:27:20.28	246.26	7.56	-52.6	-63.7	3.8	8.47e-01	0	43	104	0	75	13099
2026-01-07 16:27:22.29	246.55	7.64	-52.6	-63.8	3.8	8.47e-01	0	43	104	0	75	13207
2026-01-07 16:27:24.30	246.84	7.72	-52.6	-63.7	3.8	8.47e-01	0	43	104	0	75	13087
2026-01-07 16:27:26.31	247.14	7.79	-52.6	-63.8	3.8	8.48e-01	0	43	104	0	75	13199
2026-01-07 16:27:28.32	247.43	7.87	-52.6	-63.8	3.8	8.46e-01	0	43	104	0	75	13186
2026-01-07 16:27:30.32	247.73	7.95	-52.5	-63.5	3.8	8.48e-01	0	43	104	0	75	12806
2026-01-07 16:27:32.34	248.02	8.03	-52.6	-63.6	3.8	8.46e-01	0	43	104	0	75	12821
2026-01-07 16:27:34.34	248.32	8.10	-52.6	-63.8	3.8	8.46e-01	0	43	104	0	75	13137
2026-01-07 16:27:36.35	248.62	8.18	-52.6	-63.6	3.8	8.46e-01	0	43	104	0	75	12932
2026-01-07 16:27:38.36	248.92	8.25	-52.5	-63.5	3.8	8.47e-01	0	43	104	0	75	12794
2026-01-07 16:27:40.37	249.23	8.33	-52.5	-63.8	3.8	8.47e-01	0	43	104	0	75	13165
2026-01-07 16:27:42.38	249.53	8.41	-52.4	-62.5	3.8	8.46e-01	0	43	104	0	75	11376
2026-01-07 16:27:44.39	249.84	8.48	-52.1	-60.3	4.2	8.39e-01	0	43	0	0	75	8797
2026-01-07 16:27:46.39	250.14	8.55	-52.4	-62.2	3.8	8.47e-01	0	43	104	0	75	10991
2026-01-07 16:27:48.40	250.45	8.63	-51.3	-57.0	5.9	7.87e-01	0	43	0	0	73	6735
2026-01-07 16:27:50.41	250.76	8.70	-47.5	-49.7	13.0	1.52e-04	0	43	0	14680064	65	4610
2026-01-07 16:27:52.42	251.08	8.77	-45.1	-46.6	16.1	0.00e+00	0	43	0	28311552	61	4073
2026-01-07 16:27:54.43	251.39	8.84	-45.0	-46.4	16.3	0.00e+00	0	43	0	42991616	60	4226
2026-01-07 16:27:56.44	251.70	8.91	-46.9	-48.8	14.0	0.00e+00	0	43	0	57671680	63	4675
2026-01-07 16:27:58.45	252.02	8.99	-49.5	-52.7	10.0	4.65e-03	0	43	0	72351744	68	5477
2026-01-07 16:28:00.56	252.36	9.06	-49.0	-51.7	10.9	1.90e-02	0	43	0	87031808	68	4922
2026-01-07 16:28:02.57	252.68	9.13	-51.7	-58.1	5.2	7.20e-01	0	43	0	99614720	72	8128
2026-01-07 16:28:04.58	253.00	9.20	-51.5	-57.5	5.5	7.53e-01	0	43	0	100663296	73	7140
2026-01-07 16:28:06.58	253.32	9.27	-51.8	-58.8	4.7	8.08e-01	0	44	0	100663296	73	8364
2026-01-07 16:28:08.76	253.67	9.34	-51.7	-57.8	5.3	7.65e-01	0	43	0	101711872	73	7450
2026-01-07 16:28:10.82	254.00	9.41	-48.0	-50.3	12.3	2.73e-02	0	44	0	109051904	66	4661
2026-01-07 16:28:12.84	254.33	9.47	-49.2	-52.0	10.7	6.02e-03	0	43	0	121634816	69	4814
2026-01-07 16:28:14.85	254.66	9.54	-49.0	-51.7	11.1	2.66e-03	0	43	0	136314880	68	4926
2026-01-07 16:28:16.85	254.99	9.61	-47.5	-49.8	12.9	5.14e-05	0	43	0	150994944	65	4655
2026-01-07 16:28:18.85	255.32	9.67	-46.4	-48.3	14.5	2.20e-06	0	43	0	165675008	63	4414
2026-01-07 16:28:20.86	255.65	9.73	-46.0	-47.8	15.1	0.00e+00	0	43	0	180355072	62	4396
2026-01-07 16:28:22.87	255.99	9.80	-46.0	-47.7	15.1	1.10e-06	0	43	0	193986560	62	4371
2026-01-07 16:28:24.89	256.32	9.86	-44.9	-46.3	16.6	0.00e+00	0	43	0	208666624	60	4150
2026-01-07 16:28:26.89	256.66	9.92	-45.3	-46.8	16.1	0.00e+00	0	43	0	223346688	60	4417
2026-01-07 16:28:28.90	257.00	9.98	-43.9	-45.2	17.5	0.00e+00	0	44	0	238026752	58	4104
2026-01-07 16:28:31.00	257.35	10.04	-43.8	-45.0	17.6	0.00e+00	0	43	0	252706816	58	4039
2026-01-07 16:28:33.20	257.73	10.11	-43.0	-44.1	18.6	0.00e+00	0	43	0	269484032	56	4053
2026-01-07 16:28:35.60	258.13	10.18	-42.6	-43.7	18.9	0.00e+00	0	43	0	286261248	56	3881
2026-01-07 16:28:37.61	258.48	10.24	-42.4	-43.5	19.0	0.00e+00	0	43	0	300941312	55	4024
2026-01-07 16:28:39.62	258.82	10.29	-42.2	-43.3	19.2	0.00e+00	0	43	0	315621376	55	3917
2026-01-07 16:28:41.62	259.17	10.35	-42.3	-43.4	19.1	0.00e+00	0	43	0	329252864	55	3976
2026-01-07 16:28:43.61	259.51	10.41	-42.4	-43.5	19.0	0.00e+00	0	43	0	343932928	55	4028
2026-01-07 16:28:45.62	259.86	10.46	-42.4	-43.5	18.9	0.00e+00	0	43	0	358612992	55	4044
2026-01-07 16:28:47.63	260.21	10.51	-42.6	-43.7	18.8	0.00e+00	0	44	0	373293056	55	4099
2026-01-07 16:28:49.64	260.57	10.57	-42.4	-43.5	18.9	0.00e+00	0	44	0	387973120	55	4032
2026-01-07 16:28:51.64	260.92	10.62	-42.5	-43.5	18.9	0.00e+00	0	43	0	402653184	55	4049
2026-01-07 16:28:53.65	261.27	10.67	-42.3	-43.3	19.2	0.00e+00	0	43	0	416284672	55	3935
2026-01-07 16:28:55.65	261.62	10.72	-42.4	-43.4	19.0	0.00e+00	0	43	0	430964736	55	4004
2026-01-07 16:28:57.66	261.98	10.77	-42.5	-43.6	18.9	0.00e+00	0	43	0	445644800	55	4059
2026-01-07 16:28:59.66	262.34	10.82	-42.6	-43.7	18.8	0.00e+00	0	43	0	460324864	55	4133
2026-01-07 16:29:01.61	262.68	10.86	-42.6	-43.7	18.8	0.00e+00	0	43	0	473956352	55	4111
2026-01-07 16:29:03.61	263.04	10.91	-42.5	-43.6	18.9	0.00e+00	0	43	0	488636416	55	4072
2026-01-07 16:29:05.62	263.40	10.96	-42.6	-43.7	18.8	0.00e+00	0	43	0	503316480	55	4125
2026-01-07 16:29:07.63	263.77	11.00	-42.4	-43.5	19.0	0.00e+00	0	43	0	516947968	55	4028
2026-01-07 16:29:09.63	264.13	11.04	-42.5	-43.6	18.9	0.00e+00	0	43	0	531628032	55	4076
2026-01-07 16:29:11.64	264.49	11.09	-42.5	-43.6	18.9	0.00e+00	0	43	0	546308096	55	4059
2026-01-07 16:29:13.65	264.86	11.13	-42.4	-43.5	19.0	0.00e+00	0	43	0	560988160	55	4019
2026-01-07 16:29:15.66	265.22	11.17	-42.3	-43.4	19.1	0.00e+00	0	43	0	575668224	55	3967
2026-01-07 16:29:17.67	265.59	11.21	-42.1	-43.2	19.3	0.00e+00	0	43	0	590348288	55	3869
2026-01-07 16:29:19.67	265.96	11.25	-42.0	-43.0	19.4	0.00e+00	0	43	0	603979776	54	4036
2026-01-07 16:29:21.67	266.32	11.29	-42.1	-43.1	19.4	0.00e+00	0	43	0	618659840	54	4059
2026-01-07 16:29:23.68	266.69	11.32	-42.2	-43.2	19.3	0.00e+00	0	43	0	633339904	54	4135
2026-01-07 16:29:25.75	267.07	11.36	-42.3	-43.3	19.2	0.00e+00	0	43	0	648019968	54	4165
2026-01-07 16:29:27.76	267.45	11.40	-42.2	-43.3	19.2	0.00e+00	0	43	0	662700032	54	4149
2026-01-07 16:29:29.78	267.82	11.43	-42.1	-43.1	19.3	0.00e+00	0	43	0	677380096	54	4076
2026-01-07 16:29:31.84	268.20	11.47	-42.1	-43.2	19.3	0.00e+00	0	43	0	692060160	54	4101
2026-01-07 16:29:33.84	268.58	11.50	-41.8	-42.8	19.6	0.00e+00	0	43	0	706740224	54	3932
2026-01-07 16:29:35.90	268.96	11.53	-42.0	-43.0	19.5	0.00e+00	0	43	0	721420288	54	4022
2026-01-07 16:29:37.90	269.33	11.56	-41.9	-42.9	19.5	0.00e+00	0	43	0	736100352	54	3984
2026-01-07 16:29:39.91	269.71	11.59	-41.9	-42.9	19.6	0.00e+00	0	43	0	750780416	54	3979
2026-01-07 16:29:41.92	270.09	11.61	-41.9	-42.9	19.5	0.00e+00	0	43	0	764411904	54	4000
2026-01-07 16:29:43.92	270.46	11.64	-42.0	-43.0	19.5	0.00e+00	0	43	0	779091968	54	4014
2026-01-07 16:29:45.92	270.84	11.67	-41.9	-42.9	19.5	0.00e+00	0	43	0	793772032	54	3984
2026-01-07 16:29:47.93	271.22	11.69	-42.1	-43.1	19.4	0.00e+00	0	43	0	808452096	54	4075
2026-01-07 16:29:49.93	271.60	11.71	-42.1	-43.1	19.4	0.00e+00	0	43	0	823132160	54	4084
2026-01-07 16:29:51.94	271.98	11.74	-42.0	-43.0	19.4	0.00e+00	0	43	0	837812224	54	4048
2026-01-07 16:29:53.95	272.36	11.76	-42.0	-43.1	19.4	0.00e+00	0	43	0	851443712	54	4060
2026-01-07 16:29:56.08	272.76	11.78	-42.0	-43.1	19.4	0.00e+00	0	43	0	867172352	54	4063
2026-01-07 16:29:58.26	273.17	11.80	-42.1	-43.1	19.4	0.00e+00	0	43	0	882900992	54	4094
2026-01-07 16:30:00.27	273.56	11.82	-42.1	-43.2	19.3	0.00e+00	0	44	0	897581056	54	4112
2026-01-07 16:30:02.54	273.99	11.83	-42.1	-43.1	19.4	0.00e+00	0	43	0	914358272	54	4090
2026-01-07 16:30:04.54	274.37	11.85	-42.1	-43.1	19.4	0.00e+00	0	43	0	927989760	54	4063
2026-01-07 16:30:06.55	274.75	11.86	-42.1	-43.1	19.4	0.00e+00	0	43	0	942669824	54	4083
2026-01-07 16:30:08.55	275.13	11.88	-42.1	-43.1	19.4	0.00e+00	0	43	0	957349888	54	4079
2026-01-07 16:30:10.59	275.52	11.89	-42.1	-43.2	19.3	0.00e+00	0	43	0	972029952	54	4106
2026-01-07 16:30:12.66	275.92	11.90	-42.2	-43.3	19.2	0.00e+00	0	43	0	986710016	54	4153
2026-01-07 16:30:14.84	276.34	11.91	-42.2	-43.3	19.2	0.00e+00	0	43	0	1002438656	54	4166
2026-01-07 16:30:17.01	276.75	11.92	-42.2	-43.3	19.3	0.00e+00	0	43	0	1018167296	54	4156
2026-01-07 16:30:19.31	277.19	11.93	-42.1	-43.1	19.4	0.00e+00	0	43	0	1034944512	54	4077
2026-01-07 16:30:21.49	277.61	11.93	-42.0	-43.0	19.4	0.00e+00	0	43	0	1050673152	54	4043
2026-01-07 16:30:23.64	278.02	11.94	-42.1	-43.1	19.4	0.00e+00	0	43	0	1066401792	54	4091
2026-01-07 16:30:25.80	278.44	11.94	-42.1	-43.1	19.4	0.00e+00	0	43	0	1082130432	54	4085
2026-01-07 16:30:28.03	278.86	11.94	-42.1	-43.1	19.4	0.00e+00	0	43	0	1097859072	54	4084
2026-01-07 16:30:30.62	279.36	11.94	-42.0	-43.1	19.4	0.00e+00	0	43	0	1116733440	54	4052
2026-01-07 16:30:32.63	279.75	11.94	-42.1	-43.1	19.4	0.00e+00	0	43	0	1131413504	54	4084
2026-01-07 16:30:34.64	280.13	11.94	-42.1	-43.1	19.4	0.00e+00	0	43	0	1146093568	54	4069
2026-01-07 16:30:36.64	280.51	11.94	-42.1	-43.1	19.3	0.00e+00	0	43	0	1159725056	54	4085
2026-01-07 16:30:38.65	280.90	11.93	-42.1	-43.1	19.3	0.00e+00	0	43	0	1174405120	54	4094
2026-01-07 16:30:40.65	281.28	11.93	-42.2	-43.2	19.3	0.00e+00	0	43	0	1189085184	54	4121
2026-01-07 16:30:42.66	281.67	11.92	-42.0	-43.1	19.4	0.00e+00	0	43	0	1203765248	54	4053
2026-01-07 16:30:44.70	282.06	11.91	-42.0	-43.1	19.5	0.00e+00	0	43	0	1218445312	54	4052
2026-01-07 16:30:46.70	282.44	11.90	-42.0	-43.0	19.5	0.00e+00	0	43	0	1233125376	54	4044
2026-01-07 16:30:48.89	282.86	11.89	-42.0	-43.0	19.5	0.00e+00	0	43	0	1248854016	54	4027
2026-01-07 16:30:50.90	283.24	11.88	-42.0	-43.0	19.5	0.00e+00	0	43	0	1262485504	54	4031
2026-01-07 16:30:52.91	283.62	11.87	-42.2	-43.3	19.3	0.00e+00	0	43	0	1277165568	54	4146
2026-01-07 16:30:54.92	284.01	11.85	-42.2	-43.2	19.3	0.00e+00	0	43	0	1291845632	54	4139
2026-01-07 16:30:56.92	284.39	11.84	-42.3	-43.3	19.2	0.00e+00	0	43	0	1306525696	54	4191
2026-01-07 16:30:58.96	284.78	11.82	-42.3	-43.3	19.2	0.00e+00	0	43	0	1321205760	54	4172
2026-01-07 16:31:01.00	285.16	11.80	-42.3	-43.3	19.2	0.00e+00	0	43	0	1335885824	54	4169
2026-01-07 16:31:03.01	285.54	11.78	-42.2	-43.2	19.2	0.00e+00	0	43	0	1350565888	54	4123
2026-01-07 16:31:05.01	285.92	11.77	-42.3	-43.3	19.2	0.00e+00	0	43	0	1365245952	54	4166
2026-01-07 16:31:07.02	286.30	11.74	-42.3	-43.3	19.2	0.00e+00	0	43	0	1378877440	54	4175
2026-01-07 16:31:09.03	286.68	11.72	-42.3	-43.3	19.2	0.00e+00	0	43	0	1393557504	54	4192
2026-01-07 16:31:11.04	287.06	11.70	-42.4	-43.4	19.1	0.00e+00	0	43	0	1408237568	54	4224
2026-01-07 16:31:13.04	287.44	11.68	-42.3	-43.3	19.2	0.00e+00	0	43	0	1422917632	54	4158
2026-01-07 16:31:15.05	287.82	11.65	-42.1	-43.1	19.4	0.00e+00	0	43	0	1437597696	54	4093
2026-01-07 16:31:17.06	288.19	11.62	-42.2	-43.2	19.3	0.00e+00	0	43	0	1452277760	54	4135
2026-01-07 16:31:19.06	288.57	11.60	-42.2	-43.3	19.2	0.00e+00	0	43	0	1465909248	54	4150
2026-01-07 16:31:21.26	288.98	11.57	-42.3	-43.4	19.1	0.00e+00	0	43	0	1481637888	54	4206
2026-01-07 16:31:23.29	289.36	11.54	-42.4	-43.5	18.9	0.00e+00	0	43	0	1497366528	54	4256
2026-01-07 16:31:25.30	289.73	11.51	-42.4	-43.5	19.0	0.00e+00	0	43	0	1510998016	54	4244
2026-01-07 16:31:27.60	290.16	11.47	-42.3	-43.4	19.1	0.00e+00	0	43	0	1527775232	54	4204
2026-01-07 16:31:29.61	290.53	11.44	-42.3	-43.3	19.1	0.00e+00	0	43	0	1542455296	54	4175
2026-01-07 16:31:31.61	290.90	11.40	-42.4	-43.5	19.0	0.00e+00	0	43	0	1557135360	54	4266
2026-01-07 16:31:33.62	291.27	11.37	-42.6	-43.7	18.8	0.00e+00	0	43	0	1570766848	54	4342
2026-01-07 16:31:35.62	291.64	11.33	-42.7	-43.8	18.7	0.00e+00	0	43	0	1585446912	55	4157
2026-01-07 16:31:37.63	292.01	11.30	-42.8	-43.9	18.6	0.00e+00	0	43	0	1600126976	55	4228
2026-01-07 16:31:39.64	292.38	11.26	-42.9	-44.1	18.5	0.00e+00	0	43	0	1614807040	55	4292
2026-01-07 16:31:41.64	292.75	11.22	-42.8	-43.9	18.6	0.00e+00	0	43	0	1629487104	55	4198
2026-01-07 16:31:43.65	293.11	11.18	-42.7	-43.8	18.7	0.00e+00	0	43	0	1644167168	55	4183
2026-01-07 16:31:45.66	293.48	11.14	-42.6	-43.7	18.8	0.00e+00	0	43	0	1657798656	55	4120
2026-01-07 16:31:47.66	293.84	11.10	-42.8	-43.8	18.6	0.00e+00	0	43	0	1672478720	55	4183
2026-01-07 16:31:49.76	294.22	11.05	-42.8	-43.8	18.6	0.00e+00	0	43	0	1688207360	55	4189
2026-01-07 16:31:51.77	294.58	11.01	-42.7	-43.8	18.7	0.00e+00	0	43	0	1701838848	55	4182
2026-01-07 16:31:53.77	294.94	10.97	-43.0	-44.1	18.4	0.00e+00	0	43	0	1716518912	55	4298
2026-01-07 16:31:55.77	295.30	10.92	-43.0	-44.1	18.3	0.00e+00	0	43	0	1731198976	55	4335
2026-01-07 16:31:57.78	295.66	10.87	-43.0	-44.1	18.4	0.00e+00	0	43	0	1745879040	55	4304
2026-01-07 16:31:59.78	296.01	10.83	-43.1	-44.2	18.3	0.00e+00	0	43	0	1760559104	55	4347
2026-01-07 16:32:01.79	296.37	10.78	-43.1	-44.2	18.3	0.00e+00	0	43	0	1775239168	55	4353
2026-01-07 16:32:04.02	296.76	10.73	-42.9	-44.0	18.5	0.00e+00	0	43	0	1790967808	55	4266
2026-01-07 16:32:06.02	297.12	10.68	-43.0	-44.1	18.3	0.00e+00	0	43	0	1804599296	55	4310
2026-01-07 16:32:08.02	297.47	10.62	-43.1	-44.2	18.3	0.00e+00	0	43	0	1819279360	55	4362
2026-01-07 16:32:10.03	297.82	10.57	-43.2	-44.3	18.1	0.00e+00	0	43	0	1833959424	55	4437
2026-01-07 16:32:12.02	298.17	10.52	-43.5	-44.7	17.9	0.00e+00	0	43	0	1848639488	56	4366
2026-01-07 16:32:14.03	298.52	10.47	-43.6	-44.8	17.8	0.00e+00	0	43	0	1863319552	56	4410
2026-01-07 16:32:16.03	298.86	10.41	-43.6	-44.8	17.8	0.00e+00	0	43	0	1877999616	56	4420
2026-01-07 16:32:18.04	299.21	10.36	-43.5	-44.7	18.0	0.00e+00	0	43	0	1891631104	56	4355
2026-01-07 16:32:20.04	299.55	10.30	-43.5	-44.6	18.0	0.00e+00	0	43	0	1906311168	56	4337
2026-01-07 16:32:22.05	299.90	10.25	-43.4	-44.6	18.0	0.00e+00	0	43	0	1920991232	56	4292
2026-01-07 16:32:24.06	300.24	10.19	-43.4	-44.5	18.1	0.00e+00	0	43	0	1935671296	56	4263
2026-01-07 16:32:26.06	300.58	10.13	-43.3	-44.4	18.2	0.00e+00	0	43	0	1950351360	56	4238
2026-01-07 16:32:28.21	300.94	10.07	-43.5	-44.6	18.0	0.00e+00	0	43	0	1965031424	56	4313
2026-01-07 16:32:30.30	301.30	10.01	-43.4	-44.5	18.1	0.00e+00	0	43	0	1980760064	56	4269
2026-01-07 16:32:32.30	301.63	9.95	-43.4	-44.6	18.0	0.00e+00	0	43	0	1995440128	56	4300
2026-01-07 16:32:34.31	301.97	9.89	-43.6	-44.7	17.9	0.00e+00	0	43	0	2009071616	56	4387
2026-01-07 16:32:36.32	302.30	9.82	-43.7	-44.9	17.7	0.00e+00	0	43	0	2023751680	56	4447
2026-01-07 16:32:38.32	302.63	9.76	-43.6	-44.8	17.8	0.00e+00	0	43	0	2038431744	56	4425
2026-01-07 16:32:40.33	302.97	9.70	-43.6	-44.8	17.8	0.00e+00	0	43	0	2053111808	56	4410
2026-01-07 16:32:42.40	303.31	9.63	-43.7	-44.9	17.7	0.00e+00	0	43	0	2067791872	57	4213
2026-01-07 16:32:44.43	303.64	9.57	-43.8	-44.9	17.6	0.00e+00	0	43	0	2082471936	57	4236
2026-01-07 16:32:46.71	304.01	9.49	-43.8	-44.9	17.6	0.00e+00	0	43	0	2099249152	57	4242
2026-01-07 16:32:48.72	304.34	9.43	-43.7	-44.9	17.6	0.00e+00	0	43	0	2112880640	57	4226
2026-01-07 16:32:50.72	304.66	9.36	-43.7	-44.8	17.7	0.00e+00	0	43	0	2127560704	57	4191
2026-01-07 16:32:52.73	304.98	9.30	-43.7	-44.8	17.7	0.00e+00	0	43	0	2142240768	57	4182
2026-01-07 16:32:54.74	305.30	9.23	-43.7	-44.9	17.7	0.00e+00	0	43	0	2156920832	57	4208
2026-01-07 16:32:56.74	305.62	9.16	-43.6	-44.8	17.7	0.00e+00	0	43	0	2171600896	57	4187
2026-01-07 16:32:58.70	305.93	9.09	-43.7	-44.9	17.6	0.00e+00	0	43	0	2185232384	57	4239
2026-01-07 16:33:00.70	306.25	9.02	-43.8	-45.1	17.5	0.00e+00	0	43	0	2199912448	57	4294
2026-01-07 16:33:02.71	306.56	8.95	-53.0	-63.9	3.8	8.46e-01	0	43	104	2208301056	75	13381
2026-01-07 16:33:04.72	306.88	8.88	-53.4	-64.3	3.8	8.47e-01	0	43	104	2208301056	76	13149
2026-01-07 16:33:06.73	307.19	8.81	-53.3	-64.5	3.8	8.46e-01	0	43	104	2208301056	76	13436
2026-01-07 16:33:08.74	307.50	8.74	-53.6	-64.5	3.8	8.47e-01	0	43	104	2208301056	76	13540
2026-01-07 16:33:10.75	307.81	8.67	-53.6	-64.6	3.8	8.48e-01	0	43	104	2208301056	77	12870
2026-01-07 16:33:12.75	308.12	8.60	-53.5	-64.6	3.8	8.47e-01	0	43	104	2208301056	77	12920
2026-01-07 16:33:14.76	308.43	8.52	-53.7	-64.6	3.8	8.48e-01	0	43	104	2208301056	77	12908
2026-01-07 16:33:16.77	308.73	8.45	-53.7	-64.7	3.8	8.46e-01	0	43	104	2208301056	77	12973
2026-01-07 16:33:18.78	309.03	8.38	-53.6	-64.6	3.8	8.46e-01	0	43	104	2208301056	77	12820
2026-01-07 16:33:20.79	309.34	8.30	-53.6	-64.6	3.8	8.46e-01	0	43	104	2208301056	77	12855
2026-01-07 16:33:22.79	309.64	8.23	-53.4	-64.5	3.8	8.47e-01	0	43	104	2208301056	77	12738
2026-01-07 16:33:24.81	309.94	8.15	-53.4	-64.5	3.8	8.48e-01	0	43	104	2208301056	77	12718
2026-01-07 16:33:26.81	310.23	8.08	-53.4	-64.5	3.8	8.46e-01	0	43	104	2208301056	77	12800
2026-01-07 16:33:28.82	310.53	8.00	-53.4	-64.5	3.8	8.47e-01	0	43	104	2208301056	77	12757
2026-01-07 16:33:30.83	310.83	7.92	-53.4	-64.5	3.8	8.46e-01	0	43	104	2208301056	77	12749
2026-01-07 16:33:32.84	311.12	7.85	-53.4	-64.4	3.8	8.46e-01	0	43	104	2208301056	77	12641
2026-01-07 16:33:34.85	311.41	7.77	-53.4	-64.5	3.8	8.46e-01	0	43	104	2208301056	77	12765
2026-01-07 16:33:36.86	311.70	7.69	-53.4	-64.5	3.8	8.46e-01	0	43	104	2208301056	77	12739
2026-01-07 16:33:38.87	311.99	7.61	-53.4	-64.5	3.8	8.47e-01	0	43	104	2208301056	77	12788
2026-01-07 16:33:40.87	312.28	7.54	-53.4	-64.5	3.8	8.46e-01	0	43	104	2208301056	77	12684
2026-01-07 16:33:42.89	312.56	7.46	-53.4	-64.5	3.8	8.47e-01	0	43	104	2208301056	77	12668
2026-01-07 16:33:44.89	312.85	7.38	-53.4	-64.4	3.8	8.46e-01	0	43	104	2208301056	77	12638
2026-01-07 16:33:46.90	313.13	7.30	-53.4	-64.4	3.8	8.47e-01	0	43	104	2208301056	77	12632
2026-01-07 16:33:48.91	313.41	7.22	-53.4	-64.5	3.8	8.47e-01	0	43	104	2208301056	77	12718
2026-01-07 16:33:50.92	313.69	7.14	-53.4	-64.4	3.8	8.47e-01	0	43	104	2208301056	77	12617
2026-01-07 16:33:52.93	313.97	7.06	-53.3	-64.4	3.8	8.47e-01	0	43	104	2208301056	77	12654
2026-01-07 16:33:54.94	314.24	6.98	-53.3	-64.5	3.8	8.48e-01	0	43	104	2208301056	77	12721
2026-01-07 16:33:56.95	314.52	6.89	-53.4	-64.4	3.8	8.47e-01	0	43	104	2208301056	77	12664
2026-01-07 16:33:58.95	314.79	6.81	-53.3	-64.4	3.8	8.47e-01	0	43	104	2208301056	77	12616
2026-01-07 16:34:00.96	315.07	6.73	-53.4	-64.5	3.8	8.47e-01	0	43	104	2208301056	77	12665
2026-01-07 16:34:02.97	315.34	6.65	-53.3	-64.4	3.8	8.46e-01	0	43	104	2208301056	77	12626
2026-01-07 16:34:04.98	315.61	6.57	-53.4	-64.4	3.8	8.47e-01	0	43	104	2208301056	77	12646
2026-01-07 16:34:06.99	315.87	6.49	-53.3	-64.4	3.8	8.45e-01	0	43	104	2208301056	77	12651
2026-01-07 16:34:09.00	316.14	6.40	-53.3	-64.5	3.8	8.47e-01	0	43	104	2208301056	77	12674
2026-01-07 16:34:11.00	316.40	6.32	-53.4	-64.4	3.8	8.47e-01	0	43	104	2208301056	77	12621
2026-01-07 16:34:13.01	316.67	6.24	-53.3	-64.4	3.8	8.46e-01	0	43	104	2208301056	77	12652
2026-01-07 16:34:15.02	316.93	6.15	-53.3	-64.4	3.8	8.47e-01	0	43	104	2208301056	77	12636
2026-01-07 16:34:17.03	317.19	6.07	-53.3	-64.5	3.8	8.48e-01	0	43	104	2208301056	77	12687
2026-01-07 16:34:19.04	317.45	5.99	-53.3	-64.4	3.8	8.47e-01	0	43	104	2208301056	77	12643
2026-01-07 16:34:21.05	317.71	5.90	-53.3	-64.4	3.8	8.48e-01	0	43	104	2208301056	77	12636
2026-01-07 16:34:23.05	317.96	5.82	-53.3	-64.4	3.8	8.46e-01	0	43	104	2208301056	77	12629
2026-01-07 16:34:25.07	318.22	5.73	-53.3	-64.4	3.8	8.47e-01	0	43	104	2208301056	77	12553
2026-01-07 16:34:27.07	318.47	5.65	-53.3	-64.4	3.8	8.46e-01	0	43	104	2208301056	77	12560
2026-01-07 16:34:29.08	318.72	5.56	-53.3	-64.4	3.8	8.46e-01	0	43	104	2208301056	77	12609
2026-01-07 16:34:31.09	318.97	5.48	-53.3	-64.4	3.8	8.47e-01	0	43	104	2208301056	77	12635
2026-01-07 16:34:33.10	319.22	5.39	-53.3	-64.4	3.8	8.45e-01	0	43	104	2208301056	77	12561
2026-01-07 16:34:35.11	319.47	5.31	-53.3	-64.4	3.8	8.47e-01	0	43	104	2208301056	77	12563
2026-01-07 16:34:37.12	319.72	5.22	-53.3	-64.4	3.8	8.48e-01	0	43	104	2208301056	77	12613
2026-01-07 16:34:39.13	319.96	5.14	-53.3	-64.4	3.8	8.46e-01	0	43	104	2208301056	77	12595
2026-01-07 16:34:41.13	320.21	5.05	-53.3	-64.4	3.8	8.47e-01	0	43	104	2208301056	77	12578
2026-01-07 16:34:43.14	320.45	4.97	-53.3	-64.4	3.8	8.47e-01	0	43	104	2208301056	77	12598

#Closed at: 2026-01-07 16:34:44
#Recorded file [2208 MB]: D:/Data/31040_260107_192620.dat