passes_logs/2026/01/07/T1/T1__20260107_114536_AQUA_rec.log

#Pass ID: 20260107_114536_AQUA
#Satellite: AQUA
#Configuration: AQUA
#almurnet v.1.7.20251203
#Start time: 2026-01-07 11:45:36

#Version: 2.0.20230620
#Station: T1
#Location: 37.570604 lon 55.790049 lat
#TLE: 1 27424U 02022A   26004.96787593  .00001598  00000+0  32997-3 0  9996
#TLE: 2 27424  98.4069 331.2279 0002002  90.2377   0.6092 14.61798176259425

#Time	Az	El	Level	Level2	SNR	BER	BlckErr	Temp	State	Recorded	gain1	gain2
2026-01-07 11:45:36.15	164.35	4.99	-53.2	-74.1	3.8	7.48e-01	0	41	0	0	78	38839
2026-01-07 11:45:39.16	164.38	5.21	-51.2	-72.7	3.8	7.44e-01	0	41	104	0	73	44302
2026-01-07 11:45:42.18	164.40	5.44	-51.2	-71.9	3.8	7.42e-01	0	41	104	0	73	40358
2026-01-07 11:45:45.19	164.43	5.68	-51.1	-72.7	3.8	7.47e-01	0	41	104	0	73	44143
2026-01-07 11:45:48.20	164.45	5.91	-51.2	-73.0	3.8	7.46e-01	0	41	104	0	73	45935
2026-01-07 11:45:51.22	164.48	6.15	-51.1	-69.7	4.3	7.28e-01	0	41	104	0	73	31239
2026-01-07 11:45:54.23	164.51	6.39	-51.1	-67.0	5.7	6.90e-01	0	41	0	524288	73	22807
2026-01-07 11:45:57.24	164.53	6.63	-51.0	-66.6	6.0	6.88e-01	0	42	0	5242880	73	21997
2026-01-07 11:46:00.26	164.56	6.87	-51.1	-69.1	4.5	7.36e-01	0	42	104	6815744	73	29028
2026-01-07 11:46:03.27	164.59	7.12	-51.1	-71.1	4.0	7.39e-01	0	42	104	6815744	73	36836
2026-01-07 11:46:06.28	164.61	7.37	-51.0	-68.0	5.1	7.08e-01	0	42	0	6815744	73	25709
2026-01-07 11:46:09.30	164.64	7.62	-50.8	-63.3	9.1	6.34e-01	0	42	0	11534336	73	14992
2026-01-07 11:46:12.31	164.67	7.88	-50.4	-60.1	12.5	6.13e-01	0	42	0	16777216	72	11026
2026-01-07 11:46:15.32	164.70	8.14	-50.0	-58.3	14.4	6.08e-01	0	42	0	22544384	72	8892
2026-01-07 11:46:18.34	164.73	8.40	-50.2	-58.7	14.1	6.10e-01	0	42	0	28311552	71	9852
2026-01-07 11:46:21.35	164.76	8.66	-50.6	-61.1	11.6	6.16e-01	0	42	0	34078720	71	13042
2026-01-07 11:46:24.36	164.79	8.93	-51.1	-66.4	6.3	6.78e-01	0	42	0	39845888	72	22533
2026-01-07 11:46:27.37	164.82	9.20	-51.1	-69.1	4.0	7.38e-01	0	42	104	40894464	72	31019
2026-01-07 11:46:30.38	164.85	9.47	-48.9	-57.6	16.1	6.05e-01	0	43	0	44040192	68	10398
2026-01-07 11:46:33.39	164.88	9.75	-47.8	-53.2	19.7	6.07e-01	0	42	0	47710208	67	6643
2026-01-07 11:46:36.40	164.91	10.03	-47.7	-52.1	20.4	6.08e-01	0	43	0	52953088	67	5815
2026-01-07 11:46:39.41	164.94	10.32	-47.4	-51.1	21.7	6.09e-01	0	43	0	58720256	66	5487
2026-01-07 11:46:42.42	164.98	10.60	-47.2	-50.7	22.1	6.07e-01	0	43	0	64487424	65	5578
2026-01-07 11:46:45.43	165.01	10.90	-46.9	-50.1	22.4	6.08e-01	0	43	0	70254592	65	5191
2026-01-07 11:46:48.44	165.04	11.19	-46.8	-49.9	22.9	6.07e-01	0	43	0	76021760	65	5048
2026-01-07 11:46:51.44	165.08	11.49	-46.4	-49.3	23.4	6.07e-01	0	43	0	81264640	64	4994
2026-01-07 11:46:54.43	165.11	11.79	-46.5	-49.5	23.2	6.07e-01	0	43	0	87031808	64	5111
2026-01-07 11:46:57.44	165.15	12.10	-46.4	-49.4	23.3	6.08e-01	0	43	0	92798976	64	5042
2026-01-07 11:47:00.45	165.18	12.41	-46.3	-49.3	23.4	6.08e-01	0	43	0	98566144	64	5005
2026-01-07 11:47:03.46	165.22	12.73	-46.4	-49.3	23.4	6.07e-01	0	43	0	103809024	64	5007
2026-01-07 11:47:06.47	165.26	13.05	-46.3	-49.2	23.5	6.08e-01	0	43	0	109576192	64	4960
2026-01-07 11:47:09.48	165.29	13.38	-46.1	-48.9	23.8	6.06e-01	0	43	0	115343360	64	4806
2026-01-07 11:47:12.49	165.33	13.71	-46.2	-49.0	23.1	6.06e-01	0	43	0	121110528	64	4861
2026-01-07 11:47:15.50	165.37	14.05	-46.1	-48.8	24.0	6.08e-01	0	43	0	126353408	64	4716
2026-01-07 11:47:18.51	165.41	14.39	-46.1	-48.7	24.0	6.08e-01	0	43	0	132120576	64	4703
2026-01-07 11:47:21.52	165.45	14.73	-46.1	-48.7	24.1	6.07e-01	0	43	0	137887744	64	4657
2026-01-07 11:47:24.52	165.49	15.09	-46.1	-48.6	24.1	6.08e-01	0	43	0	143654912	64	4647
2026-01-07 11:47:27.53	165.54	15.44	-46.2	-48.8	24.0	6.08e-01	0	43	0	148897792	64	4740
2026-01-07 11:47:30.54	165.58	15.81	-46.1	-48.8	24.0	6.07e-01	0	43	0	154664960	64	4737
2026-01-07 11:47:33.55	165.63	16.18	-46.0	-48.7	24.1	6.06e-01	0	43	0	160432128	64	4665
2026-01-07 11:47:36.57	165.67	16.56	-46.1	-48.7	24.2	6.06e-01	0	43	0	166199296	63	4975
2026-01-07 11:47:39.58	165.72	16.94	-46.0	-48.7	24.2	6.05e-01	0	43	0	171442176	63	4958
2026-01-07 11:47:42.59	165.76	17.33	-45.9	-48.5	24.5	6.05e-01	0	43	0	177209344	63	4826
2026-01-07 11:47:45.59	165.81	17.73	-46.0	-48.6	24.3	6.06e-01	0	43	0	182976512	63	4902
2026-01-07 11:47:48.61	165.86	18.13	-46.1	-48.8	24.2	6.07e-01	0	43	0	188743680	63	4993
2026-01-07 11:47:51.62	165.91	18.55	-46.1	-48.8	24.1	6.06e-01	0	43	0	194510848	63	5024
2026-01-07 11:47:54.63	165.97	18.96	-46.2	-48.8	24.2	6.06e-01	0	43	0	199753728	63	5026
2026-01-07 11:47:57.64	166.02	19.39	-46.2	-48.8	24.2	6.08e-01	0	43	0	205520896	63	4995
2026-01-07 11:48:00.65	166.07	19.83	-46.3	-48.9	24.1	6.07e-01	0	43	0	211288064	63	5054
2026-01-07 11:48:03.65	166.13	20.27	-46.3	-49.0	24.0	6.07e-01	0	43	0	217055232	63	5153
2026-01-07 11:48:06.66	166.19	20.72	-46.4	-49.1	22.2	6.08e-01	0	43	0	222298112	63	5211
2026-01-07 11:48:09.67	166.25	21.19	-46.6	-49.3	23.8	6.07e-01	0	43	0	228065280	63	5311
2026-01-07 11:48:12.68	166.31	21.66	-46.5	-49.2	23.8	6.06e-01	0	43	0	233832448	63	5250
2026-01-07 11:48:15.69	166.37	22.14	-46.5	-49.1	23.9	6.07e-01	0	43	0	239599616	63	5194
2026-01-07 11:48:18.70	166.43	22.63	-46.6	-49.2	23.9	6.06e-01	0	43	0	244842496	63	5262
2026-01-07 11:48:21.71	166.50	23.13	-46.7	-49.4	23.7	6.05e-01	0	43	0	250609664	64	5066
2026-01-07 11:48:24.72	166.57	23.64	-46.5	-49.3	23.7	6.06e-01	0	43	0	256376832	64	5013
2026-01-07 11:48:27.73	166.64	24.17	-46.5	-49.3	23.7	6.07e-01	0	43	0	262144000	64	5005
2026-01-07 11:48:30.74	166.71	24.70	-46.6	-49.3	23.8	6.05e-01	0	43	0	267911168	64	4999
2026-01-07 11:48:33.75	166.78	25.25	-46.6	-49.3	23.8	6.07e-01	0	43	0	273154048	64	4989
2026-01-07 11:48:36.76	166.86	25.81	-46.6	-49.2	23.8	6.05e-01	0	43	0	278921216	64	4983
2026-01-07 11:48:39.77	166.94	26.38	-46.2	-48.8	24.3	6.05e-01	0	43	0	284688384	64	4707
2026-01-07 11:48:42.78	167.02	26.97	-46.3	-48.9	24.2	6.05e-01	0	43	0	289931264	64	4781
2026-01-07 11:48:45.79	167.10	27.57	-46.3	-48.9	24.2	6.07e-01	0	43	0	295698432	64	4777
2026-01-07 11:48:48.80	167.19	28.18	-46.0	-48.5	24.5	6.06e-01	0	43	0	301465600	64	4598
2026-01-07 11:48:51.81	167.28	28.81	-46.0	-48.5	24.7	6.07e-01	0	43	0	307232768	63	4824
2026-01-07 11:48:54.82	167.38	29.46	-46.1	-48.6	24.5	6.06e-01	0	43	0	312999936	63	4889
2026-01-07 11:48:57.83	167.48	30.12	-46.0	-48.5	24.7	6.06e-01	0	43	0	318242816	63	4834
2026-01-07 11:49:00.84	167.58	30.80	-46.1	-48.6	24.5	6.08e-01	0	43	0	324009984	63	4924
2026-01-07 11:49:03.85	167.68	31.49	-46.3	-48.8	24.3	6.08e-01	0	43	0	329777152	63	5013
2026-01-07 11:49:06.86	167.79	32.20	-46.3	-48.8	24.4	6.08e-01	0	43	0	335544320	63	4985
2026-01-07 11:49:09.87	167.91	32.94	-46.5	-49.0	24.2	6.08e-01	0	43	0	340787200	63	5151
2026-01-07 11:49:12.88	168.03	33.69	-46.6	-49.2	24.0	6.06e-01	0	43	0	346554368	64	4959
2026-01-07 11:49:15.89	168.16	34.46	-46.7	-49.3	23.8	6.06e-01	0	43	0	352321536	64	5035
2026-01-07 11:49:18.90	168.29	35.25	-47.2	-49.9	23.3	6.07e-01	0	43	0	358088704	65	5096
2026-01-07 11:49:21.91	168.42	36.06	-47.4	-50.2	23.1	6.06e-01	0	43	0	363855872	65	5250
2026-01-07 11:49:24.92	168.57	36.90	-47.8	-50.7	22.6	6.10e-01	0	43	0	369098752	66	5255
2026-01-07 11:49:27.93	168.72	37.75	-48.1	-51.1	22.3	6.07e-01	0	43	0	374865920	66	5512
2026-01-07 11:49:30.94	168.88	38.64	-48.3	-51.3	22.0	6.09e-01	0	43	0	380633088	67	5316
2026-01-07 11:49:33.94	169.05	39.54	-48.1	-51.0	22.3	6.06e-01	0	43	0	386400256	67	5136
2026-01-07 11:49:36.95	169.23	40.47	-47.7	-50.6	22.8	6.07e-01	0	43	0	391643136	67	4874
2026-01-07 11:49:39.96	169.41	41.43	-47.4	-50.2	23.1	6.05e-01	0	43	0	397410304	66	4950
2026-01-07 11:49:42.97	169.61	42.41	-46.9	-49.6	23.7	6.06e-01	0	43	0	403177472	65	4893
2026-01-07 11:49:45.97	169.82	43.42	-46.6	-49.2	24.1	6.05e-01	0	43	0	408944640	65	4660
2026-01-07 11:49:48.98	170.05	44.46	-46.7	-49.2	24.1	6.07e-01	0	43	0	414187520	65	4683
2026-01-07 11:49:51.99	170.29	45.53	-46.8	-49.4	23.9	6.07e-01	0	43	0	419954688	65	4761
2026-01-07 11:49:55.00	170.54	46.63	-46.5	-49.0	24.3	6.06e-01	0	43	0	425721856	65	4576
2026-01-07 11:49:58.01	170.82	47.76	-46.4	-48.8	24.4	6.07e-01	0	43	0	431489024	64	4753
2026-01-07 11:50:01.02	171.11	48.92	-46.4	-48.9	24.3	6.05e-01	0	43	0	436731904	64	4810
2026-01-07 11:50:04.03	171.43	50.11	-46.4	-48.9	24.4	6.08e-01	0	43	0	442499072	64	4782
2026-01-07 11:50:07.05	171.78	51.34	-46.3	-48.8	24.5	6.06e-01	0	43	0	448266240	64	4718
2026-01-07 11:50:10.06	172.15	52.60	-45.7	-48.0	25.2	6.06e-01	0	43	0	454033408	63	4584
2026-01-07 11:50:13.07	172.56	53.89	-45.8	-48.1	25.1	6.06e-01	0	43	0	459276288	63	4635
2026-01-07 11:50:16.07	173.00	55.22	-45.9	-48.4	24.9	6.06e-01	0	43	0	465043456	63	4771
2026-01-07 11:50:19.09	173.49	56.58	-46.4	-48.8	24.4	6.07e-01	0	43	0	470810624	64	4756
2026-01-07 11:50:22.10	174.02	57.97	-47.4	-50.1	23.3	6.08e-01	0	43	0	476577792	65	5165
2026-01-07 11:50:25.11	174.62	59.39	-47.4	-50.0	23.3	6.07e-01	0	43	0	482344960	65	5156
2026-01-07 11:50:28.12	175.29	60.85	-47.7	-50.5	22.9	6.05e-01	0	43	0	487587840	66	5126
2026-01-07 11:50:31.13	176.03	62.33	-48.4	-51.4	22.1	6.08e-01	0	43	0	493355008	67	5357
2026-01-07 11:50:34.14	176.88	63.85	-49.3	-52.7	21.0	6.06e-01	0	43	0	499122176	69	5541
2026-01-07 11:50:37.15	177.84	65.39	-49.8	-53.5	20.2	6.07e-01	0	43	0	504889344	70	5746
2026-01-07 11:50:40.16	178.94	66.96	-50.3	-54.0	19.6	6.06e-01	0	43	0	510132224	71	5783
2026-01-07 11:50:43.17	180.23	68.55	-50.3	-54.3	19.4	6.08e-01	0	44	0	515899392	71	5934
2026-01-07 11:50:46.18	181.73	70.16	-50.9	-55.0	18.6	6.05e-01	0	43	0	521666560	72	6130
2026-01-07 11:50:49.19	183.53	71.78	-50.4	-54.3	19.3	6.09e-01	0	43	0	527433728	72	5602
2026-01-07 11:50:52.19	185.68	73.40	-49.6	-53.0	20.7	6.07e-01	0	43	0	532676608	71	5134
2026-01-07 11:50:55.20	188.34	75.02	-48.9	-52.4	21.2	6.06e-01	0	44	0	538443776	69	5346
2026-01-07 11:50:58.21	191.66	76.62	-48.8	-51.8	21.9	6.08e-01	0	43	0	544210944	69	4990
2026-01-07 11:51:01.22	195.90	78.19	-48.5	-51.5	22.1	6.08e-01	0	43	0	549978112	68	5135
2026-01-07 11:51:04.23	201.44	79.69	-47.6	-50.4	23.1	6.07e-01	0	43	0	555220992	67	4773
2026-01-07 11:51:07.23	208.77	81.07	-46.6	-49.3	24.2	6.08e-01	0	43	0	560988160	65	4715
2026-01-07 11:51:10.24	218.64	82.26	-46.5	-49.1	24.3	6.06e-01	0	43	0	566755328	64	4907
2026-01-07 11:51:13.25	231.60	83.16	-46.8	-49.4	23.9	6.08e-01	0	43	0	572522496	64	5080
2026-01-07 11:51:16.26	247.42	83.62	-47.0	-49.7	23.7	6.09e-01	0	43	0	577765376	65	4955
2026-01-07 11:51:19.27	264.24	83.56	-46.7	-49.4	23.9	6.06e-01	0	43	0	583532544	65	4770
2026-01-07 11:51:22.28	279.47	82.97	-46.7	-49.4	24.0	6.07e-01	0	43	0	589299712	64	5071
2026-01-07 11:51:25.29	291.65	81.99	-46.9	-49.5	23.9	6.07e-01	0	44	0	595066880	64	5116
2026-01-07 11:51:28.29	300.81	80.75	-47.2	-49.9	23.4	6.07e-01	0	43	0	600834048	65	5093
2026-01-07 11:51:31.30	307.67	79.34	-47.6	-50.3	23.1	6.06e-01	0	44	0	606076928	65	5338
2026-01-07 11:51:34.31	312.85	77.82	-48.1	-51.1	22.4	6.08e-01	0	44	0	611844096	67	5178
2026-01-07 11:51:37.32	316.83	76.25	-48.9	-52.5	21.1	6.08e-01	0	44	0	617611264	68	5742
2026-01-07 11:51:40.34	319.98	74.63	-49.0	-52.2	21.4	6.07e-01	0	44	0	622854144	69	5226
2026-01-07 11:51:43.35	322.50	73.01	-49.2	-52.4	21.3	6.07e-01	0	43	0	628621312	69	5356
2026-01-07 11:51:46.36	324.56	71.39	-49.1	-52.4	21.3	6.06e-01	0	44	0	634388480	70	5074
2026-01-07 11:51:49.37	326.28	69.78	-49.4	-52.8	20.9	6.09e-01	0	44	0	640155648	70	5310
2026-01-07 11:51:52.38	327.72	68.18	-50.2	-53.9	19.8	6.07e-01	0	43	0	645922816	71	5671
2026-01-07 11:51:55.39	328.96	66.60	-49.4	-52.7	21.0	6.08e-01	0	43	0	651165696	70	5246
2026-01-07 11:51:58.40	330.03	65.04	-48.5	-51.5	22.1	6.05e-01	0	44	0	656932864	68	5121
2026-01-07 11:52:01.41	330.96	63.50	-48.0	-50.9	22.7	6.07e-01	0	43	0	662700032	68	4781
2026-01-07 11:52:04.42	331.77	62.00	-47.7	-50.5	23.0	6.08e-01	0	43	0	668467200	67	4820
2026-01-07 11:52:07.43	332.50	60.53	-47.2	-49.8	23.5	6.06e-01	0	43	0	673710080	66	4755
2026-01-07 11:52:10.44	333.15	59.08	-47.1	-49.7	23.7	6.07e-01	0	43	0	679477248	66	4683
2026-01-07 11:52:13.45	333.73	57.67	-46.8	-49.5	23.9	6.07e-01	0	44	0	685244416	65	4825
2026-01-07 11:52:16.46	334.25	56.29	-46.0	-48.5	24.8	6.07e-01	0	44	0	691011584	64	4563
2026-01-07 11:52:19.47	334.73	54.95	-45.9	-48.4	24.9	6.06e-01	0	44	0	696254464	63	4810
2026-01-07 11:52:22.48	335.16	53.64	-45.8	-48.3	25.0	6.07e-01	0	44	0	702021632	63	4736
2026-01-07 11:52:25.48	335.56	52.36	-45.9	-48.3	25.0	6.06e-01	0	43	0	707788800	63	4710
2026-01-07 11:52:28.49	335.93	51.11	-46.2	-48.7	24.6	6.07e-01	0	44	0	713555968	63	4956
2026-01-07 11:52:31.50	336.27	49.90	-46.7	-49.3	24.0	6.07e-01	0	43	0	719323136	64	5039
2026-01-07 11:52:34.52	336.58	48.71	-46.6	-49.2	24.1	6.07e-01	0	43	0	724566016	64	4942
2026-01-07 11:52:37.53	336.87	47.57	-46.5	-49.1	24.2	6.09e-01	0	44	0	730333184	64	4902
2026-01-07 11:52:40.54	337.14	46.45	-46.7	-49.3	24.0	6.06e-01	0	43	0	736100352	64	5030
2026-01-07 11:52:43.55	337.39	45.36	-46.9	-49.6	23.7	6.06e-01	0	43	0	741867520	64	5199
2026-01-07 11:52:46.56	337.63	44.30	-47.0	-49.6	23.7	6.07e-01	0	43	0	747110400	64	5209
2026-01-07 11:52:49.57	337.85	43.27	-46.7	-49.5	23.8	6.06e-01	0	44	0	752877568	64	5150
2026-01-07 11:52:52.58	338.06	42.27	-46.9	-49.9	23.5	6.08e-01	0	44	0	758644736	64	5356
2026-01-07 11:52:55.59	338.26	41.29	-47.2	-49.9	23.4	6.07e-01	0	44	0	764411904	65	5084
2026-01-07 11:52:58.60	338.44	40.35	-47.7	-50.7	22.7	6.06e-01	0	44	0	769654784	66	5247
2026-01-07 11:53:01.61	338.62	39.43	-47.6	-50.3	23.0	6.08e-01	0	43	0	775421952	66	5041
2026-01-07 11:53:04.62	338.79	38.53	-47.8	-50.8	22.6	6.06e-01	0	44	0	781189120	66	5305
2026-01-07 11:53:07.62	338.95	37.66	-47.5	-50.3	23.0	6.08e-01	0	44	0	786956288	66	5024
2026-01-07 11:53:10.63	339.10	36.81	-46.8	-49.5	23.7	6.05e-01	0	43	0	792199168	65	4866
2026-01-07 11:53:13.64	339.24	35.98	-46.5	-49.4	23.9	6.08e-01	0	44	0	797966336	64	5056
2026-01-07 11:53:16.65	339.38	35.18	-46.4	-49.2	24.0	6.07e-01	0	44	0	803733504	64	4981
2026-01-07 11:53:19.65	339.51	34.40	-46.5	-49.1	24.1	6.08e-01	0	43	0	809500672	64	4926
2026-01-07 11:53:22.66	339.63	33.63	-46.1	-48.7	24.5	6.06e-01	0	44	0	814743552	64	4683
2026-01-07 11:53:25.67	339.75	32.89	-45.9	-48.4	24.8	6.06e-01	0	44	0	820510720	63	4786
2026-01-07 11:53:28.68	339.87	32.17	-45.5	-48.3	24.9	6.07e-01	0	44	0	826277888	63	4722
2026-01-07 11:53:31.69	339.98	31.46	-45.6	-48.2	25.0	6.06e-01	0	44	0	832045056	63	4688
2026-01-07 11:53:34.70	340.09	30.77	-45.8	-48.4	24.8	6.06e-01	0	43	0	837812224	63	4786
2026-01-07 11:53:37.71	340.19	30.10	-45.8	-48.4	24.8	6.07e-01	0	43	0	843055104	63	4804
2026-01-07 11:53:40.72	340.29	29.45	-45.9	-48.4	24.8	6.06e-01	0	43	0	848822272	63	4798
2026-01-07 11:53:43.73	340.38	28.81	-45.9	-48.4	24.8	6.06e-01	0	43	0	854589440	63	4779
2026-01-07 11:53:46.74	340.47	28.18	-45.9	-48.5	24.7	6.06e-01	0	44	0	860356608	63	4845
2026-01-07 11:53:49.75	340.56	27.57	-46.1	-48.8	24.4	6.08e-01	0	44	0	865599488	63	5037
2026-01-07 11:53:52.76	340.65	26.98	-46.4	-49.1	24.2	6.09e-01	0	44	0	871366656	63	5182
2026-01-07 11:53:55.77	340.73	26.40	-46.4	-49.3	24.0	6.05e-01	0	44	0	877133824	63	5280
2026-01-07 11:53:58.77	340.81	25.83	-46.2	-49.3	23.9	6.06e-01	0	44	0	882900992	63	5338
2026-01-07 11:54:01.78	340.89	25.28	-46.4	-49.7	23.6	6.08e-01	0	44	0	888143872	63	5537
2026-01-07 11:54:04.79	340.96	24.73	-46.6	-49.6	23.7	6.08e-01	0	44	0	893911040	63	5483
2026-01-07 11:54:07.79	341.04	24.20	-46.6	-49.5	23.7	6.06e-01	0	43	0	899678208	64	5119
2026-01-07 11:54:10.80	341.11	23.68	-46.5	-49.5	23.7	6.08e-01	0	43	0	905445376	64	5153
2026-01-07 11:54:13.81	341.18	23.18	-46.1	-49.4	23.7	6.03e-01	0	44	0	910688256	64	5078
2026-01-07 11:54:16.82	341.24	22.68	-46.1	-49.4	23.7	6.00e-01	0	43	0	916455424	64	5082
2026-01-07 11:54:19.83	341.31	22.19	-46.5	-49.2	23.9	6.04e-01	0	44	0	922222592	64	4979
2026-01-07 11:54:22.84	341.37	21.71	-46.5	-49.2	24.0	6.03e-01	0	43	0	927989760	64	4957
2026-01-07 11:54:25.85	341.43	21.25	-46.1	-49.0	24.1	6.03e-01	0	44	0	933756928	64	4832
2026-01-07 11:54:28.86	341.49	20.79	-46.0	-49.0	24.1	6.04e-01	0	44	0	938999808	64	4846
2026-01-07 11:54:31.87	341.55	20.34	-46.5	-49.1	24.0	6.02e-01	0	43	0	944766976	64	4925
2026-01-07 11:54:34.88	341.61	19.90	-46.5	-49.1	24.1	6.05e-01	0	43	0	950534144	64	4894
2026-01-07 11:54:37.89	341.67	19.46	-46.3	-49.0	24.1	6.04e-01	0	43	0	956301312	64	4845
2026-01-07 11:54:40.90	341.72	19.04	-46.1	-49.0	24.2	6.04e-01	0	43	0	961544192	64	4815
2026-01-07 11:54:43.91	341.78	18.62	-46.0	-48.9	24.2	6.01e-01	0	43	0	967311360	64	4764
2026-01-07 11:54:46.92	341.83	18.21	-46.2	-48.9	24.2	6.02e-01	0	43	0	973078528	63	5099
2026-01-07 11:54:49.93	341.88	17.81	-46.3	-49.0	24.2	6.03e-01	0	44	0	978845696	63	5105
2026-01-07 11:54:52.95	341.93	17.42	-46.0	-49.0	24.1	6.02e-01	0	43	0	984088576	63	5124
2026-01-07 11:54:55.95	341.98	17.03	-45.7	-49.1	24.0	6.05e-01	0	44	0	989855744	63	5202
2026-01-07 11:54:58.96	342.03	16.65	-45.7	-49.1	24.0	6.03e-01	0	43	0	995622912	63	5166
2026-01-07 11:55:01.97	342.07	16.28	-46.1	-49.2	23.8	6.04e-01	0	44	0	1001390080	63	5269
2026-01-07 11:55:04.98	342.12	15.91	-46.4	-49.1	23.9	6.04e-01	0	44	0	1006632960	63	5214
2026-01-07 11:55:07.99	342.17	15.55	-46.3	-49.1	24.0	6.02e-01	0	43	0	1012400128	63	5178
2026-01-07 11:55:10.99	342.21	15.19	-46.0	-49.1	23.9	6.04e-01	0	44	0	1018167296	63	5197
2026-01-07 11:55:14.00	342.25	14.84	-45.9	-49.0	24.0	6.04e-01	0	44	0	1023934464	63	5142
2026-01-07 11:55:17.01	342.30	14.49	-45.9	-49.0	24.1	6.03e-01	0	43	0	1029177344	63	5106
2026-01-07 11:55:20.02	342.34	14.16	-46.0	-49.0	24.0	6.04e-01	0	44	0	1034944512	63	5153
2026-01-07 11:55:23.03	342.38	13.82	-46.1	-49.1	23.9	6.04e-01	0	44	0	1040711680	63	5179
2026-01-07 11:55:26.04	342.42	13.49	-46.0	-49.2	23.9	6.04e-01	0	43	0	1046478848	63	5222
2026-01-07 11:55:29.05	342.46	13.17	-45.8	-49.2	23.8	6.01e-01	0	44	0	1052246016	63	5264
2026-01-07 11:55:32.06	342.50	12.85	-46.0	-49.3	23.7	6.06e-01	0	44	0	1057488896	63	5289
2026-01-07 11:55:35.07	342.54	12.53	-46.2	-49.4	23.6	6.00e-01	0	43	0	1063256064	63	5347
2026-01-07 11:55:38.08	342.58	12.22	-46.5	-49.5	23.5	6.02e-01	0	44	0	1069023232	63	5441
2026-01-07 11:55:41.09	342.62	11.91	-46.5	-49.6	23.4	6.03e-01	0	44	0	1074266112	63	5482
2026-01-07 11:55:44.10	342.66	11.61	-46.5	-49.9	23.0	6.06e-01	0	44	0	1080033280	63	5693
2026-01-07 11:55:47.11	342.69	11.31	-46.3	-50.0	23.0	6.04e-01	0	43	0	1085800448	63	5723
2026-01-07 11:55:50.12	342.73	11.02	-46.1	-49.8	23.1	6.03e-01	0	44	0	1091567616	63	5643
2026-01-07 11:55:53.13	342.76	10.73	-46.1	-49.9	23.1	6.04e-01	0	43	0	1097334784	63	5679
2026-01-07 11:55:56.14	342.80	10.44	-46.1	-49.9	23.0	6.03e-01	0	43	0	1102577664	63	5702
2026-01-07 11:55:59.15	342.83	10.16	-46.2	-50.1	22.8	6.04e-01	0	43	0	1108344832	63	5834
2026-01-07 11:56:02.17	342.87	9.88	-45.7	-50.0	22.9	6.05e-01	0	44	0	1114112000	63	5739
2026-01-07 11:56:05.18	342.90	9.60	-45.2	-50.2	22.6	6.05e-01	0	43	0	1119879168	62	6218
2026-01-07 11:56:08.19	342.94	9.33	-44.8	-50.1	22.6	6.03e-01	0	43	0	1125122048	61	6549
2026-01-07 11:56:11.20	342.97	9.06	-44.9	-50.5	22.2	6.06e-01	0	43	0	1130889216	61	6848
2026-01-07 11:56:14.21	343.00	8.80	-51.9	-74.5	3.8	7.45e-01	0	44	104	1132462080	75	48385
2026-01-07 11:56:17.22	343.03	8.53	-53.4	-74.7	3.8	7.43e-01	0	43	104	1132462080	78	41853
2026-01-07 11:56:20.23	343.06	8.27	-53.5	-74.9	3.8	7.46e-01	0	44	104	1132462080	77	44990
2026-01-07 11:56:23.25	343.10	8.02	-54.3	-74.9	3.8	7.49e-01	0	44	104	1132462080	79	40294
2026-01-07 11:56:26.26	343.13	7.76	-54.3	-74.9	3.8	7.47e-01	0	44	104	1132462080	79	40409
2026-01-07 11:56:29.27	343.16	7.51	-54.3	-74.8	3.8	7.45e-01	0	43	104	1132462080	80	37737
2026-01-07 11:56:32.28	343.19	7.26	-54.4	-74.9	3.8	7.48e-01	0	44	104	1132462080	80	37842
2026-01-07 11:56:35.30	343.22	7.02	-54.5	-74.9	3.8	7.46e-01	0	43	104	1132462080	79	40105
2026-01-07 11:56:38.31	343.25	6.77	-54.2	-74.9	3.8	7.46e-01	0	44	104	1132462080	79	40131
2026-01-07 11:56:41.32	343.28	6.53	-54.1	-74.9	3.8	7.47e-01	0	43	104	1132462080	79	40203
2026-01-07 11:56:44.33	343.31	6.30	-54.1	-74.8	3.8	7.46e-01	0	44	104	1132462080	79	40011
2026-01-07 11:56:47.35	343.34	6.06	-54.0	-74.8	3.8	7.46e-01	0	44	104	1132462080	79	39890
2026-01-07 11:56:50.36	343.36	5.83	-54.0	-74.8	3.8	7.47e-01	0	44	104	1132462080	79	40008
2026-01-07 11:56:53.37	343.39	5.60	-54.0	-74.8	3.8	7.49e-01	0	44	104	1132462080	79	40012
2026-01-07 11:56:56.39	343.42	5.37	-54.1	-74.8	3.8	7.47e-01	0	44	104	1132462080	79	39926
2026-01-07 11:56:59.40	343.45	5.14	-54.1	-74.8	3.8	7.46e-01	0	44	104	1132462080	79	39924

#Closed at: 2026-01-07 11:57:02
#Recorded file [1132 MB]: D:/Data/31040_260107_144536.dat