passes_logs/2026/01/07/T1/T1__20260107_111623_FENGYUN_3D_rec.log

#Pass ID: 20260107_111623_FENGYUN 3D
#Satellite: FENGYUN 3D
#Configuration: FENGYUN 3D
#almurnet v.1.7.20251203
#Start time: 2026-01-07 11:16:24

#Version: 2.0.20230620
#Station: T1
#Location: 37.570604 lon 55.790049 lat
#TLE: 1 43010U 17072A   26006.26440730  .00000376  00000+0  19957-3 0  9994
#TLE: 2 43010  98.9925 337.9455 0002045 123.9195 236.2175 14.19693586422016

#Time	Az	El	Level	Level2	SNR	BER	BlckErr	Temp	State	Recorded	gain1	gain2
2026-01-07 11:16:24.35	138.69	5.11	-51.5	-63.7	3.8	8.46e-01	0	40	0	0	75	13920
2026-01-07 11:16:27.36	138.59	5.32	-51.5	-63.5	3.8	8.46e-01	0	41	104	0	74	14439
2026-01-07 11:16:30.37	138.48	5.53	-51.4	-63.3	3.8	8.47e-01	0	41	104	0	74	14148
2026-01-07 11:16:33.38	138.37	5.75	-51.4	-62.8	3.8	8.47e-01	0	41	104	0	74	13345
2026-01-07 11:16:36.40	138.26	5.97	-51.3	-62.0	3.8	8.47e-01	0	41	104	0	74	12115
2026-01-07 11:16:39.41	138.15	6.19	-51.2	-61.4	3.9	8.45e-01	0	42	104	0	74	11359
2026-01-07 11:16:42.42	138.03	6.41	-51.3	-62.0	3.8	8.44e-01	0	41	104	0	74	12169
2026-01-07 11:16:45.44	137.92	6.63	-51.4	-63.4	3.8	8.46e-01	0	41	104	0	74	14215
2026-01-07 11:16:48.45	137.80	6.85	-51.5	-63.5	3.8	8.47e-01	0	41	104	0	74	14388
2026-01-07 11:16:51.46	137.68	7.08	-51.2	-60.9	3.9	8.45e-01	0	42	104	0	74	10774
2026-01-07 11:16:54.46	137.56	7.31	-50.6	-57.9	5.1	7.88e-01	0	42	0	0	73	8058
2026-01-07 11:16:57.47	137.43	7.54	-49.6	-54.8	7.6	1.27e-01	0	42	0	11534336	71	6337
2026-01-07 11:17:00.48	137.31	7.77	-47.6	-51.2	11.1	3.39e-03	0	42	0	28311552	67	5252
2026-01-07 11:17:03.50	137.18	8.00	-45.7	-48.4	14.1	1.14e-05	0	42	0	45088768	63	4790
2026-01-07 11:17:06.51	137.05	8.24	-45.0	-47.6	14.9	0.00e+00	0	42	0	62914560	61	4885
2026-01-07 11:17:09.52	136.92	8.48	-45.5	-48.2	14.3	2.20e-06	0	42	0	79691776	61	5232
2026-01-07 11:17:12.53	136.78	8.72	-46.9	-50.2	12.2	2.91e-04	0	42	0	96468992	64	5562
2026-01-07 11:17:15.54	136.64	8.96	-49.7	-55.1	7.4	9.75e-02	0	42	0	113246208	69	7331
2026-01-07 11:17:18.56	136.50	9.20	-48.6	-52.9	9.5	2.54e-01	0	42	0	126877696	69	5677
2026-01-07 11:17:21.56	136.36	9.45	-46.6	-49.8	12.7	3.07e-02	0	42	0	136314880	65	4992
2026-01-07 11:17:24.57	136.22	9.70	-46.0	-48.8	13.8	1.37e-05	0	42	0	153092096	63	5017
2026-01-07 11:17:27.58	136.07	9.95	-44.3	-46.7	16.0	0.00e+00	0	42	0	169869312	60	4676
2026-01-07 11:17:30.59	135.92	10.20	-43.2	-45.4	17.2	0.00e+00	0	42	0	187695104	58	4524
2026-01-07 11:17:33.60	135.77	10.46	-43.0	-45.1	17.5	0.00e+00	0	42	0	204472320	58	4360
2026-01-07 11:17:36.61	135.61	10.72	-42.8	-45.0	17.7	0.00e+00	0	42	0	221249536	57	4546
2026-01-07 11:17:39.62	135.45	10.98	-42.8	-44.9	17.8	0.00e+00	0	43	0	238026752	57	4513
2026-01-07 11:17:42.63	135.29	11.24	-42.5	-44.5	18.1	0.00e+00	0	43	0	254803968	56	4588
2026-01-07 11:17:45.64	135.13	11.51	-42.3	-44.3	18.3	0.00e+00	0	43	0	272629760	56	4492
2026-01-07 11:17:48.65	134.96	11.78	-42.2	-44.2	18.5	0.00e+00	0	43	0	289406976	56	4397
2026-01-07 11:17:51.67	134.79	12.05	-42.2	-44.2	18.5	0.00e+00	0	43	0	306184192	56	4400
2026-01-07 11:17:54.68	134.61	12.32	-42.2	-44.2	18.5	0.00e+00	0	43	0	322961408	56	4422
2026-01-07 11:17:57.69	134.43	12.60	-41.8	-43.8	18.8	0.00e+00	0	43	0	339738624	55	4452
2026-01-07 11:18:00.70	134.25	12.88	-41.7	-43.7	18.8	0.00e+00	0	43	0	356515840	55	4421
2026-01-07 11:18:03.71	134.07	13.16	-41.7	-43.6	18.9	0.00e+00	0	43	0	373293056	55	4386
2026-01-07 11:18:06.72	133.88	13.45	-41.4	-43.4	19.2	0.00e+00	0	43	0	390070272	54	4502
2026-01-07 11:18:09.73	133.69	13.74	-41.3	-43.2	19.3	0.00e+00	0	43	0	407896064	54	4423
2026-01-07 11:18:12.74	133.49	14.03	-41.4	-43.3	19.2	0.00e+00	0	43	0	424673280	54	4487
2026-01-07 11:18:15.74	133.29	14.33	-41.4	-43.3	19.2	0.00e+00	0	43	0	441450496	54	4472
2026-01-07 11:18:18.75	133.08	14.63	-41.3	-43.3	19.3	0.00e+00	0	43	0	458227712	54	4452
2026-01-07 11:18:21.76	132.87	14.93	-41.2	-43.1	19.4	0.00e+00	0	43	0	475004928	54	4356
2026-01-07 11:18:24.77	132.66	15.23	-41.0	-42.9	19.6	0.00e+00	0	43	0	491782144	54	4271
2026-01-07 11:18:27.78	132.44	15.54	-40.9	-42.8	19.7	0.00e+00	0	43	0	508559360	53	4450
2026-01-07 11:18:30.79	132.22	15.85	-40.9	-42.8	19.6	0.00e+00	0	43	0	526385152	53	4483
2026-01-07 11:18:33.80	131.99	16.17	-41.0	-42.9	19.6	0.00e+00	0	43	0	543162368	53	4540
2026-01-07 11:18:36.81	131.76	16.49	-41.0	-42.9	19.6	0.00e+00	0	43	0	559939584	53	4507
2026-01-07 11:18:39.82	131.52	16.81	-40.7	-42.6	19.9	0.00e+00	0	43	0	576716800	53	4365
2026-01-07 11:18:42.83	131.28	17.14	-40.5	-42.3	20.2	0.00e+00	0	43	0	593494016	52	4482
2026-01-07 11:18:45.84	131.03	17.47	-40.3	-42.2	20.3	0.00e+00	0	43	0	610271232	52	4419
2026-01-07 11:18:48.85	130.77	17.81	-40.4	-42.2	20.2	0.00e+00	0	43	0	628097024	52	4441
2026-01-07 11:18:51.86	130.51	18.15	-40.5	-42.3	20.2	0.00e+00	0	43	0	644874240	52	4475
2026-01-07 11:18:54.86	130.25	18.49	-40.5	-42.4	20.1	0.00e+00	0	43	0	661651456	52	4521
2026-01-07 11:18:57.87	129.97	18.84	-40.6	-42.5	20.1	0.00e+00	0	43	0	678428672	52	4548
2026-01-07 11:19:00.88	129.70	19.19	-40.2	-42.0	20.5	0.00e+00	0	43	0	695205888	52	4328
2026-01-07 11:19:03.89	129.41	19.54	-40.0	-41.9	20.7	0.00e+00	0	43	0	711983104	51	4494
2026-01-07 11:19:06.90	129.12	19.91	-39.9	-41.7	20.8	0.00e+00	0	43	0	728760320	51	4397
2026-01-07 11:19:09.91	128.82	20.27	-39.9	-41.7	20.8	0.00e+00	0	43	0	746586112	51	4424
2026-01-07 11:19:12.92	128.51	20.64	-39.9	-41.7	20.8	0.00e+00	0	43	0	763363328	51	4401
2026-01-07 11:19:15.93	128.19	21.01	-39.9	-41.8	20.8	0.00e+00	0	43	0	780140544	51	4455
2026-01-07 11:19:18.94	127.87	21.39	-39.8	-41.6	20.9	0.00e+00	0	43	0	796917760	51	4358
2026-01-07 11:19:21.95	127.54	21.78	-39.6	-41.4	21.1	0.00e+00	0	43	0	813694976	51	4289
2026-01-07 11:19:24.96	127.20	22.16	-39.4	-41.1	21.4	0.00e+00	0	43	0	830472192	50	4383
2026-01-07 11:19:27.97	126.85	22.56	-39.4	-41.2	21.3	0.00e+00	0	43	0	847249408	50	4414
2026-01-07 11:19:30.98	126.49	22.95	-39.3	-41.1	21.4	0.00e+00	0	43	0	864026624	50	4362
2026-01-07 11:19:33.99	126.12	23.36	-39.4	-41.2	21.3	0.00e+00	0	43	0	881852416	50	4392
2026-01-07 11:19:37.00	125.75	23.77	-39.2	-40.9	21.5	0.00e+00	0	43	0	898629632	50	4290
2026-01-07 11:19:40.01	125.36	24.18	-39.2	-41.0	21.5	0.00e+00	0	43	0	915406848	50	4305
2026-01-07 11:19:43.02	124.96	24.60	-38.9	-40.7	21.7	0.00e+00	0	43	0	932184064	49	4396
2026-01-07 11:19:46.03	124.55	25.02	-39.0	-40.8	21.6	0.00e+00	0	43	0	948961280	49	4470
2026-01-07 11:19:49.04	124.13	25.45	-39.1	-40.8	21.6	0.00e+00	0	43	0	966787072	49	4491
2026-01-07 11:19:52.05	123.70	25.88	-38.8	-40.6	21.8	0.00e+00	0	43	0	983564288	49	4341
2026-01-07 11:19:55.06	123.25	26.32	-38.8	-40.5	21.8	0.00e+00	0	43	0	1000341504	49	4340
2026-01-07 11:19:58.07	122.80	26.77	-38.7	-40.5	21.9	0.00e+00	0	43	0	1017118720	49	4302
2026-01-07 11:20:01.08	122.33	27.22	-38.8	-40.5	21.9	0.00e+00	0	43	0	1033895936	49	4339
2026-01-07 11:20:04.09	121.84	27.67	-38.8	-40.5	21.9	0.00e+00	0	43	0	1050673152	49	4336
2026-01-07 11:20:07.10	121.34	28.13	-38.4	-40.1	22.2	0.00e+00	0	43	0	1067450368	48	4385
2026-01-07 11:20:10.11	120.83	28.60	-38.3	-40.1	22.3	0.00e+00	0	43	0	1084227584	48	4352
2026-01-07 11:20:13.12	120.30	29.07	-38.5	-40.2	22.1	0.00e+00	0	43	0	1102053376	48	4439
2026-01-07 11:20:16.13	119.76	29.54	-38.7	-40.4	22.0	0.00e+00	0	43	0	1118830592	48	4540
2026-01-07 11:20:19.14	119.20	30.02	-38.7	-40.5	21.9	0.00e+00	0	43	0	1135607808	48	4558
2026-01-07 11:20:22.16	118.62	30.51	-38.6	-40.4	22.0	0.00e+00	0	43	0	1152385024	48	4511
2026-01-07 11:20:25.17	118.02	31.00	-38.6	-40.3	22.1	0.00e+00	0	43	0	1169162240	48	4490
2026-01-07 11:20:28.18	117.40	31.50	-38.6	-40.3	22.1	0.00e+00	0	43	0	1185939456	48	4467
2026-01-07 11:20:31.19	116.77	32.00	-38.6	-40.4	22.1	0.00e+00	0	43	0	1202716672	48	4515
2026-01-07 11:20:34.20	116.12	32.50	-38.4	-40.2	22.2	0.00e+00	0	43	0	1220542464	48	4418
2026-01-07 11:20:37.21	115.44	33.01	-38.2	-39.9	22.4	0.00e+00	0	43	0	1237319680	48	4280
2026-01-07 11:20:40.21	114.75	33.52	-38.2	-39.9	22.4	0.00e+00	0	43	0	1254096896	48	4273
2026-01-07 11:20:43.22	114.03	34.03	-38.2	-40.0	22.4	0.00e+00	0	43	0	1270874112	48	4310
2026-01-07 11:20:46.23	113.28	34.55	-38.3	-40.0	22.3	0.00e+00	0	43	0	1287651328	48	4326
2026-01-07 11:20:49.24	112.52	35.07	-38.4	-40.2	22.2	0.00e+00	0	43	0	1304428544	48	4398
2026-01-07 11:20:52.25	111.72	35.60	-38.3	-40.0	22.4	0.00e+00	0	43	0	1322254336	48	4306
2026-01-07 11:20:55.26	110.91	36.13	-38.4	-40.1	22.3	0.00e+00	0	43	0	1339031552	48	4354
2026-01-07 11:20:58.27	110.06	36.65	-38.3	-40.0	22.4	0.00e+00	0	44	0	1355808768	48	4311
2026-01-07 11:21:01.28	109.19	37.18	-38.2	-40.0	22.5	0.00e+00	0	43	0	1372585984	48	4297
2026-01-07 11:21:04.29	108.28	37.71	-38.3	-40.0	22.4	0.00e+00	0	43	0	1389363200	48	4312
2026-01-07 11:21:07.30	107.35	38.24	-38.2	-39.9	22.5	0.00e+00	0	43	0	1406140416	48	4272
2026-01-07 11:21:10.31	106.39	38.77	-38.6	-40.4	22.1	0.00e+00	0	43	0	1422917632	48	4511
2026-01-07 11:21:13.32	105.39	39.30	-38.7	-40.5	22.0	0.00e+00	0	43	0	1439694848	48	4561
2026-01-07 11:21:16.33	104.36	39.83	-38.2	-39.9	22.5	0.00e+00	0	43	0	1457520640	48	4261
2026-01-07 11:21:19.35	103.30	40.35	-38.2	-39.9	22.5	0.00e+00	0	43	0	1474297856	48	4270
2026-01-07 11:21:22.36	102.20	40.87	-38.6	-40.4	22.2	0.00e+00	0	43	0	1491075072	48	4496
2026-01-07 11:21:25.37	101.07	41.38	-38.1	-39.8	22.6	0.00e+00	0	43	0	1507852288	48	4202
2026-01-07 11:21:28.38	99.90	41.89	-38.0	-39.7	22.4	0.00e+00	0	43	0	1524629504	47	4422
2026-01-07 11:21:31.38	98.70	42.39	-38.0	-39.7	22.4	0.00e+00	0	43	0	1541406720	47	4419
2026-01-07 11:21:34.40	97.45	42.89	-38.3	-40.1	22.1	0.00e+00	0	43	0	1559232512	47	4615
2026-01-07 11:21:37.40	96.17	43.37	-38.3	-40.0	22.2	0.00e+00	0	43	0	1576009728	47	4571
2026-01-07 11:21:40.41	94.85	43.84	-38.1	-39.9	22.3	0.00e+00	0	43	0	1592786944	47	4501
2026-01-07 11:21:43.42	93.48	44.30	-38.0	-39.8	22.4	0.00e+00	0	43	0	1609564160	47	4450
2026-01-07 11:21:46.43	92.08	44.75	-38.1	-39.9	22.3	0.00e+00	0	43	0	1626341376	47	4497
2026-01-07 11:21:49.44	90.64	45.18	-38.6	-40.4	21.8	0.00e+00	0	43	0	1643118592	47	4765
2026-01-07 11:21:52.45	89.16	45.60	-38.3	-40.0	22.5	0.00e+00	0	43	0	1660944384	48	4305
2026-01-07 11:21:55.46	87.64	46.00	-38.7	-40.5	22.2	0.00e+00	0	43	0	1677721600	48	4550
2026-01-07 11:21:58.46	86.09	46.37	-38.7	-40.4	22.2	0.00e+00	0	43	0	1694498816	48	4525
2026-01-07 11:22:01.47	84.50	46.73	-38.7	-40.4	22.2	0.00e+00	0	44	0	1711276032	48	4524
2026-01-07 11:22:04.48	82.87	47.07	-38.7	-40.4	22.1	0.00e+00	0	43	0	1728053248	48	4541
2026-01-07 11:22:07.49	81.21	47.38	-39.1	-40.8	21.8	0.00e+00	0	43	0	1744830464	48	4755
2026-01-07 11:22:10.50	79.51	47.67	-38.9	-40.6	22.0	0.00e+00	0	43	0	1761607680	48	4638
2026-01-07 11:22:13.51	77.79	47.94	-39.1	-40.9	21.8	0.00e+00	0	43	0	1778384896	48	4774
2026-01-07 11:22:16.52	76.03	48.17	-39.3	-41.1	21.6	0.00e+00	0	43	0	1796210688	49	4614
2026-01-07 11:22:19.53	74.25	48.38	-39.1	-40.9	21.8	0.00e+00	0	43	0	1812987904	49	4499
2026-01-07 11:22:22.54	72.45	48.56	-38.9	-40.6	22.0	0.00e+00	0	43	0	1829765120	49	4386
2026-01-07 11:22:25.55	70.63	48.70	-38.7	-40.4	22.2	0.00e+00	0	43	0	1846542336	49	4251
2026-01-07 11:22:28.56	68.79	48.82	-39.0	-40.7	21.9	0.00e+00	0	43	0	1863319552	49	4440
2026-01-07 11:22:31.57	66.95	48.90	-39.1	-40.8	21.9	0.00e+00	0	43	0	1880096768	49	4482
2026-01-07 11:22:34.58	65.09	48.96	-39.0	-40.7	21.9	0.00e+00	0	43	0	1896873984	49	4441
2026-01-07 11:22:37.59	63.23	48.98	-39.2	-41.0	21.7	0.00e+00	0	43	0	1914699776	49	4571
2026-01-07 11:22:40.60	61.37	48.96	-39.1	-40.8	21.9	0.00e+00	0	43	0	1931476992	49	4486
2026-01-07 11:22:43.61	59.51	48.92	-39.2	-41.0	21.7	0.00e+00	0	43	0	1948254208	49	4565
2026-01-07 11:22:46.61	57.67	48.84	-39.2	-41.0	21.8	0.00e+00	0	43	0	1965031424	49	4565
2026-01-07 11:22:49.63	55.82	48.73	-38.7	-40.4	22.2	0.00e+00	0	43	0	1981808640	49	4290
2026-01-07 11:22:52.63	54.00	48.59	-38.9	-40.7	22.0	0.00e+00	0	43	0	1998585856	49	4407
2026-01-07 11:22:55.64	52.20	48.42	-39.1	-40.8	21.9	0.00e+00	0	43	0	2016411648	49	4491
2026-01-07 11:22:58.65	50.42	48.22	-38.9	-40.6	22.0	0.00e+00	0	43	0	2033188864	49	4388
2026-01-07 11:23:01.65	48.66	47.99	-38.7	-40.4	22.2	0.00e+00	0	43	0	2049966080	49	4284
2026-01-07 11:23:04.66	46.93	47.74	-38.8	-40.5	22.1	0.00e+00	0	43	0	2066743296	49	4334
2026-01-07 11:23:07.67	45.23	47.46	-39.0	-40.8	21.9	0.00e+00	0	43	0	2083520512	49	4462
2026-01-07 11:23:10.68	43.56	47.15	-39.0	-40.7	22.0	0.00e+00	0	44	0	2100297728	49	4424
2026-01-07 11:23:13.70	41.92	46.82	-38.6	-40.4	22.2	0.00e+00	0	43	0	2117074944	49	4250
2026-01-07 11:23:16.71	40.32	46.46	-38.7	-40.4	22.2	0.00e+00	0	43	0	2133852160	48	4515
2026-01-07 11:23:19.72	38.76	46.09	-38.6	-40.3	22.3	0.00e+00	0	44	0	2151677952	48	4491
2026-01-07 11:23:22.72	37.24	45.70	-38.3	-40.1	22.6	0.00e+00	0	44	0	2168455168	48	4346
2026-01-07 11:23:25.73	35.76	45.28	-38.3	-40.0	22.6	0.00e+00	0	44	0	2185232384	48	4328
2026-01-07 11:23:28.74	34.31	44.86	-38.4	-40.1	22.5	0.00e+00	0	44	0	2202009600	48	4362
2026-01-07 11:23:31.75	32.90	44.41	-38.2	-39.9	22.6	0.00e+00	0	44	0	2218786816	48	4262
2026-01-07 11:23:34.76	31.54	43.96	-38.1	-39.8	22.7	0.00e+00	0	43	0	2235564032	48	4228
2026-01-07 11:23:37.77	30.21	43.49	-38.2	-39.9	22.6	0.00e+00	0	43	0	2252341248	48	4287
2026-01-07 11:23:40.78	28.92	43.01	-38.1	-39.8	22.7	0.00e+00	0	43	0	2269118464	48	4235
2026-01-07 11:23:43.79	27.67	42.52	-37.8	-39.4	22.7	0.00e+00	0	43	0	2286944256	47	4288
2026-01-07 11:23:46.80	26.46	42.02	-38.2	-39.9	22.3	0.00e+00	0	43	0	2303721472	47	4527
2026-01-07 11:23:49.81	25.28	41.52	-38.6	-40.3	22.4	0.00e+00	0	43	0	2320498688	47	4710
2026-01-07 11:23:52.82	24.14	41.01	-38.5	-40.2	22.5	0.00e+00	0	43	0	2337275904	47	4660
2026-01-07 11:23:55.82	23.04	40.49	-38.3	-40.0	22.7	0.00e+00	0	43	0	2354053120	47	4548
2026-01-07 11:23:58.83	21.98	39.97	-38.4	-40.0	22.6	0.00e+00	0	43	0	2370830336	47	4586
2026-01-07 11:24:01.84	20.94	39.45	-38.3	-39.9	22.7	0.00e+00	0	44	0	2387607552	47	4533
2026-01-07 11:24:04.85	19.94	38.92	-38.2	-39.8	22.8	0.00e+00	0	43	0	2405433344	47	4474
2026-01-07 11:24:07.86	18.98	38.40	-38.0	-39.6	23.0	0.00e+00	0	43	0	2422210560	47	4365
2026-01-07 11:24:10.87	18.04	37.87	-37.9	-39.5	23.1	0.00e+00	0	43	0	2438987776	47	4324
2026-01-07 11:24:13.88	17.13	37.34	-38.1	-39.7	22.9	0.00e+00	0	44	0	2455764992	47	4438
2026-01-07 11:24:16.89	16.25	36.81	-38.3	-40.0	22.6	0.00e+00	0	43	0	2472542208	47	4593
2026-01-07 11:24:19.90	15.41	36.29	-38.0	-39.6	23.0	0.00e+00	0	43	0	2489319424	47	4360
2026-01-07 11:24:22.91	14.58	35.76	-38.0	-39.7	23.0	0.00e+00	0	44	0	2507145216	47	4393
2026-01-07 11:24:25.92	13.79	35.24	-38.0	-39.7	22.9	0.00e+00	0	43	0	2523922432	47	4405
2026-01-07 11:24:28.93	13.02	34.72	-38.0	-39.7	22.9	0.00e+00	0	43	0	2540699648	47	4423
2026-01-07 11:24:31.94	12.27	34.20	-37.8	-39.4	23.1	0.00e+00	0	43	0	2557476864	47	4277
2026-01-07 11:24:34.95	11.55	33.69	-37.9	-39.6	23.0	0.00e+00	0	43	0	2574254080	47	4359
2026-01-07 11:24:37.96	10.85	33.18	-38.3	-39.9	22.7	0.00e+00	0	44	0	2591031296	47	4528
2026-01-07 11:24:40.98	10.17	32.67	-38.4	-40.1	22.6	0.00e+00	0	43	0	2607808512	47	4607
2026-01-07 11:24:43.99	9.51	32.16	-38.2	-39.9	22.7	0.00e+00	0	43	0	2624585728	47	4515
2026-01-07 11:24:47.00	8.88	31.66	-38.1	-39.8	22.8	0.00e+00	0	44	0	2642411520	47	4447
2026-01-07 11:24:50.01	8.26	31.17	-38.4	-40.1	22.5	0.00e+00	0	44	0	2659188736	47	4641
2026-01-07 11:24:53.02	7.66	30.68	-38.5	-40.2	22.5	0.00e+00	0	43	0	2675965952	47	4658
2026-01-07 11:24:56.03	7.08	30.20	-38.8	-40.5	22.6	0.00e+00	0	44	0	2692743168	48	4548
2026-01-07 11:24:59.04	6.52	29.72	-38.8	-40.5	22.5	0.00e+00	0	44	0	2709520384	48	4556
2026-01-07 11:25:02.05	5.97	29.24	-38.9	-40.5	22.5	0.00e+00	0	44	0	2727346176	48	4594
2026-01-07 11:25:05.06	5.44	28.77	-38.9	-40.6	22.4	0.00e+00	0	44	0	2744123392	48	4607
2026-01-07 11:25:08.07	4.93	28.31	-38.8	-40.5	22.5	0.00e+00	0	43	0	2760900608	48	4578
2026-01-07 11:25:11.08	4.43	27.85	-38.9	-40.6	22.4	0.00e+00	0	43	0	2777677824	48	4642
2026-01-07 11:25:14.09	3.94	27.39	-38.9	-40.6	22.4	0.00e+00	0	43	0	2794455040	48	4625
2026-01-07 11:25:17.10	3.47	26.94	-38.9	-40.6	22.4	0.00e+00	0	43	0	2811232256	48	4612
2026-01-07 11:25:20.10	3.02	26.50	-38.9	-40.6	22.4	0.00e+00	0	44	0	2828009472	48	4627
2026-01-07 11:25:23.11	2.57	26.06	-39.1	-40.7	22.3	0.00e+00	0	44	0	2845835264	48	4699
2026-01-07 11:25:26.12	2.14	25.63	-39.1	-40.8	22.2	0.00e+00	0	44	0	2862612480	48	4735
2026-01-07 11:25:29.13	1.72	25.20	-39.0	-40.7	22.3	0.00e+00	0	43	0	2879389696	49	4432
2026-01-07 11:25:32.14	1.31	24.78	-39.1	-40.8	22.2	0.00e+00	0	43	0	2896166912	49	4484
2026-01-07 11:25:35.15	0.91	24.36	-39.0	-40.7	22.3	0.00e+00	0	44	0	2912944128	49	4418
2026-01-07 11:25:38.17	0.52	23.95	-39.1	-40.7	22.3	0.00e+00	0	44	0	2929721344	49	4434
2026-01-07 11:25:41.17	0.14	23.54	-39.0	-40.7	22.3	0.00e+00	0	44	0	2946498560	49	4419
2026-01-07 11:25:44.19	359.78	23.14	-38.9	-40.6	22.4	0.00e+00	0	44	0	2963275776	49	4374
2026-01-07 11:25:47.20	359.42	22.74	-38.9	-40.6	22.4	0.00e+00	0	44	0	2981101568	49	4345
2026-01-07 11:25:50.20	359.07	22.35	-39.1	-40.8	22.2	0.00e+00	0	44	0	2997878784	49	4459
2026-01-07 11:25:53.22	358.73	21.96	-39.4	-41.1	21.9	0.00e+00	0	43	0	3014656000	49	4637
2026-01-07 11:25:56.23	358.40	21.57	-39.6	-41.4	21.7	0.00e+00	0	44	0	3031433216	49	4770
2026-01-07 11:25:59.24	358.08	21.20	-39.7	-41.4	21.6	0.00e+00	0	44	0	3048210432	50	4540
2026-01-07 11:26:02.25	357.76	20.82	-39.7	-41.4	21.7	0.00e+00	0	43	0	3066036224	50	4532
2026-01-07 11:26:05.26	357.45	20.45	-39.7	-41.5	21.5	0.00e+00	0	44	0	3082813440	50	4559
2026-01-07 11:26:08.27	357.15	20.09	-39.8	-41.5	21.6	0.00e+00	0	43	0	3099590656	50	4566
2026-01-07 11:26:11.28	356.86	19.73	-39.8	-41.6	21.5	0.00e+00	0	44	0	3116367872	50	4606
2026-01-07 11:26:14.30	356.57	19.37	-39.9	-41.6	21.4	0.00e+00	0	44	0	3133145088	50	4633
2026-01-07 11:26:17.31	356.30	19.02	-39.9	-41.7	21.3	0.00e+00	0	44	0	3149922304	50	4689
2026-01-07 11:26:20.31	356.02	18.67	-40.1	-41.8	21.3	0.00e+00	0	43	0	3166699520	50	4745
2026-01-07 11:26:23.32	355.76	18.33	-40.3	-42.0	21.1	0.00e+00	0	44	0	3183476736	51	4583
2026-01-07 11:26:26.34	355.50	17.99	-40.3	-42.1	20.9	0.00e+00	0	44	0	3201302528	51	4638
2026-01-07 11:26:29.34	355.25	17.66	-40.3	-42.2	20.9	0.00e+00	0	44	0	3218079744	51	4686
2026-01-07 11:26:32.35	355.00	17.33	-40.4	-42.2	20.9	0.00e+00	0	44	0	3234856960	51	4679
2026-01-07 11:26:35.36	354.76	17.00	-40.4	-42.2	20.9	0.00e+00	0	44	0	3251634176	51	4655
2026-01-07 11:26:38.37	354.52	16.67	-40.5	-42.3	20.8	0.00e+00	0	44	0	3268411392	51	4736
2026-01-07 11:26:41.38	354.29	16.35	-40.5	-42.3	20.7	0.00e+00	0	44	0	3285188608	51	4746
2026-01-07 11:26:44.39	354.06	16.04	-40.6	-42.4	20.6	0.00e+00	0	44	0	3303014400	52	4507
2026-01-07 11:26:47.40	353.84	15.73	-40.7	-42.5	20.4	0.00e+00	0	43	0	3319791616	52	4593
2026-01-07 11:26:50.41	353.62	15.42	-41.0	-42.8	20.2	0.00e+00	0	44	0	3336568832	52	4736
2026-01-07 11:26:53.42	353.41	15.11	-40.9	-42.8	20.2	0.00e+00	0	44	0	3353346048	52	4732
2026-01-07 11:26:56.43	353.20	14.81	-41.0	-42.9	20.1	0.00e+00	0	44	0	3370123264	52	4770
2026-01-07 11:26:59.44	353.00	14.51	-41.1	-43.0	20.0	0.00e+00	0	43	0	3386900480	52	4833
2026-01-07 11:27:02.45	352.80	14.22	-41.3	-43.2	19.8	0.00e+00	0	44	0	3403677696	53	4668
2026-01-07 11:27:05.46	352.61	13.92	-41.1	-43.1	19.9	0.00e+00	0	43	0	3421503488	53	4601
2026-01-07 11:27:08.47	352.41	13.63	-41.2	-43.2	19.8	0.00e+00	0	44	0	3438280704	53	4671
2026-01-07 11:27:11.48	352.23	13.35	-41.1	-43.0	19.9	0.00e+00	0	44	0	3455057920	53	4585
2026-01-07 11:27:14.49	352.04	13.06	-41.0	-43.0	19.9	0.00e+00	0	44	0	3471835136	53	4551
2026-01-07 11:27:17.50	351.86	12.78	-41.1	-43.1	19.8	0.00e+00	0	44	0	3488612352	53	4648
2026-01-07 11:27:20.52	351.69	12.51	-41.0	-43.0	19.9	0.00e+00	0	44	0	3505389568	53	4571
2026-01-07 11:27:23.52	351.52	12.23	-41.3	-43.3	19.6	0.00e+00	0	43	0	3522166784	53	4708
2026-01-07 11:27:26.53	351.35	11.96	-41.4	-43.4	19.4	0.00e+00	0	43	0	3538944000	53	4811
2026-01-07 11:27:29.54	351.18	11.69	-41.4	-43.5	19.4	0.00e+00	0	44	0	3556769792	53	4836
2026-01-07 11:27:32.55	351.02	11.43	-41.4	-43.6	19.3	0.00e+00	0	44	0	3573547008	53	4893
2026-01-07 11:27:35.56	350.86	11.16	-41.5	-43.8	19.1	0.00e+00	0	43	0	3590324224	53	4996
2026-01-07 11:27:38.57	350.70	10.90	-41.5	-43.8	19.1	0.00e+00	0	43	0	3607101440	53	4984
2026-01-07 11:27:41.57	350.55	10.64	-41.5	-43.8	19.0	0.00e+00	0	44	0	3623878656	53	5013
2026-01-07 11:27:44.59	350.40	10.39	-41.6	-43.9	18.9	0.00e+00	0	44	0	3640655872	53	5099
2026-01-07 11:27:47.59	350.25	10.13	-41.7	-44.0	18.8	0.00e+00	0	44	0	3658481664	54	4837
2026-01-07 11:27:50.60	350.11	9.88	-41.8	-44.0	18.9	0.00e+00	0	44	0	3675258880	54	4827
2026-01-07 11:27:53.61	349.96	9.63	-41.9	-44.0	18.8	0.00e+00	0	44	0	3692036096	54	4858
2026-01-07 11:27:56.62	349.82	9.39	-41.9	-44.1	18.7	0.00e+00	0	44	0	3708813312	54	4895
2026-01-07 11:27:59.63	349.69	9.14	-42.1	-44.3	18.5	0.00e+00	0	43	0	3725590528	54	4994
2026-01-07 11:28:02.65	349.55	8.90	-50.6	-63.9	3.8	8.46e-01	0	44	104	3739222016	71	17918
2026-01-07 11:28:05.66	349.42	8.66	-52.2	-64.6	3.8	8.47e-01	0	43	104	3739222016	75	15463
2026-01-07 11:28:08.67	349.29	8.42	-52.4	-64.7	3.8	8.46e-01	0	44	104	3739222016	75	15705
2026-01-07 11:28:11.69	349.16	8.19	-52.6	-64.7	3.8	8.48e-01	0	43	104	3739222016	75	15758
2026-01-07 11:28:14.70	349.03	7.95	-52.6	-64.8	3.8	8.48e-01	0	44	104	3739222016	76	15046
2026-01-07 11:28:17.71	348.91	7.72	-52.4	-64.8	3.8	8.47e-01	0	44	104	3739222016	76	15034
2026-01-07 11:28:20.72	348.79	7.49	-52.7	-64.9	3.8	8.48e-01	0	44	104	3739222016	76	15096
2026-01-07 11:28:23.74	348.67	7.26	-52.7	-64.8	3.8	8.47e-01	0	44	104	3739222016	76	15033
2026-01-07 11:28:26.75	348.55	7.04	-52.5	-64.8	3.8	8.47e-01	0	44	104	3739222016	76	15034
2026-01-07 11:28:29.76	348.44	6.81	-52.5	-64.8	3.8	8.47e-01	0	44	104	3739222016	76	15000
2026-01-07 11:28:32.77	348.33	6.59	-52.5	-64.8	3.8	8.47e-01	0	43	104	3739222016	76	15011
2026-01-07 11:28:35.79	348.21	6.37	-52.5	-64.8	3.8	8.47e-01	0	44	104	3739222016	76	14974
2026-01-07 11:28:38.80	348.10	6.15	-52.4	-64.8	3.8	8.46e-01	0	44	104	3739222016	76	14999
2026-01-07 11:28:41.81	348.00	5.93	-52.5	-64.8	3.8	8.48e-01	0	44	104	3739222016	76	14986
2026-01-07 11:28:44.83	347.89	5.72	-52.5	-64.8	3.8	8.48e-01	0	44	104	3739222016	76	15013
2026-01-07 11:28:47.84	347.79	5.50	-52.5	-64.8	3.8	8.47e-01	0	43	104	3739222016	76	14994
2026-01-07 11:28:50.85	347.68	5.29	-52.5	-64.8	3.8	8.47e-01	0	44	104	3739222016	76	14936
2026-01-07 11:28:53.87	347.58	5.08	-52.4	-64.8	3.8	8.47e-01	0	44	104	3739222016	76	14911

#Closed at: 2026-01-07 11:28:56
#Recorded file [3739 MB]: D:/Data/31040_260107_141624.dat