passes_logs/2026/01/07/T1/T1__20260107_051436_FENGYUN_3G_rec.log

#Pass ID: 20260107_051436_FENGYUN 3G
#Satellite: FENGYUN 3G
#Configuration: FENGYUN 3G
#almurnet v.1.7.20251203
#Start time: 2026-01-07 05:14:35

#Version: 2.0.20230620
#Station: T1
#Location: 37.570604 lon 55.790049 lat
#TLE: 1 56232U 23055A   26005.65670112  .00041871  00000+0  66206-3 0  9997
#TLE: 2 56232  49.9942 104.1198 0004242 344.1257  15.9577 15.52986726154745

#Time	Az	El	Level	Level2	SNR	BER	BlckErr	Temp	State	Recorded	gain1	gain2
2026-01-07 05:14:35.91	255.77	5.07	-49.3	-68.5	3.8	8.47e-01	0	38	0	0	70	32255
2026-01-07 05:14:37.91	255.45	5.19	-49.3	-68.5	3.8	8.46e-01	0	39	104	0	70	32296
2026-01-07 05:14:39.92	255.12	5.30	-49.3	-68.4	3.8	8.46e-01	0	39	104	0	70	31949
2026-01-07 05:14:41.93	254.80	5.42	-49.3	-68.3	3.8	8.46e-01	0	39	104	0	70	31588
2026-01-07 05:14:43.94	254.46	5.54	-49.3	-68.3	3.8	8.47e-01	0	39	104	0	70	31636
2026-01-07 05:14:45.95	254.13	5.66	-49.3	-68.3	3.8	8.46e-01	0	39	104	0	70	31720
2026-01-07 05:14:47.96	253.79	5.78	-49.3	-68.4	3.8	8.47e-01	0	39	104	0	70	32057
2026-01-07 05:14:49.96	253.44	5.89	-49.3	-68.4	3.8	8.46e-01	0	39	104	0	70	32148
2026-01-07 05:14:51.97	253.10	6.01	-49.3	-68.3	3.8	8.48e-01	0	39	104	0	70	31679
2026-01-07 05:14:53.98	252.74	6.13	-49.3	-68.3	3.8	8.47e-01	0	39	104	0	70	31543
2026-01-07 05:14:55.99	252.39	6.25	-49.3	-68.4	3.8	8.46e-01	0	39	104	0	70	31850
2026-01-07 05:14:58.00	252.03	6.37	-49.3	-68.4	3.8	8.47e-01	0	39	104	0	70	32098
2026-01-07 05:15:00.01	251.66	6.48	-49.3	-68.4	3.8	8.47e-01	0	40	104	0	70	31990
2026-01-07 05:15:02.02	251.29	6.60	-49.3	-68.1	3.8	8.48e-01	0	40	104	0	70	31076
2026-01-07 05:15:04.02	250.92	6.72	-49.3	-68.2	3.8	8.47e-01	0	40	104	0	70	31091
2026-01-07 05:15:06.04	250.54	6.84	-49.3	-68.3	3.8	8.47e-01	0	40	104	0	70	31634
2026-01-07 05:15:08.04	250.17	6.96	-49.3	-68.3	3.8	8.48e-01	0	40	104	0	70	31487
2026-01-07 05:15:10.05	249.78	7.08	-49.3	-68.2	3.8	8.48e-01	0	40	104	0	70	31389
2026-01-07 05:15:12.06	249.39	7.19	-49.3	-68.3	3.8	8.47e-01	0	40	104	0	70	31484
2026-01-07 05:15:14.06	249.00	7.31	-49.2	-68.3	3.8	8.46e-01	0	40	104	0	70	31655
2026-01-07 05:15:16.07	248.60	7.43	-49.3	-68.2	3.8	8.47e-01	0	40	104	0	70	31357
2026-01-07 05:15:18.08	248.19	7.55	-49.3	-68.2	3.8	8.47e-01	0	40	104	0	70	31283
2026-01-07 05:15:20.09	247.79	7.66	-49.3	-68.3	3.8	8.48e-01	0	40	104	0	70	31749
2026-01-07 05:15:22.10	247.37	7.78	-49.3	-68.4	3.8	8.47e-01	0	40	104	0	70	31933
2026-01-07 05:15:24.11	246.96	7.90	-49.3	-68.4	3.8	8.46e-01	0	40	104	0	70	31900
2026-01-07 05:15:26.12	246.54	8.01	-49.2	-68.3	3.8	8.47e-01	0	40	104	0	70	31504
2026-01-07 05:15:28.12	246.11	8.13	-49.2	-68.0	3.8	8.47e-01	0	40	104	0	70	30670
2026-01-07 05:15:30.13	245.68	8.24	-49.2	-67.5	3.8	8.47e-01	0	40	104	0	70	28968
2026-01-07 05:15:32.14	245.24	8.36	-49.2	-67.5	3.8	8.47e-01	0	40	104	0	70	28949
2026-01-07 05:15:34.15	244.80	8.47	-49.3	-67.6	3.8	8.46e-01	0	40	104	0	70	29286
2026-01-07 05:15:36.16	244.36	8.59	-49.2	-67.3	3.8	8.47e-01	0	40	104	0	70	28218
2026-01-07 05:15:38.17	243.91	8.70	-49.2	-67.6	3.8	8.47e-01	0	40	104	0	70	29042
2026-01-07 05:15:40.17	243.46	8.82	-49.2	-67.1	3.8	8.47e-01	0	40	104	0	70	27659
2026-01-07 05:15:42.18	243.00	8.93	-49.1	-63.6	4.6	8.45e-01	0	40	0	0	70	18351
2026-01-07 05:15:44.19	242.53	9.04	-48.7	-59.0	8.0	8.00e-01	0	41	0	0	69	11454
2026-01-07 05:15:46.19	242.06	9.15	-48.5	-62.2	5.3	9.06e-02	0	40	0	0	68	17521
2026-01-07 05:15:48.25	241.58	9.26	-46.5	-51.4	15.9	2.79e-01	0	41	0	0	64	6407
2026-01-07 05:15:50.17	241.12	9.37	-46.3	-52.3	15.0	1.90e-01	0	40	0	0	64	7094
2026-01-07 05:15:52.24	240.62	9.48	-45.7	-50.4	16.9	0.00e+00	0	40	0	0	63	6037
2026-01-07 05:15:54.25	240.13	9.59	-45.8	-50.0	17.4	0.00e+00	0	41	0	0	63	5739
2026-01-07 05:15:56.33	239.62	9.70	-45.1	-48.6	18.7	0.00e+00	0	40	0	0	62	5216
2026-01-07 05:15:58.56	239.07	9.82	-44.3	-47.4	19.8	0.00e+00	0	41	0	0	60	5100
2026-01-07 05:16:00.56	238.56	9.93	-43.3	-46.2	21.1	0.00e+00	0	41	0	0	58	4938
2026-01-07 05:16:02.57	238.05	10.03	-44.2	-47.5	19.9	0.00e+00	0	40	0	0	59	5413
2026-01-07 05:16:04.58	237.54	10.13	-43.7	-46.7	20.6	0.00e+00	0	41	0	0	59	4932
2026-01-07 05:16:06.61	237.01	10.24	-42.8	-45.5	21.8	0.00e+00	0	41	0	0	57	4824
2026-01-07 05:16:08.62	236.49	10.34	-41.5	-43.9	23.1	0.00e+00	0	41	0	0	55	4524
2026-01-07 05:16:10.62	235.96	10.44	-41.5	-43.9	23.1	0.00e+00	0	41	0	0	54	4783
2026-01-07 05:16:12.63	235.43	10.54	-41.6	-44.1	23.0	0.00e+00	0	41	0	0	54	4879
2026-01-07 05:16:14.63	234.89	10.63	-41.9	-44.4	22.7	0.00e+00	0	40	0	0	54	5072
2026-01-07 05:16:16.64	234.35	10.73	-41.5	-44.0	23.0	0.00e+00	0	41	0	0	54	4821
2026-01-07 05:16:18.65	233.80	10.82	-41.6	-44.1	23.0	0.00e+00	0	41	0	0	54	4874
2026-01-07 05:16:20.65	233.25	10.92	-41.0	-43.3	23.7	0.00e+00	0	41	0	0	53	4747
2026-01-07 05:16:22.65	232.69	11.01	-41.1	-43.5	23.5	0.00e+00	0	41	0	0	53	4825
2026-01-07 05:16:24.66	232.13	11.10	-41.3	-43.6	23.4	0.00e+00	0	41	0	0	53	4922
2026-01-07 05:16:26.76	231.54	11.19	-41.2	-43.5	23.5	0.00e+00	0	41	0	0	53	4848
2026-01-07 05:16:28.76	230.97	11.28	-41.1	-43.4	23.6	0.00e+00	0	41	0	0	53	4792
2026-01-07 05:16:30.90	230.36	11.37	-41.0	-43.4	23.6	0.00e+00	0	41	0	0	53	4763
2026-01-07 05:16:32.97	229.76	11.45	-40.4	-42.7	24.2	0.00e+00	0	41	0	0	52	4691
2026-01-07 05:16:34.98	229.17	11.53	-40.7	-43.0	24.0	0.00e+00	0	41	0	0	52	4826
2026-01-07 05:16:36.98	228.59	11.61	-40.7	-43.0	23.9	0.00e+00	0	41	0	0	52	4856
2026-01-07 05:16:38.99	227.99	11.69	-40.8	-43.1	23.9	0.00e+00	0	41	0	0	52	4909
2026-01-07 05:16:40.99	227.40	11.76	-40.8	-43.1	23.9	0.00e+00	0	41	0	0	52	4884
2026-01-07 05:16:43.00	226.80	11.84	-40.3	-42.6	24.4	0.00e+00	0	41	0	0	52	4602
2026-01-07 05:16:45.00	226.19	11.91	-40.2	-42.4	24.6	0.00e+00	0	40	0	0	52	4509
2026-01-07 05:16:47.01	225.58	11.98	-40.5	-42.7	24.3	0.00e+00	0	41	0	0	52	4704
2026-01-07 05:16:48.99	224.98	12.04	-40.6	-42.9	24.1	0.00e+00	0	41	0	0	52	4793
2026-01-07 05:16:51.00	224.36	12.11	-41.0	-43.4	23.7	0.00e+00	0	41	0	0	52	5059
2026-01-07 05:16:53.05	223.73	12.17	-40.9	-43.3	23.9	0.00e+00	0	41	0	0	52	4987
2026-01-07 05:16:55.50	222.97	12.24	-40.6	-42.9	24.1	0.00e+00	0	41	0	0	52	4773
2026-01-07 05:16:57.51	222.34	12.30	-40.1	-42.2	24.5	0.00e+00	0	41	0	0	52	4422
2026-01-07 05:16:59.55	221.70	12.35	-40.1	-42.3	24.6	0.00e+00	0	41	0	0	52	4464
2026-01-07 05:17:01.55	221.07	12.40	-40.5	-42.8	24.3	0.00e+00	0	41	0	0	52	4719
2026-01-07 05:17:03.56	220.43	12.45	-40.5	-42.8	24.2	0.00e+00	0	40	0	0	52	4720
2026-01-07 05:17:05.65	219.77	12.50	-41.0	-43.3	23.8	0.00e+00	0	41	0	0	52	5010
2026-01-07 05:17:07.65	219.13	12.54	-40.9	-43.2	23.9	0.00e+00	0	41	0	0	52	4937
2026-01-07 05:17:09.66	218.48	12.58	-40.8	-43.1	24.0	0.00e+00	0	41	0	0	52	4893
2026-01-07 05:17:11.67	217.84	12.62	-40.9	-43.2	23.8	0.00e+00	0	41	0	0	52	4960
2026-01-07 05:17:13.67	217.19	12.66	-40.4	-42.6	24.4	0.00e+00	0	41	0	0	52	4632
2026-01-07 05:17:15.68	216.54	12.69	-40.3	-42.5	24.5	0.00e+00	0	41	0	0	52	4587
2026-01-07 05:17:17.68	215.89	12.72	-40.4	-42.7	24.3	0.00e+00	0	41	0	0	52	4652
2026-01-07 05:17:19.85	215.18	12.75	-40.2	-42.4	24.6	0.00e+00	0	41	0	0	52	4538
2026-01-07 05:17:22.08	214.46	12.77	-39.9	-42.0	25.0	0.00e+00	0	41	0	0	51	4582
2026-01-07 05:17:24.09	213.80	12.79	-40.1	-42.3	24.8	0.00e+00	0	41	0	0	51	4710
2026-01-07 05:17:26.09	213.14	12.81	-40.1	-42.2	24.8	0.00e+00	0	41	0	0	51	4696
2026-01-07 05:17:28.09	212.49	12.82	-40.3	-42.5	24.6	0.00e+00	0	41	0	0	51	4856
2026-01-07 05:17:30.07	211.84	12.84	-40.3	-42.5	24.5	0.00e+00	0	41	0	0	51	4851
2026-01-07 05:17:32.07	211.18	12.84	-40.2	-42.4	24.7	0.00e+00	0	41	0	0	51	4786
2026-01-07 05:17:34.08	210.52	12.85	-40.3	-42.5	24.6	0.00e+00	0	41	0	0	51	4832
2026-01-07 05:17:36.12	209.85	12.85	-40.2	-42.4	24.6	0.00e+00	0	41	0	0	51	4772
2026-01-07 05:17:38.12	209.19	12.85	-40.5	-42.7	24.3	0.00e+00	0	41	0	0	51	4982
2026-01-07 05:17:40.13	208.53	12.85	-40.4	-42.6	24.5	0.00e+00	0	41	0	0	51	4921
2026-01-07 05:17:42.04	207.90	12.84	-40.7	-43.0	24.1	0.00e+00	0	41	0	0	52	4832
2026-01-07 05:17:44.33	207.15	12.83	-40.5	-42.8	24.2	0.00e+00	0	41	0	0	52	4730
2026-01-07 05:17:46.69	206.37	12.81	-40.6	-42.8	24.3	0.00e+00	0	41	0	0	52	4726
2026-01-07 05:17:48.85	205.66	12.80	-40.6	-42.8	24.2	0.00e+00	0	41	0	0	52	4755
2026-01-07 05:17:51.01	204.96	12.78	-40.3	-42.5	24.5	0.00e+00	0	41	0	0	52	4572
2026-01-07 05:17:53.19	204.24	12.75	-40.0	-42.2	24.7	0.00e+00	0	41	0	0	52	4439
2026-01-07 05:17:55.35	203.54	12.72	-39.9	-42.0	25.0	0.00e+00	0	41	0	0	51	4566
2026-01-07 05:17:57.52	202.83	12.69	-40.4	-42.6	24.5	0.00e+00	0	40	0	0	51	4894
2026-01-07 05:17:59.67	202.14	12.66	-40.1	-42.3	24.8	0.00e+00	0	41	0	0	51	4720
2026-01-07 05:18:01.59	201.52	12.63	-40.1	-42.3	24.7	0.00e+00	0	41	0	0	51	4728
2026-01-07 05:18:03.59	200.87	12.59	-40.3	-42.5	24.6	0.00e+00	0	41	0	0	51	4859
2026-01-07 05:18:05.65	200.21	12.55	-40.6	-42.9	24.3	0.00e+00	0	41	0	0	51	5059
2026-01-07 05:18:07.68	199.56	12.50	-40.8	-43.1	24.0	0.00e+00	0	41	0	0	52	4872
2026-01-07 05:18:09.62	198.94	12.46	-40.4	-42.7	24.3	0.00e+00	0	41	0	0	52	4668
2026-01-07 05:18:11.71	198.28	12.41	-40.4	-42.6	24.3	0.00e+00	0	41	0	0	52	4650
2026-01-07 05:18:13.94	197.58	12.35	-40.0	-42.3	24.7	0.00e+00	0	41	0	0	52	4443
2026-01-07 05:18:16.26	196.85	12.29	-40.3	-42.5	24.5	0.00e+00	0	41	0	0	51	4866
2026-01-07 05:18:18.27	196.22	12.23	-40.3	-42.6	24.4	0.00e+00	0	41	0	0	51	4874
2026-01-07 05:18:20.27	195.60	12.17	-40.0	-42.2	24.8	0.00e+00	0	41	0	0	51	4696
2026-01-07 05:18:22.28	194.98	12.11	-40.5	-42.8	24.3	0.00e+00	0	41	0	0	51	4999
2026-01-07 05:18:24.29	194.36	12.05	-40.8	-43.1	24.0	0.00e+00	0	41	0	0	52	4919
2026-01-07 05:18:26.27	193.75	11.98	-40.8	-43.2	23.8	0.00e+00	0	41	0	0	52	4953
2026-01-07 05:18:28.28	193.14	11.91	-40.6	-42.9	24.1	0.00e+00	0	41	0	0	52	4780
2026-01-07 05:18:30.29	192.53	11.84	-40.5	-42.7	24.3	0.00e+00	0	41	0	0	52	4695
2026-01-07 05:18:32.29	191.93	11.77	-40.4	-42.6	24.4	0.00e+00	0	41	0	0	52	4647
2026-01-07 05:18:34.29	191.34	11.70	-40.5	-42.7	24.3	0.00e+00	0	41	0	0	52	4699
2026-01-07 05:18:36.30	190.74	11.62	-40.5	-42.8	24.2	0.00e+00	0	41	0	0	52	4736
2026-01-07 05:18:38.30	190.15	11.54	-40.6	-42.9	24.2	0.00e+00	0	41	0	0	52	4808
2026-01-07 05:18:40.37	189.55	11.46	-41.0	-43.5	23.6	0.00e+00	0	41	0	0	52	5118
2026-01-07 05:18:42.44	188.95	11.37	-41.4	-43.9	23.3	0.00e+00	0	41	0	0	53	5044
2026-01-07 05:18:44.64	188.32	11.28	-41.1	-43.5	23.6	0.00e+00	0	41	0	0	53	4820
2026-01-07 05:18:46.64	187.75	11.19	-41.0	-43.3	23.8	0.00e+00	0	41	0	0	53	4739
2026-01-07 05:18:48.65	187.18	11.10	-40.7	-43.1	24.0	0.00e+00	0	41	0	0	53	4600
2026-01-07 05:18:50.69	186.61	11.01	-40.7	-43.0	23.9	0.00e+00	0	41	0	0	53	4560
2026-01-07 05:18:52.69	186.05	10.92	-40.8	-43.1	23.9	0.00e+00	0	41	0	0	53	4638
2026-01-07 05:18:54.70	185.49	10.83	-40.6	-42.9	24.0	0.00e+00	0	41	0	0	53	4542
2026-01-07 05:18:56.71	184.94	10.73	-40.8	-43.1	23.9	0.00e+00	0	41	0	0	53	4643
2026-01-07 05:18:58.68	184.41	10.64	-40.8	-43.2	23.9	0.00e+00	0	41	0	0	53	4664
2026-01-07 05:19:00.69	183.87	10.54	-40.7	-43.1	23.8	0.00e+00	0	41	0	0	53	4632
2026-01-07 05:19:02.69	183.34	10.44	-41.1	-43.5	23.4	0.00e+00	0	41	0	0	53	4842
2026-01-07 05:19:04.70	182.80	10.34	-41.5	-44.0	23.1	0.00e+00	0	41	0	0	53	5121
2026-01-07 05:19:06.66	182.29	10.24	-41.5	-43.9	23.1	0.00e+00	0	40	0	0	53	5087
2026-01-07 05:19:08.72	181.76	10.14	-41.0	-43.4	23.6	0.00e+00	0	41	0	0	53	4788
2026-01-07 05:19:10.73	181.24	10.04	-41.4	-43.9	23.2	0.00e+00	0	41	0	0	53	5065
2026-01-07 05:19:12.73	180.73	9.93	-41.2	-43.6	23.4	0.00e+00	0	41	0	0	53	4908
2026-01-07 05:19:14.74	180.22	9.83	-41.1	-43.5	23.6	0.00e+00	0	41	0	0	53	4821
2026-01-07 05:19:16.74	179.73	9.72	-41.1	-43.5	23.4	0.00e+00	0	41	0	0	53	4866
2026-01-07 05:19:18.75	179.23	9.61	-41.2	-43.8	20.5	0.00e+00	0	40	0	0	53	5001
2026-01-07 05:19:20.76	178.74	9.50	-41.3	-43.9	23.2	0.00e+00	0	41	0	0	53	5060
2026-01-07 05:19:22.76	178.25	9.39	-40.9	-43.4	23.6	0.00e+00	0	41	0	0	53	4779
2026-01-07 05:19:24.96	177.73	9.27	-41.3	-43.8	23.2	0.00e+00	0	40	0	0	53	5016
2026-01-07 05:19:26.96	177.25	9.16	-41.5	-44.0	23.0	0.00e+00	0	41	0	0	53	5127
2026-01-07 05:19:28.97	176.78	9.05	-41.7	-44.3	22.8	0.00e+00	0	41	0	0	54	4998
2026-01-07 05:19:30.98	176.31	8.94	-49.8	-68.2	3.9	1.28e-01	0	41	104	0	70	31122
2026-01-07 05:19:32.98	175.85	8.83	-49.8	-68.9	3.8	8.46e-01	0	41	104	0	70	33805
2026-01-07 05:19:34.99	175.40	8.71	-50.1	-69.0	3.8	8.46e-01	0	41	104	0	70	34188
2026-01-07 05:19:37.00	174.94	8.60	-50.0	-69.0	3.8	8.47e-01	0	41	104	0	71	32351
2026-01-07 05:19:39.07	174.48	8.48	-50.3	-69.1	3.8	8.47e-01	0	41	104	0	71	32644
2026-01-07 05:19:41.30	173.99	8.35	-50.4	-69.1	3.8	8.46e-01	0	41	104	0	71	32737
2026-01-07 05:19:43.39	173.54	8.23	-50.4	-69.1	3.8	8.47e-01	0	41	104	0	71	32897
2026-01-07 05:19:45.41	173.10	8.12	-50.4	-69.2	3.8	8.48e-01	0	41	104	0	71	33021
2026-01-07 05:19:47.41	172.68	8.00	-50.4	-69.2	3.8	8.47e-01	0	41	104	0	71	33001
2026-01-07 05:19:49.42	172.25	7.89	-50.0	-69.2	3.8	8.47e-01	0	41	104	0	71	32965
2026-01-07 05:19:51.43	171.84	7.77	-50.4	-69.2	3.8	8.47e-01	0	41	104	0	71	33022
2026-01-07 05:19:53.44	171.42	7.65	-50.3	-69.2	3.8	8.47e-01	0	41	104	0	71	32943
2026-01-07 05:19:55.45	171.01	7.53	-50.4	-69.1	3.8	8.47e-01	0	41	104	0	71	32912
2026-01-07 05:19:57.47	170.61	7.42	-50.0	-69.1	3.8	8.47e-01	0	41	104	0	71	32917
2026-01-07 05:19:59.55	170.19	7.29	-50.0	-69.1	3.8	8.46e-01	0	41	104	0	71	32859
2026-01-07 05:20:01.56	169.80	7.17	-50.0	-69.1	3.8	8.48e-01	0	41	104	0	71	32836
2026-01-07 05:20:03.56	169.41	7.06	-50.0	-69.1	3.8	8.46e-01	0	41	104	0	71	32715
2026-01-07 05:20:05.57	169.02	6.94	-50.0	-69.1	3.8	8.47e-01	0	41	104	0	71	32703
2026-01-07 05:20:07.58	168.64	6.82	-50.0	-69.1	3.8	8.47e-01	0	41	104	0	71	32684
2026-01-07 05:20:09.59	168.26	6.70	-50.0	-69.1	3.8	8.46e-01	0	41	104	0	71	32785
2026-01-07 05:20:11.60	167.89	6.58	-50.0	-69.1	3.8	8.46e-01	0	41	104	0	71	32672
2026-01-07 05:20:13.60	167.52	6.47	-50.0	-69.1	3.8	8.47e-01	0	41	104	0	71	32645
2026-01-07 05:20:15.61	167.15	6.35	-50.0	-69.1	3.8	8.45e-01	0	41	104	0	71	32613
2026-01-07 05:20:17.62	166.79	6.23	-50.0	-69.1	3.8	8.47e-01	0	41	104	0	71	32624
2026-01-07 05:20:19.63	166.43	6.11	-50.0	-69.1	3.8	8.48e-01	0	41	104	0	71	32631
2026-01-07 05:20:21.64	166.08	5.99	-50.0	-69.1	3.8	8.47e-01	0	41	104	0	71	32671
2026-01-07 05:20:23.64	165.73	5.87	-50.0	-69.1	3.8	8.47e-01	0	41	104	0	71	32627
2026-01-07 05:20:25.65	165.39	5.75	-50.0	-69.1	3.8	8.46e-01	0	41	104	0	71	32683
2026-01-07 05:20:27.66	165.05	5.64	-50.0	-69.1	3.8	8.46e-01	0	41	104	0	71	32659
2026-01-07 05:20:29.67	164.71	5.52	-50.0	-69.1	3.8	8.47e-01	0	41	104	0	71	32739
2026-01-07 05:20:31.68	164.37	5.40	-50.0	-69.1	3.8	8.47e-01	0	41	104	0	71	32786
2026-01-07 05:20:33.69	164.04	5.28	-50.0	-69.1	3.8	8.46e-01	0	41	104	0	71	32679
2026-01-07 05:20:35.70	163.72	5.16	-50.0	-69.1	3.8	8.48e-01	0	41	104	0	71	32566
2026-01-07 05:20:37.71	163.40	5.05	-50.0	-69.1	3.8	8.47e-01	0	41	104	0	71	32717
2026-01-07 05:20:39.72	163.08	4.93	-50.0	-69.1	3.8	8.47e-01	0	41	104	0	71	32749

#Closed at: 2026-01-07 05:20:41
#Recorded file [0 MB]: D:/Data/31040_260107_081435.dat