passes_logs/2026/01/07/T1/T1__20260107_020138_FENGYUN_3G_rec.log

#Pass ID: 20260107_020138_FENGYUN 3G
#Satellite: FENGYUN 3G
#Configuration: FENGYUN 3G
#almurnet v.1.7.20251203
#Start time: 2026-01-07 02:01:40

#Version: 2.0.20230620
#Station: T1
#Location: 37.570604 lon 55.790049 lat
#TLE: 1 56232U 23055A   26005.65670112  .00041871  00000+0  66206-3 0  9997
#TLE: 2 56232  49.9942 104.1198 0004242 344.1257  15.9577 15.52986726154745

#Time	Az	El	Level	Level2	SNR	BER	BlckErr	Temp	State	Recorded	gain1	gain2
2026-01-07 02:01:40.32	237.62	5.26	-49.2	-68.0	3.8	8.46e-01	0	36	0	0	70	30541
2026-01-07 02:01:42.32	237.44	5.41	-49.2	-68.0	3.8	8.47e-01	0	36	104	0	70	30714
2026-01-07 02:01:44.33	237.25	5.56	-49.2	-68.0	3.8	8.46e-01	0	36	104	0	70	30621
2026-01-07 02:01:46.34	237.07	5.72	-49.2	-68.0	3.8	8.46e-01	0	36	104	0	70	30463
2026-01-07 02:01:48.35	236.87	5.87	-49.2	-67.9	3.8	8.48e-01	0	36	104	0	70	30368
2026-01-07 02:01:50.35	236.68	6.03	-49.1	-67.9	3.8	8.47e-01	0	36	104	0	70	30085
2026-01-07 02:01:52.37	236.48	6.19	-49.2	-67.8	3.8	8.46e-01	0	36	104	0	70	29775
2026-01-07 02:01:54.37	236.28	6.35	-49.2	-67.6	3.8	8.46e-01	0	36	104	0	70	29340
2026-01-07 02:01:56.38	236.08	6.51	-49.1	-67.7	3.8	8.46e-01	0	36	104	0	70	29551
2026-01-07 02:01:58.39	235.87	6.67	-49.2	-67.8	3.8	8.46e-01	0	36	104	0	70	29745
2026-01-07 02:02:00.40	235.66	6.84	-49.2	-67.7	3.8	8.49e-01	0	37	104	0	70	29640
2026-01-07 02:02:02.40	235.45	7.00	-49.1	-67.8	3.8	8.47e-01	0	37	104	0	70	29944
2026-01-07 02:02:04.41	235.23	7.17	-49.1	-68.0	3.8	8.47e-01	0	36	104	0	70	30699
2026-01-07 02:02:06.42	235.01	7.34	-49.2	-68.0	3.8	8.47e-01	0	37	104	0	70	30643
2026-01-07 02:02:08.43	234.79	7.50	-49.1	-68.0	3.8	8.48e-01	0	37	104	0	70	30418
2026-01-07 02:02:10.44	234.56	7.67	-49.1	-67.0	3.8	8.47e-01	0	37	104	0	70	27314
2026-01-07 02:02:12.45	234.33	7.85	-49.1	-66.1	3.8	8.46e-01	0	37	104	0	70	24517
2026-01-07 02:02:14.46	234.09	8.02	-49.1	-66.6	3.8	8.47e-01	0	37	104	0	70	25964
2026-01-07 02:02:16.46	233.86	8.19	-49.1	-67.7	3.8	8.46e-01	0	37	104	0	70	29618
2026-01-07 02:02:18.47	233.61	8.37	-49.1	-67.5	3.8	8.48e-01	0	37	104	0	70	28796
2026-01-07 02:02:20.48	233.36	8.55	-49.1	-66.2	3.8	8.47e-01	0	37	104	0	70	24882
2026-01-07 02:02:22.49	233.11	8.73	-49.0	-64.3	4.2	8.46e-01	0	37	0	0	70	19899
2026-01-07 02:02:24.50	232.86	8.91	-48.7	-59.6	7.0	7.47e-01	0	37	0	0	69	12296
2026-01-07 02:02:26.51	232.60	9.09	-48.2	-56.4	10.3	1.42e-01	0	37	0	0	68	9019
2026-01-07 02:02:28.50	232.33	9.27	-48.3	-57.5	8.7	1.92e-01	0	37	0	0	68	10214
2026-01-07 02:02:30.50	232.07	9.46	-47.4	-54.2	13.7	9.38e-03	0	37	0	0	65	8350
2026-01-07 02:02:32.51	231.79	9.64	-44.8	-48.4	18.4	1.58e-01	0	37	0	0	61	5389
2026-01-07 02:02:34.51	231.51	9.83	-43.2	-46.1	20.8	0.00e+00	0	37	0	0	58	4923
2026-01-07 02:02:36.52	231.23	10.02	-43.0	-45.9	21.1	0.00e+00	0	37	0	0	58	4769
2026-01-07 02:02:38.52	230.94	10.21	-42.4	-45.1	21.8	0.00e+00	0	37	0	0	56	4911
2026-01-07 02:02:40.55	230.64	10.41	-41.7	-44.3	22.4	0.00e+00	0	37	0	0	55	4750
2026-01-07 02:02:42.55	230.35	10.60	-41.0	-43.4	23.3	0.00e+00	0	37	0	0	54	4525
2026-01-07 02:02:44.56	230.04	10.80	-40.7	-43.0	23.6	0.00e+00	0	37	0	0	53	4597
2026-01-07 02:02:46.57	229.73	11.00	-40.8	-43.3	23.4	0.00e+00	0	37	0	0	53	4739
2026-01-07 02:02:48.57	229.41	11.20	-40.8	-43.3	23.5	0.00e+00	0	37	0	0	53	4714
2026-01-07 02:02:50.58	229.09	11.40	-40.7	-43.0	23.7	0.00e+00	0	37	0	0	52	4863
2026-01-07 02:02:52.58	228.76	11.60	-40.6	-42.9	23.9	0.00e+00	0	38	0	0	52	4763
2026-01-07 02:02:54.59	228.43	11.81	-40.6	-42.8	23.9	0.00e+00	0	37	0	0	52	4751
2026-01-07 02:02:56.59	228.09	12.02	-40.1	-42.3	24.4	0.00e+00	0	37	0	0	52	4485
2026-01-07 02:02:58.60	227.74	12.23	-40.1	-42.2	24.5	0.00e+00	0	38	0	0	51	4702
2026-01-07 02:03:00.61	227.39	12.44	-40.5	-42.8	24.0	0.00e+00	0	38	0	0	51	5027
2026-01-07 02:03:02.61	227.03	12.65	-40.4	-42.7	24.1	0.00e+00	0	38	0	0	51	4932
2026-01-07 02:03:04.62	226.66	12.86	-40.5	-42.7	24.1	0.00e+00	0	37	0	0	51	4974
2026-01-07 02:03:06.62	226.29	13.08	-40.0	-42.2	24.5	0.00e+00	0	38	0	0	51	4693
2026-01-07 02:03:08.63	225.91	13.30	-40.0	-42.2	24.5	0.00e+00	0	38	0	0	51	4699
2026-01-07 02:03:10.63	225.52	13.52	-40.2	-42.5	24.4	0.00e+00	0	38	0	0	51	4823
2026-01-07 02:03:12.63	225.13	13.74	-40.2	-42.4	24.4	0.00e+00	0	38	0	0	51	4793
2026-01-07 02:03:14.63	224.72	13.96	-40.1	-42.3	24.5	0.00e+00	0	38	0	0	51	4735
2026-01-07 02:03:16.72	224.29	14.20	-39.5	-41.6	25.2	0.00e+00	0	38	0	0	50	4599
2026-01-07 02:03:18.74	223.87	14.43	-39.2	-41.3	25.4	0.00e+00	0	38	0	0	50	4447
2026-01-07 02:03:20.74	223.44	14.66	-39.2	-41.2	25.5	0.00e+00	0	38	0	0	50	4423
2026-01-07 02:03:22.75	223.00	14.89	-39.4	-41.5	25.3	0.00e+00	0	38	0	0	50	4574
2026-01-07 02:03:24.75	222.56	15.12	-38.8	-40.9	25.8	0.00e+00	0	38	0	0	49	4510
2026-01-07 02:03:26.76	222.10	15.36	-38.8	-40.8	25.8	0.00e+00	0	38	0	0	49	4488
2026-01-07 02:03:28.77	221.64	15.59	-39.2	-41.2	25.6	0.00e+00	0	38	0	0	49	4705
2026-01-07 02:03:30.77	221.16	15.83	-39.2	-41.3	25.4	0.00e+00	0	38	0	0	49	4737
2026-01-07 02:03:32.77	220.68	16.07	-39.1	-41.2	25.5	0.00e+00	0	38	0	0	49	4692
2026-01-07 02:03:34.95	220.14	16.33	-38.8	-40.9	25.9	0.00e+00	0	38	0	0	49	4497
2026-01-07 02:03:36.96	219.64	16.58	-38.7	-40.7	26.0	0.00e+00	0	38	0	0	49	4417
2026-01-07 02:03:38.96	219.12	16.82	-38.4	-40.4	26.2	0.00e+00	0	38	0	0	48	4513
2026-01-07 02:03:40.97	218.60	17.07	-38.5	-40.5	25.9	0.00e+00	0	38	0	0	48	4563
2026-01-07 02:03:43.07	218.04	17.33	-38.6	-40.7	26.0	0.00e+00	0	38	0	0	48	4654
2026-01-07 02:03:45.25	217.44	17.60	-38.4	-40.4	26.2	0.00e+00	0	38	0	0	48	4519
2026-01-07 02:03:47.25	216.88	17.85	-38.1	-40.0	26.6	0.00e+00	0	38	0	0	48	4329
2026-01-07 02:03:49.26	216.31	18.10	-38.2	-40.1	26.4	0.00e+00	0	38	0	0	47	4646
2026-01-07 02:03:51.26	215.73	18.35	-38.1	-40.1	26.4	0.00e+00	0	38	0	0	47	4641
2026-01-07 02:03:53.27	215.13	18.61	-38.1	-40.1	26.5	0.00e+00	0	38	0	0	47	4635
2026-01-07 02:03:55.27	214.52	18.86	-37.8	-39.8	26.7	0.00e+00	0	38	0	0	47	4464
2026-01-07 02:03:57.28	213.90	19.12	-37.5	-39.5	27.0	0.00e+00	0	38	0	0	47	4314
2026-01-07 02:03:59.28	213.27	19.37	-38.0	-40.0	26.6	0.00e+00	0	38	0	0	47	4558
2026-01-07 02:04:01.42	212.58	19.65	-38.0	-39.9	26.6	0.00e+00	0	38	0	0	47	4535
2026-01-07 02:04:03.50	211.89	19.91	-38.2	-40.2	26.4	0.00e+00	0	38	0	0	47	4675
2026-01-07 02:04:05.51	211.21	20.17	-37.8	-39.8	26.7	0.00e+00	0	38	0	0	47	4476
2026-01-07 02:04:07.51	210.53	20.43	-37.8	-39.7	26.8	0.00e+00	0	38	0	0	47	4428
2026-01-07 02:04:09.52	209.82	20.69	-37.8	-39.8	26.7	0.00e+00	0	38	0	0	47	4474
2026-01-07 02:04:11.52	209.11	20.94	-37.8	-39.8	26.8	0.00e+00	0	38	0	0	47	4459
2026-01-07 02:04:13.53	208.38	21.20	-37.6	-39.6	26.9	0.00e+00	0	38	0	0	47	4362
2026-01-07 02:04:15.54	207.63	21.45	-37.8	-39.8	26.8	0.00e+00	0	38	0	0	47	4471
2026-01-07 02:04:17.54	206.87	21.71	-37.3	-39.2	27.3	0.00e+00	0	38	0	0	46	4425
2026-01-07 02:04:19.55	206.09	21.96	-37.6	-39.6	27.0	0.00e+00	0	38	0	0	46	4617
2026-01-07 02:04:21.55	205.30	22.21	-37.1	-39.0	27.4	0.00e+00	0	38	0	0	46	4332
2026-01-07 02:04:23.56	204.49	22.46	-37.2	-39.1	27.3	0.00e+00	0	38	0	0	46	4386
2026-01-07 02:04:25.57	203.67	22.71	-37.3	-39.2	27.2	0.00e+00	0	38	0	0	46	4437
2026-01-07 02:04:27.57	202.84	22.95	-37.2	-39.1	27.4	0.00e+00	0	38	0	0	46	4360
2026-01-07 02:04:29.58	201.98	23.20	-37.4	-39.4	27.2	0.00e+00	0	38	0	0	46	4499
2026-01-07 02:04:31.58	201.12	23.44	-37.6	-39.6	27.0	0.00e+00	0	38	0	0	46	4602
2026-01-07 02:04:33.59	200.23	23.67	-37.6	-39.6	27.0	0.00e+00	0	38	0	0	46	4602
2026-01-07 02:04:35.59	199.34	23.90	-37.1	-39.0	27.5	0.00e+00	0	38	0	0	46	4306
2026-01-07 02:04:37.59	198.42	24.13	-36.8	-38.7	27.7	0.00e+00	0	38	0	0	45	4419
2026-01-07 02:04:39.60	197.49	24.36	-36.5	-38.4	27.9	0.00e+00	0	38	0	0	45	4260
2026-01-07 02:04:41.60	196.55	24.57	-36.9	-38.8	27.6	0.00e+00	0	38	0	0	45	4492
2026-01-07 02:04:43.61	195.59	24.79	-36.7	-38.6	27.7	0.00e+00	0	38	0	0	45	4385
2026-01-07 02:04:45.68	194.58	25.00	-36.6	-38.5	27.7	0.00e+00	0	38	0	0	45	4327
2026-01-07 02:04:47.75	193.56	25.21	-36.8	-38.7	27.6	0.00e+00	0	38	0	0	45	4440
2026-01-07 02:04:49.83	192.51	25.41	-36.9	-38.8	27.6	0.00e+00	0	38	0	0	45	4475
2026-01-07 02:04:51.87	191.48	25.61	-36.2	-38.0	28.2	0.00e+00	0	38	0	0	44	4336
2026-01-07 02:04:53.94	190.41	25.79	-36.1	-38.0	28.1	0.00e+00	0	38	0	0	43	4580
2026-01-07 02:04:55.95	189.36	25.97	-35.9	-37.8	28.2	0.00e+00	0	38	0	0	43	4444
2026-01-07 02:04:57.95	188.30	26.13	-36.2	-38.1	28.0	0.00e+00	0	38	0	0	43	4611
2026-01-07 02:04:59.97	187.22	26.29	-35.7	-37.5	28.4	0.00e+00	0	38	0	0	43	4332
2026-01-07 02:05:02.06	186.09	26.44	-36.1	-38.0	28.1	0.00e+00	0	38	0	0	43	4553
2026-01-07 02:05:04.30	184.86	26.60	-36.2	-38.1	27.6	0.00e+00	0	38	0	0	43	4628
2026-01-07 02:05:06.50	183.65	26.73	-36.2	-38.1	28.0	0.00e+00	0	38	0	0	43	4635
2026-01-07 02:05:08.72	182.41	26.86	-36.5	-38.4	27.8	0.00e+00	0	38	0	0	43	4787
2026-01-07 02:05:10.72	181.28	26.97	-36.1	-38.0	28.1	0.00e+00	0	38	0	0	43	4583
2026-01-07 02:05:12.73	180.14	27.06	-36.2	-38.1	28.1	0.00e+00	0	38	0	0	43	4624
2026-01-07 02:05:14.76	178.99	27.15	-36.1	-38.0	28.1	0.00e+00	0	38	0	0	43	4555
2026-01-07 02:05:16.71	177.87	27.22	-36.2	-38.0	28.0	0.00e+00	0	38	0	0	43	4590
2026-01-07 02:05:18.71	176.71	27.28	-36.3	-38.1	28.0	0.00e+00	0	38	0	0	43	4648
2026-01-07 02:05:20.71	175.56	27.33	-36.4	-38.3	27.9	0.00e+00	0	38	0	0	43	4740
2026-01-07 02:05:22.72	174.39	27.37	-36.7	-38.6	27.7	0.00e+00	0	38	0	0	45	4389
2026-01-07 02:05:24.73	173.22	27.40	-36.3	-38.1	28.1	0.00e+00	0	38	0	0	44	4384
2026-01-07 02:05:26.73	172.06	27.42	-36.3	-38.2	27.9	0.00e+00	0	38	0	0	44	4409
2026-01-07 02:05:28.74	170.88	27.42	-36.1	-37.9	28.3	0.00e+00	0	38	0	0	44	4278
2026-01-07 02:05:30.75	169.71	27.41	-36.1	-37.9	28.3	0.00e+00	0	38	0	0	44	4282
2026-01-07 02:05:32.75	168.55	27.39	-36.3	-38.2	28.1	0.00e+00	0	38	0	0	44	4398
2026-01-07 02:05:34.76	167.38	27.36	-36.1	-38.0	28.3	0.00e+00	0	38	0	0	44	4302
2026-01-07 02:05:36.76	166.22	27.32	-36.2	-38.1	28.1	0.00e+00	0	38	0	0	44	4380
2026-01-07 02:05:38.76	165.06	27.27	-36.4	-38.3	28.0	0.00e+00	0	38	0	0	44	4491
2026-01-07 02:05:40.95	163.80	27.19	-36.1	-38.0	28.1	0.00e+00	0	38	0	0	43	4585
2026-01-07 02:05:43.16	162.54	27.11	-36.2	-38.1	28.0	0.00e+00	0	38	0	0	43	4601
2026-01-07 02:05:45.45	161.24	27.01	-35.9	-37.7	28.3	0.00e+00	0	38	0	0	43	4440
2026-01-07 02:05:47.46	160.11	26.90	-36.2	-38.1	28.1	0.00e+00	0	38	0	0	43	4602
2026-01-07 02:05:49.47	158.98	26.79	-36.3	-38.2	27.9	0.00e+00	0	38	0	0	43	4683
2026-01-07 02:05:51.48	157.87	26.67	-35.9	-37.7	28.3	0.00e+00	0	38	0	0	43	4430
2026-01-07 02:05:53.48	156.77	26.54	-35.8	-37.7	28.3	0.00e+00	0	38	0	0	43	4416
2026-01-07 02:05:55.49	155.67	26.40	-36.0	-37.9	28.2	0.00e+00	0	38	0	0	43	4501
2026-01-07 02:05:57.49	154.59	26.25	-36.0	-37.9	28.2	0.00e+00	0	38	0	0	43	4501
2026-01-07 02:05:59.49	153.53	26.09	-36.3	-38.2	28.0	0.00e+00	0	38	0	0	43	4680
2026-01-07 02:06:01.50	152.47	25.92	-36.2	-38.1	28.1	0.00e+00	0	38	0	0	43	4609
2026-01-07 02:06:03.51	151.43	25.75	-35.9	-37.8	28.3	0.00e+00	0	38	0	0	43	4482
2026-01-07 02:06:05.57	150.37	25.56	-36.2	-38.1	28.1	0.00e+00	0	38	0	0	43	4599
2026-01-07 02:06:07.58	149.35	25.37	-36.5	-38.4	27.8	0.00e+00	0	38	0	0	43	4811
2026-01-07 02:06:09.70	148.29	25.16	-36.5	-38.5	27.8	0.00e+00	0	38	0	0	44	4558
2026-01-07 02:06:11.78	147.27	24.95	-36.4	-38.3	28.0	0.00e+00	0	38	0	0	44	4449
2026-01-07 02:06:13.79	146.30	24.74	-36.3	-38.2	28.1	0.00e+00	0	38	0	0	44	4431
2026-01-07 02:06:15.79	145.35	24.53	-36.6	-38.5	27.9	0.00e+00	0	38	0	0	44	4565
2026-01-07 02:06:17.80	144.41	24.31	-36.8	-38.7	27.6	0.00e+00	0	38	0	0	44	4700
2026-01-07 02:06:19.80	143.48	24.08	-37.0	-39.0	27.4	0.00e+00	0	38	0	0	44	4825
2026-01-07 02:06:21.81	142.57	23.86	-36.8	-38.7	27.6	0.00e+00	0	38	0	0	44	4696
2026-01-07 02:06:24.12	141.55	23.59	-36.7	-38.6	27.7	0.00e+00	0	38	0	0	44	4649
2026-01-07 02:06:26.34	140.58	23.33	-37.3	-39.3	27.1	0.00e+00	0	38	0	0	45	4717
2026-01-07 02:06:28.34	139.72	23.09	-37.4	-39.4	27.1	0.00e+00	0	38	0	0	46	4507
2026-01-07 02:06:30.34	138.88	22.84	-37.6	-39.6	26.9	0.00e+00	0	38	0	0	46	4606
2026-01-07 02:06:32.35	138.05	22.60	-37.3	-39.2	27.2	0.00e+00	0	38	0	0	46	4419
2026-01-07 02:06:34.64	137.13	22.31	-37.5	-39.4	27.1	0.00e+00	0	38	0	0	46	4544
2026-01-07 02:06:36.64	136.33	22.07	-38.0	-40.0	26.7	0.00e+00	0	38	0	0	46	4839
2026-01-07 02:06:39.01	135.41	21.77	-38.1	-40.1	26.4	0.00e+00	0	38	0	0	47	4642
2026-01-07 02:06:41.01	134.65	21.51	-38.1	-40.1	26.4	0.00e+00	0	38	0	0	47	4642
2026-01-07 02:06:43.02	133.91	21.26	-38.5	-40.5	26.2	0.00e+00	0	38	0	0	48	4568
2026-01-07 02:06:45.02	133.18	21.01	-38.8	-40.8	25.8	0.00e+00	0	38	0	0	48	4744
2026-01-07 02:06:47.03	132.46	20.75	-38.3	-40.3	26.4	0.00e+00	0	38	0	0	48	4448
2026-01-07 02:06:49.03	131.75	20.49	-38.1	-40.1	26.5	0.00e+00	0	38	0	0	47	4645
2026-01-07 02:06:51.03	131.07	20.24	-38.3	-40.3	26.3	0.00e+00	0	38	0	0	48	4493
2026-01-07 02:06:53.04	130.39	19.98	-38.8	-40.9	26.0	0.00e+00	0	38	0	0	48	4771
2026-01-07 02:06:55.04	129.73	19.73	-38.4	-40.4	26.4	0.00e+00	0	38	0	0	48	4530
2026-01-07 02:06:57.04	129.08	19.47	-38.4	-40.5	26.3	0.00e+00	0	38	0	0	47	4822
2026-01-07 02:06:59.11	128.42	19.21	-37.8	-39.8	26.7	0.00e+00	0	38	0	0	47	4480
2026-01-07 02:07:01.18	127.78	18.94	-38.1	-40.1	26.5	0.00e+00	0	38	0	0	47	4651
2026-01-07 02:07:03.26	127.15	18.68	-38.4	-40.5	26.2	0.00e+00	0	38	0	0	47	4827
2026-01-07 02:07:05.27	126.55	18.43	-38.2	-40.2	26.4	0.00e+00	0	38	0	0	47	4680
2026-01-07 02:07:07.27	125.97	18.17	-38.1	-40.1	26.5	0.00e+00	0	38	0	0	47	4612
2026-01-07 02:07:09.28	125.39	17.92	-38.3	-40.3	26.3	0.00e+00	0	38	0	0	47	4757
2026-01-07 02:07:11.28	124.84	17.67	-38.4	-40.5	26.2	0.00e+00	0	38	0	0	47	4831
2026-01-07 02:07:13.29	124.28	17.42	-38.3	-40.4	26.3	0.00e+00	0	38	0	0	47	4774
2026-01-07 02:07:15.67	123.65	17.13	-38.5	-40.5	26.1	0.00e+00	0	38	0	0	47	4864
2026-01-07 02:07:17.67	123.12	16.89	-38.6	-40.6	26.0	0.00e+00	0	38	0	0	47	4916
2026-01-07 02:07:19.72	122.60	16.64	-38.6	-40.7	26.1	0.00e+00	0	38	0	0	48	4667
2026-01-07 02:07:21.72	122.09	16.39	-38.8	-40.8	25.9	0.00e+00	0	38	0	0	48	4754
2026-01-07 02:07:23.73	121.60	16.15	-39.1	-41.1	25.6	0.00e+00	0	38	0	0	48	4918
2026-01-07 02:07:25.73	121.11	15.91	-38.4	-40.4	26.1	0.00e+00	0	38	0	0	48	4544
2026-01-07 02:07:27.74	120.64	15.67	-38.5	-40.5	26.1	0.00e+00	0	38	0	0	48	4578
2026-01-07 02:07:29.74	120.17	15.44	-39.3	-41.4	25.4	0.00e+00	0	38	0	0	49	4803
2026-01-07 02:07:31.94	119.67	15.18	-39.8	-41.9	24.9	0.00e+00	0	38	0	0	50	4811
2026-01-07 02:07:33.95	119.23	14.95	-39.6	-41.7	25.1	0.00e+00	0	38	0	0	50	4673
2026-01-07 02:07:35.95	118.79	14.72	-39.3	-41.4	25.4	0.00e+00	0	38	0	0	50	4511
2026-01-07 02:07:37.97	118.36	14.49	-39.2	-41.2	25.5	0.00e+00	0	38	0	0	50	4439
2026-01-07 02:07:40.07	117.92	14.25	-39.5	-41.7	25.1	0.00e+00	0	38	0	0	50	4662
2026-01-07 02:07:42.26	117.47	14.00	-39.9	-42.1	24.8	0.00e+00	0	38	0	0	50	4906
2026-01-07 02:07:44.26	117.07	13.78	-40.1	-42.3	24.6	0.00e+00	0	38	0	0	50	5003
2026-01-07 02:07:46.26	116.67	13.56	-40.2	-42.4	24.4	0.00e+00	0	38	0	0	51	4783
2026-01-07 02:07:48.27	116.28	13.34	-40.1	-42.3	24.6	0.00e+00	0	38	0	0	51	4719
2026-01-07 02:07:50.28	115.90	13.12	-40.0	-42.2	24.6	0.00e+00	0	38	0	0	51	4683
2026-01-07 02:07:52.28	115.53	12.91	-40.3	-42.5	24.3	0.00e+00	0	38	0	0	51	4838
2026-01-07 02:07:54.30	115.16	12.69	-40.4	-42.6	24.2	0.00e+00	0	38	0	0	51	4917
2026-01-07 02:07:56.38	114.79	12.47	-40.6	-42.9	23.9	0.00e+00	0	38	0	0	52	4793
2026-01-07 02:07:58.68	114.39	12.23	-40.6	-42.9	23.9	0.00e+00	0	38	0	0	52	4769
2026-01-07 02:08:00.72	114.04	12.02	-40.8	-43.1	23.6	0.00e+00	0	38	0	0	52	4913
2026-01-07 02:08:02.72	113.70	11.81	-40.5	-42.8	23.9	0.00e+00	0	38	0	0	52	4740
2026-01-07 02:08:04.72	113.37	11.61	-40.8	-43.1	23.7	0.00e+00	0	38	0	0	52	4888
2026-01-07 02:08:06.72	113.04	11.41	-40.9	-43.3	23.5	0.00e+00	0	38	0	0	52	4986
2026-01-07 02:08:08.78	112.72	11.20	-41.3	-43.7	23.1	0.00e+00	0	38	0	0	53	4973
2026-01-07 02:08:10.85	112.39	11.00	-41.3	-43.8	23.0	0.00e+00	0	38	0	0	53	5033
2026-01-07 02:08:12.86	112.08	10.80	-41.3	-43.8	23.0	0.00e+00	0	38	0	0	53	4999
2026-01-07 02:08:14.99	111.76	10.59	-40.9	-43.3	23.4	0.00e+00	0	38	0	0	53	4713
2026-01-07 02:08:17.00	111.47	10.40	-41.0	-43.4	23.4	0.00e+00	0	38	0	0	53	4766
2026-01-07 02:08:19.00	111.17	10.20	-41.0	-43.4	23.3	0.00e+00	0	38	0	0	53	4769
2026-01-07 02:08:21.02	110.89	10.01	-41.0	-43.4	23.3	0.00e+00	0	38	0	0	53	4768
2026-01-07 02:08:23.03	110.60	9.82	-41.4	-43.9	22.8	0.00e+00	0	38	0	0	53	5099
2026-01-07 02:08:25.03	110.33	9.64	-41.9	-44.5	22.2	0.00e+00	0	38	0	0	54	5135
2026-01-07 02:08:27.04	110.06	9.45	-42.3	-44.9	21.8	0.00e+00	0	38	0	0	55	5082
2026-01-07 02:08:29.05	109.79	9.27	-42.3	-45.0	21.7	0.00e+00	0	38	0	0	55	5134
2026-01-07 02:08:31.05	109.53	9.08	-42.5	-45.3	21.5	0.00e+00	0	38	0	0	55	5290
2026-01-07 02:08:33.06	109.27	8.90	-49.6	-68.0	3.8	3.57e-01	0	38	104	0	69	32529
2026-01-07 02:08:35.07	109.01	8.72	-49.9	-68.7	3.8	8.46e-01	0	38	104	0	70	33004
2026-01-07 02:08:37.08	108.77	8.54	-50.0	-68.8	3.8	8.46e-01	0	38	104	0	70	33430
2026-01-07 02:08:39.09	108.52	8.37	-49.9	-68.9	3.8	8.48e-01	0	38	104	0	70	33773
2026-01-07 02:08:41.10	108.28	8.19	-49.8	-68.9	3.8	8.47e-01	0	38	104	0	70	33980
2026-01-07 02:08:43.10	108.04	8.02	-50.0	-69.0	3.8	8.47e-01	0	38	104	0	70	34140
2026-01-07 02:08:45.11	107.81	7.85	-50.0	-69.0	3.8	8.46e-01	0	38	104	0	70	34257
2026-01-07 02:08:47.26	107.56	7.66	-50.1	-69.0	3.8	8.47e-01	0	38	104	0	70	34362
2026-01-07 02:08:49.37	107.33	7.49	-49.8	-69.0	3.8	8.47e-01	0	38	104	0	70	34269
2026-01-07 02:08:51.43	107.10	7.31	-49.8	-69.0	3.8	8.46e-01	0	38	104	0	70	34097
2026-01-07 02:08:53.51	106.87	7.14	-49.9	-69.0	3.8	8.46e-01	0	38	104	0	70	34101
2026-01-07 02:08:55.59	106.65	6.97	-49.9	-68.9	3.8	8.47e-01	0	38	104	0	70	34052
2026-01-07 02:08:57.60	106.44	6.81	-49.8	-68.9	3.8	8.47e-01	0	38	104	0	70	34041
2026-01-07 02:08:59.60	106.23	6.64	-49.9	-69.0	3.8	8.48e-01	0	38	104	0	70	34176
2026-01-07 02:09:01.61	106.03	6.48	-49.8	-68.9	3.8	8.46e-01	0	38	104	0	70	34077
2026-01-07 02:09:03.62	105.83	6.32	-49.8	-68.9	3.8	8.47e-01	0	38	104	0	70	33917
2026-01-07 02:09:05.63	105.63	6.16	-49.8	-68.9	3.8	8.47e-01	0	38	104	0	70	33875
2026-01-07 02:09:07.63	105.43	6.01	-49.8	-68.9	3.8	8.47e-01	0	38	104	0	70	33912
2026-01-07 02:09:09.64	105.24	5.85	-49.8	-68.9	3.8	8.47e-01	0	38	104	0	70	33870
2026-01-07 02:09:11.65	105.05	5.69	-49.8	-68.9	3.8	8.47e-01	0	38	104	0	70	33924
2026-01-07 02:09:13.66	104.87	5.54	-49.8	-68.9	3.8	8.47e-01	0	38	104	0	70	33883
2026-01-07 02:09:15.67	104.68	5.39	-49.8	-68.9	3.8	8.46e-01	0	38	104	0	70	33929
2026-01-07 02:09:17.68	104.50	5.23	-49.8	-68.9	3.8	8.47e-01	0	38	104	0	70	33970
2026-01-07 02:09:19.69	104.32	5.08	-49.8	-68.9	3.8	8.47e-01	0	38	104	0	70	34010
2026-01-07 02:09:21.69	104.15	4.93	-49.8	-68.9	3.8	8.46e-01	0	38	104	0	70	33924

#Closed at: 2026-01-07 02:09:23
#Recorded file [0 MB]: D:/Data/31040_260107_050140.dat