passes_logs/2026/01/07/T1/T1__20260107_211909_KHAYYAM_rec.log

#Pass ID: 20260107_211909_KHAYYAM
#Satellite: KHAYYAM
#Configuration: KHAYYAM_480M
#almurnet v.1.7.20251203
#Start time: 2026-01-07 21:19:09

#Version: 2.0.20230620
#Station: T1
#Location: 37.570604 lon 55.790049 lat
#TLE: 1 53370U 22096A   26005.63766736  .00008095  00000+0  32978-3 0  9997
#TLE: 2 53370  97.3565 272.8146 0001238  87.7645 272.3734 15.24731212189819

#Time	Az	El	Level	Level2	SNR	BER	BlckErr	Temp	State	Recorded	gain1	gain2
2026-01-07 21:19:09.34	14.11	5.01	-51.2	-56.1	3.4	0.00e+00	0	41	0	0	74	24704
2026-01-07 21:19:11.34	14.12	5.17	-51.6	-56.6	3.7	0.00e+00	0	42	104	0	73	27761
2026-01-07 21:19:13.35	14.13	5.34	-51.5	-56.6	3.7	0.00e+00	0	42	104	0	73	27826
2026-01-07 21:19:15.36	14.13	5.50	-51.5	-56.6	3.7	0.00e+00	0	42	104	0	73	27690
2026-01-07 21:19:17.37	14.14	5.67	-51.5	-56.6	3.7	0.00e+00	0	42	104	0	73	27790
2026-01-07 21:19:19.38	14.15	5.84	-51.5	-56.6	3.7	0.00e+00	0	43	104	0	73	27769
2026-01-07 21:19:21.39	14.16	6.01	-51.5	-56.7	3.7	0.00e+00	0	43	104	0	73	27885
2026-01-07 21:19:23.40	14.16	6.18	-51.6	-56.6	3.7	0.00e+00	0	43	104	0	73	27789
2026-01-07 21:19:25.40	14.17	6.35	-51.6	-56.7	3.7	0.00e+00	0	43	104	0	73	27845
2026-01-07 21:19:27.41	14.18	6.53	-51.5	-56.6	3.7	0.00e+00	0	44	104	0	73	27797
2026-01-07 21:19:29.42	14.18	6.70	-51.6	-56.7	3.7	0.00e+00	0	43	104	0	73	27856
2026-01-07 21:19:31.43	14.19	6.88	-51.6	-56.7	3.7	0.00e+00	0	43	104	0	73	27872
2026-01-07 21:19:33.44	14.20	7.06	-51.6	-56.7	3.7	0.00e+00	0	44	104	0	73	27890
2026-01-07 21:19:35.44	14.21	7.24	-51.6	-56.7	3.7	0.00e+00	0	44	104	0	73	27868
2026-01-07 21:19:37.45	14.21	7.43	-51.6	-56.7	3.7	0.00e+00	0	44	104	0	73	27971
2026-01-07 21:19:39.46	14.22	7.61	-51.6	-56.6	3.7	0.00e+00	0	44	104	0	73	27833
2026-01-07 21:19:41.47	14.23	7.80	-51.6	-56.7	3.7	0.00e+00	0	44	104	0	73	27910
2026-01-07 21:19:43.47	14.23	7.99	-51.6	-56.7	3.7	0.00e+00	0	44	104	0	73	27885
2026-01-07 21:19:45.48	14.24	8.18	-51.6	-56.7	3.7	0.00e+00	0	44	104	0	73	27903
2026-01-07 21:19:47.49	14.25	8.37	-51.6	-56.7	3.7	0.00e+00	0	45	104	0	73	27885
2026-01-07 21:19:49.50	14.25	8.56	-51.6	-56.7	3.7	0.00e+00	0	44	104	0	73	27992
2026-01-07 21:19:51.51	14.26	8.76	-51.6	-56.6	3.7	0.00e+00	0	45	104	0	73	27792
2026-01-07 21:19:53.52	14.27	8.96	-51.6	-56.6	3.7	0.00e+00	0	44	104	0	73	27807
2026-01-07 21:19:55.53	14.28	9.16	-51.3	-56.5	3.7	0.00e+00	0	45	104	0	73	27432
2026-01-07 21:19:57.53	14.28	9.36	-51.4	-56.5	3.7	0.00e+00	0	45	104	0	73	27315
2026-01-07 21:19:59.54	14.29	9.57	-51.1	-55.8	3.7	0.00e+00	0	45	104	0	73	25186
2026-01-07 21:20:01.54	14.30	9.78	-50.8	-55.9	3.7	0.00e+00	0	45	104	0	73	25477
2026-01-07 21:20:03.55	14.30	9.99	-50.7	-55.5	3.7	0.00e+00	0	45	104	0	73	24307
2026-01-07 21:20:05.56	14.31	10.20	-51.0	-55.7	3.7	0.00e+00	0	45	104	0	73	25042
2026-01-07 21:20:07.56	14.32	10.41	-50.6	-55.5	3.7	0.00e+00	0	45	104	0	73	24353
2026-01-07 21:20:09.57	14.32	10.63	-50.9	-55.4	3.7	0.00e+00	0	45	104	0	73	23966
2026-01-07 21:20:11.58	14.33	10.85	-51.2	-55.8	3.7	0.00e+00	0	46	104	0	73	25214
2026-01-07 21:20:13.65	14.34	11.08	-51.1	-55.8	3.7	0.00e+00	0	45	104	0	73	25133
2026-01-07 21:20:15.77	14.34	11.32	-51.0	-56.7	3.7	0.00e+00	0	45	104	0	73	28009
2026-01-07 21:20:17.77	14.35	11.55	-50.9	-56.4	3.7	0.00e+00	0	45	104	0	73	27147
2026-01-07 21:20:19.81	14.36	11.78	-50.6	-56.1	3.7	0.00e+00	0	46	104	0	73	26216
2026-01-07 21:20:21.90	14.36	12.03	-50.5	-56.2	3.7	0.00e+00	0	46	104	0	72	28075
2026-01-07 21:20:23.91	14.37	12.26	-50.7	-56.5	3.7	0.00e+00	0	46	104	0	72	29001
2026-01-07 21:20:26.19	14.38	12.54	-50.5	-56.0	3.7	0.00e+00	0	46	104	0	72	27201
2026-01-07 21:20:28.19	14.38	12.78	-50.2	-55.8	3.7	0.00e+00	0	46	104	0	72	26626
2026-01-07 21:20:30.20	14.39	13.03	-50.4	-55.8	3.7	0.00e+00	0	46	104	0	72	26870
2026-01-07 21:20:32.21	14.40	13.28	-50.5	-55.8	3.7	0.00e+00	0	46	104	0	72	26726
2026-01-07 21:20:34.21	14.40	13.53	-50.6	-56.2	3.7	0.00e+00	0	46	104	0	72	27942
2026-01-07 21:20:36.22	14.41	13.79	-50.5	-55.9	3.7	0.00e+00	0	46	104	0	72	26921
2026-01-07 21:20:38.23	14.42	14.05	-50.4	-56.2	3.7	0.00e+00	0	46	104	0	72	27882
2026-01-07 21:20:40.23	14.42	14.32	-50.6	-56.4	3.7	0.00e+00	0	46	104	0	72	28527
2026-01-07 21:20:42.24	14.43	14.59	-51.0	-56.2	3.7	0.00e+00	0	46	104	0	72	27896
2026-01-07 21:20:44.25	14.44	14.86	-51.5	-56.5	3.7	0.00e+00	0	46	104	0	73	27366
2026-01-07 21:20:46.25	14.44	15.14	-51.3	-56.4	3.7	0.00e+00	0	46	104	0	74	25462
2026-01-07 21:20:48.26	14.45	15.42	-51.8	-57.3	3.7	0.00e+00	0	46	104	0	74	28346
2026-01-07 21:20:50.27	14.45	15.71	-51.2	-56.5	3.7	0.00e+00	0	46	104	0	74	25802
2026-01-07 21:20:52.27	14.46	16.00	-51.1	-56.4	3.7	0.00e+00	0	46	104	0	74	25430
2026-01-07 21:20:54.28	14.47	16.29	-51.4	-56.7	3.7	0.00e+00	0	46	104	0	74	26435
2026-01-07 21:20:56.30	14.47	16.60	-53.0	-57.8	3.7	0.00e+00	0	46	104	0	76	26752
2026-01-07 21:20:58.34	14.48	16.91	-51.7	-56.5	3.7	0.00e+00	0	46	104	0	75	24509
2026-01-07 21:21:00.35	14.48	17.22	-51.8	-56.8	3.7	0.00e+00	0	46	104	0	75	25376
2026-01-07 21:21:02.35	14.49	17.53	-51.9	-57.3	3.7	0.00e+00	0	46	104	0	75	26588
2026-01-07 21:21:04.36	14.50	17.85	-53.6	-58.4	3.7	0.00e+00	0	46	104	0	77	26994
2026-01-07 21:21:06.37	14.50	18.18	-54.0	-58.6	3.7	0.00e+00	0	46	104	0	78	26136
2026-01-07 21:21:08.38	14.51	18.51	-53.9	-58.4	3.7	0.00e+00	0	46	104	0	78	25572
2026-01-07 21:21:10.38	14.51	18.85	-53.9	-58.1	3.7	0.00e+00	0	47	104	0	78	24600
2026-01-07 21:21:12.50	14.52	19.21	-53.9	-58.1	3.7	0.00e+00	0	46	104	0	78	24690
2026-01-07 21:21:14.51	14.52	19.56	-53.7	-57.7	3.7	0.00e+00	0	46	104	0	79	22256
2026-01-07 21:21:16.51	14.53	19.92	-54.0	-58.2	3.7	0.00e+00	0	46	104	0	78	24973
2026-01-07 21:21:18.52	14.53	20.28	-53.1	-57.6	3.7	0.00e+00	0	46	104	0	78	23406
2026-01-07 21:21:20.53	14.54	20.65	-53.1	-57.7	3.7	0.00e+00	0	47	104	0	78	23449
2026-01-07 21:21:22.54	14.55	21.03	-53.7	-58.4	3.7	0.00e+00	0	46	104	0	78	25639
2026-01-07 21:21:24.55	14.55	21.42	-53.5	-58.3	3.7	0.00e+00	0	46	104	0	78	25098
2026-01-07 21:21:26.70	14.56	21.84	-53.4	-57.9	3.7	0.00e+00	0	47	104	0	78	23971
2026-01-07 21:21:28.88	14.56	22.27	-53.3	-57.8	3.7	0.00e+00	0	47	104	0	78	23926
2026-01-07 21:21:30.89	14.57	22.68	-53.3	-57.7	3.7	0.00e+00	0	46	104	0	78	23429
2026-01-07 21:21:33.00	14.57	23.12	-53.2	-57.5	3.7	0.00e+00	0	47	104	0	78	23134
2026-01-07 21:21:35.00	14.58	23.55	-52.7	-56.5	3.7	0.00e+00	0	46	104	0	77	21705
2026-01-07 21:21:37.01	14.58	23.98	-52.8	-56.6	3.7	0.00e+00	0	47	104	0	77	21955
2026-01-07 21:21:39.02	14.59	24.43	-52.7	-56.7	3.7	0.00e+00	0	47	104	0	77	22222
2026-01-07 21:21:41.09	14.59	24.90	-52.9	-57.3	3.7	0.00e+00	0	47	104	0	77	23710
2026-01-07 21:21:43.16	14.60	25.38	-52.6	-56.4	3.7	0.00e+00	0	47	104	0	77	21479
2026-01-07 21:21:45.16	14.60	25.85	-53.9	-58.4	3.7	0.00e+00	0	47	104	0	78	25448
2026-01-07 21:21:47.17	14.60	26.34	-53.6	-57.9	3.7	0.00e+00	0	47	104	0	77	25658
2026-01-07 21:21:49.22	14.61	26.84	-53.9	-58.5	3.6	0.00e+00	0	47	104	0	78	25821
2026-01-07 21:21:51.28	14.61	27.37	-53.7	-58.0	3.7	0.00e+00	0	47	104	0	78	24492
2026-01-07 21:21:53.32	14.62	27.90	-53.9	-58.6	3.7	0.00e+00	0	47	104	0	78	26137
2026-01-07 21:21:55.32	14.62	28.43	-53.8	-58.5	3.7	0.00e+00	0	47	104	0	78	25957
2026-01-07 21:21:57.33	14.62	28.97	-54.0	-58.5	3.7	0.00e+00	0	47	104	0	78	25932
2026-01-07 21:21:59.34	14.63	29.53	-53.8	-58.5	3.7	0.00e+00	0	47	104	0	78	25788
2026-01-07 21:22:01.34	14.63	30.10	-53.3	-58.0	3.6	0.00e+00	0	47	104	0	78	24404
2026-01-07 21:22:03.35	14.63	30.69	-53.6	-58.1	3.7	0.00e+00	0	47	104	0	78	24748
2026-01-07 21:22:05.69	14.64	31.39	-53.9	-58.3	3.7	0.00e+00	0	47	104	0	78	25337
2026-01-07 21:22:07.62	14.64	31.99	-54.1	-58.4	3.7	0.00e+00	0	47	104	0	78	25525
2026-01-07 21:22:09.62	14.64	32.62	-54.3	-58.6	3.7	0.00e+00	0	47	104	0	79	24754
2026-01-07 21:22:11.69	14.64	33.29	-54.1	-58.7	3.7	0.00e+00	0	47	104	0	79	25052
2026-01-07 21:22:13.69	14.65	33.95	-54.1	-58.8	3.7	0.00e+00	0	47	104	0	79	25169
2026-01-07 21:22:15.66	14.65	34.62	-54.0	-58.7	3.7	0.00e+00	0	47	104	0	79	24970
2026-01-07 21:22:17.66	14.65	35.32	-54.3	-58.9	3.7	0.00e+00	0	47	104	0	79	25393
2026-01-07 21:22:19.67	14.65	36.04	-53.9	-58.5	3.7	0.00e+00	0	47	104	0	79	24307
2026-01-07 21:22:21.67	14.65	36.78	-54.0	-58.7	3.7	0.00e+00	0	47	104	0	79	25046
2026-01-07 21:22:23.68	14.65	37.54	-53.5	-57.9	3.7	0.00e+00	0	47	104	0	79	22835
2026-01-07 21:22:25.69	14.65	38.32	-53.1	-57.6	3.7	0.00e+00	0	47	104	0	78	23217
2026-01-07 21:22:27.63	14.65	39.10	-53.1	-58.3	3.7	0.00e+00	0	47	104	0	77	26678
2026-01-07 21:22:29.64	14.65	39.92	-53.5	-58.7	3.7	0.00e+00	0	47	104	0	78	26293
2026-01-07 21:22:31.65	14.65	40.77	-54.0	-58.6	3.7	0.00e+00	0	47	104	0	79	24742
2026-01-07 21:22:33.65	14.65	41.63	-54.2	-58.8	3.7	0.00e+00	0	47	104	0	79	25292
2026-01-07 21:22:35.66	14.65	42.53	-54.0	-58.5	3.7	0.00e+00	0	47	104	0	79	24297
2026-01-07 21:22:37.67	14.65	43.45	-54.4	-58.9	3.7	0.00e+00	0	47	104	0	79	25404
2026-01-07 21:22:39.68	14.65	44.39	-54.4	-58.9	3.7	0.00e+00	0	47	104	0	79	25444
2026-01-07 21:22:41.73	14.64	45.39	-54.6	-59.0	3.7	0.00e+00	0	47	104	0	79	25698
2026-01-07 21:22:43.77	14.64	46.40	-54.5	-59.0	3.7	0.00e+00	0	47	104	0	79	25783
2026-01-07 21:22:45.85	14.63	47.47	-53.8	-58.6	3.7	0.00e+00	0	47	104	0	79	24542
2026-01-07 21:22:47.86	14.63	48.52	-54.2	-58.9	3.7	0.00e+00	0	47	104	0	79	25512
2026-01-07 21:22:50.28	14.62	49.84	-54.5	-59.0	3.7	0.00e+00	0	47	104	0	79	25775
2026-01-07 21:22:52.29	14.61	50.96	-54.6	-59.2	3.7	0.00e+00	0	47	104	0	79	26297
2026-01-07 21:22:54.30	14.60	52.12	-53.9	-58.6	3.7	0.00e+00	0	47	104	0	79	24632
2026-01-07 21:22:56.30	14.59	53.30	-54.0	-58.4	3.7	0.00e+00	0	47	104	0	79	24204
2026-01-07 21:22:58.31	14.58	54.51	-53.8	-58.7	3.7	0.00e+00	0	47	104	0	79	25014
2026-01-07 21:23:00.31	14.56	55.76	-54.0	-58.8	3.7	0.00e+00	0	47	104	0	79	25204
2026-01-07 21:23:02.32	14.55	57.04	-54.2	-58.9	3.7	0.00e+00	0	47	104	0	79	25472
2026-01-07 21:23:04.33	14.53	58.36	-54.7	-59.1	3.7	0.00e+00	0	47	104	0	79	25982
2026-01-07 21:23:06.33	14.51	59.70	-54.2	-58.9	3.7	0.00e+00	0	47	104	0	80	24038
2026-01-07 21:23:08.35	14.48	61.09	-54.6	-59.1	3.7	0.00e+00	0	47	104	0	80	24618
2026-01-07 21:23:10.42	14.45	62.54	-54.4	-59.0	3.7	0.00e+00	0	47	104	0	80	24357
2026-01-07 21:23:12.43	14.42	63.99	-54.4	-59.0	3.7	0.00e+00	0	47	104	0	80	24499
2026-01-07 21:23:14.55	14.38	65.55	-54.7	-59.1	3.7	0.00e+00	0	47	104	0	80	24735
2026-01-07 21:23:16.78	14.33	67.23	-54.5	-59.1	3.7	0.00e+00	0	47	104	0	80	24546
2026-01-07 21:23:18.78	14.27	68.77	-54.6	-59.0	3.7	0.00e+00	0	47	104	0	80	24463
2026-01-07 21:23:20.79	14.21	70.34	-54.8	-59.2	3.7	0.00e+00	0	47	104	0	80	25093
2026-01-07 21:23:23.04	14.12	72.14	-54.5	-59.0	3.7	0.00e+00	0	47	104	0	80	24400
2026-01-07 21:23:25.14	14.01	73.85	-54.5	-59.2	3.7	0.00e+00	0	47	104	0	80	24909
2026-01-07 21:23:27.15	13.89	75.50	-54.5	-59.1	3.7	0.00e+00	0	47	104	0	80	24758
2026-01-07 21:23:29.15	13.72	77.18	-54.2	-58.9	3.7	0.00e+00	0	47	104	0	80	24151
2026-01-07 21:23:31.16	13.51	78.88	-54.5	-59.1	3.7	0.00e+00	0	47	104	0	80	24554
2026-01-07 21:23:33.16	13.21	80.59	-54.3	-58.9	3.7	0.00e+00	0	47	104	0	80	24203
2026-01-07 21:23:35.17	12.77	82.32	-54.5	-58.9	3.7	0.00e+00	0	47	104	0	80	24033
2026-01-07 21:23:37.20	12.05	84.08	-54.2	-58.9	3.7	0.00e+00	0	47	104	0	80	24065
2026-01-07 21:23:39.25	10.70	85.87	-54.3	-58.6	3.7	0.00e+00	0	47	104	0	80	23318
2026-01-07 21:23:41.25	7.40	87.62	-54.2	-58.4	3.7	0.00e+00	0	47	104	0	79	24090
2026-01-07 21:23:43.26	346.53	89.33	-53.9	-58.3	3.7	0.00e+00	0	47	104	0	79	23876
2026-01-07 21:23:45.27	210.53	88.78	-53.8	-58.7	3.7	0.00e+00	0	47	104	0	79	24887
2026-01-07 21:23:47.37	201.30	86.96	-54.2	-58.9	3.7	0.00e+00	0	47	104	0	79	25587
2026-01-07 21:23:49.35	199.09	85.23	-53.7	-58.4	3.7	0.00e+00	0	47	104	0	79	24180
2026-01-07 21:23:51.35	198.05	83.48	-54.0	-58.7	3.7	0.00e+00	0	47	104	0	79	24992
2026-01-07 21:23:53.36	197.46	81.74	-54.6	-58.7	3.7	0.00e+00	0	47	104	0	79	24829
2026-01-07 21:23:55.37	197.07	80.01	-54.4	-58.7	3.7	0.00e+00	0	47	104	0	79	25061
2026-01-07 21:23:57.45	196.80	78.23	-54.6	-58.9	3.7	0.00e+00	0	47	104	0	79	25631
2026-01-07 21:23:59.40	196.61	76.59	-54.5	-58.9	3.7	0.00e+00	0	47	104	0	79	25574
2026-01-07 21:24:01.42	196.46	74.91	-54.1	-58.8	3.7	0.00e+00	0	47	104	0	79	25201
2026-01-07 21:24:03.43	196.34	73.25	-54.6	-59.1	3.7	0.00e+00	0	47	104	0	79	26173
2026-01-07 21:24:05.44	196.25	71.62	-54.7	-59.2	3.7	0.00e+00	0	47	104	0	80	24887
2026-01-07 21:24:07.45	196.17	70.02	-54.8	-59.3	3.7	0.00e+00	0	47	104	0	80	25241
2026-01-07 21:24:09.66	196.10	68.30	-54.7	-59.2	3.7	0.00e+00	0	47	104	0	80	24887
2026-01-07 21:24:11.67	196.05	66.75	-54.2	-59.0	3.7	0.00e+00	0	47	104	0	80	24281
2026-01-07 21:24:13.68	196.01	65.24	-54.6	-59.1	3.7	0.00e+00	0	47	104	0	80	24573
2026-01-07 21:24:15.68	195.97	63.77	-54.2	-59.0	3.7	0.00e+00	0	47	104	0	80	24395
2026-01-07 21:24:17.69	195.94	62.32	-54.6	-59.0	3.7	0.00e+00	0	47	104	0	80	24486
2026-01-07 21:24:19.70	195.91	60.91	-54.7	-59.1	3.7	0.00e+00	0	47	104	0	80	24785
2026-01-07 21:24:21.70	195.88	59.53	-54.4	-59.0	3.7	0.00e+00	0	47	104	0	80	24505
2026-01-07 21:24:23.90	195.86	58.06	-54.4	-58.9	3.7	0.00e+00	0	47	104	0	80	24052
2026-01-07 21:24:25.91	195.84	56.74	-54.7	-59.0	3.7	0.00e+00	0	47	104	0	80	24494
2026-01-07 21:24:27.92	195.82	55.46	-54.5	-58.7	3.7	0.00e+00	0	47	104	0	80	23472
2026-01-07 21:24:29.92	195.81	54.22	-54.7	-59.0	3.7	0.00e+00	0	47	104	0	80	24358
2026-01-07 21:24:31.93	195.80	53.01	-54.4	-58.9	3.7	0.00e+00	0	47	104	0	80	24101
2026-01-07 21:24:33.94	195.79	51.82	-54.0	-58.8	3.7	0.00e+00	0	47	104	0	79	25278
2026-01-07 21:24:35.94	195.78	50.67	-54.6	-59.1	3.7	0.00e+00	0	47	104	0	80	24594
2026-01-07 21:24:37.95	195.77	49.55	-54.3	-59.0	3.7	0.00e+00	0	47	104	0	80	24435
2026-01-07 21:24:39.96	195.76	48.46	-54.6	-59.2	3.7	0.00e+00	0	47	104	0	80	24849
2026-01-07 21:24:42.30	195.76	47.23	-54.3	-58.8	3.7	0.00e+00	0	47	104	0	80	23691
2026-01-07 21:24:44.47	195.75	46.12	-54.1	-58.6	3.7	0.00e+00	0	47	104	0	80	23238
2026-01-07 21:24:46.74	195.74	44.99	-54.6	-59.0	3.7	0.00e+00	0	47	104	0	80	24340
2026-01-07 21:24:48.89	195.74	43.96	-54.4	-58.8	3.7	0.00e+00	0	47	104	0	80	23772
2026-01-07 21:24:51.04	195.74	42.95	-54.4	-58.7	3.7	0.00e+00	0	47	104	0	80	23498
2026-01-07 21:24:53.24	195.73	41.96	-54.4	-58.9	3.7	0.00e+00	0	47	104	0	80	24125
2026-01-07 21:24:55.66	195.73	40.89	-54.5	-58.8	3.7	0.00e+00	0	47	104	0	80	23808
2026-01-07 21:24:57.84	195.73	39.97	-54.2	-58.4	3.7	0.00e+00	0	47	104	0	80	22873
2026-01-07 21:25:00.00	195.73	39.07	-54.2	-58.5	3.7	0.00e+00	0	47	104	0	80	23006
2026-01-07 21:25:02.34	195.73	38.14	-54.4	-58.6	3.7	0.00e+00	0	47	104	0	80	23196
2026-01-07 21:25:04.51	195.73	37.29	-54.4	-58.5	3.7	0.00e+00	0	47	104	0	80	22988
2026-01-07 21:25:06.67	195.73	36.48	-54.5	-59.0	3.7	0.00e+00	0	47	104	0	80	24375
2026-01-07 21:25:08.57	195.73	35.78	-54.5	-58.9	3.7	0.00e+00	0	47	104	0	80	24196
2026-01-07 21:25:10.57	195.73	35.06	-54.3	-58.6	3.7	0.00e+00	0	47	104	0	80	23320
2026-01-07 21:25:12.58	195.73	34.36	-54.3	-58.5	3.7	0.00e+00	0	47	104	0	80	23118
2026-01-07 21:25:14.59	195.73	33.67	-54.2	-58.6	3.7	0.00e+00	0	47	104	0	80	23353
2026-01-07 21:25:16.65	195.74	32.99	-54.1	-58.6	3.6	0.00e+00	0	47	104	0	80	23217
2026-01-07 21:25:18.72	195.74	32.32	-54.3	-58.9	3.7	0.00e+00	0	47	104	0	80	24233
2026-01-07 21:25:20.76	195.74	31.68	-54.4	-59.0	3.7	0.00e+00	0	47	104	0	80	24333
2026-01-07 21:25:22.77	195.74	31.07	-54.4	-59.0	3.7	0.00e+00	0	47	104	0	80	24291
2026-01-07 21:25:24.78	195.74	30.46	-54.5	-59.0	3.7	0.00e+00	0	47	104	0	80	24349
2026-01-07 21:25:27.10	195.75	29.79	-54.2	-59.1	3.7	0.00e+00	0	47	104	0	80	24732
2026-01-07 21:25:29.14	195.75	29.21	-54.1	-59.0	3.7	0.00e+00	0	47	104	0	80	24512
2026-01-07 21:25:31.14	195.75	28.65	-54.0	-58.6	3.7	0.00e+00	0	47	104	0	79	24763
2026-01-07 21:25:33.14	195.76	28.11	-54.0	-58.7	3.7	0.00e+00	0	47	104	0	79	24972
2026-01-07 21:25:35.15	195.76	27.58	-54.4	-58.9	3.7	0.00e+00	0	47	104	0	79	25544
2026-01-07 21:25:37.16	195.76	27.06	-54.4	-58.9	3.7	0.00e+00	0	47	104	0	79	25589
2026-01-07 21:25:39.17	195.76	26.55	-54.4	-59.0	3.7	0.00e+00	0	47	104	0	79	25812
2026-01-07 21:25:41.17	195.77	26.06	-54.4	-59.0	3.7	0.00e+00	0	47	104	0	79	25688
2026-01-07 21:25:43.15	195.77	25.58	-54.2	-58.8	3.7	0.00e+00	0	47	104	0	79	25208
2026-01-07 21:25:45.21	195.78	25.10	-54.2	-58.7	3.7	0.00e+00	0	47	104	0	79	24895
2026-01-07 21:25:47.25	195.78	24.62	-54.0	-58.7	3.7	0.00e+00	0	47	104	0	79	24871
2026-01-07 21:25:49.34	195.78	24.15	-54.1	-58.6	3.7	0.00e+00	0	47	104	0	79	24796
2026-01-07 21:25:51.34	195.79	23.71	-54.0	-58.6	3.7	0.00e+00	0	47	104	0	79	24671
2026-01-07 21:25:53.35	195.79	23.27	-54.1	-58.7	3.7	0.00e+00	0	47	104	0	79	25067
2026-01-07 21:25:55.48	195.80	22.82	-54.2	-58.8	3.7	0.00e+00	0	47	104	0	79	25119
2026-01-07 21:25:57.49	195.80	22.41	-54.0	-58.4	3.7	0.00e+00	0	47	104	0	79	24181
2026-01-07 21:25:59.50	195.80	22.00	-54.1	-58.5	3.7	0.00e+00	0	47	104	0	79	24444
2026-01-07 21:26:01.51	195.81	21.60	-54.2	-58.7	3.7	0.00e+00	0	47	104	0	79	24835
2026-01-07 21:26:03.52	195.81	21.20	-54.1	-58.5	3.7	0.00e+00	0	47	104	0	79	24482
2026-01-07 21:26:05.53	195.82	20.82	-53.9	-58.5	3.7	0.00e+00	0	47	104	0	79	24391
2026-01-07 21:26:07.53	195.82	20.44	-53.9	-58.5	3.7	0.00e+00	0	47	104	0	79	24513
2026-01-07 21:26:09.65	195.82	20.05	-53.8	-58.3	3.7	0.00e+00	0	47	104	0	79	23867
2026-01-07 21:26:11.66	195.83	19.69	-53.8	-58.4	3.7	0.00e+00	0	47	104	0	79	23969
2026-01-07 21:26:13.96	195.83	19.28	-53.8	-58.3	3.7	0.00e+00	0	47	104	0	79	23818
2026-01-07 21:26:15.98	195.84	18.93	-53.8	-58.2	3.7	0.00e+00	0	47	104	0	78	25082
2026-01-07 21:26:17.98	195.84	18.59	-53.4	-57.9	3.7	0.00e+00	0	47	104	0	78	24051
2026-01-07 21:26:19.99	195.85	18.25	-53.5	-58.0	3.7	0.00e+00	0	47	104	0	78	24489
2026-01-07 21:26:22.03	195.85	17.91	-53.2	-57.8	3.7	0.00e+00	0	47	104	0	78	23911
2026-01-07 21:26:24.08	195.86	17.58	-53.2	-57.8	3.7	0.00e+00	0	47	104	0	78	23878
2026-01-07 21:26:26.19	195.86	17.24	-53.2	-57.9	3.7	0.00e+00	0	47	104	0	78	24141
2026-01-07 21:26:28.20	195.87	16.93	-53.3	-57.9	3.7	0.00e+00	0	47	104	0	78	24100
2026-01-07 21:26:30.20	195.87	16.62	-53.4	-58.1	3.7	0.00e+00	0	47	104	0	78	24546
2026-01-07 21:26:32.20	195.88	16.32	-53.4	-58.1	3.7	0.00e+00	0	47	104	0	78	24662
2026-01-07 21:26:34.21	195.88	16.02	-53.4	-57.8	3.7	0.00e+00	0	47	104	0	78	23936
2026-01-07 21:26:36.22	195.89	15.72	-53.3	-57.8	3.7	0.00e+00	0	47	104	0	78	23855
2026-01-07 21:26:38.29	195.89	15.42	-53.3	-57.9	3.7	0.00e+00	0	47	104	0	78	24132
2026-01-07 21:26:40.29	195.90	15.14	-53.3	-57.8	3.6	0.00e+00	0	47	104	0	78	23699
2026-01-07 21:26:42.63	195.90	14.81	-53.2	-57.9	3.7	0.00e+00	0	47	104	0	78	24018
2026-01-07 21:26:44.64	195.91	14.53	-53.1	-57.9	3.7	0.00e+00	0	47	104	0	78	23978
2026-01-07 21:26:46.65	195.91	14.26	-53.1	-57.9	3.7	0.00e+00	0	47	104	0	78	24188
2026-01-07 21:26:48.99	195.92	13.95	-53.1	-57.7	3.7	0.00e+00	0	47	104	0	78	23568
2026-01-07 21:26:51.17	195.92	13.66	-52.9	-57.7	3.7	0.00e+00	0	47	104	0	77	24942
2026-01-07 21:26:53.21	195.93	13.40	-52.8	-57.6	3.7	0.00e+00	0	47	104	0	77	24806
2026-01-07 21:26:55.50	195.94	13.11	-52.9	-57.7	3.7	0.00e+00	0	47	104	0	77	24930
2026-01-07 21:26:57.86	195.94	12.81	-52.4	-57.3	3.7	0.00e+00	0	47	104	0	76	25154
2026-01-07 21:27:00.01	195.95	12.55	-52.2	-57.0	3.7	0.00e+00	0	47	104	0	76	24514
2026-01-07 21:27:02.20	195.95	12.28	-52.2	-57.1	3.7	0.00e+00	0	47	104	0	76	24536
2026-01-07 21:27:04.40	195.96	12.02	-52.1	-57.0	3.7	0.00e+00	0	47	104	0	75	25915
2026-01-07 21:27:06.57	195.96	11.76	-52.1	-56.9	3.7	0.00e+00	0	47	104	0	75	25407
2026-01-07 21:27:08.73	195.97	11.51	-51.9	-56.6	3.7	0.00e+00	0	47	104	0	75	24795
2026-01-07 21:27:10.90	195.97	11.26	-51.9	-56.7	3.7	0.00e+00	0	47	104	0	75	25070
2026-01-07 21:27:13.08	195.98	11.01	-52.0	-56.7	3.7	0.00e+00	0	47	104	0	75	24859
2026-01-07 21:27:15.25	195.99	10.77	-51.9	-56.7	3.7	0.00e+00	0	47	104	0	75	24931
2026-01-07 21:27:17.42	195.99	10.53	-52.0	-56.9	3.7	0.00e+00	0	47	104	0	75	25440
2026-01-07 21:27:19.57	196.00	10.29	-52.0	-56.9	3.7	0.00e+00	0	47	104	0	75	25387
2026-01-07 21:27:21.75	196.00	10.06	-51.7	-56.7	3.7	0.00e+00	0	47	104	0	75	25058
2026-01-07 21:27:24.07	196.01	9.81	-51.8	-56.9	3.7	0.00e+00	0	47	104	0	75	25441
2026-01-07 21:27:26.27	196.01	9.58	-51.8	-56.7	3.7	0.00e+00	0	47	104	0	75	25004
2026-01-07 21:27:28.43	196.02	9.36	-51.6	-56.7	3.7	0.00e+00	0	47	104	0	75	24893
2026-01-07 21:27:30.60	196.03	9.14	-51.8	-56.7	3.7	0.00e+00	0	47	104	0	75	24980
2026-01-07 21:27:32.96	196.03	8.90	-52.5	-57.8	3.7	0.00e+00	0	47	104	0	75	28224
2026-01-07 21:27:35.11	196.04	8.68	-53.9	-58.4	3.7	0.00e+00	0	47	104	0	78	25397
2026-01-07 21:27:37.28	196.04	8.47	-53.9	-58.7	3.7	0.00e+00	0	47	104	0	79	24826
2026-01-07 21:27:39.44	196.05	8.26	-53.7	-58.0	3.7	0.00e+00	0	47	104	0	79	23045
2026-01-07 21:27:41.60	196.06	8.05	-54.4	-59.0	3.7	0.00e+00	0	47	104	0	79	25826
2026-01-07 21:27:43.77	196.06	7.84	-54.6	-59.0	3.7	0.00e+00	0	47	104	0	79	25885
2026-01-07 21:27:45.92	196.07	7.64	-54.4	-59.0	3.7	0.00e+00	0	47	104	0	80	24288
2026-01-07 21:27:48.09	196.07	7.44	-54.6	-59.0	3.7	0.00e+00	0	47	104	0	80	24454
2026-01-07 21:27:50.25	196.08	7.24	-54.6	-58.8	3.7	0.00e+00	0	47	104	0	80	23956
2026-01-07 21:27:52.42	196.08	7.04	-54.3	-58.5	3.7	0.00e+00	0	47	104	0	79	24335
2026-01-07 21:27:54.57	196.09	6.85	-53.5	-58.5	3.7	0.00e+00	0	47	104	0	79	24411
2026-01-07 21:27:56.72	196.10	6.65	-53.4	-58.1	3.7	0.00e+00	0	47	104	0	78	24750
2026-01-07 21:27:58.91	196.10	6.46	-53.4	-58.1	3.7	0.00e+00	0	47	104	0	78	24758
2026-01-07 21:28:01.07	196.11	6.27	-53.4	-58.2	3.7	0.00e+00	0	47	104	0	78	24832
2026-01-07 21:28:03.23	196.11	6.08	-53.4	-58.1	3.7	0.00e+00	0	47	104	0	78	24777
2026-01-07 21:28:05.41	196.12	5.89	-53.4	-58.2	3.7	0.00e+00	0	47	104	0	78	24856
2026-01-07 21:28:07.56	196.13	5.71	-53.4	-58.1	3.7	0.00e+00	0	47	104	0	78	24773
2026-01-07 21:28:09.73	196.13	5.53	-53.4	-58.2	3.7	0.00e+00	0	47	104	0	78	24827
2026-01-07 21:28:11.88	196.14	5.35	-53.4	-58.1	3.7	0.00e+00	0	47	104	0	78	24796
2026-01-07 21:28:14.05	196.14	5.17	-53.4	-58.1	3.7	0.00e+00	0	47	104	0	78	24776
2026-01-07 21:28:16.20	196.15	4.99	-53.4	-58.1	3.7	0.00e+00	0	47	104	0	78	24671

#Closed at: 2026-01-07 21:28:16
#Recorded file [0 MB]: D:/Data/31040_260108_001909.dat