passes_logs/2026/01/07/T1/T1__20260107_072000_NOAA_20_JPSS-1_rec.log

#Pass ID: 20260107_072000_NOAA 20 (JPSS-1)
#Satellite: NOAA 20 (JPSS-1)
#Configuration: NOAA 20
#almurnet v.1.7.20251203
#Start time: 2026-01-07 07:20:00

#Version: 2.0.20230620
#Station: T1
#Location: 37.570604 lon 55.790049 lat
#TLE: 1 43013U 17073A   26006.30790171  .00000126  00000+0  80695-4 0  9991
#TLE: 2 43013  98.7629 307.3394 0001808  51.8724 308.2615 14.19533762421505

#Time	Az	El	Level	Level2	SNR	BER	BlckErr	Temp	State	Recorded	gain1	gain2
2026-01-07 07:20:00.10	75.20	4.98	-49.3	-64.7	3.8	1.49e+00	0	39	0	0	70	20972
2026-01-07 07:20:02.10	74.95	5.07	-49.3	-64.7	3.8	1.49e+00	0	40	104	0	70	20968
2026-01-07 07:20:04.11	74.71	5.16	-49.2	-64.7	3.8	1.49e+00	0	40	104	0	70	20936
2026-01-07 07:20:06.11	74.47	5.24	-49.2	-64.7	3.8	1.49e+00	0	40	104	0	70	20931
2026-01-07 07:20:08.12	74.22	5.33	-49.2	-64.7	3.8	1.49e+00	0	40	104	0	70	20819
2026-01-07 07:20:10.13	73.97	5.42	-49.2	-64.7	3.8	1.49e+00	0	40	104	0	70	20944
2026-01-07 07:20:12.13	73.72	5.50	-49.2	-64.7	3.8	1.49e+00	0	40	104	0	70	20851
2026-01-07 07:20:14.14	73.47	5.59	-49.2	-64.7	3.8	1.49e+00	0	40	104	0	70	20862
2026-01-07 07:20:16.14	73.21	5.67	-49.2	-64.7	3.8	1.49e+00	0	41	104	0	70	20838
2026-01-07 07:20:18.15	72.96	5.76	-49.2	-64.7	3.8	1.49e+00	0	40	104	0	70	20879
2026-01-07 07:20:20.15	72.70	5.84	-49.2	-64.7	3.8	1.49e+00	0	40	104	0	70	20928
2026-01-07 07:20:22.16	72.45	5.93	-49.2	-64.7	3.8	1.49e+00	0	40	104	0	70	20802
2026-01-07 07:20:24.16	72.19	6.01	-49.2	-64.7	3.8	1.49e+00	0	41	104	0	70	20818
2026-01-07 07:20:26.17	71.93	6.09	-49.2	-64.6	3.8	1.49e+00	0	41	104	0	70	20757
2026-01-07 07:20:28.17	71.67	6.18	-49.2	-64.7	3.8	1.49e+00	0	41	104	0	70	20782
2026-01-07 07:20:30.18	71.40	6.26	-49.2	-64.7	3.8	1.49e+00	0	41	104	0	70	20827
2026-01-07 07:20:32.18	71.14	6.34	-49.2	-64.6	3.8	1.49e+00	0	41	104	0	70	20741
2026-01-07 07:20:34.19	70.87	6.43	-49.2	-64.6	3.8	1.49e+00	0	41	104	0	70	20728
2026-01-07 07:20:36.19	70.60	6.51	-49.2	-64.6	3.8	1.49e+00	0	41	104	0	70	20670
2026-01-07 07:20:38.20	70.33	6.59	-49.2	-64.6	3.8	1.49e+00	0	41	104	0	70	20737
2026-01-07 07:20:40.20	70.06	6.67	-49.1	-64.7	3.8	1.49e+00	0	41	104	0	70	20785
2026-01-07 07:20:42.21	69.79	6.75	-49.2	-64.6	3.8	1.49e+00	0	41	104	0	70	20693
2026-01-07 07:20:44.21	69.51	6.83	-49.2	-64.6	3.8	1.49e+00	0	41	104	0	70	20740
2026-01-07 07:20:46.21	69.24	6.91	-49.2	-64.6	3.8	1.49e+00	0	41	104	0	70	20603
2026-01-07 07:20:48.22	68.96	6.99	-49.2	-64.6	3.8	1.49e+00	0	41	104	0	70	20652
2026-01-07 07:20:50.22	68.68	7.07	-49.2	-64.6	3.8	1.49e+00	0	42	104	0	70	20572
2026-01-07 07:20:52.22	68.40	7.15	-49.2	-64.6	3.8	1.49e+00	0	41	104	0	70	20554
2026-01-07 07:20:54.23	68.12	7.23	-49.2	-64.5	3.8	1.49e+00	0	41	104	0	70	20390
2026-01-07 07:20:56.23	67.84	7.31	-49.2	-64.4	3.8	1.49e+00	0	42	104	0	70	20278
2026-01-07 07:20:58.24	67.55	7.39	-49.2	-64.4	3.8	1.49e+00	0	41	104	0	70	20300
2026-01-07 07:21:00.24	67.27	7.47	-49.2	-64.5	3.8	1.49e+00	0	42	104	0	70	20473
2026-01-07 07:21:02.25	66.98	7.54	-49.2	-64.6	3.8	1.49e+00	0	41	104	0	70	20635
2026-01-07 07:21:04.25	66.69	7.62	-49.2	-64.6	3.8	1.49e+00	0	41	104	0	70	20642
2026-01-07 07:21:06.26	66.40	7.70	-49.2	-64.5	3.8	1.49e+00	0	42	104	0	70	20410
2026-01-07 07:21:08.26	66.10	7.77	-49.2	-64.3	3.8	1.49e+00	0	42	104	0	70	19870
2026-01-07 07:21:10.26	65.81	7.85	-49.1	-64.0	3.8	1.49e+00	0	42	104	0	70	19302
2026-01-07 07:21:12.27	65.51	7.92	-49.1	-64.2	3.8	1.49e+00	0	42	104	0	70	19623
2026-01-07 07:21:14.27	65.22	8.00	-49.2	-64.3	3.8	1.49e+00	0	42	104	0	70	19969
2026-01-07 07:21:16.28	64.92	8.07	-49.1	-64.1	3.8	1.49e+00	0	42	104	0	70	19490
2026-01-07 07:21:18.28	64.62	8.15	-49.1	-63.6	3.8	1.49e+00	0	42	104	0	70	18398
2026-01-07 07:21:20.29	64.31	8.22	-49.1	-63.5	3.8	1.49e+00	0	42	104	0	70	18256
2026-01-07 07:21:22.29	64.01	8.29	-49.1	-64.2	3.8	1.49e+00	0	42	104	0	70	19700
2026-01-07 07:21:24.30	63.71	8.36	-49.2	-64.5	3.8	1.49e+00	0	42	104	0	70	20489
2026-01-07 07:21:26.30	63.40	8.43	-49.1	-63.7	3.8	1.49e+00	0	42	104	0	70	18550
2026-01-07 07:21:28.30	63.09	8.51	-49.0	-62.0	4.0	1.49e+00	0	42	104	0	70	15263
2026-01-07 07:21:30.31	62.78	8.58	-49.1	-63.0	3.8	1.48e+00	0	42	104	0	70	17239
2026-01-07 07:21:32.31	62.47	8.64	-48.9	-60.9	4.2	1.49e+00	0	42	0	0	69	14268
2026-01-07 07:21:34.31	62.16	8.71	-47.0	-52.5	10.6	2.60e-02	0	42	0	3145728	66	6486
2026-01-07 07:21:36.32	61.84	8.78	-45.2	-48.9	14.5	2.20e-06	0	42	0	7340032	62	5352
2026-01-07 07:21:38.32	61.53	8.85	-45.1	-48.7	14.7	7.00e-07	0	42	0	10485760	62	5236
2026-01-07 07:21:40.32	61.21	8.92	-46.5	-51.2	12.1	7.01e-05	0	42	0	14680064	63	6635
2026-01-07 07:21:42.32	60.89	8.98	-48.1	-56.0	7.1	3.25e-02	0	42	0	17825792	66	9712
2026-01-07 07:21:44.32	60.58	9.05	-49.2	-62.2	3.9	1.49e+00	0	42	104	20971520	69	16546
2026-01-07 07:21:46.32	60.25	9.11	-49.0	-62.4	3.8	1.12e+00	0	42	104	22020096	68	18031
2026-01-07 07:21:48.32	59.93	9.18	-48.6	-57.2	6.1	3.50e-01	0	42	0	24117248	68	9855
2026-01-07 07:21:50.32	59.61	9.24	-46.5	-50.9	12.4	1.55e-04	0	42	0	28311552	64	6023
2026-01-07 07:21:52.32	59.28	9.30	-46.6	-51.1	12.3	2.04e-04	0	42	0	32505856	64	6140
2026-01-07 07:21:54.33	58.96	9.37	-45.8	-49.6	13.9	9.10e-06	0	42	0	35651584	63	5476
2026-01-07 07:21:56.33	58.63	9.43	-45.3	-48.8	14.6	0.00e+00	0	42	0	39845888	62	5333
2026-01-07 07:21:58.34	58.30	9.49	-45.0	-48.4	15.1	0.00e+00	0	42	0	42991616	62	5068
2026-01-07 07:22:00.34	57.97	9.55	-45.0	-48.3	15.2	0.00e+00	0	42	0	47185920	62	5015
2026-01-07 07:22:02.33	57.64	9.61	-44.8	-48.1	15.5	0.00e+00	0	42	0	50331648	61	5168
2026-01-07 07:22:04.33	57.30	9.66	-44.7	-47.9	15.6	0.00e+00	0	42	0	54525952	61	5066
2026-01-07 07:22:06.33	56.97	9.72	-44.8	-48.0	15.6	0.00e+00	0	42	0	58720256	61	5105
2026-01-07 07:22:08.33	56.63	9.78	-44.7	-47.9	15.6	0.00e+00	0	42	0	61865984	61	5082
2026-01-07 07:22:10.33	56.30	9.83	-44.8	-48.1	15.4	0.00e+00	0	42	0	66060288	61	5175
2026-01-07 07:22:12.33	55.96	9.89	-44.7	-47.9	15.7	0.00e+00	0	42	0	69206016	61	5050
2026-01-07 07:22:14.33	55.62	9.94	-44.7	-47.9	15.7	0.00e+00	0	42	0	73400320	61	5048
2026-01-07 07:22:16.34	55.28	10.00	-44.8	-48.0	15.5	0.00e+00	0	42	0	76546048	61	5140
2026-01-07 07:22:18.34	54.93	10.05	-44.7	-47.8	15.7	0.00e+00	0	42	0	80740352	61	5031
2026-01-07 07:22:20.34	54.59	10.10	-44.7	-47.9	15.7	0.00e+00	0	42	0	84934656	61	5070
2026-01-07 07:22:22.34	54.24	10.15	-44.8	-47.9	15.6	0.00e+00	0	42	0	88080384	61	5094
2026-01-07 07:22:24.35	53.90	10.20	-44.6	-47.7	15.8	0.00e+00	0	42	0	92274688	61	4971
2026-01-07 07:22:26.35	53.55	10.25	-44.6	-47.8	15.8	0.00e+00	0	42	0	95420416	61	4990
2026-01-07 07:22:28.35	53.20	10.30	-44.9	-48.2	15.4	0.00e+00	0	42	0	99614720	61	5219
2026-01-07 07:22:30.35	52.85	10.34	-44.9	-48.2	15.4	0.00e+00	0	42	0	103809024	61	5246
2026-01-07 07:22:32.35	52.50	10.39	-44.9	-48.1	15.5	0.00e+00	0	42	0	106954752	61	5188
2026-01-07 07:22:34.35	52.15	10.44	-45.0	-48.2	15.4	7.00e-07	0	42	0	111149056	61	5270
2026-01-07 07:22:36.35	51.80	10.48	-45.1	-48.5	15.1	0.00e+00	0	42	0	114294784	61	5411
2026-01-07 07:22:38.35	51.44	10.52	-45.1	-48.4	15.2	0.00e+00	0	42	0	118489088	61	5341
2026-01-07 07:22:40.36	51.09	10.57	-45.2	-48.5	15.0	0.00e+00	0	42	0	122683392	61	5452
2026-01-07 07:22:42.36	50.73	10.61	-45.1	-48.5	15.1	0.00e+00	0	42	0	125829120	61	5412
2026-01-07 07:22:44.36	50.38	10.65	-44.9	-48.2	15.4	0.00e+00	0	42	0	130023424	61	5230
2026-01-07 07:22:46.36	50.02	10.69	-44.9	-48.1	15.4	7.00e-07	0	42	0	133169152	61	5189
2026-01-07 07:22:48.36	49.66	10.72	-45.1	-48.4	15.1	0.00e+00	0	42	0	137363456	61	5380
2026-01-07 07:22:50.35	49.30	10.76	-44.8	-48.0	15.6	0.00e+00	0	43	0	140509184	61	5123
2026-01-07 07:22:52.35	48.94	10.80	-44.9	-48.1	15.5	0.00e+00	0	42	0	144703488	61	5175
2026-01-07 07:22:54.36	48.58	10.83	-44.9	-48.1	15.4	0.00e+00	0	42	0	148897792	61	5198
2026-01-07 07:22:56.36	48.22	10.87	-44.8	-48.0	15.6	0.00e+00	0	42	0	152043520	61	5122
2026-01-07 07:22:58.37	47.85	10.90	-44.6	-47.8	15.8	0.00e+00	0	42	0	156237824	61	4993
2026-01-07 07:23:00.37	47.49	10.93	-44.7	-47.8	15.8	0.00e+00	0	42	0	159383552	61	4995
2026-01-07 07:23:02.37	47.12	10.96	-44.8	-48.0	15.6	0.00e+00	0	42	0	163577856	61	5137
2026-01-07 07:23:04.38	46.75	10.99	-44.6	-47.7	15.9	0.00e+00	0	42	0	166723584	61	4979
2026-01-07 07:23:06.38	46.39	11.02	-44.7	-47.7	15.9	0.00e+00	0	42	0	170917888	61	4977
2026-01-07 07:23:08.38	46.02	11.05	-44.6	-47.6	15.9	0.00e+00	0	42	0	175112192	61	4917
2026-01-07 07:23:10.38	45.65	11.07	-44.4	-47.4	16.1	0.00e+00	0	42	0	178257920	60	5100
2026-01-07 07:23:12.39	45.28	11.10	-44.3	-47.3	16.3	0.00e+00	0	42	0	182452224	60	5004
2026-01-07 07:23:14.38	44.92	11.12	-44.2	-47.1	16.5	0.00e+00	0	42	0	185597952	60	4880
2026-01-07 07:23:16.38	44.55	11.15	-44.3	-47.2	16.3	0.00e+00	0	42	0	189792256	60	4973
2026-01-07 07:23:18.38	44.18	11.17	-44.2	-47.2	16.4	0.00e+00	0	42	0	192937984	60	4934
2026-01-07 07:23:20.38	43.81	11.19	-44.1	-47.0	16.6	0.00e+00	0	43	0	197132288	60	4863
2026-01-07 07:23:22.38	43.44	11.21	-44.2	-47.2	16.4	0.00e+00	0	42	0	201326592	60	4941
2026-01-07 07:23:24.39	43.06	11.23	-44.4	-47.4	16.2	0.00e+00	0	42	0	204472320	60	5078
2026-01-07 07:23:26.38	42.69	11.25	-44.1	-47.1	16.4	0.00e+00	0	42	0	208666624	60	4920
2026-01-07 07:23:28.38	42.32	11.26	-44.1	-47.1	16.5	0.00e+00	0	42	0	211812352	60	4895
2026-01-07 07:23:30.38	41.95	11.28	-44.2	-47.1	16.4	0.00e+00	0	43	0	216006656	60	4911
2026-01-07 07:23:32.38	41.57	11.29	-44.3	-47.3	16.3	0.00e+00	0	43	0	219152384	60	4991
2026-01-07 07:23:34.38	41.20	11.30	-44.3	-47.2	16.4	0.00e+00	0	42	0	223346688	60	4928
2026-01-07 07:23:36.39	40.83	11.31	-44.1	-46.9	16.7	0.00e+00	0	42	0	227540992	60	4794
2026-01-07 07:23:38.39	40.45	11.32	-44.0	-46.8	16.8	0.00e+00	0	42	0	230686720	59	5028
2026-01-07 07:23:40.39	40.08	11.33	-44.0	-46.8	16.8	0.00e+00	0	42	0	234881024	59	4999
2026-01-07 07:23:42.39	39.70	11.34	-43.9	-46.7	16.9	0.00e+00	0	42	0	238026752	59	4956
2026-01-07 07:23:44.40	39.33	11.35	-43.8	-46.6	16.9	0.00e+00	0	43	0	242221056	59	4909
2026-01-07 07:23:46.39	38.95	11.35	-43.8	-46.7	16.8	0.00e+00	0	42	0	246415360	59	4967
2026-01-07 07:23:48.39	38.58	11.36	-43.8	-47.0	16.5	0.00e+00	0	42	0	249561088	59	5136
2026-01-07 07:23:50.39	38.20	11.36	-43.9	-47.1	16.4	0.00e+00	0	42	0	253755392	59	5184
2026-01-07 07:23:52.39	37.83	11.36	-43.9	-46.9	16.6	0.00e+00	0	42	0	256901120	59	5074
2026-01-07 07:23:54.40	37.45	11.37	-43.9	-46.8	16.8	0.00e+00	0	42	0	261095424	59	5018
2026-01-07 07:23:56.40	37.08	11.36	-43.9	-46.8	16.7	0.00e+00	0	43	0	264241152	59	5012
2026-01-07 07:23:58.40	36.70	11.36	-44.0	-47.0	16.5	0.00e+00	0	42	0	268435456	59	5153
2026-01-07 07:24:00.41	36.33	11.36	-44.1	-47.1	16.4	0.00e+00	0	42	0	272629760	59	5197
2026-01-07 07:24:02.40	35.95	11.36	-44.3	-47.3	16.2	0.00e+00	0	42	0	275775488	59	5308
2026-01-07 07:24:04.41	35.58	11.35	-44.6	-47.7	15.8	0.00e+00	0	42	0	279969792	59	5565
2026-01-07 07:24:06.41	35.20	11.35	-44.7	-47.8	15.8	0.00e+00	0	42	0	283115520	60	5305
2026-01-07 07:24:08.42	34.83	11.34	-44.6	-47.7	15.9	0.00e+00	0	42	0	287309824	60	5243
2026-01-07 07:24:10.42	34.45	11.33	-44.4	-47.5	16.1	0.00e+00	0	42	0	291504128	60	5138
2026-01-07 07:24:12.43	34.08	11.32	-44.5	-47.6	16.0	0.00e+00	0	42	0	294649856	60	5203
2026-01-07 07:24:14.43	33.70	11.31	-44.6	-47.8	15.9	0.00e+00	0	43	0	298844160	60	5281
2026-01-07 07:24:16.43	33.33	11.30	-44.7	-48.0	15.7	0.00e+00	0	42	0	301989888	60	5415
2026-01-07 07:24:18.43	32.96	11.28	-44.8	-48.1	15.5	0.00e+00	0	42	0	306184192	60	5518
2026-01-07 07:24:20.43	32.58	11.27	-44.7	-48.1	15.6	0.00e+00	0	42	0	309329920	60	5475
2026-01-07 07:24:22.44	32.21	11.25	-44.6	-47.8	15.8	0.00e+00	0	42	0	313524224	60	5331
2026-01-07 07:24:24.44	31.84	11.24	-44.6	-47.7	15.9	0.00e+00	0	42	0	317718528	60	5277
2026-01-07 07:24:26.44	31.47	11.22	-44.7	-47.8	15.8	0.00e+00	0	43	0	320864256	60	5322
2026-01-07 07:24:28.44	31.09	11.20	-44.6	-47.8	15.9	0.00e+00	0	42	0	325058560	60	5287
2026-01-07 07:24:30.44	30.72	11.18	-44.7	-47.9	15.7	0.00e+00	0	43	0	328204288	60	5400
2026-01-07 07:24:32.45	30.35	11.16	-44.9	-48.2	15.5	0.00e+00	0	43	0	332398592	60	5535
2026-01-07 07:24:34.45	29.98	11.13	-44.7	-47.9	15.7	0.00e+00	0	42	0	335544320	60	5387
2026-01-07 07:24:36.44	29.62	11.11	-44.6	-47.9	15.8	0.00e+00	0	43	0	339738624	60	5362
2026-01-07 07:24:38.44	29.25	11.09	-44.5	-47.7	15.9	0.00e+00	0	43	0	343932928	60	5270
2026-01-07 07:24:40.44	28.88	11.06	-44.5	-47.8	15.9	0.00e+00	0	43	0	347078656	60	5289
2026-01-07 07:24:42.45	28.51	11.03	-44.6	-47.8	15.9	0.00e+00	0	42	0	351272960	60	5303
2026-01-07 07:24:44.45	28.15	11.00	-44.6	-47.8	15.9	0.00e+00	0	43	0	354418688	60	5306
2026-01-07 07:24:46.45	27.78	10.98	-44.6	-47.7	15.9	0.00e+00	0	43	0	358612992	60	5268
2026-01-07 07:24:48.46	27.42	10.94	-44.6	-47.8	15.9	0.00e+00	0	43	0	362807296	60	5294
2026-01-07 07:24:50.45	27.05	10.91	-44.7	-47.9	15.7	0.00e+00	0	43	0	365953024	60	5368
2026-01-07 07:24:52.45	26.69	10.88	-44.7	-48.0	15.6	0.00e+00	0	43	0	370147328	60	5422
2026-01-07 07:24:54.46	26.33	10.85	-44.8	-48.2	15.5	0.00e+00	0	42	0	373293056	60	5532
2026-01-07 07:24:56.46	25.97	10.81	-44.8	-48.3	15.4	0.00e+00	0	43	0	377487360	60	5607
2026-01-07 07:24:58.46	25.61	10.78	-44.8	-48.3	15.3	0.00e+00	0	43	0	380633088	60	5614
2026-01-07 07:25:00.46	25.25	10.74	-44.5	-47.9	15.8	0.00e+00	0	42	0	384827392	60	5350
2026-01-07 07:25:02.46	24.89	10.70	-44.5	-47.8	15.9	0.00e+00	0	42	0	389021696	60	5300
2026-01-07 07:25:04.46	24.53	10.66	-44.5	-47.7	15.9	0.00e+00	0	42	0	392167424	60	5279
2026-01-07 07:25:06.47	24.17	10.62	-44.7	-47.9	15.8	0.00e+00	0	43	0	396361728	60	5370
2026-01-07 07:25:08.47	23.82	10.58	-44.7	-47.9	15.7	0.00e+00	0	42	0	399507456	60	5392
2026-01-07 07:25:10.47	23.46	10.54	-44.7	-47.9	15.7	0.00e+00	0	43	0	403701760	60	5396
2026-01-07 07:25:12.48	23.11	10.50	-44.7	-48.0	15.7	0.00e+00	0	43	0	406847488	60	5412
2026-01-07 07:25:14.48	22.76	10.46	-44.5	-47.6	16.0	0.00e+00	0	43	0	411041792	60	5218
2026-01-07 07:25:16.48	22.41	10.41	-44.3	-47.5	16.1	0.00e+00	0	43	0	415236096	60	5156
2026-01-07 07:25:18.49	22.05	10.36	-44.2	-47.6	16.0	0.00e+00	0	43	0	418381824	60	5181
2026-01-07 07:25:20.49	21.70	10.32	-44.0	-47.7	15.9	0.00e+00	0	43	0	422576128	60	5232
2026-01-07 07:25:22.49	21.36	10.27	-44.1	-47.8	15.7	0.00e+00	0	43	0	425721856	59	5654
2026-01-07 07:25:24.49	21.01	10.22	-43.9	-47.6	16.0	0.00e+00	0	43	0	429916160	59	5504
2026-01-07 07:25:26.49	20.66	10.17	-44.1	-47.8	15.8	0.00e+00	0	43	0	434110464	59	5610
2026-01-07 07:25:28.49	20.32	10.12	-44.3	-47.8	15.7	0.00e+00	0	43	0	437256192	59	5632
2026-01-07 07:25:30.49	19.98	10.07	-44.1	-47.4	16.1	0.00e+00	0	43	0	441450496	59	5395
2026-01-07 07:25:32.49	19.64	10.02	-44.1	-47.4	16.1	0.00e+00	0	43	0	444596224	59	5396
2026-01-07 07:25:34.49	19.29	9.97	-44.0	-47.3	16.1	0.00e+00	0	43	0	448790528	59	5325
2026-01-07 07:25:36.49	18.96	9.91	-43.9	-47.1	16.4	0.00e+00	0	43	0	451936256	59	5190
2026-01-07 07:25:38.48	18.62	9.86	-43.9	-46.9	16.6	0.00e+00	0	43	0	456130560	59	5067
2026-01-07 07:25:40.48	18.28	9.80	-43.9	-46.8	16.7	0.00e+00	0	43	0	460324864	59	5006
2026-01-07 07:25:42.49	17.95	9.75	-44.1	-47.0	16.5	0.00e+00	0	42	0	463470592	59	5126
2026-01-07 07:25:44.49	17.61	9.69	-44.2	-47.2	16.3	0.00e+00	0	42	0	467664896	59	5247
2026-01-07 07:25:46.49	17.28	9.63	-44.1	-47.3	16.2	0.00e+00	0	43	0	470810624	59	5292
2026-01-07 07:25:48.49	16.95	9.57	-44.0	-47.2	16.3	0.00e+00	0	43	0	475004928	59	5252
2026-01-07 07:25:50.49	16.62	9.51	-44.2	-47.4	16.1	0.00e+00	0	43	0	478150656	59	5391
2026-01-07 07:25:52.49	16.29	9.45	-44.2	-47.5	16.0	0.00e+00	0	42	0	482344960	59	5442
2026-01-07 07:25:54.50	15.96	9.39	-44.0	-47.3	16.2	0.00e+00	0	43	0	486539264	59	5308
2026-01-07 07:25:56.50	15.63	9.33	-43.7	-47.0	16.5	0.00e+00	0	43	0	489684992	59	5103
2026-01-07 07:25:58.50	15.31	9.27	-43.9	-47.2	16.2	0.00e+00	0	43	0	493879296	59	5265
2026-01-07 07:26:00.50	14.99	9.21	-44.0	-47.4	16.1	0.00e+00	0	42	0	497025024	59	5399
2026-01-07 07:26:02.50	14.67	9.14	-44.0	-47.3	16.2	0.00e+00	0	43	0	501219328	59	5303
2026-01-07 07:26:04.50	14.35	9.08	-44.2	-47.3	16.2	0.00e+00	0	43	0	504365056	59	5339
2026-01-07 07:26:06.50	14.03	9.01	-44.6	-47.9	15.6	0.00e+00	0	43	0	508559360	59	5694
2026-01-07 07:26:08.49	13.71	8.95	-49.8	-65.1	3.8	1.49e+00	0	43	104	509607936	70	21787
2026-01-07 07:26:10.49	13.40	8.88	-49.4	-65.3	3.8	1.49e+00	0	43	104	509607936	70	22326
2026-01-07 07:26:12.50	13.08	8.81	-49.8	-65.4	3.8	1.49e+00	0	43	104	509607936	70	22609
2026-01-07 07:26:14.50	12.77	8.75	-49.8	-65.5	3.8	1.49e+00	0	43	104	509607936	70	22846
2026-01-07 07:26:16.51	12.45	8.68	-50.3	-65.5	3.8	1.49e+00	0	43	104	509607936	71	21706
2026-01-07 07:26:18.51	12.14	8.61	-50.4	-65.6	3.8	1.49e+00	0	43	104	509607936	71	21771
2026-01-07 07:26:20.52	11.83	8.54	-50.3	-65.6	3.8	1.49e+00	0	43	104	509607936	71	21775
2026-01-07 07:26:22.52	11.53	8.47	-50.4	-65.6	3.8	1.49e+00	0	43	104	509607936	71	21890
2026-01-07 07:26:24.53	11.22	8.40	-50.3	-65.6	3.8	1.49e+00	0	43	104	509607936	71	21865
2026-01-07 07:26:26.53	10.92	8.33	-50.4	-65.6	3.8	1.49e+00	0	43	104	509607936	71	21816
2026-01-07 07:26:28.53	10.61	8.26	-50.3	-65.5	3.8	1.49e+00	0	43	104	509607936	71	21732
2026-01-07 07:26:30.53	10.31	8.18	-50.2	-65.6	3.8	1.49e+00	0	43	104	509607936	71	21791
2026-01-07 07:26:32.54	10.01	8.11	-50.0	-65.6	3.8	1.49e+00	0	43	104	509607936	71	21843
2026-01-07 07:26:34.54	9.72	8.04	-50.0	-65.6	3.8	1.49e+00	0	43	104	509607936	71	21774
2026-01-07 07:26:36.55	9.42	7.96	-50.0	-65.6	3.8	1.49e+00	0	43	104	509607936	71	21788
2026-01-07 07:26:38.55	9.12	7.89	-50.0	-65.5	3.8	1.49e+00	0	43	104	509607936	71	21741
2026-01-07 07:26:40.56	8.83	7.81	-50.0	-65.5	3.8	1.49e+00	0	43	104	509607936	71	21730
2026-01-07 07:26:42.56	8.54	7.74	-50.0	-65.5	3.8	1.49e+00	0	43	104	509607936	71	21683
2026-01-07 07:26:44.56	8.25	7.66	-50.0	-65.5	3.8	1.49e+00	0	43	104	509607936	71	21687
2026-01-07 07:26:46.57	7.96	7.58	-50.0	-65.5	3.8	1.49e+00	0	43	104	509607936	71	21713
2026-01-07 07:26:48.58	7.67	7.51	-50.0	-65.6	3.8	1.49e+00	0	43	104	509607936	71	21773
2026-01-07 07:26:50.59	7.38	7.43	-50.0	-65.5	3.8	1.49e+00	0	43	104	509607936	71	21738
2026-01-07 07:26:52.59	7.10	7.35	-50.0	-65.5	3.8	1.49e+00	0	43	104	509607936	71	21636
2026-01-07 07:26:54.60	6.82	7.27	-50.0	-65.5	3.8	1.49e+00	0	43	104	509607936	71	21697
2026-01-07 07:26:56.61	6.53	7.19	-50.0	-65.5	3.8	1.49e+00	0	43	104	509607936	71	21716
2026-01-07 07:26:58.62	6.25	7.11	-50.0	-65.5	3.8	1.49e+00	0	43	104	509607936	71	21693
2026-01-07 07:27:00.63	5.98	7.03	-50.0	-65.5	3.8	1.49e+00	0	43	104	509607936	71	21725
2026-01-07 07:27:02.64	5.70	6.95	-50.0	-65.5	3.8	1.49e+00	0	43	104	509607936	71	21623
2026-01-07 07:27:04.64	5.42	6.87	-50.0	-65.5	3.8	1.49e+00	0	43	104	509607936	71	21711
2026-01-07 07:27:06.65	5.15	6.79	-50.0	-65.5	3.8	1.49e+00	0	43	104	509607936	71	21716
2026-01-07 07:27:08.66	4.88	6.71	-50.0	-65.5	3.8	1.49e+00	0	43	104	509607936	71	21695
2026-01-07 07:27:10.67	4.61	6.63	-50.0	-65.5	3.8	1.49e+00	0	43	104	509607936	71	21636
2026-01-07 07:27:12.68	4.34	6.55	-50.0	-65.5	3.8	1.49e+00	0	43	104	509607936	71	21705
2026-01-07 07:27:14.69	4.07	6.47	-50.0	-65.5	3.8	1.49e+00	0	43	104	509607936	71	21728
2026-01-07 07:27:16.70	3.80	6.38	-50.0	-65.5	3.8	1.49e+00	0	43	104	509607936	71	21697
2026-01-07 07:27:18.70	3.54	6.30	-50.0	-65.5	3.8	1.49e+00	0	43	104	509607936	71	21672
2026-01-07 07:27:20.71	3.28	6.22	-50.0	-65.5	3.8	1.49e+00	0	43	104	509607936	71	21692
2026-01-07 07:27:22.72	3.01	6.14	-50.0	-65.5	3.8	1.49e+00	0	43	104	509607936	71	21722
2026-01-07 07:27:24.73	2.75	6.05	-50.0	-65.5	3.8	1.49e+00	0	43	104	509607936	71	21632
2026-01-07 07:27:26.74	2.50	5.97	-50.0	-65.5	3.8	1.49e+00	0	43	104	509607936	71	21644
2026-01-07 07:27:28.74	2.24	5.88	-50.0	-65.5	3.8	1.49e+00	0	43	104	509607936	71	21642
2026-01-07 07:27:30.75	1.98	5.80	-50.0	-65.5	3.8	1.49e+00	0	43	104	509607936	71	21704
2026-01-07 07:27:32.76	1.73	5.71	-50.0	-65.5	3.8	1.49e+00	0	43	104	509607936	71	21721
2026-01-07 07:27:34.77	1.48	5.63	-50.0	-65.5	3.8	1.49e+00	0	43	104	509607936	71	21713
2026-01-07 07:27:36.77	1.23	5.54	-50.0	-65.5	3.8	1.49e+00	0	43	104	509607936	71	21682
2026-01-07 07:27:38.78	0.98	5.46	-50.0	-65.5	3.8	1.49e+00	0	43	104	509607936	71	21671
2026-01-07 07:27:40.79	0.73	5.37	-50.0	-65.6	3.8	1.49e+00	0	43	104	509607936	71	21756
2026-01-07 07:27:42.80	0.48	5.29	-50.0	-65.5	3.8	1.49e+00	0	43	104	509607936	71	21701
2026-01-07 07:27:44.81	0.24	5.20	-50.0	-65.5	3.8	1.49e+00	0	43	104	509607936	71	21653
2026-01-07 07:27:46.82	360.00	5.11	-50.0	-65.5	3.8	1.49e+00	0	43	104	509607936	71	21675
2026-01-07 07:27:48.83	359.75	5.03	-50.0	-65.5	3.8	1.49e+00	0	43	104	509607936	71	21658

#Closed at: 2026-01-07 07:27:50
#Recorded file [509 MB]: D:/Data/31040_260107_102000.dat