passes_logs/2026/01/07/T1/T1__20260107_045219_FENGYUN_3E_rec.log

#Pass ID: 20260107_045219_FENGYUN 3E
#Satellite: FENGYUN 3E
#Configuration: FENGYUN 3E
#almurnet v.1.7.20251203
#Start time: 2026-01-07 04:52:19

#Version: 2.0.20230620
#Station: T1
#Location: 37.570604 lon 55.790049 lat
#TLE: 1 49008U 21062A   26006.26767912  .00000427  00000+0  22170-3 0  9993
#TLE: 2 49008  98.7475  11.4982 0001602 156.1158 204.0093 14.19885456233607

#Time	Az	El	Level	Level2	SNR	BER	BlckErr	Temp	State	Recorded	gain1	gain2
2026-01-07 04:52:19.50	10.81	4.99	-49.7	-61.1	3.8	8.47e-01	0	41	0	0	68	14452
2026-01-07 04:52:22.51	10.68	5.19	-48.1	-60.7	3.8	8.47e-01	0	41	104	0	65	16347
2026-01-07 04:52:25.52	10.55	5.40	-48.1	-60.7	3.8	8.48e-01	0	41	104	0	65	16318
2026-01-07 04:52:28.53	10.41	5.61	-48.1	-60.6	3.8	8.47e-01	0	41	104	0	65	16313
2026-01-07 04:52:31.55	10.27	5.82	-48.0	-60.6	3.8	8.48e-01	0	41	104	0	65	16252
2026-01-07 04:52:34.56	10.13	6.03	-48.0	-60.6	3.8	8.46e-01	0	42	104	0	65	16153
2026-01-07 04:52:37.57	9.99	6.25	-48.0	-60.7	3.8	8.47e-01	0	42	104	0	65	16346
2026-01-07 04:52:40.58	9.85	6.46	-48.0	-60.5	3.8	8.46e-01	0	42	104	0	65	16089
2026-01-07 04:52:43.60	9.70	6.68	-48.0	-60.1	3.8	8.46e-01	0	42	104	0	65	15349
2026-01-07 04:52:46.61	9.55	6.90	-47.9	-58.5	3.8	8.46e-01	0	42	104	0	65	12767
2026-01-07 04:52:49.62	9.40	7.12	-47.6	-56.9	4.3	8.36e-01	0	42	0	0	65	10608
2026-01-07 04:52:52.64	9.24	7.34	-47.6	-56.6	4.4	8.29e-01	0	42	0	0	65	10264
2026-01-07 04:52:55.65	9.09	7.56	-47.8	-58.3	3.8	8.43e-01	0	42	104	0	65	12501
2026-01-07 04:52:58.66	8.93	7.79	-47.9	-59.9	3.8	8.47e-01	0	43	104	0	65	14987
2026-01-07 04:53:01.67	8.76	8.01	-47.6	-56.3	4.5	8.30e-01	0	43	0	0	65	9860
2026-01-07 04:53:04.68	8.60	8.24	-46.6	-51.9	7.6	1.11e-01	0	43	0	11534336	63	6659
2026-01-07 04:53:07.70	8.43	8.47	-45.0	-48.2	11.4	2.02e-03	0	43	0	33554432	60	5214
2026-01-07 04:53:10.71	8.26	8.70	-44.1	-46.6	13.0	5.37e-05	0	43	0	55574528	58	4831
2026-01-07 04:53:13.72	8.09	8.94	-44.2	-46.9	12.7	7.78e-05	0	43	0	77594624	58	5000
2026-01-07 04:53:16.73	7.91	9.17	-44.8	-47.7	11.9	2.88e-02	0	43	0	98566144	60	4921
2026-01-07 04:53:20.07	7.71	9.44	-40.4	-41.7	17.9	0.00e+00	0	43	0	122683392	51	4112
2026-01-07 04:53:22.79	7.55	9.65	-40.2	-41.5	18.1	0.00e+00	0	43	0	142606336	51	4017
2026-01-07 04:53:26.09	7.34	9.92	-40.2	-41.4	18.2	0.00e+00	0	43	0	165675008	50	4229
2026-01-07 04:53:29.02	7.16	10.16	-39.8	-41.0	18.6	0.00e+00	0	43	0	187695104	50	4013
2026-01-07 04:53:32.03	6.97	10.40	-39.7	-40.9	18.7	0.00e+00	0	43	0	208666624	50	3973
2026-01-07 04:53:35.03	6.77	10.65	-39.4	-40.5	19.0	0.00e+00	0	43	0	230686720	49	4051
2026-01-07 04:53:38.04	6.57	10.90	-39.2	-40.4	19.2	0.00e+00	0	43	0	252706816	48	4205
2026-01-07 04:53:41.05	6.37	11.16	-39.1	-40.3	19.3	0.00e+00	0	43	0	273678336	48	4166
2026-01-07 04:53:44.06	6.16	11.41	-39.2	-40.3	19.3	0.00e+00	0	43	0	295698432	48	4177
2026-01-07 04:53:47.07	5.95	11.67	-39.1	-40.2	19.4	0.00e+00	0	43	0	317718528	48	4136
2026-01-07 04:53:50.12	5.73	11.93	-39.1	-40.3	19.3	0.00e+00	0	43	0	339738624	48	4160
2026-01-07 04:53:53.00	5.52	12.18	-39.0	-40.1	19.4	0.00e+00	0	43	0	360710144	48	4097
2026-01-07 04:53:56.15	5.29	12.46	-39.0	-40.1	19.5	0.00e+00	0	43	0	383778816	48	4085
2026-01-07 04:53:59.35	5.04	12.74	-38.9	-40.0	19.6	0.00e+00	0	43	0	406847488	48	4033
2026-01-07 04:54:02.22	4.82	13.00	-38.6	-39.7	20.0	0.00e+00	0	43	0	426770432	48	3871
2026-01-07 04:54:05.43	4.57	13.29	-38.4	-39.5	19.8	0.00e+00	0	43	0	449839104	47	4051
2026-01-07 04:54:08.30	4.34	13.55	-38.3	-39.3	20.0	0.00e+00	0	43	0	470810624	47	3954
2026-01-07 04:54:11.64	4.07	13.86	-38.2	-39.2	20.2	0.00e+00	0	44	0	494927872	47	3899
2026-01-07 04:54:14.36	3.84	14.11	-38.4	-39.5	19.9	0.00e+00	0	43	0	514850816	46	4278
2026-01-07 04:54:17.66	3.56	14.42	-38.3	-39.4	20.0	0.00e+00	0	43	0	538968064	46	4222
2026-01-07 04:54:20.70	3.29	14.71	-38.2	-39.3	20.2	0.00e+00	0	44	0	560988160	46	4153
2026-01-07 04:54:23.73	3.02	15.00	-38.2	-39.2	20.2	0.00e+00	0	43	0	581959680	46	4143
2026-01-07 04:54:26.74	2.75	15.29	-38.2	-39.2	20.2	0.00e+00	0	44	0	603979776	46	4133
2026-01-07 04:54:29.74	2.47	15.59	-38.2	-39.2	20.3	0.00e+00	0	44	0	625999872	46	4118
2026-01-07 04:54:32.84	2.18	15.89	-38.5	-39.6	20.0	0.00e+00	0	44	0	648019968	46	4292
2026-01-07 04:54:35.95	1.88	16.20	-38.2	-39.3	20.2	0.00e+00	0	44	0	671088640	46	4146
2026-01-07 04:54:38.84	1.60	16.49	-37.9	-38.9	20.6	0.00e+00	0	43	0	691011584	46	3964
2026-01-07 04:54:42.00	1.28	16.81	-37.8	-38.8	20.7	0.00e+00	0	44	0	714080256	46	3914
2026-01-07 04:54:44.86	0.98	17.11	-37.6	-38.6	20.9	0.00e+00	0	44	0	735051776	45	4074
2026-01-07 04:54:48.01	0.65	17.43	-37.5	-38.5	20.9	0.00e+00	0	44	0	758120448	45	4037
2026-01-07 04:54:50.88	0.35	17.73	-37.5	-38.6	20.9	0.00e+00	0	44	0	778043392	45	4052
2026-01-07 04:54:54.03	0.00	18.07	-37.3	-38.3	21.1	0.00e+00	0	44	0	801112064	45	3936
2026-01-07 04:54:56.90	359.68	18.37	-37.3	-38.2	21.2	0.00e+00	0	44	0	822083584	44	4144
2026-01-07 04:55:00.06	359.32	18.71	-37.2	-38.1	21.3	0.00e+00	0	44	0	845152256	44	4081
2026-01-07 04:55:02.92	358.98	19.03	-37.0	-38.0	21.5	0.00e+00	0	43	0	865075200	44	4013
2026-01-07 04:55:06.07	358.61	19.37	-37.0	-37.9	21.5	0.00e+00	0	44	0	888143872	44	3965
2026-01-07 04:55:09.26	358.22	19.73	-36.7	-37.6	21.6	0.00e+00	0	44	0	911212544	43	4080
2026-01-07 04:55:12.14	357.85	20.05	-36.8	-37.7	21.5	0.00e+00	0	44	0	932184064	43	4145
2026-01-07 04:55:15.29	357.45	20.41	-36.9	-37.9	21.4	0.00e+00	0	44	0	954204160	43	4214
2026-01-07 04:55:18.15	357.08	20.73	-37.0	-37.9	21.4	0.00e+00	0	44	0	975175680	43	4240
2026-01-07 04:55:21.32	356.65	21.10	-36.6	-37.5	21.8	0.00e+00	0	44	0	998244352	43	4021
2026-01-07 04:55:24.19	356.26	21.43	-36.4	-37.2	22.1	0.00e+00	0	44	0	1019215872	43	3906
2026-01-07 04:55:27.52	355.79	21.83	-36.3	-37.2	22.0	0.00e+00	0	44	0	1043333120	43	3894
2026-01-07 04:55:30.24	355.39	22.15	-36.2	-37.1	22.2	0.00e+00	0	43	0	1062207488	42	4065
2026-01-07 04:55:33.53	354.91	22.54	-36.3	-37.2	22.1	0.00e+00	0	44	0	1086324736	42	4133
2026-01-07 04:55:36.26	354.50	22.87	-36.5	-37.4	21.9	0.00e+00	0	44	0	1106247680	42	4232
2026-01-07 04:55:39.55	353.99	23.27	-36.6	-37.5	21.9	0.00e+00	0	44	0	1130364928	43	4012
2026-01-07 04:55:42.45	353.53	23.63	-36.4	-37.3	22.1	0.00e+00	0	44	0	1151336448	43	3922
2026-01-07 04:55:45.75	352.99	24.04	-36.4	-37.4	22.0	0.00e+00	0	44	0	1174405120	43	3967
2026-01-07 04:55:48.47	352.54	24.38	-36.0	-36.9	22.4	0.00e+00	0	44	0	1194328064	42	3974
2026-01-07 04:55:51.77	351.97	24.80	-36.1	-37.0	22.3	0.00e+00	0	43	0	1218445312	42	4005
2026-01-07 04:55:54.76	351.45	25.18	-36.1	-36.9	22.4	0.00e+00	0	44	0	1239416832	42	3989
2026-01-07 04:55:57.63	350.93	25.54	-36.1	-36.9	22.3	0.00e+00	0	43	0	1260388352	42	4002
2026-01-07 04:56:00.78	350.35	25.95	-36.4	-37.3	22.1	0.00e+00	0	44	0	1283457024	42	4146
2026-01-07 04:56:03.64	349.81	26.32	-36.4	-37.3	22.1	0.00e+00	0	44	0	1303379968	42	4154
2026-01-07 04:56:06.80	349.20	26.73	-36.4	-37.3	22.1	0.00e+00	0	44	0	1326448640	42	4155
2026-01-07 04:56:09.66	348.63	27.11	-36.0	-36.9	22.4	0.00e+00	0	44	0	1347420160	42	3981
2026-01-07 04:56:12.82	347.99	27.53	-35.9	-36.8	22.5	0.00e+00	0	44	0	1369440256	42	3916
2026-01-07 04:56:15.74	347.38	27.91	-36.1	-37.0	22.3	0.00e+00	0	44	0	1390411776	42	4041
2026-01-07 04:56:18.90	346.70	28.34	-36.1	-37.0	22.3	0.00e+00	0	44	0	1413480448	42	4040
2026-01-07 04:56:21.86	346.05	28.73	-36.0	-36.9	22.4	0.00e+00	0	44	0	1435500544	42	3980
2026-01-07 04:56:25.02	345.34	29.16	-36.0	-36.8	22.4	0.00e+00	0	44	0	1457520640	41	4187
2026-01-07 04:56:27.88	344.68	29.54	-36.0	-36.8	22.5	0.00e+00	0	44	0	1478492160	41	4184
2026-01-07 04:56:31.11	343.91	29.98	-35.7	-36.5	22.7	0.00e+00	0	44	0	1501560832	41	4043
2026-01-07 04:56:33.98	343.21	30.37	-35.6	-36.4	22.8	0.00e+00	0	44	0	1522532352	41	3993
2026-01-07 04:56:37.03	342.44	30.78	-35.7	-36.6	22.7	0.00e+00	0	44	0	1544552448	41	4053
2026-01-07 04:56:40.03	341.67	31.19	-35.5	-36.4	22.8	0.00e+00	0	44	0	1566572544	41	3975
2026-01-07 04:56:43.04	340.88	31.60	-35.8	-36.7	22.6	0.00e+00	0	44	0	1587544064	41	4118
2026-01-07 04:56:46.04	340.07	32.00	-35.8	-36.7	22.6	0.00e+00	0	44	0	1609564160	41	4136
2026-01-07 04:56:49.05	339.24	32.41	-35.9	-36.7	22.6	0.00e+00	0	44	0	1631584256	41	4145
2026-01-07 04:56:52.06	338.38	32.81	-35.8	-36.7	22.6	0.00e+00	0	44	0	1653604352	41	4109
2026-01-07 04:56:55.06	337.51	33.22	-35.8	-36.7	22.6	0.00e+00	0	44	0	1674575872	41	4108
2026-01-07 04:56:58.07	336.61	33.62	-35.7	-36.6	22.7	0.00e+00	0	44	0	1696595968	41	4064
2026-01-07 04:57:01.10	335.68	34.01	-35.1	-35.9	23.3	0.00e+00	0	44	0	1718616064	40	3994
2026-01-07 04:57:04.20	334.71	34.42	-35.2	-36.1	23.1	0.00e+00	0	44	0	1740636160	40	4068
2026-01-07 04:57:07.13	333.77	34.80	-35.5	-36.4	22.9	0.00e+00	0	44	0	1761607680	41	3977
2026-01-07 04:57:10.75	332.57	35.26	-35.7	-36.5	22.8	0.00e+00	0	44	0	1787822080	41	4035
2026-01-07 04:57:13.49	331.64	35.60	-35.6	-36.4	22.9	0.00e+00	0	44	0	1807745024	41	3991
2026-01-07 04:57:17.23	330.34	36.07	-36.0	-36.9	22.5	0.00e+00	0	44	0	1835008000	41	4229
2026-01-07 04:57:20.04	329.35	36.40	-35.9	-36.8	22.5	0.00e+00	0	44	0	1854930944	41	4177
2026-01-07 04:57:24.07	327.87	36.88	-35.9	-36.8	22.5	0.00e+00	0	44	0	1884291072	41	4178
2026-01-07 04:57:26.82	326.85	37.20	-35.7	-36.6	22.7	0.00e+00	0	44	0	1904214016	41	4062
2026-01-07 04:57:30.57	325.41	37.61	-35.4	-36.2	23.1	0.00e+00	0	44	0	1931476992	41	3902
2026-01-07 04:57:33.34	324.33	37.91	-35.8	-36.7	22.6	0.00e+00	0	44	0	1951399936	41	4133
2026-01-07 04:57:37.02	322.86	38.29	-36.3	-37.2	22.2	0.00e+00	0	44	0	1977614336	42	4124
2026-01-07 04:57:39.74	321.75	38.56	-36.1	-37.0	22.4	0.00e+00	0	44	0	1997537280	42	4011
2026-01-07 04:57:43.07	320.37	38.88	-35.9	-36.7	22.6	0.00e+00	0	44	0	2021654528	42	3906
2026-01-07 04:57:45.86	319.19	39.14	-35.9	-36.7	22.7	0.00e+00	0	44	0	2041577472	42	3900
2026-01-07 04:57:49.29	317.71	39.43	-36.2	-37.0	22.4	0.00e+00	0	44	0	2065694720	42	4050
2026-01-07 04:57:52.01	316.53	39.65	-36.3	-37.2	22.2	0.00e+00	0	44	0	2085617664	42	4104
2026-01-07 04:57:55.31	315.06	39.90	-36.0	-36.9	22.5	0.00e+00	0	44	0	2109734912	42	3961
2026-01-07 04:57:58.03	313.84	40.09	-35.6	-36.5	22.8	0.00e+00	0	44	0	2129657856	42	3799
2026-01-07 04:58:01.33	312.34	40.30	-35.8	-36.6	22.8	0.00e+00	0	44	0	2152726528	41	4079
2026-01-07 04:58:04.05	311.09	40.46	-36.0	-36.9	22.5	0.00e+00	0	44	0	2172649472	41	4199
2026-01-07 04:58:07.34	309.56	40.63	-36.3	-37.1	22.2	0.00e+00	0	44	0	2196766720	42	4097
2026-01-07 04:58:10.07	308.28	40.76	-36.1	-37.0	22.4	0.00e+00	0	44	0	2216689664	42	4023
2026-01-07 04:58:13.36	306.72	40.89	-35.7	-36.6	22.8	0.00e+00	0	44	0	2239758336	42	3839
2026-01-07 04:58:16.27	305.33	40.98	-35.7	-36.5	22.8	0.00e+00	0	44	0	2260729856	42	3823
2026-01-07 04:58:20.01	303.54	41.08	-35.6	-36.4	22.9	0.00e+00	0	44	0	2287992832	41	3983
2026-01-07 04:58:22.87	302.16	41.13	-35.8	-36.6	22.7	0.00e+00	0	44	0	2308964352	41	4075
2026-01-07 04:58:26.08	300.61	41.16	-35.9	-36.7	22.6	0.00e+00	0	44	0	2332033024	41	4130
2026-01-07 04:58:29.48	298.97	41.18	-35.7	-36.6	22.7	0.00e+00	0	44	0	2356150272	41	4062
2026-01-07 04:58:32.20	297.65	41.16	-35.4	-36.3	23.0	0.00e+00	0	44	0	2376073216	41	3926
2026-01-07 04:58:35.56	296.03	41.13	-35.7	-36.5	22.8	0.00e+00	0	44	0	2400190464	41	4029
2026-01-07 04:58:38.67	294.53	41.07	-35.5	-36.3	23.0	0.00e+00	0	44	0	2423259136	41	3949
2026-01-07 04:58:42.01	292.93	40.99	-35.7	-36.6	22.8	0.00e+00	0	44	0	2447376384	41	4066
2026-01-07 04:58:44.72	291.63	40.90	-35.9	-36.7	22.6	0.00e+00	0	44	0	2466250752	41	4141
2026-01-07 04:58:48.02	290.07	40.77	-35.7	-36.5	22.8	0.00e+00	0	44	0	2490368000	41	4048
2026-01-07 04:58:50.74	288.79	40.65	-35.5	-36.4	22.9	0.00e+00	0	44	0	2509242368	41	3961
2026-01-07 04:58:54.18	287.19	40.47	-35.5	-36.4	22.9	0.00e+00	0	44	0	2534408192	41	3968
2026-01-07 04:58:57.19	285.80	40.29	-35.4	-36.2	23.0	0.00e+00	0	44	0	2556428288	41	3902
2026-01-07 04:59:00.21	284.42	40.10	-35.4	-36.2	23.0	0.00e+00	0	44	0	2578448384	41	3906
2026-01-07 04:59:03.30	283.03	39.88	-35.2	-36.1	23.2	0.00e+00	0	44	0	2600468480	41	3834
2026-01-07 04:59:06.16	281.76	39.66	-35.4	-36.2	23.1	0.00e+00	0	44	0	2621440000	41	3894
2026-01-07 04:59:09.31	280.38	39.41	-35.8	-36.7	22.6	0.00e+00	0	44	0	2644508672	41	4119
2026-01-07 04:59:12.19	279.14	39.16	-35.7	-36.5	22.8	0.00e+00	0	44	0	2664431616	41	4044
2026-01-07 04:59:15.41	277.78	38.87	-35.5	-36.4	22.9	0.00e+00	0	44	0	2688548864	41	3969
2026-01-07 04:59:18.27	276.59	38.60	-35.7	-36.6	22.8	0.00e+00	0	44	0	2708471808	41	4060
2026-01-07 04:59:21.61	275.22	38.26	-35.7	-36.6	22.8	0.00e+00	0	44	0	2732589056	41	4071
2026-01-07 04:59:24.33	274.13	37.98	-35.8	-36.6	22.7	0.00e+00	0	44	0	2752512000	41	4094
2026-01-07 04:59:27.63	272.83	37.62	-35.6	-36.4	22.9	0.00e+00	0	44	0	2776629248	41	3986
2026-01-07 04:59:30.50	271.73	37.31	-35.7	-36.5	22.7	0.00e+00	0	44	0	2796552192	41	4051
2026-01-07 04:59:33.65	270.54	36.95	-35.8	-36.6	22.7	0.00e+00	0	44	0	2819620864	41	4078
2026-01-07 04:59:36.51	269.48	36.61	-35.7	-36.5	22.8	0.00e+00	0	44	0	2840592384	41	4042
2026-01-07 04:59:39.67	268.34	36.23	-35.6	-36.5	22.8	0.00e+00	0	44	0	2862612480	41	4005
2026-01-07 04:59:42.71	267.26	35.86	-35.5	-36.3	22.9	0.00e+00	0	44	0	2884632576	41	3957
2026-01-07 04:59:45.89	266.17	35.46	-35.7	-36.5	22.8	0.00e+00	0	44	0	2907701248	41	4038
2026-01-07 04:59:48.75	265.20	35.10	-35.4	-36.3	22.2	0.00e+00	0	44	0	2928672768	41	3931
2026-01-07 04:59:51.91	264.16	34.69	-35.3	-36.1	23.1	0.00e+00	0	44	0	2951741440	41	3861
2026-01-07 04:59:54.77	263.25	34.32	-35.3	-36.2	23.1	0.00e+00	0	44	0	2971664384	41	3872
2026-01-07 04:59:57.96	262.25	33.90	-35.6	-36.5	22.8	0.00e+00	0	44	0	2994733056	41	4005
2026-01-07 05:00:00.84	261.36	33.52	-35.5	-36.4	22.9	0.00e+00	0	44	0	3015704576	41	3975
2026-01-07 05:00:04.13	260.38	33.08	-35.2	-36.0	23.1	0.00e+00	0	44	0	3039821824	41	3821
2026-01-07 05:00:06.97	259.56	32.70	-35.2	-36.0	23.1	0.00e+00	0	44	0	3059744768	41	3824
2026-01-07 05:00:10.26	258.63	32.25	-35.4	-36.3	23.0	0.00e+00	0	44	0	3083862016	41	3926
2026-01-07 05:00:12.98	257.87	31.88	-35.3	-36.2	23.0	0.00e+00	0	44	0	3103784960	41	3873
2026-01-07 05:00:16.28	256.99	31.44	-35.6	-36.5	22.8	0.00e+00	0	44	0	3126853632	41	4008
2026-01-07 05:00:19.00	256.27	31.06	-35.6	-36.5	22.7	0.00e+00	0	44	0	3146776576	41	4026
2026-01-07 05:00:22.67	255.33	30.56	-35.5	-36.4	22.8	0.00e+00	0	44	0	3172990976	41	3966
2026-01-07 05:00:25.54	254.62	30.17	-35.7	-36.6	22.6	0.00e+00	0	44	0	3193962496	41	4062
2026-01-07 05:00:28.69	253.86	29.75	-35.9	-36.8	22.5	0.00e+00	0	44	0	3217031168	41	4148
2026-01-07 05:00:31.62	253.16	29.35	-36.0	-36.9	22.4	0.00e+00	0	44	0	3238002688	41	4224
2026-01-07 05:00:34.99	252.39	28.89	-35.6	-36.5	22.8	0.00e+00	0	44	0	3262119936	41	4008
2026-01-07 05:00:37.71	251.78	28.52	-35.7	-36.5	22.7	0.00e+00	0	44	0	3282042880	41	4035
2026-01-07 05:00:41.26	251.00	28.05	-36.0	-36.9	22.4	0.00e+00	0	44	0	3308257280	41	4200
2026-01-07 05:00:44.27	250.36	27.64	-35.8	-36.7	22.6	0.00e+00	0	44	0	3329228800	41	4110
2026-01-07 05:00:47.35	249.73	27.23	-35.8	-36.6	22.6	0.00e+00	0	44	0	3352297472	41	4088
2026-01-07 05:00:50.31	249.13	26.84	-36.0	-36.8	22.4	0.00e+00	0	44	0	3373268992	41	4190
2026-01-07 05:00:53.72	248.46	26.39	-35.9	-36.8	22.5	0.00e+00	0	44	0	3397386240	41	4148
2026-01-07 05:00:56.44	247.94	26.04	-35.8	-36.7	22.5	0.00e+00	0	44	0	3417309184	41	4101
2026-01-07 05:00:59.73	247.32	25.61	-35.9	-36.7	22.5	0.00e+00	0	44	0	3441426432	41	4125
2026-01-07 05:01:02.45	246.83	25.26	-36.1	-36.9	22.3	0.00e+00	0	44	0	3460300800	41	4232
2026-01-07 05:01:05.76	246.24	24.84	-35.8	-36.6	22.6	0.00e+00	0	44	0	3484418048	41	4098
2026-01-07 05:01:08.48	245.77	24.49	-35.7	-36.5	22.7	0.00e+00	0	44	0	3504340992	41	4042
2026-01-07 05:01:11.78	245.21	24.07	-36.1	-36.9	22.3	0.00e+00	0	44	0	3527409664	41	4230
2026-01-07 05:01:14.51	244.76	23.73	-36.3	-37.2	22.1	0.00e+00	0	44	0	3547332608	42	4111
2026-01-07 05:01:17.71	244.24	23.33	-36.3	-37.1	22.1	0.00e+00	0	44	0	3570401280	42	4097
2026-01-07 05:01:20.71	243.77	22.97	-36.1	-37.0	22.3	0.00e+00	0	44	0	3592421376	42	4012
2026-01-07 05:01:23.77	243.30	22.59	-35.9	-36.8	22.4	0.00e+00	0	44	0	3614441472	42	3930
2026-01-07 05:01:26.71	242.86	22.24	-36.0	-36.9	22.4	0.00e+00	0	44	0	3635412992	42	3961
2026-01-07 05:01:29.75	242.42	21.87	-36.1	-37.0	22.3	0.00e+00	0	44	0	3657433088	41	4263
2026-01-07 05:01:33.04	241.94	21.48	-36.3	-37.2	22.1	0.00e+00	0	44	0	3681550336	42	4102
2026-01-07 05:01:35.76	241.56	21.16	-36.2	-37.0	22.2	0.00e+00	0	44	0	3701473280	42	4048
2026-01-07 05:01:39.05	241.12	20.78	-36.1	-37.0	22.2	0.00e+00	0	44	0	3724541952	42	4020
2026-01-07 05:01:41.77	240.75	20.47	-36.4	-37.3	22.0	0.00e+00	0	44	0	3744464896	42	4161
2026-01-07 05:01:45.48	240.27	20.04	-36.9	-37.9	21.4	0.00e+00	0	44	0	3770679296	43	4199
2026-01-07 05:01:48.23	239.92	19.73	-37.1	-38.1	21.2	0.00e+00	0	44	0	3790602240	43	4304
2026-01-07 05:01:51.52	239.51	19.37	-37.1	-38.0	21.3	0.00e+00	0	44	0	3814719488	43	4256
2026-01-07 05:01:54.26	239.18	19.06	-37.1	-38.1	21.3	0.00e+00	0	44	0	3834642432	43	4293
2026-01-07 05:01:57.65	238.78	18.69	-37.5	-38.4	21.1	0.00e+00	0	44	0	3858759680	44	4228
2026-01-07 05:02:00.49	238.45	18.38	-37.5	-38.4	21.0	0.00e+00	0	44	0	3879731200	44	4234
2026-01-07 05:02:03.85	238.07	18.02	-37.4	-38.3	21.1	0.00e+00	0	44	0	3903848448	44	4190
2026-01-07 05:02:06.58	237.76	17.73	-37.3	-38.2	21.2	0.00e+00	0	44	0	3923771392	44	4127
2026-01-07 05:02:09.87	237.41	17.38	-37.4	-38.3	21.1	0.00e+00	0	44	0	3946840064	44	4171
2026-01-07 05:02:12.60	237.11	17.10	-37.5	-38.4	21.1	0.00e+00	0	44	0	3966763008	44	4220
2026-01-07 05:02:16.19	236.74	16.73	-37.6	-38.6	20.9	0.00e+00	0	44	0	3992977408	44	4307
2026-01-07 05:02:19.05	236.45	16.44	-37.7	-38.7	20.8	0.00e+00	0	44	0	4013948928	44	4361
2026-01-07 05:02:22.20	236.14	16.12	-37.8	-38.8	20.7	0.00e+00	0	44	0	4035969024	45	4162
2026-01-07 05:02:25.07	235.86	15.83	-38.0	-39.0	20.5	0.00e+00	0	44	0	4056940544	45	4247
2026-01-07 05:02:28.60	235.52	15.48	-38.2	-39.2	20.3	0.00e+00	0	44	0	4083154944	45	4371
2026-01-07 05:02:31.32	235.26	15.21	-38.3	-39.3	20.2	0.00e+00	0	44	0	4102029312	46	4178
2026-01-07 05:02:34.62	234.96	14.89	-38.3	-39.3	20.2	0.00e+00	0	44	0	4126146560	46	4155
2026-01-07 05:02:37.72	234.68	14.59	-38.3	-39.2	20.2	0.00e+00	0	44	0	4148166656	46	4138
2026-01-07 05:02:40.96	234.40	14.28	-38.3	-39.3	20.2	0.00e+00	0	44	0	4172283904	46	4157
2026-01-07 05:02:43.88	234.15	14.01	-38.5	-39.5	19.9	0.00e+00	0	44	0	4193255424	46	4290
2026-01-07 05:02:46.89	233.89	13.73	-38.8	-39.8	19.6	0.00e+00	0	44	0	4214226944	47	4180
2026-01-07 05:02:49.90	233.64	13.45	-38.8	-39.9	19.6	0.00e+00	0	44	0	4236247040	47	4215
2026-01-07 05:02:53.01	233.39	13.16	-39.2	-40.3	19.2	0.00e+00	0	44	0	4259315712	47	4392
2026-01-07 05:02:55.88	233.16	12.90	-39.4	-40.5	19.2	0.00e+00	0	44	0	4279238656	48	4279
2026-01-07 05:02:59.03	232.92	12.62	-39.4	-40.4	19.3	0.00e+00	0	44	0	4302307328	48	4234
2026-01-07 05:03:01.89	232.70	12.37	-39.2	-40.2	19.4	0.00e+00	0	44	0	4322230272	48	4139
2026-01-07 05:03:05.14	232.45	12.08	-38.9	-39.9	19.5	0.00e+00	0	44	0	4346347520	47	4217
2026-01-07 05:03:08.00	232.24	11.83	-38.8	-39.9	19.5	0.00e+00	0	44	0	4367319040	47	4206
2026-01-07 05:03:11.17	232.01	11.55	-38.9	-39.9	19.5	0.00e+00	0	44	0	4389339136	47	4213
2026-01-07 05:03:14.16	231.80	11.30	-38.9	-39.9	19.4	0.00e+00	0	44	0	4411359232	47	4233
2026-01-07 05:03:17.52	231.56	11.01	-39.1	-40.1	19.2	0.00e+00	0	44	0	4435476480	47	4317
2026-01-07 05:03:20.50	231.36	10.76	-39.2	-40.3	19.0	0.00e+00	0	44	0	4457496576	47	4408
2026-01-07 05:03:23.80	231.14	10.49	-39.5	-40.6	19.0	0.00e+00	0	44	0	4480565248	48	4298
2026-01-07 05:03:26.52	230.96	10.26	-39.6	-40.7	18.9	0.00e+00	0	44	0	4500488192	48	4349
2026-01-07 05:03:29.82	230.74	9.99	-39.7	-40.8	18.8	0.00e+00	0	44	0	4524605440	48	4416
2026-01-07 05:03:32.55	230.57	9.77	-39.6	-40.7	18.8	0.00e+00	0	44	0	4544528384	49	4133
2026-01-07 05:03:35.85	230.36	9.50	-39.8	-40.9	18.7	0.00e+00	0	44	0	4567597056	49	4196
2026-01-07 05:03:38.57	230.19	9.28	-40.0	-41.1	18.4	0.00e+00	0	44	0	4587520000	49	4338
2026-01-07 05:03:41.87	229.99	9.02	-40.3	-41.4	18.1	0.00e+00	0	44	0	4611637248	49	4471
2026-01-07 05:03:44.59	229.83	8.81	-50.0	-61.2	3.8	8.46e-01	0	44	104	4617928704	70	13029
2026-01-07 05:03:47.89	229.64	8.55	-50.7	-61.5	3.8	8.47e-01	0	44	104	4617928704	70	13458
2026-01-07 05:03:50.62	229.48	8.34	-50.6	-61.5	3.8	8.46e-01	0	44	104	4617928704	71	12805
2026-01-07 05:03:53.92	229.29	8.09	-50.4	-61.6	3.8	8.47e-01	0	44	104	4617928704	70	13632
2026-01-07 05:03:56.65	229.14	7.88	-50.6	-61.6	3.8	8.47e-01	0	44	104	4617928704	70	13708
2026-01-07 05:03:59.95	228.96	7.63	-49.9	-61.5	3.8	8.46e-01	0	44	104	4617928704	71	12810
2026-01-07 05:04:02.67	228.81	7.43	-50.2	-61.5	3.8	8.47e-01	0	44	104	4617928704	70	13542
2026-01-07 05:04:05.97	228.64	7.18	-50.1	-61.6	3.8	8.47e-01	0	44	104	4617928704	70	13601
2026-01-07 05:04:08.70	228.50	6.98	-50.4	-61.6	3.8	8.46e-01	0	44	104	4617928704	70	13577
2026-01-07 05:04:12.00	228.33	6.74	-50.3	-61.5	3.8	8.48e-01	0	44	104	4617928704	70	13486
2026-01-07 05:04:14.72	228.19	6.54	-50.3	-61.5	3.8	8.47e-01	0	44	104	4617928704	69	14300
2026-01-07 05:04:18.02	228.02	6.30	-50.3	-61.5	3.8	8.47e-01	0	44	104	4617928704	70	13545
2026-01-07 05:04:20.74	227.89	6.11	-50.2	-61.6	3.8	8.47e-01	0	44	104	4617928704	70	13611
2026-01-07 05:04:24.04	227.73	5.87	-49.8	-61.5	3.8	8.47e-01	0	44	104	4617928704	70	13561
2026-01-07 05:04:26.76	227.60	5.68	-50.4	-61.5	3.8	8.46e-01	0	44	104	4617928704	70	13439
2026-01-07 05:04:30.06	227.45	5.45	-50.3	-61.5	3.8	8.48e-01	0	44	104	4617928704	70	13542
2026-01-07 05:04:32.79	227.32	5.26	-50.3	-61.5	3.8	8.46e-01	0	44	104	4617928704	70	13545
2026-01-07 05:04:36.09	227.17	5.03	-50.3	-61.5	3.8	8.47e-01	0	44	104	4617928704	70	13537

#Closed at: 2026-01-07 05:04:38
#Recorded file [4617 MB]: D:/Data/31040_260107_075219.dat