passes_logs/2026/01/07/T1/T1__20260107_002508_SUOMI_NPP_rec.log

#Pass ID: 20260107_002508_SUOMI NPP
#Satellite: SUOMI NPP
#Configuration: NPP
#almurnet v.1.7.20251203
#Start time: 2026-01-07 00:25:08

#Version: 2.0.20230620
#Station: T1
#Location: 37.570604 lon 55.790049 lat
#TLE: 1 37849U 11061A   26005.94084933  .00000134  00000+0  84554-4 0  9990
#TLE: 2 37849  98.7803 308.0679 0002567  79.1029 281.0436 14.19522657735426

#Time	Az	El	Level	Level2	SNR	BER	BlckErr	Temp	State	Recorded	gain1	gain2
2026-01-07 00:25:08.68	12.30	5.02	-48.5	-64.7	3.8	1.49e+00	0	40	0	0	69	22072
2026-01-07 00:25:11.69	12.21	5.23	-47.1	-64.3	3.8	1.49e+00	0	41	104	0	65	26643
2026-01-07 00:25:14.70	12.11	5.44	-47.1	-64.3	3.8	1.49e+00	0	41	104	0	65	26501
2026-01-07 00:25:17.71	12.02	5.66	-47.1	-64.3	3.8	1.49e+00	0	41	104	0	65	26619
2026-01-07 00:25:20.73	11.92	5.87	-47.1	-64.3	3.8	1.49e+00	0	41	104	0	65	26646
2026-01-07 00:25:23.74	11.82	6.09	-47.1	-64.3	3.8	1.49e+00	0	41	104	0	65	26696
2026-01-07 00:25:26.75	11.72	6.31	-47.1	-64.2	3.8	1.49e+00	0	41	104	0	65	26441
2026-01-07 00:25:29.76	11.62	6.53	-47.1	-63.8	3.8	1.49e+00	0	41	104	0	65	25144
2026-01-07 00:25:32.77	11.51	6.75	-47.0	-62.9	3.8	1.49e+00	0	42	104	0	65	22708
2026-01-07 00:25:35.79	11.40	6.98	-47.0	-62.2	3.8	1.49e+00	0	42	104	0	65	20998
2026-01-07 00:25:38.80	11.29	7.20	-47.0	-62.5	3.8	1.49e+00	0	41	104	0	65	21691
2026-01-07 00:25:41.81	11.18	7.43	-47.1	-63.3	3.8	1.49e+00	0	42	104	0	65	23783
2026-01-07 00:25:44.82	11.07	7.66	-47.0	-63.2	3.8	1.49e+00	0	42	104	0	65	23442
2026-01-07 00:25:47.84	10.96	7.89	-46.9	-60.4	4.3	1.41e+00	0	42	0	0	65	16894
2026-01-07 00:25:50.85	10.84	8.13	-46.7	-57.3	5.9	4.22e-01	0	42	0	5242880	65	11927
2026-01-07 00:25:53.86	10.72	8.36	-46.3	-54.8	8.2	6.54e-02	0	42	0	10485760	64	9416
2026-01-07 00:25:56.87	10.60	8.60	-46.0	-53.2	9.8	1.05e-02	0	42	0	15728640	63	8354
2026-01-07 00:25:59.89	10.48	8.84	-46.0	-53.2	9.9	6.52e-03	0	42	0	22020096	63	8339
2026-01-07 00:26:02.90	10.35	9.09	-46.4	-55.0	8.2	4.43e-02	0	42	0	27262976	63	10291
2026-01-07 00:26:05.94	10.22	9.33	-43.4	-47.6	15.5	0.00e+00	0	42	0	32505856	58	5812
2026-01-07 00:26:08.94	10.09	9.58	-43.4	-47.6	15.6	0.00e+00	0	42	0	38797312	58	5825
2026-01-07 00:26:11.95	9.96	9.83	-43.1	-47.1	16.0	0.00e+00	0	42	0	44040192	58	5493
2026-01-07 00:26:14.96	9.83	10.08	-42.3	-46.0	17.1	0.00e+00	0	42	0	49283072	56	5413
2026-01-07 00:26:17.97	9.69	10.33	-42.1	-45.7	17.3	0.00e+00	0	42	0	55574528	56	5246
2026-01-07 00:26:20.99	9.55	10.59	-42.1	-45.6	17.5	0.00e+00	0	43	0	60817408	56	5199
2026-01-07 00:26:24.00	9.41	10.85	-42.1	-45.5	17.5	0.00e+00	0	42	0	66060288	56	5150
2026-01-07 00:26:27.01	9.26	11.11	-42.0	-45.4	17.5	0.00e+00	0	42	0	72351744	55	5391
2026-01-07 00:26:30.02	9.11	11.38	-42.1	-45.6	17.4	0.00e+00	0	42	0	77594624	55	5474
2026-01-07 00:26:33.03	8.96	11.65	-42.0	-45.3	17.7	0.00e+00	0	42	0	83886080	55	5287
2026-01-07 00:26:36.04	8.81	11.91	-42.0	-45.2	17.7	0.00e+00	0	43	0	89128960	55	5273
2026-01-07 00:26:39.04	8.65	12.19	-41.9	-45.0	17.9	0.00e+00	0	43	0	94371840	55	5157
2026-01-07 00:26:42.05	8.49	12.46	-41.8	-44.9	18.1	0.00e+00	0	43	0	100663296	55	5050
2026-01-07 00:26:45.05	8.33	12.74	-42.0	-45.1	18.0	0.00e+00	0	43	0	105906176	55	5177
2026-01-07 00:26:48.07	8.16	13.02	-41.8	-44.7	18.3	0.00e+00	0	43	0	111149056	55	4977
2026-01-07 00:26:51.05	7.99	13.30	-41.7	-44.6	18.4	0.00e+00	0	43	0	117440512	55	4905
2026-01-07 00:26:54.29	7.80	13.61	-41.8	-44.7	18.4	0.00e+00	0	43	0	123731968	55	4933
2026-01-07 00:26:57.21	7.63	13.89	-41.9	-44.8	18.2	0.00e+00	0	43	0	128974848	55	5020
2026-01-07 00:27:00.77	7.41	14.24	-42.0	-44.9	18.1	0.00e+00	0	43	0	135266304	55	5089
2026-01-07 00:27:03.54	7.24	14.52	-42.1	-45.0	18.1	0.00e+00	0	43	0	140509184	55	5138
2026-01-07 00:27:06.83	7.03	14.85	-42.1	-44.8	18.2	0.00e+00	0	43	0	146800640	55	5033
2026-01-07 00:27:09.55	6.86	15.12	-42.4	-45.2	17.8	0.00e+00	0	43	0	152043520	55	5267
2026-01-07 00:27:13.12	6.62	15.49	-42.0	-44.7	18.3	0.00e+00	0	43	0	158334976	55	4967
2026-01-07 00:27:15.84	6.44	15.77	-42.1	-44.8	18.3	0.00e+00	0	43	0	163577856	55	5015
2026-01-07 00:27:19.14	6.21	16.11	-42.0	-44.6	18.4	0.00e+00	0	43	0	169869312	55	4923
2026-01-07 00:27:21.86	6.02	16.40	-41.9	-44.5	18.5	0.00e+00	0	43	0	175112192	55	4851
2026-01-07 00:27:25.17	5.78	16.76	-41.9	-44.5	18.6	0.00e+00	0	43	0	181403648	55	4828
2026-01-07 00:27:27.92	5.57	17.06	-41.8	-44.3	18.8	0.00e+00	0	43	0	186646528	55	4728
2026-01-07 00:27:31.27	5.32	17.43	-41.9	-44.5	18.7	0.00e+00	0	43	0	192937984	55	4825
2026-01-07 00:27:33.99	5.11	17.73	-42.2	-44.8	18.4	0.00e+00	0	43	0	198180864	55	5000
2026-01-07 00:27:37.29	4.85	18.10	-42.4	-45.1	18.1	0.00e+00	0	43	0	203423744	55	5161
2026-01-07 00:27:40.13	4.62	18.42	-42.4	-45.1	18.1	0.00e+00	0	43	0	209715200	55	5162
2026-01-07 00:27:43.86	4.31	18.86	-42.5	-45.2	18.0	0.00e+00	0	43	0	216006656	55	5262
2026-01-07 00:27:46.57	4.07	19.17	-42.3	-44.9	18.2	0.00e+00	0	43	0	221249536	55	5096
2026-01-07 00:27:49.87	3.78	19.57	-42.3	-44.9	18.2	0.00e+00	0	43	0	227540992	55	5076
2026-01-07 00:27:52.59	3.54	19.89	-42.3	-45.0	18.2	0.00e+00	0	43	0	232783872	55	5105
2026-01-07 00:27:55.89	3.24	20.29	-42.5	-45.1	18.0	0.00e+00	0	43	0	239075328	55	5212
2026-01-07 00:27:58.61	2.98	20.63	-43.1	-45.9	17.5	0.00e+00	0	43	0	244318208	57	5072
2026-01-07 00:28:02.05	2.65	21.06	-43.3	-46.1	17.3	0.00e+00	0	43	0	250609664	57	5161
2026-01-07 00:28:04.90	2.36	21.42	-43.6	-46.4	17.0	0.00e+00	0	43	0	255852544	58	5097
2026-01-07 00:28:08.26	2.02	21.85	-43.5	-46.3	17.1	0.00e+00	0	43	0	262144000	58	5019
2026-01-07 00:28:10.98	1.73	22.21	-43.8	-46.7	16.7	0.00e+00	0	43	0	267386880	58	5278
2026-01-07 00:28:14.28	1.38	22.64	-43.4	-46.4	17.1	0.00e+00	0	43	0	273678336	58	5061
2026-01-07 00:28:17.00	1.08	23.00	-43.6	-46.5	17.0	0.00e+00	0	43	0	278921216	58	5139
2026-01-07 00:28:20.29	0.70	23.45	-43.7	-46.6	16.9	0.00e+00	0	43	0	284164096	58	5167
2026-01-07 00:28:23.02	0.39	23.82	-44.0	-46.9	16.6	0.00e+00	0	43	0	289406976	58	5385
2026-01-07 00:28:26.31	359.99	24.28	-44.3	-47.4	16.2	0.00e+00	0	43	0	295698432	59	5352
2026-01-07 00:28:29.16	359.64	24.68	-44.2	-47.2	16.3	0.00e+00	0	43	0	300941312	59	5267
2026-01-07 00:28:32.85	359.17	25.21	-43.4	-46.1	17.4	0.00e+00	0	43	0	308281344	58	4908
2026-01-07 00:28:35.57	358.82	25.60	-43.6	-46.5	17.0	0.00e+00	0	43	0	313524224	58	5155
2026-01-07 00:28:38.87	358.37	26.08	-43.9	-47.0	16.6	0.00e+00	0	43	0	319815680	58	5404
2026-01-07 00:28:41.59	357.99	26.49	-44.2	-47.3	16.2	0.00e+00	0	43	0	325058560	59	5327
2026-01-07 00:28:44.88	357.52	26.98	-44.2	-47.2	16.4	0.00e+00	0	43	0	330301440	59	5224
2026-01-07 00:28:47.60	357.12	27.39	-43.6	-46.4	17.2	0.00e+00	0	43	0	335544320	58	5094
2026-01-07 00:28:51.11	356.59	27.94	-43.3	-46.0	17.6	0.00e+00	0	43	0	341835776	58	4820
2026-01-07 00:28:54.16	356.12	28.41	-43.7	-46.4	17.2	0.00e+00	0	43	0	348127232	58	5072
2026-01-07 00:28:57.50	355.58	28.94	-43.8	-46.6	17.0	0.00e+00	0	43	0	354418688	58	5187
2026-01-07 00:29:00.22	355.12	29.38	-43.9	-46.8	16.9	0.00e+00	0	43	0	359661568	59	4997
2026-01-07 00:29:03.52	354.56	29.91	-44.0	-46.9	16.6	0.00e+00	0	43	0	365953024	59	5097
2026-01-07 00:29:06.24	354.07	30.36	-44.4	-47.5	16.3	0.00e+00	0	43	0	371195904	59	5453
2026-01-07 00:29:09.54	353.47	30.91	-44.5	-47.7	16.0	0.00e+00	0	43	0	376438784	60	5256
2026-01-07 00:29:12.26	352.96	31.36	-44.9	-48.3	15.5	0.00e+00	0	43	0	381681664	61	5285
2026-01-07 00:29:15.55	352.32	31.92	-45.5	-49.1	14.6	0.00e+00	0	43	0	387973120	62	5510
2026-01-07 00:29:18.27	351.77	32.39	-45.5	-49.3	14.5	0.00e+00	0	43	0	393216000	62	5615
2026-01-07 00:29:21.98	351.00	33.03	-45.2	-48.9	14.8	0.00e+00	0	43	0	400556032	61	5713
2026-01-07 00:29:24.70	350.41	33.51	-45.5	-49.7	14.1	7.00e-07	0	43	0	405798912	61	6237
2026-01-07 00:29:27.99	349.68	34.09	-45.2	-49.1	14.6	1.50e-06	0	43	0	411041792	62	5514
2026-01-07 00:29:30.75	349.04	34.58	-44.8	-48.3	15.4	0.00e+00	0	43	0	416284672	61	5291
2026-01-07 00:29:34.17	348.22	35.20	-44.9	-48.6	15.2	0.00e+00	0	43	0	422576128	61	5467
2026-01-07 00:29:36.95	347.54	35.70	-44.5	-47.8	15.9	0.00e+00	0	43	0	427819008	61	5020
2026-01-07 00:29:40.24	346.70	36.30	-44.8	-48.2	15.5	0.00e+00	0	43	0	434110464	60	5578
2026-01-07 00:29:42.96	345.98	36.80	-44.6	-48.0	15.7	0.00e+00	0	43	0	439353344	60	5463
2026-01-07 00:29:46.31	345.06	37.42	-45.1	-49.2	14.6	0.00e+00	0	43	0	445644800	60	6238
2026-01-07 00:29:49.32	344.20	37.97	-45.0	-48.7	15.2	0.00e+00	0	43	0	451936256	61	5576
2026-01-07 00:29:52.62	343.23	38.59	-45.1	-48.6	15.1	0.00e+00	0	43	0	457179136	61	5475
2026-01-07 00:29:55.34	342.40	39.09	-45.6	-49.5	14.3	3.00e-06	0	43	0	462422016	62	5762
2026-01-07 00:29:58.63	341.36	39.71	-44.8	-48.2	15.5	0.00e+00	0	43	0	468713472	61	5269
2026-01-07 00:30:01.67	340.37	40.27	-44.7	-48.1	15.7	0.00e+00	0	43	0	475004928	60	5507
2026-01-07 00:30:05.00	339.23	40.89	-44.8	-48.4	15.4	0.00e+00	0	43	0	481296384	60	5673
2026-01-07 00:30:07.72	338.28	41.39	-45.9	-50.3	13.5	5.30e-06	0	43	0	485490688	62	6308
2026-01-07 00:30:11.02	337.07	42.00	-44.2	-47.4	16.3	0.00e+00	0	43	0	491782144	60	5094
2026-01-07 00:30:13.74	336.05	42.50	-44.3	-47.6	16.2	0.00e+00	0	43	0	497025024	59	5471
2026-01-07 00:30:17.03	334.76	43.09	-46.1	-50.9	13.0	1.06e-05	0	43	0	503316480	62	6743
2026-01-07 00:30:19.76	333.66	43.58	-46.2	-50.7	13.1	4.27e-05	0	43	0	508559360	63	6213
2026-01-07 00:30:23.05	332.29	44.16	-46.1	-50.3	13.3	9.90e-06	0	43	0	514850816	63	5989
2026-01-07 00:30:25.78	331.11	44.64	-45.7	-49.7	14.1	0.00e+00	0	43	0	520093696	62	5908
2026-01-07 00:30:29.07	329.64	45.20	-45.6	-49.7	14.1	1.52e-05	0	43	0	526385152	63	5590
2026-01-07 00:30:31.89	328.34	45.67	-43.7	-46.6	17.1	0.00e+00	0	43	0	531628032	59	4874
2026-01-07 00:30:35.09	326.82	46.18	-44.3	-47.4	16.4	0.00e+00	0	43	0	536870912	59	5359
2026-01-07 00:30:37.95	325.41	46.63	-44.1	-47.3	16.5	0.00e+00	0	43	0	543162368	60	5008
2026-01-07 00:30:41.13	323.80	47.11	-42.4	-45.0	18.6	0.00e+00	0	43	0	548405248	56	4834
2026-01-07 00:30:44.14	322.23	47.55	-44.1	-47.1	16.6	0.00e+00	0	43	0	554696704	58	5487
2026-01-07 00:30:47.74	320.30	48.05	-44.1	-47.2	16.5	0.00e+00	0	43	0	560988160	59	5226
2026-01-07 00:30:50.46	318.80	48.40	-45.9	-50.6	13.2	2.74e-05	0	43	0	566231040	62	6501
2026-01-07 00:30:53.76	316.93	48.81	-43.6	-46.5	17.1	0.00e+00	0	43	0	572522496	59	4856
2026-01-07 00:30:56.48	315.36	49.12	-43.6	-46.5	17.1	0.00e+00	0	43	0	577765376	58	5144
2026-01-07 00:30:59.78	313.40	49.47	-46.3	-51.7	12.0	2.44e-04	0	43	0	584056832	63	7017
2026-01-07 00:31:02.50	311.76	49.73	-45.1	-49.2	14.5	8.30e-06	0	43	0	588251136	62	5539
2026-01-07 00:31:05.86	309.69	50.02	-43.9	-47.1	16.5	0.00e+00	0	43	0	594542592	59	5188
2026-01-07 00:31:08.59	307.98	50.22	-45.0	-49.0	14.7	0.00e+00	0	43	0	599785472	60	6123
2026-01-07 00:31:11.88	305.90	50.44	-44.8	-48.7	14.9	3.00e-06	0	43	0	606076928	61	5537
2026-01-07 00:31:14.61	304.14	50.58	-43.8	-47.0	16.6	0.00e+00	0	43	0	611319808	59	5125
2026-01-07 00:31:17.90	302.01	50.72	-42.4	-45.1	18.4	0.00e+00	0	43	0	617611264	56	4882
2026-01-07 00:31:20.62	300.24	50.81	-42.0	-44.7	18.6	0.00e+00	0	43	0	622854144	54	5225
2026-01-07 00:31:24.08	297.97	50.87	-40.9	-43.3	19.8	0.00e+00	0	43	0	629145600	52	5002
2026-01-07 00:31:26.85	296.14	50.89	-42.0	-44.7	18.7	0.00e+00	0	43	0	634388480	54	5219
2026-01-07 00:31:30.17	293.96	50.87	-43.5	-46.7	16.8	0.00e+00	0	43	0	640679936	57	5578
2026-01-07 00:31:32.98	292.11	50.82	-42.6	-45.3	18.2	0.00e+00	0	43	0	645922816	57	4720
2026-01-07 00:31:36.28	289.96	50.72	-42.5	-45.2	18.4	0.00e+00	0	43	0	652214272	56	4927
2026-01-07 00:31:39.01	288.18	50.60	-42.0	-44.5	18.7	0.00e+00	0	43	0	657457152	55	4868
2026-01-07 00:31:42.30	286.07	50.43	-42.0	-44.6	18.7	0.00e+00	0	43	0	663748608	55	4875
2026-01-07 00:31:45.02	284.34	50.25	-42.6	-45.3	18.1	0.00e+00	0	43	0	667942912	55	5309
2026-01-07 00:31:48.32	282.27	50.01	-42.2	-44.8	18.6	0.00e+00	0	43	0	674234368	56	4750
2026-01-07 00:31:51.04	280.60	49.77	-43.1	-46.0	17.5	0.00e+00	0	44	0	679477248	56	5442
2026-01-07 00:31:54.33	278.61	49.46	-43.5	-46.5	17.2	0.00e+00	0	44	0	685768704	58	5130
2026-01-07 00:31:57.18	276.91	49.16	-43.7	-46.8	17.0	0.00e+00	0	44	0	691011584	58	5290
2026-01-07 00:32:00.65	274.90	48.76	-45.3	-49.3	14.5	0.00e+00	0	44	0	697303040	61	5956
2026-01-07 00:32:03.37	273.36	48.43	-44.5	-47.8	16.0	0.00e+00	0	44	0	702545920	60	5310
2026-01-07 00:32:06.68	271.53	47.99	-45.4	-49.5	14.4	7.00e-07	0	43	0	708837376	61	6082
2026-01-07 00:32:09.59	269.96	47.59	-44.2	-47.5	16.2	0.00e+00	0	43	0	714080256	60	5159
2026-01-07 00:32:13.27	268.04	47.06	-44.1	-47.3	16.4	0.00e+00	0	43	0	721420288	60	5005
2026-01-07 00:32:16.06	266.63	46.63	-44.6	-48.2	15.3	0.00e+00	0	43	0	726663168	60	5570
2026-01-07 00:32:19.80	264.80	46.04	-43.8	-46.8	16.9	0.00e+00	0	44	0	734003200	59	5011
2026-01-07 00:32:22.58	263.48	45.59	-43.7	-46.6	17.0	0.00e+00	0	43	0	739246080	59	4911
2026-01-07 00:32:26.28	261.79	44.97	-45.0	-48.2	15.5	0.00e+00	0	43	0	745537536	61	5248
2026-01-07 00:32:29.00	260.58	44.50	-44.4	-47.2	16.6	0.00e+00	0	43	0	750780416	59	5251
2026-01-07 00:32:32.30	259.17	43.92	-45.5	-48.8	15.1	0.00e+00	0	43	0	757071872	62	5335
2026-01-07 00:32:35.08	258.02	43.42	-44.7	-47.7	16.2	0.00e+00	0	43	0	762314752	60	5274
2026-01-07 00:32:39.04	256.44	42.71	-43.3	-45.7	17.9	0.00e+00	0	43	0	769654784	58	4701
2026-01-07 00:32:41.79	255.38	42.21	-43.6	-46.2	17.6	0.00e+00	0	43	0	774897664	58	4950
2026-01-07 00:32:45.56	253.99	41.51	-44.0	-46.6	17.2	0.00e+00	0	43	0	782237696	58	5199
2026-01-07 00:32:48.37	252.99	40.99	-45.4	-48.7	15.2	0.00e+00	0	43	0	787480576	61	5563
2026-01-07 00:32:52.11	251.71	40.29	-45.4	-48.7	15.2	7.00e-07	0	43	0	793772032	62	5255
2026-01-07 00:32:55.53	250.58	39.65	-44.6	-47.5	16.4	0.00e+00	0	43	0	801112064	60	5104
2026-01-07 00:32:58.26	249.72	39.14	-44.7	-47.6	16.1	0.00e+00	0	43	0	805306368	60	5204
2026-01-07 00:33:01.55	248.71	38.53	-45.5	-48.8	15.0	0.00e+00	0	44	0	811597824	61	5636
2026-01-07 00:33:04.28	247.90	38.02	-44.4	-47.3	16.5	0.00e+00	0	43	0	816840704	60	5005
2026-01-07 00:33:07.78	246.90	37.37	-46.0	-49.8	14.0	7.00e-07	0	43	0	823132160	63	5608
2026-01-07 00:33:10.57	246.13	36.85	-45.7	-49.3	14.6	1.50e-06	0	44	0	828375040	63	5295
2026-01-07 00:33:13.86	245.26	36.25	-47.5	-52.8	11.0	1.28e-03	0	43	0	834666496	65	7041
2026-01-07 00:33:16.59	244.56	35.75	-45.7	-49.2	14.6	5.30e-06	0	44	0	839909376	63	5265
2026-01-07 00:33:19.88	243.74	35.15	-44.7	-47.6	16.2	0.00e+00	0	43	0	846200832	60	5211
2026-01-07 00:33:22.73	243.05	34.63	-44.5	-47.3	16.5	0.00e+00	0	44	0	851443712	60	5003
2026-01-07 00:33:25.88	242.32	34.07	-44.3	-47.0	16.8	0.00e+00	0	43	0	857735168	60	4849
2026-01-07 00:33:28.76	241.67	33.56	-44.7	-47.6	16.2	0.00e+00	0	43	0	862978048	60	5178
2026-01-07 00:33:32.04	240.96	32.98	-45.7	-49.2	14.6	0.00e+00	0	43	0	869269504	62	5541
2026-01-07 00:33:34.97	240.35	32.47	-45.0	-48.2	15.6	0.00e+00	0	43	0	874512384	62	4963
2026-01-07 00:33:38.12	239.71	31.93	-44.8	-47.9	15.9	0.00e+00	0	43	0	880803840	61	5048
2026-01-07 00:33:41.03	239.13	31.43	-45.0	-48.2	15.6	0.00e+00	0	43	0	886046720	60	5544
2026-01-07 00:33:44.04	238.56	30.92	-46.7	-51.2	12.6	2.74e-05	0	43	0	891289600	64	6216
2026-01-07 00:33:47.04	238.00	30.42	-46.2	-50.0	13.7	9.90e-06	0	43	0	897581056	63	5776
2026-01-07 00:33:50.05	237.47	29.92	-44.3	-47.2	16.5	0.00e+00	0	43	0	902823936	60	4971
2026-01-07 00:33:53.06	236.94	29.43	-43.8	-46.5	17.2	0.00e+00	0	43	0	908066816	59	4844
2026-01-07 00:33:56.07	236.44	28.94	-45.3	-48.8	15.0	0.00e+00	0	43	0	914358272	61	5620
2026-01-07 00:33:59.08	235.94	28.47	-45.5	-48.9	14.9	7.00e-07	0	43	0	919601152	62	5397
2026-01-07 00:34:02.09	235.47	27.99	-44.0	-46.7	17.0	0.00e+00	0	43	0	925892608	59	4973
2026-01-07 00:34:05.19	234.99	27.51	-44.2	-47.0	16.7	0.00e+00	0	44	0	931135488	59	5114
2026-01-07 00:34:08.05	234.56	27.07	-44.3	-47.1	16.6	0.00e+00	0	43	0	936378368	59	5167
2026-01-07 00:34:11.21	234.10	26.59	-43.8	-46.4	17.2	0.00e+00	0	43	0	942669824	59	4797
2026-01-07 00:34:14.07	233.70	26.16	-43.3	-45.9	17.7	0.00e+00	0	44	0	947912704	58	4773
2026-01-07 00:34:17.23	233.27	25.70	-44.4	-47.3	16.4	0.00e+00	0	44	0	954204160	59	5329
2026-01-07 00:34:20.09	232.89	25.28	-45.0	-48.3	15.4	0.00e+00	0	44	0	959447040	61	5290
2026-01-07 00:34:23.42	232.46	24.80	-44.6	-47.6	16.0	0.00e+00	0	43	0	965738496	61	4923
2026-01-07 00:34:26.68	232.05	24.34	-44.3	-47.2	16.5	0.00e+00	0	43	0	970981376	60	4941
2026-01-07 00:34:30.01	231.64	23.87	-43.9	-46.6	17.0	0.00e+00	0	43	0	977272832	59	4916
2026-01-07 00:34:32.73	231.32	23.50	-43.7	-46.4	17.2	0.00e+00	0	43	0	982515712	59	4787
2026-01-07 00:34:36.03	230.94	23.05	-44.3	-47.2	16.4	0.00e+00	0	43	0	988807168	59	5263
2026-01-07 00:34:38.89	230.62	22.66	-44.2	-47.2	16.5	0.00e+00	0	43	0	994050048	59	5219
2026-01-07 00:34:42.26	230.25	22.21	-43.7	-46.4	17.2	0.00e+00	0	43	0	1000341504	59	4773
2026-01-07 00:34:44.97	229.96	21.86	-44.1	-46.9	16.8	0.00e+00	0	44	0	1005584384	59	5056
2026-01-07 00:34:48.27	229.62	21.43	-45.3	-48.7	15.1	0.00e+00	0	43	0	1011875840	61	5531
2026-01-07 00:34:51.26	229.32	21.05	-45.2	-48.5	15.2	0.00e+00	0	44	0	1017118720	61	5463
2026-01-07 00:34:54.79	228.97	20.61	-44.6	-47.7	16.0	0.00e+00	0	43	0	1024458752	61	4932
2026-01-07 00:34:57.52	228.71	20.27	-44.5	-47.4	16.2	0.00e+00	0	44	0	1029701632	60	5090
2026-01-07 00:35:00.81	228.40	19.87	-44.6	-47.6	16.1	0.00e+00	0	44	0	1035993088	60	5198
2026-01-07 00:35:03.54	228.16	19.54	-44.5	-47.5	16.0	0.00e+00	0	43	0	1040187392	60	5129
2026-01-07 00:35:06.83	227.86	19.14	-44.5	-47.6	16.1	0.00e+00	0	43	0	1046478848	60	5165
2026-01-07 00:35:09.56	227.63	18.82	-44.6	-47.7	15.9	0.00e+00	0	43	0	1051721728	60	5219
2026-01-07 00:35:12.85	227.35	18.44	-44.6	-47.7	15.9	0.00e+00	0	43	0	1058013184	60	5229
2026-01-07 00:35:15.57	227.12	18.13	-44.2	-47.1	16.4	0.00e+00	0	43	0	1063256064	60	4924
2026-01-07 00:35:19.14	226.83	17.72	-44.2	-47.1	16.4	0.00e+00	0	44	0	1069547520	60	4906
2026-01-07 00:35:21.86	226.62	17.41	-44.5	-47.6	16.0	0.00e+00	0	44	0	1074790400	60	5161
2026-01-07 00:35:25.16	226.37	17.05	-44.7	-47.9	15.7	0.00e+00	0	44	0	1081081856	60	5352
2026-01-07 00:35:27.88	226.16	16.75	-44.5	-47.6	15.9	0.00e+00	0	44	0	1086324736	60	5169
2026-01-07 00:35:31.51	225.89	16.36	-44.2	-47.2	16.3	0.00e+00	0	44	0	1092616192	60	4934
2026-01-07 00:35:34.44	225.68	16.05	-43.7	-46.5	17.0	0.00e+00	0	44	0	1098907648	59	4817
2026-01-07 00:35:38.17	225.42	15.65	-43.5	-46.2	17.2	0.00e+00	0	43	0	1105199104	59	4668
2026-01-07 00:35:40.95	225.23	15.37	-43.8	-46.6	16.8	0.00e+00	0	43	0	1110441984	59	4905
2026-01-07 00:35:44.27	225.01	15.02	-44.1	-47.0	16.4	0.00e+00	0	44	0	1116733440	59	5123
2026-01-07 00:35:46.99	224.83	14.75	-44.4	-47.3	16.1	0.00e+00	0	43	0	1121976320	59	5324
2026-01-07 00:35:50.29	224.62	14.42	-44.6	-47.6	15.8	0.00e+00	0	43	0	1128267776	60	5207
2026-01-07 00:35:53.01	224.45	14.15	-44.5	-47.5	15.9	0.00e+00	0	44	0	1133510656	60	5156
2026-01-07 00:35:56.30	224.24	13.82	-44.6	-47.7	15.8	0.00e+00	0	44	0	1139802112	60	5219
2026-01-07 00:35:59.03	224.08	13.56	-44.6	-47.6	15.9	0.00e+00	0	43	0	1145044992	60	5202
2026-01-07 00:36:02.32	223.89	13.24	-44.6	-47.7	15.7	0.00e+00	0	43	0	1151336448	60	5259
2026-01-07 00:36:05.04	223.73	12.98	-44.9	-48.2	15.2	0.00e+00	0	43	0	1155530752	60	5560
2026-01-07 00:36:08.34	223.54	12.67	-45.1	-48.4	14.9	0.00e+00	0	43	0	1161822208	61	5395
2026-01-07 00:36:11.36	223.37	12.39	-45.1	-48.6	14.8	7.00e-07	0	44	0	1168113664	61	5486
2026-01-07 00:36:14.66	223.19	12.09	-45.1	-48.6	14.8	0.00e+00	0	44	0	1174405120	61	5470
2026-01-07 00:36:17.38	223.05	11.84	-45.2	-48.7	14.7	0.00e+00	0	43	0	1178599424	61	5536
2026-01-07 00:36:20.69	222.87	11.55	-45.2	-48.8	14.5	0.00e+00	0	43	0	1184890880	61	5651
2026-01-07 00:36:23.56	222.73	11.29	-45.1	-48.5	14.9	0.00e+00	0	44	0	1191182336	61	5462
2026-01-07 00:36:26.71	222.57	11.01	-44.9	-48.4	14.9	0.00e+00	0	44	0	1196425216	61	5365
2026-01-07 00:36:29.58	222.43	10.76	-44.7	-48.1	15.2	0.00e+00	0	43	0	1201668096	61	5176
2026-01-07 00:36:32.73	222.27	10.49	-44.7	-48.0	15.3	0.00e+00	0	44	0	1207959552	61	5101
2026-01-07 00:36:35.60	222.14	10.24	-44.6	-47.8	15.4	0.00e+00	0	43	0	1213202432	60	5332
2026-01-07 00:36:38.80	221.99	9.97	-44.7	-48.1	15.1	0.00e+00	0	43	0	1219493888	60	5465
2026-01-07 00:36:41.66	221.86	9.73	-44.8	-48.3	14.8	0.00e+00	0	44	0	1224736768	60	5604
2026-01-07 00:36:45.03	221.70	9.45	-45.0	-48.7	14.5	0.00e+00	0	43	0	1231028224	60	5868
2026-01-07 00:36:48.27	221.56	9.19	-45.0	-49.0	14.1	7.00e-07	0	43	0	1237319680	60	6109
2026-01-07 00:36:51.60	221.42	8.91	-49.4	-64.6	3.8	1.49e+00	0	44	104	1241513984	69	21905
2026-01-07 00:36:54.32	221.30	8.69	-49.7	-65.1	3.8	1.49e+00	0	43	104	1241513984	70	21813
2026-01-07 00:36:57.65	221.16	8.43	-50.0	-65.3	3.8	1.49e+00	0	44	104	1241513984	70	22273
2026-01-07 00:37:00.40	221.05	8.21	-50.0	-65.3	3.8	1.49e+00	0	44	104	1241513984	70	22375
2026-01-07 00:37:03.94	220.91	7.93	-50.0	-65.3	3.8	1.49e+00	0	43	104	1241513984	71	21211
2026-01-07 00:37:06.67	220.80	7.72	-50.2	-65.3	3.8	1.49e+00	0	43	104	1241513984	71	21195
2026-01-07 00:37:09.97	220.67	7.47	-49.9	-65.3	3.8	1.49e+00	0	44	104	1241513984	71	21087
2026-01-07 00:37:12.69	220.57	7.26	-49.8	-65.3	3.8	1.49e+00	0	43	104	1241513984	71	21155
2026-01-07 00:37:15.99	220.44	7.01	-49.8	-65.3	3.8	1.49e+00	0	44	104	1241513984	71	21036
2026-01-07 00:37:18.72	220.34	6.80	-49.8	-65.3	3.8	1.49e+00	0	44	104	1241513984	71	21049
2026-01-07 00:37:22.02	220.22	6.56	-49.8	-65.2	3.8	1.49e+00	0	44	104	1241513984	71	20996
2026-01-07 00:37:24.75	220.12	6.35	-49.8	-65.2	3.8	1.49e+00	0	44	104	1241513984	71	21015
2026-01-07 00:37:28.05	220.01	6.11	-49.8	-65.3	3.8	1.49e+00	0	44	104	1241513984	71	21049
2026-01-07 00:37:30.77	219.91	5.91	-49.7	-65.2	3.8	1.49e+00	0	44	104	1241513984	71	20984
2026-01-07 00:37:34.07	219.80	5.68	-49.7	-65.2	3.8	1.49e+00	0	44	104	1241513984	71	20991
2026-01-07 00:37:36.80	219.71	5.48	-49.7	-65.3	3.8	1.49e+00	0	44	104	1241513984	71	21036
2026-01-07 00:37:40.10	219.60	5.25	-49.7	-65.2	3.8	1.49e+00	0	44	104	1241513984	71	20973
2026-01-07 00:37:42.82	219.51	5.05	-49.8	-65.3	3.8	1.49e+00	0	43	104	1241513984	71	21049

#Closed at: 2026-01-07 00:37:44
#Recorded file [1241 MB]: D:/Data/31040_260107_032508.dat