passes_logs/2026/01/07/T1/T1__20260107_233641_NOAA_21_JPSS-2_rec.log

#Pass ID: 20260107_233641_NOAA 21 (JPSS-2)
#Satellite: NOAA 21 (JPSS-2)
#Configuration: NOAA 21
#almurnet v.1.7.20251203
#Start time: 2026-01-07 23:36:41

#Version: 2.0.20230620
#Station: T1
#Location: 37.570604 lon 55.790049 lat
#TLE: 1 54234U 22150A   26005.56767909  .00000152  00000+0  92756-4 0  9990
#TLE: 2 54234  98.7490 306.5820 0001036 340.2747  19.8389 14.19532370163472

#Time	Az	El	Level	Level2	SNR	BER	BlckErr	Temp	State	Recorded	gain1	gain2
2026-01-07 23:36:41.56	16.82	5.03	-52.2	-65.6	3.8	1.49e+00	0	41	0	0	75	17350
2026-01-07 23:36:44.57	16.84	5.24	-52.2	-65.7	3.8	1.49e+00	0	41	104	0	75	17489
2026-01-07 23:36:47.58	16.87	5.46	-52.2	-65.5	3.8	1.49e+00	0	41	104	0	75	17238
2026-01-07 23:36:50.59	16.89	5.68	-52.2	-65.3	3.8	1.49e+00	0	41	104	0	75	16834
2026-01-07 23:36:53.60	16.92	5.90	-52.2	-65.2	3.8	1.49e+00	0	41	104	0	75	16582
2026-01-07 23:36:56.62	16.94	6.12	-52.2	-65.2	3.8	1.49e+00	0	41	104	0	75	16644
2026-01-07 23:36:59.63	16.97	6.34	-52.2	-65.4	3.8	1.49e+00	0	41	104	0	75	16987
2026-01-07 23:37:02.61	16.99	6.57	-52.2	-65.4	3.8	1.49e+00	0	41	104	0	75	17076
2026-01-07 23:37:05.63	17.02	6.80	-52.2	-65.1	3.8	1.49e+00	0	42	104	0	75	16345
2026-01-07 23:37:08.64	17.04	7.03	-52.1	-64.3	3.8	1.49e+00	0	42	104	0	75	14955
2026-01-07 23:37:11.65	17.07	7.26	-52.0	-63.5	3.8	1.48e+00	0	42	104	0	75	13583
2026-01-07 23:37:14.66	17.09	7.49	-51.9	-62.2	4.1	1.47e+00	0	42	104	0	75	11818
2026-01-07 23:37:17.68	17.12	7.73	-51.8	-61.7	4.1	1.46e+00	0	42	104	0	75	11103
2026-01-07 23:37:20.69	17.14	7.97	-51.7	-61.1	4.5	1.35e+00	0	42	104	0	75	10393
2026-01-07 23:37:23.70	17.17	8.21	-51.6	-61.1	4.0	1.04e+00	0	42	104	0	75	10381
2026-01-07 23:37:26.71	17.20	8.45	-51.4	-59.3	5.4	5.40e-01	0	42	0	0	74	8941
2026-01-07 23:37:29.73	17.22	8.70	-51.0	-57.8	6.6	2.42e-01	0	42	0	0	74	7463
2026-01-07 23:37:32.74	17.25	8.95	-50.6	-56.3	7.9	8.32e-02	0	42	0	0	73	6719
2026-01-07 23:37:35.75	17.28	9.20	-51.5	-58.7	5.9	1.95e-01	0	42	0	0	73	8827
2026-01-07 23:37:38.76	17.31	9.45	-47.6	-50.6	13.5	1.25e-01	0	43	0	0	67	4920
2026-01-07 23:37:41.77	17.33	9.70	-45.3	-47.6	16.7	0.00e+00	0	43	0	0	62	4621
2026-01-07 23:37:44.75	17.36	9.96	-44.9	-47.1	17.2	0.00e+00	0	43	0	0	61	4611
2026-01-07 23:37:48.09	17.39	10.25	-44.6	-46.7	17.5	0.00e+00	0	43	0	0	61	4428
2026-01-07 23:37:50.85	17.42	10.49	-44.5	-46.6	17.6	0.00e+00	0	43	0	0	61	4369
2026-01-07 23:37:54.47	17.45	10.81	-44.5	-46.5	17.7	0.00e+00	0	43	0	0	60	4597
2026-01-07 23:37:57.25	17.48	11.06	-44.5	-46.5	17.8	0.00e+00	0	43	0	0	60	4574
2026-01-07 23:38:01.09	17.52	11.41	-44.4	-46.4	17.9	0.00e+00	0	43	0	0	60	4531
2026-01-07 23:38:03.86	17.55	11.66	-44.3	-46.3	18.0	0.00e+00	0	43	0	0	60	4447
2026-01-07 23:38:07.63	17.58	12.02	-44.2	-46.1	18.2	0.00e+00	0	43	0	0	60	4362
2026-01-07 23:38:10.37	17.61	12.27	-44.1	-46.0	18.2	0.00e+00	0	43	0	0	60	4323
2026-01-07 23:38:14.17	17.65	12.64	-44.1	-46.0	18.3	0.00e+00	0	43	0	0	60	4298
2026-01-07 23:38:16.92	17.68	12.90	-43.9	-45.8	18.4	0.00e+00	0	43	0	0	59	4468
2026-01-07 23:38:20.67	17.72	13.27	-43.9	-45.7	18.4	0.00e+00	0	43	0	0	59	4441
2026-01-07 23:38:23.56	17.75	13.56	-43.8	-45.6	18.6	0.00e+00	0	43	0	0	59	4367
2026-01-07 23:38:26.83	17.79	13.89	-43.8	-45.6	18.5	0.00e+00	0	43	0	0	59	4383
2026-01-07 23:38:29.85	17.82	14.19	-43.7	-45.5	18.7	0.00e+00	0	43	0	0	59	4324
2026-01-07 23:38:32.86	17.85	14.50	-43.7	-45.5	18.7	0.00e+00	0	43	0	0	59	4297
2026-01-07 23:38:36.21	17.89	14.85	-43.7	-45.5	18.7	0.00e+00	0	43	0	0	59	4315
2026-01-07 23:38:39.00	17.92	15.15	-43.7	-45.5	18.7	0.00e+00	0	43	0	0	59	4317
2026-01-07 23:38:42.35	17.96	15.51	-43.8	-45.6	18.6	0.00e+00	0	43	0	0	59	4355
2026-01-07 23:38:45.10	17.99	15.81	-43.7	-45.5	18.7	0.00e+00	0	43	0	0	59	4327
2026-01-07 23:38:48.91	18.04	16.23	-43.8	-45.7	18.6	0.00e+00	0	43	0	0	59	4392
2026-01-07 23:38:51.76	18.07	16.55	-43.9	-45.7	18.6	0.00e+00	0	43	0	0	59	4421
2026-01-07 23:38:55.11	18.11	16.93	-43.8	-45.7	18.6	0.00e+00	0	43	0	0	59	4401
2026-01-07 23:38:58.25	18.15	17.30	-43.8	-45.7	18.6	0.00e+00	0	43	0	0	59	4417
2026-01-07 23:39:01.11	18.19	17.63	-43.9	-45.8	18.5	0.00e+00	0	43	0	0	59	4474
2026-01-07 23:39:05.15	18.24	18.11	-43.9	-45.8	18.5	0.00e+00	0	43	0	0	59	4480
2026-01-07 23:39:07.90	18.28	18.45	-43.8	-45.7	18.6	0.00e+00	0	43	0	0	59	4409
2026-01-07 23:39:11.64	18.33	18.91	-43.8	-45.7	18.5	0.00e+00	0	43	0	0	59	4427
2026-01-07 23:39:14.50	18.37	19.27	-43.7	-45.6	18.6	0.00e+00	0	43	0	0	59	4362
2026-01-07 23:39:18.25	18.42	19.74	-43.5	-45.4	18.8	0.00e+00	0	43	0	0	59	4250
2026-01-07 23:39:21.04	18.46	20.10	-43.6	-45.4	18.8	0.00e+00	0	43	0	0	59	4261
2026-01-07 23:39:24.95	18.52	20.62	-43.4	-45.2	19.0	0.00e+00	0	43	0	0	58	4429
2026-01-07 23:39:27.72	18.56	20.99	-43.2	-45.0	19.2	0.00e+00	0	43	0	0	58	4330
2026-01-07 23:39:31.46	18.62	21.50	-43.0	-44.7	19.5	0.00e+00	0	43	0	0	58	4184
2026-01-07 23:39:34.23	18.66	21.89	-42.9	-44.7	19.5	0.00e+00	0	43	0	0	57	4415
2026-01-07 23:39:37.99	18.72	22.42	-42.8	-44.6	19.6	0.00e+00	0	43	0	0	57	4356
2026-01-07 23:39:40.89	18.77	22.84	-42.7	-44.4	19.7	0.00e+00	0	43	0	0	57	4265
2026-01-07 23:39:44.98	18.83	23.44	-42.4	-44.2	19.9	0.00e+00	0	43	0	0	56	4397
2026-01-07 23:39:48.13	18.89	23.91	-42.4	-44.1	20.1	0.00e+00	0	43	0	0	56	4350
2026-01-07 23:39:51.14	18.94	24.38	-42.5	-44.2	19.9	0.00e+00	0	43	0	0	56	4434
2026-01-07 23:39:54.24	19.00	24.86	-42.6	-44.3	19.9	0.00e+00	0	43	0	0	56	4459
2026-01-07 23:39:57.33	19.05	25.35	-42.9	-44.6	19.6	0.00e+00	0	43	0	0	56	4645
2026-01-07 23:40:00.32	19.11	25.83	-43.1	-44.9	19.4	0.00e+00	0	43	0	0	57	4495
2026-01-07 23:40:03.62	19.17	26.38	-43.3	-45.1	19.2	0.00e+00	0	43	0	0	57	4638
2026-01-07 23:40:06.40	19.23	26.84	-43.6	-45.4	18.9	0.00e+00	0	43	0	0	57	4787
2026-01-07 23:40:09.76	19.29	27.42	-43.8	-45.7	18.7	0.00e+00	0	43	0	0	58	4687
2026-01-07 23:40:12.61	19.35	27.92	-44.0	-45.9	18.5	0.00e+00	0	43	0	0	58	4767
2026-01-07 23:40:16.11	19.43	28.54	-43.9	-45.8	18.5	0.00e+00	0	43	0	0	58	4718
2026-01-07 23:40:18.83	19.49	29.03	-43.9	-45.7	18.6	0.00e+00	0	43	0	0	58	4680
2026-01-07 23:40:22.07	19.56	29.63	-43.6	-45.4	18.9	0.00e+00	0	43	0	0	58	4529
2026-01-07 23:40:25.14	19.63	30.22	-43.4	-45.2	19.1	0.00e+00	0	43	0	0	58	4418
2026-01-07 23:40:28.01	19.70	30.77	-43.2	-45.0	19.3	0.00e+00	0	44	0	0	58	4313
2026-01-07 23:40:31.29	19.79	31.42	-42.9	-44.6	19.6	0.00e+00	0	43	0	0	57	4384
2026-01-07 23:40:34.01	19.86	31.96	-43.0	-44.7	19.6	0.00e+00	0	43	0	0	57	4411
2026-01-07 23:40:37.67	19.95	32.72	-43.2	-45.0	19.3	0.00e+00	0	43	0	0	57	4563
2026-01-07 23:40:40.61	20.03	33.33	-43.6	-45.4	19.0	0.00e+00	0	43	0	0	57	4763
2026-01-07 23:40:44.36	20.14	34.14	-43.8	-45.6	18.9	0.00e+00	0	43	0	0	58	4605
2026-01-07 23:40:47.12	20.22	34.75	-44.2	-46.0	18.5	0.00e+00	0	44	0	0	58	4870
2026-01-07 23:40:50.81	20.34	35.58	-44.6	-46.6	18.0	0.00e+00	0	43	0	0	59	4887
2026-01-07 23:40:53.53	20.42	36.21	-44.9	-47.0	17.6	0.00e+00	0	44	0	0	60	4840
2026-01-07 23:40:56.82	20.53	36.98	-45.3	-47.3	17.3	0.00e+00	0	43	0	0	61	4736
2026-01-07 23:40:59.55	20.63	37.64	-45.1	-47.1	17.5	0.00e+00	0	43	0	0	61	4636
2026-01-07 23:41:02.84	20.75	38.45	-45.0	-47.0	17.6	0.00e+00	0	43	0	0	61	4592
2026-01-07 23:41:05.56	20.85	39.14	-44.8	-46.9	17.8	0.00e+00	0	44	0	0	61	4495
2026-01-07 23:41:08.85	20.98	39.98	-45.0	-47.0	17.7	0.00e+00	0	43	0	0	61	4568
2026-01-07 23:41:11.71	21.09	40.74	-45.2	-47.3	17.4	0.00e+00	0	43	0	0	61	4723
2026-01-07 23:41:14.86	21.23	41.58	-45.4	-47.5	17.2	0.00e+00	0	44	0	0	61	4824
2026-01-07 23:41:17.73	21.36	42.37	-45.9	-48.0	16.8	0.00e+00	0	43	0	0	62	4835
2026-01-07 23:41:21.02	21.51	43.30	-46.4	-48.7	16.1	0.00e+00	0	43	0	0	63	4943
2026-01-07 23:41:23.74	21.65	44.08	-46.4	-48.6	16.0	0.00e+00	0	43	0	0	63	4896
2026-01-07 23:41:27.03	21.82	45.05	-46.5	-48.9	15.9	0.00e+00	0	44	0	0	63	5061
2026-01-07 23:41:29.76	21.97	45.87	-46.5	-49.0	15.7	0.00e+00	0	44	0	0	64	4848
2026-01-07 23:41:33.05	22.16	46.89	-46.8	-49.3	15.3	0.00e+00	0	43	0	0	64	5030
2026-01-07 23:41:35.77	22.33	47.74	-46.3	-48.6	16.0	0.00e+00	0	44	0	0	64	4615
2026-01-07 23:41:39.07	22.54	48.81	-45.5	-47.6	17.0	0.00e+00	0	44	0	0	63	4385
2026-01-07 23:41:41.97	22.74	49.76	-45.4	-47.4	17.3	0.00e+00	0	43	0	0	62	4535
2026-01-07 23:41:44.99	22.96	50.78	-45.2	-47.2	17.5	0.00e+00	0	43	0	0	62	4422
2026-01-07 23:41:48.00	23.20	51.81	-44.9	-46.9	17.7	0.00e+00	0	44	0	0	61	4521
2026-01-07 23:41:51.01	23.45	52.87	-43.9	-45.8	18.6	0.00e+00	0	44	0	0	59	4459
2026-01-07 23:41:54.02	23.72	53.95	-43.9	-45.8	18.6	0.00e+00	0	44	0	0	59	4452
2026-01-07 23:41:57.02	24.01	55.05	-43.1	-44.9	19.4	0.00e+00	0	43	0	0	58	4250
2026-01-07 23:42:00.03	24.33	56.17	-43.1	-44.8	19.5	0.00e+00	0	44	0	0	58	4215
2026-01-07 23:42:03.04	24.67	57.32	-43.4	-45.2	19.2	0.00e+00	0	43	0	0	58	4405
2026-01-07 23:42:06.05	25.04	58.49	-43.5	-45.2	19.2	0.00e+00	0	43	0	0	58	4434
2026-01-07 23:42:09.05	25.44	59.68	-42.5	-44.1	20.1	0.00e+00	0	44	0	0	57	4135
2026-01-07 23:42:12.38	25.93	61.03	-42.3	-44.0	20.3	0.00e+00	0	44	0	0	56	4316
2026-01-07 23:42:15.31	26.40	62.23	-42.0	-43.6	20.6	0.00e+00	0	43	0	0	56	4109
2026-01-07 23:42:19.07	27.09	63.81	-42.1	-43.7	20.3	0.00e+00	0	44	0	0	55	4415
2026-01-07 23:42:21.97	27.68	65.05	-41.8	-43.4	20.6	0.00e+00	0	44	0	0	55	4251
2026-01-07 23:42:25.13	28.41	66.42	-41.5	-43.1	20.9	0.00e+00	0	43	0	0	54	4346
2026-01-07 23:42:28.61	29.32	67.95	-42.2	-43.9	20.2	0.00e+00	0	43	0	0	55	4496
2026-01-07 23:42:31.34	30.14	69.16	-41.7	-43.3	20.5	0.00e+00	0	44	0	0	55	4209
2026-01-07 23:42:34.63	31.27	70.64	-41.1	-42.7	21.0	0.00e+00	0	44	0	0	54	4149
2026-01-07 23:42:37.36	32.36	71.88	-41.5	-43.1	20.8	0.00e+00	0	44	0	0	54	4363
2026-01-07 23:42:40.65	33.90	73.39	-41.4	-43.0	21.0	0.00e+00	0	44	0	0	54	4303
2026-01-07 23:42:43.95	35.77	74.90	-41.1	-42.6	21.3	0.00e+00	0	44	0	0	54	4137
2026-01-07 23:42:46.76	37.70	76.19	-42.4	-44.1	20.1	0.00e+00	0	44	0	0	55	4611
2026-01-07 23:42:50.05	40.48	77.69	-42.3	-44.0	20.1	0.00e+00	0	43	0	0	55	4575
2026-01-07 23:42:52.78	43.37	78.92	-42.7	-44.3	20.0	0.00e+00	0	43	0	0	56	4493
2026-01-07 23:42:56.09	47.88	80.38	-42.1	-43.7	20.6	0.00e+00	0	44	0	0	56	4169
2026-01-07 23:42:58.86	52.84	81.54	-42.1	-43.8	20.3	0.00e+00	0	43	0	0	55	4446
2026-01-07 23:43:02.15	60.78	82.82	-42.0	-43.6	20.1	0.00e+00	0	44	0	0	55	4373
2026-01-07 23:43:04.88	69.73	83.75	-42.3	-43.9	20.1	0.00e+00	0	43	0	0	55	4543
2026-01-07 23:43:08.18	84.21	84.60	-43.1	-44.8	19.6	0.00e+00	0	44	0	0	57	4479
2026-01-07 23:43:10.90	99.06	84.97	-43.6	-45.4	19.0	0.00e+00	0	43	0	0	57	4810
2026-01-07 23:43:14.19	118.30	84.91	-42.6	-44.3	20.0	0.00e+00	0	44	0	0	56	4465
2026-01-07 23:43:16.91	132.65	84.47	-42.6	-44.3	20.1	0.00e+00	0	44	0	0	56	4465
2026-01-07 23:43:20.21	146.36	83.56	-42.3	-43.9	20.3	0.00e+00	0	43	0	0	55	4516
2026-01-07 23:43:23.07	155.11	82.55	-42.2	-43.8	20.2	0.00e+00	0	44	0	0	55	4493
2026-01-07 23:43:26.59	162.92	81.14	-42.5	-44.1	20.1	0.00e+00	0	44	0	0	55	4649
2026-01-07 23:43:29.56	167.74	79.86	-42.5	-44.2	20.2	0.00e+00	0	44	0	0	56	4403
2026-01-07 23:43:32.85	171.80	78.40	-42.5	-44.2	20.2	0.00e+00	0	44	0	0	56	4396
2026-01-07 23:43:35.76	174.60	77.08	-42.1	-43.7	20.5	0.00e+00	0	44	0	0	56	4157
2026-01-07 23:43:39.16	177.21	75.52	-42.5	-44.2	20.1	0.00e+00	0	43	0	0	55	4655
2026-01-07 23:43:42.22	179.11	74.11	-41.4	-43.0	21.0	0.00e+00	0	44	0	0	54	4316
2026-01-07 23:43:45.09	180.60	72.80	-42.5	-44.2	20.1	0.00e+00	0	44	0	0	55	4669
2026-01-07 23:43:48.43	182.06	71.27	-41.8	-43.4	20.4	0.00e+00	0	43	0	0	55	4269
2026-01-07 23:43:51.38	183.16	69.93	-42.4	-44.0	20.3	0.00e+00	0	44	0	0	55	4586
2026-01-07 23:43:54.75	184.23	68.42	-43.4	-45.1	19.3	0.00e+00	0	44	0	0	58	4387
2026-01-07 23:43:57.47	184.99	67.21	-42.1	-43.7	20.6	0.00e+00	0	43	0	0	56	4187
2026-01-07 23:44:00.77	185.81	65.77	-43.3	-45.0	19.4	0.00e+00	0	44	0	0	58	4333
2026-01-07 23:44:03.50	186.40	64.59	-42.1	-43.7	20.6	0.00e+00	0	44	0	0	56	4160
2026-01-07 23:44:06.80	187.05	63.19	-43.2	-44.9	19.6	0.00e+00	0	43	0	0	57	4509
2026-01-07 23:44:09.52	187.53	62.05	-43.8	-45.7	18.6	0.00e+00	0	43	0	0	59	4395
2026-01-07 23:44:12.82	188.06	60.69	-42.8	-44.4	19.9	0.00e+00	0	44	0	0	56	4544
2026-01-07 23:44:15.55	188.45	59.59	-44.0	-45.9	18.7	0.00e+00	0	44	0	0	59	4495
2026-01-07 23:44:18.85	188.89	58.28	-43.7	-45.6	18.9	0.00e+00	0	44	0	0	58	4600
2026-01-07 23:44:21.57	189.22	57.22	-42.9	-44.6	19.8	0.00e+00	0	43	0	0	57	4346
2026-01-07 23:44:24.87	189.59	55.96	-44.7	-46.5	18.2	0.00e+00	0	43	0	0	59	4865
2026-01-07 23:44:27.59	189.87	54.94	-44.9	-46.9	17.7	0.00e+00	0	43	0	0	60	4777
2026-01-07 23:44:30.89	190.19	53.73	-44.3	-46.2	18.3	0.00e+00	0	43	0	0	60	4408
2026-01-07 23:44:33.62	190.43	52.75	-44.2	-46.1	18.5	0.00e+00	0	44	0	0	59	4604
2026-01-07 23:44:36.92	190.71	51.59	-45.9	-48.1	16.7	0.00e+00	0	44	0	0	62	4910
2026-01-07 23:44:39.64	190.92	50.65	-45.6	-47.6	17.0	0.00e+00	0	44	0	0	62	4643
2026-01-07 23:44:42.94	191.16	49.54	-45.7	-47.8	16.9	0.00e+00	0	43	0	0	62	4713
2026-01-07 23:44:45.66	191.34	48.64	-45.6	-47.7	17.1	0.00e+00	0	44	0	0	62	4658
2026-01-07 23:44:48.96	191.56	47.58	-45.9	-48.0	16.8	0.00e+00	0	43	0	0	62	4867
2026-01-07 23:44:51.69	191.72	46.72	-46.2	-48.5	16.1	0.00e+00	0	43	0	0	63	4821
2026-01-07 23:44:54.99	191.91	45.70	-46.2	-48.5	16.3	0.00e+00	0	44	0	0	63	4821
2026-01-07 23:44:57.71	192.06	44.88	-46.6	-49.0	15.8	0.00e+00	0	43	0	0	64	4830
2026-01-07 23:45:01.01	192.23	43.90	-47.0	-49.5	15.2	0.00e+00	0	44	0	0	64	5102
2026-01-07 23:45:03.74	192.36	43.12	-46.3	-48.6	16.0	0.00e+00	0	44	0	0	64	4620
2026-01-07 23:45:07.03	192.52	42.19	-45.8	-47.9	17.0	0.00e+00	0	44	0	0	63	4519
2026-01-07 23:45:09.76	192.64	41.44	-46.7	-49.1	15.7	0.00e+00	0	44	0	0	64	4913
2026-01-07 23:45:13.06	192.78	40.55	-47.4	-50.0	14.8	0.00e+00	0	43	0	0	65	5119
2026-01-07 23:45:15.78	192.89	39.83	-46.2	-48.4	16.4	0.00e+00	0	43	0	0	64	4503
2026-01-07 23:45:19.09	193.02	38.97	-45.1	-47.0	17.7	0.00e+00	0	44	0	0	62	4339
2026-01-07 23:45:21.81	193.12	38.29	-45.7	-47.8	16.9	0.00e+00	0	43	0	0	62	4734
2026-01-07 23:45:25.11	193.23	37.47	-44.8	-46.7	18.0	0.00e+00	0	44	0	0	61	4404
2026-01-07 23:45:27.83	193.33	36.82	-44.7	-46.6	18.1	0.00e+00	0	44	0	0	61	4353
2026-01-07 23:45:31.13	193.43	36.04	-45.4	-47.5	17.2	0.00e+00	0	44	0	0	61	4838
2026-01-07 23:45:33.86	193.52	35.41	-46.1	-48.3	16.4	0.00e+00	0	44	0	0	62	4999
2026-01-07 23:45:37.16	193.62	34.66	-46.0	-48.2	16.3	0.00e+00	0	44	0	0	62	4931
2026-01-07 23:45:39.88	193.70	34.06	-45.7	-47.8	16.8	0.00e+00	0	44	0	0	62	4734
2026-01-07 23:45:43.18	193.79	33.34	-44.6	-46.6	18.0	0.00e+00	0	44	0	0	61	4349
2026-01-07 23:45:45.91	193.87	32.76	-44.4	-46.3	18.3	0.00e+00	0	43	0	0	60	4474
2026-01-07 23:45:49.21	193.96	32.08	-44.1	-45.9	18.7	0.00e+00	0	43	0	0	60	4286
2026-01-07 23:45:51.94	194.02	31.52	-43.9	-45.7	18.8	0.00e+00	0	43	0	0	59	4414
2026-01-07 23:45:55.24	194.11	30.86	-44.4	-46.2	18.3	0.00e+00	0	44	0	0	59	4703
2026-01-07 23:45:57.96	194.17	30.33	-44.7	-46.6	18.0	0.00e+00	0	44	0	0	60	4648
2026-01-07 23:46:01.26	194.25	29.70	-44.9	-46.9	17.8	0.00e+00	0	44	0	0	60	4779
2026-01-07 23:46:03.99	194.31	29.19	-44.7	-46.6	18.0	0.00e+00	0	44	0	0	60	4623
2026-01-07 23:46:07.29	194.38	28.58	-44.5	-46.4	18.1	0.00e+00	0	44	0	0	60	4545
2026-01-07 23:46:10.01	194.44	28.09	-44.2	-46.0	18.5	0.00e+00	0	44	0	0	60	4329
2026-01-07 23:46:13.31	194.51	27.51	-43.9	-45.8	18.5	0.00e+00	0	44	0	0	59	4477
2026-01-07 23:46:16.05	194.56	27.03	-43.8	-45.7	18.7	0.00e+00	0	44	0	0	59	4427
2026-01-07 23:46:19.35	194.63	26.47	-43.6	-45.5	18.9	0.00e+00	0	43	0	0	59	4295
2026-01-07 23:46:22.07	194.68	26.01	-43.6	-45.4	19.0	0.00e+00	0	44	0	0	59	4249
2026-01-07 23:46:25.37	194.74	25.47	-43.6	-45.4	18.9	0.00e+00	0	44	0	0	59	4269
2026-01-07 23:46:28.10	194.79	25.03	-43.6	-45.4	19.0	0.00e+00	0	44	0	0	59	4272
2026-01-07 23:46:31.40	194.85	24.51	-43.6	-45.4	19.0	0.00e+00	0	44	0	0	59	4253
2026-01-07 23:46:34.12	194.89	24.09	-43.7	-45.6	18.8	0.00e+00	0	43	0	0	59	4347
2026-01-07 23:46:37.42	194.95	23.58	-44.1	-45.9	18.5	0.00e+00	0	44	0	0	59	4524
2026-01-07 23:46:40.15	194.99	23.18	-44.3	-46.1	18.3	0.00e+00	0	43	0	0	59	4648
2026-01-07 23:46:43.45	195.04	22.69	-44.4	-46.3	18.2	0.00e+00	0	44	0	0	59	4719
2026-01-07 23:46:46.17	195.09	22.29	-44.5	-46.4	18.1	0.00e+00	0	44	0	0	59	4803
2026-01-07 23:46:49.47	195.14	21.82	-44.5	-46.4	18.1	0.00e+00	0	43	0	0	59	4808
2026-01-07 23:46:52.20	195.18	21.44	-44.5	-46.4	18.0	0.00e+00	0	44	0	0	59	4807
2026-01-07 23:46:55.49	195.23	20.99	-44.6	-46.6	17.8	0.00e+00	0	44	0	0	59	4897
2026-01-07 23:46:58.22	195.26	20.62	-44.8	-46.7	17.8	0.00e+00	0	44	0	0	60	4701
2026-01-07 23:47:01.52	195.31	20.18	-44.8	-46.8	17.7	0.00e+00	0	44	0	0	60	4739
2026-01-07 23:47:04.25	195.35	19.82	-44.9	-46.9	17.5	0.00e+00	0	44	0	0	60	4813
2026-01-07 23:47:07.55	195.39	19.39	-45.2	-47.2	17.3	0.00e+00	0	44	0	0	60	4979
2026-01-07 23:47:10.27	195.43	19.05	-45.2	-47.2	17.2	0.00e+00	0	44	0	0	61	4691
2026-01-07 23:47:13.57	195.47	18.63	-45.3	-47.4	17.1	0.00e+00	0	44	0	0	61	4768
2026-01-07 23:47:16.30	195.51	18.30	-45.5	-47.6	16.8	0.00e+00	0	44	0	0	61	4899
2026-01-07 23:47:19.60	195.55	17.90	-45.8	-48.0	16.4	0.00e+00	0	44	0	0	62	4856
2026-01-07 23:47:22.32	195.58	17.57	-45.9	-48.1	16.4	0.00e+00	0	43	0	0	62	4901
2026-01-07 23:47:25.62	195.62	17.18	-46.0	-48.3	16.2	0.00e+00	0	43	0	0	62	5034
2026-01-07 23:47:28.35	195.65	16.86	-46.1	-48.5	16.1	0.00e+00	0	44	0	0	63	4816
2026-01-07 23:47:31.65	195.69	16.48	-46.4	-48.8	15.8	0.00e+00	0	44	0	0	63	5026
2026-01-07 23:47:34.38	195.72	16.17	-46.4	-48.8	15.8	0.00e+00	0	44	0	0	63	4993
2026-01-07 23:47:37.68	195.76	15.81	-46.3	-48.7	15.9	0.00e+00	0	43	0	0	63	4955
2026-01-07 23:47:40.40	195.79	15.51	-46.4	-48.8	15.8	0.00e+00	0	44	0	0	63	4993
2026-01-07 23:47:43.70	195.82	15.15	-46.6	-49.0	15.5	0.00e+00	0	44	0	0	63	5132
2026-01-07 23:47:46.43	195.85	14.86	-46.7	-49.2	15.3	0.00e+00	0	44	0	0	64	4962
2026-01-07 23:47:49.73	195.89	14.51	-46.7	-49.3	15.2	0.00e+00	0	43	0	0	64	4993
2026-01-07 23:47:52.46	195.92	14.22	-46.7	-49.2	15.3	0.00e+00	0	44	0	0	64	4936
2026-01-07 23:47:55.76	195.95	13.88	-46.7	-49.2	15.2	0.00e+00	0	44	0	0	64	4977
2026-01-07 23:47:58.48	195.98	13.61	-46.8	-49.4	15.0	0.00e+00	0	43	0	0	64	5100
2026-01-07 23:48:01.78	196.01	13.27	-47.1	-49.7	14.7	0.00e+00	0	44	0	0	64	5279
2026-01-07 23:48:04.51	196.04	13.00	-47.1	-49.8	14.6	1.50e-06	0	44	0	0	64	5318
2026-01-07 23:48:07.81	196.07	12.68	-47.2	-49.9	14.5	0.00e+00	0	44	0	0	65	5087
2026-01-07 23:48:10.54	196.09	12.42	-47.2	-50.0	14.4	0.00e+00	0	43	0	0	65	5111
2026-01-07 23:48:13.83	196.13	12.10	-47.3	-50.1	14.3	7.00e-07	0	44	0	0	65	5167
2026-01-07 23:48:16.56	196.15	11.84	-47.5	-50.3	14.1	2.20e-06	0	44	0	0	65	5319
2026-01-07 23:48:19.86	196.18	11.53	-47.7	-50.7	13.7	6.80e-06	0	44	0	0	66	5255
2026-01-07 23:48:22.58	196.20	11.28	-47.9	-51.0	13.4	1.29e-05	0	44	0	0	66	5447
2026-01-07 23:48:25.89	196.23	10.98	-48.0	-51.3	13.0	3.50e-05	0	44	0	0	66	5612
2026-01-07 23:48:28.61	196.26	10.73	-48.0	-51.4	13.0	3.96e-05	0	43	0	0	66	5673
2026-01-07 23:48:31.91	196.29	10.44	-48.1	-51.6	12.7	6.79e-05	0	44	0	0	66	5804
2026-01-07 23:48:34.64	196.31	10.20	-48.2	-51.7	12.6	9.61e-05	0	44	0	0	67	5561
2026-01-07 23:48:37.94	196.34	9.91	-48.3	-51.9	12.4	1.79e-04	0	44	0	0	67	5699
2026-01-07 23:48:40.66	196.36	9.67	-48.6	-52.4	11.9	3.65e-04	0	44	0	0	67	5998
2026-01-07 23:48:43.96	196.39	9.39	-48.9	-52.9	11.5	7.99e-04	0	44	0	0	68	6039
2026-01-07 23:48:46.69	196.41	9.16	-49.1	-53.3	11.0	1.68e-03	0	44	0	0	68	6310
2026-01-07 23:48:49.99	196.44	8.88	-52.3	-65.6	3.8	1.49e+00	0	44	104	0	75	17308
2026-01-07 23:48:52.72	196.46	8.66	-53.1	-66.1	3.8	1.49e+00	0	44	104	0	76	17282
2026-01-07 23:48:56.02	196.48	8.39	-53.0	-66.1	3.8	1.49e+00	0	44	104	0	77	16487
2026-01-07 23:48:58.75	196.50	8.16	-53.3	-66.2	3.8	1.49e+00	0	44	104	0	77	16683
2026-01-07 23:49:02.05	196.53	7.90	-53.2	-66.2	3.8	1.49e+00	0	44	104	0	77	16629
2026-01-07 23:49:04.77	196.55	7.68	-53.2	-66.2	3.8	1.49e+00	0	44	104	0	77	16623
2026-01-07 23:49:08.07	196.58	7.42	-53.1	-66.2	3.8	1.49e+00	0	43	104	0	77	16590
2026-01-07 23:49:10.80	196.60	7.20	-53.1	-66.2	3.8	1.49e+00	0	44	104	0	77	16558
2026-01-07 23:49:14.10	196.62	6.95	-52.7	-66.1	3.8	1.49e+00	0	44	104	0	77	16499
2026-01-07 23:49:16.82	196.64	6.74	-52.7	-66.1	3.8	1.49e+00	0	44	104	0	77	16471
2026-01-07 23:49:20.12	196.66	6.49	-52.7	-66.1	3.8	1.49e+00	0	44	104	0	77	16491
2026-01-07 23:49:22.85	196.68	6.28	-52.7	-66.1	3.8	1.49e+00	0	44	104	0	77	16445
2026-01-07 23:49:26.15	196.71	6.03	-52.7	-66.1	3.8	1.49e+00	0	44	104	0	77	16472
2026-01-07 23:49:28.88	196.73	5.83	-52.7	-66.1	3.8	1.49e+00	0	44	104	0	77	16443
2026-01-07 23:49:32.18	196.75	5.59	-52.7	-66.1	3.8	1.49e+00	0	44	104	0	77	16500
2026-01-07 23:49:34.91	196.77	5.39	-52.7	-66.1	3.8	1.49e+00	0	44	104	0	77	16468
2026-01-07 23:49:38.21	196.79	5.15	-52.7	-66.1	3.8	1.49e+00	0	44	104	0	77	16477
2026-01-07 23:49:40.93	196.81	4.95	-52.7	-66.1	3.8	1.49e+00	0	44	104	0	77	16436

#Closed at: 2026-01-07 23:49:42
#Recorded file [0 MB]: D:/Data/31040_260108_023641.dat