passes_logs/2026/01/07/T1/T1__20260107_125652_FENGYUN_3D_rec.log

#Pass ID: 20260107_125652_FENGYUN 3D
#Satellite: FENGYUN 3D
#Configuration: FENGYUN 3D
#almurnet v.1.7.20251203
#Start time: 2026-01-07 12:56:52

#Version: 2.0.20230620
#Station: T1
#Location: 37.570604 lon 55.790049 lat
#TLE: 1 43010U 17072A   26006.26440730  .00000376  00000+0  19957-3 0  9994
#TLE: 2 43010  98.9925 337.9455 0002045 123.9195 236.2175 14.19693586422016

#Time	Az	El	Level	Level2	SNR	BER	BlckErr	Temp	State	Recorded	gain1	gain2
2026-01-07 12:56:52.33	191.83	5.03	-51.5	-64.5	3.8	8.47e-01	0	38	0	0	75	15318
2026-01-07 12:56:55.34	192.00	5.23	-51.4	-64.3	3.8	8.46e-01	0	38	104	0	73	16884
2026-01-07 12:56:58.35	192.17	5.43	-51.4	-63.9	3.8	8.47e-01	0	38	104	0	73	16118
2026-01-07 12:57:01.37	192.35	5.63	-51.3	-63.4	3.8	8.46e-01	0	39	104	0	73	15145
2026-01-07 12:57:04.38	192.53	5.84	-51.3	-63.4	3.8	8.47e-01	0	39	104	0	73	15127
2026-01-07 12:57:07.39	192.71	6.05	-51.3	-63.6	3.8	8.47e-01	0	39	104	0	73	15412
2026-01-07 12:57:10.41	192.90	6.26	-51.3	-63.1	3.8	8.45e-01	0	39	104	0	73	14604
2026-01-07 12:57:13.42	193.08	6.47	-51.3	-62.8	3.8	8.46e-01	0	39	104	0	73	14134
2026-01-07 12:57:16.43	193.27	6.68	-51.3	-63.4	3.8	8.47e-01	0	39	104	0	73	15169
2026-01-07 12:57:19.45	193.46	6.89	-51.3	-63.6	3.8	8.47e-01	0	39	104	0	73	15501
2026-01-07 12:57:22.46	193.66	7.11	-51.2	-61.8	3.9	8.45e-01	0	39	104	0	73	12616
2026-01-07 12:57:25.47	193.86	7.32	-51.2	-62.8	3.8	8.45e-01	0	39	104	0	73	14139
2026-01-07 12:57:28.49	194.06	7.54	-51.0	-60.9	4.2	8.46e-01	0	39	104	0	73	11319
2026-01-07 12:57:31.50	194.26	7.76	-47.5	-51.1	11.9	3.59e-03	0	40	0	12582912	67	5201
2026-01-07 12:57:34.52	194.47	7.98	-44.3	-46.7	16.5	0.00e+00	0	40	0	29360128	60	4665
2026-01-07 12:57:37.53	194.67	8.20	-43.0	-45.2	17.8	0.00e+00	0	39	0	46137344	57	4663
2026-01-07 12:57:40.54	194.89	8.43	-43.8	-46.1	16.9	0.00e+00	0	40	0	62914560	58	4903
2026-01-07 12:57:43.55	195.10	8.65	-46.2	-49.2	14.0	2.20e-06	0	40	0	79691776	63	5231
2026-01-07 12:57:46.57	195.32	8.88	-48.9	-53.7	9.5	9.78e-03	0	40	0	96468992	68	6574
2026-01-07 12:57:49.58	195.54	9.11	-49.1	-54.0	9.1	2.66e-01	0	40	0	113246208	70	6098
2026-01-07 12:57:52.59	195.77	9.34	-48.8	-53.3	9.8	2.70e-01	0	40	0	125829120	69	5985
2026-01-07 12:57:55.59	196.00	9.57	-46.7	-49.9	13.3	1.51e-04	0	40	0	137363456	65	5077
2026-01-07 12:57:58.60	196.23	9.81	-43.1	-45.2	17.8	0.00e+00	0	40	0	154140672	58	4436
2026-01-07 12:58:01.61	196.46	10.04	-42.7	-44.7	18.3	0.00e+00	0	40	0	170917888	57	4434
2026-01-07 12:58:04.62	196.70	10.28	-42.6	-44.6	18.4	0.00e+00	0	40	0	188743680	57	4385
2026-01-07 12:58:07.62	196.95	10.52	-42.7	-44.8	18.3	0.00e+00	0	40	0	205520896	57	4478
2026-01-07 12:58:10.63	197.19	10.76	-42.7	-44.9	18.2	0.00e+00	0	40	0	222298112	57	4507
2026-01-07 12:58:13.64	197.44	11.01	-42.7	-44.8	18.3	0.00e+00	0	40	0	239075328	57	4446
2026-01-07 12:58:16.65	197.70	11.25	-42.5	-44.5	18.5	0.00e+00	0	40	0	255852544	56	4591
2026-01-07 12:58:19.66	197.96	11.50	-42.3	-44.4	18.7	0.00e+00	0	40	0	272629760	56	4503
2026-01-07 12:58:22.66	198.22	11.75	-42.4	-44.4	18.7	0.00e+00	0	40	0	289406976	56	4534
2026-01-07 12:58:25.67	198.49	12.00	-41.7	-43.7	19.2	0.00e+00	0	40	0	307232768	55	4423
2026-01-07 12:58:28.68	198.76	12.26	-41.7	-43.6	19.3	0.00e+00	0	40	0	324009984	55	4368
2026-01-07 12:58:31.69	199.04	12.51	-41.6	-43.6	19.3	0.00e+00	0	40	0	340787200	55	4357
2026-01-07 12:58:34.70	199.32	12.77	-41.6	-43.5	19.4	0.00e+00	0	40	0	357564416	55	4330
2026-01-07 12:58:37.70	199.60	13.03	-41.7	-43.7	19.3	0.00e+00	0	40	0	374341632	55	4412
2026-01-07 12:58:40.71	199.89	13.29	-41.7	-43.6	19.3	0.00e+00	0	40	0	391118848	55	4388
2026-01-07 12:58:43.72	200.19	13.56	-41.5	-43.4	19.5	0.00e+00	0	40	0	407896064	55	4278
2026-01-07 12:58:46.72	200.49	13.82	-41.4	-43.3	19.6	0.00e+00	0	40	0	424673280	54	4475
2026-01-07 12:58:49.73	200.80	14.09	-41.4	-43.3	19.7	0.00e+00	0	40	0	442499072	54	4453
2026-01-07 12:58:52.74	201.11	14.36	-41.5	-43.4	19.5	0.00e+00	0	40	0	459276288	54	4538
2026-01-07 12:58:55.75	201.43	14.64	-41.5	-43.5	19.5	0.00e+00	0	40	0	476053504	54	4563
2026-01-07 12:58:58.76	201.75	14.91	-41.3	-43.2	19.7	0.00e+00	0	40	0	492830720	54	4439
2026-01-07 12:59:01.77	202.08	15.19	-41.1	-43.0	19.9	0.00e+00	0	40	0	509607936	54	4329
2026-01-07 12:59:04.78	202.42	15.47	-41.2	-43.1	19.9	0.00e+00	0	40	0	526385152	54	4357
2026-01-07 12:59:07.79	202.76	15.76	-41.0	-42.9	20.0	0.00e+00	0	41	0	544210944	54	4275
2026-01-07 12:59:10.80	203.11	16.04	-40.9	-42.7	20.2	0.00e+00	0	40	0	560988160	53	4430
2026-01-07 12:59:13.81	203.46	16.33	-40.8	-42.6	20.3	0.00e+00	0	40	0	577765376	53	4374
2026-01-07 12:59:16.82	203.82	16.62	-40.6	-42.4	20.4	0.00e+00	0	40	0	594542592	53	4273
2026-01-07 12:59:19.82	204.19	16.91	-40.6	-42.5	20.4	0.00e+00	0	40	0	611319808	53	4300
2026-01-07 12:59:22.83	204.56	17.21	-40.7	-42.6	20.4	0.00e+00	0	40	0	628097024	53	4342
2026-01-07 12:59:25.84	204.94	17.50	-40.8	-42.6	20.3	0.00e+00	0	40	0	644874240	53	4391
2026-01-07 12:59:28.85	205.33	17.80	-40.6	-42.4	20.4	0.00e+00	0	40	0	662700032	53	4287
2026-01-07 12:59:31.85	205.73	18.10	-40.4	-42.3	20.6	0.00e+00	0	40	0	679477248	52	4457
2026-01-07 12:59:34.86	206.13	18.41	-40.4	-42.2	20.7	0.00e+00	0	41	0	696254464	52	4403
2026-01-07 12:59:37.87	206.55	18.72	-40.3	-42.1	20.8	0.00e+00	0	40	0	713031680	52	4370
2026-01-07 12:59:40.88	206.97	19.02	-40.1	-41.9	20.9	0.00e+00	0	40	0	729808896	52	4285
2026-01-07 12:59:43.89	207.40	19.34	-40.2	-42.0	20.8	0.00e+00	0	41	0	746586112	52	4328
2026-01-07 12:59:46.90	207.83	19.65	-40.2	-42.0	20.9	0.00e+00	0	41	0	763363328	52	4303
2026-01-07 12:59:49.91	208.28	19.97	-39.9	-41.7	21.2	0.00e+00	0	41	0	780140544	51	4423
2026-01-07 12:59:52.92	208.74	20.29	-40.0	-41.8	21.1	0.00e+00	0	41	0	797966336	51	4475
2026-01-07 12:59:55.92	209.20	20.61	-40.0	-41.8	21.2	0.00e+00	0	41	0	814743552	51	4448
2026-01-07 12:59:58.93	209.68	20.93	-39.8	-41.6	21.2	0.00e+00	0	40	0	831520768	51	4383
2026-01-07 13:00:01.93	210.16	21.25	-39.8	-41.6	21.3	0.00e+00	0	41	0	848297984	51	4369
2026-01-07 13:00:04.95	210.65	21.58	-39.9	-41.6	21.2	0.00e+00	0	41	0	865075200	51	4386
2026-01-07 13:00:07.96	211.16	21.91	-39.9	-41.7	21.2	0.00e+00	0	40	0	881852416	51	4427
2026-01-07 13:00:10.96	211.67	22.24	-39.8	-41.6	21.3	0.00e+00	0	41	0	898629632	51	4377
2026-01-07 13:00:13.97	212.20	22.58	-39.5	-41.3	21.5	0.00e+00	0	40	0	915406848	51	4229
2026-01-07 13:00:16.98	212.74	22.91	-39.4	-41.2	21.7	0.00e+00	0	41	0	933232640	50	4395
2026-01-07 13:00:19.99	213.29	23.25	-39.2	-41.0	21.8	0.00e+00	0	40	0	950009856	50	4305
2026-01-07 13:00:23.00	213.85	23.59	-39.2	-40.9	21.9	0.00e+00	0	41	0	966787072	50	4270
2026-01-07 13:00:26.00	214.42	23.93	-39.3	-41.1	21.8	0.00e+00	0	41	0	983564288	50	4346
2026-01-07 13:00:29.01	215.00	24.27	-39.3	-41.1	21.7	0.00e+00	0	40	0	1000341504	50	4361
2026-01-07 13:00:32.02	215.60	24.61	-39.2	-41.0	21.9	0.00e+00	0	41	0	1017118720	50	4311
2026-01-07 13:00:35.03	216.21	24.96	-39.3	-41.0	21.8	0.00e+00	0	41	0	1033895936	50	4337
2026-01-07 13:00:38.04	216.83	25.31	-39.2	-41.0	21.8	0.00e+00	0	41	0	1051721728	50	4308
2026-01-07 13:00:41.04	217.47	25.65	-39.3	-41.0	21.8	0.00e+00	0	41	0	1068498944	50	4324
2026-01-07 13:00:44.05	218.12	26.00	-39.1	-40.8	22.0	0.00e+00	0	41	0	1085276160	50	4228
2026-01-07 13:00:47.06	218.79	26.35	-38.9	-40.6	22.1	0.00e+00	0	41	0	1102053376	49	4383
2026-01-07 13:00:50.07	219.46	26.70	-39.0	-40.8	22.0	0.00e+00	0	41	0	1118830592	49	4460
2026-01-07 13:00:53.08	220.16	27.05	-38.8	-40.6	22.2	0.00e+00	0	41	0	1135607808	49	4355
2026-01-07 13:00:56.09	220.87	27.39	-38.7	-40.4	22.3	0.00e+00	0	41	0	1153433600	49	4289
2026-01-07 13:00:59.10	221.59	27.74	-38.8	-40.5	22.2	0.00e+00	0	41	0	1170210816	49	4320
2026-01-07 13:01:02.11	222.33	28.09	-38.7	-40.4	22.3	0.00e+00	0	41	0	1186988032	49	4261
2026-01-07 13:01:05.12	223.09	28.44	-38.8	-40.6	22.2	0.00e+00	0	41	0	1203765248	49	4342
2026-01-07 13:01:08.13	223.86	28.78	-38.7	-40.5	22.3	0.00e+00	0	41	0	1220542464	49	4297
2026-01-07 13:01:11.14	224.65	29.13	-38.6	-40.3	22.3	0.00e+00	0	41	0	1237319680	49	4237
2026-01-07 13:01:14.14	225.45	29.47	-38.6	-40.4	22.4	0.00e+00	0	41	0	1254096896	49	4247
2026-01-07 13:01:17.16	226.28	29.81	-38.5	-40.2	22.5	0.00e+00	0	41	0	1271922688	49	4151
2026-01-07 13:01:20.16	227.11	30.15	-38.3	-40.0	22.7	0.00e+00	0	41	0	1288699904	48	4325
2026-01-07 13:01:23.17	227.97	30.49	-38.4	-40.2	22.5	0.00e+00	0	40	0	1305477120	48	4407
2026-01-07 13:01:26.18	228.85	30.82	-38.5	-40.2	22.5	0.00e+00	0	40	0	1322254336	48	4413
2026-01-07 13:01:29.18	229.73	31.15	-38.7	-40.5	22.2	0.00e+00	0	40	0	1339031552	48	4551
2026-01-07 13:01:32.19	230.64	31.47	-38.5	-40.2	22.5	0.00e+00	0	40	0	1355808768	48	4415
2026-01-07 13:01:35.20	231.57	31.79	-38.5	-40.3	22.4	0.00e+00	0	41	0	1372585984	48	4444
2026-01-07 13:01:38.21	232.52	32.11	-38.6	-40.3	22.3	0.00e+00	0	40	0	1389363200	48	4465
2026-01-07 13:01:41.21	233.48	32.42	-38.5	-40.2	22.4	0.00e+00	0	41	0	1407188992	48	4422
2026-01-07 13:01:44.22	234.46	32.72	-38.4	-40.1	22.6	0.00e+00	0	41	0	1423966208	48	4371
2026-01-07 13:01:47.23	235.46	33.02	-38.5	-40.2	22.5	0.00e+00	0	40	0	1440743424	48	4415
2026-01-07 13:01:50.24	236.48	33.31	-38.6	-40.4	22.3	0.00e+00	0	41	0	1457520640	48	4497
2026-01-07 13:01:53.25	237.52	33.60	-38.4	-40.1	22.6	0.00e+00	0	41	0	1474297856	48	4357
2026-01-07 13:01:56.26	238.57	33.87	-38.6	-40.3	22.4	0.00e+00	0	41	0	1491075072	48	4463
2026-01-07 13:01:59.27	239.64	34.14	-38.3	-40.1	22.5	0.00e+00	0	41	0	1507852288	48	4343
2026-01-07 13:02:02.27	240.73	34.40	-38.3	-40.0	22.6	0.00e+00	0	41	0	1524629504	48	4312
2026-01-07 13:02:05.28	241.83	34.65	-38.5	-40.2	22.4	0.00e+00	0	41	0	1542455296	48	4411
2026-01-07 13:02:08.29	242.95	34.89	-38.2	-39.9	22.7	0.00e+00	0	41	0	1559232512	48	4265
2026-01-07 13:02:11.30	244.09	35.12	-38.2	-39.9	22.8	0.00e+00	0	41	0	1576009728	48	4258
2026-01-07 13:02:14.31	245.24	35.34	-38.4	-40.2	22.5	0.00e+00	0	40	0	1592786944	48	4407
2026-01-07 13:02:17.32	246.41	35.54	-38.1	-39.8	22.9	0.00e+00	0	41	0	1609564160	48	4203
2026-01-07 13:02:20.33	247.59	35.74	-38.1	-39.9	22.8	0.00e+00	0	41	0	1626341376	48	4252
2026-01-07 13:02:23.34	248.79	35.92	-38.0	-39.7	22.9	0.00e+00	0	40	0	1644167168	48	4170
2026-01-07 13:02:26.34	249.99	36.09	-38.3	-40.0	22.6	0.00e+00	0	41	0	1660944384	48	4332
2026-01-07 13:02:29.35	251.21	36.25	-38.2	-39.9	22.7	0.00e+00	0	40	0	1677721600	48	4272
2026-01-07 13:02:32.35	252.44	36.39	-38.0	-39.7	22.9	0.00e+00	0	40	0	1694498816	48	4183
2026-01-07 13:02:35.36	253.68	36.52	-38.3	-40.0	22.6	0.00e+00	0	41	0	1711276032	48	4334
2026-01-07 13:02:38.37	254.93	36.63	-38.1	-39.8	22.9	0.00e+00	0	41	0	1728053248	48	4199
2026-01-07 13:02:41.38	256.19	36.73	-37.8	-39.5	22.7	0.00e+00	0	40	0	1744830464	47	4338
2026-01-07 13:02:44.39	257.45	36.81	-38.0	-39.7	22.6	0.00e+00	0	40	0	1762656256	47	4423
2026-01-07 13:02:47.40	258.72	36.88	-37.9	-39.6	22.6	0.00e+00	0	41	0	1779433472	47	4388
2026-01-07 13:02:50.40	259.99	36.93	-38.1	-39.8	22.5	0.00e+00	0	40	0	1796210688	47	4476
2026-01-07 13:02:53.41	261.27	36.97	-38.1	-39.9	22.4	0.00e+00	0	40	0	1812987904	47	4517
2026-01-07 13:02:56.42	262.55	36.99	-38.0	-39.7	23.0	0.00e+00	0	41	0	1829765120	47	4419
2026-01-07 13:02:59.43	263.84	37.00	-38.0	-39.7	23.0	0.00e+00	0	41	0	1846542336	47	4420
2026-01-07 13:03:02.44	265.12	36.99	-38.1	-39.8	23.0	0.00e+00	0	41	0	1863319552	47	4457
2026-01-07 13:03:05.44	266.39	36.96	-38.0	-39.6	23.0	0.00e+00	0	40	0	1880096768	47	4376
2026-01-07 13:03:08.45	267.67	36.92	-38.2	-39.9	22.9	0.00e+00	0	41	0	1897922560	47	4519
2026-01-07 13:03:11.46	268.94	36.87	-38.2	-39.8	22.9	0.00e+00	0	40	0	1914699776	47	4475
2026-01-07 13:03:14.47	270.21	36.79	-38.1	-39.8	23.0	0.00e+00	0	40	0	1931476992	47	4457
2026-01-07 13:03:17.48	271.47	36.71	-37.9	-39.5	23.2	0.00e+00	0	40	0	1948254208	47	4307
2026-01-07 13:03:20.49	272.73	36.61	-38.2	-39.8	22.9	0.00e+00	0	41	0	1965031424	47	4490
2026-01-07 13:03:23.50	273.98	36.49	-38.0	-39.7	23.0	0.00e+00	0	40	0	1981808640	47	4392
2026-01-07 13:03:26.51	275.21	36.36	-38.1	-39.7	23.0	0.00e+00	0	41	0	1998585856	47	4421
2026-01-07 13:03:29.51	276.44	36.21	-38.0	-39.6	23.1	0.00e+00	0	41	0	2015363072	47	4347
2026-01-07 13:03:32.52	277.65	36.05	-38.0	-39.7	23.1	0.00e+00	0	41	0	2033188864	47	4396
2026-01-07 13:03:35.53	278.85	35.88	-38.1	-39.7	23.0	0.00e+00	0	40	0	2049966080	47	4422
2026-01-07 13:03:38.54	280.04	35.70	-38.4	-40.1	22.7	0.00e+00	0	40	0	2066743296	47	4610
2026-01-07 13:03:41.54	281.22	35.50	-38.1	-39.7	23.0	0.00e+00	0	40	0	2083520512	47	4411
2026-01-07 13:03:44.55	282.38	35.29	-38.1	-39.8	23.0	0.00e+00	0	40	0	2100297728	47	4446
2026-01-07 13:03:47.56	283.53	35.07	-38.4	-40.1	22.7	0.00e+00	0	40	0	2117074944	47	4604
2026-01-07 13:03:50.56	284.65	34.84	-38.2	-39.9	22.9	0.00e+00	0	40	0	2133852160	47	4518
2026-01-07 13:03:53.57	285.77	34.60	-38.3	-39.9	22.8	0.00e+00	0	40	0	2151677952	47	4542
2026-01-07 13:03:56.58	286.87	34.35	-38.2	-39.9	22.9	0.00e+00	0	40	0	2168455168	47	4506
2026-01-07 13:03:59.59	287.95	34.09	-38.6	-40.3	22.6	0.00e+00	0	40	0	2185232384	47	4706
2026-01-07 13:04:02.60	289.01	33.82	-38.7	-40.3	22.8	0.00e+00	0	40	0	2202009600	48	4482
2026-01-07 13:04:05.61	290.06	33.55	-38.6	-40.2	22.9	0.00e+00	0	40	0	2218786816	48	4439
2026-01-07 13:04:08.62	291.09	33.26	-38.6	-40.2	22.9	0.00e+00	0	40	0	2235564032	48	4440
2026-01-07 13:04:11.62	292.10	32.97	-38.7	-40.4	22.8	0.00e+00	0	41	0	2252341248	48	4498
2026-01-07 13:04:14.63	293.09	32.67	-38.8	-40.5	22.7	0.00e+00	0	40	0	2269118464	48	4556
2026-01-07 13:04:17.64	294.07	32.37	-38.9	-40.5	22.6	0.00e+00	0	40	0	2286944256	48	4592
2026-01-07 13:04:20.64	295.02	32.06	-38.8	-40.4	22.7	0.00e+00	0	41	0	2303721472	48	4530
2026-01-07 13:04:23.65	295.96	31.75	-38.9	-40.5	22.7	0.00e+00	0	40	0	2320498688	48	4585
2026-01-07 13:04:26.66	296.88	31.43	-38.7	-40.4	22.7	0.00e+00	0	40	0	2337275904	48	4512
2026-01-07 13:04:29.67	297.79	31.10	-38.5	-40.1	23.0	0.00e+00	0	41	0	2354053120	48	4381
2026-01-07 13:04:32.68	298.67	30.77	-38.9	-40.6	22.6	0.00e+00	0	40	0	2370830336	48	4605
2026-01-07 13:04:35.69	299.54	30.44	-38.7	-40.4	22.7	0.00e+00	0	40	0	2388656128	48	4516
2026-01-07 13:04:38.70	300.39	30.11	-38.8	-40.5	22.6	0.00e+00	0	40	0	2405433344	48	4585
2026-01-07 13:04:41.70	301.22	29.77	-38.8	-40.5	22.6	0.00e+00	0	40	0	2422210560	48	4580
2026-01-07 13:04:44.71	302.04	29.43	-38.8	-40.4	22.7	0.00e+00	0	41	0	2438987776	48	4537
2026-01-07 13:04:47.71	302.83	29.09	-38.9	-40.5	22.6	0.00e+00	0	40	0	2455764992	48	4596
2026-01-07 13:04:50.72	303.62	28.75	-39.0	-40.6	22.5	0.00e+00	0	40	0	2472542208	48	4639
2026-01-07 13:04:53.73	304.38	28.41	-39.2	-40.9	22.3	0.00e+00	0	40	0	2489319424	49	4514
2026-01-07 13:04:56.74	305.13	28.06	-39.0	-40.6	22.5	0.00e+00	0	40	0	2507145216	49	4385
2026-01-07 13:04:59.75	305.87	27.71	-38.8	-40.5	22.7	0.00e+00	0	40	0	2523922432	49	4303
2026-01-07 13:05:02.76	306.59	27.37	-39.2	-40.9	22.3	0.00e+00	0	40	0	2540699648	49	4527
2026-01-07 13:05:05.77	307.29	27.02	-39.3	-41.0	22.2	0.00e+00	0	40	0	2557476864	49	4588
2026-01-07 13:05:08.78	307.98	26.68	-39.3	-41.0	22.2	0.00e+00	0	41	0	2574254080	49	4558
2026-01-07 13:05:11.78	308.65	26.33	-39.2	-40.8	22.3	0.00e+00	0	40	0	2591031296	49	4485
2026-01-07 13:05:14.77	309.31	25.99	-39.1	-40.8	22.3	0.00e+00	0	40	0	2607808512	49	4474
2026-01-07 13:05:17.76	309.95	25.64	-38.9	-40.6	22.5	0.00e+00	0	40	0	2624585728	49	4374
2026-01-07 13:05:20.76	310.58	25.30	-38.9	-40.6	22.5	0.00e+00	0	40	0	2641362944	49	4358
2026-01-07 13:05:23.74	311.20	24.96	-39.1	-40.8	22.4	0.00e+00	0	40	0	2658140160	49	4452
2026-01-07 13:05:26.73	311.80	24.62	-39.2	-40.9	22.2	0.00e+00	0	40	0	2674917376	49	4523
2026-01-07 13:05:29.72	312.39	24.28	-39.4	-41.2	22.0	0.00e+00	0	40	0	2691694592	49	4663
2026-01-07 13:05:32.72	312.97	23.94	-39.4	-41.1	22.1	0.00e+00	0	40	0	2708471808	49	4609
2026-01-07 13:05:35.71	313.54	23.61	-39.5	-41.1	22.0	0.00e+00	0	40	0	2725249024	49	4645
2026-01-07 13:05:38.70	314.09	23.27	-39.7	-41.4	21.8	0.00e+00	0	40	0	2743074816	50	4523
2026-01-07 13:05:41.68	314.63	22.94	-39.8	-41.6	21.7	0.00e+00	0	40	0	2758803456	50	4605
2026-01-07 13:05:44.67	315.16	22.61	-39.7	-41.4	21.8	0.00e+00	0	40	0	2775580672	50	4542
2026-01-07 13:05:47.66	315.68	22.28	-39.7	-41.4	21.8	0.00e+00	0	40	0	2793406464	50	4504
2026-01-07 13:05:50.65	316.19	21.95	-39.7	-41.4	21.8	0.00e+00	0	40	0	2810183680	50	4523
2026-01-07 13:05:53.64	316.69	21.63	-39.9	-41.6	21.7	0.00e+00	0	40	0	2826960896	50	4608
2026-01-07 13:05:56.64	317.18	21.31	-40.1	-41.8	21.4	0.00e+00	0	40	0	2843738112	50	4740
2026-01-07 13:05:59.64	317.67	20.98	-40.1	-41.9	21.4	0.00e+00	0	40	0	2860515328	51	4510
2026-01-07 13:06:02.63	318.14	20.66	-40.0	-41.8	21.5	0.00e+00	0	40	0	2877292544	51	4448
2026-01-07 13:06:05.62	318.60	20.35	-40.1	-41.8	21.4	0.00e+00	0	40	0	2894069760	51	4464
2026-01-07 13:06:08.60	319.05	20.04	-40.3	-42.0	21.2	0.00e+00	0	40	0	2910846976	51	4594
2026-01-07 13:06:11.59	319.49	19.72	-40.5	-42.3	21.0	0.00e+00	0	40	0	2927624192	51	4732
2026-01-07 13:06:14.57	319.92	19.41	-40.6	-42.4	20.9	0.00e+00	0	41	0	2944401408	51	4772
2026-01-07 13:06:17.57	320.35	19.11	-40.6	-42.4	20.8	0.00e+00	0	40	0	2961178624	52	4536
2026-01-07 13:06:20.56	320.77	18.80	-40.7	-42.5	20.7	0.00e+00	0	40	0	2977955840	52	4592
2026-01-07 13:06:23.55	321.18	18.50	-40.9	-42.7	20.6	0.00e+00	0	40	0	2994733056	52	4653
2026-01-07 13:06:26.55	321.58	18.20	-41.0	-42.8	20.4	0.00e+00	0	40	0	3011510272	52	4752
2026-01-07 13:06:29.53	321.97	17.90	-40.9	-42.7	20.5	0.00e+00	0	40	0	3028287488	52	4697
2026-01-07 13:06:32.52	322.36	17.60	-40.9	-42.7	20.5	0.00e+00	0	41	0	3045064704	52	4699
2026-01-07 13:06:35.51	322.74	17.31	-40.9	-42.7	20.5	0.00e+00	0	40	0	3061841920	52	4702
2026-01-07 13:06:38.50	323.11	17.02	-40.8	-42.7	20.5	0.00e+00	0	40	0	3078619136	52	4660
2026-01-07 13:06:41.49	323.48	16.73	-40.9	-42.7	20.5	0.00e+00	0	40	0	3095396352	52	4670
2026-01-07 13:06:44.48	323.84	16.45	-41.0	-42.8	20.4	0.00e+00	0	40	0	3112173568	52	4723
2026-01-07 13:06:47.47	324.19	16.16	-41.0	-42.8	20.4	0.00e+00	0	40	0	3128950784	52	4720
2026-01-07 13:06:50.45	324.54	15.88	-41.0	-42.8	20.4	0.00e+00	0	40	0	3145728000	52	4737
2026-01-07 13:06:53.45	324.88	15.60	-41.0	-42.9	20.3	0.00e+00	0	41	0	3163553792	52	4788
2026-01-07 13:06:56.44	325.21	15.32	-41.2	-43.1	20.1	0.00e+00	0	40	0	3180331008	53	4623
2026-01-07 13:06:59.44	325.54	15.05	-41.4	-43.3	19.9	0.00e+00	0	40	0	3197108224	53	4743
2026-01-07 13:07:02.43	325.86	14.78	-41.4	-43.3	19.9	0.00e+00	0	40	0	3213885440	53	4721
2026-01-07 13:07:05.41	326.18	14.51	-41.3	-43.2	19.9	0.00e+00	0	40	0	3230662656	53	4691
2026-01-07 13:07:08.41	326.49	14.24	-41.4	-43.3	19.9	0.00e+00	0	40	0	3247439872	53	4706
2026-01-07 13:07:11.40	326.80	13.97	-41.5	-43.4	19.7	0.00e+00	0	40	0	3264217088	53	4813
2026-01-07 13:07:14.40	327.10	13.71	-41.7	-43.7	19.5	0.00e+00	0	40	0	3280994304	54	4661
2026-01-07 13:07:17.40	327.40	13.45	-41.9	-43.8	19.4	0.00e+00	0	40	0	3297771520	54	4738
2026-01-07 13:07:20.39	327.69	13.19	-42.0	-44.0	19.2	0.00e+00	0	40	0	3314548736	54	4820
2026-01-07 13:07:23.38	327.98	12.93	-42.1	-44.0	19.2	0.00e+00	0	41	0	3331325952	54	4830
2026-01-07 13:07:26.37	328.26	12.67	-42.0	-43.9	19.3	0.00e+00	0	40	0	3348103168	54	4798
2026-01-07 13:07:29.37	328.53	12.42	-42.1	-44.0	19.2	0.00e+00	0	41	0	3364880384	54	4832
2026-01-07 13:07:32.35	328.81	12.17	-42.2	-44.1	19.0	0.00e+00	0	40	0	3381657600	55	4648
2026-01-07 13:07:35.34	329.07	11.92	-42.3	-44.3	18.9	0.00e+00	0	40	0	3398434816	55	4729
2026-01-07 13:07:38.34	329.34	11.67	-42.4	-44.4	18.8	0.00e+00	0	40	0	3415212032	55	4791
2026-01-07 13:07:41.34	329.60	11.43	-42.5	-44.5	18.7	0.00e+00	0	40	0	3431989248	55	4823
2026-01-07 13:07:44.33	329.85	11.19	-42.6	-44.6	18.6	0.00e+00	0	40	0	3448766464	55	4907
2026-01-07 13:07:47.32	330.11	10.94	-42.5	-44.5	18.6	0.00e+00	0	40	0	3465543680	55	4859
2026-01-07 13:07:50.31	330.35	10.71	-42.6	-44.5	18.6	0.00e+00	0	40	0	3483369472	55	4855
2026-01-07 13:07:53.30	330.60	10.47	-42.5	-44.5	18.7	0.00e+00	0	40	0	3500146688	55	4815
2026-01-07 13:07:56.29	330.84	10.23	-42.5	-44.5	18.6	0.00e+00	0	40	0	3516923904	55	4839
2026-01-07 13:07:59.29	331.08	10.00	-42.6	-44.6	18.5	0.00e+00	0	40	0	3533701120	55	4876
2026-01-07 13:08:02.27	331.31	9.77	-42.6	-44.7	18.4	0.00e+00	0	40	0	3550478336	55	4937
2026-01-07 13:08:05.27	331.54	9.54	-42.8	-44.9	18.3	0.00e+00	0	40	0	3567255552	56	4786
2026-01-07 13:08:08.26	331.77	9.31	-42.9	-45.0	18.2	0.00e+00	0	40	0	3584032768	56	4833
2026-01-07 13:08:11.26	331.99	9.08	-43.0	-45.1	18.1	0.00e+00	0	40	0	3600809984	56	4893
2026-01-07 13:08:14.25	332.21	8.86	-52.2	-64.7	3.8	8.46e-01	0	40	104	3610247168	75	15652
2026-01-07 13:08:17.24	332.43	8.63	-52.5	-65.0	3.8	8.46e-01	0	40	104	3610247168	75	16296
2026-01-07 13:08:20.23	332.64	8.41	-52.4	-65.2	3.8	8.47e-01	0	41	104	3610247168	75	16558
2026-01-07 13:08:23.22	332.85	8.19	-52.9	-65.3	3.8	8.48e-01	0	40	104	3610247168	76	15772
2026-01-07 13:08:26.20	333.06	7.97	-53.0	-65.3	3.8	8.47e-01	0	40	104	3610247168	76	15865
2026-01-07 13:08:29.20	333.26	7.76	-53.1	-65.3	3.8	8.47e-01	0	40	104	3610247168	76	15803
2026-01-07 13:08:32.18	333.46	7.54	-53.0	-65.3	3.8	8.47e-01	0	40	104	3610247168	76	15793
2026-01-07 13:08:35.18	333.66	7.33	-53.0	-65.3	3.8	8.48e-01	0	40	104	3610247168	76	15789
2026-01-07 13:08:38.17	333.86	7.12	-52.8	-65.2	3.8	8.47e-01	0	41	104	3610247168	76	15760
2026-01-07 13:08:41.15	334.05	6.91	-52.8	-65.2	3.8	8.47e-01	0	41	104	3610247168	76	15730
2026-01-07 13:08:44.14	334.24	6.70	-52.8	-65.2	3.8	8.48e-01	0	40	104	3610247168	76	15689
2026-01-07 13:08:47.14	334.43	6.49	-52.8	-65.2	3.8	8.46e-01	0	40	104	3610247168	76	15703
2026-01-07 13:08:50.13	334.62	6.28	-52.8	-65.2	3.8	8.47e-01	0	41	104	3610247168	76	15729
2026-01-07 13:08:53.12	334.80	6.08	-52.8	-65.2	3.8	8.46e-01	0	40	104	3610247168	76	15699
2026-01-07 13:08:56.12	334.99	5.87	-52.8	-65.2	3.8	8.47e-01	0	40	104	3610247168	76	15703
2026-01-07 13:08:59.11	335.17	5.67	-52.8	-65.2	3.8	8.47e-01	0	41	104	3610247168	76	15688
2026-01-07 13:09:02.10	335.34	5.47	-52.8	-65.2	3.8	8.47e-01	0	41	104	3610247168	76	15700
2026-01-07 13:09:05.10	335.52	5.27	-52.8	-65.2	3.8	8.46e-01	0	41	104	3610247168	76	15661
2026-01-07 13:09:08.09	335.69	5.07	-52.8	-65.2	3.8	8.46e-01	0	41	104	3610247168	76	15661

#Closed at: 2026-01-07 13:09:11
#Recorded file [3610 MB]: D:/Data/31040_260107_155652.dat