passes_logs/2026/01/07/T1/T1__20260107_033749_FENGYUN_3G_rec.log

#Pass ID: 20260107_033749_FENGYUN 3G
#Satellite: FENGYUN 3G
#Configuration: FENGYUN 3G
#almurnet v.1.7.20251203
#Start time: 2026-01-07 03:37:49

#Version: 2.0.20230620
#Station: T1
#Location: 37.570604 lon 55.790049 lat
#TLE: 1 56232U 23055A   26005.65670112  .00041871  00000+0  66206-3 0  9997
#TLE: 2 56232  49.9942 104.1198 0004242 344.1257  15.9577 15.52986726154745

#Time	Az	El	Level	Level2	SNR	BER	BlckErr	Temp	State	Recorded	gain1	gain2
2026-01-07 03:37:49.52	256.58	5.10	-49.4	-68.3	3.8	8.47e-01	0	40	0	0	70	31563
2026-01-07 03:37:51.52	256.39	5.25	-49.4	-68.1	3.8	8.47e-01	0	40	104	0	70	30923
2026-01-07 03:37:53.53	256.21	5.40	-49.4	-68.3	3.8	8.46e-01	0	40	104	0	70	31502
2026-01-07 03:37:55.54	256.02	5.55	-49.4	-68.3	3.8	8.47e-01	0	40	104	0	70	31559
2026-01-07 03:37:57.54	255.82	5.70	-49.4	-68.3	3.8	8.46e-01	0	40	104	0	70	31480
2026-01-07 03:37:59.55	255.63	5.86	-49.4	-68.2	3.8	8.46e-01	0	40	104	0	70	31422
2026-01-07 03:38:01.56	255.43	6.02	-49.4	-68.3	3.8	8.47e-01	0	40	104	0	70	31527
2026-01-07 03:38:03.57	255.23	6.17	-49.4	-68.3	3.8	8.48e-01	0	40	104	0	70	31464
2026-01-07 03:38:05.58	255.02	6.33	-49.4	-68.1	3.8	8.46e-01	0	41	104	0	70	30951
2026-01-07 03:38:07.58	254.81	6.49	-49.4	-68.0	3.8	8.47e-01	0	41	104	0	70	30605
2026-01-07 03:38:09.59	254.60	6.65	-49.4	-68.1	3.8	8.47e-01	0	41	104	0	70	30868
2026-01-07 03:38:11.60	254.38	6.81	-49.4	-68.2	3.8	8.47e-01	0	41	104	0	70	31399
2026-01-07 03:38:13.60	254.17	6.97	-49.4	-68.2	3.8	8.47e-01	0	41	104	0	70	31405
2026-01-07 03:38:15.61	253.94	7.14	-49.4	-68.3	3.8	8.46e-01	0	41	104	0	70	31790
2026-01-07 03:38:17.62	253.72	7.30	-49.4	-68.5	3.8	8.46e-01	0	41	104	0	70	32240
2026-01-07 03:38:19.63	253.49	7.47	-49.4	-68.5	3.8	8.46e-01	0	41	104	0	70	32221
2026-01-07 03:38:21.64	253.26	7.64	-49.4	-68.2	3.8	8.48e-01	0	41	104	0	70	31288
2026-01-07 03:38:23.65	253.02	7.81	-49.3	-67.3	3.8	8.47e-01	0	41	104	0	70	28185
2026-01-07 03:38:25.66	252.78	7.98	-49.3	-66.6	3.9	8.47e-01	0	41	104	0	70	25910
2026-01-07 03:38:27.66	252.53	8.15	-49.4	-67.4	3.8	8.47e-01	0	41	104	0	70	28368
2026-01-07 03:38:29.67	252.28	8.33	-49.4	-68.4	3.8	8.46e-01	0	41	104	0	70	32078
2026-01-07 03:38:31.68	252.03	8.50	-49.4	-67.4	3.8	8.46e-01	0	41	104	0	70	28634
2026-01-07 03:38:33.69	251.77	8.68	-49.3	-65.4	4.1	8.45e-01	0	42	0	0	70	22713
2026-01-07 03:38:35.69	251.51	8.86	-49.1	-62.1	5.5	8.38e-01	0	41	0	0	70	15580
2026-01-07 03:38:37.70	251.25	9.04	-48.5	-57.2	9.9	1.04e-01	0	41	0	0	69	9380
2026-01-07 03:38:39.71	250.98	9.22	-47.5	-54.1	13.1	4.43e-03	0	42	0	0	67	7351
2026-01-07 03:38:41.76	250.70	9.40	-48.6	-61.8	6.2	2.35e-04	0	42	0	0	68	16864
2026-01-07 03:38:43.81	250.41	9.59	-45.4	-49.4	17.9	1.91e-01	0	42	0	0	62	5721
2026-01-07 03:38:46.02	250.09	9.80	-43.9	-47.2	20.2	0.00e+00	0	42	0	0	59	5240
2026-01-07 03:38:48.24	249.77	10.00	-43.3	-46.4	21.0	0.00e+00	0	42	0	0	58	5074
2026-01-07 03:38:50.24	249.48	10.19	-42.7	-45.5	21.8	0.00e+00	0	42	0	0	57	4869
2026-01-07 03:38:52.24	249.18	10.38	-41.5	-44.1	23.0	0.00e+00	0	42	0	0	55	4606
2026-01-07 03:38:54.24	248.87	10.57	-41.0	-43.3	23.8	0.00e+00	0	42	0	0	53	4724
2026-01-07 03:38:56.25	248.56	10.77	-40.9	-43.2	23.9	0.00e+00	0	42	0	0	53	4682
2026-01-07 03:38:58.26	248.24	10.96	-40.9	-43.2	23.8	0.00e+00	0	42	0	0	53	4700
2026-01-07 03:39:00.26	247.92	11.16	-41.3	-43.7	23.4	0.00e+00	0	42	0	0	53	4965
2026-01-07 03:39:02.28	247.59	11.36	-41.2	-43.6	23.5	0.00e+00	0	42	0	0	53	4892
2026-01-07 03:39:04.28	247.25	11.56	-40.7	-43.1	24.0	0.00e+00	0	42	0	0	53	4601
2026-01-07 03:39:06.29	246.91	11.76	-40.2	-42.4	24.6	0.00e+00	0	42	0	0	52	4515
2026-01-07 03:39:08.29	246.56	11.96	-40.4	-42.6	24.4	0.00e+00	0	42	0	0	52	4627
2026-01-07 03:39:10.30	246.21	12.17	-40.2	-42.4	24.5	0.00e+00	0	42	0	0	52	4521
2026-01-07 03:39:12.31	245.84	12.38	-40.3	-42.6	24.3	0.00e+00	0	42	0	0	52	4606
2026-01-07 03:39:14.31	245.48	12.59	-40.3	-42.6	24.4	0.00e+00	0	42	0	0	52	4629
2026-01-07 03:39:16.32	245.10	12.80	-40.1	-42.4	24.7	0.00e+00	0	42	0	0	52	4501
2026-01-07 03:39:18.32	244.72	13.01	-40.4	-42.6	24.6	0.00e+00	0	42	0	0	51	4892
2026-01-07 03:39:20.32	244.33	13.22	-40.5	-42.7	24.5	0.00e+00	0	42	0	0	51	4979
2026-01-07 03:39:22.33	243.94	13.44	-40.6	-42.9	24.2	0.00e+00	0	42	0	0	52	4765
2026-01-07 03:39:24.33	243.53	13.65	-40.2	-42.4	24.6	0.00e+00	0	42	0	0	52	4521
2026-01-07 03:39:26.33	243.12	13.87	-39.9	-42.0	25.1	0.00e+00	0	42	0	0	51	4563
2026-01-07 03:39:28.33	242.70	14.09	-39.6	-41.7	25.3	0.00e+00	0	42	0	0	51	4437
2026-01-07 03:39:30.34	242.27	14.31	-39.8	-42.0	25.1	0.00e+00	0	42	0	0	51	4553
2026-01-07 03:39:32.34	241.84	14.54	-39.7	-41.8	25.3	0.00e+00	0	42	0	0	50	4718
2026-01-07 03:39:34.35	241.39	14.76	-39.4	-41.5	25.5	0.00e+00	0	42	0	0	50	4561
2026-01-07 03:39:36.35	240.94	14.99	-39.1	-41.2	25.8	0.00e+00	0	42	0	0	50	4421
2026-01-07 03:39:38.36	240.48	15.22	-39.5	-41.6	25.4	0.00e+00	0	42	0	0	50	4630
2026-01-07 03:39:40.36	240.00	15.45	-39.4	-41.5	25.5	0.00e+00	0	42	0	0	50	4593
2026-01-07 03:39:42.37	239.52	15.68	-39.1	-41.2	25.8	0.00e+00	0	42	0	0	50	4435
2026-01-07 03:39:44.37	239.03	15.91	-39.2	-41.3	25.8	0.00e+00	0	42	0	0	50	4450
2026-01-07 03:39:46.49	238.50	16.16	-39.1	-41.1	25.9	0.00e+00	0	42	0	0	50	4381
2026-01-07 03:39:48.49	237.99	16.39	-38.7	-40.7	26.2	0.00e+00	0	42	0	0	49	4398
2026-01-07 03:39:50.49	237.47	16.63	-38.4	-40.4	26.5	0.00e+00	0	42	0	0	48	4529
2026-01-07 03:39:52.50	236.94	16.87	-38.7	-40.7	26.2	0.00e+00	0	42	0	0	48	4690
2026-01-07 03:39:54.50	236.40	17.11	-38.8	-40.8	26.1	0.00e+00	0	42	0	0	48	4759
2026-01-07 03:39:56.54	235.84	17.35	-38.8	-40.8	26.2	0.00e+00	0	42	0	0	48	4725
2026-01-07 03:39:58.55	235.27	17.59	-38.3	-40.3	26.6	0.00e+00	0	42	0	0	48	4480
2026-01-07 03:40:00.55	234.70	17.84	-38.1	-40.1	26.8	0.00e+00	0	42	0	0	48	4365
2026-01-07 03:40:02.56	234.11	18.08	-38.0	-40.0	26.8	0.00e+00	0	42	0	0	48	4318
2026-01-07 03:40:04.56	233.51	18.32	-38.1	-40.1	26.7	0.00e+00	0	42	0	0	48	4367
2026-01-07 03:40:06.73	232.85	18.59	-38.2	-40.2	26.7	0.00e+00	0	42	0	0	48	4411
2026-01-07 03:40:08.73	232.23	18.83	-38.0	-40.0	26.8	0.00e+00	0	42	0	0	48	4316
2026-01-07 03:40:10.73	231.59	19.08	-38.0	-39.9	26.8	0.00e+00	0	42	0	0	47	4543
2026-01-07 03:40:12.74	230.94	19.32	-38.2	-40.2	26.5	0.00e+00	0	42	0	0	47	4687
2026-01-07 03:40:14.74	230.28	19.57	-37.8	-39.8	26.9	0.00e+00	0	42	0	0	47	4446
2026-01-07 03:40:16.75	229.60	19.82	-38.0	-39.9	26.8	0.00e+00	0	42	0	0	47	4545
2026-01-07 03:40:18.77	228.91	20.06	-38.1	-40.1	26.7	0.00e+00	0	42	0	0	47	4606
2026-01-07 03:40:20.77	228.21	20.31	-37.9	-39.8	26.9	0.00e+00	0	42	0	0	47	4490
2026-01-07 03:40:22.86	227.46	20.56	-37.8	-39.8	27.0	0.00e+00	0	42	0	0	47	4461
2026-01-07 03:40:24.86	226.74	20.80	-38.1	-40.1	26.7	0.00e+00	0	42	0	0	47	4643
2026-01-07 03:40:26.86	225.99	21.05	-38.1	-40.1	26.7	0.00e+00	0	42	0	0	47	4650
2026-01-07 03:40:28.87	225.23	21.29	-37.9	-39.8	27.0	0.00e+00	0	42	0	0	47	4475
2026-01-07 03:40:30.88	224.46	21.53	-37.5	-39.5	27.2	0.00e+00	0	43	0	0	47	4310
2026-01-07 03:40:32.88	223.68	21.76	-37.3	-39.2	27.3	0.00e+00	0	42	0	0	46	4438
2026-01-07 03:40:34.89	222.87	22.00	-37.5	-39.5	27.2	0.00e+00	0	42	0	0	46	4568
2026-01-07 03:40:36.90	222.06	22.23	-37.7	-39.7	27.1	0.00e+00	0	43	0	0	46	4671
2026-01-07 03:40:38.90	221.23	22.46	-37.8	-39.8	26.9	0.00e+00	0	42	0	0	46	4726
2026-01-07 03:40:41.06	220.32	22.71	-37.7	-39.6	27.1	0.00e+00	0	42	0	0	46	4630
2026-01-07 03:40:43.13	219.43	22.94	-37.5	-39.5	27.3	0.00e+00	0	42	0	0	46	4560
2026-01-07 03:40:45.14	218.55	23.16	-37.1	-39.0	27.6	0.00e+00	0	42	0	0	46	4333
2026-01-07 03:40:47.14	217.66	23.38	-37.0	-38.9	27.6	0.00e+00	0	42	0	0	46	4256
2026-01-07 03:40:49.15	216.76	23.59	-37.1	-39.0	27.6	0.00e+00	0	42	0	0	46	4310
2026-01-07 03:40:51.15	215.84	23.80	-37.2	-39.2	27.5	0.00e+00	0	42	0	0	46	4398
2026-01-07 03:40:53.16	214.91	24.00	-37.1	-39.0	27.6	0.00e+00	0	42	0	0	46	4316
2026-01-07 03:40:55.16	213.96	24.20	-37.1	-39.0	27.7	0.00e+00	0	42	0	0	46	4313
2026-01-07 03:40:57.16	213.00	24.39	-37.0	-38.9	27.8	0.00e+00	0	42	0	0	45	4512
2026-01-07 03:40:59.25	211.99	24.58	-36.8	-38.7	27.8	0.00e+00	0	42	0	0	45	4440
2026-01-07 03:41:01.25	211.00	24.76	-36.8	-38.7	27.9	0.00e+00	0	42	0	0	45	4407
2026-01-07 03:41:03.26	210.00	24.94	-36.5	-38.4	28.1	0.00e+00	0	42	0	0	44	4524
2026-01-07 03:41:05.26	208.99	25.10	-36.9	-38.8	27.8	0.00e+00	0	42	0	0	44	4718
2026-01-07 03:41:07.26	207.97	25.26	-36.4	-38.3	28.2	0.00e+00	0	42	0	0	44	4444
2026-01-07 03:41:09.52	206.80	25.43	-36.6	-38.5	28.1	0.00e+00	0	42	0	0	44	4548
2026-01-07 03:41:11.52	205.75	25.57	-36.5	-38.4	28.1	0.00e+00	0	42	0	0	44	4517
2026-01-07 03:41:13.53	204.69	25.71	-36.5	-38.3	28.1	0.00e+00	0	42	0	0	44	4483
2026-01-07 03:41:15.54	203.62	25.83	-36.4	-38.3	28.0	0.00e+00	0	42	0	0	44	4481
2026-01-07 03:41:17.54	202.54	25.95	-36.3	-38.2	28.2	0.00e+00	0	42	0	0	44	4402
2026-01-07 03:41:19.55	201.45	26.05	-36.6	-38.5	28.1	0.00e+00	0	42	0	0	44	4550
2026-01-07 03:41:21.56	200.35	26.15	-36.4	-38.3	28.1	0.00e+00	0	42	0	0	44	4480
2026-01-07 03:41:23.56	199.25	26.24	-36.3	-38.2	28.3	0.00e+00	0	42	0	0	44	4407
2026-01-07 03:41:25.77	198.03	26.32	-36.6	-38.5	28.1	0.00e+00	0	42	0	0	44	4551
2026-01-07 03:41:27.86	196.87	26.39	-36.3	-38.2	28.2	0.00e+00	0	42	0	0	44	4405
2026-01-07 03:41:29.87	195.74	26.44	-36.1	-38.0	28.2	0.00e+00	0	42	0	0	43	4578
2026-01-07 03:41:31.87	194.62	26.49	-36.4	-38.3	28.0	0.00e+00	0	42	0	0	43	4710
2026-01-07 03:41:33.88	193.49	26.52	-36.9	-38.9	27.7	0.00e+00	0	42	0	0	44	4767
2026-01-07 03:41:35.88	192.36	26.54	-36.8	-38.7	27.9	0.00e+00	0	42	0	0	44	4705
2026-01-07 03:41:38.25	191.02	26.55	-37.1	-39.0	27.7	0.00e+00	0	42	0	0	44	4851
2026-01-07 03:41:40.49	189.76	26.55	-36.7	-38.5	28.0	0.00e+00	0	42	0	0	45	4334
2026-01-07 03:41:42.66	188.53	26.54	-36.4	-38.3	28.2	0.00e+00	0	42	0	0	44	4451
2026-01-07 03:41:44.82	187.32	26.51	-36.8	-38.8	27.8	0.00e+00	0	42	0	0	44	4706
2026-01-07 03:41:46.97	186.11	26.47	-37.2	-39.1	27.6	0.00e+00	0	42	0	0	44	4890
2026-01-07 03:41:49.32	184.79	26.41	-37.5	-39.4	27.4	0.00e+00	0	42	0	0	45	4788
2026-01-07 03:41:51.32	183.68	26.35	-37.7	-39.7	27.1	0.00e+00	0	42	0	0	46	4652
2026-01-07 03:41:53.33	182.56	26.28	-38.0	-40.0	26.8	0.00e+00	0	43	0	0	46	4868
2026-01-07 03:41:55.34	181.45	26.20	-37.6	-39.5	27.3	0.00e+00	0	42	0	0	46	4587
2026-01-07 03:41:57.34	180.36	26.11	-37.3	-39.2	27.5	0.00e+00	0	42	0	0	46	4406
2026-01-07 03:41:59.35	179.26	26.00	-37.1	-39.0	27.5	0.00e+00	0	42	0	0	45	4554
2026-01-07 03:42:01.64	178.02	25.88	-37.2	-39.1	27.6	0.00e+00	0	43	0	0	45	4621
2026-01-07 03:42:03.81	176.86	25.75	-37.1	-39.1	27.0	0.00e+00	0	43	0	0	45	4604
2026-01-07 03:42:05.85	175.78	25.61	-36.9	-38.8	27.7	0.00e+00	0	42	0	0	45	4465
2026-01-07 03:42:07.86	174.73	25.47	-36.3	-38.2	28.1	0.00e+00	0	42	0	0	44	4423
2026-01-07 03:42:09.87	173.68	25.33	-36.4	-38.3	28.1	0.00e+00	0	42	0	0	44	4481
2026-01-07 03:42:11.87	172.66	25.17	-36.4	-38.3	27.9	0.00e+00	0	42	0	0	43	4739
2026-01-07 03:42:13.87	171.64	25.01	-36.6	-38.5	27.8	0.00e+00	0	42	0	0	43	4866
2026-01-07 03:42:15.87	170.64	24.84	-36.8	-38.7	27.8	0.00e+00	0	42	0	0	44	4695
2026-01-07 03:42:18.12	169.52	24.64	-36.8	-38.8	27.5	0.00e+00	0	42	0	0	44	4708
2026-01-07 03:42:20.13	168.54	24.46	-36.7	-38.6	27.8	0.00e+00	0	42	0	0	44	4641
2026-01-07 03:42:22.05	167.62	24.27	-36.8	-38.7	27.7	0.00e+00	0	42	0	0	44	4704
2026-01-07 03:42:24.06	166.67	24.08	-36.9	-38.8	27.7	0.00e+00	0	42	0	0	44	4755
2026-01-07 03:42:26.14	165.69	23.87	-36.6	-38.6	27.8	0.00e+00	0	42	0	0	44	4613
2026-01-07 03:42:28.15	164.77	23.66	-36.6	-38.5	28.0	0.00e+00	0	43	0	0	44	4558
2026-01-07 03:42:30.15	163.86	23.45	-36.8	-38.7	27.8	0.00e+00	0	42	0	0	44	4673
2026-01-07 03:42:32.22	162.94	23.23	-36.9	-38.8	27.7	0.00e+00	0	42	0	0	44	4755
2026-01-07 03:42:34.23	162.06	23.01	-36.8	-38.8	27.7	0.00e+00	0	43	0	0	44	4724
2026-01-07 03:42:36.23	161.19	22.79	-37.1	-39.0	27.5	0.00e+00	0	43	0	0	44	4845
2026-01-07 03:42:38.43	160.26	22.54	-36.5	-38.4	28.0	0.00e+00	0	43	0	0	44	4528
2026-01-07 03:42:40.59	159.36	22.29	-37.0	-38.9	27.6	0.00e+00	0	42	0	0	44	4780
2026-01-07 03:42:42.90	158.42	22.02	-37.1	-39.1	27.5	0.00e+00	0	43	0	0	45	4603
2026-01-07 03:42:45.08	157.55	21.77	-37.4	-39.3	27.3	0.00e+00	0	42	0	0	45	4752
2026-01-07 03:42:47.53	156.59	21.48	-37.7	-39.7	27.0	0.00e+00	0	42	0	0	46	4688
2026-01-07 03:42:49.54	155.82	21.24	-37.4	-39.3	27.3	0.00e+00	0	42	0	0	46	4490
2026-01-07 03:42:51.54	155.07	21.00	-37.5	-39.4	27.2	0.00e+00	0	42	0	0	46	4541
2026-01-07 03:42:53.55	154.32	20.75	-37.5	-39.5	27.1	0.00e+00	0	42	0	0	46	4563
2026-01-07 03:42:55.61	153.58	20.50	-37.5	-39.4	27.2	0.00e+00	0	42	0	0	46	4538
2026-01-07 03:42:57.70	152.84	20.25	-37.8	-39.8	26.9	0.00e+00	0	43	0	0	46	4734
2026-01-07 03:42:59.80	152.10	19.99	-37.9	-39.9	26.8	0.00e+00	0	42	0	0	47	4511
2026-01-07 03:43:01.81	151.42	19.75	-37.8	-39.8	26.9	0.00e+00	0	43	0	0	47	4469
2026-01-07 03:43:03.82	150.75	19.50	-37.9	-39.9	26.8	0.00e+00	0	43	0	0	47	4518
2026-01-07 03:43:05.82	150.09	19.25	-38.1	-40.1	26.7	0.00e+00	0	43	0	0	47	4605
2026-01-07 03:43:07.83	149.44	19.01	-38.1	-40.1	26.7	0.00e+00	0	42	0	0	47	4606
2026-01-07 03:43:09.77	148.83	18.77	-38.3	-40.4	26.4	0.00e+00	0	43	0	0	47	4780
2026-01-07 03:43:11.82	148.19	18.52	-38.2	-40.2	26.6	0.00e+00	0	42	0	0	47	4674
2026-01-07 03:43:13.83	147.58	18.28	-37.8	-39.8	26.9	0.00e+00	0	42	0	0	47	4480
2026-01-07 03:43:15.90	146.97	18.02	-38.5	-40.5	26.2	0.00e+00	0	43	0	0	47	4865
2026-01-07 03:43:17.98	146.36	17.77	-38.9	-40.9	25.9	0.00e+00	0	43	0	0	48	4802
2026-01-07 03:43:20.23	145.72	17.50	-38.6	-40.6	26.2	0.00e+00	0	43	0	0	48	4630
2026-01-07 03:43:22.47	145.10	17.23	-38.4	-40.4	26.4	0.00e+00	0	43	0	0	48	4535
2026-01-07 03:43:24.50	144.54	16.99	-38.7	-40.8	26.2	0.00e+00	0	43	0	0	48	4719
2026-01-07 03:43:26.51	144.00	16.75	-38.4	-40.4	26.4	0.00e+00	0	43	0	0	48	4504
2026-01-07 03:43:28.52	143.48	16.51	-38.3	-40.2	26.5	0.00e+00	0	42	0	0	48	4439
2026-01-07 03:43:30.52	142.96	16.28	-38.6	-40.6	26.2	0.00e+00	0	42	0	0	48	4611
2026-01-07 03:43:32.53	142.45	16.04	-39.1	-41.1	25.8	0.00e+00	0	42	0	0	48	4923
2026-01-07 03:43:34.53	141.96	15.81	-39.0	-41.1	25.9	0.00e+00	0	43	0	0	48	4874
2026-01-07 03:43:36.53	141.47	15.58	-38.9	-40.9	26.0	0.00e+00	0	42	0	0	48	4795
2026-01-07 03:43:38.54	141.00	15.34	-39.0	-41.1	25.9	0.00e+00	0	42	0	0	48	4871
2026-01-07 03:43:40.55	140.53	15.11	-39.1	-41.2	25.8	0.00e+00	0	42	0	0	49	4658
2026-01-07 03:43:42.55	140.07	14.89	-39.0	-41.1	25.8	0.00e+00	0	42	0	0	49	4624
2026-01-07 03:43:44.55	139.62	14.66	-39.4	-41.5	25.5	0.00e+00	0	43	0	0	49	4819
2026-01-07 03:43:46.56	139.18	14.44	-39.9	-42.0	25.0	0.00e+00	0	42	0	0	50	4845
2026-01-07 03:43:48.57	138.75	14.21	-39.8	-41.9	25.1	0.00e+00	0	42	0	0	50	4790
2026-01-07 03:43:50.57	138.32	13.99	-39.6	-41.7	25.3	0.00e+00	0	42	0	0	50	4682
2026-01-07 03:43:52.61	137.90	13.77	-39.6	-41.7	25.3	0.00e+00	0	43	0	0	50	4693
2026-01-07 03:43:54.61	137.49	13.55	-39.9	-42.0	25.0	0.00e+00	0	43	0	0	50	4856
2026-01-07 03:43:56.62	137.09	13.34	-40.5	-42.8	24.4	0.00e+00	0	43	0	0	51	4990
2026-01-07 03:43:58.62	136.70	13.12	-40.6	-42.9	24.2	0.00e+00	0	42	0	0	52	4767
2026-01-07 03:44:00.63	136.31	12.91	-40.4	-42.6	24.4	0.00e+00	0	42	0	0	52	4638
2026-01-07 03:44:02.63	135.93	12.70	-40.3	-42.5	24.5	0.00e+00	0	42	0	0	52	4568
2026-01-07 03:44:04.64	135.56	12.49	-40.0	-42.2	24.7	0.00e+00	0	43	0	0	52	4422
2026-01-07 03:44:06.64	135.20	12.28	-40.4	-42.6	24.4	0.00e+00	0	43	0	0	52	4610
2026-01-07 03:44:08.65	134.84	12.08	-40.8	-43.1	23.9	0.00e+00	0	43	0	0	52	4917
2026-01-07 03:44:10.65	134.49	11.87	-41.1	-43.5	23.6	0.00e+00	0	43	0	0	52	5118
2026-01-07 03:44:12.66	134.14	11.67	-41.1	-43.4	23.7	0.00e+00	0	43	0	0	53	4775
2026-01-07 03:44:14.60	133.82	11.47	-41.0	-43.4	23.6	0.00e+00	0	43	0	0	53	4763
2026-01-07 03:44:16.71	133.47	11.26	-40.8	-43.1	23.9	0.00e+00	0	43	0	0	53	4635
2026-01-07 03:44:18.72	133.14	11.07	-40.7	-43.0	23.9	0.00e+00	0	42	0	0	53	4586
2026-01-07 03:44:20.99	132.78	10.84	-41.1	-43.4	23.6	0.00e+00	0	43	0	0	53	4789
2026-01-07 03:44:23.00	132.46	10.65	-41.4	-43.8	23.2	0.00e+00	0	43	0	0	53	4999
2026-01-07 03:44:25.00	132.15	10.46	-41.5	-43.9	23.1	0.00e+00	0	42	0	0	53	5071
2026-01-07 03:44:27.00	131.85	10.27	-41.9	-44.4	22.6	0.00e+00	0	43	0	0	54	5063
2026-01-07 03:44:29.01	131.55	10.08	-41.8	-44.3	22.6	0.00e+00	0	42	0	0	54	5031
2026-01-07 03:44:31.01	131.26	9.89	-41.8	-44.3	22.7	0.00e+00	0	43	0	0	54	5016
2026-01-07 03:44:33.21	130.94	9.69	-41.8	-44.3	22.7	0.00e+00	0	43	0	0	54	5005
2026-01-07 03:44:35.23	130.66	9.50	-41.5	-43.9	23.0	0.00e+00	0	42	0	0	54	4792
2026-01-07 03:44:37.24	130.38	9.32	-41.4	-43.8	23.1	0.00e+00	0	42	0	0	54	4736
2026-01-07 03:44:39.24	130.11	9.14	-41.6	-44.1	22.8	0.00e+00	0	43	0	0	54	4888
2026-01-07 03:44:41.29	129.84	8.95	-49.4	-64.5	4.2	0.00e+00	0	43	104	0	69	21559
2026-01-07 03:44:43.35	129.56	8.77	-49.8	-68.8	3.8	8.47e-01	0	43	104	0	70	33406
2026-01-07 03:44:45.32	129.31	8.59	-50.2	-68.8	3.8	8.47e-01	0	43	104	0	71	31798
2026-01-07 03:44:47.36	129.05	8.42	-50.1	-69.0	3.8	8.47e-01	0	43	104	0	71	32378
2026-01-07 03:44:49.39	128.80	8.24	-50.4	-69.1	3.8	8.47e-01	0	43	104	0	71	32561
2026-01-07 03:44:51.40	128.55	8.07	-50.2	-69.1	3.8	8.48e-01	0	43	104	0	71	32725
2026-01-07 03:44:53.41	128.31	7.89	-50.3	-69.1	3.8	8.48e-01	0	43	104	0	71	32775
2026-01-07 03:44:55.41	128.07	7.73	-50.2	-69.1	3.8	8.47e-01	0	43	104	0	71	32748
2026-01-07 03:44:57.42	127.83	7.56	-49.9	-69.1	3.8	8.46e-01	0	43	104	0	71	32734
2026-01-07 03:44:59.43	127.60	7.39	-49.9	-69.1	3.8	8.47e-01	0	43	104	0	71	32782
2026-01-07 03:45:01.49	127.37	7.22	-50.0	-69.1	3.8	8.46e-01	0	43	104	0	71	32829
2026-01-07 03:45:03.56	127.14	7.05	-50.0	-69.1	3.8	8.46e-01	0	43	104	0	71	32743
2026-01-07 03:45:05.56	126.92	6.89	-50.0	-69.1	3.8	8.47e-01	0	43	104	0	71	32666
2026-01-07 03:45:07.57	126.70	6.72	-50.0	-69.1	3.8	8.47e-01	0	43	104	0	71	32659
2026-01-07 03:45:09.58	126.49	6.56	-50.0	-69.1	3.8	8.47e-01	0	43	104	0	71	32618
2026-01-07 03:45:11.58	126.28	6.40	-50.0	-69.1	3.8	8.48e-01	0	43	104	0	71	32554
2026-01-07 03:45:13.59	126.07	6.24	-49.9	-69.0	3.8	8.47e-01	0	43	104	0	71	32486
2026-01-07 03:45:15.60	125.87	6.09	-50.0	-69.0	3.8	8.47e-01	0	43	104	0	71	32488
2026-01-07 03:45:17.61	125.67	5.93	-49.9	-69.1	3.8	8.48e-01	0	43	104	0	71	32581
2026-01-07 03:45:19.61	125.47	5.78	-50.0	-69.0	3.8	8.48e-01	0	43	104	0	71	32459
2026-01-07 03:45:21.62	125.27	5.62	-50.0	-69.0	3.8	8.46e-01	0	43	104	0	71	32487
2026-01-07 03:45:23.63	125.08	5.47	-50.0	-69.0	3.8	8.47e-01	0	43	104	0	71	32544
2026-01-07 03:45:25.64	124.89	5.32	-50.0	-69.1	3.8	8.47e-01	0	43	104	0	71	32569
2026-01-07 03:45:27.64	124.71	5.17	-49.9	-69.0	3.8	8.48e-01	0	43	104	0	71	32522
2026-01-07 03:45:29.65	124.53	5.02	-50.0	-69.0	3.8	8.47e-01	0	43	104	0	71	32445
2026-01-07 03:45:31.66	124.34	4.87	-50.0	-69.0	3.8	8.47e-01	0	43	104	0	71	32524

#Closed at: 2026-01-07 03:45:32
#Recorded file [0 MB]: D:/Data/31040_260107_063749.dat