passes_logs/2026/01/07/T1/T1__20260107_031158_FENGYUN_3E_rec.log

#Pass ID: 20260107_031158_FENGYUN 3E
#Satellite: FENGYUN 3E
#Configuration: FENGYUN 3E
#almurnet v.1.7.20251203
#Start time: 2026-01-07 03:11:58

#Version: 2.0.20230620
#Station: T1
#Location: 37.570604 lon 55.790049 lat
#TLE: 1 49008U 21062A   26006.26767912  .00000427  00000+0  22170-3 0  9993
#TLE: 2 49008  98.7475  11.4982 0001602 156.1158 204.0093 14.19885456233607

#Time	Az	El	Level	Level2	SNR	BER	BlckErr	Temp	State	Recorded	gain1	gain2
2026-01-07 03:11:58.97	22.07	5.04	-49.4	-60.7	3.8	8.47e-01	0	40	0	0	69	13054
2026-01-07 03:12:01.97	22.21	5.24	-49.4	-60.5	3.8	8.47e-01	0	40	104	0	69	12789
2026-01-07 03:12:04.99	22.35	5.45	-49.4	-60.4	3.8	8.46e-01	0	40	104	0	69	12530
2026-01-07 03:12:08.00	22.49	5.65	-49.4	-60.4	3.8	8.47e-01	0	40	104	0	69	12538
2026-01-07 03:12:11.01	22.64	5.86	-49.4	-60.5	3.8	8.46e-01	0	40	104	0	69	12787
2026-01-07 03:12:14.02	22.79	6.07	-49.4	-60.6	3.8	8.47e-01	0	41	104	0	69	12933
2026-01-07 03:12:17.03	22.94	6.29	-49.4	-60.7	3.8	8.47e-01	0	41	104	0	69	12960
2026-01-07 03:12:20.04	23.09	6.50	-49.3	-60.4	3.8	8.47e-01	0	41	104	0	69	12535
2026-01-07 03:12:23.06	23.24	6.72	-49.3	-59.9	3.8	8.47e-01	0	41	104	0	69	11947
2026-01-07 03:12:26.07	23.40	6.93	-49.3	-60.0	3.8	8.47e-01	0	41	104	0	69	12006
2026-01-07 03:12:29.08	23.55	7.15	-49.3	-60.5	3.8	8.47e-01	0	41	104	0	69	12765
2026-01-07 03:12:32.09	23.71	7.37	-49.3	-59.9	3.8	8.47e-01	0	41	104	0	69	11932
2026-01-07 03:12:35.11	23.88	7.60	-49.1	-58.6	3.8	8.46e-01	0	41	104	0	69	10273
2026-01-07 03:12:38.12	24.04	7.82	-49.1	-58.4	3.8	8.45e-01	0	41	104	0	69	9994
2026-01-07 03:12:41.13	24.21	8.05	-49.2	-59.0	3.8	8.45e-01	0	41	104	0	69	10722
2026-01-07 03:12:44.15	24.38	8.28	-49.1	-58.9	3.8	8.46e-01	0	42	104	0	69	10591
2026-01-07 03:12:47.16	24.55	8.51	-49.0	-57.7	4.0	8.45e-01	0	41	104	0	68	9807
2026-01-07 03:12:50.17	24.72	8.74	-48.6	-55.6	4.8	8.08e-01	0	42	0	0	68	7693
2026-01-07 03:12:53.18	24.90	8.97	-47.2	-51.5	7.9	8.60e-02	0	42	0	11534336	65	5659
2026-01-07 03:12:56.26	25.08	9.21	-48.4	-55.5	4.7	8.37e-01	0	42	0	28311552	66	8513
2026-01-07 03:12:59.62	25.28	9.48	-40.6	-41.8	17.6	0.00e+00	0	42	0	51380224	51	4188
2026-01-07 03:13:02.37	25.45	9.70	-40.4	-41.6	17.8	0.00e+00	0	42	0	72351744	51	4072
2026-01-07 03:13:05.66	25.66	9.96	-39.5	-40.6	18.9	0.00e+00	0	42	0	95420416	49	4057
2026-01-07 03:13:08.70	25.85	10.21	-39.2	-40.3	19.1	0.00e+00	0	42	0	117440512	49	3920
2026-01-07 03:13:11.95	26.06	10.48	-39.0	-40.1	19.4	0.00e+00	0	42	0	140509184	48	4055
2026-01-07 03:13:14.87	26.25	10.72	-39.1	-40.2	19.3	0.00e+00	0	42	0	162529280	48	4111
2026-01-07 03:13:17.88	26.45	10.97	-39.1	-40.2	19.3	0.00e+00	0	42	0	183500800	48	4122
2026-01-07 03:13:20.89	26.65	11.22	-39.1	-40.2	19.3	0.00e+00	0	42	0	205520896	48	4113
2026-01-07 03:13:23.89	26.86	11.48	-39.0	-40.1	19.4	0.00e+00	0	42	0	227540992	48	4067
2026-01-07 03:13:26.99	27.08	11.75	-39.0	-40.1	19.4	0.00e+00	0	42	0	249561088	48	4065
2026-01-07 03:13:29.85	27.28	11.99	-38.9	-40.0	19.5	0.00e+00	0	42	0	270532608	48	4006
2026-01-07 03:13:33.00	27.51	12.27	-38.4	-39.4	19.8	0.00e+00	0	42	0	292552704	47	4001
2026-01-07 03:13:35.86	27.72	12.52	-38.6	-39.6	19.6	0.00e+00	0	42	0	313524224	47	4096
2026-01-07 03:13:39.12	27.96	12.81	-38.6	-39.6	19.7	0.00e+00	0	42	0	337641472	47	4093
2026-01-07 03:13:41.87	28.17	13.06	-38.5	-39.5	19.8	0.00e+00	0	42	0	356515840	47	4038
2026-01-07 03:13:45.18	28.43	13.36	-38.5	-39.5	19.8	0.00e+00	0	42	0	380633088	47	4021
2026-01-07 03:13:48.06	28.65	13.63	-38.2	-39.2	20.1	0.00e+00	0	42	0	401604608	47	3888
2026-01-07 03:13:51.53	28.93	13.95	-38.2	-39.2	20.1	0.00e+00	0	42	0	426770432	47	3910
2026-01-07 03:13:54.28	29.16	14.21	-38.1	-39.1	20.3	0.00e+00	0	42	0	446693376	46	4054
2026-01-07 03:13:57.57	29.43	14.52	-38.2	-39.2	20.1	0.00e+00	0	42	0	470810624	46	4108
2026-01-07 03:14:00.29	29.66	14.78	-38.1	-39.1	20.2	0.00e+00	0	42	0	489684992	46	4069
2026-01-07 03:14:03.56	29.94	15.10	-37.9	-38.9	20.4	0.00e+00	0	42	0	513802240	46	3983
2026-01-07 03:14:06.57	30.21	15.39	-38.0	-38.9	20.5	0.00e+00	0	42	0	534773760	46	3986
2026-01-07 03:14:09.58	30.48	15.69	-37.8	-38.7	20.7	0.00e+00	0	42	0	556793856	46	3883
2026-01-07 03:14:12.58	30.75	15.99	-37.9	-38.8	20.6	0.00e+00	0	43	0	578813952	46	3943
2026-01-07 03:14:15.85	31.06	16.32	-37.8	-38.7	20.6	0.00e+00	0	42	0	601882624	45	4141
2026-01-07 03:14:18.64	31.32	16.60	-37.8	-38.8	20.5	0.00e+00	0	42	0	621805568	45	4184
2026-01-07 03:14:22.45	31.69	17.00	-37.5	-38.5	20.8	0.00e+00	0	43	0	650117120	45	4028
2026-01-07 03:14:25.20	31.97	17.28	-37.5	-38.5	20.8	0.00e+00	0	43	0	670040064	45	4020
2026-01-07 03:14:28.94	32.35	17.68	-37.2	-38.2	21.1	0.00e+00	0	42	0	696254464	45	3870
2026-01-07 03:14:31.68	32.63	17.97	-37.1	-38.0	21.1	0.00e+00	0	43	0	716177408	44	4045
2026-01-07 03:14:35.68	33.05	18.40	-36.9	-37.8	21.1	0.00e+00	0	43	0	745537536	44	3947
2026-01-07 03:14:38.45	33.35	18.71	-36.7	-37.6	21.4	0.00e+00	0	43	0	765460480	43	4076
2026-01-07 03:14:42.20	33.77	19.12	-36.8	-37.7	21.4	0.00e+00	0	43	0	792723456	43	4112
2026-01-07 03:14:44.97	34.09	19.43	-36.8	-37.7	21.5	0.00e+00	0	43	0	812646400	43	4111
2026-01-07 03:14:48.72	34.52	19.86	-36.7	-37.6	21.5	0.00e+00	0	43	0	838860800	43	4084
2026-01-07 03:14:51.61	34.87	20.19	-36.5	-37.3	21.9	0.00e+00	0	43	0	859832320	43	3948
2026-01-07 03:14:54.76	35.25	20.56	-36.5	-37.4	21.8	0.00e+00	0	43	0	882900992	43	3969
2026-01-07 03:14:57.62	35.61	20.89	-36.2	-37.1	22.1	0.00e+00	0	43	0	903872512	43	3834
2026-01-07 03:15:01.19	36.06	21.32	-36.0	-36.9	22.2	0.00e+00	0	43	0	929038336	42	3979
2026-01-07 03:15:04.21	36.46	21.68	-35.9	-36.7	22.3	0.00e+00	0	43	0	951058432	42	3913
2026-01-07 03:15:08.03	36.97	22.14	-35.9	-36.8	22.3	0.00e+00	0	42	0	979369984	42	3936
2026-01-07 03:15:10.77	37.35	22.48	-36.1	-37.0	22.1	0.00e+00	0	43	0	998244352	42	4006
2026-01-07 03:15:14.54	37.88	22.95	-36.2	-37.0	22.0	0.00e+00	0	43	0	1025507328	42	4041
2026-01-07 03:15:17.61	38.32	23.34	-36.1	-36.9	22.1	0.00e+00	0	43	0	1047527424	42	3998
2026-01-07 03:15:21.80	38.95	23.87	-35.8	-36.7	22.4	0.00e+00	0	43	0	1077936128	42	3882
2026-01-07 03:15:24.57	39.37	24.23	-35.8	-36.6	22.4	0.00e+00	0	43	0	1098907648	42	3858
2026-01-07 03:15:28.13	39.93	24.69	-35.9	-36.8	22.3	0.00e+00	0	42	0	1124073472	42	3922
2026-01-07 03:15:31.35	40.45	25.12	-35.9	-36.7	22.4	0.00e+00	0	43	0	1147142144	42	3899
2026-01-07 03:15:34.36	40.95	25.52	-35.9	-36.8	22.4	0.00e+00	0	43	0	1169162240	42	3925
2026-01-07 03:15:37.36	41.46	25.92	-35.9	-36.8	22.4	0.00e+00	0	43	0	1190133760	42	3918
2026-01-07 03:15:40.37	41.98	26.33	-35.5	-36.3	22.8	0.00e+00	0	43	0	1212153856	41	3933
2026-01-07 03:15:43.38	42.52	26.74	-35.4	-36.2	22.9	0.00e+00	0	43	0	1234173952	41	3885
2026-01-07 03:15:46.39	43.07	27.16	-35.5	-36.4	22.7	0.00e+00	0	43	0	1256194048	41	3967
2026-01-07 03:15:49.40	43.64	27.58	-35.6	-36.4	22.7	0.00e+00	0	43	0	1277165568	41	3995
2026-01-07 03:15:52.40	44.22	28.00	-35.6	-36.4	22.7	0.00e+00	0	43	0	1299185664	41	4000
2026-01-07 03:15:55.41	44.81	28.43	-35.5	-36.3	22.8	0.00e+00	0	43	0	1321205760	41	3954
2026-01-07 03:15:58.42	45.43	28.86	-35.3	-36.1	23.0	0.00e+00	0	42	0	1343225856	41	3854
2026-01-07 03:16:01.43	46.05	29.29	-35.6	-36.5	22.6	0.00e+00	0	43	0	1364197376	41	4031
2026-01-07 03:16:04.43	46.70	29.72	-35.7	-36.6	22.6	0.00e+00	0	43	0	1386217472	41	4056
2026-01-07 03:16:07.44	47.36	30.16	-35.6	-36.5	22.7	0.00e+00	0	43	0	1407188992	41	4012
2026-01-07 03:16:10.45	48.04	30.60	-35.8	-36.6	22.5	0.00e+00	0	43	0	1429209088	41	4081
2026-01-07 03:16:13.46	48.74	31.05	-36.0	-36.9	22.3	0.00e+00	0	43	0	1451229184	41	4215
2026-01-07 03:16:16.47	49.46	31.49	-36.0	-36.8	22.4	0.00e+00	0	43	0	1472200704	41	4192
2026-01-07 03:16:19.48	50.19	31.94	-35.7	-36.6	22.6	0.00e+00	0	43	0	1494220800	41	4058
2026-01-07 03:16:22.49	50.95	32.39	-35.7	-36.6	22.6	0.00e+00	0	43	0	1516240896	41	4060
2026-01-07 03:16:25.50	51.73	32.84	-35.7	-36.5	22.7	0.00e+00	0	43	0	1538260992	41	4041
2026-01-07 03:16:28.50	52.53	33.29	-35.6	-36.4	22.7	0.00e+00	0	43	0	1559232512	41	4004
2026-01-07 03:16:31.51	53.35	33.75	-35.5	-36.4	22.8	0.00e+00	0	43	0	1581252608	41	3966
2026-01-07 03:16:34.52	54.20	34.20	-35.5	-36.4	22.8	0.00e+00	0	43	0	1603272704	41	3964
2026-01-07 03:16:37.53	55.07	34.65	-35.5	-36.4	22.8	0.00e+00	0	43	0	1625292800	41	3968
2026-01-07 03:16:40.54	55.96	35.10	-35.5	-36.4	22.8	0.00e+00	0	43	0	1646264320	41	3962
2026-01-07 03:16:43.57	56.88	35.56	-35.5	-36.4	22.8	0.00e+00	0	43	0	1668284416	41	3969
2026-01-07 03:16:46.58	57.83	36.00	-35.5	-36.4	22.8	0.00e+00	0	43	0	1690304512	41	3972
2026-01-07 03:16:49.57	58.79	36.45	-35.6	-36.4	22.8	0.00e+00	0	43	0	1712324608	41	3994
2026-01-07 03:16:52.58	59.79	36.89	-35.4	-36.2	23.0	0.00e+00	0	43	0	1733296128	41	3890
2026-01-07 03:16:55.70	60.85	37.35	-35.8	-36.6	22.7	0.00e+00	0	43	0	1756364800	41	4091
2026-01-07 03:16:59.00	62.00	37.82	-35.8	-36.7	22.5	0.00e+00	0	43	0	1779433472	41	4122
2026-01-07 03:17:01.72	62.98	38.21	-35.6	-36.5	22.8	0.00e+00	0	43	0	1799356416	41	4007
2026-01-07 03:17:05.11	64.23	38.69	-35.3	-36.1	23.1	0.00e+00	0	43	0	1824522240	41	3840
2026-01-07 03:17:08.19	65.39	39.11	-35.5	-36.3	22.9	0.00e+00	0	43	0	1846542336	41	3948
2026-01-07 03:17:11.05	66.50	39.50	-35.8	-36.7	22.6	0.00e+00	0	43	0	1866465280	41	4104
2026-01-07 03:17:14.23	67.77	39.92	-35.8	-36.6	22.6	0.00e+00	0	43	0	1889533952	41	4095
2026-01-07 03:17:17.10	68.94	40.29	-35.9	-36.7	22.5	0.00e+00	0	43	0	1910505472	41	4124
2026-01-07 03:17:20.39	70.31	40.70	-36.4	-37.3	22.0	0.00e+00	0	43	0	1934622720	42	4167
2026-01-07 03:17:23.31	71.56	41.06	-35.6	-36.5	22.8	0.00e+00	0	43	0	1955594240	42	3787
2026-01-07 03:17:27.05	73.20	41.50	-35.5	-36.3	22.9	0.00e+00	0	43	0	1981808640	41	3940
2026-01-07 03:17:29.96	74.51	41.82	-35.5	-36.3	22.9	0.00e+00	0	43	0	2003828736	41	3936
2026-01-07 03:17:33.25	76.01	42.18	-35.5	-36.4	22.8	0.00e+00	0	43	0	2027945984	41	3962
2026-01-07 03:17:36.26	77.42	42.48	-35.7	-36.6	22.7	0.00e+00	0	43	0	2048917504	41	4064
2026-01-07 03:17:39.55	78.99	42.80	-35.8	-36.7	22.6	0.00e+00	0	43	0	2073034752	41	4105
2026-01-07 03:17:42.27	80.31	43.04	-35.7	-36.5	22.7	0.00e+00	0	43	0	2091909120	41	4027
2026-01-07 03:17:45.57	81.93	43.31	-35.8	-36.6	22.6	0.00e+00	0	43	0	2116026368	41	4088
2026-01-07 03:17:48.66	83.48	43.55	-36.3	-37.2	22.1	0.00e+00	0	43	0	2139095040	42	4145
2026-01-07 03:17:51.98	85.17	43.78	-36.5	-37.4	21.9	0.00e+00	0	43	0	2162163712	42	4238
2026-01-07 03:17:54.70	86.56	43.95	-36.2	-37.1	22.2	0.00e+00	0	43	0	2182086656	42	4075
2026-01-07 03:17:57.99	88.28	44.13	-36.3	-37.1	22.2	0.00e+00	0	43	0	2206203904	42	4098
2026-01-07 03:18:00.71	89.70	44.26	-36.2	-37.1	22.2	0.00e+00	0	43	0	2225078272	42	4070
2026-01-07 03:18:04.01	91.45	44.39	-36.6	-37.5	21.8	0.00e+00	0	43	0	2249195520	42	4286
2026-01-07 03:18:06.76	92.92	44.47	-36.1	-37.0	22.4	0.00e+00	0	43	0	2269118464	42	4005
2026-01-07 03:18:10.32	94.82	44.55	-36.4	-37.3	22.0	0.00e+00	0	43	0	2295332864	42	4190
2026-01-07 03:18:13.38	96.47	44.60	-36.6	-37.5	21.9	0.00e+00	0	43	0	2317352960	42	4269
2026-01-07 03:18:16.68	98.25	44.61	-36.4	-37.3	22.0	0.00e+00	0	43	0	2340421632	42	4167
2026-01-07 03:18:19.55	99.79	44.60	-36.5	-37.3	22.0	0.00e+00	0	43	0	2361393152	42	4191
2026-01-07 03:18:22.70	101.49	44.57	-36.2	-37.1	22.2	0.00e+00	0	43	0	2384461824	42	4072
2026-01-07 03:18:25.84	103.17	44.50	-36.3	-37.1	22.2	0.00e+00	0	43	0	2406481920	42	4088
2026-01-07 03:18:28.70	104.70	44.42	-36.6	-37.5	21.9	0.00e+00	0	43	0	2427453440	43	4017
2026-01-07 03:18:31.92	106.41	44.30	-36.2	-37.1	22.2	0.00e+00	0	43	0	2450522112	43	3854
2026-01-07 03:18:34.79	107.93	44.18	-36.4	-37.3	22.0	0.00e+00	0	43	0	2471493632	43	3939
2026-01-07 03:18:37.94	109.57	44.01	-36.0	-36.8	22.5	0.00e+00	0	43	0	2494562304	42	3935
2026-01-07 03:18:40.80	111.05	43.84	-36.0	-36.8	22.4	0.00e+00	0	43	0	2514485248	42	3953
2026-01-07 03:18:43.98	112.68	43.63	-36.0	-36.9	22.4	0.00e+00	0	43	0	2537553920	42	3971
2026-01-07 03:18:46.85	114.12	43.42	-36.1	-36.9	22.3	0.00e+00	0	43	0	2558525440	42	3994
2026-01-07 03:18:50.00	115.69	43.16	-36.3	-37.1	22.1	0.00e+00	0	43	0	2581594112	42	4088
2026-01-07 03:18:52.86	117.09	42.91	-36.1	-37.0	22.3	0.00e+00	0	43	0	2601517056	42	4005
2026-01-07 03:18:56.02	118.61	42.62	-36.3	-37.2	22.0	0.00e+00	0	43	0	2624585728	42	4131
2026-01-07 03:18:58.88	119.96	42.34	-35.9	-36.8	22.5	0.00e+00	0	43	0	2645557248	42	3924
2026-01-07 03:19:02.12	121.47	42.00	-35.9	-36.8	22.5	0.00e+00	0	43	0	2668625920	42	3932
2026-01-07 03:19:04.99	122.77	41.68	-36.2	-37.1	22.2	0.00e+00	0	43	0	2689597440	42	4075
2026-01-07 03:19:08.16	124.18	41.32	-36.1	-36.9	22.3	0.00e+00	0	43	0	2712666112	42	3997
2026-01-07 03:19:11.03	125.44	40.98	-35.7	-36.5	22.7	0.00e+00	0	43	0	2732589056	42	3801
2026-01-07 03:19:14.64	126.97	40.53	-35.8	-36.6	22.5	0.00e+00	0	43	0	2758803456	42	3857
2026-01-07 03:19:17.37	128.11	40.18	-36.1	-36.9	22.3	0.00e+00	0	43	0	2778726400	42	4000
2026-01-07 03:19:21.21	129.66	39.68	-36.1	-36.9	22.3	0.00e+00	0	43	0	2807037952	42	4003
2026-01-07 03:19:23.99	130.76	39.30	-35.8	-36.7	22.5	0.00e+00	0	43	0	2826960896	42	3869
2026-01-07 03:19:27.29	132.03	38.85	-35.5	-36.4	22.9	0.00e+00	0	43	0	2850029568	41	3965
2026-01-07 03:19:30.01	133.05	38.47	-35.8	-36.6	22.5	0.00e+00	0	43	0	2869952512	41	4091
2026-01-07 03:19:33.31	134.25	38.00	-35.9	-36.8	22.5	0.00e+00	0	43	0	2894069760	41	4154
2026-01-07 03:19:36.05	135.23	37.60	-35.6	-36.5	22.7	0.00e+00	0	43	0	2913992704	41	4009
2026-01-07 03:19:40.06	136.62	37.02	-35.6	-36.5	22.7	0.00e+00	0	43	0	2942304256	41	4015
2026-01-07 03:19:42.80	137.53	36.61	-35.8	-36.6	22.6	0.00e+00	0	43	0	2962227200	41	4095
2026-01-07 03:19:46.57	138.76	36.05	-35.5	-36.4	22.8	0.00e+00	0	43	0	2989490176	41	3971
2026-01-07 03:19:49.52	139.70	35.61	-35.1	-35.9	23.2	0.00e+00	0	43	0	3010461696	41	3765
2026-01-07 03:19:53.30	140.85	35.04	-35.5	-36.3	22.8	0.00e+00	0	43	0	3037724672	41	3942
2026-01-07 03:19:56.06	141.68	34.63	-35.8	-36.7	22.3	0.00e+00	0	43	0	3058696192	41	4125
2026-01-07 03:19:59.82	142.76	34.06	-36.0	-36.9	22.3	0.00e+00	0	43	0	3084910592	41	4215
2026-01-07 03:20:02.55	143.53	33.64	-35.7	-36.5	22.6	0.00e+00	0	43	0	3104833536	41	4048
2026-01-07 03:20:06.07	144.49	33.11	-35.3	-36.1	22.9	0.00e+00	0	43	0	3129999360	41	3848
2026-01-07 03:20:09.34	145.35	32.62	-35.5	-36.3	22.8	0.00e+00	0	43	0	3154116608	41	3931
2026-01-07 03:20:12.29	146.11	32.17	-35.7	-36.5	22.6	0.00e+00	0	43	0	3175088128	41	4033
2026-01-07 03:20:15.65	146.95	31.67	-35.9	-36.8	22.4	0.00e+00	0	43	0	3199205376	41	4177
2026-01-07 03:20:18.50	147.64	31.24	-35.8	-36.7	22.5	0.00e+00	0	43	0	3220176896	41	4115
2026-01-07 03:20:21.79	148.42	30.75	-35.7	-36.6	22.6	0.00e+00	0	43	0	3243245568	41	4052
2026-01-07 03:20:24.56	149.05	30.34	-35.5	-36.4	22.7	0.00e+00	0	43	0	3264217088	41	3968
2026-01-07 03:20:28.13	149.85	29.81	-35.7	-36.5	22.6	0.00e+00	0	43	0	3289382912	41	4029
2026-01-07 03:20:30.85	150.44	29.42	-36.0	-36.9	22.3	0.00e+00	0	43	0	3309305856	41	4217
2026-01-07 03:20:34.10	151.13	28.94	-36.5	-37.4	21.8	0.00e+00	0	43	0	3332374528	42	4230
2026-01-07 03:20:37.25	151.78	28.49	-36.4	-37.3	21.9	0.00e+00	0	43	0	3355443200	42	4178
2026-01-07 03:20:40.21	152.37	28.07	-36.2	-37.0	22.2	0.00e+00	0	43	0	3377463296	42	4051
2026-01-07 03:20:43.70	153.05	27.57	-35.9	-36.7	22.5	0.00e+00	0	43	0	3401580544	42	3905
2026-01-07 03:20:46.42	153.56	27.19	-35.9	-36.8	22.4	0.00e+00	0	43	0	3421503488	42	3928
2026-01-07 03:20:49.67	154.16	26.73	-35.8	-36.7	22.4	0.00e+00	0	43	0	3445620736	42	3894
2026-01-07 03:20:52.76	154.72	26.31	-36.0	-36.8	22.3	0.00e+00	0	43	0	3467640832	42	3957
2026-01-07 03:20:55.62	155.22	25.91	-36.1	-37.0	22.2	0.00e+00	0	43	0	3488612352	42	4031
2026-01-07 03:20:58.77	155.76	25.49	-36.1	-36.9	22.3	0.00e+00	0	43	0	3510632448	42	3993
2026-01-07 03:21:01.63	156.23	25.10	-35.9	-36.8	22.4	0.00e+00	0	43	0	3531603968	42	3914
2026-01-07 03:21:04.93	156.77	24.66	-35.9	-36.8	22.4	0.00e+00	0	43	0	3555721216	42	3930
2026-01-07 03:21:07.65	157.20	24.31	-36.0	-36.8	22.3	0.00e+00	0	43	0	3574595584	42	3941
2026-01-07 03:21:10.94	157.71	23.88	-36.1	-36.9	22.2	0.00e+00	0	43	0	3598712832	42	3998
2026-01-07 03:21:13.66	158.12	23.53	-36.1	-37.0	22.2	0.00e+00	0	43	0	3618635776	42	4016
2026-01-07 03:21:16.96	158.61	23.10	-36.1	-36.9	22.2	0.00e+00	0	43	0	3641704448	42	3980
2026-01-07 03:21:19.68	159.00	22.76	-36.2	-37.1	22.1	0.00e+00	0	43	0	3661627392	42	4076
2026-01-07 03:21:22.97	159.46	22.35	-36.2	-37.1	22.0	0.00e+00	0	43	0	3685744640	42	4067
2026-01-07 03:21:25.76	159.85	22.00	-36.3	-37.2	21.9	0.00e+00	0	43	0	3705667584	42	4122
2026-01-07 03:21:29.19	160.31	21.58	-36.4	-37.2	21.9	0.00e+00	0	43	0	3729784832	42	4142
2026-01-07 03:21:32.25	160.71	21.21	-36.5	-37.3	21.8	0.00e+00	0	43	0	3751804928	42	4184
2026-01-07 03:21:35.57	161.13	20.82	-36.6	-37.5	21.7	0.00e+00	0	43	0	3776970752	42	4267
2026-01-07 03:21:38.45	161.49	20.47	-36.7	-37.6	21.6	0.00e+00	0	43	0	3796893696	42	4298
2026-01-07 03:21:41.60	161.87	20.11	-36.8	-37.7	21.4	0.00e+00	0	43	0	3819962368	43	4139
2026-01-07 03:21:45.09	162.29	19.70	-36.9	-37.8	21.4	0.00e+00	0	43	0	3845128192	43	4152
2026-01-07 03:21:47.81	162.61	19.39	-36.8	-37.7	21.5	0.00e+00	0	43	0	3865051136	43	4123
2026-01-07 03:21:51.10	162.98	19.02	-36.9	-37.8	21.3	0.00e+00	0	43	0	3888119808	43	4184
2026-01-07 03:21:53.97	163.30	18.70	-37.0	-37.9	21.3	0.00e+00	0	43	0	3909091328	43	4213
2026-01-07 03:21:57.24	163.66	18.34	-37.0	-37.9	21.2	0.00e+00	0	43	0	3933208576	43	4230
2026-01-07 03:22:00.31	163.99	18.00	-37.0	-37.9	21.3	0.00e+00	0	43	0	3955228672	43	4206
2026-01-07 03:22:03.46	164.31	17.66	-37.0	-38.0	21.1	0.00e+00	0	43	0	3978297344	43	4254
2026-01-07 03:22:06.33	164.61	17.35	-37.1	-38.1	21.1	0.00e+00	0	43	0	3998220288	43	4300
2026-01-07 03:22:09.48	164.92	17.02	-37.4	-38.3	21.0	0.00e+00	0	43	0	4021288960	44	4185
2026-01-07 03:22:12.35	165.21	16.72	-37.5	-38.4	20.9	0.00e+00	0	43	0	4042260480	44	4238
2026-01-07 03:22:15.50	165.51	16.39	-37.6	-38.5	20.7	0.00e+00	0	43	0	4064280576	44	4286
2026-01-07 03:22:18.36	165.78	16.10	-37.6	-38.5	20.8	0.00e+00	0	43	0	4085252096	44	4287
2026-01-07 03:22:21.52	166.07	15.78	-37.7	-38.6	20.7	0.00e+00	0	43	0	4108320768	44	4339
2026-01-07 03:22:24.38	166.33	15.49	-37.8	-38.7	20.5	0.00e+00	0	43	0	4128243712	45	4125
2026-01-07 03:22:27.53	166.61	15.18	-37.9	-38.8	20.5	0.00e+00	0	43	0	4151312384	45	4177
2026-01-07 03:22:30.45	166.87	14.89	-38.0	-39.0	20.3	0.00e+00	0	43	0	4172283904	45	4270
2026-01-07 03:22:33.75	167.15	14.57	-38.1	-39.1	20.2	0.00e+00	0	43	0	4196401152	45	4302
2026-01-07 03:22:36.48	167.38	14.31	-38.1	-39.1	20.2	0.00e+00	0	43	0	4216324096	45	4305
2026-01-07 03:22:39.77	167.65	13.99	-38.1	-39.1	20.3	0.00e+00	0	43	0	4239392768	46	4059
2026-01-07 03:22:42.49	167.87	13.74	-38.2	-39.2	20.1	0.00e+00	0	43	0	4259315712	46	4129
2026-01-07 03:22:45.79	168.13	13.43	-38.3	-39.3	20.0	0.00e+00	0	43	0	4283432960	46	4191
2026-01-07 03:22:48.51	168.34	13.18	-38.3	-39.3	20.0	0.00e+00	0	43	0	4303355904	46	4187
2026-01-07 03:22:51.80	168.60	12.88	-38.6	-39.6	19.7	0.00e+00	0	43	0	4326424576	46	4303
2026-01-07 03:22:54.66	168.81	12.62	-38.6	-39.7	19.6	0.00e+00	0	43	0	4347396096	46	4348
2026-01-07 03:22:58.13	169.07	12.31	-38.6	-39.6	19.6	0.00e+00	0	43	0	4372561920	47	4094
2026-01-07 03:23:00.88	169.27	12.06	-38.7	-39.8	18.0	0.00e+00	0	43	0	4392484864	47	4154
2026-01-07 03:23:04.11	169.50	11.78	-39.0	-40.1	19.2	3.31e-04	0	43	0	4415553536	47	4297
2026-01-07 03:23:06.98	169.70	11.53	-38.9	-40.0	19.2	1.11e-04	0	43	0	4436525056	47	4261
2026-01-07 03:23:10.13	169.92	11.26	-39.0	-40.2	19.0	0.00e+00	0	43	0	4458545152	47	4386
2026-01-07 03:23:13.42	170.14	10.98	-39.1	-40.3	18.9	0.00e+00	0	43	0	4482662400	47	4421
2026-01-07 03:23:16.14	170.32	10.74	-39.1	-40.4	18.8	0.00e+00	0	43	0	4502585344	47	4463
2026-01-07 03:23:19.65	170.55	10.45	-39.6	-40.8	18.7	0.00e+00	0	43	0	4527751168	49	4176
2026-01-07 03:23:22.44	170.73	10.22	-39.5	-40.8	18.6	0.00e+00	0	43	0	4547674112	49	4171
2026-01-07 03:23:25.74	170.94	9.95	-39.8	-41.1	18.4	0.00e+00	0	43	0	4571791360	49	4305
2026-01-07 03:23:28.46	171.11	9.73	-39.7	-41.0	18.4	0.00e+00	0	43	0	4591714304	49	4263
2026-01-07 03:23:31.75	171.31	9.46	-39.8	-41.2	18.3	0.00e+00	0	43	0	4614782976	49	4341
2026-01-07 03:23:34.80	171.49	9.21	-39.7	-41.0	18.4	0.00e+00	0	43	0	4636803072	49	4271
2026-01-07 03:23:37.87	171.68	8.97	-46.1	-51.2	8.7	0.00e+00	0	43	0	4658823168	61	6882
2026-01-07 03:23:40.91	171.85	8.73	-50.1	-61.1	3.8	8.46e-01	0	43	104	4659871744	69	13662
2026-01-07 03:23:43.92	172.03	8.50	-50.5	-61.4	3.8	8.48e-01	0	43	104	4659871744	70	13354
2026-01-07 03:23:46.93	172.20	8.26	-50.7	-61.5	3.8	8.47e-01	0	43	104	4659871744	70	13424
2026-01-07 03:23:49.94	172.37	8.03	-50.7	-61.4	3.8	8.47e-01	0	43	104	4659871744	70	13387
2026-01-07 03:23:52.96	172.53	7.80	-50.8	-61.5	3.8	8.47e-01	0	43	104	4659871744	71	12686
2026-01-07 03:23:55.97	172.69	7.58	-50.7	-61.5	3.8	8.47e-01	0	43	104	4659871744	71	12680
2026-01-07 03:23:58.98	172.86	7.35	-50.8	-61.4	3.8	8.47e-01	0	43	104	4659871744	71	12631
2026-01-07 03:24:02.00	173.01	7.13	-50.7	-61.4	3.8	8.46e-01	0	43	104	4659871744	71	12657
2026-01-07 03:24:05.01	173.17	6.90	-50.5	-61.4	3.8	8.47e-01	0	43	104	4659871744	71	12661
2026-01-07 03:24:08.02	173.32	6.68	-50.3	-61.5	3.8	8.47e-01	0	43	104	4659871744	70	13432
2026-01-07 03:24:11.03	173.48	6.47	-50.2	-61.5	3.8	8.46e-01	0	44	104	4659871744	70	13477
2026-01-07 03:24:14.04	173.63	6.25	-50.3	-61.4	3.8	8.48e-01	0	43	104	4659871744	70	13396
2026-01-07 03:24:17.06	173.77	6.03	-50.3	-61.5	3.8	8.46e-01	0	43	104	4659871744	70	13437
2026-01-07 03:24:20.07	173.92	5.82	-50.3	-61.5	3.8	8.46e-01	0	43	104	4659871744	70	13439
2026-01-07 03:24:23.08	174.06	5.61	-50.3	-61.4	3.8	8.47e-01	0	43	104	4659871744	70	13399
2026-01-07 03:24:26.10	174.20	5.40	-50.3	-61.4	3.8	8.47e-01	0	43	104	4659871744	70	13338
2026-01-07 03:24:29.11	174.34	5.19	-50.3	-61.4	3.8	8.47e-01	0	43	104	4659871744	70	13386
2026-01-07 03:24:32.12	174.48	4.98	-50.3	-61.5	3.8	8.47e-01	0	43	104	4659871744	70	13427

#Closed at: 2026-01-07 03:24:33
#Recorded file [4659 MB]: D:/Data/31040_260107_061158.dat