passes_logs/2026/01/07/T1/T1__20260107_115830_SUOMI_NPP_rec.log

#Pass ID: 20260107_115830_SUOMI NPP
#Satellite: SUOMI NPP
#Configuration: NPP
#almurnet v.1.7.20251203
#Start time: 2026-01-07 11:58:31

#Version: 2.0.20230620
#Station: T1
#Location: 37.570604 lon 55.790049 lat
#TLE: 1 37849U 11061A   26005.94084933  .00000134  00000+0  84554-4 0  9990
#TLE: 2 37849  98.7803 308.0679 0002567  79.1029 281.0436 14.19522657735426

#Time	Az	El	Level	Level2	SNR	BER	BlckErr	Temp	State	Recorded	gain1	gain2
2026-01-07 11:58:31.30	227.55	5.05	-51.5	-67.3	3.8	1.49e+00	0	42	0	0	75	21171
2026-01-07 11:58:34.31	227.88	5.21	-51.5	-67.3	3.8	1.49e+00	0	42	104	0	75	21128
2026-01-07 11:58:37.32	228.21	5.36	-51.5	-67.3	3.8	1.49e+00	0	42	104	0	75	21183
2026-01-07 11:58:40.34	228.55	5.51	-51.5	-67.3	3.8	1.49e+00	0	43	104	0	75	21167
2026-01-07 11:58:43.35	228.89	5.66	-51.5	-67.3	3.8	1.49e+00	0	42	104	0	75	21152
2026-01-07 11:58:46.36	229.23	5.81	-51.5	-67.3	3.8	1.49e+00	0	43	104	0	75	21078
2026-01-07 11:58:49.38	229.58	5.96	-51.5	-67.3	3.8	1.49e+00	0	43	104	0	75	21095
2026-01-07 11:58:52.39	229.93	6.12	-51.5	-67.3	3.8	1.49e+00	0	43	104	0	75	21122
2026-01-07 11:58:55.40	230.29	6.27	-51.5	-67.3	3.8	1.49e+00	0	43	104	0	75	21038
2026-01-07 11:58:58.42	230.65	6.42	-51.5	-67.2	3.8	1.49e+00	0	43	104	0	75	20905
2026-01-07 11:59:01.43	231.01	6.57	-51.5	-67.2	3.8	1.49e+00	0	43	104	0	75	20953
2026-01-07 11:59:04.44	231.38	6.72	-51.5	-67.2	3.8	1.49e+00	0	43	104	0	75	20919
2026-01-07 11:59:07.46	231.75	6.87	-51.5	-67.2	3.8	1.49e+00	0	43	104	0	75	20794
2026-01-07 11:59:10.47	232.12	7.02	-51.5	-67.1	3.8	1.49e+00	0	43	104	0	75	20742
2026-01-07 11:59:13.48	232.50	7.17	-51.5	-67.1	3.8	1.49e+00	0	43	104	0	75	20597
2026-01-07 11:59:16.50	232.88	7.33	-51.5	-67.2	3.8	1.49e+00	0	43	104	0	75	20960
2026-01-07 11:59:19.51	233.26	7.48	-51.5	-67.1	3.8	1.49e+00	0	43	104	0	74	21968
2026-01-07 11:59:22.53	233.65	7.63	-51.5	-67.2	3.8	1.49e+00	0	43	104	0	74	22146
2026-01-07 11:59:25.54	234.04	7.78	-51.5	-67.2	3.8	1.49e+00	0	43	104	0	74	22174
2026-01-07 11:59:28.55	234.44	7.93	-51.5	-67.2	3.8	1.49e+00	0	43	104	0	74	22033
2026-01-07 11:59:31.56	234.84	8.08	-51.5	-67.1	3.8	1.49e+00	0	43	104	0	74	21766
2026-01-07 11:59:34.58	235.24	8.23	-51.4	-65.0	3.8	1.49e+00	0	44	104	0	74	17197
2026-01-07 11:59:37.59	235.65	8.37	-51.5	-66.7	3.8	1.49e+00	0	43	104	0	74	20817
2026-01-07 11:59:40.60	236.06	8.52	-50.1	-56.8	9.0	8.75e-02	0	43	0	2097152	72	7489
2026-01-07 11:59:43.62	236.48	8.67	-48.4	-52.6	13.5	1.37e-05	0	43	0	8388608	68	5791
2026-01-07 11:59:46.63	236.90	8.82	-49.0	-53.7	12.3	8.62e-05	0	43	0	13631488	68	6634
2026-01-07 11:59:49.64	237.32	8.97	-50.6	-58.5	7.5	6.95e-02	0	43	0	19922944	71	9644
2026-01-07 11:59:52.65	237.75	9.11	-49.5	-54.3	11.6	1.00e+00	0	43	0	23068672	71	5956
2026-01-07 11:59:55.66	238.18	9.26	-50.5	-57.4	8.3	5.22e-01	0	43	0	27262976	73	7611
2026-01-07 11:59:58.67	238.62	9.40	-50.4	-56.8	9.2	2.76e-02	0	44	0	33554432	72	7468
2026-01-07 12:00:01.68	239.06	9.55	-49.1	-53.4	12.8	3.72e-04	0	44	0	38797312	70	5685
2026-01-07 12:00:04.69	239.51	9.69	-48.0	-51.5	14.6	6.80e-06	0	44	0	44040192	68	5119
2026-01-07 12:00:07.70	239.96	9.84	-46.6	-49.7	16.3	0.00e+00	0	43	0	50331648	65	4933
2026-01-07 12:00:10.71	240.41	9.98	-46.4	-49.3	16.6	0.00e+00	0	43	0	55574528	64	5015
2026-01-07 12:00:13.72	240.87	10.12	-46.6	-49.5	16.4	0.00e+00	0	43	0	60817408	64	5128
2026-01-07 12:00:16.72	241.33	10.26	-46.4	-49.3	16.5	0.00e+00	0	44	0	67108864	64	5011
2026-01-07 12:00:19.74	241.80	10.40	-46.1	-49.0	16.8	0.00e+00	0	44	0	72351744	64	4834
2026-01-07 12:00:22.74	242.27	10.54	-45.8	-49.1	16.7	0.00e+00	0	44	0	78643200	63	5184
2026-01-07 12:00:25.75	242.74	10.68	-45.8	-48.9	16.8	0.00e+00	0	44	0	83886080	63	5097
2026-01-07 12:00:28.76	243.22	10.82	-46.1	-48.9	16.8	0.00e+00	0	44	0	89128960	63	5048
2026-01-07 12:00:31.77	243.71	10.95	-46.1	-48.8	16.8	0.00e+00	0	44	0	95420416	63	5025
2026-01-07 12:00:34.78	244.19	11.09	-45.9	-48.6	16.9	0.00e+00	0	44	0	100663296	63	4914
2026-01-07 12:00:37.79	244.69	11.22	-45.8	-48.7	16.8	0.00e+00	0	44	0	105906176	63	4960
2026-01-07 12:00:40.80	245.18	11.36	-45.5	-48.3	17.1	0.00e+00	0	44	0	112197632	63	4722
2026-01-07 12:00:43.81	245.69	11.49	-45.4	-48.5	16.9	0.00e+00	0	44	0	117440512	62	5104
2026-01-07 12:00:46.82	246.19	11.62	-45.6	-48.7	16.7	0.00e+00	0	44	0	123731968	62	5223
2026-01-07 12:00:49.83	246.70	11.75	-45.9	-48.8	16.5	0.00e+00	0	44	0	128974848	62	5316
2026-01-07 12:00:52.83	247.21	11.88	-45.6	-48.4	16.9	0.00e+00	0	44	0	134217728	62	5045
2026-01-07 12:00:55.84	247.73	12.00	-45.7	-48.6	16.7	0.00e+00	0	44	0	140509184	62	5186
2026-01-07 12:00:58.85	248.26	12.13	-46.0	-48.9	16.4	0.00e+00	0	44	0	145752064	62	5395
2026-01-07 12:01:01.86	248.78	12.25	-45.9	-49.0	16.2	0.00e+00	0	44	0	152043520	62	5441
2026-01-07 12:01:04.87	249.32	12.37	-45.8	-48.8	16.4	0.00e+00	0	44	0	157286400	62	5319
2026-01-07 12:01:07.89	249.85	12.49	-45.7	-48.6	16.6	0.00e+00	0	44	0	162529280	62	5208
2026-01-07 12:01:10.89	250.39	12.61	-45.7	-48.7	16.4	0.00e+00	0	44	0	168820736	62	5279
2026-01-07 12:01:13.90	250.94	12.73	-45.9	-49.1	16.1	0.00e+00	0	44	0	174063616	62	5471
2026-01-07 12:01:16.91	251.48	12.84	-46.2	-49.4	15.8	0.00e+00	0	44	0	179306496	63	5381
2026-01-07 12:01:19.92	252.04	12.95	-46.2	-49.3	15.9	0.00e+00	0	44	0	185597952	63	5296
2026-01-07 12:01:22.93	252.59	13.07	-46.4	-49.6	15.6	0.00e+00	0	44	0	190840832	63	5479
2026-01-07 12:01:25.94	253.15	13.18	-46.5	-49.8	15.3	0.00e+00	0	44	0	197132288	64	5307
2026-01-07 12:01:28.95	253.72	13.28	-46.6	-49.9	15.1	0.00e+00	0	44	0	202375168	64	5391
2026-01-07 12:01:31.96	254.29	13.39	-46.4	-49.7	15.4	0.00e+00	0	44	0	207618048	64	5253
2026-01-07 12:01:34.97	254.86	13.49	-46.7	-50.4	14.7	0.00e+00	0	44	0	213909504	64	5664
2026-01-07 12:01:37.97	255.44	13.59	-46.7	-50.2	14.9	0.00e+00	0	44	0	219152384	64	5550
2026-01-07 12:01:40.98	256.02	13.69	-46.6	-49.9	15.1	0.00e+00	0	44	0	224395264	64	5384
2026-01-07 12:01:43.98	256.60	13.78	-46.6	-50.1	14.9	0.00e+00	0	44	0	230686720	64	5470
2026-01-07 12:01:46.99	257.18	13.88	-46.8	-50.2	14.8	0.00e+00	0	44	0	235929600	64	5591
2026-01-07 12:01:50.00	257.78	13.97	-46.4	-49.7	15.3	0.00e+00	0	44	0	242221056	64	5255
2026-01-07 12:01:53.00	258.37	14.06	-46.4	-49.7	15.3	0.00e+00	0	44	0	247463936	64	5242
2026-01-07 12:01:56.01	258.97	14.14	-45.8	-48.8	16.2	0.00e+00	0	43	0	252706816	63	5010
2026-01-07 12:01:59.03	259.57	14.23	-45.3	-48.1	16.9	0.00e+00	0	44	0	258998272	62	4898
2026-01-07 12:02:02.04	260.17	14.31	-45.0	-47.8	17.1	0.00e+00	0	44	0	264241152	61	5039
2026-01-07 12:02:05.04	260.78	14.39	-45.1	-47.9	17.0	0.00e+00	0	44	0	269484032	61	5063
2026-01-07 12:02:08.05	261.39	14.46	-45.2	-47.9	16.9	0.00e+00	0	44	0	275775488	61	5086
2026-01-07 12:02:11.07	262.00	14.53	-45.2	-48.0	16.8	0.00e+00	0	44	0	281018368	61	5144
2026-01-07 12:02:14.07	262.62	14.60	-44.7	-47.4	17.4	0.00e+00	0	44	0	287309824	61	4791
2026-01-07 12:02:17.08	263.24	14.67	-45.1	-47.9	16.9	0.00e+00	0	44	0	292552704	61	5077
2026-01-07 12:02:20.09	263.86	14.73	-45.3	-48.2	16.6	0.00e+00	0	44	0	297795584	61	5225
2026-01-07 12:02:23.10	264.48	14.80	-44.9	-47.5	17.2	0.00e+00	0	43	0	304087040	61	4867
2026-01-07 12:02:26.11	265.11	14.85	-45.3	-48.1	16.7	0.00e+00	0	44	0	309329920	61	5180
2026-01-07 12:02:29.12	265.74	14.91	-45.6	-48.5	16.2	0.00e+00	0	44	0	315621376	62	5130
2026-01-07 12:02:32.13	266.37	14.96	-45.3	-48.2	16.6	0.00e+00	0	44	0	320864256	62	4947
2026-01-07 12:02:35.14	267.00	15.01	-46.2	-49.6	15.2	0.00e+00	0	44	0	326107136	63	5481
2026-01-07 12:02:38.15	267.64	15.05	-46.1	-49.3	15.5	0.00e+00	0	44	0	332398592	63	5336
2026-01-07 12:02:41.17	268.28	15.10	-45.2	-48.0	16.7	0.00e+00	0	43	0	337641472	62	4864
2026-01-07 12:02:44.18	268.92	15.14	-45.4	-48.3	16.4	0.00e+00	0	44	0	342884352	62	5041
2026-01-07 12:02:47.19	269.56	15.17	-45.4	-48.3	16.4	0.00e+00	0	44	0	349175808	62	5015
2026-01-07 12:02:50.20	270.20	15.20	-44.8	-47.6	17.1	0.00e+00	0	44	0	354418688	61	4892
2026-01-07 12:02:53.20	270.84	15.23	-44.9	-47.7	17.0	0.00e+00	0	44	0	360710144	61	4962
2026-01-07 12:02:56.21	271.48	15.26	-44.9	-47.6	17.1	0.00e+00	0	44	0	365953024	61	4884
2026-01-07 12:02:59.22	272.12	15.28	-44.7	-47.4	17.3	0.00e+00	0	44	0	371195904	61	4772
2026-01-07 12:03:02.23	272.77	15.30	-45.3	-48.2	16.5	0.00e+00	0	44	0	377487360	61	5275
2026-01-07 12:03:05.24	273.42	15.31	-45.1	-48.0	16.8	0.00e+00	0	44	0	382730240	61	5111
2026-01-07 12:03:08.25	274.06	15.33	-45.0	-47.8	17.0	0.00e+00	0	44	0	387973120	61	4999
2026-01-07 12:03:11.26	274.71	15.34	-45.6	-48.5	16.2	0.00e+00	0	44	0	394264576	62	5157
2026-01-07 12:03:14.26	275.35	15.34	-45.5	-48.4	16.4	0.00e+00	0	43	0	399507456	62	5075
2026-01-07 12:03:17.27	276.00	15.34	-45.4	-48.4	16.4	0.00e+00	0	44	0	405798912	62	5045
2026-01-07 12:03:20.28	276.65	15.34	-45.3	-48.1	16.6	0.00e+00	0	44	0	411041792	62	4915
2026-01-07 12:03:23.29	277.30	15.34	-45.2	-48.1	16.7	0.00e+00	0	44	0	416284672	62	4884
2026-01-07 12:03:26.30	277.94	15.33	-45.5	-48.5	16.2	0.00e+00	0	44	0	422576128	62	5157
2026-01-07 12:03:29.31	278.59	15.32	-45.0	-47.8	16.9	0.00e+00	0	44	0	427819008	62	4751
2026-01-07 12:03:32.32	279.24	15.30	-44.7	-47.4	17.3	0.00e+00	0	44	0	434110464	61	4799
2026-01-07 12:03:35.33	279.88	15.28	-45.1	-47.9	16.8	0.00e+00	0	44	0	439353344	61	5067
2026-01-07 12:03:38.34	280.52	15.26	-44.7	-47.4	17.3	0.00e+00	0	44	0	444596224	61	4775
2026-01-07 12:03:41.35	281.17	15.23	-44.7	-47.3	17.4	0.00e+00	0	44	0	450887680	61	4746
2026-01-07 12:03:44.35	281.81	15.21	-45.1	-47.8	16.9	0.00e+00	0	44	0	456130560	61	5036
2026-01-07 12:03:47.37	282.45	15.17	-44.6	-47.2	17.5	0.00e+00	0	44	0	461373440	61	4664
2026-01-07 12:03:50.38	283.09	15.14	-44.3	-46.8	17.9	0.00e+00	0	44	0	467664896	60	4724
2026-01-07 12:03:53.38	283.72	15.10	-45.0	-47.7	17.0	0.00e+00	0	44	0	472907776	60	5259
2026-01-07 12:03:56.40	284.36	15.06	-45.0	-47.8	16.9	0.00e+00	0	44	0	479199232	60	5295
2026-01-07 12:03:59.40	284.99	15.01	-45.0	-47.7	17.1	0.00e+00	0	44	0	484442112	60	5229
2026-01-07 12:04:02.41	285.63	14.97	-45.0	-47.7	17.0	0.00e+00	0	44	0	489684992	60	5267
2026-01-07 12:04:05.41	286.25	14.91	-45.1	-48.0	16.8	0.00e+00	0	44	0	495976448	60	5405
2026-01-07 12:04:08.43	286.88	14.86	-45.2	-48.0	16.7	0.00e+00	0	44	0	501219328	61	5154
2026-01-07 12:04:11.43	287.51	14.80	-45.2	-48.1	16.7	0.00e+00	0	44	0	506462208	61	5161
2026-01-07 12:04:14.44	288.13	14.74	-44.9	-47.6	17.2	0.00e+00	0	43	0	512753664	61	4876
2026-01-07 12:04:17.45	288.75	14.68	-44.6	-47.3	17.4	0.00e+00	0	44	0	517996544	61	4729
2026-01-07 12:04:20.46	289.37	14.61	-44.1	-46.5	18.1	0.00e+00	0	44	0	524288000	60	4598
2026-01-07 12:04:23.47	289.98	14.54	-44.0	-46.4	18.1	0.00e+00	0	44	0	529530880	59	4776
2026-01-07 12:04:26.47	290.59	14.47	-44.2	-46.7	17.9	0.00e+00	0	44	0	534773760	59	4960
2026-01-07 12:04:29.48	291.20	14.40	-43.9	-46.3	18.3	0.00e+00	0	44	0	541065216	59	4740
2026-01-07 12:04:32.49	291.81	14.32	-44.2	-46.7	17.9	0.00e+00	0	44	0	546308096	59	4972
2026-01-07 12:04:35.50	292.41	14.24	-44.7	-47.4	17.3	0.00e+00	0	44	0	551550976	60	5068
2026-01-07 12:04:38.51	293.01	14.16	-44.8	-47.6	17.2	0.00e+00	0	44	0	557842432	60	5160
2026-01-07 12:04:41.52	293.60	14.07	-44.8	-47.5	17.2	0.00e+00	0	44	0	563085312	60	5126
2026-01-07 12:04:44.53	294.20	13.98	-44.7	-47.3	17.3	0.00e+00	0	44	0	569376768	60	5023
2026-01-07 12:04:47.54	294.79	13.89	-44.3	-46.8	17.8	0.00e+00	0	44	0	574619648	60	4750
2026-01-07 12:04:50.55	295.37	13.80	-44.0	-46.5	18.1	0.00e+00	0	44	0	579862528	60	4571
2026-01-07 12:04:53.56	295.95	13.70	-43.8	-46.2	18.3	0.00e+00	0	43	0	586153984	59	4668
2026-01-07 12:04:56.56	296.53	13.61	-44.1	-46.6	17.9	0.00e+00	0	44	0	591396864	59	4902
2026-01-07 12:04:59.58	297.11	13.51	-44.1	-46.5	18.0	0.00e+00	0	44	0	597688320	59	4860
2026-01-07 12:05:02.59	297.68	13.41	-44.3	-46.9	17.6	0.00e+00	0	44	0	602931200	59	5074
2026-01-07 12:05:05.59	298.24	13.30	-44.7	-47.3	17.2	0.00e+00	0	44	0	608174080	59	5334
2026-01-07 12:05:08.60	298.80	13.20	-44.6	-47.2	17.4	0.00e+00	0	44	0	614465536	60	4949
2026-01-07 12:05:11.62	299.37	13.09	-44.5	-47.1	17.5	0.00e+00	0	44	0	619708416	60	4871
2026-01-07 12:05:14.63	299.92	12.98	-44.6	-47.3	17.3	0.00e+00	0	44	0	624951296	60	5015
2026-01-07 12:05:17.64	300.47	12.87	-44.4	-47.0	17.6	0.00e+00	0	43	0	631242752	60	4841
2026-01-07 12:05:20.65	301.02	12.75	-44.5	-47.1	17.4	0.00e+00	0	44	0	636485632	60	4917
2026-01-07 12:05:23.66	301.56	12.64	-45.0	-47.9	16.8	0.00e+00	0	44	0	642777088	60	5343
2026-01-07 12:05:26.66	302.10	12.52	-45.3	-48.1	16.5	0.00e+00	0	44	0	648019968	61	5210
2026-01-07 12:05:29.68	302.63	12.40	-45.4	-48.3	16.4	0.00e+00	0	44	0	653262848	61	5304
2026-01-07 12:05:32.69	303.16	12.28	-45.2	-48.1	16.5	0.00e+00	0	44	0	659554304	61	5196
2026-01-07 12:05:35.69	303.69	12.16	-45.6	-48.7	16.0	0.00e+00	0	44	0	664797184	61	5538
2026-01-07 12:05:38.70	304.21	12.03	-46.0	-49.4	15.4	0.00e+00	0	44	0	670040064	62	5661
2026-01-07 12:05:41.71	304.72	11.91	-46.2	-49.5	15.2	0.00e+00	0	44	0	676331520	63	5431
2026-01-07 12:05:44.72	305.24	11.78	-46.2	-49.5	15.2	0.00e+00	0	44	0	681574400	63	5446
2026-01-07 12:05:47.73	305.75	11.65	-46.4	-49.9	14.9	0.00e+00	0	44	0	687865856	63	5663
2026-01-07 12:05:50.74	306.25	11.53	-46.0	-49.4	15.3	0.00e+00	0	44	0	693108736	63	5343
2026-01-07 12:05:53.75	306.75	11.40	-45.5	-48.6	16.0	0.00e+00	0	44	0	698351616	62	5184
2026-01-07 12:05:56.76	307.24	11.26	-45.9	-49.3	15.2	7.00e-07	0	44	0	704643072	62	5632
2026-01-07 12:05:59.77	307.74	11.13	-46.5	-50.4	14.1	7.00e-07	0	44	0	709885952	63	6036
2026-01-07 12:06:02.78	308.22	11.00	-46.4	-50.6	13.9	3.80e-06	0	44	0	716177408	63	6159
2026-01-07 12:06:05.79	308.70	10.86	-46.4	-50.5	14.0	3.00e-06	0	44	0	721420288	63	6082
2026-01-07 12:06:08.79	309.18	10.73	-46.2	-49.9	14.6	1.50e-06	0	44	0	726663168	63	5705
2026-01-07 12:06:11.81	309.66	10.59	-46.0	-49.5	14.9	0.00e+00	0	44	0	732954624	63	5452
2026-01-07 12:06:14.81	310.12	10.45	-46.2	-49.8	14.7	0.00e+00	0	44	0	738197504	63	5633
2026-01-07 12:06:17.82	310.59	10.31	-46.4	-50.0	14.5	0.00e+00	0	44	0	743440384	63	5780
2026-01-07 12:06:20.82	311.05	10.17	-46.0	-49.5	15.0	0.00e+00	0	44	0	749731840	63	5445
2026-01-07 12:06:23.83	311.50	10.03	-45.7	-49.1	15.4	0.00e+00	0	44	0	754974720	63	5204
2026-01-07 12:06:26.84	311.96	9.89	-45.8	-49.4	15.2	0.00e+00	0	44	0	761266176	63	5368
2026-01-07 12:06:29.85	312.41	9.75	-46.1	-50.0	14.5	0.00e+00	0	44	0	766509056	63	5763
2026-01-07 12:06:32.86	312.85	9.61	-46.5	-50.7	13.9	1.50e-06	0	44	0	771751936	63	6212
2026-01-07 12:06:35.87	313.29	9.46	-46.4	-50.3	14.2	4.50e-06	0	44	0	778043392	63	5984
2026-01-07 12:06:38.88	313.72	9.32	-46.1	-49.7	14.8	7.00e-07	0	44	0	783286272	63	5555
2026-01-07 12:06:41.89	314.16	9.18	-45.9	-49.3	15.2	0.00e+00	0	44	0	788529152	63	5329
2026-01-07 12:06:44.90	314.58	9.03	-45.7	-49.1	15.3	0.00e+00	0	44	0	794820608	63	5218
2026-01-07 12:06:47.92	315.01	8.89	-50.4	-66.2	3.8	1.49e+00	0	44	104	796917760	72	22075
2026-01-07 12:06:50.93	315.43	8.74	-51.0	-66.4	3.8	1.49e+00	0	44	104	796917760	73	21429
2026-01-07 12:06:53.95	315.84	8.59	-51.2	-66.5	3.8	1.49e+00	0	44	104	796917760	73	21644
2026-01-07 12:06:56.96	316.25	8.45	-51.4	-66.5	3.8	1.49e+00	0	44	104	796917760	73	21753
2026-01-07 12:06:59.97	316.66	8.30	-51.3	-66.5	3.8	1.49e+00	0	44	104	796917760	73	21721
2026-01-07 12:07:02.98	317.06	8.15	-51.2	-66.6	3.8	1.49e+00	0	44	104	796917760	73	21795
2026-01-07 12:07:06.00	317.46	8.00	-51.2	-66.5	3.8	1.49e+00	0	44	104	796917760	73	21694
2026-01-07 12:07:09.01	317.86	7.86	-51.1	-66.5	3.8	1.49e+00	0	44	104	796917760	73	21637
2026-01-07 12:07:12.02	318.25	7.71	-51.1	-66.5	3.8	1.49e+00	0	44	104	796917760	73	21592
2026-01-07 12:07:15.04	318.64	7.56	-51.1	-66.5	3.8	1.49e+00	0	44	104	796917760	73	21660
2026-01-07 12:07:18.05	319.02	7.41	-51.1	-66.5	3.8	1.49e+00	0	44	104	796917760	73	21591
2026-01-07 12:07:21.07	319.40	7.26	-51.0	-66.5	3.8	1.49e+00	0	44	104	796917760	73	21544
2026-01-07 12:07:24.08	319.78	7.11	-51.0	-66.5	3.8	1.49e+00	0	44	104	796917760	73	21521
2026-01-07 12:07:27.09	320.15	6.96	-51.0	-66.5	3.8	1.49e+00	0	44	104	796917760	73	21584
2026-01-07 12:07:30.11	320.52	6.81	-51.1	-66.5	3.8	1.49e+00	0	44	104	796917760	73	21562
2026-01-07 12:07:33.12	320.89	6.66	-51.0	-66.5	3.8	1.49e+00	0	44	104	796917760	73	21596
2026-01-07 12:07:36.13	321.25	6.51	-51.0	-66.4	3.8	1.49e+00	0	44	104	796917760	73	21479
2026-01-07 12:07:39.14	321.61	6.36	-51.0	-66.5	3.8	1.49e+00	0	44	104	796917760	73	21543
2026-01-07 12:07:42.16	321.96	6.21	-51.0	-66.5	3.8	1.49e+00	0	44	104	796917760	73	21517
2026-01-07 12:07:45.17	322.31	6.06	-51.0	-66.5	3.8	1.49e+00	0	44	104	796917760	73	21567
2026-01-07 12:07:48.18	322.66	5.92	-51.0	-66.5	3.8	1.49e+00	0	44	104	796917760	73	21520
2026-01-07 12:07:51.19	323.01	5.77	-51.0	-66.5	3.8	1.49e+00	0	44	104	796917760	73	21531
2026-01-07 12:07:54.21	323.35	5.62	-51.0	-66.5	3.8	1.49e+00	0	44	104	796917760	73	21543
2026-01-07 12:07:57.22	323.68	5.47	-51.0	-66.5	3.8	1.49e+00	0	44	104	796917760	73	21522
2026-01-07 12:08:00.23	324.02	5.32	-51.0	-66.4	3.8	1.49e+00	0	44	104	796917760	73	21466
2026-01-07 12:08:03.25	324.35	5.17	-51.0	-66.5	3.8	1.49e+00	0	44	104	796917760	73	21526
2026-01-07 12:08:06.26	324.68	5.02	-51.0	-66.5	3.8	1.49e+00	0	44	104	796917760	73	21574

#Closed at: 2026-01-07 12:08:08
#Recorded file [796 MB]: D:/Data/31040_260107_145831.dat