passes_logs/2025/01/29/Planum_Noyabrsk/Planum_Noyabrsk__20250129_062858_NOAA_18_rec.log

#Pass ID: 20250129_062858_NOAA 18
#Satellite: NOAA 18
#Configuration: NOAA 18
#Start time: 2025-01-29 06:29:03.735405

#LorettStation: 1.0.0 05.05.2024
#Station: Planum_Noyabrsk
#Location: 75.446886 lon 63.207202 lat
#TLE: 1 28654U 05018A   25028.47060757  .00000424  00000+0  24855-3 0  9998
#TLE: 2 28654  98.8545 109.3901 0014896 142.1811 218.0411 14.13499801 15086

#Time	Az	El	Level	SNR
2025-01-29 06:29:09.933284	30.6	31.1	-54.0	0.0
2025-01-29 06:29:11.076241	30.8	31.4	-55.4	0.0
2025-01-29 06:29:12.222190	30.9	31.6	-54.7	0.0
2025-01-29 06:29:13.364150	31.0	31.8	-55.2	0.0
2025-01-29 06:29:14.506110	31.1	32.0	-54.5	0.0
2025-01-29 06:29:15.651062	31.2	32.2	-53.4	0.0
2025-01-29 06:29:16.792532	31.3	32.5	-53.9	0.0
2025-01-29 06:29:17.934998	31.4	32.7	-55.4	0.0
2025-01-29 06:29:19.075960	31.6	32.9	-54.0	0.0
2025-01-29 06:29:20.218917	31.7	33.1	-54.0	0.0
2025-01-29 06:29:21.362872	31.8	33.4	-59.3	0.0
2025-01-29 06:29:22.511813	31.9	33.6	-55.9	0.0
2025-01-29 06:29:23.653773	32.1	33.8	-53.3	0.0
2025-01-29 06:29:24.795732	32.2	34.1	-52.4	0.0
2025-01-29 06:29:25.939197	32.3	34.3	-53.0	0.0
2025-01-29 06:29:27.081155	32.4	34.6	-54.7	0.0
2025-01-29 06:29:28.225110	32.6	34.8	-54.7	0.0
2025-01-29 06:29:29.370062	32.7	35.0	-56.6	0.0
2025-01-29 06:29:30.511024	32.8	35.3	-54.0	0.0
2025-01-29 06:29:31.652502	33.0	35.5	-55.2	0.0
2025-01-29 06:29:32.794461	33.1	35.8	-52.7	0.0
2025-01-29 06:29:33.938416	33.3	36.0	-55.6	0.0
2025-01-29 06:29:35.079378	33.4	36.3	-53.7	0.0
2025-01-29 06:29:36.223333	33.6	36.5	-57.4	0.0
2025-01-29 06:29:37.365293	33.7	36.8	-53.9	0.0
2025-01-29 06:29:38.507252	33.9	37.0	-52.6	0.0
2025-01-29 06:29:39.654198	34.0	37.3	-54.7	0.0
2025-01-29 06:29:40.796158	34.2	37.5	-54.0	0.0
2025-01-29 06:29:41.940113	34.3	37.8	-54.9	0.0
2025-01-29 06:29:43.083070	34.5	38.1	-53.3	0.0
2025-01-29 06:29:44.225030	34.7	38.3	-52.5	0.0
2025-01-29 06:29:45.366015	34.8	38.6	-55.5	0.0
2025-01-29 06:29:46.508972	35.0	38.9	-54.5	0.0
2025-01-29 06:29:47.651929	35.2	39.1	-54.1	0.0
2025-01-29 06:29:48.792405	35.3	39.4	-55.6	0.0
2025-01-29 06:29:49.938354	35.5	39.7	-57.7	0.0
2025-01-29 06:29:51.079317	35.7	40.0	-56.3	0.0
2025-01-29 06:29:52.223788	35.9	40.2	-55.4	0.0
2025-01-29 06:29:53.366745	36.1	40.5	-55.0	0.0
2025-01-29 06:29:54.506710	36.3	40.8	-55.2	0.0
2025-01-29 06:29:55.649667	36.4	41.1	-58.0	0.0
2025-01-29 06:29:56.790630	36.6	41.4	-57.1	0.0
2025-01-29 06:29:57.932590	36.8	41.6	-59.2	2.1
2025-01-29 06:29:59.074058	37.0	41.9	-57.7	2.2
2025-01-29 06:30:00.236962	37.3	42.2	-55.0	0.0
2025-01-29 06:30:01.377924	37.5	42.5	-55.0	0.0
2025-01-29 06:30:02.520393	37.7	42.8	-55.4	0.0
2025-01-29 06:30:03.662353	37.9	43.1	-58.9	0.8
2025-01-29 06:30:04.804313	38.1	43.4	-57.9	2.3
2025-01-29 06:30:05.946779	38.3	43.7	-55.9	0.0
2025-01-29 06:30:07.090733	38.6	44.0	-55.8	0.0
2025-01-29 06:30:08.232693	38.8	44.3	-55.0	0.0
2025-01-29 06:30:09.373164	39.1	44.6	-55.4	0.0
2025-01-29 06:30:10.516121	39.3	44.9	-55.4	0.0
2025-01-29 06:30:11.657083	39.5	45.2	-58.4	3.1
2025-01-29 06:30:12.799552	39.8	45.5	-57.6	1.4
2025-01-29 06:30:13.942510	40.1	45.9	-58.3	0.6
2025-01-29 06:30:15.088458	40.3	46.2	-58.9	0.0
2025-01-29 06:30:16.237415	40.6	46.5	-59.3	0.7
2025-01-29 06:30:17.379375	40.9	46.8	-58.6	1.4
2025-01-29 06:30:18.522332	41.1	47.1	-57.7	0.8
2025-01-29 06:30:19.663294	41.4	47.5	-57.6	1.6
2025-01-29 06:30:20.804767	41.7	47.8	-58.7	2.7
2025-01-29 06:30:21.946234	42.0	48.1	-58.2	1.0
2025-01-29 06:30:23.088194	42.3	48.4	-56.5	0.0
2025-01-29 06:30:24.228159	42.6	48.8	-58.3	0.0
2025-01-29 06:30:25.370119	42.9	49.1	-58.7	3.2
2025-01-29 06:30:26.515092	43.3	49.4	-59.2	3.1
2025-01-29 06:30:27.658049	43.6	49.8	-59.1	3.5
2025-01-29 06:30:28.801006	43.9	50.1	-56.3	0.0
2025-01-29 06:30:29.943963	44.3	50.4	-57.8	3.1
2025-01-29 06:30:31.085923	44.6	50.8	-59.5	4.2
2025-01-29 06:30:32.227884	45.0	51.1	-60.4	6.0
2025-01-29 06:30:33.374339	45.4	51.4	-59.5	4.1
2025-01-29 06:30:34.516298	45.7	51.8	-58.1	1.5
2025-01-29 06:30:35.659255	46.1	52.1	-61.0	5.5
2025-01-29 06:30:36.799235	46.5	52.5	-60.1	5.2
2025-01-29 06:30:37.946182	46.9	52.8	-58.8	1.1
2025-01-29 06:30:39.089139	47.3	53.2	-60.5	5.0
2025-01-29 06:30:40.231099	47.8	53.5	-60.6	4.8
2025-01-29 06:30:41.372061	48.2	53.8	-60.6	2.2
2025-01-29 06:30:42.515018	48.6	54.2	-59.9	2.5
2025-01-29 06:30:43.654983	49.1	54.5	-61.6	6.4
2025-01-29 06:30:44.795945	49.6	54.9	-61.7	5.4
2025-01-29 06:30:45.937905	50.0	55.2	-60.3	3.8
2025-01-29 06:30:47.077871	50.5	55.6	-59.7	3.9
2025-01-29 06:30:48.220828	51.0	55.9	-60.0	0.0
2025-01-29 06:30:49.361790	51.5	56.3	-58.6	0.0
2025-01-29 06:30:50.503259	52.1	56.6	-60.4	4.4
2025-01-29 06:30:51.644221	52.6	57.0	-61.2	2.6
2025-01-29 06:30:52.786181	53.1	57.3	-61.3	3.2
2025-01-29 06:30:53.929138	53.7	57.7	-61.3	3.0
2025-01-29 06:30:55.070101	54.3	58.0	-61.7	4.4
2025-01-29 06:30:56.213058	54.9	58.4	-61.3	1.5
2025-01-29 06:30:57.354529	55.5	58.7	-61.9	6.3
2025-01-29 06:30:58.503469	56.1	59.1	-61.6	3.6
2025-01-29 06:30:59.646426	56.8	59.4	-61.4	5.8
2025-01-29 06:31:00.787405	57.4	59.8	-61.1	3.5
2025-01-29 06:31:01.930362	58.1	60.1	-61.2	6.4
2025-01-29 06:31:03.072322	58.8	60.4	-61.1	6.6
2025-01-29 06:31:04.214282	59.5	60.8	-60.9	7.7
2025-01-29 06:31:05.357239	60.3	61.1	-61.2	7.1
2025-01-29 06:31:06.499198	61.0	61.5	-61.2	6.0
2025-01-29 06:31:07.640668	61.8	61.8	-60.5	6.3
2025-01-29 06:31:08.782627	62.6	62.1	-61.3	6.7
2025-01-29 06:31:09.928576	63.4	62.4	-61.2	8.3
2025-01-29 06:31:11.070045	64.3	62.8	-60.8	5.8
2025-01-29 06:31:12.211007	65.1	63.1	-61.2	5.4
2025-01-29 06:31:13.353965	66.0	63.4	-61.0	7.6
2025-01-29 06:31:14.494926	66.9	63.7	-61.1	7.1
2025-01-29 06:31:15.635889	67.9	64.0	-61.1	5.0
2025-01-29 06:31:16.776852	68.8	64.3	-61.0	5.1
2025-01-29 06:31:17.918812	69.8	64.6	-60.8	5.2
2025-01-29 06:31:19.059774	70.8	64.9	-60.8	7.8
2025-01-29 06:31:20.205723	71.9	65.2	-54.8	0.0
2025-01-29 06:31:21.348190	72.9	65.4	-60.2	6.1
2025-01-29 06:31:22.494140	74.0	65.7	-59.6	5.7
2025-01-29 06:31:23.636098	75.1	66.0	-61.1	8.2
2025-01-29 06:31:24.779564	76.3	66.2	-61.3	5.0
2025-01-29 06:31:25.922521	77.4	66.5	-60.7	6.7
2025-01-29 06:31:27.065480	78.6	66.7	-61.3	6.0
2025-01-29 06:31:28.207945	79.9	66.9	-59.7	2.7
2025-01-29 06:31:29.348906	81.1	67.1	-59.8	4.9
2025-01-29 06:31:30.490867	82.4	67.4	-60.4	5.5
2025-01-29 06:31:31.632826	83.7	67.6	-60.5	4.3
2025-01-29 06:31:32.774841	85.0	67.8	-60.1	3.8
2025-01-29 06:31:33.916311	86.3	67.9	-60.0	3.4
2025-01-29 06:31:35.057784	87.7	68.1	-60.6	3.2
2025-01-29 06:31:36.199744	89.1	68.3	-59.4	4.8
2025-01-29 06:31:37.340706	90.5	68.4	-59.6	6.4
2025-01-29 06:31:38.483663	91.9	68.5	-60.9	4.8
2025-01-29 06:31:39.625621	93.4	68.7	-59.9	5.4
2025-01-29 06:31:40.768578	94.9	68.8	-61.7	5.4
2025-01-29 06:31:41.909539	96.4	68.9	-61.8	8.2
2025-01-29 06:31:43.052496	97.9	68.9	-62.5	7.7
2025-01-29 06:31:44.193457	99.4	69.0	-62.1	6.8
2025-01-29 06:31:45.334925	100.9	69.1	-57.9	2.3
2025-01-29 06:31:46.476884	102.4	69.1	-56.0	0.0
2025-01-29 06:31:47.619843	103.9	69.1	-59.4	4.9
2025-01-29 06:31:48.763795	105.5	69.2	-59.8	4.6
2025-01-29 06:31:49.904266	107.0	69.2	-59.3	4.0
2025-01-29 06:31:51.047223	108.6	69.1	-58.6	3.3
2025-01-29 06:31:52.188184	110.1	69.1	-61.1	7.6
2025-01-29 06:31:53.331647	111.6	69.1	-59.5	5.1
2025-01-29 06:31:54.476599	113.1	69.0	-61.2	5.7
2025-01-29 06:31:55.617560	114.6	69.0	-61.0	6.8
2025-01-29 06:31:56.760026	116.1	68.9	-62.8	10.1
2025-01-29 06:31:57.900988	117.6	68.8	-61.3	8.9
2025-01-29 06:31:59.042947	119.1	68.7	-61.2	8.4
2025-01-29 06:32:00.188895	120.6	68.6	-60.1	4.7
2025-01-29 06:32:01.329857	122.0	68.4	-59.8	4.2
2025-01-29 06:32:02.472813	123.4	68.3	-58.6	3.1
2025-01-29 06:32:03.613286	124.8	68.1	-61.9	10.3
2025-01-29 06:32:04.757241	126.2	68.0	-57.0	2.4
2025-01-29 06:32:05.902191	127.5	67.8	-61.3	4.7
2025-01-29 06:32:07.043153	128.9	67.6	-58.1	3.2
2025-01-29 06:32:08.185113	130.2	67.4	-60.8	5.3
2025-01-29 06:32:09.325077	131.5	67.2	-62.6	10.4
2025-01-29 06:32:10.467545	132.7	67.0	-62.6	10.5
2025-01-29 06:32:11.613493	133.9	66.7	-61.0	7.9
2025-01-29 06:32:12.757447	135.1	66.5	-59.8	6.3
2025-01-29 06:32:13.905391	136.3	66.2	-60.7	7.9
2025-01-29 06:32:15.049344	137.5	66.0	-59.8	4.3
2025-01-29 06:32:16.191303	138.6	65.7	-61.6	5.1
2025-01-29 06:32:17.335256	139.7	65.5	-60.4	4.5
2025-01-29 06:32:18.477215	140.7	65.2	-62.3	8.3
2025-01-29 06:32:19.620172	141.8	64.9	-62.7	10.6
2025-01-29 06:32:20.761641	142.8	64.6	-60.7	2.9
2025-01-29 06:32:21.904598	143.8	64.3	-63.8	9.8
2025-01-29 06:32:23.048552	144.8	64.0	-63.6	9.4
2025-01-29 06:32:24.191508	145.7	63.7	-62.9	8.3
2025-01-29 06:32:25.332469	146.6	63.4	-63.9	8.1
2025-01-29 06:32:26.474428	147.5	63.1	-61.5	2.1
2025-01-29 06:32:27.619395	148.4	62.8	-64.3	9.5
2025-01-29 06:32:28.762857	149.2	62.5	-63.9	9.3
2025-01-29 06:32:29.903819	150.0	62.1	-60.8	4.2
2025-01-29 06:32:31.045793	150.8	61.8	-63.2	5.4
2025-01-29 06:32:32.186755	151.6	61.5	-63.2	3.1
2025-01-29 06:32:33.329221	152.4	61.1	-61.2	3.3
2025-01-29 06:32:34.472684	153.1	60.8	-62.8	9.0
2025-01-29 06:32:35.614643	153.8	60.5	-64.3	8.2
2025-01-29 06:32:36.757600	154.6	60.1	-62.9	5.8
2025-01-29 06:32:37.898074	155.2	59.8	-65.1	7.0
2025-01-29 06:32:39.040033	155.9	59.4	-65.4	3.7
2025-01-29 06:32:40.181992	156.5	59.1	-62.3	1.1
2025-01-29 06:32:41.323466	157.2	58.7	-63.0	3.2
2025-01-29 06:32:42.464427	157.8	58.4	-62.3	0.3
2025-01-29 06:32:43.613369	158.4	58.0	-62.8	2.8
2025-01-29 06:32:44.754837	159.0	57.7	-64.5	0.0
2025-01-29 06:32:45.899788	159.6	57.3	-64.0	1.0
2025-01-29 06:32:47.042744	160.1	57.0	-64.2	1.8
2025-01-29 06:32:48.183706	160.7	56.6	-65.0	1.8
2025-01-29 06:32:49.326662	161.2	56.3	-63.3	1.8
2025-01-29 06:32:50.470617	161.7	55.9	-62.7	0.0
2025-01-29 06:32:51.617561	162.2	55.6	-65.5	4.7
2025-01-29 06:32:52.759521	162.7	55.2	-66.0	6.1
2025-01-29 06:32:53.900482	163.2	54.9	-64.7	0.5
2025-01-29 06:32:55.042955	163.6	54.5	-65.9	7.9
2025-01-29 06:32:56.183917	164.1	54.2	-66.2	9.1
2025-01-29 06:32:57.325875	164.5	53.8	-66.0	9.4
2025-01-29 06:32:58.468832	165.0	53.5	-66.7	10.1
2025-01-29 06:32:59.609793	165.4	53.1	-64.6	6.3
2025-01-29 06:33:00.752750	165.8	52.8	-64.6	8.5
2025-01-29 06:33:01.894223	166.2	52.4	-65.4	10.4
2025-01-29 06:33:03.038177	166.6	52.1	-64.5	8.0
2025-01-29 06:33:04.179139	167.0	51.8	-65.3	12.0
2025-01-29 06:33:05.322607	167.4	51.4	-64.3	8.9
2025-01-29 06:33:06.465564	167.8	51.1	-65.2	8.8
2025-01-29 06:33:07.609517	168.1	50.7	-65.6	12.5
2025-01-29 06:33:08.750479	168.5	50.4	-65.8	13.7
2025-01-29 06:33:09.892438	168.8	50.1	-65.7	13.8
2025-01-29 06:33:11.036392	169.2	49.7	-64.9	12.7
2025-01-29 06:33:12.179859	169.5	49.4	-65.2	13.3
2025-01-29 06:33:13.320819	169.8	49.1	-65.3	13.5
2025-01-29 06:33:14.462779	170.1	48.7	-64.5	10.7
2025-01-29 06:33:15.608728	170.4	48.4	-63.7	11.2
2025-01-29 06:33:16.752681	170.7	48.1	-64.9	12.2
2025-01-29 06:33:17.903616	171.0	47.7	-63.9	9.7
2025-01-29 06:33:19.047570	171.3	47.4	-65.0	12.0
2025-01-29 06:33:20.190526	171.6	47.1	-65.6	12.7
2025-01-29 06:33:21.332485	171.9	46.8	-66.2	13.2
2025-01-29 06:33:22.473954	172.2	46.4	-64.4	8.0
2025-01-29 06:33:23.614919	172.4	46.1	-65.0	7.3
2025-01-29 06:33:24.755878	172.7	45.8	-64.6	10.1
2025-01-29 06:33:25.897838	173.0	45.5	-66.2	9.6
2025-01-29 06:33:27.041791	173.2	45.2	-66.0	10.6
2025-01-29 06:33:28.185745	173.5	44.9	-65.5	10.4
2025-01-29 06:33:29.329207	173.7	44.6	-64.6	7.7
2025-01-29 06:33:30.471166	174.0	44.3	-65.2	11.2
2025-01-29 06:33:31.612128	174.2	43.9	-65.1	10.0
2025-01-29 06:33:32.755084	174.4	43.6	-65.7	9.7
2025-01-29 06:33:33.896046	174.6	43.3	-66.3	10.1
2025-01-29 06:33:35.040000	174.9	43.0	-64.5	6.0
2025-01-29 06:33:36.187452	175.1	42.7	-63.7	3.7
2025-01-29 06:33:37.328414	175.3	42.4	-64.6	8.1
2025-01-29 06:33:38.470372	175.5	42.2	-64.7	8.7
2025-01-29 06:33:39.610843	175.7	41.9	-64.5	8.2
2025-01-29 06:33:40.753800	175.9	41.6	-65.1	7.9
2025-01-29 06:33:41.896757	176.1	41.3	-64.8	8.1
2025-01-29 06:33:43.041216	176.3	41.0	-65.3	7.4
2025-01-29 06:33:44.185170	176.5	40.7	-65.9	8.9
2025-01-29 06:33:45.330121	176.7	40.4	-66.4	11.0
2025-01-29 06:33:46.471083	176.9	40.1	-65.5	7.7
2025-01-29 06:33:47.613042	177.1	39.9	-65.7	9.0
2025-01-29 06:33:48.755001	177.3	39.6	-65.4	8.7
2025-01-29 06:33:49.897960	177.4	39.3	-65.2	6.5
2025-01-29 06:33:51.041911	177.6	39.0	-64.8	7.5
2025-01-29 06:33:52.183870	177.8	38.8	-65.7	8.5
2025-01-29 06:33:53.327332	177.9	38.5	-64.7	7.1
2025-01-29 06:33:54.470289	178.1	38.2	-64.4	6.7
2025-01-29 06:33:55.613245	178.3	38.0	-64.4	6.3
2025-01-29 06:33:56.755204	178.4	37.7	-64.4	5.9
2025-01-29 06:33:57.897163	178.6	37.4	-65.0	8.1
2025-01-29 06:33:59.039123	178.8	37.2	-65.5	9.4
2025-01-29 06:34:00.182587	178.9	36.9	-65.2	8.3
2025-01-29 06:34:01.324545	179.1	36.7	-64.6	7.1
2025-01-29 06:34:02.466505	179.2	36.4	-65.0	8.2
2025-01-29 06:34:03.613451	179.4	36.2	-64.5	8.9
2025-01-29 06:34:04.755409	179.5	35.9	-64.9	8.9
2025-01-29 06:34:05.897878	179.6	35.7	-66.0	9.8
2025-01-29 06:34:07.038350	179.8	35.4	-65.3	8.0
2025-01-29 06:34:08.180309	179.9	35.2	-65.0	8.1
2025-01-29 06:34:09.322269	180.1	34.9	-65.4	10.1
2025-01-29 06:34:10.463738	180.2	34.7	-66.0	10.2
2025-01-29 06:34:11.606695	180.3	34.4	-65.6	10.8
2025-01-29 06:34:12.747656	180.5	34.2	-65.4	10.5
2025-01-29 06:34:13.889615	180.6	34.0	-65.4	10.5
2025-01-29 06:34:15.033569	180.7	33.7	-65.6	10.8
2025-01-29 06:34:16.175529	180.8	33.5	-65.9	10.6
2025-01-29 06:34:17.317503	181.0	33.3	-65.8	11.2
2025-01-29 06:34:18.459462	181.1	33.0	-66.0	12.1
2025-01-29 06:34:19.602419	181.2	32.8	-66.1	11.9
2025-01-29 06:34:20.743886	181.3	32.6	-66.1	11.7
2025-01-29 06:34:21.886843	181.4	32.3	-65.8	11.4
2025-01-29 06:34:23.028801	181.6	32.1	-66.1	12.5
2025-01-29 06:34:24.171272	181.7	31.9	-64.8	8.9
2025-01-29 06:34:25.314227	181.8	31.7	-65.6	10.9
2025-01-29 06:34:26.456187	181.9	31.4	-65.4	9.4
2025-01-29 06:34:27.600140	182.0	31.2	-66.4	13.0
2025-01-29 06:34:28.742099	182.1	31.0	-66.6	12.3
2025-01-29 06:34:29.884058	182.2	30.8	-66.2	11.6
2025-01-29 06:34:31.025530	182.3	30.6	-66.2	10.8
2025-01-29 06:34:32.166492	182.4	30.4	-66.2	9.7
2025-01-29 06:34:33.309449	182.5	30.2	-66.1	8.6
2025-01-29 06:34:34.450410	182.6	29.9	-68.3	3.4
#Closed at: 2025-01-29 06:28:58.739603