passes_logs/2025/01/29/Planum_Noyabrsk/Planum_Noyabrsk__20250129_160421_NOAA_19_rec.log

#Pass ID: 20250129_160421_NOAA 19
#Satellite: NOAA 19
#Configuration: NOAA 19
#Start time: 2025-01-29 16:04:26.808799

#LorettStation: 1.0.0 05.05.2024
#Station: Planum_Noyabrsk
#Location: 75.446886 lon 63.207202 lat
#TLE: 1 33591U 09005A   25028.45560022  .00000384  00000+0  22908-3 0  9994
#TLE: 2 33591  99.0171  92.3206 0013949  20.9487 339.2254 14.13271143823444

#Time	Az	El	Level	SNR
2025-01-29 16:04:33.011083	196.2	31.0	-65.0	10.6
2025-01-29 16:04:34.151048	196.4	31.2	-65.2	10.9
2025-01-29 16:04:35.294005	196.6	31.4	-65.5	11.7
2025-01-29 16:04:36.433987	196.8	31.6	-65.4	11.2
2025-01-29 16:04:37.574949	197.0	31.8	-65.2	10.9
2025-01-29 16:04:38.716908	197.2	32.0	-65.6	11.9
2025-01-29 16:04:39.859865	197.4	32.2	-65.5	12.0
2025-01-29 16:04:41.003330	197.6	32.4	-65.7	11.8
2025-01-29 16:04:42.146286	197.8	32.6	-65.3	12.5
2025-01-29 16:04:43.292235	198.1	32.8	-65.4	12.0
2025-01-29 16:04:44.437696	198.3	33.0	-65.9	12.0
2025-01-29 16:04:45.580650	198.5	33.2	-65.5	13.0
2025-01-29 16:04:46.722121	198.7	33.4	-65.8	12.6
2025-01-29 16:04:47.863082	199.0	33.7	-65.5	12.6
2025-01-29 16:04:49.005043	199.2	33.9	-65.1	12.1
2025-01-29 16:04:50.146004	199.4	34.1	-65.4	12.2
2025-01-29 16:04:51.291953	199.7	34.3	-65.4	12.9
2025-01-29 16:04:52.436904	199.9	34.5	-65.5	12.8
2025-01-29 16:04:53.577376	200.2	34.7	-65.4	13.3
2025-01-29 16:04:54.721331	200.4	34.9	-65.5	13.2
2025-01-29 16:04:55.865284	200.7	35.1	-65.7	13.5
2025-01-29 16:04:57.007243	200.9	35.3	-65.4	12.5
2025-01-29 16:04:58.148205	201.2	35.5	-65.2	12.3
2025-01-29 16:04:59.291162	201.4	35.8	-65.1	13.5
2025-01-29 16:05:00.436113	201.7	36.0	-65.3	13.2
2025-01-29 16:05:01.582061	202.0	36.2	-65.0	13.3
2025-01-29 16:05:02.725019	202.2	36.4	-65.1	13.3
2025-01-29 16:05:03.867975	202.5	36.6	-65.3	13.5
2025-01-29 16:05:05.009935	202.8	36.8	-65.3	13.7
2025-01-29 16:05:06.154886	203.1	37.1	-65.4	14.0
2025-01-29 16:05:07.296845	203.4	37.3	-65.3	14.4
2025-01-29 16:05:08.437807	203.7	37.5	-65.3	15.3
2025-01-29 16:05:09.580764	204.0	37.7	-64.9	14.6
2025-01-29 16:05:10.728726	204.3	38.0	-65.0	14.1
2025-01-29 16:05:11.873676	204.6	38.2	-65.3	14.4
2025-01-29 16:05:13.014638	204.9	38.4	-65.3	14.4
2025-01-29 16:05:14.160587	205.2	38.6	-65.4	14.7
2025-01-29 16:05:15.302546	205.5	38.8	-65.1	14.5
2025-01-29 16:05:16.444016	205.8	39.1	-64.9	14.6
2025-01-29 16:05:17.585976	206.1	39.3	-65.2	14.8
2025-01-29 16:05:18.728932	206.5	39.5	-65.6	14.0
2025-01-29 16:05:19.872886	206.8	39.7	-65.2	14.1
2025-01-29 16:05:21.017347	207.1	40.0	-65.3	13.8
2025-01-29 16:05:22.162298	207.5	40.2	-65.4	14.9
2025-01-29 16:05:23.304257	207.8	40.4	-65.3	15.0
2025-01-29 16:05:24.446723	208.2	40.6	-65.4	14.5
2025-01-29 16:05:25.588682	208.5	40.9	-65.4	14.2
2025-01-29 16:05:26.733633	208.9	41.1	-65.9	14.4
2025-01-29 16:05:27.875594	209.2	41.3	-65.3	15.2
2025-01-29 16:05:29.020544	209.6	41.6	-65.1	14.5
2025-01-29 16:05:30.163501	210.0	41.8	-65.5	15.2
2025-01-29 16:05:31.305968	210.4	42.0	-65.4	14.7
2025-01-29 16:05:32.450920	210.8	42.2	-65.6	14.3
2025-01-29 16:05:33.592879	211.2	42.5	-65.5	14.2
2025-01-29 16:05:34.735836	211.6	42.7	-65.8	13.7
2025-01-29 16:05:35.877795	212.0	42.9	-65.4	14.4
2025-01-29 16:05:37.026736	212.4	43.2	-65.4	14.6
2025-01-29 16:05:38.169692	212.8	43.4	-65.5	14.9
2025-01-29 16:05:39.311652	213.2	43.6	-65.5	14.6
2025-01-29 16:05:40.455606	213.6	43.8	-65.6	14.4
2025-01-29 16:05:41.605544	214.1	44.1	-65.5	14.3
2025-01-29 16:05:42.748500	214.5	44.3	-65.7	14.3
2025-01-29 16:05:43.898457	214.9	44.5	-65.6	15.0
2025-01-29 16:05:45.043409	215.4	44.7	-65.1	15.4
2025-01-29 16:05:46.187363	215.9	45.0	-65.2	15.1
2025-01-29 16:05:47.332314	216.3	45.2	-65.2	15.6
2025-01-29 16:05:48.475270	216.8	45.4	-65.4	15.1
2025-01-29 16:05:49.619224	217.3	45.6	-65.3	15.5
2025-01-29 16:05:50.763689	217.7	45.8	-65.5	15.8
2025-01-29 16:05:51.910635	218.2	46.1	-65.2	15.9
2025-01-29 16:05:53.052594	218.7	46.3	-65.0	16.1
2025-01-29 16:05:54.196548	219.2	46.5	-65.1	16.1
2025-01-29 16:05:55.339505	219.7	46.7	-65.1	15.8
2025-01-29 16:05:56.481971	220.3	46.9	-65.0	16.2
2025-01-29 16:05:57.627921	220.8	47.1	-65.0	16.2
2025-01-29 16:05:58.769879	221.3	47.4	-65.0	15.7
2025-01-29 16:05:59.911839	221.9	47.6	-64.9	16.0
2025-01-29 16:06:01.058785	222.4	47.8	-64.8	16.4
2025-01-29 16:06:02.204733	223.0	48.0	-65.1	16.3
2025-01-29 16:06:03.346692	223.5	48.2	-65.0	15.6
2025-01-29 16:06:04.492151	224.1	48.4	-64.7	15.8
2025-01-29 16:06:05.637610	224.7	48.6	-64.7	15.0
2025-01-29 16:06:06.782072	225.2	48.8	-64.5	15.1
2025-01-29 16:06:07.929019	225.8	49.0	-64.4	15.1
2025-01-29 16:06:09.073969	226.4	49.2	-64.4	14.5
2025-01-29 16:06:10.227897	227.0	49.4	-64.6	14.5
2025-01-29 16:06:11.372849	227.7	49.6	-64.8	14.2
2025-01-29 16:06:12.515805	228.3	49.7	-64.6	14.7
2025-01-29 16:06:13.657782	228.9	49.9	-65.0	13.6
2025-01-29 16:06:14.799741	229.5	50.1	-65.1	13.0
2025-01-29 16:06:15.949679	230.2	50.3	-64.6	12.5
2025-01-29 16:06:17.092660	230.8	50.5	-65.2	13.4
2025-01-29 16:06:18.236124	231.5	50.6	-65.6	12.3
2025-01-29 16:06:19.379081	232.1	50.8	-65.6	13.0
2025-01-29 16:06:20.522037	232.8	51.0	-65.2	12.2
2025-01-29 16:06:21.666988	233.5	51.1	-65.7	11.7
2025-01-29 16:06:22.810459	234.2	51.3	-64.7	12.0
2025-01-29 16:06:23.958402	234.9	51.4	-65.1	11.8
2025-01-29 16:06:25.105348	235.6	51.6	-65.2	10.9
2025-01-29 16:06:26.250299	236.3	51.7	-65.0	12.1
2025-01-29 16:06:27.396248	237.0	51.9	-65.1	12.3
2025-01-29 16:06:28.539204	237.7	52.0	-65.0	11.1
2025-01-29 16:06:29.684156	238.4	52.1	-64.6	12.6
2025-01-29 16:06:30.828110	239.2	52.3	-64.9	11.5
2025-01-29 16:06:31.973061	239.9	52.4	-65.0	11.1
2025-01-29 16:06:33.121005	240.6	52.5	-64.7	10.3
2025-01-29 16:06:34.263961	241.4	52.6	-64.6	9.6
2025-01-29 16:06:35.407915	242.2	52.7	-65.3	12.7
2025-01-29 16:06:36.551870	242.9	52.8	-65.1	10.0
2025-01-29 16:06:37.696820	243.7	52.9	-65.2	10.9
2025-01-29 16:06:38.839777	244.4	53.0	-64.5	11.4
2025-01-29 16:06:39.982733	245.2	53.1	-64.6	10.2
2025-01-29 16:06:41.125692	246.0	53.2	-64.4	10.8
2025-01-29 16:06:42.268647	246.8	53.3	-64.2	9.6
2025-01-29 16:06:43.416103	247.6	53.3	-64.7	10.2
2025-01-29 16:06:44.561054	248.4	53.4	-64.2	10.3
2025-01-29 16:06:45.704519	249.2	53.5	-63.8	9.0
2025-01-29 16:06:46.846478	250.0	53.5	-63.6	9.1
2025-01-29 16:06:47.990433	250.8	53.6	-63.5	8.4
2025-01-29 16:06:49.134386	251.6	53.6	-63.7	7.8
2025-01-29 16:06:50.278341	252.4	53.7	-62.7	8.8
2025-01-29 16:06:51.425287	253.2	53.7	-63.3	8.6
2025-01-29 16:06:52.568243	254.0	53.7	-63.6	9.9
2025-01-29 16:06:53.711200	254.8	53.8	-63.2	8.5
2025-01-29 16:06:54.855154	255.6	53.8	-62.8	9.1
2025-01-29 16:06:55.998111	256.4	53.8	-63.0	8.8
2025-01-29 16:06:57.144079	257.3	53.8	-63.3	9.7
2025-01-29 16:06:58.287036	258.1	53.8	-62.8	8.8
2025-01-29 16:06:59.431988	258.9	53.8	-63.1	8.7
2025-01-29 16:07:00.580928	259.7	53.8	-62.7	8.4
2025-01-29 16:07:01.729869	260.5	53.8	-63.4	9.1
2025-01-29 16:07:02.877813	261.3	53.8	-63.3	8.8
2025-01-29 16:07:04.030742	262.2	53.7	-64.3	9.7
2025-01-29 16:07:05.174206	263.0	53.7	-63.6	9.2
2025-01-29 16:07:06.319158	263.8	53.7	-64.5	9.7
2025-01-29 16:07:07.462114	264.6	53.6	-64.6	10.5
2025-01-29 16:07:08.606576	265.4	53.6	-64.3	9.4
2025-01-29 16:07:09.750040	266.2	53.5	-64.3	9.5
2025-01-29 16:07:10.893995	267.0	53.4	-64.4	9.1
2025-01-29 16:07:12.037948	267.8	53.4	-64.6	10.1
2025-01-29 16:07:13.182900	268.6	53.3	-64.8	10.6
2025-01-29 16:07:14.333835	269.4	53.2	-65.2	10.6
2025-01-29 16:07:15.477300	270.1	53.1	-64.6	9.6
2025-01-29 16:07:16.622252	270.9	53.1	-64.9	10.0
2025-01-29 16:07:17.767203	271.7	53.0	-65.0	9.8
2025-01-29 16:07:18.909185	272.5	52.9	-65.2	9.7
2025-01-29 16:07:20.056131	273.2	52.8	-64.8	10.7
2025-01-29 16:07:21.198091	274.0	52.7	-65.3	10.3
2025-01-29 16:07:22.349063	274.7	52.5	-65.3	9.3
2025-01-29 16:07:23.492019	275.5	52.4	-64.8	11.4
2025-01-29 16:07:24.636970	276.2	52.3	-64.9	9.5
2025-01-29 16:07:25.778930	276.9	52.2	-64.5	9.4
2025-01-29 16:07:26.922884	277.7	52.0	-64.5	10.9
2025-01-29 16:07:28.067835	278.4	51.9	-64.1	10.7
2025-01-29 16:07:29.213784	279.1	51.8	-63.8	9.1
2025-01-29 16:07:30.356740	279.8	51.6	-64.4	9.8
2025-01-29 16:07:31.501692	280.5	51.5	-63.8	9.0
2025-01-29 16:07:32.645646	281.2	51.3	-63.1	8.9
2025-01-29 16:07:33.790597	281.9	51.2	-63.2	8.6
2025-01-29 16:07:34.939539	282.6	51.0	-62.9	6.5
2025-01-29 16:07:36.087484	283.2	50.9	-62.8	6.4
2025-01-29 16:07:37.232432	283.9	50.7	-63.2	6.2
2025-01-29 16:07:38.379378	284.6	50.5	-63.4	5.7
2025-01-29 16:07:39.523333	285.2	50.3	-62.7	5.0
2025-01-29 16:07:40.666289	285.9	50.2	-62.4	5.5
2025-01-29 16:07:41.809246	286.5	50.0	-62.2	5.1
2025-01-29 16:07:42.955194	287.1	49.8	-62.0	5.5
2025-01-29 16:07:44.100164	287.7	49.6	-61.5	5.1
2025-01-29 16:07:45.244119	288.3	49.4	-61.6	4.6
2025-01-29 16:07:46.390067	289.0	49.3	-62.1	3.6
2025-01-29 16:07:47.535019	289.6	49.1	-62.0	3.3
2025-01-29 16:07:48.678972	290.1	48.9	-61.9	4.7
2025-01-29 16:07:49.824921	290.7	48.7	-62.5	4.0
2025-01-29 16:07:50.975856	291.3	48.5	-61.6	3.9
2025-01-29 16:07:52.119358	291.9	48.3	-62.4	4.1
2025-01-29 16:07:53.263312	292.4	48.1	-62.1	3.8
2025-01-29 16:07:54.407266	293.0	47.9	-62.6	4.6
2025-01-29 16:07:55.551727	293.5	47.7	-62.4	4.0
2025-01-29 16:07:56.695680	294.1	47.5	-62.0	4.1
2025-01-29 16:07:57.840155	294.6	47.2	-61.9	5.2
2025-01-29 16:07:58.984109	295.1	47.0	-62.4	5.9
2025-01-29 16:08:00.141028	295.7	46.8	-62.2	5.9
2025-01-29 16:08:01.289969	296.2	46.6	-62.3	6.4
2025-01-29 16:08:02.435917	296.7	46.4	-62.3	6.4
2025-01-29 16:08:03.583371	297.2	46.2	-62.5	5.8
2025-01-29 16:08:04.728322	297.7	46.0	-62.7	7.8
2025-01-29 16:08:05.871279	298.1	45.7	-62.3	7.3
2025-01-29 16:08:07.015233	298.6	45.5	-62.4	7.9
2025-01-29 16:08:08.160201	299.1	45.3	-62.5	7.5
2025-01-29 16:08:09.305152	299.6	45.1	-62.6	8.3
2025-01-29 16:08:10.448128	300.0	44.9	-62.7	8.1
2025-01-29 16:08:11.593080	300.5	44.6	-62.3	7.4
2025-01-29 16:08:12.736543	300.9	44.4	-62.0	9.2
2025-01-29 16:08:13.883489	301.3	44.2	-62.6	9.2
2025-01-29 16:08:15.029438	301.8	44.0	-62.4	9.5
2025-01-29 16:08:16.174389	302.2	43.7	-62.2	9.2
2025-01-29 16:08:17.319361	302.6	43.5	-62.2	8.6
2025-01-29 16:08:18.464311	303.0	43.3	-62.0	8.3
2025-01-29 16:08:19.609262	303.5	43.1	-62.6	8.3
2025-01-29 16:08:20.759201	303.9	42.8	-62.6	11.0
2025-01-29 16:08:21.905149	304.3	42.6	-62.5	9.8
2025-01-29 16:08:23.052604	304.7	42.4	-62.1	9.2
2025-01-29 16:08:24.203539	305.0	42.1	-63.0	10.4
2025-01-29 16:08:25.346497	305.4	41.9	-64.2	9.9
2025-01-29 16:08:26.489959	305.8	41.7	-62.9	8.5
2025-01-29 16:08:27.633913	306.2	41.5	-63.1	9.9
2025-01-29 16:08:28.779862	306.5	41.2	-63.1	9.5
2025-01-29 16:08:29.927807	306.9	41.0	-62.8	9.8
2025-01-29 16:08:31.073754	307.3	40.8	-62.8	9.3
2025-01-29 16:08:32.220700	307.6	40.6	-62.9	10.1
2025-01-29 16:08:33.366650	308.0	40.3	-63.2	10.1
2025-01-29 16:08:34.510603	308.3	40.1	-63.6	10.8
2025-01-29 16:08:35.726366	308.7	39.9	-63.4	10.3
2025-01-29 16:08:36.869322	309.0	39.7	-63.1	9.7
2025-01-29 16:08:38.015271	309.3	39.4	-63.3	10.2
2025-01-29 16:08:39.158227	309.6	39.2	-63.3	10.7
2025-01-29 16:08:40.304176	310.0	39.0	-63.4	11.0
2025-01-29 16:08:41.446136	310.3	38.8	-63.5	10.5
2025-01-29 16:08:42.593081	310.6	38.5	-63.6	10.8
2025-01-29 16:08:43.739030	310.9	38.3	-63.5	10.1
2025-01-29 16:08:44.885487	311.2	38.1	-63.7	10.9
2025-01-29 16:08:46.031435	311.5	37.9	-64.1	10.9
2025-01-29 16:08:47.176895	311.8	37.7	-63.6	9.1
2025-01-29 16:08:48.323352	312.1	37.4	-63.9	10.3
2025-01-29 16:08:49.468303	312.4	37.2	-64.1	9.9
2025-01-29 16:08:50.614252	312.7	37.0	-63.6	10.3
2025-01-29 16:08:51.762214	312.9	36.8	-63.9	10.6
2025-01-29 16:08:52.906169	313.2	36.6	-63.9	10.6
2025-01-29 16:08:54.050122	313.5	36.3	-63.8	10.0
2025-01-29 16:08:55.202055	313.8	36.1	-64.0	10.9
2025-01-29 16:08:56.348004	314.0	35.9	-64.2	11.1
2025-01-29 16:08:57.490960	314.3	35.7	-63.9	10.2
2025-01-29 16:08:58.636909	314.5	35.5	-64.7	10.5
2025-01-29 16:08:59.779865	314.8	35.3	-64.5	10.2
2025-01-29 16:09:00.924817	315.1	35.1	-64.7	10.8
2025-01-29 16:09:02.066776	315.3	34.9	-64.4	10.0
2025-01-29 16:09:03.209733	315.5	34.6	-64.3	10.4
2025-01-29 16:09:04.353709	315.8	34.4	-64.4	10.7
2025-01-29 16:09:05.497660	316.0	34.2	-64.5	10.7
2025-01-29 16:09:06.640616	316.3	34.0	-64.7	10.6
2025-01-29 16:09:07.784571	316.5	33.8	-64.4	11.5
2025-01-29 16:09:08.927527	316.7	33.6	-64.5	11.2
2025-01-29 16:09:10.071992	317.0	33.4	-64.4	9.2
2025-01-29 16:09:11.214461	317.2	33.2	-64.6	11.1
2025-01-29 16:09:12.357417	317.4	33.0	-64.3	9.6
2025-01-29 16:09:13.501371	317.6	32.8	-64.4	8.5
2025-01-29 16:09:14.643331	317.8	32.6	-65.3	10.5
2025-01-29 16:09:15.786287	318.1	32.4	-64.6	8.6
2025-01-29 16:09:16.928246	318.3	32.2	-65.1	11.2
2025-01-29 16:09:18.072201	318.5	32.0	-64.8	9.6
2025-01-29 16:09:19.216154	318.7	31.8	-65.1	11.3
2025-01-29 16:09:20.359111	318.9	31.6	-64.8	11.0
2025-01-29 16:09:21.503065	319.1	31.4	-64.3	9.4
2025-01-29 16:09:22.645024	319.3	31.2	-64.8	10.2
2025-01-29 16:09:23.786984	319.5	31.0	-64.8	10.2
2025-01-29 16:09:24.928453	319.7	30.8	-64.8	10.9
2025-01-29 16:09:26.070412	319.9	30.7	-64.9	11.6
2025-01-29 16:09:27.215364	320.1	30.5	-64.6	10.9
2025-01-29 16:09:28.357350	320.3	30.3	-64.9	10.5
2025-01-29 16:09:29.499308	320.4	30.1	-62.3	0.0
2025-01-29 16:09:30.642267	320.6	29.9	-58.9	0.0
#Closed at: 2025-01-29 16:04:21.813387