passes_logs/2025/01/29/Planum_Noyabrsk/Planum_Noyabrsk__20250129_162551_NOAA_18_rec.log

#Pass ID: 20250129_162551_NOAA 18
#Satellite: NOAA 18
#Configuration: NOAA 18
#Start time: 2025-01-29 16:25:56.956851

#LorettStation: 1.0.0 05.05.2024
#Station: Planum_Noyabrsk
#Location: 75.446886 lon 63.207202 lat
#TLE: 1 28654U 05018A   25028.47060757  .00000424  00000+0  24855-3 0  9998
#TLE: 2 28654  98.8545 109.3901 0014896 142.1811 218.0411 14.13499801 15086

#Time	Az	El	Level	SNR
2025-01-29 16:26:07.178055	154.8	32.0	-63.4	6.5
2025-01-29 16:26:08.320014	154.8	32.2	-62.1	8.6
2025-01-29 16:26:09.462987	154.8	32.4	-62.7	5.4
2025-01-29 16:26:10.604946	154.7	32.7	-64.2	10.1
2025-01-29 16:26:11.747903	154.7	32.9	-64.7	10.0
2025-01-29 16:26:12.888375	154.7	33.2	-63.5	4.9
2025-01-29 16:26:14.033326	154.7	33.4	-64.9	8.8
2025-01-29 16:26:15.177280	154.7	33.6	-64.7	7.0
2025-01-29 16:26:16.317751	154.7	33.9	-64.7	5.7
2025-01-29 16:26:17.461705	154.7	34.1	-63.6	7.8
2025-01-29 16:26:18.602666	154.6	34.4	-64.1	8.8
2025-01-29 16:26:19.746620	154.6	34.6	-65.5	10.5
2025-01-29 16:26:20.887094	154.6	34.9	-65.0	9.0
2025-01-29 16:26:22.030050	154.6	35.1	-64.7	9.0
2025-01-29 16:26:23.174005	154.6	35.4	-65.8	10.1
2025-01-29 16:26:24.317959	154.6	35.6	-65.3	9.0
2025-01-29 16:26:25.458920	154.5	35.9	-66.0	10.0
2025-01-29 16:26:26.602875	154.5	36.2	-63.8	4.0
2025-01-29 16:26:27.745832	154.5	36.4	-65.2	8.5
2025-01-29 16:26:28.888788	154.5	36.7	-66.1	4.4
2025-01-29 16:26:30.031255	154.5	37.0	-66.1	9.6
2025-01-29 16:26:31.173720	154.5	37.2	-66.6	10.1
2025-01-29 16:26:32.315680	154.4	37.5	-66.2	7.9
2025-01-29 16:26:33.458637	154.4	37.8	-66.6	9.6
2025-01-29 16:26:34.604094	154.4	38.0	-65.8	6.7
2025-01-29 16:26:35.746054	154.4	38.3	-66.9	9.5
2025-01-29 16:26:36.887015	154.4	38.6	-65.9	6.7
2025-01-29 16:26:38.028992	154.3	38.9	-66.8	9.6
2025-01-29 16:26:39.168956	154.3	39.2	-66.7	8.7
2025-01-29 16:26:40.311422	154.3	39.5	-67.4	8.9
2025-01-29 16:26:41.453887	154.3	39.8	-66.9	8.1
2025-01-29 16:26:42.596845	154.3	40.0	-67.2	9.7
2025-01-29 16:26:43.740798	154.2	40.3	-66.7	8.9
2025-01-29 16:26:44.884260	154.2	40.6	-66.8	8.1
2025-01-29 16:26:46.025222	154.2	40.9	-66.3	9.8
2025-01-29 16:26:47.167687	154.2	41.2	-66.3	8.1
2025-01-29 16:26:48.310154	154.1	41.6	-65.9	8.7
2025-01-29 16:26:49.452115	154.1	41.9	-66.2	8.3
2025-01-29 16:26:50.594072	154.1	42.2	-65.9	9.3
2025-01-29 16:26:51.737538	154.1	42.5	-65.6	9.7
2025-01-29 16:26:52.880494	154.0	42.8	-65.3	9.3
2025-01-29 16:26:54.022454	154.0	43.1	-65.7	10.3
2025-01-29 16:26:55.163432	154.0	43.4	-65.9	10.1
2025-01-29 16:26:56.305899	153.9	43.8	-65.7	10.4
2025-01-29 16:26:57.448856	153.9	44.1	-65.6	10.8
2025-01-29 16:26:58.589840	153.9	44.4	-63.4	11.8
2025-01-29 16:26:59.731799	153.9	44.7	-64.7	8.7
2025-01-29 16:27:00.874758	153.8	45.1	-63.0	8.3
2025-01-29 16:27:02.017712	153.8	45.4	-63.2	5.4
2025-01-29 16:27:03.160669	153.8	45.8	-65.3	10.5
2025-01-29 16:27:04.300633	153.7	46.1	-64.9	9.4
2025-01-29 16:27:05.443591	153.7	46.5	-64.9	9.9
2025-01-29 16:27:06.584552	153.7	46.8	-65.4	9.0
2025-01-29 16:27:07.725514	153.6	47.2	-65.5	9.9
2025-01-29 16:27:08.866497	153.6	47.5	-65.7	10.7
2025-01-29 16:27:10.009454	153.5	47.9	-65.3	8.9
2025-01-29 16:27:11.154408	153.5	48.2	-64.6	7.7
2025-01-29 16:27:12.295368	153.5	48.6	-64.7	5.6
2025-01-29 16:27:13.437327	153.4	49.0	-65.3	6.7
2025-01-29 16:27:14.578796	153.4	49.3	-65.2	7.6
2025-01-29 16:27:15.726739	153.3	49.7	-65.4	6.7
2025-01-29 16:27:16.868699	153.3	50.1	-64.3	6.0
2025-01-29 16:27:18.009660	153.2	50.5	-64.0	4.4
2025-01-29 16:27:19.152129	153.2	50.8	-65.7	4.9
2025-01-29 16:27:20.292093	153.1	51.2	-64.5	3.2
2025-01-29 16:27:21.435049	153.1	51.6	-65.3	6.3
2025-01-29 16:27:22.578006	153.0	52.0	-65.4	4.9
2025-01-29 16:27:23.718968	153.0	52.4	-65.5	6.8
2025-01-29 16:27:24.860927	152.9	52.8	-63.5	5.1
2025-01-29 16:27:26.002905	152.9	53.2	-63.4	3.0
2025-01-29 16:27:27.143867	152.8	53.6	-65.4	5.2
2025-01-29 16:27:28.287820	152.8	54.0	-62.9	2.9
2025-01-29 16:27:29.429289	152.7	54.4	-63.6	2.3
2025-01-29 16:27:30.571248	152.6	54.8	-60.8	0.0
2025-01-29 16:27:31.713207	152.6	55.2	-62.8	1.7
2025-01-29 16:27:32.863146	152.5	55.7	-63.0	3.0
2025-01-29 16:27:34.005105	152.4	56.1	-61.4	0.1
2025-01-29 16:27:35.148061	152.4	56.5	-61.5	0.0
2025-01-29 16:27:36.289534	152.3	57.0	-62.4	4.0
2025-01-29 16:27:37.430496	152.2	57.4	-63.3	1.3
2025-01-29 16:27:38.572455	152.1	57.8	-63.8	3.7
2025-01-29 16:27:39.717912	152.0	58.3	-61.1	0.7
2025-01-29 16:27:40.859872	151.9	58.7	-62.8	4.8
2025-01-29 16:27:42.001831	151.9	59.2	-64.6	10.1
2025-01-29 16:27:43.143299	151.8	59.6	-62.0	2.5
2025-01-29 16:27:44.285766	151.7	60.1	-63.6	6.1
2025-01-29 16:27:45.426728	151.6	60.5	-62.0	2.8
2025-01-29 16:27:46.570682	151.5	61.0	-62.1	3.6
2025-01-29 16:27:47.713639	151.4	61.4	-62.1	4.2
2025-01-29 16:27:48.855598	151.3	61.9	-61.9	6.2
2025-01-29 16:27:49.997557	151.1	62.4	-62.2	7.4
2025-01-29 16:27:51.140514	151.0	62.8	-61.0	6.1
2025-01-29 16:27:52.284980	150.9	63.3	-61.5	6.4
2025-01-29 16:27:53.426450	150.8	63.8	-64.2	9.7
2025-01-29 16:27:54.567411	150.6	64.3	-64.2	9.7
2025-01-29 16:27:55.710368	150.5	64.8	-62.8	7.4
2025-01-29 16:27:56.854324	150.3	65.2	-61.3	3.9
2025-01-29 16:27:57.997279	150.2	65.7	-64.2	11.3
2025-01-29 16:27:59.139238	150.0	66.2	-61.4	3.9
2025-01-29 16:28:00.281706	149.8	66.7	-64.3	9.7
2025-01-29 16:28:01.423666	149.7	67.2	-61.7	4.7
2025-01-29 16:28:02.568617	149.5	67.7	-62.6	5.4
2025-01-29 16:28:03.709088	149.3	68.2	-63.1	10.5
2025-01-29 16:28:04.855037	149.1	68.7	-63.1	7.6
2025-01-29 16:28:05.997994	148.9	69.2	-61.6	5.8
2025-01-29 16:28:07.139462	148.6	69.7	-62.8	8.3
2025-01-29 16:28:08.281421	148.4	70.3	-61.4	2.1
2025-01-29 16:28:09.421893	148.1	70.8	-62.3	2.9
2025-01-29 16:28:10.563852	147.8	71.3	-60.3	1.6
2025-01-29 16:28:11.710798	147.5	71.8	-61.3	2.0
2025-01-29 16:28:12.853755	147.2	72.3	-62.3	3.1
2025-01-29 16:28:13.994227	146.9	72.9	-61.9	0.0
2025-01-29 16:28:15.135189	146.6	73.4	-60.5	0.0
2025-01-29 16:28:16.278146	146.2	73.9	-62.2	4.0
2025-01-29 16:28:17.418617	145.8	74.4	-64.3	1.5
2025-01-29 16:28:18.560576	145.3	75.0	-61.8	0.0
2025-01-29 16:28:19.705538	144.9	75.5	-64.3	2.7
2025-01-29 16:28:20.846996	144.4	76.0	-63.8	0.7
2025-01-29 16:28:21.989953	143.8	76.6	-64.1	0.0
2025-01-29 16:28:23.132910	143.2	77.1	-63.3	0.0
2025-01-29 16:28:24.276864	142.6	77.6	-64.2	2.2
2025-01-29 16:28:25.419820	141.9	78.2	-65.0	0.6
2025-01-29 16:28:26.564772	141.1	78.7	-62.1	0.0
2025-01-29 16:28:27.706731	140.2	79.2	-63.3	0.0
2025-01-29 16:28:28.853677	139.3	79.8	-64.1	1.7
2025-01-29 16:28:29.994639	138.2	80.3	-66.1	4.6
2025-01-29 16:28:31.136598	137.1	80.8	-64.3	4.1
2025-01-29 16:28:32.278557	135.7	81.4	-63.3	2.4
2025-01-29 16:28:33.419520	134.2	81.9	-63.3	1.5
2025-01-29 16:28:34.561986	132.5	82.4	-62.1	0.3
2025-01-29 16:28:35.706938	130.6	82.9	-64.6	4.1
2025-01-29 16:28:36.848897	128.3	83.4	-64.2	3.1
2025-01-29 16:28:37.990856	125.7	83.9	-62.7	3.2
2025-01-29 16:28:39.131328	122.6	84.4	-62.4	2.5
2025-01-29 16:28:40.274285	118.9	84.8	-62.8	1.3
2025-01-29 16:28:41.415753	114.6	85.3	-62.0	0.0
2025-01-29 16:28:42.557712	109.4	85.7	-62.1	1.4
2025-01-29 16:28:43.700668	103.2	86.0	-63.4	4.5
2025-01-29 16:28:44.841141	95.9	86.3	-62.0	2.3
2025-01-29 16:28:45.984098	87.4	86.6	-63.5	5.1
2025-01-29 16:28:47.127566	77.9	86.7	-60.8	0.4
2025-01-29 16:28:48.269526	67.8	86.8	-63.0	5.3
2025-01-29 16:28:49.410995	57.7	86.7	-61.8	5.6
2025-01-29 16:28:50.551957	48.2	86.6	-62.8	9.2
2025-01-29 16:28:51.694914	39.7	86.3	-63.0	4.3
2025-01-29 16:28:52.844362	32.2	86.0	-62.1	3.2
2025-01-29 16:28:53.986320	26.0	85.7	-63.0	5.3
2025-01-29 16:28:55.129277	20.8	85.3	-62.6	4.7
2025-01-29 16:28:56.270239	16.4	84.9	-63.1	3.5
2025-01-29 16:28:57.413196	12.7	84.4	-63.4	5.0
2025-01-29 16:28:58.554158	9.6	83.9	-63.0	4.1
2025-01-29 16:28:59.695120	7.0	83.4	-62.7	4.2
2025-01-29 16:29:00.836081	4.7	82.9	-63.5	5.7
2025-01-29 16:29:01.978041	2.8	82.4	-63.5	4.4
2025-01-29 16:29:03.120001	1.0	81.9	-64.3	5.5
2025-01-29 16:29:04.262957	359.5	81.4	-63.4	2.2
2025-01-29 16:29:05.405913	358.2	80.9	-64.3	1.7
2025-01-29 16:29:06.547389	357.0	80.3	-63.7	0.2
2025-01-29 16:29:07.690346	356.0	79.8	-63.3	2.9
2025-01-29 16:29:08.833304	355.0	79.3	-63.0	1.6
2025-01-29 16:29:09.977766	354.2	78.7	-64.4	2.6
2025-01-29 16:29:11.119725	353.4	78.2	-64.1	1.9
2025-01-29 16:29:12.264185	352.7	77.7	-62.9	0.5
2025-01-29 16:29:13.407142	352.0	77.1	-63.7	1.2
2025-01-29 16:29:14.549101	351.4	76.6	-63.5	4.2
2025-01-29 16:29:15.691060	350.9	76.1	-62.4	3.8
2025-01-29 16:29:16.838006	350.4	75.5	-64.8	6.0
2025-01-29 16:29:17.981960	349.9	75.0	-63.1	1.7
2025-01-29 16:29:19.124917	349.5	74.5	-65.0	6.8
2025-01-29 16:29:20.266386	349.1	73.9	-63.1	0.2
2025-01-29 16:29:21.408346	348.7	73.4	-62.8	0.0
2025-01-29 16:29:22.550305	348.3	72.9	-63.8	2.5
2025-01-29 16:29:23.692264	348.0	72.4	-62.4	0.0
2025-01-29 16:29:24.837216	347.7	71.8	-62.8	0.0
2025-01-29 16:29:25.979175	347.4	71.3	-62.7	0.0
2025-01-29 16:29:27.119647	347.1	70.8	-62.8	0.1
2025-01-29 16:29:28.261606	346.9	70.3	-63.9	3.0
2025-01-29 16:29:29.408552	346.6	69.8	-61.9	2.2
2025-01-29 16:29:30.552016	346.4	69.2	-62.1	0.8
2025-01-29 16:29:31.693975	346.2	68.7	-63.6	4.4
2025-01-29 16:29:32.837930	346.0	68.2	-64.7	4.7
2025-01-29 16:29:33.979889	345.8	67.7	-62.7	2.0
2025-01-29 16:29:35.123843	345.6	67.2	-64.3	3.0
2025-01-29 16:29:36.266799	345.4	66.7	-63.3	4.8
2025-01-29 16:29:37.408758	345.2	66.2	-62.7	1.4
2025-01-29 16:29:38.550718	345.1	65.7	-63.4	2.9
2025-01-29 16:29:39.692187	344.9	65.3	-61.2	0.5
2025-01-29 16:29:40.835653	344.8	64.8	-64.1	4.5
2025-01-29 16:29:41.976614	344.6	64.3	-62.9	2.6
2025-01-29 16:29:43.118573	344.5	63.8	-64.1	4.7
2025-01-29 16:29:44.264522	344.4	63.3	-61.8	2.0
2025-01-29 16:29:45.406481	344.2	62.9	-62.9	5.0
2025-01-29 16:29:46.549945	344.1	62.4	-62.5	3.6
2025-01-29 16:29:47.691904	344.0	61.9	-61.6	1.6
2025-01-29 16:29:48.830871	343.9	61.4	-60.9	2.7
2025-01-29 16:29:49.974825	343.8	61.0	-60.5	0.0
2025-01-29 16:29:51.116784	343.7	60.5	-60.2	0.0
2025-01-29 16:29:52.258743	343.6	60.1	-61.4	0.0
2025-01-29 16:29:53.400703	343.5	59.6	-62.0	0.0
2025-01-29 16:29:54.542174	343.4	59.2	-61.9	1.2
2025-01-29 16:29:55.685131	343.3	58.7	-62.9	1.4
2025-01-29 16:29:56.826093	343.2	58.3	-62.1	0.0
2025-01-29 16:29:57.969555	343.1	57.8	-61.9	0.0
2025-01-29 16:29:59.112534	343.0	57.4	-62.6	1.5
2025-01-29 16:30:00.254999	343.0	57.0	-64.0	2.3
2025-01-29 16:30:01.396471	342.9	56.5	-61.9	0.0
2025-01-29 16:30:02.538431	342.8	56.1	-60.8	0.0
2025-01-29 16:30:03.682384	342.8	55.7	-60.2	0.0
2025-01-29 16:30:04.824854	342.7	55.3	-63.8	5.3
2025-01-29 16:30:05.965816	342.6	54.9	-63.7	5.6
2025-01-29 16:30:07.109770	342.6	54.4	-61.1	0.0
2025-01-29 16:30:08.251238	342.5	54.0	-60.9	0.0
2025-01-29 16:30:09.393198	342.4	53.6	-62.6	4.9
2025-01-29 16:30:10.536155	342.4	53.2	-60.0	0.0
2025-01-29 16:30:11.677118	342.3	52.8	-62.3	1.2
2025-01-29 16:30:12.820073	342.3	52.4	-63.2	6.9
2025-01-29 16:30:13.962032	342.2	52.0	-61.7	3.9
2025-01-29 16:30:15.108488	342.2	51.6	-61.1	2.4
2025-01-29 16:30:16.251444	342.1	51.2	-57.4	0.0
2025-01-29 16:30:17.395399	342.1	50.9	-57.2	0.0
2025-01-29 16:30:18.537374	342.0	50.5	-59.4	2.0
2025-01-29 16:30:19.680331	342.0	50.1	-57.3	0.0
2025-01-29 16:30:20.821293	341.9	49.7	-59.8	3.7
2025-01-29 16:30:21.965262	341.9	49.3	-58.0	0.0
2025-01-29 16:30:23.109217	341.8	49.0	-58.8	0.0
2025-01-29 16:30:24.252172	341.8	48.6	-57.9	0.0
2025-01-29 16:30:25.393134	341.8	48.2	-61.6	8.2
2025-01-29 16:30:26.537089	341.7	47.9	-59.3	4.5
2025-01-29 16:30:27.680045	341.7	47.5	-60.1	5.8
2025-01-29 16:30:28.822004	341.6	47.2	-58.5	5.1
2025-01-29 16:30:29.962966	341.6	46.8	-60.1	4.4
2025-01-29 16:30:31.105923	341.6	46.5	-60.3	2.7
2025-01-29 16:30:32.245888	341.5	46.1	-57.4	1.3
2025-01-29 16:30:33.387847	341.5	45.8	-60.1	5.1
2025-01-29 16:30:34.528808	341.5	45.4	-61.1	6.6
2025-01-29 16:30:35.671274	341.4	45.1	-61.2	6.6
2025-01-29 16:30:36.812236	341.4	44.8	-61.3	5.8
2025-01-29 16:30:37.956191	341.4	44.4	-61.6	5.8
2025-01-29 16:30:39.100652	341.3	44.1	-60.8	7.7
2025-01-29 16:30:40.241614	341.3	43.8	-60.6	3.8
2025-01-29 16:30:41.383573	341.3	43.5	-60.5	2.3
2025-01-29 16:30:42.530029	341.2	43.1	-59.9	4.8
2025-01-29 16:30:43.670990	341.2	42.8	-60.1	3.4
2025-01-29 16:30:44.813947	341.2	42.5	-62.1	6.7
2025-01-29 16:30:45.956414	341.2	42.2	-62.2	5.9
2025-01-29 16:30:47.099877	341.1	41.9	-62.3	7.2
2025-01-29 16:30:48.241836	341.1	41.6	-59.9	3.6
2025-01-29 16:30:49.383309	341.1	41.3	-60.7	2.9
2025-01-29 16:30:50.525268	341.1	41.0	-60.1	1.2
2025-01-29 16:30:51.667228	341.0	40.7	-60.8	4.0
2025-01-29 16:30:52.808190	341.0	40.4	-59.8	1.8
2025-01-29 16:30:53.952144	341.0	40.1	-62.0	4.3
2025-01-29 16:30:55.093105	341.0	39.8	-61.9	5.7
2025-01-29 16:30:56.235573	341.0	39.5	-60.0	0.0
2025-01-29 16:30:57.377532	340.9	39.2	-60.3	0.0
2025-01-29 16:30:58.522483	340.9	38.9	-58.7	0.0
2025-01-29 16:30:59.667941	340.9	38.6	-60.5	0.0
2025-01-29 16:31:00.809900	340.9	38.3	-60.0	1.1
2025-01-29 16:31:01.953854	340.9	38.1	-60.3	0.7
2025-01-29 16:31:03.096322	340.8	37.8	-60.1	2.0
2025-01-29 16:31:04.238281	340.8	37.5	-59.1	0.0
2025-01-29 16:31:05.380240	340.8	37.2	-60.0	0.0
2025-01-29 16:31:06.526193	340.8	37.0	-59.6	0.0
2025-01-29 16:31:07.668149	340.8	36.7	-58.8	0.0
2025-01-29 16:31:08.810108	340.7	36.4	-60.4	1.6
2025-01-29 16:31:09.951069	340.7	36.2	-60.1	2.5
2025-01-29 16:31:11.093029	340.7	35.9	-60.8	0.0
2025-01-29 16:31:12.234988	340.7	35.6	-59.1	0.0
2025-01-29 16:31:13.376947	340.7	35.4	-59.4	0.0
2025-01-29 16:31:14.520902	340.7	35.1	-59.4	0.0
2025-01-29 16:31:15.661863	340.7	34.9	-59.6	0.0
2025-01-29 16:31:16.807324	340.6	34.6	-58.7	0.0
2025-01-29 16:31:17.951278	340.6	34.4	-59.2	0.0
2025-01-29 16:31:19.095232	340.6	34.1	-59.3	0.0
2025-01-29 16:31:20.239692	340.6	33.9	-58.4	0.0
2025-01-29 16:31:21.382649	340.6	33.6	-59.3	0.0
2025-01-29 16:31:22.522613	340.6	33.4	-59.0	0.0
2025-01-29 16:31:23.664083	340.6	33.2	-59.1	0.0
2025-01-29 16:31:24.806042	340.5	32.9	-57.9	0.0
2025-01-29 16:31:25.948001	340.5	32.7	-59.8	0.0
2025-01-29 16:31:27.094947	340.5	32.5	-58.7	0.0
2025-01-29 16:31:28.235909	340.5	32.2	-56.8	0.0
2025-01-29 16:31:29.377868	340.5	32.0	-57.9	0.0
2025-01-29 16:31:30.523817	340.5	31.8	-58.3	0.0
2025-01-29 16:31:31.663782	340.5	31.5	-59.3	0.0
2025-01-29 16:31:32.806739	340.5	31.3	-58.7	0.0
2025-01-29 16:31:33.947700	340.4	31.1	-59.3	0.0
2025-01-29 16:31:35.089659	340.4	30.9	-57.9	0.0
2025-01-29 16:31:36.231619	340.4	30.7	-58.5	0.0
2025-01-29 16:31:37.373090	340.4	30.4	-56.2	0.0
2025-01-29 16:31:38.515050	340.4	30.2	-60.2	0.0
2025-01-29 16:31:39.658006	340.4	30.0	-62.3	0.0
#Closed at: 2025-01-29 16:25:51.961557