passes_logs/2025/01/29/Planum_Noyabrsk/Planum_Noyabrsk__20250129_081019_NOAA_18_rec.log

#Pass ID: 20250129_081019_NOAA 18
#Satellite: NOAA 18
#Configuration: NOAA 18
#Start time: 2025-01-29 08:10:24.222438

#LorettStation: 1.0.0 05.05.2024
#Station: Planum_Noyabrsk
#Location: 75.446886 lon 63.207202 lat
#TLE: 1 28654U 05018A   25028.47060757  .00000424  00000+0  24855-3 0  9998
#TLE: 2 28654  98.8545 109.3901 0014896 142.1811 218.0411 14.13499801 15086

#Time	Az	El	Level	SNR
2025-01-29 08:10:48.556324	343.6	33.0	-55.1	0.0
2025-01-29 08:10:49.696793	343.2	33.1	-58.5	2.6
2025-01-29 08:10:50.838261	342.9	33.3	-57.7	0.0
2025-01-29 08:10:51.979222	342.5	33.4	-57.8	0.0
2025-01-29 08:10:53.120694	342.2	33.5	-59.5	1.9
2025-01-29 08:10:54.262652	341.8	33.7	-59.6	2.1
2025-01-29 08:10:55.405608	341.5	33.8	-59.4	0.0
2025-01-29 08:10:56.549072	341.1	33.9	-58.5	0.0
2025-01-29 08:10:57.690033	340.7	34.1	-59.7	1.6
2025-01-29 08:10:58.832989	340.3	34.2	-57.3	0.0
2025-01-29 08:10:59.977455	340.0	34.3	-59.6	2.4
2025-01-29 08:11:01.120411	339.6	34.5	-60.2	2.1
2025-01-29 08:11:02.262370	339.2	34.6	-58.5	0.0
2025-01-29 08:11:03.404328	338.8	34.7	-59.5	3.3
2025-01-29 08:11:04.545796	338.4	34.8	-58.2	0.0
2025-01-29 08:11:05.687754	338.1	35.0	-57.6	0.0
2025-01-29 08:11:06.834700	337.7	35.1	-59.9	1.3
2025-01-29 08:11:07.975661	337.3	35.2	-59.8	1.9
2025-01-29 08:11:09.115624	336.9	35.3	-59.4	3.1
2025-01-29 08:11:10.261596	336.5	35.5	-58.1	0.9
2025-01-29 08:11:11.405550	336.1	35.6	-56.5	0.0
2025-01-29 08:11:12.546511	335.7	35.7	-58.8	0.8
2025-01-29 08:11:13.688976	335.2	35.8	-60.1	0.6
2025-01-29 08:11:14.829936	334.8	35.9	-59.8	0.4
2025-01-29 08:11:15.971895	334.4	36.0	-59.1	1.0
2025-01-29 08:11:17.120346	334.0	36.2	-58.5	0.0
2025-01-29 08:11:18.264299	333.6	36.3	-59.4	0.8
2025-01-29 08:11:19.405261	333.2	36.4	-59.1	2.1
2025-01-29 08:11:20.545253	332.7	36.5	-56.2	0.0
2025-01-29 08:11:21.688208	332.3	36.6	-57.0	0.0
2025-01-29 08:11:22.833159	331.9	36.7	-59.9	1.5
2025-01-29 08:11:23.978110	331.4	36.8	-58.0	1.3
2025-01-29 08:11:25.118074	331.0	36.9	-57.0	0.0
2025-01-29 08:11:26.261029	330.5	37.0	-57.5	0.0
2025-01-29 08:11:27.400505	330.1	37.1	-58.5	2.1
2025-01-29 08:11:28.543461	329.7	37.2	-58.7	2.6
2025-01-29 08:11:29.684422	329.2	37.3	-59.2	2.9
2025-01-29 08:11:30.830370	328.7	37.4	-59.4	2.4
2025-01-29 08:11:31.972329	328.3	37.5	-60.1	3.5
2025-01-29 08:11:33.113290	327.8	37.6	-60.5	2.9
2025-01-29 08:11:34.259754	327.4	37.7	-59.2	2.1
2025-01-29 08:11:35.402710	326.9	37.8	-58.9	3.2
2025-01-29 08:11:36.543671	326.4	37.9	-57.0	0.0
2025-01-29 08:11:37.685630	326.0	37.9	-57.7	0.0
2025-01-29 08:11:38.826591	325.5	38.0	-58.8	2.8
2025-01-29 08:11:39.968549	325.0	38.1	-59.5	3.7
2025-01-29 08:11:41.110509	324.6	38.2	-58.0	1.1
2025-01-29 08:11:42.254461	324.1	38.3	-61.0	5.6
2025-01-29 08:11:43.397417	323.6	38.3	-59.3	2.5
2025-01-29 08:11:44.538378	323.1	38.4	-59.9	3.3
2025-01-29 08:11:45.680337	322.6	38.5	-60.8	6.0
2025-01-29 08:11:46.822296	322.1	38.5	-60.0	4.5
2025-01-29 08:11:47.965252	321.7	38.6	-61.2	6.7
2025-01-29 08:11:49.112203	321.2	38.7	-61.7	5.9
2025-01-29 08:11:50.254156	320.7	38.7	-60.9	5.4
2025-01-29 08:11:51.397128	320.2	38.8	-61.5	5.6
2025-01-29 08:11:52.539086	319.7	38.8	-61.0	5.2
2025-01-29 08:11:53.681045	319.2	38.9	-61.9	6.0
2025-01-29 08:11:54.823003	318.7	38.9	-63.3	9.8
2025-01-29 08:11:55.963964	318.2	39.0	-63.8	9.0
2025-01-29 08:11:57.107919	317.7	39.0	-64.1	8.1
2025-01-29 08:11:58.249877	317.2	39.1	-63.6	8.7
2025-01-29 08:11:59.391835	316.7	39.1	-63.5	10.3
2025-01-29 08:12:00.535788	316.2	39.1	-63.9	8.0
2025-01-29 08:12:01.676749	315.7	39.2	-63.2	8.4
2025-01-29 08:12:02.819706	315.2	39.2	-62.6	7.9
2025-01-29 08:12:03.961664	314.7	39.2	-61.4	5.6
2025-01-29 08:12:05.102625	314.1	39.3	-61.5	5.8
2025-01-29 08:12:06.245582	313.6	39.3	-63.1	4.5
2025-01-29 08:12:07.388537	313.1	39.3	-61.9	2.9
2025-01-29 08:12:08.545456	312.6	39.3	-63.1	8.9
2025-01-29 08:12:09.688412	312.1	39.4	-62.6	8.2
2025-01-29 08:12:10.831875	311.6	39.4	-64.1	6.1
2025-01-29 08:12:11.982320	311.1	39.4	-63.0	4.7
2025-01-29 08:12:13.122284	310.5	39.4	-63.5	6.4
2025-01-29 08:12:14.265240	310.0	39.4	-64.4	9.0
2025-01-29 08:12:15.406200	309.5	39.4	-61.6	2.6
2025-01-29 08:12:16.548159	309.0	39.4	-62.7	5.6
2025-01-29 08:12:17.691116	308.5	39.4	-63.6	5.6
2025-01-29 08:12:18.835069	308.0	39.4	-62.4	5.3
2025-01-29 08:12:19.980020	307.5	39.4	-62.8	5.2
2025-01-29 08:12:21.119984	306.9	39.4	-61.9	6.2
2025-01-29 08:12:22.262939	306.4	39.4	-64.2	10.5
2025-01-29 08:12:23.403901	305.9	39.4	-64.8	8.0
2025-01-29 08:12:24.550846	305.4	39.4	-64.1	8.8
2025-01-29 08:12:25.693801	304.9	39.3	-63.6	10.1
2025-01-29 08:12:26.836757	304.4	39.3	-61.6	5.3
2025-01-29 08:12:27.977719	303.9	39.3	-64.6	11.5
2025-01-29 08:12:29.121672	303.4	39.3	-64.9	12.1
2025-01-29 08:12:30.263631	302.8	39.2	-61.9	5.6
2025-01-29 08:12:31.405590	302.3	39.2	-61.5	5.1
2025-01-29 08:12:32.548056	301.8	39.2	-64.2	11.0
2025-01-29 08:12:33.690013	301.3	39.1	-63.5	8.8
2025-01-29 08:12:34.831972	300.8	39.1	-63.3	8.3
2025-01-29 08:12:35.973930	300.3	39.0	-63.3	7.9
2025-01-29 08:12:37.114403	299.8	39.0	-64.4	9.0
2025-01-29 08:12:38.255363	299.3	39.0	-61.6	5.8
2025-01-29 08:12:39.396835	298.8	38.9	-61.7	5.2
2025-01-29 08:12:40.537796	298.3	38.9	-61.4	4.6
2025-01-29 08:12:41.680752	297.8	38.8	-62.0	7.7
2025-01-29 08:12:42.826699	297.3	38.7	-60.4	8.6
2025-01-29 08:12:43.968658	296.8	38.7	-61.4	3.8
2025-01-29 08:12:45.110617	296.3	38.6	-62.2	5.2
2025-01-29 08:12:46.254570	295.8	38.6	-61.2	4.6
2025-01-29 08:12:47.397526	295.4	38.5	-61.0	0.9
2025-01-29 08:12:48.539484	294.9	38.4	-60.7	3.7
2025-01-29 08:12:49.680447	294.4	38.4	-60.4	3.0
2025-01-29 08:12:50.822404	293.9	38.3	-60.4	1.0
2025-01-29 08:12:51.964363	293.4	38.2	-62.1	5.8
2025-01-29 08:12:53.106322	292.9	38.1	-63.1	3.0
2025-01-29 08:12:54.249277	292.5	38.1	-62.1	3.9
2025-01-29 08:12:55.392233	292.0	38.0	-62.2	3.8
2025-01-29 08:12:56.535190	291.5	37.9	-63.5	6.2
2025-01-29 08:12:57.676150	291.1	37.8	-63.0	4.5
2025-01-29 08:12:58.823096	290.6	37.7	-62.3	4.5
2025-01-29 08:12:59.968555	290.1	37.6	-62.0	4.1
2025-01-29 08:13:01.111511	289.7	37.5	-61.8	3.7
2025-01-29 08:13:02.252472	289.2	37.4	-62.1	6.5
2025-01-29 08:13:03.393943	288.8	37.4	-60.9	3.7
2025-01-29 08:13:04.533908	288.3	37.3	-61.8	5.9
2025-01-29 08:13:05.676863	287.9	37.2	-59.2	1.7
2025-01-29 08:13:06.818330	287.4	37.1	-61.4	5.2
2025-01-29 08:13:07.960802	287.0	37.0	-59.2	0.0
2025-01-29 08:13:09.104756	286.5	36.9	-60.4	4.3
2025-01-29 08:13:10.247222	286.1	36.7	-62.1	6.4
2025-01-29 08:13:11.390178	285.6	36.6	-60.4	2.9
2025-01-29 08:13:12.531139	285.2	36.5	-59.0	1.3
2025-01-29 08:13:13.673098	284.8	36.4	-61.0	7.3
2025-01-29 08:13:14.816054	284.4	36.3	-62.0	6.3
2025-01-29 08:13:15.957015	283.9	36.2	-62.6	7.2
2025-01-29 08:13:17.098483	283.5	36.1	-64.1	9.5
2025-01-29 08:13:18.243434	283.1	36.0	-63.9	7.3
2025-01-29 08:13:19.385393	282.7	35.9	-62.2	6.3
2025-01-29 08:13:20.526353	282.3	35.7	-63.6	10.2
2025-01-29 08:13:21.669310	281.9	35.6	-61.7	5.5
2025-01-29 08:13:22.811268	281.4	35.5	-63.4	9.6
2025-01-29 08:13:23.952737	281.0	35.4	-63.2	8.8
2025-01-29 08:13:25.098684	280.6	35.3	-63.9	7.9
2025-01-29 08:13:26.242638	280.2	35.1	-64.1	9.5
2025-01-29 08:13:27.385614	279.8	35.0	-61.3	4.4
2025-01-29 08:13:28.527573	279.5	34.9	-63.4	8.6
2025-01-29 08:13:29.668534	279.1	34.8	-62.8	8.3
2025-01-29 08:13:30.811490	278.7	34.6	-62.1	6.2
2025-01-29 08:13:31.957438	278.3	34.5	-61.0	3.9
2025-01-29 08:13:33.100394	277.9	34.4	-62.0	3.9
2025-01-29 08:13:34.243858	277.5	34.2	-62.1	4.9
2025-01-29 08:13:35.385816	277.2	34.1	-64.7	10.1
2025-01-29 08:13:36.528772	276.8	34.0	-64.2	6.9
2025-01-29 08:13:37.670243	276.4	33.8	-64.1	6.2
2025-01-29 08:13:38.812202	276.1	33.7	-63.8	5.9
2025-01-29 08:13:39.952165	275.7	33.6	-65.8	9.1
2025-01-29 08:13:41.093639	275.3	33.4	-64.3	7.4
2025-01-29 08:13:42.236596	275.0	33.3	-64.4	7.5
2025-01-29 08:13:43.380551	274.6	33.2	-65.4	10.0
2025-01-29 08:13:44.521510	274.3	33.0	-65.0	5.9
2025-01-29 08:13:45.664466	273.9	32.9	-64.7	9.3
2025-01-29 08:13:46.805427	273.6	32.8	-64.4	7.3
2025-01-29 08:13:47.948892	273.3	32.6	-65.1	8.0
2025-01-29 08:13:49.091848	272.9	32.5	-63.0	3.1
2025-01-29 08:13:50.233807	272.6	32.3	-65.5	8.2
2025-01-29 08:13:51.376273	272.2	32.2	-64.2	5.2
2025-01-29 08:13:52.520227	271.9	32.1	-66.5	7.4
2025-01-29 08:13:53.660191	271.6	31.9	-66.9	8.5
2025-01-29 08:13:54.800660	271.3	31.8	-66.7	9.7
2025-01-29 08:13:55.942619	270.9	31.6	-66.8	8.6
2025-01-29 08:13:57.087570	270.6	31.5	-67.9	9.8
2025-01-29 08:13:58.230035	270.3	31.4	-68.1	10.1
2025-01-29 08:13:59.376980	270.0	31.2	-68.0	10.0
2025-01-29 08:14:00.519936	269.7	31.1	-67.3	10.1
2025-01-29 08:14:01.661410	269.4	30.9	-65.8	5.1
2025-01-29 08:14:02.802371	269.1	30.8	-65.4	6.0
2025-01-29 08:14:03.945327	268.8	30.6	-65.2	4.1
2025-01-29 08:14:05.086288	268.5	30.5	-65.5	5.6
2025-01-29 08:14:06.228248	268.2	30.4	-65.8	6.8
2025-01-29 08:14:07.369208	267.9	30.2	-67.5	10.2
2025-01-29 08:14:08.513668	267.6	30.1	-65.5	0.0
#Closed at: 2025-01-29 08:10:19.226431