passes_logs/2026/01/23/R3.2S_Murmansk/R3.2S_Murmansk__20260123_065942_SUOMI_NPP_rec.log

#Pass ID: 20260123_065942_SUOMI NPP
#Satellite: SUOMI NPP
#Configuration: NPP
#almurnet v.1.7.20251203
#Start time: 2026-01-23 06:59:43

#Version: 2.2.20231116
#Station: R3.2S_Murmansk
#Location: 33.079688 lon 68.888172 lat
#TLE: 1 37849U 11061A   26022.50498765  .00000208  00000+0  11976-3 0  9992
#TLE: 2 37849  98.7820 324.4892 0002275  50.8149 309.3229 14.19528284737775

#Time	Az	El	Level	Level2	SNR	BER	BlckErr	Temp	State	Recorded	gain1	gain2
2026-01-23 06:59:43.17	93.30	2.02	-54.4	-69.4	3.8	1.49e+00	0	41	0	0	79	21381
2026-01-23 06:59:47.19	93.09	2.26	-54.6	-69.6	3.8	1.49e+00	0	41	104	0	79	21808
2026-01-23 06:59:51.22	92.88	2.50	-54.4	-69.4	3.8	1.49e+00	0	41	104	0	79	21446
2026-01-23 06:59:55.25	92.66	2.74	-54.2	-69.2	3.8	1.49e+00	0	41	104	0	79	20865
2026-01-23 06:59:59.29	92.44	2.99	-53.8	-68.8	3.8	1.49e+00	0	41	104	0	79	20020
2026-01-23 07:00:03.32	92.21	3.24	-53.0	-68.0	3.8	1.49e+00	0	41	104	0	78	19270
2026-01-23 07:00:07.35	91.98	3.48	-52.4	-67.4	3.8	1.49e+00	0	42	104	0	76	20165
2026-01-23 07:00:11.38	91.75	3.73	-52.2	-67.1	3.8	1.49e+00	0	42	104	0	75	20755
2026-01-23 07:00:15.41	91.51	3.99	-52.2	-66.2	3.8	1.49e+00	0	42	104	0	75	18547
2026-01-23 07:00:19.45	91.27	4.24	-52.1	-65.1	3.8	1.49e+00	0	42	104	0	74	17366
2026-01-23 07:00:23.48	91.02	4.50	-51.6	-59.9	6.2	4.63e-01	0	42	0	3145728	74	9499
2026-01-23 07:00:27.52	90.77	4.76	-50.5	-55.6	10.3	4.44e-03	0	42	0	11534336	72	6510
2026-01-23 07:00:31.55	90.51	5.02	-50.4	-55.1	10.9	1.23e-03	0	42	0	18874368	72	6197
2026-01-23 07:00:35.58	90.25	5.28	-49.3	-52.5	5.8	1.49e+00	0	42	104	24117248	70	5144
2026-01-23 07:00:39.61	89.98	5.54	-48.4	-50.9	15.4	0.00e+00	0	42	0	30408704	68	4810
2026-01-23 07:00:43.64	89.71	5.81	-48.6	-51.3	15.1	0.00e+00	0	42	0	37748736	68	5004
2026-01-23 07:00:47.68	89.43	6.08	-48.6	-51.2	15.3	0.00e+00	0	42	0	45088768	68	4947
2026-01-23 07:00:51.71	89.15	6.35	-48.4	-50.9	15.6	0.00e+00	0	42	0	53477376	67	5052
2026-01-23 07:00:55.74	88.86	6.62	-48.5	-51.2	15.3	0.00e+00	0	42	0	60817408	67	5226
2026-01-23 07:00:59.77	88.57	6.90	-48.2	-50.6	16.0	0.00e+00	0	42	0	68157440	67	4879
2026-01-23 07:01:03.81	88.27	7.17	-48.7	-51.3	15.2	0.00e+00	0	42	0	75497472	67	5318
2026-01-23 07:01:07.84	87.97	7.45	-48.1	-50.6	16.0	0.00e+00	0	43	0	82837504	67	4879
2026-01-23 07:01:11.87	87.66	7.74	-47.9	-50.3	16.3	0.00e+00	0	43	0	91226112	67	4708
2026-01-23 07:01:15.90	87.34	8.02	-47.8	-50.0	16.6	0.00e+00	0	43	0	98566144	67	4573
2026-01-23 07:01:19.93	87.01	8.31	-47.2	-49.2	17.3	0.00e+00	0	43	0	105906176	66	4435
2026-01-23 07:01:23.96	86.68	8.59	-47.1	-49.0	17.5	0.00e+00	0	43	0	113246208	65	4585
2026-01-23 07:01:27.99	86.35	8.89	-46.9	-48.8	17.8	0.00e+00	0	43	0	121634816	65	4470
2026-01-23 07:01:32.03	86.00	9.18	-46.9	-48.9	17.7	0.00e+00	0	43	0	128974848	65	4506
2026-01-23 07:01:36.06	85.65	9.48	-47.1	-49.1	17.6	0.00e+00	0	43	0	136314880	65	4611
2026-01-23 07:01:40.09	85.29	9.77	-47.0	-49.0	17.6	0.00e+00	0	43	0	143654912	65	4580
2026-01-23 07:01:44.12	84.92	10.07	-47.2	-49.2	17.5	0.00e+00	0	43	0	150994944	65	4679
2026-01-23 07:01:48.16	84.55	10.38	-47.0	-48.9	17.8	0.00e+00	0	43	0	159383552	65	4496
2026-01-23 07:01:52.19	84.16	10.68	-47.3	-49.3	17.3	0.00e+00	0	43	0	166723584	65	4749
2026-01-23 07:01:56.22	83.77	10.99	-46.8	-48.7	17.9	0.00e+00	0	43	0	174063616	65	4410
2026-01-23 07:02:00.25	83.37	11.30	-47.2	-49.2	17.5	0.00e+00	0	43	0	181403648	65	4673
2026-01-23 07:02:04.28	82.96	11.62	-46.9	-48.7	17.9	0.00e+00	0	43	0	188743680	65	4432
2026-01-23 07:02:08.32	82.54	11.93	-47.0	-48.9	17.8	0.00e+00	0	43	0	197132288	65	4510
2026-01-23 07:02:12.35	82.11	12.25	-47.2	-49.2	17.6	0.00e+00	0	43	0	204472320	65	4656
2026-01-23 07:02:16.38	81.68	12.57	-47.0	-48.9	17.8	0.00e+00	0	43	0	211812352	65	4536
2026-01-23 07:02:20.41	81.23	12.90	-47.2	-49.3	17.5	0.00e+00	0	43	0	219152384	65	4715
2026-01-23 07:02:24.45	80.77	13.22	-46.8	-48.7	18.0	0.00e+00	0	43	0	226492416	65	4415
2026-01-23 07:02:28.48	80.30	13.55	-46.6	-48.4	18.4	0.00e+00	0	43	0	234881024	64	4494
2026-01-23 07:02:32.51	79.82	13.88	-46.5	-48.2	18.5	0.00e+00	0	43	0	242221056	64	4402
2026-01-23 07:02:36.54	79.33	14.22	-46.2	-47.8	18.8	0.00e+00	0	43	0	249561088	64	4241
2026-01-23 07:02:40.58	78.83	14.55	-46.9	-48.7	18.1	0.00e+00	0	43	0	256901120	64	4686
2026-01-23 07:02:44.61	78.32	14.89	-47.0	-48.9	17.9	0.00e+00	0	43	0	265289728	64	4792
2026-01-23 07:02:48.65	77.79	15.23	-47.0	-48.9	18.0	0.00e+00	0	43	0	272629760	64	4775
2026-01-23 07:02:52.68	77.25	15.58	-46.9	-48.7	18.2	0.00e+00	0	43	0	279969792	64	4668
2026-01-23 07:02:56.71	76.70	15.92	-46.7	-48.5	18.3	0.00e+00	0	43	0	287309824	64	4578
2026-01-23 07:03:00.75	76.14	16.27	-46.5	-48.3	18.6	0.00e+00	0	43	0	294649856	64	4442
2026-01-23 07:03:04.78	75.56	16.62	-46.0	-47.6	19.3	0.00e+00	0	43	0	303038464	63	4378
2026-01-23 07:03:08.81	74.97	16.97	-45.7	-47.2	19.7	0.00e+00	0	43	0	310378496	63	4178
2026-01-23 07:03:12.84	74.37	17.32	-45.7	-47.2	19.7	0.00e+00	0	43	0	317718528	63	4153
2026-01-23 07:03:16.87	73.75	17.68	-45.9	-47.4	19.5	0.00e+00	0	43	0	325058560	63	4286
2026-01-23 07:03:20.91	73.11	18.03	-46.1	-47.6	19.4	0.00e+00	0	43	0	332398592	63	4352
2026-01-23 07:03:24.94	72.46	18.39	-46.4	-48.0	19.0	0.00e+00	0	43	0	340787200	63	4586
2026-01-23 07:03:28.97	71.79	18.75	-46.2	-47.8	19.3	0.00e+00	0	43	0	348127232	63	4469
2026-01-23 07:03:33.00	71.11	19.11	-45.8	-47.2	19.8	0.00e+00	0	43	0	355467264	63	4170
2026-01-23 07:03:37.04	70.41	19.47	-46.1	-47.6	19.4	0.00e+00	0	43	0	362807296	63	4373
2026-01-23 07:03:41.07	69.70	19.83	-46.0	-47.5	19.5	0.00e+00	0	43	0	371195904	63	4331
2026-01-23 07:03:45.10	68.96	20.20	-46.6	-48.3	18.9	0.00e+00	0	43	0	378535936	63	4743
2026-01-23 07:03:49.14	68.21	20.56	-46.4	-48.0	19.0	0.00e+00	0	43	0	385875968	64	4325
2026-01-23 07:03:53.17	67.44	20.92	-46.4	-47.9	19.2	0.00e+00	0	43	0	393216000	63	4543
2026-01-23 07:03:57.20	66.65	21.28	-46.7	-48.4	18.7	0.00e+00	0	43	0	400556032	64	4529
2026-01-23 07:04:01.23	65.85	21.64	-46.4	-47.9	19.1	0.00e+00	0	44	0	408944640	64	4285
2026-01-23 07:04:05.26	65.02	22.00	-45.9	-47.4	19.7	0.00e+00	0	43	0	416284672	63	4271
2026-01-23 07:04:09.29	64.18	22.36	-46.0	-47.5	19.7	0.00e+00	0	43	0	423624704	63	4296
2026-01-23 07:04:13.33	63.31	22.72	-46.0	-47.4	19.8	0.00e+00	0	43	0	430964736	63	4264
2026-01-23 07:04:17.36	62.43	23.07	-45.5	-46.8	20.3	0.00e+00	0	43	0	438304768	62	4241
2026-01-23 07:04:21.39	61.52	23.42	-44.6	-45.7	21.3	0.00e+00	0	43	0	446693376	60	4187
2026-01-23 07:04:25.42	60.60	23.77	-44.7	-45.9	21.1	0.00e+00	0	43	0	454033408	60	4272
2026-01-23 07:04:29.46	59.65	24.12	-45.2	-46.6	20.5	0.00e+00	0	43	0	461373440	61	4369
2026-01-23 07:04:33.49	58.68	24.46	-45.0	-46.3	20.7	0.00e+00	0	43	0	468713472	61	4232
2026-01-23 07:04:37.52	57.69	24.79	-44.8	-46.1	21.0	0.00e+00	0	43	0	476053504	61	4107
2026-01-23 07:04:41.55	56.68	25.12	-45.1	-46.4	20.6	0.00e+00	0	43	0	484442112	61	4261
2026-01-23 07:04:45.58	55.65	25.44	-44.9	-46.2	20.8	0.00e+00	0	43	0	491782144	61	4170
2026-01-23 07:04:49.61	54.60	25.76	-44.4	-45.6	21.4	0.00e+00	0	43	0	499122176	60	4122
2026-01-23 07:04:53.65	53.52	26.07	-45.0	-46.3	20.8	0.00e+00	0	43	0	506462208	60	4474
2026-01-23 07:04:57.68	52.43	26.37	-45.9	-47.3	19.9	0.00e+00	0	43	0	514850816	62	4487
2026-01-23 07:05:01.71	51.31	26.67	-45.4	-46.8	20.4	0.00e+00	0	43	0	522190848	62	4197
2026-01-23 07:05:05.74	50.18	26.95	-45.5	-46.9	20.3	0.00e+00	0	43	0	529530880	62	4246
2026-01-23 07:05:09.77	49.02	27.23	-45.1	-46.3	20.8	0.00e+00	0	43	0	536870912	62	4001
2026-01-23 07:05:13.81	47.84	27.49	-45.4	-46.8	20.4	0.00e+00	0	43	0	544210944	61	4459
2026-01-23 07:05:17.84	46.64	27.74	-46.4	-48.0	19.3	0.00e+00	0	43	0	551550976	63	4563
2026-01-23 07:05:21.87	45.43	27.99	-45.7	-47.1	20.1	0.00e+00	0	43	0	559939584	63	4125
2026-01-23 07:05:25.91	44.19	28.21	-44.6	-45.7	21.3	0.00e+00	0	43	0	567279616	61	3958
2026-01-23 07:05:29.94	42.94	28.43	-45.2	-46.6	20.5	0.00e+00	0	43	0	574619648	61	4344
2026-01-23 07:05:33.97	41.68	28.63	-45.1	-46.4	20.8	0.00e+00	0	43	0	581959680	61	4247
2026-01-23 07:05:38.00	40.40	28.82	-45.4	-46.7	20.5	0.00e+00	0	43	0	590348288	61	4431
2026-01-23 07:05:42.03	39.10	28.99	-46.3	-47.8	19.5	0.00e+00	0	43	0	597688320	63	4471
2026-01-23 07:05:46.07	37.79	29.15	-47.2	-49.1	18.2	0.00e+00	0	43	0	605028352	65	4611
2026-01-23 07:05:50.10	36.47	29.29	-47.2	-49.0	18.3	0.00e+00	0	43	0	612368384	65	4549
2026-01-23 07:05:54.13	35.14	29.41	-46.6	-48.2	19.1	0.00e+00	0	43	0	619708416	65	4188
2026-01-23 07:05:58.16	33.79	29.52	-46.4	-47.9	19.3	0.00e+00	0	43	0	628097024	63	4526
2026-01-23 07:06:02.19	32.44	29.60	-47.0	-48.8	18.3	0.00e+00	0	43	0	635437056	65	4488
2026-01-23 07:06:06.23	31.08	29.68	-47.1	-49.0	18.2	0.00e+00	0	43	0	642777088	65	4564
2026-01-23 07:06:10.26	29.72	29.73	-47.5	-49.6	17.7	0.00e+00	0	43	0	650117120	65	4871
2026-01-23 07:06:14.29	28.36	29.76	-45.9	-47.3	19.9	0.00e+00	0	43	0	658505728	63	4228
2026-01-23 07:06:18.32	26.99	29.78	-46.9	-48.6	18.6	0.00e+00	0	43	0	665845760	64	4625
2026-01-23 07:06:22.36	25.62	29.78	-47.1	-48.8	18.4	0.00e+00	0	43	0	673185792	65	4491
2026-01-23 07:06:26.39	24.25	29.76	-46.2	-47.6	19.8	0.00e+00	0	43	0	680525824	63	4367
2026-01-23 07:06:30.42	22.88	29.72	-46.8	-48.5	18.8	0.00e+00	0	44	0	687865856	64	4583
2026-01-23 07:06:34.45	21.52	29.66	-46.3	-47.8	19.6	0.00e+00	0	43	0	695205888	64	4219
2026-01-23 07:06:38.48	20.17	29.59	-46.8	-48.6	18.8	0.00e+00	0	43	0	703594496	64	4599
2026-01-23 07:06:42.52	18.82	29.50	-46.1	-47.7	19.7	0.00e+00	0	43	0	710934528	63	4399
2026-01-23 07:06:46.55	17.48	29.39	-45.6	-46.9	20.3	0.00e+00	0	43	0	718274560	62	4279
2026-01-23 07:06:50.58	16.15	29.26	-44.9	-46.2	21.0	0.00e+00	0	43	0	725614592	61	4155
2026-01-23 07:06:54.61	14.83	29.12	-45.3	-46.7	20.5	0.00e+00	0	43	0	734003200	61	4394
2026-01-23 07:06:58.64	13.52	28.96	-46.1	-47.6	19.7	0.00e+00	0	43	0	741343232	62	4632
2026-01-23 07:07:02.67	12.23	28.79	-45.7	-47.0	20.4	0.00e+00	0	43	0	748683264	63	4069
2026-01-23 07:07:06.70	10.95	28.60	-46.4	-47.8	19.6	0.00e+00	0	43	0	756023296	63	4490
2026-01-23 07:07:10.73	9.69	28.39	-45.9	-47.3	20.1	0.00e+00	0	43	0	763363328	63	4226
2026-01-23 07:07:14.77	8.44	28.18	-46.5	-48.0	19.5	0.00e+00	0	43	0	771751936	63	4559
2026-01-23 07:07:18.80	7.22	27.95	-46.7	-48.3	19.0	0.00e+00	0	43	0	779091968	64	4486
2026-01-23 07:07:22.83	6.01	27.70	-48.2	-50.3	17.2	0.00e+00	0	43	0	786432000	67	4709
2026-01-23 07:07:26.86	4.82	27.45	-48.5	-50.8	16.6	0.00e+00	0	43	0	793772032	67	4997
2026-01-23 07:07:30.89	3.65	27.18	-47.5	-49.5	17.8	0.00e+00	0	43	0	801112064	67	4302
2026-01-23 07:07:34.93	2.49	26.91	-45.8	-47.3	20.0	0.00e+00	0	43	0	809500672	63	4195
2026-01-23 07:07:38.96	1.36	26.62	-44.8	-46.0	21.2	0.00e+00	0	43	0	816840704	61	4057
2026-01-23 07:07:42.99	0.25	26.33	-45.2	-46.5	20.6	0.00e+00	0	43	0	824180736	61	4333
2026-01-23 07:07:47.02	359.16	26.02	-46.5	-48.1	19.2	0.00e+00	0	43	0	831520768	63	4634
2026-01-23 07:07:51.05	358.09	25.71	-46.7	-48.4	19.0	0.00e+00	0	43	0	838860800	63	4772
2026-01-23 07:07:55.08	357.05	25.39	-47.5	-49.4	17.9	0.00e+00	0	43	0	847249408	65	4808
2026-01-23 07:07:59.12	356.02	25.07	-46.1	-47.5	19.7	0.00e+00	0	43	0	854589440	64	4084
2026-01-23 07:08:03.15	355.01	24.74	-45.3	-46.6	20.6	0.00e+00	0	43	0	861929472	62	4123
2026-01-23 07:08:07.18	354.03	24.40	-44.5	-45.7	21.3	0.00e+00	0	43	0	869269504	61	3915
2026-01-23 07:08:11.21	353.07	24.06	-44.6	-45.8	21.2	0.00e+00	0	43	0	877658112	60	4235
2026-01-23 07:08:15.24	352.13	23.72	-44.2	-45.3	21.9	0.00e+00	0	43	0	884998144	59	4220
2026-01-23 07:08:19.27	351.21	23.37	-44.6	-45.8	21.2	0.00e+00	0	43	0	892338176	60	4221
2026-01-23 07:08:23.31	350.31	23.02	-45.0	-46.2	20.8	0.00e+00	0	43	0	899678208	60	4432
2026-01-23 07:08:27.34	349.43	22.67	-44.9	-46.2	20.8	0.00e+00	0	43	0	907018240	60	4409
2026-01-23 07:08:31.37	348.57	22.31	-44.3	-45.5	21.5	0.00e+00	0	43	0	915406848	60	4075
2026-01-23 07:08:35.40	347.73	21.95	-43.6	-44.6	22.5	0.00e+00	0	43	0	922746880	59	3889
2026-01-23 07:08:39.44	346.91	21.59	-44.1	-45.2	22.0	0.00e+00	0	43	0	930086912	58	4404
2026-01-23 07:08:43.47	346.11	21.23	-44.4	-45.5	21.7	0.00e+00	0	43	0	937426944	59	4337
2026-01-23 07:08:47.50	345.32	20.87	-44.6	-45.8	21.4	0.00e+00	0	43	0	944766976	59	4483
2026-01-23 07:08:51.53	344.56	20.51	-44.4	-45.6	21.4	0.00e+00	0	43	0	953155584	60	4128
2026-01-23 07:08:55.57	343.81	20.15	-44.5	-45.6	21.3	0.00e+00	0	43	0	960495616	60	4132
2026-01-23 07:08:59.60	343.08	19.79	-44.1	-45.2	22.0	0.00e+00	0	43	0	967835648	59	4183
2026-01-23 07:09:03.63	342.37	19.43	-44.6	-45.7	21.5	0.00e+00	0	43	0	975175680	59	4433
2026-01-23 07:09:07.66	341.68	19.07	-45.2	-46.5	20.5	0.00e+00	0	43	0	982515712	61	4316
2026-01-23 07:09:11.69	341.00	18.71	-44.3	-45.5	21.4	0.00e+00	0	43	0	990904320	60	4081
2026-01-23 07:09:15.72	340.34	18.35	-44.3	-45.4	21.4	0.00e+00	0	43	0	998244352	60	4050
2026-01-23 07:09:19.75	339.70	18.00	-45.1	-46.4	20.6	0.00e+00	0	43	0	1005584384	61	4247
2026-01-23 07:09:23.79	339.06	17.64	-46.0	-47.5	19.6	0.00e+00	0	43	0	1012924416	62	4549
2026-01-23 07:09:27.82	338.45	17.29	-45.8	-47.2	19.9	0.00e+00	0	43	0	1021313024	62	4418
2026-01-23 07:09:31.85	337.85	16.93	-45.4	-46.7	20.3	0.00e+00	0	43	0	1028653056	62	4184
2026-01-23 07:09:35.88	337.26	16.58	-46.4	-48.0	19.1	0.00e+00	0	43	0	1035993088	63	4578
2026-01-23 07:09:39.91	336.69	16.24	-45.9	-47.3	19.7	0.00e+00	0	43	0	1043333120	63	4227
2026-01-23 07:09:43.94	336.13	15.89	-45.0	-46.2	20.7	0.00e+00	0	43	0	1050673152	61	4184
2026-01-23 07:09:47.97	335.58	15.55	-44.7	-45.9	21.0	0.00e+00	0	43	0	1059061760	61	4040
2026-01-23 07:09:52.01	335.05	15.20	-45.3	-46.6	20.3	0.00e+00	0	43	0	1066401792	61	4382
2026-01-23 07:09:56.04	334.53	14.86	-45.5	-46.8	20.1	0.00e+00	0	43	0	1073741824	61	4488
2026-01-23 07:10:00.07	334.02	14.53	-45.1	-46.4	20.5	0.00e+00	0	43	0	1081081856	61	4275
2026-01-23 07:10:04.10	333.52	14.19	-45.7	-47.1	19.9	0.00e+00	0	43	0	1088421888	61	4635
2026-01-23 07:10:08.13	333.03	13.86	-47.2	-49.1	17.8	0.00e+00	0	43	0	1096810496	65	4639
2026-01-23 07:10:12.16	332.56	13.53	-46.7	-48.5	18.5	0.00e+00	0	43	0	1104150528	65	4293
2026-01-23 07:10:16.19	332.09	13.20	-45.5	-46.9	20.0	0.00e+00	0	43	0	1111490560	62	4260
2026-01-23 07:10:20.23	331.64	12.88	-45.1	-46.5	20.4	0.00e+00	0	43	0	1118830592	61	4297
2026-01-23 07:10:24.26	331.19	12.55	-46.1	-47.6	19.3	0.00e+00	0	43	0	1126170624	62	4639
2026-01-23 07:10:28.29	330.76	12.23	-47.1	-48.9	18.0	0.00e+00	0	43	0	1134559232	64	4791
2026-01-23 07:10:32.33	330.33	11.92	-47.5	-49.4	17.5	0.00e+00	0	43	0	1141899264	65	4806
2026-01-23 07:10:36.36	329.92	11.60	-47.1	-48.9	17.9	0.00e+00	0	43	0	1149239296	65	4525
2026-01-23 07:10:40.40	329.51	11.29	-47.1	-48.9	17.9	0.00e+00	0	43	0	1156579328	65	4544
2026-01-23 07:10:44.43	329.12	10.98	-47.0	-48.8	18.1	0.00e+00	0	43	0	1163919360	65	4490
2026-01-23 07:10:48.46	328.73	10.67	-47.3	-49.3	17.6	0.00e+00	0	43	0	1172307968	65	4708
2026-01-23 07:10:52.49	328.35	10.37	-47.6	-49.6	17.3	0.00e+00	0	43	0	1179648000	65	4908
2026-01-23 07:10:56.52	327.97	10.06	-47.0	-48.8	18.0	0.00e+00	0	43	0	1186988032	65	4473
2026-01-23 07:11:00.55	327.61	9.76	-46.3	-47.9	18.8	0.00e+00	0	43	0	1194328064	64	4252
2026-01-23 07:11:04.59	327.25	9.47	-46.1	-47.6	19.1	0.00e+00	0	43	0	1202716672	63	4366
2026-01-23 07:11:08.62	326.90	9.17	-46.6	-48.3	18.5	0.00e+00	0	43	0	1210056704	63	4715
2026-01-23 07:11:12.66	326.56	8.88	-47.2	-49.1	17.6	0.00e+00	0	43	0	1217396736	65	4635
2026-01-23 07:11:16.68	326.23	8.59	-47.8	-49.9	16.8	0.00e+00	0	43	0	1224736768	66	4796
2026-01-23 07:11:20.71	325.90	8.30	-48.0	-50.3	16.4	0.00e+00	0	43	0	1232076800	66	5038
2026-01-23 07:11:24.75	325.58	8.02	-48.2	-50.6	16.2	0.00e+00	0	43	0	1240465408	67	4882
2026-01-23 07:11:28.77	325.26	7.73	-48.2	-50.6	16.1	0.00e+00	0	43	0	1247805440	67	4898
2026-01-23 07:11:32.80	324.95	7.45	-47.8	-50.0	16.6	0.00e+00	0	43	0	1255145472	67	4567
2026-01-23 07:11:36.84	324.65	7.17	-47.4	-49.5	17.1	0.00e+00	0	43	0	1262485504	66	4552
2026-01-23 07:11:40.88	324.35	6.90	-47.6	-49.8	16.9	0.00e+00	0	43	0	1270874112	66	4709
2026-01-23 07:11:44.91	324.06	6.62	-47.6	-49.7	16.8	0.00e+00	0	43	0	1278214144	66	4690
2026-01-23 07:11:48.94	323.78	6.35	-48.0	-50.3	16.3	0.00e+00	0	43	0	1285554176	66	5023
2026-01-23 07:11:52.97	323.50	6.08	-48.5	-51.1	15.4	0.00e+00	0	43	0	1292894208	67	5187
2026-01-23 07:11:57.00	323.22	5.81	-48.7	-51.5	15.1	0.00e+00	0	43	0	1300234240	68	5131
2026-01-23 07:12:01.03	322.96	5.55	-48.8	-51.7	14.8	7.00e-07	0	43	0	1307574272	68	5252
2026-01-23 07:12:05.07	322.69	5.28	-48.7	-51.5	15.0	1.50e-06	0	43	0	1315962880	68	5120
2026-01-23 07:12:09.10	322.43	5.02	-48.8	-51.6	14.8	0.00e+00	0	43	0	1323302912	68	5179
2026-01-23 07:12:13.13	322.18	4.76	-53.3	-68.3	3.8	1.49e+00	0	43	104	1324351488	77	21066
2026-01-23 07:12:17.16	321.93	4.51	-53.3	-68.3	3.8	1.49e+00	0	43	104	1324351488	77	21064
2026-01-23 07:12:21.19	321.69	4.25	-53.4	-68.4	3.8	1.49e+00	0	43	104	1324351488	77	21385
2026-01-23 07:12:25.23	321.44	4.00	-53.6	-68.6	3.8	1.49e+00	0	43	104	1324351488	77	21832
2026-01-23 07:12:29.26	321.21	3.74	-53.7	-68.7	3.8	1.49e+00	0	44	104	1324351488	77	22084
2026-01-23 07:12:33.29	320.98	3.49	-53.6	-68.6	3.8	1.49e+00	0	43	104	1324351488	77	21868
2026-01-23 07:12:37.32	320.75	3.25	-53.6	-68.6	3.8	1.49e+00	0	43	104	1324351488	77	21870
2026-01-23 07:12:41.36	320.53	3.00	-53.6	-68.6	3.8	1.49e+00	0	44	104	1324351488	77	21810
2026-01-23 07:12:45.39	320.31	2.75	-53.6	-68.6	3.8	1.49e+00	0	44	104	1324351488	77	21855
2026-01-23 07:12:49.42	320.09	2.51	-53.6	-68.6	3.8	1.49e+00	0	43	104	1324351488	77	21821
2026-01-23 07:12:53.46	319.88	2.27	-53.6	-68.5	3.8	1.49e+00	0	43	104	1324351488	77	21744
2026-01-23 07:12:57.49	319.67	2.03	-53.6	-68.5	3.8	1.49e+00	0	43	104	1324351488	77	21755

#Closed at: 2026-01-23 07:13:00
#Recorded file [1324 MB]: D:/lorett/data/31041_260123_095942.dat