passes_logs/2026/01/23/R3.2S_Murmansk/R3.2S_Murmansk__20260123_013206_NOAA_21_JPSS-2_rec.log

#Pass ID: 20260123_013206_NOAA 21 (JPSS-2)
#Satellite: NOAA 21 (JPSS-2)
#Configuration: NOAA-21
#almurnet v.1.7.20251203
#Start time: 2026-01-23 01:32:08

#Version: 2.2.20231116
#Station: R3.2S_Murmansk
#Location: 33.079688 lon 68.888172 lat
#TLE: 1 54234U 22150A   26022.41365820  .00000211  00000+0  12084-3 0  9990
#TLE: 2 54234  98.7507 323.2240 0000658 234.5287 125.5828 14.19537645165864

#Time	Az	El	Level	Level2	SNR	BER	BlckErr	Temp	State	Recorded	gain1	gain2
2026-01-23 01:32:08.34	28.17	2.13	-54.4	-67.2	3.8	1.49e+00	0	42	0	0	79	16553
2026-01-23 01:32:12.38	28.10	2.39	-54.3	-67.1	3.8	1.49e+00	0	41	104	0	79	16491
2026-01-23 01:32:16.42	28.02	2.65	-54.2	-67.0	3.8	1.49e+00	0	42	104	0	79	16259
2026-01-23 01:32:20.45	27.95	2.91	-54.0	-66.8	3.8	1.49e+00	0	42	104	0	79	15835
2026-01-23 01:32:24.48	27.87	3.17	-53.5	-66.3	3.8	1.49e+00	0	42	104	0	79	14962
2026-01-23 01:32:28.52	27.79	3.44	-52.1	-63.8	3.8	1.49e+00	0	42	104	0	76	13387
2026-01-23 01:32:32.55	27.71	3.71	-52.1	-63.3	3.8	1.49e+00	0	42	104	0	76	12615
2026-01-23 01:32:36.59	27.63	3.98	-50.2	-54.6	9.0	3.11e-02	0	43	0	7340032	72	5811
2026-01-23 01:32:40.62	27.54	4.26	-47.7	-49.9	13.9	7.60e-06	0	43	0	19922944	67	4504
2026-01-23 01:32:44.65	27.45	4.53	-46.5	-48.2	15.5	0.00e+00	0	43	0	32505856	64	4431
2026-01-23 01:32:48.69	27.37	4.81	-47.1	-49.1	14.7	0.00e+00	0	43	0	45088768	64	4905
2026-01-23 01:32:52.72	27.27	5.10	-45.3	-46.7	17.3	7.01e-05	0	43	0	57671680	62	4154
2026-01-23 01:32:56.75	27.18	5.38	-49.3	-52.5	11.7	7.00e-07	0	43	0	66060288	69	5431
2026-01-23 01:33:00.79	27.09	5.67	-45.1	-46.4	17.7	0.00e+00	0	43	0	78643200	62	4011
2026-01-23 01:33:04.82	26.99	5.96	-44.8	-46.0	18.1	0.00e+00	0	43	0	91226112	61	4096
2026-01-23 01:33:08.86	26.89	6.26	-44.6	-45.8	18.4	0.00e+00	0	43	0	103809024	60	4201
2026-01-23 01:33:12.89	26.79	6.56	-44.6	-45.8	18.4	0.00e+00	0	43	0	116391936	60	4198
2026-01-23 01:33:16.93	26.68	6.86	-44.3	-45.5	18.8	0.00e+00	0	43	0	128974848	60	4069
2026-01-23 01:33:20.96	26.58	7.17	-44.5	-45.6	18.7	0.00e+00	0	43	0	141557760	60	4125
2026-01-23 01:33:24.99	26.47	7.48	-44.3	-45.5	18.9	0.00e+00	0	43	0	154140672	60	4052
2026-01-23 01:33:29.03	26.35	7.79	-44.0	-45.1	19.3	0.00e+00	0	43	0	166723584	60	3880
2026-01-23 01:33:33.06	26.24	8.11	-44.3	-45.4	19.3	0.00e+00	0	43	0	179306496	59	4268
2026-01-23 01:33:37.10	26.12	8.43	-44.3	-45.4	19.3	0.00e+00	0	43	0	191889408	59	4279
2026-01-23 01:33:41.14	26.00	8.75	-44.2	-45.3	19.5	0.00e+00	0	43	0	204472320	59	4197
2026-01-23 01:33:45.17	25.87	9.08	-44.2	-45.2	19.5	0.00e+00	0	43	0	217055232	59	4177
2026-01-23 01:33:49.21	25.75	9.41	-44.0	-45.1	19.7	0.00e+00	0	43	0	229638144	59	4100
2026-01-23 01:33:53.24	25.61	9.75	-43.9	-44.9	19.9	0.00e+00	0	43	0	242221056	59	4025
2026-01-23 01:33:57.28	25.48	10.09	-43.9	-44.9	19.9	0.00e+00	0	43	0	254803968	59	4032
2026-01-23 01:34:01.31	25.34	10.44	-43.6	-44.6	20.2	0.00e+00	0	43	0	267386880	59	3888
2026-01-23 01:34:05.35	25.20	10.79	-43.5	-44.4	20.4	0.00e+00	0	43	0	279969792	58	4046
2026-01-23 01:34:09.38	25.05	11.15	-43.3	-44.2	20.6	0.00e+00	0	44	0	292552704	58	3955
2026-01-23 01:34:13.41	24.91	11.51	-43.2	-44.2	20.7	0.00e+00	0	43	0	305135616	58	3926
2026-01-23 01:34:17.45	24.75	11.87	-43.1	-44.0	20.9	0.00e+00	0	44	0	318767104	58	3834
2026-01-23 01:34:21.48	24.59	12.24	-43.0	-43.9	21.0	0.00e+00	0	44	0	330301440	58	3806
2026-01-23 01:34:25.51	24.43	12.62	-42.9	-43.8	21.1	0.00e+00	0	44	0	342884352	57	3963
2026-01-23 01:34:29.55	24.26	13.00	-43.0	-43.9	21.1	0.00e+00	0	43	0	356515840	57	4015
2026-01-23 01:34:33.58	24.09	13.39	-42.8	-43.6	21.3	0.00e+00	0	44	0	369098752	57	3907
2026-01-23 01:34:37.61	23.91	13.79	-42.9	-43.8	21.2	0.00e+00	0	44	0	380633088	57	3966
2026-01-23 01:34:41.65	23.73	14.19	-42.7	-43.5	21.4	0.00e+00	0	44	0	394264576	57	3867
2026-01-23 01:34:45.68	23.54	14.59	-42.7	-43.5	21.4	0.00e+00	0	44	0	406847488	57	3862
2026-01-23 01:34:49.71	23.35	15.01	-42.6	-43.5	21.5	0.00e+00	0	44	0	418381824	57	3847
2026-01-23 01:34:53.74	23.15	15.43	-42.7	-43.5	21.5	0.00e+00	0	44	0	430964736	57	3855
2026-01-23 01:34:57.78	22.95	15.85	-42.9	-43.8	21.3	0.00e+00	0	43	0	444596224	57	3974
2026-01-23 01:35:01.82	22.73	16.29	-42.7	-43.6	21.4	0.00e+00	0	44	0	457179136	57	3871
2026-01-23 01:35:05.85	22.51	16.73	-42.8	-43.6	21.4	0.00e+00	0	44	0	469762048	57	3911
2026-01-23 01:35:09.88	22.29	17.18	-42.9	-43.8	21.3	0.00e+00	0	44	0	482344960	57	3975
2026-01-23 01:35:13.92	22.06	17.64	-42.9	-43.8	21.2	0.00e+00	0	44	0	494927872	57	3991
2026-01-23 01:35:17.95	21.81	18.10	-43.1	-44.0	21.1	0.00e+00	0	44	0	507510784	57	4080
2026-01-23 01:35:21.98	21.57	18.57	-43.1	-44.0	21.1	0.00e+00	0	44	0	520093696	57	4071
2026-01-23 01:35:26.02	21.31	19.06	-43.1	-44.0	21.1	0.00e+00	0	44	0	532676608	57	4094
2026-01-23 01:35:30.06	21.04	19.55	-42.8	-43.7	21.5	0.00e+00	0	44	0	545259520	57	3927
2026-01-23 01:35:34.09	20.77	20.05	-42.7	-43.6	21.6	0.00e+00	0	44	0	557842432	57	3869
2026-01-23 01:35:38.12	20.48	20.56	-42.3	-43.1	22.0	0.00e+00	0	44	0	570425344	56	3879
2026-01-23 01:35:42.16	20.19	21.08	-42.2	-43.0	22.1	0.00e+00	0	44	0	583008256	56	3829
2026-01-23 01:35:46.19	19.88	21.61	-41.8	-42.6	22.3	0.00e+00	0	44	0	595591168	55	3874
2026-01-23 01:35:50.23	19.56	22.15	-41.8	-42.6	22.3	0.00e+00	0	44	0	608174080	55	3907
2026-01-23 01:35:54.27	19.23	22.70	-41.5	-42.2	22.6	0.00e+00	0	44	0	620756992	54	3947
2026-01-23 01:35:58.30	18.89	23.26	-41.3	-42.1	22.7	0.00e+00	0	44	0	633339904	54	3884
2026-01-23 01:36:02.34	18.53	23.84	-41.5	-42.2	22.6	0.00e+00	0	43	0	645922816	54	3952
2026-01-23 01:36:06.38	18.16	24.42	-41.7	-42.4	22.4	0.00e+00	0	44	0	658505728	54	4044
2026-01-23 01:36:10.41	17.78	25.02	-41.7	-42.5	22.4	0.00e+00	0	43	0	671088640	54	4073
2026-01-23 01:36:14.45	17.38	25.63	-41.8	-42.6	22.3	0.00e+00	0	44	0	683671552	54	4129
2026-01-23 01:36:18.48	16.97	26.25	-42.2	-43.0	22.0	0.00e+00	0	44	0	696254464	54	4305
2026-01-23 01:36:22.52	16.53	26.88	-42.5	-43.3	21.7	0.00e+00	0	44	0	708837376	55	4229
2026-01-23 01:36:26.55	16.08	27.53	-43.1	-44.0	21.2	0.00e+00	0	44	0	721420288	56	4323
2026-01-23 01:36:30.59	15.61	28.19	-43.1	-43.9	21.3	0.00e+00	0	44	0	734003200	57	4042
2026-01-23 01:36:34.63	15.12	28.87	-43.1	-44.0	21.4	0.00e+00	0	44	0	746586112	57	4062
2026-01-23 01:36:38.67	14.60	29.55	-42.6	-43.4	21.9	0.00e+00	0	44	0	759169024	57	3818
2026-01-23 01:36:42.70	14.07	30.26	-42.2	-43.0	22.2	0.00e+00	0	44	0	771751936	56	3859
2026-01-23 01:36:46.74	13.50	30.98	-42.5	-43.3	21.9	0.00e+00	0	44	0	784334848	56	4001
2026-01-23 01:36:50.78	12.91	31.71	-42.7	-43.6	21.8	0.00e+00	0	44	0	796917760	56	4108
2026-01-23 01:36:54.81	12.30	32.45	-42.5	-43.3	22.0	0.00e+00	0	44	0	809500672	56	3983
2026-01-23 01:36:58.85	11.65	33.22	-43.0	-43.8	21.4	0.00e+00	0	44	0	823132160	56	4214
2026-01-23 01:37:02.88	10.97	33.99	-43.2	-44.1	21.2	0.00e+00	0	44	0	834666496	57	4133
2026-01-23 01:37:06.92	10.26	34.79	-43.9	-44.8	20.8	0.00e+00	0	44	0	847249408	58	4216
2026-01-23 01:37:10.95	9.51	35.59	-44.3	-45.3	20.4	0.00e+00	0	44	0	860880896	59	4202
2026-01-23 01:37:14.98	8.73	36.41	-44.6	-45.6	20.1	0.00e+00	0	44	0	873463808	59	4372
2026-01-23 01:37:19.01	7.90	37.25	-44.2	-45.2	20.5	0.00e+00	0	44	0	884998144	59	4147
2026-01-23 01:37:23.04	7.02	38.10	-44.6	-45.6	20.2	0.00e+00	0	44	0	897581056	59	4359
2026-01-23 01:37:27.08	6.10	38.96	-44.2	-45.1	20.4	0.00e+00	0	44	0	911212544	59	4131
2026-01-23 01:37:31.12	5.12	39.84	-43.9	-44.8	20.7	0.00e+00	0	44	0	923795456	59	4002
2026-01-23 01:37:35.15	4.09	40.73	-44.3	-45.2	20.5	0.00e+00	0	44	0	936378368	59	4192
2026-01-23 01:37:39.19	3.00	41.63	-44.1	-45.0	20.7	0.00e+00	0	44	0	948961280	59	4088
2026-01-23 01:37:43.22	1.85	42.54	-44.8	-45.8	19.7	0.00e+00	0	44	0	961544192	60	4203
2026-01-23 01:37:47.26	0.63	43.46	-45.2	-46.3	19.3	0.00e+00	0	44	0	974127104	61	4198
2026-01-23 01:37:51.29	359.34	44.39	-45.1	-46.2	19.4	0.00e+00	0	44	0	986710016	61	4184
2026-01-23 01:37:55.33	357.96	45.32	-45.1	-46.1	19.5	0.00e+00	0	44	0	999292928	61	4128
2026-01-23 01:37:59.35	356.51	46.25	-45.3	-46.5	19.1	0.00e+00	0	44	0	1011875840	61	4294
2026-01-23 01:38:03.39	354.96	47.18	-44.9	-45.9	19.6	0.00e+00	0	44	0	1024458752	61	4039
2026-01-23 01:38:07.42	353.32	48.11	-45.6	-46.8	18.9	0.00e+00	0	44	0	1037041664	61	4458
2026-01-23 01:38:11.45	351.58	49.03	-45.4	-46.5	19.2	0.00e+00	0	44	0	1049624576	62	4085
2026-01-23 01:38:15.48	349.73	49.94	-44.6	-45.6	19.8	0.00e+00	0	44	0	1062207488	61	3871
2026-01-23 01:38:19.51	347.77	50.83	-44.3	-45.2	20.6	0.00e+00	0	44	0	1074790400	59	4180
2026-01-23 01:38:23.54	345.69	51.70	-44.1	-45.0	20.8	0.00e+00	0	44	0	1087373312	59	4097
2026-01-23 01:38:27.58	343.47	52.54	-44.1	-45.1	20.5	0.00e+00	0	44	0	1099956224	59	4115
2026-01-23 01:38:31.61	341.14	53.36	-43.9	-44.8	21.0	0.00e+00	0	44	0	1112539136	59	3984
2026-01-23 01:38:35.64	338.67	54.13	-43.6	-44.4	21.2	0.00e+00	0	44	0	1125122048	59	3813
2026-01-23 01:38:39.67	336.07	54.85	-43.1	-43.9	21.8	0.00e+00	0	44	0	1137704960	58	3802
2026-01-23 01:38:43.71	333.33	55.53	-43.2	-44.1	21.3	0.00e+00	0	44	0	1150287872	57	4121
2026-01-23 01:38:47.74	330.47	56.14	-43.5	-44.4	21.4	0.00e+00	0	44	0	1162870784	57	4246
2026-01-23 01:38:51.77	327.48	56.69	-42.9	-43.7	21.8	0.00e+00	0	44	0	1175453696	57	3944
2026-01-23 01:38:55.80	324.39	57.16	-42.7	-43.6	22.0	0.00e+00	0	44	0	1188036608	57	3871
2026-01-23 01:38:59.83	321.19	57.56	-43.1	-44.0	21.7	0.00e+00	0	44	0	1200619520	57	4067
2026-01-23 01:39:03.86	317.90	57.87	-43.0	-43.8	21.8	0.00e+00	0	44	0	1213202432	57	3991
2026-01-23 01:39:07.89	314.56	58.09	-42.2	-43.0	22.6	0.00e+00	0	44	0	1225785344	56	3843
2026-01-23 01:39:11.93	311.16	58.21	-42.4	-43.2	22.4	0.00e+00	0	44	0	1238368256	56	3950
2026-01-23 01:39:15.96	307.74	58.24	-42.9	-43.7	21.9	0.00e+00	0	44	0	1250951168	56	4190
2026-01-23 01:39:19.99	304.33	58.18	-43.2	-44.1	21.7	0.00e+00	0	44	0	1263534080	57	4107
2026-01-23 01:39:24.02	300.95	58.02	-42.4	-43.2	22.5	0.00e+00	0	44	0	1276116992	56	3944
2026-01-23 01:39:28.05	297.62	57.77	-43.1	-44.0	21.7	0.00e+00	0	44	0	1288699904	56	4319
2026-01-23 01:39:32.08	294.36	57.43	-42.8	-43.6	21.9	0.00e+00	0	44	0	1301282816	57	3913
2026-01-23 01:39:36.11	291.20	57.01	-42.6	-43.4	22.4	0.00e+00	0	44	0	1313865728	56	4016
2026-01-23 01:39:40.14	288.13	56.51	-43.2	-44.1	21.6	0.00e+00	0	44	0	1326448640	57	4105
2026-01-23 01:39:44.18	285.18	55.94	-44.0	-45.0	21.0	0.00e+00	0	44	0	1339031552	58	4294
2026-01-23 01:39:48.21	282.36	55.30	-43.1	-43.9	21.9	0.00e+00	0	44	0	1351614464	58	3811
2026-01-23 01:39:52.24	279.67	54.61	-43.2	-44.0	21.7	0.00e+00	0	44	0	1364197376	57	4086
2026-01-23 01:39:56.28	277.11	53.86	-43.7	-44.6	21.1	0.00e+00	0	44	0	1376780288	58	4127
2026-01-23 01:40:00.31	274.68	53.07	-44.7	-45.7	20.4	0.00e+00	0	44	0	1389363200	59	4397
2026-01-23 01:40:04.34	272.39	52.25	-43.4	-44.2	21.6	0.00e+00	0	44	0	1401946112	58	3957
2026-01-23 01:40:08.38	270.21	51.39	-45.5	-46.6	19.2	0.00e+00	0	44	0	1414529024	61	4348
2026-01-23 01:40:12.41	268.17	50.51	-43.8	-44.7	21.2	0.00e+00	0	44	0	1427111936	58	4156
2026-01-23 01:40:16.44	266.24	49.61	-45.3	-46.4	19.3	0.00e+00	0	44	0	1439694848	61	4249
2026-01-23 01:40:20.47	264.43	48.70	-44.5	-45.4	20.2	0.00e+00	0	44	0	1452277760	61	3822
2026-01-23 01:40:24.51	262.72	47.77	-46.0	-47.2	18.4	0.00e+00	0	44	0	1464860672	62	4408
2026-01-23 01:40:28.54	261.11	46.84	-44.3	-45.3	20.3	0.00e+00	0	44	0	1477443584	60	3963
2026-01-23 01:40:32.57	259.59	45.90	-45.4	-46.5	19.1	0.00e+00	0	44	0	1490026496	61	4306
2026-01-23 01:40:36.60	258.16	44.97	-44.9	-46.0	19.3	0.00e+00	0	44	0	1502609408	61	4055
2026-01-23 01:40:40.64	256.81	44.04	-45.4	-46.5	19.2	0.00e+00	0	44	0	1515192320	61	4311
2026-01-23 01:40:44.67	255.55	43.11	-45.2	-46.2	19.4	0.00e+00	0	44	0	1527775232	62	3943
2026-01-23 01:40:48.70	254.35	42.19	-44.0	-44.9	20.7	0.00e+00	0	44	0	1540358144	59	4012
2026-01-23 01:40:52.73	253.22	41.29	-46.1	-47.4	18.2	0.00e+00	0	44	0	1552941056	62	4503
2026-01-23 01:40:56.76	252.15	40.39	-45.3	-46.3	19.3	0.00e+00	0	44	0	1566572544	62	3994
2026-01-23 01:41:00.79	251.14	39.50	-44.6	-45.5	19.9	0.00e+00	0	44	0	1578106880	61	3859
2026-01-23 01:41:04.83	250.18	38.62	-44.9	-46.0	19.6	0.00e+00	0	44	0	1590689792	60	4301
2026-01-23 01:41:08.86	249.27	37.76	-45.9	-47.1	18.3	0.00e+00	0	44	0	1604321280	63	4116
2026-01-23 01:41:12.89	248.41	36.91	-43.8	-44.7	20.9	0.00e+00	0	44	0	1616904192	59	3946
2026-01-23 01:41:16.92	247.60	36.08	-44.5	-45.5	20.2	0.00e+00	0	44	0	1628438528	59	4307
2026-01-23 01:41:20.95	246.82	35.26	-43.5	-44.4	21.2	0.00e+00	0	44	0	1642070016	58	4032
2026-01-23 01:41:24.99	246.08	34.46	-43.7	-44.7	20.9	0.00e+00	0	44	0	1654652928	58	4147
2026-01-23 01:41:29.03	245.38	33.67	-43.7	-44.7	20.9	0.00e+00	0	44	0	1667235840	58	4147
2026-01-23 01:41:33.06	244.71	32.89	-43.5	-44.4	21.1	0.00e+00	0	44	0	1679818752	58	4040
2026-01-23 01:41:37.10	244.07	32.13	-43.4	-44.3	21.2	0.00e+00	0	44	0	1692401664	58	3974
2026-01-23 01:41:41.13	243.46	31.39	-42.6	-43.4	22.0	0.00e+00	0	44	0	1704984576	57	3785
2026-01-23 01:41:45.17	242.88	30.66	-42.2	-43.0	22.4	0.00e+00	0	44	0	1717567488	56	3832
2026-01-23 01:41:49.20	242.33	29.95	-43.0	-43.9	21.5	0.00e+00	0	44	0	1730150400	56	4274
2026-01-23 01:41:53.24	241.80	29.25	-43.5	-44.4	21.1	0.00e+00	0	44	0	1742733312	57	4274
2026-01-23 01:41:57.27	241.29	28.56	-42.9	-43.8	21.6	0.00e+00	0	44	0	1755316224	57	3969
2026-01-23 01:42:01.32	240.80	27.89	-42.4	-43.2	22.1	0.00e+00	0	44	0	1767899136	56	3953
2026-01-23 01:42:05.35	240.34	27.23	-42.1	-42.9	22.3	0.00e+00	0	44	0	1780482048	56	3820
2026-01-23 01:42:09.38	239.89	26.59	-42.2	-43.0	22.3	0.00e+00	0	44	0	1793064960	56	3864
2026-01-23 01:42:13.42	239.46	25.95	-42.4	-43.2	22.1	0.00e+00	0	44	0	1805647872	56	3949
2026-01-23 01:42:17.46	239.05	25.33	-42.4	-43.2	22.1	0.00e+00	0	44	0	1818230784	56	3946
2026-01-23 01:42:21.49	238.65	24.73	-42.6	-43.4	21.8	0.00e+00	0	44	0	1830813696	56	4020
2026-01-23 01:42:25.53	238.27	24.13	-42.6	-43.5	21.7	0.00e+00	0	44	0	1843396608	56	4054
2026-01-23 01:42:29.56	237.91	23.55	-42.5	-43.3	21.8	0.00e+00	0	44	0	1855979520	56	3984
2026-01-23 01:42:33.59	237.56	22.98	-42.3	-43.1	22.0	0.00e+00	0	44	0	1868562432	56	3877
2026-01-23 01:42:37.63	237.22	22.42	-42.6	-43.4	21.7	0.00e+00	0	44	0	1881145344	56	4037
2026-01-23 01:42:41.67	236.89	21.87	-42.3	-43.1	22.1	0.00e+00	0	44	0	1893728256	56	3884
2026-01-23 01:42:45.71	236.57	21.34	-42.3	-43.1	22.1	0.00e+00	0	44	0	1906311168	56	3875
2026-01-23 01:42:49.74	236.27	20.81	-42.2	-43.0	22.2	0.00e+00	0	44	0	1918894080	56	3831
2026-01-23 01:42:53.77	235.98	20.29	-42.4	-43.2	22.0	0.00e+00	0	44	0	1931476992	56	3939
2026-01-23 01:42:57.81	235.69	19.78	-42.4	-43.2	21.9	0.00e+00	0	44	0	1944059904	56	3955
2026-01-23 01:43:01.84	235.42	19.29	-42.6	-43.4	21.6	0.00e+00	0	44	0	1956642816	56	4035
2026-01-23 01:43:05.87	235.15	18.80	-42.6	-43.4	21.5	0.00e+00	0	44	0	1969225728	56	4037
2026-01-23 01:43:09.91	234.90	18.32	-42.4	-43.3	21.6	0.00e+00	0	44	0	1981808640	56	3972
2026-01-23 01:43:13.94	234.65	17.84	-42.4	-43.2	21.7	0.00e+00	0	44	0	1994391552	56	3955
2026-01-23 01:43:17.98	234.41	17.38	-42.5	-43.3	21.7	0.00e+00	0	44	0	2006974464	56	3992
2026-01-23 01:43:22.02	234.18	16.92	-42.7	-43.5	21.5	0.00e+00	0	44	0	2019557376	56	4083
2026-01-23 01:43:26.05	233.95	16.48	-42.7	-43.6	21.5	0.00e+00	0	44	0	2032140288	56	4120
2026-01-23 01:43:30.09	233.73	16.04	-42.9	-43.8	21.3	0.00e+00	0	44	0	2044723200	56	4222
2026-01-23 01:43:34.12	233.52	15.60	-43.0	-43.9	21.2	0.00e+00	0	44	0	2057306112	56	4258
2026-01-23 01:43:38.16	233.31	15.18	-43.1	-43.9	21.1	0.00e+00	0	44	0	2070937600	56	4291
2026-01-23 01:43:42.20	233.11	14.76	-43.1	-44.0	21.1	0.00e+00	0	44	0	2082471936	57	4058
2026-01-23 01:43:46.23	232.92	14.35	-43.2	-44.1	21.1	0.00e+00	0	44	0	2095054848	57	4136
2026-01-23 01:43:50.26	232.73	13.94	-43.2	-44.0	21.1	0.00e+00	0	44	0	2108686336	57	4098
2026-01-23 01:43:54.30	232.55	13.54	-43.3	-44.2	20.8	0.00e+00	0	44	0	2121269248	57	4192
2026-01-23 01:43:58.34	232.37	13.15	-43.2	-44.0	21.0	0.00e+00	0	44	0	2132803584	57	4095
2026-01-23 01:44:02.38	232.20	12.76	-43.2	-44.1	20.9	0.00e+00	0	44	0	2146435072	57	4109
2026-01-23 01:44:06.41	232.03	12.38	-43.1	-44.0	21.0	0.00e+00	0	44	0	2159017984	57	4054
2026-01-23 01:44:10.44	231.87	12.00	-43.1	-44.0	20.9	0.00e+00	0	44	0	2171600896	57	4092
2026-01-23 01:44:14.47	231.71	11.63	-43.3	-44.2	20.8	0.00e+00	0	44	0	2184183808	57	4166
2026-01-23 01:44:18.51	231.56	11.27	-43.4	-44.3	20.7	0.00e+00	0	44	0	2196766720	57	4213
2026-01-23 01:44:22.54	231.41	10.91	-43.4	-44.4	20.6	0.00e+00	0	44	0	2209349632	57	4252
2026-01-23 01:44:26.58	231.26	10.55	-43.5	-44.4	20.5	0.00e+00	0	44	0	2221932544	57	4286
2026-01-23 01:44:30.61	231.12	10.20	-43.7	-44.7	20.3	0.00e+00	0	44	0	2234515456	57	4413
2026-01-23 01:44:34.65	230.98	9.86	-43.8	-44.8	20.2	0.00e+00	0	44	0	2247098368	58	4194
2026-01-23 01:44:38.68	230.84	9.52	-43.8	-44.7	20.2	0.00e+00	0	44	0	2259681280	58	4188
2026-01-23 01:44:42.71	230.71	9.18	-44.1	-45.1	19.9	0.00e+00	0	44	0	2272264192	58	4350
2026-01-23 01:44:46.75	230.58	8.85	-44.3	-45.3	19.7	0.00e+00	0	44	0	2284847104	59	4217
2026-01-23 01:44:50.78	230.46	8.52	-44.3	-45.4	19.6	0.00e+00	0	44	0	2297430016	59	4265
2026-01-23 01:44:54.82	230.33	8.20	-44.3	-45.4	19.5	0.00e+00	0	44	0	2310012928	59	4272
2026-01-23 01:44:58.85	230.21	7.88	-44.5	-45.5	19.4	0.00e+00	0	44	0	2322595840	59	4336
2026-01-23 01:45:02.88	230.10	7.56	-44.3	-45.4	19.2	0.00e+00	0	44	0	2335178752	60	4024
2026-01-23 01:45:06.92	229.98	7.25	-44.5	-45.6	18.9	0.00e+00	0	44	0	2347761664	60	4116
2026-01-23 01:45:10.95	229.87	6.94	-44.6	-45.7	18.8	0.00e+00	0	44	0	2360344576	60	4174
2026-01-23 01:45:14.99	229.76	6.64	-44.9	-46.1	18.4	0.00e+00	0	44	0	2372927488	60	4362
2026-01-23 01:45:19.03	229.66	6.34	-45.1	-46.3	18.1	0.00e+00	0	44	0	2385510400	60	4476
2026-01-23 01:45:23.07	229.55	6.04	-45.2	-46.5	17.9	0.00e+00	0	44	0	2398093312	61	4330
2026-01-23 01:45:27.10	229.45	5.74	-45.2	-46.5	17.9	0.00e+00	0	44	0	2410676224	61	4322
2026-01-23 01:45:31.13	229.35	5.45	-45.4	-46.8	17.6	0.00e+00	0	44	0	2423259136	61	4455
2026-01-23 01:45:35.17	229.26	5.16	-45.6	-47.0	17.3	0.00e+00	0	44	0	2435842048	62	4310
2026-01-23 01:45:39.20	229.16	4.88	-53.3	-66.1	3.8	1.49e+00	0	44	104	2444230656	77	16416
2026-01-23 01:45:43.24	229.07	4.59	-53.8	-66.6	3.8	1.49e+00	0	44	104	2444230656	78	16392
2026-01-23 01:45:47.27	228.98	4.31	-53.9	-66.6	3.8	1.49e+00	0	44	104	2444230656	78	16499
2026-01-23 01:45:51.31	228.89	4.04	-53.9	-66.7	3.8	1.49e+00	0	44	104	2444230656	78	16521
2026-01-23 01:45:55.34	228.80	3.76	-53.7	-66.4	3.8	1.49e+00	0	44	104	2444230656	78	16096
2026-01-23 01:45:59.37	228.72	3.49	-53.8	-66.5	3.8	1.49e+00	0	45	104	2444230656	78	16291
2026-01-23 01:46:03.41	228.63	3.22	-53.7	-66.5	3.8	1.49e+00	0	44	104	2444230656	78	16234
2026-01-23 01:46:07.44	228.55	2.96	-53.7	-66.5	3.8	1.49e+00	0	44	104	2444230656	78	16184
2026-01-23 01:46:11.47	228.47	2.69	-53.7	-66.5	3.8	1.49e+00	0	44	104	2444230656	78	16143
2026-01-23 01:46:15.50	228.39	2.43	-53.7	-66.5	3.8	1.49e+00	0	45	104	2444230656	78	16133
2026-01-23 01:46:19.53	228.32	2.17	-53.7	-66.4	3.8	1.49e+00	0	44	104	2444230656	78	16070

#Closed at: 2026-01-23 01:46:23
#Recorded file [2444 MB]: D:/lorett/data/31041_260123_043208.dat