passes_logs/2026/01/23/R3.2S_Murmansk/R3.2S_Murmansk__20260123_101858_SUOMI_NPP_rec.log

#Pass ID: 20260123_101858_SUOMI NPP
#Satellite: SUOMI NPP
#Configuration: NPP
#almurnet v.1.7.20251203
#Start time: 2026-01-23 10:18:58

#Version: 2.2.20231116
#Station: R3.2S_Murmansk
#Location: 33.079688 lon 68.888172 lat
#TLE: 1 37849U 11061A   26022.50498765  .00000208  00000+0  11976-3 0  9992
#TLE: 2 37849  98.7820 324.4892 0002275  50.8149 309.3229 14.19528284737775

#Time	Az	El	Level	Level2	SNR	BER	BlckErr	Temp	State	Recorded	gain1	gain2
2026-01-23 10:18:58.76	169.09	1.99	-54.3	-69.3	3.8	1.49e+00	0	40	0	0	79	21097
2026-01-23 10:19:02.80	169.18	2.25	-54.5	-69.5	3.8	1.49e+00	0	40	104	0	79	21722
2026-01-23 10:19:06.83	169.27	2.51	-54.4	-69.4	3.8	1.49e+00	0	41	104	0	79	21423
2026-01-23 10:19:10.86	169.37	2.77	-54.2	-69.2	3.8	1.49e+00	0	41	104	0	79	20967
2026-01-23 10:19:14.89	169.46	3.03	-54.0	-69.0	3.8	1.49e+00	0	41	104	0	79	20481
2026-01-23 10:19:18.92	169.56	3.30	-53.7	-68.7	3.8	1.49e+00	0	41	104	0	79	19639
2026-01-23 10:19:22.96	169.66	3.57	-52.7	-67.4	3.8	1.49e+00	0	41	104	0	77	19093
2026-01-23 10:19:26.99	169.76	3.84	-52.6	-67.0	3.8	1.49e+00	0	41	104	0	77	18114
2026-01-23 10:19:31.03	169.87	4.11	-52.6	-66.3	3.8	1.49e+00	0	41	104	0	77	16805
2026-01-23 10:19:35.06	169.97	4.39	-51.4	-57.6	8.6	1.03e-01	0	41	0	4194304	74	7328
2026-01-23 10:19:39.10	170.08	4.67	-49.3	-52.4	14.1	1.14e-05	0	41	0	11534336	70	5066
2026-01-23 10:19:43.13	170.19	4.95	-48.0	-50.3	16.1	0.00e+00	0	41	0	19922944	67	4731
2026-01-23 10:19:47.16	170.30	5.24	-50.1	-53.8	12.8	5.30e-06	0	42	0	27262976	70	5939
2026-01-23 10:19:51.20	170.41	5.53	-47.7	-49.8	16.6	0.00e+00	0	42	0	34603008	67	4480
2026-01-23 10:19:55.23	170.52	5.82	-47.5	-49.5	17.0	0.00e+00	0	42	0	41943040	66	4582
2026-01-23 10:19:59.26	170.64	6.11	-47.1	-49.0	17.5	0.00e+00	0	42	0	50331648	66	4304
2026-01-23 10:20:03.29	170.75	6.41	-47.0	-48.9	17.7	0.00e+00	0	42	0	57671680	65	4517
2026-01-23 10:20:07.33	170.88	6.72	-47.1	-49.0	17.6	0.00e+00	0	42	0	65011712	65	4571
2026-01-23 10:20:11.36	171.00	7.02	-46.8	-48.6	18.1	0.00e+00	0	42	0	72351744	65	4343
2026-01-23 10:20:15.40	171.12	7.33	-46.9	-48.7	18.0	0.00e+00	0	42	0	79691776	65	4398
2026-01-23 10:20:19.43	171.25	7.64	-46.7	-48.4	18.3	0.00e+00	0	42	0	88080384	65	4252
2026-01-23 10:20:23.47	171.38	7.96	-46.7	-48.4	18.3	0.00e+00	0	42	0	95420416	65	4283
2026-01-23 10:20:27.50	171.51	8.28	-46.8	-48.5	18.2	0.00e+00	0	42	0	102760448	65	4309
2026-01-23 10:20:31.53	171.65	8.60	-46.7	-48.4	18.3	0.00e+00	0	42	0	110100480	64	4534
2026-01-23 10:20:35.57	171.78	8.93	-46.5	-48.1	18.7	0.00e+00	0	42	0	118489088	64	4358
2026-01-23 10:20:39.60	171.92	9.26	-46.2	-47.7	19.1	0.00e+00	0	42	0	125829120	64	4180
2026-01-23 10:20:43.63	172.07	9.60	-46.0	-47.4	19.3	0.00e+00	0	42	0	133169152	64	4047
2026-01-23 10:20:47.67	172.21	9.94	-45.9	-47.4	19.5	0.00e+00	0	42	0	140509184	63	4245
2026-01-23 10:20:51.70	172.36	10.29	-45.9	-47.3	19.6	0.00e+00	0	42	0	147849216	63	4216
2026-01-23 10:20:55.73	172.51	10.64	-46.0	-47.5	19.5	0.00e+00	0	42	0	155189248	63	4308
2026-01-23 10:20:59.76	172.67	10.99	-45.8	-47.1	19.8	0.00e+00	0	42	0	163577856	63	4140
2026-01-23 10:21:03.80	172.83	11.36	-45.7	-47.0	19.9	0.00e+00	0	42	0	170917888	63	4096
2026-01-23 10:21:07.83	172.99	11.72	-45.7	-47.1	19.9	0.00e+00	0	42	0	178257920	63	4126
2026-01-23 10:21:11.86	173.16	12.09	-45.7	-47.0	19.9	0.00e+00	0	42	0	185597952	63	4083
2026-01-23 10:21:15.89	173.33	12.47	-45.8	-47.2	19.8	0.00e+00	0	42	0	193986560	63	4175
2026-01-23 10:21:19.92	173.50	12.85	-45.3	-46.6	20.3	0.00e+00	0	42	0	201326592	62	4122
2026-01-23 10:21:23.96	173.68	13.24	-45.4	-46.6	20.4	0.00e+00	0	42	0	208666624	62	4138
2026-01-23 10:21:27.99	173.87	13.64	-45.2	-46.4	20.6	0.00e+00	0	42	0	216006656	62	4027
2026-01-23 10:21:32.02	174.05	14.04	-45.3	-46.5	20.5	0.00e+00	0	42	0	223346688	62	4093
2026-01-23 10:21:36.06	174.25	14.44	-45.3	-46.5	20.5	0.00e+00	0	42	0	231735296	62	4088
2026-01-23 10:21:40.09	174.45	14.86	-45.4	-46.7	20.3	0.00e+00	0	42	0	239075328	62	4178
2026-01-23 10:21:44.12	174.65	15.28	-45.6	-46.9	20.2	0.00e+00	0	42	0	246415360	62	4253
2026-01-23 10:21:48.15	174.86	15.71	-45.5	-46.8	20.3	0.00e+00	0	42	0	253755392	62	4202
2026-01-23 10:21:52.18	175.07	16.14	-45.6	-47.0	20.2	0.00e+00	0	42	0	262144000	62	4298
2026-01-23 10:21:56.21	175.29	16.58	-45.8	-47.1	20.0	0.00e+00	0	42	0	269484032	62	4368
2026-01-23 10:22:00.24	175.52	17.03	-46.1	-47.5	19.7	0.00e+00	0	42	0	276824064	62	4560
2026-01-23 10:22:04.27	175.75	17.49	-46.2	-47.6	19.6	0.00e+00	0	42	0	284164096	63	4372
2026-01-23 10:22:08.30	175.99	17.96	-46.2	-47.7	19.6	0.00e+00	0	42	0	291504128	63	4394
2026-01-23 10:22:12.33	176.23	18.44	-45.9	-47.3	20.0	0.00e+00	0	42	0	298844160	63	4200
2026-01-23 10:22:16.36	176.49	18.92	-46.1	-47.5	19.7	0.00e+00	0	42	0	307232768	63	4314
2026-01-23 10:22:20.40	176.75	19.41	-46.4	-47.8	19.5	0.00e+00	0	42	0	314572800	63	4489
2026-01-23 10:22:24.43	177.02	19.92	-46.1	-47.4	19.8	0.00e+00	0	42	0	321912832	63	4274
2026-01-23 10:22:28.46	177.29	20.43	-45.9	-47.2	20.0	0.00e+00	0	42	0	329252864	63	4174
2026-01-23 10:22:32.49	177.58	20.95	-46.2	-47.6	19.6	0.00e+00	0	42	0	337641472	63	4377
2026-01-23 10:22:36.52	177.88	21.49	-46.3	-47.7	19.6	0.00e+00	0	43	0	344981504	63	4430
2026-01-23 10:22:40.56	178.18	22.03	-46.2	-47.7	19.7	0.00e+00	0	43	0	352321536	63	4399
2026-01-23 10:22:44.59	178.50	22.59	-45.8	-47.2	20.1	0.00e+00	0	42	0	359661568	63	4146
2026-01-23 10:22:48.63	178.83	23.15	-45.0	-46.2	20.9	0.00e+00	0	42	0	367001600	62	3958
2026-01-23 10:22:52.66	179.17	23.73	-44.5	-45.6	21.5	0.00e+00	0	42	0	375390208	60	4113
2026-01-23 10:22:56.69	179.52	24.32	-44.2	-45.2	22.2	0.00e+00	0	42	0	382730240	59	4166
2026-01-23 10:23:00.72	179.88	24.92	-44.1	-45.1	22.2	0.00e+00	0	42	0	390070272	59	4134
2026-01-23 10:23:04.75	180.26	25.54	-44.3	-45.4	22.0	0.00e+00	0	42	0	397410304	59	4255
2026-01-23 10:23:08.78	180.65	26.17	-44.3	-45.4	21.9	0.00e+00	0	42	0	404750336	59	4284
2026-01-23 10:23:12.82	181.06	26.81	-44.3	-45.4	21.7	0.00e+00	0	42	0	413138944	60	4047
2026-01-23 10:23:16.85	181.48	27.47	-44.6	-45.8	21.4	0.00e+00	0	42	0	420478976	60	4210
2026-01-23 10:23:20.88	181.92	28.14	-44.5	-45.6	21.6	0.00e+00	0	42	0	427819008	60	4103
2026-01-23 10:23:24.92	182.39	28.83	-44.6	-45.7	21.6	0.00e+00	0	42	0	435159040	60	4174
2026-01-23 10:23:28.95	182.86	29.53	-44.9	-46.0	21.2	0.00e+00	0	42	0	442499072	60	4338
2026-01-23 10:23:32.98	183.36	30.25	-45.7	-46.9	20.5	0.00e+00	0	42	0	450887680	62	4286
2026-01-23 10:23:37.01	183.89	30.98	-46.5	-47.9	19.6	0.00e+00	0	42	0	458227712	63	4523
2026-01-23 10:23:41.04	184.43	31.73	-47.0	-48.5	18.9	0.00e+00	0	42	0	465567744	64	4591
2026-01-23 10:23:45.08	185.00	32.50	-48.1	-50.0	17.7	0.00e+00	0	42	0	472907776	67	4560
2026-01-23 10:23:49.10	185.60	33.28	-47.8	-49.6	18.0	0.00e+00	0	42	0	481296384	67	4360
2026-01-23 10:23:53.14	186.23	34.08	-46.9	-48.4	19.1	0.00e+00	0	42	0	488636416	65	4260
2026-01-23 10:23:57.17	186.88	34.89	-46.4	-47.8	19.7	0.00e+00	0	42	0	495976448	64	4203
2026-01-23 10:24:01.20	187.57	35.73	-46.6	-48.1	19.4	0.00e+00	0	42	0	503316480	64	4352
2026-01-23 10:24:05.23	188.30	36.58	-48.0	-49.8	17.8	0.00e+00	0	42	0	510656512	66	4749
2026-01-23 10:24:09.26	189.07	37.45	-47.2	-48.8	18.8	0.00e+00	0	42	0	519045120	65	4445
2026-01-23 10:24:13.29	189.87	38.34	-48.0	-49.9	17.8	0.00e+00	0	43	0	526385152	66	4784
2026-01-23 10:24:17.32	190.72	39.24	-47.6	-49.4	18.2	0.00e+00	0	42	0	533725184	67	4253
2026-01-23 10:24:21.35	191.62	40.16	-47.5	-49.2	18.4	0.00e+00	0	43	0	541065216	66	4428
2026-01-23 10:24:25.39	192.57	41.10	-47.2	-48.8	18.8	0.00e+00	0	43	0	548405248	66	4216
2026-01-23 10:24:29.42	193.58	42.05	-46.3	-47.7	19.9	0.00e+00	0	42	0	556793856	64	4149
2026-01-23 10:24:33.45	194.64	43.02	-47.6	-49.3	18.3	0.00e+00	0	43	0	564133888	65	4742
2026-01-23 10:24:37.48	195.78	44.00	-47.3	-48.9	18.8	0.00e+00	0	42	0	571473920	66	4278
2026-01-23 10:24:41.52	196.98	45.00	-47.3	-49.0	18.7	0.00e+00	0	43	0	578813952	65	4548
2026-01-23 10:24:45.55	198.26	46.00	-46.6	-48.1	19.4	0.00e+00	0	43	0	586153984	65	4114
2026-01-23 10:24:49.58	199.63	47.01	-46.3	-47.7	19.9	0.00e+00	0	43	0	594542592	64	4153
2026-01-23 10:24:53.62	201.08	48.03	-47.0	-48.5	19.0	0.00e+00	0	43	0	601882624	65	4336
2026-01-23 10:24:57.65	202.64	49.05	-46.2	-47.5	20.0	0.00e+00	0	43	0	609222656	64	4091
2026-01-23 10:25:01.68	204.29	50.08	-46.3	-47.6	20.0	0.00e+00	0	43	0	616562688	63	4369
2026-01-23 10:25:05.71	206.06	51.09	-46.1	-47.4	20.1	0.00e+00	0	43	0	624951296	64	4035
2026-01-23 10:25:09.74	207.96	52.11	-46.6	-48.1	19.7	0.00e+00	0	43	0	632291328	63	4605
2026-01-23 10:25:13.77	209.98	53.10	-45.7	-46.9	20.7	0.00e+00	0	43	0	639631360	62	4267
2026-01-23 10:25:17.80	212.15	54.08	-45.5	-46.7	20.9	0.00e+00	0	42	0	646971392	63	3931
2026-01-23 10:25:21.84	214.46	55.04	-45.7	-46.9	20.7	0.00e+00	0	43	0	654311424	62	4267
2026-01-23 10:25:25.87	216.94	55.96	-45.6	-46.9	20.8	0.00e+00	0	42	0	662700032	62	4261
2026-01-23 10:25:29.90	219.57	56.84	-46.1	-47.5	20.4	0.00e+00	0	42	0	670040064	63	4299
2026-01-23 10:25:33.94	222.38	57.67	-45.9	-47.2	20.5	0.00e+00	0	42	0	677380096	62	4401
2026-01-23 10:25:37.97	225.35	58.45	-45.7	-47.0	20.8	0.00e+00	0	43	0	684720128	63	4052
2026-01-23 10:25:42.00	228.49	59.16	-44.3	-45.4	22.1	0.00e+00	0	42	0	692060160	60	4018
2026-01-23 10:25:46.03	231.80	59.80	-45.9	-47.1	20.5	0.00e+00	0	42	0	700448768	62	4387
2026-01-23 10:25:50.07	235.27	60.35	-44.3	-45.3	22.2	0.00e+00	0	43	0	707788800	59	4213
2026-01-23 10:25:54.10	238.87	60.82	-45.9	-47.1	20.6	0.00e+00	0	42	0	715128832	62	4380
2026-01-23 10:25:58.14	242.60	61.18	-46.0	-47.3	20.6	0.00e+00	0	43	0	722468864	63	4195
2026-01-23 10:26:02.17	246.42	61.43	-46.0	-47.3	20.5	0.00e+00	0	43	0	730857472	63	4196
2026-01-23 10:26:06.20	250.29	61.58	-45.4	-46.6	21.1	0.00e+00	0	43	0	738197504	61	4387
2026-01-23 10:26:10.23	254.19	61.61	-44.4	-45.5	22.0	0.00e+00	0	42	0	745537536	61	3826
2026-01-23 10:26:14.27	258.10	61.53	-45.3	-46.5	21.2	0.00e+00	0	42	0	752877568	61	4309
2026-01-23 10:26:18.30	261.95	61.34	-45.0	-46.2	21.4	0.00e+00	0	43	0	760217600	61	4156
2026-01-23 10:26:22.33	265.72	61.04	-45.4	-46.6	21.1	0.00e+00	0	43	0	767557632	62	4103
2026-01-23 10:26:26.36	269.39	60.63	-47.4	-49.0	18.8	0.00e+00	0	42	0	775946240	65	4592
2026-01-23 10:26:30.39	272.94	60.13	-47.8	-49.5	18.4	0.00e+00	0	42	0	783286272	67	4298
2026-01-23 10:26:34.43	276.34	59.54	-48.4	-50.3	17.7	0.00e+00	0	42	0	790626304	67	4712
2026-01-23 10:26:38.46	279.58	58.88	-46.6	-48.0	20.0	0.00e+00	0	43	0	797966336	63	4561
2026-01-23 10:26:42.50	282.65	58.14	-46.7	-48.1	19.7	0.00e+00	0	43	0	806354944	65	4121
2026-01-23 10:26:46.53	285.55	57.34	-44.9	-46.1	21.6	0.00e+00	0	43	0	813694976	61	4102
2026-01-23 10:26:50.56	288.28	56.48	-44.3	-45.3	22.2	0.00e+00	0	43	0	821035008	60	3996
2026-01-23 10:26:54.60	290.85	55.58	-45.0	-46.1	21.4	0.00e+00	0	43	0	828375040	62	3905
2026-01-23 10:26:58.63	293.25	54.65	-43.1	-44.0	23.5	0.00e+00	0	43	0	835715072	58	3855
2026-01-23 10:27:02.66	295.49	53.69	-44.3	-45.3	22.5	0.00e+00	0	43	0	844103680	59	4232
2026-01-23 10:27:06.69	297.60	52.71	-43.6	-44.6	23.0	0.00e+00	0	43	0	851443712	58	4119
2026-01-23 10:27:10.72	299.56	51.71	-44.1	-45.1	22.7	0.00e+00	0	43	0	858783744	59	4110
2026-01-23 10:27:14.75	301.40	50.70	-45.1	-46.2	21.5	0.00e+00	0	43	0	866123776	60	4414
2026-01-23 10:27:18.79	303.12	49.68	-47.9	-49.7	18.3	0.00e+00	0	43	0	874512384	66	4686
2026-01-23 10:27:22.82	304.73	48.66	-50.3	-53.0	15.1	0.00e+00	0	43	0	881852416	71	5120
2026-01-23 10:27:26.86	306.24	47.64	-49.2	-51.3	16.8	0.00e+00	0	43	0	889192448	70	4459
2026-01-23 10:27:30.89	307.66	46.62	-47.1	-48.5	19.3	0.00e+00	0	43	0	896532480	65	4334
2026-01-23 10:27:34.93	308.99	45.62	-45.2	-46.4	21.4	0.00e+00	0	43	0	903872512	62	4012
2026-01-23 10:27:38.96	310.23	44.62	-48.2	-50.1	17.8	0.00e+00	0	43	0	912261120	67	4615
2026-01-23 10:27:43.00	311.41	43.63	-45.4	-46.5	21.2	0.00e+00	0	43	0	919601152	62	4078
2026-01-23 10:27:47.03	312.51	42.66	-46.8	-48.3	19.5	0.00e+00	0	43	0	926941184	64	4445
2026-01-23 10:27:51.07	313.55	41.70	-45.7	-46.9	20.8	0.00e+00	0	43	0	934281216	61	4496
2026-01-23 10:27:55.11	314.54	40.76	-46.2	-47.6	20.1	0.00e+00	0	42	0	941621248	64	4100
2026-01-23 10:27:59.14	315.46	39.83	-45.9	-47.2	20.5	0.00e+00	0	43	0	950009856	62	4405
2026-01-23 10:28:03.17	316.34	38.92	-45.1	-46.2	21.3	0.00e+00	0	43	0	957349888	62	3951
2026-01-23 10:28:07.21	317.17	38.03	-45.1	-46.2	21.4	0.00e+00	0	43	0	964689920	60	4413
2026-01-23 10:28:11.24	317.96	37.15	-48.6	-50.6	17.4	0.00e+00	0	42	0	972029952	68	4618
2026-01-23 10:28:15.28	318.71	36.29	-45.9	-47.1	20.6	0.00e+00	0	42	0	980418560	63	4124
2026-01-23 10:28:19.31	319.42	35.45	-47.7	-49.4	18.4	0.00e+00	0	43	0	987758592	65	4808
2026-01-23 10:28:23.35	320.10	34.62	-48.5	-50.4	17.4	0.00e+00	0	42	0	995098624	69	4276
2026-01-23 10:28:27.38	320.74	33.82	-46.1	-47.4	20.1	0.00e+00	0	42	0	1002438656	64	4032
2026-01-23 10:28:31.41	321.36	33.03	-47.0	-48.5	19.2	0.00e+00	0	43	0	1009778688	64	4593
2026-01-23 10:28:35.44	321.94	32.26	-47.9	-49.7	18.1	0.00e+00	0	43	0	1017118720	66	4678
2026-01-23 10:28:39.47	322.50	31.50	-47.1	-48.7	18.9	0.00e+00	0	43	0	1025507328	65	4394
2026-01-23 10:28:43.50	323.04	30.76	-46.9	-48.4	19.2	0.00e+00	0	43	0	1032847360	65	4260
2026-01-23 10:28:47.54	323.55	30.04	-46.0	-47.3	20.2	0.00e+00	0	43	0	1040187392	63	4220
2026-01-23 10:28:51.57	324.05	29.33	-45.1	-46.3	21.2	0.00e+00	0	43	0	1047527424	62	3969
2026-01-23 10:28:55.60	324.52	28.64	-45.6	-46.9	20.5	0.00e+00	0	43	0	1055916032	62	4274
2026-01-23 10:28:59.64	324.97	27.96	-46.9	-48.4	19.2	0.00e+00	0	43	0	1063256064	64	4513
2026-01-23 10:29:03.67	325.40	27.30	-46.7	-48.1	19.3	0.00e+00	0	43	0	1070596096	64	4377
2026-01-23 10:29:07.70	325.82	26.65	-46.1	-47.4	20.1	0.00e+00	0	42	0	1077936128	63	4270
2026-01-23 10:29:11.73	326.22	26.01	-46.4	-47.8	19.8	0.00e+00	0	43	0	1085276160	63	4450
2026-01-23 10:29:15.76	326.61	25.39	-45.6	-46.9	20.6	0.00e+00	0	43	0	1093664768	63	4006
2026-01-23 10:29:19.79	326.98	24.79	-44.9	-46.1	21.1	0.00e+00	0	43	0	1101004800	61	4112
2026-01-23 10:29:23.83	327.34	24.19	-44.8	-45.9	21.4	0.00e+00	0	43	0	1108344832	61	4020
2026-01-23 10:29:27.86	327.69	23.61	-45.3	-46.4	20.8	0.00e+00	0	43	0	1115684864	61	4288
2026-01-23 10:29:31.89	328.03	23.03	-45.7	-47.0	20.4	0.00e+00	0	43	0	1124073472	61	4549
2026-01-23 10:29:35.93	328.35	22.47	-46.0	-47.3	20.0	0.00e+00	0	43	0	1131413504	62	4479
2026-01-23 10:29:39.96	328.66	21.92	-45.7	-47.1	20.2	0.00e+00	0	43	0	1138753536	63	4108
2026-01-23 10:29:43.99	328.97	21.39	-45.2	-46.5	20.8	0.00e+00	0	43	0	1146093568	62	4054
2026-01-23 10:29:48.03	329.26	20.86	-44.7	-45.9	21.3	0.00e+00	0	43	0	1153433600	61	4009
2026-01-23 10:29:52.06	329.55	20.34	-44.1	-45.1	22.2	0.00e+00	0	43	0	1161822208	59	4139
2026-01-23 10:29:56.09	329.82	19.84	-43.3	-44.3	22.8	0.00e+00	0	43	0	1169162240	58	3976
2026-01-23 10:30:00.12	330.09	19.34	-43.9	-44.9	22.3	0.00e+00	0	42	0	1176502272	58	4278
2026-01-23 10:30:04.16	330.35	18.85	-44.6	-45.7	21.3	0.00e+00	0	43	0	1183842304	60	4182
2026-01-23 10:30:08.18	330.60	18.37	-45.7	-47.1	20.1	0.00e+00	0	42	0	1191182336	62	4351
2026-01-23 10:30:12.22	330.84	17.90	-46.2	-47.6	19.7	0.00e+00	0	42	0	1199570944	63	4376
2026-01-23 10:30:16.25	331.08	17.44	-46.0	-47.4	19.8	0.00e+00	0	43	0	1206910976	63	4269
2026-01-23 10:30:20.28	331.31	16.98	-45.9	-47.2	20.0	0.00e+00	0	43	0	1214251008	63	4171
2026-01-23 10:30:24.32	331.54	16.54	-45.8	-47.1	20.0	0.00e+00	0	43	0	1221591040	63	4135
2026-01-23 10:30:28.35	331.76	16.10	-45.6	-46.9	20.2	0.00e+00	0	43	0	1228931072	63	4031
2026-01-23 10:30:32.38	331.97	15.67	-45.6	-46.9	20.2	0.00e+00	0	42	0	1237319680	62	4260
2026-01-23 10:30:36.41	332.18	15.25	-45.2	-46.4	20.6	0.00e+00	0	43	0	1244659712	62	4046
2026-01-23 10:30:40.45	332.38	14.83	-45.0	-46.2	20.8	0.00e+00	0	43	0	1251999744	61	4176
2026-01-23 10:30:44.48	332.58	14.42	-44.8	-46.0	20.9	0.00e+00	0	43	0	1259339776	61	4093
2026-01-23 10:30:48.51	332.77	14.02	-44.9	-46.1	20.8	0.00e+00	0	43	0	1266679808	61	4136
2026-01-23 10:30:52.55	332.96	13.62	-44.9	-46.1	20.7	0.00e+00	0	42	0	1275068416	61	4141
2026-01-23 10:30:56.59	333.14	13.23	-45.0	-46.2	20.6	0.00e+00	0	43	0	1282408448	61	4182
2026-01-23 10:31:00.62	333.32	12.84	-45.2	-46.5	20.3	0.00e+00	0	43	0	1289748480	61	4322
2026-01-23 10:31:04.66	333.50	12.46	-45.3	-46.6	20.2	0.00e+00	0	42	0	1297088512	61	4391
2026-01-23 10:31:08.69	333.67	12.09	-45.7	-47.1	19.8	0.00e+00	0	43	0	1305477120	62	4370
2026-01-23 10:31:12.72	333.84	11.72	-46.2	-47.7	19.1	0.00e+00	0	43	0	1312817152	62	4701
2026-01-23 10:31:16.75	334.00	11.36	-46.6	-48.3	18.5	0.00e+00	0	43	0	1320157184	64	4458
2026-01-23 10:31:20.78	334.16	11.00	-47.0	-48.7	18.1	0.00e+00	0	43	0	1327497216	64	4698
2026-01-23 10:31:24.81	334.32	10.65	-47.1	-49.0	17.8	0.00e+00	0	43	0	1334837248	65	4559
2026-01-23 10:31:28.84	334.47	10.30	-47.5	-49.4	17.4	0.00e+00	0	42	0	1343225856	65	4814
2026-01-23 10:31:32.87	334.62	9.96	-47.5	-49.5	17.2	0.00e+00	0	43	0	1350565888	65	4818
2026-01-23 10:31:36.91	334.77	9.62	-47.2	-49.1	17.6	0.00e+00	0	43	0	1357905920	65	4610
2026-01-23 10:31:40.94	334.91	9.28	-47.4	-49.4	17.2	0.00e+00	0	43	0	1365245952	65	4797
2026-01-23 10:31:44.97	335.05	8.96	-47.0	-48.8	17.9	0.00e+00	0	43	0	1373634560	65	4489
2026-01-23 10:31:49.00	335.19	8.63	-47.0	-48.8	17.9	0.00e+00	0	43	0	1380974592	65	4473
2026-01-23 10:31:53.03	335.33	8.31	-46.8	-48.6	18.0	0.00e+00	0	42	0	1388314624	65	4361
2026-01-23 10:31:57.06	335.46	7.99	-47.0	-48.8	17.8	0.00e+00	0	42	0	1395654656	65	4478
2026-01-23 10:32:01.09	335.59	7.68	-46.7	-48.5	18.1	0.00e+00	0	42	0	1402994688	65	4320
2026-01-23 10:32:05.13	335.72	7.37	-46.9	-48.8	17.8	0.00e+00	0	43	0	1410334720	65	4445
2026-01-23 10:32:09.16	335.85	7.06	-47.0	-48.8	17.7	0.00e+00	0	43	0	1418723328	65	4477
2026-01-23 10:32:13.19	335.97	6.76	-46.8	-48.6	17.9	0.00e+00	0	43	0	1426063360	65	4342
2026-01-23 10:32:17.22	336.10	6.46	-47.0	-48.9	17.6	0.00e+00	0	43	0	1433403392	65	4513
2026-01-23 10:32:21.26	336.22	6.16	-47.0	-48.8	17.6	0.00e+00	0	43	0	1440743424	65	4488
2026-01-23 10:32:25.29	336.33	5.87	-47.0	-48.9	17.4	0.00e+00	0	42	0	1449132032	65	4537
2026-01-23 10:32:29.32	336.45	5.58	-46.7	-48.4	17.9	0.00e+00	0	42	0	1456472064	65	4290
2026-01-23 10:32:33.35	336.56	5.29	-46.9	-48.8	17.5	0.00e+00	0	43	0	1463812096	65	4475
2026-01-23 10:32:37.38	336.68	5.01	-47.9	-50.2	16.3	0.00e+00	0	43	0	1471152128	66	4952
2026-01-23 10:32:41.41	336.79	4.73	-53.4	-68.4	3.8	1.49e+00	0	43	104	1472200704	77	21432
2026-01-23 10:32:45.44	336.90	4.45	-53.7	-68.7	3.8	1.49e+00	0	43	104	1472200704	78	21010
2026-01-23 10:32:49.48	337.00	4.18	-53.6	-68.6	3.8	1.49e+00	0	43	104	1472200704	78	20582
2026-01-23 10:32:53.51	337.11	3.91	-53.5	-68.5	3.8	1.49e+00	0	43	104	1472200704	78	20400
2026-01-23 10:32:57.54	337.21	3.64	-53.6	-68.6	3.8	1.49e+00	0	43	104	1472200704	78	20647
2026-01-23 10:33:01.58	337.32	3.37	-53.6	-68.6	3.8	1.49e+00	0	43	104	1472200704	78	20603
2026-01-23 10:33:05.61	337.42	3.10	-53.6	-68.5	3.8	1.49e+00	0	43	104	1472200704	78	20519
2026-01-23 10:33:09.64	337.52	2.84	-53.5	-68.5	3.8	1.49e+00	0	43	104	1472200704	78	20526
2026-01-23 10:33:13.68	337.61	2.58	-53.5	-68.5	3.8	1.49e+00	0	43	104	1472200704	78	20474
2026-01-23 10:33:17.71	337.71	2.32	-53.5	-68.5	3.8	1.49e+00	0	43	104	1472200704	78	20421
2026-01-23 10:33:21.74	337.81	2.07	-53.5	-68.5	3.8	1.49e+00	0	43	104	1472200704	78	20374

#Closed at: 2026-01-23 10:33:25
#Recorded file [1472 MB]: D:/lorett/data/31041_260123_131858.dat