passes_logs/2026/01/23/R3.2S_Murmansk/R3.2S_Murmansk__20260123_004204_NOAA_20_JPSS-1_rec.log

#Pass ID: 20260123_004204_NOAA 20 (JPSS-1)
#Satellite: NOAA 20 (JPSS-1)
#Configuration: NOAA 20
#almurnet v.1.7.20251203
#Start time: 2026-01-23 00:42:05

#Version: 2.2.20231116
#Station: R3.2S_Murmansk
#Location: 33.079688 lon 68.888172 lat
#TLE: 1 43013U 17073A   26022.44900781  .00000193  00000+0  11233-3 0  9999
#TLE: 2 43013  98.7645 323.3100 0001197  28.8413 331.2829 14.19538802423792

#Time	Az	El	Level	Level2	SNR	BER	BlckErr	Temp	State	Recorded	gain1	gain2
2026-01-23 00:42:05.71	24.56	2.08	-54.3	-69.3	3.8	1.49e+00	0	42	0	0	79	21077
2026-01-23 00:42:09.74	24.57	2.34	-54.4	-69.4	3.8	1.49e+00	0	42	104	0	79	21466
2026-01-23 00:42:13.77	24.59	2.60	-54.3	-69.3	3.8	1.49e+00	0	42	104	0	79	21104
2026-01-23 00:42:17.81	24.60	2.87	-54.1	-69.2	3.8	1.49e+00	0	42	104	0	79	20834
2026-01-23 00:42:21.84	24.61	3.14	-53.8	-68.8	3.8	1.49e+00	0	42	104	0	79	19926
2026-01-23 00:42:25.87	24.63	3.40	-52.7	-67.7	3.8	1.49e+00	0	42	104	0	77	19780
2026-01-23 00:42:29.91	24.64	3.68	-51.9	-61.1	5.4	7.42e-01	0	43	0	2097152	75	10351
2026-01-23 00:42:33.94	24.65	3.95	-50.5	-55.4	10.8	4.54e-03	0	43	0	9437184	73	6007
2026-01-23 00:42:37.97	24.67	4.23	-49.5	-52.9	13.5	1.14e-05	0	43	0	16777216	70	5363
2026-01-23 00:42:42.00	24.68	4.51	-48.9	-51.9	14.5	0.00e+00	0	43	0	24117248	69	5046
2026-01-23 00:42:46.03	24.69	4.79	-50.1	-54.2	12.1	1.23e-04	0	43	0	32505856	70	6227
2026-01-23 00:42:50.07	24.71	5.08	-51.2	-57.4	8.6	3.78e-02	0	43	0	39845888	73	7614
2026-01-23 00:42:54.10	24.72	5.37	-52.2	-66.9	3.8	1.15e+00	0	43	104	46137344	75	20187
2026-01-23 00:42:58.13	24.73	5.66	-48.8	-51.4	15.2	0.00e+00	0	43	0	51380224	69	4814
2026-01-23 00:43:02.16	24.74	5.95	-48.5	-51.0	15.6	0.00e+00	0	43	0	58720256	68	4859
2026-01-23 00:43:06.19	24.76	6.25	-48.4	-50.8	15.9	0.00e+00	0	43	0	67108864	68	4713
2026-01-23 00:43:10.23	24.77	6.56	-48.3	-50.6	16.1	0.00e+00	0	43	0	74448896	68	4627
2026-01-23 00:43:14.26	24.78	6.86	-48.2	-50.5	16.3	0.00e+00	0	43	0	81788928	68	4548
2026-01-23 00:43:18.29	24.79	7.17	-48.2	-50.4	16.4	0.00e+00	0	44	0	89128960	68	4527
2026-01-23 00:43:22.32	24.81	7.49	-48.1	-50.3	16.6	0.00e+00	0	43	0	97517568	68	4446
2026-01-23 00:43:26.36	24.82	7.80	-47.9	-50.1	16.8	0.00e+00	0	43	0	104857600	67	4600
2026-01-23 00:43:30.39	24.83	8.13	-47.8	-49.9	17.0	0.00e+00	0	43	0	112197632	67	4523
2026-01-23 00:43:34.43	24.84	8.45	-47.7	-49.8	17.2	0.00e+00	0	43	0	119537664	67	4443
2026-01-23 00:43:38.46	24.85	8.78	-47.7	-49.7	17.3	0.00e+00	0	43	0	126877696	67	4406
2026-01-23 00:43:42.49	24.86	9.12	-47.5	-49.4	17.6	0.00e+00	0	44	0	135266304	67	4262
2026-01-23 00:43:46.52	24.87	9.46	-47.5	-49.4	17.6	0.00e+00	0	43	0	142606336	66	4545
2026-01-23 00:43:50.55	24.89	9.80	-47.3	-49.1	17.9	0.00e+00	0	44	0	149946368	66	4358
2026-01-23 00:43:54.58	24.90	10.15	-47.2	-49.0	18.0	0.00e+00	0	44	0	157286400	66	4333
2026-01-23 00:43:58.61	24.91	10.50	-47.1	-48.9	18.2	0.00e+00	0	44	0	164626432	66	4270
2026-01-23 00:44:02.65	24.92	10.86	-47.1	-48.9	18.2	0.00e+00	0	43	0	173015040	66	4265
2026-01-23 00:44:06.68	24.93	11.22	-47.1	-48.9	18.3	0.00e+00	0	44	0	180355072	66	4245
2026-01-23 00:44:10.71	24.94	11.59	-46.9	-48.5	18.6	0.00e+00	0	44	0	187695104	65	4321
2026-01-23 00:44:14.74	24.95	11.97	-46.8	-48.5	18.7	0.00e+00	0	44	0	195035136	65	4304
2026-01-23 00:44:18.77	24.96	12.35	-46.8	-48.4	18.7	0.00e+00	0	44	0	202375168	65	4267
2026-01-23 00:44:22.80	24.97	12.74	-46.7	-48.3	18.9	0.00e+00	0	44	0	210763776	65	4205
2026-01-23 00:44:26.83	24.98	13.13	-46.7	-48.3	18.9	0.00e+00	0	44	0	218103808	65	4211
2026-01-23 00:44:30.87	24.99	13.53	-46.6	-48.1	19.1	0.00e+00	0	44	0	225443840	65	4122
2026-01-23 00:44:34.90	24.99	13.93	-46.5	-48.0	19.2	0.00e+00	0	44	0	232783872	65	4073
2026-01-23 00:44:38.93	25.00	14.35	-46.4	-47.8	19.4	0.00e+00	0	44	0	241172480	64	4237
2026-01-23 00:44:42.96	25.01	14.77	-46.3	-47.7	19.6	0.00e+00	0	44	0	248512512	64	4178
2026-01-23 00:44:46.99	25.02	15.20	-46.1	-47.6	19.7	0.00e+00	0	44	0	255852544	64	4104
2026-01-23 00:44:51.03	25.03	15.63	-46.1	-47.5	19.9	0.00e+00	0	44	0	263192576	63	4319
2026-01-23 00:44:55.06	25.04	16.08	-46.1	-47.5	19.8	0.00e+00	0	44	0	270532608	63	4305
2026-01-23 00:44:59.09	25.04	16.53	-46.0	-47.4	20.0	0.00e+00	0	44	0	277872640	63	4263
2026-01-23 00:45:03.12	25.05	16.99	-45.9	-47.3	20.1	0.00e+00	0	44	0	286261248	63	4197
2026-01-23 00:45:07.15	25.06	17.46	-45.7	-47.1	20.4	0.00e+00	0	44	0	293601280	63	4099
2026-01-23 00:45:11.18	25.06	17.93	-45.6	-46.9	20.4	0.00e+00	0	44	0	300941312	63	4044
2026-01-23 00:45:15.21	25.07	18.42	-45.7	-47.0	20.5	0.00e+00	0	44	0	308281344	63	4052
2026-01-23 00:45:19.25	25.07	18.92	-45.5	-46.7	20.7	0.00e+00	0	44	0	316669952	62	4189
2026-01-23 00:45:23.28	25.08	19.43	-45.4	-46.7	20.7	0.00e+00	0	44	0	324009984	62	4176
2026-01-23 00:45:27.31	25.08	19.95	-45.4	-46.6	20.8	0.00e+00	0	44	0	331350016	62	4129
2026-01-23 00:45:31.34	25.09	20.48	-45.3	-46.6	20.9	0.00e+00	0	44	0	338690048	62	4107
2026-01-23 00:45:35.37	25.09	21.02	-45.3	-46.5	20.9	0.00e+00	0	44	0	346030080	62	4078
2026-01-23 00:45:39.40	25.10	21.57	-45.2	-46.4	21.0	0.00e+00	0	44	0	354418688	62	4033
2026-01-23 00:45:43.44	25.10	22.14	-45.2	-46.4	21.1	0.00e+00	0	44	0	361758720	62	4031
2026-01-23 00:45:47.47	25.10	22.71	-45.1	-46.3	21.2	0.00e+00	0	44	0	369098752	62	3964
2026-01-23 00:45:51.51	25.10	23.31	-45.2	-46.4	21.1	0.00e+00	0	44	0	376438784	62	4037
2026-01-23 00:45:55.54	25.11	23.91	-45.2	-46.4	21.2	0.00e+00	0	44	0	384827392	62	4009
2026-01-23 00:45:59.56	25.11	24.53	-45.3	-46.5	21.1	0.00e+00	0	44	0	392167424	62	4085
2026-01-23 00:46:03.60	25.11	25.16	-45.5	-46.7	20.8	0.00e+00	0	44	0	399507456	62	4182
2026-01-23 00:46:07.63	25.11	25.81	-45.8	-47.1	20.4	0.00e+00	0	44	0	406847488	62	4370
2026-01-23 00:46:11.66	25.10	26.48	-46.0	-47.3	20.2	0.00e+00	0	44	0	414187520	62	4493
2026-01-23 00:46:15.69	25.10	27.16	-46.6	-48.0	19.7	0.00e+00	0	44	0	421527552	63	4566
2026-01-23 00:46:19.71	25.10	27.86	-47.2	-48.8	18.8	0.00e+00	0	44	0	429916160	64	4706
2026-01-23 00:46:23.75	25.10	28.58	-47.8	-49.5	18.2	0.00e+00	0	44	0	437256192	66	4589
2026-01-23 00:46:27.78	25.09	29.32	-48.3	-50.3	17.4	0.00e+00	0	44	0	444596224	67	4725
2026-01-23 00:46:31.76	25.09	30.07	-48.5	-50.6	17.1	0.00e+00	0	44	0	451936256	67	4885
2026-01-23 00:46:35.79	25.08	30.85	-48.4	-50.4	17.2	0.00e+00	0	44	0	460324864	67	4810
2026-01-23 00:46:39.82	25.07	31.65	-48.2	-50.1	17.5	0.00e+00	0	44	0	467664896	67	4650
2026-01-23 00:46:43.85	25.06	32.47	-47.9	-49.6	18.1	0.00e+00	0	44	0	475004928	67	4382
2026-01-23 00:46:47.88	25.05	33.32	-47.3	-48.9	18.9	0.00e+00	0	44	0	482344960	66	4255
2026-01-23 00:46:51.91	25.04	34.19	-46.0	-47.3	20.3	0.00e+00	0	44	0	489684992	64	3989
2026-01-23 00:46:55.95	25.03	35.08	-45.1	-46.3	21.4	0.00e+00	0	44	0	498073600	62	3976
2026-01-23 00:46:59.98	25.01	36.01	-44.7	-45.8	21.9	0.00e+00	0	44	0	505413632	61	3986
2026-01-23 00:47:04.01	24.99	36.95	-44.7	-45.8	21.8	0.00e+00	0	44	0	512753664	61	4002
2026-01-23 00:47:08.04	24.97	37.93	-44.9	-46.0	21.7	0.00e+00	0	44	0	520093696	61	4077
2026-01-23 00:47:12.06	24.95	38.93	-44.6	-45.7	22.0	0.00e+00	0	44	0	527433728	61	3949
2026-01-23 00:47:16.09	24.93	39.97	-44.5	-45.5	22.2	0.00e+00	0	44	0	535822336	60	4075
2026-01-23 00:47:20.13	24.90	41.04	-44.2	-45.2	22.5	0.00e+00	0	44	0	543162368	60	3924
2026-01-23 00:47:24.15	24.87	42.14	-44.2	-45.2	22.5	0.00e+00	0	44	0	550502400	60	3952
2026-01-23 00:47:28.19	24.84	43.28	-44.4	-45.5	22.3	0.00e+00	0	44	0	557842432	60	4070
2026-01-23 00:47:32.22	24.80	44.45	-46.6	-48.1	19.9	0.00e+00	0	44	0	565182464	63	4599
2026-01-23 00:47:36.25	24.76	45.65	-47.7	-49.4	18.6	0.00e+00	0	44	0	573571072	66	4494
2026-01-23 00:47:40.28	24.72	46.89	-47.0	-48.4	19.4	0.00e+00	0	44	0	580911104	66	4045
2026-01-23 00:47:44.31	24.67	48.17	-46.9	-48.4	19.5	0.00e+00	0	44	0	588251136	65	4270
2026-01-23 00:47:48.35	24.61	49.50	-47.2	-48.7	19.2	0.00e+00	0	44	0	595591168	65	4415
2026-01-23 00:47:52.38	24.55	50.86	-46.5	-47.9	19.9	0.00e+00	0	44	0	603979776	65	4036
2026-01-23 00:47:56.41	24.48	52.26	-44.3	-45.3	22.4	0.00e+00	0	44	0	611319808	60	4000
2026-01-23 00:48:00.44	24.40	53.70	-43.9	-44.9	23.1	0.00e+00	0	44	0	618659840	59	4026
2026-01-23 00:48:04.47	24.31	55.18	-44.2	-45.2	22.9	0.00e+00	0	44	0	625999872	58	4409
2026-01-23 00:48:08.50	24.21	56.71	-46.7	-48.1	19.8	0.00e+00	0	44	0	633339904	64	4379
2026-01-23 00:48:12.53	24.09	58.28	-46.4	-47.7	20.2	0.00e+00	0	44	0	641728512	64	4174
2026-01-23 00:48:16.56	23.96	59.89	-45.4	-46.6	21.4	0.00e+00	0	44	0	649068544	62	4115
2026-01-23 00:48:20.59	23.81	61.55	-44.5	-45.6	22.3	0.00e+00	0	44	0	656408576	60	4102
2026-01-23 00:48:24.62	23.63	63.24	-43.6	-44.5	23.5	0.00e+00	0	44	0	663748608	59	3861
2026-01-23 00:48:28.65	23.43	64.98	-45.1	-46.2	21.7	0.00e+00	0	44	0	671088640	60	4440
2026-01-23 00:48:32.69	23.18	66.76	-46.6	-47.9	20.0	0.00e+00	0	44	0	679477248	64	4280
2026-01-23 00:48:36.72	22.89	68.58	-46.8	-48.2	19.7	0.00e+00	0	44	0	686817280	64	4424
2026-01-23 00:48:40.75	22.54	70.44	-47.7	-49.3	18.8	0.00e+00	0	44	0	694157312	66	4483
2026-01-23 00:48:44.79	22.10	72.33	-47.7	-49.4	18.7	0.00e+00	0	44	0	701497344	66	4502
2026-01-23 00:48:48.82	21.54	74.25	-48.1	-49.8	18.3	0.00e+00	0	44	0	708837376	67	4491
2026-01-23 00:48:52.85	20.82	76.20	-49.3	-51.5	16.7	0.00e+00	0	44	0	717225984	69	4860
2026-01-23 00:48:56.88	19.84	78.17	-49.2	-51.3	16.8	0.00e+00	0	44	0	724566016	69	4722
2026-01-23 00:49:00.91	18.45	80.16	-46.3	-47.7	20.4	0.00e+00	0	44	0	731906048	64	4147
2026-01-23 00:49:04.94	16.33	82.17	-49.2	-51.3	16.7	0.00e+00	0	44	0	739246080	69	4741
2026-01-23 00:49:08.97	12.71	84.17	-45.4	-46.6	21.4	0.00e+00	0	44	0	747634688	62	4109
2026-01-23 00:49:13.00	5.33	86.14	-44.7	-45.7	22.2	0.00e+00	0	44	0	754974720	61	3955
2026-01-23 00:49:17.03	344.12	87.92	-44.1	-45.0	22.9	0.00e+00	0	44	0	762314752	60	3865
2026-01-23 00:49:21.06	275.74	88.49	-43.3	-44.2	24.0	0.00e+00	0	44	0	769654784	57	4160
2026-01-23 00:49:25.09	235.02	87.04	-47.1	-48.6	19.5	0.00e+00	0	44	0	776994816	65	4382
2026-01-23 00:49:29.13	223.42	85.12	-44.2	-45.2	22.7	0.00e+00	0	44	0	784334848	60	3931
2026-01-23 00:49:33.16	218.49	83.12	-46.0	-47.3	20.9	0.00e+00	0	44	0	792723456	62	4455
2026-01-23 00:49:37.19	215.80	81.12	-46.6	-47.9	20.1	0.00e+00	0	44	0	800063488	65	4032
2026-01-23 00:49:41.23	214.11	79.11	-45.2	-46.3	21.8	0.00e+00	0	44	0	807403520	61	4198
2026-01-23 00:49:45.26	212.96	77.13	-46.9	-48.3	19.8	0.00e+00	0	44	0	814743552	65	4220
2026-01-23 00:49:49.29	212.13	75.16	-48.4	-50.2	18.0	0.00e+00	0	44	0	823132160	67	4701
2026-01-23 00:49:53.32	211.50	73.23	-47.0	-48.5	19.7	0.00e+00	0	44	0	830472192	65	4313
2026-01-23 00:49:57.35	211.01	71.32	-46.5	-47.8	20.3	0.00e+00	0	44	0	837812224	64	4204
2026-01-23 00:50:01.38	210.62	69.45	-48.9	-51.0	17.3	0.00e+00	0	44	0	845152256	68	4840
2026-01-23 00:50:05.41	210.30	67.61	-49.3	-51.5	16.6	0.00e+00	0	44	0	852492288	69	4840
2026-01-23 00:50:09.44	210.03	65.81	-47.3	-48.8	19.3	0.00e+00	0	44	0	860880896	66	4225
2026-01-23 00:50:13.46	209.81	64.05	-44.2	-45.2	22.7	0.00e+00	0	44	0	868220928	60	3938
2026-01-23 00:50:17.50	209.62	62.33	-44.4	-45.4	22.8	0.00e+00	0	44	0	875560960	59	4285
2026-01-23 00:50:21.53	209.46	60.65	-46.1	-47.4	20.8	0.00e+00	0	44	0	882900992	62	4501
2026-01-23 00:50:25.56	209.32	59.01	-46.7	-48.1	20.0	0.00e+00	0	44	0	891289600	64	4360
2026-01-23 00:50:29.59	209.19	57.42	-49.9	-52.4	15.8	0.00e+00	0	44	0	898629632	70	5093
2026-01-23 00:50:33.63	209.08	55.87	-46.2	-47.5	20.5	0.00e+00	0	44	0	905969664	64	4079
2026-01-23 00:50:37.66	208.99	54.36	-45.6	-46.9	21.1	0.00e+00	0	44	0	913309696	63	4006
2026-01-23 00:50:41.69	208.91	52.89	-44.7	-45.7	22.2	0.00e+00	0	44	0	920649728	61	3947
2026-01-23 00:50:45.72	208.83	51.47	-46.7	-48.2	19.8	0.00e+00	0	44	0	927989760	64	4392
2026-01-23 00:50:49.75	208.76	50.09	-47.2	-48.8	19.2	0.00e+00	0	44	0	936378368	65	4447
2026-01-23 00:50:53.79	208.70	48.74	-49.9	-52.5	15.8	0.00e+00	0	44	0	943718400	70	5104
2026-01-23 00:50:57.81	208.65	47.45	-46.4	-47.8	20.2	0.00e+00	0	44	0	951058432	64	4200
2026-01-23 00:51:01.85	208.60	46.18	-47.3	-48.9	19.1	0.00e+00	0	44	0	958398464	65	4512
2026-01-23 00:51:05.88	208.56	44.95	-48.7	-50.7	17.4	0.00e+00	0	44	0	966787072	68	4661
2026-01-23 00:51:09.91	208.52	43.76	-46.4	-47.8	20.1	0.00e+00	0	44	0	974127104	64	4199
2026-01-23 00:51:13.94	208.48	42.61	-47.6	-49.2	18.7	0.00e+00	0	44	0	981467136	65	4689
2026-01-23 00:51:17.97	208.45	41.49	-48.9	-51.0	17.0	0.00e+00	0	44	0	988807168	69	4573
2026-01-23 00:51:22.00	208.42	40.41	-47.0	-48.5	19.4	0.00e+00	0	44	0	996147200	66	4084
2026-01-23 00:51:26.03	208.40	39.35	-47.9	-49.6	18.3	0.00e+00	0	44	0	1004535808	66	4618
2026-01-23 00:51:30.06	208.37	38.33	-49.6	-52.1	15.9	0.00e+00	0	44	0	1011875840	69	5177
2026-01-23 00:51:34.09	208.35	37.34	-48.6	-50.5	17.5	0.00e+00	0	44	0	1019215872	69	4325
2026-01-23 00:51:38.12	208.33	36.37	-47.3	-48.9	18.9	0.00e+00	0	44	0	1026555904	66	4256
2026-01-23 00:51:42.16	208.31	35.43	-48.2	-50.0	17.8	0.00e+00	0	44	0	1033895936	66	4859
2026-01-23 00:51:46.19	208.30	34.52	-49.3	-51.6	16.4	0.00e+00	0	44	0	1042284544	69	4891
2026-01-23 00:51:50.22	208.29	33.64	-49.2	-51.4	16.5	0.00e+00	0	44	0	1049624576	69	4794
2026-01-23 00:51:54.25	208.27	32.78	-48.9	-51.0	16.9	0.00e+00	0	44	0	1056964608	69	4549
2026-01-23 00:51:58.29	208.26	31.95	-47.7	-49.4	18.4	0.00e+00	0	44	0	1064304640	67	4261
2026-01-23 00:52:02.32	208.25	31.13	-47.7	-49.4	18.3	0.00e+00	0	44	0	1071644672	66	4543
2026-01-23 00:52:06.35	208.24	30.34	-48.4	-50.4	17.3	0.00e+00	0	44	0	1080033280	67	4801
2026-01-23 00:52:10.38	208.24	29.57	-48.5	-50.6	17.2	0.00e+00	0	44	0	1087373312	67	4882
2026-01-23 00:52:14.42	208.23	28.82	-48.0	-49.8	17.9	0.00e+00	0	44	0	1094713344	67	4459
2026-01-23 00:52:18.45	208.22	28.09	-47.2	-48.7	18.9	0.00e+00	0	44	0	1102053376	66	4191
2026-01-23 00:52:22.48	208.22	27.38	-46.1	-47.5	20.1	0.00e+00	0	44	0	1110441984	64	4061
2026-01-23 00:52:26.51	208.22	26.69	-45.9	-47.2	20.5	0.00e+00	0	44	0	1117782016	63	4164
2026-01-23 00:52:30.54	208.21	26.01	-45.9	-47.2	20.5	0.00e+00	0	44	0	1125122048	63	4146
2026-01-23 00:52:34.57	208.21	25.36	-46.0	-47.3	20.4	0.00e+00	0	44	0	1132462080	63	4222
2026-01-23 00:52:38.60	208.21	24.71	-46.0	-47.4	20.3	0.00e+00	0	44	0	1139802112	63	4248
2026-01-23 00:52:42.64	208.21	24.08	-45.9	-47.2	20.4	0.00e+00	0	44	0	1147142144	63	4148
2026-01-23 00:52:46.67	208.21	23.47	-45.8	-47.1	20.6	0.00e+00	0	44	0	1155530752	63	4099
2026-01-23 00:52:50.70	208.21	22.87	-45.4	-46.6	21.0	0.00e+00	0	44	0	1162870784	62	4123
2026-01-23 00:52:54.73	208.21	22.29	-45.1	-46.3	21.2	0.00e+00	0	44	0	1170210816	62	3995
2026-01-23 00:52:58.76	208.21	21.72	-45.4	-46.6	20.9	0.00e+00	0	44	0	1177550848	62	4131
2026-01-23 00:53:02.79	208.21	21.16	-45.8	-47.1	20.5	0.00e+00	0	44	0	1185939456	62	4352
2026-01-23 00:53:06.82	208.21	20.61	-46.3	-47.7	19.9	0.00e+00	0	44	0	1193279488	63	4404
2026-01-23 00:53:10.85	208.22	20.07	-46.5	-48.0	19.5	0.00e+00	0	44	0	1200619520	63	4556
2026-01-23 00:53:14.88	208.22	19.55	-46.4	-47.9	19.6	0.00e+00	0	44	0	1207959552	63	4505
2026-01-23 00:53:18.92	208.22	19.04	-46.4	-47.8	19.7	0.00e+00	0	44	0	1215299584	63	4478
2026-01-23 00:53:22.95	208.23	18.53	-46.3	-47.7	19.8	0.00e+00	0	44	0	1223688192	63	4402
2026-01-23 00:53:26.98	208.23	18.04	-46.4	-47.8	19.6	0.00e+00	0	44	0	1231028224	63	4467
2026-01-23 00:53:31.01	208.23	17.56	-46.3	-47.8	19.7	0.00e+00	0	44	0	1238368256	63	4459
2026-01-23 00:53:35.04	208.24	17.08	-46.5	-48.0	19.4	0.00e+00	0	44	0	1245708288	63	4573
2026-01-23 00:53:39.07	208.24	16.62	-46.7	-48.2	19.2	0.00e+00	0	44	0	1254096896	63	4667
2026-01-23 00:53:43.10	208.25	16.16	-46.7	-48.2	19.1	0.00e+00	0	44	0	1261436928	64	4429
2026-01-23 00:53:47.13	208.25	15.71	-46.8	-48.3	19.0	0.00e+00	0	44	0	1268776960	64	4493
2026-01-23 00:53:51.16	208.26	15.27	-47.0	-48.6	18.7	0.00e+00	0	44	0	1276116992	64	4624
2026-01-23 00:53:55.19	208.27	14.84	-46.9	-48.5	18.8	0.00e+00	0	44	0	1283457024	64	4568
2026-01-23 00:53:59.22	208.27	14.42	-46.8	-48.4	18.8	0.00e+00	0	44	0	1290797056	64	4533
2026-01-23 00:54:03.25	208.28	14.00	-46.8	-48.4	18.8	0.00e+00	0	44	0	1299185664	64	4527
2026-01-23 00:54:07.28	208.28	13.59	-46.8	-48.4	18.8	0.00e+00	0	44	0	1306525696	64	4533
2026-01-23 00:54:11.32	208.29	13.19	-46.9	-48.5	18.7	0.00e+00	0	44	0	1313865728	64	4583
2026-01-23 00:54:15.35	208.30	12.79	-47.1	-48.8	18.4	0.00e+00	0	44	0	1321205760	64	4722
2026-01-23 00:54:19.38	208.31	12.40	-47.2	-48.9	18.3	0.00e+00	0	44	0	1329594368	65	4516
2026-01-23 00:54:23.41	208.31	12.02	-47.3	-49.1	18.1	0.00e+00	0	44	0	1336934400	65	4604
2026-01-23 00:54:27.44	208.32	11.64	-47.5	-49.3	17.8	0.00e+00	0	44	0	1344274432	65	4747
2026-01-23 00:54:31.47	208.33	11.26	-47.6	-49.5	17.7	0.00e+00	0	44	0	1351614464	65	4830
2026-01-23 00:54:35.51	208.34	10.90	-47.6	-49.5	17.6	0.00e+00	0	44	0	1358954496	65	4846
2026-01-23 00:54:39.54	208.34	10.54	-47.8	-49.8	17.3	0.00e+00	0	44	0	1367343104	66	4718
2026-01-23 00:54:43.57	208.35	10.18	-47.6	-49.5	17.6	0.00e+00	0	44	0	1374683136	66	4571
2026-01-23 00:54:47.61	208.36	9.83	-47.7	-49.7	17.3	0.00e+00	0	44	0	1382023168	66	4686
2026-01-23 00:54:51.64	208.37	9.48	-47.6	-49.5	17.5	0.00e+00	0	44	0	1389363200	66	4581
2026-01-23 00:54:55.67	208.38	9.14	-47.6	-49.5	17.5	0.00e+00	0	44	0	1396703232	66	4581
2026-01-23 00:54:59.70	208.39	8.80	-47.4	-49.3	17.7	0.00e+00	0	44	0	1405091840	66	4459
2026-01-23 00:55:03.73	208.39	8.47	-47.5	-49.4	17.5	0.00e+00	0	44	0	1412431872	66	4519
2026-01-23 00:55:07.76	208.40	8.14	-47.3	-49.2	17.7	0.00e+00	0	44	0	1419771904	66	4419
2026-01-23 00:55:11.79	208.41	7.82	-47.3	-49.2	17.7	0.00e+00	0	44	0	1427111936	66	4396
2026-01-23 00:55:15.82	208.42	7.50	-47.2	-49.1	17.8	0.00e+00	0	44	0	1434451968	66	4341
2026-01-23 00:55:19.85	208.43	7.18	-47.4	-49.3	17.5	0.00e+00	0	44	0	1442840576	66	4467
2026-01-23 00:55:23.88	208.44	6.87	-47.6	-49.6	17.2	0.00e+00	0	44	0	1450180608	66	4642
2026-01-23 00:55:27.91	208.45	6.56	-47.3	-49.2	17.5	0.00e+00	0	44	0	1457520640	66	4422
2026-01-23 00:55:31.95	208.46	6.26	-47.3	-49.3	17.4	0.00e+00	0	44	0	1464860672	66	4449
2026-01-23 00:55:35.98	208.47	5.96	-47.4	-49.4	17.3	0.00e+00	0	44	0	1473249280	66	4496
2026-01-23 00:55:40.01	208.48	5.66	-47.5	-49.6	17.0	0.00e+00	0	44	0	1480589312	66	4599
2026-01-23 00:55:44.05	208.49	5.36	-47.7	-49.8	16.7	0.00e+00	0	44	0	1487929344	66	4725
2026-01-23 00:55:48.08	208.50	5.07	-48.0	-50.4	16.1	0.00e+00	0	44	0	1495269376	66	5047
2026-01-23 00:55:52.11	208.51	4.79	-53.6	-68.6	3.8	1.49e+00	0	44	104	1498415104	77	21789
2026-01-23 00:55:56.14	208.52	4.50	-54.0	-69.0	3.8	1.49e+00	0	44	104	1498415104	78	21612
2026-01-23 00:56:00.17	208.53	4.22	-54.2	-69.1	3.8	1.49e+00	0	44	104	1498415104	78	21999
2026-01-23 00:56:04.21	208.54	3.94	-54.2	-69.2	3.8	1.49e+00	0	44	104	1498415104	79	20982
2026-01-23 00:56:08.24	208.55	3.66	-54.3	-69.3	3.8	1.49e+00	0	44	104	1498415104	79	21052
2026-01-23 00:56:12.27	208.56	3.39	-54.2	-69.2	3.8	1.49e+00	0	44	104	1498415104	79	20879
2026-01-23 00:56:16.31	208.57	3.12	-53.8	-68.8	3.8	1.49e+00	0	44	104	1498415104	79	19931
2026-01-23 00:56:20.34	208.58	2.85	-53.8	-68.7	3.8	1.49e+00	0	44	104	1498415104	79	19829
2026-01-23 00:56:24.37	208.59	2.59	-53.8	-68.7	3.8	1.49e+00	0	44	104	1498415104	79	19830
2026-01-23 00:56:28.41	208.60	2.32	-53.7	-68.7	3.8	1.49e+00	0	44	104	1498415104	79	19782
2026-01-23 00:56:32.44	208.61	2.06	-53.7	-68.7	3.8	1.49e+00	0	44	104	1498415104	79	19770

#Closed at: 2026-01-23 00:56:35
#Recorded file [1498 MB]: D:/lorett/data/31041_260123_034205.dat