passes_logs/2026/01/23/R3.2S_Murmansk/R3.2S_Murmansk__20260123_231934_FENGYUN_3D_rec.log

#Pass ID: 20260123_231934_FENGYUN 3D
#Satellite: FENGYUN 3D
#Configuration: FENGYUN 3D
#almurnet v.1.7.20251203
#Start time: 2026-01-23 23:19:36

#Version: 2.2.20231116
#Station: R3.2S_Murmansk
#Location: 33.079688 lon 68.888172 lat
#TLE: 1 43010U 17072A   26023.60174628  .00000324  00000+0  17481-3 0  9994
#TLE: 2 43010  98.9958 355.5514 0002482  93.7422 266.4037 14.19699955424476

#Time	Az	El	Level	Level2	SNR	BER	BlckErr	Temp	State	Recorded	gain1	gain2
2026-01-23 23:19:36.85	19.50	2.09	-52.1	-64.0	3.8	8.46e-01	0	42	0	0	76	13684
2026-01-23 23:19:39.88	19.81	2.22	-52.1	-63.9	3.8	8.46e-01	0	42	104	0	74	15166
2026-01-23 23:19:42.91	20.12	2.35	-52.1	-63.9	3.8	8.46e-01	0	42	104	0	74	15109
2026-01-23 23:19:45.93	20.43	2.48	-52.0	-63.7	3.8	8.46e-01	0	42	104	0	74	14818
2026-01-23 23:19:48.96	20.74	2.62	-52.1	-63.7	3.8	8.45e-01	0	42	104	0	74	14748
2026-01-23 23:19:51.99	21.06	2.75	-52.0	-63.6	3.8	8.45e-01	0	42	104	0	74	14669
2026-01-23 23:19:55.01	21.38	2.88	-52.0	-63.5	3.8	8.46e-01	0	42	104	0	74	14451
2026-01-23 23:19:58.04	21.70	3.01	-52.0	-63.5	3.8	8.46e-01	0	42	104	0	74	14475
2026-01-23 23:20:01.07	22.03	3.14	-52.0	-63.5	3.8	8.45e-01	0	43	104	0	74	14535
2026-01-23 23:20:04.09	22.35	3.27	-52.0	-63.6	3.8	8.46e-01	0	43	104	0	74	14643
2026-01-23 23:20:07.12	22.68	3.40	-52.0	-63.4	3.8	8.46e-01	0	43	104	0	74	14326
2026-01-23 23:20:10.14	23.02	3.53	-52.0	-63.4	3.8	8.46e-01	0	43	104	0	74	14333
2026-01-23 23:20:13.17	23.35	3.66	-52.0	-63.7	3.8	8.45e-01	0	43	104	0	74	14843
2026-01-23 23:20:16.19	23.69	3.79	-52.0	-63.9	3.8	8.47e-01	0	43	104	0	74	15115
2026-01-23 23:20:19.22	24.03	3.92	-52.0	-63.8	3.8	8.47e-01	0	43	104	0	74	14919
2026-01-23 23:20:22.25	24.38	4.05	-52.0	-63.6	3.8	8.47e-01	0	43	104	0	74	14678
2026-01-23 23:20:25.27	24.72	4.18	-52.1	-64.0	3.8	8.46e-01	0	43	104	0	74	15291
2026-01-23 23:20:28.29	25.07	4.31	-52.0	-64.0	3.8	8.45e-01	0	43	104	0	74	15228
2026-01-23 23:20:31.32	25.43	4.44	-51.9	-62.3	3.8	8.46e-01	0	43	104	0	74	12559
2026-01-23 23:20:34.35	25.78	4.57	-51.5	-59.5	4.5	8.30e-01	0	43	0	0	74	9073
2026-01-23 23:20:37.37	26.14	4.69	-49.4	-52.8	10.0	3.06e-02	0	43	0	9437184	70	5290
2026-01-23 23:20:40.39	26.50	4.82	-45.7	-47.2	15.8	0.00e+00	0	43	0	26214400	63	4176
2026-01-23 23:20:43.42	26.87	4.95	-45.0	-46.5	16.6	0.00e+00	0	43	0	42991616	61	4294
2026-01-23 23:20:46.45	27.24	5.08	-44.0	-45.2	18.2	0.00e+00	0	43	0	59768832	59	4187
2026-01-23 23:20:49.47	27.61	5.20	-45.2	-46.6	16.1	2.25e-01	0	43	0	74448896	62	4123
2026-01-23 23:20:52.49	27.98	5.33	-43.1	-44.2	19.2	0.00e+00	0	43	0	91226112	57	4172
2026-01-23 23:20:55.52	28.36	5.46	-42.7	-43.8	19.6	0.00e+00	0	43	0	108003328	57	3978
2026-01-23 23:20:58.55	28.74	5.58	-42.9	-44.0	19.4	0.00e+00	0	43	0	124780544	57	4056
2026-01-23 23:21:01.57	29.12	5.71	-42.6	-43.6	19.8	0.00e+00	0	43	0	142606336	57	3912
2026-01-23 23:21:04.60	29.51	5.83	-42.9	-43.9	19.6	0.00e+00	0	43	0	159383552	56	4265
2026-01-23 23:21:07.62	29.90	5.96	-42.6	-43.6	19.9	0.00e+00	0	43	0	176160768	56	4104
2026-01-23 23:21:10.65	30.29	6.08	-42.2	-43.1	20.4	0.00e+00	0	43	0	192937984	56	3896
2026-01-23 23:21:13.67	30.69	6.20	-42.2	-43.1	20.4	0.00e+00	0	43	0	210763776	56	3913
2026-01-23 23:21:16.69	31.09	6.33	-42.4	-43.4	20.1	0.00e+00	0	43	0	227540992	56	4022
2026-01-23 23:21:19.71	31.49	6.45	-42.4	-43.4	20.2	0.00e+00	0	43	0	244318208	56	4035
2026-01-23 23:21:22.74	31.90	6.57	-42.4	-43.3	20.2	0.00e+00	0	43	0	261095424	56	3991
2026-01-23 23:21:25.77	32.31	6.69	-42.2	-43.1	20.4	0.00e+00	0	43	0	278921216	55	4143
2026-01-23 23:21:28.79	32.72	6.81	-42.2	-43.2	20.4	0.00e+00	0	44	0	295698432	55	4168
2026-01-23 23:21:31.82	33.14	6.93	-42.3	-43.3	20.3	0.00e+00	0	43	0	312475648	55	4209
2026-01-23 23:21:34.84	33.55	7.05	-42.0	-42.9	20.6	0.00e+00	0	43	0	329252864	55	4049
2026-01-23 23:21:37.86	33.98	7.17	-41.8	-42.7	20.9	0.00e+00	0	43	0	347078656	55	3943
2026-01-23 23:21:40.89	34.40	7.29	-41.7	-42.6	21.1	0.00e+00	0	43	0	363855872	55	3875
2026-01-23 23:21:43.91	34.83	7.40	-41.6	-42.5	21.2	0.00e+00	0	43	0	380633088	55	3837
2026-01-23 23:21:46.94	35.27	7.52	-41.9	-42.8	20.9	0.00e+00	0	43	0	397410304	54	4237
2026-01-23 23:21:49.97	35.70	7.64	-41.8	-42.7	20.9	0.00e+00	0	44	0	414187520	54	4186
2026-01-23 23:21:52.99	36.14	7.75	-42.1	-43.0	20.7	0.00e+00	0	44	0	432013312	54	4310
2026-01-23 23:21:56.02	36.58	7.86	-41.8	-42.6	21.1	0.00e+00	0	43	0	448790528	54	4144
2026-01-23 23:21:59.05	37.03	7.98	-41.8	-42.7	21.0	0.00e+00	0	44	0	465567744	54	4174
2026-01-23 23:22:02.07	37.48	8.09	-41.8	-42.7	21.1	0.00e+00	0	44	0	482344960	54	4154
2026-01-23 23:22:05.09	37.93	8.20	-41.7	-42.6	21.2	0.00e+00	0	44	0	499122176	54	4121
2026-01-23 23:22:08.12	38.39	8.31	-41.7	-42.7	21.1	0.00e+00	0	44	0	516947968	54	4149
2026-01-23 23:22:11.15	38.85	8.42	-41.6	-42.5	21.3	0.00e+00	0	43	0	533725184	54	4085
2026-01-23 23:22:14.18	39.31	8.52	-41.7	-42.6	21.2	0.00e+00	0	44	0	550502400	54	4116
2026-01-23 23:22:17.21	39.78	8.63	-41.8	-42.7	21.1	0.00e+00	0	44	0	567279616	54	4175
2026-01-23 23:22:20.23	40.25	8.73	-41.7	-42.6	21.1	0.00e+00	0	44	0	584056832	54	4139
2026-01-23 23:22:23.26	40.72	8.84	-41.5	-42.4	21.4	0.00e+00	0	44	0	601882624	54	4008
2026-01-23 23:22:26.28	41.19	8.94	-41.1	-42.0	21.7	0.00e+00	0	44	0	618659840	54	3849
2026-01-23 23:22:29.31	41.67	9.04	-41.3	-42.1	21.6	0.00e+00	0	44	0	635437056	54	3911
2026-01-23 23:22:32.33	42.16	9.14	-41.5	-42.4	21.5	0.00e+00	0	44	0	652214272	54	4006
2026-01-23 23:22:35.36	42.64	9.24	-41.4	-42.3	21.6	0.00e+00	0	44	0	670040064	54	3978
2026-01-23 23:22:38.39	43.13	9.34	-41.1	-42.0	21.8	0.00e+00	0	44	0	686817280	54	3849
2026-01-23 23:22:41.42	43.62	9.43	-41.1	-42.0	21.8	0.00e+00	0	44	0	703594496	54	3844
2026-01-23 23:22:44.44	44.12	9.53	-41.3	-42.1	21.7	0.00e+00	0	44	0	720371712	54	3909
2026-01-23 23:22:47.47	44.62	9.62	-41.3	-42.2	21.7	0.00e+00	0	44	0	738197504	54	3918
2026-01-23 23:22:50.50	45.12	9.71	-41.4	-42.3	21.6	0.00e+00	0	44	0	754974720	54	3966
2026-01-23 23:22:53.53	45.62	9.80	-41.2	-42.1	21.7	0.00e+00	0	44	0	771751936	54	3890
2026-01-23 23:22:56.56	46.13	9.89	-41.3	-42.2	21.7	0.00e+00	0	44	0	789577728	54	3920
2026-01-23 23:22:59.58	46.64	9.97	-41.3	-42.2	21.7	0.00e+00	0	44	0	806354944	54	3920
2026-01-23 23:23:02.61	47.15	10.06	-41.3	-42.2	21.7	0.00e+00	0	44	0	823132160	54	3919
2026-01-23 23:23:05.63	47.67	10.14	-41.1	-41.9	22.0	0.00e+00	0	44	0	839909376	54	3804
2026-01-23 23:23:08.65	48.18	10.22	-41.2	-42.0	21.8	0.00e+00	0	44	0	857735168	54	3865
2026-01-23 23:23:11.67	48.70	10.30	-41.6	-42.5	21.4	0.00e+00	0	44	0	874512384	54	4076
2026-01-23 23:23:14.70	49.23	10.38	-41.5	-42.4	21.5	0.00e+00	0	44	0	891289600	54	4038
2026-01-23 23:23:17.72	49.75	10.45	-41.2	-42.0	21.9	0.00e+00	0	44	0	908066816	54	3864
2026-01-23 23:23:20.74	50.28	10.53	-41.1	-42.0	21.9	0.00e+00	0	44	0	924844032	54	3837
2026-01-23 23:23:23.77	50.82	10.60	-40.9	-41.7	22.1	0.00e+00	0	44	0	942669824	53	3951
2026-01-23 23:23:26.79	51.35	10.67	-40.8	-41.6	22.2	0.00e+00	0	44	0	959447040	53	3906
2026-01-23 23:23:29.82	51.89	10.74	-40.7	-41.6	22.2	0.00e+00	0	44	0	976224256	53	3870
2026-01-23 23:23:32.84	52.42	10.80	-40.7	-41.6	22.3	0.00e+00	0	44	0	993001472	53	3869
2026-01-23 23:23:35.87	52.97	10.87	-40.6	-41.4	22.5	0.00e+00	0	44	0	1010827264	53	3783
2026-01-23 23:23:38.89	53.51	10.93	-40.6	-41.4	22.5	0.00e+00	0	44	0	1027604480	53	3793
2026-01-23 23:23:41.92	54.06	10.99	-40.7	-41.5	22.4	0.00e+00	0	44	0	1044381696	52	4052
2026-01-23 23:23:44.94	54.60	11.04	-40.8	-41.7	22.2	0.00e+00	0	44	0	1061158912	52	4149
2026-01-23 23:23:47.96	55.15	11.10	-40.9	-41.7	22.2	0.00e+00	0	44	0	1077936128	52	4165
2026-01-23 23:23:50.99	55.71	11.15	-40.8	-41.6	22.2	0.00e+00	0	44	0	1095761920	52	4142
2026-01-23 23:23:54.01	56.26	11.20	-40.7	-41.5	22.3	0.00e+00	0	44	0	1112539136	52	4091
2026-01-23 23:23:57.04	56.82	11.25	-40.7	-41.5	22.4	0.00e+00	0	44	0	1129316352	52	4072
2026-01-23 23:24:00.06	57.37	11.30	-40.8	-41.6	22.3	0.00e+00	0	44	0	1146093568	52	4145
2026-01-23 23:24:03.09	57.93	11.34	-40.9	-41.7	22.2	0.00e+00	0	44	0	1162870784	52	4173
2026-01-23 23:24:06.11	58.49	11.38	-40.9	-41.8	22.1	0.00e+00	0	44	0	1180696576	52	4211
2026-01-23 23:24:09.13	59.05	11.42	-40.9	-41.8	22.1	0.00e+00	0	44	0	1197473792	52	4205
2026-01-23 23:24:12.16	59.62	11.46	-40.8	-41.6	22.3	0.00e+00	0	44	0	1214251008	52	4137
2026-01-23 23:24:15.19	60.19	11.49	-40.7	-41.6	22.3	0.00e+00	0	44	0	1231028224	52	4100
2026-01-23 23:24:18.22	60.75	11.52	-40.6	-41.4	22.4	0.00e+00	0	44	0	1247805440	52	4050
2026-01-23 23:24:21.24	61.32	11.55	-40.7	-41.5	22.4	0.00e+00	0	44	0	1265631232	52	4082
2026-01-23 23:24:24.26	61.89	11.58	-40.8	-41.6	22.3	0.00e+00	0	44	0	1282408448	52	4116
2026-01-23 23:24:27.29	62.46	11.60	-40.8	-41.7	22.2	0.00e+00	0	44	0	1299185664	52	4147
2026-01-23 23:24:30.31	63.03	11.63	-40.9	-41.7	22.2	0.00e+00	0	44	0	1315962880	52	4175
2026-01-23 23:24:33.34	63.60	11.65	-40.5	-41.3	22.6	0.00e+00	0	44	0	1332740096	52	3994
2026-01-23 23:24:36.36	64.17	11.66	-40.6	-41.4	22.4	0.00e+00	0	44	0	1350565888	52	4036
2026-01-23 23:24:39.39	64.75	11.68	-40.7	-41.5	22.4	0.00e+00	0	44	0	1367343104	52	4091
2026-01-23 23:24:42.41	65.32	11.69	-40.7	-41.5	22.4	0.00e+00	0	44	0	1384120320	52	4081
2026-01-23 23:24:45.44	65.89	11.70	-40.6	-41.5	22.4	0.00e+00	0	44	0	1400897536	52	4060
2026-01-23 23:24:48.46	66.47	11.70	-40.9	-41.7	22.2	0.00e+00	0	44	0	1418723328	52	4174
2026-01-23 23:24:51.49	67.04	11.71	-40.8	-41.7	22.2	0.00e+00	0	44	0	1435500544	52	4148
2026-01-23 23:24:54.52	67.62	11.71	-40.8	-41.6	22.3	0.00e+00	0	44	0	1452277760	52	4137
2026-01-23 23:24:57.54	68.19	11.71	-40.7	-41.5	22.4	0.00e+00	0	44	0	1469054976	52	4061
2026-01-23 23:25:00.57	68.76	11.70	-40.6	-41.5	22.4	0.00e+00	0	44	0	1486880768	52	4054
2026-01-23 23:25:03.59	69.34	11.70	-40.9	-41.7	22.2	0.00e+00	0	44	0	1503657984	52	4188
2026-01-23 23:25:06.62	69.91	11.69	-40.8	-41.6	22.2	0.00e+00	0	44	0	1520435200	52	4137
2026-01-23 23:25:09.65	70.49	11.68	-40.8	-41.6	22.3	0.00e+00	0	44	0	1537212416	52	4111
2026-01-23 23:25:12.67	71.06	11.66	-40.9	-41.8	22.1	0.00e+00	0	44	0	1555038208	52	4197
2026-01-23 23:25:15.70	71.63	11.65	-40.9	-41.7	22.1	0.00e+00	0	44	0	1571815424	52	4175
2026-01-23 23:25:18.73	72.21	11.63	-41.0	-41.9	22.0	0.00e+00	0	44	0	1588592640	52	4257
2026-01-23 23:25:21.75	72.78	11.61	-40.8	-41.7	22.2	0.00e+00	0	44	0	1606418432	52	4158
2026-01-23 23:25:24.77	73.34	11.58	-40.8	-41.7	22.2	0.00e+00	0	44	0	1623195648	52	4164
2026-01-23 23:25:27.80	73.92	11.56	-40.7	-41.6	22.3	0.00e+00	0	44	0	1639972864	52	4100
2026-01-23 23:25:30.83	74.48	11.53	-40.6	-41.4	22.4	0.00e+00	0	44	0	1656750080	52	4049
2026-01-23 23:25:33.85	75.05	11.50	-40.7	-41.5	22.3	0.00e+00	0	44	0	1674575872	52	4079
2026-01-23 23:25:36.88	75.62	11.46	-40.9	-41.7	22.1	0.00e+00	0	44	0	1691353088	52	4192
2026-01-23 23:25:39.91	76.18	11.43	-40.8	-41.6	22.2	0.00e+00	0	44	0	1708130304	52	4121
2026-01-23 23:25:42.93	76.75	11.39	-40.7	-41.5	22.3	0.00e+00	0	44	0	1724907520	52	4066
2026-01-23 23:25:45.96	77.31	11.35	-40.7	-41.6	22.2	0.00e+00	0	44	0	1741684736	52	4108
2026-01-23 23:25:48.99	77.87	11.30	-41.0	-41.8	22.0	0.00e+00	0	44	0	1759510528	52	4219
2026-01-23 23:25:52.01	78.43	11.26	-40.9	-41.7	22.1	0.00e+00	0	44	0	1776287744	52	4171
2026-01-23 23:25:55.04	78.99	11.21	-41.0	-41.9	21.8	0.00e+00	0	44	0	1793064960	52	4245
2026-01-23 23:25:58.06	79.54	11.16	-41.0	-41.9	21.7	0.00e+00	0	44	0	1809842176	52	4254
2026-01-23 23:26:01.09	80.09	11.10	-41.1	-42.0	21.6	0.00e+00	0	44	0	1826619392	52	4323
2026-01-23 23:26:04.11	80.65	11.05	-41.0	-41.9	21.7	0.00e+00	0	44	0	1844445184	52	4270
2026-01-23 23:26:07.13	81.19	10.99	-40.9	-41.7	21.9	0.00e+00	0	44	0	1861222400	52	4187
2026-01-23 23:26:10.16	81.74	10.93	-40.9	-41.8	21.8	0.00e+00	0	44	0	1877999616	52	4229
2026-01-23 23:26:13.18	82.29	10.87	-40.8	-41.7	21.8	0.00e+00	0	44	0	1894776832	52	4171
2026-01-23 23:26:16.20	82.83	10.81	-40.9	-41.8	21.8	0.00e+00	0	44	0	1911554048	52	4224
2026-01-23 23:26:19.23	83.37	10.74	-41.1	-42.1	21.5	0.00e+00	0	44	0	1929379840	52	4342
2026-01-23 23:26:22.26	83.91	10.67	-41.1	-42.0	21.6	0.00e+00	0	44	0	1946157056	52	4328
2026-01-23 23:26:25.29	84.45	10.60	-41.2	-42.1	21.5	0.00e+00	0	44	0	1962934272	53	4123
2026-01-23 23:26:28.31	84.98	10.53	-41.3	-42.3	21.3	0.00e+00	0	44	0	1979711488	53	4201
2026-01-23 23:26:31.33	85.51	10.46	-41.2	-42.2	21.4	0.00e+00	0	44	0	1996488704	53	4152
2026-01-23 23:26:34.36	86.04	10.38	-41.3	-42.3	21.3	0.00e+00	0	44	0	2014314496	53	4200
2026-01-23 23:26:37.38	86.56	10.31	-41.4	-42.4	21.2	0.00e+00	0	44	0	2031091712	53	4256
2026-01-23 23:26:40.40	87.08	10.23	-41.2	-42.1	21.4	0.00e+00	0	44	0	2047868928	53	4137
2026-01-23 23:26:43.43	87.61	10.15	-41.1	-42.0	21.5	0.00e+00	0	44	0	2064646144	53	4074
2026-01-23 23:26:46.46	88.12	10.06	-41.2	-42.1	21.5	0.00e+00	0	44	0	2082471936	53	4108
2026-01-23 23:26:49.48	88.64	9.98	-41.3	-42.3	21.3	0.00e+00	0	44	0	2099249152	53	4204
2026-01-23 23:26:52.51	89.15	9.89	-41.3	-42.2	21.3	0.00e+00	0	44	0	2116026368	53	4166
2026-01-23 23:26:55.54	89.66	9.80	-41.4	-42.3	21.2	0.00e+00	0	44	0	2132803584	53	4224
2026-01-23 23:26:58.56	90.16	9.71	-41.5	-42.4	21.1	0.00e+00	0	44	0	2150629376	53	4275
2026-01-23 23:27:01.59	90.67	9.62	-41.7	-42.6	20.9	0.00e+00	0	44	0	2167406592	53	4378
2026-01-23 23:27:04.61	91.17	9.53	-41.4	-42.4	21.2	0.00e+00	0	44	0	2184183808	54	4011
2026-01-23 23:27:07.64	91.66	9.43	-41.4	-42.3	21.1	0.00e+00	0	44	0	2200961024	54	4002
2026-01-23 23:27:10.66	92.16	9.34	-41.7	-42.6	20.9	0.00e+00	0	44	0	2218786816	54	4135
2026-01-23 23:27:13.69	92.65	9.24	-42.1	-43.1	20.5	0.00e+00	0	44	0	2235564032	54	4341
2026-01-23 23:27:16.71	93.13	9.14	-42.0	-43.0	20.5	0.00e+00	0	44	0	2252341248	54	4306
2026-01-23 23:27:19.73	93.62	9.04	-41.6	-42.5	21.0	0.00e+00	0	44	0	2269118464	54	4083
2026-01-23 23:27:22.76	94.10	8.94	-41.8	-42.7	20.8	0.00e+00	0	44	0	2286944256	54	4181
2026-01-23 23:27:25.78	94.57	8.84	-42.0	-43.0	20.5	0.00e+00	0	44	0	2303721472	54	4321
2026-01-23 23:27:28.81	95.05	8.73	-41.8	-42.8	20.7	0.00e+00	0	44	0	2320498688	54	4209
2026-01-23 23:27:31.83	95.52	8.63	-41.9	-42.9	20.7	0.00e+00	0	44	0	2337275904	54	4270
2026-01-23 23:27:34.85	95.99	8.52	-41.6	-42.6	20.8	0.00e+00	0	44	0	2355101696	54	4119
2026-01-23 23:27:37.87	96.45	8.41	-41.7	-42.6	20.8	0.00e+00	0	44	0	2371878912	54	4134
2026-01-23 23:27:40.90	96.91	8.30	-42.2	-43.2	20.2	0.00e+00	0	44	0	2388656128	54	4418
2026-01-23 23:27:43.92	97.37	8.19	-42.4	-43.4	20.1	0.00e+00	0	44	0	2405433344	55	4283
2026-01-23 23:27:46.95	97.82	8.08	-42.3	-43.3	20.1	0.00e+00	0	44	0	2422210560	55	4235
2026-01-23 23:27:49.97	98.27	7.97	-42.1	-43.1	20.3	0.00e+00	0	44	0	2440036352	55	4129
2026-01-23 23:27:53.00	98.72	7.86	-42.4	-43.4	20.1	0.00e+00	0	44	0	2456813568	55	4253
2026-01-23 23:27:56.02	99.17	7.74	-42.4	-43.4	20.0	0.00e+00	0	44	0	2473590784	55	4261
2026-01-23 23:27:59.04	99.61	7.63	-42.5	-43.6	19.9	0.00e+00	0	44	0	2490368000	56	4119
2026-01-23 23:28:02.07	100.05	7.51	-42.2	-43.2	20.3	0.00e+00	0	44	0	2508193792	56	3931
2026-01-23 23:28:05.09	100.48	7.40	-42.6	-43.6	19.8	0.00e+00	0	44	0	2524971008	56	4136
2026-01-23 23:28:08.11	100.91	7.28	-41.9	-42.9	20.5	0.00e+00	0	44	0	2541748224	55	4020
2026-01-23 23:28:11.14	101.34	7.16	-42.4	-43.4	20.0	0.00e+00	0	44	0	2558525440	55	4253
2026-01-23 23:28:14.16	101.76	7.04	-42.3	-43.2	20.1	0.00e+00	0	44	0	2575302656	55	4193
2026-01-23 23:28:17.19	102.18	6.92	-42.1	-43.1	20.3	0.00e+00	0	44	0	2593128448	55	4107
2026-01-23 23:28:20.21	102.60	6.80	-42.6	-43.7	19.7	0.00e+00	0	44	0	2609905664	55	4402
2026-01-23 23:28:23.23	103.01	6.68	-43.0	-44.1	19.3	0.00e+00	0	44	0	2626682880	56	4386
2026-01-23 23:28:26.26	103.43	6.56	-42.7	-43.8	19.7	0.00e+00	0	44	0	2643460096	56	4200
2026-01-23 23:28:29.29	103.84	6.44	-42.7	-43.7	19.7	0.00e+00	0	44	0	2660237312	56	4181
2026-01-23 23:28:32.31	104.24	6.31	-42.6	-43.6	19.9	0.00e+00	0	44	0	2678063104	56	4139
2026-01-23 23:28:35.34	104.64	6.19	-42.6	-43.7	19.8	0.00e+00	0	44	0	2694840320	56	4156
2026-01-23 23:28:38.36	105.04	6.06	-43.3	-44.5	19.0	0.00e+00	0	44	0	2711617536	57	4296
2026-01-23 23:28:41.39	105.43	5.94	-43.1	-44.2	19.2	0.00e+00	0	44	0	2728394752	57	4181
2026-01-23 23:28:44.41	105.82	5.81	-43.3	-44.4	19.1	0.00e+00	0	44	0	2745171968	57	4275
2026-01-23 23:28:47.43	106.21	5.69	-43.1	-44.3	19.2	0.00e+00	0	44	0	2762997760	57	4196
2026-01-23 23:28:50.46	106.60	5.56	-43.2	-44.3	19.3	0.00e+00	0	44	0	2779774976	57	4213
2026-01-23 23:28:53.49	106.98	5.43	-43.4	-44.6	19.0	0.00e+00	0	44	0	2796552192	57	4348
2026-01-23 23:28:56.51	107.36	5.31	-43.5	-44.6	18.9	0.00e+00	0	44	0	2813329408	57	4365
2026-01-23 23:28:59.54	107.73	5.18	-43.5	-44.6	18.9	0.00e+00	0	44	0	2830106624	57	4374
2026-01-23 23:29:02.56	108.11	5.05	-43.5	-44.7	18.8	0.00e+00	0	44	0	2847932416	57	4410
2026-01-23 23:29:05.59	108.48	4.92	-53.0	-64.8	3.8	8.45e-01	0	44	104	2855272448	76	14958
2026-01-23 23:29:08.62	108.84	4.79	-53.5	-65.4	3.8	8.46e-01	0	44	104	2855272448	77	15171
2026-01-23 23:29:11.65	109.21	4.67	-53.8	-65.7	3.8	8.46e-01	0	44	104	2855272448	78	14868
2026-01-23 23:29:14.67	109.57	4.54	-53.9	-65.9	3.8	8.45e-01	0	44	104	2855272448	78	15188
2026-01-23 23:29:17.70	109.92	4.41	-54.0	-66.0	3.8	8.46e-01	0	44	104	2855272448	78	15247
2026-01-23 23:29:20.73	110.28	4.28	-54.1	-66.0	3.8	8.45e-01	0	44	104	2855272448	78	15389
2026-01-23 23:29:23.75	110.63	4.15	-54.1	-66.1	3.8	8.47e-01	0	44	104	2855272448	78	15441
2026-01-23 23:29:26.78	110.98	4.02	-54.2	-66.1	3.8	8.46e-01	0	44	104	2855272448	78	15574
2026-01-23 23:29:29.80	111.32	3.89	-54.2	-66.1	3.8	8.46e-01	0	44	104	2855272448	78	15553
2026-01-23 23:29:32.83	111.66	3.75	-54.2	-66.2	3.8	8.46e-01	0	44	104	2855272448	79	14793
2026-01-23 23:29:35.85	112.00	3.62	-54.1	-66.1	3.8	8.47e-01	0	44	104	2855272448	79	14574
2026-01-23 23:29:38.88	112.34	3.49	-54.1	-66.0	3.8	8.45e-01	0	44	104	2855272448	79	14537
2026-01-23 23:29:41.91	112.67	3.36	-54.0	-66.0	3.8	8.45e-01	0	44	104	2855272448	79	14477
2026-01-23 23:29:44.94	113.01	3.23	-54.1	-66.0	3.8	8.47e-01	0	44	104	2855272448	79	14503
2026-01-23 23:29:47.96	113.33	3.10	-54.0	-66.0	3.8	8.46e-01	0	44	104	2855272448	79	14421
2026-01-23 23:29:50.99	113.66	2.97	-54.0	-66.0	3.8	8.46e-01	0	44	104	2855272448	79	14440
2026-01-23 23:29:54.01	113.98	2.83	-54.0	-65.9	3.8	8.46e-01	0	44	104	2855272448	79	14333
2026-01-23 23:29:57.04	114.30	2.70	-53.9	-65.9	3.8	8.46e-01	0	44	104	2855272448	79	14296
2026-01-23 23:30:00.07	114.62	2.57	-53.9	-65.9	3.8	8.45e-01	0	44	104	2855272448	79	14271
2026-01-23 23:30:03.09	114.93	2.44	-54.2	-66.2	3.8	8.46e-01	0	44	104	2855272448	79	14719
2026-01-23 23:30:06.12	115.24	2.31	-54.1	-66.1	3.8	8.46e-01	0	44	104	2855272448	79	14548
2026-01-23 23:30:09.14	115.55	2.17	-54.0	-65.9	3.8	8.45e-01	0	44	104	2855272448	79	14304
2026-01-23 23:30:12.17	115.86	2.04	-53.9	-65.9	3.8	8.46e-01	0	44	104	2855272448	79	14210

#Closed at: 2026-01-23 23:30:14
#Recorded file [2855 MB]: D:/lorett/data/31041_260124_021936.dat