passes_logs/2026/01/23/R3.2S_Murmansk/R3.2S_Murmansk__20260123_074655_KANOPUS-V_5_rec.log

#Pass ID: 20260123_074655_KANOPUS-V 5
#Satellite: KANOPUS-V 5
#Configuration: KANOPUS-V_8320
#almurnet v.1.7.20251203
#Start time: 2026-01-23 07:46:55

#Version: 2.2.20231116
#Station: R3.2S_Murmansk
#Location: 33.079688 lon 68.888172 lat
#TLE: 1 43876U 18111A   26022.52701148  .00004818  00000+0  20478-3 0  9994
#TLE: 2 43876  97.3679 290.9053 0001819  88.4130 271.7316 15.23508812392615

#Time	Az	El	Level	Level2	SNR	BER	BlckErr	Temp	State	Recorded	gain1	gain2
2026-01-23 07:46:55.82	159.69	2.03	-55.3	-64.2	3.8	7.46e-01	0	41	0	0	81	10452
2026-01-23 07:46:58.84	159.72	2.25	-55.5	-64.3	3.8	7.45e-01	0	41	104	0	81	10619
2026-01-23 07:47:01.87	159.74	2.46	-55.4	-64.3	3.8	7.47e-01	0	41	104	0	81	10566
2026-01-23 07:47:04.89	159.77	2.68	-55.4	-64.2	3.8	7.46e-01	0	41	104	0	81	10469
2026-01-23 07:47:07.92	159.80	2.90	-55.2	-64.0	3.8	7.46e-01	0	41	104	0	81	10199
2026-01-23 07:47:10.94	159.82	3.12	-55.0	-63.9	3.8	7.43e-01	0	41	104	0	81	10064
2026-01-23 07:47:13.96	159.85	3.35	-54.6	-63.5	3.8	7.46e-01	0	42	104	0	81	9640
2026-01-23 07:47:16.99	159.88	3.58	-54.0	-62.8	3.8	7.45e-01	0	41	104	0	80	9468
2026-01-23 07:47:20.02	159.91	3.81	-53.6	-62.2	3.8	7.45e-01	0	42	104	0	79	9303
2026-01-23 07:47:23.04	159.94	4.04	-53.7	-62.3	3.8	7.43e-01	0	42	104	0	79	9473
2026-01-23 07:47:26.06	159.96	4.28	-53.0	-60.0	3.8	7.42e-01	0	42	104	0	78	7710
2026-01-23 07:47:29.09	159.99	4.51	-50.1	-53.7	7.4	6.54e-01	0	42	0	39845888	72	5237
2026-01-23 07:47:32.11	160.02	4.76	-47.9	-50.6	10.6	6.11e-01	0	42	0	85983232	67	4908
2026-01-23 07:47:35.14	160.05	5.00	-45.9	-48.3	13.0	6.01e-01	0	42	0	134217728	63	4711
2026-01-23 07:47:38.16	160.08	5.25	-50.0	-53.5	7.5	6.42e-01	0	42	104	155189248	72	5132
2026-01-23 07:47:41.18	160.12	5.50	-48.8	-51.9	9.3	6.20e-01	0	42	0	199229440	68	5366
2026-01-23 07:47:44.21	160.15	5.75	-45.8	-48.1	13.2	5.90e-01	0	42	0	245366784	63	4610
2026-01-23 07:47:47.23	160.18	6.01	-45.9	-48.2	13.0	6.03e-01	0	42	0	293601280	63	4699
2026-01-23 07:47:50.25	160.21	6.27	-46.1	-48.5	12.8	6.04e-01	0	42	0	339738624	63	4825
2026-01-23 07:47:53.28	160.24	6.53	-46.4	-48.8	12.6	6.04e-01	0	43	0	385875968	63	4985
2026-01-23 07:47:56.31	160.28	6.80	-45.7	-48.0	13.3	6.03e-01	0	42	0	432013312	63	4580
2026-01-23 07:47:59.33	160.31	7.07	-45.2	-47.4	13.9	6.02e-01	0	43	0	478150656	62	4513
2026-01-23 07:48:02.35	160.35	7.35	-45.2	-47.4	13.9	6.00e-01	0	43	0	524288000	62	4531
2026-01-23 07:48:05.38	160.38	7.63	-44.8	-47.0	14.2	6.03e-01	0	43	0	570425344	61	4563
2026-01-23 07:48:08.41	160.42	7.91	-44.8	-47.0	14.2	6.05e-01	0	43	0	616562688	61	4552
2026-01-23 07:48:11.43	160.45	8.20	-44.6	-46.8	14.5	6.03e-01	0	43	0	664797184	61	4446
2026-01-23 07:48:14.45	160.49	8.49	-44.6	-46.8	14.5	6.01e-01	0	43	0	710934528	60	4716
2026-01-23 07:48:17.48	160.53	8.79	-44.4	-46.5	14.7	6.02e-01	0	43	0	757071872	60	4577
2026-01-23 07:48:20.50	160.57	9.09	-44.2	-46.4	14.8	6.02e-01	0	43	0	803209216	60	4500
2026-01-23 07:48:23.52	160.61	9.40	-44.2	-46.3	14.9	6.05e-01	0	43	0	849346560	60	4468
2026-01-23 07:48:26.54	160.65	9.71	-44.0	-46.1	15.1	6.02e-01	0	43	0	897581056	59	4625
2026-01-23 07:48:29.57	160.69	10.03	-44.0	-46.2	15.1	6.01e-01	0	43	0	943718400	59	4653
2026-01-23 07:48:32.59	160.73	10.35	-44.0	-46.1	15.1	6.01e-01	0	43	0	989855744	59	4630
2026-01-23 07:48:35.62	160.77	10.68	-43.8	-45.9	15.3	6.00e-01	0	43	0	1033895936	59	4540
2026-01-23 07:48:38.64	160.81	11.02	-43.6	-45.7	15.5	6.06e-01	0	43	0	1082130432	59	4420
2026-01-23 07:48:41.67	160.86	11.36	-43.6	-45.7	15.6	6.01e-01	0	43	0	1128267776	59	4425
2026-01-23 07:48:44.69	160.90	11.71	-43.6	-45.6	15.7	5.99e-01	0	43	0	1174405120	59	4382
2026-01-23 07:48:47.72	160.95	12.06	-43.6	-45.7	15.6	5.98e-01	0	43	0	1220542464	58	4654
2026-01-23 07:48:50.74	161.00	12.42	-43.1	-45.1	16.1	6.00e-01	0	43	0	1268776960	58	4375
2026-01-23 07:48:53.77	161.04	12.79	-43.2	-45.2	16.0	6.06e-01	0	43	0	1314914304	58	4408
2026-01-23 07:48:56.79	161.09	13.17	-42.9	-44.9	16.3	5.99e-01	0	43	0	1361051648	57	4500
2026-01-23 07:48:59.82	161.14	13.55	-42.9	-44.8	16.3	5.98e-01	0	43	0	1407188992	57	4493
2026-01-23 07:49:02.84	161.20	13.94	-42.6	-44.5	16.6	5.98e-01	0	43	0	1453326336	57	4334
2026-01-23 07:49:05.86	161.25	14.34	-42.4	-44.4	16.7	5.99e-01	0	43	0	1499463680	56	4513
2026-01-23 07:49:08.88	161.30	14.75	-42.3	-44.2	16.9	6.06e-01	0	43	0	1545601024	56	4413
2026-01-23 07:49:11.91	161.36	15.17	-42.2	-44.1	17.0	5.99e-01	0	43	0	1591738368	56	4352
2026-01-23 07:49:14.93	161.42	15.60	-41.9	-43.8	17.3	6.00e-01	0	43	0	1639972864	55	4491
2026-01-23 07:49:17.96	161.48	16.04	-41.9	-43.7	17.4	6.02e-01	0	43	0	1686110208	55	4441
2026-01-23 07:49:20.99	161.54	16.49	-41.8	-43.6	17.5	6.01e-01	0	43	0	1732247552	55	4388
2026-01-23 07:49:24.01	161.60	16.95	-41.6	-43.4	17.7	6.05e-01	0	43	0	1778384896	55	4276
2026-01-23 07:49:27.03	161.66	17.42	-41.5	-43.3	17.8	6.02e-01	0	43	0	1826619392	54	4460
2026-01-23 07:49:30.06	161.73	17.90	-41.4	-43.2	18.0	6.03e-01	0	43	0	1872756736	54	4395
2026-01-23 07:49:33.08	161.80	18.40	-41.2	-43.0	18.1	6.02e-01	0	43	0	1918894080	54	4308
2026-01-23 07:49:36.11	161.87	18.90	-41.2	-42.9	18.1	6.01e-01	0	43	0	1965031424	54	4273
2026-01-23 07:49:39.13	161.94	19.43	-41.0	-42.7	18.3	6.00e-01	0	43	0	2011168768	53	4429
2026-01-23 07:49:42.16	162.02	19.96	-40.8	-42.6	18.4	6.00e-01	0	43	0	2057306112	53	4390
2026-01-23 07:49:45.18	162.10	20.51	-40.8	-42.7	18.3	6.00e-01	0	43	0	2103443456	53	4399
2026-01-23 07:49:48.20	162.18	21.08	-40.7	-42.6	18.4	6.02e-01	0	43	0	2149580800	53	4355
2026-01-23 07:49:51.23	162.26	21.67	-40.4	-42.3	18.6	6.01e-01	0	43	0	2197815296	52	4453
2026-01-23 07:49:54.25	162.35	22.27	-40.3	-42.2	18.6	6.02e-01	0	43	0	2243952640	52	4394
2026-01-23 07:49:57.27	162.44	22.88	-40.3	-42.1	18.7	6.03e-01	0	44	0	2290089984	52	4381
2026-01-23 07:50:00.30	162.54	23.52	-40.3	-42.0	18.7	5.98e-01	0	43	0	2336227328	52	4335
2026-01-23 07:50:03.32	162.64	24.18	-40.6	-42.4	18.5	6.01e-01	0	44	0	2382364672	52	4508
2026-01-23 07:50:06.35	162.74	24.86	-40.8	-42.6	18.4	5.99e-01	0	43	0	2430599168	52	4604
2026-01-23 07:50:09.37	162.85	25.56	-40.8	-42.5	18.4	6.01e-01	0	43	0	2476736512	52	4580
2026-01-23 07:50:12.39	162.96	26.28	-40.5	-42.2	18.7	6.02e-01	0	44	0	2520776704	52	4430
2026-01-23 07:50:15.42	163.08	27.03	-40.3	-42.1	18.7	6.01e-01	0	44	0	2566914048	52	4343
2026-01-23 07:50:18.44	163.20	27.81	-40.4	-42.2	18.7	5.91e-01	0	43	0	2615148544	52	4398
2026-01-23 07:50:21.47	163.33	28.61	-40.5	-42.2	18.7	5.92e-01	0	43	0	2661285888	52	4406
2026-01-23 07:50:24.49	163.47	29.44	-40.5	-42.3	18.6	5.96e-01	0	44	0	2707423232	52	4476
2026-01-23 07:50:27.52	163.61	30.30	-40.5	-42.4	18.5	6.01e-01	0	44	0	2753560576	52	4543
2026-01-23 07:50:30.55	163.76	31.19	-40.7	-42.7	18.3	5.98e-01	0	43	0	2801795072	52	4687
2026-01-23 07:50:33.57	163.92	32.11	-40.7	-42.8	18.3	5.91e-01	0	43	0	2847932416	52	4756
2026-01-23 07:50:36.60	164.09	33.07	-40.6	-42.7	18.4	5.99e-01	0	43	0	2894069760	52	4661
2026-01-23 07:50:39.62	164.27	34.07	-40.2	-42.2	18.7	5.74e-01	0	43	0	2940207104	52	4431
2026-01-23 07:50:42.64	164.46	35.10	-39.9	-42.1	18.9	5.74e-01	0	43	0	2986344448	51	4635
2026-01-23 07:50:45.67	164.67	36.18	-39.4	-41.5	19.2	5.77e-01	0	44	0	3032481792	50	4595
2026-01-23 07:50:48.69	164.89	37.29	-40.7	-41.3	19.3	5.77e-01	0	43	0	3078619136	52	4001
2026-01-23 07:50:51.71	165.12	38.45	-54.9	-63.8	3.8	7.45e-01	0	44	104	3097493504	80	10601
2026-01-23 07:50:54.74	165.37	39.66	-54.9	-63.8	3.8	7.45e-01	0	43	104	3097493504	80	10552
2026-01-23 07:50:57.76	165.65	40.92	-54.9	-63.8	3.8	7.46e-01	0	44	104	3097493504	80	10569
2026-01-23 07:51:00.79	165.94	42.23	-55.0	-63.8	3.8	7.45e-01	0	44	104	3097493504	80	10607
2026-01-23 07:51:03.81	166.26	43.59	-55.0	-63.8	3.8	7.47e-01	0	43	104	3097493504	80	10574
2026-01-23 07:51:06.83	166.61	45.01	-55.0	-63.8	3.8	7.45e-01	0	43	104	3097493504	80	10600
2026-01-23 07:51:09.85	166.99	46.48	-55.0	-63.8	3.8	7.46e-01	0	43	104	3097493504	80	10611
2026-01-23 07:51:12.87	167.41	48.01	-55.0	-63.8	3.8	7.46e-01	0	44	104	3097493504	80	10655
2026-01-23 07:51:15.90	167.88	49.61	-55.0	-63.9	3.8	7.45e-01	0	44	104	3097493504	80	10684
2026-01-23 07:51:18.92	168.40	51.27	-55.0	-63.9	3.8	7.45e-01	0	44	104	3097493504	80	10679
2026-01-23 07:51:21.95	168.98	53.00	-55.0	-63.8	3.8	7.45e-01	0	44	104	3097493504	80	10648
2026-01-23 07:51:24.97	169.63	54.78	-55.1	-63.9	3.8	7.47e-01	0	44	104	3097493504	80	10758
2026-01-23 07:51:28.00	170.38	56.64	-55.1	-63.9	3.8	7.45e-01	0	43	104	3097493504	80	10741
2026-01-23 07:51:31.02	171.23	58.56	-55.1	-63.9	3.8	7.46e-01	0	44	104	3097493504	80	10762
2026-01-23 07:51:34.04	172.22	60.54	-55.1	-63.9	3.8	7.45e-01	0	43	104	3097493504	80	10770
2026-01-23 07:51:37.07	173.39	62.58	-55.2	-64.0	3.8	7.46e-01	0	44	104	3097493504	80	10837
2026-01-23 07:51:40.08	174.76	64.67	-55.2	-64.0	3.8	7.47e-01	0	43	104	3097493504	80	10857
2026-01-23 07:51:43.11	176.42	66.82	-55.2	-64.0	3.8	7.43e-01	0	44	104	3097493504	80	10891
2026-01-23 07:51:46.13	178.46	69.01	-55.2	-64.0	3.8	7.44e-01	0	44	104	3097493504	81	10248
2026-01-23 07:51:49.15	181.02	71.22	-55.3	-64.1	3.8	7.46e-01	0	44	104	3097493504	81	10351
2026-01-23 07:51:52.18	184.31	73.44	-55.3	-64.1	3.8	7.46e-01	0	43	104	3097493504	81	10373
2026-01-23 07:51:55.20	188.67	75.63	-55.3	-64.1	3.8	7.46e-01	0	44	104	3097493504	81	10392
2026-01-23 07:51:58.23	194.65	77.76	-55.3	-64.1	3.8	7.47e-01	0	44	104	3097493504	81	10344
2026-01-23 07:52:01.25	203.07	79.72	-55.3	-64.1	3.8	7.45e-01	0	44	104	3097493504	81	10397
2026-01-23 07:52:04.27	215.16	81.39	-55.3	-64.2	3.8	7.45e-01	0	44	104	3097493504	81	10443
2026-01-23 07:52:07.30	232.04	82.53	-55.4	-64.2	3.8	7.44e-01	0	44	104	3097493504	81	10443
2026-01-23 07:52:10.32	252.50	82.86	-55.3	-64.1	3.8	7.45e-01	0	44	104	3097493504	81	10392
2026-01-23 07:52:13.34	272.23	82.27	-55.4	-64.2	3.8	7.46e-01	0	44	104	3097493504	81	10498
2026-01-23 07:52:16.36	287.64	80.95	-55.4	-64.2	3.8	7.45e-01	0	43	104	3097493504	81	10497
2026-01-23 07:52:19.38	298.53	79.18	-55.4	-64.3	3.8	7.45e-01	0	44	104	3097493504	81	10534
2026-01-23 07:52:22.41	306.14	77.15	-55.4	-64.2	3.8	7.45e-01	0	44	104	3097493504	81	10505
2026-01-23 07:52:25.43	311.57	75.01	-55.4	-64.2	3.8	7.45e-01	0	43	104	3097493504	81	10528
2026-01-23 07:52:28.46	315.58	72.80	-55.5	-64.3	3.8	7.45e-01	0	43	104	3097493504	81	10558
2026-01-23 07:52:31.48	318.63	70.59	-55.5	-64.3	3.8	7.44e-01	0	44	104	3097493504	81	10612
2026-01-23 07:52:34.50	321.02	68.39	-55.4	-64.2	3.8	7.47e-01	0	43	104	3097493504	81	10528
2026-01-23 07:52:37.53	322.94	66.21	-55.5	-64.3	3.8	7.46e-01	0	43	104	3097493504	81	10564
2026-01-23 07:52:40.56	324.51	64.08	-55.5	-64.3	3.8	7.46e-01	0	44	104	3097493504	81	10575
2026-01-23 07:52:43.58	325.82	62.00	-55.5	-64.3	3.8	7.44e-01	0	44	104	3097493504	81	10571
2026-01-23 07:52:46.60	326.92	59.99	-55.4	-64.2	3.8	7.47e-01	0	44	104	3097493504	81	10516
2026-01-23 07:52:49.63	327.87	58.02	-55.4	-64.2	3.8	7.43e-01	0	43	104	3097493504	81	10489
2026-01-23 07:52:52.65	328.69	56.13	-55.4	-64.2	3.8	7.46e-01	0	44	104	3097493504	81	10518
2026-01-23 07:52:55.68	329.41	54.30	-55.4	-64.2	3.8	7.44e-01	0	44	104	3097493504	81	10484
2026-01-23 07:52:58.70	330.04	52.53	-55.3	-64.2	3.8	7.45e-01	0	44	104	3097493504	81	10469
2026-01-23 07:53:01.72	330.60	50.83	-55.3	-64.1	3.8	7.44e-01	0	44	104	3097493504	81	10405
2026-01-23 07:53:04.75	331.10	49.19	-55.3	-64.2	3.8	7.43e-01	0	44	104	3097493504	81	10424
2026-01-23 07:53:07.77	331.56	47.62	-55.3	-64.2	3.8	7.45e-01	0	43	104	3097493504	81	10414
2026-01-23 07:53:10.79	331.97	46.11	-55.3	-64.1	3.8	7.45e-01	0	44	104	3097493504	81	10320
2026-01-23 07:53:13.82	332.34	44.65	-55.2	-64.0	3.8	7.44e-01	0	44	104	3097493504	81	10292
2026-01-23 07:53:16.84	332.68	43.26	-55.2	-64.0	3.8	7.46e-01	0	44	104	3097493504	81	10261
2026-01-23 07:53:19.87	332.99	41.91	-55.2	-64.0	3.8	7.45e-01	0	44	104	3097493504	81	10210
2026-01-23 07:53:22.89	333.28	40.62	-55.2	-64.0	3.8	7.45e-01	0	44	104	3097493504	81	10188
2026-01-23 07:53:25.92	333.55	39.38	-55.2	-63.9	3.8	7.44e-01	0	44	104	3097493504	81	10173
2026-01-23 07:53:28.94	333.79	38.19	-55.1	-63.9	3.8	7.46e-01	0	44	104	3097493504	81	10163
2026-01-23 07:53:31.96	334.02	37.05	-55.1	-64.0	3.8	7.45e-01	0	44	104	3097493504	81	10197
2026-01-23 07:53:34.99	334.24	35.94	-55.1	-63.9	3.8	7.45e-01	0	43	104	3097493504	81	10085
2026-01-23 07:53:38.01	334.44	34.89	-55.1	-63.9	3.8	7.44e-01	0	44	104	3097493504	81	10112
2026-01-23 07:53:41.03	334.63	33.87	-55.1	-63.9	3.8	7.44e-01	0	44	104	3097493504	81	10116
2026-01-23 07:53:44.05	334.81	32.89	-55.1	-63.9	3.8	7.45e-01	0	43	104	3097493504	81	10078
2026-01-23 07:53:47.08	334.97	31.94	-55.0	-63.8	3.8	7.45e-01	0	44	104	3097493504	81	10012
2026-01-23 07:53:50.10	335.13	31.03	-55.0	-63.8	3.8	7.48e-01	0	43	104	3097493504	81	10039
2026-01-23 07:53:53.13	335.28	30.15	-54.9	-63.7	3.8	7.45e-01	0	44	104	3097493504	81	9935
2026-01-23 07:53:56.15	335.42	29.30	-54.9	-63.7	3.8	7.46e-01	0	44	104	3097493504	81	9940
2026-01-23 07:53:59.18	335.56	28.48	-54.9	-63.7	3.8	7.45e-01	0	43	104	3097493504	81	9906
2026-01-23 07:54:02.20	335.69	27.69	-54.9	-63.7	3.8	7.46e-01	0	44	104	3097493504	81	9871
2026-01-23 07:54:05.23	335.81	26.92	-54.9	-63.7	3.8	7.46e-01	0	44	104	3097493504	81	9846
2026-01-23 07:54:08.25	335.93	26.19	-54.8	-63.7	3.8	7.47e-01	0	44	104	3097493504	81	9838
2026-01-23 07:54:11.27	336.04	25.47	-54.8	-63.6	3.8	7.44e-01	0	44	104	3097493504	81	9751
2026-01-23 07:54:14.29	336.15	24.78	-54.8	-63.6	3.8	7.45e-01	0	43	104	3097493504	81	9774
2026-01-23 07:54:17.32	336.25	24.11	-54.8	-63.5	3.8	7.44e-01	0	44	104	3097493504	81	9711
2026-01-23 07:54:20.35	336.35	23.46	-54.7	-63.6	3.8	7.44e-01	0	44	104	3097493504	81	9731
2026-01-23 07:54:23.37	336.44	22.82	-54.7	-63.5	3.8	7.44e-01	0	44	104	3097493504	81	9678
2026-01-23 07:54:26.39	336.53	22.21	-54.7	-63.5	3.8	7.46e-01	0	43	104	3097493504	81	9665
2026-01-23 07:54:29.42	336.62	21.62	-54.7	-63.5	3.8	7.45e-01	0	44	104	3097493504	81	9663
2026-01-23 07:54:32.45	336.70	21.04	-54.6	-63.5	3.8	7.46e-01	0	43	104	3097493504	81	9620
2026-01-23 07:54:35.47	336.79	20.48	-54.6	-63.4	3.8	7.45e-01	0	44	104	3097493504	81	9584
2026-01-23 07:54:38.50	336.86	19.93	-54.6	-63.4	3.8	7.46e-01	0	44	104	3097493504	81	9580
2026-01-23 07:54:41.52	336.94	19.40	-54.6	-63.4	3.8	7.46e-01	0	44	104	3097493504	81	9548
2026-01-23 07:54:44.54	337.01	18.88	-54.6	-63.4	3.8	7.43e-01	0	44	104	3097493504	81	9529
2026-01-23 07:54:47.57	337.08	18.38	-54.5	-63.3	3.8	7.47e-01	0	44	104	3097493504	81	9462
2026-01-23 07:54:50.59	337.15	17.89	-54.5	-63.3	3.8	7.45e-01	0	43	104	3097493504	81	9431
2026-01-23 07:54:53.62	337.22	17.41	-54.5	-63.3	3.8	7.43e-01	0	44	104	3097493504	80	9974
2026-01-23 07:54:56.64	337.29	16.94	-54.4	-63.3	3.8	7.44e-01	0	44	104	3097493504	80	9984
2026-01-23 07:54:59.67	337.35	16.49	-54.4	-63.2	3.8	7.45e-01	0	44	104	3097493504	80	9944
2026-01-23 07:55:02.69	337.41	16.04	-54.4	-63.2	3.8	7.44e-01	0	44	104	3097493504	80	9861
2026-01-23 07:55:05.71	337.47	15.61	-54.4	-63.2	3.8	7.45e-01	0	44	104	3097493504	80	9854
2026-01-23 07:55:08.74	337.53	15.18	-54.3	-63.2	3.8	7.45e-01	0	44	104	3097493504	80	9846
2026-01-23 07:55:11.76	337.58	14.77	-54.3	-63.1	3.8	7.44e-01	0	43	104	3097493504	80	9818
2026-01-23 07:55:14.79	337.64	14.36	-54.3	-63.1	3.8	7.47e-01	0	43	104	3097493504	80	9799
2026-01-23 07:55:17.81	337.69	13.97	-54.3	-63.1	3.8	7.44e-01	0	43	104	3097493504	80	9785
2026-01-23 07:55:20.84	337.75	13.58	-54.2	-63.1	3.8	7.45e-01	0	43	104	3097493504	80	9718
2026-01-23 07:55:23.86	337.80	13.20	-54.2	-63.0	3.8	7.46e-01	0	43	104	3097493504	80	9711
2026-01-23 07:55:26.89	337.85	12.82	-54.2	-63.0	3.8	7.44e-01	0	43	104	3097493504	80	9654
2026-01-23 07:55:29.91	337.90	12.46	-54.2	-63.0	3.8	7.43e-01	0	43	104	3097493504	80	9672
2026-01-23 07:55:32.94	337.95	12.10	-54.1	-62.9	3.8	7.45e-01	0	43	104	3097493504	80	9588
2026-01-23 07:55:35.96	337.99	11.75	-54.1	-62.9	3.8	7.45e-01	0	44	104	3097493504	80	9564
2026-01-23 07:55:38.98	338.04	11.40	-54.1	-62.9	3.8	7.47e-01	0	44	104	3097493504	80	9602
2026-01-23 07:55:42.01	338.08	11.06	-54.1	-62.9	3.8	7.46e-01	0	43	104	3097493504	80	9572
2026-01-23 07:55:45.03	338.13	10.73	-54.0	-62.9	3.8	7.47e-01	0	43	104	3097493504	80	9516
2026-01-23 07:55:48.06	338.17	10.40	-54.0	-62.9	3.8	7.45e-01	0	44	104	3097493504	80	9517
2026-01-23 07:55:51.08	338.21	10.08	-54.0	-62.8	3.8	7.46e-01	0	44	104	3097493504	80	9467
2026-01-23 07:55:54.11	338.26	9.76	-54.0	-62.8	3.8	7.46e-01	0	43	104	3097493504	80	9477
2026-01-23 07:55:57.13	338.30	9.45	-54.0	-62.9	3.8	7.45e-01	0	43	104	3097493504	79	10068
2026-01-23 07:56:00.16	338.34	9.15	-54.0	-62.8	3.8	7.47e-01	0	43	104	3097493504	79	10053
2026-01-23 07:56:03.19	338.38	8.85	-54.0	-62.8	3.8	7.44e-01	0	44	104	3097493504	79	9984
2026-01-23 07:56:06.21	338.42	8.55	-54.0	-62.8	3.8	7.45e-01	0	44	104	3097493504	79	10030
2026-01-23 07:56:09.24	338.45	8.26	-53.9	-62.7	3.8	7.45e-01	0	43	104	3097493504	79	9889
2026-01-23 07:56:12.26	338.49	7.97	-53.9	-62.7	3.8	7.46e-01	0	44	104	3097493504	79	9887
2026-01-23 07:56:15.28	338.53	7.69	-53.8	-62.6	3.8	7.44e-01	0	44	104	3097493504	79	9793
2026-01-23 07:56:18.30	338.57	7.42	-53.9	-62.7	3.8	7.47e-01	0	44	104	3097493504	79	9922
2026-01-23 07:56:21.33	338.60	7.14	-53.8	-62.6	3.8	7.44e-01	0	43	104	3097493504	79	9771
2026-01-23 07:56:24.35	338.64	6.87	-53.7	-62.6	3.8	7.45e-01	0	44	104	3097493504	79	9718
2026-01-23 07:56:27.38	338.67	6.60	-53.7	-62.5	3.8	7.44e-01	0	44	104	3097493504	79	9653
2026-01-23 07:56:30.40	338.71	6.34	-53.7	-62.5	3.8	7.45e-01	0	44	104	3097493504	79	9653
2026-01-23 07:56:33.43	338.74	6.08	-53.6	-62.5	3.8	7.46e-01	0	44	104	3097493504	79	9608
2026-01-23 07:56:36.45	338.77	5.83	-53.5	-62.3	3.8	7.44e-01	0	44	104	3097493504	79	9491
2026-01-23 07:56:39.48	338.81	5.57	-53.5	-62.3	3.8	7.46e-01	0	44	104	3097493504	79	9455
2026-01-23 07:56:42.50	338.84	5.33	-53.5	-62.3	3.8	7.45e-01	0	44	104	3097493504	78	10019
2026-01-23 07:56:45.52	338.87	5.08	-53.5	-62.3	3.8	7.44e-01	0	44	104	3097493504	78	9970
2026-01-23 07:56:48.55	338.90	4.84	-54.2	-63.0	3.8	7.45e-01	0	44	104	3097493504	78	10847
2026-01-23 07:56:51.57	338.94	4.60	-54.6	-63.4	3.8	7.45e-01	0	44	104	3097493504	79	10717
2026-01-23 07:56:54.59	338.97	4.36	-54.7	-63.5	3.8	7.44e-01	0	44	104	3097493504	80	10248
2026-01-23 07:56:57.62	339.00	4.12	-54.7	-63.5	3.8	7.45e-01	0	43	104	3097493504	80	10231
2026-01-23 07:57:00.64	339.03	3.89	-54.4	-63.2	3.8	7.45e-01	0	44	104	3097493504	80	9924
2026-01-23 07:57:03.67	339.06	3.66	-54.5	-63.3	3.8	7.47e-01	0	44	104	3097493504	80	10058
2026-01-23 07:57:06.69	339.09	3.44	-54.6	-63.4	3.8	7.44e-01	0	43	104	3097493504	80	10155
2026-01-23 07:57:09.71	339.12	3.21	-54.5	-63.4	3.8	7.46e-01	0	44	104	3097493504	80	10060
2026-01-23 07:57:12.74	339.15	2.99	-54.5	-63.4	3.8	7.44e-01	0	44	104	3097493504	80	10094
2026-01-23 07:57:15.76	339.17	2.77	-54.5	-63.4	3.8	7.47e-01	0	44	104	3097493504	80	10063
2026-01-23 07:57:18.79	339.20	2.55	-54.5	-63.3	3.8	7.46e-01	0	44	104	3097493504	80	10039
2026-01-23 07:57:21.81	339.23	2.34	-54.5	-63.3	3.8	7.45e-01	0	44	104	3097493504	80	10023
2026-01-23 07:57:24.84	339.26	2.13	-54.5	-63.3	3.8	7.45e-01	0	44	104	3097493504	80	10005

#Closed at: 2026-01-23 07:57:27
#Recorded file [3097 MB]: D:/lorett/data/31041_260123_104655.dat