passes_logs/2026/01/23/R3.2S_Murmansk/R3.2S_Murmansk__20260123_215925_JL1KF02B03_rec.log

#Pass ID: 20260123_215925_JL1KF02B03
#Satellite: JL1KF02B03
#Configuration: 01B_900M
#almurnet v.1.7.20251203
#Start time: 2026-01-23 21:59:24

#Version: 2.2.20231116
#Station: R3.2S_Murmansk
#Location: 33.079688 lon 68.888172 lat
#TLE: 1 61190U 24169B   26022.91257898  .00006723  00000+0  42235-3 0  9996
#TLE: 2 61190  97.5626 113.9295 0014746 155.0471 205.1474 15.09499681 73914

#Time	Az	El	Level	Level2	SNR	BER	BlckErr	Temp	State	Recorded	gain1	gain2
2026-01-23 21:59:24.98	218.44	2.00	-54.8	-56.8	6.3	0.00e+00	0	45	0	0	80	19019
2026-01-23 21:59:27.89	218.74	2.16	-55.0	-57.1	6.2	0.00e+00	0	45	104	0	81	18582
2026-01-23 21:59:30.80	219.04	2.33	-55.0	-57.1	6.2	0.00e+00	0	45	104	0	81	18503
2026-01-23 21:59:33.70	219.34	2.50	-54.9	-57.0	6.2	0.00e+00	0	45	104	0	81	18267
2026-01-23 21:59:36.61	219.65	2.66	-54.8	-56.8	6.2	0.00e+00	0	45	104	0	81	17961
2026-01-23 21:59:39.51	219.96	2.83	-54.7	-56.7	6.2	0.00e+00	0	45	104	0	81	17763
2026-01-23 21:59:42.42	220.27	3.00	-54.5	-56.6	6.2	0.00e+00	0	45	104	0	81	17423
2026-01-23 21:59:45.33	220.59	3.17	-54.2	-56.2	6.2	0.00e+00	0	45	104	0	80	17739
2026-01-23 21:59:48.24	220.92	3.34	-53.4	-55.5	6.2	0.00e+00	0	45	104	0	78	18253
2026-01-23 21:59:51.15	221.24	3.51	-53.3	-55.4	6.2	0.00e+00	0	46	104	0	78	18105
2026-01-23 21:59:54.06	221.58	3.68	-53.3	-55.4	6.2	0.00e+00	0	46	104	0	78	18056
2026-01-23 21:59:56.97	221.92	3.86	-53.3	-55.4	6.2	0.00e+00	0	46	104	0	78	18028
2026-01-23 21:59:59.88	222.26	4.03	-53.3	-55.3	6.2	0.00e+00	0	46	104	0	78	17962
2026-01-23 22:00:02.79	222.61	4.20	-53.3	-55.3	6.2	0.00e+00	0	46	104	0	78	17932
2026-01-23 22:00:05.69	222.96	4.38	-53.3	-55.4	6.2	0.00e+00	0	46	104	0	78	18027
2026-01-23 22:00:08.60	223.32	4.55	-53.2	-55.4	6.2	0.00e+00	0	46	104	0	78	18002
2026-01-23 22:00:11.51	223.68	4.73	-53.3	-55.4	6.2	0.00e+00	0	46	104	0	78	17977
2026-01-23 22:00:14.41	224.05	4.91	-53.2	-55.3	6.2	0.00e+00	0	46	104	0	78	17932
2026-01-23 22:00:17.32	224.42	5.08	-53.4	-55.5	6.2	0.00e+00	0	46	104	0	78	18256
2026-01-23 22:00:20.23	224.80	5.26	-53.3	-55.3	6.2	0.00e+00	0	46	104	0	78	17954
2026-01-23 22:00:23.15	225.18	5.44	-53.3	-55.4	6.2	0.00e+00	0	46	104	0	78	18086
2026-01-23 22:00:26.06	225.57	5.62	-53.1	-55.2	6.2	0.00e+00	0	46	104	0	78	17713
2026-01-23 22:00:28.97	225.97	5.80	-53.2	-55.3	6.2	0.00e+00	0	46	104	0	78	17833
2026-01-23 22:00:31.88	226.37	5.98	-53.2	-55.3	6.2	0.00e+00	0	46	104	0	78	17889
2026-01-23 22:00:34.79	226.78	6.16	-53.2	-55.3	6.2	0.00e+00	0	46	104	0	78	17930
2026-01-23 22:00:37.69	227.19	6.34	-53.1	-55.2	6.2	0.00e+00	0	46	104	0	78	17763
2026-01-23 22:00:40.60	227.61	6.52	-53.2	-55.2	6.2	0.00e+00	0	46	104	0	78	17745
2026-01-23 22:00:43.50	228.04	6.71	-53.3	-55.4	6.2	0.00e+00	0	46	104	0	78	17975
2026-01-23 22:00:46.41	228.47	6.89	-53.2	-55.3	6.2	0.00e+00	0	47	104	0	78	17795
2026-01-23 22:00:49.32	228.91	7.07	-53.2	-55.3	6.2	0.00e+00	0	46	104	0	78	17825
2026-01-23 22:00:52.22	229.35	7.26	-53.2	-55.3	6.2	0.00e+00	0	47	104	0	78	17872
2026-01-23 22:00:55.13	229.80	7.44	-53.2	-55.3	6.2	0.00e+00	0	46	104	0	78	17922
2026-01-23 22:00:58.05	230.26	7.63	-53.2	-55.2	6.2	0.00e+00	0	47	104	0	78	17761
2026-01-23 22:01:00.96	230.73	7.81	-53.2	-55.3	6.2	0.00e+00	0	46	104	0	78	17868
2026-01-23 22:01:03.88	231.20	8.00	-53.2	-55.3	6.2	0.00e+00	0	47	104	0	78	17832
2026-01-23 22:01:06.78	231.68	8.18	-53.2	-55.3	6.2	0.00e+00	0	47	104	0	78	17853
2026-01-23 22:01:09.69	232.17	8.37	-53.1	-55.2	6.2	0.00e+00	0	47	104	0	78	17730
2026-01-23 22:01:12.60	232.66	8.56	-53.2	-55.3	6.2	0.00e+00	0	47	104	0	78	17792
2026-01-23 22:01:15.51	233.16	8.74	-53.2	-55.3	6.2	0.00e+00	0	47	104	0	78	17935
2026-01-23 22:01:18.41	233.67	8.93	-53.2	-55.3	6.2	0.00e+00	0	47	104	0	78	17824
2026-01-23 22:01:21.32	234.19	9.11	-53.2	-55.3	6.2	0.00e+00	0	47	104	0	78	17865
2026-01-23 22:01:24.24	234.72	9.30	-53.2	-55.4	6.2	0.00e+00	0	47	104	0	78	18013
2026-01-23 22:01:27.16	235.25	9.49	-36.2	-36.0	14.4	6.46e-04	0	47	0	41943040	43	14465
2026-01-23 22:01:30.06	235.79	9.67	-33.8	-33.5	15.3	9.53e-05	0	47	0	369098752	39	13773
2026-01-23 22:01:32.98	236.34	9.86	-33.8	-33.6	15.2	1.01e-04	0	47	0	713031680	39	13908
2026-01-23 22:01:35.90	236.90	10.05	-33.2	-33.0	15.4	5.72e-05	0	47	0	1031798784	37	14492
2026-01-23 22:01:38.81	237.47	10.23	-33.3	-33.0	15.3	7.82e-05	0	47	0	1358954496	37	14599
2026-01-23 22:01:41.72	238.04	10.42	-32.9	-32.7	15.5	4.95e-05	0	47	0	1686110208	37	14044
2026-01-23 22:01:44.64	238.62	10.60	-32.9	-32.7	15.5	7.05e-05	0	47	0	2013265920	37	14077
2026-01-23 22:01:47.55	239.21	10.79	-33.1	-32.9	15.5	6.48e-05	0	47	0	2340421632	37	14361
2026-01-23 22:01:50.46	239.81	10.97	-32.9	-32.7	15.5	4.57e-05	0	47	0	2667577344	37	14053
2026-01-23 22:01:53.37	240.42	11.15	-32.9	-32.7	15.5	4.38e-05	0	47	0	2994733056	37	14056
2026-01-23 22:01:56.27	241.04	11.33	-32.6	-32.4	15.5	4.95e-05	0	47	0	3321888768	36	14368
2026-01-23 22:01:59.18	241.66	11.51	-32.5	-32.3	15.6	4.95e-05	0	47	0	3657433088	36	14123
2026-01-23 22:02:02.09	242.30	11.69	-32.5	-32.3	15.6	4.00e-05	0	48	0	3984588800	36	14173
2026-01-23 22:02:05.00	242.94	11.87	-32.5	-32.3	15.6	4.95e-05	0	48	0	4311744512	36	14141
2026-01-23 22:02:07.91	243.60	12.05	-32.4	-32.2	15.6	4.19e-05	0	48	0	4638900224	36	13976
2026-01-23 22:02:10.82	244.26	12.23	-32.4	-32.2	15.5	5.53e-05	0	48	0	4957667328	36	14062
2026-01-23 22:02:13.73	244.93	12.40	-32.6	-32.4	15.5	5.34e-05	0	48	0	5284823040	36	14369
2026-01-23 22:02:16.63	245.61	12.57	-32.3	-32.1	15.7	3.05e-05	0	48	0	5611978752	36	13795
2026-01-23 22:02:19.54	246.30	12.74	-32.3	-32.1	15.7	4.00e-05	0	48	0	5939134464	36	13816
2026-01-23 22:02:22.44	246.99	12.91	-32.2	-32.0	15.5	2.86e-05	0	48	0	6266290176	36	13674
2026-01-23 22:02:25.34	247.70	13.08	-32.3	-32.1	15.6	4.95e-05	0	48	0	6593445888	36	13814
2026-01-23 22:02:28.25	248.42	13.24	-32.3	-32.1	15.6	5.14e-05	0	48	0	6920601600	36	13829
2026-01-23 22:02:31.17	249.14	13.41	-32.2	-32.0	15.7	1.14e-05	0	48	0	7247757312	36	13729
2026-01-23 22:02:34.08	249.88	13.57	-32.2	-32.0	15.7	2.47e-05	0	48	0	7583301632	36	13635
2026-01-23 22:02:36.99	250.62	13.72	-32.0	-31.7	15.8	2.28e-05	0	48	0	7910457344	36	13308
2026-01-23 22:02:39.89	251.37	13.88	-29.6	-29.4	15.4	7.82e-05	0	48	0	8237613056	31	13502
2026-01-23 22:02:42.79	252.13	14.03	-29.7	-29.5	15.2	1.14e-04	0	48	0	8564768768	31	13770
2026-01-23 22:02:45.70	252.91	14.18	-29.6	-29.3	15.3	9.72e-05	0	48	0	8891924480	31	13471
2026-01-23 22:02:48.61	253.69	14.32	-29.7	-29.5	15.3	9.72e-05	0	48	0	9210691584	30	14468
2026-01-23 22:02:51.52	254.47	14.46	-29.6	-29.4	15.3	1.07e-04	0	48	0	9537847296	30	14337
2026-01-23 22:02:54.42	255.27	14.60	-30.0	-29.8	15.0	1.45e-04	0	48	0	9865003008	30	15112
2026-01-23 22:02:57.33	256.07	14.74	-29.9	-29.7	15.1	1.52e-04	0	48	0	10192158720	31	14023
2026-01-23 22:03:00.23	256.89	14.87	-29.7	-29.5	15.3	9.91e-05	0	48	0	10519314432	31	13710
2026-01-23 22:03:03.14	257.71	15.00	-29.6	-29.4	15.3	8.39e-05	0	48	0	10846470144	31	13545
2026-01-23 22:03:06.04	258.53	15.12	-29.4	-29.2	15.3	9.53e-05	0	48	0	11173625856	30	14059
2026-01-23 22:03:08.96	259.37	15.24	-29.4	-29.2	15.4	7.05e-05	0	48	0	11500781568	30	14045
2026-01-23 22:03:11.86	260.22	15.35	-29.4	-29.2	15.5	7.82e-05	0	48	0	11827937280	30	14037
2026-01-23 22:03:14.78	261.07	15.46	-29.4	-29.2	15.4	8.01e-05	0	48	0	12163481600	30	13967
2026-01-23 22:03:17.69	261.93	15.56	-29.3	-29.1	15.5	6.10e-05	0	48	0	12490637312	30	13899
2026-01-23 22:03:20.59	262.79	15.66	-29.4	-29.2	15.5	5.53e-05	0	48	0	12817793024	30	13960
2026-01-23 22:03:23.49	263.66	15.76	-29.4	-29.2	15.6	6.86e-05	0	48	0	13136560128	30	14008
2026-01-23 22:03:26.40	264.54	15.85	-29.3	-29.1	15.6	4.95e-05	0	48	0	13463715840	30	13928
2026-01-23 22:03:29.30	265.42	15.93	-29.3	-29.1	15.6	6.67e-05	0	48	0	13790871552	30	13843
2026-01-23 22:03:32.22	266.31	16.01	-29.3	-29.1	15.5	6.10e-05	0	48	0	14118027264	30	13924
2026-01-23 22:03:35.12	267.20	16.08	-29.2	-29.0	15.6	4.00e-05	0	48	0	14445182976	30	13750
2026-01-23 22:03:38.03	268.10	16.15	-29.2	-29.0	15.6	5.72e-05	0	48	0	14772338688	30	13755
2026-01-23 22:03:40.94	269.01	16.21	-29.1	-28.9	15.7	4.76e-05	0	48	0	15099494400	30	13608
2026-01-23 22:03:43.84	269.91	16.26	-29.2	-29.0	15.7	3.24e-05	0	48	0	15426650112	30	13761
2026-01-23 22:03:46.75	270.82	16.31	-29.2	-29.0	15.7	4.00e-05	0	48	0	15753805824	30	13706
2026-01-23 22:03:49.66	271.73	16.35	-29.3	-29.1	15.6	4.19e-05	0	48	0	16080961536	30	13815
2026-01-23 22:03:52.56	272.65	16.39	-29.2	-29.0	15.7	4.76e-05	0	48	0	16399728640	30	13674
2026-01-23 22:03:55.47	273.57	16.42	-29.2	-29.0	15.7	3.43e-05	0	48	0	16726884352	30	13732
2026-01-23 22:03:58.38	274.49	16.45	-29.3	-29.1	15.7	6.10e-05	0	48	0	17070817280	30	13815
2026-01-23 22:04:01.28	275.41	16.46	-29.4	-29.1	15.7	4.95e-05	0	48	0	17389584384	30	13936
2026-01-23 22:04:04.19	276.33	16.48	-29.2	-29.0	15.7	5.14e-05	0	48	0	17716740096	30	13739
2026-01-23 22:04:07.10	277.25	16.48	-29.2	-29.0	15.8	3.24e-05	0	48	0	18043895808	30	13703
2026-01-23 22:04:10.02	278.18	16.48	-29.2	-29.0	15.8	2.47e-05	0	48	0	18371051520	30	13651
2026-01-23 22:04:12.92	279.10	16.47	-29.2	-29.0	15.8	2.86e-05	0	48	0	18698207232	30	13675
2026-01-23 22:04:15.83	280.03	16.46	-29.4	-29.2	15.8	4.38e-05	0	48	0	19025362944	30	13998
2026-01-23 22:04:18.73	280.94	16.44	-29.3	-29.1	15.9	3.43e-05	0	48	0	19352518656	30	13871
2026-01-23 22:04:21.65	281.87	16.41	-29.4	-29.2	15.9	2.86e-05	0	48	0	19679674368	30	13990
2026-01-23 22:04:24.55	282.78	16.38	-29.3	-29.2	15.9	2.67e-05	0	48	0	20006830080	30	13957
2026-01-23 22:04:27.46	283.70	16.34	-29.3	-29.1	16.0	3.62e-05	0	48	0	20325597184	30	13898
2026-01-23 22:04:30.36	284.61	16.29	-29.3	-29.1	16.1	2.67e-05	0	48	0	20652752896	30	13888
2026-01-23 22:04:33.26	285.51	16.24	-29.3	-29.1	16.2	2.09e-05	0	48	0	20979908608	30	13874
2026-01-23 22:04:36.17	286.42	16.18	-29.4	-29.2	16.2	1.71e-05	0	48	0	21307064320	30	13997
2026-01-23 22:04:39.08	287.32	16.12	-29.4	-29.2	16.3	1.90e-05	0	48	0	21642608640	30	13986
2026-01-23 22:04:41.98	288.21	16.05	-29.4	-29.2	16.4	2.86e-05	0	48	0	21969764352	30	14054
2026-01-23 22:04:44.89	289.11	15.97	-29.7	-29.5	16.4	1.71e-05	0	48	0	22296920064	30	14484
2026-01-23 22:04:47.78	289.99	15.89	-29.9	-29.7	16.3	3.05e-05	0	48	0	22624075776	30	14833
2026-01-23 22:04:50.70	290.87	15.81	-29.6	-29.4	16.7	1.33e-05	0	48	0	22951231488	30	14328
2026-01-23 22:04:53.61	291.75	15.72	-29.7	-29.6	16.8	1.71e-05	0	48	0	23278387200	30	14624
2026-01-23 22:04:56.51	292.61	15.62	-29.8	-29.6	16.8	1.52e-05	0	48	0	23605542912	30	14652
2026-01-23 22:04:59.42	293.48	15.52	-29.8	-29.6	17.0	5.70e-06	0	48	0	23932698624	30	14762
2026-01-23 22:05:02.32	294.33	15.41	-29.8	-29.6	17.1	3.80e-06	0	48	0	24251465728	30	14666
2026-01-23 22:05:05.23	295.18	15.30	-30.0	-29.8	17.1	9.50e-06	0	48	0	24578621440	30	15088
2026-01-23 22:05:08.14	296.02	15.19	-30.0	-29.8	17.2	1.90e-06	0	48	0	24905777152	30	15027
2026-01-23 22:05:11.05	296.86	15.07	-30.0	-29.9	17.2	7.60e-06	0	48	0	25232932864	30	15145
2026-01-23 22:05:13.95	297.68	14.94	-30.0	-29.8	17.3	3.80e-06	0	48	0	25560088576	30	15092
2026-01-23 22:05:16.85	298.49	14.81	-30.0	-29.8	17.4	3.80e-06	0	48	0	25887244288	30	15101
2026-01-23 22:05:19.76	299.31	14.68	-30.3	-30.1	17.4	3.80e-06	0	48	0	26214400000	31	14712
2026-01-23 22:05:22.67	300.11	14.54	-30.0	-29.8	17.5	5.70e-06	0	48	0	26541555712	31	14231
2026-01-23 22:05:25.58	300.90	14.40	-30.1	-29.9	17.6	3.80e-06	0	48	0	26868711424	31	14302
2026-01-23 22:05:28.49	301.69	14.26	-30.3	-30.1	17.5	1.14e-05	0	48	0	27204255744	31	14622
2026-01-23 22:05:31.40	302.46	14.11	-30.3	-30.1	17.5	5.70e-06	0	48	0	27531411456	31	14759
2026-01-23 22:05:34.31	303.23	13.96	-30.2	-30.0	17.6	5.70e-06	0	48	0	27858567168	31	14547
2026-01-23 22:05:37.22	303.99	13.81	-30.3	-30.1	17.5	5.70e-06	0	48	0	28185722880	31	14680
2026-01-23 22:05:40.12	304.74	13.66	-30.3	-30.1	17.5	7.60e-06	0	48	0	28504489984	31	14712
2026-01-23 22:05:43.02	305.48	13.50	-30.6	-30.4	17.4	1.14e-05	0	48	0	28831645696	31	15139
2026-01-23 22:05:45.94	306.21	13.34	-30.5	-30.3	17.4	5.70e-06	0	48	0	29158801408	32	14127
2026-01-23 22:05:48.84	306.93	13.17	-30.4	-30.2	17.4	3.80e-06	0	48	0	29485957120	32	14058
2026-01-23 22:05:51.75	307.64	13.01	-30.6	-30.4	17.3	9.50e-06	0	48	0	29813112832	32	14300
2026-01-23 22:05:54.65	308.35	12.84	-30.5	-30.3	17.4	5.70e-06	0	48	0	30140268544	32	14273
2026-01-23 22:05:57.56	309.04	12.67	-30.6	-30.4	17.3	5.70e-06	0	48	0	30467424256	32	14330
2026-01-23 22:06:00.47	309.73	12.50	-30.5	-30.3	17.4	1.90e-06	0	48	0	30794579968	32	14194
2026-01-23 22:06:03.38	310.40	12.33	-54.1	-56.2	6.2	0.00e+00	0	48	104	30886854656	78	19874
2026-01-23 22:06:06.29	311.07	12.15	-54.1	-56.2	6.2	0.00e+00	0	48	104	30886854656	78	19814
2026-01-23 22:06:09.20	311.73	11.97	-54.1	-56.1	6.2	0.00e+00	0	48	104	30886854656	78	19674
2026-01-23 22:06:12.12	312.38	11.80	-54.0	-56.1	6.2	0.00e+00	0	48	104	30886854656	78	19654
2026-01-23 22:06:15.03	313.02	11.62	-54.0	-56.1	6.2	0.00e+00	0	48	104	30886854656	78	19658
2026-01-23 22:06:17.93	313.65	11.44	-54.1	-56.2	6.2	0.00e+00	0	48	104	30886854656	78	19767
2026-01-23 22:06:20.83	314.27	11.26	-53.9	-56.0	6.2	0.00e+00	0	48	104	30886854656	78	19266
2026-01-23 22:06:23.74	314.89	11.08	-53.9	-56.0	6.2	0.00e+00	0	48	104	30886854656	78	19287
2026-01-23 22:06:26.64	315.49	10.89	-53.9	-56.0	6.2	0.00e+00	0	48	104	30886854656	78	19359
2026-01-23 22:06:29.55	316.09	10.71	-53.9	-56.0	6.2	0.00e+00	0	48	104	30886854656	78	19330
2026-01-23 22:06:32.46	316.67	10.53	-53.7	-55.8	6.2	0.00e+00	0	48	104	30886854656	78	18945
2026-01-23 22:06:35.37	317.25	10.34	-53.7	-55.8	6.2	0.00e+00	0	48	104	30886854656	78	18926
2026-01-23 22:06:38.27	317.82	10.16	-53.7	-55.8	6.2	0.00e+00	0	48	104	30886854656	78	19033
2026-01-23 22:06:41.18	318.39	9.97	-53.6	-55.7	6.2	0.00e+00	0	48	104	30886854656	78	18696
2026-01-23 22:06:44.10	318.94	9.79	-53.5	-55.6	6.2	0.00e+00	0	48	104	30886854656	78	18582
2026-01-23 22:06:47.01	319.49	9.60	-53.5	-55.6	6.2	0.00e+00	0	48	104	30886854656	78	18577
2026-01-23 22:06:49.91	320.02	9.41	-53.7	-55.8	6.2	0.00e+00	0	48	104	30886854656	78	18820
2026-01-23 22:06:52.81	320.55	9.23	-53.5	-55.6	6.2	0.00e+00	0	48	104	30886854656	78	18506
2026-01-23 22:06:55.72	321.08	9.04	-53.5	-55.6	6.2	0.00e+00	0	48	104	30886854656	78	18409
2026-01-23 22:06:58.63	321.59	8.86	-53.5	-55.6	6.2	0.00e+00	0	48	104	30886854656	78	18430
2026-01-23 22:07:01.53	322.10	8.67	-53.5	-55.6	6.2	0.00e+00	0	48	104	30886854656	78	18394
2026-01-23 22:07:04.44	322.60	8.48	-53.4	-55.5	6.2	0.00e+00	0	48	104	30886854656	78	18181
2026-01-23 22:07:07.35	323.09	8.30	-53.4	-55.5	6.2	0.00e+00	0	48	104	30886854656	78	18225
2026-01-23 22:07:10.26	323.57	8.11	-53.4	-55.5	6.2	0.00e+00	0	48	104	30886854656	78	18192
2026-01-23 22:07:13.17	324.05	7.93	-53.3	-55.4	6.2	0.00e+00	0	48	104	30886854656	78	18147
2026-01-23 22:07:16.07	324.52	7.74	-53.3	-55.4	6.2	0.00e+00	0	48	104	30886854656	78	17986
2026-01-23 22:07:18.98	324.98	7.56	-53.2	-55.4	6.2	0.00e+00	0	48	104	30886854656	78	17981
2026-01-23 22:07:21.88	325.44	7.37	-53.3	-55.4	6.2	0.00e+00	0	48	104	30886854656	78	18109
2026-01-23 22:07:24.78	325.89	7.19	-53.2	-55.3	6.2	0.00e+00	0	48	104	30886854656	78	17885
2026-01-23 22:07:27.69	326.33	7.01	-53.1	-55.2	6.2	0.00e+00	0	48	104	30886854656	78	17762
2026-01-23 22:07:30.61	326.77	6.82	-53.1	-55.2	6.2	0.00e+00	0	48	104	30886854656	77	18731
2026-01-23 22:07:33.51	327.20	6.64	-53.2	-55.2	6.2	0.00e+00	0	48	104	30886854656	77	18809
2026-01-23 22:07:36.42	327.63	6.46	-53.1	-55.2	6.2	0.00e+00	0	48	104	30886854656	77	18719
2026-01-23 22:07:39.33	328.04	6.28	-53.1	-55.2	6.2	0.00e+00	0	48	104	30886854656	77	18633
2026-01-23 22:07:42.24	328.46	6.10	-53.1	-55.2	6.2	0.00e+00	0	48	104	30886854656	77	18722
2026-01-23 22:07:45.15	328.86	5.92	-52.9	-55.0	6.2	0.00e+00	0	48	104	30886854656	77	18339
2026-01-23 22:07:48.05	329.26	5.74	-53.0	-55.0	6.2	0.00e+00	0	48	104	30886854656	77	18376
2026-01-23 22:07:50.97	329.66	5.56	-52.9	-55.0	6.2	0.00e+00	0	48	104	30886854656	77	18256
2026-01-23 22:07:53.87	330.05	5.38	-53.0	-55.1	6.2	0.00e+00	0	48	104	30886854656	77	18552
2026-01-23 22:07:56.79	330.43	5.20	-52.8	-54.9	6.2	0.00e+00	0	48	104	30886854656	77	18111
2026-01-23 22:07:59.70	330.81	5.02	-52.8	-54.9	6.2	0.00e+00	0	48	104	30886854656	77	18131
2026-01-23 22:08:02.61	331.18	4.84	-53.7	-55.8	6.2	0.00e+00	0	48	104	30886854656	77	20059
2026-01-23 22:08:05.51	331.55	4.67	-54.3	-56.4	6.2	0.00e+00	0	48	104	30886854656	79	19112
2026-01-23 22:08:08.43	331.91	4.49	-54.3	-56.4	6.2	0.00e+00	0	48	104	30886854656	79	19190
2026-01-23 22:08:11.33	332.27	4.32	-54.0	-56.1	6.2	0.00e+00	0	48	104	30886854656	79	18470
2026-01-23 22:08:14.24	332.62	4.14	-54.0	-56.1	6.2	0.00e+00	0	48	104	30886854656	79	18558
2026-01-23 22:08:17.14	332.97	3.97	-54.1	-56.2	6.2	0.00e+00	0	47	104	30886854656	79	18711
2026-01-23 22:08:20.05	333.31	3.80	-54.0	-56.1	6.2	0.00e+00	0	48	104	30886854656	79	18497
2026-01-23 22:08:22.97	333.65	3.63	-53.9	-56.0	6.2	0.00e+00	0	48	104	30886854656	79	18186
2026-01-23 22:08:25.88	333.98	3.45	-53.7	-55.8	6.2	0.00e+00	0	48	104	30886854656	79	17949
2026-01-23 22:08:28.79	334.31	3.28	-53.7	-55.8	6.2	0.00e+00	0	48	104	30886854656	79	17852
2026-01-23 22:08:31.69	334.63	3.11	-53.6	-55.7	6.2	0.00e+00	0	48	104	30886854656	79	17738
2026-01-23 22:08:34.60	334.95	2.95	-53.6	-55.7	6.2	0.00e+00	0	48	104	30886854656	79	17710
2026-01-23 22:08:37.50	335.27	2.78	-53.6	-55.7	6.2	0.00e+00	0	48	104	30886854656	79	17577
2026-01-23 22:08:40.41	335.58	2.61	-53.5	-55.6	6.2	0.00e+00	0	48	104	30886854656	79	17550
2026-01-23 22:08:43.31	335.88	2.44	-53.5	-55.6	6.2	0.00e+00	0	48	104	30886854656	79	17479
2026-01-23 22:08:46.22	336.19	2.28	-53.5	-55.6	6.2	0.00e+00	0	47	104	30886854656	79	17444
2026-01-23 22:08:49.13	336.49	2.11	-53.5	-55.6	6.2	0.00e+00	0	48	104	30886854656	79	17484
2026-01-23 22:08:52.04	336.78	1.95	-53.5	-55.6	6.2	0.00e+00	0	48	104	30886854656	79	17391

#Closed at: 2026-01-23 22:08:53
#Recorded file [30886 MB]: D:/lorett/data/31041_260124_005924.dat