passes_logs/2026/01/23/R3.2S_Murmansk/R3.2S_Murmansk__20260123_205037_TY-42_rec.log

#Pass ID: 20260123_205037_TY-42
#Satellite: TY-42
#Configuration: TY-42_900M
#almurnet v.1.7.20251203
#Start time: 2026-01-23 20:50:39

#Version: 2.2.20231116
#Station: R3.2S_Murmansk
#Location: 33.079688 lon 68.888172 lat
#TLE: 1 64048U 25103A   26023.66790509  .00008008  00000-0  38191-3 0 09999
#TLE: 2 64048 097.4117 098.9223 0001893 091.9782 302.8981 15.19160197 38139

#Time	Az	El	Level	Level2	SNR	BER	BlckErr	Temp	State	Recorded	gain1	gain2
2026-01-23 20:50:39.21	216.39	2.12	-54.3	-56.4	6.3	0.00e+00	0	50	0	0	79	19217
2026-01-23 20:50:42.22	216.70	2.30	-54.6	-56.8	6.2	0.00e+00	0	50	104	0	80	18819
2026-01-23 20:50:45.25	217.01	2.48	-54.6	-56.7	6.2	0.00e+00	0	50	104	0	80	18720
2026-01-23 20:50:48.27	217.34	2.66	-54.5	-56.6	6.2	0.00e+00	0	51	104	0	80	18477
2026-01-23 20:50:51.29	217.66	2.84	-54.4	-56.5	6.2	0.00e+00	0	51	104	0	80	18302
2026-01-23 20:50:54.31	217.99	3.02	-54.2	-56.3	6.2	0.00e+00	0	51	104	0	80	17878
2026-01-23 20:50:57.34	218.33	3.20	-54.0	-56.1	6.2	0.00e+00	0	51	104	0	79	18490
2026-01-23 20:51:00.36	218.67	3.38	-53.1	-55.2	6.2	0.00e+00	0	51	104	0	78	17704
2026-01-23 20:51:03.39	219.02	3.57	-53.0	-55.1	6.2	0.00e+00	0	51	104	0	78	17500
2026-01-23 20:51:06.41	219.37	3.75	-52.9	-55.1	6.2	0.00e+00	0	52	104	0	77	18402
2026-01-23 20:51:09.44	219.73	3.94	-52.9	-55.0	6.2	0.00e+00	0	52	104	0	77	18388
2026-01-23 20:51:12.46	220.09	4.12	-52.9	-55.0	6.2	0.00e+00	0	52	104	0	77	18380
2026-01-23 20:51:15.49	220.46	4.31	-52.9	-55.0	6.2	0.00e+00	0	52	104	0	77	18343
2026-01-23 20:51:18.51	220.83	4.50	-52.9	-55.0	6.2	0.00e+00	0	52	104	0	77	18387
2026-01-23 20:51:21.54	221.22	4.69	-52.9	-55.0	6.2	0.00e+00	0	52	104	0	77	18347
2026-01-23 20:51:24.56	221.60	4.88	-52.9	-55.0	6.2	0.00e+00	0	53	104	0	77	18295
2026-01-23 20:51:27.58	221.99	5.07	-53.0	-55.1	6.2	0.00e+00	0	52	104	0	77	18528
2026-01-23 20:51:30.60	222.39	5.26	-52.8	-55.0	6.2	0.00e+00	0	53	104	0	77	18225
2026-01-23 20:51:33.63	222.80	5.45	-36.5	-36.3	13.9	0.00e+00	0	54	0	67108864	44	14250
2026-01-23 20:51:36.65	223.21	5.65	-36.7	-36.6	13.8	1.81e-01	0	55	0	402653184	45	13810
2026-01-23 20:51:39.67	223.63	5.84	-35.9	-35.8	14.3	3.28e-02	0	55	0	746586112	43	14163
2026-01-23 20:51:42.70	224.05	6.04	-35.6	-35.6	14.4	1.81e-02	0	55	0	1082130432	42	14635
2026-01-23 20:51:45.73	224.49	6.23	-35.4	-35.3	14.5	1.60e-02	0	55	0	1426063360	42	14213
2026-01-23 20:51:48.75	224.93	6.43	-35.6	-35.6	14.4	1.27e-02	0	55	0	1769996288	42	14610
2026-01-23 20:51:51.78	225.37	6.63	-35.1	-35.0	14.8	1.31e-02	0	56	0	2105540608	42	13661
2026-01-23 20:51:54.80	225.83	6.83	-35.1	-35.0	14.8	9.92e-03	0	56	0	2441084928	41	14575
2026-01-23 20:51:57.82	226.29	7.03	-34.8	-34.7	15.0	9.60e-03	0	56	0	2793406464	41	14003
2026-01-23 20:52:00.84	226.76	7.23	-35.1	-35.0	14.8	7.66e-03	0	56	0	3128950784	41	14487
2026-01-23 20:52:03.87	227.24	7.43	-35.0	-34.9	14.8	8.06e-03	0	56	0	3464495104	41	14390
2026-01-23 20:52:06.89	227.72	7.63	-34.5	-34.4	15.1	7.13e-03	0	56	0	3800039424	40	14376
2026-01-23 20:52:09.92	228.21	7.83	-35.0	-34.9	14.9	5.56e-03	0	57	0	4152360960	40	15150
2026-01-23 20:52:12.95	228.72	8.03	-34.2	-34.1	15.2	5.60e-03	0	57	0	4487905280	40	13910
2026-01-23 20:52:15.97	229.23	8.23	-34.3	-34.2	15.2	5.15e-03	0	57	0	4823449600	40	14024
2026-01-23 20:52:19.00	229.75	8.44	-34.4	-34.3	15.2	4.48e-03	0	57	0	5167382528	40	14154
2026-01-23 20:52:22.02	230.27	8.64	-34.1	-34.0	15.3	4.43e-03	0	57	0	5511315456	39	14535
2026-01-23 20:52:25.05	230.81	8.85	-34.7	-34.6	15.1	3.64e-03	0	57	0	5846859776	39	15528
2026-01-23 20:52:28.07	231.36	9.05	-34.8	-34.7	15.0	5.72e-03	0	57	0	6190792704	40	14810
2026-01-23 20:52:31.10	231.91	9.25	-34.2	-34.1	15.3	5.23e-03	0	57	0	6526337024	40	13864
2026-01-23 20:52:34.13	232.48	9.46	-34.0	-33.9	15.4	3.40e-03	0	57	0	6870269952	39	14369
2026-01-23 20:52:37.15	233.05	9.66	-34.0	-33.9	15.4	2.62e-03	0	57	0	7214202880	39	14372
2026-01-23 20:52:40.17	233.63	9.87	-33.7	-33.6	15.5	2.39e-03	0	57	0	7549747200	39	13928
2026-01-23 20:52:43.20	234.22	10.07	-33.7	-33.6	15.5	2.09e-03	0	57	0	7885291520	39	13856
2026-01-23 20:52:46.22	234.83	10.28	-33.7	-33.6	15.5	2.11e-03	0	58	0	8237613056	39	13863
2026-01-23 20:52:49.25	235.44	10.48	-33.6	-33.5	15.6	2.23e-03	0	58	0	8573157376	39	13778
2026-01-23 20:52:52.28	236.06	10.69	-33.7	-33.6	15.6	2.17e-03	0	58	0	8908701696	39	13875
2026-01-23 20:52:55.30	236.70	10.89	-33.8	-33.7	15.5	2.31e-03	0	58	0	9244246016	38	14834
2026-01-23 20:52:58.33	237.34	11.09	-33.0	-32.9	15.8	1.86e-03	0	58	0	9596567552	38	13620
2026-01-23 20:53:01.35	238.00	11.30	-33.1	-33.0	15.7	1.51e-03	0	58	0	9932111872	37	14444
2026-01-23 20:53:04.38	238.66	11.50	-33.3	-33.2	15.6	1.34e-03	0	58	0	10267656192	37	14875
2026-01-23 20:53:07.40	239.34	11.70	-33.0	-32.9	15.7	1.55e-03	0	58	0	10611589120	37	14389
2026-01-23 20:53:10.43	240.03	11.90	-32.9	-32.8	15.8	1.36e-03	0	58	0	10955522048	37	14267
2026-01-23 20:53:13.46	240.73	12.10	-32.8	-32.7	15.8	1.30e-03	0	58	0	11299454976	37	14061
2026-01-23 20:53:16.48	241.43	12.30	-32.9	-32.9	15.8	1.23e-03	0	58	0	11634999296	37	14287
2026-01-23 20:53:19.51	242.16	12.49	-32.8	-32.7	15.8	1.37e-03	0	58	0	11970543616	37	14079
2026-01-23 20:53:22.53	242.89	12.69	-32.8	-32.8	15.8	1.33e-03	0	58	0	12322865152	37	14112
2026-01-23 20:53:25.56	243.63	12.88	-32.7	-32.7	15.8	1.38e-03	0	58	0	12658409472	37	13951
2026-01-23 20:53:28.59	244.39	13.07	-32.8	-32.7	15.8	1.24e-03	0	58	0	12993953792	37	13970
2026-01-23 20:53:31.61	245.15	13.26	-32.6	-32.5	15.8	1.34e-03	0	58	0	13346275328	37	13717
2026-01-23 20:53:34.63	245.93	13.44	-32.5	-32.3	15.9	1.04e-03	0	58	0	13681819648	36	14274
2026-01-23 20:53:37.66	246.72	13.63	-32.4	-32.3	15.9	9.30e-04	0	58	0	14017363968	36	14133
2026-01-23 20:53:40.68	247.51	13.81	-32.4	-32.3	15.9	7.53e-04	0	58	0	14352908288	36	14212
2026-01-23 20:53:43.70	248.32	13.99	-32.3	-32.2	15.9	8.25e-04	0	58	0	14696841216	36	13958
2026-01-23 20:53:46.73	249.15	14.16	-32.1	-32.0	16.0	5.82e-04	0	58	0	15040774144	36	13774
2026-01-23 20:53:49.75	249.98	14.33	-29.7	-29.6	15.6	4.91e-04	0	59	0	15376318464	31	13799
2026-01-23 20:53:52.78	250.83	14.50	-29.5	-29.4	15.6	1.77e-03	0	58	0	15720251392	30	14408
2026-01-23 20:53:55.80	251.68	14.67	-29.4	-29.3	15.7	1.73e-03	0	58	0	16055795712	30	14236
2026-01-23 20:53:58.82	252.54	14.83	-29.4	-29.3	15.7	1.71e-03	0	59	0	16399728640	30	14217
2026-01-23 20:54:01.85	253.42	14.98	-29.4	-29.3	15.7	1.80e-03	0	59	0	16743661568	30	14247
2026-01-23 20:54:04.87	254.31	15.13	-29.2	-29.1	15.8	1.53e-03	0	59	0	17079205888	30	13878
2026-01-23 20:54:07.89	255.21	15.28	-29.4	-29.3	15.7	1.44e-03	0	59	0	17414750208	30	14142
2026-01-23 20:54:10.92	256.12	15.43	-29.3	-29.2	15.7	1.39e-03	0	59	0	17767071744	30	14075
2026-01-23 20:54:13.94	257.03	15.56	-29.2	-29.1	15.8	1.44e-03	0	59	0	18102616064	30	13863
2026-01-23 20:54:16.97	257.96	15.70	-29.2	-29.1	15.7	1.15e-03	0	59	0	18438160384	30	13854
2026-01-23 20:54:19.99	258.90	15.82	-29.1	-29.1	15.8	1.27e-03	0	59	0	18773704704	30	13803
2026-01-23 20:54:23.02	259.84	15.94	-29.2	-29.1	15.7	1.27e-03	0	59	0	19126026240	30	13911
2026-01-23 20:54:26.04	260.79	16.06	-29.2	-29.1	15.7	1.34e-03	0	59	0	19461570560	30	13872
2026-01-23 20:54:29.07	261.76	16.17	-29.1	-29.0	15.7	1.34e-03	0	59	0	19797114880	30	13704
2026-01-23 20:54:32.09	262.73	16.27	-29.2	-29.1	15.7	1.25e-03	0	59	0	20141047808	30	13904
2026-01-23 20:54:35.12	263.71	16.37	-29.3	-29.2	15.7	1.42e-03	0	59	0	20484980736	30	13974
2026-01-23 20:54:38.14	264.69	16.46	-29.1	-29.0	15.7	1.37e-03	0	59	0	20820525056	30	13772
2026-01-23 20:54:41.16	265.68	16.54	-29.3	-29.2	15.7	1.44e-03	0	59	0	21164457984	30	14053
2026-01-23 20:54:44.18	266.67	16.62	-29.2	-29.1	15.7	1.62e-03	0	59	0	21500002304	30	13909
2026-01-23 20:54:47.21	267.68	16.69	-29.1	-29.0	15.7	1.55e-03	0	59	0	21843935232	30	13699
2026-01-23 20:54:50.23	268.68	16.75	-29.2	-29.1	15.7	1.55e-03	0	59	0	22187868160	30	13937
2026-01-23 20:54:53.26	269.69	16.80	-29.5	-29.4	15.6	1.59e-03	0	59	0	22523412480	30	14318
2026-01-23 20:54:56.28	270.71	16.85	-29.2	-29.1	15.7	1.57e-03	0	59	0	22858956800	30	13873
2026-01-23 20:54:59.31	271.73	16.89	-29.2	-29.1	15.7	1.68e-03	0	59	0	23211278336	30	13854
2026-01-23 20:55:02.33	272.75	16.92	-29.2	-29.1	15.7	1.52e-03	0	59	0	23546822656	30	13877
2026-01-23 20:55:05.36	273.77	16.94	-29.1	-29.0	15.7	1.46e-03	0	59	0	23882366976	30	13751
2026-01-23 20:55:08.38	274.79	16.96	-29.2	-29.1	15.6	1.67e-03	0	59	0	24217911296	29	14662
2026-01-23 20:55:11.41	275.82	16.97	-29.3	-29.2	15.6	1.35e-03	0	59	0	24570232832	29	14921
2026-01-23 20:55:14.44	276.85	16.97	-29.2	-29.1	15.6	1.61e-03	0	59	0	24905777152	29	14737
2026-01-23 20:55:17.46	277.87	16.96	-29.2	-29.1	15.6	1.60e-03	0	59	0	25249710080	29	14759
2026-01-23 20:55:20.49	278.89	16.94	-29.4	-29.3	15.5	1.60e-03	0	59	0	25585254400	29	15033
2026-01-23 20:55:23.51	279.92	16.92	-29.3	-29.2	15.6	1.45e-03	0	59	0	25929187328	29	14821
2026-01-23 20:55:26.54	280.94	16.89	-29.5	-29.4	15.5	1.58e-03	0	59	0	26273120256	29	15258
2026-01-23 20:55:29.56	281.95	16.85	-29.4	-29.3	15.5	1.78e-03	0	59	0	26608664576	29	15052
2026-01-23 20:55:32.58	282.96	16.80	-29.4	-29.3	15.5	1.65e-03	0	59	0	26944208896	29	15003
2026-01-23 20:55:35.60	283.97	16.75	-29.5	-29.4	15.4	2.26e-03	0	59	0	27279753216	29	15152
2026-01-23 20:55:38.63	284.98	16.69	-29.5	-29.4	15.4	2.49e-03	0	59	0	27632074752	29	15197
2026-01-23 20:55:41.66	285.98	16.62	-53.8	-56.1	6.2	2.40e-03	0	59	104	27942453248	74	24701
2026-01-23 20:55:44.68	286.98	16.54	-53.9	-56.1	6.2	2.40e-03	0	58	104	27942453248	78	19571
2026-01-23 20:55:47.71	287.97	16.46	-53.9	-56.1	6.2	2.40e-03	0	58	104	27942453248	78	19500
2026-01-23 20:55:50.74	288.95	16.37	-54.0	-56.1	6.2	2.40e-03	0	57	104	27942453248	78	19579
2026-01-23 20:55:53.76	289.92	16.27	-54.0	-56.1	6.2	7.96e-04	0	57	104	27942453248	78	19698
2026-01-23 20:55:56.79	290.89	16.17	-54.0	-56.1	6.2	7.96e-04	0	57	104	27942453248	78	19525
2026-01-23 20:55:59.81	291.85	16.06	-54.0	-56.1	6.2	7.96e-04	0	57	104	27942453248	78	19700
2026-01-23 20:56:02.84	292.80	15.95	-54.0	-56.1	6.2	0.00e+00	0	57	104	27942453248	78	19638
2026-01-23 20:56:05.86	293.74	15.83	-54.0	-56.1	6.2	0.00e+00	0	57	104	27942453248	78	19609
2026-01-23 20:56:08.88	294.68	15.70	-53.9	-56.0	6.2	0.00e+00	0	57	104	27942453248	78	19471
2026-01-23 20:56:11.91	295.60	15.57	-53.9	-56.0	6.2	0.00e+00	0	56	104	27942453248	78	19478
2026-01-23 20:56:14.93	296.52	15.43	-53.9	-56.0	6.2	0.00e+00	0	56	104	27942453248	78	19331
2026-01-23 20:56:17.96	297.42	15.29	-53.9	-56.0	6.2	0.00e+00	0	56	104	27942453248	78	19349
2026-01-23 20:56:20.98	298.32	15.14	-53.8	-55.9	6.2	0.00e+00	0	57	104	27942453248	78	19136
2026-01-23 20:56:24.01	299.20	14.99	-53.8	-55.9	6.2	0.00e+00	0	57	104	27942453248	78	19166
2026-01-23 20:56:27.03	300.07	14.84	-53.7	-55.9	6.2	0.00e+00	0	56	104	27942453248	78	19110
2026-01-23 20:56:30.05	300.94	14.68	-53.7	-55.8	6.2	0.00e+00	0	56	104	27942453248	78	19002
2026-01-23 20:56:33.08	301.79	14.51	-53.7	-55.8	6.2	0.00e+00	0	56	104	27942453248	78	18949
2026-01-23 20:56:36.10	302.63	14.35	-53.7	-55.8	6.2	0.00e+00	0	56	104	27942453248	78	18955
2026-01-23 20:56:39.12	303.46	14.18	-53.7	-55.8	6.2	0.00e+00	0	56	104	27942453248	78	18837
2026-01-23 20:56:42.15	304.28	14.00	-53.6	-55.8	6.2	0.00e+00	0	56	104	27942453248	78	18830
2026-01-23 20:56:45.17	305.09	13.83	-53.6	-55.7	6.2	0.00e+00	0	56	104	27942453248	78	18786
2026-01-23 20:56:48.19	305.88	13.65	-53.6	-55.7	6.2	0.00e+00	0	56	104	27942453248	78	18696
2026-01-23 20:56:51.22	306.67	13.46	-53.6	-55.7	6.2	0.00e+00	0	56	104	27942453248	78	18649
2026-01-23 20:56:54.24	307.44	13.28	-53.6	-55.7	6.2	0.00e+00	0	56	104	27942453248	78	18713
2026-01-23 20:56:57.26	308.20	13.09	-53.5	-55.6	6.2	0.00e+00	0	56	104	27942453248	78	18567
2026-01-23 20:57:00.29	308.95	12.90	-53.5	-55.6	6.2	0.00e+00	0	56	104	27942453248	78	18551
2026-01-23 20:57:03.31	309.69	12.71	-53.5	-55.6	6.2	0.00e+00	0	56	104	27942453248	78	18448
2026-01-23 20:57:06.33	310.42	12.52	-53.5	-55.6	6.2	0.00e+00	0	56	104	27942453248	78	18554
2026-01-23 20:57:09.36	311.14	12.32	-53.4	-55.5	6.2	0.00e+00	0	56	104	27942453248	78	18365
2026-01-23 20:57:12.38	311.84	12.13	-53.4	-55.5	6.2	0.00e+00	0	56	104	27942453248	78	18281
2026-01-23 20:57:15.41	312.54	11.93	-53.4	-55.5	6.2	0.00e+00	0	56	104	27942453248	78	18248
2026-01-23 20:57:18.43	313.22	11.73	-53.4	-55.5	6.2	0.00e+00	0	56	104	27942453248	78	18333
2026-01-23 20:57:21.45	313.90	11.53	-53.3	-55.4	6.2	0.00e+00	0	56	104	27942453248	78	18148
2026-01-23 20:57:24.47	314.56	11.33	-53.3	-55.4	6.2	0.00e+00	0	56	104	27942453248	78	18049
2026-01-23 20:57:27.50	315.21	11.13	-53.2	-55.4	6.2	0.00e+00	0	56	104	27942453248	78	18045
2026-01-23 20:57:30.52	315.85	10.93	-53.2	-55.4	6.2	0.00e+00	0	55	104	27942453248	78	18007
2026-01-23 20:57:33.55	316.48	10.73	-53.2	-55.3	6.2	0.00e+00	0	56	104	27942453248	78	17900
2026-01-23 20:57:36.57	317.10	10.53	-53.1	-55.3	6.2	0.00e+00	0	56	104	27942453248	78	17788
2026-01-23 20:57:39.60	317.72	10.32	-53.1	-55.2	6.2	0.00e+00	0	55	104	27942453248	78	17720
2026-01-23 20:57:42.62	318.31	10.12	-53.1	-55.2	6.2	0.00e+00	0	55	104	27942453248	78	17745
2026-01-23 20:57:45.64	318.90	9.92	-53.1	-55.2	6.2	0.00e+00	0	55	104	27942453248	78	17675
2026-01-23 20:57:48.67	319.49	9.71	-53.0	-55.2	6.2	0.00e+00	0	56	104	27942453248	78	17579
2026-01-23 20:57:51.69	320.06	9.51	-53.0	-55.1	6.2	0.00e+00	0	55	104	27942453248	78	17547
2026-01-23 20:57:54.72	320.62	9.31	-53.0	-55.1	6.2	0.00e+00	0	55	104	27942453248	78	17543
2026-01-23 20:57:57.74	321.17	9.10	-53.0	-55.1	6.2	0.00e+00	0	55	104	27942453248	77	18538
2026-01-23 20:58:00.77	321.72	8.90	-52.9	-55.0	6.2	0.00e+00	0	55	104	27942453248	77	18340
2026-01-23 20:58:03.80	322.25	8.70	-52.9	-55.0	6.2	0.00e+00	0	55	104	27942453248	77	18373
2026-01-23 20:58:06.83	322.78	8.50	-52.9	-55.0	6.2	0.00e+00	0	55	104	27942453248	77	18248
2026-01-23 20:58:09.85	323.30	8.29	-52.9	-55.0	6.2	0.00e+00	0	55	104	27942453248	77	18368
2026-01-23 20:58:12.88	323.80	8.09	-52.7	-54.9	6.2	0.00e+00	0	55	104	27942453248	77	18023
2026-01-23 20:58:15.91	324.31	7.89	-52.8	-54.9	6.2	0.00e+00	0	55	104	27942453248	77	18097
2026-01-23 20:58:18.93	324.80	7.69	-52.7	-54.8	6.2	0.00e+00	0	55	104	27942453248	77	17945
2026-01-23 20:58:21.96	325.28	7.49	-52.8	-55.0	6.2	0.00e+00	0	55	104	27942453248	77	18186
2026-01-23 20:58:24.99	325.76	7.29	-52.6	-54.7	6.2	0.00e+00	0	55	104	27942453248	77	17760
2026-01-23 20:58:28.01	326.23	7.09	-52.6	-54.8	6.2	0.00e+00	0	55	104	27942453248	77	17792
2026-01-23 20:58:31.04	326.69	6.90	-52.6	-54.7	6.2	0.00e+00	0	55	104	27942453248	77	17665
2026-01-23 20:58:34.06	327.14	6.70	-52.6	-54.8	6.2	0.00e+00	0	55	104	27942453248	77	17814
2026-01-23 20:58:37.09	327.59	6.50	-52.4	-54.5	6.2	0.00e+00	0	55	104	27942453248	76	18368
2026-01-23 20:58:40.11	328.03	6.31	-52.5	-54.6	6.2	0.00e+00	0	55	104	27942453248	76	18505
2026-01-23 20:58:43.13	328.46	6.11	-52.4	-54.5	6.2	0.00e+00	0	55	104	27942453248	76	18365
2026-01-23 20:58:46.16	328.88	5.92	-52.5	-54.6	6.2	0.00e+00	0	55	104	27942453248	76	18569
2026-01-23 20:58:49.18	329.30	5.73	-52.2	-54.3	6.2	0.00e+00	0	55	104	27942453248	76	17947
2026-01-23 20:58:52.20	329.71	5.54	-52.3	-54.4	6.2	0.00e+00	0	55	104	27942453248	76	18128
2026-01-23 20:58:55.22	330.11	5.34	-52.2	-54.3	6.2	0.00e+00	0	55	104	27942453248	76	17911
2026-01-23 20:58:58.25	330.51	5.15	-52.3	-54.4	6.2	0.00e+00	0	55	104	27942453248	76	18106
2026-01-23 20:59:01.27	330.91	4.96	-52.6	-54.7	6.2	0.00e+00	0	55	104	27942453248	76	18731
2026-01-23 20:59:04.30	331.29	4.77	-48.1	-55.3	6.2	0.00e+00	0	55	104	27942453248	66	35757
2026-01-23 20:59:07.33	331.67	4.59	-53.4	-55.5	6.2	0.00e+00	0	55	104	27942453248	77	19354
2026-01-23 20:59:10.35	332.05	4.40	-53.5	-55.6	6.2	0.00e+00	0	55	104	27942453248	77	19665
2026-01-23 20:59:13.38	332.42	4.21	-53.4	-55.5	6.2	0.00e+00	0	55	104	27942453248	77	19431
2026-01-23 20:59:16.41	332.78	4.03	-53.4	-55.4	6.2	0.00e+00	0	55	104	27942453248	77	19077
2026-01-23 20:59:19.43	333.14	3.84	-53.5	-55.6	6.2	0.00e+00	0	56	104	27942453248	77	19507
2026-01-23 20:59:22.46	333.49	3.66	-53.5	-55.6	6.2	0.00e+00	0	55	104	27942453248	77	19595
2026-01-23 20:59:25.48	333.83	3.48	-53.4	-55.5	6.2	0.00e+00	0	55	104	27942453248	77	19428
2026-01-23 20:59:28.50	334.18	3.30	-53.4	-55.4	6.2	0.00e+00	0	56	104	27942453248	77	19253
2026-01-23 20:59:31.53	334.51	3.12	-53.4	-55.4	6.2	0.00e+00	0	55	104	27942453248	77	19248
2026-01-23 20:59:34.55	334.84	2.94	-53.4	-55.5	6.2	0.00e+00	0	55	104	27942453248	77	19262
2026-01-23 20:59:37.58	335.17	2.76	-53.3	-55.4	6.2	0.00e+00	0	55	104	27942453248	77	19248
2026-01-23 20:59:40.61	335.49	2.58	-53.3	-55.5	6.2	0.00e+00	0	55	104	27942453248	77	19302
2026-01-23 20:59:43.63	335.81	2.40	-53.3	-55.4	6.2	0.00e+00	0	55	104	27942453248	77	19225
2026-01-23 20:59:46.65	336.12	2.22	-53.3	-55.4	6.2	0.00e+00	0	55	104	27942453248	77	19244
2026-01-23 20:59:49.68	336.43	2.05	-53.3	-55.4	6.2	0.00e+00	0	55	104	27942453248	77	19207
2026-01-23 20:59:52.71	336.74	1.87	-53.3	-55.4	6.2	0.00e+00	0	55	104	27942453248	77	19141

#Closed at: 2026-01-23 20:59:52
#Recorded file [27942 MB]: D:/lorett/data/31041_260123_235039.dat