passes_logs/2026/01/23/R3.2S_Murmansk/R3.2S_Murmansk__20260123_043940_FENGYUN_3D_rec.log

#Pass ID: 20260123_043940_FENGYUN 3D
#Satellite: FENGYUN 3D
#Configuration: FENGYUN 3D
#almurnet v.1.7.20251203
#Start time: 2026-01-23 04:39:42

#Version: 2.2.20231116
#Station: R3.2S_Murmansk
#Location: 33.079688 lon 68.888172 lat
#TLE: 1 43010U 17072A   26022.47411728  .00000617  00000+0  31375-3 0  9996
#TLE: 2 43010  98.9952 354.4060 0002481  95.7964 264.3494 14.19699924424319

#Time	Az	El	Level	Level2	SNR	BER	BlckErr	Temp	State	Recorded	gain1	gain2
2026-01-23 04:39:42.53	34.96	2.14	-54.2	-66.2	3.8	8.46e-01	0	41	0	0	79	14738
2026-01-23 04:39:46.57	34.80	2.39	-54.3	-66.3	3.8	8.48e-01	0	41	104	0	79	15046
2026-01-23 04:39:50.60	34.64	2.64	-54.2	-66.2	3.8	8.46e-01	0	41	104	0	79	14821
2026-01-23 04:39:54.63	34.47	2.89	-54.0	-66.0	3.8	8.46e-01	0	42	104	0	79	14418
2026-01-23 04:39:58.67	34.31	3.15	-53.6	-65.6	3.8	8.46e-01	0	42	104	0	79	13824
2026-01-23 04:40:02.70	34.14	3.41	-52.3	-63.4	3.8	8.45e-01	0	42	104	0	76	12682
2026-01-23 04:40:06.73	33.96	3.67	-52.1	-62.0	3.8	8.45e-01	0	42	104	0	76	10889
2026-01-23 04:40:10.76	33.78	3.93	-52.0	-60.9	4.1	8.41e-01	0	42	0	0	76	9561
2026-01-23 04:40:14.79	33.60	4.19	-50.3	-54.5	8.5	7.47e-02	0	42	0	10485760	72	5744
2026-01-23 04:40:18.83	33.42	4.46	-48.3	-50.8	12.4	2.13e-04	0	42	0	32505856	68	4733
2026-01-23 04:40:22.86	33.23	4.73	-48.5	-51.0	12.2	2.09e-04	0	42	0	55574528	68	4861
2026-01-23 04:40:26.89	33.04	5.00	-50.3	-54.6	8.4	3.10e-02	0	42	0	77594624	71	6175
2026-01-23 04:40:30.92	32.84	5.27	-43.6	-44.7	18.2	6.40e-01	0	42	104	93323264	59	3919
2026-01-23 04:40:34.95	32.64	5.55	-43.6	-44.6	19.2	0.00e+00	0	43	0	108003328	59	3912
2026-01-23 04:40:38.98	32.44	5.82	-43.1	-44.2	19.8	0.00e+00	0	43	0	130023424	58	3918
2026-01-23 04:40:43.01	32.23	6.11	-43.1	-44.2	19.8	0.00e+00	0	43	0	153092096	58	3921
2026-01-23 04:40:47.05	32.02	6.39	-43.5	-44.5	19.5	0.00e+00	0	43	0	176160768	58	4096
2026-01-23 04:40:51.08	31.80	6.68	-43.1	-44.1	19.9	0.00e+00	0	43	0	198180864	58	3902
2026-01-23 04:40:55.11	31.58	6.97	-42.8	-43.7	20.3	0.00e+00	0	43	0	221249536	57	3957
2026-01-23 04:40:59.15	31.35	7.26	-43.1	-44.1	20.0	0.00e+00	0	43	0	244318208	57	4123
2026-01-23 04:41:03.18	31.12	7.55	-42.6	-43.6	20.5	0.00e+00	0	43	0	266338304	57	3877
2026-01-23 04:41:07.21	30.89	7.85	-42.7	-43.6	20.5	0.00e+00	0	43	0	289406976	57	3909
2026-01-23 04:41:11.24	30.64	8.15	-42.8	-43.7	20.4	0.00e+00	0	43	0	312475648	57	3952
2026-01-23 04:41:15.28	30.40	8.46	-42.3	-43.3	20.9	0.00e+00	0	43	0	334495744	56	3961
2026-01-23 04:41:19.31	30.14	8.77	-42.5	-43.4	20.8	0.00e+00	0	43	0	357564416	56	4030
2026-01-23 04:41:23.34	29.88	9.08	-42.2	-43.2	21.1	0.00e+00	0	43	0	380633088	56	3919
2026-01-23 04:41:27.38	29.62	9.39	-42.1	-43.0	21.3	0.00e+00	0	43	0	402653184	56	3828
2026-01-23 04:41:31.41	29.35	9.71	-42.1	-43.0	21.3	0.00e+00	0	43	0	424673280	56	3851
2026-01-23 04:41:35.45	29.07	10.03	-42.1	-43.0	21.3	0.00e+00	0	43	0	447741952	56	3842
2026-01-23 04:41:39.48	28.79	10.35	-42.1	-43.0	21.3	0.00e+00	0	43	0	470810624	56	3865
2026-01-23 04:41:43.51	28.50	10.68	-41.9	-42.8	21.4	0.00e+00	0	43	0	492830720	55	3984
2026-01-23 04:41:47.54	28.20	11.01	-41.8	-42.7	21.5	0.00e+00	0	43	0	515899392	55	3917
2026-01-23 04:41:51.57	27.90	11.35	-41.7	-42.5	21.7	0.00e+00	0	43	0	538968064	55	3857
2026-01-23 04:41:55.61	27.58	11.69	-41.4	-42.3	22.0	0.00e+00	0	43	0	560988160	54	3961
2026-01-23 04:41:59.64	27.26	12.03	-41.4	-42.3	22.0	0.00e+00	0	43	0	584056832	54	3964
2026-01-23 04:42:03.67	26.94	12.38	-41.3	-42.2	22.1	0.00e+00	0	43	0	607125504	54	3929
2026-01-23 04:42:07.70	26.60	12.73	-41.2	-42.0	22.3	0.00e+00	0	43	0	629145600	54	3853
2026-01-23 04:42:11.74	26.26	13.08	-41.0	-41.8	22.5	0.00e+00	0	43	0	652214272	54	3776
2026-01-23 04:42:15.77	25.90	13.44	-41.0	-41.8	22.5	0.00e+00	0	43	0	675282944	54	3778
2026-01-23 04:42:19.80	25.54	13.80	-41.1	-41.9	22.4	0.00e+00	0	43	0	697303040	54	3813
2026-01-23 04:42:23.84	25.17	14.17	-40.9	-41.8	22.5	0.00e+00	0	43	0	720371712	53	3964
2026-01-23 04:42:27.87	24.79	14.54	-41.0	-41.8	22.5	0.00e+00	0	43	0	743440384	53	3988
2026-01-23 04:42:31.90	24.40	14.92	-40.9	-41.8	22.6	0.00e+00	0	43	0	765460480	53	3964
2026-01-23 04:42:35.94	24.00	15.30	-40.8	-41.6	22.7	0.00e+00	0	43	0	788529152	53	3900
2026-01-23 04:42:39.97	23.58	15.69	-40.7	-41.5	22.9	0.00e+00	0	43	0	810549248	53	3841
2026-01-23 04:42:44.01	23.16	16.08	-40.5	-41.3	23.1	0.00e+00	0	43	0	833617920	52	3981
2026-01-23 04:42:48.05	22.72	16.47	-40.4	-41.1	23.2	0.00e+00	0	43	0	856686592	52	3909
2026-01-23 04:42:52.08	22.28	16.87	-40.1	-40.9	23.4	0.00e+00	0	43	0	878706688	52	3806
2026-01-23 04:42:56.11	21.82	17.27	-40.1	-40.8	23.6	0.00e+00	0	43	0	901775360	51	3985
2026-01-23 04:43:00.15	21.34	17.68	-40.3	-41.1	23.4	0.00e+00	0	43	0	924844032	51	4126
2026-01-23 04:43:04.18	20.86	18.10	-40.1	-40.9	23.6	0.00e+00	0	43	0	946864128	51	4018
2026-01-23 04:43:08.21	20.36	18.51	-40.0	-40.7	23.7	0.00e+00	0	43	0	969932800	51	3946
2026-01-23 04:43:12.25	19.84	18.94	-42.6	-43.4	21.0	0.00e+00	0	43	0	993001472	56	4050
2026-01-23 04:43:16.28	19.31	19.36	-39.8	-40.5	24.0	0.00e+00	0	44	0	1015021568	51	3855
2026-01-23 04:43:20.32	18.77	19.80	-39.3	-40.0	24.4	0.00e+00	0	43	0	1038090240	50	3868
2026-01-23 04:43:24.36	18.20	20.24	-39.4	-40.2	24.3	0.00e+00	0	43	0	1061158912	50	3925
2026-01-23 04:43:28.39	17.63	20.68	-39.6	-40.4	24.1	0.00e+00	0	43	0	1083179008	50	4008
2026-01-23 04:43:32.43	17.03	21.12	-39.6	-40.4	24.2	0.00e+00	0	44	0	1106247680	50	4005
2026-01-23 04:43:36.46	16.42	21.58	-39.1	-39.8	24.6	0.00e+00	0	44	0	1129316352	50	3763
2026-01-23 04:43:40.50	15.78	22.03	-38.9	-39.6	24.8	0.00e+00	0	43	0	1151336448	49	3913
2026-01-23 04:43:44.54	15.13	22.49	-38.9	-39.6	24.9	0.00e+00	0	43	0	1174405120	49	3875
2026-01-23 04:43:48.57	14.46	22.96	-38.7	-39.4	25.0	0.00e+00	0	43	0	1196425216	49	3810
2026-01-23 04:43:52.61	13.77	23.43	-38.8	-39.5	24.9	0.00e+00	0	44	0	1219493888	49	3861
2026-01-23 04:43:56.65	13.05	23.90	-38.8	-39.6	24.9	0.00e+00	0	44	0	1242562560	49	3870
2026-01-23 04:44:00.69	12.31	24.37	-38.8	-39.5	25.0	0.00e+00	0	43	0	1264582656	49	3850
2026-01-23 04:44:04.72	11.56	24.85	-38.7	-39.4	25.0	0.00e+00	0	43	0	1287651328	49	3810
2026-01-23 04:44:08.75	10.77	25.33	-38.5	-39.2	25.2	0.00e+00	0	44	0	1310720000	49	3725
2026-01-23 04:44:12.78	9.97	25.82	-38.4	-39.1	25.4	0.00e+00	0	43	0	1332740096	48	3881
2026-01-23 04:44:16.81	9.13	26.31	-38.5	-39.2	25.3	0.00e+00	0	43	0	1355808768	48	3932
2026-01-23 04:44:20.85	8.27	26.80	-38.2	-38.9	25.5	0.00e+00	0	44	0	1378877440	48	3799
2026-01-23 04:44:24.88	7.39	27.28	-38.2	-38.9	25.6	0.00e+00	0	43	0	1400897536	48	3799
2026-01-23 04:44:28.91	6.47	27.78	-38.2	-38.9	25.5	0.00e+00	0	44	0	1423966208	48	3807
2026-01-23 04:44:32.94	5.53	28.27	-38.3	-39.0	25.4	0.00e+00	0	44	0	1447034880	48	3862
2026-01-23 04:44:36.97	4.56	28.76	-38.0	-38.7	25.8	0.00e+00	0	44	0	1469054976	48	3716
2026-01-23 04:44:41.00	3.55	29.25	-37.7	-38.4	25.5	0.00e+00	0	43	0	1492123648	47	3789
2026-01-23 04:44:45.03	2.52	29.74	-37.9	-38.6	25.4	0.00e+00	0	43	0	1514143744	47	3884
2026-01-23 04:44:49.06	1.45	30.22	-37.6	-38.3	25.6	0.00e+00	0	44	0	1537212416	47	3770
2026-01-23 04:44:53.10	0.35	30.70	-37.8	-38.5	25.4	0.00e+00	0	44	0	1559232512	47	3850
2026-01-23 04:44:57.13	359.21	31.18	-37.6	-38.4	25.6	0.00e+00	0	44	0	1582301184	47	3781
2026-01-23 04:45:01.17	358.04	31.66	-37.4	-38.1	25.8	0.00e+00	0	44	0	1605369856	46	3882
2026-01-23 04:45:05.20	356.84	32.12	-37.5	-38.2	25.7	0.00e+00	0	44	0	1627389952	46	3954
2026-01-23 04:45:09.23	355.60	32.58	-37.5	-38.2	25.7	0.00e+00	0	44	0	1650458624	46	3947
2026-01-23 04:45:13.26	354.33	33.03	-37.4	-38.2	25.8	0.00e+00	0	44	0	1673527296	46	3914
2026-01-23 04:45:17.29	353.02	33.47	-37.4	-38.1	25.8	0.00e+00	0	44	0	1695547392	46	3895
2026-01-23 04:45:21.32	351.68	33.90	-37.5	-38.2	25.7	0.00e+00	0	44	0	1718616064	46	3943
2026-01-23 04:45:25.35	350.30	34.31	-37.5	-38.2	25.7	0.00e+00	0	44	0	1741684736	46	3950
2026-01-23 04:45:29.39	348.88	34.72	-37.3	-38.0	25.9	0.00e+00	0	44	0	1763704832	46	3844
2026-01-23 04:45:33.42	347.43	35.10	-37.2	-37.9	26.0	0.00e+00	0	44	0	1786773504	46	3804
2026-01-23 04:45:37.45	345.94	35.47	-37.2	-37.9	26.0	0.00e+00	0	44	0	1809842176	46	3821
2026-01-23 04:45:41.48	344.43	35.82	-37.4	-38.1	25.9	0.00e+00	0	44	0	1831862272	46	3874
2026-01-23 04:45:45.51	342.88	36.15	-37.5	-38.2	25.8	0.00e+00	0	44	0	1854930944	46	3946
2026-01-23 04:45:49.55	341.29	36.46	-37.6	-38.3	25.8	0.00e+00	0	44	0	1877999616	46	3969
2026-01-23 04:45:53.58	339.68	36.75	-37.3	-38.0	26.0	0.00e+00	0	44	0	1900019712	46	3849
2026-01-23 04:45:57.61	338.04	37.01	-37.6	-38.3	25.8	0.00e+00	0	44	0	1923088384	46	3975
2026-01-23 04:46:01.64	336.38	37.25	-37.5	-38.2	25.9	0.00e+00	0	44	0	1946157056	46	3936
2026-01-23 04:46:05.67	334.69	37.46	-37.3	-38.0	26.0	0.00e+00	0	44	0	1968177152	46	3859
2026-01-23 04:46:09.71	332.98	37.64	-37.5	-38.1	25.9	0.00e+00	0	44	0	1990197248	46	3911
2026-01-23 04:46:13.74	331.25	37.80	-37.3	-38.0	26.1	0.00e+00	0	44	0	2013265920	46	3828
2026-01-23 04:46:17.78	329.51	37.92	-37.3	-38.0	26.0	0.00e+00	0	44	0	2036334592	46	3844
2026-01-23 04:46:21.81	327.75	38.02	-37.7	-38.4	25.7	0.00e+00	0	44	0	2058354688	46	4048
2026-01-23 04:46:25.84	325.99	38.09	-37.4	-38.0	26.0	0.00e+00	0	44	0	2081423360	46	3861
2026-01-23 04:46:29.88	324.22	38.12	-37.4	-38.1	26.0	0.00e+00	0	44	0	2104492032	46	3877
2026-01-23 04:46:33.91	322.45	38.12	-37.5	-38.2	25.9	0.00e+00	0	44	0	2126512128	46	3926
2026-01-23 04:46:37.94	320.68	38.09	-37.6	-38.3	25.8	0.00e+00	0	44	0	2149580800	46	3972
2026-01-23 04:46:41.97	318.92	38.03	-37.6	-38.3	25.8	0.00e+00	0	44	0	2172649472	46	3993
2026-01-23 04:46:46.00	317.16	37.94	-37.5	-38.2	25.9	0.00e+00	0	44	0	2194669568	46	3920
2026-01-23 04:46:50.03	315.41	37.82	-37.3	-38.0	26.0	0.00e+00	0	44	0	2217738240	46	3840
2026-01-23 04:46:54.07	313.68	37.67	-37.4	-38.1	25.9	0.00e+00	0	44	0	2240806912	46	3902
2026-01-23 04:46:58.10	311.97	37.49	-37.5	-38.2	25.9	0.00e+00	0	44	0	2262827008	46	3922
2026-01-23 04:47:02.13	310.28	37.29	-37.4	-38.1	26.0	0.00e+00	0	44	0	2285895680	46	3884
2026-01-23 04:47:06.16	308.61	37.05	-37.2	-37.9	26.2	0.00e+00	0	44	0	2308964352	46	3794
2026-01-23 04:47:10.19	306.96	36.80	-37.5	-38.1	25.9	0.00e+00	0	44	0	2330984448	46	3912
2026-01-23 04:47:14.23	305.34	36.51	-37.3	-38.0	26.0	0.00e+00	0	44	0	2353004544	46	3859
2026-01-23 04:47:18.26	303.75	36.21	-37.4	-38.1	26.0	0.00e+00	0	44	0	2376073216	46	3905
2026-01-23 04:47:22.30	302.19	35.88	-37.2	-37.9	26.2	0.00e+00	0	44	0	2399141888	46	3806
2026-01-23 04:47:26.33	300.66	35.53	-37.4	-38.1	26.0	0.00e+00	0	43	0	2422210560	46	3876
2026-01-23 04:47:30.36	299.17	35.16	-37.5	-38.2	25.9	0.00e+00	0	44	0	2444230656	46	3956
2026-01-23 04:47:34.40	297.71	34.78	-37.5	-38.2	25.9	0.00e+00	0	44	0	2467299328	46	3932
2026-01-23 04:47:38.43	296.29	34.38	-37.2	-37.9	26.2	0.00e+00	0	44	0	2489319424	46	3787
2026-01-23 04:47:42.46	294.90	33.96	-37.3	-38.0	26.1	0.00e+00	0	43	0	2512388096	46	3836
2026-01-23 04:47:46.49	293.55	33.54	-37.4	-38.1	26.0	0.00e+00	0	44	0	2535456768	46	3889
2026-01-23 04:47:50.53	292.23	33.10	-37.3	-38.0	26.1	0.00e+00	0	44	0	2557476864	46	3856
2026-01-23 04:47:54.56	290.94	32.65	-37.6	-38.3	25.8	0.00e+00	0	44	0	2580545536	46	3965
2026-01-23 04:47:58.59	289.70	32.19	-37.7	-38.4	25.7	0.00e+00	0	44	0	2603614208	46	4032
2026-01-23 04:48:02.62	288.49	31.73	-37.4	-38.1	25.9	0.00e+00	0	44	0	2625634304	46	3905
2026-01-23 04:48:06.65	287.31	31.25	-37.6	-38.3	25.8	0.00e+00	0	44	0	2648702976	46	3973
2026-01-23 04:48:10.68	286.17	30.78	-37.8	-38.5	25.6	0.00e+00	0	44	0	2671771648	46	4060
2026-01-23 04:48:14.71	285.06	30.29	-37.6	-38.3	25.8	0.00e+00	0	44	0	2693791744	46	3983
2026-01-23 04:48:18.75	283.99	29.81	-37.4	-38.0	26.0	0.00e+00	0	44	0	2716860416	46	3868
2026-01-23 04:48:22.78	282.94	29.32	-37.9	-38.6	25.5	0.00e+00	0	44	0	2738880512	46	4105
2026-01-23 04:48:26.81	281.93	28.83	-38.0	-38.7	25.4	0.00e+00	0	44	0	2761949184	46	4173
2026-01-23 04:48:30.85	280.95	28.33	-37.9	-38.6	25.5	0.00e+00	0	43	0	2785017856	46	4141
2026-01-23 04:48:34.88	280.00	27.84	-38.2	-38.9	25.2	0.00e+00	0	44	0	2807037952	47	4039
2026-01-23 04:48:38.91	279.08	27.35	-38.3	-39.0	25.1	0.00e+00	0	44	0	2830106624	47	4063
2026-01-23 04:48:42.94	278.18	26.86	-38.1	-38.8	25.3	0.00e+00	0	43	0	2853175296	47	3983
2026-01-23 04:48:46.97	277.32	26.37	-38.4	-39.1	25.1	0.00e+00	0	44	0	2875195392	47	4121
2026-01-23 04:48:51.01	276.48	25.88	-38.3	-39.0	25.1	0.00e+00	0	44	0	2898264064	47	4084
2026-01-23 04:48:55.04	275.66	25.39	-38.5	-39.2	24.9	0.00e+00	0	44	0	2921332736	47	4162
2026-01-23 04:48:59.07	274.88	24.91	-38.6	-39.4	24.7	0.00e+00	0	43	0	2943352832	47	4254
2026-01-23 04:49:03.11	274.11	24.43	-39.1	-39.8	24.9	0.00e+00	0	44	0	2966421504	48	4202
2026-01-23 04:49:07.14	273.37	23.95	-39.0	-39.7	25.0	0.00e+00	0	43	0	2989490176	48	4166
2026-01-23 04:49:11.17	272.65	23.48	-38.8	-39.4	25.2	0.00e+00	0	43	0	3011510272	48	4045
2026-01-23 04:49:15.20	271.95	23.01	-38.7	-39.4	25.2	0.00e+00	0	43	0	3034578944	48	4017
2026-01-23 04:49:19.24	271.27	22.54	-38.7	-39.4	25.2	0.00e+00	0	44	0	3057647616	48	4045
2026-01-23 04:49:23.27	270.62	22.08	-38.9	-39.6	25.0	0.00e+00	0	44	0	3079667712	48	4133
2026-01-23 04:49:27.31	269.98	21.62	-39.2	-39.9	24.7	0.00e+00	0	44	0	3101687808	48	4263
2026-01-23 04:49:31.34	269.36	21.17	-39.2	-39.9	24.7	0.00e+00	0	44	0	3124756480	49	4019
2026-01-23 04:49:35.37	268.76	20.72	-39.0	-39.7	24.8	0.00e+00	0	44	0	3147825152	49	3952
2026-01-23 04:49:39.41	268.18	20.28	-39.1	-39.8	24.7	0.00e+00	0	44	0	3169845248	49	3997
2026-01-23 04:49:43.44	267.61	19.84	-39.3	-40.0	24.5	0.00e+00	0	43	0	3192913920	49	4074
2026-01-23 04:49:47.47	267.06	19.40	-39.6	-40.3	24.3	0.00e+00	0	43	0	3215982592	49	4219
2026-01-23 04:49:51.50	266.53	18.97	-39.6	-40.4	24.2	0.00e+00	0	43	0	3238002688	49	4249
2026-01-23 04:49:55.53	266.01	18.55	-39.9	-40.6	24.0	0.00e+00	0	44	0	3261071360	50	4128
2026-01-23 04:49:59.57	265.51	18.13	-39.8	-40.5	24.1	0.00e+00	0	44	0	3284140032	50	4079
2026-01-23 04:50:03.60	265.02	17.71	-40.0	-40.7	23.8	0.00e+00	0	44	0	3306160128	50	4187
2026-01-23 04:50:07.63	264.54	17.30	-40.0	-40.8	23.8	0.00e+00	0	44	0	3329228800	50	4201
2026-01-23 04:50:11.66	264.08	16.90	-40.0	-40.8	23.8	0.00e+00	0	44	0	3352297472	50	4211
2026-01-23 04:50:15.69	263.62	16.50	-40.2	-41.0	23.6	0.00e+00	0	44	0	3374317568	51	4063
2026-01-23 04:50:19.72	263.19	16.10	-40.3	-41.0	23.5	0.00e+00	0	43	0	3397386240	51	4082
2026-01-23 04:50:23.76	262.76	15.71	-40.3	-41.1	23.4	0.00e+00	0	43	0	3420454912	51	4118
2026-01-23 04:50:27.79	262.34	15.32	-40.6	-41.3	23.2	0.00e+00	0	43	0	3442475008	51	4236
2026-01-23 04:50:31.82	261.94	14.94	-40.7	-41.6	22.9	0.00e+00	0	43	0	3464495104	52	4100
2026-01-23 04:50:35.86	261.54	14.56	-40.8	-41.6	22.9	0.00e+00	0	44	0	3487563776	52	4108
2026-01-23 04:50:39.89	261.16	14.19	-40.8	-41.5	22.9	0.00e+00	0	43	0	3510632448	52	4092
2026-01-23 04:50:43.92	260.78	13.82	-40.9	-41.7	22.8	0.00e+00	0	43	0	3532652544	52	4150
2026-01-23 04:50:47.96	260.41	13.46	-40.8	-41.6	22.7	0.00e+00	0	43	0	3555721216	52	4140
2026-01-23 04:50:51.99	260.06	13.10	-40.8	-41.6	22.8	0.00e+00	0	44	0	3578789888	52	4111
2026-01-23 04:50:56.02	259.71	12.74	-41.0	-41.8	22.6	0.00e+00	0	43	0	3600809984	52	4200
2026-01-23 04:51:00.05	259.37	12.39	-41.2	-42.0	22.3	0.00e+00	0	43	0	3623878656	52	4337
2026-01-23 04:51:04.09	259.04	12.04	-41.3	-42.1	22.2	0.00e+00	0	44	0	3646947328	53	4141
2026-01-23 04:51:08.12	258.72	11.70	-41.5	-42.4	22.0	0.00e+00	0	43	0	3668967424	53	4253
2026-01-23 04:51:12.16	258.40	11.35	-41.4	-42.2	22.1	0.00e+00	0	43	0	3692036096	53	4183
2026-01-23 04:51:16.19	258.10	11.02	-41.4	-42.2	22.1	0.00e+00	0	44	0	3715104768	53	4182
2026-01-23 04:51:20.22	257.80	10.69	-41.5	-42.3	22.0	0.00e+00	0	44	0	3737124864	53	4210
2026-01-23 04:51:24.25	257.50	10.36	-41.5	-42.3	21.9	0.00e+00	0	43	0	3760193536	53	4239
2026-01-23 04:51:28.29	257.21	10.03	-41.6	-42.4	21.8	0.00e+00	0	44	0	3783262208	54	4041
2026-01-23 04:51:32.32	256.93	9.71	-41.6	-42.5	21.7	0.00e+00	0	44	0	3805282304	54	4067
2026-01-23 04:51:36.35	256.66	9.39	-41.7	-42.6	21.6	0.00e+00	0	44	0	3828350976	54	4120
2026-01-23 04:51:40.38	256.39	9.08	-41.9	-42.8	21.4	0.00e+00	0	44	0	3850371072	54	4218
2026-01-23 04:51:44.41	256.13	8.76	-42.1	-43.0	21.2	0.00e+00	0	44	0	3873439744	54	4301
2026-01-23 04:51:48.44	255.88	8.46	-42.1	-43.0	21.1	0.00e+00	0	43	0	3896508416	54	4333
2026-01-23 04:51:52.48	255.63	8.15	-42.2	-43.1	21.1	0.00e+00	0	43	0	3918528512	55	4102
2026-01-23 04:51:56.51	255.38	7.85	-42.1	-43.0	21.1	0.00e+00	0	43	0	3941597184	55	4091
2026-01-23 04:52:00.54	255.14	7.55	-42.1	-43.0	21.1	0.00e+00	0	43	0	3964665856	55	4065
2026-01-23 04:52:04.57	254.91	7.25	-42.3	-43.2	20.8	0.00e+00	0	44	0	3986685952	55	4189
2026-01-23 04:52:08.60	254.68	6.96	-42.5	-43.5	20.5	0.00e+00	0	43	0	4009754624	55	4303
2026-01-23 04:52:12.64	254.45	6.67	-42.9	-43.9	20.2	0.00e+00	0	43	0	4032823296	56	4252
2026-01-23 04:52:16.67	254.23	6.38	-42.7	-43.6	20.4	0.00e+00	0	44	0	4054843392	56	4144
2026-01-23 04:52:20.70	254.02	6.10	-43.0	-44.0	20.1	0.00e+00	0	44	0	4077912064	56	4295
2026-01-23 04:52:24.73	253.81	5.82	-43.1	-44.1	19.9	0.00e+00	0	44	0	4099932160	57	4116
2026-01-23 04:52:28.76	253.60	5.54	-43.1	-44.1	19.8	0.00e+00	0	43	0	4123000832	57	4136
2026-01-23 04:52:32.79	253.40	5.26	-43.1	-44.1	19.8	0.00e+00	0	44	0	4146069504	57	4106
2026-01-23 04:52:36.83	253.20	4.98	-52.6	-63.2	3.8	0.00e+00	0	44	0	4168089600	75	13251
2026-01-23 04:52:40.86	253.00	4.71	-52.9	-64.9	3.8	8.46e-01	0	44	104	4168089600	77	14232
2026-01-23 04:52:44.90	252.81	4.44	-53.2	-65.1	3.8	8.47e-01	0	44	104	4168089600	77	14639
2026-01-23 04:52:48.93	252.63	4.18	-53.3	-65.2	3.8	8.45e-01	0	44	104	4168089600	77	14823
2026-01-23 04:52:52.96	252.44	3.91	-53.5	-65.4	3.8	8.46e-01	0	44	104	4168089600	77	15154
2026-01-23 04:52:56.99	252.26	3.65	-53.6	-65.5	3.8	8.46e-01	0	44	104	4168089600	77	15364
2026-01-23 04:53:01.02	252.09	3.39	-53.6	-65.5	3.8	8.46e-01	0	44	104	4168089600	77	15335
2026-01-23 04:53:05.05	251.91	3.13	-53.5	-65.5	3.8	8.46e-01	0	44	104	4168089600	77	15305
2026-01-23 04:53:09.08	251.74	2.87	-53.5	-65.5	3.8	8.46e-01	0	44	104	4168089600	77	15296
2026-01-23 04:53:13.11	251.58	2.62	-53.5	-65.5	3.8	8.48e-01	0	44	104	4168089600	77	15273
2026-01-23 04:53:17.14	251.41	2.37	-53.5	-65.5	3.8	8.45e-01	0	44	104	4168089600	77	15316
2026-01-23 04:53:21.18	251.25	2.12	-53.5	-65.5	3.8	8.46e-01	0	44	104	4168089600	77	15230

#Closed at: 2026-01-23 04:53:24
#Recorded file [4168 MB]: D:/lorett/data/31041_260123_073942.dat