passes_logs/2026/01/23/R3.2S_Murmansk/R3.2S_Murmansk__20260123_052056_SUOMI_NPP_rec.log

#Pass ID: 20260123_052056_SUOMI NPP
#Satellite: SUOMI NPP
#Configuration: NPP
#almurnet v.1.7.20251203
#Start time: 2026-01-23 05:20:58

#Version: 2.2.20231116
#Station: R3.2S_Murmansk
#Location: 33.079688 lon 68.888172 lat
#TLE: 1 37849U 11061A   26022.50498765  .00000208  00000+0  11976-3 0  9992
#TLE: 2 37849  98.7820 324.4892 0002275  50.8149 309.3229 14.19528284737775

#Time	Az	El	Level	Level2	SNR	BER	BlckErr	Temp	State	Recorded	gain1	gain2
2026-01-23 05:20:58.41	63.73	2.08	-54.2	-69.3	3.8	1.49e+00	0	41	0	0	79	21045
2026-01-23 05:21:01.43	63.53	2.25	-54.2	-69.2	3.8	1.49e+00	0	41	104	0	79	20981
2026-01-23 05:21:04.46	63.34	2.43	-54.4	-69.4	3.8	1.49e+00	0	41	104	0	79	21376
2026-01-23 05:21:07.48	63.14	2.60	-54.4	-69.4	3.8	1.49e+00	0	41	104	0	79	21385
2026-01-23 05:21:10.51	62.93	2.77	-54.3	-69.3	3.8	1.49e+00	0	41	104	0	79	21105
2026-01-23 05:21:13.53	62.73	2.95	-54.1	-69.1	3.8	1.49e+00	0	41	104	0	79	20731
2026-01-23 05:21:16.56	62.52	3.12	-53.9	-68.9	3.8	1.49e+00	0	42	104	0	79	20224
2026-01-23 05:21:19.58	62.31	3.30	-53.7	-68.6	3.8	1.49e+00	0	42	104	0	79	19529
2026-01-23 05:21:22.61	62.10	3.48	-53.2	-68.1	3.8	1.49e+00	0	42	104	0	78	19613
2026-01-23 05:21:25.63	61.88	3.66	-52.4	-67.3	3.8	1.49e+00	0	42	104	0	76	20054
2026-01-23 05:21:28.65	61.67	3.83	-52.3	-67.0	3.8	1.49e+00	0	42	104	0	76	19377
2026-01-23 05:21:31.68	61.44	4.01	-52.3	-66.1	3.8	1.49e+00	0	42	104	0	76	17307
2026-01-23 05:21:34.70	61.22	4.19	-52.3	-65.7	3.8	1.49e+00	0	42	104	0	76	16537
2026-01-23 05:21:37.73	60.99	4.38	-52.0	-62.5	4.6	1.23e+00	0	42	0	1048576	76	11486
2026-01-23 05:21:40.75	60.76	4.56	-51.3	-58.0	8.0	1.09e-01	0	42	0	6291456	74	7638
2026-01-23 05:21:43.78	60.53	4.74	-50.7	-56.0	10.0	1.08e-02	0	42	0	11534336	73	6452
2026-01-23 05:21:46.80	60.30	4.92	-51.1	-57.2	8.7	2.18e-02	0	42	0	17825792	73	7452
2026-01-23 05:21:49.83	60.06	5.11	-48.9	-51.9	14.3	2.21e-02	0	42	0	23068672	69	5068
2026-01-23 05:21:52.85	59.81	5.29	-47.7	-50.0	15.7	1.09e+00	0	42	104	27262976	67	4576
2026-01-23 05:21:55.88	59.57	5.48	-47.9	-50.3	16.0	0.00e+00	0	42	0	29360128	67	4713
2026-01-23 05:21:58.91	59.32	5.67	-47.7	-50.0	16.2	0.00e+00	0	43	0	35651584	67	4581
2026-01-23 05:22:01.94	59.07	5.85	-47.7	-50.0	16.2	0.00e+00	0	42	0	40894464	67	4588
2026-01-23 05:22:04.97	58.81	6.04	-47.5	-49.7	16.7	0.00e+00	0	42	0	46137344	66	4656
2026-01-23 05:22:07.99	58.55	6.23	-47.6	-49.9	16.4	0.00e+00	0	42	0	52428800	66	4813
2026-01-23 05:22:11.02	58.29	6.42	-47.8	-50.2	16.1	0.00e+00	0	42	0	57671680	66	4970
2026-01-23 05:22:14.04	58.03	6.61	-48.1	-50.7	15.7	0.00e+00	0	42	0	63963136	67	4932
2026-01-23 05:22:17.07	57.76	6.80	-47.8	-50.2	16.2	0.00e+00	0	43	0	69206016	67	4668
2026-01-23 05:22:20.10	57.48	7.00	-47.9	-50.4	16.0	0.00e+00	0	42	0	74448896	67	4782
2026-01-23 05:22:23.13	57.20	7.19	-47.9	-50.4	16.0	0.00e+00	0	43	0	80740352	67	4788
2026-01-23 05:22:26.16	56.92	7.38	-47.7	-49.9	16.6	0.00e+00	0	43	0	85983232	67	4538
2026-01-23 05:22:29.18	56.64	7.58	-47.5	-49.7	16.8	0.00e+00	0	43	0	92274688	66	4700
2026-01-23 05:22:32.20	56.35	7.77	-47.4	-49.6	16.9	0.00e+00	0	43	0	97517568	66	4606
2026-01-23 05:22:35.23	56.06	7.97	-47.3	-49.4	17.2	0.00e+00	0	43	0	103809024	66	4513
2026-01-23 05:22:38.26	55.76	8.17	-47.1	-49.1	17.4	0.00e+00	0	43	0	109051904	66	4357
2026-01-23 05:22:41.28	55.46	8.36	-46.9	-48.9	17.7	0.00e+00	0	43	0	114294784	65	4508
2026-01-23 05:22:44.31	55.15	8.56	-47.0	-49.0	17.6	0.00e+00	0	43	0	120586240	65	4580
2026-01-23 05:22:47.33	54.85	8.76	-47.0	-48.9	17.7	0.00e+00	0	43	0	125829120	65	4533
2026-01-23 05:22:50.35	54.53	8.96	-47.2	-49.2	17.4	0.00e+00	0	43	0	132120576	65	4683
2026-01-23 05:22:53.38	54.21	9.16	-47.2	-49.2	17.4	0.00e+00	0	43	0	137363456	65	4654
2026-01-23 05:22:56.40	53.89	9.36	-47.2	-49.3	17.4	0.00e+00	0	43	0	142606336	65	4707
2026-01-23 05:22:59.42	53.56	9.57	-47.5	-49.7	17.0	0.00e+00	0	43	0	148897792	65	4945
2026-01-23 05:23:02.45	53.23	9.77	-47.3	-49.4	17.4	0.00e+00	0	43	0	154140672	66	4495
2026-01-23 05:23:05.47	52.89	9.97	-47.3	-49.3	17.4	0.00e+00	0	43	0	160432128	66	4451
2026-01-23 05:23:08.49	52.55	10.18	-47.4	-49.4	17.4	0.00e+00	0	43	0	165675008	66	4510
2026-01-23 05:23:11.51	52.21	10.38	-47.4	-49.4	17.3	0.00e+00	0	43	0	171966464	66	4528
2026-01-23 05:23:14.54	51.85	10.59	-47.4	-49.5	17.2	0.00e+00	0	43	0	177209344	66	4563
2026-01-23 05:23:17.56	51.50	10.79	-47.1	-49.1	17.7	0.00e+00	0	43	0	182452224	66	4355
2026-01-23 05:23:20.59	51.13	11.00	-47.0	-48.9	17.9	0.00e+00	0	43	0	188743680	65	4501
2026-01-23 05:23:23.61	50.77	11.21	-46.8	-48.6	18.1	0.00e+00	0	43	0	193986560	65	4370
2026-01-23 05:23:26.63	50.39	11.42	-46.5	-48.3	18.4	0.00e+00	0	43	0	200278016	65	4214
2026-01-23 05:23:29.66	50.02	11.63	-46.5	-48.2	18.5	0.00e+00	0	43	0	205520896	64	4441
2026-01-23 05:23:32.68	49.63	11.84	-46.4	-48.1	18.7	0.00e+00	0	43	0	210763776	64	4347
2026-01-23 05:23:35.70	49.24	12.05	-46.4	-48.1	18.6	0.00e+00	0	43	0	217055232	64	4389
2026-01-23 05:23:38.73	48.85	12.26	-46.3	-48.0	18.8	0.00e+00	0	43	0	222298112	64	4293
2026-01-23 05:23:41.75	48.45	12.47	-46.0	-47.6	19.1	0.00e+00	0	43	0	228589568	64	4135
2026-01-23 05:23:44.78	48.04	12.68	-46.2	-47.8	19.0	0.00e+00	0	43	0	233832448	64	4219
2026-01-23 05:23:47.80	47.63	12.89	-46.4	-48.1	18.7	0.00e+00	0	43	0	239075328	64	4345
2026-01-23 05:23:50.82	47.21	13.10	-46.3	-48.0	18.8	0.00e+00	0	43	0	245366784	64	4302
2026-01-23 05:23:53.85	46.78	13.31	-46.5	-48.3	18.5	0.00e+00	0	43	0	250609664	64	4448
2026-01-23 05:23:56.87	46.35	13.53	-46.3	-48.0	18.7	0.00e+00	0	43	0	256901120	64	4297
2026-01-23 05:23:59.90	45.91	13.74	-46.3	-48.0	18.7	0.00e+00	0	43	0	262144000	64	4320
2026-01-23 05:24:02.92	45.47	13.95	-46.4	-48.2	18.6	0.00e+00	0	43	0	267386880	64	4434
2026-01-23 05:24:05.95	45.02	14.16	-46.4	-48.2	18.7	0.00e+00	0	43	0	273678336	64	4401
2026-01-23 05:24:08.97	44.56	14.38	-46.4	-48.2	18.7	0.00e+00	0	43	0	278921216	64	4398
2026-01-23 05:24:11.99	44.10	14.59	-46.4	-48.1	18.7	0.00e+00	0	43	0	285212672	64	4378
2026-01-23 05:24:15.02	43.62	14.80	-46.6	-48.4	18.5	0.00e+00	0	43	0	290455552	64	4513
2026-01-23 05:24:18.04	43.15	15.01	-46.9	-48.8	18.1	0.00e+00	0	43	0	295698432	64	4717
2026-01-23 05:24:21.07	42.66	15.23	-47.2	-49.1	17.7	0.00e+00	0	43	0	301989888	65	4651
2026-01-23 05:24:24.09	42.17	15.44	-46.9	-48.8	18.1	0.00e+00	0	43	0	307232768	65	4450
2026-01-23 05:24:27.11	41.67	15.65	-46.6	-48.4	18.4	0.00e+00	0	43	0	313524224	65	4252
2026-01-23 05:24:30.14	41.16	15.86	-46.8	-48.6	18.3	0.00e+00	0	43	0	318767104	65	4371
2026-01-23 05:24:33.16	40.65	16.07	-46.8	-48.6	18.2	0.00e+00	0	43	0	324009984	65	4378
2026-01-23 05:24:36.18	40.13	16.28	-46.5	-48.2	18.6	0.00e+00	0	43	0	330301440	65	4184
2026-01-23 05:24:39.21	39.60	16.49	-46.6	-48.3	18.5	0.00e+00	0	43	0	335544320	64	4493
2026-01-23 05:24:42.23	39.06	16.70	-47.0	-48.8	18.2	0.00e+00	0	43	0	341835776	64	4738
2026-01-23 05:24:45.26	38.52	16.91	-47.2	-49.1	17.8	0.00e+00	0	43	0	347078656	64	4922
2026-01-23 05:24:48.28	37.97	17.12	-47.0	-48.9	18.0	0.00e+00	0	43	0	352321536	65	4516
2026-01-23 05:24:51.30	37.41	17.32	-46.5	-48.2	18.6	0.00e+00	0	43	0	358612992	65	4185
2026-01-23 05:24:54.33	36.84	17.53	-46.1	-47.6	19.4	0.00e+00	0	43	0	363855872	63	4374
2026-01-23 05:24:57.35	36.27	17.73	-46.3	-48.0	19.0	0.00e+00	0	43	0	370147328	63	4557
2026-01-23 05:25:00.38	35.68	17.93	-46.0	-47.6	19.4	0.00e+00	0	43	0	375390208	63	4362
2026-01-23 05:25:03.40	35.10	18.13	-45.9	-47.5	19.4	0.00e+00	0	43	0	380633088	63	4310
2026-01-23 05:25:06.43	34.50	18.33	-45.4	-46.9	19.9	0.00e+00	0	43	0	386924544	62	4260
2026-01-23 05:25:09.45	33.89	18.53	-45.2	-46.6	20.3	0.00e+00	0	43	0	392167424	62	4121
2026-01-23 05:25:12.47	33.28	18.73	-45.3	-46.7	20.2	0.00e+00	0	43	0	398458880	62	4183
2026-01-23 05:25:15.49	32.66	18.92	-45.1	-46.5	20.4	0.00e+00	0	43	0	403701760	62	4069
2026-01-23 05:25:18.52	32.02	19.11	-44.7	-46.0	20.8	0.00e+00	0	43	0	409993216	61	4059
2026-01-23 05:25:21.54	31.39	19.30	-44.6	-45.9	20.9	0.00e+00	0	43	0	415236096	61	4027
2026-01-23 05:25:24.56	30.74	19.49	-44.8	-46.1	20.7	0.00e+00	0	43	0	420478976	61	4099
2026-01-23 05:25:27.59	30.09	19.67	-45.1	-46.4	20.5	0.00e+00	0	43	0	426770432	61	4290
2026-01-23 05:25:30.61	29.42	19.85	-45.2	-46.6	20.3	0.00e+00	0	43	0	432013312	61	4358
2026-01-23 05:25:33.64	28.75	20.03	-44.4	-45.7	21.1	0.00e+00	0	43	0	438304768	60	4148
2026-01-23 05:25:36.66	28.08	20.21	-44.7	-46.0	20.8	0.00e+00	0	43	0	443547648	60	4321
2026-01-23 05:25:39.68	27.39	20.38	-44.5	-45.7	21.1	0.00e+00	0	43	0	448790528	60	4193
2026-01-23 05:25:42.71	26.70	20.55	-44.5	-45.7	21.1	0.00e+00	0	43	0	455081984	60	4189
2026-01-23 05:25:45.73	25.99	20.72	-44.5	-45.7	21.4	0.00e+00	0	43	0	460324864	59	4406
2026-01-23 05:25:48.76	25.28	20.88	-44.5	-45.7	21.2	0.00e+00	0	43	0	466616320	60	4158
2026-01-23 05:25:51.78	24.57	21.04	-44.4	-45.5	21.6	0.00e+00	0	43	0	471859200	59	4333
2026-01-23 05:25:54.81	23.84	21.20	-44.4	-45.6	21.3	0.00e+00	0	43	0	478150656	60	4103
2026-01-23 05:25:57.83	23.11	21.35	-44.3	-45.5	21.4	0.00e+00	0	43	0	483393536	60	4087
2026-01-23 05:26:00.85	22.38	21.50	-44.4	-45.6	21.3	0.00e+00	0	43	0	488636416	60	4107
2026-01-23 05:26:03.88	21.63	21.64	-44.3	-45.5	21.4	0.00e+00	0	43	0	494927872	60	4076
2026-01-23 05:26:06.90	20.88	21.78	-44.3	-45.5	21.4	0.00e+00	0	43	0	500170752	60	4090
2026-01-23 05:26:09.93	20.12	21.91	-44.2	-45.4	21.8	0.00e+00	0	43	0	506462208	59	4249
2026-01-23 05:26:12.95	19.35	22.04	-44.4	-45.6	21.5	0.00e+00	0	43	0	511705088	59	4375
2026-01-23 05:26:15.97	18.58	22.17	-44.3	-45.4	21.7	0.00e+00	0	43	0	516947968	59	4287
2026-01-23 05:26:19.00	17.80	22.29	-44.5	-45.7	21.5	0.00e+00	0	43	0	523239424	59	4393
2026-01-23 05:26:22.02	17.02	22.40	-44.3	-45.5	21.4	0.00e+00	0	43	0	528482304	60	4077
2026-01-23 05:26:25.05	16.23	22.51	-45.3	-46.6	20.5	0.00e+00	0	43	0	534773760	61	4354
2026-01-23 05:26:28.07	15.43	22.61	-45.9	-47.4	19.8	0.00e+00	0	43	0	540016640	62	4503
2026-01-23 05:26:31.10	14.63	22.71	-46.1	-47.6	19.5	0.00e+00	0	43	0	545259520	63	4382
2026-01-23 05:26:34.12	13.83	22.80	-45.5	-46.9	20.2	0.00e+00	0	43	0	551550976	63	4042
2026-01-23 05:26:37.15	13.02	22.89	-45.2	-46.6	20.4	0.00e+00	0	43	0	556793856	62	4106
2026-01-23 05:26:40.17	12.20	22.97	-45.3	-46.7	20.4	0.00e+00	0	43	0	563085312	62	4159
2026-01-23 05:26:43.19	11.38	23.05	-45.4	-46.8	20.2	0.00e+00	0	43	0	568328192	62	4233
2026-01-23 05:26:46.22	10.56	23.11	-45.8	-47.3	19.7	0.00e+00	0	43	0	573571072	62	4483
2026-01-23 05:26:49.24	9.74	23.18	-45.8	-47.3	19.8	0.00e+00	0	43	0	579862528	62	4459
2026-01-23 05:26:52.26	8.91	23.23	-46.3	-47.9	19.3	0.00e+00	0	43	0	585105408	63	4502
2026-01-23 05:26:55.29	8.08	23.28	-46.4	-48.0	19.1	0.00e+00	0	44	0	591396864	63	4558
2026-01-23 05:26:58.32	7.24	23.32	-46.1	-47.6	19.5	0.00e+00	0	43	0	596639744	63	4364
2026-01-23 05:27:01.34	6.40	23.36	-46.4	-48.1	19.1	0.00e+00	0	43	0	601882624	63	4599
2026-01-23 05:27:04.37	5.57	23.39	-47.1	-48.9	18.2	0.00e+00	0	43	0	608174080	64	4808
2026-01-23 05:27:07.39	4.73	23.41	-46.8	-48.6	18.5	0.00e+00	0	43	0	613416960	64	4633
2026-01-23 05:27:10.42	3.88	23.43	-45.8	-47.3	19.7	0.00e+00	0	44	0	619708416	63	4221
2026-01-23 05:27:13.44	3.04	23.44	-45.3	-46.6	20.3	0.00e+00	0	44	0	624951296	62	4144
2026-01-23 05:27:16.47	2.20	23.44	-45.8	-47.3	19.7	0.00e+00	0	44	0	630194176	62	4485
2026-01-23 05:27:19.49	1.36	23.44	-45.5	-47.0	20.0	0.00e+00	0	43	0	636485632	62	4297
2026-01-23 05:27:22.52	0.52	23.43	-45.3	-46.7	20.2	0.00e+00	0	43	0	641728512	62	4181
2026-01-23 05:27:25.54	359.68	23.41	-45.2	-46.6	20.4	0.00e+00	0	43	0	648019968	62	4105
2026-01-23 05:27:28.56	358.84	23.39	-45.3	-46.6	20.4	0.00e+00	0	43	0	653262848	62	4125
2026-01-23 05:27:31.59	358.00	23.36	-44.7	-45.9	21.0	0.00e+00	0	43	0	658505728	61	4045
2026-01-23 05:27:34.61	357.17	23.32	-45.0	-46.3	20.7	0.00e+00	0	43	0	664797184	61	4210
2026-01-23 05:27:37.64	356.33	23.28	-45.0	-46.3	20.7	0.00e+00	0	43	0	670040064	61	4225
2026-01-23 05:27:40.66	355.50	23.23	-44.4	-45.6	21.4	0.00e+00	0	43	0	676331520	60	4100
2026-01-23 05:27:43.69	354.67	23.17	-44.4	-45.6	21.4	0.00e+00	0	43	0	681574400	60	4123
2026-01-23 05:27:46.71	353.85	23.11	-44.4	-45.6	21.7	0.00e+00	0	43	0	687865856	59	4368
2026-01-23 05:27:49.74	353.02	23.04	-44.3	-45.5	21.8	0.00e+00	0	43	0	693108736	59	4302
2026-01-23 05:27:52.76	352.21	22.97	-44.3	-45.4	21.5	0.00e+00	0	43	0	698351616	60	4032
2026-01-23 05:27:55.78	351.39	22.89	-44.7	-45.9	21.1	0.00e+00	0	43	0	704643072	60	4265
2026-01-23 05:27:58.81	350.58	22.80	-44.9	-46.1	20.9	0.00e+00	0	43	0	709885952	60	4375
2026-01-23 05:28:01.83	349.78	22.71	-44.1	-45.2	21.7	0.00e+00	0	43	0	716177408	60	3958
2026-01-23 05:28:04.86	348.98	22.61	-44.5	-45.7	21.2	0.00e+00	0	43	0	721420288	60	4172
2026-01-23 05:28:07.88	348.18	22.51	-45.0	-46.2	20.8	0.00e+00	0	43	0	726663168	60	4441
2026-01-23 05:28:10.90	347.39	22.40	-44.5	-45.7	21.2	0.00e+00	0	43	0	732954624	60	4172
2026-01-23 05:28:13.93	346.61	22.28	-44.6	-45.8	21.1	0.00e+00	0	43	0	738197504	60	4232
2026-01-23 05:28:16.95	345.83	22.16	-45.2	-46.6	20.4	0.00e+00	0	43	0	744488960	61	4346
2026-01-23 05:28:19.98	345.06	22.04	-46.0	-47.5	19.6	0.00e+00	0	43	0	749731840	62	4564
2026-01-23 05:28:23.01	344.29	21.91	-46.4	-48.0	19.1	0.00e+00	0	43	0	756023296	63	4563
2026-01-23 05:28:26.03	343.53	21.78	-45.7	-47.2	19.9	0.00e+00	0	43	0	761266176	63	4167
2026-01-23 05:28:29.05	342.78	21.64	-45.6	-47.0	20.0	0.00e+00	0	43	0	766509056	62	4320
2026-01-23 05:28:32.08	342.04	21.49	-45.8	-47.2	19.9	0.00e+00	0	43	0	772800512	62	4418
2026-01-23 05:28:35.11	341.30	21.35	-45.4	-46.8	20.2	0.00e+00	0	43	0	778043392	62	4228
2026-01-23 05:28:38.13	340.57	21.19	-45.5	-46.9	20.2	0.00e+00	0	44	0	784334848	62	4260
2026-01-23 05:28:41.15	339.85	21.04	-45.2	-46.5	20.5	0.00e+00	0	43	0	789577728	62	4087
2026-01-23 05:28:44.18	339.13	20.88	-45.6	-47.0	20.1	0.00e+00	0	43	0	794820608	62	4310
2026-01-23 05:28:47.20	338.42	20.72	-46.1	-47.7	19.4	0.00e+00	0	43	0	801112064	62	4663
2026-01-23 05:28:50.22	337.72	20.55	-46.4	-48.0	19.0	0.00e+00	0	43	0	806354944	63	4596
2026-01-23 05:28:53.24	337.03	20.38	-46.6	-48.3	18.7	0.00e+00	0	43	0	812646400	64	4485
2026-01-23 05:28:56.27	336.34	20.21	-47.6	-49.7	17.3	0.00e+00	0	43	0	817889280	65	4972
2026-01-23 05:28:59.29	335.67	20.03	-47.1	-49.1	18.0	0.00e+00	0	44	0	823132160	66	4361
2026-01-23 05:29:02.32	334.99	19.85	-45.9	-47.5	19.6	0.00e+00	0	44	0	829423616	63	4294
2026-01-23 05:29:05.34	334.33	19.67	-45.3	-46.6	20.3	0.00e+00	0	43	0	834666496	62	4142
2026-01-23 05:29:08.36	333.68	19.49	-45.0	-46.3	20.6	0.00e+00	0	43	0	840957952	61	4229
2026-01-23 05:29:11.39	333.03	19.30	-44.9	-46.2	20.7	0.00e+00	0	43	0	846200832	61	4164
2026-01-23 05:29:14.41	332.40	19.11	-44.7	-46.0	20.8	0.00e+00	0	44	0	851443712	61	4054
2026-01-23 05:29:17.44	331.77	18.92	-44.4	-45.6	21.1	0.00e+00	0	44	0	857735168	60	4125
2026-01-23 05:29:20.46	331.14	18.72	-45.1	-46.5	20.4	0.00e+00	0	44	0	862978048	60	4551
2026-01-23 05:29:23.49	330.53	18.53	-46.4	-48.0	19.0	0.00e+00	0	44	0	869269504	63	4594
2026-01-23 05:29:26.51	329.93	18.33	-46.5	-48.3	18.7	0.00e+00	0	44	0	874512384	63	4729
2026-01-23 05:29:29.54	329.33	18.13	-45.8	-47.3	19.7	0.00e+00	0	43	0	879755264	63	4219
2026-01-23 05:29:32.56	328.74	17.93	-45.4	-46.8	20.1	0.00e+00	0	44	0	886046720	62	4222
2026-01-23 05:29:35.59	328.15	17.73	-44.7	-45.9	20.7	0.00e+00	0	43	0	891289600	61	4044
2026-01-23 05:29:38.61	327.58	17.52	-44.7	-46.0	20.8	0.00e+00	0	44	0	897581056	61	4067
2026-01-23 05:29:41.63	327.02	17.32	-45.6	-47.1	19.8	0.00e+00	0	44	0	902823936	61	4634
2026-01-23 05:29:44.66	326.46	17.11	-45.6	-47.1	19.9	0.00e+00	0	44	0	908066816	62	4357
2026-01-23 05:29:47.68	325.91	16.91	-45.6	-47.1	19.9	0.00e+00	0	43	0	914358272	62	4373
2026-01-23 05:29:50.71	325.36	16.70	-46.0	-47.6	19.4	0.00e+00	0	43	0	919601152	62	4600
2026-01-23 05:29:53.73	324.83	16.49	-45.8	-47.4	19.6	0.00e+00	0	43	0	925892608	62	4497
2026-01-23 05:29:56.76	324.30	16.28	-45.8	-47.3	19.7	0.00e+00	0	43	0	931135488	62	4444
2026-01-23 05:29:59.78	323.78	16.07	-45.2	-46.5	20.3	0.00e+00	0	44	0	936378368	62	4096
2026-01-23 05:30:02.81	323.26	15.86	-44.9	-46.2	20.6	0.00e+00	0	43	0	942669824	61	4183
2026-01-23 05:30:05.83	322.76	15.65	-45.1	-46.4	20.4	0.00e+00	0	43	0	947912704	61	4269
2026-01-23 05:30:08.86	322.26	15.44	-44.6	-45.8	21.0	0.00e+00	0	43	0	954204160	61	3995
2026-01-23 05:30:11.89	321.77	15.22	-44.3	-45.4	21.6	0.00e+00	0	43	0	959447040	59	4281
2026-01-23 05:30:14.91	321.28	15.01	-44.6	-45.8	21.3	0.00e+00	0	43	0	965738496	59	4459
2026-01-23 05:30:17.93	320.81	14.80	-44.7	-45.9	20.9	0.00e+00	0	43	0	970981376	60	4288
2026-01-23 05:30:20.96	320.33	14.59	-45.1	-46.4	20.4	0.00e+00	0	43	0	976224256	60	4538
2026-01-23 05:30:23.98	319.87	14.37	-45.1	-46.4	20.4	0.00e+00	0	44	0	982515712	60	4507
2026-01-23 05:30:27.01	319.41	14.16	-44.4	-45.6	21.1	0.00e+00	0	43	0	987758592	60	4132
2026-01-23 05:30:30.03	318.96	13.95	-44.5	-45.7	21.1	0.00e+00	0	43	0	994050048	60	4166
2026-01-23 05:30:33.06	318.52	13.74	-45.3	-46.6	20.2	0.00e+00	0	43	0	999292928	61	4372
2026-01-23 05:30:36.08	318.08	13.52	-45.6	-47.1	19.8	0.00e+00	0	43	0	1004535808	61	4602
2026-01-23 05:30:39.11	317.65	13.31	-45.6	-47.0	19.9	0.00e+00	0	43	0	1010827264	62	4318
2026-01-23 05:30:42.14	317.22	13.10	-45.5	-46.9	20.0	0.00e+00	0	43	0	1016070144	62	4268
2026-01-23 05:30:45.16	316.81	12.89	-45.4	-46.7	20.1	0.00e+00	0	44	0	1022361600	62	4189
2026-01-23 05:30:48.19	316.39	12.68	-44.5	-45.7	20.9	0.00e+00	0	43	0	1027604480	61	3955
2026-01-23 05:30:51.21	315.99	12.47	-45.0	-46.4	20.4	0.00e+00	0	43	0	1033895936	61	4247
2026-01-23 05:30:54.24	315.59	12.25	-46.1	-47.6	19.3	0.00e+00	0	43	0	1039138816	62	4633
2026-01-23 05:30:57.26	315.19	12.04	-46.4	-48.0	18.9	0.00e+00	0	44	0	1044381696	63	4570
2026-01-23 05:31:00.29	314.80	11.83	-46.0	-47.5	19.4	0.00e+00	0	43	0	1050673152	63	4338
2026-01-23 05:31:03.30	314.42	11.63	-45.5	-46.9	19.9	0.00e+00	0	43	0	1055916032	62	4247
2026-01-23 05:31:06.33	314.04	11.42	-45.4	-46.9	19.9	0.00e+00	0	43	0	1062207488	62	4247
2026-01-23 05:31:09.35	313.67	11.21	-45.6	-47.0	19.8	0.00e+00	0	43	0	1067450368	62	4325
2026-01-23 05:31:12.38	313.30	11.00	-45.6	-47.1	19.7	0.00e+00	0	43	0	1072693248	62	4344
2026-01-23 05:31:15.41	312.94	10.79	-45.7	-47.1	19.6	0.00e+00	0	43	0	1078984704	62	4375
2026-01-23 05:31:18.43	312.58	10.59	-46.3	-48.0	18.9	0.00e+00	0	44	0	1084227584	63	4547
2026-01-23 05:31:21.45	312.23	10.38	-46.3	-48.0	18.8	0.00e+00	0	43	0	1090519040	63	4550
2026-01-23 05:31:24.47	311.89	10.18	-46.5	-48.2	18.7	0.00e+00	0	44	0	1095761920	63	4652
2026-01-23 05:31:27.49	311.55	9.97	-46.4	-48.2	18.5	0.00e+00	0	43	0	1101004800	64	4396
2026-01-23 05:31:30.52	311.21	9.77	-46.9	-48.8	17.9	0.00e+00	0	43	0	1107296256	64	4734
2026-01-23 05:31:33.55	310.88	9.57	-47.3	-49.4	17.3	0.00e+00	0	43	0	1112539136	65	4781
2026-01-23 05:31:36.57	310.55	9.37	-47.0	-48.8	17.9	0.00e+00	0	43	0	1118830592	65	4490
2026-01-23 05:31:39.59	310.23	9.16	-46.3	-47.9	18.7	0.00e+00	0	43	0	1124073472	64	4288
2026-01-23 05:31:42.62	309.91	8.96	-46.1	-47.7	18.9	0.00e+00	0	43	0	1129316352	64	4151
2026-01-23 05:31:45.64	309.60	8.76	-46.3	-47.9	18.7	0.00e+00	0	43	0	1135607808	63	4529
2026-01-23 05:31:48.66	309.29	8.56	-46.5	-48.3	18.4	0.00e+00	0	43	0	1140850688	63	4706
2026-01-23 05:31:51.69	308.98	8.37	-46.8	-48.6	18.0	0.00e+00	0	43	0	1147142144	64	4632
2026-01-23 05:31:54.72	308.68	8.17	-47.0	-48.9	17.7	0.00e+00	0	43	0	1152385024	64	4762
2026-01-23 05:31:57.74	308.38	7.97	-46.5	-48.2	18.3	0.00e+00	0	43	0	1157627904	64	4410
2026-01-23 05:32:00.77	308.09	7.77	-46.6	-48.4	18.1	0.00e+00	0	43	0	1163919360	64	4502
2026-01-23 05:32:03.79	307.80	7.58	-46.6	-48.4	18.1	0.00e+00	0	44	0	1169162240	64	4496
2026-01-23 05:32:06.81	307.52	7.39	-46.7	-48.6	17.9	0.00e+00	0	43	0	1175453696	64	4613
2026-01-23 05:32:09.83	307.24	7.19	-47.0	-48.9	17.5	0.00e+00	0	43	0	1180696576	64	4805
2026-01-23 05:32:12.86	306.96	7.00	-47.4	-49.5	16.9	0.00e+00	0	43	0	1185939456	65	4829
2026-01-23 05:32:15.88	306.69	6.81	-47.7	-50.0	16.5	0.00e+00	0	43	0	1192230912	65	5122
2026-01-23 05:32:18.90	306.42	6.62	-48.0	-50.4	16.0	0.00e+00	0	43	0	1197473792	66	5083
2026-01-23 05:32:21.93	306.16	6.43	-48.3	-50.8	15.6	0.00e+00	0	43	0	1203765248	67	5037
2026-01-23 05:32:24.96	305.89	6.24	-48.3	-50.9	15.5	0.00e+00	0	44	0	1209008128	67	5047
2026-01-23 05:32:27.98	305.64	6.05	-48.4	-51.1	15.3	0.00e+00	0	43	0	1214251008	67	5175
2026-01-23 05:32:31.00	305.38	5.86	-48.1	-50.5	15.8	0.00e+00	0	44	0	1220542464	67	4870
2026-01-23 05:32:34.03	305.13	5.67	-48.0	-50.4	15.8	0.00e+00	0	43	0	1225785344	67	4806
2026-01-23 05:32:37.05	304.88	5.49	-48.2	-50.7	15.6	0.00e+00	0	43	0	1232076800	67	4938
2026-01-23 05:32:40.08	304.64	5.30	-48.2	-50.7	15.6	0.00e+00	0	43	0	1237319680	67	4964
2026-01-23 05:32:43.10	304.39	5.11	-48.3	-50.9	15.3	0.00e+00	0	43	0	1242562560	67	5084
2026-01-23 05:32:46.13	304.16	4.93	-52.6	-67.6	3.8	1.49e+00	0	43	104	1246756864	75	21967
2026-01-23 05:32:49.15	303.92	4.75	-53.0	-67.9	3.8	1.49e+00	0	43	104	1246756864	76	21410
2026-01-23 05:32:52.17	303.69	4.57	-53.2	-68.1	3.8	1.49e+00	0	43	104	1246756864	76	21960
2026-01-23 05:32:55.20	303.46	4.38	-53.3	-68.3	3.8	1.49e+00	0	43	104	1246756864	77	21094
2026-01-23 05:32:58.22	303.23	4.20	-53.5	-68.4	3.8	1.49e+00	0	43	104	1246756864	77	21438
2026-01-23 05:33:01.23	303.01	4.02	-53.6	-68.5	3.8	1.49e+00	0	44	104	1246756864	77	21716
2026-01-23 05:33:04.25	302.79	3.84	-53.5	-68.5	3.8	1.49e+00	0	44	104	1246756864	77	21627
2026-01-23 05:33:07.28	302.57	3.67	-53.5	-68.5	3.8	1.49e+00	0	43	104	1246756864	77	21611
2026-01-23 05:33:10.30	302.36	3.49	-53.5	-68.5	3.8	1.49e+00	0	43	104	1246756864	77	21627
2026-01-23 05:33:13.33	302.14	3.31	-53.5	-68.5	3.8	1.49e+00	0	43	104	1246756864	77	21618
2026-01-23 05:33:16.35	301.93	3.13	-53.5	-68.5	3.8	1.49e+00	0	44	104	1246756864	77	21529
2026-01-23 05:33:19.38	301.73	2.96	-53.5	-68.5	3.8	1.49e+00	0	44	104	1246756864	77	21615
2026-01-23 05:33:22.40	301.52	2.78	-53.5	-68.5	3.8	1.49e+00	0	44	104	1246756864	77	21533
2026-01-23 05:33:25.42	301.32	2.61	-53.5	-68.5	3.8	1.49e+00	0	44	104	1246756864	77	21571
2026-01-23 05:33:28.45	301.12	2.44	-53.5	-68.5	3.8	1.49e+00	0	44	104	1246756864	77	21547
2026-01-23 05:33:31.47	300.92	2.26	-53.5	-68.5	3.8	1.49e+00	0	43	104	1246756864	77	21566
2026-01-23 05:33:34.49	300.73	2.09	-53.5	-68.5	3.8	1.49e+00	0	43	104	1246756864	77	21523

#Closed at: 2026-01-23 05:33:36
#Recorded file [1246 MB]: D:/lorett/data/31041_260123_082058.dat