passes_logs/2026/01/23/R3.2S_Murmansk/R3.2S_Murmansk__20260123_210215_NOAA_20_JPSS-1_rec.log

#Pass ID: 20260123_210215_NOAA 20 (JPSS-1)
#Satellite: NOAA 20 (JPSS-1)
#Configuration: NOAA 20
#almurnet v.1.7.20251203
#Start time: 2026-01-23 21:02:16

#Version: 2.2.20231116
#Station: R3.2S_Murmansk
#Location: 33.079688 lon 68.888172 lat
#TLE: 1 43013U 17073A   26022.94240312  .00000200  00000+0  11574-3 0  9998
#TLE: 2 43013  98.7645 323.7982 0001179  28.0279 332.0961 14.19539020423863

#Time	Az	El	Level	Level2	SNR	BER	BlckErr	Temp	State	Recorded	gain1	gain2
2026-01-23 21:02:16.20	18.76	2.04	-54.1	-69.1	3.8	1.49e+00	0	43	0	0	79	20693
2026-01-23 21:02:19.10	19.06	2.16	-54.3	-69.3	3.8	1.49e+00	0	43	104	0	79	21117
2026-01-23 21:02:22.01	19.37	2.28	-54.2	-69.2	3.8	1.49e+00	0	43	104	0	79	20899
2026-01-23 21:02:24.92	19.68	2.40	-54.1	-69.1	3.8	1.49e+00	0	43	104	0	79	20626
2026-01-23 21:02:27.83	19.99	2.52	-54.0	-69.0	3.8	1.49e+00	0	43	104	0	79	20414
2026-01-23 21:02:30.75	20.31	2.64	-53.8	-68.8	3.8	1.49e+00	0	43	104	0	79	19871
2026-01-23 21:02:33.67	20.63	2.76	-53.4	-68.4	3.8	1.49e+00	0	43	104	0	78	20101
2026-01-23 21:02:36.59	20.95	2.88	-52.3	-67.2	3.8	1.49e+00	0	43	104	0	76	19810
2026-01-23 21:02:39.50	21.27	3.00	-51.9	-66.7	3.8	1.49e+00	0	43	104	0	75	19643
2026-01-23 21:02:42.42	21.59	3.12	-51.9	-66.6	3.8	1.49e+00	0	43	104	0	75	19430
2026-01-23 21:02:45.34	21.92	3.24	-51.9	-66.5	3.8	1.49e+00	0	43	104	0	75	19188
2026-01-23 21:02:48.26	22.25	3.35	-51.9	-66.5	3.8	1.49e+00	0	43	104	0	75	19239
2026-01-23 21:02:51.17	22.58	3.47	-51.9	-66.6	3.8	1.49e+00	0	43	104	0	75	19550
2026-01-23 21:02:54.08	22.91	3.59	-51.9	-66.7	3.8	1.49e+00	0	43	104	0	75	19644
2026-01-23 21:02:57.00	23.25	3.71	-51.9	-66.7	3.8	1.49e+00	0	43	104	0	75	19709
2026-01-23 21:02:59.91	23.59	3.82	-51.9	-66.8	3.8	1.49e+00	0	43	104	0	75	19900
2026-01-23 21:03:02.84	23.93	3.94	-51.9	-66.8	3.8	1.49e+00	0	43	104	0	75	19898
2026-01-23 21:03:05.75	24.28	4.06	-51.9	-66.8	3.8	1.49e+00	0	43	104	0	75	19848
2026-01-23 21:03:08.67	24.63	4.17	-51.9	-66.8	3.8	1.49e+00	0	43	104	0	75	20027
2026-01-23 21:03:11.58	24.98	4.29	-51.9	-66.8	3.8	1.49e+00	0	43	104	0	75	19941
2026-01-23 21:03:14.50	25.33	4.40	-51.9	-66.3	3.8	1.49e+00	0	43	104	0	75	18814
2026-01-23 21:03:17.40	25.68	4.52	-51.8	-64.7	3.9	1.49e+00	0	43	104	0	75	15739
2026-01-23 21:03:20.31	26.04	4.63	-51.5	-60.9	5.1	8.07e-01	0	43	0	1048576	74	10766
2026-01-23 21:03:23.22	26.40	4.74	-50.2	-55.1	10.5	1.70e-02	0	43	0	6291456	72	6181
2026-01-23 21:03:26.14	26.76	4.86	-49.7	-54.0	11.8	2.68e-04	0	43	0	11534336	71	5775
2026-01-23 21:03:29.07	27.13	4.97	-50.7	-56.9	8.6	2.47e-02	0	43	0	17825792	72	7625
2026-01-23 21:03:31.98	27.50	5.08	-49.7	-53.9	12.0	7.00e-07	0	43	0	23068672	69	6356
2026-01-23 21:03:34.89	27.87	5.20	-47.1	-49.1	16.5	9.83e-01	0	43	0	24117248	65	4634
2026-01-23 21:03:37.80	28.25	5.31	-47.3	-49.5	16.4	0.00e+00	0	43	0	29360128	65	4848
2026-01-23 21:03:40.71	28.62	5.42	-47.3	-49.5	16.5	0.00e+00	0	43	0	34603008	65	4825
2026-01-23 21:03:43.64	29.00	5.53	-47.3	-49.5	16.5	0.00e+00	0	43	0	39845888	65	4837
2026-01-23 21:03:46.55	29.39	5.64	-47.5	-49.8	16.2	0.00e+00	0	43	0	45088768	65	5015
2026-01-23 21:03:49.46	29.77	5.75	-47.1	-49.2	16.8	0.00e+00	0	43	0	51380224	65	4702
2026-01-23 21:03:52.37	30.16	5.86	-47.5	-49.7	16.3	0.00e+00	0	43	0	56623104	66	4695
2026-01-23 21:03:55.28	30.55	5.97	-47.5	-49.7	16.3	0.00e+00	0	43	0	61865984	66	4701
2026-01-23 21:03:58.19	30.94	6.07	-47.3	-49.5	16.6	0.00e+00	0	43	0	67108864	66	4558
2026-01-23 21:04:01.10	31.34	6.18	-47.4	-49.6	16.5	0.00e+00	0	43	0	73400320	66	4606
2026-01-23 21:04:04.01	31.74	6.29	-47.3	-49.5	16.5	0.00e+00	0	43	0	78643200	66	4592
2026-01-23 21:04:06.91	32.14	6.39	-47.4	-49.6	16.5	0.00e+00	0	43	0	83886080	66	4633
2026-01-23 21:04:09.83	32.54	6.50	-47.4	-49.6	16.5	0.00e+00	0	43	0	89128960	66	4607
2026-01-23 21:04:12.74	32.95	6.60	-47.0	-49.0	17.1	0.00e+00	0	43	0	94371840	65	4588
2026-01-23 21:04:15.65	33.36	6.70	-46.9	-48.9	17.2	0.00e+00	0	43	0	100663296	65	4544
2026-01-23 21:04:18.57	33.77	6.80	-47.4	-49.6	16.6	0.00e+00	0	43	0	105906176	65	4919
2026-01-23 21:04:21.47	34.19	6.91	-47.3	-49.4	16.7	0.00e+00	0	43	0	111149056	65	4787
2026-01-23 21:04:24.39	34.61	7.01	-47.5	-49.7	16.4	0.00e+00	0	43	0	116391936	66	4685
2026-01-23 21:04:27.30	35.03	7.11	-46.9	-48.8	17.4	0.00e+00	0	43	0	121634816	65	4462
2026-01-23 21:04:30.22	35.45	7.20	-47.2	-49.3	16.9	0.00e+00	0	43	0	127926272	65	4752
2026-01-23 21:04:33.14	35.88	7.30	-47.2	-49.3	16.9	0.00e+00	0	43	0	133169152	65	4749
2026-01-23 21:04:36.05	36.31	7.40	-47.3	-49.5	16.7	0.00e+00	0	43	0	138412032	65	4843
2026-01-23 21:04:38.95	36.74	7.49	-47.4	-49.5	16.7	0.00e+00	0	43	0	143654912	65	4846
2026-01-23 21:04:41.87	37.18	7.59	-47.1	-49.1	17.1	0.00e+00	0	43	0	148897792	65	4645
2026-01-23 21:04:44.78	37.61	7.68	-47.1	-49.1	17.2	0.00e+00	0	43	0	155189248	65	4619
2026-01-23 21:04:47.70	38.05	7.78	-46.9	-48.8	17.5	0.00e+00	0	43	0	160432128	65	4461
2026-01-23 21:04:50.61	38.50	7.87	-47.4	-49.6	16.7	0.00e+00	0	43	0	165675008	65	4876
2026-01-23 21:04:53.52	38.94	7.96	-47.4	-49.5	16.8	0.00e+00	0	43	0	170917888	65	4842
2026-01-23 21:04:56.44	39.39	8.05	-47.4	-49.6	16.7	0.00e+00	0	43	0	176160768	65	4880
2026-01-23 21:04:59.35	39.84	8.14	-47.4	-49.5	16.8	0.00e+00	0	43	0	182452224	65	4865
2026-01-23 21:05:02.27	40.30	8.22	-47.5	-49.6	16.6	0.00e+00	0	43	0	187695104	65	4925
2026-01-23 21:05:05.18	40.75	8.31	-47.3	-49.4	16.9	0.00e+00	0	43	0	192937984	65	4766
2026-01-23 21:05:08.10	41.21	8.39	-47.2	-49.3	17.0	0.00e+00	0	43	0	198180864	65	4740
2026-01-23 21:05:11.01	41.68	8.48	-47.1	-49.1	17.2	0.00e+00	0	43	0	204472320	65	4643
2026-01-23 21:05:13.92	42.14	8.56	-47.2	-49.3	17.0	0.00e+00	0	43	0	209715200	65	4742
2026-01-23 21:05:16.84	42.61	8.64	-47.5	-49.6	16.7	0.00e+00	0	43	0	214958080	65	4908
2026-01-23 21:05:19.75	43.08	8.72	-47.4	-49.6	16.7	0.00e+00	0	43	0	220200960	65	4883
2026-01-23 21:05:22.66	43.55	8.79	-47.5	-49.6	16.6	0.00e+00	0	43	0	225443840	65	4920
2026-01-23 21:05:25.57	44.02	8.87	-47.1	-49.1	17.1	0.00e+00	0	43	0	231735296	65	4650
2026-01-23 21:05:28.49	44.50	8.95	-47.3	-49.4	16.9	0.00e+00	0	43	0	236978176	65	4792
2026-01-23 21:05:31.40	44.98	9.02	-47.2	-49.2	17.1	0.00e+00	0	43	0	242221056	65	4685
2026-01-23 21:05:34.31	45.46	9.09	-47.0	-49.0	17.4	0.00e+00	0	43	0	247463936	65	4574
2026-01-23 21:05:37.23	45.94	9.16	-47.0	-49.0	17.4	0.00e+00	0	43	0	252706816	65	4573
2026-01-23 21:05:40.14	46.43	9.23	-46.9	-48.9	17.5	0.00e+00	0	43	0	258998272	65	4502
2026-01-23 21:05:43.07	46.92	9.30	-47.2	-49.2	17.2	0.00e+00	0	43	0	264241152	65	4655
2026-01-23 21:05:45.98	47.41	9.36	-47.0	-48.9	17.6	0.00e+00	0	43	0	269484032	65	4505
2026-01-23 21:05:48.89	47.90	9.43	-47.0	-48.9	17.5	0.00e+00	0	43	0	274726912	65	4508
2026-01-23 21:05:51.81	48.39	9.49	-46.9	-48.8	17.7	0.00e+00	0	43	0	281018368	65	4447
2026-01-23 21:05:54.73	48.89	9.55	-47.1	-49.0	17.4	0.00e+00	0	43	0	286261248	65	4576
2026-01-23 21:05:57.64	49.39	9.61	-47.0	-49.0	17.5	0.00e+00	0	43	0	291504128	65	4556
2026-01-23 21:06:00.54	49.89	9.66	-46.9	-48.8	17.6	0.00e+00	0	43	0	296747008	65	4473
2026-01-23 21:06:03.46	50.39	9.72	-46.9	-48.8	17.6	0.00e+00	0	43	0	301989888	65	4476
2026-01-23 21:06:06.37	50.89	9.77	-46.9	-48.8	17.7	0.00e+00	0	43	0	307232768	65	4451
2026-01-23 21:06:09.29	51.40	9.82	-47.0	-48.9	17.5	0.00e+00	0	43	0	313524224	65	4536
2026-01-23 21:06:12.19	51.91	9.87	-47.0	-49.0	17.5	0.00e+00	0	43	0	318767104	65	4551
2026-01-23 21:06:15.10	52.41	9.92	-47.1	-49.1	17.4	0.00e+00	0	43	0	324009984	65	4622
2026-01-23 21:06:18.01	52.92	9.97	-47.2	-49.2	17.2	0.00e+00	0	43	0	329252864	65	4679
2026-01-23 21:06:20.93	53.44	10.01	-47.3	-49.3	17.2	0.00e+00	0	43	0	335544320	65	4734
2026-01-23 21:06:23.84	53.95	10.05	-47.5	-49.6	16.9	0.00e+00	0	43	0	340787200	65	4913
2026-01-23 21:06:26.75	54.47	10.09	-47.8	-50.1	16.4	0.00e+00	0	43	0	346030080	66	4894
2026-01-23 21:06:29.66	54.98	10.13	-47.8	-50.0	16.5	0.00e+00	0	43	0	351272960	66	4855
2026-01-23 21:06:32.58	55.50	10.17	-47.8	-49.9	16.5	0.00e+00	0	43	0	356515840	66	4813
2026-01-23 21:06:35.49	56.02	10.20	-47.5	-49.7	16.9	0.00e+00	0	43	0	362807296	66	4655
2026-01-23 21:06:38.40	56.54	10.23	-47.5	-49.5	17.1	0.00e+00	0	43	0	368050176	66	4582
2026-01-23 21:06:41.32	57.06	10.26	-47.4	-49.5	17.0	0.00e+00	0	43	0	373293056	66	4577
2026-01-23 21:06:44.22	57.58	10.29	-47.9	-50.2	16.3	0.00e+00	0	43	0	378535936	66	4977
2026-01-23 21:06:47.13	58.10	10.32	-47.7	-49.8	16.7	0.00e+00	0	43	0	383778816	66	4751
2026-01-23 21:06:50.04	58.63	10.34	-47.3	-49.3	17.3	0.00e+00	0	43	0	390070272	66	4460
2026-01-23 21:06:52.96	59.15	10.36	-47.1	-49.0	17.5	0.00e+00	0	43	0	395313152	66	4299
2026-01-23 21:06:55.86	59.68	10.38	-47.3	-49.3	17.3	0.00e+00	0	43	0	400556032	66	4447
2026-01-23 21:06:58.77	60.20	10.40	-47.2	-49.1	17.4	0.00e+00	0	43	0	405798912	66	4389
2026-01-23 21:07:01.68	60.73	10.42	-47.2	-49.1	17.5	0.00e+00	0	43	0	411041792	66	4373
2026-01-23 21:07:04.60	61.26	10.43	-47.2	-49.1	17.5	0.00e+00	0	43	0	417333248	66	4366
2026-01-23 21:07:07.50	61.78	10.44	-47.1	-49.0	17.5	0.00e+00	0	43	0	422576128	66	4331
2026-01-23 21:07:10.42	62.31	10.45	-46.9	-48.8	17.7	0.00e+00	0	43	0	427819008	65	4452
2026-01-23 21:07:13.33	62.84	10.46	-46.7	-48.5	18.0	0.00e+00	0	43	0	433061888	65	4315
2026-01-23 21:07:16.25	63.37	10.46	-46.5	-48.3	18.3	0.00e+00	0	43	0	438304768	64	4444
2026-01-23 21:07:19.15	63.90	10.46	-46.3	-48.0	18.5	0.00e+00	0	43	0	444596224	64	4326
2026-01-23 21:07:22.07	64.43	10.47	-46.6	-48.4	18.0	0.00e+00	0	43	0	449839104	64	4528
2026-01-23 21:07:24.99	64.96	10.46	-46.7	-48.4	18.1	0.00e+00	0	43	0	455081984	64	4534
2026-01-23 21:07:27.89	65.48	10.46	-46.0	-47.5	19.0	0.00e+00	0	43	0	460324864	63	4328
2026-01-23 21:07:30.79	66.01	10.45	-45.9	-47.5	19.0	0.00e+00	0	43	0	466616320	63	4292
2026-01-23 21:07:33.71	66.54	10.45	-46.1	-47.7	18.8	0.00e+00	0	43	0	471859200	63	4425
2026-01-23 21:07:36.62	67.07	10.44	-46.3	-47.9	18.6	0.00e+00	0	43	0	477102080	63	4533
2026-01-23 21:07:39.54	67.60	10.42	-46.0	-47.6	18.8	0.00e+00	0	43	0	482344960	63	4351
2026-01-23 21:07:42.45	68.12	10.41	-46.2	-47.8	18.6	0.00e+00	0	43	0	487587840	63	4467
2026-01-23 21:07:45.38	68.65	10.39	-46.1	-47.7	18.8	0.00e+00	0	43	0	493879296	63	4404
2026-01-23 21:07:48.29	69.18	10.37	-46.0	-47.6	18.8	0.00e+00	0	43	0	499122176	63	4351
2026-01-23 21:07:51.20	69.70	10.35	-46.1	-47.7	18.9	0.00e+00	0	43	0	504365056	63	4405
2026-01-23 21:07:54.11	70.23	10.33	-46.0	-47.6	18.8	0.00e+00	0	43	0	509607936	63	4361
2026-01-23 21:07:57.03	70.75	10.31	-46.2	-47.9	18.7	0.00e+00	0	43	0	514850816	63	4509
2026-01-23 21:07:59.94	71.28	10.28	-46.3	-47.9	18.6	0.00e+00	0	43	0	521142272	63	4522
2026-01-23 21:08:02.85	71.80	10.25	-46.5	-48.3	18.2	0.00e+00	0	43	0	526385152	63	4717
2026-01-23 21:08:05.77	72.32	10.22	-46.7	-48.5	18.1	0.00e+00	0	43	0	531628032	63	4819
2026-01-23 21:08:08.69	72.84	10.19	-46.4	-48.1	18.2	0.00e+00	0	43	0	536870912	64	4382
2026-01-23 21:08:11.60	73.36	10.15	-46.6	-48.4	18.0	0.00e+00	0	43	0	543162368	64	4504
2026-01-23 21:08:14.51	73.88	10.11	-46.6	-48.4	18.1	0.00e+00	0	43	0	548405248	64	4504
2026-01-23 21:08:17.44	74.40	10.08	-46.3	-48.0	18.3	0.00e+00	0	43	0	553648128	64	4321
2026-01-23 21:08:20.35	74.91	10.03	-45.8	-47.4	19.1	0.00e+00	0	43	0	558891008	63	4243
2026-01-23 21:08:23.27	75.43	9.99	-46.1	-47.7	18.8	0.00e+00	0	43	0	564133888	63	4416
2026-01-23 21:08:26.18	75.94	9.95	-46.2	-47.8	18.7	0.00e+00	0	43	0	569376768	63	4489
2026-01-23 21:08:29.09	76.45	9.90	-46.2	-47.9	18.6	0.00e+00	0	43	0	575668224	63	4517
2026-01-23 21:08:32.00	76.96	9.85	-46.3	-48.0	18.5	0.00e+00	0	43	0	580911104	63	4590
2026-01-23 21:08:34.91	77.46	9.80	-46.1	-47.8	18.8	0.00e+00	0	43	0	586153984	63	4446
2026-01-23 21:08:37.83	77.97	9.75	-46.1	-47.6	18.9	0.00e+00	0	43	0	591396864	63	4391
2026-01-23 21:08:40.74	78.48	9.69	-45.7	-47.2	19.3	0.00e+00	0	43	0	597688320	63	4164
2026-01-23 21:08:43.64	78.98	9.64	-45.9	-47.4	19.1	0.00e+00	0	43	0	602931200	63	4272
2026-01-23 21:08:46.55	79.48	9.58	-45.6	-47.1	19.6	0.00e+00	0	43	0	608174080	62	4344
2026-01-23 21:08:49.47	79.97	9.52	-45.9	-47.4	19.2	0.00e+00	0	43	0	613416960	62	4516
2026-01-23 21:08:52.38	80.47	9.46	-45.9	-47.4	19.1	0.00e+00	0	43	0	618659840	62	4542
2026-01-23 21:08:55.29	80.96	9.40	-45.9	-47.4	19.1	0.00e+00	0	43	0	623902720	62	4526
2026-01-23 21:08:58.19	81.46	9.33	-46.1	-47.7	18.8	0.00e+00	0	43	0	630194176	63	4398
2026-01-23 21:09:01.10	81.94	9.27	-45.9	-47.5	19.0	0.00e+00	0	43	0	635437056	63	4292
2026-01-23 21:09:04.02	82.43	9.20	-45.8	-47.4	19.1	0.00e+00	0	43	0	640679936	63	4262
2026-01-23 21:09:06.92	82.92	9.13	-45.8	-47.4	19.2	0.00e+00	0	43	0	645922816	63	4248
2026-01-23 21:09:09.83	83.40	9.06	-46.0	-47.6	19.0	0.00e+00	0	43	0	652214272	63	4341
2026-01-23 21:09:12.73	83.88	8.98	-46.1	-47.7	18.7	0.00e+00	0	43	0	657457152	63	4406
2026-01-23 21:09:15.65	84.36	8.91	-46.3	-48.0	18.5	0.00e+00	0	43	0	662700032	63	4586
2026-01-23 21:09:18.57	84.84	8.83	-46.3	-47.9	18.5	0.00e+00	0	43	0	667942912	63	4540
2026-01-23 21:09:21.48	85.31	8.76	-46.5	-48.2	18.3	0.00e+00	0	43	0	673185792	63	4663
2026-01-23 21:09:24.39	85.78	8.68	-46.5	-48.3	18.2	0.00e+00	0	43	0	679477248	63	4727
2026-01-23 21:09:27.31	86.25	8.60	-46.7	-48.5	17.8	0.00e+00	0	43	0	684720128	64	4598
2026-01-23 21:09:30.23	86.72	8.52	-47.0	-48.9	17.4	0.00e+00	0	43	0	689963008	64	4802
2026-01-23 21:09:33.14	87.19	8.43	-47.3	-49.4	16.9	0.00e+00	0	43	0	695205888	65	4764
2026-01-23 21:09:36.06	87.65	8.35	-47.9	-50.2	16.1	0.00e+00	0	43	0	700448768	66	4958
2026-01-23 21:09:38.96	88.11	8.27	-47.7	-50.0	16.3	0.00e+00	0	43	0	706740224	66	4865
2026-01-23 21:09:41.88	88.56	8.18	-47.6	-49.8	16.4	0.00e+00	0	43	0	711983104	66	4745
2026-01-23 21:09:44.79	89.02	8.09	-47.5	-49.7	16.6	0.00e+00	0	43	0	717225984	66	4683
2026-01-23 21:09:47.71	89.47	8.00	-47.6	-49.8	16.5	0.00e+00	0	43	0	722468864	66	4731
2026-01-23 21:09:50.62	89.92	7.91	-47.6	-49.9	16.5	0.00e+00	0	43	0	728760320	66	4776
2026-01-23 21:09:53.54	90.37	7.82	-47.9	-50.3	16.0	0.00e+00	0	43	0	734003200	66	4992
2026-01-23 21:09:56.46	90.81	7.73	-48.3	-51.0	15.3	0.00e+00	0	43	0	739246080	67	5124
2026-01-23 21:09:59.38	91.25	7.63	-48.9	-51.9	14.4	7.00e-07	0	43	0	744488960	68	5354
2026-01-23 21:10:02.28	91.69	7.54	-48.7	-51.5	14.8	7.00e-07	0	43	0	749731840	68	5130
2026-01-23 21:10:05.19	92.12	7.44	-48.6	-51.3	14.9	7.00e-07	0	43	0	756023296	68	5018
2026-01-23 21:10:08.10	92.56	7.35	-48.6	-51.5	14.8	0.00e+00	0	43	0	761266176	68	5102
2026-01-23 21:10:11.01	92.99	7.25	-48.2	-50.7	15.6	0.00e+00	0	43	0	766509056	68	4688
2026-01-23 21:10:13.93	93.41	7.15	-48.1	-50.6	15.5	0.00e+00	0	43	0	771751936	67	4925
2026-01-23 21:10:16.84	93.84	7.05	-48.2	-50.9	15.3	0.00e+00	0	43	0	776994816	67	5042
2026-01-23 21:10:19.75	94.26	6.95	-48.4	-51.1	15.0	1.50e-06	0	43	0	783286272	67	5174
2026-01-23 21:10:22.66	94.68	6.85	-48.2	-50.8	15.3	0.00e+00	0	43	0	788529152	67	5006
2026-01-23 21:10:25.57	95.09	6.74	-47.9	-50.4	15.7	0.00e+00	0	43	0	793772032	67	4803
2026-01-23 21:10:28.48	95.50	6.64	-47.8	-50.3	15.8	0.00e+00	0	43	0	799014912	66	5000
2026-01-23 21:10:31.39	95.91	6.54	-48.2	-50.9	15.2	0.00e+00	0	43	0	804257792	67	5052
2026-01-23 21:10:34.30	96.32	6.43	-48.3	-51.0	15.0	0.00e+00	0	43	0	810549248	67	5124
2026-01-23 21:10:37.22	96.73	6.33	-48.0	-50.6	15.5	0.00e+00	0	43	0	815792128	67	4873
2026-01-23 21:10:40.15	97.13	6.22	-47.5	-49.8	16.1	0.00e+00	0	43	0	821035008	67	4493
2026-01-23 21:10:43.11	97.54	6.11	-47.3	-49.5	16.5	0.00e+00	0	43	0	826277888	66	4569
2026-01-23 21:10:46.07	97.94	6.00	-47.4	-49.7	16.3	0.00e+00	0	43	0	832569344	66	4663
2026-01-23 21:10:49.02	98.34	5.89	-47.6	-50.0	16.1	0.00e+00	0	43	0	837812224	66	4822
2026-01-23 21:10:51.96	98.73	5.78	-47.4	-49.7	16.1	0.00e+00	0	43	0	843055104	66	4679
2026-01-23 21:10:54.91	99.12	5.67	-47.5	-49.8	16.1	0.00e+00	0	43	0	849346560	66	4731
2026-01-23 21:10:57.89	99.52	5.56	-47.6	-50.1	15.8	0.00e+00	0	43	0	854589440	66	4905
2026-01-23 21:11:00.91	99.91	5.44	-47.5	-49.9	15.9	0.00e+00	0	43	0	859832320	66	4786
2026-01-23 21:11:03.91	100.30	5.33	-47.4	-49.7	16.2	0.00e+00	0	43	0	866123776	66	4666
2026-01-23 21:11:06.91	100.69	5.21	-47.5	-49.9	16.0	0.00e+00	0	43	0	871366656	66	4796
2026-01-23 21:11:09.91	101.08	5.10	-46.6	-48.6	17.2	0.00e+00	0	43	0	876609536	65	4368
2026-01-23 21:11:12.89	101.45	4.98	-52.0	-64.9	3.9	4.00e-01	30	43	0	882900992	74	17037
2026-01-23 21:11:15.89	101.83	4.86	-52.9	-67.8	3.8	1.49e+00	0	44	104	882900992	76	21235
2026-01-23 21:11:18.89	102.21	4.74	-53.4	-68.4	3.8	1.49e+00	0	44	104	882900992	77	21337
2026-01-23 21:11:21.92	102.59	4.62	-53.7	-68.7	3.8	1.49e+00	0	44	104	882900992	77	22157
2026-01-23 21:11:24.94	102.96	4.51	-53.9	-68.9	3.8	1.49e+00	0	44	104	882900992	78	21441
2026-01-23 21:11:27.97	103.33	4.39	-54.0	-69.0	3.8	1.49e+00	0	44	104	882900992	78	21643
2026-01-23 21:11:30.99	103.70	4.26	-54.2	-69.2	3.8	1.49e+00	0	44	104	882900992	78	22059
2026-01-23 21:11:34.01	104.06	4.14	-54.2	-69.3	3.8	1.49e+00	0	43	104	882900992	79	21019
2026-01-23 21:11:37.04	104.42	4.02	-54.2	-69.2	3.8	1.49e+00	0	44	104	882900992	79	20961
2026-01-23 21:11:40.06	104.78	3.90	-54.0	-69.1	3.8	1.49e+00	0	44	104	882900992	79	20657
2026-01-23 21:11:43.09	105.14	3.78	-54.4	-69.4	3.8	1.49e+00	0	43	104	882900992	79	21274
2026-01-23 21:11:46.12	105.49	3.66	-54.4	-69.4	3.8	1.49e+00	0	44	104	882900992	79	21461
2026-01-23 21:11:49.14	105.84	3.53	-54.4	-69.4	3.8	1.49e+00	0	44	104	882900992	79	21468
2026-01-23 21:11:52.17	106.19	3.41	-54.4	-69.4	3.8	1.49e+00	0	44	104	882900992	79	21387
2026-01-23 21:11:55.19	106.53	3.29	-54.3	-69.3	3.8	1.49e+00	0	44	104	882900992	79	21158
2026-01-23 21:11:58.21	106.87	3.16	-54.2	-69.2	3.8	1.49e+00	0	43	104	882900992	79	20882
2026-01-23 21:12:01.24	107.21	3.04	-54.1	-69.1	3.8	1.49e+00	0	44	104	882900992	79	20545
2026-01-23 21:12:04.27	107.55	2.92	-53.9	-68.9	3.8	1.49e+00	0	44	104	882900992	79	20152
2026-01-23 21:12:07.29	107.88	2.79	-53.6	-68.6	3.8	1.49e+00	0	43	104	882900992	79	19476
2026-01-23 21:12:10.31	108.21	2.67	-53.0	-68.1	3.8	1.49e+00	0	44	104	882900992	78	19436
2026-01-23 21:12:13.34	108.54	2.54	-52.9	-68.0	3.8	1.49e+00	0	43	104	882900992	77	20448
2026-01-23 21:12:16.36	108.87	2.42	-52.8	-67.9	3.8	1.49e+00	0	44	104	882900992	77	20188
2026-01-23 21:12:19.39	109.19	2.29	-52.8	-67.9	3.8	1.49e+00	0	44	104	882900992	77	20183
2026-01-23 21:12:22.41	109.51	2.17	-52.9	-68.0	3.8	1.49e+00	0	44	104	882900992	77	20325
2026-01-23 21:12:25.44	109.83	2.04	-52.8	-67.9	3.8	1.49e+00	0	44	104	882900992	77	20109

#Closed at: 2026-01-23 21:12:26
#Recorded file [882 MB]: D:/lorett/data/31041_260124_000216.dat