passes_logs/2026/01/23/R3.2S_Murmansk/R3.2S_Murmansk__20260123_224242_NOAA_20_JPSS-1_rec.log

#Pass ID: 20260123_224242_NOAA 20 (JPSS-1)
#Satellite: NOAA 20 (JPSS-1)
#Configuration: NOAA 20
#almurnet v.1.7.20251203
#Start time: 2026-01-23 22:42:42

#Version: 2.2.20231116
#Station: R3.2S_Murmansk
#Location: 33.079688 lon 68.888172 lat
#TLE: 1 43013U 17073A   26022.94240312  .00000200  00000+0  11574-3 0  9998
#TLE: 2 43013  98.7645 323.7982 0001179  28.0279 332.0961 14.19539020423863

#Time	Az	El	Level	Level2	SNR	BER	BlckErr	Temp	State	Recorded	gain1	gain2
2026-01-23 22:42:42.35	19.29	2.00	-52.2	-67.1	3.8	1.49e+00	0	42	0	0	76	19611
2026-01-23 22:42:46.38	19.53	2.23	-52.1	-67.1	3.8	1.49e+00	0	42	104	0	74	21796
2026-01-23 22:42:50.41	19.78	2.46	-52.1	-67.0	3.8	1.49e+00	0	42	104	0	74	21725
2026-01-23 22:42:54.45	20.03	2.70	-52.1	-66.9	3.8	1.49e+00	0	42	104	0	74	21475
2026-01-23 22:42:58.48	20.28	2.94	-52.1	-66.9	3.8	1.49e+00	0	42	104	0	74	21316
2026-01-23 22:43:02.51	20.53	3.18	-52.1	-67.0	3.8	1.49e+00	0	42	104	0	74	21520
2026-01-23 22:43:06.55	20.79	3.42	-52.1	-67.0	3.8	1.49e+00	0	42	104	0	74	21630
2026-01-23 22:43:10.59	21.06	3.66	-52.1	-66.4	3.8	1.49e+00	0	42	104	0	74	20077
2026-01-23 22:43:14.62	21.32	3.90	-52.0	-65.1	3.8	1.48e+00	0	43	104	0	74	17452
2026-01-23 22:43:18.65	21.59	4.15	-51.6	-60.8	5.4	7.16e-01	0	43	0	2097152	74	10609
2026-01-23 22:43:22.68	21.87	4.39	-50.2	-54.9	10.9	5.60e-03	0	43	0	9437184	72	6038
2026-01-23 22:43:26.71	22.15	4.64	-49.1	-52.4	13.8	7.60e-06	0	43	0	16777216	70	5051
2026-01-23 22:43:30.75	22.44	4.89	-50.3	-55.1	10.9	1.04e-03	0	43	0	25165824	71	6513
2026-01-23 22:43:34.78	22.72	5.15	-52.0	-66.5	3.8	7.27e-01	0	43	104	31457280	74	20319
2026-01-23 22:43:38.82	23.02	5.40	-47.2	-49.2	16.8	7.21e-01	0	43	0	35651584	66	4423
2026-01-23 22:43:42.85	23.32	5.66	-46.8	-48.7	17.5	0.00e+00	0	43	0	42991616	65	4441
2026-01-23 22:43:46.88	23.62	5.91	-46.7	-48.6	17.5	0.00e+00	0	43	0	50331648	65	4390
2026-01-23 22:43:50.91	23.93	6.17	-46.8	-48.8	17.4	0.00e+00	0	43	0	58720256	64	4710
2026-01-23 22:43:54.94	24.24	6.44	-46.7	-48.6	17.6	0.00e+00	0	43	0	66060288	64	4628
2026-01-23 22:43:58.97	24.56	6.70	-46.7	-48.5	17.8	0.00e+00	0	43	0	73400320	64	4582
2026-01-23 22:44:02.99	24.89	6.96	-46.6	-48.4	17.9	0.00e+00	0	43	0	80740352	64	4516
2026-01-23 22:44:07.02	25.22	7.23	-46.4	-48.2	18.2	0.00e+00	0	43	0	88080384	64	4400
2026-01-23 22:44:11.05	25.55	7.50	-46.4	-48.1	18.3	0.00e+00	0	43	0	96468992	64	4366
2026-01-23 22:44:15.08	25.89	7.77	-46.4	-48.1	18.2	0.00e+00	0	43	0	103809024	64	4387
2026-01-23 22:44:19.12	26.24	8.05	-46.3	-47.9	18.4	0.00e+00	0	43	0	111149056	64	4288
2026-01-23 22:44:23.15	26.60	8.33	-46.5	-48.2	18.3	0.00e+00	0	43	0	118489088	64	4427
2026-01-23 22:44:27.18	26.96	8.60	-46.4	-48.1	18.3	0.00e+00	0	43	0	126877696	64	4374
2026-01-23 22:44:31.21	27.32	8.88	-46.3	-47.9	18.6	0.00e+00	0	43	0	134217728	64	4290
2026-01-23 22:44:35.25	27.70	9.17	-46.1	-47.6	19.0	0.00e+00	0	43	0	141557760	63	4380
2026-01-23 22:44:39.28	28.08	9.45	-46.0	-47.6	19.1	0.00e+00	0	43	0	148897792	63	4353
2026-01-23 22:44:43.31	28.47	9.74	-45.7	-47.1	19.5	0.00e+00	0	43	0	156237824	63	4125
2026-01-23 22:44:47.35	28.86	10.03	-45.9	-47.4	19.3	0.00e+00	0	43	0	164626432	63	4271
2026-01-23 22:44:51.38	29.27	10.32	-45.9	-47.4	19.3	0.00e+00	0	43	0	171966464	63	4290
2026-01-23 22:44:55.41	29.68	10.62	-46.2	-47.7	19.1	0.00e+00	0	43	0	179306496	63	4409
2026-01-23 22:44:59.45	30.10	10.91	-46.4	-48.1	18.7	0.00e+00	0	44	0	186646528	63	4601
2026-01-23 22:45:03.48	30.52	11.21	-46.1	-47.7	19.2	0.00e+00	0	44	0	193986560	63	4393
2026-01-23 22:45:07.51	30.96	11.51	-46.0	-47.5	19.3	0.00e+00	0	44	0	202375168	63	4324
2026-01-23 22:45:11.54	31.40	11.81	-45.8	-47.2	19.6	0.00e+00	0	43	0	209715200	63	4188
2026-01-23 22:45:15.58	31.86	12.12	-45.8	-47.2	19.7	0.00e+00	0	43	0	217055232	63	4169
2026-01-23 22:45:19.61	32.32	12.43	-45.8	-47.3	19.6	0.00e+00	0	43	0	224395264	63	4197
2026-01-23 22:45:23.65	32.79	12.74	-45.7	-47.1	19.8	0.00e+00	0	44	0	232783872	63	4129
2026-01-23 22:45:27.67	33.27	13.05	-45.5	-46.9	19.9	0.00e+00	0	44	0	240123904	63	4035
2026-01-23 22:45:31.71	33.76	13.36	-45.9	-47.3	19.6	0.00e+00	0	44	0	247463936	63	4225
2026-01-23 22:45:35.74	34.26	13.68	-45.9	-47.4	19.5	0.00e+00	0	44	0	254803968	63	4263
2026-01-23 22:45:39.78	34.77	14.00	-46.0	-47.4	19.5	0.00e+00	0	44	0	262144000	63	4282
2026-01-23 22:45:43.81	35.30	14.32	-45.8	-47.2	19.8	0.00e+00	0	44	0	270532608	63	4189
2026-01-23 22:45:47.85	35.83	14.65	-45.9	-47.4	19.6	0.00e+00	0	44	0	277872640	63	4251
2026-01-23 22:45:51.88	36.37	14.97	-45.6	-47.0	20.0	0.00e+00	0	44	0	285212672	63	4053
2026-01-23 22:45:55.91	36.93	15.30	-45.6	-46.9	20.0	0.00e+00	0	44	0	292552704	62	4278
2026-01-23 22:45:59.94	37.50	15.63	-45.7	-47.0	20.0	0.00e+00	0	44	0	299892736	62	4335
2026-01-23 22:46:03.96	38.08	15.96	-45.6	-47.0	20.1	0.00e+00	0	44	0	308281344	62	4324
2026-01-23 22:46:08.00	38.67	16.29	-45.2	-46.5	20.5	0.00e+00	0	44	0	315621376	62	4065
2026-01-23 22:46:12.03	39.27	16.62	-45.2	-46.5	20.5	0.00e+00	0	44	0	322961408	62	4067
2026-01-23 22:46:16.07	39.89	16.96	-45.2	-46.4	20.6	0.00e+00	0	44	0	330301440	62	4045
2026-01-23 22:46:20.10	40.53	17.30	-45.0	-46.2	20.8	0.00e+00	0	44	0	337641472	62	3953
2026-01-23 22:46:24.13	41.17	17.64	-44.9	-46.1	20.9	0.00e+00	0	44	0	346030080	61	4135
2026-01-23 22:46:28.16	41.83	17.98	-45.0	-46.3	20.8	0.00e+00	0	44	0	353370112	61	4218
2026-01-23 22:46:32.19	42.51	18.32	-44.9	-46.1	21.0	0.00e+00	0	44	0	360710144	61	4133
2026-01-23 22:46:36.23	43.20	18.66	-44.7	-45.9	21.2	0.00e+00	0	44	0	368050176	61	4012
2026-01-23 22:46:40.26	43.90	19.00	-44.9	-46.1	21.1	0.00e+00	0	44	0	376438784	61	4110
2026-01-23 22:46:44.29	44.62	19.34	-44.5	-45.7	21.4	0.00e+00	0	44	0	383778816	61	3940
2026-01-23 22:46:48.33	45.36	19.69	-44.4	-45.5	21.5	0.00e+00	0	44	0	391118848	60	4082
2026-01-23 22:46:52.37	46.11	20.03	-44.5	-45.6	21.4	0.00e+00	0	44	0	398458880	60	4140
2026-01-23 22:46:56.40	46.88	20.37	-44.2	-45.3	21.7	0.00e+00	0	44	0	405798912	60	3995
2026-01-23 22:47:00.43	47.67	20.72	-44.1	-45.2	21.8	0.00e+00	0	44	0	414187520	60	3948
2026-01-23 22:47:04.46	48.47	21.06	-44.4	-45.6	21.5	0.00e+00	0	44	0	421527552	60	4118
2026-01-23 22:47:08.50	49.29	21.40	-44.4	-45.5	21.7	0.00e+00	0	44	0	428867584	60	4079
2026-01-23 22:47:12.53	50.13	21.74	-44.4	-45.5	21.6	0.00e+00	0	44	0	436207616	60	4084
2026-01-23 22:47:16.57	50.99	22.08	-44.7	-45.8	21.5	0.00e+00	0	44	0	443547648	60	4228
2026-01-23 22:47:20.60	51.87	22.41	-44.1	-45.2	21.9	0.00e+00	0	44	0	451936256	60	3946
2026-01-23 22:47:24.63	52.76	22.75	-44.3	-45.4	21.8	0.00e+00	0	44	0	459276288	60	4009
2026-01-23 22:47:28.67	53.67	23.08	-44.5	-45.7	21.5	0.00e+00	0	44	0	466616320	60	4160
2026-01-23 22:47:32.70	54.60	23.41	-44.5	-45.6	21.6	0.00e+00	0	44	0	473956352	60	4129
2026-01-23 22:47:36.73	55.56	23.73	-45.1	-46.3	20.9	0.00e+00	0	44	0	481296384	60	4466
2026-01-23 22:47:40.76	56.52	24.05	-45.1	-46.4	20.9	0.00e+00	0	44	0	489684992	61	4245
2026-01-23 22:47:44.79	57.51	24.36	-45.2	-46.5	20.8	0.00e+00	0	44	0	497025024	61	4298
2026-01-23 22:47:48.83	58.52	24.67	-45.3	-46.6	20.7	0.00e+00	0	44	0	504365056	61	4356
2026-01-23 22:47:52.86	59.55	24.98	-45.3	-46.6	20.8	0.00e+00	0	44	0	511705088	61	4348
2026-01-23 22:47:56.89	60.60	25.28	-46.1	-47.5	19.8	0.00e+00	0	44	0	520093696	62	4591
2026-01-23 22:48:00.93	61.67	25.57	-46.0	-47.3	20.1	0.00e+00	0	44	0	527433728	63	4220
2026-01-23 22:48:04.96	62.76	25.85	-46.5	-47.9	19.5	0.00e+00	0	44	0	534773760	63	4542
2026-01-23 22:48:08.99	63.86	26.13	-46.7	-48.2	19.2	0.00e+00	0	44	0	542113792	64	4437
2026-01-23 22:48:13.02	64.98	26.39	-46.7	-48.2	19.2	0.00e+00	0	44	0	549453824	64	4407
2026-01-23 22:48:17.06	66.13	26.65	-47.0	-48.6	18.7	0.00e+00	0	44	0	557842432	64	4613
2026-01-23 22:48:21.09	67.29	26.90	-46.8	-48.4	19.0	0.00e+00	0	44	0	565182464	64	4519
2026-01-23 22:48:25.12	68.47	27.14	-47.1	-48.8	18.6	0.00e+00	0	44	0	572522496	64	4719
2026-01-23 22:48:29.15	69.66	27.36	-46.8	-48.3	19.1	0.00e+00	0	44	0	579862528	65	4228
2026-01-23 22:48:33.19	70.88	27.58	-47.2	-48.8	18.6	0.00e+00	0	44	0	587202560	65	4471
2026-01-23 22:48:37.22	72.10	27.78	-48.2	-50.2	17.2	0.00e+00	0	44	0	595591168	67	4700
2026-01-23 22:48:41.25	73.35	27.97	-48.2	-50.2	17.3	0.00e+00	0	44	0	602931200	67	4674
2026-01-23 22:48:45.28	74.60	28.15	-47.5	-49.2	18.2	0.00e+00	0	44	0	610271232	67	4192
2026-01-23 22:48:49.31	75.87	28.32	-47.2	-48.8	18.6	0.00e+00	0	44	0	617611264	66	4218
2026-01-23 22:48:53.35	77.16	28.47	-47.3	-49.0	18.5	0.00e+00	0	44	0	625999872	65	4567
2026-01-23 22:48:57.38	78.45	28.60	-48.1	-50.0	17.5	0.00e+00	0	44	0	633339904	66	4865
2026-01-23 22:49:01.41	79.75	28.72	-47.9	-49.7	18.0	0.00e+00	0	44	0	640679936	67	4404
2026-01-23 22:49:05.45	81.07	28.83	-47.4	-49.1	18.5	0.00e+00	0	44	0	648019968	66	4371
2026-01-23 22:49:09.48	82.39	28.91	-47.3	-49.0	18.6	0.00e+00	0	44	0	655360000	66	4299
2026-01-23 22:49:13.52	83.72	28.99	-47.1	-48.7	18.8	0.00e+00	0	44	0	663748608	66	4154
2026-01-23 22:49:17.55	85.05	29.04	-46.8	-48.3	19.3	0.00e+00	0	44	0	671088640	64	4472
2026-01-23 22:49:21.59	86.39	29.08	-47.6	-49.4	18.1	0.00e+00	0	44	0	678428672	65	4787
2026-01-23 22:49:25.62	87.73	29.11	-47.2	-48.8	18.6	0.00e+00	0	44	0	685768704	65	4492
2026-01-23 22:49:29.65	89.07	29.11	-46.7	-48.2	19.3	0.00e+00	0	44	0	693108736	64	4399
2026-01-23 22:49:33.69	90.42	29.10	-46.9	-48.5	18.9	0.00e+00	0	44	0	701497344	64	4580
2026-01-23 22:49:37.73	91.76	29.08	-46.3	-47.7	19.7	0.00e+00	0	44	0	708837376	64	4167
2026-01-23 22:49:41.76	93.09	29.03	-47.8	-49.7	17.9	0.00e+00	0	44	0	716177408	66	4662
2026-01-23 22:49:45.79	94.43	28.97	-47.6	-49.4	18.1	0.00e+00	0	44	0	723517440	67	4270
2026-01-23 22:49:49.83	95.76	28.90	-47.2	-48.9	18.6	0.00e+00	0	44	0	730857472	65	4499
2026-01-23 22:49:53.87	97.08	28.80	-49.0	-51.3	16.3	0.00e+00	0	44	0	739246080	68	5010
2026-01-23 22:49:57.89	98.39	28.69	-47.6	-49.3	18.2	0.00e+00	0	44	0	746586112	66	4478
2026-01-23 22:50:01.93	99.69	28.57	-47.8	-49.6	17.9	0.00e+00	0	44	0	753926144	66	4613
2026-01-23 22:50:05.96	100.99	28.43	-47.4	-49.1	18.4	0.00e+00	0	44	0	761266176	66	4344
2026-01-23 22:50:09.99	102.27	28.28	-47.2	-48.8	18.8	0.00e+00	0	44	0	769654784	66	4203
2026-01-23 22:50:14.03	103.54	28.11	-46.3	-47.7	19.7	0.00e+00	0	44	0	776994816	64	4191
2026-01-23 22:50:18.06	104.80	27.93	-45.8	-47.1	20.4	0.00e+00	0	44	0	784334848	63	4111
2026-01-23 22:50:22.10	106.04	27.74	-46.1	-47.5	20.0	0.00e+00	0	44	0	791674880	63	4318
2026-01-23 22:50:26.13	107.27	27.53	-46.2	-47.6	19.9	0.00e+00	0	44	0	799014912	63	4375
2026-01-23 22:50:30.16	108.48	27.31	-45.4	-46.6	20.9	0.00e+00	0	44	0	807403520	62	4113
2026-01-23 22:50:34.20	109.67	27.08	-45.8	-47.1	20.4	0.00e+00	0	44	0	814743552	62	4375
2026-01-23 22:50:38.23	110.85	26.84	-46.2	-47.6	19.9	0.00e+00	0	44	0	822083584	62	4615
2026-01-23 22:50:42.26	112.01	26.59	-46.3	-47.8	19.7	0.00e+00	0	44	0	829423616	63	4448
2026-01-23 22:50:46.29	113.15	26.33	-46.0	-47.3	20.1	0.00e+00	0	44	0	836763648	63	4228
2026-01-23 22:50:50.32	114.27	26.06	-46.2	-47.6	19.8	0.00e+00	0	44	0	845152256	63	4370
2026-01-23 22:50:54.35	115.37	25.78	-46.6	-48.2	19.1	0.00e+00	0	44	0	852492288	64	4416
2026-01-23 22:50:58.39	116.46	25.49	-46.3	-47.7	19.5	0.00e+00	0	44	0	859832320	64	4192
2026-01-23 22:51:02.42	117.53	25.20	-45.8	-47.2	20.2	0.00e+00	0	44	0	867172352	63	4147
2026-01-23 22:51:06.45	118.57	24.90	-45.1	-46.3	21.0	0.00e+00	0	44	0	875560960	62	3967
2026-01-23 22:51:10.48	119.60	24.59	-45.7	-47.1	20.3	0.00e+00	0	44	0	882900992	62	4348
2026-01-23 22:51:14.51	120.60	24.28	-45.4	-46.7	20.6	0.00e+00	0	44	0	890241024	62	4179
2026-01-23 22:51:18.55	121.59	23.96	-45.7	-47.0	20.2	0.00e+00	0	44	0	897581056	62	4319
2026-01-23 22:51:22.58	122.56	23.64	-45.2	-46.4	20.9	0.00e+00	0	44	0	904921088	62	4022
2026-01-23 22:51:26.62	123.51	23.31	-46.2	-47.6	19.7	0.00e+00	0	44	0	913309696	62	4643
2026-01-23 22:51:30.65	124.44	22.98	-45.6	-46.9	20.3	0.00e+00	0	44	0	920649728	62	4280
2026-01-23 22:51:34.69	125.35	22.65	-47.0	-48.7	18.5	0.00e+00	0	44	0	927989760	64	4674
2026-01-23 22:51:38.72	126.25	22.31	-45.9	-47.3	19.9	0.00e+00	0	44	0	935329792	63	4206
2026-01-23 22:51:42.75	127.12	21.97	-46.6	-48.2	19.1	0.00e+00	0	44	0	942669824	63	4661
2026-01-23 22:51:46.79	127.98	21.63	-45.3	-46.6	20.5	0.00e+00	0	44	0	951058432	62	4127
2026-01-23 22:51:50.82	128.81	21.29	-46.4	-48.0	19.2	0.00e+00	0	44	0	958398464	63	4546
2026-01-23 22:51:54.85	129.63	20.95	-45.7	-47.0	20.1	0.00e+00	0	44	0	965738496	63	4078
2026-01-23 22:51:58.88	130.43	20.60	-46.3	-47.7	19.4	0.00e+00	0	44	0	973078528	63	4441
2026-01-23 22:52:02.92	131.22	20.26	-45.7	-47.0	20.1	0.00e+00	0	44	0	980418560	63	4082
2026-01-23 22:52:06.95	131.98	19.91	-45.4	-46.8	20.3	0.00e+00	0	44	0	988807168	62	4195
2026-01-23 22:52:10.98	132.73	19.57	-45.4	-46.7	20.3	0.00e+00	0	44	0	996147200	62	4175
2026-01-23 22:52:15.02	133.47	19.22	-45.0	-46.2	20.8	0.00e+00	0	44	0	1003487232	61	4176
2026-01-23 22:52:19.05	134.19	18.87	-45.4	-46.7	20.3	0.00e+00	0	44	0	1010827264	61	4418
2026-01-23 22:52:23.09	134.89	18.53	-45.1	-46.4	20.6	0.00e+00	0	44	0	1019215872	61	4257
2026-01-23 22:52:27.12	135.58	18.19	-45.0	-46.2	20.7	0.00e+00	0	44	0	1026555904	61	4177
2026-01-23 22:52:31.15	136.25	17.84	-44.6	-45.9	21.0	0.00e+00	0	44	0	1033895936	61	4006
2026-01-23 22:52:35.19	136.91	17.50	-44.8	-46.0	20.9	0.00e+00	0	44	0	1041235968	61	4089
2026-01-23 22:52:39.22	137.55	17.16	-45.0	-46.2	20.6	0.00e+00	0	44	0	1048576000	61	4193
2026-01-23 22:52:43.26	138.18	16.82	-45.3	-46.6	20.3	0.00e+00	0	44	0	1056964608	61	4381
2026-01-23 22:52:47.29	138.80	16.48	-45.1	-46.4	20.5	0.00e+00	0	44	0	1064304640	61	4253
2026-01-23 22:52:51.32	139.40	16.15	-44.9	-46.1	20.7	0.00e+00	0	44	0	1071644672	61	4126
2026-01-23 22:52:55.36	140.00	15.81	-45.1	-46.4	20.4	0.00e+00	0	44	0	1078984704	61	4265
2026-01-23 22:52:59.39	140.57	15.48	-45.2	-46.5	20.3	0.00e+00	0	44	0	1086324736	61	4315
2026-01-23 22:53:03.42	141.14	15.15	-45.5	-46.9	20.0	0.00e+00	0	44	0	1094713344	61	4503
2026-01-23 22:53:07.45	141.69	14.82	-46.0	-47.5	19.3	0.00e+00	0	44	0	1102053376	62	4552
2026-01-23 22:53:11.49	142.23	14.49	-45.9	-47.4	19.4	0.00e+00	0	44	0	1109393408	62	4532
2026-01-23 22:53:15.52	142.76	14.17	-45.9	-47.4	19.4	0.00e+00	0	44	0	1116733440	62	4526
2026-01-23 22:53:19.55	143.28	13.85	-46.1	-47.7	19.2	0.00e+00	0	44	0	1125122048	62	4656
2026-01-23 22:53:23.58	143.79	13.53	-46.4	-48.0	18.8	0.00e+00	0	44	0	1132462080	63	4563
2026-01-23 22:53:27.61	144.29	13.21	-46.6	-48.3	18.4	0.00e+00	0	44	0	1139802112	64	4456
2026-01-23 22:53:31.65	144.78	12.89	-46.2	-47.8	18.8	0.00e+00	0	44	0	1147142144	64	4208
2026-01-23 22:53:35.69	145.26	12.58	-46.1	-47.6	19.0	0.00e+00	0	44	0	1154482176	63	4388
2026-01-23 22:53:39.72	145.73	12.27	-46.6	-48.4	18.2	0.00e+00	0	44	0	1162870784	64	4501
2026-01-23 22:53:43.76	146.19	11.96	-46.4	-48.1	18.4	0.00e+00	0	44	0	1170210816	64	4374
2026-01-23 22:53:47.79	146.64	11.65	-46.2	-47.8	18.7	0.00e+00	0	44	0	1177550848	64	4231
2026-01-23 22:53:51.82	147.08	11.35	-45.8	-47.2	19.3	0.00e+00	0	44	0	1184890880	63	4190
2026-01-23 22:53:55.85	147.51	11.04	-45.8	-47.4	19.2	0.00e+00	0	44	0	1192230912	63	4247
2026-01-23 22:53:59.88	147.94	10.75	-46.0	-47.6	19.0	0.00e+00	0	44	0	1200619520	63	4354
2026-01-23 22:54:03.91	148.35	10.45	-46.1	-47.7	18.9	0.00e+00	0	44	0	1207959552	63	4401
2026-01-23 22:54:07.95	148.76	10.15	-46.0	-47.6	18.9	0.00e+00	0	44	0	1215299584	63	4371
2026-01-23 22:54:11.98	149.16	9.86	-45.9	-47.4	19.1	0.00e+00	0	44	0	1222639616	63	4268
2026-01-23 22:54:16.01	149.55	9.57	-45.9	-47.5	19.0	0.00e+00	0	44	0	1229979648	63	4308
2026-01-23 22:54:20.04	149.94	9.28	-46.2	-47.9	18.6	0.00e+00	0	44	0	1238368256	63	4524
2026-01-23 22:54:24.07	150.32	8.99	-46.3	-48.0	18.4	0.00e+00	0	44	0	1245708288	63	4570
2026-01-23 22:54:28.11	150.69	8.71	-46.4	-48.1	18.4	0.00e+00	0	44	0	1253048320	63	4613
2026-01-23 22:54:32.14	151.05	8.43	-46.1	-47.8	18.6	0.00e+00	0	44	0	1260388352	63	4455
2026-01-23 22:54:36.17	151.41	8.15	-45.6	-47.1	19.2	0.00e+00	0	43	0	1268776960	63	4133
2026-01-23 22:54:40.21	151.76	7.87	-46.0	-47.6	18.6	0.00e+00	0	44	0	1276116992	63	4390
2026-01-23 22:54:44.24	152.11	7.60	-46.5	-48.3	17.9	0.00e+00	0	44	0	1283457024	63	4758
2026-01-23 22:54:48.28	152.45	7.32	-46.6	-48.5	17.6	0.00e+00	0	44	0	1290797056	64	4570
2026-01-23 22:54:52.31	152.78	7.05	-46.7	-48.7	17.4	0.00e+00	0	44	0	1298137088	64	4655
2026-01-23 22:54:56.35	153.11	6.78	-46.4	-48.2	17.8	0.00e+00	0	44	0	1306525696	64	4415
2026-01-23 22:55:00.38	153.43	6.52	-46.5	-48.4	17.6	0.00e+00	0	44	0	1313865728	64	4497
2026-01-23 22:55:04.41	153.74	6.25	-46.8	-48.8	17.1	0.00e+00	0	44	0	1321205760	64	4724
2026-01-23 22:55:08.45	154.06	5.99	-46.5	-48.4	17.5	0.00e+00	0	44	0	1328545792	64	4500
2026-01-23 22:55:12.48	154.36	5.73	-46.9	-49.1	16.8	0.00e+00	0	44	0	1335885824	65	4606
2026-01-23 22:55:16.51	154.66	5.47	-47.4	-49.8	16.0	0.00e+00	0	44	0	1344274432	65	4992
2026-01-23 22:55:20.55	154.96	5.21	-48.0	-50.7	15.0	0.00e+00	0	44	0	1351614464	66	5246
2026-01-23 22:55:24.58	155.25	4.95	-52.5	-67.5	3.8	1.49e+00	0	44	104	1357905920	75	21653
2026-01-23 22:55:28.61	155.53	4.70	-53.5	-68.4	3.8	1.49e+00	0	44	104	1357905920	77	21483
2026-01-23 22:55:32.65	155.81	4.45	-53.9	-68.9	3.8	1.49e+00	0	44	104	1357905920	78	21414
2026-01-23 22:55:36.68	156.09	4.20	-54.1	-69.1	3.8	1.49e+00	0	44	104	1357905920	78	21948
2026-01-23 22:55:40.71	156.36	3.95	-54.3	-69.3	3.8	1.49e+00	0	44	104	1357905920	79	21207
2026-01-23 22:55:44.75	156.63	3.71	-54.3	-69.3	3.8	1.49e+00	0	44	104	1357905920	79	21252
2026-01-23 22:55:48.78	156.90	3.46	-54.1	-69.1	3.8	1.49e+00	0	44	104	1357905920	79	20751
2026-01-23 22:55:52.81	157.15	3.22	-54.0	-69.0	3.8	1.49e+00	0	44	104	1357905920	79	20475
2026-01-23 22:55:56.85	157.41	2.98	-54.0	-69.0	3.8	1.49e+00	0	44	104	1357905920	79	20396
2026-01-23 22:56:00.88	157.66	2.74	-53.9	-68.9	3.8	1.49e+00	0	44	104	1357905920	79	20237
2026-01-23 22:56:04.91	157.91	2.50	-53.9	-68.9	3.8	1.49e+00	0	44	104	1357905920	79	20271
2026-01-23 22:56:08.95	158.16	2.26	-53.9	-68.9	3.8	1.49e+00	0	44	104	1357905920	79	20203
2026-01-23 22:56:12.98	158.40	2.03	-53.9	-68.9	3.8	1.49e+00	0	44	104	1357905920	79	20167

#Closed at: 2026-01-23 22:56:15
#Recorded file [1357 MB]: D:/lorett/data/31041_260124_014242.dat