passes_logs/2026/01/23/R3.2S_Murmansk/R3.2S_Murmansk__20260123_071955_NOAA_20_JPSS-1_rec.log

#Pass ID: 20260123_071955_NOAA 20 (JPSS-1)
#Satellite: NOAA 20 (JPSS-1)
#Configuration: NOAA 20
#almurnet v.1.7.20251203
#Start time: 2026-01-23 07:19:54

#Version: 2.2.20231116
#Station: R3.2S_Murmansk
#Location: 33.079688 lon 68.888172 lat
#TLE: 1 43013U 17073A   26022.44900781  .00000193  00000+0  11233-3 0  9999
#TLE: 2 43013  98.7645 323.3100 0001197  28.8413 331.2829 14.19538802423792

#Time	Az	El	Level	Level2	SNR	BER	BlckErr	Temp	State	Recorded	gain1	gain2
2026-01-23 07:19:54.76	101.82	1.97	-54.5	-69.5	3.8	1.49e+00	0	41	0	0	79	21607
2026-01-23 07:19:58.79	101.64	2.22	-54.6	-69.6	3.8	1.49e+00	0	41	104	0	79	21945
2026-01-23 07:20:02.83	101.45	2.46	-54.5	-69.5	3.8	1.49e+00	0	41	104	0	79	21531
2026-01-23 07:20:06.86	101.26	2.71	-54.2	-69.2	3.8	1.49e+00	0	41	104	0	79	20855
2026-01-23 07:20:10.90	101.06	2.96	-53.8	-68.8	3.8	1.49e+00	0	41	104	0	79	20027
2026-01-23 07:20:14.93	100.86	3.21	-53.5	-68.5	3.8	1.49e+00	0	42	104	0	79	19266
2026-01-23 07:20:18.96	100.66	3.47	-53.0	-67.9	3.8	1.49e+00	0	41	104	0	77	20287
2026-01-23 07:20:22.99	100.45	3.72	-52.4	-66.7	3.8	1.49e+00	0	42	104	0	76	18716
2026-01-23 07:20:27.03	100.24	3.98	-52.3	-65.7	3.9	1.49e+00	0	42	104	0	75	17605
2026-01-23 07:20:31.06	100.03	4.24	-52.1	-63.3	4.3	1.41e+00	17	42	0	0	75	13387
2026-01-23 07:20:35.10	99.81	4.50	-51.3	-57.7	8.2	6.86e-02	0	42	0	7340032	74	7445
2026-01-23 07:20:39.13	99.59	4.77	-50.3	-54.6	11.6	1.05e-03	0	42	0	14680064	71	6178
2026-01-23 07:20:43.16	99.36	5.03	-50.7	-55.7	10.5	3.76e-03	0	42	0	22020096	71	6996
2026-01-23 07:20:47.19	99.13	5.30	-48.9	-51.6	14.9	0.00e+00	0	42	0	29360128	68	5187
2026-01-23 07:20:51.22	98.89	5.57	-48.4	-50.9	15.6	0.00e+00	0	42	0	33554432	68	4801
2026-01-23 07:20:55.26	98.65	5.85	-48.6	-51.2	15.3	0.00e+00	0	42	0	41943040	67	5254
2026-01-23 07:20:59.29	98.41	6.12	-47.9	-50.2	16.3	0.00e+00	0	42	0	49283072	67	4698
2026-01-23 07:21:03.32	98.15	6.40	-47.9	-50.2	16.3	0.00e+00	0	42	0	56623104	66	4938
2026-01-23 07:21:07.35	97.90	6.68	-47.9	-50.1	16.4	0.00e+00	0	42	0	63963136	66	4920
2026-01-23 07:21:11.38	97.64	6.97	-47.9	-50.1	16.4	0.00e+00	0	42	0	71303168	66	4898
2026-01-23 07:21:15.42	97.37	7.25	-47.9	-50.1	16.5	0.00e+00	0	42	0	79691776	66	4884
2026-01-23 07:21:19.45	97.10	7.54	-47.9	-50.0	16.6	0.00e+00	0	42	0	87031808	66	4866
2026-01-23 07:21:23.48	96.82	7.83	-47.8	-49.9	16.7	0.00e+00	0	43	0	94371840	66	4787
2026-01-23 07:21:27.51	96.54	8.12	-47.7	-49.8	16.8	0.00e+00	0	43	0	101711872	66	4753
2026-01-23 07:21:31.54	96.25	8.42	-47.7	-49.8	16.8	0.00e+00	0	43	0	109051904	66	4737
2026-01-23 07:21:35.57	95.96	8.72	-47.8	-49.9	16.8	0.00e+00	0	43	0	117440512	66	4807
2026-01-23 07:21:39.61	95.65	9.02	-47.4	-49.3	17.4	0.00e+00	0	43	0	124780544	66	4489
2026-01-23 07:21:43.64	95.35	9.33	-47.5	-49.5	17.2	0.00e+00	0	42	0	132120576	66	4584
2026-01-23 07:21:47.67	95.03	9.63	-47.3	-49.3	17.6	0.00e+00	0	43	0	139460608	66	4447
2026-01-23 07:21:51.70	94.71	9.95	-47.2	-49.1	17.7	0.00e+00	0	43	0	147849216	65	4606
2026-01-23 07:21:55.73	94.38	10.26	-47.1	-48.9	17.9	0.00e+00	0	43	0	155189248	65	4532
2026-01-23 07:21:59.76	94.04	10.58	-46.9	-48.7	18.2	0.00e+00	0	42	0	162529280	65	4396
2026-01-23 07:22:03.79	93.70	10.90	-46.8	-48.5	18.3	0.00e+00	0	43	0	169869312	65	4325
2026-01-23 07:22:07.82	93.34	11.22	-46.8	-48.5	18.4	0.00e+00	0	43	0	177209344	65	4330
2026-01-23 07:22:11.86	92.98	11.54	-46.8	-48.5	18.5	0.00e+00	0	43	0	185597952	65	4313
2026-01-23 07:22:15.89	92.61	11.87	-46.8	-48.5	18.5	0.00e+00	0	43	0	192937984	64	4559
2026-01-23 07:22:19.92	92.24	12.21	-46.7	-48.4	18.6	0.00e+00	0	43	0	200278016	64	4494
2026-01-23 07:22:23.96	91.85	12.54	-46.7	-48.3	18.6	0.00e+00	0	43	0	207618048	64	4485
2026-01-23 07:22:27.99	91.45	12.88	-46.6	-48.2	18.8	0.00e+00	0	43	0	214958080	64	4422
2026-01-23 07:22:32.02	91.05	13.22	-46.5	-48.1	18.9	0.00e+00	0	43	0	223346688	64	4377
2026-01-23 07:22:36.05	90.63	13.57	-46.8	-48.5	18.6	0.00e+00	0	43	0	230686720	64	4565
2026-01-23 07:22:40.09	90.21	13.92	-46.6	-48.2	18.9	0.00e+00	0	43	0	238026752	64	4396
2026-01-23 07:22:44.12	89.77	14.27	-46.7	-48.3	18.8	0.00e+00	0	43	0	245366784	64	4492
2026-01-23 07:22:48.15	89.32	14.63	-46.6	-48.2	18.9	0.00e+00	0	43	0	252706816	64	4411
2026-01-23 07:22:52.18	88.87	14.99	-46.9	-48.5	18.5	0.00e+00	0	43	0	261095424	64	4596
2026-01-23 07:22:56.21	88.40	15.35	-46.7	-48.3	18.8	0.00e+00	0	43	0	268435456	64	4480
2026-01-23 07:23:00.24	87.92	15.72	-46.6	-48.2	18.9	0.00e+00	0	43	0	275775488	64	4432
2026-01-23 07:23:04.27	87.42	16.09	-46.5	-48.1	19.1	0.00e+00	0	43	0	283115520	64	4344
2026-01-23 07:23:08.30	86.92	16.46	-46.7	-48.2	19.0	0.00e+00	0	43	0	290455552	64	4429
2026-01-23 07:23:12.34	86.40	16.84	-46.8	-48.4	18.8	0.00e+00	0	43	0	298844160	64	4504
2026-01-23 07:23:16.37	85.86	17.22	-46.9	-48.5	18.8	0.00e+00	0	43	0	306184192	64	4561
2026-01-23 07:23:20.41	85.32	17.60	-46.9	-48.5	18.8	0.00e+00	0	43	0	313524224	64	4565
2026-01-23 07:23:24.44	84.76	17.99	-46.6	-48.1	19.1	0.00e+00	0	43	0	320864256	64	4384
2026-01-23 07:23:28.47	84.18	18.38	-46.5	-48.1	19.2	0.00e+00	0	43	0	329252864	64	4348
2026-01-23 07:23:32.50	83.59	18.77	-46.5	-48.1	19.2	0.00e+00	0	43	0	336592896	64	4355
2026-01-23 07:23:36.53	82.98	19.17	-46.4	-47.9	19.4	0.00e+00	0	43	0	343932928	64	4251
2026-01-23 07:23:40.57	82.36	19.57	-46.4	-47.8	19.5	0.00e+00	0	43	0	351272960	64	4229
2026-01-23 07:23:44.60	81.72	19.97	-46.2	-47.7	19.6	0.00e+00	0	43	0	358612992	64	4161
2026-01-23 07:23:48.63	81.06	20.37	-46.2	-47.6	19.7	0.00e+00	0	43	0	367001600	64	4140
2026-01-23 07:23:52.66	80.39	20.78	-46.1	-47.5	19.9	0.00e+00	0	43	0	374341632	63	4303
2026-01-23 07:23:56.69	79.69	21.18	-46.1	-47.4	20.0	0.00e+00	0	43	0	381681664	63	4290
2026-01-23 07:24:00.73	78.98	21.60	-46.3	-47.8	19.7	0.00e+00	0	43	0	389021696	63	4446
2026-01-23 07:24:04.76	78.25	22.01	-46.5	-48.0	19.5	0.00e+00	0	43	0	397410304	63	4557
2026-01-23 07:24:08.79	77.50	22.42	-46.5	-48.0	19.4	0.00e+00	0	43	0	404750336	64	4334
2026-01-23 07:24:12.83	76.72	22.84	-46.7	-48.3	19.1	0.00e+00	0	43	0	412090368	64	4458
2026-01-23 07:24:16.86	75.93	23.25	-46.5	-48.0	19.4	0.00e+00	0	43	0	419430400	64	4328
2026-01-23 07:24:20.89	75.12	23.67	-46.5	-48.0	19.5	0.00e+00	0	43	0	426770432	64	4330
2026-01-23 07:24:24.93	74.28	24.09	-46.2	-47.6	19.8	0.00e+00	0	43	0	434110464	64	4126
2026-01-23 07:24:28.96	73.42	24.50	-46.3	-47.8	19.7	0.00e+00	0	43	0	442499072	64	4203
2026-01-23 07:24:32.99	72.54	24.92	-46.0	-47.3	20.2	0.00e+00	0	43	0	449839104	63	4241
2026-01-23 07:24:37.02	71.63	25.33	-45.8	-47.1	20.4	0.00e+00	0	43	0	457179136	63	4136
2026-01-23 07:24:41.05	70.70	25.75	-46.0	-47.3	20.3	0.00e+00	0	43	0	464519168	63	4238
2026-01-23 07:24:45.09	69.74	26.16	-46.0	-47.4	20.2	0.00e+00	0	43	0	472907776	63	4253
2026-01-23 07:24:49.12	68.76	26.56	-45.9	-47.2	20.4	0.00e+00	0	43	0	480247808	63	4193
2026-01-23 07:24:53.15	67.75	26.97	-46.0	-47.3	20.4	0.00e+00	0	43	0	487587840	63	4208
2026-01-23 07:24:57.18	66.72	27.37	-46.2	-47.6	20.1	0.00e+00	0	43	0	494927872	63	4352
2026-01-23 07:25:01.21	65.66	27.76	-46.8	-48.3	19.3	0.00e+00	0	43	0	502267904	64	4481
2026-01-23 07:25:05.25	64.57	28.15	-47.2	-48.8	18.8	0.00e+00	0	43	0	510656512	65	4449
2026-01-23 07:25:09.28	63.46	28.54	-47.7	-49.4	18.3	0.00e+00	0	43	0	517996544	65	4787
2026-01-23 07:25:13.32	62.32	28.91	-47.9	-49.6	18.1	0.00e+00	0	43	0	525336576	66	4645
2026-01-23 07:25:17.35	61.16	29.28	-48.0	-49.8	17.9	0.00e+00	0	43	0	532676608	66	4756
2026-01-23 07:25:21.38	59.96	29.64	-48.7	-50.8	16.9	0.00e+00	0	43	0	540016640	67	5013
2026-01-23 07:25:25.41	58.75	29.99	-48.3	-50.3	17.6	0.00e+00	0	43	0	548405248	68	4449
2026-01-23 07:25:29.44	57.50	30.33	-47.9	-49.7	18.1	0.00e+00	0	43	0	555745280	67	4416
2026-01-23 07:25:33.47	56.23	30.65	-47.9	-49.7	18.0	0.00e+00	0	43	0	563085312	67	4406
2026-01-23 07:25:37.50	54.93	30.97	-47.8	-49.5	18.3	0.00e+00	0	43	0	570425344	67	4305
2026-01-23 07:25:41.53	53.61	31.27	-47.5	-49.2	18.5	0.00e+00	0	43	0	577765376	66	4418
2026-01-23 07:25:45.57	52.26	31.55	-47.8	-49.5	18.2	0.00e+00	0	43	0	586153984	66	4598
2026-01-23 07:25:49.60	50.89	31.82	-47.7	-49.4	18.3	0.00e+00	0	43	0	593494016	66	4515
2026-01-23 07:25:53.64	49.50	32.08	-47.7	-49.4	18.4	0.00e+00	0	43	0	600834048	66	4497
2026-01-23 07:25:57.67	48.09	32.31	-47.1	-48.6	19.1	0.00e+00	0	43	0	608174080	66	4133
2026-01-23 07:26:01.70	46.65	32.53	-47.0	-48.5	19.2	0.00e+00	0	43	0	616562688	65	4330
2026-01-23 07:26:05.73	45.20	32.73	-47.1	-48.7	19.1	0.00e+00	0	43	0	623902720	65	4420
2026-01-23 07:26:09.76	43.73	32.91	-46.6	-48.0	19.8	0.00e+00	0	43	0	631242752	65	4065
2026-01-23 07:26:13.79	42.25	33.06	-46.6	-48.0	19.7	0.00e+00	0	43	0	638582784	64	4304
2026-01-23 07:26:17.83	40.75	33.20	-46.6	-48.0	19.7	0.00e+00	0	43	0	645922816	64	4310
2026-01-23 07:26:21.86	39.24	33.31	-46.8	-48.3	19.4	0.00e+00	0	43	0	654311424	64	4476
2026-01-23 07:26:25.89	37.72	33.41	-47.3	-48.8	19.0	0.00e+00	0	43	0	661651456	65	4491
2026-01-23 07:26:29.93	36.20	33.48	-47.3	-48.9	18.9	0.00e+00	0	43	0	668991488	65	4515
2026-01-23 07:26:33.96	34.67	33.52	-47.0	-48.5	19.2	0.00e+00	0	43	0	676331520	65	4332
2026-01-23 07:26:37.99	33.13	33.54	-47.1	-48.6	19.1	0.00e+00	0	43	0	683671552	65	4378
2026-01-23 07:26:42.02	31.60	33.54	-46.9	-48.3	19.4	0.00e+00	0	43	0	692060160	65	4228
2026-01-23 07:26:46.05	30.06	33.52	-47.2	-48.8	19.0	0.00e+00	0	43	0	699400192	65	4451
2026-01-23 07:26:50.09	28.53	33.47	-47.7	-49.4	18.4	0.00e+00	0	43	0	706740224	65	4761
2026-01-23 07:26:54.12	27.01	33.40	-47.6	-49.4	18.5	0.00e+00	0	43	0	714080256	66	4495
2026-01-23 07:26:58.15	25.49	33.31	-47.8	-49.5	18.3	0.00e+00	0	43	0	721420288	66	4559
2026-01-23 07:27:02.18	23.98	33.19	-47.4	-49.0	18.7	0.00e+00	0	43	0	729808896	66	4340
2026-01-23 07:27:06.21	22.49	33.06	-48.0	-49.8	18.1	0.00e+00	0	43	0	737148928	66	4714
2026-01-23 07:27:10.25	21.00	32.90	-48.0	-49.8	18.0	0.00e+00	0	43	0	744488960	66	4712
2026-01-23 07:27:14.28	19.54	32.72	-48.1	-50.0	17.9	0.00e+00	0	43	0	751828992	66	4816
2026-01-23 07:27:18.31	18.09	32.52	-48.6	-50.6	17.2	0.00e+00	0	43	0	760217600	67	4887
2026-01-23 07:27:22.35	16.65	32.30	-47.9	-49.7	18.1	0.00e+00	0	43	0	767557632	67	4406
2026-01-23 07:27:26.37	15.25	32.06	-47.9	-49.6	18.2	0.00e+00	0	43	0	774897664	67	4391
2026-01-23 07:27:30.41	13.86	31.81	-47.9	-49.6	18.2	0.00e+00	0	43	0	782237696	67	4370
2026-01-23 07:27:34.45	12.49	31.54	-47.8	-49.6	18.2	0.00e+00	0	43	0	789577728	67	4353
2026-01-23 07:27:38.48	11.14	31.25	-48.3	-50.3	17.6	0.00e+00	0	43	0	797966336	67	4714
2026-01-23 07:27:42.52	9.82	30.95	-48.2	-50.1	17.7	0.00e+00	0	43	0	805306368	67	4620
2026-01-23 07:27:46.55	8.53	30.64	-48.0	-49.8	17.9	0.00e+00	0	43	0	812646400	67	4470
2026-01-23 07:27:50.58	7.26	30.31	-48.4	-50.4	17.4	0.00e+00	0	43	0	819986432	67	4785
2026-01-23 07:27:54.62	6.02	29.97	-48.0	-49.7	18.1	0.00e+00	0	43	0	827326464	67	4436
2026-01-23 07:27:58.65	4.80	29.62	-48.1	-49.9	17.9	0.00e+00	0	43	0	835715072	67	4512
2026-01-23 07:28:02.69	3.61	29.26	-47.8	-49.5	18.2	0.00e+00	0	43	0	843055104	67	4296
2026-01-23 07:28:06.72	2.45	28.90	-47.5	-49.2	18.6	0.00e+00	0	43	0	850395136	66	4420
2026-01-23 07:28:10.76	1.31	28.52	-47.8	-49.6	18.2	0.00e+00	0	43	0	857735168	66	4631
2026-01-23 07:28:14.79	0.21	28.14	-47.4	-49.1	18.6	0.00e+00	0	43	0	866123776	66	4364
2026-01-23 07:28:18.82	359.13	27.75	-47.0	-48.5	19.2	0.00e+00	0	43	0	873463808	66	4081
2026-01-23 07:28:22.86	358.07	27.35	-46.5	-48.0	19.7	0.00e+00	0	43	0	880803840	65	4053
2026-01-23 07:28:26.89	357.04	26.95	-46.5	-48.0	19.7	0.00e+00	0	43	0	888143872	64	4305
2026-01-23 07:28:30.93	356.04	26.55	-45.8	-47.1	20.7	0.00e+00	0	43	0	895483904	63	4100
2026-01-23 07:28:34.96	355.06	26.14	-45.4	-46.7	21.0	0.00e+00	0	43	0	903872512	62	4158
2026-01-23 07:28:38.99	354.11	25.73	-44.8	-45.9	21.7	0.00e+00	0	43	0	911212544	61	4051
2026-01-23 07:28:43.02	353.18	25.32	-44.6	-45.7	21.9	0.00e+00	0	43	0	918552576	61	3927
2026-01-23 07:28:47.05	352.28	24.91	-44.2	-45.3	22.2	0.00e+00	0	43	0	925892608	60	3979
2026-01-23 07:28:51.08	351.40	24.49	-44.0	-45.0	22.5	0.00e+00	0	43	0	933232640	60	3850
2026-01-23 07:28:55.12	350.54	24.08	-44.6	-45.6	22.2	0.00e+00	0	43	0	941621248	59	4384
2026-01-23 07:28:59.15	349.71	23.66	-44.4	-45.5	22.1	0.00e+00	0	43	0	948961280	60	4052
2026-01-23 07:29:03.18	348.90	23.25	-44.6	-45.7	21.8	0.00e+00	0	43	0	956301312	60	4178
2026-01-23 07:29:07.21	348.11	22.83	-44.6	-45.7	21.8	0.00e+00	0	43	0	963641344	60	4154
2026-01-23 07:29:11.24	347.34	22.42	-44.9	-46.0	21.5	0.00e+00	0	43	0	970981376	60	4336
2026-01-23 07:29:15.27	346.59	22.01	-44.9	-46.1	21.4	0.00e+00	0	43	0	979369984	60	4355
2026-01-23 07:29:19.31	345.86	21.60	-45.1	-46.2	21.3	0.00e+00	0	43	0	986710016	60	4426
2026-01-23 07:29:23.34	345.15	21.19	-45.2	-46.4	21.1	0.00e+00	0	43	0	994050048	61	4285
2026-01-23 07:29:27.37	344.46	20.78	-45.3	-46.4	21.1	0.00e+00	0	43	0	1001390080	61	4290
2026-01-23 07:29:31.40	343.79	20.37	-45.4	-46.6	20.9	0.00e+00	0	43	0	1009778688	61	4377
2026-01-23 07:29:35.43	343.14	19.97	-45.6	-46.8	20.6	0.00e+00	0	43	0	1017118720	61	4486
2026-01-23 07:29:39.46	342.50	19.57	-45.8	-47.1	20.4	0.00e+00	0	43	0	1024458752	62	4366
2026-01-23 07:29:43.50	341.88	19.17	-46.0	-47.3	20.2	0.00e+00	0	43	0	1031798784	62	4485
2026-01-23 07:29:47.53	341.27	18.78	-46.2	-47.6	19.9	0.00e+00	0	43	0	1039138816	63	4381
2026-01-23 07:29:51.56	340.69	18.39	-46.4	-47.9	19.7	0.00e+00	0	43	0	1047527424	63	4500
2026-01-23 07:29:55.59	340.11	18.00	-46.5	-47.9	19.6	0.00e+00	0	43	0	1054867456	63	4522
2026-01-23 07:29:59.63	339.55	17.61	-46.3	-47.8	19.7	0.00e+00	0	43	0	1062207488	63	4445
2026-01-23 07:30:03.66	339.01	17.23	-46.6	-48.1	19.3	0.00e+00	0	43	0	1069547520	63	4638
2026-01-23 07:30:07.69	338.48	16.85	-46.8	-48.4	19.0	0.00e+00	0	43	0	1076887552	64	4501
2026-01-23 07:30:11.72	337.96	16.48	-46.8	-48.4	18.9	0.00e+00	0	43	0	1085276160	64	4533
2026-01-23 07:30:15.76	337.46	16.10	-46.7	-48.3	19.1	0.00e+00	0	43	0	1092616192	64	4447
2026-01-23 07:30:19.79	336.97	15.74	-46.6	-48.2	19.2	0.00e+00	0	43	0	1099956224	64	4401
2026-01-23 07:30:23.82	336.49	15.37	-46.5	-48.1	19.2	1.50e-06	0	43	0	1107296256	64	4347
2026-01-23 07:30:27.86	336.02	15.01	-46.6	-48.2	19.1	0.00e+00	0	43	0	1115684864	64	4397
2026-01-23 07:30:31.89	335.57	14.65	-46.8	-48.4	18.9	0.00e+00	0	43	0	1123024896	64	4521
2026-01-23 07:30:35.92	335.12	14.29	-46.8	-48.5	18.8	0.00e+00	0	43	0	1130364928	64	4546
2026-01-23 07:30:39.95	334.69	13.94	-46.9	-48.5	18.7	0.00e+00	0	43	0	1137704960	64	4570
2026-01-23 07:30:43.99	334.27	13.59	-46.8	-48.4	18.8	0.00e+00	0	43	0	1145044992	64	4504
2026-01-23 07:30:48.02	333.85	13.25	-46.8	-48.5	18.7	0.00e+00	0	43	0	1153433600	64	4558
2026-01-23 07:30:52.05	333.45	12.91	-46.7	-48.3	18.9	0.00e+00	0	43	0	1160773632	64	4446
2026-01-23 07:30:56.08	333.06	12.57	-46.8	-48.4	18.7	0.00e+00	0	43	0	1168113664	64	4529
2026-01-23 07:31:00.11	332.67	12.23	-46.9	-48.6	18.5	0.00e+00	0	43	0	1175453696	64	4625
2026-01-23 07:31:04.14	332.30	11.90	-47.2	-48.9	18.2	9.10e-06	0	43	0	1182793728	64	4814
2026-01-23 07:31:08.18	331.93	11.57	-47.5	-49.4	17.7	0.00e+00	0	43	0	1191182336	65	4772
2026-01-23 07:31:12.20	331.57	11.25	-47.5	-49.4	17.6	0.00e+00	0	43	0	1198522368	65	4813
2026-01-23 07:31:16.24	331.22	10.93	-47.6	-49.5	17.5	0.00e+00	0	43	0	1205862400	65	4853
2026-01-23 07:31:20.27	330.88	10.61	-47.6	-49.5	17.5	0.00e+00	0	43	0	1213202432	66	4565
2026-01-23 07:31:24.31	330.55	10.29	-47.7	-49.7	17.3	0.00e+00	0	43	0	1220542464	66	4679
2026-01-23 07:31:28.34	330.22	9.98	-47.8	-49.8	17.2	0.00e+00	0	43	0	1228931072	66	4722
2026-01-23 07:31:32.37	329.90	9.67	-47.8	-49.9	17.1	0.00e+00	0	43	0	1236271104	66	4784
2026-01-23 07:31:36.40	329.59	9.36	-48.0	-50.1	16.9	0.00e+00	0	43	0	1243611136	66	4883
2026-01-23 07:31:40.44	329.28	9.06	-48.3	-50.5	16.3	0.00e+00	0	43	0	1250951168	67	4864
2026-01-23 07:31:44.47	328.98	8.76	-48.2	-50.5	16.4	0.00e+00	0	43	0	1259339776	67	4818
2026-01-23 07:31:48.50	328.69	8.46	-48.4	-50.8	16.0	0.00e+00	0	43	0	1266679808	67	5022
2026-01-23 07:31:52.53	328.40	8.16	-48.2	-50.5	16.3	0.00e+00	0	43	0	1274019840	67	4858
2026-01-23 07:31:56.56	328.12	7.87	-48.4	-50.9	15.9	0.00e+00	0	43	0	1281359872	67	5052
2026-01-23 07:32:00.59	327.84	7.58	-48.6	-51.1	15.6	0.00e+00	0	43	0	1288699904	67	5188
2026-01-23 07:32:04.62	327.57	7.29	-48.7	-51.3	15.4	7.00e-07	0	43	0	1296039936	67	5284
2026-01-23 07:32:08.65	327.31	7.01	-48.7	-51.4	15.3	0.00e+00	0	43	0	1304428544	68	5064
2026-01-23 07:32:12.69	327.05	6.72	-48.9	-51.7	14.9	0.00e+00	0	43	0	1311768576	68	5279
2026-01-23 07:32:16.72	326.80	6.44	-48.6	-51.2	15.4	0.00e+00	0	43	0	1319108608	68	4948
2026-01-23 07:32:20.75	326.55	6.17	-48.6	-51.2	15.3	0.00e+00	0	43	0	1326448640	68	4955
2026-01-23 07:32:24.78	326.31	5.89	-48.5	-51.2	15.3	0.00e+00	0	43	0	1334837248	68	4932
2026-01-23 07:32:28.82	326.07	5.62	-48.7	-51.4	15.1	0.00e+00	0	43	0	1342177280	68	5087
2026-01-23 07:32:32.85	325.83	5.35	-48.9	-51.7	14.7	7.00e-07	0	43	0	1349517312	68	5273
2026-01-23 07:32:36.88	325.61	5.08	-49.1	-52.2	14.2	7.00e-07	0	43	0	1356857344	68	5536
2026-01-23 07:32:40.91	325.38	4.81	-53.2	-68.2	3.8	1.49e+00	0	43	104	1361051648	76	22012
2026-01-23 07:32:44.95	325.16	4.55	-53.5	-68.5	3.8	1.49e+00	0	43	104	1361051648	77	21523
2026-01-23 07:32:48.98	324.94	4.29	-53.3	-68.3	3.8	1.49e+00	0	43	104	1361051648	77	21075
2026-01-23 07:32:53.02	324.73	4.03	-53.5	-68.5	3.8	1.49e+00	0	43	104	1361051648	77	21627
2026-01-23 07:32:57.05	324.52	3.77	-53.6	-68.6	3.8	1.49e+00	0	43	104	1361051648	77	21952
2026-01-23 07:33:01.09	324.32	3.51	-53.6	-68.6	3.8	1.49e+00	0	43	104	1361051648	77	21802
2026-01-23 07:33:05.12	324.12	3.26	-53.6	-68.6	3.8	1.49e+00	0	43	104	1361051648	77	21878
2026-01-23 07:33:09.16	323.92	3.01	-53.6	-68.5	3.8	1.49e+00	0	43	104	1361051648	77	21741
2026-01-23 07:33:13.19	323.73	2.76	-53.6	-68.6	3.8	1.49e+00	0	43	104	1361051648	77	21771
2026-01-23 07:33:17.22	323.54	2.51	-53.6	-68.5	3.8	1.49e+00	0	43	104	1361051648	77	21752
2026-01-23 07:33:21.25	323.35	2.27	-53.6	-68.5	3.8	1.49e+00	0	43	104	1361051648	77	21754
2026-01-23 07:33:25.28	323.17	2.02	-53.6	-68.5	3.8	1.49e+00	0	43	104	1361051648	77	21722

#Closed at: 2026-01-23 07:33:27
#Recorded file [1361 MB]: D:/lorett/data/31041_260123_101954.dat