passes_logs/2026/01/23/R3.2S_Murmansk/R3.2S_Murmansk__20260123_083846_SUOMI_NPP_rec.log

#Pass ID: 20260123_083846_SUOMI NPP
#Satellite: SUOMI NPP
#Configuration: NPP
#almurnet v.1.7.20251203
#Start time: 2026-01-23 08:38:47

#Version: 2.2.20231116
#Station: R3.2S_Murmansk
#Location: 33.079688 lon 68.888172 lat
#TLE: 1 37849U 11061A   26022.50498765  .00000208  00000+0  11976-3 0  9992
#TLE: 2 37849  98.7820 324.4892 0002275  50.8149 309.3229 14.19528284737775

#Time	Az	El	Level	Level2	SNR	BER	BlckErr	Temp	State	Recorded	gain1	gain2
2026-01-23 08:38:47.44	129.22	2.07	-54.4	-69.4	3.8	1.49e+00	0	41	0	0	79	21411
2026-01-23 08:38:51.46	129.13	2.32	-54.5	-69.5	3.8	1.49e+00	0	41	104	0	79	21585
2026-01-23 08:38:55.50	129.04	2.58	-54.3	-69.3	3.8	1.49e+00	0	41	104	0	79	21114
2026-01-23 08:38:59.54	128.95	2.85	-54.0	-69.0	3.8	1.49e+00	0	41	104	0	79	20498
2026-01-23 08:39:03.57	128.86	3.11	-53.4	-68.4	3.8	1.49e+00	0	41	104	0	78	20187
2026-01-23 08:39:07.60	128.77	3.38	-52.9	-67.8	3.8	1.49e+00	0	41	104	0	77	19913
2026-01-23 08:39:11.63	128.67	3.65	-52.4	-66.8	3.8	1.49e+00	0	41	104	0	76	18925
2026-01-23 08:39:15.67	128.58	3.92	-52.4	-67.3	3.8	1.49e+00	0	41	104	0	76	19931
2026-01-23 08:39:19.70	128.48	4.19	-52.1	-61.7	5.1	9.45e-01	0	41	0	1048576	76	10532
2026-01-23 08:39:23.74	128.38	4.47	-50.0	-54.0	12.2	4.78e-04	0	41	0	8388608	72	5428
2026-01-23 08:39:27.77	128.27	4.75	-47.5	-49.7	16.5	0.00e+00	0	42	0	15728640	67	4407
2026-01-23 08:39:31.80	128.17	5.04	-46.7	-48.6	17.6	0.00e+00	0	42	0	23068672	65	4367
2026-01-23 08:39:35.83	128.06	5.32	-47.0	-48.9	17.5	1.52e-05	0	41	0	31457280	65	4495
2026-01-23 08:39:39.87	127.95	5.61	-46.1	-47.8	18.6	0.00e+00	0	42	0	38797312	64	4210
2026-01-23 08:39:43.90	127.83	5.90	-46.3	-47.9	18.5	0.00e+00	0	42	0	46137344	63	4532
2026-01-23 08:39:47.94	127.72	6.20	-46.3	-48.0	18.4	0.00e+00	0	42	0	53477376	63	4553
2026-01-23 08:39:51.97	127.60	6.50	-46.5	-48.2	18.3	0.00e+00	0	42	0	61865984	63	4658
2026-01-23 08:39:56.00	127.48	6.80	-46.3	-48.0	18.5	0.00e+00	0	42	0	69206016	64	4313
2026-01-23 08:40:00.03	127.35	7.11	-46.1	-47.6	18.9	0.00e+00	0	42	0	76546048	63	4390
2026-01-23 08:40:04.07	127.23	7.42	-46.0	-47.5	19.1	0.00e+00	0	42	0	83886080	63	4313
2026-01-23 08:40:08.10	127.10	7.73	-45.9	-47.4	19.1	0.00e+00	0	42	0	91226112	63	4288
2026-01-23 08:40:12.13	126.96	8.05	-46.0	-47.6	19.1	0.00e+00	0	42	0	99614720	63	4356
2026-01-23 08:40:16.16	126.83	8.37	-46.3	-47.9	18.8	0.00e+00	0	42	0	106954752	63	4537
2026-01-23 08:40:20.19	126.69	8.69	-46.4	-48.0	18.7	0.00e+00	0	42	0	114294784	63	4568
2026-01-23 08:40:24.23	126.55	9.02	-45.7	-47.2	19.5	0.00e+00	0	42	0	121634816	63	4161
2026-01-23 08:40:28.26	126.40	9.35	-46.1	-47.6	19.2	0.00e+00	0	42	0	130023424	63	4356
2026-01-23 08:40:32.29	126.25	9.69	-45.9	-47.4	19.3	0.00e+00	0	42	0	137363456	63	4288
2026-01-23 08:40:36.32	126.09	10.03	-46.0	-47.6	19.2	0.00e+00	0	42	0	144703488	63	4349
2026-01-23 08:40:40.35	125.94	10.38	-46.1	-47.7	19.2	0.00e+00	0	42	0	152043520	63	4398
2026-01-23 08:40:44.38	125.77	10.73	-45.3	-46.7	20.1	0.00e+00	0	42	0	159383552	62	4149
2026-01-23 08:40:48.41	125.61	11.08	-45.4	-46.7	20.1	0.00e+00	0	42	0	166723584	62	4185
2026-01-23 08:40:52.45	125.44	11.44	-45.4	-46.8	20.0	0.00e+00	0	42	0	175112192	62	4220
2026-01-23 08:40:56.48	125.26	11.81	-45.2	-46.5	20.3	0.00e+00	0	42	0	182452224	62	4085
2026-01-23 08:41:00.51	125.08	12.18	-45.0	-46.3	20.5	0.00e+00	0	42	0	189792256	61	4215
2026-01-23 08:41:04.54	124.90	12.55	-44.8	-46.1	20.6	0.00e+00	0	42	0	197132288	61	4131
2026-01-23 08:41:08.57	124.70	12.93	-44.8	-46.2	20.6	0.00e+00	0	42	0	205520896	61	4150
2026-01-23 08:41:12.61	124.51	13.32	-44.7	-46.0	20.7	0.00e+00	0	42	0	212860928	61	4069
2026-01-23 08:41:16.64	124.31	13.72	-44.6	-45.9	20.9	0.00e+00	0	42	0	220200960	61	4010
2026-01-23 08:41:20.68	124.10	14.12	-44.8	-46.1	20.7	0.00e+00	0	42	0	227540992	61	4129
2026-01-23 08:41:24.71	123.89	14.52	-44.8	-46.1	20.7	0.00e+00	0	42	0	234881024	61	4119
2026-01-23 08:41:28.74	123.67	14.93	-44.6	-45.8	21.0	0.00e+00	0	42	0	243269632	61	3974
2026-01-23 08:41:32.77	123.44	15.35	-44.5	-45.8	21.0	0.00e+00	0	42	0	250609664	61	3973
2026-01-23 08:41:36.80	123.21	15.78	-44.9	-46.2	20.7	0.00e+00	0	42	0	257949696	61	4184
2026-01-23 08:41:40.84	122.97	16.21	-44.5	-45.7	21.1	0.00e+00	0	42	0	265289728	60	4174
2026-01-23 08:41:44.87	122.72	16.65	-44.4	-45.6	21.3	0.00e+00	0	43	0	272629760	60	4129
2026-01-23 08:41:48.90	122.46	17.10	-44.5	-45.7	21.2	0.00e+00	0	42	0	281018368	60	4154
2026-01-23 08:41:52.94	122.20	17.55	-44.5	-45.8	21.1	0.00e+00	0	42	0	288358400	60	4199
2026-01-23 08:41:56.97	121.93	18.02	-44.8	-46.0	20.9	0.00e+00	0	42	0	295698432	60	4334
2026-01-23 08:42:01.00	121.65	18.49	-44.9	-46.2	20.8	0.00e+00	0	42	0	303038464	60	4405
2026-01-23 08:42:05.03	121.36	18.96	-44.5	-45.8	21.2	0.00e+00	0	42	0	310378496	60	4202
2026-01-23 08:42:09.06	121.06	19.45	-44.7	-46.0	21.0	0.00e+00	0	43	0	318767104	60	4302
2026-01-23 08:42:13.09	120.75	19.95	-45.1	-46.4	20.6	0.00e+00	0	43	0	326107136	60	4545
2026-01-23 08:42:17.12	120.43	20.45	-45.1	-46.4	20.7	0.00e+00	0	42	0	333447168	61	4265
2026-01-23 08:42:21.15	120.10	20.97	-45.8	-47.2	20.0	0.00e+00	0	42	0	340787200	62	4439
2026-01-23 08:42:25.19	119.75	21.50	-46.0	-47.4	19.8	0.00e+00	0	43	0	349175808	62	4545
2026-01-23 08:42:29.22	119.39	22.03	-45.9	-47.4	19.9	0.00e+00	0	42	0	356515840	62	4511
2026-01-23 08:42:33.25	119.03	22.57	-46.0	-47.4	19.8	0.00e+00	0	42	0	363855872	63	4277
2026-01-23 08:42:37.28	118.64	23.13	-46.0	-47.5	19.8	0.00e+00	0	43	0	371195904	63	4308
2026-01-23 08:42:41.31	118.25	23.69	-46.0	-47.4	19.9	0.00e+00	0	43	0	378535936	63	4266
2026-01-23 08:42:45.35	117.83	24.27	-46.4	-48.0	19.3	0.00e+00	0	43	0	386924544	63	4555
2026-01-23 08:42:49.37	117.40	24.86	-46.3	-47.8	19.6	0.00e+00	0	43	0	394264576	63	4479
2026-01-23 08:42:53.41	116.96	25.46	-46.3	-47.8	19.5	0.00e+00	0	43	0	401604608	63	4477
2026-01-23 08:42:57.43	116.50	26.07	-46.2	-47.6	19.5	0.00e+00	0	42	0	408944640	63	4374
2026-01-23 08:43:01.47	116.01	26.69	-46.8	-48.4	18.9	0.00e+00	0	43	0	416284672	64	4524
2026-01-23 08:43:05.50	115.51	27.33	-46.1	-47.5	19.7	0.00e+00	0	43	0	424673280	64	4084
2026-01-23 08:43:09.53	114.99	27.98	-45.8	-47.2	20.1	0.00e+00	0	42	0	432013312	63	4169
2026-01-23 08:43:13.56	114.44	28.64	-45.9	-47.3	20.1	0.00e+00	0	43	0	439353344	63	4196
2026-01-23 08:43:17.60	113.87	29.31	-46.4	-47.9	19.6	0.00e+00	0	42	0	446693376	63	4512
2026-01-23 08:43:21.63	113.28	30.00	-46.8	-48.4	19.0	0.00e+00	0	43	0	454033408	65	4282
2026-01-23 08:43:25.67	112.66	30.70	-47.2	-48.9	18.6	0.00e+00	0	43	0	462422016	65	4509
2026-01-23 08:43:29.70	112.01	31.41	-47.4	-49.2	18.2	0.00e+00	0	43	0	469762048	66	4435
2026-01-23 08:43:33.73	111.33	32.14	-47.4	-49.2	18.3	0.00e+00	0	42	0	477102080	66	4416
2026-01-23 08:43:37.76	110.62	32.88	-48.1	-50.1	17.5	0.00e+00	0	43	0	484442112	67	4599
2026-01-23 08:43:41.80	109.87	33.63	-48.6	-50.8	16.9	0.00e+00	0	43	0	492830720	68	4730
2026-01-23 08:43:45.83	109.09	34.39	-49.3	-52.0	15.6	0.00e+00	0	43	0	500170752	69	5118
2026-01-23 08:43:49.87	108.27	35.17	-49.2	-51.9	15.7	0.00e+00	0	43	0	507510784	69	5052
2026-01-23 08:43:53.89	107.41	35.96	-47.4	-49.3	18.1	0.00e+00	0	43	0	514850816	66	4476
2026-01-23 08:43:57.93	106.51	36.76	-46.2	-47.8	19.6	0.00e+00	0	43	0	522190848	64	4195
2026-01-23 08:44:01.96	105.56	37.57	-46.5	-48.1	19.2	0.00e+00	0	43	0	530579456	64	4370
2026-01-23 08:44:05.99	104.56	38.40	-47.5	-49.4	18.0	0.00e+00	0	43	0	537919488	65	4810
2026-01-23 08:44:10.02	103.51	39.23	-47.7	-49.8	17.7	0.00e+00	0	43	0	545259520	67	4444
2026-01-23 08:44:14.06	102.40	40.07	-48.0	-50.2	17.2	0.00e+00	0	43	0	552599552	67	4688
2026-01-23 08:44:18.08	101.23	40.92	-48.1	-50.4	17.0	0.00e+00	0	43	0	559939584	67	4811
2026-01-23 08:44:22.11	100.00	41.77	-47.6	-49.6	17.8	0.00e+00	0	43	0	568328192	67	4380
2026-01-23 08:44:26.15	98.70	42.63	-46.4	-48.0	19.4	0.00e+00	0	43	0	575668224	64	4308
2026-01-23 08:44:30.18	97.33	43.49	-47.4	-49.4	18.2	0.00e+00	0	43	0	583008256	65	4776
2026-01-23 08:44:34.21	95.88	44.35	-48.5	-50.7	16.6	0.00e+00	0	43	0	590348288	67	4976
2026-01-23 08:44:38.24	94.36	45.21	-47.4	-49.8	17.3	0.00e+00	0	42	0	598736896	67	4454
2026-01-23 08:44:42.27	92.74	46.06	-46.7	-48.3	19.0	0.00e+00	0	43	0	606076928	65	4242
2026-01-23 08:44:46.31	91.04	46.90	-47.0	-48.7	18.6	0.00e+00	0	42	0	613416960	64	4675
2026-01-23 08:44:50.34	89.24	47.73	-48.2	-50.5	16.9	0.00e+00	0	43	0	620756992	67	4864
2026-01-23 08:44:54.37	87.35	48.55	-46.4	-48.0	19.3	0.00e+00	0	43	0	628097024	64	4308
2026-01-23 08:44:58.40	85.35	49.34	-45.2	-46.5	20.8	0.00e+00	0	42	0	636485632	62	4071
2026-01-23 08:45:02.43	83.25	50.10	-45.6	-47.0	20.4	0.00e+00	0	43	0	643825664	61	4575
2026-01-23 08:45:06.47	81.04	50.84	-46.0	-47.6	19.9	0.00e+00	0	43	0	651165696	62	4604
2026-01-23 08:45:10.50	78.72	51.54	-44.6	-45.8	21.3	0.00e+00	0	43	0	658505728	61	3986
2026-01-23 08:45:14.53	76.30	52.19	-46.0	-47.6	19.8	0.00e+00	0	43	0	665845760	62	4607
2026-01-23 08:45:18.57	73.77	52.80	-45.4	-46.8	20.4	0.00e+00	0	43	0	674234368	62	4202
2026-01-23 08:45:22.60	71.13	53.36	-45.4	-46.8	20.3	0.00e+00	0	42	0	681574400	61	4487
2026-01-23 08:45:26.64	68.40	53.86	-45.9	-47.5	19.7	0.00e+00	0	42	0	688914432	63	4327
2026-01-23 08:45:30.67	65.58	54.29	-44.8	-46.2	20.9	0.00e+00	0	43	0	696254464	61	4175
2026-01-23 08:45:34.70	62.68	54.65	-43.9	-45.1	22.1	0.00e+00	0	42	0	703594496	59	4106
2026-01-23 08:45:38.73	59.72	54.94	-43.3	-44.5	22.6	0.00e+00	0	43	0	711983104	57	4308
2026-01-23 08:45:42.76	56.70	55.16	-43.5	-44.7	22.3	0.00e+00	0	43	0	719323136	58	4148
2026-01-23 08:45:46.79	53.64	55.29	-43.2	-44.3	22.7	0.00e+00	0	43	0	726663168	57	4226
2026-01-23 08:45:50.82	50.57	55.34	-43.1	-44.1	22.9	0.00e+00	0	43	0	734003200	57	4144
2026-01-23 08:45:54.86	47.48	55.31	-43.9	-45.1	22.1	0.00e+00	0	43	0	742391808	58	4364
2026-01-23 08:45:58.89	44.42	55.20	-44.1	-45.4	21.9	0.00e+00	0	43	0	749731840	58	4509
2026-01-23 08:46:02.92	41.39	55.01	-43.0	-44.0	22.9	0.00e+00	0	43	0	757071872	58	3866
2026-01-23 08:46:06.95	38.41	54.75	-42.5	-43.5	23.4	0.00e+00	0	43	0	764411904	56	4084
2026-01-23 08:46:10.99	35.48	54.40	-42.2	-43.2	23.6	0.00e+00	0	43	0	771751936	55	4161
2026-01-23 08:46:15.02	32.64	53.99	-43.5	-44.7	22.5	0.00e+00	0	42	0	779091968	57	4392
2026-01-23 08:46:19.06	29.88	53.51	-44.2	-45.3	22.1	0.00e+00	0	43	0	787480576	58	4490
2026-01-23 08:46:23.09	27.22	52.97	-45.1	-46.4	20.8	0.00e+00	0	43	0	794820608	60	4531
2026-01-23 08:46:27.12	24.66	52.38	-46.1	-47.7	19.9	0.00e+00	0	42	0	802160640	62	4657
2026-01-23 08:46:31.15	22.21	51.74	-45.4	-46.7	20.7	0.00e+00	0	43	0	809500672	62	4152
2026-01-23 08:46:35.18	19.87	51.05	-45.8	-47.2	20.2	0.00e+00	0	43	0	817889280	62	4417
2026-01-23 08:46:39.22	17.63	50.33	-44.4	-45.6	21.5	0.00e+00	0	43	0	825229312	60	4118
2026-01-23 08:46:43.25	15.50	49.57	-45.3	-46.6	20.7	0.00e+00	0	43	0	832569344	61	4379
2026-01-23 08:46:47.28	13.48	48.79	-46.5	-48.1	19.5	0.00e+00	0	42	0	839909376	63	4601
2026-01-23 08:46:51.31	11.56	47.99	-48.0	-50.1	17.6	0.00e+00	0	43	0	847249408	66	4906
2026-01-23 08:46:55.34	9.74	47.17	-49.3	-51.9	15.7	0.00e+00	0	43	0	855638016	70	4767
2026-01-23 08:46:59.38	8.01	46.33	-47.1	-48.7	18.9	0.00e+00	0	43	0	862978048	66	4187
2026-01-23 08:47:03.41	6.37	45.48	-46.6	-48.1	19.4	0.00e+00	0	43	0	870318080	65	4130
2026-01-23 08:47:07.44	4.82	44.63	-48.4	-50.7	17.1	0.00e+00	0	43	0	877658112	67	4936
2026-01-23 08:47:11.48	3.35	43.77	-47.1	-48.8	18.9	0.00e+00	0	43	0	886046720	65	4483
2026-01-23 08:47:15.51	1.96	42.91	-47.5	-49.3	18.2	0.00e+00	0	43	0	893386752	67	4217
2026-01-23 08:47:19.54	0.64	42.06	-46.1	-47.5	19.8	0.00e+00	0	43	0	900726784	63	4295
2026-01-23 08:47:23.57	359.40	41.20	-47.4	-49.2	18.2	0.00e+00	0	43	0	908066816	65	4700
2026-01-23 08:47:27.60	358.21	40.35	-48.3	-50.4	16.8	0.00e+00	0	43	0	915406848	68	4539
2026-01-23 08:47:31.64	357.09	39.51	-47.8	-49.9	17.6	0.00e+00	0	43	0	922746880	67	4497
2026-01-23 08:47:35.67	356.02	38.68	-47.7	-49.6	17.9	0.00e+00	0	43	0	931135488	66	4640
2026-01-23 08:47:39.70	355.01	37.86	-47.1	-48.9	18.5	0.00e+00	0	43	0	938475520	65	4509
2026-01-23 08:47:43.73	354.05	37.04	-46.7	-48.3	19.1	0.00e+00	0	43	0	945815552	64	4486
2026-01-23 08:47:47.76	353.13	36.24	-47.5	-49.3	18.2	0.00e+00	0	43	0	953155584	65	4737
2026-01-23 08:47:51.79	352.26	35.45	-47.9	-50.0	17.6	0.00e+00	0	43	0	961544192	66	4824
2026-01-23 08:47:55.83	351.43	34.67	-47.4	-49.1	18.3	0.00e+00	0	43	0	968884224	65	4650
2026-01-23 08:47:59.86	350.64	33.90	-47.4	-49.2	18.3	0.00e+00	0	43	0	976224256	66	4404
2026-01-23 08:48:03.89	349.89	33.15	-47.8	-49.8	17.7	0.00e+00	0	43	0	983564288	66	4715
2026-01-23 08:48:07.93	349.17	32.41	-47.1	-48.8	18.6	0.00e+00	0	43	0	990904320	65	4468
2026-01-23 08:48:11.96	348.48	31.68	-46.8	-48.4	19.1	0.00e+00	0	43	0	999292928	65	4252
2026-01-23 08:48:15.99	347.83	30.97	-47.4	-49.3	18.2	0.00e+00	0	43	0	1006632960	65	4706
2026-01-23 08:48:20.02	347.20	30.27	-46.1	-47.5	19.8	0.00e+00	0	43	0	1013972992	64	4090
2026-01-23 08:48:24.06	346.60	29.58	-47.0	-48.7	18.8	0.00e+00	0	43	0	1021313024	64	4671
2026-01-23 08:48:28.09	346.03	28.90	-45.6	-46.9	20.5	0.00e+00	0	43	0	1028653056	63	4026
2026-01-23 08:48:32.12	345.47	28.24	-46.0	-47.4	20.0	0.00e+00	0	43	0	1037041664	62	4513
2026-01-23 08:48:36.15	344.95	27.59	-46.6	-48.2	19.1	0.00e+00	0	43	0	1044381696	64	4432
2026-01-23 08:48:40.18	344.44	26.95	-47.3	-49.1	18.3	0.00e+00	0	43	0	1051721728	65	4640
2026-01-23 08:48:44.22	343.95	26.33	-46.1	-47.5	19.9	0.00e+00	0	43	0	1059061760	63	4303
2026-01-23 08:48:48.25	343.49	25.72	-46.3	-47.8	19.6	0.00e+00	0	43	0	1067450368	63	4478
2026-01-23 08:48:52.29	343.04	25.11	-47.4	-49.2	18.1	0.00e+00	0	43	0	1074790400	65	4684
2026-01-23 08:48:56.33	342.60	24.52	-47.3	-49.1	18.3	0.00e+00	0	43	0	1082130432	66	4363
2026-01-23 08:49:00.36	342.19	23.94	-47.4	-49.1	18.1	0.00e+00	0	43	0	1089470464	66	4386
2026-01-23 08:49:04.40	341.79	23.37	-46.8	-48.4	18.8	0.00e+00	0	43	0	1096810496	65	4282
2026-01-23 08:49:08.43	341.40	22.82	-46.6	-48.2	19.0	0.00e+00	0	43	0	1105199104	64	4424
2026-01-23 08:49:12.47	341.03	22.27	-46.7	-48.3	18.9	0.00e+00	0	43	0	1112539136	64	4487
2026-01-23 08:49:16.50	340.67	21.73	-46.3	-47.7	19.6	0.00e+00	0	43	0	1119879168	63	4411
2026-01-23 08:49:20.53	340.33	21.21	-45.8	-47.2	20.1	0.00e+00	0	43	0	1127219200	63	4156
2026-01-23 08:49:24.57	339.99	20.69	-46.6	-48.2	19.1	0.00e+00	0	43	0	1134559232	63	4675
2026-01-23 08:49:28.60	339.67	20.18	-47.7	-49.7	17.6	0.00e+00	0	43	0	1142947840	66	4697
2026-01-23 08:49:32.64	339.36	19.69	-47.9	-49.9	17.3	0.00e+00	0	43	0	1150287872	66	4793
2026-01-23 08:49:36.67	339.06	19.20	-46.9	-48.6	18.5	0.00e+00	0	43	0	1157627904	65	4381
2026-01-23 08:49:40.70	338.77	18.72	-46.1	-47.6	19.6	0.00e+00	0	43	0	1164967936	63	4342
2026-01-23 08:49:44.73	338.48	18.24	-45.4	-46.7	20.4	0.00e+00	0	43	0	1172307968	62	4169
2026-01-23 08:49:48.77	338.21	17.78	-45.1	-46.4	20.6	0.00e+00	0	43	0	1180696576	61	4266
2026-01-23 08:49:52.80	337.95	17.32	-45.4	-46.7	20.3	0.00e+00	0	43	0	1188036608	61	4414
2026-01-23 08:49:56.83	337.69	16.88	-46.2	-47.6	19.5	0.00e+00	0	42	0	1195376640	62	4649
2026-01-23 08:50:00.87	337.44	16.43	-46.4	-47.9	19.2	0.00e+00	0	43	0	1202716672	63	4533
2026-01-23 08:50:04.90	337.20	16.00	-46.4	-48.0	19.2	0.00e+00	0	43	0	1211105280	63	4581
2026-01-23 08:50:08.93	336.97	15.57	-46.4	-48.0	19.1	0.00e+00	0	43	0	1218445312	63	4554
2026-01-23 08:50:12.96	336.74	15.15	-46.6	-48.3	18.7	0.00e+00	0	43	0	1225785344	64	4467
2026-01-23 08:50:17.00	336.52	14.74	-47.4	-49.3	17.7	0.00e+00	0	43	0	1233125376	65	4725
2026-01-23 08:50:21.03	336.31	14.33	-47.2	-49.0	17.9	0.00e+00	0	43	0	1240465408	65	4590
2026-01-23 08:50:25.06	336.10	13.93	-47.2	-49.0	17.9	0.00e+00	0	43	0	1248854016	65	4587
2026-01-23 08:50:29.10	335.90	13.54	-46.6	-48.2	18.7	0.00e+00	0	43	0	1256194048	65	4172
2026-01-23 08:50:33.13	335.71	13.15	-46.1	-47.6	19.3	0.00e+00	0	43	0	1263534080	64	4115
2026-01-23 08:50:37.17	335.52	12.77	-46.0	-47.5	19.4	0.00e+00	0	43	0	1270874112	63	4316
2026-01-23 08:50:41.20	335.33	12.39	-46.1	-47.6	19.3	0.00e+00	0	43	0	1278214144	63	4391
2026-01-23 08:50:45.23	335.15	12.02	-46.5	-48.1	18.9	0.00e+00	0	43	0	1286602752	63	4620
2026-01-23 08:50:49.26	334.98	11.65	-46.8	-48.5	18.3	0.00e+00	0	43	0	1293942784	64	4576
2026-01-23 08:50:53.30	334.81	11.29	-46.9	-48.7	18.2	0.00e+00	0	42	0	1301282816	64	4665
2026-01-23 08:50:57.33	334.64	10.94	-46.9	-48.8	18.0	0.00e+00	0	43	0	1308622848	64	4716
2026-01-23 08:51:01.36	334.48	10.59	-46.9	-48.7	18.1	0.00e+00	0	43	0	1317011456	64	4703
2026-01-23 08:51:05.39	334.32	10.24	-47.0	-48.8	18.0	0.00e+00	0	43	0	1324351488	64	4756
2026-01-23 08:51:09.42	334.17	9.90	-47.0	-48.8	17.9	0.00e+00	0	43	0	1331691520	64	4742
2026-01-23 08:51:13.45	334.02	9.56	-47.2	-49.2	17.5	0.00e+00	0	43	0	1339031552	65	4677
2026-01-23 08:51:17.48	333.87	9.23	-47.4	-49.5	17.2	0.00e+00	0	43	0	1346371584	65	4821
2026-01-23 08:51:21.51	333.73	8.90	-47.5	-49.6	17.1	0.00e+00	0	43	0	1354760192	66	4636
2026-01-23 08:51:25.55	333.59	8.57	-48.1	-50.4	16.3	0.00e+00	0	43	0	1362100224	66	5062
2026-01-23 08:51:29.58	333.46	8.25	-48.1	-50.4	16.3	0.00e+00	0	43	0	1369440256	67	4799
2026-01-23 08:51:33.61	333.33	7.93	-48.3	-50.7	15.9	0.00e+00	0	43	0	1376780288	67	4978
2026-01-23 08:51:37.65	333.20	7.62	-48.3	-50.8	15.9	0.00e+00	0	43	0	1384120320	67	5011
2026-01-23 08:51:41.68	333.07	7.31	-48.4	-51.0	15.7	0.00e+00	0	43	0	1392508928	67	5108
2026-01-23 08:51:45.71	332.95	7.00	-48.5	-51.1	15.5	0.00e+00	0	43	0	1399848960	67	5189
2026-01-23 08:51:49.74	332.83	6.70	-48.4	-51.0	15.6	0.00e+00	0	43	0	1407188992	67	5130
2026-01-23 08:51:53.77	332.72	6.40	-48.6	-51.3	15.3	0.00e+00	0	43	0	1414529024	67	5287
2026-01-23 08:51:57.80	332.60	6.11	-48.8	-51.5	15.1	0.00e+00	0	43	0	1421869056	68	5159
2026-01-23 08:52:01.83	332.49	5.81	-48.7	-51.4	15.1	0.00e+00	0	43	0	1430257664	68	5100
2026-01-23 08:52:05.87	332.38	5.52	-48.6	-51.3	15.2	0.00e+00	0	43	0	1437597696	68	4989
2026-01-23 08:52:09.90	332.27	5.24	-48.6	-51.4	15.1	0.00e+00	0	43	0	1444937728	68	5074
2026-01-23 08:52:13.93	332.17	4.95	-52.6	-66.3	3.8	1.53e-01	0	43	104	1452277760	75	18796
2026-01-23 08:52:17.97	332.07	4.67	-53.6	-68.5	3.8	1.49e+00	0	43	104	1452277760	77	21750
2026-01-23 08:52:22.00	331.97	4.40	-53.7	-68.7	3.8	1.49e+00	0	43	104	1452277760	77	22146
2026-01-23 08:52:26.03	331.87	4.12	-53.5	-68.5	3.8	1.49e+00	0	43	104	1452277760	77	21628
2026-01-23 08:52:30.06	331.78	3.85	-53.7	-68.6	3.8	1.49e+00	0	43	104	1452277760	77	21982
2026-01-23 08:52:34.09	331.68	3.58	-53.8	-68.8	3.8	1.49e+00	0	43	104	1452277760	78	21103
2026-01-23 08:52:38.12	331.59	3.31	-53.7	-68.7	3.8	1.49e+00	0	43	104	1452277760	78	20873
2026-01-23 08:52:42.15	331.50	3.05	-53.7	-68.7	3.8	1.49e+00	0	43	104	1452277760	78	20924
2026-01-23 08:52:46.19	331.42	2.78	-53.7	-68.7	3.8	1.49e+00	0	43	104	1452277760	78	20866
2026-01-23 08:52:50.22	331.33	2.52	-53.7	-68.7	3.8	1.49e+00	0	43	104	1452277760	78	20844
2026-01-23 08:52:54.26	331.25	2.26	-53.7	-68.7	3.8	1.49e+00	0	43	104	1452277760	78	20820
2026-01-23 08:52:58.29	331.16	2.01	-53.7	-68.7	3.8	1.49e+00	0	43	104	1452277760	78	20823

#Closed at: 2026-01-23 08:52:59
#Recorded file [1452 MB]: D:/lorett/data/31041_260123_113847.dat