passes_logs/2026/01/23/R3.2S_Murmansk/R3.2S_Murmansk__20260123_111628_FENGYUN_3D_rec.log

#Pass ID: 20260123_111628_FENGYUN 3D
#Satellite: FENGYUN 3D
#Configuration: FENGYUN 3D
#almurnet v.1.7.20251203
#Start time: 2026-01-23 11:16:28

#Version: 2.2.20231116
#Station: R3.2S_Murmansk
#Location: 33.079688 lon 68.888172 lat
#TLE: 1 43010U 17072A   26022.47411728  .00000617  00000+0  31375-3 0  9996
#TLE: 2 43010  98.9952 354.4060 0002481  95.7964 264.3494 14.19699924424319

#Time	Az	El	Level	Level2	SNR	BER	BlckErr	Temp	State	Recorded	gain1	gain2
2026-01-23 11:16:28.90	144.30	2.02	-54.2	-66.2	3.8	8.46e-01	0	40	0	0	79	14822
2026-01-23 11:16:32.93	144.28	2.28	-54.3	-66.2	3.8	8.46e-01	0	40	104	0	79	14873
2026-01-23 11:16:36.96	144.26	2.54	-54.5	-66.5	3.8	8.47e-01	0	41	104	0	79	15300
2026-01-23 11:16:40.99	144.24	2.81	-54.4	-66.4	3.8	8.46e-01	0	41	104	0	79	15185
2026-01-23 11:16:45.03	144.22	3.08	-54.3	-66.3	3.8	8.47e-01	0	41	104	0	79	14940
2026-01-23 11:16:49.06	144.20	3.35	-54.0	-66.0	3.8	8.46e-01	0	41	104	0	79	14443
2026-01-23 11:16:53.09	144.18	3.62	-53.5	-65.5	3.8	8.47e-01	0	41	104	0	79	13585
2026-01-23 11:16:57.12	144.16	3.90	-52.3	-63.2	3.8	8.46e-01	0	41	104	0	76	12435
2026-01-23 11:17:01.16	144.13	4.18	-50.1	-54.0	9.0	5.44e-02	0	41	0	9437184	72	5422
2026-01-23 11:17:05.19	144.11	4.46	-46.3	-48.1	15.2	0.00e+00	0	41	0	31457280	64	4342
2026-01-23 11:17:09.22	144.09	4.74	-44.1	-45.3	18.2	0.00e+00	0	41	0	54525952	59	4241
2026-01-23 11:17:13.26	144.06	5.03	-44.1	-45.3	18.3	0.00e+00	0	42	0	76546048	58	4481
2026-01-23 11:17:17.29	144.04	5.32	-44.7	-46.0	17.3	0.00e+00	0	42	0	99614720	61	4087
2026-01-23 11:17:21.32	144.01	5.61	-44.2	-45.4	18.2	0.00e+00	0	42	0	122683392	59	4281
2026-01-23 11:17:25.36	143.98	5.91	-43.7	-44.9	18.8	0.00e+00	0	42	0	144703488	59	4021
2026-01-23 11:17:29.39	143.96	6.21	-43.2	-44.3	19.5	0.00e+00	0	42	0	167772160	58	3970
2026-01-23 11:17:33.43	143.93	6.52	-43.0	-44.0	19.8	0.00e+00	0	42	0	190840832	57	4098
2026-01-23 11:17:37.46	143.90	6.82	-43.0	-44.1	19.9	0.00e+00	0	42	0	212860928	57	4103
2026-01-23 11:17:41.49	143.87	7.13	-42.8	-43.8	20.1	0.00e+00	0	42	0	235929600	57	3979
2026-01-23 11:17:45.52	143.84	7.45	-42.6	-43.6	20.3	0.00e+00	0	42	0	258998272	57	3913
2026-01-23 11:17:49.56	143.80	7.77	-42.6	-43.6	20.4	0.00e+00	0	42	0	281018368	57	3896
2026-01-23 11:17:53.59	143.77	8.09	-42.4	-43.4	20.6	0.00e+00	0	42	0	304087040	56	4039
2026-01-23 11:17:57.63	143.73	8.42	-42.3	-43.3	20.7	0.00e+00	0	42	0	327155712	56	3979
2026-01-23 11:18:01.66	143.70	8.75	-42.4	-43.3	20.8	0.00e+00	0	42	0	349175808	56	3996
2026-01-23 11:18:05.69	143.66	9.09	-42.2	-43.2	20.9	0.00e+00	0	42	0	372244480	56	3915
2026-01-23 11:18:09.73	143.62	9.43	-42.0	-43.0	21.1	0.00e+00	0	42	0	395313152	56	3836
2026-01-23 11:18:13.76	143.58	9.78	-42.0	-43.0	21.1	0.00e+00	0	42	0	417333248	56	3828
2026-01-23 11:18:17.80	143.54	10.13	-41.7	-42.6	21.4	0.00e+00	0	42	0	440401920	55	3906
2026-01-23 11:18:21.83	143.50	10.48	-41.7	-42.6	21.5	0.00e+00	0	42	0	462422016	55	3887
2026-01-23 11:18:25.86	143.46	10.84	-41.6	-42.5	21.6	0.00e+00	0	42	0	485490688	55	3838
2026-01-23 11:18:29.90	143.41	11.21	-41.5	-42.4	21.7	0.00e+00	0	42	0	508559360	55	3817
2026-01-23 11:18:33.94	143.37	11.58	-41.4	-42.3	21.7	0.00e+00	0	42	0	530579456	54	3996
2026-01-23 11:18:37.97	143.32	11.96	-41.5	-42.4	21.7	0.00e+00	0	42	0	553648128	54	4018
2026-01-23 11:18:42.00	143.27	12.34	-41.4	-42.3	21.8	0.00e+00	0	42	0	576716800	54	3982
2026-01-23 11:18:46.03	143.22	12.73	-41.2	-42.1	22.0	0.00e+00	0	42	0	598736896	54	3903
2026-01-23 11:18:50.07	143.17	13.13	-41.3	-42.2	21.9	0.00e+00	0	42	0	621805568	54	3935
2026-01-23 11:18:54.11	143.11	13.53	-41.2	-42.1	22.0	0.00e+00	0	42	0	644874240	54	3878
2026-01-23 11:18:58.14	143.06	13.94	-41.3	-42.2	21.9	0.00e+00	0	42	0	666894336	54	3942
2026-01-23 11:19:02.17	143.00	14.35	-41.0	-41.9	22.2	0.00e+00	0	42	0	689963008	54	3814
2026-01-23 11:19:06.21	142.94	14.78	-41.0	-41.9	22.2	0.00e+00	0	42	0	713031680	53	4025
2026-01-23 11:19:10.25	142.87	15.21	-40.8	-41.7	22.4	0.00e+00	0	42	0	735051776	53	3940
2026-01-23 11:19:14.28	142.81	15.65	-40.6	-41.4	22.7	0.00e+00	0	42	0	758120448	53	3806
2026-01-23 11:19:18.32	142.74	16.09	-40.2	-41.0	23.0	0.00e+00	0	42	0	781189120	52	3867
2026-01-23 11:19:22.35	142.67	16.55	-40.1	-40.9	23.1	0.00e+00	0	42	0	803209216	52	3819
2026-01-23 11:19:26.39	142.60	17.01	-40.0	-40.8	23.4	0.00e+00	0	42	0	825229312	51	3960
2026-01-23 11:19:30.43	142.52	17.48	-39.9	-40.6	23.5	0.00e+00	0	42	0	848297984	51	3911
2026-01-23 11:19:34.46	142.45	17.97	-39.8	-40.6	23.5	0.00e+00	0	42	0	871366656	51	3892
2026-01-23 11:19:38.49	142.37	18.46	-39.7	-40.5	23.6	0.00e+00	0	42	0	893386752	51	3830
2026-01-23 11:19:42.52	142.28	18.96	-39.7	-40.5	23.6	0.00e+00	0	42	0	916455424	51	3857
2026-01-23 11:19:46.55	142.19	19.47	-39.7	-40.5	23.7	0.00e+00	0	42	0	939524096	51	3826
2026-01-23 11:19:50.58	142.10	19.99	-39.6	-40.3	23.8	0.00e+00	0	42	0	961544192	51	3779
2026-01-23 11:19:54.62	142.01	20.52	-39.6	-40.3	23.8	0.00e+00	0	42	0	984612864	50	4001
2026-01-23 11:19:58.64	141.91	21.06	-39.3	-40.0	24.1	0.00e+00	0	42	0	1007681536	50	3858
2026-01-23 11:20:02.67	141.81	21.62	-39.2	-40.0	24.1	0.00e+00	0	42	0	1029701632	50	3848
2026-01-23 11:20:06.70	141.70	22.19	-38.8	-39.5	24.5	0.00e+00	0	42	0	1052770304	49	3857
2026-01-23 11:20:10.73	141.59	22.77	-38.6	-39.4	24.7	0.00e+00	0	42	0	1075838976	49	3786
2026-01-23 11:20:14.76	141.48	23.36	-38.6	-39.4	24.7	0.00e+00	0	42	0	1097859072	49	3785
2026-01-23 11:20:18.80	141.35	23.97	-38.8	-39.6	24.5	0.00e+00	0	42	0	1120927744	49	3876
2026-01-23 11:20:22.83	141.23	24.59	-39.0	-39.8	24.4	0.00e+00	0	42	0	1143996416	49	3966
2026-01-23 11:20:26.87	141.10	25.23	-39.0	-39.8	24.4	0.00e+00	0	42	0	1166016512	49	3960
2026-01-23 11:20:30.90	140.96	25.88	-38.6	-39.4	24.7	0.00e+00	0	42	0	1189085184	49	3794
2026-01-23 11:20:34.93	140.81	26.55	-38.6	-39.3	24.8	0.00e+00	0	42	0	1212153856	49	3758
2026-01-23 11:20:38.97	140.66	27.24	-38.6	-39.3	24.8	0.00e+00	0	42	0	1234173952	49	3774
2026-01-23 11:20:43.00	140.50	27.94	-38.4	-39.2	24.9	0.00e+00	0	43	0	1257242624	48	3919
2026-01-23 11:20:47.03	140.34	28.66	-38.3	-39.0	25.1	0.00e+00	0	42	0	1279262720	48	3846
2026-01-23 11:20:51.06	140.16	29.40	-38.1	-38.8	25.2	0.00e+00	0	42	0	1302331392	48	3748
2026-01-23 11:20:55.09	139.98	30.16	-38.1	-38.9	25.2	0.00e+00	0	42	0	1324351488	48	3781
2026-01-23 11:20:59.12	139.78	30.94	-38.0	-38.8	25.2	0.00e+00	0	43	0	1347420160	48	3759
2026-01-23 11:21:03.16	139.58	31.74	-37.5	-38.2	25.2	0.00e+00	0	43	0	1370488832	46	3936
2026-01-23 11:21:07.19	139.36	32.57	-37.3	-38.1	25.3	0.00e+00	0	43	0	1392508928	46	3882
2026-01-23 11:21:11.22	139.14	33.41	-37.4	-38.2	25.2	0.00e+00	0	42	0	1415577600	46	3922
2026-01-23 11:21:15.25	138.90	34.28	-37.4	-38.1	25.4	0.00e+00	0	42	0	1438646272	46	3893
2026-01-23 11:21:19.29	138.64	35.17	-36.9	-37.6	25.8	0.00e+00	0	42	0	1460666368	45	3899
2026-01-23 11:21:23.32	138.37	36.09	-37.3	-38.0	25.9	0.00e+00	0	42	0	1483735040	45	4075
2026-01-23 11:21:27.35	138.09	37.04	-37.3	-37.9	25.9	0.00e+00	0	42	0	1506803712	45	4048
2026-01-23 11:21:31.38	137.78	38.01	-37.5	-38.1	25.8	0.00e+00	0	42	0	1528823808	45	4143
2026-01-23 11:21:35.42	137.46	39.01	-37.8	-38.5	25.4	0.00e+00	0	43	0	1551892480	46	4098
2026-01-23 11:21:39.45	137.11	40.04	-37.9	-38.6	25.4	0.00e+00	0	42	0	1574961152	46	4127
2026-01-23 11:21:43.48	136.74	41.09	-38.1	-38.8	25.2	0.00e+00	0	42	0	1596981248	46	4219
2026-01-23 11:21:47.51	136.34	42.18	-38.2	-38.9	25.1	0.00e+00	0	42	0	1620049920	46	4261
2026-01-23 11:21:51.54	135.92	43.30	-37.8	-38.5	25.5	0.00e+00	0	43	0	1642070016	47	3858
2026-01-23 11:21:55.58	135.46	44.45	-37.7	-38.4	25.6	0.00e+00	0	42	0	1665138688	47	3819
2026-01-23 11:21:59.60	134.97	45.63	-38.1	-38.8	25.2	0.00e+00	0	43	0	1688207360	47	3984
2026-01-23 11:22:03.64	134.43	46.85	-38.3	-39.0	25.0	0.00e+00	0	43	0	1710227456	47	4098
2026-01-23 11:22:07.67	133.86	48.09	-38.2	-38.9	25.2	0.00e+00	0	42	0	1733296128	47	4015
2026-01-23 11:22:11.70	133.23	49.38	-38.6	-39.3	24.8	0.00e+00	0	42	0	1756364800	47	4224
2026-01-23 11:22:15.73	132.54	50.69	-38.9	-39.6	25.1	0.00e+00	0	42	0	1778384896	48	4123
2026-01-23 11:22:19.76	131.79	52.04	-39.4	-40.1	24.7	0.00e+00	0	42	0	1801453568	49	4124
2026-01-23 11:22:23.79	130.97	53.42	-39.6	-40.3	24.5	0.00e+00	0	42	0	1824522240	49	4216
2026-01-23 11:22:27.83	130.06	54.83	-39.6	-40.4	24.5	0.00e+00	0	42	0	1846542336	49	4245
2026-01-23 11:22:31.86	129.05	56.28	-39.5	-40.2	24.7	0.00e+00	0	43	0	1869611008	50	3925
2026-01-23 11:22:35.89	127.94	57.75	-38.5	-39.2	25.5	0.00e+00	0	43	0	1891631104	48	3931
2026-01-23 11:22:39.92	126.69	59.25	-38.8	-39.4	25.3	0.00e+00	0	43	0	1914699776	48	4047
2026-01-23 11:22:43.95	125.28	60.77	-38.5	-39.1	25.6	0.00e+00	0	43	0	1937768448	48	3909
2026-01-23 11:22:47.99	123.69	62.31	-38.5	-39.2	25.6	0.00e+00	0	43	0	1959788544	48	3921
2026-01-23 11:22:52.02	121.88	63.86	-38.1	-38.8	25.9	0.00e+00	0	43	0	1982857216	48	3753
2026-01-23 11:22:56.05	119.82	65.42	-37.6	-38.3	25.8	0.00e+00	0	42	0	2004877312	45	4223
2026-01-23 11:23:00.08	117.44	66.98	-37.3	-38.0	26.0	0.00e+00	0	42	0	2027945984	45	4073
2026-01-23 11:23:04.11	114.68	68.52	-36.9	-37.6	26.4	0.00e+00	0	43	0	2051014656	45	3881
2026-01-23 11:23:08.15	111.44	70.04	-36.7	-37.4	26.6	0.00e+00	0	42	0	2073034752	45	3810
2026-01-23 11:23:12.18	107.66	71.51	-37.0	-37.7	26.3	0.00e+00	0	43	0	2096103424	45	3931
2026-01-23 11:23:16.21	103.19	72.90	-37.1	-37.8	26.2	0.00e+00	0	43	0	2119172096	45	3990
2026-01-23 11:23:20.24	97.92	74.20	-36.6	-37.3	26.7	0.00e+00	0	43	0	2141192192	45	3748
2026-01-23 11:23:24.28	91.70	75.36	-36.2	-36.8	27.0	0.00e+00	0	42	0	2164260864	44	3764
2026-01-23 11:23:28.31	84.49	76.32	-35.7	-36.3	27.4	0.00e+00	0	43	0	2187329536	43	3765
2026-01-23 11:23:32.35	76.27	77.06	-35.6	-36.2	27.5	0.00e+00	0	42	0	2209349632	43	3730
2026-01-23 11:23:36.38	67.27	77.50	-35.6	-36.3	27.4	0.00e+00	0	42	0	2232418304	42	3965
2026-01-23 11:23:40.42	57.81	77.63	-35.2	-35.9	27.7	0.00e+00	0	42	0	2255486976	42	3791
2026-01-23 11:23:44.45	48.43	77.43	-35.3	-35.9	27.6	0.00e+00	0	42	0	2277507072	42	3811
2026-01-23 11:23:48.48	39.58	76.92	-35.3	-36.0	27.7	0.00e+00	0	43	0	2300575744	42	3831
2026-01-23 11:23:52.52	31.58	76.12	-35.4	-36.1	27.6	0.00e+00	0	43	0	2323644416	42	3881
2026-01-23 11:23:56.55	24.60	75.11	-35.8	-36.4	27.3	0.00e+00	0	43	0	2345664512	42	4037
2026-01-23 11:24:00.58	18.62	73.92	-36.3	-36.9	26.9	0.00e+00	0	42	0	2367684608	43	4046
2026-01-23 11:24:04.62	13.53	72.60	-36.5	-37.2	26.7	0.00e+00	0	42	0	2390753280	43	4171
2026-01-23 11:24:08.65	9.23	71.19	-36.4	-37.0	26.8	0.00e+00	0	43	0	2413821952	43	4087
2026-01-23 11:24:12.69	5.57	69.71	-36.8	-37.5	26.5	0.00e+00	0	42	0	2435842048	44	4081
2026-01-23 11:24:16.72	2.46	68.19	-36.7	-37.4	26.6	0.00e+00	0	43	0	2458910720	44	4028
2026-01-23 11:24:20.75	359.79	66.64	-36.8	-37.5	26.5	0.00e+00	0	43	0	2481979392	45	3829
2026-01-23 11:24:24.79	357.48	65.08	-37.2	-37.8	26.2	0.00e+00	0	43	0	2503999488	45	4001
2026-01-23 11:24:28.82	355.48	63.53	-37.2	-37.9	26.2	0.00e+00	0	43	0	2527068160	45	4024
2026-01-23 11:24:32.86	353.73	61.98	-36.9	-37.5	26.5	0.00e+00	0	42	0	2550136832	45	3864
2026-01-23 11:24:36.89	352.19	60.44	-37.8	-38.6	25.6	0.00e+00	0	43	0	2572156928	46	4099
2026-01-23 11:24:40.92	350.82	58.93	-38.2	-38.9	25.4	0.00e+00	0	43	0	2595225600	47	4021
2026-01-23 11:24:44.96	349.60	57.44	-38.1	-38.8	25.4	0.00e+00	0	43	0	2618294272	47	3984
2026-01-23 11:24:49.00	348.51	55.97	-39.4	-40.2	24.8	0.00e+00	0	42	0	2641362944	49	4149
2026-01-23 11:24:53.03	347.53	54.54	-39.4	-40.1	24.8	0.00e+00	0	43	0	2663383040	49	4111
2026-01-23 11:24:57.06	346.64	53.14	-38.9	-39.6	25.2	0.00e+00	0	42	0	2686451712	49	3906
2026-01-23 11:25:01.09	345.84	51.77	-38.5	-39.2	25.6	0.00e+00	0	42	0	2708471808	48	3916
2026-01-23 11:25:05.13	345.10	50.43	-38.4	-39.1	25.6	0.00e+00	0	43	0	2731540480	48	3911
2026-01-23 11:25:09.16	344.43	49.12	-37.7	-38.4	25.8	0.00e+00	0	42	0	2753560576	47	3785
2026-01-23 11:25:13.19	343.81	47.85	-37.8	-38.5	25.6	0.00e+00	0	42	0	2776629248	47	3849
2026-01-23 11:25:17.23	343.25	46.61	-37.9	-38.6	25.5	0.00e+00	0	43	0	2799697920	47	3903
2026-01-23 11:25:21.26	342.72	45.41	-37.4	-38.1	26.0	0.00e+00	0	42	0	2821718016	46	3904
2026-01-23 11:25:25.28	342.24	44.24	-37.5	-38.2	25.9	0.00e+00	0	42	0	2844786688	46	3945
2026-01-23 11:25:29.31	341.79	43.10	-37.7	-38.4	25.7	0.00e+00	0	43	0	2867855360	46	4035
2026-01-23 11:25:33.35	341.37	41.99	-37.7	-38.3	25.7	0.00e+00	0	43	0	2889875456	46	3998
2026-01-23 11:25:37.38	340.99	40.91	-37.3	-38.0	26.1	0.00e+00	0	42	0	2912944128	46	3832
2026-01-23 11:25:41.41	340.62	39.86	-36.9	-37.6	26.4	0.00e+00	0	42	0	2936012800	45	3875
2026-01-23 11:25:45.45	340.28	38.84	-37.0	-37.7	26.3	0.00e+00	0	43	0	2958032896	45	3929
2026-01-23 11:25:49.48	339.96	37.85	-37.1	-37.8	26.2	0.00e+00	0	43	0	2981101568	45	3959
2026-01-23 11:25:53.51	339.66	36.89	-37.0	-37.7	26.2	0.00e+00	0	43	0	3004170240	45	3944
2026-01-23 11:25:57.55	339.38	35.95	-37.1	-37.8	26.1	0.00e+00	0	42	0	3026190336	45	3988
2026-01-23 11:26:01.58	339.12	35.04	-37.5	-38.2	25.8	0.00e+00	0	43	0	3049259008	45	4150
2026-01-23 11:26:05.62	338.87	34.15	-37.5	-38.2	25.8	0.00e+00	0	42	0	3072327680	45	4151
2026-01-23 11:26:09.65	338.63	33.29	-37.5	-38.2	25.7	0.00e+00	0	42	0	3094347776	45	4173
2026-01-23 11:26:13.67	338.41	32.46	-37.6	-38.3	25.7	0.00e+00	0	43	0	3116367872	45	4201
2026-01-23 11:26:17.71	338.20	31.64	-37.6	-38.3	25.7	0.00e+00	0	42	0	3139436544	46	3979
2026-01-23 11:26:21.74	338.00	30.85	-37.8	-38.5	25.5	0.00e+00	0	43	0	3162505216	46	4067
2026-01-23 11:26:25.77	337.81	30.07	-37.5	-38.2	25.8	0.00e+00	0	43	0	3184525312	46	3927
2026-01-23 11:26:29.80	337.62	29.32	-37.4	-38.1	25.8	0.00e+00	0	43	0	3207593984	46	3901
2026-01-23 11:26:33.83	337.45	28.59	-37.7	-38.4	25.5	0.00e+00	0	43	0	3230662656	46	4031
2026-01-23 11:26:37.86	337.29	27.87	-37.9	-38.6	25.3	0.00e+00	0	42	0	3252682752	46	4128
2026-01-23 11:26:41.89	337.13	27.17	-37.7	-38.4	25.5	0.00e+00	0	43	0	3275751424	46	4034
2026-01-23 11:26:45.92	336.99	26.49	-37.8	-38.5	25.4	0.00e+00	0	43	0	3298820096	46	4069
2026-01-23 11:26:49.96	336.84	25.83	-37.8	-38.5	25.4	0.00e+00	0	43	0	3320840192	46	4088
2026-01-23 11:26:53.99	336.71	25.18	-37.8	-38.4	25.4	0.00e+00	0	42	0	3343908864	46	4049
2026-01-23 11:26:58.03	336.58	24.55	-37.9	-38.6	25.3	0.00e+00	0	42	0	3366977536	46	4123
2026-01-23 11:27:02.06	336.45	23.93	-38.1	-38.8	25.1	0.00e+00	0	43	0	3388997632	46	4240
2026-01-23 11:27:06.09	336.34	23.33	-38.0	-38.8	25.1	0.00e+00	0	43	0	3412066304	46	4195
2026-01-23 11:27:10.12	336.22	22.74	-38.2	-39.0	24.9	0.00e+00	0	43	0	3435134976	47	4052
2026-01-23 11:27:14.16	336.11	22.16	-38.2	-39.0	24.9	0.00e+00	0	43	0	3457155072	47	4057
2026-01-23 11:27:18.19	336.01	21.59	-38.4	-39.1	24.7	0.00e+00	0	43	0	3480223744	47	4140
2026-01-23 11:27:22.23	335.91	21.04	-38.5	-39.3	24.6	0.00e+00	0	43	0	3502243840	47	4206
2026-01-23 11:27:26.26	335.82	20.50	-38.6	-39.4	24.5	0.00e+00	0	42	0	3525312512	47	4253
2026-01-23 11:27:30.29	335.72	19.97	-39.1	-39.8	24.5	0.00e+00	0	43	0	3548381184	48	4241
2026-01-23 11:27:34.33	335.64	19.45	-39.2	-39.9	24.5	0.00e+00	0	42	0	3570401280	49	4042
2026-01-23 11:27:38.36	335.55	18.95	-39.3	-40.0	24.4	0.00e+00	0	43	0	3593469952	49	4092
2026-01-23 11:27:42.39	335.47	18.45	-39.4	-40.1	24.3	0.00e+00	0	43	0	3616538624	49	4138
2026-01-23 11:27:46.43	335.39	17.96	-39.6	-40.4	24.0	0.00e+00	0	42	0	3638558720	49	4250
2026-01-23 11:27:50.47	335.31	17.48	-39.8	-40.6	23.9	0.00e+00	0	42	0	3661627392	50	4099
2026-01-23 11:27:54.50	335.24	17.01	-39.9	-40.6	23.8	0.00e+00	0	43	0	3684696064	50	4129
2026-01-23 11:27:58.53	335.17	16.55	-39.9	-40.7	23.8	0.00e+00	0	43	0	3706716160	50	4156
2026-01-23 11:28:02.57	335.11	16.10	-40.0	-40.7	23.6	0.00e+00	0	43	0	3729784832	50	4190
2026-01-23 11:28:06.60	335.04	15.66	-40.3	-41.0	23.4	0.00e+00	0	43	0	3752853504	51	4098
2026-01-23 11:28:10.64	334.98	15.22	-40.4	-41.1	23.2	0.00e+00	0	43	0	3774873600	51	4142
2026-01-23 11:28:14.66	334.92	14.79	-40.6	-41.3	23.1	0.00e+00	0	42	0	3797942272	51	4237
2026-01-23 11:28:18.70	334.86	14.37	-40.6	-41.4	23.0	0.00e+00	0	43	0	3821010944	51	4248
2026-01-23 11:28:22.73	334.80	13.96	-40.7	-41.5	22.8	0.00e+00	0	43	0	3843031040	52	4055
2026-01-23 11:28:26.77	334.75	13.55	-40.7	-41.5	22.7	0.00e+00	0	42	0	3865051136	52	4093
2026-01-23 11:28:30.80	334.70	13.15	-41.1	-41.9	22.3	0.00e+00	0	42	0	3888119808	52	4280
2026-01-23 11:28:34.83	334.65	12.76	-41.2	-42.0	22.3	0.00e+00	0	43	0	3911188480	53	4074
2026-01-23 11:28:38.87	334.60	12.37	-41.3	-42.1	22.1	0.00e+00	0	42	0	3933208576	53	4123
2026-01-23 11:28:42.90	334.55	11.99	-41.1	-42.0	22.3	0.00e+00	0	42	0	3956277248	53	4052
2026-01-23 11:28:46.94	334.51	11.61	-41.2	-42.0	22.2	0.00e+00	0	43	0	3979345920	53	4095
2026-01-23 11:28:50.97	334.46	11.25	-41.4	-42.2	22.0	0.00e+00	0	43	0	4001366016	53	4180
2026-01-23 11:28:55.00	334.42	10.88	-41.5	-42.3	21.8	0.00e+00	0	43	0	4024434688	53	4227
2026-01-23 11:28:59.03	334.38	10.52	-41.4	-42.3	21.9	0.00e+00	0	43	0	4047503360	53	4200
2026-01-23 11:29:03.06	334.34	10.17	-41.8	-42.6	21.5	0.00e+00	0	43	0	4069523456	54	4139
2026-01-23 11:29:07.09	334.30	9.82	-41.7	-42.5	21.6	0.00e+00	0	43	0	4092592128	54	4092
2026-01-23 11:29:11.12	334.27	9.48	-41.8	-42.7	21.4	0.00e+00	0	42	0	4115660800	54	4160
2026-01-23 11:29:15.15	334.23	9.14	-41.6	-42.5	21.5	0.00e+00	0	42	0	4137680896	54	4090
2026-01-23 11:29:19.19	334.20	8.80	-41.9	-42.8	21.2	0.00e+00	0	43	0	4160749568	54	4242
2026-01-23 11:29:23.22	334.17	8.47	-41.9	-42.8	21.2	0.00e+00	0	43	0	4183818240	55	3991
2026-01-23 11:29:27.25	334.13	8.15	-42.1	-43.0	21.0	0.00e+00	0	43	0	4205838336	55	4092
2026-01-23 11:29:31.29	334.10	7.82	-42.1	-43.0	20.9	0.00e+00	0	43	0	4227858432	55	4086
2026-01-23 11:29:35.32	334.07	7.51	-42.3	-43.2	20.7	0.00e+00	0	43	0	4250927104	55	4181
2026-01-23 11:29:39.35	334.04	7.19	-42.2	-43.1	20.8	0.00e+00	0	42	0	4273995776	55	4132
2026-01-23 11:29:43.38	334.02	6.88	-42.9	-43.9	20.1	0.00e+00	0	43	0	4296015872	56	4259
2026-01-23 11:29:47.41	333.99	6.58	-42.7	-43.7	20.2	0.00e+00	0	43	0	4319084544	56	4170
2026-01-23 11:29:51.45	333.96	6.27	-42.6	-43.6	20.3	0.00e+00	0	43	0	4342153216	56	4109
2026-01-23 11:29:55.48	333.94	5.97	-43.5	-44.6	19.3	0.00e+00	0	43	0	4364173312	57	4352
2026-01-23 11:29:59.52	333.91	5.68	-42.9	-43.9	20.0	0.00e+00	0	43	0	4387241984	57	4014
2026-01-23 11:30:03.55	333.89	5.38	-43.3	-44.4	19.4	0.00e+00	0	43	0	4410310656	57	4246
2026-01-23 11:30:07.59	333.87	5.09	-43.8	-45.0	18.6	0.00e+00	0	42	0	4432330752	58	4314
2026-01-23 11:30:11.62	333.85	4.81	-53.3	-65.3	3.8	8.45e-01	0	43	104	4438622208	77	14956
2026-01-23 11:30:15.65	333.83	4.52	-53.6	-65.6	3.8	8.47e-01	0	43	104	4438622208	77	15496
2026-01-23 11:30:19.68	333.81	4.24	-53.5	-65.4	3.8	8.47e-01	0	42	104	4438622208	77	15171
2026-01-23 11:30:23.71	333.79	3.97	-53.4	-65.4	3.8	8.47e-01	0	43	104	4438622208	77	15096
2026-01-23 11:30:27.75	333.77	3.69	-53.6	-65.5	3.8	8.46e-01	0	43	104	4438622208	77	15312
2026-01-23 11:30:31.78	333.75	3.42	-53.5	-65.5	3.8	8.46e-01	0	43	104	4438622208	77	15259
2026-01-23 11:30:35.81	333.73	3.15	-53.5	-65.4	3.8	8.47e-01	0	43	104	4438622208	77	15204
2026-01-23 11:30:39.85	333.72	2.88	-53.5	-65.4	3.8	8.46e-01	0	43	104	4438622208	77	15176
2026-01-23 11:30:43.88	333.70	2.62	-53.5	-65.4	3.8	8.46e-01	0	43	104	4438622208	77	15209
2026-01-23 11:30:47.91	333.68	2.36	-53.4	-65.4	3.8	8.46e-01	0	42	104	4438622208	77	15179
2026-01-23 11:30:51.95	333.67	2.10	-53.4	-65.4	3.8	8.45e-01	0	43	104	4438622208	77	15163

#Closed at: 2026-01-23 11:30:55
#Recorded file [4438 MB]: D:/lorett/data/31041_260123_141628.dat