passes_logs/2026/01/23/R3.2S_Murmansk/R3.2S_Murmansk__20260123_103505_AQUA_rec.log

#Pass ID: 20260123_103505_AQUA
#Satellite: AQUA
#Configuration: AQUA
#almurnet v.1.7.20251203
#Start time: 2026-01-23 10:35:06

#Version: 2.2.20231116
#Station: R3.2S_Murmansk
#Location: 33.079688 lon 68.888172 lat
#TLE: 1 27424U 02022A   26022.49486490  .00002153  00000+0  44069-3 0  9997
#TLE: 2 27424  98.4099 349.0485 0001970  69.5876  43.4746 14.61847233261984

#Time	Az	El	Level	Level2	SNR	BER	BlckErr	Temp	State	Recorded	gain1	gain2
2026-01-23 10:35:06.84	134.59	2.12	-55.8	-73.6	3.8	7.42e-01	0	42	0	0	82	29256
2026-01-23 10:35:10.87	134.50	2.39	-56.0	-73.8	3.8	7.43e-01	0	42	104	0	82	30019
2026-01-23 10:35:14.91	134.42	2.66	-56.0	-73.8	3.8	7.45e-01	0	42	104	0	82	29912
2026-01-23 10:35:18.94	134.33	2.93	-55.8	-73.6	3.8	7.45e-01	0	42	104	0	82	29314
2026-01-23 10:35:22.97	134.24	3.21	-55.6	-73.4	3.8	7.46e-01	0	42	104	0	82	28510
2026-01-23 10:35:27.00	134.15	3.49	-55.1	-71.6	3.8	7.44e-01	0	42	104	0	81	24688
2026-01-23 10:35:31.04	134.05	3.78	-54.2	-72.0	3.8	7.42e-01	0	42	104	0	80	27168
2026-01-23 10:35:35.07	133.96	4.06	-53.8	-68.3	4.1	7.35e-01	0	42	104	0	79	18946
2026-01-23 10:35:39.10	133.86	4.35	-51.9	-56.8	13.7	6.09e-01	0	42	0	4718592	75	6291
2026-01-23 10:35:43.14	133.75	4.65	-48.0	-50.0	20.7	6.06e-01	0	42	0	12582912	67	4559
2026-01-23 10:35:47.17	133.65	4.94	-46.2	-47.8	22.9	6.05e-01	0	42	0	19922944	64	4197
2026-01-23 10:35:51.20	133.54	5.24	-50.7	-54.4	15.9	6.08e-01	0	42	0	27787264	72	5686
2026-01-23 10:35:55.23	133.43	5.55	-46.2	-47.7	23.2	6.05e-01	0	42	0	35127296	63	4418
2026-01-23 10:35:59.27	133.32	5.86	-45.7	-47.2	23.8	6.06e-01	0	42	0	42991616	63	4156
2026-01-23 10:36:03.30	133.21	6.17	-45.9	-47.4	23.6	6.05e-01	0	42	0	50331648	63	4264
2026-01-23 10:36:07.33	133.09	6.48	-46.3	-47.8	23.3	6.08e-01	0	42	0	57671680	63	4463
2026-01-23 10:36:11.36	132.97	6.80	-46.1	-47.6	23.6	6.05e-01	0	42	0	65536000	63	4354
2026-01-23 10:36:15.39	132.84	7.13	-45.9	-47.4	23.8	6.05e-01	0	42	0	72876032	63	4258
2026-01-23 10:36:19.42	132.71	7.46	-45.6	-47.0	24.2	6.06e-01	0	42	0	80216064	63	4084
2026-01-23 10:36:23.46	132.58	7.79	-45.6	-47.0	24.3	6.07e-01	0	42	0	88080384	63	4053
2026-01-23 10:36:27.49	132.44	8.13	-45.6	-47.0	24.3	6.07e-01	0	42	0	95420416	63	4077
2026-01-23 10:36:31.52	132.30	8.48	-45.6	-47.0	24.3	6.04e-01	0	42	0	103284736	63	4053
2026-01-23 10:36:35.55	132.16	8.82	-45.4	-46.7	24.6	6.07e-01	0	42	0	110624768	62	4183
2026-01-23 10:36:39.58	132.01	9.18	-45.3	-46.7	24.7	6.04e-01	0	42	0	118489088	62	4147
2026-01-23 10:36:43.61	131.86	9.54	-45.3	-46.6	24.7	6.03e-01	0	42	0	125829120	62	4135
2026-01-23 10:36:47.64	131.71	9.90	-45.0	-46.3	25.0	6.07e-01	0	42	0	133693440	62	3994
2026-01-23 10:36:51.68	131.54	10.28	-45.1	-46.4	24.9	6.07e-01	0	42	0	141033472	61	4276
2026-01-23 10:36:55.71	131.38	10.65	-44.8	-46.0	25.4	6.08e-01	0	42	0	148373504	61	4082
2026-01-23 10:36:59.74	131.21	11.04	-44.6	-45.8	25.6	6.06e-01	0	42	0	156237824	61	3976
2026-01-23 10:37:03.77	131.03	11.43	-44.6	-45.8	25.6	6.06e-01	0	42	0	163577856	60	4203
2026-01-23 10:37:07.80	130.85	11.82	-44.4	-45.6	25.8	6.07e-01	0	42	0	171442176	60	4113
2026-01-23 10:37:11.83	130.66	12.23	-44.3	-45.4	26.0	6.04e-01	0	42	0	178782208	60	4050
2026-01-23 10:37:15.86	130.47	12.64	-44.1	-45.3	26.1	6.04e-01	0	42	0	186646528	60	3986
2026-01-23 10:37:19.89	130.27	13.06	-44.1	-45.3	26.1	6.06e-01	0	42	0	193986560	60	3981
2026-01-23 10:37:23.92	130.06	13.48	-44.2	-45.4	26.0	6.07e-01	0	42	0	201326592	60	4016
2026-01-23 10:37:27.95	129.85	13.92	-44.1	-45.3	26.1	6.05e-01	0	42	0	209190912	60	3981
2026-01-23 10:37:31.99	129.63	14.36	-44.3	-45.4	26.1	6.05e-01	0	42	0	216530944	60	4037
2026-01-23 10:37:36.02	129.40	14.81	-44.2	-45.3	26.2	6.07e-01	0	42	0	223870976	60	3997
2026-01-23 10:37:40.05	129.16	15.27	-44.2	-45.4	26.2	6.04e-01	0	42	0	231735296	60	4007
2026-01-23 10:37:44.08	128.92	15.74	-44.1	-45.2	26.2	6.05e-01	0	42	0	239075328	59	4169
2026-01-23 10:37:48.11	128.66	16.22	-44.0	-45.1	26.3	6.06e-01	0	42	0	246939648	59	4140
2026-01-23 10:37:52.15	128.40	16.71	-44.0	-45.1	26.4	6.05e-01	0	42	0	254279680	59	4120
2026-01-23 10:37:56.18	128.12	17.21	-43.9	-45.0	26.5	6.04e-01	0	42	0	262144000	59	4086
2026-01-23 10:38:00.21	127.84	17.72	-44.0	-45.2	26.4	6.05e-01	0	42	0	269484032	59	4164
2026-01-23 10:38:04.24	127.55	18.25	-44.2	-45.3	26.2	6.06e-01	0	42	0	277348352	59	4231
2026-01-23 10:38:08.27	127.24	18.78	-44.2	-45.3	26.2	6.05e-01	0	42	0	284688384	59	4227
2026-01-23 10:38:12.30	126.92	19.33	-44.3	-45.4	26.2	6.08e-01	0	42	0	292028416	59	4284
2026-01-23 10:38:16.33	126.59	19.88	-44.1	-45.3	26.3	6.04e-01	0	42	0	299892736	59	4212
2026-01-23 10:38:20.36	126.25	20.45	-44.2	-45.4	26.2	6.05e-01	0	42	0	307232768	59	4261
2026-01-23 10:38:24.39	125.89	21.04	-44.4	-45.6	26.1	6.03e-01	0	42	0	315097088	59	4346
2026-01-23 10:38:28.42	125.52	21.64	-44.2	-45.4	26.3	6.05e-01	0	42	0	322437120	59	4243
2026-01-23 10:38:32.46	125.12	22.25	-44.2	-45.3	26.4	6.05e-01	0	42	0	329777152	59	4225
2026-01-23 10:38:36.49	124.72	22.88	-45.1	-55.8	3.8	7.42e-01	0	42	104	331350016	60	13346
2026-01-23 10:38:40.52	124.29	23.52	-45.9	-56.7	4.0	7.41e-01	0	42	104	331350016	63	12479
2026-01-23 10:38:44.55	123.85	24.18	-46.0	-56.9	3.8	7.45e-01	0	42	104	331350016	62	13569
2026-01-23 10:38:48.59	123.38	24.86	-46.7	-57.5	4.3	7.29e-01	0	42	104	331350016	65	12104
2026-01-23 10:38:52.62	122.89	25.55	-48.1	-59.4	3.8	7.47e-01	0	42	104	331350016	68	12754
2026-01-23 10:38:56.65	122.38	26.26	-44.9	-55.5	3.9	7.42e-01	0	42	104	331350016	61	12133
2026-01-23 10:39:00.68	121.84	26.99	-45.7	-56.5	3.8	7.47e-01	0	42	104	331350016	61	13614
2026-01-23 10:39:04.72	121.28	27.74	-45.0	-55.7	3.8	7.44e-01	0	43	104	331350016	62	11762
2026-01-23 10:39:08.75	120.69	28.50	-46.8	-57.7	3.8	7.48e-01	0	43	104	331350016	65	12488
2026-01-23 10:39:12.78	120.06	29.29	-44.3	-55.0	3.8	7.48e-01	0	43	104	331350016	60	12165
2026-01-23 10:39:16.82	119.41	30.09	-46.5	-57.3	3.8	7.48e-01	0	43	104	331350016	63	13402
2026-01-23 10:39:20.85	118.71	30.92	-44.6	-55.4	3.8	7.45e-01	0	42	104	331350016	61	12002
2026-01-23 10:39:24.89	117.98	31.77	-47.1	-58.1	3.9	7.45e-01	0	43	104	331350016	64	13768
2026-01-23 10:39:28.92	117.21	32.64	-45.1	-55.8	3.8	7.44e-01	0	42	104	331350016	62	11873
2026-01-23 10:39:32.96	116.39	33.53	-46.5	-57.5	3.8	7.45e-01	0	43	104	331350016	65	12116
2026-01-23 10:39:36.99	115.52	34.44	-45.5	-56.2	3.8	7.47e-01	0	42	104	331350016	62	12506
2026-01-23 10:39:41.03	114.60	35.37	-48.7	-59.9	3.8	7.44e-01	0	43	104	331350016	67	14277
2026-01-23 10:39:45.06	113.62	36.32	-46.8	-57.7	3.9	7.45e-01	0	43	104	331350016	65	12379
2026-01-23 10:39:49.09	112.59	37.29	-47.3	-58.3	3.8	7.45e-01	0	43	104	331350016	66	12658
2026-01-23 10:39:53.13	111.48	38.29	-47.1	-58.2	3.8	7.43e-01	0	43	104	331350016	66	12421
2026-01-23 10:39:57.16	110.31	39.30	-49.1	-60.6	3.8	7.43e-01	0	43	104	331350016	70	13039
2026-01-23 10:40:01.19	109.05	40.32	-48.2	-59.3	3.8	7.45e-01	0	43	104	331350016	68	12664
2026-01-23 10:40:05.23	107.71	41.37	-47.5	-58.6	3.8	7.41e-01	0	43	104	331350016	67	12310
2026-01-23 10:40:09.26	106.28	42.42	-46.6	-57.6	3.8	7.49e-01	0	42	104	331350016	64	13004
2026-01-23 10:40:13.29	104.75	43.49	-48.0	-58.7	3.8	7.39e-01	0	42	104	331350016	67	12427
2026-01-23 10:40:17.32	103.11	44.56	-45.6	-57.2	3.9	7.46e-01	0	42	104	331350016	63	13257
2026-01-23 10:40:21.35	101.36	45.64	-45.4	-58.7	3.8	7.46e-01	0	42	104	331350016	61	17532
2026-01-23 10:40:25.39	99.47	46.71	-44.9	-56.7	3.8	7.45e-01	0	43	104	331350016	60	14842
2026-01-23 10:40:29.42	97.45	47.78	-48.6	-59.9	3.8	7.42e-01	0	43	104	331350016	68	13485
2026-01-23 10:40:33.46	95.28	48.83	-46.0	-56.8	3.8	7.45e-01	0	42	104	331350016	64	11858
2026-01-23 10:40:37.49	92.97	49.87	-50.2	-61.7	3.8	7.47e-01	0	43	104	331350016	70	14776
2026-01-23 10:40:41.52	90.49	50.87	-45.5	-56.3	3.8	7.44e-01	0	43	104	331350016	62	12607
2026-01-23 10:40:45.56	87.83	51.83	-53.3	-66.5	3.8	7.47e-01	0	43	104	331350016	76	18123
2026-01-23 10:40:49.59	85.01	52.75	-45.5	-56.3	3.8	7.43e-01	0	43	104	331350016	62	12545
2026-01-23 10:40:53.62	82.01	53.60	-53.2	-66.4	3.8	7.45e-01	0	42	104	331350016	76	18009
2026-01-23 10:40:57.65	78.83	54.38	-45.0	-55.7	3.8	7.45e-01	0	42	104	331350016	61	12387
2026-01-23 10:41:01.68	75.48	55.09	-55.2	-71.6	3.7	7.46e-01	0	43	104	331350016	80	26091
2026-01-23 10:41:05.72	71.96	55.70	-46.0	-56.9	3.8	7.45e-01	0	43	104	331350016	63	12693
2026-01-23 10:41:09.75	68.31	56.20	-55.4	-72.6	3.8	7.47e-01	0	43	104	331350016	81	27665
2026-01-23 10:41:13.79	64.53	56.60	-45.8	-56.5	3.8	7.44e-01	0	43	104	331350016	63	12169
2026-01-23 10:41:17.82	60.66	56.87	-55.3	-72.5	3.8	7.45e-01	0	43	104	331350016	81	27274
2026-01-23 10:41:21.85	56.73	57.02	-46.5	-57.4	3.9	7.45e-01	0	43	104	331350016	64	12768
2026-01-23 10:41:25.88	52.78	57.03	-55.4	-72.7	3.8	7.46e-01	0	43	104	331350016	81	27910
2026-01-23 10:41:29.92	48.84	56.92	-45.7	-56.3	3.8	7.45e-01	0	43	104	331350016	63	11916
2026-01-23 10:41:33.95	44.95	56.68	-55.3	-72.0	3.8	7.46e-01	0	43	104	331350016	81	25822
2026-01-23 10:41:37.98	41.16	56.31	-46.3	-57.4	3.8	7.42e-01	0	43	104	331350016	63	13460
2026-01-23 10:41:42.02	37.46	55.84	-55.2	-71.9	3.8	7.47e-01	0	42	104	331350016	81	25356
2026-01-23 10:41:46.05	33.92	55.25	-44.9	-55.5	3.8	7.47e-01	0	43	104	331350016	61	12101
2026-01-23 10:41:50.09	30.52	54.57	-55.2	-71.8	3.8	7.42e-01	0	43	104	331350016	81	25052
2026-01-23 10:41:54.12	27.31	53.81	-44.3	-54.8	3.8	7.44e-01	0	43	104	331350016	60	11877
2026-01-23 10:41:58.15	24.26	52.97	-55.2	-71.9	3.8	7.46e-01	0	43	104	331350016	81	25505
2026-01-23 10:42:02.18	21.40	52.07	-44.3	-54.8	3.8	7.42e-01	0	43	104	331350016	60	11887
2026-01-23 10:42:06.22	18.70	51.12	-55.2	-71.9	3.8	7.48e-01	0	43	104	331350016	81	25488
2026-01-23 10:42:10.25	16.19	50.13	-44.6	-55.3	3.8	7.42e-01	0	43	104	331350016	61	11846
2026-01-23 10:42:14.29	13.83	49.11	-55.4	-72.6	3.8	7.47e-01	0	43	104	331350016	81	27626
2026-01-23 10:42:18.32	11.63	48.06	-44.4	-55.1	3.8	7.45e-01	0	42	104	331350016	60	12302
2026-01-23 10:42:22.35	9.58	47.00	-53.5	-67.5	4.0	7.41e-01	0	43	104	331350016	79	17121
2026-01-23 10:42:26.39	7.67	45.93	-44.5	-55.0	3.8	7.47e-01	0	43	104	331350016	60	12126
2026-01-23 10:42:30.42	5.88	44.86	-53.6	-67.5	4.0	7.42e-01	0	43	104	331350016	79	17105
2026-01-23 10:42:34.45	4.22	43.79	-44.8	-55.5	3.8	7.43e-01	0	43	104	331350016	61	12225
2026-01-23 10:42:38.48	2.66	42.72	-50.3	-62.3	3.9	7.40e-01	0	43	104	331350016	73	13349
2026-01-23 10:42:42.51	1.21	41.67	-45.6	-56.3	3.8	7.44e-01	0	43	104	331350016	62	12662
2026-01-23 10:42:46.55	359.85	40.62	-48.8	-60.1	3.9	7.48e-01	0	43	104	331350016	69	13064
2026-01-23 10:42:50.57	358.58	39.60	-46.1	-57.0	3.8	7.49e-01	0	43	104	331350016	63	12888
2026-01-23 10:42:54.61	357.39	38.58	-49.1	-60.5	3.9	7.43e-01	0	43	104	331350016	70	12907
2026-01-23 10:42:58.64	356.27	37.59	-46.0	-56.6	3.8	7.44e-01	0	43	104	331350016	63	12368
2026-01-23 10:43:02.67	355.22	36.62	-47.5	-59.0	3.8	7.40e-01	0	43	104	331350016	67	12883
2026-01-23 10:43:06.71	354.22	35.66	-45.7	-56.6	3.8	7.48e-01	0	43	104	331350016	63	12249
2026-01-23 10:43:10.75	353.29	34.72	-45.9	-56.7	3.9	7.47e-01	0	43	104	331350016	63	12477
2026-01-23 10:43:14.78	352.41	33.81	-44.9	-55.6	3.8	7.44e-01	0	43	104	331350016	61	12357
2026-01-23 10:43:18.82	351.58	32.92	-45.6	-56.3	3.8	7.47e-01	0	43	104	331350016	63	11876
2026-01-23 10:43:22.85	350.80	32.05	-44.4	-55.0	3.9	7.44e-01	0	43	104	331350016	60	12234
2026-01-23 10:43:26.88	350.06	31.20	-44.9	-55.6	3.8	7.44e-01	0	43	104	331350016	61	12328
2026-01-23 10:43:30.92	349.36	30.37	-44.1	-54.7	3.8	7.44e-01	0	43	104	331350016	60	11818
2026-01-23 10:43:34.95	348.70	29.56	-45.0	-55.7	3.8	7.47e-01	0	43	104	331350016	61	12516
2026-01-23 10:43:38.99	348.07	28.77	-44.3	-55.0	3.8	7.43e-01	0	43	104	331350016	60	12217
2026-01-23 10:43:43.02	347.47	28.00	-45.3	-56.0	3.8	7.42e-01	0	43	104	331350016	62	12233
2026-01-23 10:43:47.06	346.90	27.25	-44.6	-55.1	3.8	7.39e-01	0	43	104	331350016	60	12358
2026-01-23 10:43:51.09	346.35	26.52	-45.4	-56.0	3.8	7.42e-01	0	43	104	331350016	62	12209
2026-01-23 10:43:55.13	345.84	25.81	-45.1	-56.0	3.8	7.43e-01	0	43	104	331350016	61	12889
2026-01-23 10:43:59.16	345.35	25.11	-45.2	-55.8	3.8	7.44e-01	0	43	104	331350016	62	11856
2026-01-23 10:44:03.20	344.87	24.43	-44.9	-55.6	3.8	7.45e-01	0	42	104	331350016	61	12236
2026-01-23 10:44:07.23	344.43	23.77	-45.0	-55.6	3.8	7.40e-01	0	42	104	331350016	62	11559
2026-01-23 10:44:11.27	344.00	23.12	-45.3	-56.2	3.8	7.46e-01	0	43	104	331350016	61	13119
2026-01-23 10:44:15.30	343.59	22.49	-45.1	-55.9	3.8	7.41e-01	0	43	104	331350016	62	11976
2026-01-23 10:44:19.33	343.19	21.88	-45.1	-55.7	3.8	7.44e-01	0	43	104	331350016	62	11785
2026-01-23 10:44:23.36	342.82	21.28	-45.1	-55.8	3.8	7.44e-01	0	43	104	331350016	61	12585
2026-01-23 10:44:27.40	342.46	20.69	-44.6	-45.7	25.4	6.02e-01	0	43	0	332398592	61	3955
2026-01-23 10:44:31.43	342.11	20.12	-44.5	-45.7	26.0	6.00e-01	0	43	0	339738624	60	4168
2026-01-23 10:44:35.46	341.78	19.56	-44.4	-45.6	26.1	6.00e-01	0	43	0	347602944	60	4119
2026-01-23 10:44:39.49	341.46	19.01	-44.6	-45.8	25.9	6.00e-01	0	43	0	354942976	60	4232
2026-01-23 10:44:43.53	341.15	18.48	-44.7	-45.9	25.9	6.03e-01	0	42	0	362283008	60	4262
2026-01-23 10:44:47.56	340.85	17.95	-44.5	-45.7	25.9	6.03e-01	0	43	0	370147328	60	4187
2026-01-23 10:44:51.60	340.57	17.44	-44.5	-45.7	26.1	6.02e-01	0	42	0	377487360	60	4165
2026-01-23 10:44:55.63	340.30	16.94	-44.4	-45.5	26.1	5.99e-01	0	42	0	385351680	60	4091
2026-01-23 10:44:59.66	340.03	16.45	-44.3	-45.5	26.1	6.02e-01	0	43	0	392691712	60	4066
2026-01-23 10:45:03.69	339.78	15.97	-44.3	-45.5	26.0	6.04e-01	0	42	0	400556032	60	4067
2026-01-23 10:45:07.73	339.53	15.49	-44.2	-45.3	26.3	6.00e-01	0	43	0	407896064	60	3984
2026-01-23 10:45:11.76	339.30	15.03	-44.4	-45.6	26.0	6.01e-01	0	42	0	415760384	60	4104
2026-01-23 10:45:15.80	339.07	14.58	-44.5	-45.7	25.8	6.01e-01	0	42	0	423100416	60	4178
2026-01-23 10:45:19.83	338.84	14.13	-44.8	-46.0	25.6	6.00e-01	0	42	0	430440448	60	4317
2026-01-23 10:45:23.86	338.63	13.70	-44.6	-45.8	25.7	6.04e-01	0	42	0	438304768	60	4201
2026-01-23 10:45:27.89	338.42	13.27	-44.6	-45.7	25.8	6.03e-01	0	42	0	445644800	60	4191
2026-01-23 10:45:31.92	338.23	12.85	-44.6	-45.8	25.7	6.03e-01	0	42	0	452984832	60	4218
2026-01-23 10:45:35.95	338.03	12.44	-44.8	-46.0	25.4	6.01e-01	0	42	0	460849152	60	4333
2026-01-23 10:45:39.99	337.84	12.03	-44.8	-46.0	25.4	6.02e-01	0	42	0	468189184	60	4328
2026-01-23 10:45:44.02	337.66	11.63	-44.9	-46.1	25.3	6.03e-01	0	42	0	476053504	60	4372
2026-01-23 10:45:48.05	337.49	11.24	-44.8	-46.0	25.4	6.02e-01	0	42	0	483393536	60	4321
2026-01-23 10:45:52.08	337.32	10.86	-44.6	-45.8	25.4	6.02e-01	0	43	0	491257856	60	4231
2026-01-23 10:45:56.11	337.15	10.48	-44.8	-46.1	25.3	6.01e-01	0	43	0	498597888	60	4343
2026-01-23 10:46:00.14	336.99	10.11	-44.9	-46.1	25.2	6.03e-01	0	42	0	506462208	60	4369
2026-01-23 10:46:04.17	336.84	9.74	-45.2	-46.5	24.9	6.01e-01	0	43	0	513802240	60	4556
2026-01-23 10:46:08.21	336.68	9.38	-45.1	-46.4	25.0	6.03e-01	0	43	0	521142272	61	4253
2026-01-23 10:46:12.24	336.54	9.03	-45.3	-46.6	24.7	6.00e-01	0	43	0	529006592	61	4378
2026-01-23 10:46:16.27	336.40	8.68	-45.3	-46.6	24.7	6.03e-01	0	43	0	536346624	61	4365
2026-01-23 10:46:20.30	336.26	8.33	-45.5	-46.8	24.5	6.01e-01	0	43	0	544210944	61	4480
2026-01-23 10:46:24.33	336.12	7.99	-45.5	-46.9	24.3	6.02e-01	0	43	0	551550976	61	4528
2026-01-23 10:46:28.36	335.99	7.66	-45.6	-47.0	24.3	6.04e-01	0	43	0	559415296	62	4306
2026-01-23 10:46:32.40	335.87	7.33	-45.7	-47.0	24.2	6.00e-01	0	43	0	566755328	62	4335
2026-01-23 10:46:36.43	335.74	7.00	-45.9	-47.3	23.9	5.99e-01	0	43	0	574095360	62	4485
2026-01-23 10:46:40.46	335.62	6.68	-46.0	-47.5	23.7	6.04e-01	0	43	0	581959680	62	4556
2026-01-23 10:46:44.49	335.51	6.37	-46.0	-47.5	23.6	6.02e-01	0	43	0	589299712	63	4313
2026-01-23 10:46:48.52	335.39	6.05	-46.5	-48.0	23.2	6.01e-01	0	43	0	596639744	63	4575
2026-01-23 10:46:52.56	335.28	5.74	-46.4	-47.9	23.3	6.02e-01	0	43	0	604504064	63	4513
2026-01-23 10:46:56.59	335.17	5.44	-46.3	-47.8	23.3	6.02e-01	0	43	0	611844096	63	4457
2026-01-23 10:47:00.62	335.07	5.14	-46.0	-47.4	23.5	6.02e-01	0	43	0	619708416	63	4289
2026-01-23 10:47:04.65	334.96	4.84	-54.7	-72.5	3.8	7.46e-01	0	43	104	623378432	80	28937
2026-01-23 10:47:08.68	334.86	4.55	-55.2	-73.0	3.8	7.45e-01	0	43	104	623378432	80	30470
2026-01-23 10:47:12.72	334.77	4.26	-55.1	-72.9	3.8	7.46e-01	0	43	104	623378432	80	30326
2026-01-23 10:47:16.75	334.67	3.97	-55.0	-72.8	3.8	7.45e-01	0	43	104	623378432	80	29788
2026-01-23 10:47:20.78	334.58	3.69	-55.1	-72.9	3.8	7.46e-01	0	43	104	623378432	80	30194
2026-01-23 10:47:24.81	334.49	3.41	-55.1	-72.9	3.8	7.43e-01	0	43	104	623378432	80	30122
2026-01-23 10:47:28.84	334.40	3.13	-55.1	-72.9	3.8	7.44e-01	0	43	104	623378432	80	30042
2026-01-23 10:47:32.87	334.32	2.85	-55.0	-72.9	3.8	7.46e-01	0	43	104	623378432	80	30073
2026-01-23 10:47:36.91	334.23	2.58	-55.0	-72.8	3.8	7.45e-01	0	43	104	623378432	80	29950
2026-01-23 10:47:40.94	334.15	2.31	-55.0	-72.8	3.8	7.44e-01	0	43	104	623378432	80	29747
2026-01-23 10:47:44.98	334.07	2.05	-55.0	-72.7	3.8	7.45e-01	0	43	104	623378432	80	29536

#Closed at: 2026-01-23 10:47:48
#Recorded file [623 MB]: D:/lorett/data/31041_260123_133506.dat