passes_logs/2026/01/23/R3.2S_Murmansk/R3.2S_Murmansk__20260123_080916_NOAA_21_JPSS-2_rec.log

#Pass ID: 20260123_080916_NOAA 21 (JPSS-2)
#Satellite: NOAA 21 (JPSS-2)
#Configuration: NOAA-21
#almurnet v.1.7.20251203
#Start time: 2026-01-23 08:11:15

#Version: 2.2.20231116
#Station: R3.2S_Murmansk
#Location: 33.079688 lon 68.888172 lat
#TLE: 1 54234U 22150A   26022.41365820  .00000211  00000+0  12084-3 0  9990
#TLE: 2 54234  98.7507 323.2240 0000658 234.5287 125.5828 14.19537645165864

#Time	Az	El	Level	Level2	SNR	BER	BlckErr	Temp	State	Recorded	gain1	gain2
2026-01-23 08:11:15.61	114.88	10.59	-53.5	-65.5	3.8	8.45e-01	0	42	0	0	77	15304
2026-01-23 08:11:18.63	114.71	10.84	-54.5	-67.3	3.8	1.49e+00	0	42	104	0	79	16799
2026-01-23 08:11:21.65	114.53	11.10	-54.6	-67.4	3.8	1.49e+00	0	43	104	0	79	16963
2026-01-23 08:11:24.68	114.35	11.37	-54.7	-67.4	3.8	1.49e+00	0	43	104	0	79	17053
2026-01-23 08:11:27.70	114.17	11.63	-54.7	-67.5	3.8	1.49e+00	0	43	104	0	79	17158
2026-01-23 08:11:30.73	113.98	11.90	-54.6	-67.4	3.8	1.49e+00	0	43	104	0	80	16060
2026-01-23 08:11:33.75	113.79	12.17	-54.7	-67.5	3.8	1.49e+00	0	43	104	0	80	16141
2026-01-23 08:11:36.78	113.59	12.44	-54.6	-67.4	3.8	1.49e+00	0	43	104	0	80	16095
2026-01-23 08:11:39.81	113.39	12.72	-54.6	-67.4	3.8	1.49e+00	0	43	104	0	80	16088
2026-01-23 08:11:42.83	113.19	13.00	-54.6	-67.3	3.8	1.49e+00	0	43	104	0	80	15910
2026-01-23 08:11:45.86	112.98	13.28	-54.5	-67.3	3.8	1.49e+00	0	43	104	0	80	15898
2026-01-23 08:11:48.89	112.77	13.56	-54.6	-67.4	3.8	1.49e+00	0	43	104	0	80	15976
2026-01-23 08:11:51.92	112.56	13.85	-54.5	-67.3	3.8	1.49e+00	0	43	104	0	80	15879
2026-01-23 08:11:54.94	112.34	14.14	-54.5	-67.3	3.8	1.49e+00	0	43	104	0	80	15843
2026-01-23 08:11:57.97	112.12	14.43	-54.5	-67.2	3.8	1.49e+00	0	43	104	0	80	15751
2026-01-23 08:12:00.99	111.89	14.73	-54.4	-67.2	3.8	1.49e+00	0	43	104	0	80	15715
2026-01-23 08:12:04.02	111.65	15.03	-54.4	-67.3	3.8	1.49e+00	0	43	104	0	80	15771
2026-01-23 08:12:07.04	111.42	15.33	-54.4	-67.2	3.8	1.49e+00	0	43	104	0	80	15705
2026-01-23 08:12:10.07	111.17	15.63	-54.6	-67.3	3.8	1.49e+00	0	43	104	0	80	15908
2026-01-23 08:12:13.09	110.93	15.94	-54.5	-67.3	3.8	1.49e+00	0	43	104	0	80	15875
2026-01-23 08:12:16.11	110.67	16.25	-54.5	-67.2	3.8	1.49e+00	0	43	104	0	80	15743
2026-01-23 08:12:19.14	110.41	16.57	-54.4	-67.2	3.8	1.49e+00	0	43	104	0	80	15656
2026-01-23 08:12:22.16	110.15	16.89	-54.3	-67.1	3.8	1.49e+00	0	43	104	0	80	15481
2026-01-23 08:12:25.19	109.88	17.21	-54.2	-67.0	3.8	1.49e+00	0	43	104	0	80	15273
2026-01-23 08:12:28.21	109.60	17.54	-54.1	-66.9	3.8	1.49e+00	0	43	104	0	80	15064
2026-01-23 08:12:31.23	109.32	17.87	-54.0	-66.8	3.8	1.49e+00	0	43	104	0	79	15772
2026-01-23 08:12:34.26	109.03	18.20	-45.9	-47.1	18.2	0.00e+00	0	43	0	1048576	62	4353
2026-01-23 08:12:37.29	108.73	18.54	-46.8	-48.2	17.0	0.00e+00	0	43	0	9437184	65	4180
2026-01-23 08:12:40.32	108.43	18.88	-51.4	-55.9	4.8	8.26e-01	0	43	104	18874368	74	6027
2026-01-23 08:12:43.34	108.12	19.23	-43.8	-44.8	20.5	0.00e+00	0	43	0	26214400	59	3971
2026-01-23 08:12:46.37	107.80	19.58	-43.6	-44.6	20.8	0.00e+00	0	43	0	35651584	59	3881
2026-01-23 08:12:49.39	107.47	19.93	-43.3	-44.2	21.1	0.00e+00	0	43	0	45088768	58	3937
2026-01-23 08:12:52.42	107.14	20.29	-43.1	-44.0	21.4	0.00e+00	0	43	0	54525952	58	3851
2026-01-23 08:12:55.44	106.80	20.65	-42.7	-43.5	21.8	0.00e+00	0	43	0	63963136	57	3841
2026-01-23 08:12:58.47	106.45	21.01	-42.4	-43.3	22.0	0.00e+00	0	43	0	73400320	56	3960
2026-01-23 08:13:01.49	106.09	21.38	-42.2	-43.0	22.1	0.00e+00	0	43	0	82837504	56	3849
2026-01-23 08:13:04.52	105.72	21.76	-42.2	-43.0	22.1	0.00e+00	0	43	0	93323264	56	3856
2026-01-23 08:13:07.55	105.35	22.13	-42.1	-42.9	22.2	0.00e+00	0	43	0	101711872	56	3820
2026-01-23 08:13:10.58	104.96	22.52	-42.0	-42.8	22.4	0.00e+00	0	43	0	111149056	56	3753
2026-01-23 08:13:13.60	104.57	22.90	-42.0	-42.8	22.4	0.00e+00	0	43	0	120586240	56	3748
2026-01-23 08:13:16.63	104.16	23.29	-41.8	-42.5	22.5	0.00e+00	0	43	0	131072000	55	3862
2026-01-23 08:13:19.65	103.74	23.69	-41.8	-42.6	22.5	0.00e+00	0	43	0	140509184	55	3880
2026-01-23 08:13:22.68	103.32	24.09	-41.6	-42.3	22.7	0.00e+00	0	43	0	148897792	55	3774
2026-01-23 08:13:25.70	102.88	24.49	-41.9	-42.7	22.4	0.00e+00	0	43	0	158334976	55	3921
2026-01-23 08:13:28.73	102.43	24.90	-42.1	-42.9	22.2	0.00e+00	0	43	0	168820736	55	4027
2026-01-23 08:13:31.75	101.97	25.31	-42.1	-42.9	22.2	0.00e+00	0	43	0	178257920	55	4024
2026-01-23 08:13:34.77	101.49	25.73	-42.2	-43.0	22.2	0.00e+00	0	43	0	187695104	55	4061
2026-01-23 08:13:37.79	101.01	26.15	-42.2	-43.0	22.2	0.00e+00	0	43	0	196083712	55	4060
2026-01-23 08:13:40.82	100.50	26.58	-42.2	-43.0	22.2	0.00e+00	0	43	0	206569472	55	4077
2026-01-23 08:13:43.84	99.99	27.00	-42.4	-43.2	21.9	0.00e+00	0	43	0	216006656	55	4192
2026-01-23 08:13:46.87	99.46	27.44	-42.6	-43.5	21.7	0.00e+00	0	43	0	225443840	55	4302
2026-01-23 08:13:49.89	98.92	27.88	-42.7	-43.5	21.8	0.00e+00	0	43	0	234881024	56	4072
2026-01-23 08:13:52.91	98.36	28.32	-42.9	-43.7	21.6	0.00e+00	0	43	0	243269632	56	4168
2026-01-23 08:13:55.94	97.78	28.76	-43.1	-43.9	21.3	0.00e+00	0	43	0	253755392	56	4290
2026-01-23 08:13:58.96	97.19	29.21	-43.4	-44.4	21.0	0.00e+00	0	43	0	263192576	57	4244
2026-01-23 08:14:01.98	96.58	29.66	-43.5	-44.4	21.0	0.00e+00	0	43	0	272629760	57	4268
2026-01-23 08:14:05.01	95.96	30.12	-43.4	-44.3	21.2	0.00e+00	0	43	0	282066944	57	4206
2026-01-23 08:14:08.03	95.31	30.58	-43.2	-44.1	21.3	0.00e+00	0	43	0	291504128	57	4120
2026-01-23 08:14:11.06	94.65	31.04	-43.0	-43.9	21.5	0.00e+00	0	43	0	300941312	57	4008
2026-01-23 08:14:14.08	93.97	31.51	-43.0	-43.9	21.6	0.00e+00	0	43	0	310378496	57	4019
2026-01-23 08:14:17.11	93.26	31.98	-42.8	-43.6	21.7	0.00e+00	0	43	0	319815680	57	3906
2026-01-23 08:14:20.13	92.54	32.45	-42.7	-43.6	21.8	0.00e+00	0	43	0	329252864	57	3876
2026-01-23 08:14:23.16	91.79	32.92	-42.8	-43.6	21.8	0.00e+00	0	43	0	338690048	57	3907
2026-01-23 08:14:26.18	91.02	33.40	-42.8	-43.6	21.7	0.00e+00	0	43	0	348127232	57	3902
2026-01-23 08:14:29.21	90.23	33.87	-42.9	-43.8	21.6	0.00e+00	0	43	0	357564416	57	3972
2026-01-23 08:14:32.23	89.42	34.35	-43.6	-44.5	21.0	0.00e+00	0	43	0	367001600	57	4314
2026-01-23 08:14:35.25	88.58	34.83	-44.3	-45.2	20.4	0.00e+00	0	43	0	376438784	59	4190
2026-01-23 08:14:38.28	87.72	35.30	-44.1	-45.1	20.6	0.00e+00	0	43	0	385875968	59	4114
2026-01-23 08:14:41.30	86.83	35.78	-44.2	-45.1	20.5	0.00e+00	0	43	0	395313152	59	4141
2026-01-23 08:14:44.32	85.91	36.25	-44.0	-44.9	20.7	0.00e+00	0	43	0	404750336	59	4016
2026-01-23 08:14:47.35	84.97	36.73	-44.1	-45.0	20.5	0.00e+00	0	43	0	414187520	59	4073
2026-01-23 08:14:50.37	84.00	37.20	-44.6	-45.6	20.0	0.00e+00	0	43	0	423624704	59	4389
2026-01-23 08:14:53.40	83.00	37.67	-44.7	-45.7	19.9	0.00e+00	0	43	0	433061888	59	4411
2026-01-23 08:14:56.43	81.97	38.13	-44.5	-45.5	19.9	0.00e+00	0	43	0	442499072	60	4058
2026-01-23 08:14:59.45	80.91	38.59	-44.7	-45.8	19.6	0.00e+00	0	43	0	451936256	60	4197
2026-01-23 08:15:02.48	79.82	39.05	-44.6	-45.6	19.8	0.00e+00	0	43	0	461373440	60	4141
2026-01-23 08:15:05.50	78.70	39.50	-44.4	-45.4	20.0	0.00e+00	0	43	0	470810624	60	4037
2026-01-23 08:15:08.53	77.54	39.94	-44.4	-45.3	20.0	0.00e+00	0	43	0	480247808	60	4000
2026-01-23 08:15:11.55	76.36	40.37	-44.5	-45.5	19.7	0.00e+00	0	43	0	489684992	60	4075
2026-01-23 08:15:14.58	75.15	40.80	-45.1	-46.2	19.3	0.00e+00	0	43	0	499122176	60	4424
2026-01-23 08:15:17.60	73.90	41.21	-45.1	-46.2	19.2	0.00e+00	0	43	0	508559360	60	4421
2026-01-23 08:15:20.63	72.62	41.61	-45.2	-46.3	19.2	0.00e+00	0	43	0	517996544	61	4214
2026-01-23 08:15:23.65	71.31	42.00	-45.4	-46.5	19.1	0.00e+00	0	43	0	527433728	61	4313
2026-01-23 08:15:26.67	69.97	42.38	-45.0	-46.1	19.4	0.00e+00	0	43	0	536870912	61	4112
2026-01-23 08:15:29.70	68.60	42.74	-44.6	-45.6	19.9	0.00e+00	0	43	0	546308096	61	3906
2026-01-23 08:15:32.73	67.19	43.09	-44.5	-45.5	20.0	0.00e+00	0	43	0	555745280	60	4062
2026-01-23 08:15:35.75	65.76	43.42	-44.8	-45.9	19.6	0.00e+00	0	43	0	565182464	60	4245
2026-01-23 08:15:38.78	64.29	43.73	-45.0	-46.0	19.3	0.00e+00	0	43	0	574619648	60	4336
2026-01-23 08:15:41.80	62.80	44.02	-45.2	-46.3	19.2	0.00e+00	0	43	0	584056832	61	4209
2026-01-23 08:15:44.83	61.28	44.29	-45.6	-46.7	18.8	0.00e+00	0	43	0	593494016	61	4426
2026-01-23 08:15:47.85	59.74	44.54	-45.1	-46.2	19.3	0.00e+00	0	43	0	602931200	61	4161
2026-01-23 08:15:50.88	58.17	44.77	-45.0	-46.0	19.4	0.00e+00	0	43	0	612368384	61	4086
2026-01-23 08:15:53.90	56.58	44.98	-45.0	-46.0	19.5	0.00e+00	0	43	0	621805568	61	4082
2026-01-23 08:15:56.93	54.97	45.16	-45.2	-46.3	19.3	0.00e+00	0	43	0	631242752	61	4219
2026-01-23 08:15:59.95	53.35	45.32	-45.5	-46.6	19.0	0.00e+00	0	43	0	640679936	61	4368
2026-01-23 08:16:02.98	51.71	45.45	-45.0	-46.0	19.4	0.00e+00	0	43	0	650117120	61	4070
2026-01-23 08:16:06.01	50.05	45.56	-44.5	-45.5	19.9	0.00e+00	0	43	0	659554304	60	4074
2026-01-23 08:16:09.03	48.39	45.64	-44.8	-45.8	19.7	0.00e+00	0	43	0	668991488	60	4212
2026-01-23 08:16:12.06	46.72	45.69	-44.8	-45.8	19.7	0.00e+00	0	43	0	678428672	60	4218
2026-01-23 08:16:15.08	45.05	45.72	-45.6	-46.8	18.8	0.00e+00	0	43	0	687865856	61	4459
2026-01-23 08:16:18.11	43.37	45.72	-45.2	-46.3	19.3	0.00e+00	0	43	0	697303040	61	4198
2026-01-23 08:16:21.13	41.70	45.69	-45.0	-46.1	19.4	0.00e+00	0	43	0	706740224	61	4120
2026-01-23 08:16:24.16	40.03	45.63	-44.7	-45.7	19.9	0.00e+00	0	43	0	716177408	61	3919
2026-01-23 08:16:27.18	38.37	45.55	-44.5	-45.5	20.1	0.00e+00	0	43	0	725614592	60	4053
2026-01-23 08:16:30.20	36.72	45.44	-45.0	-46.0	19.5	0.00e+00	0	43	0	735051776	60	4332
2026-01-23 08:16:33.23	35.08	45.31	-44.9	-46.0	19.6	0.00e+00	0	43	0	745537536	61	4054
2026-01-23 08:16:36.25	33.46	45.15	-45.1	-46.1	19.4	0.00e+00	0	43	0	753926144	60	4377
2026-01-23 08:16:39.28	31.85	44.97	-45.3	-46.3	19.3	0.00e+00	0	43	0	763363328	61	4237
2026-01-23 08:16:42.31	30.26	44.76	-45.3	-46.5	19.1	0.00e+00	0	43	0	772800512	61	4293
2026-01-23 08:16:45.33	28.70	44.53	-44.6	-45.6	20.0	0.00e+00	0	43	0	783286272	61	3890
2026-01-23 08:16:48.36	27.16	44.27	-45.1	-46.2	19.4	0.00e+00	0	43	0	792723456	61	4169
2026-01-23 08:16:51.38	25.64	44.00	-45.3	-46.4	18.9	0.00e+00	0	43	0	801112064	61	4268
2026-01-23 08:16:54.41	24.15	43.71	-44.2	-45.1	20.6	0.00e+00	0	43	0	810549248	59	4129
2026-01-23 08:16:57.44	22.69	43.39	-46.4	-47.8	17.7	0.00e+00	0	43	0	821035008	63	4462
2026-01-23 08:17:00.46	21.26	43.06	-45.2	-46.3	19.3	0.00e+00	0	43	0	830472192	62	3959
2026-01-23 08:17:03.49	19.86	42.72	-45.6	-46.8	18.8	0.00e+00	0	43	0	839909376	61	4462
2026-01-23 08:17:06.51	18.49	42.35	-45.1	-46.2	19.4	0.00e+00	0	43	0	848297984	62	3926
2026-01-23 08:17:09.54	17.15	41.98	-44.7	-45.7	19.8	0.00e+00	0	43	0	858783744	60	4182
2026-01-23 08:17:12.56	15.85	41.59	-45.6	-46.7	18.3	0.00e+00	0	43	0	868220928	62	4182
2026-01-23 08:17:15.59	14.57	41.18	-44.2	-45.1	20.2	0.00e+00	0	43	0	877658112	60	3892
2026-01-23 08:17:18.62	13.33	40.77	-46.6	-48.0	17.6	0.00e+00	0	43	0	887095296	63	4572
2026-01-23 08:17:21.64	12.12	40.35	-45.1	-46.2	18.7	0.00e+00	0	43	0	896532480	62	3953
2026-01-23 08:17:24.67	10.94	39.91	-44.1	-45.0	20.6	0.00e+00	0	43	0	905969664	59	4062
2026-01-23 08:17:27.69	9.79	39.47	-44.8	-45.9	19.6	0.00e+00	0	43	0	915406848	60	4253
2026-01-23 08:17:30.72	8.67	39.02	-44.1	-45.0	20.5	0.00e+00	0	43	0	924844032	59	4068
2026-01-23 08:17:33.75	7.59	38.57	-44.3	-45.3	20.2	0.00e+00	0	43	0	934281216	59	4202
2026-01-23 08:17:36.78	6.53	38.11	-45.1	-46.2	19.1	0.00e+00	0	43	0	943718400	61	4176
2026-01-23 08:17:39.81	5.50	37.64	-43.8	-44.7	21.0	0.00e+00	0	43	0	953155584	59	3921
2026-01-23 08:17:42.83	4.51	37.18	-44.0	-44.9	20.7	0.00e+00	0	43	0	962592768	58	4278
2026-01-23 08:17:45.86	3.54	36.71	-44.8	-45.8	19.7	0.00e+00	0	43	0	972029952	60	4236
2026-01-23 08:17:48.88	2.60	36.23	-43.8	-44.8	20.7	0.00e+00	0	43	0	981467136	59	3959
2026-01-23 08:17:51.91	1.69	35.76	-44.0	-44.9	20.7	0.00e+00	0	43	0	990904320	59	4033
2026-01-23 08:17:54.94	0.80	35.28	-44.6	-45.6	19.9	0.00e+00	0	43	0	1000341504	59	4345
2026-01-23 08:17:57.96	359.94	34.81	-44.3	-45.3	20.4	0.00e+00	0	43	0	1009778688	59	4209
2026-01-23 08:18:00.99	359.11	34.33	-44.0	-45.0	20.7	0.00e+00	0	43	0	1019215872	59	4058
2026-01-23 08:18:04.01	358.30	33.86	-44.1	-45.0	20.6	0.00e+00	0	43	0	1028653056	59	4086
2026-01-23 08:18:07.04	357.51	33.38	-43.6	-44.5	21.0	0.00e+00	0	43	0	1038090240	59	3838
2026-01-23 08:18:10.06	356.75	32.91	-42.8	-43.6	21.8	0.00e+00	0	43	0	1047527424	57	3871
2026-01-23 08:18:13.09	356.00	32.44	-43.4	-44.3	21.2	0.00e+00	0	43	0	1056964608	57	4229
2026-01-23 08:18:16.11	355.28	31.97	-43.7	-44.7	20.9	0.00e+00	0	43	0	1066401792	58	4150
2026-01-23 08:18:19.14	354.58	31.50	-43.2	-44.1	21.4	0.00e+00	0	43	0	1075838976	58	3870
2026-01-23 08:18:22.16	353.90	31.04	-43.1	-44.0	21.5	0.00e+00	0	43	0	1085276160	58	3833
2026-01-23 08:18:25.18	353.24	30.58	-43.0	-43.9	21.6	0.00e+00	0	43	0	1094713344	58	3792
2026-01-23 08:18:28.21	352.60	30.12	-43.0	-43.9	21.6	0.00e+00	0	43	0	1104150528	57	4009
2026-01-23 08:18:31.24	351.98	29.66	-42.9	-43.8	21.7	0.00e+00	0	43	0	1113587712	57	3977
2026-01-23 08:18:34.26	351.37	29.21	-42.8	-43.7	21.8	0.00e+00	0	43	0	1123024896	57	3941
2026-01-23 08:18:37.28	350.78	28.76	-42.7	-43.5	21.8	0.00e+00	0	43	0	1132462080	57	3852
2026-01-23 08:18:40.31	350.21	28.32	-42.6	-43.4	21.8	0.00e+00	0	43	0	1141899264	57	3820
2026-01-23 08:18:43.33	349.66	27.88	-42.5	-43.3	22.0	0.00e+00	0	43	0	1151336448	56	3984
2026-01-23 08:18:46.36	349.11	27.44	-42.6	-43.4	21.9	0.00e+00	0	43	0	1160773632	56	4041
2026-01-23 08:18:49.39	348.59	27.01	-42.7	-43.6	21.8	0.00e+00	0	43	0	1170210816	56	4108
2026-01-23 08:18:52.41	348.07	26.58	-42.7	-43.5	21.8	0.00e+00	0	43	0	1179648000	56	4081
2026-01-23 08:18:55.44	347.58	26.16	-42.4	-43.2	22.1	0.00e+00	0	43	0	1189085184	56	3946
2026-01-23 08:18:58.46	347.09	25.74	-42.3	-43.1	22.1	0.00e+00	0	43	0	1198522368	56	3903
2026-01-23 08:19:01.49	346.62	25.32	-42.3	-43.2	22.1	0.00e+00	0	43	0	1207959552	56	3915
2026-01-23 08:19:04.51	346.16	24.91	-42.2	-43.0	22.3	0.00e+00	0	43	0	1217396736	56	3843
2026-01-23 08:19:07.53	345.71	24.50	-42.2	-43.0	22.3	0.00e+00	0	43	0	1226833920	56	3825
2026-01-23 08:19:10.56	345.28	24.10	-42.0	-42.8	22.4	0.00e+00	0	43	0	1236271104	56	3766
2026-01-23 08:19:13.58	344.85	23.70	-42.4	-43.2	22.1	0.00e+00	0	43	0	1245708288	56	3957
2026-01-23 08:19:16.61	344.44	23.31	-42.8	-43.6	21.7	0.00e+00	0	43	0	1255145472	56	4128
2026-01-23 08:19:19.63	344.03	22.92	-42.8	-43.6	21.6	0.00e+00	0	43	0	1264582656	56	4136
2026-01-23 08:19:22.66	343.64	22.54	-42.9	-43.8	21.5	0.00e+00	0	43	0	1274019840	56	4200
2026-01-23 08:19:25.68	343.26	22.16	-42.5	-43.3	21.9	0.00e+00	0	43	0	1283457024	56	3989
2026-01-23 08:19:28.71	342.88	21.78	-42.4	-43.3	21.9	0.00e+00	0	43	0	1292894208	56	3966
2026-01-23 08:19:31.73	342.52	21.41	-42.1	-42.9	22.3	0.00e+00	0	43	0	1303379968	56	3787
2026-01-23 08:19:34.75	342.16	21.04	-42.1	-42.9	22.3	0.00e+00	0	43	0	1311768576	56	3782
2026-01-23 08:19:37.78	341.81	20.67	-42.2	-43.0	22.2	0.00e+00	0	43	0	1321205760	56	3843
2026-01-23 08:19:40.80	341.48	20.31	-42.5	-43.3	21.9	0.00e+00	0	43	0	1330642944	56	3981
2026-01-23 08:19:43.83	341.14	19.96	-42.7	-43.6	21.6	0.00e+00	0	43	0	1341128704	56	4115
2026-01-23 08:19:46.85	340.82	19.61	-42.5	-43.4	21.7	0.00e+00	0	43	0	1350565888	56	4008
2026-01-23 08:19:49.88	340.51	19.26	-42.5	-43.4	21.7	0.00e+00	0	43	0	1358954496	56	4010
2026-01-23 08:19:52.90	340.20	18.92	-42.4	-43.2	21.8	0.00e+00	0	43	0	1368391680	56	3928
2026-01-23 08:19:55.93	339.90	18.57	-42.6	-43.5	21.6	0.00e+00	0	43	0	1378877440	56	4069
2026-01-23 08:19:58.96	339.60	18.24	-42.7	-43.5	21.6	0.00e+00	0	43	0	1388314624	56	4092
2026-01-23 08:20:01.98	339.31	17.91	-43.0	-43.9	21.3	0.00e+00	0	43	0	1397751808	56	4248
2026-01-23 08:20:05.01	339.03	17.58	-43.1	-44.0	21.2	0.00e+00	0	43	0	1406140416	56	4330
2026-01-23 08:20:08.03	338.76	17.25	-43.5	-44.4	20.9	0.00e+00	0	43	0	1416626176	57	4261
2026-01-23 08:20:11.06	338.49	16.93	-43.5	-44.4	20.8	0.00e+00	0	43	0	1426063360	57	4282
2026-01-23 08:20:14.08	338.22	16.61	-43.5	-44.5	20.7	0.00e+00	0	43	0	1435500544	57	4301
2026-01-23 08:20:17.11	337.97	16.30	-43.6	-44.5	20.7	0.00e+00	0	43	0	1444937728	57	4320
2026-01-23 08:20:20.13	337.72	15.98	-43.5	-44.5	20.7	0.00e+00	0	43	0	1454374912	58	4064
2026-01-23 08:20:23.15	337.47	15.68	-43.4	-44.3	20.8	0.00e+00	0	43	0	1463812096	58	3995
2026-01-23 08:20:26.18	337.23	15.37	-43.2	-44.1	21.0	1.50e-06	0	42	0	1473249280	58	3887
2026-01-23 08:20:29.20	336.99	15.07	-43.1	-44.0	21.0	0.00e+00	0	43	0	1482686464	58	3855
2026-01-23 08:20:32.22	336.76	14.77	-43.2	-44.2	21.0	0.00e+00	0	43	0	1492123648	58	3915
2026-01-23 08:20:35.25	336.53	14.48	-43.4	-44.3	20.8	0.00e+00	0	43	0	1501560832	58	3998
2026-01-23 08:20:38.28	336.31	14.19	-43.4	-44.4	20.7	0.00e+00	0	43	0	1510998016	58	4017
2026-01-23 08:20:41.30	336.09	13.90	-43.6	-44.6	20.6	0.00e+00	0	43	0	1520435200	58	4105
2026-01-23 08:20:44.33	335.88	13.61	-43.7	-44.7	20.4	0.00e+00	0	43	0	1529872384	58	4176
2026-01-23 08:20:47.35	335.67	13.33	-44.0	-45.0	20.2	0.00e+00	0	43	0	1539309568	58	4300
2026-01-23 08:20:50.37	335.47	13.05	-44.0	-45.1	20.1	0.00e+00	0	43	0	1548746752	58	4347
2026-01-23 08:20:53.40	335.27	12.77	-44.2	-45.2	19.9	0.00e+00	0	43	0	1558183936	58	4411
2026-01-23 08:20:56.42	335.07	12.50	-44.1	-45.1	19.9	0.00e+00	0	43	0	1567621120	58	4381
2026-01-23 08:20:59.45	334.88	12.22	-44.1	-45.1	19.9	0.00e+00	0	43	0	1577058304	59	4119
2026-01-23 08:21:02.48	334.69	11.95	-44.1	-45.1	19.8	0.00e+00	0	43	0	1586495488	59	4136
2026-01-23 08:21:05.50	334.50	11.69	-43.9	-44.9	20.0	0.00e+00	0	43	0	1595932672	59	4041
2026-01-23 08:21:08.53	334.32	11.42	-44.0	-45.0	20.0	0.00e+00	0	43	0	1605369856	59	4078
2026-01-23 08:21:11.55	334.14	11.16	-43.8	-44.8	20.1	0.00e+00	0	43	0	1614807040	59	3980
2026-01-23 08:21:14.58	333.97	10.90	-43.9	-44.9	20.1	0.00e+00	0	43	0	1624244224	59	4013
2026-01-23 08:21:17.60	333.80	10.65	-44.0	-45.0	19.9	1.50e-06	0	43	0	1633681408	59	4069
2026-01-23 08:21:20.62	333.63	10.39	-44.1	-45.1	19.8	0.00e+00	0	43	0	1643118592	59	4131
2026-01-23 08:21:23.65	333.46	10.14	-44.0	-45.0	19.9	0.00e+00	0	43	0	1652555776	59	4079
2026-01-23 08:21:26.68	333.30	9.89	-44.2	-45.3	19.7	0.00e+00	0	43	0	1661992960	59	4201
2026-01-23 08:21:29.70	333.14	9.64	-44.2	-45.3	19.6	0.00e+00	0	43	0	1671430144	59	4199
2026-01-23 08:21:32.73	332.98	9.40	-44.2	-45.2	19.7	0.00e+00	0	43	0	1680867328	59	4167
2026-01-23 08:21:35.75	332.83	9.15	-44.3	-45.3	19.6	0.00e+00	0	43	0	1690304512	59	4237
2026-01-23 08:21:38.77	332.68	8.91	-44.4	-45.5	19.4	0.00e+00	0	43	0	1699741696	59	4318
2026-01-23 08:21:41.80	332.53	8.67	-44.5	-45.6	19.2	0.00e+00	0	43	0	1709178880	59	4388
2026-01-23 08:21:44.83	332.38	8.44	-44.3	-45.4	19.1	0.00e+00	0	43	0	1718616064	60	4038
2026-01-23 08:21:47.85	332.24	8.20	-44.2	-45.3	19.2	0.00e+00	0	43	0	1728053248	60	3988
2026-01-23 08:21:50.87	332.10	7.97	-44.4	-45.5	19.0	0.00e+00	0	43	0	1737490432	60	4057
2026-01-23 08:21:53.90	331.96	7.74	-44.4	-45.5	19.0	0.00e+00	0	43	0	1746927616	60	4080
2026-01-23 08:21:56.92	331.82	7.51	-44.6	-45.7	18.8	0.00e+00	0	43	0	1756364800	60	4169
2026-01-23 08:21:59.95	331.69	7.28	-44.7	-45.8	18.6	0.00e+00	0	43	0	1765801984	60	4234
2026-01-23 08:22:02.98	331.56	7.06	-44.6	-45.7	18.7	0.00e+00	0	43	0	1775239168	60	4188
2026-01-23 08:22:06.00	331.43	6.83	-44.7	-45.9	18.5	0.00e+00	0	43	0	1784676352	60	4280
2026-01-23 08:22:09.02	331.30	6.61	-44.9	-46.1	18.3	0.00e+00	0	43	0	1794113536	60	4383
2026-01-23 08:22:12.05	331.18	6.39	-45.0	-46.2	18.1	0.00e+00	0	43	0	1803550720	60	4437
2026-01-23 08:22:15.07	331.05	6.17	-44.9	-46.2	18.2	0.00e+00	0	43	0	1812987904	60	4402
2026-01-23 08:22:18.10	330.93	5.96	-45.2	-46.5	17.9	0.00e+00	0	43	0	1822425088	61	4324
2026-01-23 08:22:21.13	330.81	5.74	-45.4	-46.7	17.6	0.00e+00	0	43	0	1831862272	61	4424
2026-01-23 08:22:24.15	330.70	5.53	-45.1	-46.4	17.9	0.00e+00	0	43	0	1841299456	61	4258
2026-01-23 08:22:27.18	330.58	5.32	-45.2	-46.4	17.8	0.00e+00	0	43	0	1850736640	61	4288
2026-01-23 08:22:30.20	330.47	5.11	-45.6	-47.0	17.3	0.00e+00	0	43	0	1860173824	61	4565
2026-01-23 08:22:33.23	330.35	4.90	-53.2	-65.9	3.8	1.49e+00	0	43	104	1865416704	76	17076
2026-01-23 08:22:36.26	330.24	4.69	-53.5	-66.3	3.8	1.49e+00	0	43	104	1865416704	77	16789
2026-01-23 08:22:39.28	330.14	4.48	-53.6	-66.4	3.8	1.49e+00	0	43	104	1865416704	77	16984
2026-01-23 08:22:42.31	330.03	4.28	-53.4	-66.2	3.8	1.49e+00	0	43	104	1865416704	77	16569
2026-01-23 08:22:45.34	329.92	4.08	-53.5	-66.2	3.8	1.49e+00	0	43	104	1865416704	77	16678
2026-01-23 08:22:48.36	329.82	3.88	-53.6	-66.4	3.8	1.49e+00	0	43	104	1865416704	77	16954
2026-01-23 08:22:51.38	329.72	3.68	-53.7	-66.5	3.8	1.49e+00	0	43	104	1865416704	77	17088
2026-01-23 08:22:54.41	329.62	3.48	-53.7	-66.4	3.8	1.49e+00	0	43	104	1865416704	77	16999
2026-01-23 08:22:57.44	329.52	3.28	-53.6	-66.4	3.8	1.49e+00	0	43	104	1865416704	77	17021
2026-01-23 08:23:00.46	329.42	3.08	-53.6	-66.4	3.8	1.49e+00	0	43	104	1865416704	77	17019
2026-01-23 08:23:03.49	329.33	2.89	-53.6	-66.4	3.8	1.49e+00	0	43	104	1865416704	77	17036
2026-01-23 08:23:06.52	329.23	2.69	-53.6	-66.4	3.8	1.49e+00	0	43	104	1865416704	77	16953
2026-01-23 08:23:09.54	329.14	2.50	-53.6	-66.4	3.8	1.49e+00	0	43	104	1865416704	77	16962
2026-01-23 08:23:12.56	329.05	2.31	-53.6	-66.4	3.8	1.49e+00	0	43	104	1865416704	77	16952
2026-01-23 08:23:15.59	328.96	2.12	-53.6	-66.4	3.8	1.49e+00	0	43	104	1865416704	77	16951
2026-01-23 08:23:18.61	328.87	1.93	-53.6	-66.4	3.8	1.49e+00	0	43	104	1865416704	77	16958

#Closed at: 2026-01-23 08:23:18
#Recorded file [1865 MB]: D:/lorett/data/31041_260123_111115.dat