passes_logs/2026/01/23/R3.2S_Murmansk/R3.2S_Murmansk__20260123_020148_SUOMI_NPP_rec.log

#Pass ID: 20260123_020148_SUOMI NPP
#Satellite: SUOMI NPP
#Configuration: NPP
#almurnet v.1.7.20251203
#Start time: 2026-01-23 02:01:49

#Version: 2.2.20231116
#Station: R3.2S_Murmansk
#Location: 33.079688 lon 68.888172 lat
#TLE: 1 37849U 11061A   26022.50498765  .00000208  00000+0  11976-3 0  9992
#TLE: 2 37849  98.7820 324.4892 0002275  50.8149 309.3229 14.19528284737775

#Time	Az	El	Level	Level2	SNR	BER	BlckErr	Temp	State	Recorded	gain1	gain2
2026-01-23 02:01:49.41	30.48	2.08	-54.4	-69.4	3.8	1.49e+00	0	41	0	0	79	21440
2026-01-23 02:01:53.44	30.37	2.33	-54.3	-69.4	3.8	1.49e+00	0	42	104	0	79	21262
2026-01-23 02:01:57.48	30.25	2.59	-54.2	-69.3	3.8	1.49e+00	0	42	104	0	79	21050
2026-01-23 02:02:01.51	30.14	2.84	-54.0	-69.0	3.8	1.49e+00	0	42	104	0	79	20424
2026-01-23 02:02:05.54	30.02	3.11	-53.5	-68.5	3.8	1.49e+00	0	42	104	0	79	19313
2026-01-23 02:02:09.58	29.90	3.37	-52.4	-66.3	3.8	1.49e+00	0	42	104	0	76	17887
2026-01-23 02:02:13.61	29.78	3.63	-52.4	-66.9	3.8	1.49e+00	0	42	104	0	76	18955
2026-01-23 02:02:17.65	29.66	3.90	-51.8	-60.4	5.8	5.43e-01	0	42	0	2097152	75	9599
2026-01-23 02:02:21.69	29.53	4.17	-49.7	-53.4	12.9	1.34e-04	0	42	0	9437184	71	5365
2026-01-23 02:02:25.72	29.40	4.45	-47.6	-49.9	16.3	0.00e+00	0	42	0	16777216	67	4535
2026-01-23 02:02:29.75	29.27	4.72	-47.9	-50.3	15.9	0.00e+00	0	42	0	24117248	66	5014
2026-01-23 02:02:33.78	29.13	5.00	-49.9	-53.8	12.5	5.87e-05	0	43	0	32505856	70	5926
2026-01-23 02:02:37.81	28.99	5.28	-46.3	-48.0	17.4	1.39e+00	0	43	104	37748736	64	4329
2026-01-23 02:02:41.84	28.85	5.57	-46.4	-48.2	18.0	0.00e+00	0	43	0	44040192	64	4431
2026-01-23 02:02:45.88	28.71	5.85	-46.4	-48.2	18.0	0.00e+00	0	43	0	52428800	64	4419
2026-01-23 02:02:49.91	28.56	6.14	-46.2	-47.9	18.4	0.00e+00	0	43	0	59768832	64	4262
2026-01-23 02:02:53.95	28.41	6.44	-46.2	-47.9	18.6	0.00e+00	0	43	0	67108864	63	4495
2026-01-23 02:02:57.98	28.25	6.73	-46.3	-48.0	18.5	0.00e+00	0	43	0	74448896	63	4555
2026-01-23 02:03:02.01	28.09	7.03	-46.1	-47.8	18.7	0.00e+00	0	43	0	81788928	63	4477
2026-01-23 02:03:06.05	27.93	7.33	-46.3	-48.0	18.5	0.00e+00	0	43	0	90177536	63	4569
2026-01-23 02:03:10.07	27.77	7.64	-46.4	-48.2	18.4	0.00e+00	0	43	0	97517568	63	4660
2026-01-23 02:03:14.11	27.60	7.95	-46.3	-48.0	18.6	0.00e+00	0	43	0	104857600	63	4589
2026-01-23 02:03:18.14	27.42	8.26	-46.2	-47.8	18.7	0.00e+00	0	43	0	112197632	63	4483
2026-01-23 02:03:22.17	27.25	8.58	-46.0	-47.6	19.0	0.00e+00	0	43	0	119537664	63	4385
2026-01-23 02:03:26.21	27.06	8.90	-46.1	-47.7	19.0	0.00e+00	0	43	0	127926272	63	4407
2026-01-23 02:03:30.24	26.88	9.22	-45.9	-47.5	19.2	0.00e+00	0	43	0	135266304	63	4310
2026-01-23 02:03:34.27	26.69	9.55	-45.6	-47.1	19.5	0.00e+00	0	43	0	142606336	62	4378
2026-01-23 02:03:38.30	26.49	9.88	-45.5	-46.9	19.8	0.00e+00	0	43	0	149946368	62	4274
2026-01-23 02:03:42.33	26.29	10.22	-45.3	-46.7	20.0	0.00e+00	0	43	0	158334976	62	4157
2026-01-23 02:03:46.36	26.09	10.56	-45.3	-46.6	20.0	0.00e+00	0	43	0	165675008	62	4140
2026-01-23 02:03:50.39	25.88	10.90	-45.4	-46.8	20.0	0.00e+00	0	43	0	173015040	62	4194
2026-01-23 02:03:54.43	25.66	11.25	-45.3	-46.7	20.0	0.00e+00	0	43	0	180355072	62	4186
2026-01-23 02:03:58.46	25.44	11.61	-45.2	-46.5	20.2	0.00e+00	0	43	0	187695104	62	4095
2026-01-23 02:04:02.49	25.21	11.97	-45.3	-46.7	20.1	0.00e+00	0	43	0	195035136	62	4153
2026-01-23 02:04:06.52	24.98	12.33	-45.1	-46.5	20.3	0.00e+00	0	43	0	203423744	61	4292
2026-01-23 02:04:10.55	24.74	12.70	-45.1	-46.5	20.3	0.00e+00	0	43	0	210763776	61	4310
2026-01-23 02:04:14.59	24.49	13.07	-44.9	-46.3	20.5	0.00e+00	0	44	0	218103808	61	4195
2026-01-23 02:04:18.62	24.24	13.45	-45.0	-46.3	20.5	0.00e+00	0	43	0	225443840	61	4220
2026-01-23 02:04:22.65	23.98	13.83	-45.1	-46.4	20.4	0.00e+00	0	43	0	233832448	61	4285
2026-01-23 02:04:26.68	23.71	14.22	-45.1	-46.5	20.4	0.00e+00	0	43	0	241172480	61	4293
2026-01-23 02:04:30.72	23.44	14.62	-45.1	-46.4	20.4	0.00e+00	0	44	0	248512512	61	4289
2026-01-23 02:04:34.75	23.15	15.02	-45.1	-46.4	20.4	0.00e+00	0	44	0	255852544	61	4280
2026-01-23 02:04:38.78	22.86	15.43	-45.1	-46.4	20.5	0.00e+00	0	43	0	263192576	61	4272
2026-01-23 02:04:42.81	22.56	15.84	-45.1	-46.4	20.5	0.00e+00	0	43	0	271581184	61	4277
2026-01-23 02:04:46.84	22.25	16.26	-45.2	-46.5	20.4	0.00e+00	0	43	0	278921216	61	4332
2026-01-23 02:04:50.87	21.94	16.68	-45.2	-46.6	20.3	0.00e+00	0	44	0	286261248	61	4362
2026-01-23 02:04:54.91	21.61	17.12	-45.3	-46.6	20.3	0.00e+00	0	43	0	293601280	61	4372
2026-01-23 02:04:58.94	21.27	17.56	-45.3	-46.7	20.4	0.00e+00	0	44	0	301989888	61	4393
2026-01-23 02:05:02.96	20.93	18.00	-45.3	-46.6	20.4	0.00e+00	0	43	0	309329920	61	4374
2026-01-23 02:05:06.99	20.57	18.45	-45.3	-46.7	20.3	0.00e+00	0	43	0	316669952	61	4407
2026-01-23 02:05:11.03	20.20	18.91	-45.1	-46.3	20.6	0.00e+00	0	43	0	324009984	61	4242
2026-01-23 02:05:15.06	19.81	19.38	-45.4	-46.8	20.2	0.00e+00	0	44	0	331350016	61	4480
2026-01-23 02:05:19.09	19.42	19.86	-45.5	-46.9	20.1	0.00e+00	0	43	0	338690048	61	4526
2026-01-23 02:05:23.12	19.01	20.34	-45.4	-46.8	20.2	0.00e+00	0	43	0	347078656	61	4467
2026-01-23 02:05:27.15	18.59	20.83	-45.7	-47.1	20.0	0.00e+00	0	43	0	354418688	62	4359
2026-01-23 02:05:31.18	18.16	21.33	-45.9	-47.4	19.8	0.00e+00	0	44	0	361758720	62	4521
2026-01-23 02:05:35.21	17.71	21.83	-46.0	-47.4	19.8	0.00e+00	0	44	0	369098752	62	4527
2026-01-23 02:05:39.24	17.24	22.35	-45.5	-46.9	20.3	0.00e+00	0	44	0	377487360	62	4258
2026-01-23 02:05:43.28	16.76	22.87	-46.0	-47.4	19.8	0.00e+00	0	44	0	384827392	62	4538
2026-01-23 02:05:47.31	16.26	23.40	-46.4	-47.9	19.3	0.00e+00	0	44	0	392167424	63	4527
2026-01-23 02:05:51.34	15.75	23.94	-46.4	-48.0	19.1	0.00e+00	0	44	0	399507456	64	4333
2026-01-23 02:05:55.37	15.21	24.49	-46.5	-48.1	19.1	0.00e+00	0	44	0	406847488	64	4377
2026-01-23 02:05:59.41	14.65	25.05	-46.8	-48.6	18.6	0.00e+00	0	44	0	415236096	64	4616
2026-01-23 02:06:03.44	14.08	25.62	-47.0	-48.8	18.5	0.00e+00	0	44	0	422576128	64	4709
2026-01-23 02:06:07.47	13.48	26.19	-46.2	-47.7	19.5	0.00e+00	0	44	0	429916160	64	4168
2026-01-23 02:06:11.50	12.86	26.78	-45.8	-47.2	20.0	0.00e+00	0	44	0	437256192	63	4180
2026-01-23 02:06:15.53	12.22	27.37	-46.4	-48.0	19.4	0.00e+00	0	44	0	445644800	63	4569
2026-01-23 02:06:19.57	11.55	27.97	-45.9	-47.4	19.9	0.00e+00	0	44	0	452984832	63	4247
2026-01-23 02:06:23.60	10.85	28.58	-45.8	-47.2	20.0	0.00e+00	0	44	0	460324864	62	4434
2026-01-23 02:06:27.63	10.13	29.20	-46.6	-48.2	19.1	0.00e+00	0	44	0	467664896	63	4667
2026-01-23 02:06:31.67	9.38	29.83	-46.3	-47.8	19.5	0.00e+00	0	44	0	475004928	64	4204
2026-01-23 02:06:35.70	8.59	30.47	-46.8	-48.4	18.8	0.00e+00	0	44	0	482344960	64	4522
2026-01-23 02:06:39.73	7.78	31.11	-46.8	-48.4	18.9	0.00e+00	0	44	0	490733568	65	4268
2026-01-23 02:06:43.76	6.93	31.76	-47.1	-48.8	18.6	0.00e+00	0	44	0	498073600	64	4716
2026-01-23 02:06:47.79	6.05	32.42	-47.3	-49.1	18.3	0.00e+00	0	44	0	505413632	65	4609
2026-01-23 02:06:51.83	5.12	33.09	-47.0	-48.6	18.7	0.00e+00	0	44	0	512753664	65	4380
2026-01-23 02:06:55.86	4.16	33.76	-46.7	-48.3	19.1	0.00e+00	0	44	0	521142272	65	4195
2026-01-23 02:06:59.89	3.16	34.43	-47.8	-49.8	17.8	0.00e+00	0	44	0	528482304	66	4707
2026-01-23 02:07:03.92	2.12	35.11	-47.1	-48.7	18.7	0.00e+00	0	44	0	535822336	65	4440
2026-01-23 02:07:07.95	1.03	35.79	-47.4	-49.2	18.2	0.00e+00	0	44	0	543162368	65	4704
2026-01-23 02:07:11.98	359.89	36.48	-48.4	-50.7	16.8	0.00e+00	0	44	0	550502400	68	4656
2026-01-23 02:07:16.02	358.70	37.17	-47.3	-49.1	18.3	0.00e+00	0	44	0	558891008	66	4388
2026-01-23 02:07:20.04	357.47	37.85	-46.9	-48.6	18.8	0.00e+00	0	44	0	566231040	65	4365
2026-01-23 02:07:24.08	356.17	38.54	-47.1	-49.0	18.6	0.00e+00	0	44	0	573571072	65	4550
2026-01-23 02:07:28.11	354.83	39.22	-47.2	-49.0	18.5	0.00e+00	0	44	0	580911104	65	4575
2026-01-23 02:07:32.15	353.42	39.89	-47.8	-49.8	17.8	0.00e+00	0	44	0	588251136	66	4757
2026-01-23 02:07:36.18	351.95	40.56	-46.7	-48.3	19.1	0.00e+00	0	44	0	596639744	65	4209
2026-01-23 02:07:40.21	350.43	41.21	-47.8	-49.9	17.5	0.00e+00	0	44	0	603979776	66	4792
2026-01-23 02:07:44.24	348.84	41.86	-46.1	-47.5	19.9	0.00e+00	0	44	0	611319808	64	4091
2026-01-23 02:07:48.28	347.18	42.49	-47.6	-49.5	18.0	0.00e+00	0	44	0	618659840	65	4824
2026-01-23 02:07:52.32	345.45	43.10	-47.8	-49.9	17.7	0.00e+00	0	44	0	627048448	66	4768
2026-01-23 02:07:56.35	343.67	43.69	-45.3	-46.6	20.8	0.00e+00	0	44	0	634388480	62	4104
2026-01-23 02:08:00.38	341.81	44.26	-46.5	-48.1	19.5	0.00e+00	0	44	0	641728512	63	4623
2026-01-23 02:08:04.41	339.89	44.80	-45.3	-46.6	20.8	0.00e+00	0	44	0	649068544	62	4124
2026-01-23 02:08:08.45	337.91	45.31	-45.6	-47.0	20.4	0.00e+00	0	44	0	656408576	62	4308
2026-01-23 02:08:12.47	335.86	45.78	-44.9	-46.0	21.3	0.00e+00	0	44	0	664797184	61	4094
2026-01-23 02:08:16.51	333.75	46.22	-47.7	-49.8	17.8	0.00e+00	0	44	0	672137216	66	4709
2026-01-23 02:08:20.54	331.59	46.62	-49.7	-53.1	14.6	0.00e+00	0	44	0	679477248	70	5520
2026-01-23 02:08:24.56	329.37	46.98	-47.4	-49.3	18.1	0.00e+00	0	44	0	686817280	66	4473
2026-01-23 02:08:28.60	327.10	47.29	-47.8	-49.7	17.8	0.00e+00	0	44	0	694157312	67	4431
2026-01-23 02:08:32.63	324.79	47.56	-47.8	-49.9	17.8	0.00e+00	0	44	0	702545920	66	4762
2026-01-23 02:08:36.66	322.45	47.77	-46.2	-47.7	19.6	0.00e+00	0	44	0	709885952	64	4181
2026-01-23 02:08:40.70	320.07	47.93	-47.7	-49.8	17.7	0.00e+00	0	44	0	717225984	66	4734
2026-01-23 02:08:44.73	317.67	48.04	-45.5	-47.0	20.2	0.00e+00	0	44	0	724566016	63	4090
2026-01-23 02:08:48.76	315.26	48.09	-46.6	-48.4	19.0	0.00e+00	0	44	0	731906048	63	4779
2026-01-23 02:08:52.79	312.85	48.09	-47.7	-50.1	17.2	0.00e+00	0	44	0	740294656	66	4882
2026-01-23 02:08:56.82	310.45	48.03	-46.5	-48.4	18.9	0.00e+00	0	44	0	747634688	64	4505
2026-01-23 02:09:00.85	308.05	47.92	-45.7	-47.1	20.0	0.00e+00	0	44	0	754974720	63	4128
2026-01-23 02:09:04.88	305.68	47.75	-45.1	-46.5	20.6	0.00e+00	0	44	0	762314752	60	4574
2026-01-23 02:09:08.92	303.33	47.53	-46.8	-48.7	18.9	0.00e+00	0	44	0	770703360	64	4669
2026-01-23 02:09:12.95	301.02	47.27	-46.6	-48.4	19.0	0.00e+00	0	44	0	778043392	64	4498
2026-01-23 02:09:16.98	298.76	46.95	-46.4	-48.1	19.3	0.00e+00	0	44	0	785383424	64	4348
2026-01-23 02:09:21.02	296.54	46.59	-46.7	-48.4	19.0	0.00e+00	0	44	0	792723456	64	4517
2026-01-23 02:09:25.05	294.38	46.18	-47.8	-50.1	17.5	0.00e+00	0	44	0	800063488	66	4881
2026-01-23 02:09:29.08	292.27	45.74	-46.8	-48.5	18.8	0.00e+00	0	44	0	808452096	64	4580
2026-01-23 02:09:33.11	290.23	45.26	-46.0	-47.5	19.9	0.00e+00	0	44	0	815792128	62	4575
2026-01-23 02:09:37.14	288.25	44.75	-46.1	-47.7	19.7	0.00e+00	0	44	0	823132160	64	4155
2026-01-23 02:09:41.17	286.33	44.20	-46.3	-48.0	19.6	0.00e+00	0	44	0	830472192	63	4569
2026-01-23 02:09:45.20	284.49	43.63	-45.4	-46.8	20.6	0.00e+00	0	44	0	837812224	61	4453
2026-01-23 02:09:49.23	282.70	43.04	-44.7	-45.9	21.7	0.00e+00	0	44	0	846200832	59	4525
2026-01-23 02:09:53.27	280.98	42.43	-44.6	-45.8	21.8	0.00e+00	0	44	0	853540864	59	4454
2026-01-23 02:09:57.30	279.33	41.79	-45.3	-46.6	20.9	0.00e+00	0	44	0	860880896	61	4365
2026-01-23 02:10:01.33	277.74	41.15	-45.8	-47.1	20.4	0.00e+00	0	44	0	868220928	63	4143
2026-01-23 02:10:05.36	276.22	40.49	-45.2	-46.5	21.0	0.00e+00	0	44	0	875560960	61	4316
2026-01-23 02:10:09.40	274.75	39.82	-46.4	-47.9	19.8	0.00e+00	0	44	0	883949568	63	4539
2026-01-23 02:10:13.42	273.36	39.14	-46.7	-48.3	19.3	0.00e+00	0	44	0	891289600	64	4474
2026-01-23 02:10:17.46	272.01	38.46	-47.0	-48.7	19.0	0.00e+00	0	44	0	898629632	65	4410
2026-01-23 02:10:21.49	270.72	37.78	-46.9	-48.5	19.1	0.00e+00	0	44	0	905969664	64	4597
2026-01-23 02:10:25.52	269.48	37.09	-47.5	-49.2	18.4	0.00e+00	0	44	0	914358272	65	4676
2026-01-23 02:10:29.55	268.30	36.40	-48.6	-51.0	16.8	0.00e+00	0	44	0	921698304	68	4822
2026-01-23 02:10:33.59	267.16	35.71	-50.2	-53.4	14.4	0.00e+00	0	44	0	929038336	71	5373
2026-01-23 02:10:37.62	266.08	35.03	-49.1	-51.5	16.4	0.00e+00	0	44	0	936378368	68	5119
2026-01-23 02:10:41.65	265.03	34.35	-49.5	-52.1	15.7	0.00e+00	0	44	0	943718400	71	4601
2026-01-23 02:10:45.68	264.03	33.67	-48.3	-50.2	17.6	0.00e+00	0	44	0	951058432	68	4440
2026-01-23 02:10:49.71	263.07	33.00	-48.1	-50.0	17.7	0.00e+00	0	44	0	959447040	68	4330
2026-01-23 02:10:53.74	262.16	32.34	-47.0	-48.6	18.9	0.00e+00	0	44	0	966787072	64	4632
2026-01-23 02:10:57.77	261.27	31.68	-49.0	-51.4	16.3	0.00e+00	0	44	0	974127104	69	4779
2026-01-23 02:11:01.80	260.43	31.02	-48.0	-50.0	17.5	0.00e+00	0	44	0	981467136	67	4589
2026-01-23 02:11:05.83	259.61	30.38	-47.1	-48.7	18.8	0.00e+00	0	44	0	989855744	66	4151
2026-01-23 02:11:09.87	258.83	29.74	-47.7	-49.6	18.0	0.00e+00	0	44	0	997195776	65	4896
2026-01-23 02:11:13.89	258.08	29.12	-47.6	-49.4	18.1	0.00e+00	0	44	0	1004535808	67	4259
2026-01-23 02:11:17.93	257.36	28.49	-45.7	-47.0	20.5	0.00e+00	0	44	0	1011875840	63	4076
2026-01-23 02:11:21.96	256.66	27.88	-47.2	-48.9	18.6	0.00e+00	0	44	0	1019215872	64	4767
2026-01-23 02:11:26.00	255.99	27.28	-47.7	-49.6	17.9	0.00e+00	0	44	0	1027604480	67	4386
2026-01-23 02:11:30.03	255.35	26.69	-46.1	-47.5	19.9	0.00e+00	0	44	0	1034944512	63	4332
2026-01-23 02:11:34.06	254.73	26.10	-46.3	-47.8	19.6	0.00e+00	0	44	0	1042284544	63	4467
2026-01-23 02:11:38.09	254.13	25.53	-46.6	-48.2	19.2	0.00e+00	0	44	0	1049624576	64	4405
2026-01-23 02:11:42.13	253.56	24.96	-46.9	-48.6	18.7	0.00e+00	0	44	0	1058013184	64	4640
2026-01-23 02:11:46.16	253.00	24.40	-47.9	-49.9	17.5	0.00e+00	0	44	0	1065353216	66	4762
2026-01-23 02:11:50.20	252.46	23.85	-46.9	-48.5	18.8	0.00e+00	0	44	0	1072693248	65	4309
2026-01-23 02:11:54.23	251.95	23.31	-46.6	-48.1	19.2	0.00e+00	0	44	0	1080033280	64	4386
2026-01-23 02:11:58.26	251.45	22.78	-46.7	-48.3	19.0	0.00e+00	0	44	0	1087373312	64	4450
2026-01-23 02:12:02.30	250.97	22.25	-46.8	-48.4	18.9	0.00e+00	0	44	0	1094713344	64	4527
2026-01-23 02:12:06.33	250.50	21.74	-46.5	-48.0	19.2	0.00e+00	0	44	0	1103101952	64	4340
2026-01-23 02:12:10.36	250.05	21.23	-45.9	-47.3	19.9	0.00e+00	0	44	0	1110441984	63	4236
2026-01-23 02:12:14.40	249.62	20.73	-47.5	-49.4	17.9	0.00e+00	0	44	0	1117782016	65	4789
2026-01-23 02:12:18.43	249.19	20.24	-48.4	-50.7	16.6	0.00e+00	0	44	0	1125122048	67	4953
2026-01-23 02:12:22.47	248.79	19.76	-47.6	-49.6	17.7	0.00e+00	0	44	0	1133510656	67	4362
2026-01-23 02:12:26.50	248.39	19.28	-47.3	-49.2	18.0	0.00e+00	0	44	0	1140850688	66	4427
2026-01-23 02:12:30.53	248.01	18.82	-47.4	-49.2	18.0	0.00e+00	0	44	0	1148190720	66	4438
2026-01-23 02:12:34.57	247.64	18.35	-47.6	-49.5	17.8	0.00e+00	0	44	0	1155530752	66	4571
2026-01-23 02:12:38.60	247.28	17.90	-47.5	-49.5	17.8	0.00e+00	0	44	0	1162870784	66	4549
2026-01-23 02:12:42.64	246.93	17.45	-47.3	-49.2	18.0	0.00e+00	0	44	0	1171259392	66	4430
2026-01-23 02:12:46.67	246.59	17.02	-47.0	-48.8	18.5	0.00e+00	0	44	0	1178599424	66	4222
2026-01-23 02:12:50.70	246.26	16.58	-47.3	-49.1	18.1	0.00e+00	0	44	0	1185939456	65	4648
2026-01-23 02:12:54.73	245.95	16.16	-47.4	-49.3	17.9	0.00e+00	0	44	0	1193279488	65	4727
2026-01-23 02:12:58.77	245.64	15.74	-47.3	-49.1	18.0	0.00e+00	0	44	0	1200619520	65	4643
2026-01-23 02:13:02.80	245.34	15.33	-46.9	-48.6	18.4	0.00e+00	0	44	0	1209008128	65	4364
2026-01-23 02:13:06.83	245.04	14.92	-46.4	-48.0	19.0	0.00e+00	0	44	0	1216348160	64	4331
2026-01-23 02:13:10.86	244.76	14.52	-46.3	-47.9	19.1	0.00e+00	0	44	0	1223688192	64	4258
2026-01-23 02:13:14.89	244.48	14.12	-46.5	-48.1	18.9	0.00e+00	0	44	0	1231028224	64	4369
2026-01-23 02:13:18.92	244.22	13.73	-46.4	-48.0	19.0	0.00e+00	0	44	0	1239416832	64	4326
2026-01-23 02:13:22.95	243.95	13.35	-46.7	-48.3	18.7	0.00e+00	0	44	0	1246756864	64	4467
2026-01-23 02:13:26.98	243.70	12.97	-47.0	-48.7	18.2	0.00e+00	0	44	0	1254096896	64	4705
2026-01-23 02:13:31.02	243.45	12.60	-47.2	-49.0	18.0	0.00e+00	0	44	0	1261436928	65	4571
2026-01-23 02:13:35.05	243.21	12.23	-47.5	-49.4	17.6	0.00e+00	0	44	0	1268776960	65	4774
2026-01-23 02:13:39.08	242.98	11.86	-47.5	-49.5	17.5	0.00e+00	0	44	0	1277165568	66	4565
2026-01-23 02:13:43.11	242.75	11.51	-47.6	-49.6	17.4	0.00e+00	0	44	0	1284505600	66	4620
2026-01-23 02:13:47.14	242.52	11.15	-47.7	-49.7	17.2	0.00e+00	0	44	0	1291845632	66	4682
2026-01-23 02:13:51.17	242.31	10.80	-47.6	-49.5	17.4	0.00e+00	0	44	0	1299185664	66	4587
2026-01-23 02:13:55.21	242.09	10.46	-47.6	-49.6	17.3	0.00e+00	0	44	0	1306525696	66	4634
2026-01-23 02:13:59.24	241.89	10.12	-47.6	-49.7	17.2	0.00e+00	0	44	0	1314914304	66	4654
2026-01-23 02:14:03.27	241.69	9.78	-47.3	-49.2	17.6	0.00e+00	0	44	0	1322254336	66	4429
2026-01-23 02:14:07.30	241.49	9.45	-47.3	-49.3	17.6	0.00e+00	0	44	0	1329594368	66	4444
2026-01-23 02:14:11.33	241.30	9.12	-47.3	-49.3	17.5	0.00e+00	0	44	0	1336934400	66	4459
2026-01-23 02:14:15.37	241.11	8.80	-47.5	-49.5	17.3	0.00e+00	0	44	0	1344274432	66	4547
2026-01-23 02:14:19.39	240.93	8.48	-47.8	-50.0	16.8	0.00e+00	0	44	0	1352663040	66	4828
2026-01-23 02:14:23.43	240.75	8.16	-48.0	-50.2	16.5	0.00e+00	0	44	0	1360003072	66	4956
2026-01-23 02:14:27.46	240.57	7.85	-48.1	-50.5	16.2	0.00e+00	0	44	0	1367343104	67	4823
2026-01-23 02:14:31.49	240.40	7.54	-48.3	-50.8	15.9	0.00e+00	0	44	0	1374683136	67	5004
2026-01-23 02:14:35.52	240.23	7.23	-48.5	-51.0	15.6	0.00e+00	0	44	0	1383071744	67	5126
2026-01-23 02:14:39.56	240.07	6.93	-48.3	-50.7	15.8	0.00e+00	0	44	0	1390411776	67	4943
2026-01-23 02:14:43.59	239.91	6.63	-48.4	-51.0	15.6	0.00e+00	0	44	0	1397751808	67	5122
2026-01-23 02:14:47.62	239.75	6.33	-48.3	-50.7	15.8	0.00e+00	0	44	0	1405091840	67	4975
2026-01-23 02:14:51.65	239.60	6.04	-48.5	-51.1	15.4	0.00e+00	0	44	0	1412431872	67	5187
2026-01-23 02:14:55.68	239.45	5.75	-48.3	-50.7	15.7	0.00e+00	0	44	0	1420820480	67	4975
2026-01-23 02:14:59.72	239.30	5.46	-48.6	-51.3	15.1	0.00e+00	0	44	0	1428160512	67	5280
2026-01-23 02:15:03.75	239.16	5.18	-48.8	-51.6	14.9	0.00e+00	0	44	0	1435500544	68	5161
2026-01-23 02:15:07.78	239.02	4.90	-53.1	-68.1	3.8	1.49e+00	0	44	104	1440743424	76	21953
2026-01-23 02:15:11.81	238.88	4.62	-53.6	-68.7	3.8	1.49e+00	0	44	104	1440743424	77	22034
2026-01-23 02:15:15.85	238.75	4.34	-53.7	-68.7	3.8	1.49e+00	0	44	104	1440743424	77	22073
2026-01-23 02:15:19.88	238.61	4.07	-53.6	-68.6	3.8	1.49e+00	0	44	104	1440743424	77	21758
2026-01-23 02:15:23.91	238.49	3.80	-53.6	-68.6	3.8	1.49e+00	0	44	104	1440743424	77	21763
2026-01-23 02:15:27.94	238.36	3.53	-53.7	-68.7	3.8	1.49e+00	0	44	104	1440743424	77	22127
2026-01-23 02:15:31.97	238.23	3.27	-53.7	-68.7	3.8	1.49e+00	0	44	104	1440743424	78	20855
2026-01-23 02:15:36.01	238.11	3.00	-53.7	-68.7	3.8	1.49e+00	0	44	104	1440743424	78	20839
2026-01-23 02:15:40.04	237.99	2.74	-53.7	-68.6	3.8	1.49e+00	0	44	104	1440743424	78	20736
2026-01-23 02:15:44.08	237.88	2.48	-53.7	-68.7	3.8	1.49e+00	0	44	104	1440743424	78	20780
2026-01-23 02:15:48.11	237.76	2.23	-53.6	-68.6	3.8	1.49e+00	0	44	104	1440743424	78	20742

#Closed at: 2026-01-23 02:15:52
#Recorded file [1440 MB]: D:/lorett/data/31041_260123_050149.dat