passes_logs/2026/01/23/R3.2S_Murmansk/R3.2S_Murmansk__20260123_025929_FENGYUN_3D_rec.log

#Pass ID: 20260123_025929_FENGYUN 3D
#Satellite: FENGYUN 3D
#Configuration: FENGYUN 3D
#almurnet v.1.7.20251203
#Start time: 2026-01-23 02:59:28

#Version: 2.2.20231116
#Station: R3.2S_Murmansk
#Location: 33.079688 lon 68.888172 lat
#TLE: 1 43010U 17072A   26022.47411728  .00000617  00000+0  31375-3 0  9996
#TLE: 2 43010  98.9952 354.4060 0002481  95.7964 264.3494 14.19699924424319

#Time	Az	El	Level	Level2	SNR	BER	BlckErr	Temp	State	Recorded	gain1	gain2
2026-01-23 02:59:28.40	25.94	1.96	-53.3	-65.3	3.8	8.46e-01	0	41	0	0	78	14109
2026-01-23 02:59:32.43	25.93	2.22	-52.3	-64.2	3.8	8.46e-01	0	41	104	0	76	13906
2026-01-23 02:59:36.47	25.93	2.48	-52.3	-64.2	3.8	8.46e-01	0	42	104	0	76	13937
2026-01-23 02:59:40.51	25.92	2.74	-52.3	-64.2	3.8	8.45e-01	0	42	104	0	76	13907
2026-01-23 02:59:44.55	25.91	3.01	-52.3	-64.2	3.8	8.46e-01	0	42	104	0	76	13934
2026-01-23 02:59:48.58	25.91	3.28	-52.2	-63.9	3.8	8.46e-01	0	42	104	0	76	13466
2026-01-23 02:59:52.62	25.90	3.55	-51.9	-61.3	4.0	8.44e-01	0	42	104	0	75	10544
2026-01-23 02:59:56.65	25.89	3.82	-49.7	-53.2	9.7	3.74e-02	0	42	0	11534336	71	5275
2026-01-23 03:00:00.68	25.89	4.10	-45.6	-47.1	16.1	0.00e+00	0	42	0	33554432	63	4112
2026-01-23 03:00:04.72	25.88	4.38	-43.8	-44.9	18.6	0.00e+00	0	42	0	56623104	59	4022
2026-01-23 03:00:08.75	25.87	4.66	-43.8	-44.9	18.6	0.00e+00	0	43	0	79691776	59	4042
2026-01-23 03:00:12.79	25.86	4.94	-45.7	-47.2	16.0	0.00e+00	0	42	0	101711872	61	4672
2026-01-23 03:00:16.83	25.85	5.23	-47.7	-50.0	13.2	3.54e-05	0	43	0	124780544	65	5116
2026-01-23 03:00:20.86	25.84	5.52	-43.2	-44.2	19.5	0.00e+00	0	43	0	139460608	58	3947
2026-01-23 03:00:24.89	25.83	5.82	-42.8	-43.8	19.9	0.00e+00	0	43	0	161480704	57	3990
2026-01-23 03:00:28.92	25.82	6.12	-42.9	-43.9	19.9	0.00e+00	0	43	0	184549376	57	4035
2026-01-23 03:00:32.95	25.81	6.42	-42.8	-43.7	20.1	0.00e+00	0	43	0	207618048	57	3953
2026-01-23 03:00:36.99	25.79	6.72	-42.5	-43.5	20.4	0.00e+00	0	43	0	229638144	57	3855
2026-01-23 03:00:41.03	25.78	7.03	-42.8	-43.8	20.1	0.00e+00	0	43	0	252706816	56	4239
2026-01-23 03:00:45.06	25.77	7.34	-42.4	-43.4	20.6	0.00e+00	0	43	0	275775488	56	4016
2026-01-23 03:00:49.09	25.75	7.66	-42.1	-43.1	21.0	0.00e+00	0	43	0	297795584	56	3870
2026-01-23 03:00:53.13	25.74	7.98	-42.2	-43.1	20.9	0.00e+00	0	43	0	320864256	56	3893
2026-01-23 03:00:57.17	25.72	8.30	-42.1	-43.0	21.1	0.00e+00	0	43	0	343932928	56	3865
2026-01-23 03:01:01.20	25.70	8.63	-42.3	-43.3	20.9	0.00e+00	0	43	0	367001600	56	3961
2026-01-23 03:01:05.23	25.69	8.96	-41.9	-42.8	21.3	0.00e+00	0	43	0	389021696	55	3965
2026-01-23 03:01:09.27	25.67	9.30	-41.8	-42.6	21.5	0.00e+00	0	43	0	412090368	55	3912
2026-01-23 03:01:13.30	25.65	9.64	-41.8	-42.7	21.4	0.00e+00	0	43	0	435159040	55	3944
2026-01-23 03:01:17.33	25.63	9.99	-41.7	-42.6	21.6	0.00e+00	0	43	0	457179136	55	3889
2026-01-23 03:01:21.37	25.61	10.34	-41.8	-42.6	21.5	0.00e+00	0	43	0	480247808	55	3909
2026-01-23 03:01:25.39	25.59	10.70	-41.6	-42.4	21.7	0.00e+00	0	43	0	502267904	54	4041
2026-01-23 03:01:29.43	25.56	11.06	-41.5	-42.4	21.8	0.00e+00	0	43	0	525336576	54	4009
2026-01-23 03:01:33.46	25.54	11.43	-41.5	-42.4	21.8	0.00e+00	0	43	0	547356672	54	4024
2026-01-23 03:01:37.49	25.51	11.80	-41.6	-42.5	21.8	0.00e+00	0	43	0	570425344	54	4053
2026-01-23 03:01:41.53	25.49	12.18	-41.5	-42.3	21.9	0.00e+00	0	43	0	593494016	54	3983
2026-01-23 03:01:45.57	25.46	12.57	-41.3	-42.2	22.1	0.00e+00	0	43	0	615514112	54	3933
2026-01-23 03:01:49.60	25.43	12.96	-41.3	-42.1	22.2	0.00e+00	0	44	0	638582784	54	3886
2026-01-23 03:01:53.64	25.40	13.35	-41.2	-42.1	22.2	0.00e+00	0	43	0	661651456	54	3883
2026-01-23 03:01:57.67	25.37	13.76	-41.0	-41.8	22.5	0.00e+00	0	44	0	683671552	54	3779
2026-01-23 03:02:01.71	25.34	14.17	-40.8	-41.6	22.7	0.00e+00	0	44	0	706740224	53	3889
2026-01-23 03:02:05.74	25.31	14.59	-40.5	-41.3	23.0	0.00e+00	0	43	0	729808896	53	3754
2026-01-23 03:02:09.78	25.27	15.01	-40.4	-41.2	23.1	0.00e+00	0	43	0	751828992	52	3948
2026-01-23 03:02:13.81	25.23	15.44	-40.3	-41.1	23.2	0.00e+00	0	43	0	774897664	52	3897
2026-01-23 03:02:17.84	25.20	15.88	-40.1	-40.9	23.4	0.00e+00	0	44	0	797966336	52	3785
2026-01-23 03:02:21.87	25.16	16.33	-40.0	-40.8	23.5	0.00e+00	0	43	0	819986432	52	3750
2026-01-23 03:02:25.90	25.11	16.79	-39.9	-40.7	23.7	0.00e+00	0	44	0	843055104	51	3939
2026-01-23 03:02:29.93	25.07	17.26	-39.9	-40.6	23.8	0.00e+00	0	44	0	866123776	51	3894
2026-01-23 03:02:33.96	25.02	17.73	-39.6	-40.3	24.1	0.00e+00	0	44	0	888143872	51	3775
2026-01-23 03:02:38.00	24.98	18.21	-39.5	-40.2	24.2	0.00e+00	0	44	0	911212544	51	3734
2026-01-23 03:02:42.03	24.93	18.71	-39.5	-40.2	24.2	0.00e+00	0	43	0	933232640	51	3737
2026-01-23 03:02:46.06	24.88	19.21	-39.4	-40.1	24.3	0.00e+00	0	44	0	956301312	50	3895
2026-01-23 03:02:50.09	24.82	19.72	-39.4	-40.1	24.3	0.00e+00	0	44	0	978321408	50	3903
2026-01-23 03:02:54.12	24.77	20.25	-39.2	-39.9	24.5	0.00e+00	0	44	0	1001390080	50	3803
2026-01-23 03:02:58.16	24.71	20.79	-39.0	-39.7	24.6	0.00e+00	0	44	0	1024458752	49	3951
2026-01-23 03:03:02.19	24.65	21.33	-39.0	-39.7	24.7	0.00e+00	0	44	0	1046478848	49	3931
2026-01-23 03:03:06.22	24.58	21.89	-38.9	-39.7	24.7	0.00e+00	0	43	0	1069547520	49	3920
2026-01-23 03:03:10.25	24.51	22.47	-38.8	-39.5	24.8	0.00e+00	0	44	0	1092616192	49	3844
2026-01-23 03:03:14.28	24.44	23.05	-38.7	-39.4	25.0	0.00e+00	0	44	0	1114636288	49	3811
2026-01-23 03:03:18.31	24.37	23.65	-38.4	-39.1	25.2	0.00e+00	0	44	0	1137704960	48	3906
2026-01-23 03:03:22.35	24.29	24.26	-38.3	-39.0	25.3	0.00e+00	0	44	0	1160773632	48	3832
2026-01-23 03:03:26.38	24.21	24.89	-38.4	-39.1	25.3	0.00e+00	0	44	0	1182793728	48	3874
2026-01-23 03:03:30.41	24.12	25.54	-38.4	-39.1	25.3	0.00e+00	0	44	0	1205862400	48	3872
2026-01-23 03:03:34.44	24.03	26.19	-38.3	-39.0	25.4	0.00e+00	0	43	0	1228931072	48	3843
2026-01-23 03:03:38.47	23.94	26.87	-38.1	-38.8	25.6	0.00e+00	0	44	0	1250951168	48	3760
2026-01-23 03:03:42.50	23.84	27.56	-38.2	-38.9	25.5	0.00e+00	0	44	0	1274019840	48	3797
2026-01-23 03:03:46.53	23.74	28.27	-38.4	-39.1	25.4	0.00e+00	0	44	0	1297088512	48	3888
2026-01-23 03:03:50.57	23.63	29.00	-38.4	-39.1	25.3	0.00e+00	0	44	0	1319108608	48	3907
2026-01-23 03:03:54.60	23.51	29.75	-38.5	-39.2	25.3	0.00e+00	0	44	0	1341128704	48	3952
2026-01-23 03:03:58.63	23.39	30.52	-38.1	-38.8	25.7	0.00e+00	0	44	0	1364197376	48	3752
2026-01-23 03:04:02.66	23.26	31.31	-37.6	-38.3	25.6	0.00e+00	0	44	0	1387266048	47	3756
2026-01-23 03:04:06.69	23.12	32.12	-37.7	-38.4	25.5	0.00e+00	0	44	0	1409286144	47	3808
2026-01-23 03:04:10.72	22.98	32.95	-37.9	-38.6	25.4	0.00e+00	0	44	0	1432354816	47	3888
2026-01-23 03:04:14.76	22.82	33.81	-37.8	-38.5	25.4	0.00e+00	0	44	0	1455423488	47	3852
2026-01-23 03:04:18.79	22.66	34.70	-37.5	-38.2	25.7	0.00e+00	0	44	0	1477443584	46	3946
2026-01-23 03:04:22.82	22.49	35.60	-37.3	-37.9	26.0	0.00e+00	0	44	0	1500512256	46	3824
2026-01-23 03:04:26.85	22.31	36.54	-37.1	-37.8	26.1	0.00e+00	0	44	0	1523580928	46	3756
2026-01-23 03:04:30.88	22.11	37.50	-37.3	-38.0	25.9	0.00e+00	0	44	0	1545601024	46	3832
2026-01-23 03:04:34.91	21.90	38.48	-37.1	-37.8	26.1	0.00e+00	0	44	0	1568669696	46	3770
2026-01-23 03:04:38.95	21.68	39.50	-37.5	-38.2	25.8	0.00e+00	0	44	0	1591738368	46	3918
2026-01-23 03:04:42.98	21.44	40.55	-37.9	-38.7	25.4	0.00e+00	0	44	0	1613758464	46	4153
2026-01-23 03:04:47.01	21.19	41.63	-38.0	-38.7	25.4	0.00e+00	0	44	0	1636827136	46	4159
2026-01-23 03:04:51.04	20.91	42.74	-37.9	-38.5	25.5	0.00e+00	0	44	0	1659895808	46	4097
2026-01-23 03:04:55.07	20.62	43.89	-37.7	-38.4	25.6	0.00e+00	0	44	0	1681915904	46	4039
2026-01-23 03:04:59.11	20.30	45.07	-37.9	-38.6	25.4	0.00e+00	0	44	0	1704984576	46	4135
2026-01-23 03:05:03.14	19.95	46.28	-38.2	-38.9	25.2	0.00e+00	0	44	0	1727004672	47	4041
2026-01-23 03:05:07.17	19.58	47.53	-37.9	-38.6	25.5	0.00e+00	0	44	0	1750073344	47	3882
2026-01-23 03:05:11.21	19.17	48.82	-38.3	-39.0	25.2	0.00e+00	0	44	0	1773142016	47	4067
2026-01-23 03:05:15.24	18.73	50.14	-38.0	-38.7	25.5	0.00e+00	0	44	0	1795162112	47	3919
2026-01-23 03:05:19.28	18.24	51.50	-39.3	-40.0	24.9	0.00e+00	0	44	0	1818230784	49	4065
2026-01-23 03:05:23.31	17.70	52.90	-39.5	-40.2	24.7	0.00e+00	0	44	0	1841299456	49	4162
2026-01-23 03:05:27.34	17.11	54.33	-39.8	-40.5	24.4	0.00e+00	0	44	0	1863319552	50	4095
2026-01-23 03:05:31.37	16.45	55.80	-39.1	-39.8	25.1	0.00e+00	0	44	0	1886388224	50	3758
2026-01-23 03:05:35.41	15.72	57.32	-39.1	-39.8	25.1	0.00e+00	0	44	0	1909456896	49	3977
2026-01-23 03:05:39.44	14.90	58.86	-38.6	-39.2	25.6	0.00e+00	0	44	0	1931476992	48	3956
2026-01-23 03:05:43.47	13.97	60.44	-37.6	-38.3	25.9	0.00e+00	0	44	0	1954545664	47	3749
2026-01-23 03:05:47.50	12.91	62.05	-37.4	-38.1	26.0	0.00e+00	0	44	0	1977614336	46	3891
2026-01-23 03:05:51.54	11.71	63.69	-37.8	-38.5	25.7	0.00e+00	0	44	0	1999634432	46	4062
2026-01-23 03:05:55.57	10.31	65.36	-37.3	-38.0	26.1	0.00e+00	0	44	0	2022703104	46	3840
2026-01-23 03:05:59.61	8.69	67.05	-37.4	-38.0	26.1	0.00e+00	0	44	0	2045771776	46	3864
2026-01-23 03:06:03.64	6.78	68.75	-37.4	-38.1	26.1	0.00e+00	0	44	0	2067791872	46	3881
2026-01-23 03:06:07.67	4.50	70.46	-36.7	-37.4	26.6	0.00e+00	0	44	0	2089811968	45	3792
2026-01-23 03:06:11.70	1.76	72.16	-36.3	-36.9	27.0	0.00e+00	0	44	0	2112880640	44	3815
2026-01-23 03:06:15.73	358.40	73.84	-36.5	-37.1	26.8	0.00e+00	0	44	0	2135949312	44	3897
2026-01-23 03:06:19.77	354.22	75.48	-36.4	-37.0	27.0	0.00e+00	0	44	0	2157969408	44	3861
2026-01-23 03:06:23.80	348.98	77.04	-36.1	-36.7	27.2	0.00e+00	0	44	0	2181038080	44	3737
2026-01-23 03:06:27.84	342.29	78.48	-36.0	-36.6	27.2	0.00e+00	0	44	0	2204106752	43	3904
2026-01-23 03:06:31.87	333.80	79.73	-35.1	-35.7	27.9	0.00e+00	0	44	0	2226126848	42	3724
2026-01-23 03:06:35.90	323.21	80.72	-35.0	-35.6	28.0	0.00e+00	0	44	0	2249195520	42	3684
2026-01-23 03:06:39.93	310.61	81.32	-34.7	-35.3	28.2	0.00e+00	0	44	0	2272264192	41	3779
2026-01-23 03:06:43.96	296.87	81.46	-34.9	-35.5	28.1	0.00e+00	0	44	0	2294284288	41	3854
2026-01-23 03:06:48.00	283.42	81.12	-35.3	-36.0	27.7	0.00e+00	0	44	0	2317352960	41	4054
2026-01-23 03:06:52.03	271.61	80.34	-35.4	-36.1	27.6	0.00e+00	0	44	0	2340421632	41	4111
2026-01-23 03:06:56.06	261.91	79.23	-35.4	-36.0	27.7	0.00e+00	0	44	0	2362441728	41	4074
2026-01-23 03:07:00.09	254.23	77.89	-35.2	-35.8	27.8	0.00e+00	0	44	0	2385510400	41	4002
2026-01-23 03:07:04.12	248.20	76.39	-35.8	-36.4	27.4	0.00e+00	0	44	0	2408579072	42	4040
2026-01-23 03:07:08.16	243.43	74.79	-35.7	-36.4	27.5	0.00e+00	0	44	0	2430599168	42	4008
2026-01-23 03:07:12.19	239.63	73.13	-36.2	-36.9	27.0	0.00e+00	0	44	0	2452619264	43	4017
2026-01-23 03:07:16.22	236.55	71.44	-36.7	-37.3	26.8	0.00e+00	0	44	0	2475687936	44	3997
2026-01-23 03:07:20.25	234.01	69.73	-37.6	-38.3	26.0	0.00e+00	0	44	0	2498756608	45	4219
2026-01-23 03:07:24.29	231.89	68.02	-37.6	-38.3	26.0	0.00e+00	0	44	0	2520776704	46	3984
2026-01-23 03:07:28.32	230.11	66.32	-37.0	-37.7	26.5	0.00e+00	0	44	0	2543845376	45	3935
2026-01-23 03:07:32.35	228.59	64.64	-37.0	-37.6	26.5	0.00e+00	0	44	0	2566914048	45	3908
2026-01-23 03:07:36.38	227.28	62.98	-37.2	-37.8	26.4	0.00e+00	0	44	0	2588934144	45	3994
2026-01-23 03:07:40.41	226.14	61.35	-37.6	-38.3	25.9	0.00e+00	0	44	0	2612002816	45	4235
2026-01-23 03:07:44.44	225.14	59.75	-37.8	-38.5	25.8	0.00e+00	0	44	0	2635071488	46	4057
2026-01-23 03:07:48.48	224.26	58.18	-38.7	-39.4	25.0	0.00e+00	0	44	0	2657091584	47	4282
2026-01-23 03:07:52.51	223.48	56.65	-39.3	-40.0	25.0	0.00e+00	0	44	0	2680160256	49	4070
2026-01-23 03:07:56.54	222.78	55.15	-38.9	-39.6	25.3	0.00e+00	0	44	0	2703228928	49	3876
2026-01-23 03:08:00.57	222.15	53.69	-38.9	-39.6	25.3	0.00e+00	0	44	0	2725249024	49	3898
2026-01-23 03:08:04.60	221.58	52.27	-38.8	-39.5	25.4	0.00e+00	0	44	0	2748317696	49	3838
2026-01-23 03:08:08.63	221.06	50.89	-38.9	-39.6	25.3	0.00e+00	0	44	0	2771386368	49	3903
2026-01-23 03:08:12.67	220.59	49.54	-38.4	-39.1	25.7	0.00e+00	0	44	0	2793406464	48	3905
2026-01-23 03:08:16.70	220.16	48.23	-38.2	-38.9	25.9	0.00e+00	0	44	0	2816475136	48	3791
2026-01-23 03:08:20.73	219.77	46.95	-38.4	-39.0	25.7	0.00e+00	0	44	0	2838495232	48	3867
2026-01-23 03:08:24.76	219.40	45.72	-38.2	-38.9	25.9	0.00e+00	0	44	0	2861563904	48	3784
2026-01-23 03:08:28.79	219.07	44.52	-38.2	-38.9	25.9	0.00e+00	0	44	0	2883584000	48	3786
2026-01-23 03:08:32.82	218.76	43.35	-37.5	-38.2	26.1	0.00e+00	0	44	0	2906652672	47	3697
2026-01-23 03:08:36.86	218.47	42.21	-37.5	-38.2	25.9	0.00e+00	0	44	0	2929721344	46	3947
2026-01-23 03:08:40.89	218.20	41.11	-37.4	-38.1	26.0	0.00e+00	0	44	0	2951741440	46	3895
2026-01-23 03:08:44.92	217.96	40.04	-37.0	-37.7	26.3	0.00e+00	0	44	0	2974810112	46	3713
2026-01-23 03:08:48.94	217.72	39.01	-37.2	-37.9	26.2	0.00e+00	0	44	0	2997878784	46	3796
2026-01-23 03:08:52.98	217.51	38.00	-37.1	-37.8	26.2	0.00e+00	0	44	0	3019898880	46	3739
2026-01-23 03:08:57.01	217.30	37.02	-37.0	-37.6	26.3	0.00e+00	0	44	0	3042967552	45	3913
2026-01-23 03:09:01.05	217.11	36.07	-37.3	-38.0	26.0	0.00e+00	0	44	0	3066036224	45	4081
2026-01-23 03:09:05.08	216.93	35.14	-37.6	-38.3	25.7	0.00e+00	0	44	0	3088056320	45	4233
2026-01-23 03:09:09.12	216.76	34.24	-37.8	-38.5	25.5	0.00e+00	0	44	0	3111124992	46	4092
2026-01-23 03:09:13.15	216.60	33.37	-37.7	-38.4	25.6	0.00e+00	0	44	0	3134193664	46	4034
2026-01-23 03:09:17.18	216.45	32.52	-37.5	-38.2	25.8	0.00e+00	0	44	0	3156213760	46	3950
2026-01-23 03:09:21.22	216.31	31.69	-37.7	-38.4	25.6	0.00e+00	0	44	0	3179282432	46	4020
2026-01-23 03:09:25.25	216.18	30.89	-37.6	-38.3	25.7	0.00e+00	0	44	0	3201302528	46	3967
2026-01-23 03:09:29.29	216.05	30.10	-37.5	-38.2	25.8	0.00e+00	0	44	0	3224371200	46	3918
2026-01-23 03:09:33.32	215.93	29.34	-37.6	-38.3	25.7	0.00e+00	0	44	0	3247439872	46	3967
2026-01-23 03:09:37.35	215.81	28.60	-37.7	-38.4	25.5	0.00e+00	0	44	0	3269459968	46	4037
2026-01-23 03:09:41.39	215.70	27.87	-37.9	-38.7	25.3	0.00e+00	0	44	0	3292528640	46	4151
2026-01-23 03:09:45.43	215.60	27.17	-38.0	-38.7	25.2	0.00e+00	0	44	0	3315597312	46	4188
2026-01-23 03:09:49.46	215.50	26.48	-37.9	-38.6	25.3	0.00e+00	0	44	0	3337617408	46	4145
2026-01-23 03:09:53.49	215.41	25.81	-37.9	-38.6	25.3	0.00e+00	0	44	0	3360686080	46	4121
2026-01-23 03:09:57.53	215.32	25.16	-37.9	-38.6	25.3	0.00e+00	0	44	0	3383754752	46	4122
2026-01-23 03:10:01.56	215.23	24.52	-37.9	-38.6	25.2	0.00e+00	0	44	0	3405774848	46	4141
2026-01-23 03:10:05.60	215.15	23.90	-38.1	-38.8	25.1	0.00e+00	0	44	0	3428843520	46	4229
2026-01-23 03:10:09.63	215.07	23.29	-38.2	-38.9	25.0	0.00e+00	0	44	0	3451912192	47	4043
2026-01-23 03:10:13.67	215.00	22.69	-38.2	-38.9	25.0	0.00e+00	0	44	0	3473932288	47	4038
2026-01-23 03:10:17.70	214.93	22.11	-38.2	-38.9	24.9	0.00e+00	0	44	0	3497000960	47	4047
2026-01-23 03:10:21.74	214.86	21.54	-38.4	-39.1	24.8	0.00e+00	0	44	0	3520069632	47	4136
2026-01-23 03:10:25.77	214.80	20.99	-38.4	-39.1	24.8	0.00e+00	0	44	0	3542089728	47	4140
2026-01-23 03:10:29.81	214.73	20.44	-38.6	-39.3	24.6	0.00e+00	0	44	0	3565158400	47	4227
2026-01-23 03:10:33.84	214.67	19.91	-38.7	-39.4	24.5	0.00e+00	0	44	0	3587178496	47	4266
2026-01-23 03:10:37.88	214.62	19.39	-39.2	-39.9	24.5	0.00e+00	0	44	0	3610247168	48	4271
2026-01-23 03:10:41.91	214.56	18.88	-39.3	-40.0	24.4	0.00e+00	0	44	0	3633315840	49	4064
2026-01-23 03:10:45.94	214.51	18.38	-39.5	-40.3	24.2	0.00e+00	0	44	0	3655335936	49	4196
2026-01-23 03:10:49.97	214.46	17.89	-39.6	-40.3	24.1	0.00e+00	0	44	0	3678404608	50	3987
2026-01-23 03:10:54.00	214.41	17.41	-39.7	-40.5	24.0	0.00e+00	0	44	0	3701473280	50	4069
2026-01-23 03:10:58.04	214.36	16.93	-40.0	-40.7	23.8	0.00e+00	0	44	0	3723493376	50	4176
2026-01-23 03:11:02.08	214.32	16.47	-40.1	-40.8	23.6	0.00e+00	0	44	0	3746562048	51	3995
2026-01-23 03:11:06.11	214.28	16.02	-40.2	-40.9	23.5	0.00e+00	0	44	0	3769630720	51	4043
2026-01-23 03:11:10.14	214.24	15.57	-40.2	-41.0	23.5	0.00e+00	0	44	0	3791650816	51	4057
2026-01-23 03:11:14.17	214.20	15.13	-40.3	-41.1	23.3	0.00e+00	0	44	0	3814719488	51	4121
2026-01-23 03:11:18.20	214.16	14.70	-40.4	-41.2	23.3	0.00e+00	0	44	0	3837788160	51	4147
2026-01-23 03:11:22.23	214.12	14.28	-40.5	-41.2	23.2	0.00e+00	0	44	0	3859808256	51	4183
2026-01-23 03:11:26.27	214.09	13.87	-40.6	-41.3	23.0	0.00e+00	0	44	0	3882876928	51	4231
2026-01-23 03:11:30.30	214.05	13.46	-40.6	-41.4	22.9	0.00e+00	0	44	0	3905945600	52	4035
2026-01-23 03:11:34.33	214.02	13.06	-40.7	-41.5	22.8	0.00e+00	0	44	0	3927965696	52	4057
2026-01-23 03:11:38.37	213.99	12.66	-40.8	-41.6	22.6	0.00e+00	0	44	0	3949985792	52	4142
2026-01-23 03:11:42.40	213.96	12.27	-40.9	-41.7	22.6	0.00e+00	0	44	0	3973054464	52	4157
2026-01-23 03:11:46.43	213.93	11.89	-41.0	-41.8	22.4	0.00e+00	0	44	0	3996123136	52	4229
2026-01-23 03:11:50.46	213.90	11.51	-41.0	-41.9	22.4	0.00e+00	0	44	0	4018143232	52	4247
2026-01-23 03:11:54.49	213.88	11.14	-41.3	-42.2	22.1	0.00e+00	0	44	0	4041211904	53	4150
2026-01-23 03:11:58.52	213.85	10.78	-41.1	-42.0	22.3	0.00e+00	0	44	0	4064280576	53	4057
2026-01-23 03:12:02.55	213.82	10.42	-41.3	-42.1	22.1	0.00e+00	0	44	0	4086300672	53	4127
2026-01-23 03:12:06.59	213.80	10.06	-41.6	-42.5	21.8	0.00e+00	0	44	0	4109369344	53	4292
2026-01-23 03:12:10.62	213.78	9.71	-41.6	-42.5	21.7	0.00e+00	0	44	0	4132438016	53	4312
2026-01-23 03:12:14.65	213.76	9.37	-41.5	-42.4	21.8	0.00e+00	0	44	0	4154458112	53	4247
2026-01-23 03:12:18.68	213.73	9.03	-41.7	-42.6	21.6	0.00e+00	0	44	0	4177526784	54	4110
2026-01-23 03:12:22.72	213.71	8.69	-42.0	-42.9	21.3	0.00e+00	0	44	0	4200595456	54	4248
2026-01-23 03:12:26.75	213.69	8.36	-41.9	-42.8	21.4	0.00e+00	0	44	0	4222615552	54	4202
2026-01-23 03:12:30.79	213.67	8.03	-42.0	-42.9	21.2	0.00e+00	0	44	0	4245684224	54	4262
2026-01-23 03:12:34.82	213.66	7.71	-42.3	-43.2	20.8	0.00e+00	0	44	0	4268752896	55	4184
2026-01-23 03:12:38.85	213.64	7.39	-42.3	-43.2	20.8	0.00e+00	0	44	0	4290772992	55	4180
2026-01-23 03:12:42.88	213.62	7.08	-42.2	-43.2	20.8	0.00e+00	0	44	0	4312793088	55	4162
2026-01-23 03:12:46.92	213.61	6.76	-42.5	-43.4	20.5	0.00e+00	0	44	0	4335861760	55	4291
2026-01-23 03:12:50.95	213.59	6.46	-42.7	-43.7	20.3	0.00e+00	0	44	0	4358930432	55	4410
2026-01-23 03:12:54.99	213.57	6.15	-42.6	-43.6	20.4	0.00e+00	0	44	0	4380950528	56	4100
2026-01-23 03:12:59.02	213.56	5.85	-42.8	-43.8	20.2	0.00e+00	0	44	0	4404019200	56	4222
2026-01-23 03:13:03.05	213.55	5.56	-42.9	-43.9	20.0	0.00e+00	0	44	0	4427087872	57	4036
2026-01-23 03:13:07.08	213.53	5.26	-42.9	-43.9	20.0	0.00e+00	0	44	0	4449107968	57	4047
2026-01-23 03:13:11.11	213.52	4.97	-52.9	-64.8	3.8	8.45e-01	0	44	104	4470079488	76	14945
2026-01-23 03:13:15.14	213.51	4.69	-53.8	-65.8	3.8	8.46e-01	0	44	104	4470079488	78	14958
2026-01-23 03:13:19.18	213.50	4.40	-54.1	-66.0	3.8	8.47e-01	0	44	104	4470079488	78	15342
2026-01-23 03:13:23.21	213.48	4.12	-54.1	-66.1	3.8	8.46e-01	0	44	104	4470079488	78	15485
2026-01-23 03:13:27.24	213.47	3.84	-54.2	-66.2	3.8	8.46e-01	0	44	104	4470079488	78	15597
2026-01-23 03:13:31.27	213.46	3.57	-54.1	-66.1	3.8	8.46e-01	0	44	104	4470079488	78	15502
2026-01-23 03:13:35.30	213.45	3.29	-53.8	-65.8	3.8	8.47e-01	0	44	104	4470079488	78	14883
2026-01-23 03:13:39.34	213.44	3.02	-53.8	-65.7	3.8	8.46e-01	0	44	104	4470079488	78	14838
2026-01-23 03:13:43.37	213.43	2.76	-53.7	-65.7	3.8	8.46e-01	0	44	104	4470079488	78	14759
2026-01-23 03:13:47.40	213.43	2.49	-53.7	-65.7	3.8	8.46e-01	0	44	104	4470079488	78	14771
2026-01-23 03:13:51.43	213.42	2.23	-53.7	-65.7	3.8	8.45e-01	0	44	104	4470079488	78	14750

#Closed at: 2026-01-23 03:13:55
#Recorded file [4470 MB]: D:/lorett/data/31041_260123_055928.dat