passes_logs/2026/01/23/R3.2S_Murmansk/R3.2S_Murmansk__20260123_063023_NOAA_21_JPSS-2_rec.log

#Pass ID: 20260123_063023_NOAA 21 (JPSS-2)
#Satellite: NOAA 21 (JPSS-2)
#Configuration: NOAA-21
#almurnet v.1.7.20251203
#Start time: 2026-01-23 06:30:23

#Version: 2.2.20231116
#Station: R3.2S_Murmansk
#Location: 33.079688 lon 68.888172 lat
#TLE: 1 54234U 22150A   26022.41365820  .00000211  00000+0  12084-3 0  9990
#TLE: 2 54234  98.7507 323.2240 0000658 234.5287 125.5828 14.19537645165864

#Time	Az	El	Level	Level2	SNR	BER	BlckErr	Temp	State	Recorded	gain1	gain2
2026-01-23 06:30:23.76	85.16	2.04	-54.5	-67.4	3.8	1.49e+00	0	41	0	0	79	16966
2026-01-23 06:30:27.79	84.93	2.27	-54.3	-67.1	3.8	1.49e+00	0	41	104	0	79	16390
2026-01-23 06:30:31.82	84.69	2.51	-53.9	-66.7	3.8	1.49e+00	0	41	104	0	79	15716
2026-01-23 06:30:35.85	84.46	2.75	-53.3	-66.1	3.8	1.49e+00	0	41	104	0	78	15443
2026-01-23 06:30:39.88	84.21	2.99	-52.3	-65.1	3.8	1.49e+00	0	41	104	0	76	15410
2026-01-23 06:30:43.91	83.97	3.23	-52.3	-65.0	3.8	1.49e+00	0	42	104	0	76	15273
2026-01-23 06:30:47.94	83.72	3.47	-52.3	-65.0	3.8	1.49e+00	0	42	104	0	76	15337
2026-01-23 06:30:51.98	83.46	3.72	-52.2	-64.6	3.8	1.49e+00	0	42	104	0	76	14651
2026-01-23 06:30:56.01	83.20	3.97	-52.1	-63.3	3.9	1.49e+00	0	42	104	0	76	12548
2026-01-23 06:31:00.04	82.93	4.22	-51.9	-60.7	4.4	1.47e+00	0	42	104	0	75	9944
2026-01-23 06:31:04.07	82.67	4.47	-49.4	-52.7	11.1	3.25e-03	0	42	0	10485760	70	5259
2026-01-23 06:31:08.10	82.39	4.72	-47.5	-49.6	14.3	3.00e-06	0	42	0	23068672	67	4358
2026-01-23 06:31:12.13	82.11	4.97	-47.9	-50.2	13.7	2.20e-06	0	42	0	35651584	66	4931
2026-01-23 06:31:16.16	81.83	5.23	-52.2	-64.7	3.8	1.49e+00	0	42	104	47185920	74	16689
2026-01-23 06:31:20.20	81.54	5.49	-45.1	-46.4	17.7	0.00e+00	0	42	0	56623104	61	4245
2026-01-23 06:31:24.23	81.24	5.75	-45.0	-46.3	17.8	0.00e+00	0	42	0	69206016	61	4214
2026-01-23 06:31:28.26	80.94	6.01	-45.0	-46.3	17.9	0.00e+00	0	42	0	82837504	61	4210
2026-01-23 06:31:32.30	80.63	6.27	-45.1	-46.4	17.9	0.00e+00	0	42	0	95420416	61	4274
2026-01-23 06:31:36.33	80.32	6.53	-44.9	-46.2	18.1	0.00e+00	0	42	0	106954752	61	4157
2026-01-23 06:31:40.36	80.00	6.80	-44.8	-46.0	18.4	0.00e+00	0	42	0	120586240	61	4079
2026-01-23 06:31:44.39	79.68	7.07	-44.7	-45.8	18.5	0.00e+00	0	43	0	133169152	61	3994
2026-01-23 06:31:48.43	79.35	7.34	-44.4	-45.6	18.8	0.00e+00	0	43	0	145752064	60	4107
2026-01-23 06:31:52.46	79.01	7.61	-44.5	-45.6	18.8	0.00e+00	0	43	0	158334976	60	4129
2026-01-23 06:31:56.49	78.67	7.89	-44.3	-45.4	19.0	0.00e+00	0	43	0	170917888	60	4031
2026-01-23 06:32:00.53	78.31	8.16	-44.5	-45.6	18.8	0.00e+00	0	43	0	183500800	60	4139
2026-01-23 06:32:04.56	77.96	8.44	-44.3	-45.4	19.5	0.00e+00	0	43	0	196083712	59	4248
2026-01-23 06:32:08.59	77.59	8.72	-44.6	-45.8	19.1	0.00e+00	0	43	0	208666624	59	4447
2026-01-23 06:32:12.63	77.22	9.01	-44.5	-45.6	19.3	0.00e+00	0	43	0	221249536	59	4351
2026-01-23 06:32:16.66	76.84	9.29	-44.1	-45.1	19.7	0.00e+00	0	43	0	233832448	59	4121
2026-01-23 06:32:20.69	76.45	9.58	-44.0	-45.1	19.8	0.00e+00	0	43	0	246415360	59	4104
2026-01-23 06:32:24.73	76.06	9.87	-43.9	-44.9	20.0	0.00e+00	0	43	0	258998272	59	4011
2026-01-23 06:32:28.77	75.65	10.16	-43.7	-44.7	20.2	0.00e+00	0	43	0	271581184	59	3928
2026-01-23 06:32:32.80	75.24	10.45	-43.3	-44.2	20.6	0.00e+00	0	43	0	284164096	58	3944
2026-01-23 06:32:36.83	74.82	10.74	-43.5	-44.4	20.4	0.00e+00	0	43	0	296747008	58	4043
2026-01-23 06:32:40.86	74.39	11.04	-43.4	-44.3	20.6	0.00e+00	0	43	0	309329920	58	3995
2026-01-23 06:32:44.89	73.95	11.34	-43.3	-44.2	20.7	0.00e+00	0	43	0	321912832	58	3956
2026-01-23 06:32:48.92	73.51	11.64	-42.9	-43.8	21.1	0.00e+00	0	43	0	334495744	57	3988
2026-01-23 06:32:52.95	73.05	11.94	-42.8	-43.7	21.2	0.00e+00	0	43	0	347078656	57	3914
2026-01-23 06:32:56.98	72.58	12.24	-43.1	-44.0	20.9	0.00e+00	0	43	0	359661568	57	4075
2026-01-23 06:33:01.01	72.11	12.55	-42.9	-43.8	21.1	0.00e+00	0	43	0	372244480	57	3977
2026-01-23 06:33:05.04	71.62	12.86	-43.1	-44.0	21.0	0.00e+00	0	43	0	384827392	57	4080
2026-01-23 06:33:09.08	71.12	13.17	-42.9	-43.8	21.2	0.00e+00	0	43	0	397410304	57	3962
2026-01-23 06:33:13.11	70.61	13.48	-42.9	-43.8	21.1	0.00e+00	0	43	0	409993216	57	3984
2026-01-23 06:33:17.14	70.09	13.79	-42.9	-43.8	21.1	0.00e+00	0	43	0	422576128	57	3987
2026-01-23 06:33:21.17	69.56	14.10	-43.0	-43.9	21.1	0.00e+00	0	43	0	435159040	57	4021
2026-01-23 06:33:25.21	69.02	14.42	-42.9	-43.8	21.1	0.00e+00	0	43	0	447741952	57	3988
2026-01-23 06:33:29.24	68.46	14.74	-43.0	-43.9	21.0	0.00e+00	0	43	0	460324864	57	4043
2026-01-23 06:33:33.27	67.90	15.06	-43.2	-44.1	21.0	0.00e+00	0	43	0	472907776	57	4120
2026-01-23 06:33:37.30	67.32	15.38	-43.1	-43.9	21.1	0.00e+00	0	43	0	485490688	57	4046
2026-01-23 06:33:41.33	66.73	15.70	-43.2	-44.1	20.9	0.00e+00	0	43	0	498073600	57	4108
2026-01-23 06:33:45.36	66.12	16.02	-43.4	-44.3	20.8	0.00e+00	0	43	0	510656512	57	4205
2026-01-23 06:33:49.39	65.51	16.34	-43.4	-44.3	20.8	0.00e+00	0	43	0	523239424	57	4234
2026-01-23 06:33:53.42	64.87	16.67	-43.4	-44.3	20.7	0.00e+00	0	43	0	535822336	57	4220
2026-01-23 06:33:57.46	64.23	16.99	-43.6	-44.6	20.5	0.00e+00	0	43	0	548405248	58	4120
2026-01-23 06:34:01.48	63.57	17.31	-43.3	-44.2	20.9	0.00e+00	0	43	0	560988160	58	3937
2026-01-23 06:34:05.51	62.89	17.64	-43.1	-44.0	21.0	0.00e+00	0	43	0	573571072	58	3850
2026-01-23 06:34:09.54	62.20	17.96	-43.1	-43.9	21.1	0.00e+00	0	43	0	586153984	58	3821
2026-01-23 06:34:13.57	61.50	18.29	-42.9	-43.8	21.3	0.00e+00	0	43	0	598736896	57	3991
2026-01-23 06:34:17.61	60.78	18.61	-42.9	-43.8	21.4	0.00e+00	0	43	0	611319808	57	3965
2026-01-23 06:34:21.64	60.04	18.94	-42.6	-43.5	21.6	0.00e+00	0	43	0	623902720	57	3837
2026-01-23 06:34:25.67	59.29	19.26	-42.6	-43.4	21.6	0.00e+00	0	43	0	636485632	56	4048
2026-01-23 06:34:29.70	58.52	19.58	-42.4	-43.3	21.8	0.00e+00	0	43	0	649068544	56	3965
2026-01-23 06:34:33.73	57.74	19.90	-42.3	-43.1	21.7	0.00e+00	0	43	0	661651456	56	3902
2026-01-23 06:34:37.76	56.94	20.22	-42.6	-43.5	21.5	0.00e+00	0	43	0	674234368	56	4059
2026-01-23 06:34:41.80	56.12	20.54	-42.3	-43.1	21.8	0.00e+00	0	43	0	686817280	56	3913
2026-01-23 06:34:45.83	55.28	20.86	-42.4	-43.3	21.6	0.00e+00	0	43	0	699400192	56	3979
2026-01-23 06:34:49.86	54.43	21.17	-42.1	-42.9	22.0	0.00e+00	0	43	0	711983104	56	3824
2026-01-23 06:34:53.89	53.56	21.48	-42.2	-43.0	22.1	0.00e+00	0	43	0	724566016	56	3850
2026-01-23 06:34:57.93	52.67	21.78	-42.2	-43.0	22.1	0.00e+00	0	43	0	737148928	56	3838
2026-01-23 06:35:01.96	51.76	22.08	-42.2	-43.0	21.9	0.00e+00	0	43	0	749731840	56	3837
2026-01-23 06:35:05.99	50.84	22.38	-42.3	-43.1	21.9	0.00e+00	0	43	0	762314752	56	3911
2026-01-23 06:35:10.02	49.90	22.67	-42.2	-43.1	22.0	0.00e+00	0	43	0	774897664	56	3870
2026-01-23 06:35:14.05	48.94	22.96	-42.2	-43.0	22.1	0.00e+00	0	43	0	787480576	56	3851
2026-01-23 06:35:18.09	47.96	23.24	-42.4	-43.2	21.9	0.00e+00	0	43	0	800063488	56	3952
2026-01-23 06:35:22.12	46.97	23.52	-42.5	-43.3	21.9	0.00e+00	0	43	0	812646400	56	3982
2026-01-23 06:35:26.15	45.96	23.78	-42.7	-43.6	21.6	0.00e+00	0	43	0	825229312	56	4116
2026-01-23 06:35:30.18	44.93	24.04	-42.5	-43.3	21.9	0.00e+00	0	43	0	838860800	56	3967
2026-01-23 06:35:34.21	43.88	24.30	-42.4	-43.2	22.0	0.00e+00	0	43	0	850395136	56	3928
2026-01-23 06:35:38.24	42.82	24.54	-42.2	-43.0	22.1	0.00e+00	0	43	0	862978048	56	3857
2026-01-23 06:35:42.28	41.74	24.78	-42.6	-43.5	21.6	0.00e+00	0	43	0	876609536	56	4073
2026-01-23 06:35:46.31	40.64	25.01	-42.7	-43.5	21.7	0.00e+00	0	43	0	889192448	56	4080
2026-01-23 06:35:50.35	39.53	25.23	-42.4	-43.2	22.0	0.00e+00	0	43	0	900726784	56	3951
2026-01-23 06:35:54.38	38.40	25.43	-42.0	-42.8	22.3	0.00e+00	0	43	0	914358272	56	3763
2026-01-23 06:35:58.41	37.26	25.63	-41.8	-42.6	22.4	0.00e+00	0	44	0	926941184	55	3905
2026-01-23 06:36:02.44	36.10	25.81	-41.9	-42.7	22.3	0.00e+00	0	43	0	938475520	55	3943
2026-01-23 06:36:06.47	34.93	25.99	-41.9	-42.6	22.4	0.00e+00	0	43	0	952107008	55	3913
2026-01-23 06:36:10.50	33.75	26.15	-41.7	-42.5	22.5	0.00e+00	0	43	0	964689920	55	3828
2026-01-23 06:36:14.53	32.56	26.30	-41.8	-42.6	22.4	0.00e+00	0	44	0	977272832	55	3901
2026-01-23 06:36:18.57	31.36	26.43	-42.0	-42.8	22.2	0.00e+00	0	43	0	989855744	55	3995
2026-01-23 06:36:22.60	30.14	26.55	-42.1	-42.9	22.2	0.00e+00	0	43	0	1002438656	55	4026
2026-01-23 06:36:26.63	28.92	26.66	-42.2	-43.0	22.0	0.00e+00	0	43	0	1015021568	55	4094
2026-01-23 06:36:30.67	27.69	26.76	-42.2	-43.0	22.0	0.00e+00	0	43	0	1027604480	55	4077
2026-01-23 06:36:34.69	26.46	26.84	-42.4	-43.2	21.9	0.00e+00	0	43	0	1040187392	55	4157
2026-01-23 06:36:38.73	25.21	26.90	-42.5	-43.4	21.7	0.00e+00	0	43	0	1052770304	55	4252
2026-01-23 06:36:42.76	23.97	26.95	-42.3	-43.1	22.0	0.00e+00	0	43	0	1065353216	55	4141
2026-01-23 06:36:46.79	22.72	26.99	-42.2	-43.0	22.0	0.00e+00	0	43	0	1077936128	55	4084
2026-01-23 06:36:50.82	21.46	27.01	-42.3	-43.1	22.0	0.00e+00	0	43	0	1090519040	55	4124
2026-01-23 06:36:54.86	20.21	27.01	-42.5	-43.4	21.7	0.00e+00	0	43	0	1103101952	55	4248
2026-01-23 06:36:58.89	18.96	27.00	-42.5	-43.4	21.8	0.00e+00	0	43	0	1115684864	55	4260
2026-01-23 06:37:02.92	17.71	26.97	-42.0	-42.8	22.3	0.00e+00	0	43	0	1128267776	55	3961
2026-01-23 06:37:06.96	16.45	26.93	-42.1	-42.9	22.2	0.00e+00	0	43	0	1140850688	55	4007
2026-01-23 06:37:10.98	15.21	26.88	-42.0	-42.8	22.3	0.00e+00	0	43	0	1153433600	55	3982
2026-01-23 06:37:15.02	13.97	26.81	-42.2	-43.0	22.1	0.00e+00	0	43	0	1166016512	55	4077
2026-01-23 06:37:19.05	12.74	26.72	-42.1	-42.9	22.2	0.00e+00	0	43	0	1178599424	55	4026
2026-01-23 06:37:23.08	11.51	26.62	-42.1	-42.9	22.2	0.00e+00	0	43	0	1191182336	55	4008
2026-01-23 06:37:27.11	10.29	26.51	-42.1	-42.9	22.2	0.00e+00	0	43	0	1203765248	55	4019
2026-01-23 06:37:31.14	9.08	26.38	-42.2	-43.0	22.1	0.00e+00	0	43	0	1216348160	55	4083
2026-01-23 06:37:35.17	7.89	26.24	-42.0	-42.8	22.2	0.00e+00	0	43	0	1228931072	55	3984
2026-01-23 06:37:39.21	6.70	26.09	-41.9	-42.7	22.2	0.00e+00	0	43	0	1241513984	55	3942
2026-01-23 06:37:43.24	5.52	25.92	-42.0	-42.7	22.3	0.00e+00	0	43	0	1254096896	55	3958
2026-01-23 06:37:47.27	4.36	25.75	-41.9	-42.7	22.3	0.00e+00	0	43	0	1266679808	55	3949
2026-01-23 06:37:51.30	3.21	25.56	-42.0	-42.8	22.3	0.00e+00	0	43	0	1279262720	55	3961
2026-01-23 06:37:55.34	2.07	25.36	-42.0	-42.8	22.3	0.00e+00	0	43	0	1291845632	55	3981
2026-01-23 06:37:59.38	0.95	25.15	-42.1	-42.9	22.2	0.00e+00	0	43	0	1304428544	55	4046
2026-01-23 06:38:03.41	359.84	24.92	-42.0	-42.7	22.3	0.00e+00	0	43	0	1317011456	55	3955
2026-01-23 06:38:07.44	358.76	24.69	-42.3	-43.1	22.0	0.00e+00	0	43	0	1329594368	55	4121
2026-01-23 06:38:11.47	357.68	24.45	-41.9	-42.7	22.3	0.00e+00	0	43	0	1342177280	55	3934
2026-01-23 06:38:15.50	356.63	24.21	-42.4	-43.2	21.8	0.00e+00	0	43	0	1354760192	55	4189
2026-01-23 06:38:19.54	355.59	23.95	-42.2	-43.0	21.9	0.00e+00	0	43	0	1367343104	55	4093
2026-01-23 06:38:23.57	354.56	23.69	-41.6	-42.4	22.5	0.00e+00	0	43	0	1379926016	55	3782
2026-01-23 06:38:27.60	353.56	23.42	-42.1	-42.9	22.1	0.00e+00	0	43	0	1392508928	55	4017
2026-01-23 06:38:31.63	352.57	23.14	-42.1	-42.9	22.1	0.00e+00	0	43	0	1405091840	55	4025
2026-01-23 06:38:35.66	351.60	22.86	-42.0	-42.8	22.3	0.00e+00	0	43	0	1417674752	55	3959
2026-01-23 06:38:39.70	350.65	22.57	-41.8	-42.6	22.4	0.00e+00	0	43	0	1430257664	55	3894
2026-01-23 06:38:43.73	349.72	22.27	-42.0	-42.8	22.3	0.00e+00	0	43	0	1442840576	55	3973
2026-01-23 06:38:47.76	348.80	21.97	-42.6	-43.4	21.7	0.00e+00	0	43	0	1455423488	55	4285
2026-01-23 06:38:51.79	347.91	21.67	-42.3	-43.2	22.0	0.00e+00	0	43	0	1468006400	55	4147
2026-01-23 06:38:55.83	347.02	21.37	-42.0	-42.7	22.3	0.00e+00	0	43	0	1480589312	55	3957
2026-01-23 06:38:59.86	346.16	21.06	-42.3	-43.1	21.9	0.00e+00	0	43	0	1493172224	55	4140
2026-01-23 06:39:03.90	345.31	20.74	-42.4	-43.2	21.8	0.00e+00	0	43	0	1505755136	55	4191
2026-01-23 06:39:07.93	344.49	20.43	-42.7	-43.5	21.5	0.00e+00	0	43	0	1518338048	55	4325
2026-01-23 06:39:11.96	343.68	20.11	-42.3	-43.1	21.9	0.00e+00	0	43	0	1531969536	55	4113
2026-01-23 06:39:15.99	342.88	19.79	-42.0	-42.8	22.2	0.00e+00	0	43	0	1543503872	55	3992
2026-01-23 06:39:20.02	342.11	19.47	-42.6	-43.5	21.6	0.00e+00	0	43	0	1556086784	55	4295
2026-01-23 06:39:24.05	341.35	19.15	-42.7	-43.5	21.5	0.00e+00	0	43	0	1568669696	55	4328
2026-01-23 06:39:28.08	340.60	18.83	-42.8	-43.7	21.4	0.00e+00	0	43	0	1582301184	56	4170
2026-01-23 06:39:32.12	339.87	18.50	-42.9	-43.8	21.2	0.00e+00	0	43	0	1593835520	56	4214
2026-01-23 06:39:36.15	339.16	18.18	-42.8	-43.6	21.5	0.00e+00	0	43	0	1606418432	56	4129
2026-01-23 06:39:40.18	338.46	17.85	-42.7	-43.5	21.6	0.00e+00	0	43	0	1620049920	56	4072
2026-01-23 06:39:44.21	337.78	17.53	-42.5	-43.4	21.8	0.00e+00	0	43	0	1632632832	56	4005
2026-01-23 06:39:48.24	337.11	17.20	-42.6	-43.4	21.7	0.00e+00	0	43	0	1644167168	56	4026
2026-01-23 06:39:52.28	336.46	16.88	-42.7	-43.6	21.5	0.00e+00	0	43	0	1657798656	56	4117
2026-01-23 06:39:56.31	335.82	16.55	-42.8	-43.6	21.4	0.00e+00	0	43	0	1670381568	56	4135
2026-01-23 06:40:00.35	335.19	16.23	-42.6	-43.5	21.6	0.00e+00	0	43	0	1681915904	56	4054
2026-01-23 06:40:04.39	334.58	15.91	-42.9	-43.8	21.3	0.00e+00	0	43	0	1695547392	56	4217
2026-01-23 06:40:08.42	333.98	15.59	-43.3	-44.2	20.9	0.00e+00	0	43	0	1708130304	57	4184
2026-01-23 06:40:12.45	333.39	15.27	-42.8	-43.6	21.3	0.00e+00	0	43	0	1720713216	57	3898
2026-01-23 06:40:16.49	332.82	14.95	-42.9	-43.7	21.3	0.00e+00	0	43	0	1733296128	57	3949
2026-01-23 06:40:20.52	332.26	14.63	-43.4	-44.3	20.8	0.00e+00	0	43	0	1745879040	57	4215
2026-01-23 06:40:24.55	331.71	14.31	-43.6	-44.5	20.5	0.00e+00	0	43	0	1758461952	57	4315
2026-01-23 06:40:28.59	331.17	14.00	-43.2	-44.1	20.9	0.00e+00	0	43	0	1771044864	57	4120
2026-01-23 06:40:32.62	330.65	13.68	-43.2	-44.1	20.9	0.00e+00	0	44	0	1783627776	57	4135
2026-01-23 06:40:36.65	330.13	13.37	-43.6	-44.5	20.6	0.00e+00	0	43	0	1796210688	57	4333
2026-01-23 06:40:40.69	329.63	13.06	-43.5	-44.5	20.5	0.00e+00	0	43	0	1808793600	57	4297
2026-01-23 06:40:44.73	329.14	12.75	-43.2	-44.1	20.8	0.00e+00	0	43	0	1821376512	57	4145
2026-01-23 06:40:48.76	328.65	12.45	-42.8	-43.7	21.2	0.00e+00	0	43	0	1833959424	57	3940
2026-01-23 06:40:52.79	328.18	12.14	-42.9	-43.8	21.2	0.00e+00	0	43	0	1846542336	57	3986
2026-01-23 06:40:56.82	327.72	11.84	-43.7	-44.7	20.4	0.00e+00	0	43	0	1859125248	58	4167
2026-01-23 06:41:00.85	327.27	11.54	-44.0	-45.0	20.0	0.00e+00	0	44	0	1871708160	58	4306
2026-01-23 06:41:04.88	326.83	11.24	-43.7	-44.6	20.2	0.00e+00	0	44	0	1884291072	58	4139
2026-01-23 06:41:08.92	326.39	10.94	-43.1	-44.0	20.9	0.00e+00	0	43	0	1896873984	58	3833
2026-01-23 06:41:12.95	325.97	10.65	-43.4	-44.4	20.6	0.00e+00	0	44	0	1909456896	58	4013
2026-01-23 06:41:16.98	325.55	10.35	-44.0	-45.0	20.0	0.00e+00	0	43	0	1922039808	58	4305
2026-01-23 06:41:21.01	325.14	10.06	-44.4	-45.4	19.6	0.00e+00	0	43	0	1934622720	59	4278
2026-01-23 06:41:25.04	324.75	9.77	-44.6	-45.7	19.3	0.00e+00	0	44	0	1947205632	59	4392
2026-01-23 06:41:29.08	324.35	9.49	-44.1	-45.2	19.7	0.00e+00	0	43	0	1959788544	59	4167
2026-01-23 06:41:33.11	323.97	9.20	-44.4	-45.5	19.4	0.00e+00	0	44	0	1972371456	59	4323
2026-01-23 06:41:37.14	323.60	8.92	-44.5	-45.6	19.3	0.00e+00	0	44	0	1984954368	59	4364
2026-01-23 06:41:41.17	323.23	8.64	-44.6	-45.8	19.2	0.00e+00	0	44	0	1997537280	59	4449
2026-01-23 06:41:45.20	322.87	8.36	-44.5	-45.6	19.0	0.00e+00	0	44	0	2010120192	60	4119
2026-01-23 06:41:49.24	322.51	8.08	-44.8	-45.9	18.6	0.00e+00	0	43	0	2022703104	60	4280
2026-01-23 06:41:53.27	322.17	7.80	-44.8	-46.0	18.5	0.00e+00	0	43	0	2035286016	60	4311
2026-01-23 06:41:57.30	321.83	7.53	-44.6	-45.8	18.7	0.00e+00	0	44	0	2047868928	60	4196
2026-01-23 06:42:01.34	321.49	7.26	-44.5	-45.6	18.8	0.00e+00	0	43	0	2060451840	60	4128
2026-01-23 06:42:05.37	321.16	6.99	-44.7	-45.8	18.7	0.00e+00	0	43	0	2073034752	60	4221
2026-01-23 06:42:09.40	320.84	6.72	-44.8	-46.0	18.4	0.00e+00	0	43	0	2085617664	60	4323
2026-01-23 06:42:13.43	320.53	6.46	-45.1	-46.3	18.2	0.00e+00	0	43	0	2098200576	60	4457
2026-01-23 06:42:17.47	320.22	6.19	-45.4	-46.7	17.7	0.00e+00	0	44	0	2110783488	61	4423
2026-01-23 06:42:21.50	319.92	5.93	-45.6	-46.9	17.5	0.00e+00	0	44	0	2123366400	61	4545
2026-01-23 06:42:25.53	319.62	5.67	-45.4	-46.8	17.6	0.00e+00	0	43	0	2135949312	61	4447
2026-01-23 06:42:29.57	319.33	5.41	-45.2	-46.5	17.7	0.00e+00	0	43	0	2148532224	61	4337
2026-01-23 06:42:33.60	319.04	5.16	-45.0	-46.2	18.0	0.00e+00	0	43	0	2161115136	61	4176
2026-01-23 06:42:37.63	318.76	4.90	-52.9	-65.8	3.8	1.49e+00	0	44	104	2171600896	76	16739
2026-01-23 06:42:41.66	318.48	4.65	-53.3	-66.0	3.8	1.49e+00	0	44	104	2171600896	77	16237
2026-01-23 06:42:45.69	318.21	4.40	-53.3	-66.0	3.8	1.49e+00	0	44	104	2171600896	77	16197
2026-01-23 06:42:49.73	317.94	4.15	-53.5	-66.2	3.8	1.49e+00	0	44	104	2171600896	77	16653
2026-01-23 06:42:53.76	317.68	3.90	-53.7	-66.4	3.8	1.49e+00	0	44	104	2171600896	77	16999
2026-01-23 06:42:57.79	317.43	3.65	-53.7	-66.4	3.8	1.49e+00	0	44	104	2171600896	77	17025
2026-01-23 06:43:01.82	317.17	3.41	-53.6	-66.4	3.8	1.49e+00	0	44	104	2171600896	77	17047
2026-01-23 06:43:05.85	316.92	3.16	-53.6	-66.4	3.8	1.49e+00	0	44	104	2171600896	77	16972
2026-01-23 06:43:09.89	316.68	2.92	-53.6	-66.4	3.8	1.49e+00	0	44	104	2171600896	77	17034
2026-01-23 06:43:13.92	316.44	2.68	-53.6	-66.4	3.8	1.49e+00	0	44	104	2171600896	77	16971
2026-01-23 06:43:17.95	316.21	2.45	-53.6	-66.4	3.8	1.49e+00	0	44	104	2171600896	77	16927
2026-01-23 06:43:21.98	315.97	2.21	-53.6	-66.4	3.8	1.49e+00	0	44	104	2171600896	77	16911
2026-01-23 06:43:26.02	315.75	1.97	-53.6	-66.4	3.8	1.49e+00	0	44	104	2171600896	77	16894

#Closed at: 2026-01-23 06:43:26
#Recorded file [2171 MB]: D:/lorett/data/31041_260123_093023.dat