passes_logs/2026/01/23/R3.2S_Murmansk/R3.2S_Murmansk__20260123_113038_NOAA_21_JPSS-2_rec.log

#Pass ID: 20260123_113038_NOAA 21 (JPSS-2)
#Satellite: NOAA 21 (JPSS-2)
#Configuration: NOAA-21
#almurnet v.1.7.20251203
#Start time: 2026-01-23 11:31:02

#Version: 2.2.20231116
#Station: R3.2S_Murmansk
#Location: 33.079688 lon 68.888172 lat
#TLE: 1 54234U 22150A   26022.41365820  .00000211  00000+0  12084-3 0  9990
#TLE: 2 54234  98.7507 323.2240 0000658 234.5287 125.5828 14.19537645165864

#Time	Az	El	Level	Level2	SNR	BER	BlckErr	Temp	State	Recorded	gain1	gain2
2026-01-23 11:31:02.99	202.92	3.48	-53.4	-65.4	3.8	8.46e-01	0	42	0	0	77	15092
2026-01-23 11:31:07.02	203.18	3.73	-54.4	-67.2	3.8	1.49e+00	0	43	104	0	79	16634
2026-01-23 11:31:11.05	203.45	3.97	-54.5	-67.3	3.8	1.49e+00	0	43	104	0	79	16839
2026-01-23 11:31:15.09	203.72	4.22	-54.6	-67.4	3.8	1.49e+00	0	42	104	0	79	16911
2026-01-23 11:31:19.13	203.99	4.47	-54.6	-67.4	3.8	1.49e+00	0	43	104	0	79	17017
2026-01-23 11:31:23.16	204.28	4.72	-54.6	-67.4	3.8	1.49e+00	0	43	104	0	79	16956
2026-01-23 11:31:27.19	204.56	4.98	-54.6	-67.4	3.8	1.49e+00	0	43	104	0	79	16891
2026-01-23 11:31:31.22	204.85	5.23	-54.5	-67.3	3.8	1.49e+00	0	43	104	0	79	16742
2026-01-23 11:31:35.25	205.14	5.49	-54.5	-67.3	3.8	1.49e+00	0	43	104	0	79	16764
2026-01-23 11:31:39.28	205.44	5.75	-54.5	-67.3	3.8	1.49e+00	0	43	104	0	79	16728
2026-01-23 11:31:43.31	205.75	6.01	-54.4	-67.2	3.8	1.49e+00	0	43	104	0	79	16657
2026-01-23 11:31:47.35	206.06	6.28	-54.4	-67.2	3.8	1.49e+00	0	43	104	0	79	16558
2026-01-23 11:31:51.38	206.37	6.54	-54.4	-67.1	3.8	1.49e+00	0	43	104	0	79	16484
2026-01-23 11:31:55.41	206.69	6.81	-54.3	-67.1	3.8	1.49e+00	0	43	104	0	79	16473
2026-01-23 11:31:59.45	207.02	7.08	-54.6	-67.4	3.8	1.49e+00	0	43	104	0	79	16997
2026-01-23 11:32:03.48	207.35	7.35	-54.6	-67.4	3.8	1.49e+00	0	43	104	0	79	16974
2026-01-23 11:32:07.52	207.69	7.62	-54.5	-67.2	3.8	1.49e+00	0	43	104	0	79	16655
2026-01-23 11:32:11.55	208.03	7.90	-54.3	-67.1	3.8	1.49e+00	0	43	104	0	79	16393
2026-01-23 11:32:15.59	208.38	8.18	-54.1	-66.8	3.8	1.49e+00	0	43	104	0	79	15833
2026-01-23 11:32:19.62	208.74	8.46	-44.8	-45.8	18.3	1.40e+00	0	43	104	0	61	3966
2026-01-23 11:32:23.65	209.10	8.74	-47.7	-49.5	15.6	0.00e+00	0	43	0	11534336	65	4835
2026-01-23 11:32:27.69	209.48	9.03	-44.8	-46.0	18.9	0.00e+00	0	43	0	24117248	61	4062
2026-01-23 11:32:31.72	209.85	9.31	-44.3	-45.3	19.5	0.00e+00	0	43	0	36700160	60	4001
2026-01-23 11:32:35.75	210.24	9.60	-44.4	-45.4	19.5	0.00e+00	0	43	0	49283072	60	4041
2026-01-23 11:32:39.79	210.63	9.89	-44.3	-45.3	19.6	0.00e+00	0	43	0	61865984	60	3987
2026-01-23 11:32:43.82	211.03	10.19	-44.1	-45.1	19.8	0.00e+00	0	43	0	74448896	60	3904
2026-01-23 11:32:47.85	211.44	10.48	-44.2	-45.2	20.0	0.00e+00	0	42	0	87031808	59	4181
2026-01-23 11:32:51.89	211.85	10.78	-44.3	-45.3	20.0	0.00e+00	0	43	0	99614720	59	4204
2026-01-23 11:32:55.92	212.27	11.08	-44.1	-45.0	20.2	0.00e+00	0	42	0	112197632	59	4098
2026-01-23 11:32:59.95	212.71	11.39	-43.9	-44.9	20.3	0.00e+00	0	43	0	124780544	59	4034
2026-01-23 11:33:03.99	213.15	11.69	-43.7	-44.7	20.6	0.00e+00	0	43	0	137363456	59	3920
2026-01-23 11:33:08.03	213.60	12.00	-43.7	-44.7	20.6	0.00e+00	0	42	0	149946368	59	3923
2026-01-23 11:33:12.06	214.05	12.31	-43.7	-44.7	20.6	0.00e+00	0	43	0	162529280	59	3917
2026-01-23 11:33:16.09	214.52	12.62	-43.6	-44.5	20.8	0.00e+00	0	42	0	175112192	59	3844
2026-01-23 11:33:20.12	215.00	12.94	-43.5	-44.4	20.8	0.00e+00	0	43	0	187695104	59	3802
2026-01-23 11:33:24.16	215.49	13.26	-43.5	-44.4	20.8	0.00e+00	0	43	0	200278016	58	4038
2026-01-23 11:33:28.19	215.98	13.57	-43.6	-44.5	20.8	0.00e+00	0	42	0	212860928	58	4075
2026-01-23 11:33:32.22	216.49	13.90	-43.4	-44.3	20.9	0.00e+00	0	43	0	225443840	58	4004
2026-01-23 11:33:36.25	217.01	14.22	-43.5	-44.4	20.8	0.00e+00	0	43	0	238026752	58	4046
2026-01-23 11:33:40.29	217.54	14.55	-43.7	-44.6	20.7	0.00e+00	0	43	0	250609664	58	4120
2026-01-23 11:33:44.32	218.08	14.87	-43.6	-44.5	20.7	0.00e+00	0	43	0	263192576	58	4089
2026-01-23 11:33:48.35	218.64	15.20	-43.9	-44.9	20.4	0.00e+00	0	42	0	275775488	58	4252
2026-01-23 11:33:52.38	219.20	15.54	-43.9	-44.9	20.5	0.00e+00	0	43	0	288358400	58	4258
2026-01-23 11:33:56.41	219.78	15.87	-43.9	-44.9	20.5	0.00e+00	0	43	0	300941312	58	4265
2026-01-23 11:34:00.44	220.37	16.21	-43.9	-44.9	20.5	0.00e+00	0	43	0	313524224	58	4273
2026-01-23 11:34:04.47	220.97	16.54	-43.8	-44.7	20.6	0.00e+00	0	43	0	326107136	58	4191
2026-01-23 11:34:08.50	221.58	16.88	-43.6	-44.5	20.8	0.00e+00	0	43	0	339738624	58	4083
2026-01-23 11:34:12.53	222.21	17.22	-43.5	-44.4	20.9	0.00e+00	0	42	0	352321536	58	4039
2026-01-23 11:34:16.56	222.85	17.56	-43.3	-44.2	21.1	0.00e+00	0	42	0	363855872	58	3948
2026-01-23 11:34:20.60	223.51	17.91	-43.2	-44.1	21.2	0.00e+00	0	43	0	377487360	58	3893
2026-01-23 11:34:24.63	224.18	18.25	-43.5	-44.4	20.9	0.00e+00	0	43	0	390070272	58	4039
2026-01-23 11:34:28.66	224.87	18.60	-43.4	-44.4	20.9	0.00e+00	0	43	0	401604608	58	4014
2026-01-23 11:34:32.69	225.57	18.94	-43.6	-44.5	20.8	0.00e+00	0	43	0	414187520	58	4085
2026-01-23 11:34:36.72	226.29	19.29	-43.5	-44.4	21.0	0.00e+00	0	43	0	427819008	58	4035
2026-01-23 11:34:40.75	227.02	19.64	-43.2	-44.0	21.3	0.00e+00	0	43	0	440401920	58	3862
2026-01-23 11:34:44.78	227.77	19.99	-42.9	-43.8	21.5	0.00e+00	0	43	0	451936256	57	3963
2026-01-23 11:34:48.82	228.54	20.33	-42.5	-43.3	21.9	0.00e+00	0	42	0	465567744	57	3765
2026-01-23 11:34:52.85	229.33	20.68	-42.5	-43.3	21.9	0.00e+00	0	43	0	478150656	57	3760
2026-01-23 11:34:56.88	230.13	21.03	-42.4	-43.2	22.0	0.00e+00	0	42	0	490733568	56	3940
2026-01-23 11:35:00.92	230.95	21.37	-42.5	-43.4	21.9	0.00e+00	0	43	0	503316480	56	4023
2026-01-23 11:35:04.95	231.78	21.72	-42.3	-43.1	22.1	0.00e+00	0	42	0	515899392	56	3888
2026-01-23 11:35:08.98	232.64	22.06	-42.4	-43.2	22.0	0.00e+00	0	43	0	528482304	56	3933
2026-01-23 11:35:13.02	233.51	22.40	-41.9	-42.7	22.4	0.00e+00	0	43	0	541065216	55	3934
2026-01-23 11:35:17.05	234.41	22.74	-42.0	-42.8	22.3	0.00e+00	0	43	0	553648128	55	3993
2026-01-23 11:35:21.08	235.32	23.08	-42.2	-43.0	22.2	0.00e+00	0	43	0	566231040	55	4074
2026-01-23 11:35:25.12	236.25	23.41	-42.1	-42.9	22.3	0.00e+00	0	43	0	578813952	55	4019
2026-01-23 11:35:29.15	237.20	23.74	-42.0	-42.8	22.4	0.00e+00	0	43	0	591396864	55	4002
2026-01-23 11:35:33.18	238.17	24.06	-42.3	-43.1	22.1	0.00e+00	0	43	0	603979776	55	4113
2026-01-23 11:35:37.22	239.16	24.38	-42.4	-43.3	22.0	0.00e+00	0	43	0	616562688	55	4194
2026-01-23 11:35:41.25	240.17	24.70	-42.8	-43.7	21.7	0.00e+00	0	43	0	629145600	56	4159
2026-01-23 11:35:45.28	241.19	25.01	-42.6	-43.5	21.8	0.00e+00	0	43	0	641728512	56	4065
2026-01-23 11:35:49.31	242.24	25.31	-42.6	-43.5	21.9	0.00e+00	0	43	0	654311424	56	4056
2026-01-23 11:35:53.35	243.31	25.61	-42.7	-43.5	21.7	0.00e+00	0	43	0	666894336	56	4090
2026-01-23 11:35:57.38	244.40	25.90	-43.2	-44.1	21.3	0.00e+00	0	43	0	679477248	56	4351
2026-01-23 11:36:01.40	245.50	26.18	-42.8	-43.6	21.7	0.00e+00	0	43	0	692060160	57	3895
2026-01-23 11:36:05.43	246.63	26.45	-42.8	-43.6	21.6	0.00e+00	0	43	0	704643072	57	3897
2026-01-23 11:36:09.46	247.77	26.71	-42.7	-43.5	21.8	0.00e+00	0	43	0	717225984	57	3857
2026-01-23 11:36:13.49	248.93	26.97	-42.3	-43.1	22.2	0.00e+00	0	43	0	729808896	56	3885
2026-01-23 11:36:17.52	250.11	27.21	-42.6	-43.4	21.9	0.00e+00	0	43	0	742391808	56	4033
2026-01-23 11:36:21.55	251.31	27.45	-42.4	-43.2	22.1	0.00e+00	0	43	0	754974720	56	3936
2026-01-23 11:36:25.58	252.52	27.67	-42.6	-43.5	21.9	0.00e+00	0	43	0	767557632	56	4053
2026-01-23 11:36:29.62	253.75	27.88	-42.5	-43.4	21.9	0.00e+00	0	43	0	780140544	56	4011
2026-01-23 11:36:33.65	255.00	28.07	-42.8	-43.7	21.7	0.00e+00	0	43	0	792723456	56	4151
2026-01-23 11:36:37.68	256.26	28.26	-42.8	-43.7	21.7	0.00e+00	0	43	0	805306368	56	4162
2026-01-23 11:36:41.71	257.53	28.43	-42.9	-43.7	21.7	0.00e+00	0	43	0	817889280	56	4172
2026-01-23 11:36:45.74	258.82	28.58	-43.0	-43.8	21.6	0.00e+00	0	43	0	830472192	56	4237
2026-01-23 11:36:49.78	260.12	28.72	-43.0	-43.8	21.6	0.00e+00	0	43	0	843055104	56	4234
2026-01-23 11:36:53.81	261.43	28.85	-43.0	-43.8	21.6	0.00e+00	0	43	0	855638016	56	4219
2026-01-23 11:36:57.84	262.74	28.96	-43.1	-43.9	21.5	0.00e+00	0	43	0	868220928	56	4283
2026-01-23 11:37:01.87	264.07	29.05	-43.2	-44.1	21.4	0.00e+00	0	43	0	880803840	57	4110
2026-01-23 11:37:05.91	265.40	29.13	-43.1	-44.0	21.5	0.00e+00	0	43	0	893386752	57	4064
2026-01-23 11:37:09.94	266.74	29.19	-42.6	-43.4	22.0	0.00e+00	0	43	0	905969664	57	3818
2026-01-23 11:37:13.98	268.09	29.24	-43.0	-43.8	21.6	0.00e+00	0	43	0	918552576	57	4002
2026-01-23 11:37:18.01	269.43	29.27	-42.8	-43.6	21.8	0.00e+00	0	43	0	931135488	57	3880
2026-01-23 11:37:22.05	270.78	29.28	-42.8	-43.6	21.8	0.00e+00	0	43	0	943718400	57	3888
2026-01-23 11:37:26.08	272.13	29.27	-42.9	-43.7	21.6	0.00e+00	0	43	0	956301312	57	3941
2026-01-23 11:37:30.11	273.47	29.25	-42.7	-43.6	21.9	0.00e+00	0	43	0	968884224	57	3870
2026-01-23 11:37:34.15	274.82	29.21	-42.9	-43.8	21.7	0.00e+00	0	43	0	981467136	57	3964
2026-01-23 11:37:38.18	276.16	29.15	-42.9	-43.7	21.8	0.00e+00	0	43	0	994050048	57	3954
2026-01-23 11:37:42.22	277.49	29.08	-43.0	-43.9	21.7	0.00e+00	0	43	0	1006632960	57	4008
2026-01-23 11:37:46.26	278.82	28.99	-43.0	-43.8	21.7	0.00e+00	0	43	0	1019215872	57	4001
2026-01-23 11:37:50.29	280.14	28.89	-42.8	-43.6	21.8	0.00e+00	0	43	0	1031798784	57	3912
2026-01-23 11:37:54.33	281.46	28.77	-43.0	-43.8	21.7	0.00e+00	0	43	0	1045430272	57	3998
2026-01-23 11:37:58.36	282.75	28.63	-42.8	-43.7	21.8	0.00e+00	0	43	0	1056964608	57	3914
2026-01-23 11:38:02.39	284.04	28.48	-42.9	-43.8	21.7	0.00e+00	0	43	0	1069547520	57	3967
2026-01-23 11:38:06.42	285.32	28.31	-42.8	-43.6	21.9	0.00e+00	0	43	0	1083179008	57	3896
2026-01-23 11:38:10.45	286.58	28.14	-42.7	-43.5	21.8	0.00e+00	0	43	0	1095761920	57	3861
2026-01-23 11:38:14.49	287.83	27.94	-42.9	-43.8	21.6	0.00e+00	0	43	0	1107296256	57	3971
2026-01-23 11:38:18.53	289.06	27.74	-43.1	-43.9	21.5	0.00e+00	0	43	0	1120927744	57	4049
2026-01-23 11:38:22.57	290.28	27.52	-42.9	-43.7	21.7	0.00e+00	0	43	0	1133510656	57	3957
2026-01-23 11:38:26.60	291.48	27.29	-42.8	-43.6	21.9	0.00e+00	0	43	0	1146093568	57	3882
2026-01-23 11:38:30.64	292.67	27.05	-42.7	-43.5	21.9	0.00e+00	0	43	0	1158676480	57	3863
2026-01-23 11:38:34.67	293.83	26.80	-42.6	-43.4	22.1	0.00e+00	0	43	0	1171259392	57	3793
2026-01-23 11:38:38.71	294.98	26.54	-42.4	-43.2	22.3	0.00e+00	0	43	0	1183842304	56	3935
2026-01-23 11:38:42.74	296.11	26.27	-42.5	-43.2	22.2	0.00e+00	0	43	0	1196425216	56	3958
2026-01-23 11:38:46.77	297.22	26.00	-42.5	-43.3	22.0	0.00e+00	0	43	0	1209008128	56	3963
2026-01-23 11:38:50.81	298.31	25.71	-42.3	-43.1	22.3	0.00e+00	0	43	0	1221591040	56	3882
2026-01-23 11:38:54.84	299.38	25.42	-42.6	-43.4	22.0	0.00e+00	0	43	0	1234173952	56	4049
2026-01-23 11:38:58.87	300.43	25.12	-43.0	-43.8	21.6	0.00e+00	0	43	0	1246756864	56	4242
2026-01-23 11:39:02.91	301.47	24.81	-42.4	-43.2	22.2	0.00e+00	0	43	0	1259339776	56	3944
2026-01-23 11:39:06.94	302.48	24.50	-43.0	-43.9	21.7	0.00e+00	0	43	0	1271922688	56	4246
2026-01-23 11:39:10.97	303.47	24.18	-43.0	-43.8	21.6	0.00e+00	0	43	0	1284505600	56	4236
2026-01-23 11:39:15.00	304.44	23.86	-42.3	-43.1	22.1	0.00e+00	0	43	0	1297088512	56	3879
2026-01-23 11:39:19.04	305.40	23.53	-42.5	-43.3	21.9	0.00e+00	0	43	0	1309671424	56	3991
2026-01-23 11:39:23.07	306.33	23.21	-42.3	-43.2	22.0	0.00e+00	0	43	0	1322254336	56	3917
2026-01-23 11:39:27.10	307.24	22.87	-42.4	-43.3	21.8	0.00e+00	0	43	0	1334837248	56	3969
2026-01-23 11:39:31.14	308.14	22.54	-42.4	-43.3	22.0	0.00e+00	0	43	0	1347420160	56	3968
2026-01-23 11:39:35.17	309.02	22.20	-42.5	-43.3	21.9	0.00e+00	0	43	0	1360003072	56	3980
2026-01-23 11:39:39.20	309.88	21.86	-42.5	-43.3	21.9	0.00e+00	0	43	0	1372585984	56	3984
2026-01-23 11:39:43.24	310.72	21.52	-42.3	-43.1	22.1	0.00e+00	0	43	0	1385168896	56	3907
2026-01-23 11:39:47.27	311.54	21.17	-42.1	-42.9	22.3	0.00e+00	0	43	0	1397751808	56	3806
2026-01-23 11:39:51.30	312.34	20.83	-42.0	-42.8	22.2	0.00e+00	0	43	0	1410334720	55	3987
2026-01-23 11:39:55.33	313.13	20.48	-42.3	-43.2	21.9	0.00e+00	0	43	0	1422917632	55	4158
2026-01-23 11:39:59.36	313.90	20.14	-42.5	-43.3	21.8	0.00e+00	0	43	0	1435500544	55	4232
2026-01-23 11:40:03.39	314.65	19.79	-42.3	-43.1	21.9	0.00e+00	0	43	0	1448083456	55	4109
2026-01-23 11:40:07.43	315.39	19.45	-42.4	-43.2	21.8	0.00e+00	0	43	0	1460666368	55	4187
2026-01-23 11:40:11.46	316.11	19.10	-42.9	-43.8	21.4	0.00e+00	0	43	0	1473249280	56	4204
2026-01-23 11:40:15.49	316.82	18.76	-43.0	-43.8	21.4	0.00e+00	0	43	0	1485832192	56	4231
2026-01-23 11:40:19.52	317.51	18.42	-42.7	-43.5	21.6	0.00e+00	0	43	0	1498415104	56	4094
2026-01-23 11:40:23.56	318.18	18.07	-42.9	-43.8	21.4	0.00e+00	0	43	0	1510998016	56	4206
2026-01-23 11:40:27.59	318.84	17.73	-43.2	-44.1	21.2	0.00e+00	0	43	0	1523580928	56	4347
2026-01-23 11:40:31.62	319.49	17.39	-43.0	-43.9	21.3	0.00e+00	0	43	0	1536163840	56	4274
2026-01-23 11:40:35.66	320.12	17.05	-43.2	-44.1	20.9	0.00e+00	0	43	0	1548746752	57	4138
2026-01-23 11:40:39.69	320.74	16.71	-43.2	-44.2	20.9	0.00e+00	0	43	0	1561329664	57	4155
2026-01-23 11:40:43.73	321.35	16.38	-42.9	-43.8	21.3	0.00e+00	0	43	0	1573912576	57	3992
2026-01-23 11:40:47.76	321.94	16.04	-42.8	-43.7	21.4	0.00e+00	0	43	0	1586495488	57	3919
2026-01-23 11:40:51.79	322.52	15.71	-42.7	-43.5	21.5	0.00e+00	0	43	0	1600126976	57	3860
2026-01-23 11:40:55.83	323.09	15.38	-43.2	-44.1	21.0	0.00e+00	0	43	0	1611661312	57	4122
2026-01-23 11:40:59.86	323.65	15.05	-43.5	-44.5	20.6	0.00e+00	0	43	0	1624244224	57	4310
2026-01-23 11:41:03.90	324.19	14.72	-43.6	-44.5	20.6	0.00e+00	0	43	0	1637875712	57	4324
2026-01-23 11:41:07.94	324.72	14.40	-43.3	-44.2	20.8	0.00e+00	0	43	0	1649410048	57	4190
2026-01-23 11:41:11.97	325.25	14.08	-43.3	-44.2	20.8	0.00e+00	0	43	0	1661992960	57	4160
2026-01-23 11:41:16.00	325.76	13.76	-43.8	-44.8	20.2	0.00e+00	0	43	0	1675624448	58	4237
2026-01-23 11:41:20.04	326.26	13.44	-43.8	-44.8	20.3	0.00e+00	0	43	0	1688207360	58	4213
2026-01-23 11:41:24.08	326.75	13.12	-43.7	-44.7	20.4	0.00e+00	0	43	0	1699741696	58	4161
2026-01-23 11:41:28.11	327.23	12.81	-43.9	-44.9	20.1	0.00e+00	0	43	0	1713373184	58	4284
2026-01-23 11:41:32.15	327.70	12.50	-43.8	-44.7	20.3	0.00e+00	0	43	0	1725956096	58	4191
2026-01-23 11:41:36.18	328.16	12.19	-43.8	-44.8	20.2	0.00e+00	0	43	0	1738539008	58	4210
2026-01-23 11:41:40.22	328.62	11.88	-44.0	-45.0	19.9	0.00e+00	0	43	0	1751121920	58	4315
2026-01-23 11:41:44.26	329.06	11.58	-44.1	-45.1	19.8	0.00e+00	0	43	0	1763704832	58	4389
2026-01-23 11:41:48.29	329.50	11.27	-44.1	-45.1	19.9	0.00e+00	0	43	0	1776287744	59	4142
2026-01-23 11:41:52.32	329.92	10.98	-44.0	-45.0	20.0	0.00e+00	0	43	0	1788870656	59	4065
2026-01-23 11:41:56.35	330.34	10.68	-43.9	-44.9	20.0	0.00e+00	0	43	0	1801453568	59	4007
2026-01-23 11:42:00.39	330.75	10.38	-44.0	-45.1	19.8	0.00e+00	0	43	0	1814036480	59	4099
2026-01-23 11:42:04.43	331.15	10.09	-44.2	-45.2	19.6	0.00e+00	0	43	0	1826619392	59	4193
2026-01-23 11:42:08.46	331.55	9.80	-44.5	-45.6	19.3	0.00e+00	0	43	0	1839202304	59	4366
2026-01-23 11:42:12.50	331.94	9.51	-44.0	-45.1	19.4	0.00e+00	0	43	0	1851785216	60	3880
2026-01-23 11:42:16.54	332.32	9.22	-44.0	-45.1	19.3	0.00e+00	0	43	0	1864368128	60	3890
2026-01-23 11:42:20.58	332.69	8.94	-44.5	-45.6	19.1	0.00e+00	0	43	0	1876951040	59	4390
2026-01-23 11:42:24.61	333.06	8.66	-44.4	-45.5	19.3	0.00e+00	0	43	0	1889533952	59	4328
2026-01-23 11:42:28.64	333.42	8.38	-44.3	-45.4	19.0	0.00e+00	0	43	0	1902116864	60	4028
2026-01-23 11:42:32.68	333.77	8.10	-44.3	-45.4	19.1	0.00e+00	0	43	0	1914699776	60	4021
2026-01-23 11:42:36.72	334.12	7.83	-44.4	-45.6	18.9	0.00e+00	0	43	0	1927282688	60	4109
2026-01-23 11:42:40.75	334.46	7.55	-44.6	-45.8	18.7	0.00e+00	0	43	0	1939865600	60	4202
2026-01-23 11:42:44.79	334.80	7.28	-44.6	-45.8	18.6	0.00e+00	0	43	0	1952448512	60	4219
2026-01-23 11:42:48.83	335.13	7.01	-44.9	-46.1	18.3	0.00e+00	0	42	0	1965031424	60	4385
2026-01-23 11:42:52.86	335.45	6.75	-44.6	-45.8	18.5	0.00e+00	0	43	0	1977614336	60	4229
2026-01-23 11:42:56.89	335.77	6.48	-45.5	-46.8	17.6	0.00e+00	0	43	0	1990197248	61	4472
2026-01-23 11:43:00.92	336.08	6.22	-44.9	-46.1	18.2	0.00e+00	0	43	0	2002780160	60	4347
2026-01-23 11:43:04.95	336.39	5.96	-44.9	-46.1	18.1	0.00e+00	0	43	0	2015363072	61	4143
2026-01-23 11:43:08.99	336.69	5.70	-44.3	-45.4	19.0	0.00e+00	0	43	0	2027945984	59	4290
2026-01-23 11:43:13.02	336.99	5.44	-44.8	-46.0	18.2	0.00e+00	0	43	0	2040528896	61	4069
2026-01-23 11:43:17.05	337.28	5.19	-45.3	-46.6	17.6	0.00e+00	0	43	0	2053111808	61	4371
2026-01-23 11:43:21.08	337.57	4.94	-52.7	-65.5	3.8	8.90e-01	0	43	104	2064646144	75	17118
2026-01-23 11:43:25.11	337.86	4.69	-53.5	-66.3	3.8	1.49e+00	0	43	104	2064646144	77	16807
2026-01-23 11:43:29.15	338.14	4.44	-53.8	-66.5	3.8	1.49e+00	0	43	104	2064646144	78	16272
2026-01-23 11:43:33.18	338.41	4.19	-53.5	-66.3	3.8	1.49e+00	0	43	104	2064646144	78	15797
2026-01-23 11:43:37.21	338.68	3.94	-53.5	-66.3	3.8	1.49e+00	0	43	104	2064646144	78	15822
2026-01-23 11:43:41.24	338.95	3.70	-53.6	-66.4	3.8	1.49e+00	0	43	104	2064646144	78	16000
2026-01-23 11:43:45.27	339.21	3.46	-53.6	-66.3	3.8	1.49e+00	0	43	104	2064646144	78	15918
2026-01-23 11:43:49.31	339.47	3.22	-53.5	-66.3	3.8	1.49e+00	0	43	104	2064646144	78	15844
2026-01-23 11:43:53.34	339.72	2.98	-53.5	-66.3	3.8	1.49e+00	0	43	104	2064646144	78	15800
2026-01-23 11:43:57.37	339.97	2.74	-53.5	-66.3	3.8	1.49e+00	0	43	104	2064646144	78	15867
2026-01-23 11:44:01.40	340.22	2.50	-53.5	-66.3	3.8	1.49e+00	0	43	104	2064646144	78	15764
2026-01-23 11:44:05.44	340.47	2.27	-53.5	-66.2	3.8	1.49e+00	0	43	104	2064646144	78	15748
2026-01-23 11:44:09.47	340.71	2.04	-53.5	-66.2	3.8	1.49e+00	0	43	104	2064646144	78	15707

#Closed at: 2026-01-23 11:44:12
#Recorded file [2064 MB]: D:/lorett/data/31041_260123_143102.dat