passes_logs/2026/01/23/R3.2S_Murmansk/R3.2S_Murmansk__20260123_000332_KANOPUS-V_5_rec.log

#Pass ID: 20260123_000332_KANOPUS-V 5
#Satellite: KANOPUS-V 5
#Configuration: KANOPUS-V_8320
#almurnet v.1.7.20251203
#Start time: 2026-01-23 00:03:32

#Version: 2.2.20231116
#Station: R3.2S_Murmansk
#Location: 33.079688 lon 68.888172 lat
#TLE: 1 43876U 18111A   26022.52701148  .00004818  00000+0  20478-3 0  9994
#TLE: 2 43876  97.3679 290.9053 0001819  88.4130 271.7316 15.23508812392615

#Time	Az	El	Level	Level2	SNR	BER	BlckErr	Temp	State	Recorded	gain1	gain2
2026-01-23 00:03:32.93	23.43	2.00	-54.2	-63.0	3.8	7.44e-01	0	42	0	0	80	9647
2026-01-23 00:03:35.95	23.22	2.20	-53.4	-62.3	3.8	7.45e-01	0	42	104	0	77	10548
2026-01-23 00:03:38.97	23.00	2.40	-53.4	-62.3	3.8	7.46e-01	0	43	104	0	77	10595
2026-01-23 00:03:42.00	22.78	2.60	-53.4	-62.3	3.8	7.46e-01	0	43	104	0	77	10574
2026-01-23 00:03:45.02	22.55	2.80	-53.4	-62.3	3.8	7.46e-01	0	43	104	0	77	10541
2026-01-23 00:03:48.05	22.32	3.00	-53.4	-62.2	3.8	7.44e-01	0	43	104	0	77	10512
2026-01-23 00:03:51.07	22.08	3.20	-53.4	-62.2	3.8	7.46e-01	0	43	104	0	77	10502
2026-01-23 00:03:54.10	21.84	3.41	-53.4	-62.2	3.8	7.45e-01	0	43	104	0	77	10521
2026-01-23 00:03:57.12	21.59	3.61	-53.4	-62.3	3.8	7.45e-01	0	43	104	0	77	10546
2026-01-23 00:04:00.15	21.34	3.82	-53.4	-62.2	3.8	7.46e-01	0	43	104	0	77	10531
2026-01-23 00:04:03.17	21.09	4.03	-53.4	-62.2	3.8	7.46e-01	0	43	104	0	77	10508
2026-01-23 00:04:06.20	20.83	4.24	-53.4	-62.2	3.8	7.44e-01	0	43	104	0	77	10498
2026-01-23 00:04:09.22	20.56	4.46	-53.4	-62.2	3.8	7.45e-01	0	43	104	0	77	10463
2026-01-23 00:04:12.25	20.29	4.67	-53.4	-62.2	3.8	7.45e-01	0	43	104	0	77	10524
2026-01-23 00:04:15.27	20.02	4.89	-53.4	-62.2	3.8	7.47e-01	0	44	104	0	77	10498
2026-01-23 00:04:18.29	19.74	5.11	-53.4	-62.2	3.8	7.46e-01	0	44	104	0	77	10521
2026-01-23 00:04:21.32	19.45	5.33	-53.5	-62.3	3.8	7.46e-01	0	43	104	0	77	10639
2026-01-23 00:04:24.34	19.16	5.55	-53.4	-62.2	3.8	7.46e-01	0	44	104	0	77	10499
2026-01-23 00:04:27.37	18.86	5.78	-53.6	-62.4	3.8	7.45e-01	0	44	104	0	77	10727
2026-01-23 00:04:30.39	18.56	6.00	-53.5	-62.3	3.8	7.45e-01	0	44	104	0	77	10654
2026-01-23 00:04:33.42	18.24	6.23	-53.6	-62.4	3.8	7.45e-01	0	44	104	0	77	10727
2026-01-23 00:04:36.45	17.93	6.46	-53.6	-62.4	3.8	7.43e-01	0	44	104	0	77	10683
2026-01-23 00:04:39.47	17.60	6.69	-53.6	-62.5	3.8	7.44e-01	0	44	104	0	77	10831
2026-01-23 00:04:42.49	17.27	6.93	-53.6	-62.5	3.8	7.44e-01	0	44	104	0	77	10790
2026-01-23 00:04:45.52	16.93	7.17	-53.7	-62.5	3.8	7.45e-01	0	44	104	0	77	10823
2026-01-23 00:04:48.55	16.59	7.41	-53.7	-62.5	3.8	7.45e-01	0	44	104	0	78	10284
2026-01-23 00:04:51.57	16.24	7.65	-53.7	-62.6	3.8	7.45e-01	0	44	104	0	78	10323
2026-01-23 00:04:54.60	15.87	7.89	-53.8	-62.6	3.8	7.45e-01	0	44	104	0	78	10336
2026-01-23 00:04:57.62	15.51	8.14	-53.8	-62.6	3.8	7.45e-01	0	44	104	0	78	10363
2026-01-23 00:05:00.65	15.13	8.38	-53.8	-62.6	3.8	7.44e-01	0	44	104	0	78	10349
2026-01-23 00:05:03.68	14.74	8.64	-53.8	-62.6	3.8	7.45e-01	0	44	104	0	78	10390
2026-01-23 00:05:06.70	14.35	8.89	-53.9	-62.7	3.8	7.44e-01	0	44	104	0	78	10480
2026-01-23 00:05:09.73	13.95	9.14	-53.8	-62.7	3.8	7.46e-01	0	44	104	0	78	10437
2026-01-23 00:05:12.76	13.54	9.40	-53.9	-62.7	3.8	7.44e-01	0	44	104	0	78	10513
2026-01-23 00:05:15.78	13.12	9.66	-53.9	-62.7	3.8	7.45e-01	0	44	104	0	78	10448
2026-01-23 00:05:18.81	12.68	9.92	-54.0	-62.8	3.8	7.46e-01	0	44	104	0	78	10560
2026-01-23 00:05:21.84	12.24	10.19	-53.9	-62.7	3.8	7.45e-01	0	44	104	0	78	10511
2026-01-23 00:05:24.86	11.79	10.45	-53.9	-62.8	3.8	7.45e-01	0	45	104	0	78	10582
2026-01-23 00:05:27.89	11.33	10.72	-53.9	-62.8	3.8	7.46e-01	0	45	104	0	78	10546
2026-01-23 00:05:30.92	10.86	11.00	-54.0	-62.8	3.8	7.44e-01	0	45	104	0	78	10637
2026-01-23 00:05:33.94	10.38	11.27	-54.0	-62.8	3.8	7.45e-01	0	44	104	0	78	10604
2026-01-23 00:05:36.97	9.88	11.55	-54.0	-62.8	3.8	7.47e-01	0	45	104	0	78	10635
2026-01-23 00:05:39.99	9.38	11.83	-54.0	-62.8	3.8	7.47e-01	0	44	104	0	78	10627
2026-01-23 00:05:43.01	8.86	12.11	-54.1	-62.9	3.8	7.46e-01	0	44	104	0	78	10718
2026-01-23 00:05:46.04	8.33	12.39	-54.0	-62.9	3.8	7.47e-01	0	45	104	0	78	10692
2026-01-23 00:05:49.06	7.78	12.68	-54.1	-62.9	3.8	7.45e-01	0	44	104	0	78	10736
2026-01-23 00:05:52.09	7.22	12.96	-54.1	-62.9	3.8	7.47e-01	0	45	104	0	78	10706
2026-01-23 00:05:55.11	6.66	13.25	-54.1	-63.0	3.8	7.44e-01	0	45	104	0	78	10807
2026-01-23 00:05:58.13	6.07	13.55	-54.1	-62.9	3.8	7.45e-01	0	45	104	0	78	10722
2026-01-23 00:06:01.16	5.47	13.84	-54.1	-62.9	3.8	7.46e-01	0	44	104	0	78	10770
2026-01-23 00:06:04.18	4.86	14.14	-54.1	-62.9	3.8	7.45e-01	0	44	104	0	78	10759
2026-01-23 00:06:07.21	4.23	14.43	-54.2	-63.0	3.8	7.46e-01	0	45	104	0	78	10850
2026-01-23 00:06:10.23	3.59	14.73	-54.2	-63.0	3.8	7.45e-01	0	45	104	0	78	10845
2026-01-23 00:06:13.26	2.93	15.04	-54.2	-63.0	3.8	7.44e-01	0	45	104	0	78	10854
2026-01-23 00:06:16.28	2.25	15.34	-54.2	-63.0	3.8	7.45e-01	0	45	104	0	79	10232
2026-01-23 00:06:19.30	1.56	15.64	-54.2	-63.1	3.8	7.43e-01	0	45	104	0	79	10331
2026-01-23 00:06:22.33	0.85	15.95	-54.2	-63.1	3.8	7.46e-01	0	45	104	0	79	10300
2026-01-23 00:06:25.35	0.12	16.25	-54.2	-63.1	3.8	7.46e-01	0	45	104	0	79	10302
2026-01-23 00:06:28.37	359.38	16.56	-54.2	-63.1	3.8	7.45e-01	0	45	104	0	79	10325
2026-01-23 00:06:31.40	358.61	16.87	-54.3	-63.1	3.8	7.44e-01	0	45	104	0	79	10367
2026-01-23 00:06:34.42	357.83	17.18	-54.3	-63.1	3.8	7.45e-01	0	45	104	0	79	10335
2026-01-23 00:06:37.45	357.02	17.48	-54.3	-63.1	3.8	7.45e-01	0	45	104	0	79	10369
2026-01-23 00:06:40.48	356.20	17.79	-54.3	-63.1	3.8	7.45e-01	0	45	104	0	79	10354
2026-01-23 00:06:43.50	355.36	18.10	-54.3	-63.1	3.8	7.45e-01	0	45	104	0	79	10406
2026-01-23 00:06:46.52	354.50	18.40	-54.3	-63.2	3.8	7.47e-01	0	45	104	0	79	10421
2026-01-23 00:06:49.55	353.62	18.71	-54.3	-63.2	3.8	7.45e-01	0	45	104	0	79	10443
2026-01-23 00:06:52.57	352.71	19.01	-54.3	-63.2	3.8	7.45e-01	0	45	104	0	79	10453
2026-01-23 00:06:55.60	351.79	19.32	-54.4	-63.2	3.8	7.46e-01	0	45	104	0	79	10481
2026-01-23 00:06:58.62	350.84	19.61	-54.4	-63.3	3.8	7.45e-01	0	45	104	0	79	10536
2026-01-23 00:07:01.65	349.87	19.91	-54.4	-63.2	3.8	7.47e-01	0	45	104	0	79	10525
2026-01-23 00:07:04.68	348.88	20.20	-54.4	-63.2	3.8	7.45e-01	0	45	104	0	79	10504
2026-01-23 00:07:07.70	347.87	20.49	-54.4	-63.2	3.8	7.46e-01	0	45	104	0	79	10531
2026-01-23 00:07:10.73	346.84	20.78	-54.5	-63.3	3.8	7.46e-01	0	45	104	0	79	10575
2026-01-23 00:07:13.75	345.78	21.06	-54.4	-63.3	3.8	7.45e-01	0	45	104	0	79	10566
2026-01-23 00:07:16.77	344.71	21.33	-54.4	-63.3	3.8	7.45e-01	0	45	104	0	79	10572
2026-01-23 00:07:19.80	343.61	21.60	-54.5	-63.3	3.8	7.45e-01	0	45	104	0	79	10608
2026-01-23 00:07:22.82	342.49	21.86	-54.5	-63.3	3.8	7.43e-01	0	45	104	0	79	10645
2026-01-23 00:07:25.85	341.34	22.11	-54.5	-63.3	3.8	7.44e-01	0	45	104	0	79	10632
2026-01-23 00:07:28.87	340.18	22.36	-54.5	-63.4	3.8	7.45e-01	0	45	104	0	79	10668
2026-01-23 00:07:31.89	339.00	22.59	-54.5	-63.4	3.8	7.44e-01	0	45	104	0	79	10666
2026-01-23 00:07:34.92	337.79	22.82	-54.6	-63.4	3.8	7.45e-01	0	45	104	0	79	10712
2026-01-23 00:07:37.94	336.57	23.04	-54.5	-63.4	3.8	7.46e-01	0	45	104	0	79	10667
2026-01-23 00:07:40.97	335.32	23.25	-54.6	-63.4	3.8	7.45e-01	0	45	104	0	79	10744
2026-01-23 00:07:43.99	334.06	23.44	-54.6	-63.4	3.8	7.46e-01	0	45	104	0	79	10695
2026-01-23 00:07:47.02	332.78	23.62	-54.6	-63.4	3.8	7.45e-01	0	45	104	0	79	10775
2026-01-23 00:07:50.05	331.48	23.79	-54.6	-63.4	3.8	7.44e-01	0	45	104	0	79	10737
2026-01-23 00:07:53.07	330.17	23.95	-54.6	-63.4	3.8	7.45e-01	0	45	104	0	79	10776
2026-01-23 00:07:56.10	328.84	24.09	-54.6	-63.5	3.8	7.45e-01	0	45	104	0	79	10800
2026-01-23 00:07:59.12	327.51	24.22	-54.7	-63.5	3.8	7.45e-01	0	45	104	0	79	10834
2026-01-23 00:08:02.15	326.16	24.34	-54.6	-63.5	3.8	7.46e-01	0	45	104	0	79	10823
2026-01-23 00:08:05.17	324.80	24.44	-54.7	-63.5	3.8	7.45e-01	0	45	104	0	79	10805
2026-01-23 00:08:08.19	323.43	24.52	-54.7	-63.5	3.8	7.45e-01	0	45	104	0	79	10842
2026-01-23 00:08:11.22	322.05	24.59	-54.7	-63.5	3.8	7.46e-01	0	45	104	0	79	10868
2026-01-23 00:08:14.25	320.66	24.64	-54.7	-63.5	3.8	7.47e-01	0	45	104	0	79	10847
2026-01-23 00:08:17.27	319.28	24.67	-54.7	-63.5	3.8	7.45e-01	0	45	104	0	80	10267
2026-01-23 00:08:20.30	317.89	24.69	-54.6	-63.5	3.8	7.45e-01	0	45	104	0	80	10231
2026-01-23 00:08:23.32	316.50	24.69	-54.7	-63.5	3.8	7.44e-01	0	45	104	0	80	10283
2026-01-23 00:08:26.35	315.10	24.68	-54.7	-63.5	3.8	7.43e-01	0	45	104	0	80	10226
2026-01-23 00:08:29.37	313.72	24.64	-54.7	-63.5	3.8	7.46e-01	0	45	104	0	80	10273
2026-01-23 00:08:32.39	312.34	24.60	-54.7	-63.5	3.8	7.44e-01	0	45	104	0	80	10278
2026-01-23 00:08:35.42	310.95	24.53	-54.7	-63.5	3.8	7.46e-01	0	45	104	0	80	10273
2026-01-23 00:08:38.44	309.58	24.45	-54.7	-63.5	3.8	7.45e-01	0	45	104	0	80	10270
2026-01-23 00:08:41.47	308.22	24.35	-54.7	-63.5	3.8	7.45e-01	0	45	104	0	80	10292
2026-01-23 00:08:44.50	306.86	24.24	-54.7	-63.6	3.8	7.46e-01	0	45	104	0	80	10310
2026-01-23 00:08:47.52	305.52	24.11	-54.7	-63.6	3.8	7.46e-01	0	45	104	0	80	10341
2026-01-23 00:08:50.55	304.19	23.97	-54.7	-63.6	3.8	7.45e-01	0	45	104	0	80	10371
2026-01-23 00:08:53.57	302.88	23.82	-54.8	-63.6	3.8	7.45e-01	0	45	104	0	80	10321
2026-01-23 00:08:56.60	301.58	23.65	-54.8	-63.6	3.8	7.46e-01	0	45	104	0	80	10315
2026-01-23 00:08:59.62	300.29	23.47	-54.8	-63.6	3.8	7.46e-01	0	45	104	0	80	10395
2026-01-23 00:09:02.65	299.02	23.27	-54.8	-63.6	3.8	7.44e-01	0	45	104	0	80	10392
2026-01-23 00:09:05.68	297.77	23.07	-54.8	-63.7	3.8	7.45e-01	0	45	104	0	80	10426
2026-01-23 00:09:08.71	296.54	22.85	-54.8	-63.7	3.8	7.45e-01	0	45	104	0	80	10445
2026-01-23 00:09:11.73	295.33	22.62	-54.8	-63.6	3.8	7.45e-01	0	45	104	0	80	10412
2026-01-23 00:09:14.76	294.14	22.39	-54.8	-63.7	3.8	7.43e-01	0	45	104	0	80	10438
2026-01-23 00:09:17.78	292.97	22.14	-54.9	-63.7	3.8	7.43e-01	0	45	104	0	80	10463
2026-01-23 00:09:20.81	291.82	21.89	-54.9	-63.7	3.8	7.46e-01	0	45	104	0	80	10452
2026-01-23 00:09:23.83	290.70	21.63	-54.8	-63.6	3.8	7.45e-01	0	45	104	0	80	10409
2026-01-23 00:09:26.86	289.59	21.36	-54.8	-63.7	3.8	7.45e-01	0	45	104	0	80	10413
2026-01-23 00:09:29.88	288.51	21.09	-54.8	-63.7	3.8	7.45e-01	0	45	104	0	80	10480
2026-01-23 00:09:32.91	287.45	20.81	-54.8	-63.6	3.8	7.45e-01	0	45	104	0	80	10387
2026-01-23 00:09:35.93	286.41	20.52	-54.8	-63.6	3.8	7.46e-01	0	45	104	0	80	10364
2026-01-23 00:09:38.96	285.39	20.23	-54.8	-63.6	3.8	7.46e-01	0	45	104	0	80	10393
2026-01-23 00:09:41.98	284.39	19.94	-54.8	-63.6	3.8	7.44e-01	0	45	104	0	80	10406
2026-01-23 00:09:45.01	283.42	19.64	-54.7	-63.6	3.8	7.45e-01	0	45	104	0	80	10326
2026-01-23 00:09:48.03	282.47	19.34	-54.7	-63.5	3.8	7.45e-01	0	45	104	0	80	10276
2026-01-23 00:09:51.06	281.54	19.04	-54.7	-63.5	3.8	7.45e-01	0	45	104	0	80	10280
2026-01-23 00:09:54.09	280.63	18.74	-54.7	-63.5	3.8	7.46e-01	0	45	104	0	80	10220
2026-01-23 00:09:57.11	279.74	18.43	-54.6	-63.5	3.8	7.46e-01	0	45	104	0	80	10187
2026-01-23 00:10:00.13	278.87	18.12	-54.6	-63.5	3.8	7.45e-01	0	45	104	0	80	10177
2026-01-23 00:10:03.16	278.02	17.82	-54.6	-63.5	3.8	7.46e-01	0	45	104	0	80	10192
2026-01-23 00:10:06.18	277.20	17.51	-54.6	-63.4	3.8	7.47e-01	0	45	104	0	80	10126
2026-01-23 00:10:09.21	276.39	17.20	-54.6	-63.4	3.8	7.45e-01	0	45	104	0	80	10086
2026-01-23 00:10:12.23	275.60	16.89	-54.5	-63.4	3.8	7.46e-01	0	45	104	0	80	10107
2026-01-23 00:10:15.25	274.83	16.58	-54.5	-63.4	3.8	7.45e-01	0	45	104	0	80	10088
2026-01-23 00:10:18.28	274.08	16.27	-54.5	-63.3	3.8	7.45e-01	0	45	104	0	80	10051
2026-01-23 00:10:21.30	273.35	15.96	-54.5	-63.3	3.8	7.44e-01	0	45	104	0	80	10026
2026-01-23 00:10:24.32	272.63	15.66	-54.4	-63.3	3.8	7.46e-01	0	45	104	0	80	9994
2026-01-23 00:10:27.35	271.94	15.35	-54.4	-63.3	3.8	7.46e-01	0	45	104	0	80	9950
2026-01-23 00:10:30.37	271.26	15.05	-54.4	-63.3	3.8	7.46e-01	0	45	104	0	80	9951
2026-01-23 00:10:33.40	270.59	14.74	-54.4	-63.2	3.8	7.46e-01	0	45	104	0	80	9893
2026-01-23 00:10:36.42	269.94	14.44	-54.3	-63.2	3.8	7.45e-01	0	45	104	0	80	9875
2026-01-23 00:10:39.45	269.31	14.14	-54.3	-63.2	3.8	7.46e-01	0	45	104	0	80	9856
2026-01-23 00:10:42.47	268.69	13.85	-54.3	-63.2	3.8	7.45e-01	0	45	104	0	80	9838
2026-01-23 00:10:45.50	268.09	13.55	-54.3	-63.1	3.8	7.43e-01	0	45	104	0	80	9793
2026-01-23 00:10:48.52	267.50	13.26	-54.3	-63.1	3.8	7.46e-01	0	45	104	0	80	9791
2026-01-23 00:10:51.55	266.92	12.97	-54.3	-63.1	3.8	7.44e-01	0	45	104	0	80	9796
2026-01-23 00:10:54.57	266.36	12.68	-54.2	-63.1	3.8	7.45e-01	0	45	104	0	80	9783
2026-01-23 00:10:57.60	265.81	12.39	-54.2	-63.1	3.8	7.45e-01	0	45	104	0	80	9749
2026-01-23 00:11:00.63	265.28	12.10	-54.2	-63.0	3.8	7.46e-01	0	45	104	0	80	9667
2026-01-23 00:11:03.65	264.76	11.82	-54.2	-63.0	3.8	7.45e-01	0	45	104	0	80	9709
2026-01-23 00:11:06.68	264.25	11.54	-54.2	-63.0	3.8	7.44e-01	0	45	104	0	80	9709
2026-01-23 00:11:09.70	263.75	11.27	-54.1	-63.0	3.8	7.44e-01	0	45	104	0	80	9638
2026-01-23 00:11:12.73	263.26	10.99	-54.1	-63.0	3.8	7.44e-01	0	45	104	0	80	9631
2026-01-23 00:11:15.75	262.79	10.72	-54.1	-62.9	3.8	7.46e-01	0	45	104	0	80	9568
2026-01-23 00:11:18.78	262.32	10.45	-54.1	-63.0	3.8	7.47e-01	0	45	104	0	80	9615
2026-01-23 00:11:21.80	261.87	10.18	-54.1	-62.9	3.8	7.47e-01	0	45	104	0	80	9558
2026-01-23 00:11:24.83	261.42	9.91	-54.0	-62.9	3.8	7.44e-01	0	45	104	0	80	9515
2026-01-23 00:11:27.85	260.99	9.65	-54.0	-62.9	3.8	7.45e-01	0	45	104	0	80	9500
2026-01-23 00:11:30.88	260.56	9.39	-54.0	-62.9	3.8	7.45e-01	0	45	104	0	80	9503
2026-01-23 00:11:33.90	260.15	9.13	-54.0	-62.9	3.8	7.46e-01	0	45	104	0	79	10086
2026-01-23 00:11:36.93	259.74	8.87	-54.0	-62.8	3.8	7.46e-01	0	45	104	0	79	10039
2026-01-23 00:11:39.95	259.35	8.62	-53.9	-62.8	3.8	7.46e-01	0	45	104	0	79	10002
2026-01-23 00:11:42.98	258.96	8.37	-53.7	-62.8	3.8	7.44e-01	0	45	104	0	78	10575
2026-01-23 00:11:46.01	258.58	8.12	-54.0	-62.8	3.8	7.44e-01	0	45	104	0	78	10623
2026-01-23 00:11:49.03	258.21	7.87	-53.9	-62.7	3.8	7.44e-01	0	45	104	0	78	10516
2026-01-23 00:11:52.06	257.84	7.63	-53.8	-62.7	3.8	7.45e-01	0	45	104	0	78	10437
2026-01-23 00:11:55.09	257.49	7.38	-53.9	-62.7	3.8	7.46e-01	0	45	104	0	78	10505
2026-01-23 00:11:58.12	257.14	7.14	-53.8	-62.7	3.8	7.45e-01	0	45	104	0	78	10427
2026-01-23 00:12:01.14	256.80	6.91	-53.8	-62.6	3.8	7.46e-01	0	45	104	0	78	10348
2026-01-23 00:12:04.16	256.47	6.67	-53.7	-62.6	3.8	7.44e-01	0	45	104	0	78	10299
2026-01-23 00:12:07.19	256.14	6.44	-53.8	-62.6	3.8	7.43e-01	0	45	104	0	78	10375
2026-01-23 00:12:10.21	255.82	6.20	-53.7	-62.6	3.8	7.44e-01	0	45	104	0	78	10311
2026-01-23 00:12:13.24	255.50	5.97	-53.7	-62.5	3.8	7.45e-01	0	45	104	0	78	10195
2026-01-23 00:12:16.26	255.20	5.75	-53.6	-62.4	3.8	7.45e-01	0	45	104	0	78	10104
2026-01-23 00:12:19.28	254.90	5.52	-53.6	-62.5	3.8	7.45e-01	0	45	104	0	78	10187
2026-01-23 00:12:22.31	254.60	5.30	-53.6	-62.4	3.8	7.45e-01	0	45	104	0	78	10153
2026-01-23 00:12:25.34	254.31	5.08	-53.5	-62.3	3.8	7.46e-01	0	45	104	0	78	10024
2026-01-23 00:12:28.36	254.03	4.86	-54.0	-62.8	3.8	7.46e-01	0	45	104	0	78	10583
2026-01-23 00:12:31.39	253.75	4.64	-53.9	-62.7	3.8	7.47e-01	0	45	104	0	78	10485
2026-01-23 00:12:34.42	253.48	4.42	-54.1	-62.9	3.8	7.46e-01	0	45	104	0	78	10767
2026-01-23 00:12:37.44	253.21	4.21	-54.1	-63.0	3.8	7.43e-01	0	45	104	0	78	10794
2026-01-23 00:12:40.46	252.95	4.00	-54.3	-63.1	3.8	7.46e-01	0	45	104	0	79	10359
2026-01-23 00:12:43.49	252.69	3.79	-54.4	-63.3	3.8	7.46e-01	0	45	104	0	79	10555
2026-01-23 00:12:46.52	252.44	3.58	-54.5	-63.4	3.8	7.45e-01	0	45	104	0	79	10688
2026-01-23 00:12:49.54	252.19	3.37	-54.5	-63.4	3.8	7.43e-01	0	45	104	0	79	10681
2026-01-23 00:12:52.56	251.95	3.16	-54.5	-63.4	3.8	7.44e-01	0	45	104	0	79	10697
2026-01-23 00:12:55.59	251.71	2.96	-54.5	-63.3	3.8	7.44e-01	0	45	104	0	79	10612
2026-01-23 00:12:58.62	251.47	2.76	-54.5	-63.4	3.8	7.46e-01	0	45	104	0	79	10661
2026-01-23 00:13:01.64	251.24	2.56	-54.5	-63.3	3.8	7.45e-01	0	45	104	0	79	10578
2026-01-23 00:13:04.67	251.02	2.36	-54.5	-63.3	3.8	7.45e-01	0	45	104	0	79	10624
2026-01-23 00:13:07.69	250.79	2.16	-54.5	-63.3	3.8	7.44e-01	0	45	104	0	79	10595
2026-01-23 00:13:10.71	250.58	1.96	-54.5	-63.3	3.8	7.45e-01	0	45	104	0	79	10576

#Closed at: 2026-01-23 00:13:10
#Recorded file [0 MB]: D:/lorett/data/31041_260123_030332.dat