passes_logs/2026/01/23/R3.2S_Murmansk/R3.2S_Murmansk__20260123_040934_AQUA_rec.log

#Pass ID: 20260123_040934_AQUA
#Satellite: AQUA
#Configuration: AQUA
#almurnet v.1.7.20251203
#Start time: 2026-01-23 04:09:34

#Version: 2.2.20231116
#Station: R3.2S_Murmansk
#Location: 33.079688 lon 68.888172 lat
#TLE: 1 27424U 02022A   26022.49486490  .00002153  00000+0  44069-3 0  9997
#TLE: 2 27424  98.4099 349.0485 0001970  69.5876  43.4746 14.61847233261984

#Time	Az	El	Level	Level2	SNR	BER	BlckErr	Temp	State	Recorded	gain1	gain2
2026-01-23 04:09:34.51	30.97	2.02	-55.7	-73.6	3.8	7.43e-01	0	41	0	0	82	29026
2026-01-23 04:09:37.52	30.82	2.21	-55.9	-73.7	3.8	7.45e-01	0	41	104	0	82	29605
2026-01-23 04:09:40.55	30.67	2.40	-55.9	-73.7	3.8	7.44e-01	0	41	104	0	82	29595
2026-01-23 04:09:43.57	30.52	2.59	-55.8	-73.6	3.8	7.47e-01	0	41	104	0	82	29168
2026-01-23 04:09:46.60	30.37	2.79	-55.7	-73.6	3.8	7.47e-01	0	41	104	0	82	29020
2026-01-23 04:09:49.62	30.21	2.99	-55.6	-73.4	3.8	7.41e-01	0	41	104	0	82	28388
2026-01-23 04:09:52.65	30.06	3.18	-55.3	-73.0	3.8	7.44e-01	0	41	104	0	82	27311
2026-01-23 04:09:55.67	29.90	3.38	-54.7	-72.3	3.8	7.46e-01	0	41	104	0	81	26673
2026-01-23 04:09:58.70	29.73	3.58	-53.9	-70.9	3.8	7.46e-01	0	41	104	0	79	25297
2026-01-23 04:10:01.72	29.57	3.78	-53.7	-66.8	4.6	7.23e-01	0	42	104	0	78	16804
2026-01-23 04:10:04.75	29.40	3.99	-53.6	-65.0	5.8	6.89e-01	62	42	0	1048576	78	13571
2026-01-23 04:10:07.77	29.23	4.19	-53.4	-63.3	7.1	6.57e-01	182	42	0	5767168	78	11173
2026-01-23 04:10:10.80	29.05	4.40	-52.3	-58.0	12.6	6.07e-01	0	42	0	11534336	76	6838
2026-01-23 04:10:13.82	28.88	4.60	-51.6	-56.1	14.5	6.05e-01	0	42	0	17301504	75	5808
2026-01-23 04:10:16.85	28.70	4.81	-51.6	-56.3	14.4	6.04e-01	0	42	0	23068672	74	6279
2026-01-23 04:10:19.87	28.52	5.02	-52.9	-60.5	10.1	6.20e-01	0	42	0	28311552	76	9078
2026-01-23 04:10:22.90	28.33	5.23	-53.8	-69.9	3.7	7.44e-01	0	42	104	34078720	78	24076
2026-01-23 04:10:25.92	28.14	5.45	-47.3	-49.0	21.7	5.99e-01	0	42	0	37224448	66	4315
2026-01-23 04:10:28.95	27.95	5.66	-46.1	-47.6	23.4	6.03e-01	0	42	0	42991616	64	4123
2026-01-23 04:10:31.97	27.75	5.88	-46.0	-47.4	23.6	6.04e-01	0	42	0	48758784	63	4270
2026-01-23 04:10:35.00	27.55	6.10	-45.7	-47.1	24.0	6.02e-01	0	42	0	54001664	63	4124
2026-01-23 04:10:38.02	27.35	6.32	-45.6	-47.0	24.1	6.05e-01	0	42	0	60293120	62	4316
2026-01-23 04:10:41.05	27.15	6.54	-45.8	-47.3	23.9	5.99e-01	0	42	0	65536000	62	4445
2026-01-23 04:10:44.07	26.94	6.76	-45.6	-47.0	24.2	6.05e-01	0	42	0	71303168	62	4313
2026-01-23 04:10:47.10	26.72	6.99	-45.7	-47.1	24.2	6.01e-01	0	42	0	77070336	62	4361
2026-01-23 04:10:50.13	26.50	7.22	-45.5	-46.9	24.4	6.02e-01	0	42	0	82837504	62	4246
2026-01-23 04:10:53.15	26.28	7.45	-45.3	-46.7	24.6	6.02e-01	0	42	0	88604672	62	4149
2026-01-23 04:10:56.17	26.06	7.68	-45.3	-46.6	24.7	6.03e-01	0	42	0	93847552	62	4108
2026-01-23 04:10:59.20	25.83	7.91	-45.3	-46.6	24.8	6.02e-01	0	42	0	99614720	62	4099
2026-01-23 04:11:02.22	25.60	8.15	-45.4	-46.7	24.7	6.01e-01	0	43	0	105381888	62	4156
2026-01-23 04:11:05.25	25.36	8.38	-45.1	-46.4	25.0	6.03e-01	0	42	0	111149056	61	4266
2026-01-23 04:11:08.27	25.12	8.62	-45.1	-46.4	24.9	6.03e-01	0	42	0	116916224	61	4271
2026-01-23 04:11:11.30	24.87	8.87	-44.9	-46.2	25.2	6.02e-01	0	42	0	122159104	61	4160
2026-01-23 04:11:14.33	24.62	9.11	-44.8	-46.1	25.2	6.03e-01	0	42	0	127926272	61	4100
2026-01-23 04:11:17.35	24.36	9.35	-44.8	-46.0	25.3	6.02e-01	0	43	0	133693440	61	4085
2026-01-23 04:11:20.37	24.10	9.60	-44.5	-45.7	25.7	6.01e-01	0	43	0	139460608	61	3932
2026-01-23 04:11:23.40	23.83	9.85	-44.5	-45.7	25.7	6.02e-01	0	43	0	145227776	60	4170
2026-01-23 04:11:26.43	23.56	10.10	-44.5	-45.7	25.8	6.02e-01	0	42	0	150994944	60	4166
2026-01-23 04:11:29.45	23.28	10.36	-44.6	-45.9	25.6	6.00e-01	0	43	0	156237824	60	4243
2026-01-23 04:11:32.47	23.00	10.62	-44.6	-45.8	25.7	6.05e-01	0	43	0	162004992	60	4203
2026-01-23 04:11:35.50	22.71	10.87	-44.6	-45.8	25.7	6.02e-01	0	43	0	167772160	60	4226
2026-01-23 04:11:38.52	22.42	11.14	-44.4	-45.6	25.9	6.00e-01	0	43	0	173539328	60	4112
2026-01-23 04:11:41.55	22.12	11.40	-44.4	-45.6	25.9	6.05e-01	0	43	0	179306496	60	4128
2026-01-23 04:11:44.57	21.81	11.67	-44.4	-45.6	26.0	6.07e-01	0	43	0	184549376	60	4101
2026-01-23 04:11:47.60	21.50	11.94	-44.4	-45.6	25.9	6.04e-01	0	43	0	190316544	60	4134
2026-01-23 04:11:50.63	21.18	12.21	-44.3	-45.5	25.5	6.01e-01	0	43	0	196083712	60	4054
2026-01-23 04:11:53.65	20.86	12.48	-44.3	-45.4	26.2	6.03e-01	0	43	0	201850880	60	4037
2026-01-23 04:11:56.67	20.52	12.76	-44.3	-45.4	26.1	6.04e-01	0	43	0	207618048	60	4036
2026-01-23 04:11:59.70	20.18	13.04	-44.3	-45.5	26.1	6.01e-01	0	43	0	212860928	60	4079
2026-01-23 04:12:02.72	19.84	13.32	-44.0	-45.1	26.5	6.00e-01	0	43	0	218628096	60	3910
2026-01-23 04:12:05.75	19.48	13.60	-44.0	-45.1	26.5	6.05e-01	0	43	0	224395264	60	3895
2026-01-23 04:12:08.77	19.12	13.89	-44.1	-45.3	26.2	6.03e-01	0	43	0	230162432	59	4203
2026-01-23 04:12:11.80	18.75	14.18	-44.0	-45.1	26.5	6.04e-01	0	43	0	235929600	59	4115
2026-01-23 04:12:14.83	18.38	14.47	-44.1	-45.2	26.3	6.01e-01	0	43	0	241696768	59	4178
2026-01-23 04:12:17.85	17.99	14.76	-43.9	-45.0	26.5	6.04e-01	0	43	0	246939648	59	4083
2026-01-23 04:12:20.87	17.60	15.06	-43.8	-44.9	26.5	6.02e-01	0	43	0	252706816	59	4041
2026-01-23 04:12:23.90	17.19	15.36	-43.8	-44.9	26.6	6.02e-01	0	43	0	258473984	59	4051
2026-01-23 04:12:26.92	16.78	15.66	-43.8	-44.9	26.7	6.01e-01	0	43	0	264241152	59	4017
2026-01-23 04:12:29.95	16.36	15.97	-43.8	-44.9	26.6	6.02e-01	0	43	0	270008320	59	4047
2026-01-23 04:12:32.97	15.93	16.28	-43.9	-45.0	26.6	6.03e-01	0	43	0	275251200	59	4071
2026-01-23 04:12:35.99	15.49	16.59	-43.8	-44.9	26.7	6.03e-01	0	43	0	281018368	59	4015
2026-01-23 04:12:39.02	15.04	16.90	-43.6	-44.7	26.9	6.05e-01	0	43	0	286785536	59	3927
2026-01-23 04:12:42.04	14.58	17.22	-43.8	-44.9	26.7	6.04e-01	0	43	0	292552704	59	4016
2026-01-23 04:12:45.06	14.11	17.54	-43.9	-45.0	26.5	6.02e-01	0	43	0	298319872	59	4092
2026-01-23 04:12:48.08	13.63	17.86	-44.1	-45.2	26.4	6.03e-01	0	43	0	303562752	59	4169
2026-01-23 04:12:51.11	13.14	18.18	-44.1	-45.3	26.4	6.03e-01	0	43	0	309854208	59	4195
2026-01-23 04:12:54.13	12.63	18.51	-44.0	-45.1	26.5	6.02e-01	0	43	0	315097088	59	4110
2026-01-23 04:12:57.16	12.11	18.84	-43.9	-45.1	26.6	6.00e-01	0	43	0	320864256	59	4106
2026-01-23 04:13:00.18	11.59	19.17	-43.9	-45.0	26.6	6.04e-01	0	43	0	326631424	59	4086
2026-01-23 04:13:03.21	11.04	19.50	-43.7	-44.8	26.8	6.03e-01	0	43	0	332398592	59	3981
2026-01-23 04:13:06.23	10.49	19.84	-43.9	-45.0	26.7	6.02e-01	0	43	0	338165760	59	4061
2026-01-23 04:13:09.26	9.92	20.18	-43.9	-45.1	26.6	6.00e-01	0	43	0	343408640	59	4102
2026-01-23 04:13:12.29	9.34	20.52	-44.2	-45.4	26.4	6.02e-01	0	43	0	349175808	59	4243
2026-01-23 04:13:15.31	8.74	20.86	-43.9	-45.0	26.7	6.02e-01	0	43	0	354942976	59	4095
2026-01-23 04:13:18.33	8.13	21.20	-44.2	-45.4	26.3	6.02e-01	0	43	0	360710144	59	4252
2026-01-23 04:13:21.36	7.51	21.55	-44.2	-45.3	26.4	6.03e-01	0	43	0	366477312	59	4211
2026-01-23 04:13:24.38	6.87	21.90	-44.1	-45.2	26.6	6.02e-01	0	43	0	371720192	59	4173
2026-01-23 04:13:27.41	6.21	22.25	-44.2	-45.3	26.5	6.02e-01	0	43	0	377487360	59	4208
2026-01-23 04:13:30.43	5.54	22.60	-44.1	-45.2	26.5	6.05e-01	0	43	0	383254528	59	4174
2026-01-23 04:13:33.45	4.86	22.95	-44.2	-45.4	26.4	6.06e-01	0	43	0	389021696	59	4257
2026-01-23 04:13:36.48	4.15	23.30	-44.5	-45.7	26.2	5.99e-01	0	43	0	394788864	59	4409
2026-01-23 04:13:39.50	3.43	23.65	-44.2	-45.3	26.4	6.03e-01	0	43	0	400031744	59	4231
2026-01-23 04:13:42.53	2.69	24.01	-44.7	-55.4	3.9	7.38e-01	0	43	104	401604608	60	12780
2026-01-23 04:13:45.55	1.94	24.36	-48.4	-59.5	3.8	7.43e-01	0	43	104	401604608	69	12230
2026-01-23 04:13:48.57	1.17	24.71	-44.5	-55.2	3.8	7.49e-01	0	43	104	401604608	60	12449
2026-01-23 04:13:51.60	0.37	25.07	-45.0	-55.7	3.8	7.48e-01	0	43	104	401604608	62	11734
2026-01-23 04:13:54.62	359.56	25.42	-45.4	-56.1	3.6	7.55e-01	0	43	104	401604608	61	12989
2026-01-23 04:13:57.65	358.73	25.77	-44.3	-54.9	3.8	7.48e-01	0	43	104	401604608	60	12086
2026-01-23 04:14:00.67	357.88	26.12	-54.5	-69.6	3.7	7.48e-01	0	43	104	401604608	79	21767
2026-01-23 04:14:03.69	357.01	26.46	-44.7	-55.5	3.9	7.46e-01	0	43	104	401604608	61	12144
2026-01-23 04:14:06.72	356.12	26.81	-48.1	-59.2	3.8	7.44e-01	0	43	104	401604608	66	13933
2026-01-23 04:14:09.74	355.21	27.15	-46.8	-57.6	3.8	7.42e-01	0	43	104	401604608	65	12374
2026-01-23 04:14:12.76	354.28	27.49	-44.3	-54.9	3.8	7.44e-01	0	43	104	401604608	60	12032
2026-01-23 04:14:15.79	353.33	27.82	-44.2	-54.9	3.8	7.44e-01	0	43	104	401604608	60	12023
2026-01-23 04:14:18.81	352.36	28.15	-47.2	-58.1	3.8	7.48e-01	0	43	104	401604608	64	13798
2026-01-23 04:14:21.83	351.37	28.47	-44.0	-54.6	3.8	7.39e-01	0	43	104	401604608	59	12308
2026-01-23 04:14:24.86	350.35	28.79	-55.0	-71.5	3.7	7.46e-01	0	43	104	401604608	80	25839
2026-01-23 04:14:27.88	349.32	29.11	-43.7	-54.3	3.8	7.43e-01	0	43	104	401604608	59	11887
2026-01-23 04:14:30.91	348.26	29.41	-49.3	-60.8	3.8	7.45e-01	0	43	104	401604608	69	14097
2026-01-23 04:14:33.93	347.18	29.71	-47.1	-58.0	3.8	7.41e-01	0	43	104	401604608	65	12935
2026-01-23 04:14:36.96	346.08	30.00	-43.8	-54.4	3.8	7.43e-01	0	43	104	401604608	59	12068
2026-01-23 04:14:39.99	344.96	30.29	-44.0	-54.7	3.9	7.43e-01	0	43	104	401604608	59	12405
2026-01-23 04:14:43.01	343.82	30.56	-48.8	-60.1	3.8	7.40e-01	0	43	104	401604608	68	13770
2026-01-23 04:14:46.03	342.67	30.82	-43.8	-54.4	3.8	7.44e-01	0	43	104	401604608	59	12049
2026-01-23 04:14:49.05	341.49	31.07	-55.0	-71.4	3.8	7.42e-01	0	43	104	401604608	80	25356
2026-01-23 04:14:52.08	340.29	31.32	-44.0	-54.6	3.8	7.40e-01	0	43	104	401604608	59	12283
2026-01-23 04:14:55.11	339.07	31.54	-49.4	-60.9	3.8	7.40e-01	0	43	104	401604608	70	13514
2026-01-23 04:14:58.13	337.84	31.76	-46.0	-56.8	3.9	7.46e-01	0	43	104	401604608	64	11947
2026-01-23 04:15:01.15	336.59	31.96	-43.9	-54.5	3.8	7.46e-01	0	43	104	401604608	59	12224
2026-01-23 04:15:04.18	335.33	32.15	-44.0	-54.7	3.8	7.47e-01	0	44	104	401604608	60	11761
2026-01-23 04:15:07.20	334.05	32.33	-48.6	-59.9	3.8	7.47e-01	0	43	104	401604608	68	13439
2026-01-23 04:15:10.22	332.76	32.49	-44.2	-54.7	3.8	7.46e-01	0	43	104	401604608	59	12501
2026-01-23 04:15:13.25	331.45	32.63	-54.5	-69.9	3.9	7.45e-01	0	43	104	401604608	80	21366
2026-01-23 04:15:16.28	330.13	32.76	-44.0	-54.6	3.8	7.43e-01	0	43	104	401604608	60	11637
2026-01-23 04:15:19.30	328.80	32.87	-47.5	-58.6	3.8	7.44e-01	0	43	104	401604608	67	12262
2026-01-23 04:15:22.32	327.46	32.97	-44.7	-55.4	3.8	7.45e-01	0	43	104	401604608	61	12078
2026-01-23 04:15:25.35	326.12	33.05	-44.2	-54.9	3.8	7.47e-01	0	43	104	401604608	60	12052
2026-01-23 04:15:28.38	324.76	33.11	-44.4	-55.1	3.8	7.48e-01	0	43	104	401604608	60	12248
2026-01-23 04:15:31.40	323.41	33.15	-47.1	-58.1	3.8	7.41e-01	0	43	104	401604608	66	12255
2026-01-23 04:15:34.42	322.05	33.18	-45.9	-56.9	3.8	7.47e-01	0	43	104	401604608	62	13488
2026-01-23 04:15:37.45	320.69	33.18	-50.3	-61.7	3.9	7.44e-01	0	43	104	401604608	72	13130
2026-01-23 04:15:40.48	319.33	33.17	-44.7	-55.5	3.8	7.42e-01	0	43	104	401604608	61	12107
2026-01-23 04:15:43.50	317.97	33.15	-46.7	-57.6	3.8	7.45e-01	0	43	104	401604608	65	12267
2026-01-23 04:15:46.52	316.62	33.10	-44.9	-55.7	3.8	7.48e-01	0	43	104	401604608	61	12380
2026-01-23 04:15:49.55	315.27	33.04	-44.8	-55.5	3.8	7.45e-01	0	43	104	401604608	61	12161
2026-01-23 04:15:52.57	313.93	32.96	-48.1	-59.1	3.8	7.45e-01	0	43	104	401604608	66	13877
2026-01-23 04:15:55.60	312.59	32.86	-45.4	-55.9	3.8	7.44e-01	0	43	104	401604608	62	11961
2026-01-23 04:15:58.62	311.26	32.74	-50.0	-61.6	3.8	7.45e-01	0	43	104	401604608	70	14609
2026-01-23 04:16:01.64	309.95	32.61	-48.3	-59.2	3.8	7.42e-01	0	43	104	401604608	68	12464
2026-01-23 04:16:04.67	308.64	32.47	-44.7	-55.3	3.9	7.44e-01	0	43	104	401604608	61	11868
2026-01-23 04:16:07.69	307.35	32.30	-45.8	-56.7	3.8	7.44e-01	0	43	104	401604608	63	12498
2026-01-23 04:16:10.72	306.06	32.13	-47.2	-58.1	3.8	7.46e-01	0	43	104	401604608	64	13752
2026-01-23 04:16:13.74	304.80	31.93	-44.9	-55.4	3.8	7.42e-01	0	43	104	401604608	61	11995
2026-01-23 04:16:16.76	303.56	31.73	-52.7	-65.5	3.8	7.47e-01	0	43	104	401604608	75	17249
2026-01-23 04:16:19.79	302.32	31.51	-44.9	-55.2	3.8	7.46e-01	0	43	104	401604608	61	11797
2026-01-23 04:16:22.81	301.11	31.28	-49.2	-60.0	3.9	7.44e-01	0	43	104	401604608	68	13713
2026-01-23 04:16:25.83	299.91	31.04	-48.3	-59.0	3.9	7.43e-01	0	43	104	401604608	67	12858
2026-01-23 04:16:28.86	298.73	30.78	-45.0	-56.7	3.8	7.45e-01	0	43	104	401604608	62	13211
2026-01-23 04:16:31.89	297.58	30.52	-46.5	-56.7	3.8	7.42e-01	0	43	104	401604608	63	12515
2026-01-23 04:16:34.91	296.44	30.24	-50.1	-61.2	3.8	7.40e-01	0	43	104	401604608	70	13973
2026-01-23 04:16:37.93	295.32	29.96	-45.1	-56.5	3.8	7.43e-01	0	43	104	401604608	62	12903
2026-01-23 04:16:40.96	294.22	29.67	-54.0	-67.8	3.8	7.47e-01	0	43	104	401604608	78	18925
2026-01-23 04:16:43.98	293.15	29.37	-45.2	-55.6	3.8	7.41e-01	0	43	104	401604608	62	11580
2026-01-23 04:16:47.00	292.09	29.06	-50.6	-62.1	3.8	7.45e-01	0	43	104	401604608	71	14611
2026-01-23 04:16:50.03	291.06	28.74	-47.5	-58.0	3.9	7.45e-01	0	43	104	401604608	67	11487
2026-01-23 04:16:53.05	290.05	28.42	-45.2	-55.6	3.8	7.42e-01	0	43	104	401604608	62	11606
2026-01-23 04:16:56.08	289.05	28.10	-47.2	-58.4	3.8	7.43e-01	0	43	104	401604608	65	13456
2026-01-23 04:16:59.10	288.08	27.76	-51.8	-64.0	3.8	7.43e-01	0	43	104	401604608	74	15233
2026-01-23 04:17:02.12	287.13	27.43	-45.9	-56.9	3.8	7.44e-01	0	43	104	401604608	63	12796
2026-01-23 04:17:05.15	286.20	27.09	-51.7	-63.4	3.8	7.43e-01	0	43	104	401604608	74	14293
2026-01-23 04:17:08.17	285.29	26.75	-46.8	-58.1	3.9	7.46e-01	0	43	104	401604608	65	13087
2026-01-23 04:17:11.19	284.41	26.40	-47.7	-58.3	3.8	7.44e-01	0	43	104	401604608	66	12653
2026-01-23 04:17:14.22	283.54	26.05	-46.0	-57.2	3.9	7.43e-01	0	43	104	401604608	64	12406
2026-01-23 04:17:17.24	282.69	25.71	-45.9	-56.3	3.8	7.46e-01	0	43	104	401604608	63	11901
2026-01-23 04:17:20.27	281.86	25.35	-46.4	-57.6	3.9	7.44e-01	0	43	104	401604608	64	13067
2026-01-23 04:17:23.29	281.05	25.00	-52.9	-65.2	3.9	7.42e-01	0	43	104	401604608	77	14859
2026-01-23 04:17:26.31	280.26	24.65	-48.6	-59.2	3.8	7.45e-01	0	43	104	401604608	68	12398
2026-01-23 04:17:29.34	279.48	24.29	-47.2	-58.6	3.8	7.44e-01	0	43	104	401604608	66	13053
2026-01-23 04:17:32.36	278.73	23.94	-46.3	-57.8	3.8	7.44e-01	0	43	104	401604608	64	13400
2026-01-23 04:17:35.39	277.99	23.58	-47.7	-59.7	3.9	7.45e-01	0	43	104	401604608	67	13950
2026-01-23 04:17:38.41	277.27	23.23	-47.2	-58.8	3.9	7.45e-01	0	43	104	401604608	66	13325
2026-01-23 04:17:41.43	276.57	22.88	-48.1	-59.7	3.8	7.45e-01	0	43	104	401604608	67	14027
2026-01-23 04:17:44.46	275.88	22.53	-46.2	-57.4	3.8	7.41e-01	0	43	104	401604608	64	12673
2026-01-23 04:17:47.48	275.21	22.18	-49.6	-61.2	3.9	7.43e-01	0	43	104	401604608	71	13139
2026-01-23 04:17:50.50	274.56	21.83	-45.4	-55.7	3.8	7.45e-01	0	43	104	401604608	62	11744
2026-01-23 04:17:53.53	273.92	21.48	-48.8	-60.0	3.8	7.43e-01	0	43	104	401604608	69	12871
2026-01-23 04:17:56.55	273.29	21.13	-46.8	-58.0	3.9	7.44e-01	0	43	104	401604608	65	12888
2026-01-23 04:17:59.58	272.68	20.79	-49.9	-61.5	3.8	7.46e-01	0	43	104	401604608	70	14460
2026-01-23 04:18:02.60	272.09	20.44	-48.3	-59.2	3.8	7.48e-01	0	43	104	401604608	66	13888
2026-01-23 04:18:05.62	271.51	20.10	-46.2	-57.3	3.9	7.44e-01	0	43	104	401604608	63	13403
2026-01-23 04:18:08.65	270.94	19.76	-48.1	-58.9	3.8	7.48e-01	0	43	104	401604608	66	13552
2026-01-23 04:18:11.67	270.39	19.43	-47.1	-58.2	3.9	7.42e-01	0	43	104	401604608	66	12412
2026-01-23 04:18:14.70	269.85	19.09	-49.2	-60.4	3.8	7.48e-01	0	43	104	401604608	68	14361
2026-01-23 04:18:17.72	269.32	18.76	-46.3	-57.3	3.8	7.45e-01	0	43	104	401604608	64	12576
2026-01-23 04:18:20.75	268.80	18.43	-45.7	-56.4	3.8	7.44e-01	0	43	104	401604608	63	11987
2026-01-23 04:18:23.78	268.29	18.10	-47.0	-58.2	3.8	7.48e-01	0	43	104	401604608	65	13125
2026-01-23 04:18:26.80	267.80	17.78	-49.0	-60.1	3.8	7.46e-01	0	43	104	401604608	68	13782
2026-01-23 04:18:29.83	267.32	17.46	-46.1	-57.0	3.8	7.42e-01	0	43	104	401604608	63	12939
2026-01-23 04:18:32.86	266.85	17.14	-49.4	-60.8	3.8	7.45e-01	0	43	104	401604608	69	14052
2026-01-23 04:18:35.88	266.39	16.82	-46.1	-56.9	3.8	7.42e-01	0	43	104	401604608	64	12080
2026-01-23 04:18:38.91	265.94	16.51	-45.9	-56.7	3.8	7.46e-01	0	43	104	401604608	62	13234
2026-01-23 04:18:41.93	265.50	16.19	-47.6	-58.6	3.8	7.47e-01	0	43	104	401604608	67	12296
2026-01-23 04:18:44.96	265.07	15.89	-46.0	-57.0	3.8	7.44e-01	0	43	104	401604608	63	12829
2026-01-23 04:18:47.98	264.65	15.58	-50.0	-61.8	3.9	7.46e-01	0	44	104	401604608	70	14884
2026-01-23 04:18:51.00	264.23	15.28	-53.3	-67.2	3.8	7.45e-01	0	43	104	401604608	77	18592
2026-01-23 04:18:54.03	263.83	14.98	-45.8	-56.7	3.8	7.47e-01	0	43	104	401604608	63	12395
2026-01-23 04:18:57.05	263.44	14.68	-49.9	-61.5	3.8	7.46e-01	0	44	104	401604608	70	14479
2026-01-23 04:19:00.08	263.05	14.38	-46.0	-56.8	3.8	7.42e-01	0	43	104	401604608	63	12628
2026-01-23 04:19:03.10	262.67	14.09	-47.4	-58.5	3.8	7.45e-01	0	43	104	401604608	66	12936
2026-01-23 04:19:06.12	262.31	13.80	-46.1	-57.1	3.9	7.41e-01	0	43	104	401604608	64	12288
2026-01-23 04:19:09.14	261.94	13.52	-46.1	-57.0	3.8	7.47e-01	0	43	104	401604608	64	12202
2026-01-23 04:19:12.17	261.59	13.23	-48.9	-60.5	3.9	7.44e-01	0	44	104	401604608	70	12873
2026-01-23 04:19:15.19	261.24	12.95	-51.2	-63.5	3.8	7.44e-01	0	43	104	401604608	74	14378
2026-01-23 04:19:18.22	260.90	12.67	-46.2	-57.2	3.8	7.44e-01	0	44	104	401604608	63	13172
2026-01-23 04:19:21.24	260.57	12.40	-49.1	-60.7	3.8	7.46e-01	0	43	104	401604608	70	13172
2026-01-23 04:19:24.26	260.25	12.12	-46.7	-57.6	3.8	7.43e-01	0	43	104	401604608	65	12334
2026-01-23 04:19:27.28	259.93	11.85	-46.2	-57.0	3.8	7.44e-01	0	44	104	401604608	64	12232
2026-01-23 04:19:30.31	259.61	11.58	-46.1	-56.9	3.8	7.43e-01	0	43	104	401604608	64	12062
2026-01-23 04:19:33.33	259.31	11.32	-46.2	-57.1	3.8	7.44e-01	0	43	104	401604608	63	13023
2026-01-23 04:19:36.36	259.01	11.05	-46.3	-57.1	3.8	7.42e-01	0	43	104	401604608	64	12357
2026-01-23 04:19:39.38	258.71	10.79	-50.7	-62.9	3.9	7.44e-01	0	43	104	401604608	73	14217
2026-01-23 04:19:42.41	258.42	10.53	-45.8	-56.7	3.8	7.45e-01	0	43	104	401604608	63	12444
2026-01-23 04:19:45.43	258.14	10.27	-50.5	-62.5	3.8	7.47e-01	0	44	104	401604608	73	13707
2026-01-23 04:19:48.45	257.86	10.02	-46.5	-57.3	3.9	7.46e-01	0	44	104	401604608	64	12662
2026-01-23 04:19:51.48	257.59	9.77	-47.3	-58.5	3.8	7.42e-01	0	44	104	401604608	65	13621
2026-01-23 04:19:54.50	257.32	9.52	-46.9	-57.9	3.8	7.46e-01	0	43	104	401604608	64	13483
2026-01-23 04:19:57.53	257.06	9.27	-46.6	-57.6	3.8	7.45e-01	0	44	104	401604608	65	12338
2026-01-23 04:20:00.55	256.80	9.02	-46.6	-57.4	3.8	7.46e-01	0	44	104	401604608	64	12783
2026-01-23 04:20:03.58	256.55	8.78	-47.4	-58.3	3.8	7.41e-01	0	44	104	401604608	66	12556
2026-01-23 04:20:06.61	256.30	8.54	-48.4	-59.8	3.9	7.45e-01	0	44	104	401604608	67	14114
2026-01-23 04:20:09.63	256.06	8.30	-47.5	-58.7	3.8	7.42e-01	0	43	104	401604608	66	13198
2026-01-23 04:20:12.66	255.82	8.06	-46.9	-57.9	3.8	7.43e-01	0	43	104	401604608	65	12734
2026-01-23 04:20:15.69	255.59	7.82	-49.1	-60.6	3.8	7.47e-01	0	43	104	401604608	68	14597
2026-01-23 04:20:18.71	255.36	7.59	-49.7	-61.4	3.8	7.45e-01	0	43	104	401604608	69	15213
2026-01-23 04:20:21.73	255.13	7.36	-46.9	-58.0	3.9	7.47e-01	0	43	104	401604608	65	12844
2026-01-23 04:20:24.76	254.91	7.13	-49.5	-61.2	3.8	7.44e-01	0	43	104	401604608	69	14828
2026-01-23 04:20:27.78	254.69	6.90	-47.4	-58.5	3.8	7.44e-01	0	43	104	401604608	66	12883
2026-01-23 04:20:30.81	254.48	6.68	-48.4	-59.8	3.8	7.42e-01	0	43	104	401604608	67	14114
2026-01-23 04:20:33.83	254.26	6.45	-49.4	-61.1	3.8	7.47e-01	0	44	104	401604608	69	14584
2026-01-23 04:20:36.86	254.06	6.23	-47.5	-58.6	3.8	7.40e-01	0	44	104	401604608	66	13049
2026-01-23 04:20:39.88	253.85	6.01	-49.5	-51.9	19.4	6.04e-01	0	43	0	403701760	69	5082
2026-01-23 04:20:42.91	253.65	5.79	-52.1	-56.7	14.6	6.03e-01	0	43	0	409468928	74	6597
2026-01-23 04:20:45.93	253.46	5.57	-47.2	-48.9	22.2	6.04e-01	0	43	0	415236096	65	4511
2026-01-23 04:20:48.95	253.26	5.36	-46.8	-48.5	22.7	6.00e-01	0	44	0	421003264	64	4554
2026-01-23 04:20:51.98	253.07	5.15	-46.7	-48.3	22.7	6.02e-01	0	43	0	426770432	64	4481
2026-01-23 04:20:55.00	252.89	4.93	-54.3	-70.8	4.2	7.47e-01	0	43	0	432013312	79	25076
2026-01-23 04:20:58.03	252.70	4.72	-54.8	-72.6	3.8	7.47e-01	0	44	104	432013312	80	29153
2026-01-23 04:21:01.05	252.52	4.51	-54.9	-72.7	3.8	7.47e-01	0	43	104	432013312	80	29409
2026-01-23 04:21:04.08	252.34	4.31	-54.7	-72.5	3.8	7.44e-01	0	44	104	432013312	80	28810
2026-01-23 04:21:07.10	252.17	4.10	-54.8	-72.7	3.8	7.46e-01	0	43	104	432013312	80	29379
2026-01-23 04:21:10.13	252.00	3.90	-55.0	-72.8	3.8	7.45e-01	0	44	104	432013312	80	29949
2026-01-23 04:21:13.15	251.83	3.69	-55.1	-72.9	3.8	7.45e-01	0	44	104	432013312	80	30305
2026-01-23 04:21:16.17	251.66	3.49	-55.2	-73.1	3.9	7.48e-01	0	44	104	432013312	81	29065
2026-01-23 04:21:19.20	251.50	3.29	-55.2	-73.0	3.8	7.40e-01	0	44	104	432013312	81	28813
2026-01-23 04:21:22.22	251.34	3.09	-55.2	-73.0	3.8	7.45e-01	0	44	104	432013312	81	28820
2026-01-23 04:21:25.24	251.18	2.90	-55.1	-73.0	3.8	7.44e-01	0	44	104	432013312	81	28785
2026-01-23 04:21:28.27	251.02	2.70	-55.1	-73.0	3.8	7.44e-01	0	44	104	432013312	81	28768
2026-01-23 04:21:31.30	250.87	2.51	-55.1	-73.0	3.8	7.46e-01	0	44	104	432013312	81	28680
2026-01-23 04:21:34.32	250.71	2.31	-55.1	-73.0	3.8	7.43e-01	0	44	104	432013312	81	28687
2026-01-23 04:21:37.35	250.56	2.12	-55.1	-73.0	3.8	7.47e-01	0	44	104	432013312	81	28687

#Closed at: 2026-01-23 04:21:39
#Recorded file [432 MB]: D:/lorett/data/31041_260123_070934.dat