passes_logs/2026/01/23/R3.2S_Murmansk/R3.2S_Murmansk__20260123_222204_SUOMI_NPP_rec.log

#Pass ID: 20260123_222204_SUOMI NPP
#Satellite: SUOMI NPP
#Configuration: NPP
#almurnet v.1.7.20251203
#Start time: 2026-01-23 22:22:06

#Version: 2.2.20231116
#Station: R3.2S_Murmansk
#Location: 33.079688 lon 68.888172 lat
#TLE: 1 37849U 11061A   26022.92790088  .00000200  00000+0  11571-3 0  9994
#TLE: 2 37849  98.7820 324.9085 0002258  50.1112 310.0263 14.19528452737839

#Time	Az	El	Level	Level2	SNR	BER	BlckErr	Temp	State	Recorded	gain1	gain2
2026-01-23 22:22:06.60	18.97	2.12	-52.2	-67.1	3.8	1.49e+00	0	42	0	0	76	19605
2026-01-23 22:22:10.47	19.25	2.33	-52.1	-67.0	3.8	1.49e+00	0	42	104	0	74	21741
2026-01-23 22:22:14.34	19.53	2.55	-52.1	-67.0	3.8	1.49e+00	0	42	104	0	74	21732
2026-01-23 22:22:18.22	19.82	2.76	-52.1	-67.0	3.8	1.49e+00	0	42	104	0	74	21621
2026-01-23 22:22:22.10	20.11	2.98	-52.1	-67.0	3.8	1.49e+00	0	42	104	0	74	21621
2026-01-23 22:22:25.98	20.41	3.19	-52.1	-66.8	3.8	1.49e+00	0	42	104	0	74	21084
2026-01-23 22:22:29.87	20.71	3.41	-52.1	-66.7	3.8	1.49e+00	0	42	104	0	74	20972
2026-01-23 22:22:33.74	21.01	3.63	-52.0	-66.8	3.8	1.49e+00	0	42	104	0	74	21249
2026-01-23 22:22:37.62	21.32	3.85	-52.0	-66.7	3.8	1.49e+00	0	42	104	0	74	20866
2026-01-23 22:22:41.48	21.63	4.07	-52.0	-65.1	3.8	1.49e+00	0	42	104	0	74	17377
2026-01-23 22:22:45.38	21.95	4.29	-51.8	-63.1	4.3	1.38e+00	24	43	0	0	74	13758
2026-01-23 22:22:49.28	22.28	4.52	-50.3	-55.1	10.6	6.49e-03	0	42	0	6291456	72	6149
2026-01-23 22:22:53.16	22.60	4.74	-48.0	-50.6	15.3	0.00e+00	0	43	0	13631488	68	4603
2026-01-23 22:22:57.04	22.94	4.97	-48.9	-52.1	13.9	0.00e+00	0	43	0	20971520	68	5490
2026-01-23 22:23:00.92	23.27	5.19	-51.7	-61.7	5.1	2.20e-06	0	43	0	28311552	73	12473
2026-01-23 22:23:04.79	23.61	5.42	-47.4	-49.6	16.4	0.00e+00	0	42	0	35651584	66	4644
2026-01-23 22:23:08.66	23.96	5.65	-47.0	-49.0	17.1	0.00e+00	0	43	0	42991616	65	4587
2026-01-23 22:23:12.54	24.31	5.88	-46.7	-48.6	17.5	0.00e+00	0	43	0	50331648	65	4366
2026-01-23 22:23:16.42	24.67	6.11	-46.7	-48.6	17.4	0.00e+00	0	43	0	57671680	64	4645
2026-01-23 22:23:20.29	25.03	6.34	-46.6	-48.5	17.6	0.00e+00	0	43	0	65011712	64	4568
2026-01-23 22:23:24.18	25.40	6.58	-46.7	-48.6	17.6	0.00e+00	0	43	0	72351744	64	4633
2026-01-23 22:23:28.05	25.77	6.81	-47.3	-49.4	16.8	0.00e+00	0	43	0	79691776	65	4795
2026-01-23 22:23:31.92	26.15	7.05	-47.4	-49.5	16.7	0.00e+00	0	43	0	87031808	65	4847
2026-01-23 22:23:35.81	26.53	7.28	-47.5	-49.6	16.6	0.00e+00	0	43	0	94371840	66	4641
2026-01-23 22:23:39.69	26.92	7.52	-47.8	-50.1	16.3	0.00e+00	0	43	0	101711872	66	4886
2026-01-23 22:23:43.58	27.32	7.76	-47.4	-49.5	16.9	0.00e+00	0	43	0	108003328	66	4576
2026-01-23 22:23:47.46	27.73	8.00	-46.8	-48.7	17.6	0.00e+00	0	43	0	115343360	65	4415
2026-01-23 22:23:51.33	28.13	8.25	-46.9	-48.8	17.6	0.00e+00	0	43	0	122683392	65	4479
2026-01-23 22:23:55.21	28.55	8.49	-46.7	-48.5	17.9	0.00e+00	0	43	0	130023424	65	4294
2026-01-23 22:23:59.10	28.97	8.73	-46.4	-48.2	18.2	0.00e+00	0	43	0	137363456	64	4393
2026-01-23 22:24:02.97	29.40	8.98	-46.2	-47.9	18.5	0.00e+00	0	43	0	144703488	64	4243
2026-01-23 22:24:06.86	29.84	9.22	-46.0	-47.6	18.8	0.00e+00	0	43	0	152043520	63	4372
2026-01-23 22:24:10.73	30.28	9.47	-46.1	-47.6	18.8	0.00e+00	0	43	0	159383552	63	4381
2026-01-23 22:24:14.61	30.74	9.72	-46.3	-47.9	18.6	0.00e+00	0	43	0	166723584	63	4539
2026-01-23 22:24:18.49	31.19	9.97	-46.4	-48.0	18.5	0.00e+00	0	43	0	174063616	63	4585
2026-01-23 22:24:22.37	31.66	10.22	-46.2	-47.7	18.8	0.00e+00	0	43	0	181403648	63	4427
2026-01-23 22:24:26.24	32.13	10.47	-46.0	-47.5	19.0	0.00e+00	0	43	0	188743680	63	4336
2026-01-23 22:24:30.12	32.61	10.72	-45.7	-47.2	19.4	0.00e+00	0	43	0	196083712	63	4160
2026-01-23 22:24:33.99	33.10	10.97	-45.9	-47.4	19.2	0.00e+00	0	43	0	203423744	63	4244
2026-01-23 22:24:37.87	33.60	11.23	-45.8	-47.3	19.2	0.00e+00	0	43	0	210763776	63	4225
2026-01-23 22:24:41.75	34.11	11.48	-45.7	-47.1	19.5	0.00e+00	0	43	0	218103808	62	4370
2026-01-23 22:24:45.63	34.62	11.73	-45.2	-46.6	20.0	0.00e+00	0	43	0	224395264	62	4100
2026-01-23 22:24:49.50	35.14	11.99	-45.1	-46.5	20.1	0.00e+00	0	43	0	231735296	62	4053
2026-01-23 22:24:53.38	35.68	12.24	-45.2	-46.5	20.1	0.00e+00	0	43	0	239075328	62	4063
2026-01-23 22:24:57.26	36.22	12.50	-45.6	-47.0	19.7	0.00e+00	0	43	0	246415360	62	4309
2026-01-23 22:25:01.14	36.77	12.76	-45.8	-47.2	19.4	0.00e+00	0	43	0	253755392	62	4423
2026-01-23 22:25:05.01	37.33	13.01	-45.6	-47.0	19.6	0.00e+00	0	43	0	261095424	62	4315
2026-01-23 22:25:08.89	37.90	13.27	-45.6	-47.0	19.7	0.00e+00	0	43	0	268435456	62	4304
2026-01-23 22:25:12.77	38.47	13.53	-46.0	-47.6	19.2	0.00e+00	0	43	0	275775488	62	4606
2026-01-23 22:25:16.65	39.06	13.79	-45.3	-46.6	20.0	0.00e+00	0	43	0	283115520	62	4131
2026-01-23 22:25:20.54	39.66	14.05	-45.2	-46.5	20.2	0.00e+00	0	43	0	290455552	62	4070
2026-01-23 22:25:24.42	40.27	14.30	-45.1	-46.4	20.3	0.00e+00	0	43	0	297795584	62	4045
2026-01-23 22:25:28.30	40.89	14.56	-45.3	-46.7	20.1	0.00e+00	0	43	0	305135616	62	4157
2026-01-23 22:25:32.18	41.52	14.82	-45.5	-46.8	19.9	0.00e+00	0	43	0	312475648	62	4232
2026-01-23 22:25:36.06	42.16	15.07	-45.1	-46.4	20.3	0.00e+00	0	43	0	319815680	61	4272
2026-01-23 22:25:39.93	42.81	15.33	-45.5	-46.8	19.9	0.00e+00	0	43	0	327155712	61	4490
2026-01-23 22:25:43.81	43.47	15.58	-45.5	-46.9	19.8	0.00e+00	0	43	0	334495744	61	4533
2026-01-23 22:25:47.69	44.14	15.84	-45.1	-46.4	20.4	0.00e+00	0	43	0	340787200	61	4256
2026-01-23 22:25:51.56	44.83	16.09	-45.5	-46.9	19.9	0.00e+00	0	43	0	348127232	61	4501
2026-01-23 22:25:55.44	45.52	16.34	-45.1	-46.4	20.3	0.00e+00	0	43	0	355467264	61	4289
2026-01-23 22:25:59.32	46.23	16.59	-45.1	-46.3	20.5	0.00e+00	0	43	0	362807296	61	4226
2026-01-23 22:26:03.20	46.95	16.84	-45.0	-46.2	20.6	0.00e+00	0	43	0	370147328	61	4180
2026-01-23 22:26:07.08	47.68	17.09	-45.1	-46.3	20.4	0.00e+00	0	43	0	377487360	61	4240
2026-01-23 22:26:10.96	48.42	17.33	-45.3	-46.6	20.2	0.00e+00	0	43	0	384827392	61	4367
2026-01-23 22:26:14.84	49.17	17.57	-45.3	-46.6	20.2	0.00e+00	0	43	0	392167424	61	4367
2026-01-23 22:26:18.71	49.93	17.81	-45.0	-46.2	20.6	0.00e+00	0	43	0	399507456	61	4193
2026-01-23 22:26:22.60	50.71	18.05	-45.6	-47.0	19.8	0.00e+00	0	43	0	406847488	61	4591
2026-01-23 22:26:26.49	51.50	18.29	-45.3	-46.6	20.3	0.00e+00	0	43	0	414187520	62	4132
2026-01-23 22:26:30.37	52.30	18.52	-45.8	-47.2	19.7	0.00e+00	0	43	0	421527552	62	4416
2026-01-23 22:26:34.25	53.12	18.75	-46.1	-47.6	19.5	0.00e+00	0	43	0	428867584	63	4342
2026-01-23 22:26:38.14	53.94	18.97	-46.0	-47.4	19.5	0.00e+00	0	43	0	436207616	63	4290
2026-01-23 22:26:42.02	54.78	19.20	-46.7	-48.3	18.6	0.00e+00	0	43	0	443547648	64	4467
2026-01-23 22:26:45.89	55.63	19.41	-46.9	-48.5	18.5	0.00e+00	0	43	0	449839104	64	4570
2026-01-23 22:26:49.78	56.49	19.62	-46.9	-48.6	18.4	0.00e+00	0	43	0	457179136	64	4634
2026-01-23 22:26:53.66	57.36	19.83	-46.4	-47.9	19.1	0.00e+00	0	43	0	464519168	64	4251
2026-01-23 22:26:57.53	58.24	20.04	-46.1	-47.6	19.4	0.00e+00	0	43	0	471859200	64	4107
2026-01-23 22:27:01.41	59.14	20.23	-46.2	-47.7	19.3	0.00e+00	0	43	0	479199232	63	4411
2026-01-23 22:27:05.30	60.04	20.43	-46.2	-47.7	19.3	0.00e+00	0	43	0	486539264	63	4395
2026-01-23 22:27:09.18	60.96	20.61	-45.3	-46.6	20.3	0.00e+00	0	43	0	493879296	62	4125
2026-01-23 22:27:13.06	61.89	20.80	-45.7	-47.1	19.8	0.00e+00	0	43	0	501219328	62	4354
2026-01-23 22:27:16.94	62.83	20.97	-45.6	-47.0	20.0	0.00e+00	0	43	0	508559360	62	4294
2026-01-23 22:27:20.82	63.78	21.14	-46.1	-47.5	19.4	0.00e+00	0	43	0	515899392	63	4336
2026-01-23 22:27:24.70	64.73	21.30	-44.8	-46.0	20.8	0.00e+00	0	43	0	523239424	61	4082
2026-01-23 22:27:28.57	65.70	21.45	-45.4	-46.8	20.2	0.00e+00	0	43	0	530579456	61	4442
2026-01-23 22:27:32.45	66.68	21.60	-45.5	-46.8	20.1	0.00e+00	0	43	0	537919488	61	4484
2026-01-23 22:27:36.34	67.67	21.74	-45.2	-46.5	20.4	0.00e+00	0	43	0	545259520	61	4339
2026-01-23 22:27:40.22	68.66	21.87	-45.2	-46.4	20.4	0.00e+00	0	43	0	552599552	61	4291
2026-01-23 22:27:44.10	69.67	22.00	-45.3	-46.5	20.3	0.00e+00	0	43	0	559939584	61	4338
2026-01-23 22:27:47.99	70.68	22.11	-45.8	-47.1	19.9	0.00e+00	0	43	0	567279616	62	4377
2026-01-23 22:27:51.87	71.70	22.22	-45.4	-46.6	20.3	0.00e+00	0	43	0	573571072	62	4145
2026-01-23 22:27:55.75	72.72	22.32	-46.0	-47.4	19.6	0.00e+00	0	43	0	580911104	62	4538
2026-01-23 22:27:59.62	73.75	22.40	-45.1	-46.3	20.6	0.00e+00	0	43	0	588251136	61	4234
2026-01-23 22:28:03.51	74.79	22.48	-46.2	-47.6	19.4	0.00e+00	0	43	0	595591168	63	4387
2026-01-23 22:28:07.39	75.83	22.56	-45.3	-46.5	20.4	0.00e+00	0	43	0	602931200	62	4089
2026-01-23 22:28:11.28	76.88	22.62	-45.6	-47.0	20.0	0.00e+00	0	43	0	610271232	62	4301
2026-01-23 22:28:15.15	77.93	22.67	-45.7	-47.1	20.1	0.00e+00	0	43	0	617611264	62	4354
2026-01-23 22:28:19.03	78.98	22.71	-45.6	-46.9	20.1	0.00e+00	0	43	0	624951296	62	4271
2026-01-23 22:28:22.90	80.03	22.74	-46.1	-47.6	19.5	0.00e+00	0	43	0	632291328	62	4614
2026-01-23 22:28:26.80	81.09	22.76	-46.0	-47.4	19.7	0.00e+00	0	43	0	639631360	63	4257
2026-01-23 22:28:30.69	82.15	22.78	-45.8	-47.1	20.0	0.00e+00	0	43	0	646971392	63	4119
2026-01-23 22:28:34.57	83.21	22.78	-45.6	-47.0	20.1	0.00e+00	0	43	0	654311424	63	4054
2026-01-23 22:28:38.45	84.27	22.77	-45.4	-46.7	20.3	0.00e+00	0	43	0	661651456	62	4191
2026-01-23 22:28:42.32	85.33	22.75	-44.9	-46.2	20.8	0.00e+00	0	43	0	668991488	61	4149
2026-01-23 22:28:46.21	86.39	22.73	-44.8	-45.9	20.9	0.00e+00	0	43	0	676331520	61	4047
2026-01-23 22:28:50.14	87.45	22.69	-45.1	-46.4	20.5	0.00e+00	0	43	0	683671552	61	4261
2026-01-23 22:28:54.09	88.52	22.64	-45.1	-46.3	20.6	0.00e+00	0	43	0	691011584	61	4240
2026-01-23 22:28:58.02	89.59	22.58	-45.4	-46.7	20.2	0.00e+00	0	43	0	698351616	61	4434
2026-01-23 22:29:02.02	90.66	22.52	-45.1	-46.4	20.5	0.00e+00	0	43	0	705691648	61	4257
2026-01-23 22:29:06.05	91.74	22.44	-45.8	-47.1	19.9	0.00e+00	0	43	0	713031680	62	4391
2026-01-23 22:29:10.08	92.82	22.35	-44.7	-45.8	21.2	0.00e+00	0	43	0	720371712	61	4000
2026-01-23 22:29:14.11	93.88	22.25	-44.7	-45.9	21.1	0.00e+00	0	43	0	728760320	61	4034
2026-01-23 22:29:18.14	94.95	22.14	-44.1	-45.2	21.7	0.00e+00	0	43	0	736100352	60	3945
2026-01-23 22:29:22.17	96.00	22.02	-44.5	-45.7	21.3	0.00e+00	0	43	0	743440384	60	4148
2026-01-23 22:29:26.20	97.04	21.90	-44.5	-45.7	21.3	0.00e+00	0	43	0	750780416	60	4147
2026-01-23 22:29:30.24	98.08	21.76	-44.7	-45.9	21.1	0.00e+00	0	43	0	758120448	60	4246
2026-01-23 22:29:34.24	99.10	21.62	-44.2	-45.3	21.5	0.00e+00	0	43	0	766509056	60	4001
2026-01-23 22:29:38.26	100.12	21.46	-44.4	-45.5	21.7	0.00e+00	0	43	0	773849088	59	4326
2026-01-23 22:29:42.28	101.13	21.30	-44.3	-45.4	21.9	0.00e+00	0	43	0	781189120	59	4277
2026-01-23 22:29:46.31	102.12	21.14	-44.3	-45.5	21.4	0.00e+00	0	43	0	788529152	60	4065
2026-01-23 22:29:50.34	103.11	20.96	-44.5	-45.6	21.4	0.00e+00	0	43	0	795869184	60	4131
2026-01-23 22:29:54.35	104.08	20.78	-44.6	-45.8	21.1	0.00e+00	0	43	0	803209216	60	4231
2026-01-23 22:29:58.37	105.05	20.59	-44.5	-45.6	21.2	0.00e+00	0	43	0	811597824	60	4139
2026-01-23 22:30:02.40	106.00	20.39	-44.3	-45.5	21.4	0.00e+00	0	43	0	818937856	60	4061
2026-01-23 22:30:06.43	106.94	20.19	-45.0	-46.2	20.7	0.00e+00	0	43	0	826277888	60	4421
2026-01-23 22:30:10.46	107.87	19.99	-45.7	-47.1	19.9	0.00e+00	0	44	0	833617920	62	4373
2026-01-23 22:30:14.50	108.79	19.77	-45.8	-47.2	19.8	0.00e+00	0	44	0	842006528	62	4438
2026-01-23 22:30:18.53	109.69	19.55	-45.0	-46.3	20.6	0.00e+00	0	44	0	849346560	61	4202
2026-01-23 22:30:22.57	110.59	19.33	-45.5	-46.8	20.0	0.00e+00	0	43	0	856686592	61	4493
2026-01-23 22:30:26.60	111.47	19.10	-45.3	-46.6	20.3	0.00e+00	0	44	0	864026624	61	4369
2026-01-23 22:30:30.63	112.33	18.87	-46.2	-47.7	19.3	0.00e+00	0	44	0	871366656	62	4662
2026-01-23 22:30:34.67	113.19	18.63	-46.1	-47.6	19.1	0.00e+00	0	44	0	879755264	64	4137
2026-01-23 22:30:38.70	114.03	18.39	-45.6	-46.9	19.9	0.00e+00	0	44	0	887095296	62	4286
2026-01-23 22:30:42.73	114.86	18.15	-46.2	-47.8	19.1	0.00e+00	0	44	0	894435328	63	4447
2026-01-23 22:30:46.76	115.67	17.90	-45.9	-47.4	19.5	0.00e+00	0	44	0	901775360	63	4245
2026-01-23 22:30:50.79	116.47	17.65	-46.0	-47.5	19.4	0.00e+00	0	44	0	909115392	63	4299
2026-01-23 22:30:54.83	117.26	17.40	-45.4	-46.7	20.0	0.00e+00	0	44	0	917504000	62	4178
2026-01-23 22:30:58.86	118.04	17.14	-46.0	-47.5	19.3	0.00e+00	0	44	0	924844032	62	4549
2026-01-23 22:31:02.89	118.80	16.88	-45.4	-46.7	20.0	0.00e+00	0	44	0	932184064	62	4187
2026-01-23 22:31:06.92	119.56	16.62	-44.9	-46.2	20.5	0.00e+00	0	44	0	939524096	61	4164
2026-01-23 22:31:10.95	120.29	16.36	-45.8	-47.3	19.6	0.00e+00	0	44	0	946864128	62	4453
2026-01-23 22:31:14.99	121.02	16.10	-45.7	-47.1	19.6	0.00e+00	0	44	0	955252736	62	4373
2026-01-23 22:31:19.02	121.74	15.84	-46.4	-48.1	18.7	0.00e+00	0	44	0	962592768	63	4599
2026-01-23 22:31:23.06	122.44	15.57	-44.9	-46.2	20.3	0.00e+00	0	44	0	969932800	61	4174
2026-01-23 22:31:27.09	123.13	15.30	-45.0	-46.3	20.3	0.00e+00	0	44	0	977272832	61	4202
2026-01-23 22:31:31.12	123.81	15.04	-45.5	-47.0	19.6	0.00e+00	0	44	0	985661440	61	4557
2026-01-23 22:31:35.15	124.47	14.77	-44.6	-45.8	20.6	0.00e+00	0	44	0	993001472	61	3983
2026-01-23 22:31:39.19	125.13	14.50	-45.0	-46.3	20.2	0.00e+00	0	44	0	1000341504	61	4208
2026-01-23 22:31:43.22	125.77	14.23	-45.4	-46.8	19.7	0.00e+00	0	44	0	1007681536	61	4453
2026-01-23 22:31:47.25	126.40	13.96	-45.7	-47.2	19.3	0.00e+00	0	44	0	1015021568	62	4401
2026-01-23 22:31:51.28	127.03	13.69	-46.3	-48.0	18.4	0.00e+00	0	44	0	1023410176	63	4581
2026-01-23 22:31:55.31	127.64	13.42	-45.9	-47.5	19.0	0.00e+00	0	43	0	1030750208	63	4314
2026-01-23 22:31:59.35	128.24	13.15	-46.0	-47.6	18.9	0.00e+00	0	44	0	1038090240	63	4345
2026-01-23 22:32:03.38	128.83	12.88	-46.4	-48.1	18.3	0.00e+00	0	44	0	1045430272	63	4626
2026-01-23 22:32:07.41	129.41	12.61	-45.9	-47.4	18.9	0.00e+00	0	43	0	1052770304	63	4282
2026-01-23 22:32:11.44	129.97	12.35	-46.2	-47.9	18.5	0.00e+00	0	44	0	1061158912	63	4514
2026-01-23 22:32:15.48	130.53	12.08	-46.5	-48.2	18.0	0.00e+00	0	44	0	1068498944	64	4438
2026-01-23 22:32:19.51	131.08	11.81	-45.6	-47.1	19.1	0.00e+00	0	44	0	1075838976	63	4128
2026-01-23 22:32:23.54	131.62	11.54	-45.2	-46.6	19.6	0.00e+00	0	44	0	1083179008	62	4109
2026-01-23 22:32:27.57	132.15	11.28	-45.5	-46.9	19.3	0.00e+00	0	44	0	1090519040	62	4285
2026-01-23 22:32:31.61	132.68	11.01	-45.8	-47.4	18.8	0.00e+00	0	44	0	1098907648	62	4515
2026-01-23 22:32:35.64	133.19	10.75	-45.5	-47.0	19.1	0.00e+00	0	44	0	1106247680	62	4340
2026-01-23 22:32:39.67	133.69	10.48	-46.2	-47.9	18.4	0.00e+00	0	44	0	1113587712	62	4781
2026-01-23 22:32:43.70	134.19	10.22	-46.2	-47.9	18.4	0.00e+00	0	44	0	1120927744	63	4526
2026-01-23 22:32:47.73	134.67	9.96	-46.1	-47.7	18.5	0.00e+00	0	44	0	1129316352	63	4427
2026-01-23 22:32:51.76	135.15	9.70	-45.7	-47.2	19.0	0.00e+00	0	44	0	1136656384	63	4174
2026-01-23 22:32:55.79	135.62	9.44	-45.9	-47.4	18.7	0.00e+00	0	44	0	1143996416	63	4285
2026-01-23 22:32:59.83	136.08	9.18	-46.4	-48.1	18.1	0.00e+00	0	44	0	1151336448	63	4620
2026-01-23 22:33:03.86	136.54	8.92	-46.4	-48.2	17.8	0.00e+00	0	44	0	1158676480	64	4403
2026-01-23 22:33:07.89	136.99	8.67	-46.7	-48.6	17.4	0.00e+00	0	44	0	1166016512	64	4627
2026-01-23 22:33:11.92	137.42	8.41	-46.8	-48.7	17.3	0.00e+00	0	44	0	1174405120	64	4701
2026-01-23 22:33:15.95	137.86	8.16	-46.4	-48.3	17.7	0.00e+00	0	44	0	1181745152	63	4731
2026-01-23 22:33:19.98	138.28	7.90	-46.5	-48.4	17.6	0.00e+00	0	44	0	1189085184	63	4792
2026-01-23 22:33:24.01	138.70	7.65	-46.0	-47.8	18.2	0.00e+00	0	44	0	1196425216	63	4446
2026-01-23 22:33:28.04	139.11	7.40	-46.0	-47.7	18.3	0.00e+00	0	44	0	1204813824	63	4398
2026-01-23 22:33:32.07	139.51	7.15	-46.7	-48.7	17.3	0.00e+00	0	44	0	1212153856	63	4929
2026-01-23 22:33:36.11	139.91	6.90	-47.2	-49.4	16.4	0.00e+00	0	44	0	1219493888	64	5076
2026-01-23 22:33:40.14	140.30	6.66	-47.6	-50.0	15.8	0.00e+00	0	44	0	1226833920	65	5143
2026-01-23 22:33:44.17	140.69	6.41	-47.3	-49.6	16.1	0.00e+00	0	44	0	1234173952	65	4872
2026-01-23 22:33:48.21	141.07	6.17	-46.4	-48.4	17.3	0.00e+00	0	44	0	1242562560	64	4497
2026-01-23 22:33:52.24	141.44	5.93	-46.1	-47.9	17.6	0.00e+00	0	44	0	1249902592	64	4291
2026-01-23 22:33:56.27	141.81	5.68	-46.9	-49.0	16.5	0.00e+00	0	44	0	1257242624	64	4869
2026-01-23 22:34:00.31	142.17	5.44	-47.2	-49.6	15.9	0.00e+00	0	44	0	1264582656	65	4904
2026-01-23 22:34:04.34	142.53	5.20	-47.3	-49.7	15.8	0.00e+00	0	44	0	1272971264	66	4685
2026-01-23 22:34:08.37	142.88	4.97	-52.1	-67.0	3.8	1.29e+00	0	44	104	1279262720	74	21748
2026-01-23 22:34:12.39	143.22	4.73	-53.2	-68.2	3.8	1.49e+00	0	44	104	1279262720	77	20943
2026-01-23 22:34:16.43	143.56	4.50	-53.8	-68.8	3.8	1.49e+00	0	44	104	1279262720	78	21169
2026-01-23 22:34:20.46	143.90	4.26	-54.0	-69.0	3.8	1.49e+00	0	44	104	1279262720	78	21685
2026-01-23 22:34:24.49	144.23	4.03	-54.3	-69.2	3.8	1.49e+00	0	44	104	1279262720	79	20974
2026-01-23 22:34:28.53	144.55	3.80	-54.4	-69.4	3.8	1.49e+00	0	44	104	1279262720	79	21390
2026-01-23 22:34:32.56	144.87	3.57	-54.2	-69.2	3.8	1.49e+00	0	44	104	1279262720	79	20866
2026-01-23 22:34:36.59	145.19	3.34	-54.1	-69.1	3.8	1.49e+00	0	44	104	1279262720	79	20630
2026-01-23 22:34:40.62	145.50	3.11	-54.1	-69.1	3.8	1.49e+00	0	44	104	1279262720	79	20636
2026-01-23 22:34:44.65	145.80	2.88	-54.0	-69.0	3.8	1.49e+00	0	44	104	1279262720	79	20453
2026-01-23 22:34:48.69	146.11	2.66	-54.0	-69.0	3.8	1.49e+00	0	44	104	1279262720	79	20408
2026-01-23 22:34:52.73	146.40	2.43	-54.0	-69.0	3.8	1.49e+00	0	44	104	1279262720	79	20330
2026-01-23 22:34:56.76	146.70	2.21	-53.9	-68.9	3.8	1.49e+00	0	44	104	1279262720	79	20276
2026-01-23 22:35:00.79	146.99	1.99	-53.9	-68.9	3.8	1.49e+00	0	44	104	1279262720	79	20171

#Closed at: 2026-01-23 22:35:02
#Recorded file [1279 MB]: D:/lorett/data/31041_260124_012206.dat