passes_logs/2026/01/23/R3.2S_Murmansk/R3.2S_Murmansk__20260123_094907_NOAA_21_JPSS-2_rec.log

#Pass ID: 20260123_094907_NOAA 21 (JPSS-2)
#Satellite: NOAA 21 (JPSS-2)
#Configuration: NOAA-21
#almurnet v.1.7.20251203
#Start time: 2026-01-23 09:50:51

#Version: 2.2.20231116
#Station: R3.2S_Murmansk
#Location: 33.079688 lon 68.888172 lat
#TLE: 1 54234U 22150A   26022.41365820  .00000211  00000+0  12084-3 0  9990
#TLE: 2 54234  98.7507 323.2240 0000658 234.5287 125.5828 14.19537645165864

#Time	Az	El	Level	Level2	SNR	BER	BlckErr	Temp	State	Recorded	gain1	gain2
2026-01-23 09:50:51.61	160.14	9.62	-53.5	-65.4	3.8	8.46e-01	0	41	0	0	77	15200
2026-01-23 09:50:55.64	160.20	9.97	-54.5	-67.3	3.8	1.49e+00	0	42	104	0	79	16730
2026-01-23 09:50:59.68	160.27	10.32	-54.5	-67.3	3.8	1.49e+00	0	42	104	0	79	16874
2026-01-23 09:51:03.71	160.33	10.68	-54.6	-67.4	3.8	1.49e+00	0	43	104	0	79	16975
2026-01-23 09:51:07.74	160.40	11.04	-54.6	-67.4	3.8	1.49e+00	0	43	104	0	79	17013
2026-01-23 09:51:11.78	160.47	11.41	-54.6	-67.4	3.8	1.49e+00	0	42	104	0	79	16982
2026-01-23 09:51:15.81	160.54	11.78	-54.6	-67.4	3.8	1.49e+00	0	42	104	0	79	16998
2026-01-23 09:51:19.84	160.62	12.16	-54.5	-67.3	3.8	1.49e+00	0	43	104	0	79	16823
2026-01-23 09:51:23.88	160.69	12.55	-54.6	-67.3	3.8	1.49e+00	0	42	104	0	79	16870
2026-01-23 09:51:27.91	160.77	12.94	-54.5	-67.3	3.8	1.49e+00	0	42	104	0	79	16752
2026-01-23 09:51:31.94	160.85	13.34	-54.4	-67.2	3.8	1.49e+00	0	43	104	0	79	16663
2026-01-23 09:51:35.97	160.93	13.74	-54.4	-67.2	3.8	1.49e+00	0	43	104	0	79	16592
2026-01-23 09:51:40.00	161.01	14.15	-54.4	-67.2	3.8	1.49e+00	0	43	104	0	79	16521
2026-01-23 09:51:44.04	161.09	14.57	-54.3	-67.1	3.8	1.49e+00	0	43	104	0	79	16485
2026-01-23 09:51:48.07	161.18	14.99	-54.6	-67.4	3.8	1.49e+00	0	43	104	0	79	16905
2026-01-23 09:51:52.11	161.26	15.43	-54.5	-67.3	3.8	1.49e+00	0	42	104	0	79	16729
2026-01-23 09:51:56.14	161.35	15.87	-54.3	-67.0	3.8	1.49e+00	0	43	104	0	79	16280
2026-01-23 09:52:00.17	161.44	16.32	-54.0	-66.8	3.8	1.49e+00	0	43	104	0	79	15837
2026-01-23 09:52:04.20	161.54	16.77	-43.5	-44.4	20.8	0.00e+00	0	42	0	3145728	59	3787
2026-01-23 09:52:08.24	161.63	17.24	-47.3	-48.8	16.3	1.60e-05	0	42	0	10485760	66	4222
2026-01-23 09:52:12.27	161.73	17.71	-43.2	-44.1	21.1	0.00e+00	0	43	0	23068672	58	3875
2026-01-23 09:52:16.30	161.84	18.20	-43.1	-44.0	21.2	0.00e+00	0	43	0	35651584	58	3856
2026-01-23 09:52:20.34	161.94	18.69	-43.2	-44.0	21.2	0.00e+00	0	42	0	48234496	58	3859
2026-01-23 09:52:24.38	162.05	19.20	-43.1	-44.0	21.3	0.00e+00	0	42	0	60817408	58	3836
2026-01-23 09:52:28.41	162.16	19.71	-43.0	-43.9	21.4	0.00e+00	0	42	0	73400320	57	4025
2026-01-23 09:52:32.44	162.27	20.23	-43.1	-43.9	21.3	0.00e+00	0	42	0	85983232	57	4043
2026-01-23 09:52:36.47	162.39	20.77	-42.7	-43.6	21.7	0.00e+00	0	42	0	98566144	57	3873
2026-01-23 09:52:40.51	162.51	21.32	-42.6	-43.4	21.8	0.00e+00	0	42	0	111149056	57	3807
2026-01-23 09:52:44.54	162.64	21.88	-42.4	-43.2	21.9	0.00e+00	0	42	0	123731968	56	3950
2026-01-23 09:52:48.57	162.77	22.45	-42.4	-43.2	22.0	0.00e+00	0	42	0	136314880	56	3942
2026-01-23 09:52:52.60	162.90	23.03	-41.8	-42.6	22.3	0.00e+00	0	42	0	148897792	55	3904
2026-01-23 09:52:56.64	163.04	23.63	-41.7	-42.4	22.5	0.00e+00	0	42	0	161480704	55	3821
2026-01-23 09:53:00.67	163.18	24.24	-41.7	-42.4	22.6	0.00e+00	0	42	0	174063616	55	3820
2026-01-23 09:53:04.70	163.33	24.87	-41.8	-42.6	22.5	0.00e+00	0	42	0	186646528	55	3870
2026-01-23 09:53:08.74	163.48	25.51	-42.0	-42.8	22.3	0.00e+00	0	42	0	199229440	55	4003
2026-01-23 09:53:12.77	163.64	26.17	-42.3	-43.2	22.0	0.00e+00	0	42	0	211812352	55	4155
2026-01-23 09:53:16.80	163.81	26.84	-42.9	-43.8	21.6	0.00e+00	0	42	0	224395264	56	4211
2026-01-23 09:53:20.83	163.98	27.53	-43.1	-43.9	21.4	0.00e+00	0	42	0	236978176	56	4291
2026-01-23 09:53:24.87	164.16	28.24	-43.2	-44.1	21.3	0.00e+00	0	42	0	249561088	57	4119
2026-01-23 09:53:28.90	164.34	28.97	-43.3	-44.1	21.3	0.00e+00	0	42	0	262144000	57	4136
2026-01-23 09:53:32.93	164.54	29.71	-43.0	-43.9	21.4	0.00e+00	0	42	0	274726912	57	4031
2026-01-23 09:53:36.96	164.74	30.47	-42.7	-43.5	21.8	0.00e+00	0	42	0	287309824	57	3853
2026-01-23 09:53:41.00	164.95	31.26	-42.3	-43.1	22.2	0.00e+00	0	42	0	299892736	56	3903
2026-01-23 09:53:45.03	165.17	32.07	-42.3	-43.1	22.3	0.00e+00	0	42	0	312475648	56	3870
2026-01-23 09:53:49.06	165.41	32.90	-42.7	-43.5	21.9	0.00e+00	0	42	0	325058560	56	4095
2026-01-23 09:53:53.10	165.65	33.75	-43.0	-43.8	21.6	0.00e+00	0	42	0	337641472	56	4235
2026-01-23 09:53:57.14	165.91	34.62	-43.6	-44.5	21.0	0.00e+00	0	42	0	350224384	57	4334
2026-01-23 09:54:01.17	166.18	35.52	-44.3	-45.2	20.4	0.00e+00	0	42	0	362807296	59	4168
2026-01-23 09:54:05.20	166.46	36.45	-44.4	-45.4	20.0	0.00e+00	0	42	0	375390208	60	4031
2026-01-23 09:54:09.24	166.76	37.40	-44.3	-45.2	20.1	0.00e+00	0	42	0	387973120	60	3946
2026-01-23 09:54:13.28	167.08	38.38	-44.2	-45.2	20.3	0.00e+00	0	42	0	400556032	60	3914
2026-01-23 09:54:17.31	167.42	39.39	-44.4	-45.3	20.0	0.00e+00	0	42	0	414187520	60	4001
2026-01-23 09:54:21.35	167.78	40.43	-44.7	-45.8	19.5	0.00e+00	0	42	0	426770432	60	4214
2026-01-23 09:54:25.38	168.16	41.49	-45.0	-46.1	19.3	0.00e+00	0	42	0	438304768	60	4366
2026-01-23 09:54:29.42	168.56	42.59	-45.7	-46.8	18.6	0.00e+00	0	43	0	451936256	61	4486
2026-01-23 09:54:33.45	168.99	43.72	-45.8	-47.0	18.4	0.00e+00	0	42	0	464519168	62	4303
2026-01-23 09:54:37.49	169.46	44.88	-45.6	-46.7	18.7	0.00e+00	0	42	0	477102080	62	4188
2026-01-23 09:54:41.52	169.96	46.07	-45.7	-46.9	18.7	0.00e+00	0	42	0	489684992	62	4281
2026-01-23 09:54:45.55	170.49	47.29	-45.4	-46.5	19.1	0.00e+00	0	42	0	502267904	62	4090
2026-01-23 09:54:49.59	171.08	48.55	-44.3	-45.3	20.5	0.00e+00	0	42	0	514850816	59	4215
2026-01-23 09:54:53.62	171.70	49.85	-44.1	-45.1	20.6	0.00e+00	0	42	0	527433728	59	4109
2026-01-23 09:54:57.65	172.39	51.17	-43.8	-44.6	21.0	0.00e+00	0	42	0	540016640	59	3904
2026-01-23 09:55:01.68	173.13	52.53	-44.2	-45.2	20.5	0.00e+00	0	42	0	552599552	59	4150
2026-01-23 09:55:05.71	173.95	53.93	-44.0	-45.0	20.6	0.00e+00	0	42	0	565182464	59	4066
2026-01-23 09:55:09.75	174.85	55.35	-43.8	-44.8	20.9	0.00e+00	0	42	0	577765376	58	4199
2026-01-23 09:55:13.78	175.85	56.81	-43.4	-44.3	21.3	0.00e+00	0	42	0	590348288	58	3990
2026-01-23 09:55:17.81	176.95	58.30	-42.9	-43.8	21.8	0.00e+00	0	43	0	602931200	57	3981
2026-01-23 09:55:21.85	178.19	59.81	-42.6	-43.4	22.0	0.00e+00	0	42	0	615514112	57	3818
2026-01-23 09:55:25.88	179.58	61.35	-42.6	-43.4	22.2	0.00e+00	0	42	0	628097024	57	3799
2026-01-23 09:55:29.92	181.15	62.91	-41.9	-42.7	22.5	0.00e+00	0	42	0	640679936	55	3939
2026-01-23 09:55:33.95	182.94	64.49	-41.3	-42.0	23.2	0.00e+00	0	42	0	653262848	54	3867
2026-01-23 09:55:37.98	184.99	66.07	-41.4	-42.2	23.1	0.00e+00	0	42	0	665845760	54	3917
2026-01-23 09:55:42.02	187.37	67.65	-41.3	-42.0	23.2	0.00e+00	0	42	0	678428672	54	3856
2026-01-23 09:55:46.06	190.13	69.22	-41.2	-42.0	23.1	0.00e+00	0	42	0	691011584	54	3827
2026-01-23 09:55:50.08	193.37	70.76	-41.6	-42.3	22.9	0.00e+00	0	43	0	703594496	54	3999
2026-01-23 09:55:54.12	197.21	72.26	-41.2	-42.0	23.3	0.00e+00	0	42	0	716177408	54	3828
2026-01-23 09:55:58.15	201.77	73.69	-41.0	-41.7	23.5	0.00e+00	0	42	0	728760320	53	3931
2026-01-23 09:56:02.19	207.22	75.02	-41.5	-42.3	23.1	0.00e+00	0	42	0	741343232	53	4219
2026-01-23 09:56:06.22	213.69	76.20	-41.6	-42.3	23.1	0.00e+00	0	42	0	753926144	54	4003
2026-01-23 09:56:10.26	221.33	77.20	-41.9	-42.7	22.7	0.00e+00	0	43	0	766509056	54	4177
2026-01-23 09:56:14.29	230.08	77.94	-42.0	-42.8	22.5	0.00e+00	0	42	0	779091968	55	3985
2026-01-23 09:56:18.32	239.74	78.38	-41.1	-41.8	23.1	0.00e+00	0	42	0	791674880	54	3773
2026-01-23 09:56:22.35	249.87	78.47	-41.5	-42.2	23.1	0.00e+00	0	42	0	804257792	54	3958
2026-01-23 09:56:26.39	259.89	78.22	-40.6	-41.3	23.9	0.00e+00	0	42	0	816840704	53	3739
2026-01-23 09:56:30.42	269.18	77.64	-41.2	-41.9	23.2	0.00e+00	0	42	0	829423616	53	4018
2026-01-23 09:56:34.45	277.43	76.78	-41.8	-42.6	22.8	0.00e+00	0	42	0	842006528	54	4115
2026-01-23 09:56:38.48	284.52	75.69	-41.3	-42.0	23.0	0.00e+00	0	42	0	854589440	54	3853
2026-01-23 09:56:42.52	290.52	74.44	-41.5	-42.2	23.1	0.00e+00	0	42	0	867172352	54	3940
2026-01-23 09:56:46.56	295.56	73.06	-41.7	-42.4	22.9	0.00e+00	0	43	0	879755264	54	4047
2026-01-23 09:56:50.59	299.77	71.60	-40.8	-41.5	23.2	0.00e+00	0	42	0	892338176	53	3850
2026-01-23 09:56:54.62	303.32	70.08	-41.4	-42.2	23.0	0.00e+00	0	42	0	904921088	53	4151
2026-01-23 09:56:58.66	306.34	68.53	-42.0	-42.7	22.8	0.00e+00	0	42	0	917504000	54	4183
2026-01-23 09:57:02.69	308.91	66.95	-41.2	-41.9	23.3	0.00e+00	0	42	0	930086912	54	3790
2026-01-23 09:57:06.72	311.13	65.37	-41.9	-42.7	22.8	0.00e+00	0	42	0	942669824	54	4148
2026-01-23 09:57:10.76	313.06	63.80	-41.3	-42.1	23.2	0.00e+00	0	42	0	955252736	54	3870
2026-01-23 09:57:14.79	314.74	62.23	-42.5	-43.3	22.2	0.00e+00	0	42	0	967835648	55	4212
2026-01-23 09:57:18.82	316.23	60.69	-41.9	-42.6	22.7	0.00e+00	0	42	0	981467136	55	3897
2026-01-23 09:57:22.85	317.54	59.16	-43.2	-44.1	21.5	0.00e+00	0	42	0	993001472	56	4352
2026-01-23 09:57:26.88	318.72	57.67	-42.3	-43.1	22.3	0.00e+00	0	42	0	1005584384	56	3886
2026-01-23 09:57:30.91	319.77	56.20	-43.9	-44.8	21.1	0.00e+00	0	42	0	1019215872	58	4232
2026-01-23 09:57:34.95	320.72	54.75	-43.6	-44.5	21.2	0.00e+00	0	42	0	1031798784	58	4064
2026-01-23 09:57:38.98	321.58	53.35	-44.0	-45.0	20.9	0.00e+00	0	43	0	1043333120	58	4304
2026-01-23 09:57:43.01	322.37	51.97	-44.3	-45.2	20.5	0.00e+00	0	42	0	1056964608	59	4186
2026-01-23 09:57:47.04	323.09	50.63	-44.5	-45.5	20.1	0.00e+00	0	43	0	1069547520	60	4086
2026-01-23 09:57:51.08	323.75	49.32	-44.5	-45.5	20.2	0.00e+00	0	42	0	1082130432	59	4308
2026-01-23 09:57:55.11	324.35	48.05	-44.2	-45.1	20.2	0.00e+00	0	42	0	1094713344	60	3913
2026-01-23 09:57:59.15	324.92	46.80	-44.6	-45.6	20.0	0.00e+00	0	42	0	1107296256	60	4100
2026-01-23 09:58:03.18	325.43	45.60	-45.0	-46.0	19.6	0.00e+00	0	42	0	1119879168	61	4094
2026-01-23 09:58:07.21	325.92	44.42	-45.5	-46.6	19.1	0.00e+00	0	42	0	1132462080	61	4376
2026-01-23 09:58:11.25	326.37	43.28	-45.5	-46.7	18.4	0.00e+00	0	43	0	1145044992	62	4150
2026-01-23 09:58:15.28	326.79	42.17	-44.2	-45.1	20.6	0.00e+00	0	42	0	1157627904	59	4122
2026-01-23 09:58:19.31	327.19	41.09	-44.7	-45.7	20.0	0.00e+00	0	42	0	1170210816	60	4166
2026-01-23 09:58:23.34	327.56	40.04	-44.8	-45.8	19.8	0.00e+00	0	42	0	1182793728	60	4215
2026-01-23 09:58:27.38	327.91	39.02	-46.1	-47.5	18.2	0.00e+00	0	42	0	1195376640	62	4549
2026-01-23 09:58:31.41	328.23	38.03	-45.2	-46.3	19.3	0.00e+00	0	42	0	1207959552	62	3994
2026-01-23 09:58:35.45	328.55	37.06	-43.8	-44.6	21.0	0.00e+00	0	42	0	1220542464	59	3903
2026-01-23 09:58:39.49	328.84	36.13	-43.8	-44.7	21.0	0.00e+00	0	42	0	1233125376	58	4153
2026-01-23 09:58:43.51	329.12	35.22	-43.7	-44.6	21.1	0.00e+00	0	42	0	1245708288	58	4114
2026-01-23 09:58:47.54	329.38	34.33	-43.8	-44.7	20.9	0.00e+00	0	42	0	1258291200	58	4162
2026-01-23 09:58:51.58	329.63	33.47	-44.1	-45.1	20.6	0.00e+00	0	42	0	1270874112	58	4362
2026-01-23 09:58:55.61	329.87	32.63	-43.7	-44.6	20.9	0.00e+00	0	42	0	1283457024	58	4143
2026-01-23 09:58:59.64	330.10	31.81	-42.9	-43.8	21.4	0.00e+00	0	42	0	1296039936	57	3968
2026-01-23 09:59:03.67	330.32	31.02	-42.9	-43.7	21.6	0.00e+00	0	42	0	1308622848	57	3946
2026-01-23 09:59:07.70	330.53	30.24	-42.5	-43.4	21.9	0.00e+00	0	42	0	1321205760	56	4007
2026-01-23 09:59:11.73	330.73	29.49	-42.7	-43.5	21.9	0.00e+00	0	42	0	1333788672	56	4085
2026-01-23 09:59:15.77	330.92	28.75	-42.8	-43.6	21.8	0.00e+00	0	42	0	1346371584	56	4129
2026-01-23 09:59:19.79	331.11	28.04	-43.4	-44.3	21.2	0.00e+00	0	43	0	1358954496	57	4201
2026-01-23 09:59:23.83	331.28	27.34	-43.2	-44.1	21.4	0.00e+00	0	42	0	1371537408	57	4130
2026-01-23 09:59:27.86	331.46	26.66	-43.0	-43.9	21.5	0.00e+00	0	42	0	1384120320	57	4032
2026-01-23 09:59:31.89	331.62	26.00	-42.8	-43.7	21.6	0.00e+00	0	42	0	1396703232	57	3948
2026-01-23 09:59:35.92	331.78	25.35	-42.8	-43.6	21.7	0.00e+00	0	43	0	1409286144	57	3905
2026-01-23 09:59:39.95	331.93	24.71	-42.6	-43.5	21.7	0.00e+00	0	42	0	1421869056	57	3833
2026-01-23 09:59:43.98	332.08	24.10	-42.7	-43.5	21.6	0.00e+00	0	43	0	1434451968	57	3866
2026-01-23 09:59:48.01	332.22	23.49	-42.5	-43.3	21.8	0.00e+00	0	43	0	1447034880	56	3983
2026-01-23 09:59:52.05	332.36	22.90	-42.3	-43.1	21.9	0.00e+00	0	43	0	1459617792	56	3900
2026-01-23 09:59:56.08	332.49	22.32	-42.3	-43.1	21.9	0.00e+00	0	42	0	1472200704	56	3876
2026-01-23 10:00:00.11	332.62	21.76	-42.1	-43.0	22.1	0.00e+00	0	42	0	1484783616	56	3825
2026-01-23 10:00:04.14	332.74	21.21	-42.3	-43.1	22.0	0.00e+00	0	42	0	1497366528	56	3876
2026-01-23 10:00:08.18	332.87	20.66	-42.4	-43.2	21.9	0.00e+00	0	42	0	1509949440	56	3921
2026-01-23 10:00:12.21	332.98	20.13	-42.4	-43.2	21.9	0.00e+00	0	42	0	1522532352	56	3925
2026-01-23 10:00:16.24	333.10	19.62	-42.7	-43.5	21.6	0.00e+00	0	42	0	1535115264	56	4087
2026-01-23 10:00:20.27	333.21	19.11	-42.9	-43.8	21.4	0.00e+00	0	42	0	1547698176	56	4217
2026-01-23 10:00:24.30	333.32	18.61	-43.2	-44.1	21.1	0.00e+00	0	43	0	1560281088	56	4352
2026-01-23 10:00:28.34	333.42	18.12	-43.2	-44.1	21.1	0.00e+00	0	42	0	1572864000	57	4141
2026-01-23 10:00:32.37	333.52	17.64	-43.2	-44.2	21.0	0.00e+00	0	42	0	1585446912	57	4147
2026-01-23 10:00:36.40	333.62	17.17	-43.4	-44.3	20.8	0.00e+00	0	42	0	1598029824	57	4227
2026-01-23 10:00:40.43	333.72	16.71	-43.6	-44.5	20.6	0.00e+00	0	42	0	1610612736	57	4317
2026-01-23 10:00:44.46	333.82	16.26	-43.7	-44.7	20.4	0.00e+00	0	43	0	1623195648	58	4155
2026-01-23 10:00:48.50	333.91	15.82	-43.7	-44.7	20.4	0.00e+00	0	42	0	1635778560	58	4169
2026-01-23 10:00:52.53	334.00	15.38	-43.6	-44.6	20.4	0.00e+00	0	42	0	1648361472	58	4123
2026-01-23 10:00:56.56	334.09	14.95	-43.8	-44.8	20.2	0.00e+00	0	42	0	1660944384	58	4225
2026-01-23 10:01:00.59	334.18	14.53	-43.7	-44.7	20.3	0.00e+00	0	42	0	1673527296	58	4173
2026-01-23 10:01:04.62	334.26	14.12	-43.7	-44.7	20.4	0.00e+00	0	42	0	1686110208	58	4148
2026-01-23 10:01:08.66	334.34	13.71	-43.8	-44.7	20.3	0.00e+00	0	43	0	1698693120	58	4181
2026-01-23 10:01:12.69	334.42	13.31	-43.8	-44.8	20.2	0.00e+00	0	42	0	1711276032	58	4199
2026-01-23 10:01:16.72	334.50	12.91	-43.8	-44.7	20.2	0.00e+00	0	42	0	1724907520	58	4183
2026-01-23 10:01:20.75	334.58	12.53	-43.7	-44.7	20.3	0.00e+00	0	42	0	1736441856	58	4169
2026-01-23 10:01:24.78	334.66	12.15	-43.7	-44.7	20.2	0.00e+00	0	43	0	1749024768	58	4180
2026-01-23 10:01:28.81	334.73	11.77	-43.7	-44.7	20.3	0.00e+00	0	42	0	1762656256	58	4154
2026-01-23 10:01:32.84	334.81	11.40	-43.7	-44.7	20.2	0.00e+00	0	42	0	1775239168	58	4170
2026-01-23 10:01:36.88	334.88	11.03	-43.8	-44.8	20.1	0.00e+00	0	42	0	1786773504	58	4200
2026-01-23 10:01:40.91	334.95	10.68	-43.8	-44.8	20.1	0.00e+00	0	42	0	1799356416	58	4227
2026-01-23 10:01:44.94	335.02	10.32	-43.9	-45.0	19.9	0.00e+00	0	43	0	1812987904	58	4301
2026-01-23 10:01:48.97	335.09	9.97	-44.1	-45.1	19.8	0.00e+00	0	42	0	1825570816	58	4380
2026-01-23 10:01:53.01	335.15	9.63	-44.3	-45.4	19.5	0.00e+00	0	42	0	1837105152	59	4263
2026-01-23 10:01:57.04	335.22	9.29	-44.5	-45.6	19.4	0.00e+00	0	42	0	1850736640	59	4344
2026-01-23 10:02:01.07	335.28	8.95	-44.6	-45.7	19.2	0.00e+00	0	42	0	1863319552	59	4420
2026-01-23 10:02:05.11	335.35	8.62	-44.6	-45.7	19.1	0.00e+00	0	42	0	1874853888	59	4440
2026-01-23 10:02:09.14	335.41	8.30	-44.4	-45.5	19.0	0.00e+00	0	42	0	1888485376	60	4089
2026-01-23 10:02:13.17	335.47	7.97	-44.5	-45.7	18.8	0.00e+00	0	42	0	1901068288	60	4161
2026-01-23 10:02:17.21	335.53	7.65	-44.6	-45.8	18.8	0.00e+00	0	42	0	1913651200	60	4199
2026-01-23 10:02:21.24	335.59	7.34	-44.5	-45.7	18.8	0.00e+00	0	42	0	1926234112	60	4161
2026-01-23 10:02:25.27	335.65	7.03	-44.7	-45.9	18.5	0.00e+00	0	42	0	1938817024	60	4270
2026-01-23 10:02:29.30	335.71	6.72	-44.8	-45.9	18.4	0.00e+00	0	42	0	1951399936	60	4291
2026-01-23 10:02:33.34	335.77	6.42	-45.2	-46.5	17.9	0.00e+00	0	42	0	1963982848	60	4556
2026-01-23 10:02:37.37	335.82	6.12	-45.3	-46.6	17.8	0.00e+00	0	43	0	1976565760	61	4344
2026-01-23 10:02:41.40	335.88	5.82	-45.3	-46.7	17.7	0.00e+00	0	43	0	1989148672	61	4394
2026-01-23 10:02:45.44	335.93	5.53	-45.1	-46.5	17.8	0.00e+00	0	43	0	2001731584	61	4293
2026-01-23 10:02:49.47	335.99	5.24	-45.5	-46.9	17.4	0.00e+00	0	42	0	2014314496	61	4516
2026-01-23 10:02:53.51	336.04	4.95	-53.0	-65.8	3.8	1.49e+00	0	43	104	2023751680	76	16721
2026-01-23 10:02:57.54	336.09	4.67	-53.6	-66.4	3.8	1.49e+00	0	42	104	2023751680	77	16950
2026-01-23 10:03:01.57	336.15	4.39	-53.8	-66.5	3.8	1.49e+00	0	42	104	2023751680	78	16247
2026-01-23 10:03:05.60	336.20	4.11	-53.5	-66.2	3.8	1.49e+00	0	42	104	2023751680	78	15669
2026-01-23 10:03:09.64	336.25	3.84	-53.6	-66.3	3.8	1.49e+00	0	42	104	2023751680	78	15916
2026-01-23 10:03:13.67	336.30	3.56	-53.7	-66.5	3.8	1.49e+00	0	43	104	2023751680	78	16140
2026-01-23 10:03:17.71	336.35	3.29	-53.6	-66.4	3.8	1.49e+00	0	43	104	2023751680	78	16020
2026-01-23 10:03:21.74	336.40	3.03	-53.6	-66.4	3.8	1.49e+00	0	43	104	2023751680	78	15983
2026-01-23 10:03:25.77	336.45	2.76	-53.6	-66.3	3.8	1.49e+00	0	43	104	2023751680	78	15942
2026-01-23 10:03:29.80	336.50	2.50	-53.6	-66.3	3.8	1.49e+00	0	42	104	2023751680	78	15930
2026-01-23 10:03:33.83	336.54	2.24	-53.6	-66.3	3.8	1.49e+00	0	43	104	2023751680	78	15881
2026-01-23 10:03:37.87	336.59	1.98	-53.5	-66.3	3.8	1.49e+00	0	43	104	2023751680	78	15877

#Closed at: 2026-01-23 10:03:39
#Recorded file [2023 MB]: D:/lorett/data/31041_260123_125051.dat