passes_logs/2026/01/23/R3.2S_Murmansk/R3.2S_Murmansk__20260123_213305_JL1KF02B05_rec.log

#Pass ID: 20260123_213305_JL1KF02B05
#Satellite: JL1KF02B05
#Configuration: 01B_900M
#almurnet v.1.7.20251203
#Start time: 2026-01-23 21:33:06

#Version: 2.2.20231116
#Station: R3.2S_Murmansk
#Location: 33.079688 lon 68.888172 lat
#TLE: 1 61194U 24169F   26022.96101522  .00006187  00000+0  38573-3 0  9991
#TLE: 2 61194  97.5705 114.6700 0018165 130.9830 229.2974 15.09759959 73936

#Time	Az	El	Level	Level2	SNR	BER	BlckErr	Temp	State	Recorded	gain1	gain2
2026-01-23 21:33:06.00	203.97	2.04	-54.8	-56.9	6.2	0.00e+00	0	44	0	0	80	19067
2026-01-23 21:33:09.03	204.22	2.23	-55.0	-57.1	6.2	0.00e+00	0	44	104	0	81	18488
2026-01-23 21:33:12.05	204.47	2.42	-55.0	-57.1	6.2	0.00e+00	0	44	104	0	81	18443
2026-01-23 21:33:15.08	204.72	2.61	-54.9	-57.0	6.2	0.00e+00	0	44	104	0	81	18224
2026-01-23 21:33:18.10	204.98	2.80	-54.8	-56.9	6.2	0.00e+00	0	44	104	0	81	18151
2026-01-23 21:33:21.13	205.24	2.99	-54.7	-56.8	6.2	0.00e+00	0	44	104	0	81	17853
2026-01-23 21:33:24.15	205.50	3.19	-54.5	-56.6	6.2	0.00e+00	0	44	104	0	81	17428
2026-01-23 21:33:27.17	205.77	3.38	-54.2	-56.3	6.2	0.00e+00	0	44	104	0	80	17878
2026-01-23 21:33:30.20	206.05	3.58	-53.4	-55.6	6.2	0.00e+00	0	44	104	0	78	18447
2026-01-23 21:33:33.23	206.32	3.78	-53.3	-55.4	6.2	0.00e+00	0	44	104	0	78	18160
2026-01-23 21:33:36.25	206.61	3.98	-53.3	-55.4	6.2	0.00e+00	0	45	104	0	78	18132
2026-01-23 21:33:39.28	206.89	4.18	-53.3	-55.4	6.2	0.00e+00	0	45	104	0	78	18137
2026-01-23 21:33:42.30	207.18	4.38	-53.3	-55.4	6.2	0.00e+00	0	45	104	0	78	18101
2026-01-23 21:33:45.33	207.48	4.58	-53.3	-55.4	6.2	0.00e+00	0	45	104	0	78	18099
2026-01-23 21:33:48.35	207.78	4.79	-53.3	-55.4	6.2	0.00e+00	0	45	104	0	78	18087
2026-01-23 21:33:51.37	208.09	4.99	-53.3	-55.4	6.2	0.00e+00	0	45	104	0	78	18048
2026-01-23 21:33:54.40	208.40	5.20	-53.3	-55.4	6.2	0.00e+00	0	45	104	0	78	18088
2026-01-23 21:33:57.42	208.72	5.41	-53.3	-55.3	6.2	0.00e+00	0	45	104	0	78	17965
2026-01-23 21:34:00.45	209.04	5.62	-53.3	-55.4	6.2	0.00e+00	0	45	104	0	78	18077
2026-01-23 21:34:03.47	209.37	5.84	-53.4	-55.5	6.2	0.00e+00	0	46	104	0	78	18214
2026-01-23 21:34:06.49	209.70	6.05	-53.2	-55.4	6.2	0.00e+00	0	45	104	0	78	18001
2026-01-23 21:34:09.52	210.04	6.27	-53.2	-55.3	6.2	0.00e+00	0	46	104	0	78	17908
2026-01-23 21:34:12.54	210.39	6.49	-53.3	-55.4	6.2	0.00e+00	0	45	104	0	78	18029
2026-01-23 21:34:15.57	210.74	6.70	-53.4	-55.5	6.2	0.00e+00	0	46	104	0	78	18221
2026-01-23 21:34:18.59	211.10	6.93	-53.3	-55.4	6.2	0.00e+00	0	45	104	0	78	18049
2026-01-23 21:34:21.62	211.46	7.15	-53.2	-55.4	6.2	0.00e+00	0	46	104	0	78	18003
2026-01-23 21:34:24.64	211.83	7.37	-53.3	-55.4	6.2	0.00e+00	0	46	104	0	78	18081
2026-01-23 21:34:27.66	212.21	7.60	-53.3	-55.4	6.2	0.00e+00	0	46	104	0	78	18145
2026-01-23 21:34:30.69	212.60	7.83	-53.3	-55.4	6.2	0.00e+00	0	46	104	0	78	18055
2026-01-23 21:34:33.71	212.99	8.06	-53.3	-55.3	6.2	0.00e+00	0	46	104	0	78	17954
2026-01-23 21:34:36.73	213.39	8.29	-53.3	-55.4	6.2	0.00e+00	0	46	104	0	78	18070
2026-01-23 21:34:39.75	213.79	8.52	-50.7	-51.7	6.4	0.00e+00	0	46	104	0	72	16701
2026-01-23 21:34:42.77	214.21	8.75	-46.9	-47.3	6.7	0.00e+00	0	46	104	0	65	15034
2026-01-23 21:34:45.80	214.63	8.99	-47.9	-48.4	6.7	0.00e+00	0	46	104	0	66	16161
2026-01-23 21:34:48.83	215.06	9.23	-49.4	-50.1	6.5	0.00e+00	0	46	104	0	69	16436
2026-01-23 21:34:51.85	215.50	9.47	-46.7	-46.9	7.5	0.00e+00	0	46	104	0	65	14392
2026-01-23 21:34:54.88	215.95	9.71	-36.8	-36.7	11.3	2.24e-02	0	46	104	0	44	14923
2026-01-23 21:34:57.90	216.41	9.95	-32.1	-32.0	13.8	3.66e-04	0	46	0	301989888	36	13671
2026-01-23 21:35:00.92	216.87	10.20	-28.6	-28.4	13.9	4.12e-04	0	46	0	637534208	29	13593
2026-01-23 21:35:03.95	217.35	10.44	-28.6	-28.4	13.8	3.70e-04	0	46	0	981467136	28	14402
2026-01-23 21:35:06.97	217.83	10.69	-28.3	-28.2	13.8	4.82e-04	0	46	0	1317011456	28	13952
2026-01-23 21:35:10.00	218.32	10.94	-28.3	-28.1	13.8	4.44e-04	0	46	0	1652555776	28	13947
2026-01-23 21:35:13.02	218.83	11.19	-28.7	-28.6	13.8	4.75e-04	0	46	0	2004877312	28	14652
2026-01-23 21:35:16.04	219.34	11.45	-28.1	-28.0	13.7	4.81e-04	0	46	0	2340421632	28	13675
2026-01-23 21:35:19.07	219.87	11.70	-28.2	-28.0	13.7	4.88e-04	0	47	0	2675965952	27	14597
2026-01-23 21:35:22.09	220.40	11.96	-28.3	-28.2	13.6	5.00e-04	0	46	0	3011510272	27	14777
2026-01-23 21:35:25.11	220.94	12.21	-27.8	-27.7	13.7	3.91e-04	0	46	0	3363831808	27	13958
2026-01-23 21:35:28.13	221.50	12.47	-27.8	-27.6	13.7	3.80e-04	0	47	0	3699376128	27	13910
2026-01-23 21:35:31.16	222.07	12.73	-27.5	-27.4	13.8	4.14e-04	0	47	0	4043309056	27	13551
2026-01-23 21:35:34.18	222.65	12.99	-27.5	-27.4	13.7	4.00e-04	0	47	0	4378853376	26	14288
2026-01-23 21:35:37.21	223.24	13.26	-27.5	-27.3	13.7	3.78e-04	0	47	0	4722786304	26	14229
2026-01-23 21:35:40.23	223.85	13.52	-27.3	-27.2	13.8	4.18e-04	0	47	0	5066719232	26	14015
2026-01-23 21:35:43.26	224.46	13.78	-27.3	-27.2	13.7	3.22e-04	0	47	0	5402263552	26	13985
2026-01-23 21:35:46.28	225.09	14.05	-27.3	-27.2	13.7	3.70e-04	0	47	0	5737807872	26	14005
2026-01-23 21:35:49.31	225.73	14.32	-27.0	-26.9	13.7	3.80e-04	0	47	0	6090129408	25	14306
2026-01-23 21:35:52.33	226.39	14.58	-27.1	-26.9	13.8	3.68e-04	0	47	0	6425673728	25	14364
2026-01-23 21:35:55.36	227.06	14.85	-26.9	-26.8	13.7	4.08e-04	0	47	0	6761218048	25	14138
2026-01-23 21:35:58.38	227.74	15.12	-26.9	-26.7	13.7	3.93e-04	0	47	0	7096762368	25	14037
2026-01-23 21:36:01.40	228.44	15.39	-26.7	-26.5	13.8	3.55e-04	0	47	0	7449083904	25	13704
2026-01-23 21:36:04.43	229.15	15.66	-26.6	-26.4	13.8	3.07e-04	0	47	0	7784628224	24	14359
2026-01-23 21:36:07.45	229.88	15.92	-26.5	-26.4	13.7	3.20e-04	0	47	0	8120172544	24	14316
2026-01-23 21:36:10.48	230.62	16.19	-26.3	-26.2	13.8	3.09e-04	0	47	0	8464105472	24	13976
2026-01-23 21:36:13.50	231.37	16.46	-26.4	-26.2	13.7	3.41e-04	0	47	0	8808038400	24	14069
2026-01-23 21:36:16.53	232.15	16.73	-26.3	-26.2	13.7	3.15e-04	0	47	0	9143582720	24	13983
2026-01-23 21:36:19.55	232.93	16.99	-26.1	-26.0	13.8	2.82e-04	0	47	0	9487515648	24	13660
2026-01-23 21:36:22.57	233.74	17.26	-26.1	-25.9	13.8	3.72e-04	0	47	0	9823059968	24	13571
2026-01-23 21:36:25.60	234.56	17.52	-26.0	-25.9	13.7	3.74e-04	0	47	0	10158604288	23	14292
2026-01-23 21:36:28.62	235.39	17.78	-25.8	-25.7	13.8	3.66e-04	0	47	0	10510925824	23	14008
2026-01-23 21:36:31.64	236.24	18.04	-25.8	-25.6	13.7	3.47e-04	0	47	0	10846470144	23	13891
2026-01-23 21:36:34.67	237.11	18.30	-25.7	-25.5	13.8	3.85e-04	0	47	0	11182014464	23	13790
2026-01-23 21:36:37.69	237.99	18.56	-25.7	-25.5	13.8	3.51e-04	0	47	0	11517558784	23	13773
2026-01-23 21:36:40.71	238.89	18.81	-25.6	-25.5	13.7	4.04e-04	0	47	0	11869880320	23	13651
2026-01-23 21:36:43.74	239.81	19.06	-25.6	-25.5	13.7	3.53e-04	0	47	0	12205424640	23	13683
2026-01-23 21:36:46.76	240.74	19.30	-25.6	-25.4	13.8	4.00e-04	0	47	0	12540968960	22	14368
2026-01-23 21:36:49.79	241.70	19.54	-25.4	-25.2	13.9	4.06e-04	0	47	0	12884901888	22	14095
2026-01-23 21:36:52.81	242.66	19.78	-25.3	-25.2	14.0	3.51e-04	0	47	0	13228834816	22	14001
2026-01-23 21:36:55.84	243.65	20.01	-25.3	-25.1	13.9	4.10e-04	0	47	0	13564379136	22	13871
2026-01-23 21:36:58.86	244.65	20.24	-25.1	-24.9	14.1	3.11e-04	0	47	0	13908312064	22	13597
2026-01-23 21:37:01.88	245.67	20.46	-25.1	-24.9	14.3	2.33e-04	0	47	0	14243856384	22	13583
2026-01-23 21:37:04.91	246.70	20.68	-24.9	-24.7	14.2	1.62e-04	0	47	0	14587789312	21	14053
2026-01-23 21:37:07.93	247.75	20.88	-24.9	-24.7	14.3	1.66e-04	0	47	0	14931722240	21	14079
2026-01-23 21:37:10.96	248.82	21.09	-24.8	-24.6	14.5	1.03e-04	0	47	0	15267266560	21	13880
2026-01-23 21:37:13.98	249.89	21.28	-24.8	-24.6	14.8	6.10e-05	0	47	0	15602810880	21	13941
2026-01-23 21:37:17.00	250.99	21.47	-24.6	-24.4	14.9	4.95e-05	0	47	0	15955132416	21	13597
2026-01-23 21:37:20.03	252.10	21.65	-24.7	-24.6	14.9	2.28e-05	0	47	0	16290676736	21	13840
2026-01-23 21:37:23.05	253.22	21.82	-24.7	-24.5	15.3	9.50e-06	0	47	0	16626221056	21	13741
2026-01-23 21:37:26.07	254.35	21.98	-24.7	-24.5	15.1	7.60e-06	0	47	0	16961765376	21	13765
2026-01-23 21:37:29.09	255.50	22.13	-24.6	-24.5	15.0	5.70e-06	0	47	0	17305698304	21	13644
2026-01-23 21:37:32.12	256.67	22.27	-24.6	-24.4	15.0	9.50e-06	0	47	0	17649631232	21	13604
2026-01-23 21:37:35.14	257.84	22.40	-24.7	-24.6	14.8	7.60e-06	0	47	0	17985175552	21	13821
2026-01-23 21:37:38.17	259.02	22.52	-24.5	-24.4	14.5	1.14e-05	0	47	0	18329108480	20	14314
2026-01-23 21:37:41.19	260.21	22.63	-24.5	-24.4	14.2	2.28e-05	0	47	0	18664652800	20	14282
2026-01-23 21:37:44.21	261.41	22.73	-24.4	-24.3	14.2	2.09e-05	0	47	0	19016974336	20	14125
2026-01-23 21:37:47.24	262.62	22.82	-24.5	-24.3	14.0	1.90e-05	0	47	0	19352518656	20	14270
2026-01-23 21:37:50.26	263.84	22.90	-24.5	-24.3	13.9	3.62e-05	0	47	0	19688062976	20	14194
2026-01-23 21:37:53.29	265.06	22.96	-24.6	-24.4	14.0	3.62e-05	0	47	0	20023607296	20	14340
2026-01-23 21:37:56.31	266.29	23.01	-24.6	-24.4	13.8	4.76e-05	0	47	0	20375928832	20	14359
2026-01-23 21:37:59.34	267.52	23.05	-24.6	-24.4	13.8	5.53e-05	0	47	0	20711473152	20	14411
2026-01-23 21:38:02.36	268.75	23.08	-24.6	-24.5	13.7	9.91e-05	0	47	0	21047017472	20	14496
2026-01-23 21:38:05.39	269.99	23.09	-24.8	-24.6	13.7	8.39e-05	0	47	0	21390950400	20	14773
2026-01-23 21:38:08.41	271.22	23.09	-24.7	-24.5	13.8	5.34e-05	0	47	0	21734883328	20	14544
2026-01-23 21:38:11.43	272.46	23.08	-24.8	-24.6	13.6	4.57e-05	0	48	0	22070427648	20	14698
2026-01-23 21:38:14.46	273.70	23.06	-24.7	-24.6	13.6	7.05e-05	0	47	0	22414360576	20	14629
2026-01-23 21:38:17.48	274.93	23.02	-24.9	-24.7	13.6	5.91e-05	0	47	0	22749904896	20	14920
2026-01-23 21:38:20.51	276.16	22.97	-25.0	-24.8	13.7	6.29e-05	0	47	0	23093837824	20	15037
2026-01-23 21:38:23.53	277.38	22.91	-24.9	-24.7	13.5	1.90e-05	0	47	0	23437770752	20	14920
2026-01-23 21:38:26.55	278.59	22.84	-25.1	-24.9	13.6	2.47e-05	0	48	0	23773315072	20	15188
2026-01-23 21:38:29.58	279.81	22.75	-25.1	-24.9	13.7	2.67e-05	0	47	0	24108859392	21	14401
2026-01-23 21:38:32.60	281.01	22.66	-25.2	-25.0	13.7	1.71e-05	0	47	0	24461180928	21	14520
2026-01-23 21:38:35.63	282.21	22.55	-25.2	-25.0	13.6	2.47e-05	0	47	0	24796725248	21	14596
2026-01-23 21:38:38.64	283.39	22.43	-25.2	-25.0	13.6	3.05e-05	0	47	0	25132269568	21	14581
2026-01-23 21:38:41.67	284.56	22.30	-25.4	-25.2	13.6	1.90e-05	0	47	0	25467813888	21	14827
2026-01-23 21:38:44.69	285.72	22.16	-25.3	-25.2	13.7	2.86e-05	0	47	0	25811746816	21	14820
2026-01-23 21:38:47.72	286.88	22.01	-25.4	-25.2	13.7	3.43e-05	0	47	0	26155679744	21	14928
2026-01-23 21:38:50.74	288.02	21.85	-25.6	-25.4	13.6	2.09e-05	0	47	0	26491224064	21	15269
2026-01-23 21:38:53.77	289.15	21.69	-25.6	-25.5	13.6	3.24e-05	0	47	0	26835156992	21	15326
2026-01-23 21:38:56.79	290.26	21.51	-25.7	-25.5	13.6	5.14e-05	0	47	0	27170701312	22	14560
2026-01-23 21:38:59.81	291.35	21.32	-25.7	-25.5	13.6	4.38e-05	0	47	0	27514634240	22	14515
2026-01-23 21:39:02.84	292.44	21.13	-25.7	-25.6	13.6	6.48e-05	0	47	0	27858567168	22	14617
2026-01-23 21:39:05.87	293.51	20.93	-25.9	-25.7	13.6	4.57e-05	0	47	0	28194111488	22	14851
2026-01-23 21:39:08.89	294.56	20.72	-26.0	-25.8	13.6	8.77e-05	0	47	0	28529655808	22	15025
2026-01-23 21:39:11.91	295.60	20.51	-25.9	-25.7	13.6	6.86e-05	0	47	0	28881977344	22	14855
2026-01-23 21:39:14.94	296.62	20.29	-26.0	-25.8	13.6	6.86e-05	0	47	0	29217521664	22	15067
2026-01-23 21:39:17.97	297.63	20.06	-26.0	-25.9	13.6	5.14e-05	0	48	0	29553065984	22	15141
2026-01-23 21:39:21.00	298.62	19.83	-26.1	-25.9	13.6	7.05e-05	0	47	0	29905387520	22	15208
2026-01-23 21:39:24.02	299.59	19.60	-26.2	-26.0	13.7	4.95e-05	0	47	0	30240931840	22	15448
2026-01-23 21:39:27.05	300.55	19.36	-26.3	-26.2	13.7	5.34e-05	0	47	0	30576476160	23	14813
2026-01-23 21:39:30.08	301.49	19.11	-26.3	-26.1	13.6	7.62e-05	0	47	0	30912020480	23	14768
2026-01-23 21:39:33.11	302.41	18.86	-26.5	-26.3	13.6	1.11e-04	0	47	0	31264342016	23	15109
2026-01-23 21:39:36.13	303.32	18.61	-26.4	-26.3	13.6	1.14e-04	0	48	0	31599886336	23	14969
2026-01-23 21:39:39.16	304.21	18.36	-26.5	-26.3	13.6	1.01e-04	0	47	0	31935430656	23	15112
2026-01-23 21:39:42.19	305.08	18.10	-26.6	-26.4	14.1	1.12e-04	0	48	0	32279363584	23	15196
2026-01-23 21:39:45.21	305.93	17.84	-26.7	-26.5	14.1	1.33e-04	0	47	0	32623296512	23	15391
2026-01-23 21:39:48.24	306.78	17.58	-26.8	-26.7	14.2	1.18e-04	0	47	0	32958840832	24	14798
2026-01-23 21:39:51.27	307.60	17.31	-26.9	-26.7	14.2	9.53e-05	0	48	0	33302773760	24	14847
2026-01-23 21:39:54.29	308.41	17.05	-27.0	-26.9	14.2	9.15e-05	0	47	0	33638318080	24	15155
2026-01-23 21:39:57.31	309.20	16.78	-27.1	-26.9	14.2	1.43e-04	0	48	0	33990639616	24	15272
2026-01-23 21:40:00.34	309.97	16.52	-27.1	-27.0	14.1	1.47e-04	0	48	0	34326183936	24	15348
2026-01-23 21:40:03.36	310.73	16.25	-27.3	-27.1	14.2	1.49e-04	0	47	0	34661728256	25	14665
2026-01-23 21:40:06.39	311.48	15.98	-27.3	-27.2	14.3	1.41e-04	0	47	0	34997272576	25	14817
2026-01-23 21:40:09.42	312.21	15.71	-27.4	-27.2	14.2	1.66e-04	0	48	0	35349594112	25	14891
2026-01-23 21:40:12.44	312.93	15.44	-27.5	-27.4	14.4	1.28e-04	0	47	0	35685138432	25	15124
2026-01-23 21:40:15.47	313.63	15.18	-27.7	-27.5	14.2	1.87e-04	0	47	0	36020682752	25	15412
2026-01-23 21:40:18.50	314.32	14.91	-28.2	-28.0	14.3	1.66e-04	0	47	0	36373004288	26	15381
2026-01-23 21:40:21.52	314.99	14.64	-28.0	-27.9	14.4	1.91e-04	0	47	0	36708548608	27	14326
2026-01-23 21:40:24.55	315.65	14.37	-27.9	-27.7	14.5	1.54e-04	0	47	0	37044092928	27	14045
2026-01-23 21:40:27.57	316.29	14.11	-27.9	-27.7	14.3	2.75e-04	0	47	0	37388025856	27	14046
2026-01-23 21:40:30.60	316.93	13.84	-49.9	-50.5	7.4	0.00e+00	0	47	104	37690015744	70	16307
2026-01-23 21:40:33.63	317.55	13.57	-54.0	-56.2	6.2	0.00e+00	0	47	104	37690015744	78	19759
2026-01-23 21:40:36.65	318.16	13.31	-54.1	-56.2	6.2	0.00e+00	0	47	104	37690015744	78	19726
2026-01-23 21:40:39.67	318.75	13.05	-54.0	-56.1	6.2	0.00e+00	0	47	104	37690015744	78	19655
2026-01-23 21:40:42.70	319.34	12.79	-54.0	-56.1	6.2	0.00e+00	0	47	104	37690015744	78	19614
2026-01-23 21:40:45.72	319.91	12.53	-53.9	-56.0	6.2	0.00e+00	0	47	104	37690015744	78	19305
2026-01-23 21:40:48.74	320.47	12.27	-53.8	-55.9	6.2	0.00e+00	0	47	104	37690015744	78	19234
2026-01-23 21:40:51.77	321.02	12.01	-53.8	-55.9	6.2	0.00e+00	0	47	104	37690015744	78	19109
2026-01-23 21:40:54.79	321.55	11.75	-53.8	-55.9	6.2	0.00e+00	0	47	104	37690015744	78	19125
2026-01-23 21:40:57.82	322.08	11.50	-53.7	-55.8	6.2	0.00e+00	0	47	104	37690015744	78	18965
2026-01-23 21:41:00.84	322.60	11.25	-53.7	-55.8	6.2	0.00e+00	0	47	104	37690015744	78	18866
2026-01-23 21:41:03.87	323.11	10.99	-53.7	-55.8	6.2	0.00e+00	0	47	104	37690015744	78	18864
2026-01-23 21:41:06.89	323.60	10.74	-53.7	-55.8	6.2	0.00e+00	0	47	104	37690015744	78	18851
2026-01-23 21:41:09.91	324.09	10.50	-53.6	-55.7	6.2	0.00e+00	0	47	104	37690015744	78	18711
2026-01-23 21:41:12.94	324.57	10.25	-53.5	-55.6	6.2	0.00e+00	0	47	104	37690015744	78	18542
2026-01-23 21:41:15.96	325.04	10.00	-53.5	-55.6	6.2	0.00e+00	0	47	104	37690015744	78	18468
2026-01-23 21:41:18.99	325.50	9.76	-53.5	-55.6	6.2	0.00e+00	0	47	104	37690015744	78	18463
2026-01-23 21:41:22.01	325.95	9.52	-53.4	-55.5	6.2	0.00e+00	0	47	104	37690015744	78	18335
2026-01-23 21:41:25.03	326.39	9.28	-53.4	-55.5	6.2	0.00e+00	0	47	104	37690015744	78	18248
2026-01-23 21:41:28.06	326.83	9.04	-53.3	-55.4	6.2	0.00e+00	0	47	104	37690015744	78	18127
2026-01-23 21:41:31.08	327.25	8.80	-53.4	-55.5	6.2	0.00e+00	0	47	104	37690015744	78	18217
2026-01-23 21:41:34.10	327.67	8.57	-53.3	-55.3	6.2	0.00e+00	0	47	104	37690015744	78	17952
2026-01-23 21:41:37.13	328.08	8.34	-53.2	-55.3	6.2	0.00e+00	0	47	104	37690015744	78	17955
2026-01-23 21:41:40.15	328.48	8.10	-53.2	-55.3	6.2	0.00e+00	0	47	104	37690015744	78	17822
2026-01-23 21:41:43.18	328.88	7.87	-53.2	-55.4	6.2	0.00e+00	0	47	104	37690015744	78	17975
2026-01-23 21:41:46.20	329.26	7.65	-53.2	-55.3	6.2	0.00e+00	0	47	104	37690015744	78	17770
2026-01-23 21:41:49.22	329.64	7.42	-53.1	-55.2	6.2	0.00e+00	0	47	104	37690015744	78	17745
2026-01-23 21:41:52.25	330.02	7.20	-53.1	-55.3	6.2	0.00e+00	0	47	104	37690015744	78	17774
2026-01-23 21:41:55.27	330.39	6.97	-53.1	-55.3	6.2	0.00e+00	0	47	104	37690015744	78	17775
2026-01-23 21:41:58.29	330.75	6.75	-53.1	-55.2	6.2	0.00e+00	0	47	104	37690015744	78	17616
2026-01-23 21:42:01.32	331.10	6.53	-53.1	-55.2	6.2	0.00e+00	0	47	104	37690015744	78	17612
2026-01-23 21:42:04.34	331.45	6.32	-53.0	-55.1	6.2	0.00e+00	0	47	104	37690015744	78	17508
2026-01-23 21:42:07.37	331.79	6.10	-53.0	-55.1	6.2	0.00e+00	0	47	104	37690015744	77	18479
2026-01-23 21:42:10.39	332.13	5.88	-52.9	-55.0	6.2	0.00e+00	0	47	104	37690015744	77	18262
2026-01-23 21:42:13.41	332.46	5.67	-52.8	-54.9	6.2	0.00e+00	0	47	104	37690015744	77	18169
2026-01-23 21:42:16.44	332.79	5.46	-52.8	-54.9	6.2	0.00e+00	0	47	104	37690015744	77	18179
2026-01-23 21:42:19.46	333.11	5.25	-52.8	-54.9	6.2	0.00e+00	0	47	104	37690015744	77	18168
2026-01-23 21:42:22.49	333.42	5.04	-52.7	-54.8	6.2	0.00e+00	0	47	104	37690015744	77	17943
2026-01-23 21:42:25.51	333.73	4.83	-53.7	-55.8	6.2	0.00e+00	0	47	104	37690015744	77	19985
2026-01-23 21:42:28.54	334.03	4.63	-54.3	-56.4	6.2	0.00e+00	0	47	104	37690015744	79	19180
2026-01-23 21:42:31.56	334.33	4.42	-54.4	-56.5	6.2	0.00e+00	0	47	104	37690015744	79	19325
2026-01-23 21:42:34.59	334.63	4.22	-54.2	-56.3	6.2	0.00e+00	0	47	104	37690015744	79	18845
2026-01-23 21:42:37.62	334.92	4.02	-54.0	-56.1	6.2	0.00e+00	0	47	104	37690015744	79	18558
2026-01-23 21:42:40.64	335.20	3.82	-54.0	-56.1	6.2	0.00e+00	0	47	104	37690015744	79	18552
2026-01-23 21:42:43.67	335.48	3.62	-53.9	-56.0	6.2	0.00e+00	0	47	104	37690015744	79	18387
2026-01-23 21:42:46.70	335.76	3.43	-53.8	-55.9	6.2	0.00e+00	0	47	104	37690015744	79	18020
2026-01-23 21:42:49.73	336.03	3.23	-53.7	-55.8	6.2	0.00e+00	0	47	104	37690015744	79	17928
2026-01-23 21:42:52.75	336.30	3.04	-53.7	-55.8	6.2	0.00e+00	0	47	104	37690015744	79	17795
2026-01-23 21:42:55.77	336.56	2.84	-53.6	-55.7	6.2	0.00e+00	0	47	104	37690015744	79	17750
2026-01-23 21:42:58.80	336.82	2.65	-53.6	-55.7	6.2	0.00e+00	0	47	104	37690015744	79	17634
2026-01-23 21:43:01.80	337.08	2.46	-53.6	-55.7	6.2	0.00e+00	0	47	104	37690015744	79	17637
2026-01-23 21:43:04.83	337.33	2.27	-53.6	-55.7	6.2	0.00e+00	0	47	104	37690015744	79	17568
2026-01-23 21:43:07.85	337.58	2.09	-53.6	-55.7	6.2	0.00e+00	0	47	104	37690015744	79	17567

#Closed at: 2026-01-23 21:43:10
#Recorded file [37690 MB]: D:/lorett/data/31041_260124_003305.dat