passes_logs/2026/01/23/R3.2S_Murmansk/R3.2S_Murmansk__20260123_194749_JL1KF02B07_rec.log

#Pass ID: 20260123_194749_JL1KF02B07
#Satellite: JL1KF02B07
#Configuration: 01B_900M
#almurnet v.1.7.20251203
#Start time: 2026-01-23 19:47:49

#Version: 2.2.20231116
#Station: R3.2S_Murmansk
#Location: 33.079688 lon 68.888172 lat
#TLE: 1 65939U 25226B   26023.55098322  .00007887  00000+0  49835-3 0  9997
#TLE: 2 65939  97.6527 102.5414 0017878 270.2089  89.7091 15.09195681 15753

#Time	Az	El	Level	Level2	SNR	BER	BlckErr	Temp	State	Recorded	gain1	gain2
2026-01-23 19:47:49.99	177.38	1.01	-54.7	-56.8	6.2	0.00e+00	0	43	0	0	80	18875
2026-01-23 19:47:53.01	177.49	1.21	-54.6	-56.7	6.2	0.00e+00	0	43	104	0	80	18765
2026-01-23 19:47:56.03	177.60	1.41	-54.9	-57.0	6.2	0.00e+00	0	43	104	0	80	19352
2026-01-23 19:47:59.05	177.72	1.61	-54.9	-56.9	6.2	0.00e+00	0	43	104	0	80	19214
2026-01-23 19:48:02.08	177.83	1.81	-54.8	-56.9	6.2	0.00e+00	0	44	104	0	80	19059
2026-01-23 19:48:05.10	177.95	2.01	-54.7	-56.8	6.2	0.00e+00	0	44	104	0	80	18911
2026-01-23 19:48:08.13	178.07	2.22	-54.6	-56.7	6.2	0.00e+00	0	44	104	0	80	18681
2026-01-23 19:48:11.15	178.19	2.42	-54.4	-56.5	6.2	0.00e+00	0	44	104	0	80	18326
2026-01-23 19:48:14.17	178.31	2.63	-54.2	-56.2	6.2	0.00e+00	0	44	104	0	80	17756
2026-01-23 19:48:17.20	178.43	2.84	-53.5	-55.6	6.2	0.00e+00	0	44	104	0	79	17515
2026-01-23 19:48:20.23	178.56	3.06	-53.4	-55.5	6.2	0.00e+00	0	44	104	0	78	18276
2026-01-23 19:48:23.25	178.68	3.27	-53.4	-55.5	6.2	0.00e+00	0	44	104	0	78	18191
2026-01-23 19:48:26.28	178.82	3.49	-53.4	-55.4	6.2	0.00e+00	0	44	104	0	78	18098
2026-01-23 19:48:29.31	178.95	3.71	-53.3	-55.4	6.2	0.00e+00	0	44	104	0	78	18121
2026-01-23 19:48:32.33	179.08	3.93	-53.3	-55.4	6.2	0.00e+00	0	44	104	0	78	18119
2026-01-23 19:48:35.35	179.22	4.15	-53.3	-55.4	6.2	0.00e+00	0	44	104	0	78	18039
2026-01-23 19:48:38.37	179.36	4.38	-53.3	-55.4	6.2	0.00e+00	0	45	104	0	78	18062
2026-01-23 19:48:41.40	179.50	4.61	-53.3	-55.4	6.2	0.00e+00	0	44	104	0	78	18062
2026-01-23 19:48:44.42	179.64	4.84	-53.3	-55.4	6.2	0.00e+00	0	45	104	0	78	18025
2026-01-23 19:48:47.45	179.79	5.07	-53.3	-55.4	6.2	0.00e+00	0	44	104	0	78	18112
2026-01-23 19:48:50.47	179.94	5.31	-53.4	-55.5	6.2	0.00e+00	0	44	104	0	78	18340
2026-01-23 19:48:53.50	180.09	5.54	-53.3	-55.5	6.2	0.00e+00	0	45	104	0	78	18203
2026-01-23 19:48:56.52	180.25	5.78	-53.3	-55.4	6.2	0.00e+00	0	45	104	0	78	18040
2026-01-23 19:48:59.55	180.40	6.03	-53.3	-55.4	6.2	0.00e+00	0	45	104	0	78	18142
2026-01-23 19:49:02.57	180.56	6.27	-53.4	-55.5	6.2	0.00e+00	0	45	104	0	78	18320
2026-01-23 19:49:05.59	180.73	6.52	-53.4	-55.4	6.2	0.00e+00	0	45	104	0	78	18176
2026-01-23 19:49:08.62	180.89	6.77	-53.3	-55.4	6.2	0.00e+00	0	45	104	0	78	17987
2026-01-23 19:49:11.64	181.06	7.03	-53.4	-55.5	6.2	0.00e+00	0	45	104	0	78	18283
2026-01-23 19:49:14.67	181.24	7.29	-53.5	-55.6	6.2	0.00e+00	0	45	104	0	78	18472
2026-01-23 19:49:17.69	181.42	7.55	-53.4	-55.5	6.2	0.00e+00	0	45	104	0	78	18359
2026-01-23 19:49:20.71	181.60	7.81	-53.4	-55.5	6.2	0.00e+00	0	45	104	0	78	18255
2026-01-23 19:49:23.74	181.78	8.08	-53.4	-55.5	6.2	0.00e+00	0	45	104	0	78	18331
2026-01-23 19:49:26.76	181.97	8.35	-52.0	-53.4	6.3	0.00e+00	0	45	104	0	74	18058
2026-01-23 19:49:29.78	182.16	8.62	-48.6	-49.2	6.3	0.00e+00	0	45	104	0	69	14918
2026-01-23 19:49:32.81	182.36	8.90	-50.2	-51.3	6.3	0.00e+00	0	45	104	0	70	17775
2026-01-23 19:49:35.83	182.56	9.18	-51.1	-52.3	6.3	0.00e+00	0	45	104	0	72	17865
2026-01-23 19:49:38.85	182.76	9.47	-48.6	-49.2	6.2	0.00e+00	0	45	104	0	69	14882
2026-01-23 19:49:41.88	182.97	9.76	-35.3	-35.1	16.1	1.14e-05	0	45	0	92274688	40	15637
2026-01-23 19:49:44.90	183.19	10.05	-33.0	-32.8	17.1	0.00e+00	0	45	0	436207616	38	13439
2026-01-23 19:49:47.92	183.40	10.35	-32.6	-32.4	17.5	1.90e-06	0	45	0	780140544	36	14374
2026-01-23 19:49:50.95	183.63	10.65	-32.6	-32.4	17.7	0.00e+00	0	46	0	1115684864	36	14416
2026-01-23 19:49:53.97	183.86	10.96	-32.5	-32.4	17.8	1.90e-06	0	45	0	1451229184	36	14344
2026-01-23 19:49:56.99	184.09	11.27	-32.2	-32.0	17.7	0.00e+00	0	46	0	1803550720	36	13746
2026-01-23 19:50:00.01	184.33	11.58	-32.2	-32.0	17.7	0.00e+00	0	46	0	2139095040	36	13715
2026-01-23 19:50:03.04	184.58	11.90	-32.0	-31.8	17.7	0.00e+00	0	46	0	2474639360	36	13412
2026-01-23 19:50:06.06	184.83	12.23	-29.7	-29.5	17.4	0.00e+00	0	46	0	2810183680	31	13726
2026-01-23 19:50:09.09	185.09	12.56	-29.8	-29.6	17.3	1.90e-06	0	46	0	3154116608	31	13895
2026-01-23 19:50:12.11	185.36	12.90	-29.4	-29.2	17.5	0.00e+00	0	46	0	3498049536	30	14053
2026-01-23 19:50:15.13	185.63	13.24	-29.3	-29.1	17.4	3.80e-06	0	46	0	3833593856	30	13861
2026-01-23 19:50:18.15	185.91	13.58	-29.2	-29.0	17.6	0.00e+00	0	46	0	4177526784	30	13777
2026-01-23 19:50:21.18	186.19	13.93	-29.1	-28.9	17.7	0.00e+00	0	46	0	4513071104	30	13565
2026-01-23 19:50:24.20	186.49	14.29	-29.1	-28.9	17.7	0.00e+00	0	46	0	4857004032	29	14366
2026-01-23 19:50:27.23	186.79	14.66	-28.7	-28.5	18.0	1.90e-06	0	46	0	5200936960	29	13761
2026-01-23 19:50:30.25	187.10	15.03	-28.6	-28.5	18.0	1.90e-06	0	46	0	5536481280	29	13633
2026-01-23 19:50:33.28	187.42	15.40	-28.6	-28.4	18.2	0.00e+00	0	46	0	5872025600	29	13530
2026-01-23 19:50:36.30	187.75	15.79	-28.2	-28.1	18.3	0.00e+00	0	46	0	6224347136	28	13808
2026-01-23 19:50:39.33	188.09	16.18	-28.1	-28.0	18.3	0.00e+00	0	46	0	6559891456	28	13646
2026-01-23 19:50:42.35	188.43	16.57	-28.0	-27.8	18.5	0.00e+00	0	46	0	6895435776	27	14177
2026-01-23 19:50:45.37	188.79	16.98	-27.9	-27.8	18.5	0.00e+00	0	46	0	7230980096	27	14163
2026-01-23 19:50:48.40	189.16	17.39	-27.6	-27.4	18.6	0.00e+00	0	46	0	7583301632	27	13598
2026-01-23 19:50:51.42	189.54	17.81	-27.7	-27.6	18.6	0.00e+00	0	46	0	7918845952	27	13805
2026-01-23 19:50:54.45	189.93	18.24	-27.4	-27.3	18.6	0.00e+00	0	46	0	8254390272	26	14155
2026-01-23 19:50:57.47	190.33	18.67	-27.1	-26.9	18.7	0.00e+00	0	46	0	8598323200	26	13537
2026-01-23 19:51:00.50	190.75	19.11	-27.0	-26.8	18.9	0.00e+00	0	46	0	8942256128	25	14200
2026-01-23 19:51:03.53	191.18	19.57	-26.9	-26.7	18.9	0.00e+00	0	46	0	9277800448	25	14034
2026-01-23 19:51:06.55	191.62	20.03	-26.6	-26.4	19.0	0.00e+00	0	46	0	9621733376	25	13617
2026-01-23 19:51:09.58	192.08	20.50	-26.6	-26.4	19.0	0.00e+00	0	46	0	9957277696	24	14360
2026-01-23 19:51:12.60	192.56	20.97	-26.4	-26.2	19.2	0.00e+00	0	46	0	10309599232	24	14044
2026-01-23 19:51:15.63	193.05	21.46	-26.2	-26.1	19.1	0.00e+00	0	46	0	10645143552	24	13803
2026-01-23 19:51:18.65	193.56	21.96	-26.1	-25.9	19.3	0.00e+00	0	46	0	10980687872	24	13597
2026-01-23 19:51:21.67	194.08	22.46	-25.9	-25.7	19.2	0.00e+00	0	46	0	11316232192	23	14077
2026-01-23 19:51:24.69	194.63	22.98	-25.8	-25.6	19.3	0.00e+00	0	46	0	11668553728	23	13897
2026-01-23 19:51:27.72	195.19	23.51	-25.9	-25.7	19.3	0.00e+00	0	46	0	12004098048	23	14034
2026-01-23 19:51:30.74	195.77	24.04	-25.4	-25.3	19.6	0.00e+00	0	46	0	12339642368	22	14163
2026-01-23 19:51:33.77	196.38	24.59	-25.2	-25.1	19.7	0.00e+00	0	46	0	12683575296	22	13813
2026-01-23 19:51:36.80	197.01	25.15	-25.2	-25.0	19.7	0.00e+00	0	46	0	13027508224	22	13722
2026-01-23 19:51:39.83	197.67	25.72	-25.0	-24.8	19.9	0.00e+00	0	46	0	13363052544	22	13442
2026-01-23 19:51:42.85	198.35	26.30	-24.7	-24.5	20.0	0.00e+00	0	46	0	13706985472	21	13734
2026-01-23 19:51:45.88	199.06	26.89	-24.5	-24.3	20.2	0.00e+00	0	46	0	14042529792	21	13445
2026-01-23 19:51:48.90	199.79	27.49	-24.3	-24.1	19.9	0.00e+00	0	46	0	14386462720	20	13929
2026-01-23 19:51:51.93	200.56	28.10	-24.3	-24.2	20.1	0.00e+00	0	46	0	14730395648	20	13962
2026-01-23 19:51:54.96	201.36	28.72	-24.0	-23.8	19.9	0.00e+00	0	46	0	15065939968	19	14261
2026-01-23 19:51:57.98	202.19	29.35	-23.8	-23.6	20.0	0.00e+00	0	46	0	15401484288	19	13938
2026-01-23 19:52:01.01	203.06	30.00	-23.8	-23.6	19.8	0.00e+00	0	46	0	15753805824	19	13905
2026-01-23 19:52:04.03	203.96	30.65	-23.6	-23.4	19.9	0.00e+00	0	46	0	16089350144	19	13541
2026-01-23 19:52:07.06	204.90	31.31	-23.4	-23.2	20.0	0.00e+00	0	46	0	16424894464	18	14065
2026-01-23 19:52:10.08	205.88	31.98	-23.3	-23.2	20.0	0.00e+00	0	46	0	16760438784	18	13995
2026-01-23 19:52:13.11	206.91	32.66	-23.1	-23.0	19.9	0.00e+00	0	46	0	17112760320	18	13685
2026-01-23 19:52:16.14	207.99	33.35	-23.0	-22.8	20.0	0.00e+00	0	46	0	17448304640	18	13466
2026-01-23 19:52:19.16	209.11	34.04	-22.8	-22.6	19.6	0.00e+00	0	46	0	17783848960	17	13863
2026-01-23 19:52:22.19	210.29	34.74	-22.6	-22.4	19.7	0.00e+00	0	46	0	18127781888	17	13600
2026-01-23 19:52:25.21	211.51	35.44	-22.4	-22.3	19.6	0.00e+00	0	46	0	18471714816	16	14143
2026-01-23 19:52:28.23	212.79	36.15	-22.4	-22.2	19.5	0.00e+00	0	46	0	18807259136	16	14032
2026-01-23 19:52:31.26	214.13	36.86	-22.2	-22.1	19.9	0.00e+00	0	46	0	19151192064	16	13835
2026-01-23 19:52:34.29	215.54	37.57	-22.2	-22.0	19.9	0.00e+00	0	46	0	19486736384	16	13681
2026-01-23 19:52:37.31	217.01	38.27	-22.0	-21.9	19.7	0.00e+00	0	46	0	19830669312	16	13498
2026-01-23 19:52:40.33	218.54	38.97	-22.0	-21.8	19.8	0.00e+00	0	46	0	20174602240	15	14235
2026-01-23 19:52:43.36	220.14	39.67	-21.9	-21.7	19.2	0.00e+00	0	46	0	20510146560	15	14084
2026-01-23 19:52:46.37	221.81	40.35	-21.7	-21.5	19.3	0.00e+00	0	46	0	20845690880	15	13723
2026-01-23 19:52:49.40	223.56	41.02	-21.6	-21.4	18.8	0.00e+00	0	46	0	21198012416	15	13560
2026-01-23 19:52:52.42	225.38	41.67	-21.4	-21.3	18.4	0.00e+00	0	46	0	21533556736	14	14156
2026-01-23 19:52:55.44	227.27	42.31	-21.3	-21.2	18.2	0.00e+00	0	46	0	21869101056	14	13954
2026-01-23 19:52:58.47	229.25	42.92	-21.3	-21.1	18.0	0.00e+00	0	46	0	22204645376	14	13829
2026-01-23 19:53:01.49	231.30	43.50	-21.1	-21.0	17.9	0.00e+00	0	46	0	22556966912	14	13665
2026-01-23 19:53:04.52	233.43	44.06	-21.0	-20.8	17.8	0.00e+00	0	46	0	22892511232	14	13475
2026-01-23 19:53:07.54	235.63	44.57	-20.8	-20.7	17.6	0.00e+00	0	46	0	23228055552	13	13954
2026-01-23 19:53:10.57	237.91	45.05	-20.8	-20.7	17.8	0.00e+00	0	46	0	23571988480	13	13965
2026-01-23 19:53:13.59	240.24	45.48	-20.9	-20.7	18.4	0.00e+00	0	46	0	23907532800	13	14007
2026-01-23 19:53:16.61	242.64	45.87	-20.8	-20.6	18.8	0.00e+00	0	46	0	24259854336	13	13930
2026-01-23 19:53:19.64	245.10	46.21	-20.9	-20.7	18.8	0.00e+00	0	46	0	24595398656	13	14000
2026-01-23 19:53:22.66	247.61	46.49	-20.9	-20.7	19.0	0.00e+00	0	46	0	24930942976	13	14106
2026-01-23 19:53:25.68	250.15	46.71	-20.8	-20.6	19.2	0.00e+00	0	46	0	25266487296	13	13898
2026-01-23 19:53:28.70	252.73	46.88	-20.8	-20.6	18.9	0.00e+00	0	46	0	25618808832	13	13868
2026-01-23 19:53:31.73	255.34	46.98	-20.8	-20.6	19.3	0.00e+00	0	46	0	25954353152	13	13853
2026-01-23 19:53:34.75	257.95	47.02	-20.9	-20.7	19.1	0.00e+00	0	46	0	26289897472	13	14004
2026-01-23 19:53:37.78	260.57	47.00	-20.8	-20.6	19.6	0.00e+00	0	46	0	26625441792	13	13884
2026-01-23 19:53:40.80	263.17	46.92	-20.8	-20.6	19.5	0.00e+00	0	46	0	26977763328	13	13945
2026-01-23 19:53:43.82	265.76	46.77	-20.9	-20.7	19.3	0.00e+00	0	46	0	27313307648	13	14014
2026-01-23 19:53:46.85	268.32	46.56	-20.9	-20.7	19.5	0.00e+00	0	47	0	27657240576	13	14074
2026-01-23 19:53:49.87	270.83	46.30	-21.0	-20.8	19.2	0.00e+00	0	46	0	27992784896	13	14152
2026-01-23 19:53:52.89	273.30	45.98	-21.0	-20.9	19.7	0.00e+00	0	46	0	28328329216	13	14302
2026-01-23 19:53:55.92	275.72	45.61	-21.2	-21.0	19.7	0.00e+00	0	46	0	28680650752	13	14569
2026-01-23 19:53:58.94	278.07	45.20	-21.2	-21.0	19.7	0.00e+00	0	46	0	29016195072	13	14569
2026-01-23 19:54:01.96	280.36	44.74	-21.4	-21.2	20.0	0.00e+00	0	46	0	29351739392	13	14832
2026-01-23 19:54:04.99	282.58	44.23	-21.4	-21.2	20.1	0.00e+00	0	46	0	29687283712	13	14923
2026-01-23 19:54:08.01	284.72	43.69	-21.5	-21.4	20.0	0.00e+00	0	46	0	30039605248	13	15137
2026-01-23 19:54:11.02	286.78	43.12	-21.7	-21.5	20.2	0.00e+00	0	46	0	30375149568	13	15397
2026-01-23 19:54:14.05	288.78	42.52	-21.8	-21.7	20.6	0.00e+00	0	46	0	30710693888	14	14808
2026-01-23 19:54:17.08	290.70	41.90	-22.0	-21.8	20.7	0.00e+00	0	46	0	31054626816	14	15116
2026-01-23 19:54:20.10	292.54	41.25	-22.2	-22.0	20.7	0.00e+00	0	46	0	31398559744	15	14576
2026-01-23 19:54:23.13	294.31	40.59	-22.3	-22.1	21.0	0.00e+00	0	46	0	31734104064	15	14727
2026-01-23 19:54:26.15	296.00	39.91	-22.5	-22.3	21.1	0.00e+00	0	46	0	32078036992	15	15082
2026-01-23 19:54:29.17	297.61	39.23	-22.5	-22.4	21.1	0.00e+00	0	46	0	32413581312	15	15151
2026-01-23 19:54:32.20	299.17	38.53	-22.7	-22.5	21.0	0.00e+00	0	46	0	32757514240	15	15417
2026-01-23 19:54:35.23	300.65	37.83	-22.9	-22.8	21.0	0.00e+00	0	46	0	33101447168	16	14951
2026-01-23 19:54:38.25	302.07	37.13	-23.1	-22.9	21.2	0.00e+00	0	46	0	33436991488	16	15256
2026-01-23 19:54:41.28	303.43	36.42	-23.2	-23.0	21.2	0.00e+00	0	46	0	33772535808	17	14481
2026-01-23 19:54:44.31	304.73	35.72	-23.4	-23.2	20.9	0.00e+00	0	46	0	34124857344	17	14902
2026-01-23 19:54:47.33	305.97	35.02	-23.5	-23.3	20.7	0.00e+00	0	46	0	34460401664	17	15074
2026-01-23 19:54:50.36	307.15	34.32	-23.9	-23.7	20.5	0.00e+00	0	47	0	34795945984	18	14835
2026-01-23 19:54:53.39	308.29	33.63	-24.0	-23.8	20.2	0.00e+00	0	46	0	35131490304	18	15105
2026-01-23 19:54:56.42	309.38	32.95	-24.3	-24.2	19.6	0.00e+00	0	47	0	35483811840	19	14805
2026-01-23 19:54:59.44	310.41	32.27	-24.3	-24.2	19.3	0.00e+00	0	46	0	35819356160	19	14792
2026-01-23 19:55:02.47	311.41	31.60	-24.6	-24.4	19.3	0.00e+00	0	46	0	36154900480	19	15187
2026-01-23 19:55:05.49	312.36	30.94	-24.7	-24.5	19.5	0.00e+00	0	46	0	36507222016	19	15359
2026-01-23 19:55:08.52	313.28	30.29	-24.8	-24.6	19.5	0.00e+00	0	46	0	36842766336	20	14686
2026-01-23 19:55:11.54	314.15	29.65	-24.9	-24.7	19.6	0.00e+00	0	46	0	37178310656	20	14834
2026-01-23 19:55:14.57	314.99	29.02	-25.1	-24.9	19.3	0.00e+00	0	46	0	37522243584	20	15179
2026-01-23 19:55:17.59	315.80	28.40	-25.2	-25.0	19.5	0.00e+00	0	46	0	37857787904	20	15398
2026-01-23 19:55:20.61	316.57	27.79	-25.3	-25.1	19.3	0.00e+00	0	46	0	38201720832	21	14773
2026-01-23 19:55:23.64	317.31	27.19	-25.6	-25.4	19.1	0.00e+00	0	46	0	38545653760	21	15188
2026-01-23 19:55:26.66	318.03	26.60	-25.8	-25.6	18.8	0.00e+00	0	46	0	38881198080	22	14673
2026-01-23 19:55:29.68	318.71	26.02	-26.0	-25.8	18.5	0.00e+00	0	46	0	39216742400	22	15015
2026-01-23 19:55:32.71	319.38	25.45	-26.0	-25.8	18.8	0.00e+00	0	46	0	39569063936	22	15010
2026-01-23 19:55:35.73	320.01	24.90	-26.1	-26.0	18.8	0.00e+00	0	47	0	39904608256	22	15324
2026-01-23 19:55:38.76	320.63	24.35	-26.3	-26.1	18.6	0.00e+00	0	47	0	40240152576	23	14759
2026-01-23 19:55:41.78	321.22	23.81	-26.6	-26.5	18.3	0.00e+00	0	46	0	40575696896	24	14478
2026-01-23 19:55:44.80	321.78	23.29	-26.7	-26.5	18.4	0.00e+00	0	46	0	40928018432	24	14572
2026-01-23 19:55:47.82	322.33	22.77	-26.8	-26.7	18.3	0.00e+00	0	46	0	41263562752	24	14782
2026-01-23 19:55:50.85	322.87	22.26	-27.1	-27.0	18.3	0.00e+00	0	46	0	41599107072	24	15322
2026-01-23 19:55:53.87	323.38	21.77	-27.3	-27.2	18.6	0.00e+00	0	46	0	41943040000	25	14781
2026-01-23 19:55:56.90	323.87	21.28	-27.5	-27.3	18.4	0.00e+00	0	46	0	42286972928	25	15071
2026-01-23 19:55:59.92	324.35	20.80	-27.7	-27.5	18.5	0.00e+00	0	46	0	42630905856	26	14497
2026-01-23 19:56:02.94	324.82	20.33	-27.8	-27.6	18.7	0.00e+00	0	46	0	42966450176	26	14742
2026-01-23 19:56:05.97	325.27	19.87	-27.9	-27.8	18.8	0.00e+00	0	47	0	43301994496	26	15020
2026-01-23 19:56:08.99	325.70	19.42	-28.1	-28.0	18.6	0.00e+00	0	46	0	43637538816	26	15362
2026-01-23 19:56:12.01	326.12	18.98	-28.4	-28.2	18.4	0.00e+00	0	46	0	43989860352	27	14904
2026-01-23 19:56:15.04	326.53	18.54	-28.5	-28.3	18.4	0.00e+00	0	46	0	44325404672	27	15066
2026-01-23 19:56:18.06	326.92	18.11	-28.7	-28.5	18.2	0.00e+00	0	47	0	44660948992	27	15438
2026-01-23 19:56:21.09	327.31	17.69	-28.7	-28.6	18.1	0.00e+00	0	46	0	44996493312	28	14637
2026-01-23 19:56:24.11	327.68	17.28	-28.9	-28.7	18.1	0.00e+00	0	46	0	45348814848	28	14871
2026-01-23 19:56:27.13	328.04	16.88	-28.9	-28.7	17.9	0.00e+00	0	46	0	45684359168	28	14942
2026-01-23 19:56:30.16	328.39	16.48	-29.1	-29.0	17.9	0.00e+00	0	46	0	46028292096	28	15308
2026-01-23 19:56:33.18	328.73	16.09	-29.3	-29.1	17.9	0.00e+00	0	46	0	46363836416	29	14750
2026-01-23 19:56:36.20	329.06	15.71	-29.4	-29.2	17.6	0.00e+00	0	47	0	46707769344	29	14904
2026-01-23 19:56:39.23	329.39	15.33	-29.5	-29.4	17.7	1.90e-06	0	47	0	47051702272	29	15195
2026-01-23 19:56:42.25	329.70	14.96	-29.8	-29.6	17.6	1.90e-06	0	47	0	47387246592	30	14722
2026-01-23 19:56:45.27	330.00	14.60	-29.9	-29.7	17.2	0.00e+00	0	47	0	47722790912	30	14932
2026-01-23 19:56:48.30	330.30	14.24	-29.9	-29.8	17.2	5.70e-06	0	46	0	48075112448	30	15006
2026-01-23 19:56:51.32	330.59	13.89	-30.1	-30.0	17.0	1.90e-06	0	46	0	48410656768	31	14473
2026-01-23 19:56:54.34	330.87	13.54	-30.2	-30.0	16.9	7.60e-06	0	47	0	48746201088	31	14594
2026-01-23 19:56:57.37	331.15	13.20	-30.3	-30.2	16.7	5.70e-06	0	47	0	49081745408	31	14805
2026-01-23 19:57:00.39	331.42	12.86	-30.6	-30.4	16.5	1.33e-05	0	47	0	49425678336	31	15218
2026-01-23 19:57:03.42	331.68	12.53	-30.5	-30.4	16.4	2.28e-05	0	47	0	49769611264	32	14341
2026-01-23 19:57:06.44	331.93	12.21	-31.0	-30.9	16.1	2.47e-05	0	47	0	50105155584	32	15196
2026-01-23 19:57:09.46	332.18	11.89	-31.0	-30.9	16.2	3.24e-05	0	47	0	50449088512	32	15187
2026-01-23 19:57:12.49	332.43	11.57	-31.0	-30.9	16.2	2.86e-05	0	47	0	50784632832	32	15235
2026-01-23 19:57:15.51	332.66	11.26	-31.1	-30.9	16.3	4.00e-05	0	47	0	51128565760	33	14433
2026-01-23 19:57:18.53	332.90	10.95	-31.3	-31.2	15.9	3.62e-05	0	47	0	51472498688	33	14875
2026-01-23 19:57:21.56	333.12	10.65	-53.7	-55.9	6.2	0.00e+00	0	46	104	51547996160	78	19093
2026-01-23 19:57:24.58	333.34	10.35	-53.7	-55.8	6.2	0.00e+00	0	46	104	51547996160	78	18930
2026-01-23 19:57:27.61	333.56	10.06	-53.7	-55.8	6.2	0.00e+00	0	46	104	51547996160	78	18824
2026-01-23 19:57:30.63	333.77	9.77	-53.5	-55.6	6.2	0.00e+00	0	46	104	51547996160	78	18394
2026-01-23 19:57:33.65	333.98	9.49	-53.5	-55.6	6.2	0.00e+00	0	46	104	51547996160	78	18534
2026-01-23 19:57:36.68	334.19	9.20	-53.5	-55.5	6.2	0.00e+00	0	46	104	51547996160	78	18363
2026-01-23 19:57:39.70	334.38	8.93	-53.5	-55.6	6.2	0.00e+00	0	46	104	51547996160	78	18550
2026-01-23 19:57:42.73	334.58	8.65	-53.4	-55.5	6.2	0.00e+00	0	46	104	51547996160	78	18286
2026-01-23 19:57:45.75	334.77	8.38	-53.4	-55.5	6.2	0.00e+00	0	46	104	51547996160	78	18344
2026-01-23 19:57:48.77	334.96	8.11	-53.4	-55.5	6.2	0.00e+00	0	46	104	51547996160	78	18222
2026-01-23 19:57:51.80	335.14	7.85	-53.3	-55.5	6.2	0.00e+00	0	46	104	51547996160	78	18226
2026-01-23 19:57:54.82	335.32	7.59	-53.2	-55.3	6.2	0.00e+00	0	46	104	51547996160	78	17887
2026-01-23 19:57:57.85	335.50	7.33	-53.3	-55.4	6.2	0.00e+00	0	46	104	51547996160	78	18048
2026-01-23 19:58:00.87	335.67	7.07	-53.2	-55.2	6.2	0.00e+00	0	46	104	51547996160	78	17729
2026-01-23 19:58:03.89	335.84	6.82	-53.1	-55.3	6.2	0.00e+00	0	46	104	51547996160	78	17795
2026-01-23 19:58:06.91	336.00	6.57	-53.1	-55.1	6.2	0.00e+00	0	46	104	51547996160	78	17559
2026-01-23 19:58:09.93	336.17	6.33	-53.1	-55.2	6.2	0.00e+00	0	46	104	51547996160	78	17705
2026-01-23 19:58:12.96	336.33	6.09	-53.0	-55.1	6.2	0.00e+00	0	46	104	51547996160	78	17455
2026-01-23 19:58:15.98	336.48	5.85	-53.0	-55.1	6.2	0.00e+00	0	46	104	51547996160	77	18536
2026-01-23 19:58:19.01	336.64	5.61	-52.8	-54.9	6.2	0.00e+00	0	46	104	51547996160	77	18154
2026-01-23 19:58:22.03	336.79	5.37	-52.9	-55.0	6.2	0.00e+00	0	46	104	51547996160	77	18356
2026-01-23 19:58:25.05	336.94	5.14	-52.7	-54.8	6.2	0.00e+00	0	46	104	51547996160	77	17888
2026-01-23 19:58:28.07	337.09	4.91	-53.7	-55.8	6.2	0.00e+00	0	46	104	51547996160	77	19979
2026-01-23 19:58:31.10	337.23	4.68	-54.4	-56.5	6.2	0.00e+00	0	46	104	51547996160	79	19405
2026-01-23 19:58:34.12	337.37	4.46	-54.6	-56.7	6.2	0.00e+00	0	46	104	51547996160	79	19739
2026-01-23 19:58:37.15	337.51	4.23	-54.4	-56.5	6.2	0.00e+00	0	46	104	51547996160	79	19425
2026-01-23 19:58:40.17	337.65	4.01	-54.1	-56.2	6.2	0.00e+00	0	46	104	51547996160	79	18747
2026-01-23 19:58:43.20	337.78	3.79	-54.1	-56.2	6.2	0.00e+00	0	46	104	51547996160	79	18679
2026-01-23 19:58:46.23	337.92	3.57	-54.1	-56.1	6.2	0.00e+00	0	46	104	51547996160	79	18547
2026-01-23 19:58:49.25	338.05	3.36	-53.8	-55.9	6.2	0.00e+00	0	46	104	51547996160	79	18143
2026-01-23 19:58:52.28	338.17	3.15	-53.8	-55.9	6.2	0.00e+00	0	46	104	51547996160	79	18031

#Closed at: 2026-01-23 19:58:54
#Recorded file [51547 MB]: D:/lorett/data/31041_260123_224749.dat