passes_logs/2026/01/23/R3.2S_Murmansk/R3.2S_Murmansk__20260123_131424_NOAA_21_JPSS-2_rec.log

#Pass ID: 20260123_131424_NOAA 21 (JPSS-2)
#Satellite: NOAA 21 (JPSS-2)
#Configuration: NOAA-21
#almurnet v.1.7.20251203
#Start time: 2026-01-23 13:14:25

#Version: 2.2.20231116
#Station: R3.2S_Murmansk
#Location: 33.079688 lon 68.888172 lat
#TLE: 1 54234U 22150A   26022.41365820  .00000211  00000+0  12084-3 0  9990
#TLE: 2 54234  98.7507 323.2240 0000658 234.5287 125.5828 14.19537645165864

#Time	Az	El	Level	Level2	SNR	BER	BlckErr	Temp	State	Recorded	gain1	gain2
2026-01-23 13:14:25.66	249.96	2.06	-52.8	-65.6	3.8	1.49e+00	0	41	0	0	77	15427
2026-01-23 13:14:28.69	250.28	2.19	-52.8	-65.5	3.8	1.49e+00	0	41	104	0	76	16305
2026-01-23 13:14:31.71	250.60	2.31	-52.8	-65.5	3.8	1.49e+00	0	41	104	0	76	16288
2026-01-23 13:14:34.74	250.92	2.44	-52.8	-65.5	3.8	1.49e+00	0	41	104	0	76	16269
2026-01-23 13:14:37.76	251.25	2.56	-52.8	-65.5	3.8	1.49e+00	0	41	104	0	76	16253
2026-01-23 13:14:40.79	251.58	2.69	-52.8	-65.5	3.8	1.49e+00	0	41	104	0	76	16255
2026-01-23 13:14:43.81	251.91	2.81	-52.8	-65.5	3.8	1.49e+00	0	42	104	0	76	16261
2026-01-23 13:14:46.84	252.24	2.94	-52.8	-65.5	3.8	1.49e+00	0	41	104	0	76	16239
2026-01-23 13:14:49.87	252.58	3.06	-52.8	-65.5	3.8	1.49e+00	0	42	104	0	76	16181
2026-01-23 13:14:52.89	252.91	3.19	-52.7	-65.5	3.8	1.49e+00	0	41	104	0	76	16143
2026-01-23 13:14:55.92	253.26	3.31	-52.7	-65.5	3.8	1.49e+00	0	42	104	0	76	16184
2026-01-23 13:14:58.94	253.60	3.43	-52.7	-65.5	3.8	1.49e+00	0	42	104	0	76	16225
2026-01-23 13:15:01.97	253.95	3.56	-52.7	-65.5	3.8	1.49e+00	0	42	104	0	76	16181
2026-01-23 13:15:04.99	254.30	3.68	-52.7	-65.4	3.8	1.49e+00	0	42	104	0	76	16095
2026-01-23 13:15:08.02	254.65	3.80	-52.7	-65.5	3.8	1.49e+00	0	42	104	0	76	16149
2026-01-23 13:15:11.04	255.00	3.93	-52.7	-65.5	3.8	1.49e+00	0	42	104	0	76	16177
2026-01-23 13:15:14.07	255.36	4.05	-52.7	-65.4	3.8	1.49e+00	0	42	104	0	76	16116
2026-01-23 13:15:17.09	255.72	4.17	-52.7	-65.3	3.8	1.49e+00	0	42	104	0	76	15892
2026-01-23 13:15:20.12	256.09	4.29	-52.7	-65.4	3.8	1.49e+00	0	42	104	0	76	16013
2026-01-23 13:15:23.15	256.46	4.41	-52.7	-65.4	3.8	1.49e+00	0	42	104	0	76	15969
2026-01-23 13:15:26.17	256.83	4.53	-52.7	-65.2	3.8	1.49e+00	0	42	104	0	76	15602
2026-01-23 13:15:29.20	257.20	4.65	-52.5	-63.0	4.0	1.49e+00	0	42	104	0	76	12229
2026-01-23 13:15:32.23	257.58	4.77	-51.8	-58.3	6.0	4.59e-01	0	42	0	0	75	7516
2026-01-23 13:15:35.25	257.95	4.89	-48.1	-50.2	14.2	2.20e-06	0	42	0	9437184	68	4406
2026-01-23 13:15:38.27	258.33	5.01	-46.3	-47.8	16.5	0.00e+00	0	42	0	18874368	63	4493
2026-01-23 13:15:41.30	258.72	5.13	-48.1	-50.2	14.2	5.30e-06	0	42	0	28311552	67	4682
2026-01-23 13:15:44.32	259.11	5.25	-45.3	-46.6	17.7	0.00e+00	0	42	0	37748736	62	4136
2026-01-23 13:15:47.34	259.50	5.36	-45.6	-46.9	17.4	0.00e+00	0	42	0	47185920	62	4281
2026-01-23 13:15:50.37	259.89	5.48	-45.5	-46.9	17.5	0.00e+00	0	42	0	56623104	62	4258
2026-01-23 13:15:53.39	260.29	5.60	-45.6	-46.9	17.5	0.00e+00	0	42	0	66060288	62	4287
2026-01-23 13:15:56.42	260.69	5.71	-45.3	-46.6	17.8	0.00e+00	0	42	0	75497472	61	4385
2026-01-23 13:15:59.44	261.09	5.83	-45.6	-47.0	17.5	0.00e+00	0	43	0	84934656	61	4551
2026-01-23 13:16:02.47	261.49	5.94	-45.2	-46.5	18.0	0.00e+00	0	43	0	95420416	61	4299
2026-01-23 13:16:05.49	261.90	6.05	-45.4	-46.7	17.8	0.00e+00	0	42	0	103809024	61	4400
2026-01-23 13:16:08.52	262.31	6.17	-45.2	-46.5	18.0	0.00e+00	0	42	0	113246208	61	4303
2026-01-23 13:16:11.54	262.73	6.28	-45.2	-46.4	18.1	0.00e+00	0	43	0	122683392	61	4266
2026-01-23 13:16:14.56	263.15	6.39	-45.2	-46.4	18.1	0.00e+00	0	42	0	133169152	61	4275
2026-01-23 13:16:17.59	263.57	6.50	-45.0	-46.2	18.3	0.00e+00	0	42	0	142606336	61	4160
2026-01-23 13:16:20.62	263.99	6.61	-45.2	-46.5	18.0	0.00e+00	0	42	0	150994944	61	4323
2026-01-23 13:16:23.64	264.42	6.72	-45.0	-46.2	18.4	0.00e+00	0	43	0	160432128	61	4154
2026-01-23 13:16:26.67	264.85	6.82	-45.3	-46.5	18.0	0.00e+00	0	43	0	170917888	61	4330
2026-01-23 13:16:29.68	265.28	6.93	-44.8	-46.0	18.6	0.00e+00	0	43	0	180355072	61	4057
2026-01-23 13:16:32.71	265.72	7.04	-44.7	-45.8	18.7	0.00e+00	0	43	0	189792256	60	4213
2026-01-23 13:16:35.73	266.15	7.14	-44.4	-45.4	19.1	0.00e+00	0	43	0	198180864	60	4048
2026-01-23 13:16:38.76	266.60	7.24	-44.3	-45.4	19.1	0.00e+00	0	43	0	207618048	60	4038
2026-01-23 13:16:41.79	267.04	7.35	-44.4	-45.6	18.8	0.00e+00	0	43	0	218103808	60	4108
2026-01-23 13:16:44.81	267.49	7.45	-45.2	-46.5	17.7	0.00e+00	0	42	0	227540992	60	4578
2026-01-23 13:16:47.83	267.94	7.55	-47.2	-49.3	14.4	0.00e+00	0	43	0	236978176	64	5006
2026-01-23 13:16:50.86	268.39	7.65	-48.9	-52.2	11.2	9.68e-04	0	43	0	245366784	68	5552
2026-01-23 13:16:53.88	268.85	7.75	-49.1	-52.8	10.3	4.65e-03	0	43	0	255852544	69	5628
2026-01-23 13:16:56.90	269.31	7.84	-49.1	-52.9	10.1	7.59e-03	0	43	0	265289728	69	5676
2026-01-23 13:16:59.93	269.77	7.94	-48.5	-51.6	11.5	2.36e-03	0	43	0	274726912	69	4907
2026-01-23 13:17:02.95	270.24	8.03	-46.9	-48.8	14.9	0.00e+00	0	43	0	284164096	65	4455
2026-01-23 13:17:05.98	270.71	8.13	-45.7	-47.1	17.2	0.00e+00	0	43	0	293601280	63	4117
2026-01-23 13:17:09.00	271.18	8.22	-45.1	-46.4	18.2	0.00e+00	0	43	0	303038464	62	4010
2026-01-23 13:17:12.03	271.65	8.31	-44.8	-45.9	18.7	0.00e+00	0	43	0	312475648	61	4045
2026-01-23 13:17:15.05	272.13	8.40	-44.4	-45.4	19.2	0.00e+00	0	43	0	321912832	60	4050
2026-01-23 13:17:18.07	272.61	8.49	-44.4	-45.5	19.2	0.00e+00	0	43	0	331350016	60	4057
2026-01-23 13:17:21.10	273.09	8.57	-44.3	-45.4	19.3	0.00e+00	0	43	0	340787200	60	4028
2026-01-23 13:17:24.12	273.58	8.66	-44.5	-45.6	19.1	0.00e+00	0	43	0	350224384	60	4102
2026-01-23 13:17:27.15	274.07	8.74	-44.4	-45.5	19.2	0.00e+00	0	43	0	359661568	60	4083
2026-01-23 13:17:30.17	274.56	8.82	-44.6	-45.8	18.9	0.00e+00	0	43	0	369098752	60	4196
2026-01-23 13:17:33.20	275.05	8.91	-44.5	-45.6	19.1	0.00e+00	0	43	0	378535936	60	4119
2026-01-23 13:17:36.22	275.55	8.98	-44.3	-45.4	19.2	0.00e+00	0	43	0	387973120	60	4033
2026-01-23 13:17:39.25	276.05	9.06	-44.1	-45.2	19.5	0.00e+00	0	43	0	397410304	60	3931
2026-01-23 13:17:42.27	276.55	9.14	-44.2	-45.3	19.4	0.00e+00	0	43	0	406847488	60	3973
2026-01-23 13:17:45.30	277.05	9.21	-44.2	-45.2	19.5	0.00e+00	0	43	0	416284672	60	3943
2026-01-23 13:17:48.32	277.56	9.28	-44.2	-45.2	19.5	0.00e+00	0	43	0	425721856	60	3945
2026-01-23 13:17:51.34	278.06	9.35	-44.2	-45.3	19.5	0.00e+00	0	43	0	435159040	60	3963
2026-01-23 13:17:54.37	278.57	9.42	-44.3	-45.3	19.4	0.00e+00	0	43	0	444596224	60	3997
2026-01-23 13:17:57.39	279.09	9.49	-44.3	-45.4	19.4	0.00e+00	0	43	0	454033408	60	4005
2026-01-23 13:18:00.42	279.60	9.55	-44.2	-45.2	19.5	0.00e+00	0	43	0	463470592	60	3949
2026-01-23 13:18:03.44	280.12	9.62	-44.2	-45.2	19.5	0.00e+00	0	43	0	472907776	60	3953
2026-01-23 13:18:06.46	280.64	9.68	-44.1	-45.1	19.7	0.00e+00	0	43	0	482344960	60	3900
2026-01-23 13:18:09.49	281.16	9.74	-44.3	-45.4	19.4	0.00e+00	0	43	0	491782144	60	4033
2026-01-23 13:18:12.51	281.68	9.80	-44.4	-45.5	19.3	0.00e+00	0	43	0	501219328	60	4081
2026-01-23 13:18:15.54	282.21	9.85	-44.1	-45.2	19.6	0.00e+00	0	43	0	510656512	60	3923
2026-01-23 13:18:18.56	282.74	9.91	-44.2	-45.2	19.6	0.00e+00	0	43	0	520093696	60	3953
2026-01-23 13:18:21.59	283.27	9.96	-44.5	-45.6	19.3	0.00e+00	0	43	0	529530880	60	4114
2026-01-23 13:18:24.61	283.80	10.01	-44.3	-45.4	19.5	0.00e+00	0	43	0	538968064	60	4007
2026-01-23 13:18:27.63	284.33	10.05	-44.6	-45.6	19.2	0.00e+00	0	43	0	548405248	60	4138
2026-01-23 13:18:30.66	284.86	10.10	-44.0	-45.0	19.8	0.00e+00	0	43	0	557842432	60	3851
2026-01-23 13:18:33.69	285.40	10.14	-44.3	-45.3	19.5	0.00e+00	0	43	0	567279616	60	3994
2026-01-23 13:18:36.71	285.94	10.18	-44.4	-45.4	19.5	0.00e+00	0	43	0	576716800	60	4033
2026-01-23 13:18:39.73	286.47	10.22	-44.2	-45.2	19.7	0.00e+00	0	43	0	586153984	60	3928
2026-01-23 13:18:42.76	287.01	10.26	-44.2	-45.2	19.7	0.00e+00	0	43	0	595591168	60	3945
2026-01-23 13:18:45.78	287.56	10.29	-44.1	-45.1	19.8	0.00e+00	0	43	0	605028352	60	3891
2026-01-23 13:18:48.81	288.10	10.33	-44.3	-45.3	19.5	0.00e+00	0	43	0	614465536	60	3999
2026-01-23 13:18:51.83	288.64	10.36	-44.3	-45.4	19.5	0.00e+00	0	43	0	623902720	60	4013
2026-01-23 13:18:54.86	289.19	10.38	-44.0	-45.0	19.9	0.00e+00	0	43	0	633339904	60	3848
2026-01-23 13:18:57.88	289.73	10.41	-44.2	-45.3	19.7	0.00e+00	0	43	0	642777088	60	3960
2026-01-23 13:19:00.90	290.28	10.43	-44.4	-45.4	19.6	0.00e+00	0	43	0	652214272	60	4023
2026-01-23 13:19:03.93	290.82	10.46	-44.4	-45.4	19.6	0.00e+00	0	43	0	661651456	60	4040
2026-01-23 13:19:06.95	291.37	10.47	-44.0	-45.0	20.0	0.00e+00	0	43	0	671088640	60	3857
2026-01-23 13:19:09.98	291.92	10.49	-44.3	-45.4	19.9	0.00e+00	0	43	0	680525824	59	4256
2026-01-23 13:19:13.00	292.47	10.51	-44.4	-45.5	19.8	0.00e+00	0	43	0	689963008	59	4304
2026-01-23 13:19:16.02	293.02	10.52	-44.4	-45.4	19.8	0.00e+00	0	43	0	699400192	59	4271
2026-01-23 13:19:19.05	293.57	10.53	-44.4	-45.5	19.8	0.00e+00	0	43	0	708837376	59	4297
2026-01-23 13:19:22.08	294.12	10.53	-44.5	-45.6	19.6	0.00e+00	0	43	0	718274560	59	4357
2026-01-23 13:19:25.10	294.67	10.54	-44.4	-45.4	19.7	0.00e+00	0	43	0	727711744	59	4290
2026-01-23 13:19:28.13	295.22	10.54	-44.4	-45.5	19.7	0.00e+00	0	43	0	737148928	59	4294
2026-01-23 13:19:31.15	295.77	10.54	-44.5	-45.5	19.7	0.00e+00	0	43	0	746586112	59	4333
2026-01-23 13:19:34.18	296.32	10.54	-44.4	-45.4	19.7	0.00e+00	0	43	0	756023296	59	4290
2026-01-23 13:19:37.20	296.87	10.54	-44.3	-45.4	19.8	0.00e+00	0	43	0	765460480	59	4249
2026-01-23 13:19:40.23	297.42	10.53	-44.4	-45.5	19.6	0.00e+00	0	43	0	774897664	59	4316
2026-01-23 13:19:43.25	297.97	10.52	-44.4	-45.4	19.7	0.00e+00	0	43	0	784334848	59	4288
2026-01-23 13:19:46.27	298.52	10.51	-44.3	-45.3	19.8	0.00e+00	0	43	0	794820608	59	4227
2026-01-23 13:19:49.30	299.07	10.50	-44.3	-45.3	19.8	0.00e+00	0	43	0	803209216	59	4220
2026-01-23 13:19:52.32	299.62	10.48	-44.1	-45.1	20.0	0.00e+00	0	43	0	812646400	59	4124
2026-01-23 13:19:55.35	300.16	10.46	-44.0	-45.0	20.1	0.00e+00	0	43	0	822083584	59	4072
2026-01-23 13:19:58.37	300.71	10.44	-44.0	-45.0	20.1	0.00e+00	0	43	0	832569344	59	4084
2026-01-23 13:20:01.39	301.26	10.42	-44.1	-45.2	20.0	0.00e+00	0	43	0	842006528	59	4152
2026-01-23 13:20:04.42	301.80	10.39	-44.3	-45.3	19.8	0.00e+00	0	43	0	850395136	59	4228
2026-01-23 13:20:07.44	302.35	10.37	-44.2	-45.2	19.9	0.00e+00	0	43	0	859832320	59	4157
2026-01-23 13:20:10.46	302.89	10.34	-44.1	-45.1	20.0	0.00e+00	0	43	0	870318080	59	4119
2026-01-23 13:20:13.49	303.43	10.31	-44.1	-45.2	19.9	0.00e+00	0	43	0	879755264	59	4148
2026-01-23 13:20:16.51	303.97	10.27	-44.2	-45.2	19.9	0.00e+00	0	43	0	889192448	59	4190
2026-01-23 13:20:19.54	304.51	10.24	-44.2	-45.3	19.8	0.00e+00	0	43	0	897581056	59	4197
2026-01-23 13:20:22.56	305.05	10.20	-44.2	-45.3	19.8	0.00e+00	0	43	0	908066816	59	4196
2026-01-23 13:20:25.58	305.58	10.16	-44.1	-45.1	19.9	0.00e+00	0	43	0	917504000	59	4134
2026-01-23 13:20:28.61	306.12	10.12	-44.2	-45.2	19.9	0.00e+00	0	43	0	926941184	59	4160
2026-01-23 13:20:31.63	306.65	10.07	-44.3	-45.4	19.7	0.00e+00	0	43	0	936378368	59	4244
2026-01-23 13:20:34.66	307.19	10.03	-44.3	-45.3	19.7	0.00e+00	0	43	0	944766976	59	4222
2026-01-23 13:20:37.68	307.72	9.98	-44.2	-45.2	19.7	0.00e+00	0	43	0	955252736	59	4193
2026-01-23 13:20:40.71	308.25	9.93	-44.4	-45.5	19.5	0.00e+00	0	43	0	964689920	59	4315
2026-01-23 13:20:43.73	308.77	9.87	-44.6	-45.7	19.3	0.00e+00	0	43	0	974127104	59	4424
2026-01-23 13:20:46.75	309.30	9.82	-44.3	-45.4	19.6	0.00e+00	0	43	0	983564288	59	4269
2026-01-23 13:20:49.78	309.82	9.76	-44.4	-45.5	19.5	0.00e+00	0	43	0	993001472	59	4320
2026-01-23 13:20:52.80	310.34	9.70	-44.4	-45.5	19.4	0.00e+00	0	43	0	1002438656	59	4328
2026-01-23 13:20:55.82	310.86	9.64	-44.5	-45.5	19.4	0.00e+00	0	43	0	1011875840	59	4331
2026-01-23 13:20:58.85	311.38	9.58	-44.5	-45.6	19.3	0.00e+00	0	43	0	1021313024	59	4372
2026-01-23 13:21:01.88	311.89	9.52	-44.5	-45.6	19.3	0.00e+00	0	43	0	1030750208	59	4370
2026-01-23 13:21:04.90	312.41	9.45	-44.5	-45.6	19.3	0.00e+00	0	43	0	1040187392	59	4355
2026-01-23 13:21:07.93	312.92	9.38	-44.2	-45.2	19.6	0.00e+00	0	43	0	1049624576	59	4178
2026-01-23 13:21:10.95	313.42	9.31	-44.0	-45.0	19.8	0.00e+00	0	43	0	1059061760	59	4098
2026-01-23 13:21:13.97	313.93	9.24	-44.1	-45.1	19.8	0.00e+00	0	43	0	1068498944	59	4136
2026-01-23 13:21:17.00	314.43	9.17	-44.4	-45.4	19.5	0.00e+00	0	43	0	1077936128	59	4288
2026-01-23 13:21:20.02	314.93	9.10	-44.4	-45.5	19.4	0.00e+00	0	43	0	1087373312	59	4324
2026-01-23 13:21:23.05	315.43	9.02	-44.5	-45.5	19.4	0.00e+00	0	43	0	1096810496	59	4334
2026-01-23 13:21:26.08	315.93	8.94	-44.1	-45.2	19.7	0.00e+00	0	43	0	1106247680	59	4160
2026-01-23 13:21:29.10	316.42	8.86	-44.1	-45.1	19.8	0.00e+00	0	43	0	1115684864	59	4116
2026-01-23 13:21:32.13	316.91	8.78	-44.2	-45.3	19.6	0.00e+00	0	43	0	1125122048	59	4212
2026-01-23 13:21:35.15	317.40	8.70	-44.3	-45.4	19.5	0.00e+00	0	43	0	1134559232	59	4246
2026-01-23 13:21:38.18	317.88	8.61	-44.3	-45.4	19.5	0.00e+00	0	43	0	1143996416	59	4250
2026-01-23 13:21:41.20	318.36	8.53	-44.3	-45.4	19.4	0.00e+00	0	43	0	1153433600	59	4271
2026-01-23 13:21:44.23	318.85	8.44	-44.6	-45.7	19.1	0.00e+00	0	43	0	1162870784	59	4420
2026-01-23 13:21:47.25	319.32	8.35	-44.3	-45.4	19.4	0.00e+00	0	43	0	1172307968	59	4271
2026-01-23 13:21:50.27	319.79	8.26	-44.5	-45.6	19.2	0.00e+00	0	43	0	1181745152	59	4373
2026-01-23 13:21:53.29	320.26	8.17	-44.4	-45.5	19.3	0.00e+00	0	43	0	1191182336	59	4313
2026-01-23 13:21:56.32	320.73	8.08	-44.4	-45.5	19.3	0.00e+00	0	43	0	1200619520	59	4307
2026-01-23 13:21:59.34	321.20	7.99	-44.3	-45.4	19.3	0.00e+00	0	43	0	1210056704	59	4286
2026-01-23 13:22:02.37	321.66	7.89	-44.2	-45.3	19.5	0.00e+00	0	43	0	1219493888	59	4218
2026-01-23 13:22:05.39	322.12	7.80	-44.5	-45.7	19.1	0.00e+00	0	43	0	1228931072	59	4393
2026-01-23 13:22:08.42	322.58	7.70	-44.4	-45.6	18.9	0.00e+00	0	43	0	1238368256	60	4105
2026-01-23 13:22:11.45	323.03	7.60	-44.4	-45.5	19.0	0.00e+00	0	43	0	1247805440	60	4081
2026-01-23 13:22:14.47	323.48	7.50	-44.2	-45.3	19.2	0.00e+00	0	43	0	1257242624	60	3964
2026-01-23 13:22:17.50	323.93	7.40	-44.4	-45.5	18.9	0.00e+00	0	43	0	1266679808	60	4079
2026-01-23 13:22:20.52	324.37	7.30	-44.5	-45.7	18.8	0.00e+00	0	43	0	1276116992	60	4149
2026-01-23 13:22:23.55	324.82	7.20	-44.3	-45.4	19.0	0.00e+00	0	43	0	1285554176	60	4047
2026-01-23 13:22:26.57	325.26	7.09	-44.6	-45.8	18.6	0.00e+00	0	43	0	1294991360	60	4223
2026-01-23 13:22:29.59	325.69	6.99	-44.5	-45.7	18.7	0.00e+00	0	43	0	1304428544	60	4156
2026-01-23 13:22:32.62	326.12	6.88	-44.4	-45.5	18.9	0.00e+00	0	43	0	1313865728	60	4093
2026-01-23 13:22:35.65	326.55	6.78	-44.5	-45.7	18.7	0.00e+00	0	43	0	1323302912	60	4150
2026-01-23 13:22:38.67	326.98	6.67	-44.5	-45.7	18.7	0.00e+00	0	43	0	1332740096	60	4162
2026-01-23 13:22:41.70	327.40	6.56	-44.5	-45.7	18.6	0.00e+00	0	43	0	1342177280	60	4169
2026-01-23 13:22:44.72	327.82	6.45	-44.8	-46.0	18.3	0.00e+00	0	43	0	1351614464	60	4314
2026-01-23 13:22:47.74	328.24	6.34	-44.7	-45.9	18.4	0.00e+00	0	43	0	1361051648	60	4262
2026-01-23 13:22:50.77	328.66	6.23	-45.0	-46.2	18.1	0.00e+00	0	43	0	1370488832	60	4413
2026-01-23 13:22:53.79	329.07	6.12	-44.9	-46.1	18.2	0.00e+00	0	43	0	1379926016	61	4135
2026-01-23 13:22:56.82	329.48	6.01	-44.7	-45.9	18.3	0.00e+00	0	43	0	1389363200	61	4044
2026-01-23 13:22:59.85	329.88	5.90	-45.3	-46.6	17.6	0.00e+00	0	43	0	1398800384	61	4385
2026-01-23 13:23:02.87	330.28	5.78	-45.1	-46.3	17.9	0.00e+00	0	43	0	1408237568	61	4242
2026-01-23 13:23:05.89	330.68	5.67	-44.9	-46.2	18.1	0.00e+00	0	43	0	1417674752	61	4148
2026-01-23 13:23:08.92	331.08	5.55	-45.0	-46.3	17.9	0.00e+00	0	43	0	1427111936	60	4473
2026-01-23 13:23:11.94	331.47	5.44	-45.0	-46.3	17.9	0.00e+00	0	43	0	1436549120	60	4486
2026-01-23 13:23:14.97	331.86	5.32	-44.6	-45.8	18.3	0.00e+00	0	43	0	1445986304	61	3994
2026-01-23 13:23:18.00	332.25	5.21	-44.9	-46.2	18.0	0.00e+00	0	43	0	1455423488	61	4161
2026-01-23 13:23:21.03	332.64	5.09	-45.6	-47.1	17.1	0.00e+00	0	43	0	1464860672	62	4341
2026-01-23 13:23:24.05	333.02	4.97	-52.7	-65.5	3.8	1.41e+00	0	43	104	1473249280	75	17210
2026-01-23 13:23:27.08	333.40	4.85	-53.4	-66.2	3.8	1.49e+00	0	43	104	1473249280	77	16526
2026-01-23 13:23:30.11	333.77	4.73	-53.6	-66.4	3.8	1.49e+00	0	43	104	1473249280	77	16959
2026-01-23 13:23:33.13	334.15	4.61	-53.6	-66.4	3.8	1.49e+00	0	43	104	1473249280	77	16980
2026-01-23 13:23:36.15	334.52	4.50	-53.4	-66.1	3.8	1.49e+00	0	43	104	1473249280	77	16438
2026-01-23 13:23:39.17	334.88	4.38	-53.5	-66.3	3.8	1.49e+00	0	43	104	1473249280	77	16731
2026-01-23 13:23:42.20	335.25	4.26	-53.6	-66.4	3.8	1.49e+00	0	43	104	1473249280	77	16914
2026-01-23 13:23:45.22	335.61	4.14	-53.6	-66.4	3.8	1.49e+00	0	43	104	1473249280	77	17047
2026-01-23 13:23:48.25	335.97	4.01	-53.6	-66.3	3.8	1.49e+00	0	43	104	1473249280	77	16833
2026-01-23 13:23:51.27	336.32	3.89	-53.6	-66.3	3.8	1.49e+00	0	43	104	1473249280	77	16766
2026-01-23 13:23:54.30	336.68	3.77	-53.5	-66.3	3.8	1.49e+00	0	43	104	1473249280	77	16846
2026-01-23 13:23:57.33	337.03	3.65	-53.5	-66.3	3.8	1.49e+00	0	43	104	1473249280	77	16749
2026-01-23 13:24:00.35	337.37	3.53	-53.5	-66.3	3.8	1.49e+00	0	43	104	1473249280	77	16791
2026-01-23 13:24:03.38	337.72	3.40	-53.5	-66.3	3.8	1.49e+00	0	43	104	1473249280	77	16771
2026-01-23 13:24:06.41	338.06	3.28	-53.5	-66.3	3.8	1.49e+00	0	43	104	1473249280	77	16740
2026-01-23 13:24:09.43	338.40	3.16	-53.5	-66.3	3.8	1.49e+00	0	43	104	1473249280	77	16716
2026-01-23 13:24:12.46	338.74	3.03	-53.5	-66.3	3.8	1.49e+00	0	43	104	1473249280	77	16707
2026-01-23 13:24:15.48	339.07	2.91	-53.5	-66.3	3.8	1.49e+00	0	43	104	1473249280	77	16701
2026-01-23 13:24:18.51	339.40	2.79	-53.5	-66.2	3.8	1.49e+00	0	43	104	1473249280	77	16677
2026-01-23 13:24:21.53	339.73	2.66	-53.4	-66.2	3.8	1.49e+00	0	43	104	1473249280	77	16676
2026-01-23 13:24:24.56	340.06	2.54	-53.4	-66.2	3.8	1.49e+00	0	44	104	1473249280	77	16657
2026-01-23 13:24:27.58	340.38	2.42	-53.4	-66.2	3.8	1.49e+00	0	43	104	1473249280	77	16634
2026-01-23 13:24:30.61	340.70	2.29	-53.4	-66.2	3.8	1.49e+00	0	43	104	1473249280	77	16578
2026-01-23 13:24:33.63	341.02	2.17	-53.4	-66.2	3.8	1.49e+00	0	43	104	1473249280	77	16601
2026-01-23 13:24:36.66	341.33	2.04	-53.4	-66.2	3.8	1.49e+00	0	43	104	1473249280	77	16603

#Closed at: 2026-01-23 13:24:39
#Recorded file [1473 MB]: D:/lorett/data/31041_260123_161425.dat