passes_logs/2026/01/23/R3.2S_Murmansk/R3.2S_Murmansk__20260123_054110_NOAA_20_JPSS-1_rec.log

#Pass ID: 20260123_054110_NOAA 20 (JPSS-1)
#Satellite: NOAA 20 (JPSS-1)
#Configuration: NOAA 20
#almurnet v.1.7.20251203
#Start time: 2026-01-23 05:41:09

#Version: 2.2.20231116
#Station: R3.2S_Murmansk
#Location: 33.079688 lon 68.888172 lat
#TLE: 1 43013U 17073A   26022.44900781  .00000193  00000+0  11233-3 0  9999
#TLE: 2 43013  98.7645 323.3100 0001197  28.8413 331.2829 14.19538802423792

#Time	Az	El	Level	Level2	SNR	BER	BlckErr	Temp	State	Recorded	gain1	gain2
2026-01-23 05:41:09.98	70.40	1.99	-54.4	-69.4	3.8	1.49e+00	0	41	0	0	79	21304
2026-01-23 05:41:13.00	70.21	2.16	-54.4	-69.4	3.8	1.49e+00	0	41	104	0	79	21326
2026-01-23 05:41:16.03	70.02	2.33	-54.5	-69.5	3.8	1.49e+00	0	41	104	0	79	21728
2026-01-23 05:41:19.05	69.83	2.51	-54.5	-69.5	3.8	1.49e+00	0	42	104	0	79	21677
2026-01-23 05:41:22.07	69.63	2.68	-54.4	-69.5	3.8	1.49e+00	0	42	104	0	79	21562
2026-01-23 05:41:25.10	69.43	2.86	-54.3	-69.2	3.8	1.49e+00	0	42	104	0	79	20998
2026-01-23 05:41:28.12	69.23	3.03	-54.1	-69.1	3.8	1.49e+00	0	42	104	0	79	20730
2026-01-23 05:41:31.14	69.02	3.21	-53.8	-68.8	3.8	1.49e+00	0	42	104	0	79	19914
2026-01-23 05:41:34.17	68.81	3.39	-53.4	-68.4	3.8	1.49e+00	0	42	104	0	78	20103
2026-01-23 05:41:37.19	68.60	3.57	-52.5	-67.5	3.8	1.49e+00	0	42	104	0	77	19168
2026-01-23 05:41:40.22	68.39	3.75	-52.5	-67.5	3.8	1.49e+00	0	42	104	0	77	19195
2026-01-23 05:41:43.25	68.17	3.93	-52.5	-67.3	3.8	1.49e+00	0	42	104	0	76	19909
2026-01-23 05:41:46.27	67.95	4.11	-52.4	-66.4	3.8	1.49e+00	0	42	104	0	76	18086
2026-01-23 05:41:49.30	67.73	4.29	-52.4	-66.0	3.8	1.49e+00	0	42	104	0	76	17168
2026-01-23 05:41:52.33	67.51	4.47	-52.3	-64.7	4.0	1.48e+00	0	42	104	0	76	14745
2026-01-23 05:41:55.35	67.28	4.65	-52.0	-61.2	5.4	6.29e-01	0	43	0	3145728	76	9893
2026-01-23 05:41:58.38	67.05	4.84	-51.7	-59.2	7.0	1.54e-01	0	42	0	8388608	75	8286
2026-01-23 05:42:01.40	66.82	5.02	-51.8	-59.7	6.5	1.94e-01	0	42	0	14680064	75	8819
2026-01-23 05:42:04.42	66.58	5.21	-50.7	-55.3	11.6	7.00e-07	0	43	0	19922944	71	6720
2026-01-23 05:42:07.45	66.34	5.40	-50.1	-54.1	12.1	4.73e-03	0	43	0	22020096	72	5481
2026-01-23 05:42:10.47	66.10	5.58	-48.4	-50.8	15.9	0.00e+00	0	43	0	28311552	68	4714
2026-01-23 05:42:13.50	65.85	5.77	-48.3	-50.7	16.0	0.00e+00	0	43	0	33554432	68	4696
2026-01-23 05:42:16.52	65.60	5.96	-48.3	-50.7	16.1	0.00e+00	0	43	0	39845888	68	4674
2026-01-23 05:42:19.55	65.35	6.15	-48.1	-50.4	16.4	0.00e+00	0	43	0	45088768	68	4512
2026-01-23 05:42:22.57	65.09	6.34	-48.2	-50.4	16.4	0.00e+00	0	43	0	50331648	68	4545
2026-01-23 05:42:25.59	64.83	6.53	-48.2	-50.5	16.4	0.00e+00	0	43	0	56623104	68	4563
2026-01-23 05:42:28.62	64.57	6.73	-48.2	-50.4	16.5	0.00e+00	0	43	0	61865984	68	4536
2026-01-23 05:42:31.64	64.30	6.92	-48.2	-50.4	16.5	0.00e+00	0	43	0	68157440	68	4528
2026-01-23 05:42:34.66	64.03	7.11	-48.3	-50.5	16.4	0.00e+00	0	43	0	73400320	68	4584
2026-01-23 05:42:37.69	63.76	7.31	-48.1	-50.3	16.7	0.00e+00	0	43	0	79691776	68	4467
2026-01-23 05:42:40.71	63.48	7.50	-48.3	-50.6	16.4	0.00e+00	0	43	0	84934656	68	4600
2026-01-23 05:42:43.73	63.20	7.70	-48.1	-50.3	16.7	0.00e+00	0	43	0	90177536	68	4478
2026-01-23 05:42:46.76	62.91	7.90	-48.2	-50.3	16.6	0.00e+00	0	43	0	96468992	68	4493
2026-01-23 05:42:49.79	62.62	8.10	-48.2	-50.4	16.6	0.00e+00	0	43	0	101711872	68	4520
2026-01-23 05:42:52.81	62.33	8.30	-47.9	-50.0	17.0	0.00e+00	0	43	0	108003328	67	4565
2026-01-23 05:42:55.84	62.03	8.50	-47.9	-50.0	17.0	0.00e+00	0	43	0	113246208	67	4572
2026-01-23 05:42:58.86	61.72	8.70	-47.8	-49.8	17.1	0.00e+00	0	43	0	118489088	67	4464
2026-01-23 05:43:01.89	61.42	8.90	-47.6	-49.6	17.4	0.00e+00	0	43	0	124780544	66	4602
2026-01-23 05:43:04.91	61.10	9.10	-47.5	-49.5	17.5	0.00e+00	0	43	0	130023424	66	4549
2026-01-23 05:43:07.93	60.79	9.30	-47.5	-49.4	17.6	0.00e+00	0	43	0	136314880	66	4539
2026-01-23 05:43:10.96	60.47	9.51	-47.6	-49.5	17.5	0.00e+00	0	43	0	141557760	66	4596
2026-01-23 05:43:13.98	60.14	9.71	-47.9	-49.9	17.1	0.00e+00	0	43	0	147849216	66	4794
2026-01-23 05:43:17.00	59.81	9.92	-47.7	-49.6	17.4	0.00e+00	0	43	0	153092096	66	4631
2026-01-23 05:43:20.02	59.48	10.13	-47.6	-49.6	17.5	0.00e+00	0	43	0	158334976	66	4609
2026-01-23 05:43:23.05	59.14	10.33	-47.7	-49.7	17.5	0.00e+00	0	44	0	164626432	66	4652
2026-01-23 05:43:26.07	58.79	10.54	-47.8	-49.8	17.3	0.00e+00	0	43	0	169869312	66	4726
2026-01-23 05:43:29.09	58.44	10.75	-47.6	-49.6	17.5	0.00e+00	0	43	0	176160768	66	4602
2026-01-23 05:43:32.12	58.09	10.96	-47.4	-49.2	17.9	0.00e+00	0	43	0	181403648	66	4427
2026-01-23 05:43:35.14	57.73	11.17	-47.4	-49.2	17.9	0.00e+00	0	43	0	186646528	66	4441
2026-01-23 05:43:38.16	57.36	11.38	-47.3	-49.1	18.0	0.00e+00	0	43	0	192937984	66	4373
2026-01-23 05:43:41.19	56.99	11.59	-47.3	-49.1	18.1	0.00e+00	0	43	0	198180864	66	4358
2026-01-23 05:43:44.21	56.62	11.80	-47.1	-48.8	18.3	0.00e+00	0	43	0	204472320	66	4238
2026-01-23 05:43:47.23	56.23	12.01	-47.1	-48.8	18.3	0.00e+00	0	43	0	209715200	66	4241
2026-01-23 05:43:50.26	55.85	12.23	-46.9	-48.6	18.6	0.00e+00	0	43	0	214958080	65	4360
2026-01-23 05:43:53.28	55.45	12.44	-47.1	-48.9	18.3	0.00e+00	0	43	0	221249536	65	4504
2026-01-23 05:43:56.30	55.05	12.65	-47.1	-48.8	18.4	0.00e+00	0	43	0	226492416	65	4480
2026-01-23 05:43:59.33	54.65	12.87	-46.9	-48.6	18.6	0.00e+00	0	43	0	232783872	65	4354
2026-01-23 05:44:02.35	54.24	13.08	-46.7	-48.3	18.9	0.00e+00	0	43	0	238026752	65	4209
2026-01-23 05:44:05.38	53.82	13.30	-46.9	-48.5	18.7	0.00e+00	0	43	0	243269632	65	4313
2026-01-23 05:44:08.40	53.40	13.52	-46.5	-48.0	19.2	0.00e+00	0	43	0	249561088	64	4321
2026-01-23 05:44:11.42	52.97	13.73	-46.4	-47.9	19.3	0.00e+00	0	43	0	254803968	64	4255
2026-01-23 05:44:14.45	52.53	13.95	-46.5	-48.1	19.1	0.00e+00	0	43	0	261095424	64	4343
2026-01-23 05:44:17.47	52.09	14.16	-46.5	-48.0	19.2	0.00e+00	0	43	0	266338304	64	4308
2026-01-23 05:44:20.50	51.63	14.38	-46.6	-48.1	19.1	0.00e+00	0	43	0	271581184	64	4363
2026-01-23 05:44:23.52	51.18	14.60	-46.7	-48.2	19.0	0.00e+00	0	43	0	277872640	64	4421
2026-01-23 05:44:26.54	50.72	14.82	-46.9	-48.5	18.8	0.00e+00	0	43	0	283115520	64	4569
2026-01-23 05:44:29.56	50.25	15.03	-46.8	-48.3	18.9	0.00e+00	0	43	0	289406976	64	4492
2026-01-23 05:44:32.59	49.77	15.25	-47.0	-48.6	18.7	0.00e+00	0	43	0	294649856	64	4641
2026-01-23 05:44:35.61	49.28	15.47	-47.1	-48.7	18.6	0.00e+00	0	43	0	299892736	64	4692
2026-01-23 05:44:38.63	48.79	15.68	-47.1	-48.7	18.6	0.00e+00	0	43	0	306184192	64	4688
2026-01-23 05:44:41.66	48.29	15.90	-47.0	-48.7	18.6	0.00e+00	0	43	0	311427072	64	4677
2026-01-23 05:44:44.68	47.79	16.11	-47.1	-48.8	18.6	0.00e+00	0	43	0	317718528	65	4442
2026-01-23 05:44:47.71	47.27	16.33	-47.1	-48.8	18.6	0.00e+00	0	43	0	322961408	65	4470
2026-01-23 05:44:50.73	46.75	16.54	-47.2	-48.9	18.4	0.00e+00	0	43	0	328204288	65	4515
2026-01-23 05:44:53.76	46.22	16.76	-47.1	-48.7	18.6	0.00e+00	0	43	0	334495744	65	4438
2026-01-23 05:44:56.78	45.69	16.97	-47.0	-48.7	18.7	0.00e+00	0	43	0	339738624	65	4403
2026-01-23 05:44:59.81	45.14	17.19	-47.1	-48.7	18.6	0.00e+00	0	43	0	346030080	65	4412
2026-01-23 05:45:02.82	44.59	17.40	-47.1	-48.7	18.7	0.00e+00	0	43	0	351272960	65	4418
2026-01-23 05:45:05.85	44.03	17.61	-47.0	-48.6	18.8	0.00e+00	0	43	0	356515840	65	4380
2026-01-23 05:45:08.87	43.46	17.82	-46.8	-48.3	19.1	0.00e+00	0	43	0	362807296	65	4217
2026-01-23 05:45:11.90	42.88	18.03	-46.5	-47.9	19.4	0.00e+00	0	43	0	368050176	64	4282
2026-01-23 05:45:14.92	42.30	18.24	-46.4	-47.9	19.5	0.00e+00	0	43	0	374341632	64	4246
2026-01-23 05:45:17.95	41.71	18.44	-45.9	-47.3	20.2	0.00e+00	0	43	0	379584512	63	4204
2026-01-23 05:45:20.97	41.11	18.65	-45.7	-47.0	20.5	0.00e+00	0	43	0	384827392	63	4071
2026-01-23 05:45:23.99	40.50	18.85	-45.3	-46.6	20.8	0.00e+00	0	43	0	391118848	62	4102
2026-01-23 05:45:27.02	39.88	19.05	-45.2	-46.4	21.0	0.00e+00	0	43	0	396361728	62	4023
2026-01-23 05:45:30.04	39.26	19.25	-45.2	-46.4	21.0	0.00e+00	0	43	0	402653184	62	4023
2026-01-23 05:45:33.07	38.62	19.45	-45.0	-46.1	21.3	0.00e+00	0	43	0	407896064	61	4134
2026-01-23 05:45:36.09	37.98	19.64	-44.9	-46.1	21.3	0.00e+00	0	43	0	414187520	61	4114
2026-01-23 05:45:39.12	37.33	19.83	-44.9	-46.0	21.4	0.00e+00	0	43	0	419430400	61	4092
2026-01-23 05:45:42.14	36.68	20.02	-44.7	-45.9	21.5	0.00e+00	0	43	0	424673280	61	4010
2026-01-23 05:45:45.15	36.01	20.21	-44.5	-45.7	21.8	0.00e+00	0	43	0	430964736	61	3914
2026-01-23 05:45:48.18	35.34	20.40	-44.6	-45.7	21.7	0.00e+00	0	43	0	436207616	61	3945
2026-01-23 05:45:51.20	34.65	20.58	-44.6	-45.7	21.7	0.00e+00	0	43	0	442499072	61	3958
2026-01-23 05:45:54.23	33.96	20.76	-44.8	-45.9	21.5	0.00e+00	0	43	0	447741952	61	4026
2026-01-23 05:45:57.25	33.26	20.93	-44.8	-45.9	21.5	0.00e+00	0	43	0	452984832	61	4050
2026-01-23 05:46:00.28	32.56	21.11	-44.8	-45.9	21.5	0.00e+00	0	43	0	459276288	61	4038
2026-01-23 05:46:03.30	31.84	21.27	-44.8	-45.9	21.5	0.00e+00	0	43	0	464519168	61	4049
2026-01-23 05:46:06.32	31.12	21.44	-44.7	-45.8	21.6	0.00e+00	0	43	0	470810624	61	3980
2026-01-23 05:46:09.35	30.39	21.60	-44.4	-45.5	21.8	0.00e+00	0	43	0	476053504	60	4078
2026-01-23 05:46:12.37	29.65	21.76	-44.2	-45.3	22.1	0.00e+00	0	43	0	481296384	60	3973
2026-01-23 05:46:15.39	28.91	21.91	-44.5	-45.6	21.8	0.00e+00	0	43	0	487587840	60	4124
2026-01-23 05:46:18.42	28.15	22.06	-44.5	-45.6	21.8	0.00e+00	0	43	0	492830720	60	4139
2026-01-23 05:46:21.44	27.39	22.20	-44.1	-45.2	22.2	0.00e+00	0	43	0	499122176	60	3929
2026-01-23 05:46:24.46	26.63	22.34	-44.1	-45.2	22.2	0.00e+00	0	43	0	504365056	60	3925
2026-01-23 05:46:27.49	25.85	22.48	-44.0	-45.1	22.4	0.00e+00	0	43	0	510656512	60	3872
2026-01-23 05:46:30.51	25.07	22.61	-44.3	-45.3	22.1	0.00e+00	0	43	0	515899392	60	3997
2026-01-23 05:46:33.53	24.29	22.73	-44.4	-45.5	22.0	0.00e+00	0	43	0	521142272	60	4069
2026-01-23 05:46:36.56	23.49	22.85	-44.5	-45.6	21.8	0.00e+00	0	43	0	527433728	60	4136
2026-01-23 05:46:39.58	22.69	22.96	-44.4	-45.5	22.0	0.00e+00	0	43	0	532676608	60	4066
2026-01-23 05:46:42.60	21.89	23.07	-44.9	-46.1	21.4	0.00e+00	0	43	0	538968064	60	4354
2026-01-23 05:46:45.63	21.08	23.17	-45.5	-46.7	20.8	0.00e+00	0	43	0	544210944	61	4436
2026-01-23 05:46:48.65	20.26	23.27	-45.7	-46.9	20.6	0.00e+00	0	43	0	549453824	61	4545
2026-01-23 05:46:51.68	19.44	23.36	-45.7	-46.9	20.6	0.00e+00	0	43	0	555745280	62	4287
2026-01-23 05:46:54.70	18.62	23.45	-46.0	-47.4	20.3	0.00e+00	0	43	0	560988160	62	4497
2026-01-23 05:46:57.73	17.79	23.52	-45.9	-47.3	20.3	0.00e+00	0	43	0	567279616	62	4446
2026-01-23 05:47:00.75	16.95	23.60	-46.5	-47.9	19.7	0.00e+00	0	43	0	572522496	63	4512
2026-01-23 05:47:03.77	16.12	23.66	-46.3	-47.7	20.0	0.00e+00	0	43	0	577765376	63	4398
2026-01-23 05:47:06.80	15.28	23.72	-46.6	-48.1	19.6	0.00e+00	0	43	0	584056832	63	4622
2026-01-23 05:47:09.82	14.43	23.77	-46.6	-48.0	19.6	0.00e+00	0	43	0	589299712	63	4573
2026-01-23 05:47:12.85	13.59	23.82	-46.1	-47.4	20.2	0.00e+00	0	43	0	595591168	63	4287
2026-01-23 05:47:15.87	12.74	23.86	-46.2	-47.5	20.1	0.00e+00	0	43	0	600834048	63	4325
2026-01-23 05:47:18.89	11.89	23.89	-46.3	-47.7	19.9	0.00e+00	0	43	0	606076928	63	4395
2026-01-23 05:47:21.92	11.04	23.92	-46.4	-47.8	19.8	0.00e+00	0	43	0	612368384	63	4463
2026-01-23 05:47:24.95	10.18	23.94	-46.1	-47.4	20.2	0.00e+00	0	43	0	617611264	63	4289
2026-01-23 05:47:27.97	9.33	23.95	-46.1	-47.4	20.2	0.00e+00	0	43	0	623902720	63	4286
2026-01-23 05:47:30.99	8.48	23.95	-45.9	-47.2	20.4	0.00e+00	0	43	0	629145600	63	4167
2026-01-23 05:47:34.02	7.62	23.95	-45.7	-47.0	20.7	0.00e+00	0	43	0	634388480	63	4055
2026-01-23 05:47:37.05	6.76	23.94	-45.5	-46.7	20.8	0.00e+00	0	43	0	640679936	63	3942
2026-01-23 05:47:40.07	5.91	23.92	-45.4	-46.6	21.0	0.00e+00	0	43	0	645922816	62	4117
2026-01-23 05:47:43.09	5.06	23.90	-45.3	-46.5	21.1	0.00e+00	0	43	0	652214272	62	4064
2026-01-23 05:47:46.12	4.21	23.87	-44.9	-46.0	21.5	0.00e+00	0	43	0	657457152	61	4089
2026-01-23 05:47:49.15	3.36	23.84	-44.3	-45.4	22.0	0.00e+00	0	43	0	662700032	60	4034
2026-01-23 05:47:52.18	2.51	23.79	-44.2	-45.2	22.2	0.00e+00	0	43	0	668991488	60	3942
2026-01-23 05:47:55.20	1.66	23.74	-44.2	-45.3	22.2	0.00e+00	0	43	0	674234368	60	3988
2026-01-23 05:47:58.23	0.82	23.69	-44.3	-45.3	22.4	0.00e+00	0	43	0	680525824	59	4240
2026-01-23 05:48:01.25	359.98	23.62	-44.2	-45.3	22.5	0.00e+00	0	43	0	685768704	59	4214
2026-01-23 05:48:04.28	359.15	23.55	-44.0	-45.1	22.7	0.00e+00	0	43	0	692060160	59	4102
2026-01-23 05:48:07.31	358.32	23.48	-44.2	-45.2	22.5	0.00e+00	0	43	0	697303040	59	4193
2026-01-23 05:48:10.33	357.49	23.40	-44.5	-45.6	22.2	0.00e+00	0	43	0	702545920	59	4366
2026-01-23 05:48:13.36	356.67	23.31	-44.5	-45.6	22.1	0.00e+00	0	43	0	708837376	59	4360
2026-01-23 05:48:16.38	355.85	23.21	-44.6	-45.7	22.2	0.00e+00	0	43	0	714080256	59	4393
2026-01-23 05:48:19.40	355.04	23.11	-44.5	-45.5	21.9	0.00e+00	0	43	0	720371712	60	4097
2026-01-23 05:48:22.43	354.23	23.01	-44.8	-45.9	21.6	0.00e+00	0	43	0	725614592	60	4261
2026-01-23 05:48:25.45	353.43	22.90	-45.0	-46.2	21.3	0.00e+00	0	43	0	730857472	60	4412
2026-01-23 05:48:28.47	352.64	22.78	-45.0	-46.1	21.4	0.00e+00	0	43	0	737148928	60	4386
2026-01-23 05:48:31.50	351.85	22.66	-45.2	-46.4	21.1	0.00e+00	0	43	0	742391808	60	4528
2026-01-23 05:48:34.52	351.06	22.53	-45.6	-46.9	20.7	0.00e+00	0	43	0	748683264	61	4505
2026-01-23 05:48:37.55	350.29	22.40	-45.7	-46.9	20.6	0.00e+00	0	43	0	753926144	62	4291
2026-01-23 05:48:40.57	349.52	22.26	-45.6	-46.9	20.7	0.00e+00	0	43	0	759169024	62	4257
2026-01-23 05:48:43.59	348.76	22.12	-45.7	-47.0	20.6	0.00e+00	0	43	0	765460480	62	4308
2026-01-23 05:48:46.62	348.00	21.97	-46.1	-47.5	20.1	0.00e+00	0	43	0	770703360	62	4561
2026-01-23 05:48:49.64	347.25	21.82	-46.2	-47.5	20.0	0.00e+00	0	43	0	776994816	62	4587
2026-01-23 05:48:52.67	346.51	21.66	-46.0	-47.4	20.2	0.00e+00	0	43	0	782237696	62	4504
2026-01-23 05:48:55.69	345.78	21.50	-45.9	-47.2	20.3	0.00e+00	0	43	0	788529152	62	4431
2026-01-23 05:48:58.72	345.05	21.34	-46.3	-47.6	19.9	0.00e+00	0	43	0	793772032	63	4391
2026-01-23 05:49:01.75	344.34	21.17	-46.0	-47.4	20.2	0.00e+00	0	43	0	799014912	63	4252
2026-01-23 05:49:04.77	343.63	21.00	-46.0	-47.3	20.3	0.00e+00	0	44	0	805306368	63	4212
2026-01-23 05:49:07.79	342.93	20.83	-46.1	-47.4	20.1	0.00e+00	0	43	0	810549248	63	4291
2026-01-23 05:49:10.82	342.23	20.65	-45.8	-47.1	20.4	0.00e+00	0	44	0	816840704	63	4141
2026-01-23 05:49:13.85	341.54	20.47	-45.6	-46.8	20.7	0.00e+00	0	43	0	822083584	63	3999
2026-01-23 05:49:16.87	340.87	20.29	-45.6	-46.9	20.6	0.00e+00	0	43	0	827326464	63	4023
2026-01-23 05:49:19.89	340.20	20.10	-45.5	-46.7	20.8	0.00e+00	0	43	0	833617920	63	3947
2026-01-23 05:49:22.92	339.54	19.91	-45.5	-46.7	20.7	0.00e+00	0	44	0	838860800	62	4187
2026-01-23 05:49:25.94	338.89	19.72	-45.7	-46.9	20.6	0.00e+00	0	43	0	845152256	62	4282
2026-01-23 05:49:28.97	338.24	19.53	-45.7	-46.9	20.5	0.00e+00	0	43	0	850395136	62	4283
2026-01-23 05:49:31.99	337.61	19.33	-45.5	-46.8	20.7	0.00e+00	0	43	0	855638016	62	4196
2026-01-23 05:49:35.02	336.98	19.13	-45.6	-46.8	20.6	0.00e+00	0	43	0	861929472	62	4238
2026-01-23 05:49:38.04	336.36	18.93	-45.7	-46.9	20.5	0.00e+00	0	43	0	867172352	62	4290
2026-01-23 05:49:41.08	335.74	18.73	-45.6	-46.8	20.7	0.00e+00	0	43	0	873463808	62	4227
2026-01-23 05:49:44.10	335.14	18.52	-45.7	-47.0	20.5	0.00e+00	0	43	0	878706688	62	4301
2026-01-23 05:49:47.13	334.55	18.32	-45.8	-47.1	20.3	1.50e-06	0	43	0	883949568	62	4371
2026-01-23 05:49:50.15	333.96	18.11	-45.7	-47.0	20.5	0.00e+00	0	44	0	890241024	62	4312
2026-01-23 05:49:53.18	333.38	17.90	-45.5	-46.8	20.7	0.00e+00	0	43	0	895483904	62	4210
2026-01-23 05:49:56.20	332.81	17.69	-45.4	-46.7	20.7	0.00e+00	0	43	0	901775360	62	4175
2026-01-23 05:49:59.23	332.25	17.48	-45.5	-46.7	20.7	0.00e+00	0	44	0	907018240	62	4179
2026-01-23 05:50:02.25	331.69	17.27	-45.4	-46.7	20.7	1.22e-05	0	43	0	912261120	62	4174
2026-01-23 05:50:05.28	331.15	17.06	-45.1	-46.3	21.1	0.00e+00	0	43	0	918552576	62	3974
2026-01-23 05:50:08.30	330.61	16.85	-45.1	-46.3	21.1	0.00e+00	0	43	0	923795456	61	4199
2026-01-23 05:50:11.32	330.08	16.63	-45.0	-46.2	21.1	0.00e+00	0	43	0	930086912	61	4191
2026-01-23 05:50:14.35	329.55	16.42	-45.0	-46.2	21.2	0.00e+00	0	43	0	935329792	61	4156
2026-01-23 05:50:17.37	329.04	16.20	-44.9	-46.1	21.3	1.50e-06	0	43	0	940572672	61	4100
2026-01-23 05:50:20.40	328.53	15.99	-44.7	-45.8	21.5	0.00e+00	0	43	0	946864128	61	3996
2026-01-23 05:50:23.42	328.03	15.77	-44.7	-45.9	21.4	0.00e+00	0	43	0	952107008	61	4020
2026-01-23 05:50:26.44	327.53	15.55	-44.7	-46.0	21.3	0.00e+00	0	43	0	958398464	61	4079
2026-01-23 05:50:29.47	327.05	15.34	-44.6	-46.0	21.2	0.00e+00	0	44	0	963641344	61	4075
2026-01-23 05:50:32.49	326.57	15.12	-44.5	-46.0	21.3	0.00e+00	0	43	0	969932800	60	4303
2026-01-23 05:50:35.52	326.09	14.90	-44.5	-46.1	21.1	4.50e-06	0	43	0	975175680	60	4363
2026-01-23 05:50:38.54	325.63	14.69	-44.6	-46.0	21.2	0.00e+00	0	43	0	980418560	60	4327
2026-01-23 05:50:41.57	325.17	14.47	-44.8	-46.2	21.1	0.00e+00	0	43	0	986710016	60	4405
2026-01-23 05:50:44.59	324.72	14.25	-45.0	-46.4	20.9	0.00e+00	0	43	0	991952896	60	4512
2026-01-23 05:50:47.60	324.28	14.04	-45.3	-46.6	20.7	0.00e+00	0	43	0	998244352	61	4366
2026-01-23 05:50:50.63	323.84	13.82	-45.6	-47.0	20.3	0.00e+00	0	43	0	1003487232	61	4553
2026-01-23 05:50:53.65	323.40	13.61	-45.9	-47.2	20.1	0.00e+00	0	43	0	1008730112	62	4431
2026-01-23 05:50:56.68	322.98	13.39	-45.5	-46.8	20.4	0.00e+00	0	43	0	1015021568	62	4236
2026-01-23 05:50:59.70	322.56	13.18	-45.6	-46.9	20.4	0.00e+00	0	43	0	1020264448	62	4246
2026-01-23 05:51:02.72	322.15	12.96	-45.6	-46.9	20.4	0.00e+00	0	43	0	1026555904	62	4251
2026-01-23 05:51:05.75	321.74	12.75	-45.8	-47.2	20.1	0.00e+00	0	43	0	1031798784	62	4415
2026-01-23 05:51:08.77	321.34	12.53	-45.9	-47.3	20.0	0.00e+00	0	43	0	1037041664	62	4461
2026-01-23 05:51:11.79	320.94	12.32	-46.0	-47.4	19.9	0.00e+00	0	43	0	1043333120	62	4495
2026-01-23 05:51:14.81	320.55	12.11	-46.0	-47.5	19.8	0.00e+00	0	43	0	1048576000	62	4547
2026-01-23 05:51:17.83	320.17	11.89	-46.1	-47.5	19.7	0.00e+00	0	43	0	1054867456	62	4575
2026-01-23 05:51:20.86	319.79	11.68	-46.2	-47.6	19.6	0.00e+00	0	43	0	1060110336	62	4630
2026-01-23 05:51:23.88	319.42	11.47	-46.3	-47.8	19.5	0.00e+00	0	43	0	1065353216	63	4446
2026-01-23 05:51:26.90	319.05	11.26	-46.3	-47.8	19.4	0.00e+00	0	43	0	1071644672	63	4480
2026-01-23 05:51:29.93	318.69	11.05	-46.4	-47.9	19.3	0.00e+00	0	43	0	1076887552	63	4496
2026-01-23 05:51:32.95	318.33	10.84	-46.6	-48.1	19.0	0.00e+00	0	43	0	1083179008	63	4638
2026-01-23 05:51:35.97	317.98	10.63	-46.6	-48.1	19.0	0.00e+00	0	43	0	1088421888	63	4628
2026-01-23 05:51:39.00	317.64	10.42	-46.5	-48.0	19.1	0.00e+00	0	43	0	1094713344	63	4586
2026-01-23 05:51:42.02	317.30	10.22	-46.6	-48.2	18.8	0.00e+00	0	43	0	1099956224	64	4420
2026-01-23 05:51:45.05	316.96	10.01	-46.5	-48.1	18.9	0.00e+00	0	43	0	1105199104	64	4380
2026-01-23 05:51:48.07	316.63	9.80	-46.6	-48.2	18.8	0.00e+00	0	43	0	1111490560	64	4408
2026-01-23 05:51:51.09	316.30	9.60	-46.9	-48.6	18.4	0.00e+00	0	43	0	1116733440	64	4649
2026-01-23 05:51:54.12	315.98	9.39	-47.1	-48.8	18.2	0.00e+00	0	43	0	1123024896	64	4750
2026-01-23 05:51:57.15	315.66	9.19	-47.3	-49.1	17.9	0.00e+00	0	43	0	1128267776	65	4623
2026-01-23 05:52:00.17	315.35	8.99	-47.3	-49.1	17.9	0.00e+00	0	43	0	1133510656	65	4617
2026-01-23 05:52:03.19	315.04	8.79	-47.3	-49.1	17.8	0.00e+00	0	43	0	1139802112	65	4650
2026-01-23 05:52:06.22	314.74	8.59	-47.5	-49.4	17.5	0.00e+00	0	43	0	1145044992	65	4814
2026-01-23 05:52:09.24	314.44	8.39	-47.6	-49.5	17.4	0.00e+00	0	43	0	1151336448	65	4869
2026-01-23 05:52:12.27	314.14	8.19	-47.5	-49.4	17.5	0.00e+00	0	43	0	1156579328	65	4762
2026-01-23 05:52:15.29	313.85	7.99	-47.4	-49.2	17.6	0.00e+00	0	43	0	1161822208	65	4699
2026-01-23 05:52:18.31	313.56	7.79	-47.4	-49.3	17.5	0.00e+00	0	43	0	1168113664	65	4754
2026-01-23 05:52:21.33	313.28	7.59	-47.5	-49.4	17.5	0.00e+00	0	43	0	1173356544	65	4791
2026-01-23 05:52:24.36	313.00	7.40	-47.4	-49.4	17.5	0.00e+00	0	43	0	1179648000	65	4766
2026-01-23 05:52:27.38	312.72	7.20	-47.7	-49.7	17.1	0.00e+00	0	43	0	1184890880	65	4964
2026-01-23 05:52:30.40	312.45	7.01	-47.6	-49.6	17.2	0.00e+00	0	43	0	1190133760	66	4641
2026-01-23 05:52:33.43	312.18	6.81	-47.9	-50.0	16.7	0.00e+00	0	43	0	1196425216	66	4863
2026-01-23 05:52:36.46	311.92	6.62	-47.9	-50.1	16.7	0.00e+00	0	43	0	1201668096	66	4881
2026-01-23 05:52:39.48	311.66	6.43	-48.1	-50.3	16.4	0.00e+00	0	43	0	1207959552	66	5025
2026-01-23 05:52:42.50	311.40	6.24	-48.2	-50.6	16.1	0.00e+00	0	43	0	1213202432	67	4897
2026-01-23 05:52:45.52	311.15	6.05	-48.5	-50.9	15.7	0.00e+00	0	43	0	1218445312	67	5083
2026-01-23 05:52:48.55	310.90	5.86	-48.5	-51.1	15.5	0.00e+00	0	43	0	1224736768	67	5170
2026-01-23 05:52:51.57	310.65	5.67	-48.6	-51.2	15.5	0.00e+00	0	43	0	1229979648	68	4964
2026-01-23 05:52:54.60	310.41	5.48	-48.8	-51.5	15.2	0.00e+00	0	43	0	1236271104	68	5108
2026-01-23 05:52:57.62	310.17	5.30	-48.6	-51.1	15.5	0.00e+00	0	43	0	1241513984	68	4926
2026-01-23 05:53:00.64	309.93	5.11	-48.6	-51.1	15.4	0.00e+00	0	44	0	1246756864	68	4921
2026-01-23 05:53:03.67	309.70	4.93	-52.8	-67.8	3.8	1.41e+00	0	43	104	1250951168	76	21191
2026-01-23 05:53:06.69	309.47	4.74	-52.9	-67.9	3.8	1.49e+00	0	44	104	1250951168	76	21314
2026-01-23 05:53:09.72	309.24	4.56	-53.2	-68.1	3.8	1.49e+00	0	43	104	1250951168	76	21998
2026-01-23 05:53:12.74	309.01	4.38	-53.4	-68.3	3.8	1.49e+00	0	43	104	1250951168	77	21253
2026-01-23 05:53:15.76	308.79	4.19	-53.5	-68.5	3.8	1.49e+00	0	43	104	1250951168	77	21618
2026-01-23 05:53:18.79	308.57	4.01	-53.6	-68.6	3.8	1.49e+00	0	44	104	1250951168	77	21797
2026-01-23 05:53:21.81	308.35	3.83	-53.6	-68.6	3.8	1.49e+00	0	44	104	1250951168	77	21925
2026-01-23 05:53:24.84	308.14	3.65	-53.6	-68.6	3.8	1.49e+00	0	44	104	1250951168	77	21818
2026-01-23 05:53:27.86	307.93	3.48	-53.6	-68.6	3.8	1.49e+00	0	44	104	1250951168	77	21838
2026-01-23 05:53:30.88	307.72	3.30	-53.6	-68.6	3.8	1.49e+00	0	44	104	1250951168	77	21849
2026-01-23 05:53:33.91	307.52	3.12	-53.6	-68.6	3.8	1.49e+00	0	44	104	1250951168	77	21830
2026-01-23 05:53:36.94	307.31	2.94	-53.6	-68.6	3.8	1.49e+00	0	44	104	1250951168	77	21817
2026-01-23 05:53:39.96	307.11	2.77	-53.6	-68.6	3.8	1.49e+00	0	43	104	1250951168	77	21766
2026-01-23 05:53:42.98	306.91	2.59	-53.6	-68.6	3.8	1.49e+00	0	44	104	1250951168	77	21796
2026-01-23 05:53:46.01	306.72	2.42	-53.6	-68.5	3.8	1.49e+00	0	44	104	1250951168	77	21719
2026-01-23 05:53:49.03	306.53	2.25	-53.6	-68.6	3.8	1.49e+00	0	44	104	1250951168	77	21768
2026-01-23 05:53:52.06	306.33	2.07	-53.6	-68.5	3.8	1.49e+00	0	44	104	1250951168	77	21747

#Closed at: 2026-01-23 05:53:54
#Recorded file [1250 MB]: D:/lorett/data/31041_260123_084109.dat