passes_logs/2026/01/23/R3.2S_Murmansk/R3.2S_Murmansk__20260123_023207_AQUA_rec.log

#Pass ID: 20260123_023207_AQUA
#Satellite: AQUA
#Configuration: AQUA
#almurnet v.1.7.20251203
#Start time: 2026-01-23 02:32:09

#Version: 2.2.20231116
#Station: R3.2S_Murmansk
#Location: 33.079688 lon 68.888172 lat
#TLE: 1 27424U 02022A   26022.49486490  .00002153  00000+0  44069-3 0  9997
#TLE: 2 27424  98.4099 349.0485 0001970  69.5876  43.4746 14.61847233261984

#Time	Az	El	Level	Level2	SNR	BER	BlckErr	Temp	State	Recorded	gain1	gain2
2026-01-23 02:32:09.06	24.11	2.09	-55.9	-73.7	3.8	7.43e-01	0	41	0	0	82	29620
2026-01-23 02:32:13.09	24.10	2.36	-55.8	-73.6	3.8	7.50e-01	0	41	104	0	82	29192
2026-01-23 02:32:17.13	24.09	2.63	-55.7	-73.5	3.8	7.45e-01	0	41	104	0	82	28976
2026-01-23 02:32:21.16	24.08	2.90	-55.4	-73.3	3.8	7.44e-01	0	42	104	0	82	28082
2026-01-23 02:32:25.19	24.06	3.18	-54.9	-72.6	3.8	7.43e-01	0	42	104	0	81	27603
2026-01-23 02:32:29.23	24.05	3.46	-54.0	-71.5	3.8	7.45e-01	0	42	104	0	79	27302
2026-01-23 02:32:33.26	24.04	3.75	-52.9	-60.0	10.5	6.18e-01	0	42	0	3145728	77	8127
2026-01-23 02:32:37.30	24.02	4.03	-49.1	-51.5	19.3	6.01e-01	0	42	0	10485760	70	4580
2026-01-23 02:32:41.33	24.01	4.32	-46.7	-48.3	22.6	6.01e-01	0	42	0	17825792	65	4225
2026-01-23 02:32:45.36	23.99	4.62	-46.6	-48.2	22.7	6.04e-01	0	42	0	25690112	64	4406
2026-01-23 02:32:49.40	23.98	4.92	-48.7	-50.9	20.1	6.03e-01	0	42	0	33030144	67	5062
2026-01-23 02:32:53.44	23.96	5.22	-47.3	-49.0	22.3	6.03e-01	0	42	0	40894464	64	4855
2026-01-23 02:32:57.47	23.94	5.52	-46.1	-47.6	23.4	6.01e-01	0	43	0	46661632	64	4110
2026-01-23 02:33:01.50	23.93	5.83	-46.4	-48.0	23.1	6.04e-01	0	42	0	54525952	64	4305
2026-01-23 02:33:05.53	23.91	6.15	-45.9	-47.3	23.8	6.04e-01	0	42	0	61865984	63	4210
2026-01-23 02:33:09.56	23.89	6.47	-45.7	-47.1	24.1	6.00e-01	0	42	0	69730304	63	4137
2026-01-23 02:33:13.59	23.86	6.79	-45.6	-47.0	24.2	6.00e-01	0	43	0	77070336	63	4069
2026-01-23 02:33:17.62	23.84	7.11	-45.7	-47.0	24.3	6.02e-01	0	43	0	84410368	62	4327
2026-01-23 02:33:21.66	23.82	7.45	-45.7	-47.0	24.3	6.03e-01	0	43	0	92274688	62	4327
2026-01-23 02:33:25.69	23.80	7.78	-45.4	-46.7	24.6	6.02e-01	0	43	0	99614720	62	4190
2026-01-23 02:33:29.72	23.77	8.12	-45.5	-46.8	24.5	6.02e-01	0	43	0	107479040	62	4237
2026-01-23 02:33:33.76	23.74	8.47	-45.3	-46.6	24.8	6.02e-01	0	43	0	114819072	62	4099
2026-01-23 02:33:37.79	23.72	8.82	-45.1	-46.3	25.0	6.01e-01	0	43	0	122683392	62	4004
2026-01-23 02:33:41.82	23.69	9.18	-44.9	-46.2	25.1	6.01e-01	0	43	0	130023424	61	4149
2026-01-23 02:33:45.86	23.66	9.55	-44.8	-46.1	25.3	6.01e-01	0	43	0	137363456	61	4101
2026-01-23 02:33:49.89	23.63	9.91	-44.8	-46.1	25.4	6.02e-01	0	43	0	145227776	61	4105
2026-01-23 02:33:53.92	23.59	10.29	-44.8	-46.0	25.5	6.03e-01	0	43	0	152567808	61	4074
2026-01-23 02:33:57.96	23.56	10.67	-44.6	-45.8	25.7	6.02e-01	0	43	0	160432128	61	3985
2026-01-23 02:34:01.99	23.53	11.06	-44.6	-45.8	25.7	6.03e-01	0	43	0	167772160	61	3971
2026-01-23 02:34:06.02	23.49	11.46	-44.4	-45.6	25.9	6.01e-01	0	43	0	175112192	60	4127
2026-01-23 02:34:10.06	23.45	11.86	-44.4	-45.5	25.9	6.01e-01	0	43	0	182976512	60	4086
2026-01-23 02:34:14.09	23.41	12.27	-44.2	-45.4	26.1	6.01e-01	0	43	0	190316544	60	4020
2026-01-23 02:34:18.12	23.37	12.69	-44.2	-45.4	26.1	6.01e-01	0	43	0	198180864	60	4023
2026-01-23 02:34:22.15	23.32	13.12	-44.2	-45.3	26.1	6.02e-01	0	43	0	205520896	60	3995
2026-01-23 02:34:26.18	23.28	13.55	-44.2	-45.3	26.1	6.02e-01	0	43	0	213385216	59	4233
2026-01-23 02:34:30.22	23.23	14.00	-44.2	-45.4	26.0	6.00e-01	0	43	0	220725248	59	4255
2026-01-23 02:34:34.25	23.18	14.45	-44.2	-45.4	26.1	6.04e-01	0	43	0	228065280	59	4246
2026-01-23 02:34:38.28	23.13	14.91	-44.3	-45.5	26.0	6.02e-01	0	43	0	235929600	59	4296
2026-01-23 02:34:42.31	23.07	15.38	-44.1	-45.2	26.2	6.03e-01	0	43	0	243269632	59	4191
2026-01-23 02:34:46.35	23.02	15.87	-43.9	-45.0	26.5	6.02e-01	0	43	0	250609664	59	4090
2026-01-23 02:34:50.37	22.96	16.36	-44.0	-45.2	26.4	6.01e-01	0	43	0	258473984	59	4156
2026-01-23 02:34:54.41	22.90	16.87	-44.0	-45.2	26.3	6.03e-01	0	43	0	265814016	59	4151
2026-01-23 02:34:58.44	22.83	17.38	-44.0	-45.2	26.4	6.01e-01	0	43	0	273678336	59	4151
2026-01-23 02:35:02.47	22.76	17.91	-44.1	-45.2	26.4	6.02e-01	0	43	0	281018368	59	4186
2026-01-23 02:35:06.50	22.69	18.45	-44.2	-45.3	26.3	6.03e-01	0	43	0	288882688	59	4227
2026-01-23 02:35:10.54	22.62	19.01	-44.2	-45.4	26.2	6.01e-01	0	43	0	296222720	59	4263
2026-01-23 02:35:14.57	22.54	19.58	-44.3	-45.5	26.2	6.05e-01	0	43	0	304087040	59	4295
2026-01-23 02:35:18.60	22.46	20.16	-44.2	-45.4	26.3	6.01e-01	0	43	0	311427072	59	4257
2026-01-23 02:35:22.63	22.37	20.76	-44.3	-45.5	26.2	6.02e-01	0	43	0	318767104	59	4293
2026-01-23 02:35:26.66	22.28	21.37	-44.5	-45.7	26.0	6.02e-01	0	43	0	326631424	59	4400
2026-01-23 02:35:30.70	22.18	22.00	-44.5	-45.6	26.1	6.02e-01	0	43	0	333971456	59	4391
2026-01-23 02:35:34.73	22.08	22.65	-44.5	-45.7	26.0	6.03e-01	0	43	0	341835776	59	4417
2026-01-23 02:35:38.76	21.98	23.32	-44.5	-45.7	26.2	6.01e-01	0	43	0	349175808	60	4173
2026-01-23 02:35:42.79	21.87	24.00	-44.4	-45.5	26.4	6.00e-01	0	43	0	357040128	60	4093
2026-01-23 02:35:46.82	21.75	24.71	-44.3	-45.4	26.4	6.03e-01	0	43	0	364380160	60	4044
2026-01-23 02:35:50.85	21.63	25.44	-44.4	-45.5	26.3	6.02e-01	0	43	0	371720192	60	4098
2026-01-23 02:35:54.88	21.50	26.19	-44.2	-45.3	26.4	6.02e-01	0	43	0	379584512	60	3990
2026-01-23 02:35:58.92	21.36	26.96	-44.0	-45.1	26.7	6.03e-01	0	43	0	386924544	60	3910
2026-01-23 02:36:02.95	21.21	27.76	-44.2	-45.3	26.5	6.03e-01	0	43	0	394264576	59	4206
2026-01-23 02:36:06.98	21.06	28.58	-44.3	-45.4	26.4	6.02e-01	0	43	0	402128896	59	4275
2026-01-23 02:36:11.01	20.89	29.42	-43.8	-44.9	26.9	6.00e-01	0	43	0	409468928	59	4008
2026-01-23 02:36:15.04	20.72	30.30	-44.0	-45.1	26.8	6.02e-01	0	43	0	417333248	59	4102
2026-01-23 02:36:19.07	20.53	31.21	-44.0	-45.1	26.7	6.03e-01	0	44	0	424673280	59	4137
2026-01-23 02:36:23.11	20.33	32.14	-43.7	-44.8	27.0	6.01e-01	0	43	0	432537600	59	3978
2026-01-23 02:36:27.14	20.12	33.11	-44.2	-45.4	26.5	6.03e-01	0	44	0	439877632	59	4243
2026-01-23 02:36:31.18	19.90	34.12	-44.5	-45.7	26.3	6.01e-01	0	44	0	447741952	59	4398
2026-01-23 02:36:35.21	19.65	35.15	-44.9	-46.1	26.0	6.02e-01	0	44	0	455081984	60	4347
2026-01-23 02:36:39.24	19.39	36.23	-45.3	-46.5	25.7	6.04e-01	0	44	0	462422016	61	4339
2026-01-23 02:36:43.28	19.12	37.34	-45.9	-47.2	25.1	6.03e-01	0	44	0	470286336	62	4399
2026-01-23 02:36:47.31	18.81	38.49	-45.9	-47.2	25.1	6.02e-01	0	44	0	477626368	62	4403
2026-01-23 02:36:51.34	18.49	39.69	-45.9	-47.1	25.2	6.02e-01	0	44	0	485490688	62	4390
2026-01-23 02:36:55.38	18.14	40.93	-45.8	-47.0	25.3	6.02e-01	0	44	0	492830720	62	4339
2026-01-23 02:36:59.41	17.75	42.21	-45.4	-46.6	25.7	6.03e-01	0	44	0	500170752	62	4104
2026-01-23 02:37:03.44	17.34	43.54	-45.1	-46.3	26.0	6.02e-01	0	44	0	508035072	62	3987
2026-01-23 02:37:07.47	16.88	44.92	-44.7	-45.8	26.5	6.02e-01	0	44	0	515375104	61	3973
2026-01-23 02:37:11.51	16.38	46.35	-44.6	-45.7	26.5	6.02e-01	0	44	0	523239424	60	4188
2026-01-23 02:37:15.54	15.83	47.83	-44.7	-45.8	26.3	6.02e-01	0	44	0	530579456	60	4232
2026-01-23 02:37:19.58	15.22	49.37	-44.3	-45.4	26.8	6.02e-01	0	44	0	538443776	60	4046
2026-01-23 02:37:23.61	14.54	50.95	-44.2	-45.3	26.8	6.04e-01	0	44	0	545783808	60	4002
2026-01-23 02:37:27.65	13.79	52.60	-44.0	-45.0	27.0	5.99e-01	0	44	0	553123840	59	4098
2026-01-23 02:37:31.68	12.94	54.29	-43.8	-44.9	27.2	6.02e-01	0	44	0	560988160	59	4028
2026-01-23 02:37:35.71	11.98	56.03	-44.3	-45.4	26.6	6.01e-01	0	44	0	568328192	59	4279
2026-01-23 02:37:39.74	10.88	57.82	-44.6	-45.8	26.6	6.03e-01	0	44	0	576192512	60	4200
2026-01-23 02:37:43.77	9.63	59.66	-45.6	-46.8	25.6	6.03e-01	0	44	0	583532544	61	4481
2026-01-23 02:37:47.81	8.17	61.55	-45.7	-46.9	25.6	6.03e-01	0	44	0	591396864	62	4274
2026-01-23 02:37:51.84	6.47	63.47	-46.3	-47.6	24.9	6.03e-01	0	44	0	598736896	63	4370
2026-01-23 02:37:55.87	4.46	65.43	-47.8	-49.3	23.3	6.03e-01	0	44	0	606601216	66	4452
2026-01-23 02:37:59.91	2.05	67.40	-48.4	-50.0	22.6	6.00e-01	0	44	0	613941248	67	4555
2026-01-23 02:38:03.94	359.14	69.37	-48.0	-49.6	23.1	6.02e-01	0	44	0	621281280	67	4348
2026-01-23 02:38:07.97	355.55	71.33	-48.0	-49.6	23.0	6.01e-01	0	44	0	629145600	67	4360
2026-01-23 02:38:12.01	351.07	73.24	-48.6	-50.2	22.3	6.03e-01	0	44	0	636485632	68	4439
2026-01-23 02:38:16.04	345.41	75.05	-48.1	-49.6	23.0	6.02e-01	0	43	0	643825664	67	4378
2026-01-23 02:38:20.08	338.18	76.71	-47.8	-49.3	23.3	6.04e-01	0	44	0	651689984	66	4472
2026-01-23 02:38:24.12	329.00	78.12	-46.7	-48.0	24.4	6.03e-01	0	44	0	659030016	64	4339
2026-01-23 02:38:28.15	317.67	79.16	-45.8	-47.0	25.6	6.01e-01	0	44	0	666894336	63	4096
2026-01-23 02:38:32.18	304.50	79.72	-45.7	-46.9	25.6	6.03e-01	0	44	0	674234368	63	4035
2026-01-23 02:38:36.21	290.62	79.70	-45.5	-46.6	25.9	6.00e-01	0	44	0	682098688	62	4127
2026-01-23 02:38:40.25	277.51	79.11	-46.0	-47.2	25.4	6.01e-01	0	44	0	689438720	63	4168
2026-01-23 02:38:44.28	266.32	78.03	-46.5	-47.8	24.8	6.02e-01	0	44	0	697303040	63	4474
2026-01-23 02:38:48.31	257.30	76.60	-47.6	-49.1	23.7	6.02e-01	0	43	0	704643072	65	4621
2026-01-23 02:38:52.34	250.19	74.93	-48.4	-50.0	22.9	6.03e-01	0	44	0	711983104	67	4549
2026-01-23 02:38:56.37	244.62	73.11	-48.4	-50.0	22.5	6.03e-01	0	44	0	719847424	68	4340
2026-01-23 02:39:00.41	240.20	71.20	-48.8	-50.5	22.3	6.03e-01	0	44	0	727187456	68	4578
2026-01-23 02:39:04.44	236.66	69.24	-48.9	-50.5	22.2	6.02e-01	0	44	0	735051776	69	4334
2026-01-23 02:39:08.47	233.78	67.26	-49.7	-51.6	21.1	6.02e-01	0	44	0	742391808	70	4645
2026-01-23 02:39:12.50	231.41	65.29	-47.7	-49.1	23.6	6.03e-01	0	43	0	750256128	67	4105
2026-01-23 02:39:16.53	229.42	63.34	-46.6	-47.9	24.7	6.01e-01	0	44	0	757596160	65	4034
2026-01-23 02:39:20.56	227.73	61.41	-46.4	-47.7	24.7	6.04e-01	0	43	0	764936192	64	4188
2026-01-23 02:39:24.59	226.29	59.53	-46.5	-47.8	24.7	6.00e-01	0	44	0	772800512	64	4217
2026-01-23 02:39:28.63	225.05	57.68	-45.6	-46.9	25.6	6.04e-01	0	44	0	780140544	61	4498
2026-01-23 02:39:32.66	223.96	55.89	-44.3	-45.4	27.0	6.03e-01	0	43	0	788004864	60	4006
2026-01-23 02:39:36.69	223.01	54.14	-44.3	-45.4	26.9	6.03e-01	0	43	0	795344896	60	4031
2026-01-23 02:39:40.72	222.16	52.45	-44.0	-45.1	27.1	6.03e-01	0	44	0	802684928	59	4131
2026-01-23 02:39:44.75	221.41	50.81	-44.6	-45.7	26.5	6.01e-01	0	44	0	810549248	59	4420
2026-01-23 02:39:48.78	220.74	49.23	-44.8	-45.9	26.5	6.02e-01	0	43	0	817889280	60	4270
2026-01-23 02:39:52.82	220.13	47.69	-44.6	-45.7	26.5	6.03e-01	0	43	0	825753600	60	4177
2026-01-23 02:39:56.85	219.58	46.21	-44.5	-45.7	26.6	6.02e-01	0	43	0	833093632	60	4154
2026-01-23 02:40:00.88	219.08	44.79	-44.5	-45.6	26.6	6.02e-01	0	44	0	840957952	60	4126
2026-01-23 02:40:04.91	218.63	43.41	-44.5	-45.6	26.6	6.02e-01	0	44	0	848297984	60	4129
2026-01-23 02:40:08.94	218.21	42.08	-45.3	-46.5	25.8	6.01e-01	0	43	0	855638016	61	4292
2026-01-23 02:40:12.97	217.83	40.79	-45.7	-46.9	25.4	6.04e-01	0	44	0	863502336	61	4506
2026-01-23 02:40:17.00	217.48	39.55	-46.2	-47.5	24.8	6.05e-01	0	44	0	870842368	62	4571
2026-01-23 02:40:21.03	217.16	38.36	-46.3	-47.7	24.8	6.03e-01	0	44	0	878182400	63	4396
2026-01-23 02:40:25.07	216.86	37.20	-45.4	-46.6	25.7	6.02e-01	0	43	0	886046720	62	4132
2026-01-23 02:40:29.10	216.58	36.09	-45.6	-46.8	25.4	6.02e-01	0	44	0	893386752	62	4229
2026-01-23 02:40:33.13	216.32	35.02	-45.2	-46.5	25.7	6.02e-01	0	44	0	901251072	62	4054
2026-01-23 02:40:37.16	216.08	33.98	-44.2	-45.3	26.8	6.03e-01	0	44	0	908591104	60	3977
2026-01-23 02:40:41.19	215.85	32.98	-44.1	-45.2	26.9	6.02e-01	0	43	0	916455424	60	3933
2026-01-23 02:40:45.23	215.64	32.01	-44.0	-45.1	26.7	6.02e-01	0	44	0	923795456	59	4141
2026-01-23 02:40:49.26	215.44	31.07	-43.7	-44.8	27.0	6.02e-01	0	44	0	931659776	59	3995
2026-01-23 02:40:53.29	215.25	30.16	-43.6	-44.7	27.2	6.01e-01	0	44	0	938999808	59	3920
2026-01-23 02:40:57.32	215.08	29.29	-43.6	-44.7	27.1	6.00e-01	0	43	0	946339840	59	3916
2026-01-23 02:41:01.35	214.91	28.44	-43.7	-44.7	27.1	6.01e-01	0	44	0	954204160	59	3954
2026-01-23 02:41:05.39	214.76	27.62	-44.2	-45.3	26.5	6.02e-01	0	43	0	961544192	59	4218
2026-01-23 02:41:09.42	214.61	26.82	-44.3	-45.4	26.4	6.03e-01	0	43	0	969408512	59	4291
2026-01-23 02:41:13.45	214.47	26.05	-44.4	-45.5	26.3	6.02e-01	0	44	0	976748544	59	4340
2026-01-23 02:41:17.48	214.34	25.30	-44.6	-45.7	26.2	6.03e-01	0	43	0	984612864	59	4419
2026-01-23 02:41:21.51	214.22	24.57	-44.6	-45.7	26.1	6.01e-01	0	43	0	991952896	59	4430
2026-01-23 02:41:25.54	214.10	23.87	-44.6	-45.8	26.1	6.02e-01	0	43	0	999292928	60	4228
2026-01-23 02:41:29.57	213.99	23.18	-44.7	-45.8	26.1	6.03e-01	0	44	0	1007157248	60	4238
2026-01-23 02:41:33.61	213.88	22.51	-44.7	-45.8	26.0	6.03e-01	0	43	0	1014497280	60	4239
2026-01-23 02:41:37.64	213.78	21.86	-44.7	-45.8	26.0	6.04e-01	0	43	0	1021837312	60	4228
2026-01-23 02:41:41.67	213.68	21.23	-44.7	-45.9	26.0	6.02e-01	0	43	0	1029701632	60	4247
2026-01-23 02:41:45.70	213.59	20.62	-44.5	-45.7	26.1	6.00e-01	0	44	0	1037041664	60	4158
2026-01-23 02:41:49.73	213.50	20.02	-44.4	-45.5	26.3	6.03e-01	0	44	0	1044905984	60	4081
2026-01-23 02:41:53.76	213.42	19.44	-44.4	-45.5	26.3	6.03e-01	0	43	0	1052246016	60	4076
2026-01-23 02:41:57.80	213.34	18.87	-44.4	-45.6	26.2	5.99e-01	0	43	0	1060110336	60	4119
2026-01-23 02:42:01.83	213.26	18.31	-44.5	-45.7	26.1	6.01e-01	0	43	0	1067450368	60	4182
2026-01-23 02:42:05.87	213.19	17.77	-44.4	-45.6	26.2	6.00e-01	0	44	0	1075314688	60	4123
2026-01-23 02:42:09.90	213.12	17.24	-44.4	-45.5	26.2	6.03e-01	0	43	0	1082654720	60	4087
2026-01-23 02:42:13.93	213.05	16.72	-44.4	-45.5	26.2	6.01e-01	0	43	0	1089994752	60	4088
2026-01-23 02:42:17.97	212.99	16.22	-44.3	-45.5	26.2	6.03e-01	0	43	0	1097859072	60	4066
2026-01-23 02:42:22.00	212.93	15.72	-44.3	-45.5	26.1	6.03e-01	0	44	0	1105199104	60	4074
2026-01-23 02:42:26.04	212.87	15.24	-44.4	-45.6	26.0	6.05e-01	0	44	0	1113063424	60	4112
2026-01-23 02:42:30.07	212.81	14.77	-44.4	-45.6	25.9	6.02e-01	0	44	0	1120403456	60	4121
2026-01-23 02:42:34.11	212.76	14.30	-44.3	-45.5	26.0	6.01e-01	0	44	0	1127743488	60	4073
2026-01-23 02:42:38.14	212.71	13.85	-44.5	-45.7	25.9	6.03e-01	0	43	0	1135607808	60	4177
2026-01-23 02:42:42.17	212.66	13.41	-44.6	-45.8	25.8	6.03e-01	0	43	0	1142947840	60	4229
2026-01-23 02:42:46.21	212.61	12.97	-44.6	-45.8	25.8	6.02e-01	0	44	0	1150812160	60	4216
2026-01-23 02:42:50.24	212.57	12.54	-44.8	-46.0	25.5	6.04e-01	0	43	0	1158152192	60	4325
2026-01-23 02:42:54.28	212.52	12.13	-44.7	-45.9	25.6	6.03e-01	0	43	0	1166016512	60	4259
2026-01-23 02:42:58.32	212.48	11.71	-44.6	-45.8	25.6	6.02e-01	0	43	0	1173356544	60	4226
2026-01-23 02:43:02.35	212.44	11.31	-44.7	-45.9	25.5	6.00e-01	0	43	0	1180696576	60	4290
2026-01-23 02:43:06.38	212.40	10.91	-44.8	-46.0	25.5	6.02e-01	0	43	0	1188560896	60	4304
2026-01-23 02:43:10.41	212.36	10.53	-44.7	-45.9	25.5	6.02e-01	0	43	0	1195900928	60	4284
2026-01-23 02:43:14.44	212.33	10.14	-44.7	-45.9	25.5	6.02e-01	0	44	0	1203765248	60	4285
2026-01-23 02:43:18.48	212.29	9.77	-44.7	-45.9	25.5	6.02e-01	0	44	0	1211105280	60	4277
2026-01-23 02:43:22.51	212.26	9.40	-44.9	-46.1	25.3	6.02e-01	0	43	0	1218969600	60	4363
2026-01-23 02:43:26.54	212.23	9.03	-44.9	-46.2	25.1	6.04e-01	0	44	0	1226309632	60	4399
2026-01-23 02:43:30.58	212.20	8.68	-45.0	-46.2	25.0	6.04e-01	0	44	0	1234173952	60	4438
2026-01-23 02:43:34.61	212.17	8.32	-45.1	-46.3	25.0	6.02e-01	0	43	0	1241513984	61	4227
2026-01-23 02:43:38.65	212.14	7.98	-45.4	-46.7	24.6	6.02e-01	0	44	0	1248854016	61	4423
2026-01-23 02:43:42.68	212.11	7.63	-45.5	-46.8	24.5	6.01e-01	0	44	0	1256718336	61	4467
2026-01-23 02:43:46.72	212.08	7.30	-45.6	-46.9	24.3	6.04e-01	0	43	0	1264058368	61	4543
2026-01-23 02:43:50.75	212.06	6.97	-45.5	-46.9	24.4	6.03e-01	0	43	0	1271398400	62	4251
2026-01-23 02:43:54.78	212.04	6.64	-45.7	-47.1	24.1	6.02e-01	0	43	0	1279262720	62	4365
2026-01-23 02:43:58.81	212.01	6.32	-45.9	-47.3	23.9	6.01e-01	0	43	0	1286602752	62	4453
2026-01-23 02:44:02.84	211.99	6.00	-45.9	-47.3	23.8	6.02e-01	0	43	0	1294467072	62	4481
2026-01-23 02:44:06.88	211.97	5.68	-46.0	-47.5	23.6	6.01e-01	0	44	0	1301807104	62	4570
2026-01-23 02:44:10.91	211.95	5.37	-46.5	-48.0	23.1	6.03e-01	0	43	0	1309671424	63	4571
2026-01-23 02:44:14.94	211.93	5.07	-46.2	-47.7	23.3	6.05e-01	0	43	0	1317011456	64	4146
2026-01-23 02:44:18.97	211.91	4.77	-55.2	-73.0	3.8	7.47e-01	0	44	104	1318584320	80	30505
2026-01-23 02:44:23.00	211.89	4.47	-55.5	-73.3	3.8	7.47e-01	0	43	104	1318584320	81	29884
2026-01-23 02:44:27.04	211.87	4.17	-55.6	-73.5	3.8	7.43e-01	0	43	104	1318584320	81	30386
2026-01-23 02:44:31.07	211.85	3.88	-55.7	-73.5	3.8	7.46e-01	0	44	104	1318584320	81	30527
2026-01-23 02:44:35.10	211.84	3.60	-55.7	-73.5	3.8	7.44e-01	0	44	104	1318584320	81	30639
2026-01-23 02:44:39.14	211.82	3.31	-55.5	-73.3	3.8	7.48e-01	0	44	104	1318584320	81	29879
2026-01-23 02:44:43.17	211.80	3.03	-55.2	-73.1	3.8	7.46e-01	0	44	104	1318584320	81	29144
2026-01-23 02:44:47.20	211.79	2.75	-55.2	-73.1	3.8	7.43e-01	0	44	104	1318584320	81	29065
2026-01-23 02:44:51.23	211.77	2.48	-55.2	-73.1	3.8	7.46e-01	0	44	104	1318584320	81	29081
2026-01-23 02:44:55.26	211.76	2.21	-55.2	-73.1	3.8	7.45e-01	0	44	104	1318584320	81	29065
2026-01-23 02:44:59.29	211.75	1.94	-55.2	-73.0	3.8	7.45e-01	0	44	104	1318584320	81	28920

#Closed at: 2026-01-23 02:44:59
#Recorded file [1318 MB]: D:/lorett/data/31041_260123_053208.dat