passes_logs/2026/01/23/R3.2S_Murmansk/R3.2S_Murmansk__20260123_075818_FENGYUN_3D_rec.log

#Pass ID: 20260123_075818_FENGYUN 3D
#Satellite: FENGYUN 3D
#Configuration: FENGYUN 3D
#almurnet v.1.7.20251203
#Start time: 2026-01-23 07:58:18

#Version: 2.2.20231116
#Station: R3.2S_Murmansk
#Location: 33.079688 lon 68.888172 lat
#TLE: 1 43010U 17072A   26022.47411728  .00000617  00000+0  31375-3 0  9996
#TLE: 2 43010  98.9952 354.4060 0002481  95.7964 264.3494 14.19699924424319

#Time	Az	El	Level	Level2	SNR	BER	BlckErr	Temp	State	Recorded	gain1	gain2
2026-01-23 07:58:18.00	74.54	1.98	-54.5	-66.5	3.8	8.46e-01	0	44	0	0	80	14479
2026-01-23 07:58:22.04	74.29	2.22	-54.5	-66.5	3.8	8.45e-01	0	43	104	0	79	15365
2026-01-23 07:58:26.07	74.04	2.45	-54.5	-66.5	3.8	8.45e-01	0	44	104	0	79	15365
2026-01-23 07:58:30.10	73.79	2.69	-54.7	-66.7	3.8	8.46e-01	0	44	104	0	79	15665
2026-01-23 07:58:34.13	73.53	2.92	-54.6	-66.5	3.8	8.48e-01	0	43	104	0	80	14539
2026-01-23 07:58:38.16	73.27	3.16	-54.4	-66.3	3.8	8.46e-01	0	43	104	0	80	14143
2026-01-23 07:58:42.19	73.00	3.40	-54.1	-66.1	3.8	8.46e-01	0	44	104	0	80	13737
2026-01-23 07:58:46.23	72.73	3.64	-53.7	-65.7	3.8	8.47e-01	0	43	104	0	79	13927
2026-01-23 07:58:50.26	72.46	3.88	-52.7	-64.6	3.8	8.46e-01	0	43	104	0	77	13857
2026-01-23 07:58:54.29	72.17	4.13	-52.3	-62.0	4.0	8.45e-01	0	43	104	0	76	10836
2026-01-23 07:58:58.32	71.89	4.37	-52.0	-60.3	4.4	8.32e-01	0	43	0	0	76	8870
2026-01-23 07:59:02.35	71.60	4.62	-50.3	-54.4	8.8	5.63e-02	0	43	0	13631488	72	5662
2026-01-23 07:59:06.38	71.30	4.87	-49.2	-52.2	11.2	2.56e-03	0	43	0	35651584	70	4946
2026-01-23 07:59:10.42	71.00	5.12	-45.1	-46.5	17.2	0.00e+00	0	43	0	58720256	60	4546
2026-01-23 07:59:14.45	70.69	5.37	-51.7	-58.6	4.2	8.46e-01	0	44	104	74448896	75	7749
2026-01-23 07:59:18.48	70.38	5.62	-43.9	-45.1	18.8	0.00e+00	0	43	0	93323264	59	4126
2026-01-23 07:59:22.52	70.06	5.88	-44.0	-45.2	18.8	0.00e+00	0	43	0	116391936	59	4166
2026-01-23 07:59:26.55	69.73	6.13	-43.2	-44.2	19.9	0.00e+00	0	43	0	139460608	58	3948
2026-01-23 07:59:30.58	69.40	6.39	-43.3	-44.3	19.8	0.00e+00	0	43	0	161480704	58	3992
2026-01-23 07:59:34.61	69.07	6.65	-43.6	-44.7	19.5	0.00e+00	0	43	0	184549376	58	4170
2026-01-23 07:59:38.65	68.72	6.91	-43.5	-44.5	19.6	0.00e+00	0	44	0	207618048	58	4092
2026-01-23 07:59:42.68	68.37	7.18	-43.2	-44.2	19.9	0.00e+00	0	44	0	229638144	58	3958
2026-01-23 07:59:46.70	68.02	7.44	-43.4	-44.4	19.8	0.00e+00	0	43	0	252706816	58	4026
2026-01-23 07:59:50.73	67.66	7.71	-43.1	-44.1	20.1	0.00e+00	0	43	0	275775488	58	3907
2026-01-23 07:59:54.77	67.29	7.98	-43.3	-44.4	19.9	0.00e+00	0	43	0	297795584	58	4009
2026-01-23 07:59:58.80	66.91	8.25	-42.8	-43.8	20.5	0.00e+00	0	43	0	320864256	57	3960
2026-01-23 08:00:02.83	66.52	8.52	-43.0	-44.0	20.4	0.00e+00	0	43	0	343932928	57	4063
2026-01-23 08:00:06.86	66.13	8.79	-42.6	-43.6	20.7	0.00e+00	0	43	0	365953024	57	3880
2026-01-23 08:00:10.89	65.73	9.07	-42.5	-43.4	20.9	0.00e+00	0	43	0	389021696	56	4025
2026-01-23 08:00:14.92	65.33	9.34	-42.6	-43.5	20.8	0.00e+00	0	43	0	412090368	56	4087
2026-01-23 08:00:18.96	64.91	9.62	-42.6	-43.6	20.8	0.00e+00	0	43	0	434110464	56	4107
2026-01-23 08:00:22.99	64.49	9.90	-42.6	-43.5	20.9	0.00e+00	0	43	0	457179136	56	4074
2026-01-23 08:00:27.02	64.05	10.18	-42.6	-43.5	20.8	0.00e+00	0	43	0	480247808	56	4091
2026-01-23 08:00:31.06	63.61	10.47	-42.4	-43.4	21.1	0.00e+00	0	43	0	502267904	56	4006
2026-01-23 08:00:35.09	63.16	10.75	-42.5	-43.5	21.0	0.00e+00	0	43	0	524288000	56	4056
2026-01-23 08:00:39.12	62.70	11.04	-42.3	-43.2	21.3	0.00e+00	0	43	0	547356672	56	3924
2026-01-23 08:00:43.15	62.24	11.32	-42.1	-43.0	21.5	0.00e+00	0	43	0	570425344	56	3841
2026-01-23 08:00:47.18	61.76	11.61	-41.8	-42.6	21.7	0.00e+00	0	43	0	592445440	55	3906
2026-01-23 08:00:51.22	61.27	11.90	-41.8	-42.7	21.7	0.00e+00	0	43	0	615514112	55	3940
2026-01-23 08:00:55.25	60.77	12.20	-41.6	-42.5	21.9	0.00e+00	0	43	0	638582784	55	3838
2026-01-23 08:00:59.28	60.27	12.49	-41.7	-42.6	21.8	0.00e+00	0	43	0	660602880	55	3869
2026-01-23 08:01:03.32	59.75	12.78	-41.7	-42.5	21.9	0.00e+00	0	43	0	683671552	54	4086
2026-01-23 08:01:07.35	59.22	13.08	-41.4	-42.2	22.2	0.00e+00	0	43	0	706740224	54	3942
2026-01-23 08:01:11.38	58.68	13.38	-41.4	-42.3	22.1	0.00e+00	0	43	0	728760320	54	3972
2026-01-23 08:01:15.41	58.13	13.67	-41.2	-42.0	22.4	0.00e+00	0	43	0	751828992	54	3839
2026-01-23 08:01:19.44	57.57	13.97	-41.1	-41.9	22.5	0.00e+00	0	43	0	774897664	54	3793
2026-01-23 08:01:23.48	56.99	14.27	-41.1	-41.9	22.5	0.00e+00	0	43	0	796917760	53	4045
2026-01-23 08:01:27.51	56.40	14.57	-40.9	-41.7	22.7	0.00e+00	0	43	0	819986432	53	3955
2026-01-23 08:01:31.55	55.80	14.87	-40.9	-41.7	22.8	0.00e+00	0	43	0	843055104	53	3915
2026-01-23 08:01:35.59	55.19	15.18	-40.7	-41.5	22.9	0.00e+00	0	43	0	865075200	53	3859
2026-01-23 08:01:39.62	54.57	15.48	-40.7	-41.5	23.0	0.00e+00	0	43	0	888143872	53	3837
2026-01-23 08:01:43.65	53.93	15.78	-40.6	-41.4	23.1	0.00e+00	0	43	0	910163968	53	3801
2026-01-23 08:01:47.68	53.28	16.08	-40.5	-41.3	23.1	0.00e+00	0	43	0	933232640	52	3981
2026-01-23 08:01:51.71	52.62	16.38	-40.6	-41.4	23.1	0.00e+00	0	43	0	956301312	52	4022
2026-01-23 08:01:55.75	51.94	16.69	-40.5	-41.3	23.2	0.00e+00	0	43	0	978321408	52	3977
2026-01-23 08:01:59.78	51.25	16.99	-40.3	-41.1	23.4	0.00e+00	0	43	0	1001390080	52	3891
2026-01-23 08:02:03.81	50.55	17.29	-40.3	-41.1	23.4	0.00e+00	0	43	0	1024458752	52	3869
2026-01-23 08:02:07.85	49.83	17.59	-40.3	-41.1	23.4	0.00e+00	0	43	0	1046478848	52	3891
2026-01-23 08:02:11.88	49.09	17.88	-40.2	-41.0	23.5	0.00e+00	0	43	0	1069547520	52	3825
2026-01-23 08:02:15.92	48.34	18.18	-40.1	-40.8	23.6	0.00e+00	0	43	0	1092616192	52	3764
2026-01-23 08:02:19.95	47.58	18.48	-40.0	-40.8	23.7	0.00e+00	0	43	0	1114636288	52	3740
2026-01-23 08:02:23.98	46.80	18.77	-39.9	-40.7	23.9	0.00e+00	0	43	0	1137704960	51	3926
2026-01-23 08:02:28.02	46.01	19.06	-39.7	-40.5	24.1	0.00e+00	0	43	0	1160773632	51	3825
2026-01-23 08:02:32.05	45.20	19.35	-39.3	-40.1	24.4	0.00e+00	0	43	0	1182793728	50	3878
2026-01-23 08:02:36.08	44.37	19.64	-39.3	-40.0	24.5	0.00e+00	0	43	0	1205862400	50	3855
2026-01-23 08:02:40.11	43.53	19.92	-39.4	-40.1	24.4	0.00e+00	0	43	0	1228931072	50	3904
2026-01-23 08:02:44.14	42.68	20.20	-39.4	-40.2	24.4	0.00e+00	0	43	0	1250951168	50	3925
2026-01-23 08:02:48.17	41.80	20.47	-39.5	-40.2	24.3	0.00e+00	0	43	0	1272971264	50	3955
2026-01-23 08:02:52.20	40.92	20.74	-39.4	-40.1	24.4	0.00e+00	0	43	0	1296039936	50	3903
2026-01-23 08:02:56.24	40.01	21.01	-39.1	-39.8	24.7	0.00e+00	0	43	0	1319108608	50	3778
2026-01-23 08:03:00.27	39.09	21.27	-39.3	-40.0	24.6	0.00e+00	0	43	0	1341128704	50	3853
2026-01-23 08:03:04.30	38.16	21.53	-39.3	-40.0	24.5	0.00e+00	0	43	0	1364197376	50	3866
2026-01-23 08:03:08.34	37.20	21.78	-39.0	-39.7	24.8	0.00e+00	0	43	0	1387266048	50	3723
2026-01-23 08:03:12.37	36.24	22.02	-39.1	-39.8	24.8	0.00e+00	0	43	0	1409286144	50	3764
2026-01-23 08:03:16.40	35.26	22.26	-39.2	-39.9	24.7	0.00e+00	0	43	0	1432354816	50	3795
2026-01-23 08:03:20.43	34.26	22.49	-39.2	-40.0	24.7	0.00e+00	0	43	0	1455423488	50	3828
2026-01-23 08:03:24.47	33.25	22.72	-39.1	-39.8	24.8	0.00e+00	0	43	0	1477443584	50	3774
2026-01-23 08:03:28.50	32.22	22.93	-39.0	-39.8	24.8	0.00e+00	0	43	0	1500512256	50	3738
2026-01-23 08:03:32.54	31.18	23.14	-38.7	-39.4	25.1	0.00e+00	0	43	0	1523580928	49	3824
2026-01-23 08:03:36.57	30.13	23.34	-38.7	-39.5	25.1	0.00e+00	0	43	0	1545601024	49	3829
2026-01-23 08:03:40.60	29.06	23.53	-38.7	-39.4	25.2	0.00e+00	0	43	0	1568669696	49	3782
2026-01-23 08:03:44.64	27.98	23.71	-38.6	-39.3	25.2	0.00e+00	0	43	0	1591738368	49	3754
2026-01-23 08:03:48.67	26.89	23.88	-38.4	-39.1	25.4	0.00e+00	0	43	0	1613758464	48	3884
2026-01-23 08:03:52.71	25.78	24.04	-38.8	-39.6	25.0	0.00e+00	0	43	0	1636827136	48	4103
2026-01-23 08:03:56.74	24.67	24.19	-38.8	-39.5	25.1	0.00e+00	0	43	0	1658847232	48	4061
2026-01-23 08:04:00.77	23.54	24.32	-38.6	-39.3	25.2	0.00e+00	0	43	0	1681915904	48	3981
2026-01-23 08:04:04.80	22.41	24.45	-38.5	-39.2	25.3	0.00e+00	0	43	0	1704984576	48	3916
2026-01-23 08:04:08.83	21.27	24.56	-38.6	-39.3	25.2	0.00e+00	0	43	0	1727004672	48	3972
2026-01-23 08:04:12.86	20.11	24.67	-38.4	-39.0	25.5	0.00e+00	0	43	0	1750073344	48	3858
2026-01-23 08:04:16.90	18.95	24.76	-38.5	-39.2	25.3	0.00e+00	0	43	0	1772093440	48	3935
2026-01-23 08:04:20.93	17.79	24.83	-38.8	-39.5	25.0	0.00e+00	0	43	0	1795162112	48	4096
2026-01-23 08:04:24.96	16.62	24.90	-38.6	-39.2	25.3	0.00e+00	0	43	0	1818230784	48	3956
2026-01-23 08:04:28.99	15.45	24.95	-38.3	-38.9	25.6	0.00e+00	0	43	0	1840250880	48	3822
2026-01-23 08:04:33.03	14.27	24.99	-38.3	-39.0	25.6	0.00e+00	0	43	0	1863319552	48	3829
2026-01-23 08:04:37.06	13.09	25.01	-38.4	-39.1	25.5	0.00e+00	0	43	0	1886388224	48	3869
2026-01-23 08:04:41.10	11.90	25.02	-38.3	-39.0	25.5	0.00e+00	0	43	0	1908408320	48	3866
2026-01-23 08:04:45.13	10.72	25.02	-38.2	-38.9	25.6	0.00e+00	0	43	0	1931476992	48	3806
2026-01-23 08:04:49.16	9.54	25.01	-38.1	-38.8	25.7	0.00e+00	0	43	0	1954545664	48	3763
2026-01-23 08:04:53.20	8.36	24.98	-38.3	-39.0	25.5	0.00e+00	0	43	0	1976565760	48	3843
2026-01-23 08:04:57.23	7.19	24.94	-38.4	-39.1	25.4	0.00e+00	0	43	0	1999634432	48	3889
2026-01-23 08:05:01.26	6.01	24.89	-38.6	-39.3	25.3	0.00e+00	0	43	0	2021654528	48	3990
2026-01-23 08:05:05.29	4.85	24.82	-38.0	-38.7	25.8	0.00e+00	0	43	0	2044723200	48	3718
2026-01-23 08:05:09.32	3.68	24.74	-38.1	-38.8	25.7	0.00e+00	0	43	0	2067791872	48	3765
2026-01-23 08:05:13.36	2.52	24.65	-37.7	-38.4	25.6	0.00e+00	0	43	0	2089811968	47	3782
2026-01-23 08:05:17.39	1.38	24.54	-37.9	-38.6	25.3	0.00e+00	0	43	0	2112880640	47	3908
2026-01-23 08:05:21.41	0.24	24.42	-38.1	-38.8	25.2	0.00e+00	0	43	0	2135949312	47	3998
2026-01-23 08:05:25.45	359.10	24.30	-38.0	-38.7	25.2	0.00e+00	0	43	0	2157969408	47	3951
2026-01-23 08:05:29.48	357.98	24.16	-37.8	-38.5	25.4	0.00e+00	0	43	0	2181038080	47	3855
2026-01-23 08:05:33.51	356.87	24.01	-38.0	-38.7	25.3	0.00e+00	0	43	0	2204106752	47	3921
2026-01-23 08:05:37.54	355.77	23.84	-38.3	-39.0	25.0	0.00e+00	0	43	0	2226126848	47	4064
2026-01-23 08:05:41.58	354.68	23.67	-38.1	-38.8	25.2	0.00e+00	0	43	0	2249195520	47	3972
2026-01-23 08:05:45.61	353.60	23.49	-37.8	-38.5	25.4	0.00e+00	0	43	0	2272264192	47	3853
2026-01-23 08:05:49.64	352.54	23.30	-38.0	-38.7	25.3	0.00e+00	0	43	0	2294284288	47	3929
2026-01-23 08:05:53.68	351.49	23.10	-38.1	-38.8	25.1	0.00e+00	0	43	0	2317352960	47	3995
2026-01-23 08:05:57.71	350.45	22.89	-38.1	-38.8	25.2	0.00e+00	0	43	0	2340421632	47	3982
2026-01-23 08:06:01.75	349.42	22.67	-38.2	-38.9	25.1	0.00e+00	0	43	0	2362441728	47	4026
2026-01-23 08:06:05.78	348.42	22.45	-38.1	-38.8	25.1	0.00e+00	0	43	0	2384461824	47	4001
2026-01-23 08:06:09.81	347.42	22.21	-37.9	-38.6	25.3	0.00e+00	0	43	0	2407530496	47	3906
2026-01-23 08:06:13.84	346.45	21.98	-38.1	-38.8	25.1	0.00e+00	0	43	0	2430599168	47	3995
2026-01-23 08:06:17.87	345.49	21.73	-38.3	-39.0	25.0	0.00e+00	0	43	0	2452619264	47	4081
2026-01-23 08:06:21.91	344.54	21.48	-39.1	-39.8	24.8	0.00e+00	0	43	0	2475687936	48	4218
2026-01-23 08:06:25.94	343.61	21.22	-38.7	-39.4	25.1	0.00e+00	0	43	0	2498756608	48	4040
2026-01-23 08:06:29.97	342.69	20.96	-38.8	-39.5	25.1	0.00e+00	0	43	0	2520776704	48	4055
2026-01-23 08:06:34.00	341.79	20.69	-39.1	-39.9	24.7	0.00e+00	0	43	0	2543845376	48	4244
2026-01-23 08:06:38.03	340.91	20.42	-39.2	-39.9	24.6	0.00e+00	0	43	0	2566914048	49	4033
2026-01-23 08:06:42.06	340.04	20.14	-39.1	-39.8	24.7	0.00e+00	0	43	0	2588934144	49	3976
2026-01-23 08:06:46.10	339.18	19.86	-39.5	-40.2	24.3	0.00e+00	0	43	0	2612002816	49	4183
2026-01-23 08:06:50.13	338.35	19.58	-39.4	-40.2	24.4	0.00e+00	0	43	0	2635071488	49	4149
2026-01-23 08:06:54.16	337.53	19.29	-39.6	-40.3	24.2	0.00e+00	0	43	0	2657091584	49	4240
2026-01-23 08:06:58.19	336.72	19.00	-39.6	-40.3	24.2	0.00e+00	0	43	0	2680160256	49	4209
2026-01-23 08:07:02.22	335.93	18.71	-39.7	-40.4	24.1	0.00e+00	0	43	0	2703228928	50	4026
2026-01-23 08:07:06.25	335.16	18.42	-39.6	-40.3	24.2	0.00e+00	0	43	0	2725249024	50	3981
2026-01-23 08:07:10.28	334.40	18.12	-39.4	-40.2	24.3	0.00e+00	0	43	0	2747269120	50	3920
2026-01-23 08:07:14.31	333.65	17.83	-39.5	-40.2	24.2	0.00e+00	0	43	0	2770337792	50	3958
2026-01-23 08:07:18.35	332.92	17.53	-39.5	-40.3	24.2	0.00e+00	0	43	0	2793406464	50	3969
2026-01-23 08:07:22.38	332.21	17.23	-40.0	-40.7	23.8	0.00e+00	0	43	0	2815426560	50	4184
2026-01-23 08:07:26.42	331.50	16.93	-40.0	-40.7	23.8	0.00e+00	0	43	0	2838495232	50	4189
2026-01-23 08:07:30.45	330.82	16.63	-40.0	-40.8	23.7	0.00e+00	0	43	0	2861563904	50	4196
2026-01-23 08:07:34.48	330.14	16.33	-40.0	-40.7	23.8	0.00e+00	0	43	0	2883584000	50	4174
2026-01-23 08:07:38.51	329.49	16.03	-40.1	-40.8	23.7	0.00e+00	0	43	0	2906652672	50	4235
2026-01-23 08:07:42.55	328.84	15.72	-40.4	-41.1	23.4	0.00e+00	0	43	0	2929721344	51	4143
2026-01-23 08:07:46.58	328.20	15.42	-40.3	-41.1	23.5	0.00e+00	0	43	0	2951741440	51	4104
2026-01-23 08:07:50.62	327.58	15.12	-40.4	-41.1	23.3	0.00e+00	0	43	0	2974810112	51	4138
2026-01-23 08:07:54.65	326.98	14.82	-40.6	-41.4	23.1	0.00e+00	0	43	0	2997878784	51	4255
2026-01-23 08:07:58.69	326.38	14.52	-40.8	-41.6	22.8	0.00e+00	0	43	0	3019898880	52	4113
2026-01-23 08:08:02.71	325.80	14.22	-40.9	-41.7	22.7	0.00e+00	0	43	0	3042967552	52	4179
2026-01-23 08:08:06.74	325.23	13.92	-40.7	-41.5	22.9	0.00e+00	0	43	0	3066036224	52	4054
2026-01-23 08:08:10.78	324.67	13.62	-40.6	-41.4	22.9	0.00e+00	0	43	0	3088056320	52	4040
2026-01-23 08:08:14.81	324.12	13.32	-41.0	-41.7	22.6	0.00e+00	0	43	0	3111124992	52	4193
2026-01-23 08:08:18.85	323.58	13.03	-41.0	-41.8	22.5	0.00e+00	0	43	0	3133145088	52	4234
2026-01-23 08:08:22.88	323.06	12.73	-41.0	-41.9	22.5	0.00e+00	0	43	0	3156213760	52	4246
2026-01-23 08:08:26.91	322.54	12.44	-41.1	-41.9	22.5	0.00e+00	0	43	0	3179282432	52	4253
2026-01-23 08:08:30.95	322.03	12.14	-41.5	-42.3	22.0	0.00e+00	0	43	0	3201302528	53	4238
2026-01-23 08:08:34.98	321.54	11.85	-41.6	-42.5	21.9	0.00e+00	0	43	0	3224371200	53	4299
2026-01-23 08:08:39.01	321.06	11.56	-41.5	-42.4	22.0	0.00e+00	0	43	0	3247439872	53	4248
2026-01-23 08:08:43.05	320.58	11.27	-41.6	-42.4	21.9	0.00e+00	0	43	0	3269459968	53	4272
2026-01-23 08:08:47.08	320.11	10.99	-41.5	-42.3	22.0	0.00e+00	0	43	0	3292528640	53	4238
2026-01-23 08:08:51.12	319.66	10.70	-41.6	-42.4	21.9	0.00e+00	0	43	0	3315597312	53	4279
2026-01-23 08:08:55.15	319.21	10.42	-41.8	-42.7	21.6	0.00e+00	0	43	0	3337617408	54	4175
2026-01-23 08:08:59.19	318.77	10.13	-41.9	-42.8	21.5	0.00e+00	0	43	0	3360686080	54	4214
2026-01-23 08:09:03.22	318.34	9.85	-41.8	-42.7	21.6	0.00e+00	0	43	0	3383754752	54	4173
2026-01-23 08:09:07.26	317.92	9.57	-42.0	-42.8	21.4	0.00e+00	0	43	0	3405774848	54	4239
2026-01-23 08:09:11.29	317.51	9.29	-42.1	-43.0	21.2	0.00e+00	0	43	0	3428843520	55	4088
2026-01-23 08:09:15.33	317.10	9.02	-42.2	-43.1	21.2	0.00e+00	0	43	0	3451912192	55	4111
2026-01-23 08:09:19.36	316.70	8.74	-42.4	-43.3	20.9	0.00e+00	0	43	0	3473932288	55	4232
2026-01-23 08:09:23.40	316.31	8.47	-42.5	-43.4	20.9	0.00e+00	0	43	0	3495952384	56	4042
2026-01-23 08:09:27.43	315.93	8.20	-42.7	-43.7	20.7	0.00e+00	0	43	0	3519021056	56	4162
2026-01-23 08:09:31.46	315.56	7.93	-42.6	-43.5	20.8	0.00e+00	0	43	0	3542089728	56	4091
2026-01-23 08:09:35.49	315.19	7.66	-42.8	-43.7	20.6	0.00e+00	0	43	0	3564109824	56	4172
2026-01-23 08:09:39.52	314.83	7.40	-42.6	-43.5	20.7	0.00e+00	0	43	0	3587178496	56	4077
2026-01-23 08:09:43.55	314.47	7.13	-42.9	-43.9	20.3	0.00e+00	0	43	0	3610247168	56	4264
2026-01-23 08:09:47.59	314.13	6.87	-42.8	-43.8	20.4	0.00e+00	0	43	0	3632267264	56	4196
2026-01-23 08:09:51.62	313.78	6.61	-42.8	-43.8	20.3	0.00e+00	0	43	0	3655335936	56	4216
2026-01-23 08:09:55.64	313.45	6.35	-42.6	-43.6	20.5	0.00e+00	0	43	0	3678404608	56	4109
2026-01-23 08:09:59.68	313.12	6.09	-42.8	-43.8	20.3	0.00e+00	0	43	0	3700424704	56	4199
2026-01-23 08:10:03.71	312.80	5.84	-43.3	-44.4	19.7	0.00e+00	0	43	0	3723493376	57	4255
2026-01-23 08:10:07.74	312.48	5.58	-42.9	-43.9	20.1	0.00e+00	0	43	0	3746562048	57	4049
2026-01-23 08:10:11.77	312.17	5.33	-43.5	-44.5	19.5	0.00e+00	0	43	0	3768582144	57	4334
2026-01-23 08:10:15.81	311.87	5.08	-43.1	-44.1	19.9	0.00e+00	0	43	0	3791650816	57	4120
2026-01-23 08:10:19.84	311.57	4.83	-53.0	-65.0	3.8	8.46e-01	0	43	104	3803185152	76	15283
2026-01-23 08:10:23.87	311.27	4.58	-53.1	-65.1	3.8	8.46e-01	0	43	104	3803185152	76	15403
2026-01-23 08:10:27.91	310.98	4.33	-53.3	-65.3	3.8	8.46e-01	0	43	104	3803185152	77	14906
2026-01-23 08:10:31.94	310.70	4.09	-53.5	-65.5	3.8	8.45e-01	0	43	104	3803185152	77	15285
2026-01-23 08:10:35.98	310.42	3.84	-53.6	-65.6	3.8	8.46e-01	0	43	104	3803185152	77	15424
2026-01-23 08:10:40.02	310.14	3.60	-53.6	-65.5	3.8	8.46e-01	0	43	104	3803185152	77	15336
2026-01-23 08:10:44.05	309.87	3.36	-53.6	-65.5	3.8	8.46e-01	0	43	104	3803185152	77	15378
2026-01-23 08:10:48.08	309.61	3.12	-53.6	-65.5	3.8	8.46e-01	0	43	104	3803185152	77	15345
2026-01-23 08:10:52.11	309.35	2.88	-53.5	-65.5	3.8	8.47e-01	0	43	104	3803185152	77	15306
2026-01-23 08:10:56.14	309.09	2.65	-53.5	-65.5	3.8	8.47e-01	0	43	104	3803185152	77	15303
2026-01-23 08:11:00.18	308.84	2.41	-53.5	-65.5	3.8	8.45e-01	0	43	104	3803185152	77	15263
2026-01-23 08:11:04.21	308.59	2.18	-53.5	-65.5	3.8	8.45e-01	0	43	104	3803185152	77	15299
2026-01-23 08:11:08.24	308.35	1.95	-53.5	-65.5	3.8	8.46e-01	0	43	104	3803185152	77	15259

#Closed at: 2026-01-23 08:11:08
#Recorded file [3803 MB]: D:/lorett/data/31041_260123_105817.dat