passes_logs/2026/01/23/R3.2S_Murmansk/R3.2S_Murmansk__20260123_002126_SUOMI_NPP_rec.log

#Pass ID: 20260123_002126_SUOMI NPP
#Satellite: SUOMI NPP
#Configuration: NPP
#almurnet v.1.7.20251203
#Start time: 2026-01-23 00:21:26

#Version: 2.2.20231116
#Station: R3.2S_Murmansk
#Location: 33.079688 lon 68.888172 lat
#TLE: 1 37849U 11061A   26022.50498765  .00000208  00000+0  11976-3 0  9992
#TLE: 2 37849  98.7820 324.4892 0002275  50.8149 309.3229 14.19528284737775

#Time	Az	El	Level	Level2	SNR	BER	BlckErr	Temp	State	Recorded	gain1	gain2
2026-01-23 00:21:26.48	23.11	1.97	-54.3	-69.3	3.8	1.49e+00	0	42	0	0	79	21117
2026-01-23 00:21:30.51	23.17	2.23	-54.5	-69.5	3.8	1.49e+00	0	42	104	0	79	21587
2026-01-23 00:21:34.54	23.23	2.49	-54.4	-69.4	3.8	1.49e+00	0	42	104	0	79	21481
2026-01-23 00:21:38.58	23.29	2.75	-54.3	-69.3	3.8	1.49e+00	0	42	104	0	79	21207
2026-01-23 00:21:42.61	23.36	3.01	-54.1	-69.1	3.8	1.49e+00	0	42	104	0	79	20659
2026-01-23 00:21:46.64	23.42	3.28	-53.7	-68.7	3.8	1.49e+00	0	42	104	0	79	19682
2026-01-23 00:21:50.68	23.48	3.55	-52.4	-64.4	3.9	1.49e+00	0	43	104	0	76	14274
2026-01-23 00:21:54.71	23.55	3.82	-51.3	-57.3	8.8	4.56e-02	0	43	0	6291456	74	7088
2026-01-23 00:21:58.74	23.61	4.09	-49.4	-52.6	13.8	2.05e-05	0	43	0	13631488	70	5176
2026-01-23 00:22:02.77	23.68	4.37	-48.2	-50.7	15.7	0.00e+00	0	43	0	20971520	68	4703
2026-01-23 00:22:06.81	23.75	4.65	-48.5	-51.2	15.1	0.00e+00	0	43	0	28311552	67	5239
2026-01-23 00:22:10.85	23.82	4.94	-50.3	-54.5	11.9	2.06e-04	0	43	0	35651584	71	6085
2026-01-23 00:22:14.88	23.89	5.22	-52.4	-67.1	3.8	2.12e-01	0	43	104	42991616	75	20760
2026-01-23 00:22:18.91	23.96	5.51	-48.4	-50.9	15.7	0.00e+00	0	43	0	48234496	68	4810
2026-01-23 00:22:22.94	24.03	5.80	-47.9	-50.1	16.5	0.00e+00	0	43	0	55574528	67	4644
2026-01-23 00:22:26.97	24.10	6.10	-47.9	-50.2	16.3	0.00e+00	0	43	0	62914560	67	4678
2026-01-23 00:22:31.01	24.18	6.40	-48.1	-50.4	16.2	0.00e+00	0	43	0	71303168	67	4800
2026-01-23 00:22:35.05	24.25	6.70	-47.5	-49.5	17.1	0.00e+00	0	43	0	78643200	66	4579
2026-01-23 00:22:39.08	24.33	7.01	-47.1	-49.0	17.6	0.00e+00	0	43	0	85983232	66	4312
2026-01-23 00:22:43.11	24.40	7.31	-47.1	-48.9	17.7	0.00e+00	0	43	0	93323264	65	4541
2026-01-23 00:22:47.14	24.48	7.63	-46.7	-48.4	18.2	0.00e+00	0	43	0	100663296	65	4273
2026-01-23 00:22:51.17	24.56	7.95	-46.7	-48.4	18.3	0.00e+00	0	43	0	109051904	65	4272
2026-01-23 00:22:55.21	24.64	8.27	-46.7	-48.4	18.4	0.00e+00	0	44	0	116391936	65	4247
2026-01-23 00:22:59.23	24.73	8.59	-46.5	-48.1	18.6	0.00e+00	0	44	0	123731968	64	4379
2026-01-23 00:23:03.27	24.81	8.92	-46.3	-47.8	18.9	0.00e+00	0	43	0	131072000	64	4229
2026-01-23 00:23:07.30	24.90	9.26	-46.2	-47.7	19.1	0.00e+00	0	43	0	138412032	64	4162
2026-01-23 00:23:11.33	24.98	9.59	-46.1	-47.6	19.2	0.00e+00	0	44	0	146800640	64	4107
2026-01-23 00:23:15.37	25.07	9.94	-46.0	-47.4	19.4	0.00e+00	0	44	0	154140672	63	4283
2026-01-23 00:23:19.40	25.16	10.29	-45.8	-47.2	19.7	0.00e+00	0	44	0	161480704	63	4182
2026-01-23 00:23:23.43	25.26	10.64	-45.6	-47.0	19.9	0.00e+00	0	44	0	168820736	63	4066
2026-01-23 00:23:27.47	25.35	11.00	-45.4	-46.7	20.2	0.00e+00	0	44	0	176160768	62	4193
2026-01-23 00:23:31.50	25.45	11.36	-45.5	-46.8	20.1	0.00e+00	0	44	0	184549376	62	4222
2026-01-23 00:23:35.53	25.54	11.73	-45.4	-46.7	20.2	0.00e+00	0	44	0	191889408	62	4178
2026-01-23 00:23:39.57	25.64	12.10	-45.4	-46.7	20.3	0.00e+00	0	44	0	199229440	62	4162
2026-01-23 00:23:43.60	25.75	12.48	-45.3	-46.6	20.3	0.00e+00	0	44	0	206569472	62	4140
2026-01-23 00:23:47.64	25.85	12.87	-45.4	-46.7	20.3	0.00e+00	0	44	0	214958080	62	4152
2026-01-23 00:23:51.67	25.96	13.26	-45.3	-46.6	20.4	0.00e+00	0	44	0	222298112	62	4131
2026-01-23 00:23:55.70	26.07	13.66	-45.4	-46.7	20.3	0.00e+00	0	44	0	229638144	62	4148
2026-01-23 00:23:59.73	26.18	14.06	-45.2	-46.4	20.6	0.00e+00	0	44	0	236978176	62	4039
2026-01-23 00:24:03.77	26.29	14.48	-45.4	-46.7	20.4	0.00e+00	0	44	0	244318208	62	4171
2026-01-23 00:24:07.80	26.41	14.90	-45.1	-46.4	20.6	0.00e+00	0	44	0	252706816	62	4014
2026-01-23 00:24:11.83	26.53	15.32	-45.2	-46.5	20.6	0.00e+00	0	44	0	260046848	62	4059
2026-01-23 00:24:15.86	26.65	15.75	-45.6	-46.9	20.2	0.00e+00	0	44	0	267386880	62	4284
2026-01-23 00:24:19.90	26.78	16.20	-45.8	-47.2	20.0	0.00e+00	0	44	0	274726912	62	4397
2026-01-23 00:24:23.94	26.91	16.65	-46.0	-47.3	19.8	0.00e+00	0	44	0	282066944	62	4493
2026-01-23 00:24:27.97	27.04	17.11	-46.1	-47.5	19.7	0.00e+00	0	44	0	290455552	62	4564
2026-01-23 00:24:32.01	27.18	17.57	-46.1	-47.5	19.7	0.00e+00	0	44	0	297795584	62	4560
2026-01-23 00:24:36.04	27.32	18.05	-46.6	-48.1	19.1	0.00e+00	0	44	0	305135616	63	4650
2026-01-23 00:24:40.07	27.46	18.53	-46.5	-48.0	19.3	0.00e+00	0	44	0	312475648	63	4561
2026-01-23 00:24:44.10	27.61	19.03	-46.4	-47.9	19.4	0.00e+00	0	44	0	320864256	64	4250
2026-01-23 00:24:48.13	27.76	19.53	-46.2	-47.6	19.6	0.00e+00	0	44	0	328204288	64	4119
2026-01-23 00:24:52.17	27.92	20.05	-46.1	-47.5	19.7	0.00e+00	0	44	0	335544320	63	4331
2026-01-23 00:24:56.20	28.08	20.57	-46.3	-47.7	19.6	0.00e+00	0	44	0	342884352	63	4426
2026-01-23 00:25:00.23	28.25	21.11	-46.4	-47.9	19.5	0.00e+00	0	44	0	350224384	63	4518
2026-01-23 00:25:04.27	28.42	21.66	-46.3	-47.8	19.4	0.00e+00	0	44	0	358612992	64	4236
2026-01-23 00:25:08.30	28.60	22.21	-46.5	-48.0	19.3	0.00e+00	0	44	0	365953024	64	4318
2026-01-23 00:25:12.33	28.78	22.79	-46.2	-47.7	19.6	0.00e+00	0	44	0	373293056	64	4177
2026-01-23 00:25:16.36	28.97	23.37	-46.3	-47.7	19.6	0.00e+00	0	44	0	380633088	64	4182
2026-01-23 00:25:20.39	29.17	23.97	-45.9	-47.3	20.1	0.00e+00	0	44	0	387973120	63	4196
2026-01-23 00:25:24.42	29.37	24.58	-45.3	-46.5	20.8	0.00e+00	0	44	0	396361728	62	4063
2026-01-23 00:25:28.46	29.58	25.21	-45.6	-46.8	20.5	0.00e+00	0	44	0	403701760	62	4236
2026-01-23 00:25:32.49	29.80	25.85	-45.4	-46.6	20.7	0.00e+00	0	44	0	411041792	62	4108
2026-01-23 00:25:36.53	30.03	26.51	-45.1	-46.3	21.0	0.00e+00	0	44	0	418381824	61	4217
2026-01-23 00:25:40.56	30.26	27.18	-45.3	-46.4	20.8	0.00e+00	0	44	0	425721856	61	4290
2026-01-23 00:25:44.59	30.51	27.87	-45.4	-46.5	20.8	0.00e+00	0	44	0	434110464	61	4338
2026-01-23 00:25:48.62	30.77	28.57	-45.4	-46.7	20.7	0.00e+00	0	44	0	441450496	61	4401
2026-01-23 00:25:52.66	31.03	29.30	-45.6	-46.9	20.5	0.00e+00	0	44	0	448790528	61	4537
2026-01-23 00:25:56.69	31.31	30.04	-46.1	-47.5	20.0	0.00e+00	0	44	0	456130560	62	4557
2026-01-23 00:26:00.73	31.60	30.80	-46.3	-47.7	19.8	0.00e+00	0	44	0	464519168	63	4440
2026-01-23 00:26:04.76	31.91	31.58	-47.2	-48.8	18.8	0.00e+00	0	44	0	471859200	64	4727
2026-01-23 00:26:08.79	32.23	32.38	-47.6	-49.4	18.2	0.00e+00	0	44	0	479199232	66	4513
2026-01-23 00:26:12.82	32.56	33.21	-48.0	-49.8	17.7	0.00e+00	0	44	0	486539264	67	4472
2026-01-23 00:26:16.85	32.91	34.05	-47.3	-48.9	18.7	0.00e+00	0	44	0	493879296	65	4503
2026-01-23 00:26:20.89	33.28	34.92	-46.3	-47.6	19.8	0.00e+00	0	44	0	502267904	64	4131
2026-01-23 00:26:24.92	33.67	35.81	-46.9	-48.4	19.1	0.00e+00	0	44	0	509607936	64	4531
2026-01-23 00:26:28.96	34.08	36.73	-47.8	-49.6	18.2	0.00e+00	0	44	0	516947968	66	4641
2026-01-23 00:26:32.99	34.51	37.67	-48.1	-50.0	17.7	0.00e+00	0	44	0	524288000	67	4582
2026-01-23 00:26:37.03	34.97	38.63	-47.8	-49.5	18.1	0.00e+00	0	44	0	531628032	66	4576
2026-01-23 00:26:41.07	35.45	39.63	-48.8	-50.8	17.0	0.00e+00	0	45	0	540016640	68	4723
2026-01-23 00:26:45.10	35.97	40.64	-49.4	-51.7	16.2	0.00e+00	0	44	0	547356672	69	4978
2026-01-23 00:26:49.13	36.51	41.69	-48.2	-50.0	17.8	0.00e+00	0	45	0	554696704	68	4329
2026-01-23 00:26:53.16	37.09	42.76	-47.6	-49.3	18.4	0.00e+00	0	45	0	562036736	67	4233
2026-01-23 00:26:57.19	37.72	43.86	-47.6	-49.3	18.4	0.00e+00	0	44	0	570425344	66	4478
2026-01-23 00:27:01.23	38.38	44.99	-48.9	-51.0	17.0	0.00e+00	0	45	0	577765376	69	4581
2026-01-23 00:27:05.26	39.10	46.15	-47.8	-49.5	18.3	0.00e+00	0	44	0	585105408	67	4304
2026-01-23 00:27:09.29	39.87	47.34	-48.1	-49.9	17.9	0.00e+00	0	44	0	592445440	67	4542
2026-01-23 00:27:13.32	40.69	48.55	-47.2	-48.7	19.0	0.00e+00	0	44	0	599785472	66	4187
2026-01-23 00:27:17.35	41.59	49.80	-45.7	-46.9	20.8	0.00e+00	0	45	0	608174080	62	4281
2026-01-23 00:27:21.39	42.56	51.07	-45.4	-46.6	21.0	0.00e+00	0	45	0	615514112	62	4100
2026-01-23 00:27:25.42	43.62	52.37	-45.1	-46.3	21.3	0.00e+00	0	44	0	622854144	60	4490
2026-01-23 00:27:29.46	44.78	53.69	-43.8	-44.8	22.8	0.00e+00	0	44	0	630194176	59	3973
2026-01-23 00:27:33.49	46.04	55.03	-43.8	-44.8	22.8	0.00e+00	0	44	0	637534208	58	4240
2026-01-23 00:27:37.52	47.43	56.40	-44.2	-45.2	22.5	0.00e+00	0	44	0	645922816	59	4172
2026-01-23 00:27:41.55	48.96	57.78	-44.2	-45.2	22.4	0.00e+00	0	44	0	653262848	59	4191
2026-01-23 00:27:45.59	50.66	59.17	-43.9	-45.0	22.7	0.00e+00	0	44	0	660602880	59	4053
2026-01-23 00:27:49.62	52.54	60.57	-43.1	-44.1	23.4	0.00e+00	0	44	0	667942912	57	4111
2026-01-23 00:27:53.66	54.65	61.98	-43.1	-44.0	23.4	0.00e+00	0	44	0	675282944	58	3835
2026-01-23 00:27:57.69	57.00	63.37	-44.3	-45.3	22.4	0.00e+00	0	44	0	683671552	59	4217
2026-01-23 00:28:01.73	59.66	64.75	-44.9	-46.0	21.6	0.00e+00	0	44	0	691011584	61	4064
2026-01-23 00:28:05.76	62.64	66.09	-45.7	-46.9	20.8	0.00e+00	0	44	0	698351616	62	4257
2026-01-23 00:28:09.79	66.01	67.40	-46.5	-47.9	19.9	0.00e+00	0	44	0	705691648	64	4256
2026-01-23 00:28:13.83	69.83	68.64	-46.8	-48.3	19.4	0.00e+00	0	44	0	714080256	64	4486
2026-01-23 00:28:17.86	74.13	69.80	-46.5	-47.7	20.2	0.00e+00	0	44	0	721420288	63	4436
2026-01-23 00:28:21.89	78.96	70.86	-48.5	-50.5	17.5	0.00e+00	0	44	0	728760320	68	4552
2026-01-23 00:28:25.93	84.37	71.78	-47.1	-48.6	19.2	0.00e+00	0	44	0	736100352	65	4381
2026-01-23 00:28:29.96	90.31	72.54	-46.0	-47.2	20.6	0.00e+00	0	44	0	743440384	63	4151
2026-01-23 00:28:33.99	96.76	73.11	-46.4	-47.8	19.8	0.00e+00	0	44	0	751828992	64	4224
2026-01-23 00:28:38.03	103.60	73.47	-44.7	-45.8	21.8	0.00e+00	0	44	0	759169024	60	4207
2026-01-23 00:28:42.06	110.64	73.59	-45.0	-46.1	21.5	0.00e+00	0	44	0	766509056	60	4357
2026-01-23 00:28:46.09	117.68	73.48	-44.4	-45.5	22.1	0.00e+00	0	44	0	773849088	60	4053
2026-01-23 00:28:50.12	124.53	73.14	-46.9	-48.4	19.4	0.00e+00	0	44	0	781189120	64	4536
2026-01-23 00:28:54.15	131.01	72.59	-47.6	-49.2	18.7	0.00e+00	0	44	0	789577728	66	4416
2026-01-23 00:28:58.18	136.99	71.84	-47.4	-49.0	18.6	0.00e+00	0	44	0	796917760	66	4305
2026-01-23 00:29:02.21	142.43	70.93	-51.1	-54.6	13.4	7.00e-07	0	44	0	804257792	72	5812
2026-01-23 00:29:06.25	147.32	69.88	-46.6	-47.9	19.8	0.00e+00	0	44	0	811597824	65	4032
2026-01-23 00:29:10.28	151.66	68.72	-47.3	-48.8	19.0	0.00e+00	0	44	0	819986432	66	4230
2026-01-23 00:29:14.32	155.51	67.48	-46.4	-47.8	20.0	0.00e+00	0	44	0	827326464	64	4220
2026-01-23 00:29:18.35	158.91	66.18	-46.1	-47.4	20.3	0.00e+00	0	44	0	834666496	64	4005
2026-01-23 00:29:22.39	161.93	64.83	-45.6	-46.9	20.9	0.00e+00	0	44	0	842006528	61	4494
2026-01-23 00:29:26.42	164.60	63.45	-43.1	-44.0	23.5	0.00e+00	0	44	0	849346560	58	3847
2026-01-23 00:29:30.45	166.97	62.06	-43.6	-44.6	23.0	0.00e+00	0	44	0	857735168	58	4130
2026-01-23 00:29:34.49	169.10	60.65	-43.7	-44.7	22.9	0.00e+00	0	44	0	865075200	59	3919
2026-01-23 00:29:38.52	171.00	59.25	-44.6	-45.7	22.2	0.00e+00	0	44	0	872415232	59	4420
2026-01-23 00:29:42.55	172.71	57.85	-42.5	-43.3	24.0	0.00e+00	0	44	0	879755264	56	3998
2026-01-23 00:29:46.59	174.25	56.47	-43.7	-44.7	22.9	0.00e+00	0	44	0	887095296	59	3935
2026-01-23 00:29:50.62	175.65	55.10	-44.5	-45.6	22.1	0.00e+00	0	44	0	895483904	59	4359
2026-01-23 00:29:54.65	176.92	53.75	-45.0	-46.2	21.4	0.00e+00	0	44	0	902823936	61	4158
2026-01-23 00:29:58.68	178.08	52.42	-45.5	-46.8	20.8	0.00e+00	0	44	0	910163968	61	4452
2026-01-23 00:30:02.71	179.15	51.12	-44.8	-45.9	21.7	0.00e+00	0	44	0	917504000	60	4255
2026-01-23 00:30:06.74	180.12	49.85	-46.6	-48.1	19.6	0.00e+00	0	44	0	924844032	64	4349
2026-01-23 00:30:10.77	181.02	48.60	-45.7	-46.9	20.7	0.00e+00	0	44	0	933232640	63	4019
2026-01-23 00:30:14.80	181.86	47.38	-47.2	-48.8	19.0	0.00e+00	0	44	0	940572672	64	4722
2026-01-23 00:30:18.84	182.63	46.19	-46.7	-48.1	19.6	0.00e+00	0	44	0	947912704	65	4131
2026-01-23 00:30:22.87	183.35	45.02	-48.4	-50.4	17.5	0.00e+00	0	45	0	955252736	67	4780
2026-01-23 00:30:26.91	184.02	43.89	-47.1	-48.6	19.0	0.00e+00	0	44	0	963641344	66	4114
2026-01-23 00:30:30.94	184.64	42.78	-46.4	-47.8	19.8	0.00e+00	0	44	0	970981376	64	4200
2026-01-23 00:30:34.98	185.23	41.70	-47.6	-49.3	18.3	0.00e+00	0	44	0	978321408	66	4459
2026-01-23 00:30:39.01	185.78	40.65	-44.1	-45.1	22.5	0.00e+00	0	44	0	985661440	59	4106
2026-01-23 00:30:43.04	186.29	39.63	-44.6	-45.7	21.7	0.00e+00	0	44	0	993001472	60	4175
2026-01-23 00:30:47.08	186.78	38.63	-46.7	-48.1	19.4	0.00e+00	0	44	0	1001390080	64	4385
2026-01-23 00:30:51.11	187.24	37.66	-45.1	-46.2	21.2	0.00e+00	0	44	0	1008730112	62	3954
2026-01-23 00:30:55.14	187.67	36.72	-45.1	-46.2	21.2	0.00e+00	0	44	0	1016070144	60	4440
2026-01-23 00:30:59.17	188.08	35.80	-46.5	-47.9	19.6	0.00e+00	0	44	0	1023410176	64	4264
2026-01-23 00:31:03.21	188.47	34.90	-46.1	-47.4	20.1	0.00e+00	0	44	0	1030750208	63	4268
2026-01-23 00:31:07.24	188.84	34.03	-46.8	-48.3	19.3	0.00e+00	0	44	0	1039138816	64	4461
2026-01-23 00:31:11.27	189.19	33.18	-46.2	-47.5	19.9	0.00e+00	0	44	0	1046478848	64	4080
2026-01-23 00:31:15.31	189.52	32.36	-45.8	-47.0	20.5	0.00e+00	0	44	0	1053818880	63	4093
2026-01-23 00:31:19.34	189.84	31.55	-47.7	-49.5	18.0	0.00e+00	0	45	0	1061158912	65	4854
2026-01-23 00:31:23.37	190.14	30.77	-49.4	-51.9	15.8	0.00e+00	0	45	0	1069547520	69	5080
2026-01-23 00:31:27.41	190.44	30.00	-47.6	-49.4	18.1	0.00e+00	0	45	0	1076887552	66	4531
2026-01-23 00:31:31.45	190.71	29.25	-46.4	-47.8	19.6	0.00e+00	0	44	0	1084227584	64	4224
2026-01-23 00:31:35.49	190.98	28.53	-46.3	-47.7	19.7	0.00e+00	0	44	0	1091567616	63	4425
2026-01-23 00:31:39.52	191.24	27.82	-46.6	-48.1	19.3	0.00e+00	0	45	0	1098907648	64	4345
2026-01-23 00:31:43.55	191.48	27.13	-46.3	-47.8	19.4	0.00e+00	0	45	0	1107296256	64	4221
2026-01-23 00:31:47.59	191.72	26.45	-45.1	-46.3	20.9	0.00e+00	0	45	0	1114636288	62	3987
2026-01-23 00:31:51.62	191.94	25.79	-44.3	-45.4	22.1	0.00e+00	0	45	0	1121976320	59	4267
2026-01-23 00:31:55.65	192.16	25.15	-43.4	-44.3	22.9	0.00e+00	0	44	0	1129316352	58	3995
2026-01-23 00:31:59.69	192.37	24.52	-43.6	-44.5	22.7	0.00e+00	0	44	0	1136656384	58	4098
2026-01-23 00:32:03.71	192.57	23.91	-43.9	-44.9	22.4	0.00e+00	0	44	0	1145044992	58	4272
2026-01-23 00:32:07.74	192.77	23.31	-44.4	-45.5	21.8	0.00e+00	0	45	0	1152385024	59	4334
2026-01-23 00:32:11.77	192.96	22.72	-44.6	-45.8	21.3	0.00e+00	0	44	0	1159725056	60	4213
2026-01-23 00:32:15.81	193.14	22.15	-45.1	-46.3	20.9	0.00e+00	0	44	0	1167065088	60	4448
2026-01-23 00:32:19.84	193.32	21.58	-45.0	-46.2	20.9	0.00e+00	0	44	0	1174405120	60	4410
2026-01-23 00:32:23.87	193.49	21.03	-44.2	-45.3	21.7	0.00e+00	0	44	0	1182793728	60	3998
2026-01-23 00:32:27.91	193.65	20.50	-44.4	-45.5	21.5	0.00e+00	0	44	0	1190133760	60	4078
2026-01-23 00:32:31.94	193.81	19.97	-44.4	-45.5	21.5	0.00e+00	0	44	0	1197473792	60	4087
2026-01-23 00:32:35.97	193.97	19.45	-44.4	-45.6	21.4	0.00e+00	0	44	0	1204813824	60	4103
2026-01-23 00:32:40.00	194.12	18.95	-44.2	-45.3	21.6	0.00e+00	0	44	0	1213202432	60	3982
2026-01-23 00:32:44.03	194.27	18.45	-44.3	-45.4	21.8	0.00e+00	0	44	0	1220542464	59	4261
2026-01-23 00:32:48.06	194.41	17.97	-44.3	-45.5	21.8	0.00e+00	0	44	0	1227882496	59	4292
2026-01-23 00:32:52.10	194.55	17.49	-44.2	-45.3	21.6	0.00e+00	0	44	0	1235222528	60	3999
2026-01-23 00:32:56.13	194.68	17.02	-44.9	-46.1	20.9	0.00e+00	0	44	0	1242562560	60	4391
2026-01-23 00:33:00.16	194.81	16.56	-45.5	-46.8	20.3	0.00e+00	0	44	0	1249902592	61	4472
2026-01-23 00:33:04.19	194.94	16.11	-45.9	-47.3	19.9	0.00e+00	0	44	0	1258291200	62	4443
2026-01-23 00:33:08.23	195.06	15.67	-46.0	-47.4	19.7	0.00e+00	0	44	0	1265631232	62	4517
2026-01-23 00:33:12.26	195.18	15.23	-46.2	-47.7	19.4	0.00e+00	0	44	0	1272971264	63	4417
2026-01-23 00:33:16.30	195.30	14.80	-46.2	-47.7	19.3	0.00e+00	0	44	0	1280311296	63	4409
2026-01-23 00:33:20.33	195.42	14.38	-46.3	-47.8	19.3	0.00e+00	0	44	0	1288699904	63	4480
2026-01-23 00:33:24.37	195.53	13.97	-46.2	-47.6	19.4	0.00e+00	0	44	0	1296039936	63	4385
2026-01-23 00:33:28.40	195.64	13.56	-46.5	-48.0	19.1	0.00e+00	0	45	0	1303379968	63	4573
2026-01-23 00:33:32.43	195.75	13.16	-46.2	-47.7	19.3	0.00e+00	0	44	0	1310720000	63	4404
2026-01-23 00:33:36.47	195.85	12.77	-46.2	-47.6	19.4	0.00e+00	0	44	0	1318060032	63	4389
2026-01-23 00:33:40.50	195.95	12.38	-46.1	-47.6	19.3	0.00e+00	0	44	0	1326448640	63	4383
2026-01-23 00:33:44.54	196.05	12.00	-46.1	-47.6	19.3	0.00e+00	0	44	0	1333788672	63	4377
2026-01-23 00:33:48.57	196.15	11.63	-46.1	-47.6	19.3	0.00e+00	0	44	0	1341128704	63	4367
2026-01-23 00:33:52.60	196.25	11.26	-46.0	-47.5	19.5	0.00e+00	0	44	0	1348468736	63	4301
2026-01-23 00:33:56.64	196.34	10.89	-45.9	-47.4	19.5	0.00e+00	0	44	0	1356857344	63	4272
2026-01-23 00:34:00.67	196.43	10.53	-45.9	-47.4	19.5	0.00e+00	0	44	0	1364197376	63	4254
2026-01-23 00:34:04.71	196.52	10.18	-46.0	-47.5	19.3	0.00e+00	0	44	0	1371537408	63	4340
2026-01-23 00:34:08.74	196.61	9.83	-45.8	-47.2	19.6	0.00e+00	0	44	0	1378877440	63	4174
2026-01-23 00:34:12.77	196.70	9.49	-45.6	-47.0	19.7	0.00e+00	0	44	0	1386217472	63	4076
2026-01-23 00:34:16.80	196.78	9.15	-45.5	-46.9	19.9	0.00e+00	0	44	0	1394606080	62	4244
2026-01-23 00:34:20.84	196.87	8.81	-45.5	-46.9	19.9	0.00e+00	0	44	0	1401946112	62	4246
2026-01-23 00:34:24.87	196.95	8.48	-45.3	-46.7	20.0	0.00e+00	0	44	0	1409286144	62	4155
2026-01-23 00:34:28.90	197.03	8.15	-45.1	-46.4	20.2	0.00e+00	0	44	0	1416626176	62	4017
2026-01-23 00:34:32.94	197.11	7.83	-45.1	-46.5	20.1	0.00e+00	0	44	0	1423966208	62	4055
2026-01-23 00:34:36.97	197.18	7.51	-45.1	-46.4	20.1	0.00e+00	0	44	0	1432354816	62	4031
2026-01-23 00:34:41.00	197.26	7.20	-45.2	-46.5	19.9	0.00e+00	0	44	0	1439694848	62	4096
2026-01-23 00:34:45.03	197.33	6.89	-45.1	-46.4	20.1	0.00e+00	0	44	0	1447034880	62	4017
2026-01-23 00:34:49.07	197.41	6.58	-45.2	-46.6	19.9	0.00e+00	0	44	0	1454374912	61	4343
2026-01-23 00:34:53.10	197.48	6.28	-45.4	-46.8	19.7	0.00e+00	0	44	0	1462763520	61	4454
2026-01-23 00:34:57.14	197.55	5.98	-45.3	-46.7	19.7	0.00e+00	0	44	0	1470103552	61	4397
2026-01-23 00:35:01.17	197.62	5.68	-45.1	-46.4	19.8	0.00e+00	0	44	0	1477443584	61	4290
2026-01-23 00:35:05.21	197.69	5.39	-45.4	-46.9	19.4	0.00e+00	0	44	0	1484783616	61	4504
2026-01-23 00:35:09.24	197.76	5.10	-45.5	-47.0	19.3	0.00e+00	0	44	0	1492123648	62	4308
2026-01-23 00:35:13.27	197.82	4.81	-48.8	-64.3	3.8	1.49e+00	0	44	104	1495269376	69	21158
2026-01-23 00:35:17.30	197.89	4.53	-48.8	-64.2	3.8	1.49e+00	0	44	104	1495269376	69	21007
2026-01-23 00:35:21.33	197.95	4.25	-48.7	-64.2	3.8	1.49e+00	0	44	104	1495269376	69	20989
2026-01-23 00:35:25.37	198.02	3.97	-48.3	-64.2	3.8	1.49e+00	0	44	104	1495269376	68	22154
2026-01-23 00:35:29.40	198.08	3.70	-48.5	-64.2	3.8	1.49e+00	0	45	104	1495269376	68	22231
2026-01-23 00:35:33.43	198.14	3.42	-48.6	-64.2	3.8	1.49e+00	0	45	104	1495269376	68	22208
2026-01-23 00:35:37.46	198.20	3.15	-48.7	-64.2	3.8	1.49e+00	0	44	104	1495269376	68	22214
2026-01-23 00:35:41.49	198.26	2.89	-48.4	-64.3	3.8	1.49e+00	0	44	104	1495269376	68	22278
2026-01-23 00:35:45.53	198.32	2.62	-48.5	-64.2	3.8	1.49e+00	0	44	104	1495269376	68	22200
2026-01-23 00:35:49.56	198.38	2.36	-48.8	-64.2	3.8	1.49e+00	0	45	104	1495269376	68	22185
2026-01-23 00:35:53.59	198.44	2.10	-48.7	-64.2	3.8	1.49e+00	0	44	104	1495269376	68	22211

#Closed at: 2026-01-23 00:35:56
#Recorded file [1495 MB]: D:/lorett/data/31041_260123_032126.dat