passes_logs/2026/01/23/R3.2S_Murmansk/R3.2S_Murmansk__20260123_121238_AQUA_rec.log

#Pass ID: 20260123_121238_AQUA
#Satellite: AQUA
#Configuration: AQUA
#almurnet v.1.7.20251203
#Start time: 2026-01-23 12:12:38

#Version: 2.2.20231116
#Station: R3.2S_Murmansk
#Location: 33.079688 lon 68.888172 lat
#TLE: 1 27424U 02022A   26022.49486490  .00002153  00000+0  44069-3 0  9997
#TLE: 2 27424  98.4099 349.0485 0001970  69.5876  43.4746 14.61847233261984

#Time	Az	El	Level	Level2	SNR	BER	BlckErr	Temp	State	Recorded	gain1	gain2
2026-01-23 12:12:38.18	175.66	1.96	-55.8	-73.6	3.8	7.44e-01	0	40	0	0	82	29097
2026-01-23 12:12:42.21	175.80	2.22	-56.0	-73.8	3.8	7.42e-01	0	40	104	0	82	29762
2026-01-23 12:12:46.25	175.94	2.49	-55.9	-73.7	3.8	7.45e-01	0	41	104	0	82	29491
2026-01-23 12:12:50.28	176.07	2.76	-55.8	-73.6	3.8	7.46e-01	0	40	104	0	82	29181
2026-01-23 12:12:54.32	176.22	3.03	-55.6	-73.4	3.8	7.44e-01	0	41	104	0	82	28427
2026-01-23 12:12:58.36	176.36	3.30	-55.2	-72.9	3.8	7.46e-01	0	40	104	0	82	26822
2026-01-23 12:13:02.39	176.51	3.58	-54.2	-70.9	3.8	7.43e-01	0	41	104	0	80	24023
2026-01-23 12:13:06.43	176.66	3.86	-54.2	-69.0	4.1	7.38e-01	0	41	104	0	80	19346
2026-01-23 12:13:10.46	176.81	4.14	-53.7	-62.8	7.9	6.48e-01	180	41	0	1572864	79	9988
2026-01-23 12:13:14.50	176.96	4.43	-50.4	-53.4	17.6	6.07e-01	0	41	0	9437184	72	5058
2026-01-23 12:13:18.53	177.12	4.72	-47.3	-49.0	22.2	6.07e-01	0	41	0	16777216	66	4296
2026-01-23 12:13:22.56	177.28	5.01	-47.1	-48.8	22.4	6.09e-01	0	41	0	24641536	65	4453
2026-01-23 12:13:26.59	177.45	5.31	-48.0	-49.8	21.7	6.04e-01	0	41	0	31981568	66	4752
2026-01-23 12:13:30.62	177.62	5.61	-47.1	-48.7	22.4	6.05e-01	0	42	0	39845888	65	4437
2026-01-23 12:13:34.65	177.79	5.91	-47.5	-49.3	22.0	6.04e-01	0	41	0	47185920	65	4728
2026-01-23 12:13:38.69	177.96	6.22	-47.0	-48.6	22.8	6.05e-01	0	41	0	55050240	65	4344
2026-01-23 12:13:42.71	178.14	6.53	-47.2	-48.9	22.5	6.06e-01	0	41	0	62390272	65	4499
2026-01-23 12:13:46.74	178.32	6.85	-46.2	-47.6	23.7	6.05e-01	0	42	0	69730304	64	4134
2026-01-23 12:13:50.78	178.51	7.17	-45.9	-47.3	24.1	6.06e-01	0	41	0	77594624	63	4203
2026-01-23 12:13:54.81	178.70	7.49	-45.9	-47.3	24.2	6.06e-01	0	42	0	84934656	63	4225
2026-01-23 12:13:58.85	178.90	7.82	-46.3	-47.7	23.8	6.07e-01	0	42	0	92274688	63	4408
2026-01-23 12:14:02.88	179.10	8.15	-45.8	-47.1	24.4	6.07e-01	0	42	0	100139008	63	4130
2026-01-23 12:14:06.91	179.30	8.49	-45.5	-46.8	24.7	6.07e-01	0	42	0	107479040	63	4001
2026-01-23 12:14:10.95	179.51	8.84	-45.8	-47.1	24.5	6.08e-01	0	42	0	115343360	63	4130
2026-01-23 12:14:14.98	179.73	9.18	-45.7	-47.0	24.5	6.06e-01	0	42	0	122683392	63	4089
2026-01-23 12:14:19.01	179.95	9.54	-45.7	-47.0	24.6	6.05e-01	0	42	0	130547712	62	4313
2026-01-23 12:14:23.05	180.17	9.90	-45.6	-46.9	24.7	6.06e-01	0	42	0	137887744	62	4265
2026-01-23 12:14:27.08	180.40	10.26	-45.3	-46.6	25.1	6.08e-01	0	42	0	145752064	62	4116
2026-01-23 12:14:31.11	180.64	10.63	-45.5	-46.8	24.8	6.06e-01	0	42	0	153092096	62	4222
2026-01-23 12:14:35.14	180.88	11.00	-45.3	-46.6	25.0	6.05e-01	0	42	0	160432128	62	4133
2026-01-23 12:14:39.17	181.13	11.39	-45.3	-46.5	25.1	6.07e-01	0	42	0	168296448	62	4085
2026-01-23 12:14:43.20	181.39	11.77	-45.1	-46.4	25.3	6.06e-01	0	42	0	175636480	62	4014
2026-01-23 12:14:47.24	181.65	12.17	-45.3	-46.6	25.1	6.05e-01	0	42	0	183500800	62	4121
2026-01-23 12:14:51.27	181.92	12.57	-45.2	-46.4	25.3	6.06e-01	0	42	0	190840832	62	4032
2026-01-23 12:14:55.30	182.20	12.98	-44.8	-46.0	25.7	6.04e-01	0	42	0	198180864	61	4074
2026-01-23 12:14:59.33	182.49	13.39	-44.8	-46.0	25.7	6.06e-01	0	42	0	206045184	61	4064
2026-01-23 12:15:03.36	182.78	13.82	-44.9	-46.1	25.6	6.05e-01	0	42	0	213385216	61	4136
2026-01-23 12:15:07.39	183.09	14.25	-44.6	-45.8	25.9	6.04e-01	0	42	0	221249536	61	3989
2026-01-23 12:15:11.43	183.40	14.69	-44.8	-46.0	25.8	6.06e-01	0	42	0	228589568	61	4052
2026-01-23 12:15:15.46	183.72	15.13	-44.6	-45.8	25.9	6.04e-01	0	42	0	235929600	61	3998
2026-01-23 12:15:19.49	184.05	15.59	-44.6	-45.7	25.9	6.04e-01	0	42	0	243793920	60	4189
2026-01-23 12:15:23.52	184.39	16.05	-44.6	-45.7	26.0	6.04e-01	0	42	0	251133952	60	4191
2026-01-23 12:15:27.56	184.75	16.52	-44.4	-45.6	26.1	6.06e-01	0	42	0	258998272	60	4118
2026-01-23 12:15:31.59	185.11	17.00	-44.5	-45.6	26.2	6.05e-01	0	42	0	266338304	60	4135
2026-01-23 12:15:35.62	185.49	17.50	-44.5	-45.6	26.1	6.05e-01	0	42	0	274202624	60	4144
2026-01-23 12:15:39.65	185.88	18.00	-44.4	-45.6	26.2	6.03e-01	0	42	0	281542656	60	4109
2026-01-23 12:15:43.68	186.28	18.51	-44.3	-45.4	26.3	6.04e-01	0	42	0	289406976	60	4048
2026-01-23 12:15:47.71	186.70	19.03	-44.4	-45.5	26.2	6.05e-01	0	42	0	296747008	60	4097
2026-01-23 12:15:51.75	187.13	19.57	-44.3	-45.4	26.4	6.05e-01	0	42	0	304087040	60	4050
2026-01-23 12:15:55.78	187.58	20.11	-44.6	-45.7	26.1	6.06e-01	0	42	0	311951360	60	4189
2026-01-23 12:15:59.81	188.04	20.67	-44.6	-45.7	26.1	6.06e-01	0	42	0	319291392	60	4187
2026-01-23 12:16:03.85	188.52	21.24	-44.5	-45.7	26.2	6.07e-01	0	42	0	326631424	60	4163
2026-01-23 12:16:07.88	189.02	21.82	-44.5	-45.6	26.2	6.05e-01	0	42	0	334495744	60	4138
2026-01-23 12:16:11.92	189.55	22.41	-44.6	-45.8	26.1	6.04e-01	0	42	0	341835776	60	4205
2026-01-23 12:16:15.95	190.09	23.02	-44.7	-45.9	26.0	6.04e-01	0	42	0	349700096	60	4280
2026-01-23 12:16:19.99	190.65	23.64	-44.8	-45.9	26.0	6.07e-01	0	42	0	357040128	60	4280
2026-01-23 12:16:24.02	191.23	24.27	-44.7	-45.9	26.0	6.04e-01	0	42	0	364904448	60	4272
2026-01-23 12:16:28.05	191.84	24.92	-44.8	-46.0	25.9	6.06e-01	0	42	0	372244480	60	4308
2026-01-23 12:16:32.08	192.48	25.58	-44.5	-45.6	26.3	6.07e-01	0	42	0	380108800	60	4125
2026-01-23 12:16:36.11	193.14	26.25	-44.6	-45.8	26.1	6.07e-01	0	42	0	387448832	60	4223
2026-01-23 12:16:40.14	193.84	26.94	-44.7	-45.9	26.1	6.06e-01	0	42	0	394788864	60	4271
2026-01-23 12:16:44.17	194.56	27.65	-44.5	-45.6	26.3	6.04e-01	0	42	0	402653184	60	4128
2026-01-23 12:16:48.21	195.32	28.37	-44.2	-45.3	26.7	6.05e-01	0	42	0	409993216	60	3968
2026-01-23 12:16:52.24	196.12	29.10	-44.5	-45.7	26.3	6.05e-01	0	42	0	417857536	60	4151
2026-01-23 12:16:56.27	196.95	29.85	-44.4	-45.5	26.4	6.06e-01	0	42	0	425197568	60	4082
2026-01-23 12:17:00.30	197.82	30.62	-44.3	-45.5	26.4	6.05e-01	0	42	0	433061888	60	4057
2026-01-23 12:17:04.33	198.73	31.40	-44.6	-45.8	26.3	6.05e-01	0	42	0	440401920	60	4212
2026-01-23 12:17:08.36	199.69	32.19	-44.6	-45.7	26.3	6.04e-01	0	42	0	447741952	60	4180
2026-01-23 12:17:12.39	200.70	33.00	-44.8	-46.0	26.1	6.06e-01	0	42	0	455606272	61	4053
2026-01-23 12:17:16.43	201.77	33.83	-45.0	-46.2	25.9	6.05e-01	0	42	0	462946304	61	4169
2026-01-23 12:17:20.46	202.89	34.66	-45.3	-46.6	25.5	6.05e-01	0	42	0	470286336	61	4349
2026-01-23 12:17:24.50	204.07	35.51	-45.5	-46.7	25.4	6.07e-01	0	42	0	478150656	62	4182
2026-01-23 12:17:28.53	205.31	36.37	-45.6	-46.9	25.3	6.06e-01	0	42	0	485490688	62	4267
2026-01-23 12:17:32.56	206.62	37.23	-45.6	-46.8	25.4	6.06e-01	0	42	0	493355008	62	4233
2026-01-23 12:17:36.59	208.00	38.11	-45.7	-46.9	25.3	6.05e-01	0	42	0	500695040	62	4279
2026-01-23 12:17:40.63	209.46	38.99	-45.7	-47.0	25.2	6.06e-01	0	42	0	508559360	62	4314
2026-01-23 12:17:44.66	211.00	39.87	-45.5	-46.7	25.5	6.03e-01	0	42	0	515899392	62	4177
2026-01-23 12:17:48.69	212.63	40.75	-44.9	-46.0	26.1	6.06e-01	0	42	0	523763712	61	4094
2026-01-23 12:17:52.72	214.34	41.62	-44.5	-45.6	26.5	6.05e-01	0	42	0	531103744	60	4125
2026-01-23 12:17:56.75	216.16	42.49	-44.0	-45.1	26.9	6.06e-01	0	42	0	538443776	60	3910
2026-01-23 12:18:00.78	218.07	43.35	-43.9	-45.0	26.9	6.07e-01	0	42	0	546308096	59	4077
2026-01-23 12:18:04.82	220.09	44.19	-44.0	-45.1	26.9	6.04e-01	0	42	0	553648128	59	4113
2026-01-23 12:18:08.85	222.22	45.01	-43.8	-44.9	27.1	6.07e-01	0	42	0	560988160	59	4025
2026-01-23 12:18:12.88	224.46	45.81	-43.7	-44.8	27.1	6.05e-01	0	42	0	568852480	59	3986
2026-01-23 12:18:16.91	226.81	46.57	-43.7	-44.8	27.1	6.05e-01	0	42	0	576192512	59	3980
2026-01-23 12:18:20.95	229.28	47.29	-43.9	-45.0	27.0	6.04e-01	0	42	0	584056832	59	4054
2026-01-23 12:18:24.98	231.85	47.96	-44.0	-45.0	27.0	6.03e-01	0	42	0	591396864	59	4098
2026-01-23 12:18:29.01	234.54	48.58	-44.2	-45.3	26.7	6.04e-01	0	42	0	599261184	59	4230
2026-01-23 12:18:33.04	237.33	49.13	-44.1	-45.2	26.9	6.04e-01	0	42	0	606601216	59	4190
2026-01-23 12:18:37.07	240.22	49.62	-44.2	-45.3	26.8	6.06e-01	0	42	0	613941248	59	4226
2026-01-23 12:18:41.10	243.20	50.04	-44.3	-45.4	26.8	6.04e-01	0	42	0	621805568	60	4026
2026-01-23 12:18:45.13	246.25	50.38	-44.8	-46.0	26.3	6.05e-01	0	42	0	629145600	60	4323
2026-01-23 12:18:49.17	249.37	50.64	-44.9	-46.0	26.3	6.05e-01	0	42	0	637009920	60	4335
2026-01-23 12:18:53.20	252.52	50.81	-44.5	-45.6	26.6	6.06e-01	0	42	0	644349952	61	3899
2026-01-23 12:18:57.23	255.71	50.89	-44.7	-45.9	26.4	6.04e-01	0	42	0	652214272	61	4014
2026-01-23 12:19:01.26	258.89	50.87	-44.7	-45.8	26.5	6.06e-01	0	42	0	659554304	61	3989
2026-01-23 12:19:05.29	262.07	50.77	-44.8	-45.9	26.5	6.05e-01	0	42	0	667418624	61	4026
2026-01-23 12:19:09.33	265.22	50.58	-45.0	-46.2	26.2	6.05e-01	0	42	0	674758656	61	4146
2026-01-23 12:19:13.36	268.32	50.30	-45.2	-46.4	26.0	6.05e-01	0	42	0	682098688	61	4267
2026-01-23 12:19:17.39	271.35	49.94	-45.2	-46.4	25.9	6.04e-01	0	42	0	689963008	61	4268
2026-01-23 12:19:21.42	274.30	49.51	-45.3	-46.5	25.9	6.05e-01	0	42	0	697303040	61	4299
2026-01-23 12:19:25.46	277.17	49.00	-45.2	-46.4	26.0	6.03e-01	0	42	0	704643072	61	4264
2026-01-23 12:19:29.49	279.93	48.42	-45.4	-46.6	25.8	6.07e-01	0	42	0	712507392	61	4364
2026-01-23 12:19:33.52	282.58	47.79	-45.3	-46.4	25.9	6.06e-01	0	42	0	719847424	61	4289
2026-01-23 12:19:37.55	285.13	47.11	-45.2	-46.3	26.0	6.05e-01	0	42	0	727711744	61	4235
2026-01-23 12:19:41.58	287.56	46.38	-45.1	-46.2	26.2	6.03e-01	0	42	0	735051776	61	4181
2026-01-23 12:19:45.62	289.88	45.61	-45.2	-46.3	26.1	6.04e-01	0	42	0	742916096	61	4232
2026-01-23 12:19:49.65	292.08	44.82	-45.1	-46.3	26.2	6.03e-01	0	42	0	750256128	61	4209
2026-01-23 12:19:53.68	294.18	43.99	-45.1	-46.2	26.2	6.01e-01	0	42	0	758120448	61	4175
2026-01-23 12:19:57.71	296.16	43.15	-45.2	-46.3	26.1	6.03e-01	0	42	0	765460480	61	4229
2026-01-23 12:20:01.74	298.05	42.29	-45.3	-46.5	26.0	6.02e-01	0	42	0	772800512	61	4321
2026-01-23 12:20:05.78	299.84	41.42	-45.4	-46.6	25.8	6.04e-01	0	42	0	780664832	61	4371
2026-01-23 12:20:09.81	301.53	40.55	-45.6	-46.9	25.5	6.03e-01	0	42	0	788004864	61	4503
2026-01-23 12:20:13.84	303.13	39.67	-45.6	-46.8	25.6	6.03e-01	0	42	0	795869184	62	4242
2026-01-23 12:20:17.88	304.64	38.79	-45.5	-46.7	25.7	6.04e-01	0	42	0	803209216	62	4162
2026-01-23 12:20:21.90	306.08	37.92	-45.2	-46.4	26.0	6.02e-01	0	42	0	810549248	62	4037
2026-01-23 12:20:25.94	307.44	37.05	-44.8	-46.0	26.3	6.05e-01	0	42	0	818413568	61	4064
2026-01-23 12:20:29.97	308.73	36.19	-44.4	-45.5	26.8	6.01e-01	0	42	0	825753600	60	4061
2026-01-23 12:20:34.00	309.95	35.34	-44.1	-45.2	27.0	6.02e-01	0	42	0	833617920	60	3934
2026-01-23 12:20:38.03	311.11	34.50	-43.9	-45.0	27.0	6.01e-01	0	42	0	840957952	59	4078
2026-01-23 12:20:42.07	312.22	33.67	-43.8	-44.9	27.1	6.00e-01	0	42	0	848297984	59	4013
2026-01-23 12:20:46.10	313.26	32.86	-43.4	-44.5	27.2	6.05e-01	0	42	0	856162304	58	4070
2026-01-23 12:20:50.13	314.26	32.05	-43.4	-44.4	27.5	6.02e-01	0	42	0	863502336	58	4045
2026-01-23 12:20:54.16	315.21	31.27	-43.4	-44.5	27.4	6.03e-01	0	42	0	871366656	58	4074
2026-01-23 12:20:58.19	316.11	30.49	-43.4	-44.5	27.3	6.02e-01	0	42	0	878706688	58	4065
2026-01-23 12:21:02.23	316.97	29.73	-43.7	-44.8	27.1	6.02e-01	0	42	0	886571008	58	4208
2026-01-23 12:21:06.26	317.79	28.99	-43.7	-44.7	27.1	6.02e-01	0	42	0	893911040	58	4188
2026-01-23 12:21:10.30	318.58	28.26	-43.8	-44.9	26.8	6.01e-01	0	43	0	901775360	58	4244
2026-01-23 12:21:14.33	319.33	27.55	-43.9	-45.0	26.9	6.03e-01	0	42	0	909115392	58	4302
2026-01-23 12:21:18.36	320.04	26.85	-44.3	-45.4	26.4	6.02e-01	0	42	0	916455424	59	4272
2026-01-23 12:21:22.40	320.73	26.16	-44.2	-45.3	26.5	6.02e-01	0	42	0	924319744	59	4238
2026-01-23 12:21:26.43	321.39	25.50	-44.3	-45.5	26.2	6.02e-01	0	42	0	931659776	59	4307
2026-01-23 12:21:30.46	322.01	24.84	-44.3	-45.4	26.4	6.01e-01	0	43	0	938999808	59	4257
2026-01-23 12:21:34.49	322.62	24.20	-44.6	-45.8	26.1	6.03e-01	0	42	0	946864128	59	4463
2026-01-23 12:21:38.52	323.20	23.57	-44.5	-45.7	26.2	6.01e-01	0	42	0	954204160	59	4414
2026-01-23 12:21:42.55	323.75	22.96	-44.5	-45.7	26.2	6.02e-01	0	42	0	962068480	59	4398
2026-01-23 12:21:46.58	324.29	22.36	-44.4	-45.5	26.2	6.03e-01	0	42	0	969408512	59	4303
2026-01-23 12:21:50.62	324.81	21.77	-44.4	-45.6	26.2	6.01e-01	0	42	0	977272832	59	4363
2026-01-23 12:21:54.65	325.30	21.20	-44.4	-45.6	26.2	6.03e-01	0	42	0	984612864	59	4362
2026-01-23 12:21:58.68	325.78	20.64	-44.1	-45.2	26.5	6.04e-01	0	42	0	992477184	59	4164
2026-01-23 12:22:02.71	326.24	20.08	-44.1	-45.2	26.5	6.03e-01	0	42	0	999817216	59	4179
2026-01-23 12:22:06.74	326.68	19.55	-44.0	-45.2	26.5	6.05e-01	0	42	0	1007157248	59	4148
2026-01-23 12:22:10.78	327.11	19.02	-44.0	-45.2	26.4	6.02e-01	0	42	0	1015021568	59	4154
2026-01-23 12:22:14.81	327.53	18.50	-43.9	-45.0	26.5	6.01e-01	0	43	0	1022361600	59	4073
2026-01-23 12:22:18.84	327.93	17.99	-43.9	-45.0	26.6	6.02e-01	0	43	0	1030225920	59	4056
2026-01-23 12:22:22.87	328.32	17.49	-43.9	-45.1	26.5	6.02e-01	0	43	0	1037565952	59	4103
2026-01-23 12:22:26.90	328.69	17.01	-44.1	-45.2	26.2	6.04e-01	0	43	0	1045430272	59	4166
2026-01-23 12:22:30.93	329.05	16.53	-44.0	-45.2	26.1	6.02e-01	0	43	0	1052770304	59	4150
2026-01-23 12:22:34.96	329.40	16.06	-44.0	-45.1	26.1	6.03e-01	0	42	0	1060110336	59	4133
2026-01-23 12:22:39.00	329.75	15.60	-43.9	-45.0	26.3	6.04e-01	0	43	0	1067974656	59	4080
2026-01-23 12:22:43.03	330.08	15.15	-44.1	-45.2	26.2	6.03e-01	0	43	0	1075314688	59	4183
2026-01-23 12:22:47.06	330.40	14.71	-44.1	-45.2	26.3	6.02e-01	0	42	0	1082654720	59	4180
2026-01-23 12:22:51.09	330.71	14.27	-44.0	-45.1	26.3	6.03e-01	0	43	0	1090519040	59	4139
2026-01-23 12:22:55.12	331.01	13.85	-44.1	-45.2	26.2	6.01e-01	0	43	0	1097859072	59	4174
2026-01-23 12:22:59.15	331.30	13.43	-44.1	-45.3	26.1	6.04e-01	0	42	0	1105723392	59	4207
2026-01-23 12:23:03.19	331.59	13.01	-44.3	-45.5	25.9	6.01e-01	0	43	0	1113063424	59	4312
2026-01-23 12:23:07.22	331.87	12.61	-44.4	-45.6	25.8	6.02e-01	0	43	0	1120927744	59	4385
2026-01-23 12:23:11.25	332.14	12.21	-44.1	-45.3	26.1	6.03e-01	0	43	0	1128267776	59	4214
2026-01-23 12:23:15.28	332.40	11.82	-44.4	-45.6	25.8	6.03e-01	0	43	0	1136132096	59	4366
2026-01-23 12:23:19.32	332.66	11.43	-44.6	-45.8	25.5	6.02e-01	0	43	0	1143472128	59	4491
2026-01-23 12:23:23.35	332.91	11.05	-44.6	-45.8	25.6	6.04e-01	0	43	0	1150812160	60	4237
2026-01-23 12:23:27.38	333.15	10.68	-44.6	-45.8	25.7	6.02e-01	0	43	0	1158676480	60	4199
2026-01-23 12:23:31.41	333.39	10.31	-44.4	-45.6	25.8	6.01e-01	0	43	0	1166016512	60	4142
2026-01-23 12:23:35.44	333.62	9.95	-44.6	-45.8	25.5	6.04e-01	0	42	0	1173356544	60	4236
2026-01-23 12:23:39.47	333.85	9.60	-44.7	-45.9	25.5	6.01e-01	0	43	0	1181220864	60	4283
2026-01-23 12:23:43.50	334.07	9.25	-44.8	-46.0	25.4	6.03e-01	0	43	0	1188560896	60	4320
2026-01-23 12:23:47.54	334.28	8.90	-44.9	-46.2	25.1	6.03e-01	0	43	0	1196425216	60	4408
2026-01-23 12:23:51.57	334.49	8.56	-44.8	-46.1	25.2	6.05e-01	0	43	0	1203765248	60	4358
2026-01-23 12:23:55.60	334.70	8.22	-45.0	-46.3	25.0	6.03e-01	0	43	0	1211629568	60	4472
2026-01-23 12:23:59.63	334.90	7.89	-45.4	-46.7	24.6	6.03e-01	0	43	0	1218969600	61	4428
2026-01-23 12:24:03.67	335.10	7.57	-45.4	-46.7	24.5	6.05e-01	0	43	0	1226309632	61	4423
2026-01-23 12:24:07.70	335.29	7.24	-45.5	-46.9	24.4	6.02e-01	0	43	0	1234173952	62	4256
2026-01-23 12:24:11.74	335.48	6.93	-45.3	-46.6	24.6	6.04e-01	0	43	0	1241513984	62	4122
2026-01-23 12:24:15.77	335.66	6.61	-45.6	-47.0	24.2	6.02e-01	0	43	0	1249378304	62	4309
2026-01-23 12:24:19.80	335.84	6.30	-45.9	-47.3	23.8	6.02e-01	0	43	0	1256718336	62	4484
2026-01-23 12:24:23.83	336.02	6.00	-46.1	-47.5	23.6	6.01e-01	0	43	0	1264582656	62	4598
2026-01-23 12:24:27.86	336.19	5.69	-46.0	-47.4	23.7	6.02e-01	0	43	0	1271922688	62	4534
2026-01-23 12:24:31.89	336.36	5.40	-46.4	-47.9	23.1	6.01e-01	0	43	0	1279787008	63	4529
2026-01-23 12:24:35.93	336.53	5.10	-46.4	-48.0	23.0	6.04e-01	0	43	0	1287127040	63	4557
2026-01-23 12:24:39.96	336.69	4.81	-54.8	-72.6	3.8	7.43e-01	0	43	104	1290272768	80	29118
2026-01-23 12:24:44.00	336.86	4.52	-55.2	-73.0	3.8	7.42e-01	0	43	104	1290272768	80	30638
2026-01-23 12:24:48.03	337.01	4.24	-55.2	-73.0	3.8	7.43e-01	0	43	104	1290272768	81	28785
2026-01-23 12:24:52.07	337.17	3.95	-55.0	-72.7	3.8	7.47e-01	0	43	104	1290272768	81	27985
2026-01-23 12:24:56.10	337.32	3.68	-55.1	-72.9	3.8	7.44e-01	0	43	104	1290272768	81	28593
2026-01-23 12:25:00.14	337.47	3.40	-55.1	-72.9	3.8	7.43e-01	0	43	104	1290272768	81	28466
2026-01-23 12:25:04.17	337.61	3.13	-55.0	-72.8	3.8	7.44e-01	0	43	104	1290272768	81	28314
2026-01-23 12:25:08.20	337.76	2.86	-55.0	-72.8	3.8	7.46e-01	0	43	104	1290272768	81	28289
2026-01-23 12:25:12.24	337.90	2.59	-55.0	-72.8	3.8	7.45e-01	0	43	104	1290272768	81	28297
2026-01-23 12:25:16.27	338.04	2.32	-55.0	-72.8	3.8	7.46e-01	0	43	104	1290272768	81	28211
2026-01-23 12:25:20.30	338.17	2.06	-55.0	-72.7	3.8	7.47e-01	0	43	104	1290272768	81	27927

#Closed at: 2026-01-23 12:25:22
#Recorded file [1290 MB]: D:/lorett/data/31041_260123_151237.dat