passes_logs/2026/01/23/R3.2S_Murmansk/R3.2S_Murmansk__20260123_061348_KANOPUS-V_5_rec.log

#Pass ID: 20260123_061348_KANOPUS-V 5
#Satellite: KANOPUS-V 5
#Configuration: KANOPUS-V_8320
#almurnet v.1.7.20251203
#Start time: 2026-01-23 06:13:48

#Version: 2.2.20231116
#Station: R3.2S_Murmansk
#Location: 33.079688 lon 68.888172 lat
#TLE: 1 43876U 18111A   26022.52701148  .00004818  00000+0  20478-3 0  9994
#TLE: 2 43876  97.3679 290.9053 0001819  88.4130 271.7316 15.23508812392615

#Time	Az	El	Level	Level2	SNR	BER	BlckErr	Temp	State	Recorded	gain1	gain2
2026-01-23 06:13:48.78	117.74	2.02	-55.2	-64.0	3.8	7.44e-01	0	41	0	0	81	10262
2026-01-23 06:13:51.81	117.56	2.23	-55.4	-64.2	3.8	7.46e-01	0	41	104	0	81	10448
2026-01-23 06:13:54.83	117.37	2.43	-55.3	-64.2	3.8	7.46e-01	0	41	104	0	81	10419
2026-01-23 06:13:57.85	117.19	2.64	-55.2	-64.1	3.8	7.46e-01	0	41	104	0	81	10295
2026-01-23 06:14:00.88	116.99	2.84	-55.1	-63.9	3.8	7.44e-01	0	42	104	0	81	10105
2026-01-23 06:14:03.90	116.80	3.05	-55.0	-63.8	3.8	7.46e-01	0	42	104	0	81	9995
2026-01-23 06:14:06.93	116.59	3.26	-54.9	-63.7	3.8	7.46e-01	0	42	104	0	81	9875
2026-01-23 06:14:09.95	116.39	3.48	-54.7	-63.5	3.8	7.45e-01	0	42	104	0	81	9699
2026-01-23 06:14:12.98	116.18	3.69	-54.5	-63.3	3.8	7.46e-01	0	42	104	0	81	9447
2026-01-23 06:14:16.00	115.97	3.91	-54.1	-63.0	3.8	7.46e-01	0	42	104	0	80	9638
2026-01-23 06:14:19.03	115.75	4.13	-53.4	-61.8	3.8	7.45e-01	0	42	104	0	78	9434
2026-01-23 06:14:22.06	115.53	4.35	-53.4	-61.9	3.8	7.45e-01	0	42	104	0	78	9540
2026-01-23 06:14:25.08	115.30	4.57	-51.8	-56.9	4.9	7.10e-01	0	42	104	0	75	6362
2026-01-23 06:14:28.11	115.07	4.80	-48.8	-51.8	9.1	6.25e-01	0	42	0	41943040	69	4999
2026-01-23 06:14:31.13	114.84	5.02	-47.7	-50.4	10.7	6.14e-01	0	42	0	88080384	67	4776
2026-01-23 06:14:34.16	114.59	5.25	-52.5	-58.7	4.2	7.35e-01	0	42	0	134217728	75	7829
2026-01-23 06:14:37.18	114.35	5.49	-46.4	-48.7	12.6	6.03e-01	0	43	0	182452224	64	4702
2026-01-23 06:14:40.21	114.10	5.72	-45.9	-48.2	13.2	6.04e-01	0	43	0	228589568	63	4653
2026-01-23 06:14:43.23	113.84	5.96	-45.8	-48.0	13.3	6.05e-01	0	43	0	274726912	63	4593
2026-01-23 06:14:46.25	113.58	6.20	-46.0	-48.2	13.2	6.04e-01	0	43	0	320864256	63	4703
2026-01-23 06:14:49.28	113.31	6.44	-45.5	-47.7	13.6	6.05e-01	0	43	0	369098752	62	4669
2026-01-23 06:14:52.31	113.04	6.68	-45.2	-47.3	14.0	6.01e-01	0	43	0	415236096	62	4478
2026-01-23 06:14:55.33	112.76	6.93	-45.2	-47.4	14.1	6.00e-01	0	43	0	461373440	62	4497
2026-01-23 06:14:58.36	112.47	7.18	-45.2	-47.3	14.1	6.03e-01	0	43	0	507510784	62	4486
2026-01-23 06:15:01.39	112.18	7.43	-45.2	-47.3	14.1	6.02e-01	0	43	0	553648128	62	4478
2026-01-23 06:15:04.42	111.88	7.69	-45.2	-47.4	14.1	6.05e-01	0	43	0	599785472	62	4501
2026-01-23 06:15:07.44	111.58	7.94	-45.0	-47.2	14.3	6.02e-01	0	43	0	645922816	61	4656
2026-01-23 06:15:10.47	111.26	8.21	-44.8	-46.9	14.5	6.03e-01	0	43	0	692060160	61	4518
2026-01-23 06:15:13.50	110.94	8.47	-44.6	-46.8	14.7	6.03e-01	0	43	0	740294656	61	4447
2026-01-23 06:15:16.52	110.61	8.74	-44.6	-46.8	14.6	6.02e-01	0	43	0	786432000	60	4706
2026-01-23 06:15:19.55	110.28	9.01	-44.3	-46.4	14.9	6.05e-01	0	43	0	832569344	60	4538
2026-01-23 06:15:22.58	109.93	9.28	-44.0	-46.2	15.2	5.99e-01	0	43	0	878706688	60	4393
2026-01-23 06:15:25.60	109.58	9.55	-44.1	-46.3	15.1	6.02e-01	0	43	0	924844032	59	4729
2026-01-23 06:15:28.63	109.22	9.83	-43.8	-45.9	15.4	6.02e-01	0	43	0	970981376	59	4517
2026-01-23 06:15:31.66	108.85	10.12	-43.7	-45.6	15.6	6.02e-01	0	43	0	1017118720	59	4384
2026-01-23 06:15:34.68	108.47	10.40	-43.7	-45.6	15.7	6.04e-01	0	43	0	1065353216	59	4360
2026-01-23 06:15:37.71	108.09	10.69	-43.4	-45.3	15.9	6.01e-01	0	43	0	1111490560	58	4466
2026-01-23 06:15:40.73	107.69	10.99	-43.1	-45.0	16.2	5.92e-01	0	44	0	1157627904	58	4327
2026-01-23 06:15:43.76	107.28	11.28	-43.2	-45.1	16.1	5.92e-01	0	43	0	1203765248	58	4346
2026-01-23 06:15:46.78	106.86	11.58	-42.9	-44.8	16.3	5.93e-01	0	43	0	1251999744	57	4474
2026-01-23 06:15:49.81	106.43	11.89	-44.0	-44.9	16.3	5.92e-01	0	43	0	1298137088	58	4263
2026-01-23 06:15:52.83	105.99	12.19	-54.2	-63.1	3.8	7.45e-01	0	44	104	1312817152	79	10317
2026-01-23 06:15:55.85	105.54	12.50	-54.3	-63.1	3.8	7.46e-01	0	43	104	1312817152	79	10345
2026-01-23 06:15:58.88	105.08	12.82	-54.3	-63.1	3.8	7.46e-01	0	44	104	1312817152	79	10380
2026-01-23 06:16:01.91	104.60	13.14	-54.3	-63.1	3.8	7.45e-01	0	44	104	1312817152	79	10361
2026-01-23 06:16:04.93	104.11	13.46	-54.3	-63.1	3.8	7.45e-01	0	44	104	1312817152	79	10387
2026-01-23 06:16:07.96	103.61	13.79	-54.3	-63.1	3.8	7.45e-01	0	44	104	1312817152	79	10380
2026-01-23 06:16:10.99	103.09	14.12	-54.3	-63.1	3.8	7.48e-01	0	44	104	1312817152	79	10385
2026-01-23 06:16:14.01	102.56	14.45	-54.3	-63.2	3.8	7.45e-01	0	43	104	1312817152	79	10422
2026-01-23 06:16:17.04	102.01	14.79	-54.3	-63.2	3.8	7.44e-01	0	43	104	1312817152	79	10424
2026-01-23 06:16:20.07	101.45	15.13	-54.3	-63.2	3.8	7.45e-01	0	43	104	1312817152	79	10461
2026-01-23 06:16:23.09	100.88	15.48	-54.3	-63.2	3.8	7.46e-01	0	43	104	1312817152	79	10439
2026-01-23 06:16:26.11	100.29	15.82	-54.4	-63.2	3.8	7.45e-01	0	44	104	1312817152	79	10523
2026-01-23 06:16:29.14	99.68	16.18	-54.4	-63.2	3.8	7.46e-01	0	44	104	1312817152	79	10434
2026-01-23 06:16:32.17	99.05	16.54	-54.4	-63.2	3.8	7.46e-01	0	44	104	1312817152	79	10474
2026-01-23 06:16:35.19	98.40	16.90	-54.4	-63.2	3.8	7.45e-01	0	44	104	1312817152	79	10511
2026-01-23 06:16:38.22	97.74	17.26	-54.4	-63.2	3.8	7.45e-01	0	44	104	1312817152	79	10505
2026-01-23 06:16:41.24	97.06	17.63	-54.4	-63.2	3.8	7.45e-01	0	44	104	1312817152	79	10497
2026-01-23 06:16:44.27	96.35	18.00	-54.4	-63.2	3.8	7.45e-01	0	44	104	1312817152	79	10502
2026-01-23 06:16:47.29	95.63	18.37	-54.4	-63.2	3.8	7.46e-01	0	44	104	1312817152	79	10512
2026-01-23 06:16:50.32	94.89	18.75	-54.4	-63.2	3.8	7.46e-01	0	43	104	1312817152	79	10508
2026-01-23 06:16:53.34	94.12	19.13	-54.4	-63.3	3.8	7.46e-01	0	44	104	1312817152	79	10537
2026-01-23 06:16:56.37	93.33	19.51	-54.4	-63.3	3.8	7.45e-01	0	44	104	1312817152	79	10544
2026-01-23 06:16:59.39	92.52	19.90	-54.4	-63.2	3.8	7.45e-01	0	44	104	1312817152	79	10518
2026-01-23 06:17:02.41	91.69	20.28	-54.5	-63.3	3.8	7.45e-01	0	44	104	1312817152	79	10567
2026-01-23 06:17:05.44	90.82	20.67	-54.5	-63.3	3.8	7.46e-01	0	44	104	1312817152	79	10568
2026-01-23 06:17:08.46	89.94	21.06	-54.5	-63.3	3.8	7.44e-01	0	44	104	1312817152	79	10565
2026-01-23 06:17:11.49	89.03	21.45	-54.5	-63.3	3.8	7.46e-01	0	44	104	1312817152	79	10561
2026-01-23 06:17:14.51	88.09	21.84	-54.5	-63.3	3.8	7.45e-01	0	44	104	1312817152	79	10551
2026-01-23 06:17:17.54	87.12	22.23	-54.5	-63.3	3.8	7.46e-01	0	44	104	1312817152	79	10607
2026-01-23 06:17:20.56	86.13	22.62	-54.5	-63.3	3.8	7.45e-01	0	44	104	1312817152	79	10592
2026-01-23 06:17:23.59	85.11	23.01	-54.5	-63.3	3.8	7.45e-01	0	44	104	1312817152	79	10625
2026-01-23 06:17:26.61	84.06	23.40	-54.5	-63.3	3.8	7.45e-01	0	44	104	1312817152	79	10639
2026-01-23 06:17:29.64	82.97	23.78	-54.5	-63.3	3.8	7.46e-01	0	44	104	1312817152	79	10625
2026-01-23 06:17:32.67	81.86	24.16	-54.5	-63.3	3.8	7.46e-01	0	44	104	1312817152	79	10650
2026-01-23 06:17:35.69	80.72	24.54	-54.5	-63.4	3.8	7.45e-01	0	44	104	1312817152	79	10686
2026-01-23 06:17:38.72	79.54	24.91	-54.6	-63.4	3.8	7.45e-01	0	44	104	1312817152	79	10722
2026-01-23 06:17:41.74	78.34	25.28	-54.6	-63.4	3.8	7.45e-01	0	44	104	1312817152	79	10705
2026-01-23 06:17:44.77	77.10	25.64	-54.6	-63.4	3.8	7.45e-01	0	44	104	1312817152	79	10700
2026-01-23 06:17:47.79	75.84	25.99	-54.6	-63.4	3.8	7.46e-01	0	44	104	1312817152	79	10738
2026-01-23 06:17:50.82	74.54	26.33	-54.6	-63.4	3.8	7.46e-01	0	44	104	1312817152	79	10763
2026-01-23 06:17:53.84	73.21	26.66	-54.6	-63.5	3.8	7.46e-01	0	44	104	1312817152	79	10784
2026-01-23 06:17:56.87	71.85	26.98	-54.6	-63.5	3.8	7.44e-01	0	44	104	1312817152	79	10807
2026-01-23 06:17:59.89	70.47	27.29	-54.6	-63.5	3.8	7.45e-01	0	44	104	1312817152	79	10802
2026-01-23 06:18:02.92	69.05	27.59	-54.6	-63.5	3.8	7.44e-01	0	44	104	1312817152	79	10793
2026-01-23 06:18:05.94	67.60	27.87	-54.6	-63.4	3.8	7.46e-01	0	44	104	1312817152	79	10760
2026-01-23 06:18:08.96	66.13	28.13	-54.7	-63.5	3.8	7.45e-01	0	44	104	1312817152	79	10794
2026-01-23 06:18:11.99	64.63	28.38	-54.7	-63.5	3.8	7.45e-01	0	44	104	1312817152	79	10801
2026-01-23 06:18:15.01	63.11	28.61	-54.7	-63.5	3.8	7.44e-01	0	44	104	1312817152	79	10826
2026-01-23 06:18:18.03	61.57	28.82	-54.7	-63.5	3.8	7.44e-01	0	44	104	1312817152	79	10800
2026-01-23 06:18:21.05	60.00	29.01	-54.6	-63.5	3.8	7.46e-01	0	44	104	1312817152	79	10794
2026-01-23 06:18:24.08	58.41	29.18	-54.7	-63.5	3.8	7.47e-01	0	44	104	1312817152	79	10805
2026-01-23 06:18:27.10	56.81	29.32	-54.7	-63.5	3.8	7.45e-01	0	44	104	1312817152	79	10819
2026-01-23 06:18:30.12	55.19	29.45	-54.7	-63.5	3.8	7.46e-01	0	44	104	1312817152	79	10820
2026-01-23 06:18:33.15	53.56	29.55	-54.6	-63.5	3.8	7.47e-01	0	44	104	1312817152	79	10818
2026-01-23 06:18:36.17	51.92	29.63	-54.7	-63.5	3.8	7.46e-01	0	44	104	1312817152	79	10821
2026-01-23 06:18:39.20	50.27	29.68	-54.7	-63.5	3.8	7.47e-01	0	44	104	1312817152	79	10819
2026-01-23 06:18:42.22	48.62	29.71	-54.7	-63.5	3.8	7.45e-01	0	44	104	1312817152	79	10820
2026-01-23 06:18:45.25	46.97	29.71	-54.7	-63.5	3.8	7.45e-01	0	44	104	1312817152	79	10789
2026-01-23 06:18:48.27	45.31	29.69	-54.7	-63.5	3.8	7.47e-01	0	44	104	1312817152	79	10838
2026-01-23 06:18:51.29	43.67	29.65	-54.7	-63.5	3.8	7.45e-01	0	44	104	1312817152	79	10822
2026-01-23 06:18:54.32	42.02	29.57	-54.7	-63.5	3.8	7.45e-01	0	44	104	1312817152	79	10814
2026-01-23 06:18:57.34	40.39	29.48	-54.6	-63.5	3.8	7.47e-01	0	44	104	1312817152	79	10779
2026-01-23 06:19:00.37	38.77	29.36	-54.7	-63.4	3.8	7.45e-01	0	44	104	1312817152	79	10772
2026-01-23 06:19:03.39	37.16	29.22	-54.7	-63.5	3.8	7.46e-01	0	44	104	1312817152	79	10808
2026-01-23 06:19:06.41	35.58	29.06	-54.7	-63.5	3.8	7.45e-01	0	44	104	1312817152	79	10845
2026-01-23 06:19:09.44	34.00	28.88	-54.7	-63.5	3.8	7.45e-01	0	44	104	1312817152	79	10818
2026-01-23 06:19:12.46	32.45	28.67	-54.6	-63.5	3.8	7.46e-01	0	44	104	1312817152	79	10782
2026-01-23 06:19:15.48	30.93	28.45	-54.6	-63.5	3.8	7.45e-01	0	44	104	1312817152	79	10813
2026-01-23 06:19:18.51	29.42	28.21	-54.7	-63.5	3.8	7.46e-01	0	44	104	1312817152	79	10812
2026-01-23 06:19:21.53	27.95	27.95	-54.6	-63.5	3.8	7.45e-01	0	44	104	1312817152	79	10782
2026-01-23 06:19:24.55	26.50	27.67	-54.6	-63.4	3.8	7.46e-01	0	44	104	1312817152	79	10752
2026-01-23 06:19:27.58	25.07	27.38	-54.6	-63.4	3.8	7.46e-01	0	44	104	1312817152	79	10776
2026-01-23 06:19:30.60	23.68	27.08	-54.6	-63.4	3.8	7.44e-01	0	44	104	1312817152	79	10756
2026-01-23 06:19:33.63	22.31	26.76	-54.6	-63.4	3.8	7.45e-01	0	44	104	1312817152	79	10751
2026-01-23 06:19:36.65	20.98	26.43	-54.6	-63.4	3.8	7.45e-01	0	44	104	1312817152	79	10739
2026-01-23 06:19:39.67	19.68	26.10	-54.6	-63.4	3.8	7.45e-01	0	44	104	1312817152	79	10775
2026-01-23 06:19:42.69	18.41	25.75	-54.6	-63.4	3.8	7.44e-01	0	44	104	1312817152	79	10717
2026-01-23 06:19:45.72	17.17	25.39	-54.6	-63.4	3.8	7.44e-01	0	44	104	1312817152	79	10766
2026-01-23 06:19:48.74	15.96	25.03	-54.6	-63.4	3.8	7.44e-01	0	44	104	1312817152	79	10719
2026-01-23 06:19:51.77	14.78	24.66	-54.6	-63.4	3.8	7.46e-01	0	44	104	1312817152	79	10696
2026-01-23 06:19:54.79	13.63	24.29	-54.6	-63.4	3.8	7.46e-01	0	44	104	1312817152	79	10716
2026-01-23 06:19:57.81	12.52	23.91	-54.6	-63.4	3.8	7.46e-01	0	44	104	1312817152	79	10707
2026-01-23 06:20:00.84	11.43	23.53	-54.5	-63.4	3.8	7.46e-01	0	44	104	1312817152	79	10699
2026-01-23 06:20:03.86	10.37	23.15	-54.5	-63.3	3.8	7.44e-01	0	44	104	1312817152	79	10618
2026-01-23 06:20:06.89	9.34	22.76	-54.5	-63.3	3.8	7.45e-01	0	44	104	1312817152	79	10636
2026-01-23 06:20:09.91	8.35	22.37	-54.5	-63.4	3.8	7.45e-01	0	44	104	1312817152	79	10659
2026-01-23 06:20:12.93	7.38	21.98	-54.5	-63.3	3.8	7.45e-01	0	44	104	1312817152	79	10615
2026-01-23 06:20:15.95	6.43	21.59	-54.5	-63.3	3.8	7.44e-01	0	44	104	1312817152	79	10612
2026-01-23 06:20:18.98	5.51	21.20	-54.5	-63.3	3.8	7.44e-01	0	44	104	1312817152	79	10582
2026-01-23 06:20:22.00	4.62	20.82	-54.5	-63.3	3.8	7.46e-01	0	44	104	1312817152	79	10618
2026-01-23 06:20:25.02	3.76	20.43	-54.4	-63.2	3.8	7.45e-01	0	44	104	1312817152	79	10530
2026-01-23 06:20:28.04	2.92	20.04	-54.5	-63.3	3.8	7.46e-01	0	44	104	1312817152	79	10577
2026-01-23 06:20:31.07	2.10	19.66	-54.4	-63.3	3.8	7.43e-01	0	44	104	1312817152	79	10535
2026-01-23 06:20:34.09	1.31	19.28	-54.4	-63.2	3.8	7.45e-01	0	44	104	1312817152	79	10528
2026-01-23 06:20:37.12	0.54	18.90	-54.4	-63.3	3.8	7.46e-01	0	44	104	1312817152	79	10568
2026-01-23 06:20:40.14	359.79	18.52	-54.4	-63.2	3.8	7.44e-01	0	44	104	1312817152	79	10460
2026-01-23 06:20:43.16	359.07	18.15	-54.4	-63.2	3.8	7.46e-01	0	44	104	1312817152	79	10466
2026-01-23 06:20:46.19	358.36	17.78	-54.4	-63.2	3.8	7.45e-01	0	44	104	1312817152	79	10485
2026-01-23 06:20:49.21	357.68	17.41	-54.3	-63.1	3.8	7.45e-01	0	44	104	1312817152	79	10362
2026-01-23 06:20:52.24	357.01	17.05	-54.3	-63.1	3.8	7.45e-01	0	44	104	1312817152	79	10407
2026-01-23 06:20:55.26	356.36	16.69	-54.3	-63.1	3.8	7.46e-01	0	44	104	1312817152	79	10382
2026-01-23 06:20:58.29	355.73	16.33	-54.3	-63.1	3.8	7.45e-01	0	44	104	1312817152	79	10390
2026-01-23 06:21:01.31	355.12	15.98	-54.3	-63.1	3.8	7.45e-01	0	44	104	1312817152	79	10389
2026-01-23 06:21:04.33	354.52	15.63	-54.3	-63.1	3.8	7.45e-01	0	44	104	1312817152	79	10363
2026-01-23 06:21:07.36	353.94	15.28	-54.3	-63.1	3.8	7.45e-01	0	44	104	1312817152	79	10308
2026-01-23 06:21:10.38	353.38	14.94	-54.2	-63.1	3.8	7.44e-01	0	44	104	1312817152	79	10325
2026-01-23 06:21:13.40	352.84	14.61	-54.2	-63.0	3.8	7.45e-01	0	44	104	1312817152	79	10292
2026-01-23 06:21:16.43	352.30	14.27	-54.2	-63.0	3.8	7.45e-01	0	44	104	1312817152	79	10252
2026-01-23 06:21:19.45	351.78	13.94	-54.2	-63.0	3.8	7.45e-01	0	44	104	1312817152	79	10188
2026-01-23 06:21:22.48	351.28	13.62	-54.2	-63.0	3.8	7.45e-01	0	44	104	1312817152	79	10220
2026-01-23 06:21:25.50	350.79	13.29	-54.2	-63.0	3.8	7.45e-01	0	44	104	1312817152	79	10207
2026-01-23 06:21:28.53	350.31	12.97	-54.1	-62.9	3.8	7.46e-01	0	44	104	1312817152	79	10146
2026-01-23 06:21:31.56	349.84	12.66	-54.1	-62.9	3.8	7.44e-01	0	44	104	1312817152	79	10130
2026-01-23 06:21:34.58	349.39	12.35	-54.1	-62.9	3.8	7.46e-01	0	44	104	1312817152	79	10105
2026-01-23 06:21:37.61	348.95	12.04	-54.1	-62.9	3.8	7.45e-01	0	44	104	1312817152	79	10113
2026-01-23 06:21:40.63	348.52	11.74	-54.0	-62.9	3.8	7.45e-01	0	44	104	1312817152	79	10091
2026-01-23 06:21:43.66	348.10	11.44	-54.0	-62.8	3.8	7.47e-01	0	44	104	1312817152	79	10014
2026-01-23 06:21:46.68	347.69	11.14	-54.0	-62.8	3.8	7.46e-01	0	44	104	1312817152	79	9996
2026-01-23 06:21:49.70	347.29	10.85	-54.0	-62.8	3.8	7.46e-01	0	44	104	1312817152	79	10032
2026-01-23 06:21:52.73	346.90	10.56	-54.0	-62.8	3.8	7.44e-01	0	44	104	1312817152	79	9968
2026-01-23 06:21:55.75	346.52	10.27	-53.9	-62.7	3.8	7.46e-01	0	44	104	1312817152	79	9921
2026-01-23 06:21:58.78	346.15	9.99	-53.9	-62.7	3.8	7.45e-01	0	44	104	1312817152	79	9881
2026-01-23 06:22:01.80	345.79	9.71	-53.9	-62.8	3.8	7.47e-01	0	44	104	1312817152	79	9956
2026-01-23 06:22:04.83	345.43	9.43	-53.9	-62.7	3.8	7.48e-01	0	44	104	1312817152	79	9897
2026-01-23 06:22:07.86	345.09	9.16	-53.8	-62.6	3.8	7.44e-01	0	44	104	1312817152	79	9770
2026-01-23 06:22:10.88	344.75	8.89	-53.7	-62.6	3.8	7.43e-01	0	44	104	1312817152	79	9754
2026-01-23 06:22:13.91	344.43	8.62	-53.8	-62.6	3.8	7.45e-01	0	44	104	1312817152	79	9779
2026-01-23 06:22:16.93	344.11	8.36	-53.8	-62.6	3.8	7.45e-01	0	44	104	1312817152	79	9756
2026-01-23 06:22:19.96	343.79	8.10	-53.7	-62.5	3.8	7.45e-01	0	44	104	1312817152	79	9667
2026-01-23 06:22:22.98	343.49	7.84	-53.6	-62.5	3.8	7.45e-01	0	44	104	1312817152	79	9620
2026-01-23 06:22:26.01	343.19	7.59	-53.7	-62.5	3.8	7.45e-01	0	44	104	1312817152	79	9714
2026-01-23 06:22:29.03	342.89	7.33	-53.7	-62.5	3.8	7.45e-01	0	44	104	1312817152	79	9662
2026-01-23 06:22:32.06	342.61	7.08	-53.5	-62.4	3.8	7.47e-01	0	44	104	1312817152	79	9526
2026-01-23 06:22:35.08	342.33	6.84	-53.5	-62.3	3.8	7.45e-01	0	44	104	1312817152	79	9460
2026-01-23 06:22:38.11	342.05	6.59	-53.6	-62.4	3.8	7.45e-01	0	44	104	1312817152	79	9535
2026-01-23 06:22:41.13	341.79	6.35	-53.5	-62.3	3.8	7.44e-01	0	44	104	1312817152	78	10058
2026-01-23 06:22:44.16	341.52	6.11	-53.4	-62.2	3.8	7.46e-01	0	44	104	1312817152	78	9900
2026-01-23 06:22:47.18	341.27	5.87	-53.3	-62.2	3.8	7.45e-01	0	44	104	1312817152	78	9833
2026-01-23 06:22:50.20	341.02	5.64	-53.4	-62.3	3.8	7.45e-01	0	44	104	1312817152	78	9952
2026-01-23 06:22:53.23	340.77	5.41	-53.4	-62.2	3.8	7.44e-01	0	44	104	1312817152	78	9879
2026-01-23 06:22:56.25	340.53	5.18	-53.2	-62.1	3.8	7.44e-01	0	44	104	1312817152	78	9745
2026-01-23 06:22:59.28	340.30	4.95	-53.7	-62.5	3.8	7.45e-01	0	44	104	1312817152	78	10279
2026-01-23 06:23:02.30	340.07	4.73	-54.4	-63.2	3.8	7.45e-01	0	44	104	1312817152	79	10513
2026-01-23 06:23:05.33	339.84	4.50	-54.7	-63.5	3.8	7.45e-01	0	44	104	1312817152	79	10858
2026-01-23 06:23:08.35	339.62	4.28	-54.7	-63.5	3.8	7.46e-01	0	44	104	1312817152	80	10215
2026-01-23 06:23:11.38	339.40	4.06	-54.5	-63.4	3.8	7.46e-01	0	44	104	1312817152	80	10092
2026-01-23 06:23:14.40	339.19	3.84	-54.4	-63.2	3.8	7.45e-01	0	44	104	1312817152	80	9933
2026-01-23 06:23:17.42	338.98	3.63	-54.5	-63.4	3.8	7.45e-01	0	44	104	1312817152	80	10075
2026-01-23 06:23:20.45	338.78	3.42	-54.5	-63.3	3.8	7.43e-01	0	44	104	1312817152	80	10026
2026-01-23 06:23:23.47	338.58	3.21	-54.5	-63.3	3.8	7.45e-01	0	44	104	1312817152	80	9993
2026-01-23 06:23:26.49	338.38	3.00	-54.5	-63.3	3.8	7.45e-01	0	44	104	1312817152	80	9981
2026-01-23 06:23:29.52	338.19	2.79	-54.5	-63.3	3.8	7.45e-01	0	44	104	1312817152	80	9953
2026-01-23 06:23:32.55	338.00	2.58	-54.4	-63.3	3.8	7.44e-01	0	44	104	1312817152	80	9960
2026-01-23 06:23:35.57	337.81	2.38	-54.4	-63.3	3.8	7.44e-01	0	44	104	1312817152	80	9962
2026-01-23 06:23:38.59	337.63	2.18	-54.4	-63.3	3.8	7.46e-01	0	44	104	1312817152	80	9950
2026-01-23 06:23:41.62	337.45	1.98	-54.4	-63.2	3.8	7.45e-01	0	44	104	1312817152	80	9932

#Closed at: 2026-01-23 06:23:41
#Recorded file [1312 MB]: D:/lorett/data/31041_260123_091348.dat