passes_logs/2026/01/23/R3.2S_Murmansk/R3.2S_Murmansk__20260123_085911_NOAA_20_JPSS-1_rec.log

#Pass ID: 20260123_085911_NOAA 20 (JPSS-1)
#Satellite: NOAA 20 (JPSS-1)
#Configuration: NOAA 20
#almurnet v.1.7.20251203
#Start time: 2026-01-23 08:59:11

#Version: 2.2.20231116
#Station: R3.2S_Murmansk
#Location: 33.079688 lon 68.888172 lat
#TLE: 1 43013U 17073A   26022.44900781  .00000193  00000+0  11233-3 0  9999
#TLE: 2 43013  98.7645 323.3100 0001197  28.8413 331.2829 14.19538802423792

#Time	Az	El	Level	Level2	SNR	BER	BlckErr	Temp	State	Recorded	gain1	gain2
2026-01-23 08:59:11.36	138.86	1.99	-54.4	-69.5	3.8	1.49e+00	0	41	0	0	79	21525
2026-01-23 08:59:15.40	138.82	2.25	-54.4	-69.4	3.8	1.49e+00	0	40	104	0	79	21460
2026-01-23 08:59:19.44	138.77	2.51	-54.6	-69.7	3.8	1.49e+00	0	41	104	0	79	22067
2026-01-23 08:59:23.47	138.72	2.77	-54.5	-69.5	3.8	1.49e+00	0	41	104	0	79	21723
2026-01-23 08:59:27.50	138.67	3.04	-54.4	-69.4	3.8	1.49e+00	0	41	104	0	79	21364
2026-01-23 08:59:31.54	138.62	3.31	-54.1	-69.1	3.8	1.49e+00	0	41	104	0	79	20669
2026-01-23 08:59:35.57	138.57	3.58	-53.6	-68.6	3.8	1.49e+00	0	41	104	0	79	19407
2026-01-23 08:59:39.60	138.52	3.86	-52.6	-67.4	3.8	1.49e+00	0	41	104	0	77	19057
2026-01-23 08:59:43.64	138.47	4.13	-52.2	-62.1	4.9	1.24e+00	0	41	0	0	76	10940
2026-01-23 08:59:47.67	138.42	4.41	-50.4	-54.8	11.5	3.54e-03	0	42	0	7340032	72	5991
2026-01-23 08:59:51.70	138.36	4.70	-48.3	-50.8	15.8	0.00e+00	0	42	0	15728640	68	4718
2026-01-23 08:59:55.73	138.30	4.98	-47.7	-49.9	16.6	0.00e+00	0	42	0	23068672	67	4515
2026-01-23 08:59:59.76	138.24	5.27	-48.0	-50.3	16.3	2.56e-03	0	42	0	30408704	68	4457
2026-01-23 09:00:03.80	138.18	5.56	-47.2	-49.2	17.4	0.00e+00	0	42	0	37748736	66	4407
2026-01-23 09:00:07.83	138.12	5.86	-47.0	-48.9	17.7	0.00e+00	0	42	0	45088768	65	4521
2026-01-23 09:00:11.87	138.06	6.16	-47.0	-48.8	17.9	0.00e+00	0	42	0	53477376	65	4475
2026-01-23 09:00:15.90	138.00	6.46	-47.0	-48.8	17.9	0.00e+00	0	42	0	60817408	65	4483
2026-01-23 09:00:19.94	137.93	6.77	-47.1	-48.9	17.9	0.00e+00	0	42	0	68157440	65	4526
2026-01-23 09:00:23.97	137.86	7.08	-47.3	-49.1	17.7	0.00e+00	0	42	0	75497472	65	4644
2026-01-23 09:00:28.01	137.79	7.39	-47.0	-48.8	18.1	0.00e+00	0	42	0	83886080	65	4449
2026-01-23 09:00:32.03	137.72	7.70	-46.5	-48.1	18.7	0.00e+00	0	42	0	91226112	65	4131
2026-01-23 09:00:36.07	137.65	8.03	-46.4	-48.0	18.9	0.00e+00	0	42	0	98566144	64	4297
2026-01-23 09:00:40.10	137.57	8.35	-46.5	-48.1	18.8	0.00e+00	0	42	0	105906176	64	4353
2026-01-23 09:00:44.13	137.50	8.68	-46.5	-48.1	18.8	0.00e+00	0	42	0	113246208	64	4386
2026-01-23 09:00:48.16	137.42	9.01	-46.2	-47.7	19.3	0.00e+00	0	42	0	120586240	64	4173
2026-01-23 09:00:52.19	137.34	9.35	-46.2	-47.7	19.4	0.00e+00	0	42	0	128974848	63	4407
2026-01-23 09:00:56.23	137.25	9.69	-45.9	-47.3	19.8	0.00e+00	0	42	0	136314880	63	4220
2026-01-23 09:01:00.26	137.17	10.04	-45.9	-47.3	19.8	0.00e+00	0	42	0	143654912	63	4217
2026-01-23 09:01:04.29	137.08	10.39	-45.9	-47.3	19.9	0.00e+00	0	42	0	150994944	63	4206
2026-01-23 09:01:08.32	136.99	10.75	-45.9	-47.3	19.8	0.00e+00	0	42	0	159383552	63	4237
2026-01-23 09:01:12.35	136.89	11.11	-45.6	-47.0	20.2	0.00e+00	0	42	0	166723584	63	4067
2026-01-23 09:01:16.38	136.80	11.48	-45.6	-46.9	20.3	0.00e+00	0	42	0	174063616	63	4022
2026-01-23 09:01:20.42	136.70	11.85	-45.4	-46.7	20.4	0.00e+00	0	42	0	181403648	62	4191
2026-01-23 09:01:24.45	136.60	12.23	-45.3	-46.6	20.6	0.00e+00	0	42	0	188743680	62	4102
2026-01-23 09:01:28.48	136.49	12.61	-45.2	-46.5	20.7	0.00e+00	0	42	0	197132288	62	4061
2026-01-23 09:01:32.52	136.38	13.01	-45.3	-46.5	20.7	0.00e+00	0	42	0	204472320	62	4094
2026-01-23 09:01:36.55	136.27	13.40	-45.1	-46.4	20.9	0.00e+00	0	42	0	211812352	62	4006
2026-01-23 09:01:40.59	136.16	13.81	-45.0	-46.2	21.0	0.00e+00	0	42	0	219152384	62	3954
2026-01-23 09:01:44.62	136.04	14.22	-44.9	-46.1	21.2	0.00e+00	0	42	0	227540992	61	4109
2026-01-23 09:01:48.65	135.92	14.63	-44.8	-46.0	21.3	0.00e+00	0	42	0	234881024	61	4059
2026-01-23 09:01:52.68	135.79	15.06	-44.8	-46.0	21.3	0.00e+00	0	42	0	242221056	61	4052
2026-01-23 09:01:56.72	135.66	15.49	-44.7	-45.8	21.4	0.00e+00	0	42	0	249561088	61	4000
2026-01-23 09:02:00.75	135.53	15.93	-44.5	-45.7	21.6	0.00e+00	0	42	0	256901120	61	3919
2026-01-23 09:02:04.78	135.39	16.37	-44.6	-45.7	21.6	0.00e+00	0	42	0	265289728	61	3945
2026-01-23 09:02:08.81	135.25	16.83	-44.7	-45.8	21.5	0.00e+00	0	43	0	272629760	61	3993
2026-01-23 09:02:12.85	135.10	17.29	-44.6	-45.7	21.6	0.00e+00	0	42	0	279969792	60	4180
2026-01-23 09:02:16.88	134.95	17.76	-44.5	-45.6	21.7	0.00e+00	0	42	0	287309824	60	4129
2026-01-23 09:02:20.91	134.79	18.24	-44.4	-45.5	21.8	0.00e+00	0	43	0	294649856	60	4093
2026-01-23 09:02:24.94	134.63	18.73	-44.5	-45.6	21.7	0.00e+00	0	43	0	303038464	60	4122
2026-01-23 09:02:28.97	134.46	19.23	-44.4	-45.6	21.8	0.00e+00	0	42	0	310378496	60	4100
2026-01-23 09:02:33.00	134.28	19.74	-44.3	-45.4	21.9	0.00e+00	0	42	0	317718528	60	4051
2026-01-23 09:02:37.04	134.10	20.26	-44.4	-45.5	21.8	0.00e+00	0	43	0	325058560	60	4097
2026-01-23 09:02:41.07	133.91	20.79	-44.3	-45.4	22.0	0.00e+00	0	43	0	333447168	60	4024
2026-01-23 09:02:45.11	133.71	21.34	-44.3	-45.3	22.0	0.00e+00	0	42	0	340787200	60	4000
2026-01-23 09:02:49.14	133.51	21.89	-44.3	-45.4	22.0	0.00e+00	0	42	0	348127232	60	4020
2026-01-23 09:02:53.17	133.30	22.45	-44.4	-45.4	21.9	0.00e+00	0	43	0	355467264	60	4050
2026-01-23 09:02:57.20	133.08	23.03	-44.5	-45.6	21.9	0.00e+00	0	42	0	362807296	60	4106
2026-01-23 09:03:01.24	132.85	23.62	-44.6	-45.7	21.8	0.00e+00	0	43	0	371195904	60	4175
2026-01-23 09:03:05.27	132.61	24.23	-44.7	-45.8	21.7	0.00e+00	0	43	0	378535936	60	4214
2026-01-23 09:03:09.29	132.37	24.84	-45.0	-46.2	21.3	0.00e+00	0	43	0	385875968	60	4406
2026-01-23 09:03:13.33	132.11	25.47	-45.2	-46.4	21.2	0.00e+00	0	43	0	393216000	61	4244
2026-01-23 09:03:17.36	131.84	26.12	-45.5	-46.7	20.9	0.00e+00	0	43	0	400556032	61	4405
2026-01-23 09:03:21.40	131.55	26.78	-45.9	-47.2	20.5	0.00e+00	0	42	0	408944640	62	4404
2026-01-23 09:03:25.43	131.26	27.46	-46.5	-47.9	19.8	0.00e+00	0	43	0	416284672	63	4497
2026-01-23 09:03:29.46	130.95	28.15	-47.0	-48.6	19.0	0.00e+00	0	43	0	423624704	64	4623
2026-01-23 09:03:33.49	130.63	28.86	-47.5	-49.2	18.5	0.00e+00	0	43	0	430964736	65	4668
2026-01-23 09:03:37.52	130.29	29.58	-47.6	-49.3	18.4	0.00e+00	0	43	0	438304768	65	4737
2026-01-23 09:03:41.55	129.94	30.33	-47.7	-49.4	18.3	0.00e+00	0	43	0	446693376	66	4514
2026-01-23 09:03:45.59	129.57	31.09	-48.1	-50.0	17.7	0.00e+00	0	43	0	454033408	66	4842
2026-01-23 09:03:49.62	129.18	31.87	-48.5	-50.5	17.2	0.00e+00	0	43	0	461373440	67	4818
2026-01-23 09:03:53.65	128.77	32.67	-48.7	-50.8	17.0	0.00e+00	0	43	0	468713472	68	4730
2026-01-23 09:03:57.68	128.34	33.49	-49.0	-51.2	16.7	0.00e+00	0	43	0	477102080	68	4940
2026-01-23 09:04:01.72	127.88	34.34	-48.9	-51.0	16.8	0.00e+00	0	43	0	484442112	68	4867
2026-01-23 09:04:05.75	127.40	35.20	-48.9	-51.0	16.9	0.00e+00	0	43	0	491782144	68	4821
2026-01-23 09:04:09.78	126.90	36.08	-49.1	-51.3	16.6	0.00e+00	0	43	0	499122176	68	5028
2026-01-23 09:04:13.81	126.36	36.99	-49.5	-51.9	16.0	0.00e+00	0	43	0	506462208	69	5096
2026-01-23 09:04:17.84	125.79	37.92	-48.8	-50.9	17.0	0.00e+00	0	43	0	513802240	69	4502
2026-01-23 09:04:21.87	125.19	38.87	-48.9	-51.0	16.9	0.00e+00	0	43	0	522190848	69	4587
2026-01-23 09:04:25.90	124.55	39.84	-48.2	-50.0	17.9	0.00e+00	0	43	0	529530880	68	4318
2026-01-23 09:04:29.94	123.87	40.84	-47.6	-49.2	18.6	0.00e+00	0	43	0	536870912	67	4180
2026-01-23 09:04:33.97	123.14	41.86	-47.2	-48.7	19.2	0.00e+00	0	43	0	544210944	66	4153
2026-01-23 09:04:38.00	122.37	42.90	-47.2	-48.7	19.1	0.00e+00	0	43	0	552599552	66	4187
2026-01-23 09:04:42.03	121.54	43.97	-46.7	-48.1	19.7	0.00e+00	0	43	0	559939584	65	4132
2026-01-23 09:04:46.07	120.66	45.06	-46.0	-47.3	20.5	0.00e+00	0	43	0	567279616	64	3983
2026-01-23 09:04:50.10	119.70	46.17	-46.4	-47.7	20.2	0.00e+00	0	43	0	574619648	63	4432
2026-01-23 09:04:54.13	118.68	47.30	-46.1	-47.3	20.6	0.00e+00	0	43	0	581959680	63	4229
2026-01-23 09:04:58.17	117.58	48.46	-46.6	-47.9	20.0	0.00e+00	0	43	0	590348288	63	4539
2026-01-23 09:05:02.20	116.39	49.63	-46.0	-47.3	20.6	0.00e+00	0	43	0	597688320	63	4228
2026-01-23 09:05:06.24	115.11	50.82	-45.0	-46.1	21.8	0.00e+00	0	43	0	605028352	61	4115
2026-01-23 09:05:10.27	113.72	52.02	-44.6	-45.7	22.2	0.00e+00	0	43	0	612368384	61	3919
2026-01-23 09:05:14.30	112.21	53.23	-44.6	-45.7	22.1	0.00e+00	0	43	0	620756992	60	4160
2026-01-23 09:05:18.33	110.57	54.45	-45.5	-46.7	21.2	0.00e+00	0	43	0	628097024	61	4408
2026-01-23 09:05:22.36	108.78	55.67	-47.3	-48.9	19.1	0.00e+00	0	43	0	635437056	65	4507
2026-01-23 09:05:26.39	106.83	56.89	-48.4	-50.3	17.6	0.00e+00	0	43	0	642777088	67	4754
2026-01-23 09:05:30.42	104.69	58.10	-48.3	-50.1	17.8	0.00e+00	0	43	0	650117120	67	4647
2026-01-23 09:05:34.45	102.36	59.29	-47.5	-49.0	18.9	0.00e+00	0	43	0	657457152	66	4339
2026-01-23 09:05:38.49	99.79	60.46	-46.0	-47.3	20.7	0.00e+00	0	43	0	665845760	63	4210
2026-01-23 09:05:42.52	96.99	61.59	-44.3	-45.3	22.5	0.00e+00	0	43	0	673185792	60	3995
2026-01-23 09:05:46.55	93.93	62.68	-44.5	-45.5	22.4	0.00e+00	0	43	0	680525824	60	4076
2026-01-23 09:05:50.58	90.59	63.70	-44.2	-45.2	22.8	0.00e+00	0	43	0	687865856	59	4189
2026-01-23 09:05:54.62	86.94	64.65	-44.6	-45.6	22.3	0.00e+00	0	43	0	696254464	60	4122
2026-01-23 09:05:58.65	82.99	65.52	-45.7	-46.9	21.1	0.00e+00	0	43	0	703594496	61	4532
2026-01-23 09:06:02.68	78.75	66.27	-46.6	-48.0	19.9	0.00e+00	0	43	0	710934528	65	4083
2026-01-23 09:06:06.71	74.22	66.91	-47.3	-48.8	19.2	0.00e+00	0	43	0	718274560	65	4474
2026-01-23 09:06:10.74	69.44	67.41	-47.7	-49.3	18.6	0.00e+00	0	43	0	725614592	66	4485
2026-01-23 09:06:14.77	64.46	67.76	-46.9	-48.3	19.7	0.00e+00	0	43	0	734003200	65	4231
2026-01-23 09:06:18.81	59.33	67.95	-47.5	-49.1	19.0	0.00e+00	0	43	0	741343232	65	4621
2026-01-23 09:06:22.84	54.17	67.97	-48.2	-50.0	18.1	0.00e+00	0	43	0	748683264	66	4821
2026-01-23 09:06:26.87	49.03	67.83	-47.2	-48.6	19.4	0.00e+00	0	43	0	756023296	66	4135
2026-01-23 09:06:30.90	44.01	67.53	-47.7	-49.3	18.8	0.00e+00	0	43	0	763363328	66	4453
2026-01-23 09:06:34.93	39.16	67.08	-46.7	-48.1	19.7	0.00e+00	0	43	0	771751936	65	4141
2026-01-23 09:06:38.96	34.55	66.49	-46.6	-47.9	20.1	0.00e+00	0	43	0	779091968	64	4291
2026-01-23 09:06:43.00	30.21	65.76	-45.5	-46.7	21.3	0.00e+00	0	43	0	786432000	62	4153
2026-01-23 09:06:47.03	26.17	64.94	-44.4	-45.4	22.5	0.00e+00	0	42	0	793772032	60	4036
2026-01-23 09:06:51.06	22.44	64.01	-44.8	-45.9	22.1	0.00e+00	0	43	0	801112064	60	4256
2026-01-23 09:06:55.09	19.01	63.01	-45.1	-46.2	21.7	0.00e+00	0	43	0	809500672	60	4428
2026-01-23 09:06:59.12	15.86	61.94	-46.5	-47.8	20.3	0.00e+00	0	43	0	816840704	63	4464
2026-01-23 09:07:03.15	12.98	60.83	-47.3	-48.8	19.1	0.00e+00	0	43	0	824180736	65	4480
2026-01-23 09:07:07.19	10.35	59.67	-47.7	-49.4	18.6	0.00e+00	0	43	0	831520768	66	4516
2026-01-23 09:07:11.22	7.95	58.49	-48.3	-50.1	18.0	0.00e+00	0	43	0	839909376	67	4619
2026-01-23 09:07:15.25	5.76	57.29	-47.7	-49.4	18.6	0.00e+00	0	43	0	847249408	67	4251
2026-01-23 09:07:19.28	3.75	56.07	-46.4	-47.8	20.1	0.00e+00	0	43	0	854589440	64	4198
2026-01-23 09:07:23.32	1.91	54.85	-45.4	-46.6	21.4	0.00e+00	0	43	0	861929472	62	4121
2026-01-23 09:07:27.35	0.23	53.64	-45.0	-46.1	21.7	0.00e+00	0	43	0	869269504	61	4139
2026-01-23 09:07:31.38	358.68	52.42	-45.1	-46.2	21.7	0.00e+00	0	43	0	877658112	61	4173
2026-01-23 09:07:35.41	357.26	51.22	-45.6	-46.8	21.1	0.00e+00	0	43	0	884998144	61	4468
2026-01-23 09:07:39.44	355.95	50.04	-46.5	-47.9	20.2	0.00e+00	0	43	0	892338176	63	4502
2026-01-23 09:07:43.47	354.73	48.86	-47.1	-48.5	19.3	0.00e+00	0	43	0	899678208	64	4597
2026-01-23 09:07:47.51	353.60	47.70	-46.6	-48.0	19.9	0.00e+00	0	43	0	907018240	64	4313
2026-01-23 09:07:51.54	352.56	46.57	-47.4	-48.9	19.0	0.00e+00	0	43	0	915406848	65	4537
2026-01-23 09:07:55.57	351.59	45.45	-47.3	-48.9	19.1	0.00e+00	0	43	0	922746880	66	4251
2026-01-23 09:07:59.61	350.68	44.36	-46.9	-48.4	19.6	0.00e+00	0	43	0	930086912	65	4258
2026-01-23 09:08:03.64	349.84	43.29	-48.4	-50.2	17.7	0.00e+00	0	43	0	937426944	67	4697
2026-01-23 09:08:07.67	349.05	42.24	-48.5	-50.4	17.6	0.00e+00	0	43	0	945815552	67	4779
2026-01-23 09:08:11.70	348.31	41.22	-48.9	-50.9	17.2	0.00e+00	0	43	0	953155584	68	4794
2026-01-23 09:08:15.73	347.62	40.21	-48.7	-50.7	17.4	0.00e+00	0	43	0	960495616	68	4674
2026-01-23 09:08:19.77	346.97	39.23	-48.5	-50.4	17.6	0.00e+00	0	43	0	967835648	68	4534
2026-01-23 09:08:23.80	346.36	38.28	-48.1	-49.8	18.2	0.00e+00	0	43	0	975175680	68	4217
2026-01-23 09:08:27.83	345.78	37.35	-48.1	-49.9	18.0	0.00e+00	0	43	0	983564288	67	4507
2026-01-23 09:08:31.86	345.24	36.44	-47.4	-49.0	18.9	0.00e+00	0	43	0	990904320	66	4329
2026-01-23 09:08:35.90	344.72	35.55	-47.6	-49.2	18.6	0.00e+00	0	43	0	998244352	66	4431
2026-01-23 09:08:39.93	344.23	34.68	-47.4	-49.0	18.9	0.00e+00	0	43	0	1005584384	66	4328
2026-01-23 09:08:43.96	343.77	33.84	-48.0	-49.8	18.2	0.00e+00	0	43	0	1012924416	66	4718
2026-01-23 09:08:47.99	343.34	33.01	-48.3	-50.1	17.6	0.00e+00	0	43	0	1021313024	67	4646
2026-01-23 09:08:52.02	342.92	32.21	-49.1	-51.3	16.6	0.00e+00	0	43	0	1028653056	68	5032
2026-01-23 09:08:56.05	342.53	31.42	-49.5	-51.9	16.0	0.00e+00	0	43	0	1035993088	69	5062
2026-01-23 09:09:00.09	342.15	30.65	-49.5	-51.9	16.0	0.00e+00	0	43	0	1043333120	69	5083
2026-01-23 09:09:04.11	341.79	29.91	-49.4	-51.7	16.2	0.00e+00	0	43	0	1050673152	69	4953
2026-01-23 09:09:08.15	341.45	29.18	-49.0	-51.1	16.8	0.00e+00	0	43	0	1059061760	69	4628
2026-01-23 09:09:12.18	341.13	28.46	-48.7	-50.8	17.2	0.00e+00	0	43	0	1066401792	69	4448
2026-01-23 09:09:16.21	340.82	27.77	-48.5	-50.4	17.4	0.00e+00	0	43	0	1073741824	68	4527
2026-01-23 09:09:20.24	340.52	27.09	-48.2	-50.1	17.7	0.00e+00	0	43	0	1081081856	68	4347
2026-01-23 09:09:24.28	340.23	26.42	-47.7	-49.4	18.3	0.00e+00	0	43	0	1089470464	67	4284
2026-01-23 09:09:28.31	339.96	25.78	-47.3	-49.0	18.7	0.00e+00	0	43	0	1096810496	66	4301
2026-01-23 09:09:32.34	339.70	25.14	-47.4	-49.1	18.5	0.00e+00	0	43	0	1104150528	66	4353
2026-01-23 09:09:36.37	339.45	24.52	-47.5	-49.1	18.5	0.00e+00	0	43	0	1111490560	66	4391
2026-01-23 09:09:40.40	339.21	23.92	-46.9	-48.5	19.0	0.00e+00	0	43	0	1118830592	65	4309
2026-01-23 09:09:44.43	338.98	23.32	-46.3	-47.6	19.9	0.00e+00	0	43	0	1126170624	64	4141
2026-01-23 09:09:48.46	338.76	22.74	-46.0	-47.3	20.3	0.00e+00	0	43	0	1134559232	63	4215
2026-01-23 09:09:52.49	338.55	22.18	-45.9	-47.3	20.3	0.00e+00	0	43	0	1141899264	63	4199
2026-01-23 09:09:56.53	338.34	21.62	-46.0	-47.3	20.2	0.00e+00	0	43	0	1149239296	63	4241
2026-01-23 09:10:00.56	338.15	21.08	-46.1	-47.4	20.2	0.00e+00	0	43	0	1156579328	63	4262
2026-01-23 09:10:04.59	337.96	20.54	-46.5	-47.9	19.6	0.00e+00	0	43	0	1164967936	63	4537
2026-01-23 09:10:08.63	337.78	20.02	-46.4	-47.9	19.6	0.00e+00	0	43	0	1172307968	63	4518
2026-01-23 09:10:12.66	337.60	19.51	-46.5	-48.0	19.5	0.00e+00	0	43	0	1179648000	63	4573
2026-01-23 09:10:16.69	337.43	19.01	-46.7	-48.2	19.3	0.00e+00	0	43	0	1186988032	63	4687
2026-01-23 09:10:20.72	337.27	18.52	-46.7	-48.2	19.2	0.00e+00	0	43	0	1194328064	64	4416
2026-01-23 09:10:24.75	337.11	18.03	-46.5	-48.0	19.3	0.00e+00	0	43	0	1202716672	64	4334
2026-01-23 09:10:28.79	336.96	17.56	-46.8	-48.3	19.0	0.00e+00	0	43	0	1210056704	64	4485
2026-01-23 09:10:32.81	336.81	17.09	-46.8	-48.4	18.9	0.00e+00	0	43	0	1217396736	64	4540
2026-01-23 09:10:36.84	336.67	16.64	-46.9	-48.5	18.8	0.00e+00	0	43	0	1224736768	64	4580
2026-01-23 09:10:40.88	336.53	16.19	-46.9	-48.5	18.8	0.00e+00	0	43	0	1233125376	64	4569
2026-01-23 09:10:44.91	336.39	15.75	-47.0	-48.7	18.6	0.00e+00	0	43	0	1240465408	64	4655
2026-01-23 09:10:48.94	336.27	15.32	-47.0	-48.6	18.6	0.00e+00	0	43	0	1247805440	64	4646
2026-01-23 09:10:52.97	336.14	14.89	-47.1	-48.8	18.4	0.00e+00	0	43	0	1255145472	64	4713
2026-01-23 09:10:56.99	336.02	14.47	-47.4	-49.1	18.1	0.00e+00	0	43	0	1262485504	65	4648
2026-01-23 09:11:01.03	335.90	14.06	-47.4	-49.2	18.0	0.00e+00	0	43	0	1269825536	65	4680
2026-01-23 09:11:05.06	335.79	13.66	-47.5	-49.3	17.8	0.00e+00	0	43	0	1278214144	65	4740
2026-01-23 09:11:09.09	335.68	13.26	-47.4	-49.3	17.9	0.00e+00	0	43	0	1285554176	65	4717
2026-01-23 09:11:13.12	335.57	12.87	-47.6	-49.4	17.7	0.00e+00	0	43	0	1292894208	65	4811
2026-01-23 09:11:17.16	335.47	12.48	-47.6	-49.5	17.6	0.00e+00	0	43	0	1300234240	65	4838
2026-01-23 09:11:21.19	335.37	12.10	-47.6	-49.5	17.6	0.00e+00	0	43	0	1308622848	65	4829
2026-01-23 09:11:25.22	335.27	11.73	-47.5	-49.3	17.7	0.00e+00	0	43	0	1315962880	65	4759
2026-01-23 09:11:29.26	335.18	11.36	-47.5	-49.4	17.7	0.00e+00	0	43	0	1323302912	65	4762
2026-01-23 09:11:33.29	335.08	11.00	-47.5	-49.4	17.6	0.00e+00	0	43	0	1330642944	65	4810
2026-01-23 09:11:37.31	334.99	10.64	-47.4	-49.2	17.7	0.00e+00	0	43	0	1337982976	65	4703
2026-01-23 09:11:41.35	334.91	10.29	-47.4	-49.2	17.7	0.00e+00	0	43	0	1346371584	65	4696
2026-01-23 09:11:45.38	334.82	9.94	-47.4	-49.3	17.6	0.00e+00	0	43	0	1353711616	65	4739
2026-01-23 09:11:49.41	334.74	9.59	-47.6	-49.5	17.4	0.00e+00	0	43	0	1361051648	65	4842
2026-01-23 09:11:53.44	334.66	9.26	-47.8	-49.9	17.0	0.00e+00	0	43	0	1368391680	66	4783
2026-01-23 09:11:57.47	334.58	8.92	-47.7	-49.8	17.0	0.00e+00	0	43	0	1375731712	66	4721
2026-01-23 09:12:01.50	334.51	8.59	-47.9	-50.0	16.8	0.00e+00	0	43	0	1384120320	66	4855
2026-01-23 09:12:05.53	334.44	8.27	-48.1	-50.3	16.5	0.00e+00	0	43	0	1391460352	66	4991
2026-01-23 09:12:09.56	334.36	7.95	-48.2	-50.5	16.4	0.00e+00	0	43	0	1398800384	66	5101
2026-01-23 09:12:13.59	334.30	7.63	-48.3	-50.7	16.2	0.00e+00	0	43	0	1406140416	67	4927
2026-01-23 09:12:17.62	334.23	7.31	-48.3	-50.6	16.1	0.00e+00	0	43	0	1413480448	67	4908
2026-01-23 09:12:21.65	334.16	7.00	-48.3	-50.7	16.0	0.00e+00	0	43	0	1421869056	67	4932
2026-01-23 09:12:25.68	334.10	6.70	-48.5	-51.1	15.6	0.00e+00	0	43	0	1429209088	67	5166
2026-01-23 09:12:29.72	334.04	6.40	-48.6	-51.2	15.5	0.00e+00	0	43	0	1436549120	68	4955
2026-01-23 09:12:33.75	333.97	6.10	-48.8	-51.6	15.1	0.00e+00	0	43	0	1443889152	68	5166
2026-01-23 09:12:37.79	333.92	5.80	-48.5	-51.1	15.5	0.00e+00	0	43	0	1452277760	68	4904
2026-01-23 09:12:41.82	333.86	5.51	-48.5	-51.2	15.4	0.00e+00	0	43	0	1459617792	68	4928
2026-01-23 09:12:45.85	333.80	5.22	-48.7	-51.5	14.9	0.00e+00	0	43	0	1466957824	68	5137
2026-01-23 09:12:49.88	333.75	4.93	-53.0	-68.0	3.8	1.49e+00	0	43	104	1472200704	76	21732
2026-01-23 09:12:53.92	333.69	4.65	-53.6	-68.6	3.8	1.49e+00	0	43	104	1472200704	77	21817
2026-01-23 09:12:57.96	333.64	4.37	-53.7	-68.7	3.8	1.49e+00	0	43	104	1472200704	77	22012
2026-01-23 09:13:01.99	333.59	4.09	-53.5	-68.5	3.8	1.49e+00	0	43	104	1472200704	77	21541
2026-01-23 09:13:06.02	333.54	3.81	-53.6	-68.6	3.8	1.49e+00	0	43	104	1472200704	77	21839
2026-01-23 09:13:10.05	333.49	3.54	-53.7	-68.7	3.8	1.49e+00	0	43	104	1472200704	77	22126
2026-01-23 09:13:14.08	333.45	3.27	-53.6	-68.6	3.8	1.49e+00	0	43	104	1472200704	77	21957
2026-01-23 09:13:18.12	333.40	3.01	-53.6	-68.6	3.8	1.49e+00	0	43	104	1472200704	77	21904
2026-01-23 09:13:22.15	333.36	2.74	-53.6	-68.6	3.8	1.49e+00	0	43	104	1472200704	77	21835
2026-01-23 09:13:26.18	333.31	2.48	-53.6	-68.6	3.8	1.49e+00	0	43	104	1472200704	77	21849
2026-01-23 09:13:30.21	333.27	2.22	-53.6	-68.5	3.8	1.49e+00	0	43	104	1472200704	77	21720
2026-01-23 09:13:34.24	333.23	1.96	-53.6	-68.5	3.8	1.49e+00	0	43	104	1472200704	77	21745

#Closed at: 2026-01-23 09:13:35
#Recorded file [1472 MB]: D:/lorett/data/31041_260123_115911.dat