passes_logs/2026/01/23/R3.2S_Murmansk/R3.2S_Murmansk__20260123_234226_KANOPUS-V_5_rec.log

#Pass ID: 20260123_234226_KANOPUS-V 5
#Satellite: KANOPUS-V 5
#Configuration: KANOPUS-V_8320
#almurnet v.1.7.20251203
#Start time: 2026-01-23 23:42:28

#Version: 2.2.20231116
#Station: R3.2S_Murmansk
#Location: 33.079688 lon 68.888172 lat
#TLE: 1 43876U 18111A   26023.64356892  .00004816  00000+0  20464-3 0  9993
#TLE: 2 43876  97.3677 292.0017 0001813  88.2876 271.8569 15.23520012392780

#Time	Az	El	Level	Level2	SNR	BER	BlckErr	Temp	State	Recorded	gain1	gain2
2026-01-23 23:42:28.27	22.35	2.13	-53.0	-61.9	3.8	7.45e-01	0	42	0	0	78	9525
2026-01-23 23:42:31.28	22.17	2.34	-53.0	-61.9	3.8	7.44e-01	0	42	104	0	77	10090
2026-01-23 23:42:34.31	21.99	2.54	-53.0	-61.8	3.8	7.46e-01	0	42	104	0	77	10045
2026-01-23 23:42:37.33	21.81	2.75	-53.0	-61.8	3.8	7.45e-01	0	42	104	0	77	10031
2026-01-23 23:42:40.36	21.62	2.95	-53.0	-61.8	3.8	7.46e-01	0	42	104	0	77	10059
2026-01-23 23:42:43.38	21.42	3.16	-53.0	-61.8	3.8	7.46e-01	0	43	104	0	77	10035
2026-01-23 23:42:46.40	21.23	3.37	-53.0	-61.8	3.8	7.47e-01	0	43	104	0	77	10033
2026-01-23 23:42:49.43	21.03	3.59	-53.0	-61.8	3.8	7.45e-01	0	43	104	0	77	9987
2026-01-23 23:42:52.45	20.82	3.80	-53.0	-61.8	3.8	7.45e-01	0	43	104	0	77	10017
2026-01-23 23:42:55.48	20.61	4.02	-53.0	-61.8	3.8	7.46e-01	0	43	104	0	77	10039
2026-01-23 23:42:58.50	20.40	4.24	-53.0	-61.8	3.8	7.45e-01	0	43	104	0	77	10026
2026-01-23 23:43:01.53	20.18	4.46	-53.0	-61.8	3.8	7.46e-01	0	43	104	0	77	10029
2026-01-23 23:43:04.56	19.96	4.68	-53.0	-61.8	3.8	7.45e-01	0	43	104	0	77	10040
2026-01-23 23:43:07.58	19.74	4.91	-53.0	-61.8	3.8	7.45e-01	0	43	104	0	77	10051
2026-01-23 23:43:10.60	19.51	5.14	-53.0	-61.8	3.8	7.45e-01	0	43	104	0	77	10041
2026-01-23 23:43:13.63	19.27	5.37	-53.1	-61.9	3.8	7.43e-01	0	43	104	0	77	10082
2026-01-23 23:43:16.65	19.03	5.60	-53.0	-61.8	3.8	7.46e-01	0	43	104	0	77	10047
2026-01-23 23:43:19.68	18.78	5.83	-53.0	-61.9	3.8	7.46e-01	0	43	104	0	77	10083
2026-01-23 23:43:22.70	18.53	6.07	-52.9	-61.7	3.8	7.46e-01	0	43	104	0	77	9898
2026-01-23 23:43:25.72	18.27	6.31	-52.9	-61.8	3.8	7.43e-01	0	43	104	0	77	9992
2026-01-23 23:43:28.75	18.01	6.55	-52.9	-61.7	3.8	7.44e-01	0	43	104	0	77	9875
2026-01-23 23:43:31.77	17.74	6.80	-52.9	-61.8	3.8	7.45e-01	0	43	104	0	77	9967
2026-01-23 23:43:34.80	17.47	7.04	-53.0	-61.8	3.8	7.44e-01	0	43	104	0	77	9956
2026-01-23 23:43:37.82	17.19	7.29	-52.9	-61.7	3.8	7.45e-01	0	43	104	0	77	9931
2026-01-23 23:43:40.85	16.90	7.55	-53.0	-61.8	3.8	7.45e-01	0	43	104	0	77	10055
2026-01-23 23:43:43.87	16.61	7.80	-53.0	-61.8	3.8	7.45e-01	0	44	104	0	77	9977
2026-01-23 23:43:46.90	16.30	8.06	-53.1	-61.9	3.8	7.46e-01	0	44	104	0	77	10144
2026-01-23 23:43:49.92	16.00	8.32	-53.0	-61.8	3.8	7.45e-01	0	44	104	0	77	10059
2026-01-23 23:43:52.94	15.68	8.59	-53.1	-62.0	3.8	7.45e-01	0	44	104	0	77	10178
2026-01-23 23:43:55.97	15.36	8.85	-53.1	-61.9	3.8	7.45e-01	0	44	104	0	77	10073
2026-01-23 23:43:58.99	15.03	9.12	-53.3	-62.1	3.8	7.46e-01	0	44	104	0	77	10397
2026-01-23 23:44:01.98	14.70	9.39	-53.2	-62.0	3.8	7.45e-01	0	44	104	0	77	10213
2026-01-23 23:44:05.00	14.35	9.67	-53.4	-62.2	3.8	7.45e-01	0	44	104	0	77	10512
2026-01-23 23:44:08.03	14.00	9.95	-53.3	-62.1	3.8	7.46e-01	0	44	104	0	77	10407
2026-01-23 23:44:11.05	13.63	10.23	-53.5	-62.3	3.8	7.46e-01	0	44	104	0	77	10573
2026-01-23 23:44:14.08	13.26	10.52	-53.4	-62.3	3.8	7.45e-01	0	44	104	0	77	10568
2026-01-23 23:44:17.10	12.88	10.81	-53.5	-62.3	3.8	7.44e-01	0	44	104	0	77	10597
2026-01-23 23:44:20.12	12.49	11.10	-53.5	-62.3	3.8	7.44e-01	0	44	104	0	77	10547
2026-01-23 23:44:23.15	12.08	11.40	-53.5	-62.3	3.8	7.46e-01	0	44	104	0	77	10635
2026-01-23 23:44:26.17	11.67	11.70	-53.5	-62.3	3.8	7.44e-01	0	44	104	0	77	10569
2026-01-23 23:44:29.19	11.25	12.01	-53.5	-62.4	3.8	7.45e-01	0	44	104	0	77	10680
2026-01-23 23:44:32.22	10.81	12.32	-53.5	-62.3	3.8	7.46e-01	0	44	104	0	77	10624
2026-01-23 23:44:35.24	10.37	12.63	-53.6	-62.4	3.8	7.44e-01	0	44	104	0	77	10765
2026-01-23 23:44:38.27	9.91	12.95	-53.6	-62.4	3.8	7.47e-01	0	44	104	0	77	10684
2026-01-23 23:44:41.29	9.44	13.26	-53.7	-62.5	3.8	7.45e-01	0	44	104	0	77	10786
2026-01-23 23:44:44.31	8.96	13.59	-53.6	-62.4	3.8	7.47e-01	0	44	104	0	77	10754
2026-01-23 23:44:47.33	8.46	13.92	-53.7	-62.5	3.8	7.44e-01	0	44	104	0	78	10289
2026-01-23 23:44:50.36	7.95	14.25	-53.7	-62.5	3.8	7.45e-01	0	44	104	0	78	10220
2026-01-23 23:44:53.38	7.43	14.58	-53.7	-62.6	3.8	7.44e-01	0	44	104	0	78	10306
2026-01-23 23:44:56.41	6.89	14.92	-53.7	-62.5	3.8	7.45e-01	0	44	104	0	78	10287
2026-01-23 23:44:59.43	6.34	15.27	-53.8	-62.6	3.8	7.47e-01	0	44	104	0	78	10380
2026-01-23 23:45:02.46	5.77	15.62	-53.8	-62.6	3.8	7.46e-01	0	44	104	0	78	10352
2026-01-23 23:45:05.48	5.18	15.97	-53.8	-62.6	3.8	7.45e-01	0	44	104	0	78	10387
2026-01-23 23:45:08.51	4.58	16.32	-53.9	-62.7	3.8	7.44e-01	0	44	104	0	78	10442
2026-01-23 23:45:11.53	3.96	16.68	-53.9	-62.7	3.8	7.48e-01	0	44	104	0	78	10479
2026-01-23 23:45:14.56	3.32	17.05	-53.9	-62.7	3.8	7.45e-01	0	44	104	0	78	10453
2026-01-23 23:45:17.58	2.66	17.41	-53.9	-62.7	3.8	7.44e-01	0	44	104	0	78	10462
2026-01-23 23:45:20.61	1.98	17.78	-53.9	-62.7	3.8	7.45e-01	0	44	104	0	78	10527
2026-01-23 23:45:23.63	1.29	18.16	-54.0	-62.8	3.8	7.45e-01	0	44	104	0	78	10632
2026-01-23 23:45:26.66	0.57	18.54	-54.1	-62.9	3.8	7.46e-01	0	44	104	0	78	10719
2026-01-23 23:45:29.68	359.83	18.92	-54.1	-62.9	3.8	7.44e-01	0	44	104	0	78	10710
2026-01-23 23:45:32.71	359.07	19.30	-54.1	-62.9	3.8	7.45e-01	0	44	104	0	78	10728
2026-01-23 23:45:35.73	358.29	19.69	-54.1	-62.9	3.8	7.45e-01	0	44	104	0	78	10695
2026-01-23 23:45:38.76	357.48	20.08	-54.1	-62.9	3.8	7.45e-01	0	44	104	0	78	10741
2026-01-23 23:45:41.78	356.65	20.47	-54.1	-62.9	3.8	7.47e-01	0	44	104	0	78	10713
2026-01-23 23:45:44.81	355.80	20.86	-54.1	-62.9	3.8	7.44e-01	0	44	104	0	78	10721
2026-01-23 23:45:47.83	354.92	21.26	-54.1	-62.9	3.8	7.46e-01	0	44	104	0	78	10738
2026-01-23 23:45:50.85	354.01	21.65	-54.2	-63.0	3.8	7.46e-01	0	44	104	0	78	10800
2026-01-23 23:45:53.88	353.07	22.05	-54.1	-62.9	3.8	7.45e-01	0	44	104	0	78	10753
2026-01-23 23:45:56.90	352.11	22.45	-54.2	-63.0	3.8	7.44e-01	0	44	104	0	78	10817
2026-01-23 23:45:59.93	351.12	22.84	-54.1	-63.0	3.8	7.44e-01	0	45	104	0	78	10821
2026-01-23 23:46:02.95	350.10	23.24	-54.2	-63.1	3.8	7.46e-01	0	45	104	0	79	10294
2026-01-23 23:46:05.97	349.06	23.63	-54.2	-63.0	3.8	7.45e-01	0	44	104	0	79	10249
2026-01-23 23:46:09.00	347.97	24.02	-54.2	-63.0	3.8	7.44e-01	0	45	104	0	79	10279
2026-01-23 23:46:12.02	346.87	24.41	-54.2	-63.0	3.8	7.45e-01	0	45	104	0	79	10244
2026-01-23 23:46:15.04	345.73	24.79	-54.3	-63.1	3.8	7.44e-01	0	45	104	0	79	10309
2026-01-23 23:46:18.07	344.55	25.17	-54.2	-63.1	3.8	7.46e-01	0	45	104	0	79	10313
2026-01-23 23:46:21.09	343.35	25.55	-54.3	-63.1	3.8	7.45e-01	0	45	104	0	79	10350
2026-01-23 23:46:24.11	342.11	25.91	-54.3	-63.1	3.8	7.46e-01	0	45	104	0	79	10336
2026-01-23 23:46:27.14	340.84	26.27	-54.3	-63.1	3.8	7.46e-01	0	45	104	0	79	10403
2026-01-23 23:46:30.16	339.54	26.63	-54.3	-63.1	3.8	7.46e-01	0	45	104	0	79	10343
2026-01-23 23:46:33.19	338.21	26.97	-54.4	-63.2	3.8	7.44e-01	0	45	104	0	79	10444
2026-01-23 23:46:36.21	336.85	27.30	-54.4	-63.2	3.8	7.46e-01	0	45	104	0	79	10443
2026-01-23 23:46:39.23	335.45	27.61	-54.4	-63.2	3.8	7.46e-01	0	45	104	0	79	10502
2026-01-23 23:46:42.25	334.03	27.92	-54.4	-63.2	3.8	7.47e-01	0	44	104	0	79	10485
2026-01-23 23:46:45.28	332.57	28.21	-54.5	-63.3	3.8	7.46e-01	0	45	104	0	79	10539
2026-01-23 23:46:48.30	331.09	28.48	-54.5	-63.3	3.8	7.45e-01	0	45	104	0	79	10553
2026-01-23 23:46:51.33	329.58	28.74	-54.5	-63.3	3.8	7.45e-01	0	45	104	0	79	10640
2026-01-23 23:46:54.35	328.04	28.97	-54.5	-63.3	3.8	7.44e-01	0	45	104	0	79	10593
2026-01-23 23:46:57.37	326.48	29.19	-54.5	-63.4	3.8	7.44e-01	0	45	104	0	79	10684
2026-01-23 23:47:00.40	324.90	29.39	-54.6	-63.4	3.8	7.45e-01	0	45	104	0	79	10710
2026-01-23 23:47:03.42	323.30	29.57	-54.6	-63.4	3.8	7.45e-01	0	45	104	0	79	10713
2026-01-23 23:47:06.45	321.67	29.72	-54.6	-63.4	3.8	7.46e-01	0	44	104	0	79	10659
2026-01-23 23:47:09.47	320.04	29.85	-54.6	-63.4	3.8	7.42e-01	0	45	104	0	79	10715
2026-01-23 23:47:12.50	318.38	29.96	-54.6	-63.4	3.8	7.44e-01	0	45	104	0	79	10713
2026-01-23 23:47:15.53	316.72	30.04	-54.6	-63.4	3.8	7.45e-01	0	45	104	0	79	10762
2026-01-23 23:47:18.55	315.05	30.10	-54.6	-63.5	3.8	7.44e-01	0	45	104	0	79	10800
2026-01-23 23:47:21.58	313.37	30.13	-54.6	-63.5	3.8	7.46e-01	0	44	104	0	79	10783
2026-01-23 23:47:24.60	311.70	30.14	-54.7	-63.5	3.8	7.45e-01	0	45	104	0	79	10790
2026-01-23 23:47:27.63	310.02	30.12	-54.6	-63.5	3.8	7.43e-01	0	45	104	0	79	10799
2026-01-23 23:47:30.65	308.35	30.07	-54.7	-63.5	3.8	7.46e-01	0	45	104	0	80	10225
2026-01-23 23:47:33.67	306.68	30.00	-54.6	-63.5	3.8	7.47e-01	0	45	104	0	80	10204
2026-01-23 23:47:36.70	305.02	29.91	-54.7	-63.5	3.8	7.46e-01	0	45	104	0	80	10183
2026-01-23 23:47:39.72	303.38	29.79	-54.6	-63.5	3.8	7.46e-01	0	45	104	0	80	10178
2026-01-23 23:47:42.75	301.74	29.65	-54.6	-63.5	3.8	7.45e-01	0	45	104	0	80	10209
2026-01-23 23:47:45.77	300.13	29.48	-54.6	-63.4	3.8	7.45e-01	0	45	104	0	80	10166
2026-01-23 23:47:48.79	298.54	29.29	-54.7	-63.5	3.8	7.44e-01	0	45	104	0	80	10206
2026-01-23 23:47:51.82	296.96	29.09	-54.6	-63.4	3.8	7.45e-01	0	45	104	0	80	10160
2026-01-23 23:47:54.84	295.41	28.86	-54.7	-63.5	3.8	7.45e-01	0	45	104	0	80	10235
2026-01-23 23:47:57.87	293.88	28.61	-54.7	-63.5	3.8	7.45e-01	0	45	104	0	80	10217
2026-01-23 23:48:00.89	292.38	28.34	-54.6	-63.5	3.8	7.45e-01	0	45	104	0	80	10196
2026-01-23 23:48:03.91	290.91	28.06	-54.6	-63.4	3.8	7.45e-01	0	45	104	0	80	10149
2026-01-23 23:48:06.94	289.47	27.76	-54.6	-63.4	3.8	7.43e-01	0	45	104	0	80	10160
2026-01-23 23:48:09.96	288.05	27.45	-54.6	-63.4	3.8	7.45e-01	0	45	104	0	80	10158
2026-01-23 23:48:12.99	286.67	27.13	-54.6	-63.4	3.8	7.46e-01	0	45	104	0	80	10101
2026-01-23 23:48:16.01	285.32	26.79	-54.5	-63.4	3.8	7.44e-01	0	45	104	0	80	10111
2026-01-23 23:48:19.03	284.00	26.44	-54.5	-63.3	3.8	7.46e-01	0	45	104	0	80	10041
2026-01-23 23:48:22.06	282.71	26.09	-54.5	-63.4	3.8	7.45e-01	0	45	104	0	80	10084
2026-01-23 23:48:25.08	281.46	25.72	-54.5	-63.3	3.8	7.46e-01	0	45	104	0	80	9979
2026-01-23 23:48:28.11	280.23	25.35	-54.5	-63.3	3.8	7.45e-01	0	45	104	0	80	10008
2026-01-23 23:48:31.13	279.04	24.97	-54.4	-63.3	3.8	7.45e-01	0	45	104	0	80	9968
2026-01-23 23:48:34.16	277.88	24.59	-54.4	-63.2	3.8	7.46e-01	0	45	104	0	80	9932
2026-01-23 23:48:37.19	276.75	24.20	-54.4	-63.2	3.8	7.45e-01	0	45	104	0	80	9918
2026-01-23 23:48:40.21	275.65	23.81	-54.4	-63.2	3.8	7.46e-01	0	45	104	0	80	9889
2026-01-23 23:48:43.23	274.58	23.42	-54.4	-63.2	3.8	7.44e-01	0	45	104	0	80	9852
2026-01-23 23:48:46.26	273.55	23.02	-54.3	-63.2	3.8	7.46e-01	0	45	104	0	80	9846
2026-01-23 23:48:49.28	272.54	22.62	-54.3	-63.2	3.8	7.45e-01	0	45	104	0	80	9834
2026-01-23 23:48:52.31	271.56	22.22	-54.3	-63.1	3.8	7.45e-01	0	45	104	0	80	9802
2026-01-23 23:48:55.33	270.61	21.83	-54.3	-63.1	3.8	7.44e-01	0	45	104	0	80	9785
2026-01-23 23:48:58.35	269.69	21.43	-54.3	-63.0	3.8	7.45e-01	0	45	104	0	80	9716
2026-01-23 23:49:01.37	268.79	21.03	-54.2	-63.1	3.8	7.46e-01	0	45	104	0	80	9740
2026-01-23 23:49:04.40	267.92	20.64	-54.2	-63.1	3.8	7.45e-01	0	45	104	0	80	9752
2026-01-23 23:49:07.42	267.07	20.24	-54.2	-63.0	3.8	7.45e-01	0	45	104	0	80	9699
2026-01-23 23:49:10.45	266.25	19.85	-54.2	-63.0	3.8	7.45e-01	0	45	104	0	80	9680
2026-01-23 23:49:13.47	265.45	19.46	-54.2	-63.0	3.8	7.45e-01	0	45	104	0	80	9608
2026-01-23 23:49:16.49	264.68	19.08	-54.1	-63.0	3.8	7.45e-01	0	45	104	0	80	9634
2026-01-23 23:49:19.52	263.93	18.69	-54.1	-62.9	3.8	7.44e-01	0	45	104	0	80	9578
2026-01-23 23:49:22.54	263.20	18.31	-54.1	-62.9	3.8	7.46e-01	0	45	104	0	80	9589
2026-01-23 23:49:25.57	262.49	17.93	-54.1	-62.9	3.8	7.45e-01	0	45	104	0	80	9568
2026-01-23 23:49:28.59	261.80	17.56	-54.1	-62.9	3.8	7.45e-01	0	45	104	0	80	9545
2026-01-23 23:49:31.61	261.13	17.19	-54.1	-62.9	3.8	7.46e-01	0	45	104	0	80	9549
2026-01-23 23:49:34.64	260.48	16.82	-54.0	-62.9	3.8	7.44e-01	0	45	104	0	80	9508
2026-01-23 23:49:37.66	259.85	16.46	-54.0	-62.8	3.8	7.46e-01	0	45	104	0	80	9460
2026-01-23 23:49:40.68	259.24	16.10	-53.9	-62.7	3.8	7.45e-01	0	45	104	0	79	9939
2026-01-23 23:49:43.71	258.64	15.75	-47.5	-58.3	3.8	7.46e-01	0	45	104	0	67	11852
2026-01-23 23:49:46.73	258.06	15.39	-53.0	-62.1	3.8	7.44e-01	0	45	104	0	76	11018
2026-01-23 23:49:49.75	257.50	15.05	-53.9	-62.7	3.8	7.46e-01	0	45	104	0	78	10491
2026-01-23 23:49:52.78	256.95	14.70	-53.9	-62.8	3.8	7.45e-01	0	45	104	0	78	10585
2026-01-23 23:49:55.80	256.42	14.37	-53.9	-62.7	3.8	7.45e-01	0	45	104	0	78	10502
2026-01-23 23:49:58.82	255.90	14.03	-53.9	-62.8	3.8	7.45e-01	0	45	104	0	78	10545
2026-01-23 23:50:01.85	255.39	13.70	-53.9	-62.7	3.8	7.45e-01	0	45	104	0	78	10526
2026-01-23 23:50:04.87	254.90	13.37	-53.9	-62.7	3.8	7.45e-01	0	45	104	0	78	10488
2026-01-23 23:50:07.89	254.42	13.05	-53.9	-62.7	3.8	7.44e-01	0	45	104	0	78	10425
2026-01-23 23:50:10.92	253.96	12.73	-53.8	-62.6	3.8	7.44e-01	0	45	104	0	78	10379
2026-01-23 23:50:13.94	253.50	12.42	-53.8	-62.6	3.8	7.46e-01	0	45	104	0	78	10392
2026-01-23 23:50:16.97	253.06	12.10	-53.8	-62.6	3.8	7.45e-01	0	45	104	0	78	10388
2026-01-23 23:50:19.99	252.63	11.80	-53.8	-62.6	3.8	7.46e-01	0	45	104	0	78	10376
2026-01-23 23:50:23.01	252.21	11.49	-53.7	-62.6	3.8	7.45e-01	0	45	104	0	78	10297
2026-01-23 23:50:26.04	251.80	11.19	-53.7	-62.6	3.8	7.45e-01	0	45	104	0	78	10296
2026-01-23 23:50:29.07	251.40	10.89	-53.7	-62.5	3.8	7.46e-01	0	45	104	0	78	10284
2026-01-23 23:50:32.09	251.01	10.60	-53.7	-62.5	3.8	7.47e-01	0	45	104	0	78	10239
2026-01-23 23:50:35.11	250.63	10.31	-53.6	-62.5	3.8	7.44e-01	0	45	104	0	78	10186
2026-01-23 23:50:38.14	250.26	10.03	-53.6	-62.4	3.8	7.45e-01	0	45	104	0	78	10164
2026-01-23 23:50:41.16	249.90	9.74	-53.6	-62.5	3.8	7.43e-01	0	45	104	0	78	10187
2026-01-23 23:50:44.19	249.55	9.46	-53.6	-62.4	3.8	7.44e-01	0	45	104	0	78	10173
2026-01-23 23:50:47.21	249.21	9.19	-53.5	-62.3	3.8	7.46e-01	0	45	104	0	78	10042
2026-01-23 23:50:50.24	248.87	8.92	-53.4	-62.3	3.8	7.46e-01	0	45	104	0	78	9956
2026-01-23 23:50:53.26	248.54	8.65	-53.5	-62.3	3.8	7.45e-01	0	45	104	0	78	10049
2026-01-23 23:50:56.29	248.22	8.38	-53.5	-62.3	3.8	7.45e-01	0	45	104	0	78	10005
2026-01-23 23:50:59.31	247.91	8.12	-53.3	-62.2	3.8	7.45e-01	0	45	104	0	78	9837
2026-01-23 23:51:02.33	247.60	7.86	-53.2	-62.0	3.8	7.45e-01	0	45	104	0	78	9636
2026-01-23 23:51:05.35	247.31	7.60	-53.3	-62.1	3.8	7.46e-01	0	45	104	0	78	9732
2026-01-23 23:51:08.37	247.01	7.34	-53.3	-62.1	3.8	7.45e-01	0	45	104	0	78	9728
2026-01-23 23:51:11.40	246.73	7.09	-53.1	-62.0	3.8	7.45e-01	0	45	104	0	78	9656
2026-01-23 23:51:14.43	246.45	6.84	-53.0	-61.9	3.8	7.46e-01	0	45	104	0	78	9524
2026-01-23 23:51:17.45	246.18	6.60	-53.0	-61.9	3.8	7.44e-01	0	45	104	0	78	9528
2026-01-23 23:51:20.48	245.91	6.35	-53.0	-61.9	3.8	7.46e-01	0	45	104	0	77	10077
2026-01-23 23:51:23.50	245.65	6.11	-52.9	-61.8	3.8	7.44e-01	0	45	104	0	77	9960
2026-01-23 23:51:26.53	245.39	5.87	-52.8	-61.7	3.8	7.45e-01	0	45	104	0	77	9857
2026-01-23 23:51:29.55	245.14	5.64	-52.8	-61.6	3.8	7.46e-01	0	45	104	0	77	9822
2026-01-23 23:51:32.58	244.89	5.40	-52.9	-61.7	3.8	7.46e-01	0	44	104	0	77	9864
2026-01-23 23:51:35.60	244.65	5.17	-52.8	-61.6	3.8	7.46e-01	0	45	104	0	77	9802
2026-01-23 23:51:38.63	244.42	4.94	-53.5	-62.4	3.8	7.45e-01	0	44	104	0	77	10703
2026-01-23 23:51:41.65	244.19	4.71	-54.3	-63.1	3.8	7.44e-01	0	45	104	0	79	10404
2026-01-23 23:51:44.67	243.96	4.49	-54.7	-63.5	3.8	7.47e-01	0	45	104	0	80	10234
2026-01-23 23:51:47.70	243.74	4.27	-54.9	-63.8	3.8	7.47e-01	0	44	104	0	80	10556
2026-01-23 23:51:50.73	243.52	4.05	-55.0	-63.9	3.8	7.46e-01	0	45	104	0	80	10686
2026-01-23 23:51:53.75	243.31	3.83	-55.1	-63.9	3.8	7.45e-01	0	45	104	0	80	10716
2026-01-23 23:51:56.78	243.10	3.61	-55.1	-63.9	3.8	7.45e-01	0	45	104	0	80	10708
2026-01-23 23:51:59.81	242.90	3.40	-55.0	-63.9	3.8	7.45e-01	0	44	104	0	80	10672
2026-01-23 23:52:02.84	242.70	3.18	-54.9	-63.7	3.8	7.45e-01	0	45	104	0	80	10476
2026-01-23 23:52:05.87	242.50	2.97	-54.8	-63.6	3.8	7.44e-01	0	45	104	0	80	10387
2026-01-23 23:52:08.89	242.31	2.76	-54.8	-63.6	3.8	7.45e-01	0	45	104	0	80	10356
2026-01-23 23:52:11.92	242.12	2.56	-54.7	-63.6	3.8	7.46e-01	0	45	104	0	80	10336
2026-01-23 23:52:14.94	241.94	2.35	-54.7	-63.5	3.8	7.46e-01	0	45	104	0	80	10250
2026-01-23 23:52:17.97	241.75	2.15	-54.7	-63.5	3.8	7.47e-01	0	45	104	0	80	10233
2026-01-23 23:52:20.99	241.57	1.94	-54.8	-63.6	3.8	7.45e-01	0	45	104	0	80	10348

#Closed at: 2026-01-23 23:52:21
#Recorded file [0 MB]: D:/lorett/data/31041_260124_024228.dat