passes_logs/2026/01/23/R3.2S_Murmansk/R3.2S_Murmansk__20260123_034142_SUOMI_NPP_rec.log

#Pass ID: 20260123_034142_SUOMI NPP
#Satellite: SUOMI NPP
#Configuration: NPP
#almurnet v.1.7.20251203
#Start time: 2026-01-23 03:41:42

#Version: 2.2.20231116
#Station: R3.2S_Murmansk
#Location: 33.079688 lon 68.888172 lat
#TLE: 1 37849U 11061A   26022.50498765  .00000208  00000+0  11976-3 0  9992
#TLE: 2 37849  98.7820 324.4892 0002275  50.8149 309.3229 14.19528284737775

#Time	Az	El	Level	Level2	SNR	BER	BlckErr	Temp	State	Recorded	gain1	gain2
2026-01-23 03:41:42.06	43.21	1.97	-54.0	-69.0	3.8	1.49e+00	0	41	0	0	79	20413
2026-01-23 03:41:46.09	42.99	2.21	-52.5	-67.5	3.8	1.49e+00	0	41	104	0	77	19261
2026-01-23 03:41:50.12	42.76	2.45	-52.4	-67.4	3.8	1.49e+00	0	42	104	0	76	20075
2026-01-23 03:41:54.16	42.53	2.69	-52.4	-67.3	3.8	1.49e+00	0	42	104	0	76	19944
2026-01-23 03:41:58.19	42.29	2.93	-52.3	-67.3	3.8	1.49e+00	0	42	104	0	76	19916
2026-01-23 03:42:02.23	42.06	3.17	-52.3	-67.2	3.8	1.49e+00	0	42	104	0	76	19826
2026-01-23 03:42:06.27	41.81	3.41	-52.4	-67.3	3.8	1.49e+00	0	42	104	0	76	19971
2026-01-23 03:42:10.30	41.56	3.66	-52.3	-66.5	3.8	1.49e+00	0	42	104	0	76	18112
2026-01-23 03:42:14.33	41.31	3.91	-52.3	-65.9	3.8	1.49e+00	0	42	104	0	76	17044
2026-01-23 03:42:18.37	41.06	4.16	-52.0	-61.9	4.9	1.05e+00	0	42	0	1048576	76	10680
2026-01-23 03:42:22.40	40.80	4.41	-51.0	-56.9	9.1	4.21e-02	0	42	0	8388608	74	6733
2026-01-23 03:42:26.44	40.53	4.66	-50.9	-56.7	9.3	1.53e-02	0	43	0	15728640	73	7017
2026-01-23 03:42:30.47	40.26	4.92	-51.8	-60.6	5.7	2.71e-01	0	43	0	23068672	74	10366
2026-01-23 03:42:34.51	39.98	5.18	-52.0	-62.2	5.0	9.61e-03	0	43	0	31457280	74	12456
2026-01-23 03:42:38.54	39.70	5.43	-47.7	-50.0	16.2	0.00e+00	0	43	0	33554432	67	4570
2026-01-23 03:42:42.57	39.42	5.69	-48.0	-50.5	15.9	0.00e+00	0	43	0	40894464	67	4857
2026-01-23 03:42:46.61	39.12	5.96	-47.9	-50.4	16.1	0.00e+00	0	43	0	48234496	67	4766
2026-01-23 03:42:50.64	38.83	6.22	-48.2	-50.7	15.7	0.00e+00	0	43	0	55574528	67	4963
2026-01-23 03:42:54.67	38.52	6.49	-48.0	-50.5	16.0	0.00e+00	0	43	0	63963136	67	4820
2026-01-23 03:42:58.70	38.22	6.75	-48.1	-50.6	15.8	0.00e+00	0	43	0	71303168	67	4914
2026-01-23 03:43:02.74	37.90	7.03	-47.7	-50.0	16.6	0.00e+00	0	43	0	78643200	67	4564
2026-01-23 03:43:06.77	37.58	7.30	-47.5	-49.6	16.9	0.00e+00	0	43	0	85983232	67	4390
2026-01-23 03:43:10.80	37.25	7.57	-47.5	-49.6	17.0	0.00e+00	0	43	0	93323264	66	4632
2026-01-23 03:43:14.83	36.92	7.85	-47.3	-49.3	17.3	0.00e+00	0	43	0	101711872	66	4476
2026-01-23 03:43:18.87	36.58	8.13	-46.9	-48.8	17.7	0.00e+00	0	43	0	109051904	65	4490
2026-01-23 03:43:22.90	36.23	8.41	-47.0	-48.9	17.7	0.00e+00	0	43	0	116391936	65	4534
2026-01-23 03:43:26.94	35.87	8.69	-46.9	-48.8	17.8	0.00e+00	0	43	0	123731968	65	4445
2026-01-23 03:43:30.97	35.51	8.97	-47.2	-49.2	17.5	0.00e+00	0	43	0	132120576	65	4662
2026-01-23 03:43:35.00	35.14	9.26	-47.3	-49.3	17.4	0.00e+00	0	43	0	139460608	65	4756
2026-01-23 03:43:39.03	34.77	9.55	-47.3	-49.2	17.5	0.00e+00	0	43	0	146800640	65	4699
2026-01-23 03:43:43.06	34.38	9.84	-47.0	-48.9	17.8	0.00e+00	0	43	0	154140672	65	4534
2026-01-23 03:43:47.10	33.99	10.13	-47.1	-49.0	17.8	0.00e+00	0	43	0	161480704	65	4567
2026-01-23 03:43:51.12	33.59	10.43	-46.9	-48.7	18.1	0.00e+00	0	43	0	168820736	65	4412
2026-01-23 03:43:55.16	33.18	10.72	-46.9	-48.8	18.0	0.00e+00	0	43	0	177209344	65	4457
2026-01-23 03:43:59.19	32.76	11.02	-47.0	-48.9	17.9	0.00e+00	0	43	0	184549376	65	4528
2026-01-23 03:44:03.21	32.34	11.32	-47.1	-49.0	17.8	0.00e+00	0	43	0	191889408	65	4569
2026-01-23 03:44:07.24	31.90	11.63	-46.9	-48.8	18.1	0.00e+00	0	44	0	199229440	65	4484
2026-01-23 03:44:11.28	31.45	11.93	-47.1	-49.0	17.8	0.00e+00	0	43	0	207618048	65	4597
2026-01-23 03:44:15.31	31.00	12.24	-47.0	-48.9	18.0	0.00e+00	0	43	0	214958080	65	4512
2026-01-23 03:44:19.34	30.53	12.55	-46.6	-48.3	18.5	0.00e+00	0	43	0	222298112	65	4233
2026-01-23 03:44:23.37	30.06	12.86	-46.4	-48.0	18.9	0.00e+00	0	44	0	229638144	64	4311
2026-01-23 03:44:27.41	29.57	13.18	-46.3	-47.9	19.0	0.00e+00	0	43	0	236978176	64	4255
2026-01-23 03:44:31.44	29.07	13.49	-46.6	-48.3	18.6	0.00e+00	0	43	0	245366784	64	4478
2026-01-23 03:44:35.47	28.57	13.81	-46.9	-48.6	18.3	0.00e+00	0	44	0	252706816	64	4642
2026-01-23 03:44:39.50	28.05	14.13	-47.1	-48.9	18.1	0.00e+00	0	43	0	260046848	64	4785
2026-01-23 03:44:43.53	27.52	14.45	-46.9	-48.7	18.2	0.00e+00	0	43	0	267386880	65	4406
2026-01-23 03:44:47.57	26.97	14.77	-46.7	-48.4	18.6	0.00e+00	0	44	0	274726912	65	4258
2026-01-23 03:44:51.60	26.42	15.10	-46.3	-47.9	19.0	0.00e+00	0	43	0	283115520	64	4286
2026-01-23 03:44:55.63	25.85	15.42	-46.3	-47.9	19.1	0.00e+00	0	43	0	290455552	63	4535
2026-01-23 03:44:59.66	25.27	15.75	-45.9	-47.4	19.6	0.00e+00	0	43	0	297795584	63	4274
2026-01-23 03:45:03.69	24.68	16.08	-45.5	-46.9	20.1	0.00e+00	0	43	0	305135616	63	4013
2026-01-23 03:45:07.73	24.07	16.41	-45.9	-47.4	19.7	0.00e+00	0	43	0	312475648	62	4503
2026-01-23 03:45:11.76	23.45	16.74	-45.8	-47.2	19.9	0.00e+00	0	43	0	320864256	62	4407
2026-01-23 03:45:15.79	22.82	17.07	-46.3	-47.8	19.3	0.00e+00	0	43	0	328204288	63	4480
2026-01-23 03:45:19.83	22.17	17.40	-45.9	-47.4	19.7	0.00e+00	0	43	0	335544320	63	4259
2026-01-23 03:45:23.86	21.51	17.74	-46.4	-48.1	19.0	0.00e+00	0	43	0	342884352	63	4601
2026-01-23 03:45:27.89	20.83	18.07	-46.2	-47.7	19.4	0.00e+00	0	43	0	351272960	63	4437
2026-01-23 03:45:31.93	20.13	18.40	-46.3	-47.9	19.2	0.00e+00	0	44	0	358612992	63	4530
2026-01-23 03:45:35.96	19.42	18.74	-46.5	-48.2	18.9	0.00e+00	0	43	0	365953024	64	4407
2026-01-23 03:45:39.99	18.70	19.07	-46.5	-48.2	18.9	0.00e+00	0	43	0	373293056	64	4396
2026-01-23 03:45:44.02	17.95	19.40	-46.5	-48.1	19.0	0.00e+00	0	43	0	380633088	64	4381
2026-01-23 03:45:48.05	17.20	19.74	-46.7	-48.4	18.7	0.00e+00	0	43	0	389021696	64	4501
2026-01-23 03:45:52.08	16.42	20.07	-46.6	-48.2	18.9	0.00e+00	0	43	0	396361728	64	4422
2026-01-23 03:45:56.11	15.63	20.40	-46.1	-47.5	19.5	0.00e+00	0	43	0	403701760	64	4095
2026-01-23 03:46:00.14	14.82	20.73	-45.5	-46.9	20.3	0.00e+00	0	44	0	411041792	62	4246
2026-01-23 03:46:04.17	13.99	21.05	-45.8	-47.3	19.9	0.00e+00	0	43	0	418381824	62	4446
2026-01-23 03:46:08.20	13.15	21.38	-46.2	-47.8	19.3	0.00e+00	0	43	0	426770432	64	4216
2026-01-23 03:46:12.23	12.28	21.70	-46.1	-47.6	19.5	0.00e+00	0	43	0	434110464	64	4142
2026-01-23 03:46:16.27	11.40	22.02	-44.8	-46.0	21.0	0.00e+00	0	43	0	441450496	61	4074
2026-01-23 03:46:20.30	10.50	22.33	-45.2	-46.6	20.5	0.00e+00	0	43	0	448790528	61	4355
2026-01-23 03:46:24.33	9.58	22.64	-45.4	-46.9	20.2	0.00e+00	0	44	0	456130560	61	4495
2026-01-23 03:46:28.36	8.64	22.95	-44.5	-45.7	21.2	0.00e+00	0	43	0	464519168	61	3953
2026-01-23 03:46:32.39	7.69	23.25	-44.7	-45.9	21.1	0.00e+00	0	44	0	471859200	60	4289
2026-01-23 03:46:36.43	6.71	23.55	-44.2	-45.4	21.6	0.00e+00	0	44	0	479199232	60	4014
2026-01-23 03:46:40.45	5.72	23.84	-44.3	-45.4	21.7	0.00e+00	0	44	0	486539264	59	4285
2026-01-23 03:46:44.48	4.71	24.12	-44.6	-45.9	21.4	0.00e+00	0	44	0	494927872	59	4496
2026-01-23 03:46:48.51	3.68	24.40	-44.2	-45.3	21.6	0.00e+00	0	44	0	502267904	60	3992
2026-01-23 03:46:52.55	2.63	24.67	-45.1	-46.4	20.7	0.00e+00	0	44	0	509607936	60	4531
2026-01-23 03:46:56.58	1.56	24.93	-44.9	-46.1	21.0	0.00e+00	0	44	0	516947968	61	4141
2026-01-23 03:47:00.61	0.48	25.18	-44.9	-46.2	20.9	0.00e+00	0	44	0	524288000	61	4166
2026-01-23 03:47:04.65	359.37	25.43	-44.9	-46.2	20.9	0.00e+00	0	44	0	531628032	61	4179
2026-01-23 03:47:08.68	358.26	25.66	-44.3	-45.5	21.7	0.00e+00	0	44	0	540016640	60	4056
2026-01-23 03:47:12.71	357.12	25.89	-44.6	-45.8	21.3	0.00e+00	0	44	0	547356672	60	4198
2026-01-23 03:47:16.74	355.97	26.10	-44.2	-45.3	21.7	0.00e+00	0	44	0	554696704	60	3983
2026-01-23 03:47:20.77	354.80	26.30	-44.5	-45.7	21.4	0.00e+00	0	44	0	562036736	60	4150
2026-01-23 03:47:24.80	353.62	26.49	-44.7	-45.9	21.2	0.00e+00	0	44	0	570425344	60	4277
2026-01-23 03:47:28.83	352.43	26.67	-45.0	-46.3	20.8	0.00e+00	0	44	0	577765376	61	4217
2026-01-23 03:47:32.86	351.22	26.84	-46.4	-47.9	19.5	0.00e+00	0	44	0	585105408	63	4538
2026-01-23 03:47:36.89	350.00	26.99	-46.0	-47.4	19.9	0.00e+00	0	44	0	592445440	63	4259
2026-01-23 03:47:40.93	348.77	27.13	-45.7	-47.1	20.1	0.00e+00	0	44	0	599785472	63	4119
2026-01-23 03:47:44.96	347.53	27.25	-46.9	-48.6	18.8	0.00e+00	0	44	0	608174080	64	4615
2026-01-23 03:47:48.99	346.27	27.36	-46.3	-47.8	19.4	0.00e+00	0	44	0	615514112	64	4228
2026-01-23 03:47:53.02	345.02	27.45	-46.4	-48.0	19.3	0.00e+00	0	43	0	622854144	64	4311
2026-01-23 03:47:57.05	343.75	27.53	-46.2	-47.7	19.5	0.00e+00	0	44	0	630194176	64	4181
2026-01-23 03:48:01.08	342.48	27.60	-46.1	-47.6	19.6	0.00e+00	0	44	0	638582784	63	4360
2026-01-23 03:48:05.12	341.20	27.64	-46.5	-48.2	18.9	0.00e+00	0	44	0	645922816	64	4418
2026-01-23 03:48:09.15	339.92	27.68	-47.1	-48.9	18.4	0.00e+00	0	44	0	653262848	65	4496
2026-01-23 03:48:13.18	338.64	27.69	-45.9	-47.3	20.1	0.00e+00	0	44	0	660602880	63	4199
2026-01-23 03:48:17.21	337.36	27.69	-46.3	-47.8	19.5	0.00e+00	0	44	0	667942912	63	4468
2026-01-23 03:48:21.25	336.07	27.68	-46.6	-48.2	19.0	0.00e+00	0	44	0	675282944	64	4392
2026-01-23 03:48:25.28	334.79	27.65	-45.8	-47.2	20.2	0.00e+00	0	44	0	683671552	63	4149
2026-01-23 03:48:29.31	333.52	27.60	-45.7	-47.1	20.2	0.00e+00	0	44	0	691011584	62	4377
2026-01-23 03:48:33.34	332.24	27.54	-46.5	-48.1	19.2	0.00e+00	0	44	0	698351616	64	4383
2026-01-23 03:48:37.37	330.98	27.46	-44.5	-45.7	21.5	0.00e+00	0	44	0	705691648	61	3914
2026-01-23 03:48:41.41	329.71	27.37	-44.8	-46.0	21.2	0.00e+00	0	44	0	714080256	60	4330
2026-01-23 03:48:45.44	328.46	27.26	-44.1	-45.2	21.9	0.00e+00	0	44	0	721420288	60	3936
2026-01-23 03:48:49.47	327.22	27.14	-44.8	-46.0	21.2	0.00e+00	0	44	0	728760320	60	4330
2026-01-23 03:48:53.50	325.99	27.00	-45.3	-46.5	20.8	0.00e+00	0	44	0	736100352	61	4327
2026-01-23 03:48:57.53	324.77	26.85	-45.6	-46.9	20.5	0.00e+00	0	44	0	743440384	62	4272
2026-01-23 03:49:01.57	323.55	26.68	-45.7	-47.0	20.5	0.00e+00	0	44	0	751828992	62	4298
2026-01-23 03:49:05.60	322.36	26.51	-45.4	-46.6	20.8	0.00e+00	0	44	0	759169024	62	4119
2026-01-23 03:49:09.63	321.18	26.32	-45.1	-46.3	21.0	0.00e+00	0	44	0	766509056	62	3998
2026-01-23 03:49:13.67	320.00	26.11	-45.8	-47.2	20.1	0.00e+00	0	44	0	773849088	62	4422
2026-01-23 03:49:17.70	318.85	25.90	-47.1	-48.8	18.7	0.00e+00	0	44	0	781189120	64	4746
2026-01-23 03:49:21.73	317.72	25.68	-47.3	-49.1	18.3	0.00e+00	0	44	0	789577728	65	4616
2026-01-23 03:49:25.77	316.59	25.44	-46.9	-48.6	18.9	0.00e+00	0	44	0	796917760	65	4346
2026-01-23 03:49:29.80	315.49	25.20	-46.7	-48.3	19.0	0.00e+00	0	44	0	804257792	65	4209
2026-01-23 03:49:33.83	314.40	24.95	-46.2	-47.7	19.6	0.00e+00	0	44	0	811597824	64	4182
2026-01-23 03:49:37.86	313.33	24.69	-46.2	-47.7	19.6	0.00e+00	0	44	0	819986432	63	4420
2026-01-23 03:49:41.89	312.28	24.42	-45.3	-46.6	20.6	0.00e+00	0	44	0	827326464	62	4109
2026-01-23 03:49:45.93	311.25	24.14	-46.4	-48.0	19.4	0.00e+00	0	43	0	834666496	63	4575
2026-01-23 03:49:49.96	310.24	23.86	-46.5	-48.2	19.0	0.00e+00	0	44	0	842006528	64	4437
2026-01-23 03:49:53.99	309.24	23.57	-46.0	-47.5	19.8	0.00e+00	0	44	0	849346560	63	4336
2026-01-23 03:49:58.02	308.26	23.27	-46.0	-47.5	19.8	0.00e+00	0	44	0	857735168	63	4316
2026-01-23 03:50:02.06	307.30	22.97	-46.1	-47.6	19.7	0.00e+00	0	44	0	865075200	63	4349
2026-01-23 03:50:06.09	306.36	22.66	-45.2	-46.5	20.7	0.00e+00	0	44	0	872415232	62	4072
2026-01-23 03:50:10.12	305.44	22.35	-45.0	-46.3	20.9	0.00e+00	0	43	0	879755264	61	4194
2026-01-23 03:50:14.15	304.54	22.03	-44.8	-46.0	21.1	0.00e+00	0	44	0	888143872	61	4096
2026-01-23 03:50:18.18	303.66	21.72	-44.6	-45.8	21.2	0.00e+00	0	44	0	895483904	61	3961
2026-01-23 03:50:22.22	302.79	21.39	-44.3	-45.5	21.5	0.00e+00	0	44	0	902823936	60	4076
2026-01-23 03:50:26.25	301.94	21.07	-45.2	-46.5	20.7	0.00e+00	0	44	0	910163968	60	4588
2026-01-23 03:50:30.28	301.11	20.74	-45.7	-47.2	20.1	0.00e+00	0	44	0	917504000	62	4404
2026-01-23 03:50:34.32	300.30	20.41	-44.7	-45.9	21.1	0.00e+00	0	44	0	924844032	61	4031
2026-01-23 03:50:38.35	299.50	20.08	-45.1	-46.4	20.8	0.00e+00	0	44	0	933232640	61	4247
2026-01-23 03:50:42.38	298.73	19.75	-44.0	-45.0	22.2	0.00e+00	0	44	0	940572672	59	4096
2026-01-23 03:50:46.41	297.97	19.42	-43.9	-45.0	22.3	0.00e+00	0	44	0	947912704	59	4071
2026-01-23 03:50:50.44	297.22	19.09	-44.5	-45.6	21.7	0.00e+00	0	44	0	955252736	59	4389
2026-01-23 03:50:54.48	296.49	18.75	-44.1	-45.2	21.8	0.00e+00	0	44	0	963641344	60	3936
2026-01-23 03:50:58.51	295.78	18.42	-44.3	-45.4	21.7	0.00e+00	0	44	0	970981376	60	4029
2026-01-23 03:51:02.54	295.09	18.08	-44.7	-45.9	21.3	0.00e+00	0	44	0	978321408	60	4261
2026-01-23 03:51:06.57	294.41	17.75	-45.3	-46.6	20.7	0.00e+00	0	44	0	985661440	61	4347
2026-01-23 03:51:10.60	293.74	17.42	-44.4	-45.5	21.6	0.00e+00	0	44	0	993001472	60	4077
2026-01-23 03:51:14.64	293.09	17.08	-44.6	-45.7	21.4	0.00e+00	0	44	0	1001390080	60	4191
2026-01-23 03:51:18.67	292.45	16.75	-45.4	-46.8	20.4	0.00e+00	0	44	0	1008730112	61	4456
2026-01-23 03:51:22.70	291.83	16.42	-45.3	-46.6	20.6	0.00e+00	0	44	0	1016070144	61	4371
2026-01-23 03:51:26.74	291.22	16.09	-45.0	-46.2	20.9	0.00e+00	0	44	0	1023410176	61	4174
2026-01-23 03:51:30.77	290.63	15.76	-45.3	-46.6	20.6	0.00e+00	0	44	0	1030750208	61	4346
2026-01-23 03:51:34.81	290.04	15.43	-46.1	-47.5	19.8	0.00e+00	0	44	0	1039138816	62	4584
2026-01-23 03:51:38.84	289.47	15.11	-46.0	-47.4	19.9	0.00e+00	0	44	0	1046478848	63	4254
2026-01-23 03:51:42.87	288.92	14.78	-45.1	-46.4	20.8	0.00e+00	0	44	0	1053818880	62	4026
2026-01-23 03:51:46.91	288.37	14.46	-45.4	-46.8	20.4	0.00e+00	0	44	0	1061158912	61	4443
2026-01-23 03:51:50.94	287.84	14.14	-45.7	-47.0	20.1	0.00e+00	0	44	0	1068498944	62	4322
2026-01-23 03:51:54.97	287.32	13.82	-45.3	-46.6	20.5	0.00e+00	0	44	0	1076887552	62	4110
2026-01-23 03:51:59.01	286.81	13.50	-45.6	-47.0	20.1	0.00e+00	0	44	0	1084227584	62	4306
2026-01-23 03:52:03.04	286.31	13.18	-45.7	-47.1	20.0	0.00e+00	0	44	0	1091567616	62	4375
2026-01-23 03:52:07.07	285.82	12.87	-46.1	-47.6	19.5	0.00e+00	0	44	0	1098907648	62	4628
2026-01-23 03:52:11.10	285.35	12.56	-46.5	-48.2	18.9	0.00e+00	0	44	0	1107296256	64	4392
2026-01-23 03:52:15.14	284.88	12.25	-46.4	-47.9	19.1	0.00e+00	0	44	0	1114636288	64	4286
2026-01-23 03:52:19.18	284.42	11.94	-45.9	-47.4	19.7	0.00e+00	0	44	0	1121976320	63	4257
2026-01-23 03:52:23.21	283.97	11.63	-46.4	-48.0	19.1	0.00e+00	0	44	0	1129316352	63	4563
2026-01-23 03:52:27.24	283.54	11.33	-47.0	-48.7	18.3	0.00e+00	0	44	0	1136656384	64	4688
2026-01-23 03:52:31.27	283.11	11.03	-46.3	-47.9	19.0	0.00e+00	0	44	0	1145044992	64	4277
2026-01-23 03:52:35.30	282.69	10.73	-45.8	-47.2	19.8	0.00e+00	0	44	0	1152385024	63	4156
2026-01-23 03:52:39.34	282.28	10.43	-46.0	-47.5	19.5	0.00e+00	0	44	0	1159725056	63	4303
2026-01-23 03:52:43.37	281.87	10.13	-46.9	-48.6	18.3	0.00e+00	0	44	0	1167065088	64	4633
2026-01-23 03:52:47.41	281.48	9.84	-47.4	-49.3	17.6	0.00e+00	0	44	0	1174405120	65	4753
2026-01-23 03:52:51.44	281.09	9.55	-47.8	-50.0	16.9	0.00e+00	0	44	0	1182793728	66	4825
2026-01-23 03:52:55.47	280.72	9.26	-47.8	-49.9	17.1	0.00e+00	0	44	0	1190133760	66	4790
2026-01-23 03:52:59.51	280.34	8.97	-47.6	-49.6	17.3	0.00e+00	0	44	0	1197473792	66	4645
2026-01-23 03:53:03.54	279.98	8.69	-47.7	-49.7	17.2	0.00e+00	0	44	0	1204813824	66	4684
2026-01-23 03:53:07.57	279.62	8.41	-48.1	-50.4	16.5	0.00e+00	0	44	0	1213202432	66	5060
2026-01-23 03:53:11.60	279.28	8.12	-48.4	-50.8	16.1	0.00e+00	0	43	0	1220542464	67	5025
2026-01-23 03:53:15.63	278.93	7.85	-48.2	-50.6	16.2	0.00e+00	0	44	0	1227882496	67	4875
2026-01-23 03:53:19.67	278.60	7.57	-47.7	-49.8	16.9	0.00e+00	0	44	0	1235222528	67	4490
2026-01-23 03:53:23.69	278.27	7.30	-46.7	-48.5	18.2	0.00e+00	0	43	0	1242562560	65	4296
2026-01-23 03:53:27.73	277.95	7.02	-46.5	-48.2	18.5	0.00e+00	0	44	0	1250951168	64	4398
2026-01-23 03:53:31.76	277.63	6.75	-46.4	-48.1	18.4	0.00e+00	0	44	0	1258291200	64	4364
2026-01-23 03:53:35.79	277.32	6.48	-47.0	-48.9	17.7	0.00e+00	0	44	0	1265631232	64	4791
2026-01-23 03:53:39.82	277.02	6.22	-47.8	-50.0	16.6	0.00e+00	0	44	0	1272971264	66	4846
2026-01-23 03:53:43.85	276.72	5.95	-48.1	-50.5	16.1	0.00e+00	0	44	0	1280311296	67	4817
2026-01-23 03:53:47.89	276.42	5.69	-48.6	-51.3	15.3	0.00e+00	0	44	0	1288699904	67	5301
2026-01-23 03:53:51.92	276.14	5.43	-48.5	-51.0	15.6	0.00e+00	0	44	0	1296039936	68	4863
2026-01-23 03:53:55.95	275.85	5.17	-48.6	-51.3	15.3	0.00e+00	0	43	0	1303379968	68	4997
2026-01-23 03:53:59.98	275.58	4.91	-52.7	-67.7	3.8	1.49e+00	0	44	104	1308622848	75	22018
2026-01-23 03:54:04.02	275.30	4.66	-53.1	-68.0	3.8	1.49e+00	0	44	104	1308622848	76	21719
2026-01-23 03:54:08.05	275.04	4.41	-53.3	-68.3	3.8	1.49e+00	0	44	104	1308622848	77	21088
2026-01-23 03:54:12.08	274.77	4.15	-53.5	-68.5	3.8	1.49e+00	0	44	104	1308622848	77	21519
2026-01-23 03:54:16.12	274.52	3.90	-53.6	-68.5	3.8	1.49e+00	0	44	104	1308622848	77	21729
2026-01-23 03:54:20.15	274.26	3.66	-53.6	-68.6	3.8	1.49e+00	0	44	104	1308622848	77	21795
2026-01-23 03:54:24.19	274.01	3.41	-53.6	-68.5	3.8	1.49e+00	0	44	104	1308622848	77	21753
2026-01-23 03:54:28.22	273.77	3.17	-53.6	-68.5	3.8	1.49e+00	0	44	104	1308622848	77	21748
2026-01-23 03:54:32.26	273.53	2.92	-53.5	-68.5	3.8	1.49e+00	0	44	104	1308622848	77	21686
2026-01-23 03:54:36.29	273.29	2.68	-53.5	-68.5	3.8	1.49e+00	0	44	104	1308622848	77	21732
2026-01-23 03:54:40.33	273.06	2.44	-53.5	-68.5	3.8	1.49e+00	0	44	104	1308622848	77	21716
2026-01-23 03:54:44.36	272.83	2.20	-53.5	-68.5	3.8	1.49e+00	0	44	104	1308622848	77	21675
2026-01-23 03:54:48.39	272.61	1.97	-53.5	-68.5	3.8	1.49e+00	0	44	104	1308622848	77	21621

#Closed at: 2026-01-23 03:54:50
#Recorded file [1308 MB]: D:/lorett/data/31041_260123_064141.dat