passes_logs/2026/01/23/R3.2S_Murmansk/R3.2S_Murmansk__20260123_144009_FENGYUN_3D_rec.log

#Pass ID: 20260123_144009_FENGYUN 3D
#Satellite: FENGYUN 3D
#Configuration: FENGYUN 3D
#almurnet v.1.7.20251203
#Start time: 2026-01-23 14:40:11

#Version: 2.2.20231116
#Station: R3.2S_Murmansk
#Location: 33.079688 lon 68.888172 lat
#TLE: 1 43010U 17072A   26022.47411728  .00000617  00000+0  31375-3 0  9996
#TLE: 2 43010  98.9952 354.4060 0002481  95.7964 264.3494 14.19699924424319

#Time	Az	El	Level	Level2	SNR	BER	BlckErr	Temp	State	Recorded	gain1	gain2
2026-01-23 14:40:11.94	231.63	2.11	-53.8	-65.7	3.8	8.46e-01	0	41	0	0	79	14018
2026-01-23 14:40:14.97	231.90	2.25	-52.8	-64.8	3.8	8.46e-01	0	41	104	0	77	14106
2026-01-23 14:40:17.99	232.18	2.40	-52.8	-64.8	3.8	8.47e-01	0	41	104	0	77	14049
2026-01-23 14:40:21.01	232.46	2.55	-52.8	-64.8	3.8	8.48e-01	0	41	104	0	77	14055
2026-01-23 14:40:24.04	232.74	2.70	-52.8	-64.7	3.8	8.45e-01	0	42	104	0	77	14001
2026-01-23 14:40:27.06	233.03	2.85	-52.8	-64.7	3.8	8.46e-01	0	42	104	0	77	14043
2026-01-23 14:40:30.09	233.31	2.99	-52.8	-64.7	3.8	8.46e-01	0	42	104	0	77	14027
2026-01-23 14:40:33.11	233.61	3.14	-52.8	-64.7	3.8	8.47e-01	0	42	104	0	77	14038
2026-01-23 14:40:36.14	233.90	3.29	-52.8	-64.7	3.8	8.45e-01	0	42	104	0	77	13976
2026-01-23 14:40:39.16	234.20	3.44	-52.8	-64.7	3.8	8.46e-01	0	42	104	0	77	13979
2026-01-23 14:40:42.18	234.49	3.59	-52.8	-64.7	3.8	8.45e-01	0	42	104	0	77	13906
2026-01-23 14:40:45.21	234.80	3.74	-52.8	-64.7	3.8	8.45e-01	0	42	104	0	77	13973
2026-01-23 14:40:48.23	235.10	3.89	-52.7	-64.5	3.8	8.45e-01	0	42	104	0	77	13656
2026-01-23 14:40:51.26	235.41	4.04	-52.7	-64.6	3.8	8.46e-01	0	42	104	0	77	13773
2026-01-23 14:40:54.28	235.72	4.19	-52.8	-64.6	3.8	8.46e-01	0	42	104	0	77	13872
2026-01-23 14:40:57.30	236.03	4.34	-52.7	-64.7	3.8	8.46e-01	0	42	104	0	77	13888
2026-01-23 14:41:00.33	236.35	4.49	-52.6	-63.3	3.8	8.44e-01	0	43	104	0	77	11868
2026-01-23 14:41:03.35	236.67	4.64	-52.5	-62.2	3.8	8.43e-01	0	43	104	0	77	10466
2026-01-23 14:41:06.38	237.00	4.79	-49.3	-52.0	11.5	4.68e-03	0	42	0	7340032	70	4867
2026-01-23 14:41:09.40	237.32	4.94	-44.4	-45.5	18.2	0.00e+00	0	42	0	24117248	60	4093
2026-01-23 14:41:12.42	237.65	5.09	-45.8	-47.3	16.6	0.00e+00	0	43	0	40894464	62	4442
2026-01-23 14:41:15.45	237.99	5.24	-43.0	-44.0	20.0	0.00e+00	0	43	0	58720256	58	3845
2026-01-23 14:41:18.47	238.32	5.39	-42.7	-43.7	20.3	0.00e+00	0	42	0	75497472	56	4165
2026-01-23 14:41:21.50	238.66	5.55	-43.5	-44.5	19.5	0.00e+00	0	43	0	92274688	58	4077
2026-01-23 14:41:24.52	239.01	5.70	-43.0	-44.0	20.0	0.00e+00	0	43	0	109051904	57	4098
2026-01-23 14:41:27.55	239.35	5.85	-43.1	-44.2	19.9	0.00e+00	0	43	0	126877696	57	4151
2026-01-23 14:41:30.57	239.70	6.00	-43.2	-44.2	19.8	0.00e+00	0	43	0	143654912	57	4169
2026-01-23 14:41:33.60	240.06	6.15	-43.3	-44.4	19.7	0.00e+00	0	43	0	160432128	57	4249
2026-01-23 14:41:36.62	240.41	6.30	-43.1	-44.1	20.0	0.00e+00	0	43	0	177209344	57	4123
2026-01-23 14:41:39.65	240.78	6.45	-42.9	-43.9	20.3	0.00e+00	0	43	0	195035136	57	4016
2026-01-23 14:41:42.67	241.14	6.60	-42.8	-43.7	20.4	0.00e+00	0	43	0	211812352	57	3942
2026-01-23 14:41:45.69	241.51	6.75	-42.6	-43.6	20.6	0.00e+00	0	43	0	228589568	57	3873
2026-01-23 14:41:48.72	241.88	6.90	-42.8	-43.8	20.4	0.00e+00	0	43	0	245366784	56	4214
2026-01-23 14:41:51.74	242.26	7.05	-42.8	-43.7	20.5	0.00e+00	0	43	0	263192576	56	4182
2026-01-23 14:41:54.77	242.64	7.21	-42.7	-43.6	20.6	0.00e+00	0	43	0	279969792	56	4128
2026-01-23 14:41:57.79	243.02	7.36	-42.5	-43.4	20.8	0.00e+00	0	43	0	296747008	56	4019
2026-01-23 14:42:00.81	243.40	7.50	-42.4	-43.3	20.9	0.00e+00	0	43	0	313524224	56	3991
2026-01-23 14:42:03.84	243.80	7.66	-42.4	-43.3	20.9	0.00e+00	0	43	0	331350016	56	3996
2026-01-23 14:42:06.86	244.19	7.80	-42.6	-43.5	20.7	0.00e+00	0	43	0	348127232	56	4093
2026-01-23 14:42:09.89	244.59	7.95	-42.8	-43.8	20.5	0.00e+00	0	43	0	364904448	56	4218
2026-01-23 14:42:12.92	244.99	8.10	-42.7	-43.7	20.6	0.00e+00	0	43	0	381681664	56	4155
2026-01-23 14:42:15.94	245.40	8.25	-42.6	-43.5	20.7	0.00e+00	0	43	0	399507456	56	4095
2026-01-23 14:42:18.97	245.81	8.40	-42.2	-43.1	21.2	0.00e+00	0	43	0	416284672	56	3899
2026-01-23 14:42:21.99	246.22	8.55	-42.3	-43.2	21.1	0.00e+00	0	43	0	433061888	56	3931
2026-01-23 14:42:25.02	246.64	8.70	-42.0	-42.9	21.4	0.00e+00	0	43	0	449839104	56	3807
2026-01-23 14:42:28.04	247.06	8.84	-41.9	-42.8	21.5	0.00e+00	0	43	0	467664896	55	3962
2026-01-23 14:42:31.06	247.49	8.99	-41.8	-42.6	21.6	0.00e+00	0	43	0	484442112	55	3913
2026-01-23 14:42:34.09	247.92	9.13	-42.0	-42.9	21.3	0.00e+00	0	43	0	501219328	55	4025
2026-01-23 14:42:37.11	248.36	9.28	-41.9	-42.7	21.5	0.00e+00	0	43	0	517996544	55	3957
2026-01-23 14:42:40.14	248.80	9.43	-41.7	-42.5	21.7	0.00e+00	0	43	0	534773760	55	3866
2026-01-23 14:42:43.16	249.24	9.57	-41.7	-42.6	21.6	0.00e+00	0	43	0	552599552	55	3894
2026-01-23 14:42:46.19	249.69	9.71	-41.9	-42.8	21.5	0.00e+00	0	43	0	569376768	55	3988
2026-01-23 14:42:49.21	250.14	9.86	-41.9	-42.7	21.6	0.00e+00	0	43	0	586153984	55	3950
2026-01-23 14:42:52.24	250.60	10.00	-41.7	-42.6	21.7	0.00e+00	0	43	0	602931200	55	3885
2026-01-23 14:42:55.26	251.05	10.14	-41.6	-42.5	21.8	0.00e+00	0	43	0	619708416	55	3841
2026-01-23 14:42:58.28	251.52	10.28	-41.3	-42.2	22.1	0.00e+00	0	43	0	637534208	54	3920
2026-01-23 14:43:01.31	251.99	10.42	-41.6	-42.4	21.9	0.00e+00	0	43	0	654311424	54	4033
2026-01-23 14:43:04.34	252.46	10.56	-41.4	-42.2	22.1	0.00e+00	0	43	0	671088640	54	3935
2026-01-23 14:43:07.36	252.94	10.70	-41.3	-42.1	22.1	0.00e+00	0	43	0	687865856	54	3905
2026-01-23 14:43:10.39	253.42	10.83	-41.4	-42.2	22.1	0.00e+00	0	43	0	704643072	54	3949
2026-01-23 14:43:13.41	253.91	10.97	-41.5	-42.3	22.0	0.00e+00	0	43	0	722468864	54	3989
2026-01-23 14:43:16.43	254.40	11.10	-41.2	-42.1	22.3	0.00e+00	0	43	0	739246080	54	3870
2026-01-23 14:43:19.46	254.89	11.24	-41.5	-42.4	22.0	0.00e+00	0	43	0	756023296	54	4009
2026-01-23 14:43:22.48	255.39	11.37	-41.2	-42.0	22.3	0.00e+00	0	43	0	772800512	53	4066
2026-01-23 14:43:25.51	255.90	11.50	-41.1	-41.9	22.4	0.00e+00	0	43	0	789577728	53	4051
2026-01-23 14:43:28.53	256.41	11.63	-41.3	-42.1	22.2	0.00e+00	0	43	0	807403520	53	4142
2026-01-23 14:43:31.56	256.92	11.76	-40.9	-41.7	22.6	0.00e+00	0	43	0	824180736	53	3955
2026-01-23 14:43:34.58	257.43	11.89	-41.1	-41.9	22.5	0.00e+00	0	43	0	840957952	53	4008
2026-01-23 14:43:37.61	257.96	12.01	-40.8	-41.6	22.7	0.00e+00	0	43	0	857735168	53	3904
2026-01-23 14:43:40.64	258.48	12.14	-40.9	-41.7	22.6	0.00e+00	0	43	0	875560960	53	3920
2026-01-23 14:43:43.66	259.01	12.26	-40.7	-41.5	22.8	0.00e+00	0	43	0	892338176	53	3830
2026-01-23 14:43:46.68	259.54	12.38	-40.8	-41.6	22.7	0.00e+00	0	43	0	909115392	53	3899
2026-01-23 14:43:49.71	260.08	12.50	-40.9	-41.7	22.7	0.00e+00	0	43	0	925892608	53	3914
2026-01-23 14:43:52.73	260.63	12.62	-40.9	-41.7	22.7	0.00e+00	0	43	0	942669824	53	3935
2026-01-23 14:43:55.76	261.17	12.73	-40.8	-41.6	22.7	0.00e+00	0	43	0	960495616	53	3905
2026-01-23 14:43:58.78	261.72	12.85	-40.8	-41.6	22.8	0.00e+00	0	43	0	977272832	53	3875
2026-01-23 14:44:01.80	262.28	12.96	-40.6	-41.4	22.9	0.00e+00	0	43	0	994050048	53	3814
2026-01-23 14:44:04.82	262.83	13.07	-40.9	-41.7	22.6	0.00e+00	0	43	0	1010827264	53	3951
2026-01-23 14:44:07.85	263.40	13.18	-41.0	-41.8	22.5	0.00e+00	0	43	0	1028653056	53	4004
2026-01-23 14:44:10.87	263.96	13.28	-40.6	-41.3	23.0	0.00e+00	0	44	0	1045430272	53	3780
2026-01-23 14:44:13.90	264.54	13.39	-40.4	-41.1	23.2	0.00e+00	0	43	0	1062207488	52	3901
2026-01-23 14:44:16.92	265.11	13.49	-40.6	-41.4	23.0	0.00e+00	0	43	0	1078984704	52	4016
2026-01-23 14:44:19.95	265.69	13.59	-40.7	-41.5	22.8	0.00e+00	0	43	0	1096810496	52	4091
2026-01-23 14:44:22.97	266.27	13.68	-40.7	-41.5	22.8	0.00e+00	0	44	0	1113587712	52	4090
2026-01-23 14:44:26.00	266.86	13.78	-40.5	-41.3	23.0	0.00e+00	0	43	0	1130364928	52	3977
2026-01-23 14:44:29.02	267.44	13.87	-40.3	-41.1	23.3	0.00e+00	0	43	0	1147142144	52	3884
2026-01-23 14:44:32.05	268.04	13.96	-40.7	-41.4	22.9	0.00e+00	0	43	0	1164967936	52	4044
2026-01-23 14:44:35.07	268.63	14.05	-40.6	-41.4	23.0	0.00e+00	0	43	0	1181745152	52	4020
2026-01-23 14:44:38.10	269.23	14.14	-40.5	-41.3	23.1	0.00e+00	0	43	0	1198522368	52	3959
2026-01-23 14:44:41.13	269.84	14.22	-40.5	-41.3	23.1	0.00e+00	0	44	0	1215299584	52	3959
2026-01-23 14:44:44.15	270.44	14.30	-40.4	-41.1	23.2	0.00e+00	0	43	0	1233125376	52	3909
2026-01-23 14:44:47.18	271.05	14.38	-40.6	-41.4	23.0	0.00e+00	0	43	0	1249902592	52	4013
2026-01-23 14:44:50.20	271.66	14.45	-40.4	-41.2	23.1	0.00e+00	0	43	0	1266679808	52	3937
2026-01-23 14:44:53.22	272.28	14.52	-40.2	-41.0	23.3	0.00e+00	0	43	0	1283457024	52	3845
2026-01-23 14:44:56.25	272.90	14.59	-40.3	-41.1	23.3	0.00e+00	0	44	0	1301282816	52	3879
2026-01-23 14:44:59.28	273.52	14.66	-40.5	-41.3	23.1	0.00e+00	0	43	0	1318060032	52	3965
2026-01-23 14:45:02.30	274.14	14.72	-40.3	-41.1	23.3	0.00e+00	0	43	0	1334837248	52	3879
2026-01-23 14:45:05.33	274.77	14.78	-40.2	-41.0	23.4	0.00e+00	0	43	0	1351614464	52	3857
2026-01-23 14:45:08.35	275.39	14.83	-40.3	-41.0	23.4	0.00e+00	0	44	0	1368391680	52	3864
2026-01-23 14:45:11.38	276.03	14.89	-40.5	-41.2	23.2	0.00e+00	0	44	0	1386217472	52	3958
2026-01-23 14:45:14.41	276.66	14.94	-40.7	-41.6	22.9	0.00e+00	0	44	0	1402994688	52	4102
2026-01-23 14:45:17.43	277.29	14.99	-40.6	-41.4	23.0	0.00e+00	0	44	0	1419771904	52	4024
2026-01-23 14:45:20.46	277.93	15.03	-40.4	-41.1	23.3	0.00e+00	0	44	0	1436549120	52	3907
2026-01-23 14:45:23.49	278.57	15.07	-40.4	-41.1	23.3	0.00e+00	0	43	0	1453326336	52	3898
2026-01-23 14:45:26.51	279.21	15.11	-40.5	-41.3	23.2	0.00e+00	0	43	0	1471152128	52	3976
2026-01-23 14:45:29.54	279.85	15.14	-40.3	-41.1	23.4	0.00e+00	0	44	0	1487929344	52	3875
2026-01-23 14:45:32.56	280.49	15.18	-40.4	-41.2	23.2	0.00e+00	0	43	0	1504706560	52	3936
2026-01-23 14:45:35.59	281.13	15.20	-40.2	-41.0	23.5	0.00e+00	0	44	0	1521483776	52	3832
2026-01-23 14:45:38.61	281.78	15.23	-40.1	-40.9	23.6	0.00e+00	0	43	0	1538260992	52	3803
2026-01-23 14:45:41.64	282.42	15.25	-40.3	-41.1	23.4	0.00e+00	0	44	0	1556086784	52	3881
2026-01-23 14:45:44.66	283.07	15.27	-40.4	-41.1	23.4	0.00e+00	0	44	0	1572864000	52	3906
2026-01-23 14:45:47.69	283.72	15.28	-40.4	-41.2	23.3	0.00e+00	0	44	0	1589641216	52	3930
2026-01-23 14:45:50.72	284.37	15.29	-40.6	-41.4	23.1	0.00e+00	0	43	0	1606418432	52	4026
2026-01-23 14:45:53.74	285.01	15.30	-40.8	-41.6	23.0	0.00e+00	0	43	0	1624244224	52	4111
2026-01-23 14:45:56.77	285.66	15.30	-40.7	-41.5	23.1	0.00e+00	0	44	0	1641021440	52	4074
2026-01-23 14:45:59.79	286.31	15.30	-40.6	-41.4	23.2	0.00e+00	0	44	0	1657798656	52	4005
2026-01-23 14:46:02.82	286.96	15.30	-40.6	-41.3	23.2	0.00e+00	0	44	0	1674575872	52	3996
2026-01-23 14:46:05.85	287.61	15.30	-40.5	-41.3	23.2	0.00e+00	0	44	0	1692401664	52	3989
2026-01-23 14:46:08.87	288.25	15.29	-40.5	-41.4	23.2	0.00e+00	0	44	0	1709178880	52	4005
2026-01-23 14:46:11.90	288.90	15.27	-40.8	-41.6	23.0	0.00e+00	0	43	0	1725956096	52	4107
2026-01-23 14:46:14.92	289.55	15.26	-40.8	-41.6	23.0	0.00e+00	0	44	0	1742733312	52	4120
2026-01-23 14:46:17.95	290.19	15.24	-40.9	-41.7	22.9	0.00e+00	0	44	0	1760559104	52	4176
2026-01-23 14:46:20.97	290.84	15.21	-40.8	-41.6	23.0	0.00e+00	0	44	0	1777336320	52	4134
2026-01-23 14:46:24.00	291.48	15.19	-40.7	-41.5	23.2	0.00e+00	0	44	0	1794113536	52	4058
2026-01-23 14:46:27.03	292.13	15.16	-40.6	-41.4	23.2	0.00e+00	0	44	0	1810890752	52	4030
2026-01-23 14:46:30.05	292.77	15.12	-40.8	-41.5	23.1	0.00e+00	0	43	0	1828716544	52	4089
2026-01-23 14:46:33.08	293.41	15.09	-41.0	-41.8	22.9	0.00e+00	0	43	0	1845493760	52	4202
2026-01-23 14:46:36.10	294.04	15.05	-40.8	-41.6	23.0	0.00e+00	0	44	0	1862270976	52	4132
2026-01-23 14:46:39.13	294.68	15.01	-40.7	-41.5	23.1	0.00e+00	0	43	0	1879048192	52	4083
2026-01-23 14:46:42.15	295.31	14.96	-40.8	-41.6	23.0	0.00e+00	0	43	0	1896873984	52	4115
2026-01-23 14:46:45.17	295.94	14.91	-40.7	-41.5	23.1	0.00e+00	0	44	0	1913651200	52	4071
2026-01-23 14:46:48.19	296.57	14.86	-40.7	-41.5	23.0	0.00e+00	0	44	0	1930428416	52	4088
2026-01-23 14:46:51.22	297.20	14.80	-40.8	-41.6	23.0	0.00e+00	0	43	0	1947205632	52	4109
2026-01-23 14:46:54.25	297.83	14.75	-40.9	-41.7	22.9	0.00e+00	0	44	0	1965031424	52	4160
2026-01-23 14:46:57.28	298.45	14.68	-40.7	-41.5	23.0	0.00e+00	0	44	0	1981808640	52	4081
2026-01-23 14:47:00.30	299.07	14.62	-40.8	-41.6	22.9	0.00e+00	0	44	0	1998585856	52	4118
2026-01-23 14:47:03.33	299.69	14.55	-40.8	-41.6	22.9	0.00e+00	0	44	0	2015363072	52	4099
2026-01-23 14:47:06.35	300.31	14.48	-40.7	-41.5	23.0	0.00e+00	0	44	0	2032140288	52	4090
2026-01-23 14:47:09.38	300.92	14.41	-41.1	-41.9	22.6	0.00e+00	0	44	0	2049966080	52	4268
2026-01-23 14:47:12.40	301.53	14.33	-41.0	-41.8	22.7	0.00e+00	0	44	0	2066743296	52	4227
2026-01-23 14:47:15.43	302.13	14.26	-41.0	-41.8	22.7	0.00e+00	0	44	0	2083520512	52	4206
2026-01-23 14:47:18.45	302.74	14.17	-41.0	-41.8	22.7	0.00e+00	0	44	0	2100297728	52	4204
2026-01-23 14:47:21.48	303.34	14.09	-41.1	-41.9	22.6	0.00e+00	0	43	0	2117074944	52	4251
2026-01-23 14:47:24.51	303.93	14.00	-41.0	-41.8	22.6	0.00e+00	0	44	0	2134900736	52	4218
2026-01-23 14:47:27.53	304.53	13.92	-40.9	-41.8	22.7	0.00e+00	0	44	0	2151677952	52	4195
2026-01-23 14:47:30.56	305.12	13.82	-40.8	-41.6	22.7	0.00e+00	0	44	0	2168455168	52	4139
2026-01-23 14:47:33.59	305.70	13.73	-40.9	-41.7	22.7	0.00e+00	0	43	0	2185232384	52	4156
2026-01-23 14:47:36.61	306.28	13.64	-41.0	-41.8	22.6	0.00e+00	0	44	0	2202009600	52	4239
2026-01-23 14:47:39.64	306.86	13.54	-40.8	-41.6	22.8	0.00e+00	0	43	0	2219835392	52	4113
2026-01-23 14:47:42.66	307.44	13.44	-41.1	-41.9	22.5	0.00e+00	0	43	0	2236612608	52	4258
2026-01-23 14:47:45.69	308.01	13.33	-41.1	-41.9	22.5	0.00e+00	0	44	0	2253389824	52	4258
2026-01-23 14:47:48.71	308.57	13.23	-40.9	-41.7	22.7	0.00e+00	0	44	0	2270167040	52	4165
2026-01-23 14:47:51.74	309.14	13.12	-41.1	-41.9	22.4	0.00e+00	0	44	0	2287992832	52	4282
2026-01-23 14:47:54.76	309.70	13.01	-41.2	-42.1	22.3	0.00e+00	0	44	0	2304770048	53	4100
2026-01-23 14:47:57.79	310.25	12.90	-41.1	-41.9	22.5	0.00e+00	0	44	0	2321547264	53	4020
2026-01-23 14:48:00.82	310.80	12.79	-41.2	-42.0	22.3	0.00e+00	0	44	0	2338324480	53	4079
2026-01-23 14:48:03.85	311.35	12.68	-41.3	-42.1	22.2	0.00e+00	0	44	0	2356150272	53	4144
2026-01-23 14:48:06.87	311.89	12.56	-41.3	-42.1	22.2	0.00e+00	0	43	0	2372927488	53	4129
2026-01-23 14:48:09.90	312.43	12.44	-41.3	-42.1	22.2	0.00e+00	0	43	0	2389704704	53	4134
2026-01-23 14:48:12.93	312.97	12.32	-41.2	-42.0	22.3	0.00e+00	0	43	0	2406481920	53	4085
2026-01-23 14:48:15.95	313.50	12.20	-41.2	-42.1	22.2	0.00e+00	0	44	0	2424307712	53	4109
2026-01-23 14:48:18.98	314.02	12.08	-41.2	-42.1	22.2	0.00e+00	0	43	0	2441084928	53	4107
2026-01-23 14:48:22.00	314.54	11.95	-41.3	-42.1	22.2	0.00e+00	0	44	0	2457862144	53	4118
2026-01-23 14:48:25.03	315.06	11.83	-41.4	-42.2	22.0	0.00e+00	0	44	0	2474639360	53	4179
2026-01-23 14:48:28.05	315.57	11.70	-41.3	-42.1	22.1	0.00e+00	0	44	0	2492465152	53	4123
2026-01-23 14:48:31.08	316.08	11.57	-41.2	-42.1	22.2	0.00e+00	0	44	0	2509242368	53	4106
2026-01-23 14:48:34.11	316.59	11.44	-41.3	-42.1	22.1	0.00e+00	0	44	0	2526019584	53	4134
2026-01-23 14:48:37.13	317.09	11.31	-41.3	-42.1	22.1	0.00e+00	0	44	0	2542796800	53	4137
2026-01-23 14:48:40.16	317.58	11.18	-41.6	-42.4	21.8	0.00e+00	0	44	0	2560622592	53	4270
2026-01-23 14:48:43.19	318.07	11.05	-41.7	-42.5	21.7	0.00e+00	0	44	0	2577399808	53	4331
2026-01-23 14:48:46.21	318.56	10.91	-41.8	-42.7	21.6	0.00e+00	0	44	0	2594177024	54	4150
2026-01-23 14:48:49.24	319.04	10.78	-41.7	-42.6	21.6	0.00e+00	0	44	0	2610954240	54	4130
2026-01-23 14:48:52.27	319.52	10.64	-41.7	-42.6	21.6	0.00e+00	0	44	0	2628780032	54	4107
2026-01-23 14:48:55.29	320.00	10.50	-41.7	-42.6	21.6	0.00e+00	0	43	0	2645557248	54	4110
2026-01-23 14:48:58.32	320.47	10.36	-41.8	-42.7	21.5	0.00e+00	0	43	0	2662334464	54	4173
2026-01-23 14:49:01.35	320.93	10.22	-41.7	-42.6	21.6	0.00e+00	0	44	0	2679111680	54	4124
2026-01-23 14:49:04.37	321.39	10.08	-41.7	-42.6	21.5	0.00e+00	0	44	0	2695888896	54	4130
2026-01-23 14:49:07.40	321.85	9.94	-41.7	-42.5	21.6	0.00e+00	0	44	0	2713714688	54	4094
2026-01-23 14:49:10.43	322.30	9.80	-41.8	-42.7	21.5	0.00e+00	0	44	0	2730491904	54	4148
2026-01-23 14:49:13.45	322.75	9.66	-41.7	-42.6	21.5	0.00e+00	0	43	0	2747269120	54	4105
2026-01-23 14:49:16.48	323.19	9.52	-41.8	-42.6	21.5	0.00e+00	0	44	0	2764046336	54	4140
2026-01-23 14:49:19.50	323.63	9.37	-42.0	-42.9	21.2	0.00e+00	0	43	0	2780823552	54	4273
2026-01-23 14:49:22.53	324.07	9.23	-42.2	-43.1	21.0	0.00e+00	0	43	0	2798649344	55	4116
2026-01-23 14:49:25.55	324.50	9.08	-42.1	-43.0	21.0	0.00e+00	0	43	0	2815426560	55	4096
2026-01-23 14:49:28.58	324.93	8.94	-42.1	-43.0	21.0	0.00e+00	0	44	0	2832203776	55	4081
2026-01-23 14:49:31.61	325.35	8.79	-42.2	-43.1	21.0	0.00e+00	0	44	0	2848980992	55	4120
2026-01-23 14:49:34.63	325.77	8.65	-42.3	-43.2	20.9	0.00e+00	0	43	0	2865758208	55	4166
2026-01-23 14:49:37.65	326.19	8.50	-42.3	-43.2	20.9	0.00e+00	0	43	0	2883584000	55	4152
2026-01-23 14:49:40.68	326.60	8.35	-42.2	-43.1	20.9	0.00e+00	0	43	0	2900361216	55	4144
2026-01-23 14:49:43.70	327.00	8.21	-42.3	-43.3	20.7	0.00e+00	0	43	0	2917138432	55	4199
2026-01-23 14:49:46.73	327.41	8.06	-42.3	-43.2	20.8	0.00e+00	0	44	0	2933915648	55	4189
2026-01-23 14:49:49.75	327.81	7.91	-42.4	-43.4	20.6	0.00e+00	0	43	0	2951741440	55	4260
2026-01-23 14:49:52.78	328.20	7.76	-42.5	-43.5	20.5	0.00e+00	0	44	0	2968518656	55	4302
2026-01-23 14:49:55.80	328.59	7.61	-42.5	-43.5	20.5	0.00e+00	0	43	0	2985295872	55	4314
2026-01-23 14:49:58.83	328.98	7.47	-42.6	-43.6	20.5	0.00e+00	0	44	0	3002073088	56	4099
2026-01-23 14:50:01.85	329.36	7.32	-42.7	-43.6	20.4	0.00e+00	0	44	0	3019898880	56	4142
2026-01-23 14:50:04.87	329.74	7.17	-42.7	-43.7	20.3	0.00e+00	0	44	0	3036676096	56	4176
2026-01-23 14:50:07.90	330.12	7.02	-42.9	-43.9	20.1	0.00e+00	0	43	0	3053453312	56	4277
2026-01-23 14:50:10.92	330.49	6.87	-42.8	-43.8	20.2	0.00e+00	0	44	0	3070230528	56	4221
2026-01-23 14:50:13.94	330.86	6.72	-42.5	-43.4	20.4	0.00e+00	0	44	0	3088056320	56	4047
2026-01-23 14:50:16.96	331.23	6.57	-42.9	-43.9	20.0	0.00e+00	0	43	0	3104833536	56	4250
2026-01-23 14:50:19.99	331.59	6.42	-42.9	-43.9	20.1	0.00e+00	0	44	0	3121610752	57	4011
2026-01-23 14:50:23.01	331.95	6.27	-43.1	-44.1	19.8	0.00e+00	0	43	0	3138387968	57	4144
2026-01-23 14:50:26.04	332.30	6.12	-43.3	-44.3	19.6	0.00e+00	0	43	0	3156213760	57	4241
2026-01-23 14:50:29.06	332.65	5.97	-43.5	-44.6	19.4	0.00e+00	0	43	0	3172990976	57	4353
2026-01-23 14:50:32.08	333.00	5.82	-44.0	-45.1	18.8	0.00e+00	0	44	0	3189768192	58	4391
2026-01-23 14:50:35.11	333.35	5.67	-44.3	-45.5	18.1	0.00e+00	0	44	0	3206545408	60	4058
2026-01-23 14:50:38.13	333.69	5.52	-43.3	-44.3	19.5	0.00e+00	0	44	0	3224371200	58	3986
2026-01-23 14:50:41.16	334.03	5.37	-43.6	-44.7	19.1	0.00e+00	0	44	0	3241148416	59	3927
2026-01-23 14:50:44.18	334.36	5.22	-42.7	-43.7	19.8	0.00e+00	0	44	0	3257925632	57	3926
2026-01-23 14:50:47.21	334.69	5.07	-43.1	-44.3	18.9	0.00e+00	0	44	0	3274702848	57	4199
2026-01-23 14:50:50.23	335.02	4.92	-53.1	-65.1	3.8	8.47e-01	0	44	104	3283091456	76	15410
2026-01-23 14:50:53.26	335.34	4.77	-53.5	-65.5	3.8	8.45e-01	0	43	104	3283091456	77	15227
2026-01-23 14:50:56.28	335.67	4.62	-53.6	-65.6	3.8	8.46e-01	0	44	104	3283091456	77	15463
2026-01-23 14:50:59.31	335.99	4.47	-53.5	-65.5	3.8	8.46e-01	0	44	104	3283091456	77	15322
2026-01-23 14:51:02.33	336.30	4.33	-53.4	-65.3	3.8	8.46e-01	0	44	104	3283091456	77	15040
2026-01-23 14:51:05.36	336.61	4.18	-53.5	-65.4	3.8	8.47e-01	0	44	104	3283091456	77	15152
2026-01-23 14:51:08.38	336.92	4.03	-53.6	-65.5	3.8	8.46e-01	0	44	104	3283091456	77	15339
2026-01-23 14:51:11.40	337.23	3.88	-53.5	-65.5	3.8	8.46e-01	0	44	104	3283091456	77	15297
2026-01-23 14:51:14.43	337.53	3.73	-53.5	-65.4	3.8	8.47e-01	0	44	104	3283091456	77	15190
2026-01-23 14:51:17.45	337.83	3.58	-53.5	-65.4	3.8	8.47e-01	0	44	104	3283091456	77	15154
2026-01-23 14:51:20.47	338.13	3.44	-53.5	-65.4	3.8	8.47e-01	0	43	104	3283091456	77	15177
2026-01-23 14:51:23.50	338.43	3.29	-53.4	-65.4	3.8	8.46e-01	0	44	104	3283091456	77	15097
2026-01-23 14:51:26.52	338.72	3.14	-53.4	-65.4	3.8	8.46e-01	0	44	104	3283091456	77	15127
2026-01-23 14:51:29.55	339.01	2.99	-53.4	-65.4	3.8	8.46e-01	0	44	104	3283091456	77	15100
2026-01-23 14:51:32.57	339.29	2.85	-53.4	-65.4	3.8	8.45e-01	0	44	104	3283091456	77	15064
2026-01-23 14:51:35.59	339.58	2.70	-53.4	-65.3	3.8	8.47e-01	0	44	104	3283091456	77	15047
2026-01-23 14:51:38.61	339.86	2.55	-53.4	-65.3	3.8	8.46e-01	0	44	104	3283091456	77	14986
2026-01-23 14:51:41.64	340.14	2.41	-53.4	-65.3	3.8	8.47e-01	0	44	104	3283091456	77	15035
2026-01-23 14:51:44.66	340.41	2.26	-53.4	-65.3	3.8	8.47e-01	0	44	104	3283091456	77	14990
2026-01-23 14:51:47.68	340.69	2.11	-53.4	-65.3	3.8	8.46e-01	0	44	104	3283091456	77	15033

#Closed at: 2026-01-23 14:51:50
#Recorded file [3283 MB]: D:/lorett/data/31041_260123_174011.dat