passes_logs/2026/01/23/R3.2S_Murmansk/R3.2S_Murmansk__20260123_093704_FENGYUN_3D_rec.log

#Pass ID: 20260123_093704_FENGYUN 3D
#Satellite: FENGYUN 3D
#Configuration: FENGYUN 3D
#almurnet v.1.7.20251203
#Start time: 2026-01-23 09:37:05

#Version: 2.2.20231116
#Station: R3.2S_Murmansk
#Location: 33.079688 lon 68.888172 lat
#TLE: 1 43010U 17072A   26022.47411728  .00000617  00000+0  31375-3 0  9996
#TLE: 2 43010  98.9952 354.4060 0002481  95.7964 264.3494 14.19699924424319

#Time	Az	El	Level	Level2	SNR	BER	BlckErr	Temp	State	Recorded	gain1	gain2
2026-01-23 09:37:05.64	106.71	2.09	-54.3	-66.3	3.8	8.46e-01	0	40	0	0	79	14930
2026-01-23 09:37:09.67	106.54	2.33	-54.5	-66.5	3.8	8.47e-01	0	40	104	0	79	15232
2026-01-23 09:37:13.70	106.37	2.58	-54.4	-66.4	3.8	8.45e-01	0	41	104	0	79	15096
2026-01-23 09:37:17.74	106.20	2.84	-54.1	-66.1	3.8	8.48e-01	0	41	104	0	79	14697
2026-01-23 09:37:21.76	106.02	3.09	-53.9	-65.9	3.8	8.45e-01	0	41	104	0	79	14250
2026-01-23 09:37:25.80	105.84	3.35	-53.6	-65.6	3.8	8.47e-01	0	41	104	0	79	13786
2026-01-23 09:37:29.84	105.66	3.61	-53.4	-65.3	3.8	8.46e-01	0	41	104	0	78	14193
2026-01-23 09:37:33.87	105.47	3.87	-52.8	-64.8	3.8	8.46e-01	0	41	104	0	77	14072
2026-01-23 09:37:37.90	105.28	4.13	-51.8	-60.5	4.2	8.38e-01	0	42	0	0	75	9706
2026-01-23 09:37:41.93	105.08	4.40	-49.7	-53.4	9.5	2.78e-02	0	41	0	13631488	71	5379
2026-01-23 09:37:45.97	104.89	4.66	-46.6	-48.5	14.6	1.10e-06	0	41	0	36700160	65	4294
2026-01-23 09:37:50.00	104.68	4.93	-46.0	-47.7	15.4	0.00e+00	0	41	0	58720256	63	4409
2026-01-23 09:37:54.04	104.48	5.21	-50.7	-55.9	6.9	6.52e-02	0	41	0	81788928	72	6759
2026-01-23 09:37:58.07	104.27	5.48	-43.8	-44.9	18.7	0.00e+00	0	42	0	99614720	59	4031
2026-01-23 09:38:02.10	104.05	5.76	-43.9	-45.0	18.6	0.00e+00	0	42	0	121634816	58	4336
2026-01-23 09:38:06.14	103.83	6.04	-43.5	-44.7	18.9	0.00e+00	0	42	0	144703488	58	4162
2026-01-23 09:38:10.17	103.61	6.32	-43.5	-44.6	19.0	0.00e+00	0	42	0	167772160	58	4136
2026-01-23 09:38:14.20	103.38	6.61	-43.5	-44.6	19.0	0.00e+00	0	42	0	189792256	58	4134
2026-01-23 09:38:18.24	103.15	6.90	-43.4	-44.5	19.2	0.00e+00	0	42	0	212860928	58	4060
2026-01-23 09:38:22.27	102.91	7.19	-43.0	-44.1	19.6	0.00e+00	0	42	0	235929600	58	3883
2026-01-23 09:38:26.30	102.67	7.48	-42.9	-44.0	19.8	0.00e+00	0	42	0	257949696	57	4055
2026-01-23 09:38:30.34	102.42	7.78	-42.9	-43.9	19.9	0.00e+00	0	42	0	279969792	57	4019
2026-01-23 09:38:34.37	102.16	8.08	-42.7	-43.7	20.0	0.00e+00	0	42	0	303038464	57	3952
2026-01-23 09:38:38.40	101.90	8.38	-42.4	-43.4	20.3	0.00e+00	0	42	0	326107136	56	4036
2026-01-23 09:38:42.44	101.64	8.68	-42.4	-43.4	20.4	0.00e+00	0	42	0	348127232	56	4015
2026-01-23 09:38:46.47	101.37	8.99	-42.2	-43.2	20.6	0.00e+00	0	42	0	371195904	56	3920
2026-01-23 09:38:50.50	101.09	9.30	-42.5	-43.5	20.3	0.00e+00	0	42	0	394264576	56	4090
2026-01-23 09:38:54.53	100.81	9.62	-42.4	-43.4	20.4	0.00e+00	0	42	0	416284672	56	4040
2026-01-23 09:38:58.56	100.52	9.94	-42.1	-43.1	20.7	0.00e+00	0	42	0	439353344	56	3894
2026-01-23 09:39:02.60	100.22	10.26	-42.1	-43.1	20.8	0.00e+00	0	42	0	462422016	56	3883
2026-01-23 09:39:06.63	99.92	10.59	-42.1	-43.0	20.8	0.00e+00	0	42	0	484442112	56	3865
2026-01-23 09:39:10.67	99.61	10.91	-42.0	-43.0	20.9	0.00e+00	0	42	0	507510784	56	3830
2026-01-23 09:39:14.70	99.29	11.25	-41.9	-42.8	21.0	0.00e+00	0	42	0	530579456	55	4002
2026-01-23 09:39:18.73	98.96	11.58	-41.7	-42.7	21.2	0.00e+00	0	42	0	552599552	55	3923
2026-01-23 09:39:22.76	98.63	11.92	-41.5	-42.4	21.4	0.00e+00	0	42	0	575668224	55	3814
2026-01-23 09:39:26.79	98.29	12.27	-41.5	-42.4	21.5	0.00e+00	0	42	0	598736896	54	4010
2026-01-23 09:39:30.82	97.94	12.61	-41.3	-42.2	21.6	0.00e+00	0	42	0	620756992	54	3927
2026-01-23 09:39:34.86	97.58	12.96	-41.2	-42.1	21.7	0.00e+00	0	42	0	643825664	54	3894
2026-01-23 09:39:38.89	97.21	13.32	-41.1	-42.0	21.9	0.00e+00	0	42	0	665845760	54	3839
2026-01-23 09:39:42.92	96.84	13.68	-41.1	-42.0	21.9	0.00e+00	0	42	0	688914432	53	4054
2026-01-23 09:39:46.95	96.45	14.04	-41.1	-42.0	21.8	0.00e+00	0	42	0	711983104	53	4088
2026-01-23 09:39:50.99	96.05	14.41	-41.0	-41.9	22.0	0.00e+00	0	42	0	734003200	53	4039
2026-01-23 09:39:55.02	95.65	14.78	-41.0	-41.9	22.0	0.00e+00	0	43	0	757071872	53	4015
2026-01-23 09:39:59.05	95.23	15.16	-41.0	-41.9	22.0	0.00e+00	0	42	0	780140544	53	4012
2026-01-23 09:40:03.08	94.80	15.54	-40.7	-41.6	22.3	0.00e+00	0	42	0	802160640	53	3884
2026-01-23 09:40:07.12	94.36	15.92	-40.5	-41.3	22.6	0.00e+00	0	42	0	825229312	52	3988
2026-01-23 09:40:11.15	93.91	16.31	-40.4	-41.2	22.9	0.00e+00	0	42	0	848297984	52	3942
2026-01-23 09:40:15.18	93.44	16.70	-40.3	-41.1	23.0	0.00e+00	0	42	0	870318080	52	3892
2026-01-23 09:40:19.21	92.97	17.10	-40.4	-41.1	23.0	0.00e+00	0	42	0	893386752	52	3906
2026-01-23 09:40:23.24	92.48	17.50	-40.3	-41.1	23.1	0.00e+00	0	42	0	916455424	52	3901
2026-01-23 09:40:27.27	91.98	17.91	-40.3	-41.1	23.1	0.00e+00	0	42	0	938475520	52	3875
2026-01-23 09:40:31.31	91.46	18.32	-40.0	-40.8	23.4	0.00e+00	0	42	0	961544192	52	3760
2026-01-23 09:40:35.35	90.93	18.73	-40.0	-40.8	23.5	0.00e+00	0	43	0	984612864	51	3990
2026-01-23 09:40:39.38	90.38	19.15	-40.0	-40.8	23.5	0.00e+00	0	42	0	1006632960	51	3972
2026-01-23 09:40:43.41	89.82	19.58	-39.9	-40.7	23.6	0.00e+00	0	42	0	1028653056	51	3926
2026-01-23 09:40:47.44	89.24	20.00	-39.7	-40.5	23.8	0.00e+00	0	43	0	1051721728	51	3838
2026-01-23 09:40:51.48	88.64	20.44	-39.7	-40.4	23.9	0.00e+00	0	42	0	1074790400	51	3813
2026-01-23 09:40:55.51	88.03	20.87	-39.7	-40.4	23.9	0.00e+00	0	42	0	1096810496	51	3820
2026-01-23 09:40:59.54	87.40	21.31	-39.5	-40.3	24.0	0.00e+00	0	42	0	1119879168	51	3752
2026-01-23 09:41:03.57	86.75	21.75	-39.1	-39.8	24.5	0.00e+00	0	42	0	1142947840	50	3750
2026-01-23 09:41:07.61	86.08	22.20	-39.2	-39.9	24.3	0.00e+00	0	42	0	1164967936	49	4050
2026-01-23 09:41:11.64	85.39	22.65	-39.1	-39.8	24.5	0.00e+00	0	42	0	1188036608	49	3968
2026-01-23 09:41:15.67	84.68	23.11	-39.0	-39.7	24.6	0.00e+00	0	43	0	1211105280	49	3943
2026-01-23 09:41:19.70	83.95	23.57	-39.0	-39.8	24.5	0.00e+00	0	42	0	1233125376	49	3964
2026-01-23 09:41:23.73	83.20	24.03	-39.0	-39.7	24.6	0.00e+00	0	43	0	1256194048	49	3954
2026-01-23 09:41:27.77	82.43	24.49	-38.8	-39.6	24.8	0.00e+00	0	42	0	1279262720	49	3869
2026-01-23 09:41:31.81	81.63	24.96	-38.6	-39.3	25.0	0.00e+00	0	42	0	1301282816	49	3779
2026-01-23 09:41:35.84	80.80	25.42	-38.6	-39.3	25.1	0.00e+00	0	43	0	1324351488	49	3739
2026-01-23 09:41:39.88	79.95	25.89	-38.9	-39.6	24.8	0.00e+00	0	43	0	1347420160	49	3881
2026-01-23 09:41:43.91	79.08	26.36	-38.7	-39.4	24.9	0.00e+00	0	42	0	1369440256	49	3814
2026-01-23 09:41:47.94	78.18	26.83	-38.4	-39.1	25.2	0.00e+00	0	42	0	1392508928	48	3874
2026-01-23 09:41:51.98	77.25	27.31	-38.5	-39.2	25.2	0.00e+00	0	42	0	1414529024	48	3930
2026-01-23 09:41:56.01	76.30	27.78	-38.3	-39.0	25.3	0.00e+00	0	43	0	1437597696	48	3865
2026-01-23 09:42:00.05	75.31	28.24	-38.3	-39.0	25.3	0.00e+00	0	42	0	1460666368	48	3860
2026-01-23 09:42:04.08	74.30	28.71	-38.3	-39.0	25.3	0.00e+00	0	42	0	1482686464	48	3845
2026-01-23 09:42:08.12	73.25	29.18	-38.4	-39.1	25.2	0.00e+00	0	42	0	1505755136	48	3903
2026-01-23 09:42:12.15	72.18	29.64	-38.2	-38.9	25.5	0.00e+00	0	43	0	1528823808	48	3781
2026-01-23 09:42:16.18	71.07	30.09	-38.2	-38.9	25.4	0.00e+00	0	42	0	1550843904	48	3817
2026-01-23 09:42:20.21	69.93	30.54	-38.2	-38.9	25.5	0.00e+00	0	43	0	1573912576	48	3787
2026-01-23 09:42:24.24	68.76	30.99	-37.7	-38.4	25.4	0.00e+00	0	43	0	1596981248	47	3788
2026-01-23 09:42:28.28	67.56	31.43	-37.6	-38.2	25.6	0.00e+00	0	42	0	1619001344	47	3735
2026-01-23 09:42:32.32	66.32	31.86	-37.3	-38.0	25.8	0.00e+00	0	42	0	1642070016	46	3827
2026-01-23 09:42:36.35	65.05	32.28	-37.5	-38.2	25.6	0.00e+00	0	42	0	1665138688	46	3929
2026-01-23 09:42:40.39	63.75	32.69	-37.4	-38.1	25.6	0.00e+00	0	42	0	1687158784	46	3910
2026-01-23 09:42:44.42	62.41	33.09	-37.5	-38.2	25.7	0.00e+00	0	42	0	1710227456	46	3920
2026-01-23 09:42:48.45	61.05	33.47	-37.5	-38.2	25.6	0.00e+00	0	42	0	1733296128	46	3928
2026-01-23 09:42:52.48	59.65	33.84	-37.4	-38.1	25.7	0.00e+00	0	42	0	1755316224	46	3895
2026-01-23 09:42:56.52	58.21	34.20	-37.2	-37.9	25.9	0.00e+00	0	42	0	1777336320	46	3785
2026-01-23 09:43:00.55	56.75	34.53	-37.3	-38.0	25.8	0.00e+00	0	42	0	1800404992	46	3838
2026-01-23 09:43:04.58	55.26	34.85	-37.4	-38.1	25.8	0.00e+00	0	42	0	1823473664	46	3889
2026-01-23 09:43:08.61	53.74	35.15	-37.1	-37.7	26.1	0.00e+00	0	42	0	1845493760	46	3729
2026-01-23 09:43:12.64	52.19	35.43	-37.1	-37.7	26.1	0.00e+00	0	42	0	1868562432	46	3736
2026-01-23 09:43:16.68	50.62	35.69	-37.3	-38.0	25.8	0.00e+00	0	42	0	1891631104	46	3849
2026-01-23 09:43:20.71	49.02	35.92	-37.4	-38.1	25.7	0.00e+00	0	43	0	1913651200	46	3910
2026-01-23 09:43:24.75	47.40	36.13	-37.4	-38.1	25.8	0.00e+00	0	42	0	1936719872	46	3883
2026-01-23 09:43:28.78	45.76	36.32	-37.2	-37.9	26.0	0.00e+00	0	42	0	1959788544	46	3784
2026-01-23 09:43:32.82	44.10	36.47	-37.7	-38.4	25.5	0.00e+00	0	42	0	1981808640	46	4029
2026-01-23 09:43:36.85	42.43	36.61	-37.3	-38.0	25.9	0.00e+00	0	42	0	2004877312	46	3846
2026-01-23 09:43:40.88	40.75	36.71	-37.3	-38.0	25.8	0.00e+00	0	42	0	2027945984	46	3853
2026-01-23 09:43:44.92	39.05	36.78	-37.5	-38.2	25.7	0.00e+00	0	43	0	2049966080	46	3923
2026-01-23 09:43:48.95	37.35	36.83	-37.4	-38.1	25.8	0.00e+00	0	43	0	2073034752	46	3908
2026-01-23 09:43:52.98	35.65	36.85	-37.3	-38.0	25.9	0.00e+00	0	42	0	2096103424	46	3840
2026-01-23 09:43:57.02	33.94	36.84	-37.2	-37.9	26.0	0.00e+00	0	42	0	2118123520	46	3810
2026-01-23 09:44:01.05	32.25	36.80	-37.2	-37.9	26.0	0.00e+00	0	42	0	2141192192	46	3797
2026-01-23 09:44:05.08	30.55	36.73	-37.2	-37.9	26.0	0.00e+00	0	43	0	2163212288	46	3804
2026-01-23 09:44:09.12	28.86	36.63	-37.3	-37.9	25.9	0.00e+00	0	42	0	2186280960	46	3822
2026-01-23 09:44:13.15	27.19	36.51	-37.3	-38.0	25.9	0.00e+00	0	42	0	2209349632	46	3829
2026-01-23 09:44:17.18	25.53	36.36	-37.1	-37.7	26.1	0.00e+00	0	43	0	2231369728	46	3737
2026-01-23 09:44:21.22	23.89	36.18	-37.0	-37.7	26.1	0.00e+00	0	43	0	2254438400	45	3929
2026-01-23 09:44:25.25	22.26	35.98	-37.1	-37.8	26.0	0.00e+00	0	42	0	2277507072	45	3977
2026-01-23 09:44:29.28	20.66	35.75	-37.2	-37.9	25.9	0.00e+00	0	43	0	2299527168	45	4023
2026-01-23 09:44:33.32	19.08	35.50	-36.8	-37.4	26.3	0.00e+00	0	43	0	2322595840	45	3819
2026-01-23 09:44:37.35	17.53	35.22	-36.8	-37.5	26.3	0.00e+00	0	43	0	2345664512	45	3858
2026-01-23 09:44:41.38	16.00	34.93	-37.0	-37.6	26.2	0.00e+00	0	43	0	2367684608	45	3904
2026-01-23 09:44:45.41	14.51	34.61	-37.2	-37.9	26.0	0.00e+00	0	43	0	2390753280	45	4017
2026-01-23 09:44:49.45	13.04	34.28	-36.8	-37.5	26.2	0.00e+00	0	42	0	2413821952	45	3849
2026-01-23 09:44:53.48	11.60	33.93	-36.9	-37.5	26.2	0.00e+00	0	42	0	2435842048	45	3867
2026-01-23 09:44:57.52	10.19	33.56	-36.8	-37.5	26.2	0.00e+00	0	43	0	2458910720	45	3849
2026-01-23 09:45:01.55	8.82	33.18	-36.9	-37.6	26.2	0.00e+00	0	42	0	2481979392	45	3904
2026-01-23 09:45:05.58	7.48	32.79	-37.0	-37.7	26.1	0.00e+00	0	43	0	2503999488	45	3916
2026-01-23 09:45:09.61	6.17	32.38	-37.1	-37.8	26.0	0.00e+00	0	42	0	2526019584	45	3968
2026-01-23 09:45:13.64	4.90	31.97	-37.2	-37.9	25.9	0.00e+00	0	43	0	2549088256	45	4013
2026-01-23 09:45:17.67	3.66	31.54	-37.3	-38.0	25.8	0.00e+00	0	42	0	2572156928	45	4058
2026-01-23 09:45:21.71	2.45	31.11	-37.2	-37.9	25.9	0.00e+00	0	42	0	2594177024	45	4033
2026-01-23 09:45:25.74	1.27	30.66	-37.2	-37.8	26.0	0.00e+00	0	42	0	2617245696	45	3993
2026-01-23 09:45:29.78	0.13	30.21	-37.4	-38.1	25.7	0.00e+00	0	42	0	2640314368	45	4115
2026-01-23 09:45:33.81	359.02	29.76	-37.0	-37.7	26.0	0.00e+00	0	42	0	2662334464	45	3947
2026-01-23 09:45:37.84	357.94	29.30	-37.2	-37.9	25.9	0.00e+00	0	43	0	2685403136	45	4023
2026-01-23 09:45:41.87	356.89	28.84	-37.3	-38.0	25.8	0.00e+00	0	42	0	2708471808	45	4090
2026-01-23 09:45:45.91	355.87	28.37	-37.6	-38.3	25.6	0.00e+00	0	42	0	2730491904	45	4205
2026-01-23 09:45:49.94	354.88	27.90	-37.5	-38.2	25.6	0.00e+00	0	43	0	2753560576	45	4164
2026-01-23 09:45:53.97	353.92	27.44	-37.9	-38.6	25.3	0.00e+00	0	43	0	2776629248	46	4107
2026-01-23 09:45:58.00	352.98	26.97	-37.8	-38.5	25.3	0.00e+00	0	42	0	2798649344	46	4085
2026-01-23 09:46:02.03	352.08	26.50	-37.7	-38.4	25.4	0.00e+00	0	43	0	2821718016	46	4025
2026-01-23 09:46:06.06	351.20	26.03	-38.0	-38.7	25.1	0.00e+00	0	42	0	2844786688	46	4180
2026-01-23 09:46:10.09	350.35	25.56	-37.9	-38.6	25.3	0.00e+00	0	43	0	2866806784	46	4130
2026-01-23 09:46:14.13	349.52	25.09	-38.1	-38.8	25.1	0.00e+00	0	42	0	2888826880	47	4000
2026-01-23 09:46:18.16	348.72	24.63	-38.3	-39.0	24.9	0.00e+00	0	43	0	2911895552	47	4069
2026-01-23 09:46:22.19	347.94	24.17	-38.4	-39.1	24.8	0.00e+00	0	43	0	2934964224	47	4135
2026-01-23 09:46:26.22	347.18	23.71	-38.2	-39.0	24.9	0.00e+00	0	43	0	2956984320	47	4053
2026-01-23 09:46:30.25	346.45	23.25	-38.1	-38.8	25.1	0.00e+00	0	43	0	2980052992	47	3981
2026-01-23 09:46:34.28	345.74	22.79	-38.2	-38.9	24.9	0.00e+00	0	42	0	3003121664	47	4047
2026-01-23 09:46:38.31	345.05	22.34	-38.1	-38.8	25.0	0.00e+00	0	42	0	3025141760	47	3984
2026-01-23 09:46:42.35	344.37	21.89	-38.4	-39.1	24.8	0.00e+00	0	42	0	3048210432	47	4128
2026-01-23 09:46:46.38	343.72	21.45	-38.5	-39.2	24.6	0.00e+00	0	42	0	3071279104	47	4176
2026-01-23 09:46:50.41	343.09	21.01	-38.5	-39.2	24.6	0.00e+00	0	43	0	3093299200	47	4184
2026-01-23 09:46:54.44	342.47	20.58	-38.5	-39.2	24.7	0.00e+00	0	43	0	3116367872	47	4163
2026-01-23 09:46:58.47	341.88	20.14	-38.6	-39.3	24.5	0.00e+00	0	43	0	3139436544	47	4241
2026-01-23 09:47:02.51	341.29	19.72	-39.1	-39.8	24.6	0.00e+00	0	43	0	3161456640	48	4234
2026-01-23 09:47:06.54	340.73	19.29	-39.3	-40.0	24.4	0.00e+00	0	43	0	3184525312	49	4071
2026-01-23 09:47:10.57	340.18	18.87	-39.3	-40.0	24.4	0.00e+00	0	43	0	3207593984	49	4086
2026-01-23 09:47:14.60	339.65	18.46	-39.4	-40.2	24.3	0.00e+00	0	43	0	3229614080	49	4147
2026-01-23 09:47:18.64	339.13	18.05	-39.5	-40.2	24.2	0.00e+00	0	42	0	3251634176	49	4183
2026-01-23 09:47:22.67	338.62	17.64	-39.6	-40.3	24.1	0.00e+00	0	43	0	3274702848	49	4241
2026-01-23 09:47:26.70	338.13	17.24	-39.9	-40.7	23.7	0.00e+00	0	43	0	3297771520	50	4168
2026-01-23 09:47:30.74	337.65	16.84	-39.8	-40.6	23.8	0.00e+00	0	43	0	3319791616	50	4116
2026-01-23 09:47:34.77	337.19	16.45	-40.0	-40.7	23.7	0.00e+00	0	42	0	3342860288	50	4168
2026-01-23 09:47:38.80	336.74	16.06	-39.9	-40.6	23.7	0.00e+00	0	42	0	3365928960	50	4133
2026-01-23 09:47:42.84	336.29	15.67	-40.2	-41.0	23.3	0.00e+00	0	43	0	3387949056	51	4081
2026-01-23 09:47:46.87	335.86	15.29	-40.3	-41.1	23.3	0.00e+00	0	42	0	3411017728	51	4124
2026-01-23 09:47:50.90	335.45	14.92	-40.5	-41.3	23.2	0.00e+00	0	43	0	3434086400	51	4197
2026-01-23 09:47:54.93	335.04	14.55	-40.5	-41.3	23.1	0.00e+00	0	43	0	3456106496	51	4207
2026-01-23 09:47:58.96	334.64	14.18	-40.6	-41.3	23.0	0.00e+00	0	43	0	3479175168	51	4242
2026-01-23 09:48:02.99	334.25	13.81	-40.6	-41.4	23.0	0.00e+00	0	43	0	3502243840	51	4265
2026-01-23 09:48:07.02	333.88	13.46	-40.5	-41.3	23.0	0.00e+00	0	42	0	3524263936	52	3975
2026-01-23 09:48:11.05	333.51	13.10	-40.8	-41.7	22.6	0.00e+00	0	43	0	3547332608	52	4150
2026-01-23 09:48:15.09	333.15	12.75	-41.0	-41.9	22.4	0.00e+00	0	43	0	3570401280	52	4254
2026-01-23 09:48:19.13	332.80	12.40	-41.1	-41.9	22.3	0.00e+00	0	42	0	3592421376	52	4287
2026-01-23 09:48:23.16	332.46	12.06	-41.1	-41.9	22.3	0.00e+00	0	42	0	3615490048	52	4266
2026-01-23 09:48:27.20	332.12	11.72	-41.0	-41.8	22.4	0.00e+00	0	42	0	3637510144	52	4213
2026-01-23 09:48:31.23	331.80	11.38	-41.0	-41.8	22.4	0.00e+00	0	43	0	3660578816	52	4221
2026-01-23 09:48:35.26	331.48	11.05	-41.2	-42.0	22.2	0.00e+00	0	42	0	3683647488	53	4064
2026-01-23 09:48:39.29	331.17	10.72	-41.2	-42.1	22.1	0.00e+00	0	42	0	3705667584	53	4103
2026-01-23 09:48:43.32	330.86	10.39	-41.6	-42.4	21.7	0.00e+00	0	42	0	3728736256	53	4279
2026-01-23 09:48:47.35	330.57	10.07	-41.4	-42.3	21.8	0.00e+00	0	43	0	3751804928	54	3968
2026-01-23 09:48:51.39	330.28	9.75	-41.7	-42.6	21.5	0.00e+00	0	43	0	3773825024	54	4104
2026-01-23 09:48:55.42	330.00	9.44	-41.7	-42.5	21.6	0.00e+00	0	42	0	3796893696	54	4094
2026-01-23 09:48:59.45	329.72	9.12	-41.9	-42.8	21.3	0.00e+00	0	42	0	3819962368	54	4224
2026-01-23 09:49:03.48	329.45	8.81	-41.7	-42.6	21.5	0.00e+00	0	43	0	3841982464	54	4115
2026-01-23 09:49:07.51	329.18	8.51	-41.9	-42.8	21.3	0.00e+00	0	42	0	3865051136	54	4200
2026-01-23 09:49:11.55	328.92	8.21	-41.9	-42.9	21.2	0.00e+00	0	42	0	3888119808	54	4243
2026-01-23 09:49:15.58	328.67	7.91	-42.1	-43.0	20.9	0.00e+00	0	42	0	3910139904	55	4098
2026-01-23 09:49:19.61	328.42	7.61	-42.3	-43.2	20.7	0.00e+00	0	42	0	3933208576	55	4182
2026-01-23 09:49:23.64	328.18	7.32	-42.5	-43.5	20.5	0.00e+00	0	42	0	3956277248	55	4303
2026-01-23 09:49:27.67	327.94	7.02	-42.6	-43.6	20.3	0.00e+00	0	42	0	3978297344	55	4369
2026-01-23 09:49:31.71	327.71	6.74	-42.5	-43.5	20.4	0.00e+00	0	42	0	4000317440	55	4303
2026-01-23 09:49:35.74	327.48	6.45	-42.7	-43.7	20.2	0.00e+00	0	43	0	4023386112	55	4395
2026-01-23 09:49:39.77	327.26	6.17	-42.7	-43.6	20.3	0.00e+00	0	42	0	4046454784	56	4131
2026-01-23 09:49:43.80	327.04	5.89	-42.7	-43.7	20.2	0.00e+00	0	43	0	4068474880	56	4164
2026-01-23 09:49:47.83	326.83	5.61	-42.6	-43.5	20.3	0.00e+00	0	43	0	4091543552	56	4098
2026-01-23 09:49:51.87	326.62	5.33	-42.9	-43.9	19.9	0.00e+00	0	43	0	4114612224	56	4272
2026-01-23 09:49:55.90	326.41	5.06	-43.2	-44.2	19.6	0.00e+00	0	43	0	4136632320	57	4154
2026-01-23 09:49:59.93	326.21	4.79	-53.3	-65.3	3.8	8.47e-01	0	42	104	4141875200	77	14921
2026-01-23 09:50:03.97	326.01	4.52	-53.4	-65.4	3.8	8.46e-01	0	42	104	4141875200	77	15146
2026-01-23 09:50:08.01	325.82	4.26	-53.3	-65.3	3.8	8.47e-01	0	42	104	4141875200	77	14957
2026-01-23 09:50:12.04	325.63	3.99	-53.5	-65.5	3.8	8.46e-01	0	42	104	4141875200	77	15279
2026-01-23 09:50:16.08	325.44	3.73	-53.6	-65.6	3.8	8.47e-01	0	42	104	4141875200	77	15418
2026-01-23 09:50:20.11	325.26	3.47	-53.5	-65.5	3.8	8.47e-01	0	42	104	4141875200	77	15317
2026-01-23 09:50:24.15	325.08	3.22	-53.5	-65.5	3.8	8.46e-01	0	43	104	4141875200	77	15280
2026-01-23 09:50:28.18	324.91	2.96	-53.5	-65.5	3.8	8.47e-01	0	43	104	4141875200	77	15271
2026-01-23 09:50:32.22	324.73	2.71	-53.5	-65.4	3.8	8.46e-01	0	43	104	4141875200	77	15223
2026-01-23 09:50:36.25	324.57	2.46	-53.5	-65.4	3.8	8.46e-01	0	43	104	4141875200	77	15225
2026-01-23 09:50:40.28	324.40	2.21	-53.5	-65.4	3.8	8.47e-01	0	42	104	4141875200	77	15169

#Closed at: 2026-01-23 09:50:44
#Recorded file [4141 MB]: D:/lorett/data/31041_260123_123705.dat