passes_logs/2026/01/23/XPeterburg/XPeterburg__20260123_121612_AQUA_rec.log

#Pass ID: 20260123_121612_AQUA
#Satellite: AQUA
#Configuration: AQUA
#Start time: 2026-01-23 12:16:05

#Version: 1.5.20200625
#Station: XPeterburg
#Location: 30.318091 lon 59.932769 lat
#TLE: 1 27424U 02022A   26022.96978264  .00001879  00000+0  38593-3 0  9993
#TLE: 2 27424  98.4100 349.5315 0001958  69.4371  21.4765 14.61848807262053

#Time	Az	El	Level	Level2	SNR	BER	Gain	Gain2
2026-01-23 12:16:05.82	185.94	66.53	-35.3	-44.6	3.3	7687225	88	1752
2026-01-23 12:16:06.22	186.17	66.73	-35.3	-46.4	3.5	7586059	87	2137
2026-01-23 12:16:06.62	186.41	66.92	-35.3	-46.1	3.4	7637176	87	2066
2026-01-23 12:16:07.03	186.65	67.13	-35.3	-46.9	3.5	7575836	87	2258
2026-01-23 12:16:07.43	186.90	67.33	-35.4	-46.5	3.4	7586517	87	2144
2026-01-23 12:16:07.83	187.15	67.53	-35.4	-47.0	3.5	7566223	87	2296
2026-01-23 12:16:08.23	187.40	67.73	-35.3	-46.5	3.4	7607574	87	2155
2026-01-23 12:16:08.63	187.66	67.93	-35.3	-46.9	3.5	7580261	87	2266
2026-01-23 12:16:09.03	187.93	68.12	-35.3	-46.3	3.5	7597808	87	2116
2026-01-23 12:16:09.44	188.21	68.33	-35.3	-46.6	3.5	7564086	87	2198
2026-01-23 12:16:09.84	188.48	68.53	-35.3	-46.0	3.4	7604522	87	2058
2026-01-23 12:16:10.24	188.77	68.73	-35.3	-46.0	3.4	7595520	87	2055
2026-01-23 12:16:10.64	189.05	68.93	-35.2	-45.1	3.5	7602233	87	1864
2026-01-23 12:16:11.04	189.35	69.13	-35.1	-44.6	3.3	7530822	87	1781
2026-01-23 12:16:11.45	189.65	69.33	-35.0	-43.5	3.9	7431640	87	1586
2026-01-23 12:16:11.85	189.96	69.53	-34.9	-42.1	4.1	7425079	87	1375
2026-01-23 12:16:12.25	190.27	69.73	-34.7	-41.6	4.6	7256317	87	1323
2026-01-23 12:16:12.65	190.59	69.93	-34.5	-39.6	5.4	7040710	87	1074
2026-01-23 12:16:13.05	190.92	70.13	-33.8	-37.6	6.5	6813507	86	926
2026-01-23 12:16:13.45	191.25	70.33	-33.2	-36.2	8.3	6492767	84	849
2026-01-23 12:16:13.86	191.60	70.53	-32.7	-35.1	9.6	6336975	83	791
2026-01-23 12:16:14.26	191.95	70.73	-32.8	-35.6	9.6	6342315	83	827
2026-01-23 12:16:14.66	192.30	70.93	-33.1	-36.6	9.0	6441345	83	892
2026-01-23 12:16:15.06	192.67	71.12	-33.2	-36.8	8.7	6449584	83	906
2026-01-23 12:16:15.46	193.04	71.32	-33.0	-36.2	9.2	6401214	83	859
2026-01-23 12:16:15.87	193.43	71.52	-32.8	-35.6	9.5	6316070	83	824
2026-01-23 12:16:16.27	193.82	71.72	-32.7	-35.2	9.9	6334686	83	800
2026-01-23 12:16:16.67	194.21	71.92	-32.6	-35.0	10.1	6306762	83	786
2026-01-23 12:16:17.07	194.62	72.11	-32.7	-35.3	10.0	6332244	83	800
2026-01-23 12:16:17.48	195.05	72.31	-32.6	-35.0	10.1	6313018	83	782
2026-01-23 12:16:17.88	195.47	72.51	-32.6	-34.7	10.3	6274871	83	766
2026-01-23 12:16:18.28	195.91	72.70	-32.6	-34.8	10.3	6247863	83	770
2026-01-23 12:16:18.68	196.36	72.89	-32.8	-35.3	10.1	6301116	83	797
2026-01-23 12:16:19.08	196.82	73.09	-32.7	-35.1	10.2	6281585	83	786
2026-01-23 12:16:19.48	197.28	73.28	-32.6	-34.7	10.5	6252593	83	762
2026-01-23 12:16:19.89	197.78	73.47	-32.6	-34.7	10.6	6267852	83	762
2026-01-23 12:16:20.29	198.27	73.66	-32.5	-34.4	10.8	6221618	83	744
2026-01-23 12:16:20.69	198.77	73.85	-32.6	-34.7	10.6	6244049	83	765
2026-01-23 12:16:21.09	199.29	74.04	-32.6	-34.7	10.7	6257781	83	765
2026-01-23 12:16:21.49	199.82	74.23	-32.6	-34.8	10.8	6247253	83	767
2026-01-23 12:16:21.90	200.37	74.42	-32.8	-35.4	10.4	6285400	83	806
2026-01-23 12:16:22.30	200.93	74.61	-33.0	-35.8	10.2	6278076	83	833
2026-01-23 12:16:22.70	201.50	74.79	-32.8	-35.3	10.4	6259307	83	799
2026-01-23 12:16:23.10	202.09	74.97	-32.9	-35.7	10.9	6257934	83	823
2026-01-23 12:16:23.50	202.69	75.16	-32.8	-35.5	10.5	6247558	83	812
2026-01-23 12:16:23.90	203.30	75.34	-33.0	-36.1	10.5	6269683	83	849
2026-01-23 12:16:24.30	203.93	75.51	-33.1	-36.4	10.1	6298980	83	871
2026-01-23 12:16:24.71	204.60	75.70	-33.3	-36.9	9.7	6355895	83	906
2026-01-23 12:16:25.11	205.26	75.87	-33.2	-36.5	10.0	6308746	83	879
2026-01-23 12:16:25.51	205.94	76.05	-33.1	-36.4	10.0	6315765	83	871
2026-01-23 12:16:25.91	206.64	76.22	-32.8	-35.4	10.5	6259307	83	802
2026-01-23 12:16:26.31	207.36	76.39	-32.8	-35.2	10.8	6265411	83	789
2026-01-23 12:16:26.72	208.12	76.56	-32.9	-35.7	10.4	6280059	83	820
2026-01-23 12:16:27.12	208.87	76.73	-33.0	-36.0	10.1	6291809	83	837
2026-01-23 12:16:27.52	209.65	76.90	-32.9	-35.6	10.3	6295928	83	813
2026-01-23 12:16:27.92	210.45	77.06	-33.0	-35.8	10.2	6298217	83	827
2026-01-23 12:16:28.32	211.26	77.22	-33.2	-36.2	9.8	6329193	83	848
2026-01-23 12:16:28.72	212.10	77.38	-32.9	-35.4	10.3	6293182	83	798
2026-01-23 12:16:29.13	212.98	77.53	-32.9	-35.3	10.6	6266479	83	790
2026-01-23 12:16:29.53	213.86	77.69	-32.9	-35.3	10.5	6269531	83	792
2026-01-23 12:16:29.93	214.77	77.84	-32.9	-35.4	10.3	6304626	83	797
2026-01-23 12:16:30.33	215.70	77.98	-32.9	-35.5	10.3	6275939	83	801
2026-01-23 12:16:30.73	216.65	78.13	-33.0	-35.7	10.1	6290893	83	816
2026-01-23 12:16:31.14	217.65	78.27	-32.9	-35.5	10.2	6283264	83	798
2026-01-23 12:16:31.54	218.64	78.41	-33.0	-35.6	10.2	6299285	83	807
2026-01-23 12:16:31.94	219.67	78.54	-33.0	-35.6	10.2	6286621	83	808
2026-01-23 12:16:32.34	220.71	78.67	-32.9	-35.3	10.5	6283874	83	788
2026-01-23 12:16:32.74	221.79	78.80	-32.8	-35.1	10.7	6257629	83	781
2026-01-23 12:16:33.14	222.88	78.92	-33.0	-35.7	10.2	6273498	83	812
2026-01-23 12:16:33.55	224.03	79.05	-32.9	-35.4	10.4	6257934	83	796
2026-01-23 12:16:33.95	225.18	79.16	-33.0	-35.8	10.2	6298065	83	817
2026-01-23 12:16:34.35	226.35	79.27	-33.1	-36.0	10.0	6316375	83	837
2026-01-23 12:16:34.75	227.55	79.38	-33.0	-35.6	10.3	6288604	83	807
2026-01-23 12:16:35.15	228.77	79.48	-32.9	-35.5	10.4	6294708	83	800
2026-01-23 12:16:35.55	230.01	79.58	-33.0	-35.6	10.4	6281280	83	808
2026-01-23 12:16:35.96	231.31	79.67	-33.1	-35.8	10.2	6280517	83	822
2026-01-23 12:16:36.36	232.60	79.76	-33.0	-35.6	10.4	6276855	83	804
2026-01-23 12:16:36.76	233.91	79.84	-33.0	-35.6	10.3	6270751	83	808
2026-01-23 12:16:37.16	235.24	79.92	-33.1	-35.9	10.0	6303558	83	824
2026-01-23 12:16:37.56	236.59	79.99	-33.1	-35.7	10.2	6292877	83	811
2026-01-23 12:16:37.97	238.00	80.05	-33.0	-35.5	10.4	6246948	83	798
2026-01-23 12:16:38.37	239.39	80.11	-33.1	-35.8	10.3	6309051	83	815
2026-01-23 12:16:38.77	240.79	80.17	-33.1	-36.0	10.0	6263732	83	830
2026-01-23 12:16:39.17	242.21	80.22	-33.1	-36.0	9.9	6327667	83	831
2026-01-23 12:16:39.57	243.65	80.26	-33.2	-36.4	9.8	6322631	83	857
2026-01-23 12:16:39.97	245.09	80.30	-33.3	-36.5	9.6	6338500	83	864
2026-01-23 12:16:40.38	246.58	80.33	-33.1	-36.0	10.0	6277465	83	833
2026-01-23 12:16:40.78	248.05	80.35	-33.1	-36.0	9.7	6334686	83	833
2026-01-23 12:16:41.18	249.52	80.37	-33.1	-35.9	10.1	6278686	83	822
2026-01-23 12:16:41.58	250.99	80.38	-33.3	-36.4	9.7	6324310	83	857
2026-01-23 12:16:41.98	252.47	80.38	-33.3	-36.4	9.6	6341094	83	853
2026-01-23 12:16:42.39	253.99	80.38	-33.5	-36.7	9.2	6399230	84	857
2026-01-23 12:16:42.79	255.46	80.37	-33.3	-35.9	9.5	6333465	84	809
2026-01-23 12:16:43.19	256.94	80.36	-33.4	-36.2	9.7	6359710	84	828
2026-01-23 12:16:43.59	258.40	80.34	-33.0	-35.0	10.3	6279754	84	756
2026-01-23 12:16:43.99	259.86	80.31	-33.4	-36.4	9.6	6354217	84	842
2026-01-23 12:16:44.39	261.32	80.28	-33.2	-35.7	9.6	6346435	84	797
2026-01-23 12:16:44.80	262.79	80.24	-33.4	-36.3	9.9	6348114	84	835
2026-01-23 12:16:45.20	264.22	80.20	-33.2	-35.7	9.6	6330871	84	794
2026-01-23 12:16:45.60	265.64	80.15	-33.1	-35.4	10.4	6272430	84	777
2026-01-23 12:16:46.00	267.03	80.09	-33.3	-36.0	9.7	6323242	84	816
2026-01-23 12:16:46.40	268.42	80.03	-33.1	-35.4	10.2	6277923	84	779
2026-01-23 12:16:46.81	269.81	79.96	-33.3	-35.9	10.0	6319580	84	810
2026-01-23 12:16:47.21	271.16	79.89	-33.2	-35.7	10.0	6323852	84	798
2026-01-23 12:16:47.61	272.48	79.81	-33.2	-35.8	9.9	6322326	84	800
2026-01-23 12:16:48.01	273.78	79.72	-33.1	-35.4	10.1	6279907	84	776
2026-01-23 12:16:48.41	275.06	79.63	-32.8	-34.6	10.7	6248474	84	735
2026-01-23 12:16:48.82	276.35	79.54	-32.9	-34.8	10.6	6248474	84	742
2026-01-23 12:16:49.22	277.59	79.44	-33.0	-35.1	10.4	6232910	84	762
2026-01-23 12:16:49.62	278.79	79.34	-32.9	-35.0	10.5	6260070	84	755
2026-01-23 12:16:50.02	279.98	79.23	-33.0	-35.1	10.3	6290740	84	762
2026-01-23 12:16:50.42	281.14	79.12	-33.2	-35.6	10.0	6292114	84	794
2026-01-23 12:16:50.83	282.31	79.00	-33.2	-35.7	10.0	6325836	84	797
2026-01-23 12:16:51.23	283.42	78.88	-33.2	-35.7	10.0	6303863	84	794
2026-01-23 12:16:51.63	284.50	78.75	-32.9	-34.9	10.4	6278991	84	748
2026-01-23 12:16:52.03	285.56	78.62	-33.1	-35.3	10.2	6278533	84	776
2026-01-23 12:16:52.43	286.60	78.49	-33.2	-35.8	9.8	6308441	84	801
2026-01-23 12:16:52.83	287.61	78.36	-33.3	-35.9	9.8	6345977	84	812
2026-01-23 12:16:53.24	288.63	78.21	-33.3	-35.9	9.7	6340026	84	809
2026-01-23 12:16:53.64	289.59	78.07	-33.1	-35.6	10.0	6317443	84	788
2026-01-23 12:16:54.04	290.53	77.93	-33.1	-35.4	10.1	6293029	84	780
2026-01-23 12:16:54.44	291.45	77.78	-32.9	-34.8	10.5	6252593	84	743
2026-01-23 12:16:54.84	292.35	77.63	-32.8	-35.1	10.9	6251525	83	782
2026-01-23 12:16:55.24	293.22	77.48	-32.9	-35.4	10.8	6249847	83	798
2026-01-23 12:16:55.65	294.09	77.32	-32.9	-35.4	10.7	6251373	83	799
2026-01-23 12:16:56.05	294.92	77.16	-32.9	-35.4	10.6	6256713	83	800
2026-01-23 12:16:56.45	295.73	77.00	-32.9	-35.5	10.8	6263580	83	805
2026-01-23 12:16:56.85	296.51	76.83	-33.1	-36.2	10.4	6262969	83	851
2026-01-23 12:16:57.25	297.28	76.67	-33.0	-35.8	10.6	6253814	83	825
2026-01-23 12:16:57.66	298.05	76.50	-32.8	-35.1	11.0	6222839	83	782
2026-01-23 12:16:58.06	298.78	76.33	-32.6	-34.8	11.1	6213989	83	767
2026-01-23 12:16:58.46	299.49	76.16	-32.8	-35.2	10.9	6224822	83	787
2026-01-23 12:16:58.86	300.18	75.98	-32.9	-35.5	10.5	6246490	83	805
2026-01-23 12:16:59.26	300.85	75.81	-33.0	-35.7	10.4	6284637	83	817
2026-01-23 12:16:59.67	301.53	75.63	-32.9	-35.4	10.4	6284484	83	797
2026-01-23 12:17:00.07	302.17	75.45	-32.9	-35.5	10.3	6280975	83	803
2026-01-23 12:17:00.47	302.79	75.27	-33.0	-35.9	10.0	6327209	83	830
2026-01-23 12:17:00.87	303.40	75.09	-32.9	-35.4	10.2	6279907	83	799
2026-01-23 12:17:01.27	304.00	74.91	-33.0	-35.7	10.2	6297912	83	815
2026-01-23 12:17:01.67	304.57	74.72	-32.7	-35.0	10.3	6298522	83	776
2026-01-23 12:17:02.08	305.15	74.53	-32.6	-34.7	10.6	6252746	83	759
2026-01-23 12:17:02.48	305.70	74.35	-32.7	-35.0	10.5	6246490	83	775
2026-01-23 12:17:02.88	306.24	74.16	-32.7	-35.2	10.5	6287536	83	789
2026-01-23 12:17:03.28	306.76	73.97	-32.8	-35.3	10.4	6270294	83	799
2026-01-23 12:17:03.68	307.28	73.79	-32.8	-35.4	10.2	6292114	83	804
2026-01-23 12:17:04.08	307.78	73.60	-33.2	-36.7	9.3	6367797	83	888
2026-01-23 12:17:04.49	308.27	73.40	-33.5	-36.9	8.4	6483764	84	889
2026-01-23 12:17:04.89	308.75	73.21	-33.3	-36.2	9.0	6389160	84	836
2026-01-23 12:17:05.29	309.21	73.02	-33.2	-36.1	9.2	6387939	84	833
2026-01-23 12:17:05.69	309.67	72.83	-33.1	-35.6	9.7	6342773	84	801
2026-01-23 12:17:06.09	310.11	72.63	-33.2	-36.0	9.5	6372375	84	827
2026-01-23 12:17:06.49	310.54	72.44	-33.1	-35.8	9.6	6340637	84	812
2026-01-23 12:17:06.90	310.97	72.24	-33.3	-36.4	9.0	6413116	84	854
2026-01-23 12:17:07.30	311.39	72.04	-33.4	-36.6	8.4	6513214	84	864
2026-01-23 12:17:07.70	311.79	71.85	-33.6	-37.3	7.7	6640777	84	910
2026-01-23 12:17:08.10	312.18	71.65	-33.7	-37.6	7.5	6666717	84	935
2026-01-23 12:17:08.50	312.57	71.46	-33.7	-37.0	7.4	6657714	85	870
2026-01-23 12:17:08.91	312.95	71.25	-33.6	-36.9	7.8	6599426	85	871
2026-01-23 12:17:09.31	313.32	71.06	-33.7	-37.3	7.6	6599578	85	898
2026-01-23 12:17:09.71	313.68	70.86	-34.0	-38.2	6.7	6765899	85	972
2026-01-23 12:17:10.11	314.03	70.66	-33.0	-35.2	9.9	6327362	84	776
2026-01-23 12:17:10.51	314.38	70.47	-34.5	-40.2	6.5	6925354	85	1146

#Closed at: 2026-01-23 12:17:10