passes_logs/2026/01/23/XPeterburg/XPeterburg__20260123_144428_FENGYUN_3E_rec.log

#Pass ID: 20260123_144428_FENGYUN 3E
#Satellite: FENGYUN 3E
#Configuration: FENGYUN 3E
#Start time: 2026-01-23 14:44:22

#Version: 1.5.20200625
#Station: XPeterburg
#Location: 30.318091 lon 59.932769 lat
#TLE: 1 49008U 21062A   26022.96857035  .00000014  00000+0  27449-4 0  9991
#TLE: 2 49008  98.7488  28.0032 0002359 122.8887 237.2516 14.19886951235971

#Time	Az	El	Level	Level2	SNR	BER	Gain	Gain2
2026-01-23 14:44:22.52	174.05	67.57	-37.4	-38.3	3.3	8383037	93	5483
2026-01-23 14:44:22.92	174.16	67.75	-37.4	-40.2	3.6	8429225	91	6795
2026-01-23 14:44:23.32	174.28	67.93	-37.3	-39.1	3.4	8392375	91	6052
2026-01-23 14:44:23.73	174.40	68.11	-37.4	-40.1	3.6	8434123	92	6715
2026-01-23 14:44:24.13	174.52	68.29	-37.3	-38.6	3.4	8410446	92	5718
2026-01-23 14:44:24.53	174.64	68.47	-37.0	-39.1	3.7	8405719	92	6275
2026-01-23 14:44:24.93	174.76	68.65	-36.4	-36.4	4.0	8367038	91	4949
2026-01-23 14:44:25.33	174.89	68.83	-35.6	-35.4	4.5	8082115	89	4836
2026-01-23 14:44:25.74	175.02	69.01	-34.6	-34.2	5.5	6864383	87	4709
2026-01-23 14:44:26.14	175.15	69.19	-33.6	-33.0	6.5	3547737	85	4618
2026-01-23 14:44:26.54	175.29	69.37	-32.7	-32.3	7.6	1439449	83	4671
2026-01-23 14:44:26.94	175.42	69.55	-31.9	-31.2	8.7	528247	82	4506
2026-01-23 14:44:27.34	175.56	69.73	-31.2	-30.6	9.7	166809	80	4627
2026-01-23 14:44:27.74	175.70	69.91	-30.3	-29.3	10.6	85956	79	4384
2026-01-23 14:44:28.15	175.85	70.09	-29.7	-29.2	11.4	23391	77	4634
2026-01-23 14:44:28.55	175.99	70.28	-29.5	-29.2	11.7	5847	76	4775
2026-01-23 14:44:28.95	176.14	70.46	-28.5	-28.2	12.7	2174	74	4761
2026-01-23 14:44:29.35	176.29	70.64	-28.1	-27.3	13.2	606	74	4517
2026-01-23 14:44:29.76	176.45	70.82	-28.0	-27.2	13.3	434	74	4486
2026-01-23 14:44:30.16	176.61	71.01	-28.2	-27.6	13.1	606	74	4568
2026-01-23 14:44:30.56	176.77	71.19	-28.5	-28.1	12.8	709	74	4711
2026-01-23 14:44:30.96	176.94	71.37	-28.6	-28.5	12.6	423	74	4837
2026-01-23 14:44:31.36	177.11	71.55	-28.7	-28.5	12.7	583	74	4841
2026-01-23 14:44:31.77	177.28	71.74	-28.5	-28.2	12.8	652	74	4751
2026-01-23 14:44:32.17	177.46	71.92	-28.4	-28.0	12.9	595	74	4699
2026-01-23 14:44:32.57	177.64	72.10	-28.5	-28.1	12.9	514	74	4716
2026-01-23 14:44:32.97	177.82	72.29	-28.4	-28.1	12.9	595	74	4730
2026-01-23 14:44:33.37	178.01	72.47	-28.7	-28.5	12.7	595	74	4856
2026-01-23 14:44:33.78	178.20	72.66	-28.5	-28.1	12.9	686	74	4716
2026-01-23 14:44:34.18	178.40	72.84	-28.5	-28.2	12.8	377	74	4758
2026-01-23 14:44:34.58	178.60	73.02	-28.4	-28.0	13.0	755	74	4691
2026-01-23 14:44:34.98	178.80	73.21	-28.4	-28.0	13.0	801	74	4714
2026-01-23 14:44:35.39	179.02	73.40	-28.4	-28.0	13.0	480	74	4687
2026-01-23 14:44:35.79	179.23	73.58	-28.3	-27.7	13.0	537	74	4599
2026-01-23 14:44:36.19	179.45	73.76	-28.5	-28.1	12.8	617	74	4692
2026-01-23 14:44:36.59	179.68	73.95	-28.5	-28.1	12.9	537	74	4709
2026-01-23 14:44:37.00	179.91	74.13	-28.6	-28.2	12.8	858	74	4735
2026-01-23 14:44:37.40	180.15	74.32	-28.6	-28.4	12.7	869	74	4795
2026-01-23 14:44:37.80	180.39	74.50	-28.7	-28.4	12.7	755	74	4799
2026-01-23 14:44:38.20	180.64	74.69	-28.5	-28.2	12.9	766	74	4732
2026-01-23 14:44:38.60	180.89	74.87	-28.6	-28.3	12.9	663	74	4775
2026-01-23 14:44:39.00	181.15	75.05	-28.8	-28.7	12.8	789	74	4909
2026-01-23 14:44:39.41	181.43	75.24	-28.6	-28.4	13.2	503	74	4793
2026-01-23 14:44:39.81	181.70	75.42	-28.5	-28.3	13.3	366	74	4806
2026-01-23 14:44:40.21	181.98	75.61	-28.6	-28.4	13.2	217	74	4819
2026-01-23 14:44:40.61	182.27	75.79	-28.5	-28.3	13.4	263	74	4804
2026-01-23 14:44:41.02	182.57	75.98	-28.6	-28.3	13.4	160	74	4786
2026-01-23 14:44:41.42	182.88	76.16	-28.5	-28.2	13.4	205	74	4766
2026-01-23 14:44:41.82	183.19	76.35	-28.4	-27.9	13.5	228	74	4672
2026-01-23 14:44:42.22	183.51	76.53	-28.3	-27.8	13.5	125	74	4677
2026-01-23 14:44:42.62	183.84	76.71	-28.1	-27.3	13.7	45	74	4501
2026-01-23 14:44:43.03	184.19	76.90	-27.9	-27.0	13.8	80	74	4439
2026-01-23 14:44:43.43	184.54	77.08	-27.9	-27.4	13.9	22	73	4653
2026-01-23 14:44:43.83	184.90	77.26	-27.8	-27.1	14.0	57	73	4566
2026-01-23 14:44:44.23	185.28	77.44	-27.6	-26.8	14.2	34	73	4487
2026-01-23 14:44:44.63	185.66	77.63	-27.6	-26.8	14.2	11	73	4471
2026-01-23 14:44:45.04	186.06	77.81	-27.5	-26.6	14.3	22	73	4441
2026-01-23 14:44:45.44	186.47	77.99	-27.7	-27.1	14.0	0	73	4557
2026-01-23 14:44:45.84	186.89	78.17	-27.6	-26.9	14.0	22	73	4505
2026-01-23 14:44:46.24	187.32	78.35	-27.5	-26.6	14.1	11	73	4423
2026-01-23 14:44:46.65	187.78	78.54	-27.6	-26.7	14.0	68	73	4465
2026-01-23 14:44:47.05	188.24	78.71	-27.6	-26.8	13.9	80	73	4486
2026-01-23 14:44:47.45	188.72	78.89	-27.6	-26.8	13.8	45	73	4503
2026-01-23 14:44:47.85	189.21	79.07	-27.4	-26.5	14.0	0	73	4399
2026-01-23 14:44:48.25	189.72	79.25	-27.3	-26.8	14.3	57	72	4626
2026-01-23 14:44:48.65	190.24	79.42	-27.2	-26.7	14.5	22	72	4601
2026-01-23 14:44:49.06	190.80	79.60	-27.4	-26.9	14.4	11	72	4677
2026-01-23 14:44:49.46	191.36	79.78	-27.3	-26.7	14.5	11	72	4624
2026-01-23 14:44:49.86	191.95	79.95	-27.6	-27.4	14.2	11	72	4801
2026-01-23 14:44:50.26	192.55	80.13	-27.6	-27.4	14.2	0	72	4802
2026-01-23 14:44:50.66	193.18	80.30	-27.6	-27.3	14.3	0	72	4782
2026-01-23 14:44:51.07	193.84	80.47	-27.5	-27.1	14.4	22	72	4724
2026-01-23 14:44:51.47	194.52	80.64	-27.3	-26.8	14.5	0	72	4640
2026-01-23 14:44:51.87	195.21	80.81	-27.2	-26.5	14.6	0	72	4547
2026-01-23 14:44:52.27	195.94	80.98	-27.4	-26.8	14.4	0	72	4643
2026-01-23 14:44:52.68	196.71	81.15	-27.5	-27.2	14.2	0	72	4739
2026-01-23 14:44:53.08	197.49	81.31	-27.8	-27.7	13.9	11	72	4896
2026-01-23 14:44:53.48	198.30	81.48	-28.0	-27.6	13.6	68	73	4707
2026-01-23 14:44:53.88	199.15	81.64	-28.4	-28.4	13.2	171	73	4918
2026-01-23 14:44:54.28	200.03	81.80	-28.3	-28.1	13.3	240	73	4844
2026-01-23 14:44:54.69	200.96	81.96	-28.2	-28.0	13.4	217	73	4818
2026-01-23 14:44:55.09	201.91	82.12	-28.2	-28.0	13.4	160	73	4798
2026-01-23 14:44:55.49	202.90	82.27	-28.0	-27.6	13.7	68	73	4684
2026-01-23 14:44:55.89	203.93	82.42	-28.1	-27.8	13.5	80	73	4748
2026-01-23 14:44:56.29	205.00	82.57	-27.9	-27.5	13.7	45	73	4657
2026-01-23 14:44:56.70	206.14	82.72	-28.0	-27.6	13.7	125	73	4686
2026-01-23 14:44:57.10	207.30	82.86	-28.1	-27.8	13.6	57	73	4762
2026-01-23 14:44:57.50	208.51	83.00	-28.1	-27.8	13.6	102	73	4743
2026-01-23 14:44:57.90	209.77	83.14	-28.2	-27.9	13.5	102	73	4787
2026-01-23 14:44:58.30	211.08	83.28	-28.1	-27.7	13.7	68	73	4711
2026-01-23 14:44:58.71	212.48	83.41	-28.1	-27.7	13.7	68	73	4709
2026-01-23 14:44:59.11	213.89	83.54	-28.0	-27.5	13.8	91	73	4643
2026-01-23 14:44:59.51	215.37	83.66	-28.0	-27.6	13.8	68	73	4681
2026-01-23 14:44:59.91	216.90	83.78	-27.9	-27.4	14.0	34	73	4642
2026-01-23 14:45:00.32	218.53	83.89	-27.8	-27.3	14.1	57	73	4641
2026-01-23 14:45:00.72	220.18	84.00	-27.9	-27.4	13.9	22	73	4669
2026-01-23 14:45:01.12	221.89	84.11	-27.8	-27.3	14.0	45	73	4648
2026-01-23 14:45:01.52	223.66	84.20	-27.9	-27.5	13.9	34	73	4693
2026-01-23 14:45:01.92	225.49	84.30	-28.0	-27.7	13.8	11	73	4745
2026-01-23 14:45:02.33	227.43	84.39	-28.2	-28.0	13.7	68	73	4845
2026-01-23 14:45:02.73	229.38	84.47	-28.1	-28.0	13.7	57	73	4822
2026-01-23 14:45:03.13	231.38	84.54	-28.2	-28.0	13.7	137	73	4838
2026-01-23 14:45:03.53	233.44	84.61	-28.0	-27.7	13.8	22	73	4757
2026-01-23 14:45:03.93	235.55	84.67	-28.1	-27.8	13.7	57	73	4780
2026-01-23 14:45:04.34	237.75	84.72	-27.8	-27.2	14.1	22	73	4614
2026-01-23 14:45:04.74	239.94	84.77	-27.8	-27.2	14.0	68	73	4611
2026-01-23 14:45:05.14	242.17	84.80	-27.8	-27.2	14.0	34	73	4604
2026-01-23 14:45:05.54	244.43	84.83	-27.7	-27.1	14.0	34	73	4598
2026-01-23 14:45:05.94	246.70	84.86	-27.7	-27.1	14.1	22	73	4573
2026-01-23 14:45:06.35	249.06	84.87	-27.6	-26.8	14.2	0	73	4508
2026-01-23 14:45:06.75	251.36	84.87	-27.4	-26.5	14.4	68	73	4434
2026-01-23 14:45:07.15	253.66	84.87	-27.5	-26.7	14.4	11	73	4464
2026-01-23 14:45:07.55	255.96	84.86	-27.5	-26.6	14.4	22	73	4439
2026-01-23 14:45:07.95	258.24	84.84	-27.4	-26.4	14.5	11	73	4405
2026-01-23 14:45:08.36	260.55	84.81	-27.3	-26.8	14.6	0	72	4618
2026-01-23 14:45:08.76	262.79	84.77	-27.1	-26.4	14.8	0	72	4538
2026-01-23 14:45:09.16	264.98	84.73	-27.0	-26.2	14.9	0	72	4492
2026-01-23 14:45:09.56	267.14	84.68	-26.9	-25.9	15.0	0	72	4406
2026-01-23 14:45:09.97	269.31	84.62	-26.9	-25.9	15.0	0	72	4408
2026-01-23 14:45:10.37	271.37	84.55	-26.9	-26.0	15.0	0	72	4420
2026-01-23 14:45:10.77	273.39	84.48	-27.1	-26.4	14.7	11	72	4525
2026-01-23 14:45:11.17	275.34	84.40	-27.3	-26.7	14.6	22	72	4615
2026-01-23 14:45:11.58	277.29	84.31	-27.3	-26.7	14.6	11	72	4602
2026-01-23 14:45:11.98	279.13	84.22	-27.2	-26.6	14.6	11	72	4563
2026-01-23 14:45:12.38	280.91	84.12	-27.3	-26.8	14.5	0	72	4631
2026-01-23 14:45:12.78	282.63	84.02	-27.2	-26.6	14.7	0	72	4576
2026-01-23 14:45:13.19	284.33	83.91	-27.3	-26.7	14.5	11	72	4609
2026-01-23 14:45:13.59	285.93	83.80	-27.4	-27.0	14.5	0	72	4679
2026-01-23 14:45:13.99	287.47	83.68	-27.3	-26.9	14.5	0	72	4652
2026-01-23 14:45:14.39	288.96	83.56	-27.5	-27.2	14.4	0	72	4736
2026-01-23 14:45:14.79	290.38	83.43	-27.4	-26.9	14.5	11	72	4665
2026-01-23 14:45:15.20	291.79	83.30	-27.4	-27.1	14.4	22	72	4718
2026-01-23 14:45:15.60	293.11	83.16	-27.3	-26.8	14.6	0	72	4641
2026-01-23 14:45:16.00	294.37	83.03	-27.3	-26.8	14.6	0	72	4658
2026-01-23 14:45:16.40	295.59	82.89	-27.2	-26.6	14.7	11	72	4579
2026-01-23 14:45:16.80	296.76	82.74	-27.2	-26.6	14.7	0	72	4581
2026-01-23 14:45:17.21	297.91	82.60	-27.2	-26.5	14.7	0	72	4555
2026-01-23 14:45:17.61	298.99	82.45	-27.2	-26.5	14.6	0	72	4575
2026-01-23 14:45:18.01	300.02	82.30	-27.3	-26.7	14.6	0	72	4629
2026-01-23 14:45:18.41	301.02	82.14	-27.2	-26.7	14.6	22	72	4596
2026-01-23 14:45:18.82	302.00	81.98	-27.3	-26.8	14.5	0	72	4648
2026-01-23 14:45:19.22	302.91	81.83	-27.3	-26.7	14.6	0	72	4621
2026-01-23 14:45:19.62	303.80	81.67	-27.3	-26.8	14.5	11	72	4649
2026-01-23 14:45:20.02	304.65	81.51	-27.2	-26.6	14.6	0	72	4599
2026-01-23 14:45:20.42	305.46	81.34	-27.0	-26.0	14.9	0	72	4432
2026-01-23 14:45:20.83	306.27	81.17	-26.7	-26.1	14.9	0	71	4594
2026-01-23 14:45:21.23	307.03	81.01	-26.5	-25.6	15.2	0	71	4435
2026-01-23 14:45:21.63	307.76	80.84	-26.2	-25.6	15.5	0	70	4583
2026-01-23 14:45:22.03	308.46	80.67	-26.3	-25.7	15.5	0	70	4617
2026-01-23 14:45:22.43	309.14	80.50	-26.3	-25.8	15.4	0	70	4637
2026-01-23 14:45:22.84	309.80	80.33	-26.3	-25.9	15.4	0	70	4664
2026-01-23 14:45:23.24	310.43	80.16	-26.3	-25.8	15.4	0	70	4637
2026-01-23 14:45:23.64	311.04	79.98	-26.4	-25.9	15.4	0	70	4673
2026-01-23 14:45:24.04	311.63	79.81	-26.7	-26.6	15.2	0	70	4852
2026-01-23 14:45:24.44	312.19	79.64	-26.7	-26.6	15.1	0	70	4859
2026-01-23 14:45:24.85	312.76	79.46	-26.5	-26.2	15.4	0	70	4767
2026-01-23 14:45:25.25	313.28	79.28	-26.8	-26.8	15.2	0	70	4921
2026-01-23 14:45:25.65	313.80	79.10	-27.0	-27.2	15.0	0	70	5054
2026-01-23 14:45:26.05	314.29	78.93	-26.9	-27.1	15.1	0	70	5020
2026-01-23 14:45:26.46	314.78	78.74	-26.7	-26.2	15.2	0	71	4643
2026-01-23 14:45:26.86	315.24	78.57	-26.5	-25.6	15.6	0	71	4469
2026-01-23 14:45:27.26	315.69	78.39	-26.6	-25.9	15.5	0	71	4549
2026-01-23 14:45:27.66	316.13	78.21	-26.7	-26.2	15.3	0	71	4615
2026-01-23 14:45:28.06	316.55	78.03	-26.6	-26.0	15.3	0	71	4568
2026-01-23 14:45:28.47	316.97	77.84	-26.6	-25.9	15.3	0	71	4538
2026-01-23 14:45:28.87	317.36	77.66	-26.6	-25.9	15.2	0	71	4527
2026-01-23 14:45:29.27	317.75	77.48	-26.6	-25.9	15.0	0	71	4542
2026-01-23 14:45:29.67	318.12	77.30	-26.7	-26.1	14.9	0	71	4575
2026-01-23 14:45:30.08	318.49	77.11	-26.8	-26.2	14.7	0	71	4614
2026-01-23 14:45:30.48	318.84	76.93	-26.8	-26.2	14.6	0	71	4611
2026-01-23 14:45:30.88	319.19	76.75	-26.8	-26.2	14.6	22	71	4616
2026-01-23 14:45:31.28	319.52	76.57	-26.7	-25.9	14.7	0	71	4537
2026-01-23 14:45:31.69	319.85	76.38	-26.8	-26.2	14.5	0	71	4589
2026-01-23 14:45:32.09	320.16	76.20	-26.9	-26.5	14.5	0	71	4680
2026-01-23 14:45:32.49	320.47	76.01	-27.3	-27.1	14.2	34	71	4860
2026-01-23 14:45:32.89	320.77	75.83	-27.7	-27.6	13.8	22	72	4868
2026-01-23 14:45:33.29	321.06	75.65	-27.9	-28.0	13.6	91	72	4976
2026-01-23 14:45:33.69	321.34	75.46	-28.0	-27.7	13.4	125	73	4748
2026-01-23 14:45:34.10	321.62	75.28	-28.1	-27.8	13.4	114	73	4782
2026-01-23 14:45:34.50	321.89	75.09	-28.0	-27.8	13.4	80	73	4765
2026-01-23 14:45:34.90	322.15	74.91	-28.1	-27.9	13.3	160	73	4795
2026-01-23 14:45:35.30	322.41	74.73	-28.0	-27.7	13.3	137	73	4756
2026-01-23 14:45:35.70	322.65	74.54	-28.1	-28.0	13.3	125	73	4818
2026-01-23 14:45:36.11	322.90	74.35	-28.2	-28.1	13.1	183	73	4862
2026-01-23 14:45:36.51	323.14	74.17	-28.4	-28.4	13.0	354	73	4959
2026-01-23 14:45:36.91	323.37	73.99	-28.6	-28.4	12.8	411	74	4817
2026-01-23 14:45:37.31	323.60	73.80	-28.9	-29.0	12.5	961	74	4967
2026-01-23 14:45:37.72	323.82	73.62	-29.1	-29.0	12.1	2117	75	4843
2026-01-23 14:45:38.12	324.04	73.43	-29.3	-29.3	11.9	3398	75	4930
2026-01-23 14:45:38.52	324.25	73.25	-29.7	-29.6	11.6	6740	76	4880
2026-01-23 14:45:38.92	324.45	73.07	-29.8	-29.7	11.6	9281	76	4916
2026-01-23 14:45:39.32	324.65	72.88	-29.8	-29.9	11.4	10402	76	4947
2026-01-23 14:45:39.73	324.85	72.70	-29.9	-29.3	11.3	13835	77	4634
2026-01-23 14:45:40.13	325.05	72.51	-29.8	-29.3	11.3	12428	77	4625
2026-01-23 14:45:40.53	325.23	72.33	-29.8	-29.1	11.3	14671	77	4570
2026-01-23 14:45:40.93	325.42	72.15	-30.0	-29.5	11.1	14820	77	4686
2026-01-23 14:45:41.33	325.60	71.97	-30.0	-29.6	11.0	18493	77	4718
2026-01-23 14:45:41.74	325.78	71.78	-30.1	-29.8	10.8	23048	77	4782
2026-01-23 14:45:42.14	325.95	71.60	-30.3	-30.4	10.5	32100	77	4935
2026-01-23 14:45:42.54	326.12	71.41	-30.5	-30.2	10.3	48065	78	4724
2026-01-23 14:45:42.94	326.29	71.23	-30.6	-30.4	10.2	64247	78	4781
2026-01-23 14:45:43.34	326.45	71.05	-30.8	-30.3	9.8	79078	79	4662
2026-01-23 14:45:43.75	326.61	70.87	-30.9	-30.6	9.7	105262	79	4724
2026-01-23 14:45:44.15	326.77	70.68	-33.5	-34.7	7.2	130954	82	5663
2026-01-23 14:45:44.55	326.92	70.50	-38.2	-42.2	3.6	8443176	93	7790
2026-01-23 14:45:44.95	327.07	70.32	-38.3	-40.7	3.3	8378871	94	6506

#Closed at: 2026-01-23 14:45:45