passes_logs/2026/01/23/XPeterburg/XPeterburg__20260123_003030_SUOMI_NPP_rec.log

#Pass ID: 20260123_003030_SUOMI NPP
#Satellite: SUOMI NPP
#Configuration: NPP
#Start time: 2026-01-23 00:30:25

#Version: 1.5.20200625
#Station: XPeterburg
#Location: 30.318091 lon 59.932769 lat
#TLE: 1 37849U 11061A   26021.51818991  .00000201  00000+0  11636-3 0  9995
#TLE: 2 37849  98.7819 323.5108 0002300  52.3548 307.7836 14.19527793737637

#Time	Az	El	Level	Level2	SNR	BER	Gain	Gain2
2026-01-23 00:30:25.05	18.65	67.71	-38.1	-44.9	3.3	15362236	94	2691
2026-01-23 00:30:25.45	18.64	67.89	-38.2	-46.5	3.6	15138427	93	3190
2026-01-23 00:30:25.85	18.64	68.08	-38.1	-45.1	3.4	15146278	93	2750
2026-01-23 00:30:26.26	18.63	68.26	-38.0	-45.7	3.6	15207969	93	2975
2026-01-23 00:30:26.66	18.63	68.44	-37.9	-43.9	3.4	15153663	93	2456
2026-01-23 00:30:27.06	18.62	68.63	-37.8	-44.3	3.6	15149780	93	2614
2026-01-23 00:30:27.46	18.61	68.81	-37.6	-42.4	3.8	15149780	93	2134
2026-01-23 00:30:27.86	18.61	68.99	-37.4	-41.1	4.0	14585121	93	1885
2026-01-23 00:30:28.27	18.60	69.18	-37.2	-40.8	4.3	13579956	92	1868
2026-01-23 00:30:28.67	18.59	69.37	-36.9	-39.9	4.7	9697769	92	1722
2026-01-23 00:30:29.07	18.58	69.55	-36.8	-39.7	5.1	7256828	91	1716
2026-01-23 00:30:29.47	18.58	69.74	-36.7	-39.5	5.3	5701812	91	1700
2026-01-23 00:30:29.87	18.57	69.92	-36.3	-38.4	6.1	4206398	91	1554
2026-01-23 00:30:30.28	18.56	70.11	-35.9	-37.9	6.4	2677970	90	1553
2026-01-23 00:30:30.68	18.55	70.30	-35.7	-37.9	6.8	2125427	89	1579
2026-01-23 00:30:31.08	18.54	70.49	-35.7	-37.9	6.9	1631843	89	1590
2026-01-23 00:30:31.48	18.53	70.67	-35.7	-37.9	6.8	1587394	89	1588
2026-01-23 00:30:31.88	18.53	70.86	-36.0	-38.6	6.3	1745964	89	1670
2026-01-23 00:30:32.28	18.52	71.05	-36.2	-39.3	6.0	1745964	89	1757
2026-01-23 00:30:32.69	18.51	71.24	-36.5	-39.6	5.2	2418357	90	1769
2026-01-23 00:30:33.09	18.50	71.43	-36.6	-39.9	5.0	4394950	90	1800
2026-01-23 00:30:33.49	18.49	71.62	-37.2	-41.1	4.3	5358078	91	1919
2026-01-23 00:30:33.89	18.48	71.81	-37.5	-42.0	4.0	7845710	91	2067
2026-01-23 00:30:34.29	18.47	72.00	-37.5	-41.8	3.9	11094787	92	2022
2026-01-23 00:30:34.70	18.46	72.19	-37.2	-40.6	4.3	12896987	92	1811
2026-01-23 00:30:35.10	18.45	72.38	-37.2	-40.5	4.3	9789299	92	1799
2026-01-23 00:30:35.50	18.44	72.57	-37.1	-40.1	4.6	8650253	92	1743
2026-01-23 00:30:35.90	18.42	72.76	-37.0	-40.1	5.0	6323974	91	1760
2026-01-23 00:30:36.30	18.41	72.95	-36.6	-39.0	5.8	4644798	91	1622
2026-01-23 00:30:36.71	18.40	73.15	-36.4	-38.5	6.2	3030296	91	1567
2026-01-23 00:30:37.11	18.39	73.34	-35.9	-37.9	6.7	2173416	90	1538
2026-01-23 00:30:37.51	18.38	73.53	-36.1	-38.4	6.5	2173416	90	1614
2026-01-23 00:30:37.91	18.36	73.73	-35.9	-38.0	6.9	1845939	90	1558
2026-01-23 00:30:38.32	18.35	73.92	-35.8	-38.1	7.2	1793945	89	1598
2026-01-23 00:30:38.72	18.34	74.12	-35.8	-38.0	7.2	1407997	89	1593
2026-01-23 00:30:39.12	18.32	74.31	-35.4	-37.0	8.0	1255737	89	1476
2026-01-23 00:30:39.52	18.31	74.50	-35.0	-36.4	8.7	621551	88	1453
2026-01-23 00:30:39.92	18.29	74.70	-34.7	-36.4	9.3	311172	87	1493
2026-01-23 00:30:40.33	18.28	74.90	-34.5	-35.8	9.8	159896	87	1425
2026-01-23 00:30:40.73	18.26	75.09	-34.6	-36.1	9.6	106994	87	1461
2026-01-23 00:30:41.13	18.25	75.29	-34.9	-36.8	9.2	111953	87	1538
2026-01-23 00:30:41.53	18.23	75.48	-35.3	-37.9	8.5	185585	87	1656
2026-01-23 00:30:41.94	18.21	75.68	-35.4	-37.7	8.2	450546	88	1597
2026-01-23 00:30:42.34	18.19	75.88	-35.6	-38.1	7.9	450546	88	1639
2026-01-23 00:30:42.74	18.17	76.07	-35.7	-38.3	7.7	526069	88	1665
2026-01-23 00:30:43.14	18.16	76.27	-35.9	-38.1	7.5	835708	89	1596
2026-01-23 00:30:43.54	18.14	76.46	-36.1	-38.6	7.0	1150016	89	1644
2026-01-23 00:30:43.94	18.12	76.66	-36.3	-39.3	6.4	1375534	89	1735
2026-01-23 00:30:44.35	18.09	76.86	-36.5	-39.7	6.0	2184448	89	1792
2026-01-23 00:30:44.75	18.07	77.06	-36.6	-39.4	5.7	2944160	90	1701
2026-01-23 00:30:45.15	18.05	77.26	-36.8	-40.0	5.3	3667762	90	1776
2026-01-23 00:30:45.55	18.03	77.46	-36.4	-38.8	5.9	4535072	90	1614
2026-01-23 00:30:45.96	18.00	77.66	-36.4	-38.7	6.2	3074462	90	1614
2026-01-23 00:30:46.36	17.98	77.86	-36.3	-38.4	6.4	2684379	90	1575
2026-01-23 00:30:46.76	17.95	78.06	-36.5	-38.9	6.0	2284339	90	1640
2026-01-23 00:30:47.16	17.93	78.25	-36.7	-39.8	5.7	2972770	90	1749
2026-01-23 00:30:47.56	17.90	78.45	-36.3	-38.3	6.5	2972770	90	1565
2026-01-23 00:30:47.97	17.87	78.66	-36.3	-38.4	6.5	3068862	90	1579
2026-01-23 00:30:48.37	17.84	78.86	-36.5	-39.0	6.0	2446060	90	1643
2026-01-23 00:30:48.77	17.81	79.06	-35.9	-37.3	7.2	2746620	90	1459
2026-01-23 00:30:49.17	17.78	79.26	-35.9	-37.5	7.2	1454956	90	1482
2026-01-23 00:30:49.57	17.74	79.46	-35.6	-37.4	7.9	1193138	89	1497
2026-01-23 00:30:49.98	17.71	79.66	-35.4	-36.7	8.4	653564	89	1437
2026-01-23 00:30:50.38	17.67	79.86	-35.6	-37.2	8.2	455345	89	1496
2026-01-23 00:30:50.78	17.63	80.06	-35.3	-37.0	8.7	465866	88	1500
2026-01-23 00:30:51.18	17.59	80.26	-35.4	-37.4	8.3	438117	88	1552
2026-01-23 00:30:51.58	17.55	80.46	-35.3	-37.1	8.5	483795	88	1513
2026-01-23 00:30:51.99	17.51	80.67	-35.4	-37.3	8.3	476661	88	1536
2026-01-23 00:30:52.39	17.46	80.87	-35.2	-36.9	8.7	476661	88	1500
2026-01-23 00:30:52.79	17.42	81.07	-35.5	-37.8	8.2	366065	88	1601
2026-01-23 00:30:53.19	17.37	81.28	-35.9	-38.8	7.6	490913	88	1721
2026-01-23 00:30:53.59	17.31	81.48	-36.1	-38.7	7.3	767433	89	1661
2026-01-23 00:30:54.00	17.26	81.69	-36.2	-39.1	7.1	1263526	89	1717
2026-01-23 00:30:54.40	17.20	81.89	-35.9	-38.2	7.7	1348358	89	1603
2026-01-23 00:30:54.80	17.14	82.09	-35.6	-37.6	8.1	775993	89	1538
2026-01-23 00:30:55.20	17.08	82.29	-34.9	-36.3	9.2	490341	88	1444
2026-01-23 00:30:55.60	17.01	82.50	-34.8	-36.5	9.4	189476	87	1493
2026-01-23 00:30:56.01	16.93	82.70	-34.5	-35.9	10.0	132339	87	1438
2026-01-23 00:30:56.41	16.86	82.91	-34.5	-35.8	10.1	64834	87	1436
2026-01-23 00:30:56.81	16.78	83.11	-34.5	-35.8	10.1	62736	87	1435
2026-01-23 00:30:57.21	16.69	83.31	-34.5	-35.9	10.0	74356	87	1443
2026-01-23 00:30:57.61	16.60	83.52	-34.6	-36.1	9.8	74356	87	1461
2026-01-23 00:30:58.02	16.50	83.73	-34.4	-35.4	10.2	75927	87	1394
2026-01-23 00:30:58.42	16.40	83.93	-33.8	-35.2	10.7	68634	85	1450
2026-01-23 00:30:58.82	16.29	84.13	-33.4	-34.3	11.4	30532	85	1364
2026-01-23 00:30:59.22	16.17	84.34	-33.6	-34.9	11.0	11138	85	1418
2026-01-23 00:30:59.62	16.04	84.54	-33.8	-35.3	10.7	15289	85	1461
2026-01-23 00:31:00.03	15.90	84.75	-34.0	-35.8	10.5	25512	85	1502
2026-01-23 00:31:00.43	15.75	84.96	-34.2	-36.2	10.2	39955	85	1540
2026-01-23 00:31:00.83	15.59	85.16	-34.0	-35.7	10.7	48423	85	1490
2026-01-23 00:31:01.23	15.41	85.36	-33.7	-35.0	11.0	26382	85	1427
2026-01-23 00:31:01.63	15.21	85.57	-33.7	-34.9	10.9	28022	85	1419
2026-01-23 00:31:02.04	15.00	85.78	-33.8	-35.3	10.6	23597	85	1457
2026-01-23 00:31:02.44	14.76	85.98	-33.9	-35.4	10.6	23597	85	1466
2026-01-23 00:31:02.84	14.50	86.19	-33.9	-35.5	10.5	30151	85	1473
2026-01-23 00:31:03.24	14.21	86.39	-34.4	-36.4	9.8	44448	85	1564
2026-01-23 00:31:03.64	13.88	86.60	-34.2	-35.5	9.7	79391	86	1438
2026-01-23 00:31:04.05	13.50	86.81	-34.3	-35.7	9.9	103149	86	1449
2026-01-23 00:31:04.45	13.08	87.01	-35.4	-37.9	8.5	104118	87	1640
2026-01-23 00:31:04.85	12.60	87.21	-35.6	-38.0	8.0	388175	88	1612
2026-01-23 00:31:05.25	12.04	87.42	-36.2	-38.8	7.3	781929	89	1667
2026-01-23 00:31:05.65	11.39	87.62	-36.1	-38.6	7.3	1272338	89	1637
2026-01-23 00:31:06.06	10.59	87.83	-36.1	-38.0	7.2	1491027	90	1533
2026-01-23 00:31:06.46	9.65	88.03	-36.0	-37.8	7.4	1210723	90	1507
2026-01-23 00:31:06.86	8.48	88.24	-36.1	-37.9	7.2	1314369	90	1520
2026-01-23 00:31:07.26	7.02	88.44	-36.1	-38.2	7.2	1064292	90	1569
2026-01-23 00:31:07.66	5.13	88.64	-36.0	-37.8	7.4	1064292	90	1513
2026-01-23 00:31:08.07	2.51	88.84	-36.2	-38.4	7.0	1095214	90	1585
2026-01-23 00:31:08.47	358.89	89.04	-36.2	-38.2	7.1	1495788	90	1558
2026-01-23 00:31:08.87	353.47	89.23	-35.9	-37.8	7.8	1482856	89	1539
2026-01-23 00:31:09.27	344.69	89.40	-35.5	-37.0	8.6	996673	89	1453
2026-01-23 00:31:09.67	329.21	89.56	-35.4	-37.2	8.7	528396	88	1520
2026-01-23 00:31:10.08	301.34	89.65	-35.2	-36.8	8.9	277305	88	1473
2026-01-23 00:31:10.48	267.99	89.63	-35.3	-36.9	8.9	280929	88	1491
2026-01-23 00:31:10.88	244.62	89.52	-35.3	-36.9	9.0	293952	88	1489
2026-01-23 00:31:11.28	231.57	89.35	-35.1	-36.6	9.4	249252	88	1461
2026-01-23 00:31:11.68	224.01	89.17	-34.6	-35.7	10.1	116256	87	1407
2026-01-23 00:31:12.09	219.13	88.98	-34.4	-35.4	10.5	52352	87	1384
2026-01-23 00:31:12.49	215.90	88.78	-34.0	-35.6	10.8	52352	85	1479
2026-01-23 00:31:12.89	213.58	88.58	-33.8	-35.2	11.0	22178	85	1442
2026-01-23 00:31:13.29	211.82	88.38	-34.3	-36.2	10.2	20835	85	1542
2026-01-23 00:31:13.69	210.46	88.18	-34.4	-36.0	9.9	41519	86	1486
2026-01-23 00:31:14.10	209.34	87.97	-34.6	-36.5	9.5	89904	86	1529
2026-01-23 00:31:14.50	208.46	87.77	-34.7	-36.7	9.3	143455	86	1551
2026-01-23 00:31:14.90	207.72	87.56	-35.4	-37.9	8.4	177879	87	1640
2026-01-23 00:31:15.30	207.09	87.36	-35.1	-37.0	9.0	289573	87	1536
2026-01-23 00:31:15.70	206.56	87.16	-35.2	-37.2	8.9	235435	87	1559
2026-01-23 00:31:16.11	206.09	86.95	-35.3	-37.7	8.6	294944	87	1618
2026-01-23 00:31:16.51	205.68	86.74	-35.6	-37.8	8.1	454124	88	1588
2026-01-23 00:31:16.91	205.33	86.54	-35.6	-37.9	7.8	629859	88	1598
2026-01-23 00:31:17.31	205.01	86.33	-35.4	-37.2	8.3	585433	88	1521
2026-01-23 00:31:17.72	204.72	86.12	-34.9	-36.2	9.0	585433	88	1417
2026-01-23 00:31:18.12	204.47	85.92	-34.4	-35.2	9.9	352104	87	1359
2026-01-23 00:31:18.52	204.24	85.71	-33.9	-34.7	10.3	149253	86	1362
2026-01-23 00:31:18.92	204.04	85.51	-33.9	-34.8	10.3	65032	86	1368
2026-01-23 00:31:19.32	203.85	85.30	-33.8	-35.1	10.5	48095	85	1425
2026-01-23 00:31:19.73	203.67	85.09	-33.9	-35.4	10.3	40748	85	1466
2026-01-23 00:31:20.13	203.51	84.89	-33.6	-34.6	10.7	38459	85	1389
2026-01-23 00:31:20.53	203.36	84.69	-33.6	-34.7	10.6	37101	85	1394
2026-01-23 00:31:20.93	203.23	84.48	-33.5	-34.5	10.8	31295	85	1375
2026-01-23 00:31:21.33	203.10	84.28	-33.4	-34.9	10.9	19638	84	1447
2026-01-23 00:31:21.74	202.98	84.07	-33.6	-35.2	10.8	24742	84	1480
2026-01-23 00:31:22.14	202.88	83.86	-34.1	-35.8	10.1	41435	85	1507
2026-01-23 00:31:22.54	202.77	83.66	-34.5	-36.4	9.5	41435	86	1535
2026-01-23 00:31:22.94	202.68	83.46	-35.3	-37.9	8.6	95207	87	1649
2026-01-23 00:31:23.35	202.59	83.25	-35.8	-38.6	7.7	304328	88	1700
2026-01-23 00:31:23.75	202.50	83.04	-35.8	-38.5	7.8	624893	88	1681
2026-01-23 00:31:24.15	202.42	82.84	-35.6	-37.8	8.2	780929	88	1589
2026-01-23 00:31:24.55	202.35	82.64	-35.5	-37.7	8.4	578170	88	1591
2026-01-23 00:31:24.95	202.28	82.43	-35.6	-38.1	8.1	446113	88	1641
2026-01-23 00:31:25.36	202.21	82.23	-36.0	-38.5	7.4	589103	89	1644
2026-01-23 00:31:25.76	202.15	82.02	-36.2	-38.9	7.1	1041374	89	1687
2026-01-23 00:31:26.16	202.09	81.82	-35.7	-37.7	8.0	1174736	89	1539
2026-01-23 00:31:26.56	202.03	81.62	-35.5	-37.1	8.4	604156	89	1477
2026-01-23 00:31:26.97	201.98	81.41	-35.6	-37.4	8.3	459526	89	1515
2026-01-23 00:31:27.37	201.93	81.21	-36.1	-38.9	7.4	639526	89	1700
2026-01-23 00:31:27.77	201.88	81.01	-36.4	-39.6	6.9	639526	89	1785
2026-01-23 00:31:28.17	201.83	80.80	-36.7	-40.1	5.8	1411056	90	1816
2026-01-23 00:31:28.57	201.79	80.60	-36.9	-40.7	5.7	2927024	90	1895
2026-01-23 00:31:28.97	201.74	80.40	-36.8	-40.4	5.7	3580345	90	1848
2026-01-23 00:31:29.38	201.70	80.20	-36.5	-39.4	6.3	3540237	90	1705
2026-01-23 00:31:29.78	201.66	79.99	-36.3	-38.7	6.8	2420257	90	1624
2026-01-23 00:31:30.18	201.63	79.79	-36.2	-38.7	7.0	1651748	90	1627
2026-01-23 00:31:30.58	201.59	79.59	-36.6	-39.7	6.4	1564331	90	1762
2026-01-23 00:31:30.98	201.56	79.39	-37.0	-41.0	5.6	2565452	90	1951
2026-01-23 00:31:31.39	201.52	79.19	-36.9	-40.8	5.6	4002159	90	1928
2026-01-23 00:31:31.79	201.49	78.99	-36.7	-40.1	6.1	3554435	90	1814
2026-01-23 00:31:32.19	201.46	78.79	-36.3	-38.9	6.6	2595878	90	1654
2026-01-23 00:31:32.59	201.43	78.59	-35.9	-37.7	7.4	2595878	90	1509
2026-01-23 00:31:33.00	201.40	78.38	-35.9	-38.1	7.5	1525726	89	1596
2026-01-23 00:31:33.40	201.37	78.18	-35.9	-38.2	7.5	922874	89	1601
2026-01-23 00:31:33.80	201.35	77.99	-36.0	-38.3	7.1	998847	89	1617
2026-01-23 00:31:34.20	201.32	77.79	-36.5	-39.6	6.1	1168151	89	1769
2026-01-23 00:31:34.60	201.30	77.59	-37.0	-40.7	5.1	2490737	90	1892
2026-01-23 00:31:35.01	201.27	77.39	-37.3	-40.7	4.9	4590049	91	1830
2026-01-23 00:31:35.41	201.25	77.19	-37.2	-40.5	5.0	5731895	91	1804
2026-01-23 00:31:35.81	201.23	76.99	-37.1	-40.0	5.2	5870552	91	1732
2026-01-23 00:31:36.21	201.21	76.79	-37.3	-40.7	4.8	5407127	91	1829
2026-01-23 00:31:36.61	201.19	76.60	-37.4	-41.1	4.5	6802612	91	1898
2026-01-23 00:31:37.02	201.17	76.39	-37.4	-41.3	4.4	8123840	91	1928
2026-01-23 00:31:37.42	201.15	76.20	-37.5	-41.1	4.3	8416152	92	1873
2026-01-23 00:31:37.82	201.13	76.00	-37.2	-40.3	4.7	8108718	92	1752
2026-01-23 00:31:38.22	201.11	75.80	-37.0	-39.4	5.2	8108718	92	1633
2026-01-23 00:31:38.62	201.09	75.61	-37.0	-39.6	5.2	5729263	92	1661
2026-01-23 00:31:39.03	201.07	75.41	-36.6	-39.0	6.1	4993026	91	1622
2026-01-23 00:31:39.43	201.06	75.21	-36.4	-38.3	6.5	3150794	91	1540
2026-01-23 00:31:39.83	201.04	75.02	-36.2	-38.7	6.5	2116195	90	1637
2026-01-23 00:31:40.23	201.03	74.82	-36.2	-38.5	6.6	1981292	90	1616
2026-01-23 00:31:40.63	201.01	74.63	-36.2	-38.8	6.3	1958442	90	1655
2026-01-23 00:31:41.04	200.99	74.43	-36.2	-38.7	6.4	2315330	90	1642
2026-01-23 00:31:41.44	200.98	74.24	-35.8	-37.7	7.2	2053009	90	1529
2026-01-23 00:31:41.84	200.97	74.04	-35.8	-38.0	7.5	1261169	89	1597
2026-01-23 00:31:42.24	200.95	73.85	-35.4	-37.1	8.2	770668	89	1496
2026-01-23 00:31:42.64	200.94	73.66	-35.3	-37.3	8.4	770668	88	1561
2026-01-23 00:31:43.05	200.93	73.46	-35.3	-37.6	8.2	468498	88	1601
2026-01-23 00:31:43.45	200.91	73.27	-35.6	-38.3	7.8	480438	88	1678
2026-01-23 00:31:43.85	200.90	73.08	-36.0	-39.5	6.9	691604	88	1833
2026-01-23 00:31:44.25	200.89	72.88	-36.6	-40.2	5.6	1259887	90	1872
2026-01-23 00:31:44.65	200.88	72.69	-36.7	-40.4	5.4	3163002	90	1879
2026-01-23 00:31:45.06	200.87	72.50	-36.7	-40.4	5.3	4434020	90	1870
2026-01-23 00:31:45.46	200.86	72.31	-36.6	-39.9	5.3	4595481	90	1789
2026-01-23 00:31:45.86	200.85	72.12	-36.6	-39.6	5.3	4467262	90	1754
2026-01-23 00:31:46.26	200.84	71.93	-36.6	-39.9	5.3	4478958	90	1786
2026-01-23 00:31:46.67	200.82	71.73	-36.5	-39.3	5.3	5102844	90	1706
2026-01-23 00:31:47.07	200.81	71.54	-36.5	-39.4	5.3	4670280	90	1717
2026-01-23 00:31:47.47	200.81	71.35	-36.5	-39.4	5.1	5034065	90	1714
2026-01-23 00:31:47.87	200.80	71.17	-36.8	-40.3	4.6	6420593	90	1846
2026-01-23 00:31:48.27	200.79	70.98	-36.8	-40.5	4.6	6420593	90	1872
2026-01-23 00:31:48.67	200.78	70.79	-36.9	-40.7	4.5	7224205	90	1913
2026-01-23 00:31:49.08	200.77	70.60	-36.7	-40.1	4.9	7660835	90	1827
2026-01-23 00:31:49.48	200.76	70.41	-38.3	-46.2	3.6	7236526	93	3084

#Closed at: 2026-01-23 00:31:49