passes_logs/2026/01/23/XPeterburg/XPeterburg__20260123_045157_FENGYUN_3E_rec.log

#Pass ID: 20260123_045157_FENGYUN 3E
#Satellite: FENGYUN 3E
#Configuration: FENGYUN 3E
#Start time: 2026-01-23 04:51:51

#Version: 1.5.20200625
#Station: XPeterburg
#Location: 30.318091 lon 59.932769 lat
#TLE: 1 49008U 21062A   26021.55921410  .00000414  00000+0  21575-3 0  9991
#TLE: 2 49008  98.7483  26.6103 0002287 125.5068 234.6322 14.19887394235776

#Time	Az	El	Level	Level2	SNR	BER	Gain	Gain2
2026-01-23 04:51:51.84	355.91	67.80	-37.8	-39.7	3.3	8386310	94	6095
2026-01-23 04:51:52.24	355.68	67.96	-37.7	-41.0	3.5	8431869	92	7251
2026-01-23 04:51:52.64	355.46	68.12	-37.6	-39.9	3.3	8404289	92	6396
2026-01-23 04:51:53.04	355.23	68.29	-37.5	-40.9	3.6	8445156	92	7254
2026-01-23 04:51:53.44	355.00	68.45	-37.4	-39.2	3.3	8420688	92	6060
2026-01-23 04:51:53.85	354.76	68.62	-37.2	-39.9	3.6	8402309	92	6760
2026-01-23 04:51:54.25	354.52	68.78	-36.8	-37.5	3.6	8403739	92	5319
2026-01-23 04:51:54.65	354.27	68.95	-36.3	-37.8	3.8	8353500	91	5812
2026-01-23 04:51:55.05	354.02	69.11	-35.4	-35.4	4.7	8318664	89	4918
2026-01-23 04:51:55.45	353.77	69.28	-34.8	-34.7	5.2	7496292	87	4859
2026-01-23 04:51:55.86	353.51	69.44	-33.5	-33.0	6.5	3452201	85	4619
2026-01-23 04:51:56.26	353.25	69.61	-32.3	-31.5	8.0	962745	83	4461
2026-01-23 04:51:56.66	352.98	69.77	-31.5	-30.8	9.1	472663	81	4531
2026-01-23 04:51:57.06	352.71	69.94	-30.5	-29.6	10.3	120792	79	4465
2026-01-23 04:51:57.47	352.43	70.10	-29.7	-29.2	11.2	25497	77	4615
2026-01-23 04:51:57.87	352.15	70.27	-29.2	-28.5	12.0	5481	76	4545
2026-01-23 04:51:58.27	351.86	70.43	-28.9	-28.0	12.3	1476	76	4426
2026-01-23 04:51:58.67	351.57	70.59	-28.5	-27.6	12.6	984	75	4459
2026-01-23 04:51:59.07	351.27	70.75	-28.6	-27.8	12.5	789	75	4519
2026-01-23 04:51:59.48	350.96	70.92	-28.6	-28.0	12.5	892	75	4554
2026-01-23 04:51:59.88	350.66	71.08	-28.6	-28.0	12.5	995	75	4548
2026-01-23 04:52:00.28	350.34	71.25	-28.8	-28.3	12.4	1075	75	4655
2026-01-23 04:52:00.68	350.02	71.41	-29.1	-28.9	12.0	1338	75	4825
2026-01-23 04:52:01.08	349.70	71.57	-28.6	-28.3	12.8	1853	74	4787
2026-01-23 04:52:01.49	349.36	71.73	-28.8	-28.9	12.5	1018	74	4977
2026-01-23 04:52:01.89	349.02	71.89	-28.6	-28.4	12.7	846	74	4824
2026-01-23 04:52:02.29	348.68	72.05	-28.5	-28.3	12.8	675	74	4782
2026-01-23 04:52:02.69	348.33	72.21	-28.4	-28.0	12.9	411	74	4714
2026-01-23 04:52:03.09	347.97	72.37	-28.2	-27.7	13.1	343	74	4634
2026-01-23 04:52:03.50	347.60	72.54	-28.1	-27.4	13.2	308	74	4541
2026-01-23 04:52:03.90	347.23	72.69	-28.0	-27.1	13.3	228	74	4452
2026-01-23 04:52:04.30	346.85	72.85	-28.0	-27.2	13.3	205	74	4482
2026-01-23 04:52:04.70	346.46	73.01	-27.8	-26.8	13.5	125	74	4377
2026-01-23 04:52:05.10	346.07	73.17	-27.3	-26.2	13.9	68	73	4335
2026-01-23 04:52:05.51	345.66	73.33	-27.3	-26.1	13.9	34	73	4309
2026-01-23 04:52:05.91	345.25	73.48	-27.1	-26.4	14.1	0	72	4534
2026-01-23 04:52:06.31	344.83	73.64	-26.8	-25.8	14.5	22	72	4386
2026-01-23 04:52:06.71	344.41	73.79	-26.8	-26.3	14.3	11	71	4642
2026-01-23 04:52:07.11	343.97	73.95	-26.7	-26.1	14.4	0	71	4569
2026-01-23 04:52:07.52	343.52	74.10	-26.6	-25.8	14.5	11	71	4473
2026-01-23 04:52:07.92	343.06	74.26	-26.6	-25.7	14.5	0	71	4437
2026-01-23 04:52:08.32	342.60	74.41	-26.7	-25.9	14.5	0	71	4499
2026-01-23 04:52:08.72	342.13	74.56	-26.4	-25.3	14.8	0	71	4338
2026-01-23 04:52:09.12	341.65	74.71	-26.5	-25.5	14.7	0	71	4393
2026-01-23 04:52:09.53	341.15	74.86	-26.5	-25.6	14.7	0	71	4427
2026-01-23 04:52:09.93	340.65	75.01	-26.5	-25.6	14.7	0	71	4413
2026-01-23 04:52:10.33	340.13	75.16	-26.4	-25.3	14.9	0	71	4343
2026-01-23 04:52:10.73	339.61	75.30	-26.5	-25.6	14.8	0	71	4419
2026-01-23 04:52:11.13	339.08	75.45	-26.5	-26.1	14.9	0	70	4708
2026-01-23 04:52:11.54	338.52	75.60	-26.5	-26.2	14.8	0	70	4735
2026-01-23 04:52:11.94	337.97	75.74	-26.2	-25.4	15.2	0	70	4515
2026-01-23 04:52:12.34	337.40	75.88	-26.0	-25.0	15.4	0	70	4413
2026-01-23 04:52:12.74	336.82	76.02	-25.7	-25.0	15.6	0	69	4537
2026-01-23 04:52:13.14	336.23	76.16	-25.5	-24.6	15.8	0	69	4430
2026-01-23 04:52:13.55	335.61	76.30	-25.5	-24.6	15.8	0	69	4425
2026-01-23 04:52:13.95	334.99	76.44	-25.4	-24.4	15.9	0	69	4375
2026-01-23 04:52:14.35	334.36	76.57	-25.5	-24.5	15.9	0	69	4401
2026-01-23 04:52:14.75	333.72	76.71	-25.3	-24.2	16.1	0	69	4324
2026-01-23 04:52:15.15	333.06	76.84	-25.5	-24.5	15.9	0	69	4399
2026-01-23 04:52:15.56	332.37	76.97	-25.3	-24.6	16.2	0	68	4540
2026-01-23 04:52:15.96	331.69	77.10	-25.4	-24.8	16.1	0	68	4602
2026-01-23 04:52:16.36	330.99	77.23	-25.2	-24.5	16.2	0	68	4519
2026-01-23 04:52:16.76	330.28	77.35	-25.2	-24.4	16.1	0	68	4507
2026-01-23 04:52:17.16	329.55	77.48	-25.1	-24.3	16.2	0	68	4472
2026-01-23 04:52:17.57	328.79	77.60	-25.2	-24.5	16.2	0	68	4513
2026-01-23 04:52:17.97	328.03	77.72	-25.3	-24.6	16.1	0	68	4542
2026-01-23 04:52:18.37	327.26	77.84	-25.4	-24.7	16.0	0	68	4589
2026-01-23 04:52:18.77	326.47	77.95	-25.5	-25.0	15.9	0	68	4650
2026-01-23 04:52:19.17	325.67	78.06	-25.5	-25.0	15.8	0	68	4647
2026-01-23 04:52:19.58	324.83	78.18	-25.5	-25.0	15.9	0	68	4650
2026-01-23 04:52:19.98	323.99	78.29	-25.4	-24.9	15.9	0	68	4623
2026-01-23 04:52:20.38	323.14	78.39	-25.4	-24.8	16.0	0	68	4597
2026-01-23 04:52:20.78	322.28	78.50	-25.2	-24.4	16.2	0	68	4490
2026-01-23 04:52:21.19	321.37	78.60	-25.1	-24.3	16.3	0	68	4465
2026-01-23 04:52:21.59	320.47	78.70	-25.1	-24.1	16.3	0	68	4426
2026-01-23 04:52:21.99	319.56	78.79	-25.0	-24.1	16.3	0	68	4402
2026-01-23 04:52:22.39	318.63	78.89	-25.1	-24.3	16.4	0	68	4469
2026-01-23 04:52:22.80	317.66	78.98	-25.2	-24.4	16.3	0	68	4489
2026-01-23 04:52:23.20	316.69	79.06	-25.3	-24.6	16.2	0	68	4534
2026-01-23 04:52:23.60	315.71	79.15	-25.3	-24.6	16.2	0	68	4546
2026-01-23 04:52:24.00	314.72	79.23	-25.6	-25.2	15.9	0	68	4706
2026-01-23 04:52:24.41	313.69	79.31	-25.5	-25.1	15.9	0	68	4692
2026-01-23 04:52:24.81	312.66	79.38	-25.4	-24.9	16.0	0	68	4613
2026-01-23 04:52:25.21	311.63	79.45	-25.4	-24.8	16.1	0	68	4582
2026-01-23 04:52:25.61	310.57	79.52	-25.3	-24.6	16.2	0	68	4543
2026-01-23 04:52:26.01	309.51	79.58	-25.2	-24.5	16.3	0	68	4505
2026-01-23 04:52:26.42	308.40	79.64	-25.4	-24.7	16.2	0	68	4575
2026-01-23 04:52:26.82	307.31	79.70	-25.6	-25.2	16.0	0	68	4698
2026-01-23 04:52:27.22	306.21	79.75	-25.6	-25.1	16.0	0	68	4685
2026-01-23 04:52:27.62	305.10	79.80	-25.8	-25.6	15.9	0	68	4812
2026-01-23 04:52:28.02	303.97	79.85	-25.9	-25.8	15.8	0	68	4866
2026-01-23 04:52:28.43	302.81	79.89	-26.0	-26.0	15.6	0	68	4917
2026-01-23 04:52:28.83	301.67	79.93	-26.0	-25.6	15.5	0	69	4677
2026-01-23 04:52:29.23	300.51	79.96	-26.0	-25.5	15.6	0	69	4663
2026-01-23 04:52:29.63	299.35	79.99	-26.4	-26.3	15.2	0	69	4895
2026-01-23 04:52:30.03	298.19	80.01	-26.1	-25.8	15.4	0	69	4748
2026-01-23 04:52:30.44	296.99	80.04	-26.4	-26.5	15.1	0	69	4934
2026-01-23 04:52:30.84	295.81	80.05	-26.3	-25.6	15.3	0	70	4555
2026-01-23 04:52:31.24	294.63	80.07	-26.5	-26.1	15.1	0	70	4680
2026-01-23 04:52:31.64	293.45	80.07	-26.6	-26.2	15.0	0	70	4699
2026-01-23 04:52:32.04	292.27	80.08	-26.6	-26.2	15.1	0	70	4719
2026-01-23 04:52:32.45	291.05	80.08	-26.8	-26.1	14.6	0	71	4555
2026-01-23 04:52:32.85	289.87	80.08	-26.7	-26.0	14.9	0	71	4522
2026-01-23 04:52:33.25	288.69	80.07	-26.8	-26.1	14.7	11	71	4557
2026-01-23 04:52:33.65	287.51	80.05	-26.7	-25.9	14.9	0	71	4503
2026-01-23 04:52:34.05	286.33	80.04	-27.1	-26.7	14.5	11	71	4721
2026-01-23 04:52:34.46	285.13	80.02	-26.9	-26.4	14.6	0	71	4633
2026-01-23 04:52:34.86	283.96	79.99	-27.2	-26.9	14.4	22	71	4786
2026-01-23 04:52:35.26	282.80	79.96	-27.4	-27.0	14.2	11	72	4656
2026-01-23 04:52:35.66	281.65	79.93	-27.5	-27.1	14.2	0	72	4702
2026-01-23 04:52:36.06	280.51	79.89	-27.8	-27.7	13.9	34	72	4859
2026-01-23 04:52:36.47	279.34	79.85	-28.0	-27.7	13.6	114	73	4724
2026-01-23 04:52:36.87	278.22	79.81	-28.2	-28.0	13.4	114	73	4796
2026-01-23 04:52:37.27	277.10	79.76	-28.3	-28.2	13.3	57	73	4862
2026-01-23 04:52:37.67	276.00	79.71	-28.4	-28.5	13.1	251	73	4958
2026-01-23 04:52:38.07	274.91	79.65	-28.4	-28.0	13.1	331	74	4658
2026-01-23 04:52:38.47	273.83	79.59	-28.5	-28.0	13.1	308	74	4673
2026-01-23 04:52:38.88	272.73	79.52	-28.6	-28.3	12.9	377	74	4754
2026-01-23 04:52:39.28	271.68	79.46	-28.7	-28.6	12.8	606	74	4835
2026-01-23 04:52:39.68	270.64	79.39	-28.7	-28.6	12.8	389	74	4836
2026-01-23 04:52:40.08	269.62	79.31	-28.7	-28.6	12.8	663	74	4847
2026-01-23 04:52:40.48	268.61	79.24	-29.0	-28.7	12.4	755	75	4725
2026-01-23 04:52:40.89	267.58	79.15	-29.1	-28.9	12.3	1190	75	4802
2026-01-23 04:52:41.29	266.61	79.07	-29.4	-29.5	12.0	1773	75	4959
2026-01-23 04:52:41.69	265.64	78.98	-29.4	-29.5	11.9	3215	75	4958
2026-01-23 04:52:42.09	264.69	78.89	-29.3	-29.2	12.0	3559	75	4866
2026-01-23 04:52:42.49	263.76	78.80	-29.7	-29.5	11.8	3993	76	4804
2026-01-23 04:52:42.90	262.82	78.70	-29.6	-29.2	11.8	4142	76	4739
2026-01-23 04:52:43.30	261.92	78.61	-29.8	-29.7	11.5	5630	76	4870
2026-01-23 04:52:43.70	261.03	78.51	-29.9	-29.3	11.4	10231	77	4627
2026-01-23 04:52:44.10	260.16	78.40	-29.7	-29.0	11.6	7839	77	4546
2026-01-23 04:52:44.50	259.31	78.30	-30.1	-29.9	11.2	8766	77	4832
2026-01-23 04:52:44.91	258.45	78.19	-30.1	-29.9	11.2	8365	77	4822
2026-01-23 04:52:45.31	257.63	78.08	-30.1	-29.9	11.2	11432	77	4812
2026-01-23 04:52:45.71	256.83	77.96	-30.5	-30.8	10.7	24936	77	5103
2026-01-23 04:52:46.11	256.04	77.85	-30.8	-30.8	10.3	36712	78	4930
2026-01-23 04:52:46.51	255.26	77.73	-30.9	-30.5	10.1	51773	79	4721
2026-01-23 04:52:46.92	254.48	77.61	-31.1	-30.9	9.9	68790	79	4843
2026-01-23 04:52:47.32	253.74	77.49	-31.0	-30.7	9.9	86265	79	4765
2026-01-23 04:52:47.72	253.01	77.36	-31.0	-30.7	10.0	76354	79	4760
2026-01-23 04:52:48.12	252.29	77.24	-30.8	-30.3	10.1	76000	79	4652
2026-01-23 04:52:48.52	251.59	77.11	-30.8	-30.2	10.1	69591	79	4624
2026-01-23 04:52:48.93	250.89	76.98	-30.9	-30.5	9.9	68367	79	4710
2026-01-23 04:52:49.33	250.22	76.85	-30.8	-30.2	10.0	60619	79	4598
2026-01-23 04:52:49.73	249.56	76.72	-30.3	-29.7	10.7	37273	78	4597
2026-01-23 04:52:50.13	248.92	76.58	-29.9	-28.9	11.2	46588	78	4414
2026-01-23 04:52:50.53	248.28	76.45	-30.5	-30.2	10.5	36346	78	4750
2026-01-23 04:52:50.94	247.65	76.31	-30.5	-30.1	10.4	27866	78	4718
2026-01-23 04:52:51.34	247.04	76.17	-30.3	-29.9	10.6	28953	78	4662
2026-01-23 04:52:51.74	246.45	76.03	-30.3	-29.8	10.6	34309	78	4644
2026-01-23 04:52:52.14	245.87	75.89	-30.8	-30.8	10.1	45101	78	4918
2026-01-23 04:52:52.55	245.29	75.75	-30.8	-30.7	10.1	60070	78	4891
2026-01-23 04:52:52.95	244.73	75.60	-30.8	-30.8	10.0	68939	78	4943
2026-01-23 04:52:53.35	244.18	75.46	-30.7	-30.1	10.1	89515	79	4599
2026-01-23 04:52:53.75	243.65	75.31	-31.1	-30.9	9.6	105194	79	4829
2026-01-23 04:52:54.16	243.11	75.16	-31.2	-31.1	9.4	82958	79	4873
2026-01-23 04:52:54.56	242.60	75.02	-30.9	-30.6	9.7	133781	79	4727
2026-01-23 04:52:54.96	242.10	74.87	-31.2	-31.2	9.4	123870	79	4894
2026-01-23 04:52:55.36	241.60	74.72	-31.3	-31.4	9.2	155445	79	4969
2026-01-23 04:52:55.76	241.12	74.57	-31.4	-31.5	9.2	166225	79	4981
2026-01-23 04:52:56.17	240.64	74.41	-31.8	-31.9	9.0	190818	80	4999
2026-01-23 04:52:56.57	240.17	74.26	-31.7	-31.7	9.0	200168	80	4895
2026-01-23 04:52:56.97	239.72	74.11	-31.4	-31.2	9.4	156669	80	4767
2026-01-23 04:52:57.37	239.28	73.96	-31.2	-30.7	9.7	150283	80	4605
2026-01-23 04:52:57.77	238.84	73.80	-31.0	-30.2	10.0	103614	80	4475
2026-01-23 04:52:58.18	238.40	73.64	-30.9	-30.0	10.1	76263	80	4415
2026-01-23 04:52:58.58	237.98	73.49	-30.7	-30.1	10.1	64579	79	4621
2026-01-23 04:52:58.98	237.57	73.33	-30.5	-29.8	10.3	52299	79	4512
2026-01-23 04:52:59.38	237.17	73.18	-30.5	-29.7	10.3	46234	79	4484
2026-01-23 04:52:59.78	236.78	73.02	-30.6	-29.9	10.1	63354	79	4557
2026-01-23 04:53:00.18	236.39	72.86	-31.0	-30.8	9.4	74581	79	4781
2026-01-23 04:53:00.59	236.00	72.70	-30.7	-30.2	9.7	92136	79	4606
2026-01-23 04:53:00.99	235.63	72.54	-30.8	-30.2	9.6	89424	79	4612
2026-01-23 04:53:01.39	235.27	72.38	-30.8	-30.1	9.5	114589	79	4575
2026-01-23 04:53:01.79	234.91	72.22	-30.7	-30.2	9.5	116958	79	4604
2026-01-23 04:53:02.19	234.56	72.06	-30.8	-30.1	9.4	123619	79	4571
2026-01-23 04:53:02.60	234.20	71.90	-30.6	-30.0	9.6	129581	79	4545
2026-01-23 04:53:03.00	233.87	71.74	-30.7	-30.0	9.5	110424	79	4563
2026-01-23 04:53:03.40	233.53	71.57	-30.6	-30.0	9.5	107334	79	4548
2026-01-23 04:53:03.80	233.21	71.41	-30.6	-30.0	9.6	103523	79	4576
2026-01-23 04:53:04.20	232.89	71.25	-30.6	-30.4	9.8	81481	78	4824
2026-01-23 04:53:04.61	232.57	71.09	-30.5	-30.2	9.9	74569	78	4757
2026-01-23 04:53:05.01	232.26	70.92	-30.2	-29.5	10.3	74432	78	4549
2026-01-23 04:53:05.41	231.96	70.76	-30.3	-29.6	10.2	68206	78	4579
2026-01-23 04:53:05.81	231.66	70.60	-30.1	-29.5	10.4	76732	78	4566
2026-01-23 04:53:06.21	231.37	70.43	-37.7	-41.5	3.6	1684204	92	7642
2026-01-23 04:53:06.62	231.07	70.27	-37.9	-41.2	3.4	8450660	92	7156

#Closed at: 2026-01-23 04:53:07