passes_logs/2026/01/23/XPeterburg/XPeterburg__20260123_102314_SUOMI_NPP_rec.log

#Pass ID: 20260123_102314_SUOMI NPP
#Satellite: SUOMI NPP
#Configuration: NPP
#Start time: 2026-01-23 10:23:07

#Version: 1.5.20200625
#Station: XPeterburg
#Location: 30.318091 lon 59.932769 lat
#TLE: 1 37849U 11061A   26021.51818991  .00000201  00000+0  11636-3 0  9995
#TLE: 2 37849  98.7819 323.5108 0002300  52.3548 307.7836 14.19527793737637

#Time	Az	El	Level	Level2	SNR	BER	Gain	Gain2
2026-01-23 10:23:07.38	149.95	67.16	-38.5	-45.2	3.3	15351669	94	2658
2026-01-23 10:23:07.78	149.87	67.34	-38.6	-46.3	3.6	15131256	94	2983
2026-01-23 10:23:08.19	149.79	67.53	-38.5	-45.1	3.4	15131103	94	2626
2026-01-23 10:23:08.59	149.70	67.70	-38.4	-46.0	3.6	15176918	94	2951
2026-01-23 10:23:08.99	149.62	67.88	-38.8	-45.5	3.4	15114486	95	2651
2026-01-23 10:23:09.39	149.53	68.06	-38.6	-46.1	3.6	15114486	95	2906
2026-01-23 10:23:09.80	149.44	68.25	-38.8	-45.7	3.5	15198776	95	2718
2026-01-23 10:23:10.20	149.35	68.43	-38.6	-45.9	2.9	15108787	95	2855
2026-01-23 10:23:10.60	149.26	68.61	-38.5	-44.9	3.5	15211532	95	2571
2026-01-23 10:23:11.00	149.16	68.79	-38.4	-43.4	3.3	15120590	95	2186
2026-01-23 10:23:11.40	149.07	68.97	-37.8	-43.2	3.6	15215797	94	2313
2026-01-23 10:23:11.80	148.97	69.15	-37.9	-42.2	3.6	15006706	94	2022
2026-01-23 10:23:12.21	148.87	69.34	-37.8	-43.0	3.9	14924034	93	2227
2026-01-23 10:23:12.61	148.77	69.52	-37.8	-42.0	3.9	14168518	93	1990
2026-01-23 10:23:13.01	148.66	69.71	-37.7	-41.6	3.9	14009841	93	1913
2026-01-23 10:23:13.41	148.56	69.89	-37.7	-41.3	3.9	13697334	93	1880
2026-01-23 10:23:13.81	148.45	70.07	-37.7	-41.6	3.8	13885574	93	1919
2026-01-23 10:23:14.22	148.34	70.26	-37.7	-41.7	3.8	13885574	93	1939
2026-01-23 10:23:14.62	148.23	70.44	-37.6	-41.2	3.9	13789367	93	1863
2026-01-23 10:23:15.02	148.11	70.63	-37.7	-41.6	3.9	13434837	93	1915
2026-01-23 10:23:15.42	148.00	70.81	-37.6	-41.1	4.0	13279998	93	1835
2026-01-23 10:23:15.82	147.88	71.00	-37.7	-41.5	3.9	12780403	93	1903
2026-01-23 10:23:16.23	147.75	71.19	-37.6	-40.8	4.2	13411453	93	1795
2026-01-23 10:23:16.63	147.63	71.37	-37.5	-40.7	4.3	11268287	93	1783
2026-01-23 10:23:17.03	147.50	71.56	-36.7	-39.1	4.7	9343887	92	1634
2026-01-23 10:23:17.43	147.37	71.74	-37.0	-39.5	5.3	6098747	92	1639
2026-01-23 10:23:17.83	147.24	71.93	-36.7	-38.9	6.2	4426696	91	1590
2026-01-23 10:23:18.24	147.10	72.12	-36.3	-37.9	7.0	2406822	91	1481
2026-01-23 10:23:18.64	146.96	72.30	-35.7	-37.4	7.8	1197563	89	1505
2026-01-23 10:23:19.04	146.82	72.49	-35.6	-37.5	7.9	754165	89	1521
2026-01-23 10:23:19.44	146.68	72.68	-35.6	-37.2	8.2	754165	89	1495
2026-01-23 10:23:19.84	146.53	72.86	-35.6	-37.5	8.1	603271	89	1520
2026-01-23 10:23:20.25	146.37	73.06	-35.6	-37.4	8.0	614089	89	1513
2026-01-23 10:23:20.65	146.22	73.24	-35.6	-37.4	8.1	690773	89	1520
2026-01-23 10:23:21.05	146.06	73.43	-35.5	-37.2	8.2	629432	89	1498
2026-01-23 10:23:21.45	145.90	73.62	-35.3	-36.7	8.5	505126	89	1443
2026-01-23 10:23:21.85	145.73	73.81	-35.3	-37.1	8.6	388282	88	1520
2026-01-23 10:23:22.26	145.56	74.00	-34.9	-36.3	9.1	313919	88	1430
2026-01-23 10:23:22.66	145.38	74.19	-34.9	-36.1	9.2	223640	88	1416
2026-01-23 10:23:23.06	145.20	74.37	-35.0	-36.4	9.0	224426	88	1444
2026-01-23 10:23:23.46	145.02	74.56	-35.3	-37.1	8.6	250297	88	1522
2026-01-23 10:23:23.86	144.83	74.75	-35.7	-38.1	7.9	457489	88	1619
2026-01-23 10:23:24.27	144.63	74.94	-36.1	-38.7	7.3	457489	89	1650
2026-01-23 10:23:24.67	144.43	75.13	-36.4	-39.4	6.7	1001312	89	1743
2026-01-23 10:23:25.07	144.23	75.32	-36.4	-38.8	6.7	1609428	90	1622
2026-01-23 10:23:25.47	144.02	75.51	-36.7	-39.6	6.2	1975479	90	1727
2026-01-23 10:23:25.88	143.79	75.70	-36.7	-39.5	6.1	2545272	90	1710
2026-01-23 10:23:26.28	143.57	75.89	-37.3	-40.7	5.5	3254570	91	1822
2026-01-23 10:23:26.68	143.34	76.08	-37.3	-40.6	5.4	3823974	91	1793
2026-01-23 10:23:27.08	143.11	76.27	-37.5	-41.2	5.1	4214118	91	1877
2026-01-23 10:23:27.48	142.87	76.46	-37.4	-40.2	5.1	5053062	92	1700
2026-01-23 10:23:27.89	142.61	76.65	-37.5	-40.6	5.0	5818962	92	1760
2026-01-23 10:23:28.29	142.36	76.84	-37.4	-40.1	5.1	6057617	92	1681
2026-01-23 10:23:28.69	142.09	77.03	-37.6	-40.8	4.7	6268577	92	1783
2026-01-23 10:23:29.09	141.82	77.22	-37.8	-41.4	4.4	7212738	92	1875
2026-01-23 10:23:29.50	141.53	77.41	-38.2	-42.3	3.9	7212738	93	1981
2026-01-23 10:23:29.90	141.24	77.60	-38.1	-42.1	3.9	11402671	93	1945
2026-01-23 10:23:30.30	140.94	77.79	-38.3	-44.0	3.9	12506713	93	2370
2026-01-23 10:23:30.70	140.63	77.98	-38.3	-42.9	3.9	14339889	93	2090
2026-01-23 10:23:31.11	140.31	78.17	-38.2	-42.3	3.9	13852684	93	1985
2026-01-23 10:23:31.51	139.98	78.36	-37.8	-41.0	4.5	12342193	93	1763
2026-01-23 10:23:31.91	139.64	78.55	-37.6	-40.3	4.8	8042457	93	1678
2026-01-23 10:23:32.31	139.29	78.74	-37.7	-40.5	5.0	5668418	93	1711
2026-01-23 10:23:32.71	138.92	78.92	-37.6	-40.3	5.2	5208015	93	1680
2026-01-23 10:23:33.12	138.53	79.12	-37.6	-40.3	5.2	5226486	93	1686
2026-01-23 10:23:33.52	138.14	79.30	-37.5	-40.0	5.4	5464424	93	1650
2026-01-23 10:23:33.92	137.74	79.49	-37.5	-40.2	5.4	4431800	93	1685
2026-01-23 10:23:34.32	137.32	79.68	-37.4	-39.8	5.6	4431800	93	1623
2026-01-23 10:23:34.73	136.87	79.87	-37.1	-39.6	6.2	4017677	92	1637
2026-01-23 10:23:35.13	136.41	80.05	-37.1	-39.4	6.3	2939888	92	1606
2026-01-23 10:23:35.53	135.94	80.24	-36.8	-39.1	6.9	2427154	91	1597
2026-01-23 10:23:35.93	135.45	80.42	-37.0	-39.8	6.5	1881637	91	1693
2026-01-23 10:23:36.33	134.95	80.61	-37.0	-39.8	6.5	2064689	91	1690
2026-01-23 10:23:36.74	134.40	80.79	-37.0	-39.8	6.3	2046409	91	1691
2026-01-23 10:23:37.14	133.85	80.98	-37.2	-40.3	6.2	2320045	91	1751
2026-01-23 10:23:37.54	133.27	81.16	-37.1	-40.0	6.3	2872978	91	1709
2026-01-23 10:23:37.94	132.67	81.34	-37.1	-39.9	6.3	2557342	91	1706
2026-01-23 10:23:38.34	132.05	81.52	-36.8	-39.1	6.8	2234939	91	1597
2026-01-23 10:23:38.75	131.38	81.71	-36.6	-38.5	7.2	1452690	91	1529
2026-01-23 10:23:39.15	130.70	81.88	-35.8	-37.5	8.4	986602	89	1496
2026-01-23 10:23:39.55	129.98	82.06	-35.6	-37.2	8.6	986602	89	1473
2026-01-23 10:23:39.95	129.23	82.24	-34.9	-35.8	9.8	397590	88	1378
2026-01-23 10:23:40.35	128.45	82.41	-34.8	-36.2	10.0	198150	87	1450
2026-01-23 10:23:40.76	127.61	82.59	-34.8	-36.3	9.9	92956	87	1458
2026-01-23 10:23:41.16	126.75	82.76	-34.7	-36.2	10.3	71380	87	1458
2026-01-23 10:23:41.56	125.85	82.93	-34.9	-36.7	9.6	82389	87	1505
2026-01-23 10:23:41.96	124.90	83.10	-35.0	-36.8	9.5	109985	87	1514
2026-01-23 10:23:42.37	123.88	83.27	-34.8	-36.3	9.9	127410	87	1463
2026-01-23 10:23:42.77	122.83	83.44	-34.6	-35.9	10.2	91209	87	1420
2026-01-23 10:23:43.17	121.73	83.60	-34.3	-35.2	10.5	50376	87	1364
2026-01-23 10:23:43.57	120.58	83.76	-34.0	-35.1	10.8	27870	86	1388
2026-01-23 10:23:43.97	119.36	83.92	-34.1	-35.2	10.6	26466	86	1401
2026-01-23 10:23:44.37	118.07	84.07	-34.1	-35.3	10.5	26466	86	1412
2026-01-23 10:23:44.78	116.68	84.23	-34.4	-35.9	10.1	56434	86	1468
2026-01-23 10:23:45.18	115.26	84.38	-34.2	-35.5	10.2	56434	86	1424
2026-01-23 10:23:45.58	113.75	84.52	-34.4	-35.8	10.0	67222	86	1458
2026-01-23 10:23:45.98	112.17	84.66	-33.9	-34.7	10.7	57281	86	1356
2026-01-23 10:23:46.38	110.50	84.80	-33.8	-35.0	11.0	29838	85	1409
2026-01-23 10:23:46.79	108.69	84.93	-33.4	-34.7	11.4	15113	84	1424
2026-01-23 10:23:47.19	106.84	85.06	-33.5	-35.0	11.3	7225	84	1448
2026-01-23 10:23:47.59	104.89	85.18	-33.9	-35.8	10.9	11398	84	1526
2026-01-23 10:23:47.99	102.84	85.30	-34.6	-36.4	9.8	36521	86	1508
2026-01-23 10:23:48.40	100.63	85.41	-35.5	-37.8	8.9	134040	87	1605
2026-01-23 10:23:48.80	98.38	85.51	-35.5	-37.4	8.6	330863	88	1531
2026-01-23 10:23:49.20	96.02	85.61	-35.8	-38.1	8.1	417869	88	1599
2026-01-23 10:23:49.60	93.56	85.70	-35.7	-37.8	8.2	417869	88	1560
2026-01-23 10:23:50.00	91.01	85.78	-35.7	-37.7	8.4	507614	88	1549
2026-01-23 10:23:50.41	88.29	85.85	-35.7	-37.7	8.3	542800	88	1555
2026-01-23 10:23:50.81	85.55	85.91	-35.8	-37.9	8.2	563278	88	1572
2026-01-23 10:23:51.21	82.74	85.96	-35.8	-37.9	8.3	558540	88	1578
2026-01-23 10:23:51.61	79.86	86.00	-35.5	-37.3	8.9	501380	88	1512
2026-01-23 10:23:52.01	76.93	86.03	-35.5	-37.3	9.0	336280	88	1522
2026-01-23 10:23:52.42	73.88	86.06	-35.3	-36.8	9.2	266059	88	1470
2026-01-23 10:23:52.82	70.89	86.07	-35.7	-37.9	8.5	274658	88	1584
2026-01-23 10:23:53.22	67.89	86.07	-35.6	-37.6	8.7	411102	88	1548
2026-01-23 10:23:53.62	64.89	86.05	-36.0	-38.1	8.1	553688	89	1569
2026-01-23 10:23:54.02	61.93	86.03	-35.9	-37.8	8.4	615097	89	1541
2026-01-23 10:23:54.43	58.93	86.00	-35.7	-37.3	8.9	615097	89	1483
2026-01-23 10:23:54.83	56.06	85.95	-35.3	-36.5	9.3	185882	89	1402
2026-01-23 10:23:55.23	53.25	85.90	-35.5	-36.8	9.1	185882	89	1435
2026-01-23 10:23:55.63	50.53	85.84	-36.0	-38.3	8.2	207221	89	1604
2026-01-23 10:23:56.03	47.89	85.77	-36.8	-39.9	6.7	413436	90	1755
2026-01-23 10:23:56.44	45.28	85.68	-37.6	-40.9	5.5	1614532	92	1814
2026-01-23 10:23:56.84	42.84	85.60	-37.6	-41.0	5.3	4012977	92	1810
2026-01-23 10:23:57.24	40.50	85.50	-37.2	-39.6	6.1	4742713	92	1622
2026-01-23 10:23:57.64	38.26	85.40	-36.4	-37.9	7.6	2620681	91	1457
2026-01-23 10:23:58.04	36.12	85.29	-35.7	-37.3	8.5	866447	89	1470
2026-01-23 10:23:58.45	34.03	85.17	-35.1	-36.5	9.6	310516	88	1436
2026-01-23 10:23:58.85	32.09	85.04	-35.4	-37.3	9.2	146560	88	1527
2026-01-23 10:23:59.25	30.25	84.92	-35.5	-37.4	9.1	188041	88	1543
2026-01-23 10:23:59.65	28.50	84.78	-35.1	-36.5	9.6	188041	88	1444
2026-01-23 10:24:00.05	26.84	84.65	-34.6	-35.8	10.6	164360	87	1409
2026-01-23 10:24:00.46	25.23	84.50	-33.3	-33.8	12.1	48774	85	1301
2026-01-23 10:24:00.86	23.74	84.36	-32.7	-33.5	13.0	9880	83	1354
2026-01-23 10:24:01.26	22.32	84.21	-32.6	-33.4	13.1	534	83	1349
2026-01-23 10:24:01.66	20.98	84.06	-32.8	-33.9	12.7	373	83	1394
2026-01-23 10:24:02.06	19.70	83.90	-33.4	-35.2	11.9	801	83	1517
2026-01-23 10:24:02.47	18.46	83.74	-33.8	-35.6	11.2	3181	84	1521
2026-01-23 10:24:02.87	17.31	83.58	-34.2	-36.0	10.9	18363	85	1513
2026-01-23 10:24:03.27	16.22	83.42	-34.4	-36.4	10.7	20553	85	1561
2026-01-23 10:24:03.67	15.18	83.25	-34.1	-35.9	11.1	25489	85	1505
2026-01-23 10:24:04.07	14.19	83.08	-34.4	-36.6	10.7	20057	85	1576
2026-01-23 10:24:04.48	13.22	82.91	-35.0	-37.4	9.7	64750	86	1636
2026-01-23 10:24:04.88	12.33	82.74	-35.7	-38.1	8.7	192520	88	1626
2026-01-23 10:24:05.28	11.47	82.57	-35.7	-38.0	8.5	192520	88	1607
2026-01-23 10:24:05.68	10.66	82.39	-35.9	-37.8	8.4	399505	89	1543
2026-01-23 10:24:06.08	9.88	82.22	-35.5	-37.0	9.1	454948	89	1461
2026-01-23 10:24:06.49	9.12	82.04	-35.3	-36.9	9.5	234397	88	1494
2026-01-23 10:24:06.89	8.41	81.86	-35.2	-36.9	9.5	148048	88	1488
2026-01-23 10:24:07.29	7.73	81.68	-35.0	-36.5	9.8	146751	88	1452
2026-01-23 10:24:07.69	7.08	81.50	-35.1	-36.5	9.5	94261	88	1453
2026-01-23 10:24:08.10	6.44	81.32	-34.9	-36.1	9.9	124649	88	1409
2026-01-23 10:24:08.50	5.84	81.14	-35.1	-36.4	9.4	137939	88	1442
2026-01-23 10:24:08.90	5.27	80.96	-35.1	-36.5	9.5	143730	88	1455
2026-01-23 10:24:09.30	4.72	80.77	-35.3	-37.1	9.0	203529	88	1507
2026-01-23 10:24:09.70	4.20	80.59	-35.9	-38.6	8.0	203529	88	1686
2026-01-23 10:24:10.11	3.68	80.40	-36.4	-39.4	7.2	392463	89	1742
2026-01-23 10:24:10.51	3.19	80.22	-36.7	-39.8	6.4	1019004	90	1756
2026-01-23 10:24:10.91	2.72	80.03	-36.7	-39.6	6.6	1873054	90	1717
2026-01-23 10:24:11.31	2.27	79.85	-36.4	-38.8	7.0	2041389	90	1625
2026-01-23 10:24:11.71	1.84	79.66	-36.4	-38.6	7.0	1631614	90	1594
2026-01-23 10:24:12.12	1.41	79.47	-36.3	-38.5	7.1	1570564	90	1579
2026-01-23 10:24:12.52	1.00	79.28	-35.9	-37.3	7.7	1383705	90	1448
2026-01-23 10:24:12.92	0.61	79.10	-35.5	-36.9	8.2	875122	89	1439
2026-01-23 10:24:13.32	0.24	78.91	-35.2	-36.6	8.7	429206	88	1450
2026-01-23 10:24:13.72	359.87	78.72	-34.8	-35.7	9.3	315704	88	1363
2026-01-23 10:24:14.13	359.52	78.53	-34.4	-35.2	10.0	133781	87	1355
2026-01-23 10:24:14.53	359.18	78.34	-33.8	-34.5	10.5	72975	86	1334
2026-01-23 10:24:14.93	358.85	78.15	-33.8	-35.1	10.6	36254	85	1417
2026-01-23 10:24:15.33	358.53	77.97	-33.7	-34.9	10.8	36254	85	1402
2026-01-23 10:24:15.73	358.22	77.78	-34.1	-35.8	10.3	36148	85	1487
2026-01-23 10:24:16.14	357.92	77.58	-34.2	-36.0	10.2	39245	85	1509
2026-01-23 10:24:16.54	357.63	77.40	-34.4	-36.5	9.9	50659	85	1569
2026-01-23 10:24:16.94	357.35	77.21	-34.5	-36.2	9.7	80062	86	1495
2026-01-23 10:24:17.34	357.08	77.02	-34.6	-36.5	9.5	108802	86	1529
2026-01-23 10:24:17.74	356.82	76.83	-34.7	-36.6	9.4	162712	86	1542
2026-01-23 10:24:18.15	356.55	76.64	-34.8	-37.1	9.2	153366	86	1597
2026-01-23 10:24:18.55	356.31	76.45	-35.5	-38.1	8.6	196456	87	1660
2026-01-23 10:24:18.95	356.07	76.26	-35.9	-38.9	7.9	421569	88	1721
2026-01-23 10:24:19.35	355.83	76.07	-35.7	-38.2	8.4	561584	88	1645
2026-01-23 10:24:19.75	355.60	75.88	-35.6	-37.9	8.6	561584	88	1607
2026-01-23 10:24:20.16	355.38	75.69	-35.3	-37.1	9.1	428100	88	1521
2026-01-23 10:24:20.56	355.16	75.50	-34.9	-36.1	9.9	272399	88	1415
2026-01-23 10:24:20.96	354.95	75.31	-34.8	-36.5	10.0	118247	87	1489
2026-01-23 10:24:21.36	354.75	75.12	-34.9	-36.7	9.8	81985	87	1512
2026-01-23 10:24:21.77	354.55	74.93	-35.2	-37.5	9.2	93017	87	1593
2026-01-23 10:24:22.17	354.35	74.74	-35.6	-37.9	8.4	183593	88	1605
2026-01-23 10:24:22.57	354.16	74.55	-36.1	-38.7	7.5	435188	89	1652
2026-01-23 10:24:22.97	353.98	74.37	-36.2	-38.8	7.2	960670	89	1671
2026-01-23 10:24:23.37	353.80	74.18	-35.9	-38.0	7.7	1096298	89	1563
2026-01-23 10:24:23.78	353.62	73.99	-35.5	-36.9	8.1	682952	89	1445
2026-01-23 10:24:24.18	353.45	73.80	-34.9	-35.9	9.1	353096	88	1382
2026-01-23 10:24:24.58	353.29	73.61	-34.8	-35.7	9.1	226341	88	1362
2026-01-23 10:24:24.98	353.12	73.42	-34.8	-36.3	9.2	188873	87	1463
2026-01-23 10:24:25.38	352.96	73.24	-35.0	-36.7	8.9	188873	87	1503
2026-01-23 10:24:25.79	352.81	73.05	-35.1	-36.9	8.7	256195	87	1520
2026-01-23 10:24:26.19	352.66	72.86	-35.5	-38.0	8.1	349128	87	1635
2026-01-23 10:24:26.59	352.51	72.67	-36.0	-38.6	7.2	518302	88	1673
2026-01-23 10:24:26.99	352.36	72.49	-36.3	-38.9	6.8	1099464	89	1662
2026-01-23 10:24:27.39	352.22	72.30	-36.6	-39.6	6.0	1795227	90	1725
2026-01-23 10:24:27.80	352.08	72.11	-36.8	-39.9	5.8	2781944	90	1763
2026-01-23 10:24:28.20	351.95	71.92	-36.9	-40.3	5.5	3585571	90	1825
2026-01-23 10:24:28.60	351.81	71.74	-36.9	-40.4	5.5	4224357	90	1834
2026-01-23 10:24:29.00	351.69	71.55	-37.4	-41.0	5.1	4607009	91	1874
2026-01-23 10:24:29.40	351.56	71.37	-37.5	-40.8	4.9	5950881	92	1810
2026-01-23 10:24:29.81	351.43	71.18	-37.8	-42.0	4.2	5950881	92	2005
2026-01-23 10:24:30.21	351.31	70.99	-37.8	-42.4	4.2	7737373	92	2090
2026-01-23 10:24:30.61	351.19	70.81	-37.8	-42.3	4.2	9811233	92	2059
2026-01-23 10:24:31.01	351.08	70.63	-38.6	-46.6	3.6	10595420	94	3102
2026-01-23 10:24:31.41	350.96	70.44	-38.7	-46.5	3.4	13542900	94	3029
2026-01-23 10:24:31.82	350.85	70.26	-38.8	-47.6	3.6	15206382	94	3396

#Closed at: 2026-01-23 10:24:32