passes_logs/2025/01/24/LEX_test/LEX_test__20250124_184624_NOAA_19_rec.log

#Pass ID: 20250124_184624_NOAA 19
#Satellite: NOAA 19
#Configuration: NOAA 19
#Start time: 2025-01-24 18:46:29.384722

#LorettStation: 1.0.0 05.05.2024
#Station: LEX_test
#Location: 44.064575 lon 56.356522 lat
#TLE: 1 33591U 09005A   25024.42016610  .00000458  00000+0  26845-3 0  9992
#TLE: 2 33591  99.0181  88.2546 0014124  31.9823 328.2203 14.13268053822872

#Time	Az	El	Level	SNR
2025-01-24 18:46:30.538055	205.7	15.1	-74.6	4.7
2025-01-24 18:46:31.682478	205.8	15.2	-74.1	4.8
2025-01-24 18:46:32.816503	206.0	15.3	-74.6	3.4
2025-01-24 18:46:33.961669	206.1	15.4	-74.3	4.3
2025-01-24 18:46:35.107612	206.2	15.5	-74.0	1.5
2025-01-24 18:46:36.249531	206.4	15.6	-74.6	4.2
2025-01-24 18:46:37.395195	206.5	15.7	-75.0	4.5
2025-01-24 18:46:38.536649	206.6	15.8	-75.0	4.3
2025-01-24 18:46:39.682561	206.8	15.9	-74.4	5.3
2025-01-24 18:46:40.828415	206.9	16.0	-73.8	4.9
2025-01-24 18:46:41.977356	207.1	16.1	-74.7	6.0
2025-01-24 18:46:43.123542	207.2	16.2	-75.2	3.6
2025-01-24 18:46:44.270607	207.4	16.4	-74.4	4.9
2025-01-24 18:46:45.416520	207.5	16.5	-74.5	5.0
2025-01-24 18:46:46.563605	207.6	16.6	-74.3	5.6
2025-01-24 18:46:47.708602	207.8	16.7	-74.3	3.3
2025-01-24 18:46:48.852778	207.9	16.8	-74.6	5.2
2025-01-24 18:46:49.997589	208.1	16.9	-74.7	3.3
2025-01-24 18:46:51.140420	208.2	17.0	-74.2	5.2
2025-01-24 18:46:52.282627	208.4	17.1	-75.3	3.9
2025-01-24 18:46:53.419974	208.5	17.2	-73.9	4.2
2025-01-24 18:46:54.561973	208.7	17.3	-74.6	4.5
2025-01-24 18:46:55.708573	208.9	17.4	-73.9	5.2
2025-01-24 18:46:56.854058	209.0	17.5	-74.4	3.3
2025-01-24 18:46:58.001082	209.2	17.6	-75.4	4.5
2025-01-24 18:46:59.144568	209.3	17.7	-74.2	4.1
2025-01-24 18:47:00.287110	209.5	17.9	-75.0	3.6
2025-01-24 18:47:01.433787	209.6	18.0	-73.9	5.0
2025-01-24 18:47:02.580703	209.8	18.1	-74.2	4.1
2025-01-24 18:47:03.728294	210.0	18.2	-74.7	6.6
2025-01-24 18:47:04.874651	210.1	18.3	-74.8	6.3
2025-01-24 18:47:06.009590	210.3	18.4	-75.0	6.6
2025-01-24 18:47:07.155762	210.5	18.5	-74.1	4.8
2025-01-24 18:47:08.302620	210.6	18.6	-74.1	3.4
2025-01-24 18:47:09.446483	210.8	18.7	-74.7	4.1
2025-01-24 18:47:10.592974	211.0	18.9	-75.0	4.9
2025-01-24 18:47:11.739853	211.1	19.0	-74.0	4.6
2025-01-24 18:47:12.886767	211.3	19.1	-74.7	6.6
2025-01-24 18:47:14.031841	211.5	19.2	-75.3	6.6
2025-01-24 18:47:15.176721	211.7	19.3	-74.0	8.2
2025-01-24 18:47:16.318120	211.8	19.4	-73.8	8.1
2025-01-24 18:47:17.465110	212.0	19.5	-74.1	6.3
2025-01-24 18:47:18.612368	212.2	19.6	-74.4	5.6
2025-01-24 18:47:19.755359	212.4	19.8	-74.5	4.4
2025-01-24 18:47:20.899776	212.6	19.9	-74.2	5.5
2025-01-24 18:47:22.044278	212.7	20.0	-74.7	6.4
2025-01-24 18:47:23.189992	212.9	20.1	-75.0	5.7
2025-01-24 18:47:24.335661	213.1	20.2	-73.9	7.1
2025-01-24 18:47:25.482169	213.3	20.3	-74.3	7.5
2025-01-24 18:47:26.625243	213.5	20.5	-74.2	6.7
2025-01-24 18:47:27.764397	213.7	20.6	-74.8	7.9
2025-01-24 18:47:28.910311	213.9	20.7	-75.0	8.1
2025-01-24 18:47:30.052219	214.0	20.8	-74.8	7.4
2025-01-24 18:47:31.195204	214.2	20.9	-74.2	5.3
2025-01-24 18:47:32.334205	214.4	21.0	-74.1	6.0
2025-01-24 18:47:33.475398	214.6	21.1	-74.1	6.4
2025-01-24 18:47:34.622342	214.8	21.3	-74.2	4.5
2025-01-24 18:47:35.767336	215.0	21.4	-74.9	5.5
2025-01-24 18:47:36.913023	215.2	21.5	-74.5	6.9
2025-01-24 18:47:38.059764	215.4	21.6	-74.0	6.5
2025-01-24 18:47:39.207215	215.6	21.7	-75.5	7.4
2025-01-24 18:47:40.353660	215.8	21.9	-75.2	8.8
2025-01-24 18:47:41.500632	216.0	22.0	-74.3	7.3
2025-01-24 18:47:42.647933	216.3	22.1	-74.5	8.8
2025-01-24 18:47:43.794885	216.5	22.2	-75.3	7.5
2025-01-24 18:47:44.941963	216.7	22.3	-74.1	6.8
2025-01-24 18:47:46.088735	216.9	22.4	-74.7	5.1
2025-01-24 18:47:47.235263	217.1	22.6	-75.0	4.5
2025-01-24 18:47:48.382204	217.3	22.7	-74.4	5.8
2025-01-24 18:47:49.529800	217.5	22.8	-74.4	6.0
2025-01-24 18:47:50.683074	217.8	22.9	-74.5	5.7
2025-01-24 18:47:51.827808	218.0	23.0	-73.5	5.6
2025-01-24 18:47:52.973608	218.2	23.2	-74.8	7.2
2025-01-24 18:47:54.123790	218.4	23.3	-74.3	6.1
2025-01-24 18:47:55.270704	218.6	23.4	-74.8	9.0
2025-01-24 18:47:56.416587	218.9	23.5	-74.2	8.1
2025-01-24 18:47:57.560034	219.1	23.6	-75.0	9.1
2025-01-24 18:47:58.704968	219.3	23.8	-74.1	7.4
2025-01-24 18:47:59.850731	219.6	23.9	-74.2	7.7
2025-01-24 18:48:00.996622	219.8	24.0	-75.0	6.3
2025-01-24 18:48:02.146022	220.0	24.1	-74.7	6.7
2025-01-24 18:48:03.291575	220.3	24.2	-74.1	5.6
2025-01-24 18:48:04.438436	220.5	24.4	-74.9	6.1
2025-01-24 18:48:05.585508	220.8	24.5	-73.6	5.9
2025-01-24 18:48:06.732373	221.0	24.6	-74.4	6.0
2025-01-24 18:48:07.875484	221.2	24.7	-74.8	9.5
2025-01-24 18:48:09.018827	221.5	24.8	-74.2	8.2
2025-01-24 18:48:10.164848	221.7	25.0	-74.4	9.4
2025-01-24 18:48:11.308259	222.0	25.1	-74.1	7.1
2025-01-24 18:48:12.451871	222.2	25.2	-73.9	7.2
2025-01-24 18:48:13.598848	222.5	25.3	-74.5	6.0
2025-01-24 18:48:14.743943	222.7	25.4	-74.8	5.9
2025-01-24 18:48:15.888939	223.0	25.6	-74.3	5.0
2025-01-24 18:48:17.037563	223.3	25.7	-74.9	7.1
2025-01-24 18:48:18.183482	223.5	25.8	-75.0	4.2
2025-01-24 18:48:19.329921	223.8	25.9	-74.2	5.3
2025-01-24 18:48:20.483048	224.1	26.0	-74.2	5.2
2025-01-24 18:48:21.628000	224.3	26.2	-74.5	4.9
2025-01-24 18:48:22.774405	224.6	26.3	-74.7	7.2
2025-01-24 18:48:23.923183	224.9	26.4	-74.4	8.7
2025-01-24 18:48:25.071930	225.1	26.5	-74.8	8.4
2025-01-24 18:48:26.217699	225.4	26.6	-74.3	6.6
2025-01-24 18:48:27.359245	225.7	26.8	-74.5	9.2
2025-01-24 18:48:28.506118	226.0	26.9	-75.6	8.0
2025-01-24 18:48:29.650873	226.3	27.0	-73.7	5.8
2025-01-24 18:48:30.795441	226.5	27.1	-74.7	6.5
2025-01-24 18:48:31.941326	226.8	27.2	-75.4	6.1
2025-01-24 18:48:33.083988	227.1	27.3	-74.9	4.7
2025-01-24 18:48:34.232064	227.4	27.5	-74.9	3.1
2025-01-24 18:48:35.385192	227.7	27.6	-75.6	4.4
2025-01-24 18:48:36.522690	228.0	27.7	-74.8	5.6
2025-01-24 18:48:37.668657	228.3	27.8	-75.2	6.1
2025-01-24 18:48:38.815957	228.6	27.9	-73.9	7.4
2025-01-24 18:48:39.962272	228.9	28.0	-74.7	8.7
2025-01-24 18:48:41.107199	229.2	28.2	-75.6	8.4
2025-01-24 18:48:42.247263	229.5	28.3	-74.3	7.1
2025-01-24 18:48:43.393491	229.8	28.4	-74.5	8.4
2025-01-24 18:48:44.540404	230.1	28.5	-75.4	8.3
2025-01-24 18:48:45.681502	230.4	28.6	-74.7	7.3
2025-01-24 18:48:46.825459	230.7	28.7	-75.0	6.5
2025-01-24 18:48:47.972498	231.0	28.8	-74.4	6.1
2025-01-24 18:48:49.118410	231.4	29.0	-74.3	4.2
2025-01-24 18:48:50.260693	231.7	29.1	-74.9	2.8
2025-01-24 18:48:51.406928	232.0	29.2	-74.3	4.7
2025-01-24 18:48:52.553701	232.3	29.3	-74.3	4.2
2025-01-24 18:48:53.696097	232.7	29.4	-73.4	3.8
2025-01-24 18:48:54.841395	233.0	29.5	-74.8	3.8
2025-01-24 18:48:55.981185	233.3	29.6	-75.3	5.8
2025-01-24 18:48:57.127067	233.6	29.7	-74.2	4.7
2025-01-24 18:48:58.269516	234.0	29.8	-73.9	7.8
2025-01-24 18:48:59.414875	234.3	29.9	-73.7	4.6
2025-01-24 18:49:00.555423	234.7	30.1	-74.7	5.2
2025-01-24 18:49:01.702141	235.0	30.2	-75.5	5.0
2025-01-24 18:49:02.850001	235.3	30.3	-74.8	5.8
2025-01-24 18:49:03.995382	235.7	30.4	-74.3	7.2
2025-01-24 18:49:05.141959	236.0	30.5	-75.1	5.3
2025-01-24 18:49:06.289723	236.4	30.6	-74.3	3.7
2025-01-24 18:49:07.435258	236.7	30.7	-74.4	3.6
2025-01-24 18:49:08.581060	237.1	30.8	-75.3	4.0
2025-01-24 18:49:09.721798	237.4	30.9	-74.4	4.6
2025-01-24 18:49:10.867709	237.8	31.0	-75.9	2.4
2025-01-24 18:49:12.014475	238.2	31.1	-74.4	4.9
2025-01-24 18:49:13.160714	238.5	31.2	-74.3	4.3
2025-01-24 18:49:14.304977	238.9	31.3	-75.3	5.4
2025-01-24 18:49:15.452055	239.3	31.4	-74.4	6.0
2025-01-24 18:49:16.598893	239.6	31.5	-74.4	4.6
2025-01-24 18:49:17.755782	240.0	31.6	-73.9	4.2
2025-01-24 18:49:18.901666	240.4	31.7	-75.1	3.7
2025-01-24 18:49:20.045398	240.8	31.7	-74.9	3.7
2025-01-24 18:49:21.192245	241.1	31.8	-74.3	4.5
2025-01-24 18:49:22.344420	241.5	31.9	-74.7	4.3
2025-01-24 18:49:23.487442	241.9	32.0	-75.3	6.5
2025-01-24 18:49:24.634355	242.3	32.1	-74.7	3.8
2025-01-24 18:49:25.774926	242.7	32.2	-74.6	4.3
2025-01-24 18:49:26.921398	243.1	32.3	-74.6	4.5
2025-01-24 18:49:28.066503	243.4	32.4	-74.5	4.9
2025-01-24 18:49:29.206764	243.8	32.4	-75.1	3.5
2025-01-24 18:49:30.347519	244.2	32.5	-74.9	5.2
2025-01-24 18:49:31.493485	244.6	32.6	-75.1	6.0
2025-01-24 18:49:32.637862	245.0	32.7	-74.6	5.7
2025-01-24 18:49:33.784936	245.4	32.8	-75.0	5.8
2025-01-24 18:49:34.931712	245.8	32.8	-75.4	4.9
2025-01-24 18:49:36.075122	246.2	32.9	-74.3	5.9
2025-01-24 18:49:37.221038	246.6	33.0	-74.5	5.5
2025-01-24 18:49:38.367132	247.0	33.1	-75.5	3.1
2025-01-24 18:49:39.513006	247.4	33.1	-74.5	5.8
2025-01-24 18:49:40.657724	247.9	33.2	-74.9	5.7
2025-01-24 18:49:41.801490	248.3	33.3	-74.1	3.6
2025-01-24 18:49:42.947756	248.7	33.3	-74.6	4.9
2025-01-24 18:49:44.093721	249.1	33.4	-74.8	4.5
2025-01-24 18:49:45.226820	249.5	33.5	-75.0	3.4
2025-01-24 18:49:46.372892	249.9	33.5	-75.4	3.6
2025-01-24 18:49:47.511967	250.3	33.6	-73.9	5.1
2025-01-24 18:49:48.656843	250.8	33.6	-74.6	4.1
2025-01-24 18:49:49.803713	251.2	33.7	-75.2	4.2
2025-01-24 18:49:50.950626	251.6	33.7	-74.1	5.3
2025-01-24 18:49:52.097697	252.0	33.8	-74.5	4.5
2025-01-24 18:49:53.244775	252.5	33.9	-75.6	4.3
2025-01-24 18:49:54.381821	252.9	33.9	-75.1	6.1
2025-01-24 18:49:55.527641	253.3	34.0	-75.0	6.6
2025-01-24 18:49:56.678583	253.8	34.0	-74.3	5.8
2025-01-24 18:49:57.825030	254.2	34.0	-74.4	3.9
2025-01-24 18:49:58.966699	254.6	34.1	-74.8	8.3
2025-01-24 18:50:00.115704	255.1	34.1	-74.7	7.5
2025-01-24 18:50:01.263296	255.5	34.2	-74.5	6.9
2025-01-24 18:50:02.407198	255.9	34.2	-75.4	7.7
2025-01-24 18:50:03.553107	256.4	34.2	-74.0	8.0
2025-01-24 18:50:04.689838	256.8	34.3	-75.1	6.4
2025-01-24 18:50:05.834728	257.2	34.3	-74.8	6.7
2025-01-24 18:50:06.977169	257.7	34.3	-74.5	8.2
2025-01-24 18:50:08.123843	258.1	34.4	-75.1	7.9
2025-01-24 18:50:09.269189	258.6	34.4	-74.3	7.3
2025-01-24 18:50:10.410424	259.0	34.4	-74.4	8.7
2025-01-24 18:50:11.555672	259.4	34.5	-74.6	7.0
2025-01-24 18:50:12.701585	259.9	34.5	-75.2	7.5
2025-01-24 18:50:13.849322	260.3	34.5	-74.5	6.3
2025-01-24 18:50:14.996871	260.8	34.5	-74.6	7.6
2025-01-24 18:50:16.143979	261.2	34.5	-74.8	4.9
2025-01-24 18:50:17.290892	261.7	34.5	-75.4	4.7
2025-01-24 18:50:18.437493	262.1	34.6	-74.3	4.2
2025-01-24 18:50:19.584227	262.6	34.6	-74.9	6.8
2025-01-24 18:50:20.731286	263.0	34.6	-75.6	8.1
2025-01-24 18:50:21.876654	263.5	34.6	-74.4	7.1
2025-01-24 18:50:23.025273	263.9	34.6	-74.3	6.1
2025-01-24 18:50:24.171939	264.4	34.6	-74.9	6.1
2025-01-24 18:50:25.318181	264.8	34.6	-74.1	6.8
2025-01-24 18:50:26.464437	265.2	34.6	-74.6	5.9
2025-01-24 18:50:27.609995	265.7	34.6	-75.5	7.8
2025-01-24 18:50:28.754243	266.1	34.6	-74.3	5.2
2025-01-24 18:50:29.896697	266.6	34.6	-74.8	6.0
2025-01-24 18:50:31.037805	267.0	34.6	-74.5	6.8
2025-01-24 18:50:32.182905	267.5	34.6	-74.7	7.8
2025-01-24 18:50:33.338564	267.9	34.5	-74.4	5.7
2025-01-24 18:50:34.476720	268.4	34.5	-74.1	6.5
2025-01-24 18:50:35.623210	268.8	34.5	-74.4	6.1
2025-01-24 18:50:36.768730	269.3	34.5	-75.5	5.4
2025-01-24 18:50:37.914677	269.7	34.5	-74.7	5.6
2025-01-24 18:50:39.060738	270.1	34.5	-74.6	4.3
2025-01-24 18:50:40.205939	270.6	34.4	-75.1	4.9
2025-01-24 18:50:41.350835	271.0	34.4	-74.4	7.0
2025-01-24 18:50:42.497938	271.5	34.4	-74.8	5.4
2025-01-24 18:50:43.644084	271.9	34.4	-75.4	6.3
2025-01-24 18:50:44.785369	272.3	34.3	-74.5	6.6
2025-01-24 18:50:45.924778	272.8	34.3	-75.1	5.7
2025-01-24 18:50:47.067638	273.2	34.3	-74.0	5.7
2025-01-24 18:50:48.205300	273.7	34.2	-75.3	4.6
2025-01-24 18:50:49.351578	274.1	34.2	-74.6	5.7
2025-01-24 18:50:50.493984	274.5	34.1	-74.1	4.9
2025-01-24 18:50:51.636402	275.0	34.1	-74.0	5.8
2025-01-24 18:50:52.778976	275.4	34.1	-74.5	7.0
2025-01-24 18:50:53.924840	275.8	34.0	-75.0	5.7
2025-01-24 18:50:55.072062	276.2	34.0	-74.1	7.4
2025-01-24 18:50:56.216631	276.7	33.9	-74.4	5.6
2025-01-24 18:50:57.364486	277.1	33.9	-75.7	5.9
2025-01-24 18:50:58.510416	277.5	33.8	-73.6	6.5
2025-01-24 18:50:59.656543	278.0	33.8	-74.4	4.6
2025-01-24 18:51:00.798920	278.4	33.7	-75.4	2.7
2025-01-24 18:51:01.945813	278.8	33.6	-74.0	4.4
2025-01-24 18:51:03.090693	279.2	33.6	-74.1	4.7
2025-01-24 18:51:04.226796	279.6	33.5	-73.7	4.5
2025-01-24 18:51:05.370319	280.1	33.5	-74.1	4.8
2025-01-24 18:51:06.514927	280.5	33.4	-75.4	6.8
2025-01-24 18:51:07.658735	280.9	33.3	-74.2	3.9
2025-01-24 18:51:08.805681	281.3	33.3	-75.0	5.5
2025-01-24 18:51:09.947441	281.7	33.2	-73.2	3.9
2025-01-24 18:51:11.093133	282.1	33.1	-74.5	6.2
2025-01-24 18:51:12.240255	282.5	33.1	-75.0	6.2
2025-01-24 18:51:13.382613	282.9	33.0	-73.9	5.1
2025-01-24 18:51:14.528487	283.3	32.9	-75.0	7.5
2025-01-24 18:51:15.679375	283.7	32.9	-75.1	5.1
2025-01-24 18:51:16.817917	284.1	32.8	-74.6	5.9
2025-01-24 18:51:17.965997	284.5	32.7	-75.3	5.3
2025-01-24 18:51:19.108491	284.9	32.6	-74.1	4.8
2025-01-24 18:51:20.253633	285.3	32.5	-74.6	4.4
2025-01-24 18:51:21.399629	285.7	32.5	-75.0	6.2
2025-01-24 18:51:22.544902	286.1	32.4	-74.0	6.4
2025-01-24 18:51:23.690829	286.5	32.3	-74.4	4.2
2025-01-24 18:51:24.837726	286.9	32.2	-75.5	4.4
2025-01-24 18:51:25.970745	287.3	32.1	-75.0	5.8
2025-01-24 18:51:27.109868	287.6	32.0	-74.4	1.7
2025-01-24 18:51:28.256819	288.0	32.0	-74.5	3.9
2025-01-24 18:51:29.403589	288.4	31.9	-75.3	5.2
2025-01-24 18:51:30.550753	288.8	31.8	-74.4	3.3
2025-01-24 18:51:31.698050	289.2	31.7	-74.6	5.8
2025-01-24 18:51:32.843529	289.5	31.6	-74.9	5.3
2025-01-24 18:51:33.990453	289.9	31.5	-73.7	5.6
2025-01-24 18:51:35.137490	290.3	31.4	-74.6	2.6
2025-01-24 18:51:36.282419	290.6	31.3	-75.3	3.2
2025-01-24 18:51:37.426869	291.0	31.2	-74.1	5.2
2025-01-24 18:51:38.563850	291.4	31.1	-74.4	5.0
2025-01-24 18:51:39.708304	291.7	31.0	-74.4	3.5
2025-01-24 18:51:40.854734	292.1	30.9	-74.5	3.9
2025-01-24 18:51:42.005158	292.4	30.8	-75.7	4.9
2025-01-24 18:51:43.147218	292.8	30.7	-74.1	4.1
2025-01-24 18:51:44.293057	293.1	30.6	-74.8	4.5
2025-01-24 18:51:45.439414	293.5	30.5	-75.5	5.0
2025-01-24 18:51:46.580699	293.8	30.4	-74.2	4.4
2025-01-24 18:51:47.725524	294.2	30.3	-74.1	4.2
2025-01-24 18:51:48.873440	294.5	30.2	-75.5	4.7
2025-01-24 18:51:50.006501	294.9	30.1	-74.8	4.9
2025-01-24 18:51:51.155489	295.2	30.0	-75.2	4.9
2025-01-24 18:51:52.303369	295.5	29.9	-74.4	3.9
2025-01-24 18:51:53.446113	295.9	29.8	-74.8	5.5
2025-01-24 18:51:54.592689	296.2	29.7	-74.9	5.7
2025-01-24 18:51:55.738604	296.5	29.6	-74.7	5.4
2025-01-24 18:51:56.882646	296.9	29.5	-74.6	4.0
2025-01-24 18:51:58.024933	297.2	29.3	-74.2	4.3
2025-01-24 18:51:59.171918	297.5	29.2	-75.0	3.0
2025-01-24 18:52:00.318035	297.8	29.1	-75.1	3.0
2025-01-24 18:52:01.460617	298.1	29.0	-74.4	4.7
2025-01-24 18:52:02.603994	298.5	28.9	-74.8	3.4
2025-01-24 18:52:03.750880	298.8	28.8	-75.2	2.1
2025-01-24 18:52:04.892692	299.1	28.7	-74.4	3.2
2025-01-24 18:52:06.038550	299.4	28.6	-75.3	2.6
2025-01-24 18:52:07.185440	299.7	28.5	-74.3	5.2
2025-01-24 18:52:08.331844	300.0	28.3	-74.7	5.1
2025-01-24 18:52:09.477031	300.3	28.2	-75.4	4.7
2025-01-24 18:52:10.617540	300.6	28.1	-74.7	2.7
2025-01-24 18:52:11.763299	300.9	28.0	-74.7	3.1
2025-01-24 18:52:12.909042	301.2	27.9	-75.3	3.3
2025-01-24 18:52:14.054976	301.5	27.8	-74.0	4.4
2025-01-24 18:52:15.201251	301.8	27.7	-75.2	4.9
2025-01-24 18:52:16.348927	302.1	27.5	-75.1	4.2
2025-01-24 18:52:17.492230	302.4	27.4	-74.4	4.3
2025-01-24 18:52:18.637650	302.7	27.3	-75.3	4.2
2025-01-24 18:52:19.779901	302.9	27.2	-74.6	3.4
2025-01-24 18:52:20.927002	303.2	27.1	-74.4	3.9
2025-01-24 18:52:22.074915	303.5	27.0	-75.0	4.1
2025-01-24 18:52:23.218553	303.8	26.8	-74.4	4.8
2025-01-24 18:52:24.361884	304.1	26.7	-74.7	4.8
2025-01-24 18:52:25.503998	304.3	26.6	-74.4	4.8
2025-01-24 18:52:26.650847	304.6	26.5	-74.6	4.6
2025-01-24 18:52:27.795466	304.9	26.4	-74.9	3.4
2025-01-24 18:52:28.942260	305.2	26.2	-74.1	3.6
2025-01-24 18:52:30.089549	305.4	26.1	-74.3	3.4
2025-01-24 18:52:31.237254	305.7	26.0	-75.2	3.1
2025-01-24 18:52:32.384193	305.9	25.9	-74.1	5.4
2025-01-24 18:52:33.531543	306.2	25.8	-74.5	3.5
2025-01-24 18:52:34.678156	306.5	25.7	-74.9	5.1
2025-01-24 18:52:35.824022	306.7	25.5	-75.6	5.0
2025-01-24 18:52:36.970341	307.0	25.4	-73.8	3.1
2025-01-24 18:52:38.115925	307.2	25.3	-75.2	3.6
2025-01-24 18:52:39.262867	307.5	25.2	-74.8	5.4
2025-01-24 18:52:40.409783	307.7	25.1	-74.0	5.3
2025-01-24 18:52:41.557687	308.0	24.9	-74.6	2.3
2025-01-24 18:52:42.703602	308.2	24.8	-75.2	4.5
2025-01-24 18:52:43.850471	308.5	24.7	-74.6	4.1
2025-01-24 18:52:44.997491	308.7	24.6	-74.9	2.5
2025-01-24 18:52:46.143516	309.0	24.5	-75.9	2.6
2025-01-24 18:52:47.288434	309.2	24.3	-74.6	4.7
2025-01-24 18:52:48.433973	309.4	24.2	-74.3	4.7
2025-01-24 18:52:49.575332	309.7	24.1	-74.9	2.8
2025-01-24 18:52:50.719251	309.9	24.0	-75.0	4.1
2025-01-24 18:52:51.857131	310.1	23.9	-75.4	3.6
2025-01-24 18:52:52.997867	310.4	23.7	-75.2	1.8
2025-01-24 18:52:54.144781	310.6	23.6	-75.9	3.4
2025-01-24 18:52:55.290688	310.8	23.5	-74.0	4.4
2025-01-24 18:52:56.430535	311.0	23.4	-74.5	1.6
2025-01-24 18:52:57.574627	311.3	23.3	-75.1	5.0
2025-01-24 18:52:58.721506	311.5	23.2	-74.4	4.9
2025-01-24 18:52:59.860512	311.7	23.0	-73.9	4.4
2025-01-24 18:53:00.997072	311.9	22.9	-74.2	4.6
2025-01-24 18:53:02.138991	312.1	22.8	-74.1	5.3
2025-01-24 18:53:03.285022	312.4	22.7	-74.3	4.9
2025-01-24 18:53:04.430223	312.6	22.6	-75.2	5.3
2025-01-24 18:53:05.573527	312.8	22.5	-75.3	4.2
2025-01-24 18:53:06.720979	313.0	22.3	-74.1	5.7
2025-01-24 18:53:07.868874	313.2	22.2	-74.7	5.9
2025-01-24 18:53:09.014606	313.4	22.1	-74.8	3.5
2025-01-24 18:53:10.160125	313.6	22.0	-74.4	4.3
2025-01-24 18:53:11.307389	313.8	21.9	-74.8	5.8
2025-01-24 18:53:12.453083	314.0	21.8	-75.1	4.8
2025-01-24 18:53:13.603122	314.2	21.6	-75.3	7.2
2025-01-24 18:53:14.750690	314.4	21.5	-75.2	4.2
2025-01-24 18:53:15.896319	314.6	21.4	-75.0	6.8
2025-01-24 18:53:17.043418	314.8	21.3	-74.4	5.0
2025-01-24 18:53:18.200398	315.0	21.2	-74.4	5.0
2025-01-24 18:53:19.343632	315.2	21.1	-75.7	5.8
2025-01-24 18:53:20.485402	315.4	20.9	-74.3	3.6
2025-01-24 18:53:21.629634	315.6	20.8	-74.1	4.0
2025-01-24 18:53:22.775701	315.8	20.7	-75.4	4.4
2025-01-24 18:53:23.920625	316.0	20.6	-73.9	4.6
2025-01-24 18:53:25.066156	316.2	20.5	-74.2	2.9
2025-01-24 18:53:26.214097	316.3	20.4	-75.3	2.8
2025-01-24 18:53:27.358587	316.5	20.3	-74.2	4.6
2025-01-24 18:53:28.495260	316.7	20.1	-75.5	5.7
2025-01-24 18:53:29.632038	316.9	20.0	-75.1	6.4
2025-01-24 18:53:30.775153	317.1	19.9	-74.8	6.3
2025-01-24 18:53:31.916694	317.3	19.8	-74.6	3.1
2025-01-24 18:53:33.070878	317.4	19.7	-74.6	5.5
2025-01-24 18:53:34.217990	317.6	19.6	-75.5	3.8
2025-01-24 18:53:35.361689	317.8	19.5	-74.0	5.3
2025-01-24 18:53:36.500132	318.0	19.4	-75.1	4.0
2025-01-24 18:53:37.646949	318.1	19.2	-74.2	3.7
2025-01-24 18:53:38.793702	318.3	19.1	-74.7	5.8
2025-01-24 18:53:39.940607	318.5	19.0	-75.4	5.4
2025-01-24 18:53:41.086957	318.6	18.9	-73.9	4.9
2025-01-24 18:53:42.232449	318.8	18.8	-74.7	3.2
2025-01-24 18:53:43.378971	319.0	18.7	-75.0	4.0
2025-01-24 18:53:44.519602	319.1	18.6	-74.0	4.4
2025-01-24 18:53:45.666486	319.3	18.5	-74.4	5.1
2025-01-24 18:53:46.814776	319.5	18.4	-75.5	3.7
2025-01-24 18:53:47.961823	319.6	18.2	-74.0	5.2
2025-01-24 18:53:49.108641	319.8	18.1	-74.9	2.5
2025-01-24 18:53:50.253267	320.0	18.0	-75.1	4.2
2025-01-24 18:53:51.398307	320.1	17.9	-74.1	4.9
2025-01-24 18:53:52.545061	320.3	17.8	-74.1	4.5
2025-01-24 18:53:53.690887	320.4	17.7	-75.3	4.8
2025-01-24 18:53:54.840473	320.6	17.6	-74.7	3.8
2025-01-24 18:53:55.984592	320.7	17.5	-74.0	4.4
2025-01-24 18:53:57.126605	320.9	17.4	-73.9	5.2
2025-01-24 18:53:58.272979	321.1	17.3	-74.3	4.8
2025-01-24 18:53:59.419227	321.2	17.2	-74.9	4.6
2025-01-24 18:54:00.566122	321.4	17.1	-74.5	4.3
2025-01-24 18:54:01.713752	321.5	17.0	-74.3	3.9
2025-01-24 18:54:02.858758	321.7	16.8	-75.0	4.0
2025-01-24 18:54:04.004673	321.8	16.7	-74.1	4.1
2025-01-24 18:54:05.142590	322.0	16.6	-74.5	4.9
2025-01-24 18:54:06.281403	322.1	16.5	-73.8	5.4
2025-01-24 18:54:07.428236	322.2	16.4	-74.1	3.1
2025-01-24 18:54:08.571608	322.4	16.3	-74.7	3.4
2025-01-24 18:54:09.703328	322.5	16.2	-74.4	4.6
2025-01-24 18:54:10.851057	322.7	16.1	-75.1	3.9
2025-01-24 18:54:11.998128	322.8	16.0	-74.0	3.8
2025-01-24 18:54:13.147688	323.0	15.9	-74.5	5.5
2025-01-24 18:54:14.293629	323.1	15.8	-75.2	4.1
2025-01-24 18:54:15.439011	323.2	15.7	-74.9	3.9
2025-01-24 18:54:16.585918	323.4	15.6	-74.5	3.4
2025-01-24 18:54:17.732789	323.5	15.5	-75.1	3.7
2025-01-24 18:54:18.879703	323.6	15.4	-74.3	4.6
2025-01-24 18:54:20.026776	323.8	15.3	-74.6	4.0
2025-01-24 18:54:21.173661	323.9	15.2	-74.6	5.1
2025-01-24 18:54:22.321454	324.0	15.1	-74.4	3.9
#Closed at: 2025-01-24 18:46:24.388664