passes_logs/2025/01/24/LEX_test/LEX_test__20250124_172915_NOAA_18_rec.log

#Pass ID: 20250124_172915_NOAA 18
#Satellite: NOAA 18
#Configuration: NOAA 18
#Start time: 2025-01-24 17:29:20.157415

#LorettStation: 1.0.0 05.05.2024
#Station: LEX_test
#Location: 44.064575 lon 56.356522 lat
#TLE: 1 28654U 05018A   25024.43580291  .00000558  00000+0  31984-3 0  9999
#TLE: 2 28654  98.8552 105.3959 0014778 153.0474 207.1468 14.13496447 14519

#Time	Az	El	Level	SNR
2025-01-24 17:29:21.331828	105.7	15.1	-74.1	6.1
2025-01-24 17:29:22.479831	105.6	15.2	-73.7	4.6
2025-01-24 17:29:23.613343	105.5	15.3	-74.0	5.0
2025-01-24 17:29:24.758406	105.3	15.4	-73.8	4.3
2025-01-24 17:29:25.904169	105.2	15.5	-74.7	5.5
2025-01-24 17:29:27.050258	105.0	15.6	-73.3	4.8
2025-01-24 17:29:28.196208	104.8	15.7	-74.0	6.2
2025-01-24 17:29:29.346497	104.7	15.8	-74.7	3.9
2025-01-24 17:29:30.489602	104.5	15.9	-73.7	4.9
2025-01-24 17:29:31.630683	104.4	16.0	-74.8	6.7
2025-01-24 17:29:32.778509	104.2	16.1	-74.4	5.6
2025-01-24 17:29:33.937180	104.1	16.2	-74.9	3.9
2025-01-24 17:29:35.079078	103.9	16.2	-74.0	5.1
2025-01-24 17:29:36.227069	103.7	16.3	-74.8	3.8
2025-01-24 17:29:37.377160	103.6	16.4	-75.0	5.5
2025-01-24 17:29:38.525282	103.4	16.5	-74.0	2.2
2025-01-24 17:29:39.670745	103.2	16.6	-74.3	4.5
2025-01-24 17:29:40.815418	103.1	16.7	-74.7	3.8
2025-01-24 17:29:41.955748	102.9	16.8	-74.3	3.8
2025-01-24 17:29:43.103803	102.8	16.9	-74.8	4.4
2025-01-24 17:29:44.253449	102.6	17.0	-74.9	4.4
2025-01-24 17:29:45.392359	102.4	17.1	-74.3	3.4
2025-01-24 17:29:46.533835	102.2	17.2	-75.1	2.8
2025-01-24 17:29:47.682557	102.1	17.3	-73.8	3.5
2025-01-24 17:29:48.830317	101.9	17.4	-74.3	4.7
2025-01-24 17:29:49.979733	101.7	17.5	-75.2	3.8
2025-01-24 17:29:51.114903	101.6	17.6	-73.7	5.0
2025-01-24 17:29:52.250306	101.4	17.7	-74.5	3.4
2025-01-24 17:29:53.400626	101.2	17.8	-73.7	3.8
2025-01-24 17:29:54.546666	101.0	17.9	-74.5	5.6
2025-01-24 17:29:55.695948	100.8	18.0	-75.1	5.7
2025-01-24 17:29:56.840090	100.7	18.1	-74.1	4.2
2025-01-24 17:29:57.986047	100.5	18.2	-74.8	4.3
2025-01-24 17:29:59.127425	100.3	18.3	-75.3	4.8
2025-01-24 17:30:00.273254	100.1	18.4	-74.1	6.1
2025-01-24 17:30:01.422159	99.9	18.5	-75.0	6.8
2025-01-24 17:30:02.565973	99.7	18.6	-75.2	5.1
2025-01-24 17:30:03.714000	99.5	18.7	-73.9	4.5
2025-01-24 17:30:04.859849	99.4	18.8	-73.7	6.2
2025-01-24 17:30:06.001159	99.2	18.9	-73.8	4.4
2025-01-24 17:30:07.147051	99.0	19.0	-74.4	6.7
2025-01-24 17:30:08.296036	98.8	19.1	-74.9	7.2
2025-01-24 17:30:09.443837	98.6	19.2	-74.3	5.3
2025-01-24 17:30:10.586921	98.4	19.3	-74.1	5.9
2025-01-24 17:30:11.734984	98.2	19.4	-74.8	4.2
2025-01-24 17:30:12.878859	98.0	19.5	-74.0	6.6
2025-01-24 17:30:14.028764	97.8	19.6	-74.5	4.9
2025-01-24 17:30:15.175363	97.6	19.7	-75.4	6.0
2025-01-24 17:30:16.323434	97.4	19.8	-73.8	6.7
2025-01-24 17:30:17.465269	97.2	19.9	-74.6	5.0
2025-01-24 17:30:18.611858	97.0	20.0	-75.0	5.8
2025-01-24 17:30:19.756048	96.8	20.1	-74.2	5.0
2025-01-24 17:30:20.903907	96.6	20.2	-74.1	3.2
2025-01-24 17:30:22.045114	96.4	20.3	-74.1	4.8
2025-01-24 17:30:23.194788	96.2	20.4	-74.9	5.9
2025-01-24 17:30:24.341768	95.9	20.5	-74.0	5.7
2025-01-24 17:30:25.489481	95.7	20.6	-74.6	4.9
2025-01-24 17:30:26.640472	95.5	20.7	-75.1	5.5
2025-01-24 17:30:27.789159	95.3	20.8	-73.6	4.9
2025-01-24 17:30:28.937112	95.1	20.9	-74.1	5.5
2025-01-24 17:30:30.083247	94.9	21.0	-75.0	6.2
2025-01-24 17:30:31.226071	94.6	21.1	-74.3	2.5
2025-01-24 17:30:32.374203	94.4	21.2	-74.7	5.3
2025-01-24 17:30:33.515574	94.2	21.3	-75.0	3.7
2025-01-24 17:30:34.664632	94.0	21.4	-74.5	6.0
2025-01-24 17:30:35.812804	93.7	21.5	-74.7	7.1
2025-01-24 17:30:36.960474	93.5	21.6	-75.4	1.8
2025-01-24 17:30:38.099343	93.3	21.7	-74.6	3.7
2025-01-24 17:30:39.238008	93.1	21.8	-75.0	3.9
2025-01-24 17:30:40.386786	92.8	21.9	-74.2	4.8
2025-01-24 17:30:41.535629	92.6	22.0	-74.4	3.9
2025-01-24 17:30:42.675539	92.4	22.1	-74.6	4.3
2025-01-24 17:30:43.819336	92.1	22.2	-73.6	5.3
2025-01-24 17:30:44.952593	91.9	22.3	-74.9	5.5
2025-01-24 17:30:46.084891	91.6	22.4	-74.7	3.7
2025-01-24 17:30:47.218189	91.4	22.5	-74.4	4.2
2025-01-24 17:30:48.356507	91.2	22.6	-74.2	4.3
2025-01-24 17:30:49.505221	90.9	22.7	-74.0	3.4
2025-01-24 17:30:50.643268	90.7	22.8	-75.2	3.1
2025-01-24 17:30:51.787187	90.4	22.9	-73.8	4.7
2025-01-24 17:30:52.932149	90.2	23.0	-74.4	4.3
2025-01-24 17:30:54.073114	89.9	23.1	-74.0	4.0
2025-01-24 17:30:55.210521	89.7	23.2	-74.3	2.7
2025-01-24 17:30:56.357529	89.4	23.3	-74.5	3.7
2025-01-24 17:30:57.504574	89.2	23.4	-73.7	5.1
2025-01-24 17:30:58.652230	88.9	23.5	-74.4	3.5
2025-01-24 17:30:59.798330	88.7	23.6	-75.2	4.0
2025-01-24 17:31:00.932083	88.4	23.7	-74.6	3.7
2025-01-24 17:31:02.063073	88.1	23.8	-74.2	5.5
2025-01-24 17:31:03.207902	87.9	23.9	-75.2	6.2
2025-01-24 17:31:04.358952	87.6	24.0	-75.3	6.4
2025-01-24 17:31:05.509787	87.3	24.1	-73.8	7.2
2025-01-24 17:31:06.658217	87.1	24.2	-74.4	4.3
2025-01-24 17:31:07.815093	86.8	24.2	-74.7	5.3
2025-01-24 17:31:08.958884	86.5	24.3	-74.9	3.9
2025-01-24 17:31:10.103975	86.3	24.4	-73.9	4.5
2025-01-24 17:31:11.238870	86.0	24.5	-74.8	4.2
2025-01-24 17:31:12.385174	85.7	24.6	-74.2	5.4
2025-01-24 17:31:13.532850	85.4	24.7	-74.5	5.3
2025-01-24 17:31:14.681825	85.2	24.8	-75.7	6.1
2025-01-24 17:31:15.816358	84.9	24.9	-74.5	5.3
2025-01-24 17:31:16.946024	84.6	25.0	-74.1	4.3
2025-01-24 17:31:18.076397	84.3	25.1	-74.7	5.5
2025-01-24 17:31:19.206651	84.0	25.2	-75.2	6.6
2025-01-24 17:31:20.335358	83.8	25.2	-74.5	5.2
2025-01-24 17:31:21.463988	83.5	25.3	-74.1	6.1
2025-01-24 17:31:22.596211	83.2	25.4	-74.4	6.3
2025-01-24 17:31:23.728752	82.9	25.5	-75.2	5.2
2025-01-24 17:31:24.867565	82.6	25.6	-74.6	5.7
2025-01-24 17:31:26.121311	82.3	25.7	-74.7	5.2
2025-01-24 17:31:27.533528	81.9	25.8	-75.2	4.6
2025-01-24 17:31:28.666538	81.6	25.9	-74.8	5.5
2025-01-24 17:31:29.810826	81.3	26.0	-74.7	6.3
2025-01-24 17:31:30.952933	81.0	26.0	-75.0	4.8
2025-01-24 17:31:32.100967	80.7	26.1	-74.7	5.1
2025-01-24 17:31:33.240756	80.4	26.2	-74.4	6.3
2025-01-24 17:31:34.385351	80.1	26.3	-74.9	6.4
2025-01-24 17:31:35.533174	79.8	26.4	-74.5	5.7
2025-01-24 17:31:36.669397	79.5	26.5	-74.8	6.8
2025-01-24 17:31:37.808175	79.2	26.5	-73.9	5.5
2025-01-24 17:31:38.948355	78.9	26.6	-74.9	5.7
2025-01-24 17:31:40.087040	78.6	26.7	-73.3	4.7
2025-01-24 17:31:41.227023	78.2	26.8	-75.2	5.0
2025-01-24 17:31:42.371736	77.9	26.9	-73.5	5.5
2025-01-24 17:31:43.520025	77.6	26.9	-74.5	8.8
2025-01-24 17:31:44.662137	77.3	27.0	-75.0	7.7
2025-01-24 17:31:45.807326	77.0	27.1	-74.0	7.1
2025-01-24 17:31:46.948762	76.6	27.2	-75.0	9.2
2025-01-24 17:31:48.084666	76.3	27.2	-74.5	8.6
2025-01-24 17:31:49.228159	76.0	27.3	-74.5	8.2
2025-01-24 17:31:50.372402	75.7	27.4	-75.4	7.1
2025-01-24 17:31:51.515016	75.3	27.4	-75.0	7.3
2025-01-24 17:31:52.649404	75.0	27.5	-75.3	7.2
2025-01-24 17:31:53.779963	74.7	27.6	-74.6	7.2
2025-01-24 17:31:54.915743	74.3	27.6	-74.3	6.8
2025-01-24 17:31:56.060566	74.0	27.7	-75.1	5.9
2025-01-24 17:31:57.202755	73.7	27.8	-74.5	7.9
2025-01-24 17:31:58.340962	73.3	27.8	-75.2	9.0
2025-01-24 17:31:59.474553	73.0	27.9	-74.6	6.3
2025-01-24 17:32:01.119735	72.5	28.0	-74.0	7.5
2025-01-24 17:32:02.267191	72.2	28.1	-74.2	9.8
2025-01-24 17:32:03.403128	71.8	28.1	-74.9	10.4
2025-01-24 17:32:04.538145	71.5	28.2	-74.7	5.6
2025-01-24 17:32:05.675145	71.1	28.2	-74.4	6.9
2025-01-24 17:32:06.820857	70.8	28.3	-74.9	8.2
2025-01-24 17:32:07.968472	70.4	28.4	-75.5	8.1
2025-01-24 17:32:09.159703	70.1	28.4	-74.4	8.4
2025-01-24 17:32:10.445906	69.7	28.5	-74.8	9.1
2025-01-24 17:32:12.298090	69.1	28.6	-74.2	8.4
2025-01-24 17:32:13.441926	68.7	28.6	-75.1	7.5
2025-01-24 17:32:14.588069	68.4	28.7	-74.7	6.9
2025-01-24 17:32:15.739128	68.0	28.7	-75.1	6.2
2025-01-24 17:32:16.886158	67.7	28.8	-75.0	6.6
2025-01-24 17:32:18.035796	67.3	28.8	-74.2	6.0
2025-01-24 17:32:19.183843	66.9	28.8	-74.4	6.6
2025-01-24 17:32:20.333387	66.6	28.9	-75.3	7.0
2025-01-24 17:32:21.481659	66.2	28.9	-74.8	5.9
2025-01-24 17:32:22.632590	65.9	29.0	-74.2	6.8
2025-01-24 17:32:23.769755	65.5	29.0	-75.0	7.1
2025-01-24 17:32:24.919049	65.1	29.1	-73.7	6.1
2025-01-24 17:32:26.077668	64.8	29.1	-74.6	7.2
2025-01-24 17:32:27.227196	64.4	29.1	-74.1	5.9
2025-01-24 17:32:28.370219	64.0	29.2	-75.0	4.8
2025-01-24 17:32:29.518187	63.7	29.2	-75.1	4.8
2025-01-24 17:32:30.660785	63.3	29.2	-74.8	5.1
2025-01-24 17:32:31.804310	62.9	29.3	-74.8	6.5
2025-01-24 17:32:32.947357	62.5	29.3	-74.0	4.3
2025-01-24 17:32:34.096060	62.2	29.3	-75.1	4.6
2025-01-24 17:32:35.230797	61.8	29.4	-74.5	6.0
2025-01-24 17:32:36.377384	61.4	29.4	-75.1	1.9
2025-01-24 17:32:37.529179	61.1	29.4	-74.7	3.6
2025-01-24 17:32:38.678004	60.7	29.4	-74.5	4.0
2025-01-24 17:32:39.823234	60.3	29.5	-74.2	5.4
2025-01-24 17:32:40.967828	59.9	29.5	-74.9	3.9
2025-01-24 17:32:42.110714	59.6	29.5	-73.9	4.0
2025-01-24 17:32:43.259673	59.2	29.5	-74.8	4.5
2025-01-24 17:32:44.410554	58.8	29.5	-74.6	5.2
2025-01-24 17:32:45.557276	58.4	29.5	-75.2	7.2
2025-01-24 17:32:46.699544	58.0	29.6	-74.7	7.8
2025-01-24 17:32:47.847854	57.7	29.6	-74.2	5.2
2025-01-24 17:32:48.992987	57.3	29.6	-74.3	4.5
2025-01-24 17:32:50.141280	56.9	29.6	-74.5	5.1
2025-01-24 17:32:51.287122	56.5	29.6	-75.2	6.8
2025-01-24 17:32:52.443667	56.1	29.6	-75.3	5.3
2025-01-24 17:32:53.589093	55.8	29.6	-73.7	4.9
2025-01-24 17:32:54.736269	55.4	29.6	-74.1	5.3
2025-01-24 17:32:55.880552	55.0	29.6	-75.2	8.1
2025-01-24 17:32:57.023022	54.6	29.6	-74.9	5.0
2025-01-24 17:32:58.171166	54.3	29.6	-75.0	4.8
2025-01-24 17:32:59.317279	53.9	29.6	-73.7	8.4
2025-01-24 17:33:00.462130	53.5	29.6	-74.5	4.5
2025-01-24 17:33:01.609057	53.1	29.6	-75.1	5.7
2025-01-24 17:33:02.751275	52.7	29.6	-74.2	6.9
2025-01-24 17:33:03.898195	52.4	29.6	-74.1	7.7
2025-01-24 17:33:05.045042	52.0	29.6	-74.7	5.6
2025-01-24 17:33:06.191825	51.6	29.6	-74.2	7.0
2025-01-24 17:33:07.341106	51.2	29.6	-74.4	9.4
2025-01-24 17:33:08.489998	50.8	29.6	-74.8	4.6
2025-01-24 17:33:09.631576	50.5	29.5	-74.7	6.0
2025-01-24 17:33:10.779036	50.1	29.5	-74.2	8.0
2025-01-24 17:33:11.931345	49.7	29.5	-74.6	6.6
2025-01-24 17:33:13.079982	49.3	29.5	-74.4	5.9
2025-01-24 17:33:14.219122	49.0	29.5	-74.3	7.3
2025-01-24 17:33:15.370695	48.6	29.5	-74.7	9.4
2025-01-24 17:33:16.526798	48.2	29.4	-75.3	5.3
2025-01-24 17:33:17.675478	47.8	29.4	-75.0	6.1
2025-01-24 17:33:18.823940	47.5	29.4	-73.5	8.9
2025-01-24 17:33:19.972062	47.1	29.4	-74.1	6.3
2025-01-24 17:33:21.116790	46.7	29.3	-75.0	7.2
2025-01-24 17:33:22.264424	46.3	29.3	-74.9	9.3
2025-01-24 17:33:23.411628	46.0	29.3	-74.1	8.1
2025-01-24 17:33:24.544847	45.6	29.2	-73.7	4.7
2025-01-24 17:33:25.688158	45.2	29.2	-74.7	7.4
2025-01-24 17:33:26.836080	44.9	29.2	-74.8	11.0
2025-01-24 17:33:27.976045	44.5	29.1	-73.8	8.3
2025-01-24 17:33:29.125220	44.1	29.1	-74.5	5.7
2025-01-24 17:33:30.272035	43.8	29.1	-75.2	11.9
2025-01-24 17:33:31.415730	43.4	29.0	-74.3	7.6
2025-01-24 17:33:32.562737	43.0	29.0	-74.0	6.1
2025-01-24 17:33:33.710671	42.7	28.9	-74.5	6.5
2025-01-24 17:33:34.858610	42.3	28.9	-74.2	7.1
2025-01-24 17:33:36.005472	41.9	28.9	-74.2	6.2
2025-01-24 17:33:37.147390	41.6	28.8	-74.2	7.6
2025-01-24 17:33:38.285215	41.2	28.8	-74.0	7.5
2025-01-24 17:33:39.432613	40.9	28.7	-74.9	8.3
2025-01-24 17:33:40.579336	40.5	28.7	-74.3	6.8
2025-01-24 17:33:41.711919	40.1	28.6	-75.2	10.1
2025-01-24 17:33:42.850242	39.8	28.6	-74.4	8.9
2025-01-24 17:33:43.997801	39.4	28.5	-75.2	8.6
2025-01-24 17:33:45.143664	39.1	28.5	-74.7	8.2
2025-01-24 17:33:46.289982	38.7	28.4	-74.7	9.8
2025-01-24 17:33:47.437665	38.4	28.4	-75.1	9.4
2025-01-24 17:33:48.572076	38.0	28.3	-73.7	8.2
2025-01-24 17:33:49.715536	37.7	28.2	-74.8	9.1
2025-01-24 17:33:50.863039	37.3	28.2	-74.0	8.2
2025-01-24 17:33:52.011810	37.0	28.1	-74.8	7.9
2025-01-24 17:33:53.155370	36.6	28.1	-75.0	10.0
2025-01-24 17:33:54.299882	36.3	28.0	-73.8	9.3
2025-01-24 17:33:55.444560	36.0	27.9	-74.2	10.5
2025-01-24 17:33:56.587962	35.6	27.9	-75.1	8.6
2025-01-24 17:33:57.735679	35.3	27.8	-74.0	11.0
2025-01-24 17:33:58.884600	34.9	27.7	-74.5	11.9
2025-01-24 17:34:00.022013	34.6	27.7	-75.2	7.7
2025-01-24 17:34:01.165665	34.3	27.6	-74.5	8.2
2025-01-24 17:34:02.313631	33.9	27.5	-75.0	10.4
2025-01-24 17:34:03.459450	33.6	27.5	-74.0	6.8
2025-01-24 17:34:04.602759	33.3	27.4	-74.3	8.2
2025-01-24 17:34:05.740866	33.0	27.3	-75.2	9.7
2025-01-24 17:34:06.883774	32.6	27.3	-74.7	11.9
2025-01-24 17:34:08.024826	32.3	27.2	-74.7	7.3
2025-01-24 17:34:09.172685	32.0	27.1	-73.9	9.7
2025-01-24 17:34:10.318916	31.7	27.0	-74.7	11.0
2025-01-24 17:34:11.467571	31.3	27.0	-75.5	10.4
2025-01-24 17:34:12.619186	31.0	26.9	-74.2	8.5
2025-01-24 17:34:13.765176	30.7	26.8	-74.8	9.5
2025-01-24 17:34:14.912980	30.4	26.7	-75.2	11.0
2025-01-24 17:34:16.060236	30.1	26.6	-74.0	10.3
2025-01-24 17:34:17.209439	29.7	26.6	-74.5	9.4
2025-01-24 17:34:18.354913	29.4	26.5	-74.8	9.5
2025-01-24 17:34:19.502538	29.1	26.4	-74.0	7.0
2025-01-24 17:34:20.649627	28.8	26.3	-74.1	7.9
2025-01-24 17:34:21.792574	28.5	26.2	-74.6	8.0
2025-01-24 17:34:22.934851	28.2	26.2	-74.4	5.9
2025-01-24 17:34:24.081579	27.9	26.1	-73.3	6.1
2025-01-24 17:34:25.229426	27.6	26.0	-75.1	7.4
2025-01-24 17:34:26.381887	27.3	25.9	-74.7	7.8
2025-01-24 17:34:27.529706	27.0	25.8	-74.5	3.7
2025-01-24 17:34:28.679797	26.7	25.7	-74.1	6.0
2025-01-24 17:34:29.827626	26.4	25.6	-74.6	5.7
2025-01-24 17:34:30.977451	26.1	25.6	-75.2	4.9
2025-01-24 17:34:32.108574	25.8	25.5	-74.6	4.3
2025-01-24 17:34:33.254630	25.5	25.4	-75.1	5.7
2025-01-24 17:34:34.402751	25.2	25.3	-74.2	4.4
2025-01-24 17:34:35.550520	24.9	25.2	-74.8	5.1
2025-01-24 17:34:36.697325	24.7	25.1	-75.1	5.6
2025-01-24 17:34:37.846298	24.4	25.0	-73.8	4.8
2025-01-24 17:34:38.988403	24.1	24.9	-74.5	4.8
2025-01-24 17:34:40.135228	23.8	24.8	-75.1	6.1
2025-01-24 17:34:41.272060	23.5	24.8	-74.4	7.1
2025-01-24 17:34:42.405667	23.2	24.7	-74.0	4.3
2025-01-24 17:34:43.555548	23.0	24.6	-74.2	4.2
2025-01-24 17:34:44.703429	22.7	24.5	-75.1	4.6
2025-01-24 17:34:45.851484	22.4	24.4	-75.5	3.4
2025-01-24 17:34:46.999309	22.1	24.3	-74.2	5.2
2025-01-24 17:34:48.146137	21.9	24.2	-74.8	5.0
2025-01-24 17:34:49.293115	21.6	24.1	-75.3	4.7
2025-01-24 17:34:50.433663	21.3	24.0	-74.8	4.3
2025-01-24 17:34:51.576113	21.1	23.9	-75.1	3.7
2025-01-24 17:34:52.724715	20.8	23.8	-73.9	1.8
2025-01-24 17:34:53.873918	20.6	23.7	-74.5	4.7
2025-01-24 17:34:55.019951	20.3	23.6	-75.0	2.8
2025-01-24 17:34:56.156926	20.0	23.5	-74.6	4.4
2025-01-24 17:34:57.303916	19.8	23.4	-74.0	3.4
2025-01-24 17:34:58.447771	19.5	23.3	-75.1	4.1
2025-01-24 17:34:59.596789	19.3	23.2	-73.8	4.6
2025-01-24 17:35:00.743624	19.0	23.1	-74.8	5.0
2025-01-24 17:35:01.892115	18.8	23.0	-75.0	4.1
2025-01-24 17:35:03.039493	18.5	22.9	-74.1	4.6
2025-01-24 17:35:04.185368	18.3	22.9	-74.7	4.9
2025-01-24 17:35:05.334233	18.0	22.8	-74.8	5.0
2025-01-24 17:35:06.481996	17.8	22.7	-74.2	3.8
2025-01-24 17:35:07.622182	17.5	22.6	-75.2	4.1
2025-01-24 17:35:08.771964	17.3	22.5	-75.0	2.8
2025-01-24 17:35:09.915725	17.0	22.4	-74.3	6.0
2025-01-24 17:35:11.063900	16.8	22.3	-75.0	4.0
2025-01-24 17:35:12.208305	16.6	22.2	-74.0	4.4
2025-01-24 17:35:13.360631	16.3	22.1	-74.7	5.2
2025-01-24 17:35:14.510299	16.1	22.0	-74.6	5.0
2025-01-24 17:35:15.655202	15.9	21.9	-74.5	4.8
2025-01-24 17:35:16.803683	15.6	21.8	-75.0	5.4
2025-01-24 17:35:17.953093	15.4	21.7	-73.8	3.1
2025-01-24 17:35:19.095048	15.2	21.6	-74.6	6.7
2025-01-24 17:35:20.241543	15.0	21.5	-75.0	5.8
2025-01-24 17:35:21.384101	14.7	21.4	-74.4	5.7
2025-01-24 17:35:22.531669	14.5	21.3	-74.4	5.4
2025-01-24 17:35:23.680245	14.3	21.2	-75.1	5.2
2025-01-24 17:35:24.826635	14.1	21.1	-74.0	4.7
2025-01-24 17:35:25.972745	13.8	21.0	-74.6	3.4
2025-01-24 17:35:27.125069	13.6	20.9	-75.2	5.8
2025-01-24 17:35:28.272916	13.4	20.8	-74.0	6.6
2025-01-24 17:35:29.421756	13.2	20.7	-74.8	5.2
2025-01-24 17:35:30.568671	13.0	20.6	-75.3	6.4
2025-01-24 17:35:31.713717	12.8	20.5	-74.7	5.9
2025-01-24 17:35:32.861763	12.6	20.4	-74.7	6.5
2025-01-24 17:35:34.002826	12.3	20.3	-74.6	7.5
2025-01-24 17:35:35.150491	12.1	20.2	-74.6	5.9
2025-01-24 17:35:36.298540	11.9	20.1	-74.3	7.5
2025-01-24 17:35:37.440320	11.7	20.0	-73.5	4.0
2025-01-24 17:35:38.581781	11.5	19.9	-74.2	5.3
2025-01-24 17:35:39.725568	11.3	19.8	-75.1	4.9
2025-01-24 17:35:40.873631	11.1	19.7	-74.2	6.7
2025-01-24 17:35:42.017563	10.9	19.6	-73.8	3.6
2025-01-24 17:35:43.165395	10.7	19.5	-75.3	3.4
2025-01-24 17:35:44.313012	10.5	19.4	-74.7	4.9
2025-01-24 17:35:45.471031	10.3	19.2	-73.6	4.3
2025-01-24 17:35:46.612411	10.1	19.1	-74.9	5.8
2025-01-24 17:35:47.762352	9.9	19.0	-74.3	4.0
2025-01-24 17:35:48.903187	9.7	18.9	-74.1	4.7
2025-01-24 17:35:50.059031	9.6	18.8	-74.1	5.2
2025-01-24 17:35:51.207058	9.4	18.7	-74.2	5.4
2025-01-24 17:35:52.354920	9.2	18.6	-75.2	4.5
2025-01-24 17:35:53.506101	9.0	18.5	-74.1	4.8
2025-01-24 17:35:54.657022	8.8	18.4	-74.1	6.0
2025-01-24 17:35:55.806981	8.6	18.3	-75.6	6.1
2025-01-24 17:35:56.952046	8.4	18.2	-74.2	5.1
2025-01-24 17:35:58.089657	8.2	18.1	-74.1	3.3
2025-01-24 17:35:59.238387	8.1	18.0	-75.6	6.1
2025-01-24 17:36:00.385202	7.9	17.9	-73.8	5.8
2025-01-24 17:36:01.531399	7.7	17.8	-74.2	6.6
2025-01-24 17:36:02.679227	7.5	17.7	-74.7	4.6
2025-01-24 17:36:03.826520	7.4	17.7	-74.6	4.7
2025-01-24 17:36:04.960257	7.2	17.6	-75.1	4.5
2025-01-24 17:36:06.100456	7.0	17.5	-75.2	4.4
2025-01-24 17:36:07.248289	6.8	17.4	-74.1	5.1
2025-01-24 17:36:08.382649	6.7	17.3	-73.4	4.0
2025-01-24 17:36:09.525627	6.5	17.2	-74.4	2.2
2025-01-24 17:36:10.673791	6.3	17.1	-75.2	4.0
2025-01-24 17:36:11.818516	6.2	17.0	-73.8	4.7
2025-01-24 17:36:12.966311	6.0	16.9	-74.5	4.0
2025-01-24 17:36:14.112177	5.8	16.8	-75.2	5.2
2025-01-24 17:36:15.260208	5.7	16.7	-74.1	4.3
2025-01-24 17:36:16.418385	5.5	16.6	-74.0	5.2
2025-01-24 17:36:17.566239	5.3	16.5	-75.0	5.7
2025-01-24 17:36:18.711166	5.2	16.4	-74.2	6.1
2025-01-24 17:36:19.854950	5.0	16.3	-74.3	5.1
2025-01-24 17:36:20.997477	4.8	16.2	-74.8	4.4
2025-01-24 17:36:22.145471	4.7	16.1	-74.7	4.5
2025-01-24 17:36:23.294056	4.5	16.0	-74.1	4.1
2025-01-24 17:36:24.442937	4.4	15.9	-74.6	2.4
2025-01-24 17:36:25.590431	4.2	15.8	-75.0	7.3
2025-01-24 17:36:26.739742	4.1	15.7	-74.0	5.3
2025-01-24 17:36:27.882641	3.9	15.6	-74.8	5.4
2025-01-24 17:36:29.027869	3.8	15.5	-74.8	4.6
2025-01-24 17:36:30.175623	3.6	15.4	-74.4	4.3
2025-01-24 17:36:31.316610	3.5	15.3	-75.6	7.6
2025-01-24 17:36:32.464768	3.3	15.2	-75.7	3.9
2025-01-24 17:36:33.613670	3.2	15.1	-74.2	5.4
2025-01-24 17:36:34.761401	3.0	15.0	-74.8	5.0
#Closed at: 2025-01-24 17:29:15.161273