passes_logs/2025/01/24/LEX_test/LEX_test__20250124_175638_METEOR-M2_3_rec.log

#Pass ID: 20250124_175638_METEOR-M2 3
#Satellite: METEOR-M2 3
#Configuration: METEOR-M2 3
#Start time: 2025-01-24 17:56:43.794810

#LorettStation: 1.0.0 05.05.2024
#Station: LEX_test
#Location: 44.064575 lon 56.356522 lat
#TLE: 1 57166U 23091A   25024.45873363  .00000104  00000+0  64435-4 0  9992
#TLE: 2 57166  98.6835  82.8058 0003683 193.2411 166.8672 14.23971765 82111

#Time	Az	El	Level	SNR
2025-01-24 17:56:44.956519	185.2	15.1	-74.1	0.0
2025-01-24 17:56:47.247883	185.3	15.4	-73.8	0.0
2025-01-24 17:56:49.543008	185.5	15.6	-74.8	0.0
2025-01-24 17:56:51.835119	185.6	15.8	-74.2	0.0
2025-01-24 17:56:54.133576	185.8	16.1	-73.7	0.0
2025-01-24 17:56:56.427997	186.0	16.3	-74.2	0.0
2025-01-24 17:56:58.721675	186.1	16.6	-74.0	0.0
2025-01-24 17:57:01.014385	186.3	16.8	-73.3	0.0
2025-01-24 17:57:03.310605	186.5	17.1	-74.2	0.0
2025-01-24 17:57:05.604826	186.7	17.3	-74.2	0.0
2025-01-24 17:57:07.902271	186.8	17.6	-75.0	0.0
2025-01-24 17:57:10.194947	187.0	17.9	-73.8	0.0
2025-01-24 17:57:12.490770	187.2	18.1	-75.0	0.0
2025-01-24 17:57:14.785094	187.4	18.4	-74.7	0.0
2025-01-24 17:57:17.079276	187.6	18.7	-73.8	0.0
2025-01-24 17:57:19.373048	187.8	18.9	-75.1	0.0
2025-01-24 17:57:21.667258	188.0	19.2	-74.8	0.0
2025-01-24 17:57:23.957596	188.2	19.5	-73.8	0.0
2025-01-24 17:57:26.252467	188.4	19.8	-74.7	0.0
2025-01-24 17:57:28.546472	188.6	20.1	-73.9	0.0
2025-01-24 17:57:30.841779	188.8	20.3	-74.5	0.0
2025-01-24 17:57:33.135633	189.0	20.6	-74.8	0.0
2025-01-24 17:57:35.431334	189.3	20.9	-74.4	0.0
2025-01-24 17:57:37.725206	189.5	21.2	-74.8	0.0
2025-01-24 17:57:40.018072	189.7	21.5	-74.8	0.0
2025-01-24 17:57:42.312083	190.0	21.8	-74.7	0.0
2025-01-24 17:57:44.605024	190.2	22.1	-75.3	0.0
2025-01-24 17:57:46.898358	190.4	22.4	-74.6	0.0
2025-01-24 17:57:49.193161	190.7	22.7	-73.9	0.0
2025-01-24 17:57:51.486340	190.9	23.0	-75.2	0.0
2025-01-24 17:57:53.779539	191.2	23.4	-75.1	0.0
2025-01-24 17:57:56.076467	191.5	23.7	-74.6	0.0
2025-01-24 17:57:58.369744	191.7	24.0	-74.6	0.0
2025-01-24 17:58:00.663594	192.0	24.3	-74.4	0.0
2025-01-24 17:58:02.960771	192.3	24.7	-74.4	0.0
2025-01-24 17:58:05.251712	192.6	25.0	-74.8	0.0
2025-01-24 17:58:07.544912	192.9	25.3	-74.6	0.0
2025-01-24 17:58:09.837136	193.2	25.7	-74.4	0.0
2025-01-24 17:58:12.130859	193.5	26.0	-74.9	0.0
2025-01-24 17:58:14.422746	193.8	26.4	-74.9	0.0
2025-01-24 17:58:16.717091	194.1	26.7	-74.3	0.0
2025-01-24 17:58:19.008940	194.4	27.1	-75.0	0.0
2025-01-24 17:58:21.303165	194.7	27.5	-74.3	0.0
2025-01-24 17:58:23.596478	195.1	27.8	-73.7	0.0
2025-01-24 17:58:25.891150	195.4	28.2	-75.2	0.0
2025-01-24 17:58:28.184699	195.8	28.6	-74.5	0.0
2025-01-24 17:58:30.479380	196.1	28.9	-74.2	0.0
2025-01-24 17:58:32.771679	196.5	29.3	-74.9	0.0
2025-01-24 17:58:35.072615	196.9	29.7	-74.2	0.0
2025-01-24 17:58:37.364576	197.3	30.1	-74.3	0.0
2025-01-24 17:58:39.655693	197.7	30.5	-74.3	0.0
2025-01-24 17:58:41.949612	198.1	30.9	-74.4	0.0
2025-01-24 17:58:44.244088	198.5	31.3	-74.8	0.0
2025-01-24 17:58:46.538921	198.9	31.7	-74.5	0.0
2025-01-24 17:58:48.832776	199.4	32.1	-73.9	0.0
2025-01-24 17:58:51.127292	199.8	32.5	-75.3	0.0
2025-01-24 17:58:53.421467	200.3	32.9	-74.2	0.0
2025-01-24 17:58:55.715274	200.7	33.3	-74.1	0.0
2025-01-24 17:58:58.007879	201.2	33.7	-74.9	0.0
2025-01-24 17:59:00.302490	201.7	34.2	-73.9	0.0
2025-01-24 17:59:02.600509	202.2	34.6	-74.2	0.0
2025-01-24 17:59:04.895697	202.8	35.0	-74.5	0.0
2025-01-24 17:59:07.188661	203.3	35.5	-74.4	0.0
2025-01-24 17:59:09.479414	203.8	35.9	-74.7	0.0
2025-01-24 17:59:11.780958	204.4	36.4	-74.4	0.0
2025-01-24 17:59:14.073924	205.0	36.8	-75.6	0.0
2025-01-24 17:59:16.368061	205.6	37.3	-74.5	0.0
2025-01-24 17:59:18.659309	206.2	37.7	-74.6	0.0
2025-01-24 17:59:20.951906	206.8	38.2	-74.6	0.0
2025-01-24 17:59:23.246058	207.5	38.6	-75.3	0.0
2025-01-24 17:59:25.538225	208.1	39.1	-74.7	0.0
2025-01-24 17:59:27.830897	208.8	39.5	-74.2	0.0
2025-01-24 17:59:30.125022	209.5	40.0	-75.1	0.0
2025-01-24 17:59:32.418176	210.3	40.5	-74.4	0.0
2025-01-24 17:59:34.709049	211.0	40.9	-74.4	0.0
2025-01-24 17:59:37.003866	211.8	41.4	-74.7	0.0
2025-01-24 17:59:39.305829	212.6	41.8	-73.9	0.0
2025-01-24 17:59:41.597682	213.4	42.3	-75.1	0.0
2025-01-24 17:59:43.892806	214.2	42.8	-74.8	0.0
2025-01-24 17:59:46.185958	215.1	43.2	-74.3	0.0
2025-01-24 17:59:48.479838	216.0	43.7	-75.2	0.0
2025-01-24 17:59:50.773043	216.9	44.1	-74.4	0.0
2025-01-24 17:59:53.070176	217.8	44.6	-73.8	0.0
2025-01-24 17:59:55.362118	218.8	45.1	-74.9	0.0
2025-01-24 17:59:57.661456	219.8	45.5	-74.6	0.0
2025-01-24 17:59:59.954445	220.8	45.9	-74.7	0.0
2025-01-24 18:00:02.248726	221.8	46.4	-74.3	0.0
2025-01-24 18:00:04.540401	222.9	46.8	-74.1	0.0
2025-01-24 18:00:06.834637	224.0	47.2	-75.4	0.0
2025-01-24 18:00:09.126657	225.1	47.7	-75.0	0.0
2025-01-24 18:00:11.419741	226.3	48.1	-73.8	0.0
2025-01-24 18:00:13.713072	227.5	48.5	-75.3	0.0
2025-01-24 18:00:16.006928	228.7	48.9	-74.6	0.0
2025-01-24 18:00:18.300126	230.0	49.2	-74.5	0.0
2025-01-24 18:00:20.602131	231.3	49.6	-74.4	0.0
2025-01-24 18:00:22.905518	232.6	50.0	-74.2	0.0
2025-01-24 18:00:25.199292	233.9	50.3	-74.9	0.0
2025-01-24 18:00:27.497543	235.3	50.6	-74.2	0.0
2025-01-24 18:00:29.789718	236.7	51.0	-75.0	0.0
2025-01-24 18:00:32.081548	238.2	51.3	-74.7	0.0
2025-01-24 18:00:34.375645	239.6	51.5	-74.0	0.0
2025-01-24 18:00:36.668767	241.1	51.8	-75.3	0.0
2025-01-24 18:00:38.963495	242.6	52.0	-74.6	0.0
2025-01-24 18:00:41.254486	244.2	52.3	-74.3	0.0
2025-01-24 18:00:43.547274	245.7	52.5	-75.2	0.0
2025-01-24 18:00:45.840755	247.3	52.6	-74.7	0.0
2025-01-24 18:00:48.135974	248.9	52.8	-74.6	0.0
2025-01-24 18:00:50.429291	250.6	52.9	-75.0	0.0
2025-01-24 18:00:52.722054	252.2	53.1	-73.8	0.0
2025-01-24 18:00:55.015783	253.8	53.2	-75.2	0.0
2025-01-24 18:00:57.309859	255.5	53.2	-74.7	0.0
2025-01-24 18:00:59.601535	257.1	53.3	-74.5	0.0
2025-01-24 18:01:01.895930	258.8	53.3	-75.2	0.0
2025-01-24 18:01:04.189674	260.5	53.3	-74.8	0.0
2025-01-24 18:01:06.483649	262.1	53.2	-74.1	0.0
2025-01-24 18:01:08.776832	263.8	53.2	-75.2	0.0
2025-01-24 18:01:11.071926	265.4	53.1	-74.4	0.0
2025-01-24 18:01:13.359798	267.1	53.0	-75.3	0.0
2025-01-24 18:01:15.654974	268.7	52.9	-74.3	0.0
2025-01-24 18:01:17.949571	270.3	52.8	-75.2	0.0
2025-01-24 18:01:20.249069	271.9	52.6	-74.3	0.0
2025-01-24 18:01:22.545552	273.5	52.4	-74.9	0.0
2025-01-24 18:01:24.839196	275.0	52.2	-73.9	0.0
2025-01-24 18:01:27.133591	276.6	52.0	-74.4	0.0
2025-01-24 18:01:29.429851	278.1	51.7	-74.8	0.0
2025-01-24 18:01:31.722012	279.5	51.4	-74.1	0.0
2025-01-24 18:01:34.014613	281.0	51.2	-75.1	0.0
2025-01-24 18:01:36.309048	282.4	50.9	-75.0	0.0
2025-01-24 18:01:38.600752	283.8	50.5	-73.9	0.0
2025-01-24 18:01:40.893131	285.2	50.2	-74.4	0.0
2025-01-24 18:01:43.196583	286.5	49.9	-74.1	0.0
2025-01-24 18:01:45.491227	287.8	49.5	-74.2	0.0
2025-01-24 18:01:47.791994	289.1	49.1	-74.5	0.0
2025-01-24 18:01:50.086194	290.4	48.7	-75.1	0.0
2025-01-24 18:01:52.381545	291.6	48.3	-75.0	0.0
2025-01-24 18:01:54.675680	292.7	47.9	-73.9	0.0
2025-01-24 18:01:56.971685	293.9	47.5	-75.5	0.0
2025-01-24 18:01:59.267020	295.0	47.1	-74.5	0.0
2025-01-24 18:02:01.559998	296.1	46.7	-74.3	0.0
2025-01-24 18:02:03.854238	297.2	46.2	-75.1	0.0
2025-01-24 18:02:06.149435	298.2	45.8	-74.4	0.0
2025-01-24 18:02:08.444344	299.2	45.4	-75.0	0.0
2025-01-24 18:02:10.737575	300.2	44.9	-75.9	0.0
2025-01-24 18:02:13.032989	301.1	44.5	-74.3	0.0
2025-01-24 18:02:15.324908	302.1	44.0	-74.6	0.0
2025-01-24 18:02:17.624854	303.0	43.6	-75.2	0.0
2025-01-24 18:02:19.918437	303.8	43.1	-74.2	0.0
2025-01-24 18:02:22.214712	304.7	42.6	-75.2	0.0
2025-01-24 18:02:24.506489	305.5	42.2	-74.5	0.0
2025-01-24 18:02:26.806680	306.3	41.7	-74.5	0.0
2025-01-24 18:02:29.105990	307.1	41.2	-74.2	0.0
2025-01-24 18:02:31.398641	307.9	40.8	-74.3	0.0
2025-01-24 18:02:33.697907	308.6	40.3	-74.5	0.0
2025-01-24 18:02:35.993934	309.3	39.9	-74.2	0.0
2025-01-24 18:02:38.291957	310.0	39.4	-74.9	0.0
2025-01-24 18:02:40.583696	310.7	38.9	-74.3	0.0
2025-01-24 18:02:42.878584	311.3	38.5	-74.3	0.0
2025-01-24 18:02:45.171657	312.0	38.0	-75.0	0.0
2025-01-24 18:02:47.464967	312.6	37.6	-74.8	0.0
2025-01-24 18:02:49.760040	313.2	37.1	-74.0	0.0
2025-01-24 18:02:52.055860	313.8	36.7	-75.7	0.0
2025-01-24 18:02:54.352538	314.4	36.3	-75.0	0.0
2025-01-24 18:02:56.647362	314.9	35.8	-74.7	0.0
2025-01-24 18:02:58.940141	315.5	35.4	-75.3	0.0
2025-01-24 18:03:01.232515	316.0	34.9	-74.5	0.0
2025-01-24 18:03:03.524192	316.5	34.5	-75.2	0.0
2025-01-24 18:03:05.815282	317.0	34.1	-74.9	0.0
2025-01-24 18:03:08.109123	317.5	33.7	-74.4	0.0
2025-01-24 18:03:10.405385	318.0	33.2	-75.5	0.0
2025-01-24 18:03:12.698660	318.5	32.8	-74.4	0.0
2025-01-24 18:03:14.993600	318.9	32.4	-73.9	0.0
2025-01-24 18:03:17.287693	319.4	32.0	-75.3	0.0
2025-01-24 18:03:19.580917	319.8	31.6	-74.3	0.0
2025-01-24 18:03:21.873630	320.2	31.2	-74.6	0.0
2025-01-24 18:03:24.166257	320.7	30.8	-75.1	0.0
2025-01-24 18:03:26.461594	321.1	30.4	-74.7	0.0
2025-01-24 18:03:28.756215	321.5	30.0	-74.5	0.0
2025-01-24 18:03:31.051233	321.8	29.7	-74.6	0.0
2025-01-24 18:03:33.345319	322.2	29.3	-74.3	0.0
2025-01-24 18:03:35.645601	322.6	28.9	-74.5	0.0
2025-01-24 18:03:37.939375	322.9	28.5	-74.5	0.0
2025-01-24 18:03:40.230638	323.3	28.2	-74.1	0.0
2025-01-24 18:03:42.523044	323.6	27.8	-75.4	0.0
2025-01-24 18:03:44.818923	324.0	27.4	-74.4	0.0
2025-01-24 18:03:47.111475	324.3	27.1	-74.2	0.0
2025-01-24 18:03:49.405811	324.6	26.7	-75.2	0.0
2025-01-24 18:03:51.700156	324.9	26.4	-74.4	0.0
2025-01-24 18:03:53.992683	325.2	26.0	-74.3	0.0
2025-01-24 18:03:56.285717	325.5	25.7	-75.1	0.0
2025-01-24 18:03:58.577714	325.8	25.3	-74.4	0.0
2025-01-24 18:04:00.874516	326.1	25.0	-74.7	0.0
2025-01-24 18:04:03.168812	326.4	24.7	-74.5	0.0
2025-01-24 18:04:05.461936	326.7	24.3	-74.5	0.0
2025-01-24 18:04:07.756810	327.0	24.0	-75.3	0.0
2025-01-24 18:04:10.051018	327.2	23.7	-74.8	0.0
2025-01-24 18:04:12.344752	327.5	23.4	-74.5	0.0
2025-01-24 18:04:14.639774	327.8	23.1	-75.4	0.0
2025-01-24 18:04:16.934254	328.0	22.7	-74.7	0.0
2025-01-24 18:04:19.233082	328.3	22.4	-74.9	0.0
2025-01-24 18:04:21.527295	328.5	22.1	-75.2	0.0
2025-01-24 18:04:23.819080	328.7	21.8	-74.3	0.0
2025-01-24 18:04:26.109714	329.0	21.5	-74.4	0.0
2025-01-24 18:04:28.403047	329.2	21.2	-75.0	0.0
2025-01-24 18:04:30.696939	329.4	20.9	-73.9	0.0
2025-01-24 18:04:32.991067	329.6	20.7	-74.8	0.0
2025-01-24 18:04:35.282101	329.9	20.4	-75.2	0.0
2025-01-24 18:04:37.574771	330.1	20.1	-74.4	0.0
2025-01-24 18:04:39.866628	330.3	19.8	-75.5	0.0
2025-01-24 18:04:42.157902	330.5	19.5	-75.0	0.0
2025-01-24 18:04:44.451907	330.7	19.3	-74.2	0.0
2025-01-24 18:04:46.744463	330.9	19.0	-74.2	0.0
2025-01-24 18:04:49.035648	331.1	18.7	-75.1	0.0
2025-01-24 18:04:51.328513	331.3	18.4	-74.5	0.0
2025-01-24 18:04:53.624864	331.5	18.2	-73.8	0.0
2025-01-24 18:04:55.929617	331.7	17.9	-73.9	0.0
2025-01-24 18:04:58.232502	331.8	17.7	-75.0	0.0
2025-01-24 18:05:00.525402	332.0	17.4	-74.7	0.0
2025-01-24 18:05:02.816784	332.2	17.1	-73.7	0.0
2025-01-24 18:05:05.110456	332.4	16.9	-75.4	0.0
2025-01-24 18:05:07.401016	332.5	16.6	-74.3	0.0
2025-01-24 18:05:09.693171	332.7	16.4	-74.1	0.0
2025-01-24 18:05:11.986225	332.9	16.2	-75.2	0.0
2025-01-24 18:05:14.281288	333.0	15.9	-74.0	0.0
2025-01-24 18:05:16.583774	333.2	15.7	-73.9	0.0
2025-01-24 18:05:18.879194	333.4	15.4	-75.0	0.0
2025-01-24 18:05:21.174833	333.5	15.2	-74.6	0.0
#Closed at: 2025-01-24 17:56:38.799896