passes_logs/2025/01/24/LEX_test/LEX_test__20250124_170503_NOAA_19_rec.log

#Pass ID: 20250124_170503_NOAA 19
#Satellite: NOAA 19
#Configuration: NOAA 19
#Start time: 2025-01-24 17:05:08.923228

#LorettStation: 1.0.0 05.05.2024
#Station: LEX_test
#Location: 44.064575 lon 56.356522 lat
#TLE: 1 33591U 09005A   25024.42016610  .00000458  00000+0  26845-3 0  9992
#TLE: 2 33591  99.0181  88.2546 0014124  31.9823 328.2203 14.13268053822872

#Time	Az	El	Level	SNR
2025-01-24 17:05:18.153671	136.2	16.0	-73.9	4.2
2025-01-24 17:05:20.423504	136.0	16.2	-75.0	6.1
2025-01-24 17:05:22.696913	135.9	16.5	-75.5	5.7
2025-01-24 17:05:24.968086	135.7	16.7	-74.5	5.6
2025-01-24 17:05:27.229774	135.6	16.9	-74.6	7.3
2025-01-24 17:05:29.496364	135.4	17.2	-75.1	5.0
2025-01-24 17:05:31.776223	135.3	17.5	-74.1	5.2
2025-01-24 17:05:34.062243	135.1	17.7	-74.9	6.1
2025-01-24 17:05:36.334953	135.0	18.0	-74.2	6.6
2025-01-24 17:05:38.596639	134.8	18.2	-75.1	4.8
2025-01-24 17:05:40.878092	134.6	18.5	-75.2	5.1
2025-01-24 17:05:43.165993	134.5	18.8	-74.8	5.5
2025-01-24 17:05:45.446763	134.3	19.0	-74.8	5.5
2025-01-24 17:05:47.723346	134.1	19.3	-74.9	6.4
2025-01-24 17:05:49.985907	133.9	19.6	-75.5	5.3
2025-01-24 17:05:52.255099	133.7	19.9	-74.6	5.6
2025-01-24 17:05:54.538673	133.6	20.1	-73.9	6.1
2025-01-24 17:05:56.821049	133.4	20.4	-74.1	5.2
2025-01-24 17:05:59.091328	133.2	20.7	-73.7	4.3
2025-01-24 17:06:01.360485	133.0	21.0	-74.3	5.6
2025-01-24 17:06:03.634622	132.8	21.3	-75.1	7.9
2025-01-24 17:06:05.908968	132.6	21.6	-75.2	6.7
2025-01-24 17:06:08.195149	132.4	21.9	-75.1	6.4
2025-01-24 17:06:10.488563	132.1	22.2	-75.0	6.3
2025-01-24 17:06:12.759260	131.9	22.5	-75.3	5.4
2025-01-24 17:06:15.026305	131.7	22.8	-75.1	6.2
2025-01-24 17:06:17.296541	131.5	23.1	-73.9	5.3
2025-01-24 17:06:19.569625	131.2	23.4	-74.3	4.5
2025-01-24 17:06:21.855238	131.0	23.7	-74.5	5.0
2025-01-24 17:06:24.129522	130.8	24.0	-74.4	6.8
2025-01-24 17:06:26.397816	130.5	24.4	-74.2	3.2
2025-01-24 17:06:28.674440	130.3	24.7	-75.2	4.3
2025-01-24 17:06:30.955526	130.0	25.0	-74.8	5.0
2025-01-24 17:06:33.221656	129.7	25.4	-75.2	3.0
2025-01-24 17:06:35.505351	129.5	25.7	-75.1	3.1
2025-01-24 17:06:37.774115	129.2	26.0	-74.6	3.8
2025-01-24 17:06:40.037637	128.9	26.4	-75.4	4.2
2025-01-24 17:06:42.301171	128.6	26.7	-74.4	4.1
2025-01-24 17:06:44.563700	128.3	27.1	-74.9	3.9
2025-01-24 17:06:46.848875	128.0	27.4	-74.7	5.8
2025-01-24 17:06:49.112176	127.7	27.8	-75.0	6.1
2025-01-24 17:06:51.386390	127.4	28.2	-76.0	3.4
2025-01-24 17:06:53.660559	127.1	28.5	-75.3	4.1
2025-01-24 17:06:55.921865	126.8	28.9	-74.5	4.7
2025-01-24 17:06:58.186606	126.4	29.3	-75.9	5.2
2025-01-24 17:07:00.449020	126.1	29.6	-74.9	5.0
2025-01-24 17:07:02.713968	125.7	30.0	-75.7	4.8
2025-01-24 17:07:04.975960	125.4	30.4	-74.4	3.9
2025-01-24 17:07:07.252514	125.0	30.8	-74.7	6.1
2025-01-24 17:07:09.518573	124.6	31.2	-74.7	5.5
2025-01-24 17:07:11.779492	124.2	31.6	-75.8	6.0
2025-01-24 17:07:14.053122	123.8	32.0	-74.8	7.8
2025-01-24 17:07:16.326195	123.4	32.4	-74.6	6.4
2025-01-24 17:07:18.611219	123.0	32.8	-75.1	5.8
2025-01-24 17:07:20.878857	122.6	33.2	-75.4	4.6
2025-01-24 17:07:23.166201	122.1	33.6	-75.0	5.5
2025-01-24 17:07:25.440634	121.7	34.0	-75.4	6.3
2025-01-24 17:07:27.713563	121.2	34.5	-76.0	4.4
2025-01-24 17:07:29.984516	120.7	34.9	-75.6	5.0
2025-01-24 17:07:32.275792	120.2	35.3	-74.9	4.1
2025-01-24 17:07:34.553165	119.7	35.8	-74.9	5.5
2025-01-24 17:07:36.815670	119.2	36.2	-75.2	5.3
2025-01-24 17:07:39.078752	118.7	36.6	-74.8	6.6
2025-01-24 17:07:41.369877	118.2	37.1	-75.4	7.2
2025-01-24 17:07:43.651535	117.6	37.5	-74.5	5.8
2025-01-24 17:07:45.942752	117.0	38.0	-75.6	5.1
2025-01-24 17:07:48.221327	116.4	38.4	-75.1	4.8
2025-01-24 17:07:50.490779	115.8	38.9	-75.1	5.5
2025-01-24 17:07:52.774986	115.2	39.3	-75.0	5.7
2025-01-24 17:07:55.048867	114.5	39.8	-74.9	2.3
2025-01-24 17:07:57.316410	113.9	40.2	-75.2	5.2
2025-01-24 17:07:59.607186	113.2	40.7	-74.6	4.1
2025-01-24 17:08:01.886608	112.5	41.2	-74.8	5.3
2025-01-24 17:08:04.168473	111.8	41.6	-74.8	6.7
2025-01-24 17:08:06.434874	111.0	42.1	-75.5	7.3
2025-01-24 17:08:08.710124	110.2	42.6	-75.6	12.5
2025-01-24 17:08:10.978791	109.5	43.0	-75.2	13.5
2025-01-24 17:08:13.265146	108.6	43.5	-75.1	13.1
2025-01-24 17:08:15.595760	107.8	43.9	-74.9	12.6
2025-01-24 17:08:17.876374	106.9	44.4	-74.9	6.8
2025-01-24 17:08:20.156385	106.0	44.9	-74.9	9.9
2025-01-24 17:08:22.424438	105.1	45.3	-74.8	8.0
2025-01-24 17:08:24.719264	104.2	45.8	-75.5	11.3
2025-01-24 17:08:26.988295	103.2	46.2	-75.7	14.4
2025-01-24 17:08:29.286659	102.2	46.7	-75.2	15.0
2025-01-24 17:08:31.574107	101.2	47.1	-74.9	14.0
2025-01-24 17:08:33.843267	100.1	47.5	-74.9	11.5
2025-01-24 17:08:36.132919	99.1	48.0	-74.9	9.9
2025-01-24 17:08:38.419346	97.9	48.4	-75.7	5.5
2025-01-24 17:08:40.696279	96.8	48.8	-75.1	6.9
2025-01-24 17:08:42.971745	95.6	49.2	-74.9	5.5
2025-01-24 17:08:45.263107	94.4	49.6	-74.7	6.1
2025-01-24 17:08:47.558500	93.2	50.0	-75.5	8.6
2025-01-24 17:08:49.850512	91.9	50.3	-75.0	9.1
2025-01-24 17:08:52.124323	90.6	50.7	-74.3	13.4
2025-01-24 17:08:54.401693	89.3	51.0	-75.1	14.1
2025-01-24 17:08:56.678097	87.9	51.4	-75.2	17.1
2025-01-24 17:08:58.959139	86.5	51.7	-74.6	16.4
2025-01-24 17:09:01.239157	85.1	52.0	-75.3	15.2
2025-01-24 17:09:03.506820	83.7	52.2	-75.4	14.8
2025-01-24 17:09:05.782379	82.2	52.5	-75.7	11.9
2025-01-24 17:09:08.045682	80.8	52.8	-74.1	13.2
2025-01-24 17:09:10.307793	79.2	53.0	-75.5	8.9
2025-01-24 17:09:12.606583	77.7	53.2	-74.9	12.3
2025-01-24 17:09:14.879701	76.1	53.4	-74.5	7.6
2025-01-24 17:09:17.157375	74.6	53.5	-75.0	10.8
2025-01-24 17:09:19.444773	73.0	53.7	-74.4	10.4
2025-01-24 17:09:21.726440	71.3	53.8	-74.2	6.8
2025-01-24 17:09:24.000126	69.7	53.9	-75.7	7.6
2025-01-24 17:09:26.293057	68.1	54.0	-74.7	5.9
2025-01-24 17:09:28.560455	66.5	54.0	-75.0	8.5
2025-01-24 17:09:30.824169	64.8	54.0	-75.5	4.7
2025-01-24 17:09:33.099098	63.2	54.0	-75.1	8.6
2025-01-24 17:09:35.366731	61.5	54.0	-74.8	5.5
2025-01-24 17:09:37.638693	59.9	54.0	-74.7	7.6
2025-01-24 17:09:39.902852	58.3	53.9	-75.0	4.1
2025-01-24 17:09:42.175104	56.7	53.8	-74.5	6.5
2025-01-24 17:09:44.464061	55.1	53.7	-74.4	7.6
2025-01-24 17:09:46.764012	53.4	53.6	-74.9	6.7
2025-01-24 17:09:49.055636	51.9	53.4	-75.6	8.1
2025-01-24 17:09:51.338593	50.3	53.2	-74.9	6.6
2025-01-24 17:09:53.623016	48.7	53.0	-75.0	6.1
2025-01-24 17:09:55.921174	47.2	52.8	-74.7	6.6
2025-01-24 17:09:58.204041	45.7	52.6	-74.9	6.9
2025-01-24 17:10:00.494075	44.2	52.3	-74.9	6.7
2025-01-24 17:10:02.790534	42.8	52.0	-75.4	6.9
2025-01-24 17:10:05.078055	41.4	51.7	-74.4	9.3
2025-01-24 17:10:07.378917	40.0	51.4	-75.6	9.2
2025-01-24 17:10:09.649431	38.6	51.1	-74.9	9.4
2025-01-24 17:10:11.929623	37.3	50.7	-74.2	11.4
2025-01-24 17:10:14.202272	36.0	50.4	-74.3	9.8
2025-01-24 17:10:16.485293	34.7	50.0	-74.7	11.4
2025-01-24 17:10:18.767711	33.5	49.6	-74.6	10.0
2025-01-24 17:10:21.034309	32.3	49.3	-74.6	10.7
2025-01-24 17:10:23.295469	31.1	48.9	-75.6	6.5
2025-01-24 17:10:25.556547	30.0	48.5	-74.7	8.3
2025-01-24 17:10:27.820242	28.9	48.0	-75.2	5.0
2025-01-24 17:10:30.088251	27.8	47.6	-74.4	8.0
2025-01-24 17:10:32.351930	26.8	47.2	-75.2	7.2
2025-01-24 17:10:34.615155	25.8	46.8	-74.4	10.3
2025-01-24 17:10:36.885156	24.8	46.3	-75.1	9.8
2025-01-24 17:10:39.159396	23.8	45.9	-74.8	9.3
2025-01-24 17:10:41.428430	22.9	45.4	-75.9	10.8
2025-01-24 17:10:43.692862	22.0	45.0	-75.9	7.5
2025-01-24 17:10:45.945289	21.1	44.5	-76.0	6.7
2025-01-24 17:10:48.221926	20.2	44.1	-75.4	5.1
2025-01-24 17:10:50.483383	19.4	43.6	-75.0	5.0
2025-01-24 17:10:52.738084	18.6	43.2	-75.4	5.9
2025-01-24 17:10:54.996543	17.8	42.7	-75.6	8.2
2025-01-24 17:10:57.258151	17.0	42.3	-74.5	8.9
2025-01-24 17:10:59.533570	16.3	41.8	-74.6	9.0
2025-01-24 17:11:01.798018	15.6	41.3	-74.9	5.9
2025-01-24 17:11:04.062783	14.9	40.9	-75.5	7.5
2025-01-24 17:11:06.343455	14.2	40.4	-75.7	4.8
2025-01-24 17:11:08.626364	13.5	40.0	-75.4	6.5
2025-01-24 17:11:10.908151	12.8	39.5	-75.3	6.6
2025-01-24 17:11:13.176338	12.2	39.1	-74.5	6.1
2025-01-24 17:11:15.433389	11.6	38.6	-75.4	5.6
2025-01-24 17:11:17.700554	11.0	38.2	-75.0	4.7
2025-01-24 17:11:19.966957	10.4	37.7	-74.6	5.5
2025-01-24 17:11:22.228285	9.9	37.3	-74.3	5.4
2025-01-24 17:11:24.492821	9.3	36.9	-74.5	3.3
2025-01-24 17:11:26.756845	8.8	36.4	-75.2	6.5
2025-01-24 17:11:29.026343	8.3	36.0	-74.5	7.9
2025-01-24 17:11:31.299630	7.8	35.6	-74.4	9.5
2025-01-24 17:11:33.564972	7.3	35.1	-74.8	9.7
2025-01-24 17:11:35.838263	6.8	34.7	-75.3	7.7
2025-01-24 17:11:38.107088	6.3	34.3	-75.1	8.3
2025-01-24 17:11:40.380414	5.9	33.9	-74.0	9.7
2025-01-24 17:11:42.637845	5.4	33.5	-75.2	12.1
2025-01-24 17:11:44.926660	5.0	33.0	-74.6	10.3
2025-01-24 17:11:47.207077	4.6	32.6	-75.3	6.1
2025-01-24 17:11:49.479224	4.2	32.2	-74.9	4.6
2025-01-24 17:11:51.746322	3.8	31.8	-74.6	4.4
2025-01-24 17:11:54.009686	3.4	31.4	-74.6	7.3
2025-01-24 17:11:56.269046	3.0	31.0	-74.6	9.2
2025-01-24 17:11:58.540297	2.6	30.7	-74.2	7.9
2025-01-24 17:12:00.803962	2.3	30.3	-74.6	7.1
2025-01-24 17:12:03.065088	1.9	29.9	-75.0	6.6
2025-01-24 17:12:05.343711	1.6	29.5	-74.5	8.4
2025-01-24 17:12:07.611357	1.2	29.1	-74.9	9.0
2025-01-24 17:12:09.877210	0.9	28.8	-75.1	9.2
2025-01-24 17:12:12.142765	0.6	28.4	-74.0	5.3
2025-01-24 17:12:14.409742	0.3	28.1	-75.1	3.8
2025-01-24 17:12:16.674406	360.0	27.7	-74.9	5.4
2025-01-24 17:12:18.937773	359.7	27.3	-74.0	6.3
2025-01-24 17:12:21.200927	359.4	27.0	-75.1	7.8
2025-01-24 17:12:23.465606	359.1	26.7	-73.8	7.7
2025-01-24 17:12:25.752108	358.8	26.3	-75.1	5.0
2025-01-24 17:12:28.024678	358.5	26.0	-74.3	7.6
2025-01-24 17:12:30.283977	358.3	25.6	-75.2	5.0
2025-01-24 17:12:32.563996	358.0	25.3	-75.1	9.5
2025-01-24 17:12:34.823352	357.8	25.0	-74.6	3.9
2025-01-24 17:12:37.094337	357.5	24.6	-74.3	5.1
2025-01-24 17:12:39.366209	357.3	24.3	-75.2	6.2
2025-01-24 17:12:41.627566	357.0	24.0	-74.6	4.1
2025-01-24 17:12:43.898370	356.8	23.7	-75.2	6.4
2025-01-24 17:12:46.186713	356.5	23.4	-74.9	8.4
2025-01-24 17:12:48.451818	356.3	23.1	-74.8	4.8
2025-01-24 17:12:50.725715	356.1	22.8	-74.9	6.4
2025-01-24 17:12:52.989551	355.9	22.5	-74.6	6.6
2025-01-24 17:12:55.260643	355.7	22.2	-74.0	7.2
2025-01-24 17:12:57.528167	355.5	21.9	-75.4	7.1
2025-01-24 17:12:59.798238	355.2	21.6	-75.4	4.4
2025-01-24 17:13:02.071676	355.0	21.3	-74.7	3.6
2025-01-24 17:13:04.340741	354.8	21.0	-74.1	5.3
2025-01-24 17:13:06.609882	354.7	20.7	-75.6	7.2
2025-01-24 17:13:08.870225	354.5	20.4	-74.5	7.1
2025-01-24 17:13:11.173410	354.3	20.1	-74.8	6.3
2025-01-24 17:13:13.443243	354.1	19.9	-74.8	4.9
2025-01-24 17:13:15.706222	353.9	19.6	-74.7	3.6
2025-01-24 17:13:17.987757	353.7	19.3	-74.5	6.1
2025-01-24 17:13:20.258470	353.6	19.1	-74.9	4.8
2025-01-24 17:13:22.537645	353.4	18.8	-75.2	3.6
2025-01-24 17:13:24.807012	353.2	18.5	-74.9	5.0
2025-01-24 17:13:27.078225	353.1	18.3	-75.4	5.3
2025-01-24 17:13:29.348579	352.9	18.0	-74.4	5.4
2025-01-24 17:13:31.634875	352.7	17.7	-75.0	4.6
2025-01-24 17:13:33.910338	352.6	17.5	-74.4	4.4
2025-01-24 17:13:36.185160	352.4	17.2	-74.9	6.3
2025-01-24 17:13:38.471105	352.3	17.0	-73.9	5.2
2025-01-24 17:13:40.767301	352.1	16.7	-75.3	2.3
2025-01-24 17:13:43.049263	352.0	16.5	-75.8	4.8
2025-01-24 17:13:45.320019	351.8	16.3	-75.5	5.3
2025-01-24 17:13:47.600298	351.7	16.0	-76.1	4.2
2025-01-24 17:13:49.873609	351.6	15.8	-74.4	5.8
2025-01-24 17:13:52.140660	351.4	15.5	-75.0	3.0
2025-01-24 17:13:54.426596	351.3	15.3	-74.2	5.3
2025-01-24 17:13:56.709854	351.2	15.1	-74.4	5.0
#Closed at: 2025-01-24 17:05:03.927059