passes_logs/2025/01/24/LEX_test/LEX_test__20250124_190832_NOAA_18_rec.log

#Pass ID: 20250124_190832_NOAA 18
#Satellite: NOAA 18
#Configuration: NOAA 18
#Start time: 2025-01-24 19:08:37.174151

#LorettStation: 1.0.0 05.05.2024
#Station: LEX_test
#Location: 44.064575 lon 56.356522 lat
#TLE: 1 28654U 05018A   25024.43580291  .00000558  00000+0  31984-3 0  9999
#TLE: 2 28654  98.8552 105.3959 0014778 153.0474 207.1468 14.13496447 14519

#Time	Az	El	Level	SNR
2025-01-24 19:08:38.332375	172.6	15.1	-73.8	5.5
2025-01-24 19:08:40.623075	172.7	15.4	-73.1	6.6
2025-01-24 19:08:42.915841	172.8	15.6	-73.2	4.1
2025-01-24 19:08:45.207779	172.8	15.9	-73.7	3.4
2025-01-24 19:08:47.501819	172.9	16.1	-73.8	6.0
2025-01-24 19:08:49.796523	173.0	16.4	-73.0	5.6
2025-01-24 19:08:52.099297	173.1	16.6	-73.6	5.0
2025-01-24 19:08:54.392317	173.2	16.9	-73.3	6.8
2025-01-24 19:08:56.691391	173.3	17.1	-74.5	4.7
2025-01-24 19:08:58.979714	173.4	17.4	-73.7	4.4
2025-01-24 19:09:01.272158	173.4	17.6	-73.4	4.8
2025-01-24 19:09:03.567392	173.5	17.9	-73.8	4.2
2025-01-24 19:09:05.861220	173.6	18.2	-73.8	6.5
2025-01-24 19:09:08.154786	173.7	18.5	-73.7	8.2
2025-01-24 19:09:10.447604	173.8	18.7	-74.4	3.7
2025-01-24 19:09:12.741338	173.9	19.0	-73.5	5.4
2025-01-24 19:09:15.031205	174.0	19.3	-73.7	6.0
2025-01-24 19:09:17.322815	174.1	19.6	-73.8	7.7
2025-01-24 19:09:19.616698	174.2	19.9	-74.0	5.3
2025-01-24 19:09:21.910630	174.3	20.2	-73.6	4.6
2025-01-24 19:09:24.202830	174.4	20.4	-73.6	3.1
2025-01-24 19:09:26.495486	174.5	20.7	-73.8	8.3
2025-01-24 19:09:28.790206	174.6	21.0	-72.8	7.2
2025-01-24 19:09:31.081593	174.7	21.3	-74.3	6.2
2025-01-24 19:09:33.376403	174.9	21.7	-73.6	5.3
2025-01-24 19:09:35.670199	175.0	22.0	-73.5	5.9
2025-01-24 19:09:37.965646	175.1	22.3	-73.9	8.5
2025-01-24 19:09:40.260121	175.2	22.6	-73.8	5.3
2025-01-24 19:09:42.550902	175.3	22.9	-72.9	5.0
2025-01-24 19:09:44.842969	175.5	23.3	-74.6	4.6
2025-01-24 19:09:47.136594	175.6	23.6	-73.9	8.6
2025-01-24 19:09:49.430547	175.7	23.9	-73.5	8.6
2025-01-24 19:09:51.711682	175.8	24.3	-74.1	6.7
2025-01-24 19:09:54.010273	176.0	24.6	-73.4	7.0
2025-01-24 19:09:56.300008	176.1	24.9	-73.0	6.6
2025-01-24 19:09:58.601306	176.3	25.3	-74.0	9.4
2025-01-24 19:10:00.891953	176.4	25.7	-73.3	6.5
2025-01-24 19:10:03.181863	176.5	26.0	-73.5	4.0
2025-01-24 19:10:05.474713	176.7	26.4	-74.2	7.2
2025-01-24 19:10:07.768299	176.9	26.8	-73.5	8.1
2025-01-24 19:10:10.058810	177.0	27.1	-73.4	7.0
2025-01-24 19:10:12.350189	177.2	27.5	-74.1	6.7
2025-01-24 19:10:14.645380	177.3	27.9	-73.7	9.6
2025-01-24 19:10:16.940521	177.5	28.3	-73.4	7.6
2025-01-24 19:10:19.232515	177.7	28.7	-74.8	8.1
2025-01-24 19:10:21.524706	177.8	29.1	-73.6	7.7
2025-01-24 19:10:23.820000	178.0	29.5	-73.0	7.7
2025-01-24 19:10:26.111416	178.2	29.9	-73.9	7.2
2025-01-24 19:10:28.405325	178.4	30.3	-72.9	6.5
2025-01-24 19:10:30.699173	178.6	30.8	-74.4	8.1
2025-01-24 19:10:32.992903	178.8	31.2	-73.9	6.9
2025-01-24 19:10:35.281334	179.0	31.6	-74.4	8.4
2025-01-24 19:10:37.573279	179.2	32.1	-73.7	5.0
2025-01-24 19:10:39.864000	179.4	32.5	-74.1	7.8
2025-01-24 19:10:42.140750	179.6	33.0	-73.9	8.2
2025-01-24 19:10:44.436190	179.9	33.4	-74.0	6.8
2025-01-24 19:10:46.721442	180.1	33.9	-73.6	6.1
2025-01-24 19:10:49.007738	180.3	34.4	-73.7	6.5
2025-01-24 19:10:51.294662	180.6	34.8	-74.5	7.2
2025-01-24 19:10:53.580222	180.8	35.3	-73.9	7.6
2025-01-24 19:10:55.873615	181.1	35.8	-74.1	6.6
2025-01-24 19:10:58.175309	181.4	36.3	-74.3	5.3
2025-01-24 19:11:00.471261	181.6	36.8	-73.9	6.3
2025-01-24 19:11:02.771690	181.9	37.4	-73.6	7.5
2025-01-24 19:11:05.077968	182.2	37.9	-73.8	6.7
2025-01-24 19:11:07.371306	182.5	38.4	-73.2	6.0
2025-01-24 19:11:09.664045	182.8	39.0	-74.7	5.1
2025-01-24 19:11:11.958415	183.2	39.5	-73.6	3.2
2025-01-24 19:11:14.251315	183.5	40.1	-74.5	6.2
2025-01-24 19:11:16.545884	183.8	40.6	-74.0	6.8
2025-01-24 19:11:18.830250	184.2	41.2	-74.1	10.2
2025-01-24 19:11:21.116087	184.6	41.8	-73.8	7.0
2025-01-24 19:11:23.405568	184.9	42.3	-74.0	5.4
2025-01-24 19:11:25.696631	185.3	42.9	-73.0	8.8
2025-01-24 19:11:27.991411	185.8	43.5	-74.0	8.7
2025-01-24 19:11:30.283774	186.2	44.1	-73.6	10.2
2025-01-24 19:11:32.578668	186.6	44.8	-74.1	8.3
2025-01-24 19:11:34.876348	187.1	45.4	-73.4	7.0
2025-01-24 19:11:37.171190	187.6	46.0	-74.5	10.8
2025-01-24 19:11:39.465555	188.1	46.7	-73.9	7.6
2025-01-24 19:11:41.758722	188.6	47.3	-73.6	12.8
2025-01-24 19:11:44.045789	189.1	48.0	-73.5	11.4
2025-01-24 19:11:46.339237	189.7	48.6	-74.6	13.7
2025-01-24 19:11:48.633864	190.3	49.3	-74.2	13.4
2025-01-24 19:11:50.923037	190.9	50.0	-73.9	8.1
2025-01-24 19:11:53.215778	191.5	50.6	-74.6	15.3
2025-01-24 19:11:55.505697	192.2	51.3	-73.8	9.6
2025-01-24 19:11:57.794492	192.9	52.0	-73.7	13.9
2025-01-24 19:12:00.083356	193.6	52.7	-73.2	12.7
2025-01-24 19:12:02.374320	194.4	53.4	-74.4	14.4
2025-01-24 19:12:04.666738	195.2	54.1	-73.4	10.4
2025-01-24 19:12:06.959691	196.1	54.9	-74.1	10.0
2025-01-24 19:12:09.252427	197.0	55.6	-73.5	13.1
2025-01-24 19:12:11.546407	197.9	56.3	-74.0	8.4
2025-01-24 19:12:13.836063	198.9	57.0	-73.5	16.5
2025-01-24 19:12:16.123187	199.9	57.7	-74.2	14.8
2025-01-24 19:12:18.418125	201.0	58.4	-74.4	16.4
2025-01-24 19:12:20.706628	202.2	59.2	-73.4	16.3
2025-01-24 19:12:22.998209	203.4	59.9	-75.2	18.1
2025-01-24 19:12:25.288589	204.7	60.6	-74.3	17.3
2025-01-24 19:12:27.579520	206.1	61.3	-74.4	13.5
2025-01-24 19:12:29.868985	207.5	62.0	-73.9	11.2
2025-01-24 19:12:32.161815	209.0	62.7	-74.6	16.6
2025-01-24 19:12:34.454221	210.7	63.4	-73.6	8.5
2025-01-24 19:12:36.750768	212.4	64.0	-73.2	17.1
2025-01-24 19:12:39.045598	214.2	64.7	-74.6	11.9
2025-01-24 19:12:41.338367	216.1	65.3	-73.6	15.0
2025-01-24 19:12:43.627648	218.1	65.9	-73.6	15.9
2025-01-24 19:12:45.919598	220.2	66.5	-73.7	14.2
2025-01-24 19:12:48.204509	222.5	67.1	-74.4	17.0
2025-01-24 19:12:50.491960	224.9	67.6	-73.8	17.5
2025-01-24 19:12:52.783587	227.4	68.1	-74.2	16.9
2025-01-24 19:12:55.076314	230.0	68.5	-73.8	16.0
2025-01-24 19:12:57.365693	232.7	68.9	-74.1	14.8
2025-01-24 19:12:59.659475	235.5	69.3	-73.3	14.5
2025-01-24 19:13:01.948775	238.5	69.6	-73.3	12.8
2025-01-24 19:13:04.243942	241.5	69.9	-74.1	14.7
2025-01-24 19:13:06.535497	244.6	70.1	-74.1	11.6
2025-01-24 19:13:08.838590	247.8	70.3	-74.6	14.0
2025-01-24 19:13:11.125718	251.1	70.4	-74.2	11.0
2025-01-24 19:13:13.429142	254.3	70.5	-73.8	10.3
2025-01-24 19:13:15.715366	257.6	70.5	-74.7	12.3
2025-01-24 19:13:18.010487	260.9	70.4	-73.8	10.5
2025-01-24 19:13:20.302348	264.1	70.3	-73.5	13.7
2025-01-24 19:13:22.594081	267.2	70.1	-74.9	12.9
2025-01-24 19:13:24.886538	270.3	69.8	-73.9	12.4
2025-01-24 19:13:27.179309	273.3	69.5	-74.1	13.9
2025-01-24 19:13:29.467022	276.2	69.2	-74.1	13.8
2025-01-24 19:13:31.758304	279.1	68.8	-74.8	16.3
2025-01-24 19:13:34.051296	281.7	68.4	-73.7	13.8
2025-01-24 19:13:36.345069	284.3	67.9	-73.7	12.5
2025-01-24 19:13:38.637001	286.8	67.4	-74.5	12.9
2025-01-24 19:13:40.916807	289.1	66.9	-74.8	14.9
2025-01-24 19:13:43.212566	291.3	66.3	-73.8	13.7
2025-01-24 19:13:45.500821	293.4	65.7	-73.8	13.3
2025-01-24 19:13:47.793365	295.4	65.1	-74.2	14.3
2025-01-24 19:13:50.089838	297.3	64.5	-74.0	9.9
2025-01-24 19:13:52.377084	299.0	63.8	-74.2	8.3
2025-01-24 19:13:54.665810	300.7	63.1	-73.5	13.3
2025-01-24 19:13:56.962668	302.3	62.5	-74.3	8.2
2025-01-24 19:13:59.248857	303.8	61.8	-73.5	12.9
2025-01-24 19:14:01.539150	305.2	61.1	-74.4	9.1
2025-01-24 19:14:03.830096	306.6	60.4	-74.3	15.8
2025-01-24 19:14:06.119738	307.8	59.7	-74.3	12.5
2025-01-24 19:14:08.414301	309.0	58.9	-74.3	12.7
2025-01-24 19:14:10.705430	310.2	58.2	-74.4	13.6
2025-01-24 19:14:12.994908	311.3	57.5	-74.2	14.3
2025-01-24 19:14:15.287270	312.3	56.8	-73.6	13.9
2025-01-24 19:14:17.584524	313.3	56.1	-74.7	12.3
2025-01-24 19:14:19.876504	314.2	55.3	-73.7	13.0
2025-01-24 19:14:22.171317	315.1	54.6	-73.8	15.2
2025-01-24 19:14:24.461687	315.9	53.9	-74.8	12.5
2025-01-24 19:14:26.754309	316.7	53.2	-74.1	13.2
2025-01-24 19:14:29.045272	317.5	52.5	-74.1	13.9
2025-01-24 19:14:31.326501	318.2	51.8	-73.6	13.6
2025-01-24 19:14:33.616343	318.9	51.1	-73.5	8.9
2025-01-24 19:14:35.906218	319.5	50.4	-74.7	7.9
2025-01-24 19:14:38.195468	320.2	49.8	-74.3	10.4
2025-01-24 19:14:40.484724	320.8	49.1	-73.4	5.9
2025-01-24 19:14:42.779644	321.3	48.4	-74.4	11.0
2025-01-24 19:14:45.073623	321.9	47.8	-74.1	7.1
2025-01-24 19:14:47.362040	322.4	47.1	-73.8	10.7
2025-01-24 19:14:49.652776	323.0	46.5	-73.6	9.8
2025-01-24 19:14:51.955087	323.4	45.8	-73.8	8.1
2025-01-24 19:14:54.242656	323.9	45.2	-73.8	9.3
2025-01-24 19:14:56.535528	324.4	44.6	-73.8	6.0
2025-01-24 19:14:58.828022	324.8	44.0	-74.4	9.5
2025-01-24 19:15:01.130527	325.2	43.4	-74.8	6.8
2025-01-24 19:15:03.421509	325.7	42.8	-74.0	7.8
2025-01-24 19:15:05.722845	326.0	42.2	-73.6	6.5
2025-01-24 19:15:08.017644	326.4	41.6	-74.9	4.4
2025-01-24 19:15:10.310006	326.8	41.0	-74.3	5.1
2025-01-24 19:15:12.599000	327.1	40.5	-74.2	4.8
2025-01-24 19:15:14.890445	327.5	39.9	-74.4	3.6
2025-01-24 19:15:17.180244	327.8	39.3	-74.9	5.8
2025-01-24 19:15:19.477607	328.1	38.8	-74.3	5.8
2025-01-24 19:15:21.770035	328.5	38.3	-74.1	6.3
2025-01-24 19:15:24.069442	328.8	37.7	-74.1	4.9
2025-01-24 19:15:26.359320	329.0	37.2	-73.9	4.3
2025-01-24 19:15:28.658678	329.3	36.7	-74.0	6.8
2025-01-24 19:15:30.957292	329.6	36.2	-74.1	6.5
2025-01-24 19:15:33.252055	329.9	35.7	-75.1	5.2
2025-01-24 19:15:35.545629	330.1	35.2	-74.1	5.6
2025-01-24 19:15:37.837114	330.4	34.7	-73.7	5.8
2025-01-24 19:15:40.130000	330.6	34.2	-74.8	7.9
2025-01-24 19:15:42.417145	330.9	33.8	-73.8	8.2
2025-01-24 19:15:44.709905	331.1	33.3	-74.1	6.8
2025-01-24 19:15:47.003492	331.3	32.8	-74.0	7.1
2025-01-24 19:15:49.295981	331.5	32.4	-75.1	8.9
2025-01-24 19:15:51.588447	331.8	31.9	-74.5	6.6
2025-01-24 19:15:53.882226	332.0	31.5	-74.3	8.9
2025-01-24 19:15:56.174774	332.2	31.1	-74.5	6.3
2025-01-24 19:15:58.466281	332.4	30.6	-74.4	4.0
2025-01-24 19:16:00.750640	332.6	30.2	-74.9	8.5
2025-01-24 19:16:03.043206	332.7	29.8	-74.6	5.8
2025-01-24 19:16:05.332950	332.9	29.4	-74.5	6.2
2025-01-24 19:16:07.626558	333.1	29.0	-74.0	7.9
2025-01-24 19:16:09.920845	333.3	28.6	-74.8	6.6
2025-01-24 19:16:12.211294	333.5	28.2	-74.7	5.7
2025-01-24 19:16:14.505028	333.6	27.8	-73.6	4.7
2025-01-24 19:16:16.796894	333.8	27.4	-75.0	6.3
2025-01-24 19:16:19.090328	333.9	27.0	-73.7	5.5
2025-01-24 19:16:21.383230	334.1	26.7	-74.1	3.3
2025-01-24 19:16:23.678944	334.3	26.3	-74.8	6.3
2025-01-24 19:16:25.969143	334.4	25.9	-74.1	5.5
2025-01-24 19:16:28.262880	334.6	25.6	-74.0	6.9
2025-01-24 19:16:30.555676	334.7	25.2	-74.7	6.8
2025-01-24 19:16:32.849602	334.8	24.9	-74.0	6.5
2025-01-24 19:16:35.142249	335.0	24.5	-74.8	4.7
2025-01-24 19:16:37.434825	335.1	24.2	-74.4	4.8
2025-01-24 19:16:39.724146	335.2	23.8	-74.4	6.4
2025-01-24 19:16:42.012932	335.4	23.5	-73.8	5.7
2025-01-24 19:16:44.307985	335.5	23.2	-74.9	3.1
2025-01-24 19:16:46.599240	335.6	22.9	-74.8	5.4
2025-01-24 19:16:48.892211	335.7	22.5	-73.8	4.6
2025-01-24 19:16:51.184967	335.9	22.2	-75.1	3.3
2025-01-24 19:16:53.478884	336.0	21.9	-73.7	3.0
2025-01-24 19:16:55.771357	336.1	21.6	-74.8	3.7
2025-01-24 19:16:58.072235	336.2	21.3	-74.8	4.7
2025-01-24 19:17:00.364038	336.3	21.0	-74.0	4.3
2025-01-24 19:17:02.658913	336.4	20.7	-74.1	6.1
2025-01-24 19:17:04.951897	336.5	20.4	-74.9	3.6
2025-01-24 19:17:07.243913	336.7	20.1	-74.0	6.3
2025-01-24 19:17:09.546934	336.8	19.8	-74.4	4.3
2025-01-24 19:17:11.841779	336.9	19.5	-74.6	4.8
2025-01-24 19:17:14.135606	337.0	19.2	-73.9	3.6
2025-01-24 19:17:16.429555	337.1	19.0	-74.9	3.1
2025-01-24 19:17:18.724183	337.2	18.7	-74.4	1.2
2025-01-24 19:17:21.016910	337.3	18.4	-73.9	5.4
2025-01-24 19:17:23.309957	337.4	18.1	-74.8	4.6
2025-01-24 19:17:25.603098	337.4	17.9	-74.4	2.8
2025-01-24 19:17:27.895614	337.5	17.6	-74.4	3.7
2025-01-24 19:17:30.189444	337.6	17.3	-74.6	4.2
2025-01-24 19:17:32.480855	337.7	17.1	-73.7	4.7
2025-01-24 19:17:34.772288	337.8	16.8	-74.2	6.0
2025-01-24 19:17:37.059913	337.9	16.6	-73.9	3.3
2025-01-24 19:17:39.347916	338.0	16.3	-74.7	5.2
2025-01-24 19:17:41.641803	338.1	16.1	-73.7	4.1
2025-01-24 19:17:43.930731	338.1	15.8	-74.7	3.0
2025-01-24 19:17:46.223877	338.2	15.6	-74.6	3.7
2025-01-24 19:17:48.519038	338.3	15.3	-74.5	1.8
2025-01-24 19:17:50.812647	338.4	15.1	-75.3	3.2
#Closed at: 2025-01-24 19:08:32.178030