passes_logs/2026/01/03/PlanumMoscow/PlanumMoscow__20260103_104517_METEOR-M2_4_rec.log

#Pass ID: 20260103_104517_METEOR-M2 4
#Satellite: METEOR-M2 4
#Configuration: METEOR-M2 4
#Start time: 2026-01-03 10:45:22.761071

#LorettStation: 1.0.0 05.05.2024
#Station: PlanumMoscow
#Location: 37.6253844 lon 55.6713361 lat
#TLE: 1 59051U 24039A   25293.94737965  .00000087  00000+0  58459-4 0  9998
#TLE: 2 59051  98.6671 251.7071 0007726 135.4772 224.7028 14.22388966 85257

#Time	Az	El	Level	SNR
2026-01-03 10:49:01.253015	129.6	28.2	-64.2	14.0
2026-01-03 10:49:03.485031	129.2	28.5	-63.6	11.4
2026-01-03 10:49:05.719542	128.9	28.9	-63.5	9.6
2026-01-03 10:49:07.954053	128.6	29.3	-62.7	11.6
2026-01-03 10:49:10.189061	128.3	29.7	-64.8	14.8
2026-01-03 10:49:12.424573	127.9	30.1	-62.8	13.7
2026-01-03 10:49:14.662086	127.6	30.4	-64.6	14.5
2026-01-03 10:49:16.899598	127.2	30.8	-64.0	11.9
2026-01-03 10:49:19.134102	126.8	31.2	-62.6	11.3
2026-01-03 10:49:21.377112	126.4	31.6	-62.4	10.4
2026-01-03 10:49:23.612119	126.0	32.0	-62.3	11.1
2026-01-03 10:49:25.849136	125.6	32.4	-61.7	9.3
2026-01-03 10:49:28.087649	125.2	32.9	-62.2	11.5
2026-01-03 10:49:30.328658	124.8	33.3	-62.1	10.8
2026-01-03 10:49:32.570172	124.4	33.7	-63.6	12.1
2026-01-03 10:49:34.808180	123.9	34.1	-64.0	13.9
2026-01-03 10:49:37.043202	123.5	34.5	-62.2	9.8
2026-01-03 10:49:39.278724	123.0	35.0	-64.5	12.7
2026-01-03 10:49:41.514740	122.5	35.4	-63.9	8.8
2026-01-03 10:49:43.751765	122.0	35.9	-63.0	10.6
2026-01-03 10:49:45.988277	121.5	36.3	-62.6	7.8
2026-01-03 10:49:48.230294	121.0	36.7	-63.8	12.0
2026-01-03 10:49:50.467302	120.5	37.2	-64.8	13.0
2026-01-03 10:49:52.708816	119.9	37.6	-63.0	5.2
2026-01-03 10:49:54.950841	119.3	38.1	-62.9	7.4
2026-01-03 10:49:57.191355	118.7	38.6	-65.1	11.8
2026-01-03 10:49:59.427859	118.1	39.0	-65.1	12.9
2026-01-03 10:50:01.666867	117.5	39.5	-65.3	12.1
2026-01-03 10:50:03.905380	116.9	39.9	-65.0	12.6
2026-01-03 10:50:06.138892	116.2	40.4	-65.5	11.6
2026-01-03 10:50:08.372907	115.6	40.9	-65.2	11.7
2026-01-03 10:50:10.613429	114.9	41.4	-64.4	6.7
2026-01-03 10:50:12.856943	114.1	41.8	-64.5	11.5
2026-01-03 10:50:15.102449	113.4	42.3	-64.3	11.9
2026-01-03 10:50:17.346963	112.6	42.8	-65.3	10.7
2026-01-03 10:50:19.590973	111.9	43.3	-65.5	11.2
2026-01-03 10:50:21.832486	111.0	43.7	-65.2	10.4
2026-01-03 10:50:24.071007	110.2	44.2	-63.9	11.9
2026-01-03 10:50:26.308024	109.4	44.7	-65.0	13.1
2026-01-03 10:50:28.548537	108.5	45.1	-64.8	11.9
2026-01-03 10:50:30.789059	107.6	45.6	-65.1	12.3
2026-01-03 10:50:33.030572	106.6	46.1	-65.5	10.2
2026-01-03 10:50:35.269589	105.7	46.5	-65.6	11.2
2026-01-03 10:50:37.510093	104.7	47.0	-65.5	12.1
2026-01-03 10:50:39.747597	103.7	47.4	-66.1	12.3
2026-01-03 10:50:41.990607	102.6	47.9	-65.7	11.2
2026-01-03 10:50:44.229120	101.5	48.3	-66.2	11.3
2026-01-03 10:50:46.467640	100.4	48.8	-65.5	10.2
2026-01-03 10:50:48.709657	99.3	49.2	-64.5	9.3
2026-01-03 10:50:50.948675	98.1	49.6	-64.7	9.2
2026-01-03 10:50:53.186179	96.9	50.0	-65.4	10.9
2026-01-03 10:50:55.426701	95.6	50.4	-65.1	10.3
2026-01-03 10:50:57.666223	94.4	50.8	-65.6	10.5
2026-01-03 10:50:59.903727	93.0	51.2	-65.5	9.0
2026-01-03 10:51:02.145737	91.7	51.5	-65.3	9.7
2026-01-03 10:51:04.387241	90.3	51.9	-64.8	8.3
2026-01-03 10:51:06.628250	88.9	52.2	-66.0	9.5
2026-01-03 10:51:08.870259	87.5	52.5	-65.0	6.9
2026-01-03 10:51:11.112277	86.0	52.8	-64.4	8.2
2026-01-03 10:51:13.353800	84.5	53.1	-64.8	8.2
2026-01-03 10:51:15.593817	83.0	53.3	-64.8	8.5
2026-01-03 10:51:17.834331	81.5	53.6	-64.6	8.7
2026-01-03 10:51:20.078349	79.9	53.8	-64.5	8.2
2026-01-03 10:51:22.320854	78.3	54.0	-64.7	9.5
2026-01-03 10:51:24.564369	76.7	54.2	-65.9	10.5
2026-01-03 10:51:26.808378	75.0	54.3	-64.5	10.1
2026-01-03 10:51:29.049908	73.4	54.5	-65.7	8.0
2026-01-03 10:51:31.294426	71.7	54.6	-64.7	6.2
2026-01-03 10:51:33.537941	70.0	54.6	-65.7	7.3
2026-01-03 10:51:35.781950	68.4	54.7	-65.8	5.4
2026-01-03 10:51:38.021959	66.7	54.7	-63.9	6.4
2026-01-03 10:51:40.264464	65.0	54.7	-62.5	4.2
2026-01-03 10:51:42.501968	63.3	54.7	-63.3	2.6
2026-01-03 10:51:44.736483	61.6	54.7	-64.1	7.0
2026-01-03 10:51:46.972499	59.9	54.6	-63.6	4.2
2026-01-03 10:51:49.209526	58.3	54.5	-64.7	6.4
2026-01-03 10:51:51.447551	56.6	54.4	-62.8	0.9
2026-01-03 10:51:53.687064	55.0	54.3	-62.1	2.0
2026-01-03 10:51:55.923072	53.3	54.1	-62.5	3.9
2026-01-03 10:51:58.162089	51.7	53.9	-62.2	1.8
2026-01-03 10:52:00.398602	50.2	53.7	-62.9	2.2
2026-01-03 10:52:02.636126	48.6	53.5	-61.6	0.4
2026-01-03 10:52:04.871134	47.1	53.2	-62.9	3.4
2026-01-03 10:52:07.114143	45.6	53.0	-63.5	6.4
2026-01-03 10:52:09.351160	44.1	52.7	-62.8	5.6
2026-01-03 10:52:11.587167	42.6	52.4	-62.7	1.9
2026-01-03 10:52:13.823697	41.2	52.1	-61.3	1.7
2026-01-03 10:52:16.063207	39.8	51.7	-61.2	0.0
2026-01-03 10:52:18.297214	38.5	51.4	-61.1	0.0
2026-01-03 10:52:20.531222	37.1	51.0	-61.7	0.0
2026-01-03 10:52:22.767734	35.9	50.7	-61.3	3.4
2026-01-03 10:52:25.002254	34.6	50.3	-62.7	4.7
2026-01-03 10:52:27.237757	33.4	49.9	-61.4	1.7
2026-01-03 10:52:29.476278	32.2	49.5	-59.4	0.0
2026-01-03 10:52:31.717288	31.0	49.0	-62.5	4.0
2026-01-03 10:52:33.953809	29.9	48.6	-62.2	3.7
2026-01-03 10:52:36.190818	28.8	48.2	-62.0	2.6
2026-01-03 10:52:38.429339	27.7	47.8	-61.4	3.7
2026-01-03 10:52:40.668866	26.7	47.3	-62.3	3.4
2026-01-03 10:52:42.908365	25.7	46.9	-61.4	2.7
2026-01-03 10:52:45.145373	24.7	46.4	-61.0	1.2
2026-01-03 10:52:47.383904	23.7	45.9	-62.0	3.9
2026-01-03 10:52:49.624417	22.8	45.5	-62.5	6.4
2026-01-03 10:52:51.861938	21.9	45.0	-62.3	3.5
2026-01-03 10:52:54.083951	21.1	44.5	-62.4	5.1
2026-01-03 10:52:56.321455	20.2	44.1	-62.9	4.4
2026-01-03 10:52:58.564464	19.4	43.6	-62.4	3.3
2026-01-03 10:53:00.807482	18.6	43.1	-59.2	0.0
2026-01-03 10:53:03.047004	17.8	42.7	-59.3	0.0
2026-01-03 10:53:05.283508	17.1	42.2	-61.1	2.0
2026-01-03 10:53:07.521523	16.3	41.7	-63.3	4.3
2026-01-03 10:53:09.759044	15.6	41.3	-63.0	6.4
2026-01-03 10:53:11.999061	15.0	40.8	-63.2	4.9
2026-01-03 10:53:14.241584	14.3	40.3	-60.4	2.8
2026-01-03 10:53:16.483593	13.6	39.9	-63.2	5.0
2026-01-03 10:53:18.723610	13.0	39.4	-62.6	5.4
2026-01-03 10:53:20.966620	12.4	38.9	-62.8	6.9
2026-01-03 10:53:23.206133	11.8	38.5	-63.3	7.2
2026-01-03 10:53:25.445653	11.2	38.0	-64.7	9.4
2026-01-03 10:53:27.688158	10.7	37.6	-62.1	5.4
2026-01-03 10:53:29.930663	10.1	37.1	-64.4	8.1
2026-01-03 10:53:32.174681	9.6	36.7	-64.4	7.5
2026-01-03 10:53:34.419195	9.1	36.2	-62.1	6.8
2026-01-03 10:53:36.663213	8.6	35.8	-62.7	7.0
2026-01-03 10:53:38.907222	8.1	35.4	-63.4	8.8
2026-01-03 10:53:41.149249	7.6	34.9	-62.9	6.8
2026-01-03 10:53:43.393754	7.1	34.5	-64.3	9.5
2026-01-03 10:53:45.634259	6.7	34.1	-63.4	8.0
2026-01-03 10:53:47.873771	6.2	33.6	-63.0	7.4
2026-01-03 10:53:50.112284	5.8	33.2	-61.2	8.6
2026-01-03 10:53:52.345804	5.4	32.8	-63.9	7.4
2026-01-03 10:53:54.580820	5.0	32.4	-64.4	7.3
2026-01-03 10:53:56.817829	4.6	32.0	-64.5	8.4
2026-01-03 10:53:59.055332	4.2	31.6	-64.0	9.2
2026-01-03 10:54:01.285851	3.8	31.2	-63.8	7.4
2026-01-03 10:54:03.522859	3.5	30.8	-64.8	10.4
2026-01-03 10:54:05.759867	3.1	30.4	-62.9	7.3
2026-01-03 10:54:07.997371	2.7	30.0	-64.2	9.2
2026-01-03 10:54:10.234884	2.4	29.7	-61.9	5.0
2026-01-03 10:54:12.472893	2.1	29.3	-63.0	7.1
2026-01-03 10:54:14.708405	1.7	28.9	-63.4	9.8
2026-01-03 10:54:16.947416	1.4	28.5	-64.0	8.5
2026-01-03 10:54:19.184423	1.1	28.2	-63.6	7.7
2026-01-03 10:54:21.421935	0.8	27.8	-64.4	9.0
2026-01-03 10:54:23.662440	0.5	27.5	-64.9	6.9
2026-01-03 10:54:25.900944	0.2	27.1	-61.8	4.8
2026-01-03 10:54:28.140457	359.9	26.8	-64.7	9.9
2026-01-03 10:54:30.378465	359.7	26.4	-62.0	4.4
2026-01-03 10:54:32.616977	359.4	26.1	-63.1	5.7
2026-01-03 10:54:34.856492	359.1	25.7	-63.3	6.3
2026-01-03 10:54:37.102006	358.9	25.4	-63.9	8.7
2026-01-03 10:54:39.341015	358.6	25.1	-63.1	7.3
2026-01-03 10:54:41.579022	358.4	24.7	-62.2	5.7
2026-01-03 10:54:43.817544	358.1	24.4	-64.2	9.0
2026-01-03 10:54:46.058057	357.9	24.1	-62.1	5.5
2026-01-03 10:54:48.294074	357.7	23.8	-63.6	5.4
2026-01-03 10:54:50.533083	357.4	23.5	-64.8	6.9
2026-01-03 10:54:52.774588	357.2	23.1	-63.4	6.4
2026-01-03 10:54:55.012605	357.0	22.8	-64.7	7.6
2026-01-03 10:54:57.250118	356.8	22.5	-63.3	5.2
2026-01-03 10:54:59.491136	356.6	22.2	-63.7	7.6
2026-01-03 10:55:01.733657	356.4	21.9	-63.5	5.7
2026-01-03 10:55:03.972674	356.2	21.6	-64.5	6.9
2026-01-03 10:55:06.210682	356.0	21.3	-63.4	3.7
2026-01-03 10:55:08.455187	355.8	21.1	-63.5	5.7
2026-01-03 10:55:10.698197	355.6	20.8	-63.9	6.8
2026-01-03 10:55:12.941711	355.4	20.5	-63.9	8.0
2026-01-03 10:55:15.186216	355.2	20.2	-65.3	8.8
2026-01-03 10:55:17.430226	355.0	19.9	-65.1	9.2
2026-01-03 10:55:19.673271	354.8	19.6	-65.3	8.7
2026-01-03 10:55:21.913289	354.7	19.4	-64.2	6.2
2026-01-03 10:55:24.150802	354.5	19.1	-66.0	7.0
2026-01-03 10:55:26.387314	354.3	18.8	-63.6	4.4
2026-01-03 10:55:28.625322	354.2	18.6	-65.0	6.0
2026-01-03 10:55:30.860834	354.0	18.3	-65.9	6.4
2026-01-03 10:55:33.098842	353.9	18.1	-65.3	7.9
2026-01-03 10:55:35.335354	353.7	17.8	-64.1	8.1
2026-01-03 10:55:37.574371	353.6	17.5	-63.5	6.3
2026-01-03 10:55:39.814380	353.4	17.3	-64.7	5.1
2026-01-03 10:55:42.052388	353.3	17.0	-64.3	6.9
2026-01-03 10:55:44.290901	353.1	16.8	-64.1	6.7
2026-01-03 10:55:46.524926	353.0	16.6	-63.2	3.4
2026-01-03 10:55:48.762438	352.8	16.3	-65.6	7.5
2026-01-03 10:55:51.000951	352.7	16.1	-64.0	4.5
2026-01-03 10:55:53.237455	352.6	15.8	-65.6	5.8
2026-01-03 10:55:55.470967	352.4	15.6	-65.6	5.7
2026-01-03 10:55:57.708984	352.3	15.4	-64.8	4.1
2026-01-03 10:55:59.945496	352.2	15.1	-65.6	5.0
2026-01-03 10:56:02.183018	352.0	14.9	-65.2	6.5
2026-01-03 10:56:04.425027	351.9	14.7	-64.7	6.0
2026-01-03 10:56:06.660042	351.8	14.4	-64.4	7.1
2026-01-03 10:56:08.898546	351.7	14.2	-63.0	4.6
2026-01-03 10:56:11.140556	351.6	14.0	-64.2	6.1
2026-01-03 10:56:13.382070	351.4	13.8	-63.1	2.1
2026-01-03 10:56:15.626096	351.3	13.6	-63.7	5.8
2026-01-03 10:56:17.865609	351.2	13.3	-63.9	5.7
2026-01-03 10:56:20.103130	351.1	13.1	-64.3	6.3
2026-01-03 10:56:22.347643	351.0	12.9	-63.4	5.1
2026-01-03 10:56:24.589662	350.9	12.7	-63.3	4.1
2026-01-03 10:56:26.833689	350.8	12.5	-64.6	5.8
2026-01-03 10:56:29.076212	350.7	12.3	-63.9	3.1
2026-01-03 10:56:31.320718	350.6	12.1	-64.5	3.2
2026-01-03 10:56:33.564232	350.5	11.9	-65.7	6.3
2026-01-03 10:56:35.804258	350.4	11.7	-65.5	5.1
2026-01-03 10:56:38.046772	350.3	11.5	-65.0	4.7
2026-01-03 10:56:40.290285	350.2	11.3	-63.1	1.5
2026-01-03 10:56:42.531293	350.1	11.1	-64.9	3.5
2026-01-03 10:56:44.770816	350.0	10.9	-61.1	0.0
2026-01-03 10:56:47.011848	349.9	10.7	-63.7	0.1
2026-01-03 10:56:49.251361	349.8	10.5	-65.1	2.1
2026-01-03 10:56:51.491389	349.7	10.3	-63.7	3.2
2026-01-03 10:56:53.730397	349.6	10.1	-64.0	1.0
2026-01-03 10:56:55.965909	349.5	9.9	-64.9	2.2
2026-01-03 10:56:58.203918	349.5	9.7	-65.0	2.2
2026-01-03 10:57:00.443935	349.4	9.5	-64.9	1.8
2026-01-03 10:57:02.681943	349.3	9.4	-64.6	0.0
2026-01-03 10:57:04.922457	349.2	9.2	-65.4	1.2
2026-01-03 10:57:07.158465	349.1	9.0	-64.8	0.0
2026-01-03 10:57:09.392489	349.0	8.8	-63.8	0.0
2026-01-03 10:57:11.632002	349.0	8.6	-63.8	0.0
2026-01-03 10:57:13.876517	348.9	8.5	-64.6	0.0
2026-01-03 10:57:16.110533	348.8	8.3	-64.6	0.0
2026-01-03 10:57:18.349045	348.7	8.1	-63.4	0.0
2026-01-03 10:57:20.587549	348.7	7.9	-64.5	0.0
2026-01-03 10:57:22.828063	348.6	7.7	-63.1	0.0
2026-01-03 10:57:25.063566	348.5	7.6	-64.1	0.0
2026-01-03 10:57:27.300088	348.4	7.4	-64.8	0.0
2026-01-03 10:57:29.536599	348.4	7.2	-65.6	2.5
2026-01-03 10:57:31.776609	348.3	7.1	-65.3	0.8
2026-01-03 10:57:34.012121	348.2	6.9	-62.5	0.0
2026-01-03 10:57:36.245624	348.2	6.7	-63.3	0.0
2026-01-03 10:57:38.479127	348.1	6.6	-64.4	0.0
2026-01-03 10:57:40.713647	348.0	6.4	-65.5	0.0
2026-01-03 10:57:42.955655	348.0	6.2	-64.8	0.0
2026-01-03 10:57:45.199170	347.9	6.1	-66.0	0.0
2026-01-03 10:57:47.443675	347.8	5.9	-68.5	0.0
2026-01-03 10:57:49.688189	347.8	5.7	-69.7	0.0
2026-01-03 10:57:51.931702	347.7	5.6	-69.9	0.0
2026-01-03 10:57:54.176712	347.6	5.4	-69.3	0.0
2026-01-03 10:57:56.421217	347.6	5.3	-71.0	0.0
2026-01-03 10:57:58.665227	347.5	5.1	-72.1	0.0
#Closed at: 2026-01-03 10:45:17.761843