passes_logs/2026/01/03/PlanumMoscow/PlanumMoscow__20260103_185540_METOP-C_rec.log

#Pass ID: 20260103_185540_METOP-C
#Satellite: METOP-C
#Configuration: METOP-C
#Start time: 2026-01-03 18:55:45.672212

#LorettStation: 1.0.0 05.05.2024
#Station: PlanumMoscow
#Location: 37.6253844 lon 55.6713361 lat
#TLE: 1 43689U 18087A   25293.88981035  .00000265  00000+0  14109-3 0  9997
#TLE: 2 43689  98.7006 352.4487 0002041 122.1097 238.0279 14.21482740360838

#Time	Az	El	Level	SNR
2026-01-03 18:59:24.108556	211.3	25.3	-65.9	0.4
2026-01-03 18:59:26.338563	211.8	25.6	-66.4	0.0
2026-01-03 18:59:28.570570	212.2	25.9	-66.0	0.1
2026-01-03 18:59:30.803082	212.7	26.1	-66.7	1.5
2026-01-03 18:59:33.036088	213.1	26.4	-66.5	0.0
2026-01-03 18:59:35.268095	213.6	26.7	-66.5	0.9
2026-01-03 18:59:37.501110	214.0	27.0	-66.0	0.0
2026-01-03 18:59:39.734118	214.5	27.3	-66.7	0.0
2026-01-03 18:59:41.967134	215.0	27.6	-66.6	0.0
2026-01-03 18:59:44.200654	215.5	27.9	-66.5	0.0
2026-01-03 18:59:46.432661	216.0	28.1	-66.4	0.0
2026-01-03 18:59:48.663676	216.5	28.4	-66.5	0.0
2026-01-03 18:59:50.896187	217.1	28.7	-66.3	0.0
2026-01-03 18:59:53.126699	217.6	29.0	-66.0	0.0
2026-01-03 18:59:55.363707	218.1	29.3	-66.3	0.0
2026-01-03 18:59:57.605734	218.7	29.6	-65.8	0.0
2026-01-03 18:59:59.848257	219.3	29.9	-65.8	0.0
2026-01-03 19:00:02.092266	219.8	30.2	-65.9	0.0
2026-01-03 19:00:04.335780	220.4	30.5	-65.9	0.0
2026-01-03 19:00:06.577806	221.0	30.8	-65.7	0.0
2026-01-03 19:00:08.821320	221.6	31.1	-65.5	0.0
2026-01-03 19:00:11.057832	222.2	31.3	-66.5	0.0
2026-01-03 19:00:13.290839	222.9	31.6	-64.8	0.0
2026-01-03 19:00:15.522846	223.5	31.9	-65.0	0.0
2026-01-03 19:00:17.760854	224.1	32.2	-66.4	0.0
2026-01-03 19:00:19.992861	224.8	32.5	-66.1	0.0
2026-01-03 19:00:22.226869	225.5	32.8	-65.9	0.0
2026-01-03 19:00:24.458876	226.1	33.1	-66.3	0.0
2026-01-03 19:00:26.692388	226.8	33.3	-65.7	0.0
2026-01-03 19:00:28.926899	227.5	33.6	-65.9	0.0
2026-01-03 19:00:31.160906	228.3	33.9	-66.3	0.0
2026-01-03 19:00:33.398419	229.0	34.2	-64.9	0.0
2026-01-03 19:00:35.631425	229.7	34.4	-65.6	0.0
2026-01-03 19:00:37.864442	230.5	34.7	-65.8	0.0
2026-01-03 19:00:40.097953	231.3	35.0	-65.5	0.0
2026-01-03 19:00:42.332970	232.0	35.2	-65.4	0.0
2026-01-03 19:00:44.569978	232.8	35.5	-64.2	0.0
2026-01-03 19:00:46.805490	233.6	35.7	-65.9	0.0
2026-01-03 19:00:49.038505	234.4	36.0	-65.8	0.0
2026-01-03 19:00:51.270512	235.3	36.2	-65.6	0.0
2026-01-03 19:00:53.506023	236.1	36.5	-66.0	0.0
2026-01-03 19:00:55.738552	237.0	36.7	-64.6	0.0
2026-01-03 19:00:57.972064	237.8	36.9	-65.3	0.0
2026-01-03 19:01:00.208576	238.7	37.2	-63.5	0.0
2026-01-03 19:01:02.447080	239.6	37.4	-64.3	0.0
2026-01-03 19:01:04.681096	240.5	37.6	-64.7	0.0
2026-01-03 19:01:06.917609	241.4	37.8	-64.5	0.0
2026-01-03 19:01:09.153617	242.3	38.0	-62.6	0.0
2026-01-03 19:01:11.397131	243.2	38.2	-63.5	0.0
2026-01-03 19:01:13.640645	244.2	38.4	-61.5	0.0
2026-01-03 19:01:15.884158	245.1	38.5	-64.6	0.0
2026-01-03 19:01:18.128168	246.1	38.7	-63.1	0.0
2026-01-03 19:01:20.371682	247.1	38.9	-64.8	0.0
2026-01-03 19:01:22.615700	248.1	39.0	-64.7	0.0
2026-01-03 19:01:24.856213	249.1	39.1	-64.5	0.0
2026-01-03 19:01:27.096236	250.1	39.3	-65.4	0.0
2026-01-03 19:01:29.329251	251.1	39.4	-65.5	0.0
2026-01-03 19:01:31.566763	252.1	39.5	-64.5	0.0
2026-01-03 19:01:33.801267	253.1	39.6	-65.1	0.0
2026-01-03 19:01:36.036274	254.1	39.7	-65.2	0.0
2026-01-03 19:01:38.269291	255.2	39.8	-65.4	0.0
2026-01-03 19:01:40.506795	256.2	39.9	-65.2	0.0
2026-01-03 19:01:42.741810	257.2	39.9	-65.0	0.0
2026-01-03 19:01:44.975322	258.3	40.0	-64.9	0.0
2026-01-03 19:01:47.210834	259.3	40.0	-65.4	0.0
2026-01-03 19:01:49.443842	260.4	40.1	-66.5	0.0
2026-01-03 19:01:51.678849	261.4	40.1	-66.0	0.0
2026-01-03 19:01:53.910361	262.5	40.1	-65.6	0.0
2026-01-03 19:01:56.142879	263.5	40.1	-66.6	0.0
2026-01-03 19:01:58.375895	264.6	40.1	-66.8	0.0
2026-01-03 19:02:00.607903	265.6	40.1	-66.9	0.0
2026-01-03 19:02:02.840910	266.7	40.0	-67.3	0.0
2026-01-03 19:02:05.073421	267.7	40.0	-68.5	0.0
2026-01-03 19:02:07.302427	268.7	40.0	-67.2	0.0
2026-01-03 19:02:09.535444	269.8	39.9	-67.8	0.0
2026-01-03 19:02:11.770453	270.8	39.8	-67.5	0.0
2026-01-03 19:02:14.003964	271.9	39.7	-67.9	0.0
2026-01-03 19:02:16.235467	272.9	39.6	-68.0	0.0
2026-01-03 19:02:18.465977	273.9	39.5	-68.5	0.0
2026-01-03 19:02:20.695984	274.9	39.4	-67.9	0.0
2026-01-03 19:02:22.928495	275.9	39.3	-66.7	0.0
2026-01-03 19:02:25.162007	276.9	39.2	-67.6	0.0
2026-01-03 19:02:27.393509	277.9	39.0	-67.5	0.0
2026-01-03 19:02:29.637034	278.9	38.9	-67.8	0.0
2026-01-03 19:02:31.878051	279.9	38.7	-67.1	0.0
2026-01-03 19:02:34.120574	280.8	38.6	-66.4	0.0
2026-01-03 19:02:36.361078	281.8	38.4	-65.9	0.0
2026-01-03 19:02:38.597095	282.7	38.2	-64.7	0.0
2026-01-03 19:02:40.829110	283.6	38.0	-66.4	0.0
2026-01-03 19:02:43.072615	284.6	37.8	-66.6	0.0
2026-01-03 19:02:45.315634	285.5	37.6	-67.0	0.0
2026-01-03 19:02:47.560157	286.4	37.4	-67.1	0.0
2026-01-03 19:02:49.803174	287.3	37.2	-68.0	0.0
2026-01-03 19:02:52.035687	288.1	37.0	-67.7	0.0
2026-01-03 19:02:54.265197	289.0	36.8	-67.4	0.0
2026-01-03 19:02:56.502214	289.9	36.5	-67.3	0.0
2026-01-03 19:02:58.737726	290.7	36.3	-67.0	0.0
2026-01-03 19:03:00.970237	291.5	36.1	-66.7	0.0
2026-01-03 19:03:03.202244	292.3	35.8	-67.3	0.0
2026-01-03 19:03:05.435747	293.1	35.6	-67.3	0.0
2026-01-03 19:03:07.672756	293.9	35.3	-66.1	0.0
2026-01-03 19:03:09.903258	294.7	35.0	-67.4	0.0
2026-01-03 19:03:12.135265	295.5	34.8	-65.0	0.0
2026-01-03 19:03:14.367271	296.2	34.5	-67.7	0.0
2026-01-03 19:03:16.599287	297.0	34.3	-67.4	0.0
2026-01-03 19:03:18.833304	297.7	34.0	-66.6	0.0
2026-01-03 19:03:21.066319	298.4	33.7	-66.9	0.0
2026-01-03 19:03:23.297830	299.1	33.4	-67.2	0.0
2026-01-03 19:03:25.531341	299.8	33.2	-67.2	0.0
2026-01-03 19:03:27.768853	300.5	32.9	-65.6	0.0
2026-01-03 19:03:30.002365	301.2	32.6	-67.3	0.0
2026-01-03 19:03:32.233867	301.8	32.3	-67.9	0.0
2026-01-03 19:03:34.468370	302.5	32.0	-67.2	0.0
2026-01-03 19:03:36.702386	303.1	31.7	-67.0	0.0
2026-01-03 19:03:38.935889	303.7	31.5	-67.1	0.0
2026-01-03 19:03:41.168400	304.3	31.2	-67.5	0.0
2026-01-03 19:03:43.403408	304.9	30.9	-67.3	0.0
2026-01-03 19:03:45.635919	305.5	30.6	-67.6	0.0
2026-01-03 19:03:47.868431	306.1	30.3	-67.5	0.0
2026-01-03 19:03:50.099447	306.7	30.0	-67.4	0.0
2026-01-03 19:03:52.329957	307.3	29.7	-66.8	0.0
2026-01-03 19:03:54.561964	307.8	29.4	-67.4	0.0
2026-01-03 19:03:56.790466	308.4	29.2	-67.2	0.0
2026-01-03 19:03:59.022472	308.9	28.9	-66.3	0.0
2026-01-03 19:04:01.256976	309.4	28.6	-67.1	0.0
2026-01-03 19:04:03.485982	309.9	28.3	-67.1	0.0
2026-01-03 19:04:05.715989	310.4	28.0	-67.8	0.0
2026-01-03 19:04:07.942490	310.9	27.7	-67.6	0.0
2026-01-03 19:04:10.175993	311.4	27.4	-67.7	0.0
2026-01-03 19:04:12.419507	311.9	27.2	-67.9	0.0
2026-01-03 19:04:14.663517	312.4	26.9	-68.1	0.0
2026-01-03 19:04:16.906535	312.8	26.6	-67.8	0.0
2026-01-03 19:04:19.150545	313.3	26.3	-68.0	0.0
2026-01-03 19:04:21.394060	313.8	26.0	-67.6	0.0
2026-01-03 19:04:23.637077	314.2	25.7	-68.1	0.0
2026-01-03 19:04:25.879582	314.6	25.5	-67.9	0.0
2026-01-03 19:04:28.113599	315.1	25.2	-67.7	0.0
2026-01-03 19:04:30.347615	315.5	24.9	-67.9	0.0
2026-01-03 19:04:32.580117	315.9	24.6	-67.8	0.0
2026-01-03 19:04:34.811637	316.3	24.4	-67.9	0.0
2026-01-03 19:04:37.044157	316.7	24.1	-67.8	0.0
2026-01-03 19:04:39.273660	317.1	23.8	-67.6	0.0
2026-01-03 19:04:41.504676	317.5	23.6	-67.6	0.0
2026-01-03 19:04:43.739180	317.8	23.3	-67.4	0.0
2026-01-03 19:04:45.966689	318.2	23.0	-67.2	0.0
2026-01-03 19:04:48.199192	318.6	22.8	-67.7	0.0
2026-01-03 19:04:50.430695	318.9	22.5	-67.0	0.0
2026-01-03 19:04:52.664206	319.3	22.2	-67.0	0.0
2026-01-03 19:04:54.896718	319.6	22.0	-66.9	0.0
2026-01-03 19:04:57.129220	320.0	21.7	-66.9	0.0
2026-01-03 19:04:59.361228	320.3	21.5	-66.7	0.0
2026-01-03 19:05:01.597235	320.7	21.2	-67.0	0.0
2026-01-03 19:05:03.830243	321.0	21.0	-66.6	0.0
2026-01-03 19:05:06.061745	321.3	20.7	-66.5	0.0
2026-01-03 19:05:08.293257	321.6	20.5	-66.6	0.0
2026-01-03 19:05:10.525264	321.9	20.2	-66.6	0.0
2026-01-03 19:05:12.757272	322.2	20.0	-65.9	0.0
2026-01-03 19:05:14.991280	322.5	19.7	-66.1	0.0
2026-01-03 19:05:17.220782	322.8	19.5	-65.8	0.0
2026-01-03 19:05:19.450788	323.1	19.2	-65.4	0.0
2026-01-03 19:05:21.683308	323.4	19.0	-65.1	0.0
2026-01-03 19:05:23.915820	323.7	18.8	-65.0	0.0
2026-01-03 19:05:26.147836	324.0	18.5	-65.0	0.0
2026-01-03 19:05:28.389854	324.3	18.3	-64.7	0.0
2026-01-03 19:05:30.634360	324.5	18.1	-64.8	0.0
2026-01-03 19:05:32.877875	324.8	17.8	-64.6	0.0
2026-01-03 19:05:35.121885	325.1	17.6	-64.1	0.0
2026-01-03 19:05:37.365399	325.3	17.4	-64.2	0.0
2026-01-03 19:05:39.608415	325.6	17.1	-63.9	0.0
2026-01-03 19:05:41.851928	325.8	16.9	-63.9	0.0
2026-01-03 19:05:44.087440	326.1	16.7	-63.6	0.0
2026-01-03 19:05:46.317943	326.3	16.5	-63.6	0.0
2026-01-03 19:05:48.551446	326.6	16.3	-63.6	0.0
2026-01-03 19:05:50.788454	326.8	16.0	-63.6	0.0
2026-01-03 19:05:53.021462	327.0	15.8	-63.1	0.0
2026-01-03 19:05:55.252477	327.3	15.6	-63.4	0.0
2026-01-03 19:05:57.486989	327.5	15.4	-63.0	0.0
2026-01-03 19:05:59.727006	327.7	15.2	-62.8	0.0
2026-01-03 19:06:01.963518	328.0	15.0	-63.2	0.0
2026-01-03 19:06:04.196021	328.2	14.8	-62.9	0.0
2026-01-03 19:06:06.429524	328.4	14.6	-62.9	0.0
2026-01-03 19:06:08.661027	328.6	14.3	-62.8	0.0
2026-01-03 19:06:10.891537	328.8	14.1	-62.7	0.0
2026-01-03 19:06:13.126049	329.0	13.9	-62.4	0.0
2026-01-03 19:06:15.358056	329.2	13.7	-62.6	0.0
2026-01-03 19:06:17.589567	329.4	13.5	-62.6	0.0
2026-01-03 19:06:19.823086	329.6	13.3	-62.3	0.0
2026-01-03 19:06:22.061102	329.8	13.1	-62.4	0.0
2026-01-03 19:06:24.293118	330.0	12.9	-62.4	0.0
2026-01-03 19:06:26.524628	330.2	12.7	-62.1	0.0
2026-01-03 19:06:28.758131	330.4	12.5	-62.2	0.0
2026-01-03 19:06:30.994644	330.6	12.4	-62.2	0.0
2026-01-03 19:06:33.226146	330.8	12.2	-62.2	0.0
2026-01-03 19:06:35.460658	331.0	12.0	-62.1	0.0
2026-01-03 19:06:37.689672	331.1	11.8	-62.2	0.0
2026-01-03 19:06:39.924680	331.3	11.6	-62.2	0.0
2026-01-03 19:06:42.159688	331.5	11.4	-62.2	0.0
2026-01-03 19:06:44.390702	331.7	11.2	-62.0	0.0
2026-01-03 19:06:46.623205	331.9	11.0	-62.3	0.0
2026-01-03 19:06:48.863718	332.0	10.9	-61.9	0.0
2026-01-03 19:06:51.107233	332.2	10.7	-62.2	0.0
2026-01-03 19:06:53.350747	332.4	10.5	-62.0	0.0
2026-01-03 19:06:55.594756	332.5	10.3	-61.9	0.0
2026-01-03 19:06:57.838270	332.7	10.1	-61.8	0.0
2026-01-03 19:07:00.082280	332.9	10.0	-61.5	0.0
2026-01-03 19:07:02.323794	333.0	9.8	-62.2	0.0
2026-01-03 19:07:04.563803	333.2	9.6	-61.8	0.0
2026-01-03 19:07:06.798811	333.3	9.4	-61.8	0.0
2026-01-03 19:07:09.034818	333.5	9.3	-61.8	0.0
2026-01-03 19:07:11.269322	333.6	9.1	-62.0	0.0
2026-01-03 19:07:13.502337	333.8	8.9	-61.9	0.0
2026-01-03 19:07:15.738849	333.9	8.7	-61.9	0.0
2026-01-03 19:07:17.973370	334.1	8.6	-62.2	0.0
2026-01-03 19:07:20.208377	334.2	8.4	-62.0	0.0
2026-01-03 19:07:22.443385	334.4	8.2	-62.0	0.0
2026-01-03 19:07:24.677897	334.5	8.1	-61.8	0.0
2026-01-03 19:07:26.911914	334.7	7.9	-61.7	0.0
2026-01-03 19:07:29.147417	334.8	7.7	-61.6	0.0
2026-01-03 19:07:31.382928	334.9	7.6	-61.6	0.0
2026-01-03 19:07:33.615440	335.1	7.4	-61.7	0.0
2026-01-03 19:07:35.852944	335.2	7.2	-61.9	0.0
2026-01-03 19:07:38.083958	335.3	7.1	-62.0	0.0
2026-01-03 19:07:40.313964	335.5	6.9	-62.2	0.0
2026-01-03 19:07:42.546476	335.6	6.8	-61.8	0.0
2026-01-03 19:07:44.780988	335.7	6.6	-61.6	0.0
2026-01-03 19:07:47.014499	335.9	6.5	-62.3	0.0
2026-01-03 19:07:49.247515	336.0	6.3	-61.8	0.0
2026-01-03 19:07:51.480523	336.1	6.1	-62.2	0.0
2026-01-03 19:07:53.713531	336.2	6.0	-64.8	0.0
2026-01-03 19:07:55.948043	336.4	5.8	-67.5	0.0
2026-01-03 19:07:58.181554	336.5	5.7	-69.2	0.0
2026-01-03 19:08:00.411571	336.6	5.5	-70.5	0.0
2026-01-03 19:08:02.643073	336.7	5.4	-70.9	0.0
2026-01-03 19:08:04.872080	336.8	5.2	-71.1	0.0
2026-01-03 19:08:07.102086	337.0	5.1	-71.0	0.0
#Closed at: 2026-01-03 18:55:40.672937