passes_logs/2026/01/03/PlanumMoscow/PlanumMoscow__20260103_072523_METOP-C_rec.log

#Pass ID: 20260103_072523_METOP-C
#Satellite: METOP-C
#Configuration: METOP-C
#Start time: 2026-01-03 07:25:28.240061

#LorettStation: 1.0.0 05.05.2024
#Station: PlanumMoscow
#Location: 37.6253844 lon 55.6713361 lat
#TLE: 1 43689U 18087A   25293.88981035  .00000265  00000+0  14109-3 0  9997
#TLE: 2 43689  98.7006 352.4487 0002041 122.1097 238.0279 14.21482740360838

#Time	Az	El	Level	SNR
2026-01-03 07:29:06.700061	28.4	28.6	-65.8	5.7
2026-01-03 07:29:08.936069	28.6	29.0	-66.5	5.4
2026-01-03 07:29:11.168076	28.8	29.4	-65.8	4.5
2026-01-03 07:29:13.402589	29.0	29.8	-66.7	5.5
2026-01-03 07:29:15.636605	29.2	30.2	-66.5	5.0
2026-01-03 07:29:17.871622	29.5	30.6	-66.0	5.0
2026-01-03 07:29:20.104124	29.7	31.0	-65.9	5.3
2026-01-03 07:29:22.339637	29.9	31.4	-66.1	4.3
2026-01-03 07:29:24.575644	30.2	31.9	-66.0	2.4
2026-01-03 07:29:26.810652	30.4	32.3	-66.2	3.8
2026-01-03 07:29:29.044660	30.7	32.7	-65.7	3.6
2026-01-03 07:29:31.275162	31.0	33.2	-66.4	3.7
2026-01-03 07:29:33.511178	31.2	33.6	-65.7	3.2
2026-01-03 07:29:35.746690	31.5	34.1	-65.8	3.2
2026-01-03 07:29:37.984707	31.8	34.6	-65.5	3.4
2026-01-03 07:29:40.219716	32.1	35.0	-65.3	3.1
2026-01-03 07:29:42.452722	32.4	35.5	-64.0	0.0
2026-01-03 07:29:44.687740	32.8	36.0	-63.1	0.0
2026-01-03 07:29:46.920251	33.1	36.5	-63.7	0.0
2026-01-03 07:29:49.152762	33.4	37.0	-64.9	1.0
2026-01-03 07:29:51.384769	33.8	37.5	-64.2	0.0
2026-01-03 07:29:53.621778	34.1	38.0	-64.2	0.0
2026-01-03 07:29:55.859289	34.5	38.5	-65.2	0.0
2026-01-03 07:29:58.095811	34.9	39.1	-63.7	0.0
2026-01-03 07:30:00.332314	35.3	39.6	-61.9	0.0
2026-01-03 07:30:02.566827	35.7	40.1	-64.3	0.0
2026-01-03 07:30:04.805844	36.1	40.7	-63.9	0.0
2026-01-03 07:30:07.038851	36.5	41.2	-62.5	0.0
2026-01-03 07:30:09.270362	37.0	41.8	-62.5	0.0
2026-01-03 07:30:11.506381	37.4	42.4	-62.8	0.0
2026-01-03 07:30:13.745399	37.9	42.9	-64.0	0.0
2026-01-03 07:30:15.976910	38.4	43.5	-62.7	0.0
2026-01-03 07:30:18.213423	38.9	44.1	-62.7	0.0
2026-01-03 07:30:20.449927	39.5	44.7	-63.6	0.0
2026-01-03 07:30:22.686440	40.0	45.3	-61.4	0.0
2026-01-03 07:30:24.921952	40.6	45.9	-63.0	0.0
2026-01-03 07:30:27.155465	41.2	46.5	-64.3	0.0
2026-01-03 07:30:29.387472	41.8	47.1	-63.7	0.0
2026-01-03 07:30:31.625481	42.5	47.7	-64.2	0.0
2026-01-03 07:30:33.867498	43.1	48.4	-64.3	0.0
2026-01-03 07:30:36.100010	43.8	49.0	-62.8	0.0
2026-01-03 07:30:38.337523	44.6	49.6	-62.5	0.0
2026-01-03 07:30:40.570531	45.3	50.3	-65.6	0.0
2026-01-03 07:30:42.804538	46.1	50.9	-66.1	0.0
2026-01-03 07:30:45.044548	47.0	51.6	-63.8	0.0
2026-01-03 07:30:47.277059	47.8	52.2	-62.3	0.0
2026-01-03 07:30:49.513077	48.7	52.9	-65.3	0.0
2026-01-03 07:30:51.749590	49.7	53.5	-65.6	0.0
2026-01-03 07:30:53.983102	50.7	54.2	-62.3	0.0
2026-01-03 07:30:56.216109	51.7	54.8	-64.3	0.0
2026-01-03 07:30:58.453631	52.8	55.5	-63.5	0.0
2026-01-03 07:31:00.686647	53.9	56.2	-66.6	0.0
2026-01-03 07:31:02.919167	55.1	56.8	-66.7	0.0
2026-01-03 07:31:05.154689	56.3	57.4	-67.2	0.0
2026-01-03 07:31:07.388201	57.6	58.1	-64.9	0.0
2026-01-03 07:31:09.621216	59.0	58.7	-66.0	0.0
2026-01-03 07:31:11.857224	60.4	59.3	-68.1	0.0
2026-01-03 07:31:14.090232	61.9	59.9	-67.6	0.0
2026-01-03 07:31:16.322248	63.5	60.5	-66.5	0.0
2026-01-03 07:31:18.556752	65.2	61.1	-67.5	0.0
2026-01-03 07:31:20.799770	66.9	61.7	-65.8	0.0
2026-01-03 07:31:23.043284	68.7	62.2	-68.7	0.0
2026-01-03 07:31:25.286302	70.6	62.8	-67.9	0.0
2026-01-03 07:31:27.523815	72.6	63.3	-68.4	0.0
2026-01-03 07:31:29.756822	74.6	63.7	-67.0	0.0
2026-01-03 07:31:31.991830	76.7	64.2	-68.9	0.0
2026-01-03 07:31:34.226847	79.0	64.6	-69.5	0.0
2026-01-03 07:31:36.457349	81.2	65.0	-68.5	0.0
2026-01-03 07:31:38.692871	83.6	65.4	-69.4	0.0
2026-01-03 07:31:40.928392	86.1	65.7	-67.4	0.0
2026-01-03 07:31:43.162400	88.6	65.9	-67.0	0.0
2026-01-03 07:31:45.398903	91.2	66.2	-68.2	0.0
2026-01-03 07:31:47.642913	93.8	66.4	-68.9	0.0
2026-01-03 07:31:49.885923	96.5	66.5	-68.6	0.0
2026-01-03 07:31:52.129934	99.2	66.6	-68.8	0.0
2026-01-03 07:31:54.364445	101.9	66.7	-68.6	0.0
2026-01-03 07:31:56.597453	104.6	66.7	-66.8	0.0
2026-01-03 07:31:58.830974	107.3	66.6	-67.4	0.0
2026-01-03 07:32:01.063982	110.0	66.5	-69.4	0.0
2026-01-03 07:32:03.300495	112.7	66.4	-69.2	0.0
2026-01-03 07:32:05.534007	115.3	66.2	-69.0	0.0
2026-01-03 07:32:07.767024	117.9	66.0	-68.8	0.0
2026-01-03 07:32:09.999536	120.4	65.7	-68.2	0.0
2026-01-03 07:32:12.230047	122.9	65.4	-69.2	0.0
2026-01-03 07:32:14.466567	125.3	65.1	-69.1	0.0
2026-01-03 07:32:16.699079	127.6	64.7	-69.3	0.0
2026-01-03 07:32:18.932086	129.8	64.3	-69.1	0.9
2026-01-03 07:32:21.167094	132.0	63.8	-69.0	0.0
2026-01-03 07:32:23.400606	134.0	63.4	-69.6	0.0
2026-01-03 07:32:25.634109	136.0	62.9	-70.1	0.0
2026-01-03 07:32:27.867117	137.9	62.3	-70.2	0.0
2026-01-03 07:32:30.098124	139.7	61.8	-70.6	0.0
2026-01-03 07:32:32.328140	141.5	61.2	-70.5	0.0
2026-01-03 07:32:34.560652	143.1	60.6	-70.2	0.0
2026-01-03 07:32:36.794668	144.7	60.0	-70.7	0.0
2026-01-03 07:32:39.029181	146.2	59.4	-71.0	0.0
2026-01-03 07:32:41.260189	147.7	58.8	-70.2	0.0
2026-01-03 07:32:43.491196	149.1	58.2	-70.6	0.0
2026-01-03 07:32:45.723716	150.4	57.6	-70.7	0.0
2026-01-03 07:32:47.955732	151.6	56.9	-71.1	0.0
2026-01-03 07:32:50.188741	152.8	56.3	-70.9	0.0
2026-01-03 07:32:52.419748	154.0	55.6	-70.9	0.0
2026-01-03 07:32:54.654261	155.1	55.0	-71.2	0.0
2026-01-03 07:32:56.887277	156.1	54.3	-70.9	0.0
2026-01-03 07:32:59.123781	157.1	53.6	-71.1	0.0
2026-01-03 07:33:01.356788	158.1	53.0	-70.9	0.0
2026-01-03 07:33:03.590796	159.0	52.3	-71.0	0.0
2026-01-03 07:33:05.823299	159.9	51.7	-71.3	0.0
2026-01-03 07:33:08.058317	160.7	51.0	-70.9	0.0
2026-01-03 07:33:10.298850	161.5	50.4	-71.3	0.0
2026-01-03 07:33:12.542859	162.3	49.7	-71.0	0.0
2026-01-03 07:33:14.786373	163.0	49.1	-71.2	0.0
2026-01-03 07:33:17.026391	163.7	48.4	-71.0	0.0
2026-01-03 07:33:19.258397	164.4	47.8	-71.1	0.0
2026-01-03 07:33:21.489405	165.1	47.2	-70.7	0.0
2026-01-03 07:33:23.727926	165.7	46.6	-70.5	0.0
2026-01-03 07:33:25.967440	166.3	45.9	-70.8	0.0
2026-01-03 07:33:28.210954	166.9	45.3	-71.0	0.0
2026-01-03 07:33:30.454964	167.4	44.7	-70.3	0.0
2026-01-03 07:33:32.697486	168.0	44.1	-69.8	0.0
2026-01-03 07:33:34.930997	168.5	43.5	-70.5	0.0
2026-01-03 07:33:37.163500	169.0	43.0	-69.8	0.0
2026-01-03 07:33:39.395011	169.5	42.4	-69.9	0.0
2026-01-03 07:33:41.634020	169.9	41.8	-69.6	0.0
2026-01-03 07:33:43.867027	170.4	41.2	-69.8	0.0
2026-01-03 07:33:46.098043	170.8	40.7	-70.3	0.0
2026-01-03 07:33:48.330554	171.3	40.1	-70.2	0.0
2026-01-03 07:33:50.565066	171.7	39.6	-69.7	0.0
2026-01-03 07:33:52.806581	172.1	39.1	-69.1	0.0
2026-01-03 07:33:55.039101	172.4	38.5	-69.1	0.0
2026-01-03 07:33:57.271109	172.8	38.0	-68.8	0.5
2026-01-03 07:33:59.505621	173.2	37.5	-68.9	2.7
2026-01-03 07:34:01.741124	173.5	37.0	-68.6	2.8
2026-01-03 07:34:03.974636	173.9	36.5	-69.0	6.1
2026-01-03 07:34:06.209653	174.2	36.0	-68.1	5.5
2026-01-03 07:34:08.442661	174.5	35.5	-68.3	5.0
2026-01-03 07:34:10.676164	174.8	35.0	-68.2	4.2
2026-01-03 07:34:12.912676	175.1	34.5	-68.7	5.3
2026-01-03 07:34:15.146693	175.4	34.1	-67.4	4.5
2026-01-03 07:34:17.378195	175.7	33.6	-67.9	6.2
2026-01-03 07:34:19.612203	176.0	33.1	-66.9	5.6
2026-01-03 07:34:21.847211	176.2	32.7	-66.8	5.3
2026-01-03 07:34:24.082227	176.5	32.2	-67.6	6.7
2026-01-03 07:34:26.315235	176.8	31.8	-67.0	5.8
2026-01-03 07:34:28.548243	177.0	31.4	-67.0	6.6
2026-01-03 07:34:30.782763	177.2	30.9	-67.2	6.8
2026-01-03 07:34:33.019285	177.5	30.5	-66.8	8.2
2026-01-03 07:34:35.251797	177.7	30.1	-66.7	8.4
2026-01-03 07:34:37.482822	177.9	29.7	-66.6	6.8
2026-01-03 07:34:39.715325	178.2	29.3	-67.0	8.0
2026-01-03 07:34:41.950332	178.4	28.9	-67.1	7.6
2026-01-03 07:34:44.185854	178.6	28.5	-66.7	8.3
2026-01-03 07:34:46.429367	178.8	28.1	-66.9	9.2
2026-01-03 07:34:48.670391	179.0	27.7	-66.3	8.3
2026-01-03 07:34:50.913417	179.2	27.3	-66.5	9.3
2026-01-03 07:34:53.156941	179.4	26.9	-66.6	8.1
2026-01-03 07:34:55.400952	179.6	26.6	-66.3	7.5
2026-01-03 07:34:57.642467	179.7	26.2	-66.3	8.6
2026-01-03 07:34:59.883494	179.9	25.8	-66.3	9.1
2026-01-03 07:35:02.118016	180.1	25.5	-65.9	8.9
2026-01-03 07:35:04.353023	180.3	25.1	-66.1	8.9
2026-01-03 07:35:06.586536	180.4	24.8	-66.0	9.2
2026-01-03 07:35:08.820048	180.6	24.5	-66.5	9.8
2026-01-03 07:35:11.056065	180.8	24.1	-66.4	9.7
2026-01-03 07:35:13.284567	180.9	23.8	-66.2	9.0
2026-01-03 07:35:15.515574	181.1	23.4	-66.0	8.3
2026-01-03 07:35:17.751086	181.2	23.1	-66.0	9.3
2026-01-03 07:35:19.986094	181.4	22.8	-66.2	9.4
2026-01-03 07:35:22.223607	181.5	22.5	-65.6	5.2
2026-01-03 07:35:24.459634	181.7	22.2	-66.3	9.7
2026-01-03 07:35:26.694156	181.8	21.9	-65.9	9.3
2026-01-03 07:35:28.928173	181.9	21.5	-65.8	9.0
2026-01-03 07:35:31.164190	182.1	21.2	-65.9	8.4
2026-01-03 07:35:33.398205	182.2	20.9	-65.7	8.2
2026-01-03 07:35:35.631709	182.3	20.6	-65.7	9.3
2026-01-03 07:35:37.870213	182.5	20.4	-65.7	7.8
2026-01-03 07:35:40.105717	182.6	20.1	-66.1	8.1
2026-01-03 07:35:42.337724	182.7	19.8	-66.2	8.3
2026-01-03 07:35:44.574227	182.8	19.5	-65.9	7.9
2026-01-03 07:35:46.808740	182.9	19.2	-65.9	8.5
2026-01-03 07:35:49.045252	183.1	18.9	-65.0	7.6
2026-01-03 07:35:51.283766	183.2	18.7	-66.2	8.8
2026-01-03 07:35:53.517773	183.3	18.4	-65.5	8.4
2026-01-03 07:35:55.753808	183.4	18.1	-65.8	9.9
2026-01-03 07:35:57.990312	183.5	17.8	-65.7	9.3
2026-01-03 07:36:00.227824	183.6	17.6	-65.9	9.6
2026-01-03 07:36:02.468844	183.7	17.3	-65.7	9.0
2026-01-03 07:36:04.711863	183.8	17.1	-66.0	8.6
2026-01-03 07:36:06.955377	183.9	16.8	-65.8	9.5
2026-01-03 07:36:09.193395	184.0	16.6	-65.8	8.9
2026-01-03 07:36:11.436413	184.1	16.3	-65.8	8.8
2026-01-03 07:36:13.678927	184.2	16.1	-65.8	9.1
2026-01-03 07:36:15.922947	184.3	15.8	-65.7	7.1
2026-01-03 07:36:18.165451	184.4	15.6	-65.5	6.9
2026-01-03 07:36:20.398513	184.5	15.3	-65.1	7.1
2026-01-03 07:36:22.632567	184.6	15.1	-66.1	9.8
2026-01-03 07:36:24.866115	184.7	14.8	-65.4	8.3
2026-01-03 07:36:27.100628	184.8	14.6	-65.7	8.8
2026-01-03 07:36:29.334196	184.9	14.4	-65.6	8.1
2026-01-03 07:36:31.566259	185.0	14.2	-65.0	7.1
2026-01-03 07:36:33.795313	185.0	13.9	-66.0	7.9
2026-01-03 07:36:36.030321	185.1	13.7	-65.7	8.1
2026-01-03 07:36:38.270331	185.2	13.5	-65.9	8.9
2026-01-03 07:36:40.502338	185.3	13.3	-65.4	7.4
2026-01-03 07:36:42.735850	185.4	13.0	-65.6	8.4
2026-01-03 07:36:44.969912	185.5	12.8	-65.2	6.5
2026-01-03 07:36:47.202928	185.5	12.6	-65.2	6.2
2026-01-03 07:36:49.441946	185.6	12.4	-64.4	6.4
2026-01-03 07:36:51.676009	185.7	12.2	-65.6	6.1
2026-01-03 07:36:53.911530	185.8	12.0	-65.3	7.4
2026-01-03 07:36:56.147042	185.8	11.8	-65.5	7.2
2026-01-03 07:36:58.380050	185.9	11.6	-65.8	7.3
2026-01-03 07:37:00.614553	186.0	11.3	-65.5	6.4
2026-01-03 07:37:02.852562	186.1	11.1	-65.9	6.3
2026-01-03 07:37:05.087083	186.1	10.9	-66.0	6.2
2026-01-03 07:37:07.325091	186.2	10.7	-65.5	6.1
2026-01-03 07:37:09.556611	186.3	10.5	-65.4	5.9
2026-01-03 07:37:11.792620	186.3	10.3	-65.8	5.9
2026-01-03 07:37:14.026132	186.4	10.2	-65.1	3.6
2026-01-03 07:37:16.258139	186.5	10.0	-65.3	6.8
2026-01-03 07:37:18.493661	186.5	9.8	-64.6	5.6
2026-01-03 07:37:20.729679	186.6	9.6	-65.3	4.8
2026-01-03 07:37:22.964687	186.7	9.4	-65.2	5.8
2026-01-03 07:37:25.196694	186.7	9.2	-64.9	5.6
2026-01-03 07:37:27.430711	186.8	9.0	-65.5	5.9
2026-01-03 07:37:29.663223	186.9	8.8	-64.7	4.7
2026-01-03 07:37:31.898231	186.9	8.6	-65.8	5.7
2026-01-03 07:37:34.141251	187.0	8.5	-65.7	5.4
2026-01-03 07:37:36.384765	187.0	8.3	-65.3	4.0
2026-01-03 07:37:38.621285	187.1	8.1	-65.5	5.4
2026-01-03 07:37:40.864800	187.2	7.9	-65.2	4.8
2026-01-03 07:37:43.103810	187.2	7.7	-65.4	2.9
2026-01-03 07:37:45.339321	187.3	7.6	-64.7	4.0
2026-01-03 07:37:47.575337	187.3	7.4	-64.8	5.0
2026-01-03 07:37:49.817851	187.4	7.2	-64.8	1.5
2026-01-03 07:37:52.061862	187.4	7.0	-65.3	3.9
2026-01-03 07:37:54.305871	187.5	6.9	-65.5	3.4
2026-01-03 07:37:56.549881	187.5	6.7	-64.8	4.7
2026-01-03 07:37:58.784392	187.6	6.5	-64.8	4.3
2026-01-03 07:38:01.017409	187.7	6.4	-64.9	4.3
2026-01-03 07:38:03.248416	187.7	6.2	-65.0	3.7
2026-01-03 07:38:05.481442	187.8	6.0	-64.8	2.3
2026-01-03 07:38:07.713449	187.8	5.9	-68.7	0.9
2026-01-03 07:38:09.943960	187.9	5.7	-71.0	0.0
2026-01-03 07:38:12.175473	187.9	5.5	-72.2	0.0
2026-01-03 07:38:14.406993	188.0	5.4	-71.7	0.0
2026-01-03 07:38:16.639505	188.0	5.2	-72.0	0.0
2026-01-03 07:38:18.871017	188.1	5.1	-72.6	0.0
#Closed at: 2026-01-03 07:25:23.241646