passes_logs/2026/01/03/PlanumMoscow/PlanumMoscow__20260103_122555_METEOR-M2_4_rec.log

#Pass ID: 20260103_122555_METEOR-M2 4
#Satellite: METEOR-M2 4
#Configuration: METEOR-M2 4
#Start time: 2026-01-03 12:26:00.445761

#LorettStation: 1.0.0 05.05.2024
#Station: PlanumMoscow
#Location: 37.6253844 lon 55.6713361 lat
#TLE: 1 59051U 24039A   25293.94737965  .00000087  00000+0  58459-4 0  9998
#TLE: 2 59051  98.6671 251.7071 0007726 135.4772 224.7028 14.22388966 85257

#Time	Az	El	Level	SNR
2026-01-03 12:29:38.930875	223.3	23.2	-64.3	10.6
2026-01-03 12:29:41.169380	223.8	23.4	-63.4	8.6
2026-01-03 12:29:43.413389	224.3	23.6	-63.5	8.4
2026-01-03 12:29:45.657398	224.8	23.8	-63.6	9.6
2026-01-03 12:29:47.900913	225.2	24.0	-63.8	9.9
2026-01-03 12:29:50.143434	225.8	24.3	-63.7	9.4
2026-01-03 12:29:52.382442	226.3	24.5	-63.7	9.1
2026-01-03 12:29:54.620474	226.8	24.7	-63.2	7.6
2026-01-03 12:29:56.852977	227.3	24.9	-64.3	9.7
2026-01-03 12:29:59.085984	227.8	25.1	-63.9	9.0
2026-01-03 12:30:01.325993	228.4	25.3	-63.7	9.3
2026-01-03 12:30:03.570003	228.9	25.6	-62.9	5.2
2026-01-03 12:30:05.809515	229.5	25.8	-63.5	8.5
2026-01-03 12:30:08.043027	230.0	26.0	-63.7	8.7
2026-01-03 12:30:10.274042	230.6	26.2	-64.0	8.9
2026-01-03 12:30:12.510554	231.2	26.4	-61.3	3.1
2026-01-03 12:30:14.754059	231.7	26.6	-62.4	6.6
2026-01-03 12:30:16.989572	232.3	26.8	-61.9	5.8
2026-01-03 12:30:19.229085	232.9	27.0	-62.3	4.1
2026-01-03 12:30:21.464092	233.5	27.2	-59.5	1.2
2026-01-03 12:30:23.698099	234.1	27.4	-60.5	1.6
2026-01-03 12:30:25.932107	234.8	27.6	-60.5	5.3
2026-01-03 12:30:28.166114	235.4	27.8	-59.8	3.2
2026-01-03 12:30:30.395128	236.0	28.0	-61.6	3.2
2026-01-03 12:30:32.632145	236.7	28.2	-59.7	2.1
2026-01-03 12:30:34.870657	237.3	28.4	-61.4	4.3
2026-01-03 12:30:37.105160	238.0	28.6	-62.9	5.7
2026-01-03 12:30:39.337677	238.6	28.8	-63.2	7.0
2026-01-03 12:30:41.574689	239.3	29.0	-62.5	5.4
2026-01-03 12:30:43.816203	240.0	29.2	-62.8	7.2
2026-01-03 12:30:46.052707	240.7	29.3	-61.7	5.3
2026-01-03 12:30:48.290724	241.4	29.5	-62.1	6.2
2026-01-03 12:30:50.526235	242.1	29.7	-60.4	5.0
2026-01-03 12:30:52.761259	242.8	29.8	-60.4	4.6
2026-01-03 12:30:54.999764	243.5	30.0	-61.8	7.1
2026-01-03 12:30:57.230770	244.2	30.2	-61.4	5.4
2026-01-03 12:30:59.465794	244.9	30.3	-60.0	4.4
2026-01-03 12:31:01.702307	245.7	30.5	-63.1	7.9
2026-01-03 12:31:03.941315	246.4	30.6	-63.1	9.1
2026-01-03 12:31:06.174331	247.2	30.7	-62.8	6.0
2026-01-03 12:31:08.409859	247.9	30.9	-63.5	7.6
2026-01-03 12:31:10.644875	248.7	31.0	-62.7	6.8
2026-01-03 12:31:12.878395	249.4	31.1	-62.7	4.6
2026-01-03 12:31:15.117412	250.2	31.3	-62.2	6.9
2026-01-03 12:31:17.361918	251.0	31.4	-63.3	6.6
2026-01-03 12:31:19.603432	251.8	31.5	-62.3	5.5
2026-01-03 12:31:21.845954	252.6	31.6	-62.7	8.6
2026-01-03 12:31:24.089467	253.4	31.7	-62.7	8.5
2026-01-03 12:31:26.333981	254.2	31.8	-62.8	7.7
2026-01-03 12:31:28.577991	255.0	31.9	-63.5	9.1
2026-01-03 12:31:30.821504	255.8	32.0	-61.7	5.5
2026-01-03 12:31:33.054032	256.6	32.0	-63.4	8.1
2026-01-03 12:31:35.291103	257.4	32.1	-63.2	7.3
2026-01-03 12:31:37.524638	258.2	32.2	-62.6	7.8
2026-01-03 12:31:39.757186	259.1	32.2	-58.7	7.2
2026-01-03 12:31:41.992203	259.9	32.3	-63.2	7.9
2026-01-03 12:31:44.222714	260.7	32.3	-63.0	6.5
2026-01-03 12:31:46.454721	261.5	32.4	-62.5	7.4
2026-01-03 12:31:48.691730	262.4	32.4	-63.3	7.1
2026-01-03 12:31:50.925736	263.2	32.4	-63.3	8.3
2026-01-03 12:31:53.160744	264.0	32.4	-63.3	7.3
2026-01-03 12:31:55.396752	264.8	32.5	-63.0	7.5
2026-01-03 12:31:57.628759	265.7	32.5	-63.3	6.8
2026-01-03 12:31:59.858766	266.5	32.5	-60.1	0.0
2026-01-03 12:32:02.095782	267.3	32.4	-62.4	6.8
2026-01-03 12:32:04.325292	268.2	32.4	-64.3	8.7
2026-01-03 12:32:06.556803	269.0	32.4	-62.9	6.0
2026-01-03 12:32:08.792315	269.8	32.4	-64.0	7.7
2026-01-03 12:32:11.026818	270.7	32.4	-63.6	7.8
2026-01-03 12:32:13.263833	271.5	32.3	-63.8	5.9
2026-01-03 12:32:15.497840	272.3	32.3	-62.8	5.8
2026-01-03 12:32:17.731343	273.1	32.2	-63.9	8.7
2026-01-03 12:32:19.963855	273.9	32.2	-61.9	4.8
2026-01-03 12:32:22.197358	274.8	32.1	-61.1	3.4
2026-01-03 12:32:24.430386	275.6	32.0	-62.4	2.5
2026-01-03 12:32:26.661889	276.4	31.9	-62.0	5.1
2026-01-03 12:32:28.894401	277.2	31.9	-64.1	5.4
2026-01-03 12:32:31.131409	278.0	31.8	-64.0	5.2
2026-01-03 12:32:33.364424	278.8	31.7	-64.2	6.2
2026-01-03 12:32:35.607442	279.6	31.6	-61.8	0.6
2026-01-03 12:32:37.851451	280.4	31.5	-63.1	5.9
2026-01-03 12:32:40.094461	281.1	31.4	-64.2	8.2
2026-01-03 12:32:42.341975	281.9	31.2	-64.0	9.4
2026-01-03 12:32:44.585985	282.7	31.1	-62.5	6.8
2026-01-03 12:32:46.829994	283.5	31.0	-62.8	5.9
2026-01-03 12:32:49.073018	284.2	30.9	-63.3	6.3
2026-01-03 12:32:51.311025	285.0	30.7	-62.2	7.0
2026-01-03 12:32:53.544529	285.7	30.6	-62.4	3.3
2026-01-03 12:32:55.784537	286.5	30.4	-61.7	4.1
2026-01-03 12:32:58.024051	287.2	30.3	-63.5	6.4
2026-01-03 12:33:00.261563	287.9	30.1	-62.7	3.6
2026-01-03 12:33:02.502076	288.6	30.0	-62.6	3.5
2026-01-03 12:33:04.735587	289.3	29.8	-64.4	8.8
2026-01-03 12:33:06.965089	290.0	29.7	-64.2	5.9
2026-01-03 12:33:09.198097	290.7	29.5	-61.9	4.3
2026-01-03 12:33:11.431105	291.4	29.3	-62.1	4.4
2026-01-03 12:33:13.663111	292.1	29.1	-63.9	5.6
2026-01-03 12:33:15.895118	292.8	29.0	-63.4	6.3
2026-01-03 12:33:18.130125	293.4	28.8	-65.6	7.5
2026-01-03 12:33:20.363629	294.1	28.6	-65.7	11.2
2026-01-03 12:33:22.597636	294.8	28.4	-65.1	10.6
2026-01-03 12:33:24.833653	295.4	28.2	-64.7	8.1
2026-01-03 12:33:27.070165	296.0	28.0	-65.4	10.3
2026-01-03 12:33:29.305181	296.7	27.8	-64.9	9.4
2026-01-03 12:33:31.544704	297.3	27.6	-65.8	10.8
2026-01-03 12:33:33.780207	297.9	27.4	-65.4	9.1
2026-01-03 12:33:36.016223	298.5	27.2	-66.9	12.1
2026-01-03 12:33:38.247230	299.1	27.0	-66.0	11.9
2026-01-03 12:33:40.483743	299.7	26.8	-67.1	12.5
2026-01-03 12:33:42.715750	300.3	26.6	-66.9	12.0
2026-01-03 12:33:44.950253	300.9	26.4	-66.8	11.2
2026-01-03 12:33:47.181764	301.4	26.2	-66.9	12.0
2026-01-03 12:33:49.415284	302.0	26.0	-66.6	11.7
2026-01-03 12:33:51.652819	302.5	25.8	-66.3	10.6
2026-01-03 12:33:53.881825	303.1	25.6	-66.6	11.7
2026-01-03 12:33:56.115841	303.6	25.4	-66.5	12.2
2026-01-03 12:33:58.354346	304.2	25.1	-66.6	12.2
2026-01-03 12:34:00.597372	304.7	24.9	-66.2	10.2
2026-01-03 12:34:02.840390	305.2	24.7	-67.1	11.3
2026-01-03 12:34:05.083416	305.7	24.5	-67.3	12.1
2026-01-03 12:34:07.325442	306.2	24.3	-67.3	12.0
2026-01-03 12:34:09.570451	306.7	24.1	-67.0	12.0
2026-01-03 12:34:11.813972	307.2	23.8	-67.0	11.8
2026-01-03 12:34:14.050988	307.7	23.6	-66.3	11.2
2026-01-03 12:34:16.283995	308.2	23.4	-67.6	12.8
2026-01-03 12:34:18.520003	308.7	23.2	-67.0	11.4
2026-01-03 12:34:20.752513	309.1	23.0	-67.0	12.5
2026-01-03 12:34:22.988017	309.6	22.8	-67.0	12.5
2026-01-03 12:34:25.222521	310.0	22.5	-66.7	11.6
2026-01-03 12:34:27.454527	310.5	22.3	-67.1	12.5
2026-01-03 12:34:29.695032	310.9	22.1	-67.4	12.7
2026-01-03 12:34:31.926543	311.4	21.9	-67.0	12.6
2026-01-03 12:34:34.157063	311.8	21.7	-66.8	12.2
2026-01-03 12:34:36.388574	312.2	21.5	-67.0	13.0
2026-01-03 12:34:38.620581	312.6	21.2	-67.2	12.9
2026-01-03 12:34:40.858093	313.0	21.0	-67.1	12.1
2026-01-03 12:34:43.089605	313.4	20.8	-67.1	12.5
2026-01-03 12:34:45.319611	313.8	20.6	-67.1	11.8
2026-01-03 12:34:47.551113	314.2	20.4	-67.0	13.0
2026-01-03 12:34:49.784129	314.6	20.2	-67.0	12.3
2026-01-03 12:34:52.019137	315.0	19.9	-67.0	12.3
2026-01-03 12:34:54.251152	315.4	19.7	-67.0	12.7
2026-01-03 12:34:56.484663	315.8	19.5	-67.2	11.9
2026-01-03 12:34:58.717678	316.1	19.3	-67.2	12.2
2026-01-03 12:35:00.948693	316.5	19.1	-66.5	11.8
2026-01-03 12:35:03.181205	316.8	18.9	-66.9	11.4
2026-01-03 12:35:05.412708	317.2	18.7	-67.0	12.0
2026-01-03 12:35:07.645229	317.5	18.5	-67.0	12.4
2026-01-03 12:35:09.879732	317.9	18.3	-66.7	11.6
2026-01-03 12:35:12.112749	318.2	18.1	-66.7	12.1
2026-01-03 12:35:14.353766	318.6	17.9	-66.9	11.1
2026-01-03 12:35:16.596783	318.9	17.6	-66.5	10.3
2026-01-03 12:35:18.839305	319.2	17.4	-66.9	10.7
2026-01-03 12:35:21.082334	319.5	17.2	-67.0	11.1
2026-01-03 12:35:23.325847	319.9	17.0	-66.9	10.6
2026-01-03 12:35:25.568865	320.2	16.8	-67.0	10.9
2026-01-03 12:35:27.809882	320.5	16.6	-67.1	11.3
2026-01-03 12:35:30.045890	320.8	16.4	-67.2	10.8
2026-01-03 12:35:32.278905	321.1	16.2	-67.2	10.4
2026-01-03 12:35:34.512920	321.4	16.0	-66.1	8.8
2026-01-03 12:35:36.747928	321.7	15.8	-67.2	9.6
2026-01-03 12:35:38.983440	322.0	15.6	-67.3	10.4
2026-01-03 12:35:41.213455	322.3	15.4	-67.2	9.9
2026-01-03 12:35:43.444462	322.6	15.2	-67.0	10.3
2026-01-03 12:35:45.675973	322.8	15.1	-67.2	10.8
2026-01-03 12:35:47.906980	323.1	14.9	-66.8	8.0
2026-01-03 12:35:50.141491	323.4	14.7	-67.0	10.2
2026-01-03 12:35:52.374499	323.7	14.5	-67.0	10.4
2026-01-03 12:35:54.606001	323.9	14.3	-66.8	9.8
2026-01-03 12:35:56.841017	324.2	14.1	-67.0	10.3
2026-01-03 12:35:59.073529	324.4	13.9	-66.4	9.4
2026-01-03 12:36:01.308545	324.7	13.7	-67.3	10.9
2026-01-03 12:36:03.542556	325.0	13.5	-67.2	9.9
2026-01-03 12:36:05.776063	325.2	13.4	-67.3	9.5
2026-01-03 12:36:08.006583	325.5	13.2	-67.3	9.3
2026-01-03 12:36:10.241591	325.7	13.0	-67.0	9.7
2026-01-03 12:36:12.478103	325.9	12.8	-67.0	8.9
2026-01-03 12:36:14.710118	326.2	12.6	-67.2	9.2
2026-01-03 12:36:16.942630	326.4	12.4	-66.6	8.4
2026-01-03 12:36:19.175653	326.6	12.3	-67.0	8.9
2026-01-03 12:36:21.407156	326.9	12.1	-66.8	8.3
2026-01-03 12:36:23.638163	327.1	11.9	-67.2	9.0
2026-01-03 12:36:25.867674	327.3	11.7	-66.8	8.9
2026-01-03 12:36:28.100176	327.6	11.6	-67.2	9.1
2026-01-03 12:36:30.334680	327.8	11.4	-66.8	8.2
2026-01-03 12:36:32.566686	328.0	11.2	-66.7	8.7
2026-01-03 12:36:34.797701	328.2	11.0	-66.5	7.3
2026-01-03 12:36:37.030708	328.4	10.9	-67.0	9.0
2026-01-03 12:36:39.262211	328.6	10.7	-66.5	8.2
2026-01-03 12:36:41.493226	328.8	10.5	-66.5	8.6
2026-01-03 12:36:43.724233	329.0	10.3	-66.9	8.7
2026-01-03 12:36:45.960746	329.2	10.2	-66.7	8.2
2026-01-03 12:36:48.203276	329.4	10.0	-66.9	8.8
2026-01-03 12:36:50.446293	329.6	9.8	-66.7	8.0
2026-01-03 12:36:52.688824	329.8	9.7	-66.4	8.0
2026-01-03 12:36:54.928849	330.0	9.5	-66.0	8.4
2026-01-03 12:36:57.172858	330.2	9.3	-66.5	7.0
2026-01-03 12:36:59.415380	330.4	9.2	-67.4	7.4
2026-01-03 12:37:01.658893	330.6	9.0	-66.8	8.5
2026-01-03 12:37:03.897902	330.8	8.9	-66.8	9.3
2026-01-03 12:37:06.129414	331.0	8.7	-66.4	7.1
2026-01-03 12:37:08.363917	331.2	8.5	-66.7	7.7
2026-01-03 12:37:10.601925	331.4	8.4	-66.0	6.5
2026-01-03 12:37:12.840949	331.5	8.2	-66.1	7.7
2026-01-03 12:37:15.074964	331.7	8.1	-66.0	5.0
2026-01-03 12:37:17.310981	331.9	7.9	-66.4	3.3
2026-01-03 12:37:19.544491	332.1	7.7	-66.3	6.4
2026-01-03 12:37:21.777995	332.2	7.6	-65.6	7.1
2026-01-03 12:37:24.012515	332.4	7.4	-66.7	4.6
2026-01-03 12:37:26.245034	332.6	7.3	-65.7	3.0
2026-01-03 12:37:28.480041	332.7	7.1	-65.6	6.7
2026-01-03 12:37:30.712049	332.9	7.0	-66.3	6.8
2026-01-03 12:37:32.945560	333.1	6.8	-65.8	3.0
2026-01-03 12:37:35.178071	333.2	6.7	-65.5	5.6
2026-01-03 12:37:37.409582	333.4	6.5	-65.1	5.1
2026-01-03 12:37:39.641093	333.5	6.4	-66.1	2.1
2026-01-03 12:37:41.875596	333.7	6.2	-64.2	2.9
2026-01-03 12:37:44.109126	333.9	6.1	-65.9	3.3
2026-01-03 12:37:46.342142	334.0	5.9	-67.9	0.9
2026-01-03 12:37:48.574644	334.2	5.8	-69.1	0.0
2026-01-03 12:37:50.807660	334.3	5.6	-70.0	0.0
2026-01-03 12:37:53.038170	334.5	5.5	-69.4	0.0
2026-01-03 12:37:55.269689	334.6	5.3	-69.6	0.0
2026-01-03 12:37:57.501695	334.8	5.2	-70.2	0.0
2026-01-03 12:37:59.732702	334.9	5.0	-71.3	0.0
#Closed at: 2026-01-03 12:25:55.446885