passes_logs/2026/01/03/PlanumMoscow/PlanumMoscow__20260103_082623_METEOR-M2_3_rec.log

#Pass ID: 20260103_082623_METEOR-M2 3
#Satellite: METEOR-M2 3
#Configuration: METEOR-M2 3
#Start time: 2026-01-03 08:26:28.706888

#LorettStation: 1.0.0 05.05.2024
#Station: PlanumMoscow
#Location: 37.6253844 lon 55.6713361 lat
#TLE: 1 57166U 23091A   25293.99389264  .00000062  00000+0  46113-4 0  9997
#TLE: 2 57166  98.6457 348.4330 0004759 135.3141 224.8422 14.24016546120475

#Time	Az	El	Level	SNR
2026-01-03 08:30:07.218786	348.5	25.2	-61.9	8.0
2026-01-03 08:30:09.455297	348.1	25.5	-62.3	7.2
2026-01-03 08:30:11.693305	347.6	25.8	-62.7	8.2
2026-01-03 08:30:13.928322	347.2	26.1	-62.8	8.3
2026-01-03 08:30:16.165329	346.7	26.3	-62.5	8.1
2026-01-03 08:30:18.406339	346.2	26.6	-62.5	8.3
2026-01-03 08:30:20.646852	345.8	26.9	-62.5	8.9
2026-01-03 08:30:22.886364	345.3	27.2	-62.7	8.6
2026-01-03 08:30:25.124373	344.8	27.5	-62.5	8.8
2026-01-03 08:30:27.362381	344.3	27.7	-62.9	9.0
2026-01-03 08:30:29.595893	343.8	28.0	-63.0	8.8
2026-01-03 08:30:31.833397	343.2	28.3	-62.7	8.4
2026-01-03 08:30:34.069405	342.7	28.6	-62.6	8.7
2026-01-03 08:30:36.301916	342.2	28.9	-63.1	8.7
2026-01-03 08:30:38.535428	341.6	29.1	-62.9	8.9
2026-01-03 08:30:40.769939	341.0	29.4	-62.5	9.0
2026-01-03 08:30:43.006462	340.5	29.7	-62.5	8.6
2026-01-03 08:30:45.248975	339.9	30.0	-62.5	8.3
2026-01-03 08:30:47.493986	339.3	30.3	-62.7	8.2
2026-01-03 08:30:49.737500	338.7	30.5	-63.0	7.9
2026-01-03 08:30:51.983510	338.1	30.8	-62.9	8.2
2026-01-03 08:30:54.227528	337.4	31.1	-63.3	8.1
2026-01-03 08:30:56.472034	336.8	31.4	-62.9	8.1
2026-01-03 08:30:58.717052	336.2	31.7	-63.3	8.2
2026-01-03 08:31:00.961558	335.5	31.9	-63.2	8.1
2026-01-03 08:31:03.201079	334.8	32.2	-63.1	7.9
2026-01-03 08:31:05.444601	334.1	32.5	-62.7	7.4
2026-01-03 08:31:07.684121	333.5	32.7	-62.9	7.8
2026-01-03 08:31:09.918633	332.8	33.0	-63.5	7.9
2026-01-03 08:31:12.157146	332.0	33.3	-63.3	8.3
2026-01-03 08:31:14.394658	331.3	33.5	-63.3	8.3
2026-01-03 08:31:16.630674	330.6	33.8	-63.0	7.8
2026-01-03 08:31:18.871178	329.8	34.0	-63.1	7.8
2026-01-03 08:31:21.109683	329.1	34.3	-63.0	8.4
2026-01-03 08:31:23.345690	328.3	34.5	-62.7	8.8
2026-01-03 08:31:25.584708	327.5	34.8	-63.1	9.2
2026-01-03 08:31:27.822228	326.7	35.0	-62.8	9.2
2026-01-03 08:31:30.061749	325.9	35.2	-63.0	8.8
2026-01-03 08:31:32.298262	325.1	35.5	-63.0	8.9
2026-01-03 08:31:34.539280	324.2	35.7	-62.9	8.7
2026-01-03 08:31:36.777793	323.4	35.9	-63.0	8.8
2026-01-03 08:31:39.017305	322.5	36.1	-62.8	9.1
2026-01-03 08:31:41.253817	321.7	36.3	-63.2	9.2
2026-01-03 08:31:43.485824	320.8	36.5	-63.1	8.5
2026-01-03 08:31:45.726833	319.9	36.7	-63.3	8.9
2026-01-03 08:31:47.967851	319.0	36.9	-63.3	8.7
2026-01-03 08:31:50.206371	318.1	37.1	-63.1	9.0
2026-01-03 08:31:52.443884	317.2	37.2	-63.0	8.4
2026-01-03 08:31:54.680396	316.2	37.4	-63.4	7.9
2026-01-03 08:31:56.919917	315.3	37.6	-63.3	7.4
2026-01-03 08:31:59.159934	314.4	37.7	-63.5	7.7
2026-01-03 08:32:01.396966	313.4	37.8	-63.6	7.6
2026-01-03 08:32:03.634983	312.4	38.0	-63.6	7.2
2026-01-03 08:32:05.873992	311.5	38.1	-63.3	7.2
2026-01-03 08:32:08.114512	310.5	38.2	-63.2	6.7
2026-01-03 08:32:10.351016	309.5	38.3	-63.3	7.0
2026-01-03 08:32:12.592530	308.5	38.4	-62.8	7.1
2026-01-03 08:32:14.831051	307.5	38.5	-63.3	7.1
2026-01-03 08:32:17.070564	306.5	38.6	-62.7	6.5
2026-01-03 08:32:19.310085	305.5	38.6	-62.9	7.1
2026-01-03 08:32:21.547102	304.5	38.7	-63.2	7.0
2026-01-03 08:32:23.790615	303.5	38.7	-62.9	6.6
2026-01-03 08:32:26.030136	302.5	38.8	-63.4	6.9
2026-01-03 08:32:28.276156	301.5	38.8	-63.0	7.4
2026-01-03 08:32:30.520165	300.4	38.8	-62.9	7.0
2026-01-03 08:32:32.763679	299.4	38.8	-62.9	6.4
2026-01-03 08:32:35.007688	298.4	38.8	-62.9	7.1
2026-01-03 08:32:37.250210	297.4	38.8	-62.8	7.7
2026-01-03 08:32:39.492733	296.4	38.7	-63.1	7.8
2026-01-03 08:32:41.735742	295.3	38.7	-62.3	7.8
2026-01-03 08:32:43.973750	294.3	38.7	-62.7	7.3
2026-01-03 08:32:46.209281	293.3	38.6	-63.1	7.5
2026-01-03 08:32:48.448289	292.3	38.5	-62.9	7.7
2026-01-03 08:32:50.690359	291.3	38.5	-62.8	8.0
2026-01-03 08:32:52.929872	290.3	38.4	-61.9	6.9
2026-01-03 08:32:55.169376	289.3	38.3	-63.2	7.1
2026-01-03 08:32:57.410385	288.3	38.2	-63.0	7.0
2026-01-03 08:32:59.652402	287.4	38.1	-63.3	6.8
2026-01-03 08:33:01.891924	286.4	37.9	-62.7	7.1
2026-01-03 08:33:04.131933	285.4	37.8	-61.9	5.9
2026-01-03 08:33:06.373941	284.5	37.7	-62.5	7.0
2026-01-03 08:33:08.610962	283.5	37.5	-63.0	7.8
2026-01-03 08:33:10.852971	282.6	37.3	-61.9	6.9
2026-01-03 08:33:13.092998	281.7	37.2	-62.1	8.5
2026-01-03 08:33:15.331006	280.7	37.0	-62.1	8.7
2026-01-03 08:33:17.566023	279.8	36.8	-61.9	8.4
2026-01-03 08:33:19.806537	278.9	36.6	-60.9	4.6
2026-01-03 08:33:22.044049	278.1	36.4	-62.3	8.5
2026-01-03 08:33:24.275065	277.2	36.2	-62.3	7.8
2026-01-03 08:33:26.513089	276.3	36.0	-59.4	4.5
2026-01-03 08:33:28.754107	275.5	35.8	-61.6	6.2
2026-01-03 08:33:30.993132	274.6	35.6	-62.3	7.6
2026-01-03 08:33:33.232141	273.8	35.4	-61.1	5.6
2026-01-03 08:33:35.472646	273.0	35.1	-62.6	6.9
2026-01-03 08:33:37.713655	272.2	34.9	-61.9	7.0
2026-01-03 08:33:39.952168	271.4	34.7	-61.7	6.6
2026-01-03 08:33:42.191185	270.6	34.4	-61.8	6.6
2026-01-03 08:33:44.430194	269.8	34.2	-62.0	6.2
2026-01-03 08:33:46.674204	269.0	33.9	-61.7	5.6
2026-01-03 08:33:48.916739	268.3	33.7	-61.8	6.1
2026-01-03 08:33:51.161244	267.5	33.4	-61.3	6.2
2026-01-03 08:33:53.405254	266.8	33.1	-61.9	6.7
2026-01-03 08:33:55.648768	266.1	32.9	-61.8	6.2
2026-01-03 08:33:57.892282	265.4	32.6	-61.2	6.5
2026-01-03 08:34:00.134794	264.7	32.3	-61.3	6.8
2026-01-03 08:34:02.379309	264.0	32.1	-61.7	6.6
2026-01-03 08:34:04.618829	263.4	31.8	-59.8	4.5
2026-01-03 08:34:06.855851	262.7	31.5	-61.6	6.3
2026-01-03 08:34:09.098373	262.1	31.2	-61.9	6.8
2026-01-03 08:34:11.341886	261.4	31.0	-61.7	6.1
2026-01-03 08:34:13.581390	260.8	30.7	-61.6	7.2
2026-01-03 08:34:15.820895	260.2	30.4	-61.2	6.2
2026-01-03 08:34:18.063905	259.6	30.1	-61.5	7.2
2026-01-03 08:34:20.302922	259.0	29.8	-61.4	6.3
2026-01-03 08:34:22.543932	258.4	29.6	-61.1	5.7
2026-01-03 08:34:24.783951	257.8	29.3	-61.5	6.7
2026-01-03 08:34:27.026968	257.3	29.0	-60.0	7.0
2026-01-03 08:34:29.266977	256.7	28.7	-61.7	6.2
2026-01-03 08:34:31.506986	256.2	28.4	-61.6	6.0
2026-01-03 08:34:33.747499	255.6	28.1	-61.9	7.1
2026-01-03 08:34:35.986507	255.1	27.9	-62.2	6.6
2026-01-03 08:34:38.227516	254.6	27.6	-61.5	6.5
2026-01-03 08:34:40.466524	254.1	27.3	-61.2	6.0
2026-01-03 08:34:42.710535	253.6	27.0	-59.7	4.5
2026-01-03 08:34:44.950544	253.1	26.7	-59.8	3.9
2026-01-03 08:34:47.191553	252.6	26.4	-59.5	3.8
2026-01-03 08:34:49.433562	252.2	26.2	-60.1	4.1
2026-01-03 08:34:51.674579	251.7	25.9	-60.2	4.6
2026-01-03 08:34:53.913084	251.3	25.6	-59.8	5.3
2026-01-03 08:34:56.153596	250.8	25.3	-61.1	6.1
2026-01-03 08:34:58.393613	250.4	25.1	-60.2	5.1
2026-01-03 08:35:00.632135	249.9	24.8	-60.6	4.9
2026-01-03 08:35:02.869160	249.5	24.5	-61.8	5.8
2026-01-03 08:35:05.106672	249.1	24.2	-61.8	5.7
2026-01-03 08:35:07.348186	248.7	24.0	-61.7	6.2
2026-01-03 08:35:09.592203	248.3	23.7	-61.3	5.1
2026-01-03 08:35:11.831212	247.9	23.4	-61.0	5.6
2026-01-03 08:35:14.066219	247.5	23.2	-61.0	5.1
2026-01-03 08:35:16.302740	247.1	22.9	-61.1	5.6
2026-01-03 08:35:18.544758	246.8	22.6	-61.0	4.9
2026-01-03 08:35:20.788271	246.4	22.4	-61.5	5.7
2026-01-03 08:35:23.025775	246.0	22.1	-61.3	4.6
2026-01-03 08:35:25.261289	245.7	21.8	-60.9	3.7
2026-01-03 08:35:27.498792	245.3	21.6	-62.7	5.1
2026-01-03 08:35:29.736801	245.0	21.3	-61.6	3.6
2026-01-03 08:35:31.972826	244.7	21.1	-62.8	4.9
2026-01-03 08:35:34.206834	244.3	20.8	-61.9	5.1
2026-01-03 08:35:36.442849	244.0	20.6	-62.6	4.6
2026-01-03 08:35:38.680858	243.7	20.3	-62.3	5.7
2026-01-03 08:35:40.917874	243.4	20.1	-62.7	5.5
2026-01-03 08:35:43.151377	243.1	19.8	-61.8	4.7
2026-01-03 08:35:45.388889	242.7	19.6	-61.5	4.6
2026-01-03 08:35:47.625899	242.4	19.3	-61.7	4.7
2026-01-03 08:35:49.860915	242.2	19.1	-60.8	4.4
2026-01-03 08:35:52.095931	241.9	18.8	-62.7	4.9
2026-01-03 08:35:54.330451	241.6	18.6	-62.5	5.4
2026-01-03 08:35:56.568963	241.3	18.4	-62.7	4.9
2026-01-03 08:35:58.807476	241.0	18.1	-62.5	4.4
2026-01-03 08:36:01.050981	240.7	17.9	-62.3	5.7
2026-01-03 08:36:03.295000	240.5	17.7	-63.3	6.1
2026-01-03 08:36:05.538506	240.2	17.4	-62.7	5.2
2026-01-03 08:36:07.778523	239.9	17.2	-63.4	5.4
2026-01-03 08:36:10.011025	239.7	17.0	-62.8	5.1
2026-01-03 08:36:12.246042	239.4	16.7	-63.4	5.7
2026-01-03 08:36:14.480049	239.2	16.5	-63.0	5.6
2026-01-03 08:36:16.723059	238.9	16.3	-62.8	3.5
2026-01-03 08:36:18.967564	238.7	16.1	-63.0	4.7
2026-01-03 08:36:21.202580	238.5	15.8	-63.5	5.6
2026-01-03 08:36:23.437083	238.2	15.6	-63.3	4.8
2026-01-03 08:36:25.675092	238.0	15.4	-62.6	4.7
2026-01-03 08:36:27.911099	237.8	15.2	-63.5	5.5
2026-01-03 08:36:30.147620	237.6	15.0	-63.3	4.8
2026-01-03 08:36:32.384627	237.3	14.8	-63.2	4.6
2026-01-03 08:36:34.622140	237.1	14.5	-63.5	4.4
2026-01-03 08:36:36.861653	236.9	14.3	-63.9	5.1
2026-01-03 08:36:39.098669	236.7	14.1	-64.1	5.4
2026-01-03 08:36:41.334172	236.5	13.9	-63.6	4.1
2026-01-03 08:36:43.571180	236.3	13.7	-63.4	4.0
2026-01-03 08:36:45.806187	236.1	13.5	-63.9	4.9
2026-01-03 08:36:48.045709	235.9	13.3	-64.0	5.2
2026-01-03 08:36:50.285214	235.7	13.1	-63.4	3.6
2026-01-03 08:36:52.521725	235.5	12.9	-63.1	3.8
2026-01-03 08:36:54.761734	235.3	12.7	-63.8	3.6
2026-01-03 08:36:57.001247	235.1	12.5	-64.0	4.1
2026-01-03 08:36:59.238264	234.9	12.3	-63.8	3.2
2026-01-03 08:37:01.473272	234.7	12.1	-63.8	4.1
2026-01-03 08:37:03.716281	234.6	11.9	-64.4	4.5
2026-01-03 08:37:05.954298	234.4	11.7	-64.7	4.4
2026-01-03 08:37:08.194323	234.2	11.5	-64.0	4.2
2026-01-03 08:37:10.434358	234.0	11.3	-64.2	3.7
2026-01-03 08:37:12.673366	233.9	11.2	-64.3	4.2
2026-01-03 08:37:14.911879	233.7	11.0	-64.7	3.7
2026-01-03 08:37:17.150383	233.5	10.8	-65.0	4.3
2026-01-03 08:37:19.391904	233.4	10.6	-64.4	3.5
2026-01-03 08:37:21.635426	233.2	10.4	-64.8	4.1
2026-01-03 08:37:23.874937	233.0	10.2	-64.5	3.2
2026-01-03 08:37:26.110955	232.9	10.0	-65.0	4.2
2026-01-03 08:37:28.348971	232.7	9.9	-64.7	4.4
2026-01-03 08:37:30.587491	232.6	9.7	-64.8	4.1
2026-01-03 08:37:32.827004	232.4	9.5	-65.0	3.8
2026-01-03 08:37:35.064523	232.3	9.3	-65.2	3.8
2026-01-03 08:37:37.304533	232.1	9.1	-64.6	3.7
2026-01-03 08:37:39.544046	232.0	9.0	-65.0	4.3
2026-01-03 08:37:41.781550	231.8	8.8	-65.1	4.2
2026-01-03 08:37:44.021054	231.7	8.6	-64.8	4.3
2026-01-03 08:37:46.259568	231.5	8.4	-64.9	4.0
2026-01-03 08:37:48.496080	231.4	8.3	-65.1	4.1
2026-01-03 08:37:50.735097	231.3	8.1	-65.1	4.1
2026-01-03 08:37:52.977106	231.1	7.9	-65.0	3.6
2026-01-03 08:37:55.217123	231.0	7.8	-65.2	3.9
2026-01-03 08:37:57.458644	230.9	7.6	-65.6	4.5
2026-01-03 08:37:59.700149	230.7	7.4	-64.9	3.5
2026-01-03 08:38:01.939670	230.6	7.3	-65.6	3.6
2026-01-03 08:38:04.181184	230.5	7.1	-65.5	4.9
2026-01-03 08:38:06.417696	230.4	6.9	-65.5	4.7
2026-01-03 08:38:08.655200	230.2	6.8	-65.3	4.1
2026-01-03 08:38:10.895217	230.1	6.6	-65.3	5.1
2026-01-03 08:38:13.132738	230.0	6.4	-65.4	4.3
2026-01-03 08:38:15.370763	229.9	6.3	-65.5	4.6
2026-01-03 08:38:17.608292	229.7	6.1	-65.6	3.8
2026-01-03 08:38:19.845317	229.6	6.0	-63.6	0.0
2026-01-03 08:38:22.084334	229.5	5.8	-66.8	0.0
2026-01-03 08:38:24.327849	229.4	5.7	-67.7	0.0
2026-01-03 08:38:26.568857	229.3	5.5	-70.1	0.0
2026-01-03 08:38:28.806866	229.2	5.3	-72.4	0.0
2026-01-03 08:38:31.041378	229.1	5.2	-73.1	0.0
2026-01-03 08:38:33.273880	228.9	5.0	-73.0	0.0
#Closed at: 2026-01-03 08:26:23.708909