passes_logs/2026/01/03/PlanumMoscow/PlanumMoscow__20260103_005545_METEOR-M2_4_rec.log

#Pass ID: 20260103_005545_METEOR-M2 4
#Satellite: METEOR-M2 4
#Configuration: METEOR-M2 4
#Start time: 2026-01-03 00:55:50.253880

#LorettStation: 1.0.0 05.05.2024
#Station: PlanumMoscow
#Location: 37.6253844 lon 55.6713361 lat
#TLE: 1 59051U 24039A   25293.94737965  .00000087  00000+0  58459-4 0  9998
#TLE: 2 59051  98.6671 251.7071 0007726 135.4772 224.7028 14.22388966 85257

#Time	Az	El	Level	SNR
2026-01-03 00:59:28.680652	20.3	29.2	-61.8	11.7
2026-01-03 00:59:30.925662	20.4	29.6	-63.0	12.6
2026-01-03 00:59:33.168680	20.5	30.1	-63.1	12.1
2026-01-03 00:59:35.411209	20.5	30.5	-62.4	12.7
2026-01-03 00:59:37.653226	20.6	30.9	-63.0	12.3
2026-01-03 00:59:39.889730	20.7	31.4	-61.5	8.4
2026-01-03 00:59:42.128251	20.8	31.8	-60.9	9.6
2026-01-03 00:59:44.367267	20.8	32.3	-62.5	11.8
2026-01-03 00:59:46.601275	20.9	32.7	-62.6	11.6
2026-01-03 00:59:48.841780	21.0	33.2	-62.2	11.1
2026-01-03 00:59:51.081788	21.1	33.7	-62.9	11.0
2026-01-03 00:59:53.317309	21.2	34.2	-63.2	11.9
2026-01-03 00:59:55.556830	21.3	34.7	-60.5	6.4
2026-01-03 00:59:57.798839	21.4	35.2	-61.5	9.1
2026-01-03 01:00:00.035359	21.5	35.7	-62.5	11.3
2026-01-03 01:00:02.272375	21.6	36.2	-62.2	10.7
2026-01-03 01:00:04.510392	21.7	36.7	-62.5	10.4
2026-01-03 01:00:06.746408	21.8	37.3	-62.2	9.5
2026-01-03 01:00:08.982425	21.9	37.8	-62.1	10.9
2026-01-03 01:00:11.217432	22.0	38.4	-59.9	6.9
2026-01-03 01:00:13.454449	22.1	38.9	-62.2	9.5
2026-01-03 01:00:15.695466	22.2	39.5	-61.9	9.8
2026-01-03 01:00:17.935979	22.3	40.1	-60.0	6.3
2026-01-03 01:00:20.169987	22.5	40.7	-62.5	9.9
2026-01-03 01:00:22.406499	22.6	41.3	-62.9	9.0
2026-01-03 01:00:24.644508	22.7	41.9	-62.5	8.2
2026-01-03 01:00:26.883020	22.9	42.5	-63.1	9.1
2026-01-03 01:00:29.120028	23.0	43.1	-62.7	9.0
2026-01-03 01:00:31.357541	23.2	43.8	-60.0	3.1
2026-01-03 01:00:33.597558	23.3	44.4	-62.2	5.5
2026-01-03 01:00:35.837070	23.5	45.1	-61.5	5.6
2026-01-03 01:00:38.076078	23.7	45.8	-61.2	6.4
2026-01-03 01:00:40.311086	23.9	46.4	-61.1	7.1
2026-01-03 01:00:42.554104	24.0	47.1	-61.0	5.1
2026-01-03 01:00:44.793112	24.2	47.8	-62.4	5.2
2026-01-03 01:00:47.031625	24.4	48.6	-61.6	5.3
2026-01-03 01:00:49.274635	24.7	49.3	-62.8	4.8
2026-01-03 01:00:51.516652	24.9	50.0	-61.8	4.2
2026-01-03 01:00:53.757164	25.1	50.8	-62.1	4.8
2026-01-03 01:00:55.995173	25.4	51.6	-64.1	7.7
2026-01-03 01:00:58.236181	25.6	52.3	-63.1	4.5
2026-01-03 01:01:00.478686	25.9	53.1	-62.9	5.4
2026-01-03 01:01:02.721695	26.2	53.9	-62.9	5.3
2026-01-03 01:01:04.961216	26.5	54.8	-64.7	8.6
2026-01-03 01:01:07.200729	26.8	55.6	-63.9	7.7
2026-01-03 01:01:09.444242	27.1	56.4	-64.2	8.9
2026-01-03 01:01:11.687756	27.5	57.3	-64.7	8.9
2026-01-03 01:01:13.932261	27.9	58.1	-64.6	7.7
2026-01-03 01:01:16.173775	28.3	59.0	-65.3	9.6
2026-01-03 01:01:18.413287	28.7	59.9	-65.5	8.4
2026-01-03 01:01:20.653810	29.2	60.8	-66.0	9.5
2026-01-03 01:01:22.898316	29.7	61.7	-64.8	5.6
2026-01-03 01:01:25.141332	30.2	62.6	-66.4	9.5
2026-01-03 01:01:27.384350	30.8	63.6	-66.0	8.6
2026-01-03 01:01:29.625872	31.5	64.5	-66.4	9.7
2026-01-03 01:01:31.864896	32.1	65.5	-65.3	9.4
2026-01-03 01:01:34.103400	32.9	66.4	-65.9	11.0
2026-01-03 01:01:36.344409	33.7	67.4	-66.0	11.3
2026-01-03 01:01:38.583930	34.6	68.4	-65.8	10.9
2026-01-03 01:01:40.821946	35.6	69.3	-66.1	11.2
2026-01-03 01:01:43.061955	36.7	70.3	-66.1	11.3
2026-01-03 01:01:45.301964	37.9	71.3	-66.3	11.0
2026-01-03 01:01:47.539477	39.2	72.3	-67.0	11.0
2026-01-03 01:01:49.781999	40.8	73.3	-67.0	10.8
2026-01-03 01:01:52.014510	42.5	74.3	-67.5	11.5
2026-01-03 01:01:54.252014	44.4	75.2	-67.4	10.8
2026-01-03 01:01:56.491535	46.7	76.2	-67.5	11.8
2026-01-03 01:01:58.729552	49.2	77.1	-67.1	12.3
2026-01-03 01:02:00.967072	52.2	78.0	-67.6	13.0
2026-01-03 01:02:03.208576	55.7	78.9	-67.6	13.2
2026-01-03 01:02:05.445080	59.8	79.8	-67.2	13.2
2026-01-03 01:02:07.682592	64.7	80.6	-67.3	13.5
2026-01-03 01:02:09.922104	70.3	81.3	-67.4	14.2
2026-01-03 01:02:12.158112	76.9	81.9	-67.4	14.1
2026-01-03 01:02:14.393632	84.5	82.4	-67.5	13.9
2026-01-03 01:02:16.631640	93.0	82.7	-67.3	14.8
2026-01-03 01:02:18.870154	102.1	82.9	-67.5	14.9
2026-01-03 01:02:21.110658	111.5	82.9	-67.2	14.7
2026-01-03 01:02:23.346666	120.6	82.7	-67.3	14.9
2026-01-03 01:02:25.588171	129.0	82.3	-67.5	15.5
2026-01-03 01:02:27.827692	136.5	81.8	-67.3	15.3
2026-01-03 01:02:30.065196	143.0	81.2	-67.6	14.9
2026-01-03 01:02:32.302717	148.6	80.5	-67.7	15.6
2026-01-03 01:02:34.539725	153.4	79.7	-67.3	15.7
2026-01-03 01:02:36.777237	157.4	78.8	-67.5	16.1
2026-01-03 01:02:39.015254	160.8	78.0	-67.7	15.6
2026-01-03 01:02:41.251262	163.8	77.0	-68.0	14.9
2026-01-03 01:02:43.489774	166.3	76.1	-68.0	15.6
2026-01-03 01:02:45.729279	168.6	75.1	-68.2	14.4
2026-01-03 01:02:47.968783	170.5	74.1	-68.5	14.3
2026-01-03 01:02:50.205296	172.2	73.2	-68.4	14.6
2026-01-03 01:02:52.447313	173.7	72.2	-68.7	14.3
2026-01-03 01:02:54.685322	175.0	71.2	-68.7	14.2
2026-01-03 01:02:56.920842	176.2	70.2	-68.4	14.5
2026-01-03 01:02:59.160363	177.3	69.2	-68.8	14.2
2026-01-03 01:03:01.403877	178.3	68.2	-68.6	13.6
2026-01-03 01:03:03.647390	179.2	67.3	-69.1	12.8
2026-01-03 01:03:05.891896	180.0	66.3	-69.3	12.2
2026-01-03 01:03:08.134418	180.7	65.3	-69.3	12.0
2026-01-03 01:03:10.372426	181.4	64.4	-69.4	11.9
2026-01-03 01:03:12.615939	182.0	63.4	-68.9	12.9
2026-01-03 01:03:14.857965	182.6	62.5	-68.8	13.2
2026-01-03 01:03:17.101479	183.1	61.6	-68.4	12.8
2026-01-03 01:03:19.341991	183.6	60.7	-68.6	13.1
2026-01-03 01:03:21.580503	184.1	59.8	-68.7	12.2
2026-01-03 01:03:23.818521	184.5	58.9	-68.8	12.1
2026-01-03 01:03:26.056025	184.9	58.0	-68.8	11.7
2026-01-03 01:03:28.293547	185.3	57.1	-68.7	11.5
2026-01-03 01:03:30.532573	185.7	56.3	-68.5	11.7
2026-01-03 01:03:32.772590	186.0	55.4	-68.6	11.7
2026-01-03 01:03:35.009111	186.3	54.6	-68.6	11.9
2026-01-03 01:03:37.246128	186.6	53.8	-67.9	12.2
2026-01-03 01:03:39.485642	186.9	53.0	-68.5	12.3
2026-01-03 01:03:41.728154	187.2	52.2	-68.5	11.7
2026-01-03 01:03:43.966659	187.4	51.4	-68.2	12.1
2026-01-03 01:03:46.205172	187.7	50.6	-68.0	12.6
2026-01-03 01:03:48.443685	187.9	49.9	-68.4	12.0
2026-01-03 01:03:50.683702	188.1	49.1	-67.9	12.5
2026-01-03 01:03:52.922719	188.4	48.4	-67.8	12.8
2026-01-03 01:03:55.162223	188.6	47.7	-68.1	12.8
2026-01-03 01:03:57.398239	188.8	47.0	-67.9	12.7
2026-01-03 01:03:59.637760	188.9	46.3	-68.1	12.7
2026-01-03 01:04:01.878264	189.1	45.6	-67.5	13.2
2026-01-03 01:04:04.116272	189.3	44.9	-67.6	13.5
2026-01-03 01:04:06.355281	189.5	44.3	-67.6	13.8
2026-01-03 01:04:08.594802	189.6	43.6	-67.0	12.6
2026-01-03 01:04:10.833811	189.8	43.0	-67.3	13.4
2026-01-03 01:04:13.070323	189.9	42.3	-66.6	12.8
2026-01-03 01:04:15.307835	190.0	41.7	-67.1	12.8
2026-01-03 01:04:17.546844	190.2	41.1	-66.4	12.9
2026-01-03 01:04:19.785852	190.3	40.5	-67.0	13.2
2026-01-03 01:04:22.029365	190.4	39.9	-67.1	13.9
2026-01-03 01:04:24.272879	190.6	39.3	-66.5	13.8
2026-01-03 01:04:26.520898	190.7	38.7	-66.6	14.1
2026-01-03 01:04:28.764908	190.8	38.2	-66.8	13.1
2026-01-03 01:04:31.008421	190.9	37.6	-66.5	13.6
2026-01-03 01:04:33.252927	191.0	37.1	-66.3	13.4
2026-01-03 01:04:35.492953	191.1	36.5	-65.8	13.8
2026-01-03 01:04:37.726960	191.2	36.0	-65.9	12.2
2026-01-03 01:04:39.960472	191.3	35.5	-66.5	13.3
2026-01-03 01:04:42.198480	191.4	35.0	-66.3	13.8
2026-01-03 01:04:44.435993	191.5	34.5	-66.6	13.7
2026-01-03 01:04:46.671009	191.6	34.0	-66.8	13.7
2026-01-03 01:04:48.907521	191.7	33.5	-66.5	13.3
2026-01-03 01:04:51.145042	191.8	33.0	-66.8	13.2
2026-01-03 01:04:53.383546	191.9	32.5	-66.8	13.7
2026-01-03 01:04:55.621563	191.9	32.1	-66.5	13.9
2026-01-03 01:04:57.859074	192.0	31.6	-66.4	14.4
2026-01-03 01:05:00.098587	192.1	31.2	-66.0	13.9
2026-01-03 01:05:02.336604	192.2	30.7	-66.3	11.8
2026-01-03 01:05:04.575108	192.2	30.3	-66.3	14.6
2026-01-03 01:05:06.812612	192.3	29.8	-66.4	14.8
2026-01-03 01:05:09.047620	192.4	29.4	-66.1	14.7
2026-01-03 01:05:11.282132	192.4	29.0	-66.1	15.0
2026-01-03 01:05:13.518148	192.5	28.6	-66.0	13.1
2026-01-03 01:05:15.758653	192.6	28.2	-66.2	14.7
2026-01-03 01:05:17.998165	192.6	27.8	-66.4	15.0
2026-01-03 01:05:20.237678	192.7	27.4	-66.3	14.6
2026-01-03 01:05:22.472687	192.8	27.0	-66.4	14.3
2026-01-03 01:05:24.710704	192.8	26.6	-66.4	14.6
2026-01-03 01:05:26.949712	192.9	26.2	-66.0	13.3
2026-01-03 01:05:29.188233	192.9	25.9	-65.7	11.4
2026-01-03 01:05:31.424745	193.0	25.5	-66.0	14.4
2026-01-03 01:05:33.664754	193.0	25.1	-65.7	14.0
2026-01-03 01:05:35.907783	193.1	24.8	-65.7	13.9
2026-01-03 01:05:38.154793	193.2	24.4	-66.4	14.0
2026-01-03 01:05:40.398308	193.2	24.1	-66.2	13.1
2026-01-03 01:05:42.642318	193.3	23.7	-66.6	10.1
2026-01-03 01:05:44.888327	193.3	23.4	-65.9	13.8
2026-01-03 01:05:47.131344	193.4	23.1	-65.0	12.3
2026-01-03 01:05:49.374371	193.4	22.7	-65.3	12.7
2026-01-03 01:05:51.613388	193.4	22.4	-65.9	14.0
2026-01-03 01:05:53.850913	193.5	22.1	-66.1	13.3
2026-01-03 01:05:56.090431	193.5	21.8	-65.7	14.3
2026-01-03 01:05:58.328944	193.6	21.4	-66.1	14.0
2026-01-03 01:06:00.566952	193.6	21.1	-66.3	14.1
2026-01-03 01:06:02.808457	193.7	20.8	-66.0	13.3
2026-01-03 01:06:05.050476	193.7	20.5	-66.2	12.9
2026-01-03 01:06:07.285979	193.8	20.2	-66.4	13.2
2026-01-03 01:06:09.522004	193.8	19.9	-66.8	13.5
2026-01-03 01:06:11.759029	193.8	19.6	-65.8	12.6
2026-01-03 01:06:13.995054	193.9	19.3	-66.4	12.6
2026-01-03 01:06:16.231567	193.9	19.1	-66.2	12.7
2026-01-03 01:06:18.468079	194.0	18.8	-66.7	13.4
2026-01-03 01:06:20.706592	194.0	18.5	-66.4	12.6
2026-01-03 01:06:22.941600	194.0	18.2	-66.5	13.5
2026-01-03 01:06:25.180608	194.1	18.0	-65.9	12.8
2026-01-03 01:06:27.419625	194.1	17.7	-65.6	12.3
2026-01-03 01:06:29.656129	194.1	17.4	-66.3	13.1
2026-01-03 01:06:31.894146	194.2	17.1	-65.6	13.3
2026-01-03 01:06:34.130154	194.2	16.9	-66.4	13.4
2026-01-03 01:06:36.371172	194.2	16.6	-66.4	12.4
2026-01-03 01:06:38.607676	194.3	16.4	-66.5	13.1
2026-01-03 01:06:40.847180	194.3	16.1	-66.8	12.9
2026-01-03 01:06:43.083196	194.3	15.9	-66.9	12.0
2026-01-03 01:06:45.322700	194.4	15.6	-66.5	12.3
2026-01-03 01:06:47.561708	194.4	15.4	-66.0	12.2
2026-01-03 01:06:49.803221	194.4	15.1	-66.2	12.4
2026-01-03 01:06:52.046735	194.5	14.9	-66.3	12.2
2026-01-03 01:06:54.289753	194.5	14.7	-66.0	11.9
2026-01-03 01:06:56.533268	194.5	14.4	-65.5	11.2
2026-01-03 01:06:58.777782	194.6	14.2	-66.2	11.8
2026-01-03 01:07:01.017799	194.6	13.9	-65.4	10.4
2026-01-03 01:07:03.253311	194.6	13.7	-65.7	12.0
2026-01-03 01:07:05.488327	194.7	13.5	-66.2	10.8
2026-01-03 01:07:07.724343	194.7	13.3	-66.7	11.3
2026-01-03 01:07:09.965848	194.7	13.0	-66.9	11.7
2026-01-03 01:07:12.214367	194.7	12.8	-67.2	11.2
2026-01-03 01:07:14.456872	194.8	12.6	-66.5	10.8
2026-01-03 01:07:16.695376	194.8	12.4	-64.8	10.5
2026-01-03 01:07:18.936385	194.8	12.2	-66.4	10.9
2026-01-03 01:07:21.175898	194.8	12.0	-66.0	10.4
2026-01-03 01:07:23.413402	194.9	11.7	-65.3	11.4
2026-01-03 01:07:25.650411	194.9	11.5	-65.2	9.2
2026-01-03 01:07:27.890924	194.9	11.3	-65.8	10.5
2026-01-03 01:07:30.129437	194.9	11.1	-65.8	9.8
2026-01-03 01:07:32.369446	195.0	10.9	-65.8	9.9
2026-01-03 01:07:34.606454	195.0	10.7	-65.7	10.0
2026-01-03 01:07:36.850960	195.0	10.5	-66.4	10.3
2026-01-03 01:07:39.088472	195.0	10.3	-66.6	9.8
2026-01-03 01:07:41.324993	195.1	10.1	-66.5	9.0
2026-01-03 01:07:43.563010	195.1	9.9	-65.7	8.8
2026-01-03 01:07:45.802523	195.1	9.7	-65.7	7.6
2026-01-03 01:07:48.045045	195.1	9.5	-65.6	9.0
2026-01-03 01:07:50.284557	195.2	9.3	-65.7	9.2
2026-01-03 01:07:52.522061	195.2	9.2	-65.2	9.6
2026-01-03 01:07:54.761582	195.2	9.0	-64.8	8.7
2026-01-03 01:07:56.998590	195.2	8.8	-65.2	9.0
2026-01-03 01:07:59.232093	195.3	8.6	-65.4	7.8
2026-01-03 01:08:01.473598	195.3	8.4	-65.7	7.6
2026-01-03 01:08:03.711607	195.3	8.2	-64.5	7.6
2026-01-03 01:08:05.949111	195.3	8.0	-66.0	7.5
2026-01-03 01:08:08.183622	195.3	7.9	-66.1	6.9
2026-01-03 01:08:10.422126	195.4	7.7	-66.0	8.0
2026-01-03 01:08:12.661134	195.4	7.5	-66.2	8.3
2026-01-03 01:08:14.901657	195.4	7.3	-65.7	7.5
2026-01-03 01:08:17.135702	195.4	7.2	-65.4	7.4
2026-01-03 01:08:19.374207	195.5	7.0	-65.5	6.6
2026-01-03 01:08:21.611719	195.5	6.8	-63.4	5.4
2026-01-03 01:08:23.856728	195.5	6.6	-64.2	6.1
2026-01-03 01:08:26.100738	195.5	6.5	-64.3	6.0
2026-01-03 01:08:28.343260	195.5	6.3	-64.2	4.7
2026-01-03 01:08:30.585288	195.6	6.1	-65.1	5.2
2026-01-03 01:08:32.827817	195.6	6.0	-68.1	6.7
2026-01-03 01:08:35.071332	195.6	5.8	-71.0	0.0
2026-01-03 01:08:37.312853	195.6	5.6	-71.2	0.0
2026-01-03 01:08:39.556863	195.6	5.5	-71.4	0.0
2026-01-03 01:08:41.796871	195.7	5.3	-72.9	0.0
2026-01-03 01:08:44.035392	195.7	5.1	-72.1	0.0
#Closed at: 2026-01-03 00:55:45.254589