passes_logs/2026/01/03/PlanumMoscow/PlanumMoscow__20260103_195821_METEOR-M2_3_rec.log

#Pass ID: 20260103_195821_METEOR-M2 3
#Satellite: METEOR-M2 3
#Configuration: METEOR-M2 3
#Start time: 2026-01-03 19:58:26.107925

#LorettStation: 1.0.0 05.05.2024
#Station: PlanumMoscow
#Location: 37.6253844 lon 55.6713361 lat
#TLE: 1 57166U 23091A   25293.99389264  .00000062  00000+0  46113-4 0  9997
#TLE: 2 57166  98.6457 348.4330 0004759 135.3141 224.8422 14.24016546120475

#Time	Az	El	Level	SNR
2026-01-03 20:02:04.551967	274.3	11.6	-59.0	2.4
2026-01-03 20:02:05.668723	274.5	11.6	-61.1	3.2
2026-01-03 20:02:06.784974	274.7	11.6	-61.1	3.0
2026-01-03 20:02:07.903226	274.9	11.6	-61.2	2.4
2026-01-03 20:02:09.018477	275.2	11.6	-61.4	2.3
2026-01-03 20:02:10.134241	275.4	11.6	-61.3	2.2
2026-01-03 20:02:11.251493	275.6	11.6	-61.3	2.3
2026-01-03 20:02:12.367248	275.8	11.6	-61.3	2.0
2026-01-03 20:02:13.486500	276.0	11.6	-61.3	2.2
2026-01-03 20:02:14.604255	276.2	11.6	-61.5	2.2
2026-01-03 20:02:15.719506	276.4	11.6	-61.4	2.3
2026-01-03 20:02:16.837758	276.6	11.6	-61.4	2.5
2026-01-03 20:02:17.954514	276.9	11.6	-61.4	2.6
2026-01-03 20:02:19.071270	277.1	11.6	-61.3	1.9
2026-01-03 20:02:20.187026	277.3	11.6	-61.5	3.0
2026-01-03 20:02:21.301277	277.5	11.6	-61.2	2.6
2026-01-03 20:02:22.418537	277.7	11.7	-61.6	3.1
2026-01-03 20:02:23.534789	277.9	11.7	-61.5	3.1
2026-01-03 20:02:24.652049	278.1	11.7	-61.5	3.5
2026-01-03 20:02:25.773807	278.4	11.7	-61.4	3.5
2026-01-03 20:02:26.890059	278.6	11.7	-61.3	2.7
2026-01-03 20:02:28.007816	278.8	11.7	-61.7	2.6
2026-01-03 20:02:29.123571	279.0	11.7	-61.4	2.3
2026-01-03 20:02:30.241336	279.2	11.7	-61.4	2.3
2026-01-03 20:02:31.357092	279.4	11.7	-61.4	2.4
2026-01-03 20:02:32.475344	279.6	11.7	-61.5	2.7
2026-01-03 20:02:33.592604	279.9	11.7	-61.1	2.3
2026-01-03 20:02:34.706855	280.1	11.7	-61.3	1.3
2026-01-03 20:02:35.824611	280.3	11.7	-61.5	2.9
2026-01-03 20:02:36.941863	280.5	11.7	-60.8	2.4
2026-01-03 20:02:38.058619	280.7	11.7	-61.1	1.9
2026-01-03 20:02:39.173870	280.9	11.7	-61.2	3.0
2026-01-03 20:02:40.290121	281.1	11.7	-61.0	2.7
2026-01-03 20:02:41.405372	281.4	11.6	-61.4	2.2
2026-01-03 20:02:42.522624	281.6	11.6	-61.4	2.2
2026-01-03 20:02:43.637380	281.8	11.6	-61.3	2.0
2026-01-03 20:02:44.755631	282.0	11.6	-61.3	2.6
2026-01-03 20:02:45.877389	282.2	11.6	-61.2	3.0
2026-01-03 20:02:46.999146	282.4	11.6	-61.6	2.6
2026-01-03 20:02:48.121399	282.6	11.6	-61.3	0.5
2026-01-03 20:02:49.243156	282.9	11.6	-61.2	1.3
2026-01-03 20:02:50.364416	283.1	11.6	-61.3	2.0
2026-01-03 20:02:51.486181	283.3	11.6	-61.5	2.2
2026-01-03 20:02:52.608434	283.5	11.6	-61.2	0.7
2026-01-03 20:02:53.730190	283.7	11.6	-61.2	1.9
2026-01-03 20:02:54.851947	283.9	11.6	-60.9	1.4
2026-01-03 20:02:55.974200	284.1	11.6	-61.4	1.7
2026-01-03 20:02:57.095956	284.4	11.6	-61.8	2.0
2026-01-03 20:02:58.216721	284.6	11.6	-61.6	2.5
2026-01-03 20:02:59.338973	284.8	11.5	-61.5	2.1
2026-01-03 20:03:00.460730	285.0	11.5	-61.5	1.3
2026-01-03 20:03:01.578999	285.2	11.5	-61.7	1.6
2026-01-03 20:03:02.696755	285.4	11.5	-61.5	0.8
2026-01-03 20:03:03.814007	285.6	11.5	-61.2	1.8
2026-01-03 20:03:04.931258	285.9	11.5	-61.5	0.9
2026-01-03 20:03:06.048510	286.1	11.5	-61.6	1.7
2026-01-03 20:03:07.164762	286.3	11.5	-61.2	0.0
2026-01-03 20:03:08.283518	286.5	11.5	-61.6	1.6
2026-01-03 20:03:09.399273	286.7	11.5	-61.6	1.8
2026-01-03 20:03:10.518030	286.9	11.4	-61.6	0.0
2026-01-03 20:03:11.632785	287.1	11.4	-61.5	0.3
2026-01-03 20:03:12.750541	287.3	11.4	-61.4	1.4
2026-01-03 20:03:13.867793	287.5	11.4	-61.2	1.2
2026-01-03 20:03:14.985053	287.8	11.4	-61.4	2.1
2026-01-03 20:03:16.102305	288.0	11.4	-61.4	1.5
2026-01-03 20:03:17.217060	288.2	11.4	-61.3	1.7
2026-01-03 20:03:18.333320	288.4	11.3	-61.4	1.0
2026-01-03 20:03:19.453076	288.6	11.3	-61.4	0.0
2026-01-03 20:03:20.569831	288.8	11.3	-61.5	1.7
2026-01-03 20:03:21.686588	289.0	11.3	-61.4	0.9
2026-01-03 20:03:22.801342	289.2	11.3	-61.4	0.9
2026-01-03 20:03:23.918098	289.4	11.3	-61.0	0.0
2026-01-03 20:03:25.035855	289.6	11.3	-61.4	1.2
2026-01-03 20:03:26.151610	289.8	11.2	-61.4	0.8
2026-01-03 20:03:27.267870	290.1	11.2	-61.5	1.1
2026-01-03 20:03:28.384635	290.3	11.2	-61.5	1.5
2026-01-03 20:03:29.501886	290.5	11.2	-61.5	2.0
2026-01-03 20:03:30.616642	290.7	11.2	-61.2	1.9
2026-01-03 20:03:31.734902	290.9	11.1	-60.9	1.2
2026-01-03 20:03:32.852154	291.1	11.1	-61.2	0.5
2026-01-03 20:03:33.968909	291.3	11.1	-61.4	0.0
2026-01-03 20:03:35.086161	291.5	11.1	-61.0	0.8
2026-01-03 20:03:36.201925	291.7	11.1	-60.9	0.6
2026-01-03 20:03:37.317176	291.9	11.1	-60.8	1.2
2026-01-03 20:03:38.433931	292.1	11.0	-60.7	0.0
2026-01-03 20:03:39.548686	292.3	11.0	-61.1	0.0
2026-01-03 20:03:40.667442	292.5	11.0	-61.1	0.5
2026-01-03 20:03:41.783702	292.7	11.0	-60.9	0.0
2026-01-03 20:03:42.899953	292.9	10.9	-61.1	0.0
2026-01-03 20:03:44.017709	293.1	10.9	-61.0	0.0
2026-01-03 20:03:45.134961	293.3	10.9	-61.0	0.2
2026-01-03 20:03:46.251212	293.5	10.9	-60.7	0.2
2026-01-03 20:03:47.367967	293.7	10.9	-60.6	0.2
2026-01-03 20:03:48.484227	294.0	10.8	-60.8	0.0
2026-01-03 20:03:49.599983	294.2	10.8	-60.7	0.0
2026-01-03 20:03:50.717234	294.4	10.8	-60.6	0.0
2026-01-03 20:03:51.833486	294.6	10.8	-60.8	0.0
2026-01-03 20:03:52.951241	294.8	10.7	-60.7	0.0
2026-01-03 20:03:54.066493	295.0	10.7	-60.8	0.0
2026-01-03 20:03:55.182753	295.2	10.7	-60.6	0.0
2026-01-03 20:03:56.299005	295.4	10.7	-60.4	0.0
2026-01-03 20:03:57.414256	295.6	10.6	-60.6	0.0
2026-01-03 20:03:58.530507	295.8	10.6	-60.3	0.0
2026-01-03 20:03:59.648272	296.0	10.6	-60.5	0.0
2026-01-03 20:04:00.768525	296.2	10.6	-60.6	0.0
2026-01-03 20:04:01.886777	296.4	10.5	-60.3	0.0
2026-01-03 20:04:03.009038	296.6	10.5	-60.4	0.0
2026-01-03 20:04:04.131291	296.8	10.5	-60.1	0.0
2026-01-03 20:04:05.253543	297.0	10.5	-60.0	0.0
2026-01-03 20:04:06.375796	297.1	10.4	-60.1	0.0
2026-01-03 20:04:07.497057	297.3	10.4	-60.0	0.0
2026-01-03 20:04:08.618813	297.5	10.4	-60.1	0.0
2026-01-03 20:04:09.745067	297.7	10.3	-60.3	0.0
2026-01-03 20:04:10.867823	297.9	10.3	-60.0	0.0
2026-01-03 20:04:11.989581	298.1	10.3	-59.9	0.0
2026-01-03 20:04:13.110843	298.3	10.3	-59.8	0.0
2026-01-03 20:04:14.232103	298.5	10.2	-59.6	0.0
2026-01-03 20:04:15.353860	298.7	10.2	-59.8	0.0
2026-01-03 20:04:16.476113	298.9	10.2	-59.4	0.0
2026-01-03 20:04:17.601871	299.1	10.1	-59.0	0.0
2026-01-03 20:04:18.721627	299.3	10.1	-59.4	0.0
2026-01-03 20:04:19.838879	299.5	10.1	-59.5	0.0
2026-01-03 20:04:20.956634	299.7	10.0	-59.5	0.0
2026-01-03 20:04:22.073390	299.9	10.0	-59.4	0.0
2026-01-03 20:04:23.189146	300.1	10.0	-59.6	0.0
2026-01-03 20:04:24.306398	300.3	10.0	-59.6	0.0
2026-01-03 20:04:25.424154	300.5	9.9	-59.5	0.0
2026-01-03 20:04:26.541910	300.6	9.9	-59.6	0.0
2026-01-03 20:04:27.660161	300.8	9.9	-59.6	0.0
2026-01-03 20:04:28.775413	301.0	9.8	-59.3	0.0
2026-01-03 20:04:29.889664	301.2	9.8	-59.4	0.0
2026-01-03 20:04:31.005419	301.4	9.8	-59.2	0.0
2026-01-03 20:04:32.122671	301.6	9.7	-59.0	0.0
2026-01-03 20:04:33.240923	301.8	9.7	-58.9	0.0
2026-01-03 20:04:34.355678	302.0	9.7	-58.9	0.0
2026-01-03 20:04:35.472435	302.1	9.6	-58.9	0.0
2026-01-03 20:04:36.590695	302.3	9.6	-59.0	0.0
2026-01-03 20:04:37.711451	302.5	9.6	-58.8	0.0
2026-01-03 20:04:38.829703	302.7	9.5	-59.1	0.0
2026-01-03 20:04:39.945955	302.9	9.5	-59.2	0.0
2026-01-03 20:04:41.063207	303.1	9.5	-59.1	0.0
2026-01-03 20:04:42.179458	303.3	9.4	-58.9	0.0
2026-01-03 20:04:43.296214	303.4	9.4	-58.7	0.0
2026-01-03 20:04:44.414466	303.6	9.3	-58.9	0.0
2026-01-03 20:04:45.532223	303.8	9.3	-58.9	0.0
2026-01-03 20:04:46.650484	304.0	9.3	-58.7	0.0
2026-01-03 20:04:47.769240	304.2	9.2	-58.5	0.0
2026-01-03 20:04:48.883491	304.4	9.2	-58.5	0.0
2026-01-03 20:04:49.998742	304.5	9.2	-58.4	0.0
2026-01-03 20:04:51.114498	304.7	9.1	-58.6	0.0
2026-01-03 20:04:52.229749	304.9	9.1	-58.7	0.0
2026-01-03 20:04:53.347009	305.1	9.1	-58.7	0.0
2026-01-03 20:04:54.464764	305.3	9.0	-58.6	0.0
2026-01-03 20:04:55.583016	305.4	9.0	-58.6	0.0
2026-01-03 20:04:56.699780	305.6	8.9	-58.5	0.0
2026-01-03 20:04:57.818536	305.8	8.9	-58.6	0.0
2026-01-03 20:04:58.935788	306.0	8.9	-58.7	0.0
2026-01-03 20:05:00.053544	306.1	8.8	-58.6	0.0
2026-01-03 20:05:01.172796	306.3	8.8	-58.6	0.0
2026-01-03 20:05:02.289551	306.5	8.8	-58.2	0.0
2026-01-03 20:05:03.407803	306.7	8.7	-58.4	0.0
2026-01-03 20:05:04.524559	306.8	8.7	-58.3	0.0
2026-01-03 20:05:05.644812	307.0	8.6	-58.3	0.0
2026-01-03 20:05:06.766568	307.2	8.6	-58.2	0.0
2026-01-03 20:05:07.888325	307.4	8.6	-58.3	0.0
2026-01-03 20:05:09.006081	307.5	8.5	-58.2	0.0
2026-01-03 20:05:10.124333	307.7	8.5	-58.4	0.0
2026-01-03 20:05:11.243593	307.9	8.4	-58.3	0.0
2026-01-03 20:05:12.361853	308.1	8.4	-58.2	0.0
2026-01-03 20:05:13.481610	308.2	8.4	-58.1	0.0
2026-01-03 20:05:14.598366	308.4	8.3	-58.1	0.0
2026-01-03 20:05:15.719123	308.6	8.3	-58.0	0.0
2026-01-03 20:05:16.834878	308.7	8.2	-58.1	0.0
2026-01-03 20:05:17.951642	308.9	8.2	-58.0	0.0
2026-01-03 20:05:19.070894	309.1	8.2	-58.1	0.0
2026-01-03 20:05:20.191146	309.3	8.1	-58.3	0.0
2026-01-03 20:05:21.313399	309.4	8.1	-58.3	0.0
2026-01-03 20:05:22.435155	309.6	8.0	-58.3	0.0
2026-01-03 20:05:23.556912	309.8	8.0	-58.5	0.0
2026-01-03 20:05:24.678669	309.9	7.9	-58.4	0.0
2026-01-03 20:05:25.800426	310.1	7.9	-58.3	0.0
2026-01-03 20:05:26.922679	310.3	7.9	-58.4	0.0
2026-01-03 20:05:28.043940	310.4	7.8	-58.1	0.0
2026-01-03 20:05:29.165696	310.6	7.8	-58.0	0.0
2026-01-03 20:05:30.287453	310.8	7.7	-58.1	0.0
2026-01-03 20:05:31.408714	310.9	7.7	-57.9	0.0
2026-01-03 20:05:32.530966	311.1	7.7	-57.9	0.0
2026-01-03 20:05:33.652228	311.3	7.6	-57.9	0.0
2026-01-03 20:05:34.774480	311.4	7.6	-57.7	0.0
2026-01-03 20:05:35.892732	311.6	7.5	-57.8	0.0
2026-01-03 20:05:37.006983	311.7	7.5	-57.7	0.0
2026-01-03 20:05:38.123235	311.9	7.4	-57.8	0.0
2026-01-03 20:05:39.239486	312.1	7.4	-57.8	0.0
2026-01-03 20:05:40.355745	312.2	7.4	-57.9	0.0
2026-01-03 20:05:41.477005	312.4	7.3	-57.7	0.0
2026-01-03 20:05:42.593256	312.5	7.3	-57.6	0.0
2026-01-03 20:05:43.713013	312.7	7.2	-57.7	0.0
2026-01-03 20:05:44.829264	312.9	7.2	-57.6	0.0
2026-01-03 20:05:45.945020	313.0	7.1	-57.5	0.0
2026-01-03 20:05:47.061272	313.2	7.1	-57.6	0.0
2026-01-03 20:05:48.176523	313.3	7.0	-57.7	0.0
2026-01-03 20:05:49.290774	313.5	7.0	-57.6	0.0
2026-01-03 20:05:50.408025	313.6	7.0	-57.4	0.0
2026-01-03 20:05:51.523277	313.8	6.9	-57.4	0.0
2026-01-03 20:05:52.640528	314.0	6.9	-57.4	0.0
2026-01-03 20:05:53.756780	314.1	6.8	-57.3	0.0
2026-01-03 20:05:54.872038	314.3	6.8	-57.3	0.0
2026-01-03 20:05:55.987289	314.4	6.7	-57.2	0.0
2026-01-03 20:05:57.102541	314.6	6.7	-57.3	0.0
2026-01-03 20:05:58.216792	314.7	6.6	-57.2	0.0
2026-01-03 20:05:59.332059	314.9	6.6	-57.2	0.0
2026-01-03 20:06:00.450311	315.0	6.6	-57.3	0.0
2026-01-03 20:06:01.566562	315.2	6.5	-57.1	0.0
2026-01-03 20:06:02.682317	315.3	6.5	-56.9	0.0
2026-01-03 20:06:03.799082	315.5	6.4	-57.1	0.0
2026-01-03 20:06:04.914333	315.6	6.4	-57.1	0.0
2026-01-03 20:06:06.031585	315.8	6.3	-57.0	0.0
2026-01-03 20:06:07.146836	315.9	6.3	-56.9	0.0
2026-01-03 20:06:08.265088	316.1	6.2	-56.9	0.0
2026-01-03 20:06:09.380843	316.2	6.2	-56.7	0.0
2026-01-03 20:06:10.497598	316.4	6.1	-56.5	0.0
2026-01-03 20:06:11.612850	316.5	6.1	-56.5	0.0
2026-01-03 20:06:12.731101	316.7	6.1	-56.3	0.0
2026-01-03 20:06:13.852354	316.8	6.0	-56.9	0.0
2026-01-03 20:06:14.969110	317.0	6.0	-57.1	0.0
2026-01-03 20:06:16.087361	317.1	5.9	-57.3	0.0
2026-01-03 20:06:17.203117	317.2	5.9	-58.3	0.0
2026-01-03 20:06:18.318872	317.4	5.8	-61.1	0.0
2026-01-03 20:06:19.435124	317.5	5.8	-65.2	0.0
2026-01-03 20:06:20.551881	317.7	5.7	-67.9	0.0
2026-01-03 20:06:21.668148	317.8	5.7	-67.8	0.0
2026-01-03 20:06:22.783399	318.0	5.6	-67.5	0.0
2026-01-03 20:06:23.902668	318.1	5.6	-68.2	0.0
2026-01-03 20:06:25.019920	318.3	5.5	-68.8	0.0
2026-01-03 20:06:26.133171	318.4	5.5	-69.4	0.0
2026-01-03 20:06:27.248422	318.5	5.5	-69.8	0.0
2026-01-03 20:06:28.364681	318.7	5.4	-70.6	0.0
2026-01-03 20:06:29.477932	318.8	5.4	-71.0	0.0
2026-01-03 20:06:30.594687	319.0	5.3	-70.3	0.0
2026-01-03 20:06:31.711443	319.1	5.3	-70.6	0.0
2026-01-03 20:06:32.827695	319.2	5.2	-70.7	0.0
2026-01-03 20:06:33.945450	319.4	5.2	-70.5	0.0
2026-01-03 20:06:35.062710	319.5	5.1	-70.9	0.0
2026-01-03 20:06:36.183466	319.6	5.1	-70.5	0.0
2026-01-03 20:06:37.305727	319.8	5.0	-70.8	0.0
#Closed at: 2026-01-03 19:58:21.109516