passes_logs/2026/01/03/PlanumMoscow/PlanumMoscow__20260103_163643_METOP-B_rec.log

#Pass ID: 20260103_163643_METOP-B
#Satellite: METOP-B
#Configuration: METOP-B
#Start time: 2026-01-03 16:36:48.418443

#LorettStation: 1.0.0 05.05.2024
#Station: PlanumMoscow
#Location: 37.6253844 lon 55.6713361 lat
#TLE: 1 38771U 12049A   25293.92766658  .00000266  00000+0  14193-3 0  9996
#TLE: 2 38771  98.6882 344.7603 0001609 341.5209  18.5909 14.21379342679275

#Time	Az	El	Level	SNR
2026-01-03 16:40:26.845021	111.3	25.7	-62.6	8.2
2026-01-03 16:40:29.079570	110.9	26.0	-62.6	7.6
2026-01-03 16:40:31.313081	110.4	26.3	-63.4	9.0
2026-01-03 16:40:33.550584	110.0	26.5	-63.4	7.8
2026-01-03 16:40:35.791602	109.5	26.8	-63.6	9.2
2026-01-03 16:40:38.035612	109.1	27.1	-63.1	8.2
2026-01-03 16:40:40.267618	108.6	27.4	-63.5	8.7
2026-01-03 16:40:42.511132	108.1	27.7	-63.1	8.6
2026-01-03 16:40:44.755142	107.6	28.0	-63.4	8.5
2026-01-03 16:40:46.992654	107.1	28.3	-62.9	8.5
2026-01-03 16:40:49.233688	106.6	28.6	-63.1	6.9
2026-01-03 16:40:51.475201	106.1	28.9	-62.7	6.9
2026-01-03 16:40:53.713218	105.5	29.2	-63.4	7.6
2026-01-03 16:40:55.953226	105.0	29.5	-62.7	5.8
2026-01-03 16:40:58.192730	104.5	29.8	-62.1	6.2
2026-01-03 16:41:00.434244	103.9	30.1	-62.5	7.3
2026-01-03 16:41:02.672252	103.3	30.4	-62.7	7.1
2026-01-03 16:41:04.908764	102.8	30.7	-62.1	6.3
2026-01-03 16:41:07.142780	102.2	31.0	-62.4	6.7
2026-01-03 16:41:09.378291	101.6	31.3	-62.8	7.3
2026-01-03 16:41:11.613802	100.9	31.6	-62.8	7.7
2026-01-03 16:41:13.850306	100.3	31.9	-61.6	5.9
2026-01-03 16:41:16.083817	99.7	32.1	-62.8	7.5
2026-01-03 16:41:18.321833	99.0	32.4	-62.7	6.0
2026-01-03 16:41:20.558336	98.4	32.7	-62.5	7.0
2026-01-03 16:41:22.796344	97.7	33.0	-60.8	2.4
2026-01-03 16:41:25.030360	97.0	33.3	-62.2	5.9
2026-01-03 16:41:27.268368	96.3	33.6	-62.1	6.5
2026-01-03 16:41:29.506879	95.6	33.9	-62.6	8.1
2026-01-03 16:41:31.746392	94.9	34.2	-61.9	7.1
2026-01-03 16:41:33.981895	94.2	34.4	-62.3	8.3
2026-01-03 16:41:36.216407	93.4	34.7	-61.6	6.6
2026-01-03 16:41:38.454423	92.7	35.0	-62.0	7.9
2026-01-03 16:41:40.691456	91.9	35.2	-61.8	8.8
2026-01-03 16:41:42.929471	91.1	35.5	-62.1	7.2
2026-01-03 16:41:45.168497	90.3	35.8	-60.9	3.7
2026-01-03 16:41:47.404008	89.5	36.0	-61.1	6.6
2026-01-03 16:41:49.643024	88.7	36.3	-62.0	7.9
2026-01-03 16:41:51.883528	87.8	36.5	-61.4	6.3
2026-01-03 16:41:54.124041	87.0	36.8	-61.4	7.5
2026-01-03 16:41:56.359057	86.1	37.0	-61.5	8.2
2026-01-03 16:41:58.600074	85.3	37.2	-60.8	6.9
2026-01-03 16:42:00.836093	84.4	37.5	-61.2	7.8
2026-01-03 16:42:03.075102	83.5	37.7	-60.9	6.6
2026-01-03 16:42:05.310614	82.6	37.9	-60.9	6.2
2026-01-03 16:42:07.547629	81.7	38.1	-60.6	4.7
2026-01-03 16:42:09.783644	80.7	38.3	-61.3	4.6
2026-01-03 16:42:12.023662	79.8	38.5	-61.4	7.5
2026-01-03 16:42:14.261183	78.8	38.7	-61.6	6.0
2026-01-03 16:42:16.496190	77.9	38.8	-61.7	6.2
2026-01-03 16:42:18.734198	76.9	39.0	-61.5	6.4
2026-01-03 16:42:20.973710	75.9	39.2	-61.2	4.7
2026-01-03 16:42:23.205213	74.9	39.3	-60.5	4.3
2026-01-03 16:42:25.438724	73.9	39.4	-61.2	5.3
2026-01-03 16:42:27.672235	72.9	39.6	-59.9	4.6
2026-01-03 16:42:29.909243	71.9	39.7	-59.8	4.2
2026-01-03 16:42:32.142754	70.9	39.8	-59.0	3.4
2026-01-03 16:42:34.374265	69.8	39.9	-60.7	6.7
2026-01-03 16:42:36.608273	68.8	40.0	-60.4	5.8
2026-01-03 16:42:38.851290	67.8	40.1	-59.9	5.5
2026-01-03 16:42:41.093803	66.7	40.1	-58.9	2.5
2026-01-03 16:42:43.354868	65.6	40.2	-60.1	4.4
2026-01-03 16:42:45.590875	64.6	40.2	-60.5	7.2
2026-01-03 16:42:47.827441	63.5	40.3	-58.8	3.3
2026-01-03 16:42:50.063952	62.5	40.3	-59.5	6.4
2026-01-03 16:42:52.299004	61.4	40.3	-60.2	6.4
2026-01-03 16:42:54.535507	60.4	40.3	-59.5	5.1
2026-01-03 16:42:56.774528	59.3	40.3	-58.4	4.6
2026-01-03 16:42:59.013537	58.2	40.3	-59.6	4.5
2026-01-03 16:43:01.248552	57.2	40.2	-60.4	7.2
2026-01-03 16:43:03.485056	56.1	40.2	-59.2	3.6
2026-01-03 16:43:05.722577	55.1	40.1	-60.3	4.3
2026-01-03 16:43:07.959585	54.0	40.1	-59.0	3.8
2026-01-03 16:43:10.199594	53.0	40.0	-59.6	4.6
2026-01-03 16:43:12.439603	52.0	39.9	-59.6	5.5
2026-01-03 16:43:14.674610	50.9	39.8	-60.6	6.4
2026-01-03 16:43:16.907633	49.9	39.7	-60.7	6.8
2026-01-03 16:43:19.145650	48.9	39.6	-60.6	6.1
2026-01-03 16:43:21.382153	47.9	39.4	-62.0	5.9
2026-01-03 16:43:23.619177	46.9	39.3	-62.2	6.8
2026-01-03 16:43:25.856185	45.9	39.2	-60.3	6.7
2026-01-03 16:43:28.093689	44.9	39.0	-61.3	6.3
2026-01-03 16:43:30.328704	43.9	38.8	-59.5	3.7
2026-01-03 16:43:32.569209	43.0	38.7	-60.5	3.2
2026-01-03 16:43:34.803233	42.0	38.5	-60.9	5.5
2026-01-03 16:43:37.039249	41.1	38.3	-61.2	6.8
2026-01-03 16:43:39.271761	40.1	38.1	-61.6	5.9
2026-01-03 16:43:41.507777	39.2	37.9	-61.4	4.5
2026-01-03 16:43:43.750796	38.3	37.7	-61.9	5.7
2026-01-03 16:43:45.994309	37.4	37.5	-62.7	8.0
2026-01-03 16:43:48.237326	36.5	37.3	-60.7	6.5
2026-01-03 16:43:50.484852	35.7	37.0	-62.0	6.8
2026-01-03 16:43:52.727885	34.8	36.8	-62.7	7.9
2026-01-03 16:43:54.970903	33.9	36.6	-62.3	6.1
2026-01-03 16:43:57.213921	33.1	36.3	-61.3	4.6
2026-01-03 16:43:59.449928	32.3	36.1	-61.3	6.2
2026-01-03 16:44:01.687440	31.5	35.8	-61.5	5.7
2026-01-03 16:44:03.923953	30.7	35.5	-62.8	9.5
2026-01-03 16:44:06.160465	29.9	35.3	-61.4	5.8
2026-01-03 16:44:08.399987	29.1	35.0	-61.3	7.5
2026-01-03 16:44:10.636995	28.4	34.7	-61.9	7.8
2026-01-03 16:44:12.875004	27.6	34.5	-60.2	6.3
2026-01-03 16:44:15.111517	26.9	34.2	-61.4	5.8
2026-01-03 16:44:17.347021	26.2	33.9	-62.0	6.7
2026-01-03 16:44:19.587030	25.5	33.6	-62.8	9.1
2026-01-03 16:44:21.825534	24.8	33.3	-62.7	9.4
2026-01-03 16:44:24.061046	24.1	33.1	-62.7	8.6
2026-01-03 16:44:26.296062	23.4	32.8	-60.5	5.4
2026-01-03 16:44:28.529581	22.8	32.5	-60.5	4.6
2026-01-03 16:44:30.766085	22.1	32.2	-60.7	4.2
2026-01-03 16:44:33.005598	21.5	31.9	-60.8	4.4
2026-01-03 16:44:35.241111	20.9	31.6	-61.8	4.2
2026-01-03 16:44:37.477623	20.3	31.3	-60.5	3.5
2026-01-03 16:44:39.715127	19.7	31.0	-61.7	6.7
2026-01-03 16:44:41.952143	19.1	30.7	-62.0	3.7
2026-01-03 16:44:44.187662	18.5	30.4	-62.2	7.0
2026-01-03 16:44:46.427174	17.9	30.1	-62.4	5.2
2026-01-03 16:44:48.663678	17.4	29.8	-61.8	5.7
2026-01-03 16:44:50.898694	16.8	29.5	-62.3	5.3
2026-01-03 16:44:53.139198	16.3	29.2	-62.3	3.8
2026-01-03 16:44:55.376710	15.8	28.9	-61.5	4.8
2026-01-03 16:44:57.618718	15.2	28.7	-63.3	5.2
2026-01-03 16:44:59.862728	14.7	28.4	-62.4	5.6
2026-01-03 16:45:02.105251	14.2	28.1	-62.6	5.9
2026-01-03 16:45:04.348270	13.7	27.8	-61.2	6.7
2026-01-03 16:45:06.592279	13.3	27.5	-61.3	2.5
2026-01-03 16:45:08.836288	12.8	27.2	-61.5	3.2
2026-01-03 16:45:11.079306	12.3	26.9	-60.5	3.9
2026-01-03 16:45:13.318819	11.9	26.6	-60.7	5.1
2026-01-03 16:45:15.554331	11.4	26.3	-61.5	4.1
2026-01-03 16:45:17.792848	11.0	26.0	-61.9	5.2
2026-01-03 16:45:20.024863	10.5	25.7	-61.8	5.3
2026-01-03 16:45:22.257374	10.1	25.5	-61.8	4.6
2026-01-03 16:45:24.491381	9.7	25.2	-62.6	4.3
2026-01-03 16:45:26.731390	9.3	24.9	-62.2	4.1
2026-01-03 16:45:28.967397	8.9	24.6	-61.6	4.1
2026-01-03 16:45:31.198420	8.5	24.3	-61.5	2.4
2026-01-03 16:45:33.434931	8.1	24.1	-61.9	3.7
2026-01-03 16:45:35.669947	7.7	23.8	-61.9	3.8
2026-01-03 16:45:37.906483	7.4	23.5	-60.3	2.1
2026-01-03 16:45:40.140994	7.0	23.2	-60.9	3.6
2026-01-03 16:45:42.373497	6.7	23.0	-61.2	3.9
2026-01-03 16:45:44.606512	6.3	22.7	-60.3	1.1
2026-01-03 16:45:46.840023	6.0	22.4	-61.7	2.1
2026-01-03 16:45:49.075031	5.6	22.2	-61.3	0.4
2026-01-03 16:45:51.307038	5.3	21.9	-62.8	2.7
2026-01-03 16:45:53.539053	5.0	21.6	-62.2	3.8
2026-01-03 16:45:55.774069	4.6	21.4	-62.5	4.7
2026-01-03 16:45:58.008076	4.3	21.1	-61.4	3.1
2026-01-03 16:46:00.240092	4.0	20.9	-62.6	3.2
2026-01-03 16:46:02.471602	3.7	20.6	-61.9	3.5
2026-01-03 16:46:04.704618	3.4	20.4	-62.5	3.4
2026-01-03 16:46:06.937121	3.1	20.1	-62.2	2.9
2026-01-03 16:46:09.169136	2.8	19.9	-60.2	0.9
2026-01-03 16:46:11.401143	2.5	19.6	-61.9	2.9
2026-01-03 16:46:13.637655	2.2	19.4	-61.5	3.4
2026-01-03 16:46:15.876663	2.0	19.1	-61.4	1.9
2026-01-03 16:46:18.119195	1.7	18.9	-62.3	2.5
2026-01-03 16:46:20.363701	1.4	18.6	-62.6	2.7
2026-01-03 16:46:22.608215	1.1	18.4	-62.3	2.3
2026-01-03 16:46:24.850231	0.9	18.2	-61.2	0.0
2026-01-03 16:46:27.091248	0.6	17.9	-63.7	3.4
2026-01-03 16:46:29.334257	0.4	17.7	-62.8	1.2
2026-01-03 16:46:31.578267	0.1	17.5	-61.6	0.6
2026-01-03 16:46:33.818292	359.9	17.2	-61.4	0.0
2026-01-03 16:46:36.055848	359.6	17.0	-60.5	0.0
2026-01-03 16:46:38.291360	359.4	16.8	-61.2	0.9
2026-01-03 16:46:40.524871	359.2	16.5	-61.6	0.0
2026-01-03 16:46:42.762879	358.9	16.3	-61.0	0.0
2026-01-03 16:46:44.999383	358.7	16.1	-61.2	0.0
2026-01-03 16:46:47.235399	358.5	15.9	-62.5	0.0
2026-01-03 16:46:49.471903	358.3	15.6	-61.7	0.0
2026-01-03 16:46:51.709423	358.1	15.4	-62.8	1.4
2026-01-03 16:46:53.944927	357.9	15.2	-62.8	1.3
2026-01-03 16:46:56.177952	357.6	15.0	-63.3	0.0
2026-01-03 16:46:58.412967	357.4	14.8	-61.7	0.0
2026-01-03 16:47:00.652976	357.2	14.6	-61.9	0.0
2026-01-03 16:47:02.888480	357.0	14.4	-62.8	0.0
2026-01-03 16:47:05.122991	356.8	14.2	-61.3	0.0
2026-01-03 16:47:07.356998	356.6	13.9	-63.2	1.2
2026-01-03 16:47:09.592509	356.5	13.7	-62.4	0.0
2026-01-03 16:47:11.830022	356.3	13.5	-62.9	0.0
2026-01-03 16:47:14.065030	356.1	13.3	-62.0	0.0
2026-01-03 16:47:16.300558	355.9	13.1	-62.0	0.0
2026-01-03 16:47:18.537566	355.7	12.9	-62.3	0.0
2026-01-03 16:47:20.776070	355.5	12.7	-63.0	0.0
2026-01-03 16:47:23.008573	355.4	12.5	-62.6	0.0
2026-01-03 16:47:25.242588	355.2	12.3	-62.3	0.0
2026-01-03 16:47:27.477596	355.0	12.1	-62.8	0.3
2026-01-03 16:47:29.715604	354.9	11.9	-62.9	0.0
2026-01-03 16:47:31.950612	354.7	11.7	-62.4	0.0
2026-01-03 16:47:34.189124	354.5	11.6	-63.0	0.0
2026-01-03 16:47:36.431648	354.4	11.4	-61.7	0.0
2026-01-03 16:47:38.675658	354.2	11.2	-63.1	0.0
2026-01-03 16:47:40.919172	354.0	11.0	-62.3	0.0
2026-01-03 16:47:43.162189	353.9	10.8	-62.7	0.0
2026-01-03 16:47:45.409704	353.7	10.6	-63.6	0.0
2026-01-03 16:47:47.654222	353.6	10.4	-63.6	0.0
2026-01-03 16:47:49.895238	353.4	10.2	-64.1	0.0
2026-01-03 16:47:52.127245	353.3	10.1	-62.9	0.0
2026-01-03 16:47:54.360260	353.1	9.9	-63.1	0.0
2026-01-03 16:47:56.595267	353.0	9.7	-64.3	0.0
2026-01-03 16:47:58.828771	352.9	9.5	-63.8	0.0
2026-01-03 16:48:01.062281	352.7	9.3	-63.9	0.0
2026-01-03 16:48:03.295288	352.6	9.2	-63.6	0.0
2026-01-03 16:48:05.527296	352.5	9.0	-63.2	0.0
2026-01-03 16:48:07.761799	352.3	8.8	-62.6	0.0
2026-01-03 16:48:09.993318	352.2	8.6	-64.0	0.0
2026-01-03 16:48:12.224324	352.1	8.5	-64.4	0.0
2026-01-03 16:48:14.457332	351.9	8.3	-64.0	0.0
2026-01-03 16:48:16.691340	351.8	8.1	-64.4	0.0
2026-01-03 16:48:18.924842	351.7	8.0	-64.8	0.0
2026-01-03 16:48:21.155345	351.5	7.8	-64.1	0.0
2026-01-03 16:48:23.384856	351.4	7.6	-63.3	0.0
2026-01-03 16:48:25.616862	351.3	7.5	-64.7	0.0
2026-01-03 16:48:27.851870	351.2	7.3	-64.5	0.0
2026-01-03 16:48:30.081372	351.1	7.1	-64.5	0.0
2026-01-03 16:48:32.310874	351.0	7.0	-64.4	0.0
2026-01-03 16:48:34.542377	350.8	6.8	-63.6	0.0
2026-01-03 16:48:36.772879	350.7	6.7	-64.0	0.0
2026-01-03 16:48:39.004381	350.6	6.5	-63.6	0.0
2026-01-03 16:48:41.235893	350.5	6.3	-63.9	0.0
2026-01-03 16:48:43.467406	350.4	6.2	-63.8	0.0
2026-01-03 16:48:45.699412	350.3	6.0	-64.3	0.0
2026-01-03 16:48:47.932427	350.2	5.9	-64.6	0.0
2026-01-03 16:48:50.171436	350.1	5.7	-67.1	0.0
2026-01-03 16:48:52.414454	350.0	5.5	-66.7	0.0
2026-01-03 16:48:54.657978	349.9	5.4	-65.6	0.0
2026-01-03 16:48:56.905989	349.8	5.2	-65.9	0.0
2026-01-03 16:48:59.150503	349.7	5.1	-65.9	0.0
#Closed at: 2026-01-03 16:36:43.419471