passes_logs/2026/01/03/PlanumMoscow/PlanumMoscow__20260103_181500_METEOR-M2_3_rec.log

#Pass ID: 20260103_181500_METEOR-M2 3
#Satellite: METEOR-M2 3
#Configuration: METEOR-M2 3
#Start time: 2026-01-03 18:15:05.683052

#LorettStation: 1.0.0 05.05.2024
#Station: PlanumMoscow
#Location: 37.6253844 lon 55.6713361 lat
#TLE: 1 57166U 23091A   25293.99389264  .00000062  00000+0  46113-4 0  9997
#TLE: 2 57166  98.6457 348.4330 0004759 135.3141 224.8422 14.24016546120475

#Time	Az	El	Level	SNR
2026-01-03 18:19:13.682515	194.6	33.9	-64.4	12.6
2026-01-03 18:19:15.916530	195.0	34.3	-64.6	11.7
2026-01-03 18:19:18.149538	195.5	34.8	-64.6	12.2
2026-01-03 18:19:20.380089	195.9	35.2	-64.4	11.3
2026-01-03 18:19:22.611096	196.3	35.7	-64.0	9.7
2026-01-03 18:19:24.844104	196.8	36.1	-65.0	12.3
2026-01-03 18:19:27.076606	197.3	36.6	-64.8	12.8
2026-01-03 18:19:29.307613	197.7	37.1	-64.5	12.9
2026-01-03 18:19:31.539116	198.2	37.5	-64.2	12.4
2026-01-03 18:19:33.774123	198.7	38.0	-64.9	12.4
2026-01-03 18:19:36.009635	199.3	38.5	-64.5	12.1
2026-01-03 18:19:38.243148	199.8	39.0	-65.1	12.8
2026-01-03 18:19:40.473658	200.4	39.5	-64.3	12.7
2026-01-03 18:19:42.705666	201.0	40.0	-65.1	11.3
2026-01-03 18:19:44.938177	201.5	40.5	-65.2	13.3
2026-01-03 18:19:47.169680	202.2	41.0	-65.2	11.2
2026-01-03 18:19:49.400191	202.8	41.5	-65.4	13.3
2026-01-03 18:19:51.636199	203.4	42.0	-65.6	12.5
2026-01-03 18:19:53.873215	204.1	42.5	-65.9	13.5
2026-01-03 18:19:56.106222	204.8	43.0	-65.7	13.4
2026-01-03 18:19:58.341735	205.5	43.5	-65.8	12.4
2026-01-03 18:20:00.578238	206.3	44.0	-65.2	12.7
2026-01-03 18:20:02.813742	207.0	44.6	-65.3	11.7
2026-01-03 18:20:05.059247	207.8	45.1	-65.3	11.6
2026-01-03 18:20:07.302265	208.6	45.6	-65.6	13.0
2026-01-03 18:20:09.546275	209.5	46.1	-65.6	12.7
2026-01-03 18:20:11.790790	210.4	46.7	-65.2	11.6
2026-01-03 18:20:14.034312	211.3	47.2	-65.4	11.6
2026-01-03 18:20:16.277321	212.2	47.7	-65.9	12.0
2026-01-03 18:20:18.521331	213.2	48.2	-63.9	9.1
2026-01-03 18:20:20.761348	214.1	48.8	-66.0	10.9
2026-01-03 18:20:22.998365	215.2	49.3	-66.1	10.0
2026-01-03 18:20:25.235373	216.2	49.8	-66.6	11.0
2026-01-03 18:20:27.467380	217.3	50.3	-66.5	10.5
2026-01-03 18:20:29.702893	218.5	50.8	-66.5	10.2
2026-01-03 18:20:31.934405	219.6	51.3	-66.7	10.1
2026-01-03 18:20:34.169421	220.8	51.8	-67.1	10.7
2026-01-03 18:20:36.398923	222.1	52.2	-66.6	10.0
2026-01-03 18:20:38.635940	223.4	52.7	-66.4	9.9
2026-01-03 18:20:40.874470	224.7	53.2	-66.6	8.4
2026-01-03 18:20:43.107974	226.1	53.6	-67.1	11.0
2026-01-03 18:20:45.342990	227.5	54.0	-66.4	9.4
2026-01-03 18:20:47.574006	229.0	54.4	-66.8	9.5
2026-01-03 18:20:49.805517	230.4	54.8	-67.1	10.7
2026-01-03 18:20:52.037020	232.0	55.2	-66.8	9.5
2026-01-03 18:20:54.266522	233.6	55.6	-67.2	10.7
2026-01-03 18:20:56.498033	235.2	55.9	-65.5	10.6
2026-01-03 18:20:58.736537	236.8	56.3	-66.4	9.6
2026-01-03 18:21:00.974059	238.5	56.6	-67.0	9.8
2026-01-03 18:21:03.205076	240.3	56.9	-67.0	9.7
2026-01-03 18:21:05.435578	242.0	57.1	-67.0	9.3
2026-01-03 18:21:07.668081	243.8	57.3	-66.3	8.5
2026-01-03 18:21:09.898087	245.6	57.6	-67.0	10.1
2026-01-03 18:21:12.132591	247.5	57.7	-66.8	10.4
2026-01-03 18:21:14.362101	249.4	57.9	-66.7	8.7
2026-01-03 18:21:16.592604	251.3	58.0	-66.3	8.7
2026-01-03 18:21:18.828620	253.2	58.1	-67.7	10.8
2026-01-03 18:21:21.069133	255.1	58.2	-66.7	5.9
2026-01-03 18:21:23.313142	257.0	58.2	-67.1	9.7
2026-01-03 18:21:25.559648	259.0	58.2	-67.3	9.8
2026-01-03 18:21:27.802666	260.9	58.2	-66.8	9.3
2026-01-03 18:21:30.046180	262.8	58.1	-66.5	8.5
2026-01-03 18:21:32.288189	264.8	58.0	-66.7	8.0
2026-01-03 18:21:34.531703	266.7	57.9	-68.0	8.9
2026-01-03 18:21:36.770711	268.5	57.8	-68.2	8.6
2026-01-03 18:21:39.001736	270.4	57.6	-67.6	9.0
2026-01-03 18:21:41.231238	272.2	57.4	-67.9	9.1
2026-01-03 18:21:43.466246	274.0	57.2	-67.6	10.2
2026-01-03 18:21:45.699758	275.8	56.9	-67.0	9.5
2026-01-03 18:21:47.938775	277.6	56.7	-66.4	11.0
2026-01-03 18:21:50.169791	279.3	56.4	-66.4	10.4
2026-01-03 18:21:52.404799	280.9	56.1	-65.6	10.3
2026-01-03 18:21:54.637310	282.6	55.7	-67.0	10.5
2026-01-03 18:21:56.869327	284.1	55.4	-66.6	9.5
2026-01-03 18:21:59.105839	285.7	55.0	-67.1	10.2
2026-01-03 18:22:01.337350	287.2	54.6	-67.2	9.7
2026-01-03 18:22:03.570878	288.7	54.2	-67.0	10.2
2026-01-03 18:22:05.799885	290.1	53.8	-67.2	9.9
2026-01-03 18:22:08.031914	291.5	53.3	-66.9	9.5
2026-01-03 18:22:10.264439	292.8	52.9	-65.9	9.9
2026-01-03 18:22:12.497454	294.1	52.4	-66.6	9.8
2026-01-03 18:22:14.727966	295.4	51.9	-66.4	9.6
2026-01-03 18:22:16.959487	296.6	51.5	-66.1	10.4
2026-01-03 18:22:19.193494	297.8	51.0	-66.1	10.0
2026-01-03 18:22:21.429006	298.9	50.5	-66.4	10.5
2026-01-03 18:22:23.664510	300.0	50.0	-65.9	8.1
2026-01-03 18:22:25.898021	301.1	49.5	-66.6	9.8
2026-01-03 18:22:28.132525	302.1	49.0	-66.8	10.6
2026-01-03 18:22:30.361036	303.1	48.5	-66.1	9.7
2026-01-03 18:22:32.595043	304.1	47.9	-65.8	7.4
2026-01-03 18:22:34.829555	305.0	47.4	-65.9	8.9
2026-01-03 18:22:37.067068	305.9	46.9	-65.8	9.9
2026-01-03 18:22:39.310582	306.8	46.4	-66.7	9.4
2026-01-03 18:22:41.558593	307.7	45.9	-66.7	9.9
2026-01-03 18:22:43.801613	308.5	45.3	-65.9	9.8
2026-01-03 18:22:46.046127	309.3	44.8	-65.9	10.4
2026-01-03 18:22:48.289641	310.1	44.3	-66.4	10.4
2026-01-03 18:22:50.532659	310.8	43.8	-65.5	9.8
2026-01-03 18:22:52.775172	311.5	43.3	-65.7	10.5
2026-01-03 18:22:55.010684	312.2	42.7	-65.4	10.8
2026-01-03 18:22:57.245692	312.9	42.2	-65.4	11.0
2026-01-03 18:22:59.484205	313.6	41.7	-65.4	10.7
2026-01-03 18:23:01.717212	314.2	41.2	-65.5	11.3
2026-01-03 18:23:03.949715	314.8	40.7	-65.4	10.7
2026-01-03 18:23:06.183218	315.4	40.2	-65.4	10.2
2026-01-03 18:23:08.419722	316.0	39.7	-65.1	10.4
2026-01-03 18:23:10.652737	316.6	39.2	-65.1	10.8
2026-01-03 18:23:12.886760	317.1	38.8	-65.2	10.7
2026-01-03 18:23:15.123272	317.7	38.3	-65.2	10.2
2026-01-03 18:23:17.358289	318.2	37.8	-65.5	10.3
2026-01-03 18:23:19.594792	318.7	37.3	-65.7	10.2
2026-01-03 18:23:21.826295	319.2	36.9	-65.3	10.5
2026-01-03 18:23:24.061303	319.6	36.4	-65.6	9.9
2026-01-03 18:23:26.296311	320.1	35.9	-65.3	10.8
2026-01-03 18:23:28.528813	320.6	35.5	-65.1	11.0
2026-01-03 18:23:30.762316	321.0	35.0	-65.0	9.8
2026-01-03 18:23:32.996820	321.4	34.6	-65.0	10.5
2026-01-03 18:23:35.214527	321.8	34.1	-65.0	10.4
2026-01-03 18:23:37.446542	322.2	33.7	-65.2	10.3
2026-01-03 18:23:39.678550	322.6	33.3	-64.8	10.5
2026-01-03 18:23:41.914053	323.0	32.8	-64.9	10.8
2026-01-03 18:23:44.148060	323.4	32.4	-64.9	11.2
2026-01-03 18:23:46.377079	323.7	32.0	-64.4	11.1
2026-01-03 18:23:48.611587	324.1	31.6	-64.9	10.7
2026-01-03 18:23:50.844602	324.4	31.2	-64.9	10.6
2026-01-03 18:23:53.079114	324.8	30.8	-65.0	10.1
2026-01-03 18:23:55.311625	325.1	30.4	-64.8	10.1
2026-01-03 18:23:57.547633	325.4	30.0	-65.0	10.7
2026-01-03 18:23:59.784659	325.8	29.6	-64.8	10.2
2026-01-03 18:24:02.028174	326.1	29.2	-64.7	10.5
2026-01-03 18:24:04.268190	326.4	28.8	-65.2	10.5
2026-01-03 18:24:06.508713	326.7	28.5	-65.1	10.2
2026-01-03 18:24:08.752723	326.9	28.1	-65.1	10.4
2026-01-03 18:24:10.996732	327.2	27.7	-65.2	9.7
2026-01-03 18:24:13.240247	327.5	27.3	-65.4	10.6
2026-01-03 18:24:15.483771	327.8	27.0	-65.5	10.4
2026-01-03 18:24:17.724780	328.0	26.6	-65.4	10.4
2026-01-03 18:24:19.961805	328.3	26.3	-65.0	9.3
2026-01-03 18:24:22.197317	328.5	25.9	-65.2	9.9
2026-01-03 18:24:24.430342	328.8	25.6	-65.2	10.0
2026-01-03 18:24:26.664359	329.0	25.3	-65.5	9.9
2026-01-03 18:24:28.896861	329.3	24.9	-65.4	10.2
2026-01-03 18:24:31.128364	329.5	24.6	-65.5	10.2
2026-01-03 18:24:33.364381	329.7	24.3	-65.8	10.5
2026-01-03 18:24:35.593883	329.9	23.9	-65.4	10.1
2026-01-03 18:24:37.828891	330.2	23.6	-65.8	10.2
2026-01-03 18:24:40.061898	330.4	23.3	-65.5	10.3
2026-01-03 18:24:42.295410	330.6	23.0	-65.2	8.8
2026-01-03 18:24:44.529417	330.8	22.7	-65.2	9.5
2026-01-03 18:24:46.765425	331.0	22.4	-65.1	8.7
2026-01-03 18:24:48.999936	331.2	22.1	-65.1	9.8
2026-01-03 18:24:51.232439	331.4	21.8	-65.1	9.9
2026-01-03 18:24:53.465446	331.6	21.5	-64.9	9.1
2026-01-03 18:24:55.699471	331.8	21.2	-64.6	9.1
2026-01-03 18:24:57.933975	332.0	20.9	-64.8	8.5
2026-01-03 18:25:00.167485	332.1	20.6	-64.8	8.7
2026-01-03 18:25:02.396501	332.3	20.3	-64.4	8.5
2026-01-03 18:25:04.628509	332.5	20.0	-64.7	8.7
2026-01-03 18:25:06.861020	332.7	19.8	-64.5	8.5
2026-01-03 18:25:09.094532	332.8	19.5	-64.4	8.1
2026-01-03 18:25:11.324034	333.0	19.2	-64.6	8.2
2026-01-03 18:25:13.554544	333.2	18.9	-64.7	8.1
2026-01-03 18:25:15.785055	333.3	18.7	-64.5	7.7
2026-01-03 18:25:18.018083	333.5	18.4	-64.3	8.0
2026-01-03 18:25:20.251100	333.6	18.1	-64.4	7.3
2026-01-03 18:25:22.488604	333.8	17.9	-64.5	7.5
2026-01-03 18:25:24.731630	333.9	17.6	-64.2	7.4
2026-01-03 18:25:26.972144	334.1	17.4	-64.6	7.1
2026-01-03 18:25:29.216658	334.2	17.1	-64.0	7.5
2026-01-03 18:25:31.460668	334.4	16.9	-63.9	6.4
2026-01-03 18:25:33.704678	334.5	16.6	-64.2	6.6
2026-01-03 18:25:35.948192	334.7	16.4	-64.0	6.4
2026-01-03 18:25:38.189707	334.8	16.1	-64.3	6.4
2026-01-03 18:25:40.424714	334.9	15.9	-64.0	6.6
2026-01-03 18:25:42.663723	335.1	15.7	-64.2	6.5
2026-01-03 18:25:44.896234	335.2	15.4	-63.8	6.3
2026-01-03 18:25:47.130243	335.3	15.2	-63.9	6.4
2026-01-03 18:25:49.367756	335.4	15.0	-63.9	5.3
2026-01-03 18:25:51.601771	335.6	14.7	-63.8	5.0
2026-01-03 18:25:53.835295	335.7	14.5	-63.9	5.3
2026-01-03 18:25:56.068798	335.8	14.3	-64.0	6.0
2026-01-03 18:25:58.301814	335.9	14.1	-63.6	5.7
2026-01-03 18:26:00.537317	336.1	13.8	-63.8	5.2
2026-01-03 18:26:02.778335	336.2	13.6	-64.0	5.0
2026-01-03 18:26:05.014856	336.3	13.4	-63.9	5.1
2026-01-03 18:26:07.249864	336.4	13.2	-63.9	5.1
2026-01-03 18:26:09.481376	336.5	13.0	-63.6	5.4
2026-01-03 18:26:11.715886	336.6	12.8	-63.7	5.2
2026-01-03 18:26:13.951407	336.7	12.5	-63.7	4.4
2026-01-03 18:26:16.185910	336.8	12.3	-63.6	4.5
2026-01-03 18:26:18.417926	337.0	12.1	-63.4	4.9
2026-01-03 18:26:20.651438	337.1	11.9	-63.6	4.1
2026-01-03 18:26:22.884941	337.2	11.7	-63.5	4.7
2026-01-03 18:26:25.116444	337.3	11.5	-63.4	4.6
2026-01-03 18:26:27.349947	337.4	11.3	-63.4	4.5
2026-01-03 18:26:29.584458	337.5	11.1	-63.9	4.8
2026-01-03 18:26:31.815465	337.6	10.9	-63.5	3.1
2026-01-03 18:26:34.047977	337.7	10.7	-63.6	3.7
2026-01-03 18:26:36.278992	337.8	10.5	-63.6	3.6
2026-01-03 18:26:38.509503	337.9	10.3	-63.5	2.6
2026-01-03 18:26:40.743015	337.9	10.2	-62.9	1.6
2026-01-03 18:26:42.976023	338.0	10.0	-63.7	3.4
2026-01-03 18:26:45.210526	338.1	9.8	-64.0	3.3
2026-01-03 18:26:47.443543	338.2	9.6	-63.4	2.8
2026-01-03 18:26:49.676569	338.3	9.4	-63.1	2.4
2026-01-03 18:26:51.916578	338.4	9.2	-63.8	3.6
2026-01-03 18:26:54.159100	338.5	9.0	-63.1	2.1
2026-01-03 18:26:56.404614	338.6	8.9	-63.0	3.0
2026-01-03 18:26:58.648624	338.7	8.7	-63.0	3.8
2026-01-03 18:27:00.891642	338.7	8.5	-62.9	3.2
2026-01-03 18:27:03.136147	338.8	8.3	-63.1	2.3
2026-01-03 18:27:05.379166	338.9	8.1	-63.0	2.0
2026-01-03 18:27:07.619689	339.0	8.0	-63.0	2.5
2026-01-03 18:27:09.853705	339.1	7.8	-62.8	4.1
2026-01-03 18:27:12.086216	339.2	7.6	-62.9	3.8
2026-01-03 18:27:14.320737	339.2	7.4	-63.2	1.2
2026-01-03 18:27:16.553240	339.3	7.3	-63.2	0.0
2026-01-03 18:27:18.790761	339.4	7.1	-63.2	2.3
2026-01-03 18:27:21.022785	339.5	6.9	-62.6	3.6
2026-01-03 18:27:23.252296	339.6	6.8	-63.1	1.5
2026-01-03 18:27:25.482303	339.6	6.6	-63.0	0.6
2026-01-03 18:27:27.716822	339.7	6.4	-63.1	3.1
2026-01-03 18:27:29.955356	339.8	6.3	-63.1	3.6
2026-01-03 18:27:32.185859	339.9	6.1	-62.7	1.4
2026-01-03 18:27:34.416865	339.9	6.0	-64.8	1.1
2026-01-03 18:27:36.647872	340.0	5.8	-66.8	0.0
2026-01-03 18:27:38.877382	340.1	5.6	-67.5	0.0
2026-01-03 18:27:41.109893	340.1	5.5	-68.2	0.0
2026-01-03 18:27:43.345397	340.2	5.3	-67.2	0.0
2026-01-03 18:27:45.579404	340.3	5.2	-68.5	0.0
2026-01-03 18:27:47.813429	340.3	5.0	-69.3	0.0
#Closed at: 2026-01-03 18:15:00.684733