passes_logs/2026/01/04/planumMaritime01/planumMaritime01__20260104_070638_METOP-C_rec.log

#Pass ID: 20260104_070638_METOP-C
#Satellite: METOP-C
#Configuration: METOP-C
#Start time: 2026-01-04 07:06:43.816238

#LorettStation: 1.0.0 05.05.2024
#Station: planumMaritime01
#Location: 37.49445 lon 55.92918 lat
#TLE: 1 43689U 18087A   26003.64214103  .00000255  00000+0  13641-3 0  9995
#TLE: 2 43689  98.6897  66.0725 0000140 327.1769  32.9399 14.21494298371454

#Time	Az	El	Level	SNR
2026-01-04 07:06:45.994070	24.7	10.2	-72.0	0.0
2026-01-04 07:06:48.249343	24.8	10.4	-70.6	0.0
2026-01-04 07:06:50.501862	25.0	10.6	-66.8	0.0
2026-01-04 07:06:52.754901	25.1	10.7	-65.0	0.0
2026-01-04 07:06:55.008081	25.2	10.9	-63.1	0.0
2026-01-04 07:06:57.265342	25.4	11.1	-62.5	0.0
2026-01-04 07:06:59.521432	25.5	11.3	-60.7	0.0
2026-01-04 07:07:01.774751	25.6	11.5	-62.5	0.0
2026-01-04 07:07:04.028979	25.8	11.7	-59.2	0.0
2026-01-04 07:07:06.285015	25.9	11.9	-65.5	0.0
2026-01-04 07:07:08.542780	26.1	12.1	-60.9	0.0
2026-01-04 07:07:10.795605	26.2	12.3	-64.5	0.0
2026-01-04 07:07:13.048199	26.4	12.5	-63.1	0.0
2026-01-04 07:07:15.302091	26.5	12.7	-63.7	0.0
2026-01-04 07:07:17.554049	26.7	12.9	-60.0	0.0
2026-01-04 07:07:19.808787	26.8	13.1	-61.8	0.0
2026-01-04 07:07:22.063147	27.0	13.3	-59.4	0.0
2026-01-04 07:07:24.317186	27.2	13.6	-60.5	0.0
2026-01-04 07:07:26.574790	27.3	13.8	-61.3	0.0
2026-01-04 07:07:28.829487	27.5	14.0	-58.8	0.0
2026-01-04 07:07:31.083730	27.7	14.2	-58.1	0.0
2026-01-04 07:07:33.340384	27.8	14.4	-59.2	0.0
2026-01-04 07:07:35.596748	28.0	14.6	-59.9	0.0
2026-01-04 07:07:37.849719	28.2	14.9	-61.1	0.0
2026-01-04 07:07:40.103183	28.3	15.1	-58.7	0.0
2026-01-04 07:07:42.355310	28.5	15.3	-59.3	0.0
2026-01-04 07:07:44.607660	28.7	15.5	-59.2	0.0
2026-01-04 07:07:46.860696	28.9	15.8	-58.4	0.0
2026-01-04 07:07:49.115101	29.1	16.0	-59.1	0.0
2026-01-04 07:07:51.367135	29.3	16.2	-59.2	0.0
2026-01-04 07:07:53.621316	29.5	16.5	-57.1	0.0
2026-01-04 07:07:55.880107	29.7	16.7	-57.7	0.0
2026-01-04 07:07:58.134055	29.8	16.9	-59.1	0.0
2026-01-04 07:08:00.388145	30.1	17.2	-60.6	0.0
2026-01-04 07:08:02.640499	30.3	17.4	-60.2	0.0
2026-01-04 07:08:04.895365	30.5	17.7	-60.1	0.0
2026-01-04 07:08:07.148165	30.7	17.9	-56.0	0.0
2026-01-04 07:08:09.403438	30.9	18.2	-61.6	0.0
2026-01-04 07:08:11.658956	31.1	18.4	-59.8	0.0
2026-01-04 07:08:13.914325	31.3	18.7	-59.3	0.0
2026-01-04 07:08:16.167383	31.6	18.9	-55.9	0.0
2026-01-04 07:08:18.423910	31.8	19.2	-60.8	0.0
2026-01-04 07:08:20.677398	32.0	19.4	-62.0	0.0
2026-01-04 07:08:22.931774	32.2	19.7	-61.2	0.0
2026-01-04 07:08:25.189814	32.5	20.0	-61.4	0.0
2026-01-04 07:08:27.444046	32.7	20.2	-60.6	0.0
2026-01-04 07:08:29.698556	33.0	20.5	-60.8	0.0
2026-01-04 07:08:31.951595	33.2	20.8	-61.2	0.0
2026-01-04 07:08:34.206400	33.5	21.1	-60.9	0.0
2026-01-04 07:08:36.460099	33.7	21.3	-60.9	0.0
2026-01-04 07:08:38.715155	34.0	21.6	-62.1	0.0
2026-01-04 07:08:40.969758	34.3	21.9	-62.4	0.0
2026-01-04 07:08:43.225529	34.6	22.2	-62.7	0.0
2026-01-04 07:08:45.478376	34.8	22.5	-63.6	0.0
2026-01-04 07:08:47.730671	35.1	22.8	-62.9	0.0
2026-01-04 07:08:49.987424	35.4	23.1	-63.8	0.0
2026-01-04 07:08:52.243089	35.7	23.3	-62.8	0.0
2026-01-04 07:08:54.497878	36.0	23.6	-64.0	0.0
2026-01-04 07:08:56.751518	36.3	23.9	-62.7	0.0
2026-01-04 07:08:59.006635	36.6	24.2	-62.2	0.0
2026-01-04 07:09:01.261884	37.0	24.6	-63.5	0.0
2026-01-04 07:09:03.515300	37.3	24.9	-63.0	0.0
2026-01-04 07:09:05.768173	37.6	25.2	-64.4	0.0
2026-01-04 07:09:08.021594	37.9	25.5	-63.8	0.0
2026-01-04 07:09:10.276604	38.3	25.8	-64.1	0.0
2026-01-04 07:09:12.529913	38.6	26.1	-59.2	0.0
2026-01-04 07:09:14.782302	39.0	26.5	-64.6	0.0
2026-01-04 07:09:17.034015	39.4	26.8	-64.0	0.0
2026-01-04 07:09:19.289843	39.7	27.1	-69.3	0.0
2026-01-04 07:09:21.545683	40.1	27.4	-68.7	0.0
2026-01-04 07:09:23.797374	40.5	27.8	-67.3	0.0
2026-01-04 07:09:26.051462	40.9	28.1	-68.7	0.0
2026-01-04 07:09:28.306231	41.3	28.4	-67.0	0.0
2026-01-04 07:09:30.558842	41.7	28.8	-69.2	0.2
2026-01-04 07:09:32.813448	42.1	29.1	-68.9	0.0
2026-01-04 07:09:35.066361	42.6	29.5	-69.0	0.8
2026-01-04 07:09:37.318485	43.0	29.8	-68.9	2.9
2026-01-04 07:09:39.570868	43.5	30.2	-70.1	1.8
2026-01-04 07:09:41.824142	43.9	30.5	-69.6	1.1
2026-01-04 07:09:44.077654	44.4	30.9	-68.4	0.0
2026-01-04 07:09:46.333546	44.9	31.3	-70.1	1.0
2026-01-04 07:09:48.585610	45.4	31.6	-70.8	1.7
2026-01-04 07:09:50.840408	45.9	32.0	-71.6	3.8
2026-01-04 07:09:53.093123	46.4	32.3	-70.3	3.3
2026-01-04 07:09:55.344979	46.9	32.7	-70.0	4.7
2026-01-04 07:09:57.598768	47.4	33.1	-70.5	0.6
2026-01-04 07:09:59.853355	48.0	33.5	-70.1	0.0
2026-01-04 07:10:02.106152	48.5	33.8	-71.3	5.4
2026-01-04 07:10:04.359650	49.1	34.2	-70.4	2.3
2026-01-04 07:10:06.613059	49.7	34.6	-70.5	5.9
2026-01-04 07:10:08.868379	50.3	35.0	-69.3	2.8
2026-01-04 07:10:11.122697	50.9	35.3	-69.5	2.9
2026-01-04 07:10:13.375577	51.5	35.7	-70.5	5.5
2026-01-04 07:10:15.628308	52.2	36.1	-70.2	5.2
2026-01-04 07:10:17.882641	52.8	36.5	-69.8	5.1
2026-01-04 07:10:20.137819	53.5	36.9	-68.9	5.7
2026-01-04 07:10:22.391204	54.2	37.2	-70.3	5.0
2026-01-04 07:10:24.643493	54.9	37.6	-71.0	3.2
2026-01-04 07:10:26.896687	55.6	38.0	-69.8	2.2
2026-01-04 07:10:29.149857	56.4	38.4	-70.4	6.4
2026-01-04 07:10:31.402471	57.1	38.8	-70.3	6.3
2026-01-04 07:10:33.654716	57.9	39.1	-71.0	4.6
2026-01-04 07:10:35.906019	58.7	39.5	-70.2	3.8
2026-01-04 07:10:38.157302	59.5	39.9	-69.7	4.0
2026-01-04 07:10:40.410350	60.3	40.3	-70.7	3.2
2026-01-04 07:10:42.664008	61.2	40.6	-70.3	4.0
2026-01-04 07:10:44.914982	62.0	41.0	-70.7	7.1
2026-01-04 07:10:47.168715	62.9	41.4	-72.0	7.7
2026-01-04 07:10:49.421447	63.8	41.7	-69.6	5.4
2026-01-04 07:10:51.674563	64.7	42.1	-70.0	3.9
2026-01-04 07:10:53.927093	65.7	42.4	-69.0	1.3
2026-01-04 07:10:56.182046	66.6	42.8	-68.2	1.5
2026-01-04 07:10:58.433927	67.6	43.1	-68.5	3.5
2026-01-04 07:11:00.686958	68.6	43.4	-67.9	0.0
2026-01-04 07:11:02.938793	69.7	43.8	-67.5	0.1
2026-01-04 07:11:05.191887	70.7	44.1	-69.9	4.5
2026-01-04 07:11:07.445428	71.8	44.4	-69.2	4.0
2026-01-04 07:11:09.695381	72.9	44.7	-69.8	4.6
2026-01-04 07:11:11.946311	74.0	45.0	-68.8	1.0
2026-01-04 07:11:14.198700	75.1	45.3	-69.1	3.8
2026-01-04 07:11:16.453461	76.3	45.5	-71.4	6.1
2026-01-04 07:11:18.707736	77.4	45.8	-68.3	0.9
2026-01-04 07:11:20.963330	78.6	46.0	-69.9	0.0
2026-01-04 07:11:23.219139	79.8	46.3	-70.4	4.4
2026-01-04 07:11:25.471267	81.0	46.5	-70.8	6.7
2026-01-04 07:11:27.725358	82.3	46.7	-69.3	0.0
2026-01-04 07:11:29.980668	83.5	46.9	-69.2	4.7
2026-01-04 07:11:32.233032	84.8	47.1	-68.6	2.1
2026-01-04 07:11:34.484491	86.1	47.3	-68.5	0.9
2026-01-04 07:11:36.740405	87.4	47.4	-69.4	6.7
2026-01-04 07:11:38.995013	88.7	47.6	-69.9	6.0
2026-01-04 07:11:41.253278	90.0	47.7	-67.6	9.0
2026-01-04 07:11:43.505651	91.4	47.8	-69.7	7.2
2026-01-04 07:11:45.760480	92.7	47.9	-68.1	0.8
2026-01-04 07:11:48.014396	94.1	47.9	-68.0	0.0
2026-01-04 07:11:50.269478	95.4	48.0	-70.6	7.8
2026-01-04 07:11:52.522969	96.8	48.0	-70.8	4.9
2026-01-04 07:11:54.777213	98.1	48.1	-70.6	6.3
2026-01-04 07:11:57.032989	99.5	48.1	-71.6	7.2
2026-01-04 07:11:59.288185	100.9	48.1	-71.2	6.6
2026-01-04 07:12:01.542398	102.2	48.0	-70.8	5.4
2026-01-04 07:12:03.795315	103.6	48.0	-71.1	3.5
2026-01-04 07:12:06.050510	104.9	47.9	-71.7	8.2
2026-01-04 07:12:08.305129	106.3	47.8	-70.4	7.5
2026-01-04 07:12:10.558627	107.6	47.7	-71.9	8.9
2026-01-04 07:12:12.812278	109.0	47.6	-70.6	4.5
2026-01-04 07:12:15.067920	110.3	47.5	-71.4	9.3
2026-01-04 07:12:17.321372	111.6	47.4	-71.4	9.6
2026-01-04 07:12:19.575502	112.9	47.2	-71.7	11.0
2026-01-04 07:12:21.827771	114.2	47.0	-70.7	8.8
2026-01-04 07:12:24.081144	115.4	46.8	-70.6	7.4
2026-01-04 07:12:26.332432	116.7	46.6	-71.3	9.9
2026-01-04 07:12:28.586959	117.9	46.4	-70.4	8.8
2026-01-04 07:12:30.840240	119.2	46.2	-71.3	10.0
2026-01-04 07:12:33.094768	120.4	46.0	-72.1	10.6
2026-01-04 07:12:35.346439	121.5	45.7	-72.0	10.2
2026-01-04 07:12:37.599196	122.7	45.4	-72.5	11.5
2026-01-04 07:12:39.854557	123.8	45.2	-72.8	13.1
2026-01-04 07:12:42.107187	125.0	44.9	-71.6	10.8
2026-01-04 07:12:44.359645	126.1	44.6	-72.7	11.6
2026-01-04 07:12:46.612811	127.2	44.3	-72.2	11.2
2026-01-04 07:12:48.867340	128.2	44.0	-72.4	12.5
2026-01-04 07:12:51.123654	129.3	43.6	-72.5	12.6
2026-01-04 07:12:53.377912	130.3	43.3	-72.6	11.9
2026-01-04 07:12:55.631264	131.3	43.0	-72.4	10.3
2026-01-04 07:12:57.886864	132.3	42.6	-72.8	10.4
2026-01-04 07:13:00.140008	133.2	42.3	-73.1	11.7
2026-01-04 07:13:02.395588	134.2	41.9	-73.3	11.6
2026-01-04 07:13:04.649294	135.1	41.6	-73.4	11.8
2026-01-04 07:13:06.903068	136.0	41.2	-73.9	11.3
2026-01-04 07:13:09.156238	136.9	40.8	-73.5	11.0
2026-01-04 07:13:11.408651	137.7	40.5	-73.8	11.2
2026-01-04 07:13:13.660706	138.6	40.1	-73.4	8.4
2026-01-04 07:13:15.915242	139.4	39.7	-73.3	10.4
2026-01-04 07:13:18.171818	140.2	39.4	-72.6	9.8
2026-01-04 07:13:20.423727	141.0	39.0	-72.3	9.7
2026-01-04 07:13:22.679016	141.8	38.6	-73.6	12.0
2026-01-04 07:13:24.934497	142.5	38.2	-73.6	11.8
2026-01-04 07:13:27.187395	143.2	37.8	-73.4	12.2
2026-01-04 07:13:29.441124	144.0	37.4	-73.3	11.6
2026-01-04 07:13:31.694468	144.7	37.1	-73.0	12.1
2026-01-04 07:13:33.950264	145.4	36.7	-72.7	11.6
2026-01-04 07:13:36.203909	146.0	36.3	-73.0	11.4
2026-01-04 07:13:38.457622	146.7	35.9	-73.3	12.2
2026-01-04 07:13:40.711435	147.3	35.5	-73.2	11.6
2026-01-04 07:13:42.965230	147.9	35.1	-73.4	12.6
2026-01-04 07:13:45.220219	148.5	34.8	-73.1	11.4
2026-01-04 07:13:47.473415	149.1	34.4	-72.9	9.2
2026-01-04 07:13:49.724693	149.7	34.0	-73.5	11.0
2026-01-04 07:13:51.979481	150.3	33.6	-73.1	11.4
2026-01-04 07:13:54.231205	150.8	33.3	-73.3	11.0
2026-01-04 07:13:56.485099	151.4	32.9	-73.2	10.6
2026-01-04 07:13:58.736620	151.9	32.5	-73.4	10.2
2026-01-04 07:14:00.988929	152.4	32.1	-73.1	8.7
2026-01-04 07:14:03.240515	152.9	31.8	-73.8	11.0
2026-01-04 07:14:05.491839	153.4	31.4	-73.5	10.4
2026-01-04 07:14:07.744776	153.9	31.0	-73.7	10.9
2026-01-04 07:14:09.996663	154.4	30.7	-73.7	10.6
2026-01-04 07:14:12.248479	154.9	30.3	-73.2	9.2
2026-01-04 07:14:14.503510	155.3	30.0	-73.8	10.6
2026-01-04 07:14:16.757795	155.8	29.6	-74.0	10.5
2026-01-04 07:14:19.011616	156.2	29.3	-74.1	9.5
2026-01-04 07:14:21.264630	156.6	28.9	-73.7	10.2
2026-01-04 07:14:23.516870	157.1	28.6	-73.1	7.8
2026-01-04 07:14:25.769624	157.5	28.2	-73.3	9.2
2026-01-04 07:14:28.023682	157.9	27.9	-73.8	9.7
2026-01-04 07:14:30.280582	158.3	27.5	-73.9	10.7
2026-01-04 07:14:32.534167	158.6	27.2	-73.8	9.3
2026-01-04 07:14:34.788553	159.0	26.9	-74.0	9.6
2026-01-04 07:14:37.042443	159.4	26.5	-74.1	9.8
2026-01-04 07:14:39.296535	159.8	26.2	-73.9	9.3
2026-01-04 07:14:41.550836	160.1	25.9	-73.8	8.0
2026-01-04 07:14:43.804239	160.5	25.6	-73.8	8.4
2026-01-04 07:14:46.057955	160.8	25.3	-73.9	8.3
2026-01-04 07:14:48.312867	161.1	24.9	-73.5	9.2
2026-01-04 07:14:50.570200	161.5	24.6	-73.4	7.5
2026-01-04 07:14:52.820130	161.8	24.3	-73.4	8.5
2026-01-04 07:14:55.077444	162.1	24.0	-73.8	7.8
2026-01-04 07:14:57.331360	162.4	23.7	-73.7	6.3
2026-01-04 07:14:59.584803	162.7	23.4	-73.3	6.1
2026-01-04 07:15:01.837918	163.0	23.1	-73.9	6.8
2026-01-04 07:15:04.091571	163.3	22.8	-73.8	5.1
2026-01-04 07:15:06.343790	163.6	22.5	-74.1	6.7
2026-01-04 07:15:08.597541	163.9	22.2	-73.7	6.2
2026-01-04 07:15:10.851640	164.2	21.9	-74.0	5.6
2026-01-04 07:15:13.103467	164.4	21.7	-74.4	6.7
2026-01-04 07:15:15.356489	164.7	21.4	-74.2	6.2
2026-01-04 07:15:17.613311	165.0	21.1	-73.8	7.6
2026-01-04 07:15:19.867018	165.2	20.8	-73.6	7.1
2026-01-04 07:15:22.119986	165.5	20.5	-74.0	6.1
2026-01-04 07:15:24.374996	165.7	20.3	-73.5	6.9
2026-01-04 07:15:26.625288	166.0	20.0	-74.0	5.7
2026-01-04 07:15:28.876287	166.2	19.7	-73.6	6.1
2026-01-04 07:15:31.132600	166.5	19.5	-73.6	4.6
2026-01-04 07:15:33.386081	166.7	19.2	-73.2	5.1
2026-01-04 07:15:35.637796	166.9	18.9	-73.6	6.3
2026-01-04 07:15:37.889236	167.1	18.7	-73.3	5.6
2026-01-04 07:15:40.141553	167.4	18.4	-73.7	5.5
2026-01-04 07:15:42.395920	167.6	18.2	-73.9	5.5
2026-01-04 07:15:44.649862	167.8	17.9	-74.1	5.6
2026-01-04 07:15:46.901331	168.0	17.7	-74.4	6.6
2026-01-04 07:15:49.155106	168.2	17.4	-74.7	4.4
2026-01-04 07:15:51.408964	168.4	17.2	-75.0	5.8
2026-01-04 07:15:53.662047	168.6	16.9	-74.9	5.4
2026-01-04 07:15:55.918032	168.8	16.7	-74.7	5.1
2026-01-04 07:15:58.174018	169.0	16.4	-75.1	4.9
2026-01-04 07:16:00.429013	169.2	16.2	-74.4	5.6
2026-01-04 07:16:02.683629	169.4	16.0	-74.8	5.6
2026-01-04 07:16:04.938467	169.6	15.7	-74.7	5.0
2026-01-04 07:16:07.190728	169.8	15.5	-75.0	4.4
2026-01-04 07:16:09.443126	170.0	15.3	-75.0	5.3
2026-01-04 07:16:11.697268	170.1	15.1	-74.9	3.6
2026-01-04 07:16:13.952916	170.3	14.8	-75.0	4.0
2026-01-04 07:16:16.206694	170.5	14.6	-75.1	4.8
2026-01-04 07:16:18.461378	170.7	14.4	-74.8	4.9
2026-01-04 07:16:20.715745	170.8	14.2	-74.6	4.7
2026-01-04 07:16:22.968884	171.0	13.9	-74.9	3.9
2026-01-04 07:16:25.221851	171.2	13.7	-75.0	4.2
2026-01-04 07:16:27.472950	171.3	13.5	-74.8	3.6
2026-01-04 07:16:29.725834	171.5	13.3	-74.8	3.7
2026-01-04 07:16:31.978781	171.6	13.1	-74.3	3.1
2026-01-04 07:16:34.231989	171.8	12.9	-73.9	4.2
2026-01-04 07:16:36.487103	171.9	12.7	-73.5	3.0
2026-01-04 07:16:38.742035	172.1	12.5	-74.2	2.1
2026-01-04 07:16:40.997817	172.2	12.3	-74.1	2.3
2026-01-04 07:16:43.253400	172.4	12.1	-74.0	1.2
2026-01-04 07:16:45.504331	172.5	11.9	-73.9	1.2
2026-01-04 07:16:47.759674	172.7	11.7	-74.0	1.8
2026-01-04 07:16:50.012740	172.8	11.5	-73.8	0.0
2026-01-04 07:16:52.266561	173.0	11.3	-73.4	0.7
2026-01-04 07:16:54.520632	173.1	11.1	-73.7	0.0
2026-01-04 07:16:56.773869	173.2	10.9	-75.1	2.6
2026-01-04 07:16:59.026153	173.4	10.7	-74.6	0.0
2026-01-04 07:17:01.282803	173.5	10.5	-74.9	0.0
2026-01-04 07:17:03.532657	173.6	10.3	-78.1	0.0
2026-01-04 07:17:05.786547	173.8	10.1	-81.3	0.0
#Closed at: 2026-01-04 07:06:38.823503