passes_logs/2026/01/04/planumMaritime01/planumMaritime01__20260104_102517_METEOR-M2_4_rec.log

#Pass ID: 20260104_102517_METEOR-M2 4
#Satellite: METEOR-M2 4
#Configuration: METEOR-M2 4
#Start time: 2026-01-04 10:25:22.037964

#LorettStation: 1.0.0 05.05.2024
#Station: planumMaritime01
#Location: 37.49445 lon 55.92918 lat
#TLE: 1 59051U 24039A   26003.65226437  .00000074  00000+0  52640-4 0  9995
#TLE: 2 59051  98.6797 325.2209 0006055 289.8349  70.2176 14.22405521 95878

#Time	Az	El	Level	SNR
2026-01-04 10:25:24.206351	128.3	10.2	-83.1	0.0
2026-01-04 10:25:26.468014	128.1	10.4	-81.0	6.2
2026-01-04 10:25:28.737215	128.0	10.6	-79.9	7.6
2026-01-04 10:25:31.004467	127.8	10.7	-79.6	7.2
2026-01-04 10:25:33.274807	127.7	10.9	-79.2	7.5
2026-01-04 10:25:35.542804	127.5	11.1	-79.2	6.7
2026-01-04 10:25:37.810998	127.3	11.3	-79.3	6.9
2026-01-04 10:25:40.081565	127.2	11.5	-79.1	8.4
2026-01-04 10:25:42.352868	127.0	11.7	-78.8	7.0
2026-01-04 10:25:44.629907	126.8	11.9	-79.1	9.1
2026-01-04 10:25:46.908376	126.6	12.1	-79.0	9.6
2026-01-04 10:25:49.181829	126.5	12.3	-79.2	9.5
2026-01-04 10:25:51.461162	126.3	12.5	-79.1	9.4
2026-01-04 10:25:53.738405	126.1	12.7	-79.1	10.0
2026-01-04 10:25:56.014628	125.9	12.9	-78.6	8.5
2026-01-04 10:25:58.288203	125.7	13.1	-79.2	8.8
2026-01-04 10:26:00.562539	125.5	13.3	-79.1	9.9
2026-01-04 10:26:02.837801	125.4	13.5	-78.9	7.6
2026-01-04 10:26:05.110996	125.2	13.7	-78.7	9.8
2026-01-04 10:26:07.387096	125.0	14.0	-79.0	9.2
2026-01-04 10:26:09.658687	124.8	14.2	-78.9	9.7
2026-01-04 10:26:11.929047	124.6	14.4	-78.9	9.5
2026-01-04 10:26:14.198041	124.3	14.6	-78.9	9.7
2026-01-04 10:26:16.469583	124.1	14.8	-79.0	10.0
2026-01-04 10:26:18.738573	123.9	15.0	-78.9	10.1
2026-01-04 10:26:21.009612	123.7	15.3	-78.7	9.2
2026-01-04 10:26:23.281342	123.5	15.5	-79.2	10.2
2026-01-04 10:26:25.549796	123.3	15.7	-78.9	9.0
2026-01-04 10:26:27.815370	123.0	15.9	-79.1	9.2
2026-01-04 10:26:30.076087	122.8	16.2	-78.8	9.6
2026-01-04 10:26:32.329309	122.6	16.4	-78.9	10.2
2026-01-04 10:26:34.582476	122.3	16.6	-78.5	10.4
2026-01-04 10:26:36.838543	122.1	16.8	-78.8	10.5
2026-01-04 10:26:39.093636	121.9	17.1	-78.6	9.9
2026-01-04 10:26:41.352404	121.6	17.3	-79.0	10.7
2026-01-04 10:26:43.605324	121.4	17.6	-78.8	9.6
2026-01-04 10:26:45.859354	121.1	17.8	-78.8	9.9
2026-01-04 10:26:48.116069	120.8	18.0	-78.5	8.4
2026-01-04 10:26:50.376821	120.6	18.3	-78.9	9.6
2026-01-04 10:26:52.636678	120.3	18.5	-78.7	9.4
2026-01-04 10:26:54.896782	120.0	18.8	-78.3	7.3
2026-01-04 10:26:57.166778	119.8	19.0	-78.8	10.1
2026-01-04 10:26:59.431989	119.5	19.3	-78.9	10.2
2026-01-04 10:27:01.703058	119.2	19.5	-79.0	10.9
2026-01-04 10:27:03.969175	118.9	19.8	-78.3	9.6
2026-01-04 10:27:06.237053	118.6	20.0	-78.6	9.9
2026-01-04 10:27:08.504678	118.3	20.3	-78.4	10.2
2026-01-04 10:27:10.772303	118.0	20.5	-78.7	9.8
2026-01-04 10:27:13.043071	117.7	20.8	-78.1	9.2
2026-01-04 10:27:15.316132	117.4	21.1	-78.7	10.5
2026-01-04 10:27:17.586873	117.0	21.3	-78.6	10.1
2026-01-04 10:27:19.855331	116.7	21.6	-78.8	10.8
2026-01-04 10:27:22.122544	116.4	21.8	-78.5	10.2
2026-01-04 10:27:24.389617	116.0	22.1	-78.1	10.2
2026-01-04 10:27:26.659234	115.7	22.4	-78.4	9.5
2026-01-04 10:27:28.925559	115.3	22.7	-78.6	9.0
2026-01-04 10:27:31.192063	115.0	22.9	-78.4	10.2
2026-01-04 10:27:33.459019	114.6	23.2	-78.5	10.3
2026-01-04 10:27:35.728752	114.2	23.5	-78.2	10.1
2026-01-04 10:27:37.999638	113.8	23.8	-78.0	9.3
2026-01-04 10:27:40.269419	113.5	24.0	-78.0	9.6
2026-01-04 10:27:42.538203	113.1	24.3	-78.5	10.4
2026-01-04 10:27:44.813530	112.7	24.6	-77.9	9.7
2026-01-04 10:27:47.078175	112.3	24.9	-77.8	9.2
2026-01-04 10:27:49.341660	111.8	25.2	-77.9	10.3
2026-01-04 10:27:51.607117	111.4	25.5	-77.5	9.4
2026-01-04 10:27:53.871993	111.0	25.8	-77.1	8.8
2026-01-04 10:27:56.139025	110.5	26.1	-77.1	9.5
2026-01-04 10:27:58.402391	110.1	26.4	-77.2	8.8
2026-01-04 10:28:00.669522	109.6	26.6	-76.9	8.7
2026-01-04 10:28:02.932214	109.2	26.9	-76.8	8.5
2026-01-04 10:28:05.204816	108.7	27.2	-77.1	9.1
2026-01-04 10:28:07.478820	108.2	27.5	-77.3	10.3
2026-01-04 10:28:09.756565	107.7	27.8	-77.4	11.1
2026-01-04 10:28:12.032053	107.2	28.1	-77.5	8.7
2026-01-04 10:28:14.307064	106.7	28.4	-77.6	7.9
2026-01-04 10:28:16.586208	106.2	28.7	-77.3	8.8
2026-01-04 10:28:18.865206	105.6	29.0	-77.8	10.3
2026-01-04 10:28:21.140957	105.1	29.3	-77.3	9.9
2026-01-04 10:28:23.415190	104.6	29.6	-77.1	8.5
2026-01-04 10:28:25.686690	104.0	29.9	-76.9	7.8
2026-01-04 10:28:27.962930	103.4	30.2	-77.1	9.2
2026-01-04 10:28:30.238322	102.8	30.5	-77.5	9.9
2026-01-04 10:28:32.515651	102.2	30.8	-77.9	10.5
2026-01-04 10:28:34.780216	101.6	31.2	-77.3	9.1
2026-01-04 10:28:37.036966	101.0	31.4	-76.8	6.4
2026-01-04 10:28:39.300453	100.4	31.7	-77.3	8.8
2026-01-04 10:28:41.565823	99.7	32.0	-78.1	10.6
2026-01-04 10:28:43.830176	99.1	32.3	-77.3	9.4
2026-01-04 10:28:46.088877	98.4	32.6	-77.9	8.6
2026-01-04 10:28:48.348868	97.8	32.9	-77.1	8.2
2026-01-04 10:28:50.611015	97.1	33.2	-77.5	9.4
2026-01-04 10:28:52.868805	96.4	33.5	-77.5	9.4
2026-01-04 10:28:55.130013	95.7	33.8	-77.5	10.4
2026-01-04 10:28:57.393788	94.9	34.1	-77.4	9.3
2026-01-04 10:28:59.669914	94.2	34.4	-77.2	9.9
2026-01-04 10:29:01.941663	93.4	34.6	-76.9	4.9
2026-01-04 10:29:04.215030	92.7	34.9	-77.0	5.2
2026-01-04 10:29:06.490705	91.9	35.2	-76.1	5.1
2026-01-04 10:29:08.762327	91.1	35.5	-76.4	7.1
2026-01-04 10:29:11.036774	90.3	35.7	-76.8	7.9
2026-01-04 10:29:13.310793	89.5	36.0	-76.0	7.4
2026-01-04 10:29:15.586144	88.6	36.3	-76.7	7.6
2026-01-04 10:29:17.854127	87.8	36.5	-77.1	6.7
2026-01-04 10:29:20.128583	86.9	36.8	-77.1	7.1
2026-01-04 10:29:22.399760	86.1	37.0	-76.4	3.2
2026-01-04 10:29:24.668217	85.2	37.2	-77.4	7.7
2026-01-04 10:29:26.940443	84.3	37.5	-77.0	5.9
2026-01-04 10:29:29.216994	83.4	37.7	-77.5	6.8
2026-01-04 10:29:31.490801	82.4	37.9	-74.5	4.1
2026-01-04 10:29:33.770745	81.5	38.1	-77.0	4.6
2026-01-04 10:29:36.043634	80.6	38.3	-77.3	5.2
2026-01-04 10:29:38.318240	79.6	38.5	-77.4	5.5
2026-01-04 10:29:40.592653	78.6	38.7	-76.8	4.8
2026-01-04 10:29:42.869196	77.6	38.9	-77.0	6.1
2026-01-04 10:29:45.137600	76.7	39.0	-77.7	7.1
2026-01-04 10:29:47.402324	75.7	39.2	-76.4	6.4
2026-01-04 10:29:49.669766	74.7	39.3	-75.9	6.0
2026-01-04 10:29:51.940189	73.6	39.5	-75.3	2.7
2026-01-04 10:29:54.209093	72.6	39.6	-77.1	6.1
2026-01-04 10:29:56.478556	71.6	39.7	-77.0	4.9
2026-01-04 10:29:58.746778	70.5	39.8	-78.5	7.6
2026-01-04 10:30:01.014712	69.5	39.9	-77.7	5.0
2026-01-04 10:30:03.288882	68.4	40.0	-75.2	0.0
2026-01-04 10:30:05.562476	67.4	40.1	-76.3	3.5
2026-01-04 10:30:07.833033	66.3	40.2	-76.9	6.0
2026-01-04 10:30:10.106733	65.2	40.2	-77.2	6.3
2026-01-04 10:30:12.377460	64.2	40.3	-75.1	0.0
2026-01-04 10:30:14.651301	63.1	40.3	-76.6	4.6
2026-01-04 10:30:16.927905	62.0	40.3	-76.9	3.4
2026-01-04 10:30:19.203175	60.9	40.3	-76.3	6.0
2026-01-04 10:30:21.475699	59.9	40.3	-74.9	3.8
2026-01-04 10:30:23.748480	58.8	40.3	-76.2	2.0
2026-01-04 10:30:26.021759	57.7	40.3	-76.5	4.3
2026-01-04 10:30:28.288671	56.6	40.2	-76.5	1.8
2026-01-04 10:30:30.546899	55.6	40.2	-76.7	4.6
2026-01-04 10:30:32.806501	54.5	40.1	-75.8	3.6
2026-01-04 10:30:35.063226	53.5	40.1	-76.2	3.3
2026-01-04 10:30:37.320098	52.4	40.0	-76.2	1.2
2026-01-04 10:30:39.578240	51.4	39.9	-77.4	5.0
2026-01-04 10:30:41.842645	50.3	39.8	-76.3	2.4
2026-01-04 10:30:44.110309	49.3	39.7	-74.8	2.1
2026-01-04 10:30:46.374916	48.3	39.6	-77.2	4.0
2026-01-04 10:30:48.635246	47.3	39.4	-75.1	1.2
2026-01-04 10:30:50.892684	46.3	39.3	-76.7	4.3
2026-01-04 10:30:53.151691	45.3	39.1	-75.8	2.9
2026-01-04 10:30:55.409972	44.3	39.0	-76.3	4.5
2026-01-04 10:30:57.670559	43.3	38.8	-76.4	3.9
2026-01-04 10:30:59.927291	42.3	38.6	-77.1	3.6
2026-01-04 10:31:02.183262	41.4	38.4	-76.9	0.7
2026-01-04 10:31:04.438240	40.4	38.2	-75.9	1.9
2026-01-04 10:31:06.696766	39.5	38.0	-77.0	1.5
2026-01-04 10:31:08.951949	38.6	37.8	-76.6	0.9
2026-01-04 10:31:11.211645	37.7	37.6	-75.5	0.0
2026-01-04 10:31:13.483420	36.8	37.4	-76.2	3.3
2026-01-04 10:31:15.761879	35.9	37.2	-74.7	0.0
2026-01-04 10:31:18.037033	35.0	36.9	-75.2	1.8
2026-01-04 10:31:20.311436	34.1	36.7	-75.8	0.0
2026-01-04 10:31:22.579854	33.3	36.4	-76.0	4.2
2026-01-04 10:31:24.852972	32.4	36.2	-75.6	1.8
2026-01-04 10:31:27.128698	31.6	35.9	-75.8	2.0
2026-01-04 10:31:29.400332	30.8	35.7	-74.8	0.4
2026-01-04 10:31:31.669681	30.0	35.4	-74.1	0.0
2026-01-04 10:31:33.940517	29.2	35.1	-73.9	0.0
2026-01-04 10:31:36.213743	28.4	34.9	-72.2	0.0
2026-01-04 10:31:38.484356	27.7	34.6	-75.1	0.0
2026-01-04 10:31:40.761583	26.9	34.3	-72.3	0.0
2026-01-04 10:31:43.031431	26.2	34.0	-72.5	0.0
2026-01-04 10:31:45.304281	25.5	33.7	-71.8	0.0
2026-01-04 10:31:47.573354	24.8	33.5	-72.2	0.0
2026-01-04 10:31:49.839227	24.1	33.2	-72.5	0.0
2026-01-04 10:31:52.111486	23.4	32.9	-71.9	0.0
2026-01-04 10:31:54.378726	22.7	32.6	-71.4	0.0
2026-01-04 10:31:56.647982	22.1	32.3	-72.0	0.0
2026-01-04 10:31:58.920141	21.4	32.0	-72.8	0.0
2026-01-04 10:32:01.193062	20.8	31.7	-72.0	0.0
2026-01-04 10:32:03.466705	20.1	31.4	-72.2	0.0
2026-01-04 10:32:05.740852	19.5	31.1	-71.6	0.0
2026-01-04 10:32:08.012803	18.9	30.8	-72.3	0.0
2026-01-04 10:32:10.280695	18.3	30.5	-73.1	0.0
2026-01-04 10:32:12.552316	17.8	30.2	-72.0	0.0
2026-01-04 10:32:14.829337	17.2	29.9	-70.1	0.0
2026-01-04 10:32:17.104534	16.6	29.6	-72.5	0.0
2026-01-04 10:32:19.379325	16.1	29.3	-72.0	0.0
2026-01-04 10:32:21.651777	15.6	29.0	-69.8	0.0
2026-01-04 10:32:23.927321	15.0	28.7	-71.4	0.0
2026-01-04 10:32:26.191594	14.5	28.4	-72.1	0.0
2026-01-04 10:32:28.455095	14.0	28.1	-72.4	0.0
2026-01-04 10:32:30.724208	13.5	27.8	-67.6	0.0
2026-01-04 10:32:32.992471	13.0	27.5	-72.5	0.0
2026-01-04 10:32:35.259968	12.6	27.2	-72.3	0.0
2026-01-04 10:32:37.527989	12.1	26.9	-72.4	0.0
2026-01-04 10:32:39.791390	11.6	26.6	-72.0	0.0
2026-01-04 10:32:42.062366	11.2	26.3	-71.0	0.0
2026-01-04 10:32:44.337197	10.7	26.0	-72.6	0.0
2026-01-04 10:32:46.612721	10.3	25.7	-71.8	0.0
2026-01-04 10:32:48.885934	9.9	25.5	-72.1	0.0
2026-01-04 10:32:51.161123	9.4	25.2	-71.0	0.0
2026-01-04 10:32:53.435732	9.0	24.9	-65.5	0.0
2026-01-04 10:32:55.694635	8.6	24.6	-73.0	0.0
2026-01-04 10:32:57.953036	8.2	24.3	-71.8	0.0
2026-01-04 10:33:00.209355	7.8	24.0	-71.6	0.0
2026-01-04 10:33:02.468378	7.5	23.8	-73.3	0.0
2026-01-04 10:33:04.729876	7.1	23.5	-72.8	0.0
2026-01-04 10:33:06.989175	6.7	23.2	-72.3	0.0
2026-01-04 10:33:09.247635	6.4	22.9	-72.5	0.0
2026-01-04 10:33:11.504847	6.0	22.7	-72.0	0.0
2026-01-04 10:33:13.762355	5.7	22.4	-72.6	0.0
2026-01-04 10:33:16.019721	5.3	22.1	-71.9	0.0
2026-01-04 10:33:18.281150	5.0	21.9	-71.3	0.0
2026-01-04 10:33:20.556002	4.7	21.6	-71.2	0.0
2026-01-04 10:33:22.830672	4.3	21.3	-67.5	0.0
2026-01-04 10:33:25.105509	4.0	21.1	-67.5	0.0
2026-01-04 10:33:27.378528	3.7	20.8	-69.6	0.0
2026-01-04 10:33:29.650649	3.4	20.6	-71.9	0.0
2026-01-04 10:33:31.925671	3.1	20.3	-71.6	0.0
2026-01-04 10:33:34.203607	2.8	20.0	-72.1	0.0
2026-01-04 10:33:36.475838	2.5	19.8	-72.3	0.0
2026-01-04 10:33:38.751382	2.2	19.5	-72.7	0.0
2026-01-04 10:33:41.028778	1.9	19.3	-73.7	0.0
2026-01-04 10:33:43.300252	1.6	19.0	-71.5	0.0
2026-01-04 10:33:45.574542	1.4	18.8	-70.9	0.0
2026-01-04 10:33:47.849372	1.1	18.6	-71.9	0.0
2026-01-04 10:33:50.129051	0.8	18.3	-73.9	0.0
2026-01-04 10:33:52.405425	0.6	18.1	-73.4	0.0
2026-01-04 10:33:54.685245	0.3	17.8	-72.4	0.0
2026-01-04 10:33:56.962368	0.0	17.6	-72.9	0.0
2026-01-04 10:33:59.241113	359.8	17.4	-72.8	0.0
2026-01-04 10:34:01.522040	359.5	17.1	-73.7	0.0
2026-01-04 10:34:03.799192	359.3	16.9	-74.5	0.0
2026-01-04 10:34:06.077608	359.1	16.7	-72.3	0.0
2026-01-04 10:34:08.347466	358.8	16.4	-71.8	0.0
2026-01-04 10:34:10.616139	358.6	16.2	-71.8	0.0
2026-01-04 10:34:12.887519	358.4	16.0	-73.9	0.0
2026-01-04 10:34:15.153672	358.2	15.7	-70.9	0.0
2026-01-04 10:34:17.422676	357.9	15.5	-73.4	0.0
2026-01-04 10:34:19.686768	357.7	15.3	-73.2	0.0
2026-01-04 10:34:21.952949	357.5	15.1	-74.8	0.0
2026-01-04 10:34:24.213624	357.3	14.9	-71.8	0.0
2026-01-04 10:34:26.476427	357.1	14.7	-73.8	0.0
2026-01-04 10:34:28.740901	356.9	14.4	-74.2	0.0
2026-01-04 10:34:31.004536	356.7	14.2	-73.8	0.0
2026-01-04 10:34:33.271119	356.5	14.0	-74.9	0.0
2026-01-04 10:34:35.541577	356.3	13.8	-74.0	0.0
2026-01-04 10:34:37.811913	356.1	13.6	-74.5	0.0
2026-01-04 10:34:40.080704	355.9	13.4	-74.7	0.0
2026-01-04 10:34:42.349099	355.7	13.2	-74.3	0.0
2026-01-04 10:34:44.615715	355.5	13.0	-73.3	0.0
2026-01-04 10:34:46.882807	355.4	12.8	-75.3	0.0
2026-01-04 10:34:49.150610	355.2	12.6	-71.2	0.0
2026-01-04 10:34:51.415948	355.0	12.4	-70.2	0.0
2026-01-04 10:34:53.683762	354.8	12.2	-72.9	0.0
2026-01-04 10:34:55.954037	354.7	12.0	-72.7	0.0
2026-01-04 10:34:58.225546	354.5	11.8	-74.4	0.0
2026-01-04 10:35:00.494501	354.3	11.6	-73.6	0.0
2026-01-04 10:35:02.756763	354.2	11.4	-72.8	0.0
2026-01-04 10:35:05.015722	354.0	11.2	-73.0	0.0
2026-01-04 10:35:07.276783	353.9	11.0	-72.9	0.0
2026-01-04 10:35:09.536989	353.7	10.8	-70.1	0.0
2026-01-04 10:35:11.797452	353.5	10.6	-72.7	0.0
2026-01-04 10:35:14.058158	353.4	10.5	-73.0	0.0
2026-01-04 10:35:16.322804	353.2	10.3	-76.1	0.0
2026-01-04 10:35:18.578193	353.1	10.1	-82.6	0.0
#Closed at: 2026-01-04 10:25:17.043465