passes_logs/2026/01/04/planumMaritime01/planumMaritime01__20260104_080412_METEOR-M2_3_rec.log

#Pass ID: 20260104_080412_METEOR-M2 3
#Satellite: METEOR-M2 3
#Configuration: METEOR-M2 3
#Start time: 2026-01-04 08:04:17.726350

#LorettStation: 1.0.0 05.05.2024
#Station: planumMaritime01
#Location: 37.49445 lon 55.92918 lat
#TLE: 1 57166U 23091A   26003.61361221  .00000057  00000+0  43688-4 0  9997
#TLE: 2 57166  98.6345  61.7676 0002928 295.0125  65.0749 14.24029257131091

#Time	Az	El	Level	SNR
2026-01-04 08:04:19.890174	10.4	10.2	-70.2	0.0
2026-01-04 08:04:22.146129	10.4	10.4	-70.2	0.0
2026-01-04 08:04:24.402243	10.3	10.6	-68.5	0.0
2026-01-04 08:04:26.657680	10.2	10.8	-70.4	0.0
2026-01-04 08:04:28.917721	10.1	11.0	-67.9	0.0
2026-01-04 08:04:31.174209	10.0	11.2	-68.2	0.0
2026-01-04 08:04:33.431669	9.9	11.4	-69.0	0.0
2026-01-04 08:04:35.692199	9.8	11.6	-69.3	0.0
2026-01-04 08:04:37.952821	9.7	11.8	-69.6	0.0
2026-01-04 08:04:40.209524	9.6	12.0	-68.6	0.0
2026-01-04 08:04:42.468299	9.5	12.2	-70.5	0.0
2026-01-04 08:04:44.726150	9.4	12.4	-69.7	0.0
2026-01-04 08:04:46.982772	9.3	12.6	-69.1	0.0
2026-01-04 08:04:49.239858	9.2	12.8	-68.7	0.0
2026-01-04 08:04:51.497588	9.1	13.0	-68.0	0.0
2026-01-04 08:04:53.756802	8.9	13.3	-68.5	0.0
2026-01-04 08:04:56.019985	8.8	13.5	-69.8	0.0
2026-01-04 08:04:58.279836	8.7	13.7	-70.3	0.0
2026-01-04 08:05:00.541731	8.6	13.9	-70.2	0.0
2026-01-04 08:05:02.810851	8.5	14.1	-70.0	0.0
2026-01-04 08:05:05.082311	8.4	14.4	-70.3	0.0
2026-01-04 08:05:07.356494	8.2	14.6	-70.1	0.0
2026-01-04 08:05:09.624548	8.1	14.8	-70.2	0.0
2026-01-04 08:05:11.889460	8.0	15.1	-70.5	0.0
2026-01-04 08:05:14.162950	7.9	15.3	-70.5	0.0
2026-01-04 08:05:16.440435	7.7	15.5	-69.5	0.0
2026-01-04 08:05:18.711316	7.6	15.8	-69.2	0.0
2026-01-04 08:05:20.985565	7.5	16.0	-69.5	0.0
2026-01-04 08:05:23.260788	7.3	16.3	-67.1	0.0
2026-01-04 08:05:25.534174	7.2	16.5	-69.5	0.0
2026-01-04 08:05:27.792201	7.0	16.8	-69.6	0.0
2026-01-04 08:05:30.052269	6.9	17.0	-69.6	0.0
2026-01-04 08:05:32.312368	6.7	17.3	-71.0	0.0
2026-01-04 08:05:34.569490	6.6	17.5	-71.1	0.0
2026-01-04 08:05:36.832852	6.4	17.8	-70.6	0.0
2026-01-04 08:05:39.094746	6.3	18.1	-70.8	0.0
2026-01-04 08:05:41.352475	6.1	18.3	-70.9	0.0
2026-01-04 08:05:43.611099	6.0	18.6	-71.4	0.0
2026-01-04 08:05:45.868390	5.8	18.9	-70.4	0.0
2026-01-04 08:05:48.127808	5.6	19.1	-69.1	0.0
2026-01-04 08:05:50.385911	5.4	19.4	-70.4	0.0
2026-01-04 08:05:52.659111	5.3	19.7	-70.0	0.0
2026-01-04 08:05:54.931176	5.1	20.0	-71.5	0.0
2026-01-04 08:05:57.205853	4.9	20.2	-70.8	0.0
2026-01-04 08:05:59.478797	4.7	20.5	-70.5	0.0
2026-01-04 08:06:01.753603	4.5	20.8	-70.8	0.0
2026-01-04 08:06:04.028250	4.3	21.1	-71.5	0.0
2026-01-04 08:06:06.299867	4.1	21.4	-70.9	0.0
2026-01-04 08:06:08.578066	3.9	21.7	-70.5	0.0
2026-01-04 08:06:10.851494	3.7	22.0	-71.1	0.0
2026-01-04 08:06:13.126728	3.5	22.3	-70.5	0.0
2026-01-04 08:06:15.399370	3.3	22.6	-71.5	0.0
2026-01-04 08:06:17.672380	3.1	22.9	-71.7	0.0
2026-01-04 08:06:19.947945	2.9	23.3	-70.9	0.0
2026-01-04 08:06:22.223622	2.6	23.6	-71.3	0.0
2026-01-04 08:06:24.498136	2.4	23.9	-70.9	0.0
2026-01-04 08:06:26.774374	2.2	24.2	-71.4	0.0
2026-01-04 08:06:29.046801	1.9	24.6	-71.0	0.0
2026-01-04 08:06:31.321957	1.7	24.9	-71.0	0.0
2026-01-04 08:06:33.598238	1.4	25.2	-71.1	0.0
2026-01-04 08:06:35.875473	1.2	25.6	-70.9	0.0
2026-01-04 08:06:38.151985	0.9	25.9	-70.9	0.0
2026-01-04 08:06:40.428293	0.6	26.3	-71.2	0.0
2026-01-04 08:06:42.705865	0.3	26.6	-70.5	0.0
2026-01-04 08:06:44.980131	0.0	27.0	-71.3	0.0
2026-01-04 08:06:47.253892	359.8	27.3	-71.4	0.0
2026-01-04 08:06:49.528737	359.5	27.7	-70.2	0.0
2026-01-04 08:06:51.806009	359.1	28.1	-70.1	0.0
2026-01-04 08:06:54.080497	358.8	28.5	-70.1	0.0
2026-01-04 08:06:56.358272	358.5	28.8	-71.0	0.0
2026-01-04 08:06:58.633485	358.2	29.2	-70.2	0.0
2026-01-04 08:07:00.910783	357.8	29.6	-70.7	0.0
2026-01-04 08:07:03.188858	357.5	30.0	-70.4	0.0
2026-01-04 08:07:05.465424	357.1	30.4	-71.3	0.0
2026-01-04 08:07:07.740239	356.8	30.8	-71.3	0.0
2026-01-04 08:07:10.013351	356.4	31.2	-70.5	0.0
2026-01-04 08:07:12.290543	356.0	31.6	-70.8	0.0
2026-01-04 08:07:14.562298	355.6	32.0	-70.6	0.0
2026-01-04 08:07:16.839289	355.2	32.4	-68.9	0.0
2026-01-04 08:07:19.109337	354.8	32.8	-71.9	0.0
2026-01-04 08:07:21.383236	354.4	33.3	-71.4	0.0
2026-01-04 08:07:23.657544	353.9	33.7	-72.2	0.0
2026-01-04 08:07:25.932924	353.5	34.1	-73.4	1.1
2026-01-04 08:07:28.200713	353.0	34.6	-72.6	0.0
2026-01-04 08:07:30.463863	352.6	35.0	-73.2	0.0
2026-01-04 08:07:32.729188	352.1	35.4	-73.2	0.0
2026-01-04 08:07:34.988008	351.6	35.9	-73.2	0.0
2026-01-04 08:07:37.249681	351.1	36.3	-72.5	0.0
2026-01-04 08:07:39.511183	350.5	36.8	-74.1	0.0
2026-01-04 08:07:41.770348	350.0	37.2	-75.3	0.0
2026-01-04 08:07:44.042294	349.4	37.7	-74.8	0.8
2026-01-04 08:07:46.313478	348.9	38.2	-75.7	2.1
2026-01-04 08:07:48.578385	348.3	38.6	-75.5	3.2
2026-01-04 08:07:50.846961	347.7	39.1	-75.9	4.5
2026-01-04 08:07:53.122586	347.0	39.6	-75.9	4.8
2026-01-04 08:07:55.398228	346.4	40.1	-76.6	5.9
2026-01-04 08:07:57.675873	345.7	40.5	-76.0	4.1
2026-01-04 08:07:59.958438	345.0	41.0	-75.9	4.0
2026-01-04 08:08:02.236642	344.3	41.5	-76.7	8.3
2026-01-04 08:08:04.514453	343.6	42.0	-76.1	5.7
2026-01-04 08:08:06.787103	342.8	42.5	-77.0	8.1
2026-01-04 08:08:09.061204	342.0	43.0	-76.4	7.2
2026-01-04 08:08:11.329828	341.2	43.5	-77.3	7.6
2026-01-04 08:08:13.605107	340.4	43.9	-76.5	6.0
2026-01-04 08:08:15.874944	339.6	44.4	-78.1	9.1
2026-01-04 08:08:18.147786	338.7	44.9	-77.5	7.4
2026-01-04 08:08:20.421329	337.8	45.4	-78.3	7.8
2026-01-04 08:08:22.696319	336.8	45.9	-78.3	10.0
2026-01-04 08:08:24.974458	335.9	46.3	-77.8	8.5
2026-01-04 08:08:27.246438	334.9	46.8	-77.1	7.3
2026-01-04 08:08:29.524235	333.9	47.3	-78.0	9.3
2026-01-04 08:08:31.798674	332.8	47.7	-78.3	8.6
2026-01-04 08:08:34.073484	331.7	48.2	-78.5	9.3
2026-01-04 08:08:36.346397	330.6	48.6	-78.4	8.5
2026-01-04 08:08:38.615056	329.4	49.1	-78.5	6.8
2026-01-04 08:08:40.880743	328.3	49.5	-78.6	8.8
2026-01-04 08:08:43.147952	327.0	49.9	-78.6	7.6
2026-01-04 08:08:45.415657	325.8	50.4	-78.4	7.1
2026-01-04 08:08:47.693253	324.5	50.8	-78.8	8.7
2026-01-04 08:08:49.969589	323.2	51.1	-78.6	7.8
2026-01-04 08:08:52.251402	321.8	51.5	-79.0	8.4
2026-01-04 08:08:54.524915	320.4	51.9	-78.4	7.6
2026-01-04 08:08:56.804717	319.0	52.2	-78.6	7.9
2026-01-04 08:08:59.079288	317.5	52.6	-77.8	6.0
2026-01-04 08:09:01.358213	316.0	52.9	-78.9	6.6
2026-01-04 08:09:03.633474	314.5	53.2	-78.9	7.8
2026-01-04 08:09:05.909292	312.9	53.4	-78.7	6.6
2026-01-04 08:09:08.181577	311.3	53.7	-77.6	3.5
2026-01-04 08:09:10.443332	309.7	53.9	-78.4	5.4
2026-01-04 08:09:12.703187	308.1	54.1	-78.5	6.6
2026-01-04 08:09:14.963416	306.5	54.3	-78.2	6.8
2026-01-04 08:09:17.225290	304.8	54.5	-78.8	6.1
2026-01-04 08:09:19.485525	303.1	54.6	-78.5	5.2
2026-01-04 08:09:21.745632	301.4	54.7	-78.7	2.6
2026-01-04 08:09:24.008536	299.7	54.8	-79.0	6.4
2026-01-04 08:09:26.269691	298.0	54.9	-79.1	6.0
2026-01-04 08:09:28.530751	296.2	54.9	-78.9	4.9
2026-01-04 08:09:30.793582	294.5	54.9	-79.3	5.1
2026-01-04 08:09:33.056291	292.8	54.9	-78.6	6.6
2026-01-04 08:09:35.331862	291.0	54.9	-78.6	5.8
2026-01-04 08:09:37.610406	289.3	54.8	-78.7	5.9
2026-01-04 08:09:39.887749	287.6	54.7	-79.1	6.1
2026-01-04 08:09:42.165734	285.8	54.6	-79.3	5.2
2026-01-04 08:09:44.443200	284.2	54.5	-79.4	6.9
2026-01-04 08:09:46.720402	282.5	54.3	-80.1	6.9
2026-01-04 08:09:48.995239	280.8	54.1	-79.3	6.6
2026-01-04 08:09:51.267540	279.2	53.9	-79.6	7.7
2026-01-04 08:09:53.538158	277.6	53.6	-79.4	7.1
2026-01-04 08:09:55.807227	276.0	53.4	-79.3	6.7
2026-01-04 08:09:58.079241	274.5	53.1	-79.5	7.8
2026-01-04 08:10:00.350753	272.9	52.8	-79.6	7.9
2026-01-04 08:10:02.625116	271.4	52.5	-79.7	7.6
2026-01-04 08:10:04.897586	270.0	52.1	-79.3	9.1
2026-01-04 08:10:07.174103	268.6	51.8	-79.8	8.3
2026-01-04 08:10:09.442497	267.2	51.4	-79.7	8.6
2026-01-04 08:10:11.707432	265.8	51.1	-79.6	6.2
2026-01-04 08:10:13.975339	264.5	50.7	-80.0	9.4
2026-01-04 08:10:16.245653	263.2	50.3	-79.6	9.8
2026-01-04 08:10:18.517337	262.0	49.8	-79.1	9.0
2026-01-04 08:10:20.788312	260.8	49.4	-79.1	7.7
2026-01-04 08:10:23.059307	259.6	49.0	-79.2	10.6
2026-01-04 08:10:25.326324	258.4	48.5	-78.9	8.4
2026-01-04 08:10:27.594963	257.3	48.1	-79.3	10.6
2026-01-04 08:10:29.856378	256.2	47.6	-79.2	11.3
2026-01-04 08:10:32.116540	255.2	47.2	-79.3	11.2
2026-01-04 08:10:34.385902	254.2	46.7	-79.4	11.3
2026-01-04 08:10:36.647837	253.2	46.2	-79.7	11.1
2026-01-04 08:10:38.919398	252.2	45.7	-79.2	11.1
2026-01-04 08:10:41.186327	251.3	45.3	-79.3	11.3
2026-01-04 08:10:43.450589	250.4	44.8	-79.6	10.1
2026-01-04 08:10:45.721381	249.5	44.3	-79.5	11.5
2026-01-04 08:10:47.989933	248.7	43.8	-79.2	11.2
2026-01-04 08:10:50.264803	247.9	43.3	-79.3	11.2
2026-01-04 08:10:52.540067	247.1	42.8	-79.1	11.5
2026-01-04 08:10:54.815493	246.3	42.3	-78.8	9.5
2026-01-04 08:10:57.093399	245.5	41.9	-79.2	10.6
2026-01-04 08:10:59.371826	244.8	41.4	-79.4	9.7
2026-01-04 08:11:01.648130	244.1	40.9	-79.0	10.0
2026-01-04 08:11:03.916581	243.4	40.4	-78.6	9.7
2026-01-04 08:11:06.183789	242.7	39.9	-78.6	9.3
2026-01-04 08:11:08.447358	242.1	39.5	-78.8	8.7
2026-01-04 08:11:10.711313	241.5	39.0	-78.5	8.9
2026-01-04 08:11:12.981108	240.9	38.5	-78.4	8.8
2026-01-04 08:11:15.248718	240.3	38.0	-78.6	8.7
2026-01-04 08:11:17.517408	239.7	37.6	-78.4	8.2
2026-01-04 08:11:19.790537	239.1	37.1	-78.2	9.0
2026-01-04 08:11:22.063594	238.6	36.6	-78.1	9.0
2026-01-04 08:11:24.335329	238.1	36.2	-78.0	9.1
2026-01-04 08:11:26.605887	237.5	35.7	-77.6	8.9
2026-01-04 08:11:28.878023	237.0	35.3	-77.6	9.2
2026-01-04 08:11:31.148445	236.6	34.8	-78.0	8.8
2026-01-04 08:11:33.421473	236.1	34.4	-77.9	8.2
2026-01-04 08:11:35.692285	235.6	34.0	-78.1	8.5
2026-01-04 08:11:37.958069	235.2	33.5	-77.6	9.0
2026-01-04 08:11:40.221930	234.7	33.1	-77.9	8.7
2026-01-04 08:11:42.485568	234.3	32.7	-77.7	8.9
2026-01-04 08:11:44.750390	233.9	32.3	-77.8	8.8
2026-01-04 08:11:47.014391	233.5	31.8	-77.7	9.3
2026-01-04 08:11:49.277043	233.1	31.4	-77.7	9.4
2026-01-04 08:11:51.537644	232.7	31.0	-78.0	8.9
2026-01-04 08:11:53.797815	232.4	30.6	-78.2	8.9
2026-01-04 08:11:56.058822	232.0	30.2	-78.1	10.3
2026-01-04 08:11:58.318597	231.6	29.8	-78.4	9.8
2026-01-04 08:12:00.578833	231.3	29.5	-78.5	9.4
2026-01-04 08:12:02.850015	231.0	29.1	-78.3	9.8
2026-01-04 08:12:05.122533	230.6	28.7	-78.2	10.5
2026-01-04 08:12:07.397199	230.3	28.3	-78.0	11.1
2026-01-04 08:12:09.669548	230.0	27.9	-78.2	11.2
2026-01-04 08:12:11.942143	229.7	27.6	-78.2	11.7
2026-01-04 08:12:14.214432	229.4	27.2	-78.4	11.4
2026-01-04 08:12:16.488628	229.1	26.8	-78.5	10.9
2026-01-04 08:12:18.762952	228.8	26.5	-78.6	11.5
2026-01-04 08:12:21.033368	228.5	26.1	-78.6	10.4
2026-01-04 08:12:23.304956	228.3	25.8	-78.7	9.8
2026-01-04 08:12:25.574214	228.0	25.4	-78.6	11.1
2026-01-04 08:12:27.844552	227.7	25.1	-78.2	10.7
2026-01-04 08:12:30.118189	227.5	24.7	-78.4	11.3
2026-01-04 08:12:32.393126	227.2	24.4	-78.4	10.8
2026-01-04 08:12:34.663321	227.0	24.1	-78.1	10.6
2026-01-04 08:12:36.938722	226.7	23.7	-78.2	10.4
2026-01-04 08:12:39.215859	226.5	23.4	-78.2	10.1
2026-01-04 08:12:41.492685	226.3	23.1	-78.0	9.8
2026-01-04 08:12:43.770053	226.0	22.8	-78.1	9.0
2026-01-04 08:12:46.042237	225.8	22.5	-77.7	8.1
2026-01-04 08:12:48.312881	225.6	22.2	-77.7	8.6
2026-01-04 08:12:50.587470	225.4	21.9	-77.7	7.7
2026-01-04 08:12:52.865170	225.2	21.5	-77.7	8.0
2026-01-04 08:12:55.139403	225.0	21.2	-77.5	7.6
2026-01-04 08:12:57.414653	224.8	20.9	-77.5	7.6
2026-01-04 08:12:59.686924	224.6	20.7	-77.4	6.8
2026-01-04 08:13:01.961765	224.4	20.4	-77.1	7.0
2026-01-04 08:13:04.235232	224.2	20.1	-77.0	5.8
2026-01-04 08:13:06.500646	224.0	19.8	-76.9	5.7
2026-01-04 08:13:08.763417	223.9	19.5	-76.7	5.4
2026-01-04 08:13:11.023671	223.7	19.2	-76.8	5.9
2026-01-04 08:13:13.293202	223.5	19.0	-76.7	5.4
2026-01-04 08:13:15.555734	223.3	18.7	-76.6	4.7
2026-01-04 08:13:17.824351	223.2	18.4	-76.8	4.6
2026-01-04 08:13:20.099417	223.0	18.1	-76.7	4.7
2026-01-04 08:13:22.374370	222.8	17.9	-76.5	2.3
2026-01-04 08:13:24.649013	222.7	17.6	-76.3	2.9
2026-01-04 08:13:26.915237	222.5	17.4	-76.5	0.5
2026-01-04 08:13:29.176186	222.4	17.1	-76.4	1.6
2026-01-04 08:13:31.438860	222.2	16.8	-76.4	0.2
2026-01-04 08:13:33.698702	222.1	16.6	-76.1	1.4
2026-01-04 08:13:35.955317	221.9	16.3	-76.2	0.3
2026-01-04 08:13:38.221686	221.8	16.1	-76.0	0.3
2026-01-04 08:13:40.478543	221.6	15.9	-76.0	0.0
2026-01-04 08:13:42.735788	221.5	15.6	-75.9	0.0
2026-01-04 08:13:44.992951	221.4	15.4	-75.9	0.0
2026-01-04 08:13:47.252910	221.2	15.1	-75.7	0.0
2026-01-04 08:13:49.524027	221.1	14.9	-75.8	0.0
2026-01-04 08:13:51.795771	221.0	14.7	-75.5	0.0
2026-01-04 08:13:54.068266	220.9	14.4	-75.5	0.0
2026-01-04 08:13:56.340284	220.7	14.2	-75.3	0.0
2026-01-04 08:13:58.610054	220.6	14.0	-75.6	0.0
2026-01-04 08:14:00.877149	220.5	13.7	-75.4	0.0
2026-01-04 08:14:03.148299	220.4	13.5	-75.5	0.0
2026-01-04 08:14:05.424504	220.3	13.3	-75.3	0.0
2026-01-04 08:14:07.698482	220.1	13.1	-75.3	0.0
2026-01-04 08:14:09.974448	220.0	12.9	-75.1	0.0
2026-01-04 08:14:12.252241	219.9	12.6	-75.2	0.0
2026-01-04 08:14:14.527448	219.8	12.4	-75.3	0.0
2026-01-04 08:14:16.802379	219.7	12.2	-75.0	0.0
2026-01-04 08:14:19.076898	219.6	12.0	-75.3	0.0
2026-01-04 08:14:21.348006	219.5	11.8	-75.2	0.0
2026-01-04 08:14:23.616293	219.4	11.6	-75.3	0.0
2026-01-04 08:14:25.883658	219.3	11.4	-75.0	0.0
2026-01-04 08:14:28.150907	219.2	11.2	-75.1	0.0
2026-01-04 08:14:30.418129	219.1	11.0	-75.2	0.0
2026-01-04 08:14:32.684730	219.0	10.8	-79.2	0.0
2026-01-04 08:14:34.951923	218.9	10.6	-82.4	0.0
2026-01-04 08:14:37.220075	218.8	10.4	-80.4	0.0
2026-01-04 08:14:39.491505	218.7	10.2	-81.5	0.0
#Closed at: 2026-01-04 08:04:12.729913