passes_logs/2026/01/04/planumMaritime01/planumMaritime01__20260104_062711_METOP-B_rec.log

#Pass ID: 20260104_062711_METOP-B
#Satellite: METOP-B
#Configuration: METOP-B
#Start time: 2026-01-04 06:27:16.319935

#LorettStation: 1.0.0 05.05.2024
#Station: planumMaritime01
#Location: 37.49445 lon 55.92918 lat
#TLE: 1 38771U 12049A   26003.61460481  .00000266  00000+0  14170-3 0  9992
#TLE: 2 38771  98.6767  58.1993 0003374  99.4318 260.7241 14.21418299689889

#Time	Az	El	Level	SNR
2026-01-04 06:27:18.499777	26.5	10.2	-73.0	0.0
2026-01-04 06:27:20.751243	26.7	10.4	-71.4	0.0
2026-01-04 06:27:23.008428	26.8	10.5	-64.9	0.0
2026-01-04 06:27:25.261967	27.0	10.7	-68.7	0.0
2026-01-04 06:27:27.515793	27.2	10.9	-65.8	0.0
2026-01-04 06:27:29.769511	27.3	11.1	-65.1	0.0
2026-01-04 06:27:32.023717	27.5	11.3	-62.9	0.0
2026-01-04 06:27:34.277297	27.7	11.5	-65.4	0.0
2026-01-04 06:27:36.531168	27.8	11.7	-65.6	0.0
2026-01-04 06:27:38.783913	28.0	11.9	-62.5	0.0
2026-01-04 06:27:41.035570	28.2	12.1	-62.2	0.0
2026-01-04 06:27:43.288632	28.3	12.3	-61.8	0.0
2026-01-04 06:27:45.540795	28.5	12.5	-61.7	0.0
2026-01-04 06:27:47.790321	28.7	12.7	-60.0	0.0
2026-01-04 06:27:50.042974	28.9	12.9	-63.7	0.0
2026-01-04 06:27:52.297384	29.1	13.1	-62.0	0.0
2026-01-04 06:27:54.551244	29.3	13.3	-58.6	0.0
2026-01-04 06:27:56.804457	29.4	13.5	-61.1	0.0
2026-01-04 06:27:59.059576	29.6	13.7	-63.5	0.0
2026-01-04 06:28:01.315036	29.8	13.9	-58.6	0.0
2026-01-04 06:28:03.567819	30.0	14.1	-61.5	0.0
2026-01-04 06:28:05.821386	30.2	14.3	-62.1	0.0
2026-01-04 06:28:08.077567	30.4	14.5	-62.2	0.0
2026-01-04 06:28:10.332043	30.6	14.7	-63.3	0.0
2026-01-04 06:28:12.584839	30.8	14.9	-58.1	0.0
2026-01-04 06:28:14.838931	31.1	15.2	-64.5	0.0
2026-01-04 06:28:17.091659	31.3	15.4	-64.4	0.0
2026-01-04 06:28:19.345527	31.5	15.6	-61.7	0.0
2026-01-04 06:28:21.599144	31.7	15.8	-61.8	0.0
2026-01-04 06:28:23.853181	31.9	16.0	-58.9	0.0
2026-01-04 06:28:26.109469	32.2	16.3	-61.8	0.0
2026-01-04 06:28:28.363943	32.4	16.5	-61.5	0.0
2026-01-04 06:28:30.617076	32.6	16.7	-61.5	0.0
2026-01-04 06:28:32.870188	32.9	16.9	-63.9	0.0
2026-01-04 06:28:35.125629	33.1	17.2	-60.9	0.0
2026-01-04 06:28:37.380736	33.3	17.4	-64.5	0.0
2026-01-04 06:28:39.633914	33.6	17.6	-63.2	0.0
2026-01-04 06:28:41.888801	33.8	17.9	-65.2	0.0
2026-01-04 06:28:44.143548	34.1	18.1	-63.9	0.0
2026-01-04 06:28:46.401024	34.4	18.4	-62.9	0.0
2026-01-04 06:28:48.656011	34.6	18.6	-63.7	0.0
2026-01-04 06:28:50.909079	34.9	18.9	-62.5	0.0
2026-01-04 06:28:53.163977	35.2	19.1	-61.7	0.0
2026-01-04 06:28:55.415750	35.4	19.3	-63.0	0.0
2026-01-04 06:28:57.670971	35.7	19.6	-63.2	0.0
2026-01-04 06:28:59.927671	36.0	19.8	-64.0	0.0
2026-01-04 06:29:02.184025	36.3	20.1	-63.8	0.0
2026-01-04 06:29:04.439333	36.6	20.4	-63.6	0.0
2026-01-04 06:29:06.692296	36.9	20.6	-59.0	0.0
2026-01-04 06:29:08.946352	37.2	20.9	-63.8	0.0
2026-01-04 06:29:11.204962	37.5	21.1	-65.9	0.0
2026-01-04 06:29:13.459200	37.8	21.4	-65.5	0.0
2026-01-04 06:29:15.711213	38.1	21.7	-65.8	0.0
2026-01-04 06:29:17.965752	38.4	21.9	-65.4	0.0
2026-01-04 06:29:20.220678	38.8	22.2	-64.5	0.0
2026-01-04 06:29:22.478599	39.1	22.5	-67.1	0.0
2026-01-04 06:29:24.730880	39.5	22.8	-66.8	0.0
2026-01-04 06:29:26.987247	39.8	23.0	-65.9	0.0
2026-01-04 06:29:29.240269	40.2	23.3	-64.7	0.0
2026-01-04 06:29:31.495523	40.5	23.6	-66.5	0.0
2026-01-04 06:29:33.751140	40.9	23.9	-68.7	0.0
2026-01-04 06:29:36.002694	41.3	24.1	-66.9	0.0
2026-01-04 06:29:38.255784	41.6	24.4	-68.6	0.0
2026-01-04 06:29:40.510453	42.0	24.7	-67.6	0.0
2026-01-04 06:29:42.763294	42.4	25.0	-69.7	0.0
2026-01-04 06:29:45.017093	42.8	25.3	-67.6	0.0
2026-01-04 06:29:47.272100	43.2	25.6	-67.8	0.0
2026-01-04 06:29:49.522878	43.6	25.9	-67.0	0.0
2026-01-04 06:29:51.777356	44.1	26.2	-68.0	0.0
2026-01-04 06:29:54.029365	44.5	26.5	-69.1	0.0
2026-01-04 06:29:56.284437	44.9	26.8	-68.9	0.0
2026-01-04 06:29:58.540017	45.4	27.1	-68.6	1.1
2026-01-04 06:30:00.793016	45.8	27.4	-68.8	0.0
2026-01-04 06:30:03.046789	46.3	27.7	-69.5	0.9
2026-01-04 06:30:05.301732	46.8	28.0	-69.0	0.0
2026-01-04 06:30:07.557621	47.2	28.3	-69.5	0.7
2026-01-04 06:30:09.812479	47.7	28.6	-68.9	0.0
2026-01-04 06:30:12.069003	48.2	28.9	-68.3	0.0
2026-01-04 06:30:14.323136	48.7	29.2	-68.3	0.0
2026-01-04 06:30:16.578659	49.3	29.5	-70.0	2.3
2026-01-04 06:30:18.833027	49.8	29.8	-70.1	0.0
2026-01-04 06:30:21.087520	50.3	30.2	-70.0	3.8
2026-01-04 06:30:23.342565	50.9	30.5	-69.2	0.6
2026-01-04 06:30:25.596844	51.4	30.8	-70.2	3.0
2026-01-04 06:30:27.849242	52.0	31.1	-69.6	1.2
2026-01-04 06:30:30.104012	52.6	31.4	-70.9	3.3
2026-01-04 06:30:32.355530	53.2	31.7	-71.1	3.0
2026-01-04 06:30:34.604882	53.8	32.0	-71.3	4.1
2026-01-04 06:30:36.859625	54.4	32.4	-70.4	4.8
2026-01-04 06:30:39.114629	55.0	32.7	-71.4	5.5
2026-01-04 06:30:41.366565	55.7	33.0	-71.5	6.1
2026-01-04 06:30:43.619943	56.3	33.3	-70.3	3.9
2026-01-04 06:30:45.869675	57.0	33.6	-71.9	7.3
2026-01-04 06:30:48.120220	57.7	33.9	-71.1	6.1
2026-01-04 06:30:50.374150	58.3	34.2	-71.7	8.3
2026-01-04 06:30:52.623456	59.0	34.5	-71.1	5.1
2026-01-04 06:30:54.877298	59.8	34.9	-70.9	4.4
2026-01-04 06:30:57.128977	60.5	35.2	-71.1	6.0
2026-01-04 06:30:59.379996	61.2	35.5	-71.9	6.3
2026-01-04 06:31:01.628695	62.0	35.8	-71.3	5.7
2026-01-04 06:31:03.885649	62.8	36.1	-71.9	7.3
2026-01-04 06:31:06.137458	63.5	36.4	-72.0	7.7
2026-01-04 06:31:08.392380	64.3	36.6	-71.9	8.5
2026-01-04 06:31:10.643834	65.2	36.9	-71.0	5.6
2026-01-04 06:31:12.896999	66.0	37.2	-71.9	7.8
2026-01-04 06:31:15.149632	66.8	37.5	-71.7	6.3
2026-01-04 06:31:17.403104	67.7	37.8	-71.9	5.4
2026-01-04 06:31:19.655968	68.6	38.0	-72.4	7.5
2026-01-04 06:31:21.910435	69.4	38.3	-72.7	9.1
2026-01-04 06:31:24.163977	70.3	38.6	-72.0	8.4
2026-01-04 06:31:26.415790	71.2	38.8	-71.3	6.4
2026-01-04 06:31:28.670064	72.2	39.1	-71.0	6.4
2026-01-04 06:31:30.924778	73.1	39.3	-72.0	7.8
2026-01-04 06:31:33.177029	74.1	39.5	-70.9	6.7
2026-01-04 06:31:35.433662	75.0	39.8	-71.3	9.9
2026-01-04 06:31:37.685984	76.0	40.0	-71.3	8.6
2026-01-04 06:31:39.938557	77.0	40.2	-70.9	7.6
2026-01-04 06:31:42.194953	78.0	40.4	-71.3	7.6
2026-01-04 06:31:44.446541	79.0	40.6	-71.9	8.0
2026-01-04 06:31:46.697681	80.1	40.8	-71.7	6.2
2026-01-04 06:31:48.949079	81.1	41.0	-71.6	6.9
2026-01-04 06:31:51.202807	82.2	41.1	-72.4	7.7
2026-01-04 06:31:53.455988	83.2	41.3	-72.3	7.8
2026-01-04 06:31:55.709318	84.3	41.4	-71.9	6.5
2026-01-04 06:31:57.961241	85.4	41.6	-72.2	6.2
2026-01-04 06:32:00.213298	86.5	41.7	-72.2	7.0
2026-01-04 06:32:02.466708	87.6	41.8	-72.1	7.6
2026-01-04 06:32:04.721221	88.7	41.9	-70.9	6.1
2026-01-04 06:32:06.970977	89.8	42.0	-71.5	7.2
2026-01-04 06:32:09.222241	90.9	42.1	-71.1	4.8
2026-01-04 06:32:11.475760	92.1	42.1	-71.5	7.0
2026-01-04 06:32:13.732194	93.2	42.2	-71.2	6.2
2026-01-04 06:32:15.984006	94.3	42.2	-71.9	4.5
2026-01-04 06:32:18.236988	95.5	42.2	-71.8	7.5
2026-01-04 06:32:20.489887	96.6	42.3	-71.7	7.0
2026-01-04 06:32:22.741981	97.7	42.3	-71.7	6.4
2026-01-04 06:32:24.996357	98.9	42.3	-71.6	6.2
2026-01-04 06:32:27.247746	100.0	42.2	-71.9	7.2
2026-01-04 06:32:29.500606	101.1	42.2	-72.0	7.2
2026-01-04 06:32:31.751228	102.3	42.2	-72.0	8.2
2026-01-04 06:32:34.010268	103.4	42.1	-71.7	4.7
2026-01-04 06:32:36.261909	104.5	42.0	-69.4	4.6
2026-01-04 06:32:38.517399	105.6	42.0	-71.4	7.1
2026-01-04 06:32:40.768951	106.8	41.9	-71.5	8.9
2026-01-04 06:32:43.021898	107.9	41.8	-71.5	8.2
2026-01-04 06:32:45.272822	109.0	41.6	-71.7	7.3
2026-01-04 06:32:47.527293	110.1	41.5	-71.5	6.6
2026-01-04 06:32:49.781373	111.1	41.4	-72.3	8.5
2026-01-04 06:32:52.035262	112.2	41.2	-72.5	7.1
2026-01-04 06:32:54.287970	113.3	41.1	-72.7	8.7
2026-01-04 06:32:56.538688	114.3	40.9	-72.7	8.3
2026-01-04 06:32:58.791309	115.4	40.7	-73.0	8.2
2026-01-04 06:33:01.044833	116.4	40.5	-72.8	10.1
2026-01-04 06:33:03.296976	117.4	40.3	-72.3	8.9
2026-01-04 06:33:05.550394	118.4	40.1	-72.8	6.8
2026-01-04 06:33:07.802235	119.4	39.9	-72.9	9.8
2026-01-04 06:33:10.055655	120.4	39.7	-73.1	10.0
2026-01-04 06:33:12.310612	121.4	39.5	-73.2	9.5
2026-01-04 06:33:14.563348	122.3	39.2	-73.6	8.4
2026-01-04 06:33:16.817121	123.3	39.0	-73.8	9.8
2026-01-04 06:33:19.072876	124.2	38.7	-73.6	9.9
2026-01-04 06:33:21.326357	125.1	38.5	-73.2	9.8
2026-01-04 06:33:23.579370	126.0	38.2	-73.6	9.9
2026-01-04 06:33:25.832684	126.9	38.0	-73.6	10.4
2026-01-04 06:33:28.087319	127.8	37.7	-73.5	9.1
2026-01-04 06:33:30.338506	128.6	37.4	-73.6	9.9
2026-01-04 06:33:32.592207	129.4	37.1	-73.4	9.5
2026-01-04 06:33:34.847445	130.3	36.8	-72.6	9.9
2026-01-04 06:33:37.101296	131.1	36.5	-73.5	10.7
2026-01-04 06:33:39.354067	131.9	36.3	-73.1	9.5
2026-01-04 06:33:41.607457	132.7	36.0	-73.3	10.2
2026-01-04 06:33:43.861587	133.4	35.7	-72.8	10.5
2026-01-04 06:33:46.115396	134.2	35.4	-73.3	10.2
2026-01-04 06:33:48.372016	134.9	35.0	-72.8	9.2
2026-01-04 06:33:50.623174	135.7	34.7	-73.6	9.9
2026-01-04 06:33:52.881164	136.4	34.4	-73.5	9.3
2026-01-04 06:33:55.135888	137.1	34.1	-73.3	9.1
2026-01-04 06:33:57.389428	137.8	33.8	-73.8	8.4
2026-01-04 06:33:59.642431	138.4	33.5	-73.8	8.1
2026-01-04 06:34:01.897498	139.1	33.2	-74.0	9.2
2026-01-04 06:34:04.149794	139.8	32.9	-73.4	7.6
2026-01-04 06:34:06.402823	140.4	32.5	-74.1	7.8
2026-01-04 06:34:08.655833	141.0	32.2	-73.8	8.3
2026-01-04 06:34:10.910182	141.6	31.9	-73.5	7.1
2026-01-04 06:34:13.165111	142.2	31.6	-73.8	8.9
2026-01-04 06:34:15.417351	142.8	31.3	-73.8	7.6
2026-01-04 06:34:17.669877	143.4	31.0	-73.5	8.9
2026-01-04 06:34:19.925832	144.0	30.6	-73.5	8.4
2026-01-04 06:34:22.179114	144.5	30.3	-73.7	8.4
2026-01-04 06:34:24.431388	145.1	30.0	-73.8	8.2
2026-01-04 06:34:26.683228	145.6	29.7	-73.5	8.3
2026-01-04 06:34:28.934918	146.1	29.4	-73.5	8.7
2026-01-04 06:34:31.193549	146.7	29.1	-73.1	7.8
2026-01-04 06:34:33.444786	147.2	28.8	-73.3	8.3
2026-01-04 06:34:35.701153	147.7	28.5	-73.1	9.1
2026-01-04 06:34:37.963067	148.2	28.1	-73.6	8.7
2026-01-04 06:34:40.218839	148.6	27.8	-73.2	7.6
2026-01-04 06:34:42.473731	149.1	27.5	-73.4	8.0
2026-01-04 06:34:44.728273	149.6	27.2	-73.7	8.5
2026-01-04 06:34:46.981702	150.0	26.9	-73.7	8.1
2026-01-04 06:34:49.234020	150.5	26.6	-74.0	7.0
2026-01-04 06:34:51.488756	150.9	26.3	-73.9	8.6
2026-01-04 06:34:53.744873	151.3	26.0	-74.3	8.4
2026-01-04 06:34:55.996946	151.7	25.7	-74.0	7.2
2026-01-04 06:34:58.251143	152.2	25.4	-74.1	8.0
2026-01-04 06:35:00.502806	152.6	25.1	-73.9	7.7
2026-01-04 06:35:02.757961	153.0	24.8	-74.2	7.7
2026-01-04 06:35:05.010757	153.4	24.5	-74.1	7.5
2026-01-04 06:35:07.259716	153.7	24.3	-74.1	7.3
2026-01-04 06:35:09.514641	154.1	24.0	-74.0	7.2
2026-01-04 06:35:11.766886	154.5	23.7	-74.1	7.8
2026-01-04 06:35:14.018704	154.8	23.4	-73.7	5.6
2026-01-04 06:35:16.273466	155.2	23.1	-73.9	6.2
2026-01-04 06:35:18.524210	155.6	22.8	-73.9	7.5
2026-01-04 06:35:20.778172	155.9	22.6	-74.1	7.0
2026-01-04 06:35:23.032776	156.2	22.3	-72.9	4.4
2026-01-04 06:35:25.284604	156.6	22.0	-73.9	6.1
2026-01-04 06:35:27.537263	156.9	21.8	-74.1	6.4
2026-01-04 06:35:29.790854	157.2	21.5	-74.3	6.0
2026-01-04 06:35:32.045827	157.5	21.2	-74.3	6.1
2026-01-04 06:35:34.301258	157.9	21.0	-74.2	6.4
2026-01-04 06:35:36.558882	158.2	20.7	-74.0	6.6
2026-01-04 06:35:38.814771	158.5	20.4	-74.5	4.8
2026-01-04 06:35:41.068758	158.8	20.2	-74.3	4.9
2026-01-04 06:35:43.322248	159.1	19.9	-74.4	5.0
2026-01-04 06:35:45.574047	159.3	19.7	-74.0	5.9
2026-01-04 06:35:47.828841	159.6	19.4	-74.1	6.3
2026-01-04 06:35:50.081588	159.9	19.2	-73.9	6.4
2026-01-04 06:35:52.336118	160.2	18.9	-74.3	4.0
2026-01-04 06:35:54.588930	160.4	18.7	-74.2	5.2
2026-01-04 06:35:56.840210	160.7	18.4	-74.3	4.7
2026-01-04 06:35:59.092169	161.0	18.2	-73.8	5.3
2026-01-04 06:36:01.343656	161.2	17.9	-74.0	5.7
2026-01-04 06:36:03.596431	161.5	17.7	-73.8	6.0
2026-01-04 06:36:05.852210	161.7	17.4	-74.4	3.0
2026-01-04 06:36:08.105026	162.0	17.2	-74.5	4.7
2026-01-04 06:36:10.359410	162.2	17.0	-74.4	4.5
2026-01-04 06:36:12.613559	162.5	16.7	-74.5	4.4
2026-01-04 06:36:14.866999	162.7	16.5	-74.5	4.4
2026-01-04 06:36:17.122927	162.9	16.3	-74.5	5.3
2026-01-04 06:36:19.376252	163.2	16.1	-74.4	5.1
2026-01-04 06:36:21.629728	163.4	15.8	-74.2	3.9
2026-01-04 06:36:23.883807	163.6	15.6	-74.3	4.7
2026-01-04 06:36:26.135574	163.8	15.4	-74.6	3.9
2026-01-04 06:36:28.388742	164.0	15.2	-74.3	4.8
2026-01-04 06:36:30.643349	164.2	14.9	-73.7	3.9
2026-01-04 06:36:32.893743	164.5	14.7	-73.9	4.0
2026-01-04 06:36:35.145561	164.7	14.5	-74.1	5.0
2026-01-04 06:36:37.398263	164.9	14.3	-74.3	4.8
2026-01-04 06:36:39.655653	165.1	14.1	-74.7	2.9
2026-01-04 06:36:41.911018	165.3	13.9	-75.2	5.2
2026-01-04 06:36:44.165160	165.5	13.7	-75.3	5.0
2026-01-04 06:36:46.415914	165.6	13.5	-75.2	5.3
2026-01-04 06:36:48.666986	165.8	13.2	-75.5	5.1
2026-01-04 06:36:50.917993	166.0	13.0	-75.5	5.0
2026-01-04 06:36:53.170822	166.2	12.8	-75.2	5.0
2026-01-04 06:36:55.426193	166.4	12.6	-74.6	4.0
2026-01-04 06:36:57.678249	166.6	12.4	-75.4	4.0
2026-01-04 06:36:59.930747	166.8	12.2	-74.9	3.9
2026-01-04 06:37:02.184309	166.9	12.0	-74.8	2.4
2026-01-04 06:37:04.436632	167.1	11.8	-75.2	2.5
2026-01-04 06:37:06.689577	167.3	11.6	-75.0	3.4
2026-01-04 06:37:08.946630	167.4	11.5	-75.3	2.6
2026-01-04 06:37:11.202249	167.6	11.3	-75.1	2.5
2026-01-04 06:37:13.454010	167.8	11.1	-75.2	3.8
2026-01-04 06:37:15.706351	167.9	10.9	-76.4	1.9
2026-01-04 06:37:17.957759	168.1	10.7	-76.1	0.0
2026-01-04 06:37:20.210966	168.3	10.5	-75.6	0.0
2026-01-04 06:37:22.463098	168.4	10.3	-79.3	0.0
2026-01-04 06:37:24.715513	168.6	10.1	-82.1	0.0
2026-01-04 06:37:26.970931	168.7	9.9	-80.5	0.0
#Closed at: 2026-01-04 06:27:11.326499