passes_logs/2026/01/04/planumMaritime01/planumMaritime01__20260104_003515_METEOR-M2_4_rec.log

#Pass ID: 20260104_003515_METEOR-M2 4
#Satellite: METEOR-M2 4
#Configuration: METEOR-M2 4
#Start time: 2026-01-04 00:35:20.548787

#LorettStation: 1.0.0 05.05.2024
#Station: planumMaritime01
#Location: 37.49445 lon 55.92918 lat
#TLE: 1 59051U 24039A   26003.65226437  .00000074  00000+0  52640-4 0  9995
#TLE: 2 59051  98.6797 325.2209 0006055 289.8349  70.2176 14.22405521 95878

#Time	Az	El	Level	SNR
2026-01-04 00:35:22.725444	22.1	10.2	-77.7	0.0
2026-01-04 00:35:24.992227	22.2	10.4	-77.6	0.0
2026-01-04 00:35:27.268113	22.3	10.6	-76.5	0.0
2026-01-04 00:35:29.543988	22.4	10.8	-71.4	0.0
2026-01-04 00:35:31.819933	22.5	11.0	-71.6	0.0
2026-01-04 00:35:34.091281	22.6	11.2	-69.0	0.0
2026-01-04 00:35:36.364128	22.7	11.4	-70.1	0.0
2026-01-04 00:35:38.624821	22.8	11.6	-70.3	0.0
2026-01-04 00:35:40.887463	22.9	11.8	-71.7	0.0
2026-01-04 00:35:43.151347	23.0	12.0	-70.1	0.0
2026-01-04 00:35:45.417103	23.1	12.2	-70.5	0.0
2026-01-04 00:35:47.686996	23.2	12.4	-71.5	0.0
2026-01-04 00:35:49.951391	23.3	12.6	-70.1	0.0
2026-01-04 00:35:52.213871	23.4	12.8	-70.1	0.0
2026-01-04 00:35:54.479745	23.5	13.0	-70.3	0.0
2026-01-04 00:35:56.743184	23.6	13.3	-67.9	0.0
2026-01-04 00:35:59.020054	23.8	13.5	-67.2	0.0
2026-01-04 00:36:01.288305	23.9	13.7	-70.1	0.0
2026-01-04 00:36:03.562699	24.0	13.9	-68.9	0.0
2026-01-04 00:36:05.838825	24.1	14.1	-70.2	0.0
2026-01-04 00:36:08.112222	24.2	14.4	-71.5	0.0
2026-01-04 00:36:10.384738	24.4	14.6	-68.5	0.0
2026-01-04 00:36:12.658499	24.5	14.8	-70.5	0.0
2026-01-04 00:36:14.938815	24.6	15.1	-68.4	0.0
2026-01-04 00:36:17.211999	24.7	15.3	-71.5	0.0
2026-01-04 00:36:19.489720	24.9	15.5	-72.0	0.0
2026-01-04 00:36:21.763686	25.0	15.8	-70.0	0.0
2026-01-04 00:36:24.038464	25.1	16.0	-72.1	0.0
2026-01-04 00:36:26.304264	25.3	16.3	-72.1	0.0
2026-01-04 00:36:28.565902	25.4	16.5	-69.3	0.0
2026-01-04 00:36:30.837859	25.6	16.8	-70.9	0.0
2026-01-04 00:36:33.110723	25.7	17.0	-72.2	0.0
2026-01-04 00:36:35.384467	25.8	17.3	-70.7	0.0
2026-01-04 00:36:37.655808	26.0	17.5	-72.4	0.0
2026-01-04 00:36:39.928602	26.1	17.8	-71.0	0.0
2026-01-04 00:36:42.201175	26.3	18.0	-72.1	0.0
2026-01-04 00:36:44.475194	26.5	18.3	-69.6	0.0
2026-01-04 00:36:46.750766	26.6	18.6	-70.9	0.0
2026-01-04 00:36:49.025960	26.8	18.8	-72.3	0.0
2026-01-04 00:36:51.292943	26.9	19.1	-71.6	0.0
2026-01-04 00:36:53.561338	27.1	19.4	-73.4	0.0
2026-01-04 00:36:55.828540	27.3	19.7	-73.9	0.0
2026-01-04 00:36:58.095785	27.4	19.9	-73.6	0.0
2026-01-04 00:37:00.365636	27.6	20.2	-72.5	0.0
2026-01-04 00:37:02.633324	27.8	20.5	-72.0	0.0
2026-01-04 00:37:04.888557	28.0	20.8	-74.5	0.0
2026-01-04 00:37:07.151940	28.2	21.1	-70.2	0.0
2026-01-04 00:37:09.406102	28.3	21.4	-72.2	0.0
2026-01-04 00:37:11.665661	28.5	21.7	-73.0	0.0
2026-01-04 00:37:13.921931	28.7	22.0	-71.9	0.0
2026-01-04 00:37:16.182507	28.9	22.3	-73.2	0.0
2026-01-04 00:37:18.437263	29.1	22.6	-73.1	0.0
2026-01-04 00:37:20.694714	29.3	22.9	-73.0	0.0
2026-01-04 00:37:22.952412	29.5	23.2	-72.1	0.0
2026-01-04 00:37:25.208286	29.7	23.5	-71.4	0.0
2026-01-04 00:37:27.468314	30.0	23.9	-72.3	0.0
2026-01-04 00:37:29.733493	30.2	24.2	-72.5	0.0
2026-01-04 00:37:32.004887	30.4	24.5	-72.4	0.0
2026-01-04 00:37:34.273892	30.6	24.8	-72.2	0.0
2026-01-04 00:37:36.542653	30.9	25.2	-71.3	0.0
2026-01-04 00:37:38.808458	31.1	25.5	-73.0	0.0
2026-01-04 00:37:41.074742	31.4	25.9	-72.8	0.0
2026-01-04 00:37:43.344787	31.6	26.2	-72.1	0.0
2026-01-04 00:37:45.615239	31.9	26.6	-73.6	0.0
2026-01-04 00:37:47.883228	32.1	26.9	-72.2	0.0
2026-01-04 00:37:50.152690	32.4	27.3	-73.5	0.6
2026-01-04 00:37:52.421761	32.7	27.7	-72.9	0.4
2026-01-04 00:37:54.687239	33.0	28.0	-72.1	0.0
2026-01-04 00:37:56.957353	33.2	28.4	-74.1	1.1
2026-01-04 00:37:59.226269	33.5	28.8	-75.0	0.0
2026-01-04 00:38:01.501791	33.8	29.2	-75.9	0.0
2026-01-04 00:38:03.770880	34.1	29.6	-75.6	1.4
2026-01-04 00:38:06.037438	34.5	30.0	-74.8	0.0
2026-01-04 00:38:08.300463	34.8	30.3	-75.2	0.2
2026-01-04 00:38:10.568725	35.1	30.8	-74.9	2.8
2026-01-04 00:38:12.836975	35.4	31.2	-75.1	0.0
2026-01-04 00:38:15.104300	35.8	31.6	-75.1	2.3
2026-01-04 00:38:17.368051	36.1	32.0	-76.6	5.3
2026-01-04 00:38:19.642706	36.5	32.4	-75.6	3.9
2026-01-04 00:38:21.912900	36.9	32.8	-73.8	0.0
2026-01-04 00:38:24.187842	37.3	33.3	-77.2	7.6
2026-01-04 00:38:26.464183	37.7	33.7	-76.8	7.5
2026-01-04 00:38:28.740788	38.1	34.1	-76.3	8.7
2026-01-04 00:38:31.020166	38.5	34.6	-76.4	6.2
2026-01-04 00:38:33.302158	38.9	35.0	-76.5	7.8
2026-01-04 00:38:35.580288	39.4	35.5	-76.8	7.2
2026-01-04 00:38:37.855566	39.8	36.0	-76.2	6.2
2026-01-04 00:38:40.129944	40.3	36.4	-76.2	5.4
2026-01-04 00:38:42.407072	40.7	36.9	-77.1	8.1
2026-01-04 00:38:44.683955	41.2	37.4	-76.5	8.1
2026-01-04 00:38:46.959903	41.7	37.9	-77.2	9.0
2026-01-04 00:38:49.234361	42.3	38.3	-77.2	7.9
2026-01-04 00:38:51.512498	42.8	38.8	-76.6	7.3
2026-01-04 00:38:53.792258	43.4	39.3	-76.6	6.6
2026-01-04 00:38:56.068583	43.9	39.8	-77.5	9.1
2026-01-04 00:38:58.344031	44.5	40.3	-76.0	4.3
2026-01-04 00:39:00.617774	45.1	40.8	-76.2	7.0
2026-01-04 00:39:02.891651	45.7	41.3	-75.6	6.3
2026-01-04 00:39:05.165573	46.4	41.8	-76.0	5.8
2026-01-04 00:39:07.438665	47.0	42.4	-76.7	8.4
2026-01-04 00:39:09.703629	47.7	42.9	-76.5	6.5
2026-01-04 00:39:11.962526	48.4	43.4	-77.5	7.4
2026-01-04 00:39:14.225611	49.2	43.9	-74.2	1.9
2026-01-04 00:39:16.484973	49.9	44.4	-76.4	2.2
2026-01-04 00:39:18.743133	50.7	45.0	-76.7	4.2
2026-01-04 00:39:21.002471	51.5	45.5	-74.9	0.0
2026-01-04 00:39:23.263372	52.3	46.0	-77.2	5.5
2026-01-04 00:39:25.521064	53.2	46.5	-77.9	6.3
2026-01-04 00:39:27.780048	54.0	47.1	-77.5	5.2
2026-01-04 00:39:30.039006	55.0	47.6	-74.1	0.0
2026-01-04 00:39:32.295126	55.9	48.1	-77.5	6.5
2026-01-04 00:39:34.568970	56.9	48.6	-75.6	1.8
2026-01-04 00:39:36.846869	57.9	49.2	-76.7	4.8
2026-01-04 00:39:39.124309	59.0	49.7	-74.5	0.0
2026-01-04 00:39:41.397967	60.0	50.2	-77.7	5.9
2026-01-04 00:39:43.673777	61.2	50.7	-77.8	5.9
2026-01-04 00:39:45.948743	62.3	51.2	-74.4	0.0
2026-01-04 00:39:48.218792	63.5	51.7	-75.1	0.5
2026-01-04 00:39:50.495078	64.8	52.2	-77.9	3.9
2026-01-04 00:39:52.774001	66.0	52.6	-76.3	4.5
2026-01-04 00:39:55.052291	67.4	53.1	-76.0	0.5
2026-01-04 00:39:57.330456	68.7	53.6	-77.9	3.3
2026-01-04 00:39:59.610269	70.2	54.0	-71.0	0.0
2026-01-04 00:40:01.883178	71.6	54.4	-74.8	0.0
2026-01-04 00:40:04.159803	73.1	54.9	-75.6	0.0
2026-01-04 00:40:06.428998	74.6	55.3	-76.5	2.7
2026-01-04 00:40:08.695788	76.2	55.6	-78.0	4.9
2026-01-04 00:40:10.965929	77.8	56.0	-75.5	0.0
2026-01-04 00:40:13.235293	79.5	56.3	-78.3	4.8
2026-01-04 00:40:15.504927	81.2	56.6	-78.4	3.2
2026-01-04 00:40:17.772406	82.9	56.9	-78.9	3.0
2026-01-04 00:40:20.049867	84.7	57.2	-75.5	0.0
2026-01-04 00:40:22.320649	86.5	57.5	-77.1	3.7
2026-01-04 00:40:24.588359	88.3	57.7	-79.6	5.6
2026-01-04 00:40:26.854692	90.2	57.9	-77.0	0.4
2026-01-04 00:40:29.121471	92.1	58.0	-78.7	3.5
2026-01-04 00:40:31.385562	94.0	58.2	-78.9	4.1
2026-01-04 00:40:33.649612	95.9	58.3	-79.6	6.5
2026-01-04 00:40:35.917383	97.9	58.3	-80.1	6.6
2026-01-04 00:40:38.184018	99.8	58.4	-79.6	5.4
2026-01-04 00:40:40.453993	101.8	58.4	-79.5	7.4
2026-01-04 00:40:42.727447	103.7	58.4	-80.2	6.3
2026-01-04 00:40:44.999255	105.7	58.3	-79.9	7.5
2026-01-04 00:40:47.275296	107.6	58.3	-79.7	6.1
2026-01-04 00:40:49.548196	109.6	58.2	-80.2	8.4
2026-01-04 00:40:51.820692	111.5	58.0	-80.1	9.2
2026-01-04 00:40:54.095785	113.4	57.9	-79.9	8.8
2026-01-04 00:40:56.369965	115.3	57.7	-80.6	8.1
2026-01-04 00:40:58.640592	117.1	57.4	-80.0	9.1
2026-01-04 00:41:00.914027	118.9	57.2	-80.2	6.8
2026-01-04 00:41:03.186161	120.7	56.9	-80.4	7.1
2026-01-04 00:41:05.456921	122.4	56.6	-81.0	5.8
2026-01-04 00:41:07.726852	124.1	56.3	-81.1	7.5
2026-01-04 00:41:09.999746	125.8	56.0	-80.9	6.6
2026-01-04 00:41:12.268714	127.4	55.6	-80.7	8.5
2026-01-04 00:41:14.526791	129.0	55.2	-79.9	7.9
2026-01-04 00:41:16.784873	130.5	54.8	-80.4	9.9
2026-01-04 00:41:19.045113	132.0	54.4	-80.8	7.6
2026-01-04 00:41:21.300472	133.4	54.0	-80.6	10.7
2026-01-04 00:41:23.558035	134.8	53.6	-80.2	7.5
2026-01-04 00:41:25.817484	136.2	53.1	-80.6	10.2
2026-01-04 00:41:28.087699	137.5	52.6	-81.0	9.9
2026-01-04 00:41:30.357744	138.8	52.2	-81.0	9.7
2026-01-04 00:41:32.628011	140.0	51.7	-81.2	10.4
2026-01-04 00:41:34.901692	141.2	51.2	-80.9	9.9
2026-01-04 00:41:37.175954	142.4	50.7	-81.0	9.3
2026-01-04 00:41:39.451310	143.5	50.2	-80.8	9.5
2026-01-04 00:41:41.726193	144.6	49.6	-80.5	8.8
2026-01-04 00:41:43.998846	145.7	49.1	-80.9	10.7
2026-01-04 00:41:46.267439	146.7	48.6	-80.5	11.4
2026-01-04 00:41:48.527993	147.7	48.1	-80.5	11.6
2026-01-04 00:41:50.794671	148.6	47.5	-80.2	12.4
2026-01-04 00:41:53.068345	149.5	47.0	-79.7	11.8
2026-01-04 00:41:55.340978	150.4	46.5	-79.9	13.1
2026-01-04 00:41:57.613389	151.3	46.0	-79.8	12.7
2026-01-04 00:41:59.889563	152.1	45.4	-79.9	12.1
2026-01-04 00:42:02.165089	152.9	44.9	-79.9	12.8
2026-01-04 00:42:04.437598	153.7	44.4	-79.8	11.8
2026-01-04 00:42:06.702913	154.5	43.8	-79.8	12.3
2026-01-04 00:42:08.969347	155.2	43.3	-79.7	12.7
2026-01-04 00:42:11.245289	155.9	42.8	-79.6	11.7
2026-01-04 00:42:13.519746	156.6	42.3	-80.0	12.2
2026-01-04 00:42:15.793895	157.2	41.8	-79.7	12.5
2026-01-04 00:42:18.068544	157.9	41.2	-79.6	11.0
2026-01-04 00:42:20.342652	158.5	40.7	-79.6	11.8
2026-01-04 00:42:22.623457	159.1	40.2	-79.5	11.4
2026-01-04 00:42:24.895757	159.7	39.7	-79.3	12.0
2026-01-04 00:42:27.168957	160.3	39.2	-79.3	11.4
2026-01-04 00:42:29.442023	160.8	38.7	-79.4	11.9
2026-01-04 00:42:31.715641	161.4	38.2	-79.4	12.0
2026-01-04 00:42:33.993019	161.9	37.7	-79.3	11.8
2026-01-04 00:42:36.266231	162.4	37.3	-79.1	11.7
2026-01-04 00:42:38.538845	162.9	36.8	-79.2	11.1
2026-01-04 00:42:40.811621	163.3	36.3	-79.3	11.6
2026-01-04 00:42:43.085700	163.8	35.8	-78.7	10.5
2026-01-04 00:42:45.354313	164.3	35.4	-78.6	10.5
2026-01-04 00:42:47.628204	164.7	34.9	-78.7	12.1
2026-01-04 00:42:49.903071	165.1	34.5	-78.1	11.9
2026-01-04 00:42:52.177901	165.5	34.0	-78.3	11.3
2026-01-04 00:42:54.451290	165.9	33.6	-78.2	11.2
2026-01-04 00:42:56.723162	166.3	33.1	-78.6	10.9
2026-01-04 00:42:58.997763	166.7	32.7	-78.3	10.9
2026-01-04 00:43:01.272232	167.1	32.3	-78.4	10.9
2026-01-04 00:43:03.547876	167.5	31.8	-78.3	10.8
2026-01-04 00:43:05.821184	167.8	31.4	-78.4	11.3
2026-01-04 00:43:08.100003	168.2	31.0	-78.1	10.9
2026-01-04 00:43:10.375118	168.5	30.6	-78.4	11.0
2026-01-04 00:43:12.637755	168.8	30.2	-78.1	10.5
2026-01-04 00:43:14.895629	169.1	29.8	-78.3	10.4
2026-01-04 00:43:17.156204	169.5	29.4	-78.1	11.1
2026-01-04 00:43:19.414644	169.8	29.0	-78.6	6.3
2026-01-04 00:43:21.677273	170.1	28.6	-77.8	10.4
2026-01-04 00:43:23.939023	170.4	28.3	-78.1	10.9
2026-01-04 00:43:26.200154	170.6	27.9	-77.9	11.0
2026-01-04 00:43:28.461469	170.9	27.5	-78.2	11.1
2026-01-04 00:43:30.720733	171.2	27.1	-78.2	11.9
2026-01-04 00:43:32.978782	171.5	26.8	-77.9	11.3
2026-01-04 00:43:35.238482	171.7	26.4	-77.8	10.4
2026-01-04 00:43:37.507885	172.0	26.1	-78.3	11.2
2026-01-04 00:43:39.782140	172.2	25.7	-78.3	10.3
2026-01-04 00:43:42.055630	172.5	25.4	-78.3	10.4
2026-01-04 00:43:44.322353	172.7	25.0	-78.4	11.7
2026-01-04 00:43:46.594544	172.9	24.7	-78.3	11.5
2026-01-04 00:43:48.870771	173.2	24.3	-78.5	10.5
2026-01-04 00:43:51.141572	173.4	24.0	-78.4	10.1
2026-01-04 00:43:53.411521	173.6	23.7	-78.2	11.1
2026-01-04 00:43:55.680973	173.8	23.4	-78.0	8.7
2026-01-04 00:43:57.953101	174.0	23.0	-78.6	10.7
2026-01-04 00:44:00.220938	174.3	22.7	-78.7	10.6
2026-01-04 00:44:02.493923	174.5	22.4	-78.2	10.9
2026-01-04 00:44:04.766797	174.7	22.1	-78.5	10.6
2026-01-04 00:44:07.037446	174.9	21.8	-78.5	10.4
2026-01-04 00:44:09.313694	175.1	21.5	-78.5	9.6
2026-01-04 00:44:11.592314	175.2	21.2	-78.6	9.7
2026-01-04 00:44:13.866509	175.4	20.9	-78.5	10.2
2026-01-04 00:44:16.141229	175.6	20.6	-78.7	10.2
2026-01-04 00:44:18.414961	175.8	20.3	-78.8	10.1
2026-01-04 00:44:20.691159	176.0	20.0	-78.9	9.9
2026-01-04 00:44:22.967420	176.1	19.7	-78.6	10.3
2026-01-04 00:44:25.238165	176.3	19.4	-78.5	10.1
2026-01-04 00:44:27.510834	176.5	19.2	-78.8	9.5
2026-01-04 00:44:29.780167	176.6	18.9	-78.9	9.7
2026-01-04 00:44:32.046854	176.8	18.6	-79.1	9.4
2026-01-04 00:44:34.316669	177.0	18.3	-79.1	9.7
2026-01-04 00:44:36.584932	177.1	18.1	-79.1	9.0
2026-01-04 00:44:38.856046	177.3	17.8	-79.2	9.8
2026-01-04 00:44:41.126155	177.4	17.6	-79.4	10.0
2026-01-04 00:44:43.396302	177.6	17.3	-79.0	9.3
2026-01-04 00:44:45.667952	177.7	17.0	-79.2	9.2
2026-01-04 00:44:47.938322	177.9	16.8	-79.4	9.1
2026-01-04 00:44:50.211003	178.0	16.5	-79.3	9.4
2026-01-04 00:44:52.481840	178.1	16.3	-79.5	9.3
2026-01-04 00:44:54.747586	178.3	16.0	-79.0	9.4
2026-01-04 00:44:57.022763	178.4	15.8	-79.1	9.7
2026-01-04 00:44:59.298881	178.5	15.5	-79.0	9.2
2026-01-04 00:45:01.567965	178.7	15.3	-79.1	9.5
2026-01-04 00:45:03.842772	178.8	15.1	-79.0	9.4
2026-01-04 00:45:06.119652	178.9	14.8	-78.9	9.7
2026-01-04 00:45:08.399660	179.1	14.6	-78.9	9.3
2026-01-04 00:45:10.674118	179.2	14.4	-78.9	9.1
2026-01-04 00:45:12.937561	179.3	14.1	-78.9	9.0
2026-01-04 00:45:15.198091	179.4	13.9	-78.8	8.6
2026-01-04 00:45:17.453924	179.5	13.7	-79.3	9.0
2026-01-04 00:45:19.711763	179.6	13.5	-79.0	8.9
2026-01-04 00:45:21.972953	179.8	13.2	-78.5	9.2
2026-01-04 00:45:24.230701	179.9	13.0	-78.6	9.0
2026-01-04 00:45:26.489007	180.0	12.8	-78.5	9.2
2026-01-04 00:45:28.748016	180.1	12.6	-78.5	8.3
2026-01-04 00:45:31.006028	180.2	12.4	-78.7	7.3
2026-01-04 00:45:33.263358	180.3	12.2	-79.3	7.5
2026-01-04 00:45:35.520240	180.4	12.0	-79.2	5.5
2026-01-04 00:45:37.791021	180.5	11.8	-78.7	7.1
2026-01-04 00:45:40.061102	180.6	11.5	-78.6	6.2
2026-01-04 00:45:42.334203	180.7	11.3	-78.2	6.8
2026-01-04 00:45:44.611524	180.8	11.1	-78.4	6.4
2026-01-04 00:45:46.890521	180.9	10.9	-79.3	6.7
2026-01-04 00:45:49.166827	181.0	10.7	-80.0	4.5
2026-01-04 00:45:51.445746	181.1	10.5	-81.5	0.0
2026-01-04 00:45:53.720867	181.2	10.3	-83.1	0.0
2026-01-04 00:45:56.000331	181.3	10.1	-85.9	0.0
#Closed at: 2026-01-04 00:35:15.555346