passes_logs/2026/01/04/planumMaritime01/planumMaritime01__20260104_161801_METOP-B_rec.log

#Pass ID: 20260104_161801_METOP-B
#Satellite: METOP-B
#Configuration: METOP-B
#Start time: 2026-01-04 16:18:06.162447

#LorettStation: 1.0.0 05.05.2024
#Station: planumMaritime01
#Location: 37.49445 lon 55.92918 lat
#TLE: 1 38771U 12049A   26003.61460481  .00000266  00000+0  14170-3 0  9992
#TLE: 2 38771  98.6767  58.1993 0003374  99.4318 260.7241 14.21418299689889

#Time	Az	El	Level	SNR
2026-01-04 16:18:08.331195	116.3	10.2	-77.2	0.0
2026-01-04 16:18:10.584150	116.1	10.3	-76.9	0.0
2026-01-04 16:18:12.837457	115.9	10.5	-76.8	0.0
2026-01-04 16:18:15.088356	115.7	10.7	-76.4	0.0
2026-01-04 16:18:17.341402	115.5	10.9	-75.0	0.0
2026-01-04 16:18:19.594598	115.3	11.0	-74.3	0.0
2026-01-04 16:18:21.844493	115.1	11.2	-71.4	0.0
2026-01-04 16:18:24.098599	114.9	11.4	-73.9	0.0
2026-01-04 16:18:26.351601	114.6	11.6	-73.6	0.0
2026-01-04 16:18:28.603394	114.4	11.8	-74.6	0.1
2026-01-04 16:18:30.861320	114.2	11.9	-74.7	0.0
2026-01-04 16:18:33.115575	113.9	12.1	-73.3	0.0
2026-01-04 16:18:35.365436	113.7	12.3	-74.3	0.0
2026-01-04 16:18:37.623463	113.5	12.5	-73.2	0.0
2026-01-04 16:18:39.876219	113.2	12.7	-73.9	0.0
2026-01-04 16:18:42.127891	113.0	12.9	-73.9	0.0
2026-01-04 16:18:44.380301	112.7	13.0	-74.2	0.0
2026-01-04 16:18:46.633943	112.5	13.2	-74.6	0.0
2026-01-04 16:18:48.886628	112.2	13.4	-73.0	0.0
2026-01-04 16:18:51.139347	112.0	13.6	-72.7	0.0
2026-01-04 16:18:53.391780	111.7	13.8	-73.2	0.0
2026-01-04 16:18:55.645615	111.4	14.0	-72.8	0.0
2026-01-04 16:18:57.897906	111.2	14.2	-72.8	0.0
2026-01-04 16:19:00.153517	110.9	14.4	-72.8	0.0
2026-01-04 16:19:02.407447	110.6	14.6	-72.5	0.0
2026-01-04 16:19:04.659614	110.4	14.8	-72.5	0.0
2026-01-04 16:19:06.912735	110.1	14.9	-71.4	0.0
2026-01-04 16:19:09.167138	109.8	15.1	-72.7	0.0
2026-01-04 16:19:11.418905	109.5	15.3	-73.0	0.0
2026-01-04 16:19:13.674731	109.2	15.5	-72.8	0.0
2026-01-04 16:19:15.926648	108.9	15.7	-72.9	0.0
2026-01-04 16:19:18.179435	108.6	15.9	-73.7	0.0
2026-01-04 16:19:20.434131	108.3	16.1	-72.9	0.0
2026-01-04 16:19:22.687909	108.0	16.3	-73.4	2.1
2026-01-04 16:19:24.939629	107.7	16.5	-74.2	2.6
2026-01-04 16:19:27.190649	107.4	16.7	-74.4	2.9
2026-01-04 16:19:29.444329	107.0	16.9	-73.7	2.2
2026-01-04 16:19:31.698998	106.7	17.2	-73.9	2.9
2026-01-04 16:19:33.952805	106.4	17.4	-73.3	0.0
2026-01-04 16:19:36.208180	106.0	17.6	-72.5	0.0
2026-01-04 16:19:38.459384	105.7	17.8	-73.6	0.1
2026-01-04 16:19:40.713911	105.3	18.0	-73.4	2.3
2026-01-04 16:19:42.968304	105.0	18.2	-73.3	2.2
2026-01-04 16:19:45.220305	104.6	18.4	-73.8	2.1
2026-01-04 16:19:47.478817	104.3	18.6	-72.2	0.0
2026-01-04 16:19:49.733647	103.9	18.8	-72.1	1.1
2026-01-04 16:19:51.986953	103.5	19.0	-72.2	0.0
2026-01-04 16:19:54.241918	103.2	19.2	-72.9	1.0
2026-01-04 16:19:56.495212	102.8	19.4	-71.7	0.0
2026-01-04 16:19:58.748945	102.4	19.7	-72.8	0.0
2026-01-04 16:20:01.004761	102.0	19.9	-72.0	0.0
2026-01-04 16:20:03.258656	101.6	20.1	-72.3	0.0
2026-01-04 16:20:05.509650	101.2	20.3	-71.5	0.0
2026-01-04 16:20:07.764235	100.8	20.5	-72.8	0.0
2026-01-04 16:20:10.020022	100.4	20.7	-73.0	0.5
2026-01-04 16:20:12.275572	100.0	20.9	-72.0	0.0
2026-01-04 16:20:14.528736	99.5	21.1	-72.7	0.0
2026-01-04 16:20:16.778801	99.1	21.4	-71.2	0.0
2026-01-04 16:20:19.032516	98.7	21.6	-71.6	0.0
2026-01-04 16:20:21.288037	98.2	21.8	-72.9	1.3
2026-01-04 16:20:23.540911	97.8	22.0	-72.7	1.8
2026-01-04 16:20:25.794628	97.3	22.2	-72.1	0.0
2026-01-04 16:20:28.046788	96.8	22.4	-71.5	0.0
2026-01-04 16:20:30.298970	96.4	22.6	-71.9	0.9
2026-01-04 16:20:32.552149	95.9	22.9	-69.9	0.0
2026-01-04 16:20:34.805972	95.4	23.1	-71.6	0.8
2026-01-04 16:20:37.058156	94.9	23.3	-69.9	0.0
2026-01-04 16:20:39.311514	94.4	23.5	-71.7	0.0
2026-01-04 16:20:41.563256	93.9	23.7	-70.0	0.0
2026-01-04 16:20:43.817700	93.4	23.9	-72.0	1.4
2026-01-04 16:20:46.069937	92.9	24.1	-69.9	0.0
2026-01-04 16:20:48.323748	92.4	24.3	-70.9	0.0
2026-01-04 16:20:50.579788	91.8	24.5	-71.5	0.0
2026-01-04 16:20:52.833500	91.3	24.7	-72.0	1.8
2026-01-04 16:20:55.088119	90.7	24.9	-72.1	3.4
2026-01-04 16:20:57.341174	90.2	25.1	-71.5	1.5
2026-01-04 16:20:59.595862	89.6	25.3	-71.4	1.0
2026-01-04 16:21:01.848031	89.1	25.6	-70.4	0.0
2026-01-04 16:21:04.100654	88.5	25.7	-71.1	0.0
2026-01-04 16:21:06.353321	87.9	25.9	-70.5	1.3
2026-01-04 16:21:08.608356	87.3	26.1	-70.5	0.0
2026-01-04 16:21:10.861557	86.7	26.3	-69.6	0.0
2026-01-04 16:21:13.115680	86.1	26.5	-71.5	0.8
2026-01-04 16:21:15.369074	85.5	26.7	-72.3	3.3
2026-01-04 16:21:17.620719	84.9	26.9	-71.2	1.8
2026-01-04 16:21:19.874687	84.3	27.1	-71.4	0.7
2026-01-04 16:21:22.130177	83.6	27.3	-70.4	0.0
2026-01-04 16:21:24.383945	83.0	27.5	-72.1	2.9
2026-01-04 16:21:26.638520	82.3	27.6	-72.3	2.8
2026-01-04 16:21:28.891817	81.7	27.8	-72.6	0.9
2026-01-04 16:21:31.145404	81.0	28.0	-72.1	0.1
2026-01-04 16:21:33.398797	80.3	28.1	-72.0	1.8
2026-01-04 16:21:35.651138	79.7	28.3	-71.5	0.0
2026-01-04 16:21:37.902657	79.0	28.5	-72.5	1.8
2026-01-04 16:21:40.155318	78.3	28.6	-72.1	2.5
2026-01-04 16:21:42.408073	77.6	28.8	-70.7	0.6
2026-01-04 16:21:44.663813	76.9	28.9	-70.5	0.6
2026-01-04 16:21:46.916507	76.2	29.1	-71.4	4.5
2026-01-04 16:21:49.172250	75.5	29.2	-70.7	0.0
2026-01-04 16:21:51.427839	74.7	29.3	-71.8	4.2
2026-01-04 16:21:53.681166	74.0	29.5	-71.6	2.9
2026-01-04 16:21:55.937069	73.3	29.6	-70.6	0.4
2026-01-04 16:21:58.191829	72.5	29.7	-71.6	2.9
2026-01-04 16:22:00.449888	71.8	29.8	-69.4	0.0
2026-01-04 16:22:02.703027	71.0	30.0	-69.5	0.0
2026-01-04 16:22:04.957985	70.3	30.1	-70.2	1.8
2026-01-04 16:22:07.212549	69.5	30.2	-71.3	2.9
2026-01-04 16:22:09.465667	68.8	30.3	-71.4	0.1
2026-01-04 16:22:11.722490	68.0	30.3	-69.2	0.0
2026-01-04 16:22:13.975952	67.2	30.4	-69.7	0.0
2026-01-04 16:22:16.231019	66.4	30.5	-71.0	0.0
2026-01-04 16:22:18.483860	65.6	30.6	-70.7	2.9
2026-01-04 16:22:20.737652	64.9	30.7	-70.4	4.0
2026-01-04 16:22:22.991583	64.1	30.7	-69.8	0.0
2026-01-04 16:22:25.247359	63.3	30.8	-69.3	0.0
2026-01-04 16:22:27.499156	62.5	30.8	-68.9	0.0
2026-01-04 16:22:29.748166	61.7	30.9	-69.2	0.0
2026-01-04 16:22:32.002477	60.9	30.9	-70.6	1.0
2026-01-04 16:22:34.255450	60.1	30.9	-70.1	2.0
2026-01-04 16:22:36.508222	59.3	31.0	-69.6	0.0
2026-01-04 16:22:38.760916	58.5	31.0	-70.1	0.0
2026-01-04 16:22:41.014032	57.7	31.0	-67.6	0.0
2026-01-04 16:22:43.268594	56.9	31.0	-66.5	0.0
2026-01-04 16:22:45.524131	56.1	31.0	-68.6	0.0
2026-01-04 16:22:47.778388	55.3	31.0	-70.0	0.6
2026-01-04 16:22:50.033331	54.5	31.0	-68.8	1.8
2026-01-04 16:22:52.288677	53.7	31.0	-68.7	0.0
2026-01-04 16:22:54.542675	52.9	30.9	-66.3	0.0
2026-01-04 16:22:56.799744	52.1	30.9	-67.3	0.0
2026-01-04 16:22:59.052774	51.3	30.9	-67.7	0.0
2026-01-04 16:23:01.307079	50.5	30.8	-69.2	0.0
2026-01-04 16:23:03.560479	49.7	30.8	-69.2	0.0
2026-01-04 16:23:05.811898	48.9	30.7	-69.4	0.0
2026-01-04 16:23:08.065531	48.1	30.7	-67.5	0.0
2026-01-04 16:23:10.323346	47.3	30.6	-69.1	0.0
2026-01-04 16:23:12.577840	46.5	30.5	-69.2	0.0
2026-01-04 16:23:14.830871	45.8	30.4	-67.2	0.0
2026-01-04 16:23:17.085831	45.0	30.4	-67.7	0.0
2026-01-04 16:23:19.341607	44.2	30.3	-67.3	0.0
2026-01-04 16:23:21.595112	43.4	30.2	-66.1	0.0
2026-01-04 16:23:23.849361	42.7	30.1	-65.4	0.0
2026-01-04 16:23:26.102448	41.9	30.0	-66.1	0.0
2026-01-04 16:23:28.356466	41.2	29.8	-64.9	0.0
2026-01-04 16:23:30.609940	40.4	29.7	-65.0	0.0
2026-01-04 16:23:32.861312	39.7	29.6	-64.9	0.0
2026-01-04 16:23:35.116277	39.0	29.5	-64.4	0.0
2026-01-04 16:23:37.369206	38.2	29.4	-64.9	0.0
2026-01-04 16:23:39.622581	37.5	29.2	-63.3	0.0
2026-01-04 16:23:41.877478	36.8	29.1	-62.7	0.0
2026-01-04 16:23:44.126893	36.1	28.9	-65.0	0.0
2026-01-04 16:23:46.380904	35.4	28.8	-66.6	0.0
2026-01-04 16:23:48.637654	34.7	28.6	-64.2	0.0
2026-01-04 16:23:50.890307	34.0	28.5	-63.3	0.0
2026-01-04 16:23:53.142196	33.3	28.3	-62.8	0.0
2026-01-04 16:23:55.398133	32.6	28.2	-66.3	0.0
2026-01-04 16:23:57.652055	32.0	28.0	-66.0	0.0
2026-01-04 16:23:59.906528	31.3	27.8	-64.4	0.0
2026-01-04 16:24:02.160697	30.7	27.6	-62.2	0.0
2026-01-04 16:24:04.416866	30.0	27.5	-65.7	0.0
2026-01-04 16:24:06.671426	29.4	27.3	-64.7	0.0
2026-01-04 16:24:08.924079	28.7	27.1	-65.2	0.0
2026-01-04 16:24:11.179965	28.1	26.9	-64.6	0.0
2026-01-04 16:24:13.433655	27.5	26.7	-62.5	0.0
2026-01-04 16:24:15.686598	26.9	26.5	-63.4	0.0
2026-01-04 16:24:17.942748	26.3	26.4	-63.9	0.0
2026-01-04 16:24:20.195288	25.7	26.2	-61.9	0.0
2026-01-04 16:24:22.451355	25.1	26.0	-63.3	0.0
2026-01-04 16:24:24.709035	24.5	25.8	-62.6	0.0
2026-01-04 16:24:26.964045	24.0	25.6	-63.9	0.0
2026-01-04 16:24:29.218583	23.4	25.4	-63.6	0.0
2026-01-04 16:24:31.472492	22.8	25.2	-62.2	0.0
2026-01-04 16:24:33.725299	22.3	25.0	-65.6	0.0
2026-01-04 16:24:35.981348	21.7	24.8	-65.1	0.0
2026-01-04 16:24:38.238860	21.2	24.6	-63.1	0.0
2026-01-04 16:24:40.490752	20.7	24.4	-62.1	0.0
2026-01-04 16:24:42.745714	20.1	24.1	-62.3	0.0
2026-01-04 16:24:44.999552	19.6	23.9	-60.9	0.0
2026-01-04 16:24:47.254038	19.1	23.7	-59.4	0.0
2026-01-04 16:24:49.507244	18.6	23.5	-64.9	0.0
2026-01-04 16:24:51.759905	18.1	23.3	-62.0	0.0
2026-01-04 16:24:54.014529	17.6	23.1	-62.2	0.0
2026-01-04 16:24:56.267526	17.1	22.9	-59.8	0.0
2026-01-04 16:24:58.521775	16.7	22.7	-62.6	0.0
2026-01-04 16:25:00.776249	16.2	22.5	-58.9	0.0
2026-01-04 16:25:03.032237	15.7	22.2	-61.8	0.0
2026-01-04 16:25:05.285909	15.3	22.0	-63.7	0.0
2026-01-04 16:25:07.540730	14.8	21.8	-64.7	0.0
2026-01-04 16:25:09.794531	14.4	21.6	-64.1	0.0
2026-01-04 16:25:12.046549	13.9	21.4	-61.3	0.0
2026-01-04 16:25:14.302311	13.5	21.2	-63.3	0.0
2026-01-04 16:25:16.552839	13.1	21.0	-62.5	0.0
2026-01-04 16:25:18.808022	12.7	20.8	-57.1	0.0
2026-01-04 16:25:21.061799	12.3	20.5	-63.0	0.0
2026-01-04 16:25:23.314461	11.9	20.3	-62.7	0.0
2026-01-04 16:25:25.569434	11.4	20.1	-63.8	0.0
2026-01-04 16:25:27.824217	11.1	19.9	-64.9	0.0
2026-01-04 16:25:30.079465	10.7	19.7	-64.6	0.0
2026-01-04 16:25:32.333806	10.3	19.5	-62.7	0.0
2026-01-04 16:25:34.590652	9.9	19.3	-64.9	0.0
2026-01-04 16:25:36.845377	9.5	19.1	-64.0	0.0
2026-01-04 16:25:39.100986	9.2	18.9	-65.4	0.0
2026-01-04 16:25:41.352927	8.8	18.7	-64.3	0.0
2026-01-04 16:25:43.608948	8.4	18.4	-63.5	0.0
2026-01-04 16:25:45.862476	8.1	18.2	-63.7	0.0
2026-01-04 16:25:48.118642	7.7	18.0	-65.1	0.0
2026-01-04 16:25:50.373789	7.4	17.8	-65.3	0.0
2026-01-04 16:25:52.624463	7.0	17.6	-65.8	0.0
2026-01-04 16:25:54.882759	6.7	17.4	-65.0	0.0
2026-01-04 16:25:57.136019	6.4	17.2	-64.2	0.0
2026-01-04 16:25:59.389411	6.0	17.0	-63.4	0.0
2026-01-04 16:26:01.646152	5.7	16.8	-64.9	0.0
2026-01-04 16:26:03.899295	5.4	16.6	-64.3	0.0
2026-01-04 16:26:06.153614	5.1	16.4	-64.7	0.0
2026-01-04 16:26:08.404768	4.8	16.2	-65.0	0.0
2026-01-04 16:26:10.656583	4.5	16.0	-65.7	0.0
2026-01-04 16:26:12.914474	4.2	15.8	-64.0	0.0
2026-01-04 16:26:15.168450	3.9	15.6	-63.8	0.0
2026-01-04 16:26:17.423812	3.6	15.4	-64.4	0.0
2026-01-04 16:26:19.677394	3.3	15.2	-65.1	0.0
2026-01-04 16:26:21.929781	3.0	15.0	-61.5	0.0
2026-01-04 16:26:24.184953	2.7	14.8	-65.5	0.0
2026-01-04 16:26:26.437538	2.5	14.6	-65.0	0.0
2026-01-04 16:26:28.690717	2.2	14.4	-65.8	0.0
2026-01-04 16:26:30.945143	1.9	14.2	-65.3	0.0
2026-01-04 16:26:33.200393	1.7	14.0	-65.0	0.0
2026-01-04 16:26:35.454576	1.4	13.9	-66.2	0.0
2026-01-04 16:26:37.707682	1.1	13.7	-65.5	0.0
2026-01-04 16:26:39.959299	0.9	13.5	-65.3	0.0
2026-01-04 16:26:42.213567	0.6	13.3	-64.6	0.0
2026-01-04 16:26:44.468226	0.4	13.1	-64.6	0.0
2026-01-04 16:26:46.722841	0.1	12.9	-65.1	0.0
2026-01-04 16:26:48.977187	359.9	12.7	-64.0	0.0
2026-01-04 16:26:51.229567	359.7	12.6	-64.9	0.0
2026-01-04 16:26:53.483481	359.4	12.4	-65.9	0.0
2026-01-04 16:26:55.736523	359.2	12.2	-66.1	0.0
2026-01-04 16:26:57.988322	359.0	12.0	-65.5	0.0
2026-01-04 16:27:00.241546	358.7	11.8	-65.2	0.0
2026-01-04 16:27:02.494888	358.5	11.6	-64.7	0.0
2026-01-04 16:27:04.750775	358.3	11.5	-62.9	0.0
2026-01-04 16:27:07.004653	358.1	11.3	-64.3	0.0
2026-01-04 16:27:09.266060	357.8	11.1	-65.3	0.0
2026-01-04 16:27:11.519393	357.6	10.9	-66.2	0.0
2026-01-04 16:27:13.772664	357.4	10.8	-64.8	0.0
2026-01-04 16:27:16.023504	357.2	10.6	-62.4	0.0
2026-01-04 16:27:18.275788	357.0	10.4	-63.9	0.0
2026-01-04 16:27:20.531153	356.8	10.2	-69.9	0.0
2026-01-04 16:27:22.785749	356.6	10.1	-73.2	0.0
#Closed at: 2026-01-04 16:18:01.169027