passes_logs/2026/01/04/planumMaritime01/planumMaritime01__20260104_183644_METOP-C_rec.log

#Pass ID: 20260104_183644_METOP-C
#Satellite: METOP-C
#Configuration: METOP-C
#Start time: 2026-01-04 18:36:49.105352

#LorettStation: 1.0.0 05.05.2024
#Station: planumMaritime01
#Location: 37.49445 lon 55.92918 lat
#TLE: 1 43689U 18087A   26003.64214103  .00000255  00000+0  13641-3 0  9995
#TLE: 2 43689  98.6897  66.0725 0000140 327.1769  32.9399 14.21494298371454

#Time	Az	El	Level	SNR
2026-01-04 18:36:51.272975	181.0	10.2	-73.2	0.0
2026-01-04 18:36:53.523449	181.1	10.4	-73.6	0.0
2026-01-04 18:36:55.774074	181.2	10.6	-72.5	0.0
2026-01-04 18:36:58.024084	181.3	10.8	-72.3	0.0
2026-01-04 18:37:00.277936	181.4	11.0	-71.8	1.8
2026-01-04 18:37:02.531734	181.6	11.2	-71.7	1.9
2026-01-04 18:37:04.787730	181.7	11.4	-71.5	0.0
2026-01-04 18:37:07.041417	181.8	11.6	-72.3	2.9
2026-01-04 18:37:09.292930	181.9	11.8	-72.0	0.9
2026-01-04 18:37:11.545077	182.0	12.0	-72.0	0.7
2026-01-04 18:37:13.797259	182.1	12.2	-72.3	1.4
2026-01-04 18:37:16.049723	182.2	12.4	-72.5	2.0
2026-01-04 18:37:18.303913	182.4	12.6	-72.4	3.4
2026-01-04 18:37:20.555409	182.5	12.8	-72.4	2.9
2026-01-04 18:37:22.807330	182.6	13.0	-72.3	0.1
2026-01-04 18:37:25.063354	182.7	13.2	-71.6	0.0
2026-01-04 18:37:27.314870	182.9	13.5	-71.9	1.9
2026-01-04 18:37:29.568301	183.0	13.7	-71.8	2.8
2026-01-04 18:37:31.822649	183.1	13.9	-71.8	0.3
2026-01-04 18:37:34.077695	183.3	14.1	-71.3	1.7
2026-01-04 18:37:36.331917	183.4	14.4	-72.1	2.9
2026-01-04 18:37:38.584506	183.5	14.6	-71.4	3.0
2026-01-04 18:37:40.835434	183.7	14.8	-71.0	2.1
2026-01-04 18:37:43.090177	183.8	15.0	-72.1	2.1
2026-01-04 18:37:45.342107	184.0	15.3	-70.4	0.0
2026-01-04 18:37:47.594934	184.1	15.5	-71.1	0.2
2026-01-04 18:37:49.846349	184.3	15.8	-71.2	1.5
2026-01-04 18:37:52.105311	184.4	16.0	-71.7	1.1
2026-01-04 18:37:54.359471	184.6	16.2	-72.3	1.6
2026-01-04 18:37:56.618540	184.7	16.5	-72.5	0.1
2026-01-04 18:37:58.873115	184.9	16.7	-72.0	0.0
2026-01-04 18:38:01.127432	185.0	17.0	-72.1	2.0
2026-01-04 18:38:03.379722	185.2	17.2	-71.5	0.0
2026-01-04 18:38:05.630195	185.4	17.5	-71.9	0.0
2026-01-04 18:38:07.882867	185.5	17.7	-71.2	0.6
2026-01-04 18:38:10.136467	185.7	18.0	-71.0	0.4
2026-01-04 18:38:12.391741	185.9	18.3	-71.5	0.0
2026-01-04 18:38:14.647095	186.0	18.5	-70.8	0.0
2026-01-04 18:38:16.899706	186.2	18.8	-70.9	3.3
2026-01-04 18:38:19.152018	186.4	19.1	-70.5	0.7
2026-01-04 18:38:21.407406	186.6	19.3	-70.7	1.9
2026-01-04 18:38:23.660541	186.8	19.6	-70.9	1.8
2026-01-04 18:38:25.914399	187.0	19.9	-70.7	1.5
2026-01-04 18:38:28.169162	187.2	20.2	-69.7	1.1
2026-01-04 18:38:30.427623	187.4	20.4	-70.1	0.9
2026-01-04 18:38:32.684304	187.6	20.7	-70.6	1.7
2026-01-04 18:38:34.936202	187.8	21.0	-71.4	3.0
2026-01-04 18:38:37.190540	188.0	21.3	-70.4	0.0
2026-01-04 18:38:39.445077	188.2	21.6	-70.4	0.8
2026-01-04 18:38:41.698684	188.4	21.9	-70.0	0.2
2026-01-04 18:38:43.953198	188.6	22.2	-70.0	1.3
2026-01-04 18:38:46.208913	188.9	22.5	-70.2	0.8
2026-01-04 18:38:48.461376	189.1	22.8	-70.1	1.1
2026-01-04 18:38:50.718560	189.3	23.1	-70.5	2.9
2026-01-04 18:38:52.974372	189.6	23.4	-69.9	3.1
2026-01-04 18:38:55.232138	189.8	23.8	-69.9	4.0
2026-01-04 18:38:57.486252	190.1	24.1	-70.1	4.2
2026-01-04 18:38:59.743929	190.3	24.4	-69.8	4.0
2026-01-04 18:39:01.999751	190.6	24.7	-70.3	4.7
2026-01-04 18:39:04.256825	190.8	25.1	-69.8	2.8
2026-01-04 18:39:06.512611	191.1	25.4	-70.0	3.7
2026-01-04 18:39:08.766778	191.4	25.7	-69.9	2.9
2026-01-04 18:39:11.019460	191.7	26.1	-70.6	3.1
2026-01-04 18:39:13.272293	191.9	26.4	-70.1	3.6
2026-01-04 18:39:15.523673	192.2	26.8	-70.1	1.9
2026-01-04 18:39:17.776567	192.5	27.1	-71.1	5.2
2026-01-04 18:39:20.030837	192.8	27.5	-70.7	2.7
2026-01-04 18:39:22.284861	193.2	27.9	-70.8	4.5
2026-01-04 18:39:24.537778	193.5	28.2	-71.1	4.7
2026-01-04 18:39:26.791875	193.8	28.6	-70.9	5.5
2026-01-04 18:39:29.045828	194.1	29.0	-70.8	4.5
2026-01-04 18:39:31.298726	194.5	29.3	-71.1	6.5
2026-01-04 18:39:33.553070	194.8	29.7	-70.9	5.9
2026-01-04 18:39:35.808023	195.2	30.1	-71.2	6.8
2026-01-04 18:39:38.062616	195.6	30.5	-71.3	6.6
2026-01-04 18:39:40.315053	195.9	30.9	-71.3	5.7
2026-01-04 18:39:42.567195	196.3	31.3	-71.6	4.8
2026-01-04 18:39:44.820602	196.7	31.7	-71.8	5.6
2026-01-04 18:39:47.076768	197.1	32.1	-72.4	6.1
2026-01-04 18:39:49.333793	197.5	32.5	-72.1	5.6
2026-01-04 18:39:51.585576	198.0	32.9	-72.4	6.6
2026-01-04 18:39:53.839654	198.4	33.3	-72.5	8.4
2026-01-04 18:39:56.091668	198.8	33.8	-72.5	8.1
2026-01-04 18:39:58.344170	199.3	34.2	-72.3	9.6
2026-01-04 18:40:00.602556	199.8	34.6	-72.4	9.7
2026-01-04 18:40:02.853991	200.3	35.1	-72.2	10.5
2026-01-04 18:40:05.108087	200.7	35.5	-72.8	10.3
2026-01-04 18:40:07.367420	201.3	35.9	-72.3	10.5
2026-01-04 18:40:09.620705	201.8	36.4	-72.4	11.3
2026-01-04 18:40:11.874424	202.3	36.8	-72.6	12.4
2026-01-04 18:40:14.130543	202.9	37.3	-72.7	12.5
2026-01-04 18:40:16.384513	203.4	37.7	-72.9	12.8
2026-01-04 18:40:18.637618	204.0	38.2	-73.0	13.5
2026-01-04 18:40:20.890599	204.6	38.7	-73.1	13.2
2026-01-04 18:40:23.145124	205.2	39.1	-73.3	13.7
2026-01-04 18:40:25.399368	205.9	39.6	-73.3	12.7
2026-01-04 18:40:27.653747	206.5	40.1	-73.5	13.7
2026-01-04 18:40:29.907829	207.2	40.5	-73.4	14.3
2026-01-04 18:40:32.159375	207.9	41.0	-73.6	14.1
2026-01-04 18:40:34.414286	208.6	41.5	-73.5	13.4
2026-01-04 18:40:36.666632	209.3	41.9	-73.6	13.7
2026-01-04 18:40:38.921283	210.1	42.4	-73.6	13.4
2026-01-04 18:40:41.173759	210.8	42.9	-73.5	13.5
2026-01-04 18:40:43.428761	211.6	43.4	-73.1	13.4
2026-01-04 18:40:45.682887	212.5	43.9	-73.2	13.6
2026-01-04 18:40:47.937443	213.3	44.3	-72.5	12.1
2026-01-04 18:40:50.191284	214.2	44.8	-72.9	13.8
2026-01-04 18:40:52.444076	215.1	45.3	-72.8	13.4
2026-01-04 18:40:54.701237	216.0	45.7	-72.5	11.9
2026-01-04 18:40:56.956805	216.9	46.2	-72.6	12.2
2026-01-04 18:40:59.209532	217.9	46.7	-73.0	13.4
2026-01-04 18:41:01.465510	218.9	47.1	-72.6	12.6
2026-01-04 18:41:03.718167	220.0	47.6	-72.6	13.4
2026-01-04 18:41:05.968930	221.0	48.0	-71.9	12.6
2026-01-04 18:41:08.225819	222.1	48.5	-72.3	13.9
2026-01-04 18:41:10.478802	223.3	48.9	-72.5	13.5
2026-01-04 18:41:12.730912	224.4	49.4	-72.3	12.5
2026-01-04 18:41:14.980573	225.6	49.8	-72.9	12.6
2026-01-04 18:41:17.234041	226.9	50.2	-73.1	12.5
2026-01-04 18:41:19.487784	228.1	50.6	-72.8	12.2
2026-01-04 18:41:21.742729	229.4	51.0	-72.8	11.9
2026-01-04 18:41:23.994754	230.7	51.3	-73.1	12.8
2026-01-04 18:41:26.248465	232.1	51.7	-72.6	11.8
2026-01-04 18:41:28.500944	233.5	52.1	-72.8	11.4
2026-01-04 18:41:30.755968	234.9	52.4	-72.5	12.0
2026-01-04 18:41:33.011564	236.4	52.7	-72.9	12.4
2026-01-04 18:41:35.265514	237.9	53.0	-73.0	12.0
2026-01-04 18:41:37.518922	239.4	53.3	-72.5	12.1
2026-01-04 18:41:39.772099	240.9	53.6	-72.5	11.9
2026-01-04 18:41:42.027918	242.5	53.8	-72.1	10.7
2026-01-04 18:41:44.281943	244.1	54.0	-72.4	10.8
2026-01-04 18:41:46.535570	245.7	54.2	-72.7	12.0
2026-01-04 18:41:48.788035	247.4	54.4	-72.3	10.6
2026-01-04 18:41:51.039249	249.0	54.6	-73.2	13.7
2026-01-04 18:41:53.294210	250.7	54.7	-72.2	11.1
2026-01-04 18:41:55.549429	252.4	54.8	-72.1	10.0
2026-01-04 18:41:57.803865	254.1	54.9	-72.2	11.9
2026-01-04 18:42:00.059513	255.8	54.9	-73.1	13.3
2026-01-04 18:42:02.316550	257.5	55.0	-72.5	12.7
2026-01-04 18:42:04.570974	259.2	55.0	-72.3	13.2
2026-01-04 18:42:06.821048	261.0	55.0	-71.6	11.9
2026-01-04 18:42:09.074829	262.7	54.9	-72.1	8.8
2026-01-04 18:42:11.329998	264.4	54.9	-71.9	11.0
2026-01-04 18:42:13.579492	266.1	54.8	-71.3	7.3
2026-01-04 18:42:15.835133	267.8	54.7	-71.8	8.6
2026-01-04 18:42:18.092042	269.4	54.5	-72.2	11.7
2026-01-04 18:42:20.344115	271.1	54.4	-72.5	12.2
2026-01-04 18:42:22.597328	272.7	54.2	-71.7	9.4
2026-01-04 18:42:24.850994	274.3	54.0	-72.3	11.7
2026-01-04 18:42:27.106636	275.9	53.7	-71.0	10.9
2026-01-04 18:42:29.360441	277.5	53.5	-71.0	8.5
2026-01-04 18:42:31.616629	279.0	53.2	-70.7	7.5
2026-01-04 18:42:33.875925	280.5	52.9	-70.0	4.1
2026-01-04 18:42:36.128475	282.0	52.6	-70.8	8.3
2026-01-04 18:42:38.382947	283.5	52.3	-70.5	6.3
2026-01-04 18:42:40.634976	284.9	52.0	-70.5	6.0
2026-01-04 18:42:42.888413	286.3	51.6	-70.0	7.7
2026-01-04 18:42:45.144599	287.6	51.3	-71.1	8.9
2026-01-04 18:42:47.401253	288.9	50.9	-70.9	9.4
2026-01-04 18:42:49.654902	290.2	50.5	-70.1	6.2
2026-01-04 18:42:51.910438	291.4	50.1	-69.2	0.0
2026-01-04 18:42:54.165249	292.7	49.7	-69.6	5.1
2026-01-04 18:42:56.421775	293.9	49.2	-70.7	8.4
2026-01-04 18:42:58.677995	295.0	48.8	-68.5	3.1
2026-01-04 18:43:00.932421	296.1	48.4	-71.1	7.5
2026-01-04 18:43:03.189399	297.2	47.9	-70.2	1.5
2026-01-04 18:43:05.441675	298.3	47.5	-69.6	6.5
2026-01-04 18:43:07.695352	299.3	47.0	-70.6	5.1
2026-01-04 18:43:09.949711	300.3	46.6	-70.9	6.2
2026-01-04 18:43:12.207926	301.3	46.1	-69.7	5.5
2026-01-04 18:43:14.459712	302.2	45.6	-70.9	9.9
2026-01-04 18:43:16.714558	303.1	45.2	-70.2	7.2
2026-01-04 18:43:18.967166	304.0	44.7	-70.2	6.8
2026-01-04 18:43:21.219802	304.9	44.2	-70.4	7.3
2026-01-04 18:43:23.471842	305.7	43.8	-70.0	4.1
2026-01-04 18:43:25.724700	306.5	43.3	-71.1	8.6
2026-01-04 18:43:27.979681	307.3	42.8	-71.0	9.1
2026-01-04 18:43:30.232506	308.1	42.3	-70.7	6.6
2026-01-04 18:43:32.486128	308.8	41.9	-71.7	10.3
2026-01-04 18:43:34.737902	309.5	41.4	-71.7	9.1
2026-01-04 18:43:36.992122	310.2	40.9	-72.1	11.1
2026-01-04 18:43:39.244438	310.9	40.4	-70.5	8.7
2026-01-04 18:43:41.498753	311.6	40.0	-71.7	9.2
2026-01-04 18:43:43.752718	312.2	39.5	-72.3	10.3
2026-01-04 18:43:46.003653	312.9	39.1	-70.4	7.3
2026-01-04 18:43:48.255678	313.5	38.6	-70.8	5.6
2026-01-04 18:43:50.507372	314.1	38.1	-72.3	9.4
2026-01-04 18:43:52.762873	314.6	37.7	-71.1	6.5
2026-01-04 18:43:55.016746	315.2	37.2	-71.0	6.3
2026-01-04 18:43:57.270854	315.7	36.8	-69.5	3.1
2026-01-04 18:43:59.525290	316.3	36.3	-70.6	5.6
2026-01-04 18:44:01.780652	316.8	35.9	-69.8	3.0
2026-01-04 18:44:04.033851	317.3	35.5	-70.1	4.7
2026-01-04 18:44:06.285657	317.8	35.0	-69.0	2.8
2026-01-04 18:44:08.540841	318.3	34.6	-69.8	5.1
2026-01-04 18:44:10.795872	318.7	34.2	-69.2	3.1
2026-01-04 18:44:13.046532	319.2	33.7	-69.1	1.5
2026-01-04 18:44:15.305031	319.6	33.3	-68.4	3.0
2026-01-04 18:44:17.558695	320.1	32.9	-69.4	2.4
2026-01-04 18:44:19.813322	320.5	32.5	-68.4	1.6
2026-01-04 18:44:22.066830	320.9	32.1	-68.9	1.6
2026-01-04 18:44:24.321023	321.3	31.7	-69.4	2.3
2026-01-04 18:44:26.575062	321.7	31.3	-69.7	3.9
2026-01-04 18:44:28.827615	322.1	30.9	-70.3	2.2
2026-01-04 18:44:31.080905	322.4	30.5	-70.0	5.5
2026-01-04 18:44:33.336368	322.8	30.1	-69.5	3.9
2026-01-04 18:44:35.590663	323.2	29.7	-68.5	2.4
2026-01-04 18:44:37.848152	323.5	29.4	-68.5	1.1
2026-01-04 18:44:40.098164	323.9	29.0	-68.9	2.5
2026-01-04 18:44:42.352560	324.2	28.6	-69.1	0.0
2026-01-04 18:44:44.606815	324.5	28.3	-70.3	2.6
2026-01-04 18:44:46.861722	324.8	27.9	-69.1	0.0
2026-01-04 18:44:49.115595	325.1	27.5	-68.0	0.0
2026-01-04 18:44:51.371019	325.5	27.2	-68.1	0.0
2026-01-04 18:44:53.623930	325.8	26.8	-68.4	0.0
2026-01-04 18:44:55.876934	326.0	26.5	-68.5	0.0
2026-01-04 18:44:58.129876	326.3	26.1	-68.1	0.0
2026-01-04 18:45:00.382467	326.6	25.8	-67.4	0.0
2026-01-04 18:45:02.637259	326.9	25.5	-66.9	0.0
2026-01-04 18:45:04.890114	327.2	25.1	-65.3	0.0
2026-01-04 18:45:07.145912	327.4	24.8	-67.6	0.0
2026-01-04 18:45:09.401767	327.7	24.5	-70.3	0.0
2026-01-04 18:45:11.654963	327.9	24.1	-63.0	0.0
2026-01-04 18:45:13.911652	328.2	23.8	-66.2	0.0
2026-01-04 18:45:16.163259	328.4	23.5	-61.0	0.0
2026-01-04 18:45:18.416385	328.7	23.2	-65.7	0.0
2026-01-04 18:45:20.670369	328.9	22.9	-67.2	0.0
2026-01-04 18:45:22.925485	329.1	22.6	-66.1	0.0
2026-01-04 18:45:25.178769	329.4	22.3	-66.8	0.0
2026-01-04 18:45:27.434083	329.6	22.0	-61.1	0.0
2026-01-04 18:45:29.688925	329.8	21.7	-66.6	0.0
2026-01-04 18:45:31.945277	330.0	21.4	-61.8	0.0
2026-01-04 18:45:34.198749	330.2	21.1	-67.3	0.0
2026-01-04 18:45:36.451898	330.4	20.8	-67.1	0.0
2026-01-04 18:45:38.704591	330.6	20.5	-66.0	0.0
2026-01-04 18:45:40.956567	330.8	20.3	-66.9	0.0
2026-01-04 18:45:43.210238	331.0	20.0	-66.1	0.0
2026-01-04 18:45:45.462194	331.2	19.7	-65.9	0.0
2026-01-04 18:45:47.714849	331.4	19.4	-66.5	0.0
2026-01-04 18:45:49.966856	331.6	19.2	-63.3	0.0
2026-01-04 18:45:52.222463	331.8	18.9	-65.1	0.0
2026-01-04 18:45:54.472819	331.9	18.6	-66.0	0.0
2026-01-04 18:45:56.725065	332.1	18.4	-64.7	0.0
2026-01-04 18:45:58.981939	332.3	18.1	-65.9	0.0
2026-01-04 18:46:01.235370	332.5	17.8	-64.9	0.0
2026-01-04 18:46:03.491722	332.6	17.6	-63.8	0.0
2026-01-04 18:46:05.745189	332.8	17.3	-62.6	0.0
2026-01-04 18:46:07.999081	333.0	17.1	-64.0	0.0
2026-01-04 18:46:10.253864	333.1	16.8	-60.2	0.0
2026-01-04 18:46:12.508392	333.3	16.6	-60.2	0.0
2026-01-04 18:46:14.762492	333.4	16.4	-65.4	0.0
2026-01-04 18:46:17.016785	333.6	16.1	-65.1	0.0
2026-01-04 18:46:19.272396	333.7	15.9	-65.9	0.0
2026-01-04 18:46:21.528853	333.9	15.6	-63.4	0.0
2026-01-04 18:46:23.781701	334.0	15.4	-65.3	0.0
2026-01-04 18:46:26.036990	334.2	15.2	-64.4	0.0
2026-01-04 18:46:28.293095	334.3	14.9	-66.2	0.0
2026-01-04 18:46:30.549778	334.5	14.7	-63.3	0.0
2026-01-04 18:46:32.807085	334.6	14.5	-62.3	0.0
2026-01-04 18:46:35.063382	334.7	14.3	-67.0	0.0
2026-01-04 18:46:37.316390	334.9	14.0	-66.6	0.0
2026-01-04 18:46:39.573810	335.0	13.8	-66.5	0.0
2026-01-04 18:46:41.826878	335.1	13.6	-66.3	0.0
2026-01-04 18:46:44.078161	335.3	13.4	-68.3	0.0
2026-01-04 18:46:46.332425	335.4	13.2	-67.4	0.0
2026-01-04 18:46:48.587233	335.5	13.0	-69.0	0.0
2026-01-04 18:46:50.840361	335.6	12.7	-67.9	0.0
2026-01-04 18:46:53.094098	335.8	12.5	-69.0	0.0
2026-01-04 18:46:55.348856	335.9	12.3	-70.1	0.0
2026-01-04 18:46:57.602329	336.0	12.1	-69.8	0.0
2026-01-04 18:46:59.858561	336.1	11.9	-70.2	0.0
2026-01-04 18:47:02.110893	336.2	11.7	-70.0	0.0
2026-01-04 18:47:04.365153	336.4	11.5	-68.8	0.0
2026-01-04 18:47:06.621475	336.5	11.3	-69.4	0.0
2026-01-04 18:47:08.879548	336.6	11.1	-67.9	0.0
2026-01-04 18:47:11.130434	336.7	10.9	-69.0	0.0
2026-01-04 18:47:13.385600	336.8	10.7	-64.9	0.0
2026-01-04 18:47:15.640456	336.9	10.5	-66.6	0.0
2026-01-04 18:47:17.894713	337.0	10.3	-68.7	0.0
2026-01-04 18:47:20.145576	337.1	10.1	-72.2	0.0
#Closed at: 2026-01-04 18:36:44.110138