passes_logs/2026/01/04/planumMaritime01/planumMaritime01__20260104_175254_METEOR-M2_3_rec.log

#Pass ID: 20260104_175254_METEOR-M2 3
#Satellite: METEOR-M2 3
#Configuration: METEOR-M2 3
#Start time: 2026-01-04 17:52:59.796163

#LorettStation: 1.0.0 05.05.2024
#Station: planumMaritime01
#Location: 37.49445 lon 55.92918 lat
#TLE: 1 57166U 23091A   26003.61361221  .00000057  00000+0  43688-4 0  9997
#TLE: 2 57166  98.6345  61.7676 0002928 295.0125  65.0749 14.24029257131091

#Time	Az	El	Level	SNR
2026-01-04 17:53:01.960191	164.8	10.2	-81.3	0.0
2026-01-04 17:53:04.229141	164.8	10.4	-79.8	0.0
2026-01-04 17:53:06.501759	164.9	10.6	-78.0	6.6
2026-01-04 17:53:08.778452	164.9	10.8	-77.5	7.6
2026-01-04 17:53:11.050115	164.9	11.0	-77.9	7.1
2026-01-04 17:53:13.324484	164.9	11.2	-77.6	6.3
2026-01-04 17:53:15.594780	165.0	11.4	-78.1	7.1
2026-01-04 17:53:17.866007	165.0	11.6	-78.0	6.9
2026-01-04 17:53:20.122151	165.0	11.9	-78.1	7.3
2026-01-04 17:53:22.383949	165.0	12.1	-77.5	6.9
2026-01-04 17:53:24.643269	165.1	12.3	-77.4	5.5
2026-01-04 17:53:26.901305	165.1	12.5	-77.8	8.4
2026-01-04 17:53:29.161284	165.1	12.7	-77.4	6.4
2026-01-04 17:53:31.422469	165.2	13.0	-77.7	9.6
2026-01-04 17:53:33.678968	165.2	13.2	-78.0	9.8
2026-01-04 17:53:35.939764	165.2	13.4	-78.0	7.9
2026-01-04 17:53:38.197864	165.2	13.6	-77.9	8.7
2026-01-04 17:53:40.455220	165.3	13.9	-78.0	8.1
2026-01-04 17:53:42.716503	165.3	14.1	-78.2	9.8
2026-01-04 17:53:44.979559	165.3	14.3	-77.3	7.8
2026-01-04 17:53:47.242836	165.4	14.6	-77.9	9.8
2026-01-04 17:53:49.505276	165.4	14.8	-78.0	8.8
2026-01-04 17:53:51.767825	165.4	15.1	-78.1	9.8
2026-01-04 17:53:54.036494	165.5	15.3	-76.6	5.3
2026-01-04 17:53:56.304906	165.5	15.6	-77.4	7.4
2026-01-04 17:53:58.576405	165.5	15.8	-77.7	8.9
2026-01-04 17:54:00.851905	165.6	16.1	-77.4	8.8
2026-01-04 17:54:03.124543	165.6	16.3	-77.6	8.5
2026-01-04 17:54:05.395644	165.6	16.6	-77.1	6.5
2026-01-04 17:54:07.672033	165.7	16.8	-77.9	8.8
2026-01-04 17:54:09.946810	165.7	17.1	-78.1	9.3
2026-01-04 17:54:12.217773	165.7	17.4	-77.6	9.0
2026-01-04 17:54:14.493518	165.8	17.7	-77.7	8.9
2026-01-04 17:54:16.769222	165.8	17.9	-77.5	8.8
2026-01-04 17:54:19.042283	165.8	18.2	-77.8	9.9
2026-01-04 17:54:21.315457	165.9	18.5	-77.1	7.7
2026-01-04 17:54:23.588890	165.9	18.8	-78.0	9.9
2026-01-04 17:54:25.860824	165.9	19.1	-78.1	10.2
2026-01-04 17:54:28.132154	166.0	19.4	-77.2	10.0
2026-01-04 17:54:30.400188	166.0	19.7	-77.5	9.6
2026-01-04 17:54:32.673352	166.1	20.0	-77.6	10.1
2026-01-04 17:54:34.947055	166.1	20.3	-77.5	9.9
2026-01-04 17:54:37.218985	166.1	20.6	-77.4	10.0
2026-01-04 17:54:39.492962	166.2	20.9	-77.0	9.8
2026-01-04 17:54:41.764688	166.2	21.2	-77.6	10.5
2026-01-04 17:54:44.033179	166.3	21.5	-77.8	10.1
2026-01-04 17:54:46.309722	166.3	21.8	-77.6	11.0
2026-01-04 17:54:48.583157	166.4	22.2	-77.7	10.9
2026-01-04 17:54:50.857464	166.4	22.5	-77.1	9.0
2026-01-04 17:54:53.131396	166.5	22.8	-77.7	10.9
2026-01-04 17:54:55.406615	166.5	23.2	-77.4	10.0
2026-01-04 17:54:57.680854	166.6	23.5	-77.4	10.6
2026-01-04 17:54:59.953011	166.6	23.9	-77.0	9.5
2026-01-04 17:55:02.227790	166.7	24.2	-77.6	9.8
2026-01-04 17:55:04.496527	166.7	24.6	-77.2	10.8
2026-01-04 17:55:06.763463	166.8	24.9	-77.4	10.9
2026-01-04 17:55:09.032709	166.8	25.3	-76.5	11.2
2026-01-04 17:55:11.305063	166.9	25.7	-77.9	10.9
2026-01-04 17:55:13.579351	166.9	26.1	-77.7	10.8
2026-01-04 17:55:15.853734	167.0	26.4	-77.7	11.5
2026-01-04 17:55:18.128584	167.0	26.8	-77.8	10.8
2026-01-04 17:55:20.397785	167.1	27.2	-77.9	10.9
2026-01-04 17:55:22.674396	167.2	27.6	-77.8	10.9
2026-01-04 17:55:24.946225	167.2	28.0	-77.8	11.2
2026-01-04 17:55:27.216980	167.3	28.4	-77.6	9.6
2026-01-04 17:55:29.491940	167.4	28.9	-75.9	6.0
2026-01-04 17:55:31.763051	167.4	29.3	-77.3	9.3
2026-01-04 17:55:34.023778	167.5	29.7	-77.2	9.4
2026-01-04 17:55:36.284843	167.6	30.2	-77.2	9.6
2026-01-04 17:55:38.542625	167.6	30.6	-77.5	9.7
2026-01-04 17:55:40.802810	167.7	31.1	-77.4	9.8
2026-01-04 17:55:43.061197	167.8	31.5	-77.5	9.6
2026-01-04 17:55:45.316996	167.9	32.0	-77.5	9.8
2026-01-04 17:55:47.578733	168.0	32.5	-77.8	10.7
2026-01-04 17:55:49.837433	168.0	32.9	-77.5	10.3
2026-01-04 17:55:52.095439	168.1	33.4	-77.6	9.9
2026-01-04 17:55:54.351590	168.2	33.9	-77.9	10.4
2026-01-04 17:55:56.621383	168.3	34.4	-77.7	11.6
2026-01-04 17:55:58.895973	168.4	34.9	-77.6	11.4
2026-01-04 17:56:01.167892	168.5	35.5	-78.1	11.4
2026-01-04 17:56:03.440501	168.6	36.0	-77.9	10.9
2026-01-04 17:56:05.714314	168.7	36.5	-78.0	11.0
2026-01-04 17:56:07.985421	168.8	37.1	-77.9	10.5
2026-01-04 17:56:10.256508	168.9	37.6	-78.3	11.9
2026-01-04 17:56:12.530307	169.0	38.2	-78.1	11.1
2026-01-04 17:56:14.800415	169.1	38.8	-78.6	11.5
2026-01-04 17:56:17.058267	169.2	39.4	-78.6	11.3
2026-01-04 17:56:19.317953	169.4	40.0	-78.8	11.8
2026-01-04 17:56:21.577321	169.5	40.6	-78.8	11.6
2026-01-04 17:56:23.839535	169.6	41.2	-79.0	12.5
2026-01-04 17:56:26.098735	169.8	41.8	-78.7	12.5
2026-01-04 17:56:28.358624	169.9	42.5	-78.7	12.4
2026-01-04 17:56:30.617965	170.0	43.1	-78.5	12.9
2026-01-04 17:56:32.876166	170.2	43.8	-78.7	12.9
2026-01-04 17:56:35.138921	170.4	44.4	-78.7	13.2
2026-01-04 17:56:37.398351	170.5	45.1	-78.6	11.7
2026-01-04 17:56:39.662023	170.7	45.8	-78.6	12.8
2026-01-04 17:56:41.927326	170.9	46.5	-78.9	12.7
2026-01-04 17:56:44.191449	171.1	47.2	-78.9	12.2
2026-01-04 17:56:46.465667	171.3	48.0	-79.0	11.6
2026-01-04 17:56:48.733761	171.5	48.7	-79.0	11.5
2026-01-04 17:56:51.006082	171.7	49.5	-79.2	11.9
2026-01-04 17:56:53.275812	171.9	50.2	-79.5	12.6
2026-01-04 17:56:55.549517	172.1	51.0	-79.5	12.0
2026-01-04 17:56:57.819332	172.4	51.8	-79.3	11.4
2026-01-04 17:57:00.093817	172.7	52.6	-79.5	12.2
2026-01-04 17:57:02.365352	172.9	53.5	-80.0	11.2
2026-01-04 17:57:04.639079	173.2	54.3	-80.3	9.8
2026-01-04 17:57:06.913075	173.5	55.1	-80.7	10.1
2026-01-04 17:57:09.187053	173.9	56.0	-80.8	10.3
2026-01-04 17:57:11.460855	174.2	56.9	-80.8	9.6
2026-01-04 17:57:13.739634	174.6	57.8	-80.6	9.7
2026-01-04 17:57:16.014606	175.0	58.7	-80.8	9.4
2026-01-04 17:57:18.285975	175.4	59.6	-81.2	9.1
2026-01-04 17:57:20.556708	175.9	60.5	-80.7	9.1
2026-01-04 17:57:22.830246	176.4	61.4	-80.5	10.1
2026-01-04 17:57:25.107769	176.9	62.4	-80.3	9.9
2026-01-04 17:57:27.384315	177.5	63.3	-80.4	10.1
2026-01-04 17:57:29.662139	178.1	64.3	-80.3	11.2
2026-01-04 17:57:31.937176	178.8	65.3	-80.3	10.8
2026-01-04 17:57:34.214155	179.5	66.3	-80.0	11.5
2026-01-04 17:57:36.487735	180.3	67.3	-80.0	10.9
2026-01-04 17:57:38.761732	181.2	68.3	-79.6	11.5
2026-01-04 17:57:41.039108	182.2	69.3	-80.1	11.4
2026-01-04 17:57:43.316746	183.3	70.3	-79.9	11.4
2026-01-04 17:57:45.593127	184.5	71.3	-79.3	8.6
2026-01-04 17:57:47.864332	185.9	72.3	-79.9	8.2
2026-01-04 17:57:50.134721	187.4	73.4	-79.3	8.6
2026-01-04 17:57:52.407964	189.2	74.4	-79.9	11.0
2026-01-04 17:57:54.684339	191.2	75.4	-79.3	10.8
2026-01-04 17:57:56.942408	193.5	76.4	-79.6	11.2
2026-01-04 17:57:59.203383	196.1	77.3	-79.8	11.3
2026-01-04 17:58:01.465194	199.2	78.3	-80.0	9.6
2026-01-04 17:58:03.724687	202.9	79.2	-79.8	9.4
2026-01-04 17:58:05.982663	207.2	80.1	-79.9	10.2
2026-01-04 17:58:08.243402	212.3	80.9	-79.8	10.9
2026-01-04 17:58:10.500650	218.4	81.6	-79.5	10.3
2026-01-04 17:58:12.766042	225.5	82.2	-79.2	10.1
2026-01-04 17:58:15.044497	233.7	82.7	-78.8	8.6
2026-01-04 17:58:17.311552	242.9	83.0	-78.9	9.9
2026-01-04 17:58:19.577597	252.6	83.1	-78.8	9.6
2026-01-04 17:58:21.842188	262.4	83.0	-78.5	9.5
2026-01-04 17:58:24.104922	271.6	82.8	-77.9	7.4
2026-01-04 17:58:26.367749	280.0	82.3	-77.7	6.4
2026-01-04 17:58:28.632259	287.4	81.7	-78.3	8.8
2026-01-04 17:58:30.894849	293.6	81.0	-78.2	8.7
2026-01-04 17:58:33.160502	299.0	80.2	-78.2	8.5
2026-01-04 17:58:35.422811	303.4	79.4	-78.2	9.6
2026-01-04 17:58:37.683557	307.2	78.5	-78.9	9.7
2026-01-04 17:58:39.950682	310.4	77.5	-77.5	8.6
2026-01-04 17:58:42.218631	313.1	76.6	-78.2	8.5
2026-01-04 17:58:44.488645	315.5	75.6	-77.0	4.0
2026-01-04 17:58:46.758943	317.6	74.6	-78.4	8.2
2026-01-04 17:58:49.028758	319.4	73.6	-78.5	7.0
2026-01-04 17:58:51.300946	320.9	72.6	-78.0	6.1
2026-01-04 17:58:53.571232	322.3	71.5	-78.3	5.2
2026-01-04 17:58:55.845649	323.6	70.5	-78.1	3.4
2026-01-04 17:58:58.112075	324.7	69.5	-79.6	5.2
2026-01-04 17:59:00.380541	325.7	68.5	-78.7	2.9
2026-01-04 17:59:02.650422	326.6	67.5	-78.7	3.8
2026-01-04 17:59:04.917815	327.4	66.5	-79.2	1.7
2026-01-04 17:59:07.194023	328.2	65.5	-78.5	3.1
2026-01-04 17:59:09.465456	328.8	64.6	-79.9	7.8
2026-01-04 17:59:11.740598	329.5	63.6	-79.3	8.3
2026-01-04 17:59:14.016074	330.1	62.6	-77.5	4.2
2026-01-04 17:59:16.291481	330.6	61.7	-79.3	7.5
2026-01-04 17:59:18.570280	331.1	60.7	-78.9	7.7
2026-01-04 17:59:20.843425	331.6	59.8	-78.7	8.0
2026-01-04 17:59:23.117868	332.0	58.9	-77.0	4.0
2026-01-04 17:59:25.389703	332.4	58.0	-77.7	6.1
2026-01-04 17:59:27.660897	332.8	57.1	-77.4	4.7
2026-01-04 17:59:29.930138	333.1	56.3	-78.4	8.2
2026-01-04 17:59:32.197362	333.5	55.4	-77.4	5.5
2026-01-04 17:59:34.461637	333.8	54.6	-77.6	5.7
2026-01-04 17:59:36.735714	334.1	53.7	-77.1	5.7
2026-01-04 17:59:39.006736	334.4	52.9	-78.0	6.8
2026-01-04 17:59:41.279577	334.7	52.1	-78.3	8.0
2026-01-04 17:59:43.554759	334.9	51.3	-77.8	6.6
2026-01-04 17:59:45.828838	335.1	50.5	-78.2	8.3
2026-01-04 17:59:48.103217	335.4	49.7	-78.1	8.0
2026-01-04 17:59:50.381013	335.6	49.0	-74.8	4.4
2026-01-04 17:59:52.657612	335.8	48.2	-76.7	5.4
2026-01-04 17:59:54.934386	336.0	47.5	-77.0	5.4
2026-01-04 17:59:57.209128	336.2	46.8	-76.8	5.8
2026-01-04 17:59:59.481532	336.4	46.1	-77.1	6.5
2026-01-04 18:00:01.753954	336.6	45.4	-75.6	5.1
2026-01-04 18:00:04.029103	336.7	44.7	-75.0	4.9
2026-01-04 18:00:06.303403	336.9	44.0	-76.4	5.7
2026-01-04 18:00:08.576882	337.0	43.3	-75.1	3.5
2026-01-04 18:00:10.848386	337.2	42.7	-74.7	3.2
2026-01-04 18:00:13.126611	337.3	42.1	-75.2	4.7
2026-01-04 18:00:15.394172	337.5	41.4	-75.8	5.0
2026-01-04 18:00:17.653479	337.6	40.8	-75.3	5.0
2026-01-04 18:00:19.915937	337.7	40.2	-73.1	0.0
2026-01-04 18:00:22.177725	337.9	39.6	-74.7	2.5
2026-01-04 18:00:24.436683	338.0	39.0	-74.1	2.5
2026-01-04 18:00:26.692526	338.1	38.4	-73.6	1.5
2026-01-04 18:00:28.952643	338.2	37.9	-73.9	1.0
2026-01-04 18:00:31.209768	338.3	37.3	-73.4	0.0
2026-01-04 18:00:33.469389	338.4	36.8	-73.9	0.0
2026-01-04 18:00:35.730822	338.5	36.2	-72.7	0.0
2026-01-04 18:00:37.993685	338.6	35.7	-72.7	0.3
2026-01-04 18:00:40.255957	338.7	35.2	-72.3	0.0
2026-01-04 18:00:42.518671	338.8	34.7	-72.2	0.0
2026-01-04 18:00:44.782493	338.9	34.2	-71.7	0.0
2026-01-04 18:00:47.049620	339.0	33.7	-72.4	0.0
2026-01-04 18:00:49.311860	339.1	33.2	-71.4	0.0
2026-01-04 18:00:51.571497	339.2	32.7	-72.6	0.0
2026-01-04 18:00:53.836265	339.2	32.2	-72.1	0.0
2026-01-04 18:00:56.102644	339.3	31.8	-72.1	0.0
2026-01-04 18:00:58.357637	339.4	31.3	-71.2	0.0
2026-01-04 18:01:00.616909	339.5	30.9	-71.4	0.0
2026-01-04 18:01:02.877903	339.5	30.4	-71.2	0.0
2026-01-04 18:01:05.136386	339.6	30.0	-71.2	0.0
2026-01-04 18:01:07.399990	339.7	29.6	-72.2	0.0
2026-01-04 18:01:09.660278	339.8	29.1	-72.6	0.0
2026-01-04 18:01:11.919296	339.8	28.7	-71.0	0.0
2026-01-04 18:01:14.174770	339.9	28.3	-73.2	0.0
2026-01-04 18:01:16.428738	340.0	27.9	-72.6	0.0
2026-01-04 18:01:18.687125	340.0	27.5	-71.6	0.0
2026-01-04 18:01:20.941271	340.1	27.1	-71.2	0.0
2026-01-04 18:01:23.197003	340.1	26.7	-71.1	0.0
2026-01-04 18:01:25.465619	340.2	26.3	-72.0	0.0
2026-01-04 18:01:27.739206	340.3	26.0	-74.3	0.0
2026-01-04 18:01:30.010448	340.3	25.6	-72.4	0.0
2026-01-04 18:01:32.281258	340.4	25.2	-72.4	0.0
2026-01-04 18:01:34.550097	340.4	24.9	-73.0	0.0
2026-01-04 18:01:36.823617	340.5	24.5	-72.5	0.0
2026-01-04 18:01:39.095438	340.5	24.1	-72.5	0.0
2026-01-04 18:01:41.366880	340.6	23.8	-73.5	0.0
2026-01-04 18:01:43.638390	340.6	23.4	-71.5	0.0
2026-01-04 18:01:45.911391	340.7	23.1	-73.9	1.3
2026-01-04 18:01:48.188598	340.7	22.8	-70.9	0.0
2026-01-04 18:01:50.460096	340.8	22.4	-72.5	0.0
2026-01-04 18:01:52.733159	340.8	22.1	-69.1	0.0
2026-01-04 18:01:55.008360	340.9	21.8	-71.4	0.0
2026-01-04 18:01:57.282789	340.9	21.5	-70.7	0.0
2026-01-04 18:01:59.558089	341.0	21.2	-71.5	0.0
2026-01-04 18:02:01.833631	341.0	20.8	-72.1	0.0
2026-01-04 18:02:04.107402	341.0	20.5	-71.7	0.0
2026-01-04 18:02:06.381449	341.1	20.2	-71.9	0.0
2026-01-04 18:02:08.654225	341.1	19.9	-70.3	0.0
2026-01-04 18:02:10.927753	341.2	19.6	-71.2	0.0
2026-01-04 18:02:13.202169	341.2	19.4	-71.1	0.0
2026-01-04 18:02:15.476952	341.3	19.1	-72.7	0.0
2026-01-04 18:02:17.750173	341.3	18.8	-72.3	0.0
2026-01-04 18:02:20.025592	341.3	18.5	-71.6	0.0
2026-01-04 18:02:22.297536	341.4	18.2	-74.7	0.0
2026-01-04 18:02:24.572974	341.4	17.9	-74.0	0.0
2026-01-04 18:02:26.844830	341.5	17.7	-72.1	0.0
2026-01-04 18:02:29.114462	341.5	17.4	-73.4	0.0
2026-01-04 18:02:31.384981	341.5	17.1	-73.4	0.0
2026-01-04 18:02:33.640855	341.6	16.9	-73.1	0.0
2026-01-04 18:02:35.898902	341.6	16.6	-73.9	0.0
2026-01-04 18:02:38.155318	341.6	16.4	-74.7	0.2
2026-01-04 18:02:40.409750	341.7	16.1	-74.6	0.0
2026-01-04 18:02:42.669070	341.7	15.9	-73.7	0.0
2026-01-04 18:02:44.925884	341.7	15.6	-75.2	0.0
2026-01-04 18:02:47.178683	341.8	15.4	-76.1	1.6
2026-01-04 18:02:49.437066	341.8	15.1	-74.8	0.0
2026-01-04 18:02:51.702756	341.8	14.9	-73.4	0.0
2026-01-04 18:02:53.958350	341.9	14.6	-73.5	0.0
2026-01-04 18:02:56.227098	341.9	14.4	-74.7	0.7
2026-01-04 18:02:58.499599	341.9	14.2	-74.8	0.0
2026-01-04 18:03:00.768343	342.0	13.9	-73.1	0.0
2026-01-04 18:03:03.040031	342.0	13.7	-73.0	0.0
2026-01-04 18:03:05.315068	342.0	13.5	-75.6	0.0
2026-01-04 18:03:07.589689	342.1	13.2	-74.3	0.0
2026-01-04 18:03:09.864744	342.1	13.0	-75.1	0.0
2026-01-04 18:03:12.136234	342.1	12.8	-73.8	0.0
2026-01-04 18:03:14.401805	342.1	12.6	-73.6	0.0
2026-01-04 18:03:16.663211	342.2	12.4	-73.3	0.0
2026-01-04 18:03:18.924844	342.2	12.1	-74.2	0.0
2026-01-04 18:03:21.185301	342.2	11.9	-73.8	0.0
2026-01-04 18:03:23.448403	342.3	11.7	-74.9	0.0
2026-01-04 18:03:25.707999	342.3	11.5	-73.2	0.0
2026-01-04 18:03:27.967590	342.3	11.3	-71.5	0.0
2026-01-04 18:03:30.229318	342.3	11.1	-72.1	0.0
2026-01-04 18:03:32.490961	342.4	10.9	-75.1	0.0
2026-01-04 18:03:34.761985	342.4	10.7	-71.6	0.0
2026-01-04 18:03:37.033943	342.4	10.5	-73.5	0.0
2026-01-04 18:03:39.307420	342.4	10.3	-74.3	0.0
2026-01-04 18:03:41.582343	342.5	10.1	-81.6	0.0
#Closed at: 2026-01-04 17:52:54.800765