passes_logs/2026/01/17/planumMaritime01/planumMaritime01__20260117_122445_METEOR-M2_4_rec.log

#Pass ID: 20260117_122445_METEOR-M2 4
#Satellite: METEOR-M2 4
#Configuration: METEOR-M2 4
#Start time: 2026-01-17 12:24:50.247926

#LorettStation: 1.0.0 05.05.2024
#Station: planumMaritime01
#Location: 37.49445 lon 55.92918 lat
#TLE: 1 59051U 24039A   26016.59540353  .00000004  00000+0  21269-4 0  9994
#TLE: 2 59051  98.6815 337.9666 0006025 245.7664 114.2884 14.22407426 97710

#Time	Az	El	Level	SNR
2026-01-17 12:24:52.418123	200.9	10.2	-82.7	0.0
2026-01-17 12:24:54.666681	201.1	10.3	-82.3	0.0
2026-01-17 12:24:56.913830	201.3	10.5	-81.6	0.0
2026-01-17 12:24:59.161411	201.5	10.7	-79.4	0.0
2026-01-17 12:25:01.410043	201.7	10.9	-78.4	1.3
2026-01-17 12:25:03.657918	201.9	11.1	-76.9	3.7
2026-01-17 12:25:05.906652	202.1	11.2	-76.9	4.4
2026-01-17 12:25:08.154645	202.3	11.4	-76.7	6.0
2026-01-17 12:25:10.404139	202.5	11.6	-77.0	5.6
2026-01-17 12:25:12.655441	202.7	11.8	-76.5	4.7
2026-01-17 12:25:14.906309	202.9	12.0	-76.5	5.8
2026-01-17 12:25:17.154788	203.2	12.1	-76.7	6.7
2026-01-17 12:25:19.407406	203.4	12.3	-76.6	6.4
2026-01-17 12:25:21.655616	203.6	12.5	-76.8	5.4
2026-01-17 12:25:23.903352	203.9	12.7	-76.8	5.7
2026-01-17 12:25:26.153340	204.1	12.9	-76.4	6.5
2026-01-17 12:25:28.399581	204.3	13.1	-76.7	7.4
2026-01-17 12:25:30.648715	204.6	13.3	-76.8	8.2
2026-01-17 12:25:32.898464	204.8	13.5	-76.9	6.8
2026-01-17 12:25:35.147680	205.0	13.7	-76.1	6.9
2026-01-17 12:25:37.398936	205.3	13.9	-76.0	7.0
2026-01-17 12:25:39.644726	205.5	14.0	-76.6	7.3
2026-01-17 12:25:41.893932	205.8	14.2	-76.4	6.9
2026-01-17 12:25:44.145271	206.1	14.4	-76.7	7.4
2026-01-17 12:25:46.394975	206.3	14.6	-77.0	7.3
2026-01-17 12:25:48.642198	206.6	14.8	-76.8	6.3
2026-01-17 12:25:50.893629	206.9	15.0	-76.4	6.4
2026-01-17 12:25:53.140966	207.1	15.2	-76.5	5.9
2026-01-17 12:25:55.389633	207.4	15.4	-76.5	7.2
2026-01-17 12:25:57.637593	207.7	15.6	-76.7	6.1
2026-01-17 12:25:59.887550	208.0	15.9	-76.4	6.9
2026-01-17 12:26:02.136872	208.3	16.1	-76.8	6.9
2026-01-17 12:26:04.385208	208.5	16.3	-76.7	6.5
2026-01-17 12:26:06.634422	208.8	16.5	-77.1	7.6
2026-01-17 12:26:08.883146	209.1	16.7	-77.0	8.7
2026-01-17 12:26:11.130056	209.4	16.9	-77.0	6.4
2026-01-17 12:26:13.377497	209.7	17.1	-76.8	7.4
2026-01-17 12:26:15.624700	210.1	17.3	-77.3	7.4
2026-01-17 12:26:17.875114	210.4	17.5	-77.2	7.9
2026-01-17 12:26:20.122789	210.7	17.7	-77.0	6.6
2026-01-17 12:26:22.370879	211.0	18.0	-77.3	7.2
2026-01-17 12:26:24.622395	211.3	18.2	-76.9	8.2
2026-01-17 12:26:26.872021	211.7	18.4	-77.0	8.3
2026-01-17 12:26:29.119134	212.0	18.6	-77.6	9.8
2026-01-17 12:26:31.366263	212.4	18.8	-77.4	8.7
2026-01-17 12:26:33.615091	212.7	19.1	-77.5	9.4
2026-01-17 12:26:35.862270	213.1	19.3	-77.1	8.5
2026-01-17 12:26:38.114169	213.4	19.5	-76.9	8.5
2026-01-17 12:26:40.361884	213.8	19.7	-77.4	9.3
2026-01-17 12:26:42.608671	214.1	19.9	-77.4	9.4
2026-01-17 12:26:44.857085	214.5	20.2	-77.2	9.7
2026-01-17 12:26:47.104836	214.9	20.4	-77.3	10.5
2026-01-17 12:26:49.354290	215.3	20.6	-76.9	9.5
2026-01-17 12:26:51.602078	215.7	20.8	-77.6	10.6
2026-01-17 12:26:53.852128	216.1	21.1	-77.6	10.5
2026-01-17 12:26:56.103172	216.5	21.3	-77.5	11.2
2026-01-17 12:26:58.349997	216.9	21.5	-77.3	10.2
2026-01-17 12:27:00.597260	217.3	21.8	-77.5	11.0
2026-01-17 12:27:02.844747	217.7	22.0	-77.6	11.1
2026-01-17 12:27:05.095555	218.1	22.2	-77.4	10.7
2026-01-17 12:27:07.344738	218.6	22.5	-77.4	10.1
2026-01-17 12:27:09.595949	219.0	22.7	-77.2	8.4
2026-01-17 12:27:11.846121	219.4	22.9	-78.3	11.0
2026-01-17 12:27:14.094498	219.9	23.2	-77.8	11.3
2026-01-17 12:27:16.343343	220.3	23.4	-78.2	11.9
2026-01-17 12:27:18.593290	220.8	23.6	-78.2	11.0
2026-01-17 12:27:20.842204	221.3	23.9	-78.1	11.9
2026-01-17 12:27:23.088919	221.8	24.1	-78.3	11.7
2026-01-17 12:27:25.337298	222.2	24.3	-78.1	11.9
2026-01-17 12:27:27.585962	222.7	24.6	-78.1	12.9
2026-01-17 12:27:29.839718	223.2	24.8	-78.2	12.5
2026-01-17 12:27:32.088063	223.7	25.0	-77.8	12.4
2026-01-17 12:27:34.336743	224.3	25.3	-78.0	11.8
2026-01-17 12:27:36.587165	224.8	25.5	-78.0	12.3
2026-01-17 12:27:38.836034	225.3	25.7	-78.1	12.6
2026-01-17 12:27:41.082390	225.8	26.0	-78.1	12.0
2026-01-17 12:27:43.330394	226.4	26.2	-78.2	12.4
2026-01-17 12:27:45.577675	226.9	26.4	-78.0	12.2
2026-01-17 12:27:47.826857	227.5	26.6	-78.3	12.2
2026-01-17 12:27:50.075705	228.1	26.9	-78.3	12.0
2026-01-17 12:27:52.324362	228.6	27.1	-78.1	12.4
2026-01-17 12:27:54.572366	229.2	27.3	-78.0	12.7
2026-01-17 12:27:56.823486	229.8	27.6	-78.3	12.5
2026-01-17 12:27:59.072987	230.4	27.8	-78.0	12.3
2026-01-17 12:28:01.316723	231.0	28.0	-78.1	13.0
2026-01-17 12:28:03.565785	231.6	28.2	-78.3	12.3
2026-01-17 12:28:05.814080	232.3	28.4	-78.0	11.2
2026-01-17 12:28:08.062055	232.9	28.7	-78.3	12.0
2026-01-17 12:28:10.310185	233.5	28.9	-77.8	12.2
2026-01-17 12:28:12.560659	234.2	29.1	-77.9	13.0
2026-01-17 12:28:14.811091	234.8	29.3	-77.7	11.2
2026-01-17 12:28:17.059703	235.5	29.5	-77.4	13.1
2026-01-17 12:28:19.312831	236.2	29.7	-77.6	13.1
2026-01-17 12:28:21.565756	236.9	29.9	-77.5	13.2
2026-01-17 12:28:23.818780	237.6	30.1	-76.8	11.6
2026-01-17 12:28:26.066304	238.2	30.3	-77.2	13.4
2026-01-17 12:28:28.318615	239.0	30.5	-77.2	13.2
2026-01-17 12:28:30.571012	239.7	30.7	-77.3	13.8
2026-01-17 12:28:32.821742	240.4	30.9	-77.6	13.3
2026-01-17 12:28:35.071450	241.1	31.0	-77.4	12.6
2026-01-17 12:28:37.321950	241.9	31.2	-78.0	13.0
2026-01-17 12:28:39.573343	242.6	31.4	-77.7	12.6
2026-01-17 12:28:41.819494	243.4	31.6	-77.5	12.0
2026-01-17 12:28:44.068134	244.1	31.7	-77.4	11.1
2026-01-17 12:28:46.315679	244.9	31.9	-77.7	12.0
2026-01-17 12:28:48.568257	245.7	32.0	-77.7	11.0
2026-01-17 12:28:50.816318	246.5	32.2	-77.9	11.8
2026-01-17 12:28:53.062427	247.3	32.3	-77.6	11.0
2026-01-17 12:28:55.310123	248.1	32.5	-77.8	11.7
2026-01-17 12:28:57.560387	248.9	32.6	-77.5	10.2
2026-01-17 12:28:59.808304	249.7	32.7	-77.9	11.7
2026-01-17 12:29:02.056693	250.5	32.9	-77.9	11.0
2026-01-17 12:29:04.303709	251.3	33.0	-77.8	10.9
2026-01-17 12:29:06.550857	252.2	33.1	-77.6	11.3
2026-01-17 12:29:08.802527	253.0	33.2	-77.5	12.7
2026-01-17 12:29:11.053286	253.8	33.3	-77.5	11.7
2026-01-17 12:29:13.300563	254.7	33.4	-77.2	10.7
2026-01-17 12:29:15.548493	255.5	33.5	-77.5	12.0
2026-01-17 12:29:17.800682	256.4	33.5	-77.2	10.1
2026-01-17 12:29:20.048844	257.2	33.6	-77.1	12.0
2026-01-17 12:29:22.299157	258.1	33.7	-76.7	12.0
2026-01-17 12:29:24.548228	259.0	33.7	-76.9	12.6
2026-01-17 12:29:26.799646	259.8	33.8	-77.4	11.3
2026-01-17 12:29:29.050329	260.7	33.8	-76.9	11.5
2026-01-17 12:29:31.298954	261.6	33.9	-76.9	9.6
2026-01-17 12:29:33.547880	262.5	33.9	-76.7	8.9
2026-01-17 12:29:35.798380	263.3	33.9	-77.1	10.5
2026-01-17 12:29:38.047506	264.2	33.9	-77.1	11.0
2026-01-17 12:29:40.296110	265.1	33.9	-77.4	11.2
2026-01-17 12:29:42.544094	266.0	33.9	-77.4	10.3
2026-01-17 12:29:44.797485	266.8	33.9	-77.0	10.2
2026-01-17 12:29:47.044319	267.7	33.9	-77.0	9.5
2026-01-17 12:29:49.291937	268.6	33.9	-76.6	8.7
2026-01-17 12:29:51.543964	269.5	33.8	-75.5	6.1
2026-01-17 12:29:53.791122	270.3	33.8	-76.3	7.9
2026-01-17 12:29:56.040280	271.2	33.8	-76.6	7.5
2026-01-17 12:29:58.290684	272.1	33.7	-76.6	7.9
2026-01-17 12:30:00.538436	272.9	33.7	-76.5	6.3
2026-01-17 12:30:02.788232	273.8	33.6	-76.9	8.5
2026-01-17 12:30:05.036990	274.6	33.5	-77.0	7.3
2026-01-17 12:30:07.284836	275.5	33.4	-76.4	5.7
2026-01-17 12:30:09.534477	276.3	33.4	-77.0	7.6
2026-01-17 12:30:11.780917	277.2	33.3	-76.7	7.3
2026-01-17 12:30:14.026259	278.0	33.2	-75.4	5.9
2026-01-17 12:30:16.277285	278.8	33.1	-75.9	5.3
2026-01-17 12:30:18.526592	279.7	32.9	-75.1	7.6
2026-01-17 12:30:20.774502	280.5	32.8	-76.1	6.4
2026-01-17 12:30:23.023394	281.3	32.7	-75.5	7.6
2026-01-17 12:30:25.270125	282.1	32.6	-75.2	6.5
2026-01-17 12:30:27.520970	282.9	32.4	-74.7	6.0
2026-01-17 12:30:29.771280	283.7	32.3	-75.2	5.5
2026-01-17 12:30:32.021020	284.5	32.2	-75.0	4.9
2026-01-17 12:30:34.269404	285.3	32.0	-75.7	6.0
2026-01-17 12:30:36.517506	286.1	31.9	-74.9	3.1
2026-01-17 12:30:38.764396	286.8	31.7	-74.3	6.2
2026-01-17 12:30:41.011956	287.6	31.5	-75.8	4.7
2026-01-17 12:30:43.263594	288.3	31.4	-74.5	2.6
2026-01-17 12:30:45.511633	289.1	31.2	-75.9	2.4
2026-01-17 12:30:47.758904	289.8	31.0	-73.3	3.1
2026-01-17 12:30:50.007647	290.5	30.8	-74.5	1.2
2026-01-17 12:30:52.253660	291.3	30.6	-71.9	0.0
2026-01-17 12:30:54.503280	292.0	30.5	-74.5	2.8
2026-01-17 12:30:56.752834	292.7	30.3	-73.6	0.4
2026-01-17 12:30:58.999326	293.4	30.1	-75.2	5.5
2026-01-17 12:31:01.246348	294.1	29.9	-74.5	4.8
2026-01-17 12:31:03.492591	294.7	29.7	-74.9	2.8
2026-01-17 12:31:05.741031	295.4	29.5	-74.8	5.5
2026-01-17 12:31:07.990076	296.1	29.3	-74.8	4.3
2026-01-17 12:31:10.236827	296.7	29.0	-74.8	4.3
2026-01-17 12:31:12.487960	297.4	28.8	-76.5	5.9
2026-01-17 12:31:14.735840	298.0	28.6	-73.4	1.9
2026-01-17 12:31:16.984684	298.6	28.4	-74.7	0.6
2026-01-17 12:31:19.232455	299.3	28.2	-74.4	4.2
2026-01-17 12:31:21.481795	299.9	28.0	-75.3	3.7
2026-01-17 12:31:23.733260	300.5	27.8	-76.1	5.4
2026-01-17 12:31:25.982586	301.1	27.5	-76.2	6.1
2026-01-17 12:31:28.231840	301.6	27.3	-74.5	2.6
2026-01-17 12:31:30.481572	302.2	27.1	-75.9	4.3
2026-01-17 12:31:32.727352	302.8	26.9	-76.9	4.7
2026-01-17 12:31:34.977706	303.4	26.6	-75.5	3.9
2026-01-17 12:31:37.225692	303.9	26.4	-74.4	0.0
2026-01-17 12:31:39.472350	304.5	26.2	-75.1	4.9
2026-01-17 12:31:41.722416	305.0	25.9	-75.0	0.9
2026-01-17 12:31:43.970766	305.5	25.7	-75.3	1.8
2026-01-17 12:31:46.218740	306.1	25.5	-75.4	1.6
2026-01-17 12:31:48.466476	306.6	25.2	-75.2	2.8
2026-01-17 12:31:50.712796	307.1	25.0	-74.8	1.7
2026-01-17 12:31:52.958363	307.6	24.8	-74.5	0.6
2026-01-17 12:31:55.207366	308.1	24.6	-73.4	2.1
2026-01-17 12:31:57.457885	308.6	24.3	-74.4	2.7
2026-01-17 12:31:59.705521	309.0	24.1	-73.9	1.0
2026-01-17 12:32:01.955608	309.5	23.9	-75.4	4.1
2026-01-17 12:32:04.205975	310.0	23.6	-73.7	2.8
2026-01-17 12:32:06.452380	310.5	23.4	-74.2	2.4
2026-01-17 12:32:08.698525	310.9	23.2	-73.8	1.4
2026-01-17 12:32:10.946705	311.4	22.9	-74.3	3.6
2026-01-17 12:32:13.198255	311.8	22.7	-73.3	1.9
2026-01-17 12:32:15.445235	312.2	22.5	-73.7	1.9
2026-01-17 12:32:17.696332	312.7	22.2	-73.4	2.4
2026-01-17 12:32:19.943200	313.1	22.0	-73.1	0.8
2026-01-17 12:32:22.191696	313.5	21.8	-73.0	3.4
2026-01-17 12:32:24.440562	313.9	21.6	-72.5	0.0
2026-01-17 12:32:26.688382	314.3	21.3	-74.3	3.7
2026-01-17 12:32:28.938962	314.7	21.1	-74.4	3.8
2026-01-17 12:32:31.187953	315.1	20.9	-73.0	0.0
2026-01-17 12:32:33.436147	315.5	20.7	-71.9	0.0
2026-01-17 12:32:35.684396	315.9	20.4	-72.5	0.0
2026-01-17 12:32:37.932315	316.2	20.2	-71.9	0.0
2026-01-17 12:32:40.181040	316.6	20.0	-72.5	0.0
2026-01-17 12:32:42.427204	317.0	19.8	-75.1	3.2
2026-01-17 12:32:44.673980	317.3	19.5	-73.5	0.0
2026-01-17 12:32:46.922014	317.7	19.3	-72.8	0.0
2026-01-17 12:32:49.167789	318.0	19.1	-72.5	0.0
2026-01-17 12:32:51.418693	318.4	18.9	-73.4	0.0
2026-01-17 12:32:53.666294	318.7	18.7	-73.4	0.0
2026-01-17 12:32:55.914013	319.1	18.4	-74.2	0.0
2026-01-17 12:32:58.161187	319.4	18.2	-72.8	0.0
2026-01-17 12:33:00.411195	319.7	18.0	-73.5	0.0
2026-01-17 12:33:02.662150	320.0	17.8	-73.8	0.0
2026-01-17 12:33:04.909418	320.4	17.6	-72.4	0.0
2026-01-17 12:33:07.158239	320.7	17.4	-73.3	0.0
2026-01-17 12:33:09.405169	321.0	17.2	-73.6	0.0
2026-01-17 12:33:11.653293	321.3	17.0	-71.4	0.0
2026-01-17 12:33:13.900646	321.6	16.8	-71.5	0.0
2026-01-17 12:33:16.149224	321.9	16.5	-71.9	0.0
2026-01-17 12:33:18.400109	322.2	16.3	-74.1	0.0
2026-01-17 12:33:20.650034	322.5	16.1	-68.8	0.0
2026-01-17 12:33:22.899113	322.8	15.9	-74.7	0.0
2026-01-17 12:33:25.145875	323.0	15.7	-74.3	0.4
2026-01-17 12:33:27.396700	323.3	15.5	-75.1	0.0
2026-01-17 12:33:29.642935	323.6	15.3	-73.9	0.0
2026-01-17 12:33:31.892379	323.9	15.1	-74.6	0.0
2026-01-17 12:33:34.141793	324.1	14.9	-74.1	0.0
2026-01-17 12:33:36.389734	324.4	14.7	-73.3	0.0
2026-01-17 12:33:38.638310	324.7	14.5	-72.9	0.0
2026-01-17 12:33:40.883717	324.9	14.3	-73.0	0.0
2026-01-17 12:33:43.132927	325.2	14.1	-73.6	0.0
2026-01-17 12:33:45.382246	325.4	14.0	-72.8	0.0
2026-01-17 12:33:47.630142	325.7	13.8	-72.7	0.0
2026-01-17 12:33:49.877802	325.9	13.6	-69.8	0.0
2026-01-17 12:33:52.124337	326.2	13.4	-72.1	0.0
2026-01-17 12:33:54.373299	326.4	13.2	-70.5	0.0
2026-01-17 12:33:56.620583	326.6	13.0	-72.0	0.0
2026-01-17 12:33:58.869578	326.9	12.8	-71.3	0.0
2026-01-17 12:34:01.118939	327.1	12.6	-72.1	0.0
2026-01-17 12:34:03.365080	327.3	12.4	-72.1	0.0
2026-01-17 12:34:05.612486	327.6	12.3	-71.9	0.0
2026-01-17 12:34:07.860031	327.8	12.1	-70.8	0.0
2026-01-17 12:34:10.106126	328.0	11.9	-71.8	0.0
2026-01-17 12:34:12.353643	328.2	11.7	-72.9	0.0
2026-01-17 12:34:14.599912	328.4	11.5	-70.3	0.0
2026-01-17 12:34:16.847338	328.6	11.4	-69.4	0.0
2026-01-17 12:34:19.096724	328.9	11.2	-70.0	0.0
2026-01-17 12:34:21.344197	329.1	11.0	-69.7	0.0
2026-01-17 12:34:23.589811	329.3	10.8	-70.3	0.0
2026-01-17 12:34:25.836705	329.5	10.6	-71.8	0.0
2026-01-17 12:34:28.085625	329.7	10.5	-75.8	0.0
2026-01-17 12:34:30.334603	329.9	10.3	-78.2	0.0
2026-01-17 12:34:32.583518	330.1	10.1	-79.0	0.0
#Closed at: 2026-01-17 12:24:45.253452