passes_logs/2026/01/17/planumMaritime01/planumMaritime01__20260117_190822_METOP-C_rec.log

#Pass ID: 20260117_190822_METOP-C
#Satellite: METOP-C
#Configuration: METOP-C
#Start time: 2026-01-17 19:08:27.355388

#LorettStation: 1.0.0 05.05.2024
#Station: planumMaritime01
#Location: 37.49445 lon 55.92918 lat
#TLE: 1 43689U 18087A   26016.59355496  .00000086  00000+0  59208-4 0  9996
#TLE: 2 43689  98.6876  78.8199 0000623 181.1520 178.9656 14.21498808373298

#Time	Az	El	Level	SNR
2026-01-17 19:08:29.517751	201.0	10.2	-78.0	0.0
2026-01-17 19:08:31.767798	201.2	10.3	-76.5	0.0
2026-01-17 19:08:34.017823	201.4	10.5	-74.0	0.0
2026-01-17 19:08:36.260378	201.6	10.7	-72.1	0.0
2026-01-17 19:08:38.506097	201.8	10.9	-70.5	0.0
2026-01-17 19:08:40.753580	202.0	11.0	-69.6	0.0
2026-01-17 19:08:42.998262	202.2	11.2	-70.1	0.0
2026-01-17 19:08:45.243664	202.5	11.4	-70.3	0.0
2026-01-17 19:08:47.488618	202.7	11.6	-70.6	0.0
2026-01-17 19:08:49.739052	202.9	11.8	-69.7	0.0
2026-01-17 19:08:51.983581	203.1	12.0	-70.4	0.0
2026-01-17 19:08:54.226035	203.3	12.1	-69.2	0.0
2026-01-17 19:08:56.471183	203.6	12.3	-69.4	0.0
2026-01-17 19:08:58.714793	203.8	12.5	-69.8	0.0
2026-01-17 19:09:00.958819	204.0	12.7	-70.9	0.0
2026-01-17 19:09:03.203362	204.2	12.9	-70.0	0.0
2026-01-17 19:09:05.449931	204.5	13.1	-70.3	0.0
2026-01-17 19:09:07.696676	204.7	13.3	-70.8	0.0
2026-01-17 19:09:09.948001	205.0	13.5	-70.4	0.0
2026-01-17 19:09:12.193400	205.2	13.6	-70.2	0.0
2026-01-17 19:09:14.438460	205.5	13.8	-70.2	0.0
2026-01-17 19:09:16.687407	205.7	14.0	-70.2	0.0
2026-01-17 19:09:18.933193	206.0	14.2	-70.6	0.0
2026-01-17 19:09:21.179531	206.2	14.4	-70.4	0.0
2026-01-17 19:09:23.429312	206.5	14.6	-69.9	0.0
2026-01-17 19:09:25.677879	206.8	14.8	-70.6	0.0
2026-01-17 19:09:27.922394	207.0	15.0	-71.0	0.0
2026-01-17 19:09:30.168541	207.3	15.2	-71.5	0.0
2026-01-17 19:09:32.416723	207.6	15.4	-70.5	0.0
2026-01-17 19:09:34.664345	207.9	15.6	-70.5	0.0
2026-01-17 19:09:36.910389	208.1	15.8	-70.4	0.0
2026-01-17 19:09:39.155467	208.4	16.0	-70.3	0.0
2026-01-17 19:09:41.402640	208.7	16.2	-71.2	0.0
2026-01-17 19:09:43.653934	209.0	16.5	-71.5	0.0
2026-01-17 19:09:45.897095	209.3	16.7	-71.3	0.0
2026-01-17 19:09:48.144766	209.6	16.9	-71.0	0.0
2026-01-17 19:09:50.394267	209.9	17.1	-71.3	0.0
2026-01-17 19:09:52.637303	210.2	17.3	-70.9	0.0
2026-01-17 19:09:54.885771	210.6	17.5	-71.6	0.2
2026-01-17 19:09:57.134038	210.9	17.7	-71.3	0.2
2026-01-17 19:09:59.377782	211.2	17.9	-71.4	0.6
2026-01-17 19:10:01.625422	211.5	18.2	-71.6	1.9
2026-01-17 19:10:03.874378	211.9	18.4	-71.8	1.7
2026-01-17 19:10:06.122659	212.2	18.6	-71.3	1.2
2026-01-17 19:10:08.366576	212.5	18.8	-71.7	2.6
2026-01-17 19:10:10.611470	212.9	19.0	-71.8	2.8
2026-01-17 19:10:12.856908	213.2	19.2	-71.8	4.2
2026-01-17 19:10:15.101207	213.6	19.5	-71.9	3.3
2026-01-17 19:10:17.346080	214.0	19.7	-71.9	4.7
2026-01-17 19:10:19.591632	214.3	19.9	-72.3	4.4
2026-01-17 19:10:21.838367	214.7	20.1	-72.6	5.8
2026-01-17 19:10:24.084645	215.1	20.4	-72.4	5.9
2026-01-17 19:10:26.332163	215.5	20.6	-72.1	5.7
2026-01-17 19:10:28.575459	215.9	20.8	-71.9	4.0
2026-01-17 19:10:30.820262	216.3	21.0	-72.2	6.7
2026-01-17 19:10:33.064208	216.7	21.3	-71.7	4.9
2026-01-17 19:10:35.309521	217.1	21.5	-71.9	6.6
2026-01-17 19:10:37.557766	217.5	21.7	-72.2	7.0
2026-01-17 19:10:39.803602	217.9	22.0	-72.4	7.0
2026-01-17 19:10:42.048324	218.3	22.2	-72.1	7.6
2026-01-17 19:10:44.297028	218.8	22.4	-72.3	7.4
2026-01-17 19:10:46.542140	219.2	22.6	-72.5	7.8
2026-01-17 19:10:48.788335	219.6	22.9	-72.6	7.1
2026-01-17 19:10:51.031334	220.1	23.1	-72.8	8.5
2026-01-17 19:10:53.276064	220.5	23.3	-73.0	8.7
2026-01-17 19:10:55.523520	221.0	23.6	-73.1	11.1
2026-01-17 19:10:57.772258	221.5	23.8	-72.0	8.3
2026-01-17 19:11:00.021457	222.0	24.0	-73.1	8.8
2026-01-17 19:11:02.267978	222.4	24.3	-73.4	9.3
2026-01-17 19:11:04.512576	222.9	24.5	-73.3	8.9
2026-01-17 19:11:06.759972	223.4	24.7	-73.6	9.1
2026-01-17 19:11:09.004437	223.9	25.0	-73.6	10.5
2026-01-17 19:11:11.251320	224.5	25.2	-73.7	9.5
2026-01-17 19:11:13.495932	225.0	25.4	-73.5	10.5
2026-01-17 19:11:15.740516	225.5	25.7	-73.4	9.9
2026-01-17 19:11:17.985145	226.0	25.9	-73.5	10.2
2026-01-17 19:11:20.227938	226.6	26.1	-73.5	9.4
2026-01-17 19:11:22.473895	227.1	26.3	-73.3	9.7
2026-01-17 19:11:24.718537	227.7	26.6	-73.4	9.7
2026-01-17 19:11:26.966631	228.3	26.8	-73.2	9.4
2026-01-17 19:11:29.211173	228.8	27.0	-73.0	9.4
2026-01-17 19:11:31.453619	229.4	27.3	-73.1	10.4
2026-01-17 19:11:33.701300	230.0	27.5	-73.3	9.8
2026-01-17 19:11:35.943293	230.6	27.7	-73.2	10.3
2026-01-17 19:11:38.186786	231.2	27.9	-73.0	10.6
2026-01-17 19:11:40.435363	231.8	28.1	-73.0	10.3
2026-01-17 19:11:42.678873	232.4	28.4	-72.8	10.7
2026-01-17 19:11:44.925411	233.1	28.6	-72.6	9.6
2026-01-17 19:11:47.172234	233.7	28.8	-72.3	9.8
2026-01-17 19:11:49.421809	234.4	29.0	-73.1	11.1
2026-01-17 19:11:51.666525	235.0	29.2	-72.6	9.9
2026-01-17 19:11:53.910972	235.7	29.4	-72.6	10.1
2026-01-17 19:11:56.159040	236.4	29.6	-72.8	10.9
2026-01-17 19:11:58.402304	237.0	29.8	-71.8	9.1
2026-01-17 19:12:00.647326	237.7	30.0	-72.2	9.5
2026-01-17 19:12:02.894869	238.4	30.2	-72.2	11.1
2026-01-17 19:12:05.143903	239.1	30.4	-72.5	11.6
2026-01-17 19:12:07.390671	239.9	30.6	-72.5	11.7
2026-01-17 19:12:09.637005	240.6	30.8	-72.2	11.4
2026-01-17 19:12:11.888187	241.3	30.9	-72.4	12.2
2026-01-17 19:12:14.135005	242.1	31.1	-72.9	11.3
2026-01-17 19:12:16.383334	242.8	31.3	-72.6	10.3
2026-01-17 19:12:18.627925	243.6	31.5	-72.1	10.9
2026-01-17 19:12:20.873800	244.3	31.6	-73.0	11.4
2026-01-17 19:12:23.119396	245.1	31.8	-72.3	10.4
2026-01-17 19:12:25.365511	245.9	31.9	-73.0	11.2
2026-01-17 19:12:27.611889	246.6	32.1	-73.0	10.6
2026-01-17 19:12:29.859141	247.4	32.2	-72.8	10.2
2026-01-17 19:12:32.107645	248.2	32.4	-72.8	10.8
2026-01-17 19:12:34.352426	249.0	32.5	-72.8	11.1
2026-01-17 19:12:36.598049	249.8	32.6	-72.8	11.9
2026-01-17 19:12:38.844987	250.7	32.7	-72.5	10.2
2026-01-17 19:12:41.091367	251.5	32.8	-72.3	10.1
2026-01-17 19:12:43.337052	252.3	33.0	-72.6	11.3
2026-01-17 19:12:45.580045	253.1	33.1	-72.3	10.9
2026-01-17 19:12:47.823933	254.0	33.2	-72.3	11.7
2026-01-17 19:12:50.069397	254.8	33.2	-72.1	10.8
2026-01-17 19:12:52.317305	255.7	33.3	-71.5	10.2
2026-01-17 19:12:54.563304	256.5	33.4	-72.4	10.7
2026-01-17 19:12:56.807185	257.4	33.5	-71.6	10.3
2026-01-17 19:12:59.052663	258.2	33.5	-72.4	10.8
2026-01-17 19:13:01.297343	259.1	33.6	-72.4	9.9
2026-01-17 19:13:03.545219	260.0	33.6	-71.8	10.3
2026-01-17 19:13:05.788945	260.8	33.7	-71.8	11.5
2026-01-17 19:13:08.036092	261.7	33.7	-70.9	6.5
2026-01-17 19:13:10.279363	262.6	33.7	-72.0	11.1
2026-01-17 19:13:12.525047	263.4	33.8	-70.4	7.8
2026-01-17 19:13:14.768329	264.3	33.8	-70.2	7.8
2026-01-17 19:13:17.013675	265.2	33.8	-70.8	8.7
2026-01-17 19:13:19.260783	266.0	33.8	-69.8	7.6
2026-01-17 19:13:21.504840	266.9	33.8	-70.1	8.6
2026-01-17 19:13:23.751468	267.8	33.8	-69.0	4.8
2026-01-17 19:13:25.995485	268.7	33.7	-70.0	7.8
2026-01-17 19:13:28.239947	269.5	33.7	-70.1	7.6
2026-01-17 19:13:30.485373	270.4	33.7	-70.9	6.3
2026-01-17 19:13:32.730083	271.3	33.6	-70.9	8.2
2026-01-17 19:13:34.973600	272.1	33.6	-71.0	7.1
2026-01-17 19:13:37.218463	273.0	33.5	-70.5	6.5
2026-01-17 19:13:39.467134	273.8	33.4	-71.7	6.2
2026-01-17 19:13:41.714666	274.7	33.4	-71.6	6.9
2026-01-17 19:13:43.960226	275.5	33.3	-71.6	8.1
2026-01-17 19:13:46.205377	276.4	33.2	-71.1	7.0
2026-01-17 19:13:48.449398	277.2	33.1	-70.9	6.6
2026-01-17 19:13:50.694237	278.0	33.0	-71.7	6.6
2026-01-17 19:13:52.935172	278.9	32.9	-70.2	5.3
2026-01-17 19:13:55.180188	279.7	32.8	-69.9	4.6
2026-01-17 19:13:57.423652	280.5	32.7	-70.0	6.6
2026-01-17 19:13:59.670503	281.3	32.6	-68.8	2.9
2026-01-17 19:14:01.915159	282.1	32.4	-71.1	6.5
2026-01-17 19:14:04.161823	282.9	32.3	-70.3	4.1
2026-01-17 19:14:06.409508	283.7	32.2	-70.2	5.6
2026-01-17 19:14:08.655184	284.5	32.0	-70.9	1.2
2026-01-17 19:14:10.897682	285.3	31.9	-70.6	6.0
2026-01-17 19:14:13.140600	286.1	31.7	-70.0	2.8
2026-01-17 19:14:15.387040	286.8	31.6	-69.5	3.2
2026-01-17 19:14:17.630463	287.6	31.4	-70.1	2.2
2026-01-17 19:14:19.870571	288.3	31.2	-69.4	1.2
2026-01-17 19:14:22.115132	289.1	31.1	-68.4	1.0
2026-01-17 19:14:24.365663	289.8	30.9	-66.3	0.0
2026-01-17 19:14:26.606817	290.5	30.7	-68.0	0.0
2026-01-17 19:14:28.850483	291.2	30.5	-69.4	3.6
2026-01-17 19:14:31.094734	291.9	30.3	-68.5	2.9
2026-01-17 19:14:33.338699	292.6	30.1	-68.9	0.0
2026-01-17 19:14:35.585340	293.3	29.9	-67.6	0.0
2026-01-17 19:14:37.830655	294.0	29.7	-68.7	3.1
2026-01-17 19:14:40.072685	294.7	29.5	-69.7	3.3
2026-01-17 19:14:42.320179	295.4	29.3	-70.2	4.7
2026-01-17 19:14:44.566895	296.0	29.1	-69.0	2.0
2026-01-17 19:14:46.810352	296.7	28.9	-68.0	0.0
2026-01-17 19:14:49.056328	297.3	28.7	-69.9	1.8
2026-01-17 19:14:51.298018	298.0	28.5	-69.6	3.4
2026-01-17 19:14:53.545864	298.6	28.3	-70.2	3.6
2026-01-17 19:14:55.791318	299.2	28.1	-69.9	4.5
2026-01-17 19:14:58.034356	299.8	27.9	-69.8	3.4
2026-01-17 19:15:00.280545	300.4	27.6	-67.8	0.0
2026-01-17 19:15:02.525824	301.0	27.4	-70.1	4.4
2026-01-17 19:15:04.777225	301.6	27.2	-68.6	0.0
2026-01-17 19:15:07.019509	302.2	27.0	-70.1	2.1
2026-01-17 19:15:09.265849	302.7	26.7	-69.1	1.4
2026-01-17 19:15:11.512230	303.3	26.5	-68.9	2.3
2026-01-17 19:15:13.756778	303.9	26.3	-69.8	2.6
2026-01-17 19:15:16.001034	304.4	26.1	-70.5	3.9
2026-01-17 19:15:18.247753	304.9	25.8	-69.6	3.9
2026-01-17 19:15:20.493604	305.5	25.6	-69.3	0.0
2026-01-17 19:15:22.737648	306.0	25.4	-70.4	0.6
2026-01-17 19:15:24.982521	306.5	25.2	-69.4	0.0
2026-01-17 19:15:27.227699	307.0	24.9	-70.2	0.0
2026-01-17 19:15:29.474291	307.5	24.7	-71.5	1.9
2026-01-17 19:15:31.720322	308.0	24.5	-70.1	0.0
2026-01-17 19:15:33.965405	308.5	24.2	-69.6	0.0
2026-01-17 19:15:36.210298	309.0	24.0	-69.6	0.0
2026-01-17 19:15:38.457094	309.5	23.8	-65.0	0.0
2026-01-17 19:15:40.701246	309.9	23.5	-64.2	0.0
2026-01-17 19:15:42.946327	310.4	23.3	-69.7	0.0
2026-01-17 19:15:45.189826	310.8	23.1	-67.7	0.0
2026-01-17 19:15:47.438532	311.3	22.9	-68.2	0.0
2026-01-17 19:15:49.682895	311.7	22.6	-67.3	0.0
2026-01-17 19:15:51.931348	312.2	22.4	-65.9	0.0
2026-01-17 19:15:54.174322	312.6	22.2	-68.1	0.0
2026-01-17 19:15:56.419695	313.0	21.9	-67.8	0.0
2026-01-17 19:15:58.663850	313.4	21.7	-68.3	0.0
2026-01-17 19:16:00.905981	313.8	21.5	-65.6	0.0
2026-01-17 19:16:03.150387	314.2	21.3	-68.9	0.0
2026-01-17 19:16:05.396081	314.6	21.0	-67.1	0.0
2026-01-17 19:16:07.642255	315.0	20.8	-68.2	0.0
2026-01-17 19:16:09.887970	315.4	20.6	-68.6	0.0
2026-01-17 19:16:12.131672	315.8	20.4	-68.2	0.0
2026-01-17 19:16:14.380380	316.2	20.1	-69.0	0.0
2026-01-17 19:16:16.627370	316.5	19.9	-68.1	0.0
2026-01-17 19:16:18.872974	316.9	19.7	-68.2	0.0
2026-01-17 19:16:21.117903	317.3	19.5	-68.5	0.0
2026-01-17 19:16:23.363663	317.6	19.3	-67.3	0.0
2026-01-17 19:16:25.607957	318.0	19.0	-63.8	0.0
2026-01-17 19:16:27.856801	318.3	18.8	-64.8	0.0
2026-01-17 19:16:30.101974	318.7	18.6	-67.8	0.0
2026-01-17 19:16:32.345476	319.0	18.4	-67.5	0.0
2026-01-17 19:16:34.589180	319.3	18.2	-68.8	0.0
2026-01-17 19:16:36.832157	319.7	18.0	-66.0	0.0
2026-01-17 19:16:39.076939	320.0	17.7	-67.0	0.0
2026-01-17 19:16:41.321448	320.3	17.5	-68.5	0.0
2026-01-17 19:16:43.570152	320.6	17.3	-67.7	0.0
2026-01-17 19:16:45.818574	320.9	17.1	-69.0	0.0
2026-01-17 19:16:48.064677	321.2	16.9	-70.0	0.0
2026-01-17 19:16:50.308241	321.5	16.7	-68.8	0.0
2026-01-17 19:16:52.552256	321.8	16.5	-68.1	0.0
2026-01-17 19:16:54.797935	322.1	16.3	-66.0	0.0
2026-01-17 19:16:57.041805	322.4	16.1	-67.4	0.0
2026-01-17 19:16:59.287589	322.7	15.9	-67.6	0.0
2026-01-17 19:17:01.531535	323.0	15.7	-62.3	0.0
2026-01-17 19:17:03.776980	323.3	15.5	-68.0	0.0
2026-01-17 19:17:06.023419	323.5	15.3	-68.5	0.0
2026-01-17 19:17:08.269889	323.8	15.1	-68.5	0.0
2026-01-17 19:17:10.515135	324.1	14.9	-68.3	0.0
2026-01-17 19:17:12.757919	324.3	14.7	-68.1	0.0
2026-01-17 19:17:15.004950	324.6	14.5	-67.9	0.0
2026-01-17 19:17:17.251330	324.9	14.3	-67.2	0.0
2026-01-17 19:17:19.495692	325.1	14.1	-67.8	0.0
2026-01-17 19:17:21.738689	325.4	13.9	-67.7	0.0
2026-01-17 19:17:23.981279	325.6	13.7	-66.7	0.0
2026-01-17 19:17:26.229380	325.9	13.5	-67.7	0.0
2026-01-17 19:17:28.472830	326.1	13.3	-66.5	0.0
2026-01-17 19:17:30.716299	326.3	13.1	-65.6	0.0
2026-01-17 19:17:32.960752	326.6	13.0	-67.8	0.0
2026-01-17 19:17:35.205915	326.8	12.8	-68.5	0.0
2026-01-17 19:17:37.448599	327.0	12.6	-67.2	0.0
2026-01-17 19:17:39.694147	327.3	12.4	-67.6	0.0
2026-01-17 19:17:41.940264	327.5	12.2	-62.7	0.0
2026-01-17 19:17:44.188397	327.7	12.0	-63.5	0.0
2026-01-17 19:17:46.436124	327.9	11.9	-65.7	0.0
2026-01-17 19:17:48.682366	328.2	11.7	-65.8	0.0
2026-01-17 19:17:50.924438	328.4	11.5	-66.6	0.0
2026-01-17 19:17:53.168219	328.6	11.3	-64.4	0.0
2026-01-17 19:17:55.414479	328.8	11.1	-64.6	0.0
2026-01-17 19:17:57.661946	329.0	11.0	-65.9	0.0
2026-01-17 19:17:59.908656	329.2	10.8	-67.8	0.0
2026-01-17 19:18:02.152301	329.4	10.6	-68.2	0.0
2026-01-17 19:18:04.396055	329.6	10.4	-69.6	0.0
2026-01-17 19:18:06.641907	329.8	10.3	-72.1	0.0
2026-01-17 19:18:08.887670	330.0	10.1	-73.6	0.0
#Closed at: 2026-01-17 19:08:22.361182