passes_logs/2026/01/17/planumMaritime01/planumMaritime01__20260117_175100_METEOR-M2_3_rec.log

#Pass ID: 20260117_175100_METEOR-M2 3
#Satellite: METEOR-M2 3
#Configuration: METEOR-M2 3
#Start time: 2026-01-17 17:51:05.608138

#LorettStation: 1.0.0 05.05.2024
#Station: planumMaritime01
#Location: 37.49445 lon 55.92918 lat
#TLE: 1 57166U 23091A   26016.61227904 -.00000003  00000+0  17639-4 0  9999
#TLE: 2 57166  98.6328  74.5339 0002991 243.3309 116.7564 14.24030641132943

#Time	Az	El	Level	SNR
2026-01-17 17:51:07.770196	163.8	10.2	-79.8	0.0
2026-01-17 17:51:10.020085	163.8	10.4	-79.8	0.5
2026-01-17 17:51:12.268095	163.8	10.6	-77.8	5.1
2026-01-17 17:51:14.516307	163.8	10.8	-77.5	6.4
2026-01-17 17:51:16.764452	163.9	11.0	-77.6	6.0
2026-01-17 17:51:19.012230	163.9	11.2	-78.1	6.4
2026-01-17 17:51:21.261176	163.9	11.4	-77.6	6.9
2026-01-17 17:51:23.506258	163.9	11.6	-77.3	6.7
2026-01-17 17:51:25.752933	163.9	11.8	-77.8	7.0
2026-01-17 17:51:28.000913	164.0	12.1	-77.7	7.2
2026-01-17 17:51:30.245668	164.0	12.3	-77.3	6.7
2026-01-17 17:51:32.494545	164.0	12.5	-77.1	6.1
2026-01-17 17:51:34.741952	164.0	12.7	-77.2	6.8
2026-01-17 17:51:36.992477	164.0	12.9	-77.4	6.9
2026-01-17 17:51:39.240181	164.1	13.2	-77.7	7.1
2026-01-17 17:51:41.487874	164.1	13.4	-77.1	6.5
2026-01-17 17:51:43.735946	164.1	13.6	-77.4	6.7
2026-01-17 17:51:45.986505	164.1	13.8	-77.8	7.5
2026-01-17 17:51:48.235396	164.2	14.1	-77.4	6.4
2026-01-17 17:51:50.483757	164.2	14.3	-77.0	7.8
2026-01-17 17:51:52.728766	164.2	14.5	-77.3	8.0
2026-01-17 17:51:54.977501	164.2	14.8	-77.3	8.0
2026-01-17 17:51:57.225910	164.3	15.0	-76.6	6.5
2026-01-17 17:51:59.476849	164.3	15.3	-77.1	8.0
2026-01-17 17:52:01.721998	164.3	15.5	-76.9	7.4
2026-01-17 17:52:03.977070	164.3	15.8	-77.0	8.4
2026-01-17 17:52:06.227850	164.3	16.0	-77.5	8.1
2026-01-17 17:52:08.477006	164.4	16.3	-77.0	8.5
2026-01-17 17:52:10.725336	164.4	16.5	-77.0	7.8
2026-01-17 17:52:12.974529	164.4	16.8	-77.7	8.9
2026-01-17 17:52:15.225245	164.5	17.1	-77.4	9.0
2026-01-17 17:52:17.471868	164.5	17.3	-76.8	7.2
2026-01-17 17:52:19.720895	164.5	17.6	-77.5	9.1
2026-01-17 17:52:21.969844	164.5	17.9	-77.3	8.8
2026-01-17 17:52:24.215420	164.6	18.1	-77.8	9.1
2026-01-17 17:52:26.464618	164.6	18.4	-77.6	8.1
2026-01-17 17:52:28.717059	164.6	18.7	-77.0	8.8
2026-01-17 17:52:30.965511	164.6	19.0	-76.9	9.2
2026-01-17 17:52:33.213704	164.7	19.3	-76.2	8.3
2026-01-17 17:52:35.462096	164.7	19.6	-76.7	7.9
2026-01-17 17:52:37.710731	164.7	19.8	-76.4	8.1
2026-01-17 17:52:39.959817	164.8	20.1	-77.0	8.9
2026-01-17 17:52:42.207307	164.8	20.4	-76.3	8.5
2026-01-17 17:52:44.460854	164.8	20.8	-76.2	6.8
2026-01-17 17:52:46.709598	164.9	21.1	-76.4	6.0
2026-01-17 17:52:48.956890	164.9	21.4	-76.0	9.6
2026-01-17 17:52:51.205560	164.9	21.7	-75.8	8.1
2026-01-17 17:52:53.456810	165.0	22.0	-76.5	8.5
2026-01-17 17:52:55.706299	165.0	22.3	-76.2	8.4
2026-01-17 17:52:57.954793	165.0	22.7	-76.7	9.5
2026-01-17 17:53:00.201036	165.1	23.0	-75.4	5.2
2026-01-17 17:53:02.450678	165.1	23.3	-75.8	7.8
2026-01-17 17:53:04.698328	165.1	23.7	-75.0	6.6
2026-01-17 17:53:06.947378	165.2	24.0	-76.0	8.4
2026-01-17 17:53:09.195302	165.2	24.4	-75.6	5.0
2026-01-17 17:53:11.445483	165.2	24.7	-76.4	7.0
2026-01-17 17:53:13.694968	165.3	25.1	-76.5	9.6
2026-01-17 17:53:15.943330	165.3	25.5	-76.3	8.6
2026-01-17 17:53:18.194630	165.4	25.8	-75.9	9.1
2026-01-17 17:53:20.442902	165.4	26.2	-76.4	8.5
2026-01-17 17:53:22.690440	165.5	26.6	-76.4	9.0
2026-01-17 17:53:24.937325	165.5	27.0	-76.3	8.6
2026-01-17 17:53:27.185384	165.5	27.4	-75.0	8.6
2026-01-17 17:53:29.434824	165.6	27.8	-75.0	6.9
2026-01-17 17:53:31.679767	165.6	28.2	-76.2	8.3
2026-01-17 17:53:33.929737	165.7	28.6	-76.4	9.0
2026-01-17 17:53:36.179934	165.7	29.0	-76.2	8.1
2026-01-17 17:53:38.427067	165.8	29.5	-74.8	5.5
2026-01-17 17:53:40.674613	165.8	29.9	-75.9	7.9
2026-01-17 17:53:42.925224	165.9	30.3	-76.0	8.3
2026-01-17 17:53:45.171661	165.9	30.8	-75.6	7.2
2026-01-17 17:53:47.422528	166.0	31.2	-76.4	9.2
2026-01-17 17:53:49.673016	166.0	31.7	-76.4	7.6
2026-01-17 17:53:51.919517	166.1	32.1	-76.3	6.7
2026-01-17 17:53:54.167828	166.2	32.6	-75.6	4.9
2026-01-17 17:53:56.415982	166.2	33.1	-76.7	7.4
2026-01-17 17:53:58.665177	166.3	33.6	-76.8	9.2
2026-01-17 17:54:00.912907	166.3	34.1	-76.4	9.0
2026-01-17 17:54:03.162881	166.4	34.6	-76.0	7.0
2026-01-17 17:54:05.413408	166.5	35.1	-77.1	9.3
2026-01-17 17:54:07.662825	166.5	35.6	-77.5	9.4
2026-01-17 17:54:09.911168	166.6	36.1	-76.9	8.5
2026-01-17 17:54:12.156565	166.7	36.7	-77.3	10.5
2026-01-17 17:54:14.404205	166.8	37.2	-76.5	7.7
2026-01-17 17:54:16.650637	166.8	37.8	-76.6	8.8
2026-01-17 17:54:18.901518	166.9	38.4	-77.7	10.4
2026-01-17 17:54:21.150498	167.0	38.9	-77.4	8.1
2026-01-17 17:54:23.400067	167.1	39.5	-77.8	9.2
2026-01-17 17:54:25.652420	167.2	40.1	-77.5	6.9
2026-01-17 17:54:27.902258	167.3	40.7	-77.9	8.0
2026-01-17 17:54:30.154082	167.4	41.3	-78.0	7.1
2026-01-17 17:54:32.403966	167.5	42.0	-77.5	9.1
2026-01-17 17:54:34.653424	167.6	42.6	-77.3	8.9
2026-01-17 17:54:36.901128	167.7	43.3	-77.1	7.2
2026-01-17 17:54:39.149096	167.8	43.9	-77.3	8.1
2026-01-17 17:54:41.398736	167.9	44.6	-77.1	8.7
2026-01-17 17:54:43.647374	168.0	45.3	-77.3	9.5
2026-01-17 17:54:45.898093	168.1	46.0	-76.7	7.6
2026-01-17 17:54:48.143857	168.3	46.7	-77.2	9.1
2026-01-17 17:54:50.394727	168.4	47.4	-76.5	6.5
2026-01-17 17:54:52.641950	168.5	48.1	-76.3	5.2
2026-01-17 17:54:54.892774	168.7	48.9	-77.3	6.3
2026-01-17 17:54:57.139396	168.8	49.6	-77.2	6.6
2026-01-17 17:54:59.388267	169.0	50.4	-77.1	8.0
2026-01-17 17:55:01.637980	169.2	51.2	-77.2	6.7
2026-01-17 17:55:03.885170	169.3	52.0	-76.9	4.7
2026-01-17 17:55:06.135365	169.5	52.8	-77.2	4.9
2026-01-17 17:55:08.385473	169.7	53.6	-78.0	7.6
2026-01-17 17:55:10.632688	169.9	54.4	-78.1	7.9
2026-01-17 17:55:12.883702	170.2	55.3	-77.8	5.2
2026-01-17 17:55:15.129350	170.4	56.1	-77.9	4.3
2026-01-17 17:55:17.375232	170.6	57.0	-78.8	5.5
2026-01-17 17:55:19.623028	170.9	57.9	-78.6	5.2
2026-01-17 17:55:21.870725	171.2	58.8	-78.5	6.0
2026-01-17 17:55:24.120073	171.5	59.7	-78.5	5.4
2026-01-17 17:55:26.369664	171.8	60.6	-78.2	4.0
2026-01-17 17:55:28.618634	172.2	61.6	-78.2	5.0
2026-01-17 17:55:30.868014	172.5	62.5	-78.0	1.6
2026-01-17 17:55:33.117452	172.9	63.5	-78.4	7.0
2026-01-17 17:55:35.363011	173.4	64.4	-78.1	6.6
2026-01-17 17:55:37.610059	173.9	65.4	-78.0	5.5
2026-01-17 17:55:39.858489	174.4	66.4	-78.7	8.4
2026-01-17 17:55:42.109682	175.0	67.4	-79.0	9.7
2026-01-17 17:55:44.355372	175.6	68.5	-78.5	9.5
2026-01-17 17:55:46.605436	176.3	69.5	-78.3	8.8
2026-01-17 17:55:48.854037	177.1	70.5	-78.0	9.2
2026-01-17 17:55:51.102130	177.9	71.6	-78.0	6.7
2026-01-17 17:55:53.350137	178.9	72.6	-78.0	6.6
2026-01-17 17:55:55.597864	180.0	73.7	-77.8	5.3
2026-01-17 17:55:57.846793	181.3	74.7	-77.9	7.7
2026-01-17 17:56:00.095125	182.7	75.8	-77.5	9.3
2026-01-17 17:56:02.343941	184.5	76.8	-78.3	9.2
2026-01-17 17:56:04.596006	186.5	77.9	-78.9	10.1
2026-01-17 17:56:06.846572	188.9	78.9	-78.8	9.8
2026-01-17 17:56:09.096061	191.8	79.9	-78.9	9.1
2026-01-17 17:56:11.344689	195.3	80.9	-77.9	6.3
2026-01-17 17:56:13.593865	199.7	81.9	-78.1	7.6
2026-01-17 17:56:15.845303	205.3	82.8	-78.8	8.2
2026-01-17 17:56:18.093434	212.4	83.6	-76.5	5.4
2026-01-17 17:56:20.342689	221.3	84.3	-78.1	7.7
2026-01-17 17:56:22.590168	232.4	84.8	-78.2	8.4
2026-01-17 17:56:24.837528	245.4	85.1	-77.1	5.9
2026-01-17 17:56:27.086939	259.2	85.1	-77.7	7.6
2026-01-17 17:56:29.335069	272.3	84.9	-77.6	7.7
2026-01-17 17:56:31.586690	283.7	84.4	-76.3	2.8
2026-01-17 17:56:33.838146	293.0	83.7	-75.5	3.8
2026-01-17 17:56:36.087839	300.3	82.9	-75.7	4.3
2026-01-17 17:56:38.336752	306.0	82.0	-76.0	1.5
2026-01-17 17:56:40.588158	310.5	81.1	-76.8	5.9
2026-01-17 17:56:42.838876	314.2	80.1	-74.9	3.8
2026-01-17 17:56:45.086769	317.2	79.0	-74.8	0.6
2026-01-17 17:56:47.335718	319.6	78.0	-75.6	5.1
2026-01-17 17:56:49.583704	321.7	77.0	-74.7	0.0
2026-01-17 17:56:51.830556	323.4	75.9	-75.5	3.6
2026-01-17 17:56:54.078603	324.9	74.9	-74.5	3.6
2026-01-17 17:56:56.329137	326.2	73.8	-75.3	3.4
2026-01-17 17:56:58.577001	327.3	72.8	-75.8	2.3
2026-01-17 17:57:00.826087	328.3	71.7	-75.2	0.0
2026-01-17 17:57:03.075040	329.2	70.7	-75.9	1.5
2026-01-17 17:57:05.321250	330.0	69.6	-75.2	1.4
2026-01-17 17:57:07.568246	330.7	68.6	-77.7	0.0
2026-01-17 17:57:09.816483	331.4	67.6	-77.4	0.0
2026-01-17 17:57:12.065807	331.9	66.6	-76.6	0.0
2026-01-17 17:57:14.311831	332.5	65.6	-76.1	2.4
2026-01-17 17:57:16.561523	332.9	64.6	-75.3	0.0
2026-01-17 17:57:18.810499	333.4	63.6	-74.7	0.0
2026-01-17 17:57:21.057460	333.8	62.7	-75.9	2.3
2026-01-17 17:57:23.308051	334.2	61.7	-76.1	4.4
2026-01-17 17:57:25.556465	334.5	60.8	-76.4	4.8
2026-01-17 17:57:27.806068	334.9	59.9	-77.7	5.8
2026-01-17 17:57:30.056913	335.2	59.0	-77.6	5.3
2026-01-17 17:57:32.306744	335.4	58.1	-77.7	5.3
2026-01-17 17:57:34.556436	335.7	57.2	-76.4	4.4
2026-01-17 17:57:36.807012	336.0	56.3	-76.5	4.0
2026-01-17 17:57:39.056803	336.2	55.4	-77.9	7.3
2026-01-17 17:57:41.307540	336.4	54.6	-75.3	2.6
2026-01-17 17:57:43.557406	336.6	53.8	-77.6	6.9
2026-01-17 17:57:45.806153	336.8	52.9	-77.6	4.7
2026-01-17 17:57:48.054317	337.0	52.1	-76.8	5.1
2026-01-17 17:57:50.303069	337.2	51.3	-76.9	5.5
2026-01-17 17:57:52.552408	337.4	50.6	-76.7	4.6
2026-01-17 17:57:54.801811	337.5	49.8	-77.2	8.4
2026-01-17 17:57:57.055039	337.7	49.0	-76.4	3.9
2026-01-17 17:57:59.303660	337.8	48.3	-75.8	4.9
2026-01-17 17:58:01.576894	338.0	47.6	-75.6	4.1
2026-01-17 17:58:03.826088	338.1	46.8	-73.6	0.3
2026-01-17 17:58:06.075440	338.3	46.1	-75.3	5.9
2026-01-17 17:58:08.325948	338.4	45.4	-74.8	2.0
2026-01-17 17:58:10.575105	338.5	44.8	-74.1	2.7
2026-01-17 17:58:12.823217	338.6	44.1	-74.4	4.0
2026-01-17 17:58:15.074489	338.7	43.4	-76.2	6.3
2026-01-17 17:58:17.321629	338.8	42.8	-74.2	3.2
2026-01-17 17:58:19.569870	338.9	42.1	-74.7	4.0
2026-01-17 17:58:21.820548	339.0	41.5	-70.4	0.0
2026-01-17 17:58:24.068422	339.1	40.9	-73.7	0.3
2026-01-17 17:58:26.319851	339.2	40.3	-73.9	2.3
2026-01-17 17:58:28.569230	339.3	39.7	-73.3	0.0
2026-01-17 17:58:30.822949	339.4	39.1	-73.8	0.9
2026-01-17 17:58:33.072019	339.5	38.5	-73.3	1.0
2026-01-17 17:58:35.323204	339.6	38.0	-73.4	1.4
2026-01-17 17:58:37.573411	339.6	37.4	-72.9	0.0
2026-01-17 17:58:39.821207	339.7	36.9	-72.9	0.0
2026-01-17 17:58:42.071837	339.8	36.3	-72.7	1.5
2026-01-17 17:58:44.317686	339.9	35.8	-72.2	0.0
2026-01-17 17:58:46.568095	339.9	35.3	-72.8	0.0
2026-01-17 17:58:48.815922	340.0	34.8	-72.5	0.0
2026-01-17 17:58:51.063520	340.1	34.3	-72.2	0.0
2026-01-17 17:58:53.315194	340.1	33.8	-72.4	0.0
2026-01-17 17:58:55.563112	340.2	33.3	-72.2	0.0
2026-01-17 17:58:57.811443	340.3	32.8	-72.0	0.0
2026-01-17 17:59:00.062415	340.3	32.3	-71.8	0.0
2026-01-17 17:59:02.311644	340.4	31.9	-71.0	0.0
2026-01-17 17:59:04.559254	340.4	31.4	-71.8	0.0
2026-01-17 17:59:06.809117	340.5	31.0	-71.9	0.4
2026-01-17 17:59:09.056628	340.5	30.5	-71.1	0.0
2026-01-17 17:59:11.302993	340.6	30.1	-70.6	0.0
2026-01-17 17:59:13.552649	340.6	29.7	-72.6	0.0
2026-01-17 17:59:15.799774	340.7	29.2	-69.7	0.0
2026-01-17 17:59:18.048487	340.8	28.8	-72.4	0.0
2026-01-17 17:59:20.297988	340.8	28.4	-71.5	0.0
2026-01-17 17:59:22.549600	340.8	28.0	-71.2	0.0
2026-01-17 17:59:24.798155	340.9	27.6	-71.5	0.0
2026-01-17 17:59:27.045738	340.9	27.2	-71.1	0.0
2026-01-17 17:59:29.293780	341.0	26.8	-71.8	0.0
2026-01-17 17:59:31.542282	341.0	26.4	-72.4	0.0
2026-01-17 17:59:33.789429	341.1	26.1	-69.5	0.0
2026-01-17 17:59:36.037563	341.1	25.7	-71.2	0.0
2026-01-17 17:59:38.285618	341.2	25.3	-70.9	0.0
2026-01-17 17:59:40.536066	341.2	25.0	-71.5	0.0
2026-01-17 17:59:42.785132	341.2	24.6	-72.4	0.0
2026-01-17 17:59:45.032962	341.3	24.2	-72.3	0.0
2026-01-17 17:59:47.281487	341.3	23.9	-72.5	0.0
2026-01-17 17:59:49.529514	341.4	23.6	-70.6	0.0
2026-01-17 17:59:51.775865	341.4	23.2	-69.2	0.0
2026-01-17 17:59:54.025769	341.4	22.9	-71.4	0.0
2026-01-17 17:59:56.273219	341.5	22.6	-69.6	0.0
2026-01-17 17:59:58.522417	341.5	22.2	-71.3	0.0
2026-01-17 18:00:00.768032	341.5	21.9	-70.1	0.0
2026-01-17 18:00:03.015674	341.6	21.6	-70.7	0.0
2026-01-17 18:00:05.264496	341.6	21.3	-71.7	0.0
2026-01-17 18:00:07.511806	341.6	21.0	-70.1	0.0
2026-01-17 18:00:09.761465	341.7	20.7	-71.5	0.0
2026-01-17 18:00:12.010008	341.7	20.4	-72.2	0.0
2026-01-17 18:00:14.256440	341.7	20.1	-71.2	0.0
2026-01-17 18:00:16.502648	341.8	19.8	-70.5	0.0
2026-01-17 18:00:18.753987	341.8	19.5	-67.4	0.0
2026-01-17 18:00:21.003851	341.8	19.2	-71.4	0.0
2026-01-17 18:00:23.249530	341.9	18.9	-72.5	0.0
2026-01-17 18:00:25.497989	341.9	18.6	-71.5	0.0
2026-01-17 18:00:27.744160	341.9	18.4	-72.2	0.0
2026-01-17 18:00:29.989360	341.9	18.1	-71.9	0.0
2026-01-17 18:00:32.239141	342.0	17.8	-72.7	0.0
2026-01-17 18:00:34.485722	342.0	17.5	-70.2	0.0
2026-01-17 18:00:36.731335	342.0	17.3	-72.4	0.0
2026-01-17 18:00:38.979494	342.1	17.0	-72.8	0.0
2026-01-17 18:00:41.226110	342.1	16.8	-70.7	0.0
2026-01-17 18:00:43.474527	342.1	16.5	-68.5	0.0
2026-01-17 18:00:45.723421	342.1	16.2	-73.1	0.0
2026-01-17 18:00:47.974858	342.2	16.0	-72.9	0.0
2026-01-17 18:00:50.221936	342.2	15.7	-73.2	0.0
2026-01-17 18:00:52.469119	342.2	15.5	-72.8	0.0
2026-01-17 18:00:54.716011	342.2	15.3	-71.7	0.0
2026-01-17 18:00:56.963586	342.3	15.0	-71.4	0.0
2026-01-17 18:00:59.211563	342.3	14.8	-74.0	0.0
2026-01-17 18:01:01.459651	342.3	14.5	-72.9	0.0
2026-01-17 18:01:03.710375	342.3	14.3	-70.9	0.0
2026-01-17 18:01:05.957738	342.4	14.1	-74.2	0.0
2026-01-17 18:01:08.203229	342.4	13.8	-74.2	0.0
2026-01-17 18:01:10.448958	342.4	13.6	-72.9	0.0
2026-01-17 18:01:12.698745	342.4	13.4	-73.5	0.0
2026-01-17 18:01:14.944904	342.5	13.2	-73.0	0.0
2026-01-17 18:01:17.192096	342.5	12.9	-73.8	0.0
2026-01-17 18:01:19.441460	342.5	12.7	-70.9	0.0
2026-01-17 18:01:21.688743	342.5	12.5	-73.1	0.0
2026-01-17 18:01:23.939068	342.6	12.3	-70.9	0.0
2026-01-17 18:01:26.187498	342.6	12.1	-72.9	0.0
2026-01-17 18:01:28.433315	342.6	11.9	-73.6	0.0
2026-01-17 18:01:30.684009	342.6	11.7	-74.3	0.0
2026-01-17 18:01:32.933498	342.7	11.4	-72.1	0.0
2026-01-17 18:01:35.184346	342.7	11.2	-73.8	0.0
2026-01-17 18:01:37.433873	342.7	11.0	-71.5	0.0
2026-01-17 18:01:39.681339	342.7	10.8	-72.0	0.0
2026-01-17 18:01:41.929454	342.7	10.6	-73.2	0.0
2026-01-17 18:01:44.176007	342.8	10.4	-73.6	0.0
2026-01-17 18:01:46.421036	342.8	10.2	-75.7	0.0
2026-01-17 18:01:48.667553	342.8	10.0	-79.6	0.0
#Closed at: 2026-01-17 17:51:00.614759