passes_logs/2026/01/17/planumMaritime01/planumMaritime01__20260117_062233_METEOR-M2_3_rec.log

#Pass ID: 20260117_062233_METEOR-M2 3
#Satellite: METEOR-M2 3
#Configuration: METEOR-M2 3
#Start time: 2026-01-17 06:22:38.500763

#LorettStation: 1.0.0 05.05.2024
#Station: planumMaritime01
#Location: 37.49445 lon 55.92918 lat
#TLE: 1 57166U 23091A   26016.61227904 -.00000003  00000+0  17639-4 0  9999
#TLE: 2 57166  98.6328  74.5339 0002991 243.3309 116.7564 14.24030641132943

#Time	Az	El	Level	SNR
2026-01-17 06:22:40.662187	31.2	10.2	-78.1	0.0
2026-01-17 06:22:42.909663	31.4	10.3	-77.4	0.0
2026-01-17 06:22:45.154994	31.7	10.5	-75.4	0.0
2026-01-17 06:22:47.401065	31.9	10.7	-72.7	0.0
2026-01-17 06:22:49.648506	32.1	10.8	-69.8	0.0
2026-01-17 06:22:51.897335	32.3	11.0	-67.4	0.0
2026-01-17 06:22:54.146342	32.5	11.2	-67.2	0.0
2026-01-17 06:22:56.396663	32.8	11.4	-64.4	0.0
2026-01-17 06:22:58.644398	33.0	11.5	-63.3	0.0
2026-01-17 06:23:00.890083	33.2	11.7	-64.0	0.0
2026-01-17 06:23:03.136990	33.5	11.9	-65.6	0.0
2026-01-17 06:23:05.383373	33.7	12.1	-62.5	0.0
2026-01-17 06:23:07.625668	33.9	12.2	-63.4	0.0
2026-01-17 06:23:09.867532	34.2	12.4	-63.7	0.0
2026-01-17 06:23:12.108113	34.4	12.6	-66.0	0.0
2026-01-17 06:23:14.352055	34.7	12.8	-66.4	0.0
2026-01-17 06:23:16.597276	34.9	13.0	-66.1	0.0
2026-01-17 06:23:18.843624	35.2	13.2	-68.0	0.0
2026-01-17 06:23:21.094356	35.4	13.3	-68.3	0.0
2026-01-17 06:23:23.343252	35.7	13.5	-68.1	0.0
2026-01-17 06:23:25.591492	36.0	13.7	-67.0	0.0
2026-01-17 06:23:27.839290	36.2	13.9	-66.4	0.0
2026-01-17 06:23:30.084710	36.5	14.1	-66.0	0.0
2026-01-17 06:23:32.334122	36.8	14.3	-68.5	0.0
2026-01-17 06:23:34.580305	37.1	14.5	-65.4	0.0
2026-01-17 06:23:36.828102	37.3	14.6	-69.2	0.0
2026-01-17 06:23:39.078162	37.6	14.8	-68.9	0.0
2026-01-17 06:23:41.327890	37.9	15.0	-67.7	0.0
2026-01-17 06:23:43.576131	38.2	15.2	-69.5	0.0
2026-01-17 06:23:45.822230	38.5	15.4	-65.5	0.0
2026-01-17 06:23:48.069681	38.8	15.6	-68.6	0.0
2026-01-17 06:23:50.320090	39.1	15.8	-68.1	0.0
2026-01-17 06:23:52.566574	39.4	16.0	-68.5	0.0
2026-01-17 06:23:54.814212	39.7	16.2	-69.4	0.0
2026-01-17 06:23:57.062886	40.0	16.4	-69.9	0.0
2026-01-17 06:23:59.309607	40.3	16.6	-68.8	0.0
2026-01-17 06:24:01.558010	40.7	16.8	-69.1	0.0
2026-01-17 06:24:03.805633	41.0	17.0	-68.8	0.0
2026-01-17 06:24:06.051884	41.3	17.2	-67.7	0.0
2026-01-17 06:24:08.299962	41.7	17.4	-69.2	0.0
2026-01-17 06:24:10.548295	42.0	17.6	-69.0	0.0
2026-01-17 06:24:12.795671	42.3	17.8	-70.6	0.0
2026-01-17 06:24:15.045051	42.7	18.0	-70.6	0.0
2026-01-17 06:24:17.298154	43.1	18.2	-69.7	0.0
2026-01-17 06:24:19.548007	43.4	18.4	-70.1	0.0
2026-01-17 06:24:21.796484	43.8	18.6	-70.2	0.0
2026-01-17 06:24:24.045313	44.1	18.8	-70.2	0.0
2026-01-17 06:24:26.293047	44.5	19.1	-70.3	0.0
2026-01-17 06:24:28.539669	44.9	19.3	-71.7	0.0
2026-01-17 06:24:30.786862	45.3	19.5	-72.3	0.0
2026-01-17 06:24:33.035648	45.7	19.7	-71.3	0.0
2026-01-17 06:24:35.284467	46.1	19.9	-72.0	0.0
2026-01-17 06:24:37.532416	46.5	20.1	-73.1	0.0
2026-01-17 06:24:39.782805	46.9	20.3	-72.2	0.0
2026-01-17 06:24:42.030600	47.3	20.5	-70.3	0.0
2026-01-17 06:24:44.278722	47.7	20.7	-72.7	0.0
2026-01-17 06:24:46.526641	48.1	20.9	-72.9	0.0
2026-01-17 06:24:48.774143	48.5	21.2	-73.5	0.6
2026-01-17 06:24:51.021385	49.0	21.4	-72.3	0.0
2026-01-17 06:24:53.270218	49.4	21.6	-73.5	2.6
2026-01-17 06:24:55.518456	49.9	21.8	-73.4	1.0
2026-01-17 06:24:57.766739	50.3	22.0	-70.4	0.0
2026-01-17 06:25:00.018834	50.8	22.2	-73.9	2.5
2026-01-17 06:25:02.266386	51.2	22.4	-72.9	0.0
2026-01-17 06:25:04.513300	51.7	22.6	-73.7	0.8
2026-01-17 06:25:06.758921	52.2	22.9	-73.3	2.4
2026-01-17 06:25:09.009286	52.7	23.1	-72.7	0.0
2026-01-17 06:25:11.259094	53.1	23.3	-74.5	3.3
2026-01-17 06:25:13.505560	53.6	23.5	-73.6	2.7
2026-01-17 06:25:15.752575	54.1	23.7	-73.1	2.2
2026-01-17 06:25:18.003571	54.7	23.9	-72.5	2.0
2026-01-17 06:25:20.256737	55.2	24.1	-74.4	3.9
2026-01-17 06:25:22.504681	55.7	24.3	-72.5	0.0
2026-01-17 06:25:24.752941	56.2	24.5	-73.8	1.2
2026-01-17 06:25:26.998938	56.8	24.8	-72.8	0.0
2026-01-17 06:25:29.245897	57.3	25.0	-73.2	2.0
2026-01-17 06:25:31.492058	57.9	25.2	-72.9	0.5
2026-01-17 06:25:33.741703	58.4	25.4	-74.6	1.7
2026-01-17 06:25:35.987678	59.0	25.6	-73.3	2.4
2026-01-17 06:25:38.237015	59.5	25.8	-73.7	2.0
2026-01-17 06:25:40.484863	60.1	26.0	-72.7	2.1
2026-01-17 06:25:42.732442	60.7	26.2	-74.7	6.2
2026-01-17 06:25:44.978242	61.3	26.4	-74.4	5.4
2026-01-17 06:25:47.225450	61.9	26.6	-74.5	4.9
2026-01-17 06:25:49.475030	62.5	26.8	-74.3	3.8
2026-01-17 06:25:51.722049	63.1	27.0	-73.3	5.0
2026-01-17 06:25:53.966924	63.8	27.1	-74.9	6.6
2026-01-17 06:25:56.211920	64.4	27.3	-75.6	7.2
2026-01-17 06:25:58.462095	65.0	27.5	-75.2	6.7
2026-01-17 06:26:00.712188	65.7	27.7	-75.2	7.4
2026-01-17 06:26:02.961904	66.3	27.9	-75.2	6.6
2026-01-17 06:26:05.212963	67.0	28.1	-74.8	4.3
2026-01-17 06:26:07.461115	67.6	28.2	-74.6	6.8
2026-01-17 06:26:09.708797	68.3	28.4	-74.8	3.4
2026-01-17 06:26:11.957122	69.0	28.6	-76.3	8.5
2026-01-17 06:26:14.204977	69.7	28.7	-75.9	7.7
2026-01-17 06:26:16.452585	70.4	28.9	-75.1	5.7
2026-01-17 06:26:18.702972	71.1	29.1	-74.7	8.6
2026-01-17 06:26:20.950015	71.8	29.2	-75.8	9.5
2026-01-17 06:26:23.200928	72.5	29.4	-76.1	9.1
2026-01-17 06:26:25.447002	73.2	29.5	-75.8	9.7
2026-01-17 06:26:27.694909	74.0	29.7	-75.7	8.5
2026-01-17 06:26:29.946969	74.7	29.8	-76.1	10.6
2026-01-17 06:26:32.196815	75.4	29.9	-75.1	5.2
2026-01-17 06:26:34.445186	76.2	30.1	-75.5	10.0
2026-01-17 06:26:36.693058	76.9	30.2	-76.5	10.6
2026-01-17 06:26:38.941271	77.7	30.3	-75.5	10.3
2026-01-17 06:26:41.189509	78.5	30.4	-76.2	10.5
2026-01-17 06:26:43.437021	79.2	30.5	-76.3	9.5
2026-01-17 06:26:45.685093	80.0	30.6	-75.2	5.8
2026-01-17 06:26:47.934805	80.8	30.7	-76.1	8.5
2026-01-17 06:26:50.181547	81.6	30.8	-74.8	6.3
2026-01-17 06:26:52.432806	82.4	30.9	-76.3	9.4
2026-01-17 06:26:54.682331	83.2	31.0	-75.7	7.0
2026-01-17 06:26:56.928197	84.0	31.1	-75.7	11.2
2026-01-17 06:26:59.176966	84.8	31.1	-76.4	9.6
2026-01-17 06:27:01.426595	85.6	31.2	-76.9	9.4
2026-01-17 06:27:03.674835	86.4	31.2	-76.8	10.3
2026-01-17 06:27:05.921217	87.2	31.3	-76.1	10.0
2026-01-17 06:27:08.169113	88.0	31.3	-76.6	11.0
2026-01-17 06:27:10.418087	88.8	31.4	-76.6	10.0
2026-01-17 06:27:12.664115	89.6	31.4	-76.9	9.8
2026-01-17 06:27:14.912766	90.4	31.5	-76.5	7.2
2026-01-17 06:27:17.159894	91.3	31.5	-76.9	9.9
2026-01-17 06:27:19.407298	92.1	31.5	-76.8	11.1
2026-01-17 06:27:21.656592	92.9	31.5	-76.4	9.9
2026-01-17 06:27:23.902397	93.7	31.5	-77.1	11.1
2026-01-17 06:27:26.150421	94.5	31.5	-76.8	10.6
2026-01-17 06:27:28.399817	95.4	31.5	-77.2	11.4
2026-01-17 06:27:30.650039	96.2	31.5	-77.1	11.1
2026-01-17 06:27:32.898936	97.0	31.4	-77.0	9.7
2026-01-17 06:27:35.147801	97.8	31.4	-77.3	10.4
2026-01-17 06:27:37.394752	98.6	31.4	-77.4	11.2
2026-01-17 06:27:39.641589	99.4	31.3	-77.3	12.3
2026-01-17 06:27:41.890252	100.3	31.3	-76.9	10.4
2026-01-17 06:27:44.139923	101.1	31.2	-77.2	12.3
2026-01-17 06:27:46.389289	101.9	31.2	-76.7	10.2
2026-01-17 06:27:48.638366	102.7	31.1	-77.0	10.5
2026-01-17 06:27:50.885998	103.5	31.0	-76.4	11.8
2026-01-17 06:27:53.133650	104.3	31.0	-76.5	10.8
2026-01-17 06:27:55.386059	105.1	30.9	-76.8	11.5
2026-01-17 06:27:57.632751	105.9	30.8	-77.0	11.4
2026-01-17 06:27:59.880933	106.6	30.7	-77.2	12.0
2026-01-17 06:28:02.132402	107.4	30.6	-76.7	10.9
2026-01-17 06:28:04.381195	108.2	30.5	-76.7	11.0
2026-01-17 06:28:06.626627	109.0	30.4	-76.4	9.0
2026-01-17 06:28:08.874098	109.7	30.3	-77.0	12.2
2026-01-17 06:28:11.122439	110.5	30.1	-77.3	12.6
2026-01-17 06:28:13.369347	111.2	30.0	-77.2	11.4
2026-01-17 06:28:15.616983	112.0	29.9	-77.5	12.7
2026-01-17 06:28:17.863702	112.7	29.7	-76.6	9.1
2026-01-17 06:28:20.113923	113.5	29.6	-77.6	10.2
2026-01-17 06:28:22.363310	114.2	29.5	-77.3	11.7
2026-01-17 06:28:24.611949	114.9	29.3	-77.6	12.7
2026-01-17 06:28:26.858577	115.6	29.2	-77.6	12.2
2026-01-17 06:28:29.107996	116.4	29.0	-77.5	12.2
2026-01-17 06:28:31.354469	117.1	28.8	-77.7	12.5
2026-01-17 06:28:33.601699	117.8	28.7	-78.0	12.3
2026-01-17 06:28:35.851347	118.4	28.5	-78.0	13.1
2026-01-17 06:28:38.100664	119.1	28.3	-77.9	12.1
2026-01-17 06:28:40.347550	119.8	28.2	-77.7	12.3
2026-01-17 06:28:42.596821	120.5	28.0	-77.7	12.7
2026-01-17 06:28:44.848637	121.1	27.8	-77.7	13.0
2026-01-17 06:28:47.099918	121.8	27.6	-77.7	12.0
2026-01-17 06:28:49.346992	122.4	27.5	-78.1	12.5
2026-01-17 06:28:51.595735	123.1	27.3	-77.8	12.1
2026-01-17 06:28:53.845201	123.7	27.1	-76.9	8.5
2026-01-17 06:28:56.094034	124.3	26.9	-77.7	11.8
2026-01-17 06:28:58.341042	124.9	26.7	-77.7	11.9
2026-01-17 06:29:00.591064	125.5	26.5	-77.6	10.5
2026-01-17 06:29:02.838057	126.1	26.3	-78.1	12.8
2026-01-17 06:29:05.089759	126.7	26.1	-78.3	12.6
2026-01-17 06:29:07.336369	127.3	25.9	-78.3	12.0
2026-01-17 06:29:09.584029	127.9	25.7	-78.2	12.1
2026-01-17 06:29:11.830720	128.5	25.5	-78.0	11.2
2026-01-17 06:29:14.078390	129.0	25.3	-78.1	11.6
2026-01-17 06:29:16.326369	129.6	25.1	-78.2	12.0
2026-01-17 06:29:18.576737	130.2	24.9	-78.3	11.7
2026-01-17 06:29:20.825636	130.7	24.7	-78.3	10.7
2026-01-17 06:29:23.073706	131.2	24.4	-78.6	12.0
2026-01-17 06:29:25.322488	131.8	24.2	-78.0	11.1
2026-01-17 06:29:27.573776	132.3	24.0	-78.6	11.9
2026-01-17 06:29:29.824618	132.8	23.8	-77.7	9.8
2026-01-17 06:29:32.073609	133.3	23.6	-78.0	12.1
2026-01-17 06:29:34.320433	133.8	23.4	-78.2	12.2
2026-01-17 06:29:36.568889	134.3	23.2	-77.8	12.4
2026-01-17 06:29:38.816164	134.8	23.0	-78.0	12.1
2026-01-17 06:29:41.065072	135.3	22.7	-78.0	12.1
2026-01-17 06:29:43.313860	135.8	22.5	-78.2	11.9
2026-01-17 06:29:45.562730	136.2	22.3	-78.1	11.6
2026-01-17 06:29:47.812187	136.7	22.1	-78.3	12.0
2026-01-17 06:29:50.059432	137.2	21.9	-77.9	11.9
2026-01-17 06:29:52.308275	137.6	21.7	-78.3	12.4
2026-01-17 06:29:54.556235	138.0	21.4	-78.1	12.6
2026-01-17 06:29:56.808937	138.5	21.2	-78.6	13.0
2026-01-17 06:29:59.058458	138.9	21.0	-78.4	12.0
2026-01-17 06:30:01.309705	139.4	20.8	-78.1	12.5
2026-01-17 06:30:03.558153	139.8	20.6	-78.2	12.5
2026-01-17 06:30:05.807450	140.2	20.4	-77.8	12.2
2026-01-17 06:30:08.056504	140.6	20.2	-78.3	11.6
2026-01-17 06:30:10.307229	141.0	20.0	-78.6	11.4
2026-01-17 06:30:12.555227	141.4	19.7	-78.4	12.4
2026-01-17 06:30:14.804809	141.8	19.5	-78.3	11.7
2026-01-17 06:30:17.052540	142.2	19.3	-78.0	10.4
2026-01-17 06:30:19.304685	142.6	19.1	-78.3	11.7
2026-01-17 06:30:21.553871	142.9	18.9	-78.1	9.2
2026-01-17 06:30:23.801150	143.3	18.7	-78.2	11.8
2026-01-17 06:30:26.047204	143.7	18.5	-77.8	10.6
2026-01-17 06:30:28.296432	144.0	18.3	-78.6	11.6
2026-01-17 06:30:30.542172	144.4	18.1	-78.8	11.8
2026-01-17 06:30:32.793375	144.8	17.9	-78.7	11.1
2026-01-17 06:30:35.040599	145.1	17.6	-78.7	10.2
2026-01-17 06:30:37.288038	145.5	17.4	-78.6	9.2
2026-01-17 06:30:39.538544	145.8	17.2	-78.8	10.4
2026-01-17 06:30:41.785819	146.1	17.0	-78.5	9.6
2026-01-17 06:30:44.037756	146.5	16.8	-78.4	9.4
2026-01-17 06:30:46.289928	146.8	16.6	-77.8	9.0
2026-01-17 06:30:48.536591	147.1	16.4	-78.4	9.1
2026-01-17 06:30:50.782358	147.4	16.2	-78.3	8.9
2026-01-17 06:30:53.028566	147.7	16.0	-77.7	7.7
2026-01-17 06:30:55.278117	148.1	15.8	-78.1	7.4
2026-01-17 06:30:57.529128	148.4	15.6	-76.8	4.7
2026-01-17 06:30:59.777920	148.7	15.4	-78.2	6.2
2026-01-17 06:31:02.025982	149.0	15.2	-76.9	6.9
2026-01-17 06:31:04.272205	149.3	15.0	-78.1	7.6
2026-01-17 06:31:06.521770	149.5	14.8	-78.5	8.8
2026-01-17 06:31:08.772908	149.8	14.6	-78.5	7.3
2026-01-17 06:31:11.021150	150.1	14.5	-78.3	9.2
2026-01-17 06:31:13.270188	150.4	14.3	-78.4	9.0
2026-01-17 06:31:15.520645	150.7	14.1	-78.6	8.2
2026-01-17 06:31:17.769300	150.9	13.9	-76.9	9.7
2026-01-17 06:31:20.017739	151.2	13.7	-79.0	8.8
2026-01-17 06:31:22.267116	151.5	13.5	-78.9	8.9
2026-01-17 06:31:24.516503	151.7	13.3	-78.9	8.4
2026-01-17 06:31:26.763877	152.0	13.1	-79.2	9.1
2026-01-17 06:31:29.011483	152.3	12.9	-79.1	9.4
2026-01-17 06:31:31.258627	152.5	12.8	-79.2	8.3
2026-01-17 06:31:33.506332	152.8	12.6	-79.1	9.9
2026-01-17 06:31:35.751597	153.0	12.4	-79.2	8.3
2026-01-17 06:31:38.000655	153.3	12.2	-79.2	7.9
2026-01-17 06:31:40.246968	153.5	12.0	-78.9	8.1
2026-01-17 06:31:42.493899	153.7	11.9	-79.2	8.5
2026-01-17 06:31:44.744832	154.0	11.7	-79.6	5.8
2026-01-17 06:31:46.992628	154.2	11.5	-78.8	6.1
2026-01-17 06:31:49.241478	154.4	11.3	-79.5	8.3
2026-01-17 06:31:51.488473	154.7	11.1	-79.8	8.5
2026-01-17 06:31:53.734153	154.9	11.0	-78.5	8.3
2026-01-17 06:31:55.983163	155.1	10.8	-79.6	2.7
2026-01-17 06:31:58.227635	155.3	10.6	-79.7	0.0
2026-01-17 06:32:00.473458	155.5	10.4	-84.4	0.0
2026-01-17 06:32:02.724146	155.8	10.3	-84.5	0.0
2026-01-17 06:32:04.972819	156.0	10.1	-85.5	0.0
#Closed at: 2026-01-17 06:22:33.506658