passes_logs/2026/01/17/planumMaritime01/planumMaritime01__20260117_073734_METOP-C_rec.log

#Pass ID: 20260117_073734_METOP-C
#Satellite: METOP-C
#Configuration: METOP-C
#Start time: 2026-01-17 07:37:39.839094

#LorettStation: 1.0.0 05.05.2024
#Station: planumMaritime01
#Location: 37.49445 lon 55.92918 lat
#TLE: 1 43689U 18087A   26016.59355496  .00000086  00000+0  59208-4 0  9996
#TLE: 2 43689  98.6876  78.8199 0000623 181.1520 178.9656 14.21498808373298

#Time	Az	El	Level	SNR
2026-01-17 07:37:44.022597	18.4	10.4	-64.6	0.0
2026-01-17 07:37:46.266553	18.5	10.6	-62.5	0.0
2026-01-17 07:37:48.514196	18.5	10.8	-61.2	0.0
2026-01-17 07:37:50.757329	18.6	11.0	-61.9	0.0
2026-01-17 07:37:53.002037	18.6	11.2	-60.3	0.0
2026-01-17 07:37:55.245621	18.6	11.4	-60.3	0.0
2026-01-17 07:37:57.491101	18.7	11.6	-59.6	0.0
2026-01-17 07:37:59.736663	18.7	11.8	-58.4	0.0
2026-01-17 07:38:01.983246	18.8	12.0	-58.6	0.0
2026-01-17 07:38:04.227864	18.8	12.2	-60.9	0.0
2026-01-17 07:38:06.477371	18.8	12.4	-60.2	0.0
2026-01-17 07:38:08.721188	18.9	12.6	-59.2	0.0
2026-01-17 07:38:10.967244	18.9	12.8	-61.7	0.0
2026-01-17 07:38:13.211923	19.0	13.1	-59.5	0.0
2026-01-17 07:38:15.457953	19.0	13.3	-60.2	0.0
2026-01-17 07:38:17.704396	19.1	13.5	-59.8	0.0
2026-01-17 07:38:19.946492	19.1	13.7	-60.6	0.0
2026-01-17 07:38:22.191176	19.2	14.0	-60.8	0.0
2026-01-17 07:38:24.437949	19.2	14.2	-61.7	0.0
2026-01-17 07:38:26.685960	19.3	14.4	-62.2	0.0
2026-01-17 07:38:28.929100	19.3	14.7	-63.2	0.0
2026-01-17 07:38:31.173456	19.4	14.9	-62.1	0.0
2026-01-17 07:38:33.418198	19.4	15.1	-57.0	0.0
2026-01-17 07:38:35.663476	19.5	15.4	-60.1	0.0
2026-01-17 07:38:37.910802	19.5	15.6	-60.1	0.0
2026-01-17 07:38:40.154243	19.6	15.9	-59.9	0.0
2026-01-17 07:38:42.400024	19.6	16.1	-60.3	0.0
2026-01-17 07:38:44.645336	19.7	16.4	-55.4	0.0
2026-01-17 07:38:46.890788	19.7	16.6	-60.2	0.0
2026-01-17 07:38:49.131500	19.8	16.9	-58.8	0.0
2026-01-17 07:38:51.379023	19.8	17.1	-60.8	0.0
2026-01-17 07:38:53.623453	19.9	17.4	-60.6	0.0
2026-01-17 07:38:55.867716	19.9	17.6	-59.6	0.0
2026-01-17 07:38:58.112790	20.0	17.9	-59.4	0.0
2026-01-17 07:39:00.356812	20.0	18.2	-58.7	0.0
2026-01-17 07:39:02.601570	20.1	18.5	-60.3	0.0
2026-01-17 07:39:04.846292	20.2	18.7	-61.4	0.0
2026-01-17 07:39:07.091254	20.2	19.0	-61.7	0.0
2026-01-17 07:39:09.334316	20.3	19.3	-61.7	0.0
2026-01-17 07:39:11.580546	20.4	19.6	-60.0	0.0
2026-01-17 07:39:13.825380	20.4	19.9	-62.8	0.0
2026-01-17 07:39:16.069753	20.5	20.2	-63.5	0.0
2026-01-17 07:39:18.317545	20.5	20.5	-63.7	0.0
2026-01-17 07:39:20.561635	20.6	20.8	-63.0	0.0
2026-01-17 07:39:22.811097	20.7	21.1	-57.5	0.0
2026-01-17 07:39:25.059228	20.8	21.4	-59.9	0.0
2026-01-17 07:39:27.305142	20.8	21.7	-59.9	0.0
2026-01-17 07:39:29.550180	20.9	22.0	-60.4	0.0
2026-01-17 07:39:31.798409	21.0	22.3	-59.3	0.0
2026-01-17 07:39:34.045132	21.0	22.6	-60.9	0.0
2026-01-17 07:39:36.292293	21.1	23.0	-61.0	0.0
2026-01-17 07:39:38.535942	21.2	23.3	-61.0	0.0
2026-01-17 07:39:40.783521	21.3	23.6	-57.9	0.0
2026-01-17 07:39:43.028037	21.4	24.0	-60.4	0.0
2026-01-17 07:39:45.273701	21.4	24.3	-63.2	0.0
2026-01-17 07:39:47.517372	21.5	24.7	-63.2	0.0
2026-01-17 07:39:49.759581	21.6	25.0	-62.0	0.0
2026-01-17 07:39:52.006323	21.7	25.4	-63.1	0.0
2026-01-17 07:39:54.249176	21.8	25.7	-61.9	0.0
2026-01-17 07:39:56.494682	21.9	26.1	-61.2	0.0
2026-01-17 07:39:58.737343	22.0	26.5	-62.6	0.0
2026-01-17 07:40:00.983708	22.1	26.8	-62.3	0.0
2026-01-17 07:40:03.228818	22.2	27.2	-64.0	0.0
2026-01-17 07:40:05.473702	22.3	27.6	-61.4	0.0
2026-01-17 07:40:07.716858	22.4	28.0	-61.0	0.0
2026-01-17 07:40:09.959649	22.5	28.4	-64.1	0.0
2026-01-17 07:40:12.206025	22.6	28.8	-65.7	0.0
2026-01-17 07:40:14.454774	22.7	29.2	-65.0	0.0
2026-01-17 07:40:16.698299	22.8	29.6	-65.7	0.0
2026-01-17 07:40:18.944001	22.9	30.1	-68.7	0.0
2026-01-17 07:40:21.187390	23.0	30.5	-67.1	0.0
2026-01-17 07:40:23.433687	23.1	30.9	-66.3	0.0
2026-01-17 07:40:25.677661	23.3	31.4	-65.9	0.0
2026-01-17 07:40:27.921780	23.4	31.8	-68.1	0.0
2026-01-17 07:40:30.163282	23.5	32.3	-67.7	0.0
2026-01-17 07:40:32.407441	23.6	32.7	-66.6	0.0
2026-01-17 07:40:34.650720	23.8	33.2	-68.2	0.0
2026-01-17 07:40:36.896183	23.9	33.7	-67.0	0.0
2026-01-17 07:40:39.139623	24.1	34.2	-67.7	0.0
2026-01-17 07:40:41.386271	24.2	34.7	-67.6	1.6
2026-01-17 07:40:43.633680	24.4	35.2	-65.7	0.0
2026-01-17 07:40:45.879289	24.5	35.7	-67.8	2.7
2026-01-17 07:40:48.124221	24.7	36.2	-65.3	0.0
2026-01-17 07:40:50.370699	24.8	36.7	-65.3	0.0
2026-01-17 07:40:52.616259	25.0	37.2	-65.9	2.6
2026-01-17 07:40:54.860925	25.2	37.8	-69.5	4.7
2026-01-17 07:40:57.106334	25.4	38.3	-68.2	0.3
2026-01-17 07:40:59.357332	25.6	38.9	-67.9	0.9
2026-01-17 07:41:01.602828	25.8	39.5	-68.3	1.2
2026-01-17 07:41:03.851176	26.0	40.0	-70.2	3.6
2026-01-17 07:41:06.093311	26.2	40.6	-67.9	0.0
2026-01-17 07:41:08.337032	26.4	41.2	-69.6	6.6
2026-01-17 07:41:10.585198	26.6	41.8	-70.1	5.5
2026-01-17 07:41:12.832779	26.8	42.4	-70.3	8.6
2026-01-17 07:41:15.077188	27.1	43.1	-70.0	7.8
2026-01-17 07:41:17.323217	27.3	43.7	-69.9	7.3
2026-01-17 07:41:19.571813	27.6	44.3	-69.7	6.0
2026-01-17 07:41:21.817090	27.9	45.0	-70.2	5.0
2026-01-17 07:41:24.062719	28.2	45.7	-70.5	6.6
2026-01-17 07:41:26.310429	28.4	46.3	-70.3	4.0
2026-01-17 07:41:28.557373	28.8	47.0	-70.5	4.3
2026-01-17 07:41:30.803174	29.1	47.7	-70.4	6.2
2026-01-17 07:41:33.045830	29.4	48.4	-70.1	5.7
2026-01-17 07:41:35.295600	29.8	49.1	-70.1	7.9
2026-01-17 07:41:37.539492	30.1	49.9	-70.1	7.5
2026-01-17 07:41:39.783076	30.5	50.6	-69.4	6.6
2026-01-17 07:41:42.026278	30.9	51.4	-69.5	5.1
2026-01-17 07:41:44.274683	31.3	52.1	-70.7	7.8
2026-01-17 07:41:46.517291	31.8	52.9	-69.9	5.0
2026-01-17 07:41:48.764085	32.2	53.7	-69.8	3.9
2026-01-17 07:41:51.014560	32.7	54.5	-71.1	8.3
2026-01-17 07:41:53.256657	33.3	55.3	-69.3	2.2
2026-01-17 07:41:55.503697	33.8	56.1	-70.0	5.0
2026-01-17 07:41:57.750310	34.4	56.9	-69.6	4.5
2026-01-17 07:42:00.000022	35.0	57.7	-68.8	2.5
2026-01-17 07:42:02.242613	35.7	58.6	-69.1	2.6
2026-01-17 07:42:04.489273	36.4	59.4	-69.9	7.0
2026-01-17 07:42:06.733772	37.1	60.3	-70.1	7.2
2026-01-17 07:42:08.979336	38.0	61.2	-68.9	3.6
2026-01-17 07:42:11.224028	38.8	62.0	-69.4	2.4
2026-01-17 07:42:13.470761	39.7	62.9	-69.8	6.2
2026-01-17 07:42:15.714162	40.7	63.8	-70.1	6.8
2026-01-17 07:42:17.961114	41.8	64.7	-71.1	8.7
2026-01-17 07:42:20.210648	43.0	65.5	-70.5	8.2
2026-01-17 07:42:22.454235	44.2	66.4	-71.2	7.0
2026-01-17 07:42:24.701783	45.6	67.3	-71.1	4.4
2026-01-17 07:42:26.947467	47.1	68.2	-71.6	6.7
2026-01-17 07:42:29.192470	48.7	69.1	-70.7	4.3
2026-01-17 07:42:31.440401	50.4	69.9	-70.6	3.0
2026-01-17 07:42:33.687483	52.4	70.8	-71.8	2.7
2026-01-17 07:42:35.929619	54.5	71.6	-70.3	3.1
2026-01-17 07:42:38.178350	56.8	72.5	-71.5	6.1
2026-01-17 07:42:40.421317	59.4	73.3	-71.3	4.5
2026-01-17 07:42:42.665253	62.3	74.0	-71.6	7.6
2026-01-17 07:42:44.911058	65.4	74.8	-70.7	7.0
2026-01-17 07:42:47.156161	68.8	75.4	-70.3	4.4
2026-01-17 07:42:49.399493	72.6	76.1	-71.7	8.5
2026-01-17 07:42:51.646737	76.8	76.6	-72.1	8.6
2026-01-17 07:42:53.892719	81.3	77.1	-71.5	6.7
2026-01-17 07:42:56.136054	86.1	77.6	-71.6	7.3
2026-01-17 07:42:58.383687	91.3	77.9	-70.7	5.8
2026-01-17 07:43:00.628957	96.7	78.1	-72.6	8.1
2026-01-17 07:43:02.873567	102.2	78.2	-72.0	6.1
2026-01-17 07:43:05.117416	107.9	78.3	-71.7	7.1
2026-01-17 07:43:07.362997	113.5	78.2	-72.1	8.1
2026-01-17 07:43:09.606679	118.9	77.9	-73.3	9.3
2026-01-17 07:43:11.851516	124.1	77.6	-73.2	7.5
2026-01-17 07:43:14.099881	129.0	77.2	-73.2	8.1
2026-01-17 07:43:16.348774	133.6	76.8	-72.9	10.1
2026-01-17 07:43:18.591622	137.8	76.2	-73.3	9.3
2026-01-17 07:43:20.836177	141.7	75.6	-73.3	9.4
2026-01-17 07:43:23.084327	145.2	74.9	-73.1	9.7
2026-01-17 07:43:25.328013	148.4	74.2	-72.5	10.0
2026-01-17 07:43:27.571642	151.3	73.4	-73.6	8.9
2026-01-17 07:43:29.816636	154.0	72.6	-74.3	9.9
2026-01-17 07:43:32.061001	156.4	71.8	-73.8	10.8
2026-01-17 07:43:34.305518	158.5	71.0	-74.1	9.9
2026-01-17 07:43:36.552040	160.5	70.1	-74.0	10.5
2026-01-17 07:43:38.799230	162.3	69.3	-74.0	12.1
2026-01-17 07:43:41.045828	164.0	68.4	-73.7	11.2
2026-01-17 07:43:43.295065	165.5	67.5	-73.5	10.1
2026-01-17 07:43:45.537774	166.9	66.6	-73.5	10.8
2026-01-17 07:43:47.781616	168.1	65.7	-73.5	11.2
2026-01-17 07:43:50.026457	169.3	64.8	-73.3	10.7
2026-01-17 07:43:52.271830	170.4	63.9	-73.4	10.3
2026-01-17 07:43:54.519545	171.4	63.1	-73.6	11.8
2026-01-17 07:43:56.761424	172.4	62.2	-73.1	12.2
2026-01-17 07:43:59.007843	173.2	61.3	-73.0	12.3
2026-01-17 07:44:01.252507	174.1	60.4	-73.3	12.1
2026-01-17 07:44:03.498191	174.8	59.6	-73.4	12.0
2026-01-17 07:44:05.743260	175.5	58.7	-73.4	12.2
2026-01-17 07:44:07.993278	176.2	57.9	-73.2	12.3
2026-01-17 07:44:10.237268	176.8	57.0	-73.3	12.0
2026-01-17 07:44:12.481478	177.4	56.2	-73.5	11.8
2026-01-17 07:44:14.725785	178.0	55.4	-73.8	12.3
2026-01-17 07:44:16.972774	178.5	54.6	-73.4	11.9
2026-01-17 07:44:19.218863	179.0	53.8	-73.7	11.8
2026-01-17 07:44:21.463039	179.5	53.0	-73.9	13.3
2026-01-17 07:44:23.707064	179.9	52.2	-73.7	13.2
2026-01-17 07:44:25.952867	180.4	51.5	-73.5	13.5
2026-01-17 07:44:28.201432	180.8	50.7	-73.9	13.4
2026-01-17 07:44:30.449603	181.2	50.0	-74.0	13.6
2026-01-17 07:44:32.694558	181.5	49.2	-74.3	13.8
2026-01-17 07:44:34.941022	181.9	48.5	-74.5	13.5
2026-01-17 07:44:37.187762	182.2	47.8	-74.2	11.7
2026-01-17 07:44:39.436342	182.6	47.1	-74.2	11.7
2026-01-17 07:44:41.682533	182.9	46.4	-74.2	12.8
2026-01-17 07:44:43.930012	183.2	45.7	-74.0	13.4
2026-01-17 07:44:46.174539	183.4	45.0	-73.4	13.2
2026-01-17 07:44:48.419190	183.7	44.4	-73.5	13.6
2026-01-17 07:44:50.661646	184.0	43.7	-73.5	13.2
2026-01-17 07:44:52.905266	184.2	43.1	-73.3	12.1
2026-01-17 07:44:55.149274	184.5	42.5	-72.9	12.3
2026-01-17 07:44:57.390443	184.7	41.8	-72.8	12.6
2026-01-17 07:44:59.636087	184.9	41.2	-73.0	11.2
2026-01-17 07:45:01.878266	185.1	40.6	-72.6	10.6
2026-01-17 07:45:04.127083	185.4	40.0	-73.2	11.2
2026-01-17 07:45:06.372469	185.6	39.5	-72.8	10.2
2026-01-17 07:45:08.620053	185.7	38.9	-72.9	9.8
2026-01-17 07:45:10.865312	185.9	38.3	-72.4	8.7
2026-01-17 07:45:13.110388	186.1	37.8	-72.5	10.4
2026-01-17 07:45:15.357064	186.3	37.2	-72.3	8.0
2026-01-17 07:45:17.601617	186.5	36.7	-72.2	7.0
2026-01-17 07:45:19.845747	186.6	36.2	-72.2	7.7
2026-01-17 07:45:22.091023	186.8	35.6	-72.2	7.6
2026-01-17 07:45:24.333946	187.0	35.1	-72.0	7.1
2026-01-17 07:45:26.581048	187.1	34.6	-72.0	7.4
2026-01-17 07:45:28.825682	187.3	34.1	-72.3	7.5
2026-01-17 07:45:31.070526	187.4	33.6	-72.4	5.4
2026-01-17 07:45:33.317455	187.5	33.2	-72.2	7.8
2026-01-17 07:45:35.559226	187.7	32.7	-72.0	5.1
2026-01-17 07:45:37.804678	187.8	32.2	-71.8	6.6
2026-01-17 07:45:40.048481	187.9	31.8	-71.8	5.2
2026-01-17 07:45:42.293189	188.1	31.3	-72.1	6.2
2026-01-17 07:45:44.537682	188.2	30.9	-71.7	4.9
2026-01-17 07:45:46.783633	188.3	30.4	-72.2	6.1
2026-01-17 07:45:49.032130	188.4	30.0	-72.0	5.6
2026-01-17 07:45:51.277472	188.5	29.6	-72.1	4.0
2026-01-17 07:45:53.524231	188.6	29.2	-72.2	4.1
2026-01-17 07:45:55.769676	188.7	28.7	-71.8	3.7
2026-01-17 07:45:58.016412	188.9	28.3	-72.0	2.5
2026-01-17 07:46:00.260872	189.0	27.9	-71.9	2.6
2026-01-17 07:46:02.506769	189.1	27.5	-71.5	3.7
2026-01-17 07:46:04.753289	189.2	27.1	-71.6	1.5
2026-01-17 07:46:07.001154	189.3	26.8	-72.0	4.1
2026-01-17 07:46:09.247951	189.3	26.4	-72.3	6.3
2026-01-17 07:46:11.493431	189.4	26.0	-72.1	4.3
2026-01-17 07:46:13.740719	189.5	25.6	-71.7	2.3
2026-01-17 07:46:15.984244	189.6	25.3	-71.5	3.8
2026-01-17 07:46:18.232271	189.7	24.9	-71.7	3.7
2026-01-17 07:46:20.480675	189.8	24.6	-71.4	4.0
2026-01-17 07:46:22.725364	189.9	24.2	-71.5	1.4
2026-01-17 07:46:24.969374	189.9	23.9	-71.5	4.2
2026-01-17 07:46:27.212242	190.0	23.5	-71.9	3.3
2026-01-17 07:46:29.453139	190.1	23.2	-72.3	2.0
2026-01-17 07:46:31.695461	190.2	22.9	-72.5	5.8
2026-01-17 07:46:33.940844	190.3	22.5	-72.3	5.3
2026-01-17 07:46:36.189134	190.3	22.2	-72.2	1.0
2026-01-17 07:46:38.434688	190.4	21.9	-72.2	4.4
2026-01-17 07:46:40.682342	190.5	21.6	-72.3	4.0
2026-01-17 07:46:42.925564	190.5	21.2	-72.3	3.9
2026-01-17 07:46:45.171568	190.6	20.9	-71.4	0.5
2026-01-17 07:46:47.415465	190.7	20.6	-71.8	1.8
2026-01-17 07:46:49.662735	190.7	20.3	-71.6	2.6
2026-01-17 07:46:51.909510	190.8	20.0	-71.8	0.3
2026-01-17 07:46:54.154336	190.9	19.7	-72.9	3.0
2026-01-17 07:46:56.398970	190.9	19.5	-72.8	2.4
2026-01-17 07:46:58.641176	191.0	19.2	-71.5	0.8
2026-01-17 07:47:00.886991	191.1	18.9	-71.5	2.3
2026-01-17 07:47:03.130926	191.1	18.6	-71.9	2.8
2026-01-17 07:47:05.376275	191.2	18.3	-72.6	0.8
2026-01-17 07:47:07.621713	191.2	18.1	-72.0	1.4
2026-01-17 07:47:09.865781	191.3	17.8	-72.4	0.0
2026-01-17 07:47:12.105519	191.3	17.5	-72.8	1.5
2026-01-17 07:47:14.351417	191.4	17.2	-72.4	0.0
2026-01-17 07:47:16.595149	191.5	17.0	-71.5	0.0
2026-01-17 07:47:18.839987	191.5	16.7	-72.7	2.4
2026-01-17 07:47:21.085191	191.6	16.5	-73.5	1.3
2026-01-17 07:47:23.330018	191.6	16.2	-72.7	0.0
2026-01-17 07:47:25.573790	191.7	16.0	-73.0	1.4
2026-01-17 07:47:27.817092	191.7	15.7	-72.8	0.1
2026-01-17 07:47:30.063707	191.8	15.5	-72.4	0.7
2026-01-17 07:47:32.311141	191.8	15.2	-73.3	0.7
2026-01-17 07:47:34.557508	191.9	15.0	-72.8	1.6
2026-01-17 07:47:36.806773	191.9	14.7	-72.4	0.0
2026-01-17 07:47:39.051138	192.0	14.5	-72.6	0.0
2026-01-17 07:47:41.297416	192.0	14.3	-73.4	1.5
2026-01-17 07:47:43.547645	192.0	14.0	-73.3	2.3
2026-01-17 07:47:45.791586	192.1	13.8	-73.3	1.3
2026-01-17 07:47:48.035615	192.1	13.6	-73.3	0.0
2026-01-17 07:47:50.277257	192.2	13.4	-73.2	0.0
2026-01-17 07:47:52.519735	192.2	13.1	-72.3	0.0
2026-01-17 07:47:54.763452	192.3	12.9	-72.6	0.0
2026-01-17 07:47:57.009361	192.3	12.7	-72.7	0.0
2026-01-17 07:47:59.251804	192.3	12.5	-72.3	0.0
2026-01-17 07:48:01.492400	192.4	12.3	-72.9	0.0
2026-01-17 07:48:03.740039	192.4	12.0	-72.7	0.0
2026-01-17 07:48:05.988779	192.5	11.8	-72.4	0.0
2026-01-17 07:48:08.233356	192.5	11.6	-72.0	0.0
2026-01-17 07:48:10.476135	192.5	11.4	-72.4	0.0
2026-01-17 07:48:12.721402	192.6	11.2	-72.2	0.0
2026-01-17 07:48:14.964039	192.6	11.0	-72.6	0.0
2026-01-17 07:48:17.208479	192.7	10.8	-72.2	0.0
2026-01-17 07:48:19.449620	192.7	10.6	-73.2	0.0
2026-01-17 07:48:21.693914	192.7	10.4	-77.2	0.0
2026-01-17 07:48:23.939535	192.8	10.2	-79.1	0.0
2026-01-17 07:48:26.186303	192.8	10.0	-79.6	0.0
#Closed at: 2026-01-17 07:37:34.844392