passes_logs/2026/01/17/planumMaritime01/planumMaritime01__20260117_005425_METEOR-M2_4_rec.log

#Pass ID: 20260117_005425_METEOR-M2 4
#Satellite: METEOR-M2 4
#Configuration: METEOR-M2 4
#Start time: 2026-01-17 00:54:30.438868

#LorettStation: 1.0.0 05.05.2024
#Station: planumMaritime01
#Location: 37.49445 lon 55.92918 lat
#TLE: 1 59051U 24039A   26016.59540353  .00000004  00000+0  21269-4 0  9994
#TLE: 2 59051  98.6815 337.9666 0006025 245.7664 114.2884 14.22407426 97710

#Time	Az	El	Level	SNR
2026-01-17 00:54:32.603792	18.3	10.2	-77.7	0.0
2026-01-17 00:54:34.850923	18.4	10.4	-76.2	0.0
2026-01-17 00:54:37.096713	18.4	10.6	-76.5	0.0
2026-01-17 00:54:39.344375	18.5	10.8	-71.6	0.0
2026-01-17 00:54:41.594309	18.5	11.0	-70.4	0.0
2026-01-17 00:54:43.840963	18.5	11.2	-71.3	0.0
2026-01-17 00:54:46.087999	18.6	11.4	-70.0	0.0
2026-01-17 00:54:48.336703	18.6	11.6	-70.5	0.0
2026-01-17 00:54:50.584327	18.7	11.8	-70.6	0.0
2026-01-17 00:54:52.833708	18.7	12.0	-68.7	0.0
2026-01-17 00:54:55.083262	18.7	12.2	-73.3	0.0
2026-01-17 00:54:57.331046	18.8	12.4	-71.3	0.0
2026-01-17 00:54:59.581674	18.8	12.7	-72.2	0.0
2026-01-17 00:55:01.829554	18.9	12.9	-73.1	0.0
2026-01-17 00:55:04.079029	18.9	13.1	-71.1	0.0
2026-01-17 00:55:06.327191	18.9	13.3	-72.9	0.0
2026-01-17 00:55:08.576762	19.0	13.5	-70.8	0.0
2026-01-17 00:55:10.827419	19.0	13.8	-71.6	0.0
2026-01-17 00:55:13.076291	19.1	14.0	-70.4	0.0
2026-01-17 00:55:15.324195	19.1	14.2	-69.6	0.0
2026-01-17 00:55:17.575676	19.2	14.4	-71.6	0.0
2026-01-17 00:55:19.826108	19.2	14.7	-69.1	0.0
2026-01-17 00:55:22.073432	19.3	14.9	-71.6	0.0
2026-01-17 00:55:24.322442	19.3	15.2	-71.7	0.0
2026-01-17 00:55:26.567229	19.4	15.4	-71.2	0.0
2026-01-17 00:55:28.816976	19.4	15.6	-70.7	0.0
2026-01-17 00:55:31.061846	19.5	15.9	-71.5	0.0
2026-01-17 00:55:33.310841	19.5	16.1	-71.5	0.0
2026-01-17 00:55:35.559095	19.6	16.4	-71.4	0.0
2026-01-17 00:55:37.807741	19.6	16.6	-71.6	0.0
2026-01-17 00:55:40.056664	19.7	16.9	-72.8	0.0
2026-01-17 00:55:42.302654	19.7	17.2	-73.1	0.0
2026-01-17 00:55:44.549376	19.8	17.4	-73.4	0.0
2026-01-17 00:55:46.797317	19.8	17.7	-72.5	0.0
2026-01-17 00:55:49.043404	19.9	17.9	-72.7	0.0
2026-01-17 00:55:51.293771	19.9	18.2	-73.2	0.0
2026-01-17 00:55:53.537570	20.0	18.5	-73.1	0.0
2026-01-17 00:55:55.785604	20.1	18.8	-72.8	0.0
2026-01-17 00:55:58.036668	20.1	19.0	-70.4	0.0
2026-01-17 00:56:00.284539	20.2	19.3	-72.4	0.0
2026-01-17 00:56:02.531823	20.2	19.6	-73.4	0.0
2026-01-17 00:56:04.777970	20.3	19.9	-71.6	0.0
2026-01-17 00:56:07.027191	20.4	20.2	-70.3	0.0
2026-01-17 00:56:09.275944	20.4	20.5	-72.2	0.0
2026-01-17 00:56:11.524681	20.5	20.8	-72.5	0.0
2026-01-17 00:56:13.777731	20.6	21.1	-74.0	0.0
2026-01-17 00:56:16.030480	20.6	21.4	-73.6	0.0
2026-01-17 00:56:18.277190	20.7	21.7	-71.7	0.0
2026-01-17 00:56:20.523617	20.8	22.0	-73.8	0.0
2026-01-17 00:56:22.773047	20.8	22.4	-72.8	0.0
2026-01-17 00:56:25.020410	20.9	22.7	-72.2	0.0
2026-01-17 00:56:27.267363	21.0	23.0	-74.9	0.0
2026-01-17 00:56:29.516679	21.1	23.3	-71.2	0.0
2026-01-17 00:56:31.764897	21.1	23.7	-71.3	0.0
2026-01-17 00:56:34.013331	21.2	24.0	-72.0	0.0
2026-01-17 00:56:36.261271	21.3	24.4	-71.3	0.0
2026-01-17 00:56:38.511429	21.4	24.7	-74.1	0.0
2026-01-17 00:56:40.759126	21.5	25.1	-72.1	0.0
2026-01-17 00:56:43.005894	21.6	25.4	-73.2	0.0
2026-01-17 00:56:45.255584	21.6	25.8	-74.3	1.4
2026-01-17 00:56:47.502939	21.7	26.1	-74.7	4.2
2026-01-17 00:56:49.754345	21.8	26.5	-75.3	3.0
2026-01-17 00:56:52.002275	21.9	26.9	-74.7	0.6
2026-01-17 00:56:54.247427	22.0	27.3	-73.3	4.6
2026-01-17 00:56:56.499171	22.1	27.7	-76.0	2.2
2026-01-17 00:56:58.747060	22.2	28.1	-71.3	0.0
2026-01-17 00:57:00.993697	22.3	28.5	-76.0	5.4
2026-01-17 00:57:03.241683	22.4	28.9	-75.5	5.5
2026-01-17 00:57:05.490964	22.5	29.3	-71.9	0.0
2026-01-17 00:57:07.740691	22.6	29.7	-74.8	2.6
2026-01-17 00:57:09.989553	22.7	30.1	-76.2	6.0
2026-01-17 00:57:12.238240	22.8	30.6	-75.5	5.3
2026-01-17 00:57:14.484348	23.0	31.0	-76.4	8.0
2026-01-17 00:57:16.734595	23.1	31.4	-75.6	3.9
2026-01-17 00:57:18.981691	23.2	31.9	-74.6	3.3
2026-01-17 00:57:21.231130	23.3	32.3	-74.6	4.2
2026-01-17 00:57:23.477359	23.5	32.8	-74.6	4.0
2026-01-17 00:57:25.730447	23.6	33.3	-75.7	6.6
2026-01-17 00:57:27.978279	23.7	33.8	-76.0	5.4
2026-01-17 00:57:30.230845	23.9	34.3	-75.7	6.9
2026-01-17 00:57:32.478214	24.0	34.7	-76.4	7.7
2026-01-17 00:57:34.728223	24.2	35.3	-75.6	7.5
2026-01-17 00:57:36.979266	24.3	35.8	-76.4	8.2
2026-01-17 00:57:39.224080	24.5	36.3	-76.4	10.6
2026-01-17 00:57:41.471585	24.6	36.8	-76.6	10.9
2026-01-17 00:57:43.723093	24.8	37.3	-76.3	9.3
2026-01-17 00:57:45.970330	25.0	37.9	-76.9	9.3
2026-01-17 00:57:48.220077	25.2	38.4	-77.1	11.1
2026-01-17 00:57:50.467229	25.3	39.0	-75.7	6.6
2026-01-17 00:57:52.712852	25.5	39.6	-77.2	10.9
2026-01-17 00:57:54.962380	25.7	40.1	-77.6	11.0
2026-01-17 00:57:57.210521	25.9	40.7	-77.2	6.8
2026-01-17 00:57:59.461362	26.1	41.3	-76.5	6.8
2026-01-17 00:58:01.711005	26.4	41.9	-78.1	9.7
2026-01-17 00:58:03.958577	26.6	42.6	-77.8	7.3
2026-01-17 00:58:06.208350	26.8	43.2	-78.5	9.1
2026-01-17 00:58:08.457238	27.1	43.8	-78.5	9.5
2026-01-17 00:58:10.702702	27.3	44.5	-77.6	6.1
2026-01-17 00:58:12.951315	27.6	45.1	-78.1	8.7
2026-01-17 00:58:15.199355	27.9	45.8	-78.7	9.9
2026-01-17 00:58:17.446225	28.2	46.5	-79.2	10.0
2026-01-17 00:58:19.693680	28.5	47.2	-77.8	6.8
2026-01-17 00:58:21.938589	28.8	47.9	-77.8	7.5
2026-01-17 00:58:24.189906	29.1	48.6	-77.1	4.8
2026-01-17 00:58:26.439087	29.4	49.3	-79.2	9.1
2026-01-17 00:58:28.690722	29.8	50.0	-78.5	8.6
2026-01-17 00:58:30.937229	30.2	50.8	-78.8	7.9
2026-01-17 00:58:33.183374	30.6	51.5	-79.1	8.2
2026-01-17 00:58:35.432153	31.0	52.3	-78.9	7.9
2026-01-17 00:58:37.679577	31.4	53.1	-79.5	9.5
2026-01-17 00:58:39.927023	31.9	53.9	-78.1	6.6
2026-01-17 00:58:42.173791	32.4	54.7	-79.0	8.0
2026-01-17 00:58:44.423743	32.9	55.5	-78.3	5.8
2026-01-17 00:58:46.671530	33.4	56.3	-78.4	6.2
2026-01-17 00:58:48.917896	34.0	57.1	-79.5	7.5
2026-01-17 00:58:51.166347	34.6	58.0	-79.1	7.1
2026-01-17 00:58:53.412104	35.3	58.8	-79.8	6.9
2026-01-17 00:58:55.662596	36.0	59.7	-79.2	7.5
2026-01-17 00:58:57.911425	36.7	60.5	-79.5	7.1
2026-01-17 00:59:00.160149	37.5	61.4	-79.3	8.4
2026-01-17 00:59:02.411318	38.4	62.3	-79.2	6.7
2026-01-17 00:59:04.658314	39.3	63.2	-78.9	4.2
2026-01-17 00:59:06.908994	40.3	64.1	-79.0	7.3
2026-01-17 00:59:09.159588	41.4	64.9	-78.5	7.7
2026-01-17 00:59:11.405668	42.5	65.8	-79.4	7.9
2026-01-17 00:59:13.654787	43.8	66.7	-79.5	6.1
2026-01-17 00:59:15.905127	45.1	67.6	-78.7	5.8
2026-01-17 00:59:18.151924	46.6	68.5	-79.5	7.4
2026-01-17 00:59:20.405046	48.2	69.4	-79.5	7.4
2026-01-17 00:59:22.651391	50.0	70.3	-79.0	6.2
2026-01-17 00:59:24.900572	52.0	71.1	-79.5	7.8
2026-01-17 00:59:27.147822	54.1	72.0	-79.5	6.6
2026-01-17 00:59:29.395441	56.5	72.8	-79.5	7.8
2026-01-17 00:59:31.644589	59.1	73.6	-78.9	9.2
2026-01-17 00:59:33.894230	62.0	74.4	-79.5	10.3
2026-01-17 00:59:36.143941	65.2	75.1	-79.2	10.7
2026-01-17 00:59:38.391600	68.8	75.8	-78.1	7.4
2026-01-17 00:59:40.638812	72.7	76.5	-78.6	8.8
2026-01-17 00:59:42.890451	77.0	77.0	-79.4	11.7
2026-01-17 00:59:45.142305	81.7	77.5	-79.4	11.1
2026-01-17 00:59:47.392168	86.7	78.0	-78.9	10.3
2026-01-17 00:59:49.638978	92.0	78.3	-78.9	9.9
2026-01-17 00:59:51.887887	97.6	78.5	-79.1	10.2
2026-01-17 00:59:54.138045	103.4	78.6	-78.9	12.3
2026-01-17 00:59:56.386643	109.2	78.6	-79.0	11.3
2026-01-17 00:59:58.636274	115.0	78.5	-79.5	12.8
2026-01-17 01:00:00.885275	120.5	78.2	-79.9	12.2
2026-01-17 01:00:03.133468	125.8	77.9	-79.6	12.4
2026-01-17 01:00:05.381700	130.8	77.4	-79.8	11.8
2026-01-17 01:00:07.630118	135.4	76.9	-80.0	11.6
2026-01-17 01:00:09.879844	139.6	76.3	-79.8	12.3
2026-01-17 01:00:12.130515	143.4	75.7	-79.8	11.1
2026-01-17 01:00:14.380963	146.9	75.0	-80.1	12.8
2026-01-17 01:00:16.630634	150.1	74.2	-80.4	12.0
2026-01-17 01:00:18.877845	152.9	73.5	-80.4	11.2
2026-01-17 01:00:21.127663	155.5	72.6	-80.9	11.4
2026-01-17 01:00:23.375867	157.8	71.8	-81.3	11.4
2026-01-17 01:00:25.626903	159.9	71.0	-80.6	12.1
2026-01-17 01:00:27.872624	161.8	70.1	-81.0	12.3
2026-01-17 01:00:30.123059	163.6	69.2	-81.0	11.2
2026-01-17 01:00:32.373615	165.2	68.3	-80.4	10.5
2026-01-17 01:00:34.619890	166.6	67.4	-81.2	11.4
2026-01-17 01:00:36.870836	168.0	66.5	-81.6	11.2
2026-01-17 01:00:39.118171	169.2	65.6	-81.7	10.8
2026-01-17 01:00:41.367740	170.3	64.7	-81.5	10.8
2026-01-17 01:00:43.614308	171.4	63.8	-81.5	11.6
2026-01-17 01:00:45.862257	172.4	62.9	-81.6	10.7
2026-01-17 01:00:48.113003	173.3	62.1	-81.7	12.0
2026-01-17 01:00:50.362408	174.1	61.2	-81.3	12.1
2026-01-17 01:00:52.612528	174.9	60.3	-81.7	11.8
2026-01-17 01:00:54.859764	175.6	59.4	-81.6	11.7
2026-01-17 01:00:57.109344	176.3	58.6	-81.7	11.6
2026-01-17 01:00:59.357146	177.0	57.7	-81.8	11.7
2026-01-17 01:01:01.605089	177.6	56.9	-81.2	11.4
2026-01-17 01:01:03.854874	178.1	56.1	-81.4	11.2
2026-01-17 01:01:06.103757	178.7	55.2	-81.6	12.2
2026-01-17 01:01:08.351932	179.2	54.4	-81.1	11.3
2026-01-17 01:01:10.599216	179.7	53.6	-81.5	12.0
2026-01-17 01:01:12.846969	180.1	52.8	-81.0	12.8
2026-01-17 01:01:15.098649	180.6	52.1	-80.9	12.6
2026-01-17 01:01:17.347437	181.0	51.3	-81.1	12.7
2026-01-17 01:01:19.597050	181.4	50.5	-81.3	12.5
2026-01-17 01:01:21.845778	181.7	49.8	-81.2	12.2
2026-01-17 01:01:24.096685	182.1	49.1	-81.1	12.2
2026-01-17 01:01:26.348079	182.4	48.3	-81.2	12.1
2026-01-17 01:01:28.595094	182.8	47.6	-81.0	12.3
2026-01-17 01:01:30.841212	183.1	46.9	-80.8	12.5
2026-01-17 01:01:33.089983	183.4	46.2	-81.0	12.2
2026-01-17 01:01:35.335808	183.7	45.5	-80.8	12.8
2026-01-17 01:01:37.586622	183.9	44.9	-80.6	13.1
2026-01-17 01:01:39.836367	184.2	44.2	-80.4	12.8
2026-01-17 01:01:42.082721	184.4	43.6	-80.2	12.4
2026-01-17 01:01:44.332596	184.7	42.9	-79.8	12.4
2026-01-17 01:01:46.584673	184.9	42.3	-79.9	14.0
2026-01-17 01:01:48.832913	185.1	41.7	-79.6	13.8
2026-01-17 01:01:51.085183	185.4	41.1	-79.9	13.5
2026-01-17 01:01:53.335744	185.6	40.5	-79.7	12.8
2026-01-17 01:01:55.584109	185.8	39.9	-79.7	13.6
2026-01-17 01:01:57.831761	186.0	39.3	-79.5	12.4
2026-01-17 01:02:00.082888	186.2	38.7	-79.7	12.8
2026-01-17 01:02:02.330646	186.3	38.2	-79.4	11.4
2026-01-17 01:02:04.575982	186.5	37.6	-79.2	11.6
2026-01-17 01:02:06.821591	186.7	37.1	-79.3	13.0
2026-01-17 01:02:09.071757	186.9	36.5	-79.4	13.7
2026-01-17 01:02:11.324282	187.0	36.0	-79.5	12.8
2026-01-17 01:02:13.573443	187.2	35.5	-79.4	12.8
2026-01-17 01:02:15.820360	187.3	35.0	-79.4	12.3
2026-01-17 01:02:18.067513	187.5	34.5	-79.4	11.8
2026-01-17 01:02:20.316140	187.6	34.0	-79.4	13.2
2026-01-17 01:02:22.562742	187.8	33.5	-78.9	11.0
2026-01-17 01:02:24.811797	187.9	33.0	-78.8	10.6
2026-01-17 01:02:27.060397	188.0	32.5	-79.1	10.6
2026-01-17 01:02:29.312629	188.1	32.1	-79.3	13.4
2026-01-17 01:02:31.560282	188.3	31.6	-79.1	13.5
2026-01-17 01:02:33.809406	188.4	31.2	-78.6	9.9
2026-01-17 01:02:36.058653	188.5	30.7	-79.2	11.2
2026-01-17 01:02:38.308321	188.6	30.3	-78.8	11.4
2026-01-17 01:02:40.558647	188.7	29.8	-78.9	12.1
2026-01-17 01:02:42.810166	188.8	29.4	-78.5	12.3
2026-01-17 01:02:45.055591	189.0	29.0	-78.7	10.9
2026-01-17 01:02:47.304901	189.1	28.6	-78.9	11.8
2026-01-17 01:02:49.551178	189.2	28.2	-78.9	10.0
2026-01-17 01:02:51.800382	189.3	27.8	-78.4	10.6
2026-01-17 01:02:54.048030	189.4	27.4	-78.5	9.0
2026-01-17 01:02:56.298386	189.4	27.0	-78.0	12.4
2026-01-17 01:02:58.547784	189.5	26.6	-77.7	11.3
2026-01-17 01:03:00.797781	189.6	26.2	-78.3	8.4
2026-01-17 01:03:03.045633	189.7	25.9	-78.2	8.8
2026-01-17 01:03:05.291576	189.8	25.5	-78.1	11.0
2026-01-17 01:03:07.540570	189.9	25.1	-78.3	11.7
2026-01-17 01:03:09.789254	190.0	24.8	-78.3	11.2
2026-01-17 01:03:12.039308	190.1	24.4	-78.7	9.1
2026-01-17 01:03:14.290536	190.1	24.1	-78.7	10.1
2026-01-17 01:03:16.538564	190.2	23.7	-78.8	9.5
2026-01-17 01:03:18.783999	190.3	23.4	-78.7	11.0
2026-01-17 01:03:21.034140	190.4	23.0	-79.0	12.6
2026-01-17 01:03:23.280965	190.4	22.7	-79.2	9.4
2026-01-17 01:03:25.528065	190.5	22.4	-78.9	11.7
2026-01-17 01:03:27.774987	190.6	22.1	-78.9	8.7
2026-01-17 01:03:30.022028	190.7	21.7	-78.9	11.6
2026-01-17 01:03:32.268582	190.7	21.4	-78.9	8.7
2026-01-17 01:03:34.515406	190.8	21.1	-78.9	8.7
2026-01-17 01:03:36.766085	190.9	20.8	-78.9	11.7
2026-01-17 01:03:39.015165	190.9	20.5	-79.0	11.6
2026-01-17 01:03:41.263783	191.0	20.2	-79.0	11.2
2026-01-17 01:03:43.514748	191.1	19.9	-78.3	9.6
2026-01-17 01:03:45.763447	191.1	19.6	-79.2	9.8
2026-01-17 01:03:48.010355	191.2	19.3	-78.9	9.5
2026-01-17 01:03:50.259267	191.2	19.0	-78.8	10.5
2026-01-17 01:03:52.508107	191.3	18.7	-78.8	10.7
2026-01-17 01:03:54.754783	191.3	18.5	-79.2	11.4
2026-01-17 01:03:57.003602	191.4	18.2	-78.9	9.4
2026-01-17 01:03:59.251764	191.5	17.9	-79.2	10.2
2026-01-17 01:04:01.498732	191.5	17.6	-79.4	7.6
2026-01-17 01:04:03.745128	191.6	17.4	-79.5	9.6
2026-01-17 01:04:05.991601	191.6	17.1	-79.3	10.3
2026-01-17 01:04:08.240387	191.7	16.9	-79.4	11.7
2026-01-17 01:04:10.485683	191.7	16.6	-79.3	10.0
2026-01-17 01:04:12.735534	191.8	16.3	-79.4	9.7
2026-01-17 01:04:14.985161	191.8	16.1	-79.6	9.6
2026-01-17 01:04:17.234277	191.9	15.8	-79.1	9.2
2026-01-17 01:04:19.482564	191.9	15.6	-78.9	10.5
2026-01-17 01:04:21.730667	192.0	15.3	-79.2	9.1
2026-01-17 01:04:23.979393	192.0	15.1	-79.1	10.1
2026-01-17 01:04:26.225232	192.1	14.8	-79.7	9.3
2026-01-17 01:04:28.473779	192.1	14.6	-79.5	9.1
2026-01-17 01:04:30.720716	192.2	14.4	-79.0	11.1
2026-01-17 01:04:32.972119	192.2	14.1	-79.3	8.8
2026-01-17 01:04:35.225377	192.2	13.9	-79.2	8.9
2026-01-17 01:04:37.471626	192.3	13.7	-79.2	9.5
2026-01-17 01:04:39.718965	192.3	13.4	-79.8	10.2
2026-01-17 01:04:41.968530	192.4	13.2	-79.3	9.6
2026-01-17 01:04:44.216893	192.4	13.0	-79.2	9.0
2026-01-17 01:04:46.465785	192.5	12.8	-79.4	7.7
2026-01-17 01:04:48.714135	192.5	12.6	-79.6	10.3
2026-01-17 01:04:50.962727	192.5	12.3	-78.6	7.6
2026-01-17 01:04:53.211610	192.6	12.1	-79.5	10.2
2026-01-17 01:04:55.458034	192.6	11.9	-79.5	8.0
2026-01-17 01:04:57.707741	192.7	11.7	-79.4	7.4
2026-01-17 01:04:59.955451	192.7	11.5	-78.8	6.1
2026-01-17 01:05:02.201798	192.7	11.3	-79.0	7.8
2026-01-17 01:05:04.449890	192.8	11.1	-79.7	5.9
2026-01-17 01:05:06.698592	192.8	10.9	-79.8	6.7
2026-01-17 01:05:08.949441	192.9	10.7	-81.9	3.4
2026-01-17 01:05:11.198309	192.9	10.5	-84.6	0.0
2026-01-17 01:05:13.445009	192.9	10.3	-85.3	2.0
2026-01-17 01:05:15.690685	193.0	10.1	-86.1	0.0
#Closed at: 2026-01-17 00:54:25.444618