passes_logs/2026/01/17/planumMaritime01/planumMaritime01__20260117_104407_METEOR-M2_4_rec.log

#Pass ID: 20260117_104407_METEOR-M2 4
#Satellite: METEOR-M2 4
#Configuration: METEOR-M2 4
#Start time: 2026-01-17 10:44:12.671116

#LorettStation: 1.0.0 05.05.2024
#Station: planumMaritime01
#Location: 37.49445 lon 55.92918 lat
#TLE: 1 59051U 24039A   26016.59540353  .00000004  00000+0  21269-4 0  9994
#TLE: 2 59051  98.6815 337.9666 0006025 245.7664 114.2884 14.22407426 97710

#Time	Az	El	Level	SNR
2026-01-17 10:44:14.836595	139.7	10.2	-79.5	0.0
2026-01-17 10:44:17.084818	139.6	10.4	-79.5	0.0
2026-01-17 10:44:19.331039	139.5	10.6	-75.5	0.0
2026-01-17 10:44:21.578249	139.4	10.8	-76.6	0.0
2026-01-17 10:44:23.828704	139.3	11.0	-75.1	0.0
2026-01-17 10:44:26.075255	139.2	11.2	-76.1	0.6
2026-01-17 10:44:28.325161	139.1	11.4	-75.5	1.0
2026-01-17 10:44:30.573580	139.0	11.6	-76.0	2.0
2026-01-17 10:44:32.822607	138.9	11.8	-75.8	0.0
2026-01-17 10:44:35.074213	138.8	12.0	-76.8	1.8
2026-01-17 10:44:37.323577	138.6	12.2	-76.5	0.0
2026-01-17 10:44:39.571372	138.5	12.4	-76.2	3.7
2026-01-17 10:44:41.819938	138.4	12.6	-77.1	4.3
2026-01-17 10:44:44.068510	138.3	12.8	-76.3	0.3
2026-01-17 10:44:46.316471	138.2	13.0	-76.7	2.4
2026-01-17 10:44:48.564086	138.1	13.2	-76.9	2.4
2026-01-17 10:44:50.810721	137.9	13.5	-77.2	2.6
2026-01-17 10:44:53.055615	137.8	13.7	-76.5	0.0
2026-01-17 10:44:55.305490	137.7	13.9	-76.2	1.8
2026-01-17 10:44:57.553768	137.6	14.1	-75.8	0.0
2026-01-17 10:44:59.803081	137.4	14.4	-76.8	2.6
2026-01-17 10:45:02.050380	137.3	14.6	-76.7	3.3
2026-01-17 10:45:04.301193	137.2	14.8	-76.4	1.7
2026-01-17 10:45:06.548814	137.0	15.0	-77.9	6.7
2026-01-17 10:45:08.798743	136.9	15.3	-78.2	7.4
2026-01-17 10:45:11.044140	136.7	15.5	-78.1	5.9
2026-01-17 10:45:13.297249	136.6	15.7	-78.0	7.5
2026-01-17 10:45:15.547339	136.4	16.0	-77.6	7.2
2026-01-17 10:45:17.794621	136.3	16.2	-77.9	8.0
2026-01-17 10:45:20.044577	136.1	16.5	-78.1	6.5
2026-01-17 10:45:22.295670	136.0	16.7	-77.4	6.9
2026-01-17 10:45:24.540512	135.8	17.0	-77.7	8.4
2026-01-17 10:45:26.786526	135.7	17.2	-78.0	5.8
2026-01-17 10:45:29.034831	135.5	17.5	-78.3	8.3
2026-01-17 10:45:31.280605	135.3	17.7	-78.0	7.9
2026-01-17 10:45:33.529374	135.2	18.0	-78.2	7.8
2026-01-17 10:45:35.778001	135.0	18.2	-78.2	7.8
2026-01-17 10:45:38.025123	134.8	18.5	-78.4	7.6
2026-01-17 10:45:40.270822	134.7	18.8	-78.2	7.6
2026-01-17 10:45:42.524042	134.5	19.0	-78.3	9.0
2026-01-17 10:45:44.771364	134.3	19.3	-77.7	9.1
2026-01-17 10:45:47.021549	134.1	19.6	-77.5	7.6
2026-01-17 10:45:49.270970	133.9	19.9	-78.1	8.7
2026-01-17 10:45:51.517046	133.7	20.1	-78.3	8.1
2026-01-17 10:45:53.765793	133.5	20.4	-78.0	9.9
2026-01-17 10:45:56.017001	133.3	20.7	-78.0	10.4
2026-01-17 10:45:58.265529	133.1	21.0	-78.1	8.5
2026-01-17 10:46:00.517552	132.9	21.3	-78.2	9.2
2026-01-17 10:46:02.766821	132.7	21.6	-78.1	10.3
2026-01-17 10:46:05.013590	132.5	21.9	-78.4	10.5
2026-01-17 10:46:07.262769	132.2	22.2	-78.1	9.5
2026-01-17 10:46:09.515062	132.0	22.5	-78.2	9.2
2026-01-17 10:46:11.763477	131.8	22.8	-78.3	9.5
2026-01-17 10:46:14.011297	131.5	23.1	-78.3	9.5
2026-01-17 10:46:16.258875	131.3	23.4	-78.1	9.4
2026-01-17 10:46:18.505847	131.1	23.7	-78.3	10.0
2026-01-17 10:46:20.752658	130.8	24.0	-78.1	9.3
2026-01-17 10:46:23.000370	130.6	24.4	-78.3	9.4
2026-01-17 10:46:25.247301	130.3	24.7	-77.9	9.6
2026-01-17 10:46:27.495299	130.0	25.0	-78.1	9.4
2026-01-17 10:46:29.743535	129.7	25.3	-78.1	8.7
2026-01-17 10:46:31.990917	129.5	25.7	-77.2	7.5
2026-01-17 10:46:34.240711	129.2	26.0	-78.3	10.7
2026-01-17 10:46:36.488730	128.9	26.4	-78.2	10.9
2026-01-17 10:46:38.737823	128.6	26.7	-77.9	10.3
2026-01-17 10:46:40.986319	128.3	27.1	-77.6	10.2
2026-01-17 10:46:43.236428	128.0	27.4	-77.8	9.1
2026-01-17 10:46:45.484919	127.7	27.8	-77.7	10.1
2026-01-17 10:46:47.734383	127.3	28.1	-77.8	10.5
2026-01-17 10:46:49.982751	127.0	28.5	-77.9	10.6
2026-01-17 10:46:52.230118	126.7	28.9	-77.7	9.5
2026-01-17 10:46:54.483800	126.3	29.2	-77.8	10.3
2026-01-17 10:46:56.736774	125.9	29.6	-77.5	8.1
2026-01-17 10:46:58.985739	125.6	30.0	-77.5	9.9
2026-01-17 10:47:01.234618	125.2	30.4	-77.1	9.9
2026-01-17 10:47:03.481225	124.8	30.7	-76.8	8.6
2026-01-17 10:47:05.728972	124.4	31.1	-77.1	10.4
2026-01-17 10:47:07.980212	124.0	31.5	-76.9	9.2
2026-01-17 10:47:10.229459	123.6	31.9	-77.1	10.0
2026-01-17 10:47:12.478819	123.2	32.3	-76.9	9.8
2026-01-17 10:47:14.728069	122.7	32.7	-77.2	7.7
2026-01-17 10:47:16.976063	122.3	33.1	-77.3	9.0
2026-01-17 10:47:19.223439	121.8	33.6	-76.9	7.8
2026-01-17 10:47:21.471479	121.4	34.0	-76.9	8.5
2026-01-17 10:47:23.720915	120.9	34.4	-76.9	9.1
2026-01-17 10:47:25.967664	120.4	34.8	-77.3	7.8
2026-01-17 10:47:28.218541	119.9	35.2	-76.4	6.4
2026-01-17 10:47:30.464121	119.4	35.7	-77.1	7.4
2026-01-17 10:47:32.713212	118.8	36.1	-77.3	6.4
2026-01-17 10:47:34.960619	118.3	36.5	-77.0	7.1
2026-01-17 10:47:37.210050	117.7	37.0	-77.3	4.7
2026-01-17 10:47:39.457870	117.1	37.4	-76.5	5.2
2026-01-17 10:47:41.707089	116.5	37.8	-75.8	2.8
2026-01-17 10:47:43.956413	115.9	38.3	-75.6	3.2
2026-01-17 10:47:46.203588	115.3	38.7	-76.5	4.5
2026-01-17 10:47:48.453333	114.6	39.2	-76.5	4.5
2026-01-17 10:47:50.698847	114.0	39.6	-76.7	5.2
2026-01-17 10:47:52.950252	113.3	40.1	-76.6	3.8
2026-01-17 10:47:55.199017	112.6	40.5	-76.6	3.0
2026-01-17 10:47:57.448326	111.9	41.0	-76.1	4.1
2026-01-17 10:47:59.696045	111.1	41.4	-75.5	2.4
2026-01-17 10:48:01.943453	110.3	41.9	-74.4	0.0
2026-01-17 10:48:04.188679	109.6	42.3	-73.4	0.0
2026-01-17 10:48:06.437213	108.7	42.8	-75.9	2.8
2026-01-17 10:48:08.686963	107.9	43.2	-75.5	0.2
2026-01-17 10:48:10.937120	107.1	43.7	-76.4	2.5
2026-01-17 10:48:13.188187	106.2	44.1	-74.6	1.9
2026-01-17 10:48:15.434024	105.3	44.6	-73.7	0.0
2026-01-17 10:48:17.679610	104.3	45.0	-75.0	0.0
2026-01-17 10:48:19.927721	103.4	45.4	-75.1	0.0
2026-01-17 10:48:22.176595	102.4	45.9	-73.7	0.0
2026-01-17 10:48:24.423209	101.4	46.3	-74.3	0.0
2026-01-17 10:48:26.672053	100.3	46.7	-74.4	0.0
2026-01-17 10:48:28.919092	99.3	47.1	-74.8	0.0
2026-01-17 10:48:31.162910	98.2	47.5	-74.5	0.0
2026-01-17 10:48:33.410124	97.1	47.9	-74.7	0.0
2026-01-17 10:48:35.659275	95.9	48.3	-74.2	0.0
2026-01-17 10:48:37.909049	94.7	48.7	-73.4	0.0
2026-01-17 10:48:40.155602	93.5	49.1	-73.1	0.0
2026-01-17 10:48:42.406877	92.3	49.4	-73.1	0.0
2026-01-17 10:48:44.657887	91.0	49.8	-71.4	0.0
2026-01-17 10:48:46.907070	89.7	50.1	-72.7	0.0
2026-01-17 10:48:49.155042	88.4	50.4	-72.6	0.0
2026-01-17 10:48:51.403797	87.0	50.7	-73.0	0.0
2026-01-17 10:48:53.651784	85.6	51.0	-71.8	0.0
2026-01-17 10:48:55.900808	84.2	51.3	-72.0	0.0
2026-01-17 10:48:58.150064	82.8	51.5	-72.1	0.0
2026-01-17 10:49:00.400794	81.3	51.8	-72.4	0.0
2026-01-17 10:49:02.646565	79.9	52.0	-72.5	0.0
2026-01-17 10:49:04.894628	78.4	52.2	-71.6	0.0
2026-01-17 10:49:07.142937	76.8	52.4	-71.7	0.0
2026-01-17 10:49:09.389999	75.3	52.5	-71.4	0.0
2026-01-17 10:49:11.640678	73.8	52.7	-71.1	0.0
2026-01-17 10:49:13.889306	72.2	52.8	-71.5	0.0
2026-01-17 10:49:16.134501	70.6	52.9	-74.2	0.0
2026-01-17 10:49:18.381351	69.0	53.0	-72.6	0.0
2026-01-17 10:49:20.628398	67.4	53.0	-72.7	0.0
2026-01-17 10:49:22.874812	65.8	53.0	-72.2	0.0
2026-01-17 10:49:25.122985	64.2	53.0	-73.3	0.0
2026-01-17 10:49:27.372194	62.6	53.0	-73.4	0.0
2026-01-17 10:49:29.618376	61.0	53.0	-72.6	0.0
2026-01-17 10:49:31.867631	59.5	52.9	-72.5	0.0
2026-01-17 10:49:34.116022	57.9	52.8	-73.0	0.0
2026-01-17 10:49:36.363153	56.3	52.7	-72.6	0.0
2026-01-17 10:49:38.612705	54.8	52.6	-73.3	0.0
2026-01-17 10:49:40.863669	53.2	52.4	-73.3	0.0
2026-01-17 10:49:43.113500	51.7	52.3	-73.2	0.0
2026-01-17 10:49:45.360233	50.2	52.1	-72.9	0.0
2026-01-17 10:49:47.605422	48.7	51.9	-73.8	0.0
2026-01-17 10:49:49.851622	47.2	51.6	-73.0	0.0
2026-01-17 10:49:52.098788	45.8	51.4	-73.1	0.0
2026-01-17 10:49:54.345394	44.4	51.1	-72.8	0.0
2026-01-17 10:49:56.596433	43.0	50.8	-73.6	0.0
2026-01-17 10:49:58.842062	41.6	50.5	-74.1	0.0
2026-01-17 10:50:01.091595	40.3	50.2	-74.4	0.0
2026-01-17 10:50:03.339366	39.0	49.9	-74.9	0.0
2026-01-17 10:50:05.587146	37.7	49.6	-74.8	0.0
2026-01-17 10:50:07.837175	36.4	49.2	-75.1	0.0
2026-01-17 10:50:10.084279	35.2	48.9	-76.3	0.7
2026-01-17 10:50:12.330690	34.0	48.5	-75.8	2.2
2026-01-17 10:50:14.577255	32.9	48.1	-74.9	0.0
2026-01-17 10:50:16.823332	31.7	47.7	-75.3	0.0
2026-01-17 10:50:19.070905	30.6	47.3	-75.9	1.0
2026-01-17 10:50:21.317565	29.6	46.9	-74.7	0.0
2026-01-17 10:50:23.565194	28.5	46.5	-75.0	0.0
2026-01-17 10:50:25.813852	27.5	46.1	-75.6	0.0
2026-01-17 10:50:28.063055	26.5	45.6	-76.2	2.4
2026-01-17 10:50:30.307396	25.5	45.2	-76.7	1.8
2026-01-17 10:50:32.554591	24.6	44.8	-74.8	0.0
2026-01-17 10:50:34.805067	23.7	44.3	-76.4	2.7
2026-01-17 10:50:37.050296	22.8	43.9	-75.0	1.5
2026-01-17 10:50:39.300297	21.9	43.5	-74.9	0.0
2026-01-17 10:50:41.546731	21.1	43.0	-73.5	0.0
2026-01-17 10:50:43.795848	20.2	42.6	-74.2	0.0
2026-01-17 10:50:46.044641	19.5	42.1	-74.8	0.0
2026-01-17 10:50:48.292357	18.7	41.7	-72.3	0.0
2026-01-17 10:50:50.537127	17.9	41.2	-72.7	0.0
2026-01-17 10:50:52.786956	17.2	40.8	-74.4	0.0
2026-01-17 10:50:55.032750	16.5	40.3	-72.2	0.0
2026-01-17 10:50:57.277627	15.8	39.9	-73.5	0.0
2026-01-17 10:50:59.527082	15.1	39.4	-73.4	0.0
2026-01-17 10:51:01.774014	14.5	39.0	-72.7	0.0
2026-01-17 10:51:04.023752	13.8	38.5	-71.9	0.0
2026-01-17 10:51:06.275444	13.2	38.1	-70.2	0.0
2026-01-17 10:51:08.522093	12.6	37.6	-71.5	0.0
2026-01-17 10:51:10.770277	12.0	37.2	-72.0	0.0
2026-01-17 10:51:13.018913	11.5	36.8	-70.7	0.0
2026-01-17 10:51:15.267164	10.9	36.3	-70.1	0.0
2026-01-17 10:51:17.515874	10.4	35.9	-71.1	0.0
2026-01-17 10:51:19.762719	9.8	35.5	-69.4	0.0
2026-01-17 10:51:22.007992	9.3	35.1	-68.8	0.0
2026-01-17 10:51:24.254828	8.8	34.6	-68.3	0.0
2026-01-17 10:51:26.501964	8.3	34.2	-69.9	0.0
2026-01-17 10:51:28.750321	7.9	33.8	-68.6	0.0
2026-01-17 10:51:30.999089	7.4	33.4	-68.3	0.0
2026-01-17 10:51:33.247000	7.0	33.0	-68.7	0.0
2026-01-17 10:51:35.493333	6.5	32.6	-70.2	0.0
2026-01-17 10:51:37.740808	6.1	32.2	-65.7	0.0
2026-01-17 10:51:39.988630	5.7	31.8	-64.9	0.0
2026-01-17 10:51:42.234263	5.3	31.4	-67.8	0.0
2026-01-17 10:51:44.482245	4.9	31.0	-67.4	0.0
2026-01-17 10:51:46.732232	4.5	30.6	-65.5	0.0
2026-01-17 10:51:48.980858	4.1	30.2	-69.5	0.0
2026-01-17 10:51:51.229260	3.7	29.9	-67.4	0.0
2026-01-17 10:51:53.477684	3.4	29.5	-68.7	0.0
2026-01-17 10:51:55.725384	3.0	29.1	-70.9	0.0
2026-01-17 10:51:57.973764	2.7	28.8	-70.4	0.0
2026-01-17 10:52:00.222842	2.3	28.4	-71.2	0.0
2026-01-17 10:52:02.472070	2.0	28.0	-66.1	0.0
2026-01-17 10:52:04.721062	1.7	27.7	-70.1	0.0
2026-01-17 10:52:06.968577	1.4	27.3	-69.8	0.0
2026-01-17 10:52:09.215550	1.1	27.0	-70.1	0.0
2026-01-17 10:52:11.463187	0.8	26.6	-70.6	0.0
2026-01-17 10:52:13.710887	0.5	26.3	-69.8	0.0
2026-01-17 10:52:15.957992	0.2	25.9	-70.8	0.0
2026-01-17 10:52:18.208617	359.9	25.6	-70.4	0.0
2026-01-17 10:52:20.453873	359.6	25.3	-68.4	0.0
2026-01-17 10:52:22.706059	359.4	24.9	-71.1	0.0
2026-01-17 10:52:24.954333	359.1	24.6	-70.2	0.0
2026-01-17 10:52:27.201134	358.8	24.3	-69.5	0.0
2026-01-17 10:52:29.448622	358.6	24.0	-69.9	0.0
2026-01-17 10:52:31.696332	358.3	23.7	-71.0	0.0
2026-01-17 10:52:33.946097	358.1	23.4	-70.4	0.0
2026-01-17 10:52:36.193052	357.9	23.0	-69.6	0.0
2026-01-17 10:52:38.439591	357.6	22.7	-68.8	0.0
2026-01-17 10:52:40.686594	357.4	22.4	-68.7	0.0
2026-01-17 10:52:42.935161	357.2	22.1	-69.6	0.0
2026-01-17 10:52:45.181386	357.0	21.8	-68.8	0.0
2026-01-17 10:52:47.426156	356.7	21.5	-69.0	0.0
2026-01-17 10:52:49.673797	356.5	21.3	-69.2	0.0
2026-01-17 10:52:51.920865	356.3	21.0	-69.9	0.0
2026-01-17 10:52:54.168334	356.1	20.7	-70.9	0.0
2026-01-17 10:52:56.414385	355.9	20.4	-71.5	0.0
2026-01-17 10:52:58.662482	355.7	20.1	-71.2	0.0
2026-01-17 10:53:00.909282	355.5	19.8	-72.1	0.0
2026-01-17 10:53:03.155943	355.4	19.6	-70.5	0.0
2026-01-17 10:53:05.405317	355.2	19.3	-72.3	0.0
2026-01-17 10:53:07.652870	355.0	19.0	-72.8	0.0
2026-01-17 10:53:09.900763	354.8	18.8	-71.2	0.0
2026-01-17 10:53:12.148520	354.6	18.5	-72.0	0.0
2026-01-17 10:53:14.398530	354.5	18.2	-71.1	0.0
2026-01-17 10:53:16.644900	354.3	18.0	-71.9	0.0
2026-01-17 10:53:18.892448	354.1	17.7	-71.3	0.0
2026-01-17 10:53:21.142097	354.0	17.5	-72.3	0.0
2026-01-17 10:53:23.389150	353.8	17.2	-71.3	0.0
2026-01-17 10:53:25.637806	353.7	17.0	-71.9	0.0
2026-01-17 10:53:27.885971	353.5	16.7	-71.2	0.0
2026-01-17 10:53:30.133956	353.4	16.5	-72.8	0.0
2026-01-17 10:53:32.385075	353.2	16.2	-72.9	0.0
2026-01-17 10:53:34.632207	353.1	16.0	-73.0	0.0
2026-01-17 10:53:36.880500	352.9	15.8	-72.0	0.0
2026-01-17 10:53:39.130357	352.8	15.5	-71.8	0.0
2026-01-17 10:53:41.376530	352.6	15.3	-70.7	0.0
2026-01-17 10:53:43.626629	352.5	15.1	-72.9	0.0
2026-01-17 10:53:45.875221	352.4	14.8	-72.6	0.0
2026-01-17 10:53:48.122993	352.2	14.6	-71.6	0.0
2026-01-17 10:53:50.371005	352.1	14.4	-71.3	0.0
2026-01-17 10:53:52.620118	352.0	14.2	-72.0	0.0
2026-01-17 10:53:54.869142	351.8	13.9	-72.8	0.0
2026-01-17 10:53:57.118083	351.7	13.7	-72.6	0.0
2026-01-17 10:53:59.370450	351.6	13.5	-71.2	0.0
2026-01-17 10:54:01.620228	351.5	13.3	-72.4	0.0
2026-01-17 10:54:03.867664	351.4	13.1	-72.2	0.0
2026-01-17 10:54:06.115035	351.2	12.9	-74.9	0.0
2026-01-17 10:54:08.362917	351.1	12.6	-73.5	0.0
2026-01-17 10:54:10.610805	351.0	12.4	-72.1	0.0
2026-01-17 10:54:12.857263	350.9	12.2	-72.3	0.0
2026-01-17 10:54:15.105914	350.8	12.0	-69.6	0.0
2026-01-17 10:54:17.354160	350.7	11.8	-71.6	0.0
2026-01-17 10:54:19.602283	350.6	11.6	-71.9	0.0
2026-01-17 10:54:21.851523	350.5	11.4	-73.0	0.0
2026-01-17 10:54:24.100458	350.4	11.2	-72.4	0.0
2026-01-17 10:54:26.347776	350.3	11.0	-70.3	0.0
2026-01-17 10:54:28.598621	350.2	10.8	-70.3	0.0
2026-01-17 10:54:30.847005	350.1	10.6	-69.7	0.0
2026-01-17 10:54:33.093655	350.0	10.4	-70.2	0.0
2026-01-17 10:54:35.340698	349.9	10.2	-76.4	0.0
2026-01-17 10:54:37.587043	349.8	10.1	-79.1	0.0
#Closed at: 2026-01-17 10:44:07.677380