passes_logs/2026/01/17/planumMaritime01/planumMaritime01__20260117_065903_METOP-B_rec.log

#Pass ID: 20260117_065903_METOP-B
#Satellite: METOP-B
#Configuration: METOP-B
#Start time: 2026-01-17 06:59:08.829151

#LorettStation: 1.0.0 05.05.2024
#Station: planumMaritime01
#Location: 37.49445 lon 55.92918 lat
#TLE: 1 38771U 12049A   26016.56671284  .00000095  00000+0  63334-4 0  9992
#TLE: 2 38771  98.6748  70.9267 0003245  73.6608 286.4926 14.21422866691723

#Time	Az	El	Level	SNR
2026-01-17 06:59:11.002271	19.7	10.2	-64.3	0.0
2026-01-17 06:59:13.250357	19.8	10.4	-66.6	0.0
2026-01-17 06:59:15.502915	19.8	10.6	-63.3	0.0
2026-01-17 06:59:17.748798	19.9	10.8	-59.7	0.0
2026-01-17 06:59:19.998269	20.0	11.0	-63.6	0.0
2026-01-17 06:59:22.247751	20.0	11.2	-59.1	0.0
2026-01-17 06:59:24.499056	20.1	11.4	-59.4	0.0
2026-01-17 06:59:26.746387	20.2	11.6	-56.9	0.0
2026-01-17 06:59:28.995581	20.2	11.8	-61.9	0.0
2026-01-17 06:59:31.242917	20.3	12.0	-57.4	0.0
2026-01-17 06:59:33.489638	20.4	12.2	-60.3	0.0
2026-01-17 06:59:35.737250	20.4	12.4	-60.1	0.0
2026-01-17 06:59:37.981803	20.5	12.6	-59.4	0.0
2026-01-17 06:59:40.224228	20.6	12.9	-62.5	0.0
2026-01-17 06:59:42.470644	20.6	13.1	-59.8	0.0
2026-01-17 06:59:44.715698	20.7	13.3	-60.4	0.0
2026-01-17 06:59:46.960959	20.8	13.5	-56.7	0.0
2026-01-17 06:59:49.203881	20.8	13.7	-62.2	0.0
2026-01-17 06:59:51.445114	20.9	14.0	-62.2	0.0
2026-01-17 06:59:53.688972	21.0	14.2	-57.7	0.0
2026-01-17 06:59:55.933905	21.1	14.4	-63.1	0.0
2026-01-17 06:59:58.176414	21.1	14.7	-53.9	0.0
2026-01-17 07:00:00.418853	21.2	14.9	-58.2	0.0
2026-01-17 07:00:02.663111	21.3	15.1	-61.1	0.0
2026-01-17 07:00:04.909108	21.4	15.4	-60.1	0.0
2026-01-17 07:00:07.155249	21.4	15.6	-59.7	0.0
2026-01-17 07:00:09.398380	21.5	15.8	-63.5	0.0
2026-01-17 07:00:11.645526	21.6	16.1	-62.0	0.0
2026-01-17 07:00:13.890480	21.7	16.3	-59.5	0.0
2026-01-17 07:00:16.133978	21.8	16.6	-62.7	0.0
2026-01-17 07:00:18.377661	21.9	16.8	-60.4	0.0
2026-01-17 07:00:20.620409	22.0	17.1	-63.6	0.0
2026-01-17 07:00:22.867096	22.0	17.4	-61.1	0.0
2026-01-17 07:00:25.113513	22.1	17.6	-60.6	0.0
2026-01-17 07:00:27.356882	22.2	17.9	-63.1	0.0
2026-01-17 07:00:29.602273	22.3	18.2	-64.8	0.0
2026-01-17 07:00:31.847360	22.4	18.4	-64.0	0.0
2026-01-17 07:00:34.092850	22.5	18.7	-59.6	0.0
2026-01-17 07:00:36.337601	22.6	19.0	-60.6	0.0
2026-01-17 07:00:38.582043	22.7	19.3	-59.3	0.0
2026-01-17 07:00:40.831684	22.8	19.5	-60.6	0.0
2026-01-17 07:00:43.075854	22.9	19.8	-62.9	0.0
2026-01-17 07:00:45.317587	23.0	20.1	-63.7	0.0
2026-01-17 07:00:47.559600	23.1	20.4	-62.6	0.0
2026-01-17 07:00:49.803301	23.2	20.7	-61.2	0.0
2026-01-17 07:00:52.047574	23.3	21.0	-59.9	0.0
2026-01-17 07:00:54.290416	23.4	21.3	-59.8	0.0
2026-01-17 07:00:56.529869	23.6	21.6	-61.9	0.0
2026-01-17 07:00:58.773654	23.7	21.9	-63.4	0.0
2026-01-17 07:01:01.019310	23.8	22.2	-62.4	0.0
2026-01-17 07:01:03.267176	23.9	22.5	-63.4	0.0
2026-01-17 07:01:05.514530	24.0	22.9	-60.4	0.0
2026-01-17 07:01:07.762644	24.2	23.2	-62.9	0.0
2026-01-17 07:01:10.012255	24.3	23.5	-61.6	0.0
2026-01-17 07:01:12.263997	24.4	23.9	-61.1	0.0
2026-01-17 07:01:14.514419	24.6	24.2	-61.7	0.0
2026-01-17 07:01:16.765496	24.7	24.5	-61.5	0.0
2026-01-17 07:01:19.013074	24.8	24.9	-63.1	0.0
2026-01-17 07:01:21.259698	25.0	25.2	-64.1	0.0
2026-01-17 07:01:23.511468	25.1	25.6	-62.5	0.0
2026-01-17 07:01:25.762137	25.3	26.0	-61.7	0.0
2026-01-17 07:01:28.013065	25.4	26.3	-64.2	0.0
2026-01-17 07:01:30.265548	25.6	26.7	-63.9	0.0
2026-01-17 07:01:32.510855	25.7	27.1	-64.8	0.0
2026-01-17 07:01:34.761226	25.9	27.5	-63.6	0.0
2026-01-17 07:01:37.009488	26.1	27.8	-65.4	0.0
2026-01-17 07:01:39.257613	26.2	28.2	-64.4	0.0
2026-01-17 07:01:41.504734	26.4	28.6	-66.9	0.0
2026-01-17 07:01:43.753135	26.6	29.0	-67.6	0.0
2026-01-17 07:01:46.002785	26.8	29.4	-65.9	0.0
2026-01-17 07:01:48.251494	26.9	29.8	-65.6	0.0
2026-01-17 07:01:50.503158	27.1	30.3	-66.6	0.0
2026-01-17 07:01:52.751766	27.3	30.7	-65.2	0.0
2026-01-17 07:01:54.997513	27.5	31.1	-65.9	0.0
2026-01-17 07:01:57.245124	27.7	31.6	-67.8	0.0
2026-01-17 07:01:59.492994	27.9	32.0	-68.4	0.0
2026-01-17 07:02:01.741927	28.2	32.5	-67.2	0.0
2026-01-17 07:02:03.990872	28.4	32.9	-65.3	0.0
2026-01-17 07:02:06.237501	28.6	33.4	-68.5	0.1
2026-01-17 07:02:08.482344	28.8	33.8	-66.5	0.0
2026-01-17 07:02:10.726971	29.1	34.3	-68.3	0.0
2026-01-17 07:02:12.970576	29.3	34.8	-66.9	0.0
2026-01-17 07:02:15.213067	29.6	35.3	-69.3	0.0
2026-01-17 07:02:17.454627	29.8	35.8	-69.9	1.0
2026-01-17 07:02:19.697874	30.1	36.3	-70.9	2.9
2026-01-17 07:02:21.940898	30.4	36.8	-69.7	0.4
2026-01-17 07:02:24.186832	30.7	37.3	-68.8	0.0
2026-01-17 07:02:26.428687	31.0	37.8	-70.4	3.6
2026-01-17 07:02:28.673994	31.3	38.4	-70.8	4.2
2026-01-17 07:02:30.919819	31.6	38.9	-70.2	5.4
2026-01-17 07:02:33.165225	31.9	39.5	-70.1	5.6
2026-01-17 07:02:35.414434	32.3	40.0	-69.5	5.6
2026-01-17 07:02:37.665594	32.6	40.6	-69.1	6.2
2026-01-17 07:02:39.915229	33.0	41.2	-70.2	5.6
2026-01-17 07:02:42.159663	33.4	41.7	-70.1	5.0
2026-01-17 07:02:44.407775	33.7	42.3	-69.0	5.0
2026-01-17 07:02:46.657015	34.1	42.9	-68.7	0.0
2026-01-17 07:02:48.903903	34.6	43.5	-70.1	6.5
2026-01-17 07:02:51.152884	35.0	44.2	-69.8	4.1
2026-01-17 07:02:53.405243	35.5	44.8	-68.8	4.3
2026-01-17 07:02:55.653758	35.9	45.4	-70.4	4.3
2026-01-17 07:02:57.903088	36.4	46.0	-70.2	7.3
2026-01-17 07:03:00.148724	36.9	46.7	-70.3	5.2
2026-01-17 07:03:02.397288	37.4	47.3	-70.5	4.9
2026-01-17 07:03:04.641555	38.0	48.0	-68.9	3.3
2026-01-17 07:03:06.888276	38.6	48.7	-69.6	3.3
2026-01-17 07:03:09.133779	39.2	49.4	-69.0	2.4
2026-01-17 07:03:11.379305	39.8	50.0	-69.0	5.0
2026-01-17 07:03:13.624389	40.4	50.7	-68.5	0.0
2026-01-17 07:03:15.869958	41.1	51.4	-69.5	6.0
2026-01-17 07:03:18.117094	41.8	52.1	-70.1	5.9
2026-01-17 07:03:20.361339	42.6	52.8	-70.4	6.2
2026-01-17 07:03:22.606119	43.4	53.5	-69.9	4.5
2026-01-17 07:03:24.850984	44.2	54.3	-69.2	4.9
2026-01-17 07:03:27.096812	45.1	55.0	-70.4	5.5
2026-01-17 07:03:29.343275	46.0	55.7	-69.3	3.0
2026-01-17 07:03:31.588760	47.0	56.4	-68.0	0.9
2026-01-17 07:03:33.833760	48.0	57.2	-67.9	1.0
2026-01-17 07:03:36.077614	49.0	57.9	-68.9	0.0
2026-01-17 07:03:38.321480	50.2	58.6	-69.4	4.1
2026-01-17 07:03:40.566649	51.4	59.3	-69.3	3.8
2026-01-17 07:03:42.812681	52.6	60.1	-70.6	8.3
2026-01-17 07:03:45.060926	54.0	60.8	-70.0	5.4
2026-01-17 07:03:47.306998	55.4	61.5	-70.0	5.8
2026-01-17 07:03:49.551064	56.9	62.2	-70.2	4.9
2026-01-17 07:03:51.797414	58.4	62.9	-70.2	1.5
2026-01-17 07:03:54.046585	60.1	63.6	-70.4	6.9
2026-01-17 07:03:56.294636	61.9	64.2	-70.4	8.1
2026-01-17 07:03:58.539701	63.8	64.9	-71.0	6.3
2026-01-17 07:04:00.785302	65.8	65.5	-69.8	4.2
2026-01-17 07:04:03.033304	67.9	66.1	-70.0	4.9
2026-01-17 07:04:05.278106	70.1	66.7	-70.3	5.0
2026-01-17 07:04:07.524374	72.4	67.3	-70.0	5.6
2026-01-17 07:04:09.768913	74.9	67.8	-71.3	6.9
2026-01-17 07:04:12.012883	77.5	68.3	-70.1	2.6
2026-01-17 07:04:14.258153	80.2	68.7	-71.7	7.1
2026-01-17 07:04:16.506121	83.0	69.1	-71.2	6.4
2026-01-17 07:04:18.754476	85.9	69.5	-71.2	5.9
2026-01-17 07:04:20.995286	89.0	69.8	-73.6	5.2
2026-01-17 07:04:23.243264	92.1	70.0	-71.7	4.8
2026-01-17 07:04:25.491194	95.3	70.2	-71.9	5.4
2026-01-17 07:04:27.735955	98.6	70.3	-71.9	7.6
2026-01-17 07:04:29.977594	101.9	70.4	-72.7	7.9
2026-01-17 07:04:32.221554	105.2	70.4	-72.7	6.5
2026-01-17 07:04:34.465064	108.5	70.4	-71.7	6.7
2026-01-17 07:04:36.707254	111.7	70.3	-71.8	7.1
2026-01-17 07:04:38.955111	115.0	70.1	-71.5	4.3
2026-01-17 07:04:41.197113	118.1	69.9	-73.4	7.5
2026-01-17 07:04:43.440296	121.2	69.6	-72.7	7.9
2026-01-17 07:04:45.685795	124.2	69.3	-72.5	8.2
2026-01-17 07:04:47.931096	127.1	68.9	-73.4	8.8
2026-01-17 07:04:50.175129	129.8	68.5	-73.3	9.5
2026-01-17 07:04:52.418917	132.5	68.0	-72.2	9.4
2026-01-17 07:04:54.668269	135.0	67.5	-73.4	10.0
2026-01-17 07:04:56.912925	137.4	67.0	-73.0	9.2
2026-01-17 07:04:59.157530	139.7	66.4	-72.9	10.9
2026-01-17 07:05:01.405489	141.8	65.8	-71.8	8.8
2026-01-17 07:05:03.650383	143.8	65.2	-72.1	8.9
2026-01-17 07:05:05.898046	145.8	64.5	-73.2	11.3
2026-01-17 07:05:08.143244	147.6	63.9	-72.6	10.0
2026-01-17 07:05:10.388074	149.3	63.2	-72.4	9.3
2026-01-17 07:05:12.631407	150.9	62.5	-72.9	10.6
2026-01-17 07:05:14.877928	152.5	61.8	-73.0	11.3
2026-01-17 07:05:17.123812	153.9	61.1	-73.4	10.6
2026-01-17 07:05:19.370751	155.3	60.4	-73.8	11.3
2026-01-17 07:05:21.619296	156.6	59.6	-73.7	10.5
2026-01-17 07:05:23.865501	157.8	58.9	-73.4	11.2
2026-01-17 07:05:26.109160	158.9	58.2	-73.8	11.3
2026-01-17 07:05:28.355089	160.0	57.4	-73.9	11.1
2026-01-17 07:05:30.598343	161.1	56.7	-73.8	11.2
2026-01-17 07:05:32.844263	162.1	56.0	-73.6	11.2
2026-01-17 07:05:35.086657	163.0	55.3	-73.8	10.6
2026-01-17 07:05:37.332549	163.9	54.5	-73.7	11.2
2026-01-17 07:05:39.576571	164.7	53.8	-73.2	12.0
2026-01-17 07:05:41.821424	165.5	53.1	-73.3	11.5
2026-01-17 07:05:44.066267	166.3	52.4	-73.4	11.1
2026-01-17 07:05:46.310660	167.0	51.7	-73.2	11.8
2026-01-17 07:05:48.556486	167.7	51.0	-73.3	11.8
2026-01-17 07:05:50.802324	168.4	50.3	-73.5	11.6
2026-01-17 07:05:53.047374	169.0	49.6	-73.4	11.2
2026-01-17 07:05:55.293262	169.6	48.9	-74.2	11.9
2026-01-17 07:05:57.539405	170.2	48.2	-74.0	11.7
2026-01-17 07:05:59.781892	170.8	47.6	-74.0	10.7
2026-01-17 07:06:02.025504	171.3	46.9	-74.5	11.4
2026-01-17 07:06:04.273555	171.8	46.3	-74.3	11.0
2026-01-17 07:06:06.516353	172.3	45.6	-74.0	10.6
2026-01-17 07:06:08.759740	172.8	45.0	-73.6	10.8
2026-01-17 07:06:11.003851	173.3	44.4	-73.8	11.0
2026-01-17 07:06:13.250027	173.7	43.7	-73.6	10.7
2026-01-17 07:06:15.496008	174.1	43.1	-73.7	11.2
2026-01-17 07:06:17.739766	174.5	42.5	-73.0	10.4
2026-01-17 07:06:19.985265	174.9	41.9	-73.1	11.1
2026-01-17 07:06:22.228511	175.3	41.3	-73.1	10.1
2026-01-17 07:06:24.476314	175.7	40.8	-72.8	9.3
2026-01-17 07:06:26.721794	176.0	40.2	-72.8	9.0
2026-01-17 07:06:28.968535	176.4	39.6	-73.2	8.6
2026-01-17 07:06:31.214006	176.7	39.1	-73.1	8.9
2026-01-17 07:06:33.464938	177.0	38.5	-72.9	8.4
2026-01-17 07:06:35.708451	177.3	38.0	-72.1	6.9
2026-01-17 07:06:37.952885	177.6	37.5	-72.1	7.4
2026-01-17 07:06:40.195276	177.9	36.9	-72.4	7.5
2026-01-17 07:06:42.437777	178.2	36.4	-72.8	8.2
2026-01-17 07:06:44.682356	178.5	35.9	-72.6	8.4
2026-01-17 07:06:46.931357	178.8	35.4	-71.4	6.2
2026-01-17 07:06:49.179713	179.0	34.9	-72.3	6.3
2026-01-17 07:06:51.423520	179.3	34.4	-72.7	7.8
2026-01-17 07:06:53.667275	179.5	33.9	-72.5	7.7
2026-01-17 07:06:55.911832	179.7	33.5	-72.5	7.2
2026-01-17 07:06:58.160531	180.0	33.0	-72.8	6.8
2026-01-17 07:07:00.402326	180.2	32.5	-72.7	7.7
2026-01-17 07:07:02.651618	180.4	32.1	-72.9	5.8
2026-01-17 07:07:04.896066	180.6	31.6	-72.4	6.4
2026-01-17 07:07:07.140137	180.8	31.2	-72.4	4.4
2026-01-17 07:07:09.382629	181.0	30.8	-72.1	4.6
2026-01-17 07:07:11.629509	181.2	30.3	-72.5	5.3
2026-01-17 07:07:13.875863	181.4	29.9	-72.4	4.4
2026-01-17 07:07:16.121397	181.6	29.5	-72.4	4.4
2026-01-17 07:07:18.365989	181.8	29.1	-72.5	4.8
2026-01-17 07:07:20.612537	182.0	28.7	-73.1	6.3
2026-01-17 07:07:22.856253	182.1	28.3	-72.7	5.9
2026-01-17 07:07:25.105586	182.3	27.9	-72.7	2.9
2026-01-17 07:07:27.352639	182.5	27.5	-72.7	6.0
2026-01-17 07:07:29.595858	182.6	27.1	-72.6	4.7
2026-01-17 07:07:31.840915	182.8	26.7	-72.9	5.2
2026-01-17 07:07:34.086381	183.0	26.4	-72.3	3.5
2026-01-17 07:07:36.330111	183.1	26.0	-72.4	5.1
2026-01-17 07:07:38.577513	183.2	25.6	-73.3	4.7
2026-01-17 07:07:40.822307	183.4	25.3	-72.8	4.4
2026-01-17 07:07:43.069189	183.5	24.9	-72.9	4.6
2026-01-17 07:07:45.310549	183.7	24.6	-72.5	3.8
2026-01-17 07:07:47.550370	183.8	24.2	-72.9	5.0
2026-01-17 07:07:49.797008	183.9	23.9	-73.2	6.5
2026-01-17 07:07:52.041465	184.1	23.5	-71.7	2.7
2026-01-17 07:07:54.288634	184.2	23.2	-72.2	1.7
2026-01-17 07:07:56.531798	184.3	22.9	-73.1	3.9
2026-01-17 07:07:58.778922	184.4	22.6	-72.9	2.7
2026-01-17 07:08:01.026839	184.6	22.2	-73.0	4.6
2026-01-17 07:08:03.272902	184.7	21.9	-73.0	4.8
2026-01-17 07:08:05.522932	184.8	21.6	-72.6	4.5
2026-01-17 07:08:07.762899	184.9	21.3	-73.1	3.6
2026-01-17 07:08:10.009994	185.0	21.0	-73.2	3.7
2026-01-17 07:08:12.255227	185.1	20.7	-73.2	4.4
2026-01-17 07:08:14.499842	185.2	20.4	-72.8	4.6
2026-01-17 07:08:16.743475	185.4	20.1	-72.9	4.3
2026-01-17 07:08:18.984839	185.5	19.8	-72.6	2.4
2026-01-17 07:08:21.231453	185.6	19.5	-72.9	4.4
2026-01-17 07:08:23.476934	185.7	19.2	-73.3	4.1
2026-01-17 07:08:25.722393	185.8	19.0	-73.5	5.1
2026-01-17 07:08:27.966137	185.9	18.7	-72.8	3.7
2026-01-17 07:08:30.213078	185.9	18.4	-73.6	2.6
2026-01-17 07:08:32.460037	186.0	18.1	-73.7	2.3
2026-01-17 07:08:34.705780	186.1	17.9	-74.0	1.5
2026-01-17 07:08:36.950888	186.2	17.6	-73.4	1.7
2026-01-17 07:08:39.197328	186.3	17.3	-73.4	4.3
2026-01-17 07:08:41.442353	186.4	17.1	-73.5	1.2
2026-01-17 07:08:43.686537	186.5	16.8	-73.3	1.8
2026-01-17 07:08:45.932016	186.6	16.5	-73.3	2.4
2026-01-17 07:08:48.179155	186.7	16.3	-73.4	1.8
2026-01-17 07:08:50.423928	186.7	16.0	-73.7	3.1
2026-01-17 07:08:52.668550	186.8	15.8	-73.4	2.4
2026-01-17 07:08:54.909749	186.9	15.6	-73.5	2.0
2026-01-17 07:08:57.153676	187.0	15.3	-73.3	1.7
2026-01-17 07:08:59.397803	187.1	15.1	-73.2	2.3
2026-01-17 07:09:01.642622	187.1	14.8	-73.0	2.2
2026-01-17 07:09:03.885675	187.2	14.6	-73.6	3.0
2026-01-17 07:09:06.129753	187.3	14.4	-73.4	2.8
2026-01-17 07:09:08.375487	187.4	14.1	-73.8	1.8
2026-01-17 07:09:10.622662	187.4	13.9	-73.2	1.0
2026-01-17 07:09:12.868712	187.5	13.7	-73.1	0.0
2026-01-17 07:09:15.114721	187.6	13.4	-73.7	0.0
2026-01-17 07:09:17.358641	187.6	13.2	-73.5	0.0
2026-01-17 07:09:19.604963	187.7	13.0	-73.5	0.0
2026-01-17 07:09:21.851187	187.8	12.8	-73.3	0.0
2026-01-17 07:09:24.094372	187.8	12.6	-72.6	0.0
2026-01-17 07:09:26.343298	187.9	12.4	-72.9	0.0
2026-01-17 07:09:28.585260	188.0	12.1	-72.6	0.0
2026-01-17 07:09:30.831225	188.0	11.9	-72.6	0.0
2026-01-17 07:09:33.077102	188.1	11.7	-71.8	0.0
2026-01-17 07:09:35.322053	188.2	11.5	-72.0	0.0
2026-01-17 07:09:37.570765	188.2	11.3	-72.4	0.0
2026-01-17 07:09:39.815613	188.3	11.1	-72.7	0.0
2026-01-17 07:09:42.057681	188.3	10.9	-72.7	0.4
2026-01-17 07:09:44.301263	188.4	10.7	-73.1	0.0
2026-01-17 07:09:46.546609	188.5	10.5	-75.5	0.0
2026-01-17 07:09:48.794462	188.5	10.3	-77.6	0.0
2026-01-17 07:09:51.042236	188.6	10.1	-79.8	0.0
#Closed at: 2026-01-17 06:59:03.835627