passes_logs/2026/01/17/planumMaritime01/planumMaritime01__20260117_164918_METOP-B_rec.log

#Pass ID: 20260117_164918_METOP-B
#Satellite: METOP-B
#Configuration: METOP-B
#Start time: 2026-01-17 16:49:23.244404

#LorettStation: 1.0.0 05.05.2024
#Station: planumMaritime01
#Location: 37.49445 lon 55.92918 lat
#TLE: 1 38771U 12049A   26016.56671284  .00000095  00000+0  63334-4 0  9992
#TLE: 2 38771  98.6748  70.9267 0003245  73.6608 286.4926 14.21422866691723

#Time	Az	El	Level	SNR
2026-01-17 16:49:25.411878	135.6	10.2	-77.1	0.0
2026-01-17 16:49:27.656821	135.5	10.4	-76.3	0.0
2026-01-17 16:49:29.902675	135.4	10.6	-75.0	0.0
2026-01-17 16:49:32.149478	135.2	10.8	-74.2	0.0
2026-01-17 16:49:34.396075	135.1	11.0	-73.7	1.5
2026-01-17 16:49:36.641131	135.0	11.2	-73.2	0.0
2026-01-17 16:49:38.887710	134.9	11.3	-73.2	1.7
2026-01-17 16:49:41.134367	134.7	11.5	-73.8	2.7
2026-01-17 16:49:43.377364	134.6	11.7	-74.3	1.6
2026-01-17 16:49:45.624008	134.5	12.0	-73.9	2.8
2026-01-17 16:49:47.870983	134.3	12.2	-73.9	3.0
2026-01-17 16:49:50.115952	134.2	12.4	-73.6	3.2
2026-01-17 16:49:52.360630	134.1	12.6	-72.3	0.0
2026-01-17 16:49:54.605302	133.9	12.8	-73.1	1.5
2026-01-17 16:49:56.851603	133.8	13.0	-73.1	2.5
2026-01-17 16:49:59.100699	133.6	13.2	-73.6	2.4
2026-01-17 16:50:01.346040	133.5	13.4	-73.4	2.6
2026-01-17 16:50:03.589389	133.3	13.6	-72.3	1.3
2026-01-17 16:50:05.834050	133.2	13.8	-73.1	0.0
2026-01-17 16:50:08.078602	133.0	14.1	-72.6	1.9
2026-01-17 16:50:10.323589	132.9	14.3	-73.4	3.3
2026-01-17 16:50:12.568665	132.7	14.5	-73.6	2.2
2026-01-17 16:50:14.815868	132.5	14.7	-73.7	3.5
2026-01-17 16:50:17.060691	132.4	15.0	-73.1	2.9
2026-01-17 16:50:19.303344	132.2	15.2	-72.2	1.9
2026-01-17 16:50:21.551960	132.1	15.4	-72.9	3.0
2026-01-17 16:50:23.797757	131.9	15.6	-73.3	2.0
2026-01-17 16:50:26.045286	131.7	15.9	-73.6	4.3
2026-01-17 16:50:28.291210	131.5	16.1	-73.9	5.4
2026-01-17 16:50:30.538371	131.3	16.4	-72.8	2.7
2026-01-17 16:50:32.780560	131.2	16.6	-72.6	2.9
2026-01-17 16:50:35.028629	131.0	16.8	-73.6	5.6
2026-01-17 16:50:37.276065	130.8	17.1	-72.2	3.0
2026-01-17 16:50:39.524983	130.6	17.3	-73.5	3.6
2026-01-17 16:50:41.770439	130.4	17.6	-73.4	6.1
2026-01-17 16:50:44.018209	130.2	17.8	-73.6	6.1
2026-01-17 16:50:46.263098	130.0	18.1	-73.7	5.3
2026-01-17 16:50:48.509242	129.8	18.3	-73.9	5.1
2026-01-17 16:50:50.757877	129.6	18.6	-73.4	5.3
2026-01-17 16:50:53.002853	129.4	18.8	-73.5	5.2
2026-01-17 16:50:55.247963	129.1	19.1	-73.5	5.0
2026-01-17 16:50:57.491374	128.9	19.4	-74.0	6.8
2026-01-17 16:50:59.737293	128.7	19.6	-73.8	6.9
2026-01-17 16:51:01.981279	128.5	19.9	-73.1	5.4
2026-01-17 16:51:04.227456	128.2	20.2	-74.1	5.6
2026-01-17 16:51:06.472750	128.0	20.5	-73.8	6.3
2026-01-17 16:51:08.717330	127.8	20.7	-72.8	6.3
2026-01-17 16:51:10.961886	127.5	21.0	-73.5	6.4
2026-01-17 16:51:13.210464	127.3	21.3	-73.8	6.7
2026-01-17 16:51:15.454191	127.0	21.6	-73.4	6.6
2026-01-17 16:51:17.695864	126.7	21.9	-72.8	4.4
2026-01-17 16:51:19.941574	126.5	22.1	-73.8	7.4
2026-01-17 16:51:22.187655	126.2	22.4	-72.9	6.3
2026-01-17 16:51:24.431615	125.9	22.7	-72.5	5.3
2026-01-17 16:51:26.676176	125.7	23.0	-73.8	7.5
2026-01-17 16:51:28.920323	125.4	23.3	-73.9	8.1
2026-01-17 16:51:31.167367	125.1	23.6	-73.7	7.5
2026-01-17 16:51:33.412777	124.8	23.9	-73.5	6.4
2026-01-17 16:51:35.660216	124.5	24.2	-73.8	7.1
2026-01-17 16:51:37.909416	124.2	24.6	-74.2	5.5
2026-01-17 16:51:40.154989	123.8	24.9	-74.1	6.0
2026-01-17 16:51:42.401313	123.5	25.2	-73.8	7.4
2026-01-17 16:51:44.645774	123.2	25.5	-73.5	7.1
2026-01-17 16:51:46.893972	122.8	25.8	-73.1	6.9
2026-01-17 16:51:49.138409	122.5	26.2	-74.0	7.8
2026-01-17 16:51:51.385240	122.2	26.5	-73.6	6.7
2026-01-17 16:51:53.629986	121.8	26.8	-73.9	7.0
2026-01-17 16:51:55.874005	121.4	27.1	-73.8	7.5
2026-01-17 16:51:58.118201	121.1	27.5	-73.7	8.3
2026-01-17 16:52:00.363826	120.7	27.8	-73.5	7.2
2026-01-17 16:52:02.610088	120.3	28.2	-73.4	6.6
2026-01-17 16:52:04.859468	119.9	28.5	-72.9	5.3
2026-01-17 16:52:07.104442	119.5	28.9	-73.2	7.5
2026-01-17 16:52:09.346404	119.1	29.2	-73.3	7.7
2026-01-17 16:52:11.591004	118.6	29.6	-72.5	6.7
2026-01-17 16:52:13.835241	118.2	29.9	-72.6	7.1
2026-01-17 16:52:16.079462	117.7	30.3	-72.8	7.0
2026-01-17 16:52:18.326306	117.3	30.6	-72.4	6.5
2026-01-17 16:52:20.569562	116.8	31.0	-72.4	6.6
2026-01-17 16:52:22.815149	116.3	31.4	-72.6	5.8
2026-01-17 16:52:25.061875	115.9	31.7	-72.5	8.2
2026-01-17 16:52:27.311588	115.4	32.1	-72.8	8.0
2026-01-17 16:52:29.557630	114.8	32.5	-72.8	6.8
2026-01-17 16:52:31.801293	114.3	32.8	-73.1	7.1
2026-01-17 16:52:34.045286	113.8	33.2	-72.7	8.7
2026-01-17 16:52:36.291598	113.2	33.6	-72.7	8.2
2026-01-17 16:52:38.537627	112.7	34.0	-72.1	8.6
2026-01-17 16:52:40.785603	112.1	34.3	-71.3	7.4
2026-01-17 16:52:43.032902	111.5	34.7	-71.2	5.9
2026-01-17 16:52:45.277614	110.9	35.1	-70.3	6.0
2026-01-17 16:52:47.523054	110.3	35.5	-72.2	7.4
2026-01-17 16:52:49.769731	109.7	35.9	-72.0	7.0
2026-01-17 16:52:52.016890	109.0	36.3	-71.9	6.9
2026-01-17 16:52:54.266329	108.3	36.6	-71.2	5.2
2026-01-17 16:52:56.511669	107.7	37.0	-71.5	6.8
2026-01-17 16:52:58.756035	107.0	37.4	-70.7	5.2
2026-01-17 16:53:01.000819	106.3	37.8	-70.2	0.7
2026-01-17 16:53:03.246424	105.5	38.2	-70.0	4.2
2026-01-17 16:53:05.493147	104.8	38.6	-70.5	4.1
2026-01-17 16:53:07.739600	104.0	38.9	-70.1	4.8
2026-01-17 16:53:09.985453	103.2	39.3	-72.4	5.2
2026-01-17 16:53:12.232084	102.4	39.7	-71.8	5.7
2026-01-17 16:53:14.475104	101.6	40.1	-71.5	3.7
2026-01-17 16:53:16.718335	100.8	40.4	-71.1	4.8
2026-01-17 16:53:18.966887	99.9	40.8	-71.8	6.2
2026-01-17 16:53:21.212959	99.0	41.2	-70.7	4.8
2026-01-17 16:53:23.456099	98.1	41.5	-69.9	3.4
2026-01-17 16:53:25.704624	97.2	41.9	-70.0	2.1
2026-01-17 16:53:27.950611	96.3	42.3	-69.4	2.0
2026-01-17 16:53:30.194434	95.3	42.6	-69.4	4.3
2026-01-17 16:53:32.440718	94.4	42.9	-69.4	3.9
2026-01-17 16:53:34.687339	93.4	43.3	-68.5	2.4
2026-01-17 16:53:36.930500	92.3	43.6	-69.6	6.0
2026-01-17 16:53:39.175409	91.3	43.9	-69.7	5.1
2026-01-17 16:53:41.419465	90.2	44.2	-68.9	3.1
2026-01-17 16:53:43.662981	89.1	44.5	-69.9	3.8
2026-01-17 16:53:45.912198	88.0	44.8	-68.4	3.6
2026-01-17 16:53:48.158441	86.9	45.1	-68.6	2.3
2026-01-17 16:53:50.406355	85.8	45.4	-68.7	3.3
2026-01-17 16:53:52.655162	84.6	45.6	-68.1	1.1
2026-01-17 16:53:54.904418	83.4	45.9	-70.3	4.7
2026-01-17 16:53:57.149878	82.2	46.1	-70.1	3.9
2026-01-17 16:53:59.399624	81.0	46.3	-70.6	3.3
2026-01-17 16:54:01.643271	79.8	46.5	-69.7	0.0
2026-01-17 16:54:03.890791	78.5	46.7	-68.6	4.4
2026-01-17 16:54:06.137966	77.3	46.9	-69.7	0.4
2026-01-17 16:54:08.381245	76.0	47.1	-68.6	0.7
2026-01-17 16:54:10.629568	74.7	47.2	-69.4	5.0
2026-01-17 16:54:12.873897	73.4	47.4	-67.9	2.9
2026-01-17 16:54:15.119627	72.1	47.5	-68.7	0.5
2026-01-17 16:54:17.363206	70.7	47.6	-68.0	1.7
2026-01-17 16:54:19.607080	69.4	47.7	-69.2	2.3
2026-01-17 16:54:21.849448	68.1	47.7	-67.5	0.0
2026-01-17 16:54:24.096262	66.7	47.8	-68.3	2.6
2026-01-17 16:54:26.340586	65.4	47.8	-66.9	0.0
2026-01-17 16:54:28.585877	64.0	47.9	-67.8	0.0
2026-01-17 16:54:30.830673	62.7	47.9	-68.3	2.3
2026-01-17 16:54:33.076473	61.3	47.8	-65.8	0.0
2026-01-17 16:54:35.322848	60.0	47.8	-65.1	0.0
2026-01-17 16:54:37.570022	58.6	47.8	-66.5	0.0
2026-01-17 16:54:39.813680	57.3	47.7	-68.5	1.7
2026-01-17 16:54:42.055176	56.0	47.6	-68.3	2.0
2026-01-17 16:54:44.301742	54.6	47.5	-66.3	0.1
2026-01-17 16:54:46.545900	53.3	47.4	-68.3	0.0
2026-01-17 16:54:48.789326	52.0	47.3	-67.9	0.0
2026-01-17 16:54:51.035119	50.7	47.1	-68.0	0.6
2026-01-17 16:54:53.277578	49.4	46.9	-67.4	0.0
2026-01-17 16:54:55.521946	48.2	46.8	-69.1	0.3
2026-01-17 16:54:57.766698	46.9	46.6	-69.7	1.5
2026-01-17 16:55:00.007135	45.7	46.4	-68.9	0.5
2026-01-17 16:55:02.254561	44.5	46.1	-68.7	0.0
2026-01-17 16:55:04.499823	43.3	45.9	-68.2	0.0
2026-01-17 16:55:06.744231	42.1	45.7	-68.5	0.0
2026-01-17 16:55:08.989637	40.9	45.4	-69.4	3.3
2026-01-17 16:55:11.234341	39.8	45.1	-67.6	0.0
2026-01-17 16:55:13.476750	38.7	44.9	-68.4	0.0
2026-01-17 16:55:15.722494	37.6	44.6	-69.0	2.6
2026-01-17 16:55:17.969467	36.5	44.3	-67.9	4.0
2026-01-17 16:55:20.212357	35.4	44.0	-69.4	4.4
2026-01-17 16:55:22.456306	34.4	43.7	-69.4	0.8
2026-01-17 16:55:24.700358	33.4	43.3	-70.2	5.7
2026-01-17 16:55:26.946397	32.4	43.0	-69.3	2.9
2026-01-17 16:55:29.191328	31.4	42.7	-67.6	0.7
2026-01-17 16:55:31.434480	30.4	42.3	-68.7	1.7
2026-01-17 16:55:33.684610	29.5	42.0	-69.7	2.5
2026-01-17 16:55:35.930319	28.6	41.6	-69.7	2.9
2026-01-17 16:55:38.176388	27.7	41.3	-68.4	0.7
2026-01-17 16:55:40.423024	26.8	40.9	-68.1	0.1
2026-01-17 16:55:42.667895	25.9	40.5	-66.7	0.0
2026-01-17 16:55:44.909930	25.1	40.2	-68.3	0.0
2026-01-17 16:55:47.155339	24.3	39.8	-68.4	1.2
2026-01-17 16:55:49.402900	23.5	39.4	-67.2	0.0
2026-01-17 16:55:51.647343	22.7	39.0	-65.7	0.0
2026-01-17 16:55:53.890275	21.9	38.7	-65.2	0.0
2026-01-17 16:55:56.131464	21.2	38.3	-65.8	0.0
2026-01-17 16:55:58.376451	20.4	37.9	-65.3	0.0
2026-01-17 16:56:00.624606	19.7	37.5	-64.9	0.0
2026-01-17 16:56:02.869473	19.0	37.1	-63.7	0.0
2026-01-17 16:56:05.115686	18.4	36.7	-66.2	0.0
2026-01-17 16:56:07.360500	17.7	36.4	-65.8	0.0
2026-01-17 16:56:09.604401	17.0	36.0	-65.5	0.0
2026-01-17 16:56:11.847459	16.4	35.6	-63.9	0.0
2026-01-17 16:56:14.090635	15.8	35.2	-64.8	0.0
2026-01-17 16:56:16.335355	15.2	34.8	-66.2	0.0
2026-01-17 16:56:18.583902	14.6	34.5	-64.9	0.0
2026-01-17 16:56:20.827802	14.0	34.1	-65.1	0.0
2026-01-17 16:56:23.072365	13.5	33.7	-63.7	0.0
2026-01-17 16:56:25.317339	12.9	33.3	-64.0	0.0
2026-01-17 16:56:27.565870	12.4	33.0	-62.7	0.0
2026-01-17 16:56:29.807991	11.9	32.6	-64.7	0.0
2026-01-17 16:56:32.050501	11.4	32.2	-63.6	0.0
2026-01-17 16:56:34.297104	10.9	31.8	-63.0	0.0
2026-01-17 16:56:36.540466	10.4	31.5	-64.0	0.0
2026-01-17 16:56:38.785072	9.9	31.1	-66.1	0.0
2026-01-17 16:56:41.030892	9.4	30.8	-65.1	0.0
2026-01-17 16:56:43.277329	9.0	30.4	-63.6	0.0
2026-01-17 16:56:45.524176	8.5	30.0	-62.5	0.0
2026-01-17 16:56:47.764715	8.1	29.7	-64.0	0.0
2026-01-17 16:56:50.010198	7.7	29.3	-63.5	0.0
2026-01-17 16:56:52.255684	7.2	29.0	-64.1	0.0
2026-01-17 16:56:54.501084	6.8	28.6	-66.4	0.0
2026-01-17 16:56:56.747166	6.4	28.3	-65.6	0.0
2026-01-17 16:56:58.992450	6.0	28.0	-64.8	0.0
2026-01-17 16:57:01.236325	5.7	27.6	-63.0	0.0
2026-01-17 16:57:03.480072	5.3	27.3	-65.6	0.0
2026-01-17 16:57:05.722999	4.9	26.9	-66.3	0.0
2026-01-17 16:57:07.970123	4.6	26.6	-64.0	0.0
2026-01-17 16:57:10.213744	4.2	26.3	-64.2	0.0
2026-01-17 16:57:12.458120	3.9	26.0	-64.2	0.0
2026-01-17 16:57:14.700500	3.5	25.6	-64.6	0.0
2026-01-17 16:57:16.946116	3.2	25.3	-62.4	0.0
2026-01-17 16:57:19.190198	2.9	25.0	-62.1	0.0
2026-01-17 16:57:21.434248	2.6	24.7	-63.2	0.0
2026-01-17 16:57:23.678222	2.2	24.4	-63.5	0.0
2026-01-17 16:57:25.925712	1.9	24.1	-61.5	0.0
2026-01-17 16:57:28.169449	1.6	23.8	-62.6	0.0
2026-01-17 16:57:30.414106	1.4	23.5	-60.7	0.0
2026-01-17 16:57:32.659540	1.1	23.2	-62.9	0.0
2026-01-17 16:57:34.903382	0.8	22.9	-61.5	0.0
2026-01-17 16:57:37.150921	0.5	22.6	-64.4	0.0
2026-01-17 16:57:39.393489	0.2	22.3	-62.8	0.0
2026-01-17 16:57:41.637712	360.0	22.0	-60.4	0.0
2026-01-17 16:57:43.881818	359.7	21.7	-59.3	0.0
2026-01-17 16:57:46.125236	359.5	21.4	-64.8	0.0
2026-01-17 16:57:48.369741	359.2	21.2	-65.8	0.0
2026-01-17 16:57:50.614676	359.0	20.9	-64.9	0.0
2026-01-17 16:57:52.860725	358.7	20.6	-64.3	0.0
2026-01-17 16:57:55.104552	358.5	20.3	-64.8	0.0
2026-01-17 16:57:57.347316	358.3	20.1	-63.5	0.0
2026-01-17 16:57:59.596143	358.0	19.8	-64.2	0.0
2026-01-17 16:58:01.817609	357.8	19.5	-63.3	0.0
2026-01-17 16:58:04.061188	357.6	19.3	-63.9	0.0
2026-01-17 16:58:06.306185	357.4	19.0	-64.4	0.0
2026-01-17 16:58:08.556869	357.2	18.7	-64.4	0.0
2026-01-17 16:58:10.801003	356.9	18.5	-65.3	0.0
2026-01-17 16:58:13.045683	356.7	18.2	-65.6	0.0
2026-01-17 16:58:15.289937	356.5	18.0	-64.8	0.0
2026-01-17 16:58:17.536200	356.3	17.7	-65.4	0.0
2026-01-17 16:58:19.783350	356.1	17.5	-66.6	0.0
2026-01-17 16:58:22.029994	356.0	17.2	-63.9	0.0
2026-01-17 16:58:24.274327	355.8	17.0	-67.0	0.0
2026-01-17 16:58:26.521619	355.6	16.8	-67.3	0.0
2026-01-17 16:58:28.766600	355.4	16.5	-66.3	0.0
2026-01-17 16:58:31.010535	355.2	16.3	-65.8	0.0
2026-01-17 16:58:33.256841	355.0	16.0	-66.8	0.0
2026-01-17 16:58:35.503334	354.9	15.8	-65.7	0.0
2026-01-17 16:58:37.747605	354.7	15.6	-66.3	0.0
2026-01-17 16:58:39.994100	354.5	15.3	-66.8	0.0
2026-01-17 16:58:42.239709	354.4	15.1	-66.4	0.0
2026-01-17 16:58:44.482736	354.2	14.9	-66.9	0.0
2026-01-17 16:58:46.724526	354.0	14.7	-68.3	0.0
2026-01-17 16:58:48.968664	353.9	14.5	-68.4	0.0
2026-01-17 16:58:51.215881	353.7	14.2	-66.4	0.0
2026-01-17 16:58:53.459802	353.6	14.0	-66.2	0.0
2026-01-17 16:58:55.703443	353.4	13.8	-67.8	0.0
2026-01-17 16:58:57.949645	353.3	13.6	-68.2	0.0
2026-01-17 16:59:00.196254	353.1	13.4	-67.3	0.0
2026-01-17 16:59:02.440062	353.0	13.2	-63.9	0.0
2026-01-17 16:59:04.683328	352.9	12.9	-68.1	0.0
2026-01-17 16:59:06.929048	352.7	12.7	-67.9	0.0
2026-01-17 16:59:09.176026	352.6	12.5	-68.1	0.0
2026-01-17 16:59:11.421269	352.4	12.3	-66.5	0.0
2026-01-17 16:59:13.665710	352.3	12.1	-66.7	0.0
2026-01-17 16:59:15.908702	352.2	11.9	-64.5	0.0
2026-01-17 16:59:18.152832	352.1	11.7	-65.8	0.0
2026-01-17 16:59:20.396914	351.9	11.5	-66.0	0.0
2026-01-17 16:59:22.642294	351.8	11.3	-67.0	0.0
2026-01-17 16:59:24.888038	351.7	11.1	-67.7	0.0
2026-01-17 16:59:27.134502	351.6	10.9	-68.6	0.0
2026-01-17 16:59:29.379476	351.4	10.7	-64.6	0.0
2026-01-17 16:59:31.623732	351.3	10.5	-64.4	0.0
2026-01-17 16:59:33.866008	351.2	10.4	-63.1	0.0
2026-01-17 16:59:36.109894	351.1	10.2	-72.5	0.0
#Closed at: 2026-01-17 16:49:18.250326