passes_logs/2026/01/17/planumMaritime01/planumMaritime01__20260117_080218_METEOR-M2_3_rec.log

#Pass ID: 20260117_080218_METEOR-M2 3
#Satellite: METEOR-M2 3
#Configuration: METEOR-M2 3
#Start time: 2026-01-17 08:02:23.856711

#LorettStation: 1.0.0 05.05.2024
#Station: planumMaritime01
#Location: 37.49445 lon 55.92918 lat
#TLE: 1 57166U 23091A   26016.61227904 -.00000003  00000+0  17639-4 0  9999
#TLE: 2 57166  98.6328  74.5339 0002991 243.3309 116.7564 14.24030641132943

#Time	Az	El	Level	SNR
2026-01-17 08:02:26.026801	10.7	10.2	-68.9	0.0
2026-01-17 08:02:28.275039	10.6	10.4	-63.7	0.0
2026-01-17 08:02:30.524980	10.6	10.6	-67.0	0.0
2026-01-17 08:02:32.772657	10.5	10.8	-61.5	0.0
2026-01-17 08:02:35.018496	10.4	11.0	-62.7	0.0
2026-01-17 08:02:37.269345	10.3	11.2	-69.8	0.0
2026-01-17 08:02:39.518097	10.2	11.4	-59.6	0.0
2026-01-17 08:02:41.765172	10.1	11.6	-60.6	0.0
2026-01-17 08:02:44.013730	10.0	11.8	-60.0	0.0
2026-01-17 08:02:46.263116	9.9	12.0	-69.7	0.0
2026-01-17 08:02:48.514040	9.8	12.2	-67.8	0.0
2026-01-17 08:02:50.762026	9.7	12.4	-70.0	0.0
2026-01-17 08:02:53.009878	9.6	12.6	-68.8	0.0
2026-01-17 08:02:55.257636	9.5	12.8	-70.6	0.0
2026-01-17 08:02:57.504154	9.4	13.0	-63.9	0.0
2026-01-17 08:02:59.751840	9.3	13.3	-66.9	0.0
2026-01-17 08:03:01.998953	9.2	13.5	-70.9	0.0
2026-01-17 08:03:04.245693	9.1	13.7	-67.3	0.0
2026-01-17 08:03:06.495686	9.0	13.9	-70.3	0.0
2026-01-17 08:03:08.743603	8.9	14.1	-68.7	0.0
2026-01-17 08:03:10.994943	8.8	14.4	-68.7	0.0
2026-01-17 08:03:13.241685	8.7	14.6	-62.6	0.0
2026-01-17 08:03:15.490604	8.5	14.8	-69.2	0.0
2026-01-17 08:03:17.738416	8.4	15.1	-68.2	0.0
2026-01-17 08:03:19.989278	8.3	15.3	-68.2	0.0
2026-01-17 08:03:22.237340	8.2	15.5	-67.6	0.0
2026-01-17 08:03:24.486576	8.0	15.8	-69.9	0.0
2026-01-17 08:03:26.736252	7.9	16.0	-67.9	0.0
2026-01-17 08:03:28.987121	7.8	16.3	-64.9	0.0
2026-01-17 08:03:31.233566	7.7	16.5	-70.1	0.0
2026-01-17 08:03:33.482262	7.5	16.7	-69.6	0.0
2026-01-17 08:03:35.734945	7.4	17.0	-69.3	0.0
2026-01-17 08:03:37.984873	7.2	17.3	-68.3	0.0
2026-01-17 08:03:40.232661	7.1	17.5	-70.0	0.0
2026-01-17 08:03:42.483604	7.0	17.8	-68.9	0.0
2026-01-17 08:03:44.735338	6.8	18.0	-67.6	0.0
2026-01-17 08:03:46.986440	6.7	18.3	-68.9	0.0
2026-01-17 08:03:49.232473	6.5	18.6	-69.8	0.0
2026-01-17 08:03:51.479308	6.3	18.8	-68.7	0.0
2026-01-17 08:03:53.730579	6.2	19.1	-67.5	0.0
2026-01-17 08:03:55.979506	6.0	19.4	-69.4	0.0
2026-01-17 08:03:58.226781	5.9	19.6	-64.5	0.0
2026-01-17 08:04:00.475140	5.7	19.9	-68.4	0.0
2026-01-17 08:04:02.722556	5.5	20.2	-68.8	0.0
2026-01-17 08:04:04.970359	5.3	20.5	-69.2	0.0
2026-01-17 08:04:07.219106	5.2	20.8	-66.5	0.0
2026-01-17 08:04:09.467242	5.0	21.1	-68.9	0.0
2026-01-17 08:04:11.714308	4.8	21.4	-71.3	0.0
2026-01-17 08:04:13.964540	4.6	21.7	-65.9	0.0
2026-01-17 08:04:16.210947	4.4	22.0	-69.0	0.0
2026-01-17 08:04:18.460549	4.2	22.3	-69.8	0.0
2026-01-17 08:04:20.709609	4.0	22.6	-67.7	0.0
2026-01-17 08:04:22.956920	3.8	22.9	-69.1	0.0
2026-01-17 08:04:25.205540	3.6	23.2	-66.5	0.0
2026-01-17 08:04:27.454039	3.4	23.5	-70.0	0.0
2026-01-17 08:04:29.701593	3.2	23.9	-70.7	0.0
2026-01-17 08:04:31.949261	2.9	24.2	-65.5	0.0
2026-01-17 08:04:34.202549	2.7	24.5	-67.9	0.0
2026-01-17 08:04:36.449163	2.5	24.8	-69.9	0.0
2026-01-17 08:04:38.697495	2.2	25.2	-69.5	0.0
2026-01-17 08:04:40.945548	2.0	25.5	-69.7	0.0
2026-01-17 08:04:43.192799	1.8	25.9	-69.9	0.0
2026-01-17 08:04:45.439678	1.5	26.2	-69.4	0.0
2026-01-17 08:04:47.688921	1.2	26.6	-70.6	0.0
2026-01-17 08:04:49.937979	1.0	26.9	-72.8	0.0
2026-01-17 08:04:52.185849	0.7	27.3	-72.2	0.0
2026-01-17 08:04:54.432255	0.4	27.6	-70.9	0.0
2026-01-17 08:04:56.679374	0.1	28.0	-71.1	0.0
2026-01-17 08:04:58.928177	359.8	28.4	-72.2	0.0
2026-01-17 08:05:01.177992	359.5	28.8	-71.5	0.0
2026-01-17 08:05:03.425091	359.2	29.1	-70.1	0.0
2026-01-17 08:05:05.672115	358.9	29.5	-70.5	0.0
2026-01-17 08:05:07.921785	358.6	29.9	-70.5	0.0
2026-01-17 08:05:10.168409	358.3	30.3	-70.2	0.0
2026-01-17 08:05:12.413679	357.9	30.7	-70.6	0.0
2026-01-17 08:05:14.660832	357.6	31.1	-72.0	0.0
2026-01-17 08:05:16.909065	357.2	31.5	-68.0	0.0
2026-01-17 08:05:19.156057	356.8	31.9	-70.2	0.0
2026-01-17 08:05:21.404938	356.5	32.3	-71.0	0.0
2026-01-17 08:05:23.653211	356.1	32.8	-70.4	0.0
2026-01-17 08:05:25.900381	355.7	33.2	-70.6	0.0
2026-01-17 08:05:28.146777	355.3	33.6	-71.7	0.0
2026-01-17 08:05:30.393432	354.8	34.0	-68.5	0.0
2026-01-17 08:05:32.640672	354.4	34.5	-70.5	0.0
2026-01-17 08:05:34.886992	354.0	34.9	-71.5	0.0
2026-01-17 08:05:37.135590	353.5	35.4	-72.6	0.0
2026-01-17 08:05:39.381654	353.0	35.8	-72.4	0.0
2026-01-17 08:05:41.627922	352.6	36.3	-73.4	0.2
2026-01-17 08:05:43.876045	352.1	36.7	-72.9	0.0
2026-01-17 08:05:46.123983	351.6	37.2	-73.6	0.2
2026-01-17 08:05:48.370793	351.0	37.7	-73.1	0.0
2026-01-17 08:05:50.618655	350.5	38.1	-74.3	2.2
2026-01-17 08:05:52.866319	349.9	38.6	-74.3	2.8
2026-01-17 08:05:55.111835	349.4	39.1	-75.5	5.8
2026-01-17 08:05:57.361485	348.8	39.6	-75.7	4.2
2026-01-17 08:05:59.611460	348.1	40.1	-75.7	5.7
2026-01-17 08:06:01.856931	347.5	40.5	-75.0	6.0
2026-01-17 08:06:04.104912	346.9	41.0	-73.6	2.7
2026-01-17 08:06:06.352193	346.2	41.5	-75.4	2.9
2026-01-17 08:06:08.601490	345.5	42.0	-75.2	3.2
2026-01-17 08:06:10.852893	344.8	42.5	-75.4	4.8
2026-01-17 08:06:13.103339	344.1	43.0	-74.9	5.2
2026-01-17 08:06:15.351216	343.3	43.5	-77.2	8.2
2026-01-17 08:06:17.601124	342.5	44.0	-75.6	5.4
2026-01-17 08:06:19.850218	341.7	44.5	-76.7	7.7
2026-01-17 08:06:22.095785	340.9	45.0	-77.0	6.5
2026-01-17 08:06:24.342745	340.0	45.5	-77.9	7.4
2026-01-17 08:06:26.592092	339.1	46.0	-77.7	7.7
2026-01-17 08:06:28.837033	338.2	46.5	-78.0	9.2
2026-01-17 08:06:31.086881	337.3	47.0	-75.8	4.3
2026-01-17 08:06:33.332392	336.3	47.5	-76.9	4.4
2026-01-17 08:06:35.580533	335.3	48.0	-76.5	5.7
2026-01-17 08:06:37.830071	334.2	48.5	-77.4	7.4
2026-01-17 08:06:40.077778	333.2	48.9	-76.3	4.4
2026-01-17 08:06:42.323554	332.0	49.4	-77.8	6.7
2026-01-17 08:06:44.572383	330.9	49.9	-76.9	6.0
2026-01-17 08:06:46.820558	329.7	50.3	-77.0	0.0
2026-01-17 08:06:49.068774	328.5	50.8	-76.5	2.6
2026-01-17 08:06:51.317838	327.3	51.2	-77.0	4.8
2026-01-17 08:06:53.566742	326.0	51.7	-76.9	5.4
2026-01-17 08:06:55.815542	324.6	52.1	-76.7	0.0
2026-01-17 08:06:58.068479	323.3	52.5	-77.0	5.1
2026-01-17 08:07:00.319607	321.9	52.9	-77.1	6.3
2026-01-17 08:07:02.568601	320.4	53.2	-76.4	0.0
2026-01-17 08:07:04.818033	318.9	53.6	-77.8	3.1
2026-01-17 08:07:07.064420	317.4	53.9	-77.3	3.7
2026-01-17 08:07:09.312289	315.9	54.3	-78.3	3.7
2026-01-17 08:07:11.561019	314.3	54.6	-77.1	1.2
2026-01-17 08:07:13.808694	312.7	54.8	-78.5	6.0
2026-01-17 08:07:16.057995	311.0	55.1	-76.9	0.0
2026-01-17 08:07:18.305696	309.4	55.3	-77.5	4.3
2026-01-17 08:07:20.554444	307.7	55.5	-78.0	3.0
2026-01-17 08:07:22.803412	305.9	55.7	-77.7	3.6
2026-01-17 08:07:25.049760	304.2	55.9	-78.5	4.8
2026-01-17 08:07:27.296727	302.4	56.0	-77.1	2.5
2026-01-17 08:07:29.544308	300.6	56.1	-77.9	0.0
2026-01-17 08:07:31.791986	298.8	56.2	-77.3	0.0
2026-01-17 08:07:34.039019	297.0	56.3	-77.9	3.4
2026-01-17 08:07:36.288855	295.2	56.3	-77.3	0.0
2026-01-17 08:07:38.534392	293.4	56.3	-77.2	4.9
2026-01-17 08:07:40.782828	291.6	56.3	-78.3	2.2
2026-01-17 08:07:43.032112	289.8	56.2	-78.6	6.8
2026-01-17 08:07:45.283289	288.0	56.1	-78.3	5.5
2026-01-17 08:07:47.531937	286.2	56.0	-76.9	0.9
2026-01-17 08:07:49.779445	284.4	55.9	-78.4	3.6
2026-01-17 08:07:52.025349	282.7	55.7	-78.2	4.1
2026-01-17 08:07:54.270186	281.0	55.5	-77.7	1.0
2026-01-17 08:07:56.518667	279.3	55.3	-78.4	1.8
2026-01-17 08:07:58.771195	277.6	55.1	-78.1	5.0
2026-01-17 08:08:01.019795	275.9	54.8	-79.3	6.2
2026-01-17 08:08:03.264665	274.3	54.6	-79.1	8.3
2026-01-17 08:08:05.513347	272.7	54.3	-79.2	5.4
2026-01-17 08:08:07.757473	271.2	53.9	-79.3	8.6
2026-01-17 08:08:10.005230	269.7	53.6	-79.5	8.6
2026-01-17 08:08:12.253604	268.2	53.2	-79.5	8.8
2026-01-17 08:08:14.503313	266.7	52.9	-78.8	5.2
2026-01-17 08:08:16.750381	265.3	52.5	-79.5	8.4
2026-01-17 08:08:19.001838	264.0	52.1	-79.8	7.6
2026-01-17 08:08:21.250205	262.6	51.7	-79.6	9.0
2026-01-17 08:08:23.499829	261.3	51.2	-79.4	9.6
2026-01-17 08:08:25.745471	260.1	50.8	-78.7	9.1
2026-01-17 08:08:27.996911	258.9	50.3	-78.1	8.7
2026-01-17 08:08:30.246915	257.7	49.9	-79.3	9.6
2026-01-17 08:08:32.495535	256.5	49.4	-79.5	9.8
2026-01-17 08:08:34.743594	255.4	48.9	-78.6	10.0
2026-01-17 08:08:36.990469	254.3	48.5	-79.0	10.4
2026-01-17 08:08:39.240723	253.3	48.0	-78.7	9.4
2026-01-17 08:08:41.487182	252.3	47.5	-79.1	10.1
2026-01-17 08:08:43.734938	251.3	47.0	-79.0	10.3
2026-01-17 08:08:45.982561	250.4	46.5	-78.9	10.8
2026-01-17 08:08:48.229421	249.4	46.0	-79.0	11.8
2026-01-17 08:08:50.480288	248.5	45.5	-79.0	11.9
2026-01-17 08:08:52.727235	247.7	45.0	-79.4	10.5
2026-01-17 08:08:54.975230	246.8	44.5	-79.5	10.8
2026-01-17 08:08:57.223820	246.0	44.0	-79.2	10.8
2026-01-17 08:08:59.473603	245.2	43.5	-79.2	11.9
2026-01-17 08:09:01.721235	244.5	43.0	-78.9	10.3
2026-01-17 08:09:03.967368	243.7	42.5	-79.3	10.4
2026-01-17 08:09:06.215830	243.0	42.0	-79.7	10.2
2026-01-17 08:09:08.463484	242.3	41.5	-79.5	11.4
2026-01-17 08:09:10.714695	241.7	41.0	-79.4	11.2
2026-01-17 08:09:12.960961	241.0	40.5	-79.6	11.2
2026-01-17 08:09:15.208013	240.4	40.0	-79.2	12.5
2026-01-17 08:09:17.455101	239.8	39.5	-79.5	12.7
2026-01-17 08:09:19.701474	239.2	39.0	-79.1	12.6
2026-01-17 08:09:21.947064	238.6	38.6	-79.2	12.9
2026-01-17 08:09:24.196701	238.0	38.1	-78.9	12.0
2026-01-17 08:09:26.444193	237.5	37.6	-79.0	12.7
2026-01-17 08:09:28.694998	237.0	37.1	-79.1	12.8
2026-01-17 08:09:30.942325	236.5	36.7	-79.1	12.8
2026-01-17 08:09:33.188962	236.0	36.2	-79.0	13.4
2026-01-17 08:09:35.435755	235.5	35.7	-79.0	13.2
2026-01-17 08:09:37.682614	235.0	35.3	-78.5	12.2
2026-01-17 08:09:39.932514	234.5	34.8	-78.6	13.2
2026-01-17 08:09:42.179473	234.1	34.4	-78.3	12.4
2026-01-17 08:09:44.430280	233.7	34.0	-78.8	12.8
2026-01-17 08:09:46.677658	233.2	33.5	-78.6	12.6
2026-01-17 08:09:48.925135	232.8	33.1	-79.0	13.2
2026-01-17 08:09:51.173428	232.4	32.7	-79.0	12.5
2026-01-17 08:09:53.423343	232.0	32.2	-78.7	12.8
2026-01-17 08:09:55.671254	231.7	31.8	-78.9	12.7
2026-01-17 08:09:57.920899	231.3	31.4	-78.9	12.7
2026-01-17 08:10:00.168755	230.9	31.0	-79.0	12.3
2026-01-17 08:10:02.416982	230.6	30.6	-78.4	12.5
2026-01-17 08:10:04.664820	230.2	30.2	-78.3	13.6
2026-01-17 08:10:06.912818	229.9	29.8	-78.5	13.2
2026-01-17 08:10:09.164692	229.6	29.4	-78.8	12.4
2026-01-17 08:10:11.414320	229.3	29.0	-79.0	11.5
2026-01-17 08:10:13.658941	228.9	28.6	-78.6	13.2
2026-01-17 08:10:15.907579	228.6	28.3	-78.7	12.4
2026-01-17 08:10:18.157404	228.3	27.9	-78.2	12.2
2026-01-17 08:10:20.408206	228.1	27.5	-78.4	11.8
2026-01-17 08:10:22.654726	227.8	27.2	-78.3	11.9
2026-01-17 08:10:24.903237	227.5	26.8	-78.6	11.8
2026-01-17 08:10:27.152463	227.2	26.4	-78.3	10.7
2026-01-17 08:10:29.399387	227.0	26.1	-78.7	11.9
2026-01-17 08:10:31.648600	226.7	25.7	-78.1	11.2
2026-01-17 08:10:33.899184	226.5	25.4	-78.5	12.6
2026-01-17 08:10:36.148068	226.2	25.0	-78.6	11.8
2026-01-17 08:10:38.398842	226.0	24.7	-78.7	11.5
2026-01-17 08:10:40.650287	225.7	24.4	-78.8	10.7
2026-01-17 08:10:42.897633	225.5	24.0	-79.3	11.8
2026-01-17 08:10:45.150389	225.3	23.7	-79.0	11.0
2026-01-17 08:10:47.402471	225.1	23.4	-79.0	9.3
2026-01-17 08:10:49.650185	224.8	23.1	-78.8	11.3
2026-01-17 08:10:51.901245	224.6	22.7	-78.8	11.3
2026-01-17 08:10:54.151823	224.4	22.4	-78.5	11.4
2026-01-17 08:10:56.398680	224.2	22.1	-78.4	10.7
2026-01-17 08:10:58.648854	224.0	21.8	-78.6	11.4
2026-01-17 08:11:00.898987	223.8	21.5	-77.9	7.9
2026-01-17 08:11:03.147250	223.6	21.2	-78.7	11.7
2026-01-17 08:11:05.394168	223.5	20.9	-78.4	11.2
2026-01-17 08:11:07.642039	223.3	20.6	-78.6	10.2
2026-01-17 08:11:09.892890	223.1	20.3	-78.5	9.8
2026-01-17 08:11:12.140186	222.9	20.1	-78.5	10.3
2026-01-17 08:11:14.388550	222.7	19.8	-78.5	10.2
2026-01-17 08:11:16.636591	222.6	19.5	-78.6	9.8
2026-01-17 08:11:18.886614	222.4	19.2	-78.6	9.8
2026-01-17 08:11:21.135304	222.2	18.9	-78.4	9.8
2026-01-17 08:11:23.380782	222.1	18.7	-78.8	10.8
2026-01-17 08:11:25.626844	221.9	18.4	-78.4	9.8
2026-01-17 08:11:27.875035	221.8	18.1	-78.7	9.6
2026-01-17 08:11:30.123464	221.6	17.9	-78.8	9.8
2026-01-17 08:11:32.373792	221.5	17.6	-78.8	9.8
2026-01-17 08:11:34.622188	221.3	17.3	-78.6	9.1
2026-01-17 08:11:36.870845	221.2	17.1	-78.9	9.3
2026-01-17 08:11:39.121005	221.0	16.8	-78.7	7.9
2026-01-17 08:11:41.367503	220.9	16.6	-78.9	7.4
2026-01-17 08:11:43.617393	220.8	16.3	-78.8	8.1
2026-01-17 08:11:45.867591	220.6	16.1	-79.0	8.4
2026-01-17 08:11:48.115585	220.5	15.8	-79.0	8.2
2026-01-17 08:11:50.364485	220.4	15.6	-79.0	8.0
2026-01-17 08:11:52.613319	220.2	15.4	-78.9	8.6
2026-01-17 08:11:54.862679	220.1	15.1	-78.8	7.8
2026-01-17 08:11:57.114067	220.0	14.9	-79.0	6.8
2026-01-17 08:11:59.365617	219.9	14.7	-78.5	7.4
2026-01-17 08:12:01.612719	219.7	14.4	-78.7	7.7
2026-01-17 08:12:03.864057	219.6	14.2	-78.3	5.0
2026-01-17 08:12:06.116746	219.5	14.0	-78.7	7.3
2026-01-17 08:12:08.367267	219.4	13.7	-78.7	6.6
2026-01-17 08:12:10.613656	219.3	13.5	-79.1	7.3
2026-01-17 08:12:12.861192	219.2	13.3	-78.8	7.4
2026-01-17 08:12:15.110921	219.1	13.1	-78.5	7.1
2026-01-17 08:12:17.361046	219.0	12.9	-78.5	5.9
2026-01-17 08:12:19.612688	218.9	12.6	-78.6	6.2
2026-01-17 08:12:21.857400	218.7	12.4	-78.6	5.6
2026-01-17 08:12:24.108236	218.6	12.2	-78.7	6.6
2026-01-17 08:12:26.358808	218.5	12.0	-78.9	6.4
2026-01-17 08:12:28.606984	218.4	11.8	-78.6	6.8
2026-01-17 08:12:30.855138	218.3	11.6	-78.9	7.2
2026-01-17 08:12:33.106030	218.3	11.4	-78.8	6.4
2026-01-17 08:12:35.351765	218.2	11.2	-79.0	5.8
2026-01-17 08:12:37.599296	218.1	11.0	-79.1	7.7
2026-01-17 08:12:39.846628	218.0	10.8	-80.9	5.8
2026-01-17 08:12:42.092582	217.9	10.6	-84.2	0.0
2026-01-17 08:12:44.345530	217.8	10.4	-84.5	0.0
2026-01-17 08:12:46.591578	217.7	10.2	-84.5	0.0
#Closed at: 2026-01-17 08:02:18.862570