passes_logs/2026/01/06/R4.6S_Anadyr_2ch/R4.6S_Anadyr_2ch__20260106_011648_AQUA_rec.log

#Pass ID: 20260106_011648_AQUA
#Satellite: AQUA
#Configuration: AQUA
#almurnet v.1.7.20251203
#Start time: 2026-01-06 01:16:51

#Version: 2.2.20231116
#Station: R4.6S_Anadyr_2ch
#Location: 177.4865 lon 64.73178 lat
#TLE: 1 27424U 02022A   25351.00450321  .00000925  00000+0  19503-3 0  9992
#TLE: 2 27424  98.4041 311.9529 0001248 113.7180 322.1616 14.61819266256652

#Time	Az	El	Level	Level2	SNR	BER	BlckErr	Temp	State	Recorded	gain1	gain2
2026-01-06 01:16:51.95	139.55	0.19	-51.4	-67.7	3.3	3.02e+01	0	30	0	0	60	125949
2026-01-06 01:16:55.99	139.46	0.44	-51.4	-69.2	3.5	3.02e+01	0	30	104	0	60	148983
2026-01-06 01:17:00.03	139.38	0.69	-51.4	-69.2	3.5	3.02e+01	0	31	104	0	60	149661
2026-01-06 01:17:04.08	139.30	0.95	-51.3	-69.2	3.5	3.02e+01	0	31	104	0	60	148947
2026-01-06 01:17:08.12	139.21	1.21	-51.4	-69.1	3.5	3.02e+01	0	31	104	0	60	148482
2026-01-06 01:17:12.16	139.12	1.47	-51.4	-69.2	3.5	3.02e+01	0	31	104	0	60	149352
2026-01-06 01:17:16.21	139.03	1.73	-51.4	-69.2	3.5	3.02e+01	0	31	104	0	60	149285
2026-01-06 01:17:20.25	138.94	1.99	-51.4	-69.2	3.5	3.02e+01	0	31	104	0	60	149209
2026-01-06 01:17:24.29	138.85	2.26	-51.4	-69.2	3.5	3.02e+01	0	31	104	0	60	149257
2026-01-06 01:17:28.34	138.75	2.53	-51.4	-69.2	3.5	3.02e+01	0	31	104	0	60	149492
2026-01-06 01:17:32.38	138.65	2.80	-51.4	-69.2	3.5	3.02e+01	0	31	104	0	60	149966
2026-01-06 01:17:36.42	138.55	3.08	-51.3	-69.2	3.5	3.02e+01	0	31	104	0	60	149091
2026-01-06 01:17:40.47	138.45	3.36	-51.4	-69.2	3.5	3.02e+01	0	31	104	0	60	149642
2026-01-06 01:17:44.51	138.34	3.64	-51.5	-69.3	3.5	3.02e+01	0	31	104	0	60	151702
2026-01-06 01:17:48.55	138.24	3.93	-51.6	-69.4	3.5	3.02e+01	0	31	104	0	60	153099
2026-01-06 01:17:52.60	138.13	4.22	-51.4	-69.2	3.5	3.02e+01	0	31	104	0	60	149683
2026-01-06 01:17:56.64	138.01	4.51	-50.7	-68.5	3.5	3.02e+01	0	31	104	0	60	138823
2026-01-06 01:18:00.68	137.90	4.80	-50.0	-67.8	3.5	3.02e+01	0	31	104	0	60	127676
2026-01-06 01:18:04.73	137.78	5.10	-49.9	-67.7	3.5	3.02e+01	0	31	104	0	60	125362
2026-01-06 01:18:08.77	137.66	5.40	-50.0	-67.9	3.5	3.02e+01	0	31	104	0	60	128709
2026-01-06 01:18:12.81	137.53	5.71	-49.9	-67.1	3.5	3.02e+01	0	31	104	0	60	116968
2026-01-06 01:18:16.85	137.40	6.02	-49.9	-67.4	3.5	3.02e+01	0	31	104	0	60	121089
2026-01-06 01:18:20.90	137.27	6.34	-49.9	-67.3	3.5	3.02e+01	0	31	104	0	60	119734
2026-01-06 01:18:24.94	137.14	6.65	-49.9	-67.3	3.5	3.02e+01	0	31	104	0	60	120713
2026-01-06 01:18:28.99	137.00	6.98	-49.9	-65.6	3.7	3.02e+01	0	31	104	0	60	99024
2026-01-06 01:18:33.03	136.86	7.30	-49.6	-61.2	6.7	3.02e+01	91	31	104	0	60	59482
2026-01-06 01:18:37.07	136.71	7.64	-46.2	-49.5	18.0	3.02e+01	0	31	102	524288	60	15538
2026-01-06 01:18:41.12	136.56	7.97	-50.2	-67.6	3.5	3.02e+01	0	31	104	524288	60	124985
2026-01-06 01:18:45.16	136.41	8.31	-50.0	-67.0	3.5	3.02e+01	0	31	104	524288	60	115562
2026-01-06 01:18:49.20	136.25	8.66	-40.0	-41.5	25.9	3.02e+01	0	31	0	524288	60	6139
2026-01-06 01:18:53.25	136.08	9.01	-39.6	-41.1	26.3	3.02e+01	0	31	0	524288	60	5873
2026-01-06 01:18:57.29	135.92	9.37	-39.4	-40.7	26.7	3.02e+01	0	31	101	524288	58	6350
2026-01-06 01:19:01.34	135.74	9.73	-39.2	-40.6	26.9	3.02e+01	0	31	101	524288	58	6240
2026-01-06 01:19:05.38	135.57	10.10	-38.8	-40.1	27.3	3.02e+01	0	31	101	524288	58	5880
2026-01-06 01:19:09.43	135.38	10.48	-38.5	-39.8	27.7	3.02e+01	0	31	101	524288	58	5683
2026-01-06 01:19:13.47	135.20	10.86	-38.6	-39.9	27.7	3.02e+01	0	31	101	524288	56	6442
2026-01-06 01:19:17.51	135.00	11.24	-38.4	-39.7	27.9	3.02e+01	0	31	101	524288	56	6287
2026-01-06 01:19:21.56	134.80	11.64	-38.3	-39.6	28.0	3.02e+01	0	31	101	524288	56	6207
2026-01-06 01:19:25.60	134.60	12.04	-38.4	-39.6	28.1	3.02e+01	0	31	101	524288	56	6270
2026-01-06 01:19:29.64	134.38	12.44	-38.2	-39.5	28.1	3.02e+01	0	31	101	524288	56	6177
2026-01-06 01:19:33.69	134.16	12.86	-38.6	-48.8	3.4	3.02e+01	0	31	104	524288	56	18053
2026-01-06 01:19:37.73	133.94	13.28	-50.6	-68.3	3.5	3.02e+01	0	31	104	524288	60	134820
2026-01-06 01:19:41.77	133.70	13.71	-39.2	-49.4	3.4	3.02e+01	0	31	104	524288	58	17211
2026-01-06 01:19:45.82	133.46	14.15	-50.7	-68.3	3.5	3.02e+01	0	31	104	524288	60	134228
2026-01-06 01:19:49.86	133.21	14.59	-42.9	-53.6	3.5	3.02e+01	0	31	104	524288	60	24733
2026-01-06 01:19:53.91	132.95	15.05	-45.5	-56.8	3.5	3.02e+01	0	31	104	524288	60	36025
2026-01-06 01:19:57.95	132.68	15.51	-42.3	-52.8	3.5	3.02e+01	0	31	104	524288	60	22736
2026-01-06 01:20:01.99	132.40	15.99	-45.3	-56.6	3.5	3.02e+01	0	31	104	524288	60	34975
2026-01-06 01:20:06.04	132.12	16.47	-44.7	-55.8	3.5	3.02e+01	0	31	104	524288	60	31928
2026-01-06 01:20:10.08	131.82	16.96	-41.5	-52.0	3.5	3.02e+01	0	31	104	524288	60	20644
2026-01-06 01:20:14.13	131.51	17.47	-45.7	-57.1	3.5	3.02e+01	0	31	104	524288	60	37057
2026-01-06 01:20:18.17	131.19	17.98	-40.9	-51.3	3.5	3.02e+01	0	31	104	524288	60	19029
2026-01-06 01:20:22.21	130.86	18.50	-51.0	-68.5	3.5	3.02e+01	0	31	104	524288	60	138798
2026-01-06 01:20:26.26	130.51	19.04	-39.9	-50.3	3.5	3.02e+01	0	31	104	524288	60	16915
2026-01-06 01:20:30.30	130.15	19.59	-40.0	-50.3	3.5	3.02e+01	0	31	104	524288	60	17082
2026-01-06 01:20:34.34	129.78	20.15	-40.5	-50.8	3.5	3.02e+01	0	31	104	524288	60	18067
2026-01-06 01:20:38.39	129.39	20.72	-37.6	-47.8	3.5	3.02e+01	0	31	104	524288	54	18096
2026-01-06 01:20:42.43	128.98	21.31	-50.5	-66.1	3.5	3.02e+01	0	31	104	524288	60	105376
2026-01-06 01:20:46.48	128.56	21.91	-39.6	-49.9	3.5	3.02e+01	0	31	104	524288	58	18145
2026-01-06 01:20:50.52	128.12	22.53	-42.7	-53.2	3.6	3.02e+01	0	31	104	524288	58	26753
2026-01-06 01:20:54.56	127.66	23.15	-39.1	-49.4	3.5	3.02e+01	0	31	104	524288	58	17207
2026-01-06 01:20:58.61	127.18	23.80	-51.0	-68.4	3.5	3.02e+01	0	31	104	524288	60	136756
2026-01-06 01:21:02.65	126.67	24.46	-40.8	-51.2	3.5	3.02e+01	0	31	104	524288	60	18833
2026-01-06 01:21:06.70	126.15	25.13	-50.8	-67.4	3.4	3.02e+01	0	31	104	524288	60	121991
2026-01-06 01:21:10.74	125.60	25.82	-43.1	-53.8	3.5	3.02e+01	0	31	104	524288	60	25436
2026-01-06 01:21:14.78	125.02	26.53	-45.0	-56.1	3.5	3.02e+01	0	31	104	524288	60	33289
2026-01-06 01:21:18.83	124.41	27.26	-39.2	-49.6	3.4	3.02e+01	0	31	104	524288	60	15594
2026-01-06 01:21:22.87	123.78	28.00	-37.2	-47.4	3.5	3.02e+01	0	31	104	524288	54	17167
2026-01-06 01:21:26.91	123.11	28.76	-51.1	-68.6	3.5	3.02e+01	0	31	104	524288	60	140302
2026-01-06 01:21:30.96	122.41	29.54	-39.7	-50.2	3.5	3.02e+01	0	31	104	524288	60	16717
2026-01-06 01:21:35.00	121.67	30.34	-50.8	-67.0	3.5	3.02e+01	0	31	104	524288	60	115573
2026-01-06 01:21:39.04	120.89	31.15	-39.3	-49.6	3.5	3.02e+01	0	31	104	524288	60	15620
2026-01-06 01:21:43.09	120.07	31.99	-50.9	-67.5	3.5	3.02e+01	0	31	104	524288	60	123083
2026-01-06 01:21:47.13	119.20	32.84	-39.0	-49.4	3.5	3.02e+01	0	31	104	524288	58	17097
2026-01-06 01:21:51.18	118.29	33.72	-40.0	-50.4	3.5	3.02e+01	0	31	104	524288	60	17170
2026-01-06 01:21:55.22	117.32	34.61	-40.5	-50.8	3.5	3.02e+01	0	31	104	524288	60	18028
2026-01-06 01:21:59.26	116.29	35.51	-48.5	-61.2	3.5	3.02e+01	0	31	104	524288	60	59584
2026-01-06 01:22:03.30	115.21	36.44	-44.2	-54.9	3.5	3.02e+01	0	31	104	524288	60	28895
2026-01-06 01:22:07.35	114.05	37.38	-43.0	-53.6	3.5	3.02e+01	0	31	104	524288	60	24935
2026-01-06 01:22:11.39	112.83	38.33	-39.8	-50.1	3.6	3.02e+01	0	31	104	524288	60	16512
2026-01-06 01:22:15.43	111.53	39.30	-40.4	-50.8	3.6	3.02e+01	0	32	104	524288	60	18041
2026-01-06 01:22:19.48	110.14	40.28	-50.1	-64.6	3.6	3.02e+01	0	32	104	524288	60	88133
2026-01-06 01:22:23.52	108.67	41.27	-38.3	-48.5	3.5	3.02e+01	0	32	104	524288	58	15500
2026-01-06 01:22:27.57	107.10	42.27	-40.9	-51.3	3.5	3.02e+01	0	31	104	524288	56	23966
2026-01-06 01:22:31.61	105.43	43.26	-42.2	-52.7	3.5	3.02e+01	0	31	104	524288	60	22314
2026-01-06 01:22:35.65	103.66	44.26	-48.0	-60.0	3.5	3.02e+01	0	31	104	524288	60	52003
2026-01-06 01:22:39.70	101.76	45.25	-38.5	-48.8	3.6	3.02e+01	0	31	104	524288	58	16134
2026-01-06 01:22:43.74	99.74	46.22	-38.9	-49.2	3.5	3.02e+01	0	32	104	524288	56	18743
2026-01-06 01:22:47.79	97.59	47.18	-50.1	-64.2	3.5	3.02e+01	0	31	104	524288	60	84224
2026-01-06 01:22:51.83	95.30	48.12	-38.5	-48.7	3.5	3.02e+01	0	31	104	524288	56	17878
2026-01-06 01:22:55.88	92.87	49.02	-48.9	-61.7	3.5	3.02e+01	0	32	104	524288	60	63256
2026-01-06 01:22:59.92	90.29	49.89	-43.5	-54.2	3.5	3.02e+01	0	31	104	524288	60	26715
2026-01-06 01:23:03.96	87.57	50.70	-49.2	-62.3	3.5	3.02e+01	0	31	104	524288	60	67833
2026-01-06 01:23:08.01	84.70	51.46	-41.0	-51.3	3.5	3.02e+01	0	31	104	524288	60	19124
2026-01-06 01:23:12.05	81.68	52.15	-41.3	-51.7	3.5	3.02e+01	0	32	104	524288	60	19929
2026-01-06 01:23:16.10	78.53	52.76	-42.9	-53.6	3.5	3.02e+01	0	31	104	524288	60	24979
2026-01-06 01:23:20.14	75.25	53.29	-50.3	-64.9	3.5	3.02e+01	0	32	104	524288	60	91700
2026-01-06 01:23:24.18	71.86	53.73	-50.9	-67.8	3.5	3.02e+01	0	31	104	524288	60	127323
2026-01-06 01:23:28.23	68.38	54.06	-41.5	-52.0	3.5	3.02e+01	0	32	104	524288	60	20767
2026-01-06 01:23:32.27	64.83	54.29	-51.3	-69.0	3.5	3.02e+01	0	32	104	524288	60	145646
2026-01-06 01:23:36.31	61.24	54.40	-39.9	-50.2	3.5	3.02e+01	0	31	104	524288	60	16883
2026-01-06 01:23:40.36	57.62	54.41	-51.2	-68.4	3.5	3.02e+01	0	32	104	524288	60	136707
2026-01-06 01:23:44.40	54.03	54.30	-42.5	-53.2	3.5	3.02e+01	0	32	104	524288	60	23715
2026-01-06 01:23:48.45	50.47	54.08	-38.5	-48.9	3.5	3.02e+01	0	31	104	524288	56	18152
2026-01-06 01:23:52.49	46.99	53.75	-42.7	-53.4	3.5	3.02e+01	0	32	104	524288	60	24176
2026-01-06 01:23:56.53	43.60	53.32	-38.7	-49.1	3.5	3.02e+01	0	32	104	524288	60	14777
2026-01-06 01:24:00.58	40.31	52.80	-47.4	-59.1	3.5	3.02e+01	0	32	104	524288	60	46783
2026-01-06 01:24:04.62	37.16	52.19	-45.6	-56.9	3.5	3.02e+01	0	31	104	524288	60	36162
2026-01-06 01:24:08.65	34.15	51.51	-47.8	-60.0	3.6	3.02e+01	0	31	104	524288	60	51794
2026-01-06 01:24:12.69	31.28	50.76	-38.1	-48.3	3.5	3.02e+01	0	31	104	524288	56	17064
2026-01-06 01:24:16.74	28.55	49.95	-51.1	-68.0	3.5	3.02e+01	0	31	104	524288	60	131013
2026-01-06 01:24:20.78	25.97	49.09	-42.9	-53.5	3.5	3.02e+01	0	31	104	524288	60	24629
2026-01-06 01:24:24.83	23.53	48.19	-41.7	-52.3	3.5	3.02e+01	0	31	104	524288	60	21351
2026-01-06 01:24:28.87	21.24	47.26	-41.7	-52.1	3.5	3.02e+01	0	31	104	524288	60	20860
2026-01-06 01:24:32.92	19.08	46.30	-37.7	-47.8	3.5	3.02e+01	0	32	104	524288	56	16006
2026-01-06 01:24:36.96	17.06	45.33	-46.2	-57.5	3.6	3.02e+01	0	32	104	524288	60	38808
2026-01-06 01:24:41.01	15.16	44.34	-43.0	-53.5	3.5	3.02e+01	0	31	104	524288	60	24549
2026-01-06 01:24:45.05	13.38	43.35	-50.9	-66.8	3.5	3.02e+01	0	32	104	524288	60	113793
2026-01-06 01:24:49.09	11.71	42.36	-41.0	-51.4	3.5	3.02e+01	0	32	104	524288	60	19189
2026-01-06 01:24:53.14	10.14	41.37	-49.8	-63.7	3.5	3.02e+01	0	31	104	524288	60	79744
2026-01-06 01:24:57.18	8.66	40.38	-42.9	-53.8	3.5	3.02e+01	0	32	104	524288	60	25291
2026-01-06 01:25:01.23	7.27	39.40	-51.2	-67.9	3.5	3.02e+01	0	32	104	524288	60	129480
2026-01-06 01:25:05.27	5.97	38.44	-41.2	-51.7	3.5	3.02e+01	0	31	104	524288	60	19929
2026-01-06 01:25:09.31	4.75	37.49	-38.4	-49.0	3.5	3.02e+01	0	32	104	524288	54	20555
2026-01-06 01:25:13.36	3.59	36.55	-42.9	-53.4	3.5	3.02e+01	0	32	104	524288	60	24303
2026-01-06 01:25:17.40	2.50	35.63	-41.3	-51.9	3.5	3.02e+01	0	32	104	524288	60	20411
2026-01-06 01:25:21.44	1.48	34.72	-51.2	-68.1	3.5	3.02e+01	0	32	104	524288	60	131661
2026-01-06 01:25:25.49	0.51	33.83	-41.2	-51.5	3.5	3.02e+01	0	31	104	524288	60	19586
2026-01-06 01:25:29.53	359.59	32.96	-41.7	-52.0	3.5	3.02e+01	0	32	104	524288	60	20623
2026-01-06 01:25:33.58	358.72	32.11	-38.0	-48.4	3.5	3.02e+01	0	32	104	524288	56	17215
2026-01-06 01:25:37.62	357.90	31.28	-51.4	-69.0	3.5	3.02e+01	0	32	104	524288	60	145939
2026-01-06 01:25:41.67	357.12	30.46	-38.7	-48.8	3.5	3.02e+01	0	31	104	524288	58	16118
2026-01-06 01:25:45.71	356.38	29.67	-39.2	-49.6	3.5	3.02e+01	0	31	104	524288	56	19796
2026-01-06 01:25:49.75	355.68	28.89	-45.0	-56.3	3.5	3.02e+01	0	31	104	524288	60	33942
2026-01-06 01:25:53.80	355.01	28.13	-39.7	-50.4	3.5	3.02e+01	0	32	104	524288	60	17161
2026-01-06 01:25:57.84	354.38	27.39	-46.7	-58.5	3.5	3.02e+01	0	31	104	524288	60	43643
2026-01-06 01:26:01.88	353.78	26.67	-41.5	-51.9	3.4	3.02e+01	0	31	104	524288	60	20493
2026-01-06 01:26:05.93	353.20	25.96	-41.7	-43.3	20.8	3.02e+01	0	31	0	524288	58	8544
2026-01-06 01:26:09.97	352.65	25.27	-39.0	-40.3	27.9	3.02e+01	0	31	0	524288	58	6057
2026-01-06 01:26:14.02	352.12	24.59	-39.0	-40.3	27.8	3.02e+01	0	31	0	524288	56	6764
2026-01-06 01:26:18.06	351.62	23.94	-37.5	-38.7	29.4	3.02e+01	0	31	101	524288	56	5623
2026-01-06 01:26:22.10	351.14	23.29	-37.1	-38.3	29.7	3.02e+01	0	31	101	524288	54	6020
2026-01-06 01:26:26.15	350.68	22.67	-36.9	-38.1	29.8	3.02e+01	0	32	101	524288	54	5911
2026-01-06 01:26:30.19	350.24	22.05	-36.5	-37.7	30.1	3.02e+01	0	31	101	524288	54	5628
2026-01-06 01:26:34.23	349.82	21.45	-36.5	-37.6	30.3	3.02e+01	0	31	101	524288	52	6275
2026-01-06 01:26:38.28	349.42	20.87	-36.6	-37.8	30.1	3.02e+01	0	31	101	524288	52	6355
2026-01-06 01:26:42.32	349.03	20.30	-36.5	-37.6	30.2	3.02e+01	0	32	101	524288	52	6268
2026-01-06 01:26:46.36	348.65	19.74	-36.7	-37.9	30.1	3.02e+01	0	31	101	524288	52	6434
2026-01-06 01:26:50.41	348.30	19.19	-37.1	-38.3	29.6	3.02e+01	0	31	101	524288	52	6738
2026-01-06 01:26:54.45	347.95	18.65	-37.0	-38.2	29.6	3.02e+01	0	31	101	524288	52	6663
2026-01-06 01:26:58.49	347.62	18.13	-36.9	-38.1	29.8	3.02e+01	0	31	101	524288	52	6593
2026-01-06 01:27:02.54	347.30	17.62	-37.1	-38.3	29.6	3.02e+01	0	31	101	524288	52	6759
2026-01-06 01:27:06.58	346.99	17.11	-37.5	-38.7	29.2	3.02e+01	0	31	101	524288	54	6335
2026-01-06 01:27:10.63	346.70	16.62	-37.3	-38.5	29.5	3.02e+01	0	31	101	524288	54	6163
2026-01-06 01:27:14.67	346.41	16.14	-37.3	-38.5	29.4	3.02e+01	0	31	101	524288	54	6199
2026-01-06 01:27:18.71	346.13	15.67	-37.3	-38.5	29.5	3.02e+01	0	31	101	524288	54	6166
2026-01-06 01:27:22.76	345.87	15.20	-37.4	-38.6	29.3	3.02e+01	0	32	101	524288	54	6245
2026-01-06 01:27:26.80	345.61	14.75	-37.5	-38.8	29.2	3.02e+01	0	32	101	524288	54	6360
2026-01-06 01:27:30.85	345.36	14.30	-37.3	-38.5	29.4	3.02e+01	0	31	101	524288	54	6190
2026-01-06 01:27:34.89	345.12	13.87	-37.1	-38.3	29.6	3.02e+01	0	31	101	524288	54	6034
2026-01-06 01:27:38.93	344.89	13.44	-37.3	-38.5	29.4	3.02e+01	0	31	101	524288	54	6180
2026-01-06 01:27:42.98	344.66	13.01	-37.2	-38.4	29.4	3.02e+01	0	31	101	524288	54	6127
2026-01-06 01:27:47.02	344.45	12.60	-37.2	-38.4	29.4	3.02e+01	0	32	101	524288	54	6075
2026-01-06 01:27:51.07	344.24	12.19	-37.2	-38.4	29.4	3.02e+01	0	31	101	524288	54	6068
2026-01-06 01:27:55.11	344.03	11.79	-37.2	-38.4	29.4	3.02e+01	0	31	101	524288	54	6133
2026-01-06 01:27:59.16	343.83	11.40	-37.2	-38.4	29.3	3.02e+01	0	32	101	524288	54	6100
2026-01-06 01:28:03.20	343.64	11.01	-37.2	-38.4	29.4	3.02e+01	0	31	101	524288	54	6079
2026-01-06 01:28:07.24	343.46	10.63	-37.1	-38.3	29.4	3.02e+01	0	31	101	524288	54	6027
2026-01-06 01:28:11.29	343.27	10.26	-37.0	-38.2	29.4	3.02e+01	0	31	101	524288	54	5990
2026-01-06 01:28:15.33	343.10	9.89	-36.9	-38.1	29.5	3.02e+01	0	31	101	524288	54	5908
2026-01-06 01:28:19.38	342.93	9.53	-37.0	-38.2	29.5	3.02e+01	0	32	101	524288	54	5936
2026-01-06 01:28:23.42	342.76	9.17	-37.1	-38.3	29.4	3.02e+01	0	31	101	524288	54	6036
2026-01-06 01:28:27.47	342.60	8.82	-37.3	-38.5	29.2	3.02e+01	0	31	101	524288	54	6202
2026-01-06 01:28:31.51	342.45	8.48	-37.6	-38.9	29.0	3.02e+01	0	31	101	524288	54	6445
2026-01-06 01:28:35.55	342.30	8.14	-37.7	-39.0	28.8	3.02e+01	0	31	101	524288	54	6528
2026-01-06 01:28:39.60	342.15	7.80	-37.4	-38.6	29.1	3.02e+01	0	31	101	524288	54	6251
2026-01-06 01:28:43.64	342.00	7.47	-37.3	-38.5	29.1	3.02e+01	0	32	101	524288	54	6154
2026-01-06 01:28:47.68	341.87	7.14	-37.4	-38.6	29.0	3.02e+01	0	31	101	524288	54	6243
2026-01-06 01:28:51.73	341.73	6.82	-37.6	-38.8	28.8	3.02e+01	0	31	101	524288	54	6423
2026-01-06 01:28:55.77	341.60	6.50	-37.6	-38.9	28.7	3.02e+01	0	31	101	524288	54	6443
2026-01-06 01:28:59.82	341.47	6.18	-37.6	-38.9	28.8	3.02e+01	0	31	101	524288	54	6444
2026-01-06 01:29:03.86	341.34	5.88	-37.7	-38.9	28.6	3.02e+01	0	31	101	524288	54	6455
2026-01-06 01:29:07.90	341.22	5.57	-37.7	-38.9	28.7	3.02e+01	0	31	101	524288	54	6473
2026-01-06 01:29:11.94	341.10	5.27	-37.7	-38.9	28.6	3.02e+01	0	31	101	524288	54	6488
2026-01-06 01:29:15.99	340.99	4.97	-37.9	-39.2	28.5	3.02e+01	0	31	101	524288	54	6662
2026-01-06 01:29:20.03	340.87	4.67	-38.1	-39.3	28.3	3.02e+01	0	32	101	524288	54	6788
2026-01-06 01:29:24.07	340.76	4.38	-38.1	-39.3	28.3	3.02e+01	0	31	101	524288	54	6776
2026-01-06 01:29:28.12	340.66	4.09	-38.2	-39.5	28.1	3.02e+01	0	31	101	524288	54	6922
2026-01-06 01:29:32.16	340.55	3.81	-38.3	-39.6	28.0	3.02e+01	0	31	101	524288	56	6272
2026-01-06 01:29:36.20	340.45	3.53	-38.6	-39.9	27.7	3.02e+01	0	31	101	524288	56	6457
2026-01-06 01:29:40.24	340.35	3.25	-38.6	-39.9	27.7	3.02e+01	0	31	101	524288	56	6483
2026-01-06 01:29:44.29	340.25	2.97	-38.7	-40.0	27.5	3.02e+01	0	31	101	524288	56	6556
2026-01-06 01:29:48.33	340.16	2.70	-38.6	-39.9	27.5	3.02e+01	0	31	101	524288	56	6489
2026-01-06 01:29:52.38	340.06	2.43	-39.1	-40.5	26.9	3.02e+01	0	31	101	524288	56	6940
2026-01-06 01:29:56.42	339.97	2.16	-39.7	-41.1	26.0	3.02e+01	0	31	101	524288	58	6645
2026-01-06 01:30:00.46	339.88	1.90	-40.7	-42.4	24.4	3.02e+01	0	31	101	524288	60	6821
2026-01-06 01:30:04.51	339.80	1.63	-42.3	-44.4	21.8	3.02e+01	0	31	101	524288	60	8583
2026-01-06 01:30:08.55	339.71	1.38	-44.1	-47.0	18.8	3.02e+01	0	31	101	524288	60	11586
2026-01-06 01:30:12.59	339.63	1.12	-45.6	-50.3	14.6	3.02e+01	0	32	101	524288	60	17072
2026-01-06 01:30:16.64	339.55	0.86	-46.5	-54.5	9.4	3.02e+01	54	31	101	524288	60	27692
2026-01-06 01:30:20.68	339.47	0.61	-46.8	-59.7	5.1	3.02e+01	0	31	104	524288	60	49928
2026-01-06 01:30:24.72	339.39	0.36	-46.8	-62.3	3.8	3.02e+01	0	32	104	524288	60	67989
2026-01-06 01:30:28.77	339.32	0.11	-46.9	-63.0	3.7	3.02e+01	0	32	104	524288	60	72913

#Closed at: 2026-01-06 01:30:32
#Recorded file [0 MB]: D:/lorett/data/35034_260106_041651.dat