passes_logs/2026/01/06/R4.6S_Anadyr_2ch/R4.6S_Anadyr_2ch__20260106_222332_TY-41_rec.log

#Pass ID: 20260106_222332_TY-41
#Satellite: TY-41
#Configuration: TY-39_900M
#almurnet v.1.7.20251203
#Start time: 2026-01-06 22:24:03

#Version: 2.2.20231116
#Station: R4.6S_Anadyr_2ch
#Location: 177.4865 lon 64.73178 lat
#TLE: 1 61231U 24173E   25350.69767361  .00008010  00000-0  38191-3 0 09994
#TLE: 2 61231 097.4116 061.2842 0001674 094.3615 204.6766 15.19171214 68043

#Time	Az	El	Level	Level2	SNR	BER	BlckErr	Temp	State	Recorded	gain1	gain2
2026-01-06 22:24:03.05	22.01	1.89	-51.5	-64.1	3.4	1.52e+00	0	29	0	0	60	76007
2026-01-06 22:24:06.07	22.21	2.09	-51.5	-54.0	6.1	0.00e+00	0	31	104	0	60	83337
2026-01-06 22:24:09.11	22.42	2.28	-51.5	-53.9	6.1	0.00e+00	0	31	104	0	60	82752
2026-01-06 22:24:12.09	22.63	2.48	-51.5	-54.0	6.1	0.00e+00	0	31	104	0	60	83588
2026-01-06 22:24:15.12	22.84	2.68	-51.5	-53.9	6.1	0.00e+00	0	31	104	0	60	83156
2026-01-06 22:24:18.15	23.06	2.88	-51.5	-54.0	6.1	0.00e+00	0	32	104	0	60	83309
2026-01-06 22:24:21.18	23.28	3.08	-51.5	-53.9	6.1	0.00e+00	0	31	104	0	60	83221
2026-01-06 22:24:24.21	23.51	3.29	-51.5	-54.0	6.1	0.00e+00	0	32	104	0	60	83308
2026-01-06 22:24:27.25	23.73	3.50	-51.5	-54.0	6.1	0.00e+00	0	32	104	0	60	83421
2026-01-06 22:24:30.28	23.97	3.70	-51.5	-54.0	6.1	0.00e+00	0	32	104	0	60	83685
2026-01-06 22:24:33.31	24.20	3.91	-51.5	-53.9	6.1	0.00e+00	0	32	104	0	60	83067
2026-01-06 22:24:36.34	24.44	4.13	-51.5	-53.9	6.1	0.00e+00	0	32	104	0	60	82937
2026-01-06 22:24:39.37	24.69	4.34	-51.5	-54.0	6.1	0.00e+00	0	32	104	0	60	83743
2026-01-06 22:24:42.40	24.94	4.56	-51.5	-53.9	6.1	0.00e+00	0	32	104	0	60	83261
2026-01-06 22:24:45.44	25.19	4.78	-51.5	-53.9	6.1	0.00e+00	0	32	104	0	60	83097
2026-01-06 22:24:48.47	25.45	5.00	-51.5	-53.9	6.1	0.00e+00	0	32	104	0	60	83047
2026-01-06 22:24:51.50	25.71	5.22	-51.5	-54.0	6.1	0.00e+00	0	32	104	0	60	83644
2026-01-06 22:24:54.53	25.98	5.44	-51.5	-53.9	6.1	0.00e+00	0	32	104	0	60	83057
2026-01-06 22:24:57.57	26.25	5.67	-51.5	-53.9	6.0	0.00e+00	0	33	104	0	60	82903
2026-01-06 22:25:00.60	26.53	5.90	-51.5	-53.9	6.1	0.00e+00	0	32	104	0	60	83087
2026-01-06 22:25:03.63	26.81	6.13	-51.5	-54.0	6.1	0.00e+00	0	32	104	0	60	83499
2026-01-06 22:25:06.67	27.10	6.36	-51.5	-53.9	6.1	0.00e+00	0	33	104	0	60	83259
2026-01-06 22:25:09.70	27.39	6.60	-51.5	-54.0	6.1	0.00e+00	0	32	104	0	60	83388
2026-01-06 22:25:12.73	27.69	6.83	-51.5	-53.9	6.1	0.00e+00	0	32	104	0	60	83009
2026-01-06 22:25:15.76	28.00	7.07	-51.5	-53.9	6.1	0.00e+00	0	32	104	0	60	83279
2026-01-06 22:25:18.79	28.31	7.31	-51.5	-53.9	6.1	0.00e+00	0	33	104	0	60	83102
2026-01-06 22:25:21.82	28.63	7.56	-51.5	-54.0	6.1	0.00e+00	0	33	104	0	60	83399
2026-01-06 22:25:24.86	28.95	7.81	-51.5	-54.0	6.1	0.00e+00	0	33	104	0	60	83369
2026-01-06 22:25:27.89	29.28	8.06	-51.5	-54.0	6.1	0.00e+00	0	33	104	0	60	83305
2026-01-06 22:25:30.92	29.62	8.31	-51.5	-53.9	6.1	0.00e+00	0	33	104	0	60	83261
2026-01-06 22:25:33.95	29.96	8.56	-51.5	-54.0	6.1	0.00e+00	0	33	104	0	60	83749
2026-01-06 22:25:36.98	30.31	8.82	-51.5	-53.9	6.1	0.00e+00	0	33	104	0	60	83155
2026-01-06 22:25:40.01	30.67	9.08	-51.5	-54.0	6.1	0.00e+00	0	33	104	0	60	83291
2026-01-06 22:25:43.04	31.04	9.35	-51.5	-54.0	6.1	0.00e+00	0	33	104	0	60	83326
2026-01-06 22:25:46.07	31.41	9.61	-51.5	-54.0	6.1	0.00e+00	0	33	104	0	60	83540
2026-01-06 22:25:49.10	31.80	9.88	-51.5	-54.0	6.1	0.00e+00	0	33	104	0	60	83453
2026-01-06 22:25:52.13	32.19	10.15	-51.5	-54.0	6.1	0.00e+00	0	33	104	0	60	83384
2026-01-06 22:25:55.17	32.59	10.43	-51.5	-53.9	6.1	0.00e+00	0	33	104	0	60	83173
2026-01-06 22:25:58.20	33.00	10.71	-51.5	-53.9	6.1	0.00e+00	0	33	104	0	60	83281
2026-01-06 22:26:01.23	33.42	10.99	-51.5	-53.9	6.1	0.00e+00	0	33	104	0	60	83276
2026-01-06 22:26:04.26	33.85	11.27	-51.5	-54.0	6.1	0.00e+00	0	33	104	0	60	83561
2026-01-06 22:26:07.30	34.28	11.56	-51.5	-54.0	6.1	0.00e+00	0	33	104	0	60	83783
2026-01-06 22:26:10.33	34.73	11.85	-51.5	-54.0	6.1	0.00e+00	0	33	104	0	60	83373
2026-01-06 22:26:13.36	35.19	12.15	-51.5	-53.9	6.1	0.00e+00	0	33	104	0	60	83074
2026-01-06 22:26:16.39	35.66	12.44	-51.5	-54.0	6.1	0.00e+00	0	33	104	0	60	83507
2026-01-06 22:26:19.42	36.14	12.74	-51.5	-54.0	6.1	0.00e+00	0	33	104	0	60	83397
2026-01-06 22:26:22.45	36.63	13.05	-51.5	-53.9	6.1	0.00e+00	0	33	104	0	60	83171
2026-01-06 22:26:25.49	37.14	13.36	-51.5	-53.9	6.1	0.00e+00	0	34	104	0	60	83241
2026-01-06 22:26:28.52	37.66	13.67	-51.5	-54.0	6.1	0.00e+00	0	34	104	0	60	83799
2026-01-06 22:26:31.55	38.19	13.98	-51.5	-53.9	6.1	0.00e+00	0	34	104	0	60	83264
2026-01-06 22:26:34.58	38.73	14.30	-51.5	-53.9	6.1	0.00e+00	0	34	104	0	60	82977
2026-01-06 22:26:37.61	39.29	14.62	-51.5	-54.0	6.0	0.00e+00	0	34	104	0	60	83460
2026-01-06 22:26:40.64	39.86	14.94	-51.5	-53.9	6.1	0.00e+00	0	34	104	0	60	83257
2026-01-06 22:26:43.68	40.44	15.27	-51.5	-54.0	6.1	0.00e+00	0	34	104	0	60	83745
2026-01-06 22:26:46.71	41.04	15.60	-51.5	-54.0	6.1	0.00e+00	0	34	104	0	60	83601
2026-01-06 22:26:49.74	41.66	15.93	-51.5	-54.0	6.1	0.00e+00	0	34	104	0	60	83563
2026-01-06 22:26:52.77	42.29	16.27	-51.5	-54.0	6.1	0.00e+00	0	34	104	0	60	83722
2026-01-06 22:26:55.80	42.94	16.61	-51.5	-54.0	6.1	0.00e+00	0	34	104	0	60	83682
2026-01-06 22:26:58.83	43.60	16.95	-51.5	-54.0	6.1	0.00e+00	0	34	104	0	60	83368
2026-01-06 22:27:01.86	44.28	17.30	-51.5	-54.0	6.1	0.00e+00	0	34	104	0	60	83597
2026-01-06 22:27:04.89	44.99	17.64	-51.5	-54.0	6.1	0.00e+00	0	34	104	0	60	83453
2026-01-06 22:27:07.92	45.70	18.00	-51.5	-54.0	6.1	0.00e+00	0	34	104	0	60	83583
2026-01-06 22:27:10.95	46.44	18.35	-51.5	-54.0	6.1	0.00e+00	0	34	104	0	60	83493
2026-01-06 22:27:13.99	47.20	18.70	-51.5	-54.0	6.1	0.00e+00	0	34	104	0	60	83449
2026-01-06 22:27:17.02	47.98	19.06	-51.5	-54.0	6.1	0.00e+00	0	34	104	0	60	83369
2026-01-06 22:27:20.05	48.78	19.42	-51.5	-54.0	6.1	0.00e+00	0	34	104	0	60	83347
2026-01-06 22:27:23.09	49.60	19.78	-51.5	-54.0	6.1	0.00e+00	0	34	104	0	60	83307
2026-01-06 22:27:26.12	50.45	20.14	-51.5	-54.0	6.1	0.00e+00	0	34	104	0	60	83620
2026-01-06 22:27:29.15	51.31	20.51	-51.5	-54.0	6.1	0.00e+00	0	34	104	0	60	83640
2026-01-06 22:27:32.18	52.20	20.87	-51.5	-54.0	6.1	0.00e+00	0	34	104	0	60	83599
2026-01-06 22:27:35.21	53.11	21.23	-51.5	-54.0	6.1	0.00e+00	0	34	104	0	60	83483
2026-01-06 22:27:38.25	54.05	21.60	-51.5	-54.0	6.1	0.00e+00	0	34	104	0	60	83811
2026-01-06 22:27:41.28	55.02	21.96	-51.5	-54.0	6.1	0.00e+00	0	34	104	0	60	83401
2026-01-06 22:27:44.30	56.00	22.32	-51.5	-54.0	6.1	0.00e+00	0	34	104	0	60	83366
2026-01-06 22:27:47.33	57.01	22.68	-51.5	-54.0	6.1	0.00e+00	0	34	104	0	60	83471
2026-01-06 22:27:50.36	58.05	23.04	-51.5	-53.9	6.1	0.00e+00	0	34	104	0	60	83269
2026-01-06 22:27:53.39	59.12	23.39	-51.5	-54.0	6.1	0.00e+00	0	34	104	0	60	83581
2026-01-06 22:27:56.42	60.21	23.74	-51.5	-53.9	6.0	0.00e+00	0	34	104	0	60	83230
2026-01-06 22:27:59.44	61.32	24.09	-51.5	-54.0	6.1	0.00e+00	0	34	104	0	60	83533
2026-01-06 22:28:02.47	62.47	24.43	-51.5	-54.0	6.1	0.00e+00	0	34	104	0	60	83413
2026-01-06 22:28:05.50	63.64	24.76	-51.5	-54.0	6.1	0.00e+00	0	34	104	0	60	83463
2026-01-06 22:28:08.53	64.84	25.09	-51.5	-54.0	6.1	0.00e+00	0	34	104	0	60	83408
2026-01-06 22:28:11.56	66.07	25.41	-51.5	-53.9	6.1	0.00e+00	0	34	104	0	60	83032
2026-01-06 22:28:14.60	67.33	25.73	-51.5	-54.0	6.1	0.00e+00	0	34	104	0	60	83584
2026-01-06 22:28:17.63	68.62	26.03	-51.5	-54.0	6.1	0.00e+00	0	34	104	0	60	83617
2026-01-06 22:28:20.66	69.93	26.32	-51.5	-53.9	6.1	0.00e+00	0	34	104	0	60	83202
2026-01-06 22:28:23.69	71.26	26.61	-51.5	-54.0	6.1	0.00e+00	0	34	104	0	60	83487
2026-01-06 22:28:26.73	72.63	26.88	-51.5	-54.0	6.1	0.00e+00	0	34	104	0	60	83354
2026-01-06 22:28:29.76	74.01	27.13	-51.5	-54.0	6.1	0.00e+00	0	34	104	0	60	83662
2026-01-06 22:28:32.79	75.42	27.38	-51.5	-53.9	6.1	0.00e+00	0	34	104	0	60	83212
2026-01-06 22:28:35.82	76.86	27.60	-51.5	-53.9	6.1	0.00e+00	0	34	104	0	60	83220
2026-01-06 22:28:38.86	78.32	27.82	-51.5	-54.0	6.1	0.00e+00	0	34	104	0	60	83526
2026-01-06 22:28:41.89	79.79	28.01	-51.5	-54.0	6.1	0.00e+00	0	34	104	0	60	83478
2026-01-06 22:28:44.92	81.29	28.19	-51.5	-54.0	6.1	0.00e+00	0	34	104	0	60	83542
2026-01-06 22:28:47.95	82.80	28.35	-51.5	-54.0	6.1	0.00e+00	0	34	104	0	60	83526
2026-01-06 22:28:50.98	84.32	28.49	-51.5	-54.0	6.1	0.00e+00	0	34	104	0	60	83478
2026-01-06 22:28:54.02	85.87	28.61	-51.5	-53.9	6.1	0.00e+00	0	34	104	0	60	83251
2026-01-06 22:28:57.05	87.42	28.71	-51.5	-54.0	6.1	0.00e+00	0	34	104	0	60	83873
2026-01-06 22:29:00.08	88.98	28.79	-51.5	-53.9	6.1	0.00e+00	0	34	104	0	60	83171
2026-01-06 22:29:03.11	90.55	28.84	-51.6	-54.1	6.1	0.00e+00	0	34	104	0	60	84699
2026-01-06 22:29:06.14	92.12	28.88	-51.7	-54.2	6.1	0.00e+00	0	34	104	0	60	85387
2026-01-06 22:29:09.17	93.70	28.89	-51.7	-54.2	6.1	0.00e+00	0	34	104	0	60	85442
2026-01-06 22:29:12.21	95.28	28.89	-51.6	-54.1	6.1	0.00e+00	0	34	104	0	60	84318
2026-01-06 22:29:15.24	96.86	28.86	-51.4	-53.8	6.1	0.00e+00	0	34	104	0	60	82149
2026-01-06 22:29:18.27	98.43	28.81	-50.1	-52.6	6.1	0.00e+00	0	34	104	0	60	70891
2026-01-06 22:29:21.30	99.99	28.73	-49.5	-52.0	6.1	0.00e+00	0	34	104	0	60	66319
2026-01-06 22:29:24.33	101.55	28.64	-49.5	-52.0	6.1	0.00e+00	0	34	104	0	60	66369
2026-01-06 22:29:27.36	103.09	28.53	-49.5	-51.9	6.1	0.00e+00	0	34	104	0	60	66034
2026-01-06 22:29:30.40	104.63	28.39	-49.5	-51.9	6.1	0.00e+00	0	34	104	0	60	65951
2026-01-06 22:29:33.43	106.15	28.24	-49.5	-51.9	6.1	0.00e+00	0	34	104	0	60	66137
2026-01-06 22:29:36.46	107.65	28.06	-49.5	-52.0	6.1	0.00e+00	0	34	104	0	60	66250
2026-01-06 22:29:39.50	109.14	27.87	-49.5	-52.0	6.1	0.00e+00	0	34	104	0	60	66175
2026-01-06 22:29:42.52	110.60	27.67	-49.5	-52.0	6.1	0.00e+00	0	34	104	0	60	66465
2026-01-06 22:29:45.56	112.05	27.44	-49.5	-51.9	6.1	0.00e+00	0	34	104	0	60	65451
2026-01-06 22:29:48.59	113.47	27.20	-49.5	-51.9	6.1	0.00e+00	0	34	104	0	60	65871
2026-01-06 22:29:51.62	114.87	26.95	-49.4	-51.9	6.1	0.00e+00	0	34	104	0	60	66001
2026-01-06 22:29:54.65	116.24	26.68	-49.4	-51.9	6.1	0.00e+00	0	34	104	0	60	66015
2026-01-06 22:29:57.69	117.59	26.40	-48.9	-51.1	6.1	0.00e+00	0	34	104	0	60	59692
2026-01-06 22:30:00.72	118.91	26.11	-48.2	-49.9	6.2	0.00e+00	0	34	104	0	60	52396
2026-01-06 22:30:03.75	120.21	25.81	-47.2	-48.7	6.4	0.00e+00	0	34	104	0	60	45561
2026-01-06 22:30:06.78	121.48	25.50	-47.8	-49.6	6.3	0.00e+00	0	34	104	0	60	50286
2026-01-06 22:30:09.81	122.72	25.17	-47.8	-49.5	6.2	0.00e+00	0	34	104	0	60	49998
2026-01-06 22:30:12.84	123.93	24.85	-47.6	-49.2	6.3	0.00e+00	0	34	104	0	60	48041
2026-01-06 22:30:15.87	125.12	24.51	-46.1	-47.2	7.0	0.00e+00	0	34	104	0	60	38306
2026-01-06 22:30:18.91	126.28	24.17	-44.0	-44.7	8.3	0.00e+00	0	34	104	0	60	28627
2026-01-06 22:30:21.94	127.41	23.82	-43.8	-43.4	8.5	0.00e+00	0	34	0	0	60	24671
2026-01-06 22:30:24.97	128.51	23.47	-43.6	-44.1	8.5	0.00e+00	0	34	104	0	60	26877
2026-01-06 22:30:28.01	129.59	23.11	-43.4	-42.7	8.8	0.00e+00	0	35	0	0	60	22761
2026-01-06 22:30:31.04	130.64	22.75	-43.2	-42.5	9.0	0.00e+00	0	35	0	0	60	22171
2026-01-06 22:30:34.07	131.67	22.39	-43.3	-42.6	8.9	0.00e+00	0	35	0	0	60	22446
2026-01-06 22:30:37.10	132.67	22.03	-43.1	-42.4	9.0	0.00e+00	0	34	0	0	60	21911
2026-01-06 22:30:40.13	133.64	21.67	-43.2	-42.5	8.9	0.00e+00	0	35	0	0	60	22306
2026-01-06 22:30:43.17	134.59	21.30	-42.7	-41.9	9.2	0.00e+00	0	34	0	0	60	20799
2026-01-06 22:30:46.20	135.51	20.93	-42.6	-41.9	9.2	0.00e+00	0	34	0	0	60	20737
2026-01-06 22:30:49.23	136.41	20.57	-42.7	-42.0	9.2	0.00e+00	0	35	0	0	60	20987
2026-01-06 22:30:52.26	137.29	20.20	-42.5	-41.7	9.3	0.00e+00	0	34	0	0	60	20343
2026-01-06 22:30:55.29	138.14	19.84	-42.6	-41.8	9.3	0.00e+00	0	35	0	0	60	20595
2026-01-06 22:30:58.33	138.97	19.47	-42.5	-41.7	9.3	0.00e+00	0	34	0	0	60	20362
2026-01-06 22:31:01.36	139.78	19.11	-42.5	-41.7	9.3	0.00e+00	0	34	0	0	60	20242
2026-01-06 22:31:04.39	140.57	18.75	-42.6	-41.8	9.3	0.00e+00	0	35	0	0	60	20597
2026-01-06 22:31:07.42	141.33	18.39	-42.5	-41.8	9.3	0.00e+00	0	35	0	0	60	20501
2026-01-06 22:31:10.45	142.08	18.04	-42.7	-42.0	9.4	0.00e+00	0	35	0	0	60	21053
2026-01-06 22:31:13.49	142.81	17.68	-42.7	-41.9	9.4	0.00e+00	0	35	0	0	60	20913
2026-01-06 22:31:16.52	143.52	17.33	-42.8	-42.0	9.3	0.00e+00	0	35	0	0	60	21014
2026-01-06 22:31:19.55	144.21	16.98	-42.5	-41.7	9.4	0.00e+00	0	35	0	0	60	20350
2026-01-06 22:31:22.59	144.88	16.64	-42.4	-41.6	9.5	0.00e+00	0	35	0	0	60	20196
2026-01-06 22:31:25.62	145.53	16.29	-42.4	-41.6	9.5	0.00e+00	0	34	0	0	60	20126
2026-01-06 22:31:28.65	146.17	15.95	-42.2	-41.4	9.6	0.00e+00	0	35	0	0	60	19588
2026-01-06 22:31:31.68	146.79	15.62	-41.9	-41.1	9.7	0.00e+00	0	35	0	0	60	18905
2026-01-06 22:31:34.71	147.40	15.28	-42.0	-41.2	9.7	0.00e+00	0	35	0	0	60	19130
2026-01-06 22:31:37.75	147.99	14.95	-41.9	-41.2	9.7	0.00e+00	0	35	0	0	60	19097
2026-01-06 22:31:40.78	148.57	14.63	-42.3	-41.5	9.5	0.00e+00	0	35	0	0	60	19851
2026-01-06 22:31:43.81	149.13	14.30	-42.5	-41.7	9.5	0.00e+00	0	34	0	0	60	20339
2026-01-06 22:31:46.84	149.68	13.98	-42.8	-42.0	9.4	0.00e+00	0	34	0	0	60	21080
2026-01-06 22:31:49.88	150.21	13.67	-42.9	-42.1	9.3	0.00e+00	0	34	0	0	60	21328
2026-01-06 22:31:52.91	150.73	13.35	-43.0	-42.2	9.4	0.00e+00	0	34	0	0	60	21546
2026-01-06 22:31:55.94	151.24	13.04	-43.0	-42.2	9.4	0.00e+00	0	35	0	0	60	21521
2026-01-06 22:31:58.98	151.74	12.74	-42.9	-42.1	9.4	0.00e+00	0	35	0	0	60	21324
2026-01-06 22:32:02.01	152.22	12.43	-42.8	-42.0	9.4	0.00e+00	0	35	0	0	60	21031
2026-01-06 22:32:05.04	152.70	12.13	-42.8	-42.0	9.5	0.00e+00	0	35	0	0	60	21073
2026-01-06 22:32:08.08	153.16	11.83	-42.6	-41.9	9.5	0.00e+00	0	35	0	0	60	20760
2026-01-06 22:32:11.11	153.61	11.54	-42.3	-41.5	9.6	0.00e+00	0	35	0	0	60	19908
2026-01-06 22:32:14.14	154.05	11.25	-41.9	-41.1	9.7	0.00e+00	0	35	0	0	60	18947
2026-01-06 22:32:17.18	154.48	10.96	-41.4	-40.6	9.8	0.00e+00	0	35	0	0	60	17946
2026-01-06 22:32:20.21	154.91	10.68	-41.3	-40.6	9.9	0.00e+00	0	35	0	0	60	17925
2026-01-06 22:32:23.24	155.32	10.40	-41.8	-41.0	9.8	0.00e+00	0	35	0	0	60	18677
2026-01-06 22:32:26.27	155.72	10.12	-42.3	-41.6	9.6	0.00e+00	0	35	0	0	60	19999
2026-01-06 22:32:29.30	156.11	9.85	-42.2	-41.5	9.8	0.00e+00	0	35	0	0	60	19764
2026-01-06 22:32:32.33	156.50	9.58	-42.6	-41.8	9.7	0.00e+00	0	35	0	0	60	20518
2026-01-06 22:32:35.36	156.88	9.31	-42.9	-42.1	9.6	0.00e+00	0	35	0	0	60	21299
2026-01-06 22:32:38.40	157.25	9.04	-43.2	-42.4	9.5	0.00e+00	0	35	0	0	60	22142
2026-01-06 22:32:41.42	157.60	8.78	-43.0	-42.2	9.6	0.00e+00	0	35	0	0	60	21500
2026-01-06 22:32:44.46	157.96	8.52	-42.7	-42.0	9.7	0.00e+00	0	35	0	0	60	20938
2026-01-06 22:32:47.49	158.30	8.26	-42.4	-41.6	9.8	0.00e+00	0	35	0	0	60	20101
2026-01-06 22:32:50.52	158.64	8.01	-42.2	-41.4	9.9	0.00e+00	0	35	0	0	60	19637
2026-01-06 22:32:53.56	158.98	7.75	-42.4	-41.6	9.8	0.00e+00	0	35	0	0	60	20057
2026-01-06 22:32:56.59	159.30	7.50	-42.2	-41.4	9.9	0.00e+00	0	35	0	0	60	19666
2026-01-06 22:32:59.62	159.62	7.26	-42.1	-41.3	9.9	0.00e+00	0	35	0	0	60	19433
2026-01-06 22:33:02.66	159.93	7.01	-41.8	-41.0	9.9	0.00e+00	0	35	0	0	60	18796
2026-01-06 22:33:05.69	160.24	6.77	-41.8	-40.9	10.0	0.00e+00	0	35	0	0	60	18639
2026-01-06 22:33:08.72	160.54	6.53	-42.3	-41.6	9.8	0.00e+00	0	35	0	0	60	19984
2026-01-06 22:33:11.75	160.83	6.29	-42.9	-42.1	9.6	0.00e+00	0	35	0	0	60	21264
2026-01-06 22:33:14.79	161.12	6.06	-43.0	-42.2	9.6	0.00e+00	0	35	0	0	60	21512
2026-01-06 22:33:17.82	161.40	5.83	-43.2	-42.4	9.4	0.00e+00	0	35	0	0	60	22105
2026-01-06 22:33:20.85	161.68	5.60	-43.1	-42.3	9.6	0.00e+00	0	35	0	0	60	21833
2026-01-06 22:33:23.89	161.96	5.37	-42.3	-41.4	9.9	0.00e+00	0	35	0	0	60	19702
2026-01-06 22:33:26.92	162.22	5.14	-41.6	-40.8	10.2	0.00e+00	0	35	0	0	60	18226
2026-01-06 22:33:29.95	162.49	4.92	-41.2	-40.3	10.3	0.00e+00	0	35	0	0	60	17399
2026-01-06 22:33:32.98	162.74	4.70	-41.1	-40.2	10.3	0.00e+00	0	35	0	0	60	17178
2026-01-06 22:33:36.02	163.00	4.48	-41.2	-40.3	10.3	0.00e+00	0	35	0	0	60	17342
2026-01-06 22:33:39.05	163.25	4.26	-41.6	-40.8	10.2	0.00e+00	0	34	0	0	60	18273
2026-01-06 22:33:42.08	163.49	4.04	-42.3	-41.6	9.9	0.00e+00	0	35	0	0	60	20019
2026-01-06 22:33:45.11	163.73	3.83	-43.0	-42.2	9.7	0.00e+00	0	35	0	0	60	21555
2026-01-06 22:33:48.15	163.97	3.62	-42.5	-41.7	9.9	0.00e+00	0	35	0	0	60	20420
2026-01-06 22:33:51.18	164.20	3.41	-42.3	-41.5	9.9	0.00e+00	0	35	0	0	60	19758
2026-01-06 22:33:54.21	164.43	3.20	-42.6	-41.9	9.8	0.00e+00	0	35	0	0	60	20718
2026-01-06 22:33:57.25	164.65	2.99	-42.7	-41.9	9.7	0.00e+00	0	35	0	0	60	20909
2026-01-06 22:34:00.28	164.87	2.79	-42.6	-41.8	9.8	0.00e+00	0	35	0	0	60	20605
2026-01-06 22:34:03.31	165.09	2.58	-42.9	-42.1	9.7	0.00e+00	0	35	0	0	60	21167
2026-01-06 22:34:06.34	165.30	2.38	-43.8	-43.1	9.2	0.00e+00	0	35	0	0	60	23883
2026-01-06 22:34:09.38	165.51	2.18	-44.1	-43.5	9.2	0.00e+00	0	35	0	0	60	24990
2026-01-06 22:34:12.41	165.72	1.98	-44.2	-43.5	9.2	0.00e+00	0	35	0	0	60	25017
2026-01-06 22:34:15.44	165.92	1.79	-43.0	-42.3	9.6	0.00e+00	0	35	0	0	60	21769
2026-01-06 22:34:18.47	166.12	1.59	-42.5	-41.7	9.9	0.00e+00	0	35	0	0	60	20222
2026-01-06 22:34:21.51	166.31	1.40	-41.6	-40.8	10.3	0.00e+00	0	35	0	0	60	18303
2026-01-06 22:34:24.54	166.51	1.21	-41.3	-40.4	10.4	0.00e+00	0	35	0	0	60	17533
2026-01-06 22:34:27.57	166.70	1.02	-41.4	-40.5	10.4	0.00e+00	0	35	0	0	60	17730
2026-01-06 22:34:30.60	166.89	0.83	-41.1	-40.2	10.5	0.00e+00	0	35	0	0	60	17146
2026-01-06 22:34:33.64	167.07	0.64	-41.0	-40.2	10.5	0.00e+00	0	35	0	0	60	17126
2026-01-06 22:34:36.67	167.25	0.45	-41.6	-40.8	10.3	0.00e+00	0	35	0	0	60	18320
2026-01-06 22:34:39.70	167.43	0.27	-41.2	-40.4	10.4	0.00e+00	0	35	0	0	60	17422
2026-01-06 22:34:42.73	167.61	0.08	-41.1	-40.3	10.4	0.00e+00	0	35	0	0	60	17243
2026-01-06 22:34:45.76	167.78	-0.10	-41.6	-40.7	10.3	0.00e+00	0	35	0	0	60	18199

#Closed at: 2026-01-06 22:34:46
#Recorded file [0 MB]: D:/lorett/data/35034_260107_012403.dat