passes_logs/2026/01/06/R4.6S_Anadyr_2ch/R4.6S_Anadyr_2ch__20260106_002704_SUOMI_NPP_rec.log

#Pass ID: 20260106_002704_SUOMI NPP
#Satellite: SUOMI NPP
#Configuration: NPP
#almurnet v.1.7.20251203
#Start time: 2026-01-06 00:27:06

#Version: 2.2.20231116
#Station: R4.6S_Anadyr_2ch
#Location: 177.4865 lon 64.73178 lat
#TLE: 1 37849U 11061A   25350.92281687  .00000071  00000+0  54882-4 0  9996
#TLE: 2 37849  98.7777 288.2268 0002366 112.8570 247.2856 14.19515404732588

#Time	Az	El	Level	Level2	SNR	BER	BlckErr	Temp	State	Recorded	gain1	gain2
2026-01-06 00:27:06.97	160.34	0.12	-51.2	-63.9	3.4	1.52e+00	0	29	0	0	60	73895
2026-01-06 00:27:11.01	160.38	0.37	-51.5	-66.8	3.6	1.51e+00	0	30	104	0	60	107123
2026-01-06 00:27:15.05	160.41	0.61	-51.2	-66.6	3.6	1.51e+00	0	30	104	0	60	103688
2026-01-06 00:27:19.10	160.44	0.86	-50.2	-65.5	3.6	1.51e+00	0	30	104	0	60	91683
2026-01-06 00:27:23.14	160.48	1.11	-50.0	-65.3	3.6	1.51e+00	0	30	104	0	60	89645
2026-01-06 00:27:27.18	160.52	1.36	-50.0	-65.1	3.6	1.51e+00	0	31	104	0	60	87847
2026-01-06 00:27:31.23	160.55	1.62	-50.0	-65.2	3.6	1.51e+00	0	31	104	0	60	88572
2026-01-06 00:27:35.27	160.59	1.88	-50.0	-65.4	3.6	1.51e+00	0	31	104	0	60	90400
2026-01-06 00:27:39.31	160.62	2.13	-50.0	-65.2	3.6	1.51e+00	0	31	104	0	60	88745
2026-01-06 00:27:43.36	160.66	2.40	-50.0	-64.6	3.6	1.51e+00	0	31	104	0	60	83079
2026-01-06 00:27:47.40	160.70	2.66	-50.0	-64.6	3.6	1.51e+00	0	31	104	0	60	82449
2026-01-06 00:27:51.44	160.74	2.93	-49.8	-61.0	4.2	1.38e+00	92	31	104	0	60	54602
2026-01-06 00:27:55.49	160.78	3.20	-48.4	-53.2	10.7	5.55e-03	0	31	102	1048576	60	22388
2026-01-06 00:27:59.53	160.82	3.47	-47.2	-50.6	13.4	1.83e-05	0	31	102	1048576	60	16612
2026-01-06 00:28:03.58	160.86	3.74	-49.9	-60.6	4.2	1.51e+00	0	31	104	1048576	60	52367
2026-01-06 00:28:07.62	160.90	4.02	-48.6	-53.9	5.7	1.51e+00	0	31	104	1048576	60	24243
2026-01-06 00:28:11.66	160.94	4.30	-45.2	-47.2	17.2	0.00e+00	0	31	0	1048576	60	11186
2026-01-06 00:28:15.71	160.98	4.59	-44.5	-46.2	18.2	0.00e+00	0	31	0	1048576	60	10008
2026-01-06 00:28:19.75	161.02	4.87	-44.3	-46.0	18.4	0.00e+00	0	31	0	1048576	60	9770
2026-01-06 00:28:23.79	161.06	5.16	-44.8	-46.6	17.9	0.00e+00	0	31	0	1048576	60	10468
2026-01-06 00:28:27.84	161.11	5.46	-44.4	-46.1	18.3	0.00e+00	0	31	101	1048576	60	9859
2026-01-06 00:28:31.88	161.15	5.75	-44.2	-45.9	18.7	0.00e+00	0	31	101	1048576	60	9573
2026-01-06 00:28:35.92	161.19	6.05	-44.0	-45.6	18.9	0.00e+00	0	31	101	1048576	60	9267
2026-01-06 00:28:39.97	161.24	6.35	-44.1	-45.7	19.0	0.00e+00	0	31	101	1048576	60	9367
2026-01-06 00:28:44.01	161.28	6.66	-43.9	-45.5	19.2	0.00e+00	0	31	101	1048576	60	9136
2026-01-06 00:28:48.06	161.33	6.97	-44.2	-45.8	18.9	0.00e+00	0	31	101	1048576	60	9501
2026-01-06 00:28:52.10	161.38	7.28	-43.9	-45.4	19.4	0.00e+00	0	31	101	1048576	60	9081
2026-01-06 00:28:56.14	161.42	7.60	-43.5	-45.0	19.7	0.00e+00	0	31	101	1048576	60	8645
2026-01-06 00:29:00.19	161.47	7.93	-43.6	-45.0	19.7	0.00e+00	0	31	101	1048576	60	8679
2026-01-06 00:29:04.23	161.52	8.25	-43.4	-44.8	19.9	0.00e+00	0	31	101	1048576	60	8447
2026-01-06 00:29:08.28	161.57	8.58	-43.3	-44.7	20.0	0.00e+00	0	31	101	1048576	60	8371
2026-01-06 00:29:12.32	161.62	8.92	-43.4	-44.8	20.0	0.00e+00	0	31	101	1048576	60	8453
2026-01-06 00:29:16.36	161.68	9.26	-43.2	-44.5	20.3	0.00e+00	0	31	101	1048576	60	8198
2026-01-06 00:29:20.41	161.73	9.60	-43.2	-44.5	20.2	0.00e+00	0	31	101	1048576	60	8208
2026-01-06 00:29:24.45	161.78	9.95	-42.5	-43.8	20.9	0.00e+00	0	31	101	1048576	60	7532
2026-01-06 00:29:28.49	161.84	10.30	-42.3	-43.5	21.1	0.00e+00	0	31	101	1048576	60	7301
2026-01-06 00:29:32.54	161.89	10.66	-42.2	-43.3	21.3	0.00e+00	0	31	101	1048576	60	7169
2026-01-06 00:29:36.58	161.95	11.03	-41.9	-43.1	21.6	0.00e+00	0	31	101	1048576	60	6948
2026-01-06 00:29:40.63	162.01	11.40	-41.8	-42.9	21.5	0.00e+00	0	31	101	1048576	60	6844
2026-01-06 00:29:44.67	162.07	11.77	-41.5	-42.7	22.0	0.00e+00	0	31	101	1048576	60	6617
2026-01-06 00:29:48.71	162.13	12.15	-41.5	-42.6	22.0	0.00e+00	0	31	101	1048576	60	6555
2026-01-06 00:29:52.76	162.19	12.54	-41.2	-42.3	22.3	0.00e+00	0	31	101	1048576	60	6345
2026-01-06 00:29:56.80	162.25	12.93	-40.9	-41.9	22.5	0.00e+00	0	31	101	1048576	60	6071
2026-01-06 00:30:00.84	162.32	13.33	-40.6	-41.6	22.8	0.00e+00	0	31	101	1048576	60	5873
2026-01-06 00:30:04.89	162.38	13.74	-40.3	-41.3	22.9	0.00e+00	0	31	101	1048576	60	5658
2026-01-06 00:30:08.93	162.45	14.16	-40.0	-41.0	23.3	0.00e+00	0	31	101	1048576	58	6114
2026-01-06 00:30:12.97	162.52	14.58	-39.8	-40.8	23.4	0.00e+00	0	31	101	1048576	58	5984
2026-01-06 00:30:17.02	162.59	15.00	-39.8	-40.8	23.4	0.00e+00	0	31	101	1048576	58	5965
2026-01-06 00:30:21.06	162.66	15.44	-39.7	-40.7	23.3	0.00e+00	0	31	101	1048576	58	5926
2026-01-06 00:30:25.10	162.73	15.88	-39.7	-40.6	23.1	0.00e+00	0	31	101	1048576	58	5883
2026-01-06 00:30:29.15	162.81	16.34	-39.6	-40.6	23.5	0.00e+00	0	31	101	1048576	58	5829
2026-01-06 00:30:33.19	162.89	16.80	-39.6	-40.6	23.5	0.00e+00	0	31	101	1048576	58	5836
2026-01-06 00:30:37.23	162.97	17.27	-39.3	-40.2	23.9	0.00e+00	0	31	101	1048576	58	5616
2026-01-06 00:30:41.27	163.05	17.74	-39.3	-40.2	24.0	0.00e+00	0	31	101	1048576	58	5568
2026-01-06 00:30:45.32	163.13	18.23	-39.4	-40.3	23.9	0.00e+00	0	31	101	1048576	58	5643
2026-01-06 00:30:49.36	163.22	18.73	-39.6	-40.6	23.6	0.00e+00	0	31	101	1048576	58	5829
2026-01-06 00:30:53.40	163.30	19.24	-39.7	-40.6	23.7	0.00e+00	0	31	101	1048576	58	5853
2026-01-06 00:30:57.45	163.40	19.76	-39.6	-40.5	23.7	0.00e+00	0	31	101	1048576	58	5785
2026-01-06 00:31:01.49	163.49	20.29	-39.8	-40.7	23.7	0.00e+00	0	31	101	1048576	58	5934
2026-01-06 00:31:05.54	163.59	20.83	-40.2	-41.1	23.3	0.00e+00	0	31	101	1048576	58	6214
2026-01-06 00:31:09.58	163.68	21.38	-40.7	-41.7	22.7	0.00e+00	0	31	101	1048576	58	6690
2026-01-06 00:31:13.62	163.79	21.95	-40.9	-42.0	22.7	0.00e+00	0	31	101	1048576	58	6867
2026-01-06 00:31:17.66	163.89	22.52	-41.1	-42.2	22.5	0.00e+00	0	31	101	1048576	60	6260
2026-01-06 00:31:21.71	164.00	23.12	-41.0	-42.1	22.5	0.00e+00	0	31	101	1048576	60	6201
2026-01-06 00:31:25.76	164.12	23.72	-41.4	-42.4	22.3	0.00e+00	0	31	101	1048576	60	6464
2026-01-06 00:31:29.80	164.23	24.34	-41.1	-42.1	22.6	0.00e+00	0	32	101	1048576	60	6216
2026-01-06 00:31:33.84	164.35	24.98	-41.2	-42.2	22.5	0.00e+00	0	31	101	1048576	60	6302
2026-01-06 00:31:37.88	164.48	25.62	-41.4	-42.5	22.4	0.00e+00	0	31	101	1048576	60	6508
2026-01-06 00:31:41.93	164.61	26.29	-41.0	-42.0	22.8	0.00e+00	0	31	101	1048576	60	6168
2026-01-06 00:31:45.97	164.74	26.97	-40.8	-41.8	23.0	0.00e+00	0	31	101	1048576	60	5975
2026-01-06 00:31:50.01	164.88	27.67	-41.1	-42.1	22.7	0.00e+00	0	31	101	1048576	60	6234
2026-01-06 00:31:54.06	165.03	28.39	-41.2	-42.2	22.4	0.00e+00	0	31	101	1048576	60	6311
2026-01-06 00:31:58.10	165.18	29.13	-41.3	-42.3	22.5	0.00e+00	0	31	101	1048576	60	6384
2026-01-06 00:32:02.14	165.34	29.89	-41.4	-42.5	22.3	0.00e+00	0	31	101	1048576	60	6503
2026-01-06 00:32:06.19	165.51	30.67	-41.9	-43.0	22.0	0.00e+00	0	31	101	1048576	60	6905
2026-01-06 00:32:10.23	165.68	31.46	-42.0	-43.1	22.0	0.00e+00	0	31	101	1048576	60	6974
2026-01-06 00:32:14.26	165.86	32.28	-42.8	-44.0	20.9	0.00e+00	0	31	101	1048576	60	7704
2026-01-06 00:32:18.31	166.05	33.13	-43.2	-44.5	20.8	0.00e+00	0	31	101	1048576	60	8148
2026-01-06 00:32:22.35	166.25	33.99	-43.1	-44.4	20.8	0.00e+00	0	31	101	1048576	60	8105
2026-01-06 00:32:26.39	166.46	34.88	-41.5	-42.6	22.2	0.00e+00	0	32	101	1048576	60	6580
2026-01-06 00:32:30.44	166.68	35.80	-40.4	-41.4	23.2	0.00e+00	0	31	101	1048576	60	5731
2026-01-06 00:32:34.48	166.91	36.75	-39.9	-40.8	23.7	0.00e+00	0	31	101	1048576	58	5998
2026-01-06 00:32:38.53	167.16	37.72	-39.0	-39.8	24.3	0.00e+00	0	31	101	1048576	56	6016
2026-01-06 00:32:42.57	167.42	38.72	-39.3	-40.2	24.2	0.00e+00	0	31	101	1048576	56	6247
2026-01-06 00:32:46.61	167.70	39.75	-39.4	-40.3	23.9	0.00e+00	0	32	101	1048576	56	6340
2026-01-06 00:32:50.65	167.99	40.81	-40.5	-41.5	22.9	0.00e+00	0	31	101	1048576	58	6486
2026-01-06 00:32:54.70	168.30	41.90	-40.9	-41.9	22.7	0.00e+00	0	31	101	1048576	60	6079
2026-01-06 00:32:58.74	168.64	43.02	-40.0	-40.9	23.5	0.00e+00	0	31	101	1048576	58	6083
2026-01-06 00:33:02.79	169.00	44.18	-40.3	-41.3	23.3	0.00e+00	0	31	101	1048576	58	6370
2026-01-06 00:33:06.83	169.38	45.37	-42.7	-44.0	21.2	0.00e+00	0	31	101	1048576	60	7753
2026-01-06 00:33:10.88	169.79	46.60	-43.7	-45.2	19.9	0.00e+00	0	31	101	1048576	60	8900
2026-01-06 00:33:14.92	170.24	47.86	-42.5	-43.8	21.2	0.00e+00	0	32	101	1048576	60	7529
2026-01-06 00:33:18.97	170.72	49.16	-39.7	-40.6	23.7	0.00e+00	0	31	101	1048576	58	5872
2026-01-06 00:33:23.01	171.24	50.50	-38.1	-38.9	24.9	0.00e+00	0	31	101	1048576	54	6093
2026-01-06 00:33:27.06	171.82	51.87	-38.7	-39.6	24.4	0.00e+00	0	31	101	1048576	54	6574
2026-01-06 00:33:31.10	172.44	53.28	-38.4	-39.2	24.8	0.00e+00	0	31	101	1048576	54	6284
2026-01-06 00:33:35.14	173.13	54.72	-37.7	-38.5	25.2	0.00e+00	0	31	101	1048576	54	5825
2026-01-06 00:33:39.19	173.90	56.21	-37.3	-38.1	25.6	0.00e+00	0	31	101	1048576	52	6175
2026-01-06 00:33:43.23	174.74	57.72	-38.0	-38.8	25.1	0.00e+00	0	32	101	1048576	54	6003
2026-01-06 00:33:47.28	175.69	59.28	-38.3	-39.2	24.8	0.00e+00	0	32	101	1048576	54	6255
2026-01-06 00:33:51.32	176.76	60.86	-37.9	-38.6	25.2	0.00e+00	0	32	101	1048576	54	5893
2026-01-06 00:33:55.36	177.96	62.47	-37.6	-38.4	25.4	0.00e+00	0	32	101	1048576	54	5713
2026-01-06 00:33:59.41	179.35	64.12	-38.5	-39.3	24.6	0.00e+00	0	32	101	1048576	54	6347
2026-01-06 00:34:03.46	180.94	65.78	-38.1	-38.8	25.0	0.00e+00	0	32	101	1048576	54	6017
2026-01-06 00:34:07.50	182.79	67.46	-41.4	-42.5	22.4	0.00e+00	0	31	101	1048576	60	6494
2026-01-06 00:34:11.54	184.96	69.14	-42.6	-43.9	21.2	0.00e+00	0	32	101	1048576	60	7617
2026-01-06 00:34:15.58	187.54	70.82	-44.1	-45.7	19.5	0.00e+00	0	32	101	1048576	60	9410
2026-01-06 00:34:19.63	190.66	72.49	-40.9	-42.0	22.9	0.00e+00	0	31	101	1048576	60	6114
2026-01-06 00:34:23.67	194.45	74.12	-40.6	-41.5	23.3	0.00e+00	0	32	101	1048576	60	5824
2026-01-06 00:34:27.72	199.14	75.70	-41.6	-42.6	22.3	0.00e+00	0	32	101	1048576	60	6581
2026-01-06 00:34:31.76	204.97	77.17	-41.6	-42.7	21.7	0.00e+00	0	32	101	1048576	60	6635
2026-01-06 00:34:35.80	212.27	78.50	-43.1	-44.3	20.8	0.00e+00	0	32	101	1048576	60	8008
2026-01-06 00:34:39.85	221.34	79.60	-42.8	-44.2	20.8	0.00e+00	0	32	101	1048576	60	7940
2026-01-06 00:34:43.89	232.25	80.40	-43.7	-45.1	20.0	0.00e+00	0	32	101	1048576	60	8792
2026-01-06 00:34:47.94	244.67	80.81	-42.4	-43.6	21.7	0.00e+00	0	32	101	1048576	60	7379
2026-01-06 00:34:51.98	257.55	80.77	-43.0	-44.3	20.8	0.00e+00	0	32	101	1048576	60	8038
2026-01-06 00:34:56.02	269.72	80.28	-42.6	-43.7	21.6	0.00e+00	0	32	101	1048576	60	7488
2026-01-06 00:35:00.07	280.32	79.42	-43.2	-44.6	20.7	0.00e+00	0	32	101	1048576	60	8237
2026-01-06 00:35:04.11	289.03	78.27	-43.9	-45.4	20.0	0.00e+00	0	32	101	1048576	60	9123
2026-01-06 00:35:08.16	296.05	76.91	-39.1	-39.9	24.2	0.00e+00	0	32	101	1048576	56	6091
2026-01-06 00:35:12.20	301.64	75.42	-41.7	-42.9	21.9	0.00e+00	0	32	101	1048576	60	6780
2026-01-06 00:35:16.24	306.14	73.84	-39.4	-40.2	24.3	0.00e+00	0	32	101	1048576	58	5595
2026-01-06 00:35:20.29	309.80	72.20	-42.4	-43.6	21.3	0.00e+00	0	32	101	1048576	60	7338
2026-01-06 00:35:24.33	312.80	70.53	-44.9	-46.7	18.9	0.00e+00	0	32	101	1048576	60	10515
2026-01-06 00:35:28.37	315.30	68.85	-45.2	-47.2	17.7	0.00e+00	0	32	101	1048576	60	11164
2026-01-06 00:35:32.42	317.41	67.17	-38.5	-39.3	24.8	0.00e+00	0	32	101	1048576	56	5691
2026-01-06 00:35:36.46	319.21	65.50	-39.2	-40.0	24.3	0.00e+00	0	32	101	1048576	56	6159
2026-01-06 00:35:40.50	320.75	63.84	-40.1	-41.2	23.7	0.00e+00	0	32	101	1048576	58	6265
2026-01-06 00:35:44.55	322.10	62.21	-39.6	-40.5	23.9	0.00e+00	0	32	101	1048576	58	5815
2026-01-06 00:35:48.59	323.28	60.61	-38.4	-39.2	24.8	0.00e+00	0	32	101	1048576	56	5592
2026-01-06 00:35:52.64	324.33	59.03	-42.9	-44.4	21.1	0.00e+00	0	32	101	1048576	60	8066
2026-01-06 00:35:56.68	325.25	57.49	-40.4	-41.4	23.2	0.00e+00	0	32	101	1048576	60	5731
2026-01-06 00:36:00.72	326.08	55.99	-39.0	-39.9	24.4	0.00e+00	0	32	101	1048576	56	6053
2026-01-06 00:36:04.77	326.83	54.51	-39.7	-40.6	23.7	0.00e+00	0	31	101	1048576	56	6607
2026-01-06 00:36:08.81	327.51	53.08	-38.6	-39.5	24.6	0.00e+00	0	31	101	1048576	54	6466
2026-01-06 00:36:12.85	328.13	51.68	-41.6	-42.7	22.2	0.00e+00	0	31	101	1048576	60	6666
2026-01-06 00:36:16.89	328.69	50.32	-41.6	-42.7	22.3	0.00e+00	0	32	101	1048576	60	6659
2026-01-06 00:36:20.94	329.21	49.00	-42.8	-44.1	21.3	0.00e+00	0	32	101	1048576	60	7826
2026-01-06 00:36:24.98	329.68	47.71	-41.7	-42.9	22.2	0.00e+00	0	31	101	1048576	60	6813
2026-01-06 00:36:29.02	330.12	46.46	-45.3	-47.4	18.2	0.00e+00	0	32	101	1048576	60	11393
2026-01-06 00:36:33.06	330.53	45.24	-41.1	-42.1	22.6	0.00e+00	0	32	101	1048576	60	6244
2026-01-06 00:36:37.11	330.91	44.06	-41.2	-42.4	22.4	0.00e+00	0	31	101	1048576	60	6401
2026-01-06 00:36:41.15	331.27	42.91	-41.6	-42.7	22.4	0.00e+00	0	32	101	1048576	60	6657
2026-01-06 00:36:45.20	331.60	41.80	-38.9	-39.7	24.5	0.00e+00	0	32	101	1048576	56	5957
2026-01-06 00:36:49.24	331.91	40.72	-41.1	-42.2	22.8	0.00e+00	0	32	101	1048576	58	7020
2026-01-06 00:36:53.28	332.20	39.67	-39.5	-40.3	24.2	0.00e+00	0	32	101	1048576	56	6390
2026-01-06 00:36:57.32	332.47	38.64	-41.0	-42.0	22.8	0.00e+00	0	32	101	1048576	58	6870
2026-01-06 00:37:01.37	332.73	37.65	-41.7	-42.9	22.3	0.00e+00	0	32	101	1048576	60	6786
2026-01-06 00:37:05.41	332.98	36.69	-42.7	-44.1	21.1	0.00e+00	0	32	101	1048576	60	7828
2026-01-06 00:37:09.45	333.21	35.75	-41.8	-42.9	22.2	0.00e+00	0	32	101	1048576	60	6806
2026-01-06 00:37:13.50	333.43	34.84	-40.2	-41.1	23.5	0.00e+00	0	32	101	1048576	60	5539
2026-01-06 00:37:17.54	333.64	33.96	-43.7	-45.1	19.9	0.00e+00	0	32	101	1048576	60	8814
2026-01-06 00:37:21.58	333.84	33.10	-44.4	-46.0	19.4	0.00e+00	0	32	101	1048576	60	9782
2026-01-06 00:37:25.63	334.03	32.26	-42.3	-43.5	21.6	0.00e+00	0	32	101	1048576	60	7292
2026-01-06 00:37:29.67	334.21	31.45	-40.7	-41.7	23.1	0.00e+00	0	32	101	1048576	60	5931
2026-01-06 00:37:33.71	334.38	30.65	-40.3	-41.2	23.5	0.00e+00	0	32	101	1048576	58	6283
2026-01-06 00:37:37.76	334.55	29.88	-39.9	-40.8	23.8	0.00e+00	0	32	101	1048576	58	5974
2026-01-06 00:37:41.80	334.71	29.13	-41.0	-42.0	22.5	0.00e+00	0	31	101	1048576	58	6919
2026-01-06 00:37:45.85	334.86	28.40	-43.0	-44.3	21.0	0.00e+00	0	32	101	1048576	60	7976
2026-01-06 00:37:49.89	335.01	27.69	-43.0	-44.3	21.0	0.00e+00	0	31	101	1048576	60	7974
2026-01-06 00:37:53.93	335.15	26.99	-41.2	-42.3	22.6	0.00e+00	0	32	101	1048576	60	6355
2026-01-06 00:37:57.98	335.28	26.31	-39.7	-40.6	23.9	0.00e+00	0	32	101	1048576	58	5852
2026-01-06 00:38:02.02	335.41	25.65	-39.3	-40.2	24.2	0.00e+00	0	32	101	1048576	58	5573
2026-01-06 00:38:06.07	335.54	25.00	-39.3	-40.2	24.1	0.00e+00	0	32	101	1048576	56	6253
2026-01-06 00:38:10.11	335.66	24.37	-38.5	-39.4	24.8	0.00e+00	0	31	101	1048576	56	5700
2026-01-06 00:38:14.16	335.78	23.76	-38.3	-39.1	24.8	0.00e+00	0	32	101	1048576	54	6216
2026-01-06 00:38:18.20	335.90	23.16	-38.8	-39.6	24.5	0.00e+00	0	32	101	1048576	54	6592
2026-01-06 00:38:22.24	336.01	22.57	-39.8	-40.7	23.7	0.00e+00	0	31	101	1048576	56	6637
2026-01-06 00:38:26.29	336.11	22.00	-39.5	-40.3	24.0	0.00e+00	0	32	101	1048576	56	6370
2026-01-06 00:38:30.33	336.22	21.44	-39.0	-39.8	24.4	0.00e+00	0	32	101	1048576	56	5987
2026-01-06 00:38:34.38	336.32	20.88	-38.7	-39.5	24.5	0.00e+00	0	31	101	1048576	56	5793
2026-01-06 00:38:38.42	336.42	20.35	-38.8	-39.6	24.5	0.00e+00	0	31	101	1048576	56	5851
2026-01-06 00:38:42.46	336.51	19.82	-38.9	-39.8	24.4	0.00e+00	0	32	101	1048576	56	5976
2026-01-06 00:38:46.50	336.60	19.31	-38.6	-39.5	24.5	0.00e+00	0	32	101	1048576	56	5763
2026-01-06 00:38:50.55	336.69	18.80	-38.4	-39.2	24.5	0.00e+00	0	32	101	1048576	56	5627
2026-01-06 00:38:54.59	336.78	18.31	-38.5	-39.3	24.6	0.00e+00	0	32	101	1048576	56	5672
2026-01-06 00:38:58.64	336.87	17.82	-38.7	-39.5	24.5	0.00e+00	0	32	101	1048576	56	5808
2026-01-06 00:39:02.68	336.95	17.35	-39.4	-40.2	23.9	0.00e+00	0	32	101	1048576	56	6308
2026-01-06 00:39:06.73	337.03	16.88	-39.8	-40.7	23.6	0.00e+00	0	31	101	1048576	56	6692
2026-01-06 00:39:10.77	337.11	16.42	-40.3	-41.3	22.9	0.00e+00	0	32	101	1048576	58	6323
2026-01-06 00:39:14.81	337.19	15.97	-40.8	-41.8	22.8	0.00e+00	0	31	101	1048576	58	6724
2026-01-06 00:39:18.86	337.26	15.53	-40.9	-42.0	22.6	0.00e+00	0	31	101	1048576	58	6888
2026-01-06 00:39:22.90	337.34	15.10	-41.1	-42.2	22.5	0.00e+00	0	31	101	1048576	60	6283
2026-01-06 00:39:26.94	337.41	14.67	-41.1	-42.2	22.5	0.00e+00	0	32	101	1048576	60	6255
2026-01-06 00:39:30.99	337.48	14.25	-41.2	-42.3	22.4	0.00e+00	0	31	101	1048576	60	6377
2026-01-06 00:39:35.03	337.55	13.84	-41.0	-42.1	22.6	0.00e+00	0	32	101	1048576	60	6214
2026-01-06 00:39:39.08	337.62	13.43	-41.1	-42.2	22.4	0.00e+00	0	31	101	1048576	60	6270
2026-01-06 00:39:43.12	337.69	13.04	-41.0	-42.1	22.5	0.00e+00	0	31	101	1048576	60	6209
2026-01-06 00:39:47.16	337.75	12.65	-41.2	-42.3	22.4	0.00e+00	0	31	101	1048576	60	6327
2026-01-06 00:39:51.21	337.82	12.26	-41.1	-42.2	22.5	0.00e+00	0	31	101	1048576	60	6286
2026-01-06 00:39:55.25	337.88	11.88	-41.1	-42.2	22.4	0.00e+00	0	31	101	1048576	60	6252
2026-01-06 00:39:59.30	337.94	11.51	-41.2	-42.3	22.3	0.00e+00	0	31	101	1048576	60	6325
2026-01-06 00:40:03.34	338.00	11.14	-41.2	-42.3	22.2	0.00e+00	0	32	101	1048576	60	6382
2026-01-06 00:40:07.39	338.06	10.78	-41.1	-42.2	22.3	0.00e+00	0	32	101	1048576	60	6268
2026-01-06 00:40:11.43	338.12	10.42	-41.1	-42.2	22.4	0.00e+00	0	31	101	1048576	60	6286
2026-01-06 00:40:15.47	338.18	10.07	-41.0	-42.0	22.4	0.00e+00	0	31	101	1048576	60	6168
2026-01-06 00:40:19.52	338.23	9.72	-41.0	-42.0	22.5	0.00e+00	0	32	101	1048576	60	6144
2026-01-06 00:40:23.56	338.29	9.38	-40.8	-41.8	22.6	0.00e+00	0	31	101	1048576	60	5997
2026-01-06 00:40:27.61	338.35	9.04	-40.7	-41.7	22.6	0.00e+00	0	32	101	1048576	60	5959
2026-01-06 00:40:31.65	338.40	8.71	-40.6	-41.6	22.7	0.00e+00	0	32	101	1048576	60	5857
2026-01-06 00:40:35.70	338.45	8.38	-40.7	-41.7	22.6	0.00e+00	0	32	101	1048576	60	5914
2026-01-06 00:40:39.74	338.51	8.05	-40.8	-41.8	22.4	0.00e+00	0	32	101	1048576	60	6008
2026-01-06 00:40:43.78	338.56	7.73	-40.6	-41.6	22.7	0.00e+00	0	32	101	1048576	60	5845
2026-01-06 00:40:47.83	338.61	7.41	-40.5	-41.5	22.7	0.00e+00	0	32	101	1048576	60	5801
2026-01-06 00:40:51.87	338.66	7.10	-40.6	-41.6	22.5	0.00e+00	0	31	101	1048576	60	5854
2026-01-06 00:40:55.91	338.71	6.79	-40.7	-41.7	22.4	7.00e-07	0	32	101	1048576	60	5926
2026-01-06 00:40:59.96	338.76	6.49	-40.7	-41.7	22.4	0.00e+00	0	32	101	1048576	60	5928
2026-01-06 00:41:04.00	338.81	6.19	-40.7	-41.7	22.3	0.00e+00	0	32	101	1048576	60	5947
2026-01-06 00:41:08.04	338.85	5.89	-40.7	-41.8	22.1	0.00e+00	0	32	101	1048576	60	5987
2026-01-06 00:41:12.09	338.90	5.59	-41.0	-42.2	21.4	0.00e+00	0	32	101	1048576	60	6260
2026-01-06 00:41:16.13	338.95	5.30	-42.3	-43.8	19.4	0.00e+00	0	32	101	1048576	60	7575
2026-01-06 00:41:20.18	338.99	5.01	-43.5	-45.7	17.1	0.00e+00	0	32	101	1048576	60	9358
2026-01-06 00:41:24.22	339.04	4.73	-45.0	-48.6	13.2	1.44e-05	0	31	101	1048576	60	13138
2026-01-06 00:41:28.26	339.08	4.44	-45.9	-51.9	9.0	1.89e-02	0	32	101	1048576	60	19162
2026-01-06 00:41:32.31	339.13	4.17	-46.3	-55.0	5.1	3.56e-01	0	32	101	1048576	60	27328
2026-01-06 00:41:36.35	339.17	3.89	-46.4	-59.6	3.6	1.50e+00	0	32	104	1048576	60	46624
2026-01-06 00:41:40.39	339.22	3.62	-46.4	-61.3	3.6	1.51e+00	0	32	104	1048576	60	56448
2026-01-06 00:41:44.44	339.26	3.34	-46.4	-61.7	3.6	1.51e+00	0	32	104	1048576	60	58994
2026-01-06 00:41:48.48	339.30	3.08	-46.3	-61.7	3.6	1.51e+00	0	32	104	1048576	60	59365
2026-01-06 00:41:52.53	339.34	2.81	-51.3	-66.7	3.6	1.51e+00	0	32	104	1048576	60	105135
2026-01-06 00:41:56.57	339.39	2.55	-51.5	-66.9	3.6	1.51e+00	0	32	104	1048576	60	107959
2026-01-06 00:42:00.61	339.43	2.29	-51.3	-66.7	3.6	1.51e+00	0	32	104	1048576	60	105878
2026-01-06 00:42:04.65	339.47	2.03	-51.4	-66.8	3.6	1.51e+00	0	32	104	1048576	60	106519
2026-01-06 00:42:08.70	339.51	1.77	-51.4	-66.8	3.6	1.51e+00	0	32	104	1048576	60	106510
2026-01-06 00:42:12.74	339.55	1.52	-51.4	-66.7	3.6	1.51e+00	0	32	104	1048576	60	106041
2026-01-06 00:42:16.79	339.59	1.26	-51.4	-66.8	3.6	1.51e+00	0	32	104	1048576	60	106641
2026-01-06 00:42:20.83	339.63	1.02	-51.4	-66.8	3.6	1.51e+00	0	32	104	1048576	60	106257
2026-01-06 00:42:24.87	339.67	0.77	-51.4	-66.7	3.6	1.51e+00	0	32	104	1048576	60	105744
2026-01-06 00:42:28.92	339.71	0.52	-51.4	-66.8	3.5	1.51e+00	0	32	104	1048576	60	106703
2026-01-06 00:42:32.96	339.74	0.28	-51.4	-66.7	3.6	1.51e+00	0	32	104	1048576	60	105600
2026-01-06 00:42:37.00	339.78	0.04	-51.4	-66.7	3.6	1.51e+00	0	32	104	1048576	60	105707

#Closed at: 2026-01-06 00:42:38
#Recorded file [1 MB]: D:/lorett/data/35034_260106_032706.dat