passes_logs/2026/01/06/R4.6S_Anadyr_2ch/R4.6S_Anadyr_2ch__20260106_141258_SUOMI_NPP_rec.log

#Pass ID: 20260106_141258_SUOMI NPP
#Satellite: SUOMI NPP
#Configuration: NPP
#almurnet v.1.7.20251203
#Start time: 2026-01-06 14:13:01

#Version: 2.2.20231116
#Station: R4.6S_Anadyr_2ch
#Location: 177.4865 lon 64.73178 lat
#TLE: 1 37849U 11061A   25350.92281687  .00000071  00000+0  54882-4 0  9996
#TLE: 2 37849  98.7777 288.2268 0002366 112.8570 247.2856 14.19515404732588

#Time	Az	El	Level	Level2	SNR	BER	BlckErr	Temp	State	Recorded	gain1	gain2
2026-01-06 14:13:01.31	19.60	0.17	-51.4	-65.2	3.3	1.54e+00	0	32	0	0	60	89154
2026-01-06 14:13:05.35	19.69	0.41	-51.5	-66.8	3.6	1.51e+00	0	32	104	0	60	106128
2026-01-06 14:13:09.39	19.78	0.65	-51.2	-66.5	3.6	1.51e+00	0	32	104	0	60	103471
2026-01-06 14:13:13.44	19.87	0.89	-50.6	-65.8	3.6	1.51e+00	0	32	104	0	60	95515
2026-01-06 14:13:17.48	19.96	1.14	-50.0	-65.2	3.6	1.51e+00	0	32	104	0	60	88699
2026-01-06 14:13:21.53	20.05	1.39	-50.0	-65.1	3.6	1.51e+00	0	32	104	0	60	87837
2026-01-06 14:13:25.57	20.15	1.64	-50.0	-65.2	3.6	1.51e+00	0	32	104	0	60	89201
2026-01-06 14:13:29.61	20.24	1.89	-50.0	-65.2	3.6	1.51e+00	0	32	104	0	60	89196
2026-01-06 14:13:33.66	20.34	2.14	-49.9	-64.4	3.6	1.51e+00	0	32	104	0	60	80582
2026-01-06 14:13:37.70	20.44	2.40	-49.8	-63.3	3.6	1.51e+00	0	33	104	0	60	70945
2026-01-06 14:13:41.74	20.54	2.66	-49.4	-57.2	6.1	4.40e-01	0	33	0	0	60	35203
2026-01-06 14:13:45.79	20.64	2.92	-46.6	-49.7	14.5	4.50e-06	0	32	102	1048576	60	14864
2026-01-06 14:13:49.83	20.74	3.18	-45.4	-47.7	16.4	0.00e+00	0	33	102	1048576	60	11801
2026-01-06 14:13:53.88	20.84	3.45	-47.2	-50.7	13.3	7.00e-07	0	33	102	1048576	60	16774
2026-01-06 14:13:57.92	20.95	3.72	-46.7	-49.8	12.3	0.00e+00	0	33	102	1048576	60	15151
2026-01-06 14:14:01.96	21.05	3.99	-49.4	-57.5	9.6	1.51e+00	0	33	104	1048576	60	36708
2026-01-06 14:14:06.01	21.16	4.26	-47.6	-51.2	13.1	1.29e-05	0	33	0	1048576	60	17716
2026-01-06 14:14:10.05	21.27	4.54	-46.2	-48.8	15.7	7.00e-07	0	33	0	1048576	60	13363
2026-01-06 14:14:14.10	21.38	4.82	-44.1	-45.8	18.6	0.00e+00	0	33	0	1048576	60	9557
2026-01-06 14:14:18.14	21.50	5.10	-43.2	-44.6	19.7	0.00e+00	0	33	0	1048576	60	8294
2026-01-06 14:14:22.18	21.61	5.38	-43.1	-44.6	19.9	0.00e+00	0	33	101	1048576	60	8267
2026-01-06 14:14:26.23	21.73	5.67	-43.3	-44.7	19.8	0.00e+00	0	33	101	1048576	60	8366
2026-01-06 14:14:30.27	21.85	5.96	-42.8	-44.1	20.3	0.00e+00	0	33	101	1048576	60	7858
2026-01-06 14:14:34.32	21.97	6.26	-42.9	-44.2	20.3	0.00e+00	0	33	101	1048576	60	7915
2026-01-06 14:14:38.36	22.09	6.55	-42.5	-43.8	20.7	0.00e+00	0	33	101	1048576	60	7553
2026-01-06 14:14:42.40	22.22	6.86	-42.2	-43.5	21.0	0.00e+00	0	33	101	1048576	60	7263
2026-01-06 14:14:46.44	22.35	7.16	-42.1	-43.3	21.2	0.00e+00	0	33	101	1048576	60	7094
2026-01-06 14:14:50.49	22.48	7.47	-41.8	-43.0	21.6	0.00e+00	0	33	101	1048576	60	6860
2026-01-06 14:14:54.53	22.61	7.78	-41.9	-43.1	21.4	0.00e+00	0	33	101	1048576	60	6969
2026-01-06 14:14:58.57	22.75	8.10	-41.8	-42.9	21.5	0.00e+00	0	33	101	1048576	60	6822
2026-01-06 14:15:02.62	22.88	8.42	-41.7	-42.9	21.6	0.00e+00	0	33	101	1048576	60	6790
2026-01-06 14:15:06.66	23.02	8.74	-41.6	-42.7	21.8	0.00e+00	0	33	101	1048576	60	6651
2026-01-06 14:15:10.70	23.17	9.07	-41.5	-42.6	21.9	0.00e+00	0	33	101	1048576	60	6579
2026-01-06 14:15:14.74	23.31	9.40	-41.3	-42.4	22.1	0.00e+00	0	33	101	1048576	60	6413
2026-01-06 14:15:18.79	23.46	9.74	-41.4	-42.4	22.1	0.00e+00	0	33	101	1048576	60	6459
2026-01-06 14:15:22.83	23.61	10.08	-41.0	-42.0	22.4	0.00e+00	0	33	101	1048576	60	6164
2026-01-06 14:15:26.87	23.77	10.42	-41.3	-42.3	22.4	0.00e+00	0	33	101	1048576	60	6375
2026-01-06 14:15:30.92	23.93	10.77	-40.7	-41.7	22.3	0.00e+00	0	33	101	1048576	60	5930
2026-01-06 14:15:34.96	24.09	11.13	-40.9	-41.9	22.3	0.00e+00	0	33	101	1048576	60	6082
2026-01-06 14:15:39.00	24.25	11.49	-40.7	-41.7	22.7	0.00e+00	0	33	101	1048576	60	5917
2026-01-06 14:15:43.04	24.42	11.85	-40.7	-41.7	22.8	0.00e+00	0	33	101	1048576	60	5962
2026-01-06 14:15:47.09	24.60	12.22	-40.8	-41.8	22.9	0.00e+00	0	33	101	1048576	60	5968
2026-01-06 14:15:51.13	24.77	12.60	-40.7	-41.6	22.8	0.00e+00	0	33	101	1048576	60	5895
2026-01-06 14:15:55.18	24.95	12.98	-40.6	-41.5	22.9	0.00e+00	0	33	101	1048576	60	5807
2026-01-06 14:15:59.22	25.14	13.37	-40.5	-41.4	23.1	0.00e+00	0	33	101	1048576	60	5737
2026-01-06 14:16:03.26	25.33	13.76	-40.6	-41.6	23.1	0.00e+00	0	33	101	1048576	60	5879
2026-01-06 14:16:07.31	25.52	14.16	-40.5	-41.5	23.1	0.00e+00	0	33	101	1048576	60	5800
2026-01-06 14:16:11.35	25.72	14.57	-40.8	-41.7	22.9	0.00e+00	0	33	101	1048576	60	5963
2026-01-06 14:16:15.39	25.93	14.98	-40.8	-41.8	22.9	0.00e+00	0	33	101	1048576	60	6016
2026-01-06 14:16:19.44	26.14	15.40	-40.9	-41.9	22.8	0.00e+00	0	33	101	1048576	60	6047
2026-01-06 14:16:23.48	26.35	15.83	-40.8	-41.7	22.8	0.00e+00	0	33	101	1048576	60	5962
2026-01-06 14:16:27.52	26.57	16.26	-40.8	-41.8	22.9	0.00e+00	0	33	101	1048576	60	6011
2026-01-06 14:16:31.57	26.80	16.71	-40.8	-41.8	23.0	0.00e+00	0	33	101	1048576	60	5983
2026-01-06 14:16:35.60	27.03	17.15	-41.1	-42.1	22.6	0.00e+00	0	33	101	1048576	60	6211
2026-01-06 14:16:39.63	27.27	17.61	-41.0	-42.0	22.7	0.00e+00	0	33	101	1048576	60	6155
2026-01-06 14:16:43.66	27.52	18.07	-40.8	-41.8	22.9	0.00e+00	0	33	101	1048576	60	5989
2026-01-06 14:16:47.70	27.77	18.55	-40.9	-41.8	22.7	0.00e+00	0	33	101	1048576	60	6031
2026-01-06 14:16:51.72	28.03	19.03	-40.5	-41.5	23.1	0.00e+00	0	33	101	1048576	60	5791
2026-01-06 14:16:55.75	28.30	19.52	-40.4	-41.3	23.3	0.00e+00	0	33	101	1048576	60	5660
2026-01-06 14:16:59.79	28.57	20.02	-39.8	-40.7	23.7	0.00e+00	0	33	101	1048576	58	5931
2026-01-06 14:17:03.82	28.86	20.53	-39.2	-40.0	24.3	0.00e+00	0	33	101	1048576	56	6160
2026-01-06 14:17:07.85	29.15	21.05	-38.7	-39.5	24.6	0.00e+00	0	33	101	1048576	56	5787
2026-01-06 14:17:11.89	29.46	21.58	-38.6	-39.4	24.6	0.00e+00	0	33	101	1048576	56	5747
2026-01-06 14:17:15.92	29.77	22.12	-38.4	-39.2	24.8	0.00e+00	0	33	101	1048576	56	5569
2026-01-06 14:17:19.96	30.10	22.67	-38.8	-39.6	24.6	0.00e+00	0	33	101	1048576	56	5845
2026-01-06 14:17:23.99	30.43	23.24	-38.7	-39.5	24.5	0.00e+00	0	33	101	1048576	56	5788
2026-01-06 14:17:28.03	30.78	23.81	-38.6	-39.4	24.7	0.00e+00	0	33	101	1048576	56	5759
2026-01-06 14:17:32.07	31.14	24.40	-38.4	-39.2	24.8	0.00e+00	0	33	101	1048576	56	5608
2026-01-06 14:17:36.10	31.51	25.00	-38.5	-39.3	24.8	0.00e+00	0	33	101	1048576	56	5683
2026-01-06 14:17:40.13	31.90	25.61	-38.5	-39.3	24.6	0.00e+00	0	33	101	1048576	56	5691
2026-01-06 14:17:44.16	32.30	26.23	-38.1	-38.8	25.0	0.00e+00	0	33	101	1048576	54	6032
2026-01-06 14:17:48.19	32.72	26.87	-38.4	-39.2	24.8	0.00e+00	0	33	101	1048576	54	6276
2026-01-06 14:17:52.23	33.15	27.52	-38.7	-39.5	24.1	0.00e+00	0	33	101	1048576	54	6495
2026-01-06 14:17:56.26	33.60	28.19	-38.7	-39.5	24.5	0.00e+00	0	33	101	1048576	54	6502
2026-01-06 14:18:00.29	34.07	28.87	-39.7	-40.6	24.0	0.00e+00	0	33	101	1048576	56	6544
2026-01-06 14:18:04.33	34.56	29.57	-40.5	-41.4	23.3	0.00e+00	0	33	101	1048576	58	6464
2026-01-06 14:18:08.36	35.07	30.28	-41.5	-42.5	22.6	0.00e+00	0	33	101	1048576	60	6536
2026-01-06 14:18:12.40	35.60	31.00	-42.3	-43.5	21.6	0.00e+00	0	33	101	1048576	60	7292
2026-01-06 14:18:16.43	36.16	31.75	-43.0	-44.3	20.8	0.00e+00	0	33	101	1048576	60	8010
2026-01-06 14:18:20.46	36.74	32.50	-42.4	-43.6	21.6	0.00e+00	0	33	101	1048576	60	7374
2026-01-06 14:18:24.49	37.35	33.28	-41.7	-42.8	22.2	0.00e+00	0	33	101	1048576	60	6730
2026-01-06 14:18:28.53	37.99	34.07	-42.0	-43.1	22.1	0.00e+00	0	33	101	1048576	60	6953
2026-01-06 14:18:32.57	38.66	34.88	-43.0	-44.3	21.1	0.00e+00	0	33	101	1048576	60	8032
2026-01-06 14:18:36.60	39.37	35.70	-42.4	-43.6	21.5	0.00e+00	0	33	101	1048576	60	7391
2026-01-06 14:18:40.64	40.11	36.55	-41.1	-42.1	22.7	0.00e+00	0	33	101	1048576	60	6229
2026-01-06 14:18:44.68	40.89	37.41	-41.4	-42.4	22.4	0.00e+00	0	33	101	1048576	60	6448
2026-01-06 14:18:48.72	41.71	38.29	-42.3	-43.4	21.9	0.00e+00	0	33	101	1048576	60	7205
2026-01-06 14:18:52.76	42.57	39.18	-41.5	-42.6	22.4	0.00e+00	0	33	101	1048576	60	6544
2026-01-06 14:18:56.79	43.49	40.09	-40.4	-41.4	23.3	0.00e+00	0	33	101	1048576	60	5710
2026-01-06 14:19:00.83	44.45	41.01	-41.1	-42.1	22.9	0.00e+00	0	33	101	1048576	60	6207
2026-01-06 14:19:04.87	45.48	41.96	-40.4	-41.4	23.4	0.00e+00	0	33	101	1048576	60	5716
2026-01-06 14:19:08.90	46.56	42.91	-41.7	-42.8	22.2	0.00e+00	0	33	101	1048576	60	6769
2026-01-06 14:19:12.94	47.71	43.88	-41.5	-42.6	22.4	0.00e+00	0	33	101	1048576	60	6572
2026-01-06 14:19:16.98	48.93	44.85	-42.3	-43.5	21.5	0.00e+00	0	33	101	1048576	60	7262
2026-01-06 14:19:21.01	50.22	45.84	-41.3	-42.4	22.5	0.00e+00	0	33	101	1048576	60	6432
2026-01-06 14:19:25.05	51.60	46.84	-41.7	-42.9	22.2	0.00e+00	0	33	101	1048576	60	6787
2026-01-06 14:19:29.08	53.07	47.84	-41.5	-42.6	22.4	0.00e+00	0	33	101	1048576	60	6560
2026-01-06 14:19:33.11	54.63	48.84	-42.6	-43.8	21.6	0.00e+00	0	33	101	1048576	60	7540
2026-01-06 14:19:37.15	56.31	49.84	-42.0	-43.2	21.8	0.00e+00	0	33	101	1048576	60	7043
2026-01-06 14:19:41.19	58.09	50.84	-42.5	-43.8	21.2	0.00e+00	0	33	101	1048576	60	7515
2026-01-06 14:19:45.22	59.99	51.83	-42.0	-43.2	21.8	0.00e+00	0	33	101	1048576	60	7044
2026-01-06 14:19:49.25	62.02	52.80	-42.4	-43.6	21.5	0.00e+00	0	33	101	1048576	60	7401
2026-01-06 14:19:53.28	64.18	53.75	-41.4	-42.5	22.4	0.00e+00	0	33	101	1048576	60	6508
2026-01-06 14:19:57.32	66.50	54.68	-40.1	-41.0	23.5	0.00e+00	0	33	101	1048576	58	6148
2026-01-06 14:20:01.36	68.97	55.58	-41.1	-42.2	22.7	0.00e+00	0	33	101	1048576	58	7008
2026-01-06 14:20:05.39	71.59	56.43	-40.4	-41.3	23.5	0.00e+00	0	34	101	1048576	60	5691
2026-01-06 14:20:09.43	74.37	57.24	-39.5	-40.4	24.1	0.00e+00	0	33	101	1048576	56	6411
2026-01-06 14:20:13.46	77.32	57.99	-40.4	-41.4	23.2	0.00e+00	0	33	101	1048576	58	6407
2026-01-06 14:20:17.50	80.43	58.68	-39.9	-40.8	23.7	0.00e+00	0	33	101	1048576	58	5994
2026-01-06 14:20:21.53	83.69	59.29	-39.6	-40.5	23.8	0.00e+00	0	33	101	1048576	56	6514
2026-01-06 14:20:25.58	87.11	59.82	-41.4	-42.5	22.4	0.00e+00	0	34	101	1048576	60	6507
2026-01-06 14:20:29.62	90.65	60.26	-40.7	-41.7	23.0	0.00e+00	0	34	101	1048576	60	5905
2026-01-06 14:20:33.66	94.31	60.60	-40.2	-41.2	23.4	0.00e+00	0	33	101	1048576	60	5577
2026-01-06 14:20:37.71	98.05	60.84	-41.5	-42.6	22.4	0.00e+00	0	33	101	1048576	60	6593
2026-01-06 14:20:41.75	101.85	60.97	-39.0	-39.9	24.4	0.00e+00	0	33	101	1048576	56	6036
2026-01-06 14:20:45.80	105.67	61.00	-39.6	-40.5	23.9	0.00e+00	0	33	101	1048576	58	5816
2026-01-06 14:20:49.84	109.48	60.91	-39.4	-40.3	24.0	0.00e+00	0	33	101	1048576	58	5678
2026-01-06 14:20:53.89	113.26	60.71	-39.6	-40.4	24.1	0.00e+00	0	33	101	1048576	58	5761
2026-01-06 14:20:57.93	116.95	60.41	-42.4	-43.6	21.7	0.00e+00	0	33	101	1048576	60	7371
2026-01-06 14:21:01.97	120.54	60.01	-42.7	-43.9	21.1	0.00e+00	0	33	101	1048576	60	7669
2026-01-06 14:21:06.02	124.02	59.51	-42.7	-43.9	21.2	0.00e+00	0	34	101	1048576	60	7655
2026-01-06 14:21:10.06	127.35	58.93	-41.7	-42.7	22.2	0.00e+00	0	33	101	1048576	60	6680
2026-01-06 14:21:14.10	130.53	58.27	-40.5	-41.5	23.3	0.00e+00	0	33	101	1048576	60	5774
2026-01-06 14:21:18.14	133.55	57.54	-38.5	-39.3	24.9	0.00e+00	0	33	101	1048576	56	5678
2026-01-06 14:21:22.19	136.41	56.75	-39.0	-39.9	24.5	0.00e+00	0	33	101	1048576	56	6072
2026-01-06 14:21:26.23	139.10	55.91	-38.3	-39.1	25.1	0.00e+00	0	33	101	1048576	56	5549
2026-01-06 14:21:30.27	141.63	55.02	-36.2	-36.9	26.2	0.00e+00	0	33	101	1048576	52	5415
2026-01-06 14:21:34.32	144.01	54.10	-37.2	-37.9	25.6	0.00e+00	0	33	101	1048576	52	6099
2026-01-06 14:21:38.36	146.24	53.15	-37.4	-38.1	25.4	0.00e+00	0	33	101	1048576	54	5562
2026-01-06 14:21:42.40	148.33	52.18	-37.0	-37.8	25.6	0.00e+00	0	33	101	1048576	52	5985
2026-01-06 14:21:46.45	150.29	51.19	-38.4	-39.2	24.8	0.00e+00	0	33	101	1048576	54	6313
2026-01-06 14:21:50.49	152.12	50.19	-37.5	-38.3	25.4	0.00e+00	0	33	101	1048576	54	5661
2026-01-06 14:21:54.53	153.84	49.19	-41.8	-43.0	22.0	0.00e+00	0	33	101	1048576	60	6913
2026-01-06 14:21:58.57	155.45	48.18	-44.2	-45.9	19.5	0.00e+00	0	34	101	1048576	60	9618
2026-01-06 14:22:02.62	156.96	47.17	-42.6	-43.8	21.4	0.00e+00	0	33	101	1048576	60	7527
2026-01-06 14:22:06.66	158.37	46.17	-45.3	-47.3	18.1	0.00e+00	0	33	101	1048576	60	11357
2026-01-06 14:22:10.70	159.70	45.17	-41.8	-42.9	22.0	0.00e+00	0	34	101	1048576	60	6828
2026-01-06 14:22:14.74	160.95	44.19	-39.0	-39.8	24.3	0.00e+00	0	34	101	1048576	56	6020
2026-01-06 14:22:18.79	162.13	43.21	-40.9	-41.9	22.7	0.00e+00	0	34	101	1048576	58	6780
2026-01-06 14:22:22.83	163.24	42.25	-38.9	-39.7	24.6	0.00e+00	0	33	101	1048576	56	5937
2026-01-06 14:22:26.88	164.28	41.30	-44.0	-45.7	19.8	0.00e+00	0	33	101	1048576	60	9361
2026-01-06 14:22:30.92	165.27	40.36	-38.0	-38.7	25.2	0.00e+00	0	34	101	1048576	54	5945
2026-01-06 14:22:34.97	166.21	39.44	-41.2	-42.3	22.4	0.00e+00	0	33	101	1048576	60	6375
2026-01-06 14:22:39.01	167.09	38.54	-37.8	-38.5	24.7	0.00e+00	0	33	101	1048576	54	5824
2026-01-06 14:22:43.05	167.93	37.65	-40.3	-41.2	23.2	0.00e+00	0	33	101	1048576	58	6251
2026-01-06 14:22:47.09	168.72	36.78	-41.7	-42.9	22.2	0.00e+00	0	34	101	1048576	60	6771
2026-01-06 14:22:51.14	169.47	35.92	-41.2	-42.2	22.6	0.00e+00	0	34	101	1048576	60	6305
2026-01-06 14:22:55.18	170.19	35.09	-41.1	-42.0	22.9	0.00e+00	0	34	101	1048576	60	6154
2026-01-06 14:22:59.22	170.87	34.27	-41.1	-42.1	22.8	0.00e+00	0	33	101	1048576	60	6236
2026-01-06 14:23:03.27	171.53	33.47	-40.6	-41.6	23.2	0.00e+00	0	33	101	1048576	60	5871
2026-01-06 14:23:07.31	172.15	32.68	-40.5	-41.4	23.2	0.00e+00	0	33	101	1048576	60	5751
2026-01-06 14:23:11.35	172.74	31.91	-40.4	-41.3	23.3	0.00e+00	0	33	101	1048576	58	6368
2026-01-06 14:23:15.39	173.30	31.16	-41.4	-42.4	22.5	0.00e+00	0	33	101	1048576	60	6411
2026-01-06 14:23:19.43	173.84	30.43	-42.4	-43.7	21.5	0.00e+00	0	33	101	1048576	60	7424
2026-01-06 14:23:23.48	174.36	29.70	-41.1	-42.1	22.7	0.00e+00	0	33	101	1048576	60	6231
2026-01-06 14:23:27.52	174.86	29.00	-41.0	-42.0	22.9	0.00e+00	0	33	101	1048576	60	6123
2026-01-06 14:23:31.56	175.33	28.31	-41.4	-42.5	22.4	0.00e+00	0	33	101	1048576	60	6469
2026-01-06 14:23:35.60	175.79	27.64	-40.4	-41.4	23.2	0.00e+00	0	33	101	1048576	60	5709
2026-01-06 14:23:39.65	176.23	26.98	-40.3	-41.3	23.3	0.00e+00	0	33	101	1048576	58	6337
2026-01-06 14:23:43.69	176.65	26.33	-39.9	-40.8	23.8	0.00e+00	0	33	101	1048576	58	6006
2026-01-06 14:23:47.74	177.06	25.70	-40.5	-41.5	23.1	0.00e+00	0	33	101	1048576	58	6471
2026-01-06 14:23:51.77	177.45	25.08	-40.4	-41.3	23.2	0.00e+00	0	33	101	1048576	58	6384
2026-01-06 14:23:55.80	177.82	24.47	-40.4	-41.4	23.0	0.00e+00	0	33	101	1048576	58	6456
2026-01-06 14:23:59.84	178.19	23.88	-39.6	-40.5	23.9	0.00e+00	0	33	101	1048576	58	5797
2026-01-06 14:24:03.88	178.54	23.30	-38.1	-38.9	25.0	0.00e+00	0	34	101	1048576	54	6079
2026-01-06 14:24:07.91	178.87	22.73	-37.2	-37.9	25.7	0.00e+00	0	33	101	1048576	52	6069
2026-01-06 14:24:11.77	179.19	22.20	-38.0	-38.7	25.1	0.00e+00	0	33	101	1048576	52	6667
2026-01-06 14:24:15.80	179.50	21.65	-38.7	-39.5	24.5	0.00e+00	0	33	101	1048576	54	6534
2026-01-06 14:24:19.83	179.81	21.12	-38.5	-39.3	24.6	0.00e+00	0	33	101	1048576	54	6367
2026-01-06 14:24:23.87	180.10	20.59	-38.1	-38.9	25.0	0.00e+00	0	34	101	1048576	54	6041
2026-01-06 14:24:27.90	180.39	20.08	-37.8	-38.6	25.1	0.00e+00	0	33	101	1048576	54	5872
2026-01-06 14:24:31.93	180.67	19.57	-38.2	-39.0	24.9	0.00e+00	0	34	101	1048576	54	6126
2026-01-06 14:24:35.96	180.94	19.08	-38.4	-39.2	24.7	0.00e+00	0	34	101	1048576	54	6271
2026-01-06 14:24:40.00	181.20	18.59	-39.4	-40.2	24.0	0.00e+00	0	33	101	1048576	56	6311
2026-01-06 14:24:44.03	181.45	18.11	-40.0	-40.9	23.5	0.00e+00	0	33	101	1048576	56	6820
2026-01-06 14:24:48.06	181.70	17.64	-40.1	-41.0	23.5	0.00e+00	0	33	101	1048576	56	6880
2026-01-06 14:24:52.10	181.94	17.18	-39.6	-40.4	23.9	0.00e+00	0	33	101	1048576	56	6448
2026-01-06 14:24:56.13	182.17	16.73	-39.0	-39.8	24.3	0.00e+00	0	33	101	1048576	56	6009
2026-01-06 14:25:00.16	182.40	16.28	-39.1	-39.9	24.3	0.00e+00	0	33	101	1048576	56	6056
2026-01-06 14:25:04.20	182.62	15.85	-39.0	-39.8	24.3	0.00e+00	0	33	101	1048576	56	6009
2026-01-06 14:25:08.23	182.83	15.42	-39.2	-40.1	24.1	0.00e+00	0	33	101	1048576	56	6188
2026-01-06 14:25:12.27	183.04	14.99	-39.5	-40.4	23.9	0.00e+00	0	33	101	1048576	56	6408
2026-01-06 14:25:16.30	183.24	14.58	-39.7	-40.6	23.7	0.00e+00	0	33	101	1048576	56	6580
2026-01-06 14:25:20.33	183.44	14.17	-39.8	-40.6	23.6	0.00e+00	0	33	101	1048576	56	6599
2026-01-06 14:25:24.36	183.63	13.77	-40.1	-41.0	23.4	0.00e+00	0	33	101	1048576	56	6872
2026-01-06 14:25:28.39	183.82	13.37	-40.3	-41.2	23.1	0.00e+00	0	33	101	1048576	58	6279
2026-01-06 14:25:32.43	184.01	12.98	-40.6	-41.6	22.8	0.00e+00	0	33	101	1048576	58	6550
2026-01-06 14:25:36.46	184.18	12.60	-40.9	-41.8	22.6	0.00e+00	0	33	101	1048576	58	6755
2026-01-06 14:25:40.49	184.36	12.22	-41.1	-42.1	22.5	0.00e+00	0	33	101	1048576	60	6187
2026-01-06 14:25:44.53	184.53	11.84	-40.6	-41.6	22.6	0.00e+00	0	33	101	1048576	60	5859
2026-01-06 14:25:48.56	184.70	11.48	-40.9	-41.9	22.5	0.00e+00	0	33	101	1048576	60	6043
2026-01-06 14:25:52.59	184.86	11.11	-40.8	-41.8	22.6	0.00e+00	0	33	101	1048576	60	5998
2026-01-06 14:25:56.62	185.02	10.76	-40.8	-41.8	22.7	0.00e+00	0	33	101	1048576	60	5967
2026-01-06 14:26:00.66	185.18	10.41	-40.8	-41.8	22.6	0.00e+00	0	33	101	1048576	60	5972
2026-01-06 14:26:04.69	185.33	10.06	-41.3	-42.4	22.2	0.00e+00	0	33	101	1048576	60	6392
2026-01-06 14:26:08.72	185.48	9.72	-40.9	-41.9	22.5	0.00e+00	0	33	101	1048576	60	6072
2026-01-06 14:26:12.76	185.63	9.38	-40.9	-41.9	22.4	0.00e+00	0	33	101	1048576	60	6059
2026-01-06 14:26:16.79	185.77	9.04	-41.4	-42.4	22.1	0.00e+00	0	33	101	1048576	60	6463
2026-01-06 14:26:20.83	185.91	8.71	-41.1	-42.2	22.2	0.00e+00	0	33	101	1048576	60	6287
2026-01-06 14:26:24.86	186.05	8.39	-41.1	-42.2	22.2	0.00e+00	0	33	101	1048576	60	6256
2026-01-06 14:26:28.89	186.18	8.07	-41.2	-42.3	22.1	0.00e+00	0	34	101	1048576	60	6340
2026-01-06 14:26:32.93	186.32	7.75	-41.1	-42.2	22.2	0.00e+00	0	33	101	1048576	60	6251
2026-01-06 14:26:36.96	186.45	7.44	-41.3	-42.4	21.9	0.00e+00	0	33	101	1048576	60	6430
2026-01-06 14:26:41.00	186.57	7.13	-41.3	-42.4	22.0	0.00e+00	0	33	101	1048576	60	6393
2026-01-06 14:26:45.03	186.70	6.82	-41.2	-42.3	22.1	0.00e+00	0	33	101	1048576	60	6346
2026-01-06 14:26:49.06	186.82	6.52	-41.2	-42.3	21.9	0.00e+00	0	33	101	1048576	60	6343
2026-01-06 14:26:53.10	186.94	6.22	-41.2	-42.3	21.9	0.00e+00	0	33	101	1048576	60	6324
2026-01-06 14:26:57.14	187.06	5.92	-41.5	-42.6	21.6	0.00e+00	0	33	101	1048576	60	6606
2026-01-06 14:27:01.17	187.18	5.63	-41.3	-42.4	21.7	0.00e+00	0	33	101	1048576	60	6430
2026-01-06 14:27:05.21	187.29	5.34	-41.9	-43.1	21.0	0.00e+00	0	33	101	1048576	60	6968
2026-01-06 14:27:09.25	187.40	5.05	-41.6	-42.7	21.3	0.00e+00	0	33	101	1048576	60	6688
2026-01-06 14:27:13.28	187.51	4.77	-41.7	-42.9	21.2	0.00e+00	0	33	101	1048576	60	6787
2026-01-06 14:27:17.32	187.62	4.49	-41.9	-43.2	20.9	0.00e+00	0	33	101	1048576	60	7019
2026-01-06 14:27:21.36	187.73	4.21	-42.2	-43.5	20.6	0.00e+00	0	33	101	1048576	60	7277
2026-01-06 14:27:25.39	187.84	3.93	-42.3	-43.6	20.5	0.00e+00	0	33	101	1048576	60	7356
2026-01-06 14:27:29.43	187.94	3.66	-42.7	-44.1	19.9	0.00e+00	0	33	101	1048576	60	7856
2026-01-06 14:27:33.46	188.04	3.39	-43.0	-44.5	19.5	0.00e+00	0	33	101	1048576	60	8154
2026-01-06 14:27:37.50	188.14	3.13	-47.1	-51.0	5.1	0.00e+00	0	33	101	1048576	60	17294
2026-01-06 14:27:41.54	188.24	2.86	-51.1	-66.5	3.6	1.51e+00	0	33	104	1048576	60	102690
2026-01-06 14:27:45.59	188.34	2.60	-51.3	-66.7	3.6	1.51e+00	0	33	104	1048576	60	105573
2026-01-06 14:27:49.63	188.43	2.34	-51.3	-66.6	3.6	1.51e+00	0	33	104	1048576	60	104222
2026-01-06 14:27:53.68	188.53	2.08	-51.3	-66.7	3.6	1.51e+00	0	33	104	1048576	60	105269
2026-01-06 14:27:57.72	188.62	1.82	-51.3	-66.6	3.6	1.51e+00	0	33	104	1048576	60	104629
2026-01-06 14:28:01.76	188.71	1.57	-51.3	-66.6	3.6	1.51e+00	0	33	104	1048576	60	104205
2026-01-06 14:28:05.81	188.80	1.32	-51.3	-66.6	3.6	1.51e+00	0	34	104	1048576	60	104180
2026-01-06 14:28:09.85	188.89	1.07	-51.3	-66.6	3.6	1.51e+00	0	33	104	1048576	60	104180
2026-01-06 14:28:13.89	188.98	0.82	-51.3	-66.6	3.5	1.51e+00	0	34	104	1048576	60	104195
2026-01-06 14:28:17.94	189.06	0.58	-51.3	-66.6	3.6	1.51e+00	0	34	104	1048576	60	103956
2026-01-06 14:28:21.98	189.15	0.33	-51.3	-66.5	3.6	1.51e+00	0	34	104	1048576	60	103599
2026-01-06 14:28:26.02	189.23	0.09	-51.3	-66.5	3.6	1.51e+00	0	34	104	1048576	60	103474

#Closed at: 2026-01-06 14:28:28
#Recorded file [1 MB]: D:/lorett/data/35034_260106_171301.dat