passes_logs/2026/01/06/R4.6S_Anadyr_2ch/R4.6S_Anadyr_2ch__20260106_025427_AQUA_rec.log

#Pass ID: 20260106_025427_AQUA
#Satellite: AQUA
#Configuration: AQUA
#almurnet v.1.7.20251203
#Start time: 2026-01-06 02:54:30

#Version: 2.2.20231116
#Station: R4.6S_Anadyr_2ch
#Location: 177.4865 lon 64.73178 lat
#TLE: 1 27424U 02022A   25351.00450321  .00000925  00000+0  19503-3 0  9992
#TLE: 2 27424  98.4041 311.9529 0001248 113.7180 322.1616 14.61819266256652

#Time	Az	El	Level	Level2	SNR	BER	BlckErr	Temp	State	Recorded	gain1	gain2
2026-01-06 02:54:30.32	182.43	0.17	-51.3	-67.6	3.2	3.02e+01	0	30	0	0	60	125213
2026-01-06 02:54:34.36	182.58	0.42	-51.3	-69.1	3.5	3.02e+01	0	30	104	0	60	148343
2026-01-06 02:54:38.40	182.73	0.66	-51.3	-69.1	3.5	3.02e+01	0	31	104	0	60	148518
2026-01-06 02:54:42.45	182.89	0.91	-51.3	-69.1	3.5	3.02e+01	0	31	104	0	60	147952
2026-01-06 02:54:46.49	183.05	1.16	-51.3	-69.1	3.5	3.02e+01	0	31	104	0	60	148062
2026-01-06 02:54:50.54	183.22	1.41	-51.3	-69.1	3.5	3.02e+01	0	31	104	0	60	148151
2026-01-06 02:54:54.58	183.38	1.67	-51.3	-69.2	3.5	3.02e+01	0	31	104	0	60	149518
2026-01-06 02:54:58.63	183.55	1.93	-51.3	-69.1	3.5	3.02e+01	0	31	104	0	60	148563
2026-01-06 02:55:02.67	183.73	2.19	-51.3	-69.1	3.5	3.02e+01	0	31	104	0	60	148335
2026-01-06 02:55:06.71	183.90	2.45	-51.3	-69.1	3.5	3.02e+01	0	31	104	0	60	147950
2026-01-06 02:55:10.75	184.08	2.71	-51.3	-69.2	3.5	3.02e+01	0	31	104	0	60	149009
2026-01-06 02:55:14.80	184.26	2.98	-51.3	-69.1	3.5	3.02e+01	0	31	104	0	60	148208
2026-01-06 02:55:18.84	184.45	3.25	-51.3	-69.1	3.5	3.02e+01	0	31	104	0	60	147895
2026-01-06 02:55:22.89	184.64	3.52	-51.0	-69.4	3.5	3.02e+01	0	31	104	0	60	152332
2026-01-06 02:55:26.93	184.83	3.80	-51.2	-69.4	3.5	3.02e+01	0	31	104	0	60	152803
2026-01-06 02:55:30.98	185.03	4.08	-51.5	-69.3	3.5	3.02e+01	0	31	104	0	60	151305
2026-01-06 02:55:35.02	185.23	4.36	-50.8	-68.7	3.5	3.02e+01	0	31	104	0	60	141608
2026-01-06 02:55:39.06	185.43	4.64	-50.2	-67.8	3.5	3.02e+01	0	31	104	0	60	127896
2026-01-06 02:55:43.10	185.64	4.93	-50.1	-67.9	3.5	3.02e+01	0	31	104	0	60	129321
2026-01-06 02:55:47.14	185.85	5.22	-50.1	-68.1	3.5	3.02e+01	0	31	104	0	60	131610
2026-01-06 02:55:51.19	186.07	5.51	-50.2	-68.0	3.5	3.02e+01	0	31	104	0	60	129812
2026-01-06 02:55:55.23	186.29	5.81	-50.1	-67.6	3.5	3.02e+01	0	31	104	0	60	125152
2026-01-06 02:55:59.27	186.52	6.11	-50.1	-67.7	3.5	3.02e+01	0	31	104	0	60	125273
2026-01-06 02:56:03.32	186.75	6.42	-50.1	-67.9	3.5	3.02e+01	0	31	104	0	60	128561
2026-01-06 02:56:07.36	186.99	6.73	-49.9	-62.5	5.1	3.02e+01	10	31	104	0	60	69485
2026-01-06 02:56:11.40	187.23	7.04	-49.1	-56.2	10.8	3.02e+01	91	31	102	524288	60	33460
2026-01-06 02:56:15.44	187.47	7.35	-42.9	-44.8	22.7	3.02e+01	92	31	102	524288	60	9055
2026-01-06 02:56:19.49	187.73	7.67	-40.5	-42.0	25.1	3.02e+01	92	31	102	524288	60	6517
2026-01-06 02:56:23.53	187.98	8.00	-40.3	-41.7	26.0	3.02e+01	92	31	0	524288	60	6295
2026-01-06 02:56:27.58	188.25	8.33	-40.8	-42.3	25.2	3.02e+01	91	31	0	524288	60	6754
2026-01-06 02:56:31.62	188.52	8.66	-40.5	-42.0	25.6	3.02e+01	90	31	101	524288	60	6514
2026-01-06 02:56:35.66	188.80	9.00	-40.3	-41.8	26.0	3.02e+01	92	31	101	524288	60	6401
2026-01-06 02:56:39.71	189.08	9.34	-39.5	-40.9	26.7	3.02e+01	92	31	101	524288	60	5736
2026-01-06 02:56:43.75	189.37	9.69	-39.4	-40.8	26.8	3.02e+01	91	31	101	524288	58	6371
2026-01-06 02:56:47.79	189.67	10.04	-39.3	-40.7	26.9	3.02e+01	91	31	101	524288	58	6285
2026-01-06 02:56:51.84	189.97	10.39	-39.3	-40.7	26.9	3.02e+01	91	31	101	524288	58	6335
2026-01-06 02:56:55.88	190.29	10.76	-39.1	-40.5	27.2	3.02e+01	90	31	101	524288	58	6151
2026-01-06 02:56:59.92	190.61	11.12	-39.2	-40.5	27.2	3.02e+01	92	32	101	524288	58	6203
2026-01-06 02:57:03.97	190.94	11.50	-39.2	-40.6	27.2	3.02e+01	92	31	101	524288	58	6223
2026-01-06 02:57:08.01	191.27	11.87	-38.9	-40.3	27.4	3.02e+01	90	31	101	524288	58	6021
2026-01-06 02:57:12.05	191.62	12.26	-38.8	-40.1	27.6	3.02e+01	92	32	101	524288	58	5924
2026-01-06 02:57:16.10	191.98	12.65	-38.6	-39.9	27.7	3.02e+01	91	32	101	524288	58	5784
2026-01-06 02:57:20.14	192.34	13.04	-38.5	-39.8	27.9	3.02e+01	92	32	101	524288	58	5685
2026-01-06 02:57:24.19	192.72	13.45	-38.7	-40.0	27.7	3.02e+01	92	31	101	524288	58	5837
2026-01-06 02:57:28.23	193.11	13.85	-38.5	-39.8	28.0	3.02e+01	92	32	101	524288	58	5692
2026-01-06 02:57:32.27	193.51	14.27	-38.5	-39.8	28.0	3.02e+01	92	32	101	524288	58	5679
2026-01-06 02:57:36.32	193.92	14.69	-38.5	-39.8	28.1	3.02e+01	92	31	101	524288	56	6411
2026-01-06 02:57:40.36	194.34	15.12	-38.5	-39.8	28.1	3.02e+01	92	31	101	524288	56	6374
2026-01-06 02:57:44.40	194.78	15.56	-38.4	-39.7	28.2	3.02e+01	92	31	101	524288	56	6279
2026-01-06 02:57:48.45	195.23	16.00	-38.2	-39.5	28.3	3.02e+01	87	32	101	524288	56	6164
2026-01-06 02:57:52.49	195.69	16.45	-38.1	-39.4	28.4	3.02e+01	92	32	101	524288	56	6101
2026-01-06 02:57:56.54	196.17	16.91	-37.9	-39.1	28.7	3.02e+01	92	32	101	524288	56	5887
2026-01-06 02:58:00.58	196.66	17.37	-38.0	-39.3	28.6	3.02e+01	92	31	101	524288	56	5998
2026-01-06 02:58:04.62	197.17	17.85	-37.9	-39.1	28.7	3.02e+01	92	31	101	524288	56	5895
2026-01-06 02:58:08.67	197.69	18.33	-37.7	-38.9	28.9	3.02e+01	91	31	101	524288	56	5748
2026-01-06 02:58:12.71	198.23	18.82	-37.6	-38.9	29.0	3.02e+01	92	32	101	524288	56	5747
2026-01-06 02:58:16.76	198.80	19.32	-37.6	-38.9	29.0	3.02e+01	92	31	101	524288	56	5732
2026-01-06 02:58:20.80	199.38	19.83	-37.6	-38.9	29.0	3.02e+01	90	32	101	524288	56	5735
2026-01-06 02:58:24.85	199.98	20.35	-37.4	-38.6	29.2	3.02e+01	90	32	101	524288	56	5569
2026-01-06 02:58:28.89	200.60	20.87	-37.2	-38.4	29.4	3.02e+01	92	32	101	524288	54	6098
2026-01-06 02:58:32.93	201.24	21.40	-37.5	-38.7	29.2	3.02e+01	91	32	101	524288	54	6337
2026-01-06 02:58:36.97	201.91	21.95	-37.3	-38.5	29.3	3.02e+01	92	32	101	524288	54	6193
2026-01-06 02:58:41.02	202.60	22.50	-37.1	-38.3	29.5	3.02e+01	91	31	101	524288	54	6055
2026-01-06 02:58:45.06	203.32	23.06	-37.0	-38.2	29.5	3.02e+01	90	31	101	524288	54	5975
2026-01-06 02:58:49.10	204.06	23.63	-37.1	-38.3	29.5	3.02e+01	92	31	101	524288	54	6000
2026-01-06 02:58:53.15	204.83	24.21	-37.2	-38.4	29.5	3.02e+01	90	31	101	524288	54	6071
2026-01-06 02:58:57.19	205.63	24.80	-37.2	-38.4	29.5	3.02e+01	92	32	101	524288	54	6093
2026-01-06 02:59:01.23	206.47	25.39	-37.2	-38.4	29.4	3.02e+01	90	32	101	524288	54	6076
2026-01-06 02:59:05.27	207.33	26.00	-37.1	-38.3	29.5	3.02e+01	85	31	101	524288	54	6006
2026-01-06 02:59:09.32	208.23	26.61	-37.2	-38.4	29.4	3.02e+01	92	32	101	524288	54	6101
2026-01-06 02:59:13.36	209.17	27.23	-37.1	-38.2	29.6	3.02e+01	91	31	101	524288	54	5994
2026-01-06 02:59:17.40	210.14	27.86	-37.3	-38.5	29.4	3.02e+01	90	32	101	524288	54	6150
2026-01-06 02:59:21.45	211.16	28.49	-37.2	-38.4	29.4	3.02e+01	91	32	101	524288	54	6133
2026-01-06 02:59:25.49	212.21	29.13	-37.6	-38.8	29.1	3.02e+01	89	32	101	524288	54	6398
2026-01-06 02:59:29.54	213.31	29.78	-37.4	-38.6	29.3	3.02e+01	91	32	101	524288	54	6256
2026-01-06 02:59:33.58	214.46	30.43	-37.2	-38.4	29.5	3.02e+01	92	31	101	524288	54	6100
2026-01-06 02:59:37.62	215.65	31.08	-37.6	-38.8	29.2	3.02e+01	92	32	101	524288	54	6354
2026-01-06 02:59:41.66	216.89	31.73	-37.4	-38.5	29.3	3.02e+01	92	31	101	524288	54	6201
2026-01-06 02:59:45.71	218.19	32.39	-37.4	-38.6	29.4	3.02e+01	92	31	101	524288	54	6233
2026-01-06 02:59:49.75	219.53	33.04	-37.5	-38.7	29.2	3.02e+01	92	32	101	524288	54	6295
2026-01-06 02:59:53.79	220.94	33.70	-37.4	-38.6	29.4	3.02e+01	91	32	101	524288	54	6220
2026-01-06 02:59:57.83	222.40	34.34	-37.3	-38.5	29.4	3.02e+01	92	32	101	524288	54	6156
2026-01-06 03:00:01.88	223.92	34.98	-37.5	-38.7	29.3	3.02e+01	92	31	101	524288	54	6303
2026-01-06 03:00:05.93	225.50	35.62	-37.4	-38.6	29.4	3.02e+01	92	32	101	524288	54	6258
2026-01-06 03:00:09.97	227.15	36.24	-37.4	-38.6	29.3	3.02e+01	92	32	101	524288	54	6241
2026-01-06 03:00:14.01	228.86	36.84	-37.5	-38.7	29.3	3.02e+01	91	31	101	524288	54	6290
2026-01-06 03:00:18.06	230.63	37.43	-37.4	-38.6	29.3	3.02e+01	92	31	101	524288	54	6260
2026-01-06 03:00:22.10	232.47	38.00	-37.3	-38.5	29.4	3.02e+01	89	31	101	524288	54	6167
2026-01-06 03:00:26.14	234.37	38.55	-37.4	-38.6	29.4	3.02e+01	92	31	101	524288	54	6264
2026-01-06 03:00:30.19	236.34	39.07	-37.5	-38.7	29.3	3.02e+01	92	31	101	524288	54	6293
2026-01-06 03:00:34.23	238.36	39.56	-37.6	-38.8	29.2	3.02e+01	92	31	101	524288	54	6407
2026-01-06 03:00:38.27	240.45	40.01	-37.7	-38.9	29.1	3.02e+01	92	32	101	524288	54	6472
2026-01-06 03:00:42.32	242.60	40.43	-37.7	-38.9	29.2	3.02e+01	92	31	101	524288	54	6465
2026-01-06 03:00:46.36	244.79	40.81	-37.6	-38.8	29.2	3.02e+01	92	32	101	524288	54	6411
2026-01-06 03:00:50.41	247.05	41.15	-37.7	-38.9	29.2	3.02e+01	91	32	101	524288	54	6462
2026-01-06 03:00:54.45	249.34	41.43	-38.1	-39.3	28.9	3.02e+01	92	32	101	524288	54	6761
2026-01-06 03:00:58.49	251.66	41.68	-38.1	-39.3	29.0	3.02e+01	92	31	101	524288	54	6746
2026-01-06 03:01:02.54	254.03	41.87	-37.9	-39.2	29.0	3.02e+01	91	32	101	524288	54	6659
2026-01-06 03:01:06.58	256.41	42.00	-37.7	-39.0	29.1	3.02e+01	91	31	101	524288	54	6506
2026-01-06 03:01:10.63	258.82	42.09	-37.9	-39.1	29.0	3.02e+01	92	31	101	524288	54	6631
2026-01-06 03:01:14.67	261.23	42.12	-38.1	-39.3	29.0	3.02e+01	92	32	101	524288	54	6746
2026-01-06 03:01:18.72	263.64	42.09	-37.6	-38.9	29.2	3.02e+01	91	32	101	524288	54	6426
2026-01-06 03:01:22.76	266.04	42.01	-37.5	-38.7	29.4	3.02e+01	92	31	101	524288	54	6322
2026-01-06 03:01:26.80	268.42	41.88	-37.4	-38.7	29.4	3.02e+01	92	32	101	524288	54	6278
2026-01-06 03:01:30.85	270.79	41.69	-37.4	-38.6	29.4	3.02e+01	91	32	101	524288	54	6272
2026-01-06 03:01:34.89	273.11	41.45	-37.2	-38.4	29.6	3.02e+01	89	31	101	524288	54	6079
2026-01-06 03:01:38.94	275.41	41.17	-37.2	-38.4	29.7	3.02e+01	92	32	101	524288	54	6074
2026-01-06 03:01:42.98	277.65	40.83	-37.3	-38.5	29.4	3.02e+01	90	32	101	524288	54	6171
2026-01-06 03:01:47.02	279.85	40.46	-37.1	-38.2	29.8	3.02e+01	90	32	101	524288	54	5980
2026-01-06 03:01:51.07	282.00	40.04	-37.2	-38.3	29.7	3.02e+01	91	32	101	524288	54	6060
2026-01-06 03:01:55.11	284.08	39.59	-37.1	-38.2	29.8	3.02e+01	88	32	101	524288	54	5989
2026-01-06 03:01:59.16	286.11	39.11	-37.0	-38.1	29.8	3.02e+01	92	31	101	524288	54	5916
2026-01-06 03:02:03.20	288.08	38.59	-36.9	-38.1	29.8	3.02e+01	92	32	101	524288	54	5861
2026-01-06 03:02:07.24	289.98	38.05	-37.0	-38.2	29.8	3.02e+01	92	32	101	524288	54	5985
2026-01-06 03:02:11.29	291.82	37.48	-37.1	-38.3	29.7	3.02e+01	92	32	101	524288	54	6030
2026-01-06 03:02:15.33	293.59	36.90	-37.1	-38.3	29.7	3.02e+01	90	32	101	524288	54	6021
2026-01-06 03:02:19.37	295.29	36.30	-37.1	-38.3	29.7	3.02e+01	91	32	101	524288	54	6043
2026-01-06 03:02:23.42	296.94	35.68	-37.3	-38.4	29.5	3.02e+01	90	32	101	524288	54	6127
2026-01-06 03:02:27.46	298.52	35.05	-37.8	-39.0	29.1	3.02e+01	92	32	101	524288	54	6540
2026-01-06 03:02:31.50	300.04	34.42	-37.5	-38.7	29.5	3.02e+01	91	31	101	524288	54	6286
2026-01-06 03:02:35.55	301.51	33.77	-37.3	-38.6	29.5	3.02e+01	89	32	101	524288	54	6208
2026-01-06 03:02:39.59	302.91	33.12	-37.5	-38.6	29.5	3.02e+01	92	32	101	524288	54	6263
2026-01-06 03:02:43.63	304.26	32.47	-37.5	-38.7	29.4	3.02e+01	92	32	101	524288	54	6320
2026-01-06 03:02:47.67	305.55	31.82	-37.5	-38.7	29.5	3.02e+01	61	32	101	524288	54	6316
2026-01-06 03:02:51.72	306.79	31.17	-37.6	-38.8	29.3	3.02e+01	47	32	101	524288	54	6411
2026-01-06 03:02:55.76	307.98	30.52	-37.2	-38.4	29.7	3.02e+01	58	32	101	524288	54	6120
2026-01-06 03:02:59.81	309.13	29.87	-37.2	-38.3	29.6	3.02e+01	55	32	101	524288	54	6052
2026-01-06 03:03:03.85	310.23	29.23	-37.0	-38.2	29.7	3.02e+01	58	32	101	524288	54	5968
2026-01-06 03:03:07.89	311.29	28.60	-37.0	-38.2	29.8	3.02e+01	45	32	101	524288	54	5928
2026-01-06 03:03:11.94	312.30	27.96	-36.9	-38.1	29.8	3.02e+01	54	32	101	524288	54	5866
2026-01-06 03:03:15.98	313.28	27.34	-36.4	-37.6	30.3	3.02e+01	52	32	101	524288	54	5575
2026-01-06 03:03:20.03	314.21	26.72	-36.3	-37.5	30.4	3.02e+01	58	32	101	524288	52	6173
2026-01-06 03:03:24.07	315.11	26.11	-35.9	-37.1	30.7	3.02e+01	46	31	101	524288	52	5903
2026-01-06 03:03:28.11	315.98	25.51	-36.0	-37.2	30.6	3.02e+01	61	32	101	524288	52	5959
2026-01-06 03:03:32.16	316.81	24.92	-35.6	-36.8	31.0	3.02e+01	61	32	101	524288	52	5692
2026-01-06 03:03:36.20	317.62	24.33	-35.7	-36.9	30.9	3.02e+01	60	32	101	524288	52	5747
2026-01-06 03:03:40.25	318.39	23.76	-35.7	-36.8	30.9	3.02e+01	60	32	101	524288	52	5711
2026-01-06 03:03:44.29	319.14	23.19	-35.5	-36.6	31.0	3.02e+01	60	32	101	524288	52	5576
2026-01-06 03:03:48.34	319.85	22.63	-35.6	-36.7	31.0	3.02e+01	60	32	101	524288	52	5631
2026-01-06 03:03:52.38	320.55	22.08	-35.9	-37.0	30.8	3.02e+01	62	32	101	524288	52	5847
2026-01-06 03:03:56.42	321.21	21.54	-35.7	-36.8	30.8	3.02e+01	58	32	101	524288	52	5689
2026-01-06 03:04:00.47	321.86	21.01	-35.9	-37.1	30.7	3.02e+01	58	32	101	524288	52	5868
2026-01-06 03:04:04.51	322.48	20.49	-36.0	-37.2	30.6	3.02e+01	59	32	101	524288	52	5943
2026-01-06 03:04:08.55	323.08	19.97	-36.1	-37.2	30.6	3.02e+01	59	32	101	524288	52	5968
2026-01-06 03:04:12.60	323.66	19.47	-36.4	-37.6	30.1	3.02e+01	61	32	101	524288	52	6252
2026-01-06 03:04:16.65	324.23	18.97	-36.4	-37.6	30.1	3.02e+01	61	32	101	524288	52	6246
2026-01-06 03:04:20.69	324.77	18.48	-36.5	-37.7	30.1	3.02e+01	60	32	101	524288	52	6293
2026-01-06 03:04:24.73	325.30	18.00	-36.6	-37.8	30.0	3.02e+01	60	32	101	524288	52	6399
2026-01-06 03:04:28.78	325.81	17.53	-36.3	-37.5	30.3	3.02e+01	54	32	101	524288	52	6166
2026-01-06 03:04:32.82	326.30	17.07	-36.4	-37.6	30.1	3.02e+01	59	32	101	524288	52	6221
2026-01-06 03:04:36.87	326.78	16.61	-36.5	-37.7	30.1	3.02e+01	57	32	101	524288	52	6299
2026-01-06 03:04:40.91	327.25	16.16	-36.7	-37.9	30.0	3.02e+01	45	32	101	524288	52	6443
2026-01-06 03:04:44.95	327.70	15.72	-36.3	-37.5	30.2	3.02e+01	51	32	101	524288	52	6167
2026-01-06 03:04:49.00	328.13	15.28	-36.5	-37.6	30.2	3.02e+01	58	32	101	524288	52	6265
2026-01-06 03:04:53.04	328.56	14.86	-36.5	-37.7	30.0	3.02e+01	58	32	101	524288	52	6312
2026-01-06 03:04:57.09	328.97	14.44	-36.4	-37.5	30.2	3.02e+01	50	32	101	524288	52	6191
2026-01-06 03:05:01.13	329.37	14.02	-36.3	-37.5	30.2	3.02e+01	59	32	101	524288	52	6158
2026-01-06 03:05:05.17	329.76	13.62	-36.4	-37.6	30.1	3.02e+01	45	32	101	524288	52	6208
2026-01-06 03:05:09.22	330.14	13.21	-36.3	-37.4	30.2	3.02e+01	61	32	101	524288	52	6123
2026-01-06 03:05:13.26	330.51	12.82	-36.3	-37.5	30.2	3.02e+01	44	32	101	524288	52	6166
2026-01-06 03:05:17.31	330.87	12.43	-36.2	-37.4	30.2	3.02e+01	59	32	101	524288	52	6107
2026-01-06 03:05:21.35	331.22	12.05	-36.4	-37.6	30.1	3.02e+01	45	32	101	524288	52	6239
2026-01-06 03:05:25.40	331.56	11.67	-36.5	-37.7	30.0	3.02e+01	59	32	101	524288	52	6286
2026-01-06 03:05:29.44	331.89	11.30	-36.3	-37.5	30.1	3.02e+01	59	31	101	524288	52	6156
2026-01-06 03:05:33.48	332.21	10.94	-36.3	-37.4	30.2	3.02e+01	57	31	101	524288	52	6106
2026-01-06 03:05:37.53	332.53	10.57	-36.3	-37.4	30.1	3.02e+01	62	32	101	524288	52	6121
2026-01-06 03:05:41.57	332.84	10.22	-36.5	-37.6	29.9	3.02e+01	60	32	101	524288	52	6266
2026-01-06 03:05:45.61	333.14	9.87	-36.3	-37.5	30.1	3.02e+01	60	32	101	524288	52	6171
2026-01-06 03:05:49.66	333.43	9.52	-36.4	-37.6	30.0	3.02e+01	53	32	101	524288	52	6236
2026-01-06 03:05:53.70	333.72	9.18	-36.6	-37.8	29.8	3.02e+01	59	32	101	524288	52	6407
2026-01-06 03:05:57.74	334.00	8.85	-37.0	-38.2	29.5	3.02e+01	62	32	101	524288	52	6695
2026-01-06 03:06:01.78	334.27	8.52	-36.7	-37.9	29.6	3.02e+01	53	32	101	524288	52	6478
2026-01-06 03:06:05.83	334.54	8.19	-37.0	-38.2	29.3	3.02e+01	62	32	101	524288	52	6709
2026-01-06 03:06:09.87	334.80	7.87	-37.0	-38.2	29.4	3.02e+01	58	32	101	524288	52	6655
2026-01-06 03:06:13.91	335.05	7.55	-36.7	-37.9	29.7	3.02e+01	59	32	101	524288	52	6477
2026-01-06 03:06:17.96	335.30	7.23	-36.8	-38.0	29.6	3.02e+01	59	32	101	524288	52	6513
2026-01-06 03:06:22.00	335.55	6.92	-37.0	-38.2	29.3	3.02e+01	59	32	101	524288	52	6713
2026-01-06 03:06:26.04	335.78	6.61	-36.9	-38.1	29.4	3.02e+01	60	32	101	524288	54	5908
2026-01-06 03:06:30.09	336.02	6.31	-37.5	-47.3	3.3	3.02e+01	28	32	101	524288	54	17090
2026-01-06 03:06:34.13	336.25	6.01	-41.6	-52.0	3.6	3.02e+01	0	32	104	524288	60	20639
2026-01-06 03:06:38.18	336.47	5.71	-44.3	-55.2	3.6	3.02e+01	0	32	104	524288	60	29845
2026-01-06 03:06:42.22	336.69	5.42	-40.5	-50.9	3.5	3.02e+01	0	32	104	524288	60	18211
2026-01-06 03:06:46.26	336.91	5.13	-50.2	-66.6	3.5	3.02e+01	0	32	104	524288	60	111471
2026-01-06 03:06:50.30	337.12	4.84	-38.8	-49.0	4.0	3.02e+01	0	32	104	524288	58	16400
2026-01-06 03:06:54.35	337.33	4.56	-50.3	-67.1	3.5	3.02e+01	0	32	104	524288	60	117070
2026-01-06 03:06:58.39	337.53	4.28	-40.2	-50.6	3.5	3.02e+01	0	32	104	524288	60	17663
2026-01-06 03:07:02.43	337.73	4.00	-40.5	-50.9	3.5	3.02e+01	0	32	104	524288	60	18259
2026-01-06 03:07:06.48	337.93	3.73	-38.9	-49.2	3.5	3.02e+01	0	32	104	524288	58	16806
2026-01-06 03:07:10.52	338.12	3.46	-38.7	-49.0	3.5	3.02e+01	0	32	104	524288	58	16464
2026-01-06 03:07:14.56	338.31	3.19	-41.3	-51.9	3.5	3.02e+01	0	32	104	524288	60	20433
2026-01-06 03:07:18.60	338.50	2.92	-40.4	-50.8	3.5	3.02e+01	0	32	104	524288	58	20210
2026-01-06 03:07:22.65	338.68	2.66	-40.3	-50.7	3.5	3.02e+01	0	32	104	524288	60	17780
2026-01-06 03:07:26.69	338.86	2.40	-40.4	-51.0	3.5	3.02e+01	0	32	104	524288	60	18316
2026-01-06 03:07:30.74	339.04	2.14	-47.3	-63.5	3.5	3.02e+01	0	32	104	524288	60	78120
2026-01-06 03:07:34.78	339.21	1.88	-42.1	-53.0	3.5	3.02e+01	0	32	104	524288	60	23093
2026-01-06 03:07:38.82	339.38	1.63	-46.6	-62.5	3.5	3.02e+01	0	32	104	524288	60	69444
2026-01-06 03:07:42.86	339.55	1.38	-44.4	-56.3	3.5	3.02e+01	0	32	104	524288	60	34004
2026-01-06 03:07:46.91	339.71	1.13	-46.5	-60.7	3.5	3.02e+01	0	32	104	524288	60	56478
2026-01-06 03:07:50.95	339.87	0.88	-46.1	-61.4	3.5	3.02e+01	0	32	104	524288	60	61316
2026-01-06 03:07:54.99	340.03	0.63	-46.3	-62.8	3.5	3.02e+01	0	32	104	524288	60	71291
2026-01-06 03:07:59.04	340.19	0.39	-46.7	-64.0	3.5	3.02e+01	0	32	104	524288	60	82016
2026-01-06 03:08:03.08	340.35	0.15	-46.4	-64.2	3.5	3.02e+01	0	32	104	524288	60	84050
2026-01-06 03:08:07.12	340.50	-0.09	-46.6	-64.4	3.5	3.02e+01	0	32	104	524288	60	86521

#Closed at: 2026-01-06 03:08:08
#Recorded file [0 MB]: D:/lorett/data/35034_260106_055430.dat