passes_logs/2026/01/06/R4.6S_Anadyr_2ch/R4.6S_Anadyr_2ch__20260106_004756_NOAA_20_JPSS-1_rec.log

#Pass ID: 20260106_004756_NOAA 20 (JPSS-1)
#Satellite: NOAA 20 (JPSS-1)
#Configuration: NOAA 20
#almurnet v.1.7.20251203
#Start time: 2026-01-06 00:47:58

#Version: 2.2.20231116
#Station: R4.6S_Anadyr_2ch
#Location: 177.4865 lon 64.73178 lat
#TLE: 1 43013U 17073A   25350.93759711  .00000080  00000+0  58734-4 0  9994
#TLE: 2 43013  98.7603 287.1885 0002156  81.1496 278.9924 14.19526878418610

#Time	Az	El	Level	Level2	SNR	BER	BlckErr	Temp	State	Recorded	gain1	gain2
2026-01-06 00:47:58.48	170.92	0.11	-51.4	-66.4	3.5	1.51e+00	0	29	0	0	60	102282
2026-01-06 00:48:02.52	171.01	0.35	-51.4	-66.7	3.6	1.51e+00	0	30	104	0	60	105745
2026-01-06 00:48:06.56	171.09	0.59	-51.4	-66.8	3.6	1.51e+00	0	31	104	0	60	106368
2026-01-06 00:48:10.60	171.18	0.84	-51.1	-66.5	3.6	1.51e+00	0	31	104	0	60	102468
2026-01-06 00:48:14.64	171.27	1.08	-50.0	-65.3	3.6	1.51e+00	0	31	104	0	60	90253
2026-01-06 00:48:18.69	171.36	1.33	-50.0	-65.4	3.6	1.51e+00	0	31	104	0	60	90300
2026-01-06 00:48:22.73	171.45	1.59	-50.0	-65.2	3.6	1.51e+00	0	31	104	0	60	88668
2026-01-06 00:48:26.78	171.54	1.84	-50.0	-65.0	3.6	1.51e+00	0	31	104	0	60	86985
2026-01-06 00:48:30.82	171.64	2.10	-50.0	-65.4	3.6	1.51e+00	0	31	104	0	60	90653
2026-01-06 00:48:34.86	171.73	2.35	-50.0	-65.0	3.6	1.51e+00	0	31	104	0	60	86713
2026-01-06 00:48:38.91	171.83	2.61	-49.9	-64.0	3.6	1.51e+00	0	31	104	0	60	77034
2026-01-06 00:48:42.95	171.92	2.88	-50.0	-65.2	3.6	1.51e+00	0	31	104	0	60	88868
2026-01-06 00:48:47.00	172.02	3.14	-48.1	-52.6	11.6	3.37e-03	0	31	102	1048576	60	20763
2026-01-06 00:48:51.04	172.13	3.41	-44.6	-46.5	17.8	0.00e+00	0	31	102	1048576	60	10342
2026-01-06 00:48:55.08	172.23	3.68	-44.8	-46.7	17.5	0.00e+00	0	31	102	1048576	60	10589
2026-01-06 00:48:59.13	172.33	3.96	-48.0	-52.0	14.2	2.87e-04	0	31	102	1048576	60	19402
2026-01-06 00:49:03.17	172.44	4.23	-45.6	-47.9	16.9	0.00e+00	0	31	0	1048576	60	12061
2026-01-06 00:49:07.21	172.55	4.51	-43.5	-45.0	19.4	0.00e+00	0	31	0	1048576	60	8648
2026-01-06 00:49:11.26	172.66	4.79	-42.8	-44.1	20.5	0.00e+00	0	31	0	1048576	60	7841
2026-01-06 00:49:15.30	172.77	5.08	-42.1	-43.4	21.2	0.00e+00	0	31	0	1048576	60	7177
2026-01-06 00:49:19.34	172.88	5.36	-42.1	-43.3	21.3	0.00e+00	0	31	101	1048576	60	7121
2026-01-06 00:49:23.39	173.00	5.66	-42.0	-43.2	21.4	0.00e+00	0	31	101	1048576	60	7012
2026-01-06 00:49:27.43	173.11	5.95	-42.0	-43.2	21.3	0.00e+00	0	31	101	1048576	60	7059
2026-01-06 00:49:31.48	173.23	6.25	-41.8	-43.0	21.6	0.00e+00	0	31	101	1048576	60	6850
2026-01-06 00:49:35.52	173.36	6.55	-41.8	-42.9	21.8	0.00e+00	0	31	101	1048576	60	6824
2026-01-06 00:49:39.56	173.48	6.85	-41.8	-42.9	21.7	0.00e+00	0	31	101	1048576	60	6838
2026-01-06 00:49:43.61	173.61	7.16	-41.7	-42.8	21.9	0.00e+00	0	31	101	1048576	60	6709
2026-01-06 00:49:47.65	173.74	7.47	-41.6	-42.7	21.9	0.00e+00	0	31	101	1048576	60	6676
2026-01-06 00:49:51.69	173.87	7.78	-41.4	-42.5	22.1	0.00e+00	0	31	101	1048576	60	6519
2026-01-06 00:49:55.74	174.00	8.10	-41.2	-42.2	22.4	0.00e+00	0	31	101	1048576	60	6300
2026-01-06 00:49:59.78	174.14	8.43	-41.1	-42.1	22.6	0.00e+00	0	31	101	1048576	60	6242
2026-01-06 00:50:03.82	174.28	8.75	-41.0	-42.0	22.7	0.00e+00	0	31	101	1048576	60	6116
2026-01-06 00:50:07.87	174.42	9.08	-40.9	-41.9	22.7	0.00e+00	0	31	101	1048576	60	6098
2026-01-06 00:50:11.91	174.57	9.42	-40.6	-41.6	23.1	0.00e+00	0	31	101	1048576	60	5859
2026-01-06 00:50:15.95	174.72	9.76	-40.7	-41.6	23.1	0.00e+00	0	31	101	1048576	60	5879
2026-01-06 00:50:19.99	174.87	10.10	-40.8	-41.8	23.0	0.00e+00	0	31	101	1048576	60	5982
2026-01-06 00:50:24.04	175.02	10.45	-40.7	-41.7	23.1	0.00e+00	0	31	101	1048576	60	5918
2026-01-06 00:50:28.08	175.18	10.81	-40.7	-41.6	23.1	0.00e+00	0	31	101	1048576	60	5893
2026-01-06 00:50:32.13	175.34	11.17	-40.6	-41.6	23.3	0.00e+00	0	31	101	1048576	60	5834
2026-01-06 00:50:36.17	175.51	11.53	-40.6	-41.5	23.3	0.00e+00	0	31	101	1048576	60	5807
2026-01-06 00:50:40.21	175.68	11.90	-40.3	-41.2	23.6	0.00e+00	0	31	101	1048576	60	5587
2026-01-06 00:50:44.25	175.85	12.27	-40.2	-41.1	23.7	0.00e+00	0	31	101	1048576	60	5546
2026-01-06 00:50:48.30	176.03	12.66	-40.3	-41.2	23.6	0.00e+00	0	31	101	1048576	58	6307
2026-01-06 00:50:52.34	176.21	13.04	-40.1	-41.0	23.8	0.00e+00	0	31	101	1048576	58	6149
2026-01-06 00:50:56.38	176.40	13.43	-40.1	-41.0	23.8	0.00e+00	0	31	101	1048576	58	6162
2026-01-06 00:51:00.42	176.59	13.83	-40.2	-41.1	23.7	0.00e+00	0	31	101	1048576	58	6243
2026-01-06 00:51:04.47	176.78	14.24	-40.3	-41.2	23.6	0.00e+00	0	31	101	1048576	58	6281
2026-01-06 00:51:08.51	176.99	14.65	-40.4	-41.4	23.5	0.00e+00	0	32	101	1048576	58	6398
2026-01-06 00:51:12.55	177.19	15.07	-40.3	-41.3	23.6	0.00e+00	0	31	101	1048576	58	6330
2026-01-06 00:51:16.60	177.40	15.49	-40.3	-41.2	23.7	0.00e+00	0	31	101	1048576	58	6293
2026-01-06 00:51:20.64	177.62	15.93	-40.2	-41.1	23.8	0.00e+00	0	31	101	1048576	58	6226
2026-01-06 00:51:24.68	177.84	16.37	-40.2	-41.1	23.8	0.00e+00	0	31	101	1048576	58	6232
2026-01-06 00:51:28.73	178.07	16.81	-40.1	-41.0	23.9	0.00e+00	0	31	101	1048576	58	6167
2026-01-06 00:51:32.77	178.31	17.27	-40.2	-41.1	23.8	0.00e+00	0	31	101	1048576	58	6241
2026-01-06 00:51:36.81	178.55	17.73	-40.4	-41.3	23.6	0.00e+00	0	31	101	1048576	58	6378
2026-01-06 00:51:40.86	178.80	18.21	-40.3	-41.2	23.7	0.00e+00	0	31	101	1048576	58	6297
2026-01-06 00:51:44.90	179.06	18.69	-40.3	-41.2	23.8	0.00e+00	0	31	101	1048576	58	6287
2026-01-06 00:51:48.94	179.33	19.18	-40.2	-41.1	23.9	0.00e+00	0	32	101	1048576	58	6196
2026-01-06 00:51:52.99	179.60	19.68	-40.2	-41.1	23.9	0.00e+00	0	32	101	1048576	58	6216
2026-01-06 00:51:57.03	179.88	20.19	-40.3	-41.2	23.8	0.00e+00	0	31	101	1048576	58	6279
2026-01-06 00:52:01.07	180.17	20.70	-40.4	-41.3	23.8	0.00e+00	0	31	101	1048576	58	6352
2026-01-06 00:52:05.11	180.48	21.23	-40.3	-41.2	23.8	0.00e+00	0	32	101	1048576	58	6282
2026-01-06 00:52:09.16	180.79	21.77	-40.1	-41.0	23.9	0.00e+00	0	32	101	1048576	58	6159
2026-01-06 00:52:13.20	181.11	22.32	-39.8	-40.7	24.2	0.00e+00	0	32	101	1048576	58	5927
2026-01-06 00:52:17.24	181.44	22.88	-39.6	-40.4	24.4	0.00e+00	0	32	101	1048576	58	5735
2026-01-06 00:52:21.29	181.79	23.46	-39.6	-40.4	24.6	0.00e+00	0	32	101	1048576	58	5731
2026-01-06 00:52:25.33	182.14	24.04	-39.4	-40.2	24.6	0.00e+00	0	32	101	1048576	58	5592
2026-01-06 00:52:29.38	182.51	24.64	-39.3	-40.1	24.8	0.00e+00	0	32	101	1048576	58	5529
2026-01-06 00:52:33.42	182.90	25.25	-39.1	-39.9	25.0	0.00e+00	0	32	101	1048576	56	6056
2026-01-06 00:52:37.47	183.30	25.88	-38.9	-39.7	25.1	0.00e+00	0	32	101	1048576	56	5957
2026-01-06 00:52:41.51	183.71	26.51	-39.1	-39.9	25.0	0.00e+00	0	31	101	1048576	56	6072
2026-01-06 00:52:45.55	184.14	27.16	-39.3	-40.1	24.8	0.00e+00	0	32	101	1048576	56	6224
2026-01-06 00:52:49.60	184.59	27.83	-39.7	-40.5	24.6	0.00e+00	0	32	101	1048576	56	6494
2026-01-06 00:52:53.64	185.05	28.51	-40.0	-40.9	24.1	0.00e+00	0	32	101	1048576	56	6817
2026-01-06 00:52:57.69	185.54	29.20	-40.4	-41.3	23.7	0.00e+00	0	32	101	1048576	58	6387
2026-01-06 00:53:01.73	186.05	29.91	-40.9	-41.9	23.3	0.00e+00	0	32	101	1048576	58	6776
2026-01-06 00:53:05.77	186.58	30.64	-41.4	-42.4	22.9	0.00e+00	0	31	101	1048576	60	6425
2026-01-06 00:53:09.82	187.13	31.38	-42.5	-43.7	21.5	0.00e+00	0	32	101	1048576	60	7452
2026-01-06 00:53:13.86	187.71	32.13	-42.7	-43.9	21.5	0.00e+00	0	32	101	1048576	60	7643
2026-01-06 00:53:17.91	188.31	32.91	-42.7	-43.9	21.5	0.00e+00	0	32	101	1048576	60	7612
2026-01-06 00:53:21.95	188.95	33.70	-42.5	-43.6	21.8	0.00e+00	0	32	101	1048576	60	7372
2026-01-06 00:53:25.99	189.61	34.50	-42.4	-43.5	21.9	0.00e+00	0	32	101	1048576	60	7300
2026-01-06 00:53:30.04	190.31	35.33	-42.4	-43.6	21.9	0.00e+00	0	32	101	1048576	60	7351
2026-01-06 00:53:34.08	191.04	36.17	-42.7	-43.9	21.6	0.00e+00	0	31	101	1048576	60	7616
2026-01-06 00:53:38.12	191.81	37.03	-42.7	-43.9	21.6	0.00e+00	0	31	101	1048576	60	7639
2026-01-06 00:53:42.16	192.63	37.90	-42.4	-43.6	21.8	0.00e+00	0	31	101	1048576	60	7360
2026-01-06 00:53:46.21	193.49	38.79	-42.0	-43.0	22.4	0.00e+00	0	32	101	1048576	60	6896
2026-01-06 00:53:50.25	194.39	39.70	-42.2	-43.3	22.2	0.00e+00	0	32	101	1048576	60	7104
2026-01-06 00:53:54.29	195.35	40.62	-41.3	-42.3	23.0	0.00e+00	0	32	101	1048576	60	6324
2026-01-06 00:53:58.33	196.36	41.56	-40.9	-41.9	23.4	0.00e+00	0	31	101	1048576	60	6039
2026-01-06 00:54:02.38	197.43	42.51	-41.3	-42.3	23.0	0.00e+00	0	32	101	1048576	60	6330
2026-01-06 00:54:06.42	198.57	43.48	-41.3	-42.3	23.0	0.00e+00	0	32	101	1048576	60	6337
2026-01-06 00:54:10.47	199.77	44.46	-41.9	-42.9	22.4	0.00e+00	0	31	101	1048576	60	6818
2026-01-06 00:54:14.51	201.05	45.44	-42.0	-43.0	22.4	0.00e+00	0	32	101	1048576	60	6894
2026-01-06 00:54:18.55	202.42	46.44	-41.5	-42.6	22.8	0.00e+00	0	31	101	1048576	60	6549
2026-01-06 00:54:22.59	203.87	47.44	-43.2	-44.5	21.0	0.00e+00	0	31	101	1048576	60	8205
2026-01-06 00:54:26.64	205.42	48.44	-41.5	-42.5	22.9	0.00e+00	0	32	101	1048576	60	6496
2026-01-06 00:54:30.68	207.06	49.45	-43.3	-44.7	20.9	0.00e+00	0	32	101	1048576	60	8333
2026-01-06 00:54:34.72	208.82	50.44	-41.2	-42.2	23.0	0.00e+00	0	32	101	1048576	60	6291
2026-01-06 00:54:38.77	210.70	51.44	-40.7	-41.7	23.6	0.00e+00	0	31	101	1048576	60	5920
2026-01-06 00:54:42.81	212.70	52.41	-39.9	-40.7	24.3	0.00e+00	0	32	101	1048576	58	5930
2026-01-06 00:54:46.86	214.85	53.38	-39.5	-40.4	24.6	0.00e+00	0	32	101	1048576	58	5698
2026-01-06 00:54:50.90	217.13	54.31	-39.7	-40.6	24.5	0.00e+00	0	31	101	1048576	56	6560
2026-01-06 00:54:54.94	219.56	55.21	-39.8	-40.6	24.4	0.00e+00	0	32	101	1048576	56	6581
2026-01-06 00:54:58.99	222.15	56.08	-40.8	-41.8	23.5	0.00e+00	0	31	101	1048576	58	6706
2026-01-06 00:55:03.03	224.89	56.89	-40.7	-41.7	23.5	0.00e+00	0	31	101	1048576	58	6626
2026-01-06 00:55:07.08	227.80	57.66	-40.6	-41.5	23.6	0.00e+00	0	32	101	1048576	58	6539
2026-01-06 00:55:11.12	230.87	58.36	-40.6	-41.5	23.7	0.00e+00	0	32	101	1048576	58	6532
2026-01-06 00:55:15.16	234.09	58.98	-40.7	-41.7	23.4	0.00e+00	0	32	101	1048576	58	6634
2026-01-06 00:55:19.21	237.46	59.53	-40.5	-41.4	23.7	0.00e+00	0	32	101	1048576	58	6444
2026-01-06 00:55:23.25	240.96	59.99	-40.4	-41.3	23.9	0.00e+00	0	32	101	1048576	58	6325
2026-01-06 00:55:27.29	244.57	60.35	-40.5	-41.4	23.7	0.00e+00	0	32	101	1048576	58	6410
2026-01-06 00:55:31.34	248.28	60.62	-40.7	-41.6	23.5	0.00e+00	0	32	101	1048576	58	6589
2026-01-06 00:55:35.38	252.04	60.77	-41.1	-42.1	23.1	0.00e+00	0	32	101	1048576	58	6991
2026-01-06 00:55:39.42	255.83	60.82	-40.1	-40.9	24.2	0.00e+00	0	32	101	1048576	60	5438
2026-01-06 00:55:43.47	259.62	60.76	-39.1	-39.9	25.0	0.00e+00	0	32	101	1048576	58	5412
2026-01-06 00:55:47.51	263.38	60.59	-39.2	-40.0	24.9	0.00e+00	0	32	101	1048576	56	6146
2026-01-06 00:55:51.55	267.06	60.31	-40.5	-41.4	23.7	0.00e+00	0	32	101	1048576	58	6420
2026-01-06 00:55:55.60	270.66	59.94	-41.8	-42.9	22.4	0.00e+00	0	32	101	1048576	60	6821
2026-01-06 00:55:59.64	274.14	59.47	-43.6	-45.0	20.5	0.00e+00	0	32	101	1048576	60	8625
2026-01-06 00:56:03.68	277.49	58.91	-42.5	-43.6	21.7	0.00e+00	0	32	101	1048576	60	7421
2026-01-06 00:56:07.72	280.68	58.27	-42.8	-44.0	21.6	0.00e+00	0	31	101	1048576	60	7717
2026-01-06 00:56:11.76	283.72	57.57	-42.1	-43.2	22.2	0.00e+00	0	32	101	1048576	60	7008
2026-01-06 00:56:15.81	286.61	56.80	-40.7	-41.6	23.6	0.00e+00	0	32	101	1048576	60	5856
2026-01-06 00:56:19.85	289.33	55.98	-38.9	-39.6	25.3	0.00e+00	0	32	101	1048576	56	5893
2026-01-06 00:56:23.89	291.89	55.11	-38.4	-39.2	25.7	0.00e+00	0	32	101	1048576	56	5593
2026-01-06 00:56:27.94	294.30	54.21	-39.6	-40.4	24.5	0.00e+00	0	32	101	1048576	56	6454
2026-01-06 00:56:31.98	296.56	53.27	-37.4	-38.1	26.4	0.00e+00	0	31	101	1048576	54	5562
2026-01-06 00:56:36.03	298.68	52.31	-37.1	-37.8	26.7	0.00e+00	0	32	101	1048576	52	6009
2026-01-06 00:56:40.07	300.66	51.34	-39.6	-40.4	24.6	0.00e+00	0	32	101	1048576	56	6459
2026-01-06 00:56:44.11	302.52	50.35	-40.7	-41.7	23.5	0.00e+00	0	32	101	1048576	58	6619
2026-01-06 00:56:48.16	304.26	49.35	-41.6	-42.6	22.9	0.00e+00	0	32	101	1048576	60	6590
2026-01-06 00:56:52.20	305.89	48.35	-43.8	-45.2	20.3	0.00e+00	0	32	101	1048576	60	8923
2026-01-06 00:56:56.24	307.42	47.35	-43.6	-44.9	20.6	0.00e+00	0	32	101	1048576	60	8589
2026-01-06 00:57:00.29	308.87	46.36	-43.5	-44.8	20.8	0.00e+00	0	32	101	1048576	60	8449
2026-01-06 00:57:04.33	310.21	45.37	-43.3	-44.6	21.1	0.00e+00	0	32	101	1048576	60	8279
2026-01-06 00:57:08.37	311.48	44.39	-43.8	-45.2	20.6	0.00e+00	0	32	101	1048576	60	8852
2026-01-06 00:57:12.42	312.68	43.41	-42.6	-43.7	21.7	0.00e+00	0	32	101	1048576	60	7487
2026-01-06 00:57:16.46	313.81	42.45	-40.5	-41.4	23.9	0.00e+00	0	32	101	1048576	60	5698
2026-01-06 00:57:20.51	314.87	41.51	-41.8	-42.8	22.6	0.00e+00	0	32	101	1048576	60	6728
2026-01-06 00:57:24.55	315.87	40.57	-41.4	-42.4	22.9	0.00e+00	0	32	101	1048576	60	6443
2026-01-06 00:57:28.59	316.82	39.66	-40.2	-41.1	24.0	0.00e+00	0	32	101	1048576	58	6197
2026-01-06 00:57:32.63	317.72	38.76	-42.0	-43.1	22.4	0.00e+00	0	32	101	1048576	60	6932
2026-01-06 00:57:36.68	318.57	37.87	-39.7	-40.5	24.5	0.00e+00	0	32	101	1048576	58	5815
2026-01-06 00:57:40.72	319.38	37.00	-40.8	-41.7	23.5	0.00e+00	0	32	101	1048576	58	6685
2026-01-06 00:57:44.77	320.15	36.15	-40.9	-41.8	23.5	0.00e+00	0	32	101	1048576	60	6011
2026-01-06 00:57:48.81	320.88	35.32	-39.8	-40.6	24.4	0.00e+00	0	32	101	1048576	58	5871
2026-01-06 00:57:52.86	321.57	34.50	-42.9	-44.1	21.3	0.00e+00	0	32	101	1048576	60	7835
2026-01-06 00:57:56.90	322.23	33.70	-41.9	-43.0	22.6	0.00e+00	0	32	101	1048576	60	6879
2026-01-06 00:58:00.94	322.86	32.91	-41.0	-41.9	23.3	0.00e+00	0	32	101	1048576	60	6090
2026-01-06 00:58:04.98	323.46	32.15	-42.6	-43.8	21.7	0.00e+00	0	32	101	1048576	60	7524
2026-01-06 00:58:09.02	324.04	31.40	-42.0	-43.0	22.3	0.00e+00	0	32	101	1048576	60	6904
2026-01-06 00:58:13.07	324.59	30.66	-42.0	-43.0	22.3	0.00e+00	0	32	101	1048576	60	6881
2026-01-06 00:58:17.11	325.12	29.94	-42.3	-43.4	22.0	0.00e+00	0	32	101	1048576	60	7217
2026-01-06 00:58:21.15	325.62	29.24	-41.3	-42.3	23.0	0.00e+00	0	32	101	1048576	60	6349
2026-01-06 00:58:25.20	326.11	28.55	-41.5	-42.5	22.7	0.00e+00	0	32	101	1048576	60	6491
2026-01-06 00:58:29.24	326.57	27.87	-42.5	-43.6	21.8	0.00e+00	0	32	101	1048576	60	7422
2026-01-06 00:58:33.28	327.02	27.21	-42.2	-43.3	22.0	0.00e+00	0	32	101	1048576	60	7160
2026-01-06 00:58:37.33	327.45	26.57	-41.7	-42.7	22.6	0.00e+00	0	32	101	1048576	60	6639
2026-01-06 00:58:41.37	327.86	25.93	-41.5	-42.5	22.8	0.00e+00	0	32	101	1048576	60	6538
2026-01-06 00:58:45.42	328.26	25.31	-41.9	-43.0	22.3	0.00e+00	0	32	101	1048576	60	6886
2026-01-06 00:58:49.46	328.64	24.71	-41.7	-42.8	22.5	0.00e+00	0	32	101	1048576	60	6741
2026-01-06 00:58:53.51	329.01	24.11	-41.1	-42.1	23.2	0.00e+00	0	32	101	1048576	60	6217
2026-01-06 00:58:57.55	329.37	23.53	-40.5	-41.4	23.7	0.00e+00	0	32	101	1048576	60	5715
2026-01-06 00:59:01.59	329.71	22.96	-40.2	-41.1	24.1	0.00e+00	0	32	101	1048576	60	5544
2026-01-06 00:59:05.64	330.05	22.40	-40.5	-41.4	23.7	0.00e+00	0	32	101	1048576	60	5736
2026-01-06 00:59:09.68	330.37	21.86	-40.7	-41.7	23.5	0.00e+00	0	32	101	1048576	60	5916
2026-01-06 00:59:13.72	330.68	21.32	-40.9	-41.9	23.3	0.00e+00	0	32	101	1048576	60	6079
2026-01-06 00:59:17.77	330.98	20.79	-40.9	-41.8	23.4	0.00e+00	0	32	101	1048576	60	6024
2026-01-06 00:59:21.81	331.27	20.28	-39.6	-40.4	24.5	0.00e+00	0	32	101	1048576	58	5723
2026-01-06 00:59:25.85	331.56	19.77	-39.3	-40.1	24.7	0.00e+00	0	32	101	1048576	58	5556
2026-01-06 00:59:29.90	331.83	19.28	-39.4	-40.2	24.6	0.00e+00	0	32	101	1048576	58	5607
2026-01-06 00:59:33.94	332.10	18.79	-39.7	-40.5	24.3	0.00e+00	0	32	101	1048576	58	5815
2026-01-06 00:59:37.98	332.36	18.31	-39.9	-40.8	24.1	0.00e+00	0	32	101	1048576	58	5977
2026-01-06 00:59:42.03	332.61	17.84	-39.8	-40.7	24.2	0.00e+00	0	32	101	1048576	58	5919
2026-01-06 00:59:46.07	332.85	17.38	-39.8	-40.7	24.2	0.00e+00	0	32	101	1048576	58	5929
2026-01-06 00:59:50.12	333.09	16.93	-39.7	-40.6	24.2	0.00e+00	0	32	101	1048576	58	5868
2026-01-06 00:59:54.16	333.32	16.48	-39.8	-40.7	24.1	0.00e+00	0	32	101	1048576	58	5931
2026-01-06 00:59:58.20	333.55	16.05	-39.9	-40.8	24.0	0.00e+00	0	32	101	1048576	58	6019
2026-01-06 01:00:02.25	333.77	15.61	-40.2	-41.1	23.8	0.00e+00	0	32	101	1048576	58	6191
2026-01-06 01:00:06.29	333.98	15.19	-40.3	-41.2	23.6	0.00e+00	0	32	101	1048576	58	6263
2026-01-06 01:00:10.34	334.19	14.78	-40.5	-41.4	23.4	0.00e+00	0	32	101	1048576	58	6433
2026-01-06 01:00:14.38	334.39	14.37	-40.5	-41.4	23.5	0.00e+00	0	32	101	1048576	58	6460
2026-01-06 01:00:18.42	334.59	13.96	-40.6	-41.6	23.3	0.00e+00	0	32	101	1048576	58	6564
2026-01-06 01:00:22.47	334.78	13.57	-40.6	-41.6	23.2	0.00e+00	0	32	101	1048576	58	6572
2026-01-06 01:00:26.51	334.97	13.18	-40.7	-41.7	23.1	0.00e+00	0	32	101	1048576	58	6622
2026-01-06 01:00:30.55	335.15	12.79	-40.6	-41.6	23.2	0.00e+00	0	32	101	1048576	58	6566
2026-01-06 01:00:34.59	335.33	12.41	-40.7	-41.7	23.1	0.00e+00	0	32	101	1048576	58	6626
2026-01-06 01:00:38.64	335.51	12.04	-40.6	-41.6	23.2	0.00e+00	0	32	101	1048576	58	6547
2026-01-06 01:00:42.68	335.68	11.67	-40.6	-41.6	23.0	0.00e+00	0	32	101	1048576	58	6579
2026-01-06 01:00:46.73	335.85	11.31	-40.8	-41.7	22.9	0.00e+00	0	32	101	1048576	58	6679
2026-01-06 01:00:50.77	336.01	10.95	-41.0	-42.0	22.7	0.00e+00	0	32	101	1048576	58	6869
2026-01-06 01:00:54.82	336.17	10.60	-41.0	-42.0	22.7	0.00e+00	0	31	101	1048576	58	6897
2026-01-06 01:00:58.86	336.33	10.25	-41.2	-42.3	22.5	0.00e+00	0	31	101	1048576	60	6324
2026-01-06 01:01:02.90	336.49	9.91	-41.4	-42.4	22.3	0.00e+00	0	32	101	1048576	60	6461
2026-01-06 01:01:06.95	336.64	9.57	-41.6	-42.8	22.0	0.00e+00	0	32	101	1048576	60	6709
2026-01-06 01:01:10.99	336.79	9.24	-41.8	-43.0	21.8	0.00e+00	0	32	101	1048576	60	6882
2026-01-06 01:01:15.03	336.93	8.91	-41.9	-43.1	21.7	0.00e+00	0	32	101	1048576	60	6944
2026-01-06 01:01:19.08	337.07	8.58	-41.8	-43.0	21.7	0.00e+00	0	32	101	1048576	60	6898
2026-01-06 01:01:23.12	337.21	8.26	-42.1	-43.4	21.4	0.00e+00	0	32	101	1048576	60	7178
2026-01-06 01:01:27.17	337.35	7.94	-41.9	-43.2	21.5	0.00e+00	0	32	101	1048576	60	7025
2026-01-06 01:01:31.21	337.49	7.63	-42.0	-43.2	21.4	0.00e+00	0	32	101	1048576	60	7064
2026-01-06 01:01:35.25	337.62	7.32	-42.0	-43.3	21.3	0.00e+00	0	32	101	1048576	60	7099
2026-01-06 01:01:39.30	337.75	7.02	-42.1	-43.4	21.3	0.00e+00	0	32	101	1048576	60	7228
2026-01-06 01:01:43.34	337.88	6.71	-41.9	-43.2	21.3	0.00e+00	0	32	101	1048576	60	7063
2026-01-06 01:01:47.38	338.00	6.41	-41.8	-43.1	21.4	0.00e+00	0	31	101	1048576	60	6975
2026-01-06 01:01:51.43	338.12	6.12	-41.9	-43.2	21.2	0.00e+00	0	32	101	1048576	60	7040
2026-01-06 01:01:55.47	338.24	5.83	-42.0	-43.3	20.9	0.00e+00	0	32	101	1048576	60	7124
2026-01-06 01:01:59.52	338.36	5.54	-42.4	-44.0	19.9	0.00e+00	0	32	101	1048576	60	7694
2026-01-06 01:02:03.56	338.48	5.25	-43.2	-45.1	18.4	0.00e+00	0	32	101	1048576	60	8780
2026-01-06 01:02:07.60	338.60	4.97	-44.2	-47.0	15.7	0.00e+00	0	32	101	1048576	60	10899
2026-01-06 01:02:11.65	338.71	4.69	-45.3	-49.5	12.4	1.12e-04	0	32	101	1048576	60	14598
2026-01-06 01:02:15.69	338.82	4.41	-45.8	-52.4	8.1	3.70e-02	0	32	101	1048576	60	20360
2026-01-06 01:02:19.73	338.93	4.13	-46.0	-55.5	4.5	6.37e-01	0	32	101	1048576	60	28970
2026-01-06 01:02:23.78	339.04	3.86	-46.0	-59.8	3.6	1.50e+00	0	32	104	1048576	60	47605
2026-01-06 01:02:27.82	339.14	3.59	-46.1	-61.2	3.6	1.51e+00	0	32	104	1048576	60	56277
2026-01-06 01:02:31.87	339.25	3.32	-46.1	-61.5	3.6	1.51e+00	0	32	104	1048576	60	57953
2026-01-06 01:02:35.91	339.35	3.06	-46.1	-61.5	3.6	1.51e+00	0	32	104	1048576	60	58271
2026-01-06 01:02:39.95	339.45	2.80	-51.0	-66.4	3.6	1.51e+00	0	32	104	1048576	60	101453
2026-01-06 01:02:44.00	339.56	2.54	-51.3	-66.7	3.6	1.51e+00	0	32	104	1048576	60	104980
2026-01-06 01:02:48.04	339.65	2.28	-51.2	-66.5	3.6	1.51e+00	0	32	104	1048576	60	103568
2026-01-06 01:02:52.09	339.75	2.03	-51.3	-66.7	3.5	1.51e+00	0	32	104	1048576	60	105175
2026-01-06 01:02:56.13	339.85	1.77	-51.2	-66.5	3.6	1.51e+00	0	32	104	1048576	60	103600
2026-01-06 01:03:00.17	339.94	1.52	-51.2	-66.6	3.6	1.51e+00	0	32	104	1048576	60	103827
2026-01-06 01:03:04.22	340.04	1.27	-51.2	-66.5	3.6	1.51e+00	0	32	104	1048576	60	103615
2026-01-06 01:03:08.26	340.13	1.03	-51.2	-66.6	3.6	1.51e+00	0	32	104	1048576	60	103924
2026-01-06 01:03:12.30	340.22	0.78	-51.2	-66.5	3.6	1.51e+00	0	32	104	1048576	60	102833
2026-01-06 01:03:16.35	340.31	0.54	-51.2	-66.5	3.6	1.51e+00	0	32	104	1048576	60	103611
2026-01-06 01:03:20.39	340.40	0.30	-51.2	-66.5	3.6	1.51e+00	0	32	104	1048576	60	102951
2026-01-06 01:03:24.44	340.49	0.06	-51.1	-66.5	3.6	1.51e+00	0	32	104	1048576	60	103203

#Closed at: 2026-01-06 01:03:26
#Recorded file [1 MB]: D:/lorett/data/35034_260106_034758.dat