passes_logs/2026/01/06/R4.6S_Anadyr_2ch/R4.6S_Anadyr_2ch__20260106_045431_FENGYUN_3E_rec.log

#Pass ID: 20260106_045431_FENGYUN 3E
#Satellite: FENGYUN 3E
#Configuration: FENGYUN 3E
#almurnet v.1.7.20251203
#Start time: 2026-01-06 04:54:34

#Version: 2.2.20231116
#Station: R4.6S_Anadyr_2ch
#Location: 177.4865 lon 64.73178 lat
#TLE: 1 49008U 21062A   25350.97288215  .00000176  00000+0  10353-3 0  9997
#TLE: 2 49008  98.7477 351.4440 0000638 234.3856 125.7261 14.19881381230726

#Time	Az	El	Level	Level2	SNR	BER	BlckErr	Temp	State	Recorded	gain1	gain2
2026-01-06 04:54:34.25	166.60	0.19	-50.9	-61.0	3.3	8.40e-01	0	31	0	0	60	55041
2026-01-06 04:54:38.29	166.66	0.43	-51.1	-62.5	3.6	8.46e-01	0	31	104	0	60	66104
2026-01-06 04:54:42.33	166.73	0.68	-51.1	-62.6	3.6	8.45e-01	0	31	104	0	60	66841
2026-01-06 04:54:46.37	166.79	0.92	-50.8	-62.4	3.5	8.45e-01	0	31	104	0	60	65038
2026-01-06 04:54:50.42	166.86	1.17	-49.8	-61.3	3.6	8.44e-01	0	31	104	0	60	57064
2026-01-06 04:54:54.46	166.93	1.43	-49.6	-61.1	3.6	8.46e-01	0	31	104	0	60	55896
2026-01-06 04:54:58.50	167.00	1.68	-49.6	-60.9	3.6	8.45e-01	0	31	104	0	60	54460
2026-01-06 04:55:02.54	167.07	1.94	-49.6	-60.7	3.6	8.45e-01	0	31	104	0	60	53408
2026-01-06 04:55:06.59	167.14	2.19	-49.6	-61.0	3.6	8.45e-01	0	31	104	0	60	55035
2026-01-06 04:55:10.63	167.21	2.45	-49.6	-61.0	3.6	8.46e-01	0	31	104	0	60	55372
2026-01-06 04:55:14.68	167.28	2.72	-49.5	-60.0	3.6	8.44e-01	0	32	104	0	60	49360
2026-01-06 04:55:18.72	167.35	2.98	-49.4	-59.0	3.6	8.44e-01	0	32	104	0	60	43839
2026-01-06 04:55:22.77	167.43	3.25	-48.9	-55.7	4.8	7.57e-01	0	32	104	0	60	30075
2026-01-06 04:55:26.81	167.50	3.52	-43.4	-44.8	15.6	0.00e+00	0	32	102	1048576	60	8529
2026-01-06 04:55:30.85	167.58	3.80	-40.4	-41.3	18.7	0.00e+00	0	32	102	1048576	60	5715
2026-01-06 04:55:34.90	167.66	4.07	-43.4	-44.8	14.5	0.00e+00	0	32	102	1048576	60	8553
2026-01-06 04:55:38.94	167.74	4.35	-44.6	-46.5	11.4	0.00e+00	0	32	0	1048576	60	10463
2026-01-06 04:55:42.98	167.82	4.63	-38.4	-39.1	21.0	0.00e+00	0	32	0	1048576	56	5588
2026-01-06 04:55:47.02	167.90	4.92	-36.8	-37.4	22.6	0.00e+00	0	32	101	1048576	52	5823
2026-01-06 04:55:51.07	167.98	5.21	-36.7	-37.3	22.7	0.00e+00	0	32	101	1048576	52	5703
2026-01-06 04:55:55.11	168.07	5.50	-36.6	-37.2	23.0	0.00e+00	0	32	101	1048576	52	5652
2026-01-06 04:55:59.16	168.16	5.79	-37.0	-37.6	22.8	0.00e+00	0	32	101	1048576	52	5927
2026-01-06 04:56:03.20	168.24	6.09	-36.4	-36.9	23.3	0.00e+00	0	32	101	1048576	52	5486
2026-01-06 04:56:07.24	168.33	6.39	-36.2	-36.8	23.5	0.00e+00	0	32	101	1048576	52	5399
2026-01-06 04:56:11.28	168.42	6.70	-36.0	-36.6	23.6	0.00e+00	0	32	101	1048576	50	5928
2026-01-06 04:56:15.32	168.52	7.00	-36.0	-36.5	23.7	0.00e+00	0	32	101	1048576	50	5892
2026-01-06 04:56:19.37	168.61	7.32	-35.9	-36.4	23.8	0.00e+00	0	32	101	1048576	50	5803
2026-01-06 04:56:23.41	168.71	7.63	-35.8	-36.4	24.0	0.00e+00	0	32	101	1048576	50	5785
2026-01-06 04:56:27.45	168.80	7.95	-35.5	-36.1	24.2	0.00e+00	0	32	101	1048576	50	5579
2026-01-06 04:56:31.50	168.90	8.28	-35.4	-36.0	24.4	0.00e+00	0	32	101	1048576	50	5506
2026-01-06 04:56:35.54	169.01	8.60	-35.2	-35.7	24.6	0.00e+00	0	32	101	1048576	50	5347
2026-01-06 04:56:39.58	169.11	8.94	-35.0	-35.6	24.7	0.00e+00	0	32	101	1048576	48	5908
2026-01-06 04:56:43.62	169.22	9.27	-35.0	-35.6	24.7	0.00e+00	0	32	101	1048576	48	5903
2026-01-06 04:56:47.67	169.32	9.61	-35.1	-35.7	24.6	0.00e+00	0	32	101	1048576	48	5994
2026-01-06 04:56:51.71	169.43	9.96	-34.9	-35.4	24.8	0.00e+00	0	32	101	1048576	48	5812
2026-01-06 04:56:55.76	169.55	10.31	-34.9	-35.4	25.0	0.00e+00	0	32	101	1048576	48	5780
2026-01-06 04:56:59.80	169.66	10.67	-34.9	-35.4	24.9	0.00e+00	0	32	101	1048576	48	5817
2026-01-06 04:57:03.85	169.78	11.03	-34.8	-35.3	25.1	0.00e+00	0	32	101	1048576	48	5732
2026-01-06 04:57:07.89	169.90	11.39	-34.7	-35.2	25.2	0.00e+00	0	32	101	1048576	48	5683
2026-01-06 04:57:11.93	170.02	11.76	-34.7	-35.2	25.3	0.00e+00	0	32	101	1048576	48	5662
2026-01-06 04:57:15.97	170.15	12.14	-34.5	-35.0	25.4	0.00e+00	0	32	101	1048576	48	5511
2026-01-06 04:57:20.02	170.28	12.52	-34.2	-34.7	25.6	0.00e+00	0	32	101	1048576	48	5349
2026-01-06 04:57:24.06	170.41	12.91	-34.1	-34.6	25.7	0.00e+00	0	32	101	1048576	46	5964
2026-01-06 04:57:28.10	170.54	13.31	-33.9	-34.4	25.9	0.00e+00	0	32	101	1048576	46	5825
2026-01-06 04:57:32.15	170.68	13.71	-33.9	-34.3	26.1	0.00e+00	0	32	101	1048576	46	5757
2026-01-06 04:57:36.19	170.82	14.12	-33.7	-34.2	26.1	0.00e+00	0	32	101	1048576	46	5652
2026-01-06 04:57:40.23	170.97	14.53	-33.7	-34.2	26.1	0.00e+00	0	32	101	1048576	46	5680
2026-01-06 04:57:44.28	171.12	14.96	-33.8	-34.3	26.0	0.00e+00	0	32	101	1048576	46	5756
2026-01-06 04:57:48.32	171.27	15.38	-33.5	-34.0	26.4	0.00e+00	0	32	101	1048576	46	5527
2026-01-06 04:57:52.37	171.42	15.82	-33.6	-34.1	26.4	0.00e+00	0	32	101	1048576	46	5608
2026-01-06 04:57:56.41	171.59	16.27	-33.5	-34.0	26.5	0.00e+00	0	32	101	1048576	46	5504
2026-01-06 04:58:00.46	171.75	16.72	-33.3	-33.8	26.6	0.00e+00	0	32	101	1048576	46	5420
2026-01-06 04:58:04.50	171.92	17.18	-33.2	-33.7	26.7	0.00e+00	0	33	101	1048576	46	5327
2026-01-06 04:58:08.54	172.10	17.65	-32.9	-33.4	26.8	0.00e+00	0	32	101	1048576	44	5788
2026-01-06 04:58:12.59	172.28	18.13	-32.9	-33.4	26.9	0.00e+00	0	32	101	1048576	44	5798
2026-01-06 04:58:16.63	172.46	18.62	-32.9	-33.4	26.9	0.00e+00	0	32	101	1048576	44	5791
2026-01-06 04:58:20.67	172.65	19.11	-32.7	-33.2	27.1	0.00e+00	0	33	101	1048576	44	5643
2026-01-06 04:58:24.72	172.85	19.62	-32.4	-32.9	27.3	0.00e+00	0	32	101	1048576	44	5464
2026-01-06 04:58:28.76	173.05	20.14	-32.3	-32.7	27.5	0.00e+00	0	32	101	1048576	44	5371
2026-01-06 04:58:32.80	173.26	20.67	-32.2	-32.6	27.5	0.00e+00	0	32	101	1048576	44	5308
2026-01-06 04:58:36.85	173.48	21.21	-32.2	-32.6	27.6	0.00e+00	0	32	101	1048576	42	5960
2026-01-06 04:58:40.89	173.70	21.76	-32.0	-32.5	27.7	0.00e+00	0	32	101	1048576	42	5858
2026-01-06 04:58:44.93	173.93	22.32	-32.1	-32.6	27.6	0.00e+00	0	32	101	1048576	42	5934
2026-01-06 04:58:48.98	174.17	22.90	-32.3	-32.8	27.6	0.00e+00	0	32	101	1048576	42	6069
2026-01-06 04:58:53.02	174.42	23.48	-32.4	-32.9	27.4	0.00e+00	0	32	101	1048576	42	6133
2026-01-06 04:58:57.07	174.68	24.09	-32.2	-32.7	27.5	0.00e+00	0	32	101	1048576	42	6016
2026-01-06 04:59:01.11	174.94	24.70	-32.1	-32.5	27.8	0.00e+00	0	33	101	1048576	42	5893
2026-01-06 04:59:05.15	175.22	25.33	-31.8	-32.3	27.8	0.00e+00	0	33	101	1048576	42	5743
2026-01-06 04:59:09.19	175.51	25.97	-31.8	-32.2	28.0	0.00e+00	0	33	101	1048576	42	5682
2026-01-06 04:59:13.24	175.81	26.63	-31.4	-31.8	28.3	0.00e+00	0	33	101	1048576	42	5422
2026-01-06 04:59:17.28	176.12	27.30	-31.2	-31.6	28.5	0.00e+00	0	33	101	1048576	40	5957
2026-01-06 04:59:21.32	176.44	27.99	-31.3	-31.8	28.2	0.00e+00	0	33	101	1048576	40	6044
2026-01-06 04:59:25.37	176.78	28.70	-31.3	-31.8	28.2	0.00e+00	0	33	101	1048576	40	6067
2026-01-06 04:59:29.41	177.13	29.42	-31.3	-31.8	28.4	0.00e+00	0	33	101	1048576	40	6067
2026-01-06 04:59:33.46	177.50	30.17	-31.4	-31.9	28.2	0.00e+00	0	33	101	1048576	40	6126
2026-01-06 04:59:37.50	177.88	30.92	-31.2	-31.6	28.4	0.00e+00	0	32	101	1048576	40	5942
2026-01-06 04:59:41.54	178.28	31.70	-31.2	-31.6	28.5	0.00e+00	0	33	101	1048576	40	5934
2026-01-06 04:59:45.59	178.70	32.50	-31.5	-32.0	28.3	0.00e+00	0	33	101	1048576	40	6219
2026-01-06 04:59:49.63	179.15	33.32	-31.4	-31.8	28.3	0.00e+00	0	33	101	1048576	40	6095
2026-01-06 04:59:53.67	179.61	34.16	-31.7	-32.2	28.3	0.00e+00	0	33	101	1048576	40	6326
2026-01-06 04:59:57.72	180.10	35.02	-31.4	-31.9	28.2	0.00e+00	0	33	101	1048576	40	6113
2026-01-06 05:00:01.76	180.61	35.90	-31.5	-32.0	28.2	0.00e+00	0	33	101	1048576	40	6199
2026-01-06 05:00:05.80	181.15	36.81	-31.1	-31.6	28.6	0.00e+00	0	33	101	1048576	40	5908
2026-01-06 05:00:09.85	181.73	37.73	-31.6	-32.0	28.4	0.00e+00	0	33	101	1048576	40	6228
2026-01-06 05:00:13.89	182.33	38.68	-31.4	-31.9	28.2	0.00e+00	0	33	101	1048576	40	6119
2026-01-06 05:00:17.94	182.97	39.66	-31.5	-32.0	28.2	0.00e+00	0	33	101	1048576	40	6213
2026-01-06 05:00:21.98	183.65	40.66	-32.1	-32.6	27.8	0.00e+00	0	33	101	1048576	42	5931
2026-01-06 05:00:26.03	184.37	41.68	-31.8	-32.3	28.1	0.00e+00	0	33	101	1048576	42	5730
2026-01-06 05:00:30.07	185.14	42.72	-31.7	-32.2	28.2	0.00e+00	0	33	101	1048576	42	5674
2026-01-06 05:00:34.12	185.97	43.79	-31.6	-32.0	28.2	0.00e+00	0	33	101	1048576	42	5559
2026-01-06 05:00:38.16	186.84	44.88	-32.1	-32.6	27.8	0.00e+00	0	33	101	1048576	42	5902
2026-01-06 05:00:42.21	187.78	46.00	-31.9	-32.3	28.0	0.00e+00	0	33	101	1048576	42	5742
2026-01-06 05:00:46.25	188.79	47.14	-31.8	-32.3	27.9	0.00e+00	0	33	101	1048576	42	5703
2026-01-06 05:00:50.29	189.87	48.30	-32.2	-32.7	27.8	0.00e+00	0	33	101	1048576	42	5967
2026-01-06 05:00:54.34	191.03	49.48	-32.9	-33.4	27.2	0.00e+00	0	33	101	1048576	42	6473
2026-01-06 05:00:58.38	192.29	50.67	-33.0	-33.4	27.1	0.00e+00	0	33	101	1048576	44	5828
2026-01-06 05:01:02.42	193.65	51.89	-32.6	-33.1	26.0	0.00e+00	0	33	101	1048576	44	5629
2026-01-06 05:01:06.47	195.13	53.11	-33.0	-33.4	27.1	0.00e+00	0	33	101	1048576	44	5825
2026-01-06 05:01:10.51	196.74	54.35	-32.9	-33.4	27.1	0.00e+00	0	33	101	1048576	44	5812
2026-01-06 05:01:14.56	198.49	55.59	-33.4	-33.9	26.8	0.00e+00	0	33	101	1048576	44	6120
2026-01-06 05:01:18.60	200.39	56.83	-32.7	-33.2	27.2	0.00e+00	0	33	101	1048576	44	5633
2026-01-06 05:01:22.64	202.48	58.07	-33.1	-33.6	27.0	0.00e+00	0	33	101	1048576	44	5935
2026-01-06 05:01:26.69	204.77	59.29	-32.9	-33.4	27.1	0.00e+00	0	33	101	1048576	44	5765
2026-01-06 05:01:30.73	207.27	60.50	-33.0	-33.4	27.1	0.00e+00	0	33	101	1048576	44	5815
2026-01-06 05:01:34.77	210.02	61.67	-32.7	-33.2	27.4	0.00e+00	0	33	101	1048576	44	5635
2026-01-06 05:01:38.82	213.04	62.80	-32.4	-32.9	27.7	0.00e+00	0	33	101	1048576	44	5442
2026-01-06 05:01:42.86	216.34	63.87	-32.7	-33.2	27.4	0.00e+00	0	33	101	1048576	42	6340
2026-01-06 05:01:46.91	219.96	64.88	-32.3	-32.8	27.6	0.00e+00	0	33	101	1048576	42	6066
2026-01-06 05:01:50.95	223.89	65.80	-32.4	-32.8	27.5	0.00e+00	0	33	101	1048576	42	6093
2026-01-06 05:01:54.99	228.14	66.62	-32.1	-32.6	27.8	0.00e+00	0	33	101	1048576	42	5927
2026-01-06 05:01:59.03	232.71	67.33	-32.0	-32.5	27.9	0.00e+00	0	33	101	1048576	42	5839
2026-01-06 05:02:03.08	237.57	67.89	-31.7	-32.2	27.9	0.00e+00	0	33	101	1048576	42	5655
2026-01-06 05:02:07.13	242.68	68.31	-31.5	-32.0	28.2	0.00e+00	0	33	101	1048576	42	5512
2026-01-06 05:02:11.17	247.95	68.57	-31.6	-32.0	28.2	0.00e+00	0	33	101	1048576	42	5548
2026-01-06 05:02:15.21	253.30	68.65	-31.6	-32.0	28.1	0.00e+00	0	33	101	1048576	42	5549
2026-01-06 05:02:19.26	258.67	68.57	-31.4	-31.9	28.3	0.00e+00	0	33	101	1048576	42	5464
2026-01-06 05:02:23.30	263.93	68.31	-31.6	-32.0	28.1	0.00e+00	0	33	101	1048576	42	5556
2026-01-06 05:02:27.34	269.02	67.89	-31.8	-32.3	27.9	0.00e+00	0	33	101	1048576	42	5732
2026-01-06 05:02:31.39	273.88	67.32	-31.8	-32.3	27.9	0.00e+00	0	33	101	1048576	42	5722
2026-01-06 05:02:35.43	278.45	66.62	-31.7	-32.2	28.0	0.00e+00	0	33	101	1048576	42	5646
2026-01-06 05:02:39.48	282.70	65.80	-31.7	-32.2	28.1	0.00e+00	0	33	101	1048576	42	5634
2026-01-06 05:02:43.52	286.63	64.88	-31.7	-32.2	28.0	0.00e+00	0	33	101	1048576	42	5652
2026-01-06 05:02:47.56	290.23	63.88	-32.2	-32.6	27.7	0.00e+00	0	33	101	1048576	42	5960
2026-01-06 05:02:51.61	293.54	62.80	-32.3	-32.8	27.5	0.00e+00	0	33	101	1048576	42	6069
2026-01-06 05:02:55.65	296.55	61.68	-32.5	-33.0	27.5	0.00e+00	0	33	101	1048576	44	5559
2026-01-06 05:02:59.70	299.30	60.51	-32.6	-33.1	27.2	0.00e+00	0	33	101	1048576	44	5588
2026-01-06 05:03:03.74	301.80	59.31	-33.2	-33.7	26.7	0.00e+00	0	33	101	1048576	44	6032
2026-01-06 05:03:07.78	304.08	58.09	-33.5	-34.0	26.7	0.00e+00	0	33	101	1048576	44	6221
2026-01-06 05:03:11.82	306.16	56.86	-33.5	-34.0	26.4	0.00e+00	0	33	101	1048576	44	6208
2026-01-06 05:03:15.87	308.07	55.62	-33.1	-33.6	27.0	0.00e+00	0	33	101	1048576	44	5927
2026-01-06 05:03:19.90	309.81	54.38	-33.3	-33.8	26.7	0.00e+00	0	33	101	1048576	44	6039
2026-01-06 05:03:23.95	311.42	53.15	-33.2	-33.7	26.9	0.00e+00	0	33	101	1048576	44	5979
2026-01-06 05:03:27.99	312.89	51.93	-33.2	-33.7	26.9	0.00e+00	0	33	101	1048576	44	5981
2026-01-06 05:03:32.03	314.25	50.72	-33.2	-33.7	26.9	0.00e+00	0	33	101	1048576	44	5979
2026-01-06 05:03:36.07	315.51	49.53	-33.2	-33.7	26.8	0.00e+00	0	33	101	1048576	44	6017
2026-01-06 05:03:40.12	316.68	48.35	-33.2	-33.8	26.3	0.00e+00	0	33	101	1048576	44	6035
2026-01-06 05:03:44.16	317.76	47.20	-32.8	-33.3	27.3	0.00e+00	0	33	101	1048576	44	5704
2026-01-06 05:03:48.20	318.76	46.06	-33.0	-33.5	27.1	0.00e+00	0	33	101	1048576	44	5871
2026-01-06 05:03:52.24	319.70	44.95	-32.1	-32.6	27.6	0.00e+00	0	33	101	1048576	44	5297
2026-01-06 05:03:56.29	320.58	43.86	-31.8	-32.3	28.0	0.00e+00	0	33	101	1048576	42	5704
2026-01-06 05:04:00.33	321.40	42.80	-32.1	-32.5	27.5	0.00e+00	0	33	101	1048576	42	5887
2026-01-06 05:04:04.37	322.17	41.76	-32.1	-32.6	27.7	0.00e+00	0	33	101	1048576	42	5928
2026-01-06 05:04:08.42	322.89	40.74	-31.6	-32.0	27.7	0.00e+00	0	33	101	1048576	42	5541
2026-01-06 05:04:12.46	323.57	39.74	-31.6	-32.1	27.9	0.00e+00	0	33	101	1048576	42	5590
2026-01-06 05:04:16.50	324.21	38.77	-31.4	-31.9	27.9	0.00e+00	0	33	101	1048576	42	5461
2026-01-06 05:04:20.55	324.82	37.83	-31.4	-31.8	27.6	0.00e+00	0	33	101	1048576	42	5435
2026-01-06 05:04:24.58	325.39	36.91	-31.8	-32.3	27.7	0.00e+00	0	33	101	1048576	42	5701
2026-01-06 05:04:28.63	325.93	36.00	-31.9	-32.3	27.9	0.00e+00	0	33	101	1048576	42	5750
2026-01-06 05:04:32.67	326.45	35.12	-31.5	-31.9	28.0	0.00e+00	0	33	101	1048576	42	5497
2026-01-06 05:04:36.72	326.94	34.27	-31.3	-31.7	28.4	0.00e+00	0	33	101	1048576	42	5364
2026-01-06 05:04:40.76	327.40	33.43	-31.1	-31.5	28.5	0.00e+00	0	33	101	1048576	40	5878
2026-01-06 05:04:44.80	327.85	32.61	-31.3	-31.8	28.3	0.00e+00	0	33	101	1048576	40	6034
2026-01-06 05:04:48.85	328.27	31.82	-31.3	-31.8	28.4	0.00e+00	0	33	101	1048576	40	6041
2026-01-06 05:04:52.89	328.67	31.04	-31.4	-31.9	28.3	0.00e+00	0	33	101	1048576	40	6119
2026-01-06 05:04:56.94	329.06	30.28	-31.4	-31.9	28.3	0.00e+00	0	33	101	1048576	40	6105
2026-01-06 05:05:00.98	329.43	29.54	-31.5	-32.0	28.1	0.00e+00	0	33	101	1048576	40	6188
2026-01-06 05:05:05.02	329.78	28.82	-31.6	-32.1	28.1	0.00e+00	0	33	101	1048576	40	6270
2026-01-06 05:05:09.07	330.12	28.12	-31.8	-32.3	27.4	0.00e+00	0	33	101	1048576	40	6418
2026-01-06 05:05:13.11	330.44	27.43	-31.9	-32.4	27.8	0.00e+00	0	33	101	1048576	40	6513
2026-01-06 05:05:17.15	330.76	26.76	-31.9	-32.4	27.8	0.00e+00	0	33	101	1048576	42	5765
2026-01-06 05:05:21.20	331.06	26.10	-31.9	-32.4	27.8	0.00e+00	0	33	101	1048576	42	5790
2026-01-06 05:05:25.24	331.34	25.46	-31.9	-32.4	27.9	0.00e+00	0	33	101	1048576	42	5798
2026-01-06 05:05:29.29	331.62	24.84	-32.1	-32.6	27.7	0.00e+00	0	33	101	1048576	42	5900
2026-01-06 05:05:33.33	331.89	24.22	-32.4	-32.9	27.4	0.00e+00	0	33	101	1048576	42	6156
2026-01-06 05:05:37.37	332.15	23.63	-32.3	-32.8	27.6	0.00e+00	0	33	101	1048576	42	6034
2026-01-06 05:05:41.42	332.40	23.04	-32.4	-32.9	27.5	0.00e+00	0	33	101	1048576	42	6127
2026-01-06 05:05:45.46	332.64	22.47	-32.2	-32.6	27.6	0.00e+00	0	33	101	1048576	42	5959
2026-01-06 05:05:49.51	332.87	21.90	-32.3	-32.8	27.5	0.00e+00	0	33	101	1048576	42	6060
2026-01-06 05:05:53.55	333.10	21.35	-32.1	-32.6	27.7	0.00e+00	0	33	101	1048576	42	5911
2026-01-06 05:05:57.59	333.32	20.82	-32.2	-32.7	27.5	0.00e+00	0	33	101	1048576	42	5983
2026-01-06 05:06:01.64	333.53	20.29	-32.3	-32.8	27.4	0.00e+00	0	33	101	1048576	42	6056
2026-01-06 05:06:05.68	333.74	19.77	-32.6	-33.1	27.3	0.00e+00	0	33	101	1048576	42	6256
2026-01-06 05:06:09.73	333.93	19.27	-32.7	-33.2	27.1	0.00e+00	0	33	101	1048576	42	6375
2026-01-06 05:06:13.77	334.13	18.77	-32.9	-33.3	27.1	0.00e+00	0	33	101	1048576	44	5755
2026-01-06 05:06:17.82	334.32	18.28	-33.1	-33.5	26.8	0.00e+00	0	33	101	1048576	44	5890
2026-01-06 05:06:21.86	334.50	17.81	-33.0	-33.5	26.8	0.00e+00	0	33	101	1048576	44	5880
2026-01-06 05:06:25.90	334.67	17.34	-33.0	-33.5	26.7	0.00e+00	0	33	101	1048576	44	5885
2026-01-06 05:06:29.95	334.85	16.88	-33.1	-33.6	26.7	0.00e+00	0	33	101	1048576	44	5944
2026-01-06 05:06:33.99	335.02	16.43	-33.2	-33.7	26.7	0.00e+00	0	33	101	1048576	44	5979
2026-01-06 05:06:38.04	335.18	15.98	-33.3	-33.8	26.6	0.00e+00	0	33	101	1048576	44	6046
2026-01-06 05:06:42.08	335.34	15.55	-33.7	-34.2	26.3	0.00e+00	0	33	101	1048576	44	6320
2026-01-06 05:06:46.13	335.49	15.12	-33.5	-34.0	26.2	0.00e+00	0	33	101	1048576	44	6238
2026-01-06 05:06:50.17	335.64	14.70	-33.7	-34.2	26.2	0.00e+00	0	33	101	1048576	44	6368
2026-01-06 05:06:54.21	335.79	14.28	-34.2	-34.7	25.9	0.00e+00	0	33	101	1048576	46	5987
2026-01-06 05:06:58.26	335.94	13.87	-34.1	-34.6	25.8	0.00e+00	0	33	101	1048576	46	5955
2026-01-06 05:07:02.31	336.08	13.47	-34.1	-34.6	25.9	0.00e+00	0	33	101	1048576	46	5960
2026-01-06 05:07:06.35	336.21	13.08	-34.4	-35.0	25.5	0.00e+00	0	33	101	1048576	46	6180
2026-01-06 05:07:10.39	336.35	12.69	-34.5	-35.0	25.5	0.00e+00	0	33	101	1048576	46	6181
2026-01-06 05:07:14.43	336.48	12.31	-34.4	-34.9	25.5	0.00e+00	0	33	101	1048576	46	6172
2026-01-06 05:07:18.48	336.61	11.93	-34.5	-35.0	25.5	0.00e+00	0	33	101	1048576	46	6203
2026-01-06 05:07:22.52	336.73	11.56	-34.7	-35.3	25.2	0.00e+00	0	33	101	1048576	46	6403
2026-01-06 05:07:26.57	336.86	11.20	-34.8	-35.3	25.2	0.00e+00	0	33	101	1048576	46	6462
2026-01-06 05:07:30.61	336.98	10.84	-35.1	-35.6	24.7	0.00e+00	0	33	101	1048576	48	5954
2026-01-06 05:07:34.65	337.10	10.48	-34.9	-35.5	24.9	0.00e+00	0	33	101	1048576	48	5838
2026-01-06 05:07:38.70	337.21	10.13	-35.0	-35.5	25.0	0.00e+00	0	33	101	1048576	48	5848
2026-01-06 05:07:42.74	337.33	9.79	-35.1	-35.7	24.8	0.00e+00	0	33	101	1048576	48	5988
2026-01-06 05:07:46.79	337.44	9.45	-35.1	-35.6	24.8	0.00e+00	0	33	101	1048576	48	5964
2026-01-06 05:07:50.83	337.55	9.11	-35.2	-35.7	24.7	0.00e+00	0	33	101	1048576	48	6031
2026-01-06 05:07:54.88	337.65	8.78	-35.4	-36.0	24.4	0.00e+00	0	33	101	1048576	48	6205
2026-01-06 05:07:58.92	337.76	8.45	-35.5	-36.1	24.3	0.00e+00	0	33	101	1048576	48	6265
2026-01-06 05:08:02.96	337.86	8.13	-35.6	-36.2	24.1	0.00e+00	0	33	101	1048576	48	6351
2026-01-06 05:08:07.01	337.96	7.81	-35.8	-36.3	24.0	0.00e+00	0	33	101	1048576	48	6459
2026-01-06 05:08:11.05	338.06	7.50	-35.9	-36.4	24.0	0.00e+00	0	33	101	1048576	48	6514
2026-01-06 05:08:15.10	338.16	7.18	-36.0	-36.6	23.8	0.00e+00	0	33	101	1048576	50	5924
2026-01-06 05:08:19.14	338.25	6.88	-36.5	-37.1	23.2	0.00e+00	0	33	101	1048576	50	6303
2026-01-06 05:08:23.18	338.35	6.57	-36.2	-36.8	23.5	0.00e+00	0	33	101	1048576	50	6071
2026-01-06 05:08:27.23	338.44	6.27	-36.5	-37.1	23.3	0.00e+00	0	33	101	1048576	50	6276
2026-01-06 05:08:31.27	338.53	5.98	-36.4	-37.0	23.2	0.00e+00	0	33	101	1048576	50	6180
2026-01-06 05:08:35.32	338.62	5.68	-36.4	-37.0	23.1	0.00e+00	0	33	101	1048576	50	6231
2026-01-06 05:08:39.36	338.71	5.39	-36.5	-37.1	22.8	0.00e+00	0	33	101	1048576	50	6300
2026-01-06 05:08:43.41	338.80	5.10	-37.3	-38.0	21.8	0.00e+00	0	33	101	1048576	52	6193
2026-01-06 05:08:47.45	338.88	4.82	-38.4	-39.2	20.1	0.00e+00	0	33	101	1048576	54	6319
2026-01-06 05:08:51.49	338.97	4.54	-40.3	-41.4	17.2	0.00e+00	0	33	101	1048576	58	6509
2026-01-06 05:08:55.54	339.05	4.26	-42.4	-44.3	13.5	3.40e-06	0	33	101	1048576	60	8062
2026-01-06 05:08:59.58	339.13	3.98	-44.2	-47.5	9.2	1.70e-02	0	33	101	1048576	60	11636
2026-01-06 05:09:03.62	339.22	3.71	-45.3	-50.5	5.3	6.79e-01	0	33	101	1048576	60	16526
2026-01-06 05:09:07.67	339.30	3.44	-45.7	-54.8	3.8	8.41e-01	0	33	104	1048576	60	27198
2026-01-06 05:09:11.71	339.37	3.17	-45.8	-56.7	3.6	8.45e-01	0	33	104	1048576	60	33635
2026-01-06 05:09:15.75	339.45	2.91	-46.0	-57.4	3.6	8.46e-01	0	33	104	1048576	60	36383
2026-01-06 05:09:19.80	339.53	2.65	-49.9	-61.5	3.6	8.45e-01	0	33	104	1048576	60	58405
2026-01-06 05:09:23.84	339.60	2.39	-50.7	-62.6	3.6	8.45e-01	0	33	104	1048576	60	66156
2026-01-06 05:09:27.89	339.68	2.13	-51.1	-62.6	3.6	8.45e-01	0	33	104	1048576	60	66895
2026-01-06 05:09:31.93	339.75	1.87	-50.8	-62.5	3.6	8.45e-01	0	33	104	1048576	60	66024
2026-01-06 05:09:35.98	339.82	1.62	-51.1	-62.6	3.6	8.46e-01	0	33	104	1048576	60	66522
2026-01-06 05:09:40.02	339.90	1.37	-51.1	-62.6	3.6	8.46e-01	0	33	104	1048576	60	66424
2026-01-06 05:09:44.06	339.97	1.12	-51.1	-62.6	3.6	8.45e-01	0	33	104	1048576	60	66163
2026-01-06 05:09:48.11	340.04	0.87	-51.1	-62.6	3.6	8.46e-01	0	33	104	1048576	60	66328
2026-01-06 05:09:52.15	340.11	0.63	-51.1	-62.5	3.6	8.45e-01	0	33	104	1048576	60	65950
2026-01-06 05:09:56.20	340.17	0.38	-51.1	-62.6	3.6	8.45e-01	0	33	104	1048576	60	66252
2026-01-06 05:10:00.24	340.24	0.14	-51.0	-62.6	3.6	8.46e-01	0	33	104	1048576	60	66635

#Closed at: 2026-01-06 05:10:02
#Recorded file [1 MB]: D:/lorett/data/35034_260106_075434.dat