passes_logs/2026/01/06/R4.6S_Anadyr_2ch/R4.6S_Anadyr_2ch__20260106_205051_SUOMI_NPP_rec.log

#Pass ID: 20260106_205051_SUOMI NPP
#Satellite: SUOMI NPP
#Configuration: NPP
#almurnet v.1.7.20251203
#Start time: 2026-01-06 20:50:51

#Version: 2.2.20231116
#Station: R4.6S_Anadyr_2ch
#Location: 177.4865 lon 64.73178 lat
#TLE: 1 37849U 11061A   25350.92281687  .00000071  00000+0  54882-4 0  9996
#TLE: 2 37849  98.7777 288.2268 0002366 112.8570 247.2856 14.19515404732588

#Time	Az	El	Level	Level2	SNR	BER	BlckErr	Temp	State	Recorded	gain1	gain2
2026-01-06 20:50:51.77	76.70	0.03	-51.0	-62.0	3.5	8.45e-01	0	29	0	0	60	61756
2026-01-06 20:50:54.79	76.49	0.18	-51.4	-66.7	3.6	1.51e+00	0	30	104	0	60	105455
2026-01-06 20:50:57.82	76.28	0.34	-51.4	-66.7	3.6	1.51e+00	0	30	104	0	60	105190
2026-01-06 20:51:00.85	76.07	0.49	-51.4	-66.7	3.6	1.51e+00	0	30	104	0	60	105371
2026-01-06 20:51:03.89	75.85	0.65	-51.4	-66.7	3.6	1.51e+00	0	30	104	0	60	105034
2026-01-06 20:51:06.92	75.63	0.80	-51.4	-66.7	3.6	1.51e+00	0	30	104	0	60	105597
2026-01-06 20:51:09.95	75.41	0.96	-51.4	-66.6	3.6	1.51e+00	0	30	104	0	60	104714
2026-01-06 20:51:12.99	75.18	1.11	-51.4	-66.7	3.6	1.51e+00	0	30	104	0	60	105181
2026-01-06 20:51:16.02	74.96	1.27	-51.4	-66.7	3.6	1.51e+00	0	30	104	0	60	104906
2026-01-06 20:51:19.05	74.73	1.43	-51.4	-66.7	3.6	1.51e+00	0	30	104	0	60	105133
2026-01-06 20:51:22.09	74.50	1.58	-51.4	-66.7	3.6	1.51e+00	0	30	104	0	60	105372
2026-01-06 20:51:25.12	74.26	1.74	-51.4	-66.7	3.6	1.51e+00	0	30	104	0	60	105553
2026-01-06 20:51:28.15	74.03	1.90	-51.4	-66.7	3.6	1.51e+00	0	31	104	0	60	105480
2026-01-06 20:51:31.18	73.79	2.06	-51.4	-66.7	3.6	1.51e+00	0	31	104	0	60	105726
2026-01-06 20:51:34.21	73.54	2.22	-51.4	-66.7	3.6	1.51e+00	0	31	104	0	60	105497
2026-01-06 20:51:37.25	73.30	2.38	-51.4	-66.7	3.6	1.51e+00	0	31	104	0	60	105337
2026-01-06 20:51:40.28	73.05	2.54	-51.4	-66.7	3.6	1.51e+00	0	31	104	0	60	105112
2026-01-06 20:51:43.31	72.80	2.70	-51.4	-66.7	3.6	1.51e+00	0	31	104	0	60	105522
2026-01-06 20:51:46.35	72.55	2.86	-51.4	-66.7	3.6	1.51e+00	0	31	104	0	60	105386
2026-01-06 20:51:49.38	72.29	3.02	-51.4	-66.7	3.6	1.51e+00	0	31	104	0	60	104873
2026-01-06 20:51:52.41	72.03	3.18	-51.4	-66.7	3.6	1.51e+00	0	31	104	0	60	105303
2026-01-06 20:51:55.44	71.77	3.34	-51.4	-66.7	3.6	1.51e+00	0	31	104	0	60	105251
2026-01-06 20:51:58.48	71.51	3.50	-51.4	-66.7	3.5	1.51e+00	0	31	104	0	60	105638
2026-01-06 20:52:01.51	71.24	3.67	-51.4	-66.7	3.6	1.51e+00	0	31	104	0	60	105427
2026-01-06 20:52:04.54	70.97	3.83	-51.4	-66.7	3.6	1.51e+00	0	31	104	0	60	105578
2026-01-06 20:52:07.57	70.69	3.99	-51.4	-66.7	3.6	1.51e+00	0	31	104	0	60	105005
2026-01-06 20:52:10.61	70.42	4.16	-51.4	-66.7	3.6	1.51e+00	0	31	104	0	60	105514
2026-01-06 20:52:13.64	70.14	4.32	-51.4	-66.7	3.6	1.51e+00	0	31	104	0	60	105243
2026-01-06 20:52:16.68	69.85	4.48	-51.4	-66.7	3.6	1.51e+00	0	31	104	0	60	105321
2026-01-06 20:52:19.71	69.56	4.65	-51.4	-66.7	3.6	1.51e+00	0	31	104	0	60	105162
2026-01-06 20:52:22.74	69.27	4.81	-51.4	-66.7	3.6	1.51e+00	0	31	104	0	60	105298
2026-01-06 20:52:25.77	68.98	4.98	-51.4	-66.7	3.6	1.51e+00	0	31	104	0	60	105728
2026-01-06 20:52:28.80	68.68	5.14	-51.4	-66.7	3.6	1.51e+00	0	31	104	0	60	105035
2026-01-06 20:52:31.84	68.38	5.31	-51.4	-66.7	3.6	1.51e+00	0	31	104	0	60	104938
2026-01-06 20:52:34.87	68.08	5.48	-51.4	-66.7	3.6	1.51e+00	0	31	104	0	60	105211
2026-01-06 20:52:37.90	67.77	5.64	-51.4	-66.7	3.6	1.51e+00	0	31	104	0	60	105190
2026-01-06 20:52:40.93	67.46	5.81	-51.4	-66.7	3.6	1.51e+00	0	31	104	0	60	105007
2026-01-06 20:52:43.96	67.14	5.98	-51.4	-66.7	3.6	1.51e+00	0	31	104	0	60	105130
2026-01-06 20:52:47.00	66.82	6.14	-51.4	-66.7	3.6	1.51e+00	0	31	104	0	60	105520
2026-01-06 20:52:50.03	66.50	6.31	-51.4	-66.7	3.6	1.51e+00	0	31	104	0	60	105385
2026-01-06 20:52:53.06	66.17	6.48	-51.4	-66.7	3.6	1.51e+00	0	31	104	0	60	105399
2026-01-06 20:52:56.10	65.84	6.65	-51.4	-66.7	3.6	1.51e+00	0	31	104	0	60	105341
2026-01-06 20:52:59.13	65.51	6.81	-51.4	-66.7	3.6	1.51e+00	0	31	104	0	60	105234
2026-01-06 20:53:02.16	65.17	6.98	-51.4	-66.6	3.6	1.51e+00	0	32	104	0	60	104790
2026-01-06 20:53:05.20	64.83	7.15	-51.4	-66.7	3.6	1.51e+00	0	31	104	0	60	104920
2026-01-06 20:53:08.23	64.48	7.32	-51.4	-66.7	3.6	1.51e+00	0	31	104	0	60	105311
2026-01-06 20:53:11.26	64.13	7.49	-51.4	-66.7	3.6	1.51e+00	0	31	104	0	60	105591
2026-01-06 20:53:14.29	63.78	7.66	-51.4	-66.7	3.6	1.51e+00	0	31	104	0	60	105807
2026-01-06 20:53:17.32	63.42	7.83	-51.4	-66.7	3.6	1.51e+00	0	31	104	0	60	105459
2026-01-06 20:53:20.36	63.05	7.99	-51.4	-66.7	3.6	1.51e+00	0	31	104	0	60	105083
2026-01-06 20:53:23.39	62.68	8.16	-51.4	-66.6	3.6	1.51e+00	0	32	104	0	60	104828
2026-01-06 20:53:26.42	62.31	8.33	-51.4	-66.7	3.6	1.51e+00	0	31	104	0	60	105088
2026-01-06 20:53:29.45	61.94	8.50	-51.4	-66.7	3.6	1.51e+00	0	31	104	0	60	105797
2026-01-06 20:53:32.48	61.56	8.67	-51.4	-66.7	3.6	1.51e+00	0	31	104	0	60	104994
2026-01-06 20:53:35.52	61.17	8.84	-51.4	-66.7	3.6	1.51e+00	0	31	104	0	60	105024
2026-01-06 20:53:38.55	60.78	9.01	-51.4	-66.7	3.6	1.51e+00	0	31	104	0	60	104992
2026-01-06 20:53:41.58	60.39	9.17	-51.4	-66.6	3.6	1.51e+00	0	31	104	0	60	104841
2026-01-06 20:53:44.62	59.98	9.34	-51.4	-66.7	3.6	1.51e+00	0	31	104	0	60	104970
2026-01-06 20:53:47.65	59.58	9.51	-51.4	-66.7	3.6	1.51e+00	0	31	104	0	60	105107
2026-01-06 20:53:50.68	59.17	9.68	-51.4	-66.7	3.6	1.51e+00	0	31	104	0	60	104871
2026-01-06 20:53:53.71	58.76	9.84	-51.4	-66.7	3.5	1.51e+00	0	31	104	0	60	105148
2026-01-06 20:53:56.75	58.34	10.01	-51.4	-66.6	3.6	1.51e+00	0	31	104	0	60	104847
2026-01-06 20:53:59.78	57.92	10.18	-51.4	-66.7	3.6	1.51e+00	0	31	104	0	60	105122
2026-01-06 20:54:02.81	57.49	10.34	-51.4	-66.7	3.6	1.51e+00	0	31	104	0	60	105377
2026-01-06 20:54:05.84	57.06	10.51	-51.4	-66.7	3.6	1.51e+00	0	31	104	0	60	105159
2026-01-06 20:54:08.87	56.62	10.67	-51.4	-66.7	3.6	1.51e+00	0	32	104	0	60	105301
2026-01-06 20:54:11.71	56.20	10.83	-51.4	-66.7	3.6	1.51e+00	0	31	104	0	60	105042
2026-01-06 20:54:14.89	55.73	11.00	-51.4	-66.6	3.6	1.51e+00	0	32	104	0	60	104767
2026-01-06 20:54:17.77	55.30	11.16	-51.4	-66.7	3.6	1.51e+00	0	32	104	0	60	104981
2026-01-06 20:54:20.95	54.82	11.33	-51.4	-66.6	3.6	1.51e+00	0	32	104	0	60	104766
2026-01-06 20:54:23.84	54.38	11.48	-51.4	-66.6	3.6	1.51e+00	0	32	104	0	60	104775
2026-01-06 20:54:27.02	53.89	11.65	-51.4	-66.6	3.6	1.51e+00	0	32	104	0	60	104845
2026-01-06 20:54:29.90	53.44	11.80	-51.4	-66.7	3.6	1.51e+00	0	31	104	0	60	105414
2026-01-06 20:54:33.07	52.93	11.97	-51.4	-66.7	3.6	1.51e+00	0	31	104	0	60	105224
2026-01-06 20:54:35.96	52.47	12.12	-51.4	-66.7	3.6	1.51e+00	0	32	104	0	60	105287
2026-01-06 20:54:39.13	51.96	12.28	-51.4	-66.6	3.6	1.51e+00	0	31	104	0	60	104824
2026-01-06 20:54:42.02	51.49	12.43	-51.4	-66.6	3.6	1.51e+00	0	31	104	0	60	104530
2026-01-06 20:54:45.19	50.97	12.60	-51.4	-66.6	3.6	1.51e+00	0	32	104	0	60	104788
2026-01-06 20:54:48.07	50.48	12.74	-51.4	-66.7	3.6	1.51e+00	0	31	104	0	60	105491
2026-01-06 20:54:51.25	49.95	12.90	-51.4	-66.7	3.6	1.51e+00	0	32	104	0	60	105020
2026-01-06 20:54:54.13	49.46	13.05	-51.4	-66.7	3.6	1.51e+00	0	32	104	0	60	105016
2026-01-06 20:54:57.30	48.91	13.20	-51.4	-66.7	3.6	1.51e+00	0	31	104	0	60	105068
2026-01-06 20:55:00.18	48.41	13.34	-51.4	-66.7	3.6	1.51e+00	0	32	104	0	60	105317
2026-01-06 20:55:03.35	47.85	13.50	-51.4	-66.7	3.6	1.51e+00	0	32	104	0	60	105002
2026-01-06 20:55:06.24	47.34	13.64	-51.4	-66.6	3.6	1.51e+00	0	32	104	0	60	104812
2026-01-06 20:55:09.40	46.77	13.79	-51.4	-66.7	3.6	1.51e+00	0	32	104	0	60	104935
2026-01-06 20:55:12.28	46.25	13.92	-51.4	-66.7	3.6	1.51e+00	0	32	104	0	60	104903
2026-01-06 20:55:15.46	45.67	14.07	-51.4	-66.7	3.6	1.51e+00	0	32	104	0	60	105005
2026-01-06 20:55:18.34	45.14	14.20	-51.4	-66.7	3.6	1.51e+00	0	32	104	0	60	105221
2026-01-06 20:55:21.51	44.55	14.34	-51.4	-66.7	3.6	1.51e+00	0	32	104	0	60	105223
2026-01-06 20:55:24.40	44.01	14.47	-51.4	-66.7	3.6	1.51e+00	0	31	104	0	60	105249
2026-01-06 20:55:27.57	43.41	14.61	-51.4	-66.7	3.6	1.51e+00	0	32	104	0	60	105818
2026-01-06 20:55:30.45	42.85	14.73	-51.4	-66.6	3.6	1.51e+00	0	31	104	0	60	104784
2026-01-06 20:55:33.62	42.24	14.86	-51.4	-66.7	3.6	1.51e+00	0	32	104	0	60	104924
2026-01-06 20:55:36.51	41.68	14.98	-51.4	-66.7	3.6	1.51e+00	0	31	104	0	60	104859
2026-01-06 20:55:39.68	41.06	15.11	-51.4	-66.6	3.6	1.51e+00	0	31	104	0	60	104766
2026-01-06 20:55:42.57	40.49	15.23	-51.4	-66.7	3.6	1.51e+00	0	32	104	0	60	105002
2026-01-06 20:55:45.74	39.85	15.35	-51.4	-66.7	3.6	1.51e+00	0	31	104	0	60	105425
2026-01-06 20:55:48.62	39.27	15.46	-51.4	-66.7	3.6	1.51e+00	0	31	104	0	60	105304
2026-01-06 20:55:51.79	38.63	15.58	-51.4	-66.7	3.6	1.51e+00	0	32	104	0	60	105390
2026-01-06 20:55:54.68	38.04	15.68	-51.4	-66.6	3.6	1.51e+00	0	31	104	0	60	104620
2026-01-06 20:55:57.85	37.39	15.79	-51.4	-66.7	3.6	1.51e+00	0	31	104	0	60	104886
2026-01-06 20:56:00.74	36.79	15.89	-51.4	-66.7	3.6	1.51e+00	0	32	104	0	60	105183
2026-01-06 20:56:03.91	36.13	15.99	-51.4	-66.7	3.6	1.51e+00	0	32	104	0	60	105176
2026-01-06 20:56:06.79	35.53	16.09	-51.4	-66.7	3.6	1.51e+00	0	32	104	0	60	105197
2026-01-06 20:56:09.96	34.86	16.18	-51.4	-66.7	3.6	1.51e+00	0	32	104	0	60	105324
2026-01-06 20:56:12.85	34.24	16.27	-51.4	-66.7	3.6	1.51e+00	0	32	104	0	60	105014
2026-01-06 20:56:16.02	33.56	16.36	-51.4	-66.7	3.6	1.51e+00	0	31	104	0	60	105077
2026-01-06 20:56:18.91	32.94	16.44	-51.4	-66.7	3.6	1.51e+00	0	32	104	0	60	105085
2026-01-06 20:56:22.08	32.26	16.53	-51.4	-66.7	3.6	1.51e+00	0	32	104	0	60	105462
2026-01-06 20:56:24.97	31.63	16.60	-51.4	-66.7	3.6	1.51e+00	0	32	104	0	60	105259
2026-01-06 20:56:28.14	30.94	16.67	-51.4	-66.7	3.6	1.51e+00	0	32	104	0	60	104992
2026-01-06 20:56:31.02	30.30	16.74	-51.4	-66.7	3.6	1.51e+00	0	31	104	0	60	105344
2026-01-06 20:56:34.19	29.61	16.81	-51.4	-66.7	3.6	1.51e+00	0	32	104	0	60	105359
2026-01-06 20:56:37.08	28.97	16.87	-51.4	-66.7	3.6	1.51e+00	0	31	104	0	60	105140
2026-01-06 20:56:40.25	28.26	16.93	-51.4	-66.7	3.6	1.51e+00	0	32	104	0	60	105117
2026-01-06 20:56:43.13	27.62	16.98	-51.4	-66.7	3.6	1.51e+00	0	32	104	0	60	105078
2026-01-06 20:56:46.31	26.91	17.03	-51.4	-66.6	3.6	1.51e+00	0	32	104	0	60	104702
2026-01-06 20:56:49.19	26.26	17.07	-51.4	-66.6	3.5	1.51e+00	0	32	104	0	60	104756
2026-01-06 20:56:52.37	25.54	17.12	-51.4	-66.7	3.6	1.51e+00	0	32	104	0	60	105380
2026-01-06 20:56:55.25	24.89	17.15	-51.4	-66.7	3.6	1.51e+00	0	32	104	0	60	104957
2026-01-06 20:56:58.43	24.17	17.19	-51.4	-66.7	3.6	1.51e+00	0	31	104	0	60	105203
2026-01-06 20:57:01.31	23.52	17.22	-51.4	-66.7	3.6	1.51e+00	0	32	104	0	60	105410
2026-01-06 20:57:04.49	22.80	17.24	-51.4	-66.7	3.6	1.51e+00	0	31	104	0	60	105497
2026-01-06 20:57:07.37	22.14	17.26	-51.4	-66.7	3.6	1.51e+00	0	32	104	0	60	105335
2026-01-06 20:57:10.54	21.42	17.28	-51.4	-66.7	3.6	1.51e+00	0	32	104	0	60	105146
2026-01-06 20:57:13.43	20.76	17.29	-51.4	-66.7	3.6	1.51e+00	0	32	104	0	60	105375
2026-01-06 20:57:16.60	20.04	17.30	-51.4	-66.7	3.6	1.51e+00	0	32	104	0	60	105367
2026-01-06 20:57:19.48	19.38	17.30	-51.4	-66.7	3.6	1.51e+00	0	31	104	0	60	105301
2026-01-06 20:57:22.65	18.66	17.30	-51.4	-66.6	3.6	1.51e+00	0	31	104	0	60	104555
2026-01-06 20:57:25.54	18.00	17.30	-51.4	-66.7	3.6	1.51e+00	0	32	104	0	60	104853
2026-01-06 20:57:28.72	17.27	17.29	-51.4	-66.6	3.6	1.51e+00	0	32	104	0	60	104756
2026-01-06 20:57:31.60	16.61	17.28	-51.4	-66.6	3.6	1.51e+00	0	31	104	0	60	104785
2026-01-06 20:57:34.78	15.89	17.26	-51.4	-66.7	3.6	1.51e+00	0	31	104	0	60	104938
2026-01-06 20:57:37.66	15.23	17.24	-51.4	-66.6	3.6	1.51e+00	0	31	104	0	60	104816
2026-01-06 20:57:40.83	14.51	17.21	-51.4	-66.7	3.6	1.51e+00	0	32	104	0	60	105168
2026-01-06 20:57:43.71	13.86	17.18	-51.4	-66.7	3.6	1.51e+00	0	31	104	0	60	104983
2026-01-06 20:57:46.88	13.14	17.14	-51.4	-66.6	3.6	1.51e+00	0	31	104	0	60	104812
2026-01-06 20:57:49.77	12.49	17.11	-51.4	-66.7	3.6	1.51e+00	0	32	104	0	60	104923
2026-01-06 20:57:52.94	11.78	17.06	-51.4	-66.7	3.6	1.51e+00	0	32	104	0	60	105655
2026-01-06 20:57:55.82	11.13	17.02	-51.4	-66.7	3.6	1.51e+00	0	32	104	0	60	105401
2026-01-06 20:57:58.99	10.43	16.96	-51.4	-66.6	3.6	1.51e+00	0	32	104	0	60	104665
2026-01-06 20:58:01.88	9.78	16.91	-51.4	-66.6	3.6	1.51e+00	0	32	104	0	60	104659
2026-01-06 20:58:05.05	9.08	16.85	-51.4	-66.7	3.6	1.51e+00	0	31	104	0	60	105114
2026-01-06 20:58:07.93	8.44	16.79	-51.4	-66.7	3.6	1.51e+00	0	32	104	0	60	104863
2026-01-06 20:58:11.10	7.74	16.72	-51.4	-66.7	3.6	1.51e+00	0	32	104	0	60	105233
2026-01-06 20:58:13.99	7.11	16.65	-51.4	-66.7	3.6	1.51e+00	0	32	104	0	60	105133
2026-01-06 20:58:17.16	6.42	16.58	-51.4	-66.7	3.6	1.51e+00	0	32	104	0	60	105157
2026-01-06 20:58:20.05	5.79	16.50	-51.4	-66.7	3.6	1.51e+00	0	32	104	0	60	105052
2026-01-06 20:58:23.22	5.11	16.42	-51.4	-66.6	3.6	1.51e+00	0	32	104	0	60	104746
2026-01-06 20:58:26.11	4.49	16.34	-51.4	-66.6	3.5	1.51e+00	0	32	104	0	60	104753
2026-01-06 20:58:29.29	3.81	16.25	-51.4	-66.6	3.6	1.51e+00	0	31	104	0	60	104830
2026-01-06 20:58:32.18	3.20	16.16	-51.4	-66.7	3.6	1.51e+00	0	32	104	0	60	105073
2026-01-06 20:58:35.36	2.53	16.06	-51.4	-66.7	3.7	1.51e+00	0	32	104	0	60	105080
2026-01-06 20:58:38.25	1.93	15.97	-51.4	-66.7	3.6	1.51e+00	0	32	104	0	60	104892
2026-01-06 20:58:41.42	1.27	15.86	-51.4	-66.6	3.6	1.51e+00	0	32	104	0	60	104276
2026-01-06 20:58:44.31	0.67	15.76	-51.4	-66.6	3.6	1.51e+00	0	32	104	0	60	104594
2026-01-06 20:58:47.49	0.02	15.65	-51.4	-66.6	3.6	1.51e+00	0	32	104	0	60	104769
2026-01-06 20:58:50.38	359.43	15.54	-51.4	-66.7	3.6	1.51e+00	0	32	104	0	60	105439
2026-01-06 20:58:53.56	358.79	15.43	-51.4	-66.7	3.6	1.51e+00	0	32	104	0	60	105252
2026-01-06 20:58:56.45	358.21	15.32	-51.4	-66.7	3.6	1.51e+00	0	32	104	0	60	105171
2026-01-06 20:58:59.62	357.58	15.19	-51.4	-66.6	3.6	1.51e+00	0	32	104	0	60	104844
2026-01-06 20:59:02.51	357.01	15.08	-51.4	-66.7	3.6	1.51e+00	0	32	104	0	60	105316
2026-01-06 20:59:05.69	356.39	14.95	-51.4	-66.7	3.6	1.51e+00	0	32	104	0	60	104958
2026-01-06 20:59:08.58	355.83	14.83	-51.4	-66.6	3.6	1.51e+00	0	32	104	0	60	104840
2026-01-06 20:59:11.75	355.22	14.69	-51.4	-66.7	3.6	1.51e+00	0	32	104	0	60	105650
2026-01-06 20:59:14.64	354.67	14.57	-51.4	-66.7	3.6	1.51e+00	0	32	104	0	60	105377
2026-01-06 20:59:17.82	354.07	14.43	-51.4	-66.7	3.6	1.51e+00	0	32	104	0	60	105611
2026-01-06 20:59:20.71	353.53	14.30	-51.4	-66.6	3.6	1.51e+00	0	32	104	0	60	104839
2026-01-06 20:59:23.88	352.94	14.16	-51.4	-66.7	3.6	1.51e+00	0	32	104	0	60	104972
2026-01-06 20:59:26.77	352.41	14.03	-51.4	-66.6	3.6	1.51e+00	0	32	104	0	60	104606
2026-01-06 20:59:29.95	351.83	13.88	-51.4	-66.6	3.6	1.51e+00	0	32	104	0	60	104392
2026-01-06 20:59:32.84	351.31	13.75	-51.4	-66.6	3.6	1.51e+00	0	32	104	0	60	104731
2026-01-06 20:59:36.01	350.75	13.59	-51.4	-66.6	3.6	1.51e+00	0	32	104	0	60	104668
2026-01-06 20:59:38.90	350.24	13.46	-51.4	-66.7	3.6	1.51e+00	0	32	104	0	60	105009
2026-01-06 20:59:42.08	349.68	13.30	-51.4	-66.7	3.6	1.51e+00	0	32	104	0	60	105001
2026-01-06 20:59:44.97	349.18	13.16	-51.4	-66.7	3.6	1.51e+00	0	32	104	0	60	104890
2026-01-06 20:59:48.15	348.64	13.00	-51.4	-66.7	3.6	1.51e+00	0	32	104	0	60	105063
2026-01-06 20:59:51.03	348.15	12.86	-51.4	-66.7	3.6	1.51e+00	0	32	104	0	60	104860
2026-01-06 20:59:54.21	347.61	12.70	-51.4	-66.7	3.6	1.51e+00	0	32	104	0	60	105191
2026-01-06 20:59:57.10	347.14	12.55	-51.4	-66.6	3.6	1.51e+00	0	32	104	0	60	104817
2026-01-06 21:00:00.28	346.61	12.39	-51.4	-66.7	3.6	1.51e+00	0	32	104	0	60	104867
2026-01-06 21:00:03.17	346.14	12.24	-51.4	-66.7	3.6	1.51e+00	0	32	104	0	60	105332
2026-01-06 21:00:06.35	345.63	12.07	-51.4	-66.7	3.6	1.51e+00	0	32	104	0	60	105212
2026-01-06 21:00:09.23	345.18	11.92	-51.4	-66.7	3.6	1.51e+00	0	32	104	0	60	105385
2026-01-06 21:00:12.41	344.68	11.76	-51.4	-66.6	3.6	1.51e+00	0	32	104	0	60	104797
2026-01-06 21:00:15.29	344.23	11.60	-51.4	-66.7	3.6	1.51e+00	0	32	104	0	60	104899
2026-01-06 21:00:18.47	343.74	11.43	-51.4	-66.7	3.6	1.51e+00	0	32	104	0	60	104905
2026-01-06 21:00:21.36	343.30	11.28	-51.4	-66.7	3.6	1.51e+00	0	32	104	0	60	105203
2026-01-06 21:00:24.54	342.82	11.11	-51.4	-66.7	3.6	1.51e+00	0	32	104	0	60	105077
2026-01-06 21:00:27.43	342.39	10.95	-51.4	-66.7	3.6	1.51e+00	0	32	104	0	60	105182
2026-01-06 21:00:30.60	341.93	10.78	-51.4	-66.7	3.6	1.51e+00	0	32	104	0	60	105310
2026-01-06 21:00:33.49	341.51	10.63	-51.4	-66.6	3.6	1.51e+00	0	32	104	0	60	104845
2026-01-06 21:00:36.67	341.05	10.45	-51.4	-66.6	3.6	1.51e+00	0	32	104	0	60	104500
2026-01-06 21:00:39.56	340.64	10.29	-51.4	-66.7	3.6	1.51e+00	0	32	104	0	60	104865
2026-01-06 21:00:42.73	340.20	10.12	-51.4	-66.6	3.6	1.51e+00	0	32	104	0	60	104287
2026-01-06 21:00:45.62	339.80	9.96	-51.4	-66.7	3.6	1.51e+00	0	31	104	0	60	105616
2026-01-06 21:00:48.80	339.36	9.79	-51.4	-66.7	3.6	1.51e+00	0	32	104	0	60	105295
2026-01-06 21:00:51.69	338.97	9.63	-51.4	-66.6	3.6	1.51e+00	0	32	104	0	60	104798
2026-01-06 21:00:54.86	338.55	9.45	-51.4	-66.6	3.6	1.51e+00	0	32	104	0	60	104533
2026-01-06 21:00:57.75	338.16	9.29	-51.4	-66.6	3.6	1.51e+00	0	32	104	0	60	104586
2026-01-06 21:01:00.93	337.75	9.12	-51.4	-66.6	3.6	1.51e+00	0	32	104	0	60	104494
2026-01-06 21:01:03.82	337.37	8.96	-51.4	-66.7	3.6	1.51e+00	0	32	104	0	60	105032
2026-01-06 21:01:06.99	336.97	8.78	-51.4	-66.7	3.6	1.51e+00	0	32	104	0	60	105023
2026-01-06 21:01:09.88	336.61	8.62	-51.4	-66.6	3.6	1.51e+00	0	32	104	0	60	104739
2026-01-06 21:01:13.06	336.21	8.45	-51.4	-66.6	3.6	1.51e+00	0	32	104	0	60	104781
2026-01-06 21:01:15.95	335.85	8.28	-51.4	-66.7	3.6	1.51e+00	0	32	104	0	60	105156
2026-01-06 21:01:19.12	335.47	8.11	-51.4	-66.6	3.6	1.51e+00	0	32	104	0	60	104691
2026-01-06 21:01:22.01	335.12	7.95	-51.4	-66.7	3.6	1.51e+00	0	32	104	0	60	104997
2026-01-06 21:01:25.18	334.74	7.77	-51.4	-66.7	3.6	1.51e+00	0	32	104	0	60	104952
2026-01-06 21:01:28.07	334.40	7.61	-51.4	-66.6	3.6	1.51e+00	0	31	104	0	60	104673
2026-01-06 21:01:31.25	334.03	7.44	-51.4	-66.7	3.6	1.51e+00	0	32	104	0	60	105000
2026-01-06 21:01:34.13	333.70	7.28	-51.4	-66.7	3.6	1.51e+00	0	32	104	0	60	104871
2026-01-06 21:01:37.31	333.34	7.10	-51.4	-66.7	3.6	1.51e+00	0	32	104	0	60	104980
2026-01-06 21:01:40.20	333.02	6.94	-51.4	-66.6	3.6	1.51e+00	0	32	104	0	60	104727
2026-01-06 21:01:43.38	332.67	6.76	-51.4	-66.7	3.6	1.51e+00	0	32	104	0	60	105056
2026-01-06 21:01:46.27	332.35	6.60	-51.4	-66.6	3.6	1.51e+00	0	32	104	0	60	104803
2026-01-06 21:01:49.44	332.01	6.43	-51.4	-66.7	3.6	1.51e+00	0	32	104	0	60	105076
2026-01-06 21:01:52.33	331.70	6.27	-51.4	-66.7	3.6	1.51e+00	0	32	104	0	60	105056
2026-01-06 21:01:55.51	331.36	6.09	-51.4	-66.6	3.6	1.51e+00	0	32	104	0	60	104692
2026-01-06 21:01:58.40	331.06	5.93	-51.4	-66.7	3.6	1.51e+00	0	32	104	0	60	104912
2026-01-06 21:02:01.57	330.74	5.76	-51.4	-66.6	3.6	1.51e+00	0	32	104	0	60	104452
2026-01-06 21:02:04.46	330.44	5.60	-51.4	-66.6	3.6	1.51e+00	0	32	104	0	60	104609
2026-01-06 21:02:07.63	330.12	5.43	-51.4	-66.7	3.6	1.51e+00	0	32	104	0	60	105111
2026-01-06 21:02:10.51	329.84	5.27	-51.4	-66.7	3.6	1.51e+00	0	32	104	0	60	105276
2026-01-06 21:02:13.69	329.52	5.10	-51.4	-66.6	3.6	1.51e+00	0	32	104	0	60	104764
2026-01-06 21:02:16.57	329.24	4.94	-51.4	-66.7	3.6	1.51e+00	0	32	104	0	60	104912
2026-01-06 21:02:19.75	328.94	4.77	-51.4	-66.6	3.6	1.51e+00	0	32	104	0	60	104705
2026-01-06 21:02:22.63	328.66	4.61	-51.4	-66.7	3.6	1.51e+00	0	32	104	0	60	105264
2026-01-06 21:02:25.80	328.37	4.44	-51.4	-66.6	3.6	1.51e+00	0	32	104	0	60	104671
2026-01-06 21:02:28.68	328.10	4.28	-51.4	-66.6	3.6	1.51e+00	0	32	104	0	60	104476
2026-01-06 21:02:31.85	327.81	4.11	-51.4	-66.7	3.6	1.51e+00	0	32	104	0	60	104881
2026-01-06 21:02:34.74	327.55	3.96	-51.4	-66.6	3.6	1.51e+00	0	32	104	0	60	104664
2026-01-06 21:02:37.91	327.26	3.79	-51.4	-66.6	3.6	1.51e+00	0	32	104	0	60	104694
2026-01-06 21:02:40.80	327.01	3.63	-51.4	-66.6	3.6	1.51e+00	0	32	104	0	60	104509
2026-01-06 21:02:43.97	326.73	3.46	-51.4	-66.6	3.6	1.51e+00	0	32	104	0	60	104390
2026-01-06 21:02:46.86	326.48	3.31	-51.4	-66.6	3.6	1.51e+00	0	32	104	0	60	104704
2026-01-06 21:02:50.03	326.21	3.14	-51.4	-66.7	3.6	1.51e+00	0	32	104	0	60	105170
2026-01-06 21:02:52.91	325.96	2.99	-51.4	-66.7	3.6	1.51e+00	0	32	104	0	60	104933
2026-01-06 21:02:56.08	325.70	2.82	-51.4	-66.6	3.6	1.51e+00	0	32	104	0	60	104665
2026-01-06 21:02:58.97	325.46	2.67	-51.4	-66.6	3.6	1.51e+00	0	32	104	0	60	104565
2026-01-06 21:03:02.14	325.20	2.50	-51.3	-66.6	3.6	1.51e+00	0	32	104	0	60	104758
2026-01-06 21:03:05.02	324.97	2.35	-51.3	-66.7	3.6	1.51e+00	0	32	104	0	60	104950
2026-01-06 21:03:08.20	324.71	2.18	-51.4	-66.7	3.6	1.51e+00	0	32	104	0	60	105151
2026-01-06 21:03:11.08	324.48	2.03	-51.4	-66.7	3.6	1.51e+00	0	32	104	0	60	104864
2026-01-06 21:03:14.26	324.24	1.86	-51.3	-66.6	3.6	1.51e+00	0	32	104	0	60	104646
2026-01-06 21:03:17.14	324.01	1.71	-51.4	-66.6	3.6	1.51e+00	0	31	104	0	60	104699
2026-01-06 21:03:20.31	323.77	1.55	-51.4	-66.7	3.6	1.51e+00	0	32	104	0	60	105246
2026-01-06 21:03:23.20	323.55	1.40	-51.3	-66.7	3.6	1.51e+00	0	31	104	0	60	105334
2026-01-06 21:03:26.37	323.32	1.24	-51.4	-66.6	3.6	1.51e+00	0	31	104	0	60	104729
2026-01-06 21:03:29.25	323.10	1.09	-51.3	-66.7	3.6	1.51e+00	0	31	104	0	60	104875
2026-01-06 21:03:32.43	322.87	0.93	-51.4	-66.7	3.6	1.51e+00	0	32	104	0	60	105051
2026-01-06 21:03:35.31	322.66	0.78	-51.4	-66.6	3.6	1.51e+00	0	32	104	0	60	104645
2026-01-06 21:03:38.48	322.43	0.62	-51.4	-66.6	3.6	1.51e+00	0	32	104	0	60	104087
2026-01-06 21:03:41.37	322.23	0.47	-51.4	-66.7	3.6	1.51e+00	0	32	104	0	60	104982
2026-01-06 21:03:44.54	322.01	0.31	-51.3	-66.7	3.6	1.51e+00	0	32	104	0	60	104906
2026-01-06 21:03:47.43	321.81	0.16	-51.4	-66.6	3.6	1.51e+00	0	32	104	0	60	104674
2026-01-06 21:03:50.60	321.59	0.00	-51.4	-66.7	3.6	1.51e+00	0	32	104	0	60	104946

#Closed at: 2026-01-06 21:03:51
#Recorded file [0 MB]: D:/lorett/data/35034_260106_235051.dat