passes_logs/2026/01/06/R4.6S_Anadyr_2ch/R4.6S_Anadyr_2ch__20260106_233849_NOAA_21_JPSS-2_rec.log

#Pass ID: 20260106_233849_NOAA 21 (JPSS-2)
#Satellite: NOAA 21 (JPSS-2)
#Configuration: NOAA-21
#almurnet v.1.7.20251203
#Start time: 2026-01-06 23:38:54

#Version: 2.2.20231116
#Station: R4.6S_Anadyr_2ch
#Location: 177.4865 lon 64.73178 lat
#TLE: 1 54234U 22150A   25350.97269056  .00000057  00000+0  47676-4 0  9992
#TLE: 2 54234  98.7466 287.2282 0002043  29.8355 330.2937 14.19525482160692

#Time	Az	El	Level	Level2	SNR	BER	BlckErr	Temp	State	Recorded	gain1	gain2
2026-01-06 23:38:54.04	142.19	0.26	-51.2	-52.8	5.7	0.00e+00	0	29	0	0	60	73007
2026-01-06 23:38:58.08	142.14	0.51	-51.6	-64.6	3.5	1.52e+00	0	31	104	0	60	80701
2026-01-06 23:39:02.11	142.09	0.75	-51.2	-64.3	3.5	1.52e+00	0	31	104	0	60	77711
2026-01-06 23:39:06.14	142.04	1.00	-48.8	-60.9	3.4	1.52e+00	0	31	104	0	60	52433
2026-01-06 23:39:10.17	141.98	1.25	-48.2	-61.3	3.5	1.52e+00	0	31	104	0	60	55056
2026-01-06 23:39:14.20	141.93	1.50	-48.2	-61.2	3.5	1.52e+00	0	31	104	0	60	54098
2026-01-06 23:39:18.23	141.87	1.76	-48.2	-61.5	3.5	1.52e+00	0	31	104	0	60	55976
2026-01-06 23:39:22.26	141.81	2.01	-48.1	-61.1	3.5	1.52e+00	0	31	104	0	60	54028
2026-01-06 23:39:26.29	141.75	2.27	-48.1	-59.7	3.5	1.39e+00	0	31	104	0	60	45660
2026-01-06 23:39:30.33	141.69	2.53	-48.1	-61.3	3.5	1.52e+00	0	31	104	0	60	55161
2026-01-06 23:39:34.36	141.63	2.80	-48.1	-61.0	3.5	1.52e+00	0	31	104	0	60	53136
2026-01-06 23:39:38.39	141.57	3.06	-48.1	-60.2	3.4	1.51e+00	0	32	104	0	60	48286
2026-01-06 23:39:42.43	141.50	3.33	-48.1	-60.7	3.5	1.52e+00	0	32	104	0	60	51293
2026-01-06 23:39:46.47	141.43	3.61	-48.2	-61.0	3.5	1.51e+00	0	32	104	0	60	53381
2026-01-06 23:39:50.50	141.37	3.88	-48.6	-58.8	3.5	1.52e+00	0	32	104	0	60	41358
2026-01-06 23:39:54.54	141.30	4.16	-48.0	-57.3	4.5	1.46e+00	2	32	104	0	60	34644
2026-01-06 23:39:58.57	141.23	4.44	-47.3	-52.7	7.0	1.23e-01	0	32	102	1048576	60	20365
2026-01-06 23:40:02.61	141.15	4.72	-47.1	-51.7	7.4	1.36e-01	0	32	102	1048576	60	18276
2026-01-06 23:40:06.65	141.08	5.01	-47.0	-51.5	6.6	2.81e-01	0	32	102	1048576	60	17792
2026-01-06 23:40:10.68	141.00	5.29	-46.8	-51.5	6.9	2.50e-01	0	32	102	1048576	60	17786
2026-01-06 23:40:14.71	140.93	5.59	-46.3	-50.3	7.6	1.92e-01	0	32	102	1048576	60	15517
2026-01-06 23:40:18.75	140.85	5.88	-46.3	-49.9	11.0	5.60e-02	0	32	102	1048576	60	14760
2026-01-06 23:40:22.78	140.77	6.18	-45.5	-48.4	9.8	3.07e-02	0	32	102	1048576	60	12411
2026-01-06 23:40:26.81	140.68	6.48	-44.8	-47.6	9.5	5.99e-02	0	32	102	1048576	60	11356
2026-01-06 23:40:30.84	140.60	6.79	-44.2	-46.2	12.5	2.10e-02	0	32	102	1048576	60	9661
2026-01-06 23:40:34.88	140.51	7.09	-43.7	-45.7	12.5	1.03e-02	0	32	102	1048576	60	9119
2026-01-06 23:40:38.90	140.42	7.41	-42.8	-44.3	14.8	8.11e-04	0	32	102	1048576	60	7783
2026-01-06 23:40:42.94	140.33	7.72	-42.0	-43.5	18.0	7.00e-07	0	32	102	1048576	60	7060
2026-01-06 23:40:46.97	140.24	8.04	-41.4	-42.7	19.0	0.00e+00	0	32	102	1048576	60	6482
2026-01-06 23:40:51.01	140.14	8.37	-40.9	-42.2	20.2	0.00e+00	0	32	102	1048576	60	6083
2026-01-06 23:40:55.04	140.04	8.70	-40.2	-41.4	20.9	0.00e+00	0	32	102	1048576	60	5562
2026-01-06 23:40:59.07	139.94	9.03	-39.9	-41.1	21.3	0.00e+00	0	32	102	1048576	58	5997
2026-01-06 23:41:03.09	139.84	9.36	-39.6	-40.7	21.8	0.00e+00	0	32	102	1048576	58	5763
2026-01-06 23:41:07.12	139.73	9.70	-39.5	-40.5	22.0	0.00e+00	0	32	102	1048576	58	5658
2026-01-06 23:41:11.15	139.62	10.05	-39.2	-40.3	22.2	0.00e+00	0	32	102	1048576	56	6151
2026-01-06 23:41:15.18	139.51	10.40	-39.1	-40.1	22.4	0.00e+00	0	32	102	1048576	56	6035
2026-01-06 23:41:19.21	139.40	10.76	-38.7	-39.7	22.8	0.00e+00	0	32	102	1048576	56	5749
2026-01-06 23:41:23.23	139.28	11.12	-38.6	-39.5	23.0	0.00e+00	0	32	102	1048576	56	5659
2026-01-06 23:41:27.27	139.16	11.48	-38.3	-39.3	23.2	0.00e+00	0	32	102	1048576	56	5482
2026-01-06 23:41:31.29	139.03	11.85	-38.1	-39.1	23.4	0.00e+00	0	32	102	1048576	54	5995
2026-01-06 23:41:35.32	138.90	12.23	-38.0	-38.9	23.6	0.00e+00	0	32	102	1048576	54	5903
2026-01-06 23:41:39.35	138.77	12.61	-37.7	-38.7	23.7	0.00e+00	0	32	102	1048576	54	5731
2026-01-06 23:41:43.38	138.64	13.00	-37.4	-38.3	24.1	0.00e+00	0	32	102	1048576	54	5505
2026-01-06 23:41:47.41	138.50	13.40	-37.5	-38.4	24.0	0.00e+00	0	32	102	1048576	54	5543
2026-01-06 23:41:51.45	138.35	13.80	-37.2	-38.2	24.2	0.00e+00	0	32	102	1048576	54	5407
2026-01-06 23:41:55.48	138.20	14.21	-37.2	-38.1	24.3	0.00e+00	0	32	102	1048576	52	6014
2026-01-06 23:41:59.51	138.05	14.62	-37.2	-38.1	24.3	0.00e+00	0	32	102	1048576	52	6028
2026-01-06 23:42:03.55	137.89	15.04	-37.1	-38.0	24.4	0.00e+00	0	32	102	1048576	52	5963
2026-01-06 23:42:07.59	137.73	15.47	-37.1	-38.0	24.4	0.00e+00	0	32	102	1048576	52	5947
2026-01-06 23:42:11.62	137.56	15.91	-37.2	-38.1	24.3	0.00e+00	0	32	102	1048576	52	6044
2026-01-06 23:42:15.65	137.39	16.35	-37.2	-38.1	24.4	0.00e+00	0	32	102	1048576	52	6004
2026-01-06 23:42:19.69	137.21	16.80	-37.2	-38.1	24.3	0.00e+00	0	32	102	1048576	52	6032
2026-01-06 23:42:23.72	137.03	17.26	-37.5	-38.4	24.1	0.00e+00	0	32	102	1048576	52	6233
2026-01-06 23:42:27.75	136.84	17.73	-37.4	-38.3	24.1	0.00e+00	0	32	102	1048576	52	6172
2026-01-06 23:42:31.78	136.64	18.21	-37.6	-38.5	24.0	0.00e+00	0	32	102	1048576	52	6307
2026-01-06 23:42:35.82	136.44	18.69	-37.6	-38.5	24.1	0.00e+00	0	32	102	1048576	52	6305
2026-01-06 23:42:39.86	136.22	19.19	-37.5	-38.4	24.1	0.00e+00	0	32	102	1048576	52	6240
2026-01-06 23:42:43.90	136.01	19.69	-37.4	-38.3	24.3	0.00e+00	0	32	102	1048576	52	6156
2026-01-06 23:42:47.94	135.78	20.21	-37.1	-38.0	24.5	0.00e+00	0	32	102	1048576	52	5948
2026-01-06 23:42:51.98	135.54	20.74	-36.9	-37.8	24.7	0.00e+00	0	32	102	1048576	52	5795
2026-01-06 23:42:56.02	135.30	21.27	-36.4	-37.2	25.1	0.00e+00	0	32	102	1048576	52	5459
2026-01-06 23:43:00.07	135.05	21.82	-36.2	-37.0	25.2	0.00e+00	0	32	102	1048576	52	5340
2026-01-06 23:43:04.11	134.79	22.38	-35.8	-36.7	25.4	0.00e+00	0	32	102	1048576	50	5744
2026-01-06 23:43:08.15	134.51	22.95	-35.9	-36.8	25.3	0.00e+00	0	32	102	1048576	50	5807
2026-01-06 23:43:12.19	134.23	23.54	-35.8	-36.6	25.4	0.00e+00	0	32	102	1048576	50	5717
2026-01-06 23:43:16.23	133.94	24.13	-36.0	-36.8	25.4	0.00e+00	0	32	102	1048576	50	5844
2026-01-06 23:43:20.27	133.63	24.74	-36.1	-37.0	25.2	0.00e+00	0	32	102	1048576	50	5958
2026-01-06 23:43:24.32	133.31	25.36	-36.6	-37.4	24.8	0.00e+00	0	32	102	1048576	50	6276
2026-01-06 23:43:28.36	132.98	26.00	-36.9	-37.8	24.6	0.00e+00	0	32	102	1048576	50	6550
2026-01-06 23:43:32.40	132.63	26.65	-37.4	-38.3	24.3	0.00e+00	0	32	102	1048576	52	6181
2026-01-06 23:43:36.44	132.27	27.31	-37.9	-38.9	23.9	0.00e+00	0	32	102	1048576	52	6589
2026-01-06 23:43:40.48	131.89	27.99	-37.6	-38.6	24.2	0.00e+00	0	32	102	1048576	52	6368
2026-01-06 23:43:44.52	131.50	28.69	-37.7	-38.6	24.2	0.00e+00	0	32	102	1048576	52	6367
2026-01-06 23:43:48.56	131.09	29.40	-37.6	-38.5	24.3	0.00e+00	0	32	102	1048576	52	6302
2026-01-06 23:43:52.61	130.65	30.13	-36.9	-37.8	24.7	0.00e+00	0	32	102	1048576	52	5850
2026-01-06 23:43:56.65	130.20	30.87	-36.8	-37.7	24.8	0.00e+00	0	32	102	1048576	52	5757
2026-01-06 23:44:00.69	129.73	31.64	-36.8	-37.7	24.8	0.00e+00	0	32	102	1048576	52	5781
2026-01-06 23:44:04.73	129.23	32.42	-37.0	-37.9	24.5	0.00e+00	0	32	102	1048576	52	5874
2026-01-06 23:44:08.76	128.70	33.21	-37.4	-38.3	24.4	0.00e+00	0	32	102	1048576	52	6184
2026-01-06 23:44:12.80	128.15	34.03	-37.9	-38.8	24.0	0.00e+00	0	32	102	1048576	52	6535
2026-01-06 23:44:16.84	127.57	34.86	-38.3	-39.2	23.6	0.00e+00	0	32	102	1048576	54	6118
2026-01-06 23:44:20.88	126.96	35.72	-39.0	-40.0	23.1	0.00e+00	0	32	102	1048576	54	6664
2026-01-06 23:44:24.92	126.31	36.59	-39.3	-40.3	22.9	0.00e+00	0	32	102	1048576	56	6170
2026-01-06 23:44:28.96	125.63	37.48	-39.5	-40.5	22.7	0.00e+00	0	32	102	1048576	56	6310
2026-01-06 23:44:33.01	124.91	38.40	-39.6	-40.7	22.5	0.00e+00	0	32	102	1048576	56	6424
2026-01-06 23:44:37.04	124.15	39.33	-39.9	-40.9	22.3	0.00e+00	0	32	102	1048576	56	6635
2026-01-06 23:44:41.08	123.34	40.28	-39.3	-40.3	22.9	0.00e+00	0	33	102	1048576	56	6176
2026-01-06 23:44:45.12	122.48	41.25	-38.7	-39.7	23.4	0.00e+00	0	32	102	1048576	56	5735
2026-01-06 23:44:49.16	121.56	42.24	-39.6	-40.6	22.6	0.00e+00	0	32	102	1048576	56	6366
2026-01-06 23:44:53.20	120.59	43.24	-40.5	-41.7	21.4	0.00e+00	0	32	102	1048576	58	6425
2026-01-06 23:44:57.24	119.55	44.26	-40.3	-41.4	21.8	0.00e+00	0	32	102	1048576	58	6263
2026-01-06 23:45:01.28	118.44	45.30	-39.6	-40.7	22.6	0.00e+00	0	33	102	1048576	58	5737
2026-01-06 23:45:05.32	117.26	46.36	-39.4	-40.4	22.8	0.00e+00	0	33	102	1048576	58	5591
2026-01-06 23:45:09.36	115.99	47.42	-38.2	-39.1	23.8	0.00e+00	0	33	102	1048576	56	5363
2026-01-06 23:45:13.40	114.63	48.50	-39.1	-40.1	23.0	0.00e+00	0	32	102	1048576	56	6019
2026-01-06 23:45:17.45	113.17	49.58	-38.7	-39.6	23.4	0.00e+00	0	32	102	1048576	56	5703
2026-01-06 23:45:21.49	111.60	50.67	-39.2	-40.2	22.9	0.00e+00	0	32	102	1048576	56	6120
2026-01-06 23:45:25.53	109.91	51.76	-38.5	-39.5	23.4	0.00e+00	0	32	102	1048576	56	5619
2026-01-06 23:45:29.57	108.10	52.85	-38.3	-39.2	23.8	0.00e+00	0	33	102	1048576	56	5464
2026-01-06 23:45:33.61	106.15	53.92	-37.8	-38.8	23.9	0.00e+00	0	32	102	1048576	54	5832
2026-01-06 23:45:37.65	104.04	54.98	-37.5	-38.4	24.2	0.00e+00	0	32	102	1048576	54	5541
2026-01-06 23:45:41.69	101.78	56.03	-37.3	-38.2	24.6	0.00e+00	0	32	102	1048576	52	6073
2026-01-06 23:45:45.73	99.34	57.04	-36.8	-37.7	24.8	0.00e+00	0	32	102	1048576	52	5726
2026-01-06 23:45:49.77	96.71	58.02	-37.0	-37.9	24.7	0.00e+00	0	33	102	1048576	52	5875
2026-01-06 23:45:53.81	93.89	58.95	-36.7	-37.5	24.8	0.00e+00	0	33	102	1048576	52	5656
2026-01-06 23:45:57.85	90.87	59.83	-36.1	-36.9	25.3	0.00e+00	0	32	102	1048576	50	5906
2026-01-06 23:46:01.90	87.64	60.64	-35.8	-36.7	25.5	0.00e+00	0	33	102	1048576	50	5735
2026-01-06 23:46:05.94	84.21	61.37	-35.9	-36.8	25.4	0.00e+00	0	32	102	1048576	50	5824
2026-01-06 23:46:09.98	80.58	62.02	-36.5	-37.4	25.1	0.00e+00	0	33	102	1048576	50	6210
2026-01-06 23:46:14.02	76.78	62.56	-36.1	-37.0	25.4	0.00e+00	0	33	102	1048576	50	5934
2026-01-06 23:46:18.05	72.82	63.00	-35.6	-36.4	25.5	0.00e+00	0	33	102	1048576	50	5570
2026-01-06 23:46:22.09	68.73	63.33	-35.9	-36.8	25.3	0.00e+00	0	32	102	1048576	50	5819
2026-01-06 23:46:26.12	64.56	63.52	-36.2	-37.1	25.0	0.00e+00	0	33	102	1048576	50	6013
2026-01-06 23:46:30.15	60.34	63.60	-36.0	-36.8	25.4	0.00e+00	0	33	102	1048576	50	5850
2026-01-06 23:46:34.19	56.10	63.54	-35.7	-36.6	25.6	0.00e+00	0	33	102	1048576	50	5678
2026-01-06 23:46:38.22	51.92	63.36	-35.5	-36.4	25.6	0.00e+00	0	33	102	1048576	50	5550
2026-01-06 23:46:42.25	47.83	63.05	-36.0	-36.9	25.5	0.00e+00	0	33	102	1048576	50	5882
2026-01-06 23:46:46.29	43.85	62.63	-36.7	-37.6	25.0	0.00e+00	0	33	102	1048576	50	6371
2026-01-06 23:46:50.32	40.03	62.10	-36.1	-37.0	25.1	0.00e+00	0	33	102	1048576	50	5982
2026-01-06 23:46:54.35	36.40	61.47	-36.6	-37.4	25.0	0.00e+00	0	33	102	1048576	50	6277
2026-01-06 23:46:58.38	32.95	60.75	-36.0	-36.8	25.3	0.00e+00	0	33	102	1048576	50	5850
2026-01-06 23:47:02.41	29.71	59.95	-36.5	-37.4	24.7	0.00e+00	0	33	102	1048576	50	6270
2026-01-06 23:47:06.44	26.67	59.09	-36.7	-37.6	24.9	0.00e+00	0	33	102	1048576	50	6415
2026-01-06 23:47:10.48	23.83	58.16	-36.1	-37.0	25.3	0.00e+00	0	33	102	1048576	50	5935
2026-01-06 23:47:14.51	21.19	57.20	-38.0	-39.0	23.8	0.00e+00	0	33	102	1048576	52	6691
2026-01-06 23:47:18.54	18.73	56.19	-36.9	-37.8	24.7	0.00e+00	0	33	102	1048576	52	5832
2026-01-06 23:47:22.58	16.44	55.16	-37.9	-38.8	24.0	0.00e+00	0	33	102	1048576	54	5855
2026-01-06 23:47:26.61	14.32	54.11	-37.0	-37.9	24.7	0.00e+00	0	33	102	1048576	52	5898
2026-01-06 23:47:30.64	12.35	53.04	-40.3	-41.5	20.9	0.00e+00	0	33	102	1048576	58	6296
2026-01-06 23:47:34.67	10.53	51.96	-38.4	-39.4	23.7	0.00e+00	0	33	102	1048576	56	5555
2026-01-06 23:47:38.70	8.83	50.88	-40.1	-41.1	22.2	0.00e+00	0	33	102	1048576	56	6791
2026-01-06 23:47:42.73	7.25	49.79	-38.5	-39.4	23.6	0.00e+00	0	33	102	1048576	56	5566
2026-01-06 23:47:46.76	5.78	48.72	-39.8	-40.8	22.5	0.00e+00	0	33	102	1048576	56	6545
2026-01-06 23:47:50.80	4.41	47.64	-41.1	-42.3	21.2	0.00e+00	0	33	102	1048576	60	6161
2026-01-06 23:47:54.83	3.13	46.58	-39.3	-40.3	22.5	0.00e+00	0	33	102	1048576	58	5473
2026-01-06 23:47:58.87	1.94	45.53	-39.7	-40.7	22.5	0.00e+00	0	33	102	1048576	58	5781
2026-01-06 23:48:02.91	0.82	44.49	-39.2	-40.1	23.0	0.00e+00	0	33	102	1048576	56	6049
2026-01-06 23:48:06.94	359.77	43.47	-38.9	-39.9	23.1	0.00e+00	0	33	102	1048576	56	5880
2026-01-06 23:48:10.98	358.79	42.47	-40.7	-41.9	21.5	0.00e+00	0	33	102	1048576	58	6580
2026-01-06 23:48:15.00	357.87	41.49	-40.4	-41.5	21.6	0.00e+00	0	33	102	1048576	58	6313
2026-01-06 23:48:19.04	357.01	40.52	-39.1	-40.1	22.9	0.00e+00	0	33	102	1048576	56	6035
2026-01-06 23:48:23.07	356.19	39.57	-38.7	-39.6	23.4	0.00e+00	0	33	102	1048576	56	5706
2026-01-06 23:48:27.10	355.42	38.64	-39.4	-40.4	22.8	0.00e+00	0	33	102	1048576	56	6208
2026-01-06 23:48:31.12	354.70	37.73	-39.4	-40.4	22.8	0.00e+00	0	33	102	1048576	56	6227
2026-01-06 23:48:35.15	354.01	36.84	-38.4	-39.3	23.6	0.00e+00	0	33	102	1048576	56	5505
2026-01-06 23:48:39.19	353.36	35.97	-39.4	-40.5	22.7	0.00e+00	0	33	102	1048576	56	6280
2026-01-06 23:48:43.22	352.75	35.11	-38.8	-39.7	23.4	0.00e+00	0	33	102	1048576	56	5774
2026-01-06 23:48:47.26	352.16	34.28	-37.7	-38.6	24.1	0.00e+00	0	33	102	1048576	54	5719
2026-01-06 23:48:51.29	351.61	33.46	-38.3	-39.2	23.7	0.00e+00	0	33	102	1048576	54	6110
2026-01-06 23:48:55.32	351.08	32.67	-38.0	-39.0	23.8	0.00e+00	0	33	102	1048576	54	5930
2026-01-06 23:48:59.35	350.58	31.89	-37.8	-38.8	24.0	0.00e+00	0	33	102	1048576	54	5803
2026-01-06 23:49:03.38	350.11	31.13	-37.6	-38.5	24.3	0.00e+00	0	33	102	1048576	54	5641
2026-01-06 23:49:07.42	349.65	30.38	-37.1	-38.0	24.6	0.00e+00	0	33	102	1048576	52	5940
2026-01-06 23:49:11.45	349.22	29.66	-36.6	-37.5	25.0	0.00e+00	0	33	102	1048576	52	5599
2026-01-06 23:49:15.48	348.80	28.95	-36.7	-37.6	24.8	0.00e+00	0	33	102	1048576	52	5716
2026-01-06 23:49:19.51	348.41	28.25	-37.4	-38.3	24.4	0.00e+00	0	33	102	1048576	52	6173
2026-01-06 23:49:23.54	348.03	27.57	-37.6	-38.5	24.3	0.00e+00	0	33	102	1048576	52	6339
2026-01-06 23:49:27.57	347.67	26.91	-37.2	-38.1	24.5	0.00e+00	0	33	102	1048576	52	6008
2026-01-06 23:49:31.60	347.32	26.26	-36.9	-37.7	24.7	0.00e+00	0	33	102	1048576	52	5789
2026-01-06 23:49:35.63	346.99	25.62	-36.4	-37.3	25.1	0.00e+00	0	33	102	1048576	52	5507
2026-01-06 23:49:39.66	346.67	25.00	-36.4	-37.2	25.1	0.00e+00	0	33	102	1048576	52	5457
2026-01-06 23:49:43.70	346.36	24.39	-36.6	-37.5	24.9	0.00e+00	0	33	102	1048576	52	5641
2026-01-06 23:49:47.73	346.07	23.80	-36.9	-37.8	24.6	0.00e+00	0	33	102	1048576	52	5829
2026-01-06 23:49:51.76	345.79	23.21	-36.9	-37.8	24.6	0.00e+00	0	33	102	1048576	52	5844
2026-01-06 23:49:55.80	345.51	22.64	-37.0	-37.9	24.7	0.00e+00	0	33	102	1048576	52	5871
2026-01-06 23:49:59.85	345.25	22.08	-37.0	-37.9	24.6	0.00e+00	0	33	102	1048576	52	5896
2026-01-06 23:50:03.89	345.00	21.53	-37.1	-38.0	24.5	0.00e+00	0	33	102	1048576	52	5949
2026-01-06 23:50:07.92	344.76	21.00	-37.1	-38.0	24.5	0.00e+00	0	33	102	1048576	52	5954
2026-01-06 23:50:11.96	344.52	20.47	-37.1	-38.0	24.5	0.00e+00	0	33	102	1048576	52	5993
2026-01-06 23:50:16.00	344.30	19.95	-37.3	-38.2	24.3	0.00e+00	0	33	102	1048576	52	6085
2026-01-06 23:50:20.04	344.08	19.45	-37.4	-38.4	24.2	0.00e+00	0	33	102	1048576	52	6236
2026-01-06 23:50:24.08	343.87	18.95	-37.3	-38.2	24.3	0.00e+00	0	33	102	1048576	52	6117
2026-01-06 23:50:28.12	343.66	18.46	-37.3	-38.2	24.2	0.00e+00	0	32	102	1048576	52	6132
2026-01-06 23:50:32.17	343.47	17.98	-37.3	-38.2	24.2	0.00e+00	0	33	102	1048576	52	6130
2026-01-06 23:50:36.21	343.28	17.51	-37.3	-38.3	24.1	0.00e+00	0	32	102	1048576	52	6144
2026-01-06 23:50:40.25	343.09	17.05	-37.4	-38.4	24.1	0.00e+00	0	33	102	1048576	52	6218
2026-01-06 23:50:44.28	342.91	16.60	-37.6	-38.5	24.0	0.00e+00	0	33	102	1048576	52	6309
2026-01-06 23:50:48.32	342.74	16.15	-37.5	-38.5	24.0	0.00e+00	0	32	102	1048576	52	6281
2026-01-06 23:50:52.36	342.58	15.72	-37.7	-38.6	23.9	0.00e+00	0	33	102	1048576	52	6382
2026-01-06 23:50:56.40	342.41	15.29	-37.7	-38.6	23.9	0.00e+00	0	32	102	1048576	52	6380
2026-01-06 23:51:00.44	342.26	14.87	-37.8	-38.7	23.8	0.00e+00	0	33	102	1048576	52	6492
2026-01-06 23:51:04.48	342.11	14.45	-37.9	-38.8	23.7	0.00e+00	0	33	102	1048576	52	6533
2026-01-06 23:51:08.52	341.96	14.04	-37.9	-38.9	23.7	0.00e+00	0	33	102	1048576	52	6584
2026-01-06 23:51:12.56	341.82	13.64	-38.1	-39.0	23.5	0.00e+00	0	33	102	1048576	54	5992
2026-01-06 23:51:16.60	341.68	13.24	-38.2	-39.1	23.4	0.00e+00	0	33	102	1048576	54	6041
2026-01-06 23:51:20.64	341.54	12.85	-38.3	-39.2	23.2	0.00e+00	0	33	102	1048576	54	6133
2026-01-06 23:51:24.68	341.41	12.47	-38.4	-39.4	23.2	0.00e+00	0	33	102	1048576	54	6247
2026-01-06 23:51:28.72	341.29	12.09	-38.5	-39.5	23.0	0.00e+00	0	32	102	1048576	54	6331
2026-01-06 23:51:32.76	341.16	11.72	-38.5	-39.5	23.0	0.00e+00	0	33	102	1048576	54	6315
2026-01-06 23:51:36.79	341.04	11.35	-38.5	-39.5	23.0	0.00e+00	0	33	102	1048576	54	6315
2026-01-06 23:51:40.83	340.93	10.99	-38.5	-39.5	23.0	0.00e+00	0	33	102	1048576	54	6306
2026-01-06 23:51:44.87	340.81	10.63	-38.7	-39.7	22.8	0.00e+00	0	33	102	1048576	54	6468
2026-01-06 23:51:48.91	340.70	10.28	-38.7	-39.7	22.8	0.00e+00	0	33	102	1048576	54	6477
2026-01-06 23:51:52.95	340.60	9.94	-38.6	-39.7	22.9	0.00e+00	0	33	102	1048576	54	6427
2026-01-06 23:51:56.99	340.49	9.59	-38.7	-39.7	22.8	0.00e+00	0	33	102	1048576	54	6483
2026-01-06 23:52:01.03	340.39	9.26	-38.7	-39.7	22.8	0.00e+00	0	33	102	1048576	54	6490
2026-01-06 23:52:05.08	340.29	8.92	-38.9	-39.9	22.6	0.00e+00	0	33	102	1048576	54	6599
2026-01-06 23:52:09.12	340.20	8.59	-39.0	-40.0	22.5	0.00e+00	0	33	102	1048576	54	6697
2026-01-06 23:52:13.16	340.10	8.27	-39.1	-40.1	22.4	0.00e+00	0	32	102	1048576	54	6765
2026-01-06 23:52:17.20	340.01	7.95	-39.3	-40.4	22.2	0.00e+00	0	32	102	1048576	56	6208
2026-01-06 23:52:21.24	339.92	7.63	-39.3	-40.4	22.2	0.00e+00	0	33	102	1048576	56	6239
2026-01-06 23:52:25.28	339.84	7.32	-39.4	-40.5	22.0	0.00e+00	0	32	102	1048576	56	6317
2026-01-06 23:52:29.32	339.75	7.01	-39.7	-40.8	21.8	0.00e+00	0	33	102	1048576	56	6500
2026-01-06 23:52:33.36	339.67	6.70	-39.6	-40.7	21.7	0.00e+00	0	33	102	1048576	56	6471
2026-01-06 23:52:37.40	339.59	6.40	-39.6	-40.7	21.8	0.00e+00	0	33	102	1048576	56	6447
2026-01-06 23:52:41.44	339.51	6.10	-39.7	-40.8	21.4	0.00e+00	0	33	102	1048576	56	6556
2026-01-06 23:52:45.48	339.43	5.81	-40.1	-41.3	20.8	0.00e+00	0	33	102	1048576	58	6201
2026-01-06 23:52:49.52	339.36	5.51	-40.8	-42.2	19.6	0.00e+00	0	33	102	1048576	58	6852
2026-01-06 23:52:53.56	339.29	5.22	-42.2	-43.9	17.4	0.00e+00	0	33	102	1048576	60	7441
2026-01-06 23:52:57.60	339.22	4.94	-43.7	-46.1	14.6	7.00e-07	0	33	102	1048576	60	9570
2026-01-06 23:53:01.64	339.15	4.66	-45.2	-49.0	10.7	1.84e-03	0	33	102	1048576	60	13406
2026-01-06 23:53:05.69	339.08	4.37	-46.1	-51.9	6.7	1.33e-01	0	33	102	1048576	60	18583
2026-01-06 23:53:09.73	339.01	4.10	-46.4	-55.9	4.4	1.01e+00	4	33	104	1048576	60	29561
2026-01-06 23:53:13.77	338.95	3.82	-46.6	-59.6	3.5	1.51e+00	0	33	104	1048576	60	45021
2026-01-06 23:53:17.81	338.89	3.55	-46.5	-59.2	3.5	1.52e+00	0	33	104	1048576	60	43165
2026-01-06 23:53:21.86	338.82	3.28	-46.5	-59.6	3.5	1.52e+00	0	33	104	1048576	60	45066
2026-01-06 23:53:25.90	338.76	3.01	-50.7	-63.7	3.5	1.52e+00	0	33	104	1048576	60	72878
2026-01-06 23:53:29.93	338.71	2.75	-51.6	-64.6	3.5	1.52e+00	0	33	104	1048576	60	80695
2026-01-06 23:53:33.97	338.65	2.49	-51.7	-64.7	3.5	1.52e+00	0	33	104	1048576	60	81475
2026-01-06 23:53:38.00	338.59	2.23	-51.5	-64.6	3.5	1.52e+00	0	33	104	1048576	60	80533
2026-01-06 23:53:42.04	338.54	1.97	-51.6	-64.7	3.5	1.51e+00	0	33	104	1048576	60	80979
2026-01-06 23:53:46.07	338.49	1.72	-51.6	-64.6	3.5	1.51e+00	0	33	104	1048576	60	80495
2026-01-06 23:53:50.11	338.43	1.47	-51.5	-64.6	3.5	1.52e+00	0	33	104	1048576	60	80413
2026-01-06 23:53:54.14	338.38	1.22	-51.5	-64.6	3.5	1.52e+00	0	33	104	1048576	60	80024
2026-01-06 23:53:58.18	338.33	0.97	-51.5	-64.6	3.5	1.52e+00	0	33	104	1048576	60	80242
2026-01-06 23:54:02.21	338.28	0.72	-51.5	-64.5	3.5	1.52e+00	0	33	104	1048576	60	79900
2026-01-06 23:54:06.25	338.24	0.48	-51.5	-64.6	3.5	1.51e+00	0	33	104	1048576	60	80557
2026-01-06 23:54:10.28	338.19	0.24	-51.5	-64.6	3.5	1.52e+00	0	33	104	1048576	60	80240
2026-01-06 23:54:14.61	338.14	-0.02	-51.5	-64.6	3.5	1.52e+00	0	33	104	1048576	60	80330

#Closed at: 2026-01-06 23:54:15
#Recorded file [1 MB]: D:/lorett/data/35034_260107_023854.dat