passes_logs/2026/01/06/R4.6S_Anadyr_2ch/R4.6S_Anadyr_2ch__20260106_013834_NOAA_21_JPSS-2_rec.log

#Pass ID: 20260106_013834_NOAA 21 (JPSS-2)
#Satellite: NOAA 21 (JPSS-2)
#Configuration: NOAA-21
#almurnet v.1.7.20251203
#Start time: 2026-01-06 01:38:35

#Version: 2.2.20231116
#Station: R4.6S_Anadyr_2ch
#Location: 177.4865 lon 64.73178 lat
#TLE: 1 54234U 22150A   25350.97269056  .00000057  00000+0  47676-4 0  9992
#TLE: 2 54234  98.7466 287.2282 0002043  29.8355 330.2937 14.19525482160692

#Time	Az	El	Level	Level2	SNR	BER	BlckErr	Temp	State	Recorded	gain1	gain2
2026-01-06 01:38:35.46	192.78	0.08	-46.8	-63.8	3.5	3.02e+01	0	29	0	0	60	80529
2026-01-06 01:38:39.51	192.97	0.31	-51.1	-64.3	3.5	1.52e+00	0	30	104	0	60	78016
2026-01-06 01:38:43.55	193.16	0.54	-51.3	-64.3	3.5	1.52e+00	0	30	104	0	60	77880
2026-01-06 01:38:47.59	193.35	0.77	-50.8	-63.9	3.5	1.52e+00	0	30	104	0	60	73977
2026-01-06 01:38:51.64	193.55	1.00	-49.9	-62.9	3.5	1.52e+00	0	31	104	0	60	65859
2026-01-06 01:38:55.68	193.75	1.24	-49.9	-62.8	3.5	1.52e+00	0	31	104	0	60	65728
2026-01-06 01:38:59.72	193.95	1.47	-49.9	-62.9	3.5	1.52e+00	0	31	104	0	60	66046
2026-01-06 01:39:03.77	194.15	1.71	-49.9	-62.8	3.5	1.51e+00	0	31	104	0	60	65430
2026-01-06 01:39:07.81	194.36	1.95	-49.9	-62.8	3.5	1.52e+00	0	31	104	0	60	65262
2026-01-06 01:39:11.86	194.57	2.19	-49.9	-62.9	3.5	1.52e+00	0	31	104	0	60	65812
2026-01-06 01:39:15.90	194.79	2.43	-49.9	-62.9	3.5	1.52e+00	0	31	104	0	60	66084
2026-01-06 01:39:19.94	195.00	2.68	-49.8	-61.2	3.5	1.51e+00	0	31	104	0	60	54311
2026-01-06 01:39:23.99	195.23	2.93	-49.5	-58.7	4.6	1.47e+00	100	31	104	0	60	40741
2026-01-06 01:39:28.03	195.45	3.17	-44.7	-46.9	15.5	0.00e+00	123	31	102	1048576	60	10422
2026-01-06 01:39:32.08	195.68	3.43	-42.8	-44.3	17.8	0.00e+00	122	31	102	1048576	60	7806
2026-01-06 01:39:36.12	195.91	3.68	-47.8	-51.8	8.9	3.80e-06	123	31	0	1048576	60	18349
2026-01-06 01:39:40.17	196.14	3.93	-42.0	-43.4	18.9	0.00e+00	123	31	0	1048576	60	6975
2026-01-06 01:39:44.21	196.38	4.19	-41.4	-42.7	19.4	0.00e+00	123	31	0	1048576	60	6488
2026-01-06 01:39:48.25	196.63	4.45	-40.7	-41.9	20.4	0.00e+00	123	31	101	1048576	60	5868
2026-01-06 01:39:52.29	196.87	4.71	-40.6	-41.8	20.4	0.00e+00	123	31	101	1048576	60	5821
2026-01-06 01:39:56.34	197.13	4.97	-39.9	-41.1	21.1	0.00e+00	121	31	101	1048576	58	6013
2026-01-06 01:40:00.38	197.38	5.24	-39.8	-41.0	21.3	0.00e+00	120	31	101	1048576	58	5931
2026-01-06 01:40:04.43	197.64	5.50	-39.9	-41.0	21.3	0.00e+00	120	31	101	1048576	58	5975
2026-01-06 01:40:08.47	197.91	5.77	-39.9	-41.0	21.3	0.00e+00	122	31	101	1048576	58	5942
2026-01-06 01:40:12.51	198.18	6.04	-39.6	-40.7	21.6	0.00e+00	120	31	101	1048576	58	5782
2026-01-06 01:40:16.56	198.45	6.32	-39.5	-40.6	21.8	0.00e+00	122	31	101	1048576	58	5710
2026-01-06 01:40:20.60	198.73	6.60	-39.5	-40.6	21.8	0.00e+00	120	31	101	1048576	58	5700
2026-01-06 01:40:24.64	199.02	6.87	-39.5	-40.5	21.8	0.00e+00	123	31	101	1048576	58	5632
2026-01-06 01:40:28.69	199.31	7.16	-39.2	-40.2	22.1	0.00e+00	122	31	101	1048576	56	6109
2026-01-06 01:40:32.73	199.60	7.44	-38.9	-40.0	22.3	0.00e+00	123	31	101	1048576	56	5940
2026-01-06 01:40:36.78	199.90	7.73	-39.0	-40.0	22.4	0.00e+00	123	31	101	1048576	56	5961
2026-01-06 01:40:40.82	200.21	8.02	-38.9	-39.9	22.5	0.00e+00	123	31	101	1048576	56	5914
2026-01-06 01:40:44.87	200.52	8.31	-38.8	-39.8	22.6	0.00e+00	122	31	101	1048576	56	5810
2026-01-06 01:40:48.91	200.84	8.60	-38.7	-39.7	22.7	0.00e+00	123	32	101	1048576	56	5760
2026-01-06 01:40:52.95	201.16	8.90	-38.6	-39.6	22.9	0.00e+00	120	31	101	1048576	56	5679
2026-01-06 01:40:56.99	201.49	9.20	-38.6	-39.6	22.8	0.00e+00	123	31	101	1048576	56	5717
2026-01-06 01:41:01.04	201.83	9.50	-38.5	-39.4	23.0	0.00e+00	123	32	101	1048576	56	5579
2026-01-06 01:41:05.08	202.17	9.81	-38.6	-39.6	22.9	0.00e+00	120	32	101	1048576	56	5684
2026-01-06 01:41:09.12	202.53	10.12	-38.3	-39.3	23.1	0.00e+00	122	32	101	1048576	56	5484
2026-01-06 01:41:13.16	202.88	10.43	-38.4	-39.3	23.2	0.00e+00	123	32	101	1048576	56	5530
2026-01-06 01:41:17.21	203.25	10.74	-38.3	-39.2	23.2	0.00e+00	120	32	101	1048576	54	6134
2026-01-06 01:41:21.25	203.62	11.06	-38.1	-39.0	23.4	0.00e+00	123	32	101	1048576	54	5991
2026-01-06 01:41:25.30	204.00	11.38	-38.1	-39.1	23.2	0.00e+00	122	32	101	1048576	54	6009
2026-01-06 01:41:29.34	204.39	11.71	-37.7	-38.7	23.6	0.00e+00	122	32	101	1048576	54	5755
2026-01-06 01:41:33.39	204.79	12.03	-37.7	-38.7	23.7	0.00e+00	122	32	101	1048576	54	5738
2026-01-06 01:41:37.43	205.20	12.36	-37.5	-38.5	23.8	0.00e+00	123	32	101	1048576	54	5611
2026-01-06 01:41:41.47	205.61	12.70	-37.5	-38.5	23.9	0.00e+00	122	32	101	1048576	54	5625
2026-01-06 01:41:45.52	206.04	13.03	-37.4	-38.3	23.9	0.00e+00	122	32	101	1048576	54	5528
2026-01-06 01:41:49.56	206.47	13.37	-37.5	-38.4	23.8	0.00e+00	123	32	101	1048576	54	5567
2026-01-06 01:41:53.60	206.91	13.72	-37.5	-38.4	23.8	0.00e+00	122	32	101	1048576	54	5582
2026-01-06 01:41:57.64	207.36	14.06	-37.5	-38.4	23.9	0.00e+00	120	32	101	1048576	54	5563
2026-01-06 01:42:01.68	207.83	14.41	-37.3	-38.3	24.0	0.00e+00	120	32	101	1048576	54	5481
2026-01-06 01:42:05.73	208.30	14.77	-37.4	-38.4	23.9	0.00e+00	120	32	101	1048576	54	5540
2026-01-06 01:42:09.78	208.79	15.12	-37.3	-38.2	24.1	0.00e+00	120	32	101	1048576	54	5450
2026-01-06 01:42:13.82	209.29	15.48	-37.5	-38.4	23.9	0.00e+00	123	32	101	1048576	54	5574
2026-01-06 01:42:17.86	209.79	15.85	-37.5	-38.5	23.9	0.00e+00	123	32	101	1048576	54	5624
2026-01-06 01:42:21.91	210.31	16.21	-37.5	-38.4	24.0	0.00e+00	123	32	101	1048576	54	5557
2026-01-06 01:42:25.95	210.85	16.58	-37.4	-38.4	24.0	0.00e+00	120	32	101	1048576	54	5539
2026-01-06 01:42:29.99	211.39	16.96	-37.4	-38.3	24.0	0.00e+00	123	32	101	1048576	54	5515
2026-01-06 01:42:34.04	211.95	17.33	-37.4	-38.4	24.0	0.00e+00	123	32	101	1048576	54	5545
2026-01-06 01:42:38.08	212.52	17.71	-37.3	-38.2	24.1	0.00e+00	123	32	101	1048576	52	6109
2026-01-06 01:42:42.12	213.11	18.10	-37.3	-38.2	24.1	0.00e+00	123	32	101	1048576	52	6100
2026-01-06 01:42:46.16	213.71	18.48	-37.1	-38.0	24.2	0.00e+00	123	32	101	1048576	52	5989
2026-01-06 01:42:50.21	214.33	18.87	-37.0	-37.9	24.4	0.00e+00	122	32	101	1048576	52	5907
2026-01-06 01:42:54.25	214.96	19.26	-37.0	-37.9	24.4	0.00e+00	122	32	101	1048576	52	5865
2026-01-06 01:42:58.29	215.61	19.66	-37.0	-38.0	24.3	0.00e+00	122	32	101	1048576	52	5943
2026-01-06 01:43:02.33	216.27	20.05	-36.5	-37.4	24.7	0.00e+00	122	32	101	1048576	52	5585
2026-01-06 01:43:06.38	216.95	20.46	-36.5	-37.4	24.6	0.00e+00	123	32	101	1048576	52	5582
2026-01-06 01:43:10.42	217.65	20.86	-36.3	-37.2	24.7	0.00e+00	122	32	101	1048576	52	5464
2026-01-06 01:43:14.46	218.37	21.26	-36.1	-37.0	25.0	0.00e+00	123	32	101	1048576	50	5963
2026-01-06 01:43:18.50	219.10	21.67	-36.1	-37.0	24.9	0.00e+00	123	32	101	1048576	50	5936
2026-01-06 01:43:22.55	219.86	22.08	-35.8	-36.6	25.3	0.00e+00	122	32	101	1048576	50	5723
2026-01-06 01:43:26.59	220.63	22.48	-35.7	-36.5	25.2	0.00e+00	127	32	101	1048576	50	5650
2026-01-06 01:43:30.63	221.42	22.89	-35.8	-36.7	25.2	0.00e+00	122	32	101	1048576	50	5757
2026-01-06 01:43:34.68	222.24	23.31	-35.9	-36.8	25.1	0.00e+00	123	32	101	1048576	50	5802
2026-01-06 01:43:38.72	223.07	23.72	-35.8	-36.7	25.2	0.00e+00	123	32	101	1048576	50	5740
2026-01-06 01:43:42.77	223.93	24.13	-35.7	-36.6	25.3	0.00e+00	122	32	101	1048576	50	5681
2026-01-06 01:43:46.81	224.81	24.54	-35.9	-36.7	25.2	0.00e+00	122	32	101	1048576	50	5790
2026-01-06 01:43:50.85	225.71	24.95	-36.1	-36.9	25.1	0.00e+00	123	32	101	1048576	50	5920
2026-01-06 01:43:54.90	226.64	25.36	-36.2	-37.1	25.0	0.00e+00	122	32	101	1048576	50	6008
2026-01-06 01:43:58.94	227.59	25.77	-36.6	-37.5	24.6	0.00e+00	123	32	101	1048576	50	6334
2026-01-06 01:44:02.98	228.56	26.18	-36.7	-37.6	24.6	0.00e+00	122	32	101	1048576	50	6421
2026-01-06 01:44:07.03	229.56	26.58	-36.4	-37.3	24.9	0.00e+00	123	32	101	1048576	50	6166
2026-01-06 01:44:11.07	230.58	26.98	-36.6	-37.5	24.7	0.00e+00	123	32	101	1048576	50	6344
2026-01-06 01:44:15.12	231.63	27.38	-36.9	-37.8	24.5	0.00e+00	120	32	101	1048576	50	6521
2026-01-06 01:44:19.16	232.70	27.77	-36.7	-37.6	24.7	0.00e+00	123	32	101	1048576	50	6369
2026-01-06 01:44:23.20	233.80	28.16	-36.7	-37.6	24.6	0.00e+00	122	32	101	1048576	50	6406
2026-01-06 01:44:27.25	234.93	28.54	-37.0	-37.9	24.4	0.00e+00	123	32	101	1048576	50	6582
2026-01-06 01:44:31.29	236.08	28.91	-36.9	-37.8	24.5	0.00e+00	122	32	101	1048576	50	6542
2026-01-06 01:44:35.34	237.25	29.28	-36.9	-37.8	24.4	0.00e+00	123	32	101	1048576	50	6541
2026-01-06 01:44:39.38	238.46	29.63	-37.0	-37.9	24.5	0.00e+00	122	32	101	1048576	50	6612
2026-01-06 01:44:43.42	239.69	29.98	-36.6	-37.5	24.7	0.00e+00	122	32	101	1048576	50	6296
2026-01-06 01:44:47.47	240.94	30.32	-36.5	-37.4	24.8	0.00e+00	123	32	101	1048576	50	6258
2026-01-06 01:44:51.51	242.22	30.64	-36.4	-37.3	24.9	0.00e+00	122	32	101	1048576	50	6180
2026-01-06 01:44:55.55	243.53	30.96	-36.9	-37.8	24.5	0.00e+00	122	32	101	1048576	50	6570
2026-01-06 01:44:59.60	244.86	31.26	-36.6	-37.5	24.7	0.00e+00	122	32	101	1048576	50	6294
2026-01-06 01:45:03.64	246.21	31.54	-37.5	-38.4	24.0	0.00e+00	121	32	101	1048576	52	6259
2026-01-06 01:45:07.69	247.59	31.82	-37.1	-38.0	24.2	0.00e+00	123	32	101	1048576	52	5973
2026-01-06 01:45:11.73	248.99	32.07	-37.5	-38.5	24.0	0.00e+00	121	32	101	1048576	52	6279
2026-01-06 01:45:15.78	250.41	32.31	-37.8	-38.7	23.6	0.00e+00	120	32	101	1048576	52	6487
2026-01-06 01:45:19.82	251.85	32.53	-37.5	-38.4	24.1	0.00e+00	123	32	101	1048576	52	6256
2026-01-06 01:45:23.86	253.31	32.73	-37.2	-38.1	24.3	0.00e+00	123	32	101	1048576	52	6061
2026-01-06 01:45:27.91	254.78	32.92	-36.9	-37.7	24.6	0.00e+00	123	32	101	1048576	52	5787
2026-01-06 01:45:31.95	256.27	33.08	-37.4	-38.3	24.2	0.00e+00	123	32	101	1048576	52	6173
2026-01-06 01:45:35.99	257.78	33.22	-37.5	-38.5	24.1	0.00e+00	122	32	101	1048576	52	6293
2026-01-06 01:45:40.04	259.30	33.35	-37.5	-38.4	24.1	0.00e+00	122	32	101	1048576	52	6245
2026-01-06 01:45:44.08	260.82	33.45	-37.4	-38.3	24.2	0.00e+00	123	32	101	1048576	52	6182
2026-01-06 01:45:48.12	262.35	33.53	-37.3	-38.2	24.2	0.00e+00	123	32	101	1048576	52	6123
2026-01-06 01:45:52.17	263.90	33.58	-37.8	-38.7	23.9	0.00e+00	122	32	101	1048576	52	6470
2026-01-06 01:45:56.21	265.44	33.61	-37.5	-38.4	24.1	0.00e+00	123	32	101	1048576	52	6263
2026-01-06 01:46:00.26	266.99	33.62	-37.5	-38.4	23.9	0.00e+00	120	32	101	1048576	52	6227
2026-01-06 01:46:04.30	268.53	33.61	-38.1	-39.1	23.6	0.00e+00	123	32	101	1048576	54	5996
2026-01-06 01:46:08.34	270.08	33.58	-37.9	-38.8	23.7	0.00e+00	123	32	101	1048576	54	5841
2026-01-06 01:46:12.39	271.62	33.52	-37.4	-38.3	24.1	0.00e+00	123	32	101	1048576	54	5474
2026-01-06 01:46:16.43	273.15	33.44	-37.2	-38.1	24.3	0.00e+00	123	32	101	1048576	52	6043
2026-01-06 01:46:20.48	274.67	33.34	-37.5	-38.4	24.1	0.00e+00	123	32	101	1048576	52	6250
2026-01-06 01:46:24.52	276.19	33.21	-37.9	-38.8	23.7	0.00e+00	122	32	101	1048576	52	6551
2026-01-06 01:46:28.56	277.69	33.07	-37.7	-38.6	24.0	0.00e+00	122	32	101	1048576	52	6387
2026-01-06 01:46:32.61	279.18	32.90	-37.4	-38.3	24.2	0.00e+00	123	32	101	1048576	52	6170
2026-01-06 01:46:36.65	280.65	32.72	-37.5	-38.4	24.1	0.00e+00	123	32	101	1048576	52	6252
2026-01-06 01:46:40.69	282.10	32.52	-37.6	-38.5	23.9	0.00e+00	122	32	101	1048576	52	6346
2026-01-06 01:46:44.74	283.54	32.29	-37.1	-38.1	24.1	0.00e+00	122	32	101	1048576	52	6016
2026-01-06 01:46:48.78	284.95	32.06	-37.3	-38.2	24.2	0.00e+00	123	32	101	1048576	52	6089
2026-01-06 01:46:52.83	286.35	31.80	-37.1	-38.0	24.2	0.00e+00	120	32	101	1048576	52	5971
2026-01-06 01:46:56.87	287.72	31.53	-37.4	-38.3	24.1	0.00e+00	123	32	101	1048576	52	6192
2026-01-06 01:47:00.91	289.06	31.24	-37.0	-37.8	24.5	0.00e+00	120	32	101	1048576	52	5847
2026-01-06 01:47:04.96	290.39	30.94	-37.0	-37.9	24.3	0.00e+00	122	32	101	1048576	52	5911
2026-01-06 01:47:09.00	291.69	30.63	-37.1	-38.0	24.4	0.00e+00	122	32	101	1048576	52	5959
2026-01-06 01:47:13.05	292.96	30.30	-36.7	-37.6	24.7	0.00e+00	123	32	101	1048576	52	5688
2026-01-06 01:47:17.09	294.21	29.97	-36.8	-37.7	24.6	0.00e+00	123	32	101	1048576	52	5764
2026-01-06 01:47:21.13	295.43	29.62	-36.9	-37.8	24.5	0.00e+00	123	32	101	1048576	52	5847
2026-01-06 01:47:25.18	296.63	29.26	-36.5	-37.4	24.7	0.00e+00	122	32	101	1048576	52	5534
2026-01-06 01:47:29.22	297.80	28.90	-36.8	-37.7	24.6	0.00e+00	123	32	101	1048576	52	5764
2026-01-06 01:47:33.26	298.95	28.53	-36.4	-37.3	24.8	0.00e+00	122	32	101	1048576	52	5476
2026-01-06 01:47:37.31	300.07	28.15	-36.0	-36.9	25.1	0.00e+00	123	32	101	1048576	50	5880
2026-01-06 01:47:41.35	301.16	27.77	-35.9	-36.8	25.1	0.00e+00	123	32	101	1048576	50	5839
2026-01-06 01:47:45.40	302.23	27.38	-36.2	-37.1	24.8	0.00e+00	123	32	101	1048576	50	6012
2026-01-06 01:47:49.44	303.27	26.98	-35.8	-36.7	25.3	0.00e+00	122	32	101	1048576	50	5741
2026-01-06 01:47:53.48	304.28	26.59	-35.8	-36.7	25.3	0.00e+00	123	32	101	1048576	50	5741
2026-01-06 01:47:57.52	305.28	26.19	-36.2	-37.1	24.9	0.00e+00	123	32	101	1048576	50	6042
2026-01-06 01:48:01.57	306.25	25.78	-35.9	-36.7	25.2	0.00e+00	122	32	101	1048576	50	5783
2026-01-06 01:48:05.61	307.19	25.38	-35.8	-36.7	25.2	0.00e+00	123	32	101	1048576	50	5740
2026-01-06 01:48:09.66	308.11	24.97	-35.9	-36.7	25.1	0.00e+00	120	32	101	1048576	50	5791
2026-01-06 01:48:13.70	309.01	24.56	-36.1	-37.0	25.0	0.00e+00	123	32	101	1048576	50	5976
2026-01-06 01:48:17.74	309.88	24.15	-36.3	-37.1	24.9	0.00e+00	123	32	101	1048576	50	6062
2026-01-06 01:48:21.79	310.73	23.74	-36.4	-37.2	24.8	0.00e+00	123	32	101	1048576	50	6133
2026-01-06 01:48:25.83	311.56	23.33	-36.4	-37.3	24.7	0.00e+00	123	32	101	1048576	50	6156
2026-01-06 01:48:29.87	312.37	22.93	-36.2	-37.1	24.8	0.00e+00	123	32	101	1048576	50	6046
2026-01-06 01:48:33.92	313.16	22.52	-36.2	-37.1	24.9	0.00e+00	122	32	101	1048576	50	5995
2026-01-06 01:48:37.96	313.93	22.11	-36.1	-37.0	25.0	0.00e+00	123	32	101	1048576	50	5945
2026-01-06 01:48:42.00	314.68	21.71	-36.2	-37.0	24.9	0.00e+00	122	32	101	1048576	50	5985
2026-01-06 01:48:46.05	315.42	21.30	-36.4	-37.3	24.7	0.00e+00	122	32	101	1048576	50	6167
2026-01-06 01:48:50.09	316.13	20.90	-36.8	-37.7	24.5	0.00e+00	122	32	101	1048576	50	6474
2026-01-06 01:48:54.14	316.83	20.50	-36.9	-37.9	24.2	0.00e+00	123	32	101	1048576	52	5862
2026-01-06 01:48:58.18	317.50	20.11	-36.8	-37.7	24.6	0.00e+00	122	32	101	1048576	52	5791
2026-01-06 01:49:02.22	318.16	19.71	-36.3	-37.2	24.9	0.00e+00	123	32	101	1048576	52	5418
2026-01-06 01:49:06.27	318.81	19.32	-36.1	-37.0	24.9	0.00e+00	123	32	101	1048576	50	5946
2026-01-06 01:49:10.31	319.44	18.93	-36.2	-37.0	24.9	0.00e+00	120	32	101	1048576	50	5989
2026-01-06 01:49:14.35	320.05	18.55	-36.1	-37.0	24.9	0.00e+00	121	32	101	1048576	50	5963
2026-01-06 01:49:18.39	320.65	18.16	-36.2	-37.1	24.8	0.00e+00	120	32	101	1048576	50	6051
2026-01-06 01:49:22.44	321.24	17.78	-36.4	-37.3	24.6	0.00e+00	122	32	101	1048576	50	6150
2026-01-06 01:49:26.48	321.81	17.41	-36.4	-37.3	24.6	0.00e+00	123	32	101	1048576	50	6194
2026-01-06 01:49:30.52	322.37	17.03	-36.8	-37.7	24.2	0.00e+00	123	32	101	1048576	50	6436
2026-01-06 01:49:34.57	322.91	16.66	-36.8	-37.7	24.4	0.00e+00	122	32	101	1048576	50	6458
2026-01-06 01:49:38.61	323.44	16.30	-37.1	-38.0	24.2	0.00e+00	123	32	101	1048576	50	6669
2026-01-06 01:49:42.65	323.96	15.93	-37.2	-38.1	24.1	0.00e+00	122	32	101	1048576	52	6043
2026-01-06 01:49:46.70	324.47	15.57	-37.5	-38.5	23.7	0.00e+00	122	32	101	1048576	52	6298
2026-01-06 01:49:50.74	324.96	15.22	-37.6	-38.6	23.8	0.00e+00	122	32	101	1048576	52	6384
2026-01-06 01:49:54.79	325.45	14.86	-37.9	-38.9	23.4	0.00e+00	122	32	101	1048576	52	6607
2026-01-06 01:49:58.83	325.92	14.51	-37.9	-38.8	23.5	0.00e+00	123	32	101	1048576	52	6572
2026-01-06 01:50:02.87	326.39	14.16	-37.7	-38.7	23.6	0.00e+00	122	32	101	1048576	52	6437
2026-01-06 01:50:06.91	326.84	13.82	-37.8	-38.7	23.5	0.00e+00	120	32	101	1048576	52	6494
2026-01-06 01:50:10.96	327.28	13.48	-38.1	-39.1	23.2	0.00e+00	122	32	101	1048576	52	6754
2026-01-06 01:50:15.00	327.71	13.14	-38.0	-39.0	23.3	0.00e+00	123	32	101	1048576	54	5966
2026-01-06 01:50:19.04	328.14	12.81	-37.9	-38.9	23.4	0.00e+00	122	32	101	1048576	54	5868
2026-01-06 01:50:23.09	328.55	12.48	-37.8	-38.8	23.3	0.00e+00	123	32	101	1048576	54	5816
2026-01-06 01:50:27.13	328.96	12.15	-37.9	-38.9	23.4	0.00e+00	123	32	101	1048576	54	5872
2026-01-06 01:50:31.17	329.36	11.83	-38.0	-39.0	23.2	0.00e+00	123	32	101	1048576	54	5948
2026-01-06 01:50:35.22	329.75	11.50	-38.1	-39.1	23.1	0.00e+00	122	32	101	1048576	54	6033
2026-01-06 01:50:39.26	330.13	11.19	-38.2	-39.2	23.0	0.00e+00	120	32	101	1048576	54	6081
2026-01-06 01:50:43.30	330.50	10.87	-38.2	-39.2	23.0	0.00e+00	122	32	101	1048576	54	6074
2026-01-06 01:50:47.34	330.87	10.56	-38.2	-39.2	22.9	0.00e+00	123	32	101	1048576	54	6127
2026-01-06 01:50:51.39	331.23	10.25	-38.1	-39.1	23.1	0.00e+00	122	32	101	1048576	54	6029
2026-01-06 01:50:55.43	331.58	9.94	-38.2	-39.2	23.0	0.00e+00	123	32	101	1048576	54	6122
2026-01-06 01:50:59.48	331.93	9.64	-38.0	-39.0	23.1	0.00e+00	122	32	101	1048576	54	5964
2026-01-06 01:51:03.52	332.27	9.34	-38.0	-39.0	23.0	0.00e+00	123	32	101	1048576	54	5959
2026-01-06 01:51:07.57	332.60	9.04	-38.1	-39.0	23.0	0.00e+00	123	32	101	1048576	54	5983
2026-01-06 01:51:11.61	332.92	8.75	-38.4	-39.5	22.7	0.00e+00	123	32	101	1048576	54	6285
2026-01-06 01:51:15.66	333.24	8.45	-38.7	-39.7	22.4	0.00e+00	120	32	101	1048576	54	6454
2026-01-06 01:51:19.70	333.56	8.16	-38.8	-39.9	22.2	0.00e+00	121	32	101	1048576	54	6575
2026-01-06 01:51:23.74	333.86	7.88	-39.0	-40.0	22.1	0.00e+00	122	32	101	1048576	54	6699
2026-01-06 01:51:27.79	334.17	7.59	-39.2	-40.3	21.8	0.00e+00	122	32	101	1048576	56	6167
2026-01-06 01:51:31.83	334.46	7.31	-39.3	-40.3	21.7	0.00e+00	123	32	101	1048576	56	6204
2026-01-06 01:51:35.88	334.76	7.03	-39.0	-40.1	21.8	0.00e+00	123	32	101	1048576	56	6037
2026-01-06 01:51:39.92	335.04	6.75	-39.2	-40.3	21.7	0.00e+00	122	32	101	1048576	56	6136
2026-01-06 01:51:43.96	335.32	6.48	-39.5	-40.6	21.3	0.00e+00	122	32	101	1048576	56	6371
2026-01-06 01:51:48.01	335.60	6.21	-40.0	-41.2	20.6	0.00e+00	123	32	101	1048576	56	6819
2026-01-06 01:51:52.05	335.87	5.94	-40.7	-42.0	19.7	0.00e+00	122	32	101	1048576	58	6684
2026-01-06 01:51:56.10	336.14	5.67	-41.4	-42.9	18.2	0.00e+00	122	32	101	1048576	60	6647
2026-01-06 01:52:00.14	336.40	5.40	-42.7	-44.7	15.9	0.00e+00	123	32	101	1048576	60	8131
2026-01-06 01:52:04.18	336.66	5.14	-43.7	-46.4	13.5	9.10e-06	120	32	101	1048576	60	9858
2026-01-06 01:52:08.23	336.92	4.88	-44.7	-48.5	10.6	2.58e-03	121	32	101	1048576	60	12636
2026-01-06 01:52:12.27	337.17	4.62	-45.4	-50.5	8.0	4.72e-02	122	32	101	1048576	60	15774
2026-01-06 01:52:16.32	337.41	4.36	-45.8	-53.4	5.8	1.26e+00	120	32	104	1048576	60	22200
2026-01-06 01:52:20.36	337.65	4.11	-46.0	-55.5	4.3	1.21e+00	67	32	104	1048576	60	28207
2026-01-06 01:52:24.40	337.89	3.86	-45.9	-58.8	3.5	1.52e+00	0	32	104	1048576	60	41188
2026-01-06 01:52:28.45	338.13	3.60	-46.2	-58.4	3.5	1.51e+00	0	32	104	1048576	60	39261
2026-01-06 01:52:32.49	338.36	3.36	-46.0	-58.9	3.5	1.52e+00	0	32	104	1048576	60	41603
2026-01-06 01:52:36.53	338.59	3.11	-46.1	-59.2	3.5	1.52e+00	0	32	104	1048576	60	42984
2026-01-06 01:52:40.57	338.81	2.86	-50.8	-63.9	3.5	1.52e+00	0	32	104	1048576	60	74048
2026-01-06 01:52:44.62	339.03	2.62	-51.2	-64.2	3.5	1.52e+00	0	32	104	1048576	60	77004
2026-01-06 01:52:48.66	339.25	2.38	-51.0	-64.2	3.5	1.52e+00	0	32	104	1048576	60	76838
2026-01-06 01:52:52.70	339.46	2.14	-51.2	-64.2	3.5	1.52e+00	0	32	104	1048576	60	76830
2026-01-06 01:52:56.75	339.67	1.90	-51.2	-64.2	3.5	1.52e+00	0	32	104	1048576	60	76552
2026-01-06 01:53:00.79	339.88	1.67	-51.1	-64.2	3.5	1.52e+00	0	32	104	1048576	60	76900
2026-01-06 01:53:04.84	340.09	1.43	-51.1	-64.2	3.5	1.52e+00	0	32	104	1048576	60	76547
2026-01-06 01:53:08.88	340.29	1.20	-51.1	-64.2	3.5	1.52e+00	0	32	104	1048576	60	76650
2026-01-06 01:53:12.93	340.49	0.97	-51.1	-64.1	3.5	1.52e+00	0	32	104	1048576	60	76132
2026-01-06 01:53:16.97	340.68	0.74	-51.1	-64.1	3.5	1.52e+00	0	32	104	1048576	60	76084
2026-01-06 01:53:21.01	340.88	0.51	-51.1	-64.1	3.5	1.51e+00	0	32	104	1048576	60	75973
2026-01-06 01:53:25.06	341.07	0.28	-51.1	-64.2	3.5	1.52e+00	0	32	104	1048576	60	76351
2026-01-06 01:53:29.10	341.26	0.06	-51.1	-64.1	3.5	1.52e+00	0	32	104	1048576	60	76248

#Closed at: 2026-01-06 01:53:30
#Recorded file [1 MB]: D:/lorett/data/35034_260106_043835.dat