passes_logs/2026/01/06/R4.6S_Anadyr_2ch/R4.6S_Anadyr_2ch__20260106_202031_FENGYUN_3E_rec.log

#Pass ID: 20260106_202031_FENGYUN 3E
#Satellite: FENGYUN 3E
#Configuration: FENGYUN 3E
#almurnet v.1.7.20251203
#Start time: 2026-01-06 20:20:33

#Version: 2.2.20231116
#Station: R4.6S_Anadyr_2ch
#Location: 177.4865 lon 64.73178 lat
#TLE: 1 49008U 21062A   25350.97288215  .00000176  00000+0  10353-3 0  9997
#TLE: 2 49008  98.7477 351.4440 0000638 234.3856 125.7261 14.19881381230726

#Time	Az	El	Level	Level2	SNR	BER	BlckErr	Temp	State	Recorded	gain1	gain2
2026-01-06 20:20:33.61	24.39	0.15	-50.7	-68.5	3.5	3.02e+01	0	28	0	0	60	137977
2026-01-06 20:20:37.65	24.26	0.38	-50.9	-62.4	3.6	8.45e-01	0	30	104	0	60	65029
2026-01-06 20:20:41.69	24.13	0.62	-51.0	-62.5	3.6	8.44e-01	0	30	104	0	60	65988
2026-01-06 20:20:45.73	24.00	0.86	-50.7	-62.5	3.6	8.45e-01	0	30	104	0	60	66007
2026-01-06 20:20:49.77	23.87	1.10	-50.5	-62.1	3.6	8.46e-01	0	30	104	0	60	62640
2026-01-06 20:20:53.81	23.73	1.34	-49.5	-60.9	3.6	8.45e-01	0	30	104	0	60	54887
2026-01-06 20:20:57.86	23.59	1.59	-49.5	-60.9	3.6	8.45e-01	0	30	104	0	60	54949
2026-01-06 20:21:01.90	23.45	1.83	-49.5	-60.9	3.6	8.46e-01	0	30	104	0	60	54918
2026-01-06 20:21:05.94	23.30	2.08	-49.5	-60.9	3.6	8.46e-01	0	30	104	0	60	54873
2026-01-06 20:21:09.98	23.16	2.33	-49.4	-60.4	3.6	8.45e-01	0	31	104	0	60	51611
2026-01-06 20:21:14.02	23.01	2.58	-49.5	-60.9	3.6	8.44e-01	0	31	104	0	60	54843
2026-01-06 20:21:18.06	22.85	2.84	-49.5	-60.7	3.6	8.45e-01	0	31	104	0	60	53759
2026-01-06 20:21:22.10	22.70	3.09	-49.4	-60.1	3.6	8.46e-01	0	31	104	0	60	49906
2026-01-06 20:21:26.13	22.54	3.35	-49.5	-60.9	3.6	8.45e-01	0	31	104	0	60	54450
2026-01-06 20:21:30.18	22.38	3.61	-48.4	-53.6	5.6	7.24e-01	0	31	0	0	60	23680
2026-01-06 20:21:34.22	22.21	3.88	-46.5	-49.2	10.3	6.90e-03	0	31	102	1048576	60	14218
2026-01-06 20:21:38.25	22.04	4.14	-49.2	-58.3	3.6	8.45e-01	0	31	104	1048576	60	40599
2026-01-06 20:21:42.30	21.87	4.41	-39.6	-40.5	19.6	0.00e+00	0	31	0	1048576	58	5877
2026-01-06 20:21:46.33	21.70	4.68	-37.7	-38.5	21.5	0.00e+00	0	31	101	1048576	54	5850
2026-01-06 20:21:50.37	21.52	4.95	-37.7	-38.4	21.6	0.00e+00	0	31	101	1048576	54	5817
2026-01-06 20:21:54.41	21.34	5.23	-37.5	-38.2	21.8	0.00e+00	0	31	101	1048576	54	5681
2026-01-06 20:21:58.45	21.15	5.50	-36.7	-37.4	22.7	0.00e+00	0	31	101	1048576	52	5819
2026-01-06 20:22:02.49	20.96	5.78	-36.6	-37.3	22.9	0.00e+00	0	31	101	1048576	52	5716
2026-01-06 20:22:06.53	20.76	6.07	-36.5	-37.3	23.0	0.00e+00	0	31	101	1048576	52	5704
2026-01-06 20:22:10.57	20.57	6.35	-36.9	-37.6	22.6	0.00e+00	0	31	101	1048576	52	5944
2026-01-06 20:22:14.61	20.36	6.64	-36.4	-37.2	23.0	0.00e+00	0	31	101	1048576	52	5635
2026-01-06 20:22:18.65	20.16	6.93	-36.5	-37.2	23.2	0.00e+00	0	31	101	1048576	52	5648
2026-01-06 20:22:22.68	19.94	7.23	-36.3	-37.0	23.3	0.00e+00	0	31	101	1048576	52	5560
2026-01-06 20:22:26.72	19.73	7.53	-36.2	-36.9	23.5	0.00e+00	0	31	101	1048576	52	5493
2026-01-06 20:22:30.76	19.51	7.83	-36.2	-36.9	23.5	0.00e+00	0	31	101	1048576	52	5464
2026-01-06 20:22:34.79	19.28	8.13	-35.8	-36.5	23.9	0.00e+00	0	31	101	1048576	50	5843
2026-01-06 20:22:38.83	19.05	8.44	-35.8	-36.5	23.9	0.00e+00	0	31	101	1048576	50	5871
2026-01-06 20:22:42.87	18.81	8.75	-35.9	-36.6	23.8	0.00e+00	0	31	101	1048576	50	5938
2026-01-06 20:22:46.92	18.57	9.06	-35.8	-36.5	24.0	0.00e+00	0	31	101	1048576	50	5860
2026-01-06 20:22:50.96	18.32	9.38	-35.5	-36.2	24.3	0.00e+00	0	31	101	1048576	50	5659
2026-01-06 20:22:54.99	18.07	9.70	-35.3	-36.0	24.5	0.00e+00	0	31	101	1048576	50	5523
2026-01-06 20:22:59.03	17.81	10.02	-35.3	-36.0	24.4	0.00e+00	0	31	101	1048576	50	5541
2026-01-06 20:23:03.07	17.54	10.35	-35.2	-35.9	24.5	0.00e+00	0	31	101	1048576	50	5472
2026-01-06 20:23:07.11	17.27	10.68	-35.0	-35.7	24.6	0.00e+00	0	31	101	1048576	50	5331
2026-01-06 20:23:11.15	16.99	11.02	-35.0	-35.7	24.8	0.00e+00	0	31	101	1048576	48	5984
2026-01-06 20:23:15.19	16.71	11.36	-35.0	-35.7	24.8	0.00e+00	0	31	101	1048576	48	5975
2026-01-06 20:23:19.23	16.41	11.70	-34.8	-35.4	25.0	0.00e+00	0	31	101	1048576	48	5824
2026-01-06 20:23:23.27	16.11	12.05	-34.5	-35.1	25.3	0.00e+00	0	31	101	1048576	48	5615
2026-01-06 20:23:27.31	15.81	12.40	-34.5	-35.1	25.4	0.00e+00	0	31	101	1048576	48	5595
2026-01-06 20:23:31.34	15.49	12.75	-34.3	-34.9	25.4	0.00e+00	0	31	101	1048576	48	5487
2026-01-06 20:23:35.38	15.17	13.11	-34.2	-34.8	25.6	0.00e+00	0	31	101	1048576	48	5427
2026-01-06 20:23:39.41	14.84	13.48	-34.1	-34.8	25.6	0.00e+00	0	31	101	1048576	46	6056
2026-01-06 20:23:43.45	14.50	13.85	-33.9	-34.5	25.8	0.00e+00	0	31	101	1048576	46	5877
2026-01-06 20:23:47.49	14.15	14.22	-33.9	-34.5	25.9	0.00e+00	0	31	101	1048576	46	5887
2026-01-06 20:23:51.53	13.79	14.60	-33.8	-34.5	25.9	0.00e+00	0	31	101	1048576	46	5835
2026-01-06 20:23:55.57	13.42	14.98	-33.7	-34.4	26.1	0.00e+00	0	31	101	1048576	46	5765
2026-01-06 20:23:59.61	13.04	15.37	-33.8	-34.4	26.1	0.00e+00	0	31	101	1048576	46	5822
2026-01-06 20:24:03.64	12.65	15.76	-33.6	-34.3	26.2	0.00e+00	0	31	101	1048576	46	5711
2026-01-06 20:24:07.68	12.25	16.16	-34.1	-34.7	26.0	0.00e+00	0	31	101	1048576	46	5991
2026-01-06 20:24:11.98	11.81	16.59	-33.7	-34.3	26.1	0.00e+00	0	31	101	1048576	46	5729
2026-01-06 20:24:16.02	11.39	17.00	-33.6	-34.2	26.2	0.00e+00	0	31	101	1048576	46	5672
2026-01-06 20:24:20.05	10.95	17.41	-33.5	-34.1	26.4	0.00e+00	0	31	101	1048576	46	5579
2026-01-06 20:24:24.08	10.51	17.83	-33.4	-34.0	26.5	0.00e+00	0	31	101	1048576	46	5522
2026-01-06 20:24:28.11	10.05	18.25	-33.2	-33.8	26.5	0.00e+00	0	31	101	1048576	46	5439
2026-01-06 20:24:32.15	9.57	18.68	-33.3	-33.9	26.5	0.00e+00	0	31	101	1048576	44	6148
2026-01-06 20:24:36.19	9.08	19.11	-33.3	-33.9	26.7	0.00e+00	0	31	101	1048576	44	6135
2026-01-06 20:24:40.23	8.58	19.55	-33.0	-33.6	26.7	0.00e+00	0	31	101	1048576	44	5923
2026-01-06 20:24:44.27	8.06	20.00	-32.8	-33.4	27.0	0.00e+00	0	31	101	1048576	44	5769
2026-01-06 20:24:48.31	7.52	20.45	-32.5	-33.1	27.2	0.00e+00	0	31	101	1048576	44	5614
2026-01-06 20:24:52.34	6.97	20.91	-32.2	-32.8	27.6	0.00e+00	0	31	101	1048576	42	6052
2026-01-06 20:24:56.38	6.41	21.37	-32.2	-32.8	27.5	0.00e+00	0	31	101	1048576	42	6073
2026-01-06 20:25:00.42	5.82	21.84	-32.3	-32.9	27.4	0.00e+00	0	31	101	1048576	42	6172
2026-01-06 20:25:04.46	5.22	22.31	-32.4	-33.0	27.4	0.00e+00	0	31	101	1048576	42	6229
2026-01-06 20:25:08.49	4.59	22.79	-32.2	-32.8	27.7	0.00e+00	0	31	101	1048576	42	6099
2026-01-06 20:25:12.53	3.95	23.27	-31.8	-32.5	27.8	0.00e+00	0	31	101	1048576	42	5831
2026-01-06 20:25:16.57	3.28	23.76	-31.7	-32.3	27.9	0.00e+00	0	31	101	1048576	42	5756
2026-01-06 20:25:20.60	2.60	24.25	-32.0	-32.6	27.7	0.00e+00	0	31	101	1048576	42	5952
2026-01-06 20:25:24.64	1.89	24.75	-32.1	-32.7	27.6	0.00e+00	0	31	101	1048576	42	5995
2026-01-06 20:25:28.68	1.16	25.25	-32.0	-32.7	27.6	0.00e+00	0	31	101	1048576	42	5974
2026-01-06 20:25:32.71	0.41	25.76	-31.9	-32.5	27.8	0.00e+00	0	31	101	1048576	42	5851
2026-01-06 20:25:36.76	359.62	26.27	-31.8	-32.4	27.9	0.00e+00	0	31	101	1048576	42	5762
2026-01-06 20:25:40.80	358.82	26.78	-31.9	-32.5	27.8	0.00e+00	0	31	101	1048576	42	5846
2026-01-06 20:25:44.84	357.98	27.30	-32.0	-32.6	27.7	0.00e+00	0	31	101	1048576	42	5954
2026-01-06 20:25:48.87	357.12	27.82	-32.1	-32.7	27.7	0.00e+00	0	31	101	1048576	42	6014
2026-01-06 20:25:52.91	356.23	28.34	-32.1	-32.7	27.6	0.00e+00	0	31	101	1048576	42	5989
2026-01-06 20:25:56.95	355.31	28.87	-32.0	-32.6	27.7	0.00e+00	0	31	101	1048576	42	5923
2026-01-06 20:26:00.99	354.36	29.39	-31.7	-32.3	27.9	0.00e+00	0	31	101	1048576	42	5718
2026-01-06 20:26:05.02	353.37	29.92	-31.7	-32.2	28.0	0.00e+00	0	31	101	1048576	42	5695
2026-01-06 20:26:09.06	352.36	30.45	-31.2	-31.8	28.3	0.00e+00	0	31	101	1048576	42	5392
2026-01-06 20:26:13.10	351.31	30.97	-31.1	-31.7	28.1	0.00e+00	0	31	101	1048576	40	6006
2026-01-06 20:26:17.14	350.22	31.50	-31.1	-31.7	28.4	0.00e+00	0	31	101	1048576	40	6023
2026-01-06 20:26:21.17	349.10	32.01	-31.1	-31.7	28.1	0.00e+00	0	31	101	1048576	40	6010
2026-01-06 20:26:25.21	347.94	32.53	-31.4	-32.0	28.2	0.00e+00	0	31	101	1048576	40	6233
2026-01-06 20:26:29.25	346.74	33.04	-31.7	-32.3	28.0	0.00e+00	0	31	101	1048576	40	6432
2026-01-06 20:26:33.29	345.51	33.55	-31.9	-32.5	27.9	0.00e+00	0	31	101	1048576	40	6597
2026-01-06 20:26:37.33	344.23	34.05	-31.9	-32.5	27.8	0.00e+00	0	31	101	1048576	42	5893
2026-01-06 20:26:41.37	342.92	34.54	-31.3	-31.9	28.3	0.00e+00	0	31	101	1048576	42	5488
2026-01-06 20:26:45.41	341.56	35.02	-31.2	-31.8	28.4	0.00e+00	0	31	101	1048576	40	6069
2026-01-06 20:26:49.45	340.17	35.49	-30.9	-31.5	28.6	0.00e+00	0	31	101	1048576	40	5864
2026-01-06 20:26:53.49	338.73	35.94	-31.3	-31.9	28.3	0.00e+00	0	31	101	1048576	40	6157
2026-01-06 20:26:57.53	337.25	36.38	-31.7	-32.3	28.0	0.00e+00	0	31	101	1048576	40	6400
2026-01-06 20:27:01.56	335.74	36.80	-31.7	-32.3	28.0	0.00e+00	0	31	101	1048576	40	6436
2026-01-06 20:27:05.60	334.19	37.21	-31.8	-32.4	28.0	0.00e+00	0	31	101	1048576	40	6478
2026-01-06 20:27:09.64	332.59	37.59	-31.5	-32.1	28.2	0.00e+00	0	31	101	1048576	40	6288
2026-01-06 20:27:13.67	330.96	37.95	-31.5	-32.1	28.1	0.00e+00	0	31	101	1048576	40	6296
2026-01-06 20:27:17.71	329.30	38.29	-31.7	-32.2	28.1	0.00e+00	0	31	101	1048576	40	6389
2026-01-06 20:27:21.75	327.60	38.61	-31.7	-32.3	28.0	0.00e+00	0	31	101	1048576	40	6426
2026-01-06 20:27:25.79	325.86	38.90	-31.8	-32.3	28.1	0.00e+00	0	31	101	1048576	40	6462
2026-01-06 20:27:29.83	324.10	39.16	-31.6	-32.2	28.1	0.00e+00	0	31	101	1048576	40	6363
2026-01-06 20:27:33.87	322.31	39.39	-31.7	-32.3	28.2	0.00e+00	0	31	101	1048576	40	6432
2026-01-06 20:27:37.91	320.49	39.59	-31.7	-32.3	28.0	0.00e+00	0	32	101	1048576	40	6423
2026-01-06 20:27:41.95	318.66	39.75	-31.7	-32.3	28.1	0.00e+00	0	31	101	1048576	40	6408
2026-01-06 20:27:45.99	316.81	39.89	-31.7	-32.3	28.0	0.00e+00	0	32	101	1048576	40	6452
2026-01-06 20:27:50.02	314.95	39.99	-31.5	-32.1	28.1	0.00e+00	0	31	101	1048576	40	6301
2026-01-06 20:27:54.06	313.07	40.05	-31.8	-32.4	27.9	0.00e+00	0	31	101	1048576	40	6472
2026-01-06 20:27:58.10	311.19	40.08	-32.0	-32.6	27.8	0.00e+00	0	31	101	1048576	40	6630
2026-01-06 20:28:02.14	309.30	40.08	-31.5	-32.1	28.2	0.00e+00	0	31	101	1048576	40	6259
2026-01-06 20:28:06.17	307.43	40.04	-31.3	-31.9	28.4	0.00e+00	0	31	101	1048576	40	6133
2026-01-06 20:28:10.21	305.55	39.97	-31.7	-32.3	28.0	0.00e+00	0	31	101	1048576	40	6446
2026-01-06 20:28:14.24	303.69	39.86	-31.5	-32.1	28.2	0.00e+00	0	31	101	1048576	40	6296
2026-01-06 20:28:18.28	301.84	39.71	-31.8	-32.5	27.6	0.00e+00	0	32	101	1048576	40	6544
2026-01-06 20:28:22.32	300.01	39.54	-31.2	-31.8	28.2	0.00e+00	0	32	101	1048576	40	6063
2026-01-06 20:28:26.35	298.21	39.33	-32.0	-32.6	27.8	0.00e+00	0	31	101	1048576	40	6672
2026-01-06 20:28:30.39	296.42	39.09	-31.7	-32.3	28.0	0.00e+00	0	31	101	1048576	42	5735
2026-01-06 20:28:34.43	294.66	38.83	-31.9	-32.5	28.0	0.00e+00	0	32	101	1048576	42	5880
2026-01-06 20:28:38.46	292.94	38.53	-31.2	-31.8	28.5	0.00e+00	0	31	101	1048576	42	5382
2026-01-06 20:28:42.50	291.24	38.21	-31.7	-32.3	28.0	0.00e+00	0	31	101	1048576	42	5712
2026-01-06 20:28:46.54	289.58	37.86	-31.6	-32.2	28.2	0.00e+00	0	31	101	1048576	42	5672
2026-01-06 20:28:50.58	287.96	37.49	-31.1	-31.7	28.4	0.00e+00	0	31	101	1048576	40	5979
2026-01-06 20:28:54.62	286.37	37.10	-31.4	-32.0	28.3	0.00e+00	0	31	101	1048576	40	6203
2026-01-06 20:28:58.66	284.82	36.69	-31.3	-31.9	28.4	0.00e+00	0	31	101	1048576	40	6129
2026-01-06 20:29:02.70	283.31	36.26	-31.2	-31.8	28.5	0.00e+00	0	31	101	1048576	40	6075
2026-01-06 20:29:06.74	281.84	35.82	-31.5	-32.0	28.3	0.00e+00	0	31	101	1048576	40	6242
2026-01-06 20:29:10.78	280.41	35.36	-31.7	-32.3	28.1	0.00e+00	0	31	101	1048576	40	6395
2026-01-06 20:29:14.82	279.02	34.89	-31.6	-32.2	28.2	0.00e+00	0	31	101	1048576	40	6371
2026-01-06 20:29:18.86	277.67	34.40	-31.4	-32.0	28.4	0.00e+00	0	32	101	1048576	40	6215
2026-01-06 20:29:22.89	276.37	33.91	-31.6	-32.2	28.1	0.00e+00	0	32	101	1048576	40	6347
2026-01-06 20:29:26.93	275.10	33.41	-31.3	-31.9	28.4	0.00e+00	0	32	101	1048576	40	6124
2026-01-06 20:29:30.97	273.87	32.90	-31.6	-32.2	28.1	0.00e+00	0	32	101	1048576	40	6358
2026-01-06 20:29:35.00	272.68	32.39	-31.6	-32.2	28.1	0.00e+00	0	32	101	1048576	40	6366
2026-01-06 20:29:39.04	271.53	31.87	-31.1	-31.7	28.4	0.00e+00	0	31	101	1048576	40	5987
2026-01-06 20:29:43.08	270.41	31.34	-31.3	-31.9	28.4	0.00e+00	0	31	101	1048576	40	6158
2026-01-06 20:29:47.12	269.33	30.82	-31.4	-32.0	28.2	0.00e+00	0	31	101	1048576	40	6203
2026-01-06 20:29:51.16	268.28	30.29	-31.6	-32.2	28.0	0.00e+00	0	32	101	1048576	40	6340
2026-01-06 20:29:55.20	267.27	29.76	-31.4	-32.3	23.8	0.00e+00	0	31	101	1048576	40	6404
2026-01-06 20:29:59.23	266.29	29.23	-31.5	-32.3	23.8	0.00e+00	0	32	101	1048576	40	6427
2026-01-06 20:30:03.27	265.35	28.70	-31.4	-32.1	23.8	0.00e+00	0	32	101	1048576	40	6317
2026-01-06 20:30:07.31	264.43	28.18	-31.6	-32.4	23.9	0.00e+00	0	31	101	1048576	40	6535
2026-01-06 20:30:11.35	263.54	27.65	-31.4	-32.2	24.1	0.00e+00	0	32	101	1048576	40	6376
2026-01-06 20:30:15.38	262.69	27.13	-31.8	-32.6	23.8	0.00e+00	0	32	101	1048576	42	5950
2026-01-06 20:30:19.42	261.86	26.61	-32.1	-32.9	23.6	0.00e+00	0	32	101	1048576	42	6145
2026-01-06 20:30:23.46	261.05	26.10	-31.8	-32.7	23.8	0.00e+00	0	31	101	1048576	42	5972
2026-01-06 20:30:27.50	260.27	25.59	-31.7	-32.6	23.7	0.00e+00	0	31	101	1048576	42	5899
2026-01-06 20:30:31.53	259.52	25.08	-31.7	-32.5	23.8	0.00e+00	0	31	101	1048576	42	5885
2026-01-06 20:30:35.57	258.79	24.58	-31.7	-32.5	23.7	0.00e+00	0	31	101	1048576	42	5855
2026-01-06 20:30:39.61	258.09	24.08	-31.9	-32.7	23.4	0.00e+00	0	31	101	1048576	42	5990
2026-01-06 20:30:43.65	257.41	23.58	-31.6	-32.4	23.9	0.00e+00	0	32	101	1048576	42	5790
2026-01-06 20:30:47.69	256.74	23.09	-32.0	-32.8	23.9	0.00e+00	0	31	101	1048576	42	6039
2026-01-06 20:30:51.72	256.10	22.61	-32.1	-32.9	23.5	0.00e+00	0	32	101	1048576	42	6170
2026-01-06 20:30:55.76	255.48	22.13	-31.9	-32.7	23.9	0.00e+00	0	31	101	1048576	42	5993
2026-01-06 20:30:59.79	254.88	21.66	-32.0	-32.8	23.7	0.00e+00	0	31	101	1048576	42	6053
2026-01-06 20:31:03.83	254.30	21.19	-31.9	-32.7	23.8	0.00e+00	0	32	101	1048576	42	5966
2026-01-06 20:31:07.87	253.73	20.73	-32.2	-33.0	23.6	0.00e+00	0	31	101	1048576	42	6241
2026-01-06 20:31:11.90	253.18	20.27	-32.1	-33.0	23.9	0.00e+00	0	32	101	1048576	42	6177
2026-01-06 20:31:15.93	252.65	19.82	-32.0	-32.7	24.1	0.00e+00	0	32	101	1048576	42	6026
2026-01-06 20:31:19.97	252.13	19.38	-32.3	-33.1	23.9	0.00e+00	0	31	101	1048576	42	6274
2026-01-06 20:31:24.00	251.63	18.94	-32.8	-33.6	23.3	0.00e+00	0	31	101	1048576	42	6680
2026-01-06 20:31:28.03	251.14	18.51	-32.9	-33.8	23.2	0.00e+00	0	32	101	1048576	44	6036
2026-01-06 20:31:32.07	250.67	18.08	-33.0	-33.9	23.3	0.00e+00	0	32	101	1048576	44	6105
2026-01-06 20:31:36.10	250.21	17.65	-33.2	-34.1	23.2	0.00e+00	0	32	101	1048576	44	6265
2026-01-06 20:31:40.13	249.76	17.23	-33.2	-34.1	23.3	0.00e+00	0	31	101	1048576	44	6255
2026-01-06 20:31:44.17	249.33	16.82	-33.1	-34.0	23.5	0.00e+00	0	32	101	1048576	44	6175
2026-01-06 20:31:48.20	248.90	16.41	-33.1	-33.9	23.4	0.00e+00	0	32	101	1048576	44	6165
2026-01-06 20:31:52.23	248.49	16.01	-33.4	-34.2	23.4	0.00e+00	0	32	101	1048576	44	6369
2026-01-06 20:31:56.27	248.09	15.61	-33.4	-34.3	23.4	0.00e+00	0	32	101	1048576	44	6402
2026-01-06 20:32:00.31	247.70	15.22	-33.7	-34.6	23.2	0.00e+00	0	32	101	1048576	44	6618
2026-01-06 20:32:04.35	247.32	14.83	-34.0	-34.8	23.0	0.00e+00	0	32	101	1048576	44	6819
2026-01-06 20:32:08.38	246.95	14.45	-34.2	-35.0	22.9	0.00e+00	0	32	101	1048576	46	6212
2026-01-06 20:32:12.42	246.59	14.07	-34.1	-35.0	23.0	0.00e+00	0	32	101	1048576	46	6183
2026-01-06 20:32:16.46	246.24	13.70	-34.1	-35.0	23.0	0.00e+00	0	32	101	1048576	46	6174
2026-01-06 20:32:20.49	245.90	13.33	-34.3	-35.1	22.8	0.00e+00	0	32	101	1048576	46	6302
2026-01-06 20:32:24.53	245.57	12.96	-34.6	-35.4	22.5	0.00e+00	0	32	101	1048576	46	6522
2026-01-06 20:32:28.56	245.24	12.60	-34.9	-35.8	22.3	0.00e+00	0	32	101	1048576	46	6838
2026-01-06 20:32:32.60	244.93	12.25	-35.1	-36.0	22.0	0.00e+00	0	32	101	1048576	48	6193
2026-01-06 20:32:36.64	244.62	11.90	-35.1	-36.0	22.1	0.00e+00	0	32	101	1048576	48	6222
2026-01-06 20:32:40.67	244.32	11.55	-35.0	-35.9	22.2	0.00e+00	0	32	101	1048576	48	6166
2026-01-06 20:32:44.71	244.02	11.20	-35.0	-35.9	22.3	0.00e+00	0	32	101	1048576	48	6141
2026-01-06 20:32:48.75	243.73	10.87	-35.3	-36.2	22.1	0.00e+00	0	32	101	1048576	48	6374
2026-01-06 20:32:52.79	243.45	10.53	-35.7	-36.6	21.9	0.00e+00	0	32	101	1048576	48	6661
2026-01-06 20:32:56.83	243.18	10.20	-36.3	-37.0	23.6	0.00e+00	0	32	101	1048576	50	6204
2026-01-06 20:33:00.86	242.91	9.87	-36.7	-37.4	23.1	0.00e+00	0	32	101	1048576	50	6538
2026-01-06 20:33:04.90	242.65	9.55	-37.2	-38.0	22.6	0.00e+00	0	32	101	1048576	52	6194
2026-01-06 20:33:08.94	242.40	9.23	-37.8	-38.5	22.1	0.00e+00	0	32	101	1048576	52	6602
2026-01-06 20:33:12.98	242.15	8.91	-38.3	-39.1	21.4	0.00e+00	0	32	101	1048576	54	6296
2026-01-06 20:33:17.02	241.90	8.59	-38.9	-39.7	20.8	0.00e+00	0	32	101	1048576	54	6735
2026-01-06 20:33:21.05	241.67	8.28	-39.5	-40.4	20.1	0.00e+00	0	32	101	1048576	56	6531
2026-01-06 20:33:25.09	241.43	7.98	-40.1	-41.0	19.6	0.00e+00	0	32	101	1048576	56	6953
2026-01-06 20:33:29.13	241.20	7.67	-40.5	-41.5	19.1	0.00e+00	0	32	101	1048576	58	6581
2026-01-06 20:33:33.17	240.98	7.37	-41.2	-42.3	18.4	0.00e+00	0	32	101	1048576	60	6395
2026-01-06 20:33:37.21	240.76	7.08	-41.6	-42.8	17.7	0.00e+00	0	32	101	1048576	60	6796
2026-01-06 20:33:41.25	240.55	6.78	-42.0	-43.4	17.1	0.00e+00	0	32	101	1048576	60	7257
2026-01-06 20:33:45.29	240.34	6.49	-42.7	-44.1	16.2	0.00e+00	0	32	101	1048576	60	7949
2026-01-06 20:33:49.33	240.13	6.20	-43.5	-45.0	15.3	0.00e+00	0	32	101	1048576	60	8798
2026-01-06 20:33:53.37	239.93	5.91	-43.7	-46.0	14.2	0.00e+00	0	32	101	1048576	60	9846
2026-01-06 20:33:57.41	239.74	5.63	-44.3	-47.1	13.0	2.86e-05	0	32	101	1048576	60	11117
2026-01-06 20:34:01.44	239.54	5.35	-45.3	-48.3	11.6	4.28e-04	0	32	101	1048576	60	12777
2026-01-06 20:34:05.48	239.35	5.07	-45.9	-49.3	10.3	3.53e-03	0	32	101	1048576	60	14314
2026-01-06 20:34:09.51	239.17	4.80	-46.1	-50.2	9.2	1.72e-02	0	32	101	1048576	60	15916
2026-01-06 20:34:13.55	238.99	4.53	-46.6	-51.0	8.2	4.91e-02	0	32	101	1048576	60	17410
2026-01-06 20:34:17.59	238.81	4.26	-47.5	-51.9	7.0	1.28e-01	0	32	101	1048576	60	19404
2026-01-06 20:34:21.63	238.64	3.99	-47.9	-52.8	5.8	3.12e-01	0	32	101	1048576	60	21627
2026-01-06 20:34:25.67	238.46	3.72	-47.8	-53.8	4.8	7.59e-01	0	32	101	1048576	60	24179
2026-01-06 20:34:29.71	238.30	3.46	-47.7	-55.0	4.1	8.22e-01	0	32	101	1048576	60	27642
2026-01-06 20:34:33.75	238.13	3.20	-48.4	-57.4	3.9	8.42e-01	0	32	104	1048576	60	36632
2026-01-06 20:34:37.79	237.97	2.94	-48.2	-58.3	3.7	8.44e-01	0	32	104	1048576	60	40481
2026-01-06 20:34:41.83	237.81	2.68	-48.9	-59.7	3.6	8.45e-01	0	32	104	1048576	60	47888
2026-01-06 20:34:45.87	237.66	2.43	-51.1	-62.5	3.6	8.45e-01	0	32	104	1048576	60	65885
2026-01-06 20:34:49.90	237.50	2.18	-51.2	-62.6	3.6	8.45e-01	0	32	104	1048576	60	66413
2026-01-06 20:34:53.95	237.35	1.93	-50.9	-62.5	3.6	8.46e-01	0	32	104	1048576	60	66008
2026-01-06 20:34:57.98	237.21	1.68	-51.0	-62.5	3.6	8.45e-01	0	32	104	1048576	60	65456
2026-01-06 20:35:02.02	237.06	1.43	-51.0	-62.5	3.6	8.45e-01	0	32	104	1048576	60	65635
2026-01-06 20:35:06.06	236.92	1.19	-51.0	-62.5	3.6	8.45e-01	0	32	104	1048576	60	65406
2026-01-06 20:35:10.09	236.78	0.95	-51.0	-62.5	3.6	8.44e-01	0	32	104	1048576	60	65498
2026-01-06 20:35:14.13	236.64	0.70	-51.0	-62.4	3.6	8.44e-01	0	32	104	1048576	60	65177
2026-01-06 20:35:18.17	236.51	0.47	-51.0	-62.5	3.6	8.46e-01	0	32	104	1048576	60	65544
2026-01-06 20:35:22.21	236.38	0.23	-51.0	-62.4	3.6	8.46e-01	0	32	104	1048576	60	65317
2026-01-06 20:35:26.24	236.25	-0.01	-51.0	-62.5	3.6	8.45e-01	0	32	104	1048576	60	65636

#Closed at: 2026-01-06 20:35:28
#Recorded file [1 MB]: D:/lorett/data/35034_260106_232033.dat