passes_logs/2026/01/06/R4.6S_Anadyr_2ch/R4.6S_Anadyr_2ch__20260106_143345_NOAA_20_JPSS-1_rec.log

#Pass ID: 20260106_143345_NOAA 20 (JPSS-1)
#Satellite: NOAA 20 (JPSS-1)
#Configuration: NOAA 20
#almurnet v.1.7.20251203
#Start time: 2026-01-06 14:33:48

#Version: 2.2.20231116
#Station: R4.6S_Anadyr_2ch
#Location: 177.4865 lon 64.73178 lat
#TLE: 1 43013U 17073A   25350.93759711  .00000080  00000+0  58734-4 0  9994
#TLE: 2 43013  98.7603 287.1885 0002156  81.1496 278.9924 14.19526878418610

#Time	Az	El	Level	Level2	SNR	BER	BlckErr	Temp	State	Recorded	gain1	gain2
2026-01-06 14:33:48.85	20.22	0.20	-51.3	-65.2	3.3	1.54e+00	0	32	0	0	60	88608
2026-01-06 14:33:52.88	20.25	0.44	-51.4	-66.7	3.5	1.51e+00	0	32	104	0	60	105541
2026-01-06 14:33:56.93	20.29	0.69	-51.2	-66.5	3.6	1.51e+00	0	32	104	0	60	103001
2026-01-06 14:34:00.97	20.33	0.94	-50.5	-65.8	3.6	1.51e+00	0	32	104	0	60	95238
2026-01-06 14:34:05.02	20.37	1.19	-49.9	-65.2	3.6	1.51e+00	0	32	104	0	60	88723
2026-01-06 14:34:09.06	20.41	1.44	-49.9	-65.0	3.6	1.51e+00	0	32	104	0	60	87184
2026-01-06 14:34:13.10	20.44	1.69	-49.9	-65.1	3.5	1.51e+00	0	32	104	0	60	88045
2026-01-06 14:34:17.15	20.48	1.95	-49.9	-65.3	3.6	1.51e+00	0	32	104	0	60	89450
2026-01-06 14:34:21.19	20.52	2.20	-49.9	-64.9	3.6	1.51e+00	0	33	104	0	60	85748
2026-01-06 14:34:25.23	20.56	2.46	-49.8	-63.4	3.6	1.51e+00	0	33	104	0	60	72125
2026-01-06 14:34:29.28	20.60	2.73	-49.8	-62.8	3.7	1.51e+00	0	33	104	0	60	67593
2026-01-06 14:34:33.32	20.64	2.99	-48.9	-55.0	8.4	1.43e-01	0	33	102	1048576	60	27491
2026-01-06 14:34:37.36	20.69	3.26	-47.1	-50.4	13.7	6.80e-06	0	33	102	1048576	60	16201
2026-01-06 14:34:41.40	20.73	3.53	-47.2	-50.7	13.5	6.10e-06	0	33	102	1048576	60	16717
2026-01-06 14:34:45.45	20.77	3.80	-47.5	-51.0	14.5	4.61e-02	0	33	102	1048576	60	17343
2026-01-06 14:34:49.49	20.81	4.08	-45.3	-47.5	14.8	5.06e-01	0	33	104	1048576	60	11576
2026-01-06 14:34:53.54	20.85	4.36	-44.5	-46.3	18.1	0.00e+00	0	33	0	1048576	60	10112
2026-01-06 14:34:57.58	20.90	4.64	-44.5	-46.4	18.3	0.00e+00	0	33	0	1048576	60	10136
2026-01-06 14:35:01.63	20.94	4.92	-43.3	-44.8	19.8	0.00e+00	0	33	0	1048576	60	8468
2026-01-06 14:35:05.67	20.99	5.21	-43.3	-44.8	19.8	0.00e+00	0	33	0	1048576	60	8463
2026-01-06 14:35:09.71	21.03	5.50	-43.0	-44.4	20.2	0.00e+00	0	33	101	1048576	60	8098
2026-01-06 14:35:13.75	21.08	5.80	-42.9	-44.3	20.4	0.00e+00	0	33	101	1048576	60	7971
2026-01-06 14:35:17.79	21.12	6.09	-42.9	-44.3	20.3	0.00e+00	0	33	101	1048576	60	7984
2026-01-06 14:35:21.84	21.17	6.39	-43.2	-44.6	20.1	0.00e+00	0	33	101	1048576	60	8285
2026-01-06 14:35:25.88	21.22	6.70	-42.7	-44.0	20.8	0.00e+00	0	33	101	1048576	60	7734
2026-01-06 14:35:29.92	21.26	7.01	-42.5	-43.7	21.0	0.00e+00	0	33	101	1048576	60	7495
2026-01-06 14:35:33.97	21.31	7.32	-42.5	-43.7	21.1	0.00e+00	0	33	101	1048576	60	7446
2026-01-06 14:35:38.01	21.36	7.63	-42.2	-43.3	21.5	0.00e+00	0	33	101	1048576	60	7167
2026-01-06 14:35:42.05	21.41	7.95	-42.0	-43.2	21.5	0.00e+00	0	33	101	1048576	60	7043
2026-01-06 14:35:46.09	21.46	8.28	-42.1	-43.2	21.6	0.00e+00	0	33	101	1048576	60	7074
2026-01-06 14:35:50.13	21.51	8.60	-41.9	-43.0	21.8	0.00e+00	0	33	101	1048576	60	6899
2026-01-06 14:35:54.18	21.56	8.94	-41.8	-42.9	22.0	0.00e+00	0	33	101	1048576	60	6846
2026-01-06 14:35:58.22	21.62	9.27	-41.6	-42.7	22.2	0.00e+00	0	33	101	1048576	60	6650
2026-01-06 14:36:02.26	21.67	9.61	-41.7	-42.8	22.1	0.00e+00	0	33	101	1048576	60	6720
2026-01-06 14:36:06.30	21.72	9.96	-41.4	-42.5	22.4	0.00e+00	0	33	101	1048576	60	6484
2026-01-06 14:36:10.34	21.78	10.31	-41.6	-42.6	22.3	0.00e+00	0	33	101	1048576	60	6597
2026-01-06 14:36:14.39	21.84	10.66	-41.2	-42.3	22.6	0.00e+00	0	33	101	1048576	60	6323
2026-01-06 14:36:18.43	21.89	11.03	-41.3	-42.4	22.5	0.00e+00	0	33	101	1048576	60	6413
2026-01-06 14:36:22.47	21.95	11.39	-41.6	-42.6	22.5	0.00e+00	0	33	101	1048576	60	6600
2026-01-06 14:36:26.51	22.01	11.76	-41.0	-42.0	22.9	0.00e+00	0	33	101	1048576	60	6131
2026-01-06 14:36:30.55	22.07	12.14	-41.0	-42.0	22.9	0.00e+00	0	33	101	1048576	60	6155
2026-01-06 14:36:34.59	22.13	12.52	-40.8	-41.8	23.1	0.00e+00	0	33	101	1048576	60	6004
2026-01-06 14:36:38.63	22.19	12.91	-40.9	-41.8	23.1	0.00e+00	0	33	101	1048576	60	6024
2026-01-06 14:36:42.67	22.26	13.31	-40.7	-41.6	23.4	0.00e+00	0	33	101	1048576	60	5874
2026-01-06 14:36:46.71	22.32	13.71	-40.6	-41.6	23.3	0.00e+00	0	33	101	1048576	60	5859
2026-01-06 14:36:50.75	22.39	14.12	-40.6	-41.5	23.4	0.00e+00	0	33	101	1048576	60	5828
2026-01-06 14:36:54.79	22.46	14.54	-40.6	-41.5	23.5	0.00e+00	0	33	101	1048576	60	5823
2026-01-06 14:36:58.84	22.53	14.96	-40.7	-41.6	23.4	0.00e+00	0	33	101	1048576	60	5855
2026-01-06 14:37:02.88	22.60	15.39	-40.5	-41.4	23.6	0.00e+00	0	33	101	1048576	60	5751
2026-01-06 14:37:06.92	22.67	15.83	-40.5	-41.4	23.6	0.00e+00	0	33	101	1048576	60	5760
2026-01-06 14:37:10.96	22.74	16.28	-40.6	-41.5	23.6	0.00e+00	0	33	101	1048576	60	5801
2026-01-06 14:37:15.00	22.82	16.73	-40.5	-41.4	23.6	0.00e+00	0	33	101	1048576	60	5723
2026-01-06 14:37:19.04	22.89	17.19	-40.8	-41.7	23.3	0.00e+00	0	33	101	1048576	60	5960
2026-01-06 14:37:23.09	22.97	17.67	-40.7	-41.6	23.4	0.00e+00	0	33	101	1048576	60	5866
2026-01-06 14:37:27.12	23.05	18.15	-40.8	-41.8	23.3	0.00e+00	0	33	101	1048576	60	6001
2026-01-06 14:37:31.16	23.14	18.64	-41.0	-41.9	23.3	0.00e+00	0	33	101	1048576	60	6083
2026-01-06 14:37:35.19	23.22	19.14	-41.1	-42.1	23.1	0.00e+00	0	33	101	1048576	60	6227
2026-01-06 14:37:39.22	23.31	19.65	-41.1	-42.1	23.1	0.00e+00	0	33	101	1048576	60	6200
2026-01-06 14:37:43.26	23.40	20.17	-41.2	-42.2	23.0	0.00e+00	0	33	101	1048576	60	6284
2026-01-06 14:37:47.30	23.49	20.70	-41.4	-42.4	22.9	0.00e+00	0	33	101	1048576	60	6410
2026-01-06 14:37:51.33	23.59	21.25	-41.5	-42.5	22.7	0.00e+00	0	33	101	1048576	60	6507
2026-01-06 14:37:55.37	23.69	21.80	-41.4	-42.5	22.8	0.00e+00	0	33	101	1048576	60	6471
2026-01-06 14:37:59.40	23.79	22.37	-41.5	-42.5	22.8	0.00e+00	0	33	101	1048576	60	6539
2026-01-06 14:38:03.42	23.89	22.95	-41.5	-42.5	22.8	0.00e+00	0	33	101	1048576	60	6531
2026-01-06 14:38:07.46	24.00	23.55	-41.7	-42.7	22.6	0.00e+00	0	33	101	1048576	60	6674
2026-01-06 14:38:11.50	24.11	24.16	-41.5	-42.5	22.8	0.00e+00	0	33	101	1048576	60	6483
2026-01-06 14:38:15.54	24.22	24.78	-41.3	-42.3	23.0	0.00e+00	0	33	101	1048576	60	6324
2026-01-06 14:38:19.58	24.34	25.42	-41.0	-42.0	23.2	0.00e+00	0	33	101	1048576	60	6132
2026-01-06 14:38:23.61	24.47	26.07	-41.2	-42.1	23.2	0.00e+00	0	33	101	1048576	60	6229
2026-01-06 14:38:27.64	24.59	26.74	-41.0	-42.0	23.3	0.00e+00	0	33	101	1048576	60	6114
2026-01-06 14:38:31.68	24.73	27.43	-41.2	-42.2	23.1	0.00e+00	0	33	101	1048576	60	6260
2026-01-06 14:38:35.71	24.86	28.13	-41.5	-42.5	22.8	0.00e+00	0	33	101	1048576	60	6500
2026-01-06 14:38:39.75	25.01	28.86	-41.7	-42.8	22.6	0.00e+00	0	33	101	1048576	60	6718
2026-01-06 14:38:43.78	25.15	29.60	-42.2	-43.3	22.1	0.00e+00	0	33	101	1048576	60	7109
2026-01-06 14:38:47.81	25.31	30.36	-42.6	-43.8	21.7	0.00e+00	0	33	101	1048576	60	7546
2026-01-06 14:38:51.84	25.47	31.14	-42.7	-43.8	21.6	0.00e+00	0	33	101	1048576	60	7553
2026-01-06 14:38:55.87	25.64	31.94	-42.8	-44.0	21.5	0.00e+00	0	33	101	1048576	60	7728
2026-01-06 14:38:59.91	25.82	32.77	-42.6	-43.7	21.8	0.00e+00	0	33	101	1048576	60	7473
2026-01-06 14:39:03.94	26.00	33.62	-41.9	-43.0	22.4	0.00e+00	0	33	101	1048576	60	6853
2026-01-06 14:39:07.98	26.20	34.49	-40.8	-41.7	23.5	0.00e+00	0	33	101	1048576	60	5951
2026-01-06 14:39:12.01	26.40	35.39	-40.5	-41.3	23.8	0.00e+00	0	33	101	1048576	60	5694
2026-01-06 14:39:16.05	26.62	36.32	-40.3	-41.2	24.0	0.00e+00	0	33	101	1048576	60	5572
2026-01-06 14:39:20.08	26.84	37.26	-40.0	-40.9	24.2	0.00e+00	0	33	101	1048576	58	6067
2026-01-06 14:39:24.12	27.08	38.24	-40.0	-40.9	24.2	0.00e+00	0	33	101	1048576	58	6075
2026-01-06 14:39:28.15	27.34	39.25	-40.8	-41.7	23.4	0.00e+00	0	33	101	1048576	58	6657
2026-01-06 14:39:32.18	27.61	40.29	-41.6	-42.6	22.8	0.00e+00	0	33	101	1048576	60	6551
2026-01-06 14:39:36.22	27.89	41.35	-41.6	-42.6	22.8	0.00e+00	0	33	101	1048576	60	6600
2026-01-06 14:39:40.25	28.20	42.45	-41.5	-42.5	22.9	0.00e+00	0	33	101	1048576	60	6538
2026-01-06 14:39:44.28	28.52	43.58	-40.8	-41.7	23.6	0.00e+00	0	33	101	1048576	60	5947
2026-01-06 14:39:48.32	28.87	44.75	-41.7	-42.8	22.6	0.00e+00	0	33	101	1048576	60	6706
2026-01-06 14:39:52.36	29.25	45.95	-42.7	-43.9	21.5	0.00e+00	0	33	101	1048576	60	7618
2026-01-06 14:39:56.39	29.65	47.18	-42.3	-43.4	22.1	0.00e+00	0	33	101	1048576	60	7206
2026-01-06 14:40:00.43	30.08	48.45	-42.0	-43.1	22.4	0.00e+00	0	33	101	1048576	60	6930
2026-01-06 14:40:04.46	30.56	49.76	-41.0	-41.9	23.5	0.00e+00	0	33	101	1048576	60	6074
2026-01-06 14:40:08.49	31.07	51.10	-39.2	-40.0	25.1	0.00e+00	0	33	101	1048576	58	5448
2026-01-06 14:40:12.53	31.63	52.48	-37.2	-37.9	26.6	0.00e+00	0	33	101	1048576	54	5404
2026-01-06 14:40:16.56	32.24	53.90	-37.0	-37.7	26.3	0.00e+00	0	33	101	1048576	52	5922
2026-01-06 14:40:20.60	32.92	55.35	-37.5	-38.2	26.4	0.00e+00	0	33	101	1048576	52	6272
2026-01-06 14:40:24.64	33.67	56.85	-38.5	-39.3	25.5	0.00e+00	0	33	101	1048576	54	6346
2026-01-06 14:40:28.67	34.51	58.37	-39.3	-40.1	25.0	0.00e+00	0	33	101	1048576	56	6216
2026-01-06 14:40:32.70	35.44	59.93	-38.5	-39.2	25.7	0.00e+00	0	33	101	1048576	56	5612
2026-01-06 14:40:36.74	36.50	61.52	-37.4	-38.1	26.3	0.00e+00	0	33	101	1048576	54	5560
2026-01-06 14:40:40.77	37.70	63.15	-38.4	-39.1	25.6	0.00e+00	0	33	101	1048576	54	6225
2026-01-06 14:40:44.81	39.07	64.80	-40.1	-40.9	24.2	0.00e+00	0	33	101	1048576	56	6847
2026-01-06 14:40:48.84	40.66	66.46	-41.1	-42.0	23.1	0.00e+00	0	33	101	1048576	60	6156
2026-01-06 14:40:52.88	42.52	68.15	-40.9	-41.9	23.4	0.00e+00	0	33	101	1048576	60	6064
2026-01-06 14:40:56.91	44.72	69.85	-40.3	-41.2	23.9	0.00e+00	0	33	101	1048576	58	6271
2026-01-06 14:41:00.95	47.35	71.54	-41.6	-42.6	22.7	0.00e+00	0	33	101	1048576	60	6587
2026-01-06 14:41:04.98	50.53	73.21	-42.8	-43.9	21.5	0.00e+00	0	33	101	1048576	60	7648
2026-01-06 14:41:09.02	54.45	74.85	-42.1	-43.1	22.2	0.00e+00	0	34	101	1048576	60	6983
2026-01-06 14:41:13.06	59.35	76.43	-43.9	-45.3	20.3	0.00e+00	0	33	101	1048576	60	8930
2026-01-06 14:41:17.10	65.52	77.90	-43.1	-44.3	21.3	0.00e+00	0	33	101	1048576	60	7981
2026-01-06 14:41:21.14	73.33	79.21	-41.8	-42.9	22.4	0.00e+00	0	33	101	1048576	60	6832
2026-01-06 14:41:25.18	83.12	80.28	-40.1	-41.0	24.2	0.00e+00	0	34	101	1048576	60	5456
2026-01-06 14:41:29.22	94.94	81.02	-40.6	-41.5	23.7	0.00e+00	0	33	101	1048576	58	6470
2026-01-06 14:41:33.27	108.25	81.32	-41.6	-42.6	22.8	0.00e+00	0	33	101	1048576	60	6580
2026-01-06 14:41:37.31	121.73	81.15	-41.2	-42.2	23.3	0.00e+00	0	33	101	1048576	60	6249
2026-01-06 14:41:41.35	134.05	80.53	-39.0	-39.8	25.1	0.00e+00	0	33	101	1048576	56	5999
2026-01-06 14:41:45.40	144.46	79.54	-40.3	-41.2	24.0	0.00e+00	0	33	101	1048576	58	6247
2026-01-06 14:41:49.44	152.80	78.29	-41.4	-42.4	22.9	0.00e+00	0	33	101	1048576	60	6425
2026-01-06 14:41:53.48	159.39	76.85	-42.0	-43.0	22.5	0.00e+00	0	33	101	1048576	60	6905
2026-01-06 14:41:57.52	164.61	75.30	-44.2	-45.7	19.8	0.00e+00	0	33	101	1048576	60	9376
2026-01-06 14:42:01.56	168.78	73.67	-42.9	-44.1	21.3	0.00e+00	0	33	101	1048576	60	7845
2026-01-06 14:42:05.61	172.17	71.99	-40.6	-41.5	23.8	0.00e+00	0	34	101	1048576	60	5820
2026-01-06 14:42:09.65	174.94	70.30	-41.8	-42.8	22.6	0.00e+00	0	34	101	1048576	60	6760
2026-01-06 14:42:13.69	177.24	68.60	-42.7	-43.9	21.6	0.00e+00	0	34	101	1048576	60	7615
2026-01-06 14:42:17.73	179.19	66.91	-42.0	-43.0	22.4	0.00e+00	0	34	101	1048576	60	6916
2026-01-06 14:42:21.77	180.85	65.22	-41.0	-41.9	23.3	0.00e+00	0	33	101	1048576	60	6093
2026-01-06 14:42:25.82	182.28	63.56	-38.9	-39.6	25.3	0.00e+00	0	33	101	1048576	56	5888
2026-01-06 14:42:29.86	183.53	61.92	-39.2	-40.0	25.0	0.00e+00	0	33	101	1048576	56	6128
2026-01-06 14:42:33.90	184.62	60.32	-41.5	-42.6	22.8	0.00e+00	0	33	101	1048576	60	6550
2026-01-06 14:42:37.95	185.59	58.74	-41.8	-42.9	22.5	0.00e+00	0	34	101	1048576	60	6774
2026-01-06 14:42:41.99	186.45	57.20	-41.2	-42.2	23.1	0.00e+00	0	33	101	1048576	60	6246
2026-01-06 14:42:46.03	187.22	55.69	-39.2	-40.1	25.1	0.00e+00	0	33	101	1048576	58	5505
2026-01-06 14:42:50.07	187.91	54.22	-38.7	-39.5	25.5	0.00e+00	0	33	101	1048576	56	5764
2026-01-06 14:42:54.11	188.54	52.79	-39.9	-40.7	24.5	0.00e+00	0	33	101	1048576	56	6685
2026-01-06 14:42:58.15	189.12	51.39	-43.8	-45.2	20.4	0.00e+00	0	33	101	1048576	60	8884
2026-01-06 14:43:02.18	189.64	50.04	-45.0	-46.6	19.1	0.00e+00	0	33	101	1048576	60	10400
2026-01-06 14:43:06.22	190.12	48.72	-46.8	-49.3	16.0	0.00e+00	0	33	101	1048576	60	14250
2026-01-06 14:43:10.26	190.57	47.44	-44.2	-45.6	20.2	0.00e+00	0	33	101	1048576	60	9278
2026-01-06 14:43:14.31	190.98	46.18	-41.8	-42.8	22.5	0.00e+00	0	33	101	1048576	60	6718
2026-01-06 14:43:18.35	191.36	44.97	-42.8	-44.0	21.6	0.00e+00	0	33	101	1048576	60	7698
2026-01-06 14:43:22.39	191.71	43.79	-39.2	-40.0	25.1	0.00e+00	0	33	101	1048576	58	5465
2026-01-06 14:43:26.43	192.04	42.65	-38.3	-39.0	25.7	0.00e+00	0	33	101	1048576	54	6156
2026-01-06 14:43:30.47	192.35	41.54	-41.7	-42.8	22.7	0.00e+00	0	33	101	1048576	60	6708
2026-01-06 14:43:34.52	192.64	40.46	-40.5	-41.4	23.9	0.00e+00	0	33	101	1048576	60	5738
2026-01-06 14:43:38.56	192.91	39.41	-41.1	-42.0	23.2	0.00e+00	0	33	101	1048576	58	6904
2026-01-06 14:43:42.60	193.17	38.39	-45.0	-46.7	18.8	0.00e+00	0	34	101	1048576	60	10581
2026-01-06 14:43:46.64	193.41	37.40	-43.7	-45.1	20.4	0.00e+00	0	34	101	1048576	60	8750
2026-01-06 14:43:50.68	193.64	36.44	-41.6	-42.6	22.7	0.00e+00	0	33	101	1048576	60	6564
2026-01-06 14:43:54.72	193.86	35.51	-41.9	-42.9	22.4	0.00e+00	0	33	101	1048576	60	6838
2026-01-06 14:43:58.76	194.06	34.60	-45.8	-47.8	17.8	0.00e+00	0	34	101	1048576	60	12002
2026-01-06 14:44:02.81	194.26	33.72	-46.6	-48.9	17.1	0.00e+00	0	34	101	1048576	60	13588
2026-01-06 14:44:06.85	194.45	32.86	-43.9	-45.2	20.4	0.00e+00	0	33	101	1048576	60	8883
2026-01-06 14:44:10.89	194.62	32.02	-43.3	-44.5	21.0	0.00e+00	0	34	101	1048576	60	8215
2026-01-06 14:44:14.93	194.79	31.21	-43.5	-44.8	20.7	0.00e+00	0	33	101	1048576	60	8448
2026-01-06 14:44:18.97	194.96	30.42	-43.6	-44.9	20.7	0.00e+00	0	33	101	1048576	60	8608
2026-01-06 14:44:23.02	195.11	29.65	-43.6	-44.9	20.7	0.00e+00	0	33	101	1048576	60	8546
2026-01-06 14:44:27.06	195.26	28.90	-42.6	-43.8	21.6	0.00e+00	0	34	101	1048576	60	7532
2026-01-06 14:44:31.10	195.40	28.17	-41.7	-42.7	22.6	0.00e+00	0	34	101	1048576	60	6692
2026-01-06 14:44:35.14	195.54	27.46	-40.7	-41.6	23.5	0.00e+00	0	33	101	1048576	60	5843
2026-01-06 14:44:39.19	195.67	26.77	-40.6	-41.5	23.7	0.00e+00	0	33	101	1048576	60	5782
2026-01-06 14:44:43.23	195.80	26.09	-40.7	-41.6	23.6	0.00e+00	0	33	101	1048576	60	5880
2026-01-06 14:44:47.27	195.92	25.43	-40.5	-41.4	23.8	0.00e+00	0	33	101	1048576	60	5750
2026-01-06 14:44:51.30	196.04	24.79	-40.3	-41.1	24.0	0.00e+00	0	33	101	1048576	60	5563
2026-01-06 14:44:55.33	196.15	24.16	-39.4	-40.3	24.6	0.00e+00	0	33	101	1048576	58	5651
2026-01-06 14:44:59.36	196.26	23.55	-39.2	-40.0	24.8	0.00e+00	0	33	101	1048576	58	5473
2026-01-06 14:45:03.40	196.37	22.95	-39.2	-40.0	24.6	0.00e+00	0	33	101	1048576	56	6139
2026-01-06 14:45:07.44	196.47	22.36	-39.4	-40.2	24.7	0.00e+00	0	34	101	1048576	56	6298
2026-01-06 14:45:11.48	196.57	21.79	-39.7	-40.5	24.4	0.00e+00	0	33	101	1048576	56	6533
2026-01-06 14:45:15.51	196.67	21.23	-40.0	-40.8	24.1	0.00e+00	0	33	101	1048576	56	6768
2026-01-06 14:45:19.54	196.76	20.68	-40.1	-41.0	24.0	0.00e+00	0	33	101	1048576	58	6107
2026-01-06 14:45:23.57	196.85	20.15	-40.2	-41.1	23.9	0.00e+00	0	33	101	1048576	58	6220
2026-01-06 14:45:27.61	196.94	19.62	-40.2	-41.1	23.9	0.00e+00	0	33	101	1048576	58	6199
2026-01-06 14:45:31.64	197.03	19.11	-40.4	-41.3	23.8	0.00e+00	0	34	101	1048576	58	6340
2026-01-06 14:45:35.68	197.11	18.61	-40.5	-41.5	23.6	0.00e+00	0	33	101	1048576	58	6487
2026-01-06 14:45:39.72	197.19	18.11	-40.6	-41.5	23.4	0.00e+00	0	33	101	1048576	58	6498
2026-01-06 14:45:43.75	197.27	17.63	-40.5	-41.5	23.5	0.00e+00	0	33	101	1048576	58	6485
2026-01-06 14:45:47.79	197.35	17.15	-40.6	-41.5	23.5	0.00e+00	0	33	101	1048576	58	6523
2026-01-06 14:45:51.83	197.42	16.69	-40.4	-41.4	23.6	0.00e+00	0	33	101	1048576	58	6398
2026-01-06 14:45:55.86	197.50	16.23	-40.4	-41.4	23.5	0.00e+00	0	33	101	1048576	58	6459
2026-01-06 14:45:59.90	197.57	15.78	-40.3	-41.2	23.6	0.00e+00	0	33	101	1048576	58	6288
2026-01-06 14:46:03.94	197.64	15.34	-40.5	-41.5	23.5	0.00e+00	0	33	101	1048576	58	6475
2026-01-06 14:46:07.97	197.70	14.91	-40.4	-41.3	23.6	0.00e+00	0	33	101	1048576	58	6352
2026-01-06 14:46:12.01	197.77	14.48	-40.3	-41.2	23.6	0.00e+00	0	33	101	1048576	58	6278
2026-01-06 14:46:16.04	197.84	14.07	-40.4	-41.3	23.6	0.00e+00	0	33	101	1048576	58	6349
2026-01-06 14:46:20.08	197.90	13.65	-40.6	-41.5	23.4	0.00e+00	0	33	101	1048576	58	6506
2026-01-06 14:46:24.11	197.96	13.25	-40.8	-41.8	23.2	0.00e+00	0	33	101	1048576	58	6700
2026-01-06 14:46:28.15	198.02	12.85	-40.8	-41.8	23.1	0.00e+00	0	33	101	1048576	58	6703
2026-01-06 14:46:32.18	198.08	12.46	-41.2	-42.2	22.9	0.00e+00	0	33	101	1048576	60	6259
2026-01-06 14:46:36.22	198.14	12.08	-41.2	-42.2	22.9	0.00e+00	0	33	101	1048576	60	6312
2026-01-06 14:46:40.26	198.20	11.70	-41.2	-42.3	22.7	0.00e+00	0	33	101	1048576	60	6321
2026-01-06 14:46:44.29	198.26	11.32	-41.3	-42.3	22.7	0.00e+00	0	33	101	1048576	60	6345
2026-01-06 14:46:48.32	198.31	10.96	-41.5	-42.6	22.5	0.00e+00	0	33	101	1048576	60	6579
2026-01-06 14:46:52.36	198.37	10.60	-41.5	-42.5	22.4	0.00e+00	0	33	101	1048576	60	6514
2026-01-06 14:46:56.40	198.42	10.24	-41.4	-42.4	22.5	0.00e+00	0	33	101	1048576	60	6454
2026-01-06 14:47:00.44	198.47	9.89	-41.4	-42.4	22.5	0.00e+00	0	33	101	1048576	60	6437
2026-01-06 14:47:04.47	198.52	9.54	-41.4	-42.4	22.5	0.00e+00	0	33	101	1048576	60	6432
2026-01-06 14:47:08.51	198.57	9.20	-41.4	-42.4	22.5	0.00e+00	0	33	101	1048576	60	6424
2026-01-06 14:47:12.54	198.62	8.86	-41.4	-42.4	22.4	0.00e+00	0	33	101	1048576	60	6462
2026-01-06 14:47:16.57	198.67	8.53	-41.4	-42.4	22.4	0.00e+00	0	33	101	1048576	60	6420
2026-01-06 14:47:20.61	198.72	8.20	-41.5	-42.5	22.2	0.00e+00	0	33	101	1048576	60	6531
2026-01-06 14:47:24.65	198.77	7.87	-41.5	-42.6	22.1	0.00e+00	0	33	101	1048576	60	6580
2026-01-06 14:47:28.69	198.81	7.55	-41.5	-42.6	22.2	0.00e+00	0	33	101	1048576	60	6545
2026-01-06 14:47:32.72	198.86	7.24	-41.6	-42.7	21.8	0.00e+00	0	33	101	1048576	60	6662
2026-01-06 14:47:36.76	198.90	6.92	-41.6	-42.7	21.8	0.00e+00	0	33	101	1048576	60	6654
2026-01-06 14:47:40.79	198.95	6.62	-41.8	-42.9	21.8	0.00e+00	0	33	101	1048576	60	6810
2026-01-06 14:47:44.83	198.99	6.31	-41.9	-43.0	21.7	0.00e+00	0	33	101	1048576	60	6914
2026-01-06 14:47:48.87	199.03	6.01	-42.0	-43.2	21.4	0.00e+00	0	33	101	1048576	60	7064
2026-01-06 14:47:52.90	199.08	5.71	-42.3	-43.5	21.2	0.00e+00	0	33	101	1048576	60	7280
2026-01-06 14:47:56.94	199.12	5.42	-42.2	-43.4	21.1	0.00e+00	0	33	101	1048576	60	7218
2026-01-06 14:48:00.97	199.16	5.12	-42.4	-43.6	21.0	0.00e+00	0	33	101	1048576	60	7420
2026-01-06 14:48:05.01	199.20	4.84	-42.5	-43.7	20.8	0.00e+00	0	33	101	1048576	60	7478
2026-01-06 14:48:09.05	199.24	4.55	-42.7	-44.0	20.4	0.00e+00	0	33	101	1048576	60	7762
2026-01-06 14:48:13.09	199.28	4.27	-42.9	-44.3	20.2	0.00e+00	0	34	101	1048576	60	7966
2026-01-06 14:48:17.12	199.32	3.99	-42.8	-44.2	20.2	0.00e+00	0	33	101	1048576	60	7926
2026-01-06 14:48:21.16	199.36	3.71	-43.3	-44.7	19.7	0.00e+00	0	33	101	1048576	60	8418
2026-01-06 14:48:25.19	199.40	3.44	-43.5	-45.1	19.1	0.00e+00	0	33	101	1048576	60	8736
2026-01-06 14:48:29.23	199.43	3.17	-43.2	-44.6	19.6	0.00e+00	0	33	101	1048576	60	8321
2026-01-06 14:48:33.27	199.47	2.90	-51.0	-66.3	3.6	1.51e+00	0	34	104	1048576	60	100981
2026-01-06 14:48:37.31	199.51	2.63	-51.1	-66.6	3.6	1.51e+00	0	34	104	1048576	60	104342
2026-01-06 14:48:41.36	199.54	2.37	-51.2	-66.6	3.6	1.51e+00	0	34	104	1048576	60	104583
2026-01-06 14:48:45.40	199.58	2.11	-51.2	-66.5	3.6	1.51e+00	0	33	104	1048576	60	103603
2026-01-06 14:48:49.44	199.62	1.85	-51.3	-66.6	3.6	1.51e+00	0	34	104	1048576	60	104635
2026-01-06 14:48:53.48	199.65	1.59	-51.3	-66.6	3.6	1.51e+00	0	34	104	1048576	60	104549
2026-01-06 14:48:57.53	199.69	1.34	-51.3	-66.6	3.6	1.51e+00	0	34	104	1048576	60	104319
2026-01-06 14:49:01.57	199.72	1.08	-51.3	-66.6	3.6	1.51e+00	0	34	104	1048576	60	103996
2026-01-06 14:49:05.62	199.75	0.83	-51.2	-66.5	3.6	1.51e+00	0	34	104	1048576	60	103620
2026-01-06 14:49:09.66	199.79	0.59	-51.3	-66.6	3.6	1.51e+00	0	34	104	1048576	60	104003
2026-01-06 14:49:13.70	199.82	0.34	-51.2	-66.5	3.6	1.51e+00	0	34	104	1048576	60	103516
2026-01-06 14:49:17.74	199.85	0.10	-51.3	-66.5	3.6	1.51e+00	0	34	104	1048576	60	103501

#Closed at: 2026-01-06 14:49:21
#Recorded file [1 MB]: D:/lorett/data/35034_260106_173348.dat