passes_logs/2026/01/06/R4.6S_Anadyr_2ch/R4.6S_Anadyr_2ch__20260106_224231_TY-42_rec.log

#Pass ID: 20260106_224231_TY-42
#Satellite: TY-42
#Configuration: TY-42_900M
#almurnet v.1.7.20251203
#Start time: 2026-01-06 22:43:03

#Version: 2.2.20231116
#Station: R4.6S_Anadyr_2ch
#Location: 177.4865 lon 64.73178 lat
#TLE: 1 64048U 25103A   25351.20653935  .00008008  00000-0  38191-3 0 09993
#TLE: 2 64048 097.4116 062.1676 0001744 093.8066 035.1511 15.19160500 32445

#Time	Az	El	Level	Level2	SNR	BER	BlckErr	Temp	State	Recorded	gain1	gain2
2026-01-06 22:43:03.87	20.80	2.08	-41.3	-40.4	5.7	0.00e+00	0	29	0	0	60	17571
2026-01-06 22:43:06.89	20.96	2.29	-51.6	-54.1	6.1	0.00e+00	0	31	104	0	60	84613
2026-01-06 22:43:09.92	21.11	2.49	-51.6	-54.1	6.1	0.00e+00	0	31	104	0	60	84600
2026-01-06 22:43:12.94	21.27	2.70	-51.6	-54.0	6.1	0.00e+00	0	31	104	0	60	84067
2026-01-06 22:43:15.97	21.44	2.91	-51.6	-54.1	6.1	0.00e+00	0	31	104	0	60	84334
2026-01-06 22:43:18.99	21.60	3.12	-51.6	-54.0	6.1	0.00e+00	0	32	104	0	60	83813
2026-01-06 22:43:22.02	21.77	3.33	-51.6	-54.0	6.0	0.00e+00	0	32	104	0	60	84158
2026-01-06 22:43:25.03	21.94	3.54	-51.5	-54.0	6.1	0.00e+00	0	32	104	0	60	83827
2026-01-06 22:43:28.05	22.12	3.76	-51.5	-54.0	6.1	0.00e+00	0	32	104	0	60	84014
2026-01-06 22:43:31.08	22.30	3.98	-51.5	-54.0	6.1	0.00e+00	0	32	104	0	60	84140
2026-01-06 22:43:34.11	22.48	4.20	-51.5	-54.0	6.1	0.00e+00	0	32	104	0	60	83494
2026-01-06 22:43:37.13	22.66	4.42	-51.5	-54.0	6.1	0.00e+00	0	32	104	0	60	84165
2026-01-06 22:43:40.16	22.85	4.65	-51.5	-54.0	6.1	0.00e+00	0	32	104	0	60	83663
2026-01-06 22:43:43.18	23.04	4.88	-51.5	-54.0	6.1	0.00e+00	0	32	104	0	60	83786
2026-01-06 22:43:46.21	23.23	5.11	-51.5	-54.0	6.1	0.00e+00	0	32	104	0	60	83705
2026-01-06 22:43:49.22	23.43	5.34	-51.5	-54.0	6.1	0.00e+00	0	32	104	0	60	83861
2026-01-06 22:43:52.25	23.63	5.58	-51.5	-54.0	6.1	0.00e+00	0	32	104	0	60	83925
2026-01-06 22:43:55.28	23.84	5.81	-51.5	-54.0	6.1	0.00e+00	0	32	104	0	60	83498
2026-01-06 22:43:58.30	24.05	6.05	-51.5	-54.0	6.1	0.00e+00	0	32	104	0	60	83778
2026-01-06 22:44:01.33	24.26	6.30	-51.5	-54.0	6.1	0.00e+00	0	32	104	0	60	83392
2026-01-06 22:44:04.35	24.48	6.54	-51.5	-54.0	6.1	0.00e+00	0	32	104	0	60	84003
2026-01-06 22:44:07.38	24.70	6.79	-51.5	-54.0	6.1	0.00e+00	0	32	104	0	60	83737
2026-01-06 22:44:10.40	24.93	7.05	-51.5	-54.0	6.1	0.00e+00	0	33	104	0	60	83985
2026-01-06 22:44:13.43	25.16	7.30	-51.5	-54.0	6.1	0.00e+00	0	33	104	0	60	83767
2026-01-06 22:44:16.45	25.40	7.56	-51.5	-54.0	6.1	0.00e+00	0	33	104	0	60	83599
2026-01-06 22:44:19.48	25.64	7.82	-51.5	-54.0	6.1	0.00e+00	0	33	104	0	60	83959
2026-01-06 22:44:22.50	25.88	8.08	-51.5	-54.0	6.1	0.00e+00	0	33	104	0	60	83870
2026-01-06 22:44:25.52	26.14	8.35	-51.5	-54.0	6.1	0.00e+00	0	33	104	0	60	83842
2026-01-06 22:44:28.55	26.39	8.62	-51.5	-54.0	6.1	0.00e+00	0	33	104	0	60	84009
2026-01-06 22:44:31.57	26.66	8.90	-51.5	-54.0	6.1	0.00e+00	0	33	104	0	60	83802
2026-01-06 22:44:34.59	26.92	9.18	-51.5	-54.0	6.1	0.00e+00	0	33	104	0	60	83498
2026-01-06 22:44:37.62	27.20	9.46	-51.5	-54.0	6.1	0.00e+00	0	33	104	0	60	83816
2026-01-06 22:44:40.64	27.48	9.74	-51.5	-54.0	6.1	0.00e+00	0	33	104	0	60	83347
2026-01-06 22:44:43.67	27.77	10.03	-51.5	-54.0	6.1	0.00e+00	0	33	104	0	60	83890
2026-01-06 22:44:46.69	28.06	10.33	-51.5	-54.0	6.1	0.00e+00	0	33	104	0	60	84014
2026-01-06 22:44:49.72	28.36	10.63	-51.5	-54.0	6.1	0.00e+00	0	33	104	0	60	83666
2026-01-06 22:44:52.74	28.67	10.93	-51.5	-54.0	6.1	0.00e+00	0	33	104	0	60	83684
2026-01-06 22:44:55.77	28.99	11.23	-51.5	-54.0	6.1	0.00e+00	0	33	104	0	60	83650
2026-01-06 22:44:58.79	29.31	11.55	-51.5	-54.0	6.1	0.00e+00	0	33	104	0	60	83887
2026-01-06 22:45:01.82	29.65	11.86	-51.5	-54.0	6.1	0.00e+00	0	33	104	0	60	83778
2026-01-06 22:45:04.84	29.99	12.18	-51.5	-54.0	6.1	0.00e+00	0	33	104	0	60	83760
2026-01-06 22:45:07.87	30.34	12.51	-51.5	-54.0	6.1	0.00e+00	0	33	104	0	60	83522
2026-01-06 22:45:10.89	30.69	12.84	-51.5	-54.0	6.1	0.00e+00	0	33	104	0	60	83848
2026-01-06 22:45:13.92	31.06	13.17	-51.5	-54.0	6.1	0.00e+00	0	33	104	0	60	83672
2026-01-06 22:45:16.94	31.44	13.51	-51.5	-54.0	6.1	0.00e+00	0	33	104	0	60	83940
2026-01-06 22:45:19.96	31.83	13.86	-51.5	-54.0	6.0	0.00e+00	0	33	104	0	60	83815
2026-01-06 22:45:22.99	32.23	14.21	-51.5	-54.0	6.1	0.00e+00	0	33	104	0	60	83600
2026-01-06 22:45:26.01	32.64	14.56	-51.5	-54.0	6.1	0.00e+00	0	34	104	0	60	83652
2026-01-06 22:45:29.04	33.06	14.93	-51.5	-54.0	6.1	0.00e+00	0	33	104	0	60	83957
2026-01-06 22:45:32.06	33.49	15.30	-51.5	-54.0	6.1	0.00e+00	0	33	104	0	60	83570
2026-01-06 22:45:35.08	33.93	15.67	-51.5	-54.0	6.1	0.00e+00	0	33	104	0	60	83691
2026-01-06 22:45:38.10	34.39	16.05	-51.6	-54.1	6.1	0.00e+00	0	34	104	0	60	84368
2026-01-06 22:45:41.12	34.86	16.43	-51.7	-54.2	6.1	0.00e+00	0	34	104	0	60	85798
2026-01-06 22:45:44.15	35.35	16.83	-51.6	-54.0	6.1	0.00e+00	0	34	104	0	60	84153
2026-01-06 22:45:47.17	35.85	17.23	-51.3	-53.8	6.1	0.00e+00	0	34	104	0	60	81640
2026-01-06 22:45:50.19	36.37	17.63	-50.8	-53.3	6.1	0.00e+00	0	34	104	0	60	77012
2026-01-06 22:45:53.22	36.90	18.04	-50.3	-52.8	6.1	0.00e+00	0	34	104	0	60	73220
2026-01-06 22:45:56.24	37.45	18.46	-50.3	-52.8	6.1	0.00e+00	0	34	104	0	60	73052
2026-01-06 22:45:59.26	38.01	18.89	-50.3	-52.8	6.1	0.00e+00	0	34	104	0	60	72988
2026-01-06 22:46:02.29	38.60	19.32	-50.3	-52.7	6.1	0.00e+00	0	34	104	0	60	72457
2026-01-06 22:46:05.31	39.20	19.76	-50.3	-52.8	6.1	0.00e+00	0	34	104	0	60	73222
2026-01-06 22:46:08.33	39.82	20.21	-50.3	-52.8	6.1	0.00e+00	0	34	104	0	60	72983
2026-01-06 22:46:11.35	40.46	20.66	-50.3	-52.8	6.1	0.00e+00	0	34	104	0	60	72814
2026-01-06 22:46:14.38	41.13	21.12	-50.3	-52.8	6.1	0.00e+00	0	34	104	0	60	72752
2026-01-06 22:46:17.41	41.82	21.59	-50.3	-52.8	6.1	0.00e+00	0	34	104	0	60	72927
2026-01-06 22:46:20.43	42.53	22.07	-50.3	-52.8	6.1	0.00e+00	0	34	104	0	60	72717
2026-01-06 22:46:23.46	43.27	22.55	-40.1	-40.5	10.4	0.00e+00	5403	34	104	0	60	17741
2026-01-06 22:46:26.48	44.03	23.04	-33.1	-33.5	14.6	1.73e-01	0	34	102	8388608	48	15773
2026-01-06 22:46:29.50	44.81	23.53	-32.0	-32.4	15.0	6.82e-03	0	34	102	8388608	44	17425
2026-01-06 22:46:32.53	45.63	24.04	-36.7	-37.0	12.6	1.20e-02	0	34	102	8388608	52	18831
2026-01-06 22:46:35.55	46.48	24.54	-37.8	-38.1	11.6	0.00e+00	108	34	0	8388608	60	13434
2026-01-06 22:46:38.58	47.36	25.06	-43.6	-44.1	10.0	0.00e+00	0	34	104	8388608	60	26755
2026-01-06 22:46:41.60	48.26	25.58	-32.5	-32.9	14.8	3.88e-02	0	34	0	8388608	46	16572
2026-01-06 22:46:44.62	49.20	26.10	-31.6	-32.0	15.2	6.38e-03	0	34	101	8388608	44	16618
2026-01-06 22:46:47.65	50.18	26.64	-30.9	-31.3	15.5	2.45e-03	0	34	101	8388608	42	17309
2026-01-06 22:46:50.67	51.19	27.17	-30.1	-30.5	15.7	1.98e-03	0	34	101	8388608	42	15808
2026-01-06 22:46:53.70	52.25	27.71	-30.2	-30.6	15.7	1.55e-03	0	34	101	8388608	42	15977
2026-01-06 22:46:56.73	53.34	28.25	-29.8	-30.2	15.9	8.17e-04	0	34	101	8388608	40	17056
2026-01-06 22:46:59.76	54.47	28.80	-29.8	-30.2	15.9	5.23e-04	0	35	101	8388608	40	17016
2026-01-06 22:47:02.79	55.65	29.34	-29.7	-30.1	15.9	2.83e-04	0	35	101	8388608	40	16875
2026-01-06 22:47:05.83	56.87	29.89	-29.9	-30.2	16.0	4.20e-04	0	35	101	8388608	40	17197
2026-01-06 22:47:08.86	58.13	30.43	-29.4	-29.8	16.1	2.29e-04	0	35	101	8388608	40	16344
2026-01-06 22:47:11.89	59.44	30.98	-29.4	-29.8	16.1	1.74e-04	0	35	101	8388608	40	16324
2026-01-06 22:47:14.92	60.80	31.51	-29.3	-29.6	16.1	1.42e-04	0	35	101	8388608	40	16016
2026-01-06 22:47:17.95	62.20	32.05	-29.3	-29.7	16.1	1.31e-04	0	35	101	8388608	40	16115
2026-01-06 22:47:20.98	63.66	32.57	-29.4	-29.7	16.2	1.25e-04	0	35	101	8388608	38	18142
2026-01-06 22:47:24.02	65.17	33.09	-28.8	-29.2	16.3	5.99e-05	0	35	101	8388608	38	17033
2026-01-06 22:47:27.05	66.72	33.59	-28.9	-29.2	16.3	5.99e-05	0	35	101	8388608	38	17144
2026-01-06 22:47:30.08	68.33	34.09	-28.5	-28.9	16.4	6.53e-05	0	35	101	8388608	38	16534
2026-01-06 22:47:33.11	69.99	34.56	-28.3	-28.7	16.5	4.90e-05	0	35	101	8388608	38	16129
2026-01-06 22:47:36.14	71.70	35.02	-28.3	-28.7	16.5	2.17e-05	0	35	101	8388608	38	16096
2026-01-06 22:47:39.17	73.46	35.46	-28.0	-28.4	16.5	5.40e-06	0	35	101	8388608	36	17573
2026-01-06 22:47:42.21	75.28	35.87	-27.9	-28.3	16.5	1.63e-05	0	35	101	8388608	36	17357
2026-01-06 22:47:45.24	77.13	36.26	-28.0	-28.4	16.5	1.63e-05	0	35	101	8388608	36	17418
2026-01-06 22:47:48.27	79.04	36.63	-27.7	-28.1	16.6	0.00e+00	0	35	101	8388608	36	16900
2026-01-06 22:47:51.30	80.98	36.96	-27.6	-28.0	16.6	1.08e-05	0	35	101	8388608	36	16775
2026-01-06 22:47:54.33	82.97	37.26	-27.6	-28.0	16.7	5.40e-06	0	35	101	8388608	36	16673
2026-01-06 22:47:57.36	84.99	37.53	-27.3	-27.7	16.7	1.63e-05	0	35	101	8388608	36	16126
2026-01-06 22:48:00.40	87.06	37.76	-27.0	-27.4	16.8	5.40e-06	0	35	101	8388608	34	17447
2026-01-06 22:48:03.43	89.14	37.95	-26.9	-27.3	16.7	5.40e-06	0	35	101	8388608	34	17218
2026-01-06 22:48:06.46	91.25	38.10	-26.9	-27.2	16.7	0.00e+00	0	35	101	8388608	34	17200
2026-01-06 22:48:09.49	93.38	38.21	-26.6	-27.0	16.8	5.40e-06	0	35	101	8388608	34	16741
2026-01-06 22:48:12.52	95.51	38.28	-26.4	-26.8	16.8	0.00e+00	0	35	101	8388608	34	16360
2026-01-06 22:48:15.54	97.65	38.31	-26.3	-26.7	16.9	0.00e+00	0	35	101	8388608	34	16158
2026-01-06 22:48:18.57	99.80	38.29	-26.2	-26.6	16.9	0.00e+00	0	35	101	8388608	34	16006
2026-01-06 22:48:21.61	101.95	38.23	-26.2	-26.6	17.0	0.00e+00	0	35	101	8388608	32	17841
2026-01-06 22:48:24.64	104.08	38.13	-26.1	-26.5	17.0	0.00e+00	0	35	101	8388608	32	17640
2026-01-06 22:48:27.67	106.19	37.99	-25.8	-26.2	16.9	0.00e+00	0	35	101	8388608	32	17083
2026-01-06 22:48:30.70	108.28	37.80	-25.6	-26.0	17.0	0.00e+00	0	35	101	8388608	32	16721
2026-01-06 22:48:33.73	110.35	37.58	-25.7	-26.1	17.0	0.00e+00	0	35	101	8388608	32	16872
2026-01-06 22:48:36.76	112.39	37.32	-25.6	-26.0	17.1	0.00e+00	0	35	101	8388608	32	16758
2026-01-06 22:48:39.79	114.38	37.03	-25.4	-25.8	17.1	0.00e+00	0	35	101	8388608	32	16284
2026-01-06 22:48:42.83	116.35	36.70	-25.4	-25.8	17.0	0.00e+00	0	35	101	8388608	32	16259
2026-01-06 22:48:45.86	118.27	36.34	-25.2	-25.6	17.1	0.00e+00	0	35	101	8388608	32	15995
2026-01-06 22:48:48.89	120.14	35.96	-24.9	-25.3	17.1	0.00e+00	0	35	101	8388608	30	17208
2026-01-06 22:48:51.92	121.96	35.55	-24.7	-25.1	17.1	0.00e+00	0	35	101	8388608	30	16908
2026-01-06 22:48:54.95	123.74	35.11	-24.6	-25.0	17.1	0.00e+00	0	35	101	8388608	30	16795
2026-01-06 22:48:57.98	125.47	34.66	-24.5	-24.9	17.2	0.00e+00	0	35	101	8388608	30	16575
2026-01-06 22:49:01.01	127.14	34.18	-24.2	-24.6	17.1	0.00e+00	0	35	101	8388608	30	15907
2026-01-06 22:49:04.05	128.77	33.69	-24.0	-24.4	17.2	0.00e+00	0	35	101	8388608	28	17482
2026-01-06 22:49:07.08	130.34	33.19	-23.8	-24.2	17.2	0.00e+00	0	35	101	8388608	28	17094
2026-01-06 22:49:10.11	131.87	32.67	-23.7	-24.1	17.3	0.00e+00	0	35	101	8388608	28	16981
2026-01-06 22:49:13.14	133.34	32.15	-23.7	-24.1	17.3	0.00e+00	0	35	101	8388608	28	16870
2026-01-06 22:49:16.17	134.76	31.61	-23.5	-23.9	17.2	0.00e+00	0	35	101	8388608	28	16448
2026-01-06 22:49:19.20	136.13	31.07	-23.3	-23.7	17.3	0.00e+00	0	35	101	8388608	28	16114
2026-01-06 22:49:22.24	137.46	30.53	-23.0	-23.5	17.3	0.00e+00	0	35	101	8388608	26	17611
2026-01-06 22:49:25.27	138.73	29.98	-23.0	-23.4	17.3	0.00e+00	0	35	101	8388608	26	17586
2026-01-06 22:49:28.30	139.96	29.43	-23.0	-23.4	17.3	0.00e+00	0	35	101	8388608	26	17589
2026-01-06 22:49:31.33	141.15	28.88	-22.6	-23.0	17.3	0.00e+00	0	35	101	8388608	26	16781
2026-01-06 22:49:34.36	142.30	28.33	-22.3	-22.8	17.4	0.00e+00	0	35	101	8388608	26	16244
2026-01-06 22:49:37.39	143.40	27.79	-22.1	-22.5	17.4	0.00e+00	0	35	101	8388608	26	15739
2026-01-06 22:49:40.43	144.47	27.24	-22.1	-22.5	17.4	0.00e+00	0	35	101	8388608	24	17644
2026-01-06 22:49:43.46	145.49	26.70	-21.9	-22.3	17.4	0.00e+00	0	35	101	8388608	24	17347
2026-01-06 22:49:46.49	146.48	26.17	-21.7	-22.1	17.4	0.00e+00	0	35	101	8388608	24	16936
2026-01-06 22:49:49.52	147.44	25.64	-21.3	-21.7	17.4	0.00e+00	0	35	101	8388608	24	16116
2026-01-06 22:49:52.55	148.36	25.11	-21.1	-21.5	17.5	0.00e+00	0	35	101	8388608	24	15737
2026-01-06 22:49:55.58	149.24	24.59	-21.0	-21.4	17.5	0.00e+00	0	35	101	8388608	22	17504
2026-01-06 22:49:58.61	150.10	24.08	-20.7	-21.1	17.5	0.00e+00	0	35	101	8388608	22	16922
2026-01-06 22:50:01.64	150.93	23.57	-20.5	-20.9	17.5	0.00e+00	0	35	101	8388608	22	16529
2026-01-06 22:50:04.67	151.73	23.07	-20.3	-20.7	17.5	0.00e+00	0	35	101	8388608	22	16134
2026-01-06 22:50:07.71	152.50	22.57	-20.2	-20.7	17.5	0.00e+00	0	35	101	8388608	22	16054
2026-01-06 22:50:10.74	153.24	22.09	-19.8	-20.2	17.5	0.00e+00	0	35	101	8388608	20	17063
2026-01-06 22:50:13.77	153.96	21.61	-19.5	-19.9	17.5	0.00e+00	0	35	101	8388608	20	16604
2026-01-06 22:50:16.80	154.66	21.13	-19.4	-19.8	17.6	0.00e+00	0	35	101	8388608	20	16313
2026-01-06 22:50:19.84	155.33	20.67	-19.3	-19.8	17.5	0.00e+00	0	35	101	8388608	20	16254
2026-01-06 22:50:22.86	155.98	20.21	-19.1	-19.5	17.6	0.00e+00	0	35	101	8388608	20	15867
2026-01-06 22:50:25.89	156.61	19.76	-19.0	-19.4	17.6	0.00e+00	0	35	101	8388608	18	17533
2026-01-06 22:50:28.91	157.21	19.31	-19.0	-19.4	17.7	0.00e+00	0	35	101	8388608	18	17581
2026-01-06 22:50:31.94	157.80	18.88	-18.7	-19.1	17.6	0.00e+00	0	35	101	8388608	18	16981
2026-01-06 22:50:34.96	158.37	18.45	-18.8	-19.2	17.6	0.00e+00	0	35	101	8388608	18	17170
2026-01-06 22:50:37.98	158.92	18.03	-18.6	-19.0	17.6	0.00e+00	0	35	101	8388608	18	16733
2026-01-06 22:50:41.00	159.46	17.61	-18.4	-18.8	17.6	0.00e+00	0	35	101	8388608	18	16415
2026-01-06 22:50:44.03	159.98	17.20	-18.4	-18.8	17.6	0.00e+00	0	35	101	8388608	18	16343
2026-01-06 22:50:47.05	160.48	16.80	-18.2	-18.6	17.6	0.00e+00	0	35	101	8388608	18	15893
2026-01-06 22:50:50.07	160.97	16.41	-18.0	-18.4	17.6	0.00e+00	0	35	101	8388608	16	17499
2026-01-06 22:50:53.09	161.44	16.02	-17.9	-18.3	17.6	0.00e+00	0	35	101	8388608	16	17221
2026-01-06 22:50:56.11	161.90	15.63	-17.7	-18.2	17.6	0.00e+00	0	35	101	8388608	16	17006
2026-01-06 22:50:59.14	162.35	15.26	-17.7	-18.1	17.6	0.00e+00	0	35	101	8388608	16	16889
2026-01-06 22:51:02.17	162.79	14.88	-17.7	-18.1	17.6	0.00e+00	0	35	101	8388608	16	16911
2026-01-06 22:51:05.19	163.21	14.52	-17.6	-18.0	17.6	0.00e+00	0	35	101	8388608	16	16661
2026-01-06 22:51:08.21	163.62	14.16	-17.4	-17.8	17.6	0.00e+00	0	35	101	8388608	16	16425
2026-01-06 22:51:11.23	164.02	13.81	-17.5	-17.9	17.5	0.00e+00	0	35	101	8388608	16	16496
2026-01-06 22:51:14.25	164.41	13.46	-17.5	-17.9	17.5	0.00e+00	0	35	101	8388608	16	16536
2026-01-06 22:51:17.27	164.79	13.12	-17.5	-17.9	17.5	0.00e+00	0	35	101	8388608	16	16448
2026-01-06 22:51:20.30	165.16	12.78	-17.6	-18.0	17.5	0.00e+00	0	35	101	8388608	16	16661
2026-01-06 22:51:23.32	165.52	12.45	-17.6	-18.0	17.4	0.00e+00	0	35	101	8388608	16	16690
2026-01-06 22:51:26.34	165.87	12.12	-17.7	-18.1	17.4	0.00e+00	0	35	101	8388608	16	16942
2026-01-06 22:51:29.37	166.21	11.80	-17.6	-18.0	17.4	0.00e+00	0	35	101	8388608	16	16765
2026-01-06 22:51:32.40	166.54	11.48	-17.5	-17.9	17.3	0.00e+00	0	35	101	8388608	16	16574
2026-01-06 22:51:35.42	166.87	11.17	-51.2	-53.8	6.1	0.00e+00	0	35	104	8388608	16	1031635
2026-01-06 22:51:38.44	167.18	10.86	-51.5	-54.1	6.1	0.00e+00	0	35	104	8388608	60	84288
2026-01-06 22:51:41.46	167.49	10.55	-51.6	-54.1	6.1	0.00e+00	0	35	104	8388608	60	84695
2026-01-06 22:51:44.48	167.80	10.25	-51.6	-54.1	6.1	0.00e+00	0	35	104	8388608	60	84256
2026-01-06 22:51:47.50	168.09	9.96	-51.6	-54.1	6.1	0.00e+00	0	35	104	8388608	60	85060
2026-01-06 22:51:50.52	168.38	9.67	-51.6	-54.1	6.1	0.00e+00	0	35	104	8388608	60	84886
2026-01-06 22:51:53.55	168.66	9.38	-51.5	-54.0	6.1	0.00e+00	0	35	104	8388608	60	83938
2026-01-06 22:51:56.58	168.93	9.09	-51.4	-53.9	6.1	0.00e+00	0	35	104	8388608	60	82898
2026-01-06 22:51:59.60	169.20	8.81	-51.5	-54.1	6.1	0.00e+00	0	35	104	8388608	60	84329
2026-01-06 22:52:02.63	169.47	8.54	-51.6	-54.1	6.1	0.00e+00	0	35	104	8388608	60	84607
2026-01-06 22:52:05.66	169.72	8.26	-51.6	-54.1	6.1	0.00e+00	0	35	104	8388608	60	84270
2026-01-06 22:52:08.68	169.97	8.00	-51.6	-54.1	6.1	0.00e+00	0	35	104	8388608	60	84276
2026-01-06 22:52:11.70	170.22	7.73	-51.6	-54.1	6.1	0.00e+00	0	35	104	8388608	60	84836
2026-01-06 22:52:14.73	170.46	7.47	-51.6	-54.0	6.1	0.00e+00	0	35	104	8388608	60	84114
2026-01-06 22:52:17.76	170.70	7.21	-51.6	-54.0	6.1	0.00e+00	0	35	104	8388608	60	84158
2026-01-06 22:52:20.78	170.93	6.95	-51.6	-54.1	6.1	0.00e+00	0	35	104	8388608	60	84317
2026-01-06 22:52:23.81	171.16	6.70	-51.6	-54.1	6.1	0.00e+00	0	35	104	8388608	60	84407
2026-01-06 22:52:26.83	171.38	6.45	-51.5	-54.0	6.1	0.00e+00	0	35	104	8388608	60	83994
2026-01-06 22:52:29.85	171.59	6.20	-51.6	-54.1	6.1	0.00e+00	0	35	104	8388608	60	84339
2026-01-06 22:52:32.87	171.81	5.95	-51.6	-54.0	6.1	0.00e+00	0	35	104	8388608	60	84110
2026-01-06 22:52:35.90	172.01	5.71	-51.5	-54.0	6.1	0.00e+00	0	35	104	8388608	60	83858
2026-01-06 22:52:38.92	172.22	5.47	-51.5	-53.9	6.1	0.00e+00	0	35	104	8388608	60	83208
2026-01-06 22:52:41.94	172.42	5.24	-51.5	-54.0	6.1	0.00e+00	0	35	104	8388608	60	83868
2026-01-06 22:52:44.96	172.62	5.00	-51.5	-53.9	6.1	0.00e+00	0	35	104	8388608	60	83161
2026-01-06 22:52:47.99	172.81	4.77	-51.5	-53.9	6.1	0.00e+00	0	35	104	8388608	60	83174
2026-01-06 22:52:51.01	173.00	4.54	-51.5	-54.0	6.1	0.00e+00	0	35	104	8388608	60	83429
2026-01-06 22:52:54.04	173.19	4.31	-51.5	-54.0	6.1	0.00e+00	0	35	104	8388608	60	83597
2026-01-06 22:52:57.06	173.37	4.09	-51.5	-54.0	6.1	0.00e+00	0	35	104	8388608	60	83516
2026-01-06 22:53:00.08	173.55	3.87	-51.4	-53.9	6.1	0.00e+00	0	35	104	8388608	60	82548
2026-01-06 22:53:03.10	173.72	3.65	-51.4	-53.9	6.1	0.00e+00	0	35	104	8388608	60	83049
2026-01-06 22:53:06.12	173.90	3.43	-51.5	-53.9	6.1	0.00e+00	0	35	104	8388608	60	83245
2026-01-06 22:53:09.14	174.07	3.22	-51.4	-53.9	6.1	0.00e+00	0	35	104	8388608	60	82832
2026-01-06 22:53:12.17	174.23	3.00	-51.4	-53.9	6.1	0.00e+00	0	35	104	8388608	60	82753
2026-01-06 22:53:15.19	174.40	2.79	-51.4	-53.9	6.1	0.00e+00	0	35	104	8388608	60	82453
2026-01-06 22:53:18.22	174.56	2.58	-51.4	-53.9	6.1	0.00e+00	0	35	104	8388608	60	82821
2026-01-06 22:53:21.24	174.72	2.37	-51.4	-53.9	6.1	0.00e+00	0	35	104	8388608	60	82486
2026-01-06 22:53:24.27	174.87	2.17	-51.4	-53.8	6.1	0.00e+00	0	35	104	8388608	60	82307
2026-01-06 22:53:27.29	175.03	1.96	-51.4	-53.8	6.1	0.00e+00	0	35	104	8388608	60	82182
2026-01-06 22:53:30.31	175.18	1.76	-51.3	-53.8	6.1	0.00e+00	0	35	104	8388608	60	81598
2026-01-06 22:53:33.33	175.33	1.56	-51.4	-53.9	6.1	0.00e+00	0	35	104	8388608	60	82549
2026-01-06 22:53:36.35	175.47	1.36	-51.3	-53.8	6.1	0.00e+00	0	35	104	8388608	60	81807
2026-01-06 22:53:39.37	175.62	1.16	-51.3	-53.8	6.1	0.00e+00	0	35	104	8388608	60	81917
2026-01-06 22:53:42.40	175.76	0.97	-51.3	-53.8	6.1	0.00e+00	0	35	104	8388608	60	81412
2026-01-06 22:53:45.42	175.90	0.77	-51.3	-53.8	6.1	0.00e+00	0	35	104	8388608	60	81415
2026-01-06 22:53:48.45	176.04	0.58	-51.2	-53.7	6.1	0.00e+00	0	35	104	8388608	60	81342
2026-01-06 22:53:51.47	176.17	0.39	-51.2	-53.7	6.1	0.00e+00	0	35	104	8388608	60	80922
2026-01-06 22:53:54.49	176.31	0.20	-51.3	-53.7	6.1	0.00e+00	0	35	104	8388608	60	81345
2026-01-06 22:53:57.52	176.44	0.01	-51.2	-53.7	6.1	0.00e+00	0	35	104	8388608	60	81182

#Closed at: 2026-01-06 22:54:00
#Recorded file [8 MB]: D:/lorett/data/35034_260107_014303.dat