passes_logs/2026/01/06/R4.6S_Anadyr_2ch/R4.6S_Anadyr_2ch__20260106_020842_SUOMI_NPP_rec.log

#Pass ID: 20260106_020842_SUOMI NPP
#Satellite: SUOMI NPP
#Configuration: NPP
#almurnet v.1.7.20251203
#Start time: 2026-01-06 02:08:44

#Version: 2.2.20231116
#Station: R4.6S_Anadyr_2ch
#Location: 177.4865 lon 64.73178 lat
#TLE: 1 37849U 11061A   25350.92281687  .00000071  00000+0  54882-4 0  9996
#TLE: 2 37849  98.7777 288.2268 0002366 112.8570 247.2856 14.19515404732588

#Time	Az	El	Level	Level2	SNR	BER	BlckErr	Temp	State	Recorded	gain1	gain2
2026-01-06 02:08:44.09	204.34	0.10	-51.1	-63.8	3.5	1.52e+00	0	29	0	0	60	73499
2026-01-06 02:08:48.13	204.58	0.31	-51.2	-66.7	3.6	1.51e+00	0	30	104	0	60	104928
2026-01-06 02:08:52.18	204.82	0.53	-50.8	-66.4	3.6	1.51e+00	0	30	104	0	60	102445
2026-01-06 02:08:56.22	205.07	0.75	-50.4	-65.8	3.6	1.51e+00	0	30	104	0	60	95302
2026-01-06 02:09:00.27	205.32	0.97	-49.9	-65.2	3.6	1.51e+00	0	31	104	0	60	88740
2026-01-06 02:09:04.31	205.57	1.19	-49.9	-65.0	3.6	1.51e+00	0	31	104	0	60	86941
2026-01-06 02:09:08.35	205.83	1.42	-49.9	-65.2	3.6	1.51e+00	0	31	104	0	60	88686
2026-01-06 02:09:12.40	206.09	1.64	-49.9	-65.2	3.6	1.51e+00	0	31	104	0	60	88744
2026-01-06 02:09:16.44	206.36	1.87	-49.9	-65.1	3.6	1.51e+00	0	31	104	0	60	88088
2026-01-06 02:09:20.49	206.62	2.10	-49.8	-65.2	3.6	1.51e+00	0	31	104	0	60	88423
2026-01-06 02:09:24.53	206.90	2.33	-49.8	-65.2	3.6	1.51e+00	0	31	104	0	60	88851
2026-01-06 02:09:28.57	207.17	2.56	-49.8	-63.1	3.6	1.51e+00	0	31	104	0	60	69875
2026-01-06 02:09:32.62	207.45	2.79	-49.6	-61.1	3.8	1.50e+00	0	31	104	0	60	55657
2026-01-06 02:09:36.66	207.74	3.02	-46.7	-49.8	14.3	4.50e-06	0	31	102	1048576	60	15112
2026-01-06 02:09:40.70	208.03	3.25	-49.1	-56.6	4.9	1.50e+00	0	31	104	1048576	60	32804
2026-01-06 02:09:44.75	208.32	3.49	-45.2	-47.4	17.0	0.00e+00	70	31	0	1048576	60	11395
2026-01-06 02:09:48.79	208.62	3.73	-45.5	-47.7	16.8	0.00e+00	90	31	0	1048576	60	11873
2026-01-06 02:09:52.84	208.92	3.97	-43.8	-45.4	19.0	0.00e+00	0	31	0	1048576	60	9076
2026-01-06 02:09:56.88	209.23	4.21	-43.1	-44.6	19.8	0.00e+00	92	31	0	1048576	60	8251
2026-01-06 02:10:00.92	209.54	4.45	-42.9	-44.3	19.9	0.00e+00	92	31	0	1048576	60	8038
2026-01-06 02:10:04.97	209.86	4.69	-42.6	-44.0	20.3	0.00e+00	0	31	101	1048576	60	7694
2026-01-06 02:10:09.01	210.19	4.94	-42.5	-43.8	20.5	0.00e+00	0	31	101	1048576	60	7579
2026-01-06 02:10:13.06	210.51	5.18	-41.9	-43.1	21.1	0.00e+00	86	31	101	1048576	60	6935
2026-01-06 02:10:17.10	210.85	5.43	-41.8	-43.0	21.2	0.00e+00	92	31	101	1048576	60	6864
2026-01-06 02:10:21.14	211.18	5.68	-42.2	-43.4	20.9	0.00e+00	0	31	101	1048576	60	7228
2026-01-06 02:10:25.19	211.53	5.93	-42.2	-43.4	21.0	0.00e+00	2	31	101	1048576	60	7225
2026-01-06 02:10:29.23	211.88	6.18	-42.1	-43.3	21.2	0.00e+00	92	31	101	1048576	60	7118
2026-01-06 02:10:33.27	212.23	6.44	-41.9	-43.1	21.3	0.00e+00	92	31	101	1048576	60	6956
2026-01-06 02:10:37.32	212.60	6.69	-41.9	-43.1	21.3	0.00e+00	0	31	101	1048576	60	7005
2026-01-06 02:10:41.36	212.96	6.95	-41.8	-43.0	21.4	0.00e+00	92	31	101	1048576	60	6897
2026-01-06 02:10:45.41	213.34	7.21	-42.0	-43.2	21.3	0.00e+00	90	31	101	1048576	60	7070
2026-01-06 02:10:49.45	213.72	7.47	-41.8	-42.9	21.6	0.00e+00	0	31	101	1048576	60	6845
2026-01-06 02:10:53.49	214.11	7.73	-41.6	-42.7	21.7	0.00e+00	0	31	101	1048576	60	6656
2026-01-06 02:10:57.54	214.50	7.99	-41.7	-42.8	21.7	0.00e+00	90	31	101	1048576	60	6742
2026-01-06 02:11:01.58	214.90	8.26	-41.3	-42.4	22.1	0.00e+00	92	31	101	1048576	60	6392
2026-01-06 02:11:05.63	215.31	8.53	-41.2	-42.2	22.2	0.00e+00	0	31	101	1048576	60	6295
2026-01-06 02:11:09.67	215.73	8.80	-40.8	-41.8	22.5	0.00e+00	47	31	101	1048576	60	6017
2026-01-06 02:11:13.71	216.15	9.07	-41.1	-42.2	22.3	0.00e+00	92	31	101	1048576	60	6267
2026-01-06 02:11:17.76	216.58	9.34	-41.5	-42.6	21.9	0.00e+00	90	31	101	1048576	60	6597
2026-01-06 02:11:21.80	217.02	9.61	-41.8	-42.9	21.8	0.00e+00	0	31	101	1048576	60	6830
2026-01-06 02:11:25.85	217.46	9.89	-41.6	-42.7	21.9	0.00e+00	92	31	101	1048576	60	6682
2026-01-06 02:11:29.89	217.92	10.16	-41.2	-42.3	22.2	0.00e+00	92	31	101	1048576	60	6356
2026-01-06 02:11:33.93	218.38	10.44	-41.2	-42.2	22.3	0.00e+00	39	31	101	1048576	60	6312
2026-01-06 02:11:37.98	218.85	10.72	-41.0	-42.0	22.5	0.00e+00	0	31	101	1048576	60	6119
2026-01-06 02:11:42.02	219.33	11.00	-40.9	-41.9	22.6	0.00e+00	92	31	101	1048576	60	6099
2026-01-06 02:11:46.06	219.82	11.28	-40.9	-41.9	22.5	0.00e+00	92	31	101	1048576	60	6095
2026-01-06 02:11:50.11	220.32	11.57	-40.8	-41.8	22.7	0.00e+00	0	31	101	1048576	60	6019
2026-01-06 02:11:54.15	220.82	11.85	-40.9	-41.9	22.7	0.00e+00	16	31	101	1048576	60	6053
2026-01-06 02:11:58.19	221.34	12.14	-40.9	-41.9	22.7	0.00e+00	92	31	101	1048576	60	6075
2026-01-06 02:12:02.24	221.87	12.43	-41.3	-42.4	22.2	0.00e+00	90	31	101	1048576	60	6411
2026-01-06 02:12:06.28	222.40	12.72	-41.5	-42.6	22.1	0.00e+00	0	31	101	1048576	60	6585
2026-01-06 02:12:10.33	222.95	13.01	-41.2	-42.2	22.4	0.00e+00	90	31	101	1048576	60	6287
2026-01-06 02:12:14.37	223.51	13.30	-40.7	-41.7	22.8	0.00e+00	92	31	101	1048576	60	5919
2026-01-06 02:12:18.41	224.08	13.59	-40.5	-41.5	23.1	0.00e+00	0	31	101	1048576	60	5770
2026-01-06 02:12:22.46	224.66	13.88	-40.2	-41.1	23.1	0.00e+00	0	31	101	1048576	58	6221
2026-01-06 02:12:26.50	225.25	14.18	-40.2	-41.1	23.3	0.00e+00	91	31	101	1048576	58	6222
2026-01-06 02:12:30.54	225.85	14.47	-40.1	-41.1	23.3	0.00e+00	92	31	101	1048576	58	6183
2026-01-06 02:12:34.58	226.46	14.77	-40.5	-41.4	22.3	0.00e+00	0	31	101	1048576	58	6420
2026-01-06 02:12:38.63	227.09	15.06	-40.9	-41.9	22.5	0.00e+00	46	31	101	1048576	58	6838
2026-01-06 02:12:42.67	227.73	15.36	-40.6	-41.6	22.9	0.00e+00	92	31	101	1048576	58	6585
2026-01-06 02:12:46.72	228.38	15.66	-40.0	-40.9	23.3	0.00e+00	92	31	101	1048576	58	6099
2026-01-06 02:12:50.76	229.04	15.95	-39.5	-40.3	23.8	0.00e+00	0	31	101	1048576	58	5690
2026-01-06 02:12:54.80	229.71	16.25	-39.5	-40.4	23.9	0.00e+00	91	31	101	1048576	58	5728
2026-01-06 02:12:58.84	230.40	16.54	-39.1	-39.9	24.3	0.00e+00	91	31	101	1048576	56	6074
2026-01-06 02:13:02.89	231.10	16.84	-39.8	-40.7	23.7	0.00e+00	0	31	101	1048576	56	6623
2026-01-06 02:13:06.93	231.82	17.14	-40.1	-41.0	23.5	0.00e+00	0	31	101	1048576	56	6921
2026-01-06 02:13:10.97	232.55	17.43	-40.0	-40.9	23.5	0.00e+00	90	31	101	1048576	58	6088
2026-01-06 02:13:15.01	233.29	17.72	-40.0	-41.0	23.4	0.00e+00	92	31	101	1048576	58	6112
2026-01-06 02:13:19.06	234.05	18.02	-39.7	-40.6	23.9	0.00e+00	0	31	101	1048576	58	5852
2026-01-06 02:13:23.10	234.82	18.31	-38.9	-39.7	24.3	0.00e+00	0	31	101	1048576	56	5960
2026-01-06 02:13:27.15	235.61	18.60	-38.5	-39.3	24.7	0.00e+00	91	31	101	1048576	56	5691
2026-01-06 02:13:31.19	236.40	18.89	-38.7	-39.5	24.5	0.00e+00	91	31	101	1048576	56	5797
2026-01-06 02:13:35.24	237.22	19.17	-38.4	-39.2	24.7	0.00e+00	33	31	101	1048576	56	5592
2026-01-06 02:13:39.28	238.05	19.45	-38.5	-39.3	24.6	0.00e+00	92	31	101	1048576	56	5670
2026-01-06 02:13:43.32	238.89	19.73	-38.5	-39.3	24.6	0.00e+00	92	32	101	1048576	56	5672
2026-01-06 02:13:47.37	239.76	20.01	-38.9	-39.8	24.4	0.00e+00	0	31	101	1048576	56	5983
2026-01-06 02:13:51.41	240.63	20.28	-38.5	-39.2	24.8	0.00e+00	0	31	101	1048576	56	5623
2026-01-06 02:13:55.45	241.52	20.55	-38.6	-39.3	24.6	0.00e+00	92	31	101	1048576	56	5694
2026-01-06 02:13:59.50	242.43	20.82	-39.4	-40.2	24.1	0.00e+00	92	31	101	1048576	56	6309
2026-01-06 02:14:03.54	243.35	21.08	-39.2	-40.0	24.3	0.00e+00	0	31	101	1048576	56	6131
2026-01-06 02:14:07.58	244.28	21.34	-39.4	-40.3	24.0	0.00e+00	46	31	101	1048576	56	6334
2026-01-06 02:14:11.63	245.23	21.59	-39.3	-40.1	24.1	0.00e+00	63	31	101	1048576	56	6200
2026-01-06 02:14:15.67	246.20	21.83	-40.2	-41.2	23.4	0.00e+00	57	31	101	1048576	58	6262
2026-01-06 02:14:19.72	247.18	22.07	-39.2	-40.1	24.2	0.00e+00	0	31	101	1048576	56	6185
2026-01-06 02:14:23.76	248.18	22.31	-39.2	-40.0	24.2	0.00e+00	90	31	101	1048576	56	6165
2026-01-06 02:14:27.80	249.18	22.53	-39.7	-40.6	23.9	0.00e+00	90	31	101	1048576	56	6567
2026-01-06 02:14:31.85	250.21	22.75	-39.5	-40.3	24.0	0.00e+00	0	31	101	1048576	56	6383
2026-01-06 02:14:35.89	251.25	22.96	-39.9	-40.8	23.7	0.00e+00	0	31	101	1048576	56	6699
2026-01-06 02:14:39.93	252.30	23.17	-40.7	-41.7	22.9	0.00e+00	59	31	101	1048576	58	6668
2026-01-06 02:14:43.98	253.36	23.36	-40.8	-41.7	23.1	0.00e+00	92	31	101	1048576	60	5946
2026-01-06 02:14:48.02	254.44	23.55	-40.5	-41.5	23.2	0.00e+00	0	31	101	1048576	58	6504
2026-01-06 02:14:52.07	255.53	23.73	-41.8	-42.9	22.0	0.00e+00	5	31	101	1048576	60	6810
2026-01-06 02:14:56.11	256.63	23.89	-41.9	-43.0	22.0	0.00e+00	91	31	101	1048576	60	6891
2026-01-06 02:15:00.15	257.74	24.05	-41.5	-42.6	22.4	0.00e+00	62	31	101	1048576	60	6557
2026-01-06 02:15:04.20	258.87	24.20	-44.5	-46.1	19.2	0.00e+00	0	31	101	1048576	60	9861
2026-01-06 02:15:08.24	260.00	24.34	-43.0	-44.2	21.1	0.00e+00	91	31	101	1048576	60	7908
2026-01-06 02:15:12.28	261.14	24.46	-42.8	-44.0	20.9	0.00e+00	91	31	101	1048576	60	7744
2026-01-06 02:15:16.33	262.29	24.58	-41.8	-42.9	22.1	0.00e+00	0	31	101	1048576	60	6819
2026-01-06 02:15:20.37	263.45	24.68	-42.8	-44.0	21.0	0.00e+00	0	31	101	1048576	60	7749
2026-01-06 02:15:24.41	264.61	24.77	-42.0	-43.1	22.1	0.00e+00	92	31	101	1048576	60	6962
2026-01-06 02:15:28.46	265.79	24.85	-40.7	-41.6	23.1	0.00e+00	92	31	101	1048576	60	5871
2026-01-06 02:15:32.50	266.96	24.92	-40.4	-41.3	23.3	0.00e+00	0	31	101	1048576	58	6383
2026-01-06 02:15:36.55	268.14	24.97	-41.1	-42.1	22.8	0.00e+00	49	31	101	1048576	60	6184
2026-01-06 02:15:40.59	269.33	25.01	-40.9	-41.9	22.7	0.00e+00	53	31	101	1048576	60	6084
2026-01-06 02:15:44.63	270.51	25.04	-40.6	-41.6	23.1	0.00e+00	2	31	101	1048576	60	5849
2026-01-06 02:15:48.67	271.70	25.06	-40.7	-41.7	23.1	0.00e+00	0	31	101	1048576	60	5927
2026-01-06 02:15:52.72	272.89	25.06	-39.5	-40.3	24.0	0.00e+00	90	31	101	1048576	58	5695
2026-01-06 02:15:56.76	274.08	25.05	-40.2	-41.1	23.5	0.00e+00	91	31	101	1048576	58	6213
2026-01-06 02:16:00.81	275.27	25.03	-39.6	-40.4	23.9	0.00e+00	0	31	101	1048576	58	5728
2026-01-06 02:16:04.85	276.45	25.00	-40.1	-41.0	23.3	0.00e+00	0	32	101	1048576	58	6143
2026-01-06 02:16:08.89	277.63	24.95	-40.9	-41.9	22.8	0.00e+00	52	31	101	1048576	58	6779
2026-01-06 02:16:12.94	278.81	24.89	-40.1	-41.0	23.5	0.00e+00	92	32	101	1048576	58	6119
2026-01-06 02:16:16.99	279.99	24.82	-40.0	-40.9	23.5	0.00e+00	0	31	101	1048576	58	6083
2026-01-06 02:16:21.03	281.15	24.74	-40.0	-40.9	23.6	0.00e+00	53	31	101	1048576	58	6046
2026-01-06 02:16:25.07	282.31	24.64	-39.8	-40.6	23.8	0.00e+00	92	31	101	1048576	58	5888
2026-01-06 02:16:29.12	283.47	24.53	-38.8	-39.6	24.5	0.00e+00	0	31	101	1048576	56	5868
2026-01-06 02:16:33.16	284.61	24.42	-39.3	-40.2	24.0	0.00e+00	0	31	101	1048576	56	6253
2026-01-06 02:16:37.20	285.75	24.29	-39.1	-40.0	24.4	0.00e+00	92	31	101	1048576	56	6118
2026-01-06 02:16:41.25	286.87	24.15	-38.8	-39.7	24.5	0.00e+00	92	32	101	1048576	56	5904
2026-01-06 02:16:45.29	287.99	23.99	-38.8	-39.6	24.5	0.00e+00	0	31	101	1048576	56	5857
2026-01-06 02:16:49.33	289.09	23.83	-39.6	-40.5	23.8	0.00e+00	0	32	101	1048576	56	6534
2026-01-06 02:16:53.38	290.19	23.66	-38.4	-39.2	24.7	0.00e+00	63	31	101	1048576	56	5616
2026-01-06 02:16:57.42	291.27	23.48	-38.0	-38.8	25.0	0.00e+00	24	31	101	1048576	54	5998
2026-01-06 02:17:01.46	292.34	23.29	-37.3	-38.1	25.5	0.00e+00	0	31	101	1048576	54	5509
2026-01-06 02:17:05.51	293.40	23.10	-38.0	-38.7	25.0	0.00e+00	92	31	101	1048576	52	6677
2026-01-06 02:17:09.55	294.44	22.89	-38.0	-38.8	25.0	0.00e+00	90	31	101	1048576	54	6002
2026-01-06 02:17:13.59	295.47	22.68	-37.5	-38.2	25.4	0.00e+00	0	31	101	1048576	52	6303
2026-01-06 02:17:17.63	296.48	22.46	-38.3	-39.1	24.6	0.00e+00	0	32	101	1048576	54	6189
2026-01-06 02:17:21.68	297.48	22.23	-37.9	-38.7	25.0	0.00e+00	90	31	101	1048576	54	5899
2026-01-06 02:17:25.72	298.47	21.99	-38.3	-39.1	24.8	0.00e+00	92	31	101	1048576	54	6243
2026-01-06 02:17:29.77	299.44	21.75	-38.4	-39.2	24.4	0.00e+00	0	31	101	1048576	54	6251
2026-01-06 02:17:33.81	300.40	21.51	-38.6	-39.4	24.5	0.00e+00	0	31	101	1048576	54	6444
2026-01-06 02:17:37.85	301.34	21.26	-39.9	-40.8	23.7	0.00e+00	64	31	101	1048576	56	6699
2026-01-06 02:17:41.90	302.27	21.00	-38.9	-39.7	24.5	0.00e+00	11	31	101	1048576	56	5903
2026-01-06 02:17:45.94	303.18	20.74	-38.7	-39.5	24.5	0.00e+00	0	31	101	1048576	56	5816
2026-01-06 02:17:49.98	304.07	20.47	-39.8	-40.7	23.6	0.00e+00	50	31	101	1048576	56	6682
2026-01-06 02:17:54.03	304.96	20.20	-39.9	-40.8	23.6	0.00e+00	90	31	101	1048576	58	6019
2026-01-06 02:17:58.07	305.82	19.93	-39.3	-40.1	24.1	0.00e+00	0	31	101	1048576	56	6239
2026-01-06 02:18:02.12	306.67	19.66	-39.9	-40.8	23.6	0.00e+00	0	31	101	1048576	56	6717
2026-01-06 02:18:06.16	307.51	19.38	-40.3	-41.3	23.2	0.00e+00	90	31	101	1048576	58	6332
2026-01-06 02:18:10.21	308.33	19.09	-39.9	-40.8	23.4	0.00e+00	92	31	101	1048576	58	5992
2026-01-06 02:18:14.25	309.14	18.81	-40.8	-41.8	22.8	0.00e+00	0	31	101	1048576	58	6732
2026-01-06 02:18:18.30	309.93	18.52	-40.2	-41.2	23.2	0.00e+00	0	31	101	1048576	58	6275
2026-01-06 02:18:22.34	310.71	18.24	-40.4	-41.4	23.1	0.00e+00	92	31	101	1048576	58	6420
2026-01-06 02:18:26.38	311.47	17.95	-39.3	-40.2	23.8	0.00e+00	0	31	101	1048576	58	5571
2026-01-06 02:18:30.43	312.22	17.66	-39.9	-40.9	23.3	0.00e+00	0	31	101	1048576	58	6043
2026-01-06 02:18:34.47	312.95	17.36	-40.0	-41.0	23.4	0.00e+00	45	31	101	1048576	58	6116
2026-01-06 02:18:38.51	313.67	17.07	-40.9	-41.9	22.6	0.00e+00	64	31	101	1048576	58	6823
2026-01-06 02:18:42.56	314.38	16.78	-41.5	-42.6	22.1	0.00e+00	0	31	101	1048576	60	6608
2026-01-06 02:18:46.60	315.08	16.48	-39.6	-40.5	23.7	0.00e+00	0	31	101	1048576	58	5806
2026-01-06 02:18:50.65	315.76	16.19	-40.2	-41.1	23.3	0.00e+00	60	31	101	1048576	58	6220
2026-01-06 02:18:54.69	316.43	15.90	-40.3	-41.3	23.0	0.00e+00	92	31	101	1048576	58	6327
2026-01-06 02:18:58.73	317.08	15.60	-39.7	-40.5	23.6	0.00e+00	0	32	101	1048576	58	5828
2026-01-06 02:19:02.78	317.73	15.31	-40.5	-41.5	23.0	0.00e+00	48	31	101	1048576	58	6472
2026-01-06 02:19:06.82	318.36	15.01	-40.2	-41.2	23.1	0.00e+00	90	31	101	1048576	58	6263
2026-01-06 02:19:10.87	318.98	14.72	-40.3	-41.3	23.0	0.00e+00	0	31	101	1048576	58	6369
2026-01-06 02:19:14.91	319.59	14.43	-41.0	-42.1	22.4	0.00e+00	0	31	101	1048576	60	6201
2026-01-06 02:19:18.95	320.18	14.14	-40.4	-41.4	22.9	0.00e+00	50	31	101	1048576	60	5738
2026-01-06 02:19:23.00	320.77	13.84	-41.0	-42.0	22.2	0.00e+00	0	31	101	1048576	60	6136
2026-01-06 02:19:27.04	321.34	13.55	-41.4	-42.5	21.8	0.00e+00	0	31	101	1048576	60	6533
2026-01-06 02:19:31.08	321.90	13.27	-41.2	-42.3	22.2	0.00e+00	0	31	101	1048576	60	6321
2026-01-06 02:19:35.13	322.46	12.98	-41.2	-42.2	22.1	0.00e+00	92	31	101	1048576	60	6293
2026-01-06 02:19:39.17	323.00	12.69	-41.3	-42.3	22.2	0.00e+00	0	31	101	1048576	60	6387
2026-01-06 02:19:43.22	323.53	12.40	-40.7	-41.7	22.6	0.00e+00	0	31	101	1048576	60	5964
2026-01-06 02:19:47.26	324.05	12.12	-40.0	-40.9	23.2	0.00e+00	0	31	101	1048576	58	6060
2026-01-06 02:19:51.30	324.57	11.83	-40.3	-41.3	22.9	0.00e+00	92	31	101	1048576	58	6366
2026-01-06 02:19:55.35	325.07	11.55	-40.7	-41.7	22.4	0.00e+00	0	31	101	1048576	58	6684
2026-01-06 02:19:59.39	325.56	11.27	-40.6	-41.6	22.6	0.00e+00	0	31	101	1048576	58	6587
2026-01-06 02:20:03.44	326.05	10.99	-40.9	-42.0	22.4	0.00e+00	47	31	101	1048576	58	6872
2026-01-06 02:20:07.48	326.53	10.71	-40.9	-41.9	22.4	0.00e+00	0	32	101	1048576	58	6811
2026-01-06 02:20:11.52	326.99	10.44	-40.9	-42.0	22.3	0.00e+00	0	32	101	1048576	58	6877
2026-01-06 02:20:15.57	327.45	10.16	-41.0	-42.0	22.3	0.00e+00	0	31	101	1048576	60	6150
2026-01-06 02:20:19.61	327.90	9.89	-41.3	-42.4	21.9	0.00e+00	92	32	101	1048576	60	6395
2026-01-06 02:20:23.65	328.35	9.62	-41.7	-42.8	21.5	0.00e+00	0	32	101	1048576	60	6717
2026-01-06 02:20:27.70	328.78	9.35	-41.8	-43.0	21.5	0.00e+00	0	31	101	1048576	60	6860
2026-01-06 02:20:31.74	329.21	9.08	-41.9	-43.0	21.4	0.00e+00	0	31	101	1048576	60	6916
2026-01-06 02:20:35.78	329.63	8.81	-41.6	-42.8	21.5	0.00e+00	68	32	101	1048576	60	6716
2026-01-06 02:20:39.83	330.04	8.54	-41.3	-42.4	21.7	0.00e+00	0	31	101	1048576	60	6455
2026-01-06 02:20:43.87	330.45	8.28	-41.5	-42.6	21.7	0.00e+00	0	32	101	1048576	60	6597
2026-01-06 02:20:47.92	330.85	8.02	-41.7	-42.9	21.4	0.00e+00	46	32	101	1048576	60	6824
2026-01-06 02:20:51.96	331.24	7.76	-41.6	-42.8	21.4	0.00e+00	0	32	101	1048576	60	6744
2026-01-06 02:20:56.00	331.63	7.50	-41.8	-43.0	21.3	0.00e+00	0	32	101	1048576	60	6857
2026-01-06 02:21:00.05	332.01	7.24	-41.6	-42.8	21.4	0.00e+00	0	31	101	1048576	60	6749
2026-01-06 02:21:04.09	332.38	6.98	-42.3	-43.6	20.6	0.00e+00	33	31	101	1048576	60	7379
2026-01-06 02:21:08.13	332.75	6.73	-42.8	-44.2	20.0	0.00e+00	0	32	101	1048576	60	7924
2026-01-06 02:21:12.18	333.11	6.47	-43.1	-44.6	19.5	0.00e+00	0	32	101	1048576	60	8327
2026-01-06 02:21:16.22	333.46	6.22	-42.8	-44.3	19.6	0.00e+00	33	31	101	1048576	60	8003
2026-01-06 02:21:20.26	333.81	5.97	-43.3	-45.1	18.0	0.00e+00	92	32	101	1048576	60	8791
2026-01-06 02:21:24.31	334.16	5.73	-44.1	-46.8	15.3	0.00e+00	0	32	101	1048576	60	10681
2026-01-06 02:21:28.35	334.49	5.48	-44.9	-48.9	12.4	4.65e-05	0	32	101	1048576	60	13533
2026-01-06 02:21:32.39	334.83	5.23	-45.6	-51.7	8.7	1.76e-02	26	32	101	1048576	60	18658
2026-01-06 02:21:36.44	335.16	4.99	-46.0	-53.3	6.6	1.67e-01	0	32	101	1048576	60	22546
2026-01-06 02:21:40.48	335.48	4.75	-46.2	-55.2	4.6	7.03e-01	0	32	101	1048576	60	27911
2026-01-06 02:21:44.53	335.80	4.51	-46.2	-56.7	3.8	1.38e+00	2	32	101	1048576	60	33506
2026-01-06 02:21:48.57	336.11	4.27	-46.2	-59.6	3.6	1.50e+00	0	32	104	1048576	60	46534
2026-01-06 02:21:52.61	336.42	4.03	-46.1	-60.2	3.6	1.51e+00	0	32	104	1048576	60	49813
2026-01-06 02:21:56.65	336.72	3.79	-46.2	-60.7	3.6	1.51e+00	0	32	104	1048576	60	52649
2026-01-06 02:22:00.70	337.02	3.56	-46.0	-61.1	3.6	1.51e+00	0	32	104	1048576	60	55356
2026-01-06 02:22:04.74	337.31	3.33	-46.0	-61.3	3.6	1.51e+00	0	32	104	1048576	60	56816
2026-01-06 02:22:08.79	337.60	3.09	-46.0	-61.4	3.6	1.51e+00	0	32	104	1048576	60	57061
2026-01-06 02:22:12.83	337.89	2.86	-50.9	-66.3	3.6	1.51e+00	0	32	104	1048576	60	100648
2026-01-06 02:22:16.87	338.17	2.63	-51.3	-66.6	3.6	1.51e+00	0	32	104	1048576	60	104558
2026-01-06 02:22:20.92	338.45	2.41	-51.3	-66.6	3.6	1.51e+00	0	32	104	1048576	60	104723
2026-01-06 02:22:24.96	338.72	2.18	-51.2	-66.5	3.6	1.51e+00	0	32	104	1048576	60	103002
2026-01-06 02:22:29.00	338.99	1.95	-51.2	-66.5	3.6	1.51e+00	0	32	104	1048576	60	103441
2026-01-06 02:22:33.05	339.26	1.73	-51.2	-66.5	3.6	1.51e+00	0	32	104	1048576	60	103576
2026-01-06 02:22:37.10	339.52	1.51	-51.2	-66.6	3.6	1.51e+00	0	32	104	1048576	60	103717
2026-01-06 02:22:41.14	339.78	1.29	-51.2	-66.5	3.6	1.51e+00	0	32	104	1048576	60	103618
2026-01-06 02:22:45.18	340.04	1.07	-51.2	-66.5	3.6	1.51e+00	0	32	104	1048576	60	103290
2026-01-06 02:22:49.23	340.29	0.85	-51.2	-66.5	3.5	1.51e+00	0	32	104	1048576	60	103318
2026-01-06 02:22:53.27	340.54	0.63	-51.1	-66.5	3.6	1.51e+00	0	32	104	1048576	60	103248
2026-01-06 02:22:57.32	340.79	0.41	-51.2	-66.6	3.6	1.51e+00	0	32	104	1048576	60	103703
2026-01-06 02:23:01.36	341.03	0.20	-51.1	-66.5	3.6	1.51e+00	0	32	104	1048576	60	103020
2026-01-06 02:23:05.40	341.27	-0.02	-51.2	-66.5	3.6	1.51e+00	0	32	104	1048576	60	103096

#Closed at: 2026-01-06 02:23:06
#Recorded file [1 MB]: D:/lorett/data/35034_260106_050844.dat