passes_logs/2026/01/06/R4.6S_Anadyr_2ch/R4.6S_Anadyr_2ch__20260106_191234_SUOMI_NPP_rec.log

#Pass ID: 20260106_191234_SUOMI NPP
#Satellite: SUOMI NPP
#Configuration: NPP
#almurnet v.1.7.20251203
#Start time: 2026-01-06 19:12:37

#Version: 2.2.20231116
#Station: R4.6S_Anadyr_2ch
#Location: 177.4865 lon 64.73178 lat
#TLE: 1 37849U 11061A   25350.92281687  .00000071  00000+0  54882-4 0  9996
#TLE: 2 37849  98.7777 288.2268 0002366 112.8570 247.2856 14.19515404732588

#Time	Az	El	Level	Level2	SNR	BER	BlckErr	Temp	State	Recorded	gain1	gain2
2026-01-06 19:12:37.27	48.94	0.13	-50.7	-61.6	3.5	8.45e-01	0	28	0	0	60	59296
2026-01-06 19:12:40.30	48.71	0.28	-51.1	-66.4	3.6	1.51e+00	0	29	104	0	60	102247
2026-01-06 19:12:43.33	48.48	0.42	-51.1	-66.5	3.6	1.51e+00	0	30	104	0	60	102857
2026-01-06 19:12:46.36	48.24	0.57	-51.1	-66.5	3.6	1.51e+00	0	30	104	0	60	102934
2026-01-06 19:12:49.40	48.01	0.72	-51.1	-66.5	3.6	1.51e+00	0	30	104	0	60	102514
2026-01-06 19:12:52.43	47.77	0.87	-51.1	-66.4	3.6	1.51e+00	0	30	104	0	60	102424
2026-01-06 19:12:55.46	47.53	1.02	-51.1	-66.4	3.6	1.51e+00	0	30	104	0	60	102273
2026-01-06 19:12:58.49	47.28	1.17	-51.1	-66.4	3.6	1.51e+00	0	30	104	0	60	101944
2026-01-06 19:13:01.52	47.04	1.32	-51.1	-66.5	3.6	1.51e+00	0	30	104	0	60	102544
2026-01-06 19:13:04.56	46.79	1.47	-51.1	-66.5	3.6	1.51e+00	0	30	104	0	60	103623
2026-01-06 19:13:07.59	46.54	1.62	-51.1	-66.5	3.6	1.51e+00	0	30	104	0	60	103019
2026-01-06 19:13:10.62	46.28	1.77	-51.1	-66.5	3.6	1.51e+00	0	30	104	0	60	102675
2026-01-06 19:13:13.65	46.03	1.92	-51.1	-66.5	3.6	1.51e+00	0	30	104	0	60	102915
2026-01-06 19:13:16.68	45.77	2.07	-51.1	-66.5	3.6	1.51e+00	0	30	104	0	60	102664
2026-01-06 19:13:19.72	45.50	2.22	-51.1	-66.5	3.6	1.51e+00	0	30	104	0	60	102611
2026-01-06 19:13:22.75	45.24	2.37	-51.1	-66.4	3.6	1.51e+00	0	30	104	0	60	102385
2026-01-06 19:13:25.78	44.97	2.52	-51.1	-66.5	3.6	1.51e+00	0	30	104	0	60	102875
2026-01-06 19:13:28.81	44.70	2.67	-51.1	-66.5	3.6	1.51e+00	0	30	104	0	60	102860
2026-01-06 19:13:31.84	44.42	2.83	-51.1	-66.5	3.6	1.51e+00	0	30	104	0	60	103418
2026-01-06 19:13:34.87	44.15	2.98	-51.1	-66.5	3.6	1.51e+00	0	30	104	0	60	102878
2026-01-06 19:13:37.91	43.87	3.13	-51.1	-66.5	3.6	1.51e+00	0	30	104	0	60	102543
2026-01-06 19:13:40.94	43.58	3.28	-51.1	-66.4	3.6	1.51e+00	0	31	104	0	60	102456
2026-01-06 19:13:43.97	43.30	3.44	-51.1	-66.5	3.6	1.51e+00	0	30	104	0	60	102873
2026-01-06 19:13:47.00	43.01	3.59	-51.1	-66.5	3.6	1.51e+00	0	30	104	0	60	102583
2026-01-06 19:13:50.03	42.72	3.74	-51.0	-66.4	3.6	1.51e+00	0	31	104	0	60	102338
2026-01-06 19:13:53.06	42.42	3.90	-51.1	-66.4	3.6	1.51e+00	0	30	104	0	60	102136
2026-01-06 19:13:56.09	42.12	4.05	-51.1	-66.4	3.6	1.51e+00	0	31	104	0	60	102341
2026-01-06 19:13:59.13	41.82	4.20	-51.1	-66.5	3.6	1.51e+00	0	31	104	0	60	102493
2026-01-06 19:14:02.16	41.52	4.36	-51.1	-66.4	3.6	1.51e+00	0	31	104	0	60	102231
2026-01-06 19:14:05.19	41.21	4.51	-51.1	-66.4	3.6	1.51e+00	0	31	104	0	60	102211
2026-01-06 19:14:08.22	40.90	4.66	-51.1	-66.4	3.6	1.51e+00	0	31	104	0	60	101941
2026-01-06 19:14:11.26	40.58	4.82	-51.0	-66.4	3.6	1.51e+00	0	31	104	0	60	102264
2026-01-06 19:14:14.29	40.26	4.97	-51.0	-66.4	3.6	1.51e+00	0	31	104	0	60	102128
2026-01-06 19:14:17.32	39.94	5.13	-51.1	-66.4	3.6	1.51e+00	0	31	104	0	60	101880
2026-01-06 19:14:20.36	39.61	5.28	-51.0	-66.4	3.6	1.51e+00	0	31	104	0	60	101871
2026-01-06 19:14:23.39	39.28	5.44	-51.0	-66.4	3.6	1.51e+00	0	31	104	0	60	102027
2026-01-06 19:14:26.43	38.95	5.59	-51.0	-66.4	3.6	1.51e+00	0	31	104	0	60	101819
2026-01-06 19:14:29.46	38.61	5.74	-51.0	-66.4	3.6	1.51e+00	0	31	104	0	60	101986
2026-01-06 19:14:32.49	38.27	5.90	-51.0	-66.4	3.6	1.51e+00	0	31	104	0	60	101974
2026-01-06 19:14:35.52	37.93	6.05	-51.0	-66.4	3.6	1.51e+00	0	31	104	0	60	102090
2026-01-06 19:14:38.55	37.58	6.21	-51.0	-66.5	3.6	1.51e+00	0	31	104	0	60	102515
2026-01-06 19:14:41.58	37.23	6.36	-51.1	-66.4	3.6	1.51e+00	0	31	104	0	60	101837
2026-01-06 19:14:44.61	36.88	6.51	-51.1	-66.4	3.6	1.51e+00	0	31	104	0	60	101919
2026-01-06 19:14:47.64	36.52	6.67	-51.0	-66.4	3.6	1.51e+00	0	31	104	0	60	101977
2026-01-06 19:14:50.67	36.16	6.82	-51.0	-66.4	3.6	1.51e+00	0	31	104	0	60	101862
2026-01-06 19:14:53.70	35.79	6.97	-51.0	-66.4	3.6	1.51e+00	0	31	104	0	60	102144
2026-01-06 19:14:56.73	35.42	7.13	-51.0	-66.4	3.6	1.51e+00	0	31	104	0	60	101822
2026-01-06 19:14:59.75	35.04	7.28	-51.1	-66.5	3.6	1.51e+00	0	31	104	0	60	102514
2026-01-06 19:15:02.78	34.67	7.43	-51.1	-66.4	3.6	1.51e+00	0	31	104	0	60	102247
2026-01-06 19:15:05.81	34.28	7.58	-51.0	-66.4	3.6	1.51e+00	0	31	104	0	60	102260
2026-01-06 19:15:08.84	33.90	7.73	-51.0	-66.4	3.6	1.51e+00	0	31	104	0	60	101849
2026-01-06 19:15:11.87	33.50	7.89	-51.0	-66.4	3.6	1.51e+00	0	31	104	0	60	102296
2026-01-06 19:15:14.90	33.11	8.04	-51.0	-66.4	3.6	1.51e+00	0	31	104	0	60	101604
2026-01-06 19:15:17.93	32.71	8.19	-51.0	-66.4	3.6	1.51e+00	0	31	104	0	60	101872
2026-01-06 19:15:20.96	32.31	8.34	-51.0	-66.4	3.6	1.51e+00	0	31	104	0	60	101914
2026-01-06 19:15:23.99	31.90	8.49	-50.9	-66.5	3.6	1.51e+00	0	31	104	0	60	102535
2026-01-06 19:15:27.02	31.49	8.64	-50.9	-66.4	3.6	1.51e+00	0	31	104	0	60	102105
2026-01-06 19:15:30.05	31.07	8.78	-50.9	-66.4	3.6	1.51e+00	0	31	104	0	60	101891
2026-01-06 19:15:33.08	30.65	8.93	-50.9	-66.4	3.6	1.51e+00	0	31	104	0	60	101672
2026-01-06 19:15:36.11	30.22	9.08	-51.0	-66.4	3.6	1.51e+00	0	31	104	0	60	101766
2026-01-06 19:15:39.13	29.79	9.23	-50.9	-66.4	3.6	1.51e+00	0	31	104	0	60	101409
2026-01-06 19:15:42.16	29.36	9.37	-50.9	-66.4	3.6	1.51e+00	0	31	104	0	60	101447
2026-01-06 19:15:45.19	28.92	9.52	-50.9	-66.4	3.6	1.51e+00	0	31	104	0	60	102053
2026-01-06 19:15:48.22	28.48	9.66	-51.0	-66.4	3.6	1.51e+00	0	31	104	0	60	101509
2026-01-06 19:15:51.25	28.03	9.81	-51.0	-66.4	3.6	1.51e+00	0	31	104	0	60	101842
2026-01-06 19:15:54.28	27.58	9.95	-51.0	-66.4	3.6	1.51e+00	0	31	104	0	60	101521
2026-01-06 19:15:57.31	27.12	10.09	-51.0	-66.4	3.6	1.51e+00	0	31	104	0	60	101381
2026-01-06 19:16:00.34	26.66	10.23	-51.0	-66.4	3.6	1.51e+00	0	31	104	0	60	101954
2026-01-06 19:16:03.37	26.20	10.37	-51.0	-66.4	3.6	1.51e+00	0	31	104	0	60	101487
2026-01-06 19:16:06.40	25.73	10.51	-51.0	-66.4	3.6	1.51e+00	0	31	104	0	60	102032
2026-01-06 19:16:09.43	25.25	10.65	-51.0	-66.3	3.6	1.51e+00	0	31	104	0	60	101161
2026-01-06 19:16:12.46	24.77	10.78	-51.0	-66.4	3.6	1.51e+00	0	31	104	0	60	101680
2026-01-06 19:16:15.49	24.29	10.92	-51.0	-66.4	3.6	1.51e+00	0	31	104	0	60	101293
2026-01-06 19:16:18.51	23.80	11.05	-51.0	-66.4	3.6	1.51e+00	0	31	104	0	60	102294
2026-01-06 19:16:21.54	23.31	11.19	-51.0	-66.4	3.6	1.51e+00	0	31	104	0	60	101591
2026-01-06 19:16:24.58	22.81	11.32	-51.0	-66.4	3.6	1.51e+00	0	31	104	0	60	101544
2026-01-06 19:16:27.60	22.31	11.45	-51.0	-66.3	3.6	1.51e+00	0	31	104	0	60	101216
2026-01-06 19:16:30.63	21.80	11.58	-51.0	-66.4	3.6	1.51e+00	0	31	104	0	60	101687
2026-01-06 19:16:33.66	21.29	11.70	-51.0	-66.4	3.6	1.51e+00	0	31	104	0	60	101596
2026-01-06 19:16:36.69	20.78	11.83	-51.0	-66.4	3.6	1.51e+00	0	31	104	0	60	101402
2026-01-06 19:16:39.72	20.26	11.95	-51.0	-66.3	3.6	1.51e+00	0	31	104	0	60	101014
2026-01-06 19:16:42.75	19.73	12.07	-51.0	-66.4	3.6	1.51e+00	0	31	104	0	60	101550
2026-01-06 19:16:45.78	19.20	12.19	-51.0	-66.4	3.6	1.51e+00	0	31	104	0	60	101655
2026-01-06 19:16:48.81	18.67	12.31	-51.0	-66.3	3.6	1.51e+00	0	31	104	0	60	101072
2026-01-06 19:16:51.83	18.14	12.43	-51.0	-66.4	3.6	1.51e+00	0	31	104	0	60	101479
2026-01-06 19:16:54.86	17.59	12.54	-51.0	-66.4	3.6	1.51e+00	0	31	104	0	60	101553
2026-01-06 19:16:57.89	17.05	12.65	-51.0	-66.4	3.6	1.51e+00	0	31	104	0	60	101377
2026-01-06 19:17:00.92	16.50	12.76	-51.0	-66.4	3.6	1.51e+00	0	31	104	0	60	101476
2026-01-06 19:17:03.95	15.94	12.87	-51.0	-66.4	3.6	1.51e+00	0	31	104	0	60	101325
2026-01-06 19:17:06.98	15.39	12.98	-51.0	-66.3	3.6	1.51e+00	0	31	104	0	60	101272
2026-01-06 19:17:10.00	14.83	13.08	-51.0	-66.3	3.6	1.51e+00	0	31	104	0	60	100886
2026-01-06 19:17:13.03	14.26	13.18	-51.0	-66.3	3.6	1.51e+00	0	31	104	0	60	100843
2026-01-06 19:17:16.06	13.69	13.28	-51.0	-66.3	3.6	1.51e+00	0	31	104	0	60	100730
2026-01-06 19:17:19.09	13.12	13.38	-51.0	-66.3	3.6	1.51e+00	0	31	104	0	60	101030
2026-01-06 19:17:22.11	12.54	13.47	-51.0	-66.3	3.6	1.51e+00	0	31	104	0	60	100842
2026-01-06 19:17:25.14	11.96	13.56	-51.0	-66.3	3.6	1.51e+00	0	31	104	0	60	100732
2026-01-06 19:17:28.18	11.37	13.65	-50.9	-66.3	3.6	1.51e+00	0	31	104	0	60	100736
2026-01-06 19:17:31.21	10.78	13.74	-50.9	-66.3	3.6	1.51e+00	0	31	104	0	60	100693
2026-01-06 19:17:34.24	10.19	13.82	-50.9	-66.3	3.6	1.51e+00	0	31	104	0	60	100667
2026-01-06 19:17:37.27	9.60	13.90	-50.9	-66.3	3.6	1.51e+00	0	31	104	0	60	100979
2026-01-06 19:17:40.29	9.00	13.98	-50.9	-66.3	3.6	1.51e+00	0	31	104	0	60	100906
2026-01-06 19:17:43.32	8.40	14.06	-50.9	-66.3	3.6	1.51e+00	0	31	104	0	60	100927
2026-01-06 19:17:46.35	7.79	14.13	-50.9	-66.3	3.6	1.51e+00	0	31	104	0	60	100433
2026-01-06 19:17:49.38	7.18	14.20	-50.9	-66.3	3.6	1.51e+00	0	31	104	0	60	100293
2026-01-06 19:17:52.41	6.57	14.26	-50.9	-66.3	3.6	1.51e+00	0	31	104	0	60	100577
2026-01-06 19:17:55.44	5.96	14.33	-50.9	-66.3	3.6	1.51e+00	0	31	104	0	60	100498
2026-01-06 19:17:58.47	5.35	14.39	-50.9	-66.2	3.6	1.51e+00	0	31	104	0	60	99722
2026-01-06 19:18:01.50	4.73	14.44	-50.9	-66.2	3.6	1.51e+00	0	31	104	0	60	100070
2026-01-06 19:18:04.53	4.11	14.50	-50.9	-66.2	3.6	1.51e+00	0	31	104	0	60	99452
2026-01-06 19:18:07.57	3.48	14.55	-50.9	-66.2	3.6	1.51e+00	0	31	104	0	60	99753
2026-01-06 19:18:10.60	2.86	14.59	-50.8	-66.2	3.6	1.51e+00	0	31	104	0	60	100061
2026-01-06 19:18:13.63	2.23	14.64	-50.8	-66.2	3.6	1.51e+00	0	31	104	0	60	99983
2026-01-06 19:18:16.66	1.60	14.68	-50.8	-66.2	3.6	1.51e+00	0	31	104	0	60	99382
2026-01-06 19:18:19.69	0.97	14.71	-50.8	-66.2	3.6	1.51e+00	0	31	104	0	60	99433
2026-01-06 19:18:22.72	0.34	14.75	-50.8	-66.2	3.6	1.51e+00	0	31	104	0	60	99004
2026-01-06 19:18:25.75	359.71	14.78	-50.8	-66.2	3.6	1.51e+00	0	31	104	0	60	99253
2026-01-06 19:18:28.78	359.07	14.80	-50.8	-66.2	3.6	1.51e+00	0	31	104	0	60	99225
2026-01-06 19:18:31.81	358.44	14.83	-50.8	-66.2	3.6	1.51e+00	0	31	104	0	60	99076
2026-01-06 19:18:34.83	357.80	14.84	-50.8	-66.1	3.6	1.51e+00	0	31	104	0	60	98553
2026-01-06 19:18:37.86	357.17	14.86	-50.8	-66.2	3.6	1.51e+00	0	31	104	0	60	99310
2026-01-06 19:18:40.89	356.53	14.87	-50.8	-66.1	3.6	1.51e+00	0	31	104	0	60	98866
2026-01-06 19:18:43.92	355.89	14.88	-50.8	-66.2	3.6	1.51e+00	0	31	104	0	60	99120
2026-01-06 19:18:46.95	355.25	14.89	-50.8	-66.1	3.6	1.51e+00	0	31	104	0	60	98450
2026-01-06 19:18:49.98	354.62	14.89	-50.8	-66.1	3.6	1.51e+00	0	31	104	0	60	98559
2026-01-06 19:18:53.01	353.98	14.89	-50.7	-66.1	3.6	1.51e+00	0	31	104	0	60	98203
2026-01-06 19:18:56.05	353.34	14.88	-50.7	-66.0	3.6	1.51e+00	0	31	104	0	60	97782
2026-01-06 19:18:59.08	352.70	14.87	-50.7	-66.1	3.6	1.51e+00	0	31	104	0	60	98364
2026-01-06 19:19:02.11	352.06	14.86	-50.7	-66.1	3.6	1.51e+00	0	31	104	0	60	98240
2026-01-06 19:19:05.14	351.42	14.84	-50.7	-66.0	3.6	1.51e+00	0	31	104	0	60	97496
2026-01-06 19:19:08.18	350.79	14.82	-50.7	-66.1	3.6	1.51e+00	0	31	104	0	60	98017
2026-01-06 19:19:11.21	350.15	14.80	-50.7	-66.0	3.6	1.51e+00	0	31	104	0	60	97813
2026-01-06 19:19:14.24	349.52	14.77	-50.7	-66.0	3.6	1.51e+00	0	31	104	0	60	97503
2026-01-06 19:19:17.27	348.88	14.74	-50.6	-66.0	3.6	1.51e+00	0	31	104	0	60	96756
2026-01-06 19:19:20.30	348.25	14.71	-50.6	-66.0	3.6	1.51e+00	0	31	104	0	60	96923
2026-01-06 19:19:23.34	347.62	14.67	-50.6	-66.0	3.6	1.51e+00	0	31	104	0	60	96772
2026-01-06 19:19:26.37	346.99	14.63	-50.6	-65.9	3.6	1.51e+00	0	31	104	0	60	96618
2026-01-06 19:19:29.40	346.37	14.59	-50.6	-65.9	3.6	1.51e+00	0	31	104	0	60	96623
2026-01-06 19:19:32.44	345.74	14.54	-50.6	-65.9	3.6	1.51e+00	0	31	104	0	60	96092
2026-01-06 19:19:35.47	345.12	14.49	-50.5	-65.9	3.6	1.51e+00	0	31	104	0	60	95939
2026-01-06 19:19:38.51	344.50	14.43	-50.5	-65.8	3.6	1.51e+00	0	31	104	0	60	95262
2026-01-06 19:19:41.54	343.88	14.38	-50.5	-65.8	3.6	1.51e+00	0	31	104	0	60	95346
2026-01-06 19:19:44.57	343.26	14.32	-50.5	-65.8	3.6	1.51e+00	0	31	104	0	60	95435
2026-01-06 19:19:47.61	342.65	14.25	-50.4	-65.8	3.6	1.51e+00	0	31	104	0	60	94896
2026-01-06 19:19:50.64	342.04	14.19	-50.4	-65.8	3.6	1.51e+00	0	31	104	0	60	94584
2026-01-06 19:19:53.67	341.43	14.12	-50.4	-65.8	3.6	1.51e+00	0	31	104	0	60	94833
2026-01-06 19:19:56.70	340.83	14.04	-50.4	-65.8	3.6	1.51e+00	0	31	104	0	60	94571
2026-01-06 19:19:59.74	340.22	13.97	-50.3	-65.7	3.6	1.51e+00	0	31	104	0	60	93848
2026-01-06 19:20:02.77	339.63	13.89	-50.3	-65.7	3.6	1.51e+00	0	31	104	0	60	93866
2026-01-06 19:20:05.80	339.03	13.81	-50.3	-65.6	3.6	1.51e+00	0	31	104	0	60	93313
2026-01-06 19:20:08.83	338.44	13.72	-50.2	-65.6	3.6	1.51e+00	0	31	104	0	60	92820
2026-01-06 19:20:11.86	337.85	13.64	-50.2	-65.6	3.6	1.51e+00	0	31	104	0	60	92660
2026-01-06 19:20:14.89	337.27	13.55	-50.2	-65.6	3.6	1.51e+00	0	31	104	0	60	92447
2026-01-06 19:20:17.93	336.68	13.46	-50.1	-65.5	3.6	1.51e+00	0	31	104	0	60	91782
2026-01-06 19:20:20.96	336.11	13.36	-50.1	-65.4	3.6	1.51e+00	0	31	104	0	60	90921
2026-01-06 19:20:23.99	335.53	13.26	-50.0	-65.4	3.6	1.51e+00	0	31	104	0	60	90497
2026-01-06 19:20:27.02	334.96	13.16	-50.0	-65.4	3.6	1.51e+00	0	31	104	0	60	90471
2026-01-06 19:20:30.06	334.40	13.06	-49.9	-65.3	3.6	1.51e+00	0	31	104	0	60	89768
2026-01-06 19:20:33.09	333.84	12.96	-49.9	-65.2	3.6	1.51e+00	0	31	104	0	60	89088
2026-01-06 19:20:36.12	333.28	12.85	-49.8	-65.2	3.6	1.51e+00	0	31	104	0	60	88688
2026-01-06 19:20:39.15	332.72	12.74	-49.7	-65.1	3.6	1.51e+00	0	31	104	0	60	87497
2026-01-06 19:20:42.18	332.18	12.63	-49.7	-65.0	3.6	1.51e+00	0	31	104	0	60	86726
2026-01-06 19:20:45.22	331.63	12.52	-49.6	-64.9	3.6	1.51e+00	0	31	104	0	60	85824
2026-01-06 19:20:48.25	331.09	12.41	-49.5	-64.9	3.6	1.51e+00	0	31	104	0	60	85509
2026-01-06 19:20:51.28	330.55	12.29	-50.5	-65.8	3.6	1.51e+00	0	31	104	0	60	95517
2026-01-06 19:20:54.31	330.02	12.17	-50.8	-66.2	3.6	1.51e+00	0	31	104	0	60	99045
2026-01-06 19:20:57.34	329.49	12.05	-51.0	-66.4	3.6	1.51e+00	0	31	104	0	60	101408
2026-01-06 19:21:00.38	328.97	11.93	-51.1	-66.4	3.6	1.51e+00	0	31	104	0	60	102349
2026-01-06 19:21:03.41	328.45	11.80	-51.4	-66.8	3.6	1.51e+00	0	31	104	0	60	107096
2026-01-06 19:21:06.44	327.93	11.68	-50.9	-66.5	3.6	1.51e+00	0	31	104	0	60	103574
2026-01-06 19:21:09.47	327.42	11.55	-51.1	-66.6	3.6	1.51e+00	0	31	104	0	60	104452
2026-01-06 19:21:12.50	326.92	11.42	-51.0	-66.5	3.6	1.51e+00	0	31	104	0	60	102651
2026-01-06 19:21:15.53	326.42	11.29	-51.0	-66.4	3.6	1.51e+00	0	31	104	0	60	101996
2026-01-06 19:21:18.57	325.92	11.16	-50.9	-66.2	3.5	1.51e+00	0	31	104	0	60	99051
2026-01-06 19:21:21.60	325.43	11.03	-48.1	-52.0	9.6	0.00e+00	75	31	0	0	60	19479
2026-01-06 19:21:24.63	324.94	10.89	-48.0	-51.7	13.2	1.40e+00	0	31	104	1048576	60	18761
2026-01-06 19:21:27.67	324.45	10.76	-43.4	-44.8	19.9	0.00e+00	0	31	0	1048576	60	8465
2026-01-06 19:21:30.70	323.98	10.62	-42.8	-44.1	20.6	0.00e+00	12	31	0	1048576	60	7856
2026-01-06 19:21:33.73	323.50	10.48	-43.8	-45.4	19.4	0.00e+00	0	31	0	1048576	60	9082
2026-01-06 19:21:36.77	323.03	10.34	-45.1	-47.0	17.8	0.00e+00	0	31	0	1048576	60	10967
2026-01-06 19:21:39.80	322.57	10.20	-44.5	-46.2	18.7	0.00e+00	0	31	0	1048576	60	9957
2026-01-06 19:21:42.83	322.11	10.06	-44.0	-45.6	19.1	0.00e+00	45	31	101	1048576	60	9253
2026-01-06 19:21:45.86	321.65	9.92	-43.8	-45.3	19.6	0.00e+00	0	31	101	1048576	60	8935
2026-01-06 19:21:48.90	321.20	9.78	-43.2	-44.6	20.2	0.00e+00	0	31	101	1048576	60	8284
2026-01-06 19:21:51.93	320.75	9.63	-43.0	-44.3	20.4	0.00e+00	72	31	101	1048576	60	8002
2026-01-06 19:21:54.96	320.31	9.49	-42.8	-44.1	20.5	0.00e+00	0	31	101	1048576	60	7790
2026-01-06 19:21:58.00	319.87	9.34	-42.9	-44.2	20.4	0.00e+00	0	31	101	1048576	60	7890
2026-01-06 19:22:01.03	319.44	9.20	-42.5	-43.7	20.9	0.00e+00	0	31	101	1048576	60	7456
2026-01-06 19:22:04.06	319.01	9.05	-42.0	-43.2	21.4	0.00e+00	54	31	101	1048576	60	7015
2026-01-06 19:22:07.09	318.58	8.90	-41.8	-43.0	21.5	0.00e+00	0	31	101	1048576	60	6864
2026-01-06 19:22:10.12	318.16	8.75	-42.0	-43.2	21.4	0.00e+00	0	31	101	1048576	60	7017
2026-01-06 19:22:13.15	317.75	8.60	-42.1	-43.3	21.1	0.00e+00	92	31	101	1048576	60	7089
2026-01-06 19:22:16.19	317.34	8.45	-42.3	-43.6	21.0	0.00e+00	0	31	101	1048576	60	7360
2026-01-06 19:22:19.22	316.93	8.30	-42.5	-43.7	20.6	0.00e+00	0	31	101	1048576	60	7488
2026-01-06 19:22:22.25	316.53	8.15	-42.5	-43.7	20.8	0.00e+00	67	31	101	1048576	60	7482
2026-01-06 19:22:25.28	316.13	8.00	-42.3	-43.6	20.9	0.00e+00	0	31	101	1048576	60	7341
2026-01-06 19:22:28.31	315.73	7.85	-42.2	-43.5	21.0	0.00e+00	0	31	101	1048576	60	7267
2026-01-06 19:22:31.34	315.34	7.70	-41.8	-42.9	21.4	0.00e+00	0	31	101	1048576	60	6824
2026-01-06 19:22:34.38	314.95	7.55	-41.3	-42.4	22.0	0.00e+00	45	31	101	1048576	60	6404
2026-01-06 19:22:37.41	314.57	7.40	-40.8	-41.8	22.3	0.00e+00	0	31	101	1048576	60	6031
2026-01-06 19:22:40.44	314.19	7.24	-41.0	-42.0	22.2	0.00e+00	0	31	101	1048576	60	6169
2026-01-06 19:22:43.47	313.82	7.09	-41.2	-42.3	21.9	0.00e+00	42	31	101	1048576	60	6351
2026-01-06 19:22:46.49	313.45	6.94	-40.9	-42.0	22.2	0.00e+00	0	31	101	1048576	60	6147
2026-01-06 19:22:49.52	313.09	6.79	-40.8	-41.9	22.2	0.00e+00	0	31	101	1048576	60	6052
2026-01-06 19:22:52.55	312.72	6.63	-40.9	-42.0	22.2	0.00e+00	27	31	101	1048576	60	6115
2026-01-06 19:22:55.58	312.37	6.48	-41.0	-42.1	22.0	0.00e+00	0	31	101	1048576	60	6202
2026-01-06 19:22:58.61	312.01	6.33	-41.5	-42.7	21.5	0.00e+00	0	31	101	1048576	60	6650
2026-01-06 19:23:01.64	311.66	6.17	-41.8	-42.9	21.3	0.00e+00	0	31	101	1048576	60	6846
2026-01-06 19:23:04.67	311.31	6.02	-41.8	-43.0	21.2	0.00e+00	45	31	101	1048576	60	6904
2026-01-06 19:23:07.70	310.97	5.86	-42.1	-43.4	20.9	0.00e+00	0	31	101	1048576	60	7186
2026-01-06 19:23:10.73	310.63	5.71	-42.2	-43.5	20.6	0.00e+00	0	31	101	1048576	60	7270
2026-01-06 19:23:13.76	310.30	5.56	-42.0	-43.3	20.9	0.00e+00	61	31	101	1048576	60	7095
2026-01-06 19:23:16.79	309.96	5.40	-41.9	-43.1	20.7	0.00e+00	0	31	101	1048576	60	6946
2026-01-06 19:23:19.82	309.64	5.25	-41.9	-43.1	21.0	0.00e+00	0	31	101	1048576	60	6973
2026-01-06 19:23:22.85	309.31	5.09	-41.7	-42.9	21.2	0.00e+00	0	31	101	1048576	60	6785
2026-01-06 19:23:25.88	308.99	4.94	-41.6	-42.8	21.1	0.00e+00	0	31	101	1048576	60	6733
2026-01-06 19:23:28.90	308.67	4.79	-41.9	-43.2	20.9	0.00e+00	0	31	101	1048576	60	7023
2026-01-06 19:23:31.93	308.36	4.63	-42.5	-43.9	20.3	0.00e+00	0	31	101	1048576	60	7636
2026-01-06 19:23:34.96	308.05	4.48	-42.9	-44.3	19.8	0.00e+00	44	31	101	1048576	60	7981
2026-01-06 19:23:37.98	307.74	4.33	-42.6	-44.0	20.2	0.00e+00	0	31	101	1048576	60	7698
2026-01-06 19:23:41.01	307.44	4.17	-42.1	-43.4	20.6	0.00e+00	0	31	101	1048576	60	7218
2026-01-06 19:23:44.04	307.14	4.02	-41.9	-43.2	20.8	0.00e+00	13	31	101	1048576	60	7027
2026-01-06 19:23:47.07	306.84	3.87	-42.0	-43.3	20.7	0.00e+00	0	31	101	1048576	60	7108
2026-01-06 19:23:50.09	306.54	3.71	-41.9	-43.2	20.6	0.00e+00	0	31	101	1048576	60	7041
2026-01-06 19:23:53.12	306.25	3.56	-41.9	-43.1	20.7	0.00e+00	0	31	101	1048576	60	6970
2026-01-06 19:23:56.15	305.96	3.41	-42.4	-43.8	19.8	0.00e+00	44	31	101	1048576	60	7542
2026-01-06 19:23:59.18	305.68	3.26	-43.0	-44.5	19.3	0.00e+00	0	31	101	1048576	60	8206
2026-01-06 19:24:02.21	305.40	3.10	-43.7	-45.4	18.4	0.00e+00	0	31	101	1048576	60	9120
2026-01-06 19:24:05.23	305.12	2.95	-51.0	-66.4	3.6	1.51e+00	0	31	104	1048576	60	101638
2026-01-06 19:24:08.26	304.84	2.80	-51.3	-66.6	3.6	1.51e+00	0	31	104	1048576	60	104679
2026-01-06 19:24:11.29	304.57	2.65	-51.3	-66.6	3.6	1.51e+00	0	31	104	1048576	60	104618
2026-01-06 19:24:14.32	304.30	2.50	-51.2	-66.6	3.5	1.51e+00	0	31	104	1048576	60	103912
2026-01-06 19:24:17.35	304.03	2.34	-51.1	-66.5	3.6	1.51e+00	0	31	104	1048576	60	103173
2026-01-06 19:24:20.37	303.77	2.19	-51.2	-66.6	3.6	1.51e+00	0	31	104	1048576	60	104380
2026-01-06 19:24:23.40	303.50	2.04	-51.2	-66.6	3.6	1.51e+00	0	31	104	1048576	60	103653
2026-01-06 19:24:26.43	303.25	1.89	-51.2	-66.6	3.6	1.51e+00	0	31	104	1048576	60	103661
2026-01-06 19:24:29.46	302.99	1.74	-51.2	-66.5	3.6	1.51e+00	0	31	104	1048576	60	102898
2026-01-06 19:24:32.49	302.73	1.59	-51.1	-66.5	3.6	1.51e+00	0	31	104	1048576	60	102846
2026-01-06 19:24:35.52	302.48	1.44	-51.1	-66.5	3.6	1.51e+00	0	31	104	1048576	60	103195
2026-01-06 19:24:38.55	302.24	1.29	-51.1	-66.5	3.6	1.51e+00	0	31	104	1048576	60	103493
2026-01-06 19:24:41.58	301.99	1.14	-51.1	-66.5	3.6	1.51e+00	0	31	104	1048576	60	102775
2026-01-06 19:24:44.61	301.75	0.99	-51.1	-66.5	3.6	1.51e+00	0	31	104	1048576	60	102837
2026-01-06 19:24:47.64	301.50	0.84	-51.1	-66.5	3.5	1.51e+00	0	31	104	1048576	60	103054
2026-01-06 19:24:50.67	301.27	0.70	-51.1	-66.5	3.6	1.51e+00	0	31	104	1048576	60	102954
2026-01-06 19:24:53.70	301.03	0.55	-51.1	-66.5	3.6	1.51e+00	0	31	104	1048576	60	103021
2026-01-06 19:24:56.73	300.80	0.40	-51.1	-66.5	3.6	1.51e+00	0	31	104	1048576	60	102834
2026-01-06 19:24:59.75	300.57	0.25	-51.1	-66.5	3.6	1.51e+00	0	31	104	1048576	60	102618
2026-01-06 19:25:02.79	300.34	0.11	-51.1	-66.4	3.6	1.51e+00	0	31	104	1048576	60	102413
2026-01-06 19:25:05.81	300.11	-0.04	-51.1	-66.4	3.6	1.51e+00	0	31	104	1048576	60	102461

#Closed at: 2026-01-06 19:25:07
#Recorded file [1 MB]: D:/lorett/data/35034_260106_221237.dat