passes_logs/2026/01/06/R4.6S_Anadyr_2ch/R4.6S_Anadyr_2ch__20260106_031442_FENGYUN_3E_rec.log

#Pass ID: 20260106_031442_FENGYUN 3E
#Satellite: FENGYUN 3E
#Configuration: FENGYUN 3E
#almurnet v.1.7.20251203
#Start time: 2026-01-06 03:14:43

#Version: 2.2.20231116
#Station: R4.6S_Anadyr_2ch
#Location: 177.4865 lon 64.73178 lat
#TLE: 1 49008U 21062A   25350.97288215  .00000176  00000+0  10353-3 0  9997
#TLE: 2 49008  98.7477 351.4440 0000638 234.3856 125.7261 14.19881381230726

#Time	Az	El	Level	Level2	SNR	BER	BlckErr	Temp	State	Recorded	gain1	gain2
2026-01-06 03:14:43.71	125.67	0.06	-46.5	-64.2	3.5	3.02e+01	0	29	0	0	60	84515
2026-01-06 03:14:47.74	125.55	0.30	-50.7	-62.3	3.6	8.45e-01	0	31	104	0	60	63914
2026-01-06 03:14:51.79	125.42	0.54	-50.8	-62.4	3.6	8.45e-01	0	31	104	0	60	65177
2026-01-06 03:14:55.83	125.29	0.78	-51.0	-62.5	3.6	8.46e-01	0	31	104	0	60	65706
2026-01-06 03:14:59.87	125.16	1.02	-50.8	-62.3	3.6	8.46e-01	0	31	104	0	60	64629
2026-01-06 03:15:03.92	125.03	1.27	-50.4	-61.9	3.6	8.46e-01	0	31	104	0	60	61625
2026-01-06 03:15:07.96	124.90	1.51	-49.4	-60.9	3.6	8.46e-01	0	31	104	0	60	54537
2026-01-06 03:15:12.00	124.76	1.76	-49.4	-60.9	3.6	8.46e-01	0	31	104	0	60	54416
2026-01-06 03:15:16.05	124.62	2.01	-49.4	-60.8	3.6	8.46e-01	0	31	104	0	60	54295
2026-01-06 03:15:20.09	124.48	2.26	-49.4	-60.8	3.6	8.46e-01	0	31	104	0	60	54112
2026-01-06 03:15:24.14	124.33	2.52	-49.3	-60.3	3.6	8.45e-01	0	31	104	0	60	51019
2026-01-06 03:15:28.18	124.19	2.77	-49.4	-60.9	3.6	8.46e-01	0	31	104	0	60	54510
2026-01-06 03:15:32.22	124.04	3.03	-49.3	-60.6	3.6	8.45e-01	0	31	104	0	60	52973
2026-01-06 03:15:36.27	123.88	3.29	-49.2	-59.4	3.6	8.45e-01	0	31	104	0	60	45858
2026-01-06 03:15:40.31	123.73	3.56	-49.4	-60.8	3.6	8.45e-01	0	31	104	0	60	54282
2026-01-06 03:15:44.35	123.57	3.82	-46.0	-48.6	11.4	4.50e-03	0	32	102	1048576	60	13251
2026-01-06 03:15:48.40	123.41	4.09	-49.7	-60.9	3.6	8.45e-01	0	32	104	1048576	60	54606
2026-01-06 03:15:52.44	123.24	4.36	-41.3	-42.5	17.1	0.00e+00	0	31	104	1048576	60	6556
2026-01-06 03:15:56.49	123.07	4.63	-38.7	-39.5	20.5	0.00e+00	0	32	0	1048576	56	5844
2026-01-06 03:16:00.53	122.90	4.91	-37.2	-37.9	22.0	0.00e+00	0	32	101	1048576	54	5453
2026-01-06 03:16:04.58	122.73	5.19	-37.1	-37.7	22.4	0.00e+00	0	32	101	1048576	52	6000
2026-01-06 03:16:08.62	122.55	5.47	-36.8	-37.4	22.6	0.00e+00	0	32	101	1048576	52	5787
2026-01-06 03:16:12.66	122.36	5.75	-36.7	-37.3	22.7	0.00e+00	0	32	101	1048576	52	5738
2026-01-06 03:16:16.71	122.18	6.04	-36.6	-37.2	22.9	0.00e+00	0	32	101	1048576	52	5665
2026-01-06 03:16:20.75	121.99	6.33	-36.5	-37.1	23.1	0.00e+00	0	32	101	1048576	52	5617
2026-01-06 03:16:24.79	121.79	6.62	-36.2	-36.8	23.2	0.00e+00	0	32	101	1048576	52	5418
2026-01-06 03:16:28.84	121.59	6.91	-36.1	-36.6	23.4	0.00e+00	0	32	101	1048576	52	5305
2026-01-06 03:16:32.88	121.39	7.21	-36.2	-36.8	23.3	0.00e+00	0	32	101	1048576	50	6099
2026-01-06 03:16:36.93	121.18	7.51	-36.1	-36.7	23.4	0.00e+00	0	32	101	1048576	50	6009
2026-01-06 03:16:40.97	120.97	7.82	-36.3	-36.9	23.2	0.00e+00	0	32	101	1048576	50	6143
2026-01-06 03:16:45.02	120.75	8.13	-35.9	-36.4	23.8	0.00e+00	0	32	101	1048576	50	5811
2026-01-06 03:16:49.06	120.53	8.44	-35.8	-36.3	23.9	0.00e+00	0	32	101	1048576	50	5753
2026-01-06 03:16:53.10	120.30	8.75	-35.5	-36.1	24.1	0.00e+00	0	32	101	1048576	50	5598
2026-01-06 03:16:57.14	120.07	9.07	-35.5	-36.0	24.1	0.00e+00	0	32	101	1048576	50	5564
2026-01-06 03:17:01.19	119.83	9.39	-35.3	-35.8	24.4	0.00e+00	0	32	101	1048576	50	5420
2026-01-06 03:17:05.23	119.59	9.72	-35.3	-35.8	24.5	0.00e+00	0	32	101	1048576	50	5411
2026-01-06 03:17:09.28	119.34	10.05	-35.1	-35.6	24.6	0.00e+00	0	32	101	1048576	50	5293
2026-01-06 03:17:13.32	119.09	10.38	-35.0	-35.6	24.7	0.00e+00	0	32	101	1048576	48	5900
2026-01-06 03:17:17.36	118.83	10.72	-34.7	-35.3	25.1	0.00e+00	0	32	101	1048576	48	5716
2026-01-06 03:17:21.40	118.56	11.06	-34.8	-35.4	25.0	0.00e+00	0	32	101	1048576	48	5771
2026-01-06 03:17:25.45	118.28	11.40	-34.8	-35.4	25.0	0.00e+00	0	32	101	1048576	48	5762
2026-01-06 03:17:29.49	118.00	11.75	-34.8	-35.3	25.0	0.00e+00	0	32	101	1048576	48	5717
2026-01-06 03:17:33.54	117.71	12.11	-34.7	-35.3	25.1	0.00e+00	0	32	101	1048576	48	5708
2026-01-06 03:17:37.58	117.42	12.47	-34.5	-35.0	25.2	0.00e+00	0	32	101	1048576	48	5550
2026-01-06 03:17:41.62	117.12	12.83	-34.4	-34.9	25.4	0.00e+00	0	32	101	1048576	48	5475
2026-01-06 03:17:45.67	116.80	13.20	-34.2	-34.8	25.5	0.00e+00	0	32	101	1048576	46	6036
2026-01-06 03:17:49.71	116.49	13.57	-34.4	-34.9	25.4	0.00e+00	0	32	101	1048576	46	6125
2026-01-06 03:17:53.76	116.16	13.95	-34.3	-34.8	25.5	0.00e+00	0	32	101	1048576	46	6086
2026-01-06 03:17:57.80	115.82	14.33	-34.1	-34.7	25.6	0.00e+00	0	32	101	1048576	46	5987
2026-01-06 03:18:01.84	115.48	14.72	-34.1	-34.6	25.7	0.00e+00	0	32	101	1048576	46	5926
2026-01-06 03:18:05.89	115.12	15.11	-34.1	-34.6	25.6	0.00e+00	0	32	101	1048576	46	5943
2026-01-06 03:18:09.93	114.76	15.51	-34.2	-34.8	25.9	0.00e+00	0	32	101	1048576	46	6034
2026-01-06 03:18:13.98	114.38	15.91	-34.0	-34.6	25.8	0.00e+00	0	32	101	1048576	46	5905
2026-01-06 03:18:18.02	114.00	16.32	-34.0	-34.5	25.9	0.00e+00	0	32	101	1048576	46	5858
2026-01-06 03:18:22.07	113.60	16.73	-33.5	-34.0	26.3	0.00e+00	0	32	101	1048576	46	5548
2026-01-06 03:18:26.11	113.19	17.15	-33.5	-34.0	26.3	0.00e+00	0	32	101	1048576	44	6192
2026-01-06 03:18:30.15	112.77	17.58	-33.5	-34.0	26.3	0.00e+00	0	32	101	1048576	44	6190
2026-01-06 03:18:34.20	112.34	18.01	-33.4	-33.9	26.4	0.00e+00	0	32	101	1048576	44	6120
2026-01-06 03:18:38.24	111.89	18.44	-33.3	-33.8	26.4	0.00e+00	0	32	101	1048576	44	6061
2026-01-06 03:18:42.28	111.44	18.89	-33.1	-33.6	26.7	0.00e+00	0	32	101	1048576	44	5916
2026-01-06 03:18:46.33	110.96	19.34	-32.6	-33.1	27.1	0.00e+00	0	32	101	1048576	44	5585
2026-01-06 03:18:50.37	110.48	19.79	-32.4	-32.9	27.2	0.00e+00	0	32	101	1048576	44	5471
2026-01-06 03:18:54.41	109.97	20.25	-32.4	-32.9	27.2	0.00e+00	0	32	101	1048576	44	5462
2026-01-06 03:18:58.45	109.46	20.72	-32.5	-33.0	27.2	0.00e+00	0	32	101	1048576	42	6199
2026-01-06 03:19:02.50	108.92	21.19	-32.4	-32.8	27.2	0.00e+00	0	32	101	1048576	42	6096
2026-01-06 03:19:06.54	108.37	21.67	-32.3	-32.8	27.3	0.00e+00	0	32	101	1048576	42	6052
2026-01-06 03:19:10.59	107.80	22.16	-32.0	-32.5	27.6	0.00e+00	0	32	101	1048576	42	5859
2026-01-06 03:19:14.63	107.21	22.65	-31.8	-32.2	27.8	0.00e+00	0	32	101	1048576	42	5688
2026-01-06 03:19:18.67	106.61	23.15	-32.1	-32.6	27.7	0.00e+00	0	32	101	1048576	42	5903
2026-01-06 03:19:22.72	105.98	23.65	-31.8	-32.3	27.8	0.00e+00	0	32	101	1048576	42	5737
2026-01-06 03:19:26.76	105.33	24.16	-32.0	-32.5	27.6	0.00e+00	0	32	101	1048576	42	5843
2026-01-06 03:19:30.80	104.66	24.68	-32.1	-32.5	27.6	0.00e+00	0	32	101	1048576	42	5889
2026-01-06 03:19:34.85	103.97	25.20	-32.1	-32.5	27.5	0.00e+00	0	32	101	1048576	42	5895
2026-01-06 03:19:38.89	103.26	25.73	-31.6	-32.1	27.9	0.00e+00	0	32	101	1048576	42	5603
2026-01-06 03:19:42.94	102.51	26.26	-31.8	-32.2	27.7	0.00e+00	0	32	101	1048576	42	5695
2026-01-06 03:19:46.98	101.75	26.80	-31.8	-32.3	27.7	0.00e+00	0	32	101	1048576	42	5723
2026-01-06 03:19:51.03	100.95	27.34	-32.3	-32.8	27.5	0.00e+00	0	32	101	1048576	42	6036
2026-01-06 03:19:55.07	100.13	27.89	-32.3	-32.8	27.4	0.00e+00	0	32	101	1048576	42	6036
2026-01-06 03:19:59.11	99.29	28.44	-32.0	-32.5	27.7	0.00e+00	0	32	101	1048576	42	5858
2026-01-06 03:20:03.16	98.40	28.99	-31.8	-32.2	27.8	0.00e+00	0	32	101	1048576	42	5683
2026-01-06 03:20:07.20	97.49	29.55	-31.6	-32.1	28.0	0.00e+00	0	32	101	1048576	42	5591
2026-01-06 03:20:11.25	96.55	30.11	-31.4	-31.9	28.0	0.00e+00	0	32	101	1048576	42	5486
2026-01-06 03:20:15.29	95.57	30.67	-31.0	-31.5	28.4	0.00e+00	0	32	101	1048576	42	5195
2026-01-06 03:20:19.33	94.56	31.24	-31.1	-31.5	28.5	0.00e+00	0	32	101	1048576	40	5880
2026-01-06 03:20:23.38	93.51	31.80	-31.3	-31.7	28.2	0.00e+00	0	32	101	1048576	40	6020
2026-01-06 03:20:27.42	92.42	32.37	-31.2	-31.7	28.1	0.00e+00	0	32	101	1048576	40	5999
2026-01-06 03:20:31.46	91.30	32.93	-31.4	-31.9	28.0	0.00e+00	0	32	101	1048576	40	6137
2026-01-06 03:20:35.51	90.13	33.49	-31.4	-31.9	28.0	0.00e+00	0	32	101	1048576	40	6117
2026-01-06 03:20:39.55	88.93	34.04	-31.2	-31.6	28.3	0.00e+00	0	32	101	1048576	40	5954
2026-01-06 03:20:43.60	87.68	34.59	-31.9	-32.3	27.9	0.00e+00	0	32	101	1048576	40	6451
2026-01-06 03:20:47.64	86.39	35.14	-31.3	-31.8	28.2	0.00e+00	0	32	101	1048576	40	6042
2026-01-06 03:20:51.68	85.06	35.67	-31.1	-31.6	28.4	0.00e+00	0	32	101	1048576	40	5932
2026-01-06 03:20:55.73	83.68	36.20	-31.3	-31.7	28.1	0.00e+00	0	32	101	1048576	40	6033
2026-01-06 03:20:59.77	82.26	36.71	-31.5	-31.9	28.1	0.00e+00	0	32	101	1048576	40	6172
2026-01-06 03:21:03.81	80.79	37.21	-31.4	-31.9	28.1	0.00e+00	0	32	101	1048576	40	6153
2026-01-06 03:21:07.85	79.28	37.70	-31.0	-31.4	28.4	0.00e+00	0	32	101	1048576	40	5809
2026-01-06 03:21:11.90	77.72	38.17	-31.7	-32.2	28.0	0.00e+00	0	32	101	1048576	40	6368
2026-01-06 03:21:15.95	76.11	38.62	-32.2	-32.7	27.6	0.00e+00	0	32	101	1048576	42	5998
2026-01-06 03:21:19.99	74.47	39.06	-31.5	-31.9	28.1	0.00e+00	0	32	101	1048576	42	5493
2026-01-06 03:21:24.03	72.78	39.46	-31.4	-31.8	28.2	0.00e+00	0	32	101	1048576	42	5436
2026-01-06 03:21:28.08	71.04	39.85	-31.8	-32.3	27.9	0.00e+00	0	33	101	1048576	42	5738
2026-01-06 03:21:32.12	69.27	40.20	-32.0	-32.5	27.8	0.00e+00	0	32	101	1048576	42	5885
2026-01-06 03:21:36.17	67.46	40.53	-31.4	-31.9	28.1	0.00e+00	0	32	101	1048576	42	5454
2026-01-06 03:21:40.21	65.61	40.83	-31.4	-31.8	28.2	0.00e+00	0	32	101	1048576	42	5427
2026-01-06 03:21:44.25	63.74	41.10	-31.7	-32.2	27.9	0.00e+00	0	32	101	1048576	42	5668
2026-01-06 03:21:48.30	61.83	41.33	-31.7	-32.1	28.0	0.00e+00	0	32	101	1048576	42	5630
2026-01-06 03:21:52.34	59.89	41.53	-31.6	-32.1	28.0	0.00e+00	0	32	101	1048576	42	5602
2026-01-06 03:21:56.39	57.94	41.69	-31.3	-31.8	28.2	0.00e+00	0	32	101	1048576	42	5409
2026-01-06 03:22:00.43	55.96	41.81	-31.1	-31.5	28.4	0.00e+00	0	32	101	1048576	40	5891
2026-01-06 03:22:04.47	53.98	41.90	-31.2	-31.7	28.2	0.00e+00	0	32	101	1048576	40	6010
2026-01-06 03:22:08.51	51.99	41.94	-31.5	-31.9	28.1	0.00e+00	0	32	101	1048576	40	6170
2026-01-06 03:22:12.56	49.99	41.95	-31.3	-31.7	28.3	0.00e+00	0	32	101	1048576	40	6028
2026-01-06 03:22:16.60	48.00	41.92	-31.2	-31.7	28.3	0.00e+00	0	32	101	1048576	40	5996
2026-01-06 03:22:20.65	46.01	41.84	-31.1	-31.6	28.3	0.00e+00	0	32	101	1048576	40	5908
2026-01-06 03:22:24.69	44.03	41.73	-31.3	-31.8	28.2	0.00e+00	0	32	101	1048576	40	6057
2026-01-06 03:22:28.73	42.08	41.59	-31.7	-32.1	27.9	0.00e+00	0	32	101	1048576	40	6298
2026-01-06 03:22:32.77	40.14	41.40	-31.8	-32.3	27.8	0.00e+00	0	32	101	1048576	40	6411
2026-01-06 03:22:36.82	38.22	41.18	-31.6	-32.1	28.0	0.00e+00	0	32	101	1048576	40	6264
2026-01-06 03:22:40.86	36.33	40.93	-31.4	-31.8	28.2	0.00e+00	0	32	101	1048576	40	6099
2026-01-06 03:22:44.90	34.48	40.64	-31.3	-31.8	28.2	0.00e+00	0	32	101	1048576	40	6079
2026-01-06 03:22:48.95	32.66	40.32	-31.1	-31.6	28.3	0.00e+00	0	32	101	1048576	40	5899
2026-01-06 03:22:52.99	30.88	39.97	-31.4	-31.9	28.1	0.00e+00	0	32	101	1048576	40	6148
2026-01-06 03:22:57.04	29.13	39.60	-31.2	-31.7	28.2	0.00e+00	0	32	101	1048576	40	5981
2026-01-06 03:23:01.08	27.43	39.20	-31.5	-32.0	28.0	0.00e+00	0	32	101	1048576	40	6178
2026-01-06 03:23:05.13	25.77	38.78	-31.1	-31.6	28.4	0.00e+00	0	32	101	1048576	40	5938
2026-01-06 03:23:09.17	24.15	38.33	-31.1	-31.6	28.4	0.00e+00	0	32	101	1048576	40	5909
2026-01-06 03:23:13.21	22.58	37.87	-31.2	-31.7	28.3	0.00e+00	0	32	101	1048576	40	5965
2026-01-06 03:23:17.26	21.05	37.39	-31.2	-31.6	28.4	0.00e+00	0	32	101	1048576	40	5943
2026-01-06 03:23:21.30	19.58	36.89	-31.1	-31.6	28.3	0.00e+00	0	32	101	1048576	40	5912
2026-01-06 03:23:25.35	18.14	36.38	-31.5	-32.0	28.1	0.00e+00	0	32	101	1048576	40	6192
2026-01-06 03:23:29.39	16.75	35.86	-31.2	-31.6	28.3	0.00e+00	0	33	101	1048576	40	5949
2026-01-06 03:23:33.43	15.41	35.33	-31.0	-31.5	28.3	0.00e+00	0	32	101	1048576	40	5872
2026-01-06 03:23:37.48	14.10	34.79	-30.9	-31.4	28.6	0.00e+00	0	32	101	1048576	40	5768
2026-01-06 03:23:41.52	12.85	34.25	-31.3	-31.7	28.3	0.00e+00	0	32	101	1048576	40	6024
2026-01-06 03:23:45.56	11.63	33.69	-30.7	-31.2	28.7	0.00e+00	0	32	101	1048576	40	5653
2026-01-06 03:23:49.61	10.45	33.14	-31.3	-31.8	27.6	0.00e+00	0	32	101	1048576	40	6038
2026-01-06 03:23:53.65	9.32	32.58	-31.2	-31.7	28.2	0.00e+00	0	32	101	1048576	40	5983
2026-01-06 03:23:57.69	8.23	32.02	-31.2	-31.7	28.4	0.00e+00	0	32	101	1048576	40	5965
2026-01-06 03:24:01.74	7.17	31.46	-31.2	-31.7	28.3	0.00e+00	0	32	101	1048576	40	5983
2026-01-06 03:24:05.76	6.15	30.90	-30.6	-31.1	28.7	0.00e+00	0	32	101	1048576	40	5573
2026-01-06 03:24:09.81	5.16	30.33	-31.1	-31.5	28.2	0.00e+00	0	32	101	1048576	40	5890
2026-01-06 03:24:13.85	4.21	29.78	-31.5	-31.9	28.0	0.00e+00	0	32	101	1048576	40	6168
2026-01-06 03:24:17.90	3.29	29.22	-31.7	-32.2	27.9	0.00e+00	0	32	101	1048576	40	6356
2026-01-06 03:24:21.94	2.40	28.66	-31.3	-31.7	28.2	0.00e+00	0	32	101	1048576	40	6031
2026-01-06 03:24:25.99	1.54	28.11	-31.3	-31.7	28.2	0.00e+00	0	33	101	1048576	40	6022
2026-01-06 03:24:30.03	0.72	27.57	-31.4	-31.9	28.1	0.00e+00	0	32	101	1048576	40	6115
2026-01-06 03:24:34.07	359.92	27.02	-31.2	-31.7	28.3	0.00e+00	0	32	101	1048576	40	5988
2026-01-06 03:24:38.11	359.15	26.49	-31.5	-32.0	28.0	0.00e+00	0	32	101	1048576	40	6202
2026-01-06 03:24:42.16	358.40	25.95	-31.4	-31.9	28.0	0.00e+00	0	32	101	1048576	40	6121
2026-01-06 03:24:46.20	357.68	25.43	-31.4	-31.8	27.7	0.00e+00	0	32	101	1048576	40	6097
2026-01-06 03:24:50.25	356.98	24.90	-31.6	-32.1	27.6	0.00e+00	0	32	101	1048576	40	6289
2026-01-06 03:24:54.29	356.30	24.39	-31.8	-32.3	27.6	0.00e+00	0	32	101	1048576	40	6414
2026-01-06 03:24:58.33	355.65	23.88	-32.1	-32.6	27.1	0.00e+00	0	32	101	1048576	42	5937
2026-01-06 03:25:02.38	355.02	23.37	-31.6	-32.0	27.8	0.00e+00	0	32	101	1048576	42	5544
2026-01-06 03:25:06.42	354.41	22.87	-31.7	-32.2	27.8	0.00e+00	0	32	101	1048576	42	5657
2026-01-06 03:25:10.47	353.82	22.38	-31.8	-32.3	27.7	0.00e+00	0	32	101	1048576	42	5703
2026-01-06 03:25:14.51	353.25	21.90	-31.9	-32.3	27.7	0.00e+00	0	32	101	1048576	42	5757
2026-01-06 03:25:18.55	352.69	21.42	-32.1	-32.6	27.5	0.00e+00	0	32	101	1048576	42	5912
2026-01-06 03:25:22.60	352.15	20.94	-31.9	-32.4	27.4	0.00e+00	0	32	101	1048576	42	5813
2026-01-06 03:25:26.64	351.63	20.47	-32.2	-32.7	27.5	0.00e+00	0	32	101	1048576	42	5968
2026-01-06 03:25:30.68	351.13	20.01	-32.7	-33.2	27.1	0.00e+00	0	32	101	1048576	42	6338
2026-01-06 03:25:34.73	350.64	19.56	-32.7	-33.2	27.1	0.00e+00	0	32	101	1048576	42	6320
2026-01-06 03:25:38.77	350.16	19.11	-32.8	-33.3	26.9	0.00e+00	0	32	101	1048576	42	6442
2026-01-06 03:25:42.82	349.70	18.66	-32.9	-33.4	27.0	0.00e+00	0	33	101	1048576	42	6466
2026-01-06 03:25:46.86	349.26	18.23	-32.8	-33.3	26.9	0.00e+00	0	33	101	1048576	42	6437
2026-01-06 03:25:50.90	348.82	17.79	-32.6	-33.0	27.2	0.00e+00	0	32	101	1048576	44	5566
2026-01-06 03:25:54.94	348.40	17.37	-32.6	-33.1	27.0	0.00e+00	0	32	101	1048576	44	5596
2026-01-06 03:25:58.99	347.99	16.95	-32.8	-33.3	26.8	0.00e+00	0	33	101	1048576	44	5747
2026-01-06 03:26:03.03	347.59	16.53	-33.1	-33.6	26.7	0.00e+00	0	32	101	1048576	44	5916
2026-01-06 03:26:07.07	347.21	16.13	-33.2	-33.7	26.5	0.00e+00	0	32	101	1048576	44	5983
2026-01-06 03:26:11.11	346.83	15.72	-33.1	-33.6	26.5	0.00e+00	0	32	101	1048576	44	5930
2026-01-06 03:26:15.16	346.46	15.32	-33.3	-33.8	26.5	0.00e+00	0	32	101	1048576	44	6037
2026-01-06 03:26:19.20	346.11	14.93	-33.4	-33.9	26.3	0.00e+00	0	33	101	1048576	44	6149
2026-01-06 03:26:23.24	345.76	14.54	-33.9	-34.4	25.9	0.00e+00	0	32	101	1048576	44	6489
2026-01-06 03:26:27.29	345.42	14.16	-33.9	-34.4	25.9	0.00e+00	0	32	101	1048576	44	6509
2026-01-06 03:26:31.33	345.10	13.78	-34.1	-34.6	25.7	0.00e+00	0	32	101	1048576	46	5936
2026-01-06 03:26:35.37	344.78	13.41	-34.4	-34.9	25.4	0.00e+00	0	33	101	1048576	46	6131
2026-01-06 03:26:39.42	344.47	13.04	-34.4	-35.0	25.4	0.00e+00	0	32	101	1048576	46	6203
2026-01-06 03:26:43.46	344.16	12.68	-34.6	-35.1	25.2	0.00e+00	0	32	101	1048576	46	6283
2026-01-06 03:26:47.51	343.87	12.32	-34.7	-35.3	25.0	0.00e+00	0	32	101	1048576	46	6418
2026-01-06 03:26:51.55	343.58	11.96	-34.9	-35.4	25.0	0.00e+00	0	33	101	1048576	46	6522
2026-01-06 03:26:55.60	343.30	11.61	-34.9	-35.5	24.9	0.00e+00	0	32	101	1048576	48	5838
2026-01-06 03:26:59.64	343.02	11.27	-34.8	-35.4	24.9	0.00e+00	0	33	101	1048576	48	5799
2026-01-06 03:27:03.68	342.76	10.92	-34.9	-35.4	24.9	0.00e+00	0	33	101	1048576	48	5808
2026-01-06 03:27:07.73	342.50	10.59	-35.1	-35.6	24.7	0.00e+00	0	33	101	1048576	48	5962
2026-01-06 03:27:11.77	342.24	10.25	-35.2	-35.7	24.5	0.00e+00	0	32	101	1048576	48	6030
2026-01-06 03:27:15.82	341.99	9.92	-35.3	-35.9	24.4	0.00e+00	0	33	101	1048576	48	6105
2026-01-06 03:27:19.86	341.75	9.60	-35.4	-35.9	24.4	0.00e+00	0	32	101	1048576	48	6159
2026-01-06 03:27:23.90	341.51	9.27	-35.5	-36.1	24.2	0.00e+00	0	33	101	1048576	48	6280
2026-01-06 03:27:27.94	341.28	8.96	-35.6	-36.2	24.0	0.00e+00	0	33	101	1048576	48	6348
2026-01-06 03:27:31.99	341.06	8.64	-35.7	-36.3	23.9	0.00e+00	0	33	101	1048576	48	6430
2026-01-06 03:27:36.03	340.84	8.33	-35.9	-36.5	23.7	0.00e+00	0	33	101	1048576	50	5872
2026-01-06 03:27:40.08	340.62	8.02	-36.2	-36.7	23.5	0.00e+00	0	32	101	1048576	50	6020
2026-01-06 03:27:44.12	340.41	7.71	-36.2	-36.8	23.4	0.00e+00	0	33	101	1048576	50	6063
2026-01-06 03:27:48.16	340.20	7.41	-36.1	-36.7	23.5	0.00e+00	0	32	101	1048576	50	5969
2026-01-06 03:27:52.21	340.00	7.11	-36.3	-36.9	23.3	0.00e+00	0	33	101	1048576	50	6139
2026-01-06 03:27:56.25	339.80	6.82	-36.4	-37.0	23.2	0.00e+00	0	33	101	1048576	50	6235
2026-01-06 03:28:00.30	339.61	6.53	-36.5	-37.1	23.1	0.00e+00	0	33	101	1048576	50	6249
2026-01-06 03:28:04.34	339.42	6.24	-36.4	-37.0	23.1	0.00e+00	0	32	101	1048576	50	6220
2026-01-06 03:28:08.39	339.24	5.95	-36.2	-36.8	23.2	0.00e+00	0	32	101	1048576	50	6042
2026-01-06 03:28:12.43	339.05	5.66	-36.5	-37.2	22.7	0.00e+00	0	33	101	1048576	50	6330
2026-01-06 03:28:16.47	338.88	5.38	-36.2	-36.9	22.9	0.00e+00	0	33	101	1048576	50	6104
2026-01-06 03:28:20.52	338.70	5.11	-37.0	-37.6	21.8	0.00e+00	0	33	101	1048576	50	6662
2026-01-06 03:28:24.56	338.53	4.83	-38.3	-39.1	19.9	0.00e+00	0	33	101	1048576	54	6274
2026-01-06 03:28:28.61	338.37	4.56	-39.8	-40.9	17.3	0.00e+00	0	33	101	1048576	56	6868
2026-01-06 03:28:32.65	338.20	4.28	-41.8	-43.6	13.9	2.20e-06	0	32	101	1048576	60	7441
2026-01-06 03:28:36.69	338.04	4.02	-43.8	-46.9	9.5	1.11e-02	0	33	101	1048576	60	10960
2026-01-06 03:28:40.74	337.89	3.75	-45.1	-50.5	4.9	7.13e-01	0	32	101	1048576	60	16617
2026-01-06 03:28:44.78	337.73	3.49	-45.5	-55.4	3.7	8.43e-01	0	32	104	1048576	60	29010
2026-01-06 03:28:48.82	337.58	3.23	-45.6	-56.8	3.6	8.46e-01	0	32	104	1048576	60	34053
2026-01-06 03:28:52.87	337.43	2.97	-45.7	-57.1	3.6	8.46e-01	0	33	104	1048576	60	35324
2026-01-06 03:28:56.91	337.29	2.71	-46.1	-57.6	3.6	8.45e-01	0	32	104	1048576	60	37513
2026-01-06 03:29:00.96	337.15	2.45	-50.7	-62.3	3.6	8.44e-01	0	32	104	1048576	60	64171
2026-01-06 03:29:05.00	337.01	2.20	-50.6	-62.5	3.6	8.46e-01	0	32	104	1048576	60	66125
2026-01-06 03:29:09.04	336.87	1.95	-50.8	-62.4	3.6	8.45e-01	0	32	104	1048576	60	64858
2026-01-06 03:29:13.09	336.74	1.70	-50.9	-62.5	3.6	8.45e-01	0	33	104	1048576	60	65434
2026-01-06 03:29:17.13	336.61	1.46	-50.9	-62.4	3.6	8.44e-01	0	33	104	1048576	60	65360
2026-01-06 03:29:21.18	336.48	1.21	-50.9	-62.4	3.6	8.45e-01	0	33	104	1048576	60	64692
2026-01-06 03:29:25.22	336.35	0.97	-50.9	-62.4	3.6	8.46e-01	0	32	104	1048576	60	64873
2026-01-06 03:29:29.26	336.23	0.73	-50.9	-62.4	3.6	8.46e-01	0	33	104	1048576	60	65053
2026-01-06 03:29:33.31	336.10	0.49	-50.8	-62.4	3.5	8.45e-01	0	33	104	1048576	60	64838
2026-01-06 03:29:37.35	335.98	0.25	-50.8	-62.4	3.6	8.45e-01	0	32	104	1048576	60	65077
2026-01-06 03:29:41.39	335.87	0.02	-50.8	-62.4	3.6	8.44e-01	0	33	104	1048576	60	64977

#Closed at: 2026-01-06 03:29:42
#Recorded file [1 MB]: D:/lorett/data/35034_260106_061443.dat