passes_logs/2026/01/06/R4.6S_Anadyr_2ch/R4.6S_Anadyr_2ch__20260106_193104_AQUA_rec.log

#Pass ID: 20260106_193104_AQUA
#Satellite: AQUA
#Configuration: AQUA
#almurnet v.1.7.20251203
#Start time: 2026-01-06 19:31:06

#Version: 2.2.20231116
#Station: R4.6S_Anadyr_2ch
#Location: 177.4865 lon 64.73178 lat
#TLE: 1 27424U 02022A   25351.00450321  .00000925  00000+0  19503-3 0  9992
#TLE: 2 27424  98.4041 311.9529 0001248 113.7180 322.1616 14.61819266256652

#Time	Az	El	Level	Level2	SNR	BER	BlckErr	Temp	State	Recorded	gain1	gain2
2026-01-06 19:31:06.76	30.78	0.12	-51.1	-66.1	3.5	1.51e+00	0	29	0	0	60	98671
2026-01-06 19:31:09.79	30.54	0.27	-51.3	-69.1	3.6	3.02e+01	0	30	104	0	60	147950
2026-01-06 19:31:12.83	30.29	0.43	-51.3	-69.1	3.5	3.02e+01	0	30	104	0	60	148094
2026-01-06 19:31:15.86	30.04	0.58	-51.3	-69.1	3.5	3.02e+01	0	30	104	0	60	148035
2026-01-06 19:31:18.89	29.79	0.74	-51.3	-69.1	3.5	3.02e+01	0	30	104	0	60	148288
2026-01-06 19:31:21.92	29.53	0.89	-51.3	-69.1	3.5	3.02e+01	0	30	104	0	60	147996
2026-01-06 19:31:24.95	29.27	1.05	-51.3	-69.1	3.5	3.02e+01	0	30	104	0	60	148827
2026-01-06 19:31:27.99	29.01	1.21	-51.3	-69.2	3.5	3.02e+01	0	30	104	0	60	149125
2026-01-06 19:31:31.02	28.74	1.37	-51.3	-69.2	3.5	3.02e+01	0	30	104	0	60	149057
2026-01-06 19:31:34.05	28.48	1.52	-51.3	-69.1	3.5	3.02e+01	0	30	104	0	60	147647
2026-01-06 19:31:37.09	28.20	1.68	-51.3	-69.1	3.5	3.02e+01	0	30	104	0	60	148586
2026-01-06 19:31:40.12	27.93	1.84	-51.3	-69.1	3.5	3.02e+01	0	31	104	0	60	148474
2026-01-06 19:31:43.15	27.65	2.00	-51.3	-69.1	3.5	3.02e+01	0	30	104	0	60	148695
2026-01-06 19:31:46.19	27.37	2.16	-51.3	-69.1	3.5	3.02e+01	0	31	104	0	60	148441
2026-01-06 19:31:49.22	27.08	2.32	-51.3	-69.1	3.5	3.02e+01	0	31	104	0	60	148428
2026-01-06 19:31:52.25	26.79	2.48	-51.3	-69.1	3.5	3.02e+01	0	31	104	0	60	148679
2026-01-06 19:31:55.28	26.50	2.64	-51.3	-69.1	3.5	3.02e+01	0	31	104	0	60	148354
2026-01-06 19:31:58.32	26.20	2.80	-51.3	-69.1	3.5	3.02e+01	0	31	104	0	60	148432
2026-01-06 19:32:01.35	25.90	2.96	-51.3	-69.1	3.5	3.02e+01	0	31	104	0	60	148428
2026-01-06 19:32:04.38	25.60	3.13	-51.3	-69.1	3.5	3.02e+01	0	31	104	0	60	147744
2026-01-06 19:32:07.42	25.29	3.29	-51.3	-69.1	3.5	3.02e+01	0	31	104	0	60	147467
2026-01-06 19:32:10.45	24.98	3.45	-51.3	-69.1	3.5	3.02e+01	0	31	104	0	60	147188
2026-01-06 19:32:13.48	24.67	3.61	-51.3	-69.1	3.5	3.02e+01	0	31	104	0	60	148321
2026-01-06 19:32:16.52	24.35	3.78	-51.3	-69.2	3.5	3.02e+01	0	31	104	0	60	149099
2026-01-06 19:32:19.55	24.02	3.94	-51.3	-69.1	3.5	3.02e+01	0	31	104	0	60	148418
2026-01-06 19:32:22.58	23.70	4.10	-51.3	-69.1	3.5	3.02e+01	0	31	104	0	60	147897
2026-01-06 19:32:25.61	23.36	4.27	-51.3	-69.2	3.5	3.02e+01	0	31	104	0	60	148892
2026-01-06 19:32:28.65	23.03	4.43	-51.3	-69.1	3.5	3.02e+01	0	31	104	0	60	147956
2026-01-06 19:32:31.68	22.69	4.60	-51.3	-69.1	3.5	3.02e+01	0	31	104	0	60	147680
2026-01-06 19:32:34.71	22.34	4.76	-51.3	-69.1	3.5	3.02e+01	0	31	104	0	60	148685
2026-01-06 19:32:37.74	22.00	4.93	-51.3	-69.1	3.5	3.02e+01	0	31	104	0	60	148747
2026-01-06 19:32:40.78	21.64	5.09	-51.3	-69.1	3.5	3.02e+01	0	31	104	0	60	148461
2026-01-06 19:32:43.81	21.28	5.26	-51.3	-69.1	3.5	3.02e+01	0	31	104	0	60	148797
2026-01-06 19:32:46.84	20.92	5.42	-51.3	-69.1	3.5	3.02e+01	0	31	104	0	60	148048
2026-01-06 19:32:49.87	20.55	5.59	-51.3	-69.1	3.5	3.02e+01	0	31	104	0	60	148421
2026-01-06 19:32:52.91	20.18	5.75	-51.3	-69.2	3.5	3.02e+01	0	31	104	0	60	148882
2026-01-06 19:32:55.94	19.81	5.92	-51.4	-69.2	3.5	3.02e+01	0	31	104	0	60	150121
2026-01-06 19:32:58.97	19.42	6.09	-51.4	-69.3	3.5	3.02e+01	0	31	104	0	60	151675
2026-01-06 19:33:02.00	19.04	6.25	-51.5	-69.4	3.5	3.02e+01	0	31	104	0	60	152810
2026-01-06 19:33:05.04	18.65	6.42	-50.5	-69.3	3.6	3.02e+01	0	31	104	0	60	151294
2026-01-06 19:33:08.06	18.25	6.58	-51.3	-69.2	3.5	3.02e+01	0	31	104	0	60	149323
2026-01-06 19:33:11.10	17.85	6.75	-50.4	-68.8	3.5	3.02e+01	0	31	104	0	60	142236
2026-01-06 19:33:14.12	17.44	6.91	-49.2	-67.8	3.5	3.02e+01	0	31	104	0	60	127903
2026-01-06 19:33:17.16	17.03	7.08	-49.2	-67.8	3.5	3.02e+01	0	31	104	0	60	127054
2026-01-06 19:33:20.19	16.62	7.25	-49.2	-67.9	3.5	3.02e+01	0	31	104	0	60	128427
2026-01-06 19:33:23.21	16.20	7.41	-49.2	-67.8	3.5	3.02e+01	0	31	104	0	60	127756
2026-01-06 19:33:26.24	15.77	7.58	-49.2	-67.8	3.5	3.02e+01	0	31	104	0	60	127090
2026-01-06 19:33:29.27	15.34	7.74	-49.2	-67.8	3.5	3.02e+01	0	31	104	0	60	127959
2026-01-06 19:33:32.30	14.90	7.90	-49.2	-67.8	3.5	3.02e+01	0	31	104	0	60	127249
2026-01-06 19:33:35.33	14.45	8.07	-49.1	-67.8	3.5	3.02e+01	0	31	104	0	60	127475
2026-01-06 19:33:38.36	14.00	8.23	-49.1	-67.8	3.5	3.02e+01	0	31	104	0	60	126950
2026-01-06 19:33:41.39	13.55	8.40	-49.1	-67.8	3.5	3.02e+01	0	31	104	0	60	127746
2026-01-06 19:33:44.42	13.09	8.56	-49.1	-67.8	3.5	3.02e+01	0	31	104	0	60	127509
2026-01-06 19:33:47.44	12.63	8.72	-49.1	-67.8	3.5	3.02e+01	0	31	104	0	60	126815
2026-01-06 19:33:50.47	12.15	8.88	-49.1	-67.8	3.5	3.02e+01	0	31	104	0	60	127470
2026-01-06 19:33:53.50	11.68	9.04	-49.1	-67.8	3.5	3.02e+01	0	31	104	0	60	127543
2026-01-06 19:33:56.53	11.19	9.20	-49.2	-67.8	3.5	3.02e+01	0	31	104	0	60	127626
2026-01-06 19:33:59.55	10.70	9.36	-49.2	-67.8	3.5	3.02e+01	0	31	104	0	60	127223
2026-01-06 19:34:02.59	10.21	9.52	-49.7	-67.9	3.5	3.02e+01	0	31	104	0	60	128307
2026-01-06 19:34:05.61	9.71	9.68	-49.9	-67.9	3.5	3.02e+01	0	31	104	0	60	128978
2026-01-06 19:34:08.65	9.20	9.84	-50.0	-67.9	3.5	3.02e+01	0	31	104	0	60	129156
2026-01-06 19:34:11.67	8.69	9.99	-49.8	-68.0	3.5	3.02e+01	0	31	104	0	60	130860
2026-01-06 19:34:14.71	8.17	10.15	-49.3	-68.1	3.5	3.02e+01	0	31	104	0	60	131543
2026-01-06 19:34:17.74	7.64	10.30	-49.5	-68.2	3.5	3.02e+01	0	31	104	0	60	132690
2026-01-06 19:34:20.77	7.11	10.46	-50.0	-68.1	3.5	3.02e+01	0	31	104	0	60	132138
2026-01-06 19:34:23.80	6.57	10.61	-49.7	-68.2	3.5	3.02e+01	0	31	104	0	60	132719
2026-01-06 19:34:26.82	6.03	10.76	-49.9	-68.2	3.5	3.02e+01	0	31	104	0	60	133714
2026-01-06 19:34:29.85	5.48	10.91	-49.8	-68.2	3.5	3.02e+01	0	31	104	0	60	133461
2026-01-06 19:34:32.88	4.92	11.05	-50.0	-68.3	3.5	3.02e+01	0	31	104	0	60	134627
2026-01-06 19:34:35.91	4.36	11.20	-49.7	-68.2	3.5	3.02e+01	0	31	104	0	60	134016
2026-01-06 19:34:38.94	3.79	11.34	-49.7	-68.3	3.5	3.02e+01	0	31	104	0	60	134974
2026-01-06 19:34:41.97	3.22	11.49	-50.0	-68.3	3.5	3.02e+01	0	31	104	0	60	135745
2026-01-06 19:34:45.00	2.64	11.63	-50.2	-68.3	3.5	3.02e+01	0	31	104	0	60	135328
2026-01-06 19:34:48.03	2.05	11.77	-50.0	-68.4	3.5	3.02e+01	0	31	104	0	60	136344
2026-01-06 19:34:51.06	1.46	11.90	-50.0	-68.4	3.6	3.02e+01	0	31	104	0	60	136191
2026-01-06 19:34:54.08	0.86	12.04	-50.0	-68.4	3.5	3.02e+01	0	31	104	0	60	136009
2026-01-06 19:34:57.11	0.26	12.17	-50.2	-68.4	3.5	3.02e+01	0	31	104	0	60	137135
2026-01-06 19:35:00.14	359.65	12.30	-50.0	-68.4	3.5	3.02e+01	0	31	104	0	60	137287
2026-01-06 19:35:03.17	359.03	12.43	-49.8	-68.4	3.5	3.02e+01	0	31	104	0	60	136681
2026-01-06 19:35:06.20	358.41	12.56	-50.4	-68.5	3.5	3.02e+01	0	31	104	0	60	137871
2026-01-06 19:35:09.23	357.78	12.68	-50.1	-68.5	3.5	3.02e+01	0	31	104	0	60	137635
2026-01-06 19:35:12.26	357.14	12.80	-49.9	-68.5	3.5	3.02e+01	0	31	104	0	60	137776
2026-01-06 19:35:15.28	356.51	12.92	-50.1	-68.5	3.5	3.02e+01	0	31	104	0	60	138378
2026-01-06 19:35:18.31	355.86	13.04	-49.9	-68.5	3.5	3.02e+01	0	31	104	0	60	138392
2026-01-06 19:35:21.34	355.21	13.15	-49.9	-68.5	3.5	3.02e+01	0	31	104	0	60	138280
2026-01-06 19:35:24.37	354.56	13.26	-49.3	-68.6	3.5	3.02e+01	0	31	104	0	60	139490
2026-01-06 19:35:27.40	353.89	13.37	-49.6	-68.5	3.5	3.02e+01	0	31	104	0	60	138873
2026-01-06 19:35:30.43	353.23	13.47	-49.7	-68.6	3.5	3.02e+01	0	31	104	0	60	139033
2026-01-06 19:35:33.46	352.56	13.57	-49.9	-68.6	3.5	3.02e+01	0	31	104	0	60	139771
2026-01-06 19:35:36.48	351.88	13.67	-49.9	-68.6	3.5	3.02e+01	0	31	104	0	60	139458
2026-01-06 19:35:39.51	351.20	13.76	-50.4	-68.6	3.5	3.02e+01	0	31	104	0	60	139334
2026-01-06 19:35:42.54	350.52	13.85	-49.9	-68.6	3.5	3.02e+01	0	31	104	0	60	139965
2026-01-06 19:35:45.57	349.83	13.94	-49.4	-68.6	3.5	3.02e+01	0	31	104	0	60	140368
2026-01-06 19:35:48.60	349.13	14.02	-50.3	-68.6	3.5	3.02e+01	0	31	104	0	60	140402
2026-01-06 19:35:51.63	348.43	14.10	-50.0	-68.7	3.5	3.02e+01	0	31	104	0	60	141458
2026-01-06 19:35:54.66	347.73	14.18	-50.1	-68.7	3.5	3.02e+01	0	31	104	0	60	140594
2026-01-06 19:35:57.70	347.02	14.25	-50.3	-68.6	3.5	3.02e+01	0	31	104	0	60	140518
2026-01-06 19:36:00.73	346.31	14.32	-50.1	-68.7	3.5	3.02e+01	0	31	104	0	60	140916
2026-01-06 19:36:03.75	345.60	14.39	-50.1	-68.7	3.5	3.02e+01	0	31	104	0	60	141340
2026-01-06 19:36:06.78	344.88	14.45	-50.4	-68.7	3.5	3.02e+01	0	31	104	0	60	141511
2026-01-06 19:36:09.81	344.16	14.50	-50.4	-68.7	3.5	3.02e+01	0	31	104	0	60	141960
2026-01-06 19:36:12.84	343.44	14.55	-49.8	-68.7	3.5	3.02e+01	0	31	104	0	60	142148
2026-01-06 19:36:15.87	342.72	14.60	-50.2	-68.7	3.5	3.02e+01	0	31	104	0	60	142073
2026-01-06 19:36:18.89	341.99	14.64	-50.6	-68.8	3.5	3.02e+01	0	31	104	0	60	143092
2026-01-06 19:36:21.92	341.26	14.68	-50.6	-68.7	3.5	3.02e+01	0	32	104	0	60	142122
2026-01-06 19:36:24.95	340.53	14.72	-50.7	-68.8	3.5	3.02e+01	0	31	104	0	60	143107
2026-01-06 19:36:27.98	339.79	14.75	-50.6	-68.8	3.5	3.02e+01	0	32	104	0	60	143180
2026-01-06 19:36:31.01	339.06	14.78	-50.6	-68.8	3.6	3.02e+01	0	31	104	0	60	143536
2026-01-06 19:36:34.04	338.32	14.80	-50.7	-68.8	3.5	3.02e+01	0	31	104	0	60	143131
2026-01-06 19:36:37.06	337.59	14.81	-50.6	-68.8	3.5	3.02e+01	0	32	104	0	60	143021
2026-01-06 19:36:40.09	336.85	14.83	-50.5	-68.8	3.5	3.02e+01	0	32	104	0	60	143508
2026-01-06 19:36:43.12	336.11	14.83	-50.6	-68.8	3.5	3.02e+01	0	31	104	0	60	143031
2026-01-06 19:36:46.14	335.37	14.84	-50.9	-68.8	3.5	3.02e+01	0	32	104	0	60	143768
2026-01-06 19:36:49.17	334.63	14.84	-50.7	-68.8	3.5	3.02e+01	0	31	104	0	60	143496
2026-01-06 19:36:52.20	333.90	14.83	-50.8	-68.9	3.5	3.02e+01	0	31	104	0	60	143867
2026-01-06 19:36:55.24	333.15	14.82	-50.6	-68.8	3.5	3.02e+01	0	32	104	0	60	143252
2026-01-06 19:36:58.27	332.42	14.81	-50.2	-68.9	3.5	3.02e+01	0	32	104	0	60	143976
2026-01-06 19:37:01.30	331.68	14.79	-50.9	-68.9	3.5	3.02e+01	0	32	104	0	60	143961
2026-01-06 19:37:04.32	330.94	14.76	-50.8	-68.8	3.5	3.02e+01	0	32	104	0	60	143502
2026-01-06 19:37:07.35	330.21	14.74	-50.8	-68.8	3.5	3.02e+01	0	32	104	0	60	143685
2026-01-06 19:37:10.38	329.48	14.70	-50.9	-68.9	3.5	3.02e+01	0	32	104	0	60	143818
2026-01-06 19:37:13.40	328.75	14.67	-50.9	-68.8	3.5	3.02e+01	0	31	104	0	60	143603
2026-01-06 19:37:16.44	328.02	14.62	-50.9	-68.9	3.5	3.02e+01	0	31	104	0	60	144438
2026-01-06 19:37:19.47	327.29	14.58	-50.8	-68.8	3.5	3.02e+01	0	32	104	0	60	143445
2026-01-06 19:37:22.50	326.56	14.53	-51.0	-68.9	3.5	3.02e+01	0	31	104	0	60	144184
2026-01-06 19:37:25.53	325.84	14.48	-50.9	-68.9	3.5	3.02e+01	0	32	104	0	60	143985
2026-01-06 19:37:28.56	325.12	14.42	-51.0	-68.9	3.5	3.02e+01	0	32	104	0	60	144866
2026-01-06 19:37:31.59	324.41	14.36	-50.9	-68.9	3.5	3.02e+01	0	31	104	0	60	144115
2026-01-06 19:37:34.63	323.69	14.29	-50.9	-68.9	3.5	3.02e+01	0	32	104	0	60	144762
2026-01-06 19:37:37.66	322.98	14.22	-50.9	-68.9	3.5	3.02e+01	0	32	104	0	60	144653
2026-01-06 19:37:40.69	322.28	14.14	-50.9	-68.9	3.5	3.02e+01	0	31	104	0	60	144872
2026-01-06 19:37:43.73	321.57	14.07	-50.9	-68.9	3.5	3.02e+01	0	32	104	0	60	144395
2026-01-06 19:37:46.76	320.88	13.98	-51.0	-68.9	3.5	3.02e+01	0	32	104	0	60	144372
2026-01-06 19:37:49.79	320.18	13.90	-51.0	-68.9	3.5	3.02e+01	0	32	104	0	60	144811
2026-01-06 19:37:52.82	319.50	13.81	-51.0	-68.9	3.5	3.02e+01	0	31	104	0	60	145420
2026-01-06 19:37:55.86	318.81	13.72	-51.0	-68.9	3.5	3.02e+01	0	32	104	0	60	145139
2026-01-06 19:37:58.89	318.13	13.62	-50.9	-68.9	3.5	3.02e+01	0	31	104	0	60	144909
2026-01-06 19:38:01.92	317.45	13.52	-51.0	-68.9	3.5	3.02e+01	0	32	104	0	60	145366
2026-01-06 19:38:04.96	316.78	13.42	-51.0	-69.0	3.5	3.02e+01	0	32	104	0	60	145994
2026-01-06 19:38:07.99	316.12	13.31	-51.0	-68.9	3.5	3.02e+01	0	32	104	0	60	145304
2026-01-06 19:38:11.02	315.46	13.21	-51.0	-68.9	3.5	3.02e+01	0	31	104	0	60	145332
2026-01-06 19:38:14.05	314.80	13.09	-51.0	-69.0	3.5	3.02e+01	0	32	104	0	60	145733
2026-01-06 19:38:17.09	314.15	12.98	-50.9	-69.0	3.5	3.02e+01	0	32	104	0	60	145495
2026-01-06 19:38:20.12	313.51	12.86	-50.9	-68.9	3.5	3.02e+01	0	32	104	0	60	145029
2026-01-06 19:38:23.15	312.87	12.74	-51.1	-69.0	3.5	3.02e+01	0	32	104	0	60	145763
2026-01-06 19:38:26.19	312.24	12.62	-51.0	-68.9	3.5	3.02e+01	0	32	104	0	60	145391
2026-01-06 19:38:29.22	311.61	12.49	-51.0	-69.0	3.5	3.02e+01	0	32	104	0	60	145504
2026-01-06 19:38:32.25	310.99	12.37	-51.1	-68.9	3.5	3.02e+01	0	32	104	0	60	144708
2026-01-06 19:38:35.29	310.37	12.24	-51.0	-68.9	3.5	3.02e+01	0	32	104	0	60	145311
2026-01-06 19:38:38.32	309.76	12.10	-51.0	-68.9	3.5	3.02e+01	0	32	104	0	60	145413
2026-01-06 19:38:41.35	309.16	11.97	-51.0	-69.0	3.5	3.02e+01	0	32	104	0	60	146193
2026-01-06 19:38:44.38	308.56	11.83	-51.0	-69.0	3.5	3.02e+01	0	31	104	0	60	145790
2026-01-06 19:38:47.42	307.97	11.69	-51.0	-69.0	3.5	3.02e+01	0	32	104	0	60	146072
2026-01-06 19:38:50.45	307.39	11.55	-51.0	-69.0	3.5	3.02e+01	0	32	104	0	60	146125
2026-01-06 19:38:53.48	306.81	11.41	-51.0	-69.0	3.5	3.02e+01	0	32	104	0	60	146137
2026-01-06 19:38:56.51	306.24	11.27	-51.0	-69.0	3.5	3.02e+01	0	32	104	0	60	146401
2026-01-06 19:38:59.54	305.67	11.12	-51.1	-69.0	3.5	3.02e+01	0	32	104	0	60	146697
2026-01-06 19:39:02.56	305.11	10.98	-51.1	-69.0	3.5	3.02e+01	0	32	104	0	60	147084
2026-01-06 19:39:05.59	304.56	10.83	-50.8	-69.1	3.5	3.02e+01	0	32	104	0	60	147192
2026-01-06 19:39:08.62	304.01	10.68	-51.0	-69.0	3.5	3.02e+01	0	32	104	0	60	146307
2026-01-06 19:39:11.66	303.46	10.53	-51.1	-69.0	3.5	3.02e+01	0	31	104	0	60	147093
2026-01-06 19:39:14.69	302.93	10.37	-51.1	-69.0	3.5	3.02e+01	0	32	104	0	60	147050
2026-01-06 19:39:17.72	302.40	10.22	-51.2	-69.1	3.5	3.02e+01	0	32	104	0	60	148494
2026-01-06 19:39:20.75	301.87	10.06	-51.1	-69.0	3.5	3.02e+01	0	31	104	0	60	146800
2026-01-06 19:39:23.79	301.36	9.91	-51.1	-69.0	3.5	3.02e+01	0	32	104	0	60	146881
2026-01-06 19:39:26.82	300.84	9.75	-51.1	-69.0	3.5	3.02e+01	0	32	104	0	60	146349
2026-01-06 19:39:29.85	300.34	9.59	-50.8	-69.0	3.5	3.02e+01	0	32	104	0	60	146908
2026-01-06 19:39:32.88	299.84	9.43	-51.0	-69.0	3.5	3.02e+01	0	32	104	0	60	146268
2026-01-06 19:39:35.91	299.34	9.27	-51.0	-69.0	3.5	3.02e+01	0	32	104	0	60	146692
2026-01-06 19:39:38.94	298.86	9.11	-51.0	-69.0	3.5	3.02e+01	0	32	104	0	60	146429
2026-01-06 19:39:41.97	298.38	8.95	-51.1	-69.0	3.5	3.02e+01	0	32	104	0	60	146252
2026-01-06 19:39:45.01	297.90	8.79	-51.0	-69.0	3.5	3.02e+01	0	32	104	0	60	145693
2026-01-06 19:39:48.04	297.43	8.63	-51.1	-69.0	3.5	3.02e+01	0	32	104	0	60	146747
2026-01-06 19:39:51.07	296.96	8.47	-51.2	-69.1	3.5	3.02e+01	0	32	104	0	60	147359
2026-01-06 19:39:54.10	296.50	8.30	-51.0	-69.0	3.5	3.02e+01	0	32	104	0	60	146731
2026-01-06 19:39:57.14	296.05	8.14	-51.0	-69.0	3.5	3.02e+01	0	32	104	0	60	146040
2026-01-06 19:40:00.17	295.60	7.97	-50.9	-69.0	3.5	3.02e+01	0	32	104	0	60	146019
2026-01-06 19:40:03.20	295.16	7.81	-50.9	-69.0	3.5	3.02e+01	0	32	104	0	60	145846
2026-01-06 19:40:06.24	294.72	7.64	-51.1	-68.9	3.5	3.02e+01	0	32	104	0	60	145277
2026-01-06 19:40:09.27	294.29	7.48	-51.0	-68.9	3.5	3.02e+01	0	32	104	0	60	145445
2026-01-06 19:40:12.30	293.86	7.31	-51.0	-68.9	3.5	3.02e+01	0	32	104	0	60	145029
2026-01-06 19:40:15.34	293.44	7.15	-51.0	-68.9	3.5	3.02e+01	0	31	104	0	60	144598
2026-01-06 19:40:18.37	293.03	6.98	-51.0	-68.9	3.5	3.02e+01	0	32	104	0	60	145209
2026-01-06 19:40:21.40	292.62	6.82	-50.9	-68.9	3.5	3.02e+01	0	32	104	0	60	145380
2026-01-06 19:40:24.43	292.21	6.65	-51.0	-68.9	3.5	3.02e+01	0	31	104	0	60	144643
2026-01-06 19:40:27.47	291.81	6.48	-50.9	-68.9	3.5	3.02e+01	0	31	104	0	60	145212
2026-01-06 19:40:30.50	291.42	6.32	-50.9	-68.9	3.5	3.02e+01	0	32	104	0	60	144575
2026-01-06 19:40:33.53	291.03	6.15	-50.9	-68.9	3.5	3.02e+01	0	32	104	0	60	144397
2026-01-06 19:40:36.57	290.64	5.98	-51.0	-68.9	3.5	3.02e+01	0	32	104	0	60	145160
2026-01-06 19:40:39.60	290.26	5.82	-51.0	-68.9	3.5	3.02e+01	0	31	104	0	60	145367
2026-01-06 19:40:42.63	289.89	5.65	-50.8	-68.9	3.5	3.02e+01	0	32	104	0	60	144357
2026-01-06 19:40:45.67	289.52	5.49	-50.9	-69.0	3.5	3.02e+01	0	32	104	0	60	145497
2026-01-06 19:40:48.70	289.15	5.32	-50.9	-68.9	3.5	3.02e+01	0	32	104	0	60	144223
2026-01-06 19:40:51.73	288.79	5.16	-50.9	-68.8	3.5	3.02e+01	0	32	104	0	60	143563
2026-01-06 19:40:54.76	288.43	4.99	-50.9	-68.8	3.5	3.02e+01	0	32	104	0	60	143548
2026-01-06 19:40:57.80	288.08	4.82	-50.9	-68.9	3.5	3.02e+01	0	32	104	0	60	145102
2026-01-06 19:41:00.83	287.73	4.66	-50.8	-68.9	3.5	3.02e+01	0	32	104	0	60	144804
2026-01-06 19:41:03.86	287.39	4.50	-50.6	-68.9	3.5	3.02e+01	0	32	104	0	60	144134
2026-01-06 19:41:06.89	287.05	4.33	-50.6	-68.9	3.5	3.02e+01	0	32	104	0	60	144571
2026-01-06 19:41:09.93	286.71	4.17	-50.7	-68.8	3.5	3.02e+01	0	32	104	0	60	143766
2026-01-06 19:41:12.96	286.38	4.00	-50.6	-68.9	3.5	3.02e+01	0	32	104	0	60	144145
2026-01-06 19:41:15.99	286.06	3.84	-50.3	-68.9	3.5	3.02e+01	0	32	104	0	60	144364
2026-01-06 19:41:19.02	285.73	3.67	-50.8	-68.8	3.5	3.02e+01	0	32	104	0	60	143432
2026-01-06 19:41:22.04	285.42	3.51	-50.8	-68.8	3.5	3.02e+01	0	32	104	0	60	143574
2026-01-06 19:41:25.07	285.10	3.35	-50.8	-68.8	3.5	3.02e+01	0	32	104	0	60	143523
2026-01-06 19:41:28.10	284.79	3.19	-50.8	-68.8	3.5	3.02e+01	0	32	104	0	60	142633
2026-01-06 19:41:31.13	284.48	3.02	-50.9	-68.8	3.5	3.02e+01	0	31	104	0	60	142851
2026-01-06 19:41:34.15	284.18	2.86	-50.8	-68.8	3.5	3.02e+01	0	31	104	0	60	142285
2026-01-06 19:41:37.18	283.88	2.70	-50.8	-68.8	3.5	3.02e+01	0	32	104	0	60	143002
2026-01-06 19:41:40.20	283.59	2.54	-50.7	-68.7	3.5	3.02e+01	0	32	104	0	60	141941
2026-01-06 19:41:43.23	283.30	2.38	-50.8	-68.8	3.5	3.02e+01	0	32	104	0	60	142349
2026-01-06 19:41:46.26	283.01	2.22	-50.9	-68.7	3.5	3.02e+01	0	32	104	0	60	141266
2026-01-06 19:41:49.29	282.72	2.06	-50.8	-68.7	3.5	3.02e+01	0	32	104	0	60	141846
2026-01-06 19:41:52.31	282.44	1.90	-50.6	-68.7	3.5	3.02e+01	0	32	104	0	60	141451
2026-01-06 19:41:55.34	282.17	1.74	-50.7	-68.7	3.5	3.02e+01	0	32	104	0	60	142086
2026-01-06 19:41:58.37	281.89	1.58	-50.8	-68.8	3.5	3.02e+01	0	32	104	0	60	142321
2026-01-06 19:42:01.40	281.62	1.43	-50.8	-68.7	3.5	3.02e+01	0	32	104	0	60	142008
2026-01-06 19:42:04.43	281.35	1.27	-50.7	-68.7	3.5	3.02e+01	0	32	104	0	60	141696
2026-01-06 19:42:07.46	281.09	1.11	-50.8	-68.7	3.5	3.02e+01	0	32	104	0	60	141014
2026-01-06 19:42:10.49	280.82	0.95	-50.8	-68.7	3.5	3.02e+01	0	32	104	0	60	141281
2026-01-06 19:42:13.52	280.57	0.80	-50.8	-68.7	3.5	3.02e+01	0	32	104	0	60	141102
2026-01-06 19:42:16.55	280.31	0.64	-50.8	-68.7	3.5	3.02e+01	0	32	104	0	60	140831
2026-01-06 19:42:19.58	280.06	0.48	-50.8	-68.7	3.5	3.02e+01	0	32	104	0	60	140808
2026-01-06 19:42:22.61	279.81	0.33	-50.8	-68.7	3.5	3.02e+01	0	32	104	0	60	140678
2026-01-06 19:42:25.64	279.56	0.17	-50.6	-68.6	3.5	3.02e+01	0	32	104	0	60	140365
2026-01-06 19:42:28.67	279.32	0.02	-50.7	-68.6	3.5	3.02e+01	0	32	104	0	60	139870

#Closed at: 2026-01-06 19:42:29
#Recorded file [0 MB]: D:/lorett/data/35034_260106_223106.dat