passes_logs/2026/01/06/R4.6S_Anadyr_2ch/R4.6S_Anadyr_2ch__20260106_175356_AQUA_rec.log

#Pass ID: 20260106_175356_AQUA
#Satellite: AQUA
#Configuration: AQUA
#almurnet v.1.7.20251203
#Start time: 2026-01-06 17:53:57

#Version: 2.2.20231116
#Station: R4.6S_Anadyr_2ch
#Location: 177.4865 lon 64.73178 lat
#TLE: 1 27424U 02022A   25351.00450321  .00000925  00000+0  19503-3 0  9992
#TLE: 2 27424  98.4041 311.9529 0001248 113.7180 322.1616 14.61819266256652

#Time	Az	El	Level	Level2	SNR	BER	BlckErr	Temp	State	Recorded	gain1	gain2
2026-01-06 17:53:57.08	22.75	0.05	-51.0	-66.0	3.5	1.51e+00	0	28	0	0	60	97670
2026-01-06 17:54:00.10	22.62	0.22	-51.3	-69.1	3.5	3.02e+01	0	30	104	0	60	147793
2026-01-06 17:54:03.13	22.49	0.40	-51.3	-69.1	3.5	3.02e+01	0	30	104	0	60	148177
2026-01-06 17:54:06.15	22.35	0.58	-51.2	-69.1	3.5	3.02e+01	0	30	104	0	60	147280
2026-01-06 17:54:09.17	22.21	0.76	-51.3	-69.1	3.5	3.02e+01	0	30	104	0	60	147671
2026-01-06 17:54:12.20	22.07	0.94	-51.3	-69.1	3.5	3.02e+01	0	30	104	0	60	147985
2026-01-06 17:54:14.93	21.94	1.11	-51.3	-69.1	3.5	3.02e+01	0	30	104	0	60	147694
2026-01-06 17:54:18.25	21.78	1.31	-51.3	-69.1	3.5	3.02e+01	0	30	104	0	60	148301
2026-01-06 17:54:20.98	21.65	1.48	-51.3	-69.1	3.5	3.02e+01	0	30	104	0	60	148162
2026-01-06 17:54:24.29	21.48	1.68	-51.3	-69.2	3.5	3.02e+01	0	30	104	0	60	148870
2026-01-06 17:54:27.02	21.35	1.85	-51.3	-69.1	3.5	3.02e+01	0	30	104	0	60	147380
2026-01-06 17:54:30.33	21.18	2.05	-51.3	-69.2	3.5	3.02e+01	0	30	104	0	60	148894
2026-01-06 17:54:33.07	21.04	2.22	-51.3	-69.1	3.5	3.02e+01	0	30	104	0	60	148470
2026-01-06 17:54:36.38	20.86	2.43	-51.4	-69.2	3.5	3.02e+01	0	30	104	0	60	149712
2026-01-06 17:54:39.11	20.72	2.61	-51.3	-69.2	3.5	3.02e+01	0	30	104	0	60	148866
2026-01-06 17:54:42.42	20.54	2.82	-51.3	-69.1	3.5	3.02e+01	0	30	104	0	60	148170
2026-01-06 17:54:45.16	20.39	2.99	-51.3	-69.1	3.5	3.02e+01	0	30	104	0	60	148730
2026-01-06 17:54:48.46	20.20	3.21	-51.3	-69.1	3.5	3.02e+01	0	30	104	0	60	147670
2026-01-06 17:54:51.20	20.05	3.38	-51.3	-69.2	3.5	3.02e+01	0	30	104	0	60	149157
2026-01-06 17:54:54.51	19.86	3.60	-51.3	-69.2	3.5	3.02e+01	0	30	104	0	60	149556
2026-01-06 17:54:57.24	19.70	3.78	-51.4	-69.2	3.5	3.02e+01	0	31	104	0	60	150154
2026-01-06 17:55:00.55	19.50	4.00	-51.4	-69.3	3.5	3.02e+01	0	30	104	0	60	151323
2026-01-06 17:55:03.29	19.34	4.18	-51.2	-69.2	3.5	3.02e+01	0	31	104	0	60	148980
2026-01-06 17:55:06.60	19.13	4.41	-50.5	-68.7	3.5	3.02e+01	0	30	104	0	60	141147
2026-01-06 17:55:09.33	18.96	4.59	-50.1	-68.0	3.5	3.02e+01	0	31	104	0	60	130847
2026-01-06 17:55:12.64	18.75	4.82	-49.9	-67.8	3.5	3.02e+01	0	31	104	0	60	128003
2026-01-06 17:55:15.38	18.57	5.01	-49.9	-67.8	3.5	3.02e+01	0	31	104	0	60	128125
2026-01-06 17:55:18.69	18.36	5.24	-49.9	-67.8	3.5	3.02e+01	0	31	104	0	60	127775
2026-01-06 17:55:21.43	18.17	5.43	-49.9	-67.8	3.5	3.02e+01	0	31	104	0	60	127696
2026-01-06 17:55:24.74	17.95	5.66	-49.9	-67.8	3.5	3.02e+01	0	31	104	0	60	127997
2026-01-06 17:55:27.47	17.76	5.85	-49.9	-67.8	3.5	3.02e+01	0	31	104	0	60	127800
2026-01-06 17:55:30.78	17.53	6.09	-49.9	-67.6	3.5	3.02e+01	0	31	104	0	60	125095
2026-01-06 17:55:33.52	17.33	6.29	-49.9	-67.7	3.5	3.02e+01	0	31	104	0	60	126651
2026-01-06 17:55:36.83	17.09	6.52	-49.9	-67.8	3.5	3.02e+01	0	31	104	0	60	126907
2026-01-06 17:55:39.56	16.89	6.72	-49.9	-67.8	3.5	3.02e+01	0	31	104	0	60	126916
2026-01-06 17:55:42.87	16.64	6.97	-49.8	-67.1	3.5	3.02e+01	0	31	104	0	60	117423
2026-01-06 17:55:45.61	16.43	7.17	-49.9	-67.6	3.5	3.02e+01	0	31	104	0	60	124989
2026-01-06 17:55:48.91	16.18	7.42	-49.0	-64.0	3.5	3.02e+01	0	31	104	0	60	82023
2026-01-06 17:55:51.65	15.96	7.62	-49.5	-65.4	3.5	3.02e+01	0	31	104	0	60	97168
2026-01-06 17:55:54.97	15.69	7.88	-39.7	-50.1	3.5	3.02e+01	0	31	104	0	60	16600
2026-01-06 17:55:57.71	15.47	8.08	-39.8	-50.3	3.5	3.02e+01	0	31	104	0	60	16922
2026-01-06 17:56:01.03	15.19	8.34	-48.9	-63.2	3.5	3.02e+01	0	31	104	0	60	74703
2026-01-06 17:56:03.78	14.96	8.55	-49.8	-65.9	3.5	3.02e+01	0	31	104	0	60	101884
2026-01-06 17:56:07.10	14.67	8.81	-41.2	-51.8	3.5	3.02e+01	0	31	104	0	60	20106
2026-01-06 17:56:09.84	14.43	9.03	-40.7	-51.2	3.5	3.02e+01	0	31	104	0	60	18761
2026-01-06 17:56:13.16	14.13	9.30	-49.9	-65.9	3.6	3.02e+01	0	31	104	0	60	102784
2026-01-06 17:56:15.90	13.88	9.52	-41.1	-51.6	3.5	3.02e+01	0	31	104	0	60	19820
2026-01-06 17:56:19.22	13.57	9.78	-40.0	-50.4	3.5	3.02e+01	0	31	104	0	60	17250
2026-01-06 17:56:21.96	13.30	10.01	-50.2	-67.7	3.5	3.02e+01	0	31	104	0	60	126667
2026-01-06 17:56:25.28	12.98	10.28	-43.5	-54.4	3.5	3.02e+01	0	31	104	0	60	27126
2026-01-06 17:56:28.02	12.71	10.51	-48.4	-61.8	3.5	3.02e+01	0	31	104	0	60	64122
2026-01-06 17:56:31.35	12.37	10.79	-43.1	-53.8	3.5	3.02e+01	0	31	104	0	60	25434
2026-01-06 17:56:34.09	12.09	11.02	-43.8	-54.7	3.5	3.02e+01	0	31	104	0	60	28074
2026-01-06 17:56:37.41	11.74	11.30	-48.0	-60.9	3.5	3.02e+01	0	31	104	0	60	57525
2026-01-06 17:56:40.15	11.45	11.54	-49.9	-65.8	3.5	3.02e+01	0	31	104	0	60	101775
2026-01-06 17:56:43.47	11.09	11.83	-40.2	-50.6	3.5	3.02e+01	0	31	104	0	60	17494
2026-01-06 17:56:46.21	10.78	12.07	-39.3	-49.6	3.6	3.02e+01	0	31	104	0	58	17637
2026-01-06 17:56:49.53	10.41	12.36	-43.7	-54.5	3.5	3.02e+01	0	31	104	0	60	27602
2026-01-06 17:56:52.27	10.09	12.60	-41.9	-52.4	3.5	3.02e+01	0	31	104	0	60	21705
2026-01-06 17:56:55.59	9.70	12.90	-43.8	-54.6	3.5	3.02e+01	0	31	104	0	60	27844
2026-01-06 17:56:58.33	9.37	13.15	-42.3	-52.9	3.5	3.02e+01	0	31	104	0	60	22979
2026-01-06 17:57:01.65	8.96	13.45	-43.3	-54.0	3.5	3.02e+01	0	31	104	0	60	26148
2026-01-06 17:57:04.39	8.61	13.70	-50.2	-66.3	3.6	3.02e+01	0	31	104	0	60	106664
2026-01-06 17:57:07.71	8.19	14.01	-38.8	-49.1	3.5	3.02e+01	0	31	104	0	56	18585
2026-01-06 17:57:10.46	7.82	14.27	-39.5	-49.8	3.6	3.02e+01	0	31	104	0	58	18082
2026-01-06 17:57:13.78	7.38	14.58	-47.0	-58.8	3.5	3.02e+01	0	31	104	0	60	45306
2026-01-06 17:57:16.52	7.00	14.84	-44.5	-55.5	3.5	3.02e+01	0	31	104	0	60	30992
2026-01-06 17:57:19.84	6.54	15.16	-43.0	-53.9	3.5	3.02e+01	0	31	104	0	60	25605
2026-01-06 17:57:22.58	6.15	15.42	-42.5	-53.2	3.5	3.02e+01	0	31	104	0	60	23644
2026-01-06 17:57:25.90	5.67	15.74	-42.7	-53.4	3.5	3.02e+01	0	31	104	0	60	24245
2026-01-06 17:57:28.64	5.26	16.01	-41.1	-51.5	3.5	3.02e+01	0	31	104	0	60	19424
2026-01-06 17:57:31.96	4.75	16.34	-48.6	-61.8	3.5	3.02e+01	0	31	104	0	60	64043
2026-01-06 17:57:34.71	4.32	16.61	-50.6	-67.5	3.6	3.02e+01	0	31	104	0	60	122824
2026-01-06 17:57:38.02	3.80	16.95	-41.7	-52.2	3.5	3.02e+01	0	31	104	0	60	21151
2026-01-06 17:57:40.76	3.35	17.22	-42.0	-52.6	3.5	3.02e+01	0	31	104	0	60	22071
2026-01-06 17:57:44.08	2.80	17.56	-41.6	-52.2	3.6	3.02e+01	0	31	104	0	60	21099
2026-01-06 17:57:46.82	2.33	17.84	-38.6	-48.9	3.5	3.02e+01	0	31	104	0	58	16310
2026-01-06 17:57:50.14	1.76	18.18	-38.8	-49.0	3.5	3.02e+01	0	31	104	0	58	16506
2026-01-06 17:57:52.88	1.27	18.46	-42.6	-53.2	3.5	3.02e+01	0	31	104	0	60	23862
2026-01-06 17:57:56.20	0.67	18.81	-41.2	-51.6	3.5	3.02e+01	0	31	104	0	60	19700
2026-01-06 17:57:58.94	0.16	19.10	-49.3	-63.2	3.5	3.02e+01	0	31	104	0	60	75168
2026-01-06 17:58:02.26	359.53	19.45	-50.4	-66.4	3.5	3.02e+01	0	31	104	0	60	108842
2026-01-06 17:58:05.00	359.00	19.74	-39.8	-50.2	3.5	3.02e+01	0	31	104	0	60	16783
2026-01-06 17:58:08.32	358.34	20.09	-38.6	-48.8	3.5	3.02e+01	0	31	104	0	56	18032
2026-01-06 17:58:11.06	357.78	20.38	-42.2	-52.8	3.5	3.02e+01	0	31	104	0	60	22649
2026-01-06 17:58:14.38	357.09	20.73	-39.1	-49.5	3.5	3.02e+01	0	31	104	0	58	17344
2026-01-06 17:58:17.12	356.51	21.03	-38.2	-48.4	3.5	3.02e+01	0	31	104	0	56	17239
2026-01-06 17:58:20.44	355.78	21.39	-43.8	-54.6	3.6	3.02e+01	0	31	104	0	60	27778
2026-01-06 17:58:23.19	355.17	21.68	-39.9	-50.2	3.5	3.02e+01	0	31	104	0	60	16853
2026-01-06 17:58:26.51	354.42	22.04	-45.5	-56.8	3.5	3.02e+01	0	31	104	0	60	35935
2026-01-06 17:58:29.25	353.78	22.34	-50.6	-66.9	3.5	3.02e+01	0	31	104	0	60	114236
2026-01-06 17:58:32.57	352.99	22.69	-40.1	-50.4	3.5	3.02e+01	0	31	104	0	60	17144
2026-01-06 17:58:35.31	352.32	22.99	-37.1	-47.2	3.5	3.02e+01	0	31	104	0	54	16826
2026-01-06 17:58:38.63	351.50	23.35	-41.3	-51.8	3.5	3.02e+01	0	31	104	0	60	20224
2026-01-06 17:58:41.36	350.81	23.64	-39.0	-49.3	3.5	3.02e+01	0	31	104	0	58	16992
2026-01-06 17:58:44.68	349.94	24.00	-50.8	-68.1	3.5	3.02e+01	0	31	104	0	60	131221
2026-01-06 17:58:47.43	349.21	24.29	-45.5	-56.8	3.6	3.02e+01	0	31	104	0	60	35901
2026-01-06 17:58:50.75	348.31	24.64	-39.8	-50.1	3.5	3.02e+01	0	31	104	0	60	16683
2026-01-06 17:58:53.49	347.55	24.93	-39.5	-49.8	3.5	3.02e+01	0	31	104	0	54	22685
2026-01-06 17:58:56.81	346.61	25.28	-40.6	-51.0	3.5	3.02e+01	0	31	104	0	60	18402
2026-01-06 17:58:59.55	345.82	25.56	-37.7	-47.8	3.5	3.02e+01	0	31	104	0	56	16103
2026-01-06 17:59:02.87	344.84	25.90	-50.8	-67.4	3.5	3.02e+01	0	31	104	0	60	121642
2026-01-06 17:59:05.61	344.01	26.18	-40.1	-50.5	3.6	3.02e+01	0	31	104	0	60	17417
2026-01-06 17:59:08.93	342.99	26.51	-37.2	-47.4	3.5	3.02e+01	0	31	104	0	54	17218
2026-01-06 17:59:11.67	342.13	26.78	-51.0	-68.7	3.5	3.02e+01	0	31	104	0	60	141717
2026-01-06 17:59:14.99	341.07	27.10	-39.9	-50.2	3.5	3.02e+01	0	31	104	0	60	16859
2026-01-06 17:59:17.73	340.18	27.36	-38.5	-48.8	3.5	3.02e+01	0	31	104	0	58	15981
2026-01-06 17:59:21.05	339.07	27.66	-51.0	-68.2	3.5	3.02e+01	0	31	104	0	60	134209
2026-01-06 17:59:23.80	338.14	27.91	-41.1	-51.5	3.5	3.02e+01	0	31	104	0	60	19543
2026-01-06 17:59:27.12	337.00	28.21	-38.6	-48.8	3.5	3.02e+01	0	31	104	0	58	16126
2026-01-06 17:59:29.86	336.04	28.44	-51.0	-68.2	3.5	3.02e+01	0	31	104	0	60	132821
2026-01-06 17:59:33.17	334.86	28.71	-40.2	-50.5	3.5	3.02e+01	0	31	104	0	60	17405
2026-01-06 17:59:35.91	333.87	28.93	-38.6	-48.8	3.5	3.02e+01	0	31	104	0	58	16000
2026-01-06 17:59:39.22	332.66	29.19	-51.1	-68.2	3.5	3.02e+01	0	31	104	0	60	132711
2026-01-06 17:59:41.95	331.64	29.39	-40.6	-51.0	3.5	3.02e+01	0	31	104	0	60	18367
2026-01-06 17:59:45.27	330.38	29.62	-38.2	-48.5	3.5	3.02e+01	0	31	104	0	56	17325
2026-01-06 17:59:48.00	329.34	29.80	-51.0	-68.2	3.5	3.02e+01	0	31	104	0	60	133925
2026-01-06 17:59:51.31	328.05	30.01	-40.1	-50.4	3.5	3.02e+01	0	31	104	0	60	17196
2026-01-06 17:59:54.04	326.98	30.17	-38.4	-48.6	3.5	3.02e+01	0	31	104	0	58	15734
2026-01-06 17:59:57.35	325.66	30.35	-51.1	-68.4	3.5	3.02e+01	0	31	104	0	60	135803
2026-01-06 18:00:00.09	324.56	30.48	-37.9	-48.1	3.5	3.02e+01	0	31	104	0	56	16600
2026-01-06 18:00:03.40	323.22	30.64	-37.3	-47.4	3.5	3.02e+01	0	31	104	0	54	17279
2026-01-06 18:00:06.14	322.10	30.75	-51.0	-68.1	3.5	3.02e+01	0	31	104	0	60	131522
2026-01-06 18:00:09.45	320.74	30.87	-43.0	-53.7	3.5	3.02e+01	0	31	104	0	60	25069
2026-01-06 18:00:12.18	319.61	30.96	-39.8	-50.2	3.5	3.02e+01	0	31	104	0	60	16737
2026-01-06 18:00:15.49	318.23	31.04	-45.7	-57.0	3.6	3.02e+01	0	31	104	0	60	36925
2026-01-06 18:00:18.22	317.09	31.10	-40.3	-50.6	3.5	3.02e+01	0	31	104	0	60	17645
2026-01-06 18:00:21.53	315.70	31.16	-36.8	-47.0	3.5	3.02e+01	0	31	104	0	54	16372
2026-01-06 18:00:24.26	314.55	31.19	-51.1	-68.0	3.5	3.02e+01	0	31	104	0	60	130899
2026-01-06 18:00:27.57	313.15	31.21	-39.9	-50.2	3.5	3.02e+01	0	31	104	0	60	16872
2026-01-06 18:00:30.31	311.99	31.22	-39.6	-49.9	3.5	3.02e+01	0	31	104	0	58	18282
2026-01-06 18:00:33.62	310.59	31.20	-42.5	-53.0	3.5	3.02e+01	0	31	104	0	60	23297
2026-01-06 18:00:36.35	309.44	31.18	-48.7	-61.5	3.5	3.02e+01	0	31	104	0	60	62020
2026-01-06 18:00:39.67	308.04	31.13	-37.9	-48.2	3.5	3.02e+01	0	31	104	0	58	14897
2026-01-06 18:00:42.40	306.90	31.08	-39.6	-50.0	3.5	3.02e+01	0	31	104	0	60	16346
2026-01-06 18:00:45.70	305.52	31.00	-40.0	-50.5	3.5	3.02e+01	0	31	104	0	60	17329
2026-01-06 18:00:48.44	304.38	30.92	-38.9	-49.2	3.5	3.02e+01	0	31	104	0	56	18804
2026-01-06 18:00:51.75	303.01	30.81	-39.6	-49.9	3.5	3.02e+01	0	31	104	0	60	16142
2026-01-06 18:00:54.49	301.89	30.70	-39.6	-49.9	3.5	3.02e+01	0	31	104	0	60	16218
2026-01-06 18:00:57.80	300.54	30.55	-40.1	-50.4	3.5	3.02e+01	0	31	104	0	56	21555
2026-01-06 18:01:00.54	299.43	30.42	-49.7	-63.5	3.5	3.02e+01	0	31	104	0	60	77571
2026-01-06 18:01:03.85	298.11	30.25	-47.7	-59.6	3.6	3.02e+01	0	31	104	0	60	49571
2026-01-06 18:01:06.59	297.03	30.09	-47.6	-50.9	17.5	3.02e+01	58	31	102	524288	60	18301
2026-01-06 18:01:09.89	295.73	29.89	-48.0	-51.6	16.8	3.02e+01	60	31	102	524288	60	19819
2026-01-06 18:01:12.62	294.68	29.72	-43.8	-45.7	22.6	3.02e+01	57	31	102	524288	60	9985
2026-01-06 18:01:15.94	293.41	29.49	-42.7	-44.4	24.1	3.02e+01	49	31	102	524288	60	8597
2026-01-06 18:01:18.67	292.39	29.29	-40.8	-42.2	26.5	3.02e+01	53	31	102	524288	60	6699
2026-01-06 18:01:21.98	291.16	29.05	-37.1	-38.3	29.7	3.02e+01	58	31	102	524288	54	6021
2026-01-06 18:01:24.71	290.16	28.83	-36.2	-37.3	30.4	3.02e+01	60	31	102	524288	52	6023
2026-01-06 18:01:28.02	288.97	28.56	-37.1	-38.3	29.3	3.02e+01	63	31	102	524288	52	6791
2026-01-06 18:01:30.75	288.00	28.33	-36.3	-37.5	30.3	3.02e+01	56	31	102	524288	54	5469
2026-01-06 18:01:34.07	286.85	28.04	-37.3	-38.5	29.3	3.02e+01	59	31	102	524288	52	6959
2026-01-06 18:01:36.80	285.91	27.80	-37.1	-38.3	29.2	3.02e+01	54	31	102	524288	54	6061
2026-01-06 18:01:40.11	284.80	27.49	-36.9	-38.1	29.5	3.02e+01	59	31	102	524288	52	6578
2026-01-06 18:01:42.85	283.90	27.24	-37.1	-38.3	29.6	3.02e+01	60	31	102	524288	52	6794
2026-01-06 18:01:46.15	282.83	26.92	-37.1	-38.3	29.7	3.02e+01	58	31	102	524288	52	6787
2026-01-06 18:01:48.88	281.96	26.65	-37.3	-38.6	29.3	3.02e+01	57	31	102	524288	54	6208
2026-01-06 18:01:52.19	280.93	26.32	-36.8	-38.0	29.8	3.02e+01	59	31	102	524288	54	5809
2026-01-06 18:01:54.92	280.10	26.05	-37.1	-38.3	29.5	3.02e+01	63	31	102	524288	54	6058
2026-01-06 18:01:58.23	279.11	25.71	-37.5	-38.7	29.3	3.02e+01	45	31	102	524288	54	6304
2026-01-06 18:02:00.96	278.30	25.43	-37.8	-39.1	28.4	3.02e+01	58	31	102	524288	56	5861
2026-01-06 18:02:04.28	277.35	25.08	-37.0	-38.2	29.6	3.02e+01	52	31	102	524288	54	5962
2026-01-06 18:02:07.00	276.59	24.80	-37.8	-39.0	28.4	3.02e+01	60	31	102	524288	54	6550
2026-01-06 18:02:10.31	275.67	24.45	-36.1	-37.1	30.3	3.02e+01	61	31	102	524288	52	5925
2026-01-06 18:02:13.05	274.94	24.15	-37.5	-38.7	29.1	3.02e+01	58	31	102	524288	54	6291
2026-01-06 18:02:16.36	274.06	23.80	-37.2	-38.3	29.3	3.02e+01	58	31	102	524288	54	6054
2026-01-06 18:02:19.09	273.36	23.51	-37.1	-38.3	29.2	3.02e+01	55	31	102	524288	54	6002
2026-01-06 18:02:22.40	272.52	23.15	-37.4	-38.6	29.2	3.02e+01	47	31	102	524288	54	6232
2026-01-06 18:02:25.14	271.84	22.85	-37.8	-39.0	29.0	3.02e+01	54	31	102	524288	54	6531
2026-01-06 18:02:28.45	271.05	22.49	-37.3	-38.4	29.5	3.02e+01	59	31	102	524288	54	6127
2026-01-06 18:02:31.19	270.40	22.20	-37.5	-38.7	29.0	3.02e+01	59	31	102	524288	54	6306
2026-01-06 18:02:34.50	269.63	21.84	-37.9	-39.2	28.4	3.02e+01	61	31	102	524288	54	6659
2026-01-06 18:02:37.23	269.02	21.54	-38.3	-39.5	28.7	3.02e+01	61	31	102	524288	56	6177
2026-01-06 18:02:40.54	268.28	21.19	-38.0	-39.2	28.6	3.02e+01	60	31	102	524288	56	5969
2026-01-06 18:02:43.27	267.69	20.89	-38.4	-39.6	28.5	3.02e+01	61	31	102	524288	56	6271
2026-01-06 18:02:46.58	266.99	20.54	-37.4	-38.6	29.3	3.02e+01	46	31	102	524288	56	5531
2026-01-06 18:02:49.31	266.43	20.24	-38.1	-39.4	28.5	3.02e+01	44	31	102	524288	56	6073
2026-01-06 18:02:52.62	265.76	19.89	-37.5	-38.7	29.3	3.02e+01	60	31	102	524288	56	5637
2026-01-06 18:02:55.36	265.22	19.60	-37.5	-38.7	29.2	3.02e+01	58	31	102	524288	56	5628
2026-01-06 18:02:58.66	264.58	19.25	-38.1	-39.3	28.8	3.02e+01	59	31	102	524288	56	6025
2026-01-06 18:03:01.40	264.06	18.96	-38.6	-39.8	28.3	3.02e+01	62	31	102	524288	56	6422
2026-01-06 18:03:04.70	263.45	18.61	-37.4	-38.5	29.2	3.02e+01	59	31	102	524288	56	5510
2026-01-06 18:03:07.44	262.96	18.33	-38.2	-39.5	28.3	3.02e+01	56	31	102	524288	56	6148
2026-01-06 18:03:10.75	262.37	17.99	-38.3	-39.6	28.5	3.02e+01	45	31	102	524288	54	6975
2026-01-06 18:03:13.48	261.90	17.70	-37.4	-38.6	29.1	3.02e+01	59	31	102	524288	54	6218
2026-01-06 18:03:16.80	261.34	17.36	-38.0	-39.2	28.5	3.02e+01	62	31	102	524288	54	6658
2026-01-06 18:03:19.54	260.89	17.09	-39.2	-40.6	27.5	3.02e+01	58	31	102	524288	56	6976
2026-01-06 18:03:22.86	260.35	16.75	-37.1	-38.2	29.5	3.02e+01	62	31	102	524288	54	5980
2026-01-06 18:03:25.60	259.91	16.48	-37.8	-39.1	28.8	3.02e+01	60	31	102	524288	54	6585
2026-01-06 18:03:28.91	259.40	16.15	-37.3	-38.5	29.4	3.02e+01	49	31	102	524288	54	6169
2026-01-06 18:03:31.66	258.98	15.88	-37.7	-38.9	28.9	3.02e+01	57	31	102	524288	54	6475
2026-01-06 18:03:34.98	258.49	15.55	-37.6	-38.8	29.0	3.02e+01	61	31	102	524288	54	6379
2026-01-06 18:03:37.72	258.09	15.28	-37.2	-38.4	29.4	3.02e+01	61	31	102	524288	54	6121
2026-01-06 18:03:41.04	257.62	14.96	-37.7	-38.9	28.9	3.02e+01	60	31	102	524288	54	6480
2026-01-06 18:03:43.78	257.24	14.70	-37.5	-38.7	29.0	3.02e+01	58	31	102	524288	54	6337
2026-01-06 18:03:47.10	256.79	14.39	-37.5	-38.7	29.1	3.02e+01	59	31	102	524288	54	6329
2026-01-06 18:03:49.84	256.42	14.13	-37.5	-38.7	29.1	3.02e+01	61	31	102	524288	54	6307
2026-01-06 18:03:53.16	255.99	13.82	-37.4	-38.6	29.2	3.02e+01	56	31	102	524288	54	6242
2026-01-06 18:03:55.90	255.64	13.56	-37.7	-38.9	28.9	3.02e+01	45	31	102	524288	54	6455
2026-01-06 18:03:59.22	255.22	13.26	-37.4	-38.7	29.1	3.02e+01	59	31	102	524288	54	6279
2026-01-06 18:04:01.96	254.88	13.01	-37.2	-38.4	29.3	3.02e+01	64	31	102	524288	54	6066
2026-01-06 18:04:05.28	254.48	12.71	-37.4	-38.6	29.1	3.02e+01	60	31	102	524288	54	6262
2026-01-06 18:04:08.02	254.16	12.46	-37.5	-38.7	29.1	3.02e+01	58	31	102	524288	54	6318
2026-01-06 18:04:11.34	253.77	12.17	-37.5	-38.7	28.9	3.02e+01	54	31	102	524288	54	6329
2026-01-06 18:04:14.08	253.46	11.93	-37.2	-38.4	29.2	3.02e+01	62	31	102	524288	54	6122
2026-01-06 18:04:17.40	253.10	11.64	-37.5	-38.7	29.1	3.02e+01	45	31	102	524288	54	6296
2026-01-06 18:04:20.14	252.80	11.40	-37.5	-38.7	29.0	3.02e+01	60	31	102	524288	54	6298
2026-01-06 18:04:23.46	252.44	11.11	-37.6	-38.9	28.8	3.02e+01	59	31	102	524288	54	6430
2026-01-06 18:04:26.21	252.15	10.88	-37.5	-38.7	29.0	3.02e+01	59	31	102	524288	54	6297
2026-01-06 18:04:29.53	251.81	10.60	-37.7	-38.9	28.9	3.02e+01	57	31	102	524288	54	6449
2026-01-06 18:04:32.27	251.54	10.37	-37.6	-38.8	28.9	3.02e+01	61	31	102	524288	54	6366
2026-01-06 18:04:35.59	251.21	10.09	-37.2	-38.4	29.3	3.02e+01	47	31	102	524288	54	6071
2026-01-06 18:04:38.33	250.94	9.87	-37.4	-38.6	29.1	3.02e+01	49	31	102	524288	54	6261
2026-01-06 18:04:41.65	250.63	9.60	-37.6	-38.9	28.9	3.02e+01	57	31	102	524288	54	6445
2026-01-06 18:04:44.39	250.37	9.38	-37.6	-38.8	28.9	3.02e+01	61	31	102	524288	54	6419
2026-01-06 18:04:47.71	250.07	9.11	-37.5	-38.8	28.9	3.02e+01	59	31	102	524288	54	6363
2026-01-06 18:04:50.45	249.82	8.89	-37.6	-38.9	28.8	3.02e+01	60	31	102	524288	54	6436
2026-01-06 18:04:53.77	249.53	8.63	-37.7	-38.9	28.8	3.02e+01	58	31	102	524288	54	6471
2026-01-06 18:04:56.52	249.29	8.41	-37.6	-38.8	28.8	3.02e+01	59	31	102	524288	54	6413
2026-01-06 18:04:59.83	249.00	8.16	-37.6	-38.8	28.8	3.02e+01	45	31	102	524288	54	6401
2026-01-06 18:05:02.58	248.77	7.94	-37.7	-38.9	28.7	3.02e+01	46	31	102	524288	54	6479
2026-01-06 18:05:05.90	248.50	7.69	-37.7	-38.9	28.7	3.02e+01	58	31	102	524288	54	6462
2026-01-06 18:05:08.64	248.28	7.48	-37.8	-39.0	28.5	3.02e+01	58	31	102	524288	54	6543
2026-01-06 18:05:11.96	248.02	7.23	-38.0	-39.3	28.4	3.02e+01	60	31	102	524288	54	6732
2026-01-06 18:05:14.71	247.80	7.03	-38.2	-39.5	28.1	3.02e+01	60	31	102	524288	54	6907
2026-01-06 18:05:18.03	247.55	6.78	-37.9	-39.2	28.4	3.02e+01	59	31	102	524288	54	6667
2026-01-06 18:05:20.77	247.34	6.58	-37.9	-39.1	28.5	3.02e+01	53	31	102	524288	54	6620
2026-01-06 18:05:24.09	247.10	6.34	-38.0	-39.3	28.2	3.02e+01	47	31	102	524288	54	6760
2026-01-06 18:05:26.83	246.90	6.14	-38.2	-39.5	28.1	3.02e+01	57	31	102	524288	54	6915
2026-01-06 18:05:30.15	246.66	5.90	-38.2	-39.5	28.1	3.02e+01	61	31	102	524288	54	6904
2026-01-06 18:05:32.90	246.46	5.71	-38.3	-39.6	28.0	3.02e+01	58	31	102	524288	56	6224
2026-01-06 18:05:36.22	246.24	5.47	-38.5	-39.7	27.9	3.02e+01	56	31	102	524288	56	6347
2026-01-06 18:05:38.96	246.05	5.28	-38.4	-39.7	27.9	3.02e+01	63	31	102	524288	56	6316
2026-01-06 18:05:42.28	245.83	5.05	-38.6	-39.9	27.8	3.02e+01	51	31	102	524288	56	6444
2026-01-06 18:05:45.02	245.65	4.86	-38.6	-39.8	27.8	3.02e+01	46	31	102	524288	56	6418
2026-01-06 18:05:48.34	245.43	4.63	-38.7	-39.9	27.6	3.02e+01	59	31	102	524288	56	6498
2026-01-06 18:05:51.08	245.26	4.44	-38.9	-40.2	27.5	3.02e+01	57	31	102	524288	56	6677
2026-01-06 18:05:54.41	245.05	4.22	-38.8	-40.1	27.5	3.02e+01	61	31	102	524288	56	6626
2026-01-06 18:05:57.15	244.88	4.03	-38.9	-40.2	27.4	3.02e+01	55	31	102	524288	56	6693
2026-01-06 18:06:00.47	244.68	3.81	-39.1	-40.4	27.2	3.02e+01	59	31	102	524288	56	6853
2026-01-06 18:06:03.21	244.51	3.63	-39.1	-40.5	27.2	3.02e+01	58	31	102	524288	56	6906
2026-01-06 18:06:06.53	244.32	3.41	-39.4	-40.7	26.9	3.02e+01	53	31	102	524288	56	7118
2026-01-06 18:06:09.28	244.16	3.23	-39.3	-40.7	26.8	3.02e+01	51	31	102	524288	58	6309
2026-01-06 18:06:12.60	243.97	3.02	-39.4	-40.7	26.7	3.02e+01	61	31	102	524288	58	6350
2026-01-06 18:06:15.33	243.82	2.84	-39.5	-40.9	26.6	3.02e+01	56	31	102	524288	58	6436
2026-01-06 18:06:18.65	243.63	2.63	-39.9	-41.3	26.2	3.02e+01	58	31	102	524288	58	6776
2026-01-06 18:06:21.39	243.48	2.45	-40.1	-41.6	25.9	3.02e+01	60	31	102	524288	58	6991
2026-01-06 18:06:24.71	243.30	2.24	-40.5	-42.0	25.4	3.02e+01	62	31	102	524288	60	6560
2026-01-06 18:06:27.45	243.16	2.07	-40.7	-42.2	25.2	3.02e+01	58	31	102	524288	60	6710
2026-01-06 18:06:30.77	242.99	1.86	-41.0	-42.6	24.7	3.02e+01	45	31	102	524288	60	7012
2026-01-06 18:06:33.51	242.85	1.69	-41.2	-42.7	24.5	3.02e+01	61	31	102	524288	60	7118
2026-01-06 18:06:36.83	242.68	1.49	-41.5	-43.2	24.2	3.02e+01	57	31	102	524288	60	7470
2026-01-06 18:06:39.58	242.54	1.32	-41.7	-43.4	23.8	3.02e+01	60	31	102	524288	60	7705
2026-01-06 18:06:42.89	242.38	1.12	-42.1	-43.8	23.4	3.02e+01	58	31	102	524288	60	8059
2026-01-06 18:06:45.64	242.24	0.95	-42.5	-44.4	22.8	3.02e+01	61	31	102	524288	60	8632
2026-01-06 18:06:48.94	242.09	0.75	-42.5	-44.4	22.8	3.02e+01	62	31	102	524288	60	8592
2026-01-06 18:06:51.68	241.96	0.59	-43.0	-45.0	22.0	3.02e+01	56	31	102	524288	60	9281
2026-01-06 18:06:54.99	241.80	0.39	-43.2	-45.3	21.8	3.02e+01	61	31	102	524288	60	9547
2026-01-06 18:06:57.72	241.68	0.23	-43.6	-45.8	21.1	3.02e+01	57	31	102	524288	60	10113
2026-01-06 18:07:01.03	241.53	0.04	-44.2	-46.7	20.3	3.02e+01	60	31	102	524288	60	11241

#Closed at: 2026-01-06 18:07:02
#Recorded file [0 MB]: D:/lorett/data/35034_260106_205357.dat