passes_logs/2026/01/06/R4.6S_Anadyr_2ch/R4.6S_Anadyr_2ch__20260106_155322_SUOMI_NPP_rec.log

#Pass ID: 20260106_155322_SUOMI NPP
#Satellite: SUOMI NPP
#Configuration: NPP
#almurnet v.1.7.20251203
#Start time: 2026-01-06 15:53:25

#Version: 2.2.20231116
#Station: R4.6S_Anadyr_2ch
#Location: 177.4865 lon 64.73178 lat
#TLE: 1 37849U 11061A   25350.92281687  .00000071  00000+0  54882-4 0  9996
#TLE: 2 37849  98.7777 288.2268 0002366 112.8570 247.2856 14.19515404732588

#Time	Az	El	Level	Level2	SNR	BER	BlckErr	Temp	State	Recorded	gain1	gain2
2026-01-06 15:53:25.52	23.52	0.20	-51.1	-65.0	3.3	1.54e+00	0	31	0	0	60	86507
2026-01-06 15:53:29.55	23.41	0.43	-51.2	-66.5	3.6	1.51e+00	0	31	104	0	60	103325
2026-01-06 15:53:33.59	23.31	0.67	-51.0	-66.4	3.6	1.51e+00	0	31	104	0	60	101290
2026-01-06 15:53:37.64	23.20	0.92	-50.3	-65.7	3.6	1.51e+00	0	31	104	0	60	93836
2026-01-06 15:53:41.68	23.09	1.16	-49.7	-65.0	3.6	1.51e+00	0	31	104	0	60	86791
2026-01-06 15:53:45.72	22.98	1.41	-49.7	-65.0	3.6	1.51e+00	0	31	104	0	60	86926
2026-01-06 15:53:49.77	22.87	1.66	-49.7	-65.0	3.6	1.51e+00	0	31	104	0	60	87157
2026-01-06 15:53:53.81	22.76	1.91	-49.7	-64.6	3.6	1.51e+00	0	31	104	0	60	83083
2026-01-06 15:53:57.86	22.64	2.16	-49.7	-64.8	3.6	1.51e+00	0	31	104	0	60	84741
2026-01-06 15:54:01.90	22.52	2.41	-49.7	-64.9	3.6	1.51e+00	0	32	104	0	60	85796
2026-01-06 15:54:05.94	22.40	2.67	-49.6	-64.3	3.6	1.51e+00	0	31	104	0	60	79953
2026-01-06 15:54:09.94	22.27	2.93	-49.6	-63.6	3.6	1.51e+00	0	32	104	0	60	73517
2026-01-06 15:54:13.98	22.15	3.19	-49.6	-64.1	3.6	1.51e+00	0	32	104	0	60	77990
2026-01-06 15:54:18.03	22.02	3.45	-48.7	-54.8	8.4	9.83e-02	0	32	102	1048576	60	26774
2026-01-06 15:54:22.07	21.89	3.72	-48.2	-53.4	9.6	6.28e-03	51	32	102	1048576	60	22816
2026-01-06 15:54:26.11	21.75	3.99	-49.1	-56.3	10.7	4.36e-02	33	32	0	1048576	60	31881
2026-01-06 15:54:30.15	21.61	4.26	-42.1	-43.4	20.3	0.00e+00	0	32	0	1048576	60	7242
2026-01-06 15:54:34.20	21.47	4.53	-41.8	-43.1	20.8	0.00e+00	0	32	0	1048576	60	6947
2026-01-06 15:54:38.24	21.33	4.81	-41.3	-42.5	21.3	0.00e+00	92	32	0	1048576	60	6510
2026-01-06 15:54:42.28	21.18	5.08	-41.3	-42.5	21.4	0.00e+00	0	32	0	1048576	60	6490
2026-01-06 15:54:46.33	21.03	5.37	-41.4	-42.5	21.4	0.00e+00	0	32	101	1048576	60	6532
2026-01-06 15:54:50.37	20.88	5.65	-41.7	-42.9	21.1	0.00e+00	0	32	101	1048576	60	6811
2026-01-06 15:54:54.41	20.72	5.94	-41.4	-42.6	21.4	0.00e+00	80	32	101	1048576	60	6576
2026-01-06 15:54:58.46	20.56	6.23	-41.5	-42.7	21.4	0.00e+00	0	32	101	1048576	60	6631
2026-01-06 15:55:02.50	20.40	6.52	-41.4	-42.6	21.4	0.00e+00	0	32	101	1048576	60	6548
2026-01-06 15:55:06.55	20.23	6.82	-41.3	-42.5	21.5	0.00e+00	49	32	101	1048576	60	6472
2026-01-06 15:55:10.59	20.06	7.12	-41.5	-42.7	21.1	0.00e+00	2	32	101	1048576	60	6651
2026-01-06 15:55:14.63	19.89	7.42	-41.2	-42.4	21.6	0.00e+00	0	32	101	1048576	60	6414
2026-01-06 15:55:18.65	19.71	7.72	-41.1	-42.3	21.8	0.00e+00	0	32	101	1048576	60	6322
2026-01-06 15:55:22.67	19.53	8.03	-40.8	-41.8	22.1	0.00e+00	41	32	101	1048576	60	6033
2026-01-06 15:55:26.71	19.34	8.34	-40.8	-41.8	22.3	0.00e+00	0	32	101	1048576	60	6018
2026-01-06 15:55:30.76	19.15	8.66	-40.7	-41.8	22.3	0.00e+00	0	32	101	1048576	60	5993
2026-01-06 15:55:34.80	18.95	8.98	-40.7	-41.7	22.4	0.00e+00	0	32	101	1048576	60	5925
2026-01-06 15:55:38.85	18.75	9.31	-40.5	-41.5	22.7	0.00e+00	92	32	101	1048576	60	5803
2026-01-06 15:55:42.89	18.55	9.63	-40.3	-41.3	22.8	0.00e+00	0	32	101	1048576	60	5668
2026-01-06 15:55:46.93	18.33	9.96	-40.3	-41.3	22.9	0.00e+00	0	32	101	1048576	60	5671
2026-01-06 15:55:50.97	18.12	10.30	-40.4	-41.4	22.6	0.00e+00	9	32	101	1048576	60	5759
2026-01-06 15:55:55.02	17.90	10.64	-40.2	-41.2	22.9	0.00e+00	57	32	101	1048576	60	5613
2026-01-06 15:55:59.06	17.67	10.98	-40.5	-41.5	22.6	0.00e+00	0	32	101	1048576	58	6535
2026-01-06 15:56:03.11	17.44	11.33	-40.5	-41.5	22.6	0.00e+00	33	32	101	1048576	58	6515
2026-01-06 15:56:07.15	17.20	11.69	-40.0	-40.9	23.0	0.00e+00	50	32	101	1048576	58	6079
2026-01-06 15:56:11.19	16.95	12.05	-40.0	-41.0	23.1	0.00e+00	0	32	101	1048576	58	6123
2026-01-06 15:56:15.24	16.70	12.41	-40.0	-40.9	23.1	0.00e+00	0	32	101	1048576	58	6072
2026-01-06 15:56:19.28	16.44	12.78	-40.1	-41.0	23.1	0.00e+00	0	32	101	1048576	58	6172
2026-01-06 15:56:23.32	16.18	13.15	-39.9	-40.8	23.2	0.00e+00	90	32	101	1048576	58	5993
2026-01-06 15:56:27.37	15.90	13.53	-39.9	-40.9	23.2	0.00e+00	0	32	101	1048576	58	6044
2026-01-06 15:56:31.41	15.62	13.91	-40.2	-41.2	23.0	0.00e+00	0	32	101	1048576	58	6298
2026-01-06 15:56:35.45	15.33	14.30	-40.2	-41.2	23.0	0.00e+00	17	32	101	1048576	58	6252
2026-01-06 15:56:39.50	15.04	14.69	-40.3	-41.3	22.9	0.00e+00	92	32	101	1048576	58	6372
2026-01-06 15:56:43.54	14.73	15.09	-40.2	-41.1	23.1	0.00e+00	0	32	101	1048576	58	6235
2026-01-06 15:56:47.58	14.42	15.50	-40.1	-41.1	23.2	0.00e+00	0	32	101	1048576	58	6179
2026-01-06 15:56:51.63	14.10	15.91	-40.4	-41.4	22.9	0.00e+00	32	32	101	1048576	58	6402
2026-01-06 15:56:55.67	13.77	16.32	-40.0	-41.0	23.2	0.00e+00	0	32	101	1048576	58	6125
2026-01-06 15:56:59.71	13.42	16.75	-40.3	-41.3	23.0	0.00e+00	0	32	101	1048576	58	6347
2026-01-06 15:57:03.75	13.07	17.18	-40.0	-41.0	23.2	0.00e+00	0	32	101	1048576	58	6119
2026-01-06 15:57:07.80	12.71	17.61	-39.9	-40.8	23.3	0.00e+00	58	32	101	1048576	58	6003
2026-01-06 15:57:11.84	12.34	18.06	-39.6	-40.5	23.6	0.00e+00	0	32	101	1048576	58	5778
2026-01-06 15:57:15.88	11.95	18.51	-39.9	-40.9	23.3	0.00e+00	0	32	101	1048576	58	6054
2026-01-06 15:57:19.92	11.55	18.96	-39.9	-40.8	23.3	0.00e+00	49	32	101	1048576	58	5996
2026-01-06 15:57:23.97	11.14	19.43	-40.1	-41.0	23.4	0.00e+00	85	32	101	1048576	58	6141
2026-01-06 15:57:28.01	10.72	19.90	-40.3	-41.3	23.0	0.00e+00	0	32	101	1048576	58	6364
2026-01-06 15:57:32.05	10.28	20.37	-40.9	-41.9	22.6	0.00e+00	0	32	101	1048576	58	6787
2026-01-06 15:57:36.09	9.83	20.86	-40.9	-41.9	22.7	0.00e+00	57	32	101	1048576	60	6060
2026-01-06 15:57:40.14	9.36	21.35	-40.7	-41.7	22.5	0.00e+00	0	32	101	1048576	60	5946
2026-01-06 15:57:44.18	8.88	21.85	-40.7	-41.7	22.8	0.00e+00	0	32	101	1048576	60	5905
2026-01-06 15:57:48.22	8.38	22.36	-41.2	-42.3	22.5	0.00e+00	0	32	101	1048576	60	6330
2026-01-06 15:57:52.27	7.87	22.88	-41.0	-42.0	22.5	0.00e+00	70	32	101	1048576	60	6135
2026-01-06 15:57:56.31	7.33	23.40	-41.0	-42.0	22.6	0.00e+00	0	32	101	1048576	60	6157
2026-01-06 15:58:00.35	6.78	23.93	-41.1	-42.1	22.7	0.00e+00	0	32	101	1048576	60	6243
2026-01-06 15:58:04.40	6.21	24.47	-41.2	-42.3	22.4	0.00e+00	0	32	101	1048576	60	6336
2026-01-06 15:58:08.44	5.62	25.02	-41.5	-42.6	22.2	0.00e+00	88	32	101	1048576	60	6557
2026-01-06 15:58:12.48	5.00	25.57	-41.0	-42.0	22.6	0.00e+00	0	32	101	1048576	60	6171
2026-01-06 15:58:16.52	4.37	26.14	-40.8	-41.7	22.9	0.00e+00	0	32	101	1048576	60	5960
2026-01-06 15:58:20.56	3.71	26.71	-41.1	-42.1	22.5	0.00e+00	50	32	101	1048576	60	6227
2026-01-06 15:58:24.61	3.02	27.29	-41.0	-42.0	22.7	0.00e+00	0	32	101	1048576	60	6109
2026-01-06 15:58:28.64	2.31	27.87	-40.8	-41.8	23.0	0.00e+00	0	32	101	1048576	60	5986
2026-01-06 15:58:32.69	1.57	28.47	-41.3	-42.4	22.3	0.00e+00	0	32	101	1048576	60	6429
2026-01-06 15:58:36.73	0.80	29.07	-41.6	-42.7	22.0	0.00e+00	92	32	101	1048576	60	6685
2026-01-06 15:58:40.78	0.01	29.68	-41.4	-42.4	22.2	0.00e+00	0	32	101	1048576	60	6427
2026-01-06 15:58:44.82	359.18	30.30	-42.0	-43.1	21.7	0.00e+00	0	32	101	1048576	60	6951
2026-01-06 15:58:48.86	358.32	30.92	-42.5	-43.7	21.1	0.00e+00	0	32	101	1048576	60	7469
2026-01-06 15:58:52.90	357.42	31.54	-42.5	-43.7	21.2	0.00e+00	92	32	101	1048576	60	7493
2026-01-06 15:58:56.93	356.49	32.17	-42.3	-43.5	21.5	0.00e+00	0	32	101	1048576	60	7300
2026-01-06 15:59:00.97	355.52	32.81	-42.7	-43.9	21.2	0.00e+00	0	32	101	1048576	60	7667
2026-01-06 15:59:05.00	354.52	33.45	-42.7	-44.0	21.1	0.00e+00	25	32	101	1048576	60	7687
2026-01-06 15:59:09.03	353.47	34.09	-41.8	-42.9	21.9	0.00e+00	60	32	101	1048576	60	6798
2026-01-06 15:59:13.08	352.38	34.74	-44.0	-45.6	19.5	0.00e+00	0	32	101	1048576	60	9274
2026-01-06 15:59:17.11	351.24	35.38	-44.0	-45.5	19.7	0.00e+00	0	32	101	1048576	60	9199
2026-01-06 15:59:21.15	350.06	36.03	-41.7	-42.7	22.2	0.00e+00	90	32	101	1048576	60	6674
2026-01-06 15:59:25.20	348.83	36.67	-41.2	-42.2	22.2	0.00e+00	0	32	101	1048576	60	6307
2026-01-06 15:59:29.24	347.55	37.31	-41.4	-42.5	22.2	0.00e+00	0	32	101	1048576	60	6496
2026-01-06 15:59:33.29	346.21	37.95	-43.1	-44.6	20.5	0.00e+00	0	32	101	1048576	60	8255
2026-01-06 15:59:37.33	344.82	38.58	-42.8	-44.1	20.9	0.00e+00	85	32	101	1048576	60	7833
2026-01-06 15:59:41.37	343.38	39.20	-41.3	-42.3	22.3	0.00e+00	0	32	101	1048576	60	6386
2026-01-06 15:59:45.42	341.88	39.82	-42.9	-44.2	20.7	0.00e+00	0	32	101	1048576	60	7909
2026-01-06 15:59:49.46	340.33	40.41	-40.9	-41.9	22.8	0.00e+00	54	32	101	1048576	60	6080
2026-01-06 15:59:53.50	338.71	41.00	-41.4	-42.6	22.2	0.00e+00	0	32	101	1048576	60	6561
2026-01-06 15:59:57.54	337.04	41.56	-40.9	-42.0	22.7	0.00e+00	0	32	101	1048576	60	6127
2026-01-06 16:00:01.59	335.30	42.11	-40.4	-41.4	23.2	0.00e+00	0	32	101	1048576	60	5732
2026-01-06 16:00:05.63	333.51	42.63	-40.8	-41.8	22.7	0.00e+00	51	32	101	1048576	58	6756
2026-01-06 16:00:09.67	331.67	43.13	-39.5	-40.4	23.8	0.00e+00	0	32	101	1048576	58	5745
2026-01-06 16:00:13.72	329.76	43.60	-38.6	-39.4	24.5	0.00e+00	0	32	101	1048576	56	5743
2026-01-06 16:00:17.76	327.80	44.03	-41.4	-42.5	22.3	0.00e+00	0	32	101	1048576	60	6526
2026-01-06 16:00:21.80	325.78	44.44	-43.0	-44.4	20.6	0.00e+00	62	32	101	1048576	60	8080
2026-01-06 16:00:25.84	323.72	44.80	-42.2	-43.4	21.4	0.00e+00	0	32	101	1048576	60	7226
2026-01-06 16:00:29.88	321.61	45.13	-40.1	-41.0	23.4	0.00e+00	0	32	101	1048576	58	6156
2026-01-06 16:00:33.92	319.46	45.41	-40.9	-41.9	22.7	0.00e+00	61	32	101	1048576	60	6084
2026-01-06 16:00:37.96	317.28	45.66	-43.9	-45.5	19.9	0.00e+00	12	32	101	1048576	60	9230
2026-01-06 16:00:42.01	315.05	45.85	-41.4	-42.5	22.4	0.00e+00	0	32	101	1048576	60	6511
2026-01-06 16:00:46.05	312.81	46.00	-42.5	-43.8	21.0	0.00e+00	0	32	101	1048576	60	7572
2026-01-06 16:00:50.09	310.55	46.10	-42.0	-43.3	21.6	0.00e+00	80	32	101	1048576	60	7116
2026-01-06 16:00:54.13	308.28	46.15	-42.4	-43.7	21.2	0.00e+00	0	32	101	1048576	60	7501
2026-01-06 16:00:58.18	306.00	46.15	-41.8	-43.1	22.0	0.00e+00	0	32	101	1048576	60	6931
2026-01-06 16:01:02.22	303.73	46.10	-41.2	-42.3	22.4	0.00e+00	0	32	101	1048576	60	6376
2026-01-06 16:01:06.27	301.47	46.00	-42.0	-43.1	21.9	0.00e+00	92	32	101	1048576	60	6987
2026-01-06 16:01:10.31	299.22	45.85	-41.2	-42.3	22.4	0.00e+00	0	32	101	1048576	60	6357
2026-01-06 16:01:14.35	297.01	45.66	-41.4	-42.5	22.4	0.00e+00	0	32	101	1048576	60	6539
2026-01-06 16:01:18.40	294.81	45.42	-40.3	-41.3	23.3	0.00e+00	0	32	101	1048576	60	5640
2026-01-06 16:01:22.44	292.66	45.13	-40.5	-41.5	22.7	0.00e+00	0	32	101	1048576	60	5770
2026-01-06 16:01:26.48	290.55	44.81	-41.1	-42.1	22.5	0.00e+00	0	32	101	1048576	60	6240
2026-01-06 16:01:30.53	288.48	44.44	-41.9	-43.1	21.6	0.00e+00	0	32	101	1048576	60	6936
2026-01-06 16:01:34.57	286.46	44.04	-41.5	-42.7	22.1	0.00e+00	54	32	101	1048576	60	6668
2026-01-06 16:01:38.61	284.50	43.60	-39.6	-40.5	23.9	0.00e+00	0	32	101	1048576	58	5765
2026-01-06 16:01:42.66	282.59	43.13	-41.3	-42.5	22.4	0.00e+00	0	32	101	1048576	60	6473
2026-01-06 16:01:46.70	280.73	42.63	-40.0	-40.9	23.7	0.00e+00	0	32	101	1048576	56	6819
2026-01-06 16:01:50.74	278.94	42.11	-38.6	-39.4	24.6	0.00e+00	90	32	101	1048576	56	5734
2026-01-06 16:01:54.79	277.20	41.56	-37.0	-37.8	25.7	0.00e+00	0	32	101	1048576	52	5975
2026-01-06 16:01:58.83	275.52	41.00	-37.9	-38.7	24.9	0.00e+00	0	32	101	1048576	52	6679
2026-01-06 16:02:02.88	273.90	40.41	-38.0	-38.8	25.0	0.00e+00	41	32	101	1048576	54	5968
2026-01-06 16:02:06.92	272.35	39.81	-39.6	-40.5	23.9	0.00e+00	0	32	101	1048576	56	6491
2026-01-06 16:02:10.96	270.84	39.20	-39.6	-40.5	23.8	0.00e+00	0	32	101	1048576	58	5775
2026-01-06 16:02:15.01	269.40	38.58	-39.7	-40.6	23.8	0.00e+00	0	32	101	1048576	58	5854
2026-01-06 16:02:19.05	268.01	37.94	-39.9	-40.8	23.7	0.00e+00	92	32	101	1048576	58	6026
2026-01-06 16:02:23.09	266.67	37.31	-39.5	-40.4	23.9	0.00e+00	0	32	101	1048576	58	5715
2026-01-06 16:02:27.12	265.39	36.66	-40.0	-40.9	23.5	0.00e+00	0	32	101	1048576	56	6823
2026-01-06 16:02:31.15	264.15	36.02	-42.2	-43.3	21.7	0.00e+00	0	32	101	1048576	60	7162
2026-01-06 16:02:35.17	262.97	35.38	-41.2	-42.2	22.3	0.00e+00	92	32	101	1048576	60	6285
2026-01-06 16:02:39.19	261.84	34.73	-42.5	-43.7	21.2	0.00e+00	0	32	101	1048576	60	7493
2026-01-06 16:02:43.21	260.75	34.09	-43.5	-44.9	20.4	0.00e+00	0	32	101	1048576	60	8558
2026-01-06 16:02:47.24	259.70	33.44	-44.5	-46.1	19.1	0.00e+00	0	32	101	1048576	60	9846
2026-01-06 16:02:51.27	258.69	32.80	-43.8	-45.2	20.2	0.00e+00	92	32	101	1048576	60	8902
2026-01-06 16:02:55.30	257.72	32.17	-42.5	-43.6	21.4	0.00e+00	0	32	101	1048576	60	7387
2026-01-06 16:02:59.32	256.79	31.54	-42.1	-43.1	21.7	0.00e+00	0	32	101	1048576	60	7005
2026-01-06 16:03:03.35	255.89	30.91	-41.7	-42.8	21.8	0.00e+00	57	32	101	1048576	60	6726
2026-01-06 16:03:07.37	255.03	30.29	-42.1	-43.3	21.6	0.00e+00	92	32	101	1048576	60	7089
2026-01-06 16:03:11.40	254.20	29.67	-42.1	-43.2	21.3	0.00e+00	0	32	101	1048576	60	7020
2026-01-06 16:03:15.44	253.40	29.06	-42.6	-43.9	21.2	0.00e+00	0	32	101	1048576	60	7597
2026-01-06 16:03:19.48	252.63	28.46	-42.1	-43.2	21.7	0.00e+00	31	33	101	1048576	60	7034
2026-01-06 16:03:23.53	251.89	27.86	-41.8	-42.9	22.0	0.00e+00	0	32	101	1048576	60	6796
2026-01-06 16:03:27.57	251.17	27.27	-40.9	-41.9	22.6	0.00e+00	0	32	101	1048576	60	6047
2026-01-06 16:03:31.61	250.48	26.69	-41.5	-42.6	22.2	0.00e+00	0	32	101	1048576	60	6580
2026-01-06 16:03:35.65	249.82	26.12	-42.4	-43.6	21.3	0.00e+00	61	32	101	1048576	60	7381
2026-01-06 16:03:39.70	249.18	25.55	-40.0	-40.9	23.5	0.00e+00	0	32	101	1048576	58	6052
2026-01-06 16:03:43.74	248.56	24.99	-40.7	-41.6	22.8	0.00e+00	0	32	101	1048576	58	6580
2026-01-06 16:03:47.78	247.96	24.44	-41.6	-42.6	22.1	0.00e+00	0	32	101	1048576	60	6575
2026-01-06 16:03:51.82	247.39	23.90	-42.0	-43.1	21.6	0.00e+00	92	32	101	1048576	60	6996
2026-01-06 16:03:55.87	246.83	23.37	-43.0	-44.3	20.8	0.00e+00	0	32	101	1048576	60	7961
2026-01-06 16:03:59.91	246.30	22.84	-41.6	-42.7	22.2	0.00e+00	0	32	101	1048576	60	6626
2026-01-06 16:04:03.95	245.78	22.33	-40.6	-41.6	23.0	0.00e+00	19	32	101	1048576	60	5839
2026-01-06 16:04:08.00	245.28	21.82	-40.4	-41.3	23.1	0.00e+00	0	32	101	1048576	60	5691
2026-01-06 16:04:12.04	244.79	21.31	-40.9	-41.9	22.6	0.00e+00	0	32	101	1048576	60	6052
2026-01-06 16:04:16.08	244.32	20.82	-41.5	-42.6	22.0	0.00e+00	0	32	101	1048576	60	6592
2026-01-06 16:04:20.13	243.87	20.33	-40.7	-41.7	22.8	0.00e+00	91	33	101	1048576	60	5923
2026-01-06 16:04:24.17	243.43	19.85	-41.1	-42.2	22.3	0.00e+00	0	32	101	1048576	60	6252
2026-01-06 16:04:28.22	243.00	19.38	-42.3	-43.5	21.3	0.00e+00	0	33	101	1048576	60	7320
2026-01-06 16:04:32.26	242.59	18.92	-42.6	-43.8	20.9	0.00e+00	0	32	101	1048576	60	7578
2026-01-06 16:04:36.30	242.19	18.46	-42.3	-43.5	21.3	0.00e+00	92	32	101	1048576	60	7312
2026-01-06 16:04:40.35	241.80	18.01	-41.9	-43.0	21.6	0.00e+00	0	32	101	1048576	60	6927
2026-01-06 16:04:44.39	241.42	17.56	-41.2	-42.2	22.4	0.00e+00	0	32	101	1048576	60	6261
2026-01-06 16:04:48.43	241.06	17.13	-41.2	-42.2	22.3	0.00e+00	47	32	101	1048576	60	6278
2026-01-06 16:04:52.48	240.70	16.69	-41.9	-43.0	21.6	0.00e+00	26	32	101	1048576	60	6912
2026-01-06 16:04:56.52	240.36	16.27	-41.8	-43.0	21.7	0.00e+00	0	32	101	1048576	60	6873
2026-01-06 16:05:00.56	240.02	15.85	-41.5	-42.7	22.0	0.00e+00	0	32	101	1048576	60	6616
2026-01-06 16:05:04.60	239.70	15.44	-41.5	-42.6	21.9	0.00e+00	92	32	101	1048576	60	6603
2026-01-06 16:05:08.64	239.38	15.03	-42.3	-43.6	21.0	0.00e+00	0	32	101	1048576	60	7346
2026-01-06 16:05:12.68	239.07	14.63	-43.6	-45.1	19.6	0.00e+00	0	32	101	1048576	60	8788
2026-01-06 16:05:16.73	238.77	14.24	-43.8	-45.3	19.6	0.00e+00	0	32	101	1048576	60	8959
2026-01-06 16:05:20.77	238.48	13.85	-43.2	-44.5	20.2	0.00e+00	92	32	101	1048576	60	8220
2026-01-06 16:05:24.81	238.20	13.46	-42.8	-44.1	20.6	0.00e+00	33	32	101	1048576	60	7790
2026-01-06 16:05:28.85	237.93	13.09	-42.7	-44.0	20.5	0.00e+00	0	32	101	1048576	60	7729
2026-01-06 16:05:32.90	237.66	12.71	-43.2	-44.6	19.9	0.00e+00	51	32	101	1048576	60	8263
2026-01-06 16:05:36.94	237.40	12.34	-43.5	-45.0	19.6	0.00e+00	0	32	101	1048576	60	8632
2026-01-06 16:05:40.99	237.14	11.98	-44.0	-45.6	19.0	0.00e+00	0	32	101	1048576	60	9289
2026-01-06 16:05:45.03	236.89	11.62	-44.5	-46.3	18.3	0.00e+00	0	32	101	1048576	60	10015
2026-01-06 16:05:49.07	236.65	11.27	-44.9	-46.7	17.9	0.00e+00	92	33	101	1048576	60	10541
2026-01-06 16:05:53.11	236.41	10.92	-45.4	-47.4	17.2	0.00e+00	0	33	101	1048576	60	11445
2026-01-06 16:05:57.15	236.18	10.57	-45.6	-47.8	16.8	0.00e+00	0	32	101	1048576	60	11989
2026-01-06 16:06:01.19	235.96	10.23	-45.8	-48.1	16.4	0.00e+00	0	32	101	1048576	60	12324
2026-01-06 16:06:05.23	235.74	9.89	-46.3	-48.8	15.7	0.00e+00	81	32	101	1048576	60	13414
2026-01-06 16:06:09.26	235.53	9.56	-46.6	-49.4	15.0	0.00e+00	0	32	101	1048576	60	14349
2026-01-06 16:06:13.30	235.32	9.23	-47.2	-50.4	14.0	3.80e-06	0	32	101	1048576	60	16130
2026-01-06 16:06:17.33	235.11	8.91	-47.6	-51.3	13.0	2.67e-05	0	32	101	1048576	60	17844
2026-01-06 16:06:21.36	234.92	8.59	-48.0	-52.1	12.1	1.27e-04	79	33	101	1048576	60	19565
2026-01-06 16:06:25.40	234.72	8.27	-48.1	-52.5	11.6	5.23e-04	0	33	101	1048576	60	20537
2026-01-06 16:06:29.44	234.53	7.96	-48.2	-52.6	11.4	1.04e-03	0	33	101	1048576	60	20845
2026-01-06 16:06:33.47	234.35	7.65	-48.3	-53.2	10.7	2.78e-03	42	32	101	1048576	60	22292
2026-01-06 16:06:37.50	234.16	7.34	-48.5	-53.7	9.8	8.45e-03	0	33	101	1048576	60	23737
2026-01-06 16:06:41.53	233.99	7.04	-48.7	-54.7	8.8	2.56e-02	0	33	101	1048576	60	26419
2026-01-06 16:06:45.56	233.81	6.74	-48.9	-55.6	7.5	7.33e-02	0	33	101	1048576	60	29363
2026-01-06 16:06:49.60	233.64	6.45	-49.0	-56.1	6.8	1.57e-01	92	33	101	1048576	60	31187
2026-01-06 16:06:53.63	233.48	6.15	-49.1	-57.0	5.7	3.25e-01	0	33	101	1048576	60	34626
2026-01-06 16:06:57.66	233.31	5.86	-49.1	-57.5	5.2	4.67e-01	0	33	101	1048576	60	36407
2026-01-06 16:07:01.70	233.15	5.58	-49.1	-58.1	4.7	6.47e-01	17	33	101	1048576	60	38984
2026-01-06 16:07:05.73	233.00	5.29	-49.1	-58.6	4.3	9.49e-01	92	33	101	1048576	60	41415
2026-01-06 16:07:09.77	232.85	5.01	-49.0	-59.0	4.0	1.19e+00	57	33	101	1048576	60	43569
2026-01-06 16:07:13.81	232.70	4.73	-49.0	-59.4	3.8	1.38e+00	0	33	101	1048576	60	45681
2026-01-06 16:07:17.85	232.55	4.46	-48.9	-61.0	3.9	1.48e+00	0	33	104	1048576	60	54780
2026-01-06 16:07:21.89	232.40	4.18	-48.8	-61.3	3.9	1.46e+00	0	33	104	1048576	60	56796
2026-01-06 16:07:25.94	232.26	3.91	-48.7	-61.5	3.8	1.48e+00	0	33	104	1048576	60	57620
2026-01-06 16:07:29.98	232.12	3.64	-48.6	-61.6	3.8	1.50e+00	0	33	104	1048576	60	58516
2026-01-06 16:07:34.03	231.99	3.37	-48.5	-61.8	3.6	1.50e+00	0	33	104	1048576	60	59701
2026-01-06 16:07:38.07	231.86	3.11	-48.3	-61.8	3.6	1.51e+00	0	33	104	1048576	60	60204
2026-01-06 16:07:42.11	231.73	2.85	-51.0	-66.2	3.6	1.51e+00	0	33	104	1048576	60	100115
2026-01-06 16:07:46.16	231.60	2.59	-51.2	-66.4	3.6	1.51e+00	0	33	104	1048576	60	101413
2026-01-06 16:07:50.20	231.47	2.33	-50.9	-66.4	3.6	1.51e+00	0	33	104	1048576	60	101973
2026-01-06 16:07:54.24	231.35	2.08	-50.9	-66.3	3.6	1.51e+00	0	33	104	1048576	60	100482
2026-01-06 16:07:58.29	231.23	1.82	-51.1	-66.4	3.6	1.51e+00	0	33	104	1048576	60	101487
2026-01-06 16:08:02.33	231.11	1.57	-51.0	-66.4	3.6	1.51e+00	0	33	104	1048576	60	101328
2026-01-06 16:08:06.37	230.99	1.32	-51.0	-66.4	3.6	1.51e+00	0	33	104	1048576	60	101311
2026-01-06 16:08:10.42	230.88	1.08	-51.0	-66.3	3.6	1.51e+00	0	33	104	1048576	60	100907
2026-01-06 16:08:14.46	230.77	0.83	-51.0	-66.3	3.6	1.51e+00	0	33	104	1048576	60	100694
2026-01-06 16:08:18.51	230.66	0.59	-51.0	-66.3	3.6	1.51e+00	0	33	104	1048576	60	101024
2026-01-06 16:08:22.55	230.55	0.35	-51.0	-66.3	3.6	1.51e+00	0	33	104	1048576	60	100651
2026-01-06 16:08:26.59	230.44	0.11	-51.0	-66.3	3.6	1.51e+00	0	33	104	1048576	60	100623

#Closed at: 2026-01-06 16:08:30
#Recorded file [1 MB]: D:/lorett/data/35034_260106_185325.dat