passes_logs/2026/01/06/R4.6S_Anadyr_2ch/R4.6S_Anadyr_2ch__20260106_120258_NOAA_21_JPSS-2_rec.log

#Pass ID: 20260106_120258_NOAA 21 (JPSS-2)
#Satellite: NOAA 21 (JPSS-2)
#Configuration: NOAA-21
#almurnet v.1.7.20251203
#Start time: 2026-01-06 12:02:59

#Version: 2.2.20231116
#Station: R4.6S_Anadyr_2ch
#Location: 177.4865 lon 64.73178 lat
#TLE: 1 54234U 22150A   25350.97269056  .00000057  00000+0  47676-4 0  9992
#TLE: 2 54234  98.7466 287.2282 0002043  29.8355 330.2937 14.19525482160692

#Time	Az	El	Level	Level2	SNR	BER	BlckErr	Temp	State	Recorded	gain1	gain2
2026-01-06 12:02:59.80	19.50	0.08	-51.1	-62.0	3.5	8.45e-01	0	30	0	0	60	62256
2026-01-06 12:03:03.82	19.83	0.26	-51.4	-64.4	3.5	1.52e+00	0	32	104	0	60	78182
2026-01-06 12:03:07.86	20.17	0.44	-51.2	-64.2	3.5	1.52e+00	0	32	104	0	60	77072
2026-01-06 12:03:11.89	20.52	0.63	-50.7	-63.7	3.5	1.52e+00	0	32	104	0	60	72127
2026-01-06 12:03:15.92	20.86	0.81	-49.7	-62.7	3.5	1.52e+00	0	32	104	0	60	64829
2026-01-06 12:03:19.95	21.21	1.00	-49.7	-62.7	3.5	1.52e+00	0	32	104	0	60	64737
2026-01-06 12:03:23.98	21.57	1.18	-49.7	-62.8	3.5	1.51e+00	0	32	104	0	60	64988
2026-01-06 12:03:28.01	21.92	1.37	-49.7	-62.7	3.5	1.52e+00	0	32	104	0	60	64433
2026-01-06 12:03:32.03	22.29	1.56	-49.7	-62.7	3.5	1.52e+00	0	32	104	0	60	64820
2026-01-06 12:03:36.07	22.65	1.74	-49.7	-62.7	3.5	1.52e+00	0	32	104	0	60	64840
2026-01-06 12:03:40.10	23.03	1.93	-49.7	-62.5	3.5	1.52e+00	0	33	104	0	60	63470
2026-01-06 12:03:44.13	23.40	2.12	-49.7	-62.6	3.5	1.52e+00	0	32	104	0	60	64154
2026-01-06 12:03:48.16	23.78	2.30	-49.7	-62.3	3.5	1.52e+00	0	33	104	0	60	61599
2026-01-06 12:03:52.19	24.17	2.49	-49.6	-60.8	3.6	1.51e+00	0	33	104	0	60	52029
2026-01-06 12:03:56.22	24.56	2.68	-43.5	-45.3	16.8	0.00e+00	122	33	102	1048576	60	8706
2026-01-06 12:04:00.25	24.95	2.87	-42.6	-44.2	17.7	0.00e+00	123	33	102	1048576	60	7641
2026-01-06 12:04:04.28	25.35	3.06	-48.6	-54.5	12.1	1.05e+00	0	33	104	1048576	60	25265
2026-01-06 12:04:08.32	25.76	3.24	-49.9	-62.7	3.5	1.51e+00	0	33	104	1048576	60	64514
2026-01-06 12:04:12.36	26.17	3.43	-44.0	-45.8	16.6	0.00e+00	123	33	0	1048576	60	9242
2026-01-06 12:04:16.38	26.58	3.62	-44.0	-45.9	16.0	0.00e+00	123	33	0	1048576	60	9311
2026-01-06 12:04:20.42	27.00	3.81	-41.5	-42.9	19.3	0.00e+00	122	33	101	1048576	60	6600
2026-01-06 12:04:24.45	27.42	4.00	-41.4	-42.7	19.7	0.00e+00	121	33	101	1048576	60	6471
2026-01-06 12:04:28.48	27.85	4.19	-40.4	-41.5	20.6	0.00e+00	120	33	101	1048576	60	5657
2026-01-06 12:04:32.51	28.29	4.38	-40.4	-41.6	20.6	0.00e+00	123	33	101	1048576	60	5684
2026-01-06 12:04:36.53	28.73	4.57	-40.3	-41.5	20.7	0.00e+00	122	33	101	1048576	58	6303
2026-01-06 12:04:40.56	29.17	4.76	-40.1	-41.3	20.9	0.00e+00	123	33	101	1048576	58	6142
2026-01-06 12:04:44.59	29.62	4.94	-40.2	-41.3	20.9	0.00e+00	118	33	101	1048576	58	6173
2026-01-06 12:04:48.61	30.08	5.13	-39.7	-40.9	21.3	0.00e+00	123	33	101	1048576	58	5859
2026-01-06 12:04:52.65	30.54	5.32	-39.7	-40.8	21.4	0.00e+00	122	33	101	1048576	58	5835
2026-01-06 12:04:56.69	31.01	5.51	-39.8	-40.9	21.4	0.00e+00	122	33	101	1048576	58	5899
2026-01-06 12:05:00.72	31.49	5.70	-40.1	-41.2	21.1	0.00e+00	123	33	101	1048576	58	6134
2026-01-06 12:05:04.76	31.97	5.89	-39.9	-41.1	21.2	0.00e+00	123	33	101	1048576	58	6002
2026-01-06 12:05:08.80	32.45	6.08	-39.8	-40.9	21.4	0.00e+00	122	33	101	1048576	58	5921
2026-01-06 12:05:12.84	32.95	6.26	-39.7	-40.8	21.5	0.00e+00	120	33	101	1048576	58	5837
2026-01-06 12:05:16.87	33.45	6.45	-39.8	-40.9	21.5	0.00e+00	123	33	101	1048576	58	5893
2026-01-06 12:05:20.91	33.95	6.64	-39.5	-40.5	21.8	0.00e+00	122	33	101	1048576	58	5643
2026-01-06 12:05:24.95	34.46	6.82	-39.5	-40.5	21.8	0.00e+00	123	33	101	1048576	58	5656
2026-01-06 12:05:28.99	34.98	7.01	-39.2	-40.3	22.0	0.00e+00	122	33	101	1048576	58	5479
2026-01-06 12:05:33.03	35.50	7.20	-39.0	-40.1	22.3	0.00e+00	120	33	101	1048576	56	6000
2026-01-06 12:05:37.07	36.04	7.38	-39.2	-40.2	22.1	0.00e+00	122	33	101	1048576	56	6112
2026-01-06 12:05:41.11	36.57	7.56	-39.1	-40.2	22.2	0.00e+00	123	33	101	1048576	56	6079
2026-01-06 12:05:45.15	37.12	7.75	-39.1	-40.2	22.2	0.00e+00	123	33	101	1048576	56	6077
2026-01-06 12:05:49.19	37.67	7.93	-39.0	-40.0	22.4	0.00e+00	123	33	101	1048576	56	5990
2026-01-06 12:05:53.23	38.22	8.11	-38.8	-39.9	22.6	0.00e+00	123	33	101	1048576	56	5864
2026-01-06 12:05:57.27	38.79	8.29	-39.0	-40.0	22.4	0.00e+00	123	33	101	1048576	56	5980
2026-01-06 12:06:01.31	39.36	8.47	-38.8	-39.8	22.6	0.00e+00	123	33	101	1048576	56	5821
2026-01-06 12:06:05.35	39.94	8.65	-38.7	-39.7	22.6	0.00e+00	120	33	101	1048576	56	5731
2026-01-06 12:06:09.39	40.52	8.83	-38.7	-39.7	22.6	0.00e+00	121	33	101	1048576	56	5776
2026-01-06 12:06:13.43	41.11	9.00	-38.6	-39.6	22.8	0.00e+00	122	33	101	1048576	56	5679
2026-01-06 12:06:17.46	41.71	9.17	-38.8	-39.8	22.7	0.00e+00	123	33	101	1048576	56	5832
2026-01-06 12:06:21.50	42.31	9.35	-38.6	-39.6	22.8	0.00e+00	123	33	101	1048576	56	5679
2026-01-06 12:06:25.54	42.92	9.52	-38.5	-39.5	22.9	0.00e+00	123	33	101	1048576	56	5651
2026-01-06 12:06:29.58	43.54	9.69	-38.6	-39.6	22.8	0.00e+00	123	33	101	1048576	56	5675
2026-01-06 12:06:33.62	44.17	9.85	-38.6	-39.6	22.9	0.00e+00	122	33	101	1048576	56	5712
2026-01-06 12:06:37.66	44.80	10.02	-38.8	-39.8	22.7	0.00e+00	123	33	101	1048576	56	5846
2026-01-06 12:06:41.70	45.44	10.18	-38.6	-39.5	23.0	0.00e+00	122	33	101	1048576	56	5654
2026-01-06 12:06:45.74	46.09	10.35	-38.4	-39.3	23.1	0.00e+00	120	33	101	1048576	56	5526
2026-01-06 12:06:49.78	46.74	10.51	-38.5	-39.4	23.0	0.00e+00	123	33	101	1048576	56	5587
2026-01-06 12:06:53.82	47.40	10.66	-38.6	-39.6	22.9	0.00e+00	123	33	101	1048576	56	5721
2026-01-06 12:06:57.86	48.07	10.82	-38.7	-39.6	22.9	0.00e+00	123	33	101	1048576	56	5722
2026-01-06 12:07:01.90	48.74	10.97	-38.5	-39.5	22.9	0.00e+00	120	33	101	1048576	56	5609
2026-01-06 12:07:05.93	49.42	11.12	-38.4	-39.4	23.1	0.00e+00	122	33	101	1048576	56	5540
2026-01-06 12:07:09.98	50.11	11.27	-38.3	-39.2	23.2	0.00e+00	121	33	101	1048576	56	5462
2026-01-06 12:07:14.02	50.80	11.41	-38.5	-39.4	23.0	0.00e+00	123	33	101	1048576	56	5585
2026-01-06 12:07:18.06	51.50	11.55	-38.4	-39.4	23.0	0.00e+00	123	33	101	1048576	56	5552
2026-01-06 12:07:22.09	52.21	11.69	-38.8	-39.9	22.6	0.00e+00	123	33	101	1048576	56	5859
2026-01-06 12:07:26.14	52.92	11.83	-38.7	-39.7	22.8	0.00e+00	123	33	101	1048576	56	5734
2026-01-06 12:07:30.18	53.64	11.96	-38.4	-39.4	23.1	0.00e+00	123	33	101	1048576	56	5556
2026-01-06 12:07:34.22	54.37	12.09	-38.2	-39.2	23.2	0.00e+00	122	34	101	1048576	56	5431
2026-01-06 12:07:38.26	55.10	12.21	-38.1	-39.0	23.2	0.00e+00	123	33	101	1048576	54	5984
2026-01-06 12:07:42.30	55.84	12.33	-38.3	-39.3	23.1	0.00e+00	123	33	101	1048576	54	6168
2026-01-06 12:07:46.34	56.59	12.45	-38.3	-39.2	23.2	0.00e+00	123	33	101	1048576	54	6127
2026-01-06 12:07:50.38	57.34	12.56	-37.7	-38.6	23.6	0.00e+00	123	33	101	1048576	54	5715
2026-01-06 12:07:54.42	58.09	12.67	-38.0	-39.0	23.3	0.00e+00	122	33	101	1048576	54	5964
2026-01-06 12:07:58.46	58.85	12.78	-38.2	-39.2	23.2	0.00e+00	122	33	101	1048576	54	6070
2026-01-06 12:08:02.49	59.62	12.88	-38.1	-39.1	23.1	0.00e+00	122	33	101	1048576	54	6025
2026-01-06 12:08:06.53	60.39	12.98	-37.8	-38.8	23.4	0.00e+00	122	33	101	1048576	54	5811
2026-01-06 12:08:10.57	61.16	13.07	-37.8	-38.7	23.6	0.00e+00	123	33	101	1048576	54	5776
2026-01-06 12:08:14.61	61.95	13.16	-37.7	-38.7	23.6	0.00e+00	122	33	101	1048576	54	5735
2026-01-06 12:08:18.65	62.73	13.25	-38.0	-39.0	23.3	0.00e+00	123	33	101	1048576	54	5962
2026-01-06 12:08:22.69	63.52	13.33	-37.7	-38.7	23.6	0.00e+00	122	34	101	1048576	54	5736
2026-01-06 12:08:26.72	64.31	13.40	-37.8	-38.8	23.5	0.00e+00	123	33	101	1048576	54	5806
2026-01-06 12:08:30.74	65.11	13.47	-37.7	-38.6	23.6	0.00e+00	123	33	101	1048576	54	5701
2026-01-06 12:08:34.77	65.91	13.53	-37.7	-38.6	23.6	0.00e+00	122	33	101	1048576	54	5721
2026-01-06 12:08:38.80	66.71	13.59	-37.8	-38.8	23.5	0.00e+00	123	33	101	1048576	54	5808
2026-01-06 12:08:42.83	67.51	13.65	-37.9	-38.9	23.4	0.00e+00	122	33	101	1048576	54	5893
2026-01-06 12:08:46.86	68.32	13.70	-37.8	-38.8	23.4	0.00e+00	123	34	101	1048576	54	5833
2026-01-06 12:08:50.89	69.13	13.74	-38.0	-39.0	23.3	0.00e+00	123	34	101	1048576	54	5945
2026-01-06 12:08:54.92	69.95	13.78	-37.6	-38.6	23.7	0.00e+00	123	33	101	1048576	54	5669
2026-01-06 12:08:58.95	70.76	13.82	-37.6	-38.6	23.7	0.00e+00	123	33	101	1048576	54	5695
2026-01-06 12:09:02.98	71.58	13.85	-37.7	-38.7	23.6	0.00e+00	121	34	101	1048576	54	5753
2026-01-06 12:09:07.01	72.40	13.87	-37.8	-38.8	23.5	0.00e+00	123	34	101	1048576	54	5799
2026-01-06 12:09:11.04	73.22	13.89	-37.6	-38.6	23.7	0.00e+00	123	33	101	1048576	54	5663
2026-01-06 12:09:15.07	74.04	13.90	-37.8	-38.7	23.5	0.00e+00	122	34	101	1048576	54	5791
2026-01-06 12:09:19.09	74.86	13.91	-37.7	-38.7	23.6	0.00e+00	122	34	101	1048576	54	5749
2026-01-06 12:09:23.12	75.68	13.91	-37.5	-38.5	23.8	0.00e+00	123	33	101	1048576	54	5598
2026-01-06 12:09:27.14	76.50	13.91	-37.5	-38.4	23.8	0.00e+00	123	34	101	1048576	54	5594
2026-01-06 12:09:31.17	77.32	13.90	-37.8	-38.8	23.6	0.00e+00	123	34	101	1048576	54	5793
2026-01-06 12:09:35.19	78.14	13.89	-38.1	-39.1	23.2	0.00e+00	123	34	101	1048576	54	6027
2026-01-06 12:09:39.22	78.96	13.87	-37.8	-38.8	23.4	0.00e+00	122	33	101	1048576	54	5843
2026-01-06 12:09:43.24	79.78	13.84	-37.7	-38.7	23.5	0.00e+00	122	34	101	1048576	54	5738
2026-01-06 12:09:47.27	80.59	13.81	-37.6	-38.6	23.5	0.00e+00	120	33	101	1048576	54	5676
2026-01-06 12:09:51.30	81.41	13.78	-37.8	-38.8	23.4	0.00e+00	123	34	101	1048576	54	5825
2026-01-06 12:09:55.33	82.22	13.74	-37.6	-38.5	23.7	0.00e+00	122	33	101	1048576	54	5650
2026-01-06 12:09:59.36	83.04	13.69	-37.7	-38.7	23.6	0.00e+00	121	33	101	1048576	54	5738
2026-01-06 12:10:03.39	83.85	13.64	-37.9	-38.8	23.7	0.00e+00	123	34	101	1048576	54	5827
2026-01-06 12:10:07.42	84.65	13.58	-37.7	-38.6	23.6	0.00e+00	123	33	101	1048576	54	5704
2026-01-06 12:10:11.45	85.45	13.52	-37.7	-38.6	23.7	0.00e+00	122	33	101	1048576	54	5696
2026-01-06 12:10:15.48	86.25	13.45	-37.5	-38.5	23.8	0.00e+00	123	34	101	1048576	54	5623
2026-01-06 12:10:19.50	87.05	13.38	-37.5	-38.5	23.7	0.00e+00	122	34	101	1048576	54	5656
2026-01-06 12:10:23.53	87.84	13.31	-37.7	-38.7	23.6	0.00e+00	122	34	101	1048576	54	5746
2026-01-06 12:10:27.55	88.63	13.23	-37.8	-38.8	23.6	0.00e+00	123	34	101	1048576	54	5813
2026-01-06 12:10:31.59	89.42	13.14	-37.6	-38.5	23.7	0.00e+00	123	34	101	1048576	54	5652
2026-01-06 12:10:35.62	90.20	13.05	-37.7	-38.7	23.6	0.00e+00	123	34	101	1048576	54	5752
2026-01-06 12:10:39.65	90.97	12.96	-37.9	-38.9	23.4	0.00e+00	123	34	101	1048576	54	5905
2026-01-06 12:10:43.68	91.74	12.86	-37.8	-38.8	23.5	0.00e+00	123	34	101	1048576	54	5832
2026-01-06 12:10:47.71	92.51	12.76	-37.9	-38.9	23.3	0.00e+00	123	34	101	1048576	54	5908
2026-01-06 12:10:51.74	93.27	12.65	-37.9	-38.9	23.4	0.00e+00	122	34	101	1048576	54	5871
2026-01-06 12:10:55.77	94.02	12.54	-38.0	-38.9	23.4	0.00e+00	120	34	101	1048576	54	5918
2026-01-06 12:10:59.80	94.77	12.42	-37.8	-38.8	23.5	0.00e+00	120	34	101	1048576	54	5807
2026-01-06 12:11:03.84	95.52	12.31	-37.8	-38.8	23.5	0.00e+00	121	34	101	1048576	54	5803
2026-01-06 12:11:07.86	96.25	12.18	-37.8	-38.8	23.5	0.00e+00	121	34	101	1048576	54	5799
2026-01-06 12:11:11.89	96.98	12.06	-37.7	-38.7	23.5	0.00e+00	121	34	101	1048576	54	5761
2026-01-06 12:11:15.92	97.71	11.93	-37.6	-38.5	23.6	0.00e+00	122	34	101	1048576	54	5658
2026-01-06 12:11:19.95	98.43	11.79	-37.7	-38.7	23.5	0.00e+00	120	34	101	1048576	54	5760
2026-01-06 12:11:23.97	99.14	11.66	-37.9	-38.9	23.4	0.00e+00	122	34	101	1048576	54	5863
2026-01-06 12:11:28.00	99.85	11.52	-38.0	-39.0	23.3	0.00e+00	123	34	101	1048576	54	5937
2026-01-06 12:11:32.03	100.55	11.38	-37.9	-38.9	23.3	0.00e+00	123	34	101	1048576	54	5894
2026-01-06 12:11:36.06	101.24	11.23	-38.2	-39.1	23.2	0.00e+00	123	34	101	1048576	54	6044
2026-01-06 12:11:40.08	101.93	11.08	-38.3	-39.2	23.0	0.00e+00	122	34	101	1048576	54	6129
2026-01-06 12:11:44.11	102.61	10.93	-38.1	-39.2	23.0	0.00e+00	120	34	101	1048576	54	6124
2026-01-06 12:11:48.14	103.28	10.78	-38.1	-39.2	23.1	0.00e+00	123	34	101	1048576	54	6096
2026-01-06 12:11:52.17	103.95	10.62	-38.2	-39.2	23.1	0.00e+00	123	34	101	1048576	54	6074
2026-01-06 12:11:56.20	104.61	10.46	-38.3	-39.3	23.0	0.00e+00	120	34	101	1048576	54	6165
2026-01-06 12:12:00.23	105.26	10.30	-38.5	-39.6	22.7	0.00e+00	123	34	101	1048576	54	6352
2026-01-06 12:12:04.26	105.91	10.14	-38.6	-39.6	22.7	0.00e+00	123	34	101	1048576	54	6386
2026-01-06 12:12:08.30	106.55	9.98	-38.5	-39.5	22.8	0.00e+00	123	34	101	1048576	54	6298
2026-01-06 12:12:12.34	107.18	9.81	-38.6	-39.6	22.7	0.00e+00	120	33	101	1048576	54	6416
2026-01-06 12:12:16.38	107.81	9.64	-38.7	-39.7	22.6	0.00e+00	125	34	101	1048576	54	6467
2026-01-06 12:12:20.42	108.43	9.47	-38.9	-39.9	22.4	0.00e+00	123	34	101	1048576	54	6617
2026-01-06 12:12:24.46	109.04	9.30	-38.6	-39.7	22.6	0.00e+00	120	34	101	1048576	54	6457
2026-01-06 12:12:28.50	109.65	9.12	-38.8	-39.8	22.5	0.00e+00	122	34	101	1048576	54	6553
2026-01-06 12:12:32.54	110.25	8.95	-38.9	-39.9	22.4	0.00e+00	123	34	101	1048576	54	6614
2026-01-06 12:12:36.57	110.84	8.77	-39.1	-40.2	22.1	0.00e+00	123	34	101	1048576	54	6831
2026-01-06 12:12:40.60	111.42	8.59	-39.3	-40.3	22.0	0.00e+00	123	34	101	1048576	56	6192
2026-01-06 12:12:44.64	112.00	8.41	-39.1	-40.2	22.2	0.00e+00	123	34	101	1048576	56	6079
2026-01-06 12:12:48.68	112.57	8.23	-39.4	-40.5	21.9	0.00e+00	123	34	101	1048576	56	6319
2026-01-06 12:12:52.72	113.13	8.05	-39.5	-40.6	21.9	0.00e+00	123	34	101	1048576	56	6402
2026-01-06 12:12:56.76	113.69	7.87	-39.4	-40.6	21.8	0.00e+00	120	34	101	1048576	56	6357
2026-01-06 12:13:00.80	114.24	7.68	-39.4	-40.4	21.9	0.00e+00	122	34	101	1048576	56	6255
2026-01-06 12:13:04.84	114.79	7.50	-39.4	-40.5	21.8	0.00e+00	122	34	101	1048576	56	6337
2026-01-06 12:13:08.87	115.32	7.31	-39.2	-40.3	22.0	0.00e+00	123	34	101	1048576	56	6142
2026-01-06 12:13:12.91	115.86	7.12	-39.4	-40.5	21.8	0.00e+00	123	34	101	1048576	56	6340
2026-01-06 12:13:16.95	116.38	6.94	-39.8	-41.0	21.4	0.00e+00	123	34	101	1048576	56	6654
2026-01-06 12:13:20.98	116.90	6.75	-39.4	-40.5	21.7	0.00e+00	123	34	101	1048576	56	6324
2026-01-06 12:13:25.02	117.41	6.56	-39.5	-40.6	21.7	0.00e+00	121	34	101	1048576	56	6366
2026-01-06 12:13:29.06	117.92	6.37	-39.8	-40.9	21.4	0.00e+00	123	34	101	1048576	56	6583
2026-01-06 12:13:33.10	118.42	6.18	-39.9	-41.0	21.3	0.00e+00	123	34	101	1048576	56	6675
2026-01-06 12:13:37.13	118.91	5.99	-39.9	-41.1	21.2	0.00e+00	122	34	101	1048576	56	6746
2026-01-06 12:13:41.17	119.39	5.80	-39.9	-41.0	21.1	0.00e+00	123	33	101	1048576	58	5991
2026-01-06 12:13:45.21	119.88	5.61	-40.0	-41.3	20.9	1.50e-06	123	34	101	1048576	58	6158
2026-01-06 12:13:49.25	120.35	5.42	-39.9	-41.2	20.9	0.00e+00	123	34	101	1048576	58	6100
2026-01-06 12:13:53.28	120.82	5.23	-40.0	-41.2	21.0	0.00e+00	122	34	101	1048576	58	6075
2026-01-06 12:13:57.32	121.28	5.04	-40.1	-41.2	20.9	0.00e+00	123	34	101	1048576	58	6122
2026-01-06 12:14:01.35	121.74	4.85	-40.2	-41.4	20.7	0.00e+00	123	34	101	1048576	58	6211
2026-01-06 12:14:05.39	122.19	4.66	-40.2	-41.4	20.7	0.00e+00	123	34	101	1048576	58	6259
2026-01-06 12:14:09.43	122.64	4.47	-40.7	-41.9	20.2	0.00e+00	122	34	101	1048576	58	6593
2026-01-06 12:14:13.47	123.08	4.28	-40.4	-41.6	20.3	0.00e+00	122	34	101	1048576	58	6412
2026-01-06 12:14:17.51	123.51	4.09	-40.4	-41.6	20.3	0.00e+00	123	34	101	1048576	58	6399
2026-01-06 12:14:21.55	123.94	3.89	-40.8	-42.1	19.9	0.00e+00	123	34	101	1048576	58	6788
2026-01-06 12:14:25.59	124.37	3.70	-40.5	-41.7	20.2	0.00e+00	122	34	101	1048576	58	6498
2026-01-06 12:14:29.63	124.79	3.51	-40.2	-41.4	20.4	0.00e+00	123	34	101	1048576	58	6271
2026-01-06 12:14:33.67	125.20	3.32	-41.0	-42.3	19.4	0.00e+00	122	34	101	1048576	58	6953
2026-01-06 12:14:37.71	125.61	3.13	-40.8	-42.1	19.7	0.00e+00	122	34	101	1048576	58	6780
2026-01-06 12:14:41.75	126.01	2.94	-50.9	-64.1	3.5	1.52e+00	0	34	104	1048576	60	75478
2026-01-06 12:14:45.78	126.41	2.75	-51.3	-64.5	3.5	1.52e+00	0	34	104	1048576	60	79083
2026-01-06 12:14:49.82	126.81	2.56	-51.3	-64.4	3.5	1.52e+00	0	34	104	1048576	60	78327
2026-01-06 12:14:53.86	127.19	2.37	-51.3	-64.3	3.5	1.52e+00	0	34	104	1048576	60	77575
2026-01-06 12:14:57.90	127.58	2.18	-51.2	-64.2	3.5	1.52e+00	0	34	104	1048576	60	76956
2026-01-06 12:15:01.94	127.96	1.99	-51.2	-64.2	3.5	1.52e+00	0	34	104	1048576	60	77137
2026-01-06 12:15:05.98	128.33	1.80	-51.2	-64.2	3.5	1.51e+00	0	34	104	1048576	60	76780
2026-01-06 12:15:10.01	128.70	1.61	-51.2	-64.2	3.5	1.52e+00	0	34	104	1048576	60	76866
2026-01-06 12:15:14.05	129.07	1.42	-51.2	-64.2	3.5	1.52e+00	0	34	104	1048576	60	77128
2026-01-06 12:15:18.09	129.43	1.23	-51.2	-64.2	3.5	1.52e+00	0	34	104	1048576	60	77216
2026-01-06 12:15:22.13	129.79	1.04	-51.2	-64.2	3.5	1.52e+00	0	34	104	1048576	60	77081
2026-01-06 12:15:26.17	130.14	0.86	-51.2	-64.2	3.5	1.52e+00	0	34	104	1048576	60	76818
2026-01-06 12:15:30.21	130.49	0.67	-51.2	-64.2	3.5	1.52e+00	0	34	104	1048576	60	76937
2026-01-06 12:15:34.25	130.84	0.48	-51.2	-64.3	3.5	1.52e+00	0	34	104	1048576	60	77295
2026-01-06 12:15:38.29	131.18	0.30	-51.2	-64.2	3.5	1.52e+00	0	34	104	1048576	60	77099
2026-01-06 12:15:42.32	131.51	0.11	-51.2	-64.2	3.5	1.52e+00	0	34	104	1048576	60	76960
2026-01-06 12:15:46.35	131.85	-0.08	-51.2	-64.2	3.5	1.52e+00	0	34	104	1048576	60	76811

#Closed at: 2026-01-06 12:15:47
#Recorded file [1 MB]: D:/lorett/data/35034_260106_150259.dat