passes_logs/2026/01/06/R4.6S_Anadyr_2ch/R4.6S_Anadyr_2ch__20260106_215955_NOAA_21_JPSS-2_rec.log

#Pass ID: 20260106_215955_NOAA 21 (JPSS-2)
#Satellite: NOAA 21 (JPSS-2)
#Configuration: NOAA-21
#almurnet v.1.7.20251203
#Start time: 2026-01-06 21:59:57

#Version: 2.2.20231116
#Station: R4.6S_Anadyr_2ch
#Location: 177.4865 lon 64.73178 lat
#TLE: 1 54234U 22150A   25350.97269056  .00000057  00000+0  47676-4 0  9992
#TLE: 2 54234  98.7466 287.2282 0002043  29.8355 330.2937 14.19525482160692

#Time	Az	El	Level	Level2	SNR	BER	BlckErr	Temp	State	Recorded	gain1	gain2
2026-01-06 21:59:57.13	103.03	0.09	-51.5	-66.6	3.5	1.51e+00	0	29	0	0	60	103777
2026-01-06 22:00:01.17	102.82	0.31	-51.5	-64.6	3.5	1.52e+00	0	30	104	0	60	80549
2026-01-06 22:00:05.21	102.61	0.54	-51.1	-64.6	3.5	1.52e+00	0	30	104	0	60	80312
2026-01-06 22:00:09.26	102.39	0.76	-51.3	-64.4	3.5	1.52e+00	0	31	104	0	60	78486
2026-01-06 22:00:13.30	102.18	0.99	-49.4	-62.9	3.5	1.52e+00	0	31	104	0	60	66080
2026-01-06 22:00:17.34	101.95	1.22	-49.4	-62.8	3.5	1.52e+00	0	31	104	0	60	65495
2026-01-06 22:00:21.38	101.73	1.45	-49.4	-62.8	3.5	1.52e+00	0	31	104	0	60	65539
2026-01-06 22:00:25.42	101.50	1.68	-49.4	-62.9	3.5	1.52e+00	0	31	104	0	60	66214
2026-01-06 22:00:29.47	101.26	1.92	-49.4	-62.9	3.5	1.52e+00	0	31	104	0	60	66434
2026-01-06 22:00:33.51	101.03	2.15	-49.4	-62.6	3.5	1.52e+00	0	31	104	0	60	64000
2026-01-06 22:00:37.55	100.79	2.39	-49.4	-62.9	3.5	1.51e+00	0	31	104	0	60	66026
2026-01-06 22:00:41.59	100.54	2.62	-49.4	-62.9	3.5	1.52e+00	0	31	104	0	60	66189
2026-01-06 22:00:45.63	100.29	2.86	-49.3	-62.0	3.5	1.52e+00	0	31	104	0	60	59491
2026-01-06 22:00:49.68	100.04	3.10	-49.1	-58.9	4.4	1.47e+00	0	31	104	0	60	41761
2026-01-06 22:00:53.73	99.78	3.35	-49.0	-57.6	3.6	1.46e-03	121	31	104	1048576	60	35959
2026-01-06 22:00:57.77	99.52	3.59	-47.6	-59.4	3.5	4.94e-01	0	31	104	1048576	60	44328
2026-01-06 22:01:01.81	99.25	3.83	-40.6	-41.9	20.1	0.00e+00	122	31	0	1048576	60	5921
2026-01-06 22:01:05.86	98.98	4.08	-40.7	-42.0	20.3	0.00e+00	122	31	0	1048576	60	5928
2026-01-06 22:01:09.90	98.70	4.33	-40.9	-42.1	20.2	0.00e+00	122	31	0	1048576	60	6039
2026-01-06 22:01:13.94	98.42	4.58	-40.6	-41.8	20.4	0.00e+00	122	31	101	1048576	60	5838
2026-01-06 22:01:17.98	98.13	4.83	-40.5	-41.8	20.6	0.00e+00	122	31	101	1048576	60	5795
2026-01-06 22:01:22.03	97.84	5.09	-40.4	-41.6	20.7	0.00e+00	120	31	101	1048576	60	5694
2026-01-06 22:01:26.07	97.54	5.34	-40.3	-41.5	21.1	0.00e+00	123	31	101	1048576	60	5621
2026-01-06 22:01:30.11	97.24	5.60	-40.0	-41.1	21.2	0.00e+00	123	31	101	1048576	58	6017
2026-01-06 22:01:34.15	96.93	5.86	-39.9	-41.1	21.3	0.00e+00	122	31	101	1048576	58	5998
2026-01-06 22:01:38.20	96.61	6.12	-39.9	-41.1	21.3	0.00e+00	123	32	101	1048576	58	6012
2026-01-06 22:01:42.24	96.29	6.38	-39.9	-41.0	21.4	0.00e+00	122	32	101	1048576	58	5947
2026-01-06 22:01:46.29	95.97	6.65	-39.9	-41.1	21.3	0.00e+00	123	31	101	1048576	58	6014
2026-01-06 22:01:50.33	95.63	6.91	-39.7	-40.9	21.6	0.00e+00	120	31	101	1048576	58	5862
2026-01-06 22:01:54.37	95.29	7.18	-39.6	-40.7	21.8	0.00e+00	122	31	101	1048576	58	5726
2026-01-06 22:01:58.42	94.95	7.45	-39.4	-40.5	21.9	0.00e+00	123	31	101	1048576	58	5630
2026-01-06 22:02:02.46	94.60	7.72	-39.3	-40.3	22.1	0.00e+00	122	32	101	1048576	58	5525
2026-01-06 22:02:06.50	94.24	7.99	-39.3	-40.4	22.1	0.00e+00	123	32	101	1048576	58	5542
2026-01-06 22:02:10.55	93.87	8.27	-39.0	-40.1	22.4	0.00e+00	123	32	101	1048576	56	5999
2026-01-06 22:02:14.59	93.50	8.55	-38.7	-39.7	22.7	0.00e+00	123	32	101	1048576	56	5787
2026-01-06 22:02:18.63	93.12	8.83	-38.6	-39.6	22.8	0.00e+00	123	31	101	1048576	56	5725
2026-01-06 22:02:22.67	92.73	9.11	-38.6	-39.6	22.9	0.00e+00	120	32	101	1048576	56	5717
2026-01-06 22:02:26.72	92.33	9.39	-38.3	-39.3	23.0	0.00e+00	123	32	101	1048576	56	5503
2026-01-06 22:02:30.76	91.93	9.67	-38.3	-39.3	23.1	0.00e+00	123	32	101	1048576	56	5505
2026-01-06 22:02:34.80	91.52	9.96	-38.1	-39.1	23.3	0.00e+00	123	32	101	1048576	54	6041
2026-01-06 22:02:38.84	91.10	10.25	-37.8	-38.7	23.6	0.00e+00	120	32	101	1048576	54	5769
2026-01-06 22:02:42.88	90.67	10.54	-37.6	-38.5	23.7	0.00e+00	123	32	101	1048576	54	5652
2026-01-06 22:02:46.92	90.23	10.83	-37.6	-38.5	23.7	0.00e+00	123	32	101	1048576	54	5640
2026-01-06 22:02:50.97	89.78	11.12	-37.6	-38.5	23.7	0.00e+00	123	32	101	1048576	54	5658
2026-01-06 22:02:55.01	89.33	11.42	-37.5	-38.5	23.8	0.00e+00	120	32	101	1048576	54	5607
2026-01-06 22:02:59.06	88.86	11.72	-37.6	-38.5	23.8	0.00e+00	123	32	101	1048576	54	5629
2026-01-06 22:03:03.10	88.39	12.02	-37.5	-38.5	23.8	0.00e+00	123	32	101	1048576	54	5610
2026-01-06 22:03:07.14	87.90	12.32	-37.5	-38.5	23.9	0.00e+00	120	32	101	1048576	54	5620
2026-01-06 22:03:11.19	87.40	12.62	-37.4	-38.3	24.0	0.00e+00	120	32	101	1048576	54	5499
2026-01-06 22:03:15.23	86.90	12.92	-37.4	-38.3	24.0	0.00e+00	121	32	101	1048576	54	5508
2026-01-06 22:03:19.27	86.38	13.23	-37.4	-38.4	23.8	0.00e+00	122	32	101	1048576	54	5552
2026-01-06 22:03:23.32	85.85	13.54	-37.5	-38.5	23.9	0.00e+00	122	32	101	1048576	54	5603
2026-01-06 22:03:27.36	85.31	13.84	-37.5	-38.5	24.0	0.00e+00	123	32	101	1048576	54	5615
2026-01-06 22:03:31.40	84.76	14.15	-37.3	-38.3	24.0	0.00e+00	122	32	101	1048576	52	6139
2026-01-06 22:03:35.43	84.20	14.46	-37.4	-38.3	24.0	0.00e+00	120	32	101	1048576	52	6197
2026-01-06 22:03:39.46	83.63	14.77	-37.4	-38.3	24.0	0.00e+00	123	32	101	1048576	52	6161
2026-01-06 22:03:43.49	83.04	15.09	-37.6	-38.6	23.8	0.00e+00	123	32	101	1048576	52	6370
2026-01-06 22:03:47.52	82.44	15.40	-37.8	-38.8	23.6	0.00e+00	123	32	101	1048576	52	6523
2026-01-06 22:03:51.56	81.83	15.71	-38.0	-39.0	23.5	0.00e+00	122	32	101	1048576	54	5959
2026-01-06 22:03:55.60	81.21	16.03	-37.9	-38.8	23.7	0.00e+00	120	32	101	1048576	54	5844
2026-01-06 22:03:59.65	80.57	16.34	-37.9	-38.9	23.6	0.00e+00	123	32	101	1048576	54	5883
2026-01-06 22:04:03.69	79.91	16.66	-37.9	-38.8	23.8	0.00e+00	123	32	101	1048576	54	5817
2026-01-06 22:04:07.74	79.25	16.98	-37.8	-38.8	23.8	0.00e+00	122	32	101	1048576	54	5805
2026-01-06 22:04:11.78	78.56	17.29	-37.6	-38.5	23.9	0.00e+00	122	32	101	1048576	54	5634
2026-01-06 22:04:15.82	77.87	17.61	-37.5	-38.4	24.0	0.00e+00	122	32	101	1048576	54	5555
2026-01-06 22:04:19.87	77.16	17.92	-37.3	-38.2	24.1	0.00e+00	120	32	101	1048576	54	5454
2026-01-06 22:04:23.91	76.43	18.24	-37.0	-37.9	24.4	0.00e+00	123	32	101	1048576	52	5917
2026-01-06 22:04:27.95	75.69	18.55	-37.1	-38.0	24.3	0.00e+00	120	32	101	1048576	52	5992
2026-01-06 22:04:32.00	74.93	18.87	-37.2	-38.1	24.2	0.00e+00	122	32	101	1048576	52	6019
2026-01-06 22:04:36.04	74.16	19.18	-37.1	-38.0	24.5	0.00e+00	120	32	101	1048576	52	5946
2026-01-06 22:04:40.08	73.37	19.49	-37.1	-38.0	24.4	0.00e+00	120	32	101	1048576	52	5941
2026-01-06 22:04:44.12	72.57	19.79	-36.8	-37.7	24.6	0.00e+00	122	32	101	1048576	52	5740
2026-01-06 22:04:48.17	71.74	20.10	-36.4	-37.3	24.8	0.00e+00	122	32	101	1048576	52	5503
2026-01-06 22:04:52.21	70.91	20.40	-36.6	-37.5	24.7	0.00e+00	123	32	101	1048576	52	5649
2026-01-06 22:04:56.25	70.05	20.70	-36.6	-37.5	24.7	0.00e+00	122	32	101	1048576	52	5616
2026-01-06 22:05:00.29	69.18	21.00	-36.7	-37.6	24.7	0.00e+00	122	32	101	1048576	52	5681
2026-01-06 22:05:04.34	68.29	21.29	-36.8	-37.7	24.7	0.00e+00	123	32	101	1048576	52	5744
2026-01-06 22:05:08.38	67.39	21.58	-37.0	-37.9	24.5	0.00e+00	122	32	101	1048576	52	5881
2026-01-06 22:05:12.42	66.46	21.86	-36.8	-37.7	24.7	0.00e+00	123	32	101	1048576	52	5754
2026-01-06 22:05:16.46	65.53	22.14	-37.0	-37.9	24.6	0.00e+00	122	32	101	1048576	52	5870
2026-01-06 22:05:20.51	64.57	22.42	-36.8	-37.7	24.7	0.00e+00	120	32	101	1048576	52	5767
2026-01-06 22:05:24.54	63.60	22.68	-36.8	-37.7	24.7	0.00e+00	123	32	101	1048576	52	5772
2026-01-06 22:05:28.59	62.61	22.94	-36.5	-37.4	24.9	0.00e+00	120	32	101	1048576	52	5560
2026-01-06 22:05:32.63	61.60	23.20	-36.5	-37.4	24.8	0.00e+00	123	32	101	1048576	52	5555
2026-01-06 22:05:36.67	60.58	23.45	-36.6	-37.5	24.8	0.00e+00	123	32	101	1048576	52	5603
2026-01-06 22:05:40.71	59.54	23.68	-36.8	-37.7	24.6	0.00e+00	122	32	101	1048576	52	5771
2026-01-06 22:05:44.76	58.48	23.92	-36.7	-37.6	24.8	0.00e+00	123	32	101	1048576	52	5676
2026-01-06 22:05:48.80	57.41	24.14	-36.7	-37.5	24.8	0.00e+00	121	32	101	1048576	52	5655
2026-01-06 22:05:52.84	56.33	24.35	-36.5	-37.4	24.9	0.00e+00	123	32	101	1048576	52	5556
2026-01-06 22:05:56.89	55.23	24.55	-36.4	-37.3	25.0	0.00e+00	123	32	101	1048576	52	5480
2026-01-06 22:06:00.92	54.12	24.75	-36.5	-37.4	24.9	0.00e+00	122	32	101	1048576	52	5586
2026-01-06 22:06:04.97	52.99	24.93	-36.8	-37.6	24.7	0.00e+00	122	32	101	1048576	52	5721
2026-01-06 22:06:09.01	51.85	25.10	-36.2	-37.1	25.2	0.00e+00	123	32	101	1048576	52	5384
2026-01-06 22:06:13.06	50.70	25.26	-36.0	-36.8	25.2	0.00e+00	123	32	101	1048576	50	5851
2026-01-06 22:06:17.10	49.53	25.41	-36.3	-37.2	24.9	0.00e+00	123	32	101	1048576	50	6065
2026-01-06 22:06:21.14	48.36	25.55	-36.7	-37.6	24.8	0.00e+00	123	32	101	1048576	50	6365
2026-01-06 22:06:25.18	47.18	25.67	-36.5	-37.4	24.9	0.00e+00	122	32	101	1048576	50	6218
2026-01-06 22:06:29.22	45.99	25.78	-36.4	-37.3	25.0	0.00e+00	123	32	101	1048576	50	6157
2026-01-06 22:06:33.27	44.78	25.88	-36.4	-37.3	25.0	0.00e+00	122	32	101	1048576	50	6151
2026-01-06 22:06:37.31	43.58	25.96	-36.6	-37.5	24.9	0.00e+00	123	32	101	1048576	50	6303
2026-01-06 22:06:41.35	42.37	26.03	-36.8	-37.7	24.7	0.00e+00	122	32	101	1048576	50	6456
2026-01-06 22:06:45.40	41.15	26.09	-36.3	-37.2	25.1	0.00e+00	122	32	101	1048576	50	6111
2026-01-06 22:06:49.44	39.93	26.13	-36.8	-37.7	24.7	0.00e+00	120	32	101	1048576	50	6471
2026-01-06 22:06:53.49	38.70	26.15	-36.6	-37.5	24.9	0.00e+00	120	32	101	1048576	50	6298
2026-01-06 22:06:57.53	37.48	26.17	-36.9	-37.8	24.7	0.00e+00	120	32	101	1048576	50	6502
2026-01-06 22:07:01.56	36.26	26.16	-37.0	-37.9	24.6	0.00e+00	123	32	101	1048576	50	6601
2026-01-06 22:07:05.59	35.04	26.15	-36.1	-37.0	25.2	0.00e+00	123	32	101	1048576	50	5958
2026-01-06 22:07:09.61	33.82	26.12	-36.4	-37.2	25.2	0.00e+00	120	32	101	1048576	50	6125
2026-01-06 22:07:13.63	32.61	26.07	-36.5	-37.3	25.0	0.00e+00	123	32	101	1048576	50	6192
2026-01-06 22:07:17.65	31.40	26.02	-36.7	-37.5	24.9	0.00e+00	123	32	101	1048576	50	6330
2026-01-06 22:07:21.68	30.19	25.94	-36.7	-37.6	24.8	0.00e+00	123	32	101	1048576	50	6372
2026-01-06 22:07:25.70	29.00	25.86	-36.6	-37.5	24.8	0.00e+00	122	32	101	1048576	50	6319
2026-01-06 22:07:29.72	27.81	25.76	-36.5	-37.4	25.0	0.00e+00	123	32	101	1048576	50	6213
2026-01-06 22:07:33.74	26.62	25.65	-36.4	-37.3	25.0	0.00e+00	120	32	101	1048576	50	6145
2026-01-06 22:07:37.76	25.45	25.52	-36.4	-37.3	24.8	0.00e+00	123	32	101	1048576	50	6171
2026-01-06 22:07:41.79	24.29	25.38	-36.2	-37.1	25.1	0.00e+00	123	32	101	1048576	50	6007
2026-01-06 22:07:45.83	23.13	25.23	-36.3	-37.1	25.0	0.00e+00	122	32	101	1048576	50	6043
2026-01-06 22:07:49.88	21.98	25.07	-36.3	-37.2	25.0	0.00e+00	122	32	101	1048576	50	6085
2026-01-06 22:07:53.92	20.84	24.90	-36.5	-37.4	24.8	0.00e+00	123	32	101	1048576	50	6208
2026-01-06 22:07:57.96	19.72	24.71	-36.2	-37.1	25.1	0.00e+00	123	32	101	1048576	50	6010
2026-01-06 22:08:02.00	18.61	24.52	-36.5	-37.3	25.0	0.00e+00	122	32	101	1048576	50	6200
2026-01-06 22:08:06.05	17.52	24.31	-36.8	-37.7	24.7	0.00e+00	122	32	101	1048576	50	6457
2026-01-06 22:08:10.09	16.44	24.10	-36.9	-37.8	24.6	0.00e+00	123	32	101	1048576	50	6507
2026-01-06 22:08:14.13	15.37	23.88	-36.8	-37.7	24.7	0.00e+00	121	32	101	1048576	50	6450
2026-01-06 22:08:18.17	14.33	23.64	-36.9	-37.8	24.7	0.00e+00	122	32	101	1048576	50	6519
2026-01-06 22:08:22.21	13.29	23.40	-36.7	-37.6	24.7	0.00e+00	120	32	101	1048576	50	6359
2026-01-06 22:08:26.25	12.28	23.16	-36.0	-36.9	25.1	0.00e+00	123	32	101	1048576	50	5893
2026-01-06 22:08:30.30	11.27	22.90	-36.8	-37.7	24.6	0.00e+00	122	32	101	1048576	50	6480
2026-01-06 22:08:34.34	10.29	22.64	-36.7	-37.6	24.8	0.00e+00	122	32	101	1048576	50	6387
2026-01-06 22:08:38.38	9.32	22.37	-36.2	-37.0	25.1	0.00e+00	123	32	101	1048576	50	5990
2026-01-06 22:08:42.42	8.38	22.10	-36.4	-37.3	24.9	0.00e+00	122	32	101	1048576	50	6155
2026-01-06 22:08:46.46	7.44	21.82	-36.1	-37.0	25.2	0.00e+00	123	32	101	1048576	50	5940
2026-01-06 22:08:50.51	6.52	21.53	-36.6	-37.5	25.0	0.00e+00	122	32	101	1048576	50	6290
2026-01-06 22:08:54.55	5.63	21.25	-36.3	-37.1	25.1	0.00e+00	123	32	101	1048576	50	6064
2026-01-06 22:08:58.59	4.74	20.95	-36.0	-36.9	25.3	0.00e+00	123	32	101	1048576	50	5863
2026-01-06 22:09:02.64	3.88	20.66	-36.8	-37.7	24.8	0.00e+00	123	32	101	1048576	50	6434
2026-01-06 22:09:06.68	3.03	20.36	-36.8	-37.6	24.8	0.00e+00	122	32	101	1048576	50	6410
2026-01-06 22:09:10.72	2.20	20.06	-36.9	-37.8	24.7	0.00e+00	122	32	101	1048576	50	6511
2026-01-06 22:09:14.77	1.38	19.75	-36.7	-37.6	24.7	0.00e+00	123	32	101	1048576	50	6366
2026-01-06 22:09:18.81	0.58	19.44	-36.9	-37.8	24.6	0.00e+00	122	32	101	1048576	50	6558
2026-01-06 22:09:22.85	359.80	19.14	-37.1	-38.0	24.5	0.00e+00	122	32	101	1048576	50	6676
2026-01-06 22:09:26.89	359.04	18.83	-37.5	-38.5	24.1	0.00e+00	123	32	101	1048576	52	6284
2026-01-06 22:09:30.93	358.29	18.51	-37.4	-38.4	24.2	0.00e+00	122	32	101	1048576	52	6214
2026-01-06 22:09:34.98	357.55	18.20	-37.4	-38.4	24.1	0.00e+00	123	32	101	1048576	52	6226
2026-01-06 22:09:39.02	356.83	17.89	-37.5	-38.5	24.0	0.00e+00	120	32	101	1048576	52	6306
2026-01-06 22:09:43.06	356.12	17.57	-37.4	-38.3	24.2	0.00e+00	123	32	101	1048576	52	6180
2026-01-06 22:09:47.11	355.43	17.26	-37.0	-37.9	24.5	0.00e+00	123	32	101	1048576	52	5882
2026-01-06 22:09:51.15	354.76	16.94	-36.8	-37.6	24.7	0.00e+00	122	32	101	1048576	52	5719
2026-01-06 22:09:55.19	354.10	16.63	-37.2	-38.1	24.3	0.00e+00	122	32	101	1048576	52	6027
2026-01-06 22:09:59.23	353.45	16.31	-37.5	-38.4	24.0	0.00e+00	123	32	101	1048576	52	6223
2026-01-06 22:10:03.27	352.82	16.00	-37.1	-38.0	24.5	0.00e+00	123	32	101	1048576	52	5953
2026-01-06 22:10:07.31	352.20	15.68	-37.2	-38.1	24.3	0.00e+00	120	32	101	1048576	52	6043
2026-01-06 22:10:11.35	351.59	15.37	-37.8	-38.8	23.8	0.00e+00	123	32	101	1048576	52	6503
2026-01-06 22:10:15.39	351.00	15.06	-37.6	-38.6	23.6	0.00e+00	123	32	101	1048576	54	5671
2026-01-06 22:10:19.43	350.41	14.75	-37.3	-38.2	24.1	0.00e+00	122	32	101	1048576	54	5417
2026-01-06 22:10:23.48	349.84	14.44	-37.6	-38.5	23.9	0.00e+00	122	32	101	1048576	54	5630
2026-01-06 22:10:27.52	349.29	14.13	-38.4	-39.4	23.2	0.00e+00	121	32	101	1048576	54	6231
2026-01-06 22:10:31.56	348.74	13.82	-38.5	-39.5	23.0	0.00e+00	123	32	101	1048576	54	6302
2026-01-06 22:10:35.60	348.21	13.51	-37.7	-38.6	23.7	0.00e+00	123	32	101	1048576	54	5717
2026-01-06 22:10:39.63	347.69	13.21	-37.9	-38.8	23.6	0.00e+00	123	32	101	1048576	54	5850
2026-01-06 22:10:43.66	347.18	12.91	-38.3	-39.3	23.2	0.00e+00	123	32	101	1048576	54	6156
2026-01-06 22:10:47.69	346.68	12.60	-38.2	-39.2	23.1	0.00e+00	122	32	101	1048576	54	6072
2026-01-06 22:10:51.73	346.19	12.30	-37.6	-38.6	23.7	0.00e+00	123	32	101	1048576	54	5679
2026-01-06 22:10:55.76	345.71	12.01	-37.2	-38.1	24.1	0.00e+00	123	32	101	1048576	54	5379
2026-01-06 22:10:59.79	345.24	11.71	-37.9	-38.9	23.6	0.00e+00	122	32	101	1048576	54	5867
2026-01-06 22:11:03.83	344.78	11.41	-38.7	-39.7	22.9	0.00e+00	123	32	101	1048576	54	6428
2026-01-06 22:11:07.86	344.33	11.12	-38.8	-39.8	22.6	0.00e+00	123	32	101	1048576	54	6548
2026-01-06 22:11:11.89	343.88	10.83	-38.1	-39.1	23.2	0.00e+00	123	32	101	1048576	54	6025
2026-01-06 22:11:15.92	343.45	10.54	-37.8	-38.8	23.5	0.00e+00	123	32	101	1048576	54	5823
2026-01-06 22:11:19.95	343.03	10.25	-38.2	-39.2	23.3	0.00e+00	120	32	101	1048576	54	6111
2026-01-06 22:11:23.98	342.61	9.96	-38.8	-39.8	22.7	0.00e+00	123	32	101	1048576	54	6546
2026-01-06 22:11:28.02	342.21	9.68	-39.1	-40.1	22.4	0.00e+00	121	32	101	1048576	54	6760
2026-01-06 22:11:32.05	341.81	9.40	-38.9	-40.0	22.4	0.00e+00	123	32	101	1048576	54	6660
2026-01-06 22:11:36.09	341.42	9.11	-38.9	-40.0	22.4	0.00e+00	123	32	101	1048576	54	6654
2026-01-06 22:11:40.14	341.03	8.83	-38.9	-39.9	22.4	0.00e+00	123	32	101	1048576	54	6649
2026-01-06 22:11:44.18	340.65	8.56	-39.3	-40.4	22.2	0.00e+00	123	32	101	1048576	56	6222
2026-01-06 22:11:48.22	340.29	8.28	-39.7	-40.8	21.8	0.00e+00	120	32	101	1048576	56	6504
2026-01-06 22:11:52.27	339.92	8.01	-39.8	-40.9	21.8	0.00e+00	120	32	101	1048576	56	6603
2026-01-06 22:11:56.31	339.57	7.73	-39.9	-41.0	21.6	0.00e+00	123	32	101	1048576	56	6676
2026-01-06 22:12:00.35	339.22	7.46	-39.8	-40.9	21.7	0.00e+00	120	32	101	1048576	56	6586
2026-01-06 22:12:04.39	338.88	7.20	-39.8	-40.8	21.6	0.00e+00	123	32	101	1048576	56	6562
2026-01-06 22:12:08.44	338.54	6.93	-39.7	-40.8	21.7	0.00e+00	122	32	101	1048576	56	6517
2026-01-06 22:12:12.48	338.21	6.66	-39.8	-40.9	21.6	0.00e+00	122	32	101	1048576	56	6623
2026-01-06 22:12:16.52	337.89	6.40	-40.1	-41.3	21.2	0.00e+00	123	32	101	1048576	58	6148
2026-01-06 22:12:20.57	337.57	6.14	-40.2	-41.4	20.8	0.00e+00	122	32	101	1048576	58	6252
2026-01-06 22:12:24.61	337.26	5.88	-40.9	-42.2	19.9	0.00e+00	122	32	101	1048576	58	6820
2026-01-06 22:12:28.65	336.96	5.62	-42.0	-43.5	18.1	0.00e+00	122	32	101	1048576	60	7089
2026-01-06 22:12:32.69	336.66	5.37	-43.3	-45.5	15.2	0.00e+00	123	32	101	1048576	60	8910
2026-01-06 22:12:36.74	336.37	5.11	-44.7	-47.9	12.0	2.72e-04	122	32	101	1048576	60	11787
2026-01-06 22:12:40.78	336.08	4.86	-45.8	-50.9	7.8	6.27e-02	123	32	101	1048576	60	16596
2026-01-06 22:12:44.82	335.79	4.61	-46.3	-55.5	4.5	8.46e-01	122	32	104	1048576	60	28269
2026-01-06 22:12:48.86	335.52	4.36	-46.5	-59.3	3.5	1.52e+00	0	32	104	1048576	60	43855
2026-01-06 22:12:52.90	335.24	4.11	-46.6	-58.3	3.5	1.51e+00	0	32	104	1048576	60	38989
2026-01-06 22:12:56.95	334.97	3.86	-46.4	-59.2	3.5	1.52e+00	0	33	104	1048576	60	43101
2026-01-06 22:13:00.99	334.71	3.62	-46.4	-59.3	3.5	1.51e+00	0	32	104	1048576	60	43488
2026-01-06 22:13:05.03	334.45	3.38	-46.3	-59.3	3.5	1.51e+00	0	33	104	1048576	60	43629
2026-01-06 22:13:09.07	334.20	3.13	-46.4	-59.4	3.5	1.52e+00	0	32	104	1048576	60	43970
2026-01-06 22:13:13.12	333.94	2.89	-51.4	-64.4	3.5	1.52e+00	0	33	104	1048576	60	78842
2026-01-06 22:13:17.16	333.70	2.66	-51.6	-64.6	3.5	1.51e+00	0	32	104	1048576	60	80407
2026-01-06 22:13:21.21	333.46	2.42	-51.5	-64.5	3.5	1.52e+00	0	32	104	1048576	60	79595
2026-01-06 22:13:25.25	333.22	2.18	-51.6	-64.6	3.5	1.52e+00	0	32	104	1048576	60	80627
2026-01-06 22:13:29.29	332.99	1.95	-51.5	-64.6	3.5	1.52e+00	0	32	104	1048576	60	80035
2026-01-06 22:13:33.33	332.76	1.72	-51.5	-64.6	3.5	1.51e+00	0	33	104	1048576	60	79994
2026-01-06 22:13:37.37	332.53	1.49	-51.5	-64.5	3.5	1.52e+00	0	32	104	1048576	60	79930
2026-01-06 22:13:41.42	332.31	1.26	-51.5	-64.5	3.5	1.52e+00	0	32	104	1048576	60	79922
2026-01-06 22:13:45.46	332.09	1.03	-51.5	-64.5	3.5	1.52e+00	0	33	104	1048576	60	79597
2026-01-06 22:13:49.50	331.87	0.80	-51.5	-64.5	3.5	1.52e+00	0	32	104	1048576	60	79717
2026-01-06 22:13:53.54	331.66	0.58	-51.5	-64.5	3.5	1.52e+00	0	32	104	1048576	60	79535
2026-01-06 22:13:57.59	331.45	0.35	-51.5	-64.5	3.5	1.51e+00	0	32	104	1048576	60	79288
2026-01-06 22:14:01.63	331.25	0.13	-51.5	-64.5	3.5	1.52e+00	0	33	104	1048576	60	79730

#Closed at: 2026-01-06 22:14:05
#Recorded file [1 MB]: D:/lorett/data/35034_260107_005957.dat