passes_logs/2026/01/06/R4.6S_Anadyr_2ch/R4.6S_Anadyr_2ch__20260106_211101_NOAA_20_JPSS-1_rec.log

#Pass ID: 20260106_211101_NOAA 20 (JPSS-1)
#Satellite: NOAA 20 (JPSS-1)
#Configuration: NOAA 20
#almurnet v.1.7.20251203
#Start time: 2026-01-06 21:11:04

#Version: 2.2.20231116
#Station: R4.6S_Anadyr_2ch
#Location: 177.4865 lon 64.73178 lat
#TLE: 1 43013U 17073A   25350.93759711  .00000080  00000+0  58734-4 0  9994
#TLE: 2 43013  98.7603 287.1885 0002156  81.1496 278.9924 14.19526878418610

#Time	Az	El	Level	Level2	SNR	BER	BlckErr	Temp	State	Recorded	gain1	gain2
2026-01-06 21:11:04.43	84.93	0.16	-51.4	-65.3	3.3	1.54e+00	0	30	0	0	60	89489
2026-01-06 21:11:08.46	84.66	0.37	-51.4	-66.8	3.6	1.51e+00	0	30	104	0	60	106453
2026-01-06 21:11:12.49	84.40	0.58	-51.5	-66.9	3.6	1.51e+00	0	30	104	0	60	107434
2026-01-06 21:11:16.53	84.13	0.79	-51.4	-66.7	3.6	1.51e+00	0	30	104	0	60	105738
2026-01-06 21:11:20.56	83.85	1.00	-50.1	-65.5	3.6	1.51e+00	0	30	104	0	60	91857
2026-01-06 21:11:24.59	83.57	1.22	-49.8	-65.3	3.6	1.51e+00	0	30	104	0	60	89909
2026-01-06 21:11:28.62	83.29	1.43	-49.8	-65.3	3.6	1.51e+00	0	30	104	0	60	89667
2026-01-06 21:11:32.65	83.00	1.65	-49.8	-65.2	3.6	1.51e+00	0	31	104	0	60	88655
2026-01-06 21:11:36.68	82.71	1.86	-49.8	-65.3	3.6	1.51e+00	0	31	104	0	60	89939
2026-01-06 21:11:40.71	82.42	2.08	-49.8	-65.2	3.6	1.51e+00	0	31	104	0	60	88552
2026-01-06 21:11:44.74	82.11	2.30	-49.8	-65.1	3.6	1.51e+00	0	31	104	0	60	87362
2026-01-06 21:11:48.78	81.81	2.52	-49.8	-65.2	3.6	1.51e+00	0	31	104	0	60	89003
2026-01-06 21:11:52.81	81.50	2.74	-49.8	-65.1	3.6	1.51e+00	0	31	104	0	60	87376
2026-01-06 21:11:56.84	81.18	2.96	-49.8	-65.0	3.6	1.51e+00	0	31	104	0	60	87110
2026-01-06 21:12:00.87	80.86	3.18	-48.6	-54.3	9.4	5.56e-02	92	31	102	1048576	60	25433
2026-01-06 21:12:04.89	80.54	3.41	-44.7	-46.6	17.8	4.71e-04	92	31	0	1048576	60	10444
2026-01-06 21:12:08.93	80.21	3.63	-44.3	-46.1	18.3	0.00e+00	92	31	0	1048576	60	9884
2026-01-06 21:12:12.96	79.87	3.86	-44.3	-46.1	18.5	0.00e+00	8	31	0	1048576	60	9855
2026-01-06 21:12:17.00	79.53	4.08	-44.4	-46.1	18.5	0.00e+00	92	31	0	1048576	60	9871
2026-01-06 21:12:21.03	79.18	4.31	-44.4	-46.1	18.4	0.00e+00	92	31	0	1048576	60	9887
2026-01-06 21:12:25.06	78.83	4.54	-44.3	-46.1	18.7	0.00e+00	2	31	101	1048576	60	9814
2026-01-06 21:12:29.08	78.47	4.77	-44.1	-45.7	19.0	0.00e+00	92	31	101	1048576	60	9402
2026-01-06 21:12:33.11	78.11	5.00	-44.2	-45.8	18.9	0.00e+00	92	31	101	1048576	60	9555
2026-01-06 21:12:37.13	77.74	5.23	-44.3	-45.9	18.9	0.00e+00	92	31	101	1048576	60	9630
2026-01-06 21:12:41.15	77.37	5.46	-44.1	-45.7	19.1	0.00e+00	0	31	101	1048576	60	9409
2026-01-06 21:12:45.18	76.99	5.69	-44.3	-45.9	18.9	0.00e+00	92	31	101	1048576	60	9617
2026-01-06 21:12:49.21	76.60	5.92	-44.2	-45.8	19.0	0.00e+00	92	31	101	1048576	60	9524
2026-01-06 21:12:53.23	76.20	6.16	-44.3	-46.0	19.0	0.00e+00	90	31	101	1048576	60	9703
2026-01-06 21:12:57.27	75.80	6.39	-44.3	-45.9	19.1	0.00e+00	45	31	101	1048576	60	9587
2026-01-06 21:13:01.30	75.39	6.63	-44.2	-45.7	19.2	0.00e+00	92	31	101	1048576	60	9437
2026-01-06 21:13:05.32	74.98	6.86	-44.2	-45.8	19.2	0.00e+00	92	31	101	1048576	60	9496
2026-01-06 21:13:09.35	74.56	7.10	-43.9	-45.4	19.6	0.00e+00	92	31	101	1048576	60	9064
2026-01-06 21:13:13.37	74.13	7.34	-43.9	-45.4	19.6	0.00e+00	40	31	101	1048576	60	9128
2026-01-06 21:13:17.39	73.70	7.58	-44.0	-45.5	19.5	0.00e+00	92	31	101	1048576	60	9202
2026-01-06 21:13:21.42	73.25	7.82	-43.8	-45.3	19.7	0.00e+00	92	31	101	1048576	60	8983
2026-01-06 21:13:25.46	72.80	8.06	-43.8	-45.2	19.9	0.00e+00	92	31	101	1048576	60	8895
2026-01-06 21:13:29.49	72.34	8.30	-43.6	-45.0	20.1	0.00e+00	44	31	101	1048576	60	8681
2026-01-06 21:13:33.51	71.88	8.54	-43.1	-44.4	20.6	0.00e+00	93	31	101	1048576	60	8085
2026-01-06 21:13:37.53	71.40	8.78	-43.0	-44.3	20.8	0.00e+00	92	31	101	1048576	60	7978
2026-01-06 21:13:41.56	70.92	9.02	-42.9	-44.2	20.9	0.00e+00	90	31	101	1048576	60	7922
2026-01-06 21:13:45.59	70.43	9.26	-42.7	-44.0	20.9	0.00e+00	6	31	101	1048576	60	7729
2026-01-06 21:13:49.61	69.93	9.50	-42.7	-44.0	21.1	0.00e+00	91	31	101	1048576	60	7716
2026-01-06 21:13:53.64	69.42	9.74	-42.6	-43.8	21.2	0.00e+00	92	31	101	1048576	60	7583
2026-01-06 21:13:57.67	68.91	9.99	-42.6	-43.8	21.3	0.00e+00	80	31	101	1048576	60	7570
2026-01-06 21:14:01.70	68.38	10.23	-42.8	-44.0	21.1	0.00e+00	14	31	101	1048576	60	7754
2026-01-06 21:14:05.72	67.85	10.47	-42.8	-44.1	21.1	0.00e+00	92	31	101	1048576	60	7803
2026-01-06 21:14:09.75	67.31	10.71	-42.8	-44.1	21.1	0.00e+00	92	31	101	1048576	60	7814
2026-01-06 21:14:13.78	66.75	10.96	-42.9	-44.2	21.0	0.00e+00	82	31	101	1048576	60	7876
2026-01-06 21:14:17.81	66.19	11.20	-42.7	-43.9	21.2	0.00e+00	49	31	101	1048576	60	7627
2026-01-06 21:14:21.84	65.62	11.44	-42.7	-43.9	21.4	0.00e+00	90	31	101	1048576	60	7631
2026-01-06 21:14:25.87	65.04	11.68	-42.7	-43.9	21.3	0.00e+00	92	31	101	1048576	60	7631
2026-01-06 21:14:29.90	64.45	11.92	-42.8	-44.0	21.3	0.00e+00	0	31	101	1048576	60	7749
2026-01-06 21:14:33.92	63.85	12.16	-43.0	-44.2	21.0	0.00e+00	0	31	101	1048576	60	7941
2026-01-06 21:14:37.95	63.24	12.40	-42.9	-44.2	21.2	0.00e+00	90	31	101	1048576	60	7863
2026-01-06 21:14:41.98	62.62	12.64	-42.6	-43.8	21.4	0.00e+00	92	31	101	1048576	60	7561
2026-01-06 21:14:46.00	61.99	12.88	-42.6	-43.8	21.5	0.00e+00	49	31	101	1048576	60	7540
2026-01-06 21:14:50.05	61.35	13.11	-42.7	-43.9	21.4	0.00e+00	0	31	101	1048576	60	7604
2026-01-06 21:14:54.09	60.69	13.35	-42.4	-43.6	21.7	0.00e+00	92	31	101	1048576	60	7352
2026-01-06 21:14:58.13	60.03	13.58	-42.2	-43.3	21.9	0.00e+00	92	31	101	1048576	60	7166
2026-01-06 21:15:02.17	59.35	13.81	-41.9	-42.9	22.4	0.00e+00	50	31	101	1048576	60	6822
2026-01-06 21:15:06.21	58.67	14.04	-41.7	-42.7	22.5	0.00e+00	0	31	101	1048576	60	6680
2026-01-06 21:15:10.25	57.97	14.27	-41.5	-42.5	22.7	0.00e+00	90	31	101	1048576	60	6506
2026-01-06 21:15:14.29	57.27	14.50	-41.2	-42.2	23.0	0.00e+00	0	31	101	1048576	60	6281
2026-01-06 21:15:18.34	56.55	14.72	-41.1	-42.0	23.1	0.00e+00	0	31	101	1048576	60	6160
2026-01-06 21:15:22.38	55.82	14.94	-40.9	-41.9	23.3	0.00e+00	10	31	101	1048576	60	6064
2026-01-06 21:15:26.42	55.08	15.16	-40.6	-41.5	23.6	0.00e+00	92	31	101	1048576	60	5798
2026-01-06 21:15:30.47	54.33	15.38	-40.2	-41.1	24.0	0.00e+00	0	31	101	1048576	60	5553
2026-01-06 21:15:34.51	53.56	15.59	-40.1	-41.0	24.0	0.00e+00	5	31	101	1048576	58	6133
2026-01-06 21:15:38.55	52.79	15.80	-40.0	-40.9	24.1	0.00e+00	92	31	101	1048576	58	6060
2026-01-06 21:15:42.60	52.01	16.00	-40.2	-41.1	23.9	0.00e+00	92	31	101	1048576	58	6231
2026-01-06 21:15:46.64	51.21	16.20	-40.4	-41.4	23.7	0.00e+00	36	31	101	1048576	58	6399
2026-01-06 21:15:50.68	50.41	16.40	-40.6	-41.5	23.2	0.00e+00	37	31	101	1048576	58	6537
2026-01-06 21:15:54.73	49.59	16.60	-40.7	-41.6	23.5	0.00e+00	92	31	101	1048576	58	6578
2026-01-06 21:15:58.77	48.76	16.78	-40.4	-41.3	23.8	0.00e+00	92	31	101	1048576	58	6376
2026-01-06 21:16:02.81	47.93	16.97	-40.0	-40.9	24.1	0.00e+00	50	31	101	1048576	58	6078
2026-01-06 21:16:06.86	47.08	17.15	-39.6	-40.4	24.6	0.00e+00	0	31	101	1048576	58	5736
2026-01-06 21:16:10.90	46.22	17.32	-39.7	-40.6	24.4	0.00e+00	90	31	101	1048576	58	5847
2026-01-06 21:16:14.94	45.36	17.49	-39.8	-40.7	24.4	0.00e+00	92	31	101	1048576	58	5903
2026-01-06 21:16:18.99	44.48	17.65	-39.8	-40.7	24.3	0.00e+00	0	31	101	1048576	58	5917
2026-01-06 21:16:23.03	43.59	17.81	-39.7	-40.5	24.5	0.00e+00	10	31	101	1048576	58	5804
2026-01-06 21:16:27.07	42.70	17.96	-39.4	-40.3	24.7	0.00e+00	91	31	101	1048576	58	5638
2026-01-06 21:16:31.12	41.79	18.10	-39.7	-40.6	24.4	0.00e+00	0	31	101	1048576	58	5856
2026-01-06 21:16:35.16	40.88	18.24	-40.1	-41.0	24.1	0.00e+00	0	31	101	1048576	58	6131
2026-01-06 21:16:39.20	39.96	18.37	-39.9	-40.7	24.3	0.00e+00	92	31	101	1048576	58	5955
2026-01-06 21:16:43.25	39.03	18.49	-39.9	-40.7	24.3	0.00e+00	0	31	101	1048576	58	5947
2026-01-06 21:16:47.29	38.10	18.61	-40.4	-41.3	23.8	0.00e+00	0	31	101	1048576	58	6364
2026-01-06 21:16:51.33	37.15	18.72	-40.7	-41.6	23.6	0.00e+00	0	31	101	1048576	58	6585
2026-01-06 21:16:55.37	36.21	18.82	-40.7	-41.6	23.6	0.00e+00	90	31	101	1048576	58	6566
2026-01-06 21:16:59.42	35.25	18.91	-40.8	-41.7	23.5	0.00e+00	0	31	101	1048576	58	6675
2026-01-06 21:17:03.46	34.29	18.99	-40.8	-41.7	23.5	0.00e+00	30	31	101	1048576	58	6688
2026-01-06 21:17:07.50	33.32	19.07	-41.3	-42.3	23.1	0.00e+00	0	31	101	1048576	60	6376
2026-01-06 21:17:11.55	32.35	19.14	-41.6	-42.6	22.7	0.00e+00	92	31	101	1048576	60	6608
2026-01-06 21:17:15.59	31.38	19.20	-41.3	-42.2	23.1	0.00e+00	49	31	101	1048576	60	6313
2026-01-06 21:17:19.63	30.40	19.25	-41.5	-42.5	22.9	0.00e+00	37	31	101	1048576	60	6498
2026-01-06 21:17:23.67	29.42	19.29	-41.4	-42.4	22.9	0.00e+00	39	31	101	1048576	60	6424
2026-01-06 21:17:27.72	28.44	19.33	-41.5	-42.5	22.8	0.00e+00	92	31	101	1048576	60	6528
2026-01-06 21:17:31.76	27.45	19.35	-41.3	-42.3	23.0	0.00e+00	51	31	101	1048576	60	6339
2026-01-06 21:17:35.81	26.46	19.37	-41.3	-42.3	23.0	0.00e+00	32	31	101	1048576	60	6360
2026-01-06 21:17:39.85	25.48	19.38	-41.3	-42.3	23.0	0.00e+00	31	31	101	1048576	60	6354
2026-01-06 21:17:43.89	24.49	19.37	-40.7	-41.6	23.6	0.00e+00	92	31	101	1048576	60	5886
2026-01-06 21:17:47.94	23.50	19.36	-40.6	-41.5	23.8	0.00e+00	2	31	101	1048576	60	5780
2026-01-06 21:17:51.98	22.52	19.34	-40.7	-41.6	23.7	0.00e+00	50	31	101	1048576	60	5843
2026-01-06 21:17:56.03	21.53	19.32	-40.3	-41.1	24.1	0.00e+00	92	31	101	1048576	60	5553
2026-01-06 21:18:00.07	20.55	19.28	-40.1	-41.0	24.2	0.00e+00	67	31	101	1048576	58	6136
2026-01-06 21:18:04.11	19.57	19.23	-39.9	-40.8	24.4	0.00e+00	0	31	101	1048576	58	5972
2026-01-06 21:18:08.15	18.60	19.18	-39.8	-40.7	24.4	0.00e+00	51	32	101	1048576	58	5904
2026-01-06 21:18:12.20	17.62	19.12	-39.4	-40.2	24.8	0.00e+00	92	31	101	1048576	58	5590
2026-01-06 21:18:16.24	16.65	19.05	-39.3	-40.1	24.7	0.00e+00	30	31	101	1048576	58	5547
2026-01-06 21:18:20.27	15.69	18.97	-39.5	-40.3	24.7	0.00e+00	29	31	101	1048576	58	5692
2026-01-06 21:18:24.30	14.74	18.88	-39.5	-40.3	24.7	0.00e+00	0	31	101	1048576	58	5682
2026-01-06 21:18:28.33	13.79	18.78	-39.8	-40.7	24.4	0.00e+00	92	31	101	1048576	58	5909
2026-01-06 21:18:32.35	12.85	18.68	-40.0	-40.9	24.2	0.00e+00	0	31	101	1048576	58	6062
2026-01-06 21:18:36.37	11.92	18.57	-40.1	-41.0	24.1	0.00e+00	0	31	101	1048576	58	6144
2026-01-06 21:18:40.40	10.99	18.45	-40.6	-41.5	23.7	0.00e+00	45	32	101	1048576	58	6522
2026-01-06 21:18:44.43	10.07	18.33	-40.5	-41.4	23.8	0.00e+00	91	31	101	1048576	58	6448
2026-01-06 21:18:48.46	9.15	18.20	-40.8	-41.7	23.5	0.00e+00	32	31	101	1048576	58	6691
2026-01-06 21:18:52.48	8.25	18.06	-40.8	-41.7	23.5	0.00e+00	33	31	101	1048576	58	6649
2026-01-06 21:18:56.51	7.35	17.91	-40.6	-41.5	23.7	0.00e+00	0	31	101	1048576	58	6508
2026-01-06 21:19:00.53	6.47	17.76	-40.6	-41.5	23.6	0.00e+00	92	31	101	1048576	58	6520
2026-01-06 21:19:04.56	5.59	17.61	-40.5	-41.5	23.7	0.00e+00	50	31	101	1048576	58	6467
2026-01-06 21:19:08.59	4.72	17.44	-40.8	-41.8	23.4	0.00e+00	0	31	101	1048576	58	6711
2026-01-06 21:19:12.61	3.86	17.27	-40.8	-41.8	23.4	0.00e+00	42	31	101	1048576	58	6697
2026-01-06 21:19:16.63	3.01	17.10	-41.3	-42.2	23.1	0.00e+00	92	31	101	1048576	60	6317
2026-01-06 21:19:20.65	2.17	16.92	-41.3	-42.3	23.1	0.00e+00	6	32	101	1048576	60	6363
2026-01-06 21:19:24.68	1.35	16.74	-41.3	-42.3	23.1	0.00e+00	37	31	101	1048576	60	6319
2026-01-06 21:19:28.71	0.53	16.55	-41.5	-42.5	22.8	0.00e+00	5	31	101	1048576	60	6483
2026-01-06 21:19:32.73	359.72	16.36	-41.6	-42.7	22.7	0.00e+00	90	31	101	1048576	60	6627
2026-01-06 21:19:36.76	358.92	16.16	-41.5	-42.5	22.9	0.00e+00	0	31	101	1048576	60	6522
2026-01-06 21:19:40.78	358.14	15.96	-41.5	-42.5	22.8	0.00e+00	44	31	101	1048576	60	6532
2026-01-06 21:19:44.81	357.36	15.75	-41.6	-42.6	22.7	0.00e+00	31	32	101	1048576	60	6588
2026-01-06 21:19:48.83	356.59	15.55	-41.7	-42.7	22.6	0.00e+00	92	31	101	1048576	60	6686
2026-01-06 21:19:52.85	355.84	15.33	-41.4	-42.4	22.9	0.00e+00	32	31	101	1048576	60	6456
2026-01-06 21:19:56.88	355.10	15.12	-41.4	-42.4	22.8	0.00e+00	0	31	101	1048576	60	6448
2026-01-06 21:20:00.90	354.37	14.90	-42.0	-43.1	22.2	0.00e+00	0	31	101	1048576	60	6984
2026-01-06 21:20:04.93	353.64	14.68	-42.1	-43.3	22.0	0.00e+00	92	31	101	1048576	60	7097
2026-01-06 21:20:08.95	352.93	14.46	-42.4	-43.6	21.8	0.00e+00	0	31	101	1048576	60	7340
2026-01-06 21:20:12.97	352.23	14.23	-42.3	-43.4	22.0	0.00e+00	0	31	101	1048576	60	7211
2026-01-06 21:20:17.00	351.54	14.01	-42.3	-43.4	22.0	0.00e+00	0	31	101	1048576	60	7175
2026-01-06 21:20:21.02	350.87	13.78	-42.4	-43.6	21.8	0.00e+00	92	32	101	1048576	60	7357
2026-01-06 21:20:25.05	350.20	13.55	-42.2	-43.3	22.0	0.00e+00	2	32	101	1048576	60	7135
2026-01-06 21:20:29.07	349.54	13.31	-41.7	-42.7	22.6	0.00e+00	0	32	101	1048576	60	6657
2026-01-06 21:20:33.09	348.90	13.08	-41.6	-42.6	22.6	0.00e+00	35	31	101	1048576	60	6588
2026-01-06 21:20:37.12	348.26	12.85	-41.5	-42.5	22.7	0.00e+00	92	32	101	1048576	60	6502
2026-01-06 21:20:41.15	347.63	12.61	-41.5	-42.5	22.6	0.00e+00	0	31	101	1048576	60	6518
2026-01-06 21:20:45.18	347.02	12.37	-41.1	-42.1	22.9	0.00e+00	49	31	101	1048576	60	6231
2026-01-06 21:20:49.20	346.41	12.13	-40.8	-41.8	23.3	0.00e+00	16	32	101	1048576	60	5986
2026-01-06 21:20:53.23	345.81	11.89	-40.7	-41.7	23.4	0.00e+00	90	32	101	1048576	60	5935
2026-01-06 21:20:57.26	345.23	11.65	-40.7	-41.6	23.4	0.00e+00	2	31	101	1048576	60	5881
2026-01-06 21:21:01.28	344.65	11.41	-40.4	-41.4	23.6	0.00e+00	34	32	101	1048576	60	5723
2026-01-06 21:21:05.31	344.09	11.17	-40.5	-41.4	23.5	0.00e+00	28	32	101	1048576	60	5755
2026-01-06 21:21:09.33	343.53	10.93	-40.5	-41.5	23.5	0.00e+00	92	31	101	1048576	60	5771
2026-01-06 21:21:13.36	342.98	10.69	-40.7	-41.7	23.3	0.00e+00	0	32	101	1048576	60	5926
2026-01-06 21:21:17.39	342.44	10.45	-40.9	-41.9	23.1	0.00e+00	47	31	101	1048576	60	6085
2026-01-06 21:21:21.42	341.91	10.21	-41.3	-42.3	22.7	0.00e+00	92	31	101	1048576	60	6347
2026-01-06 21:21:25.44	341.39	9.96	-41.2	-42.3	22.8	0.00e+00	92	32	101	1048576	60	6318
2026-01-06 21:21:29.46	340.88	9.72	-41.1	-42.1	22.9	0.00e+00	36	32	101	1048576	60	6202
2026-01-06 21:21:33.49	340.38	9.48	-41.2	-42.2	22.7	0.00e+00	5	31	101	1048576	60	6296
2026-01-06 21:21:37.51	339.88	9.24	-41.2	-42.2	22.7	0.00e+00	91	31	101	1048576	60	6316
2026-01-06 21:21:41.53	339.40	9.00	-41.4	-42.5	22.4	0.00e+00	90	32	101	1048576	60	6517
2026-01-06 21:21:45.56	338.92	8.76	-41.8	-42.9	22.2	0.00e+00	0	32	101	1048576	60	6790
2026-01-06 21:21:49.59	338.45	8.52	-41.8	-42.9	22.0	0.00e+00	46	32	101	1048576	60	6843
2026-01-06 21:21:53.61	337.98	8.28	-42.1	-43.3	21.8	0.00e+00	44	32	101	1048576	60	7090
2026-01-06 21:21:57.63	337.53	8.04	-42.4	-43.6	21.5	0.00e+00	93	31	101	1048576	60	7342
2026-01-06 21:22:01.67	337.08	7.80	-42.6	-43.8	21.1	0.00e+00	0	32	101	1048576	60	7567
2026-01-06 21:22:05.71	336.64	7.56	-42.7	-44.0	21.0	0.00e+00	0	32	101	1048576	60	7725
2026-01-06 21:22:09.76	336.21	7.32	-42.8	-44.1	20.8	0.00e+00	92	31	101	1048576	60	7835
2026-01-06 21:22:13.80	335.78	7.08	-42.8	-44.1	20.8	0.00e+00	36	32	101	1048576	60	7819
2026-01-06 21:22:17.84	335.36	6.85	-43.0	-44.3	20.5	0.00e+00	36	32	101	1048576	60	8024
2026-01-06 21:22:21.89	334.95	6.61	-43.0	-44.3	20.5	0.00e+00	0	32	101	1048576	60	7992
2026-01-06 21:22:25.93	334.54	6.37	-43.1	-44.6	19.9	0.00e+00	92	32	101	1048576	60	8238
2026-01-06 21:22:29.97	334.14	6.14	-43.7	-45.3	19.0	0.00e+00	44	32	101	1048576	60	9016
2026-01-06 21:22:34.02	333.75	5.91	-44.2	-46.1	18.2	0.00e+00	38	32	101	1048576	60	9799
2026-01-06 21:22:38.06	333.36	5.67	-44.6	-46.6	17.6	0.00e+00	36	31	101	1048576	60	10365
2026-01-06 21:22:42.10	332.99	5.44	-44.6	-46.6	17.5	0.00e+00	92	31	101	1048576	60	10397
2026-01-06 21:22:46.14	332.61	5.21	-44.6	-46.5	17.6	0.00e+00	0	31	101	1048576	60	10349
2026-01-06 21:22:50.18	332.25	4.98	-44.5	-46.5	17.8	0.00e+00	2	32	101	1048576	60	10255
2026-01-06 21:22:54.22	331.88	4.75	-44.5	-46.4	18.0	0.00e+00	42	31	101	1048576	60	10203
2026-01-06 21:22:58.26	331.53	4.52	-44.4	-46.2	18.2	0.00e+00	90	31	101	1048576	60	9969
2026-01-06 21:23:02.31	331.18	4.29	-44.1	-45.8	18.7	0.00e+00	0	32	101	1048576	60	9559
2026-01-06 21:23:06.35	330.83	4.06	-44.1	-45.8	18.6	0.00e+00	2	32	101	1048576	60	9497
2026-01-06 21:23:10.40	330.50	3.84	-44.4	-46.3	18.0	0.00e+00	92	32	101	1048576	60	10021
2026-01-06 21:23:14.44	330.16	3.61	-44.8	-46.8	17.2	0.00e+00	0	32	101	1048576	60	10727
2026-01-06 21:23:18.49	329.83	3.39	-45.1	-47.4	16.3	0.00e+00	5	32	101	1048576	60	11436
2026-01-06 21:23:22.53	329.51	3.17	-45.4	-48.1	15.4	0.00e+00	0	32	101	1048576	60	12428
2026-01-06 21:23:26.57	329.19	2.94	-51.1	-66.5	3.6	1.51e+00	0	32	104	1048576	60	102993
2026-01-06 21:23:30.62	328.88	2.72	-51.6	-67.0	3.6	1.51e+00	0	32	104	1048576	60	109217
2026-01-06 21:23:34.66	328.57	2.50	-51.6	-67.0	3.6	1.51e+00	0	32	104	1048576	60	108850
2026-01-06 21:23:38.71	328.27	2.28	-51.5	-66.9	3.6	1.51e+00	0	32	104	1048576	60	107571
2026-01-06 21:23:42.75	327.97	2.06	-51.6	-67.0	3.6	1.51e+00	0	32	104	1048576	60	108770
2026-01-06 21:23:46.79	327.68	1.84	-51.5	-66.9	3.6	1.51e+00	0	32	104	1048576	60	107535
2026-01-06 21:23:50.84	327.39	1.63	-51.5	-66.9	3.5	1.51e+00	0	32	104	1048576	60	107769
2026-01-06 21:23:54.88	327.10	1.41	-51.5	-66.9	3.6	1.51e+00	0	32	104	1048576	60	107885
2026-01-06 21:23:58.93	326.82	1.20	-51.5	-66.9	3.6	1.51e+00	0	32	104	1048576	60	108445
2026-01-06 21:24:02.97	326.55	0.98	-51.5	-66.9	3.6	1.51e+00	0	32	104	1048576	60	107431
2026-01-06 21:24:07.01	326.28	0.77	-51.5	-66.9	3.6	1.51e+00	0	32	104	1048576	60	107627
2026-01-06 21:24:11.05	326.01	0.56	-51.5	-66.9	3.6	1.51e+00	0	32	104	1048576	60	107349
2026-01-06 21:24:15.09	325.74	0.35	-51.5	-66.9	3.6	1.51e+00	0	32	104	1048576	60	107875
2026-01-06 21:24:19.14	325.48	0.14	-51.5	-66.9	3.6	1.51e+00	0	32	104	1048576	60	107511
2026-01-06 21:24:23.18	325.23	-0.07	-51.5	-66.8	3.6	1.51e+00	0	32	104	1048576	60	107015

#Closed at: 2026-01-06 21:24:24
#Recorded file [1 MB]: D:/lorett/data/35034_260107_001104.dat