passes_logs/2026/01/06/R4.6S_Anadyr_2ch/R4.6S_Anadyr_2ch__20260106_152347_NOAA_21_JPSS-2_rec.log

#Pass ID: 20260106_152347_NOAA 21 (JPSS-2)
#Satellite: NOAA 21 (JPSS-2)
#Configuration: NOAA-21
#almurnet v.1.7.20251203
#Start time: 2026-01-06 15:23:48

#Version: 2.2.20231116
#Station: R4.6S_Anadyr_2ch
#Location: 177.4865 lon 64.73178 lat
#TLE: 1 54234U 22150A   25350.97269056  .00000057  00000+0  47676-4 0  9992
#TLE: 2 54234  98.7466 287.2282 0002043  29.8355 330.2937 14.19525482160692

#Time	Az	El	Level	Level2	SNR	BER	BlckErr	Temp	State	Recorded	gain1	gain2
2026-01-06 15:23:48.81	22.15	0.08	-51.2	-66.3	3.5	1.51e+00	0	30	0	0	60	100239
2026-01-06 15:23:52.84	22.10	0.32	-51.2	-64.2	3.5	1.52e+00	0	32	104	0	60	76467
2026-01-06 15:23:56.87	22.04	0.56	-51.2	-64.2	3.5	1.52e+00	0	32	104	0	60	76378
2026-01-06 15:24:00.89	21.98	0.81	-50.8	-63.7	3.5	1.52e+00	0	32	104	0	60	72461
2026-01-06 15:24:04.93	21.92	1.05	-49.8	-62.7	3.5	1.52e+00	0	32	104	0	60	64722
2026-01-06 15:24:08.95	21.85	1.30	-49.7	-62.7	3.5	1.52e+00	0	32	104	0	60	64289
2026-01-06 15:24:12.95	21.79	1.55	-49.7	-62.3	3.5	1.52e+00	0	32	104	0	60	61758
2026-01-06 15:24:16.98	21.72	1.80	-49.7	-62.3	3.5	1.52e+00	0	32	104	0	60	61370
2026-01-06 15:24:21.01	21.66	2.05	-49.7	-62.7	3.5	1.52e+00	0	32	104	0	60	64291
2026-01-06 15:24:25.05	21.59	2.31	-49.7	-62.3	3.5	1.52e+00	0	33	104	0	60	61958
2026-01-06 15:24:29.07	21.52	2.57	-49.6	-61.5	3.5	1.51e+00	0	33	104	0	60	56062
2026-01-06 15:24:33.09	21.45	2.83	-49.6	-61.9	3.5	1.52e+00	0	33	104	0	60	58724
2026-01-06 15:24:37.12	21.37	3.09	-49.3	-58.6	4.5	1.47e+00	123	33	104	0	60	40414
2026-01-06 15:24:41.15	21.30	3.36	-47.6	-51.6	10.0	1.09e-02	120	33	102	1048576	60	18000
2026-01-06 15:24:45.17	21.22	3.63	-47.4	-51.2	10.4	3.18e-03	123	33	102	1048576	60	17214
2026-01-06 15:24:49.20	21.14	3.90	-49.6	-61.8	3.5	1.51e+00	0	33	104	1048576	60	58000
2026-01-06 15:24:53.24	21.06	4.17	-40.0	-41.1	20.7	0.00e+00	123	33	0	1048576	58	6054
2026-01-06 15:24:57.28	20.98	4.45	-39.9	-41.1	20.8	0.00e+00	123	33	0	1048576	58	6008
2026-01-06 15:25:01.31	20.90	4.73	-39.7	-40.8	21.2	0.00e+00	122	33	0	1048576	58	5834
2026-01-06 15:25:05.34	20.81	5.01	-39.6	-40.7	21.3	0.00e+00	123	33	101	1048576	58	5753
2026-01-06 15:25:09.37	20.72	5.30	-39.5	-40.6	21.4	0.00e+00	124	33	101	1048576	58	5690
2026-01-06 15:25:13.39	20.63	5.59	-39.4	-40.5	21.5	0.00e+00	123	33	101	1048576	58	5602
2026-01-06 15:25:17.42	20.54	5.88	-39.3	-40.3	21.7	0.00e+00	123	33	101	1048576	58	5524
2026-01-06 15:25:21.44	20.45	6.17	-39.2	-40.2	21.8	0.00e+00	123	33	101	1048576	56	6110
2026-01-06 15:25:25.46	20.35	6.47	-39.1	-40.1	21.9	0.00e+00	123	33	101	1048576	56	6045
2026-01-06 15:25:29.48	20.25	6.77	-39.1	-40.2	22.0	0.00e+00	123	33	101	1048576	56	6067
2026-01-06 15:25:33.51	20.15	7.07	-39.0	-40.1	22.1	0.00e+00	123	33	101	1048576	56	6008
2026-01-06 15:25:37.54	20.05	7.38	-38.8	-39.9	22.2	0.00e+00	123	33	101	1048576	56	5881
2026-01-06 15:25:41.56	19.94	7.69	-38.8	-39.9	22.4	0.00e+00	123	33	101	1048576	56	5859
2026-01-06 15:25:45.61	19.83	8.01	-38.6	-39.6	22.6	0.00e+00	123	33	101	1048576	56	5717
2026-01-06 15:25:49.64	19.72	8.33	-38.4	-39.4	22.7	0.00e+00	121	33	101	1048576	56	5589
2026-01-06 15:25:53.68	19.61	8.65	-38.3	-39.3	22.8	0.00e+00	123	33	101	1048576	56	5523
2026-01-06 15:25:57.72	19.49	8.98	-38.2	-39.2	23.0	0.00e+00	123	33	101	1048576	56	5423
2026-01-06 15:26:01.76	19.37	9.31	-38.1	-39.1	23.0	0.00e+00	122	33	101	1048576	54	6038
2026-01-06 15:26:05.80	19.24	9.65	-38.1	-39.1	23.0	0.00e+00	123	33	101	1048576	54	6034
2026-01-06 15:26:09.84	19.11	9.99	-38.0	-39.0	23.1	0.00e+00	122	33	101	1048576	54	5971
2026-01-06 15:26:13.88	18.98	10.34	-37.5	-38.5	23.5	0.00e+00	122	33	101	1048576	54	5602
2026-01-06 15:26:17.93	18.85	10.69	-37.6	-38.5	23.5	0.00e+00	123	33	101	1048576	54	5651
2026-01-06 15:26:21.97	18.71	11.04	-37.5	-38.4	23.6	0.00e+00	123	33	101	1048576	54	5573
2026-01-06 15:26:26.01	18.57	11.40	-37.3	-38.2	23.8	0.00e+00	123	33	101	1048576	54	5458
2026-01-06 15:26:30.04	18.42	11.77	-37.2	-38.2	23.9	0.00e+00	120	33	101	1048576	52	6086
2026-01-06 15:26:34.09	18.27	12.14	-37.2	-38.1	24.0	0.00e+00	121	33	101	1048576	52	6060
2026-01-06 15:26:38.13	18.12	12.52	-37.0	-37.9	24.2	0.00e+00	122	33	101	1048576	52	5888
2026-01-06 15:26:42.18	17.96	12.90	-37.0	-37.9	24.1	0.00e+00	122	33	101	1048576	52	5884
2026-01-06 15:26:46.22	17.80	13.29	-36.9	-37.8	24.2	0.00e+00	123	33	101	1048576	52	5797
2026-01-06 15:26:50.26	17.63	13.68	-37.0	-37.9	24.2	0.00e+00	122	33	101	1048576	52	5885
2026-01-06 15:26:54.30	17.45	14.08	-36.9	-37.8	24.2	0.00e+00	122	33	101	1048576	52	5819
2026-01-06 15:26:58.34	17.28	14.49	-37.0	-37.9	24.2	0.00e+00	122	33	101	1048576	52	5868
2026-01-06 15:27:02.38	17.09	14.90	-37.0	-38.0	24.1	0.00e+00	122	33	101	1048576	52	5931
2026-01-06 15:27:06.42	16.90	15.32	-36.9	-37.8	24.2	0.00e+00	122	33	101	1048576	52	5856
2026-01-06 15:27:10.46	16.71	15.75	-37.1	-38.0	24.0	0.00e+00	123	33	101	1048576	52	5973
2026-01-06 15:27:14.51	16.50	16.19	-36.9	-37.9	24.2	0.00e+00	123	33	101	1048576	52	5865
2026-01-06 15:27:18.55	16.30	16.63	-37.2	-38.1	24.1	0.00e+00	122	33	101	1048576	52	6024
2026-01-06 15:27:22.59	16.08	17.08	-37.1	-38.0	24.1	0.00e+00	122	33	101	1048576	52	5977
2026-01-06 15:27:26.63	15.86	17.53	-37.1	-38.0	24.2	0.00e+00	122	33	101	1048576	52	5967
2026-01-06 15:27:30.68	15.63	18.00	-37.0	-37.9	24.2	0.00e+00	122	33	101	1048576	52	5889
2026-01-06 15:27:34.71	15.39	18.47	-37.0	-37.9	24.2	0.00e+00	123	33	101	1048576	52	5907
2026-01-06 15:27:38.76	15.15	18.96	-37.0	-37.9	24.2	0.00e+00	122	33	101	1048576	52	5922
2026-01-06 15:27:42.80	14.89	19.45	-36.9	-37.8	24.3	0.00e+00	122	33	101	1048576	52	5813
2026-01-06 15:27:46.85	14.63	19.95	-36.9	-37.8	24.2	0.00e+00	123	33	101	1048576	52	5829
2026-01-06 15:27:50.89	14.36	20.46	-36.5	-37.4	24.6	0.00e+00	120	33	101	1048576	52	5588
2026-01-06 15:27:54.93	14.08	20.98	-36.6	-37.5	24.5	0.00e+00	123	33	101	1048576	52	5614
2026-01-06 15:27:58.97	13.79	21.51	-36.1	-37.0	25.0	0.00e+00	123	33	101	1048576	50	5930
2026-01-06 15:28:03.01	13.48	22.05	-35.8	-36.7	25.1	0.00e+00	122	33	101	1048576	50	5758
2026-01-06 15:28:07.06	13.17	22.61	-35.5	-36.4	25.4	0.00e+00	122	33	101	1048576	50	5534
2026-01-06 15:28:11.10	12.84	23.17	-35.5	-36.4	25.3	0.00e+00	123	33	101	1048576	50	5564
2026-01-06 15:28:15.14	12.50	23.74	-35.5	-36.3	25.4	0.00e+00	123	33	101	1048576	50	5511
2026-01-06 15:28:19.18	12.15	24.33	-35.7	-36.5	25.3	0.00e+00	120	33	101	1048576	50	5638
2026-01-06 15:28:23.23	11.79	24.93	-36.0	-36.9	25.0	0.00e+00	123	33	101	1048576	50	5887
2026-01-06 15:28:27.27	11.40	25.54	-36.2	-37.1	24.9	0.00e+00	123	33	101	1048576	50	6006
2026-01-06 15:28:31.31	11.01	26.16	-36.5	-37.4	24.7	0.00e+00	123	33	101	1048576	50	6234
2026-01-06 15:28:35.36	10.59	26.80	-37.1	-38.0	24.2	0.00e+00	123	33	101	1048576	50	6677
2026-01-06 15:28:39.40	10.16	27.45	-37.2	-38.1	24.2	0.00e+00	123	33	101	1048576	52	6048
2026-01-06 15:28:43.45	9.71	28.12	-37.2	-38.1	24.3	0.00e+00	122	33	101	1048576	52	6015
2026-01-06 15:28:47.49	9.24	28.80	-37.2	-38.1	24.3	0.00e+00	123	34	101	1048576	52	6003
2026-01-06 15:28:51.53	8.75	29.49	-36.9	-37.8	24.5	0.00e+00	123	33	101	1048576	52	5792
2026-01-06 15:28:55.57	8.24	30.20	-36.5	-37.4	24.8	0.00e+00	121	33	101	1048576	52	5558
2026-01-06 15:28:59.62	7.70	30.92	-35.9	-36.8	25.2	0.00e+00	122	33	101	1048576	50	5806
2026-01-06 15:29:03.66	7.14	31.66	-36.2	-37.1	25.0	0.00e+00	122	33	101	1048576	50	6010
2026-01-06 15:29:07.70	6.55	32.41	-36.6	-37.5	24.7	0.00e+00	123	33	101	1048576	50	6301
2026-01-06 15:29:11.74	5.93	33.18	-36.8	-37.7	24.5	0.00e+00	122	33	101	1048576	50	6432
2026-01-06 15:29:15.78	5.28	33.97	-37.0	-37.9	24.3	0.00e+00	120	33	101	1048576	50	6579
2026-01-06 15:29:19.80	4.60	34.76	-37.7	-38.6	23.9	0.00e+00	120	33	101	1048576	52	6414
2026-01-06 15:29:23.83	3.89	35.58	-38.4	-39.4	23.2	0.00e+00	122	33	101	1048576	54	6221
2026-01-06 15:29:27.85	3.13	36.41	-38.6	-39.6	23.1	0.00e+00	120	33	101	1048576	54	6387
2026-01-06 15:29:31.88	2.34	37.25	-38.5	-39.4	23.2	0.00e+00	121	33	101	1048576	54	6258
2026-01-06 15:29:35.90	1.50	38.11	-38.6	-39.5	23.1	0.00e+00	123	33	101	1048576	54	6337
2026-01-06 15:29:39.93	0.62	38.99	-38.7	-39.7	23.0	0.00e+00	123	33	101	1048576	54	6426
2026-01-06 15:29:43.96	359.69	39.88	-38.5	-39.4	23.3	0.00e+00	120	33	101	1048576	54	6270
2026-01-06 15:29:47.99	358.70	40.78	-37.6	-38.5	23.9	0.00e+00	124	33	101	1048576	54	5642
2026-01-06 15:29:52.02	357.65	41.70	-38.9	-39.9	22.8	0.00e+00	123	33	101	1048576	54	6645
2026-01-06 15:29:56.05	356.54	42.63	-39.9	-41.0	22.0	0.00e+00	123	33	101	1048576	56	6683
2026-01-06 15:30:00.09	355.36	43.57	-39.7	-40.7	22.2	0.00e+00	123	33	101	1048576	56	6488
2026-01-06 15:30:04.11	354.12	44.52	-39.3	-40.3	22.5	0.00e+00	120	33	101	1048576	56	6178
2026-01-06 15:30:08.15	352.79	45.47	-38.6	-39.5	23.2	0.00e+00	120	33	101	1048576	56	5654
2026-01-06 15:30:12.18	351.38	46.43	-38.6	-39.6	23.1	0.00e+00	123	33	101	1048576	56	5694
2026-01-06 15:30:16.21	349.88	47.39	-38.8	-39.8	22.8	0.00e+00	123	33	101	1048576	56	5801
2026-01-06 15:30:20.23	348.29	48.35	-39.3	-40.3	22.3	0.00e+00	122	33	101	1048576	56	6200
2026-01-06 15:30:24.26	346.59	49.30	-38.8	-39.8	22.8	0.00e+00	122	33	101	1048576	56	5844
2026-01-06 15:30:28.28	344.79	50.25	-38.8	-39.9	23.0	0.00e+00	123	33	101	1048576	56	5861
2026-01-06 15:30:32.31	342.86	51.18	-38.8	-39.9	22.9	0.00e+00	123	33	101	1048576	56	5869
2026-01-06 15:30:36.33	340.82	52.10	-37.9	-38.9	23.7	0.00e+00	123	33	101	1048576	54	5870
2026-01-06 15:30:40.37	338.64	52.99	-38.1	-39.0	23.6	0.00e+00	123	33	101	1048576	54	5984
2026-01-06 15:30:44.39	336.33	53.85	-37.8	-38.8	23.7	0.00e+00	120	33	101	1048576	52	6521
2026-01-06 15:30:48.42	333.88	54.68	-37.6	-38.6	23.6	0.00e+00	122	33	101	1048576	52	6401
2026-01-06 15:30:52.46	331.28	55.46	-37.4	-38.4	24.1	0.00e+00	120	33	101	1048576	52	6224
2026-01-06 15:30:56.49	328.54	56.19	-36.9	-37.8	24.4	0.00e+00	123	33	101	1048576	52	5812
2026-01-06 15:31:00.51	325.66	56.86	-35.8	-36.7	25.2	0.00e+00	123	33	101	1048576	50	5731
2026-01-06 15:31:04.54	322.64	57.47	-36.0	-36.9	25.0	0.00e+00	122	33	101	1048576	50	5884
2026-01-06 15:31:08.56	319.49	58.00	-36.1	-37.0	24.9	0.00e+00	123	33	101	1048576	50	5982
2026-01-06 15:31:12.59	316.22	58.45	-36.2	-37.1	24.9	0.00e+00	123	33	101	1048576	50	6040
2026-01-06 15:31:16.62	312.85	58.82	-36.2	-37.2	24.6	0.00e+00	122	33	101	1048576	50	6082
2026-01-06 15:31:20.65	309.39	59.09	-36.4	-37.3	24.5	0.00e+00	120	33	101	1048576	50	6157
2026-01-06 15:31:24.69	305.87	59.27	-36.6	-37.5	24.6	0.00e+00	123	33	101	1048576	50	6344
2026-01-06 15:31:28.71	302.33	59.35	-35.7	-36.5	25.3	0.00e+00	121	33	101	1048576	50	5637
2026-01-06 15:31:32.74	298.77	59.32	-35.1	-36.0	25.5	0.00e+00	123	33	101	1048576	50	5317
2026-01-06 15:31:36.77	295.23	59.20	-36.2	-37.1	25.0	0.00e+00	123	33	101	1048576	50	6036
2026-01-06 15:31:40.80	291.74	58.97	-36.0	-36.8	25.2	0.00e+00	120	33	101	1048576	50	5851
2026-01-06 15:31:44.83	288.32	58.65	-36.3	-37.2	24.4	0.00e+00	123	33	101	1048576	50	6112
2026-01-06 15:31:48.86	284.99	58.24	-36.4	-37.4	24.5	0.00e+00	121	33	101	1048576	50	6209
2026-01-06 15:31:52.88	281.78	57.75	-36.9	-37.8	24.5	0.00e+00	123	33	101	1048576	50	6566
2026-01-06 15:31:56.90	278.70	57.18	-36.6	-37.5	24.7	0.00e+00	121	33	101	1048576	50	6290
2026-01-06 15:32:00.93	275.74	56.54	-37.0	-37.9	24.3	0.00e+00	123	33	101	1048576	50	6621
2026-01-06 15:32:04.95	272.93	55.84	-37.7	-38.6	23.9	0.00e+00	120	33	101	1048576	52	6412
2026-01-06 15:32:08.99	270.25	55.07	-36.4	-37.2	24.8	0.00e+00	122	33	101	1048576	52	5454
2026-01-06 15:32:13.01	267.73	54.27	-38.2	-39.2	23.2	0.00e+00	122	33	101	1048576	54	6087
2026-01-06 15:32:17.03	265.35	53.43	-38.5	-39.5	22.4	0.00e+00	122	33	101	1048576	54	6349
2026-01-06 15:32:21.06	263.10	52.55	-37.8	-38.8	23.5	0.00e+00	123	33	101	1048576	54	5795
2026-01-06 15:32:25.08	260.99	51.64	-38.5	-39.5	23.0	0.00e+00	123	33	101	1048576	54	6278
2026-01-06 15:32:29.11	259.00	50.72	-39.4	-40.5	21.8	0.00e+00	123	33	101	1048576	58	5627
2026-01-06 15:32:33.14	257.13	49.77	-38.0	-39.0	23.6	0.00e+00	123	33	101	1048576	54	5930
2026-01-06 15:32:37.17	255.37	48.82	-40.6	-41.8	21.2	0.00e+00	122	33	101	1048576	60	5848
2026-01-06 15:32:41.19	253.72	47.86	-38.0	-38.9	23.6	0.00e+00	123	33	101	1048576	54	5892
2026-01-06 15:32:45.22	252.17	46.90	-40.2	-41.3	21.7	0.00e+00	122	33	101	1048576	58	6201
2026-01-06 15:32:49.24	250.72	45.94	-38.4	-39.4	23.2	0.00e+00	122	33	101	1048576	56	5558
2026-01-06 15:32:53.28	249.35	44.97	-39.0	-40.0	22.7	0.00e+00	122	33	101	1048576	54	6669
2026-01-06 15:32:57.32	248.05	44.02	-39.9	-41.0	21.9	0.00e+00	121	33	101	1048576	56	6694
2026-01-06 15:33:01.36	246.84	43.07	-38.6	-39.5	23.2	0.00e+00	122	33	101	1048576	56	5632
2026-01-06 15:33:05.40	245.69	42.13	-41.1	-42.4	20.5	0.00e+00	123	33	101	1048576	60	6238
2026-01-06 15:33:09.45	244.60	41.20	-39.1	-40.1	22.8	0.00e+00	122	33	101	1048576	56	6005
2026-01-06 15:33:13.49	243.58	40.28	-39.6	-40.6	22.4	0.00e+00	122	33	101	1048576	56	6415
2026-01-06 15:33:17.54	242.62	39.38	-39.7	-40.7	22.1	0.00e+00	122	33	101	1048576	56	6492
2026-01-06 15:33:21.58	241.70	38.49	-38.3	-39.3	23.1	0.00e+00	121	33	101	1048576	56	5495
2026-01-06 15:33:25.62	240.84	37.62	-38.1	-39.0	23.4	0.00e+00	122	33	101	1048576	54	5988
2026-01-06 15:33:29.66	240.02	36.76	-38.8	-39.8	23.0	0.00e+00	122	33	101	1048576	54	6520
2026-01-06 15:33:33.70	239.24	35.92	-38.0	-39.0	23.2	0.00e+00	123	33	101	1048576	54	5940
2026-01-06 15:33:37.75	238.50	35.09	-37.1	-38.0	24.3	0.00e+00	123	33	101	1048576	52	5927
2026-01-06 15:33:41.79	237.80	34.28	-37.3	-38.2	24.2	0.00e+00	120	33	101	1048576	52	6082
2026-01-06 15:33:45.83	237.14	33.48	-37.2	-38.1	24.3	0.00e+00	123	33	101	1048576	52	6052
2026-01-06 15:33:49.86	236.50	32.71	-36.6	-37.5	24.7	0.00e+00	123	33	101	1048576	52	5642
2026-01-06 15:33:53.91	235.90	31.94	-37.1	-38.0	24.1	0.00e+00	123	33	101	1048576	52	5967
2026-01-06 15:33:57.95	235.32	31.19	-37.1	-38.0	24.1	0.00e+00	120	33	101	1048576	52	5987
2026-01-06 15:34:02.00	234.77	30.46	-37.0	-37.9	24.2	0.00e+00	123	33	101	1048576	52	5924
2026-01-06 15:34:06.04	234.24	29.74	-37.0	-37.9	24.1	0.00e+00	123	33	101	1048576	52	5886
2026-01-06 15:34:10.08	233.74	29.04	-36.8	-37.8	24.4	0.00e+00	122	33	101	1048576	52	5806
2026-01-06 15:34:14.12	233.26	28.35	-36.5	-37.4	24.8	0.00e+00	123	33	101	1048576	52	5570
2026-01-06 15:34:18.16	232.80	27.68	-36.5	-37.5	24.7	0.00e+00	123	33	101	1048576	52	5603
2026-01-06 15:34:22.20	232.36	27.02	-36.3	-37.2	24.9	0.00e+00	123	33	101	1048576	50	6074
2026-01-06 15:34:26.25	231.93	26.38	-36.4	-37.2	24.8	0.00e+00	122	33	101	1048576	50	6128
2026-01-06 15:34:30.29	231.53	25.75	-36.4	-37.3	24.7	0.00e+00	120	33	101	1048576	50	6136
2026-01-06 15:34:34.33	231.14	25.13	-36.2	-37.1	24.9	0.00e+00	122	33	101	1048576	50	6010
2026-01-06 15:34:38.38	230.76	24.52	-36.0	-36.9	25.0	0.00e+00	123	33	101	1048576	50	5876
2026-01-06 15:34:42.42	230.40	23.93	-35.9	-36.8	25.0	0.00e+00	122	33	101	1048576	50	5833
2026-01-06 15:34:46.46	230.05	23.35	-35.9	-36.8	25.0	0.00e+00	120	33	101	1048576	50	5816
2026-01-06 15:34:50.50	229.72	22.78	-36.3	-37.1	24.9	0.00e+00	123	33	101	1048576	50	6049
2026-01-06 15:34:54.55	229.40	22.22	-36.4	-37.3	24.8	0.00e+00	123	33	101	1048576	50	6176
2026-01-06 15:34:58.59	229.09	21.67	-36.4	-37.3	24.8	0.00e+00	121	33	101	1048576	50	6147
2026-01-06 15:35:02.63	228.79	21.13	-36.3	-37.2	24.8	0.00e+00	123	33	101	1048576	50	6126
2026-01-06 15:35:06.67	228.50	20.61	-36.3	-37.2	24.8	0.00e+00	122	33	101	1048576	50	6099
2026-01-06 15:35:10.71	228.22	20.09	-36.5	-37.4	24.6	0.00e+00	122	33	101	1048576	50	6211
2026-01-06 15:35:14.75	227.95	19.58	-36.4	-37.4	24.6	0.00e+00	121	33	101	1048576	50	6206
2026-01-06 15:35:18.80	227.69	19.08	-36.4	-37.3	24.6	0.00e+00	122	33	101	1048576	50	6184
2026-01-06 15:35:22.84	227.44	18.60	-36.4	-37.3	24.5	0.00e+00	123	33	101	1048576	50	6193
2026-01-06 15:35:26.88	227.20	18.12	-36.4	-37.3	24.6	0.00e+00	123	33	101	1048576	50	6197
2026-01-06 15:35:30.92	226.96	17.65	-36.5	-37.4	24.6	0.00e+00	123	33	101	1048576	50	6242
2026-01-06 15:35:34.97	226.74	17.18	-36.6	-37.5	24.6	0.00e+00	122	33	101	1048576	50	6288
2026-01-06 15:35:39.01	226.52	16.73	-36.8	-37.7	24.4	0.00e+00	122	33	101	1048576	50	6424
2026-01-06 15:35:43.05	226.30	16.28	-37.0	-37.9	24.2	0.00e+00	122	33	101	1048576	50	6604
2026-01-06 15:35:47.09	226.10	15.84	-37.2	-38.1	24.0	0.00e+00	123	33	101	1048576	52	6059
2026-01-06 15:35:51.14	225.89	15.41	-37.2	-38.1	24.1	0.00e+00	122	33	101	1048576	52	6010
2026-01-06 15:35:55.18	225.70	14.99	-37.1	-38.0	24.0	0.00e+00	123	33	101	1048576	52	5994
2026-01-06 15:35:59.22	225.51	14.57	-37.1	-38.1	24.1	0.00e+00	122	33	101	1048576	52	5995
2026-01-06 15:36:03.26	225.33	14.16	-37.1	-38.0	24.1	0.00e+00	121	33	101	1048576	52	5944
2026-01-06 15:36:07.30	225.15	13.76	-37.2	-38.1	24.0	0.00e+00	123	33	101	1048576	52	6034
2026-01-06 15:36:11.34	224.98	13.36	-37.1	-38.0	24.0	0.00e+00	122	33	101	1048576	52	5983
2026-01-06 15:36:15.39	224.81	12.97	-37.2	-38.1	23.9	0.00e+00	120	33	101	1048576	52	6013
2026-01-06 15:36:19.43	224.64	12.58	-37.3	-38.2	23.9	0.00e+00	123	33	101	1048576	52	6083
2026-01-06 15:36:23.47	224.48	12.20	-37.3	-38.2	23.8	0.00e+00	122	33	101	1048576	52	6117
2026-01-06 15:36:27.51	224.33	11.83	-37.5	-38.4	23.8	0.00e+00	123	33	101	1048576	52	6256
2026-01-06 15:36:31.54	224.18	11.46	-37.5	-38.4	23.7	0.00e+00	123	33	101	1048576	52	6240
2026-01-06 15:36:35.57	224.03	11.10	-37.7	-38.6	23.5	0.00e+00	120	33	101	1048576	52	6389
2026-01-06 15:36:39.59	223.89	10.74	-37.8	-38.8	23.3	0.00e+00	122	33	101	1048576	52	6527
2026-01-06 15:36:43.62	223.75	10.39	-37.9	-38.8	23.2	0.00e+00	123	33	101	1048576	52	6572
2026-01-06 15:36:47.64	223.62	10.04	-38.1	-39.1	23.0	0.00e+00	120	33	101	1048576	52	6778
2026-01-06 15:36:51.67	223.49	9.70	-38.4	-39.4	22.7	0.00e+00	122	33	101	1048576	54	6260
2026-01-06 15:36:55.70	223.36	9.36	-38.4	-39.4	22.7	0.00e+00	122	33	101	1048576	54	6256
2026-01-06 15:36:59.73	223.23	9.02	-38.6	-39.6	22.5	0.00e+00	123	33	101	1048576	54	6384
2026-01-06 15:37:03.76	223.11	8.69	-38.8	-39.8	22.3	0.00e+00	122	33	101	1048576	54	6506
2026-01-06 15:37:07.79	222.99	8.37	-39.2	-40.2	22.1	0.00e+00	123	33	101	1048576	56	6097
2026-01-06 15:37:11.82	222.87	8.04	-39.3	-40.3	21.9	0.00e+00	123	33	101	1048576	56	6191
2026-01-06 15:37:15.85	222.76	7.73	-39.5	-40.6	21.7	0.00e+00	123	33	101	1048576	56	6351
2026-01-06 15:37:19.88	222.65	7.41	-39.9	-41.0	21.3	0.00e+00	121	33	101	1048576	56	6652
2026-01-06 15:37:23.90	222.54	7.10	-40.0	-41.1	21.1	0.00e+00	123	33	101	1048576	56	6764
2026-01-06 15:37:27.93	222.44	6.80	-40.2	-41.4	20.8	0.00e+00	120	33	101	1048576	58	6207
2026-01-06 15:37:31.95	222.33	6.49	-40.3	-41.5	20.6	0.00e+00	122	33	101	1048576	58	6309
2026-01-06 15:37:35.99	222.23	6.19	-40.5	-41.7	20.4	0.00e+00	123	33	101	1048576	58	6441
2026-01-06 15:37:40.01	222.13	5.90	-40.7	-41.9	20.1	0.00e+00	123	33	101	1048576	58	6602
2026-01-06 15:37:44.04	222.04	5.60	-41.0	-42.3	19.8	0.00e+00	123	33	101	1048576	58	6901
2026-01-06 15:37:48.07	221.94	5.31	-40.9	-42.1	19.8	0.00e+00	120	33	101	1048576	58	6782
2026-01-06 15:37:52.10	221.85	5.03	-41.2	-42.5	19.4	0.00e+00	123	33	101	1048576	60	6313
2026-01-06 15:37:56.13	221.76	4.74	-41.2	-42.5	19.4	0.00e+00	122	33	101	1048576	60	6297
2026-01-06 15:38:00.15	221.67	4.46	-41.5	-42.9	18.9	0.00e+00	123	33	101	1048576	60	6597
2026-01-06 15:38:04.17	221.59	4.18	-41.9	-43.3	18.5	0.00e+00	123	33	101	1048576	60	6957
2026-01-06 15:38:08.20	221.50	3.91	-41.9	-43.3	18.4	0.00e+00	120	33	101	1048576	60	6930
2026-01-06 15:38:12.23	221.42	3.63	-41.9	-43.3	18.3	0.00e+00	123	33	101	1048576	60	6962
2026-01-06 15:38:16.25	221.34	3.36	-41.9	-43.4	18.2	0.00e+00	123	33	101	1048576	60	6983
2026-01-06 15:38:20.28	221.26	3.10	-42.3	-43.9	17.9	0.00e+00	122	33	101	1048576	60	7393
2026-01-06 15:38:24.31	221.18	2.83	-51.0	-64.0	3.5	1.52e+00	0	33	104	1048576	60	74970
2026-01-06 15:38:28.35	221.11	2.57	-51.2	-64.1	3.5	1.52e+00	0	33	104	1048576	60	76119
2026-01-06 15:38:32.38	221.03	2.31	-51.0	-64.1	3.5	1.52e+00	0	33	104	1048576	60	75635
2026-01-06 15:38:36.41	220.96	2.05	-51.0	-64.1	3.5	1.52e+00	0	33	104	1048576	60	75554
2026-01-06 15:38:40.44	220.89	1.79	-51.1	-64.1	3.5	1.52e+00	0	33	104	1048576	60	75548
2026-01-06 15:38:44.46	220.82	1.54	-51.1	-64.1	3.5	1.52e+00	0	33	104	1048576	60	75634
2026-01-06 15:38:48.49	220.75	1.29	-51.1	-64.1	3.5	1.52e+00	0	33	104	1048576	60	75692
2026-01-06 15:38:52.52	220.68	1.04	-51.0	-64.0	3.5	1.52e+00	0	33	104	1048576	60	75236
2026-01-06 15:38:56.55	220.61	0.79	-51.0	-64.0	3.5	1.52e+00	0	33	104	1048576	60	75284
2026-01-06 15:39:00.58	220.55	0.55	-51.0	-64.0	3.5	1.52e+00	0	33	104	1048576	60	75457
2026-01-06 15:39:04.61	220.49	0.30	-51.0	-64.0	3.5	1.52e+00	0	33	104	1048576	60	75376
2026-01-06 15:39:08.64	220.42	0.06	-51.0	-64.1	3.5	1.52e+00	0	33	104	1048576	60	75551

#Closed at: 2026-01-06 15:39:11
#Recorded file [1 MB]: D:/lorett/data/35034_260106_182348.dat