passes_logs/2026/01/06/R4.6S_Anadyr_2ch/R4.6S_Anadyr_2ch__20260106_063628_FENGYUN_3E_rec.log

#Pass ID: 20260106_063628_FENGYUN 3E
#Satellite: FENGYUN 3E
#Configuration: FENGYUN 3E
#almurnet v.1.7.20251203
#Start time: 2026-01-06 06:36:30

#Version: 2.2.20231116
#Station: R4.6S_Anadyr_2ch
#Location: 177.4865 lon 64.73178 lat
#TLE: 1 49008U 21062A   25350.97288215  .00000176  00000+0  10353-3 0  9997
#TLE: 2 49008  98.7477 351.4440 0000638 234.3856 125.7261 14.19881381230726

#Time	Az	El	Level	Level2	SNR	BER	BlckErr	Temp	State	Recorded	gain1	gain2
2026-01-06 06:36:30.99	211.34	0.12	-51.1	-62.0	3.5	8.46e-01	0	30	0	0	60	62139
2026-01-06 06:36:35.04	211.61	0.33	-50.9	-62.4	3.6	8.44e-01	0	31	104	0	60	64792
2026-01-06 06:36:39.08	211.88	0.54	-50.9	-62.6	3.6	8.46e-01	0	31	104	0	60	66263
2026-01-06 06:36:43.12	212.16	0.75	-50.9	-62.5	3.6	8.45e-01	0	32	104	0	60	66153
2026-01-06 06:36:47.16	212.44	0.97	-51.0	-62.5	3.6	8.44e-01	0	32	104	0	60	65415
2026-01-06 06:36:51.21	212.73	1.18	-50.4	-62.2	3.6	8.46e-01	0	32	104	0	60	63454
2026-01-06 06:36:55.25	213.02	1.39	-49.6	-61.2	3.6	8.45e-01	0	32	104	0	60	56324
2026-01-06 06:36:59.29	213.31	1.61	-49.6	-61.1	3.6	8.46e-01	0	32	104	0	60	55725
2026-01-06 06:37:03.33	213.60	1.83	-49.6	-61.0	3.6	8.46e-01	0	32	104	0	60	55558
2026-01-06 06:37:07.38	213.91	2.04	-49.6	-61.2	3.6	8.45e-01	0	32	104	0	60	56387
2026-01-06 06:37:11.42	214.21	2.26	-49.6	-61.0	3.6	8.46e-01	0	32	104	0	60	55580
2026-01-06 06:37:15.46	214.52	2.48	-49.6	-60.9	3.6	8.46e-01	0	32	104	0	60	54993
2026-01-06 06:37:19.51	214.84	2.70	-49.6	-61.0	3.6	8.45e-01	0	32	104	0	60	55269
2026-01-06 06:37:23.55	215.15	2.93	-49.4	-59.2	3.6	8.45e-01	0	32	104	0	60	44926
2026-01-06 06:37:27.60	215.48	3.15	-49.1	-56.8	3.9	8.43e-01	0	32	104	0	60	34205
2026-01-06 06:37:31.64	215.80	3.37	-42.0	-43.3	16.4	0.00e+00	0	32	102	1048576	60	7191
2026-01-06 06:37:35.69	216.14	3.60	-48.7	-54.5	4.0	0.00e+00	0	32	102	1048576	60	26159
2026-01-06 06:37:39.73	216.48	3.82	-38.8	-39.7	19.6	0.00e+00	0	32	0	1048576	56	6001
2026-01-06 06:37:43.78	216.82	4.05	-38.4	-39.2	19.9	0.00e+00	0	33	101	1048576	54	6362
2026-01-06 06:37:47.82	217.17	4.28	-38.5	-39.4	19.6	0.00e+00	0	32	101	1048576	54	6495
2026-01-06 06:37:51.86	217.52	4.51	-37.7	-38.5	20.4	0.00e+00	0	33	101	1048576	54	5874
2026-01-06 06:37:55.90	217.88	4.74	-37.8	-38.6	20.5	0.00e+00	0	33	101	1048576	54	5903
2026-01-06 06:37:59.95	218.24	4.97	-37.1	-37.9	21.0	0.00e+00	0	33	101	1048576	54	5483
2026-01-06 06:38:03.99	218.61	5.21	-37.6	-38.5	20.6	0.00e+00	0	33	101	1048576	54	5853
2026-01-06 06:38:08.04	218.99	5.44	-37.0	-37.8	21.1	0.00e+00	0	33	101	1048576	52	6098
2026-01-06 06:38:12.08	219.37	5.67	-36.9	-37.7	21.2	0.00e+00	0	33	101	1048576	52	5991
2026-01-06 06:38:16.12	219.75	5.91	-36.6	-37.3	21.5	0.00e+00	0	33	101	1048576	52	5752
2026-01-06 06:38:20.17	220.15	6.15	-36.6	-37.4	21.4	0.00e+00	0	33	101	1048576	52	5800
2026-01-06 06:38:24.21	220.54	6.39	-36.6	-37.4	21.4	0.00e+00	0	33	101	1048576	52	5769
2026-01-06 06:38:28.25	220.95	6.63	-36.5	-37.2	21.6	0.00e+00	0	33	101	1048576	52	5687
2026-01-06 06:38:32.30	221.36	6.87	-36.2	-37.0	21.7	0.00e+00	0	33	101	1048576	52	5547
2026-01-06 06:38:36.34	221.78	7.11	-36.6	-37.4	21.4	0.00e+00	0	33	101	1048576	52	5810
2026-01-06 06:38:40.39	222.20	7.35	-36.5	-37.3	21.3	0.00e+00	0	33	101	1048576	52	5712
2026-01-06 06:38:44.43	222.64	7.59	-36.6	-37.5	21.2	0.00e+00	0	33	101	1048576	52	5861
2026-01-06 06:38:48.47	223.07	7.84	-36.5	-37.4	21.3	0.00e+00	0	33	101	1048576	52	5773
2026-01-06 06:38:52.52	223.52	8.08	-36.3	-37.1	21.5	0.00e+00	0	33	101	1048576	52	5626
2026-01-06 06:38:56.56	223.97	8.33	-36.4	-37.2	21.4	0.00e+00	0	33	101	1048576	52	5655
2026-01-06 06:39:00.61	224.44	8.58	-36.6	-37.4	21.2	0.00e+00	0	33	101	1048576	52	5816
2026-01-06 06:39:04.65	224.90	8.82	-36.8	-37.6	21.1	0.00e+00	0	33	101	1048576	52	5952
2026-01-06 06:39:08.69	225.38	9.07	-36.8	-37.7	21.2	0.00e+00	0	33	101	1048576	52	6017
2026-01-06 06:39:12.74	225.86	9.32	-36.9	-37.7	21.3	0.00e+00	0	33	101	1048576	52	6010
2026-01-06 06:39:16.78	226.35	9.57	-36.8	-37.6	21.5	0.00e+00	0	33	101	1048576	52	5932
2026-01-06 06:39:20.83	226.86	9.82	-36.6	-37.4	21.8	0.00e+00	0	33	101	1048576	52	5769
2026-01-06 06:39:24.87	227.36	10.07	-36.7	-37.5	21.8	0.00e+00	0	33	101	1048576	52	5860
2026-01-06 06:39:28.91	227.88	10.33	-36.6	-37.4	21.6	0.00e+00	0	33	101	1048576	52	5810
2026-01-06 06:39:32.96	228.41	10.58	-36.8	-37.6	21.4	0.00e+00	0	33	101	1048576	52	5933
2026-01-06 06:39:37.00	228.94	10.83	-36.8	-37.6	21.4	0.00e+00	0	33	101	1048576	52	5932
2026-01-06 06:39:41.05	229.48	11.08	-36.7	-37.5	21.2	0.00e+00	0	33	101	1048576	52	5882
2026-01-06 06:39:45.09	230.04	11.34	-36.7	-37.6	21.1	0.00e+00	0	33	101	1048576	52	5910
2026-01-06 06:39:49.13	230.60	11.59	-36.6	-37.4	21.4	0.00e+00	0	33	101	1048576	52	5780
2026-01-06 06:39:53.18	231.17	11.85	-36.4	-37.1	21.6	0.00e+00	0	33	101	1048576	52	5629
2026-01-06 06:39:57.22	231.75	12.10	-36.5	-37.3	21.5	0.00e+00	0	33	101	1048576	52	5711
2026-01-06 06:40:01.26	232.34	12.35	-36.5	-37.3	21.4	0.00e+00	0	33	101	1048576	52	5733
2026-01-06 06:40:05.30	232.94	12.61	-35.9	-36.7	22.1	0.00e+00	0	33	101	1048576	50	5993
2026-01-06 06:40:09.35	233.55	12.86	-36.1	-36.9	22.0	0.00e+00	0	33	101	1048576	50	6133
2026-01-06 06:40:13.39	234.17	13.12	-36.1	-36.8	21.9	0.00e+00	0	33	101	1048576	50	6079
2026-01-06 06:40:17.44	234.80	13.37	-35.9	-36.6	22.1	0.00e+00	0	33	101	1048576	50	5917
2026-01-06 06:40:21.48	235.44	13.62	-35.4	-36.1	22.5	0.00e+00	0	33	101	1048576	50	5570
2026-01-06 06:40:25.52	236.10	13.87	-35.1	-35.9	22.6	0.00e+00	0	33	101	1048576	50	5444
2026-01-06 06:40:29.56	236.76	14.12	-34.9	-35.6	22.7	0.00e+00	0	33	101	1048576	48	5913
2026-01-06 06:40:33.61	237.43	14.37	-34.7	-35.4	22.8	0.00e+00	0	33	101	1048576	48	5770
2026-01-06 06:40:37.65	238.12	14.62	-34.5	-35.2	22.6	0.00e+00	0	33	101	1048576	48	5680
2026-01-06 06:40:41.69	238.81	14.87	-34.4	-35.1	22.8	0.00e+00	0	33	101	1048576	48	5629
2026-01-06 06:40:45.74	239.52	15.11	-34.1	-34.8	23.0	0.00e+00	0	33	101	1048576	46	6061
2026-01-06 06:40:49.78	240.24	15.36	-33.8	-34.5	23.2	0.00e+00	0	33	101	1048576	46	5836
2026-01-06 06:40:53.83	240.97	15.60	-33.5	-34.2	23.5	0.00e+00	0	33	101	1048576	46	5632
2026-01-06 06:40:57.87	241.71	15.84	-33.5	-34.1	23.6	0.00e+00	0	33	101	1048576	46	5600
2026-01-06 06:41:01.92	242.47	16.08	-33.3	-33.9	23.7	0.00e+00	0	33	101	1048576	46	5492
2026-01-06 06:41:05.96	243.23	16.32	-33.3	-34.0	23.6	0.00e+00	0	33	101	1048576	46	5516
2026-01-06 06:41:10.00	244.01	16.55	-33.3	-33.9	23.8	0.00e+00	0	33	101	1048576	46	5492
2026-01-06 06:41:14.05	244.80	16.78	-33.2	-33.9	23.5	0.00e+00	0	33	101	1048576	46	5476
2026-01-06 06:41:18.09	245.60	17.01	-33.2	-33.9	23.6	0.00e+00	0	33	101	1048576	46	5448
2026-01-06 06:41:22.13	246.41	17.23	-33.2	-33.9	23.5	0.00e+00	0	33	101	1048576	46	5488
2026-01-06 06:41:26.18	247.23	17.45	-33.0	-33.7	23.7	0.00e+00	0	33	101	1048576	44	5989
2026-01-06 06:41:30.22	248.07	17.67	-32.8	-33.5	23.9	0.00e+00	0	33	101	1048576	44	5834
2026-01-06 06:41:34.27	248.91	17.88	-33.2	-33.9	23.6	0.00e+00	0	33	101	1048576	44	6104
2026-01-06 06:41:38.31	249.77	18.09	-33.0	-33.7	23.8	0.00e+00	0	33	101	1048576	44	5971
2026-01-06 06:41:42.35	250.64	18.29	-33.0	-33.6	23.8	0.00e+00	0	33	101	1048576	44	5948
2026-01-06 06:41:46.39	251.52	18.49	-33.2	-33.8	23.4	0.00e+00	0	33	101	1048576	44	6098
2026-01-06 06:41:50.44	252.41	18.68	-32.9	-33.6	23.6	0.00e+00	0	33	101	1048576	44	5909
2026-01-06 06:41:54.48	253.32	18.87	-32.8	-33.5	23.7	0.00e+00	0	33	101	1048576	44	5853
2026-01-06 06:41:58.52	254.23	19.05	-32.6	-33.2	23.9	0.00e+00	0	33	101	1048576	44	5679
2026-01-06 06:42:02.57	255.15	19.23	-32.8	-33.4	23.8	0.00e+00	0	33	101	1048576	44	5798
2026-01-06 06:42:06.61	256.09	19.40	-32.8	-33.5	23.7	0.00e+00	0	33	101	1048576	44	5871
2026-01-06 06:42:10.66	257.03	19.57	-32.8	-33.5	23.7	0.00e+00	0	33	101	1048576	44	5836
2026-01-06 06:42:14.70	257.99	19.72	-32.8	-33.5	23.5	0.00e+00	0	33	101	1048576	44	5834
2026-01-06 06:42:18.74	258.95	19.87	-32.7	-33.4	23.5	0.00e+00	0	33	101	1048576	44	5806
2026-01-06 06:42:22.79	259.92	20.02	-32.6	-33.3	23.5	0.00e+00	0	33	101	1048576	44	5722
2026-01-06 06:42:26.83	260.90	20.15	-32.7	-33.4	23.5	0.00e+00	0	33	101	1048576	44	5791
2026-01-06 06:42:30.87	261.89	20.28	-32.5	-33.1	23.8	0.00e+00	0	33	101	1048576	44	5608
2026-01-06 06:42:34.92	262.89	20.40	-32.4	-33.0	24.0	0.00e+00	0	33	101	1048576	44	5542
2026-01-06 06:42:38.96	263.89	20.51	-32.6	-33.3	23.8	0.00e+00	0	33	101	1048576	44	5707
2026-01-06 06:42:43.00	264.90	20.62	-32.4	-33.0	23.9	0.00e+00	0	33	101	1048576	44	5546
2026-01-06 06:42:47.05	265.92	20.71	-32.4	-33.1	23.7	0.00e+00	0	33	101	1048576	44	5588
2026-01-06 06:42:51.09	266.94	20.80	-32.5	-33.1	23.4	0.00e+00	0	33	101	1048576	44	5621
2026-01-06 06:42:55.14	267.97	20.88	-32.4	-33.1	23.6	0.00e+00	0	33	101	1048576	44	5588
2026-01-06 06:42:59.18	269.00	20.95	-32.2	-32.9	23.8	0.00e+00	0	33	101	1048576	44	5475
2026-01-06 06:43:03.22	270.04	21.01	-32.3	-33.0	23.8	0.00e+00	0	33	101	1048576	44	5528
2026-01-06 06:43:07.27	271.08	21.06	-32.4	-33.1	23.7	0.00e+00	0	33	101	1048576	44	5611
2026-01-06 06:43:11.31	272.13	21.10	-32.6	-33.2	23.6	0.00e+00	0	33	101	1048576	44	5693
2026-01-06 06:43:15.36	273.17	21.13	-32.6	-33.3	23.5	0.00e+00	0	33	101	1048576	44	5715
2026-01-06 06:43:19.40	274.22	21.15	-32.4	-33.1	23.3	0.00e+00	0	33	101	1048576	44	5621
2026-01-06 06:43:23.44	275.27	21.17	-32.2	-32.9	23.6	0.00e+00	0	33	101	1048576	44	5486
2026-01-06 06:43:27.49	276.32	21.17	-32.4	-33.0	23.6	0.00e+00	0	33	101	1048576	44	5554
2026-01-06 06:43:31.53	277.37	21.16	-32.3	-33.0	23.6	0.00e+00	0	33	101	1048576	44	5506
2026-01-06 06:43:35.57	278.41	21.15	-32.3	-32.9	23.6	0.00e+00	0	33	101	1048576	44	5497
2026-01-06 06:43:39.61	279.46	21.12	-32.7	-33.4	23.5	0.00e+00	0	33	101	1048576	44	5768
2026-01-06 06:43:43.66	280.51	21.09	-32.6	-33.3	23.5	0.00e+00	0	33	101	1048576	44	5750
2026-01-06 06:43:47.70	281.55	21.04	-32.6	-33.4	23.3	0.00e+00	0	33	101	1048576	44	5764
2026-01-06 06:43:51.75	282.59	20.99	-32.3	-33.0	23.6	0.00e+00	0	33	101	1048576	44	5527
2026-01-06 06:43:55.79	283.62	20.92	-32.6	-33.3	23.2	0.00e+00	0	33	101	1048576	44	5725
2026-01-06 06:43:59.84	284.65	20.85	-32.2	-32.9	23.6	0.00e+00	0	33	101	1048576	44	5486
2026-01-06 06:44:03.88	285.68	20.77	-32.3	-33.0	23.6	0.00e+00	0	33	101	1048576	44	5516
2026-01-06 06:44:07.92	286.70	20.68	-32.3	-33.0	23.6	0.00e+00	0	33	101	1048576	44	5522
2026-01-06 06:44:11.97	287.71	20.58	-32.6	-33.3	23.4	0.00e+00	0	33	101	1048576	44	5749
2026-01-06 06:44:16.01	288.72	20.48	-32.6	-33.3	23.5	0.00e+00	0	33	101	1048576	44	5737
2026-01-06 06:44:20.06	289.72	20.36	-32.5	-33.1	23.8	0.00e+00	0	33	101	1048576	44	5626
2026-01-06 06:44:24.10	290.71	20.24	-32.6	-33.2	23.6	0.00e+00	0	33	101	1048576	44	5692
2026-01-06 06:44:28.14	291.69	20.11	-32.6	-33.3	23.6	0.00e+00	0	33	101	1048576	44	5722
2026-01-06 06:44:32.19	292.67	19.97	-32.5	-33.2	23.7	0.00e+00	0	33	101	1048576	44	5642
2026-01-06 06:44:36.23	293.63	19.83	-32.7	-33.4	23.4	0.00e+00	0	33	101	1048576	44	5823
2026-01-06 06:44:40.27	294.59	19.67	-32.8	-33.5	23.3	0.00e+00	0	33	101	1048576	44	5880
2026-01-06 06:44:44.32	295.54	19.51	-33.0	-33.7	23.0	0.00e+00	0	33	101	1048576	44	5998
2026-01-06 06:44:48.36	296.48	19.35	-32.7	-33.4	23.5	0.00e+00	0	33	101	1048576	44	5801
2026-01-06 06:44:52.40	297.40	19.18	-32.9	-33.5	23.4	0.00e+00	0	33	101	1048576	44	5895
2026-01-06 06:44:56.44	298.32	19.00	-32.8	-33.5	23.3	0.00e+00	0	33	101	1048576	44	5858
2026-01-06 06:45:00.49	299.23	18.81	-33.1	-33.6	26.9	0.00e+00	0	33	101	1048576	44	5930
2026-01-06 06:45:04.53	300.12	18.63	-33.4	-33.9	26.5	0.00e+00	0	33	101	1048576	44	6153
2026-01-06 06:45:08.58	301.01	18.43	-33.6	-34.1	26.5	0.00e+00	0	33	101	1048576	44	6269
2026-01-06 06:45:12.62	301.88	18.23	-33.4	-33.9	26.7	0.00e+00	0	33	101	1048576	44	6112
2026-01-06 06:45:16.66	302.74	18.03	-33.2	-33.7	26.8	0.00e+00	0	33	101	1048576	44	6010
2026-01-06 06:45:20.71	303.60	17.82	-33.5	-34.0	26.5	0.00e+00	0	33	101	1048576	44	6231
2026-01-06 06:45:24.75	304.44	17.61	-33.7	-34.2	26.4	0.00e+00	0	33	101	1048576	44	6365
2026-01-06 06:45:28.79	305.26	17.39	-33.7	-34.2	26.4	0.00e+00	0	33	101	1048576	44	6379
2026-01-06 06:45:32.84	306.08	17.17	-33.7	-34.2	26.4	0.00e+00	0	33	101	1048576	44	6356
2026-01-06 06:45:36.88	306.88	16.95	-33.7	-34.3	26.4	0.00e+00	0	33	101	1048576	44	6394
2026-01-06 06:45:40.92	307.68	16.72	-33.8	-34.3	26.3	0.00e+00	0	33	101	1048576	44	6419
2026-01-06 06:45:44.97	308.46	16.49	-33.4	-33.9	26.7	0.00e+00	0	33	101	1048576	44	6136
2026-01-06 06:45:49.01	309.23	16.26	-33.7	-34.2	26.4	0.00e+00	0	33	101	1048576	44	6363
2026-01-06 06:45:53.06	309.99	16.02	-34.0	-34.5	26.0	0.00e+00	0	33	101	1048576	44	6587
2026-01-06 06:45:57.10	310.73	15.79	-34.2	-34.8	25.9	0.00e+00	0	33	101	1048576	46	6034
2026-01-06 06:46:01.15	311.47	15.55	-34.2	-34.7	26.1	0.00e+00	0	33	101	1048576	46	5987
2026-01-06 06:46:05.19	312.19	15.31	-33.9	-34.4	26.1	0.00e+00	0	33	101	1048576	46	5826
2026-01-06 06:46:09.23	312.90	15.06	-34.0	-34.5	26.2	0.00e+00	0	33	101	1048576	46	5843
2026-01-06 06:46:13.28	313.61	14.82	-34.4	-34.9	25.8	0.00e+00	0	33	101	1048576	46	6115
2026-01-06 06:46:17.32	314.30	14.57	-34.5	-35.0	25.6	0.00e+00	0	33	101	1048576	46	6223
2026-01-06 06:46:21.37	314.98	14.33	-34.6	-35.2	25.6	0.00e+00	0	33	101	1048576	46	6322
2026-01-06 06:46:25.41	315.64	14.08	-34.6	-35.1	25.6	0.00e+00	0	33	101	1048576	46	6297
2026-01-06 06:46:29.46	316.30	13.83	-34.5	-35.0	25.6	0.00e+00	0	33	101	1048576	46	6238
2026-01-06 06:46:33.50	316.95	13.58	-34.5	-35.0	25.7	0.00e+00	0	33	101	1048576	46	6208
2026-01-06 06:46:37.54	317.58	13.33	-34.8	-35.4	25.3	0.00e+00	0	33	101	1048576	46	6476
2026-01-06 06:46:41.59	318.21	13.08	-35.0	-35.5	25.2	0.00e+00	0	33	101	1048576	48	5856
2026-01-06 06:46:45.63	318.82	12.83	-34.8	-35.3	25.3	0.00e+00	0	34	101	1048576	48	5743
2026-01-06 06:46:49.67	319.43	12.58	-34.5	-35.0	25.6	0.00e+00	0	33	101	1048576	48	5506
2026-01-06 06:46:53.72	320.03	12.32	-34.6	-35.1	25.6	0.00e+00	0	33	101	1048576	48	5592
2026-01-06 06:46:57.76	320.61	12.07	-34.7	-35.3	25.3	0.00e+00	0	33	101	1048576	48	5708
2026-01-06 06:47:01.81	321.19	11.82	-35.0	-35.6	25.2	0.00e+00	0	33	101	1048576	48	5910
2026-01-06 06:47:05.85	321.75	11.57	-35.2	-35.8	24.9	0.00e+00	0	33	101	1048576	48	6035
2026-01-06 06:47:09.89	322.31	11.32	-35.2	-35.8	24.8	0.00e+00	0	33	101	1048576	48	6053
2026-01-06 06:47:13.94	322.86	11.06	-35.2	-35.7	24.9	0.00e+00	0	33	101	1048576	48	6005
2026-01-06 06:47:17.98	323.40	10.81	-35.2	-35.7	24.8	0.00e+00	0	33	101	1048576	48	6010
2026-01-06 06:47:22.03	323.93	10.56	-35.3	-35.8	24.9	0.00e+00	0	33	101	1048576	48	6062
2026-01-06 06:47:26.07	324.45	10.31	-35.5	-36.0	24.6	0.00e+00	0	33	101	1048576	48	6240
2026-01-06 06:47:30.12	324.96	10.06	-35.8	-36.4	24.2	0.00e+00	0	33	101	1048576	48	6494
2026-01-06 06:47:34.16	325.47	9.81	-35.7	-36.3	24.4	0.00e+00	0	33	101	1048576	48	6393
2026-01-06 06:47:38.20	325.97	9.57	-35.6	-36.1	24.4	0.00e+00	0	33	101	1048576	48	6311
2026-01-06 06:47:42.25	326.45	9.32	-35.7	-36.2	24.3	0.00e+00	0	33	101	1048576	48	6347
2026-01-06 06:47:46.29	326.94	9.07	-35.8	-36.3	24.2	0.00e+00	0	33	101	1048576	48	6438
2026-01-06 06:47:50.34	327.41	8.82	-35.8	-36.3	24.1	0.00e+00	0	33	101	1048576	48	6435
2026-01-06 06:47:54.38	327.87	8.58	-35.6	-36.2	24.3	0.00e+00	0	33	101	1048576	48	6330
2026-01-06 06:47:58.42	328.33	8.33	-35.8	-36.4	24.1	0.00e+00	0	33	101	1048576	48	6494
2026-01-06 06:48:02.47	328.78	8.09	-35.9	-36.4	23.8	0.00e+00	0	33	101	1048576	48	6530
2026-01-06 06:48:06.51	329.23	7.85	-36.0	-36.6	23.8	0.00e+00	0	33	101	1048576	48	6668
2026-01-06 06:48:10.56	329.66	7.61	-36.4	-37.0	23.5	0.00e+00	0	33	101	1048576	50	6181
2026-01-06 06:48:14.60	330.09	7.36	-36.4	-37.0	23.4	0.00e+00	0	33	101	1048576	50	6193
2026-01-06 06:48:18.65	330.52	7.12	-36.8	-37.4	23.2	0.00e+00	0	33	101	1048576	50	6483
2026-01-06 06:48:22.69	330.93	6.89	-36.3	-36.9	23.4	0.00e+00	0	33	101	1048576	50	6147
2026-01-06 06:48:26.74	331.34	6.65	-36.4	-36.9	23.4	0.00e+00	0	33	101	1048576	50	6170
2026-01-06 06:48:30.78	331.75	6.41	-36.4	-37.0	23.5	0.00e+00	0	33	101	1048576	50	6206
2026-01-06 06:48:34.83	332.15	6.17	-36.7	-37.2	23.1	0.00e+00	0	33	101	1048576	50	6388
2026-01-06 06:48:38.87	332.54	5.94	-36.5	-37.1	23.1	0.00e+00	0	33	101	1048576	50	6277
2026-01-06 06:48:42.91	332.92	5.71	-36.7	-37.2	22.9	0.00e+00	0	33	101	1048576	50	6380
2026-01-06 06:48:46.96	333.30	5.47	-37.2	-37.8	22.1	0.00e+00	0	33	101	1048576	52	6100
2026-01-06 06:48:51.00	333.68	5.24	-38.6	-39.4	19.9	0.00e+00	0	33	101	1048576	54	6465
2026-01-06 06:48:55.05	334.05	5.01	-40.6	-41.7	16.3	0.00e+00	0	33	101	1048576	58	6725
2026-01-06 06:48:59.09	334.41	4.78	-43.2	-45.5	11.3	4.32e-04	0	33	101	1048576	60	9320
2026-01-06 06:49:03.14	334.77	4.55	-44.8	-49.0	6.5	2.23e-01	0	33	101	1048576	60	13938
2026-01-06 06:49:07.18	335.12	4.33	-45.4	-51.4	4.2	8.01e-01	0	33	101	1048576	60	18249
2026-01-06 06:49:11.22	335.47	4.10	-45.6	-54.9	3.8	8.44e-01	0	33	104	1048576	60	27571
2026-01-06 06:49:15.26	335.81	3.87	-45.9	-56.0	3.6	8.44e-01	0	33	104	1048576	60	31150
2026-01-06 06:49:19.31	336.15	3.65	-46.0	-57.3	3.6	8.45e-01	0	33	104	1048576	60	36145
2026-01-06 06:49:23.35	336.48	3.43	-46.0	-57.3	3.6	8.45e-01	0	33	104	1048576	60	36127
2026-01-06 06:49:27.39	336.81	3.21	-45.9	-57.3	3.5	8.46e-01	0	33	104	1048576	60	36121
2026-01-06 06:49:31.44	337.13	2.98	-46.0	-57.4	3.6	8.45e-01	0	33	104	1048576	60	36400
2026-01-06 06:49:35.48	337.45	2.77	-45.9	-57.3	3.6	8.46e-01	0	33	104	1048576	60	36227
2026-01-06 06:49:39.52	337.76	2.55	-50.9	-62.4	3.6	8.46e-01	0	34	104	1048576	60	65123
2026-01-06 06:49:43.57	338.07	2.33	-50.7	-62.7	3.6	8.45e-01	0	34	104	1048576	60	66965
2026-01-06 06:49:47.61	338.38	2.11	-50.8	-62.6	3.6	8.44e-01	0	34	104	1048576	60	66727
2026-01-06 06:49:51.65	338.68	1.90	-51.2	-62.7	3.6	8.45e-01	0	33	104	1048576	60	67012
2026-01-06 06:49:55.70	338.98	1.68	-51.1	-62.6	3.6	8.45e-01	0	33	104	1048576	60	66568
2026-01-06 06:49:59.74	339.27	1.47	-51.1	-62.6	3.6	8.46e-01	0	34	104	1048576	60	66288
2026-01-06 06:50:03.78	339.56	1.26	-51.1	-62.6	3.6	8.45e-01	0	33	104	1048576	60	66736
2026-01-06 06:50:07.83	339.85	1.04	-51.1	-62.6	3.6	8.46e-01	0	33	104	1048576	60	66390
2026-01-06 06:50:11.87	340.13	0.83	-51.1	-62.5	3.6	8.46e-01	0	33	104	1048576	60	66111
2026-01-06 06:50:15.92	340.41	0.62	-51.1	-62.6	3.6	8.46e-01	0	33	104	1048576	60	66367
2026-01-06 06:50:19.96	340.69	0.42	-51.1	-62.6	3.6	8.47e-01	0	34	104	1048576	60	66367
2026-01-06 06:50:24.00	340.96	0.21	-51.1	-62.6	3.6	8.45e-01	0	33	104	1048576	60	66419
2026-01-06 06:50:28.04	341.23	0.00	-51.1	-62.5	3.6	8.44e-01	0	34	104	1048576	60	66067

#Closed at: 2026-01-06 06:50:28
#Recorded file [1 MB]: D:/lorett/data/35034_260106_093630.dat