passes_logs/2026/01/06/R4.6S_Anadyr_2ch/R4.6S_Anadyr_2ch__20260106_184010_FENGYUN_3E_rec.log

#Pass ID: 20260106_184010_FENGYUN 3E
#Satellite: FENGYUN 3E
#Configuration: FENGYUN 3E
#almurnet v.1.7.20251203
#Start time: 2026-01-06 18:40:13

#Version: 2.2.20231116
#Station: R4.6S_Anadyr_2ch
#Location: 177.4865 lon 64.73178 lat
#TLE: 1 49008U 21062A   25350.97288215  .00000176  00000+0  10353-3 0  9997
#TLE: 2 49008  98.7477 351.4440 0000638 234.3856 125.7261 14.19881381230726

#Time	Az	El	Level	Level2	SNR	BER	BlckErr	Temp	State	Recorded	gain1	gain2
2026-01-06 18:40:13.41	19.89	0.15	-44.3	-46.8	3.9	3.02e+01	2	28	0	0	60	11397
2026-01-06 18:40:17.44	19.95	0.39	-50.5	-62.1	3.6	8.45e-01	0	30	104	0	60	62935
2026-01-06 18:40:21.48	20.00	0.64	-50.8	-62.3	3.6	8.44e-01	0	30	104	0	60	63959
2026-01-06 18:40:25.53	20.06	0.88	-50.7	-62.3	3.6	8.45e-01	0	30	104	0	60	63956
2026-01-06 18:40:29.57	20.12	1.13	-50.3	-61.8	3.6	8.46e-01	0	30	104	0	60	61020
2026-01-06 18:40:33.62	20.18	1.38	-49.4	-60.7	3.6	8.45e-01	0	30	104	0	60	53370
2026-01-06 18:40:37.66	20.24	1.63	-49.3	-60.3	3.6	8.45e-01	0	30	104	0	60	51055
2026-01-06 18:40:41.70	20.31	1.88	-49.3	-60.5	3.6	8.45e-01	0	30	104	0	60	51954
2026-01-06 18:40:45.74	20.37	2.14	-49.3	-60.7	3.6	8.44e-01	0	30	104	0	60	53549
2026-01-06 18:40:49.79	20.43	2.40	-49.3	-60.6	3.6	8.46e-01	0	30	104	0	60	52988
2026-01-06 18:40:53.83	20.50	2.66	-49.0	-58.1	3.8	8.44e-01	0	30	104	0	60	39427
2026-01-06 18:40:57.87	20.56	2.92	-48.8	-55.5	4.0	8.26e-01	0	30	0	0	60	29266
2026-01-06 18:41:01.92	20.63	3.19	-46.6	-49.6	9.9	1.64e-02	0	30	102	1048576	60	14825
2026-01-06 18:41:05.96	20.69	3.46	-41.8	-43.0	16.9	0.00e+00	0	30	102	1048576	60	6946
2026-01-06 18:41:10.00	20.76	3.73	-40.9	-41.9	17.8	0.00e+00	0	30	102	1048576	60	6106
2026-01-06 18:41:14.05	20.83	4.00	-44.3	-46.0	13.4	4.50e-06	0	31	102	1048576	60	9856
2026-01-06 18:41:18.09	20.90	4.28	-49.4	-59.8	3.6	7.57e-01	0	30	104	1048576	60	48113
2026-01-06 18:41:22.13	20.97	4.56	-41.5	-42.6	17.7	0.00e+00	0	31	0	1048576	60	6671
2026-01-06 18:41:26.17	21.04	4.84	-40.3	-41.2	19.0	0.00e+00	0	31	0	1048576	60	5674
2026-01-06 18:41:30.21	21.11	5.13	-38.6	-39.4	20.7	0.00e+00	0	31	101	1048576	56	5806
2026-01-06 18:41:34.25	21.18	5.41	-36.6	-37.3	22.7	0.00e+00	0	31	101	1048576	52	5754
2026-01-06 18:41:38.29	21.26	5.71	-36.7	-37.4	22.6	0.00e+00	0	31	101	1048576	52	5812
2026-01-06 18:41:42.33	21.33	6.00	-36.1	-36.8	23.3	0.00e+00	0	31	101	1048576	52	5388
2026-01-06 18:41:46.37	21.41	6.30	-36.0	-36.7	23.3	0.00e+00	0	31	101	1048576	50	5997
2026-01-06 18:41:50.41	21.49	6.60	-36.0	-36.7	23.3	0.00e+00	0	31	101	1048576	50	5988
2026-01-06 18:41:54.45	21.57	6.90	-35.7	-36.4	23.7	0.00e+00	0	31	101	1048576	50	5791
2026-01-06 18:41:58.49	21.65	7.21	-35.6	-36.3	23.7	0.00e+00	0	31	101	1048576	50	5750
2026-01-06 18:42:02.53	21.73	7.52	-35.5	-36.1	24.0	0.00e+00	0	31	101	1048576	50	5629
2026-01-06 18:42:06.57	21.81	7.84	-35.4	-36.1	24.1	0.00e+00	0	31	101	1048576	50	5583
2026-01-06 18:42:10.61	21.90	8.16	-35.1	-35.7	24.4	0.00e+00	0	31	101	1048576	50	5372
2026-01-06 18:42:14.64	21.98	8.48	-35.4	-36.1	24.2	0.00e+00	0	31	101	1048576	50	5579
2026-01-06 18:42:18.66	22.07	8.81	-35.1	-35.8	24.3	0.00e+00	0	31	101	1048576	48	6064
2026-01-06 18:42:22.69	22.16	9.14	-35.0	-35.6	24.6	0.00e+00	0	31	101	1048576	48	5960
2026-01-06 18:42:26.71	22.25	9.48	-35.0	-35.7	24.6	0.00e+00	0	31	101	1048576	48	5979
2026-01-06 18:42:30.74	22.34	9.82	-35.0	-35.6	24.7	0.00e+00	0	31	101	1048576	48	5960
2026-01-06 18:42:34.76	22.44	10.16	-34.7	-35.3	24.9	0.00e+00	0	31	101	1048576	48	5757
2026-01-06 18:42:38.79	22.53	10.51	-34.8	-35.4	24.8	0.00e+00	0	31	101	1048576	48	5819
2026-01-06 18:42:42.82	22.63	10.87	-34.7	-35.4	24.9	0.00e+00	0	31	101	1048576	48	5767
2026-01-06 18:42:46.84	22.73	11.23	-34.6	-35.2	25.0	0.00e+00	0	31	101	1048576	48	5685
2026-01-06 18:42:50.87	22.83	11.59	-34.7	-35.4	24.9	0.00e+00	0	31	101	1048576	48	5777
2026-01-06 18:42:54.90	22.94	11.97	-34.4	-35.1	25.2	0.00e+00	0	31	101	1048576	48	5571
2026-01-06 18:42:58.92	23.04	12.34	-34.3	-34.9	25.2	0.00e+00	0	31	101	1048576	48	5483
2026-01-06 18:43:02.95	23.15	12.73	-34.1	-34.7	25.6	0.00e+00	0	31	101	1048576	46	5998
2026-01-06 18:43:06.98	23.26	13.11	-34.1	-34.7	25.6	0.00e+00	0	31	101	1048576	46	5994
2026-01-06 18:43:11.00	23.37	13.51	-33.6	-34.2	26.0	0.00e+00	0	31	101	1048576	46	5692
2026-01-06 18:43:15.02	23.49	13.91	-33.6	-34.2	26.0	0.00e+00	0	31	101	1048576	46	5691
2026-01-06 18:43:19.05	23.61	14.32	-33.4	-34.1	26.2	0.00e+00	0	31	101	1048576	46	5578
2026-01-06 18:43:23.07	23.73	14.73	-33.2	-33.8	26.3	0.00e+00	0	31	101	1048576	46	5403
2026-01-06 18:43:27.09	23.85	15.15	-33.2	-33.8	26.4	0.00e+00	0	31	101	1048576	46	5405
2026-01-06 18:43:31.11	23.98	15.58	-32.9	-33.5	26.7	0.00e+00	0	31	101	1048576	44	5839
2026-01-06 18:43:35.13	24.11	16.02	-32.9	-33.5	26.7	0.00e+00	0	31	101	1048576	44	5880
2026-01-06 18:43:39.16	24.25	16.46	-33.0	-33.6	26.5	0.00e+00	0	31	101	1048576	44	5921
2026-01-06 18:43:43.19	24.38	16.92	-32.9	-33.5	26.7	0.00e+00	0	31	101	1048576	44	5856
2026-01-06 18:43:47.22	24.53	17.38	-32.7	-33.3	26.8	0.00e+00	0	31	101	1048576	44	5734
2026-01-06 18:43:51.24	24.67	17.85	-32.7	-33.3	26.9	0.00e+00	0	31	101	1048576	44	5722
2026-01-06 18:43:55.27	24.82	18.33	-32.6	-33.2	26.9	0.00e+00	0	31	101	1048576	44	5677
2026-01-06 18:43:59.29	24.97	18.82	-32.3	-32.9	27.1	0.00e+00	0	31	101	1048576	44	5478
2026-01-06 18:44:03.31	25.13	19.31	-32.3	-32.9	27.2	0.00e+00	0	31	101	1048576	44	5459
2026-01-06 18:44:07.33	25.29	19.82	-32.1	-32.7	27.3	0.00e+00	0	31	101	1048576	44	5367
2026-01-06 18:44:11.35	25.46	20.34	-31.9	-32.5	27.6	0.00e+00	0	31	101	1048576	42	5854
2026-01-06 18:44:15.38	25.63	20.87	-31.8	-32.4	27.7	0.00e+00	0	31	101	1048576	42	5806
2026-01-06 18:44:19.40	25.81	21.41	-31.8	-32.4	27.6	0.00e+00	0	31	101	1048576	42	5776
2026-01-06 18:44:23.43	26.00	21.96	-31.8	-32.4	27.7	0.00e+00	0	31	101	1048576	42	5772
2026-01-06 18:44:27.45	26.19	22.53	-31.9	-32.4	27.6	0.00e+00	0	31	101	1048576	42	5817
2026-01-06 18:44:31.48	26.38	23.10	-32.0	-32.6	27.5	0.00e+00	0	31	101	1048576	42	5949
2026-01-06 18:44:35.50	26.59	23.69	-32.1	-32.7	27.5	0.00e+00	0	31	101	1048576	42	5995
2026-01-06 18:44:39.52	26.80	24.30	-32.0	-32.6	27.6	0.00e+00	0	31	101	1048576	42	5903
2026-01-06 18:44:43.55	27.01	24.91	-31.7	-32.3	27.8	0.00e+00	0	31	101	1048576	42	5697
2026-01-06 18:44:47.58	27.24	25.55	-31.7	-32.3	27.8	0.00e+00	0	31	101	1048576	42	5705
2026-01-06 18:44:51.61	27.48	26.19	-31.4	-32.0	28.0	0.00e+00	0	31	101	1048576	42	5537
2026-01-06 18:44:55.64	27.72	26.86	-31.3	-31.9	28.1	0.00e+00	0	31	101	1048576	42	5477
2026-01-06 18:44:59.67	27.98	27.54	-31.3	-31.9	28.2	0.00e+00	0	31	101	1048576	42	5440
2026-01-06 18:45:03.69	28.24	28.23	-31.1	-31.7	28.3	0.00e+00	0	31	101	1048576	40	5985
2026-01-06 18:45:07.72	28.52	28.94	-31.1	-31.6	28.4	0.00e+00	0	31	101	1048576	40	5963
2026-01-06 18:45:11.75	28.80	29.67	-31.0	-31.6	28.2	0.00e+00	0	31	101	1048576	40	5926
2026-01-06 18:45:15.77	29.10	30.42	-31.0	-31.6	28.4	0.00e+00	0	31	101	1048576	40	5936
2026-01-06 18:45:19.80	29.42	31.19	-30.7	-31.3	28.5	0.00e+00	0	31	101	1048576	40	5718
2026-01-06 18:45:23.82	29.74	31.98	-30.7	-31.3	28.4	0.00e+00	0	31	101	1048576	40	5733
2026-01-06 18:45:27.84	30.09	32.79	-31.1	-31.6	28.3	0.00e+00	0	31	101	1048576	40	5939
2026-01-06 18:45:31.86	30.45	33.62	-31.0	-31.6	28.2	0.00e+00	0	31	101	1048576	40	5943
2026-01-06 18:45:35.88	30.83	34.47	-31.1	-31.7	28.3	0.00e+00	0	31	101	1048576	40	5986
2026-01-06 18:45:39.90	31.23	35.34	-31.0	-31.5	28.3	0.00e+00	0	31	101	1048576	40	5888
2026-01-06 18:45:43.93	31.65	36.24	-31.3	-31.9	28.2	0.00e+00	0	31	101	1048576	40	6126
2026-01-06 18:45:47.95	32.09	37.16	-31.2	-31.7	28.3	0.00e+00	0	31	101	1048576	40	6031
2026-01-06 18:45:51.97	32.56	38.10	-31.2	-31.7	28.3	0.00e+00	0	31	101	1048576	40	6012
2026-01-06 18:45:56.00	33.05	39.08	-31.0	-31.6	28.2	0.00e+00	0	31	101	1048576	40	5908
2026-01-06 18:46:00.03	33.58	40.07	-31.4	-32.0	28.0	0.00e+00	0	31	101	1048576	40	6235
2026-01-06 18:46:04.05	34.14	41.10	-31.6	-32.1	28.0	0.00e+00	0	31	101	1048576	40	6304
2026-01-06 18:46:08.07	34.73	42.15	-31.4	-32.0	28.1	0.00e+00	0	31	101	1048576	40	6209
2026-01-06 18:46:12.09	35.36	43.22	-31.2	-31.8	28.2	0.00e+00	0	31	101	1048576	40	6044
2026-01-06 18:46:16.12	36.04	44.33	-31.1	-31.7	28.3	0.00e+00	0	31	101	1048576	40	5982
2026-01-06 18:46:20.16	36.77	45.47	-32.1	-32.8	27.6	0.00e+00	0	31	101	1048576	42	6036
2026-01-06 18:46:24.20	37.55	46.63	-32.1	-32.7	27.5	0.00e+00	0	31	101	1048576	42	6018
2026-01-06 18:46:28.24	38.39	47.83	-31.9	-32.5	27.7	0.00e+00	0	31	101	1048576	42	5838
2026-01-06 18:46:32.29	39.30	49.05	-32.3	-32.8	27.8	0.00e+00	0	31	101	1048576	42	6092
2026-01-06 18:46:36.33	40.28	50.30	-32.5	-33.1	27.2	0.00e+00	0	31	101	1048576	42	6260
2026-01-06 18:46:40.37	41.35	51.57	-32.8	-33.4	27.0	0.00e+00	0	31	101	1048576	42	6522
2026-01-06 18:46:44.41	42.51	52.86	-32.7	-33.3	27.1	0.00e+00	0	31	101	1048576	44	5731
2026-01-06 18:46:48.45	43.78	54.18	-33.2	-33.8	26.8	0.00e+00	0	31	101	1048576	44	6078
2026-01-06 18:46:52.49	45.17	55.52	-33.0	-33.5	26.8	0.00e+00	0	31	101	1048576	44	5896
2026-01-06 18:46:56.53	46.69	56.87	-32.7	-33.3	27.0	0.00e+00	0	31	101	1048576	44	5745
2026-01-06 18:47:00.57	48.38	58.24	-32.5	-33.0	27.2	0.00e+00	0	31	101	1048576	44	5552
2026-01-06 18:47:04.61	50.24	59.61	-32.9	-33.6	26.8	0.00e+00	0	31	101	1048576	44	5903
2026-01-06 18:47:08.65	52.31	60.98	-32.6	-33.2	27.1	0.00e+00	0	31	101	1048576	44	5676
2026-01-06 18:47:12.69	54.62	62.34	-32.2	-32.8	27.3	0.00e+00	0	31	101	1048576	44	5403
2026-01-06 18:47:16.73	57.20	63.69	-32.1	-32.7	27.5	0.00e+00	0	31	101	1048576	42	5975
2026-01-06 18:47:20.77	60.09	65.02	-31.8	-32.4	27.7	0.00e+00	0	31	101	1048576	42	5772
2026-01-06 18:47:24.81	63.33	66.30	-31.4	-32.0	28.1	0.00e+00	0	31	101	1048576	42	5553
2026-01-06 18:47:28.86	66.98	67.52	-31.2	-31.7	28.0	0.00e+00	0	31	101	1048576	40	6030
2026-01-06 18:47:32.90	71.06	68.67	-31.1	-31.6	28.2	0.00e+00	0	31	101	1048576	40	5964
2026-01-06 18:47:36.94	75.63	69.72	-31.5	-32.0	27.9	0.00e+00	0	31	101	1048576	40	6244
2026-01-06 18:47:40.98	80.69	70.65	-31.4	-31.9	27.9	0.00e+00	0	31	101	1048576	40	6163
2026-01-06 18:47:45.02	86.25	71.42	-31.8	-32.4	27.8	0.00e+00	0	31	101	1048576	40	6480
2026-01-06 18:47:49.06	92.27	72.03	-31.9	-32.4	27.6	0.00e+00	0	31	101	1048576	40	6531
2026-01-06 18:47:53.11	98.68	72.44	-31.7	-32.3	26.4	0.00e+00	0	31	101	1048576	42	5702
2026-01-06 18:47:57.15	105.30	72.63	-31.8	-32.4	27.7	0.00e+00	0	31	101	1048576	42	5791
2026-01-06 18:48:01.19	112.00	72.61	-31.8	-32.4	27.7	0.00e+00	0	31	101	1048576	42	5767
2026-01-06 18:48:05.24	118.59	72.36	-31.3	-31.8	28.1	0.00e+00	0	31	101	1048576	42	5429
2026-01-06 18:48:09.28	124.90	71.90	-31.4	-32.0	27.9	0.00e+00	0	31	101	1048576	42	5532
2026-01-06 18:48:13.32	130.82	71.24	-31.3	-31.9	27.9	0.00e+00	0	31	101	1048576	42	5482
2026-01-06 18:48:17.36	136.26	70.42	-31.5	-32.1	28.0	0.00e+00	0	31	101	1048576	42	5595
2026-01-06 18:48:21.40	141.21	69.46	-31.7	-32.3	27.9	0.00e+00	0	31	101	1048576	42	5720
2026-01-06 18:48:25.44	145.65	68.39	-31.3	-31.8	28.1	0.00e+00	0	31	101	1048576	42	5424
2026-01-06 18:48:29.48	149.63	67.21	-31.1	-31.7	28.1	0.00e+00	0	31	101	1048576	42	5351
2026-01-06 18:48:33.53	153.18	65.97	-31.3	-31.9	28.0	0.00e+00	0	31	101	1048576	42	5477
2026-01-06 18:48:37.57	156.33	64.67	-31.0	-31.6	28.3	0.00e+00	0	31	101	1048576	40	5910
2026-01-06 18:48:41.61	159.14	63.34	-31.4	-32.0	27.9	0.00e+00	0	31	101	1048576	40	6221
2026-01-06 18:48:45.65	161.65	61.98	-31.8	-32.4	27.8	0.00e+00	0	31	101	1048576	40	6487
2026-01-06 18:48:49.69	163.89	60.61	-31.9	-32.4	27.3	0.00e+00	0	31	101	1048576	42	5825
2026-01-06 18:48:53.73	165.91	59.24	-32.3	-32.9	27.5	0.00e+00	0	31	101	1048576	42	6106
2026-01-06 18:48:57.77	167.73	57.86	-33.0	-33.6	26.5	0.00e+00	0	31	101	1048576	42	6646
2026-01-06 18:49:01.82	169.38	56.49	-32.9	-33.5	25.8	0.00e+00	0	31	101	1048576	42	6566
2026-01-06 18:49:05.86	170.87	55.14	-32.8	-33.4	26.9	0.00e+00	0	31	101	1048576	44	5827
2026-01-06 18:49:09.90	172.23	53.80	-32.8	-33.4	26.9	0.00e+00	0	31	101	1048576	44	5790
2026-01-06 18:49:13.94	173.47	52.48	-32.4	-33.0	27.3	0.00e+00	0	31	101	1048576	44	5545
2026-01-06 18:49:17.98	174.60	51.19	-32.3	-32.9	27.2	0.00e+00	0	31	101	1048576	42	6119
2026-01-06 18:49:22.02	175.65	49.92	-32.1	-32.7	27.4	0.00e+00	0	31	101	1048576	42	5995
2026-01-06 18:49:26.06	176.61	48.68	-32.6	-33.2	26.9	0.00e+00	0	31	101	1048576	42	6336
2026-01-06 18:49:30.10	177.50	47.46	-32.2	-32.7	27.5	0.00e+00	0	31	101	1048576	42	6022
2026-01-06 18:49:34.14	178.32	46.27	-32.8	-33.4	26.9	0.00e+00	0	31	101	1048576	42	6518
2026-01-06 18:49:38.19	179.09	45.10	-32.0	-32.6	27.7	0.00e+00	0	31	101	1048576	42	5938
2026-01-06 18:49:42.22	179.81	43.97	-31.6	-32.2	27.6	0.00e+00	0	31	101	1048576	42	5662
2026-01-06 18:49:46.27	180.47	42.86	-30.9	-31.4	28.3	0.00e+00	0	31	101	1048576	40	5824
2026-01-06 18:49:50.31	181.10	41.78	-30.9	-31.5	28.4	0.00e+00	0	31	101	1048576	40	5842
2026-01-06 18:49:54.35	181.68	40.73	-31.2	-31.8	28.2	0.00e+00	0	31	101	1048576	40	6065
2026-01-06 18:49:58.39	182.23	39.71	-31.4	-32.0	27.8	0.00e+00	0	31	101	1048576	40	6213
2026-01-06 18:50:02.43	182.75	38.71	-31.1	-31.7	27.6	0.00e+00	0	31	101	1048576	40	5992
2026-01-06 18:50:06.47	183.24	37.74	-31.1	-31.7	28.2	0.00e+00	0	31	101	1048576	40	6004
2026-01-06 18:50:10.51	183.70	36.79	-31.2	-31.8	28.2	0.00e+00	0	31	101	1048576	40	6071
2026-01-06 18:50:14.54	184.14	35.87	-31.1	-31.7	28.3	0.00e+00	0	31	101	1048576	40	5988
2026-01-06 18:50:18.56	184.55	34.98	-31.0	-31.6	28.2	0.00e+00	0	31	101	1048576	40	5900
2026-01-06 18:50:22.58	184.94	34.11	-31.2	-31.8	28.2	0.00e+00	0	31	101	1048576	40	6087
2026-01-06 18:50:26.60	185.31	33.26	-31.0	-31.6	28.3	0.00e+00	0	31	101	1048576	40	5956
2026-01-06 18:50:30.61	185.67	32.44	-30.8	-31.4	28.5	0.00e+00	0	31	101	1048576	40	5799
2026-01-06 18:50:34.63	186.01	31.63	-30.7	-31.3	28.6	0.00e+00	0	31	101	1048576	40	5709
2026-01-06 18:50:38.66	186.33	30.85	-30.8	-31.4	28.5	0.00e+00	0	31	101	1048576	40	5767
2026-01-06 18:50:42.68	186.64	30.08	-31.0	-31.6	28.3	0.00e+00	0	31	101	1048576	40	5946
2026-01-06 18:50:46.70	186.93	29.34	-31.1	-31.7	28.3	0.00e+00	0	31	101	1048576	40	6014
2026-01-06 18:50:50.72	187.21	28.61	-31.2	-31.7	28.2	0.00e+00	0	31	101	1048576	40	6033
2026-01-06 18:50:54.74	187.48	27.90	-31.2	-31.8	28.1	0.00e+00	0	31	101	1048576	40	6043
2026-01-06 18:50:58.77	187.74	27.21	-31.3	-31.9	28.2	0.00e+00	0	31	101	1048576	40	6104
2026-01-06 18:51:02.78	187.99	26.54	-31.4	-32.0	27.8	0.00e+00	0	31	101	1048576	40	6235
2026-01-06 18:51:06.81	188.23	25.87	-31.5	-32.1	27.8	0.00e+00	0	31	101	1048576	40	6255
2026-01-06 18:51:10.83	188.46	25.23	-31.3	-31.9	28.1	0.00e+00	0	31	101	1048576	40	6117
2026-01-06 18:51:14.86	188.69	24.60	-31.3	-31.9	28.0	0.00e+00	0	31	101	1048576	40	6104
2026-01-06 18:51:18.89	188.90	23.98	-31.2	-31.8	28.1	0.00e+00	0	31	101	1048576	40	6043
2026-01-06 18:51:22.91	189.11	23.38	-31.3	-31.8	28.1	0.00e+00	0	31	101	1048576	40	6103
2026-01-06 18:51:26.93	189.31	22.80	-31.3	-31.9	28.0	0.00e+00	0	31	101	1048576	40	6120
2026-01-06 18:51:30.95	189.50	22.22	-31.4	-32.0	28.0	0.00e+00	0	31	101	1048576	40	6210
2026-01-06 18:51:34.98	189.69	21.66	-31.5	-32.0	27.9	0.00e+00	0	31	101	1048576	40	6223
2026-01-06 18:51:38.99	189.87	21.11	-31.5	-32.1	28.0	0.00e+00	0	31	101	1048576	40	6273
2026-01-06 18:51:43.02	190.04	20.57	-31.6	-32.2	27.8	0.00e+00	0	31	101	1048576	40	6367
2026-01-06 18:51:47.04	190.21	20.04	-31.9	-32.5	27.6	0.00e+00	0	31	101	1048576	40	6545
2026-01-06 18:51:51.07	190.37	19.52	-32.0	-32.6	27.5	0.00e+00	0	31	101	1048576	42	5928
2026-01-06 18:51:55.08	190.53	19.02	-32.2	-32.8	27.4	0.00e+00	0	31	101	1048576	42	6054
2026-01-06 18:51:59.11	190.69	18.52	-32.4	-33.0	27.1	0.00e+00	0	31	101	1048576	42	6239
2026-01-06 18:52:03.13	190.84	18.03	-32.3	-32.9	27.2	0.00e+00	0	31	101	1048576	42	6148
2026-01-06 18:52:07.15	190.98	17.56	-32.5	-33.1	27.0	0.00e+00	0	31	101	1048576	42	6314
2026-01-06 18:52:11.18	191.13	17.09	-32.5	-33.1	27.1	0.00e+00	0	31	101	1048576	42	6300
2026-01-06 18:52:15.20	191.26	16.63	-32.6	-33.2	27.0	0.00e+00	0	31	101	1048576	42	6338
2026-01-06 18:52:19.22	191.40	16.18	-32.8	-33.4	26.7	0.00e+00	0	31	101	1048576	42	6519
2026-01-06 18:52:23.25	191.53	15.73	-33.0	-33.6	26.7	0.00e+00	0	31	101	1048576	42	6669
2026-01-06 18:52:27.28	191.66	15.30	-33.1	-33.7	26.2	0.00e+00	0	31	101	1048576	44	5967
2026-01-06 18:52:31.30	191.78	14.87	-33.3	-33.9	26.4	0.00e+00	0	31	101	1048576	44	6108
2026-01-06 18:52:35.32	191.90	14.45	-33.4	-34.0	26.3	0.00e+00	0	31	101	1048576	44	6208
2026-01-06 18:52:39.35	192.02	14.03	-33.6	-34.2	26.1	0.00e+00	0	31	101	1048576	44	6351
2026-01-06 18:52:43.38	192.13	13.62	-33.8	-34.4	25.9	0.00e+00	0	31	101	1048576	44	6471
2026-01-06 18:52:47.39	192.25	13.23	-33.9	-34.5	25.8	0.00e+00	0	31	101	1048576	44	6591
2026-01-06 18:52:51.42	192.36	12.83	-34.0	-34.6	25.7	0.00e+00	0	31	101	1048576	46	5950
2026-01-06 18:52:55.45	192.46	12.44	-34.1	-34.7	25.5	0.00e+00	0	31	101	1048576	46	6030
2026-01-06 18:52:59.47	192.57	12.06	-34.2	-34.8	25.4	0.00e+00	0	31	101	1048576	46	6085
2026-01-06 18:53:03.50	192.67	11.68	-34.2	-34.9	25.2	0.00e+00	0	31	101	1048576	46	6124
2026-01-06 18:53:07.54	192.77	11.31	-34.3	-35.0	25.4	0.00e+00	0	31	101	1048576	46	6190
2026-01-06 18:53:11.57	192.87	10.95	-34.4	-35.0	25.3	0.00e+00	0	31	101	1048576	46	6233
2026-01-06 18:53:15.61	192.97	10.59	-34.5	-35.1	25.2	0.00e+00	0	31	101	1048576	46	6297
2026-01-06 18:53:19.65	193.06	10.23	-34.7	-35.4	24.9	0.00e+00	0	31	101	1048576	46	6486
2026-01-06 18:53:23.68	193.15	9.88	-34.7	-35.3	25.0	0.00e+00	0	31	101	1048576	46	6444
2026-01-06 18:53:27.72	193.24	9.54	-34.7	-35.3	24.9	0.00e+00	0	31	101	1048576	46	6462
2026-01-06 18:53:31.75	193.33	9.19	-34.8	-35.5	24.8	0.00e+00	0	31	101	1048576	46	6553
2026-01-06 18:53:35.79	193.42	8.86	-35.1	-35.8	24.5	0.00e+00	0	31	101	1048576	48	6043
2026-01-06 18:53:39.82	193.50	8.53	-35.1	-35.7	24.5	0.00e+00	0	31	101	1048576	48	6004
2026-01-06 18:53:43.86	193.59	8.20	-35.3	-35.9	24.3	0.00e+00	0	31	101	1048576	48	6168
2026-01-06 18:53:47.90	193.67	7.88	-35.5	-36.2	24.1	0.00e+00	0	31	101	1048576	48	6318
2026-01-06 18:53:51.94	193.75	7.56	-35.5	-36.2	23.9	0.00e+00	0	31	101	1048576	48	6366
2026-01-06 18:53:55.98	193.83	7.24	-35.6	-36.2	24.0	0.00e+00	0	31	101	1048576	48	6377
2026-01-06 18:54:00.02	193.91	6.93	-35.6	-36.3	23.9	0.00e+00	0	31	101	1048576	48	6428
2026-01-06 18:54:04.05	193.99	6.62	-35.8	-36.5	23.7	0.00e+00	0	31	101	1048576	48	6567
2026-01-06 18:54:08.09	194.06	6.32	-36.0	-36.7	23.4	0.00e+00	0	31	101	1048576	48	6742
2026-01-06 18:54:12.05	194.13	6.02	-36.1	-36.8	23.4	0.00e+00	0	31	101	1048576	50	6048
2026-01-06 18:54:16.09	194.21	5.72	-36.2	-36.9	23.2	0.00e+00	0	31	101	1048576	50	6106
2026-01-06 18:54:20.13	194.28	5.43	-36.2	-36.9	23.2	0.00e+00	0	31	101	1048576	50	6156
2026-01-06 18:54:24.17	194.35	5.14	-36.3	-37.0	23.1	0.00e+00	0	31	101	1048576	50	6197
2026-01-06 18:54:28.22	194.42	4.85	-36.4	-37.1	22.9	0.00e+00	0	31	101	1048576	50	6317
2026-01-06 18:54:32.26	194.49	4.56	-36.5	-37.2	22.8	0.00e+00	0	31	101	1048576	50	6359
2026-01-06 18:54:36.30	194.55	4.28	-36.6	-37.4	22.6	0.00e+00	0	31	101	1048576	50	6465
2026-01-06 18:54:40.35	194.62	4.00	-37.0	-37.8	22.1	0.00e+00	0	31	101	1048576	50	6774
2026-01-06 18:54:44.39	194.68	3.73	-36.9	-37.6	22.0	0.00e+00	0	31	101	1048576	52	5952
2026-01-06 18:54:48.43	194.75	3.45	-37.4	-38.1	21.8	0.00e+00	0	31	101	1048576	52	6295
2026-01-06 18:54:52.47	194.81	3.18	-37.2	-38.0	21.8	0.00e+00	0	31	101	1048576	52	6198
2026-01-06 18:54:56.51	194.87	2.91	-37.4	-38.2	21.6	0.00e+00	0	31	101	1048576	52	6324
2026-01-06 18:55:00.56	194.93	2.65	-50.0	-61.4	3.6	8.45e-01	0	31	104	1048576	60	58140
2026-01-06 18:55:04.60	195.00	2.38	-50.7	-62.2	3.6	8.46e-01	0	31	104	1048576	60	63467
2026-01-06 18:55:08.64	195.05	2.12	-50.8	-62.4	3.6	8.45e-01	0	32	104	1048576	60	64957
2026-01-06 18:55:12.68	195.11	1.87	-50.2	-62.3	3.6	8.46e-01	0	32	104	1048576	60	64087
2026-01-06 18:55:16.73	195.17	1.61	-50.8	-62.2	3.6	8.45e-01	0	31	104	1048576	60	63876
2026-01-06 18:55:20.77	195.23	1.36	-50.7	-62.2	3.6	8.46e-01	0	31	104	1048576	60	63716
2026-01-06 18:55:24.81	195.29	1.10	-50.7	-62.2	3.5	8.46e-01	0	31	104	1048576	60	63795
2026-01-06 18:55:28.86	195.34	0.85	-50.7	-62.2	3.6	8.47e-01	0	32	104	1048576	60	63827
2026-01-06 18:55:32.90	195.40	0.61	-50.7	-62.2	3.6	8.45e-01	0	32	104	1048576	60	63624
2026-01-06 18:55:36.94	195.45	0.36	-50.7	-62.2	3.6	8.45e-01	0	31	104	1048576	60	63527
2026-01-06 18:55:40.98	195.50	0.12	-50.7	-62.2	3.6	8.44e-01	0	31	104	1048576	60	63197

#Closed at: 2026-01-06 18:55:43
#Recorded file [1 MB]: D:/lorett/data/35034_260106_214013.dat