passes_logs/2026/01/06/R4.6S_Anadyr_2ch/R4.6S_Anadyr_2ch__20260106_161624_AQUA_rec.log

#Pass ID: 20260106_161624_AQUA
#Satellite: AQUA
#Configuration: AQUA
#almurnet v.1.7.20251203
#Start time: 2026-01-06 16:16:27

#Version: 2.2.20231116
#Station: R4.6S_Anadyr_2ch
#Location: 177.4865 lon 64.73178 lat
#TLE: 1 27424U 02022A   25351.00450321  .00000925  00000+0  19503-3 0  9992
#TLE: 2 27424  98.4041 311.9529 0001248 113.7180 322.1616 14.61819266256652

#Time	Az	El	Level	Level2	SNR	BER	BlckErr	Temp	State	Recorded	gain1	gain2
2026-01-06 16:16:27.55	19.75	0.17	-51.0	-66.0	3.5	1.51e+00	0	30	0	0	60	96775
2026-01-06 16:16:31.58	19.78	0.42	-51.2	-68.9	3.5	3.02e+01	0	31	104	0	60	145273
2026-01-06 16:16:35.63	19.81	0.67	-51.2	-69.0	3.5	3.02e+01	0	31	104	0	60	146575
2026-01-06 16:16:39.66	19.85	0.93	-51.2	-69.0	3.5	3.02e+01	0	31	104	0	60	145843
2026-01-06 16:16:43.71	19.88	1.19	-51.2	-69.0	3.5	3.02e+01	0	31	104	0	60	145618
2026-01-06 16:16:47.75	19.91	1.45	-51.2	-69.0	3.5	3.02e+01	0	31	104	0	60	146223
2026-01-06 16:16:51.79	19.94	1.71	-51.2	-69.0	3.5	3.02e+01	0	31	104	0	60	146656
2026-01-06 16:16:55.83	19.98	1.97	-51.2	-69.0	3.5	3.02e+01	0	31	104	0	60	146223
2026-01-06 16:16:59.87	20.01	2.24	-51.2	-69.0	3.5	3.02e+01	0	31	104	0	60	145657
2026-01-06 16:17:03.91	20.04	2.51	-51.2	-69.0	3.5	3.02e+01	0	31	104	0	60	146200
2026-01-06 16:17:07.95	20.08	2.78	-51.2	-69.0	3.5	3.02e+01	0	31	104	0	60	145631
2026-01-06 16:17:12.00	20.11	3.06	-51.2	-69.0	3.5	3.02e+01	0	31	104	0	60	146495
2026-01-06 16:17:16.04	20.15	3.34	-51.2	-69.0	3.5	3.02e+01	0	31	104	0	60	145894
2026-01-06 16:17:20.08	20.18	3.62	-51.2	-69.0	3.5	3.02e+01	0	32	104	0	60	145894
2026-01-06 16:17:24.12	20.22	3.91	-51.3	-69.1	3.5	3.02e+01	0	31	104	0	60	147577
2026-01-06 16:17:28.16	20.25	4.20	-51.3	-69.2	3.5	3.02e+01	0	32	104	0	60	150015
2026-01-06 16:17:32.20	20.29	4.49	-51.2	-69.1	3.5	3.02e+01	0	32	104	0	60	147531
2026-01-06 16:17:36.25	20.33	4.79	-50.6	-68.5	3.5	3.02e+01	0	32	104	0	60	137664
2026-01-06 16:17:40.29	20.36	5.09	-50.0	-67.5	3.5	3.02e+01	0	32	104	0	60	122618
2026-01-06 16:17:44.33	20.40	5.39	-50.0	-67.6	3.5	3.02e+01	0	32	104	0	60	123931
2026-01-06 16:17:48.37	20.44	5.70	-50.0	-66.9	3.5	3.02e+01	0	32	104	0	60	114804
2026-01-06 16:17:52.41	20.48	6.01	-50.0	-67.6	3.5	3.02e+01	0	32	104	0	60	124524
2026-01-06 16:17:56.45	20.52	6.33	-50.0	-67.6	3.5	3.02e+01	0	32	104	0	60	124611
2026-01-06 16:18:00.49	20.56	6.65	-49.8	-63.2	4.8	3.02e+01	0	32	104	0	60	75082
2026-01-06 16:18:04.53	20.60	6.97	-49.6	-59.7	6.4	3.02e+01	91	32	102	524288	60	49951
2026-01-06 16:18:08.58	20.64	7.30	-48.4	-53.9	13.2	3.02e+01	61	32	102	524288	60	25751
2026-01-06 16:18:12.61	20.68	7.64	-45.1	-47.8	19.6	3.02e+01	59	32	102	524288	60	12671
2026-01-06 16:18:16.66	20.72	7.98	-45.3	-48.0	19.3	3.02e+01	59	32	102	524288	60	13106
2026-01-06 16:18:20.68	20.76	8.32	-45.5	-48.2	19.7	3.02e+01	56	32	102	524288	60	13369
2026-01-06 16:18:24.72	20.80	8.67	-49.7	-62.9	3.8	3.02e+01	0	32	104	524288	60	72411
2026-01-06 16:18:28.76	20.85	9.03	-39.9	-41.4	26.0	3.02e+01	61	32	0	524288	60	6076
2026-01-06 16:18:32.80	20.89	9.39	-39.3	-40.6	26.7	3.02e+01	47	32	0	524288	58	6277
2026-01-06 16:18:36.85	20.94	9.76	-39.1	-40.5	26.8	3.02e+01	58	32	101	524288	58	6155
2026-01-06 16:18:40.89	20.98	10.13	-39.0	-40.3	27.0	3.02e+01	56	32	101	524288	58	6036
2026-01-06 16:18:44.93	21.03	10.51	-39.0	-40.4	27.1	3.02e+01	62	32	101	524288	58	6082
2026-01-06 16:18:48.97	21.08	10.89	-38.8	-40.2	27.2	3.02e+01	58	32	101	524288	58	5934
2026-01-06 16:18:53.01	21.13	11.29	-38.9	-40.2	27.3	3.02e+01	59	32	101	524288	58	5974
2026-01-06 16:18:57.06	21.18	11.69	-38.7	-40.0	27.4	3.02e+01	48	32	101	524288	58	5814
2026-01-06 16:19:01.10	21.23	12.10	-38.6	-39.9	27.6	3.02e+01	50	32	101	524288	58	5731
2026-01-06 16:19:05.14	21.28	12.51	-38.5	-39.8	27.7	3.02e+01	53	32	101	524288	58	5713
2026-01-06 16:19:09.18	21.33	12.94	-38.4	-39.7	27.9	3.02e+01	60	32	101	524288	58	5597
2026-01-06 16:19:13.22	21.38	13.37	-38.4	-39.7	27.9	3.02e+01	46	32	101	524288	56	6284
2026-01-06 16:19:17.26	21.44	13.81	-38.3	-39.5	28.0	3.02e+01	59	32	101	524288	56	6200
2026-01-06 16:19:21.30	21.49	14.26	-38.2	-39.5	28.1	3.02e+01	50	32	101	524288	56	6183
2026-01-06 16:19:25.34	21.55	14.72	-38.0	-39.3	28.4	3.02e+01	59	32	101	524288	56	5995
2026-01-06 16:19:29.39	21.61	15.19	-37.9	-39.2	28.4	3.02e+01	46	32	101	524288	56	5955
2026-01-06 16:19:33.42	21.67	15.66	-37.7	-38.9	28.7	3.02e+01	61	32	101	524288	56	5767
2026-01-06 16:19:37.47	21.73	16.16	-37.7	-38.9	28.7	3.02e+01	59	32	101	524288	56	5769
2026-01-06 16:19:41.51	21.79	16.66	-37.5	-38.8	28.9	3.02e+01	60	32	101	524288	56	5674
2026-01-06 16:19:45.55	21.86	17.17	-37.4	-38.7	29.0	3.02e+01	61	32	101	524288	56	5595
2026-01-06 16:19:49.59	21.92	17.69	-37.4	-38.6	29.0	3.02e+01	58	32	101	524288	56	5566
2026-01-06 16:19:53.63	21.99	18.23	-37.4	-38.6	29.0	3.02e+01	59	32	101	524288	54	6265
2026-01-06 16:19:57.67	22.06	18.78	-37.3	-38.5	29.1	3.02e+01	58	32	101	524288	54	6153
2026-01-06 16:20:01.71	22.13	19.34	-37.3	-38.5	29.0	3.02e+01	60	32	101	524288	54	6193
2026-01-06 16:20:05.76	22.21	19.92	-37.2	-38.4	29.2	3.02e+01	58	32	101	524288	54	6109
2026-01-06 16:20:09.80	22.28	20.52	-37.1	-38.3	29.4	3.02e+01	58	32	101	524288	54	6012
2026-01-06 16:20:13.84	22.36	21.13	-36.8	-38.0	29.5	3.02e+01	59	32	101	524288	54	5853
2026-01-06 16:20:17.88	22.45	21.75	-36.7	-37.9	29.7	3.02e+01	54	32	101	524288	54	5735
2026-01-06 16:20:21.92	22.53	22.40	-36.7	-37.9	29.7	3.02e+01	59	32	101	524288	54	5740
2026-01-06 16:20:25.96	22.62	23.06	-36.8	-38.0	29.6	3.02e+01	62	32	101	524288	54	5841
2026-01-06 16:20:30.00	22.71	23.74	-36.9	-38.1	29.5	3.02e+01	62	32	101	524288	54	5875
2026-01-06 16:20:34.04	22.80	24.44	-36.9	-38.1	29.6	3.02e+01	57	32	101	524288	54	5865
2026-01-06 16:20:38.08	22.90	25.16	-36.7	-37.9	29.8	3.02e+01	60	32	101	524288	54	5738
2026-01-06 16:20:42.12	23.00	25.90	-36.6	-37.8	29.8	3.02e+01	59	32	101	524288	54	5722
2026-01-06 16:20:46.16	23.11	26.67	-36.6	-37.7	29.9	3.02e+01	47	32	101	524288	54	5655
2026-01-06 16:20:50.21	23.22	27.46	-36.6	-37.8	29.9	3.02e+01	57	32	101	524288	54	5709
2026-01-06 16:20:54.25	23.34	28.27	-36.8	-37.9	29.8	3.02e+01	45	32	101	524288	54	5790
2026-01-06 16:20:58.29	23.46	29.12	-36.9	-38.1	29.6	3.02e+01	62	32	101	524288	54	5915
2026-01-06 16:21:02.33	23.59	29.99	-36.9	-38.1	29.7	3.02e+01	52	32	101	524288	54	5893
2026-01-06 16:21:06.37	23.72	30.88	-37.0	-38.1	29.5	3.02e+01	60	32	101	524288	54	5921
2026-01-06 16:21:10.41	23.87	31.81	-37.1	-38.3	29.5	3.02e+01	59	32	101	524288	54	6054
2026-01-06 16:21:14.46	24.02	32.78	-37.1	-38.3	29.5	3.02e+01	61	32	101	524288	54	6038
2026-01-06 16:21:18.50	24.17	33.77	-37.1	-38.3	29.5	3.02e+01	47	32	101	524288	54	6015
2026-01-06 16:21:22.54	24.34	34.81	-37.1	-38.3	29.5	3.02e+01	59	32	101	524288	54	6038
2026-01-06 16:21:26.58	24.52	35.87	-37.3	-38.5	29.3	3.02e+01	45	32	101	524288	54	6158
2026-01-06 16:21:30.62	24.71	36.98	-37.4	-38.7	29.2	3.02e+01	61	32	101	524288	54	6285
2026-01-06 16:21:34.66	24.91	38.13	-37.4	-38.6	29.3	3.02e+01	43	32	101	524288	54	6224
2026-01-06 16:21:38.70	25.13	39.32	-37.4	-38.6	29.4	3.02e+01	54	32	101	524288	54	6214
2026-01-06 16:21:42.75	25.36	40.56	-36.9	-38.1	29.8	3.02e+01	44	32	101	524288	54	5878
2026-01-06 16:21:46.79	25.61	41.84	-36.9	-38.1	29.8	3.02e+01	61	32	101	524288	54	5884
2026-01-06 16:21:50.83	25.88	43.17	-36.7	-37.9	29.8	3.02e+01	58	32	101	524288	54	5741
2026-01-06 16:21:54.86	26.17	44.55	-36.6	-37.8	30.0	3.02e+01	59	32	101	524288	54	5699
2026-01-06 16:21:58.89	26.48	45.98	-36.5	-37.7	30.1	3.02e+01	60	32	101	524288	54	5626
2026-01-06 16:22:02.92	26.83	47.46	-36.7	-37.9	29.9	3.02e+01	59	32	101	524288	54	5759
2026-01-06 16:22:06.95	27.21	49.00	-36.8	-38.0	29.8	3.02e+01	59	32	101	524288	54	5841
2026-01-06 16:22:10.98	27.63	50.60	-37.0	-38.2	29.8	3.02e+01	61	32	101	524288	54	5940
2026-01-06 16:22:15.01	28.10	52.25	-37.3	-38.5	29.4	3.02e+01	60	32	101	524288	54	6154
2026-01-06 16:22:19.04	28.62	53.96	-37.8	-39.0	29.0	3.02e+01	57	32	101	524288	54	6531
2026-01-06 16:22:23.08	29.21	55.73	-38.2	-39.4	28.5	3.02e+01	60	32	101	524288	54	6882
2026-01-06 16:22:27.12	29.88	57.57	-38.8	-40.1	28.1	3.02e+01	59	32	101	524288	56	6598
2026-01-06 16:22:31.16	30.64	59.46	-39.0	-40.3	27.9	3.02e+01	59	32	101	524288	56	6791
2026-01-06 16:22:35.20	31.53	61.41	-38.9	-40.2	28.0	3.02e+01	60	32	101	524288	56	6700
2026-01-06 16:22:39.24	32.56	63.42	-38.5	-39.8	28.4	3.02e+01	56	32	101	524288	56	6351
2026-01-06 16:22:43.28	33.79	65.47	-37.8	-39.0	29.1	3.02e+01	59	32	101	524288	56	5813
2026-01-06 16:22:47.32	35.28	67.58	-37.1	-38.2	29.7	3.02e+01	59	32	101	524288	54	5992
2026-01-06 16:22:51.36	37.10	69.71	-36.9	-38.1	29.8	3.02e+01	62	32	101	524288	54	5901
2026-01-06 16:22:55.40	39.38	71.88	-37.0	-38.2	29.7	3.02e+01	60	32	101	524288	54	5981
2026-01-06 16:22:59.44	42.33	74.06	-36.9	-38.1	29.8	3.02e+01	59	32	101	524288	54	5900
2026-01-06 16:23:03.48	46.25	76.22	-37.0	-38.2	29.7	3.02e+01	59	32	101	524288	54	5964
2026-01-06 16:23:07.52	51.66	78.34	-36.3	-37.5	30.3	3.02e+01	45	32	101	524288	52	6179
2026-01-06 16:23:11.57	59.47	80.33	-36.0	-37.2	30.6	3.02e+01	59	32	101	524288	52	5928
2026-01-06 16:23:15.61	71.04	82.08	-36.2	-37.3	30.4	3.02e+01	57	32	101	524288	52	6047
2026-01-06 16:23:19.65	88.09	83.36	-37.2	-38.4	29.5	3.02e+01	57	32	101	524288	52	6862
2026-01-06 16:23:23.69	110.27	83.84	-37.7	-38.9	29.1	3.02e+01	50	32	101	524288	54	6437
2026-01-06 16:23:27.74	132.46	83.34	-38.4	-39.7	28.4	3.02e+01	59	32	101	524288	56	6279
2026-01-06 16:23:31.78	149.43	82.06	-39.0	-40.3	27.9	3.02e+01	57	32	101	524288	56	6762
2026-01-06 16:23:35.82	160.95	80.31	-40.7	-42.2	26.3	3.02e+01	53	32	101	524288	60	6664
2026-01-06 16:23:39.86	168.70	78.31	-42.0	-43.6	24.9	3.02e+01	47	32	101	524288	60	7858
2026-01-06 16:23:43.90	174.09	76.19	-42.0	-43.6	24.8	3.02e+01	58	32	101	524288	60	7825
2026-01-06 16:23:47.94	178.00	74.03	-41.7	-43.2	25.2	3.02e+01	52	32	101	524288	60	7546
2026-01-06 16:23:51.99	180.94	71.84	-40.5	-41.9	26.4	3.02e+01	62	32	101	524288	60	6482
2026-01-06 16:23:56.03	183.22	69.67	-40.3	-41.6	26.7	3.02e+01	47	32	101	524288	60	6260
2026-01-06 16:24:00.06	185.03	67.53	-39.6	-40.9	27.3	3.02e+01	59	32	101	524288	60	5753
2026-01-06 16:24:04.11	186.52	65.42	-38.5	-39.7	28.3	3.02e+01	56	32	101	524288	58	5658
2026-01-06 16:24:08.15	187.74	63.36	-37.1	-38.2	29.5	3.02e+01	60	32	101	524288	54	5984
2026-01-06 16:24:12.19	188.78	61.35	-37.5	-38.7	29.3	3.02e+01	55	32	101	524288	54	6311
2026-01-06 16:24:16.23	189.66	59.40	-37.9	-39.1	28.9	3.02e+01	60	32	101	524288	56	5925
2026-01-06 16:24:20.27	190.42	57.50	-37.1	-38.3	29.5	3.02e+01	59	32	101	524288	54	6054
2026-01-06 16:24:24.31	191.09	55.66	-37.9	-39.2	28.5	3.02e+01	62	32	101	524288	54	6691
2026-01-06 16:24:28.36	191.68	53.88	-37.9	-39.1	28.9	3.02e+01	61	32	101	524288	54	6609
2026-01-06 16:24:32.40	192.20	52.16	-38.0	-39.2	28.8	3.02e+01	63	32	101	524288	54	6724
2026-01-06 16:24:36.44	192.67	50.50	-39.2	-40.4	27.6	3.02e+01	59	32	101	524288	58	6126
2026-01-06 16:24:40.48	193.09	48.90	-40.7	-42.1	26.2	3.02e+01	62	32	101	524288	60	6618
2026-01-06 16:24:44.52	193.47	47.35	-40.5	-41.9	26.4	3.02e+01	61	32	101	524288	60	6493
2026-01-06 16:24:48.56	193.81	45.86	-40.0	-41.3	27.0	3.02e+01	57	32	101	524288	60	6012
2026-01-06 16:24:52.60	194.13	44.43	-41.2	-42.7	25.6	3.02e+01	57	32	101	524288	60	7100
2026-01-06 16:24:56.64	194.42	43.04	-40.8	-42.2	26.2	3.02e+01	59	32	101	524288	60	6680
2026-01-06 16:25:00.68	194.69	41.71	-39.9	-41.3	27.0	3.02e+01	58	32	101	524288	60	6028
2026-01-06 16:25:04.72	194.93	40.43	-38.9	-40.2	28.1	3.02e+01	59	32	101	524288	58	5985
2026-01-06 16:25:08.76	195.16	39.19	-38.0	-39.3	28.8	3.02e+01	60	32	101	524288	56	6024
2026-01-06 16:25:12.80	195.38	38.00	-37.7	-38.9	29.1	3.02e+01	45	32	101	524288	56	5770
2026-01-06 16:25:16.84	195.58	36.85	-37.5	-38.7	29.2	3.02e+01	55	32	101	524288	56	5637
2026-01-06 16:25:20.88	195.77	35.74	-36.4	-37.6	30.2	3.02e+01	60	32	101	524288	54	5550
2026-01-06 16:25:24.92	195.94	34.67	-36.1	-37.2	30.5	3.02e+01	60	32	101	524288	52	5990
2026-01-06 16:25:28.95	196.11	33.64	-36.7	-37.9	30.1	3.02e+01	55	32	101	524288	52	6424
2026-01-06 16:25:32.98	196.26	32.64	-37.0	-38.2	29.7	3.02e+01	58	32	101	524288	52	6678
2026-01-06 16:25:37.00	196.41	31.68	-37.2	-38.4	29.6	3.02e+01	46	32	101	524288	54	6101
2026-01-06 16:25:41.02	196.55	30.76	-37.4	-38.7	29.3	3.02e+01	59	32	101	524288	54	6278
2026-01-06 16:25:45.04	196.68	29.86	-37.1	-38.3	29.6	3.02e+01	47	32	101	524288	54	6033
2026-01-06 16:25:49.07	196.81	28.99	-37.4	-38.6	29.4	3.02e+01	57	32	101	524288	54	6252
2026-01-06 16:25:53.09	196.93	28.15	-37.3	-38.5	29.3	3.02e+01	57	32	101	524288	54	6191
2026-01-06 16:25:57.11	197.04	27.34	-38.0	-39.3	28.8	3.02e+01	58	32	101	524288	54	6741
2026-01-06 16:26:01.13	197.15	26.55	-38.3	-39.6	28.6	3.02e+01	52	32	101	524288	56	6238
2026-01-06 16:26:05.16	197.26	25.78	-38.2	-39.5	28.7	3.02e+01	62	32	101	524288	56	6172
2026-01-06 16:26:09.18	197.36	25.04	-38.5	-39.8	28.3	3.02e+01	45	32	101	524288	56	6405
2026-01-06 16:26:13.21	197.46	24.32	-37.9	-39.2	29.0	3.02e+01	57	32	101	524288	56	5927
2026-01-06 16:26:17.25	197.55	23.62	-37.3	-38.5	29.5	3.02e+01	45	32	101	524288	54	6153
2026-01-06 16:26:21.29	197.64	22.93	-36.8	-38.0	29.8	3.02e+01	57	32	101	524288	54	5837
2026-01-06 16:26:25.33	197.72	22.27	-36.2	-37.3	30.4	3.02e+01	51	32	101	524288	52	6062
2026-01-06 16:26:29.38	197.81	21.63	-36.1	-37.3	30.4	3.02e+01	60	32	101	524288	52	6023
2026-01-06 16:26:33.42	197.89	21.00	-36.2	-37.4	30.3	3.02e+01	47	32	101	524288	52	6088
2026-01-06 16:26:37.46	197.97	20.39	-36.2	-37.4	30.3	3.02e+01	55	32	101	524288	52	6080
2026-01-06 16:26:41.50	198.04	19.79	-36.6	-37.8	29.9	3.02e+01	56	32	101	524288	52	6371
2026-01-06 16:26:45.55	198.11	19.21	-36.6	-37.8	29.9	3.02e+01	58	32	101	524288	52	6353
2026-01-06 16:26:49.59	198.18	18.64	-36.5	-37.7	30.0	3.02e+01	60	32	101	524288	52	6320
2026-01-06 16:26:53.63	198.25	18.09	-36.6	-37.8	30.0	3.02e+01	61	32	101	524288	52	6357
2026-01-06 16:26:57.67	198.32	17.56	-36.7	-37.9	29.9	3.02e+01	56	32	101	524288	52	6456
2026-01-06 16:27:01.72	198.38	17.03	-37.1	-38.3	29.5	3.02e+01	59	32	101	524288	52	6783
2026-01-06 16:27:05.76	198.44	16.51	-37.4	-38.6	29.3	3.02e+01	59	32	101	524288	54	6227
2026-01-06 16:27:09.80	198.50	16.01	-37.3	-38.5	29.3	3.02e+01	61	32	101	524288	54	6192
2026-01-06 16:27:13.84	198.56	15.52	-37.4	-38.7	29.2	3.02e+01	58	32	101	524288	54	6284
2026-01-06 16:27:17.88	198.62	15.04	-37.2	-38.4	29.4	3.02e+01	59	32	101	524288	54	6087
2026-01-06 16:27:21.93	198.68	14.57	-37.3	-38.5	29.3	3.02e+01	61	32	101	524288	54	6152
2026-01-06 16:27:25.97	198.73	14.11	-37.2	-38.4	29.3	3.02e+01	63	32	101	524288	54	6096
2026-01-06 16:27:30.01	198.79	13.66	-37.0	-38.2	29.5	3.02e+01	61	32	101	524288	54	5951
2026-01-06 16:27:34.06	198.84	13.22	-37.2	-38.4	29.4	3.02e+01	53	32	101	524288	54	6066
2026-01-06 16:27:38.10	198.89	12.79	-37.0	-38.2	29.6	3.02e+01	50	32	101	524288	54	5964
2026-01-06 16:27:42.14	198.94	12.36	-37.0	-38.2	29.5	3.02e+01	46	32	101	524288	54	5970
2026-01-06 16:27:46.18	198.99	11.94	-37.0	-38.2	29.6	3.02e+01	60	32	101	524288	54	5989
2026-01-06 16:27:50.22	199.03	11.54	-37.1	-38.3	29.5	3.02e+01	47	32	101	524288	54	6014
2026-01-06 16:27:54.26	199.08	11.13	-37.0	-38.2	29.5	3.02e+01	55	32	101	524288	54	5957
2026-01-06 16:27:58.30	199.13	10.74	-36.9	-38.1	29.5	3.02e+01	57	32	101	524288	54	5919
2026-01-06 16:28:02.34	199.17	10.35	-36.9	-38.1	29.5	3.02e+01	60	32	101	524288	54	5909
2026-01-06 16:28:06.39	199.22	9.97	-36.8	-38.0	29.6	3.02e+01	58	32	101	524288	54	5829
2026-01-06 16:28:10.43	199.26	9.60	-36.8	-38.0	29.6	3.02e+01	58	32	101	524288	54	5804
2026-01-06 16:28:14.47	199.30	9.23	-36.8	-38.0	29.6	3.02e+01	47	32	101	524288	54	5833
2026-01-06 16:28:18.51	199.34	8.87	-36.8	-38.0	29.5	3.02e+01	62	32	101	524288	54	5847
2026-01-06 16:28:22.55	199.38	8.51	-36.8	-38.0	29.5	3.02e+01	50	32	101	524288	54	5817
2026-01-06 16:28:26.59	199.42	8.16	-36.8	-38.0	29.6	3.02e+01	60	32	101	524288	54	5806
2026-01-06 16:28:30.63	199.46	7.82	-36.8	-38.0	29.5	3.02e+01	52	32	101	524288	54	5844
2026-01-06 16:28:34.67	199.50	7.48	-36.9	-38.1	29.5	3.02e+01	57	32	101	524288	54	5901
2026-01-06 16:28:38.71	199.54	7.14	-37.0	-38.2	29.4	3.02e+01	44	32	101	524288	54	5927
2026-01-06 16:28:42.75	199.58	6.81	-37.0	-38.2	29.4	3.02e+01	58	32	101	524288	54	5951
2026-01-06 16:28:46.79	199.61	6.49	-37.2	-38.4	29.1	3.02e+01	61	32	101	524288	54	6093
2026-01-06 16:28:50.84	199.65	6.16	-37.2	-38.4	29.1	3.02e+01	58	32	101	524288	54	6087
2026-01-06 16:28:54.88	199.69	5.85	-37.4	-38.7	28.9	3.02e+01	52	32	101	524288	54	6278
2026-01-06 16:28:58.92	199.72	5.53	-37.3	-38.6	29.0	3.02e+01	61	32	101	524288	54	6220
2026-01-06 16:29:02.95	199.76	5.23	-37.4	-38.7	28.8	3.02e+01	60	32	101	524288	54	6299
2026-01-06 16:29:06.98	199.79	4.92	-37.6	-38.8	28.7	3.02e+01	58	32	101	524288	54	6399
2026-01-06 16:29:11.01	199.82	4.62	-37.5	-38.7	28.8	3.02e+01	59	32	101	524288	54	6326
2026-01-06 16:29:15.03	199.86	4.33	-37.6	-38.9	28.6	3.02e+01	62	32	101	524288	54	6439
2026-01-06 16:29:19.06	199.89	4.03	-37.8	-39.1	28.5	3.02e+01	59	32	101	524288	54	6575
2026-01-06 16:29:23.09	199.92	3.75	-38.0	-39.2	28.4	3.02e+01	59	32	101	524288	54	6700
2026-01-06 16:29:27.12	199.95	3.46	-37.9	-39.1	28.4	3.02e+01	60	32	101	524288	54	6627
2026-01-06 16:29:31.14	199.98	3.18	-38.0	-39.2	28.2	3.02e+01	57	32	101	524288	54	6722
2026-01-06 16:29:35.16	200.01	2.90	-38.1	-39.4	28.2	3.02e+01	58	32	101	524288	54	6813
2026-01-06 16:29:39.19	200.05	2.62	-38.4	-39.7	27.9	3.02e+01	60	32	101	524288	56	6315
2026-01-06 16:29:43.22	200.08	2.35	-38.5	-39.8	27.7	3.02e+01	59	32	101	524288	56	6413
2026-01-06 16:29:47.25	200.11	2.08	-38.6	-39.9	27.6	3.02e+01	59	32	101	524288	56	6437
2026-01-06 16:29:51.28	200.14	1.81	-38.8	-40.1	27.5	3.02e+01	58	32	101	524288	56	6614
2026-01-06 16:29:55.31	200.16	1.55	-38.8	-40.1	27.3	3.02e+01	63	32	101	524288	56	6642
2026-01-06 16:29:59.33	200.19	1.29	-38.9	-40.2	27.2	3.02e+01	59	32	101	524288	56	6720
2026-01-06 16:30:03.36	200.22	1.03	-39.1	-40.5	26.9	3.02e+01	59	32	101	524288	56	6885
2026-01-06 16:30:07.39	200.25	0.77	-39.4	-40.7	26.5	3.02e+01	60	32	101	524288	58	6346
2026-01-06 16:30:11.43	200.28	0.51	-39.2	-40.6	26.6	3.02e+01	61	32	101	524288	58	6208
2026-01-06 16:30:15.47	200.31	0.26	-39.5	-40.9	26.5	3.02e+01	60	32	101	524288	58	6441
2026-01-06 16:30:19.51	200.33	0.01	-39.6	-41.0	26.2	3.02e+01	52	32	101	524288	58	6513

#Closed at: 2026-01-06 16:30:20
#Recorded file [0 MB]: D:/lorett/data/35034_260106_191627.dat