passes_logs/2026/01/06/R4.6S_Anadyr_2ch/R4.6S_Anadyr_2ch__20260106_023011_NOAA_20_JPSS-1_rec.log

#Pass ID: 20260106_023011_NOAA 20 (JPSS-1)
#Satellite: NOAA 20 (JPSS-1)
#Configuration: NOAA 20
#almurnet v.1.7.20251203
#Start time: 2026-01-06 02:30:12

#Version: 2.2.20231116
#Station: R4.6S_Anadyr_2ch
#Location: 177.4865 lon 64.73178 lat
#TLE: 1 43013U 17073A   25350.93759711  .00000080  00000+0  58734-4 0  9994
#TLE: 2 43013  98.7603 287.1885 0002156  81.1496 278.9924 14.19526878418610

#Time	Az	El	Level	Level2	SNR	BER	BlckErr	Temp	State	Recorded	gain1	gain2
2026-01-06 02:30:12.00	216.16	0.03	-51.1	-66.3	3.5	1.51e+00	0	29	0	0	60	100315
2026-01-06 02:30:16.05	216.45	0.23	-51.1	-66.5	3.6	1.51e+00	0	30	104	0	60	102792
2026-01-06 02:30:20.09	216.74	0.43	-51.1	-66.5	3.6	1.51e+00	0	30	104	0	60	103330
2026-01-06 02:30:24.13	217.04	0.64	-51.1	-66.5	3.6	1.51e+00	0	31	104	0	60	102527
2026-01-06 02:30:28.17	217.34	0.84	-51.1	-66.5	3.6	1.51e+00	0	31	104	0	60	102881
2026-01-06 02:30:32.22	217.64	1.05	-51.1	-66.5	3.6	1.51e+00	0	31	104	0	60	103086
2026-01-06 02:30:36.26	217.95	1.26	-51.1	-66.5	3.6	1.51e+00	0	31	104	0	60	103263
2026-01-06 02:30:40.31	218.26	1.47	-51.1	-66.5	3.6	1.51e+00	0	31	104	0	60	102532
2026-01-06 02:30:44.35	218.58	1.68	-51.1	-66.5	3.6	1.51e+00	0	31	104	0	60	102997
2026-01-06 02:30:48.40	218.90	1.89	-51.1	-66.5	3.6	1.51e+00	0	31	104	0	60	102980
2026-01-06 02:30:52.44	219.23	2.10	-51.1	-66.5	3.6	1.51e+00	0	31	104	0	60	102613
2026-01-06 02:30:56.48	219.56	2.31	-51.1	-66.5	3.6	1.51e+00	0	31	104	0	60	102732
2026-01-06 02:31:00.53	219.89	2.52	-51.1	-66.5	3.6	1.51e+00	0	31	104	0	60	102602
2026-01-06 02:31:04.57	220.23	2.73	-51.1	-66.4	3.6	1.51e+00	0	31	104	0	60	102439
2026-01-06 02:31:08.61	220.57	2.95	-51.1	-66.4	3.6	1.51e+00	0	31	104	0	60	102416
2026-01-06 02:31:12.65	220.92	3.16	-51.1	-66.5	3.6	1.51e+00	0	31	104	0	60	102599
2026-01-06 02:31:16.70	221.28	3.38	-51.1	-66.5	3.6	1.51e+00	0	31	104	0	60	103001
2026-01-06 02:31:20.74	221.63	3.59	-51.1	-66.5	3.6	1.51e+00	0	31	104	0	60	103151
2026-01-06 02:31:24.78	222.00	3.81	-51.1	-66.5	3.6	1.51e+00	0	31	104	0	60	102586
2026-01-06 02:31:28.83	222.37	4.03	-51.1	-66.5	3.6	1.51e+00	0	31	104	0	60	103025
2026-01-06 02:31:32.87	222.74	4.25	-51.0	-66.5	3.6	1.51e+00	0	31	104	0	60	102878
2026-01-06 02:31:36.91	223.12	4.47	-51.1	-66.6	3.6	1.51e+00	0	31	104	0	60	104659
2026-01-06 02:31:40.96	223.51	4.69	-51.0	-66.5	3.6	1.51e+00	0	31	104	0	60	103351
2026-01-06 02:31:45.00	223.90	4.91	-51.1	-66.6	3.5	1.51e+00	0	31	104	0	60	103824
2026-01-06 02:31:49.04	224.29	5.13	-51.1	-66.5	3.6	1.51e+00	0	31	104	0	60	102945
2026-01-06 02:31:53.09	224.69	5.35	-51.2	-66.5	3.6	1.51e+00	0	31	104	0	60	103074
2026-01-06 02:31:57.13	225.10	5.58	-51.1	-66.5	3.6	1.51e+00	0	31	104	0	60	103009
2026-01-06 02:32:01.18	225.52	5.80	-51.1	-66.6	3.6	1.51e+00	0	31	104	0	60	103818
2026-01-06 02:32:05.22	225.94	6.03	-51.1	-66.5	3.6	1.51e+00	0	31	104	0	60	103419
2026-01-06 02:32:09.26	226.36	6.25	-51.1	-66.5	3.6	1.51e+00	0	31	104	0	60	103390
2026-01-06 02:32:13.31	226.80	6.48	-51.1	-66.5	3.6	1.51e+00	0	31	104	0	60	103099
2026-01-06 02:32:17.35	227.24	6.70	-51.1	-66.5	3.6	1.51e+00	0	31	104	0	60	103301
2026-01-06 02:32:21.39	227.68	6.93	-51.1	-66.5	3.6	1.51e+00	0	31	104	0	60	103232
2026-01-06 02:32:25.43	228.13	7.16	-51.1	-66.5	3.6	1.51e+00	0	31	104	0	60	103525
2026-01-06 02:32:29.48	228.59	7.39	-51.1	-66.5	3.6	1.51e+00	0	31	104	0	60	103276
2026-01-06 02:32:33.53	229.06	7.62	-51.1	-66.5	3.6	1.51e+00	0	31	104	0	60	103019
2026-01-06 02:32:37.57	229.53	7.85	-51.1	-66.5	3.6	1.51e+00	0	32	104	0	60	102920
2026-01-06 02:32:41.61	230.01	8.08	-51.1	-66.5	3.6	1.51e+00	0	32	104	0	60	103018
2026-01-06 02:32:45.65	230.50	8.31	-51.1	-66.6	3.6	1.51e+00	0	32	104	0	60	103739
2026-01-06 02:32:49.69	231.00	8.54	-51.1	-66.5	3.6	1.51e+00	0	32	104	0	60	103234
2026-01-06 02:32:53.74	231.50	8.77	-51.1	-66.5	3.6	1.51e+00	0	31	104	0	60	103461
2026-01-06 02:32:57.78	232.01	9.00	-51.1	-66.5	3.6	1.51e+00	0	32	104	0	60	102864
2026-01-06 02:33:01.82	232.53	9.23	-51.1	-66.5	3.6	1.51e+00	0	32	104	0	60	103258
2026-01-06 02:33:05.86	233.06	9.46	-51.0	-66.5	3.6	1.51e+00	0	32	104	0	60	103208
2026-01-06 02:33:09.90	233.59	9.69	-51.1	-66.5	3.6	1.51e+00	0	32	104	0	60	103051
2026-01-06 02:33:13.95	234.14	9.92	-51.1	-66.5	3.6	1.51e+00	0	32	104	0	60	103576
2026-01-06 02:33:17.99	234.69	10.15	-51.1	-66.5	3.6	1.51e+00	0	32	104	0	60	103203
2026-01-06 02:33:22.03	235.25	10.38	-51.1	-66.5	3.6	1.51e+00	0	32	104	0	60	103315
2026-01-06 02:33:26.08	235.82	10.61	-51.0	-66.5	3.6	1.51e+00	0	32	104	0	60	103114
2026-01-06 02:33:30.12	236.39	10.84	-51.0	-66.5	3.6	1.51e+00	0	32	104	0	60	103598
2026-01-06 02:33:34.17	236.98	11.07	-51.0	-66.5	3.5	1.51e+00	0	32	104	0	60	103484
2026-01-06 02:33:38.21	237.57	11.30	-51.1	-66.5	3.6	1.51e+00	0	32	104	0	60	103486
2026-01-06 02:33:42.26	238.18	11.53	-51.1	-66.6	3.6	1.51e+00	0	32	104	0	60	103800
2026-01-06 02:33:46.30	238.79	11.76	-51.1	-66.5	3.6	1.51e+00	0	32	104	0	60	103045
2026-01-06 02:33:50.34	239.41	11.99	-51.2	-66.5	3.6	1.51e+00	0	32	104	0	60	103161
2026-01-06 02:33:54.39	240.05	12.21	-51.2	-66.6	3.6	1.51e+00	0	32	104	0	60	103884
2026-01-06 02:33:58.43	240.69	12.44	-51.2	-66.5	3.6	1.51e+00	0	32	104	0	60	103413
2026-01-06 02:34:02.47	241.34	12.66	-51.2	-66.6	3.6	1.51e+00	0	32	104	0	60	104010
2026-01-06 02:34:06.52	242.00	12.88	-51.1	-66.5	3.6	1.51e+00	0	32	104	0	60	103474
2026-01-06 02:34:10.56	242.67	13.10	-51.1	-66.5	3.5	1.51e+00	0	32	104	0	60	103335
2026-01-06 02:34:14.61	243.35	13.32	-51.0	-66.6	3.6	1.51e+00	0	32	104	0	60	103911
2026-01-06 02:34:18.65	244.04	13.54	-51.0	-66.5	3.6	1.51e+00	0	32	104	0	60	103346
2026-01-06 02:34:22.69	244.73	13.76	-51.0	-66.5	3.6	1.51e+00	0	32	104	0	60	102874
2026-01-06 02:34:26.74	245.44	13.97	-51.0	-66.5	3.6	1.51e+00	0	32	104	0	60	103517
2026-01-06 02:34:30.78	246.16	14.18	-51.1	-66.5	3.6	1.51e+00	0	32	104	0	60	103110
2026-01-06 02:34:34.82	246.89	14.39	-51.0	-66.6	3.6	1.51e+00	0	32	104	0	60	103878
2026-01-06 02:34:38.87	247.63	14.60	-51.0	-66.5	3.6	1.51e+00	0	32	104	0	60	102906
2026-01-06 02:34:42.91	248.38	14.80	-51.0	-66.5	3.6	1.51e+00	0	32	104	0	60	103305
2026-01-06 02:34:46.95	249.14	15.00	-51.0	-66.6	3.6	1.51e+00	0	32	104	0	60	103704
2026-01-06 02:34:51.00	249.91	15.20	-51.1	-66.6	3.6	1.51e+00	0	32	104	0	60	103690
2026-01-06 02:34:55.04	250.68	15.39	-51.0	-66.6	3.6	1.51e+00	0	32	104	0	60	103755
2026-01-06 02:34:59.09	251.47	15.59	-51.0	-66.5	3.6	1.51e+00	0	32	104	0	60	102930
2026-01-06 02:35:03.12	252.27	15.77	-51.0	-66.5	3.6	1.51e+00	0	32	104	0	60	103401
2026-01-06 02:35:07.17	253.08	15.96	-51.0	-66.5	3.6	1.51e+00	0	32	104	0	60	103377
2026-01-06 02:35:11.21	253.89	16.13	-51.0	-66.6	3.6	1.51e+00	0	32	104	0	60	103829
2026-01-06 02:35:15.26	254.72	16.31	-51.0	-66.5	3.6	1.51e+00	0	32	104	0	60	103029
2026-01-06 02:35:19.30	255.55	16.48	-51.0	-66.6	3.6	1.51e+00	0	32	104	0	60	103875
2026-01-06 02:35:23.35	256.40	16.65	-51.1	-66.5	3.6	1.51e+00	0	32	104	0	60	103608
2026-01-06 02:35:27.39	257.25	16.81	-51.1	-66.5	3.6	1.51e+00	0	32	104	0	60	103289
2026-01-06 02:35:31.43	258.11	16.96	-51.1	-66.5	3.6	1.51e+00	0	32	104	0	60	103466
2026-01-06 02:35:35.48	258.99	17.11	-51.1	-66.5	3.6	1.51e+00	0	32	104	0	60	102910
2026-01-06 02:35:39.52	259.86	17.26	-51.1	-66.5	3.6	1.51e+00	0	32	104	0	60	103622
2026-01-06 02:35:43.57	260.75	17.40	-51.1	-66.5	3.6	1.51e+00	0	32	104	0	60	103600
2026-01-06 02:35:47.61	261.65	17.53	-51.1	-66.5	3.6	1.51e+00	0	32	104	0	60	103578
2026-01-06 02:35:51.66	262.55	17.66	-51.1	-66.5	3.6	1.51e+00	0	32	104	0	60	103377
2026-01-06 02:35:55.70	263.46	17.78	-51.1	-66.5	3.6	1.51e+00	0	32	104	0	60	103485
2026-01-06 02:35:59.74	264.37	17.90	-51.1	-66.5	3.6	1.51e+00	0	32	104	0	60	103290
2026-01-06 02:36:03.79	265.30	18.00	-51.1	-66.5	3.6	1.51e+00	0	32	104	0	60	103240
2026-01-06 02:36:07.83	266.23	18.11	-51.1	-66.5	3.6	1.51e+00	0	32	104	0	60	103006
2026-01-06 02:36:11.87	267.16	18.20	-51.1	-66.5	3.6	1.51e+00	0	32	104	0	60	102704
2026-01-06 02:36:15.92	268.10	18.29	-51.1	-66.5	3.6	1.51e+00	0	32	104	0	60	103583
2026-01-06 02:36:19.96	269.05	18.37	-51.1	-66.5	3.6	1.51e+00	0	32	104	0	60	102872
2026-01-06 02:36:24.01	270.00	18.44	-51.0	-66.5	3.6	1.51e+00	0	32	104	0	60	102525
2026-01-06 02:36:28.05	270.95	18.51	-51.0	-66.5	3.6	1.51e+00	0	32	104	0	60	102597
2026-01-06 02:36:32.09	271.91	18.56	-51.0	-66.5	3.6	1.51e+00	0	32	104	0	60	102624
2026-01-06 02:36:36.14	272.87	18.62	-51.0	-66.4	3.6	1.51e+00	0	32	104	0	60	102426
2026-01-06 02:36:40.18	273.83	18.66	-51.1	-66.5	3.6	1.51e+00	0	32	104	0	60	102561
2026-01-06 02:36:44.23	274.80	18.69	-51.1	-66.5	3.6	1.51e+00	0	32	104	0	60	102706
2026-01-06 02:36:48.27	275.77	18.72	-51.1	-66.5	3.6	1.51e+00	0	32	104	0	60	103180
2026-01-06 02:36:52.31	276.74	18.74	-51.1	-66.5	3.6	1.51e+00	0	32	104	0	60	103290
2026-01-06 02:36:56.36	277.71	18.75	-51.1	-66.4	3.6	1.51e+00	0	32	104	0	60	102434
2026-01-06 02:37:00.40	278.68	18.75	-51.0	-66.5	3.6	1.51e+00	0	32	104	0	60	103224
2026-01-06 02:37:04.45	279.65	18.75	-50.9	-66.4	3.6	1.51e+00	0	32	104	0	60	102349
2026-01-06 02:37:08.49	280.62	18.73	-50.9	-66.4	3.6	1.51e+00	0	32	104	0	60	102119
2026-01-06 02:37:12.53	281.59	18.71	-50.9	-66.5	3.6	1.51e+00	0	32	104	0	60	102865
2026-01-06 02:37:16.58	282.55	18.68	-50.9	-66.4	3.6	1.51e+00	0	32	104	0	60	102323
2026-01-06 02:37:20.62	283.52	18.65	-50.8	-66.4	3.6	1.51e+00	0	32	104	0	60	102334
2026-01-06 02:37:24.67	284.48	18.60	-50.8	-66.5	3.6	1.51e+00	0	32	104	0	60	102584
2026-01-06 02:37:28.71	285.44	18.55	-50.8	-66.4	3.6	1.51e+00	0	32	104	0	60	102396
2026-01-06 02:37:32.75	286.39	18.49	-50.9	-66.4	3.5	1.51e+00	0	32	104	0	60	102384
2026-01-06 02:37:36.80	287.35	18.42	-50.9	-66.4	3.6	1.51e+00	0	32	104	0	60	102155
2026-01-06 02:37:40.84	288.29	18.35	-50.9	-66.4	3.6	1.51e+00	0	32	104	0	60	102156
2026-01-06 02:37:44.89	289.24	18.26	-50.9	-66.4	3.6	1.51e+00	0	32	104	0	60	101697
2026-01-06 02:37:48.93	290.17	18.18	-50.9	-66.4	3.6	1.51e+00	0	32	104	0	60	101921
2026-01-06 02:37:52.97	291.10	18.08	-50.8	-66.4	3.6	1.51e+00	0	32	104	0	60	102053
2026-01-06 02:37:57.02	292.03	17.98	-50.8	-66.4	3.6	1.51e+00	0	32	104	0	60	101606
2026-01-06 02:38:01.06	292.95	17.87	-50.7	-66.4	3.6	1.51e+00	0	32	104	0	60	101891
2026-01-06 02:38:05.10	293.86	17.75	-50.7	-66.4	3.6	1.51e+00	0	32	104	0	60	101353
2026-01-06 02:38:09.15	294.76	17.63	-50.7	-66.4	3.6	1.51e+00	0	32	104	0	60	101719
2026-01-06 02:38:13.19	295.66	17.50	-50.6	-66.3	3.6	1.51e+00	0	32	104	0	60	101146
2026-01-06 02:38:17.24	296.55	17.36	-50.6	-66.4	3.6	1.51e+00	0	32	104	0	60	101719
2026-01-06 02:38:21.28	297.43	17.22	-50.6	-66.4	3.6	1.51e+00	0	32	104	0	60	101416
2026-01-06 02:38:25.32	298.31	17.08	-50.6	-66.4	3.6	1.51e+00	0	32	104	0	60	101912
2026-01-06 02:38:29.37	299.17	16.93	-50.5	-66.4	3.6	1.51e+00	0	32	104	0	60	101585
2026-01-06 02:38:33.41	300.03	16.77	-50.5	-66.4	3.6	1.51e+00	0	32	104	0	60	101373
2026-01-06 02:38:37.45	300.88	16.61	-50.4	-66.4	3.6	1.51e+00	0	32	104	0	60	101620
2026-01-06 02:38:41.49	301.71	16.44	-50.5	-66.3	3.6	1.51e+00	0	32	104	0	60	101257
2026-01-06 02:38:45.54	302.54	16.27	-50.5	-66.3	3.6	1.51e+00	0	32	104	0	60	101044
2026-01-06 02:38:49.58	303.36	16.10	-50.6	-66.4	3.6	1.51e+00	0	32	104	0	60	101480
2026-01-06 02:38:53.62	304.17	15.92	-50.7	-66.3	3.6	1.51e+00	0	32	104	0	60	101199
2026-01-06 02:38:57.67	304.98	15.73	-50.8	-66.3	3.6	1.51e+00	0	32	104	0	60	101006
2026-01-06 02:39:01.71	305.77	15.55	-50.8	-66.3	3.6	1.51e+00	0	32	104	0	60	100785
2026-01-06 02:39:05.75	306.55	15.36	-50.9	-66.3	3.6	1.51e+00	0	32	104	0	60	100528
2026-01-06 02:39:09.80	307.32	15.16	-50.9	-66.3	3.6	1.51e+00	0	32	104	0	60	100429
2026-01-06 02:39:13.84	308.08	14.97	-50.9	-66.3	3.6	1.51e+00	0	32	104	0	60	100885
2026-01-06 02:39:17.89	308.84	14.77	-50.9	-66.3	3.6	1.51e+00	0	32	104	0	60	100546
2026-01-06 02:39:21.93	309.58	14.56	-50.8	-66.3	3.5	1.51e+00	0	32	104	0	60	100464
2026-01-06 02:39:25.97	310.31	14.36	-50.8	-66.3	3.6	1.51e+00	0	32	104	0	60	100220
2026-01-06 02:39:30.02	311.04	14.15	-50.8	-66.3	3.6	1.51e+00	0	32	104	0	60	100416
2026-01-06 02:39:34.06	311.75	13.94	-50.7	-66.2	3.6	1.51e+00	0	32	104	0	60	99635
2026-01-06 02:39:38.11	312.45	13.73	-50.7	-66.2	3.6	1.51e+00	0	32	104	0	60	99878
2026-01-06 02:39:42.15	313.14	13.51	-50.7	-66.2	3.6	1.51e+00	0	32	104	0	60	99376
2026-01-06 02:39:46.20	313.83	13.30	-50.7	-66.1	3.6	1.51e+00	0	32	104	0	60	98571
2026-01-06 02:39:50.24	314.50	13.08	-50.7	-66.2	3.6	1.51e+00	0	32	104	0	60	99416
2026-01-06 02:39:54.28	315.17	12.86	-50.6	-66.1	3.6	1.51e+00	0	32	104	0	60	98737
2026-01-06 02:39:58.33	315.82	12.64	-50.6	-66.2	3.6	1.51e+00	0	32	104	0	60	99017
2026-01-06 02:40:02.37	316.47	12.42	-50.6	-66.1	3.6	1.51e+00	0	32	104	0	60	98697
2026-01-06 02:40:06.41	317.10	12.19	-50.6	-66.1	3.6	1.51e+00	0	32	104	0	60	98366
2026-01-06 02:40:10.45	317.73	11.97	-50.6	-66.0	3.6	1.51e+00	0	32	104	0	60	97749
2026-01-06 02:40:14.50	318.35	11.75	-50.6	-66.1	3.6	1.51e+00	0	32	104	0	60	98023
2026-01-06 02:40:18.54	318.95	11.52	-50.6	-66.0	3.6	1.51e+00	0	32	104	0	60	97756
2026-01-06 02:40:22.58	319.55	11.29	-50.6	-66.0	3.6	1.51e+00	0	32	104	0	60	97502
2026-01-06 02:40:26.63	320.14	11.07	-50.6	-66.0	3.6	1.51e+00	0	32	104	0	60	96977
2026-01-06 02:40:30.67	320.72	10.84	-50.6	-66.0	3.6	1.51e+00	0	32	104	0	60	96826
2026-01-06 02:40:34.71	321.30	10.61	-50.5	-65.9	3.6	1.51e+00	0	32	104	0	60	96362
2026-01-06 02:40:38.76	321.86	10.38	-50.5	-65.9	3.6	1.51e+00	0	32	104	0	60	96147
2026-01-06 02:40:42.80	322.42	10.15	-50.5	-65.9	3.5	1.51e+00	0	32	104	0	60	96292
2026-01-06 02:40:46.85	322.97	9.92	-50.4	-65.8	3.5	1.51e+00	0	32	104	0	60	95546
2026-01-06 02:40:50.89	323.50	9.70	-50.4	-65.8	3.6	1.51e+00	0	32	104	0	60	94838
2026-01-06 02:40:54.94	324.04	9.47	-50.3	-65.7	3.6	1.51e+00	0	32	104	0	60	94491
2026-01-06 02:40:58.98	324.56	9.24	-50.3	-65.7	3.6	1.51e+00	0	32	104	0	60	94075
2026-01-06 02:41:03.02	325.07	9.01	-50.2	-65.6	3.6	1.51e+00	0	32	104	0	60	92712
2026-01-06 02:41:07.07	325.58	8.78	-50.2	-65.6	3.6	1.51e+00	0	32	104	0	60	92416
2026-01-06 02:41:11.11	326.08	8.55	-50.1	-65.4	3.6	1.51e+00	0	32	104	0	60	91317
2026-01-06 02:41:15.16	326.58	8.32	-50.0	-65.4	3.6	1.51e+00	0	32	104	0	60	90549
2026-01-06 02:41:19.20	327.06	8.10	-49.9	-65.3	3.6	1.51e+00	0	32	104	0	60	89577
2026-01-06 02:41:23.24	327.54	7.87	-49.8	-65.2	3.6	1.51e+00	0	32	104	0	60	88457
2026-01-06 02:41:27.29	328.01	7.64	-49.7	-65.1	3.6	1.51e+00	0	32	104	0	60	87538
2026-01-06 02:41:31.33	328.47	7.42	-49.6	-65.0	3.6	1.51e+00	0	32	104	0	60	86551
2026-01-06 02:41:35.37	328.93	7.19	-49.5	-64.8	3.6	1.51e+00	0	32	104	0	60	85130
2026-01-06 02:41:39.41	329.38	6.96	-49.5	-64.8	3.6	1.51e+00	0	32	104	0	60	85113
2026-01-06 02:41:43.45	329.82	6.74	-50.7	-66.1	3.5	1.51e+00	0	32	104	0	60	98463
2026-01-06 02:41:47.50	330.26	6.52	-50.9	-66.3	3.6	1.51e+00	0	32	104	0	60	100142
2026-01-06 02:41:51.54	330.69	6.29	-50.9	-66.3	3.6	1.51e+00	0	32	104	0	60	100379
2026-01-06 02:41:55.58	331.12	6.07	-50.8	-66.1	3.6	1.51e+00	0	32	104	0	60	98829
2026-01-06 02:41:59.63	331.54	5.85	-50.4	-65.8	3.6	1.51e+00	0	32	104	0	60	95435
2026-01-06 02:42:03.67	331.95	5.62	-49.3	-63.4	3.6	2.93e-01	0	32	104	1048576	60	72131
2026-01-06 02:42:07.72	332.36	5.40	-45.4	-47.6	16.5	6.62e-02	13	32	0	1048576	60	11751
2026-01-06 02:42:11.76	332.76	5.18	-45.3	-47.9	15.7	0.00e+00	0	32	0	1048576	60	12061
2026-01-06 02:42:15.80	333.15	4.96	-45.6	-49.8	12.0	5.41e-05	0	32	0	1048576	60	15023
2026-01-06 02:42:19.85	333.54	4.74	-46.2	-53.5	6.7	1.41e-01	92	32	0	1048576	60	23128
2026-01-06 02:42:23.89	333.93	4.53	-46.0	-56.6	3.8	1.36e+00	0	32	0	1048576	60	33099
2026-01-06 02:42:27.93	334.30	4.31	-45.9	-59.9	3.6	1.51e+00	0	32	104	1048576	60	48297
2026-01-06 02:42:31.98	334.68	4.09	-46.0	-61.3	3.6	1.51e+00	0	32	104	1048576	60	56577
2026-01-06 02:42:36.02	335.05	3.88	-46.0	-61.3	3.6	1.51e+00	0	32	104	1048576	60	56392
2026-01-06 02:42:40.07	335.41	3.66	-45.9	-61.3	3.6	1.51e+00	0	32	104	1048576	60	56704
2026-01-06 02:42:44.11	335.77	3.45	-45.9	-61.3	3.5	1.51e+00	0	32	104	1048576	60	56367
2026-01-06 02:42:48.15	336.12	3.23	-45.9	-61.2	3.6	1.51e+00	0	32	104	1048576	60	56088
2026-01-06 02:42:52.20	336.47	3.02	-48.8	-64.2	3.6	1.51e+00	0	32	104	1048576	60	79163
2026-01-06 02:42:56.24	336.81	2.81	-51.1	-66.5	3.6	1.51e+00	0	32	104	1048576	60	102560
2026-01-06 02:43:00.28	337.15	2.60	-51.2	-66.7	3.6	1.51e+00	0	32	104	1048576	60	105147
2026-01-06 02:43:04.33	337.49	2.39	-51.0	-66.5	3.6	1.51e+00	0	32	104	1048576	60	102896
2026-01-06 02:43:08.37	337.82	2.18	-51.2	-66.5	3.5	1.51e+00	0	32	104	1048576	60	103093
2026-01-06 02:43:12.41	338.14	1.97	-51.1	-66.5	3.6	1.51e+00	0	32	104	1048576	60	102751
2026-01-06 02:43:16.46	338.47	1.76	-51.1	-66.5	3.6	1.51e+00	0	32	104	1048576	60	102630
2026-01-06 02:43:20.50	338.78	1.56	-51.1	-66.5	3.6	1.51e+00	0	32	104	1048576	60	102970
2026-01-06 02:43:24.55	339.10	1.35	-51.1	-66.5	3.6	1.51e+00	0	32	104	1048576	60	102890
2026-01-06 02:43:28.59	339.41	1.15	-51.1	-66.5	3.6	1.51e+00	0	32	104	1048576	60	103043
2026-01-06 02:43:32.63	339.71	0.94	-51.1	-66.5	3.6	1.51e+00	0	32	104	1048576	60	102697
2026-01-06 02:43:36.67	340.01	0.74	-51.1	-66.5	3.6	1.51e+00	0	32	104	1048576	60	102623
2026-01-06 02:43:40.72	340.31	0.54	-51.1	-66.5	3.6	1.51e+00	0	32	104	1048576	60	102558
2026-01-06 02:43:44.76	340.60	0.33	-51.1	-66.5	3.6	1.51e+00	0	32	104	1048576	60	103026
2026-01-06 02:43:48.81	340.90	0.13	-51.1	-66.5	3.6	1.51e+00	0	32	104	1048576	60	102976

#Closed at: 2026-01-06 02:43:52
#Recorded file [1 MB]: D:/lorett/data/35034_260106_053011.dat