passes_logs/2026/01/06/R4.6S_Anadyr_2ch/R4.6S_Anadyr_2ch__20260106_125317_NOAA_20_JPSS-1_rec.log

#Pass ID: 20260106_125317_NOAA 20 (JPSS-1)
#Satellite: NOAA 20 (JPSS-1)
#Configuration: NOAA 20
#almurnet v.1.7.20251203
#Start time: 2026-01-06 12:53:19

#Version: 2.2.20231116
#Station: R4.6S_Anadyr_2ch
#Location: 177.4865 lon 64.73178 lat
#TLE: 1 43013U 17073A   25350.93759711  .00000080  00000+0  58734-4 0  9994
#TLE: 2 43013  98.7603 287.1885 0002156  81.1496 278.9924 14.19526878418610

#Time	Az	El	Level	Level2	SNR	BER	BlckErr	Temp	State	Recorded	gain1	gain2
2026-01-06 12:53:19.27	18.78	0.07	-51.3	-66.2	3.5	1.51e+00	0	31	0	0	60	99639
2026-01-06 12:53:23.31	19.02	0.29	-51.4	-66.8	3.6	1.51e+00	0	32	104	0	60	106114
2026-01-06 12:53:27.35	19.26	0.50	-51.4	-66.7	3.6	1.51e+00	0	32	104	0	60	105564
2026-01-06 12:53:31.39	19.50	0.72	-50.9	-66.2	3.5	1.51e+00	0	32	104	0	60	99618
2026-01-06 12:53:35.43	19.75	0.94	-49.9	-65.0	3.6	1.51e+00	0	32	104	0	60	87124
2026-01-06 12:53:39.47	20.01	1.16	-49.9	-65.1	3.6	1.51e+00	0	32	104	0	60	88029
2026-01-06 12:53:43.51	20.26	1.38	-49.9	-65.2	3.6	1.51e+00	0	32	104	0	60	88497
2026-01-06 12:53:47.55	20.52	1.60	-49.9	-65.0	3.6	1.51e+00	0	32	104	0	60	86797
2026-01-06 12:53:51.60	20.78	1.83	-49.9	-65.1	3.6	1.51e+00	0	32	104	0	60	87717
2026-01-06 12:53:55.64	21.05	2.05	-49.9	-65.1	3.6	1.51e+00	0	32	104	0	60	87886
2026-01-06 12:53:59.68	21.32	2.28	-49.8	-63.6	3.6	1.51e+00	0	33	104	0	60	73830
2026-01-06 12:54:03.72	21.59	2.51	-49.2	-57.4	6.8	3.41e-01	16	33	104	0	60	36074
2026-01-06 12:54:07.77	21.87	2.73	-44.9	-46.9	17.5	0.00e+00	75	32	102	1048576	60	10826
2026-01-06 12:54:11.78	22.15	2.96	-44.0	-45.8	18.5	0.00e+00	75	32	102	1048576	60	9473
2026-01-06 12:54:15.83	22.44	3.19	-48.7	-54.6	8.8	1.76e-03	92	32	102	1048576	60	26088
2026-01-06 12:54:19.87	22.73	3.43	-47.4	-51.0	13.0	3.23e-03	0	33	0	1048576	60	17271
2026-01-06 12:54:23.91	23.02	3.66	-47.2	-50.5	13.9	1.67e-05	74	33	0	1048576	60	16391
2026-01-06 12:54:27.96	23.32	3.90	-46.5	-49.3	15.4	0.00e+00	75	33	0	1048576	60	14177
2026-01-06 12:54:32.00	23.63	4.14	-44.5	-46.4	18.3	0.00e+00	90	32	0	1048576	60	10145
2026-01-06 12:54:36.04	23.93	4.37	-43.6	-45.1	19.4	0.00e+00	2	33	0	1048576	60	8788
2026-01-06 12:54:40.09	24.25	4.62	-42.9	-44.3	20.3	0.00e+00	6	32	0	1048576	60	7978
2026-01-06 12:54:44.13	24.57	4.86	-43.0	-44.3	20.3	0.00e+00	74	33	101	1048576	60	8035
2026-01-06 12:54:48.17	24.89	5.10	-42.8	-44.1	20.5	0.00e+00	92	33	101	1048576	60	7788
2026-01-06 12:54:52.21	25.22	5.34	-42.6	-43.9	20.7	0.00e+00	0	33	101	1048576	60	7610
2026-01-06 12:54:56.25	25.55	5.59	-42.6	-43.9	20.7	0.00e+00	0	33	101	1048576	60	7600
2026-01-06 12:55:00.30	25.89	5.84	-42.5	-43.7	20.9	0.00e+00	2	33	101	1048576	60	7502
2026-01-06 12:55:04.34	26.23	6.09	-42.7	-44.0	20.7	0.00e+00	92	33	101	1048576	60	7714
2026-01-06 12:55:08.38	26.58	6.34	-42.6	-43.9	20.8	0.00e+00	75	33	101	1048576	60	7619
2026-01-06 12:55:12.40	26.94	6.59	-42.6	-43.8	21.0	0.00e+00	0	33	101	1048576	60	7554
2026-01-06 12:55:16.43	27.30	6.84	-42.5	-43.7	21.1	0.00e+00	0	33	101	1048576	60	7466
2026-01-06 12:55:20.46	27.66	7.10	-42.4	-43.6	21.2	0.00e+00	91	33	101	1048576	60	7382
2026-01-06 12:55:24.50	28.04	7.36	-42.2	-43.4	21.4	0.00e+00	80	33	101	1048576	60	7207
2026-01-06 12:55:28.54	28.42	7.62	-42.0	-43.2	21.7	0.00e+00	83	33	101	1048576	60	7038
2026-01-06 12:55:32.58	28.80	7.88	-41.9	-43.0	21.9	0.00e+00	78	33	101	1048576	60	6909
2026-01-06 12:55:36.62	29.20	8.14	-41.8	-42.9	22.0	0.00e+00	57	33	101	1048576	60	6790
2026-01-06 12:55:40.66	29.59	8.40	-41.8	-42.9	21.9	0.00e+00	8	33	101	1048576	60	6806
2026-01-06 12:55:44.70	30.00	8.67	-42.3	-43.4	21.5	0.00e+00	77	33	101	1048576	60	7242
2026-01-06 12:55:48.74	30.41	8.94	-42.1	-43.2	21.7	0.00e+00	91	33	101	1048576	60	7080
2026-01-06 12:55:52.78	30.84	9.20	-41.9	-43.0	21.6	0.00e+00	0	33	101	1048576	60	6885
2026-01-06 12:55:56.82	31.26	9.47	-41.9	-43.0	22.0	0.00e+00	0	33	101	1048576	60	6902
2026-01-06 12:56:00.86	31.70	9.75	-41.9	-43.0	21.9	0.00e+00	3	33	101	1048576	60	6890
2026-01-06 12:56:04.90	32.14	10.02	-41.8	-42.8	22.1	0.00e+00	92	33	101	1048576	60	6765
2026-01-06 12:56:08.94	32.60	10.29	-41.6	-42.7	22.4	0.00e+00	4	33	101	1048576	60	6649
2026-01-06 12:56:12.98	33.06	10.57	-41.4	-42.5	22.5	0.00e+00	0	33	101	1048576	60	6495
2026-01-06 12:56:17.02	33.52	10.85	-41.4	-42.4	22.6	0.00e+00	3	33	101	1048576	60	6416
2026-01-06 12:56:21.06	34.00	11.13	-41.1	-42.1	22.8	0.00e+00	91	33	101	1048576	60	6236
2026-01-06 12:56:25.10	34.49	11.41	-41.0	-41.9	23.0	0.00e+00	11	33	101	1048576	60	6094
2026-01-06 12:56:29.15	34.98	11.69	-41.0	-42.0	23.0	0.00e+00	12	33	101	1048576	60	6127
2026-01-06 12:56:33.19	35.49	11.98	-41.1	-42.1	22.9	0.00e+00	72	33	101	1048576	60	6240
2026-01-06 12:56:37.23	36.00	12.26	-41.1	-42.1	22.9	0.00e+00	92	33	101	1048576	60	6224
2026-01-06 12:56:41.27	36.52	12.55	-40.9	-41.8	23.1	0.00e+00	0	33	101	1048576	60	6015
2026-01-06 12:56:45.30	37.06	12.84	-41.0	-42.0	23.1	0.00e+00	70	33	101	1048576	60	6126
2026-01-06 12:56:49.34	37.60	13.13	-40.7	-41.7	23.3	0.00e+00	0	33	101	1048576	60	5927
2026-01-06 12:56:53.39	38.15	13.42	-40.8	-41.7	23.3	0.00e+00	92	33	101	1048576	60	5944
2026-01-06 12:56:57.43	38.72	13.71	-40.9	-41.8	23.2	0.00e+00	5	33	101	1048576	60	6027
2026-01-06 12:57:01.47	39.29	14.00	-40.7	-41.6	23.4	0.00e+00	11	33	101	1048576	60	5872
2026-01-06 12:57:05.51	39.88	14.29	-40.6	-41.5	23.5	0.00e+00	92	33	101	1048576	60	5794
2026-01-06 12:57:09.55	40.48	14.59	-40.5	-41.4	23.5	0.00e+00	82	33	101	1048576	60	5756
2026-01-06 12:57:13.60	41.09	14.88	-40.4	-41.3	23.7	0.00e+00	0	33	101	1048576	60	5659
2026-01-06 12:57:17.64	41.71	15.18	-40.4	-41.4	23.7	0.00e+00	0	33	101	1048576	60	5700
2026-01-06 12:57:21.68	42.34	15.47	-40.5	-41.5	23.5	0.00e+00	92	33	101	1048576	60	5777
2026-01-06 12:57:25.72	42.99	15.77	-40.8	-41.7	23.4	0.00e+00	70	33	101	1048576	60	5956
2026-01-06 12:57:29.76	43.65	16.06	-40.6	-41.5	23.6	0.00e+00	0	33	101	1048576	60	5822
2026-01-06 12:57:33.81	44.32	16.36	-40.7	-41.6	23.5	0.00e+00	0	33	101	1048576	60	5865
2026-01-06 12:57:37.85	45.00	16.66	-40.5	-41.5	23.7	0.00e+00	92	33	101	1048576	60	5776
2026-01-06 12:57:41.89	45.70	16.95	-40.3	-41.2	23.9	0.00e+00	6	33	101	1048576	60	5588
2026-01-06 12:57:45.93	46.41	17.25	-40.3	-41.2	23.9	0.00e+00	70	33	101	1048576	60	5623
2026-01-06 12:57:49.97	47.13	17.54	-40.0	-40.9	24.1	0.00e+00	68	33	101	1048576	58	6037
2026-01-06 12:57:54.01	47.87	17.84	-39.7	-40.6	24.3	0.00e+00	92	33	101	1048576	58	5854
2026-01-06 12:57:58.05	48.62	18.13	-39.9	-40.7	24.2	0.00e+00	0	33	101	1048576	58	5939
2026-01-06 12:58:02.09	49.39	18.42	-39.7	-40.5	24.4	0.00e+00	2	33	101	1048576	58	5813
2026-01-06 12:58:06.13	50.17	18.71	-39.6	-40.4	24.4	0.00e+00	0	33	101	1048576	58	5751
2026-01-06 12:58:10.17	50.96	19.00	-39.6	-40.5	24.4	0.00e+00	92	33	101	1048576	58	5778
2026-01-06 12:58:14.21	51.77	19.28	-39.6	-40.5	24.4	0.00e+00	0	33	101	1048576	58	5767
2026-01-06 12:58:18.25	52.59	19.57	-39.7	-40.6	24.3	0.00e+00	0	33	101	1048576	58	5859
2026-01-06 12:58:22.29	53.43	19.85	-39.8	-40.6	24.3	0.00e+00	0	33	101	1048576	58	5875
2026-01-06 12:58:26.33	54.29	20.13	-39.8	-40.7	24.2	0.00e+00	0	33	101	1048576	58	5909
2026-01-06 12:58:30.37	55.16	20.40	-40.4	-41.3	23.8	0.00e+00	70	33	101	1048576	58	6354
2026-01-06 12:58:34.41	56.04	20.67	-40.5	-41.5	23.7	0.00e+00	0	33	101	1048576	58	6467
2026-01-06 12:58:38.45	56.94	20.94	-40.7	-41.6	23.5	0.00e+00	92	33	101	1048576	58	6596
2026-01-06 12:58:42.49	57.86	21.20	-41.4	-42.4	22.8	0.00e+00	7	33	101	1048576	60	6455
2026-01-06 12:58:46.52	58.78	21.46	-41.2	-42.1	23.1	0.00e+00	74	33	101	1048576	60	6235
2026-01-06 12:58:50.55	59.73	21.71	-40.4	-41.3	23.8	0.00e+00	74	33	101	1048576	60	5680
2026-01-06 12:58:54.58	60.69	21.96	-40.6	-41.5	23.7	0.00e+00	90	33	101	1048576	60	5808
2026-01-06 12:58:58.61	61.66	22.20	-40.6	-41.6	23.6	0.00e+00	0	33	101	1048576	60	5844
2026-01-06 12:59:02.64	62.65	22.43	-40.7	-41.6	23.6	0.00e+00	0	33	101	1048576	60	5847
2026-01-06 12:59:06.66	63.65	22.66	-40.7	-41.6	23.5	0.00e+00	6	33	101	1048576	60	5894
2026-01-06 12:59:10.69	64.66	22.88	-41.5	-42.5	22.8	0.00e+00	92	33	101	1048576	60	6503
2026-01-06 12:59:14.73	65.70	23.10	-41.4	-42.4	22.8	0.00e+00	14	33	101	1048576	60	6453
2026-01-06 12:59:18.77	66.74	23.30	-40.9	-41.8	23.4	0.00e+00	67	33	101	1048576	60	6010
2026-01-06 12:59:22.81	67.81	23.50	-41.3	-42.3	23.1	0.00e+00	0	33	101	1048576	60	6331
2026-01-06 12:59:26.85	68.88	23.69	-41.3	-42.2	23.0	0.00e+00	90	33	101	1048576	60	6307
2026-01-06 12:59:30.90	69.97	23.87	-41.2	-42.2	23.0	0.00e+00	2	33	101	1048576	60	6301
2026-01-06 12:59:34.94	71.07	24.04	-41.9	-42.9	22.4	0.00e+00	12	33	101	1048576	60	6821
2026-01-06 12:59:38.98	72.18	24.20	-42.0	-43.0	22.3	0.00e+00	0	33	101	1048576	60	6906
2026-01-06 12:59:43.02	73.30	24.36	-41.5	-42.5	22.8	0.00e+00	92	33	101	1048576	60	6526
2026-01-06 12:59:47.06	74.43	24.50	-41.9	-43.0	22.2	0.00e+00	0	33	101	1048576	60	6908
2026-01-06 12:59:51.10	75.57	24.63	-41.3	-42.3	23.1	0.00e+00	69	33	101	1048576	60	6376
2026-01-06 12:59:55.15	76.72	24.74	-40.7	-41.7	23.5	0.00e+00	0	33	101	1048576	60	5916
2026-01-06 12:59:59.19	77.88	24.85	-40.9	-41.8	23.5	0.00e+00	92	33	101	1048576	60	6018
2026-01-06 13:00:03.23	79.05	24.95	-40.7	-41.6	23.6	0.00e+00	0	33	101	1048576	60	5886
2026-01-06 13:00:07.28	80.22	25.03	-41.0	-41.9	23.3	0.00e+00	2	33	101	1048576	60	6079
2026-01-06 13:00:11.32	81.40	25.10	-41.8	-42.8	22.4	0.00e+00	62	33	101	1048576	60	6731
2026-01-06 13:00:15.36	82.58	25.16	-40.8	-41.8	23.6	0.00e+00	21	33	101	1048576	60	5979
2026-01-06 13:00:19.39	83.76	25.21	-40.7	-41.6	23.5	0.00e+00	0	33	101	1048576	60	5892
2026-01-06 13:00:23.44	84.96	25.24	-40.8	-41.7	23.5	0.00e+00	7	33	101	1048576	60	5958
2026-01-06 13:00:27.48	86.15	25.26	-40.1	-41.0	24.0	0.00e+00	91	33	101	1048576	58	6127
2026-01-06 13:00:31.52	87.34	25.27	-40.6	-41.6	23.5	0.00e+00	75	33	101	1048576	58	6559
2026-01-06 13:00:35.55	88.53	25.26	-40.6	-41.5	22.9	0.00e+00	75	33	101	1048576	58	6526
2026-01-06 13:00:39.59	89.72	25.24	-40.0	-40.8	24.2	0.00e+00	79	33	101	1048576	58	6029
2026-01-06 13:00:43.64	90.92	25.21	-41.5	-42.6	22.7	0.00e+00	91	33	101	1048576	60	6557
2026-01-06 13:00:47.67	92.10	25.17	-41.4	-42.4	22.8	0.00e+00	13	33	101	1048576	60	6431
2026-01-06 13:00:51.72	93.29	25.11	-41.0	-41.9	23.3	0.00e+00	68	33	101	1048576	60	6077
2026-01-06 13:00:55.76	94.47	25.04	-41.1	-42.1	23.1	0.00e+00	0	33	101	1048576	60	6197
2026-01-06 13:00:59.80	95.64	24.96	-40.8	-41.7	23.5	0.00e+00	92	33	101	1048576	60	5949
2026-01-06 13:01:03.84	96.81	24.87	-40.6	-41.6	23.6	0.00e+00	0	33	101	1048576	60	5832
2026-01-06 13:01:07.88	97.97	24.76	-40.2	-41.1	24.0	0.00e+00	0	33	101	1048576	60	5524
2026-01-06 13:01:11.92	99.12	24.65	-40.1	-40.9	24.1	0.00e+00	0	33	101	1048576	58	6088
2026-01-06 13:01:15.96	100.27	24.52	-39.9	-40.8	24.2	0.00e+00	92	33	101	1048576	58	5970
2026-01-06 13:01:20.01	101.41	24.38	-40.1	-41.0	24.1	0.00e+00	0	33	101	1048576	58	6161
2026-01-06 13:01:24.04	102.53	24.23	-39.2	-40.0	24.9	0.00e+00	0	33	101	1048576	58	5471
2026-01-06 13:01:28.08	103.64	24.07	-39.1	-39.9	25.0	0.00e+00	25	33	101	1048576	56	6101
2026-01-06 13:01:32.12	104.75	23.90	-38.9	-39.8	25.1	0.00e+00	92	33	101	1048576	56	5965
2026-01-06 13:01:36.16	105.84	23.72	-38.7	-39.5	25.3	0.00e+00	68	33	101	1048576	56	5816
2026-01-06 13:01:40.20	106.91	23.53	-39.0	-39.8	25.0	0.00e+00	0	33	101	1048576	56	5983
2026-01-06 13:01:44.24	107.98	23.33	-39.3	-40.1	24.8	0.00e+00	75	33	101	1048576	56	6223
2026-01-06 13:01:48.28	109.03	23.13	-38.9	-39.7	25.2	0.00e+00	92	33	101	1048576	56	5905
2026-01-06 13:01:52.32	110.07	22.91	-39.3	-40.1	24.9	0.00e+00	68	33	101	1048576	56	6205
2026-01-06 13:01:56.36	111.10	22.69	-40.2	-41.0	23.8	0.00e+00	0	33	101	1048576	58	6171
2026-01-06 13:02:00.40	112.11	22.46	-40.3	-41.2	23.9	0.00e+00	92	33	101	1048576	58	6281
2026-01-06 13:02:04.45	113.10	22.23	-40.2	-41.1	23.9	0.00e+00	5	33	101	1048576	58	6228
2026-01-06 13:02:08.49	114.09	21.98	-40.0	-40.9	24.1	0.00e+00	7	33	101	1048576	58	6057
2026-01-06 13:02:12.53	115.05	21.74	-40.0	-40.8	24.2	0.00e+00	78	33	101	1048576	58	6020
2026-01-06 13:02:16.56	116.00	21.48	-40.2	-41.1	23.9	0.00e+00	92	33	101	1048576	58	6232
2026-01-06 13:02:20.58	116.93	21.23	-40.5	-41.4	23.7	0.00e+00	0	33	101	1048576	58	6409
2026-01-06 13:02:24.60	117.85	20.96	-39.9	-40.8	24.1	0.00e+00	76	33	101	1048576	58	5980
2026-01-06 13:02:28.62	118.75	20.70	-40.0	-40.9	24.0	0.00e+00	5	33	101	1048576	58	6075
2026-01-06 13:02:32.64	119.63	20.43	-40.0	-40.8	24.1	0.00e+00	92	33	101	1048576	58	6023
2026-01-06 13:02:36.66	120.50	20.15	-40.2	-41.2	23.8	0.00e+00	6	33	101	1048576	58	6247
2026-01-06 13:02:40.69	121.36	19.87	-40.7	-41.7	23.3	0.00e+00	7	33	101	1048576	58	6617
2026-01-06 13:02:44.71	122.20	19.59	-41.9	-43.1	22.2	0.00e+00	9	33	101	1048576	60	6950
2026-01-06 13:02:48.74	123.03	19.31	-40.7	-41.6	23.4	0.00e+00	92	33	101	1048576	60	5891
2026-01-06 13:02:52.75	123.84	19.02	-41.5	-42.5	22.6	0.00e+00	0	33	101	1048576	60	6494
2026-01-06 13:02:56.78	124.64	18.74	-40.9	-41.8	23.2	0.00e+00	0	33	101	1048576	60	6026
2026-01-06 13:03:00.80	125.42	18.45	-41.3	-42.3	22.9	0.00e+00	0	33	101	1048576	60	6356
2026-01-06 13:03:04.82	126.18	18.15	-41.0	-42.0	23.0	0.00e+00	92	33	101	1048576	60	6153
2026-01-06 13:03:08.86	126.94	17.86	-41.5	-42.5	22.5	0.00e+00	6	33	101	1048576	60	6533
2026-01-06 13:03:12.90	127.68	17.56	-41.3	-42.3	22.8	0.00e+00	0	33	101	1048576	60	6358
2026-01-06 13:03:16.94	128.41	17.27	-40.6	-41.6	23.5	0.00e+00	0	33	101	1048576	60	5832
2026-01-06 13:03:20.98	129.13	16.97	-42.3	-43.5	21.7	0.00e+00	92	33	101	1048576	60	7274
2026-01-06 13:03:25.02	129.83	16.67	-41.1	-42.2	22.9	0.00e+00	0	33	101	1048576	60	6267
2026-01-06 13:03:29.06	130.51	16.37	-40.9	-41.9	23.2	0.00e+00	10	33	101	1048576	60	6051
2026-01-06 13:03:33.10	131.19	16.08	-41.0	-42.0	23.1	0.00e+00	0	33	101	1048576	60	6129
2026-01-06 13:03:37.14	131.85	15.78	-40.7	-41.6	23.3	0.00e+00	92	33	101	1048576	60	5882
2026-01-06 13:03:41.19	132.50	15.48	-41.3	-42.4	22.4	0.00e+00	78	33	101	1048576	60	6407
2026-01-06 13:03:45.23	133.14	15.18	-41.2	-42.2	22.7	0.00e+00	0	33	101	1048576	60	6253
2026-01-06 13:03:49.27	133.76	14.88	-40.9	-41.9	23.1	0.00e+00	92	33	101	1048576	60	6063
2026-01-06 13:03:53.31	134.37	14.59	-41.1	-42.1	22.9	0.00e+00	87	33	101	1048576	60	6205
2026-01-06 13:03:57.35	134.98	14.29	-40.8	-41.8	23.2	0.00e+00	9	33	101	1048576	60	6026
2026-01-06 13:04:01.39	135.56	14.00	-40.7	-41.6	23.4	0.00e+00	73	33	101	1048576	60	5877
2026-01-06 13:04:05.43	136.14	13.70	-40.7	-41.7	23.3	0.00e+00	92	33	101	1048576	60	5930
2026-01-06 13:04:09.47	136.71	13.41	-41.0	-42.0	23.0	0.00e+00	2	33	101	1048576	60	6121
2026-01-06 13:04:13.52	137.27	13.11	-41.3	-42.3	22.8	0.00e+00	81	33	101	1048576	60	6384
2026-01-06 13:04:17.55	137.81	12.82	-41.3	-42.4	22.6	0.00e+00	0	33	101	1048576	60	6412
2026-01-06 13:04:21.60	138.35	12.53	-41.4	-42.4	22.6	0.00e+00	92	33	101	1048576	60	6426
2026-01-06 13:04:25.64	138.88	12.24	-41.5	-42.5	22.4	0.00e+00	0	33	101	1048576	60	6519
2026-01-06 13:04:29.68	139.39	11.96	-42.1	-43.2	21.5	0.00e+00	9	33	101	1048576	60	7085
2026-01-06 13:04:33.72	139.90	11.67	-43.0	-44.3	20.3	0.00e+00	9	33	101	1048576	60	8026
2026-01-06 13:04:37.77	140.40	11.38	-44.2	-46.0	18.3	0.00e+00	90	33	101	1048576	60	9756
2026-01-06 13:04:41.81	140.88	11.10	-44.8	-46.9	17.1	0.00e+00	0	33	101	1048576	60	10802
2026-01-06 13:04:45.85	141.36	10.82	-44.7	-46.7	17.4	0.00e+00	0	33	101	1048576	60	10564
2026-01-06 13:04:49.89	141.83	10.54	-44.3	-46.0	18.3	0.00e+00	0	33	101	1048576	60	9777
2026-01-06 13:04:53.93	142.29	10.26	-43.9	-45.6	18.9	0.00e+00	92	33	101	1048576	60	9264
2026-01-06 13:04:57.97	142.75	9.98	-43.3	-44.8	19.8	0.00e+00	72	33	101	1048576	60	8442
2026-01-06 13:05:02.02	143.19	9.71	-43.1	-44.5	20.1	0.00e+00	0	33	101	1048576	60	8193
2026-01-06 13:05:06.06	143.63	9.43	-43.0	-44.4	20.2	0.00e+00	0	33	101	1048576	60	8125
2026-01-06 13:05:10.10	144.06	9.16	-43.3	-44.7	19.9	0.00e+00	55	33	101	1048576	60	8388
2026-01-06 13:05:14.14	144.48	8.89	-43.0	-44.4	20.2	0.00e+00	0	33	101	1048576	60	8063
2026-01-06 13:05:18.18	144.89	8.62	-42.5	-43.8	20.9	0.00e+00	73	33	101	1048576	60	7520
2026-01-06 13:05:22.22	145.30	8.35	-42.2	-43.4	21.3	0.00e+00	92	33	101	1048576	60	7201
2026-01-06 13:05:26.27	145.70	8.08	-42.0	-43.1	21.5	0.00e+00	5	33	101	1048576	60	6994
2026-01-06 13:05:30.30	146.09	7.82	-42.4	-43.7	21.1	0.00e+00	0	33	101	1048576	60	7426
2026-01-06 13:05:34.35	146.48	7.56	-42.7	-44.0	20.8	0.00e+00	76	33	101	1048576	60	7688
2026-01-06 13:05:38.39	146.86	7.30	-42.6	-43.9	20.8	0.00e+00	90	33	101	1048576	60	7623
2026-01-06 13:05:42.43	147.23	7.04	-42.3	-43.5	21.0	0.00e+00	0	33	101	1048576	60	7320
2026-01-06 13:05:46.47	147.60	6.78	-42.1	-43.3	21.3	0.00e+00	6	33	101	1048576	60	7150
2026-01-06 13:05:50.50	147.96	6.52	-42.2	-43.4	21.2	0.00e+00	5	33	101	1048576	60	7253
2026-01-06 13:05:54.53	148.31	6.27	-42.3	-43.5	21.0	0.00e+00	90	33	101	1048576	60	7337
2026-01-06 13:05:58.55	148.66	6.02	-42.6	-43.9	20.6	0.00e+00	82	33	101	1048576	60	7639
2026-01-06 13:06:02.57	149.00	5.77	-42.4	-43.6	20.9	0.00e+00	81	33	101	1048576	60	7413
2026-01-06 13:06:06.60	149.34	5.52	-42.4	-43.7	20.8	0.00e+00	6	33	101	1048576	60	7424
2026-01-06 13:06:10.63	149.67	5.27	-42.3	-43.6	20.9	0.00e+00	92	33	101	1048576	60	7359
2026-01-06 13:06:14.66	150.00	5.02	-42.1	-43.3	21.0	0.00e+00	0	33	101	1048576	60	7167
2026-01-06 13:06:18.68	150.32	4.78	-42.5	-43.7	20.6	0.00e+00	6	33	101	1048576	60	7500
2026-01-06 13:06:22.70	150.63	4.54	-42.7	-44.1	20.2	0.00e+00	81	33	101	1048576	60	7816
2026-01-06 13:06:26.72	150.94	4.30	-43.1	-44.6	19.7	0.00e+00	90	33	101	1048576	60	8256
2026-01-06 13:06:30.75	151.25	4.06	-42.9	-44.4	19.9	0.00e+00	0	33	101	1048576	60	8064
2026-01-06 13:06:34.78	151.55	3.82	-42.7	-44.1	20.1	0.00e+00	0	33	101	1048576	60	7855
2026-01-06 13:06:38.80	151.84	3.58	-43.0	-44.5	19.5	0.00e+00	0	33	101	1048576	60	8181
2026-01-06 13:06:42.83	152.14	3.35	-43.2	-44.8	19.2	0.00e+00	92	33	101	1048576	60	8497
2026-01-06 13:06:46.85	152.42	3.11	-43.8	-45.5	18.4	0.00e+00	4	33	101	1048576	60	9165
2026-01-06 13:06:50.88	152.71	2.88	-50.9	-66.2	3.6	1.51e+00	0	33	104	1048576	60	100061
2026-01-06 13:06:54.92	152.99	2.65	-51.3	-66.6	3.6	1.51e+00	0	33	104	1048576	60	104260
2026-01-06 13:06:58.95	153.26	2.42	-51.4	-66.6	3.6	1.51e+00	0	33	104	1048576	60	104692
2026-01-06 13:07:02.98	153.53	2.19	-51.3	-66.6	3.6	1.51e+00	0	33	104	1048576	60	103982
2026-01-06 13:07:07.03	153.80	1.96	-51.3	-66.6	3.6	1.51e+00	0	33	104	1048576	60	103855
2026-01-06 13:07:11.07	154.07	1.73	-51.3	-66.5	3.6	1.51e+00	0	33	104	1048576	60	103544
2026-01-06 13:07:15.11	154.33	1.51	-51.3	-66.5	3.6	1.51e+00	0	33	104	1048576	60	102996
2026-01-06 13:07:19.15	154.58	1.28	-51.3	-66.5	3.6	1.51e+00	0	33	104	1048576	60	103072
2026-01-06 13:07:23.19	154.84	1.06	-51.3	-66.6	3.6	1.51e+00	0	33	104	1048576	60	103770
2026-01-06 13:07:27.24	155.09	0.84	-51.3	-66.5	3.6	1.51e+00	0	33	104	1048576	60	103433
2026-01-06 13:07:31.28	155.33	0.62	-51.3	-66.6	3.6	1.51e+00	0	34	104	1048576	60	103888
2026-01-06 13:07:35.32	155.58	0.40	-51.3	-66.5	3.6	1.51e+00	0	33	104	1048576	60	102927
2026-01-06 13:07:39.36	155.82	0.18	-51.3	-66.5	3.6	1.51e+00	0	33	104	1048576	60	103612

#Closed at: 2026-01-06 13:07:43
#Recorded file [1 MB]: D:/lorett/data/35034_260106_155319.dat