passes_logs/2026/01/06/R4.6S_Anadyr_2ch/R4.6S_Anadyr_2ch__20260106_165345_FENGYUN_3D_rec.log

#Pass ID: 20260106_165345_FENGYUN 3D
#Satellite: FENGYUN 3D
#Configuration: FENGYUN 3D
#almurnet v.1.7.20251203
#Start time: 2026-01-06 16:53:48

#Version: 2.2.20231116
#Station: R4.6S_Anadyr_2ch
#Location: 177.4865 lon 64.73178 lat
#TLE: 1 43010U 17072A   25350.96693137  .00000321  00000+0  17364-3 0  9993
#TLE: 2 43010  98.9888 317.3403 0001146 169.6565 190.4634 14.19686173419132

#Time	Az	El	Level	Level2	SNR	BER	BlckErr	Temp	State	Recorded	gain1	gain2
2026-01-06 16:53:48.42	21.27	0.16	-40.0	-41.4	25.8	3.02e+01	19	29	0	0	58	6859
2026-01-06 16:53:52.46	21.28	0.40	-51.1	-63.4	3.6	8.44e-01	0	30	104	0	60	72480
2026-01-06 16:53:56.50	21.29	0.65	-51.1	-63.5	3.6	8.45e-01	0	30	104	0	60	72764
2026-01-06 16:54:00.54	21.29	0.90	-51.1	-63.4	3.6	8.44e-01	0	30	104	0	60	71972
2026-01-06 16:54:04.58	21.30	1.15	-50.5	-62.9	3.6	8.46e-01	0	31	104	0	60	68072
2026-01-06 16:54:08.62	21.31	1.40	-49.7	-62.1	3.6	8.46e-01	0	31	104	0	60	61745
2026-01-06 16:54:12.67	21.31	1.65	-49.7	-61.5	3.6	8.45e-01	0	31	104	0	60	57978
2026-01-06 16:54:16.71	21.32	1.91	-49.6	-61.4	3.6	8.45e-01	0	31	104	0	60	57164
2026-01-06 16:54:20.75	21.32	2.16	-49.7	-62.0	3.6	8.45e-01	0	31	104	0	60	61076
2026-01-06 16:54:24.79	21.33	2.42	-49.7	-61.7	3.6	8.46e-01	0	31	104	0	60	59103
2026-01-06 16:54:28.83	21.34	2.69	-49.4	-59.6	3.7	8.45e-01	0	31	104	0	60	46467
2026-01-06 16:54:32.87	21.34	2.95	-49.3	-58.4	3.7	8.32e-01	0	31	104	0	60	40733
2026-01-06 16:54:36.91	21.35	3.22	-48.8	-54.5	5.3	7.24e-01	0	31	0	0	60	25830
2026-01-06 16:54:40.95	21.35	3.49	-45.2	-47.4	13.5	4.00e-05	0	31	102	1048576	60	11401
2026-01-06 16:54:44.99	21.36	3.76	-43.9	-45.6	15.4	0.00e+00	0	31	102	1048576	60	9277
2026-01-06 16:54:49.03	21.36	4.04	-45.9	-48.4	12.3	1.42e-04	0	31	102	1048576	60	12859
2026-01-06 16:54:53.07	21.36	4.32	-49.5	-60.8	3.6	8.45e-01	0	31	104	1048576	60	53649
2026-01-06 16:54:57.10	21.37	4.60	-37.9	-38.7	22.3	0.00e+00	0	31	0	1048576	54	5937
2026-01-06 16:55:01.15	21.37	4.89	-37.6	-38.4	22.6	0.00e+00	0	31	0	1048576	54	5712
2026-01-06 16:55:05.18	21.37	5.17	-37.4	-38.2	22.8	0.00e+00	0	31	101	1048576	54	5606
2026-01-06 16:55:09.22	21.38	5.46	-37.3	-38.1	23.0	0.00e+00	0	31	101	1048576	54	5525
2026-01-06 16:55:13.27	21.38	5.76	-37.7	-38.4	22.7	0.00e+00	0	31	101	1048576	54	5756
2026-01-06 16:55:17.30	21.38	6.05	-37.2	-37.9	23.3	0.00e+00	0	31	101	1048576	52	6090
2026-01-06 16:55:21.34	21.38	6.36	-37.1	-37.8	23.4	0.00e+00	0	31	101	1048576	52	6016
2026-01-06 16:55:25.38	21.39	6.66	-37.3	-38.0	23.3	0.00e+00	0	31	101	1048576	52	6158
2026-01-06 16:55:29.42	21.39	6.97	-36.9	-37.7	23.6	0.00e+00	0	31	101	1048576	52	5917
2026-01-06 16:55:33.46	21.39	7.28	-36.8	-37.5	23.8	0.00e+00	0	31	101	1048576	52	5803
2026-01-06 16:55:37.50	21.39	7.60	-36.7	-37.4	23.8	0.00e+00	0	31	101	1048576	52	5757
2026-01-06 16:55:41.54	21.39	7.92	-36.8	-37.5	23.8	0.00e+00	0	31	101	1048576	52	5769
2026-01-06 16:55:45.58	21.39	8.24	-36.6	-37.2	24.1	0.00e+00	0	31	101	1048576	52	5618
2026-01-06 16:55:49.60	21.39	8.57	-36.6	-37.3	24.1	0.00e+00	0	31	101	1048576	52	5663
2026-01-06 16:55:53.62	21.39	8.90	-36.4	-37.1	24.3	0.00e+00	0	31	101	1048576	52	5536
2026-01-06 16:55:57.65	21.39	9.23	-36.4	-37.0	24.4	0.00e+00	0	31	101	1048576	52	5501
2026-01-06 16:56:01.67	21.38	9.57	-36.1	-36.8	24.6	0.00e+00	0	32	101	1048576	50	6014
2026-01-06 16:56:05.69	21.38	9.92	-36.1	-36.8	24.6	0.00e+00	0	31	101	1048576	50	5969
2026-01-06 16:56:09.72	21.38	10.27	-35.9	-36.6	24.8	0.00e+00	0	31	101	1048576	50	5876
2026-01-06 16:56:13.74	21.38	10.62	-35.9	-36.6	24.8	0.00e+00	0	31	101	1048576	50	5844
2026-01-06 16:56:17.76	21.37	10.98	-35.8	-36.5	24.9	0.00e+00	0	31	101	1048576	50	5795
2026-01-06 16:56:21.78	21.37	11.35	-35.8	-36.5	24.8	0.00e+00	0	31	101	1048576	50	5783
2026-01-06 16:56:25.81	21.36	11.72	-35.9	-36.5	24.8	0.00e+00	0	31	101	1048576	50	5828
2026-01-06 16:56:29.83	21.36	12.09	-35.6	-36.3	25.2	0.00e+00	0	32	101	1048576	50	5638
2026-01-06 16:56:33.85	21.35	12.47	-35.6	-36.3	25.2	0.00e+00	0	31	101	1048576	50	5646
2026-01-06 16:56:37.88	21.34	12.86	-35.7	-36.3	25.1	0.00e+00	0	31	101	1048576	50	5695
2026-01-06 16:56:41.90	21.34	13.26	-35.4	-36.1	25.4	0.00e+00	0	32	101	1048576	50	5523
2026-01-06 16:56:45.92	21.33	13.66	-35.3	-36.0	25.5	0.00e+00	0	32	101	1048576	50	5450
2026-01-06 16:56:49.94	21.32	14.07	-35.1	-35.8	25.7	0.00e+00	0	31	101	1048576	48	5973
2026-01-06 16:56:53.97	21.31	14.48	-34.8	-35.5	25.8	0.00e+00	0	32	101	1048576	48	5787
2026-01-06 16:56:57.99	21.30	14.90	-34.6	-35.2	26.1	0.00e+00	0	31	101	1048576	48	5629
2026-01-06 16:57:02.01	21.29	15.33	-34.3	-34.9	26.3	0.00e+00	0	32	101	1048576	48	5417
2026-01-06 16:57:06.03	21.28	15.77	-34.2	-34.8	26.5	0.00e+00	0	32	101	1048576	46	6019
2026-01-06 16:57:10.06	21.26	16.22	-34.1	-34.8	26.6	0.00e+00	0	31	101	1048576	46	5982
2026-01-06 16:57:14.08	21.25	16.67	-33.9	-34.6	26.6	0.00e+00	0	31	101	1048576	46	5829
2026-01-06 16:57:18.10	21.24	17.13	-34.0	-34.6	26.7	0.00e+00	0	31	101	1048576	46	5876
2026-01-06 16:57:22.12	21.22	17.60	-33.9	-34.5	26.7	0.00e+00	0	32	101	1048576	46	5816
2026-01-06 16:57:26.15	21.20	18.08	-33.8	-34.4	26.8	0.00e+00	0	32	101	1048576	46	5758
2026-01-06 16:57:30.17	21.19	18.57	-33.8	-34.4	26.9	0.00e+00	0	32	101	1048576	46	5728
2026-01-06 16:57:34.20	21.17	19.07	-33.6	-34.3	27.1	0.00e+00	0	32	101	1048576	46	5636
2026-01-06 16:57:38.23	21.15	19.58	-33.6	-34.2	27.0	0.00e+00	0	32	101	1048576	46	5619
2026-01-06 16:57:42.25	21.13	20.11	-33.2	-33.9	27.4	0.00e+00	0	32	101	1048576	46	5382
2026-01-06 16:57:46.27	21.11	20.64	-33.2	-33.9	27.4	0.00e+00	0	32	101	1048576	44	6035
2026-01-06 16:57:50.30	21.08	21.18	-33.2	-33.8	27.5	0.00e+00	0	32	101	1048576	44	6019
2026-01-06 16:57:54.32	21.06	21.74	-32.9	-33.5	27.7	0.00e+00	0	32	101	1048576	44	5806
2026-01-06 16:57:58.35	21.03	22.31	-33.0	-33.6	27.6	0.00e+00	0	32	101	1048576	44	5848
2026-01-06 16:58:02.37	21.00	22.89	-32.9	-33.5	27.6	0.00e+00	0	32	101	1048576	44	5809
2026-01-06 16:58:06.39	20.97	23.48	-32.9	-33.5	27.7	0.00e+00	0	32	101	1048576	44	5794
2026-01-06 16:58:10.41	20.94	24.09	-32.9	-33.5	27.7	0.00e+00	0	31	101	1048576	44	5774
2026-01-06 16:58:14.44	20.90	24.71	-32.8	-33.4	27.8	0.00e+00	0	31	101	1048576	44	5723
2026-01-06 16:58:18.47	20.87	25.35	-32.7	-33.4	27.7	0.00e+00	0	32	101	1048576	44	5700
2026-01-06 16:58:22.48	20.83	26.00	-32.5	-33.2	28.0	0.00e+00	0	32	101	1048576	44	5571
2026-01-06 16:58:26.51	20.79	26.68	-32.6	-33.2	28.0	0.00e+00	0	32	101	1048576	44	5615
2026-01-06 16:58:30.53	20.75	27.36	-32.4	-33.0	28.2	0.00e+00	0	32	101	1048576	44	5465
2026-01-06 16:58:34.55	20.70	28.07	-32.2	-32.8	28.2	0.00e+00	0	32	101	1048576	44	5328
2026-01-06 16:58:38.57	20.65	28.79	-32.2	-32.8	28.3	0.00e+00	0	32	101	1048576	42	5984
2026-01-06 16:58:42.59	20.60	29.53	-32.3	-32.9	28.2	0.00e+00	0	32	101	1048576	42	6094
2026-01-06 16:58:46.61	20.55	30.30	-32.1	-32.7	28.4	0.00e+00	0	32	101	1048576	42	5915
2026-01-06 16:58:50.64	20.49	31.08	-32.1	-32.7	28.3	0.00e+00	0	32	101	1048576	42	5953
2026-01-06 16:58:54.66	20.43	31.89	-32.3	-32.9	28.1	0.00e+00	0	32	101	1048576	42	6103
2026-01-06 16:58:58.68	20.36	32.71	-32.2	-32.8	28.3	0.00e+00	0	32	101	1048576	42	6030
2026-01-06 16:59:02.70	20.29	33.56	-31.7	-32.3	28.7	0.00e+00	0	32	101	1048576	42	5672
2026-01-06 16:59:06.72	20.22	34.44	-31.7	-32.3	28.7	0.00e+00	0	32	101	1048576	42	5664
2026-01-06 16:59:10.75	20.13	35.34	-31.7	-32.3	28.6	0.00e+00	0	32	101	1048576	42	5669
2026-01-06 16:59:14.78	20.05	36.27	-31.5	-32.1	28.8	0.00e+00	0	32	101	1048576	42	5518
2026-01-06 16:59:18.80	19.96	37.23	-31.9	-32.5	28.6	0.00e+00	0	32	101	1048576	42	5774
2026-01-06 16:59:22.82	19.86	38.21	-31.6	-32.2	28.8	0.00e+00	0	32	101	1048576	42	5593
2026-01-06 16:59:26.85	19.75	39.22	-31.2	-31.8	29.1	0.00e+00	0	32	101	1048576	40	6008
2026-01-06 16:59:30.87	19.64	40.27	-31.9	-32.5	28.5	0.00e+00	0	32	101	1048576	40	6533
2026-01-06 16:59:34.89	19.52	41.34	-31.6	-32.2	28.7	0.00e+00	0	32	101	1048576	40	6303
2026-01-06 16:59:38.91	19.39	42.45	-31.8	-32.4	28.7	0.00e+00	0	32	101	1048576	40	6431
2026-01-06 16:59:42.92	19.24	43.58	-31.8	-32.4	28.6	0.00e+00	0	32	101	1048576	40	6409
2026-01-06 16:59:46.94	19.09	44.76	-32.1	-32.7	28.5	0.00e+00	0	32	101	1048576	40	6628
2026-01-06 16:59:50.97	18.92	45.97	-32.6	-33.2	28.1	0.00e+00	0	32	101	1048576	42	6256
2026-01-06 16:59:55.02	18.74	47.23	-32.0	-32.6	28.6	0.00e+00	0	32	101	1048576	42	5851
2026-01-06 16:59:59.06	18.54	48.52	-32.7	-33.4	27.9	0.00e+00	0	32	101	1048576	42	6392
2026-01-06 17:00:03.09	18.32	49.85	-31.8	-32.4	28.7	0.00e+00	0	32	101	1048576	42	5699
2026-01-06 17:00:07.14	18.08	51.23	-32.1	-32.8	28.5	0.00e+00	0	32	101	1048576	42	5973
2026-01-06 17:00:11.18	17.81	52.64	-32.5	-33.2	28.1	0.00e+00	0	32	101	1048576	42	6248
2026-01-06 17:00:15.21	17.52	54.09	-33.2	-33.8	27.6	0.00e+00	0	32	101	1048576	42	6745
2026-01-06 17:00:19.25	17.19	55.58	-33.5	-34.1	27.4	0.00e+00	0	32	101	1048576	44	6211
2026-01-06 17:00:23.29	16.82	57.12	-33.8	-34.5	27.1	0.00e+00	0	32	101	1048576	44	6471
2026-01-06 17:00:27.33	16.41	58.70	-32.9	-33.5	27.8	0.00e+00	0	32	101	1048576	44	5766
2026-01-06 17:00:31.36	15.94	60.31	-32.6	-33.2	28.1	0.00e+00	0	32	101	1048576	44	5622
2026-01-06 17:00:35.41	15.40	61.97	-32.1	-32.6	28.4	0.00e+00	0	32	101	1048576	42	5892
2026-01-06 17:00:39.44	14.79	63.67	-32.2	-32.8	28.3	0.00e+00	0	32	101	1048576	42	6015
2026-01-06 17:00:43.49	14.07	65.41	-32.1	-32.7	28.3	0.00e+00	0	32	101	1048576	42	5938
2026-01-06 17:00:47.53	13.23	67.18	-31.7	-32.3	28.7	0.00e+00	0	32	101	1048576	42	5664
2026-01-06 17:00:51.57	12.22	68.98	-31.5	-32.1	28.8	0.00e+00	0	32	101	1048576	42	5519
2026-01-06 17:00:55.61	11.01	70.82	-31.3	-31.9	29.0	0.00e+00	0	32	101	1048576	42	5417
2026-01-06 17:00:59.65	9.52	72.67	-30.8	-31.4	29.3	0.00e+00	0	32	101	1048576	40	5708
2026-01-06 17:01:03.69	7.64	74.55	-30.6	-31.2	29.4	0.00e+00	0	32	101	1048576	40	5586
2026-01-06 17:01:07.72	5.22	76.42	-30.2	-30.8	29.7	0.00e+00	0	32	101	1048576	40	5326
2026-01-06 17:01:11.76	1.98	78.30	-30.3	-30.9	29.6	0.00e+00	0	32	101	1048576	38	6054
2026-01-06 17:01:15.79	357.49	80.13	-30.2	-30.8	29.6	0.00e+00	0	32	101	1048576	38	5977
2026-01-06 17:01:19.83	350.93	81.91	-29.4	-30.0	30.1	0.00e+00	0	32	101	1048576	38	5461
2026-01-06 17:01:23.87	340.85	83.53	-29.4	-30.0	30.1	0.00e+00	0	32	101	1048576	36	6116
2026-01-06 17:01:27.91	324.87	84.83	-29.0	-29.6	30.3	0.00e+00	0	32	101	1048576	36	5834
2026-01-06 17:01:31.94	301.43	85.52	-29.3	-29.9	30.0	0.00e+00	0	32	101	1048576	36	6069
2026-01-06 17:01:35.98	275.37	85.31	-29.8	-30.3	29.9	0.00e+00	0	32	101	1048576	36	6370
2026-01-06 17:01:40.02	255.22	84.29	-29.8	-30.4	29.9	0.00e+00	0	32	101	1048576	36	6413
2026-01-06 17:01:44.05	242.29	82.82	-29.8	-30.5	29.6	0.00e+00	0	32	101	1048576	36	6467
2026-01-06 17:01:48.09	234.03	81.11	-29.5	-30.1	30.0	0.00e+00	0	32	101	1048576	36	6229
2026-01-06 17:01:52.13	228.54	79.30	-29.0	-29.6	30.4	0.00e+00	0	32	101	1048576	36	5849
2026-01-06 17:01:56.17	224.68	77.44	-29.4	-30.0	30.1	0.00e+00	0	32	101	1048576	36	6120
2026-01-06 17:02:00.22	221.85	75.55	-29.2	-29.8	30.2	0.00e+00	0	32	101	1048576	36	6004
2026-01-06 17:02:04.25	219.71	73.68	-29.6	-30.1	29.9	0.00e+00	0	32	101	1048576	36	6244
2026-01-06 17:02:08.29	218.02	71.81	-30.3	-30.8	29.5	0.00e+00	0	32	101	1048576	38	6033
2026-01-06 17:02:12.33	216.66	69.96	-30.9	-31.5	29.1	0.00e+00	0	32	101	1048576	38	6529
2026-01-06 17:02:16.36	215.56	68.14	-31.1	-31.7	29.0	0.00e+00	0	32	101	1048576	40	5898
2026-01-06 17:02:20.40	214.63	66.34	-31.3	-31.9	28.9	0.00e+00	0	32	101	1048576	40	6080
2026-01-06 17:02:24.44	213.85	64.59	-31.3	-31.9	28.8	0.00e+00	0	32	101	1048576	40	6040
2026-01-06 17:02:28.48	213.18	62.86	-31.2	-31.9	28.9	0.00e+00	0	32	101	1048576	40	6039
2026-01-06 17:02:32.52	212.60	61.18	-31.1	-31.7	29.0	0.00e+00	0	32	101	1048576	40	5906
2026-01-06 17:02:36.56	212.10	59.53	-31.1	-31.8	29.0	0.00e+00	0	32	101	1048576	40	5972
2026-01-06 17:02:40.60	211.65	57.93	-31.6	-32.1	28.7	0.00e+00	0	32	101	1048576	40	6186
2026-01-06 17:02:44.64	211.26	56.37	-32.0	-32.7	28.3	0.00e+00	0	32	101	1048576	40	6617
2026-01-06 17:02:48.68	210.91	54.85	-32.6	-33.1	28.0	0.00e+00	0	32	101	1048576	42	6236
2026-01-06 17:02:52.72	210.60	53.37	-33.0	-33.5	27.5	0.00e+00	0	32	101	1048576	44	5807
2026-01-06 17:02:56.75	210.31	51.93	-33.2	-33.9	27.4	0.00e+00	0	32	101	1048576	44	6076
2026-01-06 17:03:00.80	210.06	50.53	-32.8	-33.5	27.7	0.00e+00	0	32	101	1048576	44	5807
2026-01-06 17:03:04.83	209.83	49.18	-32.1	-32.8	28.3	0.00e+00	0	32	101	1048576	42	5979
2026-01-06 17:03:08.87	209.62	47.86	-32.2	-32.8	28.2	0.00e+00	0	32	101	1048576	42	5989
2026-01-06 17:03:12.92	209.42	46.58	-31.8	-32.3	28.5	0.00e+00	0	32	101	1048576	42	5686
2026-01-06 17:03:16.96	209.25	45.34	-31.5	-32.0	28.7	0.00e+00	0	32	101	1048576	42	5495
2026-01-06 17:03:21.00	209.08	44.13	-31.5	-32.1	28.7	0.00e+00	0	32	101	1048576	42	5539
2026-01-06 17:03:25.04	208.93	42.96	-31.8	-32.3	28.5	0.00e+00	0	32	101	1048576	42	5668
2026-01-06 17:03:29.08	208.79	41.83	-31.7	-32.4	28.6	0.00e+00	0	32	101	1048576	42	5713
2026-01-06 17:03:33.12	208.67	40.73	-31.7	-32.3	28.5	0.00e+00	0	32	101	1048576	42	5679
2026-01-06 17:03:37.16	208.55	39.66	-31.7	-32.4	28.5	0.00e+00	0	32	101	1048576	42	5745
2026-01-06 17:03:41.20	208.43	38.63	-31.2	-31.7	29.0	0.00e+00	0	32	101	1048576	42	5297
2026-01-06 17:03:45.22	208.33	37.63	-31.0	-31.5	29.0	0.00e+00	0	32	101	1048576	40	5813
2026-01-06 17:03:49.24	208.24	36.66	-30.9	-31.4	29.2	0.00e+00	0	32	101	1048576	40	5735
2026-01-06 17:03:53.26	208.15	35.71	-30.7	-31.2	29.3	0.00e+00	0	32	101	1048576	40	5587
2026-01-06 17:03:57.29	208.06	34.79	-31.3	-31.8	28.9	0.00e+00	0	32	101	1048576	40	5998
2026-01-06 17:04:01.31	207.98	33.90	-31.7	-32.3	28.5	0.00e+00	0	32	101	1048576	40	6326
2026-01-06 17:04:05.33	207.91	33.04	-31.5	-32.1	28.8	0.00e+00	0	32	101	1048576	40	6245
2026-01-06 17:04:09.35	207.84	32.20	-31.4	-32.0	28.8	0.00e+00	0	32	101	1048576	40	6106
2026-01-06 17:04:13.38	207.77	31.37	-31.8	-32.3	28.6	0.00e+00	0	32	101	1048576	40	6338
2026-01-06 17:04:17.40	207.71	30.58	-31.9	-32.4	28.5	0.00e+00	0	32	101	1048576	40	6443
2026-01-06 17:04:21.42	207.65	29.80	-31.8	-32.3	28.5	0.00e+00	0	32	101	1048576	40	6369
2026-01-06 17:04:25.45	207.60	29.05	-31.6	-32.3	28.5	0.00e+00	0	32	101	1048576	40	6340
2026-01-06 17:04:29.47	207.55	28.31	-31.7	-32.4	28.6	0.00e+00	0	32	101	1048576	40	6394
2026-01-06 17:04:33.49	207.50	27.60	-31.8	-32.5	28.5	0.00e+00	0	32	101	1048576	40	6520
2026-01-06 17:04:37.51	207.45	26.90	-32.1	-32.7	28.3	0.00e+00	0	32	101	1048576	40	6690
2026-01-06 17:04:41.53	207.41	26.22	-31.8	-32.5	28.5	0.00e+00	0	32	101	1048576	40	6466
2026-01-06 17:04:45.56	207.37	25.55	-31.6	-32.1	28.6	0.00e+00	0	32	101	1048576	40	6244
2026-01-06 17:04:49.58	207.33	24.90	-32.0	-32.5	28.4	0.00e+00	0	32	101	1048576	40	6495
2026-01-06 17:04:53.60	207.29	24.27	-32.2	-32.7	28.2	0.00e+00	0	32	101	1048576	42	5945
2026-01-06 17:04:57.62	207.26	23.66	-32.4	-32.9	28.1	0.00e+00	0	32	101	1048576	42	6098
2026-01-06 17:05:01.65	207.22	23.05	-32.6	-33.3	27.8	0.00e+00	0	32	101	1048576	42	6333
2026-01-06 17:05:05.67	207.19	22.46	-32.5	-33.1	27.9	0.00e+00	0	32	101	1048576	42	6179
2026-01-06 17:05:09.69	207.16	21.89	-32.6	-33.3	27.8	0.00e+00	0	32	101	1048576	42	6379
2026-01-06 17:05:13.72	207.14	21.32	-32.5	-33.1	27.9	0.00e+00	0	32	101	1048576	42	6232
2026-01-06 17:05:17.74	207.11	20.77	-32.6	-33.3	27.8	0.00e+00	0	31	101	1048576	42	6356
2026-01-06 17:05:21.76	207.08	20.23	-32.9	-33.6	27.6	0.00e+00	0	32	101	1048576	42	6574
2026-01-06 17:05:25.79	207.06	19.70	-33.1	-33.7	27.5	0.00e+00	0	32	101	1048576	42	6692
2026-01-06 17:05:29.81	207.04	19.19	-33.1	-33.8	27.5	0.00e+00	0	32	101	1048576	44	5998
2026-01-06 17:05:33.83	207.02	18.68	-33.2	-34.0	27.4	0.00e+00	0	32	101	1048576	44	6107
2026-01-06 17:05:37.86	207.00	18.18	-33.5	-34.2	27.1	0.00e+00	0	32	101	1048576	44	6288
2026-01-06 17:05:41.88	206.98	17.70	-33.6	-34.4	26.9	0.00e+00	0	32	101	1048576	44	6397
2026-01-06 17:05:45.91	206.96	17.22	-33.6	-34.2	27.0	0.00e+00	0	32	101	1048576	44	6258
2026-01-06 17:05:49.93	206.94	16.75	-34.0	-34.5	26.7	0.00e+00	0	32	101	1048576	44	6526
2026-01-06 17:05:53.96	206.92	16.29	-33.9	-34.5	26.7	0.00e+00	0	32	101	1048576	44	6491
2026-01-06 17:05:57.98	206.91	15.84	-34.2	-34.7	26.6	0.00e+00	0	32	101	1048576	44	6668
2026-01-06 17:06:02.00	206.89	15.40	-34.2	-34.8	26.5	0.00e+00	0	32	101	1048576	46	5976
2026-01-06 17:06:06.02	206.88	14.97	-34.3	-34.8	26.5	0.00e+00	0	32	101	1048576	46	6023
2026-01-06 17:06:10.04	206.87	14.54	-34.5	-35.1	26.3	0.00e+00	0	32	101	1048576	46	6201
2026-01-06 17:06:14.07	206.85	14.12	-34.5	-35.3	26.2	0.00e+00	0	32	101	1048576	46	6331
2026-01-06 17:06:18.09	206.84	13.71	-34.7	-35.4	26.1	0.00e+00	0	32	101	1048576	46	6421
2026-01-06 17:06:22.12	206.83	13.30	-34.8	-35.4	26.0	0.00e+00	0	32	101	1048576	46	6450
2026-01-06 17:06:26.14	206.82	12.90	-35.0	-35.6	25.8	0.00e+00	0	32	101	1048576	46	6585
2026-01-06 17:06:30.16	206.81	12.51	-35.1	-35.6	25.7	0.00e+00	0	32	101	1048576	46	6610
2026-01-06 17:06:34.18	206.80	12.13	-35.2	-35.8	25.6	0.00e+00	0	32	101	1048576	48	5992
2026-01-06 17:06:38.20	206.79	11.75	-35.2	-35.8	25.5	0.00e+00	0	32	101	1048576	48	5977
2026-01-06 17:06:42.22	206.79	11.37	-35.3	-35.9	25.5	0.00e+00	0	32	101	1048576	48	6076
2026-01-06 17:06:46.24	206.78	11.00	-35.4	-36.0	25.3	0.00e+00	0	32	101	1048576	48	6119
2026-01-06 17:06:50.25	206.77	10.64	-35.4	-36.0	25.4	0.00e+00	0	32	101	1048576	48	6129
2026-01-06 17:06:54.28	206.77	10.28	-35.6	-36.4	25.1	0.00e+00	0	32	101	1048576	48	6401
2026-01-06 17:06:58.30	206.76	9.93	-35.7	-36.4	25.1	0.00e+00	0	32	101	1048576	48	6457
2026-01-06 17:07:02.32	206.75	9.58	-35.8	-36.6	24.9	0.00e+00	0	32	101	1048576	48	6585
2026-01-06 17:07:06.34	206.75	9.24	-35.8	-36.6	24.9	0.00e+00	0	32	101	1048576	48	6577
2026-01-06 17:07:10.37	206.74	8.90	-36.0	-36.8	24.7	0.00e+00	0	32	101	1048576	48	6698
2026-01-06 17:07:14.40	206.74	8.57	-36.2	-36.8	24.6	0.00e+00	0	32	101	1048576	50	6004
2026-01-06 17:07:18.42	206.74	8.24	-36.2	-37.0	24.5	0.00e+00	0	32	101	1048576	50	6113
2026-01-06 17:07:22.45	206.73	7.91	-36.4	-37.0	24.3	0.00e+00	0	32	101	1048576	50	6155
2026-01-06 17:07:26.47	206.73	7.59	-36.4	-37.2	24.2	0.00e+00	0	32	101	1048576	50	6272
2026-01-06 17:07:30.49	206.73	7.28	-36.6	-37.3	24.0	0.00e+00	0	32	101	1048576	50	6344
2026-01-06 17:07:34.52	206.72	6.96	-36.6	-37.4	24.0	0.00e+00	0	32	101	1048576	50	6462
2026-01-06 17:07:38.55	206.72	6.65	-36.9	-37.7	23.8	0.00e+00	0	32	101	1048576	50	6635
2026-01-06 17:07:42.57	206.72	6.35	-36.9	-37.7	23.7	0.00e+00	0	32	101	1048576	50	6674
2026-01-06 17:07:46.60	206.72	6.04	-37.1	-38.0	23.4	0.00e+00	0	32	101	1048576	50	6850
2026-01-06 17:07:50.64	206.72	5.74	-37.0	-37.7	23.4	0.00e+00	0	32	101	1048576	50	6687
2026-01-06 17:07:54.68	206.71	5.45	-37.2	-38.0	23.3	0.00e+00	0	32	101	1048576	52	6173
2026-01-06 17:07:58.72	206.71	5.15	-37.3	-38.0	23.2	0.00e+00	0	31	101	1048576	52	6111
2026-01-06 17:08:02.76	206.71	4.86	-37.3	-38.2	23.1	0.00e+00	0	32	101	1048576	52	6269
2026-01-06 17:08:06.80	206.71	4.58	-37.6	-38.4	22.8	0.00e+00	0	32	101	1048576	52	6464
2026-01-06 17:08:10.84	206.71	4.29	-37.6	-38.5	22.7	0.00e+00	0	32	101	1048576	52	6523
2026-01-06 17:08:14.87	206.71	4.01	-38.0	-38.8	22.3	0.00e+00	0	32	101	1048576	52	6738
2026-01-06 17:08:18.91	206.71	3.74	-37.9	-38.9	22.2	0.00e+00	0	32	101	1048576	54	6035
2026-01-06 17:08:22.95	206.71	3.46	-38.2	-39.1	21.9	0.00e+00	0	32	101	1048576	54	6216
2026-01-06 17:08:26.99	206.71	3.19	-38.4	-39.2	21.5	0.00e+00	0	32	101	1048576	54	6289
2026-01-06 17:08:31.03	206.72	2.92	-38.7	-39.6	21.2	0.00e+00	0	32	101	1048576	54	6555
2026-01-06 17:08:35.07	206.72	2.65	-38.6	-39.6	21.3	0.00e+00	0	31	101	1048576	54	6557
2026-01-06 17:08:39.12	206.72	2.39	-50.8	-63.2	3.6	8.45e-01	0	32	104	1048576	60	70764
2026-01-06 17:08:43.16	206.72	2.12	-51.1	-63.4	3.6	8.45e-01	0	32	104	1048576	60	72508
2026-01-06 17:08:47.20	206.72	1.86	-50.9	-63.4	3.6	8.46e-01	0	32	104	1048576	60	71727
2026-01-06 17:08:51.25	206.72	1.61	-50.9	-63.3	3.6	8.45e-01	0	32	104	1048576	60	71572
2026-01-06 17:08:55.29	206.73	1.35	-51.0	-63.4	3.6	8.45e-01	0	32	104	1048576	60	71812
2026-01-06 17:08:59.33	206.73	1.10	-51.0	-63.3	3.6	8.45e-01	0	32	104	1048576	60	71602
2026-01-06 17:09:03.36	206.73	0.85	-51.0	-63.4	3.6	8.46e-01	0	32	104	1048576	60	71788
2026-01-06 17:09:07.41	206.73	0.60	-51.0	-63.3	3.6	8.45e-01	0	32	104	1048576	60	71395
2026-01-06 17:09:11.45	206.74	0.35	-51.0	-63.4	3.6	8.45e-01	0	32	104	1048576	60	71857
2026-01-06 17:09:15.49	206.74	0.11	-51.0	-63.3	3.6	8.45e-01	0	32	104	1048576	60	70937

#Closed at: 2026-01-06 17:09:18
#Recorded file [1 MB]: D:/lorett/data/35034_260106_195348.dat