passes_logs/2026/01/06/R4.6S_Anadyr_2ch/R4.6S_Anadyr_2ch__20260106_043426_AQUA_rec.log

#Pass ID: 20260106_043426_AQUA
#Satellite: AQUA
#Configuration: AQUA
#almurnet v.1.7.20251203
#Start time: 2026-01-06 04:34:29

#Version: 2.2.20231116
#Station: R4.6S_Anadyr_2ch
#Location: 177.4865 lon 64.73178 lat
#TLE: 1 27424U 02022A   25351.00450321  .00000925  00000+0  19503-3 0  9992
#TLE: 2 27424  98.4041 311.9529 0001248 113.7180 322.1616 14.61819266256652

#Time	Az	El	Level	Level2	SNR	BER	BlckErr	Temp	State	Recorded	gain1	gain2
2026-01-06 04:34:29.37	230.65	0.14	-51.4	-67.8	3.3	3.02e+01	0	31	0	0	60	126980
2026-01-06 04:34:32.40	230.94	0.28	-51.4	-69.3	3.5	3.02e+01	0	31	104	0	60	150669
2026-01-06 04:34:35.43	231.24	0.42	-51.4	-69.3	3.5	3.02e+01	0	31	104	0	60	150850
2026-01-06 04:34:38.47	231.54	0.56	-51.4	-69.3	3.5	3.02e+01	0	31	104	0	60	151077
2026-01-06 04:34:41.50	231.84	0.70	-51.4	-69.2	3.5	3.02e+01	0	31	104	0	60	150358
2026-01-06 04:34:44.53	232.14	0.84	-51.4	-69.2	3.5	3.02e+01	0	31	104	0	60	149749
2026-01-06 04:34:47.56	232.45	0.98	-51.4	-69.2	3.5	3.02e+01	0	31	104	0	60	150409
2026-01-06 04:34:50.60	232.76	1.12	-51.4	-69.3	3.5	3.02e+01	0	31	104	0	60	151253
2026-01-06 04:34:53.63	233.07	1.26	-51.4	-69.3	3.5	3.02e+01	0	31	104	0	60	150992
2026-01-06 04:34:56.66	233.39	1.40	-51.4	-69.2	3.5	3.02e+01	0	31	104	0	60	150214
2026-01-06 04:34:59.69	233.71	1.54	-51.4	-69.3	3.5	3.02e+01	0	31	104	0	60	151148
2026-01-06 04:35:02.73	234.03	1.69	-51.4	-69.3	3.5	3.02e+01	0	31	104	0	60	151257
2026-01-06 04:35:05.76	234.36	1.83	-51.4	-69.3	3.5	3.02e+01	0	31	104	0	60	150655
2026-01-06 04:35:08.79	234.69	1.97	-51.4	-69.2	3.5	3.02e+01	0	31	104	0	60	150342
2026-01-06 04:35:11.82	235.02	2.11	-51.4	-69.2	3.5	3.02e+01	0	31	104	0	60	150109
2026-01-06 04:35:14.85	235.36	2.25	-51.4	-69.3	3.5	3.02e+01	0	31	104	0	60	150733
2026-01-06 04:35:17.89	235.70	2.39	-51.4	-69.2	3.5	3.02e+01	0	31	104	0	60	149612
2026-01-06 04:35:20.92	236.04	2.54	-51.4	-69.3	3.5	3.02e+01	0	31	104	0	60	151477
2026-01-06 04:35:23.96	236.39	2.68	-51.6	-69.5	3.5	3.02e+01	0	31	104	0	60	154426
2026-01-06 04:35:26.99	236.74	2.82	-51.4	-69.5	3.5	3.02e+01	0	31	104	0	60	154733
2026-01-06 04:35:30.02	237.09	2.96	-51.6	-69.5	3.5	3.02e+01	0	31	104	0	60	155246
2026-01-06 04:35:33.06	237.45	3.10	-51.6	-69.5	3.5	3.02e+01	0	31	104	0	60	154915
2026-01-06 04:35:36.09	237.81	3.24	-51.1	-69.1	3.5	3.02e+01	0	31	104	0	60	148151
2026-01-06 04:35:39.12	238.17	3.39	-48.6	-67.3	3.5	3.02e+01	0	31	104	0	60	120579
2026-01-06 04:35:42.16	238.54	3.53	-48.6	-67.3	3.5	3.02e+01	0	32	104	0	60	120822
2026-01-06 04:35:45.19	238.91	3.67	-48.6	-67.3	3.5	3.02e+01	0	32	104	0	60	120453
2026-01-06 04:35:48.22	239.29	3.81	-48.6	-67.3	3.5	3.02e+01	0	32	104	0	60	120029
2026-01-06 04:35:51.26	239.67	3.95	-48.6	-67.3	3.5	3.02e+01	0	32	104	0	60	120474
2026-01-06 04:35:54.29	240.05	4.09	-48.6	-67.3	3.5	3.02e+01	0	32	104	0	60	120197
2026-01-06 04:35:57.32	240.44	4.23	-48.6	-67.3	3.5	3.02e+01	0	32	104	0	60	120492
2026-01-06 04:36:00.35	240.83	4.37	-48.6	-67.3	3.5	3.02e+01	0	32	104	0	60	120115
2026-01-06 04:36:03.39	241.23	4.51	-48.6	-67.4	3.5	3.02e+01	0	32	104	0	60	121001
2026-01-06 04:36:06.42	241.63	4.65	-48.6	-67.3	3.5	3.02e+01	0	32	104	0	60	119666
2026-01-06 04:36:09.45	242.03	4.79	-48.6	-67.3	3.5	3.02e+01	0	32	104	0	60	120544
2026-01-06 04:36:12.48	242.44	4.93	-48.6	-67.2	3.5	3.02e+01	0	32	104	0	60	119490
2026-01-06 04:36:15.52	242.85	5.07	-48.6	-67.3	3.5	3.02e+01	0	32	104	0	60	120171
2026-01-06 04:36:18.55	243.27	5.21	-48.6	-67.3	3.5	3.02e+01	0	32	104	0	60	120413
2026-01-06 04:36:21.58	243.68	5.35	-48.6	-67.3	3.5	3.02e+01	0	32	104	0	60	119889
2026-01-06 04:36:24.62	244.11	5.49	-48.6	-67.1	3.5	3.02e+01	0	32	104	0	60	117863
2026-01-06 04:36:27.65	244.54	5.63	-49.1	-66.8	3.5	3.02e+01	0	32	104	0	60	113807
2026-01-06 04:36:30.68	244.97	5.76	-48.3	-66.9	3.5	3.02e+01	0	32	104	0	60	114676
2026-01-06 04:36:33.71	245.41	5.90	-48.9	-64.6	3.9	3.02e+01	0	32	104	0	60	87782
2026-01-06 04:36:36.75	245.85	6.04	-49.1	-60.9	5.5	3.02e+01	41	32	0	0	60	57525
2026-01-06 04:36:39.78	246.29	6.17	-48.9	-61.5	3.9	3.02e+01	0	32	104	524288	60	61880
2026-01-06 04:36:42.81	246.74	6.31	-48.9	-59.4	6.8	3.02e+01	91	32	0	524288	60	48402
2026-01-06 04:36:45.84	247.20	6.44	-48.9	-57.4	9.0	3.02e+01	92	32	0	524288	60	38336
2026-01-06 04:36:48.88	247.66	6.58	-48.1	-56.8	9.9	3.02e+01	92	32	0	524288	60	35880
2026-01-06 04:36:51.91	248.12	6.71	-47.8	-54.3	12.8	3.02e+01	91	32	101	524288	60	26812
2026-01-06 04:36:54.94	248.59	6.84	-47.5	-52.8	14.4	3.02e+01	91	32	101	524288	60	22593
2026-01-06 04:36:57.98	249.06	6.97	-47.1	-51.3	16.1	3.02e+01	92	32	101	524288	60	19079
2026-01-06 04:37:01.01	249.54	7.10	-46.6	-50.4	17.0	3.02e+01	89	32	101	524288	60	17173
2026-01-06 04:37:04.04	250.02	7.23	-46.5	-49.8	17.7	3.02e+01	90	32	101	524288	60	16049
2026-01-06 04:37:07.07	250.50	7.36	-45.8	-49.0	18.6	3.02e+01	92	32	101	524288	60	14553
2026-01-06 04:37:10.10	250.99	7.49	-44.8	-47.5	20.2	3.02e+01	86	32	101	524288	60	12254
2026-01-06 04:37:13.13	251.49	7.62	-44.3	-46.6	21.1	3.02e+01	92	32	101	524288	60	11043
2026-01-06 04:37:16.17	251.99	7.74	-43.9	-46.0	21.7	3.02e+01	92	32	101	524288	60	10348
2026-01-06 04:37:19.20	252.49	7.87	-43.4	-45.4	22.3	3.02e+01	92	32	101	524288	60	9657
2026-01-06 04:37:22.23	253.00	7.99	-43.1	-44.9	22.8	3.02e+01	90	32	101	524288	60	9164
2026-01-06 04:37:25.27	253.51	8.12	-42.8	-44.6	23.3	3.02e+01	90	32	101	524288	60	8796
2026-01-06 04:37:28.30	254.03	8.24	-42.2	-43.9	23.9	3.02e+01	92	32	101	524288	60	8112
2026-01-06 04:37:31.33	254.55	8.36	-41.6	-43.2	24.6	3.02e+01	92	32	101	524288	60	7497
2026-01-06 04:37:34.36	255.08	8.48	-41.2	-42.7	25.2	3.02e+01	89	32	101	524288	60	7121
2026-01-06 04:37:37.39	255.61	8.59	-40.9	-42.4	25.5	3.02e+01	92	32	101	524288	60	6831
2026-01-06 04:37:40.42	256.14	8.71	-40.7	-42.1	25.8	3.02e+01	91	32	101	524288	60	6637
2026-01-06 04:37:43.46	256.69	8.82	-40.3	-41.7	26.2	3.02e+01	91	32	101	524288	60	6346
2026-01-06 04:37:46.49	257.23	8.94	-40.1	-41.5	26.5	3.02e+01	91	32	101	524288	60	6157
2026-01-06 04:37:49.52	257.78	9.05	-40.1	-41.5	26.5	3.02e+01	91	32	101	524288	60	6177
2026-01-06 04:37:52.55	258.33	9.16	-40.0	-41.4	26.6	3.02e+01	90	32	101	524288	60	6086
2026-01-06 04:37:55.58	258.89	9.27	-39.8	-41.1	26.9	3.02e+01	92	32	101	524288	60	5907
2026-01-06 04:37:58.62	259.45	9.37	-39.7	-41.0	26.9	3.02e+01	90	32	101	524288	60	5846
2026-01-06 04:38:01.65	260.01	9.48	-39.6	-40.9	27.1	3.02e+01	92	32	101	524288	60	5760
2026-01-06 04:38:04.68	260.58	9.58	-39.4	-40.7	27.2	3.02e+01	90	32	101	524288	60	5642
2026-01-06 04:38:07.72	261.16	9.68	-39.5	-40.8	27.1	3.02e+01	90	32	101	524288	60	5707
2026-01-06 04:38:10.75	261.74	9.78	-39.3	-40.6	27.3	3.02e+01	92	32	101	524288	58	6264
2026-01-06 04:38:13.78	262.32	9.88	-39.4	-40.7	27.2	3.02e+01	92	32	101	524288	58	6338
2026-01-06 04:38:16.82	262.91	9.97	-39.2	-40.6	27.4	3.02e+01	90	32	101	524288	58	6214
2026-01-06 04:38:19.85	263.50	10.06	-39.5	-40.8	27.1	3.02e+01	92	32	101	524288	58	6398
2026-01-06 04:38:22.88	264.09	10.15	-39.0	-40.3	27.6	3.02e+01	92	32	101	524288	58	6064
2026-01-06 04:38:25.91	264.69	10.24	-39.1	-40.4	27.5	3.02e+01	92	32	101	524288	58	6133
2026-01-06 04:38:28.95	265.29	10.33	-39.1	-40.4	27.6	3.02e+01	92	32	101	524288	58	6068
2026-01-06 04:38:31.98	265.90	10.41	-39.0	-40.3	27.6	3.02e+01	92	32	101	524288	58	6062
2026-01-06 04:38:35.01	266.50	10.49	-39.0	-40.3	27.6	3.02e+01	92	32	101	524288	58	6057
2026-01-06 04:38:38.04	267.12	10.57	-38.9	-40.2	27.8	3.02e+01	91	32	101	524288	58	5981
2026-01-06 04:38:41.07	267.73	10.65	-39.0	-40.3	27.7	3.02e+01	90	32	101	524288	58	6014
2026-01-06 04:38:44.11	268.35	10.72	-39.0	-40.3	27.7	3.02e+01	92	32	101	524288	58	6039
2026-01-06 04:38:47.14	268.97	10.79	-38.9	-40.2	27.8	3.02e+01	92	32	101	524288	58	5960
2026-01-06 04:38:50.17	269.60	10.86	-38.8	-40.0	27.9	3.02e+01	92	32	101	524288	58	5854
2026-01-06 04:38:53.20	270.23	10.93	-38.9	-40.2	27.8	3.02e+01	92	32	101	524288	58	5985
2026-01-06 04:38:56.24	270.86	10.99	-38.7	-40.0	28.0	3.02e+01	92	32	101	524288	58	5795
2026-01-06 04:38:59.27	271.49	11.05	-38.8	-40.1	27.9	3.02e+01	92	32	101	524288	58	5884
2026-01-06 04:39:02.30	272.13	11.11	-38.6	-39.8	28.1	3.02e+01	92	32	101	524288	58	5716
2026-01-06 04:39:05.33	272.77	11.16	-38.7	-40.0	28.0	3.02e+01	92	32	101	524288	58	5794
2026-01-06 04:39:08.37	273.41	11.22	-38.4	-39.7	28.2	3.02e+01	92	32	101	524288	58	5623
2026-01-06 04:39:11.40	274.05	11.26	-38.5	-39.7	28.2	3.02e+01	91	32	101	524288	58	5655
2026-01-06 04:39:14.43	274.70	11.31	-38.7	-40.0	28.0	3.02e+01	92	32	101	524288	58	5809
2026-01-06 04:39:17.47	275.35	11.35	-38.6	-39.9	28.1	3.02e+01	92	32	101	524288	58	5761
2026-01-06 04:39:20.50	276.00	11.39	-38.6	-39.8	28.0	3.02e+01	90	32	101	524288	58	5709
2026-01-06 04:39:23.53	276.65	11.43	-38.7	-40.0	28.0	3.02e+01	92	32	101	524288	58	5807
2026-01-06 04:39:26.57	277.30	11.46	-38.3	-39.6	28.4	3.02e+01	91	32	101	524288	56	6224
2026-01-06 04:39:29.60	277.96	11.49	-38.5	-39.8	28.2	3.02e+01	92	32	101	524288	56	6386
2026-01-06 04:39:32.63	278.61	11.52	-38.3	-39.6	28.5	3.02e+01	92	32	101	524288	56	6211
2026-01-06 04:39:35.66	279.27	11.55	-38.4	-39.7	28.3	3.02e+01	92	32	101	524288	56	6278
2026-01-06 04:39:38.70	279.93	11.57	-38.3	-39.5	28.5	3.02e+01	92	32	101	524288	56	6195
2026-01-06 04:39:41.73	280.59	11.58	-38.5	-39.8	28.4	3.02e+01	91	32	101	524288	56	6361
2026-01-06 04:39:44.76	281.24	11.60	-38.4	-39.7	28.4	3.02e+01	87	32	101	524288	56	6309
2026-01-06 04:39:47.79	281.90	11.61	-38.2	-39.4	28.6	3.02e+01	92	32	101	524288	56	6116
2026-01-06 04:39:50.82	282.56	11.62	-38.2	-39.4	28.5	3.02e+01	92	32	101	524288	56	6100
2026-01-06 04:39:53.86	283.23	11.62	-38.3	-39.5	28.5	3.02e+01	88	32	101	524288	56	6171
2026-01-06 04:39:56.89	283.89	11.62	-38.2	-39.5	28.6	3.02e+01	91	32	101	524288	56	6140
2026-01-06 04:39:59.92	284.55	11.62	-38.2	-39.5	28.5	3.02e+01	91	32	101	524288	56	6135
2026-01-06 04:40:02.96	285.21	11.62	-38.1	-39.4	28.6	3.02e+01	92	32	101	524288	56	6080
2026-01-06 04:40:05.99	285.87	11.61	-38.3	-39.6	28.5	3.02e+01	90	32	101	524288	56	6227
2026-01-06 04:40:09.02	286.53	11.60	-38.3	-39.5	28.5	3.02e+01	90	32	101	524288	56	6179
2026-01-06 04:40:12.06	287.19	11.58	-38.1	-39.3	28.7	3.02e+01	92	32	101	524288	56	6059
2026-01-06 04:40:15.09	287.85	11.57	-38.2	-39.4	28.6	3.02e+01	90	32	101	524288	56	6117
2026-01-06 04:40:18.12	288.50	11.55	-38.4	-39.6	28.5	3.02e+01	92	32	101	524288	56	6243
2026-01-06 04:40:21.16	289.16	11.52	-38.1	-39.3	28.7	3.02e+01	90	32	101	524288	56	6042
2026-01-06 04:40:24.19	289.82	11.49	-38.2	-39.4	28.6	3.02e+01	92	32	101	524288	56	6115
2026-01-06 04:40:27.22	290.47	11.46	-38.0	-39.2	28.8	3.02e+01	92	32	101	524288	56	5977
2026-01-06 04:40:30.25	291.12	11.43	-38.2	-39.4	28.6	3.02e+01	92	32	101	524288	56	6100
2026-01-06 04:40:33.29	291.77	11.39	-38.2	-39.5	28.6	3.02e+01	90	32	101	524288	56	6150
2026-01-06 04:40:36.32	292.42	11.35	-38.1	-39.3	28.6	3.02e+01	92	32	101	524288	56	6030
2026-01-06 04:40:39.35	293.07	11.31	-38.2	-39.5	28.6	3.02e+01	92	32	101	524288	56	6139
2026-01-06 04:40:42.38	293.71	11.27	-38.0	-39.2	28.7	3.02e+01	92	32	101	524288	56	5982
2026-01-06 04:40:45.42	294.35	11.22	-38.2	-39.4	28.6	3.02e+01	92	32	101	524288	56	6096
2026-01-06 04:40:48.45	294.99	11.16	-37.9	-39.2	28.9	3.02e+01	92	32	101	524288	56	5939
2026-01-06 04:40:51.48	295.63	11.11	-38.2	-39.5	28.5	3.02e+01	92	32	101	524288	56	6181
2026-01-06 04:40:54.52	296.27	11.05	-37.9	-39.2	28.8	3.02e+01	91	32	101	524288	56	5930
2026-01-06 04:40:57.55	296.90	10.99	-38.0	-39.3	28.7	3.02e+01	92	32	101	524288	56	6005
2026-01-06 04:41:00.58	297.53	10.93	-38.2	-39.4	28.6	3.02e+01	92	32	101	524288	56	6106
2026-01-06 04:41:03.61	298.15	10.86	-38.1	-39.3	28.7	3.02e+01	92	32	101	524288	56	6050
2026-01-06 04:41:06.64	298.78	10.80	-38.2	-39.4	28.6	3.02e+01	92	32	101	524288	56	6101
2026-01-06 04:41:09.68	299.40	10.73	-38.2	-39.4	28.6	3.02e+01	90	32	101	524288	56	6108
2026-01-06 04:41:12.71	300.01	10.65	-37.9	-39.2	28.8	3.02e+01	92	32	101	524288	56	5948
2026-01-06 04:41:15.74	300.63	10.58	-38.1	-39.4	28.6	3.02e+01	92	32	101	524288	56	6080
2026-01-06 04:41:18.78	301.24	10.50	-38.0	-39.2	28.8	3.02e+01	90	32	101	524288	56	5955
2026-01-06 04:41:21.81	301.85	10.42	-38.0	-39.2	28.8	3.02e+01	59	32	101	524288	56	5979
2026-01-06 04:41:24.84	302.45	10.33	-38.0	-39.3	28.7	3.02e+01	62	32	101	524288	56	6001
2026-01-06 04:41:27.87	303.05	10.25	-38.0	-39.2	28.8	3.02e+01	57	32	101	524288	56	5957
2026-01-06 04:41:30.91	303.64	10.16	-38.1	-39.4	28.6	3.02e+01	57	32	101	524288	56	6085
2026-01-06 04:41:33.94	304.24	10.07	-38.0	-39.3	28.8	3.02e+01	61	32	101	524288	56	6013
2026-01-06 04:41:36.97	304.82	9.98	-38.0	-39.2	28.8	3.02e+01	59	32	101	524288	56	5983
2026-01-06 04:41:40.01	305.41	9.88	-38.0	-39.3	28.7	3.02e+01	46	32	101	524288	56	6020
2026-01-06 04:41:43.04	305.99	9.79	-38.0	-39.2	28.8	3.02e+01	57	32	101	524288	56	5961
2026-01-06 04:41:46.07	306.56	9.69	-38.0	-39.3	28.7	3.02e+01	57	32	101	524288	56	6019
2026-01-06 04:41:49.11	307.14	9.59	-38.1	-39.4	28.6	3.02e+01	62	32	101	524288	56	6065
2026-01-06 04:41:52.14	307.70	9.49	-38.0	-39.3	28.7	3.02e+01	60	32	101	524288	56	6006
2026-01-06 04:41:55.17	308.27	9.38	-38.2	-39.4	28.6	3.02e+01	60	32	101	524288	56	6111
2026-01-06 04:41:58.21	308.83	9.28	-38.1	-39.4	28.7	3.02e+01	57	32	101	524288	56	6066
2026-01-06 04:42:01.24	309.38	9.17	-38.1	-39.4	28.6	3.02e+01	53	32	101	524288	56	6092
2026-01-06 04:42:04.27	309.93	9.06	-38.3	-39.6	28.4	3.02e+01	57	32	101	524288	56	6213
2026-01-06 04:42:07.30	310.48	8.95	-38.1	-39.3	28.7	3.02e+01	60	32	101	524288	56	6045
2026-01-06 04:42:10.34	311.02	8.84	-38.0	-39.2	28.7	3.02e+01	62	32	101	524288	56	5989
2026-01-06 04:42:13.37	311.56	8.73	-38.2	-39.5	28.5	3.02e+01	61	32	101	524288	56	6156
2026-01-06 04:42:16.41	312.09	8.61	-38.1	-39.4	28.6	3.02e+01	59	32	101	524288	56	6079
2026-01-06 04:42:19.44	312.62	8.49	-37.9	-39.2	28.8	3.02e+01	45	32	101	524288	56	5928
2026-01-06 04:42:22.47	313.14	8.38	-38.1	-39.4	28.6	3.02e+01	51	32	101	524288	56	6078
2026-01-06 04:42:25.51	313.66	8.26	-38.3	-39.5	28.4	3.02e+01	57	32	101	524288	56	6195
2026-01-06 04:42:28.54	314.18	8.14	-38.1	-39.4	28.5	3.02e+01	59	32	101	524288	56	6111
2026-01-06 04:42:31.57	314.69	8.02	-38.4	-39.7	28.2	3.02e+01	62	32	101	524288	56	6298
2026-01-06 04:42:34.61	315.20	7.89	-38.3	-39.6	28.5	3.02e+01	60	32	101	524288	56	6235
2026-01-06 04:42:37.64	315.70	7.77	-38.3	-39.6	28.4	3.02e+01	58	32	101	524288	56	6243
2026-01-06 04:42:40.67	316.19	7.64	-38.2	-39.5	28.4	3.02e+01	57	32	101	524288	56	6179
2026-01-06 04:42:43.71	316.69	7.52	-38.1	-39.4	28.5	3.02e+01	58	32	101	524288	56	6104
2026-01-06 04:42:46.74	317.17	7.39	-38.3	-39.6	28.3	3.02e+01	60	32	101	524288	56	6242
2026-01-06 04:42:49.77	317.66	7.26	-38.3	-39.6	28.3	3.02e+01	61	32	101	524288	56	6241
2026-01-06 04:42:52.81	318.14	7.13	-38.3	-39.6	28.4	3.02e+01	61	32	101	524288	56	6228
2026-01-06 04:42:55.84	318.61	7.01	-38.4	-39.7	28.2	3.02e+01	60	32	101	524288	56	6282
2026-01-06 04:42:58.87	319.08	6.88	-38.4	-39.6	28.3	3.02e+01	59	32	101	524288	56	6271
2026-01-06 04:43:01.90	319.55	6.74	-38.6	-39.9	28.1	3.02e+01	57	32	101	524288	56	6448
2026-01-06 04:43:04.94	320.01	6.61	-38.7	-40.0	28.0	3.02e+01	52	32	101	524288	56	6529
2026-01-06 04:43:07.97	320.46	6.48	-38.8	-40.1	27.7	3.02e+01	50	32	101	524288	56	6642
2026-01-06 04:43:11.00	320.92	6.35	-38.7	-40.0	28.0	3.02e+01	57	32	101	524288	56	6535
2026-01-06 04:43:14.04	321.37	6.21	-38.4	-39.7	28.1	3.02e+01	58	32	101	524288	56	6309
2026-01-06 04:43:17.07	321.81	6.08	-38.9	-40.2	27.7	3.02e+01	56	32	101	524288	56	6700
2026-01-06 04:43:20.10	322.25	5.94	-38.6	-39.9	28.0	3.02e+01	56	32	101	524288	56	6426
2026-01-06 04:43:23.13	322.68	5.81	-38.6	-39.9	27.9	3.02e+01	60	32	101	524288	56	6490
2026-01-06 04:43:26.17	323.12	5.67	-38.5	-39.8	28.1	3.02e+01	45	32	101	524288	56	6359
2026-01-06 04:43:29.20	323.54	5.54	-38.7	-39.9	27.9	3.02e+01	44	32	101	524288	56	6496
2026-01-06 04:43:32.23	323.96	5.40	-38.8	-40.2	27.8	3.02e+01	57	32	101	524288	56	6662
2026-01-06 04:43:35.27	324.38	5.26	-38.8	-40.1	27.8	3.02e+01	64	32	101	524288	56	6621
2026-01-06 04:43:38.30	324.80	5.12	-38.7	-40.0	27.8	3.02e+01	60	32	101	524288	56	6545
2026-01-06 04:43:41.33	325.21	4.99	-38.7	-40.0	27.8	3.02e+01	58	32	101	524288	56	6553
2026-01-06 04:43:44.37	325.61	4.85	-39.0	-40.3	27.5	3.02e+01	59	32	101	524288	56	6753
2026-01-06 04:43:47.40	326.02	4.71	-39.0	-40.3	27.5	3.02e+01	55	32	101	524288	56	6756
2026-01-06 04:43:50.44	326.41	4.57	-39.1	-40.4	27.4	3.02e+01	55	32	101	524288	56	6845
2026-01-06 04:43:53.47	326.81	4.43	-38.9	-40.3	27.5	3.02e+01	58	32	101	524288	56	6738
2026-01-06 04:43:56.50	327.20	4.29	-39.1	-40.5	27.3	3.02e+01	59	32	101	524288	56	6888
2026-01-06 04:43:59.53	327.58	4.15	-39.1	-40.5	27.3	3.02e+01	58	32	101	524288	56	6890
2026-01-06 04:44:02.57	327.97	4.01	-39.2	-40.6	27.2	3.02e+01	62	32	101	524288	56	6981
2026-01-06 04:44:05.60	328.35	3.87	-39.3	-40.7	27.0	3.02e+01	62	32	101	524288	58	6287
2026-01-06 04:44:08.63	328.72	3.73	-39.1	-40.5	27.2	3.02e+01	58	32	101	524288	58	6153
2026-01-06 04:44:11.67	329.09	3.59	-39.2	-40.5	27.1	3.02e+01	57	32	101	524288	58	6192
2026-01-06 04:44:14.70	329.46	3.45	-39.2	-40.5	27.1	3.02e+01	46	32	101	524288	58	6191
2026-01-06 04:44:17.73	329.82	3.31	-39.2	-40.5	27.1	3.02e+01	59	32	101	524288	58	6186
2026-01-06 04:44:20.76	330.18	3.17	-39.5	-40.9	26.9	3.02e+01	60	32	101	524288	58	6440
2026-01-06 04:44:23.80	330.54	3.03	-39.6	-41.0	26.5	3.02e+01	59	32	101	524288	58	6518
2026-01-06 04:44:26.83	330.89	2.89	-39.5	-40.8	26.8	3.02e+01	60	32	101	524288	58	6416
2026-01-06 04:44:29.86	331.24	2.75	-39.3	-40.6	27.0	3.02e+01	58	32	101	524288	58	6274
2026-01-06 04:44:32.90	331.59	2.61	-39.6	-41.0	26.6	3.02e+01	58	32	101	524288	58	6526
2026-01-06 04:44:35.93	331.93	2.47	-39.6	-41.0	26.5	3.02e+01	49	32	101	524288	58	6571
2026-01-06 04:44:38.96	332.27	2.33	-39.8	-41.2	26.3	3.02e+01	61	32	101	524288	58	6671
2026-01-06 04:44:41.99	332.60	2.19	-40.0	-41.4	26.2	3.02e+01	59	32	101	524288	58	6829
2026-01-06 04:44:45.03	332.94	2.05	-40.1	-50.4	3.6	3.02e+01	0	32	104	524288	58	19237
2026-01-06 04:44:48.06	333.27	1.91	-40.4	-50.6	3.6	3.02e+01	0	32	104	524288	60	17654
2026-01-06 04:44:51.09	333.59	1.77	-49.9	-66.6	3.5	3.02e+01	0	32	104	524288	60	111252
2026-01-06 04:44:54.13	333.92	1.63	-42.6	-53.1	4.0	3.02e+01	0	32	104	524288	60	23541
2026-01-06 04:44:57.16	334.24	1.49	-45.6	-57.0	3.4	3.02e+01	0	32	104	524288	60	36945
2026-01-06 04:45:00.19	334.55	1.35	-48.7	-63.1	3.5	3.02e+01	0	32	104	524288	60	74120
2026-01-06 04:45:03.23	334.87	1.21	-41.5	-52.0	3.5	3.02e+01	0	32	104	524288	60	20781
2026-01-06 04:45:06.26	335.18	1.07	-40.9	-51.4	3.5	3.02e+01	0	32	104	524288	60	19336
2026-01-06 04:45:09.29	335.48	0.93	-46.2	-59.4	3.5	3.02e+01	0	32	104	524288	60	48228
2026-01-06 04:45:12.33	335.79	0.79	-43.7	-54.8	3.5	3.02e+01	0	32	104	524288	60	28633
2026-01-06 04:45:15.36	336.09	0.65	-43.3	-54.6	3.5	3.02e+01	0	32	104	524288	60	28030
2026-01-06 04:45:18.39	336.39	0.51	-51.0	-69.0	3.5	3.02e+01	0	32	104	524288	60	145689
2026-01-06 04:45:21.43	336.68	0.38	-51.3	-69.4	3.5	3.02e+01	0	32	104	524288	60	152711
2026-01-06 04:45:24.46	336.97	0.24	-51.3	-69.5	3.5	3.02e+01	0	32	104	524288	60	154148
2026-01-06 04:45:27.49	337.26	0.10	-51.2	-69.4	3.5	3.02e+01	0	32	104	524288	60	153798

#Closed at: 2026-01-06 04:45:30
#Recorded file [0 MB]: D:/lorett/data/35034_260106_073429.dat