passes_logs/2026/01/06/R4.6S_Anadyr_2ch/R4.6S_Anadyr_2ch__20260106_134321_NOAA_21_JPSS-2_rec.log

#Pass ID: 20260106_134321_NOAA 21 (JPSS-2)
#Satellite: NOAA 21 (JPSS-2)
#Configuration: NOAA-21
#almurnet v.1.7.20251203
#Start time: 2026-01-06 13:43:22

#Version: 2.2.20231116
#Station: R4.6S_Anadyr_2ch
#Location: 177.4865 lon 64.73178 lat
#TLE: 1 54234U 22150A   25350.97269056  .00000057  00000+0  47676-4 0  9992
#TLE: 2 54234  98.7466 287.2282 0002043  29.8355 330.2937 14.19525482160692

#Time	Az	El	Level	Level2	SNR	BER	BlckErr	Temp	State	Recorded	gain1	gain2
2026-01-06 13:43:22.40	19.02	0.07	-51.3	-66.3	3.6	1.51e+00	0	30	0	0	60	100200
2026-01-06 13:43:26.44	19.16	0.31	-51.5	-64.4	3.5	1.52e+00	0	32	104	0	60	78874
2026-01-06 13:43:30.49	19.30	0.54	-51.3	-64.2	3.5	1.52e+00	0	32	104	0	60	77144
2026-01-06 13:43:34.53	19.44	0.78	-50.7	-63.7	3.5	1.52e+00	0	32	104	0	60	72153
2026-01-06 13:43:38.57	19.58	1.02	-50.0	-62.9	3.5	1.52e+00	0	32	104	0	60	66273
2026-01-06 13:43:42.62	19.73	1.26	-50.0	-62.9	3.5	1.52e+00	0	32	104	0	60	65799
2026-01-06 13:43:46.66	19.87	1.50	-50.0	-62.8	3.5	1.52e+00	0	32	104	0	60	65406
2026-01-06 13:43:50.70	20.02	1.75	-50.0	-62.9	3.5	1.52e+00	0	33	104	0	60	65929
2026-01-06 13:43:54.75	20.18	1.99	-50.0	-62.7	3.5	1.52e+00	0	32	104	0	60	64698
2026-01-06 13:43:58.79	20.33	2.24	-49.9	-61.4	3.5	1.51e+00	0	33	104	0	60	55577
2026-01-06 13:44:02.83	20.48	2.49	-49.6	-59.1	4.4	1.51e+00	2	33	104	0	60	42665
2026-01-06 13:44:06.87	20.64	2.75	-45.1	-47.3	15.2	0.00e+00	0	33	102	1048576	60	10978
2026-01-06 13:44:10.92	20.80	3.00	-42.2	-43.6	18.6	0.00e+00	0	33	102	1048576	60	7206
2026-01-06 13:44:14.96	20.97	3.26	-44.0	-45.8	16.4	0.00e+00	0	33	102	1048576	60	9266
2026-01-06 13:44:19.00	21.13	3.52	-41.6	-43.0	19.4	0.00e+00	0	33	102	1048576	60	6656
2026-01-06 13:44:23.05	21.30	3.78	-49.9	-60.9	3.7	1.51e+00	0	33	104	1048576	60	52762
2026-01-06 13:44:27.09	21.47	4.04	-42.9	-44.5	18.0	0.00e+00	0	33	0	1048576	60	7924
2026-01-06 13:44:31.13	21.65	4.31	-41.0	-42.2	20.2	0.00e+00	0	33	0	1048576	60	6110
2026-01-06 13:44:35.17	21.82	4.58	-40.7	-41.9	20.5	0.00e+00	0	33	101	1048576	60	5900
2026-01-06 13:44:39.21	22.00	4.85	-40.7	-41.9	20.4	0.00e+00	0	33	101	1048576	60	5925
2026-01-06 13:44:43.26	22.19	5.12	-40.6	-41.8	20.6	0.00e+00	0	33	101	1048576	60	5792
2026-01-06 13:44:47.30	22.37	5.40	-40.3	-41.5	21.0	0.00e+00	0	33	101	1048576	60	5600
2026-01-06 13:44:51.34	22.56	5.68	-40.0	-41.1	21.3	0.00e+00	0	33	101	1048576	58	6064
2026-01-06 13:44:55.39	22.75	5.96	-40.0	-41.1	21.4	0.00e+00	0	33	101	1048576	58	6039
2026-01-06 13:44:59.43	22.95	6.25	-39.8	-40.9	21.5	0.00e+00	0	33	101	1048576	58	5895
2026-01-06 13:45:03.47	23.15	6.53	-39.7	-40.8	21.7	0.00e+00	0	33	101	1048576	58	5831
2026-01-06 13:45:07.51	23.35	6.82	-39.7	-40.8	21.7	0.00e+00	0	33	101	1048576	58	5797
2026-01-06 13:45:11.56	23.56	7.12	-39.4	-40.5	22.0	0.00e+00	0	33	101	1048576	58	5616
2026-01-06 13:45:15.60	23.77	7.41	-39.5	-40.6	21.9	0.00e+00	0	33	101	1048576	58	5673
2026-01-06 13:45:19.63	23.98	7.71	-39.3	-40.3	22.1	0.00e+00	0	33	101	1048576	58	5517
2026-01-06 13:45:23.67	24.20	8.02	-39.1	-40.2	22.3	0.00e+00	0	33	101	1048576	58	5420
2026-01-06 13:45:27.70	24.42	8.32	-39.1	-40.1	22.4	0.00e+00	0	33	101	1048576	56	6027
2026-01-06 13:45:31.73	24.65	8.63	-39.1	-40.1	22.4	0.00e+00	0	33	101	1048576	56	6052
2026-01-06 13:45:35.77	24.88	8.95	-38.8	-39.8	22.6	0.00e+00	0	33	101	1048576	56	5857
2026-01-06 13:45:39.81	25.11	9.26	-38.7	-39.7	22.9	0.00e+00	0	33	101	1048576	56	5749
2026-01-06 13:45:43.84	25.35	9.58	-38.6	-39.6	22.9	0.00e+00	0	33	101	1048576	56	5693
2026-01-06 13:45:47.87	25.60	9.91	-38.5	-39.4	23.1	0.00e+00	0	33	101	1048576	56	5587
2026-01-06 13:45:51.91	25.85	10.24	-38.4	-39.4	23.1	0.00e+00	0	33	101	1048576	56	5532
2026-01-06 13:45:55.94	26.10	10.57	-38.3	-39.3	23.2	0.00e+00	0	33	101	1048576	56	5477
2026-01-06 13:45:59.97	26.36	10.90	-38.2	-39.1	23.3	0.00e+00	0	33	101	1048576	54	6041
2026-01-06 13:46:04.00	26.63	11.24	-38.0	-38.9	23.4	0.00e+00	0	33	101	1048576	54	5925
2026-01-06 13:46:08.04	26.90	11.59	-37.9	-38.9	23.5	0.00e+00	0	33	101	1048576	54	5884
2026-01-06 13:46:12.07	27.18	11.94	-37.9	-38.8	23.5	0.00e+00	0	33	101	1048576	54	5850
2026-01-06 13:46:16.11	27.47	12.29	-37.7	-38.6	23.7	0.00e+00	0	33	101	1048576	54	5714
2026-01-06 13:46:20.14	27.76	12.65	-37.4	-38.3	23.9	0.00e+00	0	33	101	1048576	54	5530
2026-01-06 13:46:24.18	28.06	13.01	-37.4	-38.3	24.0	0.00e+00	0	34	101	1048576	54	5483
2026-01-06 13:46:28.21	28.36	13.38	-37.2	-38.1	24.1	0.00e+00	0	34	101	1048576	54	5391
2026-01-06 13:46:32.24	28.67	13.75	-37.5	-38.4	24.0	0.00e+00	0	33	101	1048576	54	5550
2026-01-06 13:46:36.28	28.99	14.13	-37.4	-38.3	24.0	0.00e+00	0	33	101	1048576	54	5497
2026-01-06 13:46:40.31	29.32	14.51	-37.3	-38.3	24.1	0.00e+00	0	33	101	1048576	54	5474
2026-01-06 13:46:44.34	29.66	14.90	-37.5	-38.4	24.0	0.00e+00	0	33	101	1048576	54	5577
2026-01-06 13:46:48.38	30.00	15.29	-37.5	-38.4	24.1	0.00e+00	0	34	101	1048576	54	5557
2026-01-06 13:46:52.41	30.35	15.69	-37.7	-38.7	23.8	0.00e+00	0	33	101	1048576	54	5745
2026-01-06 13:46:56.45	30.71	16.09	-37.8	-38.7	23.8	0.00e+00	0	34	101	1048576	54	5741
2026-01-06 13:47:00.48	31.09	16.50	-38.0	-39.0	23.6	0.00e+00	0	34	101	1048576	54	5946
2026-01-06 13:47:04.52	31.47	16.92	-38.1	-39.0	23.6	0.00e+00	0	33	101	1048576	54	5967
2026-01-06 13:47:08.55	31.86	17.34	-38.1	-39.0	23.6	0.00e+00	0	34	101	1048576	54	5960
2026-01-06 13:47:12.58	32.26	17.77	-38.2	-39.2	23.4	0.00e+00	0	34	101	1048576	54	6076
2026-01-06 13:47:16.62	32.67	18.20	-38.1	-39.0	23.6	0.00e+00	0	34	101	1048576	54	5974
2026-01-06 13:47:20.65	33.10	18.65	-38.1	-39.0	23.7	0.00e+00	0	34	101	1048576	54	5974
2026-01-06 13:47:24.68	33.53	19.09	-37.6	-38.5	23.9	0.00e+00	0	34	101	1048576	54	5652
2026-01-06 13:47:28.71	33.98	19.55	-37.6	-38.5	24.0	0.00e+00	0	34	101	1048576	54	5657
2026-01-06 13:47:32.75	34.44	20.01	-36.9	-37.8	24.4	0.00e+00	0	34	101	1048576	52	5837
2026-01-06 13:47:36.78	34.92	20.47	-36.8	-37.7	24.6	0.00e+00	0	33	101	1048576	52	5747
2026-01-06 13:47:40.81	35.41	20.95	-36.5	-37.4	24.7	0.00e+00	0	34	101	1048576	52	5560
2026-01-06 13:47:44.85	35.91	21.43	-36.1	-37.0	25.0	0.00e+00	0	33	101	1048576	50	5928
2026-01-06 13:47:48.89	36.43	21.92	-36.1	-37.0	25.0	0.00e+00	0	34	101	1048576	50	5959
2026-01-06 13:47:52.92	36.97	22.42	-36.1	-37.0	25.1	0.00e+00	0	34	101	1048576	50	5951
2026-01-06 13:47:56.96	37.52	22.92	-35.8	-36.7	25.3	0.00e+00	0	34	101	1048576	50	5745
2026-01-06 13:48:00.99	38.09	23.43	-35.7	-36.5	25.4	0.00e+00	0	34	101	1048576	50	5652
2026-01-06 13:48:05.03	38.68	23.95	-36.0	-36.9	25.2	0.00e+00	0	34	101	1048576	50	5861
2026-01-06 13:48:09.06	39.29	24.47	-36.2	-37.1	25.2	0.00e+00	0	34	101	1048576	50	6039
2026-01-06 13:48:13.10	39.92	25.01	-36.6	-37.4	24.8	0.00e+00	0	34	101	1048576	50	6268
2026-01-06 13:48:17.13	40.57	25.54	-36.8	-37.7	24.7	0.00e+00	0	34	101	1048576	50	6454
2026-01-06 13:48:21.16	41.24	26.09	-37.0	-37.9	24.6	0.00e+00	0	34	101	1048576	50	6590
2026-01-06 13:48:25.20	41.94	26.65	-36.8	-37.6	24.7	0.00e+00	0	34	101	1048576	50	6423
2026-01-06 13:48:29.23	42.66	27.21	-37.1	-37.9	24.6	0.00e+00	0	34	101	1048576	50	6645
2026-01-06 13:48:33.27	43.40	27.78	-37.4	-38.3	24.2	0.00e+00	0	34	101	1048576	52	6181
2026-01-06 13:48:37.31	44.17	28.35	-37.1	-38.0	24.6	0.00e+00	0	34	101	1048576	52	5958
2026-01-06 13:48:41.34	44.97	28.93	-37.3	-38.2	24.4	0.00e+00	0	34	101	1048576	52	6108
2026-01-06 13:48:45.37	45.80	29.52	-36.7	-37.6	24.8	0.00e+00	0	34	101	1048576	52	5696
2026-01-06 13:48:49.40	46.65	30.11	-37.0	-37.9	24.7	0.00e+00	0	34	101	1048576	52	5887
2026-01-06 13:48:53.44	47.54	30.71	-37.6	-38.5	24.1	0.00e+00	0	34	101	1048576	52	6325
2026-01-06 13:48:57.47	48.46	31.31	-37.8	-38.7	24.0	0.00e+00	0	34	101	1048576	52	6473
2026-01-06 13:49:01.51	49.42	31.92	-38.0	-39.0	23.8	0.00e+00	0	34	101	1048576	52	6663
2026-01-06 13:49:05.55	50.41	32.54	-38.2	-39.1	23.7	0.00e+00	0	34	101	1048576	54	6032
2026-01-06 13:49:09.58	51.44	33.15	-37.8	-38.7	24.1	0.00e+00	0	34	101	1048576	54	5748
2026-01-06 13:49:13.62	52.51	33.77	-38.2	-39.1	23.7	0.00e+00	0	34	101	1048576	54	6031
2026-01-06 13:49:17.65	53.62	34.39	-38.1	-39.0	23.8	0.00e+00	0	34	101	1048576	54	5989
2026-01-06 13:49:21.68	54.77	35.00	-38.5	-39.5	23.5	0.00e+00	0	34	101	1048576	54	6278
2026-01-06 13:49:25.72	55.97	35.62	-38.4	-39.4	23.5	0.00e+00	0	34	101	1048576	54	6238
2026-01-06 13:49:29.76	57.21	36.24	-38.5	-39.4	23.4	0.00e+00	0	34	101	1048576	54	6242
2026-01-06 13:49:33.80	58.50	36.85	-38.4	-39.4	23.5	0.00e+00	0	34	101	1048576	54	6230
2026-01-06 13:49:37.85	59.84	37.46	-38.8	-39.8	23.2	0.00e+00	0	34	101	1048576	54	6531
2026-01-06 13:49:41.89	61.23	38.06	-38.8	-39.7	23.2	0.00e+00	0	34	101	1048576	54	6491
2026-01-06 13:49:45.93	62.66	38.66	-38.6	-39.6	23.4	0.00e+00	0	34	101	1048576	54	6358
2026-01-06 13:49:49.98	64.16	39.24	-38.8	-39.7	23.3	0.00e+00	0	34	101	1048576	54	6477
2026-01-06 13:49:54.02	65.70	39.81	-39.2	-40.1	22.9	0.00e+00	0	34	101	1048576	54	6784
2026-01-06 13:49:58.07	67.31	40.37	-40.1	-41.1	22.1	0.00e+00	0	34	101	1048576	58	6060
2026-01-06 13:50:02.11	68.96	40.90	-39.8	-40.8	22.4	0.00e+00	0	34	101	1048576	58	5812
2026-01-06 13:50:06.15	70.66	41.42	-40.2	-41.2	22.0	0.00e+00	0	34	101	1048576	58	6117
2026-01-06 13:50:10.19	72.43	41.92	-40.6	-41.7	21.6	0.00e+00	0	34	101	1048576	58	6438
2026-01-06 13:50:14.24	74.24	42.40	-40.3	-41.3	21.8	0.00e+00	0	34	101	1048576	58	6187
2026-01-06 13:50:18.28	76.11	42.84	-40.1	-41.1	22.1	0.00e+00	0	34	101	1048576	58	6056
2026-01-06 13:50:22.32	78.03	43.26	-40.0	-41.1	21.7	0.00e+00	0	34	101	1048576	58	6008
2026-01-06 13:50:26.37	80.00	43.65	-40.3	-41.4	21.9	0.00e+00	0	34	101	1048576	58	6208
2026-01-06 13:50:30.41	82.01	44.00	-41.4	-42.6	20.9	0.00e+00	0	34	101	1048576	60	6416
2026-01-06 13:50:34.46	84.07	44.32	-39.8	-40.8	22.5	0.00e+00	0	34	101	1048576	58	5826
2026-01-06 13:50:38.50	86.16	44.60	-39.6	-40.6	22.7	0.00e+00	0	34	101	1048576	58	5665
2026-01-06 13:50:42.54	88.29	44.83	-39.8	-40.8	22.3	0.00e+00	0	34	101	1048576	58	5845
2026-01-06 13:50:46.59	90.45	45.03	-39.8	-40.8	22.2	0.00e+00	0	34	101	1048576	58	5856
2026-01-06 13:50:50.63	92.63	45.18	-39.9	-40.9	22.4	0.00e+00	0	34	101	1048576	58	5907
2026-01-06 13:50:54.68	94.83	45.29	-39.6	-40.6	22.5	0.00e+00	0	34	101	1048576	58	5697
2026-01-06 13:50:58.72	97.04	45.35	-39.7	-40.7	22.1	0.00e+00	0	34	101	1048576	58	5788
2026-01-06 13:51:02.76	99.25	45.36	-39.9	-40.9	22.1	0.00e+00	0	34	101	1048576	58	5913
2026-01-06 13:51:06.80	101.47	45.33	-39.3	-40.3	22.8	0.00e+00	0	34	101	1048576	58	5505
2026-01-06 13:51:10.84	103.67	45.25	-39.6	-40.6	22.6	0.00e+00	0	34	101	1048576	58	5680
2026-01-06 13:51:14.88	105.87	45.13	-39.6	-40.6	22.6	0.00e+00	0	34	101	1048576	58	5721
2026-01-06 13:51:18.92	108.04	44.96	-39.2	-40.2	22.6	0.00e+00	0	34	101	1048576	58	5442
2026-01-06 13:51:22.97	110.19	44.75	-39.7	-40.8	22.4	0.00e+00	0	34	101	1048576	56	6506
2026-01-06 13:51:27.01	112.31	44.50	-39.7	-40.7	22.5	0.00e+00	0	34	101	1048576	56	6435
2026-01-06 13:51:31.05	114.39	44.21	-39.7	-40.7	22.6	0.00e+00	0	34	101	1048576	56	6435
2026-01-06 13:51:35.10	116.44	43.88	-39.0	-39.9	23.2	0.00e+00	0	34	101	1048576	56	5893
2026-01-06 13:51:39.14	118.44	43.51	-39.6	-40.6	22.6	0.00e+00	0	34	101	1048576	56	6370
2026-01-06 13:51:43.19	120.39	43.11	-39.7	-40.7	22.6	0.00e+00	0	34	101	1048576	56	6483
2026-01-06 13:51:47.23	122.30	42.68	-40.1	-41.2	21.9	0.00e+00	0	34	101	1048576	56	6807
2026-01-06 13:51:51.27	124.15	42.22	-39.0	-39.9	23.2	0.00e+00	0	34	101	1048576	56	5926
2026-01-06 13:51:55.31	125.95	41.74	-39.3	-40.2	23.0	0.00e+00	0	34	101	1048576	56	6128
2026-01-06 13:51:59.36	127.70	41.23	-38.7	-39.6	23.3	0.00e+00	0	34	101	1048576	56	5707
2026-01-06 13:52:03.40	129.39	40.70	-39.5	-40.6	22.7	0.00e+00	0	34	101	1048576	56	6363
2026-01-06 13:52:07.44	131.03	40.16	-39.5	-40.5	22.8	0.00e+00	0	34	101	1048576	56	6303
2026-01-06 13:52:11.48	132.61	39.59	-40.1	-41.2	22.1	0.00e+00	0	34	101	1048576	58	6078
2026-01-06 13:52:15.53	134.14	39.01	-39.8	-40.8	22.4	0.00e+00	0	34	101	1048576	58	5813
2026-01-06 13:52:19.57	135.62	38.43	-39.3	-40.2	22.9	0.00e+00	0	34	101	1048576	56	6129
2026-01-06 13:52:23.62	137.04	37.83	-38.6	-39.6	23.4	0.00e+00	0	34	101	1048576	56	5678
2026-01-06 13:52:27.66	138.42	37.22	-38.1	-39.1	23.8	0.00e+00	0	34	101	1048576	54	5996
2026-01-06 13:52:31.70	139.74	36.61	-38.1	-39.0	23.9	0.00e+00	0	34	101	1048576	54	5963
2026-01-06 13:52:35.74	141.01	35.99	-37.6	-38.5	24.2	0.00e+00	0	34	101	1048576	54	5629
2026-01-06 13:52:39.78	142.24	35.37	-37.6	-38.5	24.1	0.00e+00	0	34	101	1048576	54	5650
2026-01-06 13:52:43.83	143.43	34.75	-38.0	-38.9	23.7	0.00e+00	0	34	101	1048576	54	5900
2026-01-06 13:52:47.87	144.57	34.12	-37.7	-38.6	23.9	0.00e+00	0	34	101	1048576	54	5690
2026-01-06 13:52:51.91	145.67	33.50	-38.1	-39.1	23.7	0.00e+00	0	34	101	1048576	54	6011
2026-01-06 13:52:55.95	146.72	32.88	-37.8	-38.7	24.1	0.00e+00	0	34	101	1048576	54	5760
2026-01-06 13:53:00.00	147.75	32.26	-37.5	-38.5	24.3	0.00e+00	0	34	101	1048576	54	5601
2026-01-06 13:53:04.04	148.73	31.65	-36.8	-37.7	24.8	0.00e+00	0	34	101	1048576	52	5734
2026-01-06 13:53:08.08	149.67	31.04	-36.7	-37.6	24.9	0.00e+00	0	34	101	1048576	52	5660
2026-01-06 13:53:12.12	150.58	30.43	-36.8	-37.7	24.6	0.00e+00	0	34	101	1048576	52	5743
2026-01-06 13:53:16.17	151.47	29.83	-37.0	-37.9	24.5	0.00e+00	0	34	101	1048576	52	5924
2026-01-06 13:53:20.20	152.31	29.23	-37.5	-38.4	24.1	0.00e+00	0	34	101	1048576	52	6249
2026-01-06 13:53:24.23	153.13	28.65	-37.4	-38.3	24.2	0.00e+00	0	34	101	1048576	52	6142
2026-01-06 13:53:28.27	153.92	28.06	-37.2	-38.1	24.3	0.00e+00	0	34	101	1048576	52	6020
2026-01-06 13:53:32.30	154.68	27.49	-37.1	-38.0	24.6	0.00e+00	0	34	101	1048576	52	5933
2026-01-06 13:53:36.34	155.41	26.92	-36.5	-37.4	24.9	0.00e+00	0	34	101	1048576	52	5566
2026-01-06 13:53:40.37	156.12	26.36	-36.7	-37.6	24.8	0.00e+00	0	34	101	1048576	52	5671
2026-01-06 13:53:44.41	156.81	25.80	-36.8	-37.7	24.7	0.00e+00	0	34	101	1048576	52	5746
2026-01-06 13:53:48.44	157.47	25.26	-36.3	-37.2	25.0	0.00e+00	0	34	101	1048576	52	5413
2026-01-06 13:53:52.47	158.11	24.72	-36.2	-37.1	24.9	0.00e+00	0	34	101	1048576	52	5383
2026-01-06 13:53:56.51	158.74	24.18	-36.5	-37.4	24.8	0.00e+00	0	34	101	1048576	52	5577
2026-01-06 13:54:00.54	159.34	23.66	-36.4	-37.3	25.0	0.00e+00	0	34	101	1048576	52	5480
2026-01-06 13:54:04.57	159.92	23.14	-36.5	-37.4	24.6	0.00e+00	0	34	101	1048576	52	5537
2026-01-06 13:54:08.61	160.48	22.63	-36.7	-37.6	24.5	0.00e+00	0	34	101	1048576	52	5661
2026-01-06 13:54:12.63	161.03	22.13	-36.7	-37.6	24.7	0.00e+00	0	34	101	1048576	52	5708
2026-01-06 13:54:16.67	161.56	21.63	-37.2	-38.1	24.3	0.00e+00	0	34	101	1048576	52	6006
2026-01-06 13:54:20.70	162.07	21.15	-37.6	-38.6	24.1	0.00e+00	0	34	101	1048576	52	6358
2026-01-06 13:54:24.73	162.57	20.66	-37.4	-38.4	24.2	0.00e+00	0	34	101	1048576	52	6226
2026-01-06 13:54:28.76	163.05	20.19	-37.0	-37.9	24.3	0.00e+00	0	34	101	1048576	52	5920
2026-01-06 13:54:32.80	163.52	19.72	-36.8	-37.7	24.5	0.00e+00	0	34	101	1048576	52	5735
2026-01-06 13:54:36.83	163.98	19.26	-36.6	-37.5	24.7	0.00e+00	0	34	101	1048576	52	5643
2026-01-06 13:54:40.86	164.42	18.81	-36.4	-37.3	24.9	0.00e+00	0	34	101	1048576	52	5491
2026-01-06 13:54:44.90	164.85	18.36	-36.6	-37.5	24.8	0.00e+00	0	34	101	1048576	52	5602
2026-01-06 13:54:48.93	165.27	17.92	-37.1	-38.0	24.3	0.00e+00	0	34	101	1048576	52	5977
2026-01-06 13:54:52.96	165.68	17.49	-37.5	-38.5	24.1	0.00e+00	0	34	101	1048576	52	6293
2026-01-06 13:54:56.99	166.07	17.06	-37.8	-38.7	23.8	0.00e+00	0	34	101	1048576	52	6478
2026-01-06 13:55:01.03	166.46	16.64	-37.5	-38.5	23.8	0.00e+00	0	34	101	1048576	52	6279
2026-01-06 13:55:05.06	166.83	16.22	-37.3	-38.3	24.0	0.00e+00	0	34	101	1048576	52	6135
2026-01-06 13:55:09.09	167.20	15.81	-37.3	-38.3	24.0	0.00e+00	0	34	101	1048576	52	6140
2026-01-06 13:55:13.12	167.56	15.41	-37.5	-38.4	24.0	0.00e+00	0	34	101	1048576	52	6230
2026-01-06 13:55:17.15	167.90	15.01	-37.4	-38.3	24.1	0.00e+00	0	34	101	1048576	52	6203
2026-01-06 13:55:21.18	168.24	14.62	-37.5	-38.4	24.0	0.00e+00	0	34	101	1048576	52	6234
2026-01-06 13:55:25.22	168.57	14.23	-37.7	-38.6	23.8	0.00e+00	0	34	101	1048576	52	6364
2026-01-06 13:55:29.25	168.89	13.85	-37.9	-38.9	23.6	0.00e+00	0	34	101	1048576	52	6578
2026-01-06 13:55:33.29	169.21	13.47	-38.1	-39.0	23.4	0.00e+00	0	34	101	1048576	52	6708
2026-01-06 13:55:37.32	169.52	13.10	-38.2	-39.1	23.4	0.00e+00	0	34	101	1048576	54	6040
2026-01-06 13:55:41.35	169.82	12.73	-38.2	-39.1	23.3	0.00e+00	0	34	101	1048576	54	6063
2026-01-06 13:55:45.38	170.11	12.37	-38.1	-39.0	23.4	0.00e+00	0	34	101	1048576	54	5984
2026-01-06 13:55:49.42	170.40	12.01	-38.2	-39.2	23.2	0.00e+00	0	34	101	1048576	54	6070
2026-01-06 13:55:53.46	170.68	11.66	-38.3	-39.2	23.2	0.00e+00	0	34	101	1048576	54	6127
2026-01-06 13:55:57.49	170.95	11.31	-38.4	-39.4	23.0	0.00e+00	0	34	101	1048576	54	6237
2026-01-06 13:56:01.52	171.22	10.97	-38.5	-39.5	23.0	0.00e+00	0	34	101	1048576	54	6323
2026-01-06 13:56:05.56	171.48	10.63	-38.7	-39.7	22.8	0.00e+00	0	34	101	1048576	54	6429
2026-01-06 13:56:09.59	171.74	10.29	-38.6	-39.6	22.8	0.00e+00	0	34	101	1048576	54	6351
2026-01-06 13:56:13.62	171.99	9.96	-38.8	-39.8	22.6	0.00e+00	0	34	101	1048576	54	6564
2026-01-06 13:56:17.65	172.23	9.63	-38.8	-39.9	22.5	0.00e+00	0	34	101	1048576	54	6585
2026-01-06 13:56:21.69	172.47	9.31	-39.1	-40.1	22.4	0.00e+00	0	34	101	1048576	56	6023
2026-01-06 13:56:25.72	172.71	8.99	-39.0	-40.0	22.4	0.00e+00	0	34	101	1048576	56	5964
2026-01-06 13:56:29.75	172.94	8.67	-39.0	-40.0	22.4	0.00e+00	0	34	101	1048576	56	5956
2026-01-06 13:56:33.78	173.17	8.36	-39.2	-40.2	22.2	0.00e+00	0	34	101	1048576	56	6108
2026-01-06 13:56:37.81	173.39	8.05	-39.1	-40.2	22.2	0.00e+00	0	34	101	1048576	56	6093
2026-01-06 13:56:41.84	173.60	7.74	-39.2	-40.3	22.2	0.00e+00	0	34	101	1048576	56	6166
2026-01-06 13:56:45.87	173.82	7.44	-39.4	-40.4	22.0	0.00e+00	0	34	101	1048576	56	6255
2026-01-06 13:56:49.91	174.03	7.14	-39.6	-40.7	21.8	0.00e+00	0	34	101	1048576	56	6429
2026-01-06 13:56:53.94	174.23	6.84	-39.6	-40.7	21.8	0.00e+00	0	34	101	1048576	56	6438
2026-01-06 13:56:57.96	174.43	6.55	-39.6	-40.6	21.8	0.00e+00	0	34	101	1048576	56	6410
2026-01-06 13:57:02.00	174.63	6.26	-39.7	-40.8	21.6	0.00e+00	0	34	101	1048576	56	6551
2026-01-06 13:57:06.03	174.82	5.97	-40.0	-41.0	21.5	0.00e+00	0	34	101	1048576	56	6725
2026-01-06 13:57:10.06	175.02	5.69	-40.0	-41.1	21.3	0.00e+00	0	34	101	1048576	58	6035
2026-01-06 13:57:14.09	175.20	5.41	-40.3	-41.4	20.7	0.00e+00	0	34	101	1048576	58	6247
2026-01-06 13:57:18.13	175.39	5.13	-40.6	-41.8	20.8	0.00e+00	0	34	101	1048576	58	6516
2026-01-06 13:57:22.17	175.57	4.85	-40.4	-41.6	20.8	0.00e+00	0	34	101	1048576	58	6369
2026-01-06 13:57:26.20	175.74	4.58	-40.8	-42.1	20.3	0.00e+00	0	34	101	1048576	58	6741
2026-01-06 13:57:30.24	175.92	4.31	-41.0	-42.2	20.0	0.00e+00	0	34	101	1048576	58	6861
2026-01-06 13:57:34.28	176.09	4.04	-41.2	-42.5	19.9	0.00e+00	0	34	101	1048576	60	6304
2026-01-06 13:57:38.33	176.26	3.77	-41.2	-42.5	19.6	0.00e+00	0	34	101	1048576	60	6345
2026-01-06 13:57:42.37	176.43	3.51	-41.3	-42.6	19.5	0.00e+00	0	34	101	1048576	60	6423
2026-01-06 13:57:46.41	176.59	3.25	-41.1	-42.4	19.7	0.00e+00	0	34	101	1048576	60	6254
2026-01-06 13:57:50.45	176.75	2.99	-50.9	-63.9	3.5	1.52e+00	0	34	104	1048576	60	74055
2026-01-06 13:57:54.50	176.91	2.73	-51.5	-64.4	3.5	1.52e+00	0	34	104	1048576	60	78683
2026-01-06 13:57:58.54	177.07	2.47	-51.5	-64.5	3.5	1.52e+00	0	34	104	1048576	60	79278
2026-01-06 13:58:02.58	177.22	2.22	-51.5	-64.4	3.5	1.52e+00	0	34	104	1048576	60	78785
2026-01-06 13:58:06.62	177.37	1.97	-51.4	-64.4	3.5	1.52e+00	0	34	104	1048576	60	78709
2026-01-06 13:58:10.67	177.52	1.72	-51.4	-64.4	3.5	1.52e+00	0	34	104	1048576	60	78654
2026-01-06 13:58:14.71	177.67	1.47	-51.4	-64.4	3.5	1.52e+00	0	34	104	1048576	60	78217
2026-01-06 13:58:18.75	177.81	1.23	-51.4	-64.4	3.5	1.52e+00	0	34	104	1048576	60	78235
2026-01-06 13:58:22.80	177.95	0.99	-51.4	-64.3	3.5	1.51e+00	0	34	104	1048576	60	77983
2026-01-06 13:58:26.84	178.09	0.75	-51.4	-64.3	3.5	1.52e+00	0	34	104	1048576	60	78032
2026-01-06 13:58:30.88	178.23	0.51	-51.4	-64.3	3.5	1.52e+00	0	34	104	1048576	60	78031
2026-01-06 13:58:34.92	178.37	0.27	-51.4	-64.4	3.5	1.52e+00	0	34	104	1048576	60	78218
2026-01-06 13:58:38.97	178.50	0.03	-51.4	-64.3	3.5	1.52e+00	0	34	104	1048576	60	77984

#Closed at: 2026-01-06 13:58:40
#Recorded file [1 MB]: D:/lorett/data/35034_260106_164322.dat