passes_logs/2026/01/06/R4.6S_Anadyr_2ch/R4.6S_Anadyr_2ch__20260106_173322_SUOMI_NPP_rec.log

#Pass ID: 20260106_173322_SUOMI NPP
#Satellite: SUOMI NPP
#Configuration: NPP
#almurnet v.1.7.20251203
#Start time: 2026-01-06 17:33:23

#Version: 2.2.20231116
#Station: R4.6S_Anadyr_2ch
#Location: 177.4865 lon 64.73178 lat
#TLE: 1 37849U 11061A   25350.92281687  .00000071  00000+0  54882-4 0  9996
#TLE: 2 37849  98.7777 288.2268 0002366 112.8570 247.2856 14.19515404732588

#Time	Az	El	Level	Level2	SNR	BER	BlckErr	Temp	State	Recorded	gain1	gain2
2026-01-06 17:33:23.24	32.31	0.03	-51.0	-62.8	3.5	8.46e-01	0	29	0	0	60	67209
2026-01-06 17:33:27.26	32.07	0.25	-51.1	-66.5	3.6	1.51e+00	0	30	104	0	60	103251
2026-01-06 17:33:31.29	31.82	0.46	-51.2	-66.6	3.6	1.51e+00	0	30	104	0	60	104421
2026-01-06 17:33:35.32	31.58	0.68	-51.0	-66.4	3.6	1.51e+00	0	30	104	0	60	101910
2026-01-06 17:33:39.35	31.33	0.90	-50.5	-65.9	3.6	1.51e+00	0	30	104	0	60	95895
2026-01-06 17:33:43.38	31.07	1.11	-49.6	-64.9	3.6	1.51e+00	0	30	104	0	60	86130
2026-01-06 17:33:47.42	30.81	1.33	-49.6	-64.9	3.6	1.51e+00	0	30	104	0	60	85686
2026-01-06 17:33:51.45	30.55	1.55	-49.6	-64.9	3.6	1.51e+00	0	30	104	0	60	85373
2026-01-06 17:33:55.47	30.28	1.78	-49.6	-64.9	3.6	1.51e+00	0	30	104	0	60	85745
2026-01-06 17:33:59.50	30.01	2.00	-49.6	-64.9	3.6	1.51e+00	0	30	104	0	60	86148
2026-01-06 17:34:03.53	29.73	2.22	-49.6	-64.7	3.6	1.51e+00	0	31	104	0	60	84070
2026-01-06 17:34:07.56	29.45	2.45	-49.6	-65.0	3.6	1.51e+00	0	31	104	0	60	86313
2026-01-06 17:34:11.59	29.17	2.67	-49.6	-64.9	3.6	1.51e+00	0	30	104	0	60	85746
2026-01-06 17:34:15.62	28.88	2.90	-49.5	-64.0	3.6	1.51e+00	0	31	104	0	60	77000
2026-01-06 17:34:19.64	28.59	3.13	-49.5	-62.9	3.6	1.51e+00	0	31	104	0	60	68116
2026-01-06 17:34:23.68	28.29	3.36	-49.6	-64.3	3.6	1.51e+00	0	31	104	1048576	60	80334
2026-01-06 17:34:27.71	27.98	3.59	-45.0	-47.3	16.7	0.00e+00	58	31	0	1048576	60	11266
2026-01-06 17:34:31.75	27.67	3.82	-43.9	-45.7	18.3	0.00e+00	0	31	0	1048576	60	9380
2026-01-06 17:34:35.80	27.36	4.05	-43.5	-45.1	19.0	0.00e+00	0	31	0	1048576	60	8791
2026-01-06 17:34:39.84	27.04	4.29	-43.4	-45.0	19.2	0.00e+00	0	31	0	1048576	60	8649
2026-01-06 17:34:43.87	26.71	4.52	-43.4	-45.0	18.9	0.00e+00	34	31	0	1048576	60	8707
2026-01-06 17:34:47.91	26.38	4.76	-43.4	-44.9	19.2	0.00e+00	0	31	101	1048576	60	8592
2026-01-06 17:34:51.93	26.05	5.00	-43.2	-44.8	19.2	0.00e+00	0	31	101	1048576	60	8430
2026-01-06 17:34:55.96	25.70	5.24	-43.5	-45.1	19.0	0.00e+00	63	31	101	1048576	60	8817
2026-01-06 17:34:59.99	25.36	5.48	-43.8	-45.5	18.8	0.00e+00	0	31	101	1048576	60	9134
2026-01-06 17:35:04.03	25.00	5.72	-43.6	-45.3	19.0	0.00e+00	0	31	101	1048576	60	8944
2026-01-06 17:35:08.05	24.64	5.96	-43.7	-45.3	19.0	0.00e+00	0	31	101	1048576	60	9017
2026-01-06 17:35:12.08	24.28	6.20	-43.4	-44.9	19.3	0.00e+00	59	31	101	1048576	60	8596
2026-01-06 17:35:16.11	23.90	6.45	-43.0	-44.5	19.8	0.00e+00	0	31	101	1048576	60	8140
2026-01-06 17:35:20.14	23.52	6.69	-43.0	-44.4	19.9	0.00e+00	0	31	101	1048576	60	8132
2026-01-06 17:35:24.17	23.14	6.94	-42.5	-43.8	20.4	0.00e+00	0	31	101	1048576	60	7510
2026-01-06 17:35:28.20	22.74	7.19	-42.6	-43.9	20.4	0.00e+00	78	31	101	1048576	60	7675
2026-01-06 17:35:32.23	22.34	7.44	-42.2	-43.5	20.9	0.00e+00	0	31	101	1048576	60	7258
2026-01-06 17:35:36.27	21.94	7.69	-42.3	-43.6	20.7	0.00e+00	0	31	101	1048576	60	7376
2026-01-06 17:35:40.31	21.52	7.94	-42.4	-43.7	20.7	0.00e+00	0	31	101	1048576	60	7488
2026-01-06 17:35:44.34	21.10	8.19	-42.7	-44.0	20.4	0.00e+00	48	31	101	1048576	60	7749
2026-01-06 17:35:48.37	20.67	8.44	-42.9	-44.3	20.2	0.00e+00	0	31	101	1048576	60	8026
2026-01-06 17:35:52.41	20.23	8.70	-42.9	-44.2	20.2	0.00e+00	0	31	101	1048576	60	7944
2026-01-06 17:35:56.44	19.79	8.95	-42.5	-43.7	20.7	0.00e+00	31	31	101	1048576	60	7492
2026-01-06 17:36:00.47	19.33	9.21	-42.6	-43.9	20.3	0.00e+00	0	31	101	1048576	60	7612
2026-01-06 17:36:04.50	18.87	9.47	-42.3	-43.5	20.8	0.00e+00	0	31	101	1048576	60	7315
2026-01-06 17:36:08.54	18.40	9.72	-42.7	-44.0	20.5	0.00e+00	0	31	101	1048576	60	7707
2026-01-06 17:36:12.57	17.92	9.98	-42.8	-44.1	20.5	0.00e+00	66	31	101	1048576	60	7840
2026-01-06 17:36:16.61	17.43	10.24	-42.5	-43.8	20.6	0.00e+00	0	31	101	1048576	60	7592
2026-01-06 17:36:20.63	16.94	10.50	-42.4	-43.6	20.9	0.00e+00	0	31	101	1048576	60	7404
2026-01-06 17:36:24.67	16.43	10.76	-42.3	-43.6	20.9	0.00e+00	0	31	101	1048576	60	7368
2026-01-06 17:36:28.70	15.92	11.02	-41.6	-42.7	21.8	0.00e+00	63	31	101	1048576	60	6648
2026-01-06 17:36:32.73	15.39	11.28	-41.3	-42.4	21.9	0.00e+00	0	31	101	1048576	60	6439
2026-01-06 17:36:36.77	14.86	11.55	-41.6	-42.7	21.6	0.00e+00	0	31	101	1048576	60	6691
2026-01-06 17:36:40.80	14.31	11.81	-41.5	-42.6	21.8	0.00e+00	65	31	101	1048576	60	6564
2026-01-06 17:36:44.84	13.76	12.07	-42.2	-43.4	21.1	0.00e+00	91	31	101	1048576	60	7242
2026-01-06 17:36:48.87	13.19	12.33	-42.0	-43.3	21.3	0.00e+00	0	31	101	1048576	60	7089
2026-01-06 17:36:52.91	12.62	12.60	-41.8	-43.0	21.6	0.00e+00	0	31	101	1048576	60	6863
2026-01-06 17:36:56.94	12.03	12.86	-41.7	-42.8	21.6	0.00e+00	71	31	101	1048576	60	6741
2026-01-06 17:37:00.98	11.43	13.12	-41.3	-42.4	22.0	0.00e+00	0	31	101	1048576	60	6430
2026-01-06 17:37:05.01	10.83	13.38	-41.4	-42.5	21.9	0.00e+00	0	31	101	1048576	60	6500
2026-01-06 17:37:09.04	10.21	13.64	-41.7	-42.9	21.6	0.00e+00	0	31	101	1048576	60	6771
2026-01-06 17:37:13.08	9.58	13.90	-42.1	-43.3	21.3	0.00e+00	67	31	101	1048576	60	7162
2026-01-06 17:37:17.11	8.94	14.16	-41.9	-43.0	21.5	0.00e+00	0	31	101	1048576	60	6902
2026-01-06 17:37:21.15	8.28	14.42	-42.1	-43.3	21.3	0.00e+00	0	31	101	1048576	60	7147
2026-01-06 17:37:25.18	7.62	14.68	-42.4	-43.7	21.0	0.00e+00	0	31	101	1048576	60	7427
2026-01-06 17:37:29.22	6.94	14.94	-41.8	-42.9	21.6	0.00e+00	70	31	101	1048576	60	6802
2026-01-06 17:37:33.25	6.26	15.19	-41.7	-42.8	21.8	0.00e+00	0	31	101	1048576	60	6740
2026-01-06 17:37:37.29	5.56	15.45	-41.9	-43.0	21.5	0.00e+00	0	31	101	1048576	60	6916
2026-01-06 17:37:41.32	4.84	15.70	-42.6	-43.9	20.5	0.00e+00	0	31	101	1048576	60	7605
2026-01-06 17:37:45.35	4.12	15.95	-41.8	-43.0	21.4	0.00e+00	38	31	101	1048576	60	6849
2026-01-06 17:37:49.39	3.38	16.20	-41.4	-42.6	21.9	0.00e+00	0	31	101	1048576	60	6540
2026-01-06 17:37:53.43	2.63	16.44	-40.6	-41.6	22.8	0.00e+00	0	31	101	1048576	60	5838
2026-01-06 17:37:57.46	1.87	16.68	-40.4	-41.4	22.9	0.00e+00	55	31	101	1048576	60	5760
2026-01-06 17:38:01.50	1.10	16.92	-40.2	-41.2	23.1	0.00e+00	0	31	101	1048576	60	5606
2026-01-06 17:38:05.54	0.31	17.16	-39.7	-40.7	23.4	0.00e+00	0	31	101	1048576	58	5915
2026-01-06 17:38:09.57	359.51	17.39	-39.9	-40.8	23.5	0.00e+00	0	31	101	1048576	58	5998
2026-01-06 17:38:13.61	358.70	17.62	-39.7	-40.7	23.4	0.00e+00	84	31	101	1048576	58	5904
2026-01-06 17:38:17.65	357.87	17.85	-39.5	-40.4	23.7	0.00e+00	0	31	101	1048576	58	5715
2026-01-06 17:38:21.69	357.03	18.07	-39.2	-40.1	23.9	0.00e+00	0	31	101	1048576	56	6235
2026-01-06 17:38:25.72	356.18	18.29	-39.9	-40.9	23.4	0.00e+00	0	31	101	1048576	56	6805
2026-01-06 17:38:29.76	355.32	18.50	-40.1	-41.1	23.2	0.00e+00	92	31	101	1048576	56	6969
2026-01-06 17:38:33.80	354.45	18.71	-39.8	-40.8	23.4	0.00e+00	0	31	101	1048576	58	5965
2026-01-06 17:38:37.83	353.56	18.91	-39.4	-40.3	23.8	0.00e+00	0	31	101	1048576	58	5678
2026-01-06 17:38:41.87	352.66	19.11	-38.8	-39.6	24.4	0.00e+00	16	31	101	1048576	56	5894
2026-01-06 17:38:45.90	351.76	19.29	-38.5	-39.3	24.5	0.00e+00	91	31	101	1048576	56	5637
2026-01-06 17:38:49.94	350.83	19.48	-39.2	-40.1	24.2	0.00e+00	0	31	101	1048576	56	6186
2026-01-06 17:38:53.98	349.90	19.66	-39.0	-39.8	24.2	0.00e+00	0	31	101	1048576	56	6016
2026-01-06 17:38:58.01	348.96	19.83	-39.5	-40.4	23.8	0.00e+00	69	31	101	1048576	56	6437
2026-01-06 17:39:02.03	348.01	19.99	-39.3	-40.2	23.6	0.00e+00	0	31	101	1048576	56	6265
2026-01-06 17:39:06.06	347.05	20.15	-39.0	-39.9	24.2	0.00e+00	0	31	101	1048576	56	6043
2026-01-06 17:39:10.10	346.08	20.29	-38.7	-39.5	24.5	0.00e+00	0	31	101	1048576	56	5808
2026-01-06 17:39:14.14	345.09	20.43	-38.5	-39.3	24.6	0.00e+00	80	31	101	1048576	56	5669
2026-01-06 17:39:18.18	344.10	20.57	-39.0	-39.9	24.2	0.00e+00	0	31	101	1048576	56	6058
2026-01-06 17:39:22.21	343.10	20.69	-40.0	-41.0	23.4	0.00e+00	0	31	101	1048576	56	6864
2026-01-06 17:39:26.25	342.09	20.81	-40.5	-41.5	22.9	0.00e+00	0	31	101	1048576	58	6524
2026-01-06 17:39:30.28	341.08	20.91	-41.2	-42.3	22.3	0.00e+00	90	31	101	1048576	60	6329
2026-01-06 17:39:34.31	340.06	21.01	-40.0	-41.0	23.1	0.00e+00	0	31	101	1048576	58	6130
2026-01-06 17:39:38.34	339.04	21.09	-41.2	-42.3	22.2	0.00e+00	0	31	101	1048576	60	6377
2026-01-06 17:39:42.37	338.00	21.17	-40.7	-41.7	22.8	0.00e+00	44	31	101	1048576	60	5947
2026-01-06 17:39:46.40	336.97	21.24	-41.0	-42.1	22.5	0.00e+00	24	31	101	1048576	60	6185
2026-01-06 17:39:50.43	335.93	21.30	-40.4	-41.4	23.1	0.00e+00	0	31	101	1048576	60	5708
2026-01-06 17:39:54.46	334.88	21.35	-40.1	-41.1	23.1	0.00e+00	33	31	101	1048576	58	6200
2026-01-06 17:39:58.49	333.83	21.39	-41.3	-42.4	22.2	0.00e+00	69	31	101	1048576	60	6429
2026-01-06 17:40:02.52	332.78	21.41	-41.3	-42.4	22.3	0.00e+00	0	31	101	1048576	60	6400
2026-01-06 17:40:06.54	331.74	21.43	-41.6	-42.8	21.9	0.00e+00	0	31	101	1048576	60	6711
2026-01-06 17:40:10.57	330.68	21.44	-40.4	-41.3	23.2	0.00e+00	0	31	101	1048576	60	5665
2026-01-06 17:40:14.60	329.63	21.44	-39.9	-40.8	23.4	0.00e+00	70	31	101	1048576	58	5975
2026-01-06 17:40:18.63	328.58	21.42	-40.3	-41.3	23.2	0.00e+00	0	31	101	1048576	58	6331
2026-01-06 17:40:22.66	327.53	21.40	-40.5	-41.6	22.8	0.00e+00	0	31	101	1048576	58	6541
2026-01-06 17:40:26.69	326.48	21.37	-40.5	-41.5	22.7	0.00e+00	0	31	101	1048576	58	6503
2026-01-06 17:40:30.73	325.43	21.32	-39.4	-40.2	23.9	0.00e+00	74	31	101	1048576	58	5624
2026-01-06 17:40:34.76	324.39	21.27	-38.9	-39.7	24.3	0.00e+00	0	31	101	1048576	56	5942
2026-01-06 17:40:38.79	323.35	21.21	-38.6	-39.4	24.5	0.00e+00	0	31	101	1048576	56	5756
2026-01-06 17:40:42.82	322.31	21.13	-39.2	-40.1	24.1	0.00e+00	67	31	101	1048576	56	6192
2026-01-06 17:40:46.85	321.28	21.05	-38.9	-39.7	24.1	0.00e+00	61	31	101	1048576	56	5960
2026-01-06 17:40:50.88	320.26	20.96	-38.6	-39.4	24.5	0.00e+00	0	31	101	1048576	56	5742
2026-01-06 17:40:54.91	319.24	20.86	-39.0	-39.8	23.9	0.00e+00	0	31	101	1048576	56	6030
2026-01-06 17:40:58.94	318.23	20.75	-38.9	-39.7	24.4	0.00e+00	2	31	101	1048576	56	5912
2026-01-06 17:41:02.97	317.23	20.63	-38.9	-39.8	24.3	0.00e+00	0	31	101	1048576	56	5965
2026-01-06 17:41:07.00	316.24	20.50	-40.1	-41.1	23.2	0.00e+00	0	31	101	1048576	58	6196
2026-01-06 17:41:11.04	315.25	20.36	-40.0	-41.0	23.4	0.00e+00	0	31	101	1048576	58	6105
2026-01-06 17:41:15.07	314.27	20.22	-40.1	-41.1	23.2	0.00e+00	63	31	101	1048576	58	6200
2026-01-06 17:41:19.10	313.30	20.06	-41.2	-42.3	22.5	0.00e+00	0	31	101	1048576	60	6326
2026-01-06 17:41:23.14	312.34	19.90	-41.6	-42.6	22.1	0.00e+00	0	31	101	1048576	60	6601
2026-01-06 17:41:27.17	311.40	19.74	-41.1	-42.1	22.5	0.00e+00	0	31	101	1048576	60	6221
2026-01-06 17:41:31.20	310.46	19.56	-40.6	-41.5	23.0	0.00e+00	73	31	101	1048576	60	5821
2026-01-06 17:41:35.23	309.53	19.38	-40.5	-41.4	23.1	0.00e+00	0	31	101	1048576	60	5729
2026-01-06 17:41:39.27	308.62	19.19	-39.7	-40.6	23.4	0.00e+00	0	31	101	1048576	58	5841
2026-01-06 17:41:43.30	307.71	19.00	-39.1	-39.9	24.2	0.00e+00	17	31	101	1048576	56	6063
2026-01-06 17:41:47.33	306.82	18.80	-39.5	-40.4	23.9	0.00e+00	91	31	101	1048576	56	6432
2026-01-06 17:41:51.36	305.94	18.60	-41.3	-42.4	22.0	0.00e+00	0	31	101	1048576	60	6404
2026-01-06 17:41:55.39	305.07	18.39	-41.8	-42.9	21.8	0.00e+00	0	31	101	1048576	60	6846
2026-01-06 17:41:59.42	304.22	18.17	-42.6	-43.9	21.0	0.00e+00	72	31	101	1048576	60	7634
2026-01-06 17:42:03.46	303.37	17.95	-42.8	-44.1	20.7	0.00e+00	0	31	101	1048576	60	7857
2026-01-06 17:42:07.50	302.54	17.73	-41.2	-42.2	22.4	0.00e+00	33	31	101	1048576	60	6291
2026-01-06 17:42:11.53	301.72	17.50	-40.3	-41.2	23.1	0.00e+00	0	31	101	1048576	58	6303
2026-01-06 17:42:15.57	300.91	17.27	-40.2	-41.1	23.2	0.00e+00	90	31	101	1048576	58	6206
2026-01-06 17:42:19.60	300.12	17.04	-40.7	-41.6	22.8	0.00e+00	0	31	101	1048576	58	6595
2026-01-06 17:42:23.63	299.34	16.80	-39.4	-40.3	23.9	0.00e+00	0	31	101	1048576	58	5640
2026-01-06 17:42:27.66	298.57	16.56	-40.9	-41.9	22.5	0.00e+00	0	31	101	1048576	58	6806
2026-01-06 17:42:31.69	297.81	16.31	-42.0	-43.1	21.6	0.00e+00	80	31	101	1048576	60	6982
2026-01-06 17:42:35.73	297.07	16.06	-41.1	-42.1	22.5	0.00e+00	0	31	101	1048576	60	6195
2026-01-06 17:42:39.76	296.34	15.82	-40.6	-41.6	22.8	0.00e+00	0	31	101	1048576	60	5865
2026-01-06 17:42:43.79	295.62	15.56	-40.5	-41.4	23.0	0.00e+00	0	31	101	1048576	60	5751
2026-01-06 17:42:47.83	294.91	15.31	-41.5	-42.6	22.1	0.00e+00	92	31	101	1048576	60	6565
2026-01-06 17:42:51.86	294.21	15.06	-41.6	-42.8	22.0	0.00e+00	0	31	101	1048576	60	6700
2026-01-06 17:42:55.90	293.53	14.80	-40.6	-41.6	22.9	0.00e+00	0	31	101	1048576	60	5839
2026-01-06 17:42:59.93	292.86	14.54	-40.8	-41.8	22.6	0.00e+00	27	31	101	1048576	60	6011
2026-01-06 17:43:03.97	292.20	14.28	-41.4	-42.5	22.1	0.00e+00	0	31	101	1048576	60	6508
2026-01-06 17:43:08.01	291.55	14.02	-41.0	-42.0	22.5	0.00e+00	0	31	101	1048576	60	6126
2026-01-06 17:43:12.06	290.91	13.76	-40.3	-41.2	23.1	0.00e+00	0	31	101	1048576	60	5628
2026-01-06 17:43:16.09	290.28	13.50	-39.7	-40.6	23.5	0.00e+00	92	31	101	1048576	58	5874
2026-01-06 17:43:20.13	289.67	13.24	-38.9	-39.7	24.2	0.00e+00	0	31	101	1048576	56	5908
2026-01-06 17:43:24.17	289.06	12.97	-39.2	-40.0	24.0	0.00e+00	0	31	101	1048576	56	6157
2026-01-06 17:43:28.21	288.47	12.71	-40.1	-41.0	23.2	0.00e+00	25	31	101	1048576	56	6902
2026-01-06 17:43:32.24	287.89	12.45	-40.3	-41.3	22.9	0.00e+00	91	31	101	1048576	58	6337
2026-01-06 17:43:36.28	287.31	12.19	-39.7	-40.6	23.5	0.00e+00	0	31	101	1048576	58	5848
2026-01-06 17:43:40.32	286.75	11.92	-39.3	-40.2	23.7	0.00e+00	0	31	101	1048576	58	5595
2026-01-06 17:43:44.36	286.20	11.66	-39.8	-40.7	23.3	0.00e+00	70	31	101	1048576	58	5923
2026-01-06 17:43:48.40	285.66	11.40	-40.7	-41.7	22.4	0.00e+00	43	31	101	1048576	58	6656
2026-01-06 17:43:52.43	285.13	11.13	-41.0	-42.0	22.1	0.00e+00	0	31	101	1048576	58	6924
2026-01-06 17:43:56.47	284.61	10.87	-40.5	-41.5	22.7	0.00e+00	0	31	101	1048576	60	5803
2026-01-06 17:44:00.51	284.09	10.61	-39.5	-40.4	23.6	0.00e+00	68	31	101	1048576	58	5696
2026-01-06 17:44:04.55	283.59	10.35	-39.7	-40.6	23.5	0.00e+00	0	31	101	1048576	58	5871
2026-01-06 17:44:08.58	283.09	10.09	-40.8	-41.8	22.4	0.00e+00	0	31	101	1048576	58	6712
2026-01-06 17:44:12.62	282.61	9.83	-41.2	-42.2	22.1	0.00e+00	0	31	101	1048576	60	6296
2026-01-06 17:44:16.66	282.13	9.57	-40.6	-41.5	22.7	0.00e+00	90	31	101	1048576	60	5826
2026-01-06 17:44:20.69	281.66	9.31	-40.7	-41.8	22.4	0.00e+00	0	31	101	1048576	60	5991
2026-01-06 17:44:24.72	281.20	9.06	-41.1	-42.2	22.1	0.00e+00	0	31	101	1048576	60	6265
2026-01-06 17:44:28.76	280.75	8.80	-41.3	-42.4	21.9	0.00e+00	0	31	101	1048576	60	6462
2026-01-06 17:44:32.80	280.31	8.55	-41.8	-43.0	21.3	0.00e+00	92	31	101	1048576	60	6877
2026-01-06 17:44:36.83	279.87	8.29	-41.8	-43.0	21.3	0.00e+00	0	31	101	1048576	60	6890
2026-01-06 17:44:40.87	279.45	8.04	-41.6	-42.7	21.6	0.00e+00	0	31	101	1048576	60	6659
2026-01-06 17:44:44.91	279.02	7.79	-42.0	-43.2	21.2	0.00e+00	19	31	101	1048576	60	7053
2026-01-06 17:44:48.95	278.61	7.53	-42.7	-44.1	20.4	0.00e+00	0	31	101	1048576	60	7813
2026-01-06 17:44:52.99	278.21	7.28	-43.0	-44.4	19.9	0.00e+00	0	31	101	1048576	60	8133
2026-01-06 17:44:57.03	277.81	7.04	-42.4	-43.7	20.7	0.00e+00	0	31	101	1048576	60	7443
2026-01-06 17:45:01.07	277.41	6.79	-42.0	-43.2	21.0	0.00e+00	61	31	101	1048576	60	7068
2026-01-06 17:45:05.11	277.03	6.54	-42.0	-43.2	21.0	0.00e+00	0	31	101	1048576	60	7025
2026-01-06 17:45:09.14	276.65	6.29	-42.0	-43.3	20.9	0.00e+00	0	31	101	1048576	60	7098
2026-01-06 17:45:13.18	276.28	6.05	-42.3	-43.5	20.7	0.00e+00	0	31	101	1048576	60	7308
2026-01-06 17:45:17.22	275.91	5.81	-42.2	-43.4	20.8	0.00e+00	87	31	101	1048576	60	7220
2026-01-06 17:45:21.26	275.55	5.56	-42.1	-43.3	20.8	0.00e+00	0	31	101	1048576	60	7139
2026-01-06 17:45:25.29	275.20	5.32	-41.9	-43.1	21.0	0.00e+00	0	31	101	1048576	60	6957
2026-01-06 17:45:29.33	274.85	5.08	-42.3	-43.6	20.5	0.00e+00	0	31	101	1048576	60	7356
2026-01-06 17:45:33.37	274.51	4.84	-42.6	-43.9	20.1	0.00e+00	0	31	101	1048576	60	7663
2026-01-06 17:45:37.41	274.18	4.61	-43.1	-44.6	19.4	0.00e+00	0	31	101	1048576	60	8291
2026-01-06 17:45:41.45	273.85	4.37	-43.9	-45.7	18.2	0.00e+00	0	31	101	1048576	60	9365
2026-01-06 17:45:45.49	273.52	4.13	-44.4	-46.3	17.7	0.00e+00	62	31	101	1048576	60	10101
2026-01-06 17:45:49.53	273.20	3.90	-44.8	-46.8	17.2	0.00e+00	0	31	101	1048576	60	10710
2026-01-06 17:45:53.57	272.89	3.67	-44.7	-46.7	17.4	0.00e+00	0	31	101	1048576	60	10548
2026-01-06 17:45:57.60	272.58	3.44	-44.5	-46.4	17.5	0.00e+00	0	31	101	1048576	60	10212
2026-01-06 17:46:01.64	272.27	3.20	-44.2	-46.1	17.8	0.00e+00	92	31	101	1048576	60	9796
2026-01-06 17:46:05.68	271.98	2.98	-50.8	-66.1	3.6	1.51e+00	0	31	104	1048576	60	98917
2026-01-06 17:46:09.72	271.68	2.75	-51.1	-66.4	3.6	1.51e+00	0	31	104	1048576	60	102217
2026-01-06 17:46:13.76	271.39	2.52	-50.9	-66.5	3.6	1.51e+00	0	31	104	1048576	60	103146
2026-01-06 17:46:17.80	271.11	2.29	-51.1	-66.4	3.6	1.51e+00	0	31	104	1048576	60	102115
2026-01-06 17:46:21.84	270.83	2.07	-51.1	-66.5	3.6	1.51e+00	0	31	104	1048576	60	102511
2026-01-06 17:46:25.87	270.55	1.85	-51.1	-66.5	3.6	1.51e+00	0	31	104	1048576	60	102609
2026-01-06 17:46:29.91	270.28	1.62	-51.1	-66.4	3.6	1.51e+00	0	31	104	1048576	60	102400
2026-01-06 17:46:33.95	270.01	1.40	-51.1	-66.4	3.6	1.51e+00	0	31	104	1048576	60	101591
2026-01-06 17:46:37.99	269.75	1.18	-51.1	-66.4	3.6	1.51e+00	0	31	104	1048576	60	101528
2026-01-06 17:46:42.03	269.49	0.96	-51.0	-66.4	3.6	1.51e+00	0	31	104	1048576	60	101534
2026-01-06 17:46:46.06	269.23	0.74	-51.1	-66.4	3.5	1.51e+00	0	31	104	1048576	60	101699
2026-01-06 17:46:50.10	268.98	0.53	-51.0	-66.3	3.6	1.51e+00	0	31	104	1048576	60	101276
2026-01-06 17:46:54.14	268.73	0.31	-51.0	-66.4	3.6	1.51e+00	0	31	104	1048576	60	101362
2026-01-06 17:46:58.16	268.49	0.10	-51.0	-66.4	3.6	1.51e+00	0	31	104	1048576	60	101351

#Closed at: 2026-01-06 17:47:02
#Recorded file [1 MB]: D:/lorett/data/35034_260106_203323.dat