passes_logs/2026/01/06/R4.6S_Anadyr_2ch/R4.6S_Anadyr_2ch__20260106_123232_SUOMI_NPP_rec.log

#Pass ID: 20260106_123232_SUOMI NPP
#Satellite: SUOMI NPP
#Configuration: NPP
#almurnet v.1.7.20251203
#Start time: 2026-01-06 12:32:34

#Version: 2.2.20231116
#Station: R4.6S_Anadyr_2ch
#Location: 177.4865 lon 64.73178 lat
#TLE: 1 37849U 11061A   25350.92281687  .00000071  00000+0  54882-4 0  9996
#TLE: 2 37849  98.7777 288.2268 0002366 112.8570 247.2856 14.19515404732588

#Time	Az	El	Level	Level2	SNR	BER	BlckErr	Temp	State	Recorded	gain1	gain2
2026-01-06 12:32:34.37	19.10	0.09	-51.2	-63.9	3.4	1.52e+00	0	31	0	0	60	74587
2026-01-06 12:32:38.40	19.39	0.29	-51.4	-66.8	3.6	1.51e+00	0	32	104	0	60	106375
2026-01-06 12:32:42.42	19.68	0.50	-51.3	-66.6	3.6	1.51e+00	0	32	104	0	60	104749
2026-01-06 12:32:46.45	19.98	0.70	-50.9	-66.3	3.6	1.51e+00	0	32	104	0	60	100144
2026-01-06 12:32:50.47	20.27	0.90	-49.8	-65.2	3.6	1.51e+00	0	32	104	0	60	88351
2026-01-06 12:32:54.50	20.58	1.10	-49.8	-65.1	3.6	1.51e+00	0	32	104	0	60	87312
2026-01-06 12:32:58.53	20.89	1.31	-49.8	-65.1	3.6	1.51e+00	0	32	104	0	60	87639
2026-01-06 12:33:02.56	21.20	1.51	-49.8	-65.1	3.6	1.51e+00	0	32	104	0	60	88052
2026-01-06 12:33:06.60	21.51	1.72	-49.8	-64.9	3.6	1.51e+00	0	32	104	0	60	85592
2026-01-06 12:33:10.63	21.83	1.93	-49.8	-65.0	3.6	1.51e+00	0	32	104	0	60	87059
2026-01-06 12:33:14.66	22.16	2.13	-49.8	-64.9	3.6	1.51e+00	0	32	104	0	60	85455
2026-01-06 12:33:18.69	22.48	2.34	-49.7	-64.2	3.6	1.51e+00	0	32	104	0	60	78911
2026-01-06 12:33:22.72	22.82	2.55	-47.8	-52.1	11.9	5.93e-03	43	33	102	1048576	60	19643
2026-01-06 12:33:26.75	23.15	2.76	-44.5	-46.5	17.6	0.00e+00	0	33	102	1048576	60	10255
2026-01-06 12:33:30.78	23.49	2.97	-47.9	-52.6	11.0	1.87e-04	0	32	102	1048576	60	20790
2026-01-06 12:33:34.82	23.84	3.19	-49.1	-56.8	4.5	1.50e+00	0	32	104	1048576	60	33779
2026-01-06 12:33:38.85	24.19	3.40	-47.5	-51.3	12.5	1.11e-04	0	33	0	1048576	60	17932
2026-01-06 12:33:42.89	24.55	3.61	-45.6	-47.9	16.4	0.00e+00	0	32	0	1048576	60	12139
2026-01-06 12:33:46.93	24.91	3.83	-44.7	-46.7	17.8	0.00e+00	0	33	0	1048576	60	10560
2026-01-06 12:33:50.97	25.28	4.04	-43.7	-45.3	18.9	0.00e+00	79	33	0	1048576	60	8966
2026-01-06 12:33:55.01	25.65	4.26	-43.5	-45.1	19.3	0.00e+00	0	33	0	1048576	60	8756
2026-01-06 12:33:59.04	26.02	4.48	-43.4	-44.9	19.4	0.00e+00	0	33	101	1048576	60	8612
2026-01-06 12:34:03.07	26.41	4.70	-43.2	-44.7	19.5	0.00e+00	0	33	101	1048576	60	8396
2026-01-06 12:34:07.09	26.79	4.91	-43.1	-44.5	19.8	0.00e+00	85	33	101	1048576	60	8205
2026-01-06 12:34:11.12	27.18	5.13	-43.3	-44.7	19.6	0.00e+00	0	33	101	1048576	60	8408
2026-01-06 12:34:15.14	27.58	5.35	-43.2	-44.7	19.7	0.00e+00	0	33	101	1048576	60	8373
2026-01-06 12:34:19.16	27.98	5.57	-43.7	-45.2	19.3	0.00e+00	73	33	101	1048576	60	8904
2026-01-06 12:34:23.19	28.39	5.79	-43.2	-44.6	19.5	0.00e+00	26	33	101	1048576	60	8278
2026-01-06 12:34:27.21	28.81	6.01	-42.9	-44.3	20.2	0.00e+00	0	33	101	1048576	60	7973
2026-01-06 12:34:31.25	29.23	6.24	-42.7	-44.0	20.5	0.00e+00	0	33	101	1048576	60	7726
2026-01-06 12:34:35.30	29.66	6.46	-42.0	-43.2	21.2	0.00e+00	74	33	101	1048576	60	7030
2026-01-06 12:34:39.34	30.09	6.69	-41.7	-42.9	21.5	0.00e+00	0	33	101	1048576	60	6803
2026-01-06 12:34:43.38	30.54	6.91	-41.6	-42.8	21.6	0.00e+00	0	33	101	1048576	60	6695
2026-01-06 12:34:47.43	30.98	7.14	-41.9	-43.1	21.3	0.00e+00	0	33	101	1048576	60	6993
2026-01-06 12:34:51.47	31.44	7.36	-41.9	-43.0	21.4	0.00e+00	75	33	101	1048576	60	6917
2026-01-06 12:34:55.51	31.90	7.59	-42.0	-43.2	21.3	0.00e+00	0	33	101	1048576	60	7052
2026-01-06 12:34:59.55	32.37	7.82	-42.0	-43.1	21.3	0.00e+00	0	33	101	1048576	60	6996
2026-01-06 12:35:03.59	32.84	8.05	-42.0	-43.2	21.4	0.00e+00	49	33	101	1048576	60	7059
2026-01-06 12:35:07.63	33.33	8.27	-41.9	-43.1	21.4	0.00e+00	47	33	101	1048576	60	6984
2026-01-06 12:35:11.67	33.82	8.50	-42.0	-43.2	21.5	0.00e+00	0	33	101	1048576	60	7022
2026-01-06 12:35:15.71	34.31	8.73	-41.9	-43.0	21.6	0.00e+00	0	33	101	1048576	60	6903
2026-01-06 12:35:19.76	34.82	8.96	-41.8	-42.9	21.6	0.00e+00	0	33	101	1048576	60	6843
2026-01-06 12:35:23.80	35.33	9.19	-41.5	-42.6	21.9	0.00e+00	0	33	101	1048576	60	6568
2026-01-06 12:35:27.84	35.85	9.42	-41.5	-42.6	21.4	0.00e+00	0	33	101	1048576	60	6547
2026-01-06 12:35:31.88	36.38	9.65	-41.5	-42.6	21.9	0.00e+00	0	33	101	1048576	60	6577
2026-01-06 12:35:35.93	36.92	9.88	-41.3	-42.4	22.0	0.00e+00	76	33	101	1048576	60	6448
2026-01-06 12:35:39.97	37.46	10.11	-41.4	-42.5	22.0	0.00e+00	0	33	101	1048576	60	6513
2026-01-06 12:35:44.02	38.02	10.34	-41.5	-42.6	22.0	0.00e+00	0	33	101	1048576	60	6556
2026-01-06 12:35:48.06	38.58	10.57	-41.7	-42.9	21.9	0.00e+00	0	33	101	1048576	60	6770
2026-01-06 12:35:52.10	39.15	10.79	-41.6	-42.7	21.9	0.00e+00	48	33	101	1048576	60	6620
2026-01-06 12:35:56.14	39.73	11.02	-41.1	-42.1	22.3	0.00e+00	0	33	101	1048576	60	6236
2026-01-06 12:36:00.18	40.32	11.25	-40.9	-41.9	22.6	0.00e+00	0	33	101	1048576	60	6100
2026-01-06 12:36:04.22	40.91	11.48	-40.8	-41.8	22.8	0.00e+00	4	33	101	1048576	60	6033
2026-01-06 12:36:08.27	41.52	11.71	-40.1	-41.1	23.2	0.00e+00	0	33	101	1048576	58	6187
2026-01-06 12:36:12.31	42.13	11.93	-40.4	-41.4	22.9	0.00e+00	0	33	101	1048576	58	6423
2026-01-06 12:36:16.35	42.76	12.16	-40.6	-41.6	22.8	0.00e+00	0	33	101	1048576	58	6586
2026-01-06 12:36:20.39	43.39	12.38	-40.7	-41.7	22.8	0.00e+00	79	33	101	1048576	58	6683
2026-01-06 12:36:24.43	44.03	12.60	-40.2	-41.2	23.1	0.00e+00	0	33	101	1048576	58	6284
2026-01-06 12:36:28.47	44.68	12.83	-40.3	-41.2	23.2	0.00e+00	0	33	101	1048576	58	6308
2026-01-06 12:36:32.51	45.34	13.05	-40.4	-41.4	23.0	0.00e+00	0	33	101	1048576	58	6424
2026-01-06 12:36:36.55	46.01	13.26	-40.5	-41.5	22.9	0.00e+00	68	33	101	1048576	58	6532
2026-01-06 12:36:40.59	46.69	13.48	-40.5	-41.5	22.9	0.00e+00	0	33	101	1048576	58	6513
2026-01-06 12:36:44.63	47.38	13.70	-41.1	-42.2	22.4	0.00e+00	0	33	101	1048576	60	6277
2026-01-06 12:36:48.67	48.08	13.91	-41.2	-42.3	22.4	0.00e+00	82	33	101	1048576	60	6321
2026-01-06 12:36:52.71	48.79	14.12	-40.9	-41.9	22.5	0.00e+00	0	33	101	1048576	60	6061
2026-01-06 12:36:56.76	49.52	14.33	-41.3	-42.3	22.3	0.00e+00	0	33	101	1048576	60	6384
2026-01-06 12:37:00.79	50.24	14.54	-41.8	-42.9	21.9	0.00e+00	0	33	101	1048576	60	6831
2026-01-06 12:37:04.83	50.98	14.74	-41.5	-42.6	22.1	0.00e+00	67	33	101	1048576	60	6576
2026-01-06 12:37:08.87	51.73	14.94	-41.3	-42.4	22.1	0.00e+00	0	33	101	1048576	60	6442
2026-01-06 12:37:12.91	52.49	15.14	-41.3	-42.4	22.3	0.00e+00	0	33	101	1048576	60	6424
2026-01-06 12:37:16.95	53.26	15.34	-41.8	-43.0	21.8	0.00e+00	0	33	101	1048576	60	6857
2026-01-06 12:37:20.99	54.04	15.53	-41.3	-42.4	22.4	0.00e+00	90	33	101	1048576	60	6420
2026-01-06 12:37:25.03	54.83	15.72	-41.6	-42.7	22.0	0.00e+00	0	33	101	1048576	60	6668
2026-01-06 12:37:29.07	55.63	15.90	-41.7	-42.8	22.0	0.00e+00	0	33	101	1048576	60	6725
2026-01-06 12:37:33.12	56.44	16.09	-41.7	-42.9	21.9	0.00e+00	51	33	101	1048576	60	6771
2026-01-06 12:37:37.16	57.25	16.26	-41.5	-42.6	22.1	0.00e+00	33	33	101	1048576	60	6589
2026-01-06 12:37:41.20	58.08	16.44	-41.4	-42.5	22.2	0.00e+00	0	33	101	1048576	60	6503
2026-01-06 12:37:45.24	58.92	16.60	-41.9	-43.0	21.9	0.00e+00	0	33	101	1048576	60	6902
2026-01-06 12:37:49.29	59.76	16.77	-40.8	-41.8	22.9	0.00e+00	79	33	101	1048576	60	5983
2026-01-06 12:37:53.33	60.62	16.93	-40.8	-41.8	22.8	0.00e+00	0	33	101	1048576	60	5994
2026-01-06 12:37:57.37	61.48	17.08	-41.2	-42.3	22.4	0.00e+00	0	33	101	1048576	60	6344
2026-01-06 12:38:01.41	62.35	17.23	-40.9	-42.0	22.7	0.00e+00	0	33	101	1048576	60	6106
2026-01-06 12:38:05.42	63.23	17.37	-40.1	-41.1	23.1	0.00e+00	79	33	101	1048576	60	5522
2026-01-06 12:38:09.45	64.11	17.51	-40.7	-41.7	22.9	0.00e+00	0	33	101	1048576	58	6671
2026-01-06 12:38:13.47	65.00	17.64	-40.8	-41.8	22.8	0.00e+00	0	33	101	1048576	58	6763
2026-01-06 12:38:17.50	65.90	17.76	-40.5	-41.4	22.8	0.00e+00	0	33	101	1048576	58	6448
2026-01-06 12:38:21.53	66.81	17.88	-39.7	-40.6	23.7	0.00e+00	91	33	101	1048576	58	5868
2026-01-06 12:38:25.54	67.72	17.99	-40.4	-41.4	23.3	0.00e+00	0	33	101	1048576	58	6403
2026-01-06 12:38:29.57	68.64	18.10	-40.1	-41.0	23.1	0.00e+00	0	33	101	1048576	58	6137
2026-01-06 12:38:33.59	69.57	18.20	-40.8	-41.8	22.8	0.00e+00	5	33	101	1048576	58	6746
2026-01-06 12:38:37.61	70.50	18.29	-40.3	-41.3	23.2	0.00e+00	84	33	101	1048576	58	6338
2026-01-06 12:38:41.63	71.43	18.38	-41.1	-42.1	22.4	0.00e+00	0	33	101	1048576	60	6206
2026-01-06 12:38:45.65	72.37	18.45	-40.9	-41.9	22.7	0.00e+00	0	33	101	1048576	60	6096
2026-01-06 12:38:49.68	73.32	18.52	-41.7	-42.9	22.1	0.00e+00	0	33	101	1048576	60	6776
2026-01-06 12:38:53.69	74.27	18.59	-41.6	-42.7	22.0	0.00e+00	0	33	101	1048576	60	6642
2026-01-06 12:38:57.72	75.23	18.64	-41.5	-42.6	22.1	0.00e+00	0	33	101	1048576	60	6579
2026-01-06 12:39:01.74	76.18	18.69	-40.9	-41.8	22.8	0.00e+00	0	33	101	1048576	60	6027
2026-01-06 12:39:05.77	77.14	18.73	-41.3	-42.3	22.6	0.00e+00	78	33	101	1048576	60	6351
2026-01-06 12:39:09.79	78.11	18.76	-41.1	-42.2	22.5	0.00e+00	0	33	101	1048576	60	6263
2026-01-06 12:39:13.82	79.07	18.79	-41.6	-42.6	22.1	0.00e+00	0	33	101	1048576	60	6594
2026-01-06 12:39:17.85	80.04	18.80	-42.0	-43.2	21.7	0.00e+00	0	33	101	1048576	60	7055
2026-01-06 12:39:21.88	81.01	18.81	-41.4	-42.5	22.2	0.00e+00	83	33	101	1048576	60	6519
2026-01-06 12:39:25.90	81.97	18.81	-40.9	-42.0	22.7	0.00e+00	0	33	101	1048576	60	6114
2026-01-06 12:39:29.92	82.94	18.81	-41.3	-42.3	22.4	0.00e+00	0	33	101	1048576	60	6381
2026-01-06 12:39:33.95	83.91	18.79	-41.5	-42.6	22.1	0.00e+00	0	33	101	1048576	60	6579
2026-01-06 12:39:37.97	84.87	18.77	-41.4	-42.5	22.2	0.00e+00	83	33	101	1048576	60	6524
2026-01-06 12:39:42.00	85.84	18.74	-41.6	-42.8	21.9	0.00e+00	0	33	101	1048576	60	6693
2026-01-06 12:39:46.02	86.80	18.70	-41.2	-42.2	22.5	0.00e+00	0	33	101	1048576	60	6305
2026-01-06 12:39:50.04	87.76	18.65	-40.4	-41.4	23.2	0.00e+00	46	33	101	1048576	60	5699
2026-01-06 12:39:54.06	88.71	18.60	-41.1	-42.1	22.6	0.00e+00	91	33	101	1048576	60	6240
2026-01-06 12:39:58.08	89.66	18.54	-41.3	-42.4	22.3	0.00e+00	0	33	101	1048576	60	6414
2026-01-06 12:40:02.11	90.61	18.47	-41.6	-42.7	22.2	0.00e+00	0	33	101	1048576	60	6623
2026-01-06 12:40:06.14	91.56	18.39	-40.6	-41.6	22.9	0.00e+00	24	33	101	1048576	60	5836
2026-01-06 12:40:10.17	92.50	18.31	-41.4	-42.4	22.2	0.00e+00	0	33	101	1048576	60	6462
2026-01-06 12:40:14.19	93.43	18.22	-41.1	-42.1	22.3	0.00e+00	0	33	101	1048576	60	6243
2026-01-06 12:40:18.22	94.36	18.12	-40.5	-41.5	23.1	0.00e+00	0	33	101	1048576	60	5783
2026-01-06 12:40:22.24	95.29	18.02	-40.7	-41.7	22.8	0.00e+00	79	33	101	1048576	60	5938
2026-01-06 12:40:26.26	96.20	17.90	-39.7	-40.7	23.4	0.00e+00	0	33	101	1048576	58	5924
2026-01-06 12:40:30.28	97.11	17.79	-40.5	-41.5	23.1	0.00e+00	0	33	101	1048576	58	6493
2026-01-06 12:40:34.30	98.01	17.66	-40.0	-40.9	23.4	0.00e+00	0	33	101	1048576	58	6095
2026-01-06 12:40:38.33	98.91	17.53	-39.9	-40.9	23.4	0.00e+00	78	33	101	1048576	58	6040
2026-01-06 12:40:42.35	99.80	17.40	-40.1	-41.0	23.4	0.00e+00	0	33	101	1048576	58	6173
2026-01-06 12:40:46.38	100.68	17.25	-40.6	-41.6	22.9	0.00e+00	0	33	101	1048576	58	6563
2026-01-06 12:40:50.39	101.55	17.11	-40.2	-41.2	23.2	0.00e+00	0	33	101	1048576	58	6273
2026-01-06 12:40:54.42	102.41	16.95	-40.4	-41.4	23.0	0.00e+00	83	33	101	1048576	58	6445
2026-01-06 12:40:58.44	103.27	16.80	-40.2	-41.1	23.3	0.00e+00	0	33	101	1048576	58	6217
2026-01-06 12:41:02.47	104.11	16.63	-41.1	-42.2	22.3	0.00e+00	0	33	101	1048576	58	7088
2026-01-06 12:41:06.50	104.95	16.47	-41.1	-42.2	22.5	0.00e+00	0	33	101	1048576	60	6279
2026-01-06 12:41:10.52	105.78	16.29	-40.5	-41.5	23.0	0.00e+00	92	33	101	1048576	60	5805
2026-01-06 12:41:14.54	106.60	16.12	-40.3	-41.2	23.2	0.00e+00	0	33	101	1048576	58	6299
2026-01-06 12:41:18.57	107.41	15.94	-40.7	-41.7	22.5	0.00e+00	0	33	101	1048576	58	6623
2026-01-06 12:41:22.59	108.21	15.75	-42.3	-43.5	21.0	0.00e+00	0	33	101	1048576	60	7316
2026-01-06 12:41:26.62	109.00	15.56	-41.9	-43.1	21.8	0.00e+00	86	33	101	1048576	60	6929
2026-01-06 12:41:30.65	109.78	15.37	-41.2	-42.2	22.4	0.00e+00	0	33	101	1048576	60	6317
2026-01-06 12:41:34.67	110.55	15.18	-40.6	-41.6	23.1	0.00e+00	0	33	101	1048576	60	5854
2026-01-06 12:41:38.69	111.31	14.98	-41.8	-43.0	21.7	0.00e+00	4	33	101	1048576	60	6880
2026-01-06 12:41:42.72	112.07	14.78	-41.9	-43.0	21.8	0.00e+00	19	33	101	1048576	60	6917
2026-01-06 12:41:46.76	112.81	14.57	-41.1	-42.2	22.4	0.00e+00	0	33	101	1048576	60	6284
2026-01-06 12:41:50.80	113.54	14.36	-41.2	-42.3	22.2	0.00e+00	0	33	101	1048576	60	6326
2026-01-06 12:41:54.84	114.27	14.15	-40.8	-41.8	22.8	0.00e+00	92	33	101	1048576	60	6003
2026-01-06 12:41:58.88	114.98	13.94	-41.6	-42.7	22.0	0.00e+00	0	33	101	1048576	60	6630
2026-01-06 12:42:02.92	115.69	13.73	-41.0	-42.0	22.5	0.00e+00	0	33	101	1048576	60	6151
2026-01-06 12:42:06.96	116.38	13.51	-40.3	-41.3	22.9	0.00e+00	0	33	101	1048576	60	5684
2026-01-06 12:42:11.00	117.07	13.29	-41.0	-42.1	22.4	0.00e+00	92	33	101	1048576	60	6180
2026-01-06 12:42:15.05	117.75	13.07	-40.9	-42.0	22.6	0.00e+00	0	33	101	1048576	60	6113
2026-01-06 12:42:19.09	118.41	12.85	-41.2	-42.2	22.2	0.00e+00	0	33	101	1048576	60	6316
2026-01-06 12:42:23.12	119.07	12.63	-40.3	-41.3	23.1	0.00e+00	45	33	101	1048576	60	5662
2026-01-06 12:42:27.17	119.71	12.40	-40.0	-40.9	23.3	0.00e+00	39	33	101	1048576	58	6064
2026-01-06 12:42:31.21	120.35	12.18	-40.8	-41.8	22.4	0.00e+00	0	33	101	1048576	58	6735
2026-01-06 12:42:35.25	120.98	11.95	-40.7	-41.7	22.7	0.00e+00	0	33	101	1048576	58	6628
2026-01-06 12:42:39.29	121.60	11.72	-40.2	-41.2	23.0	0.00e+00	92	33	101	1048576	58	6260
2026-01-06 12:42:43.33	122.21	11.49	-40.7	-41.7	22.7	0.00e+00	0	33	101	1048576	58	6627
2026-01-06 12:42:47.38	122.81	11.26	-40.7	-41.7	22.6	0.00e+00	0	33	101	1048576	58	6639
2026-01-06 12:42:51.42	123.40	11.03	-40.7	-41.7	22.6	0.00e+00	0	33	101	1048576	58	6691
2026-01-06 12:42:55.46	123.98	10.80	-41.7	-42.9	21.6	0.00e+00	90	33	101	1048576	60	6771
2026-01-06 12:42:59.51	124.55	10.57	-41.6	-42.7	21.8	0.00e+00	0	33	101	1048576	60	6670
2026-01-06 12:43:03.55	125.12	10.34	-41.5	-42.6	22.0	0.00e+00	0	33	101	1048576	60	6569
2026-01-06 12:43:07.59	125.68	10.11	-41.5	-42.6	21.9	0.00e+00	0	33	101	1048576	60	6588
2026-01-06 12:43:11.63	126.22	9.88	-41.3	-42.4	22.0	0.00e+00	0	33	101	1048576	60	6430
2026-01-06 12:43:15.67	126.76	9.65	-41.2	-42.2	22.2	0.00e+00	0	33	101	1048576	60	6314
2026-01-06 12:43:19.71	127.29	9.42	-41.7	-42.9	21.6	0.00e+00	0	33	101	1048576	60	6792
2026-01-06 12:43:23.75	127.82	9.19	-41.6	-42.7	21.7	0.00e+00	56	33	101	1048576	60	6676
2026-01-06 12:43:27.80	128.33	8.95	-41.2	-42.3	22.1	0.00e+00	0	33	101	1048576	60	6374
2026-01-06 12:43:31.84	128.84	8.72	-41.8	-42.9	21.6	0.00e+00	0	33	101	1048576	60	6846
2026-01-06 12:43:35.88	129.34	8.49	-41.9	-43.1	21.4	0.00e+00	0	33	101	1048576	60	6953
2026-01-06 12:43:39.92	129.83	8.26	-41.1	-42.2	22.1	0.00e+00	91	33	101	1048576	60	6259
2026-01-06 12:43:43.96	130.32	8.03	-40.9	-41.9	22.0	0.00e+00	0	33	101	1048576	60	6059
2026-01-06 12:43:48.01	130.80	7.80	-41.5	-42.6	21.7	0.00e+00	0	33	101	1048576	60	6585
2026-01-06 12:43:52.05	131.27	7.57	-42.5	-43.8	20.8	0.00e+00	0	33	101	1048576	60	7567
2026-01-06 12:43:56.09	131.73	7.34	-42.6	-43.9	20.5	0.00e+00	34	33	101	1048576	60	7680
2026-01-06 12:44:00.14	132.19	7.12	-43.6	-45.1	19.5	0.00e+00	33	33	101	1048576	60	8768
2026-01-06 12:44:04.18	132.64	6.89	-44.1	-45.8	18.9	0.00e+00	0	33	101	1048576	60	9457
2026-01-06 12:44:08.22	133.08	6.66	-43.8	-45.4	19.2	0.00e+00	73	33	101	1048576	60	9030
2026-01-06 12:44:12.26	133.52	6.43	-43.1	-44.5	20.1	0.00e+00	0	33	101	1048576	60	8201
2026-01-06 12:44:16.30	133.95	6.21	-42.8	-44.2	20.2	0.00e+00	0	33	101	1048576	60	7909
2026-01-06 12:44:20.34	134.37	5.98	-42.8	-44.2	20.1	0.00e+00	0	33	101	1048576	60	7908
2026-01-06 12:44:24.38	134.79	5.76	-43.0	-44.5	19.9	0.00e+00	90	33	101	1048576	60	8146
2026-01-06 12:44:28.42	135.20	5.53	-42.4	-43.8	20.5	0.00e+00	0	33	101	1048576	60	7524
2026-01-06 12:44:32.46	135.60	5.31	-42.7	-44.1	20.1	0.00e+00	0	33	101	1048576	60	7832
2026-01-06 12:44:36.50	136.00	5.09	-42.8	-44.2	19.9	0.00e+00	9	33	101	1048576	60	7952
2026-01-06 12:44:40.55	136.40	4.87	-43.4	-44.9	19.3	0.00e+00	49	33	101	1048576	60	8616
2026-01-06 12:44:44.59	136.78	4.65	-43.6	-45.2	19.0	0.00e+00	0	33	101	1048576	60	8872
2026-01-06 12:44:48.63	137.17	4.42	-43.6	-45.3	18.9	0.00e+00	0	33	101	1048576	60	8984
2026-01-06 12:44:52.67	137.54	4.21	-43.4	-45.0	19.1	0.00e+00	74	33	101	1048576	60	8639
2026-01-06 12:44:56.72	137.92	3.99	-43.4	-45.1	19.0	0.00e+00	0	33	101	1048576	60	8763
2026-01-06 12:45:00.76	138.28	3.77	-43.6	-45.3	18.6	0.00e+00	0	33	101	1048576	60	8963
2026-01-06 12:45:04.79	138.64	3.55	-44.6	-46.6	17.1	0.00e+00	0	33	101	1048576	60	10462
2026-01-06 12:45:08.83	139.00	3.34	-45.5	-48.3	15.2	0.00e+00	91	33	101	1048576	60	12735
2026-01-06 12:45:12.88	139.35	3.12	-46.3	-49.8	13.2	2.44e-05	0	33	101	1048576	60	15151
2026-01-06 12:45:16.91	139.70	2.91	-51.0	-66.3	3.6	1.51e+00	0	33	104	1048576	60	101261
2026-01-06 12:45:20.94	140.04	2.69	-51.4	-66.7	3.6	1.51e+00	0	33	104	1048576	60	104918
2026-01-06 12:45:24.97	140.37	2.48	-51.3	-66.6	3.6	1.51e+00	0	33	104	1048576	60	104621
2026-01-06 12:45:28.99	140.70	2.27	-51.3	-66.7	3.6	1.51e+00	0	33	104	1048576	60	105056
2026-01-06 12:45:33.02	141.03	2.06	-51.3	-66.6	3.6	1.51e+00	0	33	104	1048576	60	104751
2026-01-06 12:45:37.05	141.35	1.85	-51.3	-66.6	3.6	1.51e+00	0	33	104	1048576	60	103993
2026-01-06 12:45:41.08	141.67	1.64	-51.3	-66.6	3.6	1.51e+00	0	33	104	1048576	60	103872
2026-01-06 12:45:45.11	141.99	1.43	-51.3	-66.6	3.6	1.51e+00	0	33	104	1048576	60	104621
2026-01-06 12:45:49.14	142.30	1.22	-51.3	-66.6	3.6	1.51e+00	0	34	104	1048576	60	104299
2026-01-06 12:45:53.17	142.60	1.02	-51.3	-66.6	3.6	1.51e+00	0	33	104	1048576	60	104191
2026-01-06 12:45:57.20	142.90	0.81	-51.3	-66.6	3.6	1.51e+00	0	34	104	1048576	60	104569
2026-01-06 12:46:01.23	143.20	0.61	-51.3	-66.6	3.6	1.51e+00	0	34	104	1048576	60	103702
2026-01-06 12:46:05.26	143.50	0.40	-51.3	-66.6	3.6	1.51e+00	0	34	104	1048576	60	103704
2026-01-06 12:46:09.29	143.79	0.20	-51.3	-66.6	3.6	1.51e+00	0	33	104	1048576	60	104312
2026-01-06 12:46:13.31	144.07	-0.00	-51.3	-66.6	3.6	1.51e+00	0	34	104	1048576	60	103807

#Closed at: 2026-01-06 12:46:15
#Recorded file [1 MB]: D:/lorett/data/35034_260106_153234.dat