passes_logs/2026/01/27/PlanumMoscow/PlanumMoscow__20260127_164130_METOP-B_rec.log

#Pass ID: 20260127_164130_METOP-B
#Satellite: METOP-B
#Configuration: METOP-B
#Start time: 2026-01-27 16:41:35.277361

#LorettStation: 1.0.0 05.05.2024
#Station: PlanumMoscow
#Location: 37.6253844 lon 55.6713361 lat
#TLE: 1 38771U 12049A   25293.92766658  .00000266  00000+0  14193-3 0  9996
#TLE: 2 38771  98.6882 344.7603 0001609 341.5209  18.5909 14.21379342679275

#Time	Az	El	Level	SNR
2026-01-27 16:45:13.727668	115.4	26.3	-63.0	7.1
2026-01-27 16:45:15.972679	115.0	26.7	-62.3	5.6
2026-01-27 16:45:18.216742	114.6	27.0	-62.7	4.8
2026-01-27 16:45:20.461257	114.1	27.3	-62.2	5.5
2026-01-27 16:45:22.709821	113.7	27.6	-63.7	7.7
2026-01-27 16:45:24.954337	113.2	27.9	-62.8	6.2
2026-01-27 16:45:27.203407	112.8	28.2	-63.0	7.6
2026-01-27 16:45:29.447426	112.3	28.5	-63.4	6.9
2026-01-27 16:45:31.691446	111.8	28.9	-62.5	6.3
2026-01-27 16:45:33.936020	111.4	29.2	-62.3	6.5
2026-01-27 16:45:36.178562	110.9	29.5	-63.1	7.6
2026-01-27 16:45:38.422634	110.4	29.8	-62.7	8.1
2026-01-27 16:45:40.666662	109.9	30.1	-62.4	4.0
2026-01-27 16:45:42.909718	109.3	30.5	-63.6	8.9
2026-01-27 16:45:45.154234	108.8	30.8	-62.6	5.7
2026-01-27 16:45:47.397798	108.2	31.1	-62.7	6.5
2026-01-27 16:45:49.646811	107.7	31.5	-63.1	7.3
2026-01-27 16:45:51.890822	107.1	31.8	-61.8	6.3
2026-01-27 16:45:54.134833	106.5	32.1	-62.7	6.8
2026-01-27 16:45:56.377862	105.9	32.4	-62.7	6.2
2026-01-27 16:45:58.621913	105.3	32.8	-63.2	4.5
2026-01-27 16:46:00.863941	104.7	33.1	-62.5	5.5
2026-01-27 16:46:03.107510	104.1	33.4	-62.3	4.5
2026-01-27 16:46:05.350539	103.4	33.8	-63.5	5.8
2026-01-27 16:46:07.592568	102.8	34.1	-63.4	6.2
2026-01-27 16:46:09.837122	102.1	34.4	-62.7	6.0
2026-01-27 16:46:12.082149	101.4	34.7	-63.6	7.5
2026-01-27 16:46:14.325190	100.7	35.1	-63.2	5.4
2026-01-27 16:46:16.567227	100.0	35.4	-63.0	6.4
2026-01-27 16:46:18.810774	99.3	35.7	-63.5	6.7
2026-01-27 16:46:21.053800	98.6	36.0	-62.9	4.2
2026-01-27 16:46:23.298315	97.8	36.3	-62.9	7.3
2026-01-27 16:46:25.542357	97.0	36.7	-62.3	4.1
2026-01-27 16:46:27.789890	96.2	37.0	-62.1	5.6
2026-01-27 16:46:30.033931	95.4	37.3	-62.2	5.0
2026-01-27 16:46:32.278456	94.6	37.6	-62.5	7.3
2026-01-27 16:46:34.527002	93.8	37.9	-61.0	6.8
2026-01-27 16:46:36.770069	93.0	38.2	-61.9	6.1
2026-01-27 16:46:39.017080	92.1	38.5	-61.7	5.2
2026-01-27 16:46:41.261672	91.2	38.7	-61.9	4.0
2026-01-27 16:46:43.503718	90.3	39.0	-60.4	2.0
2026-01-27 16:46:45.761259	89.4	39.3	-61.6	6.1
2026-01-27 16:46:48.005287	88.5	39.6	-60.3	5.2
2026-01-27 16:46:50.247850	87.6	39.8	-61.0	5.0
2026-01-27 16:46:52.490414	86.6	40.1	-60.8	3.0
2026-01-27 16:46:54.733930	85.6	40.3	-59.7	3.8
2026-01-27 16:46:56.977445	84.6	40.6	-60.4	1.3
2026-01-27 16:46:59.220999	83.7	40.8	-60.8	2.1
2026-01-27 16:47:01.464515	82.6	41.0	-59.4	2.4
2026-01-27 16:47:03.713552	81.6	41.2	-59.6	0.3
2026-01-27 16:47:05.962622	80.6	41.4	-58.8	2.4
2026-01-27 16:47:08.205147	79.5	41.6	-59.3	0.0
2026-01-27 16:47:10.448181	78.5	41.8	-58.2	0.0
2026-01-27 16:47:12.691250	77.4	42.0	-59.2	0.0
2026-01-27 16:47:14.934774	76.3	42.2	-59.3	1.2
2026-01-27 16:47:17.177823	75.2	42.3	-58.7	1.7
2026-01-27 16:47:19.422385	74.1	42.5	-59.2	0.0
2026-01-27 16:47:21.669906	73.0	42.6	-58.6	0.0
2026-01-27 16:47:23.914413	71.9	42.7	-59.1	0.5
2026-01-27 16:47:26.156474	70.7	42.8	-59.4	0.3
2026-01-27 16:47:28.399998	69.6	42.9	-58.5	0.0
2026-01-27 16:47:30.643513	68.4	43.0	-58.2	0.0
2026-01-27 16:47:32.886066	67.3	43.0	-60.8	4.0
2026-01-27 16:47:35.130085	66.1	43.1	-58.9	0.0
2026-01-27 16:47:37.374137	65.0	43.1	-59.6	0.0
2026-01-27 16:47:39.618154	63.8	43.2	-59.9	0.7
2026-01-27 16:47:41.861221	62.6	43.2	-60.0	1.8
2026-01-27 16:47:44.105272	61.5	43.2	-58.8	0.0
2026-01-27 16:47:46.348786	60.3	43.2	-59.8	1.2
2026-01-27 16:47:48.592805	59.2	43.2	-59.2	1.0
2026-01-27 16:47:50.835353	58.0	43.1	-59.6	3.0
2026-01-27 16:47:53.078371	56.8	43.1	-59.3	1.4
2026-01-27 16:47:55.321894	55.7	43.0	-58.9	1.0
2026-01-27 16:47:57.564947	54.5	42.9	-59.0	4.7
2026-01-27 16:47:59.808472	53.4	42.8	-60.2	1.3
2026-01-27 16:48:02.052531	52.3	42.7	-60.5	2.4
2026-01-27 16:48:04.297046	51.1	42.6	-58.2	0.0
2026-01-27 16:48:06.545599	50.0	42.5	-59.2	0.0
2026-01-27 16:48:08.789117	48.9	42.4	-60.0	0.4
2026-01-27 16:48:11.033624	47.8	42.2	-59.3	0.0
2026-01-27 16:48:13.277674	46.7	42.0	-58.6	1.1
2026-01-27 16:48:15.521695	45.6	41.9	-57.5	0.0
2026-01-27 16:48:17.765737	44.6	41.7	-59.3	0.8
2026-01-27 16:48:20.010251	43.5	41.5	-59.5	2.5
2026-01-27 16:48:22.253797	42.5	41.3	-58.7	1.6
2026-01-27 16:48:24.498311	41.5	41.1	-58.5	0.0
2026-01-27 16:48:26.742323	40.5	40.9	-58.4	1.6
2026-01-27 16:48:28.986364	39.5	40.6	-58.5	2.1
2026-01-27 16:48:31.232384	38.5	40.4	-59.7	3.1
2026-01-27 16:48:33.475929	37.5	40.2	-59.7	4.8
2026-01-27 16:48:35.719947	36.5	39.9	-59.2	4.2
2026-01-27 16:48:37.964491	35.6	39.7	-59.8	3.6
2026-01-27 16:48:40.209005	34.7	39.4	-59.8	1.7
2026-01-27 16:48:42.453512	33.8	39.1	-58.9	0.7
2026-01-27 16:48:44.697555	32.9	38.8	-58.8	1.5
2026-01-27 16:48:46.944080	32.0	38.6	-60.6	2.8
2026-01-27 16:48:49.188620	31.1	38.3	-59.1	1.2
2026-01-27 16:48:51.433127	30.3	38.0	-60.2	2.6
2026-01-27 16:48:53.676681	29.5	37.7	-59.5	1.8
2026-01-27 16:48:55.921196	28.6	37.4	-59.1	2.3
2026-01-27 16:48:58.165703	27.8	37.1	-58.9	2.4
2026-01-27 16:49:00.409249	27.0	36.8	-60.3	3.1
2026-01-27 16:49:02.653763	26.3	36.5	-60.1	2.9
2026-01-27 16:49:04.897308	25.5	36.1	-60.4	3.4
2026-01-27 16:49:07.141823	24.8	35.8	-59.4	1.7
2026-01-27 16:49:09.387338	24.0	35.5	-60.2	4.1
2026-01-27 16:49:11.631404	23.3	35.2	-60.3	2.3
2026-01-27 16:49:13.875918	22.6	34.9	-59.5	2.4
2026-01-27 16:49:16.119463	22.0	34.5	-59.9	3.2
2026-01-27 16:49:18.365978	21.3	34.2	-60.3	3.5
2026-01-27 16:49:20.613518	20.6	33.9	-60.5	2.4
2026-01-27 16:49:22.857537	20.0	33.6	-60.3	4.0
2026-01-27 16:49:25.103061	19.3	33.2	-60.3	4.3
2026-01-27 16:49:27.349116	18.7	32.9	-60.2	1.6
2026-01-27 16:49:29.593623	18.1	32.6	-59.3	1.9
2026-01-27 16:49:31.837680	17.5	32.2	-59.5	4.5
2026-01-27 16:49:34.081691	16.9	31.9	-59.3	1.2
2026-01-27 16:49:36.325709	16.4	31.6	-60.0	6.2
2026-01-27 16:49:38.569290	15.8	31.3	-60.2	2.0
2026-01-27 16:49:40.812369	15.3	30.9	-59.9	4.3
2026-01-27 16:49:43.056876	14.7	30.6	-59.8	2.3
2026-01-27 16:49:45.300391	14.2	30.3	-59.7	4.1
2026-01-27 16:49:47.544937	13.7	30.0	-59.8	0.0
2026-01-27 16:49:49.788956	13.2	29.6	-59.3	0.1
2026-01-27 16:49:52.032998	12.7	29.3	-59.7	1.1
2026-01-27 16:49:54.278531	12.2	29.0	-60.8	2.6
2026-01-27 16:49:56.527087	11.7	28.7	-60.6	5.6
2026-01-27 16:49:58.771107	11.3	28.4	-59.9	1.4
2026-01-27 16:50:01.015621	10.8	28.0	-59.2	0.0
2026-01-27 16:50:03.259672	10.4	27.7	-60.2	3.3
2026-01-27 16:50:05.504197	9.9	27.4	-60.4	1.6
2026-01-27 16:50:07.747247	9.5	27.1	-60.1	0.7
2026-01-27 16:50:09.991762	9.1	26.8	-60.5	3.0
2026-01-27 16:50:12.241311	8.7	26.5	-60.3	5.8
2026-01-27 16:50:14.485818	8.2	26.2	-61.0	3.2
2026-01-27 16:50:16.729860	7.8	25.9	-61.4	1.5
2026-01-27 16:50:18.973871	7.5	25.6	-59.1	0.0
2026-01-27 16:50:21.218386	7.1	25.3	-61.0	2.1
2026-01-27 16:50:23.462950	6.7	25.0	-61.4	3.3
2026-01-27 16:50:25.707466	6.3	24.7	-62.0	5.0
2026-01-27 16:50:27.955518	6.0	24.4	-62.2	4.5
2026-01-27 16:50:30.200033	5.6	24.1	-61.8	5.1
2026-01-27 16:50:32.443579	5.3	23.8	-61.6	0.5
2026-01-27 16:50:34.688086	4.9	23.5	-61.2	4.3
2026-01-27 16:50:36.932602	4.6	23.2	-61.5	4.5
2026-01-27 16:50:39.177149	4.3	23.0	-59.8	0.2
2026-01-27 16:50:41.421664	3.9	22.7	-61.3	3.3
2026-01-27 16:50:43.669171	3.6	22.4	-62.5	5.5
2026-01-27 16:50:45.913212	3.3	22.1	-61.9	1.9
2026-01-27 16:50:48.157233	3.0	21.9	-59.9	0.0
2026-01-27 16:50:50.400779	2.7	21.6	-61.6	0.0
2026-01-27 16:50:52.645295	2.4	21.3	-62.4	3.9
2026-01-27 16:50:54.889841	2.1	21.0	-62.0	4.9
2026-01-27 16:50:57.138368	1.8	20.8	-61.4	3.4
2026-01-27 16:50:59.382379	1.6	20.5	-60.8	3.4
2026-01-27 16:51:01.626923	1.3	20.3	-62.3	2.7
2026-01-27 16:51:03.871439	1.0	20.0	-62.0	2.9
2026-01-27 16:51:06.114481	0.8	19.7	-62.5	5.4
2026-01-27 16:51:08.358995	0.5	19.5	-62.3	4.8
2026-01-27 16:51:10.602540	0.2	19.2	-62.4	5.4
2026-01-27 16:51:12.846552	360.0	19.0	-61.5	0.5
2026-01-27 16:51:15.092059	359.7	18.7	-61.4	0.0
2026-01-27 16:51:17.336615	359.5	18.5	-62.8	4.1
2026-01-27 16:51:19.585143	359.3	18.2	-60.2	0.0
2026-01-27 16:51:21.839691	359.0	18.0	-60.5	0.0
2026-01-27 16:51:24.093198	358.8	17.7	-62.0	2.4
2026-01-27 16:51:26.336255	358.6	17.5	-61.7	0.0
2026-01-27 16:51:28.580770	358.3	17.3	-62.3	2.7
2026-01-27 16:51:30.825278	358.1	17.0	-61.6	3.7
2026-01-27 16:51:33.069319	357.9	16.8	-61.8	3.5
2026-01-27 16:51:35.312834	357.7	16.6	-60.3	0.0
2026-01-27 16:51:37.557381	357.5	16.3	-61.7	0.0
2026-01-27 16:51:39.802888	357.3	16.1	-61.5	0.8
2026-01-27 16:51:42.047435	357.1	15.9	-58.7	0.0
2026-01-27 16:51:44.291011	356.9	15.6	-61.1	0.0
2026-01-27 16:51:46.534574	356.7	15.4	-60.5	0.0
2026-01-27 16:51:48.779095	356.5	15.2	-59.8	0.0
2026-01-27 16:51:51.022611	356.3	15.0	-61.9	0.0
2026-01-27 16:51:53.272160	356.1	14.8	-60.5	0.0
2026-01-27 16:51:55.515676	355.9	14.5	-60.4	0.0
2026-01-27 16:51:57.759718	355.7	14.3	-60.2	0.0
2026-01-27 16:52:00.004740	355.6	14.1	-59.5	0.0
2026-01-27 16:52:02.248781	355.4	13.9	-60.0	0.0
2026-01-27 16:52:04.492801	355.2	13.7	-60.9	0.0
2026-01-27 16:52:06.737838	355.0	13.5	-61.9	0.0
2026-01-27 16:52:08.981849	354.9	13.3	-61.5	0.0
2026-01-27 16:52:11.226363	354.7	13.1	-61.3	0.0
2026-01-27 16:52:13.469910	354.5	12.9	-61.5	0.0
2026-01-27 16:52:15.713929	354.4	12.7	-61.9	0.0
2026-01-27 16:52:17.960477	354.2	12.5	-61.7	0.0
2026-01-27 16:52:20.204991	354.1	12.3	-60.2	0.0
2026-01-27 16:52:22.449499	353.9	12.1	-58.6	0.0
2026-01-27 16:52:24.696519	353.8	11.9	-60.4	0.0
2026-01-27 16:52:26.941026	353.6	11.7	-60.1	0.0
2026-01-27 16:52:29.185068	353.5	11.5	-61.4	0.0
2026-01-27 16:52:31.429583	353.3	11.3	-61.5	0.0
2026-01-27 16:52:33.673122	353.2	11.1	-60.2	0.0
2026-01-27 16:52:35.917637	353.0	10.9	-59.6	0.0
2026-01-27 16:52:38.162144	352.9	10.7	-60.1	0.0
2026-01-27 16:52:40.405689	352.7	10.5	-59.9	0.0
2026-01-27 16:52:42.650204	352.6	10.3	-60.5	0.0
2026-01-27 16:52:44.894751	352.5	10.1	-62.1	0.1
2026-01-27 16:52:47.139267	352.3	10.0	-61.4	0.0
2026-01-27 16:52:49.388279	352.2	9.8	-61.3	0.0
2026-01-27 16:52:51.632321	352.1	9.6	-62.6	0.0
2026-01-27 16:52:53.876364	352.0	9.4	-62.2	0.0
2026-01-27 16:52:56.120374	351.8	9.2	-62.4	0.0
2026-01-27 16:52:58.364397	351.7	9.1	-63.2	0.0
2026-01-27 16:53:00.608438	351.6	8.9	-61.8	0.0
2026-01-27 16:53:02.852945	351.5	8.7	-63.0	0.0
2026-01-27 16:53:05.096000	351.3	8.5	-60.1	0.0
2026-01-27 16:53:07.340507	351.2	8.4	-61.9	0.0
2026-01-27 16:53:09.585023	351.1	8.2	-62.1	0.0
2026-01-27 16:53:11.829574	351.0	8.0	-62.0	0.0
2026-01-27 16:53:14.073595	350.9	7.8	-62.7	0.0
2026-01-27 16:53:16.317613	350.8	7.7	-61.4	0.0
2026-01-27 16:53:18.561156	350.7	7.5	-63.1	0.0
2026-01-27 16:53:20.809177	350.5	7.3	-61.4	0.0
2026-01-27 16:53:23.053219	350.4	7.2	-61.9	0.0
2026-01-27 16:53:25.297735	350.3	7.0	-62.9	0.0
2026-01-27 16:53:27.541746	350.2	6.8	-61.2	0.0
2026-01-27 16:53:29.785270	350.1	6.7	-61.4	0.0
2026-01-27 16:53:32.028835	350.0	6.5	-60.9	0.0
2026-01-27 16:53:34.272350	349.9	6.3	-61.0	0.0
2026-01-27 16:53:36.516379	349.8	6.2	-62.8	0.0
2026-01-27 16:53:38.760431	349.7	6.0	-64.6	0.0
2026-01-27 16:53:41.004443	349.6	5.9	-68.5	0.0
2026-01-27 16:53:43.248461	349.5	5.7	-65.5	0.0
2026-01-27 16:53:45.492504	349.4	5.5	-69.3	0.0
2026-01-27 16:53:47.736027	349.3	5.4	-68.4	0.0
2026-01-27 16:53:49.979596	349.2	5.2	-68.9	0.0
2026-01-27 16:53:52.223615	349.2	5.1	-71.7	0.0
#Closed at: 2026-01-27 16:41:30.278735