passes_logs/2026/01/27/PlanumMoscow/PlanumMoscow__20260127_065119_METOP-B_rec.log

#Pass ID: 20260127_065119_METOP-B
#Satellite: METOP-B
#Configuration: METOP-B
#Start time: 2026-01-27 06:51:24.216426

#LorettStation: 1.0.0 05.05.2024
#Station: PlanumMoscow
#Location: 37.6253844 lon 55.6713361 lat
#TLE: 1 38771U 12049A   25293.92766658  .00000266  00000+0  14193-3 0  9996
#TLE: 2 38771  98.6882 344.7603 0001609 341.5209  18.5909 14.21379342679275

#Time	Az	El	Level	SNR
2026-01-27 06:55:02.691880	29.7	28.4	-63.8	6.1
2026-01-27 06:55:04.940896	30.0	28.8	-63.8	5.2
2026-01-27 06:55:07.185403	30.2	29.2	-64.0	5.6
2026-01-27 06:55:09.431910	30.5	29.6	-63.8	6.3
2026-01-27 06:55:11.675426	30.7	30.0	-64.1	6.6
2026-01-27 06:55:13.919932	31.0	30.4	-64.3	5.9
2026-01-27 06:55:16.164439	31.2	30.8	-64.2	5.8
2026-01-27 06:55:18.408946	31.5	31.3	-63.9	6.5
2026-01-27 06:55:20.652958	31.8	31.7	-64.0	6.0
2026-01-27 06:55:22.897465	32.1	32.1	-63.8	5.9
2026-01-27 06:55:25.141972	32.4	32.6	-63.9	5.1
2026-01-27 06:55:27.386479	32.7	33.0	-63.1	4.2
2026-01-27 06:55:29.630986	33.0	33.4	-63.7	4.5
2026-01-27 06:55:31.875493	33.3	33.9	-63.0	3.0
2026-01-27 06:55:34.120000	33.6	34.4	-63.1	2.6
2026-01-27 06:55:36.368012	33.9	34.8	-62.4	0.6
2026-01-27 06:55:38.612518	34.3	35.3	-63.0	3.7
2026-01-27 06:55:40.856530	34.6	35.8	-61.9	1.3
2026-01-27 06:55:43.100046	35.0	36.3	-62.9	4.3
2026-01-27 06:55:45.344552	35.4	36.8	-61.6	3.2
2026-01-27 06:55:47.589059	35.8	37.2	-62.7	1.4
2026-01-27 06:55:49.832576	36.2	37.7	-62.0	2.8
2026-01-27 06:55:52.076093	36.6	38.3	-62.3	3.0
2026-01-27 06:55:54.320600	37.0	38.8	-61.8	1.7
2026-01-27 06:55:56.565107	37.4	39.3	-61.1	1.4
2026-01-27 06:55:58.809613	37.9	39.8	-61.6	1.8
2026-01-27 06:56:01.053129	38.3	40.4	-59.7	0.0
2026-01-27 06:56:03.297140	38.8	40.9	-61.5	0.4
2026-01-27 06:56:05.541647	39.3	41.4	-61.1	0.0
2026-01-27 06:56:07.787179	39.8	42.0	-61.3	0.0
2026-01-27 06:56:10.030686	40.4	42.5	-61.8	0.0
2026-01-27 06:56:12.275193	40.9	43.1	-62.1	0.0
2026-01-27 06:56:14.519700	41.5	43.7	-59.7	0.0
2026-01-27 06:56:16.763711	42.1	44.2	-60.0	0.0
2026-01-27 06:56:19.008218	42.7	44.8	-60.6	0.0
2026-01-27 06:56:21.252725	43.3	45.4	-61.3	0.0
2026-01-27 06:56:23.501737	44.0	46.0	-60.6	0.0
2026-01-27 06:56:25.746244	44.6	46.6	-60.8	0.0
2026-01-27 06:56:27.990254	45.3	47.2	-60.2	0.0
2026-01-27 06:56:30.234761	46.1	47.8	-61.1	0.0
2026-01-27 06:56:32.478772	46.8	48.4	-61.5	0.0
2026-01-27 06:56:34.723279	47.6	49.0	-61.5	0.0
2026-01-27 06:56:36.967786	48.5	49.6	-62.5	0.2
2026-01-27 06:56:39.211798	49.3	50.2	-60.7	0.0
2026-01-27 06:56:41.456304	50.2	50.8	-61.4	0.0
2026-01-27 06:56:43.700811	51.1	51.5	-62.3	0.0
2026-01-27 06:56:45.949824	52.1	52.1	-61.7	0.0
2026-01-27 06:56:48.193834	53.1	52.7	-61.4	0.0
2026-01-27 06:56:50.437341	54.2	53.3	-62.2	0.0
2026-01-27 06:56:52.681848	55.3	53.9	-62.6	0.0
2026-01-27 06:56:54.922868	56.4	54.5	-62.2	1.0
2026-01-27 06:56:57.166374	57.6	55.1	-62.8	0.0
2026-01-27 06:56:59.409881	58.8	55.7	-62.9	0.8
2026-01-27 06:57:01.657398	60.1	56.3	-62.9	0.2
2026-01-27 06:57:03.899904	61.5	56.9	-62.2	0.0
2026-01-27 06:57:06.142411	62.9	57.4	-62.4	1.1
2026-01-27 06:57:08.385917	64.4	58.0	-62.6	3.2
2026-01-27 06:57:10.629928	65.9	58.5	-63.3	2.2
2026-01-27 06:57:12.874435	67.5	59.1	-63.8	0.1
2026-01-27 06:57:15.118941	69.1	59.6	-63.1	0.0
2026-01-27 06:57:17.362457	70.9	60.1	-63.6	0.0
2026-01-27 06:57:19.604963	72.7	60.6	-63.8	0.1
2026-01-27 06:57:21.845469	74.5	61.0	-64.8	0.2
2026-01-27 06:57:24.088480	76.4	61.4	-63.4	0.0
2026-01-27 06:57:26.330491	78.4	61.9	-63.8	0.0
2026-01-27 06:57:28.572997	80.5	62.2	-65.6	1.6
2026-01-27 06:57:30.816009	82.6	62.6	-64.1	0.0
2026-01-27 06:57:33.060020	84.8	62.9	-64.8	0.0
2026-01-27 06:57:35.303527	87.0	63.2	-64.6	0.0
2026-01-27 06:57:37.544032	89.3	63.4	-64.2	0.0
2026-01-27 06:57:39.784539	91.6	63.6	-65.9	0.4
2026-01-27 06:57:42.030553	93.9	63.8	-65.0	0.0
2026-01-27 06:57:44.272059	96.3	63.9	-65.1	0.0
2026-01-27 06:57:46.512565	98.7	64.0	-64.5	0.0
2026-01-27 06:57:48.754585	101.2	64.1	-65.2	0.0
2026-01-27 06:57:50.996596	103.6	64.1	-65.1	0.0
2026-01-27 06:57:53.234606	106.0	64.1	-65.7	1.3
2026-01-27 06:57:55.478113	108.4	64.0	-64.7	0.0
2026-01-27 06:57:57.720619	110.8	63.9	-64.2	1.7
2026-01-27 06:57:59.964126	113.2	63.7	-64.8	1.6
2026-01-27 06:58:02.206632	115.6	63.5	-64.3	1.4
2026-01-27 06:58:04.456149	117.9	63.3	-65.3	3.0
2026-01-27 06:58:06.699655	120.1	63.0	-65.6	0.0
2026-01-27 06:58:08.943667	122.3	62.7	-65.6	2.1
2026-01-27 06:58:11.187183	124.5	62.4	-66.4	2.1
2026-01-27 06:58:13.431194	126.5	62.0	-66.5	2.5
2026-01-27 06:58:15.673214	128.6	61.6	-66.1	0.0
2026-01-27 06:58:17.915720	130.5	61.2	-66.5	3.0
2026-01-27 06:58:20.157731	132.4	60.8	-66.4	3.5
2026-01-27 06:58:22.403742	134.2	60.3	-66.8	3.5
2026-01-27 06:58:24.647258	136.0	59.8	-67.6	5.0
2026-01-27 06:58:26.891269	137.7	59.3	-66.8	5.5
2026-01-27 06:58:29.133794	139.3	58.8	-66.8	3.8
2026-01-27 06:58:31.377805	140.9	58.2	-67.6	5.5
2026-01-27 06:58:33.621816	142.4	57.7	-67.5	5.2
2026-01-27 06:58:35.864837	143.8	57.1	-67.0	6.1
2026-01-27 06:58:38.108848	145.2	56.5	-67.4	6.2
2026-01-27 06:58:40.352859	146.5	56.0	-67.0	5.8
2026-01-27 06:58:42.596879	147.8	55.4	-67.2	7.3
2026-01-27 06:58:44.845405	149.0	54.8	-67.2	7.1
2026-01-27 06:58:47.089427	150.1	54.2	-67.1	6.2
2026-01-27 06:58:49.331454	151.3	53.5	-67.2	7.1
2026-01-27 06:58:51.574969	152.3	52.9	-66.8	8.0
2026-01-27 06:58:53.819476	153.4	52.3	-67.1	7.2
2026-01-27 06:58:56.064001	154.4	51.7	-67.3	7.0
2026-01-27 06:58:58.306526	155.3	51.1	-67.1	7.4
2026-01-27 06:59:00.554034	156.2	50.5	-66.8	7.7
2026-01-27 06:59:02.797549	157.1	49.9	-67.6	7.1
2026-01-27 06:59:05.041065	157.9	49.2	-67.4	7.2
2026-01-27 06:59:07.284579	158.7	48.6	-66.5	6.2
2026-01-27 06:59:09.528104	159.5	48.0	-66.3	5.9
2026-01-27 06:59:11.772115	160.3	47.4	-66.4	7.7
2026-01-27 06:59:14.015631	161.0	46.8	-66.3	8.9
2026-01-27 06:59:16.258642	161.7	46.2	-66.6	8.4
2026-01-27 06:59:18.501662	162.3	45.6	-66.5	8.5
2026-01-27 06:59:20.745673	163.0	45.0	-66.1	9.1
2026-01-27 06:59:22.987702	163.6	44.5	-65.8	9.5
2026-01-27 06:59:25.228721	164.2	43.9	-65.3	8.7
2026-01-27 06:59:27.472742	164.8	43.3	-65.5	8.5
2026-01-27 06:59:29.715762	165.3	42.7	-65.2	8.6
2026-01-27 06:59:31.961774	165.9	42.2	-65.5	9.6
2026-01-27 06:59:34.203289	166.4	41.6	-65.4	9.5
2026-01-27 06:59:36.444804	166.9	41.1	-65.6	9.0
2026-01-27 06:59:38.687823	167.4	40.5	-65.4	8.6
2026-01-27 06:59:40.930347	167.9	40.0	-66.1	9.2
2026-01-27 06:59:43.173854	168.3	39.5	-65.5	7.8
2026-01-27 06:59:45.413863	168.8	38.9	-65.2	8.2
2026-01-27 06:59:47.655875	169.2	38.4	-64.9	7.5
2026-01-27 06:59:49.898390	169.6	37.9	-65.2	9.5
2026-01-27 06:59:52.141906	170.0	37.4	-64.8	9.1
2026-01-27 06:59:54.383421	170.4	36.9	-64.2	9.7
2026-01-27 06:59:56.626927	170.8	36.4	-64.4	10.1
2026-01-27 06:59:58.870939	171.1	35.9	-63.8	9.1
2026-01-27 07:00:01.113454	171.5	35.4	-63.7	9.2
2026-01-27 07:00:03.351959	171.8	34.9	-63.2	8.5
2026-01-27 07:00:05.595971	172.2	34.5	-63.1	9.4
2026-01-27 07:00:07.839494	172.5	34.0	-64.0	8.3
2026-01-27 07:00:10.082543	172.8	33.6	-64.3	8.5
2026-01-27 07:00:12.326068	173.1	33.1	-64.0	7.2
2026-01-27 07:00:14.569152	173.4	32.7	-63.5	9.0
2026-01-27 07:00:16.813171	173.7	32.2	-64.0	8.4
2026-01-27 07:00:19.054758	174.0	31.8	-64.4	9.0
2026-01-27 07:00:21.280731	174.3	31.4	-64.1	7.3
2026-01-27 07:00:23.523254	174.6	30.9	-64.3	7.3
2026-01-27 07:00:25.765837	174.8	30.5	-63.7	7.3
2026-01-27 07:00:28.011392	175.1	30.1	-63.4	8.2
2026-01-27 07:00:30.254962	175.3	29.7	-63.6	9.7
2026-01-27 07:00:32.497492	175.6	29.3	-64.0	9.3
2026-01-27 07:00:34.741552	175.8	28.9	-62.6	5.8
2026-01-27 07:00:36.984591	176.1	28.5	-62.9	6.2
2026-01-27 07:00:39.227611	176.3	28.1	-63.5	9.2
2026-01-27 07:00:41.470189	176.5	27.7	-63.4	7.1
2026-01-27 07:00:43.718218	176.7	27.3	-63.9	9.1
2026-01-27 07:00:45.962776	177.0	27.0	-64.2	8.7
2026-01-27 07:00:48.206788	177.2	26.6	-64.4	9.2
2026-01-27 07:00:50.450354	177.4	26.2	-64.4	9.3
2026-01-27 07:00:52.697366	177.6	25.9	-64.4	9.0
2026-01-27 07:00:54.939896	177.8	25.5	-64.2	7.9
2026-01-27 07:00:57.185938	178.0	25.2	-64.6	8.9
2026-01-27 07:00:59.429462	178.2	24.8	-64.5	8.5
2026-01-27 07:01:01.673472	178.3	24.5	-64.7	8.3
2026-01-27 07:01:03.916511	178.5	24.1	-64.7	7.8
2026-01-27 07:01:06.160564	178.7	23.8	-64.6	7.6
2026-01-27 07:01:08.405071	178.9	23.5	-64.9	8.2
2026-01-27 07:01:10.649586	179.0	23.2	-64.9	6.1
2026-01-27 07:01:12.892140	179.2	22.8	-64.7	7.2
2026-01-27 07:01:15.136153	179.4	22.5	-64.5	7.3
2026-01-27 07:01:17.379669	179.5	22.2	-64.7	7.9
2026-01-27 07:01:19.623687	179.7	21.9	-64.7	7.4
2026-01-27 07:01:21.867742	179.8	21.6	-64.6	7.3
2026-01-27 07:01:24.111274	180.0	21.3	-64.4	8.0
2026-01-27 07:01:26.354827	180.1	21.0	-64.3	7.4
2026-01-27 07:01:28.598845	180.3	20.7	-64.2	7.7
2026-01-27 07:01:30.844376	180.4	20.4	-64.0	6.9
2026-01-27 07:01:33.088402	180.6	20.1	-64.0	6.4
2026-01-27 07:01:35.332430	180.7	19.8	-63.8	6.9
2026-01-27 07:01:37.577000	180.8	19.5	-63.7	6.4
2026-01-27 07:01:39.820019	181.0	19.2	-64.0	5.7
2026-01-27 07:01:42.062601	181.1	19.0	-64.1	6.8
2026-01-27 07:01:44.306627	181.2	18.7	-64.3	6.4
2026-01-27 07:01:46.551134	181.4	18.4	-64.2	5.9
2026-01-27 07:01:48.794155	181.5	18.2	-63.7	6.2
2026-01-27 07:01:51.037710	181.6	17.9	-64.4	6.5
2026-01-27 07:01:53.281272	181.7	17.6	-64.1	3.5
2026-01-27 07:01:55.525291	181.9	17.4	-64.3	7.0
2026-01-27 07:01:57.768806	182.0	17.1	-64.2	6.3
2026-01-27 07:02:00.013322	182.1	16.8	-63.5	3.1
2026-01-27 07:02:02.255868	182.2	16.6	-64.0	4.6
2026-01-27 07:02:04.498392	182.3	16.3	-62.9	3.5
2026-01-27 07:02:06.742411	182.4	16.1	-63.6	4.8
2026-01-27 07:02:08.985964	182.5	15.9	-63.6	4.5
2026-01-27 07:02:11.228001	182.6	15.6	-63.6	5.5
2026-01-27 07:02:13.470068	182.7	15.4	-63.6	4.1
2026-01-27 07:02:15.712105	182.8	15.1	-63.1	3.3
2026-01-27 07:02:17.956116	182.9	14.9	-63.4	4.7
2026-01-27 07:02:20.199661	183.0	14.7	-63.7	4.9
2026-01-27 07:02:22.442219	183.1	14.4	-63.6	3.7
2026-01-27 07:02:24.686757	183.2	14.2	-62.8	2.6
2026-01-27 07:02:26.930280	183.3	14.0	-61.7	0.0
2026-01-27 07:02:29.172366	183.4	13.7	-61.4	0.0
2026-01-27 07:02:31.414406	183.5	13.5	-61.3	0.0
2026-01-27 07:02:33.656435	183.6	13.3	-61.6	0.0
2026-01-27 07:02:35.899501	183.7	13.1	-62.6	0.0
2026-01-27 07:02:38.146025	183.8	12.9	-62.7	2.4
2026-01-27 07:02:40.390080	183.9	12.6	-63.1	2.5
2026-01-27 07:02:42.634098	184.0	12.4	-63.6	3.0
2026-01-27 07:02:44.877118	184.1	12.2	-64.1	2.9
2026-01-27 07:02:47.120672	184.1	12.0	-62.9	1.2
2026-01-27 07:02:49.364684	184.2	11.8	-61.4	0.0
2026-01-27 07:02:51.608695	184.3	11.6	-63.5	3.1
2026-01-27 07:02:53.855715	184.4	11.4	-62.6	0.0
2026-01-27 07:02:56.099283	184.5	11.2	-63.5	0.9
2026-01-27 07:02:58.343302	184.5	11.0	-62.2	0.0
2026-01-27 07:03:00.589810	184.6	10.8	-62.9	0.9
2026-01-27 07:03:02.835870	184.7	10.6	-63.8	1.4
2026-01-27 07:03:05.079928	184.8	10.4	-63.5	2.7
2026-01-27 07:03:07.322452	184.9	10.2	-63.4	0.0
2026-01-27 07:03:09.566000	184.9	10.0	-64.1	2.3
2026-01-27 07:03:11.810011	185.0	9.8	-63.5	0.0
2026-01-27 07:03:14.054031	185.1	9.6	-63.3	0.0
2026-01-27 07:03:16.298080	185.1	9.4	-63.3	0.0
2026-01-27 07:03:18.538629	185.2	9.2	-63.4	0.0
2026-01-27 07:03:20.782182	185.3	9.0	-61.9	0.0
2026-01-27 07:03:23.026698	185.4	8.9	-62.9	0.0
2026-01-27 07:03:25.271222	185.4	8.7	-62.9	0.0
2026-01-27 07:03:27.515271	185.5	8.5	-62.8	0.0
2026-01-27 07:03:29.758794	185.6	8.3	-63.7	0.0
2026-01-27 07:03:32.001835	185.6	8.1	-63.8	0.0
2026-01-27 07:03:34.244862	185.7	8.0	-63.9	0.9
2026-01-27 07:03:36.486928	185.8	7.8	-61.5	0.0
2026-01-27 07:03:38.728469	185.8	7.6	-63.2	0.0
2026-01-27 07:03:40.972480	185.9	7.4	-63.6	0.0
2026-01-27 07:03:43.216528	185.9	7.2	-63.7	0.0
2026-01-27 07:03:45.459557	186.0	7.1	-63.7	0.0
2026-01-27 07:03:47.703112	186.1	6.9	-63.7	0.0
2026-01-27 07:03:49.946131	186.1	6.7	-58.3	0.0
2026-01-27 07:03:52.190676	186.2	6.6	-60.2	0.0
2026-01-27 07:03:54.432712	186.2	6.4	-61.6	0.0
2026-01-27 07:03:56.675267	186.3	6.2	-62.7	0.4
2026-01-27 07:03:58.918789	186.4	6.1	-60.0	0.0
2026-01-27 07:04:01.161313	186.4	5.9	-63.2	0.0
2026-01-27 07:04:03.404375	186.5	5.7	-68.9	0.0
2026-01-27 07:04:05.648395	186.5	5.6	-70.6	0.0
2026-01-27 07:04:07.892452	186.6	5.4	-71.3	0.0
2026-01-27 07:04:10.136471	186.6	5.2	-71.2	0.0
2026-01-27 07:04:12.379023	186.7	5.1	-71.6	0.0
#Closed at: 2026-01-27 06:51:19.218416