passes_logs/2026/01/27/PlanumMoscow/PlanumMoscow__20260127_185806_METOP-C_rec.log

#Pass ID: 20260127_185806_METOP-C
#Satellite: METOP-C
#Configuration: METOP-C
#Start time: 2026-01-27 18:58:11.875469

#LorettStation: 1.0.0 05.05.2024
#Station: PlanumMoscow
#Location: 37.6253844 lon 55.6713361 lat
#TLE: 1 43689U 18087A   25293.88981035  .00000265  00000+0  14109-3 0  9997
#TLE: 2 43689  98.7006 352.4487 0002041 122.1097 238.0279 14.21482740360838

#Time	Az	El	Level	SNR
2026-01-27 19:01:50.297602	213.4	24.9	-63.2	0.0
2026-01-27 19:01:52.540669	213.9	25.2	-64.0	0.0
2026-01-27 19:01:54.784681	214.3	25.5	-64.3	0.0
2026-01-27 19:01:57.028700	214.8	25.7	-63.8	0.0
2026-01-27 19:01:59.271257	215.2	26.0	-63.7	0.0
2026-01-27 19:02:01.514805	215.7	26.3	-62.4	0.0
2026-01-27 19:02:03.758369	216.2	26.6	-62.8	0.0
2026-01-27 19:02:05.999910	216.7	26.8	-64.0	0.0
2026-01-27 19:02:08.241976	217.2	27.1	-64.0	0.0
2026-01-27 19:02:10.487508	217.7	27.4	-63.7	0.0
2026-01-27 19:02:12.730039	218.2	27.7	-63.1	0.0
2026-01-27 19:02:14.974088	218.7	27.9	-63.7	0.0
2026-01-27 19:02:17.217107	219.3	28.2	-63.3	0.0
2026-01-27 19:02:19.461118	219.8	28.5	-62.2	0.0
2026-01-27 19:02:21.705146	220.4	28.8	-62.5	0.0
2026-01-27 19:02:23.948203	220.9	29.0	-62.0	0.0
2026-01-27 19:02:26.191246	221.5	29.3	-62.5	0.0
2026-01-27 19:02:28.435256	222.1	29.6	-62.6	0.0
2026-01-27 19:02:30.678811	222.7	29.9	-63.7	0.0
2026-01-27 19:02:32.928336	223.3	30.1	-62.0	0.0
2026-01-27 19:02:35.172890	223.9	30.4	-61.9	0.0
2026-01-27 19:02:37.416435	224.5	30.7	-62.7	0.0
2026-01-27 19:02:39.658464	225.1	31.0	-61.6	0.0
2026-01-27 19:02:41.901987	225.8	31.2	-61.9	0.0
2026-01-27 19:02:44.145534	226.4	31.5	-63.6	0.0
2026-01-27 19:02:46.389553	227.1	31.8	-61.8	0.0
2026-01-27 19:02:48.633069	227.8	32.0	-60.9	0.0
2026-01-27 19:02:50.876118	228.4	32.3	-62.7	0.0
2026-01-27 19:02:53.120139	229.1	32.6	-61.8	0.0
2026-01-27 19:02:55.363692	229.8	32.8	-61.8	0.0
2026-01-27 19:02:57.606719	230.6	33.1	-61.5	0.0
2026-01-27 19:02:59.849779	231.3	33.3	-61.9	0.0
2026-01-27 19:03:02.092807	232.0	33.6	-61.6	0.0
2026-01-27 19:03:04.335848	232.8	33.8	-62.7	0.0
2026-01-27 19:03:06.579911	233.5	34.1	-62.9	0.0
2026-01-27 19:03:08.823435	234.3	34.3	-60.2	0.0
2026-01-27 19:03:11.067495	235.1	34.6	-60.1	0.0
2026-01-27 19:03:13.311513	235.9	34.8	-59.9	0.0
2026-01-27 19:03:15.555075	236.7	35.0	-60.4	0.0
2026-01-27 19:03:17.798104	237.5	35.2	-59.8	0.0
2026-01-27 19:03:20.040639	238.4	35.5	-58.6	0.0
2026-01-27 19:03:22.285214	239.2	35.7	-58.3	0.0
2026-01-27 19:03:24.527250	240.0	35.9	-59.0	0.0
2026-01-27 19:03:26.770301	240.9	36.1	-58.8	0.0
2026-01-27 19:03:29.017826	241.8	36.3	-57.3	0.0
2026-01-27 19:03:31.261839	242.7	36.5	-58.1	0.0
2026-01-27 19:03:33.506897	243.6	36.7	-58.7	0.0
2026-01-27 19:03:35.754477	244.5	36.8	-58.0	0.0
2026-01-27 19:03:37.998488	245.4	37.0	-59.9	0.0
2026-01-27 19:03:40.241019	246.3	37.2	-61.3	0.0
2026-01-27 19:03:42.485572	247.2	37.3	-59.2	0.0
2026-01-27 19:03:44.732105	248.2	37.5	-61.0	0.0
2026-01-27 19:03:46.975155	249.1	37.6	-58.5	0.0
2026-01-27 19:03:49.218182	250.0	37.7	-58.8	0.0
2026-01-27 19:03:51.462249	251.0	37.9	-59.6	0.0
2026-01-27 19:03:53.708279	252.0	38.0	-59.8	0.0
2026-01-27 19:03:55.952299	253.0	38.1	-59.7	0.0
2026-01-27 19:03:58.194864	253.9	38.2	-59.5	0.0
2026-01-27 19:04:00.439438	254.9	38.3	-61.6	0.0
2026-01-27 19:04:02.682466	255.9	38.3	-60.8	0.0
2026-01-27 19:04:04.926477	256.9	38.4	-61.2	0.0
2026-01-27 19:04:07.170035	257.9	38.5	-62.7	0.0
2026-01-27 19:04:09.413568	258.9	38.5	-62.0	0.0
2026-01-27 19:04:11.657083	259.9	38.6	-61.5	0.0
2026-01-27 19:04:13.901125	260.9	38.6	-61.0	0.0
2026-01-27 19:04:16.145657	261.9	38.6	-61.1	0.0
2026-01-27 19:04:18.390203	262.9	38.6	-62.5	0.0
2026-01-27 19:04:20.634213	263.9	38.6	-61.8	0.0
2026-01-27 19:04:22.877287	264.9	38.6	-63.0	0.0
2026-01-27 19:04:25.119828	266.0	38.6	-61.8	0.0
2026-01-27 19:04:27.361409	267.0	38.6	-63.6	0.0
2026-01-27 19:04:29.605924	268.0	38.5	-63.7	0.0
2026-01-27 19:04:31.849440	269.0	38.5	-63.9	0.0
2026-01-27 19:04:34.092995	270.0	38.4	-65.1	0.0
2026-01-27 19:04:36.336519	271.0	38.4	-64.4	0.0
2026-01-27 19:04:38.580568	272.0	38.3	-65.1	0.0
2026-01-27 19:04:40.824091	272.9	38.2	-65.1	0.0
2026-01-27 19:04:43.067644	273.9	38.1	-64.6	0.0
2026-01-27 19:04:45.311670	274.9	38.0	-63.8	0.0
2026-01-27 19:04:47.555690	275.9	37.9	-64.8	0.0
2026-01-27 19:04:49.799229	276.8	37.8	-64.6	0.0
2026-01-27 19:04:52.043257	277.8	37.6	-63.3	0.0
2026-01-27 19:04:54.285839	278.7	37.5	-62.7	0.0
2026-01-27 19:04:56.530345	279.7	37.4	-63.1	0.0
2026-01-27 19:04:58.773884	280.6	37.2	-62.3	0.0
2026-01-27 19:05:01.017896	281.5	37.0	-63.3	0.0
2026-01-27 19:05:03.265972	282.4	36.9	-64.7	0.0
2026-01-27 19:05:05.510479	283.3	36.7	-64.9	0.0
2026-01-27 19:05:07.754498	284.2	36.5	-65.2	0.0
2026-01-27 19:05:09.998051	285.1	36.3	-64.3	0.0
2026-01-27 19:05:12.242575	286.0	36.1	-64.2	0.0
2026-01-27 19:05:14.485632	286.8	35.9	-63.8	0.0
2026-01-27 19:05:16.729155	287.7	35.7	-64.7	0.0
2026-01-27 19:05:18.978170	288.5	35.5	-64.2	0.0
2026-01-27 19:05:21.221720	289.4	35.3	-64.2	0.0
2026-01-27 19:05:23.466235	290.2	35.1	-63.5	0.0
2026-01-27 19:05:25.714795	291.0	34.9	-64.1	0.0
2026-01-27 19:05:27.958310	291.8	34.6	-64.0	0.0
2026-01-27 19:05:30.200883	292.6	34.4	-64.7	0.0
2026-01-27 19:05:32.444398	293.3	34.2	-64.4	0.0
2026-01-27 19:05:34.689930	294.1	33.9	-64.5	0.0
2026-01-27 19:05:36.931511	294.9	33.7	-65.8	0.0
2026-01-27 19:05:39.174547	295.6	33.4	-65.8	0.0
2026-01-27 19:05:41.418132	296.3	33.2	-66.0	0.0
2026-01-27 19:05:43.667163	297.0	32.9	-65.5	0.0
2026-01-27 19:05:45.910220	297.8	32.7	-66.2	0.0
2026-01-27 19:05:48.154253	298.5	32.4	-66.1	0.0
2026-01-27 19:05:50.396777	299.1	32.1	-66.1	0.0
2026-01-27 19:05:52.640330	299.8	31.9	-66.0	0.0
2026-01-27 19:05:54.885382	300.5	31.6	-66.0	0.0
2026-01-27 19:05:57.130949	301.1	31.3	-66.1	0.0
2026-01-27 19:05:59.373982	301.8	31.1	-67.0	0.0
2026-01-27 19:06:01.617537	302.4	30.8	-66.4	0.0
2026-01-27 19:06:03.863636	303.0	30.5	-66.3	0.0
2026-01-27 19:06:06.105673	303.6	30.3	-66.2	0.0
2026-01-27 19:06:08.348249	304.2	30.0	-66.7	0.0
2026-01-27 19:06:10.591772	304.8	29.7	-66.7	0.0
2026-01-27 19:06:12.834852	305.4	29.4	-66.4	0.0
2026-01-27 19:06:15.077405	306.0	29.2	-66.8	0.0
2026-01-27 19:06:17.320425	306.5	28.9	-66.7	0.0
2026-01-27 19:06:19.564443	307.1	28.6	-65.9	0.0
2026-01-27 19:06:21.807006	307.6	28.3	-66.2	0.0
2026-01-27 19:06:24.050035	308.2	28.1	-66.1	0.0
2026-01-27 19:06:26.295047	308.7	27.8	-67.2	0.0
2026-01-27 19:06:28.537122	309.2	27.5	-66.7	0.0
2026-01-27 19:06:30.779656	309.7	27.2	-67.1	0.0
2026-01-27 19:06:33.022215	310.2	27.0	-67.1	0.0
2026-01-27 19:06:35.265234	310.7	26.7	-67.5	0.0
2026-01-27 19:06:37.509292	311.2	26.4	-67.1	0.0
2026-01-27 19:06:39.752815	311.7	26.2	-67.3	0.0
2026-01-27 19:06:41.996881	312.1	25.9	-67.3	0.0
2026-01-27 19:06:44.239908	312.6	25.6	-66.9	0.0
2026-01-27 19:06:46.482432	313.1	25.3	-66.7	0.0
2026-01-27 19:06:48.725977	313.5	25.1	-67.2	0.0
2026-01-27 19:06:50.968509	313.9	24.8	-66.9	0.0
2026-01-27 19:06:53.211064	314.4	24.5	-66.7	0.0
2026-01-27 19:06:55.454100	314.8	24.3	-66.4	0.0
2026-01-27 19:06:57.697645	315.2	24.0	-66.4	0.0
2026-01-27 19:06:59.941656	315.6	23.8	-66.9	0.0
2026-01-27 19:07:02.184180	316.0	23.5	-67.1	0.0
2026-01-27 19:07:04.426208	316.4	23.2	-67.0	0.0
2026-01-27 19:07:06.669723	316.8	23.0	-66.6	0.0
2026-01-27 19:07:08.914773	317.2	22.7	-66.5	0.0
2026-01-27 19:07:11.158792	317.6	22.5	-67.0	0.0
2026-01-27 19:07:13.403355	317.9	22.2	-66.3	0.0
2026-01-27 19:07:15.646879	318.3	21.9	-67.1	0.0
2026-01-27 19:07:17.893938	318.7	21.7	-66.7	0.0
2026-01-27 19:07:20.136462	319.0	21.4	-66.7	0.0
2026-01-27 19:07:22.380000	319.4	21.2	-66.6	0.0
2026-01-27 19:07:24.623029	319.7	20.9	-66.3	0.0
2026-01-27 19:07:26.867536	320.0	20.7	-66.1	0.0
2026-01-27 19:07:29.110587	320.4	20.5	-65.8	0.0
2026-01-27 19:07:31.354606	320.7	20.2	-66.0	0.0
2026-01-27 19:07:33.597657	321.0	20.0	-65.7	0.0
2026-01-27 19:07:35.841181	321.3	19.7	-66.8	0.0
2026-01-27 19:07:38.083242	321.7	19.5	-66.9	0.0
2026-01-27 19:07:40.327758	322.0	19.3	-66.5	0.0
2026-01-27 19:07:42.571311	322.3	19.0	-66.6	0.0
2026-01-27 19:07:44.815335	322.6	18.8	-66.6	0.0
2026-01-27 19:07:47.059850	322.9	18.6	-66.3	0.0
2026-01-27 19:07:49.303910	323.1	18.3	-66.1	0.0
2026-01-27 19:07:51.548425	323.4	18.1	-66.5	0.0
2026-01-27 19:07:53.789989	323.7	17.9	-66.1	0.0
2026-01-27 19:07:56.033046	324.0	17.6	-66.4	0.0
2026-01-27 19:07:58.276083	324.3	17.4	-65.8	0.0
2026-01-27 19:08:00.519155	324.5	17.2	-65.6	0.0
2026-01-27 19:08:02.762680	324.8	17.0	-65.9	0.0
2026-01-27 19:08:05.006233	325.1	16.7	-64.6	0.0
2026-01-27 19:08:07.250764	325.3	16.5	-66.6	0.0
2026-01-27 19:08:09.494309	325.6	16.3	-65.1	0.0
2026-01-27 19:08:11.736840	325.8	16.1	-66.4	0.0
2026-01-27 19:08:13.980881	326.1	15.9	-65.9	0.0
2026-01-27 19:08:16.225909	326.3	15.7	-66.1	0.0
2026-01-27 19:08:18.476419	326.6	15.4	-65.5	0.0
2026-01-27 19:08:20.719495	326.8	15.2	-66.4	0.0
2026-01-27 19:08:22.961536	327.0	15.0	-66.1	0.0
2026-01-27 19:08:25.206576	327.3	14.8	-66.6	0.0
2026-01-27 19:08:27.449629	327.5	14.6	-66.6	0.0
2026-01-27 19:08:29.698679	327.7	14.4	-66.8	0.0
2026-01-27 19:08:31.941205	327.9	14.2	-66.6	0.0
2026-01-27 19:08:34.185739	328.2	14.0	-66.5	0.0
2026-01-27 19:08:36.430304	328.4	13.8	-65.8	0.0
2026-01-27 19:08:38.673897	328.6	13.6	-66.4	0.0
2026-01-27 19:08:40.917909	328.8	13.4	-66.4	0.0
2026-01-27 19:08:43.160937	329.0	13.2	-67.1	0.0
2026-01-27 19:08:45.406997	329.2	13.0	-66.7	0.0
2026-01-27 19:08:47.651038	329.4	12.8	-66.5	0.0
2026-01-27 19:08:49.895562	329.6	12.6	-66.3	0.0
2026-01-27 19:08:52.137619	329.8	12.4	-66.3	0.0
2026-01-27 19:08:54.382639	330.0	12.2	-65.7	0.0
2026-01-27 19:08:56.625696	330.2	12.0	-66.0	0.0
2026-01-27 19:08:58.869221	330.4	11.9	-66.3	0.0
2026-01-27 19:09:01.112786	330.6	11.7	-66.8	0.0
2026-01-27 19:09:03.354320	330.8	11.5	-66.7	0.0
2026-01-27 19:09:05.598331	331.0	11.3	-66.8	0.0
2026-01-27 19:09:07.840907	331.1	11.1	-66.8	0.0
2026-01-27 19:09:10.083981	331.3	10.9	-66.7	0.0
2026-01-27 19:09:12.327496	331.5	10.7	-66.3	0.0
2026-01-27 19:09:14.571507	331.7	10.6	-66.6	0.0
2026-01-27 19:09:16.817528	331.9	10.4	-66.3	0.0
2026-01-27 19:09:19.061539	332.0	10.2	-66.4	0.0
2026-01-27 19:09:21.304568	332.2	10.0	-66.6	0.0
2026-01-27 19:09:23.548579	332.4	9.8	-66.6	0.0
2026-01-27 19:09:25.790608	332.5	9.7	-66.5	0.0
2026-01-27 19:09:28.035134	332.7	9.5	-66.5	0.0
2026-01-27 19:09:30.277170	332.9	9.3	-66.3	0.0
2026-01-27 19:09:32.520693	333.0	9.2	-66.5	0.0
2026-01-27 19:09:34.764210	333.2	9.0	-66.7	0.0
2026-01-27 19:09:37.007734	333.3	8.8	-66.2	0.0
2026-01-27 19:09:39.251745	333.5	8.6	-66.3	0.0
2026-01-27 19:09:41.495755	333.6	8.5	-66.7	0.0
2026-01-27 19:09:43.739767	333.8	8.3	-65.9	0.0
2026-01-27 19:09:45.983788	333.9	8.1	-66.2	0.0
2026-01-27 19:09:48.226809	334.1	8.0	-65.9	0.0
2026-01-27 19:09:50.470324	334.2	7.8	-66.1	0.0
2026-01-27 19:09:52.714335	334.4	7.6	-65.4	0.0
2026-01-27 19:09:54.957859	334.5	7.5	-65.6	0.0
2026-01-27 19:09:57.202366	334.7	7.3	-65.9	0.0
2026-01-27 19:09:59.446377	334.8	7.2	-66.2	0.0
2026-01-27 19:10:01.688396	335.0	7.0	-65.9	0.0
2026-01-27 19:10:03.928433	335.1	6.8	-65.7	0.0
2026-01-27 19:10:06.169939	335.2	6.7	-64.9	0.0
2026-01-27 19:10:08.414950	335.4	6.5	-65.9	0.0
2026-01-27 19:10:10.660988	335.5	6.4	-66.5	0.0
2026-01-27 19:10:12.905522	335.6	6.2	-65.6	0.0
2026-01-27 19:10:15.147528	335.8	6.1	-66.5	0.0
2026-01-27 19:10:17.388538	335.9	5.9	-67.3	0.0
2026-01-27 19:10:19.626547	336.0	5.8	-68.6	0.0
2026-01-27 19:10:21.866053	336.1	5.6	-68.9	0.0
2026-01-27 19:10:24.100567	336.3	5.5	-68.6	0.0
2026-01-27 19:10:26.339585	336.4	5.3	-69.5	0.0
2026-01-27 19:10:28.583595	336.5	5.2	-70.4	0.0
2026-01-27 19:10:30.828115	336.6	5.0	-69.4	0.0
#Closed at: 2026-01-27 18:58:06.876297