passes_logs/2026/01/27/PlanumMoscow/PlanumMoscow__20260127_072847_METEOR-M2_3_rec.log

#Pass ID: 20260127_072847_METEOR-M2 3
#Satellite: METEOR-M2 3
#Configuration: METEOR-M2 3
#Start time: 2026-01-27 07:28:52.465532

#LorettStation: 1.0.0 05.05.2024
#Station: PlanumMoscow
#Location: 37.6253844 lon 55.6713361 lat
#TLE: 1 57166U 23091A   25293.99389264  .00000062  00000+0  46113-4 0  9997
#TLE: 2 57166  98.6457 348.4330 0004759 135.3141 224.8422 14.24016546120475

#Time	Az	El	Level	SNR
2026-01-27 07:32:30.906047	16.7	29.6	-58.1	3.4
2026-01-27 07:32:33.149119	16.7	30.0	-57.2	1.0
2026-01-27 07:32:35.393139	16.7	30.4	-57.2	1.3
2026-01-27 07:32:37.636209	16.7	30.9	-57.8	1.1
2026-01-27 07:32:39.883742	16.7	31.3	-58.4	2.4
2026-01-27 07:32:42.127306	16.7	31.8	-57.7	2.0
2026-01-27 07:32:44.370829	16.7	32.3	-57.8	1.1
2026-01-27 07:32:46.622855	16.7	32.7	-57.6	0.5
2026-01-27 07:32:48.870421	16.7	33.2	-58.5	1.4
2026-01-27 07:32:51.112947	16.7	33.7	-57.8	1.5
2026-01-27 07:32:53.358001	16.7	34.2	-56.7	0.6
2026-01-27 07:32:55.602030	16.7	34.7	-57.5	1.0
2026-01-27 07:32:57.845093	16.7	35.2	-58.9	1.7
2026-01-27 07:33:00.087618	16.7	35.7	-58.4	1.0
2026-01-27 07:33:02.335638	16.7	36.3	-58.8	0.3
2026-01-27 07:33:04.580194	16.7	36.8	-56.4	1.0
2026-01-27 07:33:06.823227	16.7	37.3	-56.8	0.2
2026-01-27 07:33:09.066774	16.7	37.9	-56.4	0.6
2026-01-27 07:33:11.312332	16.7	38.5	-58.1	1.2
2026-01-27 07:33:13.556886	16.7	39.0	-57.8	2.6
2026-01-27 07:33:15.800410	16.7	39.6	-58.5	3.0
2026-01-27 07:33:18.046472	16.7	40.2	-57.7	0.0
2026-01-27 07:33:20.290989	16.7	40.8	-57.6	0.7
2026-01-27 07:33:22.537039	16.7	41.4	-57.0	1.4
2026-01-27 07:33:24.781595	16.7	42.1	-58.4	1.5
2026-01-27 07:33:27.028123	16.6	42.7	-59.2	1.6
2026-01-27 07:33:29.271669	16.6	43.3	-58.5	1.5
2026-01-27 07:33:31.516184	16.6	44.0	-58.8	0.9
2026-01-27 07:33:33.759764	16.6	44.7	-59.0	1.6
2026-01-27 07:33:36.008281	16.6	45.4	-58.3	0.0
2026-01-27 07:33:38.252820	16.6	46.1	-57.3	0.0
2026-01-27 07:33:40.497839	16.6	46.8	-59.6	1.3
2026-01-27 07:33:42.745401	16.6	47.5	-57.5	0.0
2026-01-27 07:33:44.989907	16.6	48.2	-58.2	2.1
2026-01-27 07:33:47.234423	16.6	49.0	-57.4	0.8
2026-01-27 07:33:49.478970	16.6	49.7	-59.9	3.6
2026-01-27 07:33:51.723486	16.5	50.5	-58.9	3.3
2026-01-27 07:33:53.968032	16.5	51.3	-60.0	3.4
2026-01-27 07:33:56.212548	16.5	52.1	-57.5	0.1
2026-01-27 07:33:58.456559	16.5	52.9	-60.4	5.7
2026-01-27 07:34:00.701107	16.5	53.7	-61.4	3.6
2026-01-27 07:34:02.945621	16.5	54.6	-61.2	3.7
2026-01-27 07:34:05.190168	16.4	55.4	-61.3	2.1
2026-01-27 07:34:07.436180	16.4	56.3	-61.9	3.6
2026-01-27 07:34:09.680232	16.4	57.2	-62.4	1.8
2026-01-27 07:34:11.924747	16.4	58.1	-61.5	2.7
2026-01-27 07:34:14.169262	16.3	59.0	-63.3	3.7
2026-01-27 07:34:16.415809	16.3	59.9	-63.3	4.2
2026-01-27 07:34:18.660324	16.3	60.8	-63.5	4.8
2026-01-27 07:34:20.903869	16.2	61.8	-64.1	5.4
2026-01-27 07:34:23.146898	16.2	62.7	-63.7	5.3
2026-01-27 07:34:25.389952	16.1	63.7	-64.4	6.4
2026-01-27 07:34:27.634459	16.1	64.7	-64.3	6.4
2026-01-27 07:34:29.879014	16.0	65.7	-63.1	4.0
2026-01-27 07:34:32.125035	16.0	66.7	-65.2	7.8
2026-01-27 07:34:34.369541	15.9	67.8	-65.3	7.7
2026-01-27 07:34:36.613122	15.8	68.8	-65.0	5.4
2026-01-27 07:34:38.858688	15.7	69.9	-65.8	9.2
2026-01-27 07:34:41.102739	15.6	70.9	-65.5	7.5
2026-01-27 07:34:43.347264	15.5	72.0	-65.7	7.5
2026-01-27 07:34:45.590809	15.4	73.1	-66.4	9.6
2026-01-27 07:34:47.839853	15.2	74.2	-66.3	8.8
2026-01-27 07:34:50.084369	15.0	75.3	-66.7	9.6
2026-01-27 07:34:52.328422	14.8	76.4	-66.7	10.0
2026-01-27 07:34:54.572938	14.6	77.5	-66.2	10.8
2026-01-27 07:34:56.816988	14.3	78.7	-66.5	10.7
2026-01-27 07:34:59.061007	13.9	79.8	-66.2	10.2
2026-01-27 07:35:01.305554	13.4	81.0	-66.5	9.9
2026-01-27 07:35:03.548591	12.8	82.1	-66.9	10.8
2026-01-27 07:35:05.796099	11.9	83.3	-66.2	9.7
2026-01-27 07:35:08.040150	10.7	84.5	-66.4	11.1
2026-01-27 07:35:10.283702	8.9	85.6	-66.5	10.7
2026-01-27 07:35:12.532722	5.7	86.8	-66.2	10.9
2026-01-27 07:35:14.777238	359.0	87.9	-66.2	11.3
2026-01-27 07:35:17.021292	337.7	89.0	-66.3	11.3
2026-01-27 07:35:19.265803	257.9	89.2	-66.6	11.0
2026-01-27 07:35:21.512360	220.9	88.3	-66.5	9.6
2026-01-27 07:35:23.756876	211.4	87.2	-67.0	9.0
2026-01-27 07:35:26.000888	207.4	86.0	-67.0	9.8
2026-01-27 07:35:28.249940	205.2	84.9	-66.4	10.0
2026-01-27 07:35:30.494456	203.8	83.7	-66.5	12.1
2026-01-27 07:35:32.739003	202.9	82.5	-66.3	12.3
2026-01-27 07:35:34.983519	202.2	81.4	-66.1	12.8
2026-01-27 07:35:37.229572	201.6	80.2	-66.5	13.0
2026-01-27 07:35:39.474088	201.2	79.1	-66.7	12.0
2026-01-27 07:35:41.718595	200.9	77.9	-66.9	11.4
2026-01-27 07:35:43.968143	200.6	76.8	-67.0	10.5
2026-01-27 07:35:46.212658	200.4	75.7	-67.1	11.3
2026-01-27 07:35:48.457207	200.2	74.6	-67.0	11.6
2026-01-27 07:35:50.710724	200.1	73.4	-66.8	11.5
2026-01-27 07:35:52.953775	199.9	72.4	-66.4	12.7
2026-01-27 07:35:55.198282	199.8	71.3	-66.4	12.7
2026-01-27 07:35:57.442302	199.7	70.2	-66.7	13.1
2026-01-27 07:35:59.685849	199.6	69.1	-66.9	12.2
2026-01-27 07:36:01.931878	199.5	68.1	-67.0	11.9
2026-01-27 07:36:04.175920	199.4	67.0	-67.0	11.5
2026-01-27 07:36:06.420427	199.4	66.0	-66.9	10.8
2026-01-27 07:36:08.668945	199.3	65.0	-66.7	10.6
2026-01-27 07:36:10.913460	199.3	64.0	-66.7	11.6
2026-01-27 07:36:13.161967	199.2	63.0	-66.2	11.8
2026-01-27 07:36:15.406012	199.2	62.0	-66.3	11.3
2026-01-27 07:36:17.655053	199.1	61.1	-65.8	11.3
2026-01-27 07:36:19.899096	199.1	60.1	-66.0	11.7
2026-01-27 07:36:22.143116	199.0	59.2	-65.9	10.5
2026-01-27 07:36:24.386167	199.0	58.3	-66.3	10.5
2026-01-27 07:36:26.631691	199.0	57.4	-65.5	10.0
2026-01-27 07:36:28.876198	199.0	56.5	-65.4	8.7
2026-01-27 07:36:31.119773	198.9	55.6	-65.4	9.2
2026-01-27 07:36:33.363792	198.9	54.8	-65.6	9.7
2026-01-27 07:36:35.607835	198.9	53.9	-65.0	7.3
2026-01-27 07:36:37.862880	198.9	53.1	-64.7	8.0
2026-01-27 07:36:40.106433	198.9	52.3	-64.1	7.6
2026-01-27 07:36:42.349949	198.8	51.5	-63.3	5.4
2026-01-27 07:36:44.594455	198.8	50.7	-64.1	7.2
2026-01-27 07:36:46.838499	198.8	49.9	-63.8	5.4
2026-01-27 07:36:49.084511	198.8	49.1	-64.2	8.2
2026-01-27 07:36:51.328553	198.8	48.4	-64.9	7.4
2026-01-27 07:36:53.572563	198.8	47.6	-64.4	9.7
2026-01-27 07:36:55.816608	198.8	46.9	-64.4	10.1
2026-01-27 07:36:58.059636	198.8	46.2	-64.0	9.5
2026-01-27 07:37:00.303672	198.7	45.5	-63.7	10.0
2026-01-27 07:37:02.548179	198.7	44.8	-63.9	9.9
2026-01-27 07:37:04.792694	198.7	44.1	-63.2	9.3
2026-01-27 07:37:07.036745	198.7	43.4	-63.7	9.9
2026-01-27 07:37:09.280269	198.7	42.8	-63.2	9.6
2026-01-27 07:37:11.523320	198.7	42.1	-63.2	9.6
2026-01-27 07:37:13.767836	198.7	41.5	-63.6	11.0
2026-01-27 07:37:16.012351	198.7	40.9	-63.0	10.7
2026-01-27 07:37:18.256393	198.7	40.3	-63.7	11.1
2026-01-27 07:37:20.500436	198.7	39.7	-61.9	8.8
2026-01-27 07:37:22.744447	198.7	39.1	-63.2	9.0
2026-01-27 07:37:24.988468	198.7	38.5	-62.4	9.7
2026-01-27 07:37:27.232510	198.7	37.9	-63.4	10.3
2026-01-27 07:37:29.477025	198.7	37.4	-62.6	9.1
2026-01-27 07:37:31.721531	198.7	36.8	-62.7	11.1
2026-01-27 07:37:33.966078	198.7	36.3	-63.4	9.7
2026-01-27 07:37:36.210603	198.7	35.7	-61.3	10.8
2026-01-27 07:37:38.455150	198.7	35.2	-62.9	10.5
2026-01-27 07:37:40.698179	198.7	34.7	-62.2	8.7
2026-01-27 07:37:42.943215	198.7	34.2	-62.5	9.7
2026-01-27 07:37:45.187271	198.7	33.7	-62.3	10.0
2026-01-27 07:37:47.431322	198.7	33.2	-62.7	10.8
2026-01-27 07:37:49.677840	198.7	32.7	-62.9	10.1
2026-01-27 07:37:51.922346	198.7	32.2	-62.7	9.9
2026-01-27 07:37:54.166862	198.7	31.8	-60.9	7.6
2026-01-27 07:37:56.414915	198.7	31.3	-62.9	7.3
2026-01-27 07:37:58.658934	198.7	30.8	-62.6	9.2
2026-01-27 07:38:00.903474	198.7	30.4	-62.4	10.1
2026-01-27 07:38:03.147494	198.7	30.0	-63.5	11.5
2026-01-27 07:38:05.390538	198.7	29.5	-63.3	11.1
2026-01-27 07:38:07.635045	198.7	29.1	-62.5	9.9
2026-01-27 07:38:09.879559	198.7	28.7	-63.3	9.7
2026-01-27 07:38:12.123602	198.7	28.3	-62.6	11.2
2026-01-27 07:38:14.372623	198.7	27.9	-63.3	11.7
2026-01-27 07:38:16.617130	198.7	27.5	-61.9	10.5
2026-01-27 07:38:18.861689	198.7	27.1	-61.8	8.9
2026-01-27 07:38:21.106203	198.7	26.7	-62.4	10.8
2026-01-27 07:38:23.350254	198.7	26.3	-63.6	11.9
2026-01-27 07:38:25.594273	198.7	25.9	-61.9	7.8
2026-01-27 07:38:27.838285	198.7	25.5	-63.2	10.6
2026-01-27 07:38:30.083868	198.7	25.2	-61.8	7.9
2026-01-27 07:38:32.328887	198.7	24.8	-62.4	5.7
2026-01-27 07:38:34.572928	198.7	24.4	-62.2	8.7
2026-01-27 07:38:36.817443	198.7	24.1	-61.2	6.9
2026-01-27 07:38:39.060958	198.7	23.7	-62.4	9.2
2026-01-27 07:38:41.304994	198.7	23.4	-62.2	7.6
2026-01-27 07:38:43.549509	198.7	23.0	-61.5	7.1
2026-01-27 07:38:45.793048	198.7	22.7	-60.6	6.7
2026-01-27 07:38:48.043069	198.7	22.4	-61.5	6.7
2026-01-27 07:38:50.288576	198.7	22.1	-63.3	9.2
2026-01-27 07:38:52.532620	198.7	21.7	-62.1	6.4
2026-01-27 07:38:54.776168	198.7	21.4	-62.1	7.7
2026-01-27 07:38:57.021179	198.7	21.1	-56.1	0.0
2026-01-27 07:38:59.265220	198.7	20.8	-61.0	6.7
2026-01-27 07:39:01.509727	198.7	20.5	-61.2	4.4
2026-01-27 07:39:03.754234	198.7	20.2	-61.8	8.3
2026-01-27 07:39:06.002281	198.7	19.9	-59.0	0.0
2026-01-27 07:39:08.245796	198.8	19.6	-56.6	0.4
2026-01-27 07:39:10.489816	198.8	19.3	-61.0	6.9
2026-01-27 07:39:12.732890	198.8	19.0	-61.2	6.8
2026-01-27 07:39:14.976406	198.8	18.7	-61.0	4.5
2026-01-27 07:39:17.219928	198.8	18.4	-61.6	7.7
2026-01-27 07:39:19.463982	198.8	18.2	-63.1	7.8
2026-01-27 07:39:21.706545	198.8	17.9	-62.7	8.2
2026-01-27 07:39:23.949612	198.8	17.6	-61.4	6.7
2026-01-27 07:39:26.194631	198.8	17.3	-61.2	6.9
2026-01-27 07:39:28.437684	198.8	17.1	-60.5	6.1
2026-01-27 07:39:30.682199	198.8	16.8	-61.9	9.0
2026-01-27 07:39:32.926715	198.8	16.5	-60.7	1.6
2026-01-27 07:39:35.171261	198.8	16.3	-61.5	6.6
2026-01-27 07:39:37.415291	198.8	16.0	-61.7	6.1
2026-01-27 07:39:39.657376	198.8	15.8	-63.0	8.4
2026-01-27 07:39:41.900406	198.8	15.5	-62.6	8.1
2026-01-27 07:39:44.144450	198.8	15.3	-62.0	4.4
2026-01-27 07:39:46.390976	198.8	15.0	-63.1	7.9
2026-01-27 07:39:48.635493	198.8	14.8	-62.0	5.0
2026-01-27 07:39:50.879049	198.8	14.6	-62.6	6.9
2026-01-27 07:39:53.126574	198.8	14.3	-62.1	6.1
2026-01-27 07:39:55.368605	198.8	14.1	-61.1	3.4
2026-01-27 07:39:57.611626	198.8	13.8	-62.6	7.5
2026-01-27 07:39:59.860650	198.8	13.6	-59.1	0.0
2026-01-27 07:40:02.117663	198.9	13.4	-61.7	4.7
2026-01-27 07:40:04.359673	198.9	13.2	-62.4	6.2
2026-01-27 07:40:06.601197	198.9	12.9	-61.9	5.5
2026-01-27 07:40:08.848713	198.9	12.7	-62.0	3.9
2026-01-27 07:40:11.090733	198.9	12.5	-63.3	7.6
2026-01-27 07:40:13.332743	198.9	12.3	-62.3	4.4
2026-01-27 07:40:15.574259	198.9	12.1	-60.8	3.3
2026-01-27 07:40:17.815774	198.9	11.8	-62.4	7.4
2026-01-27 07:40:20.057290	198.9	11.6	-63.7	7.7
2026-01-27 07:40:22.300806	198.9	11.4	-63.0	2.9
2026-01-27 07:40:24.545313	198.9	11.2	-62.8	7.0
2026-01-27 07:40:26.789325	198.9	11.0	-63.0	7.1
2026-01-27 07:40:29.032840	198.9	10.8	-61.7	5.5
2026-01-27 07:40:31.280347	198.9	10.6	-59.5	0.0
2026-01-27 07:40:33.524359	198.9	10.4	-62.8	5.2
2026-01-27 07:40:35.767874	198.9	10.2	-61.3	5.9
2026-01-27 07:40:38.009895	198.9	10.0	-60.3	1.3
2026-01-27 07:40:40.251418	198.9	9.8	-60.1	2.5
2026-01-27 07:40:42.495934	198.9	9.6	-62.2	1.4
2026-01-27 07:40:44.738953	198.9	9.4	-60.0	0.1
2026-01-27 07:40:46.981478	198.9	9.2	-60.6	1.6
2026-01-27 07:40:49.226490	199.0	9.0	-62.1	3.8
2026-01-27 07:40:51.470501	199.0	8.8	-62.6	4.1
2026-01-27 07:40:53.713528	199.0	8.6	-62.4	2.4
2026-01-27 07:40:55.962046	199.0	8.5	-61.0	1.3
2026-01-27 07:40:58.205562	199.0	8.3	-59.9	0.0
2026-01-27 07:41:00.449078	199.0	8.1	-60.7	2.0
2026-01-27 07:41:02.694593	199.0	7.9	-61.4	4.7
2026-01-27 07:41:04.939100	199.0	7.7	-59.7	0.0
2026-01-27 07:41:07.183606	199.0	7.5	-62.4	0.0
2026-01-27 07:41:09.426633	199.0	7.4	-61.2	1.1
2026-01-27 07:41:11.668670	199.0	7.2	-61.9	0.0
2026-01-27 07:41:13.911176	199.0	7.0	-60.6	0.0
2026-01-27 07:41:16.152196	199.0	6.8	-61.2	0.0
2026-01-27 07:41:18.399711	199.0	6.7	-62.0	1.6
2026-01-27 07:41:20.641731	199.0	6.5	-60.8	3.7
2026-01-27 07:41:22.884237	199.0	6.3	-59.5	0.0
2026-01-27 07:41:25.127257	199.0	6.2	-61.5	2.9
2026-01-27 07:41:27.370268	199.0	6.0	-62.6	2.5
2026-01-27 07:41:29.609278	199.0	5.8	-67.4	0.0
2026-01-27 07:41:31.852289	199.1	5.7	-69.6	0.0
2026-01-27 07:41:34.098301	199.1	5.5	-71.6	0.0
2026-01-27 07:41:36.338834	199.1	5.3	-71.7	0.0
2026-01-27 07:41:38.580862	199.1	5.2	-71.5	0.0
2026-01-27 07:41:40.824379	199.1	5.0	-71.2	0.0
#Closed at: 2026-01-27 07:28:47.466558