passes_logs/2026/01/27/PlanumMoscow/PlanumMoscow__20260127_003712_METEOR-M2_4_rec.log

#Pass ID: 20260127_003712_METEOR-M2 4
#Satellite: METEOR-M2 4
#Configuration: METEOR-M2 4
#Start time: 2026-01-27 00:37:17.569603

#LorettStation: 1.0.0 05.05.2024
#Station: PlanumMoscow
#Location: 37.6253844 lon 55.6713361 lat
#TLE: 1 59051U 24039A   25293.94737965  .00000087  00000+0  58459-4 0  9998
#TLE: 2 59051  98.6671 251.7071 0007726 135.4772 224.7028 14.22388966 85257

#Time	Az	El	Level	SNR
2026-01-27 00:40:56.012001	30.5	28.3	-59.0	3.9
2026-01-27 00:40:58.256020	30.7	28.7	-59.1	4.1
2026-01-27 00:41:00.497030	31.0	29.1	-59.1	4.0
2026-01-27 00:41:02.740545	31.2	29.4	-58.7	3.3
2026-01-27 00:41:04.982068	31.5	29.8	-58.7	3.6
2026-01-27 00:41:07.226079	31.8	30.3	-58.4	3.7
2026-01-27 00:41:09.475092	32.0	30.7	-58.8	4.1
2026-01-27 00:41:11.718607	32.3	31.1	-59.1	3.5
2026-01-27 00:41:13.962618	32.6	31.5	-59.0	2.9
2026-01-27 00:41:16.206133	32.9	31.9	-58.5	3.8
2026-01-27 00:41:18.454153	33.2	32.4	-58.3	4.0
2026-01-27 00:41:20.698669	33.5	32.8	-58.5	4.0
2026-01-27 00:41:22.942689	33.9	33.2	-58.7	3.2
2026-01-27 00:41:25.190709	34.2	33.7	-58.4	2.9
2026-01-27 00:41:27.433240	34.5	34.1	-58.3	2.9
2026-01-27 00:41:29.676259	34.9	34.6	-58.7	3.2
2026-01-27 00:41:31.920775	35.3	35.1	-59.0	3.1
2026-01-27 00:41:34.164290	35.6	35.5	-58.8	2.7
2026-01-27 00:41:36.407319	36.0	36.0	-58.7	3.2
2026-01-27 00:41:38.653342	36.4	36.5	-58.7	3.0
2026-01-27 00:41:40.896857	36.8	37.0	-58.4	2.3
2026-01-27 00:41:43.139876	37.2	37.5	-58.1	3.1
2026-01-27 00:41:45.382887	37.6	38.0	-58.2	3.5
2026-01-27 00:41:47.625907	38.1	38.5	-58.3	3.4
2026-01-27 00:41:49.868431	38.5	39.0	-58.0	2.6
2026-01-27 00:41:52.110955	39.0	39.5	-58.2	2.8
2026-01-27 00:41:54.354471	39.5	40.0	-58.3	2.6
2026-01-27 00:41:56.598985	40.0	40.5	-58.3	3.1
2026-01-27 00:41:58.843492	40.5	41.1	-58.5	2.9
2026-01-27 00:42:01.086016	41.0	41.6	-58.0	2.8
2026-01-27 00:42:03.329531	41.6	42.2	-58.0	3.2
2026-01-27 00:42:05.572550	42.2	42.7	-58.1	1.2
2026-01-27 00:42:07.815570	42.8	43.3	-58.6	1.5
2026-01-27 00:42:10.059086	43.4	43.8	-59.1	2.5
2026-01-27 00:42:12.300105	44.0	44.4	-58.9	2.1
2026-01-27 00:42:14.543612	44.7	44.9	-58.8	2.3
2026-01-27 00:42:16.787126	45.3	45.5	-58.7	2.2
2026-01-27 00:42:19.027145	46.0	46.1	-58.7	2.6
2026-01-27 00:42:21.269155	46.8	46.7	-59.1	2.9
2026-01-27 00:42:23.512670	47.5	47.2	-60.4	4.0
2026-01-27 00:42:25.761178	48.3	47.8	-60.4	4.3
2026-01-27 00:42:28.003198	49.1	48.4	-60.6	4.5
2026-01-27 00:42:30.245712	50.0	49.0	-60.9	5.1
2026-01-27 00:42:32.486235	50.8	49.6	-61.1	4.9
2026-01-27 00:42:34.727742	51.8	50.2	-61.5	4.4
2026-01-27 00:42:36.971753	52.7	50.8	-61.9	3.9
2026-01-27 00:42:39.215771	53.7	51.4	-60.8	1.2
2026-01-27 00:42:41.455803	54.7	52.0	-61.6	2.3
2026-01-27 00:42:43.694837	55.8	52.5	-62.3	3.7
2026-01-27 00:42:45.933856	56.9	53.1	-63.0	5.5
2026-01-27 00:42:48.177371	58.0	53.7	-62.8	6.1
2026-01-27 00:42:50.418381	59.2	54.3	-63.0	5.2
2026-01-27 00:42:52.661887	60.5	54.8	-62.9	4.6
2026-01-27 00:42:54.908907	61.8	55.4	-63.3	5.3
2026-01-27 00:42:57.150421	63.1	55.9	-63.2	5.4
2026-01-27 00:42:59.390458	64.5	56.5	-63.4	5.6
2026-01-27 00:43:01.632470	66.0	57.0	-63.4	5.7
2026-01-27 00:43:03.870992	67.5	57.5	-64.1	6.3
2026-01-27 00:43:06.111506	69.1	58.0	-63.3	3.6
2026-01-27 00:43:08.356013	70.7	58.5	-64.0	6.4
2026-01-27 00:43:10.600024	72.4	59.0	-65.1	6.9
2026-01-27 00:43:12.844042	74.2	59.4	-64.7	6.1
2026-01-27 00:43:15.087558	76.0	59.8	-64.8	7.0
2026-01-27 00:43:17.330578	77.8	60.2	-65.0	7.3
2026-01-27 00:43:19.574598	79.8	60.6	-65.3	7.5
2026-01-27 00:43:21.818609	81.7	60.9	-65.7	7.4
2026-01-27 00:43:24.060132	83.8	61.3	-65.7	8.0
2026-01-27 00:43:26.304143	85.9	61.6	-65.3	5.9
2026-01-27 00:43:28.544666	88.0	61.8	-65.4	7.5
2026-01-27 00:43:30.786679	90.2	62.0	-65.9	7.4
2026-01-27 00:43:33.026706	92.4	62.2	-66.1	7.8
2026-01-27 00:43:35.268716	94.6	62.4	-66.1	7.6
2026-01-27 00:43:37.512232	96.9	62.5	-65.7	7.5
2026-01-27 00:43:39.755251	99.1	62.6	-66.2	8.2
2026-01-27 00:43:41.999262	101.4	62.6	-66.3	8.2
2026-01-27 00:43:44.243273	103.7	62.6	-66.2	8.2
2026-01-27 00:43:46.487284	106.0	62.6	-66.1	8.5
2026-01-27 00:43:48.730303	108.3	62.5	-66.2	8.7
2026-01-27 00:43:50.970809	110.6	62.4	-66.3	8.2
2026-01-27 00:43:53.210323	112.8	62.2	-66.7	8.0
2026-01-27 00:43:55.454334	115.0	62.0	-66.5	7.7
2026-01-27 00:43:57.700346	117.2	61.8	-66.8	7.7
2026-01-27 00:43:59.944862	119.3	61.6	-66.4	8.1
2026-01-27 00:44:02.188873	121.4	61.3	-66.1	7.9
2026-01-27 00:44:04.431893	123.4	60.9	-66.1	7.9
2026-01-27 00:44:06.675913	125.4	60.6	-66.3	7.1
2026-01-27 00:44:08.920428	127.3	60.2	-66.5	7.3
2026-01-27 00:44:11.164447	129.2	59.8	-66.5	6.5
2026-01-27 00:44:13.407467	131.0	59.4	-66.3	6.4
2026-01-27 00:44:15.651478	132.8	59.0	-66.2	5.4
2026-01-27 00:44:17.895985	134.5	58.5	-66.1	5.4
2026-01-27 00:44:20.139004	136.1	58.0	-66.0	5.0
2026-01-27 00:44:22.383015	137.7	57.5	-65.9	5.4
2026-01-27 00:44:24.627028	139.2	57.0	-65.7	6.4
2026-01-27 00:44:26.871534	140.7	56.5	-65.7	6.8
2026-01-27 00:44:29.117546	142.1	55.9	-65.7	5.9
2026-01-27 00:44:31.361556	143.5	55.4	-65.5	6.1
2026-01-27 00:44:33.604071	144.8	54.8	-65.5	5.9
2026-01-27 00:44:35.848595	146.0	54.2	-65.5	5.3
2026-01-27 00:44:38.091616	147.2	53.7	-65.4	5.6
2026-01-27 00:44:40.336130	148.4	53.1	-65.4	6.3
2026-01-27 00:44:42.579645	149.5	52.5	-65.1	5.9
2026-01-27 00:44:44.823161	150.6	51.9	-65.2	6.5
2026-01-27 00:44:47.066676	151.6	51.3	-65.1	6.7
2026-01-27 00:44:49.313184	152.6	50.7	-65.3	6.5
2026-01-27 00:44:51.556202	153.5	50.1	-65.3	7.8
2026-01-27 00:44:53.795734	154.4	49.5	-65.2	8.7
2026-01-27 00:44:56.038752	155.3	48.9	-65.4	8.6
2026-01-27 00:44:58.282772	156.2	48.4	-65.3	8.3
2026-01-27 00:45:00.527287	157.0	47.8	-65.1	9.1
2026-01-27 00:45:02.769793	157.8	47.2	-64.9	9.4
2026-01-27 00:45:05.018309	158.5	46.6	-65.2	9.4
2026-01-27 00:45:07.262816	159.3	46.0	-65.7	9.2
2026-01-27 00:45:09.506332	160.0	45.4	-65.8	9.2
2026-01-27 00:45:11.751838	160.6	44.8	-65.7	9.2
2026-01-27 00:45:13.996354	161.3	44.3	-65.5	9.5
2026-01-27 00:45:16.239372	161.9	43.7	-65.8	9.2
2026-01-27 00:45:18.482888	162.5	43.1	-65.8	8.8
2026-01-27 00:45:20.726908	163.1	42.6	-66.1	9.2
2026-01-27 00:45:22.970920	163.7	42.0	-65.9	9.5
2026-01-27 00:45:25.214931	164.3	41.5	-65.9	9.3
2026-01-27 00:45:27.458446	164.8	40.9	-66.0	9.2
2026-01-27 00:45:29.701465	165.3	40.4	-66.2	10.2
2026-01-27 00:45:31.945476	165.8	39.9	-66.2	10.6
2026-01-27 00:45:34.188993	166.3	39.4	-65.9	10.8
2026-01-27 00:45:36.432032	166.8	38.8	-66.0	11.0
2026-01-27 00:45:38.675053	167.2	38.3	-66.2	11.0
2026-01-27 00:45:40.924084	167.7	37.8	-65.9	11.1
2026-01-27 00:45:43.167599	168.1	37.3	-65.7	11.2
2026-01-27 00:45:45.411130	168.5	36.8	-65.6	11.6
2026-01-27 00:45:47.655141	168.9	36.3	-65.2	11.3
2026-01-27 00:45:49.898160	169.3	35.8	-65.8	12.2
2026-01-27 00:45:52.141675	169.7	35.4	-65.6	12.3
2026-01-27 00:45:54.385191	170.0	34.9	-65.4	11.8
2026-01-27 00:45:56.628212	170.4	34.4	-65.6	11.5
2026-01-27 00:45:58.871232	170.8	34.0	-65.3	11.2
2026-01-27 00:46:01.115267	171.1	33.5	-65.4	11.8
2026-01-27 00:46:03.360781	171.4	33.1	-65.2	11.4
2026-01-27 00:46:05.603809	171.8	32.6	-65.5	12.1
2026-01-27 00:46:07.847325	172.1	32.2	-65.5	12.1
2026-01-27 00:46:10.095345	172.4	31.7	-65.4	11.9
2026-01-27 00:46:12.340861	172.7	31.3	-65.2	11.9
2026-01-27 00:46:14.583881	173.0	30.9	-65.3	12.1
2026-01-27 00:46:16.826901	173.2	30.5	-65.5	11.7
2026-01-27 00:46:19.071417	173.5	30.1	-65.5	12.1
2026-01-27 00:46:21.314932	173.8	29.7	-65.4	12.2
2026-01-27 00:46:23.557456	174.1	29.3	-64.9	11.9
2026-01-27 00:46:25.800972	174.3	28.9	-65.3	12.5
2026-01-27 00:46:28.044993	174.6	28.5	-65.4	12.3
2026-01-27 00:46:30.289517	174.8	28.1	-65.0	12.4
2026-01-27 00:46:32.534032	175.0	27.7	-65.1	12.6
2026-01-27 00:46:34.777548	175.3	27.3	-65.2	12.5
2026-01-27 00:46:37.022055	175.5	26.9	-65.2	12.5
2026-01-27 00:46:39.265571	175.7	26.6	-65.2	12.4
2026-01-27 00:46:41.508590	176.0	26.2	-65.0	12.8
2026-01-27 00:46:43.750618	176.2	25.9	-64.9	12.3
2026-01-27 00:46:45.993638	176.4	25.5	-65.0	12.4
2026-01-27 00:46:48.236659	176.6	25.2	-65.2	12.8
2026-01-27 00:46:50.482175	176.8	24.8	-65.3	12.7
2026-01-27 00:46:52.725691	177.0	24.5	-65.5	12.9
2026-01-27 00:46:54.969702	177.2	24.1	-65.1	12.6
2026-01-27 00:46:57.213723	177.4	23.8	-64.9	12.2
2026-01-27 00:46:59.456742	177.5	23.5	-65.0	12.8
2026-01-27 00:47:01.700753	177.7	23.1	-65.1	12.7
2026-01-27 00:47:03.944765	177.9	22.8	-65.1	12.3
2026-01-27 00:47:06.187290	178.1	22.5	-65.1	12.3
2026-01-27 00:47:08.430819	178.3	22.2	-65.3	12.2
2026-01-27 00:47:10.675326	178.4	21.9	-65.4	12.4
2026-01-27 00:47:12.918346	178.6	21.6	-65.0	12.4
2026-01-27 00:47:15.163357	178.7	21.3	-65.4	11.5
2026-01-27 00:47:17.406874	178.9	21.0	-65.7	12.2
2026-01-27 00:47:19.651380	179.1	20.7	-65.8	12.1
2026-01-27 00:47:21.900393	179.2	20.4	-65.3	12.4
2026-01-27 00:47:24.143909	179.4	20.1	-65.4	12.1
2026-01-27 00:47:26.387431	179.5	19.8	-65.4	11.8
2026-01-27 00:47:28.630946	179.7	19.5	-65.5	12.3
2026-01-27 00:47:30.873470	179.8	19.2	-65.6	12.7
2026-01-27 00:47:33.117490	179.9	18.9	-65.7	12.1
2026-01-27 00:47:35.361006	180.1	18.7	-65.6	11.6
2026-01-27 00:47:37.603034	180.2	18.4	-65.4	12.4
2026-01-27 00:47:39.852563	180.3	18.1	-65.4	12.5
2026-01-27 00:47:42.096577	180.5	17.9	-65.1	12.0
2026-01-27 00:47:44.339102	180.6	17.6	-65.3	11.9
2026-01-27 00:47:46.583113	180.7	17.3	-65.4	12.5
2026-01-27 00:47:48.827124	180.9	17.1	-65.3	11.5
2026-01-27 00:47:51.071135	181.0	16.8	-65.3	12.0
2026-01-27 00:47:53.313659	181.1	16.6	-65.4	11.9
2026-01-27 00:47:55.556680	181.2	16.3	-65.1	11.4
2026-01-27 00:47:57.800691	181.3	16.1	-65.3	11.6
2026-01-27 00:48:00.047207	181.4	15.8	-65.4	11.6
2026-01-27 00:48:02.290227	181.6	15.6	-65.4	11.7
2026-01-27 00:48:04.534744	181.7	15.3	-65.5	11.6
2026-01-27 00:48:06.778269	181.8	15.1	-65.6	11.4
2026-01-27 00:48:09.029282	181.9	14.9	-65.6	11.1
2026-01-27 00:48:11.275789	182.0	14.6	-65.5	11.1
2026-01-27 00:48:13.519800	182.1	14.4	-65.8	10.8
2026-01-27 00:48:15.768821	182.2	14.2	-65.7	11.0
2026-01-27 00:48:18.013328	182.3	13.9	-65.2	10.8
2026-01-27 00:48:20.256843	182.4	13.7	-65.5	10.4
2026-01-27 00:48:22.500855	182.5	13.5	-65.4	10.6
2026-01-27 00:48:24.744381	182.6	13.3	-65.1	10.6
2026-01-27 00:48:26.988897	182.7	13.0	-65.1	10.3
2026-01-27 00:48:29.233404	182.8	12.8	-65.3	10.2
2026-01-27 00:48:31.481424	182.9	12.6	-65.1	9.5
2026-01-27 00:48:33.725435	183.0	12.4	-65.2	9.9
2026-01-27 00:48:35.969942	183.1	12.2	-65.4	9.3
2026-01-27 00:48:38.213954	183.2	12.0	-65.5	9.9
2026-01-27 00:48:40.457965	183.3	11.8	-65.0	10.2
2026-01-27 00:48:42.701481	183.3	11.6	-65.6	9.5
2026-01-27 00:48:44.944501	183.4	11.4	-65.1	9.1
2026-01-27 00:48:47.189017	183.5	11.2	-65.4	9.7
2026-01-27 00:48:49.434028	183.6	11.0	-65.3	9.6
2026-01-27 00:48:51.678535	183.7	10.7	-64.9	9.1
2026-01-27 00:48:53.922546	183.8	10.6	-65.4	9.8
2026-01-27 00:48:56.166557	183.8	10.4	-65.4	10.3
2026-01-27 00:48:58.410568	183.9	10.2	-64.8	8.3
2026-01-27 00:49:00.654083	184.0	10.0	-65.7	9.0
2026-01-27 00:49:02.898103	184.1	9.8	-65.6	8.9
2026-01-27 00:49:05.141618	184.2	9.6	-65.1	7.9
2026-01-27 00:49:07.385133	184.2	9.4	-65.6	9.8
2026-01-27 00:49:09.629144	184.3	9.2	-65.6	9.8
2026-01-27 00:49:11.872660	184.4	9.0	-65.6	9.3
2026-01-27 00:49:14.116176	184.5	8.8	-66.1	8.5
2026-01-27 00:49:16.359692	184.5	8.6	-65.8	9.2
2026-01-27 00:49:18.603207	184.6	8.5	-65.7	8.1
2026-01-27 00:49:20.846731	184.7	8.3	-65.3	7.6
2026-01-27 00:49:23.091238	184.7	8.1	-65.1	8.6
2026-01-27 00:49:25.336249	184.8	7.9	-65.3	9.7
2026-01-27 00:49:27.579268	184.9	7.7	-65.2	8.9
2026-01-27 00:49:29.820801	185.0	7.6	-65.3	9.0
2026-01-27 00:49:32.063324	185.0	7.4	-65.3	9.5
2026-01-27 00:49:34.305848	185.1	7.2	-65.3	9.0
2026-01-27 00:49:36.551860	185.2	7.0	-65.3	8.8
2026-01-27 00:49:38.796367	185.2	6.9	-66.0	9.2
2026-01-27 00:49:41.039883	185.3	6.7	-65.5	8.3
2026-01-27 00:49:43.281416	185.3	6.5	-65.4	6.9
2026-01-27 00:49:45.524932	185.4	6.4	-65.8	7.5
2026-01-27 00:49:47.766960	185.5	6.2	-65.5	7.8
2026-01-27 00:49:50.010475	185.5	6.0	-65.3	6.0
2026-01-27 00:49:52.253991	185.6	5.9	-68.1	0.0
2026-01-27 00:49:54.498002	185.7	5.7	-68.5	0.0
2026-01-27 00:49:56.740525	185.7	5.5	-67.0	0.0
2026-01-27 00:49:58.983553	185.8	5.4	-68.6	0.0
2026-01-27 00:50:01.226572	185.8	5.2	-68.9	0.0
2026-01-27 00:50:03.470087	185.9	5.0	-66.2	0.0
#Closed at: 2026-01-27 00:37:12.571240