passes_logs/2026/01/27/PlanumMoscow/PlanumMoscow__20260127_182136_METOP-B_rec.log

#Pass ID: 20260127_182136_METOP-B
#Satellite: METOP-B
#Configuration: METOP-B
#Start time: 2026-01-27 18:21:41.994972

#LorettStation: 1.0.0 05.05.2024
#Station: PlanumMoscow
#Location: 37.6253844 lon 55.6713361 lat
#TLE: 1 38771U 12049A   25293.92766658  .00000266  00000+0  14193-3 0  9996
#TLE: 2 38771  98.6882 344.7603 0001609 341.5209  18.5909 14.21379342679275

#Time	Az	El	Level	SNR
2026-01-27 18:25:20.456236	209.2	25.7	-62.2	2.0
2026-01-27 18:25:22.701247	209.6	26.0	-62.3	0.0
2026-01-27 18:25:24.945754	210.1	26.3	-63.4	2.0
2026-01-27 18:25:27.190261	210.5	26.6	-63.5	3.5
2026-01-27 18:25:29.432767	210.9	26.9	-64.2	4.0
2026-01-27 18:25:31.676274	211.4	27.2	-63.4	4.1
2026-01-27 18:25:33.917780	211.9	27.5	-61.1	0.0
2026-01-27 18:25:36.158286	212.3	27.8	-62.9	1.8
2026-01-27 18:25:38.398792	212.8	28.1	-64.0	4.2
2026-01-27 18:25:40.641803	213.3	28.4	-63.1	2.5
2026-01-27 18:25:42.882309	213.8	28.7	-63.6	3.4
2026-01-27 18:25:45.121815	214.3	29.0	-63.3	3.5
2026-01-27 18:25:47.364825	214.8	29.3	-63.6	3.7
2026-01-27 18:25:49.606332	215.4	29.6	-63.7	1.6
2026-01-27 18:25:51.848342	215.9	29.9	-63.3	0.9
2026-01-27 18:25:54.088352	216.5	30.2	-64.0	2.6
2026-01-27 18:25:56.328362	217.0	30.5	-63.2	2.1
2026-01-27 18:25:58.568868	217.6	30.8	-63.0	1.1
2026-01-27 18:26:00.807373	218.2	31.1	-62.8	0.2
2026-01-27 18:26:03.045384	218.8	31.5	-62.7	0.0
2026-01-27 18:26:05.286890	219.4	31.8	-61.8	0.0
2026-01-27 18:26:07.531397	220.0	32.1	-61.1	0.0
2026-01-27 18:26:09.773407	220.6	32.4	-61.7	0.0
2026-01-27 18:26:12.014914	221.3	32.7	-62.3	0.0
2026-01-27 18:26:14.255924	221.9	33.0	-62.2	0.0
2026-01-27 18:26:16.498430	222.6	33.3	-62.2	0.0
2026-01-27 18:26:18.746442	223.2	33.6	-62.4	0.0
2026-01-27 18:26:20.988948	223.9	33.9	-62.6	0.0
2026-01-27 18:26:23.231455	224.6	34.2	-60.9	0.0
2026-01-27 18:26:25.473961	225.3	34.5	-62.5	0.0
2026-01-27 18:26:27.716468	226.1	34.8	-62.9	0.0
2026-01-27 18:26:29.958974	226.8	35.1	-62.5	0.0
2026-01-27 18:26:32.204986	227.6	35.4	-61.6	0.0
2026-01-27 18:26:34.447493	228.3	35.7	-62.3	0.0
2026-01-27 18:26:36.690999	229.1	36.0	-61.5	0.0
2026-01-27 18:26:38.932506	229.9	36.3	-61.8	0.0
2026-01-27 18:26:41.176517	230.7	36.5	-62.3	0.0
2026-01-27 18:26:43.421024	231.5	36.8	-61.9	0.0
2026-01-27 18:26:45.664530	232.4	37.1	-61.9	0.0
2026-01-27 18:26:47.910037	233.2	37.4	-62.4	0.0
2026-01-27 18:26:50.154544	234.1	37.6	-61.7	0.0
2026-01-27 18:26:52.396050	235.0	37.9	-61.8	0.0
2026-01-27 18:26:54.638557	235.8	38.1	-62.4	0.0
2026-01-27 18:26:56.879063	236.8	38.4	-62.4	0.0
2026-01-27 18:26:59.120074	237.7	38.6	-61.9	0.0
2026-01-27 18:27:01.359580	238.6	38.8	-61.7	0.0
2026-01-27 18:27:03.599086	239.5	39.1	-62.2	0.0
2026-01-27 18:27:05.839591	240.5	39.3	-61.8	0.0
2026-01-27 18:27:08.077097	241.5	39.5	-61.9	0.0
2026-01-27 18:27:10.319603	242.4	39.7	-60.8	0.0
2026-01-27 18:27:12.559613	243.4	39.9	-61.1	0.0
2026-01-27 18:27:14.800118	244.4	40.1	-63.2	0.0
2026-01-27 18:27:17.041625	245.4	40.3	-60.4	0.0
2026-01-27 18:27:19.283635	246.5	40.4	-61.5	0.0
2026-01-27 18:27:21.523645	247.5	40.6	-60.9	0.0
2026-01-27 18:27:23.767151	248.5	40.7	-62.5	0.0
2026-01-27 18:27:26.007657	249.6	40.9	-62.6	0.0
2026-01-27 18:27:28.247172	250.7	41.0	-62.4	0.0
2026-01-27 18:27:30.489678	251.7	41.1	-61.3	0.0
2026-01-27 18:27:32.729689	252.8	41.2	-62.4	0.0
2026-01-27 18:27:34.971700	253.9	41.3	-61.6	0.0
2026-01-27 18:27:37.215207	255.0	41.4	-61.6	0.0
2026-01-27 18:27:39.455712	256.1	41.5	-62.2	0.0
2026-01-27 18:27:41.697219	257.2	41.5	-63.4	0.0
2026-01-27 18:27:43.939725	258.3	41.6	-63.9	0.0
2026-01-27 18:27:46.179231	259.4	41.6	-63.0	0.0
2026-01-27 18:27:48.419241	260.5	41.7	-63.7	0.0
2026-01-27 18:27:50.661748	261.6	41.7	-65.0	0.0
2026-01-27 18:27:52.905759	262.7	41.7	-63.3	0.0
2026-01-27 18:27:55.147265	263.8	41.7	-64.3	0.0
2026-01-27 18:27:57.386770	264.9	41.7	-64.5	0.0
2026-01-27 18:27:59.631277	266.0	41.6	-65.2	0.0
2026-01-27 18:28:01.871783	267.1	41.6	-64.7	0.0
2026-01-27 18:28:04.113794	268.2	41.5	-65.0	0.0
2026-01-27 18:28:06.356300	269.3	41.5	-65.0	0.0
2026-01-27 18:28:08.597806	270.4	41.4	-65.5	0.0
2026-01-27 18:28:10.840826	271.5	41.3	-65.8	0.0
2026-01-27 18:28:13.081845	272.6	41.2	-65.7	0.0
2026-01-27 18:28:15.322856	273.7	41.1	-64.8	0.0
2026-01-27 18:28:17.563370	274.7	41.0	-66.6	0.0
2026-01-27 18:28:19.805891	275.8	40.8	-66.1	0.0
2026-01-27 18:28:22.048910	276.8	40.7	-64.9	0.0
2026-01-27 18:28:24.294436	277.9	40.5	-65.6	0.0
2026-01-27 18:28:26.533455	278.9	40.4	-64.9	0.0
2026-01-27 18:28:28.772465	279.9	40.2	-65.5	0.0
2026-01-27 18:28:31.018980	280.9	40.0	-65.0	0.0
2026-01-27 18:28:33.267009	281.9	39.9	-64.5	0.0
2026-01-27 18:28:35.510020	282.9	39.7	-66.2	0.0
2026-01-27 18:28:37.750534	283.9	39.5	-65.9	0.0
2026-01-27 18:28:39.986047	284.9	39.2	-65.6	0.0
2026-01-27 18:28:42.227057	285.8	39.0	-65.2	0.0
2026-01-27 18:28:44.467579	286.7	38.8	-64.4	0.0
2026-01-27 18:28:46.710110	287.7	38.6	-65.2	0.0
2026-01-27 18:28:48.955122	288.6	38.3	-65.3	0.0
2026-01-27 18:28:51.196133	289.5	38.1	-64.6	0.0
2026-01-27 18:28:53.435151	290.4	37.8	-64.7	0.0
2026-01-27 18:28:55.674169	291.2	37.6	-64.3	0.0
2026-01-27 18:28:57.914179	292.1	37.3	-65.5	0.0
2026-01-27 18:29:00.158694	292.9	37.0	-65.4	0.0
2026-01-27 18:29:02.403705	293.8	36.8	-64.4	0.0
2026-01-27 18:29:04.649726	294.6	36.5	-65.8	0.0
2026-01-27 18:29:06.893737	295.4	36.2	-65.8	0.0
2026-01-27 18:29:09.137748	296.2	35.9	-65.0	0.0
2026-01-27 18:29:11.380263	296.9	35.6	-66.6	0.0
2026-01-27 18:29:13.618273	297.7	35.4	-65.4	0.0
2026-01-27 18:29:15.861292	298.4	35.1	-65.7	0.0
2026-01-27 18:29:18.106807	299.2	34.8	-64.7	0.0
2026-01-27 18:29:20.348826	299.9	34.5	-65.4	0.0
2026-01-27 18:29:22.592837	300.6	34.2	-64.7	0.0
2026-01-27 18:29:24.833856	301.3	33.9	-65.2	0.0
2026-01-27 18:29:27.079372	302.0	33.6	-65.4	0.0
2026-01-27 18:29:29.322888	302.7	33.3	-66.2	0.6
2026-01-27 18:29:31.566899	303.3	33.0	-65.5	0.0
2026-01-27 18:29:33.810415	304.0	32.7	-65.9	0.0
2026-01-27 18:29:36.054931	304.6	32.4	-65.6	0.0
2026-01-27 18:29:38.294959	305.2	32.1	-65.5	1.7
2026-01-27 18:29:40.534968	305.8	31.7	-65.3	1.3
2026-01-27 18:29:42.775483	306.4	31.4	-64.9	0.0
2026-01-27 18:29:45.013996	307.0	31.1	-65.4	0.2
2026-01-27 18:29:47.254510	307.6	30.8	-66.5	0.8
2026-01-27 18:29:49.495521	308.2	30.5	-66.4	2.7
2026-01-27 18:29:51.735026	308.7	30.2	-66.9	1.4
2026-01-27 18:29:53.974036	309.3	29.9	-66.5	1.7
2026-01-27 18:29:56.212046	309.8	29.6	-66.0	1.2
2026-01-27 18:29:58.451073	310.3	29.3	-66.2	2.5
2026-01-27 18:30:00.691595	310.9	29.0	-66.2	1.0
2026-01-27 18:30:02.930100	311.4	28.7	-66.4	0.0
2026-01-27 18:30:05.173129	311.9	28.4	-66.7	1.6
2026-01-27 18:30:07.417652	312.3	28.1	-66.7	1.9
2026-01-27 18:30:09.660206	312.8	27.8	-66.3	2.6
2026-01-27 18:30:11.904225	313.3	27.5	-66.7	3.6
2026-01-27 18:30:14.147740	313.8	27.2	-65.9	1.8
2026-01-27 18:30:16.392781	314.2	26.9	-66.0	2.8
2026-01-27 18:30:18.637800	314.7	26.6	-65.2	0.6
2026-01-27 18:30:20.880849	315.1	26.3	-66.2	3.1
2026-01-27 18:30:23.131870	315.5	26.0	-66.1	4.8
2026-01-27 18:30:25.375414	316.0	25.7	-66.8	4.2
2026-01-27 18:30:27.618441	316.4	25.4	-65.9	3.7
2026-01-27 18:30:29.860499	316.8	25.2	-65.8	5.0
2026-01-27 18:30:32.103518	317.2	24.9	-65.7	0.6
2026-01-27 18:30:34.347538	317.6	24.6	-66.1	2.7
2026-01-27 18:30:36.591092	318.0	24.3	-66.4	4.3
2026-01-27 18:30:38.835110	318.3	24.0	-65.8	3.1
2026-01-27 18:30:41.079176	318.7	23.7	-65.9	3.9
2026-01-27 18:30:43.305761	319.1	23.5	-65.4	0.7
2026-01-27 18:30:45.554799	319.4	23.2	-65.5	2.8
2026-01-27 18:30:47.798354	319.8	22.9	-65.8	1.9
2026-01-27 18:30:50.040886	320.1	22.7	-65.8	2.0
2026-01-27 18:30:52.285936	320.5	22.4	-66.5	2.9
2026-01-27 18:30:54.532461	320.8	22.1	-65.7	2.7
2026-01-27 18:30:56.776511	321.2	21.9	-66.3	1.5
2026-01-27 18:30:59.021539	321.5	21.6	-65.9	0.9
2026-01-27 18:31:01.265590	321.8	21.3	-66.3	3.7
2026-01-27 18:31:03.514105	322.1	21.1	-65.6	2.3
2026-01-27 18:31:05.758152	322.4	20.8	-65.9	3.2
2026-01-27 18:31:08.003171	322.7	20.6	-65.7	2.6
2026-01-27 18:31:10.245251	323.0	20.3	-65.8	3.5
2026-01-27 18:31:12.489302	323.3	20.0	-66.1	3.6
2026-01-27 18:31:14.732340	323.6	19.8	-65.9	3.8
2026-01-27 18:31:16.975388	323.9	19.5	-66.0	3.8
2026-01-27 18:31:19.226420	324.2	19.3	-65.8	3.6
2026-01-27 18:31:21.472974	324.5	19.1	-66.6	3.0
2026-01-27 18:31:23.715011	324.8	18.8	-66.1	4.5
2026-01-27 18:31:25.964545	325.0	18.6	-65.9	3.2
2026-01-27 18:31:28.208091	325.3	18.3	-65.5	3.1
2026-01-27 18:31:30.452140	325.6	18.1	-65.5	3.9
2026-01-27 18:31:32.700656	325.8	17.9	-65.5	4.2
2026-01-27 18:31:34.944676	326.1	17.6	-65.4	3.0
2026-01-27 18:31:37.186767	326.3	17.4	-66.0	3.4
2026-01-27 18:31:39.427812	326.6	17.2	-66.0	2.7
2026-01-27 18:31:41.674833	326.8	16.9	-65.8	3.8
2026-01-27 18:31:43.918394	327.0	16.7	-66.0	3.2
2026-01-27 18:31:46.162413	327.3	16.5	-65.9	2.1
2026-01-27 18:31:48.404937	327.5	16.2	-65.2	2.1
2026-01-27 18:31:50.649012	327.7	16.0	-65.8	2.6
2026-01-27 18:31:52.892070	328.0	15.8	-65.5	2.6
2026-01-27 18:31:55.136081	328.2	15.6	-65.9	3.1
2026-01-27 18:31:57.378147	328.4	15.4	-66.1	4.0
2026-01-27 18:31:59.620182	328.6	15.2	-65.8	1.9
2026-01-27 18:32:01.863706	328.8	14.9	-65.4	1.5
2026-01-27 18:32:04.107258	329.0	14.7	-65.5	1.6
2026-01-27 18:32:06.351276	329.3	14.5	-65.1	0.6
2026-01-27 18:32:08.594840	329.5	14.3	-65.4	2.0
2026-01-27 18:32:10.838363	329.7	14.1	-66.0	1.7
2026-01-27 18:32:13.081914	329.9	13.9	-66.0	1.4
2026-01-27 18:32:15.326429	330.1	13.7	-65.9	2.4
2026-01-27 18:32:17.569973	330.3	13.5	-66.0	0.2
2026-01-27 18:32:19.813001	330.4	13.3	-65.6	1.1
2026-01-27 18:32:22.056515	330.6	13.1	-65.5	0.0
2026-01-27 18:32:24.299591	330.8	12.9	-65.9	1.9
2026-01-27 18:32:26.541647	331.0	12.7	-65.6	0.0
2026-01-27 18:32:28.784697	331.2	12.5	-64.4	0.0
2026-01-27 18:32:31.028716	331.4	12.3	-65.6	0.0
2026-01-27 18:32:33.274773	331.5	12.1	-65.4	0.0
2026-01-27 18:32:35.518792	331.7	11.9	-65.7	0.0
2026-01-27 18:32:37.762329	331.9	11.7	-65.3	0.0
2026-01-27 18:32:40.004852	332.1	11.5	-65.7	0.6
2026-01-27 18:32:42.249377	332.2	11.3	-65.6	0.2
2026-01-27 18:32:44.492426	332.4	11.1	-66.0	0.0
2026-01-27 18:32:46.736941	332.6	10.9	-66.1	0.0
2026-01-27 18:32:48.985495	332.7	10.8	-65.7	0.5
2026-01-27 18:32:51.228524	332.9	10.6	-65.9	2.6
2026-01-27 18:32:53.470590	333.1	10.4	-66.3	1.8
2026-01-27 18:32:55.714112	333.2	10.2	-65.6	0.0
2026-01-27 18:32:57.957627	333.4	10.0	-65.6	0.1
2026-01-27 18:33:00.201676	333.5	9.9	-66.0	1.0
2026-01-27 18:33:02.444705	333.7	9.7	-65.9	0.0
2026-01-27 18:33:04.687771	333.8	9.5	-66.1	0.7
2026-01-27 18:33:06.932290	334.0	9.3	-66.0	2.4
2026-01-27 18:33:09.179353	334.1	9.1	-65.4	0.0
2026-01-27 18:33:11.428401	334.3	9.0	-66.1	1.8
2026-01-27 18:33:13.672436	334.4	8.8	-66.3	0.0
2026-01-27 18:33:15.915959	334.6	8.6	-65.2	0.0
2026-01-27 18:33:18.159970	334.7	8.5	-65.7	0.0
2026-01-27 18:33:20.406539	334.8	8.3	-65.3	0.0
2026-01-27 18:33:22.648604	335.0	8.1	-65.5	0.0
2026-01-27 18:33:24.891174	335.1	8.0	-65.9	0.0
2026-01-27 18:33:27.137707	335.2	7.8	-65.2	0.0
2026-01-27 18:33:29.381268	335.4	7.6	-65.7	0.0
2026-01-27 18:33:31.624792	335.5	7.5	-65.6	0.0
2026-01-27 18:33:33.868848	335.6	7.3	-65.2	0.0
2026-01-27 18:33:36.110875	335.8	7.1	-65.7	0.0
2026-01-27 18:33:38.355912	335.9	7.0	-65.4	0.0
2026-01-27 18:33:40.600489	336.0	6.8	-65.5	0.0
2026-01-27 18:33:42.844088	336.1	6.6	-65.2	0.0
2026-01-27 18:33:45.088099	336.3	6.5	-66.0	0.0
2026-01-27 18:33:47.330147	336.4	6.3	-65.9	0.0
2026-01-27 18:33:49.573207	336.5	6.2	-65.0	0.0
2026-01-27 18:33:51.815738	336.6	6.0	-67.0	0.0
2026-01-27 18:33:54.060779	336.8	5.9	-67.9	0.0
2026-01-27 18:33:56.304792	336.9	5.7	-67.6	0.0
2026-01-27 18:33:58.549313	337.0	5.5	-68.7	0.0
2026-01-27 18:34:00.793867	337.1	5.4	-68.3	0.0
2026-01-27 18:34:03.037382	337.2	5.2	-68.6	0.0
2026-01-27 18:34:05.280935	337.3	5.1	-69.3	0.0
#Closed at: 2026-01-27 18:21:36.996524