passes_logs/2026/01/18/XPeterburg/XPeterburg__20260118_143952_FENGYUN_3E_rec.log

#Pass ID: 20260118_143952_FENGYUN 3E
#Satellite: FENGYUN 3E
#Configuration: FENGYUN 3E
#Start time: 2026-01-18 14:39:48

#Version: 1.5.20200625
#Station: XPeterburg
#Location: 30.318091 lon 59.932769 lat
#TLE: 1 49008U 21062A   26015.99225297  .00000062  00000+0  49720-4 0  9994
#TLE: 2 49008  98.7486  21.1092 0002100 136.3389 223.7953 14.19885247234982

#Time	Az	El	Level	Level2	SNR	BER	Gain	Gain2
2026-01-18 14:39:48.19	161.53	68.23	-37.2	-38.3	3.4	8402046	92	5600
2026-01-18 14:39:48.59	161.54	68.42	-36.3	-37.8	3.9	8443782	90	5813
2026-01-18 14:39:48.99	161.55	68.60	-35.7	-35.7	4.3	8239871	89	4934
2026-01-18 14:39:49.39	161.56	68.78	-34.8	-34.0	5.1	7522785	88	4488
2026-01-18 14:39:49.80	161.58	68.97	-33.6	-33.0	6.2	5899017	85	4596
2026-01-18 14:39:50.20	161.59	69.16	-32.7	-32.0	7.4	1973682	83	4580
2026-01-18 14:39:50.60	161.60	69.34	-31.8	-30.8	8.6	685970	82	4393
2026-01-18 14:39:51.00	161.61	69.53	-31.0	-30.3	9.6	185977	80	4522
2026-01-18 14:39:51.40	161.63	69.71	-30.1	-29.4	10.6	101795	78	4527
2026-01-18 14:39:51.80	161.64	69.90	-29.5	-28.7	11.3	23563	77	4499
2026-01-18 14:39:52.21	161.65	70.09	-28.8	-27.6	12.1	6912	76	4322
2026-01-18 14:39:52.61	161.67	70.28	-28.9	-29.2	11.9	801	74	5055
2026-01-18 14:39:53.01	161.68	70.46	-27.9	-27.0	13.0	3444	74	4411
2026-01-18 14:39:53.41	161.70	70.65	-27.9	-26.8	13.1	480	74	4362
2026-01-18 14:39:53.81	161.71	70.84	-28.0	-27.2	13.0	354	74	4449
2026-01-18 14:39:54.21	161.73	71.03	-28.1	-27.3	13.0	331	74	4503
2026-01-18 14:39:54.62	161.74	71.22	-27.9	-26.9	13.2	434	74	4413
2026-01-18 14:39:55.02	161.76	71.41	-27.9	-26.9	13.2	331	74	4388
2026-01-18 14:39:55.42	161.77	71.60	-28.0	-27.2	13.0	423	74	4470
2026-01-18 14:39:55.82	161.79	71.79	-28.0	-27.1	13.0	457	74	4431
2026-01-18 14:39:56.22	161.81	71.98	-28.0	-27.0	13.1	595	74	4402
2026-01-18 14:39:56.62	161.82	72.17	-28.0	-27.2	13.0	297	74	4490
2026-01-18 14:39:57.03	161.84	72.37	-28.0	-27.6	12.9	194	73	4699
2026-01-18 14:39:57.43	161.86	72.56	-28.0	-27.6	12.9	137	73	4701
2026-01-18 14:39:57.83	161.88	72.75	-28.0	-27.7	13.0	171	73	4750
2026-01-18 14:39:58.23	161.89	72.94	-27.7	-26.9	13.2	526	73	4519
2026-01-18 14:39:58.63	161.91	73.13	-27.6	-26.7	13.3	240	73	4423
2026-01-18 14:39:59.03	161.93	73.32	-27.6	-26.8	13.3	160	73	4464
2026-01-18 14:39:59.44	161.95	73.52	-27.5	-26.5	13.5	68	73	4397
2026-01-18 14:39:59.84	161.97	73.71	-27.4	-26.3	13.7	57	73	4347
2026-01-18 14:40:00.24	161.99	73.91	-27.4	-26.7	13.9	34	72	4579
2026-01-18 14:40:00.64	162.01	74.10	-27.3	-26.8	14.0	68	72	4606
2026-01-18 14:40:01.04	162.03	74.29	-27.3	-26.8	14.0	45	72	4597
2026-01-18 14:40:01.45	162.06	74.49	-27.4	-26.8	14.0	11	72	4603
2026-01-18 14:40:01.85	162.08	74.69	-27.5	-27.0	14.0	22	72	4675
2026-01-18 14:40:02.25	162.10	74.88	-27.4	-26.8	14.1	11	72	4608
2026-01-18 14:40:02.65	162.13	75.08	-27.4	-26.9	14.1	22	72	4620
2026-01-18 14:40:03.05	162.15	75.27	-27.2	-26.5	14.3	80	72	4541
2026-01-18 14:40:03.45	162.17	75.47	-27.5	-27.1	14.0	91	72	4691
2026-01-18 14:40:03.85	162.20	75.66	-27.5	-27.1	14.0	11	72	4707
2026-01-18 14:40:04.26	162.23	75.86	-27.4	-26.9	14.2	22	72	4628
2026-01-18 14:40:04.66	162.25	76.06	-27.2	-26.5	14.5	0	72	4525
2026-01-18 14:40:05.06	162.28	76.26	-27.1	-26.2	14.7	0	72	4459
2026-01-18 14:40:05.46	162.31	76.45	-26.6	-25.7	15.0	0	71	4450
2026-01-18 14:40:05.86	162.34	76.65	-26.5	-25.7	15.1	0	71	4442
2026-01-18 14:40:06.26	162.37	76.85	-26.5	-25.6	15.1	0	71	4429
2026-01-18 14:40:06.67	162.40	77.05	-26.5	-25.5	15.2	0	71	4409
2026-01-18 14:40:07.07	162.43	77.25	-26.5	-25.6	15.1	0	71	4418
2026-01-18 14:40:07.47	162.47	77.45	-26.3	-25.7	15.2	0	70	4578
2026-01-18 14:40:07.87	162.50	77.65	-26.4	-26.0	15.1	0	70	4672
2026-01-18 14:40:08.27	162.54	77.84	-26.5	-26.2	14.9	0	70	4747
2026-01-18 14:40:08.68	162.57	78.05	-26.3	-25.8	15.1	0	70	4629
2026-01-18 14:40:09.08	162.61	78.25	-26.4	-25.9	15.0	0	70	4668
2026-01-18 14:40:09.48	162.65	78.45	-26.0	-25.2	15.3	0	70	4485
2026-01-18 14:40:09.88	162.69	78.65	-25.9	-24.9	15.4	0	70	4393
2026-01-18 14:40:10.28	162.73	78.85	-25.6	-24.9	15.6	0	69	4532
2026-01-18 14:40:10.69	162.78	79.05	-25.6	-24.7	15.7	0	69	4485
2026-01-18 14:40:11.09	162.82	79.25	-25.6	-24.8	15.7	0	69	4483
2026-01-18 14:40:11.49	162.87	79.45	-25.5	-24.7	15.8	0	69	4464
2026-01-18 14:40:11.89	162.92	79.65	-25.6	-24.9	15.7	0	69	4518
2026-01-18 14:40:12.29	162.97	79.85	-25.5	-24.7	15.9	0	69	4458
2026-01-18 14:40:12.69	163.02	80.06	-25.6	-24.8	15.9	0	69	4491
2026-01-18 14:40:13.10	163.07	80.26	-25.4	-24.4	16.0	0	69	4400
2026-01-18 14:40:13.50	163.13	80.46	-25.6	-24.8	15.9	0	69	4494
2026-01-18 14:40:13.90	163.19	80.67	-25.5	-25.1	16.0	0	68	4701
2026-01-18 14:40:14.30	163.25	80.87	-25.5	-25.2	16.0	0	68	4743
2026-01-18 14:40:14.70	163.31	81.07	-25.6	-25.2	16.0	0	68	4738
2026-01-18 14:40:15.10	163.38	81.27	-25.7	-25.5	15.9	0	68	4818
2026-01-18 14:40:15.51	163.45	81.48	-25.8	-25.7	15.8	0	68	4884
2026-01-18 14:40:15.91	163.53	81.68	-25.8	-25.8	15.8	0	68	4906
2026-01-18 14:40:16.31	163.61	81.88	-25.9	-25.9	15.8	0	68	4918
2026-01-18 14:40:16.71	163.69	82.09	-25.8	-25.7	15.9	0	68	4885
2026-01-18 14:40:17.11	163.77	82.29	-25.9	-25.8	15.8	0	68	4915
2026-01-18 14:40:17.51	163.86	82.49	-25.8	-25.7	16.0	0	68	4875
2026-01-18 14:40:17.92	163.96	82.70	-25.7	-25.5	16.0	0	68	4827
2026-01-18 14:40:18.32	164.06	82.91	-25.9	-25.9	15.8	0	68	4932
2026-01-18 14:40:18.72	164.17	83.11	-25.8	-25.3	15.8	0	69	4636
2026-01-18 14:40:19.12	164.28	83.31	-26.0	-25.7	15.6	0	69	4731
2026-01-18 14:40:19.52	164.40	83.52	-26.1	-25.8	15.6	0	69	4766
2026-01-18 14:40:19.92	164.53	83.72	-26.0	-25.6	15.7	0	69	4702
2026-01-18 14:40:20.33	164.67	83.93	-26.1	-25.8	15.6	0	69	4780
2026-01-18 14:40:20.73	164.82	84.13	-26.0	-25.7	15.6	0	69	4735
2026-01-18 14:40:21.13	164.98	84.34	-26.0	-25.6	15.7	0	69	4718
2026-01-18 14:40:21.53	165.14	84.54	-25.9	-25.5	15.8	0	69	4670
2026-01-18 14:40:21.93	165.33	84.75	-25.9	-25.5	15.8	0	69	4678
2026-01-18 14:40:22.33	165.52	84.95	-25.8	-25.3	15.9	0	69	4641
2026-01-18 14:40:22.74	165.74	85.16	-25.7	-25.1	16.0	0	69	4571
2026-01-18 14:40:23.14	165.97	85.36	-26.0	-25.6	15.8	0	69	4731
2026-01-18 14:40:23.54	166.23	85.57	-26.0	-25.7	15.8	0	69	4748
2026-01-18 14:40:23.94	166.51	85.77	-25.9	-25.4	15.9	0	69	4669
2026-01-18 14:40:24.34	166.81	85.98	-26.0	-25.6	15.8	0	69	4728
2026-01-18 14:40:24.74	167.15	86.18	-25.9	-25.5	15.9	0	69	4679
2026-01-18 14:40:25.15	167.54	86.39	-26.0	-25.6	15.9	0	69	4721
2026-01-18 14:40:25.55	167.96	86.60	-25.8	-25.3	16.0	0	69	4645
2026-01-18 14:40:25.95	168.44	86.80	-25.8	-25.2	16.2	0	69	4606
2026-01-18 14:40:26.35	168.98	87.00	-25.8	-25.3	16.1	0	69	4643
2026-01-18 14:40:26.75	169.61	87.21	-25.8	-25.3	16.0	0	69	4634
2026-01-18 14:40:27.15	170.33	87.41	-25.8	-25.3	16.0	0	69	4637
2026-01-18 14:40:27.56	171.19	87.62	-25.9	-25.4	16.0	0	69	4660
2026-01-18 14:40:27.96	172.19	87.82	-25.8	-25.3	16.1	0	69	4631
2026-01-18 14:40:28.36	173.40	88.02	-25.8	-25.2	16.2	0	69	4607
2026-01-18 14:40:28.76	174.88	88.22	-25.8	-25.2	16.2	0	69	4607
2026-01-18 14:40:29.16	176.74	88.42	-25.5	-24.7	16.4	0	69	4485
2026-01-18 14:40:29.56	179.13	88.62	-25.5	-24.7	16.4	0	69	4481
2026-01-18 14:40:29.97	182.40	88.82	-25.3	-24.8	16.6	0	68	4642
2026-01-18 14:40:30.37	186.83	89.01	-25.2	-24.7	16.7	0	68	4597
2026-01-18 14:40:30.77	193.28	89.19	-25.1	-24.3	16.9	0	68	4501
2026-01-18 14:40:31.17	203.18	89.35	-25.0	-24.1	17.0	0	68	4435
2026-01-18 14:40:31.57	218.88	89.48	-24.9	-23.9	17.1	0	68	4399
2026-01-18 14:40:31.98	242.84	89.56	-24.8	-23.8	17.2	0	68	4364
2026-01-18 14:40:32.38	269.04	89.54	-24.9	-23.8	17.1	0	68	4374
2026-01-18 14:40:32.78	289.37	89.44	-25.1	-24.3	16.9	0	68	4505
2026-01-18 14:40:33.18	302.44	89.29	-25.5	-25.1	16.6	0	68	4720
2026-01-18 14:40:33.58	310.74	89.12	-25.4	-25.0	16.6	0	68	4685
2026-01-18 14:40:33.99	316.38	88.93	-25.5	-25.1	16.5	0	68	4711
2026-01-18 14:40:34.39	320.22	88.74	-25.5	-25.2	16.3	0	68	4754
2026-01-18 14:40:34.79	323.05	88.54	-25.5	-25.1	16.5	0	68	4708
2026-01-18 14:40:35.19	325.20	88.34	-25.5	-25.3	16.4	0	68	4762
2026-01-18 14:40:35.59	326.89	88.14	-25.6	-25.3	16.3	0	68	4783
2026-01-18 14:40:36.00	328.29	87.94	-25.7	-25.5	16.2	0	68	4838
2026-01-18 14:40:36.40	329.40	87.74	-25.7	-25.6	16.2	0	68	4859
2026-01-18 14:40:36.80	330.33	87.53	-25.7	-25.5	16.2	0	68	4830
2026-01-18 14:40:37.20	331.12	87.33	-25.5	-25.1	16.4	0	68	4723
2026-01-18 14:40:37.60	331.80	87.13	-25.3	-24.7	16.6	0	68	4615
2026-01-18 14:40:38.00	332.39	86.92	-25.1	-24.3	16.7	0	68	4519
2026-01-18 14:40:38.40	332.91	86.72	-25.0	-24.1	16.8	0	68	4444
2026-01-18 14:40:38.81	333.37	86.51	-25.0	-24.1	16.8	0	68	4447
2026-01-18 14:40:39.21	333.78	86.31	-25.0	-24.2	16.8	0	68	4472
2026-01-18 14:40:39.61	334.14	86.10	-25.2	-24.5	16.6	0	68	4566
2026-01-18 14:40:40.01	334.46	85.90	-25.1	-24.3	16.7	0	68	4487
2026-01-18 14:40:40.41	334.76	85.69	-25.2	-24.6	16.5	0	68	4578
2026-01-18 14:40:40.81	335.03	85.49	-25.4	-24.9	16.3	0	68	4660
2026-01-18 14:40:41.21	335.27	85.28	-25.4	-25.0	16.2	0	68	4677
2026-01-18 14:40:41.62	335.50	85.08	-25.4	-25.0	16.1	0	68	4685
2026-01-18 14:40:42.02	335.71	84.87	-25.3	-24.7	16.3	0	68	4599
2026-01-18 14:40:42.42	335.90	84.67	-25.1	-24.4	16.3	0	68	4522
2026-01-18 14:40:42.82	336.08	84.46	-24.8	-23.8	16.6	0	68	4384
2026-01-18 14:40:43.22	336.24	84.26	-24.4	-23.4	16.9	0	67	4388
2026-01-18 14:40:43.62	336.39	84.05	-24.3	-23.8	17.0	0	66	4618
2026-01-18 14:40:44.03	336.54	83.85	-24.1	-23.3	17.2	0	66	4510
2026-01-18 14:40:44.43	336.67	83.64	-24.1	-23.4	17.3	0	66	4519
2026-01-18 14:40:44.83	336.80	83.44	-24.2	-23.6	17.2	0	66	4573
2026-01-18 14:40:45.23	336.91	83.23	-24.2	-23.5	17.3	0	66	4545
2026-01-18 14:40:45.63	337.02	83.03	-24.2	-23.6	17.2	0	66	4583
2026-01-18 14:40:46.04	337.13	82.82	-24.3	-23.6	17.1	0	66	4584
2026-01-18 14:40:46.44	337.23	82.62	-24.3	-23.7	17.0	0	66	4605
2026-01-18 14:40:46.84	337.32	82.42	-24.4	-24.0	16.9	0	66	4679
2026-01-18 14:40:47.24	337.41	82.21	-24.5	-24.1	16.8	0	66	4699
2026-01-18 14:40:47.64	337.50	82.01	-24.7	-24.6	16.5	0	66	4832
2026-01-18 14:40:48.04	337.58	81.81	-24.7	-24.6	16.6	0	66	4849
2026-01-18 14:40:48.45	337.65	81.60	-24.9	-24.8	16.4	0	66	4907
2026-01-18 14:40:48.85	337.73	81.40	-24.9	-24.9	16.4	0	66	4926
2026-01-18 14:40:49.25	337.80	81.20	-24.9	-24.9	16.4	0	66	4937
2026-01-18 14:40:49.65	337.86	80.99	-24.9	-24.9	16.4	0	66	4923
2026-01-18 14:40:50.05	337.93	80.79	-24.8	-24.7	16.5	0	66	4858
2026-01-18 14:40:50.45	337.99	80.59	-24.7	-24.6	16.6	0	66	4840
2026-01-18 14:40:50.85	338.04	80.39	-24.7	-24.4	16.6	0	66	4803
2026-01-18 14:40:51.26	338.10	80.18	-24.5	-24.2	16.7	0	66	4742
2026-01-18 14:40:51.66	338.15	79.98	-24.5	-24.2	16.7	0	66	4734
2026-01-18 14:40:52.06	338.21	79.78	-24.7	-24.5	16.6	0	66	4800
2026-01-18 14:40:52.46	338.26	79.58	-25.0	-25.0	16.3	0	66	4968
2026-01-18 14:40:52.86	338.30	79.38	-25.2	-25.0	16.0	0	67	4822
2026-01-18 14:40:53.26	338.35	79.18	-25.3	-25.2	16.0	0	67	4893
2026-01-18 14:40:53.67	338.39	78.97	-25.4	-25.4	16.0	0	67	4939
2026-01-18 14:40:54.07	338.44	78.77	-25.4	-25.4	16.0	0	67	4956
2026-01-18 14:40:54.47	338.48	78.57	-25.4	-25.4	16.1	0	67	4945
2026-01-18 14:40:54.87	338.52	78.37	-25.4	-25.5	16.1	0	67	4989
2026-01-18 14:40:55.27	338.56	78.18	-25.3	-25.3	16.2	0	67	4919
2026-01-18 14:40:55.68	338.59	77.97	-25.8	-25.7	15.9	0	68	4887
2026-01-18 14:40:56.08	338.63	77.77	-25.8	-25.8	15.9	0	68	4917
2026-01-18 14:40:56.48	338.66	77.58	-25.9	-26.0	15.8	0	68	4971
2026-01-18 14:40:56.88	338.70	77.38	-25.9	-25.5	15.7	0	69	4704
2026-01-18 14:40:57.28	338.73	77.18	-26.0	-25.7	15.5	0	69	4757
2026-01-18 14:40:57.68	338.76	76.98	-26.0	-25.7	15.4	0	69	4732
2026-01-18 14:40:58.08	338.79	76.78	-26.1	-25.8	15.3	0	69	4766
2026-01-18 14:40:58.49	338.82	76.58	-26.2	-26.0	15.1	0	69	4815
2026-01-18 14:40:58.89	338.85	76.39	-26.5	-26.6	14.7	0	69	5007
2026-01-18 14:40:59.29	338.88	76.19	-26.3	-26.3	14.9	0	69	4897
2026-01-18 14:40:59.69	338.91	75.99	-26.6	-26.3	14.7	0	70	4759
2026-01-18 14:41:00.09	338.94	75.80	-26.7	-26.7	14.4	11	70	4871
2026-01-18 14:41:00.50	338.96	75.60	-26.8	-26.3	14.3	11	71	4646
2026-01-18 14:41:00.90	338.99	75.40	-27.2	-27.0	13.9	57	71	4841
2026-01-18 14:41:01.30	339.01	75.21	-27.4	-27.6	13.7	68	71	5016
2026-01-18 14:41:01.70	339.04	75.01	-27.7	-27.6	13.5	22	72	4879
2026-01-18 14:41:02.10	339.06	74.82	-27.6	-27.3	13.6	80	72	4786
2026-01-18 14:41:02.50	339.08	74.62	-27.7	-27.4	13.5	91	72	4770
2026-01-18 14:41:02.91	339.11	74.42	-27.5	-27.1	13.7	91	72	4700
2026-01-18 14:41:03.31	339.13	74.23	-27.6	-27.3	13.6	80	72	4751
2026-01-18 14:41:03.71	339.15	74.04	-27.7	-27.4	13.5	102	72	4791
2026-01-18 14:41:04.11	339.17	73.84	-27.9	-27.9	13.3	148	72	4915
2026-01-18 14:41:04.51	339.19	73.65	-28.0	-27.6	13.1	228	73	4706
2026-01-18 14:41:04.91	339.21	73.46	-28.2	-28.1	12.9	434	73	4846
2026-01-18 14:41:05.32	339.23	73.26	-28.4	-28.6	12.8	617	73	5016
2026-01-18 14:41:05.72	339.25	73.07	-28.7	-28.7	12.5	904	74	4918
2026-01-18 14:41:06.12	339.27	72.88	-28.9	-29.0	12.4	1670	74	4984
2026-01-18 14:41:06.52	339.28	72.69	-28.8	-28.9	12.4	1785	74	4960
2026-01-18 14:41:06.92	339.30	72.50	-28.9	-29.1	12.3	1876	74	5011
2026-01-18 14:41:07.32	339.32	72.30	-28.9	-29.1	12.3	1956	74	5000
2026-01-18 14:41:07.72	339.34	72.11	-28.8	-28.8	12.3	1899	74	4921
2026-01-18 14:41:08.13	339.35	71.92	-28.8	-28.9	12.3	2140	74	4953
2026-01-18 14:41:08.53	339.37	71.73	-28.9	-29.1	12.1	2460	74	5010
2026-01-18 14:41:08.93	339.39	71.54	-29.0	-28.8	11.8	3421	75	4797
2026-01-18 14:41:09.33	339.40	71.35	-29.2	-29.2	11.6	5516	75	4880
2026-01-18 14:41:09.73	339.42	71.16	-29.8	-29.8	11.1	12817	76	4936
2026-01-18 14:41:10.13	339.43	70.98	-29.8	-29.9	11.1	15724	76	4969
2026-01-18 14:41:10.54	339.45	70.78	-29.9	-30.0	10.9	20141	76	4998
2026-01-18 14:41:10.94	339.46	70.60	-29.8	-29.2	10.9	22819	77	4627
2026-01-18 14:41:11.34	339.48	70.41	-30.3	-30.4	10.5	21995	77	4979
2026-01-18 14:41:11.74	339.49	70.22	-37.9	-41.7	3.6	4814540	92	7656

#Closed at: 2026-01-18 14:41:11