passes_logs/2026/01/18/XPeterburg/XPeterburg__20260118_002409_SUOMI_NPP_rec.log

#Pass ID: 20260118_002409_SUOMI NPP
#Satellite: SUOMI NPP
#Configuration: NPP
#Start time: 2026-01-18 00:24:03

#Version: 1.5.20200625
#Station: XPeterburg
#Location: 30.318091 lon 59.932769 lat
#TLE: 1 37849U 11061A   26015.94982489  .00000054  00000+0  46705-4 0  9991
#TLE: 2 37849  98.7812 317.9902 0002438  62.0366 298.1057 14.19525452736847

#Time	Az	El	Level	Level2	SNR	BER	Gain	Gain2
2026-01-18 00:24:03.67	33.29	67.53	-38.5	-45.4	3.3	15358451	95	2702
2026-01-18 00:24:04.07	33.43	67.71	-38.5	-47.1	3.6	15155532	94	3300
2026-01-18 00:24:04.47	33.56	67.88	-38.5	-46.1	3.4	15135612	94	2955
2026-01-18 00:24:04.87	33.70	68.06	-38.5	-46.8	3.6	15193168	95	3218
2026-01-18 00:24:05.27	33.84	68.23	-38.5	-45.8	3.4	15155044	95	2843
2026-01-18 00:24:05.67	33.99	68.41	-38.5	-46.7	3.6	15155044	95	3164
2026-01-18 00:24:06.08	34.14	68.59	-38.5	-45.7	3.4	15237709	95	2827
2026-01-18 00:24:06.48	34.29	68.76	-38.4	-46.3	3.6	15136726	95	3044
2026-01-18 00:24:06.88	34.44	68.94	-38.6	-45.6	3.5	15212974	95	2775
2026-01-18 00:24:07.28	34.59	69.12	-38.5	-44.2	3.4	15113021	95	2377
2026-01-18 00:24:07.68	34.75	69.29	-37.9	-44.0	3.6	15192695	94	2497
2026-01-18 00:24:08.09	34.91	69.47	-37.8	-42.9	3.5	15091453	93	2225
2026-01-18 00:24:08.49	35.07	69.65	-37.6	-43.2	3.9	15109970	93	2342
2026-01-18 00:24:08.89	35.24	69.83	-37.4	-41.5	4.0	14244606	93	1969
2026-01-18 00:24:09.29	35.41	70.00	-37.3	-41.0	4.3	11280586	92	1886
2026-01-18 00:24:09.69	35.58	70.18	-36.9	-39.6	4.8	8324562	92	1682
2026-01-18 00:24:10.10	35.76	70.36	-36.5	-38.9	5.6	5282196	91	1606
2026-01-18 00:24:10.50	35.94	70.54	-35.8	-37.3	6.6	5282196	90	1475
2026-01-18 00:24:10.90	36.12	70.72	-35.4	-36.9	7.5	2933013	89	1470
2026-01-18 00:24:11.30	36.31	70.90	-35.1	-36.7	7.9	1085304	88	1489
2026-01-18 00:24:11.70	36.50	71.08	-35.0	-36.6	8.1	841880	88	1480
2026-01-18 00:24:12.10	36.69	71.26	-35.0	-36.7	8.0	630363	88	1483
2026-01-18 00:24:12.51	36.89	71.44	-35.0	-36.5	8.1	613395	88	1463
2026-01-18 00:24:12.91	37.10	71.62	-34.9	-36.9	8.3	514038	87	1544
2026-01-18 00:24:13.31	37.30	71.80	-35.0	-36.9	8.2	498420	87	1545
2026-01-18 00:24:13.71	37.51	71.97	-34.6	-36.0	8.6	603744	87	1442
2026-01-18 00:24:14.11	37.73	72.15	-34.5	-35.8	8.6	369796	87	1418
2026-01-18 00:24:14.51	37.95	72.33	-34.5	-35.6	8.9	329551	87	1397
2026-01-18 00:24:14.92	38.17	72.52	-34.6	-35.8	8.8	288993	87	1420
2026-01-18 00:24:15.32	38.40	72.69	-34.8	-36.4	8.6	332046	87	1486
2026-01-18 00:24:15.72	38.64	72.87	-35.1	-37.1	8.3	332046	87	1561
2026-01-18 00:24:16.12	38.88	73.05	-35.3	-37.6	7.8	447311	87	1614
2026-01-18 00:24:16.52	39.12	73.23	-35.6	-38.2	7.3	677055	88	1651
2026-01-18 00:24:16.93	39.38	73.41	-35.6	-38.1	7.3	958564	88	1639
2026-01-18 00:24:17.33	39.63	73.59	-35.5	-37.9	7.5	1241882	88	1610
2026-01-18 00:24:17.73	39.89	73.77	-35.2	-37.0	8.2	826881	88	1518
2026-01-18 00:24:18.13	40.16	73.95	-35.3	-37.4	8.0	557189	88	1555
2026-01-18 00:24:18.53	40.43	74.13	-35.4	-37.6	8.2	566848	88	1580
2026-01-18 00:24:18.94	40.72	74.31	-35.6	-38.1	7.8	569908	88	1639
2026-01-18 00:24:19.34	41.01	74.49	-36.0	-39.1	7.2	849227	88	1765
2026-01-18 00:24:19.74	41.30	74.67	-36.5	-40.1	6.2	1629501	89	1859
2026-01-18 00:24:20.14	41.60	74.85	-36.7	-40.2	5.5	3560302	90	1838
2026-01-18 00:24:20.54	41.91	75.03	-37.0	-41.2	5.0	3560302	90	1988
2026-01-18 00:24:20.94	42.23	75.20	-37.1	-40.7	5.2	4843864	91	1844
2026-01-18 00:24:21.35	42.56	75.39	-37.1	-40.6	5.3	5312583	91	1834
2026-01-18 00:24:21.75	42.89	75.56	-37.0	-40.0	5.7	4495185	91	1749
2026-01-18 00:24:22.15	43.23	75.74	-36.7	-39.3	6.1	3997253	91	1659
2026-01-18 00:24:22.55	43.58	75.92	-36.4	-38.3	6.7	2791717	91	1534
2026-01-18 00:24:22.95	43.94	76.10	-36.0	-37.8	6.9	1842277	90	1519
2026-01-18 00:24:23.35	44.31	76.27	-36.1	-38.3	6.8	1641128	90	1583
2026-01-18 00:24:23.76	44.70	76.45	-36.2	-38.5	6.5	1890724	90	1596
2026-01-18 00:24:24.16	45.09	76.63	-36.2	-38.4	6.5	2352539	90	1585
2026-01-18 00:24:24.56	45.49	76.80	-36.4	-38.8	6.1	2174011	90	1635
2026-01-18 00:24:24.96	45.90	76.98	-36.5	-39.1	5.8	3260551	90	1667
2026-01-18 00:24:25.36	46.32	77.15	-36.7	-39.7	5.6	3260551	90	1744
2026-01-18 00:24:25.76	46.76	77.33	-37.0	-40.4	5.1	3412513	90	1835
2026-01-18 00:24:26.16	47.20	77.50	-37.3	-40.7	4.9	4963462	91	1815
2026-01-18 00:24:26.57	47.67	77.68	-37.2	-40.3	5.1	6310218	91	1750
2026-01-18 00:24:26.97	48.15	77.85	-37.3	-40.6	4.9	5823631	91	1802
2026-01-18 00:24:27.37	48.63	78.02	-37.3	-40.4	5.1	5711532	91	1772
2026-01-18 00:24:27.77	49.14	78.19	-37.2	-40.3	5.1	5746246	91	1747
2026-01-18 00:24:28.17	49.65	78.36	-37.1	-40.1	5.3	5122268	91	1728
2026-01-18 00:24:28.57	50.18	78.53	-37.1	-40.0	5.4	4593841	91	1718
2026-01-18 00:24:28.98	50.75	78.70	-37.1	-40.1	5.5	4359977	91	1731
2026-01-18 00:24:29.38	51.31	78.87	-37.1	-40.2	5.3	4508369	91	1748
2026-01-18 00:24:29.78	51.89	79.04	-37.0	-39.8	5.6	4136535	91	1688
2026-01-18 00:24:30.18	52.50	79.20	-37.0	-39.7	5.7	3940246	91	1675
2026-01-18 00:24:30.58	53.12	79.37	-37.1	-40.1	5.6	3940246	91	1733
2026-01-18 00:24:30.98	53.76	79.53	-37.0	-39.9	5.8	3638916	91	1719
2026-01-18 00:24:31.39	54.43	79.70	-37.1	-40.3	5.6	3418540	91	1762
2026-01-18 00:24:31.79	55.12	79.86	-37.0	-39.9	5.8	3849517	91	1719
2026-01-18 00:24:32.19	55.82	80.02	-37.1	-40.0	5.7	3216178	91	1733
2026-01-18 00:24:32.59	56.55	80.18	-37.3	-40.6	5.3	3893394	91	1809
2026-01-18 00:24:32.99	57.30	80.34	-37.3	-40.8	5.2	4730834	91	1837
2026-01-18 00:24:33.39	58.08	80.49	-37.3	-40.6	5.3	5075584	91	1799
2026-01-18 00:24:33.79	58.89	80.65	-37.1	-40.2	5.5	5036224	91	1754
2026-01-18 00:24:34.20	59.74	80.80	-36.9	-39.3	5.9	4041450	91	1630
2026-01-18 00:24:34.60	60.60	80.95	-36.7	-38.9	6.3	2939025	91	1595
2026-01-18 00:24:35.00	61.49	81.10	-36.4	-38.3	6.9	1989288	91	1520
2026-01-18 00:24:35.40	62.40	81.25	-35.8	-37.7	7.8	1989288	89	1537
2026-01-18 00:24:35.80	63.35	81.39	-35.4	-36.9	8.4	1130203	89	1464
2026-01-18 00:24:36.20	64.34	81.53	-35.0	-36.4	9.1	537879	88	1446
2026-01-18 00:24:36.61	65.38	81.67	-34.8	-35.9	9.5	265037	88	1406
2026-01-18 00:24:37.01	66.43	81.81	-34.8	-36.5	9.6	180053	87	1491
2026-01-18 00:24:37.41	67.52	81.94	-34.6	-35.9	9.9	104400	87	1438
2026-01-18 00:24:37.81	68.64	82.07	-34.6	-36.1	9.9	90759	87	1459
2026-01-18 00:24:38.21	69.80	82.20	-34.3	-35.3	10.4	83648	87	1375
2026-01-18 00:24:38.61	71.00	82.33	-34.4	-35.5	10.3	53855	87	1400
2026-01-18 00:24:39.02	72.27	82.45	-34.0	-35.1	10.6	36888	86	1404
2026-01-18 00:24:39.42	73.56	82.57	-33.4	-34.3	11.4	25161	85	1359
2026-01-18 00:24:39.82	74.88	82.68	-33.2	-34.4	11.6	8399	84	1404
2026-01-18 00:24:40.22	76.24	82.79	-33.0	-34.0	11.8	4699	84	1376
2026-01-18 00:24:40.62	77.64	82.90	-32.8	-33.5	12.1	4699	84	1334
2026-01-18 00:24:41.02	79.09	83.00	-33.0	-34.0	11.9	3845	84	1376
2026-01-18 00:24:41.43	80.62	83.10	-33.3	-34.5	11.5	3807	84	1426
2026-01-18 00:24:41.83	82.15	83.19	-33.2	-34.4	11.5	6454	84	1415
2026-01-18 00:24:42.23	83.72	83.28	-33.2	-34.5	11.7	7415	84	1414
2026-01-18 00:24:42.63	85.33	83.36	-33.2	-34.4	11.6	6660	84	1407
2026-01-18 00:24:43.03	86.99	83.44	-32.3	-33.3	12.2	4913	83	1388
2026-01-18 00:24:43.43	88.68	83.51	-32.4	-33.0	12.7	2204	83	1316
2026-01-18 00:24:43.84	90.45	83.58	-32.5	-33.1	12.6	946	83	1331
2026-01-18 00:24:44.24	92.21	83.63	-32.4	-33.5	12.7	724	82	1396
2026-01-18 00:24:44.64	94.00	83.69	-32.4	-33.5	12.8	701	82	1394
2026-01-18 00:24:45.04	95.82	83.74	-32.3	-33.3	13.0	488	82	1383
2026-01-18 00:24:45.44	97.67	83.78	-32.0	-32.6	13.2	488	82	1322
2026-01-18 00:24:45.84	99.54	83.81	-32.2	-33.0	13.0	404	82	1359
2026-01-18 00:24:46.25	101.48	83.84	-31.9	-32.4	13.3	282	82	1303
2026-01-18 00:24:46.65	103.38	83.86	-31.8	-32.2	13.4	251	82	1290
2026-01-18 00:24:47.05	105.30	83.87	-31.8	-32.6	13.4	198	81	1358
2026-01-18 00:24:47.45	107.22	83.88	-31.7	-32.5	13.4	183	81	1350
2026-01-18 00:24:47.85	109.15	83.88	-31.5	-32.1	13.6	167	81	1311
2026-01-18 00:24:48.25	111.07	83.88	-32.0	-33.1	13.1	160	81	1401
2026-01-18 00:24:48.66	113.04	83.86	-32.2	-33.6	12.8	434	81	1444
2026-01-18 00:24:49.06	114.94	83.84	-32.4	-34.0	12.6	793	81	1476
2026-01-18 00:24:49.46	116.83	83.81	-32.4	-33.9	12.7	701	81	1472
2026-01-18 00:24:49.86	118.71	83.78	-32.0	-33.1	13.1	717	81	1396
2026-01-18 00:24:50.26	120.56	83.74	-31.7	-32.4	13.5	717	81	1332
2026-01-18 00:24:50.66	122.38	83.69	-31.4	-31.9	13.9	106	81	1293
2026-01-18 00:24:51.07	124.23	83.64	-31.7	-32.3	13.6	76	81	1327
2026-01-18 00:24:51.47	125.99	83.58	-31.8	-32.6	13.5	106	81	1354
2026-01-18 00:24:51.87	127.72	83.52	-32.2	-33.6	13.0	99	81	1439
2026-01-18 00:24:52.27	129.42	83.45	-32.9	-34.5	12.2	335	82	1488
2026-01-18 00:24:52.67	131.08	83.37	-33.3	-34.9	11.6	2166	83	1489
2026-01-18 00:24:53.07	132.69	83.29	-33.5	-34.9	11.1	7087	84	1449
2026-01-18 00:24:53.48	134.31	83.20	-33.3	-34.5	11.3	10848	84	1412
2026-01-18 00:24:53.88	135.85	83.11	-33.1	-34.1	11.7	9300	84	1375
2026-01-18 00:24:54.28	137.34	83.01	-33.2	-34.3	11.6	5592	84	1396
2026-01-18 00:24:54.68	138.79	82.91	-33.3	-34.6	11.4	8270	84	1426
2026-01-18 00:24:55.08	140.20	82.81	-33.7	-35.5	10.8	18150	84	1511
2026-01-18 00:24:55.49	141.61	82.69	-34.5	-36.7	10.0	18150	85	1602
2026-01-18 00:24:55.89	142.93	82.58	-35.3	-37.8	8.7	53039	87	1630
2026-01-18 00:24:56.29	144.22	82.46	-35.7	-38.2	8.1	211791	88	1642
2026-01-18 00:24:56.69	145.46	82.34	-35.5	-37.5	8.5	450119	88	1561
2026-01-18 00:24:57.09	146.67	82.22	-35.4	-37.4	8.6	425132	88	1543
2026-01-18 00:24:57.49	147.83	82.09	-35.6	-37.9	8.5	369659	88	1606
2026-01-18 00:24:57.90	148.99	81.96	-35.9	-38.8	7.7	439514	88	1712
2026-01-18 00:24:58.30	150.08	81.82	-36.5	-39.3	6.6	944435	90	1697
2026-01-18 00:24:58.70	151.14	81.69	-36.8	-40.2	6.0	2051528	90	1815
2026-01-18 00:24:59.10	152.16	81.55	-37.0	-39.8	6.0	3729370	91	1704
2026-01-18 00:24:59.50	153.15	81.41	-36.9	-39.5	6.2	2906509	91	1674
2026-01-18 00:24:59.90	154.10	81.26	-36.8	-39.4	6.3	2432769	91	1649
2026-01-18 00:25:00.31	155.05	81.11	-36.9	-39.6	6.2	2432769	91	1685
2026-01-18 00:25:00.71	155.94	80.97	-36.9	-39.6	6.2	2651901	91	1678
2026-01-18 00:25:01.11	156.80	80.82	-36.9	-39.6	6.2	2556823	91	1679
2026-01-18 00:25:01.51	157.64	80.66	-36.6	-38.9	6.6	2547462	91	1592
2026-01-18 00:25:01.91	158.44	80.51	-36.4	-38.3	7.0	2297485	91	1519
2026-01-18 00:25:02.32	159.24	80.35	-35.8	-37.4	7.6	1643997	90	1479
2026-01-18 00:25:02.72	160.00	80.19	-35.9	-37.6	7.7	1026786	90	1497
2026-01-18 00:25:03.12	160.73	80.03	-36.0	-37.9	7.3	997428	90	1537
2026-01-18 00:25:03.52	161.44	79.88	-36.5	-39.2	6.4	1268745	90	1680
2026-01-18 00:25:03.92	162.12	79.71	-36.6	-39.5	6.1	2248321	90	1714
2026-01-18 00:25:04.32	162.79	79.55	-36.8	-40.1	5.8	2981872	90	1800
2026-01-18 00:25:04.73	163.45	79.38	-36.9	-40.3	5.7	3214050	90	1826
2026-01-18 00:25:05.13	164.07	79.22	-36.8	-39.9	5.9	3373840	90	1763
2026-01-18 00:25:05.53	164.67	79.05	-36.7	-39.5	6.1	3373840	90	1712
2026-01-18 00:25:05.93	165.26	78.89	-36.3	-38.6	6.8	3144958	90	1603
2026-01-18 00:25:06.33	165.83	78.72	-35.9	-38.0	7.7	1890258	89	1564
2026-01-18 00:25:06.74	166.39	78.55	-35.5	-37.0	8.2	960525	89	1470
2026-01-18 00:25:07.14	166.92	78.38	-35.4	-36.9	8.3	607612	89	1450
2026-01-18 00:25:07.54	167.44	78.21	-34.8	-35.9	9.1	438880	88	1390
2026-01-18 00:25:07.94	167.94	78.03	-34.6	-35.9	9.5	221839	87	1428
2026-01-18 00:25:08.34	168.43	77.86	-34.9	-36.7	9.0	155746	87	1503
2026-01-18 00:25:08.74	168.91	77.69	-35.5	-37.7	7.8	319084	88	1573
2026-01-18 00:25:09.14	169.37	77.52	-36.5	-39.6	6.2	1099853	89	1762
2026-01-18 00:25:09.54	169.82	77.34	-37.3	-40.8	4.8	4035812	91	1839
2026-01-18 00:25:09.95	170.26	77.17	-37.7	-41.4	4.3	7105026	92	1894
2026-01-18 00:25:10.35	170.69	76.99	-37.9	-42.3	3.8	7105026	92	2039
2026-01-18 00:25:10.75	171.10	76.82	-38.0	-42.2	3.7	12681221	93	1997
2026-01-18 00:25:11.15	171.50	76.64	-38.0	-43.0	3.9	14014701	93	2193
2026-01-18 00:25:11.55	171.89	76.46	-38.2	-43.4	3.6	14640609	93	2232
2026-01-18 00:25:11.95	172.27	76.29	-38.2	-44.8	3.7	14834480	93	2626
2026-01-18 00:25:12.36	172.65	76.11	-38.1	-43.6	3.6	15024818	93	2293
2026-01-18 00:25:12.76	173.01	75.93	-38.1	-44.6	3.7	15072219	93	2601
2026-01-18 00:25:13.16	173.36	75.75	-37.8	-42.1	4.0	14814414	93	2030
2026-01-18 00:25:13.56	173.70	75.58	-37.2	-40.1	4.9	11347320	92	1732
2026-01-18 00:25:13.97	174.05	75.39	-36.5	-38.6	6.2	4859741	91	1562
2026-01-18 00:25:14.37	174.37	75.22	-35.5	-37.1	7.9	1715919	89	1478
2026-01-18 00:25:14.77	174.69	75.04	-35.2	-36.9	8.4	588760	88	1504
2026-01-18 00:25:15.17	175.00	74.86	-35.0	-36.6	8.7	351173	88	1473
2026-01-18 00:25:15.57	175.30	74.68	-34.9	-36.3	8.9	351173	88	1448
2026-01-18 00:25:15.98	175.60	74.50	-35.5	-38.0	7.9	274917	88	1637
2026-01-18 00:25:16.38	175.89	74.32	-36.0	-38.7	7.0	500656	89	1678
2026-01-18 00:25:16.78	176.17	74.14	-36.5	-39.8	5.9	1428298	90	1785
2026-01-18 00:25:17.18	176.44	73.96	-36.6	-39.7	5.7	2807342	90	1757
2026-01-18 00:25:17.59	176.72	73.78	-36.7	-40.2	5.4	3857383	90	1829
2026-01-18 00:25:17.99	176.98	73.60	-36.6	-39.6	5.7	4121932	90	1746
2026-01-18 00:25:18.39	177.24	73.42	-36.9	-40.7	5.0	4137275	90	1902
2026-01-18 00:25:18.79	177.49	73.24	-36.7	-40.1	5.3	5654235	90	1805
2026-01-18 00:25:19.19	177.73	73.06	-36.8	-40.4	5.1	4823669	90	1851
2026-01-18 00:25:19.60	177.98	72.88	-36.4	-39.0	5.7	5085594	90	1652
2026-01-18 00:25:20.00	178.21	72.70	-36.3	-38.6	6.1	3056076	90	1616
2026-01-18 00:25:20.40	178.44	72.52	-36.3	-38.8	6.1	3056076	90	1651
2026-01-18 00:25:20.80	178.66	72.34	-36.3	-38.9	6.0	2760231	90	1662
2026-01-18 00:25:21.20	178.88	72.16	-36.5	-39.5	5.7	2824050	90	1742
2026-01-18 00:25:21.61	179.10	71.98	-36.9	-40.7	4.9	3459312	90	1917
2026-01-18 00:25:22.01	179.31	71.80	-37.4	-41.4	4.4	5414886	91	1959
2026-01-18 00:25:22.41	179.52	71.62	-37.7	-42.4	3.9	8159309	92	2109
2026-01-18 00:25:22.81	179.72	71.44	-37.9	-44.6	3.7	12669586	92	2682
2026-01-18 00:25:23.22	179.93	71.25	-37.9	-43.6	3.7	14794082	92	2367
2026-01-18 00:25:23.62	180.12	71.08	-37.9	-44.7	3.7	14733177	92	2700
2026-01-18 00:25:24.02	180.31	70.90	-37.7	-42.8	3.8	14842636	92	2214
2026-01-18 00:25:24.42	180.50	70.72	-37.4	-42.8	3.8	14300277	92	2276
2026-01-18 00:25:24.82	180.68	70.54	-37.3	-41.5	4.3	12269355	92	1987
2026-01-18 00:25:25.23	180.86	70.36	-38.4	-47.3	3.3	10923431	93	3427

#Closed at: 2026-01-18 00:25:25