passes_logs/2026/01/18/XPeterburg/XPeterburg__20260118_101656_SUOMI_NPP_rec.log

#Pass ID: 20260118_101656_SUOMI NPP
#Satellite: SUOMI NPP
#Configuration: NPP
#Start time: 2026-01-18 10:16:50

#Version: 1.5.20200625
#Station: XPeterburg
#Location: 30.318091 lon 59.932769 lat
#TLE: 1 37849U 11061A   26015.94982489  .00000054  00000+0  46705-4 0  9991
#TLE: 2 37849  98.7812 317.9902 0002438  62.0366 298.1057 14.19525452736847

#Time	Az	El	Level	Level2	SNR	BER	Gain	Gain2
2026-01-18 10:16:50.30	131.95	67.54	-38.7	-45.3	3.3	15365982	95	2644
2026-01-18 10:16:50.70	131.73	67.71	-39.0	-47.4	3.6	15074279	95	3253
2026-01-18 10:16:51.10	131.50	67.87	-38.9	-46.5	3.4	15112838	95	2924
2026-01-18 10:16:51.50	131.27	68.03	-38.7	-46.9	3.6	15206291	95	3154
2026-01-18 10:16:51.90	131.04	68.20	-38.7	-45.8	3.4	15148628	95	2790
2026-01-18 10:16:52.31	130.79	68.36	-38.6	-46.5	3.6	15210365	95	3035
2026-01-18 10:16:52.71	130.55	68.53	-38.6	-45.4	3.4	15210365	95	2684
2026-01-18 10:16:53.11	130.30	68.69	-38.5	-45.8	3.6	15151672	95	2836
2026-01-18 10:16:53.51	130.05	68.85	-38.4	-44.2	3.4	15207313	95	2413
2026-01-18 10:16:53.92	129.79	69.02	-38.0	-44.3	3.6	15164505	94	2535
2026-01-18 10:16:54.32	129.53	69.18	-37.8	-42.6	3.8	15147880	94	2121
2026-01-18 10:16:54.72	129.27	69.34	-37.8	-41.8	3.9	14570831	93	1964
2026-01-18 10:16:55.12	129.00	69.51	-37.7	-41.4	4.0	13854736	93	1897
2026-01-18 10:16:55.52	128.73	69.67	-37.4	-40.5	4.3	11728782	93	1767
2026-01-18 10:16:55.92	128.45	69.83	-37.3	-40.0	4.5	8884719	93	1688
2026-01-18 10:16:56.33	128.16	70.00	-36.8	-39.1	5.4	6374107	92	1590
2026-01-18 10:16:56.73	127.88	70.16	-36.6	-38.8	5.9	3889396	91	1589
2026-01-18 10:16:57.13	127.58	70.32	-35.8	-37.4	6.8	2447898	90	1475
2026-01-18 10:16:57.53	127.29	70.48	-35.4	-36.8	7.6	2447898	89	1448
2026-01-18 10:16:57.93	126.98	70.64	-35.3	-36.5	7.9	1259948	89	1418
2026-01-18 10:16:58.34	126.67	70.81	-35.2	-36.9	8.1	757347	88	1507
2026-01-18 10:16:58.74	126.35	70.97	-34.9	-36.2	8.3	581756	88	1428
2026-01-18 10:16:59.14	126.03	71.13	-34.9	-36.1	8.4	507232	88	1421
2026-01-18 10:16:59.54	125.71	71.29	-34.8	-36.3	8.6	456268	87	1460
2026-01-18 10:16:59.94	125.38	71.45	-34.5	-35.8	8.9	371337	87	1418
2026-01-18 10:17:00.35	125.03	71.61	-34.5	-35.6	9.0	275794	87	1404
2026-01-18 10:17:00.75	124.69	71.77	-34.0	-35.2	9.4	232482	86	1397
2026-01-18 10:17:01.15	124.34	71.93	-34.0	-35.0	9.5	162628	86	1383
2026-01-18 10:17:01.55	123.98	72.08	-34.0	-35.0	9.4	167671	86	1388
2026-01-18 10:17:01.95	123.62	72.24	-34.2	-35.5	9.4	151985	86	1436
2026-01-18 10:17:02.36	123.24	72.40	-34.2	-35.6	9.4	178100	86	1446
2026-01-18 10:17:02.76	122.86	72.56	-34.4	-36.2	9.2	178100	86	1510
2026-01-18 10:17:03.16	122.47	72.71	-34.5	-36.4	9.2	175048	86	1531
2026-01-18 10:17:03.56	122.08	72.87	-34.4	-36.1	9.4	187362	86	1497
2026-01-18 10:17:03.96	121.68	73.02	-34.5	-36.5	9.3	190887	86	1540
2026-01-18 10:17:04.37	121.26	73.18	-34.9	-37.4	8.8	172164	86	1645
2026-01-18 10:17:04.77	120.85	73.34	-35.4	-38.1	8.5	238723	87	1677
2026-01-18 10:17:05.17	120.42	73.49	-35.6	-38.1	8.2	395729	88	1637
2026-01-18 10:17:05.57	119.99	73.64	-35.9	-38.9	7.5	567955	88	1735
2026-01-18 10:17:05.97	119.55	73.79	-36.0	-38.6	7.5	917053	89	1669
2026-01-18 10:17:06.37	119.10	73.94	-35.8	-38.2	7.7	1161933	89	1612
2026-01-18 10:17:06.78	118.63	74.10	-35.9	-38.2	7.8	813644	89	1615
2026-01-18 10:17:07.18	118.16	74.25	-35.4	-37.0	8.4	686363	89	1476
2026-01-18 10:17:07.58	117.69	74.39	-35.2	-37.0	8.8	686363	88	1507
2026-01-18 10:17:07.98	117.20	74.54	-35.0	-36.5	9.1	320518	88	1458
2026-01-18 10:17:08.38	116.71	74.69	-34.7	-36.2	9.8	224494	87	1462
2026-01-18 10:17:08.78	116.20	74.83	-34.7	-36.3	9.6	110610	87	1472
2026-01-18 10:17:09.19	115.67	74.98	-35.1	-37.2	9.1	117485	87	1570
2026-01-18 10:17:09.59	115.14	75.13	-35.0	-36.8	9.2	200141	87	1524
2026-01-18 10:17:09.99	114.61	75.27	-35.3	-37.6	8.7	281372	87	1602
2026-01-18 10:17:10.39	114.06	75.41	-35.2	-37.3	8.8	335411	87	1566
2026-01-18 10:17:10.79	113.50	75.55	-35.3	-37.6	8.4	288803	87	1605
2026-01-18 10:17:11.20	112.91	75.69	-35.4	-37.8	8.5	338157	87	1624
2026-01-18 10:17:11.60	112.33	75.83	-35.2	-37.2	8.6	378662	87	1560
2026-01-18 10:17:12.00	111.73	75.96	-35.1	-37.0	8.8	403610	87	1531
2026-01-18 10:17:12.40	111.13	76.10	-35.4	-37.8	8.4	399742	87	1624
2026-01-18 10:17:12.80	110.51	76.23	-35.4	-37.8	8.2	399742	87	1619
2026-01-18 10:17:13.21	109.86	76.37	-35.2	-37.2	8.6	458992	87	1558
2026-01-18 10:17:13.61	109.22	76.50	-35.1	-37.1	8.5	352989	87	1533
2026-01-18 10:17:14.01	108.56	76.63	-35.0	-36.7	8.8	409919	87	1497
2026-01-18 10:17:14.41	107.89	76.75	-35.2	-37.1	8.6	319938	87	1539
2026-01-18 10:17:14.81	107.21	76.88	-34.8	-36.2	9.0	384841	87	1447
2026-01-18 10:17:15.22	106.49	77.01	-34.7	-35.9	9.2	272155	87	1423
2026-01-18 10:17:15.62	105.78	77.13	-34.8	-36.2	9.1	206291	87	1448
2026-01-18 10:17:16.02	105.06	77.25	-34.9	-36.5	9.0	244575	87	1482
2026-01-18 10:17:16.42	104.32	77.37	-35.1	-36.9	8.7	231422	87	1518
2026-01-18 10:17:16.82	103.56	77.48	-34.9	-36.4	8.9	348007	87	1463
2026-01-18 10:17:17.23	102.78	77.60	-35.3	-37.5	8.1	376976	87	1577
2026-01-18 10:17:17.63	102.00	77.71	-35.2	-36.7	8.2	376976	88	1463
2026-01-18 10:17:18.03	101.20	77.82	-35.5	-37.4	7.9	618759	88	1535
2026-01-18 10:17:18.43	100.39	77.93	-35.3	-36.8	8.3	644897	88	1465
2026-01-18 10:17:18.83	99.56	78.03	-35.4	-37.1	8.2	467185	88	1507
2026-01-18 10:17:19.24	98.70	78.14	-35.5	-37.5	8.1	488677	88	1541
2026-01-18 10:17:19.64	97.84	78.24	-36.1	-38.4	7.3	671775	89	1612
2026-01-18 10:17:20.04	96.97	78.34	-36.4	-39.3	6.6	1135475	89	1716
2026-01-18 10:17:20.44	96.08	78.43	-36.5	-39.1	6.3	1969306	90	1652
2026-01-18 10:17:20.84	95.18	78.52	-37.0	-40.4	5.5	2348442	90	1825
2026-01-18 10:17:21.25	94.24	78.61	-37.1	-40.0	5.7	4448890	91	1711
2026-01-18 10:17:21.65	93.31	78.70	-37.1	-39.9	5.8	3496704	91	1699
2026-01-18 10:17:22.05	92.37	78.78	-37.2	-40.3	5.6	3413490	91	1743
2026-01-18 10:17:22.45	91.41	78.86	-37.5	-40.5	5.1	3907928	92	1753
2026-01-18 10:17:22.85	90.44	78.94	-37.3	-40.0	5.3	3907928	92	1675
2026-01-18 10:17:23.25	89.45	79.02	-37.8	-41.7	4.6	5681854	92	1928
2026-01-18 10:17:23.66	88.42	79.09	-37.7	-41.0	4.8	6708549	92	1811
2026-01-18 10:17:24.06	87.41	79.16	-37.8	-41.6	4.5	6378776	92	1907
2026-01-18 10:17:24.46	86.38	79.22	-37.6	-41.0	4.9	7226089	92	1820
2026-01-18 10:17:24.86	85.35	79.28	-37.2	-39.6	5.5	5891853	92	1622
2026-01-18 10:17:25.27	84.27	79.34	-36.8	-38.5	6.4	4108451	92	1483
2026-01-18 10:17:25.67	83.21	79.39	-37.2	-39.8	5.7	2642448	92	1662
2026-01-18 10:17:26.07	82.13	79.44	-37.3	-40.1	5.5	3409652	92	1686
2026-01-18 10:17:26.47	81.05	79.49	-37.5	-40.7	5.2	4455718	92	1780
2026-01-18 10:17:26.87	79.96	79.53	-37.6	-41.0	5.0	5875183	92	1813
2026-01-18 10:17:27.28	78.83	79.57	-37.9	-41.9	4.6	6213020	92	1944
2026-01-18 10:17:27.68	77.72	79.61	-38.0	-41.9	4.2	6213020	93	1929
2026-01-18 10:17:28.08	76.61	79.64	-37.7	-40.9	4.7	8504272	93	1762
2026-01-18 10:17:28.48	75.48	79.67	-37.5	-40.1	5.2	7432975	93	1655
2026-01-18 10:17:28.89	74.33	79.69	-37.3	-39.5	5.5	5014511	93	1583
2026-01-18 10:17:29.29	73.20	79.71	-37.4	-39.9	5.3	4596427	93	1632
2026-01-18 10:17:29.69	72.06	79.72	-37.6	-40.5	5.1	4799537	93	1715
2026-01-18 10:17:30.09	70.92	79.74	-37.6	-40.6	5.1	5259376	93	1732
2026-01-18 10:17:30.49	69.78	79.74	-37.7	-40.9	4.8	5534637	93	1768
2026-01-18 10:17:30.89	68.63	79.75	-38.2	-42.7	4.0	6805007	93	2064
2026-01-18 10:17:31.30	67.46	79.75	-38.2	-43.1	3.9	11564620	93	2156
2026-01-18 10:17:31.70	66.32	79.74	-38.2	-44.0	3.8	13959098	93	2412
2026-01-18 10:17:32.10	65.18	79.73	-38.1	-42.8	4.1	13401351	93	2110
2026-01-18 10:17:32.50	64.04	79.72	-37.9	-41.3	4.5	10116470	93	1830
2026-01-18 10:17:32.90	62.90	79.70	-37.7	-40.6	4.8	10116470	93	1723
2026-01-18 10:17:33.31	61.74	79.68	-37.5	-39.9	5.2	6842315	93	1633
2026-01-18 10:17:33.71	60.62	79.66	-36.9	-39.4	6.2	5518638	91	1639
2026-01-18 10:17:34.11	59.50	79.63	-36.8	-39.0	6.6	2501640	91	1587
2026-01-18 10:17:34.51	58.38	79.60	-36.9	-39.5	6.4	2258804	91	1655
2026-01-18 10:17:34.91	57.28	79.56	-37.1	-40.0	6.1	2264656	91	1719
2026-01-18 10:17:35.32	56.15	79.52	-37.3	-40.6	5.7	2674240	91	1807
2026-01-18 10:17:35.72	55.07	79.47	-37.3	-40.7	5.7	3572914	91	1814
2026-01-18 10:17:36.12	53.99	79.43	-37.3	-40.7	5.7	3443977	91	1811
2026-01-18 10:17:36.52	52.92	79.37	-37.1	-40.0	6.1	3541252	91	1712
2026-01-18 10:17:36.92	51.86	79.32	-36.9	-39.4	6.4	2656387	91	1637
2026-01-18 10:17:37.33	50.79	79.26	-37.0	-39.9	6.1	2456451	91	1707
2026-01-18 10:17:37.73	49.75	79.20	-37.4	-41.0	5.5	2456451	91	1870
2026-01-18 10:17:38.13	48.73	79.13	-37.6	-41.0	5.1	3512855	92	1832
2026-01-18 10:17:38.53	47.72	79.06	-37.8	-41.7	4.6	5308197	92	1926
2026-01-18 10:17:38.93	46.73	78.99	-37.6	-40.9	5.0	7025405	92	1797
2026-01-18 10:17:39.33	45.75	78.92	-37.1	-39.4	5.9	5642791	92	1605
2026-01-18 10:17:39.74	44.75	78.84	-36.8	-38.6	6.3	3789993	92	1507
2026-01-18 10:17:40.14	43.80	78.75	-36.5	-38.3	7.0	2381950	91	1509
2026-01-18 10:17:40.54	42.86	78.67	-36.8	-39.0	6.6	1478591	91	1585
2026-01-18 10:17:40.94	41.94	78.58	-37.0	-39.7	6.2	2008628	91	1677
2026-01-18 10:17:41.34	41.02	78.49	-37.4	-40.9	5.3	2826004	91	1830
2026-01-18 10:17:41.75	40.11	78.40	-37.4	-40.4	5.1	5356681	92	1735
2026-01-18 10:17:42.15	39.23	78.30	-37.5	-40.5	5.0	5687011	92	1745
2026-01-18 10:17:42.55	38.36	78.20	-37.0	-39.0	5.8	4559654	92	1543
2026-01-18 10:17:42.95	37.51	78.10	-36.9	-38.8	6.0	4559654	92	1532
2026-01-18 10:17:43.35	36.67	78.00	-36.9	-39.3	6.2	2891693	91	1614
2026-01-18 10:17:43.76	35.83	77.89	-37.0	-39.6	6.1	2780067	91	1658
2026-01-18 10:17:44.16	35.03	77.78	-37.0	-39.6	5.8	2823829	91	1658
2026-01-18 10:17:44.56	34.23	77.67	-37.3	-40.4	5.2	3326278	91	1755
2026-01-18 10:17:44.96	33.46	77.56	-37.4	-40.7	5.1	4913696	91	1805
2026-01-18 10:17:45.36	32.69	77.45	-37.4	-40.2	4.9	5166976	92	1707
2026-01-18 10:17:45.77	31.93	77.33	-37.2	-39.7	5.2	5898689	92	1637
2026-01-18 10:17:46.17	31.19	77.21	-37.3	-40.0	5.0	5218833	92	1680
2026-01-18 10:17:46.57	30.47	77.09	-37.6	-41.0	4.5	6090805	92	1812
2026-01-18 10:17:46.97	29.77	76.97	-37.7	-41.2	4.5	7735626	92	1837
2026-01-18 10:17:47.38	29.06	76.84	-37.9	-42.2	4.1	9344940	92	2005
2026-01-18 10:17:47.78	28.38	76.71	-38.1	-42.3	3.9	9344940	93	1999
2026-01-18 10:17:48.18	27.72	76.59	-38.1	-42.6	3.9	12102363	93	2064
2026-01-18 10:17:48.58	27.06	76.46	-38.1	-44.0	3.7	13319725	93	2421
2026-01-18 10:17:48.98	26.42	76.33	-38.0	-42.7	4.0	14381912	93	2104
2026-01-18 10:17:49.39	25.78	76.19	-37.5	-40.3	4.9	13229141	93	1700
2026-01-18 10:17:49.79	25.17	76.06	-37.4	-40.1	5.0	7469566	93	1679
2026-01-18 10:17:50.19	24.57	75.92	-36.8	-38.6	6.2	5393905	92	1522
2026-01-18 10:17:50.59	23.98	75.78	-36.5	-38.3	6.9	2676521	91	1523
2026-01-18 10:17:50.99	23.40	75.65	-36.3	-37.9	7.2	1513687	91	1482
2026-01-18 10:17:51.39	22.83	75.51	-36.0	-37.7	7.5	1158706	90	1504
2026-01-18 10:17:51.79	22.28	75.37	-36.2	-38.9	7.3	966903	89	1681
2026-01-18 10:17:52.20	21.72	75.22	-35.9	-38.1	7.7	1308532	89	1586
2026-01-18 10:17:52.60	21.18	75.08	-35.8	-37.8	8.0	709037	89	1547
2026-01-18 10:17:53.00	20.66	74.94	-35.5	-37.1	8.5	709037	89	1482
2026-01-18 10:17:53.40	20.15	74.79	-35.3	-37.0	8.9	437316	88	1512
2026-01-18 10:17:53.80	19.65	74.65	-35.3	-37.1	8.8	284240	88	1523
2026-01-18 10:17:54.21	19.14	74.50	-35.1	-36.7	9.3	303176	88	1479
2026-01-18 10:17:54.61	18.66	74.35	-34.6	-35.8	9.9	211906	87	1423
2026-01-18 10:17:55.01	18.19	74.20	-34.5	-35.8	10.1	84068	87	1427
2026-01-18 10:17:55.41	17.72	74.05	-34.4	-35.4	10.2	61737	87	1391
2026-01-18 10:17:55.81	17.27	73.90	-34.0	-35.3	10.4	46501	86	1419
2026-01-18 10:17:56.22	16.81	73.75	-34.1	-35.3	10.4	41389	86	1427
2026-01-18 10:17:56.62	16.37	73.60	-33.8	-34.6	10.7	40878	86	1358
2026-01-18 10:17:57.02	15.94	73.44	-33.5	-35.0	11.0	25756	84	1460
2026-01-18 10:17:57.42	15.52	73.29	-33.9	-36.0	10.5	24803	84	1557
2026-01-18 10:17:57.82	15.11	73.14	-33.2	-34.3	11.4	24803	84	1400
2026-01-18 10:17:58.22	14.70	72.98	-33.1	-34.0	11.7	16220	84	1372
2026-01-18 10:17:58.63	14.30	72.82	-33.0	-33.9	11.5	7240	84	1363
2026-01-18 10:17:59.03	13.91	72.67	-33.1	-34.1	11.4	7400	84	1375
2026-01-18 10:17:59.43	13.53	72.51	-33.4	-34.9	11.0	10475	84	1449
2026-01-18 10:17:59.83	13.15	72.36	-33.8	-35.0	10.1	29136	85	1423
2026-01-18 10:18:00.23	12.78	72.20	-34.1	-35.8	9.9	64064	85	1500
2026-01-18 10:18:00.63	12.42	72.04	-34.0	-35.7	9.9	78407	85	1491
2026-01-18 10:18:01.04	12.06	71.88	-33.7	-34.9	10.3	85784	85	1413
2026-01-18 10:18:01.44	11.71	71.72	-33.6	-34.7	10.5	49278	85	1399
2026-01-18 10:18:01.84	11.37	71.56	-33.4	-34.3	10.8	33409	85	1356
2026-01-18 10:18:02.24	11.03	71.40	-33.2	-34.4	11.0	28358	84	1401
2026-01-18 10:18:02.64	10.70	71.25	-33.5	-35.1	10.7	24520	84	1474
2026-01-18 10:18:03.05	10.37	71.08	-33.5	-35.0	10.7	24520	84	1466
2026-01-18 10:18:03.45	10.06	70.92	-33.6	-35.3	10.7	30151	84	1498
2026-01-18 10:18:03.85	9.74	70.76	-34.5	-36.6	10.1	30006	85	1555
2026-01-18 10:18:04.25	9.44	70.60	-34.4	-36.7	9.6	51567	85	1606
2026-01-18 10:18:04.65	9.14	70.44	-37.7	-42.8	4.5	121482	92	2227

#Closed at: 2026-01-18 10:18:04