passes_logs/2026/01/18/XPeterburg/XPeterburg__20260118_122108_AQUA_rec.log

#Pass ID: 20260118_122108_AQUA
#Satellite: AQUA
#Configuration: AQUA
#Start time: 2026-01-18 12:21:03

#Version: 1.5.20200625
#Station: XPeterburg
#Location: 30.318091 lon 59.932769 lat
#TLE: 1 27424U 02022A   26015.92015591  .00000664  00000+0  14289-3 0  9993
#TLE: 2 27424  98.4082 342.3630 0002020  77.1389  16.3168 14.61822470261023

#Time	Az	El	Level	Level2	SNR	BER	Gain	Gain2
2026-01-18 12:21:03.46	211.08	68.59	-35.2	-44.6	3.3	7674560	88	1762
2026-01-18 12:21:03.66	211.32	68.67	-35.1	-48.8	3.5	7570953	82	2885
2026-01-18 12:21:03.86	211.56	68.74	-35.0	-46.4	3.5	7580261	86	2230
2026-01-18 12:21:04.06	211.80	68.82	-35.3	-46.3	3.5	7631225	87	2123
2026-01-18 12:21:04.26	212.04	68.89	-35.3	-46.0	3.4	7645111	87	2048
2026-01-18 12:21:04.46	212.29	68.97	-35.3	-46.6	3.4	7583007	87	2206
2026-01-18 12:21:04.67	212.54	69.04	-35.3	-46.6	3.5	7601318	87	2198
2026-01-18 12:21:04.87	212.79	69.12	-35.3	-46.4	3.5	7586517	87	2151
2026-01-18 12:21:05.07	213.04	69.19	-35.2	-46.1	3.4	7594146	87	2076
2026-01-18 12:21:05.27	213.29	69.26	-35.3	-46.7	3.2	7543945	87	2211
2026-01-18 12:21:05.47	213.55	69.34	-35.3	-46.7	3.5	7597198	87	2230
2026-01-18 12:21:05.67	213.80	69.41	-35.3	-46.6	3.5	7583007	87	2191
2026-01-18 12:21:05.87	214.06	69.48	-35.3	-46.3	3.4	7608642	87	2115
2026-01-18 12:21:06.07	214.32	69.55	-35.3	-46.0	3.4	7660064	87	2058
2026-01-18 12:21:06.27	214.58	69.62	-35.3	-46.6	3.5	7576904	87	2196
2026-01-18 12:21:06.47	214.84	69.69	-35.3	-46.2	3.5	7585144	87	2101
2026-01-18 12:21:06.67	215.11	69.77	-35.2	-45.5	3.5	7593078	87	1946
2026-01-18 12:21:06.88	215.39	69.84	-35.3	-45.3	3.4	7633209	87	1896
2026-01-18 12:21:07.08	215.66	69.91	-35.2	-45.1	3.5	7563934	87	1865
2026-01-18 12:21:07.28	215.93	69.98	-35.1	-43.7	3.8	7481994	87	1620
2026-01-18 12:21:07.48	216.20	70.05	-35.0	-43.3	3.9	7460784	87	1551
2026-01-18 12:21:07.68	216.48	70.12	-34.8	-41.7	4.1	7403717	87	1312
2026-01-18 12:21:07.88	216.76	70.18	-34.7	-41.4	3.7	7451782	87	1298
2026-01-18 12:21:08.08	217.04	70.25	-34.5	-40.3	4.1	7209320	87	1164
2026-01-18 12:21:08.28	217.32	70.32	-33.8	-38.2	6.4	6804656	86	984
2026-01-18 12:21:08.48	217.60	70.39	-33.6	-37.6	7.0	6676483	85	945
2026-01-18 12:21:08.68	217.89	70.45	-33.3	-36.5	8.0	6568603	85	856
2026-01-18 12:21:08.89	218.19	70.52	-33.0	-36.0	8.7	6463775	84	841
2026-01-18 12:21:09.09	218.48	70.59	-32.8	-35.2	9.1	6363830	84	788
2026-01-18 12:21:09.29	218.77	70.66	-33.0	-36.0	9.0	6420593	84	840
2026-01-18 12:21:09.49	219.07	70.72	-33.0	-35.8	9.0	6419067	84	829
2026-01-18 12:21:09.69	219.36	70.78	-33.2	-36.5	8.5	6489868	84	876
2026-01-18 12:21:09.89	219.66	70.85	-33.0	-35.9	8.6	6463775	84	833
2026-01-18 12:21:10.09	219.96	70.91	-33.0	-35.8	9.0	6439819	84	820
2026-01-18 12:21:10.29	220.26	70.98	-33.1	-36.0	8.9	6434020	84	842
2026-01-18 12:21:10.49	220.57	71.04	-32.9	-35.6	9.4	6376495	84	811
2026-01-18 12:21:10.69	220.87	71.10	-33.0	-35.9	8.9	6423645	84	831
2026-01-18 12:21:10.89	221.18	71.16	-32.9	-35.7	9.5	6376342	84	827
2026-01-18 12:21:11.10	221.51	71.23	-32.9	-35.5	9.0	6426849	84	807
2026-01-18 12:21:11.30	221.82	71.29	-32.8	-35.6	9.5	6371002	83	826
2026-01-18 12:21:11.50	222.14	71.35	-33.0	-36.3	8.9	6435089	83	876
2026-01-18 12:21:11.70	222.46	71.41	-32.9	-35.8	9.4	6381835	83	842
2026-01-18 12:21:11.90	222.78	71.47	-33.0	-36.5	8.8	6437072	83	885
2026-01-18 12:21:12.10	223.10	71.53	-32.8	-35.5	9.5	6356964	83	821
2026-01-18 12:21:12.30	223.42	71.59	-32.9	-36.1	9.3	6392517	83	860
2026-01-18 12:21:12.50	223.75	71.64	-32.9	-36.2	9.5	6355590	83	867
2026-01-18 12:21:12.70	224.08	71.70	-33.2	-37.1	8.9	6445617	83	934
2026-01-18 12:21:12.90	224.41	71.76	-33.1	-36.7	9.1	6403656	83	909
2026-01-18 12:21:13.11	224.76	71.82	-33.2	-37.0	8.8	6421966	83	923
2026-01-18 12:21:13.31	225.09	71.87	-33.0	-36.3	9.1	6410827	83	875
2026-01-18 12:21:13.51	225.43	71.93	-33.1	-36.7	8.8	6466522	83	903
2026-01-18 12:21:13.71	225.77	71.98	-32.9	-35.8	9.1	6397857	83	838
2026-01-18 12:21:13.91	226.11	72.04	-33.2	-37.1	8.9	6417999	83	933
2026-01-18 12:21:14.11	226.46	72.09	-32.9	-35.8	9.5	6394195	83	834
2026-01-18 12:21:14.31	226.80	72.14	-33.4	-37.6	8.3	6538391	83	974
2026-01-18 12:21:14.51	227.15	72.19	-33.1	-36.6	8.7	6449279	83	895
2026-01-18 12:21:14.71	227.50	72.25	-33.3	-37.5	8.3	6508178	83	965
2026-01-18 12:21:14.91	227.85	72.30	-33.2	-37.0	8.6	6472625	83	920
2026-01-18 12:21:15.12	228.23	72.35	-33.3	-37.2	8.4	6493835	83	934
2026-01-18 12:21:15.32	228.58	72.40	-33.0	-36.3	9.2	6399841	83	870
2026-01-18 12:21:15.52	228.94	72.45	-33.3	-37.3	8.4	6507720	83	945
2026-01-18 12:21:15.72	229.30	72.50	-33.1	-36.7	8.8	6447143	83	895
2026-01-18 12:21:15.92	229.67	72.55	-33.6	-37.8	7.6	6635131	84	972
2026-01-18 12:21:16.12	230.03	72.59	-33.3	-36.7	8.2	6545715	84	881
2026-01-18 12:21:16.32	230.40	72.64	-33.6	-37.8	7.4	6649322	84	969
2026-01-18 12:21:16.52	230.77	72.69	-33.3	-36.7	8.4	6513061	84	879
2026-01-18 12:21:16.72	231.14	72.73	-33.5	-37.5	7.4	6645965	84	944
2026-01-18 12:21:16.92	231.51	72.78	-33.2	-36.4	8.7	6482696	84	861
2026-01-18 12:21:17.12	231.89	72.82	-33.5	-37.3	7.7	6630554	84	925
2026-01-18 12:21:17.33	232.29	72.86	-33.2	-36.5	8.6	6489105	84	866
2026-01-18 12:21:17.53	232.67	72.91	-33.5	-37.2	7.7	6584320	84	916
2026-01-18 12:21:17.73	233.05	72.95	-33.4	-37.0	8.1	6547241	84	904
2026-01-18 12:21:17.93	233.43	72.99	-33.4	-37.0	7.8	6563873	84	901
2026-01-18 12:21:18.13	233.82	73.03	-33.5	-37.2	7.9	6597290	84	916
2026-01-18 12:21:18.33	234.20	73.07	-33.4	-36.8	7.9	6559600	84	886
2026-01-18 12:21:18.53	234.59	73.11	-33.6	-37.6	7.7	6605529	84	947
2026-01-18 12:21:18.73	234.98	73.15	-33.5	-37.2	7.6	6605072	84	916
2026-01-18 12:21:18.93	235.38	73.18	-33.7	-38.0	7.2	6674194	84	981
2026-01-18 12:21:19.14	235.79	73.22	-33.6	-37.4	7.5	6665039	84	928
2026-01-18 12:21:19.34	236.19	73.26	-33.6	-37.4	7.6	6622161	84	931
2026-01-18 12:21:19.54	236.59	73.29	-33.5	-37.2	7.7	6612548	84	912
2026-01-18 12:21:19.74	236.99	73.33	-33.5	-37.1	7.7	6602783	84	907
2026-01-18 12:21:19.94	237.39	73.36	-33.4	-37.0	7.9	6575317	84	898
2026-01-18 12:21:20.14	237.79	73.40	-33.4	-37.1	7.8	6594848	84	909
2026-01-18 12:21:20.34	238.20	73.43	-33.5	-37.2	7.8	6591339	84	917
2026-01-18 12:21:20.54	238.61	73.46	-33.6	-37.7	7.4	6649169	84	959
2026-01-18 12:21:20.74	239.01	73.49	-33.6	-37.5	7.5	6629486	84	943
2026-01-18 12:21:20.94	239.42	73.52	-33.6	-37.7	7.3	6666259	84	954
2026-01-18 12:21:21.14	239.84	73.55	-33.6	-37.6	7.4	6652832	84	948
2026-01-18 12:21:21.34	240.25	73.58	-33.5	-37.2	7.6	6627349	84	917
2026-01-18 12:21:21.55	240.68	73.61	-33.6	-37.5	7.5	6659851	84	937
2026-01-18 12:21:21.75	241.10	73.63	-33.5	-37.4	7.6	6629333	84	930
2026-01-18 12:21:21.95	241.52	73.66	-33.6	-37.5	7.4	6659545	84	938
2026-01-18 12:21:22.15	241.94	73.68	-33.6	-37.4	7.6	6640167	84	928
2026-01-18 12:21:22.35	242.36	73.71	-33.5	-37.2	7.7	6616973	84	913
2026-01-18 12:21:22.55	242.78	73.73	-33.6	-37.5	7.7	6636962	84	932
2026-01-18 12:21:22.75	243.20	73.75	-33.6	-37.6	7.5	6634674	84	943
2026-01-18 12:21:22.95	243.62	73.77	-33.7	-37.9	7.4	6691741	84	963
2026-01-18 12:21:23.15	244.05	73.79	-33.7	-37.8	7.2	6678161	84	961
2026-01-18 12:21:23.35	244.48	73.81	-33.7	-37.9	7.3	6690826	84	971
2026-01-18 12:21:23.56	244.92	73.83	-33.7	-37.9	7.2	6673431	84	964
2026-01-18 12:21:23.76	245.35	73.85	-33.8	-38.1	7.2	6686859	84	986
2026-01-18 12:21:23.96	245.78	73.87	-33.7	-37.9	7.2	6698455	84	970
2026-01-18 12:21:24.16	246.21	73.89	-33.7	-37.9	7.3	6677246	84	966
2026-01-18 12:21:24.36	246.64	73.90	-33.6	-37.5	7.7	6621246	84	931
2026-01-18 12:21:24.56	247.07	73.92	-33.7	-37.7	7.4	6656188	84	951
2026-01-18 12:21:24.76	247.51	73.93	-33.7	-37.7	7.6	6669464	84	954
2026-01-18 12:21:24.96	247.94	73.94	-33.8	-38.3	7.0	6736145	84	999
2026-01-18 12:21:25.16	248.37	73.95	-33.8	-38.4	7.0	6755371	84	1012
2026-01-18 12:21:25.36	248.81	73.97	-33.8	-38.4	6.8	6736755	84	1009
2026-01-18 12:21:25.57	249.27	73.98	-33.9	-38.7	6.8	6762084	84	1034
2026-01-18 12:21:25.77	249.70	73.99	-33.9	-38.5	6.7	6779479	84	1018
2026-01-18 12:21:25.97	250.14	73.99	-33.9	-38.5	6.8	6780395	84	1014
2026-01-18 12:21:26.17	250.58	74.00	-33.9	-38.4	6.7	6797790	84	1008
2026-01-18 12:21:26.37	251.01	74.01	-33.9	-38.6	6.7	6790466	84	1023
2026-01-18 12:21:26.57	251.45	74.01	-33.8	-38.1	7.1	6719818	84	977
2026-01-18 12:21:26.77	251.89	74.02	-34.1	-38.6	6.5	6848449	85	1006
2026-01-18 12:21:26.97	252.33	74.02	-33.9	-38.0	7.1	6718139	85	957
2026-01-18 12:21:27.17	252.76	74.03	-34.1	-38.7	6.1	6906433	85	1014
2026-01-18 12:21:27.37	253.20	74.03	-34.0	-38.5	6.8	6814270	85	1004
2026-01-18 12:21:27.57	253.64	74.03	-34.0	-38.4	6.3	6828308	85	990
2026-01-18 12:21:27.78	254.10	74.03	-34.2	-39.1	6.5	6913452	85	1050
2026-01-18 12:21:27.98	254.54	74.03	-34.0	-38.3	6.5	6844329	85	985
2026-01-18 12:21:28.18	254.98	74.03	-34.3	-39.5	5.9	6984405	85	1096
2026-01-18 12:21:28.38	255.42	74.03	-34.0	-38.5	6.6	6832427	85	1004
2026-01-18 12:21:28.58	255.86	74.02	-34.2	-39.2	5.9	6986541	85	1064
2026-01-18 12:21:28.78	256.29	74.02	-33.9	-38.0	7.0	6749725	85	957
2026-01-18 12:21:28.98	256.73	74.01	-34.1	-38.6	6.2	6877136	85	1005
2026-01-18 12:21:29.18	257.17	74.01	-34.2	-39.1	6.4	6894073	85	1049
2026-01-18 12:21:29.38	257.61	74.00	-34.1	-38.6	6.2	6887207	85	1001
2026-01-18 12:21:29.58	258.04	73.99	-34.3	-39.3	6.0	6914825	85	1070
2026-01-18 12:21:29.78	258.48	73.99	-34.0	-38.1	6.7	6818847	85	957
2026-01-18 12:21:29.98	258.92	73.98	-34.2	-39.0	6.0	6937866	85	1044
2026-01-18 12:21:30.19	259.37	73.97	-34.0	-38.2	6.7	6786956	85	966
2026-01-18 12:21:30.39	259.81	73.95	-34.1	-38.7	6.2	6885986	85	1013
2026-01-18 12:21:30.59	260.24	73.94	-34.2	-39.0	6.4	6889038	85	1036
2026-01-18 12:21:30.79	260.68	73.93	-34.2	-39.1	5.9	6976165	85	1047
2026-01-18 12:21:30.99	261.11	73.92	-34.2	-39.2	6.2	6922149	85	1053
2026-01-18 12:21:31.19	261.54	73.90	-34.1	-38.8	6.1	6898651	85	1021
2026-01-18 12:21:31.39	261.97	73.89	-34.4	-39.8	5.7	7056427	85	1115
2026-01-18 12:21:31.59	262.40	73.87	-34.2	-40.2	4.0	7414093	85	1189
2026-01-18 12:21:31.79	262.83	73.85	-34.3	-40.2	5.9	6928253	85	1179
2026-01-18 12:21:31.99	263.26	73.83	-34.2	-39.6	6.2	6891326	85	1108
2026-01-18 12:21:32.20	263.71	73.81	-34.3	-40.0	5.6	7015075	85	1148
2026-01-18 12:21:32.40	264.13	73.79	-34.2	-39.5	6.1	6941680	85	1093
2026-01-18 12:21:32.60	264.56	73.77	-34.1	-38.9	6.1	6882019	85	1033
2026-01-18 12:21:32.80	264.98	73.75	-34.3	-39.5	6.0	6979675	85	1091
2026-01-18 12:21:33.00	265.40	73.73	-34.1	-38.7	6.0	6925811	85	1017
2026-01-18 12:21:33.20	265.82	73.71	-34.2	-39.1	6.2	6930999	85	1051
2026-01-18 12:21:33.40	266.24	73.68	-34.1	-38.9	6.1	6928100	85	1029
2026-01-18 12:21:33.60	266.66	73.66	-34.2	-39.1	6.0	6968841	85	1052
2026-01-18 12:21:33.80	267.08	73.63	-34.0	-38.2	6.5	6846008	85	972
2026-01-18 12:21:34.00	267.50	73.61	-34.2	-39.0	6.2	6912689	85	1041
2026-01-18 12:21:34.20	267.91	73.58	-34.1	-38.7	6.3	6883697	85	1017
2026-01-18 12:21:34.41	268.34	73.55	-34.2	-39.3	5.9	6977844	85	1072
2026-01-18 12:21:34.61	268.76	73.52	-34.3	-39.4	5.9	7001800	85	1083
2026-01-18 12:21:34.81	269.17	73.49	-34.3	-41.0	3.9	7427520	85	1287
2026-01-18 12:21:35.01	269.57	73.46	-34.3	-40.4	5.6	6894989	85	1206
2026-01-18 12:21:35.21	269.98	73.43	-34.2	-39.7	6.1	6893768	85	1130
2026-01-18 12:21:35.41	270.39	73.40	-34.2	-39.6	6.0	6927337	85	1118
2026-01-18 12:21:35.61	270.79	73.36	-34.1	-39.3	6.1	6910247	85	1082
2026-01-18 12:21:35.81	271.19	73.33	-34.2	-39.3	6.2	6888427	85	1084
2026-01-18 12:21:36.01	271.59	73.30	-34.1	-39.1	6.1	6904449	85	1062
2026-01-18 12:21:36.22	272.01	73.26	-34.0	-38.7	6.5	6847381	85	1021
2026-01-18 12:21:36.42	272.41	73.22	-34.0	-38.4	6.6	6812133	85	992
2026-01-18 12:21:36.62	272.80	73.19	-34.0	-38.7	6.4	6865692	85	1020
2026-01-18 12:21:36.82	273.19	73.15	-34.0	-38.7	6.5	6839141	85	1018
2026-01-18 12:21:37.02	273.58	73.11	-34.2	-39.6	6.0	6993560	85	1115
2026-01-18 12:21:37.22	273.97	73.07	-34.1	-39.2	5.9	6978607	85	1071
2026-01-18 12:21:37.42	274.36	73.03	-34.2	-39.6	5.9	7006072	85	1104
2026-01-18 12:21:37.62	274.75	72.99	-34.1	-39.1	6.0	6959228	85	1062
2026-01-18 12:21:37.82	275.13	72.95	-34.3	-39.7	5.8	7021026	85	1120
2026-01-18 12:21:38.03	275.53	72.91	-34.1	-40.2	4.0	7431488	85	1203
2026-01-18 12:21:38.23	275.91	72.86	-34.4	-41.2	5.5	7013092	85	1312
2026-01-18 12:21:38.43	276.29	72.82	-34.1	-39.6	6.0	6873016	85	1127
2026-01-18 12:21:38.63	276.66	72.78	-34.2	-39.8	6.0	6938323	85	1145
2026-01-18 12:21:38.83	277.03	72.73	-34.0	-39.1	6.3	6867828	85	1065
2026-01-18 12:21:39.03	277.41	72.69	-34.2	-39.4	5.9	6974029	85	1096
2026-01-18 12:21:39.23	277.77	72.64	-34.1	-39.0	6.3	6888122	85	1054
2026-01-18 12:21:39.43	278.14	72.59	-34.2	-39.5	5.6	7023925	85	1097
2026-01-18 12:21:39.63	278.51	72.55	-33.9	-38.1	6.7	6807861	85	968
2026-01-18 12:21:39.84	278.89	72.50	-34.1	-39.0	6.1	6937561	85	1051
2026-01-18 12:21:40.04	279.25	72.45	-34.0	-38.5	6.5	6838989	85	998
2026-01-18 12:21:40.24	279.61	72.40	-34.2	-39.3	5.7	7013244	85	1077
2026-01-18 12:21:40.44	279.96	72.35	-34.2	-39.3	5.9	7025299	85	1071
2026-01-18 12:21:40.64	280.32	72.30	-34.2	-40.7	3.9	7418365	85	1256
2026-01-18 12:21:40.84	280.67	72.25	-34.2	-40.3	5.6	6925964	85	1207
2026-01-18 12:21:41.04	281.02	72.20	-34.3	-40.5	5.4	7062835	85	1223
2026-01-18 12:21:41.24	281.37	72.14	-34.2	-39.9	5.9	6937866	85	1149
2026-01-18 12:21:41.44	281.71	72.09	-34.3	-41.1	4.8	7418670	85	1300
2026-01-18 12:21:41.65	282.08	72.04	-34.1	-40.3	4.1	7353668	85	1212
2026-01-18 12:21:41.85	282.42	71.98	-34.1	-39.9	5.8	6917266	85	1159
2026-01-18 12:21:42.05	282.76	71.93	-34.1	-39.5	6.2	6896972	85	1111
2026-01-18 12:21:42.25	283.09	71.87	-34.1	-39.1	6.0	6905822	85	1062
2026-01-18 12:21:42.45	283.43	71.82	-34.1	-39.1	6.1	6907653	85	1064
2026-01-18 12:21:42.65	283.76	71.76	-33.9	-38.1	6.2	6854858	85	972
2026-01-18 12:21:42.85	284.09	71.70	-34.0	-38.6	6.5	6889801	85	1010
2026-01-18 12:21:43.05	284.42	71.65	-34.1	-38.8	5.8	6950683	85	1023
2026-01-18 12:21:43.25	284.75	71.59	-34.1	-39.0	6.2	6961212	85	1046
2026-01-18 12:21:43.46	285.09	71.53	-34.2	-40.1	3.9	7429199	85	1184
2026-01-18 12:21:43.66	285.41	71.47	-33.9	-38.9	6.5	6739501	85	1060
2026-01-18 12:21:43.86	285.73	71.41	-34.2	-39.8	5.5	7042846	85	1137
2026-01-18 12:21:44.06	286.05	71.35	-33.9	-38.6	6.6	6822662	85	1021
2026-01-18 12:21:44.26	286.36	71.29	-34.3	-40.9	4.0	7444305	85	1272
2026-01-18 12:21:44.46	286.67	71.23	-34.0	-39.5	5.7	6816253	85	1119
2026-01-18 12:21:44.66	286.98	71.17	-34.4	-40.6	4.8	7172088	85	1226
2026-01-18 12:21:44.86	287.29	71.11	-34.1	-39.3	6.0	6949768	85	1088
2026-01-18 12:21:45.06	287.60	71.04	-34.4	-41.3	3.7	7466278	85	1330
2026-01-18 12:21:45.26	287.90	70.98	-33.9	-39.2	4.4	6981506	85	1099
2026-01-18 12:21:45.47	288.22	70.91	-34.5	-41.6	4.5	7307891	86	1347
2026-01-18 12:21:45.67	288.52	70.85	-33.9	-38.3	5.9	6883850	86	989
2026-01-18 12:21:45.87	288.82	70.79	-34.5	-41.7	4.7	7270202	86	1375
2026-01-18 12:21:46.07	289.12	70.72	-34.1	-39.9	3.9	7404327	86	1160
2026-01-18 12:21:46.27	289.41	70.66	-34.4	-41.2	5.0	7214965	86	1311
2026-01-18 12:21:46.47	289.70	70.59	-34.3	-40.2	4.8	7164306	86	1184
2026-01-18 12:21:46.67	289.99	70.53	-34.3	-40.3	5.1	7173004	86	1188
2026-01-18 12:21:46.87	290.28	70.46	-34.4	-41.5	3.8	7495727	86	1354
2026-01-18 12:21:47.07	290.56	70.39	-33.0	-36.3	6.3	6609497	84	873
2026-01-18 12:21:47.28	290.86	70.32	-32.4	-35.1	10.8	6268463	82	820
2026-01-18 12:21:47.48	291.14	70.25	-32.8	-36.4	9.9	6326904	82	899
2026-01-18 12:21:47.68	291.42	70.19	-34.8	-44.2	3.9	7576751	86	1761
2026-01-18 12:21:47.88	291.70	70.12	-34.9	-45.3	3.5	7540893	86	1975

#Closed at: 2026-01-18 12:21:48