passes_logs/2026/01/21/T1/T1__20260121_091341_SUOMI_NPP_rec.log

#Pass ID: 20260121_091341_SUOMI NPP
#Satellite: SUOMI NPP
#Configuration: NPP
#almurnet v.1.7.20251203
#Start time: 2026-01-21 09:13:42

#Version: 2.0.20230620
#Station: T1
#Location: 37.570604 lon 55.790049 lat
#TLE: 1 37849U 11061A   26020.95430537  .00000198  00000+0  11470-3 0  9999
#TLE: 2 37849  98.7819 322.9518 0002315  53.3069 306.8320 14.19527555737555

#Time	Az	El	Level	Level2	SNR	BER	BlckErr	Temp	State	Recorded	gain1	gain2
2026-01-21 09:13:42.89	135.90	5.10	-51.7	-66.8	3.8	1.49e+00	0	37	0	0	75	20061
2026-01-21 09:13:45.88	135.78	5.31	-51.6	-66.9	3.8	1.49e+00	0	37	104	0	75	20106
2026-01-21 09:13:48.87	135.66	5.52	-51.6	-66.9	3.8	1.49e+00	0	37	104	0	75	20078
2026-01-21 09:13:51.85	135.53	5.73	-51.6	-66.8	3.8	1.49e+00	0	37	104	0	75	19901
2026-01-21 09:13:54.84	135.41	5.94	-51.6	-66.5	3.8	1.49e+00	0	37	104	0	75	19352
2026-01-21 09:13:57.83	135.28	6.16	-51.6	-66.3	3.8	1.49e+00	0	37	104	0	75	18749
2026-01-21 09:14:00.82	135.15	6.37	-51.5	-66.3	3.8	1.49e+00	0	38	104	0	75	18855
2026-01-21 09:14:03.81	135.01	6.59	-51.6	-66.7	3.8	1.49e+00	0	38	104	0	75	19673
2026-01-21 09:14:06.80	134.88	6.81	-51.6	-66.8	3.8	1.49e+00	0	38	104	0	75	20024
2026-01-21 09:14:09.79	134.74	7.03	-51.6	-66.3	3.8	1.49e+00	0	38	104	0	75	18843
2026-01-21 09:14:12.78	134.60	7.26	-51.4	-64.9	3.8	1.49e+00	0	38	104	0	74	16930
2026-01-21 09:14:15.77	134.46	7.48	-51.3	-62.1	4.6	1.24e+00	0	38	0	0	74	12285
2026-01-21 09:14:18.75	134.32	7.71	-50.3	-57.0	8.4	6.55e-02	0	38	0	6291456	72	7676
2026-01-21 09:14:21.74	134.17	7.94	-48.6	-52.7	12.8	2.27e-04	0	38	0	11534336	69	5567
2026-01-21 09:14:24.73	134.03	8.17	-47.4	-50.8	14.5	7.00e-07	0	38	0	16777216	66	5323
2026-01-21 09:14:27.72	133.87	8.40	-47.9	-51.8	13.5	6.10e-06	0	39	0	23068672	66	5973
2026-01-21 09:14:30.71	133.72	8.64	-49.3	-54.5	11.2	9.02e-04	0	39	0	28311552	69	6806
2026-01-21 09:14:33.71	133.56	8.87	-50.1	-56.3	9.2	1.33e-02	0	38	0	34603008	70	7965
2026-01-21 09:14:36.70	133.41	9.11	-50.1	-56.2	9.3	7.16e-02	0	38	0	39845888	71	7407
2026-01-21 09:14:39.70	133.24	9.35	-49.2	-53.8	11.6	4.35e-01	0	38	0	44040192	70	5989
2026-01-21 09:14:42.71	133.08	9.60	-47.5	-51.0	14.5	1.50e-06	0	39	0	49283072	67	5101
2026-01-21 09:14:45.71	132.91	9.85	-47.8	-51.5	14.0	7.00e-07	0	39	0	54525952	66	5750
2026-01-21 09:14:48.72	132.74	10.09	-49.0	-53.8	11.9	2.51e-04	0	39	0	60817408	68	6717
2026-01-21 09:14:51.73	132.56	10.35	-48.8	-53.2	12.5	1.60e-04	0	39	0	66060288	68	6233
2026-01-21 09:14:54.73	132.39	10.60	-46.4	-49.4	16.1	0.00e+00	0	39	0	71303168	64	5043
2026-01-21 09:14:57.74	132.21	10.86	-44.8	-47.1	18.3	0.00e+00	0	39	0	77594624	61	4648
2026-01-21 09:15:00.74	132.02	11.11	-45.2	-47.7	17.8	0.00e+00	0	39	0	82837504	61	4960
2026-01-21 09:15:03.74	131.84	11.37	-47.2	-50.7	14.9	0.00e+00	0	39	0	89128960	64	5880
2026-01-21 09:15:06.75	131.64	11.64	-48.2	-52.4	13.3	9.10e-06	0	39	0	94371840	67	6036
2026-01-21 09:15:09.74	131.45	11.90	-46.0	-48.7	16.9	0.00e+00	0	39	0	99614720	63	4941
2026-01-21 09:15:12.74	131.25	12.17	-44.4	-46.7	18.8	0.00e+00	0	39	0	105906176	60	4655
2026-01-21 09:15:15.74	131.05	12.44	-45.4	-47.9	17.6	0.00e+00	0	39	0	111149056	61	5086
2026-01-21 09:15:18.75	130.85	12.71	-47.7	-51.5	14.0	0.00e+00	0	39	0	116391936	65	6119
2026-01-21 09:15:21.75	130.64	12.99	-47.2	-50.6	15.1	0.00e+00	0	39	0	122683392	66	5200
2026-01-21 09:15:24.75	130.42	13.27	-45.0	-47.4	18.2	0.00e+00	0	39	0	127926272	62	4508
2026-01-21 09:15:27.75	130.21	13.55	-44.8	-47.1	18.5	0.00e+00	0	39	0	134217728	60	4909
2026-01-21 09:15:30.76	129.98	13.84	-46.7	-49.9	15.7	0.00e+00	0	39	0	139460608	64	5370
2026-01-21 09:15:33.76	129.76	14.12	-47.1	-50.5	15.3	7.00e-07	0	39	0	144703488	65	5415
2026-01-21 09:15:36.77	129.52	14.41	-45.1	-47.6	18.1	0.00e+00	0	39	0	150994944	62	4601
2026-01-21 09:15:39.77	129.29	14.71	-44.8	-47.2	18.4	0.00e+00	0	39	0	156237824	61	4699
2026-01-21 09:15:42.77	129.05	15.00	-46.4	-49.5	16.3	0.00e+00	0	39	0	161480704	63	5446
2026-01-21 09:15:45.77	128.80	15.30	-46.7	-49.8	16.0	0.00e+00	0	39	0	167772160	65	5025
2026-01-21 09:15:48.78	128.55	15.61	-45.7	-48.3	17.5	0.00e+00	0	39	0	173015040	63	4738
2026-01-21 09:15:51.79	128.29	15.91	-46.4	-49.3	16.5	0.00e+00	0	39	0	178257920	63	5340
2026-01-21 09:15:54.79	128.03	16.22	-46.7	-49.7	16.1	0.00e+00	0	39	0	184549376	64	5272
2026-01-21 09:15:57.80	127.76	16.54	-45.6	-48.0	17.7	0.00e+00	0	39	0	189792256	63	4598
2026-01-21 09:16:00.80	127.49	16.85	-45.4	-47.9	17.9	0.00e+00	0	39	0	196083712	62	4780
2026-01-21 09:16:03.80	127.21	17.17	-46.7	-49.6	16.2	0.00e+00	0	39	0	201326592	64	5212
2026-01-21 09:16:06.81	126.92	17.50	-46.4	-49.3	16.6	0.00e+00	0	39	0	206569472	64	4989
2026-01-21 09:16:09.81	126.63	17.82	-45.9	-48.5	17.4	0.00e+00	0	39	0	212860928	63	4840
2026-01-21 09:16:12.81	126.33	18.15	-46.3	-49.1	16.9	0.00e+00	0	39	0	218103808	63	5176
2026-01-21 09:16:15.82	126.03	18.49	-46.4	-49.2	16.7	0.00e+00	0	39	0	223346688	63	5269
2026-01-21 09:16:18.82	125.72	18.82	-45.8	-48.4	17.5	0.00e+00	0	39	0	229638144	63	4802
2026-01-21 09:16:21.82	125.40	19.16	-46.2	-49.0	16.9	0.00e+00	0	39	0	234881024	63	5154
2026-01-21 09:16:24.83	125.07	19.51	-46.3	-49.1	16.7	0.00e+00	0	39	0	241172480	64	4921
2026-01-21 09:16:27.83	124.74	19.86	-46.3	-49.1	16.8	0.00e+00	0	39	0	246415360	63	5175
2026-01-21 09:16:30.83	124.39	20.21	-45.9	-48.4	17.5	0.00e+00	0	39	0	251658240	63	4793
2026-01-21 09:16:33.84	124.04	20.57	-45.6	-48.1	17.6	0.00e+00	0	39	0	257949696	62	4897
2026-01-21 09:16:36.84	123.68	20.93	-46.7	-49.6	16.5	0.00e+00	0	39	0	263192576	63	5500
2026-01-21 09:16:39.84	123.32	21.29	-45.7	-48.2	17.7	0.00e+00	0	39	0	268435456	63	4668
2026-01-21 09:16:42.84	122.94	21.66	-46.3	-49.1	16.7	0.00e+00	0	39	0	274726912	63	5218
2026-01-21 09:16:45.84	122.56	22.03	-46.7	-49.6	16.2	0.00e+00	0	39	0	279969792	65	4906
2026-01-21 09:16:48.84	122.16	22.41	-46.1	-48.8	17.1	0.00e+00	0	39	0	286261248	63	5006
2026-01-21 09:16:51.84	121.76	22.79	-46.7	-49.7	16.2	0.00e+00	0	39	0	291504128	64	5244
2026-01-21 09:16:54.84	121.34	23.18	-46.0	-48.6	17.3	0.00e+00	0	39	0	296747008	63	4897
2026-01-21 09:16:57.85	120.91	23.57	-46.4	-49.1	16.8	0.00e+00	0	39	0	303038464	63	5200
2026-01-21 09:17:00.85	120.48	23.96	-46.8	-49.8	16.1	0.00e+00	0	40	0	308281344	64	5285
2026-01-21 09:17:03.86	120.03	24.36	-46.1	-48.7	17.2	0.00e+00	0	39	0	313524224	64	4701
2026-01-21 09:17:06.87	119.57	24.76	-46.3	-49.1	16.8	0.00e+00	0	39	0	319815680	64	4893
2026-01-21 09:17:09.87	119.10	25.17	-46.1	-48.8	17.1	0.00e+00	0	39	0	325058560	63	5023
2026-01-21 09:17:12.87	118.61	25.57	-46.4	-49.2	16.8	0.00e+00	0	39	0	331350016	63	5230
2026-01-21 09:17:15.86	118.12	25.99	-46.3	-49.1	17.0	0.00e+00	0	39	0	336592896	63	5163
2026-01-21 09:17:18.87	117.60	26.41	-46.5	-49.3	16.7	0.00e+00	0	39	0	341835776	63	5282
2026-01-21 09:17:21.87	117.08	26.83	-46.7	-49.5	16.4	0.00e+00	0	40	0	348127232	64	5145
2026-01-21 09:17:24.87	116.54	27.25	-46.7	-49.6	16.3	0.00e+00	0	39	0	353370112	64	5206
2026-01-21 09:17:27.87	115.99	27.68	-46.9	-50.0	16.1	0.00e+00	0	39	0	358612992	64	5404
2026-01-21 09:17:30.87	115.42	28.11	-46.8	-49.7	16.3	0.00e+00	0	39	0	364904448	64	5256
2026-01-21 09:17:33.87	114.84	28.55	-46.6	-49.5	16.5	0.00e+00	0	39	0	370147328	64	5112
2026-01-21 09:17:36.87	114.23	28.99	-47.4	-50.7	15.2	0.00e+00	0	40	0	375390208	65	5570
2026-01-21 09:17:39.88	113.61	29.43	-47.1	-50.2	15.7	0.00e+00	0	39	0	381681664	65	5248
2026-01-21 09:17:42.88	112.98	29.88	-47.8	-51.2	14.8	0.00e+00	0	40	0	386924544	66	5590
2026-01-21 09:17:45.89	112.32	30.33	-48.3	-52.2	13.8	1.50e-06	0	39	0	393216000	67	5889
2026-01-21 09:17:48.89	111.65	30.78	-48.4	-52.2	14.2	2.20e-06	0	39	0	398458880	68	5557
2026-01-21 09:17:51.89	110.96	31.24	-48.5	-52.2	13.9	7.00e-07	0	39	0	403701760	68	5591
2026-01-21 09:17:54.90	110.25	31.69	-48.7	-52.4	13.8	1.14e-05	0	40	0	409993216	68	5708
2026-01-21 09:17:57.90	109.52	32.15	-48.1	-51.5	14.7	7.00e-07	0	39	0	415236096	68	5121
2026-01-21 09:18:00.90	108.77	32.61	-48.1	-51.7	14.4	0.00e+00	0	39	0	420478976	67	5575
2026-01-21 09:18:03.91	107.99	33.07	-49.5	-54.2	12.0	2.94e-04	0	39	0	426770432	69	6645
2026-01-21 09:18:06.91	107.19	33.54	-48.1	-51.6	14.6	3.00e-06	0	39	0	432013312	68	5214
2026-01-21 09:18:09.90	106.38	34.00	-46.4	-49.1	16.9	0.00e+00	0	40	0	438304768	64	4897
2026-01-21 09:18:12.90	105.53	34.46	-46.5	-49.1	16.9	0.00e+00	0	39	0	443547648	63	5212
2026-01-21 09:18:15.91	104.66	34.92	-47.0	-50.0	16.0	0.00e+00	0	39	0	448790528	65	5127
2026-01-21 09:18:18.92	103.77	35.39	-47.0	-49.9	16.1	0.00e+00	0	39	0	455081984	65	5068
2026-01-21 09:18:21.93	102.84	35.85	-47.3	-50.4	15.7	0.00e+00	0	40	0	460324864	65	5354
2026-01-21 09:18:24.93	101.90	36.30	-47.2	-50.4	15.7	0.00e+00	0	40	0	465567744	65	5370
2026-01-21 09:18:27.94	100.92	36.76	-47.2	-50.3	15.8	0.00e+00	0	39	0	471859200	65	5297
2026-01-21 09:18:30.94	99.92	37.21	-48.0	-51.5	14.6	0.00e+00	0	39	0	477102080	66	5753
2026-01-21 09:18:33.95	98.89	37.66	-48.3	-52.0	14.4	2.20e-06	0	39	0	483393536	68	5415
2026-01-21 09:18:36.95	97.84	38.10	-48.7	-52.6	13.6	1.14e-05	0	39	0	488636416	68	5843
2026-01-21 09:18:39.95	96.75	38.54	-47.7	-51.1	15.1	0.00e+00	0	40	0	493879296	66	5471
2026-01-21 09:18:42.95	95.64	38.97	-46.9	-49.8	16.3	0.00e+00	0	39	0	500170752	65	5006
2026-01-21 09:18:45.96	94.49	39.39	-45.6	-48.3	17.5	0.00e+00	0	39	0	505413632	63	4756
2026-01-21 09:18:48.96	93.31	39.81	-46.2	-49.2	16.7	0.00e+00	0	40	0	510656512	63	5261
2026-01-21 09:18:51.97	92.11	40.21	-46.6	-50.0	15.8	0.00e+00	0	40	0	516947968	64	5441
2026-01-21 09:18:54.97	90.87	40.61	-45.8	-48.7	17.1	0.00e+00	0	40	0	522190848	63	4983
2026-01-21 09:18:57.97	89.61	40.99	-45.7	-48.6	17.2	0.00e+00	0	39	0	527433728	62	5211
2026-01-21 09:19:00.98	88.31	41.36	-44.9	-47.7	18.0	0.00e+00	0	40	0	533725184	61	4954
2026-01-21 09:19:03.99	86.98	41.72	-45.7	-48.9	17.0	0.00e+00	0	39	0	538968064	62	5363
2026-01-21 09:19:06.99	85.63	42.07	-45.8	-48.9	16.8	0.00e+00	0	40	0	545259520	63	5065
2026-01-21 09:19:09.99	84.24	42.39	-45.3	-48.1	17.6	0.00e+00	0	40	0	550502400	62	4922
2026-01-21 09:19:12.99	82.84	42.71	-45.0	-47.7	18.0	0.00e+00	0	39	0	555745280	61	4959
2026-01-21 09:19:16.00	81.39	43.00	-45.6	-48.6	17.2	0.00e+00	0	40	0	562036736	61	5492
2026-01-21 09:19:19.00	79.93	43.28	-46.6	-50.0	16.0	0.00e+00	0	40	0	567279616	63	5757
2026-01-21 09:19:22.01	78.44	43.53	-45.9	-48.7	17.2	0.00e+00	0	40	0	572522496	63	4961
2026-01-21 09:19:25.01	76.93	43.77	-46.4	-49.5	16.4	0.00e+00	0	39	0	578813952	63	5442
2026-01-21 09:19:28.02	75.39	43.98	-46.4	-49.4	16.6	0.00e+00	0	39	0	584056832	63	5374
2026-01-21 09:19:31.01	73.85	44.18	-46.6	-49.8	16.0	0.00e+00	0	39	0	590348288	64	5300
2026-01-21 09:19:34.01	72.28	44.35	-45.9	-48.8	17.1	0.00e+00	0	39	0	595591168	63	4993
2026-01-21 09:19:37.02	70.69	44.49	-46.5	-49.8	16.1	0.00e+00	0	40	0	600834048	63	5612
2026-01-21 09:19:40.02	69.09	44.61	-46.6	-50.0	15.9	0.00e+00	0	40	0	607125504	65	5108
2026-01-21 09:19:43.02	67.49	44.71	-47.4	-51.4	14.5	2.20e-06	0	39	0	612368384	65	6014
2026-01-21 09:19:46.02	65.87	44.78	-46.7	-50.1	15.7	0.00e+00	0	40	0	617611264	65	5180
2026-01-21 09:19:49.02	64.25	44.83	-46.9	-50.5	15.3	0.00e+00	0	39	0	623902720	64	5728
2026-01-21 09:19:52.02	62.62	44.85	-45.7	-48.5	17.3	0.00e+00	0	39	0	629145600	63	4835
2026-01-21 09:19:55.03	60.99	44.84	-47.2	-51.0	14.9	0.00e+00	0	39	0	634388480	65	5731
2026-01-21 09:19:58.03	59.36	44.81	-47.5	-51.5	14.3	7.00e-07	0	39	0	640679936	65	6073
2026-01-21 09:20:01.03	57.74	44.76	-47.5	-51.6	14.3	7.00e-07	0	39	0	645922816	65	6198
2026-01-21 09:20:04.04	56.13	44.68	-46.6	-50.1	15.8	0.00e+00	0	39	0	652214272	64	5483
2026-01-21 09:20:07.04	54.52	44.57	-47.5	-51.5	14.4	7.00e-07	0	40	0	657457152	66	5733
2026-01-21 09:20:10.04	52.93	44.44	-46.6	-50.0	15.9	0.00e+00	0	39	0	662700032	65	5137
2026-01-21 09:20:13.04	51.36	44.28	-46.9	-50.5	15.3	0.00e+00	0	39	0	668991488	64	5768
2026-01-21 09:20:16.05	49.79	44.11	-46.6	-50.2	15.6	0.00e+00	0	39	0	674234368	64	5541
2026-01-21 09:20:19.05	48.25	43.90	-46.1	-49.2	16.4	0.00e+00	0	39	0	679477248	63	5274
2026-01-21 09:20:22.05	46.73	43.68	-46.4	-49.7	16.2	0.00e+00	0	39	0	685768704	63	5577
2026-01-21 09:20:25.05	45.23	43.44	-45.9	-49.0	16.8	0.00e+00	0	39	0	691011584	63	5117
2026-01-21 09:20:28.06	43.75	43.18	-45.9	-48.8	17.0	0.00e+00	0	40	0	697303040	63	5039
2026-01-21 09:20:31.06	42.30	42.89	-44.9	-47.5	18.2	0.00e+00	0	39	0	702545920	61	4850
2026-01-21 09:20:34.07	40.87	42.59	-46.3	-49.6	16.3	0.00e+00	0	40	0	707788800	63	5494
2026-01-21 09:20:37.07	39.48	42.27	-45.1	-47.7	18.1	0.00e+00	0	40	0	714080256	62	4693
2026-01-21 09:20:40.08	38.10	41.94	-44.8	-47.5	18.3	0.00e+00	0	40	0	719323136	61	4816
2026-01-21 09:20:43.08	36.77	41.59	-44.3	-46.7	19.0	0.00e+00	0	39	0	724566016	60	4686
2026-01-21 09:20:46.09	35.45	41.23	-42.9	-45.0	20.4	0.00e+00	0	40	0	730857472	57	4585
2026-01-21 09:20:49.09	34.17	40.85	-42.8	-44.9	20.5	0.00e+00	0	40	0	736100352	57	4542
2026-01-21 09:20:52.09	32.92	40.47	-43.8	-46.1	19.5	0.00e+00	0	40	0	742391808	58	4889
2026-01-21 09:20:55.10	31.70	40.07	-43.7	-46.0	19.6	0.00e+00	0	39	0	747634688	58	4830
2026-01-21 09:20:58.10	30.51	39.66	-44.3	-46.8	18.9	0.00e+00	0	40	0	752877568	59	4988
2026-01-21 09:21:01.10	29.35	39.25	-44.9	-47.5	18.4	0.00e+00	0	39	0	759169024	61	4827
2026-01-21 09:21:04.11	28.22	38.82	-45.4	-48.1	17.8	0.00e+00	0	39	0	764411904	61	5162
2026-01-21 09:21:07.12	27.11	38.39	-45.3	-47.9	18.0	0.00e+00	0	40	0	769654784	61	5050
2026-01-21 09:21:10.12	26.04	37.95	-45.4	-48.0	17.9	0.00e+00	0	39	0	775946240	62	4849
2026-01-21 09:21:13.13	25.00	37.51	-45.7	-48.4	17.6	0.00e+00	0	39	0	781189120	62	5070
2026-01-21 09:21:16.13	23.99	37.06	-44.7	-47.2	18.8	0.00e+00	0	40	0	787480576	61	4655
2026-01-21 09:21:19.12	23.00	36.61	-45.4	-48.0	17.9	0.00e+00	0	39	0	792723456	61	5133
2026-01-21 09:21:22.13	22.04	36.16	-47.4	-50.9	15.2	0.00e+00	0	39	0	797966336	65	5676
2026-01-21 09:21:25.12	21.11	35.70	-46.2	-49.2	16.9	0.00e+00	0	40	0	804257792	64	4981
2026-01-21 09:21:28.12	20.21	35.24	-47.5	-51.4	14.6	0.00e+00	0	39	0	809500672	65	5993
2026-01-21 09:21:31.13	19.33	34.78	-48.1	-52.1	14.0	4.50e-06	0	39	0	814743552	67	5801
2026-01-21 09:21:34.13	18.47	34.32	-47.4	-50.8	15.3	0.00e+00	0	39	0	821035008	66	5328
2026-01-21 09:21:37.14	17.64	33.86	-48.6	-53.0	13.0	7.60e-06	0	39	0	826277888	67	6453
2026-01-21 09:21:40.14	16.83	33.40	-48.7	-53.0	13.1	2.27e-04	0	39	0	831520768	69	5781
2026-01-21 09:21:43.14	16.04	32.94	-48.6	-52.6	13.6	4.50e-06	0	39	0	837812224	68	5852
2026-01-21 09:21:46.14	15.28	32.48	-48.0	-51.6	14.3	2.20e-06	0	40	0	843055104	68	5196
2026-01-21 09:21:49.15	14.54	32.02	-47.3	-50.7	15.3	0.00e+00	0	40	0	849346560	66	5236
2026-01-21 09:21:52.15	13.82	31.57	-46.6	-49.7	16.3	0.00e+00	0	40	0	854589440	64	5230
2026-01-21 09:21:55.16	13.12	31.11	-47.6	-51.4	14.6	0.00e+00	0	40	0	859832320	65	5996
2026-01-21 09:21:58.16	12.43	30.66	-47.5	-51.1	15.0	0.00e+00	0	40	0	866123776	66	5490
2026-01-21 09:22:01.17	11.77	30.21	-47.5	-51.0	15.0	0.00e+00	0	39	0	871366656	66	5456
2026-01-21 09:22:04.17	11.13	29.77	-46.9	-50.1	16.0	0.00e+00	0	40	0	876609536	65	5160
2026-01-21 09:22:07.17	10.50	29.32	-46.6	-49.7	16.4	0.00e+00	0	39	0	882900992	64	5226
2026-01-21 09:22:10.18	9.89	28.88	-46.9	-50.2	16.0	0.00e+00	0	39	0	888143872	64	5591
2026-01-21 09:22:13.19	9.30	28.44	-46.3	-49.3	16.7	0.00e+00	0	40	0	894435328	64	4993
2026-01-21 09:22:16.19	8.72	28.01	-45.7	-48.3	17.7	0.00e+00	0	40	0	899678208	63	4737
2026-01-21 09:22:19.19	8.16	27.58	-46.6	-49.7	16.4	0.00e+00	0	40	0	904921088	63	5552
2026-01-21 09:22:22.19	7.62	27.16	-47.9	-51.7	14.4	0.00e+00	0	40	0	911212544	66	5923
2026-01-21 09:22:25.20	7.09	26.73	-47.1	-50.3	15.7	0.00e+00	0	40	0	916455424	66	5038
2026-01-21 09:22:28.20	6.57	26.32	-46.1	-49.0	17.0	0.00e+00	0	39	0	921698304	64	4817
2026-01-21 09:22:31.20	6.07	25.90	-46.2	-49.1	16.9	0.00e+00	0	40	0	927989760	64	4904
2026-01-21 09:22:34.19	5.58	25.49	-46.4	-49.3	16.7	0.00e+00	0	39	0	933232640	64	5040
2026-01-21 09:22:37.19	5.10	25.09	-46.2	-49.2	16.8	0.00e+00	0	40	0	938475520	64	4946
2026-01-21 09:22:40.20	4.64	24.68	-46.9	-50.2	15.8	0.00e+00	0	40	0	944766976	64	5554
2026-01-21 09:22:43.20	4.19	24.29	-47.9	-51.8	14.3	1.50e-06	0	40	0	950009856	66	5946
2026-01-21 09:22:46.20	3.74	23.89	-46.8	-50.1	15.9	0.00e+00	0	40	0	956301312	65	5183
2026-01-21 09:22:49.21	3.31	23.50	-46.1	-48.9	17.0	0.00e+00	0	39	0	961544192	64	4812
2026-01-21 09:22:52.22	2.89	23.12	-46.3	-49.2	16.8	0.00e+00	0	40	0	966787072	63	5279
2026-01-21 09:22:55.22	2.48	22.73	-46.4	-49.4	16.6	0.00e+00	0	40	0	973078528	63	5380
2026-01-21 09:22:58.22	2.09	22.36	-46.6	-49.9	16.2	0.00e+00	0	40	0	978321408	63	5693
2026-01-21 09:23:01.23	1.70	21.98	-46.5	-49.7	16.3	0.00e+00	0	39	0	983564288	64	5252
2026-01-21 09:23:04.23	1.32	21.61	-45.9	-48.7	17.3	0.00e+00	0	39	0	989855744	63	4931
2026-01-21 09:23:07.22	0.95	21.25	-46.0	-48.8	17.2	0.00e+00	0	39	0	995098624	63	5033
2026-01-21 09:23:10.22	0.59	20.89	-47.0	-50.5	15.4	0.00e+00	0	40	0	1000341504	64	5775
2026-01-21 09:23:13.22	0.23	20.53	-48.3	-52.6	13.5	6.80e-06	0	39	0	1006632960	67	6146
2026-01-21 09:23:16.23	359.89	20.18	-47.8	-51.8	14.2	7.00e-07	0	39	0	1011875840	67	5630
2026-01-21 09:23:19.23	359.55	19.83	-47.2	-50.9	15.0	0.00e+00	0	40	0	1018167296	66	5386
2026-01-21 09:23:22.23	359.22	19.48	-47.2	-50.7	15.3	0.00e+00	0	39	0	1023410176	66	5279
2026-01-21 09:23:25.24	358.90	19.14	-47.2	-50.5	15.4	0.00e+00	0	39	0	1028653056	66	5158
2026-01-21 09:23:28.24	358.59	18.80	-47.0	-50.3	15.6	0.00e+00	0	39	0	1034944512	65	5305
2026-01-21 09:23:31.25	358.28	18.46	-46.7	-50.1	15.8	0.00e+00	0	40	0	1040187392	65	5193
2026-01-21 09:23:34.25	357.98	18.13	-46.7	-50.1	15.8	0.00e+00	0	39	0	1045430272	65	5189
2026-01-21 09:23:37.25	357.69	17.81	-46.6	-49.8	16.1	0.00e+00	0	40	0	1051721728	65	5035
2026-01-21 09:23:40.25	357.40	17.48	-46.5	-49.8	16.0	0.00e+00	0	39	0	1056964608	65	5031
2026-01-21 09:23:43.25	357.12	17.16	-46.6	-50.1	15.8	0.00e+00	0	39	0	1063256064	65	5172
2026-01-21 09:23:46.26	356.85	16.84	-46.9	-50.4	15.5	0.00e+00	0	40	0	1068498944	65	5368
2026-01-21 09:23:49.26	356.58	16.53	-46.8	-50.1	15.8	0.00e+00	0	39	0	1073741824	65	5170
2026-01-21 09:23:52.27	356.31	16.22	-46.4	-49.6	16.3	0.00e+00	0	39	0	1080033280	64	5176
2026-01-21 09:23:55.27	356.06	15.91	-46.0	-49.0	16.9	0.00e+00	0	39	0	1085276160	63	5151
2026-01-21 09:23:58.27	355.81	15.61	-45.8	-48.7	17.2	0.00e+00	0	40	0	1090519040	63	4950
2026-01-21 09:24:01.27	355.56	15.31	-45.8	-48.6	17.2	0.00e+00	0	40	0	1096810496	63	4923
2026-01-21 09:24:04.27	355.32	15.01	-46.1	-49.0	16.9	0.00e+00	0	40	0	1102053376	63	5144
2026-01-21 09:24:07.28	355.08	14.72	-46.4	-49.7	16.3	0.00e+00	0	40	0	1108344832	63	5542
2026-01-21 09:24:10.29	354.85	14.42	-46.7	-50.1	15.8	0.00e+00	0	39	0	1113587712	64	5515
2026-01-21 09:24:13.28	354.62	14.14	-47.1	-50.4	15.5	0.00e+00	0	39	0	1118830592	65	5381
2026-01-21 09:24:16.28	354.40	13.85	-46.9	-50.4	15.4	0.00e+00	0	40	0	1125122048	65	5387
2026-01-21 09:24:19.28	354.18	13.57	-47.0	-50.5	15.4	0.00e+00	0	39	0	1130364928	65	5449
2026-01-21 09:24:22.28	353.97	13.29	-46.9	-50.6	15.2	0.00e+00	0	40	0	1135607808	65	5481
2026-01-21 09:24:25.29	353.76	13.01	-46.5	-50.6	15.2	0.00e+00	0	40	0	1141899264	65	5511
2026-01-21 09:24:28.29	353.56	12.74	-46.5	-50.9	14.9	0.00e+00	0	40	0	1147142144	64	6036
2026-01-21 09:24:31.29	353.35	12.47	-46.7	-51.1	14.8	0.00e+00	0	40	0	1153433600	64	6152
2026-01-21 09:24:34.30	353.16	12.20	-47.0	-51.4	14.4	0.00e+00	0	39	0	1158676480	64	6417
2026-01-21 09:24:37.30	352.96	11.93	-47.1	-51.5	14.3	1.50e-06	0	39	0	1163919360	65	6131
2026-01-21 09:24:40.31	352.77	11.67	-47.1	-51.4	14.4	7.00e-07	0	39	0	1170210816	65	6037
2026-01-21 09:24:43.31	352.59	11.41	-46.5	-51.0	14.9	0.00e+00	0	39	0	1175453696	64	6070
2026-01-21 09:24:46.31	352.40	11.15	-46.0	-51.0	14.9	0.00e+00	0	40	0	1180696576	63	6422
2026-01-21 09:24:49.32	352.22	10.89	-45.4	-50.8	15.1	0.00e+00	0	39	0	1186988032	62	6667
2026-01-21 09:24:52.32	352.05	10.64	-45.3	-50.7	15.2	0.00e+00	0	40	0	1192230912	62	6576
2026-01-21 09:24:55.32	351.87	10.39	-45.7	-50.9	15.0	0.00e+00	0	39	0	1197473792	62	6736
2026-01-21 09:24:58.32	351.70	10.14	-46.3	-51.2	14.7	0.00e+00	0	40	0	1203765248	63	6598
2026-01-21 09:25:01.33	351.54	9.89	-46.8	-51.5	14.3	1.50e-06	0	39	0	1209008128	64	6453
2026-01-21 09:25:04.34	351.37	9.64	-46.8	-51.8	14.0	7.00e-07	0	39	0	1215299584	64	6658
2026-01-21 09:25:07.35	351.21	9.40	-46.9	-52.2	13.5	1.50e-06	0	40	0	1220542464	64	7014
2026-01-21 09:25:10.35	351.05	9.16	-46.8	-52.1	13.6	5.30e-06	0	40	0	1225785344	64	6938
2026-01-21 09:25:13.35	350.90	8.92	-48.5	-67.1	3.8	5.45e-01	0	40	104	1231028224	67	32854
2026-01-21 09:25:16.34	350.75	8.69	-52.1	-67.6	3.8	1.49e+00	0	39	104	1231028224	74	23211
2026-01-21 09:25:19.33	350.60	8.45	-52.5	-67.7	3.8	1.49e+00	0	39	104	1231028224	75	22252
2026-01-21 09:25:22.32	350.45	8.22	-52.0	-67.8	3.8	1.49e+00	0	40	104	1231028224	75	22428
2026-01-21 09:25:25.32	350.30	7.99	-52.5	-67.8	3.8	1.49e+00	0	40	104	1231028224	75	22428
2026-01-21 09:25:28.30	350.16	7.76	-52.6	-67.9	3.8	1.49e+00	0	39	104	1231028224	75	22575
2026-01-21 09:25:31.29	350.02	7.54	-52.6	-67.9	3.8	1.49e+00	0	40	104	1231028224	76	21434
2026-01-21 09:25:34.29	349.89	7.31	-52.7	-67.9	3.8	1.49e+00	0	40	104	1231028224	76	21388
2026-01-21 09:25:37.28	349.75	7.09	-52.7	-67.9	3.8	1.49e+00	0	40	104	1231028224	76	21357
2026-01-21 09:25:40.27	349.62	6.87	-52.5	-67.8	3.8	1.49e+00	0	40	104	1231028224	76	21250
2026-01-21 09:25:43.26	349.49	6.65	-52.4	-67.9	3.8	1.49e+00	0	39	104	1231028224	76	21272
2026-01-21 09:25:46.25	349.36	6.43	-52.4	-67.8	3.8	1.49e+00	0	39	104	1231028224	76	21254
2026-01-21 09:25:49.24	349.23	6.22	-52.4	-67.8	3.8	1.49e+00	0	40	104	1231028224	76	21248
2026-01-21 09:25:52.23	349.11	6.00	-52.4	-67.8	3.8	1.49e+00	0	40	104	1231028224	76	21161
2026-01-21 09:25:55.22	348.99	5.79	-52.4	-67.8	3.8	1.49e+00	0	40	104	1231028224	76	21185
2026-01-21 09:25:58.21	348.87	5.58	-52.4	-67.8	3.8	1.49e+00	0	39	104	1231028224	76	21180
2026-01-21 09:26:01.20	348.75	5.37	-52.4	-67.8	3.8	1.49e+00	0	40	104	1231028224	76	21087
2026-01-21 09:26:04.18	348.63	5.17	-52.4	-67.8	3.8	1.49e+00	0	40	104	1231028224	76	21225
2026-01-21 09:26:07.17	348.52	4.96	-52.4	-67.9	3.8	1.49e+00	0	40	104	1231028224	76	21281

#Closed at: 2026-01-21 09:26:08
#Recorded file [1231 MB]: D:/Data/31040_260121_121342.dat