passes_logs/2026/01/21/T1/T1__20260121_204931_KHAYYAM_rec.log

#Pass ID: 20260121_204931_KHAYYAM
#Satellite: KHAYYAM
#Configuration: KHAYYAM_480M
#almurnet v.1.7.20251203
#Start time: 2026-01-21 20:49:31

#Version: 2.0.20230620
#Station: T1
#Location: 37.570604 lon 55.790049 lat
#TLE: 1 53370U 22096A   26020.99496882  .00015565  00000+0  63198-3 0  9993
#TLE: 2 53370  97.3560 287.8974 0001831 108.0193 252.1244 15.24672017192153

#Time	Az	El	Level	Level2	SNR	BER	BlckErr	Temp	State	Recorded	gain1	gain2
2026-01-21 20:49:31.22	21.23	5.07	-52.1	-57.1	3.5	0.00e+00	0	40	0	0	74	27662
2026-01-21 20:49:33.20	21.33	5.23	-52.1	-57.1	3.7	0.00e+00	0	40	104	0	74	27756
2026-01-21 20:49:35.19	21.44	5.38	-52.1	-57.2	3.7	0.00e+00	0	40	104	0	74	27844
2026-01-21 20:49:37.17	21.55	5.54	-52.1	-57.2	3.7	0.00e+00	0	41	104	0	74	27888
2026-01-21 20:49:39.16	21.67	5.70	-52.1	-57.2	3.7	0.00e+00	0	41	104	0	74	27848
2026-01-21 20:49:41.14	21.78	5.86	-52.1	-57.2	3.7	0.00e+00	0	41	104	0	74	27921
2026-01-21 20:49:43.13	21.89	6.03	-52.1	-57.1	3.7	0.00e+00	0	41	104	0	74	27768
2026-01-21 20:49:45.11	22.01	6.19	-52.1	-57.1	3.7	0.00e+00	0	41	104	0	74	27825
2026-01-21 20:49:47.10	22.13	6.35	-52.1	-57.1	3.7	0.00e+00	0	41	104	0	74	27832
2026-01-21 20:49:49.08	22.25	6.52	-52.1	-57.2	3.7	0.00e+00	0	42	104	0	74	27888
2026-01-21 20:49:51.07	22.37	6.69	-52.1	-57.2	3.7	0.00e+00	0	42	104	0	74	27853
2026-01-21 20:49:53.06	22.49	6.86	-52.1	-57.2	3.7	0.00e+00	0	42	104	0	74	27932
2026-01-21 20:49:55.04	22.61	7.03	-52.1	-57.1	3.7	0.00e+00	0	42	104	0	74	27760
2026-01-21 20:49:57.03	22.74	7.20	-52.1	-57.2	3.7	0.00e+00	0	42	104	0	74	27982
2026-01-21 20:49:59.02	22.87	7.38	-52.1	-57.2	3.7	0.00e+00	0	42	104	0	74	27864
2026-01-21 20:50:01.00	23.00	7.55	-52.1	-57.2	3.7	0.00e+00	0	42	104	0	74	27857
2026-01-21 20:50:02.99	23.13	7.73	-52.1	-57.2	3.7	0.00e+00	0	42	104	0	74	27887
2026-01-21 20:50:04.97	23.26	7.90	-52.1	-57.2	3.7	0.00e+00	0	43	104	0	74	27938
2026-01-21 20:50:06.96	23.40	8.09	-52.1	-57.2	3.7	0.00e+00	0	43	104	0	74	27934
2026-01-21 20:50:08.95	23.54	8.27	-52.1	-57.2	3.7	0.00e+00	0	43	104	0	74	28006
2026-01-21 20:50:10.93	23.68	8.45	-52.1	-57.2	3.7	0.00e+00	0	43	104	0	74	28078
2026-01-21 20:50:12.92	23.82	8.64	-52.1	-57.2	3.7	0.00e+00	0	43	104	0	74	28064
2026-01-21 20:50:14.90	23.96	8.82	-52.2	-57.2	3.7	0.00e+00	0	43	104	0	74	28125
2026-01-21 20:50:16.89	24.11	9.01	-52.2	-57.3	3.7	0.00e+00	0	43	104	0	75	26597
2026-01-21 20:50:18.88	24.26	9.20	-52.3	-57.0	3.7	0.00e+00	0	43	104	0	75	25949
2026-01-21 20:50:20.87	24.41	9.39	-52.3	-57.1	3.7	0.00e+00	0	43	104	0	75	26137
2026-01-21 20:50:22.83	24.56	9.58	-52.1	-57.1	3.7	0.00e+00	0	43	104	0	75	26251
2026-01-21 20:50:24.82	24.71	9.78	-52.0	-57.2	3.7	0.00e+00	0	43	104	0	75	26455
2026-01-21 20:50:26.80	24.87	9.98	-51.6	-56.7	3.7	0.00e+00	0	44	104	0	75	24924
2026-01-21 20:50:28.79	25.03	10.18	-51.9	-56.9	3.7	0.00e+00	0	43	104	0	75	25591
2026-01-21 20:50:30.78	25.19	10.38	-51.6	-56.3	3.7	0.00e+00	0	43	104	0	75	23808
2026-01-21 20:50:32.77	25.36	10.59	-51.9	-56.8	3.7	0.00e+00	0	44	104	0	75	25098
2026-01-21 20:50:34.78	25.53	10.79	-52.2	-57.1	3.7	0.00e+00	0	44	104	0	75	26248
2026-01-21 20:50:36.81	25.71	11.01	-52.6	-57.4	3.7	0.00e+00	0	44	104	0	75	26945
2026-01-21 20:50:38.80	25.88	11.22	-52.2	-57.2	3.7	0.00e+00	0	44	104	0	76	24941
2026-01-21 20:50:40.83	26.06	11.44	-52.4	-57.4	3.7	0.00e+00	0	44	104	0	76	25433
2026-01-21 20:50:42.84	26.24	11.65	-52.9	-57.7	3.7	0.00e+00	0	44	104	0	76	26554
2026-01-21 20:50:44.82	26.43	11.87	-52.6	-57.6	3.7	0.00e+00	0	44	104	0	76	25988
2026-01-21 20:50:46.84	26.62	12.10	-52.4	-56.7	3.7	0.00e+00	0	44	104	0	76	23581
2026-01-21 20:50:48.84	26.81	12.32	-52.4	-57.2	3.7	0.00e+00	0	44	104	0	76	24867
2026-01-21 20:50:50.83	27.00	12.54	-52.5	-57.3	3.7	0.00e+00	0	44	104	0	76	25361
2026-01-21 20:50:53.16	27.23	12.81	-52.5	-57.5	3.7	0.00e+00	0	44	104	0	76	25830
2026-01-21 20:50:55.20	27.44	13.05	-52.5	-57.1	3.7	0.00e+00	0	44	104	0	76	24760
2026-01-21 20:50:57.18	27.64	13.28	-52.6	-57.5	3.7	0.00e+00	0	44	104	0	76	25965
2026-01-21 20:50:59.18	27.85	13.52	-52.2	-57.1	3.7	0.00e+00	0	44	104	0	76	24795
2026-01-21 20:51:01.17	28.07	13.76	-52.3	-57.3	3.7	0.00e+00	0	44	104	0	76	25208
2026-01-21 20:51:03.15	28.28	14.00	-53.2	-57.9	3.7	0.00e+00	0	44	104	0	77	25515
2026-01-21 20:51:05.15	28.51	14.25	-52.7	-57.5	3.7	0.00e+00	0	45	104	0	76	25944
2026-01-21 20:51:07.19	28.74	14.50	-53.1	-57.8	3.7	0.00e+00	0	45	104	0	76	26775
2026-01-21 20:51:09.24	28.97	14.76	-53.2	-57.7	3.7	0.00e+00	0	45	104	0	77	25038
2026-01-21 20:51:11.23	29.21	15.02	-53.0	-57.0	3.7	0.00e+00	0	45	104	0	77	22929
2026-01-21 20:51:13.36	29.47	15.29	-53.5	-57.6	3.7	0.00e+00	0	45	104	0	77	24649
2026-01-21 20:51:15.36	29.71	15.55	-53.9	-58.2	3.7	0.00e+00	0	45	104	0	78	25071
2026-01-21 20:51:17.34	29.96	15.82	-53.3	-57.7	3.7	0.00e+00	0	45	104	0	78	23447
2026-01-21 20:51:19.33	30.22	16.09	-53.2	-57.7	3.7	0.00e+00	0	44	104	0	78	23441
2026-01-21 20:51:21.32	30.48	16.36	-53.1	-57.8	3.7	0.00e+00	0	45	104	0	78	23863
2026-01-21 20:51:23.31	30.74	16.63	-53.3	-57.7	3.7	0.00e+00	0	45	104	0	78	23594
2026-01-21 20:51:25.33	31.02	16.91	-53.1	-57.2	3.7	0.00e+00	0	45	104	0	78	22171
2026-01-21 20:51:27.37	31.30	17.20	-53.4	-57.2	3.7	0.00e+00	0	45	104	0	78	22265
2026-01-21 20:51:29.45	31.60	17.50	-53.3	-57.2	3.7	0.00e+00	0	45	104	0	78	22169
2026-01-21 20:51:31.48	31.89	17.80	-53.2	-57.0	3.7	0.00e+00	0	45	104	0	78	21608
2026-01-21 20:51:33.47	32.19	18.09	-52.4	-55.8	3.7	0.00e+00	0	45	104	0	76	21244
2026-01-21 20:51:35.45	32.49	18.39	-52.5	-55.9	3.7	0.00e+00	0	45	104	0	76	21368
2026-01-21 20:51:37.44	32.80	18.69	-52.3	-56.4	3.7	0.00e+00	0	45	104	0	75	24194
2026-01-21 20:51:39.43	33.12	19.00	-52.8	-57.3	3.7	0.00e+00	0	45	104	0	76	25165
2026-01-21 20:51:41.43	33.44	19.31	-53.1	-57.5	3.7	0.00e+00	0	45	104	0	76	25783
2026-01-21 20:51:43.50	33.79	19.63	-53.5	-57.8	3.7	0.00e+00	0	45	104	0	78	23896
2026-01-21 20:51:45.49	34.13	19.95	-53.8	-58.3	3.7	0.00e+00	0	45	104	0	78	25175
2026-01-21 20:51:47.48	34.48	20.28	-53.6	-57.8	3.7	0.00e+00	0	45	104	0	78	23740
2026-01-21 20:51:49.47	34.83	20.60	-53.6	-57.9	3.7	0.00e+00	0	45	104	0	78	24075
2026-01-21 20:51:51.45	35.20	20.93	-53.9	-58.3	3.7	0.00e+00	0	45	104	0	78	25170
2026-01-21 20:51:53.44	35.57	21.27	-53.2	-57.1	3.7	0.00e+00	0	45	104	0	78	21918
2026-01-21 20:51:55.43	35.95	21.61	-53.0	-56.7	3.7	0.00e+00	0	45	104	0	77	22247
2026-01-21 20:51:57.43	36.35	21.96	-53.3	-56.9	3.7	0.00e+00	0	45	104	0	77	22717
2026-01-21 20:51:59.42	36.75	22.31	-52.9	-56.0	3.7	0.00e+00	0	45	104	0	77	20594
2026-01-21 20:52:01.41	37.17	22.67	-53.0	-56.3	3.7	0.00e+00	0	45	104	0	77	21297
2026-01-21 20:52:03.51	37.61	23.05	-53.3	-57.0	3.7	0.00e+00	0	45	104	0	77	23084
2026-01-21 20:52:05.50	38.05	23.41	-53.2	-56.7	3.7	0.00e+00	0	45	104	0	77	22177
2026-01-21 20:52:07.49	38.50	23.78	-53.3	-56.9	3.7	0.00e+00	0	45	104	0	77	22756
2026-01-21 20:52:09.70	39.01	24.20	-53.9	-58.0	3.7	0.00e+00	0	45	104	0	78	24246
2026-01-21 20:52:11.69	39.48	24.58	-53.7	-57.7	3.7	0.00e+00	0	45	104	0	78	23469
2026-01-21 20:52:13.68	39.97	24.97	-53.8	-57.8	3.7	0.00e+00	0	45	104	0	78	23898
2026-01-21 20:52:15.68	40.47	25.36	-54.1	-58.5	3.7	0.00e+00	0	45	104	0	78	25690
2026-01-21 20:52:17.72	40.99	25.77	-54.1	-58.6	3.7	0.00e+00	0	45	104	0	79	24666
2026-01-21 20:52:19.72	41.52	26.17	-53.9	-58.1	3.7	0.00e+00	0	45	104	0	79	23381
2026-01-21 20:52:21.72	42.07	26.58	-53.8	-57.9	3.7	0.00e+00	0	45	104	0	79	22746
2026-01-21 20:52:23.93	42.69	27.04	-54.0	-58.2	3.7	0.00e+00	0	45	104	0	79	23553
2026-01-21 20:52:25.95	43.27	27.46	-53.6	-57.3	3.7	0.00e+00	0	45	104	0	79	21271
2026-01-21 20:52:27.94	43.87	27.89	-54.0	-58.1	3.7	0.00e+00	0	45	104	0	79	23312
2026-01-21 20:52:29.95	44.48	28.32	-54.2	-58.4	3.7	0.00e+00	0	45	104	0	79	24208
2026-01-21 20:52:31.93	45.11	28.75	-54.1	-58.3	3.7	0.00e+00	0	45	104	0	79	23893
2026-01-21 20:52:33.92	45.76	29.18	-54.2	-58.6	3.7	0.00e+00	0	45	104	0	79	24787
2026-01-21 20:52:35.91	46.42	29.63	-54.1	-58.6	3.7	0.00e+00	0	45	104	0	79	24593
2026-01-21 20:52:37.93	47.12	30.08	-54.3	-58.8	3.7	0.00e+00	0	45	104	0	79	25174
2026-01-21 20:52:39.95	47.84	30.54	-54.3	-58.8	3.7	0.00e+00	0	45	104	0	79	25296
2026-01-21 20:52:42.26	48.69	31.06	-54.3	-58.8	3.7	0.00e+00	0	45	104	0	79	25223
2026-01-21 20:52:44.42	49.51	31.56	-54.3	-58.7	3.7	0.00e+00	0	45	104	0	79	24862
2026-01-21 20:52:46.41	50.29	32.02	-54.0	-58.6	3.7	0.00e+00	0	45	104	0	79	24711
2026-01-21 20:52:48.48	51.12	32.50	-54.0	-58.5	3.7	0.00e+00	0	45	104	0	79	24290
2026-01-21 20:52:50.50	51.97	32.98	-54.4	-58.9	3.7	0.00e+00	0	45	104	0	79	25395
2026-01-21 20:52:52.58	52.86	33.47	-54.3	-58.4	3.7	0.00e+00	0	45	104	0	79	24216
2026-01-21 20:52:54.54	53.74	33.93	-54.4	-58.6	3.7	0.00e+00	0	45	104	0	79	24724
2026-01-21 20:52:56.53	54.65	34.41	-54.3	-58.5	3.7	0.00e+00	0	45	104	0	79	24282
2026-01-21 20:52:58.52	55.59	34.88	-54.3	-58.6	3.7	0.00e+00	0	45	104	0	79	24525
2026-01-21 20:53:00.51	56.56	35.35	-54.4	-58.8	3.7	0.00e+00	0	45	104	0	79	25114
2026-01-21 20:53:02.50	57.56	35.83	-54.5	-58.9	3.7	0.00e+00	0	45	104	0	79	25604
2026-01-21 20:53:04.49	58.59	36.30	-54.4	-58.9	3.7	0.00e+00	0	45	104	0	79	25673
2026-01-21 20:53:06.48	59.65	36.77	-54.6	-59.0	3.7	0.00e+00	0	46	104	0	79	25699
2026-01-21 20:53:08.47	60.75	37.23	-54.5	-58.8	3.7	0.00e+00	0	46	104	0	80	23794
2026-01-21 20:53:10.45	61.87	37.69	-54.4	-58.5	3.6	0.00e+00	0	45	104	0	80	23145
2026-01-21 20:53:12.45	63.04	38.15	-54.5	-58.9	3.7	0.00e+00	0	45	104	0	80	23979
2026-01-21 20:53:14.44	64.24	38.60	-54.6	-58.9	3.7	0.00e+00	0	45	104	0	80	24189
2026-01-21 20:53:16.42	65.47	39.05	-54.7	-59.1	3.7	0.00e+00	0	45	104	0	80	24681
2026-01-21 20:53:18.41	66.74	39.48	-54.7	-59.1	3.7	0.00e+00	0	46	104	0	80	24617
2026-01-21 20:53:20.40	68.04	39.91	-54.7	-59.1	3.7	0.00e+00	0	46	104	0	80	24652
2026-01-21 20:53:22.55	69.49	40.36	-54.5	-58.8	3.7	0.00e+00	0	45	104	0	80	23816
2026-01-21 20:53:24.55	70.88	40.77	-54.8	-59.2	3.7	0.00e+00	0	45	104	0	80	24851
2026-01-21 20:53:26.53	72.28	41.16	-54.6	-59.0	3.7	0.00e+00	0	46	104	0	80	24478
2026-01-21 20:53:28.53	73.74	41.54	-54.5	-59.1	3.7	0.00e+00	0	45	104	0	80	24645
2026-01-21 20:53:30.51	75.22	41.90	-54.6	-59.1	3.7	0.00e+00	0	45	104	0	80	24669
2026-01-21 20:53:32.50	76.74	42.24	-54.7	-59.2	3.7	0.00e+00	0	46	104	0	80	24867
2026-01-21 20:53:34.50	78.30	42.57	-54.6	-59.2	3.7	0.00e+00	0	45	104	0	80	24849
2026-01-21 20:53:36.49	79.89	42.88	-54.2	-58.9	3.7	0.00e+00	0	46	104	0	80	24008
2026-01-21 20:53:38.48	81.50	43.16	-54.3	-59.0	3.7	0.00e+00	0	46	104	0	80	24360
2026-01-21 20:53:40.47	83.15	43.43	-54.1	-58.9	3.7	0.00e+00	0	46	104	0	79	25672
2026-01-21 20:53:42.46	84.82	43.67	-54.3	-59.0	3.7	0.00e+00	0	46	104	0	79	25953
2026-01-21 20:53:44.45	86.52	43.88	-54.0	-58.9	3.7	0.00e+00	0	45	104	0	79	25496
2026-01-21 20:53:46.43	88.23	44.07	-54.2	-59.0	3.7	0.00e+00	0	46	104	0	79	25962
2026-01-21 20:53:48.42	89.97	44.23	-54.7	-59.3	3.7	0.00e+00	0	45	104	0	80	25203
2026-01-21 20:53:50.41	91.73	44.37	-54.6	-59.2	3.7	0.00e+00	0	45	104	0	80	24863
2026-01-21 20:53:52.52	93.61	44.48	-55.0	-59.4	3.7	0.00e+00	0	46	104	0	80	25677
2026-01-21 20:53:54.51	95.39	44.55	-54.7	-59.3	3.7	0.00e+00	0	45	104	0	80	25295
2026-01-21 20:53:56.50	97.18	44.60	-54.7	-59.2	3.7	0.00e+00	0	45	104	0	80	24837
2026-01-21 20:53:58.49	98.97	44.62	-54.8	-59.2	3.7	0.00e+00	0	46	104	0	80	24967
2026-01-21 20:54:00.48	100.76	44.60	-54.7	-59.3	3.7	0.00e+00	0	45	104	0	80	25102
2026-01-21 20:54:02.47	102.55	44.56	-55.0	-59.5	3.7	0.00e+00	0	45	104	0	80	25824
2026-01-21 20:54:04.46	104.34	44.49	-54.4	-59.1	3.7	0.00e+00	0	46	104	0	80	24545
2026-01-21 20:54:06.45	106.11	44.39	-54.9	-59.4	3.7	0.00e+00	0	46	104	0	80	25477
2026-01-21 20:54:08.45	107.88	44.26	-54.9	-59.3	3.7	0.00e+00	0	46	104	0	80	25380
2026-01-21 20:54:10.44	109.63	44.10	-55.1	-59.5	3.7	0.00e+00	0	45	104	0	80	25859
2026-01-21 20:54:12.60	111.50	43.90	-55.2	-59.6	3.7	0.00e+00	0	46	104	0	81	24701
2026-01-21 20:54:14.59	113.20	43.68	-55.0	-59.5	3.7	0.00e+00	0	45	104	0	81	24492
2026-01-21 20:54:16.60	114.89	43.44	-55.2	-59.6	3.7	0.00e+00	0	46	104	0	81	24777
2026-01-21 20:54:18.59	116.54	43.18	-54.9	-59.5	3.7	0.00e+00	0	45	104	0	81	24307
2026-01-21 20:54:20.60	118.18	42.89	-55.0	-59.5	3.7	0.00e+00	0	46	104	0	81	24484
2026-01-21 20:54:22.59	119.77	42.59	-55.0	-59.5	3.7	0.00e+00	0	46	104	0	81	24473
2026-01-21 20:54:24.50	121.27	42.27	-55.0	-59.4	3.7	0.00e+00	0	46	104	0	81	24137
2026-01-21 20:54:26.49	122.80	41.93	-55.0	-59.3	3.7	0.00e+00	0	46	104	0	81	23962
2026-01-21 20:54:28.48	124.29	41.57	-54.9	-59.3	3.7	0.00e+00	0	46	104	0	81	23769
2026-01-21 20:54:30.47	125.75	41.19	-54.5	-58.8	3.7	0.00e+00	0	45	104	0	80	23941
2026-01-21 20:54:32.47	127.18	40.80	-54.1	-57.9	3.7	0.00e+00	0	46	104	0	79	22824
2026-01-21 20:54:34.45	128.56	40.39	-54.8	-58.9	3.7	0.00e+00	0	45	104	0	80	24078
2026-01-21 20:54:36.45	129.92	39.97	-54.9	-59.2	3.7	0.00e+00	0	45	104	0	80	24893
2026-01-21 20:54:38.43	131.22	39.55	-55.0	-59.3	3.7	0.00e+00	0	45	104	0	80	25358
2026-01-21 20:54:40.43	132.51	39.11	-54.9	-59.2	3.7	0.00e+00	0	46	104	0	80	25054
2026-01-21 20:54:42.42	133.75	38.66	-54.8	-59.1	3.7	0.00e+00	0	46	104	0	80	24720
2026-01-21 20:54:44.41	134.96	38.21	-55.0	-59.3	3.7	0.00e+00	0	46	104	0	80	25252
2026-01-21 20:54:46.40	136.13	37.75	-54.9	-59.3	3.7	0.00e+00	0	45	104	0	80	25338
2026-01-21 20:54:48.41	137.28	37.28	-54.4	-59.0	3.7	0.00e+00	0	45	104	0	80	24480
2026-01-21 20:54:50.40	138.39	36.81	-54.8	-59.2	3.7	0.00e+00	0	46	104	0	80	24930
2026-01-21 20:54:52.38	139.45	36.34	-54.9	-59.4	3.7	0.00e+00	0	45	104	0	80	25396
2026-01-21 20:54:54.37	140.49	35.87	-54.7	-59.2	3.7	0.00e+00	0	46	104	0	80	24811
2026-01-21 20:54:56.36	141.50	35.39	-55.0	-59.4	3.7	0.00e+00	0	45	104	0	80	25394
2026-01-21 20:54:58.35	142.48	34.92	-54.9	-59.3	3.7	0.00e+00	0	45	104	0	80	25303
2026-01-21 20:55:00.37	143.44	34.43	-54.9	-59.3	3.7	0.00e+00	0	46	104	0	80	25168
2026-01-21 20:55:02.39	144.38	33.95	-54.9	-59.2	3.7	0.00e+00	0	46	104	0	80	25083
2026-01-21 20:55:04.35	145.25	33.48	-54.9	-59.4	3.7	0.00e+00	0	45	104	0	80	25415
2026-01-21 20:55:06.55	146.21	32.96	-54.8	-59.2	3.7	0.00e+00	0	46	104	0	80	25012
2026-01-21 20:55:08.54	147.04	32.49	-54.8	-59.4	3.7	0.00e+00	0	46	104	0	80	25434
2026-01-21 20:55:10.53	147.85	32.02	-55.1	-59.4	3.7	0.00e+00	0	46	104	0	80	25633
2026-01-21 20:55:12.52	148.64	31.56	-54.6	-59.2	3.7	0.00e+00	0	45	104	0	80	24812
2026-01-21 20:55:14.51	149.40	31.09	-54.5	-59.1	3.7	0.00e+00	0	46	104	0	80	24712
2026-01-21 20:55:16.51	150.15	30.63	-54.7	-59.2	3.7	0.00e+00	0	46	104	0	80	25047
2026-01-21 20:55:18.50	150.86	30.18	-54.7	-59.3	3.7	0.00e+00	0	46	104	0	80	25144
2026-01-21 20:55:20.60	151.60	29.70	-53.6	-58.6	3.6	0.00e+00	0	46	104	0	79	24701
2026-01-21 20:55:22.59	152.27	29.26	-53.7	-58.6	3.7	0.00e+00	0	46	104	0	79	24802
2026-01-21 20:55:24.59	152.93	28.82	-54.2	-58.8	3.7	0.00e+00	0	46	104	0	79	25297
2026-01-21 20:55:26.57	153.56	28.38	-54.3	-58.9	3.7	0.00e+00	0	46	104	0	79	25525
2026-01-21 20:55:28.56	154.18	27.95	-54.4	-59.1	3.7	0.00e+00	0	46	104	0	79	26039
2026-01-21 20:55:30.55	154.78	27.52	-54.7	-59.2	3.7	0.00e+00	0	46	104	0	79	26464
2026-01-21 20:55:32.54	155.37	27.10	-54.6	-59.2	3.7	0.00e+00	0	46	104	0	80	24894
2026-01-21 20:55:34.53	155.93	26.68	-54.7	-59.1	3.7	0.00e+00	0	46	104	0	80	24805
2026-01-21 20:55:36.52	156.48	26.27	-54.7	-59.3	3.7	0.00e+00	0	46	104	0	80	25159
2026-01-21 20:55:38.51	157.02	25.86	-54.7	-59.2	3.7	0.00e+00	0	46	104	0	80	24865
2026-01-21 20:55:40.50	157.54	25.46	-54.5	-58.9	3.7	0.00e+00	0	46	104	0	80	24050
2026-01-21 20:55:42.41	158.03	25.08	-54.6	-58.9	3.7	0.00e+00	0	46	104	0	80	24234
2026-01-21 20:55:44.41	158.52	24.69	-54.8	-59.2	3.7	0.00e+00	0	46	104	0	80	25012
2026-01-21 20:55:46.40	159.00	24.30	-54.6	-59.0	3.7	0.00e+00	0	46	104	0	80	24463
2026-01-21 20:55:48.39	159.47	23.92	-54.6	-59.0	3.7	0.00e+00	0	46	104	0	80	24502
2026-01-21 20:55:50.38	159.93	23.54	-54.4	-58.9	3.7	0.00e+00	0	46	104	0	80	24107
2026-01-21 20:55:52.37	160.37	23.17	-54.4	-58.7	3.7	0.00e+00	0	46	104	0	80	23675
2026-01-21 20:55:54.44	160.82	22.79	-54.2	-58.7	3.7	0.00e+00	0	46	104	0	79	25012
2026-01-21 20:55:56.46	161.25	22.43	-54.0	-58.8	3.7	0.00e+00	0	46	104	0	79	25179
2026-01-21 20:55:58.45	161.66	22.07	-54.0	-58.5	3.7	0.00e+00	0	46	104	0	79	24515
2026-01-21 20:56:00.44	162.06	21.72	-54.5	-58.9	3.7	0.00e+00	0	46	104	0	79	25478
2026-01-21 20:56:02.43	162.45	21.37	-54.4	-58.8	3.7	0.00e+00	0	46	104	0	79	25207
2026-01-21 20:56:04.42	162.83	21.03	-54.2	-58.8	3.7	0.00e+00	0	46	104	0	79	25299
2026-01-21 20:56:06.44	163.21	20.69	-54.0	-58.7	3.7	0.00e+00	0	46	104	0	79	24816
2026-01-21 20:56:08.49	163.58	20.35	-54.0	-58.7	3.7	0.00e+00	0	46	104	0	79	24888
2026-01-21 20:56:10.54	163.94	20.01	-54.3	-58.9	3.7	0.00e+00	0	46	104	0	79	25389
2026-01-21 20:56:12.54	164.29	19.68	-54.2	-58.9	3.7	0.00e+00	0	46	104	0	79	25419
2026-01-21 20:56:14.64	164.65	19.35	-53.9	-58.5	3.7	0.00e+00	0	46	104	0	79	24351
2026-01-21 20:56:16.63	164.97	19.03	-53.8	-58.5	3.7	0.00e+00	0	46	104	0	79	24330
2026-01-21 20:56:18.61	165.29	18.72	-53.9	-58.6	3.7	0.00e+00	0	46	104	0	79	24562
2026-01-21 20:56:20.61	165.61	18.42	-53.9	-58.5	3.7	0.00e+00	0	46	104	0	79	24477
2026-01-21 20:56:22.60	165.92	18.12	-53.8	-58.5	3.7	0.00e+00	0	46	104	0	79	24442
2026-01-21 20:56:24.74	166.24	17.80	-53.7	-58.5	3.7	0.00e+00	0	46	104	0	79	24357
2026-01-21 20:56:26.73	166.53	17.50	-53.7	-58.4	3.7	0.00e+00	0	46	104	0	79	24181
2026-01-21 20:56:28.72	166.82	17.21	-53.8	-58.4	3.7	0.00e+00	0	46	104	0	79	24235
2026-01-21 20:56:30.71	167.10	16.93	-54.0	-58.7	3.7	0.00e+00	0	46	104	0	79	24941
2026-01-21 20:56:32.70	167.37	16.64	-54.0	-58.7	3.7	0.00e+00	0	46	104	0	79	24842
2026-01-21 20:56:34.69	167.64	16.37	-53.7	-58.4	3.7	0.00e+00	0	46	104	0	79	24051
2026-01-21 20:56:36.65	167.90	16.10	-53.6	-58.3	3.7	0.00e+00	0	46	104	0	78	25371
2026-01-21 20:56:38.64	168.16	15.82	-53.0	-57.9	3.7	0.00e+00	0	46	104	0	77	25488
2026-01-21 20:56:40.69	168.42	15.55	-53.0	-58.0	3.7	0.00e+00	0	46	104	0	77	25763
2026-01-21 20:56:42.68	168.66	15.28	-53.4	-58.3	3.7	0.00e+00	0	46	104	0	77	26651
2026-01-21 20:56:44.89	168.93	14.99	-53.4	-58.2	3.6	0.00e+00	0	46	104	0	77	26419
2026-01-21 20:56:47.02	169.19	14.72	-53.2	-58.1	3.7	0.00e+00	0	46	104	0	77	26044
2026-01-21 20:56:49.02	169.42	14.46	-53.2	-58.1	3.7	0.00e+00	0	46	104	0	78	24563
2026-01-21 20:56:51.01	169.65	14.21	-53.5	-58.3	3.7	0.00e+00	0	46	104	0	79	23790
2026-01-21 20:56:53.00	169.87	13.96	-53.9	-58.5	3.7	0.00e+00	0	46	104	0	79	24486
2026-01-21 20:56:54.99	170.09	13.72	-53.4	-58.2	3.7	0.00e+00	0	46	104	0	78	24924
2026-01-21 20:56:57.09	170.31	13.46	-53.3	-58.1	3.7	0.00e+00	0	46	104	0	78	24701
2026-01-21 20:56:59.30	170.55	13.20	-53.0	-57.8	3.7	0.00e+00	0	46	104	0	77	25244
2026-01-21 20:57:01.32	170.76	12.96	-52.2	-57.1	3.7	0.00e+00	0	46	104	0	75	26004
2026-01-21 20:57:03.31	170.96	12.73	-50.2	-55.5	3.7	0.00e+00	0	46	104	0	71	27262
2026-01-21 20:57:05.30	171.16	12.49	-49.5	-54.7	3.7	0.00e+00	0	46	104	0	71	25013
2026-01-21 20:57:07.28	171.35	12.27	-49.1	-54.3	3.7	0.00e+00	0	46	104	0	70	25254
2026-01-21 20:57:09.27	171.54	12.04	-49.1	-54.2	3.7	0.00e+00	0	46	104	0	70	25062
2026-01-21 20:57:11.29	171.73	11.82	-49.4	-54.7	3.7	0.00e+00	0	46	104	0	70	26521
2026-01-21 20:57:13.35	171.92	11.59	-49.1	-54.5	3.7	0.00e+00	0	46	104	0	70	25817
2026-01-21 20:57:15.40	172.11	11.36	-49.2	-54.4	3.7	0.00e+00	0	46	104	0	70	25451
2026-01-21 20:57:17.59	172.31	11.13	-49.3	-54.5	3.7	0.00e+00	0	46	104	0	70	25782
2026-01-21 20:57:19.59	172.48	10.91	-50.0	-55.0	3.7	0.00e+00	0	46	104	0	70	27511
2026-01-21 20:57:21.58	172.65	10.70	-49.6	-54.8	3.7	0.00e+00	0	46	104	0	70	26774
2026-01-21 20:57:23.57	172.82	10.49	-49.1	-54.3	3.7	0.00e+00	0	46	104	0	70	25116
2026-01-21 20:57:25.56	172.99	10.29	-49.3	-54.6	3.7	0.00e+00	0	46	104	0	70	26195
2026-01-21 20:57:27.57	173.15	10.08	-49.9	-55.0	3.7	0.00e+00	0	46	104	0	70	27342
2026-01-21 20:57:29.56	173.31	9.88	-48.7	-53.9	3.7	0.00e+00	0	46	104	0	69	25409
2026-01-21 20:57:31.56	173.47	9.68	-47.7	-52.9	3.7	0.00e+00	0	46	104	0	67	25486
2026-01-21 20:57:33.57	173.63	9.48	-47.9	-53.1	3.7	0.00e+00	0	46	104	0	67	26191
2026-01-21 20:57:35.56	173.78	9.28	-48.5	-53.7	3.7	0.00e+00	0	46	104	0	67	28003
2026-01-21 20:57:37.56	173.93	9.09	-48.8	-54.0	3.7	0.00e+00	0	46	104	0	68	27303
2026-01-21 20:57:39.56	174.08	8.89	-49.4	-54.6	3.7	0.00e+00	0	46	104	0	70	26161
2026-01-21 20:57:41.60	174.23	8.70	-53.6	-58.4	3.7	0.00e+00	0	46	104	0	78	25639
2026-01-21 20:57:43.59	174.38	8.51	-53.9	-58.5	3.7	0.00e+00	0	46	104	0	78	25867
2026-01-21 20:57:45.58	174.52	8.32	-54.6	-59.0	3.7	0.00e+00	0	46	104	0	79	25940
2026-01-21 20:57:47.56	174.66	8.14	-54.7	-59.2	3.7	0.00e+00	0	46	104	0	80	25003
2026-01-21 20:57:49.58	174.79	7.95	-54.8	-59.2	3.7	0.00e+00	0	46	104	0	80	24846
2026-01-21 20:57:51.63	174.93	7.77	-54.9	-59.2	3.7	0.00e+00	0	46	104	0	80	25036
2026-01-21 20:57:53.70	175.07	7.58	-54.8	-59.3	3.7	0.00e+00	0	46	104	0	80	25346
2026-01-21 20:57:55.80	175.21	7.39	-54.7	-59.3	3.7	0.00e+00	0	46	104	0	80	25344
2026-01-21 20:57:57.86	175.34	7.21	-54.9	-59.4	3.7	0.00e+00	0	46	104	0	80	25485
2026-01-21 20:57:59.85	175.47	7.03	-54.7	-59.3	3.7	0.00e+00	0	46	104	0	80	25134
2026-01-21 20:58:01.85	175.60	6.86	-54.9	-59.3	3.7	0.00e+00	0	46	104	0	80	25134
2026-01-21 20:58:03.83	175.72	6.69	-54.6	-59.0	3.7	0.00e+00	0	46	104	0	80	24297
2026-01-21 20:58:05.82	175.84	6.52	-54.7	-59.2	3.7	0.00e+00	0	46	104	0	80	24913
2026-01-21 20:58:07.83	175.96	6.35	-54.1	-58.8	3.7	0.00e+00	0	46	104	0	79	25135
2026-01-21 20:58:09.81	176.08	6.18	-54.1	-58.7	3.7	0.00e+00	0	46	104	0	79	25048
2026-01-21 20:58:11.80	176.20	6.01	-54.1	-58.7	3.7	0.00e+00	0	46	104	0	79	24977
2026-01-21 20:58:13.82	176.31	5.85	-54.1	-58.7	3.7	0.00e+00	0	46	104	0	79	25037
2026-01-21 20:58:15.82	176.43	5.68	-54.1	-58.7	3.7	0.00e+00	0	46	104	0	79	25009
2026-01-21 20:58:17.82	176.54	5.52	-54.1	-58.7	3.7	0.00e+00	0	46	104	0	79	24924
2026-01-21 20:58:19.81	176.65	5.36	-54.1	-58.7	3.7	0.00e+00	0	46	104	0	79	24955
2026-01-21 20:58:21.80	176.76	5.20	-54.1	-58.7	3.7	0.00e+00	0	46	104	0	79	24945
2026-01-21 20:58:23.80	176.87	5.04	-54.1	-58.7	3.7	0.00e+00	0	46	104	0	79	24934
2026-01-21 20:58:25.80	176.97	4.88	-54.1	-58.7	3.7	0.00e+00	0	46	104	0	79	24964

#Closed at: 2026-01-21 20:58:26
#Recorded file [0 MB]: D:/Data/31040_260121_234931.dat