passes_logs/2026/01/21/T1/T1__20260121_093358_NOAA_20_JPSS-1_rec.log

#Pass ID: 20260121_093358_NOAA 20 (JPSS-1)
#Satellite: NOAA 20 (JPSS-1)
#Configuration: NOAA 20
#almurnet v.1.7.20251203
#Start time: 2026-01-21 09:33:59

#Version: 2.0.20230620
#Station: T1
#Location: 37.570604 lon 55.790049 lat
#TLE: 1 43013U 17073A   26020.82785136  .00000155  00000+0  94366-4 0  9991
#TLE: 2 43013  98.7643 321.7058 0001260  30.3785 329.7464 14.19537992423566

#Time	Az	El	Level	Level2	SNR	BER	BlckErr	Temp	State	Recorded	gain1	gain2
2026-01-21 09:33:59.20	148.87	5.05	-51.5	-66.4	3.8	1.49e+00	0	37	104	0	75	18960
2026-01-21 09:34:03.17	148.79	5.34	-51.6	-66.5	3.8	1.49e+00	0	37	104	0	75	19387
2026-01-21 09:34:07.14	148.72	5.62	-51.5	-66.6	3.8	1.49e+00	0	37	104	0	75	19449
2026-01-21 09:34:11.11	148.64	5.92	-51.5	-65.7	3.8	1.49e+00	0	37	104	0	75	17554
2026-01-21 09:34:15.09	148.56	6.21	-51.5	-65.3	3.8	1.49e+00	0	37	104	0	74	17835
2026-01-21 09:34:19.06	148.48	6.51	-51.5	-66.3	3.8	1.49e+00	0	37	104	0	74	20039
2026-01-21 09:34:23.03	148.40	6.81	-51.5	-66.7	3.8	1.49e+00	0	37	104	0	74	20882
2026-01-21 09:34:27.00	148.32	7.11	-51.5	-65.5	3.8	1.49e+00	0	38	104	0	74	18201
2026-01-21 09:34:30.97	148.23	7.42	-51.2	-62.1	4.6	1.35e+00	0	38	0	0	74	12252
2026-01-21 09:34:34.95	148.14	7.74	-50.0	-56.4	9.0	3.39e-02	0	38	0	7340032	72	7138
2026-01-21 09:34:38.92	148.05	8.05	-48.4	-52.5	13.1	3.81e-05	0	38	0	14680064	68	5768
2026-01-21 09:34:42.89	147.96	8.37	-47.5	-51.1	14.3	7.00e-07	0	38	0	23068672	66	5466
2026-01-21 09:34:46.86	147.87	8.70	-48.3	-52.5	12.9	3.28e-05	0	38	0	30408704	67	6126
2026-01-21 09:34:50.84	147.77	9.03	-50.3	-57.3	8.2	3.02e-02	0	38	0	37748736	71	8369
2026-01-21 09:34:54.96	147.67	9.37	-46.5	-49.6	15.9	3.01e-03	0	38	0	45088768	65	4897
2026-01-21 09:34:58.94	147.57	9.71	-46.0	-48.9	16.6	0.00e+00	0	38	0	51380224	64	4765
2026-01-21 09:35:02.97	147.46	10.06	-45.9	-48.7	16.9	0.00e+00	0	38	0	58720256	63	4934
2026-01-21 09:35:06.95	147.35	10.40	-45.7	-48.4	17.1	0.00e+00	0	38	0	66060288	63	4811
2026-01-21 09:35:10.93	147.24	10.75	-45.3	-47.9	17.7	0.00e+00	0	38	0	73400320	62	4789
2026-01-21 09:35:14.91	147.13	11.11	-45.1	-47.6	18.0	0.00e+00	0	38	0	80740352	62	4649
2026-01-21 09:35:18.88	147.01	11.47	-45.1	-47.6	18.0	0.00e+00	0	38	0	89128960	61	4885
2026-01-21 09:35:23.05	146.89	11.86	-45.1	-47.6	18.1	0.00e+00	0	39	0	96468992	61	4889
2026-01-21 09:35:27.25	146.76	12.25	-45.1	-47.6	18.1	0.00e+00	0	39	0	103809024	61	4895
2026-01-21 09:35:31.23	146.63	12.63	-44.9	-47.4	18.2	0.00e+00	0	39	0	112197632	61	4802
2026-01-21 09:35:35.15	146.50	13.01	-44.9	-47.4	18.3	0.00e+00	0	39	0	119537664	61	4761
2026-01-21 09:35:39.19	146.37	13.41	-44.9	-47.4	18.3	0.00e+00	0	39	0	126877696	61	4778
2026-01-21 09:35:43.50	146.22	13.84	-44.9	-47.4	18.3	0.00e+00	0	39	0	135266304	61	4773
2026-01-21 09:35:47.48	146.08	14.24	-44.8	-47.2	18.5	0.00e+00	0	39	0	142606336	61	4675
2026-01-21 09:35:51.46	145.93	14.66	-44.6	-47.0	18.7	0.00e+00	0	39	0	149946368	61	4581
2026-01-21 09:35:55.66	145.77	15.10	-44.8	-47.3	18.4	0.00e+00	0	39	0	157286400	61	4716
2026-01-21 09:36:00.18	145.59	15.58	-44.8	-47.2	18.5	0.00e+00	0	39	0	165675008	61	4702
2026-01-21 09:36:04.13	145.43	16.01	-44.8	-47.1	18.6	0.00e+00	0	39	0	173015040	61	4646
2026-01-21 09:36:08.16	145.27	16.46	-44.7	-47.1	18.6	0.00e+00	0	39	0	181403648	61	4607
2026-01-21 09:36:12.37	145.08	16.93	-44.6	-46.9	18.8	0.00e+00	0	39	0	188743680	61	4540
2026-01-21 09:36:16.35	144.91	17.39	-44.7	-47.1	18.6	0.00e+00	0	39	0	196083712	61	4642
2026-01-21 09:36:20.33	144.72	17.86	-44.7	-47.1	18.7	0.00e+00	0	39	0	203423744	61	4608
2026-01-21 09:36:24.39	144.53	18.34	-44.6	-47.0	18.8	0.00e+00	0	39	0	211812352	61	4551
2026-01-21 09:36:28.37	144.33	18.83	-44.5	-46.9	18.9	0.00e+00	0	39	0	219152384	61	4536
2026-01-21 09:36:32.34	144.13	19.32	-44.6	-47.0	18.8	0.00e+00	0	39	0	226492416	61	4576
2026-01-21 09:36:36.32	143.92	19.82	-44.7	-47.2	18.7	0.00e+00	0	39	0	233832448	61	4657
2026-01-21 09:36:40.30	143.71	20.34	-44.6	-47.0	18.9	0.00e+00	0	39	0	241172480	61	4557
2026-01-21 09:36:44.35	143.48	20.87	-44.4	-46.6	19.2	0.00e+00	0	39	0	248512512	60	4641
2026-01-21 09:36:48.51	143.23	21.43	-44.5	-46.8	19.1	0.00e+00	0	39	0	256901120	60	4716
2026-01-21 09:36:52.50	142.99	21.97	-44.5	-46.8	19.1	0.00e+00	0	39	0	264241152	60	4721
2026-01-21 09:36:56.51	142.74	22.53	-44.6	-47.0	19.0	0.00e+00	0	39	0	271581184	60	4820
2026-01-21 09:37:00.55	142.47	23.11	-44.8	-47.1	18.8	0.00e+00	0	39	0	278921216	60	4921
2026-01-21 09:37:04.63	142.19	23.71	-44.8	-47.1	18.8	0.00e+00	0	39	0	287309824	60	4899
2026-01-21 09:37:08.74	141.90	24.32	-45.1	-47.5	18.4	0.00e+00	0	39	0	294649856	60	5146
2026-01-21 09:37:12.75	141.61	24.93	-45.3	-47.7	18.2	0.00e+00	0	39	0	301989888	61	4967
2026-01-21 09:37:16.73	141.30	25.55	-45.3	-47.8	18.2	0.00e+00	0	39	0	309329920	61	5006
2026-01-21 09:37:20.73	140.98	26.19	-46.0	-48.6	17.4	0.00e+00	0	39	0	316669952	62	5216
2026-01-21 09:37:24.72	140.64	26.84	-46.4	-49.1	17.0	0.00e+00	0	39	0	324009984	63	5195
2026-01-21 09:37:28.70	140.30	27.51	-46.7	-49.6	16.4	0.00e+00	0	39	0	332398592	64	5185
2026-01-21 09:37:32.68	139.94	28.18	-46.7	-49.6	16.4	0.00e+00	0	39	0	339738624	64	5185
2026-01-21 09:37:36.84	139.54	28.91	-47.0	-50.0	16.0	0.00e+00	0	39	0	347078656	64	5458
2026-01-21 09:37:40.85	139.14	29.63	-47.2	-50.4	15.7	0.00e+00	0	39	0	354418688	65	5346
2026-01-21 09:37:44.83	138.72	30.36	-47.4	-50.5	15.5	0.00e+00	0	39	0	362807296	65	5459
2026-01-21 09:37:48.81	138.29	31.10	-47.5	-50.7	15.4	0.00e+00	0	39	0	370147328	65	5567
2026-01-21 09:37:52.94	137.81	31.89	-47.8	-51.2	14.9	0.00e+00	0	39	0	377487360	66	5570
2026-01-21 09:37:57.12	137.31	32.71	-47.7	-51.0	15.1	0.00e+00	0	39	0	384827392	66	5408
2026-01-21 09:38:01.32	136.77	33.56	-47.8	-51.2	15.0	0.00e+00	0	39	0	393216000	66	5559
2026-01-21 09:38:05.32	136.24	34.38	-47.8	-51.4	14.7	0.00e+00	0	39	0	400556032	66	5695
2026-01-21 09:38:09.31	135.67	35.22	-48.0	-51.6	14.5	0.00e+00	0	39	0	407896064	66	5849
2026-01-21 09:38:13.33	135.07	36.09	-47.9	-51.4	14.7	1.50e-06	0	39	0	415236096	66	5680
2026-01-21 09:38:17.35	134.44	36.98	-47.7	-51.0	15.1	0.00e+00	0	39	0	423624704	66	5433
2026-01-21 09:38:21.46	133.76	37.91	-47.4	-50.5	15.7	0.00e+00	0	39	0	430964736	66	5125
2026-01-21 09:38:25.47	133.05	38.83	-47.3	-50.4	15.8	7.00e-07	0	39	0	438304768	66	5083
2026-01-21 09:38:29.71	132.25	39.83	-46.8	-49.7	16.4	0.00e+00	0	39	0	446693376	65	4944
2026-01-21 09:38:33.81	131.44	40.82	-47.0	-50.0	16.2	0.00e+00	0	39	0	454033408	65	5102
2026-01-21 09:38:37.83	130.59	41.81	-47.2	-50.2	15.9	0.00e+00	0	39	0	461373440	65	5270
2026-01-21 09:38:41.85	129.68	42.82	-46.8	-49.7	16.3	0.00e+00	0	39	0	468713472	65	4974
2026-01-21 09:38:46.22	128.62	43.94	-46.8	-49.8	16.4	0.00e+00	0	39	0	477102080	65	4998
2026-01-21 09:38:51.12	127.35	45.22	-46.2	-48.9	17.3	0.00e+00	0	39	0	486539264	63	5043
2026-01-21 09:38:55.66	126.07	46.42	-46.5	-49.2	17.0	0.00e+00	0	39	0	494927872	63	5248
2026-01-21 09:39:00.21	124.68	47.65	-46.5	-49.3	16.9	0.00e+00	0	39	0	503316480	64	4996
2026-01-21 09:39:04.75	123.19	48.89	-46.2	-48.8	17.3	0.00e+00	0	39	0	511705088	64	4759
2026-01-21 09:39:09.30	121.56	50.15	-46.1	-48.7	17.5	0.00e+00	0	39	0	521142272	63	4954
2026-01-21 09:39:13.85	119.78	51.41	-45.7	-48.2	18.0	0.00e+00	0	39	0	529530880	63	4670
2026-01-21 09:39:18.39	117.86	52.67	-45.1	-47.5	18.7	0.00e+00	0	39	0	537919488	62	4546
2026-01-21 09:39:23.05	115.71	53.96	-45.0	-47.3	18.8	0.00e+00	0	39	0	546308096	61	4753
2026-01-21 09:39:27.32	113.55	55.14	-45.0	-47.3	18.8	0.00e+00	0	39	0	554696704	61	4751
2026-01-21 09:39:31.27	111.40	56.20	-45.5	-48.1	18.1	0.00e+00	0	39	0	562036736	61	5170
2026-01-21 09:39:35.25	109.06	57.26	-46.9	-49.9	16.3	0.00e+00	0	39	0	569376768	64	5379
2026-01-21 09:39:39.21	106.54	58.28	-47.0	-49.9	16.4	0.00e+00	0	39	0	576716800	65	5055
2026-01-21 09:39:43.19	103.81	59.26	-46.2	-48.9	17.4	0.00e+00	0	39	0	584056832	64	4764
2026-01-21 09:39:47.18	100.87	60.19	-46.3	-48.9	17.2	0.00e+00	0	39	0	591396864	64	4813
2026-01-21 09:39:51.16	97.72	61.07	-44.5	-46.8	19.3	0.00e+00	0	39	0	598736896	61	4477
2026-01-21 09:39:55.21	94.29	61.88	-44.0	-46.1	19.9	0.00e+00	0	39	0	607125504	59	4634
2026-01-21 09:39:59.21	90.68	62.61	-43.7	-45.8	20.2	0.00e+00	0	39	0	614465536	59	4482
2026-01-21 09:40:03.41	86.67	63.26	-43.9	-46.1	20.0	0.00e+00	0	39	0	621805568	59	4609
2026-01-21 09:40:07.96	82.09	63.84	-43.7	-45.8	20.2	0.00e+00	0	39	0	630194176	59	4459
2026-01-21 09:40:12.51	77.31	64.27	-43.6	-45.6	20.3	0.00e+00	0	39	0	639631360	59	4379
2026-01-21 09:40:17.21	72.23	64.53	-43.6	-45.7	20.3	0.00e+00	0	39	0	648019968	58	4677
2026-01-21 09:40:21.50	67.51	64.61	-43.2	-45.3	20.7	0.00e+00	0	39	0	656408576	58	4442
2026-01-21 09:40:25.51	63.10	64.55	-43.9	-46.0	20.0	0.00e+00	0	39	0	663748608	58	4840
2026-01-21 09:40:29.55	58.71	64.35	-44.5	-46.7	19.4	0.00e+00	0	39	0	671088640	59	4972
2026-01-21 09:40:33.54	54.48	64.03	-44.2	-46.4	19.7	0.00e+00	0	39	0	678428672	59	4765
2026-01-21 09:40:37.77	50.14	63.55	-43.8	-45.9	20.1	0.00e+00	0	39	0	686817280	59	4529
2026-01-21 09:40:41.85	46.14	62.97	-43.2	-45.3	20.7	0.00e+00	0	39	0	694157312	58	4444
2026-01-21 09:40:45.85	42.42	62.30	-43.9	-46.0	20.0	0.00e+00	0	39	0	701497344	58	4865
2026-01-21 09:40:49.86	38.91	61.54	-45.3	-47.7	18.6	0.00e+00	0	39	0	708837376	61	4973
2026-01-21 09:40:53.85	35.63	60.70	-46.2	-48.8	17.5	0.00e+00	0	39	0	716177408	63	5021
2026-01-21 09:40:57.80	32.60	59.81	-47.9	-51.2	15.1	0.00e+00	0	39	0	724566016	66	5558
2026-01-21 09:41:01.78	29.76	58.86	-47.7	-50.8	15.5	0.00e+00	0	39	0	731906048	66	5340
2026-01-21 09:41:05.93	27.01	57.82	-47.6	-50.8	15.5	0.00e+00	0	39	0	739246080	67	5001
2026-01-21 09:41:09.92	24.57	56.78	-47.4	-50.4	15.8	0.00e+00	0	39	0	746586112	66	5098
2026-01-21 09:41:14.10	22.20	55.66	-45.8	-48.3	18.1	0.00e+00	0	39	0	754974720	63	4720
2026-01-21 09:41:18.11	20.11	54.57	-45.3	-47.7	18.6	0.00e+00	0	39	0	762314752	62	4684
2026-01-21 09:41:22.09	18.18	53.48	-45.9	-48.4	17.9	0.00e+00	0	39	0	769654784	62	5094
2026-01-21 09:41:26.08	16.39	52.38	-46.7	-49.4	16.9	0.00e+00	0	39	0	776994816	63	5393
2026-01-21 09:41:30.07	14.73	51.27	-46.5	-49.3	17.0	0.00e+00	0	39	0	784334848	64	5015
2026-01-21 09:41:34.09	13.18	50.16	-47.0	-50.0	16.3	0.00e+00	0	39	0	791674880	64	5418
2026-01-21 09:41:38.07	11.76	49.07	-47.2	-50.2	16.0	0.00e+00	0	39	0	800063488	65	5268
2026-01-21 09:41:42.05	10.43	47.98	-46.7	-49.5	16.8	0.00e+00	0	39	0	807403520	65	4855
2026-01-21 09:41:46.02	9.20	46.91	-46.8	-49.6	16.7	0.00e+00	0	39	0	814743552	65	4921
2026-01-21 09:41:50.09	8.01	45.82	-46.6	-49.4	16.8	0.00e+00	0	39	0	822083584	65	4797
2026-01-21 09:41:54.07	6.94	44.78	-47.5	-50.7	15.5	0.00e+00	0	39	0	829423616	65	5583
2026-01-21 09:41:58.06	5.93	43.75	-47.6	-50.8	15.5	0.00e+00	0	39	0	836763648	65	5624
2026-01-21 09:42:02.03	4.98	42.74	-47.7	-51.1	15.2	0.00e+00	0	39	0	844103680	66	5514
2026-01-21 09:42:06.11	4.07	41.72	-48.6	-52.4	13.9	3.00e-06	0	39	0	852492288	67	6005
2026-01-21 09:42:10.09	3.24	40.75	-49.2	-53.4	13.1	1.44e-05	0	39	0	859832320	69	6028
2026-01-21 09:42:13.99	2.47	39.82	-49.2	-53.3	13.2	1.98e-05	0	39	0	867172352	69	5952
2026-01-21 09:42:17.96	1.73	38.89	-48.6	-52.2	14.3	2.20e-06	0	39	0	874512384	69	5246
2026-01-21 09:42:21.94	1.03	37.97	-47.7	-51.0	15.3	0.00e+00	0	39	0	881852416	67	5110
2026-01-21 09:42:25.96	0.37	37.07	-47.7	-51.3	15.0	1.50e-06	0	39	0	889192448	67	5304
2026-01-21 09:42:29.94	359.74	36.19	-47.7	-51.2	15.1	0.00e+00	0	39	0	896532480	67	5223
2026-01-21 09:42:33.92	359.15	35.34	-47.6	-50.8	15.5	0.00e+00	0	39	0	903872512	67	5040
2026-01-21 09:42:37.90	358.59	34.50	-47.8	-51.1	15.2	0.00e+00	0	39	0	912261120	67	5195
2026-01-21 09:42:41.91	358.05	33.68	-47.7	-51.1	15.2	0.00e+00	0	39	0	919601152	67	5195
2026-01-21 09:42:45.83	357.56	32.89	-48.1	-51.9	14.4	0.00e+00	0	39	0	926941184	67	5670
2026-01-21 09:42:49.81	357.07	32.11	-48.6	-52.4	13.9	2.20e-06	0	39	0	934281216	67	6048
2026-01-21 09:42:53.78	356.62	31.35	-49.0	-53.1	13.4	1.14e-05	0	39	0	941621248	68	6139
2026-01-21 09:42:57.81	356.18	30.60	-49.2	-53.4	13.0	2.36e-05	0	39	0	948961280	69	6056
2026-01-21 09:43:01.84	355.75	29.86	-48.8	-52.9	13.5	9.90e-06	0	39	0	956301312	69	5688
2026-01-21 09:43:05.83	355.36	29.15	-48.8	-52.9	13.6	7.60e-06	0	39	0	964689920	69	5668
2026-01-21 09:43:09.88	354.97	28.44	-48.5	-52.2	14.3	7.00e-07	0	39	0	972029952	69	5238
2026-01-21 09:43:13.98	354.60	27.74	-48.6	-52.4	14.1	7.00e-07	0	39	0	979369984	68	5658
2026-01-21 09:43:17.97	354.25	27.07	-48.8	-52.7	13.8	2.20e-06	0	40	0	986710016	68	5873
2026-01-21 09:43:21.98	353.91	26.42	-48.5	-52.4	14.0	1.50e-06	0	39	0	994050048	68	5705
2026-01-21 09:43:25.98	353.59	25.78	-48.2	-51.8	14.7	0.00e+00	0	39	0	1001390080	68	5292
2026-01-21 09:43:30.10	353.28	25.14	-47.4	-50.5	15.7	0.00e+00	0	39	0	1009778688	66	5141
2026-01-21 09:43:34.30	352.97	24.50	-46.9	-49.9	16.3	0.00e+00	0	39	0	1017118720	65	5092
2026-01-21 09:43:38.28	352.69	23.91	-46.7	-49.8	16.4	0.00e+00	0	39	0	1025507328	65	5041
2026-01-21 09:43:42.28	352.42	23.32	-46.7	-49.8	16.4	0.00e+00	0	39	0	1032847360	65	4996
2026-01-21 09:43:46.34	352.15	22.75	-46.7	-49.7	16.5	0.00e+00	0	39	0	1040187392	65	4933
2026-01-21 09:43:50.46	351.89	22.17	-46.7	-49.8	16.5	0.00e+00	0	39	0	1047527424	65	4986
2026-01-21 09:43:54.45	351.65	21.62	-46.5	-49.5	16.7	0.00e+00	0	39	0	1054867456	65	4822
2026-01-21 09:43:58.47	351.42	21.08	-46.4	-49.2	16.9	0.00e+00	0	39	0	1063256064	64	4977
2026-01-21 09:44:02.51	351.19	20.55	-46.2	-49.1	17.1	0.00e+00	0	39	0	1070596096	64	4874
2026-01-21 09:44:06.60	350.97	20.03	-46.4	-49.3	16.9	0.00e+00	0	39	0	1077936128	64	4986
2026-01-21 09:44:10.76	350.75	19.50	-46.4	-49.4	16.7	0.00e+00	0	39	0	1086324736	64	5073
2026-01-21 09:44:14.76	350.55	19.01	-46.5	-49.6	16.5	0.00e+00	0	39	0	1093664768	64	5193
2026-01-21 09:44:18.78	350.36	18.52	-46.5	-49.7	16.4	0.00e+00	0	39	0	1101004800	64	5271
2026-01-21 09:44:22.76	350.17	18.05	-46.4	-49.7	16.4	0.00e+00	0	39	0	1108344832	64	5260
2026-01-21 09:44:26.96	349.98	17.55	-46.6	-49.8	16.3	0.00e+00	0	39	0	1116733440	64	5311
2026-01-21 09:44:30.97	349.80	17.09	-46.6	-49.6	16.5	0.00e+00	0	39	0	1124073472	64	5210
2026-01-21 09:44:34.99	349.63	16.64	-46.7	-49.8	16.3	0.00e+00	0	39	0	1131413504	64	5328
2026-01-21 09:44:38.98	349.47	16.20	-46.5	-49.8	16.3	0.00e+00	0	39	0	1138753536	64	5301
2026-01-21 09:44:43.21	349.30	15.74	-46.5	-49.8	16.3	0.00e+00	0	39	0	1147142144	64	5291
2026-01-21 09:44:47.46	349.14	15.29	-46.7	-50.0	16.1	0.00e+00	0	39	0	1154482176	64	5420
2026-01-21 09:44:51.45	348.99	14.87	-46.8	-50.1	16.0	0.00e+00	0	39	0	1161822208	64	5489
2026-01-21 09:44:55.50	348.85	14.45	-46.8	-50.3	15.7	0.00e+00	0	39	0	1170210816	64	5634
2026-01-21 09:44:59.62	348.70	14.03	-47.0	-50.6	15.4	0.00e+00	0	39	0	1177550848	64	5853
2026-01-21 09:45:03.60	348.57	13.63	-47.1	-50.7	15.3	0.00e+00	0	39	0	1184890880	64	5899
2026-01-21 09:45:07.59	348.44	13.24	-47.3	-50.8	15.2	0.00e+00	0	39	0	1192230912	65	5621
2026-01-21 09:45:11.56	348.31	12.86	-47.2	-50.6	15.4	0.00e+00	0	39	0	1199570944	65	5499
2026-01-21 09:45:15.65	348.18	12.47	-46.7	-50.6	15.4	0.00e+00	0	39	0	1207959552	65	5500
2026-01-21 09:45:20.11	348.05	12.05	-46.4	-50.6	15.3	0.00e+00	0	39	0	1216348160	64	5827
2026-01-21 09:45:24.07	347.93	11.69	-46.3	-50.5	15.4	0.00e+00	0	39	0	1223688192	64	5781
2026-01-21 09:45:28.15	347.82	11.32	-46.3	-50.8	15.2	0.00e+00	0	39	0	1231028224	64	5925
2026-01-21 09:45:32.13	347.71	10.96	-46.1	-50.9	15.0	0.00e+00	0	39	0	1238368256	64	6023
2026-01-21 09:45:36.10	347.60	10.61	-46.1	-51.1	14.9	7.00e-07	0	40	0	1245708288	63	6502
2026-01-21 09:45:40.50	347.49	10.22	-46.3	-51.2	14.8	7.00e-07	0	39	0	1254096896	63	6576
2026-01-21 09:45:44.69	347.38	9.87	-46.1	-51.0	14.9	0.00e+00	0	39	0	1262485504	63	6466
2026-01-21 09:45:48.62	347.28	9.53	-46.0	-51.0	14.9	0.00e+00	0	39	0	1269825536	63	6481
2026-01-21 09:45:53.01	347.18	9.17	-46.2	-51.1	14.7	7.00e-07	0	39	0	1277165568	63	6557
2026-01-21 09:45:56.99	347.09	8.84	-50.9	-67.3	3.8	1.49e+00	0	39	104	1283457024	73	23750
2026-01-21 09:46:01.00	347.00	8.51	-52.2	-67.7	3.9	1.49e+00	0	39	104	1283457024	75	22108
2026-01-21 09:46:04.98	346.91	8.19	-52.0	-67.8	3.8	1.49e+00	0	39	104	1283457024	75	22456
2026-01-21 09:46:08.96	346.82	7.88	-52.6	-67.8	3.8	1.49e+00	0	39	104	1283457024	75	22479
2026-01-21 09:46:12.95	346.74	7.57	-52.6	-67.8	3.8	1.49e+00	0	39	104	1283457024	75	22470
2026-01-21 09:46:16.93	346.66	7.26	-52.8	-67.9	3.8	1.49e+00	0	39	104	1283457024	76	21448
2026-01-21 09:46:20.96	346.58	6.95	-52.6	-67.9	3.8	1.49e+00	0	39	104	1283457024	76	21310
2026-01-21 09:46:24.93	346.50	6.65	-52.4	-67.8	3.8	1.49e+00	0	39	104	1283457024	76	21248
2026-01-21 09:46:28.91	346.43	6.35	-52.4	-67.8	3.8	1.49e+00	0	39	104	1283457024	76	21172
2026-01-21 09:46:32.91	346.35	6.06	-52.4	-67.8	3.8	1.49e+00	0	39	104	1283457024	76	21177
2026-01-21 09:46:36.90	346.28	5.76	-52.4	-67.8	3.8	1.49e+00	0	39	104	1283457024	76	21152
2026-01-21 09:46:40.87	346.21	5.48	-52.4	-67.8	3.8	1.49e+00	0	39	104	1283457024	76	21115
2026-01-21 09:46:44.86	346.14	5.19	-52.4	-67.8	3.8	1.49e+00	0	39	104	1283457024	76	21191

#Closed at: 2026-01-21 09:46:48
#Recorded file [1283 MB]: D:/Data/31040_260121_123359.dat