passes_logs/2026/01/21/T1/T1__20260121_214501_NOAA_20_JPSS-1_rec.log

#Pass ID: 20260121_214501_NOAA 20 (JPSS-1)
#Satellite: NOAA 20 (JPSS-1)
#Configuration: NOAA 20
#almurnet v.1.7.20251203
#Start time: 2026-01-21 21:45:01

#Version: 2.0.20230620
#Station: T1
#Location: 37.570604 lon 55.790049 lat
#TLE: 1 43013U 17073A   26021.46221703  .00000173  00000+0  10299-3 0  9999
#TLE: 2 43013  98.7644 322.3335 0001238  29.7597 330.3649 14.19538314423652

#Time	Az	El	Level	Level2	SNR	BER	BlckErr	Temp	State	Recorded	gain1	gain2
2026-01-21 21:45:01.33	35.84	4.98	-50.2	-65.5	3.8	1.49e+00	0	35	104	0	72	20488
2026-01-21 21:45:04.30	36.17	5.13	-50.2	-65.6	3.8	1.49e+00	0	35	104	0	72	20552
2026-01-21 21:45:07.28	36.50	5.27	-50.2	-65.5	3.8	1.49e+00	0	35	104	0	72	20490
2026-01-21 21:45:10.26	36.84	5.42	-50.2	-65.5	3.8	1.49e+00	0	35	104	0	72	20410
2026-01-21 21:45:13.24	37.17	5.56	-50.2	-65.5	3.8	1.49e+00	0	36	104	0	72	20453
2026-01-21 21:45:16.22	37.52	5.71	-50.2	-65.5	3.8	1.49e+00	0	36	104	0	72	20399
2026-01-21 21:45:19.20	37.86	5.85	-50.2	-65.5	3.8	1.49e+00	0	36	104	0	72	20491
2026-01-21 21:45:22.18	38.21	6.00	-50.2	-65.5	3.8	1.49e+00	0	36	104	0	72	20414
2026-01-21 21:45:25.16	38.56	6.14	-50.2	-65.5	3.8	1.49e+00	0	36	104	0	72	20437
2026-01-21 21:45:28.14	38.92	6.29	-50.2	-65.5	3.8	1.49e+00	0	36	104	0	72	20378
2026-01-21 21:45:31.12	39.28	6.43	-50.2	-65.5	3.8	1.49e+00	0	36	104	0	72	20391
2026-01-21 21:45:34.10	39.64	6.57	-50.2	-65.5	3.8	1.49e+00	0	36	104	0	72	20489
2026-01-21 21:45:37.07	40.00	6.72	-50.2	-65.5	3.8	1.49e+00	0	36	104	0	72	20402
2026-01-21 21:45:40.05	40.37	6.86	-50.2	-65.5	3.8	1.49e+00	0	36	104	0	72	20327
2026-01-21 21:45:43.03	40.74	7.01	-50.2	-65.5	3.8	1.49e+00	0	36	104	0	72	20416
2026-01-21 21:45:46.01	41.12	7.15	-50.2	-65.5	3.8	1.49e+00	0	37	104	0	72	20424
2026-01-21 21:45:48.99	41.50	7.29	-50.2	-65.4	3.8	1.49e+00	0	37	104	0	72	20259
2026-01-21 21:45:51.97	41.88	7.44	-50.2	-65.4	3.8	1.49e+00	0	36	104	0	72	20181
2026-01-21 21:45:54.95	42.27	7.58	-50.2	-65.4	3.8	1.49e+00	0	37	104	0	72	20157
2026-01-21 21:45:57.93	42.66	7.72	-50.2	-65.4	3.8	1.49e+00	0	37	104	0	72	20200
2026-01-21 21:46:00.88	43.05	7.86	-50.2	-65.5	3.8	1.49e+00	0	37	104	0	72	20372
2026-01-21 21:46:03.86	43.45	8.00	-50.2	-65.5	3.8	1.49e+00	0	37	104	0	72	20406
2026-01-21 21:46:06.84	43.85	8.14	-50.2	-65.3	3.8	1.49e+00	0	37	104	0	72	20006
2026-01-21 21:46:09.82	44.26	8.29	-50.2	-65.3	3.8	1.49e+00	0	37	104	0	72	20068
2026-01-21 21:46:12.80	44.67	8.43	-50.2	-65.5	3.8	1.49e+00	0	37	104	0	72	20443
2026-01-21 21:46:15.78	45.08	8.57	-50.2	-65.4	3.8	1.49e+00	0	37	104	0	72	20267
2026-01-21 21:46:18.76	45.50	8.71	-50.2	-65.0	3.8	1.49e+00	0	37	104	0	72	19193
2026-01-21 21:46:21.74	45.92	8.84	-50.1	-63.9	3.8	1.49e+00	0	37	104	0	72	17031
2026-01-21 21:46:24.72	46.34	8.98	-49.5	-57.9	6.3	3.88e-01	0	37	0	2097152	71	9052
2026-01-21 21:46:27.71	46.77	9.12	-49.7	-59.1	5.7	3.48e-03	0	37	0	7340032	69	11626
2026-01-21 21:46:30.75	47.21	9.26	-45.9	-49.4	14.8	8.02e-01	0	37	0	12582912	63	5342
2026-01-21 21:46:33.83	47.67	9.40	-45.2	-48.2	16.0	0.00e+00	0	37	0	18874368	62	4972
2026-01-21 21:46:36.83	48.11	9.54	-45.4	-48.5	15.8	0.00e+00	0	37	0	24117248	62	5124
2026-01-21 21:46:40.07	48.59	9.69	-45.1	-48.1	16.2	0.00e+00	0	37	0	30408704	62	4881
2026-01-21 21:46:42.91	49.02	9.81	-45.0	-48.0	16.3	0.00e+00	0	37	0	35651584	62	4845
2026-01-21 21:46:46.05	49.50	9.96	-45.0	-48.0	16.3	0.00e+00	0	37	0	41943040	62	4830
2026-01-21 21:46:48.89	49.93	10.08	-45.3	-48.3	16.0	0.00e+00	0	37	0	47185920	62	5016
2026-01-21 21:46:52.01	50.42	10.22	-45.3	-48.4	16.0	0.00e+00	0	37	0	52428800	62	5045
2026-01-21 21:46:54.86	50.86	10.35	-45.4	-48.5	15.8	0.00e+00	0	37	0	57671680	62	5128
2026-01-21 21:46:58.06	51.37	10.48	-45.2	-48.3	16.0	0.00e+00	0	37	0	63963136	62	5000
2026-01-21 21:47:00.91	51.82	10.61	-45.4	-48.5	15.9	0.00e+00	0	38	0	69206016	62	5112
2026-01-21 21:47:04.03	52.32	10.74	-45.4	-48.6	15.8	0.00e+00	0	38	0	75497472	62	5168
2026-01-21 21:47:06.88	52.78	10.86	-45.6	-48.7	15.6	0.00e+00	0	38	0	80740352	62	5264
2026-01-21 21:47:10.00	53.29	10.99	-45.5	-48.6	15.8	0.00e+00	0	38	0	87031808	62	5198
2026-01-21 21:47:12.84	53.76	11.11	-45.5	-48.7	15.7	0.00e+00	0	38	0	92274688	62	5223
2026-01-21 21:47:16.05	54.29	11.25	-45.6	-48.8	15.6	0.00e+00	0	38	0	97517568	62	5289
2026-01-21 21:47:18.89	54.76	11.36	-45.6	-48.7	15.7	0.00e+00	0	37	0	102760448	62	5272
2026-01-21 21:47:22.01	55.29	11.49	-45.7	-48.9	15.5	0.00e+00	0	38	0	109051904	62	5379
2026-01-21 21:47:24.85	55.77	11.60	-45.6	-48.7	15.7	0.00e+00	0	38	0	114294784	62	5254
2026-01-21 21:47:28.00	56.31	11.73	-45.5	-48.6	15.8	0.00e+00	0	38	0	120586240	62	5166
2026-01-21 21:47:30.93	56.81	11.84	-45.4	-48.5	15.9	0.00e+00	0	38	0	125829120	62	5118
2026-01-21 21:47:34.06	57.36	11.96	-45.6	-48.7	15.7	0.00e+00	0	38	0	132120576	62	5240
2026-01-21 21:47:36.90	57.86	12.07	-45.7	-48.9	15.5	0.00e+00	0	38	0	137363456	62	5402
2026-01-21 21:47:40.02	58.41	12.19	-45.7	-48.9	15.5	0.00e+00	0	38	0	142606336	62	5389
2026-01-21 21:47:42.87	58.91	12.29	-45.7	-49.0	15.5	0.00e+00	0	38	0	147849216	62	5408
2026-01-21 21:47:46.09	59.49	12.41	-45.6	-48.8	15.7	0.00e+00	0	38	0	154140672	62	5286
2026-01-21 21:47:48.93	60.00	12.51	-45.6	-48.7	15.7	0.00e+00	0	38	0	159383552	62	5245
2026-01-21 21:47:52.06	60.57	12.62	-45.6	-48.8	15.6	0.00e+00	0	38	0	165675008	62	5329
2026-01-21 21:47:55.00	61.11	12.72	-45.6	-48.8	15.6	0.00e+00	0	38	0	170917888	62	5313
2026-01-21 21:47:57.99	61.66	12.82	-45.8	-49.0	15.4	0.00e+00	0	38	0	176160768	62	5441
2026-01-21 21:48:00.97	62.21	12.92	-45.7	-48.9	15.6	0.00e+00	0	37	0	182452224	62	5349
2026-01-21 21:48:03.96	62.77	13.02	-45.0	-47.9	16.5	0.00e+00	0	38	0	187695104	61	5067
2026-01-21 21:48:06.94	63.33	13.11	-45.1	-48.0	16.4	0.00e+00	0	38	0	192937984	61	5134
2026-01-21 21:48:09.91	63.89	13.20	-45.1	-47.9	16.4	0.00e+00	0	38	0	199229440	61	5096
2026-01-21 21:48:12.90	64.46	13.29	-45.0	-48.0	16.4	0.00e+00	0	38	0	204472320	61	5103
2026-01-21 21:48:15.88	65.03	13.38	-44.9	-47.8	16.6	0.00e+00	0	38	0	209715200	61	5005
2026-01-21 21:48:18.87	65.61	13.47	-44.8	-47.6	16.8	0.00e+00	0	38	0	216006656	61	4886
2026-01-21 21:48:21.94	66.20	13.55	-44.6	-47.3	17.1	0.00e+00	0	38	0	221249536	61	4729
2026-01-21 21:48:24.79	66.76	13.63	-44.7	-47.5	16.9	0.00e+00	0	38	0	226492416	61	4827
2026-01-21 21:48:27.91	67.37	13.71	-45.1	-48.0	16.4	0.00e+00	0	38	0	232783872	61	5148
2026-01-21 21:48:30.75	67.93	13.78	-45.2	-48.2	16.3	0.00e+00	0	38	0	238026752	61	5237
2026-01-21 21:48:34.05	68.58	13.87	-45.4	-48.4	16.0	0.00e+00	0	38	0	244318208	61	5365
2026-01-21 21:48:36.75	69.11	13.93	-45.3	-48.3	16.1	0.00e+00	0	38	0	249561088	61	5320
2026-01-21 21:48:40.04	69.77	14.00	-45.4	-48.4	16.0	0.00e+00	0	38	0	255852544	61	5393
2026-01-21 21:48:42.86	70.34	14.07	-45.5	-48.5	16.0	0.00e+00	0	38	0	261095424	61	5435
2026-01-21 21:48:45.99	70.97	14.13	-45.5	-48.6	15.8	0.00e+00	0	38	0	266338304	61	5479
2026-01-21 21:48:48.83	71.54	14.19	-45.4	-48.4	16.1	0.00e+00	0	38	0	271581184	61	5362
2026-01-21 21:48:51.96	72.17	14.25	-45.3	-48.3	16.1	0.00e+00	0	38	0	277872640	61	5308
2026-01-21 21:48:54.80	72.75	14.30	-45.2	-48.2	16.3	0.00e+00	0	38	0	283115520	61	5246
2026-01-21 21:48:57.93	73.39	14.35	-45.1	-48.0	16.4	0.00e+00	0	38	0	289406976	61	5138
2026-01-21 21:49:00.77	73.97	14.40	-45.0	-47.9	16.5	0.00e+00	0	38	0	294649856	61	5089
2026-01-21 21:49:03.96	74.63	14.45	-45.2	-48.2	16.3	0.00e+00	0	38	0	299892736	61	5219
2026-01-21 21:49:06.86	75.23	14.49	-45.1	-48.0	16.4	0.00e+00	0	38	0	306184192	61	5125
2026-01-21 21:49:10.13	75.91	14.53	-45.1	-48.0	16.5	0.00e+00	0	38	0	311427072	61	5111
2026-01-21 21:49:13.29	76.56	14.57	-44.9	-47.8	16.7	0.00e+00	0	38	0	317718528	61	5000
2026-01-21 21:49:16.13	77.15	14.60	-44.9	-47.7	16.7	0.00e+00	0	38	0	322961408	61	4959
2026-01-21 21:49:19.42	77.84	14.64	-45.0	-47.8	16.6	0.00e+00	0	38	0	329252864	61	5036
2026-01-21 21:49:22.14	78.41	14.66	-44.8	-47.6	16.8	0.00e+00	0	38	0	334495744	61	4910
2026-01-21 21:49:25.75	79.16	14.69	-44.5	-47.2	17.2	0.00e+00	0	38	0	340787200	61	4686
2026-01-21 21:49:28.53	79.74	14.71	-44.4	-47.1	17.3	0.00e+00	0	38	0	346030080	60	4916
2026-01-21 21:49:31.80	80.43	14.73	-44.6	-47.3	17.1	0.00e+00	0	38	0	352321536	60	5014
2026-01-21 21:49:34.53	81.00	14.74	-44.6	-47.4	17.1	0.00e+00	0	38	0	357564416	60	5046
2026-01-21 21:49:37.82	81.70	14.75	-44.2	-47.0	17.4	0.00e+00	0	38	0	363855872	60	4842
2026-01-21 21:49:40.60	82.28	14.76	-44.2	-46.8	17.5	0.00e+00	0	38	0	369098752	60	4754
2026-01-21 21:49:43.79	82.95	14.76	-44.4	-47.0	17.3	0.00e+00	0	38	0	375390208	60	4869
2026-01-21 21:49:46.63	83.55	14.76	-44.3	-47.0	17.3	0.00e+00	0	38	0	380633088	60	4865
2026-01-21 21:49:49.76	84.21	14.76	-43.9	-46.5	17.8	0.00e+00	0	38	0	385875968	59	4855
2026-01-21 21:49:52.60	84.81	14.76	-43.9	-46.6	17.7	0.00e+00	0	38	0	391118848	59	4873
2026-01-21 21:49:55.73	85.47	14.75	-44.0	-46.5	17.8	0.00e+00	0	38	0	397410304	59	4866
2026-01-21 21:49:58.78	86.11	14.73	-44.0	-46.6	17.7	0.00e+00	0	38	0	402653184	59	4922
2026-01-21 21:50:01.84	86.75	14.72	-44.2	-46.8	17.6	0.00e+00	0	38	0	408944640	59	5001
2026-01-21 21:50:04.69	87.35	14.70	-44.4	-47.1	17.3	0.00e+00	0	38	0	414187520	59	5186
2026-01-21 21:50:07.81	88.00	14.68	-44.3	-47.0	17.3	0.00e+00	0	38	0	420478976	59	5127
2026-01-21 21:50:10.65	88.60	14.65	-44.1	-46.7	17.6	0.00e+00	0	38	0	425721856	59	4966
2026-01-21 21:50:13.78	89.25	14.63	-44.3	-46.9	17.4	0.00e+00	0	38	0	430964736	59	5099
2026-01-21 21:50:16.70	89.86	14.59	-44.2	-46.8	17.5	0.00e+00	0	38	0	436207616	59	5041
2026-01-21 21:50:20.19	90.59	14.55	-43.8	-46.3	18.0	0.00e+00	0	38	0	443547648	59	4711
2026-01-21 21:50:22.91	91.15	14.52	-43.9	-46.5	17.8	0.00e+00	0	38	0	448790528	59	4832
2026-01-21 21:50:26.19	91.83	14.48	-44.2	-46.8	17.5	0.00e+00	0	38	0	454033408	59	4985
2026-01-21 21:50:29.07	92.42	14.43	-44.1	-46.7	17.6	0.00e+00	0	38	0	460324864	59	4947
2026-01-21 21:50:32.76	93.18	14.38	-43.7	-46.2	18.1	0.00e+00	0	38	0	466616320	59	4661
2026-01-21 21:50:35.63	93.77	14.33	-43.6	-46.0	18.3	0.00e+00	0	38	0	471859200	59	4559
2026-01-21 21:50:38.92	94.45	14.27	-43.5	-45.8	18.4	0.00e+00	0	38	0	478150656	58	4753
2026-01-21 21:50:41.71	95.01	14.22	-43.8	-46.3	18.0	0.00e+00	0	38	0	483393536	58	4996
2026-01-21 21:50:45.11	95.70	14.15	-44.0	-46.5	17.8	0.00e+00	0	38	0	489684992	58	5133
2026-01-21 21:50:47.84	96.26	14.09	-44.0	-46.5	17.8	0.00e+00	0	38	0	494927872	58	5147
2026-01-21 21:50:51.04	96.90	14.02	-43.6	-46.1	18.1	0.00e+00	0	38	0	501219328	58	4893
2026-01-21 21:50:54.17	97.53	13.95	-43.6	-46.0	18.2	0.00e+00	0	38	0	506462208	58	4859
2026-01-21 21:50:57.01	98.09	13.88	-43.7	-46.1	18.1	0.00e+00	0	38	0	512753664	58	4913
2026-01-21 21:51:00.14	98.72	13.81	-43.8	-46.2	18.0	0.00e+00	0	38	0	517996544	58	4980
2026-01-21 21:51:02.98	99.28	13.74	-44.0	-46.6	17.7	0.00e+00	0	38	0	523239424	58	5183
2026-01-21 21:51:06.11	99.89	13.65	-43.9	-46.4	17.9	0.00e+00	0	38	0	529530880	58	5071
2026-01-21 21:51:08.97	100.45	13.58	-43.7	-46.2	18.1	0.00e+00	0	38	0	534773760	58	4944
2026-01-21 21:51:12.10	101.06	13.49	-43.6	-46.1	18.2	0.00e+00	0	38	0	540016640	58	4877
2026-01-21 21:51:14.98	101.62	13.41	-43.7	-46.2	18.1	0.00e+00	0	38	0	546308096	58	4940
2026-01-21 21:51:18.07	102.21	13.32	-43.9	-46.4	17.9	0.00e+00	0	38	0	551550976	58	5068
2026-01-21 21:51:21.12	102.80	13.22	-44.3	-47.0	17.3	0.00e+00	0	38	0	557842432	59	5107
2026-01-21 21:51:23.96	103.34	13.14	-44.5	-47.2	17.1	0.00e+00	0	38	0	563085312	59	5231
2026-01-21 21:51:27.09	103.93	13.04	-44.6	-47.3	17.0	0.00e+00	0	38	0	568328192	59	5303
2026-01-21 21:51:29.99	104.47	12.94	-44.6	-47.4	17.0	0.00e+00	0	38	0	573571072	60	5050
2026-01-21 21:51:33.11	105.05	12.84	-44.7	-47.4	17.0	0.00e+00	0	38	0	579862528	60	5067
2026-01-21 21:51:36.10	105.61	12.74	-44.5	-47.3	17.1	0.00e+00	0	38	0	585105408	60	5001
2026-01-21 21:51:39.46	106.23	12.62	-44.9	-47.7	16.6	0.00e+00	0	38	0	591396864	60	5263
2026-01-21 21:51:42.18	106.72	12.53	-45.5	-48.7	15.7	0.00e+00	0	38	0	596639744	61	5530
2026-01-21 21:51:45.70	107.36	12.40	-45.9	-49.4	15.1	0.00e+00	0	38	0	603979776	62	5690
2026-01-21 21:51:48.52	107.87	12.30	-46.2	-49.8	14.6	0.00e+00	0	38	0	609222656	63	5606
2026-01-21 21:51:51.82	108.46	12.18	-46.6	-50.3	14.0	2.20e-06	0	38	0	615514112	64	5638
2026-01-21 21:51:54.54	108.94	12.07	-46.2	-49.7	14.6	0.00e+00	0	38	0	619708416	64	5242
2026-01-21 21:51:57.81	109.52	11.95	-45.8	-49.0	15.4	0.00e+00	0	38	0	625999872	63	5135
2026-01-21 21:52:00.55	110.00	11.84	-45.9	-49.1	15.3	0.00e+00	0	38	0	631242752	63	5218
2026-01-21 21:52:04.28	110.64	11.70	-46.0	-49.4	15.0	7.00e-07	0	38	0	638582784	63	5342
2026-01-21 21:52:07.12	111.13	11.58	-46.3	-49.9	14.5	0.00e+00	0	38	0	643825664	63	5665
2026-01-21 21:52:11.13	111.81	11.42	-46.5	-50.3	14.1	0.00e+00	0	38	0	651165696	63	5965
2026-01-21 21:52:14.10	112.31	11.30	-46.1	-50.1	14.2	0.00e+00	0	38	0	656408576	63	5849
2026-01-21 21:52:17.92	112.95	11.14	-46.0	-49.7	14.6	0.00e+00	0	38	0	663748608	63	5565
2026-01-21 21:52:20.69	113.41	11.02	-46.0	-49.4	15.0	0.00e+00	0	38	0	668991488	63	5348
2026-01-21 21:52:23.96	113.95	10.88	-45.8	-49.1	15.2	7.00e-07	0	38	0	675282944	63	5186
2026-01-21 21:52:26.68	114.39	10.77	-45.2	-48.1	16.1	0.00e+00	0	38	0	680525824	62	4916
2026-01-21 21:52:30.02	114.93	10.62	-45.3	-48.4	15.9	0.00e+00	0	38	0	686817280	62	5058
2026-01-21 21:52:33.05	115.42	10.49	-45.6	-48.7	15.6	0.00e+00	0	38	0	692060160	62	5245
2026-01-21 21:52:36.35	115.94	10.35	-45.3	-48.8	15.4	0.00e+00	0	38	0	698351616	62	5319
2026-01-21 21:52:39.23	116.39	10.22	-45.8	-49.1	15.1	0.00e+00	0	38	0	703594496	62	5501
2026-01-21 21:52:42.35	116.88	10.08	-45.3	-48.5	15.7	0.00e+00	0	38	0	709885952	62	5134
2026-01-21 21:52:45.20	117.32	9.95	-45.1	-48.1	16.0	0.00e+00	0	38	0	715128832	62	4915
2026-01-21 21:52:48.33	117.80	9.81	-44.6	-47.5	16.6	0.00e+00	0	38	0	721420288	61	4848
2026-01-21 21:52:51.17	118.23	9.68	-44.8	-47.8	16.3	0.00e+00	0	38	0	726663168	60	5315
2026-01-21 21:52:54.45	118.72	9.53	-45.2	-48.2	15.9	0.00e+00	0	38	0	731906048	61	5272
2026-01-21 21:52:57.38	119.16	9.40	-45.0	-48.0	16.1	0.00e+00	0	38	0	738197504	61	5133
2026-01-21 21:53:00.37	119.60	9.26	-44.9	-47.8	16.3	0.00e+00	0	38	0	743440384	61	5018
2026-01-21 21:53:03.36	120.03	9.12	-45.0	-48.0	16.0	0.00e+00	0	38	0	748683264	61	5156
2026-01-21 21:53:06.34	120.47	8.98	-50.4	-65.7	3.8	4.65e-01	0	38	104	753926144	71	22207
2026-01-21 21:53:09.32	120.89	8.84	-50.7	-66.0	3.8	1.49e+00	0	38	104	753926144	72	21687
2026-01-21 21:53:12.33	121.32	8.70	-50.9	-66.1	3.8	1.49e+00	0	38	104	753926144	72	21966
2026-01-21 21:53:15.44	121.76	8.55	-51.0	-66.2	3.8	1.49e+00	0	38	104	753926144	72	22100
2026-01-21 21:53:18.34	122.16	8.41	-50.6	-66.3	3.8	1.49e+00	0	38	104	753926144	72	22288
2026-01-21 21:53:21.83	122.65	8.25	-50.7	-66.3	3.8	1.49e+00	0	38	104	753926144	72	22293
2026-01-21 21:53:24.52	123.01	8.12	-50.7	-66.3	3.8	1.49e+00	0	38	104	753926144	72	22391
2026-01-21 21:53:27.79	123.46	7.96	-50.7	-66.2	3.8	1.49e+00	0	38	104	753926144	72	22179
2026-01-21 21:53:30.49	123.82	7.83	-50.7	-66.2	3.8	1.49e+00	0	38	104	753926144	72	22142
2026-01-21 21:53:33.76	124.25	7.67	-50.7	-66.2	3.8	1.49e+00	0	38	104	753926144	72	22124
2026-01-21 21:53:36.46	124.61	7.54	-50.7	-66.2	3.8	1.49e+00	0	38	104	753926144	72	22055
2026-01-21 21:53:39.73	125.03	7.38	-50.7	-66.2	3.8	1.49e+00	0	38	104	753926144	72	22133
2026-01-21 21:53:42.44	125.38	7.25	-50.7	-66.2	3.8	1.49e+00	0	38	104	753926144	72	22052
2026-01-21 21:53:45.70	125.80	7.09	-50.6	-66.2	3.8	1.49e+00	0	38	104	753926144	72	22039
2026-01-21 21:53:48.41	126.14	6.96	-50.7	-66.2	3.8	1.49e+00	0	38	104	753926144	72	22066
2026-01-21 21:53:51.68	126.55	6.80	-50.6	-66.2	3.8	1.49e+00	0	38	104	753926144	72	22169
2026-01-21 21:53:54.39	126.89	6.67	-50.7	-66.2	3.8	1.49e+00	0	38	104	753926144	72	22118
2026-01-21 21:53:57.65	127.29	6.51	-50.7	-66.2	3.8	1.49e+00	0	38	104	753926144	72	22050
2026-01-21 21:54:00.35	127.62	6.38	-50.6	-66.2	3.8	1.49e+00	0	38	104	753926144	72	22103
2026-01-21 21:54:03.61	128.01	6.22	-50.6	-66.1	3.8	1.49e+00	0	38	104	753926144	72	22000
2026-01-21 21:54:06.31	128.34	6.09	-50.6	-66.2	3.8	1.49e+00	0	38	104	753926144	72	22089
2026-01-21 21:54:09.58	128.72	5.92	-50.6	-66.2	3.8	1.49e+00	0	38	104	753926144	72	22077
2026-01-21 21:54:12.29	129.04	5.79	-50.6	-66.2	3.8	1.49e+00	0	38	104	753926144	72	22097
2026-01-21 21:54:15.57	129.42	5.63	-50.6	-66.2	3.8	1.49e+00	0	38	104	753926144	72	22070
2026-01-21 21:54:18.29	129.73	5.50	-50.6	-66.2	3.8	1.49e+00	0	38	104	753926144	72	22061
2026-01-21 21:54:21.56	130.11	5.34	-50.6	-66.1	3.8	1.49e+00	0	38	104	753926144	72	22005
2026-01-21 21:54:24.25	130.41	5.20	-50.6	-66.2	3.8	1.49e+00	0	38	104	753926144	72	22041
2026-01-21 21:54:27.53	130.78	5.04	-50.6	-66.2	3.8	1.49e+00	0	38	104	753926144	72	22041

#Closed at: 2026-01-21 21:54:30
#Recorded file [753 MB]: D:/Data/31040_260122_004501.dat