passes_logs/2026/01/21/T1/T1__20260121_025749_AQUA_rec.log

#Pass ID: 20260121_025749_AQUA
#Satellite: AQUA
#Configuration: AQUA
#almurnet v.1.7.20251203
#Start time: 2026-01-21 02:57:48

#Version: 2.0.20230620
#Station: T1
#Location: 37.570604 lon 55.790049 lat
#TLE: 1 27424U 02022A   26020.30984080  .00001497  00000+0  30942-3 0  9998
#TLE: 2 27424  98.4092 346.8266 0001984  71.7888  69.0903 14.61835321261661

#Time	Az	El	Level	Level2	SNR	BER	BlckErr	Temp	State	Recorded	gain1	gain2
2026-01-21 02:57:48.75	2.60	5.00	-53.0	-74.2	3.8	7.46e-01	0	40	0	0	76	43924
2026-01-21 02:57:51.74	2.31	5.19	-45.4	-70.6	3.2	7.73e-01	0	41	104	0	62	65535
2026-01-21 02:57:54.74	2.02	5.38	-45.4	-70.6	3.2	7.75e-01	0	40	104	0	62	65535
2026-01-21 02:57:57.73	1.73	5.56	-45.4	-70.6	3.2	7.74e-01	0	41	104	0	62	65535
2026-01-21 02:58:00.72	1.43	5.75	-45.4	-70.6	3.2	7.75e-01	0	41	104	0	62	65535
2026-01-21 02:58:03.71	1.12	5.94	-45.4	-70.6	3.2	7.72e-01	0	41	104	0	62	65535
2026-01-21 02:58:06.70	0.81	6.13	-45.4	-70.6	3.3	7.73e-01	0	41	104	0	62	65535
2026-01-21 02:58:09.70	0.50	6.32	-45.4	-70.6	3.2	7.75e-01	0	41	104	0	62	65535
2026-01-21 02:58:12.69	0.18	6.51	-45.4	-70.6	3.2	7.73e-01	0	41	104	0	62	65535
2026-01-21 02:58:15.69	359.86	6.70	-45.4	-70.6	3.2	7.74e-01	0	42	104	0	62	65535
2026-01-21 02:58:18.68	359.53	6.89	-45.4	-70.6	3.3	7.72e-01	0	42	104	0	62	65535
2026-01-21 02:58:21.68	359.20	7.09	-45.4	-70.6	3.2	7.72e-01	0	42	104	0	62	65535
2026-01-21 02:58:24.67	358.86	7.28	-45.4	-70.6	3.2	7.74e-01	0	42	104	0	62	65535
2026-01-21 02:58:27.67	358.52	7.48	-45.4	-70.6	3.2	7.75e-01	0	42	104	0	62	65535
2026-01-21 02:58:30.66	358.17	7.67	-45.4	-70.6	3.2	7.74e-01	0	42	104	0	62	65535
2026-01-21 02:58:33.65	357.82	7.87	-45.4	-70.6	3.2	7.75e-01	0	42	104	0	62	65535
2026-01-21 02:58:36.65	357.46	8.07	-45.4	-70.6	3.3	7.70e-01	0	42	104	0	62	65535
2026-01-21 02:58:39.64	357.09	8.26	-45.5	-70.6	3.3	7.67e-01	0	42	104	0	62	65535
2026-01-21 02:58:42.63	356.72	8.46	-45.5	-70.6	3.4	7.62e-01	0	42	104	0	62	65535
2026-01-21 02:58:45.62	356.35	8.66	-45.3	-70.0	3.8	7.45e-01	0	42	104	0	62	60720
2026-01-21 02:58:48.62	355.97	8.86	-44.9	-65.2	3.9	7.47e-01	0	42	104	0	61	37057
2026-01-21 02:58:51.61	355.58	9.06	-44.6	-62.4	3.8	7.46e-01	0	42	104	0	61	26961
2026-01-21 02:58:54.61	355.19	9.26	-47.1	-65.9	3.8	7.53e-01	0	43	104	0	64	34068
2026-01-21 02:58:57.61	354.79	9.47	-43.9	-59.7	3.8	7.45e-01	0	42	104	0	59	22130
2026-01-21 02:59:00.60	354.38	9.67	-44.2	-59.4	3.8	7.43e-01	0	42	104	0	59	21408
2026-01-21 02:59:03.60	353.97	9.87	-46.2	-63.7	3.9	7.41e-01	0	42	104	0	63	27935
2026-01-21 02:59:06.59	353.55	10.07	-45.0	-59.0	3.8	7.46e-01	0	43	104	0	61	18277
2026-01-21 02:59:09.59	353.13	10.28	-44.8	-59.0	3.8	7.46e-01	0	43	104	0	61	18212
2026-01-21 02:59:12.59	352.70	10.48	-46.7	-66.5	3.7	7.47e-01	0	43	104	0	64	36408
2026-01-21 02:59:15.58	352.26	10.69	-44.4	-59.3	3.8	7.45e-01	0	43	104	0	59	21104
2026-01-21 02:59:18.57	351.81	10.89	-44.4	-59.1	3.9	7.44e-01	0	43	104	0	60	19585
2026-01-21 02:59:21.57	351.36	11.09	-49.3	-66.5	3.8	7.45e-01	0	43	104	0	69	27355
2026-01-21 02:59:24.56	350.90	11.30	-45.4	-58.8	3.8	7.43e-01	0	43	104	0	61	17691
2026-01-21 02:59:27.57	350.44	11.51	-46.1	-59.4	3.8	7.44e-01	0	43	104	0	62	17952
2026-01-21 02:59:30.57	349.96	11.71	-48.2	-65.9	3.8	7.47e-01	0	43	104	0	67	28581
2026-01-21 02:59:33.57	349.48	11.92	-45.6	-58.5	3.8	7.44e-01	0	43	104	0	63	15299
2026-01-21 02:59:36.57	348.99	12.12	-45.4	-58.6	3.8	7.42e-01	0	43	104	0	62	16466
2026-01-21 02:59:39.56	348.50	12.33	-51.1	-65.7	3.8	7.47e-01	0	43	104	0	73	19626
2026-01-21 02:59:42.55	348.00	12.53	-46.0	-58.4	3.8	7.43e-01	0	43	104	0	63	15058
2026-01-21 02:59:45.55	347.48	12.74	-46.5	-58.6	3.8	7.47e-01	0	43	104	0	63	15435
2026-01-21 02:59:48.54	346.97	12.95	-49.9	-65.4	3.9	7.44e-01	0	43	104	0	71	21338
2026-01-21 02:59:51.53	346.44	13.15	-46.0	-58.4	3.8	7.45e-01	0	43	104	0	63	15109
2026-01-21 02:59:54.52	345.91	13.35	-46.4	-58.9	3.8	7.45e-01	0	43	104	0	63	16040
2026-01-21 02:59:57.52	345.36	13.56	-49.8	-65.1	3.8	7.45e-01	0	43	104	0	70	21935
2026-01-21 03:00:00.52	344.81	13.76	-45.8	-58.2	3.8	7.44e-01	0	43	104	0	63	14769
2026-01-21 03:00:03.52	344.25	13.96	-46.0	-58.7	3.8	7.46e-01	0	43	104	0	63	15672
2026-01-21 03:00:06.52	343.68	14.17	-50.5	-65.8	3.9	7.45e-01	0	43	104	0	72	21153
2026-01-21 03:00:09.51	343.11	14.37	-46.0	-58.2	3.8	7.45e-01	0	43	104	0	63	14785
2026-01-21 03:00:12.51	342.52	14.57	-45.9	-58.4	3.8	7.48e-01	0	43	104	0	63	15191
2026-01-21 03:00:15.50	341.93	14.77	-50.5	-65.3	3.9	7.44e-01	0	43	104	0	72	20060
2026-01-21 03:00:18.50	341.33	14.97	-46.1	-58.3	3.8	7.45e-01	0	43	104	0	64	14148
2026-01-21 03:00:21.50	340.71	15.16	-46.1	-58.9	3.8	7.46e-01	0	43	104	0	63	15957
2026-01-21 03:00:24.50	340.09	15.36	-50.2	-65.6	3.8	7.45e-01	0	43	104	0	72	20692
2026-01-21 03:00:27.49	339.47	15.55	-46.1	-58.5	3.8	7.45e-01	0	43	104	0	64	14468
2026-01-21 03:00:30.49	338.83	15.74	-46.1	-58.8	3.8	7.47e-01	0	43	104	0	63	15889
2026-01-21 03:00:33.48	338.18	15.93	-51.4	-65.5	3.9	7.49e-01	0	43	104	0	74	18225
2026-01-21 03:00:36.48	337.53	16.12	-46.6	-58.6	3.8	7.44e-01	0	43	104	0	65	13755
2026-01-21 03:00:39.48	336.86	16.31	-46.1	-58.1	3.8	7.44e-01	0	43	104	0	64	13866
2026-01-21 03:00:42.48	336.19	16.49	-50.8	-65.5	3.8	7.47e-01	0	43	104	0	73	19361
2026-01-21 03:00:45.48	335.51	16.67	-46.2	-58.4	3.8	7.44e-01	0	43	104	0	64	14264
2026-01-21 03:00:48.48	334.81	16.85	-46.4	-58.8	3.8	7.50e-01	0	43	104	0	64	14957
2026-01-21 03:00:51.47	334.12	17.03	-50.5	-65.8	3.8	7.44e-01	0	43	104	0	73	19877
2026-01-21 03:00:54.47	333.41	17.20	-46.1	-58.4	3.8	7.46e-01	0	43	104	0	64	14210
2026-01-21 03:00:57.46	332.69	17.37	-46.4	-58.8	3.8	7.46e-01	0	43	104	0	64	15039
2026-01-21 03:01:00.46	331.96	17.54	-51.2	-66.2	3.8	7.43e-01	0	43	104	0	74	19698
2026-01-21 03:01:03.45	331.23	17.71	-46.8	-58.9	3.8	7.49e-01	0	43	104	0	65	14239
2026-01-21 03:01:06.45	330.49	17.87	-46.9	-58.9	3.8	7.45e-01	0	43	104	0	64	15112
2026-01-21 03:01:09.45	329.73	18.02	-50.0	-66.1	3.9	7.43e-01	0	43	104	0	71	23194
2026-01-21 03:01:12.44	328.98	18.18	-46.0	-58.5	3.8	7.46e-01	0	43	104	0	64	14510
2026-01-21 03:01:15.44	328.21	18.33	-46.6	-59.1	3.8	7.46e-01	0	43	104	0	63	16370
2026-01-21 03:01:18.44	327.43	18.47	-50.6	-66.1	3.9	7.48e-01	0	43	104	0	73	20692
2026-01-21 03:01:21.44	326.64	18.61	-46.6	-59.0	3.8	7.46e-01	0	43	104	0	65	14518
2026-01-21 03:01:24.43	325.85	18.75	-46.6	-58.6	3.8	7.44e-01	0	43	104	0	64	14566
2026-01-21 03:01:27.43	325.05	18.88	-50.8	-66.6	3.9	7.43e-01	0	43	104	0	73	21883
2026-01-21 03:01:30.42	324.25	19.01	-46.6	-58.9	3.8	7.41e-01	0	43	104	0	65	14246
2026-01-21 03:01:33.42	323.43	19.13	-46.7	-59.0	3.8	7.49e-01	0	43	104	0	64	15233
2026-01-21 03:01:36.42	322.61	19.24	-51.1	-66.3	3.9	7.47e-01	0	43	104	0	74	19908
2026-01-21 03:01:39.41	321.79	19.36	-46.8	-59.0	3.8	7.50e-01	0	43	104	0	65	14536
2026-01-21 03:01:42.41	320.95	19.46	-46.7	-59.0	3.8	7.42e-01	0	43	104	0	64	15257
2026-01-21 03:01:45.41	320.11	19.56	-50.8	-66.9	3.9	7.45e-01	0	43	104	0	73	22586
2026-01-21 03:01:48.40	319.27	19.66	-46.6	-59.2	3.8	7.43e-01	0	43	104	0	65	14838
2026-01-21 03:01:51.40	318.42	19.74	-46.2	-58.9	3.8	7.45e-01	0	43	104	0	64	15103
2026-01-21 03:01:54.39	317.56	19.83	-51.3	-66.9	3.9	7.43e-01	0	43	104	0	74	21364
2026-01-21 03:01:57.39	316.70	19.90	-47.1	-59.4	3.8	7.46e-01	0	43	104	0	66	14266
2026-01-21 03:02:00.39	315.84	19.97	-46.7	-58.8	3.8	7.45e-01	0	43	104	0	65	14191
2026-01-21 03:02:03.38	314.97	20.04	-51.6	-67.3	3.8	7.45e-01	0	43	104	0	75	21115
2026-01-21 03:02:06.38	314.09	20.09	-47.3	-59.6	3.8	7.44e-01	0	43	104	0	66	14608
2026-01-21 03:02:09.38	313.22	20.15	-47.5	-59.6	3.8	7.48e-01	0	43	104	0	66	14667
2026-01-21 03:02:12.38	312.34	20.19	-51.7	-67.2	3.9	7.43e-01	0	43	104	0	75	20859
2026-01-21 03:02:15.38	311.45	20.23	-47.5	-60.1	3.8	7.45e-01	0	43	104	0	66	15546
2026-01-21 03:02:18.37	310.57	20.26	-48.0	-60.4	3.8	7.43e-01	0	43	104	0	66	16065
2026-01-21 03:02:21.37	309.69	20.28	-52.1	-67.0	3.8	7.45e-01	0	43	104	0	76	19227
2026-01-21 03:02:24.37	308.80	20.30	-47.6	-59.7	3.8	7.45e-01	0	43	104	0	67	14041
2026-01-21 03:02:27.37	307.91	20.31	-48.2	-60.9	3.8	7.44e-01	0	43	104	0	67	16067
2026-01-21 03:02:30.37	307.02	20.31	-52.3	-68.1	3.8	7.43e-01	0	43	104	0	76	21864
2026-01-21 03:02:33.36	306.13	20.31	-47.9	-60.1	3.8	7.48e-01	0	43	104	0	67	14560
2026-01-21 03:02:36.36	305.25	20.30	-48.1	-60.3	3.8	7.45e-01	0	43	104	0	66	15942
2026-01-21 03:02:39.36	304.36	20.28	-52.2	-67.6	3.8	7.46e-01	0	43	104	0	76	20723
2026-01-21 03:02:42.35	303.47	20.25	-48.2	-60.2	3.8	7.44e-01	0	43	104	0	68	14046
2026-01-21 03:02:45.34	302.59	20.22	-48.1	-60.4	3.8	7.43e-01	0	43	104	0	67	15224
2026-01-21 03:02:48.34	301.71	20.18	-52.6	-68.2	3.9	7.42e-01	0	43	104	0	77	20857
2026-01-21 03:02:51.33	300.83	20.14	-48.0	-59.7	3.8	7.46e-01	0	43	104	0	68	13222
2026-01-21 03:02:54.32	299.96	20.09	-48.4	-61.4	3.8	7.47e-01	0	43	104	0	67	17011
2026-01-21 03:02:57.32	299.08	20.03	-52.6	-68.1	3.9	7.43e-01	0	43	104	0	76	21919
2026-01-21 03:03:00.31	298.21	19.96	-47.7	-60.0	3.8	7.46e-01	0	43	104	0	67	14515
2026-01-21 03:03:03.31	297.35	19.89	-47.6	-60.2	3.8	7.45e-01	0	43	104	0	66	15669
2026-01-21 03:03:06.31	296.48	19.82	-52.7	-68.0	3.9	7.42e-01	0	43	104	0	77	20435
2026-01-21 03:03:09.30	295.63	19.73	-47.9	-59.8	3.8	7.48e-01	0	43	104	0	67	14157
2026-01-21 03:03:12.30	294.78	19.64	-47.4	-60.4	3.8	7.46e-01	0	43	104	0	66	16003
2026-01-21 03:03:15.29	293.93	19.55	-52.4	-68.5	3.8	7.43e-01	0	43	104	0	76	22879
2026-01-21 03:03:18.29	293.09	19.45	-47.7	-59.8	3.8	7.50e-01	0	43	104	0	67	14063
2026-01-21 03:03:21.29	292.26	19.34	-47.2	-59.4	3.9	7.42e-01	0	43	104	0	66	14247
2026-01-21 03:03:24.28	291.43	19.23	-52.5	-60.5	4.8	7.14e-01	0	43	104	0	76	9135
2026-01-21 03:03:27.27	290.61	19.11	-47.5	-50.5	21.9	6.05e-01	0	43	0	4718592	66	5124
2026-01-21 03:03:30.26	289.80	18.99	-47.0	-49.8	22.6	6.04e-01	0	43	0	10485760	65	5027
2026-01-21 03:03:33.26	288.99	18.86	-46.5	-49.1	23.2	6.06e-01	0	43	0	16252928	65	4626
2026-01-21 03:03:36.25	288.19	18.73	-46.7	-49.3	23.0	6.03e-01	0	43	0	21495808	64	5019
2026-01-21 03:03:39.24	287.40	18.59	-46.5	-49.2	23.2	6.04e-01	0	43	0	27262976	64	4957
2026-01-21 03:03:42.24	286.61	18.45	-46.7	-49.5	22.9	6.01e-01	0	43	0	33030144	64	5136
2026-01-21 03:03:45.24	285.83	18.30	-46.9	-49.6	22.8	6.01e-01	0	43	0	38273024	64	5210
2026-01-21 03:03:48.24	285.06	18.15	-47.3	-50.1	22.4	6.02e-01	0	43	0	44040192	65	5200
2026-01-21 03:03:51.23	284.30	18.00	-46.7	-49.4	22.9	6.06e-01	0	43	0	49807360	64	5058
2026-01-21 03:03:54.23	283.55	17.84	-46.8	-49.5	22.8	6.03e-01	0	43	0	55050240	64	5109
2026-01-21 03:03:57.23	282.80	17.68	-46.9	-49.7	22.7	6.04e-01	0	43	0	60817408	64	5257
2026-01-21 03:04:00.23	282.06	17.51	-47.1	-49.9	22.5	6.05e-01	0	43	0	66584576	64	5384
2026-01-21 03:04:03.23	281.34	17.34	-47.0	-49.8	22.5	6.03e-01	0	43	0	72351744	64	5337
2026-01-21 03:04:06.23	280.62	17.17	-46.3	-48.9	23.5	6.02e-01	0	43	0	77594624	63	5051
2026-01-21 03:04:09.23	279.90	17.00	-46.5	-49.1	23.2	6.03e-01	0	43	0	83361792	64	4926
2026-01-21 03:04:12.21	279.21	16.82	-46.3	-48.8	23.5	6.06e-01	0	43	0	89128960	64	4729
2026-01-21 03:04:15.21	278.51	16.64	-46.6	-49.3	23.0	6.04e-01	0	44	0	94896128	64	5041
2026-01-21 03:04:18.20	277.83	16.46	-46.6	-49.2	23.1	6.03e-01	0	43	0	100139008	64	4980
2026-01-21 03:04:21.20	277.15	16.27	-46.2	-48.7	23.6	6.02e-01	0	43	0	105906176	64	4686
2026-01-21 03:04:24.19	276.49	16.09	-46.6	-49.2	23.1	6.05e-01	0	43	0	111673344	64	4953
2026-01-21 03:04:27.18	275.83	15.90	-46.5	-49.1	23.3	6.02e-01	0	43	0	116916224	64	4890
2026-01-21 03:04:30.17	275.19	15.71	-46.4	-49.0	23.3	6.02e-01	0	43	0	122683392	64	4829
2026-01-21 03:04:33.16	274.55	15.51	-46.2	-48.9	23.4	6.04e-01	0	43	0	128450560	64	4765
2026-01-21 03:04:36.16	273.92	15.32	-46.4	-49.0	23.2	6.03e-01	0	43	0	134217728	64	4868
2026-01-21 03:04:39.16	273.30	15.12	-46.4	-49.1	23.2	6.05e-01	0	43	0	139460608	64	4877
2026-01-21 03:04:42.16	272.68	14.92	-46.7	-49.4	22.9	6.04e-01	0	43	0	145227776	64	5073
2026-01-21 03:04:45.15	272.08	14.73	-46.5	-49.1	23.2	6.05e-01	0	43	0	150994944	64	4910
2026-01-21 03:04:48.15	271.48	14.52	-46.5	-49.1	23.1	6.02e-01	0	43	0	156237824	64	4910
2026-01-21 03:04:51.15	270.89	14.32	-46.6	-49.4	22.9	6.05e-01	0	43	0	162004992	64	5080
2026-01-21 03:04:54.14	270.32	14.12	-46.4	-49.1	23.2	6.03e-01	0	43	0	167772160	64	4899
2026-01-21 03:04:57.14	269.75	13.92	-46.4	-49.1	23.2	6.04e-01	0	43	0	173015040	64	4885
2026-01-21 03:05:00.13	269.19	13.72	-46.5	-49.2	23.1	6.02e-01	0	43	0	178782208	64	4939
2026-01-21 03:05:03.13	268.63	13.51	-46.5	-49.2	23.1	6.01e-01	0	43	0	184549376	64	4932
2026-01-21 03:05:06.13	268.09	13.31	-46.6	-49.4	22.9	6.05e-01	0	43	0	190316544	64	5052
2026-01-21 03:05:09.13	267.55	13.10	-46.5	-49.2	23.0	6.03e-01	0	43	0	195559424	64	4983
2026-01-21 03:05:12.12	267.02	12.89	-46.4	-49.1	23.2	6.02e-01	0	43	0	201326592	64	4881
2026-01-21 03:05:15.11	266.50	12.69	-46.8	-49.5	22.7	6.03e-01	0	43	0	207093760	64	5134
2026-01-21 03:05:18.11	265.99	12.48	-46.4	-49.1	23.1	6.03e-01	0	43	0	212860928	64	4911
2026-01-21 03:05:21.11	265.48	12.28	-46.8	-49.5	22.6	6.05e-01	0	43	0	218103808	64	5147
2026-01-21 03:05:24.10	264.98	12.07	-46.7	-49.3	22.8	5.99e-01	0	43	0	223870976	64	5035
2026-01-21 03:05:27.09	264.49	11.86	-46.7	-49.4	22.8	6.03e-01	0	43	0	229638144	64	5094
2026-01-21 03:05:30.08	264.01	11.66	-46.8	-49.7	22.6	6.04e-01	0	43	0	234881024	64	5223
2026-01-21 03:05:33.08	263.53	11.45	-46.7	-49.6	22.6	6.02e-01	0	44	0	240648192	64	5164
2026-01-21 03:05:36.07	263.07	11.24	-46.7	-49.6	22.6	6.03e-01	0	43	0	246415360	64	5187
2026-01-21 03:05:39.07	262.60	11.04	-47.0	-49.9	22.4	6.04e-01	0	43	0	251658240	64	5345
2026-01-21 03:05:42.06	262.15	10.83	-46.9	-49.7	22.4	6.05e-01	0	43	0	257425408	64	5272
2026-01-21 03:05:45.06	261.70	10.63	-46.9	-49.8	22.4	6.03e-01	0	43	0	263192576	64	5284
2026-01-21 03:05:48.07	261.26	10.42	-47.0	-49.9	22.2	6.06e-01	0	43	0	268959744	64	5401
2026-01-21 03:05:51.07	260.83	10.21	-46.9	-49.9	22.3	6.05e-01	0	44	0	274202624	64	5367
2026-01-21 03:05:54.08	260.40	10.01	-47.0	-49.9	22.2	6.02e-01	0	43	0	279969792	64	5384
2026-01-21 03:05:57.07	259.98	9.81	-47.2	-50.2	22.0	6.04e-01	0	43	0	285736960	65	5243
2026-01-21 03:06:00.08	259.56	9.60	-47.1	-50.1	22.0	6.07e-01	0	43	0	291504128	65	5167
2026-01-21 03:06:03.08	259.15	9.40	-47.3	-50.2	21.9	6.04e-01	0	43	0	296747008	65	5258
2026-01-21 03:06:06.08	258.75	9.20	-47.4	-50.3	21.8	6.02e-01	0	43	0	302514176	65	5314
2026-01-21 03:06:09.08	258.35	8.99	-53.1	-72.6	3.6	7.53e-01	0	43	104	307757056	77	34730
2026-01-21 03:06:12.07	257.97	8.79	-54.0	-74.1	3.8	7.43e-01	0	43	104	307757056	78	38866
2026-01-21 03:06:15.06	257.58	8.59	-54.3	-74.3	3.8	7.42e-01	0	43	104	307757056	79	37515
2026-01-21 03:06:18.04	257.21	8.39	-54.4	-74.4	3.8	7.46e-01	0	43	104	307757056	79	37826
2026-01-21 03:06:21.03	256.83	8.19	-54.2	-74.4	3.8	7.43e-01	0	43	104	307757056	79	38006
2026-01-21 03:06:24.02	256.47	8.00	-54.0	-74.4	3.8	7.43e-01	0	43	104	307757056	79	38113
2026-01-21 03:06:27.00	256.11	7.80	-54.0	-74.4	3.8	7.48e-01	0	43	104	307757056	79	37954
2026-01-21 03:06:29.99	255.75	7.60	-54.1	-74.4	3.8	7.44e-01	0	43	104	307757056	79	37883
2026-01-21 03:06:32.98	255.40	7.41	-53.8	-74.3	3.8	7.46e-01	0	43	104	307757056	79	37743
2026-01-21 03:06:35.97	255.06	7.21	-53.8	-74.3	3.8	7.47e-01	0	43	104	307757056	79	37638
2026-01-21 03:06:38.96	254.72	7.02	-53.8	-74.3	3.8	7.45e-01	0	43	104	307757056	79	37639
2026-01-21 03:06:41.94	254.38	6.82	-53.8	-74.3	3.8	7.46e-01	0	43	104	307757056	79	37609
2026-01-21 03:06:44.93	254.05	6.63	-53.8	-74.3	3.8	7.46e-01	0	43	104	307757056	79	37625
2026-01-21 03:06:47.92	253.73	6.44	-53.8	-74.3	3.8	7.46e-01	0	44	104	307757056	79	37600
2026-01-21 03:06:50.91	253.41	6.25	-53.8	-74.3	3.8	7.47e-01	0	43	104	307757056	79	37639
2026-01-21 03:06:53.90	253.09	6.06	-53.8	-74.3	3.8	7.50e-01	0	43	104	307757056	79	37505
2026-01-21 03:06:56.89	252.78	5.87	-53.8	-74.3	3.8	7.48e-01	0	44	104	307757056	79	37478
2026-01-21 03:06:59.88	252.47	5.68	-53.8	-74.3	3.8	7.47e-01	0	44	104	307757056	79	37535
2026-01-21 03:07:02.88	252.17	5.49	-53.8	-74.3	3.8	7.47e-01	0	43	104	307757056	79	37525
2026-01-21 03:07:05.87	251.87	5.30	-53.8	-74.3	3.8	7.45e-01	0	44	104	307757056	79	37595
2026-01-21 03:07:08.86	251.58	5.11	-53.8	-74.3	3.8	7.44e-01	0	44	104	307757056	79	37499
2026-01-21 03:07:11.85	251.29	4.93	-53.8	-74.3	3.8	7.44e-01	0	43	104	307757056	79	37560

#Closed at: 2026-01-21 03:07:12
#Recorded file [307 MB]: D:/Data/31040_260121_055748.dat