passes_logs/2026/01/21/T1/T1__20260121_034448_FENGYUN_3E_rec.log

#Pass ID: 20260121_034448_FENGYUN 3E
#Satellite: FENGYUN 3E
#Configuration: FENGYUN 3E
#almurnet v.1.7.20251203
#Start time: 2026-01-21 03:44:48

#Version: 2.0.20230620
#Station: T1
#Location: 37.570604 lon 55.790049 lat
#TLE: 1 49008U 21062A   26020.29079360  .00000161  00000+0  96807-4 0  9999
#TLE: 2 49008  98.7481  25.3569 0002259 127.4136 232.7246 14.19885851235592

#Time	Az	El	Level	Level2	SNR	BER	BlckErr	Temp	State	Recorded	gain1	gain2
2026-01-21 03:44:48.73	17.86	5.04	-51.5	-63.1	3.8	8.47e-01	0	41	0	0	72	14522
2026-01-21 03:44:52.70	17.93	5.32	-51.5	-62.8	3.8	8.46e-01	0	41	104	0	73	13243
2026-01-21 03:44:56.67	17.99	5.61	-51.5	-62.7	3.8	8.48e-01	0	42	104	0	73	12971
2026-01-21 03:45:00.65	18.06	5.90	-51.5	-62.8	3.8	8.47e-01	0	42	104	0	73	13246
2026-01-21 03:45:04.62	18.12	6.19	-51.5	-63.1	3.8	8.46e-01	0	42	104	0	73	13651
2026-01-21 03:45:08.60	18.19	6.49	-51.5	-63.0	3.8	8.48e-01	0	42	104	0	73	13483
2026-01-21 03:45:12.57	18.26	6.78	-51.4	-62.1	3.8	8.47e-01	0	42	104	0	73	12181
2026-01-21 03:45:16.54	18.33	7.09	-51.2	-60.6	3.8	8.45e-01	0	42	104	0	73	10250
2026-01-21 03:45:20.52	18.40	7.39	-51.0	-59.0	4.4	8.33e-01	0	43	0	0	72	9052
2026-01-21 03:45:24.49	18.48	7.70	-50.8	-58.1	4.8	8.01e-01	0	43	0	0	72	8088
2026-01-21 03:45:28.47	18.55	8.02	-50.6	-56.9	5.5	7.27e-01	0	43	0	0	71	7501
2026-01-21 03:45:32.44	18.63	8.33	-49.8	-54.5	7.4	1.12e-01	0	43	0	23068672	70	6045
2026-01-21 03:45:36.42	18.70	8.66	-48.1	-51.1	10.7	3.07e-03	0	43	0	51380224	66	5131
2026-01-21 03:45:40.39	18.78	8.98	-46.6	-48.8	13.1	3.31e-05	0	43	0	79691776	64	4420
2026-01-21 03:45:44.37	18.86	9.31	-43.4	-44.6	17.3	0.00e+00	0	43	0	109051904	56	4335
2026-01-21 03:45:48.35	18.94	9.65	-42.3	-43.5	18.2	0.00e+00	0	43	0	137363456	55	4010
2026-01-21 03:45:52.33	19.02	9.99	-41.7	-42.8	18.9	0.00e+00	0	43	0	165675008	53	4146
2026-01-21 03:45:56.31	19.10	10.33	-42.0	-43.1	18.6	0.00e+00	0	43	0	195035136	53	4299
2026-01-21 03:46:00.27	19.19	10.68	-41.7	-42.7	18.9	0.00e+00	0	43	0	223346688	53	4141
2026-01-21 03:46:04.24	19.28	11.03	-41.4	-42.5	19.2	0.00e+00	0	43	0	252706816	53	4022
2026-01-21 03:46:08.21	19.36	11.39	-41.2	-42.2	19.5	0.00e+00	0	43	0	281018368	53	3903
2026-01-21 03:46:12.27	19.46	11.76	-41.3	-42.3	19.4	0.00e+00	0	43	0	310378496	53	3943
2026-01-21 03:46:16.28	19.55	12.14	-41.3	-42.4	19.4	0.00e+00	0	43	0	339738624	53	3976
2026-01-21 03:46:20.32	19.64	12.52	-40.9	-41.9	19.8	0.00e+00	0	43	0	368050176	52	3995
2026-01-21 03:46:24.31	19.74	12.90	-40.7	-41.7	20.0	0.00e+00	0	44	0	397410304	52	3913
2026-01-21 03:46:28.28	19.84	13.29	-40.8	-41.8	20.0	0.00e+00	0	43	0	425721856	51	4162
2026-01-21 03:46:32.43	19.94	13.70	-40.5	-41.5	20.2	0.00e+00	0	44	0	455081984	51	4047
2026-01-21 03:46:36.41	20.05	14.10	-40.4	-41.4	20.4	0.00e+00	0	43	0	484442112	51	3995
2026-01-21 03:46:40.39	20.15	14.51	-40.1	-41.1	20.7	0.00e+00	0	44	0	513802240	51	3831
2026-01-21 03:46:44.37	20.26	14.93	-40.2	-41.1	20.6	0.00e+00	0	44	0	542113792	50	4093
2026-01-21 03:46:48.35	20.37	15.35	-40.0	-40.9	20.8	0.00e+00	0	44	0	570425344	50	3995
2026-01-21 03:46:52.34	20.48	15.78	-40.0	-40.9	20.9	0.00e+00	0	44	0	599785472	50	3964
2026-01-21 03:46:56.34	20.60	16.22	-40.0	-40.9	20.9	0.00e+00	0	44	0	628097024	50	3984
2026-01-21 03:47:00.46	20.72	16.68	-39.8	-40.7	21.0	0.00e+00	0	44	0	658505728	50	3900
2026-01-21 03:47:04.71	20.85	17.16	-39.7	-40.5	21.2	0.00e+00	0	44	0	688914432	50	3824
2026-01-21 03:47:08.81	20.98	17.64	-39.6	-40.4	21.3	0.00e+00	0	44	0	718274560	49	3997
2026-01-21 03:47:12.83	21.11	18.12	-39.5	-40.4	21.4	0.00e+00	0	44	0	747634688	49	3965
2026-01-21 03:47:16.92	21.25	18.61	-39.7	-40.6	21.2	0.00e+00	0	44	0	776994816	49	4059
2026-01-21 03:47:20.93	21.39	19.11	-39.4	-40.3	21.5	0.00e+00	0	44	0	805306368	49	3923
2026-01-21 03:47:25.22	21.54	19.65	-39.2	-40.1	21.7	0.00e+00	0	44	0	836763648	49	3826
2026-01-21 03:47:29.31	21.69	20.17	-39.1	-40.0	21.7	0.00e+00	0	44	0	866123776	48	4021
2026-01-21 03:47:33.29	21.84	20.70	-39.0	-39.9	21.8	0.00e+00	0	44	0	895483904	48	3960
2026-01-21 03:47:37.27	21.99	21.23	-38.9	-39.8	21.9	0.00e+00	0	44	0	923795456	48	3928
2026-01-21 03:47:41.68	22.17	21.83	-39.0	-39.9	21.8	0.00e+00	0	44	0	955252736	48	3965
2026-01-21 03:47:45.68	22.34	22.39	-39.0	-39.8	21.9	0.00e+00	0	44	0	984612864	48	3950
2026-01-21 03:47:49.66	22.51	22.97	-39.2	-40.1	21.7	0.00e+00	0	44	0	1012924416	48	4058
2026-01-21 03:47:53.64	22.68	23.55	-39.0	-39.9	21.8	0.00e+00	0	44	0	1042284544	48	3980
2026-01-21 03:47:57.71	22.87	24.16	-38.9	-39.7	22.0	0.00e+00	0	44	0	1071644672	48	3901
2026-01-21 03:48:01.75	23.06	24.78	-38.8	-39.6	22.1	0.00e+00	0	44	0	1101004800	48	3847
2026-01-21 03:48:05.74	23.26	25.41	-38.4	-39.3	22.0	0.00e+00	0	44	0	1129316352	47	3927
2026-01-21 03:48:09.80	23.47	26.06	-38.1	-38.9	22.4	0.00e+00	0	44	0	1158676480	46	3997
2026-01-21 03:48:13.78	23.68	26.72	-37.8	-38.7	22.6	0.00e+00	0	44	0	1188036608	46	3874
2026-01-21 03:48:17.82	23.90	27.40	-37.9	-38.7	22.6	0.00e+00	0	44	0	1216348160	46	3898
2026-01-21 03:48:21.86	24.13	28.10	-37.9	-38.7	22.6	0.00e+00	0	44	0	1245708288	46	3895
2026-01-21 03:48:25.86	24.37	28.81	-38.0	-38.9	22.5	0.00e+00	0	44	0	1274019840	46	3961
2026-01-21 03:48:29.84	24.62	29.53	-38.0	-38.9	22.5	0.00e+00	0	44	0	1303379968	46	3959
2026-01-21 03:48:34.20	24.91	30.35	-38.1	-38.9	22.4	0.00e+00	0	44	0	1334837248	46	3981
2026-01-21 03:48:38.17	25.18	31.11	-38.0	-38.9	22.5	0.00e+00	0	44	0	1364197376	46	3971
2026-01-21 03:48:42.15	25.46	31.89	-38.2	-39.0	22.3	0.00e+00	0	44	0	1392508928	46	4048
2026-01-21 03:48:46.13	25.76	32.70	-38.1	-38.9	22.5	0.00e+00	0	44	0	1420820480	46	3998
2026-01-21 03:48:50.11	26.08	33.53	-37.6	-38.4	22.8	0.00e+00	0	44	0	1449132032	46	3774
2026-01-21 03:48:54.09	26.41	34.37	-37.8	-38.6	22.7	0.00e+00	0	44	0	1478492160	45	4061
2026-01-21 03:48:58.03	26.75	35.24	-38.0	-38.9	22.5	0.00e+00	0	44	0	1506803712	45	4201
2026-01-21 03:49:02.01	27.11	36.13	-38.1	-38.9	22.5	0.00e+00	0	44	0	1535115264	46	3988
2026-01-21 03:49:05.99	27.50	37.05	-38.4	-39.3	22.2	0.00e+00	0	44	0	1564475392	46	4149
2026-01-21 03:49:09.97	27.90	37.99	-38.2	-39.0	22.4	0.00e+00	0	44	0	1592786944	46	4041
2026-01-21 03:49:13.95	28.33	38.96	-37.8	-38.6	22.7	0.00e+00	0	44	0	1622147072	46	3866
2026-01-21 03:49:17.93	28.79	39.96	-38.2	-39.1	22.3	0.00e+00	0	44	0	1650458624	46	4065
2026-01-21 03:49:21.95	29.27	40.99	-38.5	-39.3	22.1	0.00e+00	0	44	0	1679818752	46	4183
2026-01-21 03:49:25.93	29.79	42.05	-38.4	-39.3	22.2	0.00e+00	0	44	0	1708130304	47	3921
2026-01-21 03:49:29.91	30.34	43.13	-38.3	-39.1	22.3	0.00e+00	0	44	0	1736441856	47	3849
2026-01-21 03:49:33.90	30.92	44.24	-38.8	-39.7	21.8	0.00e+00	0	44	0	1765801984	47	4112
2026-01-21 03:49:37.85	31.55	45.37	-39.1	-40.0	21.5	0.00e+00	0	44	0	1794113536	47	4274
2026-01-21 03:49:41.83	32.22	46.53	-38.8	-39.6	21.9	0.00e+00	0	44	0	1823473664	47	4090
2026-01-21 03:49:45.81	32.95	47.73	-39.0	-39.8	22.1	0.00e+00	0	44	0	1851785216	48	3940
2026-01-21 03:49:49.79	33.73	48.96	-39.6	-40.5	21.5	0.00e+00	0	44	0	1880096768	49	4008
2026-01-21 03:49:53.77	34.58	50.21	-39.4	-40.3	21.7	0.00e+00	0	44	0	1909456896	49	3914
2026-01-21 03:49:57.74	35.50	51.49	-39.8	-40.7	21.4	0.00e+00	0	44	0	1937768448	49	4109
2026-01-21 03:50:01.77	36.51	52.82	-39.9	-40.8	21.3	0.00e+00	0	44	0	1967128576	49	4163
2026-01-21 03:50:05.82	37.63	54.18	-40.0	-40.8	21.2	0.00e+00	0	44	0	1996488704	49	4190
2026-01-21 03:50:09.84	38.85	55.56	-39.8	-40.7	21.4	0.00e+00	0	44	0	2024800256	48	4376
2026-01-21 03:50:13.93	40.22	56.98	-40.0	-40.9	21.2	0.00e+00	0	44	0	2055208960	49	4210
2026-01-21 03:50:18.00	41.73	58.41	-40.1	-41.0	21.2	0.00e+00	0	44	0	2084569088	50	4021
2026-01-21 03:50:21.98	43.37	59.83	-39.8	-40.7	21.4	0.00e+00	0	44	0	2112880640	49	4111
2026-01-21 03:50:25.96	45.21	61.26	-39.3	-40.1	21.8	0.00e+00	0	44	0	2141192192	49	3867
2026-01-21 03:50:29.96	47.27	62.70	-39.3	-40.2	21.9	0.00e+00	0	44	0	2170552320	49	3889
2026-01-21 03:50:33.94	49.58	64.12	-39.0	-39.8	22.2	0.00e+00	0	44	0	2198863872	48	3938
2026-01-21 03:50:37.92	52.20	65.53	-38.3	-39.1	22.4	0.00e+00	0	44	0	2228224000	47	3844
2026-01-21 03:50:41.92	55.18	66.92	-38.2	-39.0	22.5	0.00e+00	0	44	0	2256535552	46	4039
2026-01-21 03:50:45.98	58.63	68.30	-38.8	-39.7	21.9	0.00e+00	0	44	0	2285895680	47	4135
2026-01-21 03:50:49.96	62.48	69.58	-38.5	-39.3	22.2	0.00e+00	0	44	0	2315255808	47	3955
2026-01-21 03:50:53.94	66.88	70.78	-38.6	-39.4	22.1	0.00e+00	0	44	0	2343567360	47	3997
2026-01-21 03:50:57.91	71.86	71.87	-38.2	-39.0	22.4	0.00e+00	0	44	0	2371878912	47	3823
2026-01-21 03:51:01.90	77.50	72.84	-38.2	-39.0	22.5	0.00e+00	0	44	0	2401239040	46	4040
2026-01-21 03:51:05.87	83.74	73.63	-38.0	-38.8	22.6	0.00e+00	0	44	0	2429550592	46	3934
2026-01-21 03:51:09.85	90.58	74.22	-38.0	-38.8	22.6	0.00e+00	0	44	0	2458910720	46	3940
2026-01-21 03:51:13.84	97.88	74.58	-37.7	-38.5	22.8	0.00e+00	0	44	0	2487222272	46	3812
2026-01-21 03:51:17.92	105.59	74.70	-37.7	-38.6	22.8	0.00e+00	0	44	0	2516582400	45	4056
2026-01-21 03:51:21.96	113.22	74.55	-37.9	-38.7	22.7	0.00e+00	0	44	0	2545942528	45	4128
2026-01-21 03:51:25.94	120.46	74.16	-38.6	-39.4	22.2	0.00e+00	0	44	0	2574254080	46	4222
2026-01-21 03:51:29.92	127.24	73.54	-38.1	-38.9	22.5	0.00e+00	0	44	0	2603614208	46	3994
2026-01-21 03:51:34.09	133.70	72.68	-38.6	-39.4	22.1	0.00e+00	0	44	0	2632974336	46	4235
2026-01-21 03:51:38.07	139.23	71.69	-38.8	-39.7	21.9	0.00e+00	0	44	0	2662334464	47	4112
2026-01-21 03:51:42.00	144.06	70.59	-38.6	-39.4	22.5	0.00e+00	0	44	0	2690646016	48	3773
2026-01-21 03:51:45.98	148.37	69.37	-38.8	-39.6	22.0	0.00e+00	0	44	0	2718957568	47	4077
2026-01-21 03:51:49.95	152.14	68.08	-38.8	-39.6	22.0	0.00e+00	0	44	0	2748317696	47	4079
2026-01-21 03:51:53.94	155.47	66.72	-38.4	-39.2	22.3	0.00e+00	0	44	0	2776629248	47	3889
2026-01-21 03:51:57.92	158.38	65.33	-38.1	-38.9	22.5	0.00e+00	0	44	0	2804940800	46	3987
2026-01-21 03:52:01.89	160.95	63.91	-38.5	-39.3	22.2	0.00e+00	0	44	0	2834300928	46	4181
2026-01-21 03:52:06.09	163.35	62.40	-39.4	-40.3	21.8	0.00e+00	0	44	0	2864709632	48	4158
2026-01-21 03:52:10.04	165.34	60.98	-40.3	-41.0	21.4	0.00e+00	0	44	0	2893021184	49	4262
2026-01-21 03:52:14.01	167.14	59.55	-40.1	-41.0	20.9	0.00e+00	0	44	0	2921332736	49	4270
2026-01-21 03:52:18.07	168.78	58.10	-40.0	-40.9	21.1	0.00e+00	0	44	0	2950692864	49	4224
2026-01-21 03:52:22.11	170.25	56.68	-39.7	-40.6	21.5	0.00e+00	0	44	0	2980052992	49	4055
2026-01-21 03:52:26.09	171.56	55.29	-40.2	-41.1	21.0	0.00e+00	0	44	0	3008364544	50	4067
2026-01-21 03:52:30.07	172.75	53.93	-40.0	-40.9	21.2	0.00e+00	0	44	0	3037724672	50	3992
2026-01-21 03:52:34.05	173.84	52.59	-39.7	-40.6	21.4	0.00e+00	0	44	0	3066036224	50	3829
2026-01-21 03:52:38.33	174.90	51.18	-39.6	-40.5	21.6	0.00e+00	0	44	0	3097493504	50	3803
2026-01-21 03:52:42.31	175.81	49.89	-39.6	-40.5	21.5	0.00e+00	0	44	0	3125805056	49	4012
2026-01-21 03:52:46.29	176.64	48.64	-39.7	-40.5	21.5	0.00e+00	0	44	0	3154116608	49	4047
2026-01-21 03:52:50.33	177.43	47.40	-39.2	-40.0	21.9	0.00e+00	0	44	0	3183476736	48	4051
2026-01-21 03:52:54.31	178.14	46.20	-39.1	-39.9	22.0	0.00e+00	0	44	0	3212836864	48	3994
2026-01-21 03:52:58.29	178.80	45.03	-38.6	-39.5	21.4	0.00e+00	0	44	0	3241148416	47	4016
2026-01-21 03:53:02.27	179.42	43.90	-38.3	-39.1	22.3	0.00e+00	0	44	0	3270508544	47	3855
2026-01-21 03:53:06.25	180.00	42.79	-38.4	-39.2	22.1	0.00e+00	0	44	0	3298820096	47	3892
2026-01-21 03:53:10.28	180.54	41.70	-38.1	-39.0	22.4	0.00e+00	0	44	0	3328180224	46	4012
2026-01-21 03:53:14.29	181.05	40.64	-38.3	-39.1	22.2	0.00e+00	0	44	0	3356491776	46	4096
2026-01-21 03:53:18.27	181.53	39.62	-38.9	-39.8	21.7	0.00e+00	0	44	0	3385851904	47	4156
2026-01-21 03:53:22.25	181.98	38.63	-38.5	-39.3	22.1	0.00e+00	0	44	0	3414163456	47	3957
2026-01-21 03:53:26.37	182.41	37.63	-38.0	-38.9	22.5	0.00e+00	0	44	0	3444572160	46	3959
2026-01-21 03:53:30.47	182.82	36.66	-38.0	-38.8	22.5	0.00e+00	0	44	0	3473932288	46	3938
2026-01-21 03:53:34.53	183.21	35.72	-38.2	-39.1	22.3	0.00e+00	0	44	0	3503292416	46	4052
2026-01-21 03:53:38.54	183.57	34.82	-38.0	-38.9	22.5	0.00e+00	0	44	0	3531603968	46	3964
2026-01-21 03:53:42.58	183.91	33.95	-37.9	-38.7	22.6	0.00e+00	0	44	0	3560964096	46	3911
2026-01-21 03:53:46.65	184.24	33.08	-37.9	-38.8	22.5	0.00e+00	0	44	0	3590324224	46	3921
2026-01-21 03:53:50.92	184.57	32.20	-38.0	-38.9	22.3	0.00e+00	0	44	0	3621781504	46	3964
2026-01-21 03:53:55.22	184.88	31.34	-38.3	-39.1	22.2	0.00e+00	0	44	0	3652190208	46	4090
2026-01-21 03:53:59.20	185.16	30.56	-38.3	-39.2	22.3	0.00e+00	0	44	0	3680501760	46	4102
2026-01-21 03:54:03.23	185.42	29.80	-38.4	-39.2	22.2	0.00e+00	0	44	0	3709861888	46	4130
2026-01-21 03:54:07.19	185.68	29.06	-38.5	-39.3	22.1	0.00e+00	0	44	0	3738173440	46	4183
2026-01-21 03:54:11.43	185.93	28.30	-38.4	-39.2	22.2	0.00e+00	0	44	0	3769630720	46	4135
2026-01-21 03:54:15.54	186.17	27.57	-38.4	-39.2	22.2	0.00e+00	0	44	0	3798990848	46	4125
2026-01-21 03:54:19.54	186.40	26.89	-38.4	-39.3	22.1	0.00e+00	0	44	0	3827302400	46	4158
2026-01-21 03:54:23.53	186.61	26.22	-38.6	-39.4	22.0	0.00e+00	0	44	0	3856662528	46	4233
2026-01-21 03:54:27.78	186.83	25.53	-38.8	-39.7	21.7	0.00e+00	0	44	0	3887071232	47	4128
2026-01-21 03:54:31.81	187.03	24.88	-38.8	-39.7	21.7	0.00e+00	0	44	0	3916431360	47	4129
2026-01-21 03:54:35.78	187.22	24.27	-38.8	-39.6	21.8	0.00e+00	0	44	0	3944742912	47	4097
2026-01-21 03:54:39.88	187.41	23.64	-38.6	-39.5	21.9	0.00e+00	0	44	0	3975151616	47	4018
2026-01-21 03:54:43.97	187.59	23.03	-38.6	-39.4	22.0	0.00e+00	0	44	0	4004511744	47	3980
2026-01-21 03:54:47.95	187.76	22.46	-38.5	-39.4	22.0	0.00e+00	0	44	0	4032823296	47	3974
2026-01-21 03:54:51.93	187.92	21.89	-38.6	-39.5	21.6	0.00e+00	0	44	0	4061134848	47	4026
2026-01-21 03:54:56.13	188.09	21.31	-38.7	-39.5	21.8	0.00e+00	0	44	0	4091543552	47	4034
2026-01-21 03:55:00.06	188.24	20.77	-38.8	-39.6	21.7	0.00e+00	0	44	0	4119855104	47	4095
2026-01-21 03:55:04.04	188.39	20.24	-39.0	-39.9	21.6	0.00e+00	0	44	0	4149215232	47	4198
2026-01-21 03:55:08.03	188.54	19.72	-39.2	-40.1	21.4	0.00e+00	0	44	0	4177526784	47	4294
2026-01-21 03:55:12.15	188.68	19.20	-39.2	-40.1	21.3	0.00e+00	0	44	0	4207935488	47	4333
2026-01-21 03:55:16.13	188.82	18.70	-39.6	-40.5	21.3	0.00e+00	0	44	0	4236247040	48	4262
2026-01-21 03:55:20.11	188.95	18.21	-39.5	-40.4	21.4	0.00e+00	0	44	0	4264558592	48	4230
2026-01-21 03:55:24.09	189.08	17.73	-39.7	-40.6	21.2	0.00e+00	0	44	0	4293918720	49	4077
2026-01-21 03:55:28.07	189.20	17.26	-40.0	-40.9	21.0	0.00e+00	0	44	0	4322230272	49	4210
2026-01-21 03:55:32.05	189.33	16.80	-40.1	-41.0	20.9	0.00e+00	0	44	0	4351590400	49	4257
2026-01-21 03:55:36.03	189.44	16.35	-40.1	-41.0	20.7	0.00e+00	0	44	0	4379901952	49	4285
2026-01-21 03:55:40.00	189.56	15.91	-40.2	-41.2	20.7	0.00e+00	0	44	0	4408213504	49	4345
2026-01-21 03:55:43.98	189.67	15.47	-40.4	-41.3	20.5	0.00e+00	0	44	0	4437573632	50	4160
2026-01-21 03:55:47.97	189.78	15.04	-40.4	-41.4	20.4	0.00e+00	0	44	0	4465885184	50	4195
2026-01-21 03:55:51.97	189.89	14.62	-40.6	-41.6	20.3	0.00e+00	0	44	0	4495245312	50	4298
2026-01-21 03:55:55.95	189.99	14.20	-40.7	-41.6	20.2	0.00e+00	0	44	0	4523556864	51	4082
2026-01-21 03:55:59.93	190.09	13.79	-40.7	-41.7	20.1	0.00e+00	0	44	0	4552916992	51	4122
2026-01-21 03:56:03.96	190.19	13.39	-40.8	-41.8	20.0	0.00e+00	0	44	0	4581228544	51	4175
2026-01-21 03:56:07.93	190.29	12.99	-40.9	-41.9	19.9	0.00e+00	0	44	0	4610588672	51	4223
2026-01-21 03:56:11.90	190.38	12.61	-41.1	-42.1	19.7	0.00e+00	0	44	0	4638900224	51	4310
2026-01-21 03:56:15.88	190.47	12.23	-41.2	-42.2	19.5	0.00e+00	0	44	0	4667211776	52	4139
2026-01-21 03:56:19.86	190.56	11.85	-41.3	-42.4	19.3	0.00e+00	0	44	0	4696571904	52	4214
2026-01-21 03:56:23.84	190.65	11.48	-41.3	-42.4	19.3	0.00e+00	0	44	0	4724883456	52	4212
2026-01-21 03:56:27.82	190.74	11.11	-41.5	-42.6	19.1	0.00e+00	0	44	0	4754243584	52	4325
2026-01-21 03:56:31.85	190.82	10.75	-41.5	-42.7	19.1	0.00e+00	0	44	0	4782555136	52	4346
2026-01-21 03:56:36.09	190.91	10.37	-41.6	-42.7	19.0	0.00e+00	0	44	0	4812963840	52	4370
2026-01-21 03:56:40.28	190.99	10.01	-41.7	-42.8	18.9	0.00e+00	0	44	0	4843372544	53	4166
2026-01-21 03:56:44.27	191.07	9.66	-41.8	-43.0	18.7	0.00e+00	0	44	0	4872732672	53	4265
2026-01-21 03:56:48.25	191.15	9.32	-41.9	-43.0	18.7	0.00e+00	0	44	0	4901044224	53	4267
2026-01-21 03:56:52.28	191.23	8.98	-41.9	-43.1	18.6	0.00e+00	0	44	0	4930404352	53	4300
2026-01-21 03:56:56.27	191.30	8.65	-52.8	-63.7	3.8	8.46e-01	0	44	104	4934598656	75	12962
2026-01-21 03:57:00.24	191.38	8.33	-53.2	-63.9	3.8	8.47e-01	0	44	104	4934598656	75	13363
2026-01-21 03:57:04.22	191.45	8.01	-53.4	-64.0	3.8	8.47e-01	0	44	104	4934598656	76	12788
2026-01-21 03:57:08.19	191.52	7.69	-53.3	-63.9	3.8	8.48e-01	0	44	104	4934598656	76	12659
2026-01-21 03:57:12.19	191.59	7.37	-53.4	-64.0	3.8	8.46e-01	0	44	104	4934598656	76	12753
2026-01-21 03:57:16.26	191.66	7.06	-53.2	-64.0	3.8	8.48e-01	0	45	104	4934598656	76	12763
2026-01-21 03:57:20.58	191.73	6.72	-53.1	-63.9	3.8	8.46e-01	0	44	104	4934598656	76	12633
2026-01-21 03:57:24.56	191.79	6.42	-53.1	-64.0	3.8	8.47e-01	0	44	104	4934598656	76	12761
2026-01-21 03:57:28.53	191.86	6.12	-53.1	-63.9	3.8	8.47e-01	0	44	104	4934598656	76	12583
2026-01-21 03:57:32.52	191.92	5.83	-53.1	-63.9	3.8	8.47e-01	0	45	104	4934598656	76	12646
2026-01-21 03:57:36.51	191.98	5.53	-53.1	-63.9	3.8	8.47e-01	0	44	104	4934598656	76	12562
2026-01-21 03:57:40.49	192.04	5.25	-53.1	-63.9	3.8	8.47e-01	0	44	104	4934598656	76	12619
2026-01-21 03:57:44.47	192.10	4.96	-53.1	-63.9	3.8	8.46e-01	0	45	104	4934598656	76	12589

#Closed at: 2026-01-21 03:57:45
#Recorded file [4934 MB]: D:/Data/31040_260121_064448.dat