passes_logs/2026/01/21/T1/T1__20260121_115133_FENGYUN_3D_rec.log

#Pass ID: 20260121_115133_FENGYUN 3D
#Satellite: FENGYUN 3D
#Configuration: FENGYUN 3D
#almurnet v.1.7.20251203
#Start time: 2026-01-21 11:51:32

#Version: 2.0.20230620
#Station: T1
#Location: 37.570604 lon 55.790049 lat
#TLE: 1 43010U 17072A   26020.92362722 -.00000077  00000+0 -14488-4 0  9992
#TLE: 2 43010  98.9946 352.8312 0002486  99.3651 260.7806 14.19696535424099

#Time	Az	El	Level	Level2	SNR	BER	BlckErr	Temp	State	Recorded	gain1	gain2
2026-01-21 11:51:32.87	156.18	4.99	-51.8	-63.8	3.8	8.47e-01	0	36	0	0	75	14178
2026-01-21 11:51:36.84	156.16	5.28	-51.8	-63.6	3.8	8.47e-01	0	36	104	0	75	13827
2026-01-21 11:51:40.81	156.14	5.57	-51.8	-64.0	3.8	8.47e-01	0	36	104	0	75	14537
2026-01-21 11:51:44.78	156.12	5.86	-51.7	-63.1	3.8	8.48e-01	0	37	104	0	75	12978
2026-01-21 11:51:48.76	156.10	6.16	-51.5	-61.7	3.8	8.45e-01	0	36	104	0	75	11056
2026-01-21 11:51:52.73	156.08	6.46	-51.6	-62.2	3.8	8.45e-01	0	37	104	0	75	11804
2026-01-21 11:51:56.71	156.06	6.76	-51.8	-63.9	3.8	8.47e-01	0	37	104	0	75	14248
2026-01-21 11:52:00.68	156.04	7.07	-51.8	-63.8	3.8	8.47e-01	0	37	104	0	75	14118
2026-01-21 11:52:04.65	156.01	7.38	-51.4	-61.0	3.9	8.44e-01	0	37	104	0	74	10787
2026-01-21 11:52:08.63	155.99	7.69	-49.5	-54.3	8.4	7.28e-02	0	37	0	10485760	71	5938
2026-01-21 11:52:12.60	155.96	8.01	-46.6	-49.7	13.0	8.69e-05	0	38	0	32505856	65	4931
2026-01-21 11:52:16.57	155.94	8.33	-45.5	-48.1	14.6	1.10e-06	0	38	0	55574528	63	4627
2026-01-21 11:52:20.55	155.91	8.66	-46.3	-49.1	13.6	5.70e-06	0	38	0	77594624	63	5218
2026-01-21 11:52:24.52	155.88	8.99	-48.9	-53.1	9.6	1.06e-02	0	38	0	100663296	68	6202
2026-01-21 11:52:28.50	155.85	9.33	-50.8	-58.0	4.3	8.44e-01	0	38	104	117440512	73	8111
2026-01-21 11:52:32.48	155.82	9.67	-42.9	-45.1	17.5	0.00e+00	0	38	0	138412032	57	4600
2026-01-21 11:52:36.56	155.79	10.02	-42.1	-44.1	18.5	0.00e+00	0	38	0	160432128	56	4364
2026-01-21 11:52:40.54	155.76	10.37	-41.7	-43.6	18.7	0.00e+00	0	38	0	183500800	55	4390
2026-01-21 11:52:44.52	155.73	10.73	-41.4	-43.3	19.0	0.00e+00	0	38	0	205520896	54	4487
2026-01-21 11:52:48.50	155.70	11.09	-41.6	-43.5	18.9	0.00e+00	0	38	0	227540992	54	4594
2026-01-21 11:52:52.63	155.66	11.47	-41.4	-43.3	19.1	0.00e+00	0	38	0	251658240	54	4482
2026-01-21 11:52:56.67	155.62	11.85	-41.3	-43.2	19.1	0.00e+00	0	38	0	273678336	54	4433
2026-01-21 11:53:00.68	155.59	12.23	-41.1	-43.1	19.3	6.04e-04	0	38	0	296747008	54	4347
2026-01-21 11:53:04.67	155.55	12.61	-41.1	-43.1	19.3	0.00e+00	0	38	0	318767104	54	4341
2026-01-21 11:53:08.68	155.51	13.01	-41.1	-43.1	19.3	0.00e+00	0	38	0	341835776	54	4341
2026-01-21 11:53:12.68	155.47	13.40	-41.0	-42.9	19.4	0.00e+00	0	38	0	363855872	53	4534
2026-01-21 11:53:16.68	155.42	13.81	-41.0	-42.9	19.5	0.00e+00	0	38	0	386924544	53	4533
2026-01-21 11:53:20.98	155.38	14.25	-40.8	-42.7	19.6	0.00e+00	0	38	0	411041792	53	4430
2026-01-21 11:53:24.96	155.33	14.67	-40.7	-42.6	19.8	0.00e+00	0	38	0	433061888	53	4357
2026-01-21 11:53:28.96	155.28	15.10	-40.5	-42.4	19.9	0.00e+00	0	38	0	455081984	52	4523
2026-01-21 11:53:32.94	155.24	15.53	-40.3	-42.2	20.1	0.00e+00	0	38	0	478150656	52	4403
2026-01-21 11:53:37.09	155.18	15.99	-40.1	-42.0	20.4	0.00e+00	0	38	0	501219328	52	4299
2026-01-21 11:53:41.07	155.13	16.44	-40.0	-41.9	20.5	0.00e+00	0	38	0	524288000	51	4495
2026-01-21 11:53:45.15	155.07	16.90	-39.8	-41.6	20.7	0.00e+00	0	38	0	546308096	51	4364
2026-01-21 11:53:49.21	155.02	17.38	-39.7	-41.5	20.8	0.00e+00	0	39	0	569376768	51	4326
2026-01-21 11:53:53.19	154.96	17.85	-39.6	-41.4	20.9	0.00e+00	0	39	0	591396864	51	4275
2026-01-21 11:53:57.45	154.89	18.37	-39.6	-41.4	20.8	0.00e+00	0	38	0	615514112	51	4289
2026-01-21 11:54:01.45	154.83	18.87	-39.6	-41.4	20.8	0.00e+00	0	38	0	638582784	51	4290
2026-01-21 11:54:05.45	154.76	19.38	-39.6	-41.5	20.8	0.00e+00	0	38	0	660602880	51	4292
2026-01-21 11:54:09.53	154.69	19.91	-39.5	-41.3	20.9	0.00e+00	0	39	0	683671552	51	4236
2026-01-21 11:54:13.76	154.62	20.47	-39.4	-41.2	21.0	0.00e+00	0	38	0	707788800	50	4439
2026-01-21 11:54:17.80	154.54	21.01	-39.1	-40.8	21.3	0.00e+00	0	38	0	729808896	50	4242
2026-01-21 11:54:21.79	154.46	21.56	-39.0	-40.8	21.4	0.00e+00	0	39	0	752877568	50	4229
2026-01-21 11:54:25.78	154.38	22.13	-39.0	-40.8	21.4	0.00e+00	0	38	0	774897664	49	4467
2026-01-21 11:54:29.85	154.30	22.72	-38.7	-40.5	21.6	0.00e+00	0	38	0	797966336	49	4319
2026-01-21 11:54:33.96	154.20	23.32	-38.7	-40.4	21.7	0.00e+00	0	38	0	821035008	49	4286
2026-01-21 11:54:37.96	154.11	23.93	-38.6	-40.3	21.8	0.00e+00	0	39	0	844103680	49	4223
2026-01-21 11:54:41.97	154.02	24.55	-38.6	-40.3	21.8	0.00e+00	0	38	0	866123776	49	4238
2026-01-21 11:54:45.97	153.91	25.19	-38.6	-40.3	21.8	0.00e+00	0	39	0	888143872	49	4227
2026-01-21 11:54:50.11	153.81	25.86	-38.3	-40.0	22.1	0.00e+00	0	39	0	912261120	48	4323
2026-01-21 11:54:54.09	153.69	26.53	-38.2	-40.0	22.1	0.00e+00	0	38	0	934281216	48	4293
2026-01-21 11:54:58.17	153.58	27.22	-38.4	-40.1	21.9	0.00e+00	0	39	0	957349888	48	4389
2026-01-21 11:55:02.26	153.45	27.94	-38.6	-40.4	21.7	0.00e+00	0	38	0	980418560	48	4525
2026-01-21 11:55:06.24	153.32	28.66	-38.5	-40.4	21.8	0.00e+00	0	38	0	1002438656	48	4496
2026-01-21 11:55:10.30	153.19	29.41	-37.8	-39.6	22.1	0.00e+00	0	39	0	1025507328	47	4355
2026-01-21 11:55:14.29	153.05	30.17	-37.8	-39.6	22.1	0.00e+00	0	38	0	1048576000	47	4353
2026-01-21 11:55:18.29	152.90	30.94	-37.9	-39.7	22.0	0.00e+00	0	38	0	1070596096	47	4410
2026-01-21 11:55:22.56	152.73	31.80	-37.8	-39.6	22.0	0.00e+00	0	39	0	1094713344	47	4366
2026-01-21 11:55:26.54	152.56	32.62	-37.8	-39.6	22.1	0.00e+00	0	38	0	1116733440	47	4353
2026-01-21 11:55:30.52	152.39	33.46	-37.8	-39.5	22.2	0.00e+00	0	39	0	1139802112	47	4329
2026-01-21 11:55:34.50	152.20	34.33	-37.5	-39.2	22.5	0.00e+00	0	39	0	1161822208	46	4405
2026-01-21 11:55:38.48	152.01	35.22	-37.2	-38.9	22.8	0.00e+00	0	39	0	1183842304	46	4248
2026-01-21 11:55:42.46	151.80	36.14	-37.4	-39.1	22.6	0.00e+00	0	39	0	1206910976	46	4387
2026-01-21 11:55:46.40	151.58	37.07	-37.9	-39.7	22.1	0.00e+00	0	39	0	1228931072	46	4663
2026-01-21 11:55:50.38	151.35	38.04	-38.0	-39.7	22.0	0.00e+00	0	39	0	1250951168	46	4686
2026-01-21 11:55:54.36	151.10	39.04	-37.8	-39.5	22.1	0.00e+00	0	38	0	1272971264	46	4597
2026-01-21 11:55:58.34	150.83	40.06	-38.4	-40.2	21.6	0.00e+00	0	39	0	1296039936	47	4657
2026-01-21 11:56:02.32	150.55	41.12	-38.2	-39.9	21.9	0.00e+00	0	39	0	1318060032	47	4536
2026-01-21 11:56:06.30	150.25	42.21	-38.4	-40.3	21.7	0.00e+00	0	39	0	1340080128	47	4706
2026-01-21 11:56:10.28	149.92	43.33	-37.7	-39.4	22.4	0.00e+00	0	39	0	1363148800	47	4281
2026-01-21 11:56:14.26	149.57	44.48	-38.1	-39.8	22.0	0.00e+00	0	39	0	1385168896	47	4486
2026-01-21 11:56:18.33	149.18	45.69	-38.2	-40.0	22.0	0.00e+00	0	39	0	1408237568	47	4552
2026-01-21 11:56:22.33	148.76	46.91	-37.8	-39.5	22.3	0.00e+00	0	38	0	1431306240	47	4331
2026-01-21 11:56:26.31	148.32	48.17	-38.0	-39.7	22.2	0.00e+00	0	39	0	1453326336	47	4422
2026-01-21 11:56:30.45	147.81	49.51	-38.4	-40.2	21.8	0.00e+00	0	39	0	1476395008	47	4691
2026-01-21 11:56:34.43	147.28	50.84	-38.6	-40.4	21.7	0.00e+00	0	39	0	1498415104	47	4761
2026-01-21 11:56:38.47	146.69	52.22	-39.5	-41.3	21.2	0.00e+00	0	39	0	1521483776	50	4463
2026-01-21 11:56:42.45	146.05	53.62	-39.5	-41.2	21.3	0.00e+00	0	39	0	1543503872	50	4436
2026-01-21 11:56:46.43	145.34	55.05	-39.4	-41.1	21.3	0.00e+00	0	39	0	1566572544	50	4385
2026-01-21 11:56:50.41	144.55	56.52	-38.7	-40.4	21.9	0.00e+00	0	39	0	1588592640	49	4262
2026-01-21 11:56:54.38	143.67	58.02	-38.8	-40.6	21.8	0.00e+00	0	39	0	1611661312	48	4615
2026-01-21 11:56:58.44	142.67	59.59	-38.3	-40.0	22.3	0.00e+00	0	39	0	1633681408	48	4324
2026-01-21 11:57:02.55	141.52	61.20	-38.2	-39.9	22.4	0.00e+00	0	39	0	1656750080	48	4258
2026-01-21 11:57:06.58	140.23	62.82	-37.6	-39.3	22.6	0.00e+00	0	39	0	1679818752	46	4463
2026-01-21 11:57:10.69	138.73	64.48	-37.9	-39.6	22.2	0.00e+00	0	39	0	1702887424	46	4631
2026-01-21 11:57:14.70	137.02	66.13	-37.2	-38.9	22.9	0.00e+00	0	39	0	1724907520	46	4268
2026-01-21 11:57:18.97	134.90	67.90	-36.8	-38.5	23.1	0.00e+00	0	39	0	1749024768	45	4301
2026-01-21 11:57:22.95	132.56	69.54	-36.8	-38.5	23.1	0.00e+00	0	39	0	1772093440	45	4296
2026-01-21 11:57:26.99	129.72	71.21	-36.7	-38.4	23.2	0.00e+00	0	39	0	1794113536	45	4246
2026-01-21 11:57:31.09	126.25	72.87	-36.9	-38.6	23.0	0.00e+00	0	39	0	1817182208	45	4356
2026-01-21 11:57:35.08	122.13	74.43	-37.0	-38.7	22.9	0.00e+00	0	39	0	1840250880	45	4417
2026-01-21 11:57:39.13	116.97	75.94	-36.1	-37.8	23.5	0.00e+00	0	39	0	1863319552	44	4209
2026-01-21 11:57:43.26	110.45	77.36	-35.5	-37.1	23.8	0.00e+00	0	39	0	1886388224	42	4390
2026-01-21 11:57:47.30	102.56	78.56	-34.9	-36.5	24.3	0.00e+00	0	39	0	1908408320	41	4331
2026-01-21 11:57:51.27	93.16	79.50	-34.5	-36.2	24.5	0.00e+00	0	39	0	1931476992	41	4163
2026-01-21 11:57:55.25	82.23	80.11	-34.9	-36.5	24.3	0.00e+00	0	39	0	1953497088	41	4328
2026-01-21 11:57:59.23	70.32	80.33	-34.7	-36.4	24.3	0.00e+00	0	39	0	1975517184	41	4258
2026-01-21 11:58:03.27	58.21	80.12	-35.3	-36.9	24.0	0.00e+00	0	39	0	1998585856	41	4526
2026-01-21 11:58:07.36	46.95	79.50	-35.1	-36.8	24.1	0.00e+00	0	39	0	2021654528	41	4447
2026-01-21 11:58:11.34	37.53	78.57	-35.0	-36.7	24.2	0.00e+00	0	39	0	2043674624	41	4407
2026-01-21 11:58:15.32	29.74	77.39	-35.3	-36.9	24.0	0.00e+00	0	39	0	2066743296	41	4543
2026-01-21 11:58:19.30	23.41	76.03	-35.9	-37.6	23.6	0.00e+00	0	39	0	2088763392	42	4615
2026-01-21 11:58:23.28	18.28	74.55	-36.2	-37.9	23.4	0.00e+00	0	39	0	2110783488	42	4760
2026-01-21 11:58:27.33	14.04	72.97	-36.3	-38.0	23.3	0.00e+00	0	39	0	2133852160	43	4573
2026-01-21 11:58:31.33	10.61	71.35	-36.6	-38.3	23.1	0.00e+00	0	39	0	2156920832	43	4732
2026-01-21 11:58:35.32	7.77	69.72	-37.2	-38.9	22.7	0.00e+00	0	39	0	2178940928	45	4529
2026-01-21 11:58:39.52	5.27	67.98	-37.1	-38.8	22.9	0.00e+00	0	39	0	2203058176	45	4479
2026-01-21 11:58:43.50	3.27	66.34	-37.0	-38.7	23.0	0.00e+00	0	39	0	2225078272	45	4411
2026-01-21 11:58:47.48	1.55	64.71	-37.3	-39.0	22.7	0.00e+00	0	39	0	2247098368	45	4565
2026-01-21 11:58:51.40	0.08	63.12	-37.3	-39.0	22.8	0.00e+00	0	39	0	2269118464	45	4566
2026-01-21 11:58:55.37	358.79	61.53	-37.4	-39.1	22.8	0.00e+00	0	39	0	2292187136	45	4614
2026-01-21 11:58:59.35	357.65	59.96	-37.7	-39.4	22.6	0.00e+00	0	39	0	2314207232	45	4783
2026-01-21 11:59:03.35	356.63	58.42	-38.6	-40.3	21.7	0.00e+00	0	39	0	2336227328	47	4751
2026-01-21 11:59:07.33	355.73	56.91	-38.9	-40.7	21.7	0.00e+00	0	39	0	2359296000	48	4675
2026-01-21 11:59:11.30	354.93	55.44	-38.9	-40.6	21.8	0.00e+00	0	38	0	2381316096	48	4624
2026-01-21 11:59:15.35	354.19	53.98	-39.1	-40.8	21.6	0.00e+00	0	39	0	2404384768	49	4488
2026-01-21 11:59:19.33	353.54	52.58	-39.0	-40.7	21.7	0.00e+00	0	39	0	2426404864	49	4441
2026-01-21 11:59:23.31	352.94	51.21	-38.5	-40.1	22.5	0.00e+00	0	39	0	2448424960	49	4136
2026-01-21 11:59:27.28	352.40	49.88	-38.1	-39.8	22.8	0.00e+00	0	39	0	2471493632	48	4222
2026-01-21 11:59:31.31	351.90	48.57	-38.3	-40.0	22.7	0.00e+00	0	39	0	2493513728	48	4310
2026-01-21 11:59:35.28	351.45	47.32	-38.0	-39.7	22.9	0.00e+00	0	39	0	2516582400	48	4157
2026-01-21 11:59:39.35	351.02	46.06	-37.8	-39.5	22.8	0.00e+00	0	39	0	2538602496	47	4306
2026-01-21 11:59:43.55	350.61	44.81	-38.2	-39.8	22.5	0.00e+00	0	39	0	2562719744	47	4485
2026-01-21 11:59:47.56	350.25	43.65	-38.1	-39.7	22.6	0.00e+00	0	39	0	2584739840	47	4437
2026-01-21 11:59:51.56	349.92	42.52	-38.0	-39.6	22.7	0.00e+00	0	39	0	2607808512	47	4379
2026-01-21 11:59:55.68	349.60	41.39	-37.8	-39.5	22.8	0.00e+00	0	39	0	2630877184	47	4298
2026-01-21 11:59:59.80	349.31	40.30	-37.7	-39.3	22.9	0.00e+00	0	39	0	2653945856	47	4220
2026-01-21 12:00:03.90	349.03	39.24	-37.4	-39.0	23.2	0.00e+00	0	39	0	2677014528	46	4308
2026-01-21 12:00:07.88	348.78	38.24	-37.2	-38.9	23.3	0.00e+00	0	39	0	2700083200	46	4267
2026-01-21 12:00:11.86	348.55	37.27	-37.1	-38.7	23.4	0.00e+00	0	39	0	2722103296	46	4178
2026-01-21 12:00:15.93	348.32	36.31	-37.5	-39.1	23.0	0.00e+00	0	39	0	2745171968	46	4387
2026-01-21 12:00:19.91	348.12	35.39	-38.0	-39.7	22.6	0.00e+00	0	39	0	2767192064	46	4656
2026-01-21 12:00:23.89	347.92	34.50	-37.8	-39.4	22.8	0.00e+00	0	39	0	2789212160	46	4545
2026-01-21 12:00:27.90	347.74	33.63	-37.8	-39.5	22.8	0.00e+00	0	39	0	2812280832	46	4547
2026-01-21 12:00:31.88	347.56	32.79	-38.1	-39.8	22.6	0.00e+00	0	39	0	2834300928	46	4710
2026-01-21 12:00:35.86	347.40	31.97	-38.1	-39.7	22.5	0.00e+00	0	39	0	2856321024	47	4440
2026-01-21 12:00:39.84	347.25	31.18	-37.9	-39.5	22.7	0.00e+00	0	39	0	2879389696	47	4336
2026-01-21 12:00:43.85	347.10	30.39	-37.8	-39.4	22.8	0.00e+00	0	39	0	2901409792	47	4290
2026-01-21 12:00:47.83	346.96	29.64	-38.1	-39.7	22.5	0.00e+00	0	39	0	2924478464	47	4440
2026-01-21 12:00:51.81	346.82	28.90	-38.3	-40.1	22.3	0.00e+00	0	39	0	2946498560	47	4616
2026-01-21 12:00:55.79	346.70	28.18	-38.0	-39.7	22.6	0.00e+00	0	39	0	2968518656	47	4416
2026-01-21 12:00:59.77	346.58	27.48	-37.8	-39.5	22.7	0.00e+00	0	39	0	2991587328	47	4307
2026-01-21 12:01:03.82	346.46	26.79	-37.8	-39.4	22.8	0.00e+00	0	39	0	3014656000	47	4288
2026-01-21 12:01:07.81	346.35	26.12	-38.0	-39.7	22.5	0.00e+00	0	39	0	3036676096	47	4428
2026-01-21 12:01:11.99	346.24	25.44	-38.2	-40.0	22.3	0.00e+00	0	39	0	3059744768	47	4546
2026-01-21 12:01:16.22	346.14	24.77	-38.3	-40.0	22.3	0.00e+00	0	39	0	3083862016	47	4583
2026-01-21 12:01:20.20	346.04	24.15	-38.3	-40.0	22.2	0.00e+00	0	39	0	3105882112	47	4587
2026-01-21 12:01:24.18	345.95	23.55	-38.4	-40.1	22.1	0.00e+00	0	39	0	3128950784	47	4627
2026-01-21 12:01:28.19	345.87	22.96	-38.5	-40.3	22.0	0.00e+00	0	39	0	3150970880	47	4710
2026-01-21 12:01:32.30	345.78	22.36	-38.8	-40.5	22.1	0.00e+00	0	39	0	3174039552	48	4592
2026-01-21 12:01:36.37	345.70	21.79	-39.0	-40.7	21.9	0.00e+00	0	39	0	3197108224	48	4702
2026-01-21 12:01:40.70	345.62	21.19	-39.2	-40.9	21.7	0.00e+00	0	39	0	3221225472	49	4534
2026-01-21 12:01:44.70	345.55	20.65	-39.4	-41.1	21.6	0.00e+00	0	39	0	3244294144	49	4620
2026-01-21 12:01:48.68	345.48	20.12	-39.5	-41.3	21.4	0.00e+00	0	39	0	3266314240	49	4713
2026-01-21 12:01:52.69	345.41	19.60	-39.7	-41.4	21.3	0.00e+00	0	39	0	3289382912	50	4515
2026-01-21 12:01:56.78	345.35	19.08	-39.8	-41.6	21.2	0.00e+00	0	39	0	3312451584	50	4601
2026-01-21 12:02:00.83	345.29	18.58	-39.9	-41.7	21.1	0.00e+00	0	39	0	3334471680	50	4673
2026-01-21 12:02:04.82	345.23	18.09	-40.0	-41.8	21.0	0.00e+00	0	39	0	3357540352	50	4742
2026-01-21 12:02:08.80	345.17	17.62	-40.3	-42.0	20.7	0.00e+00	0	39	0	3379560448	51	4594
2026-01-21 12:02:13.10	345.11	17.12	-40.2	-42.1	20.7	0.00e+00	0	39	0	3403677696	51	4608
2026-01-21 12:02:17.09	345.06	16.66	-40.3	-42.3	20.5	0.00e+00	0	39	0	3426746368	51	4713
2026-01-21 12:02:21.07	345.01	16.21	-40.3	-42.2	20.5	0.00e+00	0	39	0	3448766464	51	4686
2026-01-21 12:02:25.17	344.96	15.76	-40.4	-42.2	20.5	0.00e+00	0	39	0	3471835136	51	4699
2026-01-21 12:02:29.15	344.92	15.32	-40.4	-42.3	20.5	0.00e+00	0	39	0	3493855232	51	4708
2026-01-21 12:02:33.13	344.87	14.90	-40.5	-42.4	20.4	0.00e+00	0	39	0	3516923904	51	4764
2026-01-21 12:02:37.17	344.83	14.47	-40.5	-42.4	20.3	0.00e+00	0	39	0	3538944000	51	4797
2026-01-21 12:02:41.36	344.79	14.04	-40.6	-42.5	20.2	0.00e+00	0	39	0	3563061248	51	4839
2026-01-21 12:02:45.37	344.75	13.64	-40.6	-42.5	20.2	0.00e+00	0	39	0	3585081344	52	4550
2026-01-21 12:02:49.36	344.71	13.24	-40.7	-42.5	20.1	0.00e+00	0	39	0	3608150016	52	4598
2026-01-21 12:02:53.34	344.67	12.85	-40.9	-42.8	19.8	0.00e+00	0	39	0	3630170112	52	4759
2026-01-21 12:02:57.32	344.64	12.46	-40.9	-42.9	19.8	0.00e+00	0	39	0	3652190208	52	4775
2026-01-21 12:03:01.30	344.61	12.09	-40.8	-42.8	19.9	0.00e+00	0	39	0	3675258880	52	4716
2026-01-21 12:03:05.27	344.57	11.72	-41.0	-43.0	19.6	0.00e+00	0	39	0	3697278976	52	4832
2026-01-21 12:03:09.30	344.54	11.34	-41.1	-43.0	19.6	0.00e+00	0	39	0	3720347648	52	4857
2026-01-21 12:03:13.28	344.51	10.98	-41.1	-43.1	19.5	0.00e+00	0	39	0	3742367744	52	4893
2026-01-21 12:03:17.26	344.48	10.63	-41.2	-43.4	19.2	0.00e+00	0	39	0	3764387840	53	4780
2026-01-21 12:03:21.55	344.45	10.25	-41.2	-43.5	19.0	0.00e+00	0	39	0	3788505088	53	4849
2026-01-21 12:03:25.53	344.43	9.90	-41.2	-43.5	19.1	0.00e+00	0	39	0	3811573760	53	4822
2026-01-21 12:03:29.51	344.40	9.56	-41.4	-43.7	18.9	0.00e+00	0	39	0	3833593856	53	4935
2026-01-21 12:03:33.49	344.38	9.23	-41.4	-43.7	18.8	0.00e+00	0	39	0	3855613952	53	4950
2026-01-21 12:03:37.47	344.35	8.89	-50.4	-63.7	3.8	6.63e-01	0	39	104	3875536896	71	17591
2026-01-21 12:03:41.44	344.33	8.57	-52.1	-64.7	3.8	8.47e-01	0	39	104	3875536896	74	16569
2026-01-21 12:03:45.43	344.31	8.24	-52.2	-64.8	3.8	8.47e-01	0	39	104	3875536896	75	15869
2026-01-21 12:03:49.53	344.29	7.92	-52.7	-64.9	3.8	8.47e-01	0	39	104	3875536896	76	15140
2026-01-21 12:03:53.63	344.27	7.59	-52.7	-64.9	3.8	8.47e-01	0	39	104	3875536896	76	15151
2026-01-21 12:03:57.67	344.25	7.28	-52.7	-64.9	3.8	8.47e-01	0	39	104	3875536896	76	15208
2026-01-21 12:04:01.65	344.23	6.97	-52.7	-64.9	3.8	8.47e-01	0	39	104	3875536896	76	15141
2026-01-21 12:04:05.62	344.21	6.67	-52.5	-64.9	3.8	8.47e-01	0	39	104	3875536896	76	15098
2026-01-21 12:04:09.59	344.19	6.37	-52.5	-64.9	3.8	8.47e-01	0	39	104	3875536896	76	15101
2026-01-21 12:04:13.57	344.18	6.07	-52.5	-64.9	3.8	8.46e-01	0	39	104	3875536896	76	15077
2026-01-21 12:04:17.54	344.16	5.78	-52.5	-64.8	3.8	8.46e-01	0	39	104	3875536896	76	15030
2026-01-21 12:04:21.52	344.15	5.49	-52.5	-64.9	3.8	8.47e-01	0	39	104	3875536896	76	15070
2026-01-21 12:04:25.49	344.13	5.20	-52.5	-64.9	3.8	8.48e-01	0	39	104	3875536896	76	15064

#Closed at: 2026-01-21 12:04:29
#Recorded file [3875 MB]: D:/Data/31040_260121_145132.dat