passes_logs/2026/01/21/T1/T1__20260121_003325_NOAA_21_JPSS-2_rec.log

#Pass ID: 20260121_003325_NOAA 21 (JPSS-2)
#Satellite: NOAA 21 (JPSS-2)
#Configuration: NOAA 21
#almurnet v.1.7.20251203
#Start time: 2026-01-21 00:33:25

#Version: 2.0.20230620
#Station: T1
#Location: 37.570604 lon 55.790049 lat
#TLE: 1 54234U 22150A   26020.29910383  .00000141  00000+0  87571-4 0  9990
#TLE: 2 54234  98.7506 321.1348 0000615 250.8428 109.2682 14.19536295165564

#Time	Az	El	Level	Level2	SNR	BER	BlckErr	Temp	State	Recorded	gain1	gain2
2026-01-21 00:33:25.02	11.05	4.98	-51.2	-65.1	3.8	1.49e+00	0	41	0	0	73	18412
2026-01-21 00:33:27.99	10.93	5.18	-49.1	-65.1	3.8	1.49e+00	0	40	104	0	68	24457
2026-01-21 00:33:30.97	10.80	5.39	-49.2	-65.1	3.8	1.49e+00	0	40	104	0	69	23087
2026-01-21 00:33:33.95	10.67	5.60	-49.2	-65.1	3.8	1.49e+00	0	40	104	0	69	23094
2026-01-21 00:33:36.93	10.54	5.80	-49.2	-65.0	3.8	1.49e+00	0	40	104	0	69	23018
2026-01-21 00:33:39.91	10.41	6.01	-49.2	-65.1	3.8	1.49e+00	0	41	104	0	69	23049
2026-01-21 00:33:42.89	10.27	6.23	-49.2	-65.0	3.8	1.49e+00	0	40	104	0	69	22984
2026-01-21 00:33:45.87	10.14	6.44	-49.1	-64.8	3.8	1.49e+00	0	40	104	0	69	22390
2026-01-21 00:33:48.85	10.00	6.65	-49.1	-64.1	3.8	1.49e+00	0	41	104	0	69	20710
2026-01-21 00:33:51.83	9.86	6.87	-49.1	-62.9	3.9	1.49e+00	0	40	104	0	69	18070
2026-01-21 00:33:54.81	9.72	7.09	-49.1	-62.2	4.0	1.49e+00	0	41	104	0	69	16527
2026-01-21 00:33:57.78	9.57	7.31	-49.1	-63.3	3.8	1.49e+00	0	41	104	0	69	18740
2026-01-21 00:34:00.76	9.42	7.53	-49.1	-64.3	3.8	1.49e+00	0	41	104	0	69	21256
2026-01-21 00:34:03.74	9.27	7.75	-49.2	-65.0	3.8	1.49e+00	0	41	104	0	69	22880
2026-01-21 00:34:06.72	9.12	7.98	-49.0	-62.2	4.0	1.49e+00	0	41	104	0	69	16611
2026-01-21 00:34:09.70	8.96	8.20	-48.2	-55.8	7.9	1.19e-01	0	41	0	0	68	8410
2026-01-21 00:34:12.68	8.81	8.43	-46.6	-51.3	12.3	2.23e-04	0	41	0	0	65	5963
2026-01-21 00:34:15.66	8.64	8.66	-45.6	-49.3	14.4	1.50e-06	0	41	0	0	63	5337
2026-01-21 00:34:18.64	8.48	8.89	-45.7	-49.5	14.3	7.00e-07	0	41	0	0	62	5727
2026-01-21 00:34:21.62	8.31	9.13	-45.9	-49.5	14.2	4.95e-05	0	41	0	0	63	5450
2026-01-21 00:34:24.60	8.15	9.37	-45.0	-47.9	15.6	4.32e-03	0	41	0	0	62	4813
2026-01-21 00:34:27.59	7.97	9.60	-43.4	-45.6	17.9	0.00e+00	0	41	0	0	58	4617
2026-01-21 00:34:30.57	7.80	9.84	-43.3	-45.5	18.0	0.00e+00	0	41	0	0	58	4557
2026-01-21 00:34:33.56	7.62	10.09	-43.3	-45.5	17.9	0.00e+00	0	41	0	0	58	4580
2026-01-21 00:34:36.54	7.44	10.33	-43.2	-45.3	18.2	0.00e+00	0	41	0	0	58	4446
2026-01-21 00:34:39.53	7.25	10.58	-43.1	-45.3	18.2	0.00e+00	0	41	0	0	58	4450
2026-01-21 00:34:42.51	7.06	10.83	-43.2	-45.3	18.2	0.00e+00	0	41	0	0	58	4457
2026-01-21 00:34:45.50	6.87	11.08	-43.3	-45.3	18.2	0.00e+00	0	41	0	0	58	4492
2026-01-21 00:34:48.48	6.67	11.33	-43.1	-45.1	18.3	0.00e+00	0	41	0	0	58	4388
2026-01-21 00:34:51.46	6.48	11.59	-43.2	-45.1	18.3	0.00e+00	0	41	0	0	58	4389
2026-01-21 00:34:54.44	6.27	11.85	-43.2	-45.2	18.3	0.00e+00	0	41	0	0	58	4422
2026-01-21 00:34:57.43	6.07	12.11	-43.2	-45.2	18.3	0.00e+00	0	41	0	0	58	4410
2026-01-21 00:35:00.42	5.85	12.37	-43.1	-45.1	18.4	0.00e+00	0	41	0	0	58	4368
2026-01-21 00:35:03.40	5.64	12.64	-43.2	-45.1	18.4	0.00e+00	0	41	0	0	58	4391
2026-01-21 00:35:06.38	5.42	12.90	-43.1	-45.0	18.6	0.00e+00	0	41	0	0	58	4308
2026-01-21 00:35:09.37	5.20	13.18	-43.0	-44.9	18.6	0.00e+00	0	41	0	0	58	4278
2026-01-21 00:35:12.35	4.97	13.45	-42.8	-44.7	18.8	0.00e+00	0	41	0	0	57	4421
2026-01-21 00:35:15.33	4.74	13.72	-42.7	-44.6	19.0	0.00e+00	0	41	0	0	57	4355
2026-01-21 00:35:18.32	4.50	14.00	-42.7	-44.6	19.0	0.00e+00	0	41	0	0	57	4361
2026-01-21 00:35:21.30	4.26	14.28	-42.9	-44.7	18.8	0.00e+00	0	41	0	0	57	4436
2026-01-21 00:35:24.28	4.02	14.57	-43.0	-44.9	18.7	0.00e+00	0	41	0	0	57	4505
2026-01-21 00:35:27.27	3.77	14.85	-43.1	-44.9	18.7	0.00e+00	0	41	0	0	57	4538
2026-01-21 00:35:30.25	3.51	15.14	-43.1	-44.9	18.7	0.00e+00	0	41	0	0	57	4533
2026-01-21 00:35:33.24	3.25	15.44	-43.0	-44.9	18.8	0.00e+00	0	41	0	0	57	4507
2026-01-21 00:35:36.22	2.98	15.73	-43.1	-44.9	18.7	0.00e+00	0	41	0	0	57	4541
2026-01-21 00:35:39.21	2.71	16.03	-42.8	-44.6	19.0	0.00e+00	0	41	0	0	57	4367
2026-01-21 00:35:42.19	2.43	16.33	-42.8	-44.6	19.0	0.00e+00	0	41	0	0	57	4389
2026-01-21 00:35:45.18	2.15	16.64	-42.9	-44.7	18.9	0.00e+00	0	41	0	0	57	4430
2026-01-21 00:35:48.17	1.86	16.94	-43.0	-44.8	18.8	0.00e+00	0	41	0	0	57	4492
2026-01-21 00:35:51.15	1.56	17.25	-43.2	-45.1	18.5	0.00e+00	0	41	0	0	57	4631
2026-01-21 00:35:54.13	1.26	17.57	-43.3	-45.2	18.4	0.00e+00	0	41	0	0	57	4689
2026-01-21 00:35:57.12	0.95	17.88	-43.3	-45.2	18.5	0.00e+00	0	41	0	0	57	4678
2026-01-21 00:36:00.10	0.63	18.20	-43.3	-45.1	18.6	0.00e+00	0	41	0	0	57	4644
2026-01-21 00:36:03.09	0.31	18.53	-43.2	-45.0	18.7	0.00e+00	0	41	0	0	57	4582
2026-01-21 00:36:06.07	359.98	18.85	-43.2	-45.1	18.6	0.00e+00	0	41	0	0	57	4611
2026-01-21 00:36:09.05	359.64	19.18	-43.1	-45.0	18.6	0.00e+00	0	41	0	0	57	4575
2026-01-21 00:36:12.04	359.30	19.52	-43.1	-45.0	18.7	0.00e+00	0	41	0	0	57	4547
2026-01-21 00:36:15.02	358.95	19.85	-43.0	-44.9	18.8	0.00e+00	0	41	0	0	57	4508
2026-01-21 00:36:18.01	358.58	20.19	-42.8	-44.6	19.1	0.00e+00	0	41	0	0	57	4387
2026-01-21 00:36:21.00	358.21	20.54	-42.5	-44.3	19.4	0.00e+00	0	41	0	0	57	4214
2026-01-21 00:36:23.99	357.83	20.88	-42.1	-43.8	19.8	0.00e+00	0	41	0	0	56	4203
2026-01-21 00:36:26.97	357.45	21.23	-41.8	-43.5	19.8	0.00e+00	0	41	0	0	55	4324
2026-01-21 00:36:29.95	357.05	21.59	-41.7	-43.4	19.9	0.00e+00	0	41	0	0	55	4287
2026-01-21 00:36:32.94	356.65	21.95	-41.5	-43.2	20.1	0.00e+00	0	41	0	0	55	4173
2026-01-21 00:36:35.92	356.23	22.31	-41.5	-43.2	20.3	0.00e+00	0	41	0	0	54	4394
2026-01-21 00:36:38.90	355.81	22.67	-41.5	-43.2	20.3	0.00e+00	0	41	0	0	54	4398
2026-01-21 00:36:41.89	355.37	23.04	-41.3	-43.0	20.4	0.00e+00	0	41	0	0	54	4302
2026-01-21 00:36:44.88	354.92	23.41	-41.3	-43.0	20.3	0.00e+00	0	41	0	0	54	4305
2026-01-21 00:36:47.86	354.47	23.78	-41.4	-43.1	20.2	0.00e+00	0	41	0	0	54	4381
2026-01-21 00:36:50.85	354.00	24.16	-41.4	-43.1	20.2	0.00e+00	0	41	0	0	54	4374
2026-01-21 00:36:53.83	353.52	24.54	-41.6	-43.3	20.2	0.00e+00	0	41	0	0	54	4458
2026-01-21 00:36:56.82	353.02	24.93	-41.6	-43.3	20.2	0.00e+00	0	41	0	0	54	4462
2026-01-21 00:36:59.80	352.52	25.32	-41.7	-43.3	20.2	0.00e+00	0	41	0	0	54	4480
2026-01-21 00:37:02.79	352.00	25.71	-41.8	-43.5	20.0	0.00e+00	0	41	0	0	54	4557
2026-01-21 00:37:05.77	351.47	26.10	-42.0	-43.7	19.8	0.00e+00	0	41	0	0	54	4697
2026-01-21 00:37:08.75	350.92	26.50	-42.2	-43.9	19.6	0.00e+00	0	41	0	0	55	4537
2026-01-21 00:37:11.74	350.36	26.90	-42.3	-44.1	19.5	0.00e+00	0	41	0	0	55	4602
2026-01-21 00:37:14.72	349.79	27.30	-42.5	-44.3	19.2	0.00e+00	0	41	0	0	55	4728
2026-01-21 00:37:17.70	349.20	27.71	-43.0	-44.9	18.8	0.00e+00	0	41	0	0	56	4783
2026-01-21 00:37:20.69	348.60	28.12	-43.1	-45.0	18.9	0.00e+00	0	41	0	0	57	4550
2026-01-21 00:37:23.68	347.98	28.53	-42.7	-44.5	19.4	0.00e+00	0	41	0	0	57	4292
2026-01-21 00:37:26.66	347.34	28.94	-42.8	-44.6	19.1	0.00e+00	0	41	0	0	57	4389
2026-01-21 00:37:29.65	346.69	29.36	-42.9	-44.8	18.9	0.00e+00	0	41	0	0	57	4466
2026-01-21 00:37:32.63	346.02	29.77	-42.9	-44.7	19.1	0.00e+00	0	41	0	0	57	4433
2026-01-21 00:37:35.62	345.33	30.19	-42.7	-44.5	19.3	0.00e+00	0	41	0	0	57	4313
2026-01-21 00:37:38.60	344.62	30.61	-42.7	-44.5	19.3	0.00e+00	0	41	0	0	57	4294
2026-01-21 00:37:41.59	343.90	31.03	-42.6	-44.3	19.4	0.00e+00	0	41	0	0	57	4236
2026-01-21 00:37:44.57	343.15	31.45	-42.5	-44.2	19.6	0.00e+00	0	41	0	0	56	4441
2026-01-21 00:37:47.55	342.39	31.88	-42.4	-44.2	19.5	0.00e+00	0	41	0	0	56	4417
2026-01-21 00:37:50.54	341.60	32.30	-42.2	-44.1	19.6	0.00e+00	0	41	0	0	56	4347
2026-01-21 00:37:53.52	340.80	32.72	-42.6	-44.4	19.4	0.00e+00	0	41	0	0	56	4497
2026-01-21 00:37:56.51	339.97	33.14	-42.5	-44.3	19.4	0.00e+00	0	41	0	0	56	4454
2026-01-21 00:37:59.49	339.12	33.56	-42.9	-44.7	19.0	0.00e+00	0	41	0	0	56	4694
2026-01-21 00:38:02.48	338.25	33.98	-43.6	-45.5	18.3	0.00e+00	0	41	0	0	57	4818
2026-01-21 00:38:05.46	337.35	34.40	-43.6	-45.6	18.3	0.00e+00	0	41	0	0	58	4637
2026-01-21 00:38:08.45	336.43	34.81	-43.8	-45.7	18.2	0.00e+00	0	41	0	0	58	4704
2026-01-21 00:38:11.44	335.49	35.22	-43.7	-45.6	18.4	0.00e+00	0	41	0	0	58	4631
2026-01-21 00:38:14.42	334.52	35.63	-44.1	-46.1	17.9	0.00e+00	0	41	0	0	58	4892
2026-01-21 00:38:17.40	333.53	36.03	-44.3	-46.3	17.7	0.00e+00	0	41	0	0	59	4716
2026-01-21 00:38:20.39	332.52	36.43	-44.6	-46.6	17.4	0.00e+00	0	41	0	0	59	4906
2026-01-21 00:38:23.37	331.48	36.82	-44.1	-46.2	17.8	0.00e+00	0	41	0	0	59	4654
2026-01-21 00:38:26.35	330.41	37.20	-44.3	-46.3	17.6	0.00e+00	0	41	0	0	59	4752
2026-01-21 00:38:29.34	329.32	37.58	-44.1	-46.1	17.9	0.00e+00	0	41	0	0	59	4600
2026-01-21 00:38:32.32	328.20	37.95	-44.2	-46.2	17.8	0.00e+00	0	41	0	0	59	4691
2026-01-21 00:38:35.31	327.06	38.31	-44.1	-46.1	17.9	0.00e+00	0	41	0	0	59	4608
2026-01-21 00:38:38.30	325.89	38.66	-44.4	-46.6	17.4	0.00e+00	0	41	0	0	59	4898
2026-01-21 00:38:41.28	324.70	39.01	-44.4	-46.5	17.5	0.00e+00	0	41	0	0	60	4586
2026-01-21 00:38:44.27	323.47	39.34	-45.2	-47.5	16.5	0.00e+00	0	41	0	0	61	4816
2026-01-21 00:38:47.25	322.23	39.65	-45.1	-47.3	16.9	0.00e+00	0	41	0	0	61	4709
2026-01-21 00:38:50.23	320.97	39.96	-45.6	-47.9	16.2	0.00e+00	0	41	0	0	61	5073
2026-01-21 00:38:53.22	319.67	40.25	-45.4	-47.6	16.6	0.00e+00	0	41	0	0	61	4899
2026-01-21 00:38:56.20	318.36	40.53	-45.2	-47.3	16.9	0.00e+00	0	41	0	0	61	4751
2026-01-21 00:38:59.19	317.02	40.79	-44.5	-46.5	17.7	0.00e+00	0	41	0	0	60	4557
2026-01-21 00:39:02.17	315.66	41.03	-44.6	-46.7	17.4	0.00e+00	0	41	0	0	60	4660
2026-01-21 00:39:05.16	314.28	41.26	-44.8	-46.8	17.3	0.00e+00	0	41	0	0	60	4740
2026-01-21 00:39:08.15	312.88	41.47	-44.3	-46.2	17.8	0.00e+00	0	41	0	0	60	4432
2026-01-21 00:39:11.13	311.47	41.67	-44.4	-46.4	17.7	0.00e+00	0	41	0	0	60	4512
2026-01-21 00:39:14.11	310.04	41.84	-44.5	-46.5	17.5	0.00e+00	0	41	0	0	60	4569
2026-01-21 00:39:17.10	308.59	41.99	-45.2	-47.5	16.5	0.00e+00	0	41	0	0	61	4831
2026-01-21 00:39:20.08	307.13	42.13	-45.3	-47.5	16.6	0.00e+00	0	41	0	0	61	4830
2026-01-21 00:39:23.06	305.66	42.24	-45.6	-47.9	16.2	0.00e+00	0	41	0	0	61	5078
2026-01-21 00:39:26.05	304.18	42.33	-45.7	-48.0	16.3	0.00e+00	0	41	0	0	62	4817
2026-01-21 00:39:29.03	302.69	42.40	-44.8	-46.9	17.2	0.00e+00	0	41	0	0	61	4514
2026-01-21 00:39:32.01	301.20	42.45	-45.0	-47.0	17.0	0.00e+00	0	41	0	0	61	4597
2026-01-21 00:39:35.00	299.70	42.48	-44.9	-47.1	17.0	0.00e+00	0	41	0	0	61	4606
2026-01-21 00:39:37.98	298.21	42.48	-44.6	-46.6	17.4	0.00e+00	0	41	0	0	61	4371
2026-01-21 00:39:40.97	296.70	42.46	-45.3	-47.4	16.7	0.00e+00	0	41	0	0	61	4798
2026-01-21 00:39:43.95	295.21	42.42	-44.8	-46.9	17.2	0.00e+00	0	41	0	0	61	4501
2026-01-21 00:39:46.94	293.72	42.36	-44.9	-46.9	17.2	0.00e+00	0	41	0	0	61	4516
2026-01-21 00:39:49.92	292.23	42.28	-45.1	-47.3	16.9	0.00e+00	0	41	0	0	61	4728
2026-01-21 00:39:52.91	290.76	42.17	-44.7	-46.7	17.4	0.00e+00	0	41	0	0	61	4428
2026-01-21 00:39:55.89	289.29	42.05	-44.9	-46.9	17.2	0.00e+00	0	41	0	0	61	4522
2026-01-21 00:39:58.88	287.84	41.90	-44.4	-46.4	17.6	0.00e+00	0	41	0	0	60	4526
2026-01-21 00:40:01.86	286.40	41.74	-44.7	-46.8	17.3	0.00e+00	0	41	0	0	60	4710
2026-01-21 00:40:04.85	284.97	41.55	-45.3	-47.4	16.7	0.00e+00	0	41	0	0	61	4811
2026-01-21 00:40:07.83	283.57	41.35	-45.5	-47.7	16.2	0.00e+00	0	41	0	0	61	4953
2026-01-21 00:40:10.82	282.18	41.12	-44.9	-46.9	17.2	0.00e+00	0	41	0	0	61	4540
2026-01-21 00:40:13.80	280.81	40.88	-44.4	-46.4	17.7	0.00e+00	0	41	0	0	60	4523
2026-01-21 00:40:16.79	279.46	40.63	-44.8	-46.8	17.2	0.00e+00	0	41	0	0	60	4756
2026-01-21 00:40:19.77	278.13	40.36	-44.6	-46.6	17.5	0.00e+00	0	41	0	0	60	4637
2026-01-21 00:40:22.76	276.83	40.07	-43.8	-45.6	18.2	0.00e+00	0	41	0	0	59	4385
2026-01-21 00:40:25.74	275.55	39.77	-45.1	-47.2	16.7	0.00e+00	0	41	0	0	60	4949
2026-01-21 00:40:28.73	274.29	39.45	-45.3	-47.5	16.4	0.00e+00	0	41	0	0	62	4558
2026-01-21 00:40:31.71	273.06	39.13	-44.8	-46.9	17.3	0.00e+00	0	41	0	0	61	4504
2026-01-21 00:40:34.70	271.85	38.79	-45.4	-47.7	16.6	0.00e+00	0	41	0	0	61	4938
2026-01-21 00:40:37.68	270.67	38.44	-44.7	-46.8	17.3	0.00e+00	0	41	0	0	61	4470
2026-01-21 00:40:40.66	269.52	38.08	-44.6	-46.6	17.6	0.00e+00	0	41	0	0	60	4611
2026-01-21 00:40:43.65	268.39	37.71	-44.8	-46.9	17.3	0.00e+00	0	41	0	0	60	4778
2026-01-21 00:40:46.63	267.28	37.34	-44.1	-46.0	17.9	0.00e+00	0	41	0	0	60	4334
2026-01-21 00:40:49.62	266.20	36.95	-45.3	-47.5	16.6	0.00e+00	0	41	0	0	61	4847
2026-01-21 00:40:52.61	265.15	36.56	-44.3	-46.3	17.8	0.00e+00	0	41	0	0	60	4470
2026-01-21 00:40:55.60	264.11	36.16	-43.2	-45.0	18.9	0.00e+00	0	41	0	0	58	4323
2026-01-21 00:40:58.58	263.11	35.76	-44.2	-46.2	17.9	0.00e+00	0	41	0	0	59	4657
2026-01-21 00:41:01.56	262.13	35.36	-43.6	-45.4	18.3	0.00e+00	0	41	0	0	59	4274
2026-01-21 00:41:04.54	261.18	34.95	-42.8	-44.5	19.4	0.00e+00	0	41	0	0	57	4328
2026-01-21 00:41:07.53	260.25	34.53	-44.6	-46.7	17.4	0.00e+00	0	41	0	0	59	4941
2026-01-21 00:41:10.51	259.34	34.11	-43.1	-44.9	18.8	0.00e+00	0	41	0	0	58	4271
2026-01-21 00:41:13.50	258.46	33.69	-42.3	-44.0	19.7	0.00e+00	0	41	0	0	56	4318
2026-01-21 00:41:16.48	257.60	33.27	-43.4	-45.2	18.7	0.00e+00	0	41	0	0	57	4673
2026-01-21 00:41:19.46	256.76	32.85	-44.0	-46.0	17.9	0.00e+00	0	41	0	0	58	4831
2026-01-21 00:41:22.45	255.94	32.43	-43.4	-45.2	18.6	0.00e+00	0	41	0	0	58	4435
2026-01-21 00:41:25.43	255.14	32.00	-43.0	-44.8	19.0	0.00e+00	0	41	0	0	57	4453
2026-01-21 00:41:28.41	254.37	31.58	-42.9	-44.6	19.0	0.00e+00	0	41	0	0	57	4388
2026-01-21 00:41:31.40	253.61	31.15	-42.9	-44.7	19.1	0.00e+00	0	41	0	0	57	4428
2026-01-21 00:41:34.38	252.88	30.73	-43.1	-44.8	19.1	0.00e+00	0	41	0	0	57	4488
2026-01-21 00:41:37.37	252.16	30.31	-42.5	-44.2	19.6	0.00e+00	0	41	0	0	57	4167
2026-01-21 00:41:40.35	251.46	29.89	-42.1	-43.8	19.8	0.00e+00	0	41	0	0	56	4211
2026-01-21 00:41:43.34	250.78	29.47	-42.3	-44.0	19.7	0.00e+00	0	41	0	0	56	4320
2026-01-21 00:41:46.32	250.12	29.05	-43.1	-44.9	19.0	0.00e+00	0	41	0	0	56	4798
2026-01-21 00:41:49.30	249.47	28.64	-43.5	-45.4	18.3	0.00e+00	0	41	0	0	57	4804
2026-01-21 00:41:52.28	248.84	28.22	-42.5	-44.3	19.3	0.00e+00	0	41	0	0	57	4194
2026-01-21 00:41:55.26	248.23	27.81	-42.5	-44.2	19.4	0.00e+00	0	41	0	0	56	4432
2026-01-21 00:41:58.25	247.63	27.40	-42.8	-44.6	19.2	0.00e+00	0	41	0	0	56	4623
2026-01-21 00:42:01.24	247.05	26.99	-42.6	-44.3	19.5	0.00e+00	0	41	0	0	56	4474
2026-01-21 00:42:04.22	246.48	26.59	-42.6	-44.3	19.3	0.00e+00	0	41	0	0	56	4493
2026-01-21 00:42:07.21	245.93	26.19	-42.6	-44.3	19.4	0.00e+00	0	41	0	0	56	4479
2026-01-21 00:42:10.19	245.39	25.79	-42.3	-44.0	19.7	0.00e+00	0	41	0	0	56	4309
2026-01-21 00:42:13.18	244.86	25.40	-42.7	-44.4	19.1	0.00e+00	0	41	0	0	56	4538
2026-01-21 00:42:16.16	244.35	25.01	-42.6	-44.4	19.3	0.00e+00	0	41	0	0	56	4495
2026-01-21 00:42:19.15	243.85	24.62	-42.5	-44.3	19.5	0.00e+00	0	41	0	0	56	4446
2026-01-21 00:42:22.13	243.36	24.24	-42.2	-43.9	19.8	0.00e+00	0	41	0	0	56	4271
2026-01-21 00:42:25.12	242.89	23.85	-42.2	-43.9	19.8	0.00e+00	0	41	0	0	56	4263
2026-01-21 00:42:28.10	242.42	23.48	-42.4	-44.2	19.5	0.00e+00	0	41	0	0	56	4396
2026-01-21 00:42:31.09	241.97	23.10	-42.5	-44.2	19.5	0.00e+00	0	41	0	0	56	4407
2026-01-21 00:42:34.08	241.53	22.73	-42.3	-44.0	19.6	0.00e+00	0	41	0	0	56	4299
2026-01-21 00:42:37.06	241.09	22.36	-42.4	-44.1	19.5	0.00e+00	0	41	0	0	56	4377
2026-01-21 00:42:40.05	240.67	22.00	-42.7	-44.4	19.3	0.00e+00	0	41	0	0	56	4531
2026-01-21 00:42:43.03	240.26	21.64	-42.5	-44.2	19.4	0.00e+00	0	41	0	0	56	4439
2026-01-21 00:42:46.01	239.86	21.28	-42.5	-44.2	19.4	0.00e+00	0	41	0	0	56	4414
2026-01-21 00:42:49.00	239.46	20.93	-42.3	-44.0	19.6	0.00e+00	0	41	0	0	56	4311
2026-01-21 00:42:51.99	239.08	20.58	-42.0	-43.7	19.9	0.00e+00	0	41	0	0	56	4166
2026-01-21 00:42:54.97	238.70	20.23	-42.1	-43.8	19.7	0.00e+00	0	41	0	0	56	4210
2026-01-21 00:42:57.96	238.34	19.89	-42.4	-44.1	19.4	0.00e+00	0	41	0	0	56	4382
2026-01-21 00:43:00.94	237.98	19.55	-42.5	-44.2	19.4	0.00e+00	0	41	0	0	56	4421
2026-01-21 00:43:03.92	237.63	19.22	-42.3	-44.1	19.5	0.00e+00	0	41	0	0	56	4351
2026-01-21 00:43:06.91	237.28	18.88	-42.3	-44.0	19.6	0.00e+00	0	41	0	0	56	4315
2026-01-21 00:43:09.90	236.95	18.55	-42.4	-44.1	19.5	0.00e+00	0	41	0	0	56	4376
2026-01-21 00:43:12.88	236.62	18.23	-42.6	-44.3	19.3	0.00e+00	0	41	0	0	56	4465
2026-01-21 00:43:15.87	236.30	17.90	-42.7	-44.4	19.2	0.00e+00	0	41	0	0	56	4543
2026-01-21 00:43:18.86	235.98	17.58	-42.9	-44.7	19.1	0.00e+00	0	41	0	0	56	4653
2026-01-21 00:43:21.84	235.68	17.27	-43.0	-44.8	18.9	0.00e+00	0	41	0	0	56	4718
2026-01-21 00:43:24.83	235.37	16.95	-43.0	-44.9	18.7	0.00e+00	0	41	0	0	56	4773
2026-01-21 00:43:27.81	235.08	16.65	-42.9	-44.7	18.8	0.00e+00	0	41	0	0	56	4700
2026-01-21 00:43:30.80	234.79	16.34	-42.6	-44.3	19.1	0.00e+00	0	41	0	0	56	4475
2026-01-21 00:43:33.78	234.51	16.03	-42.4	-44.1	19.3	0.00e+00	0	41	0	0	56	4380
2026-01-21 00:43:36.76	234.23	15.73	-42.2	-43.9	19.5	0.00e+00	0	41	0	0	56	4287
2026-01-21 00:43:39.75	233.96	15.44	-42.4	-44.1	19.4	0.00e+00	0	41	0	0	56	4383
2026-01-21 00:43:42.73	233.69	15.14	-42.6	-44.3	19.3	0.00e+00	0	41	0	0	56	4489
2026-01-21 00:43:45.72	233.43	14.85	-42.8	-44.6	19.0	0.00e+00	0	41	0	0	56	4623
2026-01-21 00:43:48.70	233.18	14.56	-43.0	-44.8	18.8	0.00e+00	0	41	0	0	56	4729
2026-01-21 00:43:51.68	232.93	14.28	-43.0	-44.9	18.6	0.00e+00	0	40	0	0	56	4775
2026-01-21 00:43:54.67	232.68	13.99	-43.1	-44.9	18.5	0.00e+00	0	41	0	0	57	4533
2026-01-21 00:43:57.65	232.44	13.71	-43.0	-44.9	18.5	0.00e+00	0	40	0	0	57	4508
2026-01-21 00:44:00.64	232.20	13.43	-42.9	-44.8	18.6	0.00e+00	0	41	0	0	57	4446
2026-01-21 00:44:03.62	231.97	13.16	-43.0	-44.8	18.6	0.00e+00	0	41	0	0	57	4462
2026-01-21 00:44:06.60	231.74	12.89	-43.0	-44.8	18.6	0.00e+00	0	41	0	0	57	4471
2026-01-21 00:44:09.59	231.52	12.62	-43.0	-44.8	18.7	0.00e+00	0	41	0	0	57	4464
2026-01-21 00:44:12.58	231.30	12.35	-43.1	-44.9	18.6	0.00e+00	0	41	0	0	57	4521
2026-01-21 00:44:15.56	231.09	12.08	-43.2	-45.1	18.4	0.00e+00	0	41	0	0	57	4616
2026-01-21 00:44:18.55	230.87	11.82	-43.3	-45.2	18.3	0.00e+00	0	41	0	0	57	4686
2026-01-21 00:44:21.53	230.67	11.56	-43.5	-45.4	18.1	0.00e+00	0	41	0	0	57	4800
2026-01-21 00:44:24.52	230.46	11.30	-43.6	-45.5	18.0	0.00e+00	0	41	0	0	57	4854
2026-01-21 00:44:27.50	230.26	11.05	-43.8	-45.8	17.7	0.00e+00	0	40	0	0	58	4742
2026-01-21 00:44:30.49	230.07	10.80	-44.0	-46.0	17.5	0.00e+00	0	41	0	0	58	4827
2026-01-21 00:44:33.47	229.88	10.54	-44.1	-46.1	17.4	0.00e+00	0	40	0	0	58	4909
2026-01-21 00:44:36.46	229.69	10.30	-44.1	-46.1	17.4	0.00e+00	0	41	0	0	58	4895
2026-01-21 00:44:39.44	229.50	10.05	-44.1	-46.1	17.3	0.00e+00	0	41	0	0	59	4646
2026-01-21 00:44:42.43	229.32	9.81	-44.3	-46.3	17.1	0.00e+00	0	40	0	0	59	4753
2026-01-21 00:44:45.41	229.14	9.56	-44.4	-46.5	16.9	0.00e+00	0	41	0	0	59	4857
2026-01-21 00:44:48.39	228.96	9.32	-44.6	-46.7	16.7	0.00e+00	0	41	0	0	59	4971
2026-01-21 00:44:51.38	228.79	9.08	-44.5	-46.6	16.8	0.00e+00	0	40	0	0	59	4918
2026-01-21 00:44:54.36	228.62	8.85	-52.2	-65.2	3.8	1.49e+00	0	40	104	0	74	17609
2026-01-21 00:44:57.34	228.45	8.62	-52.5	-65.5	3.8	1.49e+00	0	40	104	0	75	17123
2026-01-21 00:45:00.31	228.28	8.38	-52.6	-65.6	3.8	1.49e+00	0	41	104	0	75	17454
2026-01-21 00:45:03.29	228.12	8.15	-52.6	-65.6	3.8	1.49e+00	0	40	104	0	75	17460
2026-01-21 00:45:06.27	227.96	7.93	-52.5	-65.6	3.8	1.49e+00	0	40	104	0	75	17445
2026-01-21 00:45:09.25	227.80	7.70	-52.5	-65.7	3.8	1.49e+00	0	41	104	0	75	17497
2026-01-21 00:45:12.24	227.65	7.47	-52.5	-65.6	3.8	1.49e+00	0	40	104	0	75	17342
2026-01-21 00:45:15.21	227.50	7.25	-52.4	-65.6	3.8	1.49e+00	0	41	104	0	75	17309
2026-01-21 00:45:18.19	227.35	7.03	-52.4	-65.6	3.8	1.49e+00	0	40	104	0	75	17293
2026-01-21 00:45:21.17	227.20	6.81	-52.4	-65.5	3.8	1.49e+00	0	40	104	0	75	17255
2026-01-21 00:45:24.15	227.06	6.59	-52.3	-65.5	3.8	1.49e+00	0	40	104	0	75	17204
2026-01-21 00:45:27.13	226.91	6.38	-52.3	-65.5	3.8	1.49e+00	0	41	104	0	75	17162
2026-01-21 00:45:30.11	226.77	6.16	-52.3	-65.5	3.8	1.49e+00	0	40	104	0	75	17084
2026-01-21 00:45:33.09	226.63	5.95	-52.3	-65.5	3.8	1.49e+00	0	41	104	0	75	17138
2026-01-21 00:45:36.07	226.50	5.74	-52.3	-65.4	3.8	1.49e+00	0	41	104	0	75	17051
2026-01-21 00:45:39.04	226.36	5.53	-52.3	-65.4	3.8	1.49e+00	0	40	104	0	75	17062
2026-01-21 00:45:42.02	226.23	5.32	-52.3	-65.4	3.8	1.49e+00	0	40	104	0	75	17077
2026-01-21 00:45:45.00	226.10	5.12	-52.3	-65.5	3.8	1.49e+00	0	41	104	0	75	17122

#Closed at: 2026-01-21 00:45:47
#Recorded file [0 MB]: D:/Data/31040_260121_033325.dat