passes_logs/2026/01/21/T1/T1__20260121_123126_AQUA_rec.log

#Pass ID: 20260121_123126_AQUA
#Satellite: AQUA
#Configuration: AQUA
#almurnet v.1.7.20251203
#Start time: 2026-01-21 12:31:25

#Version: 2.0.20230620
#Station: T1
#Location: 37.570604 lon 55.790049 lat
#TLE: 1 27424U 02022A   26020.90316333  .00002787  00000+0  56766-3 0  9999
#TLE: 2 27424  98.4095 347.4297 0002000  71.6339 309.8236 14.61840001261750

#Time	Az	El	Level	Level2	SNR	BER	BlckErr	Temp	State	Recorded	gain1	gain2
2026-01-21 12:31:25.98	189.56	4.99	-51.6	-73.1	3.8	7.48e-01	0	36	0	0	75	41230
2026-01-21 12:31:28.96	189.74	5.20	-51.4	-73.3	3.8	7.47e-01	0	36	104	0	73	47546
2026-01-21 12:31:31.94	189.92	5.42	-51.3	-73.4	3.8	7.46e-01	0	36	104	0	73	47738
2026-01-21 12:31:34.91	190.10	5.63	-51.4	-72.9	3.8	7.47e-01	0	36	104	0	73	45024
2026-01-21 12:31:37.89	190.28	5.85	-51.3	-72.2	3.8	7.49e-01	0	36	104	0	73	41522
2026-01-21 12:31:40.87	190.47	6.07	-51.3	-72.5	3.8	7.47e-01	0	36	104	0	73	43304
2026-01-21 12:31:43.85	190.66	6.29	-51.3	-72.9	3.8	7.45e-01	0	36	104	0	73	44938
2026-01-21 12:31:46.83	190.85	6.51	-51.3	-72.0	3.8	7.44e-01	0	37	104	0	73	40894
2026-01-21 12:31:49.81	191.05	6.74	-51.3	-72.6	3.8	7.45e-01	0	37	104	0	73	43498
2026-01-21 12:31:52.79	191.25	6.96	-51.3	-72.8	3.8	7.45e-01	0	37	104	0	73	44854
2026-01-21 12:31:55.77	191.45	7.19	-51.2	-68.8	4.5	7.25e-01	0	37	104	0	73	28288
2026-01-21 12:31:58.75	191.66	7.42	-51.2	-67.6	5.2	7.06e-01	0	37	0	524288	73	24411
2026-01-21 12:32:01.73	191.87	7.66	-51.2	-69.7	4.2	7.32e-01	0	37	104	524288	73	31122
2026-01-21 12:32:04.71	192.08	7.89	-49.8	-56.6	15.6	6.09e-01	0	37	0	4718592	71	7767
2026-01-21 12:32:07.69	192.30	8.13	-47.6	-51.7	20.3	6.07e-01	0	37	0	10485760	67	5557
2026-01-21 12:32:10.67	192.52	8.37	-47.0	-50.8	21.2	6.07e-01	0	37	0	16252928	66	5310
2026-01-21 12:32:13.65	192.74	8.61	-48.4	-53.2	19.0	6.08e-01	0	37	0	21495808	67	6611
2026-01-21 12:32:16.63	192.97	8.85	-50.1	-57.7	14.6	6.07e-01	0	37	0	27262976	70	9335
2026-01-21 12:32:19.61	193.20	9.10	-50.2	-57.6	14.2	6.08e-01	0	37	0	33030144	72	8195
2026-01-21 12:32:22.60	193.44	9.35	-51.2	-63.6	8.3	6.39e-01	0	38	0	38273024	73	15525
2026-01-21 12:32:25.59	193.68	9.60	-48.9	-53.6	18.9	6.08e-01	0	38	0	44040192	69	6164
2026-01-21 12:32:28.97	193.96	9.89	-49.0	-53.7	18.8	6.08e-01	0	38	0	50331648	69	6227
2026-01-21 12:32:31.68	194.19	10.12	-48.6	-52.8	19.4	6.05e-01	0	38	0	55574528	68	5932
2026-01-21 12:32:34.96	194.47	10.40	-48.1	-51.9	20.4	6.07e-01	0	37	0	61865984	68	5370
2026-01-21 12:32:37.70	194.70	10.64	-47.7	-51.4	20.6	6.05e-01	0	37	0	66584576	67	5375
2026-01-21 12:32:40.97	194.99	10.93	-46.7	-49.8	22.3	6.04e-01	0	38	0	72876032	65	5012
2026-01-21 12:32:43.83	195.25	11.19	-46.6	-49.6	22.5	6.07e-01	0	38	0	78118912	65	4920
2026-01-21 12:32:47.21	195.56	11.49	-46.4	-49.4	22.7	6.05e-01	0	38	0	84410368	64	5073
2026-01-21 12:32:49.96	195.82	11.75	-46.3	-49.2	22.8	6.06e-01	0	38	0	89653248	64	4973
2026-01-21 12:32:53.26	196.14	12.05	-46.3	-49.3	22.8	6.06e-01	0	38	0	95944704	64	5015
2026-01-21 12:32:55.99	196.41	12.30	-46.2	-49.2	23.0	6.06e-01	0	38	0	101187584	64	4929
2026-01-21 12:32:59.27	196.73	12.61	-46.2	-49.2	22.9	6.08e-01	0	38	0	106954752	64	4961
2026-01-21 12:33:02.07	197.02	12.88	-46.0	-48.9	23.2	6.05e-01	0	38	0	112197632	64	4797
2026-01-21 12:33:05.83	197.41	13.24	-46.2	-49.2	23.0	6.08e-01	0	38	0	119537664	63	5274
2026-01-21 12:33:08.61	197.70	13.51	-46.1	-49.0	23.1	6.06e-01	0	38	0	124780544	63	5145
2026-01-21 12:33:11.89	198.06	13.84	-46.1	-48.9	23.3	6.06e-01	0	38	0	131072000	63	5077
2026-01-21 12:33:14.64	198.37	14.11	-46.1	-48.9	23.3	6.07e-01	0	38	0	135790592	63	5091
2026-01-21 12:33:18.03	198.75	14.45	-46.1	-48.8	23.4	6.06e-01	0	38	0	142606336	63	5036
2026-01-21 12:33:20.87	199.08	14.74	-46.1	-48.8	23.5	6.07e-01	0	38	0	147849216	63	4984
2026-01-21 12:33:24.24	199.48	15.09	-46.1	-48.7	23.6	6.06e-01	0	38	0	154140672	63	4932
2026-01-21 12:33:26.95	199.81	15.37	-46.2	-48.8	23.4	6.07e-01	0	38	0	158859264	63	5035
2026-01-21 12:33:30.23	200.21	15.72	-46.0	-48.6	23.6	6.07e-01	0	38	0	165150720	63	4895
2026-01-21 12:33:32.96	200.56	16.01	-46.1	-48.7	23.5	6.07e-01	0	38	0	170393600	63	4972
2026-01-21 12:33:36.49	201.01	16.39	-45.9	-48.5	23.7	6.05e-01	0	38	0	177209344	63	4836
2026-01-21 12:33:39.65	201.43	16.74	-46.0	-48.6	23.6	6.05e-01	0	38	0	182976512	63	4912
2026-01-21 12:33:42.95	201.88	17.10	-45.9	-48.6	23.6	6.08e-01	0	38	0	189267968	63	4884
2026-01-21 12:33:45.68	202.26	17.41	-45.9	-48.6	23.7	6.05e-01	0	38	0	194510848	63	4871
2026-01-21 12:33:49.04	202.74	17.79	-46.1	-48.7	23.6	6.05e-01	0	38	0	200802304	63	4976
2026-01-21 12:33:51.76	203.14	18.10	-46.0	-48.6	23.7	6.06e-01	0	38	0	205520896	63	4901
2026-01-21 12:33:55.25	203.66	18.50	-46.0	-48.5	23.7	6.07e-01	0	38	0	212336640	63	4870
2026-01-21 12:33:57.96	204.07	18.82	-46.2	-48.7	23.6	6.07e-01	0	38	0	217055232	63	4973
2026-01-21 12:34:01.26	204.59	19.21	-46.2	-48.8	23.6	6.07e-01	0	38	0	223346688	63	5010
2026-01-21 12:34:04.01	205.03	19.54	-46.3	-48.9	23.4	6.07e-01	0	38	0	228589568	63	5077
2026-01-21 12:34:07.54	205.61	19.96	-46.1	-48.7	23.7	6.07e-01	0	38	0	235405312	63	4938
2026-01-21 12:34:10.25	206.07	20.29	-46.2	-48.7	23.7	6.09e-01	0	38	0	240123904	63	4976
2026-01-21 12:34:13.53	206.64	20.70	-46.1	-48.6	23.7	6.06e-01	0	38	0	246415360	63	4907
2026-01-21 12:34:16.25	207.12	21.04	-46.3	-48.8	23.6	6.06e-01	0	38	0	251658240	63	5008
2026-01-21 12:34:19.54	207.72	21.45	-46.2	-48.8	23.6	6.07e-01	0	38	0	257949696	63	5017
2026-01-21 12:34:22.26	208.22	21.79	-46.1	-48.6	23.7	6.07e-01	0	38	0	262668288	63	4923
2026-01-21 12:34:25.53	208.85	22.21	-46.2	-48.8	23.6	6.06e-01	0	38	0	268959744	63	5005
2026-01-21 12:34:28.24	209.38	22.56	-46.2	-48.8	23.6	6.05e-01	0	38	0	274202624	63	5006
2026-01-21 12:34:31.83	210.11	23.03	-46.1	-48.6	23.7	6.05e-01	0	38	0	280494080	63	4911
2026-01-21 12:34:34.55	210.67	23.39	-46.3	-48.8	23.6	6.05e-01	0	38	0	285736960	63	5041
2026-01-21 12:34:37.83	211.37	23.83	-46.1	-48.7	23.7	6.07e-01	0	38	0	292028416	63	4951
2026-01-21 12:34:40.55	211.96	24.19	-46.2	-48.8	23.5	6.05e-01	0	38	0	297271296	63	5037
2026-01-21 12:34:43.82	212.69	24.63	-46.2	-48.8	23.6	6.06e-01	0	38	0	303038464	63	4993
2026-01-21 12:34:46.56	213.32	25.00	-46.2	-48.8	23.7	6.07e-01	0	38	0	308281344	63	4989
2026-01-21 12:34:49.85	214.10	25.45	-46.4	-48.9	23.5	6.07e-01	0	38	0	314572800	63	5099
2026-01-21 12:34:52.55	214.75	25.82	-46.2	-48.7	23.7	6.06e-01	0	38	0	319815680	63	4962
2026-01-21 12:34:55.83	215.57	26.28	-46.4	-49.0	23.5	6.07e-01	0	38	0	325582848	63	5113
2026-01-21 12:34:58.56	216.27	26.65	-46.2	-48.7	23.7	6.08e-01	0	38	0	330825728	63	4981
2026-01-21 12:35:01.83	217.13	27.11	-46.3	-48.9	23.6	6.06e-01	0	38	0	337117184	63	5059
2026-01-21 12:35:04.59	217.87	27.49	-46.4	-48.9	23.5	6.05e-01	0	38	0	342360064	63	5072
2026-01-21 12:35:08.51	218.96	28.04	-46.3	-48.8	23.6	6.07e-01	0	38	0	349700096	63	5016
2026-01-21 12:35:11.35	219.77	28.44	-46.3	-48.8	23.7	6.06e-01	0	38	0	354942976	63	5010
2026-01-21 12:35:14.76	220.78	28.92	-46.2	-48.8	23.7	6.05e-01	0	38	0	361234432	63	4990
2026-01-21 12:35:17.48	221.60	29.30	-46.2	-48.7	23.7	6.06e-01	0	38	0	366477312	63	4978
2026-01-21 12:35:20.70	222.60	29.75	-46.2	-48.7	23.7	6.06e-01	0	38	0	372244480	63	4962
2026-01-21 12:35:23.54	223.51	30.14	-46.1	-48.5	23.9	6.07e-01	0	38	0	377487360	63	4849
2026-01-21 12:35:26.67	224.53	30.57	-46.3	-48.9	23.6	6.09e-01	0	38	0	383778816	63	5051
2026-01-21 12:35:29.51	225.48	30.96	-46.2	-48.7	23.8	6.07e-01	0	38	0	389021696	63	4951
2026-01-21 12:35:32.63	226.56	31.39	-46.2	-48.7	23.8	6.05e-01	0	38	0	394788864	63	4937
2026-01-21 12:35:35.57	227.60	31.78	-46.2	-48.7	23.7	6.05e-01	0	38	0	400031744	63	4977
2026-01-21 12:35:38.55	228.68	32.18	-46.3	-48.8	23.6	6.04e-01	0	38	0	405798912	63	4990
2026-01-21 12:35:41.53	229.78	32.57	-46.1	-48.6	23.8	6.08e-01	0	38	0	411566080	63	4883
2026-01-21 12:35:44.55	230.93	32.96	-46.3	-48.8	23.6	6.07e-01	0	38	0	417333248	63	5040
2026-01-21 12:35:47.53	232.10	33.34	-46.2	-48.8	23.6	6.07e-01	0	39	0	422576128	63	5007
2026-01-21 12:35:50.52	233.29	33.71	-46.3	-48.8	23.6	6.07e-01	0	38	0	428343296	63	5041
2026-01-21 12:35:53.50	234.50	34.07	-46.4	-48.9	23.5	6.06e-01	0	38	0	434110464	63	5095
2026-01-21 12:35:56.49	235.75	34.42	-46.1	-48.6	23.9	6.06e-01	0	38	0	439353344	63	4900
2026-01-21 12:35:59.47	237.02	34.76	-46.2	-48.7	23.7	6.06e-01	0	38	0	445120512	63	4971
2026-01-21 12:36:02.45	238.32	35.09	-46.4	-48.9	23.6	6.08e-01	0	38	0	450887680	63	5072
2026-01-21 12:36:05.44	239.65	35.41	-46.3	-48.8	23.6	6.06e-01	0	38	0	456130560	63	5021
2026-01-21 12:36:08.42	240.99	35.71	-46.2	-48.7	23.7	6.05e-01	0	38	0	461897728	63	4971
2026-01-21 12:36:11.41	242.37	36.00	-46.3	-48.8	23.7	6.08e-01	0	38	0	467664896	63	4996
2026-01-21 12:36:14.39	243.77	36.27	-46.1	-48.7	23.8	6.06e-01	0	38	0	472907776	63	4930
2026-01-21 12:36:17.37	245.19	36.52	-46.1	-48.6	23.8	6.08e-01	0	38	0	478674944	63	4895
2026-01-21 12:36:20.47	246.69	36.77	-46.1	-48.6	23.8	6.07e-01	0	38	0	484442112	63	4908
2026-01-21 12:36:23.38	248.12	36.98	-46.1	-48.6	23.9	6.06e-01	0	38	0	489684992	63	4876
2026-01-21 12:36:26.37	249.60	37.19	-46.1	-48.6	23.9	6.07e-01	0	38	0	495452160	63	4892
2026-01-21 12:36:29.35	251.10	37.37	-46.0	-48.4	24.0	6.04e-01	0	38	0	501219328	63	4805
2026-01-21 12:36:32.33	252.62	37.52	-46.1	-48.6	23.8	6.06e-01	0	38	0	506986496	63	4900
2026-01-21 12:36:35.34	254.16	37.66	-46.3	-48.7	23.7	6.05e-01	0	38	0	512229376	63	4977
2026-01-21 12:36:38.64	255.87	37.79	-45.9	-48.4	24.0	6.07e-01	0	38	0	518520832	63	4790
2026-01-21 12:36:41.35	257.28	37.88	-46.1	-48.6	23.8	6.08e-01	0	38	0	523763712	63	4921
2026-01-21 12:36:44.63	259.00	37.95	-46.1	-48.6	23.9	6.07e-01	0	38	0	529530880	63	4894
2026-01-21 12:36:47.45	260.48	38.00	-46.0	-48.5	23.9	6.07e-01	0	38	0	535298048	63	4838
2026-01-21 12:36:50.78	262.23	38.02	-45.8	-48.3	24.1	6.06e-01	0	38	0	541589504	63	4723
2026-01-21 12:36:53.63	263.73	38.02	-45.8	-48.3	24.1	6.07e-01	0	38	0	546832384	63	4744
2026-01-21 12:36:56.96	265.48	37.99	-46.2	-48.7	23.7	6.06e-01	0	38	0	552599552	63	4930
2026-01-21 12:36:59.80	266.97	37.94	-45.8	-48.3	23.8	6.06e-01	0	38	0	558366720	63	4706
2026-01-21 12:37:02.93	268.60	37.86	-46.0	-48.5	24.0	6.06e-01	0	38	0	564133888	63	4825
2026-01-21 12:37:05.77	270.08	37.77	-46.0	-48.5	24.0	6.06e-01	0	38	0	569376768	63	4818
2026-01-21 12:37:09.02	271.76	37.64	-45.9	-48.3	24.1	6.07e-01	0	38	0	575668224	63	4743
2026-01-21 12:37:11.86	273.21	37.51	-45.8	-48.2	23.5	6.04e-01	0	38	0	580911104	63	4683
2026-01-21 12:37:15.10	274.85	37.33	-46.0	-48.5	23.2	6.05e-01	0	38	0	586678272	63	4837
2026-01-21 12:37:18.01	276.31	37.15	-45.8	-48.2	24.2	6.06e-01	0	38	0	592445440	63	4697
2026-01-21 12:37:20.99	277.78	36.95	-45.8	-48.2	23.8	6.06e-01	0	38	0	598212608	63	4700
2026-01-21 12:37:23.98	279.25	36.73	-45.9	-48.3	24.1	6.07e-01	0	38	0	603455488	63	4747
2026-01-21 12:37:26.96	280.68	36.49	-45.7	-48.1	24.3	6.08e-01	0	39	0	609222656	63	4615
2026-01-21 12:37:29.98	282.11	36.23	-45.9	-48.3	24.1	6.06e-01	0	38	0	614989824	63	4744
2026-01-21 12:37:32.97	283.51	35.95	-45.5	-47.9	24.5	6.07e-01	0	38	0	620232704	63	4516
2026-01-21 12:37:35.95	284.87	35.66	-45.4	-47.8	24.5	6.07e-01	0	38	0	625999872	62	4736
2026-01-21 12:37:38.93	286.21	35.36	-45.3	-47.6	24.7	6.06e-01	0	39	0	631767040	62	4624
2026-01-21 12:37:41.92	287.53	35.04	-45.4	-47.8	24.5	6.06e-01	0	38	0	637009920	62	4716
2026-01-21 12:37:44.98	288.85	34.70	-45.3	-47.6	24.7	6.08e-01	0	38	0	642777088	62	4640
2026-01-21 12:37:47.82	290.06	34.38	-45.4	-47.7	24.6	6.05e-01	0	38	0	648019968	62	4685
2026-01-21 12:37:50.95	291.35	34.01	-45.1	-47.4	24.8	6.08e-01	0	38	0	654311424	62	4538
2026-01-21 12:37:53.79	292.50	33.67	-45.1	-47.4	24.8	6.07e-01	0	38	0	659554304	62	4508
2026-01-21 12:37:57.04	293.79	33.27	-44.9	-47.2	25.0	6.08e-01	0	38	0	665321472	61	4680
2026-01-21 12:37:59.93	294.90	32.90	-45.0	-47.4	24.8	6.08e-01	0	39	0	671088640	61	4782
2026-01-21 12:38:03.09	296.10	32.49	-44.8	-47.1	25.1	6.06e-01	0	38	0	676855808	61	4617
2026-01-21 12:38:05.93	297.14	32.12	-44.9	-47.2	25.0	6.08e-01	0	38	0	682098688	61	4679
2026-01-21 12:38:09.06	298.26	31.71	-44.9	-47.2	25.0	6.07e-01	0	38	0	687865856	61	4654
2026-01-21 12:38:11.90	299.26	31.32	-44.8	-47.1	25.1	6.05e-01	0	38	0	693633024	61	4614
2026-01-21 12:38:15.03	300.33	30.90	-44.7	-47.0	25.2	6.04e-01	0	39	0	699400192	61	4587
2026-01-21 12:38:17.95	301.30	30.50	-44.8	-47.1	25.1	6.06e-01	0	39	0	704643072	61	4626
2026-01-21 12:38:21.08	302.31	30.07	-44.9	-47.2	25.0	6.06e-01	0	38	0	710410240	61	4664
2026-01-21 12:38:24.00	303.23	29.67	-44.9	-47.2	25.0	6.08e-01	0	38	0	716177408	61	4685
2026-01-21 12:38:26.99	304.15	29.25	-45.0	-47.3	24.9	6.07e-01	0	38	0	721944576	61	4743
2026-01-21 12:38:29.97	305.05	28.84	-45.0	-47.4	24.8	6.07e-01	0	38	0	727187456	61	4785
2026-01-21 12:38:32.95	305.92	28.43	-45.0	-47.4	24.8	6.06e-01	0	38	0	732954624	61	4765
2026-01-21 12:38:35.91	306.76	28.01	-45.1	-47.4	24.8	6.09e-01	0	38	0	738197504	61	4785
2026-01-21 12:38:38.89	307.58	27.60	-45.1	-47.5	24.7	6.05e-01	0	38	0	743964672	61	4846
2026-01-21 12:38:41.88	308.39	27.19	-45.3	-47.7	24.5	6.06e-01	0	38	0	749731840	61	4955
2026-01-21 12:38:44.87	309.17	26.77	-45.2	-47.6	24.5	6.06e-01	0	38	0	754974720	61	4910
2026-01-21 12:38:47.84	309.93	26.36	-45.3	-47.7	24.3	6.06e-01	0	39	0	760741888	61	4970
2026-01-21 12:38:50.96	310.71	25.94	-45.2	-47.6	24.4	6.07e-01	0	39	0	766509056	61	4895
2026-01-21 12:38:53.80	311.39	25.55	-45.0	-47.4	24.5	6.07e-01	0	38	0	771751936	61	4809
2026-01-21 12:38:56.93	312.13	25.12	-44.9	-47.5	24.4	6.06e-01	0	38	0	777519104	61	4849
2026-01-21 12:38:59.87	312.81	24.73	-44.9	-47.5	24.3	6.07e-01	0	39	0	783286272	61	4869
2026-01-21 12:39:02.99	313.51	24.31	-45.1	-47.7	24.2	6.06e-01	0	38	0	789053440	61	4938
2026-01-21 12:39:05.84	314.13	23.93	-45.1	-47.6	24.2	6.04e-01	0	38	0	794296320	61	4913
2026-01-21 12:39:08.96	314.79	23.52	-45.3	-47.8	24.1	6.06e-01	0	38	0	800587776	61	4993
2026-01-21 12:39:11.80	315.38	23.15	-45.1	-47.6	24.3	6.07e-01	0	38	0	805830656	61	4913
2026-01-21 12:39:14.93	316.01	22.74	-45.0	-47.5	24.3	6.07e-01	0	38	0	811597824	61	4868
2026-01-21 12:39:17.77	316.57	22.38	-45.0	-47.5	24.3	6.07e-01	0	38	0	816840704	61	4859
2026-01-21 12:39:20.90	317.17	21.98	-45.0	-47.7	24.2	6.05e-01	0	38	0	822607872	61	4938
2026-01-21 12:39:23.74	317.71	21.62	-45.0	-47.6	24.3	6.05e-01	0	38	0	827850752	61	4882
2026-01-21 12:39:26.86	318.28	21.23	-44.9	-47.5	24.3	6.08e-01	0	39	0	834142208	61	4840
2026-01-21 12:39:29.85	318.81	20.86	-44.6	-47.5	24.4	6.08e-01	0	39	0	839385088	61	4819
2026-01-21 12:39:32.97	319.35	20.48	-44.6	-47.3	24.5	6.07e-01	0	39	0	845152256	61	4738
2026-01-21 12:39:35.81	319.83	20.13	-44.8	-47.3	24.5	6.07e-01	0	39	0	850919424	61	4757
2026-01-21 12:39:38.94	320.35	19.76	-44.8	-47.4	24.4	6.04e-01	0	38	0	856686592	61	4813
2026-01-21 12:39:41.88	320.82	19.41	-44.9	-47.6	24.3	6.08e-01	0	38	0	861929472	61	4874
2026-01-21 12:39:45.15	321.34	19.02	-45.0	-47.6	24.3	6.06e-01	0	38	0	868220928	61	4886
2026-01-21 12:39:47.99	321.78	18.69	-44.9	-47.5	24.4	6.07e-01	0	38	0	873463808	61	4818
2026-01-21 12:39:51.12	322.25	18.33	-44.9	-47.5	24.3	6.07e-01	0	38	0	879230976	61	4845
2026-01-21 12:39:53.96	322.66	18.01	-45.0	-47.7	24.2	6.07e-01	0	38	0	884473856	61	4928
2026-01-21 12:39:57.09	323.11	17.66	-44.9	-47.6	24.3	6.07e-01	0	38	0	890765312	61	4899
2026-01-21 12:39:59.93	323.51	17.34	-45.0	-47.6	24.3	6.06e-01	0	38	0	896008192	61	4897
2026-01-21 12:40:03.05	323.94	17.00	-45.0	-47.5	24.5	6.05e-01	0	38	0	901775360	61	4827
2026-01-21 12:40:05.90	324.32	16.68	-45.1	-47.5	24.4	6.05e-01	0	39	0	907018240	61	4858
2026-01-21 12:40:09.02	324.73	16.35	-44.9	-47.5	24.5	6.06e-01	0	38	0	912785408	61	4817
2026-01-21 12:40:11.94	325.10	16.04	-44.7	-47.6	24.3	6.07e-01	0	38	0	918552576	61	4900
2026-01-21 12:40:15.07	325.50	15.71	-44.7	-47.8	24.2	6.06e-01	0	39	0	924319744	61	4990
2026-01-21 12:40:17.93	325.85	15.41	-45.0	-47.9	24.1	6.06e-01	0	39	0	929562624	61	5057
2026-01-21 12:40:21.06	326.22	15.09	-45.0	-47.8	24.2	6.06e-01	0	39	0	935329792	61	4992
2026-01-21 12:40:23.90	326.56	14.80	-44.9	-47.7	24.2	6.06e-01	0	39	0	941096960	61	4957
2026-01-21 12:40:27.03	326.92	14.48	-44.9	-47.8	24.2	6.06e-01	0	39	0	946864128	61	5016
2026-01-21 12:40:29.87	327.24	14.20	-45.1	-48.0	24.0	6.09e-01	0	39	0	952107008	61	5140
2026-01-21 12:40:33.00	327.59	13.89	-45.2	-48.0	24.0	6.08e-01	0	38	0	957874176	61	5138
2026-01-21 12:40:35.84	327.89	13.61	-45.7	-48.4	23.7	6.06e-01	0	39	0	963117056	61	5341
2026-01-21 12:40:38.97	328.23	13.31	-45.5	-48.1	23.9	6.06e-01	0	39	0	968884224	61	5183
2026-01-21 12:40:41.81	328.52	13.03	-45.6	-48.3	23.7	6.07e-01	0	39	0	974651392	62	5010
2026-01-21 12:40:45.11	328.86	12.72	-45.6	-48.3	23.7	6.06e-01	0	39	0	980418560	62	5022
2026-01-21 12:40:48.41	329.19	12.41	-45.7	-48.3	23.7	6.06e-01	0	39	0	986710016	62	5002
2026-01-21 12:40:51.13	329.45	12.16	-45.8	-48.4	23.6	6.07e-01	0	38	0	991952896	62	5078
2026-01-21 12:40:54.40	329.77	11.86	-45.8	-48.5	23.5	6.03e-01	0	39	0	998244352	62	5103
2026-01-21 12:40:57.13	330.03	11.62	-45.7	-48.4	23.6	6.07e-01	0	39	0	1003487232	62	5060
2026-01-21 12:41:00.64	330.35	11.30	-45.8	-48.4	23.6	6.07e-01	0	39	0	1009778688	62	5100
2026-01-21 12:41:03.70	330.63	11.03	-46.0	-48.7	23.3	6.08e-01	0	39	0	1015545856	62	5232
2026-01-21 12:41:06.54	330.88	10.78	-46.0	-48.7	23.3	6.07e-01	0	38	0	1020788736	62	5232
2026-01-21 12:41:09.67	331.15	10.51	-46.1	-48.8	23.3	6.04e-01	0	39	0	1026555904	62	5281
2026-01-21 12:41:12.53	331.40	10.26	-46.1	-48.8	23.2	6.03e-01	0	39	0	1032323072	62	5297
2026-01-21 12:41:15.63	331.66	10.00	-46.1	-48.9	23.1	6.03e-01	0	39	0	1037565952	62	5359
2026-01-21 12:41:18.67	331.91	9.74	-46.1	-48.9	23.1	6.02e-01	0	39	0	1043333120	63	5064
2026-01-21 12:41:22.28	332.20	9.44	-46.3	-49.1	22.9	6.01e-01	0	38	0	1050148864	63	5166
2026-01-21 12:41:25.12	332.43	9.20	-46.3	-49.1	22.8	6.04e-01	0	38	0	1055391744	63	5203
2026-01-21 12:41:28.31	332.68	8.94	-53.1	-73.4	3.6	7.47e-01	0	39	104	1061158912	76	40155
2026-01-21 12:41:31.15	332.89	8.71	-52.9	-74.0	3.8	7.41e-01	0	38	104	1061158912	76	43292
2026-01-21 12:41:34.32	333.13	8.46	-52.4	-74.1	3.8	7.45e-01	0	39	104	1061158912	75	46373
2026-01-21 12:41:37.21	333.35	8.23	-53.5	-74.3	3.8	7.45e-01	0	39	104	1061158912	78	39607
2026-01-21 12:41:40.41	333.58	7.98	-53.7	-74.3	3.8	7.44e-01	0	39	104	1061158912	78	39841
2026-01-21 12:41:43.25	333.79	7.76	-54.4	-74.3	3.8	7.46e-01	0	39	104	1061158912	79	37746
2026-01-21 12:41:46.37	334.01	7.51	-54.3	-74.3	3.8	7.45e-01	0	39	104	1061158912	79	37700
2026-01-21 12:41:49.25	334.21	7.29	-54.2	-74.3	3.8	7.47e-01	0	39	104	1061158912	79	37437
2026-01-21 12:41:52.55	334.43	7.04	-53.6	-74.3	3.8	7.47e-01	0	38	104	1061158912	78	39592
2026-01-21 12:41:55.39	334.62	6.83	-53.6	-74.2	3.8	7.44e-01	0	39	104	1061158912	78	39542
2026-01-21 12:41:58.51	334.83	6.60	-53.6	-74.2	3.8	7.43e-01	0	39	104	1061158912	78	39506
2026-01-21 12:42:01.35	335.02	6.38	-53.7	-74.2	3.8	7.45e-01	0	39	104	1061158912	78	39533
2026-01-21 12:42:04.47	335.22	6.16	-53.6	-74.2	3.8	7.48e-01	0	39	104	1061158912	78	39499
2026-01-21 12:42:07.31	335.40	5.95	-53.6	-74.2	3.8	7.43e-01	0	39	104	1061158912	78	39349
2026-01-21 12:42:10.43	335.59	5.72	-53.6	-74.2	3.8	7.47e-01	0	39	104	1061158912	78	39396
2026-01-21 12:42:13.27	335.77	5.52	-53.6	-74.2	3.8	7.47e-01	0	39	104	1061158912	78	39363
2026-01-21 12:42:16.39	335.95	5.30	-53.6	-74.2	3.8	7.45e-01	0	38	104	1061158912	78	39356
2026-01-21 12:42:19.23	336.12	5.10	-53.6	-74.2	3.8	7.46e-01	0	39	104	1061158912	78	39419

#Closed at: 2026-01-21 12:42:22
#Recorded file [1061 MB]: D:/Data/31040_260121_153125.dat