passes_logs/2026/01/21/T1/T1__20260121_002106_FENGYUN_3D_rec.log

#Pass ID: 20260121_002106_FENGYUN 3D
#Satellite: FENGYUN 3D
#Configuration: FENGYUN 3D
#almurnet v.1.7.20251203
#Start time: 2026-01-21 00:21:06

#Version: 2.0.20230620
#Station: T1
#Location: 37.570604 lon 55.790049 lat
#TLE: 1 43010U 17072A   26020.28933472  .00000051  00000+0  46008-4 0  9990
#TLE: 2 43010  98.9944 352.1871 0002476  99.7001 260.4455 14.19696838424006

#Time	Az	El	Level	Level2	SNR	BER	BlckErr	Temp	State	Recorded	gain1	gain2
2026-01-21 00:21:06.15	29.08	4.99	-51.5	-64.1	3.8	8.47e-01	0	40	0	0	74	15539
2026-01-21 00:21:09.13	29.33	5.16	-51.4	-64.1	3.8	8.47e-01	0	40	104	0	73	16399
2026-01-21 00:21:12.11	29.58	5.34	-51.4	-64.1	3.8	8.47e-01	0	40	104	0	73	16402
2026-01-21 00:21:15.09	29.83	5.52	-51.4	-64.1	3.8	8.47e-01	0	40	104	0	73	16341
2026-01-21 00:21:18.07	30.09	5.70	-51.4	-64.0	3.8	8.47e-01	0	40	104	0	73	16203
2026-01-21 00:21:21.04	30.35	5.88	-51.5	-63.9	3.8	8.47e-01	0	40	104	0	73	16097
2026-01-21 00:21:24.02	30.61	6.06	-51.4	-63.9	3.8	8.46e-01	0	41	104	0	73	15951
2026-01-21 00:21:27.00	30.88	6.25	-51.4	-63.8	3.8	8.47e-01	0	41	104	0	73	15881
2026-01-21 00:21:29.98	31.14	6.43	-51.4	-63.8	3.8	8.47e-01	0	41	104	0	73	15881
2026-01-21 00:21:32.96	31.42	6.61	-51.4	-63.9	3.8	8.47e-01	0	41	104	0	73	16002
2026-01-21 00:21:35.94	31.69	6.80	-51.4	-63.8	3.8	8.46e-01	0	41	104	0	73	15891
2026-01-21 00:21:38.92	31.97	6.98	-51.4	-63.7	3.8	8.47e-01	0	41	104	0	73	15635
2026-01-21 00:21:41.90	32.25	7.17	-51.4	-63.7	3.8	8.46e-01	0	41	104	0	73	15707
2026-01-21 00:21:44.87	32.54	7.36	-51.4	-63.8	3.8	8.46e-01	0	41	104	0	73	15899
2026-01-21 00:21:47.85	32.83	7.54	-51.4	-63.5	3.8	8.47e-01	0	41	104	0	73	15308
2026-01-21 00:21:50.83	33.12	7.73	-51.4	-63.6	3.8	8.46e-01	0	41	104	0	73	15496
2026-01-21 00:21:53.81	33.42	7.92	-51.4	-63.9	3.8	8.46e-01	0	41	104	0	73	16094
2026-01-21 00:21:56.79	33.72	8.11	-51.4	-64.0	3.8	8.47e-01	0	41	104	0	73	16130
2026-01-21 00:21:59.77	34.02	8.30	-51.4	-63.6	3.8	8.48e-01	0	41	104	0	73	15493
2026-01-21 00:22:02.75	34.33	8.50	-51.3	-62.8	3.8	8.47e-01	0	42	104	0	73	14189
2026-01-21 00:22:05.73	34.64	8.69	-51.1	-61.1	4.0	8.44e-01	0	42	0	0	73	11623
2026-01-21 00:22:08.71	34.96	8.88	-49.6	-55.0	7.8	1.26e-01	0	42	0	6291456	71	6444
2026-01-21 00:22:11.69	35.28	9.08	-46.4	-49.4	13.3	6.29e-05	0	42	0	22020096	64	5091
2026-01-21 00:22:14.67	35.60	9.27	-48.4	-52.4	10.4	6.75e-05	0	42	0	37748736	67	6042
2026-01-21 00:22:17.66	35.93	9.47	-42.1	-44.1	18.6	0.00e+00	0	42	0	54525952	56	4361
2026-01-21 00:22:20.65	36.26	9.67	-41.7	-43.7	18.8	0.00e+00	0	42	0	71303168	55	4401
2026-01-21 00:22:23.63	36.60	9.86	-41.7	-43.6	18.9	0.00e+00	0	42	0	88080384	55	4356
2026-01-21 00:22:26.62	36.94	10.06	-41.4	-43.3	19.2	0.00e+00	0	42	0	104857600	54	4468
2026-01-21 00:22:29.60	37.29	10.26	-41.5	-43.4	19.1	0.00e+00	0	42	0	121634816	54	4525
2026-01-21 00:22:32.59	37.64	10.46	-41.5	-43.4	19.2	0.00e+00	0	42	0	138412032	54	4508
2026-01-21 00:22:35.57	37.99	10.66	-41.5	-43.4	19.2	0.00e+00	0	42	0	155189248	54	4503
2026-01-21 00:22:38.55	38.35	10.86	-41.5	-43.4	19.2	0.00e+00	0	42	0	171966464	54	4506
2026-01-21 00:22:41.54	38.72	11.06	-41.5	-43.4	19.1	0.00e+00	0	42	0	188743680	54	4530
2026-01-21 00:22:44.52	39.09	11.27	-41.3	-43.2	19.4	0.00e+00	0	42	0	205520896	54	4402
2026-01-21 00:22:47.51	39.46	11.47	-41.0	-42.9	19.6	0.00e+00	0	42	0	222298112	54	4251
2026-01-21 00:22:50.49	39.84	11.67	-40.9	-42.7	19.8	0.00e+00	0	42	0	239075328	53	4436
2026-01-21 00:22:53.48	40.23	11.88	-41.1	-42.9	19.6	0.00e+00	0	42	0	255852544	53	4527
2026-01-21 00:22:56.46	40.62	12.08	-41.2	-43.0	19.6	0.00e+00	0	42	0	272629760	53	4570
2026-01-21 00:22:59.45	41.01	12.29	-41.1	-43.0	19.6	0.00e+00	0	42	0	289406976	53	4557
2026-01-21 00:23:02.43	41.41	12.49	-40.9	-42.7	19.8	0.00e+00	0	42	0	306184192	53	4424
2026-01-21 00:23:05.42	41.82	12.70	-40.8	-42.6	19.9	0.00e+00	0	42	0	322961408	53	4374
2026-01-21 00:23:08.41	42.23	12.91	-40.6	-42.4	20.2	0.00e+00	0	42	0	339738624	53	4247
2026-01-21 00:23:11.39	42.65	13.11	-40.5	-42.3	20.2	0.00e+00	0	42	0	356515840	52	4466
2026-01-21 00:23:14.38	43.07	13.32	-40.6	-42.4	20.2	0.00e+00	0	42	0	373293056	52	4500
2026-01-21 00:23:17.36	43.50	13.53	-40.8	-42.6	20.0	0.00e+00	0	42	0	390070272	52	4607
2026-01-21 00:23:20.34	43.94	13.74	-40.5	-42.3	20.2	0.00e+00	0	42	0	406847488	52	4487
2026-01-21 00:23:23.33	44.38	13.95	-40.5	-42.3	20.2	0.00e+00	0	42	0	423624704	52	4476
2026-01-21 00:23:26.32	44.83	14.16	-40.4	-42.2	20.3	0.00e+00	0	42	0	440401920	52	4420
2026-01-21 00:23:29.30	45.28	14.37	-40.4	-42.2	20.3	0.00e+00	0	42	0	457179136	52	4433
2026-01-21 00:23:32.29	45.74	14.58	-40.6	-42.4	20.2	0.00e+00	0	42	0	473956352	52	4500
2026-01-21 00:23:35.28	46.20	14.79	-40.3	-42.0	20.5	0.00e+00	0	42	0	490733568	52	4335
2026-01-21 00:23:38.26	46.68	15.00	-40.0	-41.8	20.7	0.00e+00	0	42	0	507510784	52	4214
2026-01-21 00:23:41.24	47.15	15.21	-40.1	-41.8	20.7	0.00e+00	0	42	0	524288000	52	4227
2026-01-21 00:23:44.23	47.64	15.42	-40.2	-42.0	20.6	0.00e+00	0	42	0	541065216	52	4296
2026-01-21 00:23:47.21	48.13	15.62	-40.0	-41.7	20.8	0.00e+00	0	42	0	557842432	52	4184
2026-01-21 00:23:50.19	48.63	15.83	-40.0	-41.8	20.7	0.00e+00	0	42	0	574619648	52	4212
2026-01-21 00:23:53.18	49.14	16.04	-40.1	-41.8	20.8	0.00e+00	0	42	0	591396864	51	4473
2026-01-21 00:23:56.16	49.65	16.25	-39.9	-41.6	21.0	0.00e+00	0	42	0	608174080	51	4386
2026-01-21 00:23:59.14	50.17	16.46	-39.9	-41.6	20.9	0.00e+00	0	42	0	624951296	51	4378
2026-01-21 00:24:02.12	50.69	16.67	-40.1	-41.8	20.8	0.00e+00	0	42	0	641728512	51	4481
2026-01-21 00:24:05.11	51.23	16.88	-39.8	-41.6	21.0	0.00e+00	0	42	0	659554304	51	4343
2026-01-21 00:24:08.09	51.77	17.08	-39.7	-41.4	21.1	0.00e+00	0	42	0	675282944	51	4284
2026-01-21 00:24:11.08	52.32	17.29	-39.6	-41.3	21.3	0.00e+00	0	42	0	692060160	51	4221
2026-01-21 00:24:14.06	52.87	17.49	-39.7	-41.4	21.2	0.00e+00	0	42	0	709885952	51	4261
2026-01-21 00:24:17.05	53.43	17.70	-39.7	-41.4	21.2	0.00e+00	0	42	0	725614592	51	4278
2026-01-21 00:24:20.03	54.00	17.90	-39.7	-41.4	21.2	0.00e+00	0	42	0	742391808	51	4266
2026-01-21 00:24:23.02	54.58	18.10	-39.7	-41.5	21.2	0.00e+00	0	42	0	760217600	51	4292
2026-01-21 00:24:26.00	55.17	18.31	-39.6	-41.3	21.2	0.00e+00	0	42	0	775946240	51	4242
2026-01-21 00:24:28.98	55.76	18.51	-39.5	-41.2	21.3	0.00e+00	0	42	0	792723456	51	4180
2026-01-21 00:24:31.97	56.36	18.70	-39.5	-41.2	21.3	0.00e+00	0	42	0	810549248	51	4191
2026-01-21 00:24:34.96	56.97	18.90	-39.5	-41.2	21.3	0.00e+00	0	42	0	827326464	50	4425
2026-01-21 00:24:37.94	57.59	19.10	-39.5	-41.2	21.4	0.00e+00	0	42	0	843055104	50	4412
2026-01-21 00:24:40.93	58.21	19.29	-39.1	-40.8	21.7	0.00e+00	0	42	0	860880896	50	4223
2026-01-21 00:24:43.91	58.84	19.48	-39.3	-41.0	21.5	0.00e+00	0	42	0	877658112	50	4330
2026-01-21 00:24:46.89	59.48	19.67	-39.6	-41.3	21.3	0.00e+00	0	42	0	893386752	50	4461
2026-01-21 00:24:49.88	60.13	19.86	-39.3	-41.0	21.6	0.00e+00	0	42	0	911212544	50	4301
2026-01-21 00:24:52.86	60.78	20.05	-39.1	-40.8	21.3	0.00e+00	0	42	0	927989760	50	4242
2026-01-21 00:24:55.85	61.45	20.23	-39.1	-40.9	21.3	0.00e+00	0	42	0	943718400	50	4254
2026-01-21 00:24:58.83	62.12	20.41	-39.0	-40.8	21.3	0.00e+00	0	42	0	961544192	50	4200
2026-01-21 00:25:01.81	62.80	20.59	-38.8	-40.6	21.5	0.00e+00	0	42	0	978321408	49	4361
2026-01-21 00:25:04.80	63.48	20.77	-38.5	-40.3	21.7	0.00e+00	0	42	0	994050048	49	4214
2026-01-21 00:25:07.78	64.18	20.94	-38.7	-40.4	21.6	0.00e+00	0	42	0	1011875840	49	4291
2026-01-21 00:25:10.77	64.88	21.11	-38.7	-40.5	21.6	0.00e+00	0	42	0	1028653056	49	4322
2026-01-21 00:25:13.76	65.59	21.28	-38.5	-40.3	21.7	0.00e+00	0	42	0	1045430272	49	4202
2026-01-21 00:25:16.74	66.31	21.44	-38.5	-40.2	21.8	0.00e+00	0	42	0	1062207488	49	4189
2026-01-21 00:25:19.72	67.03	21.60	-38.7	-40.5	21.6	0.00e+00	0	42	0	1078984704	48	4556
2026-01-21 00:25:22.71	67.76	21.75	-38.7	-40.5	21.5	0.00e+00	0	42	0	1095761920	48	4575
2026-01-21 00:25:25.69	68.50	21.91	-38.5	-40.2	21.8	0.00e+00	0	42	0	1112539136	48	4434
2026-01-21 00:25:28.67	69.25	22.06	-38.6	-40.3	21.7	0.00e+00	0	42	0	1129316352	48	4488
2026-01-21 00:25:31.66	70.00	22.20	-38.7	-40.5	21.6	0.00e+00	0	42	0	1146093568	48	4554
2026-01-21 00:25:34.64	70.76	22.34	-38.5	-40.3	21.7	0.00e+00	0	42	0	1162870784	48	4470
2026-01-21 00:25:37.62	71.52	22.48	-38.4	-40.2	21.8	0.00e+00	0	42	0	1179648000	48	4417
2026-01-21 00:25:40.61	72.30	22.61	-38.2	-40.0	22.0	0.00e+00	0	42	0	1196425216	48	4303
2026-01-21 00:25:43.60	73.08	22.73	-38.3	-40.1	21.9	0.00e+00	0	42	0	1213202432	48	4351
2026-01-21 00:25:46.58	73.86	22.86	-38.3	-40.0	22.0	0.00e+00	0	42	0	1229979648	48	4315
2026-01-21 00:25:49.57	74.66	22.97	-38.5	-40.3	21.8	0.00e+00	0	42	0	1246756864	48	4444
2026-01-21 00:25:52.56	75.46	23.08	-38.4	-40.2	21.8	0.00e+00	0	42	0	1263534080	48	4415
2026-01-21 00:25:55.54	76.26	23.19	-38.2	-40.0	22.0	0.00e+00	0	42	0	1280311296	48	4306
2026-01-21 00:25:58.52	77.06	23.29	-38.1	-39.8	22.1	0.00e+00	0	42	0	1297088512	48	4240
2026-01-21 00:26:01.51	77.88	23.39	-38.2	-39.9	22.1	0.00e+00	0	42	0	1313865728	48	4271
2026-01-21 00:26:04.49	78.70	23.48	-38.0	-39.7	22.2	0.00e+00	0	42	0	1330642944	48	4185
2026-01-21 00:26:07.48	79.52	23.56	-38.2	-40.0	22.0	0.00e+00	0	42	0	1347420160	48	4293
2026-01-21 00:26:10.46	80.34	23.64	-38.1	-39.8	22.2	0.00e+00	0	42	0	1364197376	48	4205
2026-01-21 00:26:13.44	81.17	23.71	-38.2	-40.0	22.0	0.00e+00	0	42	0	1380974592	48	4312
2026-01-21 00:26:16.42	82.01	23.78	-38.3	-40.1	21.9	0.00e+00	0	42	0	1397751808	48	4365
2026-01-21 00:26:19.41	82.85	23.84	-38.2	-40.0	22.0	0.00e+00	0	42	0	1414529024	48	4309
2026-01-21 00:26:22.39	83.69	23.89	-38.2	-40.0	22.0	0.00e+00	0	42	0	1431306240	48	4304
2026-01-21 00:26:25.38	84.53	23.94	-38.1	-39.9	22.1	0.00e+00	0	42	0	1448083456	48	4270
2026-01-21 00:26:28.36	85.38	23.98	-37.8	-39.6	22.0	0.00e+00	0	42	0	1464860672	47	4345
2026-01-21 00:26:31.35	86.23	24.02	-38.0	-39.7	21.9	0.00e+00	0	42	0	1481637888	47	4437
2026-01-21 00:26:34.33	87.08	24.05	-37.9	-39.7	21.9	0.00e+00	0	42	0	1498415104	47	4414
2026-01-21 00:26:37.31	87.93	24.07	-38.1	-39.9	21.8	0.00e+00	0	42	0	1515192320	47	4501
2026-01-21 00:26:40.30	88.78	24.09	-38.0	-39.8	21.9	0.00e+00	0	42	0	1531969536	47	4443
2026-01-21 00:26:43.28	89.63	24.10	-38.1	-39.8	21.8	0.00e+00	0	42	0	1548746752	47	4488
2026-01-21 00:26:46.27	90.49	24.10	-38.0	-39.7	21.9	0.00e+00	0	42	0	1565523968	47	4436
2026-01-21 00:26:49.25	91.34	24.10	-37.9	-39.7	22.0	0.00e+00	0	42	0	1582301184	47	4399
2026-01-21 00:26:52.23	92.19	24.09	-38.0	-39.7	21.9	0.00e+00	0	42	0	1599078400	47	4439
2026-01-21 00:26:55.22	93.05	24.07	-38.0	-39.8	21.9	0.00e+00	0	42	0	1615855616	47	4447
2026-01-21 00:26:58.20	93.90	24.05	-38.2	-39.9	21.7	0.00e+00	0	42	0	1632632832	47	4537
2026-01-21 00:27:01.19	94.75	24.02	-38.0	-39.7	21.9	0.00e+00	0	42	0	1649410048	47	4411
2026-01-21 00:27:04.17	95.60	23.98	-38.1	-39.8	21.8	0.00e+00	0	42	0	1666187264	47	4492
2026-01-21 00:27:07.15	96.44	23.94	-37.9	-39.6	22.0	0.00e+00	0	42	0	1682964480	47	4388
2026-01-21 00:27:10.14	97.29	23.89	-38.0	-39.8	21.9	0.00e+00	0	42	0	1699741696	47	4459
2026-01-21 00:27:13.12	98.13	23.84	-38.2	-40.0	21.7	0.00e+00	0	42	0	1716518912	47	4548
2026-01-21 00:27:16.10	98.97	23.77	-38.0	-39.7	21.9	0.00e+00	0	42	0	1733296128	47	4428
2026-01-21 00:27:19.09	99.81	23.71	-38.1	-39.8	21.8	0.00e+00	0	42	0	1750073344	47	4472
2026-01-21 00:27:22.07	100.64	23.63	-38.2	-40.0	21.7	0.00e+00	0	42	0	1766850560	47	4567
2026-01-21 00:27:25.06	101.47	23.55	-38.4	-40.1	21.6	0.00e+00	0	42	0	1783627776	47	4647
2026-01-21 00:27:28.04	102.29	23.47	-38.3	-40.1	21.6	0.00e+00	0	42	0	1800404992	47	4630
2026-01-21 00:27:31.03	103.11	23.38	-38.1	-39.9	21.8	0.00e+00	0	42	0	1817182208	47	4503
2026-01-21 00:27:34.01	103.92	23.28	-38.2	-40.0	21.7	0.00e+00	0	42	0	1833959424	47	4556
2026-01-21 00:27:37.00	104.73	23.18	-38.2	-40.0	21.7	0.00e+00	0	42	0	1850736640	47	4546
2026-01-21 00:27:39.98	105.54	23.07	-38.3	-40.1	21.6	0.00e+00	0	42	0	1867513856	47	4607
2026-01-21 00:27:42.97	106.34	22.96	-38.4	-40.1	21.6	0.00e+00	0	42	0	1884291072	47	4645
2026-01-21 00:27:45.95	107.13	22.84	-38.4	-40.2	21.6	0.00e+00	0	42	0	1901068288	47	4662
2026-01-21 00:27:48.93	107.92	22.72	-38.4	-40.2	21.5	0.00e+00	0	42	0	1917845504	47	4656
2026-01-21 00:27:51.92	108.70	22.59	-38.6	-40.4	21.3	0.00e+00	0	42	0	1934622720	47	4777
2026-01-21 00:27:54.90	109.47	22.46	-38.5	-40.3	21.4	0.00e+00	0	42	0	1951399936	47	4756
2026-01-21 00:27:57.88	110.24	22.32	-38.5	-40.3	21.4	0.00e+00	0	42	0	1968177152	47	4728
2026-01-21 00:28:00.87	111.00	22.18	-38.5	-40.4	21.4	0.00e+00	0	42	0	1984954368	47	4763
2026-01-21 00:28:03.85	111.76	22.04	-38.6	-40.4	21.3	0.00e+00	0	42	0	2001731584	47	4806
2026-01-21 00:28:06.84	112.51	21.89	-38.8	-40.6	21.5	0.00e+00	0	42	0	2018508800	48	4602
2026-01-21 00:28:09.82	113.25	21.73	-38.8	-40.6	21.4	0.00e+00	0	42	0	2035286016	48	4644
2026-01-21 00:28:12.80	113.98	21.58	-38.9	-40.7	21.4	0.00e+00	0	42	0	2052063232	48	4660
2026-01-21 00:28:15.79	114.71	21.42	-39.0	-40.9	21.2	0.00e+00	0	42	0	2068840448	48	4763
2026-01-21 00:28:18.77	115.42	21.25	-38.9	-40.7	21.4	0.00e+00	0	42	0	2085617664	48	4665
2026-01-21 00:28:21.76	116.14	21.08	-38.6	-40.3	21.7	0.00e+00	0	42	0	2102394880	48	4480
2026-01-21 00:28:24.74	116.84	20.91	-39.0	-40.8	21.3	0.00e+00	0	42	0	2119172096	48	4724
2026-01-21 00:28:27.73	117.54	20.74	-39.2	-41.0	21.1	0.00e+00	0	42	0	2135949312	48	4833
2026-01-21 00:28:30.72	118.23	20.56	-39.0	-40.8	21.3	0.00e+00	0	42	0	2152726528	49	4464
2026-01-21 00:28:33.70	118.91	20.38	-39.2	-41.1	21.0	0.00e+00	0	42	0	2169503744	49	4599
2026-01-21 00:28:36.68	119.58	20.20	-39.1	-40.9	21.2	0.00e+00	0	42	0	2186280960	49	4508
2026-01-21 00:28:39.67	120.24	20.01	-39.1	-40.9	21.2	0.00e+00	0	42	0	2203058176	49	4538
2026-01-21 00:28:42.65	120.90	19.83	-39.2	-41.0	21.1	0.00e+00	0	42	0	2219835392	49	4558
2026-01-21 00:28:45.64	121.55	19.64	-39.1	-40.9	21.2	0.00e+00	0	42	0	2236612608	49	4506
2026-01-21 00:28:48.62	122.19	19.44	-39.4	-41.3	20.8	0.00e+00	0	42	0	2253389824	49	4726
2026-01-21 00:28:51.61	122.83	19.25	-39.5	-41.3	20.8	0.00e+00	0	42	0	2270167040	49	4744
2026-01-21 00:28:54.59	123.45	19.05	-39.6	-41.4	20.8	0.00e+00	0	42	0	2286944256	49	4780
2026-01-21 00:28:57.58	124.07	18.86	-39.7	-41.6	20.6	0.00e+00	0	42	0	2303721472	50	4614
2026-01-21 00:29:00.56	124.68	18.66	-39.7	-41.6	20.5	0.00e+00	0	42	0	2320498688	50	4623
2026-01-21 00:29:03.55	125.28	18.46	-39.8	-41.7	20.5	0.00e+00	0	42	0	2337275904	50	4665
2026-01-21 00:29:06.53	125.88	18.25	-39.7	-41.5	20.6	0.00e+00	0	42	0	2354053120	50	4586
2026-01-21 00:29:09.52	126.47	18.05	-39.6	-41.4	20.8	0.00e+00	0	42	0	2370830336	50	4516
2026-01-21 00:29:12.50	127.05	17.85	-39.5	-41.3	20.9	0.00e+00	0	42	0	2387607552	50	4470
2026-01-21 00:29:15.49	127.62	17.64	-39.8	-41.6	20.6	0.00e+00	0	42	0	2404384768	50	4625
2026-01-21 00:29:18.47	128.18	17.44	-40.2	-42.1	20.2	0.00e+00	0	42	0	2421161984	50	4898
2026-01-21 00:29:21.45	128.74	17.23	-40.1	-42.0	20.2	0.00e+00	0	42	0	2437939200	51	4586
2026-01-21 00:29:24.43	129.29	17.02	-40.0	-41.8	20.4	0.00e+00	0	42	0	2454716416	51	4467
2026-01-21 00:29:27.42	129.83	16.81	-40.2	-42.1	20.2	0.00e+00	0	42	0	2471493632	51	4617
2026-01-21 00:29:30.40	130.36	16.60	-40.1	-42.0	20.2	0.00e+00	0	42	0	2488270848	51	4560
2026-01-21 00:29:33.38	130.89	16.39	-40.2	-42.1	20.1	0.00e+00	0	42	0	2505048064	51	4637
2026-01-21 00:29:36.37	131.41	16.18	-40.2	-42.1	20.2	0.00e+00	0	42	0	2521825280	51	4610
2026-01-21 00:29:39.36	131.93	15.97	-40.3	-42.2	20.1	0.00e+00	0	42	0	2539651072	51	4657
2026-01-21 00:29:42.34	132.43	15.76	-40.3	-42.2	20.1	0.00e+00	0	42	0	2555379712	51	4661
2026-01-21 00:29:45.33	132.93	15.55	-40.3	-42.2	20.0	0.00e+00	0	42	0	2572156928	51	4698
2026-01-21 00:29:48.32	133.43	15.34	-40.2	-42.1	20.1	0.00e+00	0	42	0	2589982720	51	4620
2026-01-21 00:29:51.30	133.91	15.12	-40.2	-42.1	20.2	0.00e+00	0	42	0	2605711360	51	4603
2026-01-21 00:29:54.28	134.39	14.91	-40.4	-42.3	20.0	0.00e+00	0	42	0	2622488576	51	4732
2026-01-21 00:29:57.26	134.86	14.70	-40.6	-42.5	19.8	0.00e+00	0	42	0	2640314368	51	4837
2026-01-21 00:30:00.25	135.33	14.49	-40.6	-42.5	19.8	0.00e+00	0	42	0	2656043008	51	4844
2026-01-21 00:30:03.23	135.79	14.28	-40.5	-42.4	19.9	0.00e+00	0	42	0	2672820224	51	4800
2026-01-21 00:30:06.22	136.24	14.07	-40.6	-42.5	19.7	0.00e+00	0	42	0	2690646016	52	4588
2026-01-21 00:30:09.21	136.69	13.86	-40.8	-42.7	19.6	0.00e+00	0	42	0	2707423232	52	4665
2026-01-21 00:30:12.19	137.13	13.65	-40.7	-42.7	19.6	0.00e+00	0	42	0	2724200448	52	4653
2026-01-21 00:30:15.18	137.57	13.43	-40.8	-42.7	19.5	0.00e+00	0	42	0	2740977664	52	4701
2026-01-21 00:30:18.16	138.00	13.22	-40.8	-42.8	19.5	0.00e+00	0	42	0	2757754880	52	4719
2026-01-21 00:30:21.14	138.42	13.01	-40.9	-42.8	19.4	0.00e+00	0	41	0	2774532096	52	4749
2026-01-21 00:30:24.13	138.84	12.81	-41.0	-42.9	19.3	0.00e+00	0	42	0	2791309312	52	4812
2026-01-21 00:30:27.12	139.25	12.60	-41.1	-43.1	19.1	0.00e+00	0	41	0	2808086528	52	4877
2026-01-21 00:30:30.10	139.66	12.39	-41.2	-43.1	19.1	0.00e+00	0	42	0	2824863744	53	4631
2026-01-21 00:30:33.08	140.06	12.18	-41.2	-43.2	19.1	0.00e+00	0	42	0	2841640960	53	4652
2026-01-21 00:30:36.07	140.45	11.97	-41.2	-43.2	19.1	0.00e+00	0	42	0	2858418176	53	4661
2026-01-21 00:30:39.05	140.84	11.77	-41.2	-43.2	19.1	0.00e+00	0	42	0	2875195392	53	4659
2026-01-21 00:30:42.04	141.23	11.56	-41.3	-43.3	19.0	0.00e+00	0	42	0	2891972608	53	4727
2026-01-21 00:30:45.02	141.61	11.35	-41.3	-43.2	19.0	0.00e+00	0	42	0	2908749824	53	4681
2026-01-21 00:30:48.00	141.98	11.15	-41.3	-43.2	19.0	0.00e+00	0	42	0	2925527040	53	4686
2026-01-21 00:30:50.99	142.35	10.94	-41.5	-43.4	18.8	0.00e+00	0	42	0	2942304256	53	4814
2026-01-21 00:30:53.97	142.71	10.74	-41.4	-43.4	18.8	0.00e+00	0	42	0	2959081472	53	4810
2026-01-21 00:30:56.96	143.07	10.54	-41.6	-43.6	18.5	0.00e+00	0	42	0	2975858688	53	4912
2026-01-21 00:30:59.94	143.43	10.34	-41.7	-43.7	18.6	0.00e+00	0	42	0	2992635904	54	4667
2026-01-21 00:31:02.92	143.78	10.13	-41.7	-43.7	18.5	0.00e+00	0	42	0	3009413120	54	4695
2026-01-21 00:31:05.91	144.12	9.93	-41.7	-43.7	18.5	0.00e+00	0	42	0	3026190336	54	4698
2026-01-21 00:31:08.89	144.46	9.73	-41.9	-44.0	18.2	0.00e+00	0	42	0	3042967552	54	4831
2026-01-21 00:31:11.87	144.80	9.53	-42.1	-44.2	18.0	0.00e+00	0	42	0	3059744768	54	4957
2026-01-21 00:31:14.86	145.13	9.33	-42.2	-44.3	18.0	0.00e+00	0	42	0	3076521984	55	4728
2026-01-21 00:31:17.84	145.46	9.14	-42.2	-44.3	17.9	0.00e+00	0	42	0	3093299200	55	4745
2026-01-21 00:31:20.82	145.78	8.94	-52.1	-64.1	3.8	8.48e-01	0	42	104	3104833536	74	15495
2026-01-21 00:31:23.80	146.10	8.74	-52.4	-64.5	3.8	8.46e-01	0	42	104	3104833536	75	15266
2026-01-21 00:31:26.78	146.42	8.55	-52.1	-64.6	3.8	8.47e-01	0	41	104	3104833536	75	15492
2026-01-21 00:31:29.76	146.73	8.35	-52.5	-64.7	3.8	8.47e-01	0	42	104	3104833536	75	15608
2026-01-21 00:31:32.74	147.03	8.16	-52.6	-64.8	3.8	8.47e-01	0	42	104	3104833536	75	15768
2026-01-21 00:31:35.71	147.34	7.97	-52.3	-64.8	3.8	8.47e-01	0	42	104	3104833536	75	15829
2026-01-21 00:31:38.69	147.63	7.78	-52.4	-64.8	3.8	8.47e-01	0	42	104	3104833536	76	15022
2026-01-21 00:31:41.67	147.93	7.58	-52.4	-64.7	3.8	8.48e-01	0	42	104	3104833536	76	14871
2026-01-21 00:31:44.65	148.22	7.39	-52.4	-64.7	3.8	8.47e-01	0	42	104	3104833536	76	14851
2026-01-21 00:31:47.63	148.51	7.20	-52.4	-64.8	3.8	8.47e-01	0	42	104	3104833536	76	14902
2026-01-21 00:31:50.61	148.79	7.02	-52.4	-64.7	3.8	8.48e-01	0	42	104	3104833536	76	14815
2026-01-21 00:31:53.59	149.07	6.83	-52.4	-64.8	3.8	8.47e-01	0	42	104	3104833536	76	14880
2026-01-21 00:31:56.57	149.35	6.64	-52.4	-64.7	3.8	8.47e-01	0	42	104	3104833536	76	14804
2026-01-21 00:31:59.55	149.62	6.45	-52.4	-64.7	3.8	8.47e-01	0	42	104	3104833536	76	14794
2026-01-21 00:32:02.53	149.90	6.27	-52.4	-64.7	3.8	8.46e-01	0	42	104	3104833536	76	14879
2026-01-21 00:32:05.51	150.16	6.08	-52.4	-64.7	3.8	8.45e-01	0	42	104	3104833536	76	14767
2026-01-21 00:32:08.49	150.43	5.90	-52.4	-64.7	3.8	8.47e-01	0	42	104	3104833536	76	14772
2026-01-21 00:32:11.47	150.69	5.72	-52.4	-64.7	3.8	8.47e-01	0	42	104	3104833536	76	14751
2026-01-21 00:32:14.44	150.94	5.53	-52.4	-64.7	3.8	8.46e-01	0	42	104	3104833536	76	14788
2026-01-21 00:32:17.42	151.20	5.35	-52.4	-64.7	3.8	8.47e-01	0	42	104	3104833536	76	14804
2026-01-21 00:32:20.40	151.45	5.17	-52.4	-64.7	3.8	8.47e-01	0	41	104	3104833536	76	14798
2026-01-21 00:32:23.38	151.70	4.99	-52.4	-64.7	3.8	8.47e-01	0	42	104	3104833536	76	14776

#Closed at: 2026-01-21 00:32:24
#Recorded file [3104 MB]: D:/Data/31040_260121_032106.dat