passes_logs/2026/01/21/T1/T1__20260121_151608_FENGYUN_3E_rec.log

#Pass ID: 20260121_151608_FENGYUN 3E
#Satellite: FENGYUN 3E
#Configuration: FENGYUN 3E
#almurnet v.1.7.20251203
#Start time: 2026-01-21 15:16:09

#Version: 2.0.20230620
#Station: T1
#Location: 37.570604 lon 55.790049 lat
#TLE: 1 49008U 21062A   26020.99547197  .00000101  00000+0  68509-4 0  9996
#TLE: 2 49008  98.7483  26.0531 0002292 127.4634 232.6751 14.19886023235694

#Time	Az	El	Level	Level2	SNR	BER	BlckErr	Temp	State	Recorded	gain1	gain2
2026-01-21 15:16:09.39	194.35	5.10	-51.7	-62.9	3.8	8.47e-01	0	36	0	0	74	12604
2026-01-21 15:16:12.37	194.53	5.29	-51.7	-62.9	3.8	8.46e-01	0	36	104	0	74	12550
2026-01-21 15:16:15.35	194.71	5.49	-51.7	-62.7	3.8	8.47e-01	0	36	104	0	74	12241
2026-01-21 15:16:18.33	194.90	5.69	-51.6	-62.1	3.8	8.46e-01	0	37	104	0	74	11508
2026-01-21 15:16:21.31	195.09	5.90	-51.6	-62.0	3.8	8.46e-01	0	37	104	0	74	11343
2026-01-21 15:16:24.29	195.28	6.10	-51.6	-62.2	3.8	8.46e-01	0	37	104	0	74	11682
2026-01-21 15:16:27.26	195.47	6.30	-51.6	-61.9	3.8	8.46e-01	0	37	104	0	73	11869
2026-01-21 15:16:30.24	195.67	6.51	-51.5	-61.7	3.8	8.46e-01	0	37	104	0	73	11601
2026-01-21 15:16:33.22	195.87	6.72	-51.6	-62.1	3.8	8.48e-01	0	37	104	0	73	12122
2026-01-21 15:16:36.20	196.07	6.92	-51.6	-62.6	3.8	8.48e-01	0	37	104	0	73	12954
2026-01-21 15:16:39.18	196.27	7.13	-51.5	-61.8	3.8	8.46e-01	0	37	104	0	73	11733
2026-01-21 15:16:42.16	196.48	7.35	-51.2	-60.0	4.1	8.42e-01	0	38	0	0	73	9534
2026-01-21 15:16:45.14	196.69	7.56	-51.6	-62.7	3.8	8.47e-01	0	37	104	0	73	13034
2026-01-21 15:16:48.12	196.90	7.77	-49.8	-54.6	7.1	2.21e-01	0	37	0	3145728	70	6084
2026-01-21 15:16:51.10	197.12	7.99	-45.4	-47.6	14.1	6.80e-06	0	38	0	25165824	61	4547
2026-01-21 15:16:54.08	197.34	8.21	-42.4	-44.0	17.2	0.00e+00	0	38	0	46137344	55	4277
2026-01-21 15:16:57.06	197.56	8.42	-42.3	-43.9	17.2	0.00e+00	0	38	0	68157440	54	4486
2026-01-21 15:17:00.04	197.79	8.65	-44.2	-46.1	15.4	0.00e+00	0	38	0	89128960	57	4821
2026-01-21 15:17:03.01	198.01	8.87	-47.2	-50.1	11.5	3.95e-04	0	38	0	111149056	64	5123
2026-01-21 15:17:05.99	198.25	9.09	-44.8	-46.9	14.8	0.00e+00	0	38	0	132120576	60	4461
2026-01-21 15:17:08.98	198.48	9.32	-50.1	-55.3	6.5	2.49e-01	0	38	0	150994944	70	6620
2026-01-21 15:17:11.97	198.72	9.54	-44.1	-45.9	15.7	0.00e+00	0	38	0	171966464	58	4480
2026-01-21 15:17:14.95	198.97	9.77	-43.8	-45.5	16.0	0.00e+00	0	38	0	193986560	58	4276
2026-01-21 15:17:17.94	199.21	10.00	-42.9	-44.6	16.9	0.00e+00	0	38	0	214958080	56	4294
2026-01-21 15:17:20.92	199.46	10.24	-42.4	-44.0	17.3	0.00e+00	0	38	0	236978176	55	4266
2026-01-21 15:17:23.95	199.72	10.47	-41.9	-43.4	17.8	0.00e+00	0	38	0	258998272	54	4223
2026-01-21 15:17:26.94	199.98	10.71	-41.9	-43.4	17.8	0.00e+00	0	38	0	279969792	54	4224
2026-01-21 15:17:29.92	200.25	10.95	-41.7	-43.2	18.0	0.00e+00	0	38	0	301989888	53	4383
2026-01-21 15:17:32.90	200.51	11.19	-41.7	-43.2	18.0	0.00e+00	0	38	0	324009984	53	4370
2026-01-21 15:17:35.89	200.78	11.43	-41.9	-43.4	17.9	0.00e+00	0	38	0	344981504	53	4450
2026-01-21 15:17:38.88	201.06	11.67	-41.9	-43.4	17.9	0.00e+00	0	38	0	367001600	53	4461
2026-01-21 15:17:41.94	201.35	11.92	-42.1	-43.6	17.7	0.00e+00	0	38	0	389021696	53	4553
2026-01-21 15:17:44.78	201.62	12.16	-41.8	-43.3	18.0	0.00e+00	0	38	0	408944640	53	4404
2026-01-21 15:17:47.91	201.92	12.42	-41.2	-42.6	18.6	0.00e+00	0	38	0	432013312	53	4060
2026-01-21 15:17:50.82	202.21	12.66	-41.1	-42.5	18.7	0.00e+00	0	38	0	452984832	52	4267
2026-01-21 15:17:54.00	202.53	12.93	-40.7	-42.0	19.2	0.00e+00	0	39	0	476053504	52	4034
2026-01-21 15:17:56.96	202.83	13.18	-40.6	-42.0	19.3	0.00e+00	0	38	0	497025024	51	4245
2026-01-21 15:18:00.09	203.15	13.45	-40.6	-41.9	19.3	0.00e+00	0	39	0	520093696	51	4232
2026-01-21 15:18:03.04	203.46	13.71	-40.4	-41.7	19.6	0.00e+00	0	39	0	541065216	51	4121
2026-01-21 15:18:06.02	203.78	13.97	-40.6	-41.9	19.5	0.00e+00	0	39	0	563085312	51	4200
2026-01-21 15:18:08.99	204.11	14.23	-40.5	-41.8	19.5	0.00e+00	0	39	0	584056832	51	4180
2026-01-21 15:18:11.97	204.44	14.49	-40.4	-41.7	19.6	0.00e+00	0	39	0	605028352	51	4140
2026-01-21 15:18:14.96	204.77	14.76	-40.4	-41.7	19.6	0.00e+00	0	38	0	627048448	51	4126
2026-01-21 15:18:18.00	205.12	15.04	-40.0	-41.3	20.0	0.00e+00	0	38	0	649068544	50	4178
2026-01-21 15:18:20.94	205.47	15.30	-40.2	-41.5	19.8	0.00e+00	0	38	0	670040064	50	4273
2026-01-21 15:18:23.92	205.82	15.57	-40.2	-41.6	19.8	0.00e+00	0	39	0	692060160	50	4302
2026-01-21 15:18:26.90	206.18	15.85	-40.0	-41.4	19.9	0.00e+00	0	38	0	713031680	50	4206
2026-01-21 15:18:29.90	206.55	16.13	-39.9	-41.3	19.9	0.00e+00	0	38	0	735051776	50	4176
2026-01-21 15:18:32.95	206.93	16.41	-39.8	-41.2	20.1	0.00e+00	0	39	0	757071872	50	4110
2026-01-21 15:18:35.93	207.32	16.69	-39.7	-41.1	20.1	0.00e+00	0	39	0	779091968	50	4057
2026-01-21 15:18:38.91	207.70	16.98	-39.5	-40.9	20.2	0.00e+00	0	39	0	800063488	49	4231
2026-01-21 15:18:41.90	208.10	17.26	-39.6	-41.0	20.2	0.00e+00	0	39	0	822083584	49	4244
2026-01-21 15:18:44.88	208.50	17.55	-39.5	-40.8	20.3	0.00e+00	0	39	0	843055104	49	4175
2026-01-21 15:18:47.93	208.92	17.84	-39.1	-40.4	20.6	0.00e+00	0	39	0	865075200	49	3965
2026-01-21 15:18:50.91	209.34	18.13	-39.2	-40.5	20.5	0.00e+00	0	39	0	887095296	49	4022
2026-01-21 15:18:53.90	209.77	18.43	-39.3	-40.6	20.5	0.00e+00	0	39	0	908066816	49	4053
2026-01-21 15:18:56.89	210.20	18.72	-39.3	-40.6	20.5	0.00e+00	0	39	0	930086912	49	4059
2026-01-21 15:18:59.87	210.64	19.02	-39.3	-40.5	20.5	0.00e+00	0	39	0	951058432	49	4048
2026-01-21 15:19:02.85	211.09	19.32	-39.1	-40.4	20.7	0.00e+00	0	39	0	973078528	48	4203
2026-01-21 15:19:05.84	211.56	19.62	-38.9	-40.2	20.9	0.00e+00	0	39	0	995098624	48	4119
2026-01-21 15:19:08.82	212.02	19.92	-38.8	-40.0	21.0	0.00e+00	0	39	0	1016070144	48	4049
2026-01-21 15:19:11.80	212.50	20.23	-38.7	-39.9	21.1	0.00e+00	0	39	0	1038090240	48	3999
2026-01-21 15:19:14.81	212.99	20.53	-38.8	-40.0	21.0	0.00e+00	0	39	0	1059061760	48	4049
2026-01-21 15:19:17.91	213.51	20.85	-38.8	-40.1	21.0	0.00e+00	0	39	0	1082130432	48	4055
2026-01-21 15:19:20.79	214.00	21.15	-38.8	-40.1	21.0	0.00e+00	0	39	0	1102053376	48	4074
2026-01-21 15:19:24.06	214.56	21.49	-38.8	-40.0	21.0	0.00e+00	0	39	0	1126170624	48	4051
2026-01-21 15:19:26.86	215.06	21.79	-38.7	-40.0	21.0	0.00e+00	0	39	0	1146093568	48	4041
2026-01-21 15:19:29.99	215.62	22.12	-38.7	-39.9	21.1	0.00e+00	0	39	0	1169162240	48	4004
2026-01-21 15:19:32.83	216.15	22.42	-38.4	-39.7	20.9	0.00e+00	0	39	0	1189085184	47	4105
2026-01-21 15:19:36.05	216.75	22.76	-38.3	-39.6	21.0	0.00e+00	0	39	0	1212153856	47	4053
2026-01-21 15:19:38.90	217.30	23.06	-38.1	-39.4	21.2	0.00e+00	0	39	0	1233125376	47	3969
2026-01-21 15:19:41.96	217.89	23.39	-38.0	-39.3	21.2	0.00e+00	0	39	0	1255145472	46	4180
2026-01-21 15:19:44.94	218.49	23.71	-37.9	-39.2	21.3	0.00e+00	0	39	0	1277165568	46	4101
2026-01-21 15:19:47.92	219.09	24.03	-38.1	-39.4	21.2	0.00e+00	0	39	0	1298137088	46	4219
2026-01-21 15:19:50.91	219.71	24.35	-38.1	-39.4	21.1	0.00e+00	0	39	0	1320157184	46	4223
2026-01-21 15:19:53.94	220.35	24.68	-38.0	-39.3	21.3	0.00e+00	0	39	0	1342177280	46	4162
2026-01-21 15:19:56.92	221.00	25.00	-38.1	-39.4	21.2	0.00e+00	0	39	0	1363148800	46	4226
2026-01-21 15:19:59.91	221.66	25.32	-38.2	-39.5	21.1	0.00e+00	0	39	0	1385168896	46	4273
2026-01-21 15:20:02.89	222.32	25.64	-38.0	-39.3	21.3	0.00e+00	0	39	0	1406140416	46	4157
2026-01-21 15:20:05.88	223.01	25.96	-37.9	-39.2	21.4	0.00e+00	0	39	0	1428160512	46	4112
2026-01-21 15:20:08.95	223.73	26.29	-37.8	-39.1	21.4	0.00e+00	0	39	0	1450180608	46	4053
2026-01-21 15:20:11.94	224.44	26.61	-37.7	-39.0	21.5	0.00e+00	0	39	0	1472200704	45	4248
2026-01-21 15:20:14.92	225.17	26.93	-37.7	-38.9	21.6	0.00e+00	0	39	0	1493172224	45	4226
2026-01-21 15:20:17.90	225.91	27.25	-37.8	-39.0	21.5	0.00e+00	0	39	0	1515192320	45	4283
2026-01-21 15:20:20.89	226.66	27.57	-37.7	-39.0	21.6	0.00e+00	0	39	0	1536163840	45	4265
2026-01-21 15:20:23.94	227.45	27.89	-37.6	-38.8	21.7	0.00e+00	0	39	0	1558183936	45	4193
2026-01-21 15:20:26.95	228.24	28.20	-37.6	-38.9	21.6	0.00e+00	0	39	0	1580204032	45	4212
2026-01-21 15:20:29.94	229.04	28.52	-37.7	-39.0	21.5	0.00e+00	0	39	0	1602224128	45	4248
2026-01-21 15:20:32.92	229.86	28.82	-37.6	-38.9	21.6	0.00e+00	0	39	0	1623195648	45	4217
2026-01-21 15:20:35.91	230.69	29.13	-37.5	-38.7	21.7	0.00e+00	0	39	0	1644167168	45	4123
2026-01-21 15:20:38.89	231.53	29.43	-37.5	-38.7	21.7	0.00e+00	0	39	0	1666187264	45	4144
2026-01-21 15:20:41.96	232.42	29.74	-37.7	-38.9	21.6	0.00e+00	0	39	0	1688207360	45	4227
2026-01-21 15:20:44.92	233.29	30.03	-37.7	-39.0	21.5	0.00e+00	0	39	0	1709178880	45	4254
2026-01-21 15:20:47.90	234.18	30.32	-37.6	-38.9	21.6	0.00e+00	0	39	0	1731198976	45	4195
2026-01-21 15:20:50.89	235.10	30.60	-37.6	-38.9	21.6	0.00e+00	0	39	0	1753219072	45	4217
2026-01-21 15:20:53.92	236.03	30.89	-37.6	-38.9	21.5	0.00e+00	0	39	0	1775239168	45	4230
2026-01-21 15:20:56.92	236.98	31.16	-37.5	-38.8	21.6	0.00e+00	0	39	0	1796210688	45	4186
2026-01-21 15:20:59.90	237.94	31.43	-37.4	-38.7	21.7	0.00e+00	0	39	0	1818230784	45	4117
2026-01-21 15:21:02.89	238.91	31.69	-37.4	-38.6	21.8	0.00e+00	0	39	0	1839202304	45	4082
2026-01-21 15:21:05.87	239.90	31.95	-37.4	-38.7	21.8	0.00e+00	0	39	0	1861222400	45	4124
2026-01-21 15:21:08.86	240.90	32.19	-37.6	-38.8	21.7	0.00e+00	0	39	0	1882193920	45	4191
2026-01-21 15:21:11.84	241.92	32.43	-37.7	-39.0	21.5	0.00e+00	0	39	0	1904214016	45	4285
2026-01-21 15:21:14.83	242.95	32.67	-37.5	-38.7	21.8	0.00e+00	0	39	0	1926234112	45	4131
2026-01-21 15:21:17.81	244.00	32.89	-37.4	-38.7	21.7	0.00e+00	0	39	0	1947205632	45	4131
2026-01-21 15:21:20.79	245.05	33.10	-37.7	-39.0	21.4	0.00e+00	0	39	0	1969225728	45	4270
2026-01-21 15:21:23.78	246.13	33.31	-37.7	-38.9	21.6	0.00e+00	0	39	0	1990197248	45	4239
2026-01-21 15:21:26.79	247.23	33.50	-37.6	-38.9	21.6	0.00e+00	0	39	0	2012217344	45	4194
2026-01-21 15:21:29.77	248.32	33.69	-37.4	-38.6	21.9	0.00e+00	0	39	0	2034237440	45	4085
2026-01-21 15:21:32.76	249.44	33.86	-37.4	-38.6	21.9	0.00e+00	0	39	0	2055208960	45	4079
2026-01-21 15:21:35.74	250.56	34.02	-37.6	-38.9	21.6	0.00e+00	0	39	0	2077229056	45	4214
2026-01-21 15:21:38.77	251.71	34.18	-37.5	-38.8	21.7	0.00e+00	0	39	0	2098200576	45	4154
2026-01-21 15:21:41.82	252.88	34.32	-37.7	-39.0	21.5	0.00e+00	0	39	0	2121269248	45	4253
2026-01-21 15:21:44.73	254.00	34.45	-37.4	-38.6	21.9	0.00e+00	0	39	0	2141192192	45	4078
2026-01-21 15:21:48.22	255.36	34.58	-37.2	-38.4	22.1	0.00e+00	0	39	0	2167406592	45	3968
2026-01-21 15:21:51.52	256.65	34.69	-37.4	-38.6	21.9	0.00e+00	0	39	0	2190475264	45	4077
2026-01-21 15:21:54.24	257.73	34.77	-37.9	-38.7	22.4	0.00e+00	0	39	0	2210398208	45	4137
2026-01-21 15:21:57.55	259.04	34.85	-38.0	-38.8	22.4	0.00e+00	0	39	0	2234515456	45	4192
2026-01-21 15:22:00.28	260.12	34.91	-38.4	-39.3	22.0	0.00e+00	0	39	0	2254438400	46	4152
2026-01-21 15:22:03.60	261.45	34.96	-38.0	-38.8	22.4	0.00e+00	0	39	0	2277507072	46	3951
2026-01-21 15:22:06.36	262.55	34.99	-37.8	-38.6	22.5	0.00e+00	0	39	0	2297430016	46	3864
2026-01-21 15:22:09.76	263.92	35.01	-37.9	-38.8	22.5	0.00e+00	0	39	0	2322595840	46	3919
2026-01-21 15:22:12.46	265.00	35.01	-37.9	-38.8	22.4	0.00e+00	0	39	0	2341470208	46	3929
2026-01-21 15:22:15.73	266.31	35.00	-38.1	-39.0	22.2	0.00e+00	0	39	0	2365587456	46	4015
2026-01-21 15:22:18.44	267.39	34.98	-38.1	-38.9	22.3	0.00e+00	0	39	0	2384461824	46	3978
2026-01-21 15:22:21.74	268.71	34.94	-38.0	-38.9	22.3	0.00e+00	0	39	0	2408579072	46	3971
2026-01-21 15:22:24.63	269.86	34.89	-38.1	-38.9	22.3	0.00e+00	0	39	0	2429550592	46	3999
2026-01-21 15:22:28.26	271.30	34.81	-38.1	-38.9	22.3	0.00e+00	0	39	0	2455764992	46	3984
2026-01-21 15:22:30.96	272.37	34.74	-38.1	-39.0	22.3	0.00e+00	0	39	0	2475687936	46	4005
2026-01-21 15:22:34.26	273.67	34.64	-38.0	-38.9	22.4	0.00e+00	0	39	0	2498756608	46	3966
2026-01-21 15:22:36.99	274.74	34.54	-37.9	-38.8	22.5	0.00e+00	0	39	0	2518679552	46	3914
2026-01-21 15:22:40.26	276.00	34.41	-38.0	-38.9	22.3	0.00e+00	0	39	0	2542796800	46	3961
2026-01-21 15:22:42.96	277.04	34.30	-38.1	-39.0	22.3	0.00e+00	0	39	0	2561671168	46	4011
2026-01-21 15:22:46.24	278.30	34.14	-38.0	-38.8	22.4	0.00e+00	0	39	0	2585788416	46	3935
2026-01-21 15:22:49.02	279.35	34.00	-38.0	-38.8	22.4	0.00e+00	0	39	0	2605711360	46	3956
2026-01-21 15:22:52.42	280.62	33.81	-37.9	-38.7	22.5	0.00e+00	0	39	0	2629828608	46	3901
2026-01-21 15:22:55.12	281.62	33.65	-37.9	-38.7	22.4	0.00e+00	0	39	0	2649751552	46	3905
2026-01-21 15:22:58.51	282.86	33.44	-37.9	-38.7	22.4	0.00e+00	0	39	0	2673868800	46	3910
2026-01-21 15:23:01.23	283.85	33.26	-37.9	-38.7	22.4	0.00e+00	0	39	0	2693791744	46	3905
2026-01-21 15:23:04.50	285.02	33.03	-38.2	-39.1	22.2	0.00e+00	0	39	0	2716860416	46	4056
2026-01-21 15:23:07.21	285.97	32.84	-38.1	-38.9	22.3	0.00e+00	0	39	0	2736783360	46	3981
2026-01-21 15:23:10.48	287.11	32.59	-37.9	-38.8	22.4	0.00e+00	0	39	0	2760900608	46	3914
2026-01-21 15:23:13.18	288.04	32.38	-38.1	-38.9	22.3	0.00e+00	0	39	0	2779774976	46	3992
2026-01-21 15:23:16.61	289.20	32.10	-38.0	-38.9	22.4	0.00e+00	0	39	0	2804940800	46	3965
2026-01-21 15:23:19.64	290.21	31.85	-38.3	-39.2	22.0	0.00e+00	0	39	0	2826960896	46	4112
2026-01-21 15:23:22.96	291.30	31.56	-38.4	-39.3	21.9	0.00e+00	0	39	0	2851078144	46	4171
2026-01-21 15:23:25.66	292.17	31.32	-38.2	-39.0	22.2	0.00e+00	0	39	0	2869952512	46	4048
2026-01-21 15:23:28.94	293.21	31.03	-38.1	-38.9	22.3	0.00e+00	0	39	0	2894069760	46	3987
2026-01-21 15:23:31.83	294.11	30.76	-38.1	-38.9	22.2	0.00e+00	0	39	0	2915041280	46	3985
2026-01-21 15:23:35.03	295.09	30.46	-38.1	-38.9	22.3	0.00e+00	0	39	0	2938109952	46	3987
2026-01-21 15:23:38.15	296.03	30.16	-38.0	-38.8	22.4	0.00e+00	0	39	0	2960130048	46	3921
2026-01-21 15:23:40.99	296.86	29.88	-38.2	-39.0	22.2	0.00e+00	0	39	0	2981101568	46	4031
2026-01-21 15:23:44.23	297.80	29.56	-38.5	-39.4	21.9	0.00e+00	0	39	0	3004170240	46	4199
2026-01-21 15:23:47.24	298.66	29.26	-38.5	-39.3	21.9	0.00e+00	0	39	0	3026190336	46	4189
2026-01-21 15:23:50.54	299.58	28.93	-38.4	-39.2	22.0	0.00e+00	0	39	0	3049259008	46	4121
2026-01-21 15:23:53.26	300.33	28.65	-38.2	-39.0	22.0	0.00e+00	0	39	0	3069181952	46	4032
2026-01-21 15:23:56.54	301.21	28.31	-38.2	-39.1	22.2	0.00e+00	0	39	0	3093299200	46	4069
2026-01-21 15:23:59.24	301.92	28.03	-38.4	-39.2	22.0	0.00e+00	0	39	0	3112173568	46	4141
2026-01-21 15:24:02.74	302.83	27.67	-38.3	-39.2	22.1	0.00e+00	0	39	0	3137339392	46	4100
2026-01-21 15:24:05.53	303.53	27.37	-38.2	-39.0	22.2	0.00e+00	0	39	0	3158310912	46	4034
2026-01-21 15:24:08.81	304.35	27.03	-38.1	-38.9	22.3	0.00e+00	0	39	0	3181379584	46	3981
2026-01-21 15:24:11.53	305.01	26.74	-38.4	-39.2	22.0	0.00e+00	0	39	0	3201302528	46	4123
2026-01-21 15:24:14.81	305.80	26.39	-38.5	-39.4	21.9	0.00e+00	0	39	0	3224371200	46	4212
2026-01-21 15:24:17.53	306.43	26.10	-38.5	-39.4	21.9	0.00e+00	0	39	0	3244294144	46	4212
2026-01-21 15:24:20.80	307.18	25.75	-38.4	-39.3	21.9	0.00e+00	0	39	0	3268411392	46	4163
2026-01-21 15:24:23.53	307.80	25.46	-38.4	-39.2	22.0	0.00e+00	0	39	0	3288334336	46	4117
2026-01-21 15:24:26.83	308.53	25.10	-38.6	-39.5	21.8	0.00e+00	0	39	0	3311403008	46	4252
2026-01-21 15:24:29.54	309.11	24.81	-38.6	-39.5	21.8	0.00e+00	0	39	0	3331325952	46	4247
2026-01-21 15:24:32.81	309.80	24.46	-38.8	-39.6	21.6	0.00e+00	0	39	0	3354394624	47	4094
2026-01-21 15:24:35.53	310.37	24.17	-38.7	-39.5	21.7	0.00e+00	0	39	0	3374317568	47	4035
2026-01-21 15:24:38.82	311.04	23.82	-38.7	-39.5	21.7	0.00e+00	0	39	0	3398434816	47	4049
2026-01-21 15:24:41.54	311.58	23.53	-38.7	-39.6	21.7	0.00e+00	0	39	0	3418357760	47	4075
2026-01-21 15:24:44.83	312.23	23.18	-39.0	-39.9	21.4	0.00e+00	0	39	0	3441426432	47	4222
2026-01-21 15:24:47.55	312.75	22.90	-39.0	-39.9	21.4	0.00e+00	0	39	0	3461349376	47	4231
2026-01-21 15:24:50.82	313.36	22.55	-38.9	-39.8	21.5	0.00e+00	0	39	0	3485466624	47	4174
2026-01-21 15:24:53.80	313.91	22.24	-38.8	-39.7	21.6	0.00e+00	0	39	0	3506438144	47	4127
2026-01-21 15:24:57.47	314.57	21.85	-38.9	-39.8	21.4	0.00e+00	0	39	0	3532652544	47	4182
2026-01-21 15:25:00.18	315.05	21.57	-39.0	-39.9	21.4	0.00e+00	0	39	0	3552575488	47	4233
2026-01-21 15:25:03.45	315.62	21.23	-39.2	-40.1	21.2	0.00e+00	0	39	0	3575644160	47	4334
2026-01-21 15:25:06.17	316.08	20.95	-39.4	-40.3	21.3	0.00e+00	0	39	0	3595567104	48	4163
2026-01-21 15:25:09.56	316.64	20.61	-39.3	-40.2	21.4	0.00e+00	0	39	0	3619684352	48	4129
2026-01-21 15:25:12.33	317.10	20.32	-39.3	-40.2	21.4	0.00e+00	0	39	0	3640655872	48	4126
2026-01-21 15:25:15.53	317.61	20.00	-39.4	-40.2	21.3	0.00e+00	0	39	0	3663724544	48	4145
2026-01-21 15:25:18.66	318.10	19.68	-39.4	-40.3	21.3	0.00e+00	0	39	0	3685744640	48	4183
2026-01-21 15:25:21.50	318.54	19.40	-39.6	-40.5	21.2	0.00e+00	0	39	0	3706716160	48	4273
2026-01-21 15:25:24.62	319.01	19.09	-39.7	-40.6	21.1	0.00e+00	0	39	0	3728736256	48	4308
2026-01-21 15:25:27.70	319.46	18.79	-39.6	-40.5	21.2	0.00e+00	0	39	0	3750756352	49	4026
2026-01-21 15:25:30.92	319.93	18.47	-39.8	-40.6	21.0	0.00e+00	0	39	0	3774873600	49	4095
2026-01-21 15:25:33.86	320.35	18.18	-39.8	-40.7	21.0	0.00e+00	0	39	0	3795845120	49	4112
2026-01-21 15:25:36.84	320.77	17.90	-39.8	-40.7	21.0	0.00e+00	0	39	0	3816816640	49	4130
2026-01-21 15:25:39.82	321.17	17.61	-39.9	-40.8	20.9	0.00e+00	0	39	0	3838836736	49	4156
2026-01-21 15:25:42.81	321.58	17.32	-39.8	-40.7	20.9	0.00e+00	0	39	0	3859808256	49	4133
2026-01-21 15:25:45.84	321.98	17.04	-39.9	-40.8	20.8	0.00e+00	0	39	0	3881828352	49	4173
2026-01-21 15:25:48.83	322.37	16.76	-40.1	-41.1	20.6	0.00e+00	0	39	0	3903848448	49	4310
2026-01-21 15:25:51.81	322.75	16.48	-40.2	-41.2	20.5	0.00e+00	0	39	0	3924819968	49	4366
2026-01-21 15:25:54.80	323.12	16.20	-40.4	-41.3	20.4	0.00e+00	0	39	0	3946840064	50	4184
2026-01-21 15:25:57.78	323.49	15.93	-40.4	-41.3	20.4	0.00e+00	0	39	0	3968860160	50	4159
2026-01-21 15:26:00.76	323.85	15.65	-40.2	-41.1	20.6	0.00e+00	0	39	0	3989831680	50	4098
2026-01-21 15:26:03.71	324.20	15.39	-40.3	-41.3	20.4	0.00e+00	0	39	0	4010803200	50	4150
2026-01-21 15:26:06.97	324.58	15.09	-40.6	-41.6	20.2	0.00e+00	0	39	0	4033871872	50	4293
2026-01-21 15:26:09.81	324.91	14.84	-40.7	-41.7	20.0	0.00e+00	0	39	0	4054843392	50	4364
2026-01-21 15:26:12.94	325.26	14.56	-40.8	-41.8	19.9	0.00e+00	0	39	0	4077912064	51	4187
2026-01-21 15:26:15.78	325.58	14.31	-41.0	-42.0	19.7	0.00e+00	0	39	0	4097835008	51	4291
2026-01-21 15:26:18.98	325.92	14.03	-41.0	-42.0	19.7	0.00e+00	0	39	0	4120903680	51	4281
2026-01-21 15:26:21.82	326.23	13.79	-41.0	-42.0	19.7	0.00e+00	0	39	0	4141875200	51	4279
2026-01-21 15:26:25.09	326.57	13.51	-40.8	-41.8	19.9	0.00e+00	0	39	0	4164943872	51	4174
2026-01-21 15:26:27.82	326.86	13.27	-41.0	-42.1	19.6	0.00e+00	0	39	0	4184866816	51	4297
2026-01-21 15:26:31.09	327.19	13.00	-41.0	-42.1	19.7	0.00e+00	0	39	0	4208984064	51	4293
2026-01-21 15:26:33.79	327.46	12.77	-41.1	-42.2	19.5	0.00e+00	0	39	0	4227858432	51	4360
2026-01-21 15:26:37.10	327.79	12.50	-41.2	-42.2	19.5	0.00e+00	0	39	0	4251975680	52	4119
2026-01-21 15:26:39.81	328.05	12.27	-41.3	-42.3	19.3	0.00e+00	0	39	0	4271898624	52	4184
2026-01-21 15:26:43.08	328.36	12.00	-41.4	-42.4	19.2	0.00e+00	0	39	0	4294967296	52	4221
2026-01-21 15:26:45.78	328.62	11.78	-41.3	-42.4	19.2	0.00e+00	0	39	0	4314890240	52	4199
2026-01-21 15:26:49.08	328.92	11.52	-41.4	-42.5	19.2	0.00e+00	0	39	0	4339007488	52	4247
2026-01-21 15:26:51.79	329.17	11.30	-41.6	-42.6	19.0	0.00e+00	0	39	0	4357881856	52	4318
2026-01-21 15:26:55.22	329.48	11.03	-41.5	-42.5	19.1	0.00e+00	0	39	0	4383047680	52	4264
2026-01-21 15:26:57.92	329.72	10.81	-41.7	-42.7	18.9	0.00e+00	0	39	0	4402970624	52	4371
2026-01-21 15:27:01.19	330.00	10.56	-41.6	-42.6	18.9	0.00e+00	0	39	0	4426039296	52	4336
2026-01-21 15:27:03.99	330.24	10.34	-41.7	-42.7	18.8	0.00e+00	0	39	0	4445962240	52	4375
2026-01-21 15:27:07.12	330.50	10.10	-41.9	-43.0	18.5	0.00e+00	0	39	0	4469030912	53	4270
2026-01-21 15:27:10.31	330.77	9.85	-41.9	-42.9	18.6	0.00e+00	0	39	0	4492099584	53	4239
2026-01-21 15:27:13.16	331.00	9.64	-42.0	-43.1	18.5	0.00e+00	0	39	0	4512022528	53	4313
2026-01-21 15:27:16.30	331.26	9.40	-41.9	-43.0	18.5	0.00e+00	0	39	0	4535091200	53	4283
2026-01-21 15:27:19.14	331.48	9.19	-42.0	-43.1	18.5	0.00e+00	0	39	0	4556062720	53	4320
2026-01-21 15:27:22.44	331.74	8.94	-52.1	-63.1	3.8	8.45e-01	0	39	104	4575985664	73	13579
2026-01-21 15:27:25.34	331.96	8.73	-52.2	-63.5	3.8	8.46e-01	0	39	104	4575985664	74	13565
2026-01-21 15:27:28.65	332.22	8.48	-52.6	-63.8	3.8	8.47e-01	0	39	104	4575985664	74	13904
2026-01-21 15:27:31.43	332.42	8.28	-52.8	-63.8	3.8	8.46e-01	0	39	104	4575985664	75	13190
2026-01-21 15:27:34.75	332.67	8.04	-53.0	-63.9	3.8	8.47e-01	0	39	104	4575985664	75	13265
2026-01-21 15:27:37.48	332.87	7.85	-53.2	-63.9	3.8	8.47e-01	0	39	104	4575985664	75	13356
2026-01-21 15:27:40.81	333.11	7.61	-53.1	-63.9	3.8	8.48e-01	0	39	104	4575985664	76	12542
2026-01-21 15:27:43.54	333.30	7.42	-52.8	-63.9	3.8	8.48e-01	0	39	104	4575985664	76	12532
2026-01-21 15:27:46.83	333.53	7.19	-52.9	-63.8	3.8	8.48e-01	0	39	104	4575985664	76	12433
2026-01-21 15:27:49.53	333.72	7.00	-52.9	-63.8	3.8	8.47e-01	0	39	104	4575985664	76	12447
2026-01-21 15:27:52.81	333.94	6.77	-52.9	-63.8	3.8	8.46e-01	0	39	104	4575985664	76	12432
2026-01-21 15:27:55.52	334.12	6.58	-52.9	-63.7	3.8	8.47e-01	0	39	104	4575985664	76	12317
2026-01-21 15:27:58.78	334.34	6.36	-52.8	-63.8	3.8	8.47e-01	0	39	104	4575985664	76	12423
2026-01-21 15:28:01.50	334.52	6.18	-52.8	-63.8	3.8	8.47e-01	0	39	104	4575985664	76	12387
2026-01-21 15:28:04.78	334.73	5.95	-52.8	-63.7	3.8	8.46e-01	0	39	104	4575985664	76	12311
2026-01-21 15:28:07.47	334.90	5.77	-52.8	-63.8	3.8	8.47e-01	0	39	104	4575985664	76	12425
2026-01-21 15:28:10.75	335.11	5.56	-52.8	-63.8	3.8	8.47e-01	0	39	104	4575985664	76	12409
2026-01-21 15:28:13.48	335.28	5.37	-52.8	-63.8	3.8	8.47e-01	0	39	104	4575985664	76	12392
2026-01-21 15:28:16.76	335.48	5.16	-52.8	-63.7	3.8	8.46e-01	0	39	104	4575985664	76	12298
2026-01-21 15:28:19.47	335.64	4.98	-52.8	-63.7	3.8	8.47e-01	0	39	104	4575985664	76	12343

#Closed at: 2026-01-21 15:28:20
#Recorded file [4575 MB]: D:/Data/31040_260121_181609.dat