passes_logs/2026/01/21/T1/T1__20260121_062331_KHAYYAM_rec.log

#Pass ID: 20260121_062331_KHAYYAM
#Satellite: KHAYYAM
#Configuration: KHAYYAM_480M
#almurnet v.1.7.20251203
#Start time: 2026-01-21 06:23:31

#Version: 2.0.20230620
#Station: T1
#Location: 37.570604 lon 55.790049 lat
#TLE: 1 53370U 22096A   26020.99496882  .00015565  00000+0  63198-3 0  9993
#TLE: 2 53370  97.3560 287.8974 0001831 108.0193 252.1244 15.24672017192153

#Time	Az	El	Level	Level2	SNR	BER	BlckErr	Temp	State	Recorded	gain1	gain2
2026-01-21 06:23:31.85	104.69	5.05	-54.9	-59.4	3.6	0.00e+00	0	44	0	0	81	24075
2026-01-21 06:23:33.84	104.41	5.17	-54.9	-59.3	3.7	0.00e+00	0	45	104	0	80	25348
2026-01-21 06:23:35.83	104.12	5.29	-54.9	-59.4	3.7	0.00e+00	0	45	104	0	80	25388
2026-01-21 06:23:37.82	103.83	5.41	-54.9	-59.3	3.7	0.00e+00	0	45	104	0	80	25370
2026-01-21 06:23:39.81	103.54	5.54	-54.9	-59.3	3.7	0.00e+00	0	45	104	0	80	25299
2026-01-21 06:23:41.81	103.24	5.66	-54.9	-59.3	3.7	0.00e+00	0	45	104	0	80	25380
2026-01-21 06:23:43.80	102.95	5.78	-54.9	-59.3	3.7	0.00e+00	0	46	104	0	80	25301
2026-01-21 06:23:45.80	102.64	5.91	-54.9	-59.3	3.7	0.00e+00	0	46	104	0	80	25345
2026-01-21 06:23:47.79	102.34	6.03	-54.9	-59.4	3.7	0.00e+00	0	46	104	0	80	25415
2026-01-21 06:23:49.79	102.03	6.16	-54.9	-59.4	3.7	0.00e+00	0	46	104	0	80	25426
2026-01-21 06:23:51.78	101.72	6.28	-54.9	-59.3	3.7	0.00e+00	0	46	104	0	80	25300
2026-01-21 06:23:53.77	101.40	6.41	-54.9	-59.3	3.7	0.00e+00	0	46	104	0	80	25324
2026-01-21 06:23:55.76	101.09	6.53	-54.9	-59.3	3.7	0.00e+00	0	47	104	0	80	25300
2026-01-21 06:23:57.75	100.76	6.66	-54.9	-59.3	3.7	0.00e+00	0	47	104	0	80	25320
2026-01-21 06:23:59.75	100.44	6.78	-54.8	-59.3	3.7	0.00e+00	0	47	104	0	80	25348
2026-01-21 06:24:01.74	100.11	6.91	-54.9	-59.3	3.7	0.00e+00	0	47	104	0	80	25224
2026-01-21 06:24:03.73	99.78	7.03	-54.8	-59.3	3.7	0.00e+00	0	47	104	0	80	25325
2026-01-21 06:24:05.73	99.44	7.16	-54.8	-59.3	3.7	0.00e+00	0	47	104	0	80	25259
2026-01-21 06:24:07.72	99.10	7.28	-54.8	-59.3	3.7	0.00e+00	0	47	104	0	80	25248
2026-01-21 06:24:09.72	98.75	7.41	-54.8	-59.3	3.7	0.00e+00	0	47	104	0	80	25273
2026-01-21 06:24:11.71	98.41	7.53	-54.8	-59.3	3.7	0.00e+00	0	48	104	0	80	25310
2026-01-21 06:24:13.71	98.05	7.66	-54.8	-59.3	3.7	0.00e+00	0	48	104	0	80	25246
2026-01-21 06:24:15.70	97.70	7.78	-54.9	-59.3	3.7	0.00e+00	0	48	104	0	80	25267
2026-01-21 06:24:17.69	97.34	7.91	-54.8	-59.3	3.7	0.00e+00	0	48	104	0	80	25274
2026-01-21 06:24:19.68	96.98	8.03	-54.8	-59.3	3.7	0.00e+00	0	48	104	0	80	25324
2026-01-21 06:24:21.67	96.61	8.16	-54.8	-59.3	3.7	0.00e+00	0	48	104	0	80	25285
2026-01-21 06:24:23.66	96.24	8.28	-54.8	-59.3	3.7	0.00e+00	0	48	104	0	80	25243
2026-01-21 06:24:25.65	95.87	8.41	-54.8	-59.3	3.7	0.00e+00	0	48	104	0	80	25248
2026-01-21 06:24:27.64	95.49	8.53	-54.8	-59.3	3.7	0.00e+00	0	48	104	0	80	25260
2026-01-21 06:24:29.64	95.10	8.66	-54.8	-59.3	3.7	0.00e+00	0	48	104	0	80	25284
2026-01-21 06:24:31.63	94.71	8.78	-54.8	-59.3	3.7	0.00e+00	0	48	104	0	80	25313
2026-01-21 06:24:33.62	94.32	8.91	-54.9	-59.3	3.7	0.00e+00	0	49	104	0	80	25297
2026-01-21 06:24:35.62	93.93	9.03	-54.9	-59.3	3.7	0.00e+00	0	48	104	0	80	25265
2026-01-21 06:24:37.62	93.52	9.15	-54.9	-59.4	3.7	0.00e+00	0	48	104	0	80	25484
2026-01-21 06:24:39.63	93.12	9.28	-55.0	-59.6	3.7	0.00e+00	0	48	104	0	80	26157
2026-01-21 06:24:41.63	92.71	9.40	-55.1	-59.7	3.7	0.00e+00	0	49	104	0	80	26390
2026-01-21 06:24:43.64	92.29	9.53	-54.8	-59.4	3.7	0.00e+00	0	49	104	0	80	25453
2026-01-21 06:24:45.64	91.87	9.65	-54.8	-59.3	3.7	0.00e+00	0	49	104	0	80	25351
2026-01-21 06:24:47.64	91.45	9.77	-55.1	-59.6	3.7	0.00e+00	0	49	104	0	80	26027
2026-01-21 06:24:49.64	91.02	9.89	-55.0	-59.6	3.7	0.00e+00	0	49	104	0	81	24685
2026-01-21 06:24:51.65	90.58	10.01	-54.9	-59.5	3.7	0.00e+00	0	49	104	0	81	24470
2026-01-21 06:24:53.65	90.15	10.13	-55.3	-59.8	3.7	0.00e+00	0	49	104	0	81	25259
2026-01-21 06:24:55.65	89.71	10.26	-54.7	-59.6	3.7	0.00e+00	0	49	104	0	81	24585
2026-01-21 06:24:57.65	89.26	10.37	-54.9	-59.6	3.7	0.00e+00	0	49	104	0	81	24768
2026-01-21 06:24:59.66	88.81	10.49	-54.8	-59.4	3.7	0.00e+00	0	49	104	0	81	23998
2026-01-21 06:25:01.66	88.35	10.61	-54.9	-59.4	3.7	0.00e+00	0	49	104	0	81	24219
2026-01-21 06:25:03.66	87.89	10.73	-54.9	-59.2	3.7	0.00e+00	0	49	104	0	81	23531
2026-01-21 06:25:05.66	87.43	10.85	-54.8	-59.3	3.7	0.00e+00	0	49	104	0	81	23724
2026-01-21 06:25:07.66	86.96	10.96	-54.7	-59.2	3.7	0.00e+00	0	49	104	0	81	23463
2026-01-21 06:25:09.67	86.48	11.08	-54.7	-59.4	3.7	0.00e+00	0	49	104	0	81	24082
2026-01-21 06:25:11.67	86.01	11.19	-54.7	-59.4	3.7	0.00e+00	0	49	104	0	81	24171
2026-01-21 06:25:13.67	85.52	11.31	-54.8	-59.5	3.7	0.00e+00	0	49	104	0	81	24325
2026-01-21 06:25:15.67	85.04	11.42	-54.3	-59.1	3.7	0.00e+00	0	49	104	0	80	24740
2026-01-21 06:25:17.68	84.54	11.53	-54.5	-59.2	3.7	0.00e+00	0	49	104	0	80	24987
2026-01-21 06:25:19.68	84.05	11.64	-54.3	-59.1	3.7	0.00e+00	0	49	104	0	80	24651
2026-01-21 06:25:21.68	83.54	11.75	-54.1	-58.7	3.7	0.00e+00	0	49	104	0	80	23637
2026-01-21 06:25:23.68	83.04	11.86	-54.8	-59.4	3.7	0.00e+00	0	49	104	0	80	25390
2026-01-21 06:25:25.69	82.53	11.96	-54.8	-59.2	3.7	0.00e+00	0	49	104	0	80	25017
2026-01-21 06:25:27.69	82.01	12.07	-54.6	-59.2	3.7	0.00e+00	0	49	104	0	80	24972
2026-01-21 06:25:29.69	81.49	12.17	-54.3	-58.8	3.7	0.00e+00	0	49	104	0	80	23950
2026-01-21 06:25:31.70	80.97	12.28	-54.5	-59.2	3.7	0.00e+00	0	49	104	0	80	25093
2026-01-21 06:25:33.70	80.44	12.38	-54.6	-59.3	3.7	0.00e+00	0	50	104	0	80	25312
2026-01-21 06:25:35.70	79.91	12.48	-54.8	-58.9	3.7	0.00e+00	0	50	104	0	80	24145
2026-01-21 06:25:37.71	79.37	12.58	-54.7	-58.8	3.7	0.00e+00	0	50	104	0	80	23895
2026-01-21 06:25:39.71	78.83	12.67	-54.8	-59.0	3.7	0.00e+00	0	50	104	0	80	24423
2026-01-21 06:25:41.71	78.28	12.77	-54.9	-59.2	3.7	0.00e+00	0	49	104	0	80	24944
2026-01-21 06:25:43.71	77.73	12.86	-55.1	-59.6	3.7	0.00e+00	0	50	104	0	81	24576
2026-01-21 06:25:45.72	77.18	12.95	-55.0	-59.6	3.7	0.00e+00	0	50	104	0	81	24755
2026-01-21 06:25:47.72	76.62	13.04	-55.0	-59.8	3.7	0.00e+00	0	50	104	0	81	25114
2026-01-21 06:25:49.72	76.06	13.13	-55.2	-59.8	3.7	0.00e+00	0	50	104	0	81	25221
2026-01-21 06:25:51.72	75.49	13.22	-55.2	-59.8	3.7	0.00e+00	0	50	104	0	81	25210
2026-01-21 06:25:53.72	74.92	13.30	-54.9	-59.3	3.7	0.00e+00	0	50	104	0	81	23740
2026-01-21 06:25:55.73	74.34	13.38	-54.9	-59.4	3.7	0.00e+00	0	50	104	0	81	24212
2026-01-21 06:25:57.73	73.77	13.46	-55.1	-59.6	3.7	0.00e+00	0	50	104	0	81	24688
2026-01-21 06:25:59.73	73.18	13.54	-55.1	-59.7	3.7	0.00e+00	0	50	104	0	81	25017
2026-01-21 06:26:01.74	72.60	13.62	-55.4	-59.8	3.7	0.00e+00	0	50	104	0	81	25221
2026-01-21 06:26:03.74	72.01	13.69	-55.4	-59.8	3.7	0.00e+00	0	50	104	0	81	25102
2026-01-21 06:26:05.73	71.42	13.76	-55.0	-59.7	3.7	0.00e+00	0	50	104	0	81	24892
2026-01-21 06:26:07.74	70.82	13.83	-55.1	-59.8	3.7	0.00e+00	0	50	104	0	81	25224
2026-01-21 06:26:09.74	70.22	13.90	-55.3	-59.8	3.7	0.00e+00	0	50	104	0	81	25289
2026-01-21 06:26:11.74	69.62	13.96	-55.4	-59.9	3.7	0.00e+00	0	50	104	0	81	25462
2026-01-21 06:26:13.75	69.01	14.02	-55.3	-59.9	3.7	0.00e+00	0	50	104	0	81	25578
2026-01-21 06:26:15.75	68.41	14.08	-55.5	-60.0	3.7	0.00e+00	0	50	104	0	81	25711
2026-01-21 06:26:17.76	67.79	14.14	-55.1	-59.6	3.7	0.00e+00	0	50	104	0	81	24683
2026-01-21 06:26:19.76	67.18	14.19	-55.2	-59.6	3.7	0.00e+00	0	50	104	0	81	24680
2026-01-21 06:26:21.77	66.56	14.24	-55.2	-59.7	3.7	0.00e+00	0	50	104	0	81	24991
2026-01-21 06:26:23.77	65.94	14.29	-55.3	-59.7	3.7	0.00e+00	0	50	104	0	81	25021
2026-01-21 06:26:25.77	65.32	14.33	-55.4	-59.9	3.7	0.00e+00	0	50	104	0	81	25570
2026-01-21 06:26:27.77	64.70	14.38	-55.2	-59.8	3.7	0.00e+00	0	50	104	0	81	25319
2026-01-21 06:26:29.78	64.07	14.42	-55.2	-59.7	3.7	0.00e+00	0	50	104	0	81	25047
2026-01-21 06:26:31.78	63.45	14.45	-55.3	-59.8	3.7	0.00e+00	0	50	104	0	81	25269
2026-01-21 06:26:33.78	62.82	14.49	-55.3	-59.9	3.7	0.00e+00	0	50	104	0	81	25581
2026-01-21 06:26:35.78	62.19	14.52	-55.1	-59.8	3.7	0.00e+00	0	50	104	0	81	25338
2026-01-21 06:26:37.78	61.56	14.55	-55.2	-59.9	3.7	0.00e+00	0	50	104	0	81	25511
2026-01-21 06:26:39.78	60.92	14.57	-55.3	-59.9	3.7	0.00e+00	0	50	104	0	81	25592
2026-01-21 06:26:41.78	60.29	14.60	-54.9	-59.5	3.7	0.00e+00	0	50	104	0	81	24299
2026-01-21 06:26:43.78	59.65	14.62	-54.9	-59.4	3.7	0.00e+00	0	50	104	0	81	24165
2026-01-21 06:26:45.78	59.02	14.63	-55.5	-59.9	3.7	0.00e+00	0	50	104	0	81	25559
2026-01-21 06:26:47.78	58.38	14.64	-55.5	-60.0	3.7	0.00e+00	0	50	104	0	81	25911
2026-01-21 06:26:49.78	57.74	14.66	-55.1	-59.8	3.7	0.00e+00	0	50	104	0	81	25201
2026-01-21 06:26:51.78	57.11	14.66	-55.3	-59.9	3.7	0.00e+00	0	50	104	0	81	25599
2026-01-21 06:26:53.79	56.47	14.67	-55.3	-59.8	3.7	0.00e+00	0	50	104	0	81	25154
2026-01-21 06:26:55.79	55.83	14.67	-55.4	-59.9	3.7	0.00e+00	0	50	104	0	81	25496
2026-01-21 06:26:57.79	55.19	14.67	-55.2	-59.8	3.7	0.00e+00	0	50	104	0	81	25152
2026-01-21 06:26:59.79	54.55	14.66	-55.3	-59.8	3.7	0.00e+00	0	50	104	0	81	25204
2026-01-21 06:27:01.80	53.91	14.65	-55.3	-59.8	3.7	0.00e+00	0	50	104	0	81	25194
2026-01-21 06:27:03.80	53.28	14.64	-55.2	-59.8	3.7	0.00e+00	0	50	104	0	81	25319
2026-01-21 06:27:05.80	52.64	14.63	-55.2	-59.9	3.7	0.00e+00	0	50	104	0	81	25390
2026-01-21 06:27:07.80	52.00	14.61	-55.1	-59.6	3.7	0.00e+00	0	50	104	0	81	24719
2026-01-21 06:27:09.80	51.37	14.59	-55.2	-59.5	3.7	0.00e+00	0	50	104	0	81	24375
2026-01-21 06:27:11.80	50.74	14.57	-55.2	-59.6	3.7	0.00e+00	0	50	104	0	81	24565
2026-01-21 06:27:13.80	50.11	14.54	-55.2	-59.8	3.7	0.00e+00	0	50	104	0	81	25121
2026-01-21 06:27:15.81	49.47	14.51	-55.2	-59.9	3.7	0.00e+00	0	50	104	0	81	25560
2026-01-21 06:27:17.81	48.84	14.48	-55.1	-59.4	3.7	0.00e+00	0	50	104	0	81	24198
2026-01-21 06:27:19.81	48.22	14.45	-55.2	-59.5	3.7	0.00e+00	0	50	104	0	81	24290
2026-01-21 06:27:21.81	47.59	14.41	-55.3	-59.7	3.7	0.00e+00	0	50	104	0	81	25068
2026-01-21 06:27:23.82	46.97	14.37	-55.3	-59.8	3.7	0.00e+00	0	50	104	0	81	25204
2026-01-21 06:27:25.82	46.34	14.33	-54.7	-58.6	3.7	0.00e+00	0	50	104	0	81	22052
2026-01-21 06:27:27.82	45.73	14.28	-54.7	-58.5	3.7	0.00e+00	0	50	104	0	81	21626
2026-01-21 06:27:29.83	45.11	14.23	-55.1	-59.2	3.7	0.00e+00	0	50	104	0	81	23535
2026-01-21 06:27:31.83	44.49	14.18	-54.0	-57.2	3.7	0.00e+00	0	50	104	0	79	21084
2026-01-21 06:27:33.84	43.88	14.13	-54.6	-58.5	3.7	0.00e+00	0	50	104	0	79	24269
2026-01-21 06:27:35.84	43.27	14.07	-53.9	-56.9	3.8	0.00e+00	0	50	104	0	79	20364
2026-01-21 06:27:37.84	42.67	14.01	-54.5	-57.9	3.7	0.00e+00	0	50	104	0	79	22785
2026-01-21 06:27:39.84	42.06	13.95	-54.4	-57.9	3.7	0.00e+00	0	50	104	0	79	22849
2026-01-21 06:27:41.84	41.46	13.88	-54.5	-58.2	3.7	0.00e+00	0	51	104	0	79	23531
2026-01-21 06:27:43.85	40.87	13.82	-54.4	-58.2	3.7	0.00e+00	0	51	104	0	80	22131
2026-01-21 06:27:45.85	40.27	13.75	-53.6	-56.8	3.7	0.00e+00	0	50	104	0	79	19942
2026-01-21 06:27:47.85	39.68	13.68	-52.0	-54.4	3.9	0.00e+00	0	50	104	0	76	18061
2026-01-21 06:27:49.85	39.10	13.60	-52.7	-55.4	3.8	0.00e+00	0	50	104	0	76	20189
2026-01-21 06:27:51.85	38.52	13.53	-51.5	-53.8	4.0	0.00e+00	0	50	104	0	75	17899
2026-01-21 06:27:53.85	37.94	13.45	-52.0	-54.4	3.8	0.00e+00	0	50	104	0	76	18057
2026-01-21 06:27:55.86	37.36	13.37	-50.8	-52.9	4.0	0.00e+00	0	50	104	0	73	18058
2026-01-21 06:27:57.86	36.79	13.29	-51.4	-53.7	4.0	0.00e+00	0	50	104	0	73	19812
2026-01-21 06:27:59.86	36.22	13.20	-53.6	-56.6	3.7	0.00e+00	0	50	104	0	77	21943
2026-01-21 06:28:01.86	35.66	13.12	-54.0	-57.8	3.7	0.00e+00	0	50	104	0	78	23814
2026-01-21 06:28:03.86	35.10	13.03	-53.5	-56.8	3.7	0.00e+00	0	50	104	0	77	22558
2026-01-21 06:28:05.87	34.54	12.94	-54.0	-58.2	3.7	0.00e+00	0	50	104	0	79	23631
2026-01-21 06:28:07.87	33.99	12.85	-54.4	-58.3	3.7	0.00e+00	0	50	104	0	79	23816
2026-01-21 06:28:09.87	33.45	12.76	-54.6	-58.5	3.7	0.00e+00	0	50	104	0	80	22898
2026-01-21 06:28:11.87	32.91	12.66	-55.1	-59.4	3.7	0.00e+00	0	50	104	0	80	25667
2026-01-21 06:28:13.87	32.37	12.56	-54.6	-59.2	3.7	0.00e+00	0	50	104	0	80	25076
2026-01-21 06:28:15.88	31.83	12.47	-54.1	-58.8	3.7	0.00e+00	0	50	104	0	80	23937
2026-01-21 06:28:17.88	31.30	12.37	-53.8	-58.2	3.7	0.00e+00	0	50	104	0	79	23517
2026-01-21 06:28:19.89	30.78	12.26	-54.7	-59.4	3.7	0.00e+00	0	50	104	0	80	25424
2026-01-21 06:28:21.89	30.26	12.16	-54.5	-58.9	3.7	0.00e+00	0	50	104	0	79	25638
2026-01-21 06:28:23.89	29.74	12.06	-54.8	-59.5	3.7	0.00e+00	0	50	104	0	80	25753
2026-01-21 06:28:25.89	29.23	11.95	-54.9	-59.4	3.7	0.00e+00	0	51	104	0	80	25619
2026-01-21 06:28:27.89	28.72	11.85	-54.0	-58.7	3.7	0.00e+00	0	51	104	0	79	25071
2026-01-21 06:28:29.89	28.22	11.74	-54.4	-59.2	3.7	0.00e+00	0	51	104	0	79	26453
2026-01-21 06:28:31.89	27.72	11.63	-54.0	-58.7	3.7	0.00e+00	0	50	104	0	79	24974
2026-01-21 06:28:33.90	27.23	11.52	-54.2	-58.9	3.7	0.00e+00	0	51	104	0	79	25506
2026-01-21 06:28:35.90	26.74	11.41	-54.5	-59.4	3.7	0.00e+00	0	51	104	0	79	27066
2026-01-21 06:28:37.90	26.26	11.30	-54.5	-59.2	3.7	0.00e+00	0	50	104	0	79	26379
2026-01-21 06:28:39.91	25.78	11.18	-53.5	-58.5	3.7	0.00e+00	0	50	104	0	79	24397
2026-01-21 06:28:41.91	25.30	11.07	-53.4	-58.5	3.7	0.00e+00	0	50	104	0	78	25823
2026-01-21 06:28:43.92	24.83	10.95	-53.6	-58.1	3.7	0.00e+00	0	51	104	0	78	24792
2026-01-21 06:28:45.92	24.37	10.84	-54.3	-59.0	3.7	0.00e+00	0	50	104	0	79	25821
2026-01-21 06:28:47.92	23.91	10.72	-54.7	-59.5	3.7	0.00e+00	0	50	104	0	80	25820
2026-01-21 06:28:49.93	23.45	10.60	-54.6	-59.3	3.7	0.00e+00	0	50	104	0	80	25362
2026-01-21 06:28:51.93	23.00	10.49	-54.3	-58.8	3.7	0.00e+00	0	51	104	0	80	23959
2026-01-21 06:28:53.94	22.55	10.37	-54.3	-58.7	3.7	0.00e+00	0	50	104	0	80	23502
2026-01-21 06:28:55.94	22.11	10.25	-52.7	-56.7	3.7	0.00e+00	0	50	104	0	77	22281
2026-01-21 06:28:57.95	21.67	10.13	-51.9	-56.8	3.7	0.00e+00	0	51	104	0	75	25362
2026-01-21 06:28:59.95	21.23	10.01	-51.4	-56.1	3.7	0.00e+00	0	50	104	0	74	24798
2026-01-21 06:29:01.95	20.80	9.89	-51.5	-56.2	3.7	0.00e+00	0	51	104	0	74	24990
2026-01-21 06:29:03.95	20.38	9.77	-51.9	-57.0	3.7	0.00e+00	0	50	104	0	74	27268
2026-01-21 06:29:05.95	19.96	9.64	-52.5	-57.6	3.7	0.00e+00	0	50	104	0	75	27590
2026-01-21 06:29:07.96	19.54	9.52	-51.9	-57.7	3.7	0.00e+00	0	50	104	0	75	27963
2026-01-21 06:29:09.96	19.13	9.40	-52.3	-57.9	3.7	0.00e+00	0	50	104	0	76	26999
2026-01-21 06:29:11.96	18.73	9.28	-53.3	-58.7	3.7	0.00e+00	0	50	104	0	77	28051
2026-01-21 06:29:13.96	18.32	9.15	-53.1	-57.8	3.7	0.00e+00	0	51	104	0	77	25264
2026-01-21 06:29:15.96	17.93	9.03	-53.3	-58.2	3.7	0.00e+00	0	51	104	0	77	26481
2026-01-21 06:29:17.95	17.53	8.91	-53.1	-58.6	3.7	0.00e+00	0	51	104	0	76	29329
2026-01-21 06:29:19.95	17.14	8.78	-54.7	-59.6	3.7	0.00e+00	0	50	104	0	80	26266
2026-01-21 06:29:21.93	16.76	8.66	-55.6	-59.9	3.7	0.00e+00	0	50	104	0	81	25590
2026-01-21 06:29:23.92	16.38	8.54	-54.6	-59.1	3.7	0.00e+00	0	51	104	0	81	23233
2026-01-21 06:29:25.91	16.01	8.41	-54.9	-59.4	3.7	0.00e+00	0	51	104	0	81	24181
2026-01-21 06:29:27.91	15.64	8.29	-55.4	-59.5	3.7	0.00e+00	0	50	104	0	82	23058
2026-01-21 06:29:29.90	15.27	8.16	-55.4	-59.5	3.7	0.00e+00	0	51	104	0	82	23016
2026-01-21 06:29:31.90	14.90	8.04	-56.2	-60.6	3.7	0.00e+00	0	50	104	0	83	24788
2026-01-21 06:29:33.89	14.54	7.91	-56.2	-60.7	3.7	0.00e+00	0	51	104	0	83	25016
2026-01-21 06:29:35.89	14.19	7.79	-55.5	-60.3	3.7	0.00e+00	0	50	104	0	83	23783
2026-01-21 06:29:37.88	13.84	7.66	-55.7	-60.4	3.7	0.00e+00	0	50	104	0	83	24048
2026-01-21 06:29:39.87	13.49	7.54	-55.4	-59.9	3.7	0.00e+00	0	50	104	0	82	24218
2026-01-21 06:29:41.87	13.14	7.42	-55.3	-59.9	3.7	0.00e+00	0	51	104	0	82	24119
2026-01-21 06:29:43.86	12.80	7.29	-55.3	-59.9	3.7	0.00e+00	0	50	104	0	82	24053
2026-01-21 06:29:45.85	12.47	7.17	-55.4	-59.9	3.7	0.00e+00	0	50	104	0	82	24117
2026-01-21 06:29:47.85	12.13	7.04	-55.4	-59.9	3.7	0.00e+00	0	51	104	0	82	24068
2026-01-21 06:29:49.84	11.80	6.92	-55.3	-59.9	3.7	0.00e+00	0	51	104	0	82	24088
2026-01-21 06:29:51.83	11.48	6.79	-55.3	-59.9	3.7	0.00e+00	0	51	104	0	82	24001
2026-01-21 06:29:53.83	11.16	6.67	-55.3	-59.9	3.7	0.00e+00	0	51	104	0	82	24089
2026-01-21 06:29:55.82	10.84	6.54	-55.3	-59.9	3.7	0.00e+00	0	51	104	0	82	24115
2026-01-21 06:29:57.81	10.52	6.42	-55.3	-59.9	3.7	0.00e+00	0	50	104	0	82	24079
2026-01-21 06:29:59.81	10.21	6.30	-55.3	-59.9	3.7	0.00e+00	0	51	104	0	82	23982
2026-01-21 06:30:01.80	9.90	6.17	-55.3	-59.9	3.7	0.00e+00	0	51	104	0	82	24109
2026-01-21 06:30:03.79	9.60	6.05	-55.3	-59.9	3.7	0.00e+00	0	51	104	0	82	24032
2026-01-21 06:30:05.78	9.30	5.93	-55.3	-59.8	3.7	0.00e+00	0	51	104	0	82	23963
2026-01-21 06:30:07.77	9.00	5.80	-55.3	-59.9	3.7	0.00e+00	0	51	104	0	82	23998
2026-01-21 06:30:09.76	8.71	5.68	-55.3	-59.9	3.7	0.00e+00	0	51	104	0	82	24020
2026-01-21 06:30:11.76	8.41	5.56	-55.3	-59.9	3.7	0.00e+00	0	51	104	0	82	24035
2026-01-21 06:30:13.75	8.12	5.43	-55.3	-59.9	3.7	0.00e+00	0	51	104	0	82	24066
2026-01-21 06:30:15.74	7.84	5.31	-55.3	-59.9	3.7	0.00e+00	0	50	104	0	82	24122
2026-01-21 06:30:17.73	7.56	5.19	-55.3	-59.8	3.7	0.00e+00	0	51	104	0	82	23961
2026-01-21 06:30:19.72	7.28	5.07	-55.3	-59.9	3.7	0.00e+00	0	50	104	0	82	24049
2026-01-21 06:30:21.71	7.00	4.95	-55.3	-59.9	3.7	0.00e+00	0	50	104	0	82	23987

#Closed at: 2026-01-21 06:30:22
#Recorded file [0 MB]: D:/Data/31040_260121_092331.dat