passes_logs/2026/01/21/T1/T1__20260121_075530_KHAYYAM_rec.log

#Pass ID: 20260121_075530_KHAYYAM
#Satellite: KHAYYAM
#Configuration: KHAYYAM_480M
#almurnet v.1.7.20251203
#Start time: 2026-01-21 07:55:30

#Version: 2.0.20230620
#Station: T1
#Location: 37.570604 lon 55.790049 lat
#TLE: 1 53370U 22096A   26020.99496882  .00015565  00000+0  63198-3 0  9993
#TLE: 2 53370  97.3560 287.8974 0001831 108.0193 252.1244 15.24672017192153

#Time	Az	El	Level	Level2	SNR	BER	BlckErr	Temp	State	Recorded	gain1	gain2
2026-01-21 07:55:30.16	166.37	5.08	-54.8	-59.5	3.5	0.00e+00	0	46	0	0	81	24384
2026-01-21 07:55:33.14	166.40	5.32	-51.6	-56.7	3.7	0.00e+00	0	46	104	0	74	26521
2026-01-21 07:55:36.12	166.43	5.57	-51.5	-56.7	3.7	0.00e+00	0	46	104	0	74	26414
2026-01-21 07:55:39.10	166.46	5.83	-51.6	-56.6	3.7	0.00e+00	0	47	104	0	74	26259
2026-01-21 07:55:42.08	166.49	6.08	-51.6	-56.7	3.7	0.00e+00	0	47	104	0	74	26488
2026-01-21 07:55:45.06	166.52	6.34	-51.4	-56.6	3.7	0.00e+00	0	47	104	0	74	26083
2026-01-21 07:55:48.04	166.55	6.60	-51.5	-56.6	3.7	0.00e+00	0	48	104	0	74	26237
2026-01-21 07:55:51.01	166.58	6.87	-51.5	-56.7	3.7	0.00e+00	0	48	104	0	74	26297
2026-01-21 07:55:53.99	166.61	7.14	-51.6	-56.7	3.7	0.00e+00	0	48	104	0	74	26504
2026-01-21 07:55:56.97	166.64	7.41	-51.6	-56.7	3.7	0.00e+00	0	48	104	0	74	26445
2026-01-21 07:55:59.95	166.68	7.69	-51.6	-56.7	3.7	0.00e+00	0	48	104	0	74	26465
2026-01-21 07:56:02.93	166.71	7.97	-51.5	-56.6	3.7	0.00e+00	0	49	104	0	74	26208
2026-01-21 07:56:05.91	166.75	8.26	-51.6	-56.8	3.7	0.00e+00	0	49	104	0	74	26651
2026-01-21 07:56:08.89	166.78	8.55	-51.6	-56.7	3.7	0.00e+00	0	49	104	0	74	26419
2026-01-21 07:56:11.87	166.82	8.85	-51.6	-56.7	3.7	0.00e+00	0	49	104	0	74	26453
2026-01-21 07:56:14.85	166.85	9.15	-51.8	-56.9	3.7	0.00e+00	0	49	104	0	74	26902
2026-01-21 07:56:17.95	166.89	9.46	-51.6	-56.9	3.7	0.00e+00	0	49	104	0	74	26930
2026-01-21 07:56:20.79	166.93	9.76	-51.4	-56.6	3.7	0.00e+00	0	49	104	0	74	26196
2026-01-21 07:56:23.92	166.97	10.09	-51.1	-56.3	3.7	0.00e+00	0	50	104	0	74	25340
2026-01-21 07:56:26.76	167.00	10.40	-51.4	-56.7	3.7	0.00e+00	0	50	104	0	74	26414
2026-01-21 07:56:29.98	167.05	10.75	-51.4	-56.7	3.7	0.00e+00	0	50	104	0	74	26323
2026-01-21 07:56:32.87	167.09	11.07	-51.1	-56.4	3.7	0.00e+00	0	50	104	0	73	27058
2026-01-21 07:56:36.09	167.13	11.44	-51.4	-56.7	3.7	0.00e+00	0	50	104	0	73	27894
2026-01-21 07:56:38.93	167.17	11.77	-53.9	-58.8	3.7	0.00e+00	0	50	104	0	78	26640
2026-01-21 07:56:42.09	167.22	12.15	-52.4	-57.5	3.7	0.00e+00	0	50	104	0	76	25787
2026-01-21 07:56:45.00	167.26	12.50	-53.1	-58.0	3.7	0.00e+00	0	50	104	0	76	27410
2026-01-21 07:56:47.98	167.31	12.87	-54.8	-59.4	3.7	0.00e+00	0	50	104	0	80	25403
2026-01-21 07:56:50.97	167.35	13.24	-54.8	-59.4	3.7	0.00e+00	0	50	104	0	80	25608
2026-01-21 07:56:53.96	167.40	13.63	-54.9	-59.5	3.7	0.00e+00	0	50	104	0	80	25817
2026-01-21 07:56:56.94	167.45	14.02	-54.1	-59.0	3.7	0.00e+00	0	50	104	0	80	24287
2026-01-21 07:56:59.92	167.50	14.42	-54.1	-59.0	3.7	0.00e+00	0	50	104	0	79	25857
2026-01-21 07:57:02.91	167.55	14.83	-54.1	-59.1	3.7	0.00e+00	0	51	104	0	79	26053
2026-01-21 07:57:05.89	167.61	15.24	-54.5	-59.3	3.7	0.00e+00	0	51	104	0	79	26716
2026-01-21 07:57:08.87	167.66	15.67	-54.5	-59.3	3.7	0.00e+00	0	51	104	0	79	26830
2026-01-21 07:57:11.97	167.72	16.12	-54.6	-59.2	3.7	0.00e+00	0	51	104	0	80	25006
2026-01-21 07:57:14.81	167.78	16.55	-54.9	-59.6	3.7	0.00e+00	0	51	104	0	80	26018
2026-01-21 07:57:17.93	167.84	17.03	-54.8	-59.5	3.7	0.00e+00	0	51	104	0	80	25838
2026-01-21 07:57:20.78	167.90	17.48	-54.8	-59.5	3.7	0.00e+00	0	51	104	0	80	25810
2026-01-21 07:57:24.05	167.97	18.01	-54.8	-59.5	3.7	0.00e+00	0	51	104	0	80	25832
2026-01-21 07:57:26.95	168.04	18.49	-54.9	-59.6	3.7	0.00e+00	0	51	104	0	80	26082
2026-01-21 07:57:30.24	168.11	19.05	-54.9	-59.6	3.7	0.00e+00	0	51	104	0	80	26125
2026-01-21 07:57:32.97	168.18	19.53	-54.8	-59.5	3.7	0.00e+00	0	51	104	0	80	25766
2026-01-21 07:57:36.24	168.26	20.12	-54.7	-59.3	3.7	0.00e+00	0	51	104	0	80	25315
2026-01-21 07:57:38.97	168.33	20.63	-54.9	-59.5	3.7	0.00e+00	0	51	104	0	80	25781
2026-01-21 07:57:42.23	168.41	21.25	-54.8	-59.4	3.7	0.00e+00	0	51	104	0	80	25436
2026-01-21 07:57:45.20	168.49	21.83	-54.8	-59.4	3.7	0.00e+00	0	51	104	0	80	25399
2026-01-21 07:57:48.19	168.58	22.44	-54.7	-59.1	3.7	0.00e+00	0	51	104	0	80	24617
2026-01-21 07:57:51.17	168.67	23.06	-54.7	-59.4	3.7	0.00e+00	0	51	104	0	80	25389
2026-01-21 07:57:54.23	168.76	23.72	-54.9	-58.9	3.7	0.00e+00	0	51	104	0	80	24134
2026-01-21 07:57:57.22	168.86	24.38	-54.1	-57.8	3.7	0.00e+00	0	51	104	0	80	21196
2026-01-21 07:58:00.20	168.96	25.06	-55.6	-60.1	3.7	0.00e+00	0	51	104	0	81	26232
2026-01-21 07:58:03.19	169.07	25.77	-55.1	-59.8	3.7	0.00e+00	0	51	104	0	81	25333
2026-01-21 07:58:06.17	169.18	26.50	-55.4	-60.0	3.7	0.00e+00	0	51	104	0	81	25754
2026-01-21 07:58:09.16	169.29	27.25	-54.5	-58.0	3.7	0.00e+00	0	51	104	0	80	21764
2026-01-21 07:58:12.16	169.42	28.03	-54.1	-57.2	3.7	0.00e+00	0	51	104	0	80	19784
2026-01-21 07:58:15.15	169.54	28.84	-53.6	-56.3	3.8	0.00e+00	0	51	104	0	79	18917
2026-01-21 07:58:18.54	169.70	29.79	-55.8	-60.3	3.7	0.00e+00	0	51	104	0	82	25181
2026-01-21 07:58:21.26	169.83	30.59	-55.6	-60.2	3.7	0.00e+00	0	51	104	0	82	24825
2026-01-21 07:58:24.98	170.02	31.71	-55.4	-60.0	3.7	0.00e+00	0	51	104	0	82	24489
2026-01-21 07:58:27.68	170.16	32.56	-55.5	-60.1	3.7	0.00e+00	0	51	104	0	82	24669
2026-01-21 07:58:31.04	170.36	33.66	-55.5	-60.2	3.7	0.00e+00	0	51	104	0	82	24867
2026-01-21 07:58:33.74	170.52	34.58	-55.8	-60.3	3.7	0.00e+00	0	51	104	0	82	25137
2026-01-21 07:58:37.26	170.75	35.82	-55.4	-60.0	3.7	0.00e+00	0	51	104	0	82	24331
2026-01-21 07:58:39.97	170.94	36.82	-55.8	-60.4	3.7	0.00e+00	0	51	104	0	82	25460
2026-01-21 07:58:43.26	171.19	38.08	-55.6	-60.3	3.7	0.00e+00	0	51	104	0	82	25123
2026-01-21 07:58:45.95	171.40	39.15	-56.0	-60.4	3.7	0.00e+00	0	51	104	0	82	25468
2026-01-21 07:58:49.23	171.69	40.51	-55.7	-60.1	3.7	0.00e+00	0	51	104	0	82	24602
2026-01-21 07:58:52.22	171.97	41.81	-55.7	-60.2	3.7	0.00e+00	0	51	104	0	82	24843
2026-01-21 07:58:55.49	172.31	43.28	-55.8	-60.2	3.7	0.00e+00	0	52	104	0	82	24870
2026-01-21 07:58:58.20	172.61	44.55	-55.8	-60.4	3.7	0.00e+00	0	51	104	0	82	25425
2026-01-21 07:59:01.47	173.01	46.15	-56.0	-60.4	3.7	0.00e+00	0	52	104	0	82	25625
2026-01-21 07:59:04.28	173.39	47.58	-56.1	-60.5	3.7	0.00e+00	0	51	104	0	82	25879
2026-01-21 07:59:07.41	173.86	49.24	-56.0	-60.4	3.7	0.00e+00	0	51	104	0	82	25569
2026-01-21 07:59:10.26	174.33	50.81	-55.9	-60.4	3.7	0.00e+00	0	52	104	0	82	25509
2026-01-21 07:59:13.39	174.91	52.60	-55.9	-60.3	3.7	0.00e+00	0	52	104	0	82	25132
2026-01-21 07:59:16.23	175.51	54.28	-56.1	-60.5	3.7	0.00e+00	0	51	104	0	82	25790
2026-01-21 07:59:19.39	176.26	56.23	-55.5	-60.2	3.7	0.00e+00	0	51	104	0	82	24939
2026-01-21 07:59:22.37	177.07	58.13	-56.1	-60.6	3.7	0.00e+00	0	51	104	0	82	26081
2026-01-21 07:59:25.36	178.01	60.10	-56.1	-60.5	3.7	0.00e+00	0	51	104	0	82	25935
2026-01-21 07:59:28.34	179.11	62.13	-55.8	-60.4	3.7	0.00e+00	0	52	104	0	82	25540
2026-01-21 07:59:31.33	180.42	64.21	-56.1	-60.6	3.7	0.00e+00	0	51	104	0	82	26120
2026-01-21 07:59:34.39	182.03	66.41	-55.9	-60.5	3.7	0.00e+00	0	52	104	0	82	25704
2026-01-21 07:59:37.36	183.95	68.58	-55.5	-60.3	3.7	0.00e+00	0	51	104	0	82	25142
2026-01-21 07:59:40.49	186.49	70.90	-56.2	-60.6	3.7	0.00e+00	0	52	104	0	83	24687
2026-01-21 07:59:43.33	189.44	73.01	-56.1	-60.5	3.7	0.00e+00	0	52	104	0	83	24478
2026-01-21 07:59:46.45	193.71	75.32	-55.3	-60.1	3.7	0.00e+00	0	52	104	0	82	24729
2026-01-21 07:59:49.30	199.03	77.37	-55.9	-60.5	3.7	0.00e+00	0	52	104	0	82	25734
2026-01-21 07:59:52.77	208.36	79.70	-56.0	-60.3	3.7	0.00e+00	0	52	104	0	82	25238
2026-01-21 07:59:55.55	219.30	81.29	-55.6	-60.2	3.7	0.00e+00	0	51	104	0	82	25061
2026-01-21 07:59:58.82	237.50	82.60	-55.5	-60.0	3.7	0.00e+00	0	51	104	0	82	24342
2026-01-21 08:00:01.53	256.22	82.97	-55.2	-59.9	3.7	0.00e+00	0	51	104	0	82	23995
2026-01-21 08:00:05.16	280.46	82.26	-55.7	-60.2	3.7	0.00e+00	0	51	104	0	82	24968
2026-01-21 08:00:08.18	295.63	80.85	-56.0	-60.4	3.7	0.00e+00	0	51	104	0	82	25614
2026-01-21 08:00:11.24	306.31	78.98	-55.7	-60.2	3.7	0.00e+00	0	52	104	0	82	25046
2026-01-21 08:00:14.37	313.81	76.82	-55.7	-60.0	3.7	0.00e+00	0	51	104	0	82	24415
2026-01-21 08:00:17.21	318.68	74.76	-55.7	-60.1	3.7	0.00e+00	0	52	104	0	82	24753
2026-01-21 08:00:20.41	322.73	72.39	-56.2	-60.5	3.7	0.00e+00	0	51	104	0	82	25735
2026-01-21 08:00:23.33	325.54	70.22	-55.9	-60.4	3.7	0.00e+00	0	52	104	0	83	24134
2026-01-21 08:00:26.62	328.01	67.80	-56.0	-60.6	3.7	0.00e+00	0	51	104	0	83	24557
2026-01-21 08:00:29.51	329.74	65.71	-56.1	-60.6	3.7	0.00e+00	0	52	104	0	83	24573
2026-01-21 08:00:32.63	331.28	63.50	-55.5	-60.3	3.7	0.00e+00	0	52	104	0	82	25181
2026-01-21 08:00:35.47	332.45	61.53	-56.1	-60.6	3.7	0.00e+00	0	52	104	0	82	26029
2026-01-21 08:00:38.84	333.62	59.28	-56.2	-60.6	3.7	0.00e+00	0	51	104	0	82	26088
2026-01-21 08:00:41.98	334.55	57.24	-54.6	-59.8	3.7	0.00e+00	0	52	104	0	81	25102
2026-01-21 08:00:44.82	335.28	55.46	-55.5	-60.3	3.7	0.00e+00	0	52	104	0	81	26842
2026-01-21 08:00:47.95	335.98	53.57	-55.9	-60.5	3.7	0.00e+00	0	52	104	0	82	25777
2026-01-21 08:00:50.79	336.54	51.92	-56.0	-60.5	3.7	0.00e+00	0	52	104	0	82	25806
2026-01-21 08:00:54.10	337.13	50.07	-55.5	-60.3	3.7	0.00e+00	0	51	104	0	81	26605
2026-01-21 08:00:56.81	337.56	48.61	-55.8	-60.4	3.7	0.00e+00	0	52	104	0	82	25457
2026-01-21 08:01:00.11	338.03	46.90	-55.7	-60.4	3.7	0.00e+00	0	52	104	0	82	25495
2026-01-21 08:01:02.87	338.38	45.53	-55.9	-60.4	3.7	0.00e+00	0	52	104	0	82	25667
2026-01-21 08:01:06.14	338.77	43.96	-55.6	-60.3	3.7	0.00e+00	0	51	104	0	82	25272
2026-01-21 08:01:08.85	339.06	42.72	-54.8	-59.9	3.7	0.00e+00	0	52	104	0	81	25668
2026-01-21 08:01:12.46	339.42	41.13	-55.7	-60.3	3.7	0.00e+00	0	52	104	0	82	25382
2026-01-21 08:01:15.21	339.66	39.98	-55.4	-60.2	3.7	0.00e+00	0	52	104	0	82	24983
2026-01-21 08:01:18.48	339.94	38.65	-55.4	-60.2	3.7	0.00e+00	0	51	104	0	82	24898
2026-01-21 08:01:21.21	340.15	37.59	-55.8	-60.4	3.7	0.00e+00	0	52	104	0	82	25549
2026-01-21 08:01:24.55	340.39	36.34	-54.8	-59.9	3.7	0.00e+00	0	52	104	0	81	25393
2026-01-21 08:01:27.39	340.59	35.32	-54.0	-59.4	3.7	0.00e+00	0	52	104	0	79	27049
2026-01-21 08:01:30.73	340.80	34.17	-55.5	-60.2	3.7	0.00e+00	0	52	104	0	81	26413
2026-01-21 08:01:33.46	340.96	33.26	-55.3	-60.0	3.7	0.00e+00	0	52	104	0	81	25912
2026-01-21 08:01:36.73	341.14	32.22	-54.8	-59.8	3.7	0.00e+00	0	52	104	0	80	26768
2026-01-21 08:01:39.44	341.28	31.38	-54.3	-59.7	3.7	0.00e+00	0	52	104	0	79	28017
2026-01-21 08:01:42.71	341.45	30.41	-55.1	-60.0	3.7	0.00e+00	0	52	104	0	80	27359
2026-01-21 08:01:45.76	341.59	29.54	-55.1	-59.9	3.7	0.00e+00	0	52	104	0	81	25482
2026-01-21 08:01:48.89	341.73	28.68	-55.5	-60.1	3.7	0.00e+00	0	52	104	0	81	26008
2026-01-21 08:01:51.74	341.85	27.92	-54.0	-59.3	3.7	0.00e+00	0	52	104	0	79	26834
2026-01-21 08:01:54.86	341.98	27.11	-55.1	-59.8	3.7	0.00e+00	0	52	104	0	80	26678
2026-01-21 08:01:57.70	342.09	26.41	-54.7	-59.4	3.7	0.00e+00	0	52	104	0	81	24067
2026-01-21 08:02:00.99	342.21	25.62	-53.5	-58.7	3.7	0.00e+00	0	52	104	0	79	25010
2026-01-21 08:02:03.96	342.31	24.93	-54.4	-59.1	3.7	0.00e+00	0	51	104	0	79	26240
2026-01-21 08:02:07.24	342.42	24.19	-54.8	-59.3	3.7	0.00e+00	0	52	104	0	80	25365
2026-01-21 08:02:09.95	342.51	23.60	-54.6	-59.1	3.7	0.00e+00	0	52	104	0	80	24799
2026-01-21 08:02:13.23	342.61	22.91	-53.9	-58.9	3.7	0.00e+00	0	52	104	0	78	26997
2026-01-21 08:02:15.97	342.69	22.34	-54.4	-59.5	3.7	0.00e+00	0	52	104	0	79	27277
2026-01-21 08:02:19.24	342.79	21.69	-54.5	-59.4	3.7	0.00e+00	0	52	104	0	81	24083
2026-01-21 08:02:21.97	342.86	21.17	-54.6	-59.6	3.7	0.00e+00	0	52	104	0	79	27614
2026-01-21 08:02:25.24	342.95	20.55	-55.2	-59.9	3.7	0.00e+00	0	52	104	0	80	27013
2026-01-21 08:02:27.94	343.02	20.06	-55.6	-60.1	3.7	0.00e+00	0	52	104	0	81	26075
2026-01-21 08:02:31.21	343.10	19.48	-55.5	-60.1	3.7	0.00e+00	0	52	104	0	81	26080
2026-01-21 08:02:34.19	343.17	18.96	-54.7	-59.6	3.7	0.00e+00	0	52	104	0	80	26256
2026-01-21 08:02:37.24	343.24	18.45	-55.2	-59.8	3.7	0.00e+00	0	52	104	0	81	25324
2026-01-21 08:02:40.63	343.32	17.90	-55.3	-60.1	3.7	0.00e+00	0	52	104	0	81	25996
2026-01-21 08:02:43.55	343.38	17.43	-53.4	-58.8	3.7	0.00e+00	0	52	104	0	78	26705
2026-01-21 08:02:46.83	343.45	16.92	-54.8	-59.8	3.7	0.00e+00	0	52	104	0	80	26592
2026-01-21 08:02:49.54	343.50	16.51	-55.2	-60.1	3.7	0.00e+00	0	52	104	0	80	27611
2026-01-21 08:02:52.81	343.57	16.03	-55.3	-60.1	3.7	0.00e+00	0	51	104	0	81	26141
2026-01-21 08:02:55.52	343.62	15.64	-54.0	-59.3	3.7	0.00e+00	0	52	104	0	79	26888
2026-01-21 08:02:58.81	343.68	15.17	-53.7	-59.2	3.7	0.00e+00	0	52	104	0	77	29737
2026-01-21 08:03:01.52	343.73	14.80	-53.7	-59.2	3.7	0.00e+00	0	52	104	0	77	29573
2026-01-21 08:03:04.79	343.79	14.36	-53.8	-59.3	3.7	0.00e+00	0	52	104	0	78	28216
2026-01-21 08:03:07.52	343.84	14.00	-54.3	-59.8	3.7	0.00e+00	0	52	104	0	79	28239
2026-01-21 08:03:10.79	343.89	13.57	-52.7	-58.6	3.7	0.00e+00	0	52	104	0	77	27687
2026-01-21 08:03:13.57	343.94	13.22	-53.4	-59.1	3.7	0.00e+00	0	52	104	0	77	29410
2026-01-21 08:03:16.90	343.99	12.81	-53.6	-59.3	3.7	0.00e+00	0	52	104	0	77	30007
2026-01-21 08:03:19.82	344.04	12.45	-53.8	-59.4	3.7	0.00e+00	0	52	104	0	78	28751
2026-01-21 08:03:23.32	344.09	12.04	-52.7	-58.6	3.7	0.00e+00	0	52	104	0	77	27543
2026-01-21 08:03:26.16	344.14	11.71	-52.7	-58.6	3.7	0.00e+00	0	52	104	0	77	27624
2026-01-21 08:03:29.29	344.18	11.35	-52.8	-58.7	3.7	0.00e+00	0	52	104	0	77	27850
2026-01-21 08:03:32.13	344.22	11.03	-52.6	-58.6	3.7	0.00e+00	0	52	104	0	77	27775
2026-01-21 08:03:35.58	344.27	10.65	-52.0	-58.1	3.7	0.00e+00	0	52	104	0	76	27669
2026-01-21 08:03:38.28	344.31	10.36	-50.4	-56.9	3.7	0.00e+00	0	52	104	0	72	30373
2026-01-21 08:03:41.56	344.36	10.01	-49.3	-56.0	3.9	0.00e+00	0	52	104	0	70	30681
2026-01-21 08:03:44.28	344.39	9.73	-49.7	-56.6	3.8	0.00e+00	0	52	104	0	70	32841
2026-01-21 08:03:47.57	344.43	9.39	-49.4	-56.2	3.9	0.00e+00	0	52	104	0	70	31541
2026-01-21 08:03:50.29	344.47	9.11	-49.4	-56.3	3.8	0.00e+00	0	52	104	0	70	31800
2026-01-21 08:03:53.75	344.51	8.77	-53.6	-59.1	3.7	0.00e+00	0	52	104	0	79	26131
2026-01-21 08:03:56.52	344.55	8.50	-53.7	-59.1	3.7	0.00e+00	0	52	104	0	79	26275
2026-01-21 08:03:59.85	344.59	8.18	-53.9	-59.4	3.7	0.00e+00	0	52	104	0	80	25522
2026-01-21 08:04:02.57	344.62	7.92	-55.4	-60.5	3.7	0.00e+00	0	52	104	0	82	25694
2026-01-21 08:04:05.85	344.66	7.62	-56.0	-60.5	3.7	0.00e+00	0	52	104	0	82	25972
2026-01-21 08:04:08.55	344.69	7.37	-55.9	-60.6	3.7	0.00e+00	0	52	104	0	83	24606
2026-01-21 08:04:11.81	344.73	7.07	-56.4	-60.9	3.7	0.00e+00	0	52	104	0	83	25416
2026-01-21 08:04:14.53	344.76	6.83	-56.1	-60.7	3.7	0.00e+00	0	52	104	0	83	24877
2026-01-21 08:04:17.81	344.80	6.54	-55.8	-60.2	3.7	0.00e+00	0	52	104	0	82	25074
2026-01-21 08:04:20.52	344.83	6.31	-55.5	-60.0	3.7	0.00e+00	0	52	104	0	82	24466
2026-01-21 08:04:23.78	344.86	6.03	-55.5	-60.0	3.7	0.00e+00	0	52	104	0	82	24359
2026-01-21 08:04:26.51	344.89	5.80	-55.5	-60.0	3.7	0.00e+00	0	51	104	0	82	24512
2026-01-21 08:04:29.79	344.93	5.52	-55.5	-60.0	3.7	0.00e+00	0	52	104	0	82	24410
2026-01-21 08:04:32.50	344.95	5.30	-55.5	-60.0	3.7	0.00e+00	0	52	104	0	82	24467
2026-01-21 08:04:35.78	344.99	5.03	-55.5	-60.0	3.7	0.00e+00	0	52	104	0	82	24378

#Closed at: 2026-01-21 08:04:38
#Recorded file [0 MB]: D:/Data/31040_260121_105530.dat