passes_logs/2026/01/21/T1/T1__20260121_230357_SUOMI_NPP_rec.log

#Pass ID: 20260121_230357_SUOMI NPP
#Satellite: SUOMI NPP
#Configuration: NPP
#almurnet v.1.7.20251203
#Start time: 2026-01-21 23:03:57

#Version: 2.0.20230620
#Station: T1
#Location: 37.570604 lon 55.790049 lat
#TLE: 1 37849U 11061A   26021.51818991  .00000201  00000+0  11636-3 0  9995
#TLE: 2 37849  98.7819 323.5108 0002300  52.3548 307.7836 14.19527793737637

#Time	Az	El	Level	Level2	SNR	BER	BlckErr	Temp	State	Recorded	gain1	gain2
2026-01-21 23:03:57.15	21.56	5.01	-49.6	-65.5	3.8	1.49e+00	0	35	0	0	70	22830
2026-01-21 23:04:00.12	21.69	5.21	-49.6	-65.5	3.8	1.49e+00	0	35	104	0	70	22789
2026-01-21 23:04:03.10	21.82	5.42	-49.6	-65.4	3.8	1.49e+00	0	35	104	0	70	22759
2026-01-21 23:04:06.08	21.95	5.62	-49.6	-65.5	3.8	1.49e+00	0	35	104	0	70	22840
2026-01-21 23:04:09.06	22.08	5.83	-49.6	-65.5	3.8	1.49e+00	0	36	104	0	70	22852
2026-01-21 23:04:12.04	22.22	6.04	-49.6	-65.5	3.8	1.49e+00	0	36	104	0	70	22867
2026-01-21 23:04:15.02	22.35	6.26	-49.6	-65.5	3.8	1.49e+00	0	36	104	0	70	22845
2026-01-21 23:04:18.00	22.49	6.47	-49.6	-65.4	3.8	1.49e+00	0	36	104	0	70	22759
2026-01-21 23:04:20.98	22.63	6.68	-49.6	-65.4	3.8	1.49e+00	0	36	104	0	70	22766
2026-01-21 23:04:23.96	22.77	6.90	-49.6	-65.3	3.8	1.49e+00	0	36	104	0	70	22456
2026-01-21 23:04:26.94	22.91	7.12	-49.6	-64.9	3.8	1.49e+00	0	36	104	0	70	21352
2026-01-21 23:04:29.92	23.06	7.34	-49.6	-64.4	3.8	1.49e+00	0	36	104	0	70	20075
2026-01-21 23:04:32.90	23.21	7.56	-49.6	-64.1	3.8	1.49e+00	0	36	104	0	70	19442
2026-01-21 23:04:35.88	23.36	7.79	-49.6	-64.1	3.8	1.49e+00	0	37	104	0	70	19506
2026-01-21 23:04:38.86	23.51	8.01	-49.6	-64.0	3.8	1.49e+00	0	36	104	0	70	19369
2026-01-21 23:04:41.84	23.66	8.24	-49.5	-63.8	3.8	1.49e+00	0	37	104	0	70	18751
2026-01-21 23:04:44.82	23.82	8.47	-49.4	-62.1	4.2	1.42e+00	0	37	0	0	70	15448
2026-01-21 23:04:47.80	23.97	8.70	-49.0	-58.5	5.9	3.98e-01	0	37	0	4194304	70	10260
2026-01-21 23:04:50.78	24.13	8.93	-48.3	-55.2	8.8	5.05e-02	0	37	0	9437184	68	7870
2026-01-21 23:04:53.76	24.30	9.17	-49.3	-60.2	4.9	4.44e-02	0	37	0	14680064	69	13249
2026-01-21 23:04:56.76	24.46	9.41	-45.7	-49.4	14.7	2.49e-02	0	37	0	20971520	63	5365
2026-01-21 23:04:59.74	24.63	9.65	-45.5	-49.0	15.1	0.00e+00	0	37	0	26214400	63	5138
2026-01-21 23:05:02.73	24.80	9.89	-45.5	-49.0	15.1	0.00e+00	0	37	0	31457280	62	5455
2026-01-21 23:05:05.71	24.97	10.14	-45.2	-48.5	15.6	0.00e+00	0	37	0	37748736	62	5111
2026-01-21 23:05:08.69	25.15	10.38	-45.0	-48.3	15.8	0.00e+00	0	37	0	42991616	62	5002
2026-01-21 23:05:11.68	25.33	10.63	-44.7	-47.9	16.2	0.00e+00	0	37	0	48234496	61	5048
2026-01-21 23:05:14.92	25.53	10.90	-44.5	-47.6	16.5	0.00e+00	0	37	0	54525952	60	5203
2026-01-21 23:05:17.62	25.69	11.13	-44.4	-47.4	16.6	0.00e+00	0	37	0	59768832	60	5089
2026-01-21 23:05:20.90	25.90	11.42	-44.2	-47.3	16.8	0.00e+00	0	37	0	66060288	60	5003
2026-01-21 23:05:23.62	26.07	11.65	-44.2	-47.1	17.0	0.00e+00	0	37	0	71303168	60	4886
2026-01-21 23:05:26.90	26.28	11.94	-44.3	-47.1	17.0	0.00e+00	0	37	0	77594624	60	4922
2026-01-21 23:05:29.64	26.47	12.18	-44.1	-46.9	17.2	0.00e+00	0	37	0	82837504	60	4765
2026-01-21 23:05:32.93	26.69	12.47	-44.2	-46.9	17.1	0.00e+00	0	37	0	88080384	59	5096
2026-01-21 23:05:35.65	26.87	12.72	-44.0	-46.7	17.3	0.00e+00	0	37	0	93323264	59	4967
2026-01-21 23:05:38.93	27.10	13.02	-43.8	-46.5	17.5	0.00e+00	0	37	0	99614720	59	4856
2026-01-21 23:05:41.64	27.29	13.27	-43.7	-46.4	17.6	0.00e+00	0	37	0	104857600	59	4775
2026-01-21 23:05:44.92	27.53	13.57	-43.8	-46.4	17.6	0.00e+00	0	37	0	111149056	59	4794
2026-01-21 23:05:47.67	27.73	13.83	-43.4	-46.0	18.0	0.00e+00	0	37	0	116391936	58	4816
2026-01-21 23:05:51.19	27.99	14.17	-43.4	-46.1	17.9	0.00e+00	0	37	0	122683392	58	4881
2026-01-21 23:05:54.51	28.24	14.48	-43.3	-45.9	18.1	0.00e+00	0	37	0	128974848	58	4785
2026-01-21 23:05:57.40	28.47	14.77	-43.4	-46.0	18.0	0.00e+00	0	38	0	134217728	58	4869
2026-01-21 23:06:01.27	28.78	15.15	-43.4	-46.0	18.1	0.00e+00	0	37	0	141557760	58	4818
2026-01-21 23:06:03.98	28.99	15.42	-43.5	-46.0	18.0	0.00e+00	0	37	0	146800640	58	4858
2026-01-21 23:06:07.25	29.26	15.74	-43.7	-46.2	17.9	0.00e+00	0	38	0	153092096	58	4944
2026-01-21 23:06:09.97	29.49	16.02	-43.7	-46.3	17.8	0.00e+00	0	37	0	158334976	58	4985
2026-01-21 23:06:13.27	29.78	16.36	-43.8	-46.4	17.8	0.00e+00	0	37	0	164626432	58	5048
2026-01-21 23:06:15.98	30.01	16.64	-44.0	-46.6	17.5	0.00e+00	0	38	0	168820736	58	5184
2026-01-21 23:06:19.25	30.31	16.99	-44.0	-46.7	17.5	0.00e+00	0	38	0	175112192	58	5232
2026-01-21 23:06:21.96	30.55	17.27	-44.1	-46.7	17.4	0.00e+00	0	37	0	180355072	58	5267
2026-01-21 23:06:25.27	30.86	17.63	-44.1	-46.7	17.4	0.00e+00	0	38	0	186646528	59	4983
2026-01-21 23:06:28.11	31.13	17.94	-44.4	-47.0	17.2	0.00e+00	0	38	0	191889408	59	5154
2026-01-21 23:06:31.37	31.44	18.30	-44.3	-46.9	17.3	0.00e+00	0	38	0	198180864	59	5057
2026-01-21 23:06:34.21	31.72	18.61	-44.3	-46.9	17.3	0.00e+00	0	38	0	203423744	59	5063
2026-01-21 23:06:37.34	32.04	18.97	-44.5	-47.3	17.0	0.00e+00	0	38	0	209715200	59	5287
2026-01-21 23:06:40.18	32.33	19.29	-44.6	-47.4	16.9	0.00e+00	0	38	0	214958080	60	5081
2026-01-21 23:06:43.31	32.66	19.65	-44.4	-47.2	17.1	0.00e+00	0	38	0	220200960	60	4943
2026-01-21 23:06:46.15	32.97	19.98	-44.0	-46.7	17.5	0.00e+00	0	38	0	225443840	60	4692
2026-01-21 23:06:49.54	33.34	20.38	-44.0	-46.7	17.5	0.00e+00	0	38	0	231735296	59	4939
2026-01-21 23:06:52.26	33.65	20.71	-44.1	-46.7	17.5	0.00e+00	0	38	0	236978176	59	4935
2026-01-21 23:06:55.52	34.03	21.10	-44.3	-46.9	17.3	0.00e+00	0	38	0	243269632	59	5070
2026-01-21 23:06:58.23	34.35	21.43	-44.3	-46.9	17.3	0.00e+00	0	38	0	248512512	59	5081
2026-01-21 23:07:01.51	34.74	21.84	-44.3	-47.0	17.3	0.00e+00	0	38	0	254803968	59	5104
2026-01-21 23:07:04.23	35.08	22.18	-44.2	-46.8	17.4	0.00e+00	0	38	0	260046848	59	5040
2026-01-21 23:07:07.62	35.51	22.61	-44.4	-47.0	17.2	0.00e+00	0	38	0	266338304	59	5153
2026-01-21 23:07:10.35	35.86	22.96	-44.4	-47.0	17.3	0.00e+00	0	38	0	271581184	60	4863
2026-01-21 23:07:13.74	36.31	23.40	-44.2	-46.8	17.5	0.00e+00	0	38	0	277872640	60	4749
2026-01-21 23:07:16.45	36.68	23.75	-44.3	-46.9	17.5	0.00e+00	0	37	0	283115520	60	4763
2026-01-21 23:07:19.72	37.14	24.19	-44.0	-46.5	17.8	0.00e+00	0	38	0	288358400	60	4597
2026-01-21 23:07:22.47	37.53	24.56	-44.2	-46.8	17.6	0.00e+00	0	38	0	293601280	60	4720
2026-01-21 23:07:25.77	38.01	25.00	-43.9	-46.4	17.9	0.00e+00	0	38	0	299892736	59	4770
2026-01-21 23:07:28.48	38.42	25.38	-44.0	-46.5	17.7	0.00e+00	0	38	0	305135616	59	4869
2026-01-21 23:07:31.75	38.93	25.83	-43.9	-46.4	17.8	0.00e+00	0	38	0	311427072	59	4795
2026-01-21 23:07:34.96	39.43	26.28	-44.2	-46.8	17.5	0.00e+00	0	38	0	317718528	59	5003
2026-01-21 23:07:37.80	39.90	26.69	-44.0	-46.4	17.8	0.00e+00	0	38	0	322961408	59	4805
2026-01-21 23:07:40.93	40.42	27.14	-43.7	-46.1	18.1	0.00e+00	0	38	0	328204288	59	4642
2026-01-21 23:07:43.77	40.91	27.55	-43.9	-46.4	17.9	0.00e+00	0	38	0	333447168	59	4767
2026-01-21 23:07:47.07	41.49	28.03	-44.5	-47.2	17.2	0.00e+00	0	38	0	339738624	59	5223
2026-01-21 23:07:49.98	42.02	28.47	-45.4	-48.4	16.1	0.00e+00	0	38	0	344981504	61	5369
2026-01-21 23:07:53.10	42.60	28.93	-45.8	-49.0	15.5	0.00e+00	0	37	0	351272960	62	5432
2026-01-21 23:07:55.95	43.15	29.36	-45.6	-48.6	15.8	0.00e+00	0	38	0	356515840	62	5216
2026-01-21 23:07:59.01	43.75	29.83	-45.7	-48.8	15.8	0.00e+00	0	38	0	362807296	62	5298
2026-01-21 23:08:01.99	44.35	30.29	-45.9	-49.1	15.4	0.00e+00	0	38	0	368050176	62	5474
2026-01-21 23:08:04.98	44.97	30.76	-45.1	-47.9	16.5	0.00e+00	0	38	0	373293056	62	4803
2026-01-21 23:08:07.97	45.61	31.22	-44.9	-47.7	16.8	0.00e+00	0	38	0	379584512	61	4938
2026-01-21 23:08:10.97	46.28	31.70	-45.0	-47.8	16.7	0.00e+00	0	38	0	384827392	61	4989
2026-01-21 23:08:13.96	46.95	32.17	-45.5	-48.5	16.0	0.00e+00	0	38	0	390070272	61	5420
2026-01-21 23:08:16.94	47.65	32.65	-45.7	-48.8	15.7	0.00e+00	0	38	0	396361728	62	5333
2026-01-21 23:08:19.92	48.37	33.13	-45.0	-47.7	16.7	0.00e+00	0	38	0	401604608	62	4700
2026-01-21 23:08:22.90	49.10	33.62	-45.1	-47.9	16.6	0.00e+00	0	38	0	406847488	61	5051
2026-01-21 23:08:25.86	49.86	34.10	-45.0	-47.8	16.6	0.00e+00	0	38	0	413138944	61	5010
2026-01-21 23:08:28.89	50.65	34.59	-45.4	-48.3	16.2	0.00e+00	0	38	0	418381824	61	5337
2026-01-21 23:08:31.88	51.46	35.09	-45.3	-48.3	16.3	0.00e+00	0	38	0	423624704	61	5309
2026-01-21 23:08:34.86	52.29	35.58	-44.1	-46.6	17.7	0.00e+00	0	38	0	429916160	60	4641
2026-01-21 23:08:37.86	53.15	36.07	-44.5	-47.1	17.2	0.00e+00	0	38	0	435159040	59	5218
2026-01-21 23:08:40.92	54.06	36.58	-44.6	-47.3	17.1	0.00e+00	0	38	0	441450496	60	5023
2026-01-21 23:08:44.08	55.02	37.10	-44.1	-46.6	17.8	0.00e+00	0	38	0	446693376	60	4637
2026-01-21 23:08:46.93	55.92	37.57	-44.0	-46.5	17.9	0.00e+00	0	38	0	451936256	59	4816
2026-01-21 23:08:50.02	56.92	38.08	-44.5	-47.2	17.2	0.00e+00	0	38	0	458227712	59	5238
2026-01-21 23:08:53.01	57.92	38.57	-44.2	-46.7	17.6	0.00e+00	0	38	0	463470592	59	4977
2026-01-21 23:08:55.99	58.94	39.05	-44.3	-46.9	17.5	0.00e+00	0	38	0	469762048	60	4792
2026-01-21 23:08:58.98	60.00	39.53	-43.6	-46.0	18.3	0.00e+00	0	38	0	475004928	59	4565
2026-01-21 23:09:01.96	61.09	40.01	-44.5	-47.1	17.3	0.00e+00	0	38	0	480247808	59	5186
2026-01-21 23:09:04.95	62.21	40.48	-44.0	-46.5	17.9	0.00e+00	0	38	0	486539264	59	4817
2026-01-21 23:09:07.93	63.36	40.95	-45.0	-47.9	16.7	0.00e+00	0	38	0	491782144	60	5341
2026-01-21 23:09:10.92	64.55	41.41	-43.8	-46.2	18.1	0.00e+00	0	38	0	497025024	59	4687
2026-01-21 23:09:13.90	65.77	41.86	-44.5	-47.2	17.3	0.00e+00	0	38	0	503316480	59	5227
2026-01-21 23:09:17.01	67.07	42.32	-45.6	-48.7	15.9	0.00e+00	0	38	0	508559360	61	5535
2026-01-21 23:09:19.85	68.30	42.73	-44.6	-47.3	17.2	0.00e+00	0	38	0	513802240	61	4733
2026-01-21 23:09:22.98	69.69	43.17	-44.6	-47.2	17.2	0.00e+00	0	38	0	520093696	60	4972
2026-01-21 23:09:25.83	70.98	43.56	-45.5	-48.5	15.9	0.00e+00	0	38	0	525336576	61	5442
2026-01-21 23:09:28.95	72.44	43.98	-44.8	-47.4	17.0	0.00e+00	0	38	0	530579456	61	4800
2026-01-21 23:09:31.80	73.80	44.34	-46.0	-49.3	15.3	0.00e+00	0	38	0	536870912	62	5642
2026-01-21 23:09:34.92	75.32	44.72	-46.3	-49.7	14.9	0.00e+00	0	38	0	542113792	64	5262
2026-01-21 23:09:37.77	76.75	45.05	-47.2	-51.3	13.3	2.36e-05	0	38	0	547356672	65	5955
2026-01-21 23:09:40.89	78.34	45.39	-46.5	-49.9	14.7	0.00e+00	0	38	0	553648128	64	5390
2026-01-21 23:09:43.74	79.82	45.68	-46.6	-50.3	14.3	7.00e-07	0	38	0	558891008	65	5318
2026-01-21 23:09:46.87	81.48	45.98	-47.4	-51.8	12.7	1.44e-05	0	38	0	565182464	65	6299
2026-01-21 23:09:49.87	83.11	46.25	-46.7	-50.6	14.0	3.80e-06	0	38	0	570425344	65	5501
2026-01-21 23:09:53.00	84.82	46.50	-45.5	-48.6	16.0	0.00e+00	0	38	0	575668224	63	4883
2026-01-21 23:09:55.84	86.41	46.71	-46.2	-49.7	14.9	0.00e+00	0	38	0	581959680	62	5904
2026-01-21 23:09:58.96	88.17	46.91	-45.7	-48.9	15.7	0.00e+00	0	38	0	587202560	63	5058
2026-01-21 23:10:01.84	89.81	47.07	-44.5	-47.2	17.4	0.00e+00	0	38	0	592445440	60	4932
2026-01-21 23:10:05.10	91.69	47.21	-45.4	-48.2	16.4	0.00e+00	0	38	0	598736896	61	5274
2026-01-21 23:10:07.83	93.27	47.31	-46.4	-50.0	14.5	0.00e+00	0	38	0	603979776	64	5431
2026-01-21 23:10:11.10	95.19	47.40	-46.1	-49.4	15.2	0.00e+00	0	38	0	610271232	63	5402
2026-01-21 23:10:13.90	96.83	47.45	-46.1	-49.5	15.2	0.00e+00	0	38	0	615514112	63	5416
2026-01-21 23:10:17.02	98.67	47.48	-46.2	-49.5	15.1	0.00e+00	0	38	0	620756992	63	5463
2026-01-21 23:10:19.87	100.35	47.47	-46.1	-49.5	15.2	0.00e+00	0	38	0	627048448	63	5409
2026-01-21 23:10:23.12	102.26	47.44	-44.3	-46.8	17.8	0.00e+00	0	38	0	632291328	60	4717
2026-01-21 23:10:25.90	103.89	47.38	-45.3	-48.3	16.3	0.00e+00	0	38	0	637534208	61	5298
2026-01-21 23:10:29.16	105.79	47.28	-45.9	-49.2	15.4	0.00e+00	0	38	0	643825664	62	5578
2026-01-21 23:10:31.89	107.38	47.17	-45.7	-48.8	15.8	0.00e+00	0	38	0	649068544	63	5024
2026-01-21 23:10:35.19	109.27	47.01	-47.2	-51.3	13.4	7.60e-06	0	38	0	655360000	65	5955
2026-01-21 23:10:38.23	111.00	46.83	-44.9	-47.6	16.9	0.00e+00	0	38	0	660602880	61	4876
2026-01-21 23:10:41.86	113.04	46.58	-43.4	-45.7	18.6	0.00e+00	0	38	0	667942912	58	4685
2026-01-21 23:10:44.72	114.62	46.36	-46.1	-49.2	15.4	0.00e+00	0	38	0	673185792	62	5566
2026-01-21 23:10:48.28	116.56	46.05	-43.8	-46.2	18.1	0.00e+00	0	38	0	679477248	59	4683
2026-01-21 23:10:51.00	118.01	45.80	-44.5	-47.0	17.3	0.00e+00	0	38	0	684720128	59	5152
2026-01-21 23:10:54.52	119.86	45.44	-46.6	-50.4	14.2	7.00e-07	0	38	0	691011584	64	5674
2026-01-21 23:10:57.22	121.24	45.15	-44.0	-46.6	17.9	0.00e+00	0	38	0	696254464	60	4611
2026-01-21 23:11:00.54	122.92	44.77	-44.5	-47.2	17.3	0.00e+00	0	38	0	702545920	60	4958
2026-01-21 23:11:03.24	124.24	44.44	-43.0	-45.2	19.0	0.00e+00	0	38	0	707788800	57	4671
2026-01-21 23:11:06.52	125.82	44.03	-43.3	-45.6	18.7	0.00e+00	0	38	0	714080256	58	4621
2026-01-21 23:11:09.27	127.11	43.66	-43.2	-45.5	18.7	0.00e+00	0	38	0	719323136	57	4843
2026-01-21 23:11:12.54	128.61	43.22	-42.8	-45.0	19.2	0.00e+00	0	38	0	725614592	57	4565
2026-01-21 23:11:15.46	129.91	42.81	-44.0	-46.5	17.7	0.00e+00	0	38	0	730857472	58	5128
2026-01-21 23:11:18.74	131.34	42.33	-43.1	-45.4	18.8	0.00e+00	0	38	0	737148928	58	4514
2026-01-21 23:11:21.44	132.48	41.93	-43.6	-45.9	18.4	0.00e+00	0	38	0	742391808	58	4811
2026-01-21 23:11:24.76	133.84	41.43	-42.8	-45.0	19.2	0.00e+00	0	38	0	748683264	56	4820
2026-01-21 23:11:27.59	134.97	40.99	-42.5	-44.6	19.4	0.00e+00	0	38	0	753926144	56	4631
2026-01-21 23:11:31.11	136.34	40.44	-44.1	-46.6	17.8	0.00e+00	0	38	0	760217600	58	5199
2026-01-21 23:11:33.83	137.36	40.01	-44.0	-46.5	17.8	0.00e+00	0	38	0	765460480	60	4590
2026-01-21 23:11:37.10	138.56	39.48	-46.6	-50.2	14.5	0.00e+00	0	38	0	771751936	63	5887
2026-01-21 23:11:39.91	139.55	39.02	-46.5	-50.1	14.3	9.00e-05	0	38	0	776994816	65	5176
2026-01-21 23:11:43.04	140.63	38.51	-46.6	-50.3	14.3	0.00e+00	0	38	0	782237696	64	5644
2026-01-21 23:11:45.88	141.58	38.04	-47.5	-51.7	12.8	3.46e-04	0	38	0	787480576	67	5588
2026-01-21 23:11:49.10	142.63	37.51	-46.0	-49.2	15.4	0.00e+00	0	38	0	793772032	63	5235
2026-01-21 23:11:51.94	143.52	37.04	-48.9	-54.6	10.1	2.49e-03	0	38	0	799014912	68	7369
2026-01-21 23:11:55.01	144.46	36.53	-46.4	-49.9	14.7	1.50e-06	0	38	0	805306368	64	5353
2026-01-21 23:11:57.99	145.34	36.04	-49.0	-55.0	9.7	3.70e-03	0	38	0	810549248	68	7635
2026-01-21 23:12:00.98	146.20	35.54	-48.0	-52.5	12.2	1.10e-03	0	38	0	815792128	68	5751
2026-01-21 23:12:03.96	147.03	35.05	-46.1	-49.2	15.3	7.00e-07	0	38	0	822083584	63	5272
2026-01-21 23:12:06.95	147.84	34.55	-47.9	-52.6	12.0	4.80e-05	0	38	0	827326464	66	6546
2026-01-21 23:12:09.94	148.63	34.06	-45.1	-47.9	16.5	0.00e+00	0	38	0	832569344	62	4811
2026-01-21 23:12:12.92	149.39	33.57	-43.3	-45.7	18.5	0.00e+00	0	38	0	838860800	58	4664
2026-01-21 23:12:15.91	150.13	33.08	-47.2	-51.4	13.2	4.50e-06	0	38	0	844103680	65	5996
2026-01-21 23:12:18.89	150.85	32.60	-45.8	-48.9	15.6	0.00e+00	0	38	0	849346560	63	5087
2026-01-21 23:12:21.86	151.55	32.12	-43.9	-46.3	18.0	0.00e+00	0	38	0	855638016	59	4741
2026-01-21 23:12:25.00	152.26	31.62	-45.5	-48.6	15.9	0.00e+00	0	38	0	860880896	61	5522
2026-01-21 23:12:27.84	152.89	31.17	-44.7	-47.4	17.0	0.00e+00	0	38	0	866123776	61	4812
2026-01-21 23:12:30.97	153.56	30.68	-43.5	-45.9	18.3	0.00e+00	0	38	0	872415232	58	4784
2026-01-21 23:12:33.81	154.15	30.23	-44.8	-47.7	16.7	0.00e+00	0	38	0	877658112	60	5257
2026-01-21 23:12:36.94	154.79	29.75	-45.5	-48.9	15.6	0.00e+00	0	38	0	883949568	62	5370
2026-01-21 23:12:39.81	155.35	29.30	-44.8	-47.7	16.7	0.00e+00	0	38	0	889192448	61	4969
2026-01-21 23:12:43.29	156.02	28.78	-43.9	-46.3	17.9	0.00e+00	0	38	0	895483904	59	4753
2026-01-21 23:12:46.27	156.57	28.33	-44.8	-47.7	16.7	0.00e+00	0	38	0	900726784	60	5221
2026-01-21 23:12:49.26	157.11	27.88	-45.0	-47.9	16.6	0.00e+00	0	38	0	907018240	61	5052
2026-01-21 23:12:52.34	157.65	27.43	-43.8	-46.3	17.9	0.00e+00	0	38	0	912261120	59	4716
2026-01-21 23:12:55.24	158.15	27.00	-43.1	-45.4	18.7	0.00e+00	0	38	0	917504000	58	4533
2026-01-21 23:12:58.74	158.73	26.50	-43.7	-46.1	18.1	0.00e+00	0	38	0	924844032	58	4911
2026-01-21 23:13:01.48	159.18	26.11	-44.7	-47.4	17.0	0.00e+00	0	38	0	929038336	59	5357
2026-01-21 23:13:04.76	159.69	25.64	-44.7	-47.4	17.0	0.00e+00	0	38	0	935329792	60	5074
2026-01-21 23:13:07.50	160.11	25.26	-43.8	-46.2	18.0	0.00e+00	0	38	0	940572672	59	4672
2026-01-21 23:13:10.80	160.61	24.81	-43.5	-45.8	18.3	0.00e+00	0	38	0	946864128	58	4739
2026-01-21 23:13:13.69	161.03	24.41	-44.3	-46.9	17.4	0.00e+00	0	38	0	952107008	59	5058
2026-01-21 23:13:16.82	161.48	23.99	-44.3	-46.9	17.4	0.00e+00	0	38	0	958398464	59	5077
2026-01-21 23:13:19.67	161.87	23.61	-43.9	-46.4	17.8	0.00e+00	0	38	0	963641344	59	4790
2026-01-21 23:13:22.80	162.30	23.20	-44.1	-46.6	17.6	0.00e+00	0	38	0	969932800	59	4886
2026-01-21 23:13:25.70	162.68	22.82	-44.2	-46.8	17.4	0.00e+00	0	38	0	975175680	59	5024
2026-01-21 23:13:28.97	163.10	22.40	-44.4	-47.1	17.2	0.00e+00	0	38	0	981467136	59	5193
2026-01-21 23:13:31.70	163.44	22.05	-44.4	-47.1	17.2	0.00e+00	0	38	0	985661440	59	5184
2026-01-21 23:13:34.98	163.85	21.64	-44.4	-47.1	17.2	0.00e+00	0	38	0	991952896	59	5175
2026-01-21 23:13:37.69	164.17	21.30	-44.2	-46.8	17.4	0.00e+00	0	38	0	997195776	59	5016
2026-01-21 23:13:41.03	164.56	20.89	-44.0	-46.6	17.6	0.00e+00	0	38	0	1003487232	59	4888
2026-01-21 23:13:43.85	164.89	20.55	-44.5	-47.3	17.0	0.00e+00	0	38	0	1008730112	59	5300
2026-01-21 23:13:47.13	165.25	20.16	-45.0	-48.0	16.4	0.00e+00	0	38	0	1015021568	60	5442
2026-01-21 23:13:50.51	165.62	19.76	-45.3	-48.4	15.9	0.00e+00	0	38	0	1021313024	61	5380
2026-01-21 23:13:53.42	165.93	19.42	-45.1	-48.1	16.2	0.00e+00	0	38	0	1026555904	61	5212
2026-01-21 23:13:57.20	166.33	18.98	-44.1	-46.8	17.4	0.00e+00	0	38	0	1033895936	60	4735
2026-01-21 23:14:00.10	166.62	18.65	-43.7	-46.2	17.8	0.00e+00	0	38	0	1039138816	59	4671
2026-01-21 23:14:03.51	166.96	18.27	-44.1	-46.7	17.4	0.00e+00	0	38	0	1045430272	59	4965
2026-01-21 23:14:06.21	167.22	17.97	-44.2	-46.8	17.3	0.00e+00	0	38	0	1050673152	59	5037
2026-01-21 23:14:09.47	167.53	17.61	-44.4	-47.1	17.1	0.00e+00	0	38	0	1056964608	59	5167
2026-01-21 23:14:12.21	167.79	17.31	-44.4	-47.1	17.1	0.00e+00	0	38	0	1062207488	59	5198
2026-01-21 23:14:15.48	168.09	16.96	-44.2	-46.9	17.3	0.00e+00	0	38	0	1068498944	59	5054
2026-01-21 23:14:18.28	168.34	16.66	-43.7	-46.3	17.8	0.00e+00	0	38	0	1073741824	59	4724
2026-01-21 23:14:21.55	168.62	16.32	-43.3	-45.7	18.3	0.00e+00	0	38	0	1080033280	58	4661
2026-01-21 23:14:24.25	168.86	16.04	-43.3	-45.8	18.2	0.00e+00	0	38	0	1084227584	58	4710
2026-01-21 23:14:27.79	169.15	15.68	-43.2	-45.7	18.3	0.00e+00	0	38	0	1091567616	58	4658
2026-01-21 23:14:30.50	169.38	15.40	-43.4	-45.9	18.1	0.00e+00	0	38	0	1096810496	58	4799
2026-01-21 23:14:33.79	169.64	15.07	-43.7	-46.3	17.7	0.00e+00	0	38	0	1103101952	58	4989
2026-01-21 23:14:36.62	169.87	14.79	-44.1	-46.8	17.2	9.54e-04	0	38	0	1108344832	59	5037
2026-01-21 23:14:39.75	170.11	14.48	-44.6	-47.6	16.5	9.59e-04	0	38	0	1113587712	60	5193
2026-01-21 23:14:42.58	170.33	14.21	-45.0	-48.2	16.0	0.00e+00	0	38	0	1118830592	61	5255
2026-01-21 23:14:45.71	170.56	13.91	-45.3	-48.6	15.6	0.00e+00	0	38	0	1125122048	61	5469
2026-01-21 23:14:48.56	170.77	13.64	-45.3	-48.4	15.7	0.00e+00	0	38	0	1130364928	61	5400
2026-01-21 23:14:51.68	171.00	13.34	-45.1	-48.2	15.9	0.00e+00	0	38	0	1136656384	61	5251
2026-01-21 23:14:54.53	171.20	13.08	-44.7	-47.6	16.4	0.00e+00	0	38	0	1141899264	61	4892
2026-01-21 23:14:57.78	171.43	12.78	-44.2	-46.9	17.1	0.00e+00	0	38	0	1147142144	60	4798
2026-01-21 23:15:00.83	171.64	12.50	-43.8	-46.5	17.5	0.00e+00	0	38	0	1153433600	59	4832
2026-01-21 23:15:03.95	171.84	12.22	-43.7	-46.3	17.6	0.00e+00	0	38	0	1158676480	59	4738
2026-01-21 23:15:06.80	172.03	11.96	-43.4	-46.0	17.8	0.00e+00	0	38	0	1164967936	58	4860
2026-01-21 23:15:09.92	172.24	11.69	-43.4	-46.3	17.6	0.00e+00	0	38	0	1170210816	58	4997
2026-01-21 23:15:12.77	172.42	11.43	-43.3	-46.5	17.4	0.00e+00	0	38	0	1175453696	58	5108
2026-01-21 23:15:16.00	172.62	11.15	-43.3	-46.7	17.2	0.00e+00	0	38	0	1181745152	58	5244
2026-01-21 23:15:18.92	172.80	10.90	-43.6	-47.1	16.8	0.00e+00	0	38	0	1186988032	58	5488
2026-01-21 23:15:22.05	172.99	10.64	-43.8	-47.3	16.6	0.00e+00	0	38	0	1193279488	58	5625
2026-01-21 23:15:24.88	173.16	10.40	-44.1	-47.8	16.2	0.00e+00	0	38	0	1198522368	58	5960
2026-01-21 23:15:28.01	173.34	10.14	-44.0	-47.7	16.2	0.00e+00	0	38	0	1203765248	59	5558
2026-01-21 23:15:30.85	173.51	9.90	-43.9	-47.5	16.4	0.00e+00	0	38	0	1210056704	59	5450
2026-01-21 23:15:33.98	173.68	9.64	-43.9	-47.4	16.5	0.00e+00	0	38	0	1215299584	59	5363
2026-01-21 23:15:36.82	173.84	9.41	-44.1	-47.7	16.2	0.00e+00	0	38	0	1220542464	59	5560
2026-01-21 23:15:39.95	174.02	9.16	-44.1	-47.7	16.2	0.00e+00	0	38	0	1226833920	59	5564
2026-01-21 23:15:42.79	174.17	8.93	-50.0	-65.1	3.8	1.49e+00	0	38	104	1229979648	70	21868
2026-01-21 23:15:45.91	174.34	8.69	-50.3	-65.9	3.8	1.49e+00	0	38	104	1229979648	71	22579
2026-01-21 23:15:48.75	174.49	8.46	-50.7	-66.0	3.8	1.49e+00	0	38	104	1229979648	72	21673
2026-01-21 23:15:51.87	174.65	8.22	-50.7	-66.1	3.8	1.49e+00	0	38	104	1229979648	72	21858
2026-01-21 23:15:54.71	174.79	8.00	-50.8	-66.1	3.8	1.49e+00	0	38	104	1229979648	72	21880
2026-01-21 23:15:57.83	174.95	7.76	-50.7	-66.1	3.8	1.49e+00	0	38	104	1229979648	72	21943
2026-01-21 23:16:00.67	175.09	7.55	-50.8	-66.2	3.8	1.49e+00	0	38	104	1229979648	72	22043
2026-01-21 23:16:03.79	175.24	7.31	-51.0	-66.2	3.8	1.49e+00	0	38	104	1229979648	72	22016
2026-01-21 23:16:06.63	175.38	7.10	-50.9	-66.2	3.8	1.49e+00	0	38	104	1229979648	72	22099
2026-01-21 23:16:09.75	175.53	6.87	-50.6	-66.1	3.8	1.49e+00	0	38	104	1229979648	72	21967
2026-01-21 23:16:12.59	175.66	6.66	-50.5	-66.1	3.8	1.49e+00	0	38	104	1229979648	72	21933
2026-01-21 23:16:15.71	175.80	6.43	-50.5	-66.1	3.8	1.49e+00	0	38	104	1229979648	72	21877
2026-01-21 23:16:18.55	175.93	6.23	-50.5	-66.1	3.8	1.49e+00	0	38	104	1229979648	72	21845
2026-01-21 23:16:21.68	176.07	6.00	-50.5	-66.1	3.8	1.49e+00	0	38	104	1229979648	72	21949
2026-01-21 23:16:24.52	176.20	5.80	-50.5	-66.1	3.8	1.49e+00	0	38	104	1229979648	72	21888
2026-01-21 23:16:27.64	176.33	5.58	-50.5	-66.1	3.8	1.49e+00	0	38	104	1229979648	72	21899
2026-01-21 23:16:30.48	176.46	5.38	-50.4	-66.1	3.8	1.49e+00	0	38	104	1229979648	72	21818
2026-01-21 23:16:33.60	176.59	5.16	-50.5	-66.1	3.8	1.49e+00	0	38	104	1229979648	72	21795
2026-01-21 23:16:36.44	176.71	4.96	-50.5	-66.1	3.8	1.49e+00	0	38	104	1229979648	72	21864

#Closed at: 2026-01-21 23:16:37
#Recorded file [1229 MB]: D:/Data/31040_260122_020357.dat