passes_logs/2026/01/21/T1/T1__20260121_105400_SUOMI_NPP_rec.log

#Pass ID: 20260121_105400_SUOMI NPP
#Satellite: SUOMI NPP
#Configuration: NPP
#almurnet v.1.7.20251203
#Start time: 2026-01-21 10:54:02

#Version: 2.0.20230620
#Station: T1
#Location: 37.570604 lon 55.790049 lat
#TLE: 1 37849U 11061A   26020.95430537  .00000198  00000+0  11470-3 0  9999
#TLE: 2 37849  98.7819 322.9518 0002315  53.3069 306.8320 14.19527555737555

#Time	Az	El	Level	Level2	SNR	BER	BlckErr	Temp	State	Recorded	gain1	gain2
2026-01-21 10:54:02.58	188.97	5.17	-50.9	-67.1	3.8	1.49e+00	0	36	0	0	73	23178
2026-01-21 10:54:05.56	189.13	5.37	-50.9	-66.9	3.8	1.49e+00	0	36	104	0	72	23906
2026-01-21 10:54:08.54	189.29	5.57	-50.9	-66.8	3.8	1.49e+00	0	36	104	0	72	23599
2026-01-21 10:54:11.52	189.44	5.78	-50.9	-66.9	3.8	1.49e+00	0	37	104	0	72	23907
2026-01-21 10:54:14.50	189.61	5.99	-50.9	-66.9	3.8	1.49e+00	0	37	104	0	72	24112
2026-01-21 10:54:17.48	189.77	6.20	-50.9	-67.0	3.8	1.49e+00	0	37	104	0	72	24180
2026-01-21 10:54:20.47	189.94	6.41	-50.9	-66.9	3.8	1.49e+00	0	37	104	0	72	23929
2026-01-21 10:54:23.45	190.11	6.62	-50.9	-67.0	3.8	1.49e+00	0	37	104	0	72	24214
2026-01-21 10:54:26.42	190.28	6.83	-50.9	-66.9	3.8	1.49e+00	0	37	104	0	72	24105
2026-01-21 10:54:29.41	190.45	7.05	-50.9	-66.0	3.8	1.49e+00	0	37	104	0	72	21513
2026-01-21 10:54:32.39	190.63	7.27	-50.8	-65.5	3.8	1.49e+00	0	37	104	0	72	20488
2026-01-21 10:54:35.37	190.80	7.49	-50.9	-67.0	3.8	1.49e+00	0	37	104	0	72	24378
2026-01-21 10:54:38.35	190.98	7.71	-50.3	-60.1	5.9	7.40e-01	0	37	0	1048576	72	10905
2026-01-21 10:54:41.33	191.17	7.93	-48.7	-54.0	11.8	1.38e-03	0	37	0	7340032	69	6434
2026-01-21 10:54:44.31	191.35	8.15	-47.3	-51.3	14.4	0.00e+00	0	37	0	12582912	66	5621
2026-01-21 10:54:47.29	191.54	8.38	-47.0	-50.7	15.0	0.00e+00	0	38	0	17825792	65	5546
2026-01-21 10:54:50.27	191.73	8.61	-48.1	-52.9	12.8	2.89e-05	0	38	0	24117248	66	6733
2026-01-21 10:54:53.25	191.93	8.84	-49.8	-57.0	8.7	1.16e-02	0	38	0	29360128	70	8640
2026-01-21 10:54:56.23	192.13	9.07	-50.5	-60.9	5.4	4.19e-01	0	38	0	34603008	71	12690
2026-01-21 10:54:59.65	192.36	9.34	-50.8	-63.4	4.2	1.41e+00	0	38	0	39845888	72	16041
2026-01-21 10:55:02.36	192.54	9.55	-49.9	-57.5	8.2	5.48e-02	0	38	0	44040192	71	8655
2026-01-21 10:55:05.63	192.77	9.81	-49.3	-55.0	11.0	2.61e-03	0	38	0	50331648	70	6802
2026-01-21 10:55:08.49	192.97	10.04	-49.2	-54.6	11.3	9.13e-04	0	38	0	55574528	70	6498
2026-01-21 10:55:11.73	193.20	10.30	-48.4	-52.7	13.1	7.55e-05	0	38	0	60817408	68	5918
2026-01-21 10:55:14.66	193.42	10.54	-48.4	-52.8	13.1	1.90e-05	0	38	0	67108864	68	5985
2026-01-21 10:55:17.65	193.64	10.79	-48.2	-52.3	13.6	1.52e-05	0	38	0	72351744	68	5627
2026-01-21 10:55:20.64	193.86	11.04	-47.2	-50.6	15.1	0.00e+00	0	38	0	77594624	66	5206
2026-01-21 10:55:23.63	194.09	11.29	-46.8	-50.1	15.6	0.00e+00	0	38	0	83886080	65	5180
2026-01-21 10:55:26.61	194.32	11.54	-46.4	-49.6	16.2	0.00e+00	0	38	0	89128960	64	5170
2026-01-21 10:55:29.60	194.56	11.79	-46.4	-49.6	16.2	0.00e+00	0	38	0	94371840	64	5178
2026-01-21 10:55:32.58	194.80	12.05	-46.2	-49.2	16.5	0.00e+00	0	38	0	100663296	64	4960
2026-01-21 10:55:35.57	195.05	12.31	-46.1	-49.0	16.6	0.00e+00	0	38	0	105906176	64	4855
2026-01-21 10:55:38.55	195.29	12.57	-46.0	-48.8	16.9	0.00e+00	0	38	0	111149056	63	5035
2026-01-21 10:55:41.54	195.55	12.83	-45.3	-47.9	17.8	0.00e+00	0	38	0	117440512	62	4766
2026-01-21 10:55:44.52	195.80	13.10	-45.2	-47.8	17.8	0.00e+00	0	38	0	122683392	62	4756
2026-01-21 10:55:47.51	196.06	13.37	-45.2	-47.8	17.8	0.00e+00	0	38	0	128974848	62	4745
2026-01-21 10:55:50.49	196.33	13.64	-45.2	-47.8	17.4	0.00e+00	0	38	0	134217728	61	5041
2026-01-21 10:55:53.47	196.60	13.91	-45.1	-47.9	17.2	0.00e+00	0	38	0	139460608	61	5061
2026-01-21 10:55:56.48	196.88	14.19	-45.0	-47.9	16.8	0.00e+00	0	38	0	145752064	61	5066
2026-01-21 10:55:59.47	197.16	14.47	-45.0	-48.0	16.6	0.00e+00	0	38	0	150994944	61	5108
2026-01-21 10:56:02.45	197.45	14.75	-45.1	-47.9	16.9	0.00e+00	0	38	0	156237824	61	5053
2026-01-21 10:56:05.43	197.74	15.03	-45.5	-48.3	17.1	0.00e+00	0	38	0	162529280	61	5291
2026-01-21 10:56:08.42	198.03	15.32	-45.5	-48.2	17.6	0.00e+00	0	38	0	167772160	61	5219
2026-01-21 10:56:11.40	198.33	15.61	-45.8	-48.5	17.3	0.00e+00	0	38	0	173015040	62	5129
2026-01-21 10:56:14.48	198.65	15.91	-45.9	-48.6	17.2	0.00e+00	0	38	0	179306496	62	5206
2026-01-21 10:56:17.43	198.96	16.20	-45.8	-48.4	17.4	0.00e+00	0	38	0	184549376	62	5081
2026-01-21 10:56:20.72	199.32	16.53	-45.6	-48.2	17.6	0.00e+00	0	39	0	190840832	62	4978
2026-01-21 10:56:23.46	199.62	16.81	-45.9	-48.6	17.3	0.00e+00	0	38	0	196083712	62	5161
2026-01-21 10:56:26.75	199.98	17.14	-46.1	-48.9	17.0	0.00e+00	0	38	0	202375168	63	5090
2026-01-21 10:56:29.46	200.29	17.42	-46.0	-48.7	17.1	0.00e+00	0	39	0	207618048	63	4966
2026-01-21 10:56:32.73	200.67	17.76	-45.8	-48.5	17.4	0.00e+00	0	39	0	212860928	63	4840
2026-01-21 10:56:35.48	201.00	18.04	-45.8	-48.4	17.5	0.00e+00	0	39	0	218103808	63	4806
2026-01-21 10:56:38.74	201.39	18.39	-45.8	-48.5	17.5	0.00e+00	0	38	0	224395264	63	4828
2026-01-21 10:56:41.52	201.73	18.68	-45.9	-48.6	17.3	0.00e+00	0	39	0	229638144	63	4895
2026-01-21 10:56:44.80	202.14	19.04	-45.7	-48.3	17.6	0.00e+00	0	39	0	235929600	63	4711
2026-01-21 10:56:47.55	202.50	19.34	-45.8	-48.3	17.6	0.00e+00	0	38	0	241172480	63	4758
2026-01-21 10:56:50.84	202.93	19.70	-46.1	-48.7	17.2	0.00e+00	0	38	0	247463936	63	4960
2026-01-21 10:56:53.55	203.29	20.00	-45.9	-48.4	17.5	0.00e+00	0	39	0	252706816	63	4800
2026-01-21 10:56:56.82	203.74	20.36	-45.9	-48.5	17.5	0.00e+00	0	38	0	257949696	63	4851
2026-01-21 10:56:59.54	204.12	20.67	-45.9	-48.5	17.5	0.00e+00	0	39	0	263192576	63	4867
2026-01-21 10:57:02.82	204.59	21.04	-46.1	-48.8	17.2	0.00e+00	0	39	0	269484032	63	5001
2026-01-21 10:57:05.67	205.00	21.37	-46.3	-49.0	17.0	0.00e+00	0	39	0	274726912	63	5155
2026-01-21 10:57:08.80	205.47	21.73	-46.2	-48.9	17.2	0.00e+00	0	38	0	281018368	63	5071
2026-01-21 10:57:11.67	205.91	22.07	-46.4	-49.2	16.8	0.00e+00	0	38	0	286261248	63	5267
2026-01-21 10:57:14.89	206.41	22.45	-46.4	-49.2	16.9	0.00e+00	0	39	0	292552704	63	5226
2026-01-21 10:57:17.74	206.86	22.78	-46.5	-49.3	16.7	0.00e+00	0	38	0	297795584	63	5300
2026-01-21 10:57:20.87	207.37	23.16	-46.4	-49.2	16.8	0.00e+00	0	38	0	303038464	63	5273
2026-01-21 10:57:23.84	207.87	23.52	-46.2	-48.9	17.1	0.00e+00	0	39	0	309329920	63	5077
2026-01-21 10:57:26.97	208.40	23.90	-45.6	-48.2	17.8	0.00e+00	0	38	0	314572800	63	4658
2026-01-21 10:57:29.81	208.90	24.25	-45.4	-47.8	18.2	0.00e+00	0	39	0	319815680	62	4737
2026-01-21 10:57:32.93	209.46	24.63	-45.5	-47.9	18.0	0.00e+00	0	39	0	326107136	62	4806
2026-01-21 10:57:35.78	209.98	24.99	-46.2	-48.9	17.2	0.00e+00	0	39	0	331350016	62	5341
2026-01-21 10:57:39.01	210.58	25.39	-46.3	-49.0	17.1	0.00e+00	0	39	0	337641472	63	5118
2026-01-21 10:57:41.97	211.15	25.77	-45.9	-48.4	17.6	0.00e+00	0	39	0	342884352	63	4791
2026-01-21 10:57:45.09	211.76	26.16	-45.9	-48.4	17.6	0.00e+00	0	39	0	349175808	63	4805
2026-01-21 10:57:47.99	212.34	26.53	-46.4	-49.2	16.7	0.00e+00	0	39	0	354418688	64	4965
2026-01-21 10:57:50.98	212.96	26.92	-46.7	-49.6	16.5	0.00e+00	0	39	0	359661568	64	5165
2026-01-21 10:57:53.97	213.59	27.30	-46.6	-49.4	16.6	0.00e+00	0	39	0	365953024	64	5093
2026-01-21 10:57:56.95	214.23	27.69	-46.6	-49.4	16.6	0.00e+00	0	39	0	371195904	64	5073
2026-01-21 10:57:59.89	214.88	28.07	-47.0	-50.0	16.1	0.00e+00	0	39	0	376438784	64	5435
2026-01-21 10:58:03.02	215.59	28.48	-47.6	-51.0	15.1	0.00e+00	0	39	0	382730240	65	5724
2026-01-21 10:58:05.86	216.25	28.85	-46.7	-49.5	16.5	0.00e+00	0	39	0	387973120	65	4836
2026-01-21 10:58:08.99	216.99	29.26	-46.4	-49.2	16.9	0.00e+00	0	39	0	394264576	64	4933
2026-01-21 10:58:11.83	217.68	29.64	-46.7	-49.6	16.4	0.00e+00	0	39	0	399507456	64	5172
2026-01-21 10:58:14.96	218.46	30.05	-46.2	-48.9	17.2	0.00e+00	0	39	0	404750336	64	4774
2026-01-21 10:58:17.80	219.18	30.42	-46.2	-48.9	17.1	0.00e+00	0	39	0	409993216	63	5077
2026-01-21 10:58:20.92	219.99	30.83	-46.5	-49.4	16.8	0.00e+00	0	39	0	416284672	64	5058
2026-01-21 10:58:23.76	220.75	31.21	-46.8	-49.8	16.3	0.00e+00	0	39	0	421527552	64	5281
2026-01-21 10:58:26.89	221.61	31.62	-46.6	-49.5	16.6	0.00e+00	0	39	0	427819008	64	5110
2026-01-21 10:58:29.73	222.40	31.99	-46.7	-49.5	16.5	0.00e+00	0	39	0	433061888	64	5135
2026-01-21 10:58:33.05	223.36	32.42	-48.1	-51.6	14.5	0.00e+00	0	38	0	439353344	66	5842
2026-01-21 10:58:35.96	224.21	32.80	-49.5	-54.1	12.2	1.68e-04	0	39	0	444596224	69	6498
2026-01-21 10:58:39.22	225.20	33.21	-48.1	-51.5	14.8	2.20e-06	0	39	0	450887680	68	5124
2026-01-21 10:58:41.95	226.04	33.56	-48.3	-51.8	14.5	7.00e-07	0	39	0	455081984	68	5331
2026-01-21 10:58:45.27	227.09	33.98	-48.8	-52.6	13.7	1.50e-06	0	39	0	461373440	68	5802
2026-01-21 10:58:47.99	227.96	34.32	-48.5	-52.1	14.2	7.00e-07	0	39	0	466616320	68	5473
2026-01-21 10:58:51.21	229.03	34.72	-48.3	-51.9	14.4	7.00e-07	0	39	0	472907776	68	5384
2026-01-21 10:58:54.20	230.04	35.08	-49.0	-52.9	13.6	9.90e-06	0	39	0	478150656	68	5993
2026-01-21 10:58:57.18	231.07	35.44	-48.7	-52.4	14.0	6.80e-06	0	39	0	484442112	69	5360
2026-01-21 10:59:00.17	232.12	35.79	-48.3	-51.7	14.6	0.00e+00	0	39	0	489684992	68	5257
2026-01-21 10:59:03.15	233.19	36.13	-48.7	-52.4	14.1	1.50e-06	0	39	0	494927872	68	5675
2026-01-21 10:59:06.22	234.32	36.48	-48.2	-51.6	14.5	0.00e+00	0	39	0	501219328	68	5214
2026-01-21 10:59:09.35	235.50	36.82	-48.1	-51.6	14.6	7.00e-07	0	39	0	506462208	67	5466
2026-01-21 10:59:12.19	236.58	37.12	-48.6	-52.4	13.8	2.20e-06	0	39	0	512753664	67	6024
2026-01-21 10:59:15.32	237.80	37.44	-47.1	-50.1	16.2	0.00e+00	0	39	0	517996544	66	4878
2026-01-21 10:59:18.16	238.93	37.73	-47.3	-50.3	15.8	0.00e+00	0	39	0	523239424	65	5313
2026-01-21 10:59:21.39	240.24	38.04	-47.4	-50.5	15.6	0.00e+00	0	39	0	529530880	65	5444
2026-01-21 10:59:24.31	241.44	38.30	-47.4	-50.6	15.6	0.00e+00	0	39	0	534773760	65	5467
2026-01-21 10:59:27.44	242.75	38.58	-47.6	-50.9	15.4	0.00e+00	0	39	0	541065216	65	5659
2026-01-21 10:59:30.28	243.95	38.81	-47.0	-50.0	16.1	0.00e+00	0	39	0	546308096	66	4822
2026-01-21 10:59:33.41	245.30	39.06	-46.5	-49.2	16.8	0.00e+00	0	39	0	551550976	64	4965
2026-01-21 10:59:36.25	246.54	39.26	-48.0	-51.5	14.7	0.00e+00	0	39	0	557842432	66	5769
2026-01-21 10:59:39.38	247.93	39.48	-48.3	-51.8	14.6	2.20e-06	0	39	0	563085312	68	5293
2026-01-21 10:59:42.29	249.23	39.66	-47.3	-50.3	15.9	0.00e+00	0	39	0	568328192	66	5026
2026-01-21 10:59:45.47	250.67	39.84	-47.2	-50.3	15.7	0.00e+00	0	39	0	574619648	65	5305
2026-01-21 10:59:48.32	251.97	39.99	-48.1	-51.6	14.6	0.00e+00	0	39	0	579862528	67	5497
2026-01-21 10:59:51.44	253.41	40.13	-47.7	-50.9	15.2	0.00e+00	0	39	0	586153984	67	5094
2026-01-21 10:59:54.28	254.73	40.24	-46.5	-49.3	16.8	0.00e+00	0	39	0	591396864	64	5019
2026-01-21 10:59:57.41	256.20	40.35	-49.1	-53.1	13.3	1.14e-05	0	39	0	596639744	69	5813
2026-01-21 11:00:00.25	257.53	40.42	-47.8	-51.1	15.2	0.00e+00	0	39	0	601882624	67	5162
2026-01-21 11:00:03.38	259.01	40.49	-47.9	-51.2	15.0	7.00e-07	0	39	0	608174080	66	5582
2026-01-21 11:00:06.23	260.36	40.53	-49.8	-54.4	12.0	3.81e-05	0	39	0	613416960	70	6394
2026-01-21 11:00:09.35	261.84	40.55	-49.1	-53.1	13.3	5.03e-05	0	39	0	619708416	70	5478
2026-01-21 11:00:12.20	263.20	40.56	-47.1	-50.1	16.0	0.00e+00	0	39	0	624951296	66	4924
2026-01-21 11:00:15.32	264.68	40.54	-49.7	-54.3	12.1	4.42e-05	0	39	0	630194176	69	6648
2026-01-21 11:00:18.17	266.03	40.51	-48.2	-51.7	14.4	7.00e-07	0	39	0	635437056	68	5279
2026-01-21 11:00:21.30	267.51	40.45	-47.0	-50.0	16.1	0.00e+00	0	39	0	641728512	65	5122
2026-01-21 11:00:24.14	268.85	40.39	-46.5	-49.3	16.8	0.00e+00	0	39	0	646971392	65	4727
2026-01-21 11:00:27.27	270.31	40.29	-45.8	-48.3	17.8	0.00e+00	0	39	0	653262848	63	4759
2026-01-21 11:00:30.11	271.64	40.19	-47.5	-50.6	15.6	0.00e+00	0	39	0	658505728	66	5199
2026-01-21 11:00:33.24	273.08	40.05	-47.1	-50.1	16.0	0.00e+00	0	39	0	663748608	65	5198
2026-01-21 11:00:36.09	274.39	39.91	-46.6	-49.3	16.8	0.00e+00	0	39	0	670040064	65	4745
2026-01-21 11:00:39.21	275.81	39.74	-47.5	-50.7	15.6	0.00e+00	0	39	0	675282944	65	5555
2026-01-21 11:00:42.06	277.09	39.57	-45.7	-48.2	18.0	0.00e+00	0	39	0	680525824	63	4668
2026-01-21 11:00:45.19	278.48	39.37	-46.7	-49.6	16.7	0.00e+00	0	39	0	686817280	64	5214
2026-01-21 11:00:48.06	279.74	39.17	-45.8	-48.3	17.8	0.00e+00	0	39	0	692060160	63	4758
2026-01-21 11:00:51.18	281.09	38.93	-45.5	-47.9	18.3	0.00e+00	0	39	0	697303040	62	4773
2026-01-21 11:00:54.02	282.30	38.70	-44.7	-47.0	19.0	0.00e+00	0	39	0	703594496	61	4569
2026-01-21 11:00:57.15	283.62	38.44	-44.9	-47.2	18.8	0.00e+00	0	39	0	708837376	60	4980
2026-01-21 11:01:00.00	284.80	38.18	-46.0	-48.6	17.5	0.00e+00	0	39	0	714080256	62	5212
2026-01-21 11:01:03.16	286.08	37.89	-45.8	-48.3	17.8	0.00e+00	0	39	0	720371712	63	4755
2026-01-21 11:01:06.13	287.27	37.60	-44.3	-46.5	19.5	0.00e+00	0	39	0	725614592	60	4559
2026-01-21 11:01:09.68	288.66	37.24	-45.6	-48.1	18.0	0.00e+00	0	39	0	732954624	61	5207
2026-01-21 11:01:12.46	289.73	36.95	-44.8	-47.1	18.9	0.00e+00	0	39	0	738197504	61	4645
2026-01-21 11:01:15.72	290.96	36.60	-43.6	-45.7	20.0	0.00e+00	0	39	0	743440384	59	4421
2026-01-21 11:01:18.44	291.96	36.30	-42.3	-44.2	21.2	0.00e+00	0	39	0	748683264	56	4424
2026-01-21 11:01:21.76	293.16	35.92	-44.7	-47.0	19.0	0.00e+00	0	39	0	754974720	60	4854
2026-01-21 11:01:24.59	294.17	35.59	-44.9	-47.3	18.7	0.00e+00	0	39	0	760217600	60	5006
2026-01-21 11:01:27.82	295.29	35.21	-46.7	-49.6	16.5	0.00e+00	0	39	0	766509056	64	5179
2026-01-21 11:01:30.81	296.30	34.85	-45.5	-47.9	18.2	0.00e+00	0	39	0	771751936	62	4798
2026-01-21 11:01:33.79	297.29	34.49	-47.8	-51.0	15.2	0.00e+00	0	39	0	778043392	66	5444
2026-01-21 11:01:36.77	298.26	34.12	-47.7	-50.9	15.3	0.00e+00	0	39	0	783286272	67	5051
2026-01-21 11:01:39.76	299.20	33.75	-49.3	-53.6	12.7	1.98e-05	0	39	0	788529152	69	6163
2026-01-21 11:01:42.74	300.13	33.37	-48.3	-51.9	14.2	2.13e-05	0	39	0	794820608	68	5402
2026-01-21 11:01:45.73	301.03	32.99	-47.2	-50.3	15.9	0.00e+00	0	39	0	800063488	66	5005
2026-01-21 11:01:48.72	301.92	32.61	-49.1	-53.4	13.0	2.67e-05	0	39	0	805306368	68	6348
2026-01-21 11:01:51.75	302.79	32.22	-49.0	-53.1	13.3	1.98e-05	0	39	0	811597824	68	6191
2026-01-21 11:01:54.78	303.65	31.82	-48.5	-52.2	14.1	1.50e-06	0	39	0	816840704	68	5580
2026-01-21 11:01:57.73	304.46	31.44	-46.6	-49.4	16.7	0.00e+00	0	39	0	822083584	64	5046
2026-01-21 11:02:00.86	305.31	31.03	-47.7	-51.1	15.1	0.00e+00	0	39	0	828375040	66	5479
2026-01-21 11:02:03.90	306.10	30.63	-47.2	-50.4	15.8	0.00e+00	0	39	0	834666496	66	5053
2026-01-21 11:02:07.17	306.94	30.21	-46.6	-49.4	16.7	0.00e+00	0	39	0	839909376	64	5082
2026-01-21 11:02:09.89	307.62	29.85	-47.2	-50.4	15.7	0.00e+00	0	39	0	845152256	65	5385
2026-01-21 11:02:13.14	308.42	29.43	-44.5	-46.8	19.1	0.00e+00	0	39	0	851443712	61	4466
2026-01-21 11:02:15.98	309.09	29.06	-45.3	-47.8	18.3	0.00e+00	0	39	0	856686592	61	5000
2026-01-21 11:02:19.11	309.82	28.65	-44.8	-47.1	18.8	0.00e+00	0	39	0	862978048	61	4648
2026-01-21 11:02:22.41	310.57	28.22	-44.5	-46.8	19.2	0.00e+00	0	39	0	869269504	60	4715
2026-01-21 11:02:25.11	311.17	27.87	-46.1	-48.8	17.3	0.00e+00	0	39	0	873463808	63	4989
2026-01-21 11:02:28.52	311.91	27.43	-45.1	-47.5	18.5	0.00e+00	0	39	0	880803840	62	4576
2026-01-21 11:02:31.55	312.54	27.04	-43.6	-45.7	20.0	0.00e+00	0	39	0	886046720	58	4685
2026-01-21 11:02:34.54	313.16	26.66	-44.3	-46.6	19.2	0.00e+00	0	39	0	891289600	59	4914
2026-01-21 11:02:37.53	313.76	26.28	-44.1	-46.4	19.4	0.00e+00	0	39	0	897581056	59	4802
2026-01-21 11:02:40.51	314.35	25.91	-43.8	-46.0	19.8	0.00e+00	0	39	0	902823936	59	4565
2026-01-21 11:02:43.49	314.92	25.53	-45.0	-47.4	18.6	0.00e+00	0	39	0	908066816	60	5093
2026-01-21 11:02:46.47	315.48	25.16	-44.9	-47.3	18.6	0.00e+00	0	39	0	914358272	61	4755
2026-01-21 11:02:49.45	316.02	24.79	-43.7	-45.8	19.9	0.00e+00	0	39	0	919601152	59	4492
2026-01-21 11:02:52.44	316.56	24.43	-43.8	-46.0	19.8	0.00e+00	0	39	0	924844032	58	4816
2026-01-21 11:02:55.50	317.10	24.05	-44.2	-46.5	19.4	0.00e+00	0	39	0	931135488	59	4829
2026-01-21 11:02:58.45	317.60	23.70	-44.1	-46.3	19.5	0.00e+00	0	39	0	936378368	59	4732
2026-01-21 11:03:01.67	318.14	23.31	-43.5	-45.7	20.0	0.00e+00	0	39	0	942669824	59	4412
2026-01-21 11:03:04.52	318.61	22.97	-43.7	-45.9	19.9	0.00e+00	0	39	0	947912704	58	4785
2026-01-21 11:03:07.77	319.13	22.59	-44.3	-46.7	19.2	0.00e+00	0	39	0	954204160	59	4943
2026-01-21 11:03:10.69	319.58	22.25	-44.3	-46.8	19.0	0.00e+00	0	39	0	959447040	59	5033
2026-01-21 11:03:14.23	320.12	21.83	-44.4	-46.8	19.0	0.00e+00	0	39	0	965738496	59	5003
2026-01-21 11:03:16.97	320.53	21.52	-44.5	-46.9	19.1	0.00e+00	0	39	0	970981376	60	4762
2026-01-21 11:03:20.24	321.01	21.15	-44.5	-46.9	19.0	0.00e+00	0	39	0	977272832	60	4761
2026-01-21 11:03:22.97	321.40	20.84	-44.5	-47.0	19.0	0.00e+00	0	39	0	982515712	60	4819
2026-01-21 11:03:26.52	321.90	20.44	-44.9	-47.5	18.5	0.00e+00	0	39	0	988807168	60	5110
2026-01-21 11:03:29.22	322.27	20.14	-45.0	-47.5	18.4	0.00e+00	0	39	0	994050048	61	4847
2026-01-21 11:03:32.51	322.71	19.78	-44.9	-47.4	18.5	0.00e+00	0	39	0	1000341504	61	4775
2026-01-21 11:03:35.21	323.06	19.49	-45.5	-48.1	17.9	0.00e+00	0	39	0	1005584384	61	5183
2026-01-21 11:03:38.48	323.48	19.13	-46.6	-49.8	16.3	0.00e+00	0	39	0	1011875840	64	5297
2026-01-21 11:03:41.22	323.83	18.84	-47.4	-51.1	14.9	0.00e+00	0	39	0	1017118720	65	5829
2026-01-21 11:03:44.50	324.23	18.49	-46.9	-50.1	15.9	0.00e+00	0	39	0	1022361600	65	5186
2026-01-21 11:03:47.22	324.56	18.21	-45.9	-48.7	17.3	0.00e+00	0	39	0	1027604480	63	4943
2026-01-21 11:03:50.51	324.95	17.87	-45.3	-47.8	18.1	0.00e+00	0	39	0	1033895936	62	4726
2026-01-21 11:03:53.22	325.27	17.59	-45.5	-48.2	17.8	0.00e+00	0	39	0	1039138816	62	4952
2026-01-21 11:03:56.57	325.65	17.25	-45.9	-48.8	17.2	0.00e+00	0	39	0	1045430272	62	5340
2026-01-21 11:03:59.28	325.95	16.97	-45.8	-48.9	17.1	0.00e+00	0	39	0	1050673152	62	5354
2026-01-21 11:04:02.65	326.32	16.64	-45.7	-48.6	17.3	0.00e+00	0	39	0	1056964608	62	5218
2026-01-21 11:04:05.72	326.65	16.33	-45.5	-48.4	17.6	0.00e+00	0	39	0	1062207488	62	5051
2026-01-21 11:04:09.00	327.00	16.01	-45.5	-48.3	17.6	0.00e+00	0	39	0	1068498944	62	5025
2026-01-21 11:04:11.72	327.28	15.75	-45.5	-48.4	17.5	0.00e+00	0	39	0	1073741824	62	5083
2026-01-21 11:04:15.01	327.61	15.43	-45.7	-48.6	17.3	0.00e+00	0	39	0	1080033280	62	5189
2026-01-21 11:04:17.86	327.89	15.16	-45.7	-48.6	17.4	0.00e+00	0	39	0	1085276160	62	5185
2026-01-21 11:04:21.07	328.21	14.86	-45.6	-48.3	17.6	0.00e+00	0	39	0	1091567616	62	5026
2026-01-21 11:04:24.94	328.58	14.50	-45.6	-48.2	17.7	0.00e+00	0	39	0	1098907648	62	4967
2026-01-21 11:04:27.78	328.85	14.23	-45.7	-48.4	17.6	0.00e+00	0	39	0	1104150528	62	5046
2026-01-21 11:04:31.76	329.21	13.87	-46.0	-48.9	16.9	0.00e+00	0	39	0	1111490560	63	5051
2026-01-21 11:04:34.60	329.47	13.61	-46.5	-49.5	16.4	0.00e+00	0	39	0	1116733440	63	5461
2026-01-21 11:04:38.71	329.83	13.25	-47.3	-50.6	15.3	0.00e+00	0	39	0	1124073472	65	5503
2026-01-21 11:04:41.55	330.08	12.99	-47.2	-50.7	15.2	0.00e+00	0	39	0	1129316352	65	5561
2026-01-21 11:04:45.53	330.41	12.65	-47.0	-50.4	15.4	0.00e+00	0	39	0	1137704960	65	5366
2026-01-21 11:04:48.37	330.65	12.40	-46.7	-49.8	16.0	0.00e+00	0	39	0	1142947840	65	5011
2026-01-21 11:04:52.59	331.00	12.04	-46.1	-49.0	16.8	0.00e+00	0	39	0	1150287872	64	4820
2026-01-21 11:04:55.56	331.23	11.78	-46.0	-48.8	17.0	0.00e+00	0	39	0	1155530752	63	5011
2026-01-21 11:04:58.95	331.50	11.50	-45.9	-48.7	17.1	0.00e+00	0	39	0	1162870784	63	4932
2026-01-21 11:05:01.67	331.71	11.27	-45.7	-48.5	17.3	0.00e+00	0	39	0	1167065088	63	4816
2026-01-21 11:05:04.95	331.96	11.00	-45.8	-48.6	17.2	0.00e+00	0	39	0	1173356544	63	4881
2026-01-21 11:05:07.88	332.18	10.76	-45.7	-48.5	17.2	0.00e+00	0	39	0	1178599424	63	4860
2026-01-21 11:05:11.08	332.42	10.50	-45.8	-48.6	17.1	0.00e+00	0	39	0	1184890880	63	4900
2026-01-21 11:05:14.29	332.65	10.24	-46.0	-48.9	16.8	0.00e+00	0	39	0	1191182336	63	5081
2026-01-21 11:05:17.41	332.87	9.99	-46.2	-49.1	16.6	0.00e+00	0	39	0	1197473792	63	5185
2026-01-21 11:05:20.25	333.07	9.77	-46.4	-49.5	16.3	0.00e+00	0	39	0	1202716672	63	5408
2026-01-21 11:05:23.38	333.29	9.52	-46.5	-49.8	15.8	0.00e+00	0	39	0	1207959552	64	5339
2026-01-21 11:05:26.30	333.49	9.30	-46.8	-50.3	15.3	0.00e+00	0	39	0	1213202432	64	5594
2026-01-21 11:05:29.46	333.70	9.05	-47.0	-50.5	15.1	0.00e+00	0	39	0	1219493888	64	5738
2026-01-21 11:05:32.30	333.89	8.84	-51.5	-67.3	3.8	1.49e+00	0	39	104	1222639616	74	22276
2026-01-21 11:05:35.42	334.09	8.60	-51.8	-67.7	3.8	1.49e+00	0	39	104	1222639616	74	23425
2026-01-21 11:05:38.26	334.28	8.38	-52.2	-67.8	3.8	1.49e+00	0	39	104	1222639616	75	22392
2026-01-21 11:05:41.48	334.48	8.14	-52.2	-67.8	3.8	1.49e+00	0	39	104	1222639616	75	22493
2026-01-21 11:05:44.41	334.66	7.93	-52.7	-67.9	3.8	1.49e+00	0	39	104	1222639616	76	21442
2026-01-21 11:05:47.66	334.86	7.69	-52.8	-67.9	3.8	1.49e+00	0	39	104	1222639616	76	21490
2026-01-21 11:05:50.56	335.04	7.48	-52.7	-67.8	3.8	1.49e+00	0	39	104	1222639616	76	21239
2026-01-21 11:05:53.68	335.23	7.25	-52.6	-67.9	3.8	1.49e+00	0	39	104	1222639616	76	21313
2026-01-21 11:05:56.52	335.39	7.04	-52.4	-67.8	3.8	1.49e+00	0	39	104	1222639616	76	21203
2026-01-21 11:05:59.64	335.58	6.82	-52.4	-67.8	3.8	1.49e+00	0	39	104	1222639616	76	21257
2026-01-21 11:06:02.48	335.74	6.62	-52.4	-67.8	3.8	1.49e+00	0	39	104	1222639616	76	21233
2026-01-21 11:06:05.60	335.92	6.40	-52.4	-67.8	3.8	1.49e+00	0	39	104	1222639616	76	21248
2026-01-21 11:06:08.44	336.08	6.20	-52.4	-67.8	3.8	1.49e+00	0	39	104	1222639616	76	21213
2026-01-21 11:06:11.56	336.25	5.99	-52.4	-67.8	3.8	1.49e+00	0	39	104	1222639616	76	21200
2026-01-21 11:06:14.40	336.40	5.79	-52.4	-67.9	3.8	1.49e+00	0	39	104	1222639616	76	21281
2026-01-21 11:06:17.52	336.57	5.58	-52.4	-67.8	3.8	1.49e+00	0	39	104	1222639616	76	21165
2026-01-21 11:06:20.36	336.72	5.38	-52.4	-67.8	3.8	1.49e+00	0	39	104	1222639616	76	21115
2026-01-21 11:06:23.48	336.89	5.17	-52.4	-67.8	3.8	1.49e+00	0	39	104	1222639616	76	21258
2026-01-21 11:06:26.32	337.03	4.98	-52.4	-67.8	3.8	1.49e+00	0	39	104	1222639616	76	21128

#Closed at: 2026-01-21 11:06:27
#Recorded file [1222 MB]: D:/Data/31040_260121_135402.dat