passes_logs/2026/01/21/T1/T1__20260121_084429_NOAA_21_JPSS-2_rec.log

#Pass ID: 20260121_084429_NOAA 21 (JPSS-2)
#Satellite: NOAA 21 (JPSS-2)
#Configuration: NOAA 21
#almurnet v.1.7.20251203
#Start time: 2026-01-21 08:44:31

#Version: 2.0.20230620
#Station: T1
#Location: 37.570604 lon 55.790049 lat
#TLE: 1 54234U 22150A   26020.93347024  .00000206  00000+0  11859-3 0  9994
#TLE: 2 54234  98.7506 321.7615 0000627 245.8100 114.3011 14.19536899165654

#Time	Az	El	Level	Level2	SNR	BER	BlckErr	Temp	State	Recorded	gain1	gain2
2026-01-21 08:44:31.23	122.86	5.11	-51.3	-64.8	3.8	1.49e+00	0	38	0	0	74	16816
2026-01-21 08:44:34.21	122.68	5.31	-51.3	-64.8	3.8	1.49e+00	0	38	104	0	74	16869
2026-01-21 08:44:37.19	122.49	5.51	-51.3	-64.8	3.8	1.49e+00	0	38	104	0	74	16727
2026-01-21 08:44:40.17	122.30	5.71	-51.7	-64.7	3.8	1.49e+00	0	38	104	0	74	16607
2026-01-21 08:44:43.15	122.11	5.91	-51.7	-64.8	3.8	1.49e+00	0	38	104	0	74	16737
2026-01-21 08:44:46.13	121.92	6.11	-51.7	-64.8	3.8	1.49e+00	0	39	104	0	74	16841
2026-01-21 08:44:49.11	121.72	6.32	-51.2	-64.8	3.8	1.49e+00	0	39	104	0	74	16748
2026-01-21 08:44:52.09	121.53	6.52	-51.2	-64.6	3.8	1.49e+00	0	39	104	0	74	16484
2026-01-21 08:44:55.07	121.32	6.73	-51.2	-64.6	3.8	1.49e+00	0	39	104	0	74	16482
2026-01-21 08:44:58.04	121.12	6.93	-51.2	-64.7	3.8	1.49e+00	0	39	104	0	74	16529
2026-01-21 08:45:01.02	120.91	7.14	-51.7	-64.5	3.8	1.49e+00	0	39	104	0	74	16273
2026-01-21 08:45:04.00	120.70	7.35	-51.6	-63.7	3.8	1.49e+00	0	39	104	0	74	14804
2026-01-21 08:45:06.98	120.49	7.56	-51.6	-63.0	3.9	1.49e+00	0	39	104	0	74	13697
2026-01-21 08:45:09.96	120.27	7.78	-51.0	-59.3	4.9	1.03e+00	0	39	104	0	73	9485
2026-01-21 08:45:12.94	120.05	7.99	-48.3	-52.3	11.2	3.21e-03	0	39	0	0	68	5643
2026-01-21 08:45:15.92	119.82	8.21	-45.9	-48.4	15.1	0.00e+00	0	39	0	0	63	4796
2026-01-21 08:45:18.90	119.60	8.42	-44.6	-46.8	16.7	0.00e+00	0	39	0	0	60	4706
2026-01-21 08:45:21.88	119.36	8.64	-45.3	-47.6	15.9	0.00e+00	0	39	0	0	61	4898
2026-01-21 08:45:24.86	119.13	8.86	-47.5	-51.1	12.4	4.34e-05	0	39	0	0	65	5806
2026-01-21 08:45:27.85	118.89	9.09	-48.9	-53.1	10.7	5.29e-04	0	39	0	0	68	6135
2026-01-21 08:45:30.83	118.65	9.31	-48.8	-53.0	10.6	7.26e-01	0	39	0	0	69	5731
2026-01-21 08:45:33.84	118.40	9.53	-48.3	-51.9	11.7	6.81e-04	0	39	0	0	68	5401
2026-01-21 08:45:36.83	118.15	9.76	-46.5	-49.3	14.2	3.00e-06	0	40	0	0	65	4713
2026-01-21 08:45:39.81	117.89	9.99	-44.8	-47.0	16.5	0.00e+00	0	40	0	0	61	4582
2026-01-21 08:45:42.79	117.64	10.22	-44.0	-46.0	17.5	0.00e+00	0	40	0	0	59	4566
2026-01-21 08:45:45.78	117.37	10.45	-44.0	-46.0	17.5	0.00e+00	0	40	0	0	59	4564
2026-01-21 08:45:48.87	117.10	10.69	-44.0	-45.9	17.5	0.00e+00	0	40	0	0	59	4542
2026-01-21 08:45:51.71	116.84	10.91	-43.8	-45.8	17.7	0.00e+00	0	40	0	0	59	4447
2026-01-21 08:45:54.84	116.55	11.16	-43.8	-45.8	17.7	0.00e+00	0	40	0	0	59	4461
2026-01-21 08:45:57.69	116.28	11.39	-43.8	-45.7	17.8	0.00e+00	0	40	0	0	59	4409
2026-01-21 08:46:00.78	115.99	11.64	-43.6	-45.5	17.9	0.00e+00	0	40	0	0	59	4332
2026-01-21 08:46:03.77	115.69	11.88	-43.6	-45.6	17.9	0.00e+00	0	40	0	0	59	4344
2026-01-21 08:46:07.10	115.37	12.15	-43.6	-45.5	18.0	0.00e+00	0	40	0	0	58	4573
2026-01-21 08:46:09.80	115.09	12.37	-43.6	-45.5	18.0	0.00e+00	0	40	0	0	58	4585
2026-01-21 08:46:13.08	114.76	12.64	-43.3	-45.2	18.3	0.00e+00	0	40	0	0	58	4408
2026-01-21 08:46:15.89	114.46	12.87	-43.2	-45.1	18.4	0.00e+00	0	40	0	0	58	4362
2026-01-21 08:46:19.02	114.13	13.13	-43.3	-45.1	18.3	0.00e+00	0	40	0	0	58	4378
2026-01-21 08:46:21.92	113.82	13.38	-43.3	-45.1	18.3	0.00e+00	0	40	0	0	58	4390
2026-01-21 08:46:25.13	113.47	13.65	-43.2	-45.1	18.4	0.00e+00	0	40	0	0	58	4375
2026-01-21 08:46:27.97	113.15	13.89	-43.2	-45.0	18.5	0.00e+00	0	40	0	0	58	4339
2026-01-21 08:46:31.10	112.79	14.16	-43.0	-44.9	18.6	0.00e+00	0	40	0	0	58	4267
2026-01-21 08:46:34.09	112.45	14.42	-42.9	-44.7	18.8	0.00e+00	0	40	0	0	57	4437
2026-01-21 08:46:37.47	112.05	14.71	-43.0	-44.8	18.7	0.00e+00	0	40	0	0	57	4474
2026-01-21 08:46:40.17	111.72	14.95	-43.1	-44.9	18.7	0.00e+00	0	40	0	0	57	4518
2026-01-21 08:46:43.44	111.32	15.23	-43.1	-44.9	18.6	0.00e+00	0	40	0	0	57	4545
2026-01-21 08:46:46.17	110.98	15.48	-43.2	-45.0	18.5	0.00e+00	0	40	0	0	57	4590
2026-01-21 08:46:49.44	110.57	15.77	-43.3	-45.1	18.5	0.00e+00	0	40	0	0	57	4641
2026-01-21 08:46:52.15	110.22	16.01	-43.2	-45.0	18.6	0.00e+00	0	40	0	0	57	4583
2026-01-21 08:46:55.43	109.79	16.31	-43.2	-45.1	18.6	0.00e+00	0	40	0	0	57	4615
2026-01-21 08:46:58.15	109.42	16.55	-43.3	-45.1	18.5	0.00e+00	0	40	0	0	57	4633
2026-01-21 08:47:02.03	108.89	16.91	-43.1	-44.9	18.7	0.00e+00	0	40	0	0	57	4541
2026-01-21 08:47:04.87	108.50	17.17	-43.1	-45.0	18.7	0.00e+00	0	40	0	0	57	4548
2026-01-21 08:47:08.86	107.93	17.54	-43.0	-44.8	18.8	0.00e+00	0	40	0	0	57	4470
2026-01-21 08:47:11.70	107.52	17.80	-43.1	-44.9	18.7	0.00e+00	0	40	0	0	57	4524
2026-01-21 08:47:15.76	106.91	18.18	-43.1	-45.0	18.6	0.00e+00	0	40	0	0	57	4555
2026-01-21 08:47:18.61	106.48	18.45	-43.0	-44.8	18.8	0.00e+00	0	40	0	0	57	4450
2026-01-21 08:47:22.59	105.86	18.83	-42.8	-44.5	19.1	0.00e+00	0	40	0	0	57	4336
2026-01-21 08:47:25.43	105.41	19.10	-42.7	-44.5	19.0	0.00e+00	0	40	0	0	57	4328
2026-01-21 08:47:29.23	104.79	19.46	-42.6	-44.3	19.2	0.00e+00	0	40	0	0	57	4240
2026-01-21 08:47:31.95	104.34	19.72	-42.5	-44.3	19.3	0.00e+00	0	40	0	0	56	4442
2026-01-21 08:47:35.47	103.75	20.06	-42.5	-44.3	19.3	0.00e+00	0	40	0	0	56	4462
2026-01-21 08:47:38.28	103.27	20.33	-42.4	-44.1	19.5	0.00e+00	0	40	0	0	56	4370
2026-01-21 08:47:41.44	102.71	20.64	-42.2	-43.9	19.6	0.00e+00	0	40	0	0	56	4272
2026-01-21 08:47:44.28	102.20	20.92	-42.4	-44.1	19.4	0.00e+00	0	40	0	0	56	4378
2026-01-21 08:47:47.41	101.63	21.22	-42.3	-44.0	19.6	0.00e+00	0	40	0	0	56	4312
2026-01-21 08:47:50.36	101.08	21.51	-42.2	-43.9	19.6	0.00e+00	0	40	0	0	56	4280
2026-01-21 08:47:53.62	100.47	21.83	-42.1	-43.8	19.7	0.00e+00	0	40	0	0	56	4234
2026-01-21 08:47:56.41	99.93	22.10	-42.4	-44.2	19.4	0.00e+00	0	40	0	0	56	4393
2026-01-21 08:47:59.54	99.31	22.41	-42.4	-44.1	19.5	0.00e+00	0	40	0	0	56	4360
2026-01-21 08:48:02.38	98.74	22.69	-42.0	-43.7	19.8	0.00e+00	0	40	0	0	56	4162
2026-01-21 08:48:05.50	98.10	22.99	-42.2	-43.9	19.6	0.00e+00	0	40	0	0	56	4254
2026-01-21 08:48:08.33	97.51	23.27	-42.2	-43.9	19.7	0.00e+00	0	40	0	0	56	4256
2026-01-21 08:48:11.46	96.85	23.57	-42.1	-43.8	19.8	0.00e+00	0	40	0	0	56	4201
2026-01-21 08:48:14.39	96.22	23.86	-41.5	-43.2	20.0	0.00e+00	0	40	0	0	55	4147
2026-01-21 08:48:17.57	95.51	24.17	-41.7	-43.4	20.0	0.00e+00	0	40	0	0	54	4525
2026-01-21 08:48:20.43	94.87	24.44	-41.8	-43.5	19.8	0.00e+00	0	40	0	0	54	4559
2026-01-21 08:48:23.72	94.12	24.76	-42.1	-43.8	19.5	0.00e+00	0	40	0	0	54	4729
2026-01-21 08:48:26.45	93.48	25.02	-42.3	-44.0	19.4	0.00e+00	0	41	0	0	55	4598
2026-01-21 08:48:29.73	92.70	25.34	-42.4	-44.2	19.3	0.00e+00	0	40	0	0	55	4685
2026-01-21 08:48:32.48	92.04	25.60	-42.4	-44.1	19.4	0.00e+00	0	40	0	0	55	4640
2026-01-21 08:48:35.75	91.23	25.90	-42.2	-43.9	19.6	0.00e+00	0	40	0	0	55	4501
2026-01-21 08:48:38.47	90.55	26.16	-42.1	-43.8	19.6	0.00e+00	0	40	0	0	55	4485
2026-01-21 08:48:41.73	89.72	26.46	-42.4	-44.2	19.2	0.00e+00	0	40	0	0	55	4702
2026-01-21 08:48:44.45	89.01	26.71	-42.6	-44.4	19.1	0.00e+00	0	40	0	0	55	4778
2026-01-21 08:48:47.67	88.16	27.00	-42.5	-44.2	19.3	0.00e+00	0	40	0	0	55	4691
2026-01-21 08:48:50.75	87.33	27.27	-42.6	-44.4	19.3	0.00e+00	0	40	0	0	56	4526
2026-01-21 08:48:53.60	86.55	27.52	-42.6	-44.3	19.3	0.00e+00	0	40	0	0	56	4490
2026-01-21 08:48:56.73	85.68	27.79	-42.6	-44.4	19.2	0.00e+00	0	40	0	0	56	4540
2026-01-21 08:48:59.58	84.88	28.04	-42.7	-44.5	19.2	0.00e+00	0	40	0	0	56	4567
2026-01-21 08:49:03.02	83.89	28.32	-42.8	-44.6	19.0	0.00e+00	0	40	0	0	56	4626
2026-01-21 08:49:06.01	83.02	28.57	-43.1	-44.9	18.8	0.00e+00	0	40	0	0	56	4787
2026-01-21 08:49:08.99	82.14	28.80	-43.1	-44.9	18.9	0.00e+00	0	40	0	0	56	4777
2026-01-21 08:49:11.98	81.24	29.04	-42.8	-44.5	19.1	0.00e+00	0	40	0	0	56	4591
2026-01-21 08:49:14.97	80.33	29.26	-42.8	-44.6	19.1	0.00e+00	0	40	0	0	56	4607
2026-01-21 08:49:17.95	79.40	29.48	-42.7	-44.5	19.2	0.00e+00	0	40	0	0	56	4555
2026-01-21 08:49:20.93	78.47	29.69	-43.0	-44.8	18.9	0.00e+00	0	40	0	0	56	4710
2026-01-21 08:49:23.95	77.51	29.90	-43.0	-44.8	19.0	0.00e+00	0	40	0	0	56	4730
2026-01-21 08:49:26.94	76.55	30.10	-43.1	-44.9	18.8	0.00e+00	0	40	0	0	57	4532
2026-01-21 08:49:29.93	75.58	30.29	-43.1	-44.9	19.0	0.00e+00	0	40	0	0	57	4498
2026-01-21 08:49:32.91	74.60	30.47	-42.9	-44.7	19.0	0.00e+00	0	40	0	0	57	4409
2026-01-21 08:49:35.89	73.60	30.65	-43.0	-44.8	18.8	0.00e+00	0	40	0	0	57	4478
2026-01-21 08:49:38.94	72.58	30.81	-43.2	-45.0	18.8	0.00e+00	0	40	0	0	57	4585
2026-01-21 08:49:41.96	71.55	30.97	-43.4	-45.2	18.6	0.00e+00	0	40	0	0	57	4689
2026-01-21 08:49:44.94	70.53	31.12	-43.6	-45.4	18.4	0.00e+00	0	40	0	0	57	4802
2026-01-21 08:49:47.93	69.50	31.25	-43.7	-45.6	18.2	0.00e+00	0	40	0	0	58	4635
2026-01-21 08:49:50.91	68.46	31.38	-43.5	-45.4	18.4	0.00e+00	0	40	0	0	58	4516
2026-01-21 08:49:53.90	67.41	31.50	-43.3	-45.1	18.6	0.00e+00	0	40	0	0	58	4385
2026-01-21 08:49:56.89	66.35	31.60	-43.0	-44.7	19.0	0.00e+00	0	40	0	0	58	4178
2026-01-21 08:49:59.94	65.26	31.70	-43.1	-44.9	18.9	0.00e+00	0	40	0	0	57	4496
2026-01-21 08:50:02.79	64.24	31.78	-43.6	-45.4	18.4	0.00e+00	0	40	0	0	57	4809
2026-01-21 08:50:05.91	63.12	31.85	-43.5	-45.3	18.5	0.00e+00	0	40	0	0	57	4739
2026-01-21 08:50:08.75	62.10	31.91	-43.4	-45.2	18.6	0.00e+00	0	40	0	0	57	4699
2026-01-21 08:50:11.88	60.96	31.97	-43.6	-45.5	18.4	0.00e+00	0	40	0	0	57	4840
2026-01-21 08:50:14.78	59.91	32.00	-43.6	-45.5	18.3	0.00e+00	0	40	0	0	58	4564
2026-01-21 08:50:18.05	58.72	32.03	-43.5	-45.4	18.5	0.00e+00	0	40	0	0	58	4521
2026-01-21 08:50:21.08	57.61	32.05	-43.6	-45.4	18.4	0.00e+00	0	40	0	0	58	4539
2026-01-21 08:50:24.38	56.41	32.05	-43.6	-45.4	18.4	0.00e+00	0	40	0	0	58	4532
2026-01-21 08:50:27.12	55.41	32.04	-43.3	-45.1	18.7	0.00e+00	0	41	0	0	58	4382
2026-01-21 08:50:30.40	54.22	32.01	-43.4	-45.2	18.6	0.00e+00	0	40	0	0	58	4434
2026-01-21 08:50:33.14	53.22	31.98	-43.0	-44.8	19.0	0.00e+00	0	40	0	0	58	4212
2026-01-21 08:50:36.43	52.03	31.93	-43.2	-45.0	18.7	0.00e+00	0	40	0	0	57	4598
2026-01-21 08:50:39.14	51.05	31.88	-43.2	-45.0	18.8	0.00e+00	0	40	0	0	57	4580
2026-01-21 08:50:42.42	49.87	31.81	-43.3	-45.1	18.7	0.00e+00	0	40	0	0	57	4638
2026-01-21 08:50:45.16	48.89	31.74	-43.5	-45.4	18.5	0.00e+00	0	40	0	0	57	4769
2026-01-21 08:50:48.45	47.72	31.64	-43.4	-45.2	18.7	0.00e+00	0	40	0	0	57	4689
2026-01-21 08:50:51.17	46.75	31.54	-43.2	-45.0	18.9	0.00e+00	0	40	0	0	57	4594
2026-01-21 08:50:54.46	45.59	31.42	-43.3	-45.1	18.7	0.00e+00	0	40	0	0	57	4641
2026-01-21 08:50:57.19	44.64	31.31	-43.6	-45.5	18.4	0.00e+00	0	40	0	0	57	4852
2026-01-21 08:51:00.48	43.50	31.16	-43.0	-44.8	19.0	0.00e+00	0	40	0	0	58	4229
2026-01-21 08:51:03.19	42.57	31.04	-42.8	-44.6	19.2	0.00e+00	0	40	0	0	57	4347
2026-01-21 08:51:06.47	41.45	30.87	-43.6	-45.4	18.5	0.00e+00	0	40	0	0	57	4800
2026-01-21 08:51:09.18	40.54	30.72	-43.5	-45.3	18.5	0.00e+00	0	40	0	0	57	4746
2026-01-21 08:51:12.46	39.45	30.54	-43.0	-44.8	19.0	0.00e+00	0	40	0	0	57	4465
2026-01-21 08:51:15.21	38.54	30.37	-43.5	-45.4	18.4	0.00e+00	0	40	0	0	57	4797
2026-01-21 08:51:18.49	37.47	30.17	-43.3	-45.1	18.7	0.00e+00	0	40	0	0	57	4643
2026-01-21 08:51:21.23	36.59	29.99	-42.8	-44.6	19.2	0.00e+00	0	40	0	0	57	4353
2026-01-21 08:51:24.50	35.55	29.77	-43.1	-44.9	18.9	0.00e+00	0	40	0	0	57	4510
2026-01-21 08:51:27.23	34.69	29.58	-43.1	-44.9	18.9	0.00e+00	0	40	0	0	57	4535
2026-01-21 08:51:30.52	33.67	29.34	-43.0	-44.8	19.1	0.00e+00	0	40	0	0	57	4449
2026-01-21 08:51:33.23	32.84	29.13	-43.2	-45.0	18.8	0.00e+00	0	40	0	0	57	4574
2026-01-21 08:51:36.51	31.86	28.88	-42.2	-43.9	19.7	0.00e+00	0	40	0	0	56	4267
2026-01-21 08:51:39.27	31.04	28.67	-42.6	-44.4	19.3	0.00e+00	0	40	0	0	56	4518
2026-01-21 08:51:42.55	30.08	28.40	-43.4	-45.3	18.4	0.00e+00	0	40	0	0	57	4730
2026-01-21 08:51:45.27	29.30	28.18	-43.1	-45.0	18.7	0.00e+00	0	41	0	0	57	4546
2026-01-21 08:51:48.55	28.37	27.90	-42.7	-44.5	19.3	0.00e+00	0	40	0	0	57	4314
2026-01-21 08:51:51.27	27.61	27.67	-42.9	-44.7	19.0	0.00e+00	0	40	0	0	57	4429
2026-01-21 08:51:54.55	26.71	27.38	-42.3	-43.9	19.7	0.00e+00	0	40	0	0	56	4291
2026-01-21 08:51:57.26	25.98	27.14	-41.8	-43.4	20.1	0.00e+00	0	40	0	0	55	4273
2026-01-21 08:52:00.55	25.10	26.85	-42.5	-44.2	19.4	0.00e+00	0	40	0	0	55	4685
2026-01-21 08:52:03.26	24.40	26.60	-42.4	-44.1	19.4	0.00e+00	0	40	0	0	55	4636
2026-01-21 08:52:06.54	23.56	26.30	-42.3	-44.0	19.5	0.00e+00	0	40	0	0	55	4585
2026-01-21 08:52:09.25	22.88	26.05	-42.3	-44.0	19.5	0.00e+00	0	40	0	0	55	4572
2026-01-21 08:52:12.55	22.06	25.75	-42.2	-44.0	19.5	0.00e+00	0	40	0	0	55	4573
2026-01-21 08:52:15.27	21.40	25.49	-42.6	-44.4	19.1	0.00e+00	0	40	0	0	55	4806
2026-01-21 08:52:18.56	20.61	25.18	-42.9	-44.8	18.9	0.00e+00	0	40	0	0	56	4714
2026-01-21 08:52:21.31	19.97	24.92	-43.0	-44.8	18.8	0.00e+00	0	40	0	0	56	4759
2026-01-21 08:52:24.59	19.22	24.60	-42.6	-44.3	19.4	0.00e+00	0	40	0	0	56	4493
2026-01-21 08:52:27.32	18.60	24.34	-42.7	-44.5	19.2	0.00e+00	0	40	0	0	56	4564
2026-01-21 08:52:30.60	17.87	24.02	-42.6	-44.4	19.2	0.00e+00	0	40	0	0	56	4505
2026-01-21 08:52:33.32	17.28	23.76	-42.3	-44.1	19.5	0.00e+00	0	40	0	0	56	4369
2026-01-21 08:52:36.60	16.58	23.44	-42.5	-44.3	19.2	0.00e+00	0	41	0	0	56	4485
2026-01-21 08:52:39.34	16.01	23.17	-42.8	-44.7	18.9	0.00e+00	0	40	0	0	56	4661
2026-01-21 08:52:42.63	15.33	22.85	-42.8	-44.6	18.9	0.00e+00	0	40	0	0	56	4646
2026-01-21 08:52:45.34	14.79	22.59	-43.1	-45.0	18.7	0.00e+00	0	40	0	0	56	4824
2026-01-21 08:52:48.63	14.14	22.27	-43.0	-44.9	18.9	0.00e+00	0	40	0	0	57	4514
2026-01-21 08:52:51.35	13.61	22.00	-42.8	-44.6	19.1	0.00e+00	0	40	0	0	57	4358
2026-01-21 08:52:54.63	12.99	21.69	-42.6	-44.4	19.4	0.00e+00	0	40	0	0	57	4249
2026-01-21 08:52:57.36	12.48	21.42	-42.8	-44.6	19.1	0.00e+00	0	40	0	0	57	4382
2026-01-21 08:53:00.66	11.87	21.10	-42.7	-44.5	19.1	0.00e+00	0	40	0	0	57	4316
2026-01-21 08:53:03.37	11.39	20.84	-42.5	-44.3	19.3	0.00e+00	0	41	0	0	56	4462
2026-01-21 08:53:06.66	10.81	20.52	-42.1	-43.9	19.7	0.00e+00	0	40	0	0	56	4267
2026-01-21 08:53:09.37	10.34	20.26	-42.2	-43.9	19.7	0.00e+00	0	40	0	0	56	4284
2026-01-21 08:53:12.65	9.78	19.94	-42.3	-44.1	19.5	0.00e+00	0	40	0	0	56	4373
2026-01-21 08:53:15.39	9.33	19.68	-42.2	-44.0	19.5	0.00e+00	0	40	0	0	56	4332
2026-01-21 08:53:18.69	8.79	19.37	-42.0	-43.8	19.8	0.00e+00	0	41	0	0	56	4203
2026-01-21 08:53:21.42	8.35	19.11	-42.3	-44.1	19.5	0.00e+00	0	41	0	0	56	4352
2026-01-21 08:53:24.71	7.84	18.80	-42.6	-44.5	19.1	0.00e+00	0	40	0	0	56	4581
2026-01-21 08:53:27.44	7.42	18.54	-42.9	-44.8	18.9	0.00e+00	0	40	0	0	56	4709
2026-01-21 08:53:30.74	6.92	18.23	-42.7	-44.5	19.0	0.00e+00	0	40	0	0	56	4547
2026-01-21 08:53:33.45	6.52	17.98	-42.5	-44.3	19.1	0.00e+00	0	40	0	0	56	4485
2026-01-21 08:53:36.74	6.04	17.67	-42.7	-44.6	19.1	0.00e+00	0	40	0	0	56	4612
2026-01-21 08:53:39.45	5.65	17.42	-43.0	-44.9	18.8	0.00e+00	0	40	0	0	56	4794
2026-01-21 08:53:42.73	5.19	17.12	-43.1	-45.1	18.7	0.00e+00	0	41	0	0	57	4600
2026-01-21 08:53:45.46	4.81	16.87	-43.0	-45.0	18.7	0.00e+00	0	40	0	0	57	4548
2026-01-21 08:53:48.74	4.37	16.57	-42.8	-44.7	18.9	0.00e+00	0	40	0	0	57	4411
2026-01-21 08:53:51.46	4.01	16.33	-42.8	-44.6	19.1	0.00e+00	0	41	0	0	57	4370
2026-01-21 08:53:54.75	3.58	16.03	-43.2	-45.1	18.7	0.00e+00	0	40	0	0	57	4606
2026-01-21 08:53:57.45	3.24	15.79	-43.4	-45.3	18.5	0.00e+00	0	40	0	0	57	4757
2026-01-21 08:54:00.75	2.82	15.50	-43.6	-45.5	18.2	0.00e+00	0	40	0	0	57	4854
2026-01-21 08:54:03.46	2.49	15.26	-43.4	-45.3	18.4	0.00e+00	0	40	0	0	57	4757
2026-01-21 08:54:06.75	2.09	14.97	-43.2	-45.1	18.6	0.00e+00	0	40	0	0	57	4646
2026-01-21 08:54:09.47	1.77	14.73	-43.3	-45.2	18.6	0.00e+00	0	40	0	0	57	4669
2026-01-21 08:54:12.76	1.39	14.45	-43.5	-45.4	18.4	0.00e+00	0	40	0	0	57	4779
2026-01-21 08:54:15.48	1.07	14.21	-43.7	-45.7	18.1	0.00e+00	0	40	0	0	58	4670
2026-01-21 08:54:18.77	0.70	13.93	-43.8	-45.8	17.9	0.00e+00	0	40	0	0	58	4747
2026-01-21 08:54:21.49	0.40	13.70	-44.0	-46.0	17.8	0.00e+00	0	40	0	0	58	4838
2026-01-21 08:54:24.78	0.05	13.43	-44.1	-46.1	17.6	0.00e+00	0	40	0	0	58	4923
2026-01-21 08:54:27.50	359.75	13.20	-43.9	-45.9	17.7	0.00e+00	0	40	0	0	58	4812
2026-01-21 08:54:30.79	359.41	12.93	-43.6	-45.7	17.9	0.00e+00	0	40	0	0	58	4671
2026-01-21 08:54:33.51	359.13	12.70	-43.5	-45.5	18.1	0.00e+00	0	40	0	0	58	4590
2026-01-21 08:54:36.80	358.80	12.43	-43.6	-45.6	18.0	0.00e+00	0	40	0	0	58	4635
2026-01-21 08:54:39.52	358.53	12.21	-43.9	-45.9	17.8	0.00e+00	0	41	0	0	58	4797
2026-01-21 08:54:42.81	358.20	11.94	-44.1	-46.4	17.3	0.00e+00	0	40	0	0	58	5048
2026-01-21 08:54:45.53	357.94	11.72	-44.2	-46.5	17.2	0.00e+00	0	41	0	0	59	4844
2026-01-21 08:54:48.82	357.63	11.46	-44.1	-46.5	17.1	0.00e+00	0	40	0	0	59	4839
2026-01-21 08:54:51.54	357.38	11.25	-44.1	-46.3	17.2	0.00e+00	0	40	0	0	59	4757
2026-01-21 08:54:54.83	357.08	10.99	-43.9	-46.0	17.5	0.00e+00	0	40	0	0	59	4575
2026-01-21 08:54:57.56	356.83	10.77	-43.7	-45.9	17.7	0.00e+00	0	40	0	0	59	4495
2026-01-21 08:55:00.85	356.54	10.52	-43.7	-45.9	17.7	0.00e+00	0	40	0	0	59	4542
2026-01-21 08:55:03.57	356.30	10.31	-43.7	-46.1	17.6	0.00e+00	0	40	0	0	59	4608
2026-01-21 08:55:06.86	356.02	10.06	-43.7	-46.3	17.4	0.00e+00	0	40	0	0	59	4723
2026-01-21 08:55:09.57	355.79	9.85	-43.7	-46.5	17.2	0.00e+00	0	40	0	0	59	4870
2026-01-21 08:55:12.87	355.52	9.60	-43.4	-46.6	17.1	0.00e+00	0	40	0	0	58	5203
2026-01-21 08:55:15.59	355.30	9.40	-43.1	-46.6	17.0	0.00e+00	0	40	0	0	58	5212
2026-01-21 08:55:18.88	355.04	9.15	-43.2	-46.7	16.9	0.00e+00	0	40	0	0	58	5243
2026-01-21 08:55:21.59	354.82	8.95	-50.6	-65.2	3.8	1.49e+00	0	40	104	0	71	20853
2026-01-21 08:55:24.86	354.57	8.71	-52.4	-65.5	3.8	1.49e+00	0	40	104	0	75	17175
2026-01-21 08:55:27.58	354.36	8.51	-52.6	-65.6	3.8	1.49e+00	0	40	104	0	75	17459
2026-01-21 08:55:30.87	354.11	8.27	-52.2	-65.8	3.8	1.49e+00	0	40	104	0	75	17711
2026-01-21 08:55:33.60	353.91	8.08	-52.6	-65.8	3.8	1.49e+00	0	40	104	0	76	16803
2026-01-21 08:55:36.88	353.67	7.84	-52.7	-65.8	3.8	1.49e+00	0	40	104	0	76	16843
2026-01-21 08:55:39.59	353.48	7.65	-52.8	-65.8	3.8	1.49e+00	0	40	104	0	76	16804
2026-01-21 08:55:42.86	353.25	7.42	-52.8	-65.8	3.8	1.49e+00	0	40	104	0	76	16881
2026-01-21 08:55:45.61	353.05	7.22	-52.8	-65.8	3.8	1.49e+00	0	40	104	0	76	16870
2026-01-21 08:55:48.91	352.83	6.99	-52.7	-65.8	3.8	1.49e+00	0	40	104	0	76	16819
2026-01-21 08:55:51.63	352.64	6.81	-52.5	-65.8	3.8	1.49e+00	0	40	104	0	76	16799
2026-01-21 08:55:54.93	352.42	6.58	-52.5	-65.8	3.8	1.49e+00	0	40	104	0	76	16756
2026-01-21 08:55:57.68	352.24	6.39	-52.5	-65.8	3.8	1.49e+00	0	40	104	0	76	16704
2026-01-21 08:56:00.96	352.03	6.17	-52.5	-65.8	3.8	1.49e+00	0	40	104	0	76	16724
2026-01-21 08:56:03.71	351.86	5.98	-52.5	-65.8	3.8	1.49e+00	0	40	104	0	76	16701
2026-01-21 08:56:06.99	351.65	5.76	-52.5	-65.8	3.8	1.49e+00	0	40	104	0	76	16721
2026-01-21 08:56:09.73	351.48	5.58	-52.5	-65.7	3.8	1.49e+00	0	40	104	0	76	16673
2026-01-21 08:56:13.02	351.28	5.36	-52.5	-65.8	3.8	1.49e+00	0	40	104	0	76	16728
2026-01-21 08:56:15.78	351.12	5.18	-52.5	-65.8	3.8	1.49e+00	0	40	104	0	76	16711
2026-01-21 08:56:19.06	350.92	4.96	-52.5	-65.8	3.8	1.49e+00	0	41	104	0	76	16696

#Closed at: 2026-01-21 08:56:19
#Recorded file [0 MB]: D:/Data/31040_260121_114431.dat