passes_logs/2026/01/21/T1/T1__20260121_073634_SUOMI_NPP_rec.log

#Pass ID: 20260121_073634_SUOMI NPP
#Satellite: SUOMI NPP
#Configuration: NPP
#almurnet v.1.7.20251203
#Start time: 2026-01-21 07:36:33

#Version: 2.0.20230620
#Station: T1
#Location: 37.570604 lon 55.790049 lat
#TLE: 1 37849U 11061A   26020.95430537  .00000198  00000+0  11470-3 0  9999
#TLE: 2 37849  98.7819 322.9518 0002315  53.3069 306.8320 14.19527555737555

#Time	Az	El	Level	Level2	SNR	BER	BlckErr	Temp	State	Recorded	gain1	gain2
2026-01-21 07:36:33.97	82.43	4.98	-52.0	-67.2	3.8	1.49e+00	0	41	0	0	75	20853
2026-01-21 07:36:36.94	82.09	5.12	-51.9	-67.1	3.8	1.49e+00	0	41	104	0	75	20702
2026-01-21 07:36:39.92	81.74	5.26	-51.9	-67.1	3.8	1.49e+00	0	41	104	0	75	20691
2026-01-21 07:36:42.90	81.40	5.40	-51.9	-67.2	3.8	1.49e+00	0	41	104	0	75	20812
2026-01-21 07:36:45.88	81.05	5.54	-51.9	-67.1	3.8	1.49e+00	0	42	104	0	75	20749
2026-01-21 07:36:48.86	80.70	5.68	-51.9	-67.1	3.8	1.49e+00	0	42	104	0	75	20629
2026-01-21 07:36:51.84	80.34	5.82	-51.9	-67.1	3.8	1.49e+00	0	42	104	0	75	20637
2026-01-21 07:36:54.82	79.98	5.96	-51.9	-67.1	3.8	1.49e+00	0	42	104	0	75	20711
2026-01-21 07:36:57.80	79.62	6.10	-51.9	-67.1	3.8	1.49e+00	0	42	104	0	75	20705
2026-01-21 07:37:00.78	79.25	6.24	-51.9	-67.1	3.8	1.49e+00	0	42	104	0	75	20685
2026-01-21 07:37:03.75	78.88	6.38	-51.9	-67.1	3.8	1.49e+00	0	42	104	0	75	20632
2026-01-21 07:37:06.73	78.51	6.52	-51.9	-67.1	3.8	1.49e+00	0	42	104	0	75	20560
2026-01-21 07:37:09.71	78.13	6.66	-51.9	-67.1	3.8	1.49e+00	0	42	104	0	75	20636
2026-01-21 07:37:12.70	77.75	6.80	-51.9	-67.0	3.8	1.49e+00	0	42	104	0	75	20457
2026-01-21 07:37:15.68	77.36	6.94	-51.9	-67.0	3.8	1.49e+00	0	42	104	0	75	20454
2026-01-21 07:37:18.66	76.97	7.07	-51.9	-66.9	3.8	1.49e+00	0	43	104	0	75	20263
2026-01-21 07:37:21.64	76.58	7.21	-51.9	-67.0	3.8	1.49e+00	0	43	104	0	75	20369
2026-01-21 07:37:24.62	76.18	7.34	-51.9	-66.9	3.8	1.49e+00	0	43	104	0	75	20260
2026-01-21 07:37:27.60	75.78	7.48	-51.9	-66.8	3.8	1.49e+00	0	43	104	0	75	19898
2026-01-21 07:37:30.58	75.38	7.62	-51.9	-66.9	3.8	1.49e+00	0	43	104	0	75	20147
2026-01-21 07:37:33.56	74.97	7.75	-51.9	-67.0	3.8	1.49e+00	0	43	104	0	75	20516
2026-01-21 07:37:36.54	74.56	7.88	-51.9	-66.7	3.8	1.49e+00	0	43	104	0	75	19796
2026-01-21 07:37:39.52	74.15	8.02	-51.8	-66.2	3.8	1.49e+00	0	43	104	0	75	18529
2026-01-21 07:37:42.50	73.73	8.15	-51.9	-66.8	3.8	1.49e+00	0	43	104	0	75	19993
2026-01-21 07:37:45.48	73.30	8.28	-51.9	-66.9	3.8	1.49e+00	0	43	104	0	75	20142
2026-01-21 07:37:48.46	72.88	8.41	-51.8	-65.3	3.8	1.49e+00	0	43	104	0	75	16767
2026-01-21 07:37:51.44	72.45	8.54	-51.9	-66.9	3.8	1.49e+00	0	43	104	0	75	20199
2026-01-21 07:37:54.42	72.01	8.67	-50.2	-56.2	9.4	3.89e-02	0	43	0	2097152	72	7003
2026-01-21 07:37:57.40	71.57	8.80	-47.3	-50.6	15.1	0.00e+00	0	43	0	7340032	66	5182
2026-01-21 07:38:00.38	71.13	8.92	-47.9	-51.6	14.1	0.00e+00	0	43	0	13631488	66	5807
2026-01-21 07:38:03.36	70.68	9.05	-50.6	-57.2	8.4	4.18e-02	0	43	0	18874368	72	7889
2026-01-21 07:38:06.55	70.20	9.18	-50.2	-56.1	8.9	1.32e+00	0	43	0	24117248	72	6905
2026-01-21 07:38:09.39	69.77	9.30	-47.7	-51.2	14.6	0.00e+00	0	43	0	29360128	67	5245
2026-01-21 07:38:12.52	69.29	9.43	-46.9	-49.9	15.8	0.00e+00	0	43	0	35651584	65	5082
2026-01-21 07:38:15.37	68.85	9.54	-46.4	-49.2	16.5	0.00e+00	0	43	0	40894464	64	4949
2026-01-21 07:38:18.60	68.34	9.67	-46.6	-49.7	16.0	0.00e+00	0	43	0	47185920	64	5221
2026-01-21 07:38:21.45	67.89	9.79	-46.7	-49.9	15.7	0.00e+00	0	43	0	52428800	64	5372
2026-01-21 07:38:24.57	67.40	9.91	-47.0	-50.3	15.3	0.00e+00	0	43	0	57671680	64	5647
2026-01-21 07:38:27.41	66.94	10.02	-46.7	-49.9	15.7	0.00e+00	0	43	0	62914560	64	5390
2026-01-21 07:38:30.54	66.43	10.14	-46.3	-49.3	16.4	0.00e+00	0	43	0	69206016	64	4988
2026-01-21 07:38:33.38	65.97	10.25	-46.0	-48.8	16.9	0.00e+00	0	43	0	74448896	63	5009
2026-01-21 07:38:36.52	65.46	10.37	-46.2	-49.1	16.6	0.00e+00	0	43	0	80740352	63	5187
2026-01-21 07:38:39.37	64.98	10.47	-46.5	-49.6	16.2	0.00e+00	0	43	0	85983232	63	5491
2026-01-21 07:38:42.43	64.47	10.59	-46.2	-49.1	16.6	0.00e+00	0	43	0	91226112	63	5204
2026-01-21 07:38:45.41	63.97	10.69	-46.0	-48.8	16.9	0.00e+00	0	43	0	96468992	63	5031
2026-01-21 07:38:48.40	63.47	10.80	-46.0	-48.9	16.8	0.00e+00	0	44	0	102760448	63	5072
2026-01-21 07:38:51.38	62.96	10.90	-46.4	-49.5	16.3	0.00e+00	0	44	0	108003328	63	5405
2026-01-21 07:38:54.38	62.45	11.01	-46.6	-49.7	15.9	0.00e+00	0	44	0	114294784	64	5277
2026-01-21 07:38:57.49	61.91	11.11	-46.4	-49.4	16.2	0.00e+00	0	43	0	119537664	64	5098
2026-01-21 07:39:00.40	61.40	11.21	-46.3	-49.3	16.4	0.00e+00	0	44	0	124780544	64	5009
2026-01-21 07:39:03.68	60.83	11.31	-46.5	-49.7	16.0	0.00e+00	0	44	0	131072000	64	5246
2026-01-21 07:39:06.53	60.32	11.40	-47.0	-50.4	15.3	0.00e+00	0	44	0	136314880	64	5706
2026-01-21 07:39:09.84	59.74	11.51	-46.8	-50.1	15.7	0.00e+00	0	44	0	142606336	64	5470
2026-01-21 07:39:13.22	59.13	11.61	-46.0	-48.9	16.8	0.00e+00	0	43	0	148897792	64	4788
2026-01-21 07:39:16.07	58.62	11.69	-45.8	-48.5	17.2	0.00e+00	0	44	0	154140672	63	4867
2026-01-21 07:39:19.37	58.02	11.79	-45.9	-48.6	17.1	0.00e+00	0	44	0	160432128	63	4918
2026-01-21 07:39:22.21	57.50	11.87	-45.9	-48.6	17.2	0.00e+00	0	44	0	165675008	63	4905
2026-01-21 07:39:25.57	56.89	11.96	-45.6	-48.3	17.4	0.00e+00	0	44	0	171966464	63	4739
2026-01-21 07:39:28.49	56.35	12.04	-45.6	-48.3	17.5	0.00e+00	0	44	0	177209344	62	4998
2026-01-21 07:39:31.80	55.74	12.12	-46.2	-49.1	16.7	0.00e+00	0	44	0	183500800	63	5185
2026-01-21 07:39:34.51	55.23	12.19	-46.4	-49.4	16.5	0.00e+00	0	44	0	188743680	63	5350
2026-01-21 07:39:37.79	54.62	12.27	-46.6	-49.7	16.1	0.00e+00	0	43	0	195035136	64	5263
2026-01-21 07:39:40.49	54.11	12.33	-46.5	-49.5	16.3	0.00e+00	0	44	0	200278016	64	5131
2026-01-21 07:39:44.05	53.44	12.41	-46.7	-49.8	16.0	0.00e+00	0	44	0	206569472	64	5320
2026-01-21 07:39:46.96	52.88	12.47	-46.6	-49.7	16.0	0.00e+00	0	44	0	211812352	64	5279
2026-01-21 07:39:50.24	52.26	12.54	-46.5	-49.5	16.2	0.00e+00	0	44	0	218103808	64	5136
2026-01-21 07:39:52.97	51.74	12.59	-46.0	-48.9	16.9	0.00e+00	0	44	0	223346688	64	4773
2026-01-21 07:39:56.25	51.11	12.65	-46.2	-49.2	16.5	0.00e+00	0	44	0	229638144	64	4940
2026-01-21 07:39:58.97	50.58	12.70	-46.0	-48.9	16.8	0.00e+00	0	44	0	234881024	64	4771
2026-01-21 07:40:02.23	49.95	12.75	-46.3	-49.2	16.6	0.00e+00	0	44	0	241172480	63	5245
2026-01-21 07:40:04.98	49.41	12.80	-46.3	-49.2	16.6	0.00e+00	0	44	0	246415360	63	5256
2026-01-21 07:40:08.25	48.78	12.85	-46.1	-49.0	16.8	0.00e+00	0	44	0	252706816	63	5110
2026-01-21 07:40:10.97	48.25	12.88	-46.0	-48.8	17.0	0.00e+00	0	44	0	256901120	63	4999
2026-01-21 07:40:14.24	47.60	12.93	-45.9	-48.7	17.1	0.00e+00	0	44	0	263192576	63	4932
2026-01-21 07:40:16.96	47.07	12.96	-46.2	-49.1	16.7	0.00e+00	0	44	0	268435456	63	5216
2026-01-21 07:40:20.23	46.43	12.99	-46.5	-49.5	16.3	0.00e+00	0	44	0	274726912	63	5453
2026-01-21 07:40:22.93	45.89	13.02	-46.1	-49.0	16.8	0.00e+00	0	44	0	279969792	63	5102
2026-01-21 07:40:26.20	45.25	13.05	-45.8	-48.6	17.1	0.00e+00	0	44	0	286261248	63	4904
2026-01-21 07:40:28.92	44.71	13.07	-45.9	-48.7	17.0	0.00e+00	0	44	0	291504128	63	4977
2026-01-21 07:40:32.19	44.06	13.10	-45.8	-48.5	17.2	0.00e+00	0	44	0	296747008	63	4851
2026-01-21 07:40:35.09	43.48	13.11	-45.8	-48.6	17.2	0.00e+00	0	44	0	303038464	63	4887
2026-01-21 07:40:38.72	42.76	13.13	-46.0	-48.8	17.0	0.00e+00	0	44	0	309329920	63	5009
2026-01-21 07:40:42.11	42.09	13.15	-45.8	-48.6	17.2	0.00e+00	0	44	0	315621376	63	4883
2026-01-21 07:40:45.15	41.48	13.15	-45.5	-48.2	17.5	0.00e+00	0	44	0	321912832	63	4664
2026-01-21 07:40:48.08	40.90	13.16	-45.6	-48.3	17.4	0.00e+00	0	44	0	327155712	62	5003
2026-01-21 07:40:51.21	40.27	13.16	-46.0	-48.9	16.8	0.00e+00	0	44	0	332398592	62	5399
2026-01-21 07:40:54.06	39.70	13.16	-46.2	-49.1	16.6	0.00e+00	0	44	0	337641472	63	5203
2026-01-21 07:40:57.18	39.08	13.15	-46.0	-48.9	16.9	0.00e+00	0	44	0	343932928	63	5052
2026-01-21 07:41:00.69	38.38	13.15	-46.6	-49.7	16.0	0.00e+00	0	44	0	350224384	63	5575
2026-01-21 07:41:03.40	37.84	13.14	-46.3	-49.4	16.4	0.00e+00	0	44	0	355467264	63	5369
2026-01-21 07:41:06.62	37.20	13.12	-45.8	-48.7	17.0	0.00e+00	0	44	0	361758720	63	4959
2026-01-21 07:41:09.46	36.64	13.10	-45.8	-48.6	17.1	0.00e+00	0	44	0	367001600	63	4917
2026-01-21 07:41:12.59	36.02	13.08	-45.9	-48.8	16.9	0.00e+00	0	44	0	373293056	63	5029
2026-01-21 07:41:15.46	35.45	13.06	-46.1	-49.1	16.7	0.00e+00	0	44	0	378535936	63	5186
2026-01-21 07:41:18.59	34.83	13.03	-46.3	-49.2	16.6	0.00e+00	0	44	0	383778816	63	5254
2026-01-21 07:41:21.43	34.27	13.01	-46.0	-48.8	17.0	0.00e+00	0	44	0	389021696	63	5032
2026-01-21 07:41:24.56	33.65	12.97	-45.9	-48.8	17.0	0.00e+00	0	44	0	395313152	63	4986
2026-01-21 07:41:27.40	33.10	12.94	-46.0	-48.9	17.0	0.00e+00	0	44	0	400556032	63	5065
2026-01-21 07:41:30.53	32.48	12.90	-45.9	-48.8	17.0	0.00e+00	0	44	0	406847488	63	5004
2026-01-21 07:41:33.37	31.93	12.86	-46.0	-48.9	16.9	0.00e+00	0	44	0	412090368	63	5075
2026-01-21 07:41:36.50	31.32	12.82	-46.2	-49.1	16.7	0.00e+00	0	44	0	417333248	63	5216
2026-01-21 07:41:39.34	30.77	12.77	-46.1	-49.0	16.8	0.00e+00	0	44	0	422576128	63	5140
2026-01-21 07:41:42.47	30.16	12.72	-46.1	-49.0	16.8	0.00e+00	0	44	0	428867584	63	5110
2026-01-21 07:41:45.38	29.60	12.67	-45.9	-48.7	17.1	0.00e+00	0	44	0	434110464	63	4970
2026-01-21 07:41:48.61	28.98	12.61	-45.7	-48.6	17.2	0.00e+00	0	44	0	440401920	63	4888
2026-01-21 07:41:51.46	28.43	12.56	-46.1	-49.1	16.7	0.00e+00	0	44	0	445644800	63	5186
2026-01-21 07:41:54.59	27.83	12.50	-45.8	-48.7	17.1	0.00e+00	0	44	0	451936256	63	4969
2026-01-21 07:41:57.43	27.30	12.44	-45.7	-48.6	17.3	0.00e+00	0	44	0	457179136	63	4880
2026-01-21 07:42:00.55	26.71	12.37	-46.1	-49.0	16.8	0.00e+00	0	44	0	462422016	63	5114
2026-01-21 07:42:03.40	26.17	12.30	-46.2	-49.3	16.6	0.00e+00	0	44	0	467664896	63	5296
2026-01-21 07:42:06.54	25.58	12.23	-46.1	-49.3	16.6	0.00e+00	0	44	0	473956352	63	5311
2026-01-21 07:42:09.49	25.03	12.16	-45.9	-49.0	16.9	0.00e+00	0	44	0	479199232	63	5110
2026-01-21 07:42:12.62	24.45	12.08	-46.1	-49.0	16.8	0.00e+00	0	44	0	485490688	63	5157
2026-01-21 07:42:15.56	23.91	12.00	-45.9	-48.7	17.1	0.00e+00	0	44	0	490733568	63	4958
2026-01-21 07:42:18.54	23.36	11.92	-45.8	-48.6	17.2	0.00e+00	0	44	0	497025024	63	4892
2026-01-21 07:42:21.52	22.82	11.84	-45.9	-48.6	17.1	0.00e+00	0	44	0	502267904	63	4920
2026-01-21 07:42:24.51	22.28	11.76	-45.8	-48.7	17.1	0.00e+00	0	44	0	507510784	63	4946
2026-01-21 07:42:27.49	21.74	11.67	-45.6	-48.7	17.1	0.00e+00	0	44	0	513802240	63	4945
2026-01-21 07:42:30.41	21.22	11.59	-45.3	-48.2	17.5	0.00e+00	0	44	0	519045120	62	4976
2026-01-21 07:42:33.54	20.66	11.49	-45.1	-48.0	17.8	0.00e+00	0	44	0	524288000	62	4815
2026-01-21 07:42:36.38	20.16	11.40	-45.4	-48.4	17.3	0.00e+00	0	44	0	529530880	62	5078
2026-01-21 07:42:39.51	19.61	11.30	-45.7	-48.7	17.1	0.00e+00	0	44	0	535822336	62	5247
2026-01-21 07:42:42.35	19.11	11.21	-46.3	-49.4	16.4	0.00e+00	0	44	0	541065216	63	5377
2026-01-21 07:42:45.47	18.57	11.11	-46.5	-49.6	16.2	0.00e+00	0	44	0	547356672	63	5509
2026-01-21 07:42:48.31	18.08	11.01	-46.3	-49.3	16.5	0.00e+00	0	44	0	552599552	63	5330
2026-01-21 07:42:51.44	17.55	10.91	-46.4	-49.5	16.3	0.00e+00	0	44	0	557842432	63	5449
2026-01-21 07:42:54.28	17.06	10.81	-46.4	-49.7	16.2	0.00e+00	0	44	0	563085312	63	5537
2026-01-21 07:42:57.42	16.54	10.70	-46.3	-49.7	16.1	0.00e+00	0	44	0	569376768	63	5555
2026-01-21 07:43:00.31	16.05	10.59	-46.1	-49.6	16.2	0.00e+00	0	44	0	574619648	63	5489
2026-01-21 07:43:03.59	15.51	10.47	-46.1	-49.7	16.0	0.00e+00	0	44	0	580911104	63	5589
2026-01-21 07:43:06.31	15.06	10.37	-46.4	-49.9	15.9	0.00e+00	0	44	0	586153984	63	5700
2026-01-21 07:43:09.50	14.54	10.25	-46.7	-50.3	15.5	0.00e+00	0	44	0	592445440	64	5627
2026-01-21 07:43:12.48	14.06	10.14	-46.4	-49.7	16.0	0.00e+00	0	44	0	597688320	64	5239
2026-01-21 07:43:15.46	13.58	10.03	-46.5	-49.7	16.0	0.00e+00	0	44	0	602931200	64	5238
2026-01-21 07:43:18.45	13.10	9.91	-47.0	-50.8	15.0	0.00e+00	0	44	0	609222656	64	5924
2026-01-21 07:43:21.43	12.63	9.79	-47.6	-52.0	13.8	4.50e-06	0	44	0	614465536	65	6446
2026-01-21 07:43:24.42	12.16	9.67	-47.4	-51.7	14.1	2.20e-06	0	44	0	619708416	66	5897
2026-01-21 07:43:27.40	11.70	9.55	-46.9	-51.0	14.7	0.00e+00	0	44	0	625999872	65	5777
2026-01-21 07:43:30.39	11.23	9.43	-46.5	-50.8	14.9	0.00e+00	0	44	0	631242752	64	5957
2026-01-21 07:43:33.59	10.74	9.30	-47.0	-52.3	13.5	3.00e-06	0	44	0	637534208	64	7108
2026-01-21 07:43:36.54	10.30	9.18	-47.1	-53.6	12.2	1.11e-04	0	44	0	642777088	64	8238
2026-01-21 07:43:39.68	9.83	9.05	-46.8	-53.4	12.4	2.61e-04	0	44	0	649068544	65	7548
2026-01-21 07:43:42.52	9.40	8.93	-51.8	-67.5	3.8	1.49e+00	0	44	104	651165696	74	22844
2026-01-21 07:43:45.64	8.94	8.80	-52.2	-67.8	3.8	1.49e+00	0	44	104	651165696	75	22410
2026-01-21 07:43:48.47	8.53	8.67	-52.6	-67.9	3.8	1.49e+00	0	44	104	651165696	75	22701
2026-01-21 07:43:51.60	8.07	8.54	-52.7	-68.0	3.8	1.49e+00	0	44	104	651165696	76	21697
2026-01-21 07:43:54.50	7.66	8.41	-52.8	-68.1	3.8	1.49e+00	0	44	104	651165696	76	21898
2026-01-21 07:43:57.69	7.20	8.27	-52.9	-68.1	3.8	1.49e+00	0	44	104	651165696	76	21908
2026-01-21 07:44:00.52	6.81	8.15	-53.0	-68.1	3.8	1.49e+00	0	44	104	651165696	76	21878
2026-01-21 07:44:03.65	6.37	8.01	-52.9	-68.1	3.8	1.49e+00	0	44	104	651165696	76	21853
2026-01-21 07:44:06.48	5.98	7.89	-52.7	-68.1	3.8	1.49e+00	0	44	104	651165696	76	21774
2026-01-21 07:44:09.60	5.55	7.75	-52.6	-68.0	3.8	1.49e+00	0	44	104	651165696	76	21643
2026-01-21 07:44:12.44	5.16	7.62	-52.6	-68.0	3.8	1.49e+00	0	44	104	651165696	76	21684
2026-01-21 07:44:15.56	4.74	7.48	-52.6	-68.0	3.8	1.49e+00	0	44	104	651165696	76	21572
2026-01-21 07:44:18.40	4.36	7.35	-52.6	-68.0	3.8	1.49e+00	0	44	104	651165696	76	21608
2026-01-21 07:44:21.52	3.95	7.21	-52.6	-68.0	3.8	1.49e+00	0	44	104	651165696	76	21614
2026-01-21 07:44:24.36	3.58	7.08	-52.6	-68.0	3.8	1.49e+00	0	44	104	651165696	76	21654
2026-01-21 07:44:27.48	3.18	6.93	-52.6	-68.0	3.8	1.49e+00	0	44	104	651165696	76	21605
2026-01-21 07:44:30.32	2.81	6.80	-52.6	-68.0	3.8	1.49e+00	0	44	104	651165696	76	21637
2026-01-21 07:44:33.44	2.42	6.66	-52.6	-68.0	3.8	1.49e+00	0	44	104	651165696	76	21556
2026-01-21 07:44:36.28	2.06	6.53	-52.6	-68.0	3.8	1.49e+00	0	44	104	651165696	76	21598
2026-01-21 07:44:39.40	1.67	6.38	-52.6	-68.0	3.8	1.49e+00	0	44	104	651165696	76	21634
2026-01-21 07:44:42.24	1.32	6.25	-52.6	-68.0	3.8	1.49e+00	0	44	104	651165696	76	21574
2026-01-21 07:44:45.36	0.94	6.10	-52.6	-68.0	3.8	1.49e+00	0	44	104	651165696	76	21710
2026-01-21 07:44:48.20	0.60	5.97	-52.6	-68.0	3.8	1.49e+00	0	44	104	651165696	76	21579
2026-01-21 07:44:51.32	0.22	5.82	-52.6	-67.9	3.8	1.49e+00	0	44	104	651165696	76	21488
2026-01-21 07:44:54.16	359.89	5.69	-52.6	-68.0	3.8	1.49e+00	0	44	104	651165696	76	21620
2026-01-21 07:44:57.28	359.52	5.54	-52.6	-68.0	3.8	1.49e+00	0	44	104	651165696	76	21566
2026-01-21 07:45:00.12	359.19	5.41	-52.6	-68.0	3.8	1.49e+00	0	44	104	651165696	76	21541
2026-01-21 07:45:03.24	358.83	5.26	-52.6	-68.0	3.8	1.49e+00	0	44	104	651165696	76	21645
2026-01-21 07:45:06.08	358.51	5.13	-52.6	-67.9	3.8	1.49e+00	0	44	104	651165696	76	21473
2026-01-21 07:45:09.20	358.15	4.98	-52.6	-68.0	3.8	1.49e+00	0	44	104	651165696	76	21581

#Closed at: 2026-01-21 07:45:10
#Recorded file [651 MB]: D:/Data/31040_260121_103633.dat