passes_logs/2026/01/21/T1/T1__20260121_210736_FENGYUN_3G_rec.log

#Pass ID: 20260121_210736_FENGYUN 3G
#Satellite: FENGYUN 3G
#Configuration: FENGYUN 3G
#almurnet v.1.7.20251203
#Start time: 2026-01-21 21:07:36

#Version: 2.0.20230620
#Station: T1
#Location: 37.570604 lon 55.790049 lat
#TLE: 1 56232U 23055A   26020.45159834  .00088200  00000+0  13354-2 0  9997
#TLE: 2 56232  49.9936  27.7990 0004112  56.3402 303.7958 15.53862613157044

#Time	Az	El	Level	Level2	SNR	BER	BlckErr	Temp	State	Recorded	gain1	gain2
2026-01-21 21:07:36.28	252.47	5.38	-50.7	-69.7	3.8	8.38e-01	0	35	104	0	73	31223
2026-01-21 21:07:38.26	252.30	5.53	-50.7	-69.6	3.8	8.47e-01	0	35	104	0	73	31001
2026-01-21 21:07:40.25	252.12	5.69	-50.7	-69.5	3.8	8.46e-01	0	35	104	0	73	30696
2026-01-21 21:07:42.24	251.94	5.84	-50.7	-69.4	3.8	8.48e-01	0	35	104	0	73	30179
2026-01-21 21:07:44.22	251.76	6.00	-50.7	-69.2	3.8	8.47e-01	0	36	104	0	73	29464
2026-01-21 21:07:46.21	251.57	6.16	-50.7	-69.1	3.8	8.48e-01	0	36	104	0	73	29082
2026-01-21 21:07:48.20	251.38	6.32	-50.7	-69.1	3.8	8.47e-01	0	36	104	0	73	29049
2026-01-21 21:07:50.18	251.19	6.48	-50.7	-69.1	3.8	8.46e-01	0	36	104	0	73	29306
2026-01-21 21:07:52.17	250.99	6.64	-50.7	-69.1	3.8	8.47e-01	0	36	104	0	73	29338
2026-01-21 21:07:54.15	250.80	6.80	-50.7	-69.2	3.8	8.47e-01	0	36	104	0	73	29372
2026-01-21 21:07:56.14	250.59	6.97	-50.7	-69.4	3.8	8.48e-01	0	36	104	0	73	30135
2026-01-21 21:07:58.13	250.39	7.13	-50.7	-69.5	3.8	8.47e-01	0	36	104	0	73	30626
2026-01-21 21:08:00.11	250.18	7.30	-50.7	-69.4	3.8	8.46e-01	0	36	104	0	73	30311
2026-01-21 21:08:02.10	249.97	7.47	-50.7	-69.4	3.8	8.47e-01	0	36	104	0	73	30198
2026-01-21 21:08:04.08	249.75	7.64	-50.7	-69.3	3.8	8.47e-01	0	36	104	0	73	29786
2026-01-21 21:08:06.07	249.54	7.81	-50.7	-68.2	3.8	8.45e-01	0	36	104	0	73	26410
2026-01-21 21:08:08.06	249.31	7.98	-50.6	-67.6	3.8	8.47e-01	0	36	104	0	73	24679
2026-01-21 21:08:10.04	249.09	8.16	-50.6	-68.5	3.8	8.46e-01	0	36	104	0	73	27080
2026-01-21 21:08:12.03	248.86	8.34	-50.6	-69.4	3.8	8.48e-01	0	36	104	0	73	30352
2026-01-21 21:08:14.01	248.62	8.51	-50.6	-68.4	3.8	8.46e-01	0	37	104	0	73	26816
2026-01-21 21:08:16.00	248.38	8.69	-50.6	-67.6	3.8	8.48e-01	0	37	104	0	73	24565
2026-01-21 21:08:17.99	248.14	8.87	-50.4	-63.5	5.2	8.46e-01	0	37	0	0	72	16244
2026-01-21 21:08:19.97	247.90	9.06	-49.7	-57.8	10.5	1.09e-01	0	37	0	0	71	8909
2026-01-21 21:08:21.96	247.64	9.24	-50.5	-63.7	5.3	2.75e-03	0	37	0	0	71	17537
2026-01-21 21:08:23.98	247.38	9.43	-45.6	-48.8	19.3	2.76e-01	0	36	0	0	63	5026
2026-01-21 21:08:25.97	247.12	9.62	-45.8	-49.2	18.9	4.94e-02	0	36	0	0	63	5231
2026-01-21 21:08:27.96	246.86	9.81	-44.2	-46.9	21.1	0.00e+00	0	37	0	0	60	4801
2026-01-21 21:08:29.95	246.59	10.00	-44.0	-46.6	21.3	0.00e+00	0	37	0	0	59	4922
2026-01-21 21:08:31.94	246.31	10.19	-43.8	-46.4	21.5	0.00e+00	0	37	0	0	59	4802
2026-01-21 21:08:33.93	246.03	10.39	-42.8	-45.2	22.6	0.00e+00	0	37	0	0	57	4672
2026-01-21 21:08:35.91	245.75	10.58	-42.5	-44.9	22.8	0.00e+00	0	37	0	0	57	4515
2026-01-21 21:08:37.90	245.46	10.78	-42.9	-45.3	22.5	0.00e+00	0	37	0	0	57	4738
2026-01-21 21:08:39.95	245.16	10.99	-42.7	-45.0	22.8	0.00e+00	0	37	0	0	57	4595
2026-01-21 21:08:41.98	244.85	11.19	-42.6	-44.9	22.8	0.00e+00	0	37	0	0	57	4539
2026-01-21 21:08:43.96	244.54	11.40	-42.2	-44.5	23.2	0.00e+00	0	37	0	0	56	4550
2026-01-21 21:08:45.95	244.23	11.60	-42.1	-44.3	23.3	0.00e+00	0	37	0	0	56	4489
2026-01-21 21:08:47.94	243.91	11.81	-41.5	-43.7	23.6	0.00e+00	0	37	0	0	55	4423
2026-01-21 21:08:49.93	243.59	12.02	-41.4	-43.6	23.7	0.00e+00	0	37	0	0	54	4636
2026-01-21 21:08:51.92	243.25	12.23	-41.4	-43.5	23.8	0.00e+00	0	37	0	0	54	4597
2026-01-21 21:08:53.99	242.90	12.46	-41.6	-43.8	23.6	0.00e+00	0	37	0	0	54	4731
2026-01-21 21:08:55.92	242.57	12.67	-41.2	-43.4	23.9	0.00e+00	0	37	0	0	54	4514
2026-01-21 21:08:57.91	242.22	12.88	-41.2	-43.4	23.9	0.00e+00	0	37	0	0	54	4525
2026-01-21 21:08:59.90	241.86	13.10	-41.3	-43.5	23.8	0.00e+00	0	37	0	0	54	4585
2026-01-21 21:09:01.89	241.49	13.33	-41.2	-43.4	23.9	0.00e+00	0	37	0	0	54	4515
2026-01-21 21:09:03.88	241.12	13.55	-41.1	-43.3	24.0	0.00e+00	0	37	0	0	54	4463
2026-01-21 21:09:05.87	240.74	13.78	-40.8	-42.9	24.2	0.00e+00	0	37	0	0	53	4507
2026-01-21 21:09:07.91	240.34	14.01	-40.8	-42.9	24.3	0.00e+00	0	37	0	0	53	4511
2026-01-21 21:09:09.96	239.94	14.25	-40.9	-43.1	24.2	0.00e+00	0	37	0	0	53	4600
2026-01-21 21:09:11.96	239.53	14.48	-40.9	-43.1	24.1	0.00e+00	0	37	0	0	53	4609
2026-01-21 21:09:13.95	239.12	14.72	-40.8	-43.0	24.3	0.00e+00	0	37	0	0	53	4547
2026-01-21 21:09:15.95	238.69	14.96	-40.6	-42.7	24.4	0.00e+00	0	37	0	0	53	4416
2026-01-21 21:09:17.94	238.26	15.19	-40.2	-42.2	24.7	0.00e+00	0	37	0	0	52	4432
2026-01-21 21:09:19.92	237.83	15.43	-40.2	-42.3	24.7	0.00e+00	0	37	0	0	52	4451
2026-01-21 21:09:22.01	237.36	15.69	-40.2	-42.3	24.7	0.00e+00	0	37	0	0	52	4464
2026-01-21 21:09:24.03	236.89	15.94	-40.3	-42.4	24.7	0.00e+00	0	37	0	0	52	4520
2026-01-21 21:09:26.08	236.41	16.19	-40.3	-42.3	24.7	0.00e+00	0	37	0	0	52	4487
2026-01-21 21:09:28.14	235.91	16.45	-39.8	-41.8	25.1	0.00e+00	0	37	0	0	51	4484
2026-01-21 21:09:30.13	235.43	16.70	-39.8	-41.9	25.1	0.00e+00	0	37	0	0	51	4502
2026-01-21 21:09:32.12	234.93	16.96	-39.6	-41.6	25.2	0.00e+00	0	37	0	0	51	4372
2026-01-21 21:09:34.14	234.41	17.22	-40.0	-42.0	25.0	0.00e+00	0	37	0	0	51	4571
2026-01-21 21:09:36.14	233.89	17.47	-40.0	-42.0	24.9	0.00e+00	0	37	0	0	51	4595
2026-01-21 21:09:38.16	233.35	17.74	-39.9	-41.9	25.0	0.00e+00	0	37	0	0	51	4540
2026-01-21 21:09:40.15	232.80	18.00	-39.6	-41.6	25.2	0.00e+00	0	37	0	0	51	4344
2026-01-21 21:09:42.21	232.23	18.27	-39.4	-41.4	25.3	0.00e+00	0	37	0	0	50	4527
2026-01-21 21:09:44.23	231.65	18.54	-39.2	-41.2	25.5	0.00e+00	0	37	0	0	50	4398
2026-01-21 21:09:46.23	231.07	18.80	-39.6	-41.6	25.2	0.00e+00	0	37	0	0	50	4611
2026-01-21 21:09:48.22	230.47	19.07	-39.4	-41.4	25.3	0.00e+00	0	37	0	0	50	4524
2026-01-21 21:09:50.21	229.87	19.34	-39.5	-41.5	25.3	0.00e+00	0	37	0	0	50	4556
2026-01-21 21:09:52.23	229.24	19.61	-39.1	-41.1	25.5	0.00e+00	0	37	0	0	50	4367
2026-01-21 21:09:54.28	228.59	19.89	-39.0	-41.0	25.6	0.00e+00	0	37	0	0	49	4568
2026-01-21 21:09:56.27	227.94	20.16	-39.1	-41.1	25.5	0.00e+00	0	37	0	0	49	4626
2026-01-21 21:09:58.26	227.28	20.43	-39.0	-41.0	25.5	0.00e+00	0	37	0	0	49	4575
2026-01-21 21:10:00.25	226.60	20.71	-39.2	-41.2	25.4	0.00e+00	0	38	0	0	49	4658
2026-01-21 21:10:02.42	225.85	21.01	-39.0	-41.0	25.6	0.00e+00	0	37	0	0	49	4572
2026-01-21 21:10:04.41	225.15	21.28	-38.5	-40.5	25.9	0.00e+00	0	37	0	0	49	4298
2026-01-21 21:10:06.40	224.42	21.55	-38.5	-40.4	25.9	0.00e+00	0	37	0	0	48	4534
2026-01-21 21:10:08.40	223.68	21.83	-38.7	-40.6	25.8	0.00e+00	0	38	0	0	48	4629
2026-01-21 21:10:10.39	222.93	22.10	-39.1	-41.1	25.5	0.00e+00	0	37	0	0	48	4891
2026-01-21 21:10:12.38	222.16	22.37	-39.0	-41.0	25.6	0.00e+00	0	37	0	0	48	4840
2026-01-21 21:10:14.43	221.35	22.65	-39.0	-41.0	25.6	0.00e+00	0	37	0	0	48	4815
2026-01-21 21:10:16.41	220.56	22.92	-38.6	-40.5	25.9	0.00e+00	0	37	0	0	48	4591
2026-01-21 21:10:18.40	219.74	23.19	-38.6	-40.5	25.9	0.00e+00	0	37	0	0	48	4569
2026-01-21 21:10:20.39	218.91	23.45	-38.5	-40.4	25.9	0.00e+00	0	37	0	0	48	4524
2026-01-21 21:10:22.38	218.06	23.72	-38.9	-40.9	25.7	0.00e+00	0	38	0	0	48	4787
2026-01-21 21:10:24.37	217.19	23.98	-38.8	-40.8	25.8	0.00e+00	0	37	0	0	48	4724
2026-01-21 21:10:26.41	216.28	24.24	-39.1	-41.0	25.6	0.00e+00	0	38	0	0	48	4869
2026-01-21 21:10:28.40	215.38	24.50	-39.1	-41.0	25.6	0.00e+00	0	37	0	0	49	4593
2026-01-21 21:10:30.39	214.46	24.75	-38.8	-40.8	25.7	0.00e+00	0	37	0	0	49	4461
2026-01-21 21:10:32.38	213.52	25.00	-38.6	-40.5	25.9	0.00e+00	0	37	0	0	49	4321
2026-01-21 21:10:34.37	212.57	25.24	-39.0	-40.9	25.6	0.00e+00	0	38	0	0	49	4545
2026-01-21 21:10:36.36	211.60	25.48	-39.3	-41.3	25.4	0.00e+00	0	37	0	0	49	4712
2026-01-21 21:10:38.35	210.61	25.71	-39.3	-41.3	25.5	0.00e+00	0	37	0	0	49	4736
2026-01-21 21:10:40.34	209.61	25.94	-39.2	-41.1	25.6	0.00e+00	0	37	0	0	49	4628
2026-01-21 21:10:42.33	208.59	26.16	-39.3	-41.3	25.4	0.00e+00	0	37	0	0	49	4749
2026-01-21 21:10:44.40	207.51	26.38	-39.3	-41.2	25.4	0.00e+00	0	38	0	0	49	4701
2026-01-21 21:10:46.39	206.45	26.59	-39.0	-41.0	25.6	0.00e+00	0	37	0	0	49	4562
2026-01-21 21:10:48.38	205.38	26.79	-38.9	-40.8	25.7	0.00e+00	0	38	0	0	49	4492
2026-01-21 21:10:50.58	204.19	27.00	-39.4	-41.3	25.3	0.00e+00	0	37	0	0	49	4757
2026-01-21 21:10:52.57	203.08	27.18	-39.2	-41.2	25.6	0.00e+00	0	38	0	0	49	4662
2026-01-21 21:10:54.56	201.97	27.36	-38.7	-40.6	25.9	0.00e+00	0	37	0	0	49	4361
2026-01-21 21:10:56.57	200.83	27.52	-39.3	-41.4	25.4	0.00e+00	0	38	0	0	49	4762
2026-01-21 21:10:58.56	199.69	27.68	-39.2	-41.1	25.6	0.00e+00	0	37	0	0	49	4644
2026-01-21 21:11:00.57	198.53	27.82	-38.3	-40.2	26.0	0.00e+00	0	37	0	0	48	4440
2026-01-21 21:11:02.57	197.36	27.95	-38.7	-40.6	25.7	0.00e+00	0	38	0	0	48	4634
2026-01-21 21:11:04.56	196.18	28.08	-38.4	-40.3	26.1	0.00e+00	0	38	0	0	48	4481
2026-01-21 21:11:06.56	194.99	28.19	-38.6	-40.5	25.9	0.00e+00	0	38	0	0	48	4575
2026-01-21 21:11:08.54	193.80	28.28	-39.1	-41.0	25.6	0.00e+00	0	38	0	0	48	4861
2026-01-21 21:11:10.53	192.60	28.37	-39.3	-41.3	25.5	0.00e+00	0	38	0	0	49	4710
2026-01-21 21:11:12.86	191.19	28.45	-39.2	-41.2	25.4	0.00e+00	0	38	0	0	49	4672
2026-01-21 21:11:14.94	189.92	28.52	-39.2	-41.2	25.5	0.00e+00	0	37	0	0	50	4409
2026-01-21 21:11:16.93	188.70	28.56	-38.9	-40.9	25.7	0.00e+00	0	38	0	0	49	4514
2026-01-21 21:11:18.92	187.48	28.60	-38.8	-40.7	25.9	0.00e+00	0	38	0	0	49	4435
2026-01-21 21:11:20.92	186.25	28.62	-38.6	-40.5	25.9	0.00e+00	0	37	0	0	48	4571
2026-01-21 21:11:22.93	185.01	28.62	-38.6	-40.5	25.9	0.00e+00	0	37	0	0	48	4587
2026-01-21 21:11:24.92	183.78	28.62	-38.4	-40.3	26.0	0.00e+00	0	38	0	0	48	4474
2026-01-21 21:11:26.92	182.55	28.60	-38.0	-39.9	26.2	0.00e+00	0	38	0	0	48	4266
2026-01-21 21:11:28.91	181.33	28.56	-38.1	-40.0	26.1	0.00e+00	0	37	0	0	47	4595
2026-01-21 21:11:30.93	180.09	28.52	-37.9	-39.8	26.2	0.00e+00	0	38	0	0	47	4455
2026-01-21 21:11:32.93	178.87	28.46	-37.9	-39.8	26.1	0.00e+00	0	38	0	0	47	4467
2026-01-21 21:11:35.03	177.59	28.38	-37.8	-39.7	26.3	0.00e+00	0	37	0	0	47	4402
2026-01-21 21:11:37.02	176.39	28.30	-37.7	-39.6	26.3	0.00e+00	0	38	0	0	47	4354
2026-01-21 21:11:39.14	175.12	28.20	-37.7	-39.6	26.3	0.00e+00	0	38	0	0	47	4348
2026-01-21 21:11:41.13	173.93	28.09	-37.2	-39.0	26.6	0.00e+00	0	37	0	0	46	4331
2026-01-21 21:11:43.40	172.59	27.95	-37.5	-39.4	26.4	0.00e+00	0	37	0	0	46	4521
2026-01-21 21:11:45.39	171.43	27.82	-37.3	-39.2	26.4	0.00e+00	0	38	0	0	46	4409
2026-01-21 21:11:47.38	170.28	27.67	-37.0	-38.9	26.5	0.00e+00	0	38	0	0	45	4508
2026-01-21 21:11:49.37	169.14	27.52	-36.8	-38.7	26.7	0.00e+00	0	37	0	0	45	4428
2026-01-21 21:11:51.36	168.01	27.36	-37.2	-39.1	26.5	0.00e+00	0	38	0	0	45	4623
2026-01-21 21:11:53.35	166.89	27.18	-36.9	-38.8	26.7	0.00e+00	0	37	0	0	45	4477
2026-01-21 21:11:55.34	165.79	27.00	-37.0	-38.9	26.6	0.00e+00	0	38	0	0	45	4515
2026-01-21 21:11:57.32	164.71	26.81	-37.1	-39.0	26.6	0.00e+00	0	37	0	0	45	4552
2026-01-21 21:11:59.32	163.64	26.61	-36.9	-38.8	26.7	0.00e+00	0	37	0	0	45	4466
2026-01-21 21:12:01.31	162.58	26.41	-36.7	-38.5	26.8	0.00e+00	0	38	0	0	45	4340
2026-01-21 21:12:03.30	161.54	26.19	-37.5	-39.4	26.3	0.00e+00	0	37	0	0	45	4807
2026-01-21 21:12:05.28	160.53	25.97	-38.4	-40.3	25.8	0.00e+00	0	37	0	0	47	4756
2026-01-21 21:12:07.27	159.52	25.75	-37.9	-39.8	26.1	0.00e+00	0	37	0	0	47	4471
2026-01-21 21:12:09.33	158.50	25.51	-37.4	-39.3	26.4	0.00e+00	0	37	0	0	46	4454
2026-01-21 21:12:11.32	157.52	25.27	-37.7	-39.6	26.3	0.00e+00	0	37	0	0	46	4633
2026-01-21 21:12:13.43	156.51	25.01	-37.9	-39.9	26.1	0.00e+00	0	37	0	0	46	4770
2026-01-21 21:12:15.42	155.57	24.76	-37.9	-39.8	26.2	0.00e+00	0	38	0	0	46	4726
2026-01-21 21:12:17.41	154.65	24.51	-38.0	-39.9	26.1	0.00e+00	0	37	0	0	46	4813
2026-01-21 21:12:19.40	153.75	24.26	-38.0	-39.9	26.1	0.00e+00	0	38	0	0	46	4806
2026-01-21 21:12:21.39	152.86	24.00	-38.0	-40.0	26.0	0.00e+00	0	38	0	0	46	4830
2026-01-21 21:12:23.38	152.00	23.74	-38.1	-40.0	26.0	0.00e+00	0	38	0	0	47	4572
2026-01-21 21:12:25.37	151.14	23.47	-37.5	-39.5	26.3	0.00e+00	0	37	0	0	47	4298
2026-01-21 21:12:27.36	150.31	23.21	-37.5	-39.4	26.3	0.00e+00	0	37	0	0	46	4502
2026-01-21 21:12:29.35	149.49	22.94	-37.9	-39.9	26.0	0.00e+00	0	37	0	0	46	4768
2026-01-21 21:12:31.34	148.69	22.67	-38.3	-40.3	25.9	0.00e+00	0	38	0	0	47	4706
2026-01-21 21:12:33.44	147.86	22.38	-37.9	-39.9	26.1	0.00e+00	0	38	0	0	47	4495
2026-01-21 21:12:35.51	147.06	22.10	-38.0	-40.0	25.9	0.00e+00	0	38	0	0	47	4563
2026-01-21 21:12:37.58	146.28	21.82	-38.2	-40.2	25.8	0.00e+00	0	37	0	0	47	4675
2026-01-21 21:12:39.63	145.52	21.54	-38.2	-40.2	25.9	0.00e+00	0	37	0	0	47	4692
2026-01-21 21:12:41.62	144.80	21.26	-38.4	-40.4	25.7	0.00e+00	0	37	0	0	47	4786
2026-01-21 21:12:43.61	144.09	20.99	-38.6	-40.6	25.6	0.00e+00	0	38	0	0	47	4892
2026-01-21 21:12:45.60	143.40	20.72	-38.4	-40.4	25.8	0.00e+00	0	38	0	0	47	4761
2026-01-21 21:12:47.55	142.74	20.45	-38.6	-40.5	25.7	0.00e+00	0	37	0	0	47	4864
2026-01-21 21:12:49.54	142.08	20.18	-38.9	-40.9	25.5	0.00e+00	0	38	0	0	48	4767
2026-01-21 21:12:51.53	141.43	19.91	-38.9	-40.9	25.5	0.00e+00	0	38	0	0	48	4770
2026-01-21 21:12:53.52	140.80	19.64	-38.7	-40.6	25.7	0.00e+00	0	38	0	0	48	4641
2026-01-21 21:12:55.51	140.18	19.37	-39.0	-40.9	25.5	0.00e+00	0	38	0	0	48	4805
2026-01-21 21:12:57.50	139.57	19.10	-38.9	-40.9	25.5	0.00e+00	0	38	0	0	48	4774
2026-01-21 21:12:59.49	138.98	18.83	-38.8	-40.8	25.6	0.00e+00	0	37	0	0	48	4706
2026-01-21 21:13:01.48	138.39	18.57	-39.0	-41.0	25.4	0.00e+00	0	38	0	0	48	4836
2026-01-21 21:13:03.47	137.83	18.30	-39.2	-41.2	25.3	0.00e+00	0	38	0	0	49	4693
2026-01-21 21:13:05.46	137.27	18.04	-39.0	-41.0	25.4	0.00e+00	0	37	0	0	49	4572
2026-01-21 21:13:07.45	136.72	17.78	-39.0	-41.0	25.4	0.00e+00	0	38	0	0	49	4564
2026-01-21 21:13:09.44	136.19	17.52	-39.3	-41.4	25.1	0.00e+00	0	38	0	0	49	4771
2026-01-21 21:13:11.42	135.67	17.26	-39.4	-41.4	25.2	0.00e+00	0	38	0	0	49	4782
2026-01-21 21:13:13.41	135.16	17.01	-39.7	-41.7	25.0	0.00e+00	0	38	0	0	50	4696
2026-01-21 21:13:15.34	134.67	16.76	-39.9	-42.0	24.8	0.00e+00	0	38	0	0	50	4839
2026-01-21 21:13:17.33	134.18	16.51	-39.7	-41.7	24.9	0.00e+00	0	38	0	0	50	4680
2026-01-21 21:13:19.33	133.70	16.26	-39.6	-41.6	25.0	0.00e+00	0	38	0	0	50	4618
2026-01-21 21:13:21.32	133.23	16.01	-39.8	-41.9	24.8	0.00e+00	0	38	0	0	50	4776
2026-01-21 21:13:23.31	132.77	15.77	-40.1	-42.2	24.6	0.00e+00	0	38	0	0	50	4964
2026-01-21 21:13:25.30	132.32	15.52	-40.0	-42.1	24.6	0.00e+00	0	37	0	0	50	4910
2026-01-21 21:13:27.29	131.87	15.28	-39.9	-42.0	24.8	0.00e+00	0	37	0	0	50	4837
2026-01-21 21:13:29.37	131.42	15.03	-40.0	-42.1	24.7	0.00e+00	0	37	0	0	50	4915
2026-01-21 21:13:31.36	131.00	14.79	-40.1	-42.2	24.6	0.00e+00	0	38	0	0	50	4938
2026-01-21 21:13:33.37	130.58	14.55	-40.5	-42.6	24.3	0.00e+00	0	37	0	0	51	4914
2026-01-21 21:13:35.36	130.17	14.32	-40.7	-42.8	24.1	0.00e+00	0	38	0	0	52	4751
2026-01-21 21:13:37.35	129.77	14.09	-40.8	-42.9	24.0	0.00e+00	0	38	0	0	52	4809
2026-01-21 21:13:39.34	129.38	13.86	-40.4	-42.6	24.3	0.00e+00	0	38	0	0	52	4604
2026-01-21 21:13:41.33	129.00	13.63	-40.5	-42.6	24.2	0.00e+00	0	38	0	0	52	4647
2026-01-21 21:13:43.32	128.63	13.41	-40.8	-43.0	24.0	0.00e+00	0	37	0	0	52	4842
2026-01-21 21:13:45.31	128.26	13.19	-41.0	-43.2	23.8	0.00e+00	0	38	0	0	52	4948
2026-01-21 21:13:47.30	127.90	12.96	-41.1	-43.4	23.7	0.00e+00	0	38	0	0	52	5049
2026-01-21 21:13:49.32	127.54	12.74	-41.0	-43.2	23.8	0.00e+00	0	38	0	0	52	4959
2026-01-21 21:13:51.31	127.19	12.53	-41.1	-43.4	23.6	0.00e+00	0	38	0	0	52	5071
2026-01-21 21:13:53.29	126.85	12.31	-41.3	-43.5	23.6	0.00e+00	0	38	0	0	53	4834
2026-01-21 21:13:55.28	126.52	12.10	-41.6	-43.8	23.3	0.00e+00	0	38	0	0	53	5023
2026-01-21 21:13:57.27	126.19	11.89	-41.6	-43.8	23.3	0.00e+00	0	38	0	0	54	4740
2026-01-21 21:13:59.31	125.86	11.67	-41.7	-44.0	23.1	0.00e+00	0	38	0	0	54	4859
2026-01-21 21:14:01.35	125.54	11.46	-41.6	-43.9	23.2	0.00e+00	0	38	0	0	54	4803
2026-01-21 21:14:03.40	125.22	11.25	-41.8	-44.1	23.1	0.00e+00	0	38	0	0	54	4898
2026-01-21 21:14:05.46	124.91	11.04	-41.9	-44.2	22.9	0.00e+00	0	38	0	0	54	4980
2026-01-21 21:14:07.47	124.61	10.84	-41.8	-44.1	23.0	0.00e+00	0	38	0	0	54	4896
2026-01-21 21:14:09.46	124.32	10.64	-41.9	-44.3	22.9	0.00e+00	0	37	0	0	54	4993
2026-01-21 21:14:11.47	124.03	10.44	-42.1	-44.5	22.7	0.00e+00	0	38	0	0	54	5142
2026-01-21 21:14:13.47	123.74	10.24	-42.5	-44.9	22.3	0.00e+00	0	38	0	0	55	5075
2026-01-21 21:14:15.48	123.47	10.05	-42.4	-45.2	22.3	0.00e+00	0	38	0	0	56	4941
2026-01-21 21:14:17.58	123.18	9.85	-42.6	-45.1	22.3	0.00e+00	0	38	0	0	56	4877
2026-01-21 21:14:19.57	122.91	9.66	-42.4	-44.8	22.5	0.00e+00	0	38	0	0	56	4753
2026-01-21 21:14:21.56	122.65	9.47	-42.5	-45.0	22.4	0.00e+00	0	37	0	0	56	4830
2026-01-21 21:14:23.54	122.40	9.28	-42.7	-45.2	22.3	0.00e+00	0	38	0	0	56	4938
2026-01-21 21:14:25.53	122.14	9.10	-42.9	-45.4	22.0	0.00e+00	0	38	0	0	56	5087
2026-01-21 21:14:27.52	121.90	8.91	-50.6	-69.5	3.7	7.67e-03	0	38	104	0	71	34099
2026-01-21 21:14:29.51	121.65	8.73	-50.8	-69.7	3.8	8.40e-01	0	38	104	0	72	33119
2026-01-21 21:14:31.49	121.41	8.55	-50.9	-69.8	3.8	8.47e-01	0	38	104	0	72	33582
2026-01-21 21:14:33.48	121.18	8.38	-51.1	-69.9	3.8	8.47e-01	0	38	104	0	72	33743
2026-01-21 21:14:35.47	120.95	8.20	-51.0	-69.9	3.8	8.47e-01	0	38	104	0	72	34060
2026-01-21 21:14:37.45	120.72	8.02	-50.7	-70.0	3.8	8.47e-01	0	38	104	0	72	34317
2026-01-21 21:14:39.45	120.50	7.85	-50.8	-70.0	3.8	8.46e-01	0	38	104	0	72	34259
2026-01-21 21:14:41.52	120.27	7.67	-51.0	-70.1	3.8	8.48e-01	0	38	104	0	72	34505
2026-01-21 21:14:43.57	120.04	7.50	-50.9	-70.1	3.8	8.48e-01	0	38	104	0	72	34499
2026-01-21 21:14:45.56	119.83	7.33	-50.9	-70.1	3.8	8.47e-01	0	38	104	0	72	34610
2026-01-21 21:14:47.54	119.62	7.16	-50.9	-70.1	3.8	8.48e-01	0	38	104	0	72	34510
2026-01-21 21:14:49.53	119.42	6.99	-50.9	-70.0	3.8	8.46e-01	0	38	104	0	72	34391
2026-01-21 21:14:51.52	119.21	6.83	-50.9	-70.0	3.8	8.46e-01	0	38	104	0	72	34424
2026-01-21 21:14:53.50	119.02	6.66	-50.9	-70.0	3.8	8.48e-01	0	38	104	0	72	34265
2026-01-21 21:14:55.49	118.82	6.50	-50.9	-70.0	3.8	8.49e-01	0	38	104	0	72	34332
2026-01-21 21:14:57.48	118.63	6.34	-50.9	-70.0	3.8	8.47e-01	0	38	104	0	72	34305
2026-01-21 21:14:59.46	118.44	6.18	-50.9	-70.0	3.8	8.48e-01	0	38	104	0	72	34233
2026-01-21 21:15:01.45	118.25	6.02	-50.9	-70.0	3.8	8.47e-01	0	38	104	0	72	34157
2026-01-21 21:15:03.44	118.07	5.87	-50.9	-70.0	3.8	8.48e-01	0	38	104	0	72	34199
2026-01-21 21:15:05.42	117.89	5.71	-50.9	-70.0	3.8	8.47e-01	0	38	104	0	72	34263
2026-01-21 21:15:07.41	117.71	5.56	-50.9	-70.0	3.8	8.47e-01	0	38	104	0	72	34135
2026-01-21 21:15:09.40	117.53	5.40	-50.9	-70.0	3.8	8.48e-01	0	38	104	0	72	34236
2026-01-21 21:15:11.38	117.36	5.25	-50.8	-70.0	3.8	8.46e-01	0	38	104	0	72	34243
2026-01-21 21:15:13.37	117.19	5.10	-50.9	-70.0	3.8	8.47e-01	0	38	104	0	72	34189
2026-01-21 21:15:15.36	117.02	4.95	-50.8	-70.0	3.8	8.47e-01	0	38	104	0	72	34094
2026-01-21 21:15:17.34	116.86	4.80	-50.8	-70.0	3.8	8.47e-01	0	38	104	0	72	34247
2026-01-21 21:15:19.33	116.69	4.65	-50.8	-69.9	3.8	8.47e-01	0	38	104	0	72	34041

#Closed at: 2026-01-21 21:15:21
#Recorded file [0 MB]: D:/Data/31040_260122_000736.dat