passes_logs/2026/01/21/T1/T1__20260121_111511_NOAA_20_JPSS-1_rec.log

#Pass ID: 20260121_111511_NOAA 20 (JPSS-1)
#Satellite: NOAA 20 (JPSS-1)
#Configuration: NOAA 20
#almurnet v.1.7.20251203
#Start time: 2026-01-21 11:15:11

#Version: 2.0.20230620
#Station: T1
#Location: 37.570604 lon 55.790049 lat
#TLE: 1 43013U 17073A   26020.82785136  .00000155  00000+0  94366-4 0  9991
#TLE: 2 43013  98.7643 321.7058 0001260  30.3785 329.7464 14.19537992423566

#Time	Az	El	Level	Level2	SNR	BER	BlckErr	Temp	State	Recorded	gain1	gain2
2026-01-21 11:15:11.37	203.20	4.97	-51.6	-67.1	3.8	1.49e+00	0	36	0	0	75	20588
2026-01-21 11:15:14.35	203.42	5.15	-51.6	-67.0	3.8	1.49e+00	0	36	104	0	75	20500
2026-01-21 11:15:17.33	203.65	5.34	-51.6	-67.0	3.8	1.49e+00	0	36	104	0	75	20460
2026-01-21 11:15:20.31	203.87	5.53	-51.6	-67.0	3.8	1.49e+00	0	36	104	0	75	20531
2026-01-21 11:15:23.28	204.10	5.72	-51.6	-67.1	3.8	1.49e+00	0	37	104	0	75	20666
2026-01-21 11:15:26.26	204.34	5.91	-51.6	-67.0	3.8	1.49e+00	0	37	104	0	75	20477
2026-01-21 11:15:29.24	204.58	6.10	-51.6	-66.9	3.8	1.49e+00	0	37	104	0	75	20289
2026-01-21 11:15:32.22	204.82	6.30	-51.6	-66.7	3.8	1.49e+00	0	37	104	0	75	19818
2026-01-21 11:15:35.20	205.06	6.49	-51.6	-66.7	3.8	1.49e+00	0	37	104	0	75	19726
2026-01-21 11:15:38.18	205.31	6.69	-51.6	-66.8	3.8	1.49e+00	0	37	104	0	75	20010
2026-01-21 11:15:41.16	205.56	6.88	-51.6	-66.8	3.8	1.49e+00	0	37	104	0	75	19943
2026-01-21 11:15:44.14	205.81	7.08	-51.6	-66.7	3.8	1.49e+00	0	37	104	0	75	19779
2026-01-21 11:15:47.12	206.06	7.28	-51.6	-66.9	3.8	1.49e+00	0	37	104	0	75	20224
2026-01-21 11:15:50.09	206.32	7.48	-51.6	-66.0	3.8	1.49e+00	0	37	104	0	75	18229
2026-01-21 11:15:53.07	206.59	7.68	-51.5	-64.9	3.8	1.48e+00	0	37	104	0	75	16000
2026-01-21 11:15:56.05	206.85	7.88	-51.6	-67.0	3.8	1.49e+00	0	38	104	0	75	20337
2026-01-21 11:15:59.03	207.12	8.08	-50.5	-57.8	7.9	1.30e-01	0	38	0	2097152	73	7909
2026-01-21 11:16:02.01	207.40	8.29	-48.1	-52.0	13.9	2.44e-05	0	38	0	8388608	68	5425
2026-01-21 11:16:04.99	207.67	8.49	-47.0	-50.3	15.4	0.00e+00	0	38	0	13631488	66	5012
2026-01-21 11:16:07.97	207.96	8.70	-47.8	-51.6	14.1	7.00e-07	0	38	0	18874368	66	5828
2026-01-21 11:16:10.95	208.24	8.90	-49.9	-55.7	10.1	3.11e-03	0	38	0	25165824	70	7421
2026-01-21 11:16:13.93	208.53	9.11	-50.9	-59.5	6.4	2.44e-01	0	38	0	30408704	72	10223
2026-01-21 11:16:16.91	208.82	9.32	-48.5	-52.6	13.3	2.91e-02	0	38	0	33554432	69	5494
2026-01-21 11:16:19.93	209.12	9.53	-51.3	-62.0	4.7	9.58e-01	0	38	0	38797312	73	12891
2026-01-21 11:16:22.95	209.43	9.75	-51.1	-60.2	5.9	5.85e-01	0	38	0	44040192	73	10514
2026-01-21 11:16:25.93	209.73	9.96	-48.4	-52.2	13.8	4.93e-01	0	38	0	48234496	68	5564
2026-01-21 11:16:28.92	210.05	10.18	-47.3	-50.6	15.2	0.00e+00	0	38	0	54525952	66	5173
2026-01-21 11:16:31.90	210.36	10.39	-46.3	-49.1	16.7	0.00e+00	0	38	0	59768832	64	4898
2026-01-21 11:16:34.89	210.68	10.61	-46.0	-48.7	17.1	0.00e+00	0	38	0	65011712	64	4693
2026-01-21 11:16:37.89	211.01	10.83	-46.1	-48.9	17.1	0.00e+00	0	38	0	71303168	63	5046
2026-01-21 11:16:40.95	211.34	11.05	-46.1	-48.8	17.2	0.00e+00	0	38	0	76546048	63	5007
2026-01-21 11:16:43.89	211.67	11.27	-46.1	-48.8	17.1	0.00e+00	0	38	0	81788928	63	5022
2026-01-21 11:16:46.87	212.01	11.49	-46.1	-48.9	17.1	0.00e+00	0	38	0	88080384	63	5048
2026-01-21 11:16:49.86	212.35	11.71	-46.2	-48.9	17.1	0.00e+00	0	38	0	93323264	63	5082
2026-01-21 11:16:52.85	212.70	11.93	-46.2	-48.9	17.1	0.00e+00	0	38	0	98566144	63	5079
2026-01-21 11:16:55.84	213.06	12.16	-46.4	-49.2	16.8	0.00e+00	0	38	0	104857600	63	5227
2026-01-21 11:16:58.82	213.42	12.38	-46.4	-49.2	16.9	0.00e+00	0	38	0	110100480	63	5238
2026-01-21 11:17:01.80	213.78	12.61	-46.1	-48.7	17.3	0.00e+00	0	38	0	115343360	63	4976
2026-01-21 11:17:04.83	214.15	12.84	-46.2	-48.9	17.2	0.00e+00	0	38	0	121634816	63	5049
2026-01-21 11:17:07.80	214.53	13.07	-46.2	-48.9	17.1	0.00e+00	0	38	0	126877696	63	5078
2026-01-21 11:17:11.10	214.95	13.32	-46.2	-48.9	17.2	0.00e+00	0	38	0	133169152	63	5043
2026-01-21 11:17:14.22	215.36	13.56	-46.0	-48.7	17.4	0.00e+00	0	38	0	139460608	63	4929
2026-01-21 11:17:17.21	215.75	13.80	-46.0	-48.6	17.4	0.00e+00	0	38	0	144703488	63	4896
2026-01-21 11:17:20.19	216.15	14.03	-46.0	-48.6	17.4	0.00e+00	0	39	0	149946368	63	4925
2026-01-21 11:17:23.18	216.56	14.26	-46.1	-48.8	17.2	0.00e+00	0	38	0	156237824	63	5037
2026-01-21 11:17:26.45	217.01	14.52	-46.2	-49.0	17.1	0.00e+00	0	38	0	162529280	63	5113
2026-01-21 11:17:29.16	217.39	14.73	-46.2	-48.9	17.2	0.00e+00	0	38	0	166723584	63	5091
2026-01-21 11:17:32.43	217.85	14.99	-46.1	-48.8	17.3	0.00e+00	0	38	0	173015040	63	5010
2026-01-21 11:17:35.14	218.25	15.21	-46.0	-48.7	17.4	0.00e+00	0	38	0	178257920	63	4934
2026-01-21 11:17:38.44	218.73	15.47	-46.2	-48.9	17.2	0.00e+00	0	38	0	184549376	63	5089
2026-01-21 11:17:41.16	219.14	15.69	-46.3	-49.0	17.1	0.00e+00	0	39	0	189792256	63	5146
2026-01-21 11:17:44.53	219.65	15.96	-46.1	-48.7	17.4	0.00e+00	0	38	0	196083712	63	4961
2026-01-21 11:17:47.26	220.07	16.18	-45.8	-48.4	17.7	0.00e+00	0	38	0	201326592	63	4802
2026-01-21 11:17:50.53	220.58	16.44	-45.9	-48.5	17.7	0.00e+00	0	38	0	207618048	63	4821
2026-01-21 11:17:53.25	221.01	16.66	-45.8	-48.3	17.9	0.00e+00	0	39	0	211812352	63	4740
2026-01-21 11:17:56.52	221.54	16.93	-45.8	-48.4	17.8	0.00e+00	0	38	0	218103808	63	4764
2026-01-21 11:17:59.55	222.04	17.17	-45.7	-48.2	18.0	0.00e+00	0	38	0	224395264	63	4675
2026-01-21 11:18:02.53	222.53	17.42	-45.5	-48.0	18.2	0.00e+00	0	38	0	229638144	62	4828
2026-01-21 11:18:05.52	223.04	17.66	-45.4	-47.9	18.3	0.00e+00	0	38	0	234881024	62	4772
2026-01-21 11:18:08.49	223.55	17.90	-45.5	-47.9	18.3	0.00e+00	0	39	0	241172480	62	4779
2026-01-21 11:18:11.48	224.07	18.14	-45.5	-47.9	18.3	0.00e+00	0	38	0	246415360	62	4781
2026-01-21 11:18:14.46	224.60	18.39	-45.4	-47.8	18.4	0.00e+00	0	39	0	251658240	62	4732
2026-01-21 11:18:17.45	225.14	18.63	-45.3	-47.8	18.4	0.00e+00	0	38	0	257949696	62	4717
2026-01-21 11:18:20.43	225.69	18.87	-45.3	-47.7	18.5	0.00e+00	0	39	0	263192576	62	4671
2026-01-21 11:18:23.42	226.24	19.12	-45.2	-47.6	18.6	0.00e+00	0	38	0	268435456	62	4623
2026-01-21 11:18:26.35	226.80	19.36	-45.1	-47.5	18.7	0.00e+00	0	39	0	274726912	62	4553
2026-01-21 11:18:29.67	227.44	19.63	-44.9	-47.2	18.9	0.00e+00	0	39	0	281018368	61	4696
2026-01-21 11:18:32.37	227.96	19.85	-44.9	-47.3	18.9	0.00e+00	0	39	0	285212672	61	4707
2026-01-21 11:18:35.61	228.60	20.11	-44.9	-47.2	19.0	0.00e+00	0	39	0	291504128	61	4693
2026-01-21 11:18:38.75	229.24	20.36	-44.7	-47.0	19.2	0.00e+00	0	39	0	297795584	61	4547
2026-01-21 11:18:41.79	229.86	20.60	-44.7	-47.0	19.2	0.00e+00	0	39	0	303038464	61	4550
2026-01-21 11:18:44.92	230.51	20.86	-44.7	-47.0	19.2	0.00e+00	0	39	0	309329920	61	4561
2026-01-21 11:18:47.76	231.11	21.08	-44.7	-46.9	19.2	0.00e+00	0	38	0	314572800	61	4541
2026-01-21 11:18:50.88	231.77	21.33	-45.0	-47.3	18.9	0.00e+00	0	39	0	320864256	61	4745
2026-01-21 11:18:53.72	232.39	21.55	-45.1	-47.4	18.8	0.00e+00	0	39	0	326107136	61	4788
2026-01-21 11:18:57.01	233.12	21.81	-44.9	-47.2	19.0	0.00e+00	0	39	0	332398592	61	4676
2026-01-21 11:18:59.85	233.75	22.03	-44.9	-47.2	19.0	0.00e+00	0	39	0	337641472	61	4669
2026-01-21 11:19:03.09	234.49	22.28	-44.9	-47.2	19.1	0.00e+00	0	39	0	342884352	61	4667
2026-01-21 11:19:05.93	235.14	22.49	-44.8	-47.1	19.2	0.00e+00	0	39	0	348127232	61	4603
2026-01-21 11:19:09.00	235.86	22.73	-44.5	-46.7	19.5	0.00e+00	0	39	0	354418688	61	4424
2026-01-21 11:19:11.98	236.57	22.95	-44.9	-47.2	19.0	0.00e+00	0	39	0	359661568	61	4672
2026-01-21 11:19:14.97	237.29	23.17	-45.0	-47.3	18.9	0.00e+00	0	39	0	365953024	61	4742
2026-01-21 11:19:17.95	238.01	23.39	-45.1	-47.5	18.8	0.00e+00	0	38	0	371195904	61	4838
2026-01-21 11:19:20.93	238.75	23.60	-45.4	-47.8	18.5	0.00e+00	0	39	0	376438784	61	4994
2026-01-21 11:19:23.91	239.49	23.81	-45.7	-48.2	18.1	0.00e+00	0	38	0	382730240	62	4935
2026-01-21 11:19:26.90	240.25	24.02	-45.7	-48.2	18.2	0.00e+00	0	39	0	387973120	62	4935
2026-01-21 11:19:29.98	241.04	24.23	-45.3	-47.7	18.6	0.00e+00	0	38	0	393216000	62	4670
2026-01-21 11:19:32.82	241.78	24.42	-45.5	-47.9	18.4	0.00e+00	0	39	0	399507456	62	4809
2026-01-21 11:19:35.95	242.61	24.63	-45.8	-48.3	18.1	0.00e+00	0	39	0	404750336	62	4995
2026-01-21 11:19:38.79	243.37	24.81	-45.9	-48.4	17.9	0.00e+00	0	39	0	409993216	62	5097
2026-01-21 11:19:41.93	244.21	25.01	-45.8	-48.3	18.0	0.00e+00	0	38	0	416284672	62	5021
2026-01-21 11:19:44.84	245.01	25.19	-46.1	-48.6	17.7	0.00e+00	0	39	0	421527552	62	5215
2026-01-21 11:19:48.12	245.91	25.38	-46.5	-49.1	17.2	0.00e+00	0	39	0	427819008	63	5207
2026-01-21 11:19:50.96	246.71	25.55	-46.5	-49.2	17.2	0.00e+00	0	38	0	433061888	63	5227
2026-01-21 11:19:54.09	247.59	25.72	-46.5	-49.2	17.1	0.00e+00	0	39	0	439353344	63	5252
2026-01-21 11:19:57.00	248.42	25.88	-46.8	-49.6	16.7	0.00e+00	0	39	0	444596224	64	5215
2026-01-21 11:19:59.99	249.28	26.04	-47.1	-50.0	16.3	0.00e+00	0	39	0	449839104	64	5454
2026-01-21 11:20:02.97	250.14	26.19	-47.3	-50.3	16.1	0.00e+00	0	39	0	455081984	65	5303
2026-01-21 11:20:05.96	251.02	26.33	-47.5	-50.6	15.7	0.00e+00	0	39	0	461373440	65	5524
2026-01-21 11:20:08.94	251.90	26.47	-47.7	-51.0	15.4	0.00e+00	0	38	0	466616320	66	5406
2026-01-21 11:20:11.93	252.79	26.60	-47.5	-50.6	15.8	0.00e+00	0	39	0	471859200	66	5188
2026-01-21 11:20:14.91	253.69	26.73	-47.4	-50.4	15.9	0.00e+00	0	39	0	478150656	66	5092
2026-01-21 11:20:17.90	254.59	26.84	-47.7	-50.8	15.6	0.00e+00	0	39	0	483393536	66	5327
2026-01-21 11:20:20.96	255.53	26.96	-47.8	-51.1	15.2	0.00e+00	0	39	0	489684992	66	5501
2026-01-21 11:20:23.80	256.40	27.06	-47.9	-51.2	15.1	0.00e+00	0	39	0	494927872	66	5584
2026-01-21 11:20:26.92	257.36	27.16	-47.8	-51.0	15.3	0.00e+00	0	39	0	500170752	66	5463
2026-01-21 11:20:29.77	258.25	27.24	-47.6	-50.9	15.5	0.00e+00	0	39	0	505413632	66	5341
2026-01-21 11:20:33.00	259.26	27.33	-47.0	-49.9	16.5	0.00e+00	0	39	0	511705088	66	4770
2026-01-21 11:20:35.84	260.15	27.40	-46.9	-49.8	16.6	0.00e+00	0	39	0	516947968	65	4993
2026-01-21 11:20:38.97	261.13	27.47	-47.5	-50.7	15.7	0.00e+00	0	39	0	523239424	65	5541
2026-01-21 11:20:41.81	262.03	27.52	-47.7	-51.0	15.3	0.00e+00	0	39	0	528482304	66	5446
2026-01-21 11:20:44.94	263.02	27.57	-47.4	-50.6	15.9	0.00e+00	0	39	0	534773760	66	5160
2026-01-21 11:20:47.78	263.92	27.61	-47.4	-50.6	15.8	0.00e+00	0	39	0	540016640	66	5179
2026-01-21 11:20:51.08	264.98	27.64	-47.3	-50.3	16.1	0.00e+00	0	39	0	546308096	66	5033
2026-01-21 11:20:53.93	265.89	27.67	-47.2	-50.2	16.2	0.00e+00	0	39	0	551550976	66	4930
2026-01-21 11:20:57.06	266.88	27.68	-46.6	-49.4	17.0	0.00e+00	0	39	0	556793856	65	4777
2026-01-21 11:20:59.90	267.79	27.69	-46.4	-49.1	17.3	0.00e+00	0	39	0	562036736	64	4884
2026-01-21 11:21:03.02	268.79	27.69	-46.7	-49.5	16.9	0.00e+00	0	39	0	568328192	64	5133
2026-01-21 11:21:05.87	269.70	27.68	-46.7	-49.5	16.8	0.00e+00	0	39	0	573571072	64	5156
2026-01-21 11:21:09.00	270.70	27.66	-46.0	-48.6	17.7	0.00e+00	0	39	0	579862528	64	4641
2026-01-21 11:21:11.84	271.60	27.63	-46.3	-48.9	17.5	0.00e+00	0	39	0	585105408	63	5088
2026-01-21 11:21:14.97	272.60	27.59	-46.6	-49.3	17.1	0.00e+00	0	39	0	590348288	64	5002
2026-01-21 11:21:17.81	273.50	27.55	-46.6	-49.5	16.9	0.00e+00	0	39	0	595591168	64	5109
2026-01-21 11:21:20.98	274.50	27.50	-46.6	-49.4	16.9	0.00e+00	0	39	0	601882624	64	5091
2026-01-21 11:21:23.83	275.40	27.44	-47.0	-49.9	16.5	0.00e+00	0	39	0	607125504	64	5349
2026-01-21 11:21:27.16	276.45	27.36	-47.1	-50.0	16.4	0.00e+00	0	39	0	613416960	64	5419
2026-01-21 11:21:29.87	277.29	27.29	-46.9	-49.8	16.6	0.00e+00	0	39	0	618659840	65	5005
2026-01-21 11:21:33.16	278.32	27.20	-46.3	-49.0	17.4	0.00e+00	0	39	0	624951296	64	4836
2026-01-21 11:21:35.86	279.15	27.12	-46.8	-49.6	16.7	0.00e+00	0	39	0	630194176	64	5210
2026-01-21 11:21:39.16	280.17	27.01	-46.9	-49.7	16.6	0.00e+00	0	39	0	636485632	64	5262
2026-01-21 11:21:42.19	281.09	26.90	-46.5	-49.1	17.2	0.00e+00	0	39	0	641728512	64	4915
2026-01-21 11:21:45.82	282.19	26.76	-46.6	-49.3	17.1	0.00e+00	0	39	0	648019968	64	5011
2026-01-21 11:21:48.67	283.05	26.64	-46.6	-49.3	17.1	0.00e+00	0	39	0	654311424	64	5011
2026-01-21 11:21:52.65	284.23	26.47	-46.1	-48.7	17.6	0.00e+00	0	39	0	661651456	64	4681
2026-01-21 11:21:55.50	285.07	26.34	-46.0	-48.5	17.8	0.00e+00	0	39	0	666894336	64	4598
2026-01-21 11:21:59.02	286.10	26.17	-45.9	-48.4	18.0	0.00e+00	0	39	0	673185792	63	4779
2026-01-21 11:22:01.99	286.96	26.02	-45.9	-48.4	18.0	0.00e+00	0	39	0	678428672	63	4802
2026-01-21 11:22:05.26	287.90	25.85	-45.6	-48.1	18.3	0.00e+00	0	39	0	684720128	63	4607
2026-01-21 11:22:07.97	288.66	25.70	-45.3	-47.6	18.8	0.00e+00	0	39	0	689963008	62	4633
2026-01-21 11:22:11.27	289.59	25.52	-45.5	-47.9	18.5	0.00e+00	0	39	0	696254464	62	4802
2026-01-21 11:22:14.10	290.37	25.35	-45.1	-47.5	18.9	0.00e+00	0	39	0	701497344	62	4562
2026-01-21 11:22:17.23	291.23	25.17	-45.4	-47.8	18.6	0.00e+00	0	39	0	707788800	62	4737
2026-01-21 11:22:20.07	292.00	24.99	-45.5	-47.9	18.5	0.00e+00	0	39	0	713031680	62	4786
2026-01-21 11:22:23.41	292.90	24.78	-45.1	-47.4	19.0	0.00e+00	0	39	0	719323136	62	4503
2026-01-21 11:22:26.40	293.69	24.59	-45.0	-47.3	19.0	0.00e+00	0	39	0	724566016	61	4730
2026-01-21 11:22:29.39	294.47	24.39	-45.3	-47.6	18.7	0.00e+00	0	39	0	729808896	61	4899
2026-01-21 11:22:32.37	295.24	24.19	-45.8	-48.2	18.2	0.00e+00	0	39	0	736100352	62	4974
2026-01-21 11:22:35.36	296.01	23.99	-46.0	-48.5	17.9	0.00e+00	0	39	0	741343232	62	5115
2026-01-21 11:22:38.32	296.75	23.78	-45.6	-48.1	18.3	0.00e+00	0	39	0	746586112	62	4885
2026-01-21 11:22:41.44	297.53	23.56	-45.6	-48.1	18.3	0.00e+00	0	39	0	752877568	62	4904
2026-01-21 11:22:44.28	298.22	23.36	-45.8	-48.3	18.1	0.00e+00	0	39	0	758120448	62	5004
2026-01-21 11:22:47.41	298.98	23.13	-46.1	-48.7	17.7	0.00e+00	0	39	0	764411904	62	5231
2026-01-21 11:22:50.25	299.66	22.92	-45.9	-48.5	17.9	0.00e+00	0	39	0	769654784	62	5103
2026-01-21 11:22:53.47	300.42	22.69	-45.7	-48.2	18.2	0.00e+00	0	39	0	774897664	62	4962
2026-01-21 11:22:56.32	301.08	22.47	-45.8	-48.4	18.0	0.00e+00	0	39	0	780140544	62	5043
2026-01-21 11:22:59.44	301.79	22.24	-45.9	-48.4	17.9	0.00e+00	0	39	0	786432000	62	5097
2026-01-21 11:23:02.39	302.46	22.01	-46.0	-48.5	17.9	0.00e+00	0	39	0	791674880	62	5135
2026-01-21 11:23:05.37	303.12	21.78	-46.0	-48.6	17.8	0.00e+00	0	39	0	797966336	62	5176
2026-01-21 11:23:08.36	303.77	21.55	-45.5	-48.0	18.4	0.00e+00	0	39	0	803209216	62	4835
2026-01-21 11:23:11.34	304.42	21.32	-45.8	-48.2	18.1	0.00e+00	0	39	0	808452096	62	4977
2026-01-21 11:23:14.33	305.05	21.08	-45.9	-48.4	18.0	0.00e+00	0	39	0	814743552	62	5078
2026-01-21 11:23:17.32	305.68	20.84	-46.0	-48.6	17.8	0.00e+00	0	39	0	819986432	62	5162
2026-01-21 11:23:20.30	306.29	20.61	-46.9	-49.8	16.5	0.00e+00	0	39	0	825229312	64	5317
2026-01-21 11:23:23.29	306.90	20.37	-46.8	-49.7	16.6	0.00e+00	0	39	0	831520768	64	5248
2026-01-21 11:23:26.27	307.49	20.13	-46.4	-49.1	17.2	0.00e+00	0	39	0	836763648	64	4923
2026-01-21 11:23:29.34	308.10	19.89	-46.9	-49.7	16.6	0.00e+00	0	39	0	842006528	64	5272
2026-01-21 11:23:32.21	308.66	19.65	-46.8	-49.7	16.6	0.00e+00	0	39	0	848297984	64	5219
2026-01-21 11:23:35.34	309.25	19.40	-46.1	-48.6	17.7	0.00e+00	0	39	0	853540864	63	4924
2026-01-21 11:23:38.18	309.79	19.17	-46.4	-49.2	17.1	0.00e+00	0	39	0	858783744	63	5250
2026-01-21 11:23:41.31	310.37	18.92	-46.4	-49.3	16.9	0.00e+00	0	39	0	865075200	64	5020
2026-01-21 11:23:44.24	310.90	18.68	-46.1	-48.7	17.6	0.00e+00	0	39	0	870318080	63	4982
2026-01-21 11:23:47.37	311.46	18.43	-46.6	-49.5	16.8	0.00e+00	0	39	0	876609536	64	5136
2026-01-21 11:23:50.21	311.97	18.20	-47.0	-50.1	16.2	0.00e+00	0	39	0	881852416	64	5465
2026-01-21 11:23:53.34	312.51	17.95	-46.1	-48.8	17.5	0.00e+00	0	39	0	887095296	64	4707
2026-01-21 11:23:56.18	313.00	17.72	-45.8	-48.4	17.9	0.00e+00	0	39	0	892338176	63	4802
2026-01-21 11:23:59.31	313.53	17.47	-46.9	-49.9	16.3	0.00e+00	0	39	0	898629632	64	5383
2026-01-21 11:24:02.15	314.00	17.24	-47.1	-50.2	16.1	0.00e+00	0	39	0	903872512	64	5533
2026-01-21 11:24:05.28	314.51	16.99	-46.5	-49.4	16.8	0.00e+00	0	39	0	910163968	64	5099
2026-01-21 11:24:08.19	314.98	16.75	-46.4	-49.2	17.0	0.00e+00	0	39	0	915406848	64	4967
2026-01-21 11:24:11.95	315.57	16.45	-46.4	-49.2	17.0	0.00e+00	0	39	0	922746880	64	4972
2026-01-21 11:24:14.66	316.00	16.24	-46.3	-49.1	17.1	0.00e+00	0	39	0	927989760	64	4881
2026-01-21 11:24:17.93	316.50	15.98	-46.1	-48.9	17.4	0.00e+00	0	39	0	933232640	63	5098
2026-01-21 11:24:20.63	316.90	15.76	-46.3	-49.4	17.0	0.00e+00	0	39	0	938475520	63	5346
2026-01-21 11:24:24.15	317.43	15.48	-46.4	-49.4	16.9	0.00e+00	0	39	0	945815552	63	5395
2026-01-21 11:24:26.92	317.83	15.26	-46.3	-49.1	17.2	0.00e+00	0	39	0	950009856	63	5192
2026-01-21 11:24:30.19	318.30	15.01	-46.2	-48.9	17.3	0.00e+00	0	39	0	956301312	63	5097
2026-01-21 11:24:32.89	318.68	14.79	-46.4	-49.2	17.1	0.00e+00	0	39	0	961544192	63	5239
2026-01-21 11:24:36.19	319.14	14.54	-46.3	-49.1	17.2	0.00e+00	0	39	0	967835648	63	5194
2026-01-21 11:24:38.97	319.53	14.32	-46.2	-49.1	17.2	0.00e+00	0	39	0	973078528	63	5165
2026-01-21 11:24:42.16	319.96	14.07	-46.2	-49.0	17.3	0.00e+00	0	39	0	979369984	63	5120
2026-01-21 11:24:45.00	320.34	13.85	-46.1	-48.9	17.3	0.00e+00	0	39	0	984612864	63	5060
2026-01-21 11:24:48.13	320.75	13.61	-46.2	-49.1	17.1	0.00e+00	0	39	0	989855744	63	5197
2026-01-21 11:24:50.97	321.12	13.40	-46.4	-49.4	16.9	0.00e+00	0	39	0	995098624	63	5347
2026-01-21 11:24:54.10	321.51	13.16	-46.5	-49.5	16.7	0.00e+00	0	39	0	1001390080	63	5464
2026-01-21 11:24:56.94	321.87	12.94	-46.5	-49.5	16.7	0.00e+00	0	39	0	1006632960	63	5448
2026-01-21 11:25:00.20	322.27	12.70	-46.5	-49.4	16.7	0.00e+00	0	39	0	1012924416	64	5083
2026-01-21 11:25:03.36	322.66	12.46	-46.8	-49.8	16.4	0.00e+00	0	39	0	1019215872	64	5287
2026-01-21 11:25:06.20	323.00	12.25	-46.7	-49.7	16.4	0.00e+00	0	39	0	1024458752	64	5235
2026-01-21 11:25:09.67	323.41	11.99	-46.4	-49.5	16.6	0.00e+00	0	39	0	1030750208	64	5117
2026-01-21 11:25:12.38	323.73	11.79	-46.2	-49.4	16.7	0.00e+00	0	39	0	1035993088	64	5079
2026-01-21 11:25:15.62	324.10	11.55	-46.4	-49.7	16.4	0.00e+00	0	39	0	1042284544	64	5248
2026-01-21 11:25:18.47	324.42	11.34	-46.7	-50.2	15.9	0.00e+00	0	39	0	1047527424	64	5541
2026-01-21 11:25:21.68	324.78	11.11	-47.1	-50.7	15.4	0.00e+00	0	39	0	1052770304	64	5865
2026-01-21 11:25:24.80	325.12	10.88	-47.3	-51.2	14.9	0.00e+00	0	39	0	1059061760	65	5870
2026-01-21 11:25:27.65	325.43	10.68	-47.4	-51.4	14.6	7.00e-07	0	39	0	1064304640	65	6031
2026-01-21 11:25:30.96	325.78	10.44	-47.2	-51.2	14.8	0.00e+00	0	39	0	1070596096	65	5885
2026-01-21 11:25:33.87	326.09	10.23	-47.2	-51.2	14.8	0.00e+00	0	39	0	1075838976	65	5876
2026-01-21 11:25:37.26	326.44	9.99	-47.3	-51.0	15.0	0.00e+00	0	39	0	1082130432	65	5772
2026-01-21 11:25:39.96	326.72	9.80	-47.5	-51.1	14.9	0.00e+00	0	39	0	1087373312	65	5797
2026-01-21 11:25:43.23	327.05	9.57	-47.3	-50.7	15.2	0.00e+00	0	39	0	1093664768	65	5568
2026-01-21 11:25:45.94	327.31	9.38	-47.3	-50.8	15.1	0.00e+00	0	39	0	1098907648	65	5651
2026-01-21 11:25:49.23	327.64	9.15	-47.2	-50.8	15.1	0.00e+00	0	39	0	1105199104	65	5630
2026-01-21 11:25:51.94	327.90	8.97	-51.6	-65.0	3.9	1.61e-03	0	39	0	1109393408	73	18134
2026-01-21 11:25:55.21	328.21	8.74	-51.7	-67.7	3.8	1.49e+00	0	39	104	1109393408	75	22182
2026-01-21 11:25:57.92	328.47	8.56	-52.4	-67.9	3.8	1.49e+00	0	39	104	1109393408	75	22666
2026-01-21 11:26:01.23	328.77	8.33	-52.8	-68.0	3.8	1.49e+00	0	39	104	1109393408	76	21656
2026-01-21 11:26:04.07	329.04	8.14	-52.7	-68.1	3.8	1.49e+00	0	39	104	1109393408	76	21783
2026-01-21 11:26:07.70	329.36	7.90	-52.8	-68.0	3.8	1.49e+00	0	39	104	1109393408	76	21698
2026-01-21 11:26:10.60	329.62	7.70	-52.8	-68.0	3.8	1.49e+00	0	39	104	1109393408	76	21653
2026-01-21 11:26:13.88	329.91	7.48	-52.6	-67.9	3.8	1.49e+00	0	39	104	1109393408	76	21478
2026-01-21 11:26:16.57	330.14	7.31	-52.6	-67.9	3.8	1.49e+00	0	39	104	1109393408	76	21495
2026-01-21 11:26:19.87	330.43	7.09	-52.6	-67.9	3.8	1.49e+00	0	39	104	1109393408	76	21386
2026-01-21 11:26:22.58	330.66	6.91	-52.6	-67.9	3.8	1.49e+00	0	39	104	1109393408	76	21468
2026-01-21 11:26:25.86	330.93	6.70	-52.6	-67.9	3.8	1.49e+00	0	39	104	1109393408	76	21474
2026-01-21 11:26:28.57	331.15	6.52	-52.5	-67.9	3.8	1.49e+00	0	39	104	1109393408	76	21490
2026-01-21 11:26:31.85	331.42	6.31	-52.6	-67.9	3.8	1.49e+00	0	39	104	1109393408	76	21492
2026-01-21 11:26:34.56	331.64	6.14	-52.6	-67.9	3.8	1.49e+00	0	39	104	1109393408	76	21470
2026-01-21 11:26:37.83	331.90	5.93	-52.5	-67.9	3.8	1.49e+00	0	39	104	1109393408	76	21425
2026-01-21 11:26:40.54	332.11	5.76	-52.5	-68.0	3.8	1.49e+00	0	39	104	1109393408	76	21530
2026-01-21 11:26:43.80	332.36	5.56	-52.5	-67.9	3.8	1.49e+00	0	39	104	1109393408	76	21401
2026-01-21 11:26:46.50	332.57	5.39	-52.5	-67.9	3.8	1.49e+00	0	39	104	1109393408	76	21333
2026-01-21 11:26:49.76	332.82	5.18	-52.5	-67.9	3.8	1.49e+00	0	39	104	1109393408	76	21345
2026-01-21 11:26:52.46	333.02	5.02	-52.5	-67.9	3.8	1.49e+00	0	39	104	1109393408	76	21398

#Closed at: 2026-01-21 11:26:54
#Recorded file [1109 MB]: D:/Data/31040_260121_141511.dat