passes_logs/2026/01/21/T1/T1__20260121_120727_NOAA_21_JPSS-2_rec.log

#Pass ID: 20260121_120727_NOAA 21 (JPSS-2)
#Satellite: NOAA 21 (JPSS-2)
#Configuration: NOAA 21
#almurnet v.1.7.20251203
#Start time: 2026-01-21 12:07:28

#Version: 2.0.20230620
#Station: T1
#Location: 37.570604 lon 55.790049 lat
#TLE: 1 54234U 22150A   26020.93347024  .00000206  00000+0  11859-3 0  9994
#TLE: 2 54234  98.7506 321.7615 0000627 245.8100 114.3011 14.19536899165654

#Time	Az	El	Level	Level2	SNR	BER	BlckErr	Temp	State	Recorded	gain1	gain2
2026-01-21 12:07:28.06	236.65	5.03	-52.0	-65.0	3.8	1.49e+00	0	36	0	0	76	15317
2026-01-21 12:07:30.04	236.88	5.12	-52.0	-65.2	3.8	1.49e+00	0	36	104	0	75	16524
2026-01-21 12:07:32.03	237.12	5.21	-52.0	-65.1	3.8	1.49e+00	0	37	104	0	75	16463
2026-01-21 12:07:34.01	237.36	5.29	-51.9	-65.1	3.8	1.49e+00	0	36	104	0	75	16417
2026-01-21 12:07:36.00	237.61	5.38	-51.9	-65.1	3.8	1.49e+00	0	37	104	0	75	16322
2026-01-21 12:07:37.98	237.85	5.47	-51.9	-65.1	3.8	1.49e+00	0	37	104	0	75	16464
2026-01-21 12:07:39.97	238.10	5.55	-51.9	-65.1	3.8	1.49e+00	0	37	104	0	75	16352
2026-01-21 12:07:41.96	238.34	5.64	-51.9	-65.1	3.8	1.49e+00	0	37	104	0	75	16328
2026-01-21 12:07:43.94	238.59	5.73	-51.9	-65.0	3.8	1.49e+00	0	37	104	0	75	16298
2026-01-21 12:07:45.93	238.84	5.82	-51.9	-65.0	3.8	1.49e+00	0	37	104	0	75	16301
2026-01-21 12:07:47.92	239.09	5.90	-51.9	-65.1	3.8	1.49e+00	0	37	104	0	75	16343
2026-01-21 12:07:49.90	239.34	5.99	-51.9	-65.1	3.8	1.49e+00	0	37	104	0	75	16328
2026-01-21 12:07:51.89	239.60	6.08	-51.9	-65.1	3.8	1.49e+00	0	37	104	0	75	16355
2026-01-21 12:07:53.88	239.85	6.16	-51.9	-65.0	3.8	1.49e+00	0	37	104	0	75	16242
2026-01-21 12:07:55.87	240.11	6.25	-51.9	-65.0	3.8	1.49e+00	0	37	104	0	75	16216
2026-01-21 12:07:57.85	240.37	6.33	-51.9	-65.0	3.8	1.49e+00	0	37	104	0	75	16307
2026-01-21 12:07:59.84	240.63	6.42	-51.9	-65.1	3.8	1.49e+00	0	37	104	0	75	16331
2026-01-21 12:08:01.82	240.89	6.50	-51.9	-65.1	3.8	1.49e+00	0	37	104	0	75	16338
2026-01-21 12:08:03.81	241.15	6.59	-51.9	-65.1	3.8	1.49e+00	0	38	104	0	75	16328
2026-01-21 12:08:05.80	241.42	6.67	-51.9	-65.0	3.8	1.49e+00	0	37	104	0	75	16314
2026-01-21 12:08:07.78	241.68	6.76	-51.9	-65.1	3.8	1.49e+00	0	38	104	0	75	16315
2026-01-21 12:08:09.77	241.95	6.84	-51.9	-65.0	3.8	1.49e+00	0	38	104	0	75	16138
2026-01-21 12:08:11.76	242.22	6.93	-51.9	-64.9	3.8	1.49e+00	0	37	104	0	75	16095
2026-01-21 12:08:13.74	242.49	7.01	-51.9	-64.9	3.8	1.49e+00	0	38	104	0	75	16069
2026-01-21 12:08:15.73	242.76	7.09	-51.9	-64.9	3.8	1.49e+00	0	38	104	0	75	16018
2026-01-21 12:08:17.72	243.04	7.18	-51.9	-64.9	3.8	1.49e+00	0	38	104	0	75	15955
2026-01-21 12:08:19.70	243.31	7.26	-51.9	-64.9	3.8	1.49e+00	0	38	104	0	75	16101
2026-01-21 12:08:21.69	243.59	7.34	-51.8	-64.9	3.8	1.49e+00	0	38	104	0	75	16039
2026-01-21 12:08:23.68	243.86	7.43	-51.8	-64.8	3.8	1.49e+00	0	38	104	0	75	15911
2026-01-21 12:08:25.67	244.14	7.51	-51.8	-64.8	3.8	1.49e+00	0	38	104	0	75	15909
2026-01-21 12:08:27.65	244.42	7.59	-51.8	-64.9	3.8	1.49e+00	0	38	104	0	75	16116
2026-01-21 12:08:29.64	244.71	7.67	-51.8	-64.9	3.8	1.49e+00	0	38	104	0	75	16123
2026-01-21 12:08:31.63	244.99	7.75	-51.8	-64.9	3.8	1.49e+00	0	38	104	0	75	16010
2026-01-21 12:08:33.62	245.28	7.83	-51.8	-64.9	3.8	1.49e+00	0	38	104	0	75	16065
2026-01-21 12:08:35.60	245.56	7.91	-51.8	-65.0	3.8	1.49e+00	0	38	104	0	75	16166
2026-01-21 12:08:37.59	245.85	7.99	-51.8	-64.9	3.8	1.49e+00	0	38	104	0	75	16036
2026-01-21 12:08:39.58	246.14	8.07	-51.8	-64.9	3.8	1.49e+00	0	38	104	0	75	15976
2026-01-21 12:08:41.56	246.43	8.15	-51.8	-64.9	3.8	1.49e+00	0	38	104	0	75	16083
2026-01-21 12:08:43.55	246.73	8.23	-51.8	-65.0	3.8	1.49e+00	0	38	104	0	75	16147
2026-01-21 12:08:45.54	247.02	8.31	-51.8	-65.0	3.8	1.49e+00	0	38	104	0	75	16129
2026-01-21 12:08:47.53	247.32	8.39	-51.8	-64.6	3.8	1.49e+00	0	38	104	0	75	15424
2026-01-21 12:08:49.52	247.62	8.47	-51.6	-62.9	3.8	1.49e+00	0	38	104	0	75	12801
2026-01-21 12:08:51.50	247.92	8.54	-51.7	-63.6	3.8	1.49e+00	0	38	104	0	75	13853
2026-01-21 12:08:53.49	248.22	8.62	-51.5	-61.8	4.1	1.48e+00	0	38	104	0	75	11265
2026-01-21 12:08:55.48	248.52	8.70	-49.2	-53.6	10.1	2.45e-02	0	38	0	0	70	5816
2026-01-21 12:08:57.47	248.82	8.77	-46.6	-49.4	14.2	4.50e-06	0	38	0	0	65	4783
2026-01-21 12:08:59.45	249.13	8.85	-46.1	-48.6	15.1	0.00e+00	0	38	0	0	63	4914
2026-01-21 12:09:01.44	249.44	8.92	-47.1	-50.1	13.5	5.30e-06	0	38	0	0	64	5511
2026-01-21 12:09:03.43	249.74	9.00	-49.3	-53.8	9.8	3.16e-03	0	38	0	0	69	6321
2026-01-21 12:09:05.42	250.05	9.07	-50.4	-56.5	7.2	5.37e-02	0	38	0	0	71	7704
2026-01-21 12:09:07.41	250.37	9.15	-48.3	-51.9	11.9	2.85e-03	0	38	0	0	68	5343
2026-01-21 12:09:09.40	250.68	9.22	-50.5	-56.6	6.9	5.30e-01	0	38	0	0	72	7346
2026-01-21 12:09:11.39	250.99	9.29	-44.8	-47.0	16.6	0.00e+00	0	38	0	0	61	4578
2026-01-21 12:09:13.35	251.31	9.36	-44.8	-46.9	16.7	0.00e+00	0	38	0	0	61	4544
2026-01-21 12:09:15.40	251.63	9.44	-44.5	-46.6	17.0	0.00e+00	0	38	0	0	60	4631
2026-01-21 12:09:17.39	251.95	9.51	-44.4	-46.6	17.1	0.00e+00	0	38	0	0	60	4607
2026-01-21 12:09:19.38	252.27	9.58	-44.1	-46.1	17.5	0.00e+00	0	38	0	0	60	4373
2026-01-21 12:09:21.37	252.60	9.65	-44.1	-46.1	17.5	0.00e+00	0	38	0	0	60	4372
2026-01-21 12:09:23.36	252.92	9.72	-44.0	-46.0	17.5	0.00e+00	0	38	0	0	60	4329
2026-01-21 12:09:25.37	253.25	9.78	-44.0	-46.0	17.5	0.00e+00	0	38	0	0	59	4569
2026-01-21 12:09:27.36	253.58	9.85	-44.0	-46.0	17.4	0.00e+00	0	39	0	0	59	4597
2026-01-21 12:09:29.33	253.90	9.92	-44.2	-46.2	17.3	0.00e+00	0	39	0	0	59	4691
2026-01-21 12:09:31.32	254.23	9.99	-44.2	-46.2	17.4	0.00e+00	0	38	0	0	59	4669
2026-01-21 12:09:33.31	254.56	10.05	-44.2	-46.3	17.3	0.00e+00	0	39	0	0	59	4708
2026-01-21 12:09:35.30	254.89	10.12	-44.2	-46.3	17.3	0.00e+00	0	38	0	0	59	4727
2026-01-21 12:09:37.29	255.23	10.18	-44.2	-46.2	17.3	0.00e+00	0	38	0	0	59	4704
2026-01-21 12:09:39.28	255.56	10.24	-44.2	-46.2	17.4	0.00e+00	0	38	0	0	59	4668
2026-01-21 12:09:41.27	255.90	10.31	-44.1	-46.2	17.4	0.00e+00	0	38	0	0	59	4663
2026-01-21 12:09:43.26	256.24	10.37	-44.2	-46.2	17.3	0.00e+00	0	38	0	0	59	4676
2026-01-21 12:09:45.25	256.58	10.43	-44.1	-46.1	17.4	0.00e+00	0	38	0	0	59	4648
2026-01-21 12:09:47.29	256.93	10.49	-44.1	-46.1	17.4	0.00e+00	0	38	0	0	59	4633
2026-01-21 12:09:49.28	257.27	10.55	-44.0	-46.0	17.5	0.00e+00	0	39	0	0	59	4598
2026-01-21 12:09:51.29	257.62	10.61	-44.0	-46.0	17.5	0.00e+00	0	38	0	0	59	4582
2026-01-21 12:09:53.29	257.97	10.67	-44.1	-46.1	17.4	0.00e+00	0	38	0	0	59	4636
2026-01-21 12:09:55.28	258.31	10.73	-44.1	-46.1	17.4	3.00e-06	0	38	0	0	59	4640
2026-01-21 12:09:57.27	258.66	10.79	-44.3	-46.3	17.2	0.00e+00	0	39	0	0	59	4738
2026-01-21 12:09:59.28	259.01	10.84	-44.3	-46.4	17.1	0.00e+00	0	39	0	0	59	4801
2026-01-21 12:10:01.27	259.36	10.90	-44.4	-46.5	17.0	0.00e+00	0	39	0	0	59	4826
2026-01-21 12:10:03.35	259.73	10.96	-44.1	-46.2	17.3	0.00e+00	0	38	0	0	59	4669
2026-01-21 12:10:05.67	260.14	11.02	-44.0	-46.1	17.5	0.00e+00	0	38	0	0	59	4605
2026-01-21 12:10:07.75	260.51	11.07	-44.1	-46.2	17.4	0.00e+00	0	38	0	0	59	4652
2026-01-21 12:10:09.74	260.87	11.13	-44.2	-46.2	17.4	0.00e+00	0	39	0	0	59	4680
2026-01-21 12:10:11.73	261.22	11.18	-44.1	-46.2	17.4	0.00e+00	0	39	0	0	59	4675
2026-01-21 12:10:13.72	261.58	11.23	-44.3	-46.4	17.2	0.00e+00	0	39	0	0	59	4762
2026-01-21 12:10:15.71	261.94	11.27	-44.2	-46.3	17.3	0.00e+00	0	38	0	0	59	4725
2026-01-21 12:10:17.70	262.30	11.32	-44.0	-46.0	17.6	0.00e+00	0	39	0	0	59	4575
2026-01-21 12:10:19.79	262.68	11.37	-44.1	-46.2	17.4	0.00e+00	0	39	0	0	59	4655
2026-01-21 12:10:21.86	263.06	11.42	-44.0	-46.0	17.5	0.00e+00	0	39	0	0	59	4594
2026-01-21 12:10:23.93	263.44	11.47	-44.1	-46.2	17.4	0.00e+00	0	39	0	0	59	4669
2026-01-21 12:10:25.92	263.80	11.51	-44.0	-46.0	17.5	0.00e+00	0	39	0	0	59	4578
2026-01-21 12:10:27.91	264.17	11.56	-43.9	-45.9	17.7	0.00e+00	0	39	0	0	59	4512
2026-01-21 12:10:29.90	264.54	11.60	-43.8	-45.7	17.8	0.00e+00	0	39	0	0	59	4431
2026-01-21 12:10:31.89	264.90	11.64	-43.9	-45.9	17.7	0.00e+00	0	38	0	0	59	4501
2026-01-21 12:10:33.88	265.27	11.68	-44.0	-46.0	17.6	0.00e+00	0	38	0	0	59	4566
2026-01-21 12:10:35.87	265.64	11.72	-44.1	-46.2	17.4	0.00e+00	0	39	0	0	59	4667
2026-01-21 12:10:37.86	266.01	11.76	-44.1	-46.1	17.5	0.00e+00	0	39	0	0	59	4629
2026-01-21 12:10:39.96	266.40	11.80	-44.0	-46.0	17.6	0.00e+00	0	39	0	0	59	4567
2026-01-21 12:10:41.95	266.78	11.83	-43.8	-45.8	17.7	0.00e+00	0	38	0	0	59	4451
2026-01-21 12:10:43.94	267.15	11.87	-43.8	-45.8	17.6	0.00e+00	0	39	0	0	59	4460
2026-01-21 12:10:46.00	267.54	11.90	-43.9	-45.8	17.6	0.00e+00	0	39	0	0	59	4485
2026-01-21 12:10:47.99	267.91	11.94	-44.0	-46.0	17.5	0.00e+00	0	38	0	0	59	4555
2026-01-21 12:10:49.98	268.29	11.97	-44.0	-46.0	17.5	0.00e+00	0	38	0	0	59	4574
2026-01-21 12:10:51.97	268.67	12.00	-43.9	-45.9	17.7	0.00e+00	0	38	0	0	59	4517
2026-01-21 12:10:53.96	269.04	12.03	-43.9	-45.9	17.7	0.00e+00	0	38	0	0	59	4501
2026-01-21 12:10:55.95	269.42	12.06	-43.9	-45.9	17.6	0.00e+00	0	38	0	0	59	4512
2026-01-21 12:10:57.96	269.80	12.08	-44.0	-46.0	17.4	0.00e+00	0	38	0	0	59	4592
2026-01-21 12:10:59.95	270.18	12.11	-44.1	-46.1	17.4	0.00e+00	0	38	0	0	59	4647
2026-01-21 12:11:01.94	270.56	12.14	-44.0	-46.0	17.5	0.00e+00	0	38	0	0	59	4581
2026-01-21 12:11:03.93	270.95	12.16	-43.9	-45.9	17.6	0.00e+00	0	39	0	0	59	4534
2026-01-21 12:11:05.92	271.33	12.18	-43.7	-45.7	17.8	0.00e+00	0	39	0	0	59	4420
2026-01-21 12:11:07.91	271.71	12.21	-43.6	-45.5	18.0	0.00e+00	0	38	0	0	59	4321
2026-01-21 12:11:09.90	272.09	12.23	-43.7	-45.7	17.8	0.00e+00	0	38	0	0	59	4402
2026-01-21 12:11:11.89	272.47	12.25	-43.7	-45.7	17.8	0.00e+00	0	38	0	0	59	4413
2026-01-21 12:11:13.88	272.86	12.27	-43.8	-45.8	17.7	0.00e+00	0	39	0	0	59	4477
2026-01-21 12:11:15.84	273.24	12.28	-43.8	-45.8	17.8	0.00e+00	0	38	0	0	59	4450
2026-01-21 12:11:17.86	273.63	12.30	-43.8	-45.8	17.8	0.00e+00	0	38	0	0	59	4442
2026-01-21 12:11:19.85	274.01	12.31	-43.9	-45.9	17.6	0.00e+00	0	39	0	0	59	4525
2026-01-21 12:11:21.84	274.40	12.33	-44.1	-46.1	17.5	0.00e+00	0	38	0	0	59	4610
2026-01-21 12:11:23.83	274.78	12.34	-44.0	-46.0	17.6	0.00e+00	0	39	0	0	59	4551
2026-01-21 12:11:25.82	275.17	12.35	-44.0	-46.0	17.6	0.00e+00	0	39	0	0	59	4555
2026-01-21 12:11:27.85	275.56	12.36	-43.7	-45.7	17.8	0.00e+00	0	39	0	0	59	4420
2026-01-21 12:11:29.83	275.94	12.37	-43.8	-45.7	17.7	0.00e+00	0	39	0	0	59	4434
2026-01-21 12:11:31.82	276.33	12.38	-43.5	-45.4	18.0	0.00e+00	0	39	0	0	59	4291
2026-01-21 12:11:33.87	276.73	12.39	-43.6	-45.5	17.9	0.00e+00	0	39	0	0	59	4312
2026-01-21 12:11:35.86	277.12	12.39	-43.6	-45.6	17.9	0.00e+00	0	38	0	0	59	4355
2026-01-21 12:11:37.85	277.50	12.40	-43.5	-45.4	18.1	0.00e+00	0	39	0	0	58	4515
2026-01-21 12:11:39.84	277.89	12.40	-43.5	-45.4	18.1	0.00e+00	0	39	0	0	58	4537
2026-01-21 12:11:41.83	278.28	12.40	-43.7	-45.7	17.9	0.00e+00	0	39	0	0	58	4679
2026-01-21 12:11:43.83	278.66	12.40	-43.7	-45.7	17.9	0.00e+00	0	39	0	0	58	4667
2026-01-21 12:11:45.82	279.05	12.40	-43.8	-45.7	17.8	0.00e+00	0	39	0	0	58	4685
2026-01-21 12:11:47.81	279.44	12.40	-43.8	-45.8	17.7	0.00e+00	0	39	0	0	58	4736
2026-01-21 12:11:49.80	279.82	12.40	-43.7	-45.7	17.8	0.00e+00	0	39	0	0	58	4683
2026-01-21 12:11:51.79	280.21	12.40	-43.7	-45.7	17.8	0.00e+00	0	39	0	0	58	4654
2026-01-21 12:11:53.78	280.60	12.39	-43.8	-45.7	17.8	0.00e+00	0	39	0	0	58	4694
2026-01-21 12:11:55.77	280.98	12.39	-43.7	-45.6	17.9	0.00e+00	0	39	0	0	58	4611
2026-01-21 12:11:57.76	281.37	12.38	-43.5	-45.5	18.0	0.00e+00	0	38	0	0	58	4552
2026-01-21 12:11:59.75	281.76	12.37	-43.7	-45.6	17.8	0.00e+00	0	39	0	0	58	4641
2026-01-21 12:12:01.77	282.15	12.36	-43.8	-45.7	17.8	0.00e+00	0	39	0	0	58	4696
2026-01-21 12:12:03.76	282.53	12.35	-43.7	-45.6	17.9	0.00e+00	0	38	0	0	58	4634
2026-01-21 12:12:05.81	282.93	12.34	-43.8	-45.7	17.8	0.00e+00	0	39	0	0	58	4705
2026-01-21 12:12:07.80	283.32	12.32	-43.8	-45.7	17.8	0.00e+00	0	38	0	0	58	4702
2026-01-21 12:12:09.79	283.70	12.31	-43.8	-45.8	17.8	0.00e+00	0	39	0	0	58	4709
2026-01-21 12:12:11.78	284.08	12.29	-43.7	-45.7	17.9	0.00e+00	0	39	0	0	58	4675
2026-01-21 12:12:13.77	284.47	12.28	-43.9	-45.9	17.8	0.00e+00	0	38	0	0	58	4779
2026-01-21 12:12:15.76	284.85	12.26	-43.9	-45.9	17.7	0.00e+00	0	39	0	0	58	4798
2026-01-21 12:12:17.83	285.25	12.24	-44.0	-46.1	17.5	0.00e+00	0	39	0	0	58	4871
2026-01-21 12:12:19.86	285.64	12.22	-44.0	-46.0	17.6	0.00e+00	0	39	0	0	58	4855
2026-01-21 12:12:21.85	286.02	12.20	-44.1	-46.1	17.5	0.00e+00	0	39	0	0	58	4904
2026-01-21 12:12:23.84	286.40	12.18	-44.1	-46.1	17.5	0.00e+00	0	39	0	0	58	4912
2026-01-21 12:12:25.83	286.78	12.15	-43.8	-45.8	17.8	0.00e+00	0	38	0	0	58	4735
2026-01-21 12:12:27.82	287.16	12.13	-44.0	-45.9	17.7	0.00e+00	0	38	0	0	58	4799
2026-01-21 12:12:29.81	287.54	12.10	-43.9	-45.8	17.7	0.00e+00	0	38	0	0	58	4753
2026-01-21 12:12:31.80	287.92	12.08	-44.0	-45.9	17.7	0.00e+00	0	38	0	0	58	4804
2026-01-21 12:12:33.79	288.30	12.05	-43.9	-45.9	17.7	0.00e+00	0	39	0	0	58	4796
2026-01-21 12:12:35.78	288.67	12.02	-44.1	-46.1	17.5	0.00e+00	0	39	0	0	58	4872
2026-01-21 12:12:37.98	289.09	11.99	-43.9	-45.9	17.7	0.00e+00	0	39	0	0	58	4767
2026-01-21 12:12:39.97	289.47	11.95	-43.9	-45.9	17.7	0.00e+00	0	39	0	0	58	4780
2026-01-21 12:12:41.95	289.84	11.92	-44.0	-45.9	17.6	0.00e+00	0	39	0	0	58	4813
2026-01-21 12:12:43.94	290.21	11.89	-44.0	-46.0	17.6	0.00e+00	0	39	0	0	58	4833
2026-01-21 12:12:45.93	290.59	11.85	-44.2	-46.2	17.4	0.00e+00	0	39	0	0	59	4680
2026-01-21 12:12:47.93	290.96	11.82	-44.2	-46.2	17.3	0.00e+00	0	39	0	0	59	4705
2026-01-21 12:12:49.92	291.33	11.78	-44.2	-46.2	17.4	0.00e+00	0	39	0	0	59	4694
2026-01-21 12:12:51.91	291.70	11.75	-44.2	-46.2	17.4	0.00e+00	0	39	0	0	59	4702
2026-01-21 12:12:53.90	292.07	11.71	-44.3	-46.4	17.2	0.00e+00	0	39	0	0	59	4766
2026-01-21 12:12:55.89	292.44	11.67	-44.3	-46.4	17.2	0.00e+00	0	38	0	0	59	4780
2026-01-21 12:12:57.88	292.81	11.63	-44.3	-46.4	17.2	0.00e+00	0	39	0	0	59	4760
2026-01-21 12:12:59.86	293.17	11.59	-44.3	-46.3	17.2	0.00e+00	0	39	0	0	59	4755
2026-01-21 12:13:01.88	293.54	11.54	-44.2	-46.2	17.3	0.00e+00	0	39	0	0	59	4703
2026-01-21 12:13:03.93	293.92	11.50	-44.3	-46.3	17.2	0.00e+00	0	39	0	0	59	4732
2026-01-21 12:13:05.93	294.28	11.45	-44.3	-46.4	17.2	0.00e+00	0	39	0	0	59	4776
2026-01-21 12:13:07.91	294.64	11.41	-44.4	-46.5	17.1	0.00e+00	0	38	0	0	59	4822
2026-01-21 12:13:10.09	295.04	11.36	-44.4	-46.4	17.1	0.00e+00	0	39	0	0	59	4791
2026-01-21 12:13:12.08	295.40	11.31	-44.4	-46.5	17.0	0.00e+00	0	39	0	0	59	4855
2026-01-21 12:13:14.07	295.76	11.26	-44.5	-46.6	16.9	0.00e+00	0	39	0	0	59	4906
2026-01-21 12:13:16.11	296.12	11.21	-44.6	-46.7	16.9	0.00e+00	0	39	0	0	59	4952
2026-01-21 12:13:18.10	296.48	11.16	-44.4	-46.4	17.1	0.00e+00	0	39	0	0	59	4810
2026-01-21 12:13:20.09	296.83	11.11	-44.4	-46.5	17.0	0.00e+00	0	39	0	0	59	4839
2026-01-21 12:13:22.11	297.19	11.06	-44.5	-46.5	17.0	0.00e+00	0	39	0	0	59	4859
2026-01-21 12:13:24.16	297.56	11.00	-44.4	-46.5	17.0	0.00e+00	0	39	0	0	59	4849
2026-01-21 12:13:26.15	297.91	10.95	-44.5	-46.6	17.0	0.00e+00	0	39	0	0	59	4897
2026-01-21 12:13:28.25	298.28	10.89	-44.6	-46.7	16.9	0.00e+00	0	39	0	0	59	4943
2026-01-21 12:13:30.24	298.62	10.84	-44.7	-46.8	16.8	0.00e+00	0	38	0	0	60	4742
2026-01-21 12:13:32.22	298.97	10.78	-44.8	-47.0	16.7	0.00e+00	0	39	0	0	60	4823
2026-01-21 12:13:34.23	299.32	10.73	-44.6	-46.8	16.8	0.00e+00	0	39	0	0	60	4734
2026-01-21 12:13:36.21	299.66	10.67	-44.5	-46.6	17.0	0.00e+00	0	39	0	0	60	4607
2026-01-21 12:13:38.20	300.01	10.61	-44.5	-46.6	17.0	0.00e+00	0	38	0	0	60	4635
2026-01-21 12:13:40.25	300.36	10.55	-44.6	-46.7	16.9	0.00e+00	0	39	0	0	60	4652
2026-01-21 12:13:42.24	300.70	10.49	-44.8	-46.9	16.7	0.00e+00	0	39	0	0	60	4805
2026-01-21 12:13:44.37	301.06	10.43	-44.8	-46.9	16.7	0.00e+00	0	39	0	0	60	4803
2026-01-21 12:13:46.40	301.41	10.36	-44.8	-46.9	16.7	0.00e+00	0	39	0	0	60	4811
2026-01-21 12:13:48.61	301.78	10.29	-44.7	-46.8	16.8	0.00e+00	0	39	0	0	60	4736
2026-01-21 12:13:50.60	302.12	10.23	-44.7	-46.9	16.7	0.00e+00	0	39	0	0	60	4796
2026-01-21 12:13:52.59	302.45	10.17	-44.7	-46.9	16.7	0.00e+00	0	39	0	0	60	4771
2026-01-21 12:13:54.59	302.78	10.10	-44.9	-47.1	16.5	0.00e+00	0	39	0	0	60	4895
2026-01-21 12:13:56.53	303.10	10.04	-45.0	-47.2	16.4	0.00e+00	0	39	0	0	60	4961
2026-01-21 12:13:58.53	303.44	9.97	-44.9	-47.1	16.4	0.00e+00	0	39	0	0	60	4915
2026-01-21 12:14:00.51	303.76	9.91	-44.9	-47.1	16.5	0.00e+00	0	39	0	0	60	4875
2026-01-21 12:14:02.50	304.09	9.84	-45.0	-47.2	16.3	0.00e+00	0	39	0	0	60	4971
2026-01-21 12:14:04.49	304.41	9.77	-44.9	-47.1	16.4	0.00e+00	0	39	0	0	60	4916
2026-01-21 12:14:06.48	304.74	9.71	-44.8	-47.0	16.5	0.00e+00	0	39	0	0	60	4847
2026-01-21 12:14:08.69	305.09	9.63	-44.8	-47.0	16.5	0.00e+00	0	39	0	0	60	4826
2026-01-21 12:14:10.68	305.41	9.56	-44.8	-47.0	16.5	0.00e+00	0	39	0	0	60	4847
2026-01-21 12:14:12.67	305.73	9.49	-44.9	-47.2	16.3	0.00e+00	0	39	0	0	60	4971
2026-01-21 12:14:14.65	306.05	9.42	-44.7	-46.9	16.6	0.00e+00	0	39	0	0	60	4802
2026-01-21 12:14:16.64	306.36	9.35	-45.0	-47.3	16.2	0.00e+00	0	39	0	0	60	5032
2026-01-21 12:14:18.63	306.68	9.28	-45.4	-47.7	15.8	0.00e+00	0	39	0	0	61	4981
2026-01-21 12:14:20.64	306.99	9.21	-45.2	-47.5	16.1	0.00e+00	0	39	0	0	61	4821
2026-01-21 12:14:22.63	307.30	9.13	-45.1	-47.4	16.1	0.00e+00	0	39	0	0	61	4807
2026-01-21 12:14:24.76	307.64	9.06	-45.2	-47.5	16.1	0.00e+00	0	39	0	0	61	4836
2026-01-21 12:14:27.03	307.99	8.97	-51.8	-64.2	3.8	7.49e-02	0	38	104	0	74	15705
2026-01-21 12:14:29.02	308.29	8.90	-52.3	-65.3	3.8	1.49e+00	0	39	104	0	75	16885
2026-01-21 12:14:31.02	308.60	8.82	-52.4	-65.5	3.8	1.49e+00	0	39	104	0	75	17281
2026-01-21 12:14:33.01	308.90	8.75	-52.5	-65.7	3.8	1.49e+00	0	39	104	0	75	17495
2026-01-21 12:14:35.01	309.21	8.67	-52.6	-65.7	3.8	1.49e+00	0	39	104	0	75	17519
2026-01-21 12:14:37.01	309.51	8.59	-52.7	-65.7	3.8	1.49e+00	0	39	104	0	76	16642
2026-01-21 12:14:39.01	309.81	8.52	-52.7	-65.7	3.8	1.49e+00	0	39	104	0	76	16670
2026-01-21 12:14:41.00	310.11	8.44	-52.6	-65.7	3.8	1.49e+00	0	39	104	0	76	16692
2026-01-21 12:14:42.98	310.40	8.36	-52.6	-65.8	3.8	1.49e+00	0	39	104	0	76	16739
2026-01-21 12:14:44.97	310.69	8.29	-52.5	-65.7	3.8	1.49e+00	0	39	104	0	76	16640
2026-01-21 12:14:46.97	310.99	8.21	-52.5	-65.7	3.8	1.49e+00	0	39	104	0	76	16653
2026-01-21 12:14:48.97	311.28	8.13	-52.5	-65.7	3.8	1.49e+00	0	39	104	0	76	16568
2026-01-21 12:14:50.96	311.57	8.05	-52.4	-65.7	3.8	1.49e+00	0	39	104	0	76	16566
2026-01-21 12:14:52.96	311.86	7.97	-52.5	-65.7	3.8	1.49e+00	0	39	104	0	76	16557
2026-01-21 12:14:54.95	312.15	7.89	-52.4	-65.7	3.8	1.49e+00	0	39	104	0	76	16536
2026-01-21 12:14:56.94	312.43	7.81	-52.4	-65.7	3.8	1.49e+00	0	39	104	0	76	16539
2026-01-21 12:14:58.92	312.71	7.73	-52.4	-65.6	3.8	1.49e+00	0	39	104	0	76	16498
2026-01-21 12:15:00.91	313.00	7.65	-52.4	-65.6	3.8	1.49e+00	0	39	104	0	76	16495
2026-01-21 12:15:02.91	313.28	7.57	-52.4	-65.7	3.8	1.49e+00	0	39	104	0	76	16547
2026-01-21 12:15:04.90	313.56	7.49	-52.4	-65.6	3.8	1.49e+00	0	39	104	0	76	16491
2026-01-21 12:15:06.88	313.83	7.41	-52.4	-65.6	3.8	1.49e+00	0	39	104	0	76	16500
2026-01-21 12:15:08.87	314.11	7.33	-52.4	-65.7	3.8	1.49e+00	0	39	104	0	76	16524
2026-01-21 12:15:10.86	314.38	7.24	-52.4	-65.6	3.8	1.49e+00	0	39	104	0	76	16477
2026-01-21 12:15:12.86	314.66	7.16	-52.4	-65.6	3.8	1.49e+00	0	39	104	0	76	16484
2026-01-21 12:15:14.84	314.93	7.08	-52.4	-65.7	3.8	1.49e+00	0	39	104	0	76	16519
2026-01-21 12:15:16.83	315.20	7.00	-52.4	-65.6	3.8	1.49e+00	0	39	104	0	76	16452
2026-01-21 12:15:18.83	315.47	6.91	-52.4	-65.6	3.8	1.49e+00	0	39	104	0	76	16488
2026-01-21 12:15:20.82	315.74	6.83	-52.4	-65.7	3.8	1.49e+00	0	39	104	0	76	16525
2026-01-21 12:15:22.82	316.00	6.74	-52.4	-65.7	3.8	1.49e+00	0	39	104	0	76	16533
2026-01-21 12:15:24.80	316.26	6.66	-52.4	-65.7	3.8	1.49e+00	0	39	104	0	76	16536
2026-01-21 12:15:26.79	316.53	6.58	-52.4	-65.6	3.8	1.49e+00	0	39	104	0	76	16485
2026-01-21 12:15:28.78	316.79	6.49	-52.4	-65.7	3.8	1.49e+00	0	39	104	0	76	16545
2026-01-21 12:15:30.78	317.05	6.41	-52.4	-65.6	3.8	1.49e+00	0	39	104	0	76	16493
2026-01-21 12:15:32.78	317.31	6.32	-52.4	-65.7	3.8	1.49e+00	0	39	104	0	76	16513
2026-01-21 12:15:34.77	317.57	6.24	-52.4	-65.6	3.8	1.49e+00	0	39	104	0	76	16462
2026-01-21 12:15:36.75	317.82	6.15	-52.4	-65.7	3.8	1.49e+00	0	39	104	0	76	16520
2026-01-21 12:15:38.75	318.08	6.07	-52.4	-65.6	3.8	1.49e+00	0	39	104	0	76	16499
2026-01-21 12:15:40.74	318.33	5.98	-52.4	-65.7	3.8	1.49e+00	0	39	104	0	76	16532
2026-01-21 12:15:42.73	318.58	5.90	-52.4	-65.6	3.8	1.49e+00	0	39	104	0	76	16436
2026-01-21 12:15:44.72	318.83	5.81	-52.4	-65.6	3.8	1.49e+00	0	39	104	0	76	16493
2026-01-21 12:15:46.70	319.08	5.72	-52.4	-65.6	3.8	1.49e+00	0	39	104	0	76	16488
2026-01-21 12:15:48.69	319.32	5.64	-52.4	-65.7	3.8	1.49e+00	0	39	104	0	76	16518
2026-01-21 12:15:50.68	319.57	5.55	-52.4	-65.6	3.8	1.49e+00	0	39	104	0	76	16433
2026-01-21 12:15:52.70	319.82	5.46	-52.4	-65.6	3.8	1.49e+00	0	39	104	0	76	16434
2026-01-21 12:15:54.70	320.06	5.38	-52.4	-65.6	3.8	1.49e+00	0	39	104	0	76	16454
2026-01-21 12:15:56.68	320.30	5.29	-52.4	-65.6	3.8	1.49e+00	0	39	104	0	76	16499
2026-01-21 12:15:58.67	320.54	5.20	-52.4	-65.6	3.8	1.49e+00	0	39	104	0	76	16448
2026-01-21 12:16:00.66	320.78	5.12	-52.4	-65.6	3.8	1.49e+00	0	39	104	0	76	16433
2026-01-21 12:16:02.67	321.02	5.03	-52.4	-65.6	3.8	1.49e+00	0	39	104	0	76	16424

#Closed at: 2026-01-21 12:16:04
#Recorded file [0 MB]: D:/Data/31040_260121_150728.dat