passes_logs/2026/01/21/T1/T1__20260121_020102_FENGYUN_3D_rec.log

#Pass ID: 20260121_020102_FENGYUN 3D
#Satellite: FENGYUN 3D
#Configuration: FENGYUN 3D
#almurnet v.1.7.20251203
#Start time: 2026-01-21 02:01:03

#Version: 2.0.20230620
#Station: T1
#Location: 37.570604 lon 55.790049 lat
#TLE: 1 43010U 17072A   26020.28933472  .00000051  00000+0  46008-4 0  9990
#TLE: 2 43010  98.9944 352.1871 0002476  99.7001 260.4455 14.19696838424006

#Time	Az	El	Level	Level2	SNR	BER	BlckErr	Temp	State	Recorded	gain1	gain2
2026-01-21 02:01:03.04	15.27	5.02	-50.7	-64.1	3.8	8.46e-01	0	38	0	0	73	16473
2026-01-21 02:01:07.01	15.23	5.31	-50.9	-64.0	3.8	8.47e-01	0	38	104	0	72	17152
2026-01-21 02:01:10.98	15.20	5.59	-50.9	-64.1	3.8	8.47e-01	0	38	104	0	72	17384
2026-01-21 02:01:14.95	15.16	5.88	-50.9	-64.0	3.8	8.47e-01	0	38	104	0	72	17247
2026-01-21 02:01:18.92	15.12	6.18	-50.8	-63.9	3.8	8.47e-01	0	39	104	0	72	16989
2026-01-21 02:01:22.90	15.09	6.48	-50.8	-63.6	3.8	8.47e-01	0	39	104	0	72	16392
2026-01-21 02:01:26.87	15.05	6.78	-50.8	-63.4	3.8	8.48e-01	0	39	104	0	72	15966
2026-01-21 02:01:30.84	15.00	7.08	-50.8	-63.3	3.8	8.46e-01	0	39	104	0	72	15877
2026-01-21 02:01:34.81	14.96	7.39	-50.7	-62.8	3.8	8.47e-01	0	39	104	0	72	14906
2026-01-21 02:01:38.78	14.92	7.70	-50.4	-60.3	4.3	8.40e-01	0	39	0	0	72	11218
2026-01-21 02:01:42.75	14.87	8.01	-49.6	-56.3	6.5	3.02e-01	0	39	0	6291456	71	7539
2026-01-21 02:01:46.72	14.83	8.33	-48.0	-52.4	10.5	7.81e-03	0	39	0	28311552	68	5673
2026-01-21 02:01:50.70	14.78	8.65	-46.4	-49.7	13.0	1.28e-04	0	39	0	50331648	64	5231
2026-01-21 02:01:54.67	14.73	8.98	-46.2	-49.4	13.3	1.60e-05	0	39	0	73400320	64	5075
2026-01-21 02:01:58.65	14.68	9.31	-48.7	-54.0	8.6	2.15e-02	0	40	0	95420416	67	7259
2026-01-21 02:02:02.63	14.63	9.65	-42.0	-44.1	18.7	0.00e+00	0	40	0	117440512	56	4343
2026-01-21 02:02:06.60	14.57	9.99	-41.6	-43.6	18.9	0.00e+00	0	40	0	140509184	55	4374
2026-01-21 02:02:10.58	14.52	10.34	-41.8	-43.8	18.8	0.00e+00	0	40	0	162529280	55	4457
2026-01-21 02:02:14.56	14.46	10.69	-41.5	-43.5	19.0	0.00e+00	0	40	0	184549376	54	4580
2026-01-21 02:02:18.54	14.40	11.04	-41.5	-43.5	19.1	0.00e+00	0	40	0	207618048	54	4546
2026-01-21 02:02:22.52	14.34	11.40	-41.3	-43.3	19.3	0.00e+00	0	40	0	229638144	54	4444
2026-01-21 02:02:26.51	14.28	11.77	-41.3	-43.3	19.3	0.00e+00	0	40	0	252706816	54	4474
2026-01-21 02:02:30.49	14.21	12.14	-41.2	-43.2	19.4	0.00e+00	0	40	0	274726912	54	4420
2026-01-21 02:02:34.47	14.14	12.52	-41.1	-43.1	19.5	0.00e+00	0	40	0	296747008	54	4361
2026-01-21 02:02:38.45	14.07	12.91	-41.0	-43.1	19.6	0.00e+00	0	40	0	319815680	54	4341
2026-01-21 02:02:42.42	14.00	13.29	-40.8	-42.7	19.8	0.00e+00	0	40	0	341835776	53	4434
2026-01-21 02:02:46.40	13.93	13.69	-40.7	-42.7	19.9	0.00e+00	0	41	0	363855872	53	4392
2026-01-21 02:02:50.38	13.85	14.09	-40.5	-42.4	20.2	0.00e+00	0	40	0	385875968	52	4525
2026-01-21 02:02:54.36	13.77	14.50	-40.3	-42.2	20.4	0.00e+00	0	40	0	408944640	52	4415
2026-01-21 02:02:58.34	13.69	14.92	-40.4	-42.3	20.3	0.00e+00	0	41	0	430964736	52	4451
2026-01-21 02:03:02.32	13.61	15.34	-40.2	-42.1	20.5	0.00e+00	0	40	0	454033408	52	4356
2026-01-21 02:03:06.30	13.52	15.77	-40.2	-42.1	20.5	0.00e+00	0	41	0	476053504	52	4360
2026-01-21 02:03:10.28	13.43	16.21	-40.2	-42.0	20.5	0.00e+00	0	40	0	498073600	52	4324
2026-01-21 02:03:14.26	13.34	16.66	-40.1	-42.0	20.6	0.00e+00	0	40	0	521142272	52	4317
2026-01-21 02:03:18.24	13.24	17.11	-40.0	-41.8	20.8	0.00e+00	0	40	0	543162368	51	4475
2026-01-21 02:03:22.22	13.14	17.58	-39.8	-41.6	21.0	0.00e+00	0	40	0	565182464	51	4380
2026-01-21 02:03:26.20	13.03	18.05	-39.7	-41.5	21.2	0.00e+00	0	41	0	588251136	51	4295
2026-01-21 02:03:30.18	12.93	18.53	-39.3	-41.1	21.5	0.00e+00	0	40	0	610271232	50	4373
2026-01-21 02:03:34.15	12.82	19.02	-39.2	-40.9	21.6	0.00e+00	0	40	0	632291328	50	4285
2026-01-21 02:03:38.13	12.70	19.52	-39.2	-41.0	21.6	0.00e+00	0	41	0	655360000	50	4298
2026-01-21 02:03:42.11	12.58	20.03	-39.2	-41.0	21.6	0.00e+00	0	40	0	677380096	50	4300
2026-01-21 02:03:46.09	12.45	20.55	-39.2	-40.9	21.7	0.00e+00	0	41	0	700448768	50	4253
2026-01-21 02:03:50.07	12.32	21.09	-39.2	-40.9	21.7	0.00e+00	0	41	0	722468864	50	4268
2026-01-21 02:03:54.05	12.19	21.63	-39.1	-40.8	21.8	0.00e+00	0	41	0	744488960	50	4221
2026-01-21 02:03:58.03	12.05	22.19	-38.8	-40.5	22.0	0.00e+00	0	40	0	766509056	49	4328
2026-01-21 02:04:02.00	11.90	22.75	-38.7	-40.4	22.1	0.00e+00	0	41	0	789577728	49	4280
2026-01-21 02:04:05.98	11.75	23.33	-38.7	-40.3	22.2	0.00e+00	0	41	0	811597824	49	4233
2026-01-21 02:04:09.96	11.59	23.93	-38.7	-40.4	22.2	0.00e+00	0	41	0	833617920	49	4275
2026-01-21 02:04:13.94	11.42	24.53	-38.7	-40.4	22.2	0.00e+00	0	41	0	856686592	49	4270
2026-01-21 02:04:17.92	11.25	25.16	-38.6	-40.3	22.3	0.00e+00	0	41	0	878706688	49	4198
2026-01-21 02:04:21.90	11.07	25.79	-38.3	-39.9	22.6	0.00e+00	0	41	0	901775360	48	4282
2026-01-21 02:04:25.88	10.88	26.44	-38.0	-39.7	22.8	0.00e+00	0	41	0	923795456	48	4148
2026-01-21 02:04:29.87	10.68	27.11	-37.9	-39.6	22.6	0.00e+00	0	41	0	945815552	47	4357
2026-01-21 02:04:33.84	10.48	27.79	-38.2	-39.9	22.4	0.00e+00	0	41	0	968884224	47	4505
2026-01-21 02:04:37.82	10.26	28.50	-38.5	-40.2	22.1	0.00e+00	0	41	0	990904320	47	4679
2026-01-21 02:04:41.80	10.04	29.21	-38.1	-39.8	22.4	0.00e+00	0	41	0	1012924416	47	4460
2026-01-21 02:04:45.79	9.80	29.95	-37.8	-39.5	22.7	0.00e+00	0	41	0	1035993088	47	4293
2026-01-21 02:04:49.77	9.55	30.71	-37.9	-39.5	22.7	0.00e+00	0	41	0	1058013184	47	4325
2026-01-21 02:04:53.75	9.29	31.48	-37.8	-39.5	22.7	0.00e+00	0	41	0	1080033280	47	4303
2026-01-21 02:04:57.73	9.01	32.28	-37.8	-39.4	22.7	0.00e+00	0	41	0	1103101952	47	4281
2026-01-21 02:05:01.71	8.72	33.09	-37.7	-39.3	22.8	0.00e+00	0	41	0	1125122048	47	4222
2026-01-21 02:05:05.69	8.41	33.93	-37.7	-39.3	22.8	0.00e+00	0	41	0	1147142144	47	4238
2026-01-21 02:05:09.66	8.09	34.79	-37.2	-38.8	23.2	0.00e+00	0	41	0	1170210816	46	4228
2026-01-21 02:05:13.65	7.74	35.68	-37.0	-38.7	23.3	0.00e+00	0	41	0	1192230912	46	4154
2026-01-21 02:05:17.63	7.38	36.58	-37.4	-39.0	23.1	0.00e+00	0	41	0	1214251008	46	4314
2026-01-21 02:05:21.61	7.00	37.52	-37.4	-39.0	23.1	0.00e+00	0	41	0	1237319680	46	4309
2026-01-21 02:05:25.59	6.59	38.47	-37.5	-39.1	23.0	0.00e+00	0	41	0	1259339776	46	4379
2026-01-21 02:05:29.57	6.15	39.46	-37.8	-39.5	22.7	0.00e+00	0	41	0	1281359872	46	4562
2026-01-21 02:05:33.54	5.69	40.47	-37.9	-39.5	22.7	0.00e+00	0	41	0	1304428544	46	4575
2026-01-21 02:05:37.52	5.20	41.50	-38.2	-39.8	22.4	0.00e+00	0	41	0	1326448640	47	4491
2026-01-21 02:05:41.50	4.67	42.57	-38.2	-39.9	22.4	0.00e+00	0	41	0	1349517312	47	4501
2026-01-21 02:05:45.48	4.10	43.66	-38.1	-39.7	22.5	0.00e+00	0	41	0	1371537408	47	4436
2026-01-21 02:05:49.46	3.49	44.78	-37.9	-39.6	22.7	0.00e+00	0	41	0	1393557504	47	4344
2026-01-21 02:05:53.44	2.84	45.93	-38.4	-40.1	22.2	0.00e+00	0	41	0	1416626176	47	4643
2026-01-21 02:05:57.43	2.13	47.12	-38.3	-39.9	22.4	0.00e+00	0	41	0	1438646272	47	4545
2026-01-21 02:06:01.41	1.37	48.33	-38.4	-40.1	22.3	0.00e+00	0	41	0	1460666368	47	4624
2026-01-21 02:06:05.39	0.54	49.56	-38.4	-40.1	22.3	0.00e+00	0	41	0	1483735040	47	4616
2026-01-21 02:06:09.37	359.64	50.83	-39.0	-40.7	22.1	0.00e+00	0	41	0	1505755136	48	4671
2026-01-21 02:06:13.35	358.66	52.12	-39.5	-41.3	21.6	0.00e+00	0	41	0	1527775232	49	4724
2026-01-21 02:06:17.33	357.59	53.44	-39.2	-40.9	21.9	0.00e+00	0	41	0	1550843904	49	4504
2026-01-21 02:06:21.31	356.42	54.78	-39.2	-41.0	21.4	0.00e+00	0	41	0	1572864000	49	4582
2026-01-21 02:06:25.29	355.12	56.14	-38.9	-40.7	21.7	0.00e+00	0	41	0	1594884096	49	4424
2026-01-21 02:06:29.27	353.70	57.52	-38.5	-40.2	22.1	0.00e+00	0	41	0	1617952768	49	4172
2026-01-21 02:06:33.25	352.11	58.92	-38.3	-40.0	22.3	0.00e+00	0	41	0	1639972864	48	4333
2026-01-21 02:06:37.22	350.35	60.32	-38.5	-40.2	22.1	0.00e+00	0	41	0	1661992960	48	4433
2026-01-21 02:06:41.20	348.38	61.73	-37.7	-39.4	22.5	0.00e+00	0	41	0	1685061632	47	4253
2026-01-21 02:06:45.18	346.17	63.14	-37.8	-39.5	22.3	0.00e+00	0	41	0	1707081728	47	4336
2026-01-21 02:06:49.16	343.67	64.53	-37.7	-39.4	22.4	0.00e+00	0	41	0	1730150400	47	4263
2026-01-21 02:06:53.13	340.87	65.90	-37.3	-39.0	22.7	0.00e+00	0	41	0	1752170496	46	4313
2026-01-21 02:06:57.11	337.68	67.23	-36.8	-38.4	23.1	0.00e+00	0	41	0	1774190592	45	4289
2026-01-21 02:07:01.09	334.06	68.52	-36.7	-38.3	23.2	0.00e+00	0	41	0	1796210688	45	4238
2026-01-21 02:07:05.07	329.96	69.72	-36.7	-38.4	23.1	0.00e+00	0	41	0	1819279360	45	4267
2026-01-21 02:07:09.05	325.32	70.83	-37.4	-39.2	22.5	0.00e+00	0	41	0	1841299456	45	4679
2026-01-21 02:07:13.04	320.09	71.83	-36.5	-38.2	23.3	0.00e+00	0	41	0	1863319552	45	4147
2026-01-21 02:07:17.02	314.28	72.66	-36.9	-38.6	23.0	0.00e+00	0	41	0	1886388224	44	4619
2026-01-21 02:07:20.99	307.94	73.32	-36.5	-38.2	23.3	0.00e+00	0	41	0	1908408320	45	4148
2026-01-21 02:07:24.97	301.13	73.76	-36.4	-38.1	23.3	0.00e+00	0	41	0	1931476992	44	4367
2026-01-21 02:07:28.95	294.02	73.98	-36.2	-37.9	23.5	0.00e+00	0	41	0	1953497088	44	4264
2026-01-21 02:07:32.93	286.82	73.95	-36.6	-38.2	23.2	0.00e+00	0	41	0	1975517184	44	4439
2026-01-21 02:07:36.92	279.73	73.69	-36.3	-38.0	23.4	0.00e+00	0	42	0	1998585856	44	4305
2026-01-21 02:07:40.90	273.00	73.20	-36.4	-38.0	23.5	0.00e+00	0	41	0	2020605952	44	4327
2026-01-21 02:07:44.87	266.77	72.50	-36.5	-38.2	23.3	0.00e+00	0	41	0	2042626048	44	4431
2026-01-21 02:07:48.85	261.08	71.63	-36.5	-38.2	23.4	0.00e+00	0	41	0	2065694720	44	4406
2026-01-21 02:07:52.83	255.98	70.61	-36.5	-38.2	23.3	0.00e+00	0	41	0	2087714816	44	4407
2026-01-21 02:07:56.81	251.45	69.48	-36.6	-38.3	23.2	0.00e+00	0	41	0	2109734912	44	4455
2026-01-21 02:08:00.79	247.44	68.25	-36.8	-38.5	23.1	0.00e+00	0	41	0	2132803584	44	4549
2026-01-21 02:08:04.77	243.92	66.95	-37.6	-39.4	22.4	0.00e+00	0	41	0	2154823680	45	4786
2026-01-21 02:08:08.75	240.81	65.61	-36.7	-38.4	23.2	0.00e+00	0	41	0	2177892352	45	4255
2026-01-21 02:08:12.72	238.06	64.23	-36.7	-38.4	23.2	0.00e+00	0	41	0	2199912448	45	4254
2026-01-21 02:08:16.70	235.63	62.83	-37.1	-38.8	22.8	0.00e+00	0	42	0	2221932544	45	4480
2026-01-21 02:08:20.68	233.47	61.42	-37.6	-39.3	22.5	0.00e+00	0	41	0	2243952640	45	4743
2026-01-21 02:08:24.66	231.54	60.01	-37.6	-39.3	22.5	0.00e+00	0	41	0	2267021312	45	4737
2026-01-21 02:08:28.64	229.81	58.60	-38.0	-39.7	22.3	0.00e+00	0	42	0	2289041408	46	4660
2026-01-21 02:08:32.62	228.26	57.20	-38.2	-40.0	21.9	0.00e+00	0	41	0	2311061504	47	4556
2026-01-21 02:08:36.60	226.86	55.82	-38.3	-40.1	21.9	0.00e+00	0	41	0	2334130176	47	4630
2026-01-21 02:08:40.58	225.59	54.45	-38.8	-40.5	21.8	0.00e+00	0	41	0	2356150272	48	4570
2026-01-21 02:08:44.57	224.43	53.11	-38.7	-40.4	21.9	0.00e+00	0	41	0	2379218944	48	4530
2026-01-21 02:08:48.54	223.38	51.80	-38.2	-39.9	22.3	0.00e+00	0	42	0	2401239040	48	4279
2026-01-21 02:08:52.52	222.42	50.51	-38.1	-39.8	22.3	0.00e+00	0	42	0	2423259136	48	4233
2026-01-21 02:08:56.50	221.53	49.24	-38.3	-40.0	22.2	0.00e+00	0	42	0	2446327808	48	4322
2026-01-21 02:09:00.48	220.72	48.01	-37.7	-39.4	22.4	0.00e+00	0	41	0	2468347904	47	4274
2026-01-21 02:09:04.47	219.97	46.80	-37.6	-39.3	22.4	0.00e+00	0	41	0	2490368000	47	4225
2026-01-21 02:09:08.45	219.27	45.62	-37.5	-39.2	22.5	0.00e+00	0	41	0	2513436672	47	4179
2026-01-21 02:09:12.43	218.62	44.47	-37.5	-39.3	22.4	0.00e+00	0	41	0	2535456768	47	4213
2026-01-21 02:09:16.40	218.03	43.35	-37.4	-39.0	22.6	0.00e+00	0	41	0	2557476864	46	4337
2026-01-21 02:09:20.38	217.47	42.26	-37.6	-39.3	22.3	0.00e+00	0	41	0	2580545536	46	4493
2026-01-21 02:09:24.36	216.94	41.20	-37.4	-39.1	22.6	0.00e+00	0	42	0	2602565632	46	4366
2026-01-21 02:09:28.34	216.45	40.16	-37.1	-38.8	22.8	0.00e+00	0	42	0	2624585728	46	4216
2026-01-21 02:09:32.32	215.99	39.15	-37.0	-38.7	22.6	0.00e+00	0	42	0	2647654400	45	4419
2026-01-21 02:09:36.29	215.56	38.18	-36.7	-38.4	22.6	0.00e+00	0	41	0	2669674496	45	4279
2026-01-21 02:09:40.27	215.16	37.22	-36.4	-38.1	22.7	0.00e+00	0	42	0	2691694592	44	4384
2026-01-21 02:09:44.25	214.78	36.29	-36.2	-37.9	22.8	0.00e+00	0	41	0	2714763264	44	4271
2026-01-21 02:09:48.24	214.42	35.38	-36.4	-38.2	22.5	0.00e+00	0	42	0	2736783360	44	4415
2026-01-21 02:09:52.22	214.07	34.50	-36.4	-38.1	22.5	0.00e+00	0	42	0	2758803456	44	4372
2026-01-21 02:09:56.20	213.75	33.64	-36.3	-38.0	22.6	0.00e+00	0	41	0	2781872128	44	4310
2026-01-21 02:10:00.18	213.45	32.80	-36.1	-37.9	22.6	0.00e+00	0	42	0	2803892224	44	4243
2026-01-21 02:10:04.15	213.16	31.99	-36.2	-37.9	22.5	0.00e+00	0	42	0	2826960896	44	4274
2026-01-21 02:10:08.13	212.88	31.20	-36.2	-38.0	22.3	0.00e+00	0	41	0	2848980992	44	4311
2026-01-21 02:10:12.11	212.62	30.43	-36.2	-37.9	22.3	0.00e+00	0	41	0	2871001088	44	4290
2026-01-21 02:10:16.09	212.37	29.67	-36.1	-37.8	22.4	0.00e+00	0	42	0	2894069760	44	4231
2026-01-21 02:10:20.07	212.13	28.94	-36.2	-38.0	22.2	0.00e+00	0	41	0	2916089856	44	4301
2026-01-21 02:10:24.05	211.91	28.22	-36.2	-37.9	22.2	0.00e+00	0	41	0	2938109952	44	4280
2026-01-21 02:10:28.04	211.69	27.52	-36.1	-37.9	22.2	0.00e+00	0	41	0	2960130048	44	4256
2026-01-21 02:10:32.02	211.48	26.84	-36.2	-37.9	22.2	0.00e+00	0	41	0	2983198720	44	4276
2026-01-21 02:10:36.00	211.29	26.17	-36.1	-37.8	22.3	0.00e+00	0	42	0	3005218816	44	4212
2026-01-21 02:10:39.98	211.10	25.52	-36.3	-38.0	22.1	0.00e+00	0	42	0	3028287488	44	4332
2026-01-21 02:10:43.95	210.92	24.89	-36.5	-38.2	22.0	0.00e+00	0	42	0	3050307584	44	4441
2026-01-21 02:10:47.93	210.74	24.27	-36.7	-38.5	21.8	0.00e+00	0	42	0	3072327680	44	4551
2026-01-21 02:10:51.91	210.57	23.66	-36.4	-38.2	22.0	0.00e+00	0	41	0	3095396352	44	4413
2026-01-21 02:10:55.89	210.41	23.07	-36.5	-38.3	22.0	0.00e+00	0	42	0	3117416448	44	4449
2026-01-21 02:10:59.87	210.26	22.49	-36.7	-38.5	21.8	0.00e+00	0	42	0	3139436544	44	4554
2026-01-21 02:11:03.85	210.11	21.92	-36.8	-38.5	21.8	0.00e+00	0	42	0	3162505216	44	4590
2026-01-21 02:11:07.83	209.97	21.37	-36.8	-38.6	21.7	0.00e+00	0	42	0	3184525312	44	4617
2026-01-21 02:11:11.81	209.83	20.82	-37.1	-38.8	21.5	0.00e+00	0	42	0	3206545408	44	4757
2026-01-21 02:11:15.79	209.70	20.29	-37.2	-38.9	21.4	0.00e+00	0	42	0	3229614080	45	4541
2026-01-21 02:11:19.77	209.58	19.77	-37.3	-39.1	21.2	0.00e+00	0	42	0	3251634176	45	4625
2026-01-21 02:11:23.75	209.45	19.26	-37.5	-39.3	21.1	0.00e+00	0	42	0	3274702848	45	4715
2026-01-21 02:11:27.73	209.33	18.76	-37.6	-39.4	20.9	0.00e+00	0	42	0	3296722944	45	4814
2026-01-21 02:11:31.71	209.22	18.27	-37.7	-39.6	20.8	0.00e+00	0	42	0	3318743040	46	4601
2026-01-21 02:11:35.69	209.11	17.79	-37.8	-39.7	20.7	0.00e+00	0	42	0	3340763136	46	4667
2026-01-21 02:11:39.68	209.00	17.32	-37.9	-39.7	20.7	0.00e+00	0	42	0	3363831808	46	4703
2026-01-21 02:11:43.66	208.90	16.85	-38.0	-39.9	20.5	0.00e+00	0	42	0	3385851904	46	4784
2026-01-21 02:11:47.64	208.80	16.40	-38.2	-40.0	20.4	0.00e+00	0	42	0	3407872000	47	4587
2026-01-21 02:11:51.62	208.71	15.95	-38.4	-40.3	20.2	0.00e+00	0	42	0	3430940672	47	4711
2026-01-21 02:11:55.60	208.61	15.52	-38.4	-40.3	20.1	0.00e+00	0	42	0	3452960768	47	4750
2026-01-21 02:11:59.58	208.52	15.08	-38.5	-40.4	20.1	0.00e+00	0	42	0	3476029440	47	4771
2026-01-21 02:12:03.56	208.44	14.66	-38.8	-40.7	20.0	0.00e+00	0	42	0	3498049536	48	4673
2026-01-21 02:12:07.54	208.35	14.25	-38.7	-40.6	20.0	0.00e+00	0	42	0	3520069632	48	4646
2026-01-21 02:12:11.52	208.27	13.84	-38.8	-40.7	20.0	0.00e+00	0	42	0	3543138304	48	4677
2026-01-21 02:12:15.50	208.19	13.43	-38.7	-40.6	20.1	0.00e+00	0	42	0	3565158400	48	4605
2026-01-21 02:12:19.48	208.11	13.04	-38.8	-40.7	19.9	0.00e+00	0	42	0	3587178496	48	4683
2026-01-21 02:12:23.46	208.04	12.65	-38.8	-40.7	20.0	0.00e+00	0	42	0	3610247168	48	4674
2026-01-21 02:12:27.44	207.97	12.27	-38.9	-40.8	19.8	0.00e+00	0	42	0	3632267264	48	4746
2026-01-21 02:12:31.42	207.90	11.89	-39.0	-40.9	19.7	0.00e+00	0	42	0	3654287360	48	4791
2026-01-21 02:12:35.39	207.83	11.52	-39.2	-41.1	19.6	0.00e+00	0	42	0	3677356032	49	4609
2026-01-21 02:12:39.37	207.76	11.15	-39.3	-41.2	19.4	0.00e+00	0	42	0	3699376128	49	4689
2026-01-21 02:12:43.36	207.70	10.79	-39.4	-41.4	19.3	0.00e+00	0	42	0	3722444800	49	4774
2026-01-21 02:12:47.33	207.63	10.44	-39.6	-41.5	19.2	0.00e+00	0	42	0	3744464896	49	4855
2026-01-21 02:12:51.32	207.57	10.08	-39.8	-41.8	18.9	0.00e+00	0	42	0	3766484992	50	4725
2026-01-21 02:12:55.30	207.51	9.74	-39.9	-41.9	18.8	0.00e+00	0	42	0	3789553664	50	4801
2026-01-21 02:12:59.27	207.46	9.40	-39.9	-41.8	18.8	0.00e+00	0	42	0	3811573760	50	4756
2026-01-21 02:13:03.25	207.40	9.06	-40.1	-42.1	18.6	0.00e+00	0	42	0	3833593856	50	4904
2026-01-21 02:13:07.23	207.34	8.73	-50.5	-62.9	3.8	8.48e-01	0	42	104	3836739584	72	15132
2026-01-21 02:13:11.20	207.29	8.40	-51.0	-63.1	3.8	8.46e-01	0	42	104	3836739584	72	15458
2026-01-21 02:13:15.17	207.24	8.08	-50.9	-63.2	3.8	8.46e-01	0	42	104	3836739584	72	15596
2026-01-21 02:13:19.15	207.19	7.76	-51.0	-63.1	3.8	8.46e-01	0	42	104	3836739584	72	15560
2026-01-21 02:13:23.12	207.14	7.45	-50.8	-63.1	3.8	8.47e-01	0	42	104	3836739584	72	15518
2026-01-21 02:13:27.09	207.09	7.14	-50.7	-63.1	3.8	8.47e-01	0	42	104	3836739584	72	15408
2026-01-21 02:13:31.06	207.05	6.83	-50.7	-63.0	3.8	8.46e-01	0	42	104	3836739584	72	15326
2026-01-21 02:13:35.03	207.00	6.53	-50.7	-63.0	3.8	8.47e-01	0	42	104	3836739584	72	15331
2026-01-21 02:13:39.01	206.96	6.22	-50.7	-63.0	3.8	8.46e-01	0	42	104	3836739584	72	15368
2026-01-21 02:13:42.98	206.91	5.93	-50.7	-63.0	3.8	8.47e-01	0	42	104	3836739584	72	15363
2026-01-21 02:13:46.95	206.87	5.64	-50.7	-63.0	3.8	8.48e-01	0	42	104	3836739584	72	15401
2026-01-21 02:13:50.92	206.83	5.35	-50.7	-63.0	3.8	8.47e-01	0	42	104	3836739584	72	15340
2026-01-21 02:13:54.89	206.79	5.06	-50.7	-63.1	3.8	8.47e-01	0	42	104	3836739584	72	15432

#Closed at: 2026-01-21 02:13:56
#Recorded file [3836 MB]: D:/Data/31040_260121_050103.dat