passes_logs/2026/01/21/T1/T1__20260121_193138_FENGYUN_3G_rec.log

#Pass ID: 20260121_193138_FENGYUN 3G
#Satellite: FENGYUN 3G
#Configuration: FENGYUN 3G
#almurnet v.1.7.20251203
#Start time: 2026-01-21 19:31:39

#Version: 2.0.20230620
#Station: T1
#Location: 37.570604 lon 55.790049 lat
#TLE: 1 56232U 23055A   26020.45159834  .00088200  00000+0  13354-2 0  9997
#TLE: 2 56232  49.9936  27.7990 0004112  56.3402 303.7958 15.53862613157044

#Time	Az	El	Level	Level2	SNR	BER	BlckErr	Temp	State	Recorded	gain1	gain2
2026-01-21 19:31:39.15	228.55	5.39	-49.2	-68.6	3.8	8.47e-01	0	35	0	0	70	32908
2026-01-21 19:31:41.13	228.34	5.54	-49.1	-68.7	3.8	8.47e-01	0	35	104	0	70	33020
2026-01-21 19:31:43.12	228.13	5.69	-49.1	-68.7	3.8	8.47e-01	0	36	104	0	70	33257
2026-01-21 19:31:45.10	227.91	5.84	-49.2	-68.8	3.8	8.46e-01	0	35	104	0	70	33322
2026-01-21 19:31:47.09	227.69	5.99	-49.1	-68.7	3.8	8.48e-01	0	36	104	0	70	32986
2026-01-21 19:31:49.07	227.47	6.14	-49.1	-68.6	3.8	8.46e-01	0	36	104	0	70	32808
2026-01-21 19:31:51.06	227.24	6.29	-49.1	-68.4	3.8	8.46e-01	0	36	104	0	70	32148
2026-01-21 19:31:53.05	227.01	6.45	-49.1	-68.2	3.8	8.47e-01	0	36	104	0	70	31263
2026-01-21 19:31:55.03	226.77	6.60	-49.1	-68.2	3.8	8.47e-01	0	36	104	0	70	31319
2026-01-21 19:31:57.02	226.54	6.76	-49.1	-68.2	3.8	8.46e-01	0	36	104	0	70	31118
2026-01-21 19:31:59.01	226.29	6.92	-49.1	-68.3	3.8	8.47e-01	0	36	104	0	70	31622
2026-01-21 19:32:00.99	226.05	7.08	-49.1	-68.4	3.8	8.47e-01	0	36	104	0	70	31833
2026-01-21 19:32:02.98	225.80	7.24	-49.1	-68.7	3.8	8.47e-01	0	36	104	0	70	32992
2026-01-21 19:32:04.97	225.55	7.40	-49.1	-68.5	3.8	8.46e-01	0	36	104	0	70	32522
2026-01-21 19:32:06.95	225.29	7.56	-49.1	-68.5	3.8	8.48e-01	0	36	104	0	70	32284
2026-01-21 19:32:08.94	225.03	7.72	-49.1	-68.5	3.8	8.47e-01	0	36	104	0	70	32200
2026-01-21 19:32:10.93	224.76	7.89	-49.1	-68.1	3.8	8.47e-01	0	36	104	0	70	31084
2026-01-21 19:32:12.91	224.50	8.05	-49.1	-67.3	3.8	8.47e-01	0	36	104	0	70	28055
2026-01-21 19:32:14.90	224.22	8.22	-49.1	-68.2	3.8	8.48e-01	0	36	104	0	70	31417
2026-01-21 19:32:16.89	223.94	8.39	-49.1	-68.5	3.8	8.46e-01	0	37	104	0	70	32539
2026-01-21 19:32:18.87	223.66	8.56	-49.1	-67.4	3.8	8.47e-01	0	36	104	0	70	28444
2026-01-21 19:32:20.86	223.37	8.73	-49.0	-65.2	4.2	8.46e-01	0	36	0	0	70	22186
2026-01-21 19:32:22.85	223.08	8.90	-48.7	-60.6	6.7	6.63e-01	0	37	0	0	69	13869
2026-01-21 19:32:24.84	222.78	9.08	-48.1	-56.4	11.0	6.12e-02	0	37	0	0	68	9037
2026-01-21 19:32:26.82	222.48	9.25	-48.3	-58.4	8.9	1.19e-03	0	37	0	0	67	12090
2026-01-21 19:32:28.83	222.17	9.43	-46.1	-50.8	16.5	3.57e-01	0	37	0	0	64	5954
2026-01-21 19:32:30.85	221.86	9.61	-46.7	-52.0	15.6	0.00e+00	0	37	0	0	64	6876
2026-01-21 19:32:32.84	221.54	9.79	-46.0	-50.4	17.2	0.00e+00	0	37	0	0	64	5710
2026-01-21 19:32:34.85	221.21	9.97	-46.1	-50.3	17.5	0.00e+00	0	37	0	0	63	5932
2026-01-21 19:32:36.85	220.88	10.15	-45.9	-49.8	18.0	0.00e+00	0	37	0	0	63	5602
2026-01-21 19:32:38.84	220.55	10.33	-45.9	-49.8	18.0	0.00e+00	0	37	0	0	63	5625
2026-01-21 19:32:41.09	220.16	10.54	-45.8	-49.9	17.8	0.00e+00	0	37	0	0	63	5699
2026-01-21 19:32:43.08	219.82	10.73	-45.5	-49.5	18.3	0.00e+00	0	37	0	0	62	5754
2026-01-21 19:32:45.07	219.47	10.91	-44.4	-47.7	19.9	0.00e+00	0	37	0	0	60	5273
2026-01-21 19:32:47.06	219.11	11.10	-43.7	-46.5	21.2	0.00e+00	0	37	0	0	59	4828
2026-01-21 19:32:49.05	218.74	11.29	-43.6	-46.4	21.1	0.00e+00	0	37	0	0	58	5084
2026-01-21 19:32:51.04	218.37	11.48	-42.6	-45.1	22.3	0.00e+00	0	37	0	0	57	4649
2026-01-21 19:32:53.03	217.99	11.67	-42.2	-44.7	22.7	0.00e+00	0	37	0	0	56	4664
2026-01-21 19:32:55.02	217.61	11.86	-41.3	-43.7	23.4	0.00e+00	0	37	0	0	54	4652
2026-01-21 19:32:57.01	217.22	12.06	-41.2	-43.5	23.5	0.00e+00	0	37	0	0	54	4571
2026-01-21 19:32:58.99	216.82	12.25	-41.0	-43.3	23.7	0.00e+00	0	37	0	0	54	4470
2026-01-21 19:33:00.99	216.41	12.45	-40.8	-43.0	24.0	0.00e+00	0	37	0	0	53	4559
2026-01-21 19:33:02.98	216.00	12.65	-40.7	-42.9	24.1	0.00e+00	0	37	0	0	53	4519
2026-01-21 19:33:04.99	215.58	12.85	-40.8	-43.0	24.0	0.00e+00	0	37	0	0	53	4563
2026-01-21 19:33:06.99	215.15	13.05	-40.7	-43.0	24.0	0.00e+00	0	37	0	0	53	4546
2026-01-21 19:33:08.98	214.71	13.25	-40.3	-42.5	24.4	0.00e+00	0	37	0	0	52	4561
2026-01-21 19:33:10.96	214.27	13.46	-40.3	-42.5	24.4	0.00e+00	0	37	0	0	52	4566
2026-01-21 19:33:12.95	213.82	13.66	-40.4	-42.5	24.4	0.00e+00	0	37	0	0	52	4573
2026-01-21 19:33:14.95	213.36	13.87	-40.4	-42.5	24.3	0.00e+00	0	37	0	0	52	4598
2026-01-21 19:33:16.93	212.89	14.07	-40.6	-42.8	24.1	0.00e+00	0	37	0	0	52	4736
2026-01-21 19:33:18.94	212.41	14.28	-40.5	-42.6	24.3	0.00e+00	0	37	0	0	52	4643
2026-01-21 19:33:20.93	211.93	14.49	-40.1	-42.2	24.6	0.00e+00	0	37	0	0	52	4414
2026-01-21 19:33:22.92	211.44	14.70	-39.9	-41.9	24.8	0.00e+00	0	37	0	0	51	4535
2026-01-21 19:33:24.90	210.94	14.90	-39.9	-42.0	24.8	0.00e+00	0	37	0	0	51	4554
2026-01-21 19:33:26.89	210.42	15.12	-39.9	-42.0	24.8	0.00e+00	0	37	0	0	51	4577
2026-01-21 19:33:28.88	209.90	15.33	-40.0	-42.1	24.8	0.00e+00	0	37	0	0	51	4605
2026-01-21 19:33:30.87	209.37	15.54	-39.9	-42.0	24.8	0.00e+00	0	37	0	0	51	4566
2026-01-21 19:33:32.86	208.83	15.75	-39.4	-41.4	25.2	0.00e+00	0	37	0	0	50	4513
2026-01-21 19:33:34.90	208.27	15.97	-39.0	-41.0	25.5	0.00e+00	0	37	0	0	50	4326
2026-01-21 19:33:36.96	207.69	16.19	-39.2	-41.2	25.4	0.00e+00	0	37	0	0	49	4671
2026-01-21 19:33:38.95	207.12	16.40	-39.4	-41.5	25.2	0.00e+00	0	37	0	0	49	4837
2026-01-21 19:33:40.94	206.54	16.62	-39.8	-41.8	25.0	0.00e+00	0	37	0	0	50	4755
2026-01-21 19:33:42.93	205.94	16.83	-39.8	-41.9	25.0	0.00e+00	0	37	0	0	50	4787
2026-01-21 19:33:44.92	205.34	17.05	-39.7	-41.7	25.1	0.00e+00	0	37	0	0	50	4687
2026-01-21 19:33:46.90	204.73	17.26	-39.0	-41.0	25.4	0.00e+00	0	37	0	0	50	4307
2026-01-21 19:33:48.97	204.08	17.48	-38.9	-40.9	25.6	0.00e+00	0	38	0	0	49	4515
2026-01-21 19:33:50.96	203.45	17.70	-39.2	-41.2	25.4	0.00e+00	0	38	0	0	49	4676
2026-01-21 19:33:53.08	202.76	17.93	-39.4	-41.5	25.2	0.00e+00	0	38	0	0	49	4827
2026-01-21 19:33:55.02	202.12	18.13	-39.4	-41.4	25.2	0.00e+00	0	37	0	0	49	4813
2026-01-21 19:33:57.01	201.45	18.35	-39.1	-41.1	25.5	0.00e+00	0	37	0	0	49	4625
2026-01-21 19:33:59.00	200.76	18.56	-38.5	-40.5	25.9	0.00e+00	0	37	0	0	49	4320
2026-01-21 19:34:00.99	200.07	18.77	-38.3	-40.3	26.1	0.00e+00	0	38	0	0	48	4460
2026-01-21 19:34:02.98	199.37	18.98	-38.4	-40.4	26.0	0.00e+00	0	38	0	0	48	4512
2026-01-21 19:34:04.97	198.65	19.18	-38.9	-40.9	25.6	0.00e+00	0	38	0	0	48	4771
2026-01-21 19:34:06.96	197.92	19.39	-39.0	-41.0	25.6	0.00e+00	0	37	0	0	48	4840
2026-01-21 19:34:09.12	197.12	19.61	-38.6	-40.6	25.9	0.00e+00	0	38	0	0	48	4638
2026-01-21 19:34:11.11	196.36	19.81	-38.7	-40.7	25.9	0.00e+00	0	37	0	0	48	4657
2026-01-21 19:34:13.42	195.47	20.04	-38.3	-40.3	25.2	0.00e+00	0	38	0	0	47	4748
2026-01-21 19:34:15.41	194.69	20.24	-38.2	-40.1	26.1	0.00e+00	0	38	0	0	47	4650
2026-01-21 19:34:17.40	193.90	20.44	-38.2	-40.2	26.0	0.00e+00	0	38	0	0	47	4676
2026-01-21 19:34:19.39	193.09	20.63	-38.2	-40.1	26.1	0.00e+00	0	38	0	0	47	4646
2026-01-21 19:34:21.38	192.28	20.82	-38.3	-40.2	26.1	0.00e+00	0	38	0	0	47	4690
2026-01-21 19:34:23.36	191.45	21.00	-38.5	-40.5	25.8	0.00e+00	0	38	0	0	47	4857
2026-01-21 19:34:25.35	190.61	21.18	-38.3	-40.3	26.0	0.00e+00	0	37	0	0	47	4739
2026-01-21 19:34:27.34	189.76	21.36	-38.2	-40.2	26.0	0.00e+00	0	38	0	0	47	4671
2026-01-21 19:34:29.33	188.90	21.53	-38.1	-40.1	26.1	0.00e+00	0	38	0	0	46	4884
2026-01-21 19:34:31.32	188.02	21.70	-38.0	-40.0	26.2	0.00e+00	0	37	0	0	47	4573
2026-01-21 19:34:33.32	187.13	21.86	-37.8	-39.7	26.4	0.00e+00	0	38	0	0	46	4699
2026-01-21 19:34:35.30	186.24	22.02	-37.7	-39.6	26.4	0.00e+00	0	38	0	0	46	4634
2026-01-21 19:34:37.30	185.33	22.18	-37.5	-39.4	26.5	0.00e+00	0	38	0	0	45	4776
2026-01-21 19:34:39.41	184.35	22.33	-37.4	-39.3	26.6	0.00e+00	0	38	0	0	45	4722
2026-01-21 19:34:41.40	183.42	22.48	-37.6	-39.6	26.4	0.00e+00	0	37	0	0	45	4874
2026-01-21 19:34:43.52	182.42	22.62	-37.8	-39.7	26.3	0.00e+00	0	38	0	0	46	4704
2026-01-21 19:34:45.57	181.44	22.75	-37.6	-39.5	26.5	0.00e+00	0	38	0	0	45	4852
2026-01-21 19:34:47.57	180.48	22.88	-37.5	-39.4	26.5	0.00e+00	0	38	0	0	46	4523
2026-01-21 19:34:49.56	179.51	22.99	-37.4	-39.3	26.5	0.00e+00	0	38	0	0	45	4751
2026-01-21 19:34:51.55	178.54	23.10	-37.1	-39.0	26.6	0.00e+00	0	38	0	0	45	4560
2026-01-21 19:34:53.56	177.54	23.21	-37.3	-39.3	26.6	0.00e+00	0	38	0	0	45	4725
2026-01-21 19:34:55.55	176.55	23.30	-37.2	-39.1	26.7	0.00e+00	0	38	0	0	45	4635
2026-01-21 19:34:57.54	175.55	23.39	-37.0	-38.9	26.8	0.00e+00	0	38	0	0	45	4512
2026-01-21 19:34:59.54	174.55	23.47	-36.9	-38.8	26.8	0.00e+00	0	38	0	0	44	4746
2026-01-21 19:35:01.53	173.54	23.54	-37.2	-39.1	26.7	0.00e+00	0	38	0	0	45	4640
2026-01-21 19:35:03.51	172.53	23.60	-36.9	-38.9	26.8	0.00e+00	0	38	0	0	45	4504
2026-01-21 19:35:05.73	171.39	23.66	-37.1	-39.0	26.7	0.00e+00	0	38	0	0	45	4578
2026-01-21 19:35:07.72	170.37	23.71	-37.6	-39.5	26.5	0.00e+00	0	38	0	0	45	4819
2026-01-21 19:35:09.71	169.34	23.74	-38.1	-40.1	26.1	0.00e+00	0	38	0	0	46	4902
2026-01-21 19:35:11.71	168.31	23.77	-38.2	-40.1	26.1	0.00e+00	0	38	0	0	47	4642
2026-01-21 19:35:13.70	167.28	23.79	-38.2	-40.1	26.1	0.00e+00	0	38	0	0	47	4635
2026-01-21 19:35:15.71	166.23	23.80	-38.1	-40.0	26.1	0.00e+00	0	38	0	0	47	4576
2026-01-21 19:35:17.76	165.17	23.80	-37.8	-39.7	26.3	0.00e+00	0	37	0	0	47	4432
2026-01-21 19:35:19.80	164.11	23.80	-37.6	-39.5	26.4	0.00e+00	0	38	0	0	46	4590
2026-01-21 19:35:21.79	163.08	23.78	-37.6	-39.5	26.4	0.00e+00	0	38	0	0	46	4566
2026-01-21 19:35:24.08	161.90	23.75	-37.9	-39.8	26.3	0.00e+00	0	38	0	0	46	4732
2026-01-21 19:35:26.07	160.87	23.72	-37.9	-39.8	26.3	0.00e+00	0	38	0	0	46	4745
2026-01-21 19:35:28.06	159.85	23.67	-37.6	-39.6	26.4	0.00e+00	0	38	0	0	46	4603
2026-01-21 19:35:30.06	158.82	23.62	-37.5	-39.4	26.5	0.00e+00	0	38	0	0	45	4795
2026-01-21 19:35:32.02	157.82	23.56	-37.6	-39.5	26.4	0.00e+00	0	38	0	0	45	4845
2026-01-21 19:35:34.00	156.82	23.50	-37.2	-39.1	26.7	0.00e+00	0	38	0	0	45	4604
2026-01-21 19:35:35.99	155.81	23.42	-37.3	-39.2	26.6	0.00e+00	0	38	0	0	45	4684
2026-01-21 19:35:37.98	154.81	23.34	-37.4	-39.4	26.5	0.00e+00	0	38	0	0	45	4775
2026-01-21 19:35:40.08	153.77	23.24	-37.1	-39.0	26.6	0.00e+00	0	38	0	0	45	4575
2026-01-21 19:35:42.13	152.75	23.14	-37.1	-39.0	26.7	0.00e+00	0	38	0	0	45	4583
2026-01-21 19:35:44.12	151.77	23.03	-37.3	-39.3	26.6	0.00e+00	0	38	0	0	45	4711
2026-01-21 19:35:46.11	150.80	22.92	-37.4	-39.3	26.5	0.00e+00	0	38	0	0	45	4725
2026-01-21 19:35:48.10	149.84	22.80	-37.1	-39.0	26.7	0.00e+00	0	38	0	0	45	4582
2026-01-21 19:35:50.09	148.89	22.67	-37.0	-38.9	26.7	0.00e+00	0	38	0	0	45	4518
2026-01-21 19:35:52.08	147.95	22.54	-37.1	-39.0	26.7	0.00e+00	0	38	0	0	45	4566
2026-01-21 19:35:54.07	147.02	22.40	-37.3	-39.3	20.2	0.00e+00	0	38	0	0	45	4725
2026-01-21 19:35:56.06	146.09	22.25	-37.2	-39.2	26.5	0.00e+00	0	38	0	0	45	4665
2026-01-21 19:35:58.05	145.18	22.10	-37.3	-39.2	26.6	0.00e+00	0	38	0	0	45	4683
2026-01-21 19:36:00.14	144.24	21.94	-37.4	-39.3	26.5	0.00e+00	0	38	0	0	45	4748
2026-01-21 19:36:02.13	143.35	21.78	-37.6	-39.5	26.4	0.00e+00	0	38	0	0	45	4830
2026-01-21 19:36:04.12	142.47	21.61	-37.6	-39.6	26.3	0.00e+00	0	38	0	0	45	4886
2026-01-21 19:36:06.11	141.60	21.44	-37.8	-39.7	26.2	0.00e+00	0	38	0	0	46	4692
2026-01-21 19:36:08.03	140.78	21.27	-37.7	-39.7	26.2	0.00e+00	0	38	0	0	46	4675
2026-01-21 19:36:10.02	139.93	21.09	-38.2	-40.2	25.9	0.00e+00	0	38	0	0	47	4703
2026-01-21 19:36:12.01	139.10	20.91	-38.0	-40.0	26.1	0.00e+00	0	38	0	0	47	4561
2026-01-21 19:36:14.00	138.28	20.72	-37.6	-39.6	26.3	0.00e+00	0	38	0	0	47	4352
2026-01-21 19:36:15.99	137.47	20.53	-37.9	-39.9	26.1	0.00e+00	0	38	0	0	46	4786
2026-01-21 19:36:17.98	136.67	20.34	-38.9	-40.9	25.5	0.00e+00	0	38	0	0	48	4793
2026-01-21 19:36:19.97	135.89	20.14	-38.9	-40.9	25.5	0.00e+00	0	38	0	0	48	4781
2026-01-21 19:36:21.96	135.12	19.95	-38.0	-40.0	26.0	0.00e+00	0	38	0	0	47	4550
2026-01-21 19:36:23.94	134.36	19.75	-38.0	-40.0	26.0	0.00e+00	0	38	0	0	47	4568
2026-01-21 19:36:25.93	133.61	19.55	-38.3	-40.3	25.9	0.00e+00	0	38	0	0	47	4731
2026-01-21 19:36:27.92	132.88	19.34	-38.5	-40.5	25.7	0.00e+00	0	38	0	0	47	4859
2026-01-21 19:36:29.91	132.15	19.13	-38.7	-40.7	25.7	0.00e+00	0	38	0	0	48	4669
2026-01-21 19:36:31.93	131.43	18.92	-38.6	-40.6	25.8	0.00e+00	0	38	0	0	48	4599
2026-01-21 19:36:33.96	130.71	18.71	-38.6	-40.6	25.7	0.00e+00	0	38	0	0	48	4631
2026-01-21 19:36:35.95	130.03	18.50	-38.8	-40.8	25.6	0.00e+00	0	38	0	0	48	4720
2026-01-21 19:36:37.94	129.35	18.29	-38.9	-40.9	25.5	0.00e+00	0	38	0	0	48	4810
2026-01-21 19:36:39.93	128.68	18.08	-38.6	-40.6	25.5	0.00e+00	0	38	0	0	48	4628
2026-01-21 19:36:41.91	128.03	17.87	-38.7	-40.7	25.7	0.00e+00	0	38	0	0	48	4652
2026-01-21 19:36:43.91	127.39	17.65	-38.9	-40.9	25.5	0.00e+00	0	38	0	0	48	4769
2026-01-21 19:36:45.90	126.76	17.44	-38.6	-40.6	25.7	0.00e+00	0	38	0	0	48	4630
2026-01-21 19:36:47.89	126.14	17.23	-38.6	-40.6	25.7	0.00e+00	0	38	0	0	48	4621
2026-01-21 19:36:49.94	125.51	17.01	-39.0	-41.1	25.4	0.00e+00	0	38	0	0	48	4889
2026-01-21 19:36:52.09	124.86	16.77	-39.0	-41.0	25.4	0.00e+00	0	38	0	0	49	4562
2026-01-21 19:36:54.08	124.28	16.56	-39.1	-41.1	25.3	0.00e+00	0	38	0	0	49	4623
2026-01-21 19:36:56.07	123.70	16.35	-39.2	-41.3	25.3	0.00e+00	0	38	0	0	49	4722
2026-01-21 19:36:58.04	123.14	16.14	-39.3	-41.3	25.2	0.00e+00	0	38	0	0	49	4749
2026-01-21 19:37:00.03	122.59	15.92	-39.0	-41.1	25.4	0.00e+00	0	38	0	0	49	4600
2026-01-21 19:37:02.02	122.04	15.71	-39.4	-41.5	25.0	0.00e+00	0	38	0	0	49	4859
2026-01-21 19:37:04.01	121.50	15.50	-39.7	-41.9	24.8	0.00e+00	0	38	0	0	50	4761
2026-01-21 19:37:06.00	120.98	15.29	-39.7	-41.8	24.8	0.00e+00	0	38	0	0	50	4730
2026-01-21 19:37:08.00	120.46	15.08	-39.9	-42.0	24.7	0.00e+00	0	38	0	0	50	4824
2026-01-21 19:37:09.98	119.95	14.87	-39.9	-42.1	24.7	0.00e+00	0	38	0	0	50	4872
2026-01-21 19:37:11.97	119.45	14.66	-39.5	-41.9	24.8	0.00e+00	0	38	0	0	50	4779
2026-01-21 19:37:13.96	118.96	14.45	-40.0	-42.1	24.6	0.00e+00	0	38	0	0	50	4886
2026-01-21 19:37:15.95	118.48	14.24	-40.2	-42.4	24.4	0.00e+00	0	38	0	0	51	4762
2026-01-21 19:37:17.94	118.01	14.04	-40.5	-42.7	24.2	0.00e+00	0	38	0	0	51	4933
2026-01-21 19:37:19.93	117.55	13.83	-40.4	-42.6	24.2	0.00e+00	0	38	0	0	51	4891
2026-01-21 19:37:21.92	117.09	13.63	-40.4	-42.6	24.3	0.00e+00	0	38	0	0	51	4902
2026-01-21 19:37:23.85	116.66	13.43	-40.6	-42.8	24.1	0.00e+00	0	38	0	0	51	5008
2026-01-21 19:37:25.84	116.22	13.23	-40.6	-42.8	24.1	0.00e+00	0	38	0	0	51	5011
2026-01-21 19:37:27.83	115.78	13.03	-40.6	-42.8	24.0	0.00e+00	0	38	0	0	52	4751
2026-01-21 19:37:29.82	115.36	12.83	-40.6	-42.8	24.0	0.00e+00	0	38	0	0	52	4739
2026-01-21 19:37:31.81	114.94	12.63	-40.7	-43.0	23.9	0.00e+00	0	38	0	0	52	4815
2026-01-21 19:37:33.84	114.53	12.43	-40.7	-42.9	23.9	0.00e+00	0	38	0	0	52	4792
2026-01-21 19:37:35.83	114.12	12.23	-40.6	-42.8	24.0	0.00e+00	0	38	0	0	52	4737
2026-01-21 19:37:37.82	113.73	12.04	-40.8	-43.1	23.8	0.00e+00	0	38	0	0	52	4875
2026-01-21 19:37:39.81	113.34	11.84	-41.2	-43.4	23.5	0.00e+00	0	38	0	0	53	4801
2026-01-21 19:37:41.80	112.96	11.65	-41.3	-43.6	23.4	0.00e+00	0	38	0	0	53	4878
2026-01-21 19:37:43.79	112.58	11.46	-41.2	-43.5	23.4	0.00e+00	0	38	0	0	53	4862
2026-01-21 19:37:45.78	112.21	11.27	-41.3	-43.7	23.3	0.00e+00	0	38	0	0	53	4951
2026-01-21 19:37:47.77	111.85	11.08	-41.4	-44.0	23.0	0.00e+00	0	38	0	0	53	5113
2026-01-21 19:37:49.86	111.48	10.89	-41.5	-43.9	23.1	0.00e+00	0	38	0	0	53	5055
2026-01-21 19:37:51.85	111.13	10.70	-41.6	-43.9	23.1	0.00e+00	0	38	0	0	53	5088
2026-01-21 19:37:53.84	110.79	10.52	-41.6	-44.0	23.0	0.00e+00	0	38	0	0	54	4847
2026-01-21 19:37:55.82	110.45	10.33	-41.9	-44.3	22.7	0.00e+00	0	38	0	0	54	5015
2026-01-21 19:37:57.81	110.12	10.15	-41.7	-44.2	22.9	0.00e+00	0	38	0	0	54	4931
2026-01-21 19:37:59.80	109.79	9.97	-41.8	-44.2	22.8	0.00e+00	0	38	0	0	54	4965
2026-01-21 19:38:01.79	109.47	9.79	-42.0	-44.4	22.7	0.00e+00	0	38	0	0	54	5063
2026-01-21 19:38:03.78	109.15	9.61	-42.2	-44.6	22.5	0.00e+00	0	38	0	0	54	5211
2026-01-21 19:38:05.78	108.84	9.44	-42.1	-44.6	22.5	0.00e+00	0	38	0	0	55	4876
2026-01-21 19:38:07.76	108.54	9.26	-42.3	-44.8	22.3	0.00e+00	0	38	0	0	55	4998
2026-01-21 19:38:09.76	108.23	9.09	-42.2	-44.6	22.4	0.00e+00	0	38	0	0	55	4917
2026-01-21 19:38:11.74	107.94	8.92	-50.3	-69.1	3.8	4.20e-02	0	38	104	0	71	32699
2026-01-21 19:38:13.73	107.65	8.74	-50.6	-69.5	3.8	8.46e-01	0	38	104	0	71	34191
2026-01-21 19:38:15.72	107.36	8.57	-50.6	-69.5	3.8	8.45e-01	0	38	104	0	72	32490
2026-01-21 19:38:17.70	107.08	8.41	-50.6	-69.7	3.8	8.46e-01	0	38	104	0	71	34958
2026-01-21 19:38:19.69	106.81	8.24	-50.4	-69.7	3.8	8.47e-01	0	38	104	0	71	35186
2026-01-21 19:38:21.68	106.53	8.07	-50.5	-69.8	3.8	8.46e-01	0	38	104	0	71	35359
2026-01-21 19:38:23.66	106.27	7.91	-50.6	-69.8	3.9	8.46e-01	0	38	104	0	71	35397
2026-01-21 19:38:25.65	106.00	7.74	-50.6	-69.8	4.1	8.46e-01	0	38	104	0	72	33497
2026-01-21 19:38:27.64	105.74	7.58	-50.5	-69.7	3.8	8.48e-01	0	38	104	0	72	33266
2026-01-21 19:38:29.62	105.49	7.42	-50.5	-70.0	3.8	8.46e-01	0	38	104	0	71	36153
2026-01-21 19:38:31.61	105.24	7.26	-50.6	-69.8	3.8	8.48e-01	0	38	104	0	72	33361
2026-01-21 19:38:33.60	104.99	7.10	-50.5	-69.8	3.8	8.46e-01	0	38	104	0	71	35356
2026-01-21 19:38:35.59	104.74	6.94	-50.2	-69.4	3.8	8.47e-01	0	38	104	0	70	36061
2026-01-21 19:38:37.58	104.50	6.78	-50.6	-69.8	3.8	8.47e-01	0	38	104	0	71	35309
2026-01-21 19:38:39.56	104.27	6.62	-50.6	-69.7	3.8	8.46e-01	0	38	104	0	71	35253
2026-01-21 19:38:41.55	104.03	6.47	-50.6	-69.7	3.8	8.47e-01	0	38	104	0	71	35230
2026-01-21 19:38:43.53	103.81	6.31	-50.6	-69.7	3.8	8.47e-01	0	38	104	0	71	35213
2026-01-21 19:38:45.52	103.58	6.16	-50.6	-69.7	3.8	8.47e-01	0	38	104	0	71	35231
2026-01-21 19:38:47.50	103.36	6.01	-50.6	-69.7	3.8	8.47e-01	0	38	104	0	71	35199
2026-01-21 19:38:49.49	103.14	5.86	-50.6	-69.7	3.9	8.46e-01	0	38	104	0	71	35208
2026-01-21 19:38:51.48	102.92	5.71	-50.6	-69.7	3.8	8.47e-01	0	38	104	0	71	35194
2026-01-21 19:38:53.47	102.71	5.56	-50.6	-69.7	3.8	8.47e-01	0	38	104	0	71	35178
2026-01-21 19:38:55.46	102.50	5.41	-50.0	-69.8	3.8	8.46e-01	0	38	104	0	71	35315
2026-01-21 19:38:57.44	102.29	5.27	-50.6	-70.0	3.8	8.47e-01	0	38	104	0	71	36188
2026-01-21 19:38:59.43	102.09	5.12	-50.6	-69.7	3.8	8.47e-01	0	38	104	0	71	35176
2026-01-21 19:39:01.42	101.89	4.97	-50.6	-69.7	3.9	8.47e-01	0	38	104	0	71	35216
2026-01-21 19:39:03.40	101.69	4.83	-50.5	-69.7	3.8	8.46e-01	0	38	104	0	71	35113
2026-01-21 19:39:05.39	101.49	4.69	-50.6	-69.7	3.8	8.46e-01	0	38	104	0	71	35136

#Closed at: 2026-01-21 19:39:07
#Recorded file [0 MB]: D:/Data/31040_260121_223139.dat