passes_logs/2026/01/21/T1/T1__20260121_133530_FENGYUN_3E_rec.log

#Pass ID: 20260121_133530_FENGYUN 3E
#Satellite: FENGYUN 3E
#Configuration: FENGYUN 3E
#almurnet v.1.7.20251203
#Start time: 2026-01-21 13:35:29

#Version: 2.0.20230620
#Station: T1
#Location: 37.570604 lon 55.790049 lat
#TLE: 1 49008U 21062A   26020.99547197  .00000101  00000+0  68509-4 0  9996
#TLE: 2 49008  98.7483  26.0531 0002292 127.4634 232.6751 14.19886023235694

#Time	Az	El	Level	Level2	SNR	BER	BlckErr	Temp	State	Recorded	gain1	gain2
2026-01-21 13:35:29.97	140.94	4.97	-52.2	-62.8	3.8	8.47e-01	0	36	0	0	75	11808
2026-01-21 13:35:32.95	140.84	5.18	-52.2	-62.6	3.8	8.47e-01	0	37	104	0	75	11519
2026-01-21 13:35:35.93	140.75	5.39	-52.1	-62.4	3.8	8.47e-01	0	37	104	0	74	11934
2026-01-21 13:35:38.91	140.65	5.60	-52.0	-62.3	3.8	8.46e-01	0	37	104	0	74	11748
2026-01-21 13:35:41.89	140.55	5.82	-52.0	-61.8	3.8	8.47e-01	0	37	104	0	74	11070
2026-01-21 13:35:44.87	140.45	6.03	-51.9	-61.3	3.8	8.47e-01	0	37	104	0	74	10452
2026-01-21 13:35:47.85	140.35	6.25	-51.8	-61.1	3.8	8.47e-01	0	37	104	0	74	10189
2026-01-21 13:35:50.83	140.24	6.47	-51.9	-61.7	3.8	8.46e-01	0	37	104	0	74	11006
2026-01-21 13:35:53.81	140.13	6.69	-52.2	-62.8	3.8	8.46e-01	0	37	104	0	74	12481
2026-01-21 13:35:56.79	140.03	6.92	-52.1	-62.0	3.8	8.46e-01	0	37	104	0	74	11390
2026-01-21 13:35:59.77	139.92	7.14	-51.7	-60.1	3.9	8.43e-01	0	37	104	0	74	9099
2026-01-21 13:36:02.75	139.81	7.37	-51.2	-57.7	4.8	8.05e-01	0	37	0	0	73	7341
2026-01-21 13:36:05.73	139.69	7.60	-49.7	-53.7	8.0	8.89e-02	0	38	0	12582912	70	5474
2026-01-21 13:36:08.71	139.58	7.83	-46.9	-49.5	12.0	4.23e-04	0	38	0	33554432	64	4787
2026-01-21 13:36:11.69	139.46	8.06	-44.6	-46.5	15.0	0.00e+00	0	38	0	55574528	59	4525
2026-01-21 13:36:14.67	139.34	8.30	-43.2	-44.8	16.6	0.00e+00	0	38	0	76546048	57	4185
2026-01-21 13:36:17.65	139.22	8.54	-43.6	-45.3	16.1	0.00e+00	0	38	0	98566144	56	4699
2026-01-21 13:36:20.63	139.10	8.78	-45.2	-47.1	14.4	0.00e+00	0	38	0	120586240	59	4857
2026-01-21 13:36:23.61	138.97	9.02	-48.1	-51.2	10.3	2.48e-03	0	38	0	141557760	65	5485
2026-01-21 13:36:26.59	138.84	9.26	-48.4	-51.5	10.0	1.77e-02	0	38	0	163577856	67	5081
2026-01-21 13:36:29.58	138.71	9.51	-47.4	-50.1	11.3	3.90e-01	0	38	0	178257920	65	4848
2026-01-21 13:36:32.57	138.58	9.76	-41.5	-43.0	18.2	0.00e+00	0	38	0	200278016	53	4257
2026-01-21 13:36:35.56	138.45	10.01	-41.6	-43.1	18.2	0.00e+00	0	38	0	221249536	53	4297
2026-01-21 13:36:38.54	138.31	10.26	-41.6	-43.0	18.2	0.00e+00	0	38	0	243269632	53	4287
2026-01-21 13:36:41.52	138.17	10.52	-41.5	-42.9	18.3	0.00e+00	0	38	0	264241152	53	4231
2026-01-21 13:36:44.51	138.03	10.78	-41.4	-42.9	18.4	0.00e+00	0	38	0	286261248	53	4227
2026-01-21 13:36:47.49	137.88	11.04	-41.4	-42.8	18.4	0.00e+00	0	38	0	308281344	53	4187
2026-01-21 13:36:50.48	137.73	11.30	-41.3	-42.7	18.5	0.00e+00	0	38	0	329252864	53	4127
2026-01-21 13:36:53.46	137.58	11.57	-41.0	-42.5	18.8	0.00e+00	0	38	0	351272960	52	4243
2026-01-21 13:36:56.45	137.43	11.84	-41.0	-42.4	18.8	0.00e+00	0	39	0	372244480	52	4204
2026-01-21 13:36:59.54	137.27	12.12	-40.7	-42.1	19.2	0.00e+00	0	38	0	395313152	52	4062
2026-01-21 13:37:02.39	137.11	12.38	-40.8	-42.2	19.1	0.00e+00	0	38	0	415236096	52	4120
2026-01-21 13:37:05.51	136.94	12.67	-40.7	-42.1	19.2	0.00e+00	0	38	0	438304768	51	4310
2026-01-21 13:37:08.36	136.78	12.94	-40.7	-42.1	19.3	0.00e+00	0	38	0	458227712	51	4304
2026-01-21 13:37:11.57	136.60	13.25	-40.5	-41.9	19.4	0.00e+00	0	38	0	481296384	51	4214
2026-01-21 13:37:14.41	136.44	13.52	-40.5	-41.9	19.4	0.00e+00	0	38	0	502267904	51	4219
2026-01-21 13:37:17.53	136.25	13.82	-40.3	-41.6	19.6	0.00e+00	0	39	0	525336576	51	4097
2026-01-21 13:37:20.37	136.08	14.10	-40.2	-41.5	19.8	0.00e+00	0	39	0	545259520	51	4032
2026-01-21 13:37:23.50	135.89	14.41	-40.3	-41.6	19.7	0.00e+00	0	39	0	568328192	51	4097
2026-01-21 13:37:26.34	135.71	14.70	-40.3	-41.6	19.6	0.00e+00	0	39	0	588251136	51	4092
2026-01-21 13:37:29.61	135.50	15.03	-40.3	-41.6	19.7	0.00e+00	0	39	0	612368384	51	4083
2026-01-21 13:37:32.31	135.32	15.31	-40.2	-41.5	19.8	0.00e+00	0	39	0	631242752	51	4027
2026-01-21 13:37:35.58	135.10	15.65	-40.0	-41.3	19.9	0.00e+00	0	39	0	655360000	50	4176
2026-01-21 13:37:38.51	134.90	15.96	-39.9	-41.3	20.0	0.00e+00	0	39	0	676331520	50	4165
2026-01-21 13:37:41.50	134.69	16.27	-39.7	-41.0	20.1	0.00e+00	0	39	0	697303040	50	4040
2026-01-21 13:37:44.49	134.47	16.60	-39.6	-40.9	20.3	0.00e+00	0	39	0	719323136	49	4223
2026-01-21 13:37:47.48	134.26	16.92	-39.4	-40.7	20.4	0.00e+00	0	39	0	741343232	49	4120
2026-01-21 13:37:50.46	134.03	17.25	-39.3	-40.6	20.5	0.00e+00	0	39	0	762314752	49	4091
2026-01-21 13:37:53.44	133.80	17.58	-39.2	-40.6	20.6	0.00e+00	0	39	0	784334848	48	4298
2026-01-21 13:37:56.43	133.57	17.92	-39.1	-40.4	20.7	0.00e+00	0	39	0	805306368	48	4220
2026-01-21 13:37:59.42	133.33	18.27	-39.1	-40.4	20.7	0.00e+00	0	39	0	827326464	48	4199
2026-01-21 13:38:02.47	133.08	18.62	-39.0	-40.3	20.7	0.00e+00	0	39	0	849346560	48	4166
2026-01-21 13:38:05.45	132.83	18.97	-38.8	-40.2	20.9	0.00e+00	0	39	0	870318080	48	4102
2026-01-21 13:38:08.44	132.57	19.32	-38.6	-40.0	20.7	0.00e+00	0	39	0	892338176	47	4245
2026-01-21 13:38:11.43	132.30	19.69	-38.7	-40.0	20.6	0.00e+00	0	39	0	914358272	47	4280
2026-01-21 13:38:14.41	132.03	20.05	-38.5	-39.8	20.8	0.00e+00	0	39	0	935329792	47	4175
2026-01-21 13:38:17.43	131.75	20.42	-38.3	-39.6	21.0	0.00e+00	0	39	0	957349888	47	4085
2026-01-21 13:38:20.41	131.47	20.79	-38.3	-39.7	21.0	0.00e+00	0	39	0	978321408	46	4342
2026-01-21 13:38:23.39	131.18	21.17	-38.3	-39.6	21.0	0.00e+00	0	39	0	1000341504	46	4314
2026-01-21 13:38:26.38	130.88	21.56	-38.3	-39.6	21.1	0.00e+00	0	39	0	1022361600	46	4292
2026-01-21 13:38:29.36	130.57	21.94	-38.3	-39.6	21.1	0.00e+00	0	39	0	1043333120	46	4293
2026-01-21 13:38:32.34	130.26	22.34	-38.4	-39.8	21.0	0.00e+00	0	39	0	1065353216	46	4395
2026-01-21 13:38:35.33	129.94	22.74	-38.6	-39.9	20.9	0.00e+00	0	39	0	1086324736	46	4461
2026-01-21 13:38:38.31	129.60	23.14	-38.5	-39.9	20.9	0.00e+00	0	39	0	1107296256	47	4203
2026-01-21 13:38:41.49	129.24	23.58	-38.5	-39.9	20.8	0.00e+00	0	39	0	1130364928	47	4217
2026-01-21 13:38:44.33	128.91	23.97	-38.7	-40.0	20.7	0.00e+00	0	39	0	1151336448	47	4281
2026-01-21 13:38:47.46	128.53	24.41	-38.5	-39.9	20.8	0.00e+00	0	39	0	1173356544	47	4232
2026-01-21 13:38:50.34	128.18	24.82	-38.5	-39.9	20.7	0.00e+00	0	39	0	1194328064	47	4226
2026-01-21 13:38:53.46	127.78	25.27	-38.6	-40.0	20.7	0.00e+00	0	39	0	1217396736	47	4284
2026-01-21 13:38:56.30	127.41	25.69	-38.5	-39.9	20.7	0.00e+00	0	39	0	1237319680	47	4241
2026-01-21 13:38:59.43	126.98	26.15	-38.3	-39.7	20.9	0.00e+00	0	39	0	1260388352	47	4110
2026-01-21 13:39:02.28	126.59	26.58	-38.1	-39.5	21.2	0.00e+00	0	39	0	1281359872	46	4262
2026-01-21 13:39:05.40	126.14	27.06	-37.9	-39.3	21.3	0.00e+00	0	39	0	1303379968	46	4146
2026-01-21 13:39:08.24	125.73	27.50	-37.5	-38.8	21.7	0.00e+00	0	39	0	1324351488	45	4163
2026-01-21 13:39:11.37	125.25	27.99	-37.7	-38.9	21.7	0.00e+00	0	39	0	1346371584	45	4215
2026-01-21 13:39:14.21	124.81	28.44	-37.3	-38.5	22.0	0.00e+00	0	39	0	1367343104	45	4033
2026-01-21 13:39:17.67	124.26	28.99	-37.4	-38.6	21.9	0.00e+00	0	39	0	1391460352	45	4078
2026-01-21 13:39:20.37	123.81	29.43	-37.7	-39.0	21.6	0.00e+00	0	39	0	1411383296	45	4281
2026-01-21 13:39:23.66	123.24	29.97	-37.8	-39.1	21.4	0.00e+00	0	39	0	1435500544	46	4094
2026-01-21 13:39:26.36	122.77	30.42	-37.9	-39.3	21.3	0.00e+00	0	39	0	1454374912	45	4395
2026-01-21 13:39:29.88	122.13	31.01	-38.1	-39.5	21.1	0.00e+00	0	39	0	1480589312	45	4506
2026-01-21 13:39:32.81	121.57	31.51	-38.0	-39.4	21.2	0.00e+00	0	39	0	1501560832	46	4205
2026-01-21 13:39:36.77	120.80	32.19	-38.0	-39.3	21.3	0.00e+00	0	39	0	1529872384	46	4188
2026-01-21 13:39:39.61	120.22	32.69	-37.6	-38.9	21.7	0.00e+00	0	39	0	1549795328	46	3986
2026-01-21 13:39:43.59	119.38	33.39	-37.4	-38.6	21.9	0.00e+00	0	39	0	1579155456	44	4332
2026-01-21 13:39:46.40	118.77	33.90	-37.3	-38.6	22.0	0.00e+00	0	39	0	1599078400	44	4301
2026-01-21 13:39:49.59	118.05	34.47	-37.4	-38.7	21.9	0.00e+00	0	39	0	1622147072	44	4349
2026-01-21 13:39:52.44	117.38	34.99	-37.5	-38.7	21.8	0.00e+00	0	39	0	1643118592	45	4136
2026-01-21 13:39:55.57	116.62	35.56	-37.6	-38.9	21.6	0.00e+00	0	39	0	1665138688	45	4216
2026-01-21 13:39:58.41	115.91	36.09	-37.6	-38.9	21.6	0.00e+00	0	39	0	1686110208	45	4217
2026-01-21 13:40:01.53	115.10	36.67	-37.5	-38.8	21.8	0.00e+00	0	39	0	1709178880	45	4163
2026-01-21 13:40:04.37	114.34	37.20	-37.6	-38.8	21.8	0.00e+00	0	39	0	1729101824	45	4184
2026-01-21 13:40:07.50	113.47	37.79	-37.4	-38.7	21.9	0.00e+00	0	39	0	1752170496	45	4099
2026-01-21 13:40:10.35	112.65	38.33	-37.5	-38.8	21.7	0.00e+00	0	39	0	1772093440	45	4164
2026-01-21 13:40:13.48	111.72	38.92	-37.6	-38.8	21.7	0.00e+00	0	39	0	1795162112	45	4191
2026-01-21 13:40:16.32	110.84	39.46	-38.0	-38.8	22.4	0.00e+00	0	39	0	1815085056	45	4161
2026-01-21 13:40:19.45	109.84	40.05	-38.3	-39.2	22.1	0.00e+00	0	39	0	1838153728	46	4107
2026-01-21 13:40:22.29	108.91	40.59	-38.6	-39.5	21.9	0.00e+00	0	39	0	1858076672	46	4245
2026-01-21 13:40:25.42	107.83	41.18	-38.5	-39.3	22.0	0.00e+00	0	39	0	1881145344	47	3938
2026-01-21 13:40:28.26	106.83	41.72	-38.4	-39.3	22.0	0.00e+00	0	39	0	1901068288	47	3920
2026-01-21 13:40:31.59	105.60	42.35	-38.3	-39.1	22.2	0.00e+00	0	39	0	1925185536	47	3846
2026-01-21 13:40:34.32	104.56	42.86	-38.3	-39.1	22.2	0.00e+00	0	39	0	1945108480	46	4085
2026-01-21 13:40:37.60	103.27	43.46	-38.7	-39.5	21.8	0.00e+00	0	39	0	1969225728	46	4271
2026-01-21 13:40:40.47	102.09	43.99	-38.7	-39.5	21.8	0.00e+00	0	39	0	1989148672	47	4047
2026-01-21 13:40:43.74	100.71	44.57	-38.5	-39.3	22.0	0.00e+00	0	39	0	2013265920	47	3941
2026-01-21 13:40:46.82	99.36	45.12	-38.1	-39.0	22.3	0.00e+00	0	39	0	2035286016	46	4011
2026-01-21 13:40:49.95	97.94	45.66	-38.3	-39.1	22.2	0.00e+00	0	39	0	2058354688	46	4070
2026-01-21 13:40:52.79	96.60	46.14	-38.7	-39.6	21.8	0.00e+00	0	39	0	2078277632	47	4055
2026-01-21 13:40:55.92	95.09	46.66	-39.0	-39.8	21.5	0.00e+00	0	39	0	2101346304	47	4189
2026-01-21 13:40:58.76	93.67	47.11	-38.7	-39.6	21.8	0.00e+00	0	39	0	2121269248	47	4075
2026-01-21 13:41:01.98	92.01	47.61	-39.1	-40.0	21.4	0.00e+00	0	39	0	2145386496	47	4267
2026-01-21 13:41:04.83	90.50	48.03	-39.5	-40.4	21.5	0.00e+00	0	39	0	2165309440	48	4222
2026-01-21 13:41:07.89	88.83	48.46	-39.0	-39.8	22.0	0.00e+00	0	39	0	2187329536	48	3947
2026-01-21 13:41:10.88	87.16	48.86	-39.6	-40.5	21.4	0.00e+00	0	39	0	2209349632	48	4244
2026-01-21 13:41:13.86	85.45	49.23	-39.8	-40.7	21.2	0.00e+00	0	39	0	2230321152	49	4142
2026-01-21 13:41:16.84	83.69	49.58	-39.6	-40.5	21.4	0.00e+00	0	39	0	2252341248	49	4032
2026-01-21 13:41:19.93	81.83	49.92	-39.2	-40.0	21.8	0.00e+00	0	39	0	2274361344	49	3822
2026-01-21 13:41:22.82	80.06	50.20	-39.2	-40.0	21.8	0.00e+00	0	39	0	2295332864	48	4050
2026-01-21 13:41:26.11	78.00	50.49	-39.6	-40.5	21.4	0.00e+00	0	39	0	2319450112	48	4262
2026-01-21 13:41:28.92	76.22	50.71	-39.4	-40.3	21.6	0.00e+00	0	39	0	2339373056	48	4169
2026-01-21 13:41:32.04	74.20	50.91	-39.5	-40.3	21.6	0.00e+00	0	39	0	2362441728	48	4189
2026-01-21 13:41:34.89	72.34	51.07	-39.4	-40.2	21.6	0.00e+00	0	39	0	2382364672	48	4142
2026-01-21 13:41:38.01	70.28	51.21	-39.3	-40.2	21.7	0.00e+00	0	39	0	2405433344	48	4113
2026-01-21 13:41:40.95	68.33	51.30	-39.4	-40.2	21.6	0.00e+00	0	39	0	2426404864	48	4136
2026-01-21 13:41:44.14	66.20	51.36	-39.3	-40.2	21.7	0.00e+00	0	39	0	2449473536	48	4113
2026-01-21 13:41:47.03	64.27	51.38	-39.2	-40.0	21.8	0.00e+00	0	39	0	2470445056	48	4050
2026-01-21 13:41:50.26	62.11	51.36	-39.6	-40.4	21.5	0.00e+00	0	39	0	2493513728	48	4225
2026-01-21 13:41:53.11	60.20	51.30	-39.4	-40.2	21.7	0.00e+00	0	39	0	2514485248	48	4143
2026-01-21 13:41:56.58	57.90	51.20	-39.4	-40.2	21.6	0.00e+00	0	39	0	2539651072	48	4142
2026-01-21 13:41:59.29	56.11	51.08	-39.3	-40.1	21.7	0.00e+00	0	39	0	2558525440	48	4083
2026-01-21 13:42:02.57	53.97	50.90	-39.2	-40.0	21.8	0.00e+00	0	39	0	2582642688	48	4033
2026-01-21 13:42:05.29	52.22	50.72	-39.5	-40.4	21.5	0.00e+00	0	39	0	2602565632	48	4218
2026-01-21 13:42:08.56	50.14	50.46	-39.2	-40.1	21.8	0.00e+00	0	39	0	2625634304	48	4056
2026-01-21 13:42:11.27	48.45	50.22	-39.4	-40.3	21.6	0.00e+00	0	39	0	2644508672	48	4173
2026-01-21 13:42:14.54	46.45	49.90	-39.2	-40.0	21.8	0.00e+00	0	39	0	2668625920	48	4043
2026-01-21 13:42:17.46	44.69	49.59	-39.9	-40.8	21.2	0.00e+00	0	39	0	2689597440	49	4161
2026-01-21 13:42:20.97	42.64	49.17	-39.5	-40.4	21.5	0.00e+00	0	39	0	2714763264	49	3974
2026-01-21 13:42:23.70	41.08	48.83	-39.4	-40.2	21.6	0.00e+00	0	39	0	2734686208	49	3910
2026-01-21 13:42:27.01	39.23	48.38	-38.9	-39.7	22.0	0.00e+00	0	39	0	2758803456	48	3913
2026-01-21 13:42:29.71	37.77	48.00	-39.1	-39.9	21.9	0.00e+00	0	39	0	2777677824	48	4001
2026-01-21 13:42:32.99	36.04	47.52	-39.1	-40.0	21.8	0.00e+00	0	39	0	2801795072	48	4027
2026-01-21 13:42:35.69	34.66	47.10	-38.2	-39.0	22.2	0.00e+00	0	39	0	2821718016	47	3824
2026-01-21 13:42:38.96	33.03	46.58	-38.7	-39.5	21.8	0.00e+00	0	39	0	2844786688	47	4040
2026-01-21 13:42:41.66	31.73	46.13	-38.5	-39.4	22.0	0.00e+00	0	39	0	2864709632	47	3975
2026-01-21 13:42:45.52	29.94	45.48	-38.4	-39.2	22.1	0.00e+00	0	39	0	2891972608	47	3910
2026-01-21 13:42:48.36	28.66	44.98	-38.2	-39.0	22.3	0.00e+00	0	39	0	2912944128	47	3803
2026-01-21 13:42:52.37	26.93	44.27	-38.1	-39.0	22.3	0.00e+00	0	39	0	2941255680	46	4008
2026-01-21 13:42:55.34	25.70	43.73	-38.2	-39.0	22.3	0.00e+00	0	39	0	2963275776	46	4044
2026-01-21 13:42:58.73	24.35	43.11	-38.4	-39.2	22.1	0.00e+00	0	39	0	2987393024	46	4135
2026-01-21 13:43:01.94	23.11	42.52	-38.0	-38.8	22.5	0.00e+00	0	39	0	3011510272	46	3941
2026-01-21 13:43:04.83	22.04	41.98	-38.3	-39.1	22.2	0.00e+00	0	39	0	3031433216	46	4071
2026-01-21 13:43:08.12	20.86	41.36	-38.4	-39.2	22.1	0.00e+00	0	39	0	3055550464	46	4141
2026-01-21 13:43:10.90	19.90	40.84	-38.3	-39.1	22.2	0.00e+00	0	39	0	3075473408	46	4073
2026-01-21 13:43:14.09	18.84	40.23	-38.2	-39.0	22.3	0.00e+00	0	39	0	3098542080	46	4043
2026-01-21 13:43:16.93	17.92	39.69	-38.0	-38.8	22.5	0.00e+00	0	39	0	3119513600	46	3951
2026-01-21 13:43:20.07	16.95	39.10	-38.3	-39.2	22.1	0.00e+00	0	39	0	3141533696	46	4118
2026-01-21 13:43:23.20	16.01	38.51	-38.3	-39.2	22.2	0.00e+00	0	39	0	3164602368	46	4123
2026-01-21 13:43:26.04	15.19	37.98	-37.9	-38.7	22.5	0.00e+00	0	39	0	3184525312	46	3902
2026-01-21 13:43:29.17	14.31	37.39	-37.8	-38.6	22.6	0.00e+00	0	39	0	3207593984	46	3865
2026-01-21 13:43:32.01	13.55	36.86	-38.4	-39.2	22.1	0.00e+00	0	39	0	3227516928	46	4127
2026-01-21 13:43:35.24	12.71	36.26	-38.1	-38.9	22.4	0.00e+00	0	39	0	3251634176	46	3990
2026-01-21 13:43:38.23	11.95	35.71	-37.9	-38.8	22.5	0.00e+00	0	39	0	3272605696	46	3920
2026-01-21 13:43:41.22	11.23	35.16	-37.7	-38.5	22.7	0.00e+00	0	39	0	3294625792	46	3819
2026-01-21 13:43:44.20	10.53	34.62	-37.9	-38.8	22.5	0.00e+00	0	39	0	3315597312	46	3922
2026-01-21 13:43:47.19	9.85	34.08	-37.8	-38.6	22.6	0.00e+00	0	39	0	3337617408	46	3851
2026-01-21 13:43:50.19	9.19	33.55	-37.8	-38.6	22.7	0.00e+00	0	39	0	3359637504	46	3835
2026-01-21 13:43:53.17	8.56	33.02	-38.0	-38.8	22.5	0.00e+00	0	39	0	3380609024	46	3938
2026-01-21 13:43:56.41	7.89	32.45	-38.1	-38.9	22.4	0.00e+00	0	39	0	3403677696	46	4000
2026-01-21 13:43:59.32	7.31	31.95	-38.0	-38.8	22.4	0.00e+00	0	39	0	3424649216	46	3954
2026-01-21 13:44:02.61	6.68	31.39	-38.1	-38.9	22.3	0.00e+00	0	39	0	3448766464	46	4002
2026-01-21 13:44:05.32	6.18	30.93	-38.2	-39.0	22.3	0.00e+00	0	39	0	3468689408	46	4031
2026-01-21 13:44:08.59	5.59	30.38	-38.1	-38.9	22.4	0.00e+00	0	39	0	3491758080	46	3979
2026-01-21 13:44:11.31	5.11	29.93	-38.3	-39.1	22.2	0.00e+00	0	39	0	3511681024	46	4088
2026-01-21 13:44:14.67	4.54	29.38	-38.4	-39.3	22.0	0.00e+00	0	39	0	3535798272	46	4157
2026-01-21 13:44:17.46	4.09	28.93	-38.4	-39.2	22.1	0.00e+00	0	39	0	3555721216	46	4136
2026-01-21 13:44:20.73	3.57	28.41	-38.3	-39.1	22.2	0.00e+00	0	39	0	3579838464	46	4093
2026-01-21 13:44:23.46	3.15	27.98	-38.5	-39.4	22.0	0.00e+00	0	39	0	3599761408	46	4194
2026-01-21 13:44:26.79	2.65	27.47	-38.5	-39.3	21.8	0.00e+00	0	39	0	3623878656	46	4169
2026-01-21 13:44:29.55	2.25	27.04	-38.4	-39.3	22.1	0.00e+00	0	39	0	3643801600	46	4148
2026-01-21 13:44:33.10	1.75	26.51	-38.6	-39.5	21.7	0.00e+00	0	39	0	3668967424	46	4260
2026-01-21 13:44:36.02	1.35	26.07	-38.5	-39.3	22.0	0.00e+00	0	39	0	3689938944	46	4188
2026-01-21 13:44:39.29	0.92	25.59	-38.5	-39.3	21.9	0.00e+00	0	39	0	3714056192	46	4177
2026-01-21 13:44:41.99	0.57	25.20	-38.5	-39.3	22.0	0.00e+00	0	39	0	3732930560	46	4185
2026-01-21 13:44:45.47	0.13	24.70	-38.5	-39.4	21.9	0.00e+00	0	39	0	3758096384	46	4224
2026-01-21 13:44:48.21	359.80	24.31	-38.6	-39.4	21.9	0.00e+00	0	39	0	3778019328	46	4231
2026-01-21 13:44:51.51	359.41	23.85	-38.4	-39.2	22.1	0.00e+00	0	39	0	3802136576	46	4129
2026-01-21 13:44:54.24	359.10	23.48	-38.3	-39.2	22.1	0.00e+00	0	39	0	3822059520	46	4105
2026-01-21 13:44:57.51	358.73	23.03	-38.3	-39.1	22.1	0.00e+00	0	39	0	3845128192	46	4092
2026-01-21 13:45:00.24	358.43	22.67	-38.5	-39.4	21.9	0.00e+00	0	39	0	3865051136	46	4211
2026-01-21 13:45:03.94	358.04	22.18	-38.8	-39.6	21.7	0.00e+00	0	39	0	3891265536	46	4335
2026-01-21 13:45:06.67	357.76	21.82	-38.9	-39.8	21.5	0.00e+00	0	39	0	3911188480	47	4185
2026-01-21 13:45:09.96	357.43	21.40	-39.1	-40.0	21.4	0.00e+00	0	39	0	3935305728	47	4252
2026-01-21 13:45:12.67	357.17	21.05	-39.1	-40.0	21.4	0.00e+00	0	39	0	3954180096	47	4267
2026-01-21 13:45:16.04	356.84	20.63	-39.0	-39.9	21.4	0.00e+00	0	39	0	3979345920	47	4232
2026-01-21 13:45:18.87	356.58	20.28	-39.0	-39.9	21.4	0.00e+00	0	39	0	3999268864	47	4229
2026-01-21 13:45:22.15	356.29	19.88	-39.1	-39.9	21.4	0.00e+00	0	39	0	4023386112	47	4239
2026-01-21 13:45:24.87	356.04	19.55	-39.2	-40.1	21.3	0.00e+00	0	39	0	4042260480	47	4295
2026-01-21 13:45:28.20	355.76	19.16	-39.3	-40.2	21.5	0.00e+00	0	39	0	4066377728	48	4109
2026-01-21 13:45:30.92	355.53	18.84	-39.3	-40.2	21.5	0.00e+00	0	39	0	4086300672	48	4128
2026-01-21 13:45:34.10	355.27	18.47	-39.6	-40.5	21.2	0.00e+00	0	39	0	4109369344	48	4254
2026-01-21 13:45:37.09	355.03	18.13	-39.7	-40.6	21.2	0.00e+00	0	39	0	4131389440	49	4065
2026-01-21 13:45:40.08	354.79	17.79	-39.9	-40.8	20.9	0.00e+00	0	39	0	4152360960	49	4184
2026-01-21 13:45:43.06	354.57	17.45	-40.1	-41.1	20.7	0.00e+00	0	39	0	4174381056	49	4313
2026-01-21 13:45:46.05	354.34	17.12	-40.2	-41.1	20.5	0.00e+00	0	39	0	4195352576	49	4340
2026-01-21 13:45:49.04	354.12	16.80	-40.2	-41.2	20.6	0.00e+00	0	39	0	4217372672	50	4106
2026-01-21 13:45:52.02	353.91	16.48	-40.3	-41.2	20.6	0.00e+00	0	39	0	4238344192	50	4131
2026-01-21 13:45:55.00	353.70	16.16	-40.2	-41.2	20.6	0.00e+00	0	39	0	4260364288	50	4109
2026-01-21 13:45:57.98	353.50	15.84	-40.3	-41.2	20.6	0.00e+00	0	39	0	4281335808	50	4140
2026-01-21 13:46:00.93	353.30	15.54	-40.3	-41.3	20.5	0.00e+00	0	39	0	4303355904	50	4160
2026-01-21 13:46:03.92	353.11	15.23	-40.5	-41.5	20.4	0.00e+00	0	39	0	4324327424	50	4245
2026-01-21 13:46:06.94	352.92	14.92	-40.5	-41.5	20.3	0.00e+00	0	39	0	4346347520	50	4277
2026-01-21 13:46:09.99	352.72	14.62	-40.7	-41.7	20.1	0.00e+00	0	39	0	4368367616	50	4352
2026-01-21 13:46:12.89	352.55	14.33	-40.7	-41.7	20.1	0.00e+00	0	40	0	4389339136	51	4113
2026-01-21 13:46:16.02	352.36	14.02	-40.8	-41.8	20.0	0.00e+00	0	39	0	4411359232	51	4183
2026-01-21 13:46:18.86	352.19	13.74	-40.7	-41.7	20.1	0.00e+00	0	39	0	4432330752	51	4131
2026-01-21 13:46:22.01	352.01	13.44	-40.9	-41.9	19.9	0.00e+00	0	39	0	4455399424	51	4207
2026-01-21 13:46:24.93	351.85	13.16	-40.9	-41.9	19.9	0.00e+00	0	39	0	4476370944	51	4233
2026-01-21 13:46:28.10	351.67	12.86	-41.0	-42.1	19.6	0.00e+00	0	39	0	4499439616	51	4324
2026-01-21 13:46:30.94	351.52	12.60	-41.1	-42.3	19.5	0.00e+00	0	39	0	4519362560	51	4409
2026-01-21 13:46:34.01	351.36	12.32	-41.2	-42.4	19.3	0.00e+00	0	39	0	4541382656	52	4216
2026-01-21 13:46:37.00	351.20	12.04	-41.3	-42.4	19.3	0.00e+00	0	39	0	4563402752	52	4239
2026-01-21 13:46:39.98	351.05	11.78	-41.4	-42.6	19.1	0.00e+00	0	39	0	4585422848	52	4323
2026-01-21 13:46:42.97	350.90	11.51	-41.4	-42.7	19.1	0.00e+00	0	39	0	4606394368	52	4346
2026-01-21 13:46:45.95	350.75	11.24	-41.4	-42.7	19.0	0.00e+00	0	39	0	4628414464	52	4372
2026-01-21 13:46:49.02	350.61	10.98	-41.3	-42.7	18.9	0.00e+00	0	39	0	4650434560	52	4362
2026-01-21 13:46:51.86	350.47	10.73	-41.2	-42.8	18.9	0.00e+00	0	39	0	4670357504	52	4394
2026-01-21 13:46:54.99	350.33	10.46	-41.4	-43.0	18.7	0.00e+00	0	39	0	4693426176	52	4504
2026-01-21 13:46:57.83	350.20	10.22	-41.5	-43.0	18.7	0.00e+00	0	39	0	4713349120	52	4524
2026-01-21 13:47:01.03	350.06	9.95	-41.8	-43.1	18.5	0.00e+00	0	39	0	4736417792	53	4332
2026-01-21 13:47:03.94	349.93	9.71	-41.9	-43.1	18.5	0.00e+00	0	39	0	4757389312	53	4338
2026-01-21 13:47:07.07	349.80	9.45	-41.8	-43.0	18.6	0.00e+00	0	39	0	4780457984	53	4280
2026-01-21 13:47:09.92	349.68	9.22	-41.9	-43.2	18.4	0.00e+00	0	39	0	4800380928	53	4361
2026-01-21 13:47:13.04	349.55	8.96	-48.5	-61.3	3.8	1.38e-03	0	39	104	4822401024	66	16540
2026-01-21 13:47:15.88	349.43	8.73	-52.5	-63.5	3.8	8.46e-01	0	39	104	4822401024	74	13518
2026-01-21 13:47:19.00	349.31	8.49	-53.0	-63.7	3.8	8.47e-01	0	39	104	4822401024	75	13107
2026-01-21 13:47:21.84	349.20	8.26	-52.6	-63.8	3.8	8.47e-01	0	39	104	4822401024	75	13176
2026-01-21 13:47:24.96	349.08	8.02	-53.0	-63.9	3.8	8.48e-01	0	39	104	4822401024	75	13340
2026-01-21 13:47:27.80	348.97	7.80	-53.1	-63.8	3.8	8.47e-01	0	39	104	4822401024	75	13243
2026-01-21 13:47:30.92	348.85	7.56	-53.2	-63.9	3.8	8.47e-01	0	39	104	4822401024	75	13370
2026-01-21 13:47:33.76	348.75	7.34	-53.3	-64.0	3.8	8.46e-01	0	39	104	4822401024	76	12718
2026-01-21 13:47:36.88	348.64	7.11	-53.2	-64.0	3.8	8.46e-01	0	39	104	4822401024	76	12671
2026-01-21 13:47:39.71	348.54	6.89	-52.9	-63.9	3.8	8.48e-01	0	39	104	4822401024	76	12646
2026-01-21 13:47:42.84	348.43	6.66	-53.0	-63.9	3.8	8.47e-01	0	39	104	4822401024	76	12523
2026-01-21 13:47:45.67	348.33	6.45	-52.9	-63.8	3.8	8.46e-01	0	39	104	4822401024	76	12468
2026-01-21 13:47:48.80	348.23	6.22	-52.9	-63.9	3.8	8.47e-01	0	39	104	4822401024	76	12584
2026-01-21 13:47:51.64	348.14	6.02	-52.9	-63.9	3.8	8.47e-01	0	40	104	4822401024	76	12533
2026-01-21 13:47:54.76	348.04	5.79	-52.9	-63.9	3.8	8.46e-01	0	39	104	4822401024	76	12520
2026-01-21 13:47:57.60	347.95	5.59	-52.9	-63.8	3.8	8.47e-01	0	39	104	4822401024	76	12434
2026-01-21 13:48:00.72	347.85	5.37	-52.9	-63.8	3.8	8.48e-01	0	39	104	4822401024	76	12498
2026-01-21 13:48:03.56	347.76	5.17	-52.9	-63.8	3.8	8.47e-01	0	40	104	4822401024	76	12484
2026-01-21 13:48:06.68	347.67	4.95	-52.9	-63.9	3.8	8.47e-01	0	39	104	4822401024	76	12527

#Closed at: 2026-01-21 13:48:07
#Recorded file [4822 MB]: D:/Data/31040_260121_163529.dat