passes_logs/2026/01/21/T1/T1__20260121_232429_NOAA_20_JPSS-1_rec.log

#Pass ID: 20260121_232429_NOAA 20 (JPSS-1)
#Satellite: NOAA 20 (JPSS-1)
#Configuration: NOAA 20
#almurnet v.1.7.20251203
#Start time: 2026-01-21 23:24:29

#Version: 2.0.20230620
#Station: T1
#Location: 37.570604 lon 55.790049 lat
#TLE: 1 43013U 17073A   26021.46221703  .00000173  00000+0  10299-3 0  9999
#TLE: 2 43013  98.7644 322.3335 0001238  29.7597 330.3649 14.19538314423652

#Time	Az	El	Level	Level2	SNR	BER	BlckErr	Temp	State	Recorded	gain1	gain2
2026-01-21 23:24:29.98	18.31	5.01	-48.9	-65.6	3.8	1.49e+00	0	35	0	0	68	25861
2026-01-21 23:24:33.94	18.39	5.29	-48.9	-65.3	3.8	1.49e+00	0	35	104	0	68	25246
2026-01-21 23:24:37.92	18.47	5.58	-48.9	-65.3	3.8	1.49e+00	0	36	104	0	68	25122
2026-01-21 23:24:41.89	18.55	5.86	-48.9	-65.4	3.8	1.49e+00	0	36	104	0	68	25332
2026-01-21 23:24:45.86	18.63	6.16	-48.9	-65.5	3.8	1.49e+00	0	36	104	0	68	25598
2026-01-21 23:24:49.84	18.71	6.45	-48.9	-65.4	3.8	1.49e+00	0	36	104	0	68	25343
2026-01-21 23:24:53.81	18.79	6.75	-48.9	-64.9	3.8	1.49e+00	0	36	104	0	68	23923
2026-01-21 23:24:57.78	18.88	7.05	-48.9	-63.9	3.9	1.49e+00	0	36	104	0	68	21271
2026-01-21 23:25:01.75	18.97	7.35	-48.8	-62.8	3.9	1.48e+00	0	36	104	0	68	18899
2026-01-21 23:25:05.73	19.05	7.66	-48.8	-62.1	4.2	1.41e+00	0	37	0	0	68	17293
2026-01-21 23:25:09.70	19.14	7.97	-48.7	-61.5	4.3	1.33e+00	0	37	0	0	68	16307
2026-01-21 23:25:13.67	19.23	8.29	-48.5	-59.4	5.3	6.92e-01	0	37	0	7340032	68	12712
2026-01-21 23:25:17.65	19.33	8.61	-47.8	-55.7	8.3	6.59e-02	0	37	0	14680064	67	8780
2026-01-21 23:25:21.62	19.42	8.93	-47.1	-53.3	10.8	3.09e-03	0	37	0	22020096	66	7041
2026-01-21 23:25:25.60	19.52	9.26	-46.8	-52.5	11.6	2.75e-02	0	37	0	29360128	65	6833
2026-01-21 23:25:29.57	19.62	9.59	-46.3	-51.0	13.2	2.59e-05	0	37	0	36700160	64	6090
2026-01-21 23:25:33.55	19.72	9.93	-45.1	-48.6	15.6	0.00e+00	0	37	0	45088768	62	5206
2026-01-21 23:25:37.53	19.82	10.27	-44.4	-47.5	16.7	0.00e+00	0	37	0	52428800	60	5154
2026-01-21 23:25:41.51	19.92	10.62	-44.2	-47.3	16.9	0.00e+00	0	37	0	59768832	60	4994
2026-01-21 23:25:45.49	20.03	10.97	-44.0	-47.1	17.1	0.00e+00	0	37	0	67108864	59	5162
2026-01-21 23:25:49.47	20.14	11.33	-43.9	-46.9	17.3	0.00e+00	0	37	0	74448896	59	5080
2026-01-21 23:25:53.45	20.25	11.69	-43.9	-46.9	17.3	0.00e+00	0	37	0	81788928	59	5086
2026-01-21 23:25:57.43	20.36	12.06	-43.8	-46.7	17.5	0.00e+00	0	37	0	89128960	59	4976
2026-01-21 23:26:01.41	20.47	12.43	-43.9	-46.8	17.4	0.00e+00	0	37	0	96468992	59	5024
2026-01-21 23:26:05.39	20.59	12.81	-43.9	-46.9	17.4	0.00e+00	0	37	0	104857600	59	5043
2026-01-21 23:26:09.45	20.71	13.20	-43.9	-46.7	17.5	0.00e+00	0	37	0	112197632	59	4981
2026-01-21 23:26:13.57	20.84	13.61	-44.1	-46.9	17.4	0.00e+00	0	38	0	119537664	59	5077
2026-01-21 23:26:17.55	20.97	14.01	-44.2	-47.0	17.3	0.00e+00	0	38	0	126877696	59	5101
2026-01-21 23:26:21.53	21.10	14.41	-44.1	-46.9	17.4	0.00e+00	0	38	0	134217728	59	5051
2026-01-21 23:26:25.51	21.23	14.82	-44.1	-46.8	17.5	0.00e+00	0	38	0	141557760	59	5022
2026-01-21 23:26:29.49	21.37	15.24	-44.1	-46.7	17.6	0.00e+00	0	38	0	149946368	59	4983
2026-01-21 23:26:33.47	21.50	15.66	-44.3	-47.0	17.3	1.67e-05	0	37	0	157286400	59	5114
2026-01-21 23:26:37.45	21.65	16.10	-44.3	-47.0	17.3	0.00e+00	0	38	0	164626432	59	5150
2026-01-21 23:26:41.45	21.79	16.54	-44.4	-47.2	17.2	0.00e+00	0	38	0	171966464	59	5249
2026-01-21 23:26:45.51	21.95	17.00	-44.5	-47.3	17.0	0.00e+00	0	37	0	179306496	59	5333
2026-01-21 23:26:49.50	22.10	17.45	-44.3	-47.1	17.3	0.00e+00	0	38	0	186646528	59	5170
2026-01-21 23:26:53.48	22.26	17.92	-44.4	-47.2	17.2	0.00e+00	0	38	0	193986560	59	5240
2026-01-21 23:26:57.60	22.43	18.41	-44.3	-47.0	17.3	0.00e+00	0	38	0	202375168	59	5157
2026-01-21 23:27:01.56	22.60	18.89	-44.4	-47.1	17.3	0.00e+00	0	38	0	209715200	59	5190
2026-01-21 23:27:05.54	22.77	19.38	-44.6	-47.4	17.0	0.00e+00	0	38	0	217055232	59	5378
2026-01-21 23:27:09.52	22.95	19.88	-44.7	-47.5	17.0	0.00e+00	0	38	0	224395264	60	5143
2026-01-21 23:27:13.57	23.13	20.41	-44.8	-47.6	16.9	0.00e+00	0	38	0	231735296	60	5184
2026-01-21 23:27:17.71	23.33	20.95	-44.6	-47.5	17.0	0.00e+00	0	38	0	240123904	60	5122
2026-01-21 23:27:21.76	23.53	21.49	-44.5	-47.4	17.1	0.00e+00	0	38	0	247463936	60	5054
2026-01-21 23:27:25.79	23.73	22.05	-44.5	-47.4	17.1	0.00e+00	0	38	0	254803968	60	5066
2026-01-21 23:27:29.94	23.95	22.63	-44.5	-47.4	17.2	0.00e+00	0	38	0	263192576	60	5068
2026-01-21 23:27:33.92	24.17	23.20	-44.6	-47.5	17.0	0.00e+00	0	38	0	270532608	60	5131
2026-01-21 23:27:37.90	24.39	23.78	-44.4	-47.2	17.4	0.00e+00	0	38	0	277872640	60	4947
2026-01-21 23:27:41.88	24.62	24.38	-44.4	-47.1	17.4	0.00e+00	0	38	0	285212672	60	4885
2026-01-21 23:27:46.07	24.88	25.02	-44.3	-47.0	17.6	0.00e+00	0	38	0	292552704	60	4828
2026-01-21 23:27:50.09	25.13	25.65	-44.3	-47.0	17.6	0.00e+00	0	38	0	300941312	60	4832
2026-01-21 23:27:54.08	25.39	26.29	-44.2	-46.8	17.7	0.00e+00	0	38	0	308281344	60	4720
2026-01-21 23:27:58.13	25.66	26.96	-44.1	-46.6	17.9	0.00e+00	0	38	0	315621376	60	4637
2026-01-21 23:28:02.22	25.95	27.65	-44.0	-46.5	18.0	0.00e+00	0	38	0	322961408	59	4843
2026-01-21 23:28:06.21	26.24	28.34	-44.2	-46.7	17.8	0.00e+00	0	38	0	331350016	59	4954
2026-01-21 23:28:10.21	26.55	29.04	-44.6	-47.3	17.3	0.00e+00	0	38	0	338690048	59	5293
2026-01-21 23:28:14.20	26.86	29.77	-44.9	-47.8	16.8	0.00e+00	0	38	0	346030080	60	5316
2026-01-21 23:28:18.23	27.20	30.51	-45.4	-48.5	16.2	0.00e+00	0	38	0	353370112	61	5419
2026-01-21 23:28:22.25	27.55	31.28	-45.8	-49.0	15.7	0.00e+00	0	38	0	360710144	62	5421
2026-01-21 23:28:26.49	27.94	32.11	-45.7	-48.8	15.9	0.00e+00	0	38	0	369098752	62	5333
2026-01-21 23:28:30.48	28.32	32.91	-45.6	-48.7	15.9	0.00e+00	0	38	0	376438784	62	5277
2026-01-21 23:28:34.56	28.73	33.74	-45.4	-48.4	16.2	0.00e+00	0	38	0	383778816	62	5100
2026-01-21 23:28:38.81	29.18	34.64	-45.5	-48.5	16.2	0.00e+00	0	38	0	392167424	62	5145
2026-01-21 23:28:42.82	29.62	35.51	-45.9	-49.0	15.6	0.00e+00	0	38	0	399507456	62	5451
2026-01-21 23:28:46.80	30.09	36.40	-46.1	-49.3	15.4	0.00e+00	0	38	0	406847488	62	5644
2026-01-21 23:28:50.79	30.58	37.31	-46.2	-49.5	15.1	0.00e+00	0	38	0	414187520	63	5460
2026-01-21 23:28:54.81	31.11	38.25	-46.9	-50.7	14.0	7.00e-07	0	38	0	421527552	64	5891
2026-01-21 23:28:58.82	31.66	39.21	-47.0	-51.0	13.6	4.50e-06	0	38	0	429916160	64	6078
2026-01-21 23:29:02.80	32.25	40.19	-46.8	-50.4	14.3	0.00e+00	0	38	0	437256192	64	5720
2026-01-21 23:29:06.78	32.87	41.19	-46.9	-50.7	13.9	4.50e-06	0	38	0	444596224	64	5893
2026-01-21 23:29:10.81	33.53	42.23	-46.3	-49.7	15.0	0.00e+00	0	38	0	451936256	64	5250
2026-01-21 23:29:14.89	34.25	43.31	-46.3	-49.6	15.1	0.00e+00	0	38	0	459276288	63	5496
2026-01-21 23:29:18.86	35.00	44.39	-46.2	-49.5	15.2	0.00e+00	0	38	0	466616320	63	5432
2026-01-21 23:29:22.84	35.80	45.50	-46.0	-49.2	15.5	0.00e+00	0	38	0	475004928	63	5270
2026-01-21 23:29:26.88	36.68	46.64	-46.4	-49.8	15.0	0.00e+00	0	38	0	482344960	63	5631
2026-01-21 23:29:31.40	37.73	47.96	-46.6	-50.1	14.6	0.00e+00	0	38	0	490733568	64	5490
2026-01-21 23:29:35.39	38.74	49.14	-45.9	-49.0	15.8	0.00e+00	0	38	0	498073600	63	5144
2026-01-21 23:29:39.38	39.83	50.34	-44.7	-47.4	17.3	0.00e+00	0	38	0	505413632	61	4763
2026-01-21 23:29:43.51	41.05	51.62	-43.6	-46.0	18.5	0.00e+00	0	38	0	513802240	59	4552
2026-01-21 23:29:47.49	42.33	52.86	-41.4	-43.4	20.0	0.00e+00	0	38	0	521142272	54	4543
2026-01-21 23:29:51.48	43.73	54.12	-41.4	-43.4	20.7	0.00e+00	0	38	0	528482304	54	4523
2026-01-21 23:29:55.49	45.26	55.40	-42.3	-44.5	19.8	0.00e+00	0	38	0	535822336	55	4818
2026-01-21 23:29:59.58	46.97	56.72	-43.7	-46.1	18.5	0.00e+00	0	38	0	543162368	58	4902
2026-01-21 23:30:03.62	48.83	58.03	-44.7	-47.3	17.4	0.00e+00	0	38	0	550502400	60	4996
2026-01-21 23:30:07.99	51.06	59.44	-43.4	-45.6	18.9	0.00e+00	0	38	0	558891008	58	4638
2026-01-21 23:30:11.98	53.31	60.72	-42.9	-45.1	19.4	0.00e+00	0	38	0	566231040	57	4609
2026-01-21 23:30:15.96	55.79	61.98	-42.6	-44.7	19.7	0.00e+00	0	38	0	574619648	57	4419
2026-01-21 23:30:19.93	58.53	63.21	-43.7	-46.0	18.6	0.00e+00	0	38	0	581959680	57	5138
2026-01-21 23:30:23.91	61.57	64.40	-43.6	-45.9	18.6	0.00e+00	0	38	0	589299712	58	4801
2026-01-21 23:30:27.89	64.93	65.54	-44.2	-46.7	17.9	0.00e+00	0	38	0	596639744	59	4967
2026-01-21 23:30:31.86	68.64	66.61	-43.5	-45.8	18.8	0.00e+00	0	38	0	603979776	58	4732
2026-01-21 23:30:35.84	72.73	67.60	-45.2	-48.0	16.7	0.00e+00	0	38	0	611319808	61	5153
2026-01-21 23:30:39.82	77.21	68.49	-45.0	-47.7	17.0	0.00e+00	0	38	0	618659840	61	4976
2026-01-21 23:30:43.80	82.08	69.25	-45.8	-48.9	15.9	0.00e+00	0	38	0	625999872	62	5368
2026-01-21 23:30:47.78	87.31	69.87	-45.1	-48.0	16.7	0.00e+00	0	38	0	633339904	61	5151
2026-01-21 23:30:51.98	93.17	70.34	-44.5	-47.2	17.5	0.00e+00	0	38	0	641728512	60	4953
2026-01-21 23:30:55.96	98.94	70.61	-43.8	-46.2	18.4	0.00e+00	0	38	0	649068544	59	4672
2026-01-21 23:30:59.93	104.81	70.69	-42.9	-45.1	19.4	0.00e+00	0	38	0	656408576	56	4922
2026-01-21 23:31:04.01	110.83	70.58	-43.8	-46.1	18.5	0.00e+00	0	38	0	663748608	58	4920
2026-01-21 23:31:08.10	116.72	70.27	-44.2	-46.7	17.9	0.00e+00	0	38	0	672137216	60	4698
2026-01-21 23:31:12.13	122.29	69.78	-45.8	-48.9	16.1	0.00e+00	0	38	0	679477248	63	5044
2026-01-21 23:31:16.12	127.48	69.13	-45.1	-47.9	16.9	0.00e+00	0	38	0	686817280	62	4789
2026-01-21 23:31:20.23	132.44	68.32	-44.9	-47.6	17.2	0.00e+00	0	38	0	695205888	61	4887
2026-01-21 23:31:24.37	137.02	67.37	-45.9	-48.9	15.9	0.00e+00	0	38	0	702545920	63	5086
2026-01-21 23:31:28.37	141.05	66.35	-45.6	-48.5	16.3	0.00e+00	0	38	0	709885952	62	5157
2026-01-21 23:31:32.39	144.72	65.25	-45.0	-47.8	17.0	0.00e+00	0	38	0	717225984	62	4713
2026-01-21 23:31:36.37	148.00	64.09	-44.1	-46.6	18.1	0.00e+00	0	38	0	724566016	60	4627
2026-01-21 23:31:40.57	151.12	62.81	-41.9	-44.0	20.2	0.00e+00	0	38	0	732954624	55	4592
2026-01-21 23:31:44.55	153.78	61.57	-40.4	-42.3	21.6	0.00e+00	0	38	0	740294656	52	4485
2026-01-21 23:31:48.53	156.19	60.30	-41.7	-43.7	20.4	0.00e+00	0	38	0	747634688	55	4429
2026-01-21 23:31:52.51	158.37	59.02	-44.2	-46.8	17.9	0.00e+00	0	38	0	754974720	59	4991
2026-01-21 23:31:56.50	160.35	57.72	-43.8	-46.2	18.5	0.00e+00	0	38	0	762314752	58	4959
2026-01-21 23:32:00.48	162.15	56.43	-42.8	-44.9	19.6	0.00e+00	0	38	0	769654784	57	4526
2026-01-21 23:32:04.45	163.78	55.15	-44.7	-47.5	17.2	0.00e+00	0	38	0	778043392	60	5118
2026-01-21 23:32:08.43	165.28	53.87	-40.1	-42.0	21.9	0.00e+00	0	38	0	785383424	51	4572
2026-01-21 23:32:12.41	166.66	52.61	-41.0	-43.0	21.0	0.00e+00	0	38	0	792723456	54	4319
2026-01-21 23:32:16.39	167.92	51.37	-42.5	-44.7	19.6	0.00e+00	0	38	0	800063488	55	4936
2026-01-21 23:32:20.33	169.07	50.15	-44.1	-46.6	18.0	0.00e+00	0	38	0	807403520	59	4874
2026-01-21 23:32:24.35	170.16	48.93	-46.4	-49.7	15.2	0.00e+00	0	38	0	814743552	63	5559
2026-01-21 23:32:28.44	171.18	47.72	-45.2	-47.9	16.9	0.00e+00	0	38	0	822083584	62	4783
2026-01-21 23:32:32.42	172.11	46.56	-45.3	-48.1	16.7	0.00e+00	0	38	0	830472192	61	5217
2026-01-21 23:32:36.40	172.97	45.43	-45.9	-49.0	15.8	1.50e-06	0	38	0	837812224	63	5128
2026-01-21 23:32:40.37	173.77	44.32	-43.4	-45.6	18.9	0.00e+00	0	38	0	845152256	58	4629
2026-01-21 23:32:44.35	174.52	43.24	-45.1	-47.8	16.9	0.00e+00	0	38	0	852492288	60	5330
2026-01-21 23:32:48.33	175.22	42.18	-42.8	-45.0	19.5	0.00e+00	0	38	0	859832320	57	4549
2026-01-21 23:32:52.38	175.89	41.12	-44.5	-47.1	17.6	0.00e+00	0	38	0	867172352	59	5163
2026-01-21 23:32:56.48	176.53	40.09	-44.7	-47.4	17.2	0.00e+00	0	38	0	875560960	61	4809
2026-01-21 23:33:00.55	177.12	39.08	-43.5	-45.9	18.6	0.00e+00	0	38	0	882900992	58	4767
2026-01-21 23:33:04.62	177.68	38.10	-45.2	-48.0	16.7	0.00e+00	0	38	0	890241024	61	5142
2026-01-21 23:33:08.60	178.20	37.17	-44.8	-47.6	17.1	0.00e+00	0	38	0	897581056	61	4896
2026-01-21 23:33:12.96	178.74	36.17	-43.5	-45.9	18.6	0.00e+00	0	38	0	905969664	59	4499
2026-01-21 23:33:16.94	179.20	35.29	-44.2	-46.6	17.9	0.00e+00	0	38	0	913309696	59	4909
2026-01-21 23:33:21.01	179.65	34.40	-44.9	-47.7	16.9	0.00e+00	0	38	0	920649728	60	5262
2026-01-21 23:33:25.03	180.07	33.55	-45.3	-48.1	16.5	0.00e+00	0	38	0	929038336	61	5206
2026-01-21 23:33:29.15	180.48	32.71	-44.9	-47.6	17.0	0.00e+00	0	38	0	936378368	61	4890
2026-01-21 23:33:33.42	180.88	31.85	-45.0	-47.8	16.8	0.00e+00	0	38	0	944766976	61	5041
2026-01-21 23:33:37.40	181.24	31.07	-45.7	-48.7	16.0	0.00e+00	0	38	0	952107008	61	5563
2026-01-21 23:33:41.38	181.59	30.31	-45.7	-48.8	15.9	0.00e+00	0	38	0	959447040	62	5305
2026-01-21 23:33:45.36	181.91	29.57	-45.1	-47.9	16.7	0.00e+00	0	38	0	966787072	62	4812
2026-01-21 23:33:49.34	182.23	28.85	-44.2	-46.7	17.9	0.00e+00	0	38	0	974127104	60	4683
2026-01-21 23:33:53.32	182.53	28.15	-43.7	-46.1	18.3	0.00e+00	0	38	0	981467136	59	4639
2026-01-21 23:33:57.30	182.82	27.46	-43.6	-45.9	18.5	0.00e+00	0	38	0	988807168	59	4543
2026-01-21 23:34:01.28	183.10	26.79	-43.8	-46.2	18.2	0.00e+00	0	38	0	996147200	59	4695
2026-01-21 23:34:05.26	183.36	26.13	-44.1	-46.6	17.9	0.00e+00	0	38	0	1004535808	59	4893
2026-01-21 23:34:09.68	183.65	25.42	-43.9	-46.4	18.1	0.00e+00	0	38	0	1012924416	59	4772
2026-01-21 23:34:13.82	183.90	24.77	-43.6	-45.9	18.4	0.00e+00	0	38	0	1020264448	59	4543
2026-01-21 23:34:17.80	184.14	24.16	-43.4	-45.7	18.7	0.00e+00	0	38	0	1027604480	58	4698
2026-01-21 23:34:21.78	184.37	23.56	-43.2	-45.5	18.8	0.00e+00	0	38	0	1034944512	58	4594
2026-01-21 23:34:25.68	184.58	22.99	-43.0	-45.3	19.0	0.00e+00	0	38	0	1042284544	57	4747
2026-01-21 23:34:29.66	184.80	22.42	-42.9	-45.1	19.1	0.00e+00	0	38	0	1049624576	57	4644
2026-01-21 23:34:33.62	185.00	21.86	-43.0	-45.3	19.0	0.00e+00	0	38	0	1056964608	57	4714
2026-01-21 23:34:37.63	185.20	21.31	-43.0	-45.3	18.7	0.00e+00	0	38	0	1064304640	57	4740
2026-01-21 23:34:41.82	185.40	20.75	-43.0	-45.4	18.9	0.00e+00	0	38	0	1072693248	57	4773
2026-01-21 23:34:46.37	185.62	20.15	-43.1	-45.4	18.8	0.00e+00	0	38	0	1081081856	57	4806
2026-01-21 23:34:50.79	185.82	19.58	-43.2	-45.6	18.7	0.00e+00	0	38	0	1089470464	57	4897
2026-01-21 23:34:54.85	185.99	19.07	-43.3	-45.8	18.5	0.00e+00	0	38	0	1096810496	57	5027
2026-01-21 23:34:58.95	186.17	18.56	-43.5	-46.0	18.3	0.00e+00	0	38	0	1105199104	57	5152
2026-01-21 23:35:02.99	186.33	18.07	-43.6	-46.1	18.2	0.00e+00	0	38	0	1112539136	57	5212
2026-01-21 23:35:06.97	186.49	17.60	-43.7	-46.3	18.0	0.00e+00	0	38	0	1119879168	58	5000
2026-01-21 23:35:10.97	186.65	17.13	-43.8	-46.4	17.9	0.00e+00	0	38	0	1127219200	58	5073
2026-01-21 23:35:15.17	186.80	16.65	-43.8	-46.5	17.8	0.00e+00	0	38	0	1135607808	58	5139
2026-01-21 23:35:19.21	186.95	16.20	-43.9	-46.7	17.6	0.00e+00	0	38	0	1142947840	58	5219
2026-01-21 23:35:23.21	187.09	15.76	-44.0	-46.7	17.6	0.00e+00	0	38	0	1150287872	58	5274
2026-01-21 23:35:27.27	187.23	15.32	-44.1	-46.9	17.5	0.00e+00	0	38	0	1157627904	58	5341
2026-01-21 23:35:31.66	187.38	14.85	-44.1	-46.9	17.4	0.00e+00	0	38	0	1166016512	59	5054
2026-01-21 23:35:35.70	187.51	14.43	-44.1	-46.8	17.4	0.00e+00	0	38	0	1173356544	59	5008
2026-01-21 23:35:39.70	187.64	14.02	-44.0	-46.7	17.5	0.00e+00	0	38	0	1180696576	59	4982
2026-01-21 23:35:43.77	187.77	13.61	-44.0	-46.7	17.6	0.00e+00	0	38	0	1189085184	59	4938
2026-01-21 23:35:47.88	187.89	13.20	-44.0	-46.6	17.6	0.00e+00	0	38	0	1196425216	59	4918
2026-01-21 23:35:51.94	188.02	12.80	-44.0	-46.7	17.5	0.00e+00	0	38	0	1203765248	59	4935
2026-01-21 23:35:55.95	188.13	12.42	-43.9	-46.6	17.6	0.00e+00	0	38	0	1211105280	59	4874
2026-01-21 23:35:59.93	188.24	12.04	-44.0	-46.6	17.5	0.00e+00	0	38	0	1219493888	59	4909
2026-01-21 23:36:03.92	188.35	11.67	-44.1	-46.8	17.4	0.00e+00	0	38	0	1226833920	59	4997
2026-01-21 23:36:07.98	188.46	11.30	-44.1	-46.9	17.3	0.00e+00	0	38	0	1234173952	59	5069
2026-01-21 23:36:12.08	188.57	10.92	-44.2	-47.0	17.1	0.00e+00	0	38	0	1241513984	59	5124
2026-01-21 23:36:16.18	188.68	10.56	-44.3	-47.1	17.0	0.00e+00	0	38	0	1249902592	59	5195
2026-01-21 23:36:20.19	188.78	10.21	-44.4	-47.3	16.8	0.00e+00	0	38	0	1257242624	59	5295
2026-01-21 23:36:24.20	188.88	9.86	-44.6	-47.6	16.5	0.00e+00	0	38	0	1264582656	59	5469
2026-01-21 23:36:28.18	188.98	9.52	-44.7	-47.8	16.4	0.00e+00	0	38	0	1271922688	60	5280
2026-01-21 23:36:32.16	189.07	9.18	-44.7	-47.8	16.4	0.00e+00	0	38	0	1279262720	60	5292
2026-01-21 23:36:36.26	189.17	8.84	-50.0	-65.8	3.8	1.49e+00	0	38	104	1284505600	70	23656
2026-01-21 23:36:40.39	189.26	8.50	-50.8	-66.1	3.8	1.49e+00	0	38	104	1284505600	72	21757
2026-01-21 23:36:44.48	189.35	8.17	-50.8	-66.1	3.8	1.49e+00	0	38	104	1284505600	72	21917
2026-01-21 23:36:48.53	189.44	7.85	-50.7	-66.1	3.8	1.49e+00	0	38	104	1284505600	72	21888
2026-01-21 23:36:52.50	189.53	7.53	-50.9	-66.1	3.8	1.49e+00	0	38	104	1284505600	72	21922
2026-01-21 23:36:56.48	189.61	7.22	-51.0	-66.2	3.8	1.49e+00	0	38	104	1284505600	72	22032
2026-01-21 23:37:00.47	189.69	6.92	-50.6	-66.1	3.8	1.49e+00	0	38	104	1284505600	72	21886
2026-01-21 23:37:04.44	189.77	6.61	-50.6	-66.1	3.8	1.49e+00	0	38	104	1284505600	72	21900
2026-01-21 23:37:08.43	189.85	6.31	-50.6	-66.1	3.8	1.49e+00	0	38	104	1284505600	72	21771
2026-01-21 23:37:12.41	189.93	6.02	-50.5	-66.1	3.8	1.49e+00	0	38	104	1284505600	72	21790
2026-01-21 23:37:16.39	190.01	5.72	-50.6	-66.1	3.8	1.49e+00	0	38	104	1284505600	72	21839
2026-01-21 23:37:20.40	190.08	5.43	-50.6	-66.1	3.8	1.49e+00	0	38	104	1284505600	72	21871
2026-01-21 23:37:24.37	190.16	5.14	-50.6	-66.1	3.8	1.49e+00	0	38	104	1284505600	72	21865

#Closed at: 2026-01-21 23:37:28
#Recorded file [1284 MB]: D:/Data/31040_260122_022429.dat