passes_logs/2026/01/21/T1/T1__20260121_102357_NOAA_21_JPSS-2_rec.log

#Pass ID: 20260121_102357_NOAA 21 (JPSS-2)
#Satellite: NOAA 21 (JPSS-2)
#Configuration: NOAA 21
#almurnet v.1.7.20251203
#Start time: 2026-01-21 10:23:57

#Version: 2.0.20230620
#Station: T1
#Location: 37.570604 lon 55.790049 lat
#TLE: 1 54234U 22150A   26020.93347024  .00000206  00000+0  11859-3 0  9994
#TLE: 2 54234  98.7506 321.7615 0000627 245.8100 114.3011 14.19536899165654

#Time	Az	El	Level	Level2	SNR	BER	BlckErr	Temp	State	Recorded	gain1	gain2
2026-01-21 10:23:57.44	175.13	5.01	-52.2	-65.6	3.8	1.49e+00	0	36	0	0	76	16375
2026-01-21 10:24:00.42	175.22	5.22	-49.7	-65.0	3.8	1.49e+00	0	36	104	0	71	20331
2026-01-21 10:24:03.40	175.30	5.43	-49.7	-64.9	3.8	1.49e+00	0	36	104	0	71	20203
2026-01-21 10:24:06.38	175.39	5.65	-49.7	-64.8	3.8	1.49e+00	0	37	104	0	71	19968
2026-01-21 10:24:09.36	175.47	5.86	-49.8	-64.8	3.8	1.49e+00	0	37	104	0	71	19879
2026-01-21 10:24:12.34	175.56	6.08	-49.7	-64.8	3.8	1.49e+00	0	37	104	0	71	19932
2026-01-21 10:24:15.32	175.65	6.30	-49.8	-64.7	3.8	1.49e+00	0	37	104	0	71	19773
2026-01-21 10:24:18.30	175.74	6.52	-49.7	-64.3	3.8	1.49e+00	0	37	104	0	71	18861
2026-01-21 10:24:21.28	175.83	6.75	-49.7	-63.6	3.8	1.49e+00	0	37	104	0	71	17391
2026-01-21 10:24:24.26	175.92	6.97	-49.6	-62.8	4.0	1.49e+00	0	37	104	0	71	15811
2026-01-21 10:24:27.24	176.01	7.20	-49.5	-61.7	3.9	1.47e+00	0	37	104	0	70	14801
2026-01-21 10:24:30.22	176.11	7.43	-48.9	-57.0	6.8	2.28e-01	0	37	0	0	69	9111
2026-01-21 10:24:33.20	176.21	7.66	-47.6	-53.0	10.6	5.02e-03	0	38	0	0	67	6427
2026-01-21 10:24:36.18	176.30	7.90	-46.5	-50.7	12.9	5.56e-05	0	37	0	0	65	5561
2026-01-21 10:24:39.16	176.40	8.13	-46.1	-50.0	13.7	9.90e-06	0	37	0	0	64	5407
2026-01-21 10:24:42.14	176.50	8.37	-46.6	-50.8	12.8	3.89e-05	0	38	0	0	64	5977
2026-01-21 10:24:45.11	176.61	8.61	-47.8	-53.4	10.1	5.00e-03	0	37	0	0	66	7191
2026-01-21 10:24:48.09	176.71	8.85	-49.0	-57.8	6.1	2.45e-01	0	38	0	0	68	10608
2026-01-21 10:24:51.07	176.81	9.10	-49.0	-54.4	9.4	4.88e-02	0	38	0	0	69	6750
2026-01-21 10:24:54.26	176.93	9.36	-50.1	-56.6	7.1	3.58e-01	0	38	0	0	71	7772
2026-01-21 10:24:57.11	177.03	9.60	-45.6	-48.3	15.5	0.00e+00	0	38	0	0	63	4711
2026-01-21 10:25:00.24	177.15	9.87	-44.7	-47.2	16.5	0.00e+00	0	38	0	0	61	4682
2026-01-21 10:25:03.08	177.26	10.11	-43.9	-46.3	17.3	0.00e+00	0	38	0	0	59	4726
2026-01-21 10:25:06.32	177.38	10.39	-43.7	-46.0	17.5	0.00e+00	0	38	0	0	59	4578
2026-01-21 10:25:09.16	177.49	10.64	-43.7	-45.9	17.6	0.00e+00	0	38	0	0	59	4545
2026-01-21 10:25:12.45	177.62	10.93	-43.8	-45.9	17.7	0.00e+00	0	38	0	0	59	4497
2026-01-21 10:25:15.17	177.73	11.17	-43.6	-45.6	17.9	0.00e+00	0	38	0	0	59	4355
2026-01-21 10:25:18.44	177.86	11.46	-43.6	-45.5	18.0	0.00e+00	0	38	0	0	59	4330
2026-01-21 10:25:21.16	177.98	11.71	-43.6	-45.5	18.0	0.00e+00	0	38	0	0	59	4325
2026-01-21 10:25:24.51	178.12	12.02	-43.5	-45.4	18.1	0.00e+00	0	38	0	0	58	4538
2026-01-21 10:25:27.28	178.24	12.28	-43.4	-45.3	18.2	0.00e+00	0	38	0	0	58	4481
2026-01-21 10:25:30.55	178.38	12.58	-43.3	-45.2	18.3	0.00e+00	0	38	0	0	58	4440
2026-01-21 10:25:33.43	178.51	12.86	-43.2	-45.1	18.4	0.00e+00	0	38	0	0	58	4379
2026-01-21 10:25:36.72	178.66	13.17	-43.2	-45.1	18.5	0.00e+00	0	38	0	0	58	4346
2026-01-21 10:25:39.71	178.80	13.46	-43.3	-45.2	18.4	0.00e+00	0	38	0	0	58	4418
2026-01-21 10:25:42.69	178.94	13.76	-43.1	-44.9	18.6	0.00e+00	0	38	0	0	58	4288
2026-01-21 10:25:45.76	179.09	14.06	-43.2	-45.0	18.6	0.00e+00	0	38	0	0	58	4330
2026-01-21 10:25:48.60	179.23	14.35	-43.4	-45.3	18.4	0.00e+00	0	38	0	0	58	4452
2026-01-21 10:25:51.82	179.39	14.68	-43.1	-45.0	18.7	0.00e+00	0	38	0	0	58	4305
2026-01-21 10:25:54.81	179.55	14.99	-43.0	-44.8	18.7	0.00e+00	0	38	0	0	58	4240
2026-01-21 10:25:57.79	179.70	15.30	-43.1	-44.9	18.7	0.00e+00	0	38	0	0	58	4286
2026-01-21 10:26:00.78	179.86	15.62	-43.2	-45.1	18.6	0.00e+00	0	38	0	0	58	4349
2026-01-21 10:26:03.79	180.02	15.94	-43.1	-45.0	18.7	0.00e+00	0	39	0	0	58	4297
2026-01-21 10:26:06.87	180.19	16.28	-43.1	-45.0	18.7	0.00e+00	0	39	0	0	58	4312
2026-01-21 10:26:09.71	180.35	16.59	-43.2	-45.0	18.6	0.00e+00	0	39	0	0	58	4333
2026-01-21 10:26:12.84	180.54	16.94	-43.2	-45.1	18.6	0.00e+00	0	38	0	0	58	4374
2026-01-21 10:26:15.68	180.70	17.26	-43.4	-45.3	18.4	0.00e+00	0	38	0	0	58	4452
2026-01-21 10:26:18.89	180.90	17.63	-43.4	-45.3	18.3	0.00e+00	0	39	0	0	58	4489
2026-01-21 10:26:21.76	181.07	17.96	-43.5	-45.5	18.2	0.00e+00	0	39	0	0	58	4554
2026-01-21 10:26:25.06	181.28	18.35	-43.4	-45.3	18.3	0.00e+00	0	39	0	0	58	4490
2026-01-21 10:26:27.86	181.46	18.68	-43.4	-45.3	18.4	0.00e+00	0	38	0	0	58	4448
2026-01-21 10:26:31.05	181.67	19.07	-43.2	-45.1	18.6	0.00e+00	0	38	0	0	58	4352
2026-01-21 10:26:33.89	181.86	19.42	-42.9	-44.8	18.9	0.00e+00	0	39	0	0	57	4460
2026-01-21 10:26:37.12	182.09	19.82	-42.9	-44.7	19.0	0.00e+00	0	39	0	0	57	4419
2026-01-21 10:26:40.40	182.32	20.23	-42.7	-44.5	19.1	0.00e+00	0	39	0	0	57	4331
2026-01-21 10:26:43.10	182.51	20.58	-42.5	-44.3	19.3	0.00e+00	0	39	0	0	57	4230
2026-01-21 10:26:46.42	182.76	21.01	-42.3	-44.1	19.5	0.00e+00	0	39	0	0	56	4362
2026-01-21 10:26:49.24	182.98	21.38	-42.2	-44.0	19.6	0.00e+00	0	39	0	0	56	4294
2026-01-21 10:26:52.64	183.24	21.84	-42.1	-43.8	19.8	0.00e+00	0	39	0	0	56	4207
2026-01-21 10:26:55.70	183.49	22.26	-41.8	-43.5	19.9	0.00e+00	0	39	0	0	55	4319
2026-01-21 10:26:58.83	183.74	22.69	-41.8	-43.4	20.0	0.00e+00	0	39	0	0	55	4286
2026-01-21 10:27:01.68	183.98	23.09	-41.6	-43.3	20.2	0.00e+00	0	39	0	0	55	4206
2026-01-21 10:27:04.80	184.25	23.53	-41.7	-43.3	20.1	0.00e+00	0	39	0	0	55	4238
2026-01-21 10:27:07.69	184.51	23.95	-41.6	-43.3	20.1	0.00e+00	0	39	0	0	55	4204
2026-01-21 10:27:10.91	184.81	24.42	-41.7	-43.3	20.1	0.00e+00	0	39	0	0	55	4235
2026-01-21 10:27:14.22	185.12	24.92	-41.7	-43.4	20.1	0.00e+00	0	39	0	0	55	4255
2026-01-21 10:27:17.06	185.39	25.35	-41.9	-43.6	19.9	0.00e+00	0	39	0	0	55	4389
2026-01-21 10:27:20.22	185.71	25.84	-42.2	-44.0	19.7	0.00e+00	0	39	0	0	55	4556
2026-01-21 10:27:23.06	186.00	26.28	-42.5	-44.2	19.4	0.00e+00	0	39	0	0	55	4684
2026-01-21 10:27:26.39	186.35	26.81	-42.9	-44.8	19.1	0.00e+00	0	39	0	0	56	4709
2026-01-21 10:27:29.10	186.65	27.25	-43.1	-44.9	19.0	0.00e+00	0	39	0	0	56	4800
2026-01-21 10:27:32.37	187.01	27.79	-43.3	-45.1	18.8	0.00e+00	0	39	0	0	57	4641
2026-01-21 10:27:35.08	187.32	28.24	-43.2	-45.1	18.9	0.00e+00	0	39	0	0	57	4610
2026-01-21 10:27:38.44	187.72	28.81	-43.3	-45.1	18.8	0.00e+00	0	39	0	0	57	4638
2026-01-21 10:27:41.14	188.06	29.28	-43.2	-45.0	18.9	0.00e+00	0	39	0	0	57	4576
2026-01-21 10:27:44.41	188.47	29.85	-43.1	-44.9	19.1	0.00e+00	0	39	0	0	57	4505
2026-01-21 10:27:47.11	188.82	30.33	-43.0	-44.8	19.1	0.00e+00	0	39	0	0	57	4444
2026-01-21 10:27:51.20	189.38	31.08	-42.7	-44.4	19.4	0.00e+00	0	39	0	0	57	4263
2026-01-21 10:27:54.05	189.78	31.60	-42.6	-44.3	19.5	0.00e+00	0	39	0	0	57	4229
2026-01-21 10:27:58.02	190.36	32.35	-42.7	-44.4	19.4	0.00e+00	0	39	0	0	57	4263
2026-01-21 10:28:01.06	190.82	32.93	-42.7	-44.5	19.3	0.00e+00	0	39	0	0	57	4300
2026-01-21 10:28:05.11	191.47	33.72	-43.1	-44.9	19.0	0.00e+00	0	39	0	0	57	4498
2026-01-21 10:28:08.24	191.99	34.35	-43.3	-45.1	18.8	0.00e+00	0	39	0	0	57	4625
2026-01-21 10:28:12.22	192.67	35.15	-44.2	-46.1	18.0	0.00e+00	0	39	0	0	58	4896
2026-01-21 10:28:15.06	193.19	35.74	-44.7	-46.7	17.4	0.00e+00	0	39	0	0	60	4703
2026-01-21 10:28:19.24	193.97	36.61	-44.9	-46.9	17.3	0.00e+00	0	39	0	0	60	4810
2026-01-21 10:28:22.16	194.55	37.24	-44.9	-46.9	17.3	0.00e+00	0	39	0	0	60	4807
2026-01-21 10:28:25.60	195.25	37.98	-44.8	-46.9	17.2	0.00e+00	0	38	0	0	60	4788
2026-01-21 10:28:28.31	195.83	38.58	-44.5	-46.5	17.7	0.00e+00	0	39	0	0	60	4558
2026-01-21 10:28:31.57	196.56	39.30	-44.3	-46.2	17.8	0.00e+00	0	39	0	0	60	4425
2026-01-21 10:28:34.29	197.19	39.91	-44.1	-46.0	18.2	0.00e+00	0	39	0	0	60	4318
2026-01-21 10:28:37.56	197.98	40.66	-44.4	-46.4	17.7	0.00e+00	0	39	0	0	59	4765
2026-01-21 10:28:40.28	198.66	41.29	-44.7	-46.7	17.5	0.00e+00	0	39	0	0	60	4655
2026-01-21 10:28:43.57	199.52	42.06	-44.5	-46.5	17.7	0.00e+00	0	39	0	0	60	4567
2026-01-21 10:28:46.29	200.27	42.70	-45.2	-47.3	16.9	0.00e+00	0	39	0	0	61	4759
2026-01-21 10:28:49.57	201.21	43.48	-46.0	-48.3	16.0	0.00e+00	0	39	0	0	62	5024
2026-01-21 10:28:52.33	202.03	44.14	-46.1	-48.4	15.8	0.00e+00	0	39	0	0	62	5096
2026-01-21 10:28:55.72	203.09	44.96	-46.0	-48.4	15.8	0.00e+00	0	39	0	0	62	5085
2026-01-21 10:28:58.49	204.00	45.64	-46.3	-48.7	15.4	7.00e-07	0	39	0	0	63	4969
2026-01-21 10:29:01.75	205.12	46.43	-45.1	-47.2	17.0	0.00e+00	0	39	0	0	62	4439
2026-01-21 10:29:04.48	206.10	47.10	-44.8	-46.8	17.3	0.00e+00	0	39	0	0	61	4493
2026-01-21 10:29:07.75	207.33	47.91	-44.4	-46.4	17.7	0.00e+00	0	39	0	0	60	4512
2026-01-21 10:29:10.45	208.40	48.57	-45.1	-47.3	17.0	0.00e+00	0	39	0	0	61	4709
2026-01-21 10:29:13.73	209.76	49.38	-45.1	-47.2	17.0	0.00e+00	0	39	0	0	61	4659
2026-01-21 10:29:16.79	211.09	50.13	-44.7	-46.7	17.5	0.00e+00	0	39	0	0	61	4413
2026-01-21 10:29:20.06	212.58	50.93	-44.4	-46.4	17.7	0.00e+00	0	39	0	0	60	4507
2026-01-21 10:29:22.77	213.88	51.58	-44.5	-46.5	17.7	0.00e+00	0	39	0	0	60	4560
2026-01-21 10:29:26.05	215.54	52.36	-44.1	-46.0	18.2	0.00e+00	0	39	0	0	60	4315
2026-01-21 10:29:28.75	216.96	53.00	-44.0	-45.9	18.2	0.00e+00	0	39	0	0	59	4503
2026-01-21 10:29:32.02	218.77	53.75	-43.9	-45.7	18.4	0.00e+00	0	39	0	0	59	4434
2026-01-21 10:29:34.93	220.46	54.41	-43.1	-44.8	19.2	0.00e+00	0	39	0	0	58	4234
2026-01-21 10:29:38.23	222.47	55.13	-43.4	-45.2	18.7	0.00e+00	0	39	0	0	58	4439
2026-01-21 10:29:41.28	224.42	55.77	-43.1	-44.9	19.0	0.00e+00	0	39	0	0	58	4266
2026-01-21 10:29:44.12	226.31	56.34	-43.1	-44.9	19.0	0.00e+00	0	39	0	0	57	4516
2026-01-21 10:29:47.25	228.49	56.95	-42.8	-44.5	19.4	0.00e+00	0	39	0	0	57	4330
2026-01-21 10:29:50.19	230.62	57.48	-42.3	-44.0	19.7	0.00e+00	0	39	0	0	56	4310
2026-01-21 10:29:53.76	233.32	58.09	-42.8	-44.6	19.2	0.00e+00	0	39	0	0	56	4621
2026-01-21 10:29:56.61	235.56	58.53	-42.7	-44.4	19.4	0.00e+00	0	39	0	0	56	4532
2026-01-21 10:29:59.88	238.22	58.99	-42.4	-44.1	19.9	0.00e+00	0	39	0	0	56	4361
2026-01-21 10:30:02.62	240.51	59.34	-42.3	-44.0	19.8	0.00e+00	0	39	0	0	56	4315
2026-01-21 10:30:05.90	243.34	59.70	-42.3	-44.0	19.8	0.00e+00	0	39	0	0	56	4339
2026-01-21 10:30:08.61	245.72	59.94	-42.2	-43.9	20.0	0.00e+00	0	39	0	0	56	4248
2026-01-21 10:30:12.70	249.40	60.24	-42.5	-44.3	19.4	0.00e+00	0	39	0	0	55	4731
2026-01-21 10:30:15.55	252.01	60.38	-42.3	-44.0	19.6	0.00e+00	0	39	0	0	55	4593
2026-01-21 10:30:19.52	255.67	60.49	-42.3	-44.0	19.6	0.00e+00	0	39	0	0	55	4550
2026-01-21 10:30:22.37	258.32	60.50	-42.1	-43.8	19.9	0.00e+00	0	39	0	0	55	4453
2026-01-21 10:30:26.64	262.27	60.42	-42.1	-43.8	19.9	0.00e+00	0	39	0	0	56	4211
2026-01-21 10:30:29.55	264.94	60.30	-41.5	-43.2	20.5	0.00e+00	0	39	0	0	55	4150
2026-01-21 10:30:32.53	267.64	60.12	-41.8	-43.4	20.2	0.00e+00	0	39	0	0	54	4545
2026-01-21 10:30:35.52	270.31	59.88	-42.2	-43.9	19.7	0.00e+00	0	39	0	0	55	4531
2026-01-21 10:30:38.50	272.92	59.60	-42.9	-44.6	19.2	0.00e+00	0	39	0	0	56	4649
2026-01-21 10:30:41.49	275.47	59.26	-42.1	-43.7	20.2	0.00e+00	0	39	0	0	56	4179
2026-01-21 10:30:44.47	277.94	58.87	-42.6	-44.3	19.7	0.00e+00	0	39	0	0	56	4469
2026-01-21 10:30:47.57	280.44	58.42	-42.4	-44.1	19.8	0.00e+00	0	39	0	0	56	4354
2026-01-21 10:30:50.41	282.65	57.97	-43.2	-45.0	19.2	0.00e+00	0	39	0	0	56	4823
2026-01-21 10:30:53.54	284.99	57.44	-42.6	-44.3	19.5	0.00e+00	0	39	0	0	57	4239
2026-01-21 10:30:56.38	287.04	56.92	-43.4	-45.3	18.9	0.00e+00	0	39	0	0	57	4711
2026-01-21 10:30:59.51	289.21	56.31	-43.7	-45.6	18.2	0.00e+00	0	39	0	0	58	4621
2026-01-21 10:31:02.46	291.17	55.72	-42.8	-44.6	19.3	0.00e+00	0	39	0	0	57	4358
2026-01-21 10:31:05.59	293.15	55.06	-43.2	-45.0	19.0	0.00e+00	0	39	0	0	57	4560
2026-01-21 10:31:08.43	294.88	54.44	-43.1	-44.8	19.1	0.00e+00	0	39	0	0	57	4483
2026-01-21 10:31:11.56	296.69	53.74	-43.1	-44.8	19.2	0.00e+00	0	39	0	0	57	4481
2026-01-21 10:31:14.40	298.26	53.08	-44.0	-45.9	18.1	0.00e+00	0	39	0	0	58	4772
2026-01-21 10:31:17.53	299.91	52.35	-43.8	-45.6	18.3	0.00e+00	0	39	0	0	59	4383
2026-01-21 10:31:20.37	301.34	51.68	-43.6	-45.4	18.6	0.00e+00	0	39	0	0	59	4277
2026-01-21 10:31:23.50	302.84	50.93	-44.1	-46.0	18.1	0.00e+00	0	39	0	0	58	4855
2026-01-21 10:31:26.40	304.17	50.22	-44.0	-46.0	17.8	0.00e+00	0	39	0	0	59	4549
2026-01-21 10:31:29.67	305.59	49.43	-44.4	-46.4	17.8	0.00e+00	0	39	0	0	59	4780
2026-01-21 10:31:32.50	306.77	48.73	-45.1	-47.2	17.1	0.00e+00	0	39	0	0	60	4972
2026-01-21 10:31:35.74	308.05	47.94	-45.9	-48.2	15.9	0.00e+00	0	39	0	0	62	4975
2026-01-21 10:31:38.82	309.21	47.18	-44.6	-46.7	17.6	0.00e+00	0	39	0	0	61	4411
2026-01-21 10:31:42.12	310.39	46.38	-45.1	-47.3	17.0	0.00e+00	0	39	0	0	61	4719
2026-01-21 10:31:44.82	311.31	45.72	-45.4	-47.6	16.7	0.00e+00	0	39	0	0	61	4872
2026-01-21 10:31:48.04	312.37	44.94	-44.4	-46.4	17.6	0.00e+00	0	39	0	0	60	4531
2026-01-21 10:31:50.88	313.25	44.25	-44.5	-46.5	17.7	0.00e+00	0	39	0	0	60	4550
2026-01-21 10:31:54.01	314.19	43.51	-45.2	-47.3	16.9	0.00e+00	0	39	0	0	61	4738
2026-01-21 10:31:56.85	315.00	42.83	-45.7	-48.0	16.0	0.00e+00	0	39	0	0	62	4815
2026-01-21 10:32:00.09	315.89	42.07	-45.3	-47.5	16.4	0.00e+00	0	39	0	0	62	4592
2026-01-21 10:32:02.93	316.63	41.41	-44.7	-46.8	17.3	0.00e+00	0	39	0	0	61	4489
2026-01-21 10:32:06.06	317.42	40.70	-45.7	-48.0	16.2	0.00e+00	0	39	0	0	62	4868
2026-01-21 10:32:08.90	318.10	40.05	-45.4	-47.7	16.5	0.00e+00	0	39	0	0	62	4677
2026-01-21 10:32:12.02	318.83	39.35	-44.6	-46.6	17.5	0.00e+00	0	39	0	0	61	4376
2026-01-21 10:32:14.98	319.48	38.70	-44.4	-46.4	17.7	0.00e+00	0	39	0	0	60	4540
2026-01-21 10:32:18.11	320.15	38.01	-44.1	-46.0	17.9	0.00e+00	0	39	0	0	60	4328
2026-01-21 10:32:21.01	320.75	37.39	-44.1	-46.0	18.0	0.00e+00	0	39	0	0	60	4336
2026-01-21 10:32:24.01	321.34	36.75	-43.9	-45.9	18.0	0.00e+00	0	39	0	0	59	4530
2026-01-21 10:32:27.00	321.91	36.12	-43.5	-45.4	18.5	0.00e+00	0	39	0	0	58	4538
2026-01-21 10:32:29.98	322.45	35.51	-43.2	-45.1	18.8	0.00e+00	0	39	0	0	58	4346
2026-01-21 10:32:32.97	322.98	34.90	-43.8	-45.7	18.1	0.00e+00	0	39	0	0	58	4681
2026-01-21 10:32:35.95	323.49	34.30	-44.2	-46.3	17.4	0.00e+00	0	39	0	0	59	4711
2026-01-21 10:32:38.94	323.98	33.72	-43.6	-45.6	18.1	0.00e+00	0	39	0	0	59	4367
2026-01-21 10:32:41.92	324.46	33.14	-43.4	-45.4	18.5	0.00e+00	0	39	0	0	58	4512
2026-01-21 10:32:44.91	324.91	32.56	-43.6	-45.6	18.4	0.00e+00	0	39	0	0	58	4625
2026-01-21 10:32:47.94	325.36	31.99	-43.8	-45.8	18.2	0.00e+00	0	39	0	0	58	4736
2026-01-21 10:32:50.96	325.80	31.44	-43.1	-45.0	18.9	0.00e+00	0	39	0	0	58	4324
2026-01-21 10:32:53.95	326.21	30.89	-42.8	-44.7	19.1	0.00e+00	0	39	0	0	57	4399
2026-01-21 10:32:56.93	326.61	30.36	-42.4	-44.2	19.4	0.00e+00	0	39	0	0	56	4429
2026-01-21 10:32:59.92	327.00	29.83	-42.5	-44.3	19.2	0.00e+00	0	39	0	0	56	4471
2026-01-21 10:33:02.90	327.38	29.31	-42.2	-44.0	19.5	0.00e+00	0	39	0	0	56	4326
2026-01-21 10:33:05.97	327.75	28.78	-42.1	-43.9	19.6	0.00e+00	0	39	0	0	56	4271
2026-01-21 10:33:08.81	328.09	28.31	-42.3	-44.1	19.5	0.00e+00	0	39	0	0	56	4355
2026-01-21 10:33:11.94	328.45	27.79	-42.4	-44.2	19.4	0.00e+00	0	39	0	0	56	4417
2026-01-21 10:33:14.78	328.76	27.32	-42.5	-44.3	19.5	0.00e+00	0	39	0	0	56	4455
2026-01-21 10:33:18.12	329.13	26.79	-42.3	-44.0	19.7	0.00e+00	0	39	0	0	56	4337
2026-01-21 10:33:20.83	329.41	26.36	-42.0	-43.8	19.9	0.00e+00	0	39	0	0	56	4233
2026-01-21 10:33:24.15	329.75	25.84	-41.7	-43.6	19.9	0.00e+00	0	39	0	0	55	4350
2026-01-21 10:33:26.87	330.02	25.43	-41.8	-43.6	19.9	0.00e+00	0	39	0	0	55	4386
2026-01-21 10:33:30.37	330.36	24.90	-41.8	-43.5	20.0	0.00e+00	0	39	0	0	55	4316
2026-01-21 10:33:33.13	330.62	24.49	-41.8	-43.5	20.0	0.00e+00	0	39	0	0	55	4325
2026-01-21 10:33:36.40	330.92	24.02	-41.6	-43.3	20.1	0.00e+00	0	39	0	0	55	4219
2026-01-21 10:33:39.12	331.16	23.63	-41.8	-43.5	19.9	0.00e+00	0	39	0	0	55	4313
2026-01-21 10:33:42.48	331.45	23.15	-42.0	-43.7	19.8	0.00e+00	0	39	0	0	55	4426
2026-01-21 10:33:45.20	331.68	22.77	-41.9	-43.6	19.9	0.00e+00	0	39	0	0	55	4373
2026-01-21 10:33:48.47	331.95	22.32	-41.8	-43.7	19.8	0.00e+00	0	39	0	0	55	4394
2026-01-21 10:33:51.22	332.17	21.95	-41.8	-43.7	19.8	0.00e+00	0	39	0	0	55	4411
2026-01-21 10:33:54.49	332.43	21.51	-41.9	-43.7	19.8	0.00e+00	0	39	0	0	55	4431
2026-01-21 10:33:57.20	332.64	21.16	-42.1	-43.8	19.6	0.00e+00	0	39	0	0	55	4490
2026-01-21 10:34:00.55	332.89	20.73	-42.0	-43.8	19.6	0.00e+00	0	39	0	0	55	4464
2026-01-21 10:34:03.29	333.09	20.38	-42.1	-43.9	19.5	0.00e+00	0	39	0	0	55	4519
2026-01-21 10:34:06.56	333.32	19.97	-42.1	-44.0	19.5	0.00e+00	0	39	0	0	55	4547
2026-01-21 10:34:09.41	333.52	19.61	-42.0	-43.9	19.5	0.00e+00	0	39	0	0	55	4504
2026-01-21 10:34:12.77	333.75	19.20	-42.1	-44.0	19.3	0.00e+00	0	39	0	0	55	4583
2026-01-21 10:34:15.48	333.93	18.88	-42.1	-43.9	19.3	0.00e+00	0	39	0	0	55	4540
2026-01-21 10:34:18.75	334.14	18.49	-42.3	-44.2	19.2	0.00e+00	0	39	0	0	55	4658
2026-01-21 10:34:21.55	334.32	18.16	-42.4	-44.3	19.1	0.00e+00	0	39	0	0	55	4721
2026-01-21 10:34:24.79	334.52	17.78	-42.4	-44.3	19.1	0.00e+00	0	39	0	0	55	4720
2026-01-21 10:34:27.63	334.69	17.46	-42.4	-44.3	19.1	0.00e+00	0	39	0	0	55	4728
2026-01-21 10:34:30.75	334.88	17.11	-42.6	-44.5	18.9	0.00e+00	0	39	0	0	55	4844
2026-01-21 10:34:33.59	335.04	16.79	-42.8	-44.7	18.9	0.00e+00	0	39	0	0	56	4662
2026-01-21 10:34:36.72	335.22	16.45	-43.0	-44.9	18.7	0.00e+00	0	39	0	0	56	4765
2026-01-21 10:34:39.64	335.39	16.13	-43.2	-45.1	18.6	0.00e+00	0	39	0	0	56	4882
2026-01-21 10:34:42.76	335.56	15.80	-43.0	-44.9	18.7	0.00e+00	0	39	0	0	56	4764
2026-01-21 10:34:45.81	335.72	15.48	-43.0	-45.0	18.6	0.00e+00	0	39	0	0	56	4828
2026-01-21 10:34:49.08	335.90	15.14	-43.2	-45.1	18.5	0.00e+00	0	39	0	0	57	4626
2026-01-21 10:34:51.78	336.04	14.86	-43.2	-45.2	18.4	0.00e+00	0	39	0	0	57	4657
2026-01-21 10:34:55.07	336.20	14.53	-43.4	-45.3	18.3	0.00e+00	0	39	0	0	57	4757
2026-01-21 10:34:57.83	336.34	14.25	-43.2	-45.1	18.5	0.00e+00	0	39	0	0	57	4604
2026-01-21 10:35:01.14	336.51	13.92	-43.2	-45.1	18.5	0.00e+00	0	39	0	0	57	4630
2026-01-21 10:35:04.13	336.65	13.63	-43.2	-45.2	18.4	0.00e+00	0	39	0	0	57	4690
2026-01-21 10:35:07.11	336.79	13.34	-43.2	-45.3	18.3	0.00e+00	0	39	0	0	57	4731
2026-01-21 10:35:10.05	336.93	13.06	-43.2	-45.3	18.3	0.00e+00	0	39	0	0	57	4736
2026-01-21 10:35:13.17	337.07	12.76	-43.3	-45.3	18.2	0.00e+00	0	39	0	0	57	4752
2026-01-21 10:35:16.14	337.20	12.48	-43.3	-45.4	18.2	0.00e+00	0	39	0	0	57	4785
2026-01-21 10:35:19.49	337.35	12.17	-43.2	-45.4	18.2	0.00e+00	0	39	0	0	57	4789
2026-01-21 10:35:22.20	337.47	11.93	-43.3	-45.5	18.0	0.00e+00	0	39	0	0	57	4843
2026-01-21 10:35:25.71	337.62	11.61	-43.4	-45.7	17.9	0.00e+00	0	39	0	0	57	4927
2026-01-21 10:35:28.41	337.73	11.37	-43.6	-45.8	17.8	0.00e+00	0	39	0	0	57	5014
2026-01-21 10:35:31.68	337.86	11.08	-43.6	-45.8	17.8	0.00e+00	0	39	0	0	58	4735
2026-01-21 10:35:34.38	337.97	10.84	-43.7	-45.9	17.7	0.00e+00	0	39	0	0	58	4760
2026-01-21 10:35:37.66	338.10	10.55	-43.7	-45.9	17.7	0.00e+00	0	39	0	0	58	4776
2026-01-21 10:35:40.44	338.21	10.32	-43.7	-46.0	17.6	0.00e+00	0	39	0	0	58	4831
2026-01-21 10:35:43.71	338.34	10.04	-43.7	-45.9	17.6	0.00e+00	0	39	0	0	58	4803
2026-01-21 10:35:46.43	338.44	9.81	-43.8	-46.0	17.5	0.00e+00	0	39	0	0	58	4865
2026-01-21 10:35:49.77	338.57	9.53	-44.0	-46.2	17.3	0.00e+00	0	39	0	0	58	4953
2026-01-21 10:35:52.51	338.67	9.30	-44.0	-46.2	17.2	0.00e+00	0	39	0	0	58	4972
2026-01-21 10:35:55.77	338.79	9.04	-44.1	-46.4	17.1	0.00e+00	0	39	0	0	59	4788
2026-01-21 10:35:58.77	338.89	8.79	-51.5	-65.1	3.8	1.49e+00	0	39	104	0	74	17290
2026-01-21 10:36:01.75	339.00	8.56	-52.0	-65.4	3.8	1.49e+00	0	39	104	0	74	18070
2026-01-21 10:36:04.73	339.10	8.32	-52.3	-65.6	3.8	1.49e+00	0	39	104	0	75	17398
2026-01-21 10:36:07.71	339.21	8.08	-52.4	-65.6	3.8	1.49e+00	0	39	104	0	75	17425
2026-01-21 10:36:10.69	339.31	7.85	-52.4	-65.7	3.8	1.49e+00	0	39	104	0	75	17526
2026-01-21 10:36:13.67	339.41	7.62	-52.7	-65.7	3.8	1.49e+00	0	39	104	0	76	16571
2026-01-21 10:36:16.65	339.50	7.39	-52.8	-65.7	3.8	1.49e+00	0	39	104	0	76	16649
2026-01-21 10:36:19.63	339.60	7.17	-52.6	-65.7	3.8	1.49e+00	0	39	104	0	76	16610
2026-01-21 10:36:22.61	339.70	6.94	-52.5	-65.7	3.8	1.49e+00	0	39	104	0	76	16518
2026-01-21 10:36:25.59	339.79	6.72	-52.4	-65.6	3.8	1.49e+00	0	39	104	0	76	16496
2026-01-21 10:36:28.57	339.88	6.50	-52.4	-65.6	3.8	1.49e+00	0	39	104	0	76	16489
2026-01-21 10:36:31.55	339.98	6.28	-52.4	-65.6	3.8	1.49e+00	0	39	104	0	76	16492
2026-01-21 10:36:34.53	340.07	6.06	-52.4	-65.7	3.8	1.49e+00	0	39	104	0	76	16556
2026-01-21 10:36:37.51	340.16	5.85	-52.4	-65.7	3.8	1.49e+00	0	39	104	0	76	16533
2026-01-21 10:36:40.49	340.24	5.63	-52.4	-65.6	3.8	1.49e+00	0	39	104	0	76	16440
2026-01-21 10:36:43.47	340.33	5.42	-52.4	-65.6	3.8	1.49e+00	0	39	104	0	76	16499
2026-01-21 10:36:46.45	340.42	5.21	-52.4	-65.6	3.8	1.49e+00	0	39	104	0	76	16417
2026-01-21 10:36:49.43	340.50	5.00	-52.4	-65.6	3.8	1.49e+00	0	39	104	0	76	16459

#Closed at: 2026-01-21 10:36:50
#Recorded file [0 MB]: D:/Data/31040_260121_132357.dat