passes_logs/2026/01/21/T1/T1__20260121_052523_FENGYUN_3E_rec.log

#Pass ID: 20260121_052523_FENGYUN 3E
#Satellite: FENGYUN 3E
#Configuration: FENGYUN 3E
#almurnet v.1.7.20251203
#Start time: 2026-01-21 05:25:22

#Version: 2.0.20230620
#Station: T1
#Location: 37.570604 lon 55.790049 lat
#TLE: 1 49008U 21062A   26020.29079360  .00000161  00000+0  96807-4 0  9999
#TLE: 2 49008  98.7481  25.3569 0002259 127.4136 232.7246 14.19885851235592

#Time	Az	El	Level	Level2	SNR	BER	BlckErr	Temp	State	Recorded	gain1	gain2
2026-01-21 05:25:22.85	7.73	4.98	-51.7	-63.5	3.8	8.46e-01	0	36	0	0	73	14303
2026-01-21 05:25:25.82	7.52	5.17	-50.7	-63.0	3.8	8.47e-01	0	37	104	0	72	14322
2026-01-21 05:25:28.80	7.31	5.36	-50.7	-63.0	3.8	8.47e-01	0	37	104	0	72	14246
2026-01-21 05:25:31.78	7.09	5.55	-50.7	-63.0	3.8	8.46e-01	0	37	104	0	72	14291
2026-01-21 05:25:34.76	6.88	5.74	-50.7	-63.0	3.8	8.48e-01	0	37	104	0	72	14368
2026-01-21 05:25:37.74	6.66	5.94	-50.8	-63.0	3.8	8.47e-01	0	37	104	0	72	14349
2026-01-21 05:25:40.72	6.43	6.13	-50.7	-63.0	3.8	8.47e-01	0	37	104	0	72	14272
2026-01-21 05:25:43.70	6.20	6.32	-50.7	-63.0	3.8	8.47e-01	0	37	104	0	72	14370
2026-01-21 05:25:46.68	5.97	6.52	-50.7	-63.0	3.8	8.47e-01	0	38	104	0	72	14324
2026-01-21 05:25:49.66	5.74	6.71	-50.7	-63.0	3.8	8.47e-01	0	38	104	0	72	14250
2026-01-21 05:25:52.64	5.50	6.91	-50.7	-62.9	3.8	8.46e-01	0	38	104	0	72	14103
2026-01-21 05:25:55.62	5.26	7.11	-50.7	-62.7	3.8	8.47e-01	0	38	104	0	72	13822
2026-01-21 05:25:58.60	5.02	7.31	-50.7	-62.1	3.8	8.47e-01	0	38	104	0	72	12949
2026-01-21 05:26:01.58	4.77	7.51	-50.5	-60.4	3.9	8.45e-01	0	38	104	0	71	11183
2026-01-21 05:26:04.56	4.52	7.71	-50.4	-59.4	4.2	8.35e-01	0	38	0	0	71	10043
2026-01-21 05:26:07.54	4.26	7.91	-50.6	-60.9	3.8	8.46e-01	0	38	104	0	71	11852
2026-01-21 05:26:10.52	4.01	8.12	-50.8	-62.7	3.8	8.46e-01	0	38	104	0	71	14661
2026-01-21 05:26:13.50	3.74	8.32	-50.6	-60.5	3.9	8.46e-01	0	39	104	0	71	11311
2026-01-21 05:26:16.48	3.48	8.53	-48.1	-51.8	9.9	2.21e-02	0	39	0	11534336	67	5238
2026-01-21 05:26:19.46	3.21	8.74	-45.2	-47.2	14.8	0.00e+00	0	38	0	33554432	61	4368
2026-01-21 05:26:22.44	2.93	8.94	-44.3	-46.0	15.9	0.00e+00	0	39	0	54525952	59	4247
2026-01-21 05:26:25.42	2.65	9.15	-45.6	-47.7	14.3	1.02e-05	0	38	0	76546048	62	4355
2026-01-21 05:26:28.41	2.37	9.36	-46.1	-48.4	13.4	3.11e-02	0	38	0	97517568	63	4478
2026-01-21 05:26:31.39	2.08	9.57	-41.9	-43.0	18.5	0.00e+00	0	39	0	119537664	54	4034
2026-01-21 05:26:34.38	1.79	9.79	-41.6	-42.7	18.9	0.00e+00	0	39	0	140509184	53	4115
2026-01-21 05:26:37.37	1.49	10.00	-41.5	-42.6	19.0	0.00e+00	0	39	0	162529280	53	4067
2026-01-21 05:26:40.33	1.20	10.22	-41.5	-42.6	18.9	0.00e+00	0	39	0	183500800	53	4091
2026-01-21 05:26:43.39	0.88	10.44	-41.4	-42.5	19.1	0.00e+00	0	39	0	205520896	53	4031
2026-01-21 05:26:46.38	0.57	10.65	-41.7	-42.8	18.8	0.00e+00	0	39	0	227540992	53	4174
2026-01-21 05:26:49.36	0.26	10.87	-41.4	-42.5	19.1	0.00e+00	0	39	0	249561088	53	4023
2026-01-21 05:26:52.35	359.94	11.09	-41.6	-42.7	18.9	0.00e+00	0	39	0	270532608	53	4125
2026-01-21 05:26:55.36	359.61	11.31	-41.4	-42.5	19.2	0.00e+00	0	39	0	292552704	53	4006
2026-01-21 05:26:58.48	359.26	11.55	-41.2	-42.2	19.4	0.00e+00	0	39	0	314572800	53	3910
2026-01-21 05:27:01.38	358.94	11.76	-41.1	-42.2	19.5	0.00e+00	0	39	0	335544320	52	4102
2026-01-21 05:27:04.82	358.54	12.02	-41.0	-42.0	19.7	0.00e+00	0	39	0	360710144	52	4022
2026-01-21 05:27:07.57	358.22	12.23	-41.0	-42.0	19.7	0.00e+00	0	39	0	380633088	52	4013
2026-01-21 05:27:10.83	357.84	12.47	-40.9	-41.9	19.8	0.00e+00	0	39	0	403701760	52	3963
2026-01-21 05:27:13.55	357.51	12.68	-40.9	-41.9	19.8	0.00e+00	0	39	0	423624704	52	3970
2026-01-21 05:27:17.21	357.07	12.96	-40.8	-41.8	19.9	0.00e+00	0	39	0	449839104	52	3926
2026-01-21 05:27:19.99	356.72	13.17	-40.7	-41.7	20.0	0.00e+00	0	39	0	469762048	52	3900
2026-01-21 05:27:23.46	356.28	13.44	-40.8	-41.8	20.0	0.00e+00	0	39	0	494927872	52	3923
2026-01-21 05:27:26.15	355.94	13.65	-40.7	-41.6	20.1	0.00e+00	0	39	0	514850816	51	4084
2026-01-21 05:27:29.54	355.50	13.91	-40.6	-41.6	20.2	0.00e+00	0	39	0	538968064	51	4077
2026-01-21 05:27:32.24	355.14	14.12	-40.8	-41.7	20.1	0.00e+00	0	39	0	558891008	51	4128
2026-01-21 05:27:35.77	354.66	14.40	-40.6	-41.5	20.3	0.00e+00	0	39	0	584056832	51	4033
2026-01-21 05:27:38.54	354.28	14.61	-40.2	-41.2	20.6	0.00e+00	0	39	0	603979776	51	3895
2026-01-21 05:27:41.82	353.83	14.87	-40.2	-41.2	20.6	0.00e+00	0	39	0	628097024	51	3884
2026-01-21 05:27:44.52	353.44	15.09	-40.2	-41.2	20.6	0.00e+00	0	39	0	646971392	51	3885
2026-01-21 05:27:47.85	352.96	15.35	-40.2	-41.2	20.6	0.00e+00	0	39	0	671088640	51	3887
2026-01-21 05:27:50.69	352.55	15.57	-40.4	-41.4	20.4	0.00e+00	0	39	0	692060160	51	3990
2026-01-21 05:27:53.81	352.08	15.82	-40.4	-41.4	20.4	0.00e+00	0	39	0	714080256	51	3971
2026-01-21 05:27:56.66	351.65	16.05	-40.1	-41.1	20.7	0.00e+00	0	39	0	735051776	51	3843
2026-01-21 05:27:59.78	351.17	16.30	-39.9	-40.9	20.9	0.00e+00	0	39	0	757071872	50	3972
2026-01-21 05:28:02.69	350.72	16.53	-40.1	-41.0	20.8	0.00e+00	0	39	0	778043392	50	4023
2026-01-21 05:28:05.88	350.21	16.79	-39.9	-40.8	21.0	0.00e+00	0	39	0	801112064	50	3944
2026-01-21 05:28:08.85	349.73	17.03	-39.8	-40.7	21.1	0.00e+00	0	39	0	823132160	50	3881
2026-01-21 05:28:11.97	349.22	17.28	-39.7	-40.6	21.2	0.00e+00	0	39	0	845152256	50	3868
2026-01-21 05:28:14.81	348.74	17.51	-39.5	-40.4	21.4	0.00e+00	0	39	0	866123776	49	3979
2026-01-21 05:28:17.93	348.21	17.76	-39.4	-40.4	21.4	0.00e+00	0	39	0	888143872	49	3970
2026-01-21 05:28:20.87	347.71	18.00	-39.3	-40.2	21.5	0.00e+00	0	39	0	909115392	49	3905
2026-01-21 05:28:24.07	347.15	18.25	-39.4	-40.3	21.5	0.00e+00	0	39	0	933232640	49	3931
2026-01-21 05:28:26.91	346.64	18.48	-39.6	-40.5	21.4	0.00e+00	0	39	0	953155584	49	4009
2026-01-21 05:28:30.04	346.07	18.73	-39.5	-40.4	21.4	0.00e+00	0	39	0	975175680	49	4002
2026-01-21 05:28:32.88	345.55	18.96	-39.5	-40.4	21.4	0.00e+00	0	39	0	996147200	49	3983
2026-01-21 05:28:36.01	344.96	19.21	-39.4	-40.3	21.5	0.00e+00	0	39	0	1019215872	49	3923
2026-01-21 05:28:38.85	344.42	19.44	-39.4	-40.2	21.5	0.00e+00	0	39	0	1039138816	49	3905
2026-01-21 05:28:41.98	343.82	19.69	-39.4	-40.3	21.5	0.00e+00	0	39	0	1062207488	49	3914
2026-01-21 05:28:44.82	343.26	19.91	-39.5	-40.4	21.4	0.00e+00	0	39	0	1082130432	49	3988
2026-01-21 05:28:47.94	342.64	20.16	-39.5	-40.4	21.4	0.00e+00	0	39	0	1105199104	49	3989
2026-01-21 05:28:50.78	342.06	20.38	-39.8	-40.7	21.1	0.00e+00	0	39	0	1125122048	49	4126
2026-01-21 05:28:54.02	341.40	20.64	-39.9	-40.8	21.0	0.00e+00	0	39	0	1149239296	49	4185
2026-01-21 05:28:56.92	340.79	20.86	-39.6	-40.5	21.3	0.00e+00	0	40	0	1170210816	49	4035
2026-01-21 05:29:00.06	340.12	21.10	-39.6	-40.5	21.3	0.00e+00	0	39	0	1192230912	49	4030
2026-01-21 05:29:02.90	339.51	21.32	-39.3	-40.2	21.5	0.00e+00	0	39	0	1213202432	49	3907
2026-01-21 05:29:06.02	338.83	21.56	-39.4	-40.3	21.5	0.00e+00	0	39	0	1235222528	49	3933
2026-01-21 05:29:08.86	338.20	21.77	-39.4	-40.3	21.5	0.00e+00	0	39	0	1256194048	49	3918
2026-01-21 05:29:12.10	337.47	22.01	-39.3	-40.3	21.5	0.00e+00	0	39	0	1279262720	49	3916
2026-01-21 05:29:14.95	336.82	22.22	-39.1	-40.1	21.7	0.00e+00	0	39	0	1300234240	49	3831
2026-01-21 05:29:18.00	336.11	22.45	-38.8	-39.7	22.0	0.00e+00	0	39	0	1322254336	48	3870
2026-01-21 05:29:20.99	335.40	22.66	-38.4	-39.3	22.0	0.00e+00	0	40	0	1343225856	47	3937
2026-01-21 05:29:23.97	334.69	22.87	-38.7	-39.5	21.8	0.00e+00	0	39	0	1365245952	47	4047
2026-01-21 05:29:26.95	333.97	23.08	-38.8	-39.7	21.7	0.00e+00	0	39	0	1387266048	47	4105
2026-01-21 05:29:29.94	333.24	23.29	-38.8	-39.7	21.7	0.00e+00	0	39	0	1408237568	47	4123
2026-01-21 05:29:32.93	332.50	23.49	-38.9	-39.8	21.6	0.00e+00	0	39	0	1429209088	47	4158
2026-01-21 05:29:35.91	331.75	23.69	-38.5	-39.4	21.9	0.00e+00	0	40	0	1451229184	47	3986
2026-01-21 05:29:38.90	330.98	23.89	-38.4	-39.2	22.1	0.00e+00	0	39	0	1472200704	47	3897
2026-01-21 05:29:41.88	330.21	24.08	-38.4	-39.3	22.0	0.00e+00	0	39	0	1494220800	47	3919
2026-01-21 05:29:44.87	329.43	24.26	-38.8	-39.7	21.7	0.00e+00	0	39	0	1516240896	47	4118
2026-01-21 05:29:47.96	328.62	24.45	-38.9	-39.9	21.5	0.00e+00	0	39	0	1538260992	47	4200
2026-01-21 05:29:50.80	327.86	24.62	-38.5	-39.4	21.9	0.00e+00	0	39	0	1559232512	47	3997
2026-01-21 05:29:53.93	327.01	24.80	-38.5	-39.4	21.9	0.00e+00	0	39	0	1581252608	47	3981
2026-01-21 05:29:56.77	326.23	24.96	-38.4	-39.3	22.0	0.00e+00	0	40	0	1602224128	47	3938
2026-01-21 05:29:59.90	325.37	25.13	-38.4	-39.3	22.1	0.00e+00	0	40	0	1624244224	47	3915
2026-01-21 05:30:02.79	324.56	25.28	-38.2	-39.1	22.2	0.00e+00	0	39	0	1645215744	47	3843
2026-01-21 05:30:05.98	323.66	25.44	-38.7	-39.6	21.8	0.00e+00	0	39	0	1668284416	47	4053
2026-01-21 05:30:08.83	322.85	25.58	-38.7	-39.6	21.8	0.00e+00	0	39	0	1689255936	47	4059
2026-01-21 05:30:11.95	321.95	25.72	-38.5	-39.4	21.9	0.00e+00	0	40	0	1711276032	47	3992
2026-01-21 05:30:14.80	321.12	25.84	-38.7	-39.6	21.8	0.00e+00	0	39	0	1732247552	47	4067
2026-01-21 05:30:17.93	320.21	25.98	-38.7	-39.6	21.7	0.00e+00	0	39	0	1754267648	47	4057
2026-01-21 05:30:20.83	319.35	26.09	-38.5	-39.4	22.0	0.00e+00	0	40	0	1775239168	47	3960
2026-01-21 05:30:23.96	318.43	26.21	-38.4	-39.3	22.0	0.00e+00	0	40	0	1798307840	47	3920
2026-01-21 05:30:26.80	317.58	26.30	-38.7	-39.6	21.8	0.00e+00	0	39	0	1819279360	47	4070
2026-01-21 05:30:29.93	316.64	26.41	-38.6	-39.5	21.8	0.00e+00	0	39	0	1841299456	47	4030
2026-01-21 05:30:32.77	315.78	26.49	-38.4	-39.2	22.1	0.00e+00	0	39	0	1862270976	47	3889
2026-01-21 05:30:35.89	314.83	26.57	-38.1	-39.0	22.3	0.00e+00	0	40	0	1884291072	47	3785
2026-01-21 05:30:38.78	313.94	26.65	-38.2	-39.1	22.2	0.00e+00	0	40	0	1905262592	46	4069
2026-01-21 05:30:41.98	312.96	26.72	-38.4	-39.2	22.1	0.00e+00	0	40	0	1928331264	46	4131
2026-01-21 05:30:44.89	312.06	26.77	-38.4	-39.2	22.1	0.00e+00	0	40	0	1949302784	46	4129
2026-01-21 05:30:48.06	311.08	26.82	-38.2	-39.0	22.3	0.00e+00	0	39	0	1972371456	46	4026
2026-01-21 05:30:50.91	310.20	26.86	-38.4	-39.2	22.1	0.00e+00	0	40	0	1992294400	46	4118
2026-01-21 05:30:54.03	309.23	26.90	-38.4	-39.2	22.1	0.00e+00	0	39	0	2015363072	46	4137
2026-01-21 05:30:56.87	308.34	26.92	-38.2	-39.0	22.3	0.00e+00	0	39	0	2035286016	46	4020
2026-01-21 05:31:00.11	307.33	26.94	-38.0	-38.8	22.4	0.00e+00	0	40	0	2059403264	46	3948
2026-01-21 05:31:02.96	306.44	26.94	-38.1	-39.0	22.3	0.00e+00	0	40	0	2079326208	46	4013
2026-01-21 05:31:06.09	305.46	26.94	-38.2	-39.1	22.2	0.00e+00	0	40	0	2102394880	46	4065
2026-01-21 05:31:09.04	304.54	26.93	-38.0	-38.8	22.4	0.00e+00	0	39	0	2123366400	46	3951
2026-01-21 05:31:12.03	303.61	26.91	-38.0	-38.8	22.5	0.00e+00	0	40	0	2145386496	46	3935
2026-01-21 05:31:15.02	302.68	26.89	-38.2	-39.0	22.3	0.00e+00	0	40	0	2166358016	46	4043
2026-01-21 05:31:18.00	301.75	26.85	-38.2	-39.0	22.3	0.00e+00	0	39	0	2188378112	46	4020
2026-01-21 05:31:20.99	300.82	26.81	-38.2	-39.1	22.2	0.00e+00	0	39	0	2209349632	46	4064
2026-01-21 05:31:23.97	299.90	26.76	-38.2	-39.0	22.3	0.00e+00	0	39	0	2231369728	46	4033
2026-01-21 05:31:26.95	298.98	26.70	-38.0	-38.9	22.4	0.00e+00	0	39	0	2253389824	46	3973
2026-01-21 05:31:29.94	298.06	26.63	-38.0	-38.9	22.4	0.00e+00	0	39	0	2274361344	46	3966
2026-01-21 05:31:32.97	297.13	26.56	-38.1	-38.9	22.3	0.00e+00	0	40	0	2296381440	46	4000
2026-01-21 05:31:35.95	296.23	26.48	-38.0	-38.8	22.4	0.00e+00	0	40	0	2318401536	46	3929
2026-01-21 05:31:38.93	295.32	26.39	-38.1	-38.9	22.3	0.00e+00	0	40	0	2339373056	46	3996
2026-01-21 05:31:41.91	294.43	26.29	-38.3	-39.1	22.2	0.00e+00	0	40	0	2361393152	46	4083
2026-01-21 05:31:44.90	293.53	26.18	-38.3	-39.1	22.2	0.00e+00	0	40	0	2382364672	46	4079
2026-01-21 05:31:47.95	292.63	26.07	-38.4	-39.2	22.1	0.00e+00	0	40	0	2404384768	46	4127
2026-01-21 05:31:50.95	291.74	25.95	-38.4	-39.3	22.1	0.00e+00	0	40	0	2426404864	46	4173
2026-01-21 05:31:53.94	290.87	25.82	-38.4	-39.2	22.1	0.00e+00	0	40	0	2447376384	46	4142
2026-01-21 05:31:56.92	290.00	25.69	-38.3	-39.1	22.2	0.00e+00	0	40	0	2469396480	46	4086
2026-01-21 05:31:59.90	289.15	25.55	-38.4	-39.3	22.1	0.00e+00	0	39	0	2490368000	46	4154
2026-01-21 05:32:02.88	288.30	25.41	-38.4	-39.2	22.1	0.00e+00	0	40	0	2512388096	46	4131
2026-01-21 05:32:05.94	287.43	25.25	-38.2	-39.1	22.2	0.00e+00	0	40	0	2534408192	46	4058
2026-01-21 05:32:08.82	286.63	25.10	-38.3	-39.1	22.2	0.00e+00	0	40	0	2555379712	46	4094
2026-01-21 05:32:11.95	285.76	24.93	-38.5	-39.3	22.0	0.00e+00	0	39	0	2577399808	46	4174
2026-01-21 05:32:14.79	284.98	24.77	-38.3	-39.2	22.2	0.00e+00	0	40	0	2598371328	46	4103
2026-01-21 05:32:17.91	284.14	24.59	-38.3	-39.1	22.2	0.00e+00	0	39	0	2620391424	46	4092
2026-01-21 05:32:20.75	283.38	24.42	-38.4	-39.3	22.1	0.00e+00	0	40	0	2641362944	46	4154
2026-01-21 05:32:23.99	282.52	24.22	-38.4	-39.2	22.1	0.00e+00	0	39	0	2664431616	46	4122
2026-01-21 05:32:26.82	281.78	24.04	-38.5	-39.3	22.0	0.00e+00	0	40	0	2685403136	46	4176
2026-01-21 05:32:30.09	280.93	23.83	-38.6	-39.4	21.9	0.00e+00	0	39	0	2708471808	46	4232
2026-01-21 05:32:32.81	280.24	23.65	-38.4	-39.3	22.1	0.00e+00	0	40	0	2728394752	46	4157
2026-01-21 05:32:36.10	279.41	23.43	-38.3	-39.1	22.2	0.00e+00	0	40	0	2751463424	46	4078
2026-01-21 05:32:39.20	278.64	23.22	-38.5	-39.4	21.9	0.00e+00	0	39	0	2774532096	46	4208
2026-01-21 05:32:42.32	277.87	23.00	-38.6	-39.4	21.9	0.00e+00	0	39	0	2796552192	46	4232
2026-01-21 05:32:45.16	277.19	22.80	-38.7	-39.5	21.8	0.00e+00	0	39	0	2817523712	46	4287
2026-01-21 05:32:48.31	276.44	22.57	-38.6	-39.4	21.9	0.00e+00	0	40	0	2840592384	47	4004
2026-01-21 05:32:51.15	275.77	22.37	-38.3	-39.2	22.1	0.00e+00	0	39	0	2860515328	47	3879
2026-01-21 05:32:54.50	274.99	22.12	-38.5	-39.3	22.0	0.00e+00	0	40	0	2884632576	47	3951
2026-01-21 05:32:57.23	274.37	21.92	-38.6	-39.5	21.9	0.00e+00	0	39	0	2904555520	47	4021
2026-01-21 05:33:00.74	273.58	21.65	-38.6	-39.4	21.9	0.00e+00	0	39	0	2929721344	47	3998
2026-01-21 05:33:03.45	272.98	21.45	-38.8	-39.7	21.7	0.00e+00	0	39	0	2949644288	47	4103
2026-01-21 05:33:06.72	272.26	21.20	-38.6	-39.5	21.8	0.00e+00	0	40	0	2972712960	47	4017
2026-01-21 05:33:09.49	271.67	20.98	-38.6	-39.5	21.8	0.00e+00	0	39	0	2992635904	47	4013
2026-01-21 05:33:12.75	270.98	20.73	-38.8	-39.7	21.7	0.00e+00	0	40	0	3016753152	47	4111
2026-01-21 05:33:15.69	270.36	20.50	-39.0	-39.9	21.5	0.00e+00	0	40	0	3037724672	47	4202
2026-01-21 05:33:18.68	269.75	20.26	-38.9	-39.8	21.6	0.00e+00	0	40	0	3059744768	47	4165
2026-01-21 05:33:21.66	269.15	20.03	-39.1	-39.9	21.4	0.00e+00	0	39	0	3080716288	47	4231
2026-01-21 05:33:24.73	268.53	19.78	-38.9	-39.7	21.6	0.00e+00	0	40	0	3102736384	47	4141
2026-01-21 05:33:27.57	267.98	19.56	-39.0	-39.9	21.5	0.00e+00	0	39	0	3123707904	47	4221
2026-01-21 05:33:30.70	267.37	19.31	-39.1	-40.0	21.4	0.00e+00	0	40	0	3145728000	47	4264
2026-01-21 05:33:33.54	266.83	19.08	-39.4	-40.3	21.5	0.00e+00	0	40	0	3166699520	48	4168
2026-01-21 05:33:36.67	266.25	18.83	-39.4	-40.3	21.5	0.00e+00	0	40	0	3189768192	48	4165
2026-01-21 05:33:39.51	265.73	18.60	-39.2	-40.1	21.6	0.00e+00	0	40	0	3209691136	48	4065
2026-01-21 05:33:42.64	265.16	18.35	-39.5	-40.3	21.4	0.00e+00	0	40	0	3231711232	48	4182
2026-01-21 05:33:45.64	264.63	18.10	-39.7	-40.6	21.2	0.00e+00	0	40	0	3253731328	48	4328
2026-01-21 05:33:48.89	264.06	17.84	-40.0	-40.9	20.9	0.00e+00	0	40	0	3277848576	49	4198
2026-01-21 05:33:51.73	263.57	17.61	-40.0	-40.9	20.9	0.00e+00	0	39	0	3297771520	49	4212
2026-01-21 05:33:54.85	263.04	17.36	-40.1	-41.0	20.9	0.00e+00	0	40	0	3320840192	49	4248
2026-01-21 05:33:57.70	262.56	17.13	-40.2	-41.1	20.7	0.00e+00	0	40	0	3340763136	49	4330
2026-01-21 05:34:00.82	262.05	16.88	-40.1	-41.0	20.8	0.00e+00	0	39	0	3363831808	49	4245
2026-01-21 05:34:03.67	261.59	16.65	-39.8	-40.7	21.0	0.00e+00	0	39	0	3383754752	49	4133
2026-01-21 05:34:06.99	261.06	16.38	-39.9	-40.8	20.9	0.00e+00	0	40	0	3407872000	49	4169
2026-01-21 05:34:09.69	260.64	16.16	-40.2	-41.1	20.7	0.00e+00	0	40	0	3427794944	49	4303
2026-01-21 05:34:13.44	260.06	15.86	-40.5	-41.4	20.4	0.00e+00	0	39	0	3455057920	50	4229
2026-01-21 05:34:16.16	259.65	15.64	-40.4	-41.3	20.5	0.00e+00	0	40	0	3473932288	50	4173
2026-01-21 05:34:19.42	259.17	15.38	-40.6	-41.5	20.3	0.00e+00	0	39	0	3498049536	50	4276
2026-01-21 05:34:22.12	258.78	15.17	-40.5	-41.5	20.3	0.00e+00	0	39	0	3516923904	50	4252
2026-01-21 05:34:25.63	258.27	14.89	-40.7	-41.7	20.1	0.00e+00	0	40	0	3542089728	50	4357
2026-01-21 05:34:28.34	257.89	14.67	-40.9	-41.9	19.9	0.00e+00	0	40	0	3562012672	51	4216
2026-01-21 05:34:31.78	257.41	14.40	-41.3	-42.3	19.6	0.00e+00	0	40	0	3587178496	51	4393
2026-01-21 05:34:34.48	257.04	14.19	-41.2	-42.1	19.6	0.00e+00	0	39	0	3606052864	52	4094
2026-01-21 05:34:37.75	256.60	13.93	-41.1	-42.1	19.7	0.00e+00	0	40	0	3630170112	52	4058
2026-01-21 05:34:40.47	256.24	13.72	-40.7	-41.7	20.0	0.00e+00	0	40	0	3650093056	52	3882
2026-01-21 05:34:43.74	255.82	13.47	-40.6	-41.6	20.0	0.00e+00	0	40	0	3673161728	52	3842
2026-01-21 05:34:46.47	255.47	13.26	-41.0	-42.0	19.7	0.00e+00	0	40	0	3693084672	52	4042
2026-01-21 05:34:49.74	255.05	13.00	-41.3	-42.3	19.5	0.00e+00	0	40	0	3716153344	52	4165
2026-01-21 05:34:52.46	254.72	12.79	-41.3	-42.3	19.4	0.00e+00	0	39	0	3736076288	52	4163
2026-01-21 05:34:55.73	254.32	12.54	-41.0	-42.0	19.7	0.00e+00	0	40	0	3760193536	52	4013
2026-01-21 05:34:58.43	253.99	12.34	-41.0	-42.0	19.7	0.00e+00	0	40	0	3779067904	52	4015
2026-01-21 05:35:01.71	253.60	12.09	-41.0	-42.0	19.7	0.00e+00	0	40	0	3803185152	52	4014
2026-01-21 05:35:04.71	253.25	11.86	-41.3	-42.2	19.4	0.00e+00	0	40	0	3825205248	52	4139
2026-01-21 05:35:07.89	252.89	11.62	-41.3	-42.3	19.4	0.00e+00	0	40	0	3847225344	52	4166
2026-01-21 05:35:10.87	252.55	11.40	-41.4	-42.4	19.3	0.00e+00	0	39	0	3869245440	52	4238
2026-01-21 05:35:13.85	252.22	11.18	-41.6	-42.6	19.1	0.00e+00	0	40	0	3891265536	52	4316
2026-01-21 05:35:16.84	251.89	10.96	-41.6	-42.6	19.0	0.00e+00	0	40	0	3912237056	52	4338
2026-01-21 05:35:19.82	251.57	10.74	-41.7	-42.8	18.9	0.00e+00	0	39	0	3934257152	52	4413
2026-01-21 05:35:22.82	251.26	10.52	-41.7	-42.7	19.0	0.00e+00	0	40	0	3955228672	53	4121
2026-01-21 05:35:25.95	250.93	10.29	-41.7	-42.7	18.9	0.00e+00	0	40	0	3978297344	53	4140
2026-01-21 05:35:28.79	250.64	10.09	-41.8	-42.8	18.8	0.00e+00	0	40	0	3998220288	53	4177
2026-01-21 05:35:31.92	250.32	9.86	-41.8	-42.8	18.8	0.00e+00	0	40	0	4021288960	53	4193
2026-01-21 05:35:34.79	250.03	9.65	-41.5	-42.5	19.0	0.00e+00	0	40	0	4042260480	53	4034
2026-01-21 05:35:38.04	249.71	9.42	-41.5	-42.5	19.1	0.00e+00	0	39	0	4065329152	53	4038
2026-01-21 05:35:40.96	249.43	9.21	-41.5	-42.4	19.1	0.00e+00	0	40	0	4086300672	53	4003
2026-01-21 05:35:44.13	249.13	8.99	-52.5	-63.0	3.8	6.74e-01	0	40	104	4107272192	74	12687
2026-01-21 05:35:47.40	248.82	8.76	-52.9	-63.7	3.8	8.47e-01	0	40	104	4107272192	75	13027
2026-01-21 05:35:50.13	248.57	8.57	-53.2	-63.8	3.8	8.47e-01	0	40	104	4107272192	75	13251
2026-01-21 05:35:53.44	248.27	8.34	-53.2	-63.9	3.8	8.46e-01	0	40	104	4107272192	75	13311
2026-01-21 05:35:56.23	248.02	8.15	-53.2	-64.0	3.8	8.48e-01	0	40	104	4107272192	75	13508
2026-01-21 05:35:59.64	247.72	7.91	-53.1	-63.9	3.8	8.46e-01	0	40	104	4107272192	75	13382
2026-01-21 05:36:02.40	247.48	7.72	-53.0	-63.9	3.8	8.46e-01	0	40	104	4107272192	75	13323
2026-01-21 05:36:05.79	247.18	7.49	-52.9	-63.8	3.8	8.48e-01	0	40	104	4107272192	75	13204
2026-01-21 05:36:08.55	246.95	7.31	-52.9	-63.8	3.8	8.46e-01	0	40	104	4107272192	75	13229
2026-01-21 05:36:11.84	246.68	7.09	-52.9	-63.8	3.8	8.47e-01	0	40	104	4107272192	75	13220
2026-01-21 05:36:14.55	246.45	6.90	-52.9	-63.8	3.8	8.47e-01	0	40	104	4107272192	75	13195
2026-01-21 05:36:17.83	246.19	6.69	-52.9	-63.8	3.8	8.46e-01	0	40	104	4107272192	75	13197
2026-01-21 05:36:20.53	245.97	6.51	-52.9	-63.8	3.8	8.48e-01	0	40	104	4107272192	75	13206
2026-01-21 05:36:23.79	245.72	6.29	-52.9	-63.8	3.8	8.46e-01	0	40	104	4107272192	75	13197
2026-01-21 05:36:26.49	245.51	6.12	-52.9	-63.8	3.8	8.47e-01	0	40	104	4107272192	75	13207
2026-01-21 05:36:29.77	245.25	5.90	-52.9	-63.8	3.8	8.46e-01	0	40	104	4107272192	75	13130
2026-01-21 05:36:32.47	245.05	5.73	-52.9	-63.8	3.8	8.47e-01	0	40	104	4107272192	75	13140
2026-01-21 05:36:35.75	244.81	5.52	-52.9	-63.8	3.8	8.46e-01	0	40	104	4107272192	75	13241
2026-01-21 05:36:38.46	244.61	5.34	-52.9	-63.8	3.8	8.46e-01	0	40	104	4107272192	75	13166
2026-01-21 05:36:41.72	244.37	5.13	-52.9	-63.8	3.8	8.46e-01	0	40	104	4107272192	75	13113
2026-01-21 05:36:44.42	244.18	4.96	-52.9	-63.8	3.8	8.47e-01	0	40	104	4107272192	75	13151

#Closed at: 2026-01-21 05:36:45
#Recorded file [4107 MB]: D:/Data/31040_260121_082522.dat