passes_logs/2026/01/21/T1/T1__20260121_010314_SUOMI_NPP_rec.log

#Pass ID: 20260121_010314_SUOMI NPP
#Satellite: SUOMI NPP
#Configuration: NPP
#almurnet v.1.7.20251203
#Start time: 2026-01-21 01:03:14

#Version: 2.0.20230620
#Station: T1
#Location: 37.570604 lon 55.790049 lat
#TLE: 1 37849U 11061A   26020.31993517  .00000142  00000+0  88240-4 0  9990
#TLE: 2 37849  98.7818 322.3228 0002330  54.3778 305.7615 14.19527005737466

#Time	Az	El	Level	Level2	SNR	BER	BlckErr	Temp	State	Recorded	gain1	gain2
2026-01-21 01:03:14.89	8.69	5.06	-50.7	-67.4	3.8	1.49e+00	0	37	0	0	73	24090
2026-01-21 01:03:17.87	8.51	5.25	-50.4	-67.2	3.8	1.49e+00	0	37	104	0	71	26306
2026-01-21 01:03:20.85	8.32	5.45	-50.4	-67.2	3.8	1.49e+00	0	37	104	0	71	26328
2026-01-21 01:03:23.83	8.13	5.65	-50.4	-67.2	3.8	1.49e+00	0	37	104	0	71	26356
2026-01-21 01:03:26.81	7.93	5.84	-50.4	-67.2	3.8	1.49e+00	0	38	104	0	71	26173
2026-01-21 01:03:29.79	7.74	6.04	-50.4	-67.2	3.8	1.49e+00	0	38	104	0	71	26172
2026-01-21 01:03:32.77	7.54	6.24	-50.4	-67.2	3.8	1.49e+00	0	38	104	0	71	26240
2026-01-21 01:03:35.74	7.33	6.44	-50.4	-67.2	3.8	1.49e+00	0	38	104	0	71	26346
2026-01-21 01:03:38.72	7.13	6.65	-50.4	-67.1	3.8	1.49e+00	0	38	104	0	71	26108
2026-01-21 01:03:41.70	6.92	6.85	-50.4	-67.1	3.8	1.49e+00	0	38	104	0	71	25923
2026-01-21 01:03:44.68	6.71	7.06	-50.4	-66.9	3.8	1.49e+00	0	38	104	0	71	25288
2026-01-21 01:03:47.66	6.49	7.26	-50.4	-66.1	3.8	1.49e+00	0	38	104	0	71	23250
2026-01-21 01:03:50.64	6.27	7.47	-50.4	-65.5	3.8	1.49e+00	0	38	104	0	71	21625
2026-01-21 01:03:53.61	6.05	7.68	-50.4	-65.5	3.8	1.49e+00	0	38	104	0	71	21666
2026-01-21 01:03:56.59	5.83	7.89	-50.4	-66.5	3.8	1.49e+00	0	38	104	0	71	24404
2026-01-21 01:03:59.57	5.60	8.10	-50.4	-67.1	3.8	1.49e+00	0	38	104	0	71	26083
2026-01-21 01:04:02.55	5.36	8.31	-50.3	-63.2	4.3	1.43e+00	0	38	0	0	71	16680
2026-01-21 01:04:05.53	5.13	8.53	-49.3	-56.8	9.0	7.60e-02	0	39	0	5242880	70	8384
2026-01-21 01:04:08.51	4.89	8.74	-48.2	-53.5	12.3	2.59e-04	0	39	0	10485760	68	6489
2026-01-21 01:04:11.49	4.65	8.96	-47.8	-52.8	13.0	2.13e-05	0	39	0	15728640	67	6309
2026-01-21 01:04:14.47	4.40	9.18	-48.9	-55.8	10.2	2.20e-04	0	39	0	22020096	68	8374
2026-01-21 01:04:17.45	4.15	9.40	-46.9	-50.5	15.4	7.00e-07	0	39	0	27262976	65	5403
2026-01-21 01:04:20.44	3.89	9.62	-46.3	-49.2	16.4	0.00e+00	0	39	0	32505856	64	4979
2026-01-21 01:04:23.42	3.63	9.84	-46.5	-49.5	16.2	0.00e+00	0	39	0	38797312	64	5154
2026-01-21 01:04:26.41	3.37	10.06	-46.5	-49.5	16.2	0.00e+00	0	39	0	44040192	64	5137
2026-01-21 01:04:29.39	3.10	10.29	-46.3	-49.4	16.2	0.00e+00	0	39	0	49283072	64	5094
2026-01-21 01:04:32.37	2.83	10.52	-46.5	-49.8	15.9	0.00e+00	0	39	0	55574528	64	5313
2026-01-21 01:04:35.36	2.55	10.74	-46.4	-50.0	15.7	0.00e+00	0	39	0	60817408	64	5430
2026-01-21 01:04:38.34	2.27	10.97	-46.3	-49.8	16.0	0.00e+00	0	39	0	66060288	64	5297
2026-01-21 01:04:41.33	1.98	11.21	-46.2	-49.6	16.1	0.00e+00	0	39	0	72351744	64	5193
2026-01-21 01:04:44.31	1.69	11.44	-46.2	-49.7	16.1	0.00e+00	0	39	0	77594624	63	5559
2026-01-21 01:04:47.30	1.40	11.67	-46.1	-49.6	16.2	0.00e+00	0	39	0	82837504	63	5488
2026-01-21 01:04:50.28	1.10	11.91	-46.1	-49.6	16.3	0.00e+00	0	39	0	89128960	63	5489
2026-01-21 01:04:53.27	0.79	12.15	-46.0	-49.3	16.6	0.00e+00	0	39	0	94371840	63	5329
2026-01-21 01:04:56.25	0.48	12.38	-45.6	-48.6	17.2	0.00e+00	0	39	0	99614720	63	4922
2026-01-21 01:04:59.24	0.17	12.62	-45.9	-48.9	17.0	0.00e+00	0	39	0	105906176	63	5061
2026-01-21 01:05:02.23	359.84	12.87	-45.9	-48.9	16.9	0.00e+00	0	39	0	111149056	63	5086
2026-01-21 01:05:05.21	359.52	13.11	-46.2	-49.2	16.7	0.00e+00	0	39	0	116391936	63	5220
2026-01-21 01:05:08.19	359.19	13.35	-46.3	-49.2	16.6	0.00e+00	0	39	0	122683392	63	5270
2026-01-21 01:05:11.18	358.85	13.60	-46.1	-49.1	16.8	0.00e+00	0	39	0	127926272	63	5172
2026-01-21 01:05:14.17	358.50	13.85	-46.2	-49.0	16.9	0.00e+00	0	39	0	133169152	63	5128
2026-01-21 01:05:17.15	358.15	14.10	-45.9	-48.6	17.2	0.00e+00	0	39	0	139460608	63	4925
2026-01-21 01:05:20.13	357.80	14.35	-45.8	-48.5	17.3	0.00e+00	0	39	0	144703488	63	4862
2026-01-21 01:05:23.12	357.44	14.60	-46.2	-49.0	16.9	0.00e+00	0	39	0	149946368	63	5115
2026-01-21 01:05:26.10	357.07	14.85	-46.1	-48.8	17.1	0.00e+00	0	39	0	156237824	63	5034
2026-01-21 01:05:29.09	356.69	15.11	-45.9	-48.6	17.2	0.00e+00	0	39	0	161480704	63	4918
2026-01-21 01:05:32.07	356.31	15.36	-45.8	-48.5	17.4	0.00e+00	0	39	0	166723584	63	4846
2026-01-21 01:05:35.05	355.92	15.62	-46.2	-49.2	16.8	0.00e+00	0	39	0	173015040	63	5231
2026-01-21 01:05:38.04	355.53	15.88	-46.3	-49.3	16.6	0.00e+00	0	39	0	178257920	63	5325
2026-01-21 01:05:41.02	355.12	16.14	-45.9	-48.7	17.2	0.00e+00	0	39	0	183500800	63	4981
2026-01-21 01:05:44.00	354.71	16.40	-45.8	-48.6	17.4	0.00e+00	0	39	0	189792256	63	4871
2026-01-21 01:05:46.99	354.30	16.67	-46.5	-49.4	16.6	0.00e+00	0	40	0	195035136	63	5387
2026-01-21 01:05:49.97	353.87	16.93	-46.6	-49.6	16.4	0.00e+00	0	39	0	200278016	63	5497
2026-01-21 01:05:52.95	353.44	17.19	-47.1	-50.4	15.6	0.00e+00	0	39	0	206569472	65	5376
2026-01-21 01:05:55.94	353.00	17.46	-46.7	-50.0	16.0	0.00e+00	0	39	0	211812352	65	5105
2026-01-21 01:05:58.92	352.55	17.73	-46.4	-49.5	16.5	0.00e+00	0	40	0	217055232	64	5159
2026-01-21 01:06:01.90	352.10	18.00	-46.8	-50.2	15.8	0.00e+00	0	40	0	223346688	64	5568
2026-01-21 01:06:04.89	351.63	18.27	-46.1	-49.2	16.7	0.00e+00	0	39	0	228589568	64	4930
2026-01-21 01:06:07.87	351.16	18.54	-46.5	-49.8	16.2	0.00e+00	0	39	0	233832448	64	5334
2026-01-21 01:06:10.86	350.67	18.81	-46.5	-49.7	16.3	0.00e+00	0	39	0	240123904	64	5278
2026-01-21 01:06:13.84	350.18	19.08	-46.2	-49.1	17.0	0.00e+00	0	39	0	245366784	63	5169
2026-01-21 01:06:16.82	349.68	19.35	-45.9	-48.7	17.4	0.00e+00	0	39	0	250609664	63	4928
2026-01-21 01:06:19.81	349.17	19.63	-46.2	-49.0	17.1	0.00e+00	0	39	0	256901120	63	5109
2026-01-21 01:06:22.79	348.65	19.90	-46.4	-49.3	16.8	0.00e+00	0	39	0	262144000	63	5317
2026-01-21 01:06:25.77	348.13	20.18	-46.3	-49.1	17.0	0.00e+00	0	39	0	267386880	63	5186
2026-01-21 01:06:28.76	347.59	20.45	-46.6	-49.4	16.7	0.00e+00	0	39	0	273678336	63	5382
2026-01-21 01:06:31.74	347.04	20.73	-46.3	-49.1	16.9	0.00e+00	0	39	0	278921216	64	4905
2026-01-21 01:06:34.73	346.48	21.01	-46.0	-48.7	17.4	0.00e+00	0	40	0	284164096	63	4937
2026-01-21 01:06:37.71	345.91	21.28	-45.4	-47.9	18.1	0.00e+00	0	39	0	290455552	62	4790
2026-01-21 01:06:40.70	345.33	21.56	-45.7	-48.2	17.8	0.00e+00	0	39	0	295698432	62	4946
2026-01-21 01:06:43.68	344.75	21.83	-46.0	-48.8	17.2	0.00e+00	0	40	0	301989888	63	5037
2026-01-21 01:06:46.66	344.15	22.11	-45.8	-48.8	17.3	0.00e+00	0	39	0	307232768	63	5004
2026-01-21 01:06:49.65	343.53	22.38	-45.6	-48.3	17.8	0.00e+00	0	40	0	312475648	63	4726
2026-01-21 01:06:52.63	342.91	22.66	-45.8	-48.4	17.6	0.00e+00	0	39	0	318767104	62	5092
2026-01-21 01:06:55.61	342.28	22.93	-45.9	-48.9	17.2	0.00e+00	0	39	0	324009984	62	5359
2026-01-21 01:06:58.60	341.64	23.20	-46.1	-49.1	17.0	0.00e+00	0	40	0	329252864	63	5167
2026-01-21 01:07:01.58	340.98	23.48	-45.9	-48.7	17.4	0.00e+00	0	40	0	335544320	63	4927
2026-01-21 01:07:04.57	340.31	23.75	-46.1	-49.0	17.2	0.00e+00	0	39	0	340787200	63	5107
2026-01-21 01:07:07.55	339.63	24.01	-46.6	-49.9	16.3	0.00e+00	0	39	0	346030080	64	5350
2026-01-21 01:07:10.54	338.94	24.28	-46.1	-49.1	17.0	0.00e+00	0	39	0	352321536	64	4886
2026-01-21 01:07:13.52	338.24	24.55	-45.7	-48.3	17.7	0.00e+00	0	39	0	357564416	63	4733
2026-01-21 01:07:16.51	337.52	24.81	-45.9	-48.6	17.5	0.00e+00	0	39	0	362807296	63	4873
2026-01-21 01:07:19.49	336.79	25.07	-45.2	-47.9	18.1	0.00e+00	0	39	0	369098752	62	4761
2026-01-21 01:07:22.48	336.05	25.33	-44.8	-47.3	18.6	0.00e+00	0	39	0	374341632	61	4759
2026-01-21 01:07:25.46	335.30	25.58	-44.9	-47.4	18.6	0.00e+00	0	40	0	379584512	61	4766
2026-01-21 01:07:28.44	334.54	25.84	-45.7	-48.3	17.7	0.00e+00	0	40	0	385875968	62	5041
2026-01-21 01:07:31.43	333.76	26.08	-45.7	-48.3	17.8	0.00e+00	0	39	0	391118848	62	5001
2026-01-21 01:07:34.41	332.97	26.33	-45.7	-48.3	17.8	0.00e+00	0	40	0	396361728	62	5006
2026-01-21 01:07:37.39	332.17	26.57	-45.9	-48.6	17.4	0.00e+00	0	39	0	402653184	62	5203
2026-01-21 01:07:40.38	331.36	26.81	-45.3	-48.3	17.8	0.00e+00	0	40	0	407896064	62	4992
2026-01-21 01:07:43.36	330.53	27.04	-45.4	-48.3	17.8	0.00e+00	0	40	0	413138944	62	4985
2026-01-21 01:07:46.34	329.70	27.27	-45.7	-48.3	17.7	0.00e+00	0	39	0	419430400	62	5037
2026-01-21 01:07:49.33	328.85	27.49	-45.6	-48.2	17.9	0.00e+00	0	40	0	424673280	62	4928
2026-01-21 01:07:52.31	327.98	27.71	-46.4	-49.4	16.8	0.00e+00	0	39	0	429916160	63	5349
2026-01-21 01:07:55.30	327.11	27.92	-46.6	-50.0	16.1	0.00e+00	0	40	0	436207616	64	5460
2026-01-21 01:07:58.28	326.23	28.13	-46.4	-49.5	16.6	0.00e+00	0	40	0	441450496	64	5132
2026-01-21 01:08:01.27	325.33	28.33	-45.8	-48.5	17.5	0.00e+00	0	40	0	446693376	63	4853
2026-01-21 01:08:04.25	324.42	28.52	-45.8	-48.7	17.4	0.00e+00	0	40	0	452984832	62	5266
2026-01-21 01:08:07.23	323.50	28.71	-45.8	-48.5	17.6	0.00e+00	0	39	0	458227712	63	4834
2026-01-21 01:08:10.21	322.57	28.89	-46.4	-49.4	16.9	0.00e+00	0	40	0	463470592	63	5344
2026-01-21 01:08:13.20	321.63	29.06	-46.6	-49.8	16.3	0.00e+00	0	40	0	469762048	64	5310
2026-01-21 01:08:16.18	320.68	29.22	-46.4	-49.4	16.7	0.00e+00	0	40	0	475004928	64	5063
2026-01-21 01:08:19.16	319.72	29.38	-46.0	-48.7	17.4	0.00e+00	0	40	0	480247808	63	4949
2026-01-21 01:08:22.15	318.75	29.53	-45.8	-48.4	17.7	0.00e+00	0	40	0	486539264	63	4783
2026-01-21 01:08:25.13	317.78	29.67	-46.5	-49.3	16.9	0.00e+00	0	40	0	491782144	63	5304
2026-01-21 01:08:28.11	316.79	29.80	-45.0	-47.4	18.6	0.00e+00	0	39	0	497025024	62	4519
2026-01-21 01:08:31.10	315.80	29.92	-44.9	-47.5	18.4	0.00e+00	0	40	0	503316480	61	4835
2026-01-21 01:08:34.08	314.80	30.03	-45.5	-48.1	18.0	0.00e+00	0	40	0	508559360	61	5192
2026-01-21 01:08:37.06	313.79	30.13	-46.1	-48.7	17.4	0.00e+00	0	40	0	513802240	62	5265
2026-01-21 01:08:40.05	312.77	30.23	-47.7	-51.1	15.2	0.00e+00	0	40	0	520093696	66	5477
2026-01-21 01:08:43.03	311.76	30.31	-47.8	-51.3	14.9	0.00e+00	0	39	0	525336576	67	5291
2026-01-21 01:08:46.01	310.73	30.39	-47.1	-50.2	16.0	0.00e+00	0	39	0	530579456	66	4953
2026-01-21 01:08:48.99	309.70	30.45	-46.3	-49.0	17.0	0.00e+00	0	40	0	536870912	64	4870
2026-01-21 01:08:51.98	308.67	30.50	-45.8	-48.3	17.8	0.00e+00	0	39	0	542113792	63	4747
2026-01-21 01:08:54.96	307.63	30.54	-46.6	-49.4	16.7	0.00e+00	0	40	0	547356672	64	5083
2026-01-21 01:08:57.95	306.59	30.58	-46.7	-49.5	16.6	0.00e+00	0	39	0	553648128	64	5126
2026-01-21 01:09:00.93	305.55	30.60	-47.2	-50.3	15.8	0.00e+00	0	40	0	558891008	65	5295
2026-01-21 01:09:03.92	304.51	30.61	-47.1	-50.1	16.0	0.00e+00	0	40	0	564133888	65	5199
2026-01-21 01:09:06.90	303.47	30.61	-45.6	-48.1	17.9	0.00e+00	0	40	0	570425344	63	4610
2026-01-21 01:09:09.89	302.42	30.60	-46.3	-49.0	17.1	0.00e+00	0	40	0	575668224	63	5154
2026-01-21 01:09:12.87	301.39	30.58	-47.2	-50.4	15.7	0.00e+00	0	39	0	580911104	65	5384
2026-01-21 01:09:15.86	300.34	30.55	-47.0	-50.1	16.0	0.00e+00	0	40	0	587202560	65	5174
2026-01-21 01:09:18.84	299.31	30.50	-46.0	-48.6	17.4	0.00e+00	0	40	0	592445440	63	4926
2026-01-21 01:09:21.82	298.28	30.45	-46.4	-49.1	17.0	0.00e+00	0	40	0	597688320	63	5216
2026-01-21 01:09:24.81	297.24	30.39	-46.6	-49.5	16.7	0.00e+00	0	40	0	603979776	64	5104
2026-01-21 01:09:27.79	296.22	30.32	-46.5	-49.3	16.8	0.00e+00	0	40	0	609222656	64	5008
2026-01-21 01:09:30.77	295.20	30.23	-47.0	-50.0	16.1	0.00e+00	0	39	0	614465536	64	5447
2026-01-21 01:09:33.76	294.18	30.14	-46.0	-48.6	17.4	0.00e+00	0	40	0	620756992	64	4624
2026-01-21 01:09:36.74	293.17	30.04	-45.5	-48.0	18.1	0.00e+00	0	39	0	625999872	62	4846
2026-01-21 01:09:39.73	292.17	29.92	-46.4	-49.1	17.0	0.00e+00	0	40	0	631242752	63	5192
2026-01-21 01:09:42.71	291.17	29.80	-45.5	-47.9	18.2	0.00e+00	0	39	0	637534208	62	4789
2026-01-21 01:09:45.69	290.19	29.67	-45.4	-47.9	18.1	0.00e+00	0	39	0	642777088	62	4788
2026-01-21 01:09:48.67	289.21	29.53	-45.5	-48.0	18.1	0.00e+00	0	40	0	648019968	62	4837
2026-01-21 01:09:51.66	288.24	29.38	-46.2	-48.9	17.2	0.00e+00	0	39	0	654311424	63	5064
2026-01-21 01:09:54.64	287.27	29.23	-46.1	-48.7	17.4	0.00e+00	0	39	0	659554304	63	4932
2026-01-21 01:09:57.62	286.32	29.06	-46.0	-48.6	17.4	0.00e+00	0	40	0	664797184	62	5215
2026-01-21 01:10:00.61	285.38	28.89	-46.5	-49.2	16.8	0.00e+00	0	40	0	671088640	64	4973
2026-01-21 01:10:03.59	284.45	28.71	-46.2	-48.9	17.1	0.00e+00	0	39	0	676331520	64	4778
2026-01-21 01:10:06.57	283.53	28.53	-46.4	-49.2	16.9	0.00e+00	0	40	0	681574400	64	4949
2026-01-21 01:10:09.56	282.62	28.33	-46.4	-49.1	17.0	0.00e+00	0	39	0	687865856	64	4875
2026-01-21 01:10:12.54	281.72	28.13	-46.6	-49.3	16.7	0.00e+00	0	39	0	693108736	64	5036
2026-01-21 01:10:15.52	280.83	27.93	-47.8	-51.1	15.2	0.00e+00	0	40	0	698351616	66	5518
2026-01-21 01:10:18.50	279.95	27.71	-48.5	-52.3	13.8	2.20e-06	0	39	0	704643072	67	5983
2026-01-21 01:10:21.49	279.09	27.50	-48.1	-51.8	14.4	0.00e+00	0	39	0	709885952	67	5606
2026-01-21 01:10:24.47	278.24	27.27	-47.8	-51.2	15.0	0.00e+00	0	40	0	715128832	67	5223
2026-01-21 01:10:27.46	277.39	27.04	-46.1	-48.8	17.2	0.00e+00	0	39	0	721420288	64	4720
2026-01-21 01:10:30.44	276.56	26.81	-45.3	-47.6	18.4	0.00e+00	0	39	0	726663168	62	4635
2026-01-21 01:10:33.42	275.75	26.57	-46.1	-48.7	17.5	0.00e+00	0	40	0	731906048	62	5234
2026-01-21 01:10:36.41	274.94	26.33	-45.4	-47.8	18.2	0.00e+00	0	39	0	738197504	62	4718
2026-01-21 01:10:39.39	274.15	26.09	-45.9	-48.6	17.5	0.00e+00	0	39	0	743440384	62	5172
2026-01-21 01:10:42.38	273.37	25.84	-46.0	-48.6	17.4	0.00e+00	0	40	0	748683264	63	4915
2026-01-21 01:10:45.36	272.60	25.58	-46.8	-49.8	16.3	0.00e+00	0	40	0	754974720	64	5300
2026-01-21 01:10:48.35	271.85	25.33	-47.0	-50.1	16.0	0.00e+00	0	40	0	760217600	65	5167
2026-01-21 01:10:51.33	271.11	25.07	-46.2	-48.9	17.2	0.00e+00	0	39	0	765460480	64	4761
2026-01-21 01:10:54.32	270.37	24.81	-45.0	-47.3	18.6	0.00e+00	0	39	0	771751936	62	4488
2026-01-21 01:10:57.30	269.66	24.54	-44.8	-47.2	18.7	0.00e+00	0	39	0	776994816	61	4671
2026-01-21 01:11:00.28	268.95	24.28	-44.5	-46.8	19.1	0.00e+00	0	39	0	782237696	61	4451
2026-01-21 01:11:03.26	268.26	24.01	-44.6	-46.9	19.0	0.00e+00	0	40	0	788529152	60	4775
2026-01-21 01:11:06.25	267.57	23.74	-44.3	-46.5	19.4	0.00e+00	0	40	0	793772032	60	4562
2026-01-21 01:11:09.23	266.90	23.47	-43.7	-45.8	19.9	0.00e+00	0	40	0	799014912	59	4455
2026-01-21 01:11:12.21	266.24	23.20	-44.2	-46.3	19.4	0.00e+00	0	40	0	805306368	59	4754
2026-01-21 01:11:15.20	265.59	22.92	-45.1	-47.4	18.5	0.00e+00	0	39	0	810549248	60	5081
2026-01-21 01:11:18.18	264.96	22.65	-45.2	-47.6	18.3	0.00e+00	0	40	0	815792128	62	4636
2026-01-21 01:11:21.17	264.33	22.37	-45.0	-47.4	18.6	0.00e+00	0	39	0	822083584	62	4517
2026-01-21 01:11:24.15	263.72	22.10	-44.9	-47.3	18.6	0.00e+00	0	39	0	827326464	61	4721
2026-01-21 01:11:27.13	263.12	21.82	-44.3	-46.5	19.3	0.00e+00	0	40	0	832569344	60	4570
2026-01-21 01:11:30.12	262.52	21.54	-43.6	-45.7	19.9	0.00e+00	0	39	0	838860800	59	4430
2026-01-21 01:11:33.10	261.94	21.27	-43.8	-45.9	19.8	0.00e+00	0	39	0	844103680	58	4786
2026-01-21 01:11:36.08	261.37	20.99	-44.3	-46.5	19.2	0.00e+00	0	39	0	849346560	59	4852
2026-01-21 01:11:39.06	260.81	20.71	-44.3	-46.6	19.1	0.00e+00	0	40	0	855638016	59	4906
2026-01-21 01:11:42.05	260.26	20.44	-44.4	-46.7	19.1	0.00e+00	0	40	0	860880896	59	4938
2026-01-21 01:11:45.03	259.72	20.16	-44.4	-46.6	19.1	0.00e+00	0	39	0	866123776	59	4895
2026-01-21 01:11:48.02	259.18	19.88	-44.4	-46.7	19.0	0.00e+00	0	39	0	872415232	59	4944
2026-01-21 01:11:51.00	258.66	19.61	-44.5	-46.8	19.0	0.00e+00	0	40	0	877658112	60	4722
2026-01-21 01:11:53.99	258.15	19.33	-44.1	-46.3	19.4	0.00e+00	0	39	0	882900992	60	4482
2026-01-21 01:11:56.98	257.64	19.06	-43.9	-46.1	19.6	0.00e+00	0	40	0	889192448	59	4616
2026-01-21 01:11:59.96	257.15	18.79	-44.8	-47.1	18.8	0.00e+00	0	39	0	894435328	60	4926
2026-01-21 01:12:02.94	256.67	18.51	-45.5	-48.1	17.9	0.00e+00	0	39	0	899678208	61	5160
2026-01-21 01:12:05.93	256.19	18.24	-45.1	-47.5	18.3	0.00e+00	0	39	0	905969664	61	4863
2026-01-21 01:12:08.91	255.72	17.97	-44.7	-47.0	18.8	0.00e+00	0	39	0	911212544	61	4547
2026-01-21 01:12:11.90	255.26	17.70	-44.6	-47.0	18.8	0.00e+00	0	40	0	916455424	60	4833
2026-01-21 01:12:14.88	254.81	17.43	-45.0	-47.3	18.5	0.00e+00	0	39	0	922746880	60	5041
2026-01-21 01:12:17.87	254.36	17.16	-45.4	-47.9	17.9	0.00e+00	0	39	0	927989760	61	5094
2026-01-21 01:12:20.85	253.93	16.90	-46.0	-48.7	17.2	0.00e+00	0	39	0	933232640	62	5237
2026-01-21 01:12:23.84	253.50	16.63	-45.5	-48.1	17.8	0.00e+00	0	39	0	939524096	62	4878
2026-01-21 01:12:26.82	253.08	16.37	-45.2	-47.6	18.3	0.00e+00	0	39	0	944766976	62	4624
2026-01-21 01:12:29.80	252.67	16.11	-45.5	-48.1	17.7	0.00e+00	0	39	0	950009856	62	4902
2026-01-21 01:12:32.79	252.26	15.84	-46.0	-48.7	17.2	0.00e+00	0	39	0	956301312	63	4951
2026-01-21 01:12:35.77	251.86	15.58	-45.8	-48.4	17.4	0.00e+00	0	39	0	961544192	63	4810
2026-01-21 01:12:38.75	251.47	15.33	-45.4	-48.0	17.9	0.00e+00	0	39	0	966787072	62	4816
2026-01-21 01:12:41.74	251.09	15.07	-45.4	-47.9	18.0	0.00e+00	0	39	0	973078528	62	4763
2026-01-21 01:12:44.72	250.71	14.81	-45.1	-47.5	18.3	0.00e+00	0	39	0	978321408	62	4559
2026-01-21 01:12:47.70	250.34	14.56	-45.3	-47.7	18.0	0.00e+00	0	40	0	983564288	61	4971
2026-01-21 01:12:50.69	249.97	14.31	-45.7	-48.2	17.6	0.00e+00	0	39	0	989855744	62	4969
2026-01-21 01:12:53.67	249.61	14.05	-45.7	-48.3	17.5	0.00e+00	0	40	0	995098624	62	4999
2026-01-21 01:12:56.66	249.26	13.80	-45.9	-48.5	17.3	0.00e+00	0	39	0	1000341504	62	5133
2026-01-21 01:12:59.64	248.91	13.56	-45.7	-48.3	17.5	0.00e+00	0	39	0	1006632960	62	5005
2026-01-21 01:13:02.63	248.57	13.31	-45.7	-48.4	17.4	0.00e+00	0	40	0	1011875840	62	5053
2026-01-21 01:13:05.61	248.24	13.06	-46.3	-49.2	16.6	0.00e+00	0	40	0	1017118720	63	5243
2026-01-21 01:13:08.60	247.90	12.82	-46.8	-49.9	15.8	0.00e+00	0	39	0	1023410176	64	5378
2026-01-21 01:13:11.58	247.58	12.58	-46.7	-49.7	16.1	0.00e+00	0	40	0	1028653056	64	5234
2026-01-21 01:13:14.56	247.26	12.34	-45.9	-48.6	17.1	0.00e+00	0	40	0	1033895936	63	4885
2026-01-21 01:13:17.55	246.95	12.10	-45.2	-47.8	17.8	0.00e+00	0	39	0	1040187392	62	4712
2026-01-21 01:13:20.53	246.64	11.86	-45.1	-47.6	17.9	0.00e+00	0	39	0	1045430272	62	4646
2026-01-21 01:13:23.51	246.34	11.62	-45.7	-48.4	17.1	0.00e+00	0	40	0	1050673152	62	5054
2026-01-21 01:13:26.50	246.04	11.39	-46.3	-49.3	16.1	0.00e+00	0	39	0	1056964608	63	5300
2026-01-21 01:13:29.48	245.74	11.15	-46.6	-49.8	15.4	0.00e+00	0	40	0	1062207488	63	5627
2026-01-21 01:13:32.46	245.46	10.92	-46.7	-50.0	15.1	0.00e+00	0	40	0	1067450368	64	5427
2026-01-21 01:13:35.45	245.17	10.69	-46.7	-50.0	15.0	0.00e+00	0	39	0	1073741824	64	5436
2026-01-21 01:13:38.43	244.89	10.46	-46.7	-50.2	14.8	0.00e+00	0	39	0	1078984704	64	5534
2026-01-21 01:13:41.42	244.62	10.23	-46.5	-49.8	15.1	0.00e+00	0	39	0	1084227584	64	5316
2026-01-21 01:13:44.40	244.35	10.01	-46.4	-49.6	15.2	0.00e+00	0	40	0	1090519040	64	5183
2026-01-21 01:13:47.38	244.08	9.78	-46.2	-49.4	15.4	0.00e+00	0	40	0	1095761920	64	5063
2026-01-21 01:13:50.37	243.82	9.56	-46.5	-49.8	14.9	0.00e+00	0	40	0	1101004800	64	5322
2026-01-21 01:13:53.35	243.56	9.34	-46.6	-50.1	14.7	0.00e+00	0	40	0	1107296256	64	5494
2026-01-21 01:13:56.33	243.30	9.12	-46.5	-50.0	14.7	1.50e-06	0	39	0	1112539136	64	5403
2026-01-21 01:13:59.31	243.05	8.90	-51.1	-66.4	3.8	1.49e+00	0	40	104	1115684864	72	22535
2026-01-21 01:14:02.29	242.81	8.68	-51.3	-66.5	3.8	1.49e+00	0	40	104	1115684864	73	21729
2026-01-21 01:14:05.27	242.56	8.47	-51.3	-66.6	3.8	1.49e+00	0	39	104	1115684864	73	21777
2026-01-21 01:14:08.25	242.33	8.25	-51.3	-66.6	3.8	1.49e+00	0	39	104	1115684864	73	21854
2026-01-21 01:14:11.23	242.09	8.04	-51.2	-66.6	3.8	1.49e+00	0	39	104	1115684864	73	21811
2026-01-21 01:14:14.21	241.86	7.83	-51.1	-66.5	3.8	1.49e+00	0	40	104	1115684864	73	21639
2026-01-21 01:14:17.19	241.63	7.61	-51.1	-66.5	3.8	1.49e+00	0	40	104	1115684864	73	21557
2026-01-21 01:14:20.17	241.40	7.41	-50.9	-66.4	3.8	1.49e+00	0	39	104	1115684864	73	21307
2026-01-21 01:14:23.15	241.18	7.20	-50.9	-66.3	3.8	1.49e+00	0	40	104	1115684864	73	21176
2026-01-21 01:14:26.13	240.96	6.99	-50.9	-66.3	3.8	1.49e+00	0	40	104	1115684864	73	21161
2026-01-21 01:14:29.11	240.75	6.79	-50.9	-66.3	3.8	1.49e+00	0	40	104	1115684864	73	21097
2026-01-21 01:14:32.09	240.54	6.58	-50.9	-66.3	3.8	1.49e+00	0	40	104	1115684864	73	21026
2026-01-21 01:14:35.07	240.33	6.38	-50.8	-66.3	3.8	1.49e+00	0	39	104	1115684864	73	21027
2026-01-21 01:14:38.04	240.12	6.18	-50.8	-66.2	3.8	1.49e+00	0	40	104	1115684864	73	21008
2026-01-21 01:14:41.02	239.92	5.98	-50.8	-66.2	3.8	1.49e+00	0	40	104	1115684864	73	20966
2026-01-21 01:14:44.00	239.72	5.78	-50.8	-66.2	3.8	1.49e+00	0	40	104	1115684864	73	20938
2026-01-21 01:14:46.98	239.52	5.58	-50.8	-66.2	3.8	1.49e+00	0	40	104	1115684864	73	20930
2026-01-21 01:14:49.96	239.32	5.38	-50.8	-66.2	3.8	1.49e+00	0	40	104	1115684864	73	20913
2026-01-21 01:14:52.94	239.13	5.19	-50.8	-66.2	3.8	1.49e+00	0	40	104	1115684864	73	20819
2026-01-21 01:14:55.92	238.94	4.99	-50.8	-66.2	3.8	1.49e+00	0	39	104	1115684864	73	20874

#Closed at: 2026-01-21 01:14:56
#Recorded file [1115 MB]: D:/Data/31040_260121_040314.dat