passes_logs/2026/01/21/T1/T1__20260121_011953_AQUA_rec.log

#Pass ID: 20260121_011953_AQUA
#Satellite: AQUA
#Configuration: AQUA
#almurnet v.1.7.20251203
#Start time: 2026-01-21 01:19:55

#Version: 2.0.20230620
#Station: T1
#Location: 37.570604 lon 55.790049 lat
#TLE: 1 27424U 02022A   26020.30984080  .00001497  00000+0  30942-3 0  9998
#TLE: 2 27424  98.4092 346.8266 0001984  71.7888  69.0903 14.61835321261661

#Time	Az	El	Level	Level2	SNR	BER	BlckErr	Temp	State	Recorded	gain1	gain2
2026-01-21 01:19:55.73	16.27	5.20	-49.9	-72.1	3.8	7.48e-01	0	37	0	0	71	46145
2026-01-21 01:19:58.71	16.29	5.43	-49.9	-72.1	3.8	7.46e-01	0	37	104	0	70	48777
2026-01-21 01:20:01.69	16.32	5.65	-49.9	-72.0	3.8	7.48e-01	0	37	104	0	70	48402
2026-01-21 01:20:04.67	16.34	5.88	-49.9	-72.0	3.8	7.43e-01	0	37	104	0	70	48258
2026-01-21 01:20:07.65	16.36	6.11	-49.9	-72.0	3.8	7.44e-01	0	37	104	0	70	48262
2026-01-21 01:20:10.62	16.38	6.35	-49.9	-72.0	3.8	7.43e-01	0	37	104	0	70	48473
2026-01-21 01:20:13.60	16.40	6.58	-49.9	-72.0	3.8	7.46e-01	0	37	104	0	70	48346
2026-01-21 01:20:16.58	16.42	6.82	-49.9	-71.8	3.8	7.45e-01	0	37	104	0	70	47197
2026-01-21 01:20:19.56	16.45	7.06	-49.8	-71.4	3.8	7.45e-01	0	38	104	0	70	45180
2026-01-21 01:20:22.54	16.47	7.31	-49.8	-70.9	3.8	7.45e-01	0	38	104	0	70	42758
2026-01-21 01:20:25.52	16.49	7.55	-49.7	-70.5	3.8	7.49e-01	0	38	104	0	70	40904
2026-01-21 01:20:28.50	16.51	7.80	-49.6	-70.1	3.8	7.48e-01	0	38	104	0	70	38826
2026-01-21 01:20:31.48	16.54	8.06	-49.5	-69.5	3.8	7.46e-01	0	38	104	0	70	36112
2026-01-21 01:20:34.45	16.56	8.31	-49.3	-68.1	3.8	7.42e-01	0	38	104	0	70	30775
2026-01-21 01:20:37.43	16.58	8.57	-48.9	-66.1	3.8	7.45e-01	0	38	104	0	69	26078
2026-01-21 01:20:40.41	16.61	8.83	-48.4	-64.3	3.8	7.47e-01	0	38	104	0	68	22509
2026-01-21 01:20:43.39	16.63	9.09	-47.5	-62.3	3.8	7.45e-01	0	38	104	0	67	18826
2026-01-21 01:20:46.37	16.65	9.36	-49.0	-66.3	3.8	7.51e-01	0	38	104	0	68	28073
2026-01-21 01:20:49.36	16.68	9.63	-45.5	-58.6	3.8	7.43e-01	0	38	104	0	62	16341
2026-01-21 01:20:52.35	16.70	9.90	-45.4	-58.4	3.8	7.46e-01	0	38	104	0	62	16000
2026-01-21 01:20:55.33	16.73	10.18	-50.1	-67.6	3.9	7.43e-01	0	38	104	0	71	27523
2026-01-21 01:20:58.31	16.75	10.46	-46.6	-51.1	19.7	6.02e-01	0	38	0	1048576	64	6173
2026-01-21 01:21:01.30	16.78	10.75	-46.1	-50.3	20.3	6.04e-01	0	39	0	6815744	64	5636
2026-01-21 01:21:04.28	16.80	11.03	-46.1	-50.1	20.5	6.03e-01	0	39	0	12582912	63	5800
2026-01-21 01:21:07.27	16.83	11.33	-46.2	-50.1	20.6	6.01e-01	0	38	0	18350080	63	5809
2026-01-21 01:21:10.26	16.86	11.62	-45.8	-49.3	21.4	6.03e-01	0	39	0	23592960	63	5306
2026-01-21 01:21:13.24	16.88	11.92	-45.6	-48.9	21.9	6.03e-01	0	38	0	29360128	63	5080
2026-01-21 01:21:16.22	16.91	12.23	-45.0	-48.1	22.6	6.03e-01	0	39	0	35127296	62	4880
2026-01-21 01:21:19.21	16.94	12.54	-44.9	-47.7	22.9	6.02e-01	0	39	0	40370176	61	4968
2026-01-21 01:21:22.19	16.96	12.85	-44.8	-47.6	23.1	6.01e-01	0	38	0	46137344	61	4874
2026-01-21 01:21:25.18	16.99	13.17	-44.7	-47.3	23.3	6.02e-01	0	39	0	51904512	61	4744
2026-01-21 01:21:28.16	17.02	13.49	-44.7	-47.3	23.4	6.03e-01	0	39	0	57147392	61	4743
2026-01-21 01:21:31.15	17.05	13.82	-44.4	-46.9	23.8	6.03e-01	0	39	0	62914560	60	4783
2026-01-21 01:21:34.13	17.08	14.15	-44.3	-46.8	23.9	6.02e-01	0	39	0	68681728	60	4715
2026-01-21 01:21:37.12	17.11	14.48	-44.3	-46.8	23.9	6.04e-01	0	39	0	73924608	60	4712
2026-01-21 01:21:40.11	17.14	14.83	-44.2	-46.6	24.1	6.03e-01	0	38	0	79691776	60	4634
2026-01-21 01:21:43.09	17.17	15.17	-44.3	-46.8	23.9	6.04e-01	0	39	0	85458944	60	4710
2026-01-21 01:21:46.07	17.20	15.53	-44.2	-46.6	24.1	6.04e-01	0	39	0	90701824	60	4637
2026-01-21 01:21:49.06	17.23	15.89	-44.2	-46.7	24.0	6.00e-01	0	39	0	96468992	60	4681
2026-01-21 01:21:52.04	17.26	16.25	-44.3	-46.7	24.0	6.03e-01	0	39	0	102236160	60	4699
2026-01-21 01:21:55.02	17.29	16.62	-44.1	-46.6	24.0	6.02e-01	0	39	0	107479040	60	4646
2026-01-21 01:21:58.01	17.32	17.00	-44.0	-46.5	24.1	6.01e-01	0	39	0	113246208	60	4593
2026-01-21 01:22:00.99	17.36	17.38	-44.0	-46.6	24.2	6.02e-01	0	39	0	119013376	59	4897
2026-01-21 01:22:03.98	17.39	17.78	-44.1	-46.7	24.1	6.02e-01	0	39	0	124256256	59	4965
2026-01-21 01:22:06.96	17.43	18.17	-44.1	-46.8	24.1	6.04e-01	0	39	0	130023424	59	4985
2026-01-21 01:22:09.94	17.46	18.58	-44.2	-46.8	24.0	6.06e-01	0	39	0	135790592	59	5037
2026-01-21 01:22:12.93	17.50	18.99	-44.3	-47.0	23.9	6.02e-01	0	39	0	141033472	59	5109
2026-01-21 01:22:15.91	17.53	19.41	-44.3	-47.0	23.9	6.04e-01	0	39	0	146800640	59	5102
2026-01-21 01:22:18.90	17.57	19.84	-44.4	-47.0	23.9	6.03e-01	0	39	0	152567808	59	5129
2026-01-21 01:22:21.88	17.61	20.27	-44.4	-47.0	23.8	6.02e-01	0	39	0	157810688	59	5146
2026-01-21 01:22:24.87	17.65	20.72	-44.4	-46.9	23.9	6.03e-01	0	39	0	163577856	59	5084
2026-01-21 01:22:27.85	17.69	21.17	-44.4	-47.0	23.9	6.01e-01	0	39	0	169345024	59	5149
2026-01-21 01:22:30.83	17.73	21.64	-44.3	-47.0	23.9	6.06e-01	0	39	0	174587904	59	5153
2026-01-21 01:22:33.82	17.77	22.11	-44.4	-47.2	23.7	6.04e-01	0	39	0	180355072	59	5273
2026-01-21 01:22:36.80	17.81	22.59	-44.2	-46.9	24.0	6.01e-01	0	39	0	186122240	59	5077
2026-01-21 01:22:39.78	17.85	23.08	-44.4	-47.1	23.9	5.99e-01	0	39	0	191365120	59	5170
2026-01-21 01:22:42.77	17.90	23.59	-44.5	-47.1	23.9	6.00e-01	0	39	0	197132288	59	5191
2026-01-21 01:22:45.75	17.94	24.10	-44.6	-47.3	23.6	6.03e-01	0	39	0	202899456	59	5319
2026-01-21 01:22:48.73	17.99	24.62	-44.6	-47.3	23.6	6.00e-01	0	39	0	208142336	60	5034
2026-01-21 01:22:51.72	18.04	25.16	-44.6	-47.3	23.6	6.01e-01	0	39	0	213909504	60	5026
2026-01-21 01:22:54.70	18.09	25.71	-44.5	-47.1	23.8	6.01e-01	0	39	0	219676672	60	4905
2026-01-21 01:22:57.68	18.14	26.27	-44.3	-46.9	23.9	6.02e-01	0	39	0	224919552	60	4795
2026-01-21 01:23:00.67	18.19	26.84	-44.4	-47.0	24.0	5.99e-01	0	39	0	230686720	60	4835
2026-01-21 01:23:03.65	18.25	27.43	-44.0	-46.5	24.3	5.99e-01	0	39	0	236453888	60	4595
2026-01-21 01:23:06.63	18.30	28.03	-44.2	-46.8	24.1	6.03e-01	0	39	0	241696768	59	5039
2026-01-21 01:23:09.62	18.36	28.65	-44.2	-46.8	24.2	6.01e-01	0	39	0	247463936	59	5004
2026-01-21 01:23:12.61	18.42	29.28	-44.0	-46.5	24.4	6.04e-01	0	39	0	253231104	59	4838
2026-01-21 01:23:15.59	18.48	29.92	-44.0	-46.5	24.4	6.03e-01	0	39	0	258998272	59	4869
2026-01-21 01:23:18.57	18.54	30.59	-44.1	-46.5	24.4	6.00e-01	0	39	0	264241152	59	4853
2026-01-21 01:23:21.56	18.61	31.27	-44.1	-46.5	24.5	6.02e-01	0	39	0	270008320	59	4840
2026-01-21 01:23:24.54	18.68	31.96	-44.2	-46.6	24.4	6.00e-01	0	39	0	275775488	59	4902
2026-01-21 01:23:27.52	18.75	32.67	-44.4	-46.9	24.2	6.03e-01	0	39	0	281018368	59	5067
2026-01-21 01:23:30.50	18.82	33.41	-44.5	-46.9	24.1	5.99e-01	0	39	0	286785536	59	5098
2026-01-21 01:23:33.48	18.90	34.16	-44.6	-47.1	23.9	6.02e-01	0	39	0	292028416	60	4876
2026-01-21 01:23:36.47	18.98	34.93	-44.7	-47.2	23.8	6.01e-01	0	39	0	297795584	60	4964
2026-01-21 01:23:39.46	19.06	35.73	-44.9	-47.6	23.5	6.03e-01	0	39	0	303562752	60	5199
2026-01-21 01:23:42.44	19.15	36.54	-45.2	-48.1	23.0	6.06e-01	0	39	0	309329920	61	5202
2026-01-21 01:23:45.42	19.24	37.37	-45.4	-48.3	22.9	6.03e-01	0	39	0	314572800	61	5339
2026-01-21 01:23:48.40	19.33	38.23	-46.0	-48.9	22.4	6.04e-01	0	39	0	320339968	62	5360
2026-01-21 01:23:51.39	19.43	39.12	-46.0	-48.9	22.4	6.02e-01	0	39	0	326107136	62	5358
2026-01-21 01:23:54.37	19.54	40.02	-46.0	-48.9	22.4	6.02e-01	0	39	0	331350016	63	5064
2026-01-21 01:23:57.35	19.65	40.96	-45.8	-48.6	22.7	6.04e-01	0	39	0	337117184	63	4891
2026-01-21 01:24:00.34	19.76	41.92	-45.4	-48.0	23.3	6.03e-01	0	39	0	342884352	62	4856
2026-01-21 01:24:03.32	19.89	42.90	-44.9	-47.4	23.8	6.03e-01	0	39	0	348127232	61	4766
2026-01-21 01:24:06.30	20.02	43.92	-44.7	-47.1	24.1	6.00e-01	0	39	0	353894400	61	4632
2026-01-21 01:24:09.29	20.16	44.96	-44.5	-47.0	24.2	6.05e-01	0	39	0	359661568	61	4546
2026-01-21 01:24:12.27	20.30	46.03	-44.2	-46.6	24.5	6.03e-01	0	39	0	364904448	60	4611
2026-01-21 01:24:15.25	20.46	47.13	-44.7	-47.2	24.0	6.02e-01	0	39	0	370671616	60	4962
2026-01-21 01:24:18.24	20.63	48.27	-44.3	-46.7	24.4	6.01e-01	0	39	0	376438784	60	4693
2026-01-21 01:24:21.22	20.81	49.43	-44.4	-46.9	24.3	6.04e-01	0	39	0	381681664	60	4763
2026-01-21 01:24:24.21	21.01	50.63	-44.1	-46.4	24.8	6.01e-01	0	39	0	387448832	59	4792
2026-01-21 01:24:27.19	21.22	51.86	-44.1	-46.5	24.7	6.04e-01	0	39	0	393216000	59	4829
2026-01-21 01:24:30.18	21.44	53.13	-44.4	-47.0	24.3	6.02e-01	0	39	0	398458880	59	5108
2026-01-21 01:24:33.16	21.69	54.43	-44.0	-46.4	24.8	6.07e-01	0	39	0	404226048	59	4768
2026-01-21 01:24:36.15	21.96	55.76	-44.2	-46.6	24.7	6.06e-01	0	39	0	409993216	59	4883
2026-01-21 01:24:39.13	22.26	57.13	-44.6	-47.0	24.3	6.00e-01	0	39	0	415236096	60	4852
2026-01-21 01:24:42.11	22.59	58.53	-45.3	-47.9	23.5	6.03e-01	0	39	0	421003264	61	5073
2026-01-21 01:24:45.10	22.95	59.96	-45.4	-48.0	23.3	6.05e-01	0	39	0	426770432	61	5118
2026-01-21 01:24:48.08	23.36	61.43	-45.9	-48.6	22.8	6.01e-01	0	39	0	432013312	62	5215
2026-01-21 01:24:51.07	23.82	62.94	-46.6	-49.5	22.0	6.03e-01	0	39	0	437780480	63	5448
2026-01-21 01:24:54.05	24.34	64.47	-47.5	-50.7	20.9	6.02e-01	0	39	0	443547648	65	5565
2026-01-21 01:24:57.03	24.93	66.04	-48.0	-51.3	20.3	6.03e-01	0	39	0	448790528	66	5623
2026-01-21 01:25:00.02	25.62	67.64	-48.6	-52.4	19.3	6.03e-01	0	39	0	454557696	67	6001
2026-01-21 01:25:03.00	26.42	69.26	-48.5	-52.0	19.8	6.01e-01	0	39	0	460324864	68	5462
2026-01-21 01:25:05.99	27.37	70.91	-48.6	-52.4	19.4	6.06e-01	0	39	0	465567744	68	5673
2026-01-21 01:25:08.97	28.50	72.58	-48.4	-51.9	19.9	6.05e-01	0	39	0	471334912	68	5389
2026-01-21 01:25:11.96	29.90	74.28	-47.6	-50.8	20.8	6.03e-01	0	39	0	477102080	67	5037
2026-01-21 01:25:14.94	31.65	75.98	-47.2	-50.4	21.1	6.00e-01	0	39	0	482344960	66	5096
2026-01-21 01:25:17.92	33.89	77.69	-46.7	-49.6	21.9	6.02e-01	0	39	0	488112128	65	4902
2026-01-21 01:25:20.90	36.88	79.39	-46.0	-48.7	22.8	6.05e-01	0	39	0	493879296	63	4936
2026-01-21 01:25:23.89	41.04	81.08	-45.3	-47.9	23.5	6.07e-01	0	39	0	499122176	62	4779
2026-01-21 01:25:26.88	47.12	82.71	-44.7	-47.2	24.1	6.02e-01	0	39	0	504889344	61	4653
2026-01-21 01:25:29.87	56.58	84.22	-44.7	-47.3	24.1	5.99e-01	0	39	0	510656512	61	4714
2026-01-21 01:25:32.85	71.92	85.48	-44.8	-47.2	24.1	6.02e-01	0	39	0	515899392	61	4693
2026-01-21 01:25:35.83	95.76	86.21	-44.7	-47.2	24.1	6.01e-01	0	39	0	521666560	61	4676
2026-01-21 01:25:38.81	123.76	86.10	-44.1	-46.5	24.7	6.00e-01	0	39	0	527433728	60	4566
2026-01-21 01:25:41.80	145.63	85.21	-44.7	-47.2	24.1	6.01e-01	0	39	0	532676608	60	4956
2026-01-21 01:25:44.78	159.27	83.88	-45.3	-47.8	23.6	6.03e-01	0	39	0	538443776	61	5031
2026-01-21 01:25:47.76	167.71	82.33	-45.5	-48.1	23.3	6.03e-01	0	39	0	544210944	61	5198
2026-01-21 01:25:50.75	173.25	80.68	-45.5	-48.1	23.4	6.04e-01	0	39	0	549453824	61	5188
2026-01-21 01:25:53.73	177.07	78.99	-45.7	-48.4	23.1	6.02e-01	0	39	0	555220992	62	5086
2026-01-21 01:25:56.71	179.86	77.28	-46.6	-49.4	22.2	6.02e-01	0	39	0	560988160	63	5368
2026-01-21 01:25:59.70	181.97	75.57	-47.4	-50.7	21.0	6.02e-01	0	39	0	566231040	66	5248
2026-01-21 01:26:02.68	183.63	73.87	-48.0	-51.4	20.4	6.00e-01	0	39	0	571998208	66	5699
2026-01-21 01:26:05.67	184.96	72.17	-47.9	-51.2	20.5	6.03e-01	0	39	0	577765376	66	5558
2026-01-21 01:26:08.65	186.04	70.50	-47.8	-50.9	20.9	6.04e-01	0	39	0	583008256	66	5379
2026-01-21 01:26:11.63	186.95	68.86	-48.2	-51.5	20.4	6.02e-01	0	39	0	588775424	68	5131
2026-01-21 01:26:14.62	187.72	67.23	-48.5	-52.4	19.6	6.00e-01	0	39	0	594542592	68	5678
2026-01-21 01:26:17.60	188.39	65.64	-47.8	-51.1	20.7	6.04e-01	0	39	0	599785472	67	5168
2026-01-21 01:26:20.59	188.96	64.07	-46.8	-49.8	21.9	6.03e-01	0	39	0	605552640	65	5033
2026-01-21 01:26:23.57	189.46	62.54	-46.4	-49.2	22.5	6.03e-01	0	39	0	611319808	64	4946
2026-01-21 01:26:26.55	189.91	61.05	-46.3	-49.0	22.7	6.01e-01	0	39	0	616562688	64	4854
2026-01-21 01:26:29.54	190.30	59.58	-45.9	-48.5	23.2	6.04e-01	0	39	0	622329856	63	4853
2026-01-21 01:26:32.52	190.66	58.15	-45.3	-47.8	23.9	6.01e-01	0	39	0	628097024	62	4732
2026-01-21 01:26:35.51	190.98	56.75	-45.1	-47.5	24.1	6.05e-01	0	39	0	633339904	62	4596
2026-01-21 01:26:38.49	191.27	55.39	-44.7	-47.0	24.5	6.03e-01	0	39	0	639107072	61	4560
2026-01-21 01:26:41.47	191.53	54.06	-44.5	-46.8	24.6	6.00e-01	0	39	0	644874240	61	4480
2026-01-21 01:26:44.45	191.78	52.77	-44.1	-46.5	24.9	6.01e-01	0	39	0	650117120	60	4561
2026-01-21 01:26:47.44	192.00	51.50	-44.2	-46.6	24.8	6.03e-01	0	39	0	655884288	60	4626
2026-01-21 01:26:50.42	192.21	50.28	-45.0	-47.4	24.1	6.03e-01	0	39	0	661651456	60	5096
2026-01-21 01:26:53.41	192.40	49.08	-44.9	-47.3	24.2	6.02e-01	0	39	0	666894336	61	4752
2026-01-21 01:26:56.39	192.57	47.92	-45.4	-47.9	23.8	6.02e-01	0	39	0	672661504	61	5056
2026-01-21 01:26:59.38	192.74	46.79	-45.2	-47.7	23.9	6.02e-01	0	39	0	678428672	61	4959
2026-01-21 01:27:02.36	192.89	45.69	-45.3	-47.8	23.9	6.01e-01	0	39	0	683671552	61	5000
2026-01-21 01:27:05.34	193.04	44.62	-45.2	-47.7	24.0	6.02e-01	0	39	0	689438720	61	4932
2026-01-21 01:27:08.33	193.17	43.58	-45.3	-47.8	23.8	5.99e-01	0	39	0	695205888	61	5018
2026-01-21 01:27:11.31	193.30	42.57	-45.5	-48.0	23.6	6.04e-01	0	39	0	700448768	61	5125
2026-01-21 01:27:14.29	193.42	41.59	-45.7	-48.3	23.4	6.01e-01	0	39	0	706215936	61	5302
2026-01-21 01:27:17.27	193.54	40.63	-46.4	-49.1	22.7	6.02e-01	0	39	0	711983104	63	5177
2026-01-21 01:27:20.26	193.64	39.70	-46.0	-48.7	23.0	6.02e-01	0	39	0	717225984	63	4944
2026-01-21 01:27:23.24	193.75	38.80	-46.3	-49.0	22.8	6.03e-01	0	39	0	722993152	63	5151
2026-01-21 01:27:26.23	193.84	37.92	-46.4	-49.2	22.7	6.01e-01	0	39	0	728760320	63	5219
2026-01-21 01:27:29.21	193.94	37.06	-46.2	-48.8	22.9	6.02e-01	0	39	0	734003200	63	5026
2026-01-21 01:27:32.20	194.03	36.22	-45.8	-48.4	23.4	6.03e-01	0	39	0	739770368	63	4770
2026-01-21 01:27:35.18	194.11	35.41	-45.4	-47.8	23.8	6.04e-01	0	39	0	745537536	62	4749
2026-01-21 01:27:38.17	194.19	34.62	-45.5	-48.0	23.7	6.03e-01	0	39	0	750780416	62	4847
2026-01-21 01:27:41.15	194.27	33.85	-45.0	-47.5	24.2	6.02e-01	0	39	0	756547584	62	4560
2026-01-21 01:27:44.14	194.34	33.10	-44.3	-46.6	24.8	6.05e-01	0	39	0	762314752	60	4648
2026-01-21 01:27:47.12	194.42	32.37	-44.2	-46.6	24.9	6.02e-01	0	39	0	767557632	60	4605
2026-01-21 01:27:50.10	194.48	31.66	-44.4	-46.8	24.8	6.02e-01	0	39	0	773324800	60	4733
2026-01-21 01:27:53.09	194.55	30.96	-44.6	-46.9	24.6	6.04e-01	0	39	0	779091968	60	4814
2026-01-21 01:27:56.07	194.61	30.29	-44.5	-46.9	24.7	6.01e-01	0	39	0	784334848	60	4762
2026-01-21 01:27:59.06	194.68	29.63	-44.4	-46.7	24.8	6.04e-01	0	39	0	790102016	60	4698
2026-01-21 01:28:02.03	194.74	28.99	-44.5	-46.9	24.6	6.04e-01	0	39	0	795869184	60	4766
2026-01-21 01:28:05.02	194.79	28.36	-44.4	-46.7	24.7	6.02e-01	0	39	0	801112064	60	4696
2026-01-21 01:28:08.00	194.85	27.74	-44.3	-46.6	24.8	6.04e-01	0	39	0	806879232	60	4651
2026-01-21 01:28:10.99	194.90	27.14	-44.7	-47.1	24.4	6.02e-01	0	39	0	812646400	60	4873
2026-01-21 01:28:13.97	194.95	26.56	-44.8	-47.3	24.2	6.02e-01	0	39	0	817889280	60	4997
2026-01-21 01:28:16.96	195.00	25.98	-45.0	-47.4	24.1	6.02e-01	0	39	0	823656448	60	5093
2026-01-21 01:28:19.94	195.05	25.42	-45.1	-47.6	23.9	6.03e-01	0	39	0	829423616	60	5195
2026-01-21 01:28:22.93	195.10	24.88	-45.3	-47.9	23.7	6.03e-01	0	39	0	835190784	61	5046
2026-01-21 01:28:25.92	195.15	24.34	-45.5	-48.1	23.5	6.02e-01	0	39	0	840433664	61	5190
2026-01-21 01:28:28.90	195.19	23.82	-45.4	-48.0	23.6	6.03e-01	0	39	0	846200832	61	5101
2026-01-21 01:28:31.89	195.24	23.30	-45.4	-47.9	23.6	6.03e-01	0	39	0	851968000	61	5075
2026-01-21 01:28:34.87	195.28	22.80	-45.4	-47.9	23.5	6.04e-01	0	39	0	857210880	61	5098
2026-01-21 01:28:37.85	195.32	22.31	-45.3	-47.9	23.2	6.02e-01	0	39	0	862978048	61	5069
2026-01-21 01:28:40.84	195.36	21.83	-45.1	-47.6	23.8	6.02e-01	0	39	0	868745216	61	4908
2026-01-21 01:28:43.82	195.40	21.36	-45.2	-47.7	23.7	6.03e-01	0	39	0	873988096	61	4955
2026-01-21 01:28:46.80	195.44	20.90	-45.2	-47.8	23.7	6.03e-01	0	39	0	879755264	61	5001
2026-01-21 01:28:49.78	195.48	20.45	-45.2	-47.7	23.7	6.03e-01	0	39	0	885522432	61	4975
2026-01-21 01:28:52.77	195.51	20.00	-45.2	-47.8	23.7	6.03e-01	0	39	0	890765312	61	4986
2026-01-21 01:28:55.75	195.55	19.57	-45.1	-47.7	23.7	6.01e-01	0	39	0	896532480	61	4975
2026-01-21 01:28:58.73	195.58	19.14	-45.0	-47.7	23.7	6.03e-01	0	39	0	902299648	61	4942
2026-01-21 01:29:01.72	195.62	18.72	-45.0	-47.7	23.7	6.02e-01	0	39	0	907542528	61	4940
2026-01-21 01:29:04.70	195.65	18.31	-45.0	-47.7	23.7	6.04e-01	0	39	0	913309696	61	4932
2026-01-21 01:29:07.68	195.68	17.91	-45.0	-47.7	23.7	6.00e-01	0	39	0	919076864	61	4947
2026-01-21 01:29:10.67	195.72	17.51	-45.0	-47.7	23.7	6.01e-01	0	39	0	924319744	61	4955
2026-01-21 01:29:13.65	195.75	17.12	-45.0	-47.7	23.7	6.02e-01	0	39	0	930086912	61	4957
2026-01-21 01:29:16.63	195.78	16.74	-45.0	-47.7	23.7	6.00e-01	0	39	0	935854080	61	4949
2026-01-21 01:29:19.61	195.81	16.36	-44.9	-47.7	23.7	6.04e-01	0	39	0	941096960	61	4930
2026-01-21 01:29:22.60	195.84	15.99	-44.9	-47.7	23.6	6.01e-01	0	39	0	946864128	61	4946
2026-01-21 01:29:25.59	195.87	15.62	-44.8	-47.6	23.7	6.04e-01	0	39	0	952631296	61	4896
2026-01-21 01:29:28.57	195.90	15.27	-44.8	-47.5	23.7	6.04e-01	0	39	0	957874176	61	4848
2026-01-21 01:29:31.56	195.93	14.91	-44.8	-47.5	23.8	6.03e-01	0	39	0	963641344	61	4860
2026-01-21 01:29:34.55	195.95	14.56	-44.7	-47.4	23.9	6.04e-01	0	39	0	969408512	61	4790
2026-01-21 01:29:37.53	195.98	14.22	-44.6	-47.3	23.9	6.02e-01	0	39	0	974651392	61	4741
2026-01-21 01:29:40.51	196.01	13.89	-44.6	-47.3	24.0	6.03e-01	0	39	0	980418560	61	4707
2026-01-21 01:29:43.50	196.03	13.55	-44.6	-47.3	23.9	6.00e-01	0	39	0	986185728	61	4730
2026-01-21 01:29:46.48	196.06	13.23	-44.6	-47.2	23.9	6.01e-01	0	39	0	991428608	61	4684
2026-01-21 01:29:49.46	196.09	12.91	-44.6	-47.3	23.9	6.02e-01	0	39	0	997195776	61	4724
2026-01-21 01:29:52.45	196.11	12.59	-44.6	-47.3	23.8	6.01e-01	0	39	0	1002962944	61	4755
2026-01-21 01:29:55.43	196.14	12.28	-44.6	-47.4	23.8	6.00e-01	0	39	0	1008205824	61	4764
2026-01-21 01:29:58.41	196.16	11.97	-44.6	-47.4	23.7	6.04e-01	0	39	0	1013972992	61	4781
2026-01-21 01:30:01.40	196.18	11.67	-44.8	-47.7	23.5	6.04e-01	0	39	0	1019740160	61	4937
2026-01-21 01:30:04.38	196.21	11.37	-44.8	-47.7	23.4	6.03e-01	0	39	0	1024983040	61	4935
2026-01-21 01:30:07.36	196.23	11.07	-44.9	-47.7	23.3	6.03e-01	0	39	0	1030750208	61	4974
2026-01-21 01:30:10.35	196.25	10.78	-45.0	-47.9	23.1	6.03e-01	0	39	0	1036517376	61	5066
2026-01-21 01:30:13.33	196.28	10.49	-45.1	-48.0	23.1	6.01e-01	0	39	0	1041760256	61	5109
2026-01-21 01:30:16.32	196.30	10.21	-45.1	-48.0	23.1	6.02e-01	0	39	0	1047527424	61	5132
2026-01-21 01:30:19.31	196.32	9.93	-45.2	-48.1	22.9	6.04e-01	0	39	0	1053294592	61	5186
2026-01-21 01:30:22.29	196.34	9.65	-45.3	-48.2	22.8	6.02e-01	0	39	0	1058537472	61	5278
2026-01-21 01:30:25.28	196.37	9.37	-45.3	-48.4	22.7	6.02e-01	0	39	0	1064304640	61	5348
2026-01-21 01:30:28.26	196.39	9.10	-45.3	-48.3	22.7	6.04e-01	0	39	0	1070071808	61	5320
2026-01-21 01:30:31.24	196.41	8.84	-51.9	-72.5	3.9	7.47e-01	0	39	104	1073217536	74	40585
2026-01-21 01:30:34.22	196.43	8.57	-52.8	-73.0	3.8	7.45e-01	0	39	104	1073217536	76	38620
2026-01-21 01:30:37.20	196.45	8.31	-53.1	-73.2	3.8	7.45e-01	0	39	104	1073217536	77	36969
2026-01-21 01:30:40.18	196.47	8.06	-53.2	-73.2	3.8	7.47e-01	0	39	104	1073217536	77	37291
2026-01-21 01:30:43.16	196.49	7.80	-53.1	-73.3	3.8	7.45e-01	0	39	104	1073217536	77	37416
2026-01-21 01:30:46.13	196.51	7.55	-52.6	-73.2	3.8	7.45e-01	0	39	104	1073217536	77	37243
2026-01-21 01:30:49.11	196.53	7.30	-53.1	-73.2	3.8	7.46e-01	0	39	104	1073217536	76	39428
2026-01-21 01:30:52.09	196.55	7.06	-52.3	-73.2	3.7	7.48e-01	0	39	104	1073217536	76	39359
2026-01-21 01:30:55.07	196.57	6.81	-52.7	-73.2	3.8	7.47e-01	0	39	104	1073217536	76	39179
2026-01-21 01:30:58.05	196.59	6.57	-52.7	-73.2	3.8	7.47e-01	0	39	104	1073217536	76	39205
2026-01-21 01:31:01.03	196.61	6.33	-52.7	-73.2	3.8	7.51e-01	0	39	104	1073217536	76	39186
2026-01-21 01:31:04.01	196.63	6.10	-52.7	-73.2	3.8	7.49e-01	0	39	104	1073217536	76	39235
2026-01-21 01:31:06.99	196.64	5.86	-52.7	-73.2	3.8	7.46e-01	0	39	104	1073217536	76	39225
2026-01-21 01:31:09.97	196.66	5.63	-52.7	-73.2	3.8	7.45e-01	0	39	104	1073217536	76	39389
2026-01-21 01:31:12.95	196.68	5.40	-52.7	-73.2	3.8	7.47e-01	0	39	104	1073217536	76	39388
2026-01-21 01:31:15.93	196.70	5.17	-52.7	-73.2	3.8	7.48e-01	0	39	104	1073217536	76	39388
2026-01-21 01:31:18.91	196.72	4.95	-52.7	-73.2	3.8	7.45e-01	0	39	104	1073217536	76	39415

#Closed at: 2026-01-21 01:31:19
#Recorded file [1073 MB]: D:/Data/31040_260121_041955.dat