passes_logs/2026/01/21/T1/T1__20260121_223422_NOAA_21_JPSS-2_rec.log

#Pass ID: 20260121_223422_NOAA 21 (JPSS-2)
#Satellite: NOAA 21 (JPSS-2)
#Configuration: NOAA 21
#almurnet v.1.7.20251203
#Start time: 2026-01-21 22:34:21

#Version: 2.0.20230620
#Station: T1
#Location: 37.570604 lon 55.790049 lat
#TLE: 1 54234U 22150A   26020.93347024  .00000206  00000+0  11859-3 0  9994
#TLE: 2 54234  98.7506 321.7615 0000627 245.8100 114.3011 14.19536899165654

#Time	Az	El	Level	Level2	SNR	BER	BlckErr	Temp	State	Recorded	gain1	gain2
2026-01-21 22:34:21.61	25.16	4.97	-50.0	-63.3	3.8	1.49e+00	0	36	0	0	71	16873
2026-01-21 22:34:24.58	25.35	5.16	-50.0	-63.4	3.8	1.49e+00	0	36	104	0	71	16892
2026-01-21 22:34:27.56	25.55	5.35	-49.9	-63.3	3.8	1.49e+00	0	36	104	0	71	16871
2026-01-21 22:34:30.54	25.75	5.55	-49.9	-63.3	3.8	1.49e+00	0	36	104	0	71	16836
2026-01-21 22:34:33.53	25.95	5.74	-49.9	-63.3	3.8	1.49e+00	0	36	104	0	71	16877
2026-01-21 22:34:36.51	26.16	5.94	-49.9	-63.3	3.8	1.49e+00	0	36	104	0	71	16812
2026-01-21 22:34:39.49	26.37	6.14	-50.0	-63.3	3.8	1.49e+00	0	36	104	0	71	16858
2026-01-21 22:34:42.47	26.58	6.33	-50.0	-63.3	3.8	1.49e+00	0	37	104	0	71	16849
2026-01-21 22:34:45.45	26.79	6.53	-49.9	-63.3	3.8	1.49e+00	0	37	104	0	71	16855
2026-01-21 22:34:48.43	27.00	6.74	-50.0	-63.3	3.8	1.49e+00	0	37	104	0	71	16884
2026-01-21 22:34:51.41	27.22	6.94	-50.0	-63.2	3.8	1.49e+00	0	37	104	0	71	16676
2026-01-21 22:34:54.39	27.44	7.14	-50.0	-63.2	3.8	1.49e+00	0	37	104	0	71	16543
2026-01-21 22:34:57.37	27.67	7.35	-49.9	-63.3	3.8	1.49e+00	0	37	104	0	71	16768
2026-01-21 22:35:00.35	27.89	7.55	-49.9	-63.3	3.8	1.49e+00	0	37	104	0	71	16768
2026-01-21 22:35:03.33	28.12	7.76	-49.9	-63.1	3.8	1.49e+00	0	37	104	0	71	16344
2026-01-21 22:35:06.31	28.35	7.97	-49.9	-63.0	3.8	1.49e+00	0	37	104	0	71	16188
2026-01-21 22:35:09.29	28.59	8.18	-49.9	-62.8	3.8	1.49e+00	0	37	104	0	71	15848
2026-01-21 22:35:12.27	28.83	8.39	-49.9	-62.3	3.8	1.49e+00	0	37	104	0	71	14986
2026-01-21 22:35:15.25	29.07	8.60	-49.6	-60.1	4.1	1.48e+00	0	38	104	0	71	11550
2026-01-21 22:35:18.23	29.32	8.82	-48.6	-55.0	7.0	1.91e-01	0	37	0	0	69	7229
2026-01-21 22:35:21.21	29.57	9.03	-46.8	-51.0	10.9	2.12e-03	0	38	0	0	65	5724
2026-01-21 22:35:24.49	29.85	9.27	-46.7	-50.5	11.7	1.11e-04	0	37	0	0	63	6072
2026-01-21 22:35:27.46	30.10	9.49	-42.8	-44.9	16.9	0.00e+00	0	37	0	0	57	4541
2026-01-21 22:35:30.73	30.39	9.73	-42.6	-44.7	17.1	0.00e+00	0	37	0	0	57	4416
2026-01-21 22:35:33.45	30.63	9.93	-42.6	-44.7	17.2	0.00e+00	0	37	0	0	57	4402
2026-01-21 22:35:36.75	30.93	10.18	-42.6	-44.7	17.2	0.00e+00	0	37	0	0	56	4688
2026-01-21 22:35:39.57	31.19	10.39	-42.5	-44.6	17.3	0.00e+00	0	38	0	0	56	4614
2026-01-21 22:35:42.70	31.48	10.63	-42.4	-44.5	17.4	0.00e+00	0	38	0	0	56	4557
2026-01-21 22:35:45.98	31.79	10.88	-42.1	-44.1	17.7	0.00e+00	0	37	0	0	56	4365
2026-01-21 22:35:48.86	32.06	11.10	-42.0	-44.1	17.8	0.00e+00	0	37	0	0	56	4353
2026-01-21 22:35:52.13	32.38	11.36	-41.7	-43.7	18.0	0.00e+00	0	38	0	0	55	4428
2026-01-21 22:35:54.83	32.65	11.57	-41.7	-43.7	18.0	0.00e+00	0	37	0	0	55	4427
2026-01-21 22:35:58.10	32.97	11.82	-41.7	-43.7	18.0	0.00e+00	0	38	0	0	55	4420
2026-01-21 22:36:01.13	33.28	12.06	-41.7	-43.6	18.1	0.00e+00	0	38	0	0	55	4347
2026-01-21 22:36:04.11	33.59	12.30	-41.6	-43.5	18.2	0.00e+00	0	37	0	0	55	4323
2026-01-21 22:36:07.10	33.90	12.54	-41.6	-43.5	18.2	0.00e+00	0	38	0	0	55	4331
2026-01-21 22:36:10.08	34.22	12.78	-41.5	-43.4	18.3	0.00e+00	0	38	0	0	55	4269
2026-01-21 22:36:13.13	34.55	13.03	-41.5	-43.4	18.3	0.00e+00	0	38	0	0	54	4530
2026-01-21 22:36:16.04	34.87	13.27	-41.4	-43.3	18.4	0.00e+00	0	38	0	0	54	4465
2026-01-21 22:36:19.13	35.22	13.52	-41.4	-43.3	18.4	0.00e+00	0	38	0	0	54	4487
2026-01-21 22:36:22.22	35.57	13.78	-41.5	-43.4	18.3	0.00e+00	0	38	0	0	54	4531
2026-01-21 22:36:25.74	35.98	14.07	-41.5	-43.4	18.3	0.00e+00	0	38	0	0	54	4541
2026-01-21 22:36:28.49	36.30	14.30	-41.5	-43.3	18.4	0.00e+00	0	38	0	0	54	4482
2026-01-21 22:36:31.81	36.70	14.58	-41.4	-43.3	18.5	0.00e+00	0	38	0	0	54	4449
2026-01-21 22:36:34.53	37.03	14.82	-41.6	-43.5	18.3	0.00e+00	0	38	0	0	54	4577
2026-01-21 22:36:37.80	37.44	15.10	-41.6	-43.5	18.2	0.00e+00	0	38	0	0	54	4592
2026-01-21 22:36:40.56	37.78	15.34	-41.7	-43.6	18.1	0.00e+00	0	38	0	0	54	4632
2026-01-21 22:36:43.83	38.20	15.62	-41.7	-43.6	18.2	0.00e+00	0	38	0	0	54	4606
2026-01-21 22:36:46.56	38.56	15.86	-41.8	-43.7	18.1	0.00e+00	0	38	0	0	54	4703
2026-01-21 22:36:49.84	38.99	16.15	-41.8	-43.7	18.1	0.00e+00	0	38	0	0	54	4697
2026-01-21 22:36:52.55	39.36	16.39	-41.8	-43.8	18.1	0.00e+00	0	38	0	0	54	4718
2026-01-21 22:36:55.82	39.80	16.68	-41.8	-43.8	18.1	0.00e+00	0	38	0	0	54	4708
2026-01-21 22:36:58.52	40.18	16.92	-41.7	-43.6	18.3	0.00e+00	0	38	0	0	54	4619
2026-01-21 22:37:01.80	40.65	17.22	-41.5	-43.4	18.5	0.00e+00	0	38	0	0	54	4495
2026-01-21 22:37:04.51	41.04	17.46	-41.5	-43.4	18.5	0.00e+00	0	38	0	0	54	4516
2026-01-21 22:37:07.78	41.52	17.76	-41.4	-43.3	18.6	0.00e+00	0	38	0	0	54	4442
2026-01-21 22:37:10.50	41.92	18.01	-41.2	-43.0	18.8	0.00e+00	0	38	0	0	54	4315
2026-01-21 22:37:13.77	42.42	18.31	-41.1	-42.9	18.8	0.00e+00	0	38	0	0	54	4268
2026-01-21 22:37:16.54	42.85	18.57	-41.1	-42.9	18.9	0.00e+00	0	38	0	0	54	4252
2026-01-21 22:37:19.82	43.37	18.87	-41.1	-42.9	18.9	0.00e+00	0	38	0	0	54	4265
2026-01-21 22:37:22.53	43.80	19.12	-41.2	-43.0	18.8	0.00e+00	0	38	0	0	54	4318
2026-01-21 22:37:25.80	44.34	19.43	-41.1	-43.0	18.7	0.00e+00	0	38	0	0	54	4294
2026-01-21 22:37:28.52	44.79	19.69	-41.1	-42.9	18.9	0.00e+00	0	38	0	0	54	4247
2026-01-21 22:37:31.80	45.35	20.00	-41.0	-42.8	19.0	0.00e+00	0	38	0	0	53	4468
2026-01-21 22:37:34.58	45.83	20.26	-40.9	-42.7	19.1	0.00e+00	0	38	0	0	53	4399
2026-01-21 22:37:37.86	46.40	20.57	-40.8	-42.6	19.2	0.00e+00	0	38	0	0	53	4344
2026-01-21 22:37:40.81	46.93	20.85	-40.6	-42.3	19.3	0.00e+00	0	38	0	0	53	4224
2026-01-21 22:37:44.13	47.54	21.17	-40.3	-42.0	19.6	0.00e+00	0	38	0	0	52	4307
2026-01-21 22:37:47.26	48.12	21.47	-40.4	-42.1	19.6	0.00e+00	0	38	0	0	52	4366
2026-01-21 22:37:50.10	48.66	21.75	-40.5	-42.3	19.4	0.00e+00	0	38	0	0	52	4460
2026-01-21 22:37:53.23	49.26	22.05	-40.6	-42.3	19.3	0.00e+00	0	38	0	0	52	4493
2026-01-21 22:37:56.29	49.86	22.34	-40.5	-42.2	19.5	0.00e+00	0	38	0	0	52	4441
2026-01-21 22:37:59.31	50.47	22.63	-40.5	-42.2	19.5	0.00e+00	0	38	0	0	52	4428
2026-01-21 22:38:02.53	51.12	22.95	-40.3	-42.1	19.7	0.00e+00	0	38	0	0	52	4345
2026-01-21 22:38:05.38	51.72	23.22	-40.3	-42.0	19.6	0.00e+00	0	38	0	0	52	4326
2026-01-21 22:38:08.51	52.38	23.52	-40.4	-42.1	19.6	0.00e+00	0	38	0	0	52	4353
2026-01-21 22:38:11.35	52.99	23.80	-40.6	-42.3	19.4	0.00e+00	0	38	0	0	52	4472
2026-01-21 22:38:14.52	53.69	24.10	-40.8	-42.6	19.2	0.00e+00	0	38	0	0	52	4618
2026-01-21 22:38:17.43	54.34	24.38	-40.8	-42.6	19.2	0.00e+00	0	38	0	0	52	4604
2026-01-21 22:38:20.55	55.05	24.68	-40.6	-42.4	19.4	0.00e+00	0	38	0	0	52	4503
2026-01-21 22:38:23.40	55.71	24.95	-40.5	-42.3	19.5	0.00e+00	0	38	0	0	52	4445
2026-01-21 22:38:26.53	56.45	25.25	-40.6	-42.3	19.4	0.00e+00	0	38	0	0	52	4486
2026-01-21 22:38:29.38	57.13	25.52	-40.9	-42.7	19.1	0.00e+00	0	38	0	0	52	4660
2026-01-21 22:38:32.51	57.89	25.81	-40.9	-42.7	19.1	0.00e+00	0	38	0	0	52	4691
2026-01-21 22:38:35.35	58.60	26.07	-40.6	-42.4	19.4	0.00e+00	0	38	0	0	52	4497
2026-01-21 22:38:38.40	59.37	26.35	-40.7	-42.4	19.3	0.00e+00	0	37	0	0	52	4537
2026-01-21 22:38:41.39	60.14	26.63	-40.9	-42.7	19.2	0.00e+00	0	38	0	0	52	4662
2026-01-21 22:38:44.37	60.92	26.90	-40.9	-42.7	19.2	0.00e+00	0	38	0	0	52	4680
2026-01-21 22:38:47.35	61.71	27.16	-40.9	-42.6	19.2	0.00e+00	0	38	0	0	52	4633
2026-01-21 22:38:50.37	62.53	27.43	-40.6	-42.3	19.5	0.00e+00	0	38	0	0	52	4458
2026-01-21 22:38:53.36	63.35	27.69	-40.5	-42.3	19.5	0.00e+00	0	38	0	0	52	4445
2026-01-21 22:38:56.38	64.19	27.95	-40.6	-42.3	19.5	0.00e+00	0	38	0	0	52	4443
2026-01-21 22:38:59.51	65.08	28.22	-40.5	-42.2	19.5	0.00e+00	0	38	0	0	52	4415
2026-01-21 22:39:02.36	65.90	28.45	-40.5	-42.2	19.5	0.00e+00	0	38	0	0	52	4431
2026-01-21 22:39:05.48	66.81	28.71	-40.4	-42.1	19.7	0.00e+00	0	38	0	0	52	4358
2026-01-21 22:39:08.32	67.66	28.94	-40.8	-42.5	19.3	0.00e+00	0	38	0	0	52	4578
2026-01-21 22:39:11.45	68.60	29.18	-41.1	-42.9	19.0	0.00e+00	0	38	0	0	52	4792
2026-01-21 22:39:14.34	69.48	29.40	-40.7	-42.4	19.4	0.00e+00	0	38	0	0	52	4543
2026-01-21 22:39:17.62	70.50	29.64	-40.8	-42.5	19.3	0.00e+00	0	38	0	0	52	4575
2026-01-21 22:39:20.32	71.35	29.84	-40.7	-42.5	19.3	0.00e+00	0	38	0	0	52	4551
2026-01-21 22:39:23.59	72.39	30.06	-40.7	-42.5	19.4	0.00e+00	0	38	0	0	52	4560
2026-01-21 22:39:26.53	73.34	30.26	-40.6	-42.4	19.5	0.00e+00	0	38	0	0	52	4495
2026-01-21 22:39:29.51	74.31	30.45	-41.0	-42.8	19.0	0.00e+00	0	38	0	0	52	4730
2026-01-21 22:39:32.50	75.30	30.64	-41.1	-42.9	19.0	0.00e+00	0	38	0	0	53	4520
2026-01-21 22:39:35.48	76.29	30.81	-41.1	-42.9	19.0	0.00e+00	0	38	0	0	53	4504
2026-01-21 22:39:38.47	77.30	30.98	-41.1	-42.9	18.9	0.00e+00	0	38	0	0	53	4533
2026-01-21 22:39:41.46	78.32	31.14	-41.3	-43.1	18.8	0.00e+00	0	38	0	0	53	4621
2026-01-21 22:39:44.44	79.34	31.29	-41.3	-43.1	18.7	0.00e+00	0	38	0	0	53	4619
2026-01-21 22:39:47.49	80.40	31.44	-41.2	-43.0	18.9	0.00e+00	0	38	0	0	53	4595
2026-01-21 22:39:50.40	81.42	31.57	-41.3	-43.1	18.7	0.00e+00	0	38	0	0	53	4640
2026-01-21 22:39:53.68	82.58	31.70	-41.1	-42.9	19.0	0.00e+00	0	38	0	0	53	4518
2026-01-21 22:39:56.52	83.59	31.81	-41.0	-42.8	19.1	0.00e+00	0	38	0	0	53	4492
2026-01-21 22:39:59.65	84.71	31.91	-41.5	-43.4	18.6	0.00e+00	0	38	0	0	53	4804
2026-01-21 22:40:02.80	85.84	32.01	-41.4	-43.3	18.7	0.00e+00	0	38	0	0	53	4707
2026-01-21 22:40:05.81	86.93	32.09	-41.2	-43.1	18.8	0.00e+00	0	38	0	0	53	4625
2026-01-21 22:40:08.80	88.02	32.15	-41.4	-43.3	18.7	0.00e+00	0	38	0	0	53	4719
2026-01-21 22:40:11.79	89.11	32.21	-41.4	-43.3	18.7	0.00e+00	0	38	0	0	54	4467
2026-01-21 22:40:14.77	90.20	32.26	-41.7	-43.5	18.5	0.00e+00	0	38	0	0	54	4585
2026-01-21 22:40:18.04	91.40	32.29	-41.7	-43.6	18.4	0.00e+00	0	38	0	0	54	4605
2026-01-21 22:40:20.94	92.47	32.31	-41.7	-43.6	18.5	0.00e+00	0	38	0	0	54	4608
2026-01-21 22:40:24.23	93.68	32.33	-41.4	-43.2	18.7	0.00e+00	0	38	0	0	54	4431
2026-01-21 22:40:26.94	94.68	32.32	-41.1	-42.9	19.0	0.00e+00	0	38	0	0	54	4276
2026-01-21 22:40:30.21	95.89	32.31	-41.2	-42.9	19.0	0.00e+00	0	38	0	0	54	4279
2026-01-21 22:40:32.91	96.88	32.29	-41.2	-43.1	18.9	0.00e+00	0	38	0	0	54	4344
2026-01-21 22:40:36.12	98.06	32.25	-40.9	-42.7	19.2	0.00e+00	0	38	0	0	53	4392
2026-01-21 22:40:39.47	99.29	32.19	-41.2	-43.0	18.9	0.00e+00	0	38	0	0	53	4581
2026-01-21 22:40:42.18	100.27	32.14	-41.1	-42.9	19.0	0.00e+00	0	38	0	0	53	4524
2026-01-21 22:40:45.45	101.46	32.06	-41.0	-42.8	19.1	0.00e+00	0	38	0	0	53	4472
2026-01-21 22:40:48.26	102.48	31.98	-41.4	-43.2	18.7	0.00e+00	0	38	0	0	53	4702
2026-01-21 22:40:51.65	103.70	31.88	-41.3	-43.2	18.7	0.00e+00	0	38	0	0	53	4660
2026-01-21 22:40:54.69	104.79	31.77	-41.4	-43.3	18.6	0.00e+00	0	38	0	0	53	4713
2026-01-21 22:40:58.56	106.16	31.62	-41.7	-43.5	18.4	0.00e+00	0	38	0	0	54	4589
2026-01-21 22:41:01.33	107.14	31.50	-41.5	-43.4	18.5	0.00e+00	0	38	0	0	54	4500
2026-01-21 22:41:04.82	108.36	31.34	-41.3	-43.1	18.8	0.00e+00	0	38	0	0	54	4380
2026-01-21 22:41:07.54	109.30	31.21	-41.3	-43.1	18.8	0.00e+00	0	38	0	0	54	4349
2026-01-21 22:41:10.88	110.44	31.03	-41.2	-42.9	19.0	0.00e+00	0	38	0	0	54	4283
2026-01-21 22:41:13.62	111.37	30.88	-41.4	-43.3	18.7	0.00e+00	0	38	0	0	54	4452
2026-01-21 22:41:16.91	112.48	30.69	-40.9	-42.7	19.2	0.00e+00	0	38	0	0	53	4413
2026-01-21 22:41:19.64	113.39	30.52	-40.8	-42.6	19.3	0.00e+00	0	38	0	0	53	4356
2026-01-21 22:41:23.13	114.53	30.29	-41.0	-42.8	19.0	0.00e+00	0	38	0	0	53	4472
2026-01-21 22:41:26.18	115.52	30.09	-41.1	-42.9	19.0	0.00e+00	0	38	0	0	53	4498
2026-01-21 22:41:29.35	116.53	29.87	-40.8	-42.5	19.2	0.00e+00	0	38	0	0	53	4328
2026-01-21 22:41:32.54	117.54	29.64	-40.8	-42.6	19.3	0.00e+00	0	38	0	0	53	4351
2026-01-21 22:41:35.38	118.43	29.43	-40.9	-42.6	19.2	0.00e+00	0	38	0	0	53	4368
2026-01-21 22:41:38.51	119.39	29.19	-40.5	-42.3	19.5	0.00e+00	0	38	0	0	53	4205
2026-01-21 22:41:41.35	120.25	28.97	-40.5	-42.3	19.4	0.00e+00	0	38	0	0	52	4445
2026-01-21 22:41:44.56	121.21	28.71	-40.7	-42.4	19.4	0.00e+00	0	38	0	0	52	4508
2026-01-21 22:41:47.45	122.06	28.48	-40.3	-42.1	19.5	0.00e+00	0	38	0	0	52	4342
2026-01-21 22:41:50.57	122.96	28.22	-40.4	-42.1	19.5	0.00e+00	0	38	0	0	52	4349
2026-01-21 22:41:53.41	123.77	27.97	-40.1	-41.8	19.7	0.00e+00	0	38	0	0	52	4228
2026-01-21 22:41:56.54	124.65	27.70	-40.1	-41.7	19.9	0.00e+00	0	38	0	0	52	4181
2026-01-21 22:41:59.38	125.44	27.45	-40.1	-41.8	19.7	0.00e+00	0	38	0	0	51	4474
2026-01-21 22:42:02.50	126.28	27.18	-40.4	-42.2	19.5	0.00e+00	0	38	0	0	51	4665
2026-01-21 22:42:05.39	127.06	26.92	-40.2	-41.9	19.8	0.00e+00	0	38	0	0	51	4495
2026-01-21 22:42:08.63	127.91	26.62	-40.1	-41.8	20.0	0.00e+00	0	38	0	0	51	4454
2026-01-21 22:42:11.47	128.64	26.36	-40.3	-42.1	19.7	0.00e+00	0	38	0	0	51	4630
2026-01-21 22:42:14.60	129.44	26.07	-40.3	-42.0	19.8	0.00e+00	0	38	0	0	51	4565
2026-01-21 22:42:17.60	130.19	25.79	-40.0	-41.6	20.0	0.00e+00	0	38	0	0	51	4385
2026-01-21 22:42:20.98	131.02	25.47	-40.1	-41.8	19.9	0.00e+00	0	38	0	0	51	4445
2026-01-21 22:42:23.68	131.67	25.21	-40.3	-42.0	19.7	0.00e+00	0	38	0	0	51	4577
2026-01-21 22:42:26.97	132.45	24.90	-40.4	-42.2	19.6	0.00e+00	0	38	0	0	51	4654
2026-01-21 22:42:29.67	133.08	24.64	-40.5	-42.2	19.6	0.00e+00	0	38	0	0	51	4687
2026-01-21 22:42:32.93	133.82	24.32	-40.6	-42.4	19.4	0.00e+00	0	38	0	0	51	4761
2026-01-21 22:42:35.65	134.43	24.06	-40.5	-42.2	19.5	0.00e+00	0	38	0	0	52	4413
2026-01-21 22:42:38.93	135.15	23.74	-40.4	-42.1	19.5	0.00e+00	0	38	0	0	52	4365
2026-01-21 22:42:41.63	135.74	23.48	-40.3	-42.0	19.6	0.00e+00	0	38	0	0	52	4339
2026-01-21 22:42:45.24	136.50	23.13	-40.3	-42.0	19.5	0.00e+00	0	38	0	0	52	4337
2026-01-21 22:42:48.28	137.14	22.83	-40.3	-42.0	19.6	0.00e+00	0	38	0	0	52	4334
2026-01-21 22:42:52.54	138.00	22.42	-40.4	-42.2	19.5	0.00e+00	0	38	0	0	52	4392
2026-01-21 22:42:55.39	138.57	22.14	-40.5	-42.2	19.5	0.00e+00	0	38	0	0	52	4426
2026-01-21 22:42:59.05	139.28	21.79	-40.6	-42.4	19.3	0.00e+00	0	38	0	0	52	4495
2026-01-21 22:43:01.90	139.83	21.51	-40.7	-42.4	19.3	0.00e+00	0	38	0	0	52	4532
2026-01-21 22:43:05.12	140.43	21.20	-40.7	-42.5	19.2	0.00e+00	0	38	0	0	52	4565
2026-01-21 22:43:07.96	140.96	20.92	-40.6	-42.3	19.4	0.00e+00	0	38	0	0	52	4483
2026-01-21 22:43:11.04	141.52	20.62	-40.5	-42.2	19.4	0.00e+00	0	38	0	0	52	4438
2026-01-21 22:43:14.02	142.05	20.34	-40.3	-42.0	19.6	0.00e+00	0	38	0	0	52	4335
2026-01-21 22:43:17.01	142.57	20.05	-40.5	-42.2	19.4	0.00e+00	0	38	0	0	52	4423
2026-01-21 22:43:19.99	143.08	19.77	-40.5	-42.2	19.4	0.00e+00	0	38	0	0	52	4427
2026-01-21 22:43:22.98	143.58	19.48	-40.3	-42.1	19.5	0.00e+00	0	38	0	0	52	4352
2026-01-21 22:43:25.97	144.08	19.20	-40.3	-42.1	19.4	0.00e+00	0	38	0	0	52	4372
2026-01-21 22:43:28.96	144.56	18.92	-40.4	-42.1	19.4	0.00e+00	0	38	0	0	52	4391
2026-01-21 22:43:31.94	145.04	18.64	-40.4	-42.1	19.4	0.00e+00	0	38	0	0	52	4388
2026-01-21 22:43:34.94	145.51	18.36	-40.3	-42.1	19.4	0.00e+00	0	38	0	0	52	4360
2026-01-21 22:43:37.96	145.97	18.07	-40.4	-42.2	19.3	0.00e+00	0	38	0	0	52	4415
2026-01-21 22:43:40.94	146.42	17.80	-40.7	-42.4	19.1	0.00e+00	0	38	0	0	52	4541
2026-01-21 22:43:43.93	146.87	17.52	-40.8	-42.5	19.1	0.00e+00	0	38	0	0	52	4595
2026-01-21 22:43:46.91	147.30	17.25	-40.9	-42.7	18.9	0.00e+00	0	38	0	0	52	4666
2026-01-21 22:43:49.94	147.74	16.97	-41.0	-42.9	18.7	0.00e+00	0	38	0	0	52	4775
2026-01-21 22:43:53.02	148.17	16.69	-41.2	-43.1	18.6	0.00e+00	0	38	0	0	53	4629
2026-01-21 22:43:55.90	148.57	16.43	-41.1	-42.9	18.7	0.00e+00	0	38	0	0	53	4545
2026-01-21 22:43:59.03	148.99	16.15	-41.3	-43.2	18.4	0.00e+00	0	38	0	0	53	4686
2026-01-21 22:44:01.87	149.37	15.90	-41.4	-43.3	18.4	0.00e+00	0	38	0	0	53	4741
2026-01-21 22:44:05.01	149.79	15.62	-41.6	-43.5	18.2	0.00e+00	0	38	0	0	53	4830
2026-01-21 22:44:07.94	150.16	15.37	-41.6	-43.5	18.2	0.00e+00	0	38	0	0	53	4854
2026-01-21 22:44:11.06	150.56	15.09	-41.7	-43.6	18.1	0.00e+00	0	38	0	0	53	4877
2026-01-21 22:44:13.90	150.92	14.85	-41.7	-43.7	18.0	0.00e+00	0	38	0	0	54	4654
2026-01-21 22:44:17.03	151.30	14.58	-41.8	-43.8	17.8	0.00e+00	0	38	0	0	54	4743
2026-01-21 22:44:19.88	151.64	14.33	-42.0	-44.0	17.7	0.00e+00	0	38	0	0	54	4836
2026-01-21 22:44:23.10	152.03	14.06	-41.7	-43.7	18.0	0.00e+00	0	38	0	0	54	4680
2026-01-21 22:44:25.94	152.36	13.82	-41.6	-43.5	18.1	0.00e+00	0	38	0	0	54	4579
2026-01-21 22:44:29.07	152.72	13.55	-41.7	-43.7	18.0	0.00e+00	0	38	0	0	54	4687
2026-01-21 22:44:31.91	153.04	13.32	-41.7	-43.7	17.9	0.00e+00	0	38	0	0	54	4692
2026-01-21 22:44:35.03	153.38	13.06	-41.7	-43.7	17.9	0.00e+00	0	38	0	0	54	4686
2026-01-21 22:44:37.87	153.69	12.82	-41.8	-43.8	17.8	0.00e+00	0	38	0	0	54	4743
2026-01-21 22:44:41.08	154.04	12.56	-41.7	-43.7	17.8	0.00e+00	0	38	0	0	54	4687
2026-01-21 22:44:44.00	154.35	12.32	-41.8	-43.8	17.8	0.00e+00	0	38	0	0	54	4715
2026-01-21 22:44:46.98	154.66	12.08	-41.6	-43.6	18.0	0.00e+00	0	38	0	0	54	4629
2026-01-21 22:44:49.96	154.97	11.84	-41.6	-43.5	18.1	0.00e+00	0	38	0	0	54	4590
2026-01-21 22:44:52.95	155.27	11.61	-41.7	-43.6	18.0	0.00e+00	0	38	0	0	54	4642
2026-01-21 22:44:56.00	155.57	11.37	-41.6	-43.5	18.1	0.00e+00	0	38	0	0	54	4581
2026-01-21 22:44:58.86	155.85	11.14	-41.5	-43.4	18.1	0.00e+00	0	38	0	0	54	4533
2026-01-21 22:45:01.99	156.15	10.90	-41.7	-43.6	17.9	0.00e+00	0	38	0	0	55	4369
2026-01-21 22:45:04.83	156.42	10.68	-41.9	-43.9	17.6	0.00e+00	0	38	0	0	55	4513
2026-01-21 22:45:07.98	156.72	10.43	-42.1	-44.1	17.4	0.00e+00	0	38	0	0	55	4622
2026-01-21 22:45:11.25	157.02	10.18	-42.3	-44.3	17.3	0.00e+00	0	38	0	0	56	4466
2026-01-21 22:45:14.09	157.28	9.97	-42.3	-44.4	17.2	0.00e+00	0	38	0	0	56	4496
2026-01-21 22:45:17.22	157.56	9.73	-42.4	-44.5	17.2	0.00e+00	0	38	0	0	56	4565
2026-01-21 22:45:20.14	157.81	9.51	-42.4	-44.5	17.2	0.00e+00	0	38	0	0	56	4549
2026-01-21 22:45:23.41	158.10	9.27	-42.3	-44.3	17.3	0.00e+00	0	38	0	0	56	4487
2026-01-21 22:45:26.11	158.33	9.07	-42.5	-44.5	17.1	0.00e+00	0	38	0	0	56	4589
2026-01-21 22:45:29.39	158.60	8.83	-50.0	-63.4	3.8	1.49e+00	0	38	104	0	71	16912
2026-01-21 22:45:32.08	158.83	8.63	-50.6	-63.7	3.8	1.49e+00	0	38	104	0	71	17625
2026-01-21 22:45:35.35	159.09	8.40	-50.8	-63.9	3.8	1.49e+00	0	38	104	0	72	16952
2026-01-21 22:45:38.04	159.31	8.20	-50.9	-63.9	3.8	1.49e+00	0	38	104	0	72	17033
2026-01-21 22:45:41.32	159.57	7.97	-51.0	-64.0	3.8	1.49e+00	0	38	104	0	72	17142
2026-01-21 22:45:44.02	159.78	7.78	-50.7	-64.0	3.8	1.49e+00	0	38	104	0	72	17178
2026-01-21 22:45:47.33	160.04	7.54	-50.8	-64.0	3.8	1.49e+00	0	38	104	0	72	17164
2026-01-21 22:45:50.06	160.25	7.35	-50.8	-64.0	3.8	1.49e+00	0	38	104	0	72	17173
2026-01-21 22:45:53.35	160.49	7.12	-50.6	-63.9	3.8	1.49e+00	0	38	104	0	72	17073
2026-01-21 22:45:56.08	160.70	6.94	-50.6	-63.9	3.8	1.49e+00	0	38	104	0	72	17026
2026-01-21 22:45:59.35	160.94	6.71	-50.6	-63.9	3.8	1.49e+00	0	38	104	0	72	17037
2026-01-21 22:46:02.08	161.13	6.52	-50.6	-63.9	3.8	1.49e+00	0	38	104	0	72	16925
2026-01-21 22:46:05.36	161.37	6.30	-50.6	-63.9	3.8	1.49e+00	0	38	104	0	72	17035
2026-01-21 22:46:08.05	161.56	6.12	-50.6	-63.9	3.8	1.49e+00	0	38	104	0	72	16974
2026-01-21 22:46:11.32	161.78	5.90	-50.6	-63.9	3.8	1.49e+00	0	38	104	0	72	16992
2026-01-21 22:46:14.04	161.97	5.72	-50.5	-63.9	3.8	1.49e+00	0	38	104	0	72	16913
2026-01-21 22:46:17.32	162.19	5.50	-50.6	-63.9	3.8	1.49e+00	0	38	104	0	72	16956
2026-01-21 22:46:20.02	162.37	5.33	-50.6	-63.9	3.8	1.49e+00	0	38	104	0	72	16969
2026-01-21 22:46:23.28	162.59	5.11	-50.5	-63.9	3.8	1.49e+00	0	38	104	0	72	16974

#Closed at: 2026-01-21 22:46:25
#Recorded file [0 MB]: D:/Data/31040_260122_013421.dat