passes_logs/2025/01/14/XPeterburg/XPeterburg__20250114_003757_SUOMI_NPP_rec.log

#Pass ID: 20250114_003757_SUOMI NPP
#Satellite: SUOMI NPP
#Configuration: NPP
#Start time: 2025-01-14 00:37:51

#Version: 1.5.20200625
#Station: XPeterburg
#Location: 30.318091 lon 59.932769 lat
#TLE: 1 37849U 11061A   25013.15774042  .00000145  00000+0  89802-4 0  9991
#TLE: 2 37849  98.7444 314.1696 0001761  43.7896 316.3420 14.19537310684653

#Time	Az	El	Level	Level2	SNR	BER	Gain	Gain2
2025-01-14 00:37:51.47	346.35	67.78	-38.8	-45.9	3.3	15347206	95	2762
2025-01-14 00:37:51.87	346.05	67.93	-38.4	-57.2	3.6	15237289	73	10771
2025-01-14 00:37:52.27	345.75	68.08	-38.8	-46.6	3.3	15218338	94	3025
2025-01-14 00:37:52.68	345.43	68.23	-38.6	-47.4	3.6	15218338	94	3392
2025-01-14 00:37:53.08	345.12	68.37	-38.6	-46.1	3.4	15112808	94	2918
2025-01-14 00:37:53.48	344.80	68.52	-38.6	-47.1	3.6	15226173	94	3287
2025-01-14 00:37:53.88	344.48	68.66	-38.5	-46.1	3.4	15126121	94	2929
2025-01-14 00:37:54.28	344.15	68.81	-38.5	-47.1	3.6	15242065	94	3311
2025-01-14 00:37:54.68	343.82	68.95	-38.5	-46.1	3.4	15118225	94	2928
2025-01-14 00:37:55.09	343.48	69.10	-38.5	-47.1	3.6	15253814	94	3328
2025-01-14 00:37:55.49	343.13	69.24	-38.4	-45.4	3.4	15106040	94	2750
2025-01-14 00:37:55.89	342.79	69.39	-38.3	-45.9	3.6	15250900	94	2938
2025-01-14 00:37:56.29	342.43	69.53	-38.1	-43.7	3.7	15011672	94	2335
2025-01-14 00:37:56.70	342.07	69.67	-37.9	-43.6	3.2	14557701	94	2361
2025-01-14 00:37:57.10	341.70	69.82	-37.7	-42.3	4.3	13362464	93	2081
2025-01-14 00:37:57.50	341.33	69.96	-37.4	-40.5	4.8	13362464	93	1758
2025-01-14 00:37:57.90	340.96	70.10	-37.1	-40.0	5.4	7795433	92	1715
2025-01-14 00:37:58.30	340.58	70.24	-37.0	-39.4	5.6	5212196	92	1635
2025-01-14 00:37:58.70	340.19	70.37	-37.0	-39.8	5.7	3783927	92	1691
2025-01-14 00:37:59.11	339.79	70.52	-37.0	-39.5	5.5	3577766	92	1643
2025-01-14 00:37:59.51	339.39	70.65	-36.9	-39.5	5.8	4078758	92	1650
2025-01-14 00:37:59.91	338.99	70.79	-36.8	-39.2	6.1	3242424	92	1618
2025-01-14 00:38:00.31	338.58	70.93	-36.9	-39.9	6.1	2525375	91	1741
2025-01-14 00:38:00.71	338.16	71.06	-36.9	-39.9	6.2	2566673	91	1735
2025-01-14 00:38:01.11	337.74	71.20	-36.8	-39.7	6.3	2672927	91	1707
2025-01-14 00:38:01.52	337.30	71.33	-36.9	-39.8	6.2	2345771	91	1724
2025-01-14 00:38:01.92	336.86	71.47	-37.0	-40.1	6.0	2553970	91	1767
2025-01-14 00:38:02.32	336.42	71.60	-36.9	-39.8	6.1	2802627	91	1707
2025-01-14 00:38:02.72	335.97	71.73	-37.0	-39.9	6.0	2802627	91	1724
2025-01-14 00:38:03.12	335.51	71.86	-37.1	-40.3	5.7	2690231	91	1770
2025-01-14 00:38:03.53	335.04	71.99	-37.2	-40.7	5.5	3562278	91	1828
2025-01-14 00:38:03.93	334.56	72.12	-37.4	-41.0	5.3	3921844	91	1878
2025-01-14 00:38:04.33	334.09	72.25	-37.3	-41.0	5.3	4675773	91	1885
2025-01-14 00:38:04.73	333.60	72.38	-37.3	-40.9	5.3	4802536	91	1857
2025-01-14 00:38:05.13	333.11	72.50	-37.4	-41.1	5.2	4760391	91	1892
2025-01-14 00:38:05.54	332.59	72.63	-37.3	-40.4	5.3	5391204	92	1752
2025-01-14 00:38:05.94	332.09	72.75	-37.3	-40.6	5.2	4909515	92	1789
2025-01-14 00:38:06.34	331.57	72.87	-37.0	-39.5	5.7	4613388	92	1636
2025-01-14 00:38:06.74	331.05	72.99	-36.8	-39.2	6.5	2907073	91	1627
2025-01-14 00:38:07.14	330.52	73.11	-35.8	-37.7	7.8	1286621	89	1535
2025-01-14 00:38:07.54	329.98	73.23	-35.5	-36.9	8.5	1286621	89	1458
2025-01-14 00:38:07.95	329.42	73.35	-35.2	-36.8	8.9	526969	88	1485
2025-01-14 00:38:08.35	328.86	73.47	-34.9	-36.0	9.4	325965	88	1406
2025-01-14 00:38:08.75	328.30	73.58	-35.0	-36.4	9.3	185867	88	1451
2025-01-14 00:38:09.15	327.72	73.69	-35.1	-36.7	9.2	159774	88	1481
2025-01-14 00:38:09.55	327.14	73.80	-35.4	-37.4	8.7	199707	88	1556
2025-01-14 00:38:09.96	326.54	73.91	-35.4	-37.4	8.7	346641	88	1557
2025-01-14 00:38:10.36	325.94	74.02	-35.8	-38.4	7.9	350791	88	1667
2025-01-14 00:38:10.76	325.34	74.13	-35.7	-38.2	7.9	707870	88	1641
2025-01-14 00:38:11.16	324.72	74.23	-35.5	-37.7	8.3	634193	88	1574
2025-01-14 00:38:11.56	324.10	74.34	-35.4	-37.5	8.5	462219	88	1552
2025-01-14 00:38:11.97	323.45	74.44	-35.3	-37.2	8.6	383964	88	1516
2025-01-14 00:38:12.37	322.81	74.54	-35.2	-36.8	8.9	295150	88	1487
2025-01-14 00:38:12.77	322.17	74.64	-35.3	-37.0	8.6	295150	88	1502
2025-01-14 00:38:13.17	321.51	74.73	-35.0	-36.4	9.0	398338	88	1445
2025-01-14 00:38:13.58	320.83	74.83	-35.0	-36.2	9.2	299873	88	1425
2025-01-14 00:38:13.98	320.15	74.92	-35.0	-36.3	9.0	222671	88	1432
2025-01-14 00:38:14.38	319.47	75.01	-35.0	-36.3	9.0	181312	88	1424
2025-01-14 00:38:14.78	318.78	75.10	-35.3	-37.2	9.1	198699	88	1517
2025-01-14 00:38:15.18	318.08	75.18	-35.4	-37.2	8.6	300109	88	1511
2025-01-14 00:38:15.58	317.37	75.27	-35.4	-37.2	8.4	410614	88	1519
2025-01-14 00:38:15.99	316.64	75.35	-35.3	-36.9	8.5	365287	88	1485
2025-01-14 00:38:16.39	315.91	75.43	-35.2	-36.6	8.7	386413	88	1444
2025-01-14 00:38:16.79	315.18	75.51	-34.9	-36.0	9.2	249595	88	1391
2025-01-14 00:38:17.19	314.44	75.58	-34.9	-36.0	9.1	216812	88	1394
2025-01-14 00:38:17.59	313.69	75.65	-34.9	-35.9	9.2	216812	88	1380
2025-01-14 00:38:17.99	312.93	75.72	-35.3	-37.0	8.5	185684	88	1487
2025-01-14 00:38:18.40	312.15	75.79	-35.6	-37.6	8.0	339012	88	1548
2025-01-14 00:38:18.80	311.38	75.86	-36.2	-38.5	7.2	582000	89	1614
2025-01-14 00:38:19.20	310.60	75.92	-36.8	-39.7	5.9	1178512	90	1726
2025-01-14 00:38:19.60	309.81	75.98	-36.7	-39.4	6.0	2624053	90	1676
2025-01-14 00:38:20.00	309.02	76.04	-36.9	-40.1	5.7	2979316	90	1771
2025-01-14 00:38:20.41	308.20	76.10	-37.0	-40.1	5.7	3539062	90	1764
2025-01-14 00:38:20.81	307.39	76.15	-37.4	-40.7	5.5	3602554	91	1804
2025-01-14 00:38:21.21	306.58	76.20	-37.5	-40.6	5.1	4486495	92	1751
2025-01-14 00:38:21.61	305.76	76.24	-37.7	-41.0	4.7	6190208	92	1809
2025-01-14 00:38:22.02	304.91	76.29	-37.9	-41.8	4.4	7464302	92	1929
2025-01-14 00:38:22.42	304.08	76.33	-37.7	-41.0	4.8	7737716	92	1806
2025-01-14 00:38:22.82	303.25	76.37	-37.8	-41.4	4.6	7737716	92	1859
2025-01-14 00:38:23.22	302.41	76.41	-37.6	-40.6	5.0	7742546	92	1748
2025-01-14 00:38:23.62	301.57	76.44	-38.0	-42.1	4.3	6429115	92	1984
2025-01-14 00:38:24.02	300.72	76.47	-38.3	-42.9	3.9	7782638	93	2099
2025-01-14 00:38:24.43	299.85	76.50	-38.4	-44.5	3.4	12685722	93	2508
2025-01-14 00:38:24.83	298.99	76.52	-38.1	-42.8	4.4	14264549	93	2118
2025-01-14 00:38:25.23	298.13	76.54	-37.6	-40.5	5.0	10469329	93	1716
2025-01-14 00:38:25.63	297.27	76.56	-37.3	-39.8	5.6	5898689	92	1649
2025-01-14 00:38:26.03	296.41	76.58	-36.8	-38.5	6.4	3767349	92	1492
2025-01-14 00:38:26.44	295.52	76.59	-36.7	-38.7	6.9	1684707	91	1554
2025-01-14 00:38:26.84	294.66	76.60	-36.7	-38.7	6.9	1502914	91	1545
2025-01-14 00:38:27.24	293.79	76.60	-37.0	-39.4	6.5	1798187	91	1635
2025-01-14 00:38:27.64	292.92	76.61	-37.4	-40.6	5.7	1798187	91	1790
2025-01-14 00:38:28.04	292.05	76.61	-37.5	-40.6	5.3	2975090	92	1755
2025-01-14 00:38:28.44	291.18	76.61	-37.6	-41.0	5.1	4271186	92	1807
2025-01-14 00:38:28.85	290.30	76.60	-37.6	-41.0	5.1	5171722	92	1807
2025-01-14 00:38:29.25	289.43	76.59	-37.7	-41.4	4.9	5552978	92	1882
2025-01-14 00:38:29.65	288.56	76.58	-37.9	-41.7	4.7	5973152	92	1910
2025-01-14 00:38:30.05	287.70	76.57	-38.1	-41.9	4.5	6554466	93	1907
2025-01-14 00:38:30.45	286.84	76.55	-38.3	-42.8	4.1	8922393	93	2065
2025-01-14 00:38:30.85	285.98	76.53	-38.5	-43.6	3.7	11933456	94	2212
2025-01-14 00:38:31.26	285.10	76.50	-38.4	-43.7	4.0	14296791	94	2271
2025-01-14 00:38:31.66	284.25	76.48	-38.1	-41.6	4.3	11716926	94	1853
2025-01-14 00:38:32.06	283.40	76.45	-37.9	-40.8	4.7	8617530	94	1729
2025-01-14 00:38:32.46	282.55	76.42	-37.9	-41.0	4.6	8211112	94	1755
2025-01-14 00:38:32.86	281.71	76.38	-37.9	-41.0	4.6	8211112	94	1758
2025-01-14 00:38:33.27	280.86	76.34	-37.9	-41.5	4.6	7425697	93	1866
2025-01-14 00:38:33.67	280.03	76.30	-37.6	-40.3	5.2	6864257	93	1686
2025-01-14 00:38:34.07	279.20	76.26	-37.4	-39.7	5.6	5225929	93	1607
2025-01-14 00:38:34.47	278.38	76.21	-37.2	-39.6	5.9	4341262	92	1626
2025-01-14 00:38:34.87	277.57	76.16	-37.5	-40.7	5.5	3978569	92	1773
2025-01-14 00:38:35.27	276.76	76.11	-37.8	-41.5	4.9	4237869	92	1893
2025-01-14 00:38:35.67	275.95	76.06	-37.8	-41.6	4.8	5043815	92	1890
2025-01-14 00:38:36.08	275.14	76.00	-37.9	-40.9	4.7	6639068	93	1746
2025-01-14 00:38:36.48	274.35	75.94	-38.1	-42.0	4.4	8101371	93	1931
2025-01-14 00:38:36.88	273.57	75.88	-38.3	-42.7	4.0	10616310	93	2050
2025-01-14 00:38:37.28	272.80	75.81	-38.4	-43.5	3.9	12698143	93	2199
2025-01-14 00:38:37.69	272.01	75.74	-38.4	-44.7	3.7	12698143	93	2532
2025-01-14 00:38:38.09	271.25	75.67	-38.3	-43.3	4.0	13989234	93	2173
2025-01-14 00:38:38.49	270.50	75.60	-38.3	-43.0	3.9	13941444	93	2107
2025-01-14 00:38:38.89	269.76	75.53	-38.2	-42.3	4.1	13841239	93	1976
2025-01-14 00:38:39.29	269.02	75.45	-38.1	-42.1	4.2	12940986	93	1943
2025-01-14 00:38:39.69	268.29	75.37	-38.1	-42.3	4.2	9955398	93	1983
2025-01-14 00:38:40.10	267.56	75.29	-37.8	-41.0	4.6	8452949	93	1776
2025-01-14 00:38:40.50	266.84	75.21	-37.6	-40.3	4.9	6718002	93	1677
2025-01-14 00:38:40.90	266.14	75.12	-37.4	-39.6	5.2	5748085	93	1582
2025-01-14 00:38:41.30	265.45	75.03	-37.5	-40.1	5.1	4950073	93	1653
2025-01-14 00:38:41.70	264.76	74.94	-37.6	-40.3	4.8	5634857	93	1684
2025-01-14 00:38:42.11	264.07	74.85	-37.7	-40.6	4.7	6763877	93	1717
2025-01-14 00:38:42.51	263.40	74.76	-37.9	-41.5	4.3	6763877	93	1853
2025-01-14 00:38:42.91	262.74	74.66	-38.0	-42.0	4.1	8203323	93	1949
2025-01-14 00:38:43.31	262.09	74.56	-38.2	-42.5	3.9	9981239	93	2032
2025-01-14 00:38:43.71	261.45	74.46	-38.1	-42.3	4.0	12130004	93	2003
2025-01-14 00:38:44.11	260.81	74.36	-38.1	-42.3	4.0	12350837	93	1995
2025-01-14 00:38:44.52	260.17	74.26	-38.1	-42.6	3.9	13235733	93	2057
2025-01-14 00:38:44.92	259.56	74.15	-38.2	-44.6	3.7	13969337	93	2565
2025-01-14 00:38:45.32	258.95	74.05	-38.3	-43.7	3.8	14689987	93	2307
2025-01-14 00:38:45.72	258.35	73.94	-38.5	-45.6	3.7	14206115	93	2781
2025-01-14 00:38:46.12	257.76	73.83	-38.4	-44.1	3.7	14745193	94	2360
2025-01-14 00:38:46.53	257.16	73.72	-38.4	-44.6	3.7	14579826	94	2539
2025-01-14 00:38:46.93	256.58	73.61	-38.4	-43.8	3.9	14420822	94	2293
2025-01-14 00:38:47.33	256.02	73.49	-38.2	-42.6	3.9	14239868	94	2025
2025-01-14 00:38:47.73	255.46	73.38	-38.0	-41.7	4.2	14239868	94	1885
2025-01-14 00:38:48.14	254.90	73.26	-38.0	-41.9	4.1	12827728	94	1921
2025-01-14 00:38:48.54	254.35	73.14	-38.3	-44.4	3.7	12759315	94	2485
2025-01-14 00:38:48.94	253.82	73.02	-38.3	-43.3	3.8	14435165	94	2190
2025-01-14 00:38:49.34	253.29	72.90	-38.3	-43.1	3.7	14450675	94	2150
2025-01-14 00:38:49.75	252.76	72.78	-38.3	-43.3	3.6	14424438	94	2176
2025-01-14 00:38:50.15	252.25	72.65	-38.4	-44.8	3.7	14794631	94	2585
2025-01-14 00:38:50.55	251.75	72.53	-38.4	-43.9	3.5	14932456	94	2330
2025-01-14 00:38:50.95	251.25	72.41	-38.3	-44.3	3.8	14987243	94	2465
2025-01-14 00:38:51.35	250.77	72.28	-38.1	-42.9	3.8	14616996	94	2127
2025-01-14 00:38:51.76	250.27	72.15	-38.1	-43.6	3.8	14515960	94	2320
2025-01-14 00:38:52.16	249.80	72.02	-37.9	-42.2	4.1	12807502	94	2008
2025-01-14 00:38:52.56	249.34	71.89	-37.9	-41.7	4.2	12807502	94	1913
2025-01-14 00:38:52.96	248.88	71.76	-37.9	-41.7	4.1	10568252	94	1916
2025-01-14 00:38:53.37	248.41	71.63	-38.0	-42.2	4.0	10288475	94	2010
2025-01-14 00:38:53.77	247.97	71.49	-38.0	-42.4	3.8	11768493	94	2043
2025-01-14 00:38:54.17	247.53	71.36	-38.2	-43.9	3.9	13923027	94	2387
2025-01-14 00:38:54.57	247.10	71.23	-38.1	-43.1	3.7	14498115	94	2179
2025-01-14 00:38:54.97	246.67	71.09	-38.0	-43.5	3.9	14422866	94	2317
2025-01-14 00:38:55.37	246.25	70.96	-38.0	-42.7	3.8	14581130	94	2102
2025-01-14 00:38:55.78	245.83	70.82	-37.9	-42.0	3.9	14259643	94	1977
2025-01-14 00:38:56.18	245.43	70.68	-37.9	-41.9	3.9	13955482	94	1957
2025-01-14 00:38:56.58	245.03	70.54	-37.9	-43.1	4.0	14248596	94	2240
2025-01-14 00:38:56.98	244.63	70.40	-37.8	-42.0	4.1	14206436	93	1994
2025-01-14 00:38:57.38	244.24	70.27	-39.2	-48.2	2.8	14061012	95	3490

#Closed at: 2025-01-14 00:38:57