passes_logs/2025/01/14/XPeterburg/XPeterburg__20250114_012301_AQUA_rec.log

#Pass ID: 20250114_012301_AQUA
#Satellite: AQUA
#Configuration: AQUA
#Start time: 2025-01-14 01:22:54

#Version: 1.5.20200625
#Station: XPeterburg
#Location: 30.318091 lon 59.932769 lat
#TLE: 1 27424U 02022A   25013.15568498  .00001660  00000+0  35066-3 0  9997
#TLE: 2 27424  98.3585 329.8030 0001646 113.3422 303.6913 14.60674931207350

#Time	Az	El	Level	Level2	SNR	BER	Gain	Gain2
2025-01-14 01:22:54.47	22.29	66.76	-35.8	-44.9	3.3	7655334	89	1710
2025-01-14 01:22:54.87	22.34	66.98	-35.9	-53.8	3.5	7566833	74	4672
2025-01-14 01:22:55.27	22.38	67.19	-35.7	-46.0	3.4	7641296	88	1965
2025-01-14 01:22:55.67	22.43	67.41	-35.7	-46.5	3.5	7566833	88	2073
2025-01-14 01:22:56.07	22.47	67.62	-35.7	-45.7	3.4	7611236	88	1900
2025-01-14 01:22:56.48	22.52	67.85	-35.7	-46.2	3.5	7575836	88	2003
2025-01-14 01:22:56.88	22.57	68.06	-35.7	-46.1	3.4	7636566	88	1977
2025-01-14 01:22:57.28	22.62	68.28	-35.7	-46.4	3.5	7577667	88	2050
2025-01-14 01:22:57.68	22.67	68.50	-35.6	-45.8	3.4	7580871	88	1924
2025-01-14 01:22:58.08	22.72	68.72	-35.6	-45.4	3.5	7548828	88	1853
2025-01-14 01:22:58.49	22.77	68.95	-35.5	-44.5	3.5	7570495	88	1687
2025-01-14 01:22:58.89	22.83	69.17	-35.3	-43.4	3.5	7541961	88	1519
2025-01-14 01:22:59.29	22.88	69.39	-35.1	-41.9	4.4	7317047	88	1307
2025-01-14 01:22:59.69	22.94	69.61	-35.0	-41.3	4.3	7470245	88	1234
2025-01-14 01:23:00.10	23.00	69.84	-34.8	-39.8	5.5	7036437	88	1069
2025-01-14 01:23:00.50	23.05	70.06	-34.6	-39.1	6.3	6879577	87	998
2025-01-14 01:23:00.90	23.11	70.28	-33.8	-36.7	7.6	6591949	86	838
2025-01-14 01:23:01.30	23.18	70.50	-33.5	-36.1	8.7	6424255	85	812
2025-01-14 01:23:01.70	23.24	70.73	-32.9	-35.0	9.6	6345825	84	758
2025-01-14 01:23:02.11	23.30	70.96	-32.6	-34.6	10.5	6251068	83	754
2025-01-14 01:23:02.51	23.37	71.18	-32.3	-33.8	11.0	6208190	83	707
2025-01-14 01:23:02.91	23.44	71.41	-32.4	-34.2	10.7	6212615	83	731
2025-01-14 01:23:03.31	23.51	71.63	-32.6	-34.6	10.4	6245269	83	756
2025-01-14 01:23:03.71	23.58	71.86	-32.8	-35.1	10.2	6269989	83	782
2025-01-14 01:23:04.12	23.65	72.09	-32.7	-35.0	10.2	6267852	83	777
2025-01-14 01:23:04.52	23.73	72.32	-32.4	-34.1	10.9	6225738	83	724
2025-01-14 01:23:04.92	23.81	72.55	-32.3	-34.3	11.3	6183624	82	751
2025-01-14 01:23:05.32	23.89	72.78	-32.5	-35.0	11.0	6192016	82	789
2025-01-14 01:23:05.73	23.97	73.01	-32.6	-35.1	10.8	6211242	82	795
2025-01-14 01:23:06.13	24.05	73.24	-32.8	-35.5	10.8	6212463	82	824
2025-01-14 01:23:06.53	24.14	73.47	-32.8	-35.8	10.8	6221771	82	838
2025-01-14 01:23:06.93	24.23	73.70	-32.9	-36.1	10.8	6237487	82	859
2025-01-14 01:23:07.33	24.32	73.93	-32.8	-35.5	11.3	6177825	82	824
2025-01-14 01:23:07.74	24.42	74.17	-32.6	-35.2	11.6	6135559	82	805
2025-01-14 01:23:08.14	24.51	74.40	-32.8	-35.8	11.2	6177215	82	839
2025-01-14 01:23:08.54	24.61	74.63	-32.9	-35.6	10.7	6227569	83	812
2025-01-14 01:23:08.94	24.72	74.86	-32.7	-34.9	11.0	6192626	83	769
2025-01-14 01:23:09.35	24.83	75.10	-32.6	-34.6	11.2	6187896	83	753
2025-01-14 01:23:09.75	24.94	75.33	-32.8	-35.0	10.9	6197967	83	772
2025-01-14 01:23:10.15	25.05	75.57	-32.8	-35.1	10.8	6201019	83	776
2025-01-14 01:23:10.55	25.17	75.80	-32.7	-34.8	11.0	6175079	83	758
2025-01-14 01:23:10.96	25.29	76.04	-32.7	-34.7	11.1	6199645	83	754
2025-01-14 01:23:11.36	25.42	76.28	-32.8	-35.0	11.1	6182708	83	768
2025-01-14 01:23:11.76	25.55	76.51	-32.6	-34.5	11.3	6184082	83	742
2025-01-14 01:23:12.16	25.68	76.74	-32.4	-33.8	11.6	6173706	83	703
2025-01-14 01:23:12.57	25.83	76.99	-32.3	-34.1	11.9	6123199	82	732
2025-01-14 01:23:12.97	25.97	77.22	-32.2	-33.7	12.2	6137390	82	713
2025-01-14 01:23:13.37	26.13	77.46	-32.2	-33.9	12.1	6120758	82	724
2025-01-14 01:23:13.77	26.28	77.69	-32.3	-34.0	12.1	6128540	82	731
2025-01-14 01:23:14.17	26.45	77.93	-32.4	-34.2	12.0	6122589	82	740
2025-01-14 01:23:14.58	26.62	78.17	-32.5	-34.6	11.9	6143798	82	761
2025-01-14 01:23:14.98	26.80	78.41	-32.4	-34.4	12.0	6112060	82	753
2025-01-14 01:23:15.38	26.98	78.65	-32.2	-33.8	12.4	6121063	82	721
2025-01-14 01:23:15.78	27.17	78.88	-32.0	-33.4	12.8	6085052	82	700
2025-01-14 01:23:16.19	27.38	79.13	-32.1	-33.5	12.8	6093597	82	708
2025-01-14 01:23:16.59	27.59	79.37	-32.0	-33.3	13.0	6098327	82	695
2025-01-14 01:23:16.99	27.81	79.60	-31.9	-33.0	13.2	6042327	82	683
2025-01-14 01:23:17.39	28.04	79.84	-31.8	-32.9	13.3	6082305	82	678
2025-01-14 01:23:17.79	28.29	80.08	-31.7	-33.0	13.5	6067352	81	700
2025-01-14 01:23:18.19	28.54	80.32	-31.2	-32.5	14.2	6039123	80	688
2025-01-14 01:23:18.60	28.81	80.56	-30.9	-31.7	14.8	6060638	80	652
2025-01-14 01:23:19.00	29.10	80.80	-31.2	-32.3	14.5	6052856	80	683
2025-01-14 01:23:19.40	29.39	81.04	-31.2	-32.4	14.5	6035919	80	686
2025-01-14 01:23:19.80	29.71	81.28	-31.2	-32.5	14.4	6059417	80	691
2025-01-14 01:23:20.21	30.05	81.52	-31.1	-32.1	14.6	6042175	80	673
2025-01-14 01:23:20.61	30.40	81.76	-31.0	-31.8	14.9	6053466	80	661
2025-01-14 01:23:21.01	30.77	82.00	-30.9	-31.6	15.1	6043090	80	651
2025-01-14 01:23:21.41	31.16	82.24	-30.4	-31.1	15.4	6017456	79	648
2025-01-14 01:23:21.81	31.58	82.48	-30.3	-30.9	15.5	6034393	79	638
2025-01-14 01:23:22.22	32.04	82.72	-30.4	-31.0	15.5	6011047	79	641
2025-01-14 01:23:22.62	32.52	82.96	-30.5	-31.3	15.3	6043701	79	657
2025-01-14 01:23:23.02	33.03	83.20	-30.2	-31.2	15.7	6041564	78	666
2025-01-14 01:23:23.42	33.58	83.43	-30.0	-30.6	16.0	6032562	78	640
2025-01-14 01:23:23.83	34.19	83.68	-29.9	-30.5	16.0	6022491	78	638
2025-01-14 01:23:24.23	34.83	83.91	-30.1	-30.7	16.1	6024017	78	646
2025-01-14 01:23:24.63	35.52	84.15	-29.8	-30.7	16.3	6024475	77	659
2025-01-14 01:23:25.03	36.27	84.38	-29.8	-30.7	16.2	6038970	77	660
2025-01-14 01:23:25.44	37.10	84.62	-30.1	-31.4	15.8	6036376	77	688
2025-01-14 01:23:25.84	37.99	84.86	-30.0	-31.1	15.7	6069335	77	677
2025-01-14 01:23:26.24	38.97	85.09	-29.7	-30.4	15.9	6024627	77	649
2025-01-14 01:23:26.64	40.04	85.32	-29.6	-30.1	16.2	6036376	77	633
2025-01-14 01:23:27.05	41.25	85.55	-29.5	-30.0	16.4	6050262	77	629
2025-01-14 01:23:27.45	42.57	85.78	-29.5	-29.8	16.5	6049499	77	624
2025-01-14 01:23:27.85	44.03	86.00	-29.7	-30.4	16.3	6018981	77	646
2025-01-14 01:23:28.25	45.66	86.23	-29.7	-30.5	16.3	6025695	77	651
2025-01-14 01:23:28.66	47.55	86.45	-29.6	-30.1	16.4	6036987	77	635
2025-01-14 01:23:29.06	49.63	86.66	-29.3	-29.4	16.7	6043395	77	607
2025-01-14 01:23:29.46	51.99	86.87	-29.3	-29.9	16.8	6034088	76	641
2025-01-14 01:23:29.86	54.69	87.07	-29.5	-30.3	16.6	6019287	76	661
2025-01-14 01:23:30.27	57.86	87.28	-29.5	-30.5	16.7	6050720	76	666
2025-01-14 01:23:30.67	61.43	87.46	-29.4	-30.2	16.8	6036071	76	654
2025-01-14 01:23:31.07	65.55	87.64	-29.1	-29.6	17.1	6045837	76	628
2025-01-14 01:23:31.47	70.30	87.80	-29.3	-29.9	17.1	6032714	76	643
2025-01-14 01:23:31.87	75.76	87.94	-29.4	-30.1	17.1	6021423	76	652
2025-01-14 01:23:32.27	81.96	88.06	-29.6	-30.6	16.8	6013641	76	671
2025-01-14 01:23:32.68	89.10	88.16	-29.6	-30.6	16.9	6038208	76	670
2025-01-14 01:23:33.08	96.71	88.23	-29.2	-29.8	17.3	6042633	76	637
2025-01-14 01:23:33.48	104.76	88.26	-29.4	-30.2	17.3	6011810	76	653
2025-01-14 01:23:33.88	112.95	88.26	-29.0	-29.3	17.7	6056060	76	618
2025-01-14 01:23:34.29	121.16	88.22	-29.2	-29.7	17.4	6018981	76	635
2025-01-14 01:23:34.69	128.69	88.15	-29.1	-29.6	17.6	6017761	76	630
2025-01-14 01:23:35.09	135.55	88.05	-29.1	-29.5	17.6	6014251	76	625
2025-01-14 01:23:35.49	141.67	87.93	-29.2	-29.7	17.5	6024932	76	632
2025-01-14 01:23:35.90	147.16	87.78	-29.2	-29.7	17.4	6032867	76	633
2025-01-14 01:23:36.30	151.81	87.61	-29.4	-30.2	17.1	6012725	76	655
2025-01-14 01:23:36.70	155.84	87.44	-29.2	-29.7	17.3	6046447	76	632
2025-01-14 01:23:37.10	159.34	87.25	-29.2	-29.7	17.4	6036224	76	633
2025-01-14 01:23:37.51	162.45	87.05	-29.4	-30.2	17.1	6030426	76	656
2025-01-14 01:23:37.91	165.10	86.84	-29.5	-30.5	16.9	6032409	76	664
2025-01-14 01:23:38.31	167.42	86.63	-29.9	-31.2	16.4	6035614	76	697
2025-01-14 01:23:38.71	169.46	86.42	-30.4	-31.8	15.6	6030120	77	707
2025-01-14 01:23:39.12	171.31	86.19	-30.5	-31.7	15.3	6060791	78	683
2025-01-14 01:23:39.52	172.92	85.97	-30.2	-30.9	15.6	6033477	78	648
2025-01-14 01:23:39.92	174.36	85.75	-30.3	-31.1	15.6	6029205	78	659
2025-01-14 01:23:40.32	175.65	85.52	-30.5	-31.5	15.3	6030731	78	673
2025-01-14 01:23:40.73	176.85	85.28	-30.7	-32.0	15.1	6046447	78	695
2025-01-14 01:23:41.13	177.90	85.05	-30.9	-32.1	14.5	6053314	79	682
2025-01-14 01:23:41.53	178.87	84.82	-31.1	-32.5	14.3	6063079	79	704
2025-01-14 01:23:41.93	179.74	84.59	-31.1	-32.5	14.3	6055908	79	703
2025-01-14 01:23:42.34	180.57	84.35	-31.3	-32.9	14.2	6074829	79	723
2025-01-14 01:23:42.74	181.31	84.11	-31.4	-33.1	14.1	6047363	79	732
2025-01-14 01:23:43.14	181.99	83.88	-31.9	-33.8	13.6	6092224	80	745
2025-01-14 01:23:43.54	182.62	83.64	-31.7	-33.3	13.8	6062011	80	722
2025-01-14 01:23:43.95	183.22	83.40	-31.9	-33.4	13.5	6080017	81	709
2025-01-14 01:23:44.35	183.77	83.16	-31.5	-32.5	13.8	6065216	81	666
2025-01-14 01:23:44.75	184.28	82.92	-31.7	-32.9	13.9	6058654	81	685
2025-01-14 01:23:45.15	184.75	82.68	-31.9	-33.4	13.5	6068572	81	711
2025-01-14 01:23:45.56	185.21	82.44	-31.9	-33.2	13.9	6071472	81	699
2025-01-14 01:23:45.96	185.62	82.20	-31.6	-32.7	14.0	6065673	81	675
2025-01-14 01:23:46.36	186.01	81.96	-31.7	-32.8	14.2	6058807	81	684
2025-01-14 01:23:46.76	186.38	81.72	-31.6	-32.5	14.1	6053466	81	669
2025-01-14 01:23:47.17	186.74	81.48	-31.8	-33.3	13.6	6085357	81	705
2025-01-14 01:23:47.57	187.07	81.24	-31.6	-32.7	14.2	6071929	81	677
2025-01-14 01:23:47.97	187.38	81.00	-31.8	-33.1	14.1	6050567	81	694
2025-01-14 01:23:48.37	187.67	80.76	-31.5	-32.6	14.3	6057586	81	672
2025-01-14 01:23:48.78	187.96	80.52	-31.3	-32.0	14.4	6029052	81	650
2025-01-14 01:23:49.18	188.22	80.28	-31.8	-33.3	13.9	6063232	81	708
2025-01-14 01:23:49.58	188.47	80.04	-32.2	-34.3	13.1	6094818	81	760
2025-01-14 01:23:49.98	188.72	79.80	-32.4	-34.9	12.5	6118316	81	790
2025-01-14 01:23:50.38	188.94	79.56	-32.3	-34.4	12.8	6066436	81	767
2025-01-14 01:23:50.79	189.17	79.32	-32.2	-34.2	12.9	6092376	81	757
2025-01-14 01:23:51.19	189.38	79.08	-32.1	-34.1	13.0	6104125	81	749
2025-01-14 01:23:51.59	189.58	78.84	-32.2	-34.4	12.7	6108703	81	766
2025-01-14 01:23:51.99	189.77	78.61	-32.5	-35.0	12.3	6127929	81	802
2025-01-14 01:23:52.40	189.96	78.36	-33.0	-35.3	11.5	6172943	83	781
2025-01-14 01:23:52.80	190.13	78.12	-33.2	-35.9	10.9	6208953	83	821
2025-01-14 01:23:53.20	190.30	77.89	-33.2	-35.9	10.9	6192016	83	821
2025-01-14 01:23:53.60	190.47	77.65	-32.8	-34.8	11.5	6152191	83	757
2025-01-14 01:23:54.01	190.63	77.41	-32.6	-34.4	11.8	6130065	83	733
2025-01-14 01:23:54.41	190.78	77.17	-32.7	-34.8	11.4	6167907	83	755
2025-01-14 01:23:54.81	190.92	76.94	-33.1	-35.7	10.7	6213684	83	809
2025-01-14 01:23:55.21	191.06	76.70	-33.0	-35.6	10.6	6224060	83	804
2025-01-14 01:23:55.62	191.20	76.46	-33.3	-36.2	10.2	6267547	83	838
2025-01-14 01:23:56.02	191.33	76.22	-33.5	-36.9	9.8	6298065	83	882
2025-01-14 01:23:56.42	191.45	75.99	-33.6	-36.7	9.5	6352844	84	852
2025-01-14 01:23:56.82	191.57	75.76	-33.6	-36.8	9.3	6352233	84	860
2025-01-14 01:23:57.23	191.69	75.52	-33.4	-36.1	9.9	6308288	84	814
2025-01-14 01:23:57.63	191.81	75.28	-33.3	-35.9	10.1	6270904	84	805
2025-01-14 01:23:58.03	191.92	75.05	-33.2	-35.5	10.4	6222839	84	778
2025-01-14 01:23:58.43	192.02	74.82	-33.0	-35.0	10.7	6227416	84	754
2025-01-14 01:23:58.83	192.12	74.58	-33.3	-35.9	10.2	6260681	84	811
2025-01-14 01:23:59.24	192.23	74.35	-33.5	-36.6	9.6	6323089	84	855
2025-01-14 01:23:59.64	192.32	74.11	-33.5	-36.5	9.7	6313171	84	848
2025-01-14 01:24:00.04	192.42	73.88	-33.3	-36.2	9.9	6263122	84	833
2025-01-14 01:24:00.44	192.51	73.65	-33.3	-36.2	10.0	6264190	84	836
2025-01-14 01:24:00.84	192.60	73.42	-33.3	-36.3	9.9	6287994	84	846
2025-01-14 01:24:01.25	192.68	73.19	-33.2	-35.9	10.2	6272430	84	817
2025-01-14 01:24:01.65	192.77	72.96	-33.0	-35.4	10.4	6239318	84	783
2025-01-14 01:24:02.05	192.85	72.73	-32.8	-34.9	10.6	6252136	84	759
2025-01-14 01:24:02.45	192.93	72.50	-32.9	-35.0	10.4	6249084	84	765
2025-01-14 01:24:02.86	193.01	72.27	-32.9	-35.1	10.2	6255187	84	767
2025-01-14 01:24:03.26	193.08	72.04	-33.1	-35.6	9.7	6320953	84	797
2025-01-14 01:24:03.66	193.15	71.81	-33.2	-35.9	9.4	6361236	84	815
2025-01-14 01:24:04.07	193.23	71.58	-33.3	-36.4	8.9	6420898	84	853
2025-01-14 01:24:04.47	193.30	71.35	-33.0	-35.5	9.5	6340179	84	794
2025-01-14 01:24:04.87	193.36	71.13	-33.1	-35.8	9.4	6356658	84	809
2025-01-14 01:24:05.27	193.43	70.90	-33.0	-35.5	9.4	6343383	84	792
2025-01-14 01:24:05.67	193.49	70.68	-32.9	-35.0	9.7	6342010	84	765
2025-01-14 01:24:06.08	193.56	70.45	-33.1	-35.7	9.6	6323699	84	804

#Closed at: 2025-01-14 01:24:06