passes_logs/2025/01/14/XPeterburg/XPeterburg__20250114_085903_FENGYUN_3F_rec.log

#Pass ID: 20250114_085903_FENGYUN 3F
#Satellite: FENGYUN 3F
#Configuration: FENGYUN 3F
#Start time: 2025-01-14 08:58:59

#Version: 1.5.20200625
#Station: XPeterburg
#Location: 30.318091 lon 59.932769 lat
#TLE: 1 57490U 23111A   25013.15343949  .00000157  00000+0  94479-4 0  9991
#TLE: 2 57490  98.7468  86.1144 0001109 142.8156 217.3097 14.19975332 75062

#Time	Az	El	Level	Level2	SNR	BER	Gain	Gain2
2025-01-14 08:58:59.09	55.40	68.55	-39.2	-41.4	3.3	8389469	96	6392
2025-01-14 08:58:59.29	55.57	68.62	-38.2	-60.7	2.5	6261245	47	65532
2025-01-14 08:58:59.49	55.73	68.69	-38.7	-53.1	3.5	8214752	73	25982
2025-01-14 08:58:59.69	55.90	68.76	-39.3	-42.5	3.3	8414405	95	7134
2025-01-14 08:58:59.89	56.08	68.83	-39.3	-42.2	3.3	8414405	95	6873
2025-01-14 08:59:00.10	56.26	68.91	-39.2	-42.9	3.6	8394836	96	7534
2025-01-14 08:59:00.30	56.43	68.98	-39.1	-42.8	3.6	8364784	96	7457
2025-01-14 08:59:00.50	56.61	69.05	-39.1	-41.7	3.4	8435852	96	6606
2025-01-14 08:59:00.70	56.78	69.12	-39.1	-41.4	3.3	8400867	96	6371
2025-01-14 08:59:00.90	56.96	69.19	-39.1	-42.9	3.6	8389446	96	7613
2025-01-14 08:59:01.10	57.14	69.26	-39.1	-42.7	3.6	8437316	96	7498
2025-01-14 08:59:01.30	57.32	69.33	-39.0	-41.6	3.4	8433414	96	6607
2025-01-14 08:59:01.50	57.50	69.40	-39.1	-41.3	3.3	8433414	96	6342
2025-01-14 08:59:01.70	57.68	69.47	-39.0	-41.2	3.3	8406669	96	6348
2025-01-14 08:59:01.91	57.88	69.54	-39.0	-42.7	3.6	8396507	96	7525
2025-01-14 08:59:02.11	58.06	69.61	-38.9	-41.7	3.4	8445453	96	6749
2025-01-14 08:59:02.31	58.25	69.68	-38.9	-41.0	3.3	8429454	96	6202
2025-01-14 08:59:02.51	58.44	69.75	-38.9	-40.9	3.3	8388530	96	6169
2025-01-14 08:59:02.71	58.63	69.82	-38.9	-42.5	3.6	8406097	96	7455
2025-01-14 08:59:02.91	58.82	69.89	-39.0	-42.0	3.5	8401885	96	6984
2025-01-14 08:59:03.11	59.01	69.96	-39.0	-41.1	3.4	8409793	96	6281
2025-01-14 08:59:03.31	59.20	70.02	-39.0	-40.8	3.3	8409793	96	6085
2025-01-14 08:59:03.51	59.40	70.09	-38.8	-42.0	3.6	8391151	96	7086
2025-01-14 08:59:03.71	59.60	70.16	-38.8	-42.0	3.6	8367393	96	7079
2025-01-14 08:59:03.92	59.80	70.23	-38.8	-40.9	3.4	8444698	96	6237
2025-01-14 08:59:04.12	60.00	70.30	-38.8	-40.8	3.3	8409164	96	6155
2025-01-14 08:59:04.32	60.20	70.37	-38.8	-42.2	3.6	8377201	96	7267
2025-01-14 08:59:04.52	60.41	70.43	-38.9	-42.1	3.6	8442970	96	7159
2025-01-14 08:59:04.72	60.61	70.50	-38.8	-40.9	3.4	8428916	96	6219
2025-01-14 08:59:04.92	60.82	70.57	-38.7	-40.7	3.3	8428916	95	6187
2025-01-14 08:59:05.12	61.02	70.64	-38.7	-40.6	3.3	8402572	95	6109
2025-01-14 08:59:05.32	61.23	70.70	-38.7	-41.9	3.6	8390396	95	7147
2025-01-14 08:59:05.52	61.44	70.77	-38.7	-41.3	3.4	8443943	95	6578
2025-01-14 08:59:05.73	61.66	70.84	-38.8	-40.7	3.3	8427291	95	6132
2025-01-14 08:59:05.93	61.88	70.90	-38.8	-40.8	3.3	8382888	95	6175
2025-01-14 08:59:06.13	62.09	70.97	-38.8	-42.3	3.6	8415000	95	7327
2025-01-14 08:59:06.33	62.31	71.04	-38.8	-41.8	3.5	8447902	95	6930
2025-01-14 08:59:06.53	62.53	71.10	-38.8	-41.0	3.3	8447902	95	6301
2025-01-14 08:59:06.73	62.75	71.17	-38.7	-40.6	3.3	8414840	95	6134
2025-01-14 08:59:06.93	62.97	71.23	-38.7	-42.0	3.6	8378803	95	7214
2025-01-14 08:59:07.13	63.19	71.30	-38.8	-42.0	3.6	8429752	95	7092
2025-01-14 08:59:07.33	63.41	71.36	-38.8	-41.0	3.4	8374134	95	6336
2025-01-14 08:59:07.53	63.64	71.42	-38.7	-40.6	3.3	8407150	95	6057
2025-01-14 08:59:07.73	63.87	71.49	-38.7	-41.8	3.6	8403293	95	7050
2025-01-14 08:59:07.93	64.10	71.55	-38.6	-41.6	3.6	8379913	95	6906
2025-01-14 08:59:08.14	64.34	71.62	-38.6	-40.5	3.4	8431755	95	6140
2025-01-14 08:59:08.34	64.57	71.68	-38.6	-40.2	3.3	8417243	95	5943
2025-01-14 08:59:08.54	64.81	71.75	-38.6	-41.5	3.6	8390316	95	6835
2025-01-14 08:59:08.74	65.04	71.81	-38.6	-41.5	3.6	8390316	95	6880
2025-01-14 08:59:08.94	65.28	71.87	-38.5	-40.4	3.4	8434501	95	6093
2025-01-14 08:59:09.14	65.52	71.93	-38.5	-39.7	3.3	8422657	95	5695
2025-01-14 08:59:09.34	65.76	72.00	-38.4	-39.8	3.3	8387042	95	5747
2025-01-14 08:59:09.54	66.01	72.06	-38.5	-41.3	3.6	8406143	95	6813
2025-01-14 08:59:09.74	66.25	72.12	-38.6	-40.6	3.4	8424327	95	6244
2025-01-14 08:59:09.95	66.51	72.18	-38.6	-40.1	3.3	8404895	95	5872
2025-01-14 08:59:10.15	66.76	72.24	-38.6	-40.2	3.3	8394733	95	5924
2025-01-14 08:59:10.35	67.01	72.30	-38.6	-41.5	3.6	8394733	95	6875
2025-01-14 08:59:10.55	67.26	72.36	-38.5	-40.8	3.5	8429111	95	6415
2025-01-14 08:59:10.75	67.52	72.42	-38.5	-39.8	3.3	8432006	95	5727
2025-01-14 08:59:10.95	67.77	72.48	-38.5	-39.6	3.3	8396484	95	5607
2025-01-14 08:59:11.15	68.03	72.54	-38.6	-41.4	3.6	8402938	95	6825
2025-01-14 08:59:11.35	68.29	72.60	-38.7	-41.6	3.6	8435211	95	6924
2025-01-14 08:59:11.55	68.55	72.66	-38.8	-40.8	3.4	8434970	95	6248
2025-01-14 08:59:11.75	68.82	72.72	-38.9	-40.8	3.3	8394607	95	6137
2025-01-14 08:59:11.95	69.08	72.78	-38.9	-42.3	3.6	8391220	95	7320
2025-01-14 08:59:12.15	69.35	72.84	-38.7	-41.8	3.6	8391220	95	7068
2025-01-14 08:59:12.35	69.62	72.89	-38.7	-40.6	3.4	8449676	95	6130
2025-01-14 08:59:12.56	69.90	72.95	-38.5	-39.9	3.3	8414886	95	5737
2025-01-14 08:59:12.76	70.17	73.01	-38.5	-39.8	3.3	8389881	95	5708
2025-01-14 08:59:12.96	70.45	73.07	-38.6	-41.4	3.6	8413684	95	6810
2025-01-14 08:59:13.16	70.73	73.12	-38.8	-41.2	3.4	8393394	95	6519
2025-01-14 08:59:13.36	71.00	73.18	-38.8	-40.7	3.3	8407424	95	6090
2025-01-14 08:59:13.56	71.29	73.24	-38.9	-40.9	3.3	8389068	95	6192
2025-01-14 08:59:13.76	71.57	73.29	-38.8	-42.1	3.6	8389068	95	7221
2025-01-14 08:59:13.96	71.85	73.35	-38.8	-41.8	3.5	8357391	95	6902
2025-01-14 08:59:14.16	72.14	73.40	-38.8	-40.6	3.3	8431640	95	6093
2025-01-14 08:59:14.36	72.43	73.45	-38.8	-40.4	3.3	8402057	95	5936
2025-01-14 08:59:14.57	72.73	73.51	-38.7	-41.7	3.6	8402286	95	6961
2025-01-14 08:59:14.77	73.02	73.56	-38.8	-41.8	3.6	8439388	95	6966
2025-01-14 08:59:14.97	73.32	73.62	-38.8	-40.8	3.4	8422874	95	6212
2025-01-14 08:59:15.17	73.62	73.67	-38.9	-40.9	3.3	8384937	95	6169
2025-01-14 08:59:15.37	73.91	73.72	-38.9	-42.3	3.6	8384937	95	7264
2025-01-14 08:59:15.57	74.21	73.77	-38.9	-42.3	3.6	8404689	95	7339
2025-01-14 08:59:15.77	74.52	73.82	-38.9	-41.2	3.4	8443531	95	6429
2025-01-14 08:59:15.97	74.82	73.88	-38.8	-40.7	3.3	8419578	95	6079
2025-01-14 08:59:16.17	75.13	73.93	-38.8	-40.6	3.3	8399723	95	6062
2025-01-14 08:59:16.37	75.44	73.98	-38.9	-42.2	3.6	8408958	95	7237
2025-01-14 08:59:16.57	75.75	74.03	-38.8	-41.4	3.4	8383152	95	6638
2025-01-14 08:59:16.78	76.08	74.08	-38.8	-40.8	3.3	8410228	95	6137
2025-01-14 08:59:16.98	76.39	74.13	-38.8	-40.7	3.3	8389812	95	6112
2025-01-14 08:59:17.18	76.71	74.17	-38.8	-41.6	3.6	8389812	96	6763
2025-01-14 08:59:17.38	77.03	74.22	-38.8	-41.6	3.5	8370471	95	6835
2025-01-14 08:59:17.58	77.35	74.27	-38.7	-40.4	3.3	8435874	95	5983
2025-01-14 08:59:17.78	77.67	74.32	-38.7	-40.3	3.3	8406177	95	5894
2025-01-14 08:59:17.98	77.99	74.36	-38.6	-41.4	3.6	8383232	95	6831
2025-01-14 08:59:18.18	78.32	74.41	-38.5	-40.8	3.5	8440074	95	6368
2025-01-14 08:59:18.39	78.67	74.46	-38.6	-40.1	3.4	8383369	95	5845
2025-01-14 08:59:18.59	79.00	74.50	-38.6	-40.1	3.3	8394287	95	5837
2025-01-14 08:59:18.79	79.33	74.55	-38.6	-41.5	3.6	8342571	95	6862
2025-01-14 08:59:18.99	79.66	74.59	-38.6	-41.4	3.6	8444423	95	6771
2025-01-14 08:59:19.19	80.00	74.64	-38.5	-40.0	3.4	8444423	95	5849
2025-01-14 08:59:19.39	80.34	74.68	-38.6	-39.9	3.3	8422508	95	5716
2025-01-14 08:59:19.59	80.68	74.72	-38.6	-39.9	3.3	8380496	95	5773
2025-01-14 08:59:19.79	81.02	74.76	-38.5	-41.3	3.6	8398750	95	6754
2025-01-14 08:59:19.99	81.37	74.80	-38.7	-40.9	3.4	8445339	95	6353
2025-01-14 08:59:20.19	81.71	74.85	-38.8	-40.5	3.3	8413249	95	6031
2025-01-14 08:59:20.40	82.08	74.89	-38.7	-40.3	3.3	8400135	95	5932
2025-01-14 08:59:20.60	82.43	74.93	-38.8	-41.9	3.6	8414852	95	7090
2025-01-14 08:59:20.80	82.78	74.97	-38.7	-41.5	3.5	8414852	95	6763
2025-01-14 08:59:21.00	83.14	75.01	-38.7	-40.4	3.3	8391632	95	6003
2025-01-14 08:59:21.20	83.49	75.05	-38.7	-40.2	3.3	8410240	95	5885
2025-01-14 08:59:21.40	83.85	75.08	-38.7	-41.8	3.6	8385932	95	7039
2025-01-14 08:59:21.60	84.21	75.12	-38.7	-41.8	3.6	8373905	95	7013
2025-01-14 08:59:21.80	84.57	75.16	-38.8	-41.0	3.4	8446540	95	6350
2025-01-14 08:59:22.00	84.94	75.19	-38.8	-40.9	3.3	8405948	95	6232
2025-01-14 08:59:22.21	85.32	75.23	-38.9	-42.7	3.6	8397663	95	7606
2025-01-14 08:59:22.41	85.69	75.27	-38.9	-42.6	3.6	8445957	95	7511
2025-01-14 08:59:22.61	86.06	75.30	-38.9	-41.5	3.4	8445957	95	6645
2025-01-14 08:59:22.81	86.43	75.33	-38.9	-41.2	3.3	8427371	95	6387
2025-01-14 08:59:23.01	86.80	75.37	-38.8	-40.9	3.3	8397983	95	6247
2025-01-14 08:59:23.21	87.18	75.40	-38.8	-42.3	3.6	8406784	95	7365
2025-01-14 08:59:23.41	87.55	75.43	-38.8	-41.6	3.4	8437797	95	6747
2025-01-14 08:59:23.61	87.93	75.46	-38.8	-40.9	3.3	8409999	95	6252
2025-01-14 08:59:23.81	88.31	75.50	-38.8	-40.9	3.3	8389102	95	6253
2025-01-14 08:59:24.02	88.71	75.53	-38.7	-42.0	3.6	8404300	95	7144
2025-01-14 08:59:24.22	89.10	75.56	-38.6	-41.1	3.5	8404300	95	6508
2025-01-14 08:59:24.42	89.48	75.59	-38.7	-40.4	3.3	8438930	95	5991
2025-01-14 08:59:24.62	89.87	75.61	-38.6	-40.1	3.3	8400409	95	5878
2025-01-14 08:59:24.82	90.26	75.64	-38.7	-41.8	3.6	8390453	95	7062
2025-01-14 08:59:25.02	90.64	75.67	-38.8	-41.9	3.6	8435840	95	7067
2025-01-14 08:59:25.22	91.04	75.70	-38.8	-41.3	3.3	8429512	95	6524
2025-01-14 08:59:25.42	91.43	75.72	-38.9	-41.2	3.3	8391574	95	6410
2025-01-14 08:59:25.62	91.82	75.75	-38.9	-42.8	3.6	8398487	95	7662
2025-01-14 08:59:25.83	92.24	75.77	-38.9	-42.8	3.6	8436721	95	7664
2025-01-14 08:59:26.03	92.63	75.80	-38.9	-41.6	3.4	8436721	95	6750
2025-01-14 08:59:26.23	93.03	75.82	-38.9	-41.2	3.3	8428115	95	6447
2025-01-14 08:59:26.43	93.43	75.84	-38.9	-41.5	3.3	8400020	95	6613
2025-01-14 08:59:26.63	93.83	75.86	-39.0	-43.1	3.6	8402458	95	7938
2025-01-14 08:59:26.83	94.24	75.89	-39.0	-42.5	3.4	8444343	95	7365
2025-01-14 08:59:27.03	94.64	75.91	-39.0	-41.8	3.3	8416534	95	6825
2025-01-14 08:59:27.23	95.04	75.93	-39.0	-41.9	3.3	8392112	95	6862
2025-01-14 08:59:27.43	95.45	75.95	-39.0	-43.2	3.6	8417072	95	8009
2025-01-14 08:59:27.63	95.86	75.96	-39.0	-42.6	3.4	8439319	95	7388
2025-01-14 08:59:27.84	96.28	75.98	-39.0	-41.8	3.3	8406715	95	6770
2025-01-14 08:59:28.04	96.69	76.00	-39.0	-41.9	3.3	8406715	95	6818
2025-01-14 08:59:28.24	97.10	76.02	-39.1	-43.5	3.6	8394012	95	8152
2025-01-14 08:59:28.44	97.51	76.03	-39.1	-42.9	3.5	8423847	95	7599
2025-01-14 08:59:28.64	97.93	76.05	-39.1	-42.0	3.3	8423126	95	6910
2025-01-14 08:59:28.84	98.34	76.06	-39.1	-41.8	3.3	8404197	95	6742
2025-01-14 08:59:29.04	98.75	76.08	-39.0	-43.0	3.6	8383541	95	7810
2025-01-14 08:59:29.24	99.17	76.09	-38.9	-42.6	3.6	8442180	95	7532
2025-01-14 08:59:29.44	99.58	76.10	-38.9	-41.3	3.3	8421306	95	6503
2025-01-14 08:59:29.65	100.02	76.11	-38.7	-40.7	3.3	8421306	95	6172
2025-01-14 08:59:29.85	100.44	76.12	-38.7	-41.8	3.6	8391723	95	7069
2025-01-14 08:59:30.05	100.86	76.14	-38.7	-41.9	3.6	8400135	95	7123
2025-01-14 08:59:30.25	101.27	76.14	-38.8	-41.2	3.4	8451175	95	6502
2025-01-14 08:59:30.45	101.69	76.15	-38.8	-40.9	3.3	8404941	95	6272
2025-01-14 08:59:30.65	102.11	76.16	-38.9	-41.0	3.3	8388828	95	6294
2025-01-14 08:59:30.85	102.53	76.17	-38.9	-42.5	3.6	8431674	95	7457
2025-01-14 08:59:31.05	102.95	76.18	-39.0	-42.1	3.4	8433860	95	7037
2025-01-14 08:59:31.25	103.37	76.18	-39.1	-41.6	3.3	8398166	95	6605
2025-01-14 08:59:31.46	103.81	76.19	-39.1	-41.9	3.3	8398166	95	6802
2025-01-14 08:59:31.66	104.24	76.19	-39.2	-43.3	3.6	8394927	95	7956
2025-01-14 08:59:31.86	104.66	76.19	-39.1	-42.7	3.5	8429615	95	7441
2025-01-14 08:59:32.06	105.08	76.20	-39.1	-41.8	3.3	8433002	95	6721
2025-01-14 08:59:32.26	105.50	76.20	-39.1	-41.6	3.3	8393726	95	6565
2025-01-14 08:59:32.46	105.92	76.20	-39.1	-43.0	3.6	8396690	95	7729
2025-01-14 08:59:32.66	106.34	76.20	-39.1	-43.0	3.6	8441539	95	7710
2025-01-14 08:59:32.86	106.77	76.20	-39.1	-41.9	3.4	8416763	95	6749
2025-01-14 08:59:33.06	107.19	76.20	-39.2	-41.9	3.3	8416763	95	6765
2025-01-14 08:59:33.26	107.61	76.20	-39.1	-43.3	3.6	8387203	95	7987
2025-01-14 08:59:33.46	108.03	76.20	-39.2	-43.4	3.6	8411556	95	8011
2025-01-14 08:59:33.67	108.48	76.20	-39.1	-42.1	3.4	8437969	95	6986
2025-01-14 08:59:33.87	108.90	76.19	-39.1	-41.6	3.3	8416957	95	6596
2025-01-14 08:59:34.07	109.32	76.19	-39.0	-41.3	3.3	8393611	95	6426
2025-01-14 08:59:34.27	109.74	76.18	-38.9	-42.6	3.6	8415813	95	7546
2025-01-14 08:59:34.47	110.16	76.18	-38.9	-41.6	3.4	8429134	95	6755
2025-01-14 08:59:34.67	110.58	76.17	-38.8	-40.8	3.3	8429134	95	6199
2025-01-14 08:59:34.87	111.00	76.16	-38.9	-41.0	3.3	8401290	95	6291
2025-01-14 08:59:35.07	111.42	76.16	-38.8	-42.3	3.6	8391941	95	7324
2025-01-14 08:59:35.27	111.84	76.15	-38.7	-41.5	3.5	8430530	95	6818
2025-01-14 08:59:35.47	112.26	76.14	-38.7	-40.6	3.3	8429969	95	6141
2025-01-14 08:59:35.67	112.68	76.13	-38.6	-40.1	3.3	8400135	95	5860
2025-01-14 08:59:35.88	113.11	76.12	-38.7	-42.0	3.6	8397090	95	7183
2025-01-14 08:59:36.08	113.53	76.11	-38.6	-41.4	3.6	8438953	95	6792
2025-01-14 08:59:36.28	113.95	76.09	-38.9	-41.4	3.4	8412254	95	6611
2025-01-14 08:59:36.48	114.36	76.08	-38.9	-41.3	3.3	8412254	95	6532
2025-01-14 08:59:36.68	114.78	76.07	-39.0	-42.9	3.6	8387271	95	7785
2025-01-14 08:59:36.88	115.19	76.05	-38.9	-42.9	3.6	8406944	95	7783
2025-01-14 08:59:37.08	115.60	76.04	-39.0	-42.0	3.4	8441745	95	6977
2025-01-14 08:59:37.28	116.01	76.02	-39.0	-41.5	3.3	8422222	95	6577
2025-01-14 08:59:37.48	116.42	76.01	-39.0	-42.9	3.6	8383712	95	7792
2025-01-14 08:59:37.68	116.83	75.99	-39.0	-42.9	3.6	8421546	95	7738
2025-01-14 08:59:37.89	117.26	75.97	-38.9	-41.7	3.4	8436412	95	6808
2025-01-14 08:59:38.09	117.67	75.95	-38.8	-41.1	3.3	8405868	95	6417
2025-01-14 08:59:38.29	118.08	75.93	-38.7	-40.7	3.3	8388439	95	6169
2025-01-14 08:59:38.49	118.48	75.91	-38.6	-41.7	3.6	8388439	95	7049
2025-01-14 08:59:38.69	118.88	75.89	-38.8	-41.5	3.5	8439102	95	6750
2025-01-14 08:59:38.89	119.29	75.87	-38.7	-40.6	3.3	8387935	95	6128
2025-01-14 08:59:39.09	119.69	75.85	-38.7	-40.8	3.3	8385990	95	6223
2025-01-14 08:59:39.29	120.09	75.83	-38.6	-41.8	3.6	8332683	95	7120
2025-01-14 08:59:39.49	120.49	75.80	-38.4	-40.9	3.5	8446861	95	6510
2025-01-14 08:59:39.69	120.88	75.78	-38.5	-40.0	3.3	8419521	95	5908
2025-01-14 08:59:39.89	121.28	75.76	-38.3	-39.3	3.3	8390293	95	5565
2025-01-14 08:59:40.10	121.70	75.73	-38.4	-41.3	3.6	8420722	95	6866
2025-01-14 08:59:40.30	122.09	75.70	-37.9	-40.4	3.6	8420722	94	6543
2025-01-14 08:59:40.50	122.48	75.68	-38.1	-39.7	3.4	8393062	94	5920
2025-01-14 08:59:40.70	122.87	75.65	-38.1	-39.7	3.3	8410068	94	5879
2025-01-14 08:59:40.90	123.26	75.62	-38.5	-41.4	3.6	8387157	95	6873
2025-01-14 08:59:41.10	123.65	75.59	-38.5	-41.3	3.6	8365104	95	6837
2025-01-14 08:59:41.30	124.03	75.57	-38.5	-40.5	3.4	8450443	95	6190
2025-01-14 08:59:41.50	124.42	75.54	-38.5	-40.1	3.3	8409152	95	5916
2025-01-14 08:59:41.70	124.80	75.51	-38.5	-40.0	3.3	8388439	95	5869
2025-01-14 08:59:41.90	125.18	75.47	-38.5	-41.5	3.6	8388439	95	6969
2025-01-14 08:59:42.11	125.58	75.44	-38.6	-41.0	3.4	8438312	95	6506
2025-01-14 08:59:42.31	125.95	75.41	-38.6	-40.4	3.3	8423641	95	6079
2025-01-14 08:59:42.51	126.33	75.38	-38.6	-40.3	3.3	8410148	95	6027
2025-01-14 08:59:42.71	126.70	75.34	-38.4	-41.3	3.6	8410320	95	6833
2025-01-14 08:59:42.91	127.07	75.31	-38.5	-40.9	3.5	8442203	95	6523
2025-01-14 08:59:43.11	127.44	75.28	-38.4	-39.8	3.3	8417747	95	5777
2025-01-14 08:59:43.31	127.81	75.24	-38.4	-39.6	3.3	8392444	95	5694
2025-01-14 08:59:43.51	128.18	75.21	-38.4	-41.1	3.6	8392444	95	6762
2025-01-14 08:59:43.71	128.54	75.17	-38.4	-40.9	3.6	8415355	95	6552
2025-01-14 08:59:43.92	128.92	75.13	-38.1	-39.6	3.4	8439571	94	5856
2025-01-14 08:59:44.12	129.29	75.09	-37.9	-38.8	3.3	8426273	94	5461
2025-01-14 08:59:44.32	129.64	75.06	-37.8	-40.2	3.6	8394824	94	6441
2025-01-14 08:59:44.52	130.00	75.02	-38.0	-40.9	3.6	8412803	93	6879
2025-01-14 08:59:44.72	130.36	74.98	-37.8	-39.5	3.5	8427062	93	5947
2025-01-14 08:59:44.92	130.71	74.94	-37.9	-39.3	3.5	8403041	93	5776
2025-01-14 08:59:45.12	131.06	74.90	-37.9	-39.3	3.4	8372920	93	5768
2025-01-14 08:59:45.32	131.41	74.86	-37.9	-40.8	3.6	8372920	93	6835
2025-01-14 08:59:45.53	131.78	74.82	-37.9	-39.9	3.6	8434604	93	6176
2025-01-14 08:59:45.73	132.12	74.77	-37.8	-39.0	3.5	8421134	93	5652
2025-01-14 08:59:45.93	132.46	74.73	-37.8	-38.9	3.5	8390144	93	5597
2025-01-14 08:59:46.13	132.81	74.69	-37.8	-40.3	3.6	8387454	93	6557
2025-01-14 08:59:46.33	133.15	74.65	-37.8	-39.8	3.7	8432258	93	6161
2025-01-14 08:59:46.53	133.48	74.60	-37.9	-39.2	3.5	8409427	93	5740
2025-01-14 08:59:46.73	133.82	74.56	-38.0	-39.6	3.4	8380954	93	5891
2025-01-14 08:59:46.93	134.15	74.51	-38.0	-40.9	3.6	8412254	93	6894
2025-01-14 08:59:47.14	134.50	74.47	-38.0	-40.3	3.6	8434249	93	6426
2025-01-14 08:59:47.34	134.83	74.42	-37.9	-39.4	3.5	8434249	93	5836
2025-01-14 08:59:47.54	135.16	74.38	-37.8	-39.0	3.5	8412128	93	5632
2025-01-14 08:59:47.74	135.48	74.33	-37.8	-40.4	3.6	8384284	93	6634
2025-01-14 08:59:47.94	135.81	74.28	-37.9	-40.2	3.7	8425312	93	6420
2025-01-14 08:59:48.14	136.13	74.24	-38.1	-39.9	3.4	8427818	93	6093
2025-01-14 08:59:48.34	136.45	74.19	-38.0	-39.6	3.4	8391826	93	5892
2025-01-14 08:59:48.54	136.77	74.14	-38.1	-41.2	3.6	8396907	93	7019
2025-01-14 08:59:48.74	137.08	74.09	-38.1	-41.2	3.6	8428321	93	7076
2025-01-14 08:59:48.94	137.39	74.04	-38.0	-40.0	3.4	8428321	93	6174
2025-01-14 08:59:49.15	137.72	73.99	-38.1	-39.7	3.3	8422576	93	5926
2025-01-14 08:59:49.35	138.03	73.94	-38.0	-39.6	3.3	8394447	93	5898
2025-01-14 08:59:49.55	138.34	73.89	-38.0	-40.9	3.6	8393245	93	6918
2025-01-14 08:59:49.75	138.64	73.84	-38.0	-39.9	3.5	8444869	93	6161
2025-01-14 08:59:49.95	138.95	73.79	-38.0	-39.5	3.4	8420093	93	5873
2025-01-14 08:59:50.15	139.25	73.74	-37.9	-39.2	3.4	8387523	93	5735
2025-01-14 08:59:50.35	139.55	73.68	-37.8	-40.5	3.6	8409851	93	6663
2025-01-14 08:59:50.55	139.84	73.63	-37.8	-39.9	3.6	8430782	93	6234
2025-01-14 08:59:50.75	140.14	73.58	-37.7	-38.7	3.5	8430782	93	5510
2025-01-14 08:59:50.95	140.43	73.52	-37.7	-38.6	3.5	8393703	93	5458
2025-01-14 08:59:51.16	140.74	73.47	-37.7	-39.9	3.6	8375427	93	6342
2025-01-14 08:59:51.36	141.03	73.41	-37.6	-39.5	3.8	8420516	93	6102
2025-01-14 08:59:51.56	141.32	73.36	-37.6	-38.4	3.6	8405822	93	5401
2025-01-14 08:59:51.76	141.60	73.30	-37.6	-38.1	3.6	8377166	93	5243
2025-01-14 08:59:51.96	141.88	73.25	-37.5	-38.0	3.6	8369750	93	5205
2025-01-14 08:59:52.16	142.17	73.19	-37.4	-37.6	3.7	8364830	93	5065
2025-01-14 08:59:52.36	142.45	73.14	-37.2	-37.7	3.8	8364830	92	5206
2025-01-14 08:59:52.56	142.72	73.08	-37.3	-37.9	3.7	8334548	92	5280
2025-01-14 08:59:52.76	143.00	73.03	-37.1	-37.5	3.8	8344276	92	5127
2025-01-14 08:59:52.96	143.27	72.97	-37.2	-38.9	3.7	8325668	92	6040
2025-01-14 08:59:53.17	143.56	72.91	-37.0	-38.1	4.1	8381195	92	5635
2025-01-14 08:59:53.37	143.83	72.85	-36.8	-36.9	4.0	8331138	92	4964
2025-01-14 08:59:53.57	144.10	72.79	-36.8	-37.0	4.1	8276584	91	5060
2025-01-14 08:59:53.77	144.36	72.73	-36.7	-36.8	4.1	8201374	91	4983
2025-01-14 08:59:53.97	144.63	72.68	-36.6	-36.7	4.2	8177478	91	4953
2025-01-14 08:59:54.17	144.89	72.62	-36.8	-37.1	4.1	8177478	91	5102
2025-01-14 08:59:54.37	145.15	72.56	-36.8	-37.1	4.1	8190467	91	5086
2025-01-14 08:59:54.57	145.41	72.50	-36.7	-37.0	4.1	8221378	91	5071
2025-01-14 08:59:54.78	145.68	72.44	-36.7	-36.8	4.1	8218803	91	5006
2025-01-14 08:59:54.98	145.93	72.38	-36.7	-36.8	4.1	8203880	91	4992
2025-01-14 08:59:55.18	146.18	72.31	-36.5	-36.3	4.3	8176815	91	4806
2025-01-14 08:59:55.38	146.44	72.25	-36.3	-35.7	4.5	8026988	91	4620
2025-01-14 08:59:55.58	146.68	72.19	-36.4	-36.1	4.3	7959194	91	4737
2025-01-14 08:59:55.78	146.93	72.13	-36.0	-35.7	4.5	7959194	90	4734
2025-01-14 08:59:55.98	147.18	72.07	-36.2	-36.2	4.3	7962730	90	4913
2025-01-14 08:59:56.18	147.42	72.01	-36.2	-36.3	4.3	7997440	90	4967
2025-01-14 08:59:56.38	147.66	71.95	-36.4	-36.8	4.1	8001411	90	5145
2025-01-14 08:59:56.58	147.90	71.88	-36.4	-36.9	4.1	8181369	90	5171
2025-01-14 08:59:56.79	148.16	71.82	-36.4	-36.9	4.1	8195182	90	5181
2025-01-14 08:59:56.99	148.39	71.76	-36.5	-36.9	4.1	8202301	90	5208
2025-01-14 08:59:57.19	148.63	71.69	-36.5	-37.0	4.0	8224754	90	5231
2025-01-14 08:59:57.39	148.86	71.63	-36.5	-37.1	4.0	8235466	90	5265
2025-01-14 08:59:57.59	149.09	71.57	-36.5	-37.1	4.0	8241474	90	5288
2025-01-14 08:59:57.79	149.32	71.50	-36.5	-37.0	4.0	8241474	90	5237
2025-01-14 08:59:57.99	149.55	71.44	-36.4	-36.7	4.1	8259166	90	5143
2025-01-14 08:59:58.19	149.78	71.37	-36.3	-36.5	4.2	8225326	90	5027
2025-01-14 08:59:58.39	150.00	71.31	-36.2	-36.3	4.2	8181953	90	4965
2025-01-14 08:59:58.59	150.23	71.24	-36.2	-36.2	4.3	8122364	90	4926
2025-01-14 08:59:58.79	150.45	71.18	-36.1	-35.9	4.4	8094841	90	4847
2025-01-14 08:59:59.00	150.68	71.11	-35.9	-35.6	4.5	7977779	90	4712
2025-01-14 08:59:59.20	150.90	71.04	-36.1	-35.9	4.4	7904170	90	4820
2025-01-14 08:59:59.40	151.12	70.98	-36.1	-36.1	4.4	8006355	90	4922
2025-01-14 08:59:59.60	151.33	70.91	-36.1	-36.1	4.3	8006355	90	4920
2025-01-14 08:59:59.80	151.54	70.85	-36.2	-36.5	4.2	8068828	90	5075
2025-01-14 09:00:00.00	151.76	70.78	-36.4	-36.7	4.1	8132022	90	5138
2025-01-14 09:00:00.20	151.97	70.71	-36.5	-37.2	4.0	8185340	90	5322
2025-01-14 09:00:00.40	152.18	70.65	-36.3	-36.7	4.1	8247997	90	5123
2025-01-14 09:00:00.60	152.38	70.58	-36.4	-36.8	4.2	8218780	90	5147
2025-01-14 09:00:00.80	152.59	70.51	-36.4	-36.7	4.1	8212955	90	5129
2025-01-14 09:00:01.01	152.81	70.44	-36.3	-36.7	4.1	8179996	90	5116
2025-01-14 09:00:01.21	153.01	70.38	-38.4	-42.7	3.6	8179996	93	8058
2025-01-14 09:00:01.41	153.21	70.31	-38.6	-42.8	3.6	8302104	94	7986
2025-01-14 09:00:01.61	153.41	70.24	-38.6	-41.8	3.4	8451049	94	7110

#Closed at: 2025-01-14 09:00:01