passes_logs/2025/01/14/PPK-1/PPK-1__20250114_004424_TY-39_rec.log

#Pass ID: 20250114_004424_TY-39
#Satellite: TY-39
#Configuration: TY-39
#almurnet v.1.7.20230919.trace
#Start time: 2025-01-14 00:44:24

#Version: 2.2.20231116
#Station: PPK-1
#Location: 158.6 lon 53.06666 lat
#TLE: 1 51832U 22019J   25013.21915024  .00003237  00000+0  16732-3 0  9994
#TLE: 2 51832  97.4103  83.4638 0007883 240.3067 119.7382 15.16952924158879

#Time	Az	El	Level	Level2	SNR	BER	BlckErr	Temp	State
2025-01-14 00:44:24.54	0.63	7.97	-66.8	-72.8	3.6	0.00e+00	0	45	0
2025-01-14 00:44:26.43	0.47	8.13	-67.0	-73.0	3.6	0.00e+00	0	46	104
2025-01-14 00:44:28.33	0.31	8.30	-67.1	-73.3	3.6	0.00e+00	0	46	104
2025-01-14 00:44:30.23	0.14	8.46	-67.0	-73.1	3.7	0.00e+00	0	47	104
2025-01-14 00:44:32.12	359.97	8.63	-66.9	-72.9	3.7	0.00e+00	0	47	104
2025-01-14 00:44:34.02	359.80	8.80	-67.0	-72.8	3.7	0.00e+00	0	47	104
2025-01-14 00:44:35.92	359.63	8.97	-67.0	-72.8	3.6	0.00e+00	0	47	104
2025-01-14 00:44:37.82	359.46	9.14	-67.1	-73.0	3.6	0.00e+00	0	48	104
2025-01-14 00:44:39.72	359.28	9.32	-67.2	-73.2	3.6	0.00e+00	0	48	104
2025-01-14 00:44:41.62	359.10	9.49	-67.2	-73.3	3.7	0.00e+00	0	48	104
2025-01-14 00:44:43.52	358.92	9.67	-67.2	-73.5	3.7	0.00e+00	0	49	104
2025-01-14 00:44:45.42	358.73	9.84	-67.2	-73.6	3.7	0.00e+00	0	49	104
2025-01-14 00:44:47.32	358.54	10.02	-67.2	-73.8	3.6	0.00e+00	0	49	104
2025-01-14 00:44:49.22	358.35	10.20	-67.3	-73.6	3.6	0.00e+00	0	50	104
2025-01-14 00:44:51.12	358.15	10.39	-67.2	-73.4	3.6	0.00e+00	0	50	104
2025-01-14 00:44:53.01	357.96	10.57	-67.5	-73.2	3.7	0.00e+00	0	50	104
2025-01-14 00:44:54.91	357.76	10.75	-67.6	-73.5	3.7	0.00e+00	0	50	104
2025-01-14 00:44:56.81	357.55	10.94	-67.7	-73.6	3.6	0.00e+00	0	51	104
2025-01-14 00:44:58.71	357.34	11.13	-67.7	-73.6	3.6	0.00e+00	0	51	104
2025-01-14 00:45:00.61	357.13	11.32	-67.6	-73.4	3.6	0.00e+00	0	51	104
2025-01-14 00:45:02.51	356.92	11.51	-67.5	-73.1	3.6	0.00e+00	0	52	104
2025-01-14 00:45:04.41	356.70	11.70	-67.4	-73.1	3.7	0.00e+00	0	52	104
2025-01-14 00:45:06.31	356.48	11.89	-67.4	-73.1	3.7	0.00e+00	0	52	104
2025-01-14 00:45:08.21	356.25	12.09	-67.2	-72.8	3.7	0.00e+00	0	52	104
2025-01-14 00:45:10.11	356.03	12.29	-67.1	-72.4	3.6	0.00e+00	0	52	104
2025-01-14 00:45:12.01	355.79	12.49	-67.1	-72.3	3.5	0.00e+00	0	53	104
2025-01-14 00:45:13.90	355.56	12.69	-67.2	-72.7	3.5	0.00e+00	0	53	104
2025-01-14 00:45:15.80	355.32	12.89	-67.5	-73.3	3.7	0.00e+00	0	53	104
2025-01-14 00:45:17.70	355.07	13.10	-67.6	-73.7	3.7	0.00e+00	0	54	104
2025-01-14 00:45:19.59	354.82	13.30	-67.7	-73.8	3.7	0.00e+00	0	54	104
2025-01-14 00:45:21.49	354.57	13.51	-67.8	-74.0	3.6	0.00e+00	0	54	104
2025-01-14 00:45:23.39	354.31	13.72	-67.8	-73.5	3.6	0.00e+00	0	54	104
2025-01-14 00:45:25.29	354.05	13.93	-67.7	-73.0	3.6	0.00e+00	0	55	104
2025-01-14 00:45:27.19	353.79	14.14	-67.4	-72.4	3.7	0.00e+00	0	55	104
2025-01-14 00:45:29.09	353.51	14.36	-53.3	-55.8	13.0	2.08e-04	0	55	0
2025-01-14 00:45:30.99	353.24	14.58	-54.7	-58.2	11.4	2.15e-04	0	56	0
2025-01-14 00:45:32.89	352.96	14.80	-52.7	-55.2	13.4	3.46e-05	0	56	0
2025-01-14 00:45:34.79	352.67	15.02	-53.9	-57.1	12.9	0.00e+00	0	56	0
2025-01-14 00:45:36.68	352.38	15.24	-51.8	-54.3	14.2	0.00e+00	0	56	0
2025-01-14 00:45:38.58	352.08	15.47	-51.6	-54.3	14.3	0.00e+00	0	57	0
2025-01-14 00:45:40.47	351.78	15.69	-51.6	-54.3	14.4	0.00e+00	0	57	0
2025-01-14 00:45:42.37	351.48	15.92	-51.5	-54.2	14.4	0.00e+00	0	57	0
2025-01-14 00:45:44.27	351.16	16.15	-51.4	-54.0	14.5	0.00e+00	0	57	0
2025-01-14 00:45:46.17	350.84	16.39	-51.4	-53.9	14.5	0.00e+00	0	58	0
2025-01-14 00:45:48.07	350.52	16.62	-51.3	-53.8	14.6	6.90e-06	0	58	0
2025-01-14 00:45:49.97	350.19	16.86	-51.2	-53.6	14.7	0.00e+00	0	58	0
2025-01-14 00:45:51.87	349.85	17.10	-51.1	-53.4	14.7	0.00e+00	0	58	0
2025-01-14 00:45:53.77	349.51	17.34	-51.1	-53.9	14.6	0.00e+00	0	58	0
2025-01-14 00:45:55.67	349.16	17.58	-51.1	-53.8	14.7	0.00e+00	0	59	0
2025-01-14 00:45:57.57	348.80	17.83	-51.0	-53.7	14.8	0.00e+00	0	59	0
2025-01-14 00:45:59.47	348.43	18.08	-50.9	-53.6	14.8	0.00e+00	0	59	0
2025-01-14 00:46:01.36	348.06	18.33	-50.8	-53.3	14.9	0.00e+00	0	59	0
2025-01-14 00:46:03.26	347.69	18.58	-50.8	-53.3	14.8	0.00e+00	0	59	0
2025-01-14 00:46:05.16	347.30	18.83	-50.7	-53.1	14.9	0.00e+00	0	59	0
2025-01-14 00:46:07.06	346.91	19.09	-50.7	-53.1	14.9	0.00e+00	0	59	0
2025-01-14 00:46:08.96	346.51	19.35	-50.6	-53.3	14.8	0.00e+00	0	60	0
2025-01-14 00:46:10.86	346.10	19.61	-50.5	-53.1	14.8	0.00e+00	0	60	0
2025-01-14 00:46:12.76	345.68	19.87	-50.4	-53.1	14.7	0.00e+00	0	60	0
2025-01-14 00:46:14.66	345.25	20.13	-50.4	-53.0	14.8	0.00e+00	0	60	0
2025-01-14 00:46:16.56	344.82	20.40	-50.4	-52.9	15.0	0.00e+00	0	61	0
2025-01-14 00:46:18.46	344.38	20.67	-50.3	-52.8	15.1	0.00e+00	0	61	0
2025-01-14 00:46:20.36	343.92	20.94	-50.2	-52.6	15.0	0.00e+00	0	61	0
2025-01-14 00:46:22.25	343.47	21.21	-50.1	-52.4	14.7	0.00e+00	0	61	0
2025-01-14 00:46:24.15	343.00	21.48	-50.0	-52.7	14.8	0.00e+00	0	61	0
2025-01-14 00:46:26.05	342.51	21.76	-49.9	-52.5	15.0	0.00e+00	0	61	0
2025-01-14 00:46:27.95	342.02	22.04	-49.9	-52.5	15.1	0.00e+00	0	62	0
2025-01-14 00:46:29.85	341.52	22.31	-49.9	-52.6	14.9	0.00e+00	0	62	0
2025-01-14 00:46:31.75	341.01	22.59	-49.9	-52.4	15.1	0.00e+00	0	62	0
2025-01-14 00:46:33.65	340.49	22.88	-49.9	-52.4	15.1	0.00e+00	0	62	0
2025-01-14 00:46:35.55	339.96	23.16	-49.7	-52.2	15.2	0.00e+00	0	62	0
2025-01-14 00:46:37.45	339.42	23.45	-49.6	-51.9	15.4	0.00e+00	0	62	0
2025-01-14 00:46:39.35	338.86	23.73	-49.5	-52.1	15.3	0.00e+00	0	62	0
2025-01-14 00:46:41.25	338.30	24.02	-49.4	-52.0	15.4	0.00e+00	0	62	0
2025-01-14 00:46:43.14	337.72	24.31	-49.4	-52.0	15.4	0.00e+00	0	62	0
2025-01-14 00:46:45.04	337.13	24.60	-49.5	-52.2	15.3	0.00e+00	0	62	0
2025-01-14 00:46:46.93	336.53	24.88	-49.5	-52.2	15.3	0.00e+00	0	62	0
2025-01-14 00:46:48.83	335.92	25.18	-49.4	-52.1	15.2	0.00e+00	0	63	0
2025-01-14 00:46:50.73	335.29	25.47	-49.3	-51.9	15.3	0.00e+00	0	63	0
2025-01-14 00:46:52.63	334.65	25.76	-49.1	-51.5	15.5	0.00e+00	0	63	0
2025-01-14 00:46:54.53	334.00	26.05	-47.9	-50.5	15.3	0.00e+00	0	63	0
2025-01-14 00:46:56.43	333.33	26.34	-47.8	-50.3	15.4	0.00e+00	0	63	0
2025-01-14 00:46:58.33	332.65	26.63	-47.7	-50.2	15.2	0.00e+00	0	64	0
2025-01-14 00:47:00.23	331.95	26.93	-47.8	-50.3	15.2	0.00e+00	0	64	0
2025-01-14 00:47:02.13	331.25	27.22	-47.8	-50.2	15.3	0.00e+00	0	64	0
2025-01-14 00:47:04.02	330.53	27.50	-47.8	-50.3	15.2	0.00e+00	0	64	0
2025-01-14 00:47:05.92	329.79	27.79	-47.8	-50.2	15.3	0.00e+00	0	64	0
2025-01-14 00:47:07.82	329.04	28.08	-47.7	-50.1	15.3	0.00e+00	0	64	0
2025-01-14 00:47:09.71	328.27	28.36	-47.5	-50.1	15.4	0.00e+00	0	64	0
2025-01-14 00:47:11.61	327.49	28.65	-47.4	-50.0	15.4	0.00e+00	0	64	0
2025-01-14 00:47:13.51	326.69	28.93	-47.3	-49.8	15.4	0.00e+00	0	64	0
2025-01-14 00:47:15.41	325.88	29.21	-47.3	-49.7	15.4	0.00e+00	0	65	0
2025-01-14 00:47:17.31	325.05	29.48	-47.3	-49.8	15.4	0.00e+00	0	65	0
2025-01-14 00:47:19.21	324.20	29.76	-47.4	-49.9	15.4	0.00e+00	0	65	0
2025-01-14 00:47:21.11	323.34	30.03	-47.4	-50.0	15.5	0.00e+00	0	65	0
2025-01-14 00:47:23.01	322.47	30.29	-47.4	-49.9	15.4	0.00e+00	0	65	0
2025-01-14 00:47:24.91	321.58	30.55	-47.3	-49.7	15.4	0.00e+00	0	65	0
2025-01-14 00:47:26.81	320.67	30.81	-47.1	-49.8	15.6	0.00e+00	0	65	0
2025-01-14 00:47:28.71	319.75	31.06	-46.9	-49.6	15.7	0.00e+00	0	65	0
2025-01-14 00:47:30.60	318.81	31.30	-46.8	-49.3	15.6	0.00e+00	0	66	0
2025-01-14 00:47:32.50	317.86	31.54	-46.7	-49.2	15.5	0.00e+00	0	66	0
2025-01-14 00:47:34.40	316.89	31.78	-46.8	-49.2	15.6	0.00e+00	0	66	0
2025-01-14 00:47:36.30	315.91	32.00	-46.7	-49.2	15.7	0.00e+00	0	66	0
2025-01-14 00:47:38.20	314.91	32.22	-47.0	-49.8	15.5	0.00e+00	0	66	0
2025-01-14 00:47:40.10	313.89	32.44	-47.0	-49.7	15.4	0.00e+00	0	66	0
2025-01-14 00:47:42.00	312.87	32.64	-46.9	-49.5	15.4	0.00e+00	0	66	0
2025-01-14 00:47:43.90	311.83	32.84	-47.0	-49.7	15.4	0.00e+00	0	66	0
2025-01-14 00:47:45.80	310.77	33.02	-46.9	-49.5	15.5	0.00e+00	0	66	0
2025-01-14 00:47:47.70	309.70	33.20	-46.9	-49.6	15.5	0.00e+00	0	66	0
2025-01-14 00:47:49.60	308.62	33.37	-46.7	-49.2	15.6	0.00e+00	0	67	0
2025-01-14 00:47:51.49	307.54	33.53	-47.0	-49.6	15.5	0.00e+00	0	67	0
2025-01-14 00:47:53.39	306.44	33.68	-46.9	-49.6	15.5	0.00e+00	0	67	0
2025-01-14 00:47:55.29	305.32	33.81	-47.1	-49.9	15.4	0.00e+00	0	67	0
2025-01-14 00:47:57.18	304.21	33.94	-47.3	-50.3	15.6	0.00e+00	0	67	0
2025-01-14 00:47:59.08	303.07	34.05	-47.4	-50.4	15.5	0.00e+00	0	67	0
2025-01-14 00:48:00.98	301.93	34.16	-47.6	-50.8	15.4	0.00e+00	0	67	0
2025-01-14 00:48:02.88	300.78	34.25	-47.2	-50.2	15.5	0.00e+00	0	67	0
2025-01-14 00:48:04.78	299.63	34.33	-47.5	-50.7	15.4	0.00e+00	0	67	0
2025-01-14 00:48:06.68	298.47	34.39	-47.2	-50.1	15.7	0.00e+00	0	67	0
2025-01-14 00:48:08.58	297.31	34.45	-47.3	-50.3	15.5	0.00e+00	0	67	0
2025-01-14 00:48:10.48	296.14	34.49	-47.2	-50.1	15.4	0.00e+00	0	68	0
2025-01-14 00:48:12.38	294.97	34.52	-47.1	-49.9	15.3	0.00e+00	0	67	0
2025-01-14 00:48:14.27	293.80	34.54	-47.1	-49.9	15.4	0.00e+00	0	68	0
2025-01-14 00:48:16.17	292.62	34.54	-47.3	-50.2	15.4	0.00e+00	0	68	0
2025-01-14 00:48:18.06	291.46	34.53	-47.2	-50.1	15.4	0.00e+00	0	68	0
2025-01-14 00:48:19.96	290.28	34.51	-47.1	-50.0	15.4	0.00e+00	0	68	0
2025-01-14 00:48:21.86	289.11	34.47	-47.4	-50.5	15.3	0.00e+00	0	68	0
2025-01-14 00:48:23.76	287.94	34.42	-47.5	-50.7	15.2	0.00e+00	0	68	0
2025-01-14 00:48:25.66	286.78	34.36	-47.5	-50.7	15.4	0.00e+00	0	68	0
2025-01-14 00:48:27.56	285.62	34.29	-47.5	-50.7	15.5	0.00e+00	0	68	0
2025-01-14 00:48:29.46	284.47	34.20	-47.6	-50.8	15.3	0.00e+00	0	68	0
2025-01-14 00:48:31.35	283.33	34.11	-47.5	-50.6	15.5	0.00e+00	0	68	0
2025-01-14 00:48:33.25	282.19	34.00	-47.7	-51.1	15.3	0.00e+00	0	68	0
2025-01-14 00:48:35.15	281.06	33.88	-47.5	-50.7	15.5	0.00e+00	0	68	0
2025-01-14 00:48:37.05	279.94	33.74	-47.6	-50.8	15.3	0.00e+00	0	68	0
2025-01-14 00:48:38.95	278.83	33.60	-47.2	-50.1	15.4	0.00e+00	0	69	0
2025-01-14 00:48:40.84	277.73	33.45	-47.3	-50.3	15.4	0.00e+00	0	68	0
2025-01-14 00:48:42.74	276.64	33.28	-47.3	-50.4	15.3	0.00e+00	0	69	0
2025-01-14 00:48:44.64	275.56	33.11	-47.2	-50.1	15.3	0.00e+00	0	69	0
2025-01-14 00:48:46.54	274.50	32.93	-47.3	-50.2	15.4	0.00e+00	0	69	0
2025-01-14 00:48:48.44	273.45	32.73	-47.4	-50.5	15.4	0.00e+00	0	69	0
2025-01-14 00:48:50.34	272.41	32.53	-47.5	-50.6	15.3	0.00e+00	0	69	0
2025-01-14 00:48:52.24	271.38	32.32	-47.4	-50.5	15.4	0.00e+00	0	69	0
2025-01-14 00:48:54.14	270.37	32.11	-47.9	-51.0	15.3	0.00e+00	0	69	0
2025-01-14 00:48:56.04	269.38	31.88	-48.0	-51.2	15.4	0.00e+00	0	69	0
2025-01-14 00:48:57.94	268.39	31.65	-48.1	-51.4	15.3	0.00e+00	0	69	0
2025-01-14 00:48:59.84	267.43	31.41	-48.0	-51.2	15.3	0.00e+00	0	69	0
2025-01-14 00:49:01.73	266.48	31.17	-47.6	-50.5	15.6	0.00e+00	0	69	0
2025-01-14 00:49:03.63	265.55	30.92	-47.5	-50.2	15.5	0.00e+00	0	69	0
2025-01-14 00:49:05.53	264.63	30.66	-47.6	-50.4	15.5	0.00e+00	0	69	0
2025-01-14 00:49:07.43	263.72	30.40	-47.6	-50.4	15.5	0.00e+00	0	69	0
2025-01-14 00:49:09.33	262.83	30.14	-47.7	-50.6	15.4	0.00e+00	0	69	0
2025-01-14 00:49:11.23	261.96	29.87	-48.0	-51.2	15.3	0.00e+00	0	70	0
2025-01-14 00:49:13.13	261.10	29.59	-48.3	-51.7	15.2	0.00e+00	0	70	0
2025-01-14 00:49:15.03	260.26	29.32	-48.3	-51.3	15.3	0.00e+00	0	70	0
2025-01-14 00:49:16.93	259.44	29.04	-48.7	-52.1	15.2	0.00e+00	0	70	0
2025-01-14 00:49:18.83	258.62	28.76	-48.5	-51.7	15.2	0.00e+00	0	70	0
2025-01-14 00:49:20.73	257.83	28.47	-48.3	-51.2	15.2	0.00e+00	0	70	0
2025-01-14 00:49:22.62	257.05	28.18	-48.3	-51.3	15.3	0.00e+00	0	70	0
2025-01-14 00:49:24.52	256.29	27.90	-48.3	-51.4	15.3	0.00e+00	0	70	0
2025-01-14 00:49:26.41	255.54	27.61	-48.5	-51.6	15.1	0.00e+00	0	70	0
2025-01-14 00:49:28.31	254.81	27.32	-48.6	-51.9	15.1	0.00e+00	0	70	0
2025-01-14 00:49:30.21	254.09	27.02	-48.8	-51.8	15.0	0.00e+00	0	70	0
2025-01-14 00:49:32.11	253.38	26.73	-48.9	-52.0	14.9	0.00e+00	0	70	0
2025-01-14 00:49:34.01	252.69	26.43	-48.9	-52.1	14.9	0.00e+00	0	70	0
2025-01-14 00:49:35.91	252.01	26.14	-48.9	-51.9	14.9	0.00e+00	0	70	0
2025-01-14 00:49:37.81	251.34	25.85	-48.6	-51.3	14.9	0.00e+00	0	70	0
2025-01-14 00:49:39.71	250.69	25.55	-48.8	-51.8	14.9	0.00e+00	0	70	0
2025-01-14 00:49:41.60	250.06	25.26	-48.8	-51.8	14.9	0.00e+00	0	70	0
2025-01-14 00:49:43.50	249.43	24.96	-49.0	-52.2	14.9	0.00e+00	0	70	0
2025-01-14 00:49:45.40	248.82	24.67	-49.1	-52.3	14.8	0.00e+00	0	70	0
2025-01-14 00:49:47.30	248.22	24.38	-49.4	-52.4	14.8	0.00e+00	0	70	0
2025-01-14 00:49:49.19	247.63	24.09	-49.4	-52.5	14.9	0.00e+00	0	70	0
2025-01-14 00:49:51.09	247.06	23.80	-49.5	-52.7	14.8	0.00e+00	0	71	0
2025-01-14 00:49:52.99	246.49	23.51	-49.2	-52.1	15.0	0.00e+00	0	71	0
2025-01-14 00:49:54.89	245.94	23.22	-49.3	-52.2	14.9	0.00e+00	0	70	0
2025-01-14 00:49:56.79	245.40	22.93	-49.3	-52.2	14.9	0.00e+00	0	71	0
2025-01-14 00:49:58.69	244.87	22.65	-49.5	-52.7	14.8	0.00e+00	0	71	0
2025-01-14 00:50:00.59	244.35	22.36	-49.6	-52.9	14.5	0.00e+00	0	71	0
2025-01-14 00:50:02.49	243.84	22.08	-51.0	-54.2	14.5	0.00e+00	0	71	0
2025-01-14 00:50:04.39	243.34	21.80	-51.2	-54.6	14.5	0.00e+00	0	71	0
2025-01-14 00:50:06.29	242.85	21.52	-51.2	-54.6	14.6	0.00e+00	0	71	0
2025-01-14 00:50:08.19	242.37	21.24	-51.1	-54.5	14.7	0.00e+00	0	71	0
2025-01-14 00:50:10.08	241.91	20.97	-51.0	-54.2	14.6	0.00e+00	0	71	0
2025-01-14 00:50:11.98	241.45	20.70	-51.1	-54.3	14.6	0.00e+00	0	71	0
2025-01-14 00:50:13.88	241.00	20.42	-51.0	-54.2	14.6	0.00e+00	0	71	0
2025-01-14 00:50:15.78	240.55	20.15	-51.1	-54.4	14.7	0.00e+00	0	71	0
2025-01-14 00:50:17.68	240.12	19.89	-51.2	-54.7	14.7	0.00e+00	0	71	0
2025-01-14 00:50:19.58	239.69	19.62	-51.6	-54.8	14.5	0.00e+00	0	71	0
2025-01-14 00:50:21.48	239.28	19.36	-51.7	-55.0	14.4	0.00e+00	0	71	0
2025-01-14 00:50:23.38	238.87	19.10	-51.7	-54.7	14.4	0.00e+00	0	71	0
2025-01-14 00:50:25.28	238.47	18.84	-51.7	-54.6	14.4	0.00e+00	0	71	0
2025-01-14 00:50:27.18	238.08	18.58	-51.4	-54.0	14.5	0.00e+00	0	71	0
2025-01-14 00:50:29.08	237.69	18.32	-51.4	-54.1	14.4	0.00e+00	0	71	0
2025-01-14 00:50:30.97	237.32	18.07	-51.4	-54.1	14.4	0.00e+00	0	71	0
2025-01-14 00:50:32.87	236.95	17.82	-51.6	-54.4	14.2	0.00e+00	0	71	0
2025-01-14 00:50:34.77	236.58	17.57	-51.8	-54.8	14.1	0.00e+00	0	71	0
2025-01-14 00:50:36.67	236.22	17.33	-52.0	-55.2	14.0	0.00e+00	0	71	0
2025-01-14 00:50:38.57	235.87	17.08	-52.1	-55.3	13.9	0.00e+00	0	71	0
2025-01-14 00:50:40.47	235.53	16.84	-52.4	-55.5	13.7	0.00e+00	0	72	0
2025-01-14 00:50:42.37	235.19	16.60	-52.3	-55.4	13.9	0.00e+00	0	72	0
2025-01-14 00:50:44.27	234.86	16.36	-52.3	-55.2	13.9	0.00e+00	0	72	0
2025-01-14 00:50:46.17	234.54	16.12	-52.1	-54.8	14.0	6.90e-06	0	72	0
2025-01-14 00:50:48.07	234.22	15.89	-52.0	-54.8	14.0	0.00e+00	0	72	0
2025-01-14 00:50:49.97	233.91	15.66	-52.1	-55.0	13.9	0.00e+00	0	72	0
2025-01-14 00:50:51.86	233.60	15.43	-52.2	-55.1	13.8	0.00e+00	0	72	0
2025-01-14 00:50:53.76	233.30	15.20	-52.4	-55.6	13.7	1.38e-05	0	72	0
2025-01-14 00:50:55.65	233.00	14.97	-52.6	-55.9	13.7	0.00e+00	0	72	0
2025-01-14 00:50:57.55	232.71	14.75	-52.8	-55.9	13.8	0.00e+00	0	72	0
2025-01-14 00:50:59.45	232.43	14.53	-52.9	-56.0	13.7	0.00e+00	0	72	0
2025-01-14 00:51:01.35	232.14	14.31	-53.0	-56.2	13.6	0.00e+00	0	72	0
2025-01-14 00:51:03.25	231.87	14.09	-53.1	-56.6	13.4	0.00e+00	0	72	0
2025-01-14 00:51:05.15	231.60	13.87	-53.1	-56.4	13.5	1.38e-05	0	72	0
2025-01-14 00:51:07.05	231.33	13.66	-52.8	-55.8	13.6	0.00e+00	0	72	0
2025-01-14 00:51:08.94	231.07	13.45	-52.8	-55.9	13.7	6.90e-06	0	72	0
2025-01-14 00:51:10.84	230.81	13.24	-52.9	-56.0	13.6	0.00e+00	0	72	0
2025-01-14 00:51:12.74	230.56	13.03	-53.0	-56.2	13.6	1.38e-05	0	72	0
2025-01-14 00:51:14.64	230.31	12.82	-53.1	-56.5	13.5	0.00e+00	0	72	0
2025-01-14 00:51:16.54	230.06	12.62	-53.3	-56.4	13.3	6.90e-06	0	72	0
2025-01-14 00:51:18.43	229.82	12.41	-53.6	-57.0	13.1	2.08e-05	0	72	0
2025-01-14 00:51:20.33	229.59	12.21	-53.9	-57.0	12.9	1.38e-05	0	72	0
2025-01-14 00:51:22.23	229.35	12.01	-53.9	-57.2	12.8	1.38e-05	0	72	0
2025-01-14 00:51:24.13	229.12	11.81	-54.1	-57.4	12.6	2.08e-05	0	72	0
2025-01-14 00:51:26.03	228.90	11.62	-54.2	-57.6	12.5	3.46e-05	0	72	0
2025-01-14 00:51:27.93	228.68	11.42	-54.0	-57.2	12.7	3.46e-05	0	72	0
2025-01-14 00:51:29.83	228.46	11.23	-67.5	-73.4	3.6	6.90e-06	0	72	104
2025-01-14 00:51:31.73	228.24	11.04	-67.6	-73.6	3.7	6.90e-06	0	72	104
2025-01-14 00:51:33.63	228.03	10.85	-67.6	-73.7	3.6	6.90e-06	0	72	104
2025-01-14 00:51:35.53	227.82	10.66	-67.4	-73.1	3.6	6.90e-06	0	72	104
2025-01-14 00:51:37.43	227.62	10.47	-67.5	-73.2	3.6	6.90e-06	0	72	104
2025-01-14 00:51:39.32	227.42	10.29	-67.5	-73.3	3.6	6.90e-06	0	72	104
2025-01-14 00:51:41.22	227.22	10.10	-67.5	-73.4	3.6	6.90e-06	0	72	104
2025-01-14 00:51:43.12	227.02	9.92	-67.5	-73.4	3.7	6.90e-06	0	72	104
2025-01-14 00:51:45.02	226.83	9.74	-67.6	-73.4	3.7	6.90e-06	0	72	104
2025-01-14 00:51:46.92	226.64	9.56	-67.6	-73.4	3.7	6.90e-06	0	72	104
2025-01-14 00:51:48.82	226.46	9.38	-67.6	-73.6	3.6	6.90e-06	0	72	104
2025-01-14 00:51:50.72	226.27	9.21	-67.7	-73.7	3.6	6.90e-06	0	71	104
2025-01-14 00:51:52.62	226.09	9.03	-67.7	-73.7	3.6	6.90e-06	0	72	104
2025-01-14 00:51:54.52	225.91	8.86	-67.7	-73.6	3.7	6.90e-06	0	72	104
2025-01-14 00:51:56.42	225.74	8.69	-67.6	-73.5	3.7	6.90e-06	0	72	104
2025-01-14 00:51:58.32	225.56	8.51	-67.5	-73.2	3.6	6.90e-06	0	72	104
2025-01-14 00:52:00.22	225.39	8.34	-67.4	-73.0	3.6	6.90e-06	0	72	104
2025-01-14 00:52:02.11	225.22	8.18	-67.3	-72.8	3.6	6.90e-06	0	72	104
2025-01-14 00:52:04.01	225.06	8.01	-67.4	-73.5	3.6	6.90e-06	0	72	104

#Closed at: 2025-01-14 00:52:04
#Recorded file [27019 MB]: D:/data/31015_250114_125129.dat