passes_logs/2026/01/18/R3.2S-Naryan-Mar/R3.2S-Naryan-Mar__20260118_035334_NOAA_20_JPSS-1_rec.log

#Pass ID: 20260118_035334_NOAA 20 (JPSS-1)
#Satellite: NOAA 20 (JPSS-1)
#Configuration: NOAA 20
#almurnet v.1.7.20240730
#Start time: 2026-01-18 03:53:35

#Version: 2.2.20231116
#Station: R3.2S-Naryan-Mar
#Location: 53.008057 lon 67.646978 lat
#TLE: 1 43013U 17073A   26017.30359522  .00000067  00000+0  52526-4 0  9990
#TLE: 2 43013  98.7639 318.2187 0001419  36.2087 323.9184 14.19536557423067

#Time	Az	El	Level	Level2	SNR	BER	BlckErr	Temp	State	Recorded	gain1	gain2
2026-01-18 03:53:35.88	62.47	0.07	-85.2	-88.6	4.3	1.56e+00	0	45	0	0	60	1048573
2026-01-18 03:53:39.90	62.22	0.29	-85.2	-88.6	3.0	1.55e+00	0	46	104	0	60	1048575
2026-01-18 03:53:43.93	61.97	0.50	-85.2	-88.6	3.1	1.56e+00	0	46	104	0	60	1048575
2026-01-18 03:53:47.96	61.71	0.71	-85.2	-88.6	3.0	1.56e+00	0	46	104	0	60	1048572
2026-01-18 03:53:51.99	61.45	0.93	-85.2	-88.6	2.7	1.56e+00	0	46	104	0	60	1048573
2026-01-18 03:53:56.02	61.19	1.15	-85.2	-88.6	3.0	1.56e+00	0	46	104	0	60	1048575
2026-01-18 03:54:00.04	60.92	1.36	-85.2	-88.6	3.0	1.56e+00	0	46	104	0	60	1048574
2026-01-18 03:54:04.07	60.64	1.58	-85.2	-88.6	3.0	1.56e+00	0	46	104	0	60	1048575
2026-01-18 03:54:08.11	60.36	1.80	-85.2	-88.6	3.0	1.56e+00	0	46	104	0	60	1048574
2026-01-18 03:54:12.13	60.08	2.02	-85.2	-88.6	3.2	1.55e+00	0	46	104	0	60	1048573
2026-01-18 03:54:16.16	59.80	2.24	-85.2	-88.6	3.1	1.56e+00	0	46	104	0	60	1048575
2026-01-18 03:54:20.18	59.51	2.46	-85.2	-88.6	3.1	1.56e+00	0	46	104	0	60	1048575
2026-01-18 03:54:24.20	59.21	2.69	-85.2	-88.6	2.9	1.56e+00	0	47	104	0	60	1048573
2026-01-18 03:54:28.23	58.91	2.91	-85.2	-88.6	3.1	1.56e+00	0	47	104	0	60	1048574
2026-01-18 03:54:32.25	58.60	3.14	-84.7	-88.6	3.0	1.56e+00	0	46	104	0	60	1048575
2026-01-18 03:54:36.27	58.30	3.36	-85.2	-88.6	3.0	1.56e+00	0	46	104	0	60	1048573
2026-01-18 03:54:40.30	57.98	3.59	-85.2	-88.6	2.9	1.56e+00	0	46	104	0	60	1048574
2026-01-18 03:54:44.32	57.66	3.82	-84.3	-88.6	3.1	1.56e+00	0	47	104	0	60	1048575
2026-01-18 03:54:48.34	57.33	4.05	-85.2	-88.6	2.9	1.56e+00	0	46	104	0	60	1048573
2026-01-18 03:54:52.37	57.00	4.28	-85.2	-88.6	3.1	1.56e+00	0	46	104	0	60	1048575
2026-01-18 03:54:56.40	56.67	4.51	-85.2	-88.6	3.1	1.56e+00	0	47	104	0	60	1048572
2026-01-18 03:55:00.43	56.32	4.74	-85.2	-88.6	3.0	1.56e+00	0	47	104	0	60	1048573
2026-01-18 03:55:04.45	55.98	4.98	-85.2	-88.6	3.0	1.56e+00	0	47	104	0	60	1048575
2026-01-18 03:55:08.48	55.62	5.21	-85.2	-88.6	3.1	1.56e+00	0	47	104	0	60	1048574
2026-01-18 03:55:12.50	55.26	5.45	-85.2	-88.6	2.9	1.56e+00	0	47	104	0	60	1048573
2026-01-18 03:55:16.53	54.90	5.68	-85.2	-88.6	3.0	1.56e+00	0	47	104	0	60	1048574
2026-01-18 03:55:20.56	54.53	5.92	-84.3	-88.6	2.9	1.56e+00	0	47	104	0	60	1048574
2026-01-18 03:55:24.58	54.15	6.16	-85.2	-88.6	2.8	1.56e+00	0	47	104	0	60	1048574
2026-01-18 03:55:28.61	53.76	6.40	-85.2	-88.6	2.9	1.56e+00	0	47	104	0	60	1048574
2026-01-18 03:55:32.63	53.37	6.64	-85.2	-88.6	2.9	1.55e+00	0	47	104	0	60	1048571
2026-01-18 03:55:36.66	52.97	6.88	-85.2	-88.6	2.9	1.55e+00	0	47	104	0	60	1048575
2026-01-18 03:55:40.68	52.57	7.12	-85.2	-88.6	3.2	1.56e+00	0	47	104	0	60	1048573
2026-01-18 03:55:44.71	52.16	7.37	-85.2	-88.6	3.1	1.56e+00	0	47	104	0	60	1048570
2026-01-18 03:55:48.74	51.74	7.61	-85.2	-88.6	3.3	1.56e+00	0	47	104	0	60	1048572
2026-01-18 03:55:52.77	51.31	7.86	-85.2	-88.6	3.0	1.56e+00	0	47	104	0	60	1048575
2026-01-18 03:55:56.80	50.88	8.11	-85.2	-88.6	2.9	1.56e+00	0	47	104	0	60	1048575
2026-01-18 03:56:00.82	50.44	8.35	-85.2	-88.6	2.9	1.56e+00	0	47	104	0	60	1048572
2026-01-18 03:56:04.85	49.99	8.60	-85.2	-88.6	3.1	1.56e+00	0	47	104	0	60	1048574
2026-01-18 03:56:08.88	49.53	8.85	-85.2	-88.6	3.1	1.56e+00	0	47	104	0	60	1048573
2026-01-18 03:56:12.89	49.07	9.10	-85.2	-88.6	3.0	1.56e+00	0	47	104	0	60	1048575
2026-01-18 03:56:16.93	48.59	9.35	-85.2	-88.6	3.2	1.55e+00	0	47	104	0	60	1048575
2026-01-18 03:56:20.96	48.11	9.60	-83.1	-88.6	3.2	1.56e+00	0	47	104	0	60	1048575
2026-01-18 03:56:24.99	47.62	9.85	-85.2	-88.6	3.1	1.56e+00	0	47	104	0	60	1048570
2026-01-18 03:56:29.02	47.12	10.10	-85.2	-88.6	3.2	1.56e+00	0	47	104	0	60	1048575
2026-01-18 03:56:33.05	46.61	10.35	-85.2	-88.6	2.9	1.55e+00	0	47	104	0	60	1048575
2026-01-18 03:56:37.08	46.09	10.60	-85.2	-88.6	3.1	1.55e+00	0	47	104	0	60	1048575
2026-01-18 03:56:41.11	45.56	10.86	-85.2	-88.6	3.0	1.56e+00	0	47	104	0	60	1048574
2026-01-18 03:56:45.14	45.03	11.11	-85.2	-88.6	2.9	1.56e+00	0	47	104	0	60	1048575
2026-01-18 03:56:49.16	44.48	11.36	-85.2	-88.6	3.1	1.56e+00	0	47	104	0	60	1048575
2026-01-18 03:56:53.19	43.93	11.61	-85.2	-88.6	2.9	1.56e+00	0	47	104	0	60	1048571
2026-01-18 03:56:57.23	43.36	11.87	-85.2	-88.6	3.2	1.56e+00	0	47	104	0	60	1048575
2026-01-18 03:57:01.25	42.79	12.12	-85.2	-88.6	3.3	1.56e+00	0	47	104	0	60	1048574
2026-01-18 03:57:05.27	42.20	12.37	-85.2	-88.6	3.0	1.56e+00	0	47	104	0	60	1048574
2026-01-18 03:57:09.30	41.61	12.62	-85.2	-88.6	3.0	1.55e+00	0	47	104	0	60	1048575
2026-01-18 03:57:13.34	41.00	12.87	-85.2	-88.6	2.9	1.56e+00	0	47	104	0	60	1048575
2026-01-18 03:57:17.36	40.39	13.12	-85.2	-88.6	2.9	1.56e+00	0	47	104	0	60	1048574
2026-01-18 03:57:21.37	39.76	13.37	-85.2	-88.6	3.1	1.55e+00	0	47	104	0	60	1048575
2026-01-18 03:57:25.40	39.12	13.62	-85.2	-88.6	2.9	1.56e+00	0	47	104	0	60	1048575
2026-01-18 03:57:29.44	38.47	13.87	-85.2	-88.6	3.1	1.56e+00	0	47	104	0	60	1048575
2026-01-18 03:57:33.46	37.81	14.11	-85.2	-88.6	3.2	1.56e+00	0	47	104	0	60	1048574
2026-01-18 03:57:37.49	37.14	14.36	-85.2	-88.6	3.0	1.55e+00	0	47	104	0	60	1048575
2026-01-18 03:57:41.52	36.46	14.60	-85.2	-88.6	3.0	1.56e+00	0	47	104	0	60	1048574
2026-01-18 03:57:45.55	35.77	14.84	-85.2	-88.6	3.0	1.56e+00	0	47	104	0	60	1048573
2026-01-18 03:57:49.56	35.07	15.08	-85.2	-88.6	3.0	1.55e+00	0	47	104	0	60	1048574
2026-01-18 03:57:53.59	34.35	15.32	-85.2	-88.6	3.0	1.56e+00	0	47	104	0	60	1048573
2026-01-18 03:57:57.62	33.62	15.56	-85.2	-88.6	3.1	1.55e+00	0	47	104	0	60	1048574
2026-01-18 03:58:01.65	32.88	15.79	-85.2	-88.6	2.9	1.56e+00	0	47	104	0	60	1048575
2026-01-18 03:58:05.67	32.13	16.02	-85.2	-88.6	2.8	1.56e+00	0	47	104	0	60	1048575
2026-01-18 03:58:09.71	31.36	16.24	-85.2	-88.6	2.9	1.56e+00	0	47	104	0	60	1048571
2026-01-18 03:58:13.73	30.59	16.47	-85.2	-88.6	3.0	1.56e+00	0	47	104	0	60	1048574
2026-01-18 03:58:17.77	29.80	16.69	-84.7	-88.6	2.7	1.55e+00	0	47	104	0	60	1048574
2026-01-18 03:58:21.80	29.00	16.91	-85.2	-88.6	2.8	1.55e+00	0	47	104	0	60	1048573
2026-01-18 03:58:25.83	28.19	17.12	-84.3	-88.6	3.0	1.56e+00	0	47	104	0	60	1048574
2026-01-18 03:58:29.85	27.37	17.33	-85.2	-88.6	2.9	1.55e+00	0	47	104	0	60	1048573
2026-01-18 03:58:33.89	26.54	17.53	-85.2	-88.6	3.0	1.56e+00	0	47	104	0	60	1048575
2026-01-18 03:58:37.91	25.70	17.73	-85.2	-88.6	3.0	1.56e+00	0	47	104	0	60	1048575
2026-01-18 03:58:41.94	24.84	17.92	-85.2	-88.6	3.0	1.56e+00	0	47	104	0	60	1048574
2026-01-18 03:58:45.97	23.97	18.11	-85.2	-88.6	3.1	1.55e+00	0	47	104	0	60	1048574
2026-01-18 03:58:50.01	23.09	18.30	-85.2	-88.6	2.9	1.56e+00	0	47	104	0	60	1048574
2026-01-18 03:58:54.04	22.21	18.48	-85.2	-88.6	2.8	1.56e+00	0	47	104	0	60	1048575
2026-01-18 03:58:58.06	21.31	18.65	-85.2	-88.6	2.9	1.56e+00	0	47	104	0	60	1048573
2026-01-18 03:59:02.08	20.40	18.81	-85.2	-88.6	3.0	1.56e+00	0	47	104	0	60	1048574
2026-01-18 03:59:06.10	19.49	18.97	-85.2	-88.6	3.0	1.56e+00	0	47	104	0	60	1048573
2026-01-18 03:59:10.13	18.56	19.12	-85.2	-88.6	3.1	1.56e+00	0	47	104	0	60	1048575
2026-01-18 03:59:14.16	17.62	19.27	-85.2	-88.6	3.0	1.55e+00	0	47	104	0	60	1048574
2026-01-18 03:59:18.18	16.68	19.41	-85.2	-88.6	2.9	1.56e+00	0	47	104	0	60	1048575
2026-01-18 03:59:22.21	15.72	19.54	-85.2	-88.6	3.0	1.56e+00	0	47	104	0	60	1048575
2026-01-18 03:59:26.25	14.76	19.66	-85.2	-88.6	3.1	1.55e+00	0	47	104	0	60	1048573
2026-01-18 03:59:30.27	13.79	19.78	-85.2	-88.6	3.1	1.56e+00	0	47	104	0	60	1048575
2026-01-18 03:59:34.30	12.81	19.88	-85.2	-88.6	3.2	1.56e+00	0	47	104	0	60	1048575
2026-01-18 03:59:38.33	11.83	19.98	-85.2	-88.6	3.1	1.56e+00	0	47	104	0	60	1048574
2026-01-18 03:59:42.35	10.84	20.07	-85.2	-88.6	2.9	1.56e+00	0	47	104	0	60	1048574
2026-01-18 03:59:46.37	9.85	20.15	-85.2	-88.6	3.1	1.56e+00	0	47	104	0	60	1048575
2026-01-18 03:59:50.40	8.85	20.22	-84.3	-88.6	3.0	1.56e+00	0	47	104	0	60	1048575
2026-01-18 03:59:54.43	7.84	20.29	-85.2	-88.6	2.9	1.55e+00	0	47	104	0	60	1048574
2026-01-18 03:59:58.46	6.84	20.34	-85.2	-88.6	3.1	1.56e+00	0	47	104	0	60	1048574
2026-01-18 04:00:02.49	5.82	20.38	-85.2	-88.6	2.9	1.56e+00	0	47	104	0	60	1048575
2026-01-18 04:00:06.51	4.81	20.42	-85.2	-88.6	3.2	1.55e+00	0	47	104	0	60	1048573
2026-01-18 04:00:10.54	3.80	20.44	-85.2	-88.6	3.0	1.56e+00	0	47	104	0	60	1048572
2026-01-18 04:00:14.57	2.78	20.46	-85.2	-88.6	3.1	1.56e+00	0	47	104	0	60	1048574
2026-01-18 04:00:18.60	1.76	20.47	-85.2	-88.6	2.9	1.55e+00	0	47	104	0	60	1048574
2026-01-18 04:00:22.62	0.74	20.46	-85.2	-88.6	3.1	1.56e+00	0	47	104	0	60	1048574
2026-01-18 04:00:26.65	359.72	20.45	-84.3	-88.6	3.0	1.56e+00	0	47	104	0	60	1048572
2026-01-18 04:00:30.68	358.71	20.43	-85.2	-88.6	3.1	1.56e+00	0	47	104	0	60	1048575
2026-01-18 04:00:34.70	357.69	20.40	-85.2	-88.6	3.0	1.55e+00	0	47	104	0	60	1048575
2026-01-18 04:00:38.73	356.68	20.36	-85.2	-88.6	3.0	1.56e+00	0	47	104	0	60	1048573
2026-01-18 04:00:42.76	355.67	20.31	-85.2	-88.6	3.1	1.55e+00	0	47	104	0	60	1048575
2026-01-18 04:00:46.79	354.67	20.25	-85.2	-88.6	3.1	1.56e+00	0	47	104	0	60	1048574
2026-01-18 04:00:50.82	353.66	20.18	-85.2	-88.6	3.1	1.56e+00	0	47	104	0	60	1048574
2026-01-18 04:00:54.84	352.67	20.10	-85.2	-88.6	3.0	1.56e+00	0	47	104	0	60	1048575
2026-01-18 04:00:58.86	351.68	20.02	-85.2	-88.6	3.1	1.55e+00	0	47	104	0	60	1048575
2026-01-18 04:01:02.89	350.69	19.92	-85.2	-88.6	2.8	1.56e+00	0	47	104	0	60	1048575
2026-01-18 04:01:06.91	349.72	19.82	-84.7	-88.6	3.1	1.55e+00	0	47	104	0	60	1048575
2026-01-18 04:01:10.93	348.75	19.71	-85.2	-88.6	3.3	1.56e+00	0	47	104	0	60	1048575
2026-01-18 04:01:14.96	347.78	19.59	-85.2	-88.6	3.0	1.55e+00	0	47	104	0	60	1048575
2026-01-18 04:01:18.97	346.83	19.46	-85.2	-88.6	3.0	1.56e+00	0	47	104	0	60	1048575
2026-01-18 04:01:23.00	345.88	19.32	-85.2	-88.6	3.1	1.55e+00	0	47	104	0	60	1048572
2026-01-18 04:01:27.02	344.94	19.18	-84.7	-88.6	2.9	1.56e+00	0	47	104	0	60	1048575
2026-01-18 04:01:31.05	344.01	19.03	-85.2	-88.6	3.2	1.56e+00	0	47	104	0	60	1048575
2026-01-18 04:01:35.06	343.09	18.88	-85.2	-88.6	2.9	1.56e+00	0	47	104	0	60	1048575
2026-01-18 04:01:39.09	342.18	18.71	-85.2	-88.6	3.1	1.56e+00	0	47	104	0	60	1048574
2026-01-18 04:01:43.11	341.28	18.54	-85.2	-88.6	2.6	1.55e+00	0	47	104	0	60	1048575
2026-01-18 04:01:47.13	340.39	18.37	-85.2	-88.6	3.0	1.55e+00	0	47	104	0	60	1048571
2026-01-18 04:01:51.15	339.51	18.19	-85.2	-88.6	3.0	1.56e+00	0	47	104	0	60	1048570
2026-01-18 04:01:55.19	338.64	18.00	-85.2	-88.6	3.1	1.56e+00	0	47	104	0	60	1048575
2026-01-18 04:01:59.22	337.78	17.81	-85.2	-88.6	3.0	1.56e+00	0	47	104	0	60	1048575
2026-01-18 04:02:03.24	336.93	17.61	-85.2	-88.6	2.9	1.55e+00	0	47	104	0	60	1048574
2026-01-18 04:02:07.27	336.10	17.41	-85.2	-88.6	3.0	1.56e+00	0	47	104	0	60	1048575
2026-01-18 04:02:11.30	335.27	17.20	-85.2	-88.6	3.1	1.56e+00	0	47	104	0	60	1048575
2026-01-18 04:02:15.33	334.46	16.99	-85.2	-88.6	3.1	1.56e+00	0	47	104	0	60	1048575
2026-01-18 04:02:19.35	333.65	16.78	-85.2	-88.6	3.0	1.56e+00	0	47	104	0	60	1048575
2026-01-18 04:02:23.38	332.86	16.56	-85.2	-88.6	3.0	1.56e+00	0	47	104	0	60	1048575
2026-01-18 04:02:27.42	332.08	16.33	-85.2	-88.6	3.1	1.56e+00	0	47	104	0	60	1048575
2026-01-18 04:02:31.44	331.32	16.11	-85.2	-88.6	2.9	1.56e+00	0	47	104	0	60	1048575
2026-01-18 04:02:35.46	330.56	15.88	-85.2	-88.6	2.9	1.56e+00	0	47	104	0	60	1048575
2026-01-18 04:02:39.48	329.82	15.65	-85.2	-88.6	2.9	1.56e+00	0	47	104	0	60	1048575
2026-01-18 04:02:43.52	329.08	15.42	-85.2	-88.6	3.0	1.56e+00	0	47	104	0	60	1048574
2026-01-18 04:02:47.55	328.36	15.18	-85.2	-88.6	3.0	1.56e+00	0	47	104	0	60	1048575
2026-01-18 04:02:51.58	327.65	14.94	-85.2	-88.6	2.8	1.56e+00	0	47	104	0	60	1048573
2026-01-18 04:02:55.60	326.96	14.70	-85.2	-88.6	2.9	1.56e+00	0	47	104	0	60	1048574
2026-01-18 04:02:59.62	326.27	14.46	-85.2	-88.6	3.0	1.55e+00	0	47	104	0	60	1048573
2026-01-18 04:03:03.65	325.60	14.22	-85.2	-88.6	3.1	1.56e+00	0	47	104	0	60	1048575
2026-01-18 04:03:07.67	324.93	13.97	-85.2	-88.6	3.0	1.55e+00	0	47	104	0	60	1048573
2026-01-18 04:03:11.69	324.28	13.72	-85.2	-88.6	2.8	1.56e+00	0	47	104	0	60	1048571
2026-01-18 04:03:15.72	323.64	13.48	-85.2	-88.6	2.9	1.56e+00	0	47	104	0	60	1048573
2026-01-18 04:03:19.76	323.01	13.23	-85.2	-88.6	3.1	1.56e+00	0	47	104	0	60	1048575
2026-01-18 04:03:23.79	322.39	12.98	-85.2	-88.6	3.1	1.56e+00	0	47	104	0	60	1048574
2026-01-18 04:03:27.80	321.78	12.73	-85.2	-88.6	2.9	1.56e+00	0	47	104	0	60	1048574
2026-01-18 04:03:31.82	321.18	12.48	-85.2	-88.6	3.1	1.56e+00	0	47	104	0	60	1048573
2026-01-18 04:03:35.86	320.59	12.22	-85.2	-88.6	3.0	1.56e+00	0	47	104	0	60	1048575
2026-01-18 04:03:39.88	320.01	11.97	-85.2	-88.6	2.8	1.56e+00	0	47	104	0	60	1048575
2026-01-18 04:03:43.91	319.45	11.72	-85.2	-88.6	3.1	1.56e+00	0	47	104	0	60	1048573
2026-01-18 04:03:47.94	318.89	11.47	-84.7	-88.6	3.1	1.56e+00	0	47	104	0	60	1048574
2026-01-18 04:03:51.97	318.34	11.21	-85.2	-88.6	3.0	1.56e+00	0	47	104	0	60	1048573
2026-01-18 04:03:56.00	317.80	10.96	-85.2	-88.6	2.8	1.56e+00	0	47	104	0	60	1048575
2026-01-18 04:04:00.02	317.27	10.71	-85.2	-88.6	3.1	1.55e+00	0	47	104	0	60	1048575
2026-01-18 04:04:04.04	316.75	10.46	-85.2	-88.6	3.0	1.56e+00	0	47	104	0	60	1048575
2026-01-18 04:04:08.08	316.24	10.21	-85.2	-88.6	3.0	1.55e+00	0	47	104	0	60	1048573
2026-01-18 04:04:12.11	315.73	9.95	-85.2	-88.6	3.1	1.55e+00	0	47	104	0	60	1048575
2026-01-18 04:04:16.13	315.24	9.70	-85.2	-88.6	3.1	1.56e+00	0	47	104	0	60	1048575
2026-01-18 04:04:20.17	314.75	9.45	-85.2	-88.6	2.9	1.55e+00	0	47	104	0	60	1048574
2026-01-18 04:04:24.20	314.28	9.20	-85.2	-88.6	3.2	1.55e+00	0	47	104	0	60	1048575
2026-01-18 04:04:28.23	313.81	8.95	-85.2	-88.6	3.1	1.56e+00	0	47	104	0	60	1048574
2026-01-18 04:04:32.25	313.35	8.71	-85.2	-88.6	3.0	1.56e+00	0	47	104	0	60	1048574
2026-01-18 04:04:36.29	312.89	8.46	-85.2	-88.6	2.9	1.56e+00	0	47	104	0	60	1048572
2026-01-18 04:04:40.31	312.45	8.21	-85.2	-88.6	2.9	1.56e+00	0	47	104	0	60	1048575
2026-01-18 04:04:44.33	312.02	7.96	-85.2	-88.6	3.0	1.56e+00	0	47	104	0	60	1048575
2026-01-18 04:04:48.36	311.59	7.72	-85.2	-88.6	3.1	1.56e+00	0	47	104	0	60	1048575
2026-01-18 04:04:52.39	311.16	7.47	-85.2	-88.6	2.9	1.55e+00	0	47	104	0	60	1048575
2026-01-18 04:04:56.42	310.75	7.23	-85.2	-88.6	3.0	1.56e+00	0	47	104	0	60	1048573
2026-01-18 04:05:00.45	310.34	6.99	-85.2	-88.6	2.8	1.55e+00	0	47	104	0	60	1048575
2026-01-18 04:05:04.49	309.94	6.74	-85.2	-88.6	2.9	1.55e+00	0	47	104	0	60	1048571
2026-01-18 04:05:08.51	309.55	6.50	-85.2	-88.6	2.9	1.56e+00	0	47	104	0	60	1048570
2026-01-18 04:05:12.54	309.16	6.26	-83.5	-88.6	3.0	1.56e+00	0	47	104	0	60	1048575
2026-01-18 04:05:16.57	308.78	6.02	-85.2	-88.6	3.0	1.56e+00	0	47	104	0	60	1048575
2026-01-18 04:05:20.60	308.40	5.78	-85.2	-88.6	3.0	1.55e+00	0	47	104	0	60	1048573
2026-01-18 04:05:24.63	308.03	5.55	-85.2	-88.6	3.1	1.56e+00	0	47	104	0	60	1048574
2026-01-18 04:05:28.65	307.67	5.31	-85.2	-88.6	2.8	1.55e+00	0	47	104	0	60	1048574
2026-01-18 04:05:32.69	307.32	5.08	-85.2	-88.6	3.1	1.55e+00	0	47	104	0	60	1048575
2026-01-18 04:05:36.72	306.97	4.84	-85.2	-88.6	2.8	1.56e+00	0	47	104	0	60	1048573
2026-01-18 04:05:40.74	306.62	4.61	-85.2	-88.6	2.9	1.55e+00	0	47	104	0	60	1048575
2026-01-18 04:05:44.77	306.28	4.38	-85.2	-88.6	2.9	1.56e+00	0	47	104	0	60	1048574
2026-01-18 04:05:48.80	305.95	4.15	-85.2	-88.6	2.9	1.56e+00	0	47	104	0	60	1048574
2026-01-18 04:05:52.83	305.62	3.92	-85.2	-88.6	2.7	1.56e+00	0	47	104	0	60	1048575
2026-01-18 04:05:56.85	305.30	3.69	-85.2	-88.6	3.0	1.56e+00	0	47	104	0	60	1048574
2026-01-18 04:06:00.86	304.99	3.46	-85.2	-88.6	3.1	1.56e+00	0	47	104	0	60	1048575
2026-01-18 04:06:04.90	304.67	3.23	-85.2	-88.6	3.0	1.55e+00	0	47	104	0	60	1048575
2026-01-18 04:06:08.92	304.37	3.01	-85.2	-88.6	2.9	1.56e+00	0	47	104	0	60	1048575
2026-01-18 04:06:12.96	304.06	2.78	-85.2	-88.6	2.9	1.56e+00	0	47	104	0	60	1048575
2026-01-18 04:06:16.99	303.77	2.56	-85.2	-88.6	3.1	1.56e+00	0	47	104	0	60	1048575
2026-01-18 04:06:21.02	303.47	2.34	-85.2	-88.6	2.9	1.55e+00	0	47	104	0	60	1048575
2026-01-18 04:06:25.05	303.19	2.11	-85.2	-88.6	3.0	1.56e+00	0	47	104	0	60	1048574
2026-01-18 04:06:29.08	302.90	1.89	-85.2	-88.6	3.1	1.55e+00	0	47	104	0	60	1048575
2026-01-18 04:06:33.10	302.62	1.67	-85.2	-88.6	3.1	1.55e+00	0	47	104	0	60	1048573
2026-01-18 04:06:37.14	302.35	1.45	-85.2	-88.6	2.9	1.56e+00	0	47	104	0	60	1048574
2026-01-18 04:06:41.17	302.08	1.24	-85.2	-88.6	3.1	1.56e+00	0	47	104	0	60	1048575
2026-01-18 04:06:45.20	301.81	1.02	-85.2	-88.6	3.1	1.55e+00	0	47	104	0	60	1048575
2026-01-18 04:06:49.22	301.55	0.81	-85.2	-88.6	3.0	1.56e+00	0	47	104	0	60	1048573
2026-01-18 04:06:53.24	301.29	0.59	-85.2	-88.6	3.0	1.56e+00	0	47	104	0	60	1048575
2026-01-18 04:06:57.27	301.03	0.38	-85.2	-88.6	3.0	1.56e+00	0	47	104	0	60	1048574
2026-01-18 04:07:01.29	300.78	0.17	-85.2	-88.6	2.9	1.56e+00	0	47	104	0	60	1048575

#Closed at: 2026-01-18 04:07:04
#Recorded file [0 MB]: D:/Data/35015_260118_065335.dat