passes_logs/2026/01/18/R3.2S-Naryan-Mar/R3.2S-Naryan-Mar__20260118_044244_NOAA_21_JPSS-2_rec.log

#Pass ID: 20260118_044244_NOAA 21 (JPSS-2)
#Satellite: NOAA 21 (JPSS-2)
#Configuration: NOAA-21
#almurnet v.1.7.20240730
#Start time: 2026-01-18 04:52:21

#Version: 2.2.20231116
#Station: R3.2S-Naryan-Mar
#Location: 53.008057 lon 67.646978 lat
#TLE: 1 54234U 22150A   26017.26823908  .00000042  00000+0  40962-4 0  9992
#TLE: 2 54234  98.7501 318.1405 0000613 274.2947  85.8159 14.19535194165131

#Time	Az	El	Level	Level2	SNR	BER	BlckErr	Temp	State	Recorded	gain1	gain2
2026-01-18 04:52:21.61	336.20	15.00	-84.7	-88.6	2.9	7.73e-01	0	47	0	0	60	1048569
2026-01-18 04:52:22.61	336.03	14.94	-84.7	-88.8	2.8	1.56e+00	0	47	104	0	60	1048573
2026-01-18 04:52:23.61	335.87	14.87	-84.7	-88.8	2.9	1.56e+00	0	48	104	0	60	1048575
2026-01-18 04:52:24.62	335.70	14.81	-85.2	-88.8	2.8	1.56e+00	0	47	104	0	60	1048573
2026-01-18 04:52:25.63	335.53	14.74	-84.7	-88.8	2.7	1.56e+00	0	47	104	0	60	1048574
2026-01-18 04:52:26.64	335.37	14.67	-84.7	-88.8	2.8	1.56e+00	0	47	104	0	60	1048573
2026-01-18 04:52:27.65	335.21	14.61	-84.7	-88.8	2.7	1.56e+00	0	47	104	0	60	1048570
2026-01-18 04:52:28.65	335.04	14.54	-84.7	-88.8	2.8	1.56e+00	0	47	104	0	60	1048569
2026-01-18 04:52:29.66	334.88	14.48	-84.7	-88.8	2.6	1.56e+00	0	48	104	0	60	1048573
2026-01-18 04:52:30.67	334.72	14.41	-84.7	-88.8	2.8	1.56e+00	0	48	104	0	60	1048570
2026-01-18 04:52:31.68	334.56	14.34	-84.7	-88.8	2.7	1.56e+00	0	48	104	0	60	1048575
2026-01-18 04:52:32.69	334.40	14.28	-85.2	-88.8	2.5	1.56e+00	0	48	104	0	60	1048568
2026-01-18 04:52:33.69	334.24	14.21	-84.7	-88.8	2.7	1.56e+00	0	48	104	0	60	1048575
2026-01-18 04:52:34.70	334.08	14.14	-84.7	-88.8	3.0	1.56e+00	0	48	104	0	60	1048574
2026-01-18 04:52:35.71	333.92	14.08	-84.7	-88.8	2.8	1.56e+00	0	48	104	0	60	1048575
2026-01-18 04:52:36.72	333.76	14.01	-83.9	-88.8	2.7	1.56e+00	0	48	104	0	60	1048573
2026-01-18 04:52:37.73	333.61	13.94	-84.7	-88.8	2.6	1.56e+00	0	48	104	0	60	1048575
2026-01-18 04:52:38.73	333.45	13.88	-84.7	-88.8	2.8	1.56e+00	0	48	104	0	60	1048573
2026-01-18 04:52:39.74	333.30	13.81	-82.8	-88.8	2.5	1.56e+00	0	48	104	0	60	1048575
2026-01-18 04:52:40.75	333.14	13.74	-84.7	-88.8	2.9	1.56e+00	0	48	104	0	60	1048573
2026-01-18 04:52:41.75	332.99	13.68	-84.7	-88.8	2.7	1.56e+00	0	48	104	0	60	1048575
2026-01-18 04:52:42.76	332.83	13.61	-84.7	-88.8	2.8	1.56e+00	0	48	104	0	60	1048570
2026-01-18 04:52:43.77	332.68	13.54	-85.2	-88.8	2.8	1.56e+00	0	48	104	0	60	1048571
2026-01-18 04:52:44.77	332.53	13.48	-84.7	-88.8	2.5	1.56e+00	0	48	104	0	60	1048574
2026-01-18 04:52:45.78	332.38	13.41	-84.7	-88.8	2.7	1.56e+00	0	48	104	0	60	1048574
2026-01-18 04:52:46.79	332.23	13.34	-85.2	-88.8	2.7	1.56e+00	0	48	104	0	60	1048574
2026-01-18 04:52:47.80	332.08	13.28	-84.7	-88.8	2.8	1.56e+00	0	48	104	0	60	1048574
2026-01-18 04:52:48.81	331.93	13.21	-85.2	-88.8	2.9	1.56e+00	0	48	104	0	60	1048571
2026-01-18 04:52:49.80	331.78	13.15	-84.7	-88.8	2.8	1.56e+00	0	48	104	0	60	1048573
2026-01-18 04:52:50.81	331.64	13.08	-84.7	-88.8	2.6	1.56e+00	0	48	104	0	60	1048575
2026-01-18 04:52:51.82	331.49	13.01	-85.2	-88.8	2.8	1.56e+00	0	48	104	0	60	1048567
2026-01-18 04:52:52.83	331.34	12.94	-84.7	-88.8	2.7	1.56e+00	0	48	104	0	60	1048575
2026-01-18 04:52:53.83	331.20	12.88	-84.7	-88.8	2.7	1.56e+00	0	48	104	0	60	1048572
2026-01-18 04:52:54.84	331.05	12.81	-84.7	-88.8	2.6	1.56e+00	0	48	104	0	60	1048575
2026-01-18 04:52:55.84	330.91	12.75	-84.7	-88.8	2.9	1.56e+00	0	48	104	0	60	1048574
2026-01-18 04:52:56.84	330.77	12.68	-85.2	-88.8	2.7	1.56e+00	0	48	104	0	60	1048575
2026-01-18 04:52:57.85	330.62	12.61	-84.7	-88.8	2.9	1.56e+00	0	48	104	0	60	1048568
2026-01-18 04:52:58.85	330.48	12.55	-84.7	-88.8	2.6	1.56e+00	0	48	104	0	60	1048575
2026-01-18 04:52:59.85	330.34	12.48	-84.7	-88.8	2.6	1.56e+00	0	48	104	0	60	1048575
2026-01-18 04:53:00.86	330.20	12.41	-84.7	-88.8	2.8	1.56e+00	0	48	104	0	60	1048575
2026-01-18 04:53:01.87	330.06	12.35	-84.7	-88.8	2.8	1.56e+00	0	47	104	0	60	1048574
2026-01-18 04:53:02.88	329.92	12.28	-84.7	-88.8	2.8	1.56e+00	0	48	104	0	60	1048574
2026-01-18 04:53:03.88	329.78	12.21	-84.7	-88.8	2.7	1.56e+00	0	48	104	0	60	1048568
2026-01-18 04:53:04.89	329.64	12.15	-84.7	-88.8	2.8	1.56e+00	0	48	104	0	60	1048575
2026-01-18 04:53:05.89	329.51	12.08	-84.7	-88.8	2.5	1.56e+00	0	47	104	0	60	1048572
2026-01-18 04:53:06.89	329.37	12.01	-84.7	-88.8	2.6	1.56e+00	0	48	104	0	60	1048573
2026-01-18 04:53:07.89	329.24	11.95	-84.7	-88.8	2.8	1.56e+00	0	48	104	0	60	1048575
2026-01-18 04:53:08.90	329.10	11.88	-84.7	-88.8	2.9	1.56e+00	0	48	104	0	60	1048574
2026-01-18 04:53:09.91	328.96	11.81	-84.7	-88.8	2.8	1.56e+00	0	48	104	0	60	1048572
2026-01-18 04:53:10.92	328.83	11.75	-85.2	-88.8	2.8	1.56e+00	0	48	104	0	60	1048575
2026-01-18 04:53:11.92	328.70	11.68	-84.7	-88.8	2.8	1.56e+00	0	48	104	0	60	1048574
2026-01-18 04:53:12.93	328.56	11.61	-85.2	-88.8	2.7	1.56e+00	0	48	104	0	60	1048572
2026-01-18 04:53:13.94	328.43	11.55	-85.2	-88.8	2.7	1.56e+00	0	48	104	0	60	1048575
2026-01-18 04:53:14.95	328.30	11.48	-84.7	-88.8	2.9	1.56e+00	0	48	104	0	60	1048574
2026-01-18 04:53:15.96	328.17	11.41	-84.7	-88.8	2.7	1.56e+00	0	47	104	0	60	1048573
2026-01-18 04:53:16.97	328.03	11.35	-84.7	-88.8	2.8	1.56e+00	0	48	104	0	60	1048574
2026-01-18 04:53:17.97	327.91	11.28	-84.7	-88.8	2.8	1.56e+00	0	48	104	0	60	1048575
2026-01-18 04:53:18.98	327.78	11.22	-84.7	-88.8	2.9	1.56e+00	0	48	104	0	60	1048575
2026-01-18 04:53:19.99	327.65	11.15	-84.7	-88.8	2.7	1.56e+00	0	48	104	0	60	1048574
2026-01-18 04:53:21.00	327.52	11.08	-84.7	-88.8	2.7	1.56e+00	0	48	104	0	60	1048575
2026-01-18 04:53:22.00	327.39	11.02	-84.7	-88.8	2.8	1.56e+00	0	48	104	0	60	1048571
2026-01-18 04:53:23.01	327.26	10.95	-84.7	-88.8	2.9	1.56e+00	0	48	104	0	60	1048571
2026-01-18 04:53:24.00	327.14	10.89	-83.9	-88.8	2.7	1.56e+00	0	48	104	0	60	1048575
2026-01-18 04:53:25.00	327.01	10.82	-84.7	-88.8	2.9	1.56e+00	0	47	104	0	60	1048574
2026-01-18 04:53:26.01	326.89	10.75	-84.7	-88.8	2.8	1.56e+00	0	48	104	0	60	1048575
2026-01-18 04:53:27.01	326.76	10.69	-83.5	-88.8	2.9	1.56e+00	0	48	104	0	60	1048574
2026-01-18 04:53:28.01	326.64	10.62	-84.7	-88.8	2.8	1.56e+00	0	48	104	0	60	1048573
2026-01-18 04:53:29.02	326.52	10.56	-84.7	-88.8	2.7	1.56e+00	0	48	104	0	60	1048575
2026-01-18 04:53:30.02	326.39	10.49	-84.7	-88.8	2.7	1.56e+00	0	48	104	0	60	1048574
2026-01-18 04:53:31.03	326.27	10.43	-84.7	-88.8	2.6	1.56e+00	0	48	104	0	60	1048575
2026-01-18 04:53:32.04	326.15	10.36	-84.7	-88.8	2.7	1.56e+00	0	48	104	0	60	1048574
2026-01-18 04:53:33.04	326.03	10.29	-84.7	-88.8	2.7	1.56e+00	0	47	104	0	60	1048575
2026-01-18 04:53:34.05	325.91	10.23	-84.7	-88.8	2.6	1.56e+00	0	47	104	0	60	1048574
2026-01-18 04:53:35.06	325.79	10.16	-84.7	-88.8	2.8	1.56e+00	0	48	104	0	60	1048575
2026-01-18 04:53:36.07	325.67	10.10	-84.7	-88.8	2.7	1.56e+00	0	48	104	0	60	1048570
2026-01-18 04:53:37.07	325.55	10.03	-84.7	-88.8	2.8	1.56e+00	0	48	104	0	60	1048568
2026-01-18 04:53:38.08	325.43	9.97	-85.2	-88.8	2.6	1.56e+00	0	48	104	0	60	1048572
2026-01-18 04:53:39.09	325.31	9.90	-84.7	-88.8	2.9	1.56e+00	0	48	104	0	60	1048573
2026-01-18 04:53:40.09	325.19	9.84	-85.2	-88.8	2.6	1.56e+00	0	48	104	0	60	1048575
2026-01-18 04:53:41.10	325.07	9.77	-83.9	-88.8	2.7	1.56e+00	0	48	104	0	60	1048572
2026-01-18 04:53:42.10	324.96	9.71	-84.7	-88.8	2.8	1.56e+00	0	48	104	0	60	1048575
2026-01-18 04:53:43.11	324.84	9.64	-85.2	-88.8	2.8	1.56e+00	0	48	104	0	60	1048571
2026-01-18 04:53:44.11	324.73	9.58	-84.7	-88.8	2.9	1.56e+00	0	48	104	0	60	1048575
2026-01-18 04:53:45.12	324.61	9.51	-84.7	-88.8	2.7	1.56e+00	0	48	104	0	60	1048575
2026-01-18 04:53:46.13	324.50	9.44	-85.2	-88.8	2.8	1.56e+00	0	48	104	0	60	1048574
2026-01-18 04:53:47.14	324.38	9.38	-84.7	-88.8	2.8	1.56e+00	0	48	104	0	60	1048574
2026-01-18 04:53:48.15	324.27	9.31	-85.2	-88.8	2.8	1.56e+00	0	48	104	0	60	1048575
2026-01-18 04:53:49.15	324.16	9.25	-85.2	-88.8	2.7	1.56e+00	0	48	104	0	60	1048575
2026-01-18 04:53:50.16	324.05	9.18	-85.2	-88.8	2.6	1.56e+00	0	48	104	0	60	1048572
2026-01-18 04:53:51.17	323.93	9.12	-84.7	-88.8	2.7	1.56e+00	0	48	104	0	60	1048573
2026-01-18 04:53:52.17	323.82	9.06	-84.7	-88.8	2.5	1.56e+00	0	48	104	0	60	1048574
2026-01-18 04:53:53.18	323.71	8.99	-85.2	-88.8	2.6	1.56e+00	0	48	104	0	60	1048574
2026-01-18 04:53:54.19	323.60	8.93	-84.7	-88.8	2.7	1.56e+00	0	48	104	0	60	1048575
2026-01-18 04:53:55.20	323.49	8.86	-85.2	-88.8	2.7	1.56e+00	0	48	104	0	60	1048572
2026-01-18 04:53:56.20	323.38	8.80	-85.2	-88.8	2.7	1.56e+00	0	48	104	0	60	1048574
2026-01-18 04:53:57.21	323.27	8.73	-84.7	-88.8	2.8	1.56e+00	0	48	104	0	60	1048575
2026-01-18 04:53:58.22	323.16	8.67	-85.2	-88.8	2.8	1.56e+00	0	48	104	0	60	1048574
2026-01-18 04:53:59.22	323.06	8.60	-85.2	-88.8	2.8	1.56e+00	0	48	104	0	60	1048573
2026-01-18 04:54:00.23	322.95	8.54	-84.7	-88.8	2.9	1.56e+00	0	48	104	0	60	1048575
2026-01-18 04:54:01.23	322.84	8.48	-84.7	-88.8	2.8	1.56e+00	0	48	104	0	60	1048574
2026-01-18 04:54:02.24	322.74	8.41	-85.2	-88.8	2.8	1.56e+00	0	48	104	0	60	1048575
2026-01-18 04:54:03.25	322.63	8.35	-84.7	-88.8	2.7	1.55e+00	0	48	104	0	60	1048572
2026-01-18 04:54:04.25	322.53	8.28	-85.2	-88.8	2.7	1.56e+00	0	48	104	0	60	1048569
2026-01-18 04:54:05.26	322.42	8.22	-84.7	-88.8	2.8	1.56e+00	0	48	104	0	60	1048572
2026-01-18 04:54:06.27	322.32	8.16	-84.7	-88.8	2.8	1.56e+00	0	48	104	0	60	1048575
2026-01-18 04:54:07.27	322.21	8.09	-85.2	-88.8	2.8	1.56e+00	0	48	104	0	60	1048572
2026-01-18 04:54:08.28	322.11	8.03	-84.7	-88.8	2.7	1.56e+00	0	48	104	0	60	1048572
2026-01-18 04:54:09.29	322.00	7.97	-85.2	-88.8	2.7	1.56e+00	0	48	104	0	60	1048575
2026-01-18 04:54:10.30	321.90	7.90	-85.2	-88.8	2.8	1.56e+00	0	48	104	0	60	1048571
2026-01-18 04:54:11.30	321.80	7.84	-84.7	-88.8	2.6	1.56e+00	0	48	104	0	60	1048569
2026-01-18 04:54:12.31	321.70	7.78	-84.7	-88.8	2.7	1.56e+00	0	48	104	0	60	1048573
2026-01-18 04:54:13.31	321.60	7.71	-85.2	-88.8	2.8	1.56e+00	0	48	104	0	60	1048575
2026-01-18 04:54:14.32	321.50	7.65	-85.2	-88.8	2.8	1.56e+00	0	48	104	0	60	1048575
2026-01-18 04:54:15.33	321.40	7.59	-84.7	-88.8	2.7	1.56e+00	0	48	104	0	60	1048574
2026-01-18 04:54:16.34	321.30	7.52	-85.2	-88.8	2.8	1.56e+00	0	48	104	0	60	1048574
2026-01-18 04:54:17.35	321.20	7.46	-85.2	-88.8	2.5	1.56e+00	0	48	104	0	60	1048566
2026-01-18 04:54:18.35	321.10	7.40	-84.7	-88.8	2.4	1.56e+00	0	48	104	0	60	1048573
2026-01-18 04:54:19.36	321.00	7.33	-85.2	-88.8	2.8	1.56e+00	0	47	104	0	60	1048573
2026-01-18 04:54:20.37	320.90	7.27	-83.9	-88.8	2.7	1.56e+00	0	48	104	0	60	1048573
2026-01-18 04:54:21.38	320.80	7.21	-84.7	-88.8	2.8	1.56e+00	0	48	104	0	60	1048574
2026-01-18 04:54:22.38	320.71	7.15	-85.2	-88.8	2.6	1.56e+00	0	48	104	0	60	1048575
2026-01-18 04:54:23.39	320.61	7.08	-85.2	-88.8	2.8	1.56e+00	0	48	104	0	60	1048573
2026-01-18 04:54:24.39	320.51	7.02	-84.7	-88.8	2.7	1.56e+00	0	48	104	0	60	1048575
2026-01-18 04:54:25.40	320.42	6.96	-84.7	-88.8	2.5	1.56e+00	0	48	104	0	60	1048572
2026-01-18 04:54:26.40	320.32	6.90	-85.2	-88.8	2.9	1.56e+00	0	48	104	0	60	1048574
2026-01-18 04:54:27.41	320.23	6.83	-84.7	-88.8	2.7	1.56e+00	0	48	104	0	60	1048575
2026-01-18 04:54:28.42	320.13	6.77	-85.2	-88.8	2.8	1.56e+00	0	48	104	0	60	1048575
2026-01-18 04:54:29.42	320.04	6.71	-85.2	-88.8	2.9	1.56e+00	0	48	104	0	60	1048575
2026-01-18 04:54:30.43	319.94	6.65	-84.7	-88.8	2.9	1.56e+00	0	48	104	0	60	1048572
2026-01-18 04:54:31.43	319.85	6.59	-85.2	-88.8	2.6	1.56e+00	0	48	104	0	60	1048575
2026-01-18 04:54:32.44	319.76	6.52	-85.2	-88.8	2.7	1.56e+00	0	47	104	0	60	1048574
2026-01-18 04:54:33.44	319.67	6.46	-85.2	-88.8	2.9	1.56e+00	0	48	104	0	60	1048575
2026-01-18 04:54:34.45	319.57	6.40	-84.7	-88.8	2.5	1.56e+00	0	48	104	0	60	1048575
2026-01-18 04:54:35.45	319.48	6.34	-84.7	-88.8	2.8	1.56e+00	0	48	104	0	60	1048575
2026-01-18 04:54:36.46	319.39	6.28	-85.2	-88.8	2.9	1.56e+00	0	48	104	0	60	1048572
2026-01-18 04:54:37.47	319.30	6.22	-85.2	-88.8	2.6	1.56e+00	0	48	104	0	60	1048575
2026-01-18 04:54:38.48	319.21	6.16	-85.2	-88.8	2.7	1.56e+00	0	48	104	0	60	1048567
2026-01-18 04:54:39.48	319.12	6.09	-85.2	-88.8	2.6	1.56e+00	0	48	104	0	60	1048575
2026-01-18 04:54:40.49	319.03	6.03	-84.3	-88.8	2.8	1.56e+00	0	48	104	0	60	1048574
2026-01-18 04:54:41.50	318.94	5.97	-85.2	-88.8	2.6	1.56e+00	0	48	104	0	60	1048569
2026-01-18 04:54:42.51	318.85	5.91	-85.2	-88.8	2.8	1.56e+00	0	48	104	0	60	1048570
2026-01-18 04:54:43.52	318.76	5.85	-85.2	-88.8	2.5	1.56e+00	0	48	104	0	60	1048575
2026-01-18 04:54:44.52	318.67	5.79	-85.2	-88.8	2.8	1.56e+00	0	48	104	0	60	1048575
2026-01-18 04:54:45.53	318.58	5.73	-85.2	-88.8	2.7	1.56e+00	0	48	104	0	60	1048570
2026-01-18 04:54:46.54	318.50	5.67	-85.2	-88.8	2.7	1.56e+00	0	48	104	0	60	1048573
2026-01-18 04:54:47.55	318.41	5.61	-85.2	-88.8	2.8	1.56e+00	0	48	104	0	60	1048575
2026-01-18 04:54:48.56	318.32	5.54	-84.7	-88.8	2.9	1.56e+00	0	48	104	0	60	1048575
2026-01-18 04:54:49.57	318.24	5.48	-85.2	-88.8	2.7	1.56e+00	0	48	104	0	60	1048572
2026-01-18 04:54:50.57	318.15	5.42	-85.2	-88.8	2.7	1.56e+00	0	48	104	0	60	1048575
2026-01-18 04:54:51.58	318.06	5.36	-85.2	-88.8	2.7	1.56e+00	0	48	104	0	60	1048573
2026-01-18 04:54:52.59	317.98	5.30	-85.2	-88.8	2.9	1.56e+00	0	48	104	0	60	1048572
2026-01-18 04:54:53.60	317.89	5.24	-85.2	-88.8	2.7	1.56e+00	0	48	104	0	60	1048571
2026-01-18 04:54:54.61	317.81	5.18	-85.2	-88.8	2.4	1.56e+00	0	48	104	0	60	1048574
2026-01-18 04:54:55.61	317.73	5.12	-85.2	-88.8	2.9	1.56e+00	0	48	104	0	60	1048575
2026-01-18 04:54:56.62	317.64	5.06	-85.2	-88.8	2.7	1.56e+00	0	48	104	0	60	1048575
2026-01-18 04:54:57.62	317.56	5.00	-85.2	-88.8	2.7	1.56e+00	0	48	104	0	60	1048574
2026-01-18 04:54:58.63	317.47	4.94	-85.2	-88.8	2.7	1.56e+00	0	48	104	0	60	1048571
2026-01-18 04:54:59.63	317.39	4.88	-84.3	-88.8	2.6	1.56e+00	0	48	104	0	60	1048575
2026-01-18 04:55:00.64	317.31	4.82	-85.2	-88.8	2.8	1.56e+00	0	48	104	0	60	1048574
2026-01-18 04:55:01.64	317.23	4.76	-85.2	-88.8	2.8	1.56e+00	0	48	104	0	60	1048572
2026-01-18 04:55:02.65	317.15	4.70	-85.2	-88.8	2.6	1.56e+00	0	48	104	0	60	1048573
2026-01-18 04:55:03.65	317.07	4.64	-85.2	-88.8	2.7	1.56e+00	0	48	104	0	60	1048574
2026-01-18 04:55:04.66	316.98	4.58	-85.2	-88.8	2.5	1.56e+00	0	48	104	0	60	1048574
2026-01-18 04:55:05.67	316.90	4.53	-85.2	-88.8	2.7	1.56e+00	0	48	104	0	60	1048575
2026-01-18 04:55:06.67	316.82	4.47	-85.2	-88.8	2.8	1.56e+00	0	48	104	0	60	1048575
2026-01-18 04:55:07.68	316.74	4.41	-85.2	-88.8	2.8	1.56e+00	0	48	104	0	60	1048571
2026-01-18 04:55:08.69	316.66	4.35	-85.2	-88.8	2.6	1.56e+00	0	47	104	0	60	1048575
2026-01-18 04:55:09.70	316.58	4.29	-83.5	-88.8	2.9	1.56e+00	0	48	104	0	60	1048567
2026-01-18 04:55:10.70	316.51	4.23	-85.2	-88.8	2.8	1.56e+00	0	48	104	0	60	1048575
2026-01-18 04:55:11.71	316.43	4.17	-85.2	-88.8	2.8	1.56e+00	0	48	104	0	60	1048575
2026-01-18 04:55:12.71	316.35	4.11	-85.2	-88.8	2.8	1.56e+00	0	47	104	0	60	1048570
2026-01-18 04:55:13.72	316.27	4.05	-85.2	-88.8	2.7	1.56e+00	0	48	104	0	60	1048573
2026-01-18 04:55:14.72	316.19	4.00	-85.2	-88.8	2.6	1.56e+00	0	48	104	0	60	1048570
2026-01-18 04:55:15.73	316.12	3.94	-84.7	-88.8	2.7	1.56e+00	0	48	104	0	60	1048575
2026-01-18 04:55:16.74	316.04	3.88	-85.2	-88.8	2.7	1.56e+00	0	48	104	0	60	1048575
2026-01-18 04:55:17.75	315.96	3.82	-85.2	-88.8	2.6	1.56e+00	0	48	104	0	60	1048574
2026-01-18 04:55:18.76	315.88	3.76	-85.2	-88.8	2.9	1.56e+00	0	48	104	0	60	1048575
2026-01-18 04:55:19.76	315.81	3.70	-85.2	-88.8	2.7	1.56e+00	0	48	104	0	60	1048572
2026-01-18 04:55:20.76	315.73	3.64	-85.2	-88.8	2.9	1.56e+00	0	48	104	0	60	1048575
2026-01-18 04:55:21.77	315.66	3.59	-84.7	-88.8	2.7	1.56e+00	0	48	104	0	60	1048575
2026-01-18 04:55:22.77	315.58	3.53	-85.2	-88.8	2.6	1.56e+00	0	48	104	0	60	1048574
2026-01-18 04:55:23.78	315.51	3.47	-85.2	-88.8	2.6	1.56e+00	0	48	104	0	60	1048575
2026-01-18 04:55:24.78	315.43	3.41	-85.2	-88.8	2.9	1.56e+00	0	48	104	0	60	1048575
2026-01-18 04:55:25.79	315.36	3.35	-85.2	-88.8	2.6	1.56e+00	0	48	104	0	60	1048575
2026-01-18 04:55:26.80	315.29	3.30	-85.2	-88.8	2.7	1.56e+00	0	48	104	0	60	1048572
2026-01-18 04:55:27.80	315.21	3.24	-85.2	-88.8	2.7	1.56e+00	0	48	104	0	60	1048573
2026-01-18 04:55:28.81	315.14	3.18	-85.2	-88.8	2.7	1.56e+00	0	48	104	0	60	1048575
2026-01-18 04:55:29.82	315.07	3.12	-84.3	-88.8	2.8	1.56e+00	0	48	104	0	60	1048574
2026-01-18 04:55:30.83	314.99	3.07	-85.2	-88.8	2.5	1.56e+00	0	48	104	0	60	1048575
2026-01-18 04:55:31.84	314.92	3.01	-85.2	-88.8	2.7	1.56e+00	0	48	104	0	60	1048573
2026-01-18 04:55:32.85	314.85	2.95	-85.2	-88.8	2.8	1.56e+00	0	48	104	0	60	1048572
2026-01-18 04:55:33.85	314.78	2.89	-85.2	-88.8	2.6	1.56e+00	0	48	104	0	60	1048574
2026-01-18 04:55:34.85	314.71	2.84	-85.2	-88.8	2.6	1.56e+00	0	48	104	0	60	1048574
2026-01-18 04:55:35.86	314.63	2.78	-85.2	-88.8	2.7	1.56e+00	0	48	104	0	60	1048575
2026-01-18 04:55:36.86	314.56	2.72	-85.2	-88.8	2.6	1.56e+00	0	48	104	0	60	1048573
2026-01-18 04:55:37.87	314.49	2.67	-85.2	-88.8	2.6	1.56e+00	0	48	104	0	60	1048573
2026-01-18 04:55:38.87	314.42	2.61	-85.2	-88.8	2.9	1.56e+00	0	48	104	0	60	1048575
2026-01-18 04:55:39.87	314.35	2.55	-84.7	-88.8	2.8	1.56e+00	0	48	104	0	60	1048574
2026-01-18 04:55:40.88	314.28	2.50	-85.2	-88.8	2.6	1.56e+00	0	48	104	0	60	1048575
2026-01-18 04:55:41.88	314.21	2.44	-85.2	-88.8	2.8	1.56e+00	0	48	104	0	60	1048575
2026-01-18 04:55:42.89	314.15	2.38	-85.2	-88.8	2.5	1.56e+00	0	48	104	0	60	1048575
2026-01-18 04:55:43.88	314.08	2.33	-85.2	-88.8	2.7	1.56e+00	0	48	104	0	60	1048573
2026-01-18 04:55:44.89	314.01	2.27	-85.2	-88.8	2.8	1.56e+00	0	48	104	0	60	1048575
2026-01-18 04:55:45.90	313.94	2.22	-85.2	-88.8	2.7	1.56e+00	0	48	104	0	60	1048567
2026-01-18 04:55:46.91	313.87	2.16	-85.2	-88.8	2.8	1.56e+00	0	48	104	0	60	1048568
2026-01-18 04:55:47.91	313.80	2.10	-85.2	-88.8	2.6	1.56e+00	0	48	104	0	60	1048574
2026-01-18 04:55:48.92	313.74	2.05	-85.2	-88.8	2.7	1.56e+00	0	48	104	0	60	1048575
2026-01-18 04:55:49.93	313.67	1.99	-84.7	-88.8	2.7	1.56e+00	0	48	104	0	60	1048575
2026-01-18 04:55:50.94	313.60	1.93	-85.2	-88.8	2.6	1.56e+00	0	48	104	0	60	1048575
2026-01-18 04:55:51.95	313.53	1.88	-85.2	-88.8	2.8	1.56e+00	0	48	104	0	60	1048572
2026-01-18 04:55:52.95	313.47	1.82	-85.2	-88.8	2.9	1.56e+00	0	48	104	0	60	1048575
2026-01-18 04:55:53.96	313.40	1.77	-85.2	-88.8	2.6	1.56e+00	0	48	104	0	60	1048574
2026-01-18 04:55:54.96	313.34	1.71	-84.3	-88.8	2.7	1.56e+00	0	48	104	0	60	1048575
2026-01-18 04:55:55.97	313.27	1.66	-85.2	-88.8	2.7	1.56e+00	0	48	104	0	60	1048573
2026-01-18 04:55:56.98	313.20	1.60	-85.2	-88.8	2.9	1.56e+00	0	48	104	0	60	1048575
2026-01-18 04:55:57.98	313.14	1.54	-85.2	-88.8	2.7	1.56e+00	0	48	104	0	60	1048575
2026-01-18 04:55:58.99	313.07	1.49	-85.2	-88.8	2.5	1.56e+00	0	48	104	0	60	1048568
2026-01-18 04:55:59.99	313.01	1.43	-84.3	-88.8	2.7	1.56e+00	0	48	104	0	60	1048568
2026-01-18 04:56:01.00	312.95	1.38	-85.2	-88.8	2.8	1.56e+00	0	48	104	0	60	1048575
2026-01-18 04:56:02.00	312.88	1.32	-85.2	-88.8	2.7	1.56e+00	0	48	104	0	60	1048572
2026-01-18 04:56:03.01	312.82	1.27	-85.2	-88.8	2.8	1.56e+00	0	48	104	0	60	1048575
2026-01-18 04:56:04.02	312.75	1.21	-85.2	-88.8	2.6	1.56e+00	0	48	104	0	60	1048573
2026-01-18 04:56:05.03	312.69	1.16	-85.2	-88.8	2.7	1.56e+00	0	48	104	0	60	1048575
2026-01-18 04:56:06.04	312.63	1.10	-85.2	-88.8	2.6	1.56e+00	0	48	104	0	60	1048573
2026-01-18 04:56:07.05	312.56	1.05	-85.2	-88.8	2.6	1.56e+00	0	48	104	0	60	1048575
2026-01-18 04:56:08.05	312.50	0.99	-85.2	-88.8	2.6	1.56e+00	0	48	104	0	60	1048575
2026-01-18 04:56:09.06	312.44	0.94	-85.2	-88.8	2.8	1.56e+00	0	48	104	0	60	1048573
2026-01-18 04:56:10.06	312.38	0.88	-85.2	-88.8	2.6	1.56e+00	0	47	104	0	60	1048568
2026-01-18 04:56:11.07	312.31	0.83	-85.2	-88.8	2.7	1.56e+00	0	48	104	0	60	1048573
2026-01-18 04:56:12.08	312.25	0.77	-85.2	-88.8	2.8	1.56e+00	0	48	104	0	60	1048573
2026-01-18 04:56:13.09	312.19	0.72	-85.2	-88.8	2.7	1.56e+00	0	48	104	0	60	1048573
2026-01-18 04:56:14.09	312.13	0.67	-85.2	-88.8	2.8	1.56e+00	0	48	104	0	60	1048573
2026-01-18 04:56:15.10	312.07	0.61	-85.2	-88.8	2.8	1.56e+00	0	48	104	0	60	1048573
2026-01-18 04:56:16.11	312.01	0.56	-85.2	-88.8	2.6	1.56e+00	0	48	104	0	60	1048575
2026-01-18 04:56:17.12	311.95	0.50	-85.2	-88.8	2.8	1.56e+00	0	48	104	0	60	1048575
2026-01-18 04:56:18.13	311.89	0.45	-85.2	-88.8	2.9	1.56e+00	0	48	104	0	60	1048574
2026-01-18 04:56:19.13	311.83	0.39	-85.2	-88.8	2.6	1.56e+00	0	48	104	0	60	1048575
2026-01-18 04:56:20.14	311.77	0.34	-85.2	-88.8	2.5	1.56e+00	0	48	104	0	60	1048573
2026-01-18 04:56:21.14	311.71	0.29	-85.2	-88.8	2.5	1.56e+00	0	48	104	0	60	1048573
2026-01-18 04:56:22.15	311.65	0.23	-85.2	-88.8	2.8	1.56e+00	0	48	104	0	60	1048571
2026-01-18 04:56:23.16	311.59	0.18	-85.2	-88.8	2.8	1.56e+00	0	48	104	0	60	1048574
2026-01-18 04:56:24.16	311.53	0.13	-85.2	-88.8	2.9	1.56e+00	0	48	104	0	60	1048575
2026-01-18 04:56:25.17	311.47	0.07	-85.2	-88.8	2.8	1.56e+00	0	48	104	0	60	1048575
2026-01-18 04:56:26.18	311.41	0.02	-85.2	-88.8	2.8	1.56e+00	0	48	104	0	60	1048570
2026-01-18 04:56:27.19	311.35	-0.04	-85.2	-88.8	2.5	1.56e+00	0	48	104	0	60	1048561
2026-01-18 04:56:28.19	311.30	-0.09	-85.2	-88.8	2.7	1.56e+00	0	48	104	0	60	1048574

#Closed at: 2026-01-18 04:56:28
#Recorded file [0 MB]: D:/Data/35015_260118_075221.dat