passes_logs/2026/01/18/R3.2S-Naryan-Mar/R3.2S-Naryan-Mar__20260118_061130_FENGYUN_3D_rec.log

#Pass ID: 20260118_061130_FENGYUN 3D
#Satellite: FENGYUN 3D
#Configuration: FENGYUN 3D
#almurnet v.1.7.20240730
#Start time: 2026-01-18 06:11:31

#Version: 2.2.20231116
#Station: R3.2S-Naryan-Mar
#Location: 53.008057 lon 67.646978 lat
#TLE: 1 43010U 17072A   26017.25882587  .00000461  00000+0  23963-3 0  9992
#TLE: 2 43010  98.9934 349.1096 0002357 104.0487 256.0951 14.19697152423579

#Time	Az	El	Level	Level2	SNR	BER	BlckErr	Temp	State	Recorded	gain1	gain2
2026-01-18 06:11:31.45	66.68	0.03	-83.9	-88.8	1.9	3.13e+01	0	44	0	0	60	1048571
2026-01-18 06:11:35.48	66.44	0.24	-84.7	-88.6	5.8	2.81e-01	0	46	0	0	60	1048574
2026-01-18 06:11:39.51	66.19	0.46	-84.7	-88.6	5.5	2.80e-01	0	46	0	0	60	1048572
2026-01-18 06:11:43.53	65.94	0.67	-84.7	-88.6	5.7	2.83e-01	0	46	0	0	60	1048574
2026-01-18 06:11:47.55	65.68	0.89	-84.7	-88.6	6.2	2.82e-01	0	46	0	0	60	1048573
2026-01-18 06:11:51.58	65.43	1.11	-84.7	-88.6	5.9	2.79e-01	0	46	0	0	60	1048572
2026-01-18 06:11:55.62	65.16	1.33	-84.7	-88.6	5.8	2.82e-01	0	46	0	0	60	1048573
2026-01-18 06:11:59.63	64.90	1.54	-84.3	-88.6	5.8	2.84e-01	0	46	0	0	60	1048573
2026-01-18 06:12:03.66	64.63	1.77	-85.2	-88.6	6.0	2.75e-01	0	46	0	0	60	1048571
2026-01-18 06:12:07.68	64.35	1.99	-84.7	-88.6	5.6	2.79e-01	0	46	0	0	60	1048575
2026-01-18 06:12:11.72	64.07	2.21	-84.7	-88.6	5.6	2.80e-01	0	46	0	0	60	1048575
2026-01-18 06:12:15.74	63.79	2.43	-84.7	-88.6	5.8	2.76e-01	0	46	0	0	60	1048574
2026-01-18 06:12:19.76	63.50	2.66	-85.2	-88.6	6.1	2.82e-01	0	46	0	0	60	1048570
2026-01-18 06:12:23.79	63.20	2.89	-85.2	-88.6	6.2	2.78e-01	0	46	0	0	60	1048575
2026-01-18 06:12:27.83	62.90	3.11	-85.2	-88.6	3.3	7.63e-01	0	46	104	0	60	1048575
2026-01-18 06:12:31.86	62.60	3.34	-85.2	-88.6	3.4	7.64e-01	0	46	104	0	60	1048575
2026-01-18 06:12:35.89	62.29	3.57	-85.2	-88.6	2.8	7.64e-01	0	46	104	0	60	1048568
2026-01-18 06:12:39.92	61.98	3.80	-84.7	-88.6	3.0	7.64e-01	0	46	104	0	60	1048574
2026-01-18 06:12:43.94	61.66	4.04	-85.2	-88.6	2.8	7.62e-01	0	46	104	0	60	1048575
2026-01-18 06:12:47.97	61.34	4.27	-85.2	-88.6	2.5	7.61e-01	0	47	104	0	60	1048574
2026-01-18 06:12:52.00	61.01	4.50	-85.2	-88.6	2.9	7.63e-01	0	47	104	0	60	1048575
2026-01-18 06:12:56.02	60.67	4.74	-85.2	-88.6	3.4	7.63e-01	0	47	104	0	60	1048575
2026-01-18 06:13:00.03	60.33	4.97	-85.2	-88.6	3.5	7.63e-01	0	47	104	0	60	1048575
2026-01-18 06:13:04.06	59.99	5.21	-84.7	-88.6	3.6	7.62e-01	0	46	104	0	60	1048567
2026-01-18 06:13:08.08	59.64	5.45	-84.3	-88.6	3.1	7.64e-01	0	47	104	0	60	1048574
2026-01-18 06:13:12.11	59.28	5.69	-85.2	-88.6	3.1	7.63e-01	0	47	104	0	60	1048569
2026-01-18 06:13:16.13	58.91	5.93	-85.2	-88.6	2.9	7.63e-01	0	47	104	0	60	1048573
2026-01-18 06:13:20.16	58.54	6.17	-85.2	-88.6	3.3	7.64e-01	0	47	104	0	60	1048575
2026-01-18 06:13:24.19	58.17	6.42	-85.2	-88.6	3.7	7.66e-01	0	47	104	0	60	1048575
2026-01-18 06:13:28.21	57.78	6.66	-84.7	-88.6	3.4	7.63e-01	0	47	104	0	60	1048573
2026-01-18 06:13:32.24	57.39	6.90	-84.7	-88.6	2.7	7.62e-01	0	47	104	0	60	1048575
2026-01-18 06:13:36.27	56.99	7.15	-84.7	-88.6	3.4	7.64e-01	0	47	104	0	60	1048574
2026-01-18 06:13:40.30	56.59	7.40	-85.2	-88.6	3.4	7.63e-01	0	47	104	0	60	1048571
2026-01-18 06:13:44.33	56.18	7.65	-85.2	-88.6	3.6	7.63e-01	0	47	104	0	60	1048571
2026-01-18 06:13:48.36	55.76	7.90	-85.2	-88.6	3.2	7.63e-01	0	47	104	0	60	1048575
2026-01-18 06:13:52.39	55.33	8.15	-85.2	-88.6	3.1	7.63e-01	0	47	104	0	60	1048575
2026-01-18 06:13:56.42	54.90	8.40	-85.2	-88.6	2.9	7.64e-01	0	47	104	0	60	1048575
2026-01-18 06:14:00.43	54.46	8.65	-84.7	-88.6	3.0	7.64e-01	0	47	104	0	60	1048569
2026-01-18 06:14:04.45	54.01	8.90	-85.2	-88.6	2.9	7.63e-01	0	47	104	0	60	1048575
2026-01-18 06:14:08.48	53.55	9.16	-85.2	-88.6	3.7	7.62e-01	0	47	104	0	60	1048574
2026-01-18 06:14:12.52	53.08	9.41	-85.2	-88.6	2.9	7.63e-01	0	47	104	0	60	1048575
2026-01-18 06:14:16.54	52.61	9.67	-85.2	-88.6	3.3	7.65e-01	0	47	104	0	60	1048575
2026-01-18 06:14:20.57	52.13	9.92	-85.2	-88.6	3.1	7.63e-01	0	47	104	0	60	1048571
2026-01-18 06:14:24.60	51.64	10.18	-85.2	-88.6	3.4	7.63e-01	0	47	104	0	60	1048573
2026-01-18 06:14:28.63	51.13	10.44	-85.2	-88.6	3.3	7.62e-01	0	47	104	0	60	1048572
2026-01-18 06:14:32.66	50.62	10.70	-85.2	-88.6	3.3	7.62e-01	0	47	104	0	60	1048575
2026-01-18 06:14:36.69	50.10	10.95	-85.2	-88.6	3.1	7.63e-01	0	47	104	0	60	1048574
2026-01-18 06:14:40.72	49.58	11.21	-85.2	-88.6	2.9	7.63e-01	0	47	104	0	60	1048575
2026-01-18 06:14:44.75	49.04	11.47	-84.7	-88.6	3.1	7.65e-01	0	47	104	0	60	1048572
2026-01-18 06:14:48.78	48.49	11.73	-84.7	-88.6	3.3	7.64e-01	0	47	104	0	60	1048575
2026-01-18 06:14:52.81	47.93	11.99	-84.7	-88.6	3.6	7.65e-01	0	47	104	0	60	1048575
2026-01-18 06:14:56.84	47.36	12.25	-85.2	-88.6	3.2	7.63e-01	0	47	104	0	60	1048575
2026-01-18 06:15:00.87	46.78	12.51	-85.2	-88.6	3.0	7.62e-01	0	47	104	0	60	1048571
2026-01-18 06:15:04.89	46.19	12.77	-85.2	-88.6	3.1	7.63e-01	0	47	104	0	60	1048574
2026-01-18 06:15:08.93	45.59	13.03	-85.2	-88.6	3.7	7.62e-01	0	47	104	0	60	1048573
2026-01-18 06:15:12.96	44.98	13.29	-85.2	-88.6	3.0	7.63e-01	0	47	104	0	60	1048570
2026-01-18 06:15:16.99	44.36	13.54	-85.2	-88.6	3.1	7.64e-01	0	47	104	0	60	1048574
2026-01-18 06:15:21.00	43.73	13.80	-84.7	-88.6	3.0	7.63e-01	0	47	104	0	60	1048575
2026-01-18 06:15:25.03	43.09	14.06	-85.2	-88.6	3.0	7.63e-01	0	47	104	0	60	1048568
2026-01-18 06:15:29.06	42.43	14.31	-84.7	-88.6	3.1	7.63e-01	0	47	104	0	60	1048571
2026-01-18 06:15:33.09	41.76	14.57	-85.2	-88.6	3.1	7.64e-01	0	47	104	0	60	1048573
2026-01-18 06:15:37.11	41.09	14.82	-85.2	-88.6	3.4	7.62e-01	0	47	104	0	60	1048573
2026-01-18 06:15:41.12	40.40	15.07	-85.2	-88.6	3.7	7.64e-01	0	47	104	0	60	1048575
2026-01-18 06:15:45.15	39.70	15.32	-84.7	-88.6	3.5	7.63e-01	0	47	104	0	60	1048574
2026-01-18 06:15:49.18	38.98	15.56	-85.2	-88.6	2.9	7.64e-01	0	47	104	0	60	1048574
2026-01-18 06:15:53.21	38.26	15.81	-85.2	-88.6	2.8	7.62e-01	0	47	104	0	60	1048566
2026-01-18 06:15:57.23	37.52	16.05	-85.2	-88.6	3.1	7.63e-01	0	47	104	0	60	1048571
2026-01-18 06:16:01.25	36.77	16.29	-85.2	-88.6	3.0	7.63e-01	0	47	104	0	60	1048573
2026-01-18 06:16:05.28	36.01	16.53	-84.3	-88.6	2.5	7.64e-01	0	47	104	0	60	1048574
2026-01-18 06:16:09.31	35.24	16.76	-85.2	-88.6	3.1	7.64e-01	0	47	104	0	60	1048575
2026-01-18 06:16:13.33	34.45	17.00	-85.2	-88.6	3.1	7.63e-01	0	47	104	0	60	1048568
2026-01-18 06:16:17.36	33.65	17.22	-85.2	-88.6	3.2	7.63e-01	0	47	104	0	60	1048568
2026-01-18 06:16:21.39	32.84	17.45	-85.2	-88.6	3.0	7.63e-01	0	47	104	0	60	1048575
2026-01-18 06:16:25.42	32.02	17.67	-85.2	-88.6	3.4	7.64e-01	0	47	104	0	60	1048572
2026-01-18 06:16:29.44	31.18	17.88	-85.2	-88.6	3.7	7.63e-01	0	47	104	0	60	1048575
2026-01-18 06:16:33.44	30.34	18.09	-85.2	-88.6	2.9	7.63e-01	0	47	104	0	60	1048571
2026-01-18 06:16:37.47	29.48	18.30	-85.2	-88.6	3.0	7.63e-01	0	47	104	0	60	1048574
2026-01-18 06:16:41.50	28.61	18.50	-85.2	-88.6	3.1	7.65e-01	0	47	104	0	60	1048572
2026-01-18 06:16:45.52	27.73	18.70	-85.2	-88.6	3.0	7.62e-01	0	47	104	0	60	1048575
2026-01-18 06:16:49.54	26.83	18.89	-85.2	-88.6	3.0	7.61e-01	0	47	104	0	60	1048571
2026-01-18 06:16:53.56	25.93	19.07	-85.2	-88.6	3.1	7.63e-01	0	47	104	0	60	1048575
2026-01-18 06:16:57.58	25.02	19.25	-84.7	-88.6	3.0	7.63e-01	0	47	104	0	60	1048574
2026-01-18 06:17:01.61	24.09	19.42	-84.7	-88.6	3.0	7.63e-01	0	47	104	0	60	1048569
2026-01-18 06:17:05.63	23.15	19.59	-85.2	-88.6	2.6	7.64e-01	0	47	104	0	60	1048570
2026-01-18 06:17:09.66	22.21	19.75	-85.2	-88.6	3.4	7.63e-01	0	47	104	0	60	1048573
2026-01-18 06:17:13.69	21.25	19.90	-85.2	-88.6	2.8	7.63e-01	0	47	104	0	60	1048571
2026-01-18 06:17:17.72	20.28	20.04	-84.7	-88.6	2.8	7.64e-01	0	47	104	0	60	1048574
2026-01-18 06:17:21.74	19.31	20.17	-85.2	-88.6	3.8	7.63e-01	0	47	104	0	60	1048574
2026-01-18 06:17:25.77	18.32	20.30	-85.2	-88.6	3.1	7.63e-01	0	47	104	0	60	1048572
2026-01-18 06:17:29.80	17.33	20.42	-84.7	-88.6	3.4	7.64e-01	0	47	104	0	60	1048574
2026-01-18 06:17:33.82	16.34	20.53	-85.2	-88.6	3.0	7.64e-01	0	47	104	0	60	1048569
2026-01-18 06:17:37.85	15.33	20.63	-85.2	-88.6	2.9	7.63e-01	0	47	104	0	60	1048574
2026-01-18 06:17:41.87	14.32	20.72	-85.2	-88.6	3.5	7.64e-01	0	47	104	0	60	1048572
2026-01-18 06:17:45.91	13.30	20.81	-85.2	-88.6	3.4	7.62e-01	0	47	104	0	60	1048574
2026-01-18 06:17:49.94	12.27	20.88	-85.2	-88.6	3.3	7.63e-01	0	47	104	0	60	1048575
2026-01-18 06:17:53.96	11.25	20.94	-85.2	-88.6	2.9	7.63e-01	0	47	104	0	60	1048568
2026-01-18 06:17:57.99	10.21	21.00	-85.2	-88.6	3.0	7.64e-01	0	47	104	0	60	1048574
2026-01-18 06:18:02.02	9.18	21.04	-85.2	-88.6	3.4	7.63e-01	0	47	104	0	60	1048575
2026-01-18 06:18:06.04	8.14	21.08	-85.2	-88.6	3.7	7.64e-01	0	47	104	0	60	1048571
2026-01-18 06:18:10.07	7.10	21.10	-85.2	-88.6	3.4	7.62e-01	0	47	104	0	60	1048569
2026-01-18 06:18:14.10	6.06	21.12	-85.2	-88.6	3.1	7.65e-01	0	47	104	0	60	1048574
2026-01-18 06:18:18.13	5.02	21.12	-85.2	-88.6	3.4	7.63e-01	0	47	104	0	60	1048570
2026-01-18 06:18:22.16	3.97	21.11	-85.2	-88.6	2.9	7.63e-01	0	47	104	0	60	1048575
2026-01-18 06:18:26.19	2.93	21.10	-85.2	-88.6	3.2	7.63e-01	0	47	104	0	60	1048570
2026-01-18 06:18:30.22	1.89	21.07	-85.2	-88.6	3.5	7.64e-01	0	47	104	0	60	1048575
2026-01-18 06:18:34.25	0.85	21.04	-85.2	-88.6	3.3	7.62e-01	0	47	104	0	60	1048573
2026-01-18 06:18:38.28	359.82	20.99	-85.2	-88.6	3.0	7.63e-01	0	47	104	0	60	1048575
2026-01-18 06:18:42.29	358.79	20.94	-84.7	-88.6	3.1	7.64e-01	0	47	104	0	60	1048572
2026-01-18 06:18:46.31	357.77	20.87	-84.7	-88.6	2.8	7.63e-01	0	47	104	0	60	1048571
2026-01-18 06:18:50.35	356.74	20.80	-85.2	-88.6	3.0	7.63e-01	0	47	104	0	60	1048574
2026-01-18 06:18:54.38	355.72	20.72	-85.2	-88.6	3.1	7.63e-01	0	47	104	0	60	1048575
2026-01-18 06:18:58.40	354.71	20.62	-85.2	-88.6	3.2	7.63e-01	0	47	104	0	60	1048575
2026-01-18 06:19:02.42	353.71	20.52	-85.2	-88.6	3.1	7.63e-01	0	47	104	0	60	1048575
2026-01-18 06:19:06.44	352.71	20.41	-85.2	-88.6	3.0	7.65e-01	0	47	104	0	60	1048572
2026-01-18 06:19:10.47	351.72	20.29	-84.7	-88.6	3.3	7.63e-01	0	47	104	0	60	1048575
2026-01-18 06:19:14.48	350.74	20.16	-84.7	-88.6	3.0	7.64e-01	0	47	104	0	60	1048575
2026-01-18 06:19:18.50	349.77	20.03	-85.2	-88.6	3.3	7.64e-01	0	47	104	0	60	1048573
2026-01-18 06:19:22.53	348.80	19.89	-85.2	-88.6	3.7	7.63e-01	0	47	104	0	60	1048575
2026-01-18 06:19:26.57	347.84	19.73	-85.2	-88.6	3.1	7.61e-01	0	47	104	0	60	1048573
2026-01-18 06:19:30.59	346.90	19.58	-85.2	-88.6	3.2	7.64e-01	0	47	104	0	60	1048575
2026-01-18 06:19:34.61	345.96	19.41	-85.2	-88.6	3.1	7.64e-01	0	47	104	0	60	1048572
2026-01-18 06:19:38.65	345.04	19.24	-84.7	-88.6	2.4	7.63e-01	0	47	104	0	60	1048575
2026-01-18 06:19:42.67	344.12	19.06	-85.2	-88.6	3.5	7.63e-01	0	47	104	0	60	1048574
2026-01-18 06:19:46.69	343.22	18.87	-85.2	-88.6	3.5	7.64e-01	0	47	104	0	60	1048575
2026-01-18 06:19:50.72	342.33	18.68	-85.2	-88.6	3.7	7.63e-01	0	47	104	0	60	1048569
2026-01-18 06:19:54.74	341.45	18.49	-85.2	-88.6	3.1	7.63e-01	0	47	104	0	60	1048575
2026-01-18 06:19:58.77	340.58	18.29	-85.2	-88.6	2.9	7.63e-01	0	47	104	0	60	1048575
2026-01-18 06:20:02.80	339.72	18.08	-84.7	-88.6	3.5	7.64e-01	0	47	104	0	60	1048573
2026-01-18 06:20:06.83	338.87	17.87	-84.7	-88.6	3.2	7.63e-01	0	47	104	0	60	1048575
2026-01-18 06:20:10.86	338.04	17.65	-85.2	-88.6	3.6	7.62e-01	0	47	104	0	60	1048571
2026-01-18 06:20:14.89	337.21	17.43	-85.2	-88.6	3.4	7.63e-01	0	47	104	0	60	1048575
2026-01-18 06:20:18.92	336.40	17.20	-85.2	-88.6	2.9	7.63e-01	0	47	104	0	60	1048575
2026-01-18 06:20:22.94	335.61	16.98	-85.2	-88.6	2.9	7.63e-01	0	47	104	0	60	1048575
2026-01-18 06:20:26.97	334.82	16.74	-85.2	-88.6	2.9	7.63e-01	0	47	104	0	60	1048574
2026-01-18 06:20:31.00	334.05	16.51	-85.2	-88.6	3.5	7.63e-01	0	47	104	0	60	1048575
2026-01-18 06:20:35.03	333.29	16.27	-85.2	-88.6	2.8	7.62e-01	0	47	104	0	60	1048573
2026-01-18 06:20:39.06	332.54	16.03	-85.2	-88.6	3.6	7.64e-01	0	47	104	0	60	1048565
2026-01-18 06:20:43.09	331.80	15.79	-85.2	-88.6	3.0	7.63e-01	0	47	104	0	60	1048567
2026-01-18 06:20:47.12	331.07	15.54	-85.2	-88.6	3.0	7.64e-01	0	47	104	0	60	1048571
2026-01-18 06:20:51.14	330.36	15.30	-85.2	-88.6	3.0	7.64e-01	0	47	104	0	60	1048575
2026-01-18 06:20:55.16	329.66	15.05	-84.3	-88.6	3.0	7.64e-01	0	47	104	0	60	1048575
2026-01-18 06:20:59.20	328.97	14.79	-84.7	-88.6	3.5	7.62e-01	0	47	104	0	60	1048573
2026-01-18 06:21:03.23	328.30	14.54	-85.2	-88.6	2.8	7.63e-01	0	47	104	0	60	1048575
2026-01-18 06:21:07.26	327.63	14.29	-85.2	-88.6	3.8	7.63e-01	0	47	104	0	60	1048575
2026-01-18 06:21:11.29	326.98	14.03	-85.2	-88.6	3.5	7.62e-01	0	47	104	0	60	1048571
2026-01-18 06:21:15.32	326.33	13.78	-85.2	-88.6	3.6	7.62e-01	0	47	104	0	60	1048574
2026-01-18 06:21:19.34	325.70	13.52	-85.2	-88.6	2.9	7.63e-01	0	47	104	0	60	1048574
2026-01-18 06:21:23.37	325.08	13.26	-85.2	-88.6	3.3	7.64e-01	0	47	104	0	60	1048574
2026-01-18 06:21:27.39	324.48	13.00	-85.2	-88.6	3.2	7.65e-01	0	47	104	0	60	1048574
2026-01-18 06:21:31.43	323.88	12.74	-85.2	-88.6	3.2	7.63e-01	0	47	104	0	60	1048564
2026-01-18 06:21:35.46	323.29	12.49	-85.2	-88.6	3.5	7.64e-01	0	47	104	0	60	1048575
2026-01-18 06:21:39.49	322.71	12.23	-85.2	-88.6	2.9	7.62e-01	0	47	104	0	60	1048573
2026-01-18 06:21:43.52	322.14	11.97	-85.2	-88.6	3.0	7.63e-01	0	47	104	0	60	1048569
2026-01-18 06:21:47.54	321.59	11.71	-85.2	-88.6	3.3	7.56e-01	0	47	104	0	60	1048575
2026-01-18 06:21:51.56	321.04	11.45	-85.2	-88.6	3.4	7.64e-01	0	47	104	0	60	1048574
2026-01-18 06:21:55.59	320.50	11.19	-83.5	-88.6	3.1	7.63e-01	0	47	104	0	60	1048575
2026-01-18 06:21:59.61	319.98	10.93	-85.2	-88.6	3.0	7.63e-01	0	47	104	0	60	1048572
2026-01-18 06:22:03.63	319.46	10.67	-85.2	-88.6	3.0	7.62e-01	0	47	104	0	60	1048573
2026-01-18 06:22:07.67	318.95	10.42	-85.2	-88.6	3.1	7.63e-01	0	47	104	0	60	1048573
2026-01-18 06:22:11.70	318.45	10.16	-85.2	-88.6	3.5	7.63e-01	0	47	104	0	60	1048575
2026-01-18 06:22:15.72	317.96	9.90	-85.2	-88.6	3.4	7.64e-01	0	47	104	0	60	1048574
2026-01-18 06:22:19.76	317.48	9.65	-84.7	-88.6	3.3	7.61e-01	0	47	104	0	60	1048573
2026-01-18 06:22:23.78	317.00	9.39	-85.2	-88.6	3.1	7.62e-01	0	47	104	0	60	1048574
2026-01-18 06:22:27.81	316.54	9.14	-85.2	-88.6	3.0	7.63e-01	0	47	104	0	60	1048574
2026-01-18 06:22:31.84	316.08	8.88	-85.2	-88.6	2.9	7.62e-01	0	47	104	0	60	1048574
2026-01-18 06:22:35.86	315.63	8.63	-84.7	-88.6	3.1	7.62e-01	0	47	104	0	60	1048574
2026-01-18 06:22:39.89	315.19	8.38	-83.9	-88.6	3.3	7.65e-01	0	47	104	0	60	1048574
2026-01-18 06:22:43.92	314.76	8.13	-84.7	-88.6	3.0	7.63e-01	0	47	104	0	60	1048575
2026-01-18 06:22:47.94	314.33	7.88	-85.2	-88.6	3.2	7.62e-01	0	47	104	0	60	1048574
2026-01-18 06:22:51.96	313.92	7.63	-85.2	-88.6	2.8	7.64e-01	0	47	104	0	60	1048573
2026-01-18 06:22:55.98	313.51	7.38	-85.2	-88.6	3.5	7.63e-01	0	47	104	0	60	1048575
2026-01-18 06:22:59.99	313.11	7.13	-85.2	-88.6	3.4	7.64e-01	0	47	104	0	60	1048575
2026-01-18 06:23:04.01	312.71	6.89	-85.2	-88.6	3.1	7.63e-01	0	47	104	0	60	1048573
2026-01-18 06:23:08.01	312.32	6.64	-85.2	-88.6	3.5	7.63e-01	0	47	104	0	60	1048575
2026-01-18 06:23:12.04	311.94	6.40	-84.7	-88.6	3.4	7.63e-01	0	47	104	0	60	1048571
2026-01-18 06:23:16.07	311.56	6.16	-84.7	-88.6	2.8	7.64e-01	0	47	104	0	60	1048574
2026-01-18 06:23:20.10	311.19	5.91	-85.2	-88.6	2.9	7.64e-01	0	47	104	0	60	1048572
2026-01-18 06:23:24.11	310.83	5.67	-85.2	-88.6	3.0	7.62e-01	0	47	104	0	60	1048575
2026-01-18 06:23:28.13	310.47	5.43	-85.2	-88.6	3.0	7.63e-01	0	47	104	0	60	1048574
2026-01-18 06:23:32.15	310.12	5.20	-85.2	-88.6	2.9	7.64e-01	0	47	104	0	60	1048572
2026-01-18 06:23:36.18	309.78	4.96	-85.2	-88.6	3.2	7.63e-01	0	47	104	0	60	1048572
2026-01-18 06:23:40.20	309.44	4.72	-85.2	-88.6	3.3	7.63e-01	0	47	104	0	60	1048575
2026-01-18 06:23:44.22	309.11	4.49	-85.2	-88.6	3.1	7.61e-01	0	47	104	0	60	1048570
2026-01-18 06:23:48.25	308.78	4.25	-85.2	-88.6	3.1	7.63e-01	0	47	104	0	60	1048575
2026-01-18 06:23:52.28	308.45	4.02	-85.2	-88.6	3.1	7.63e-01	0	47	104	0	60	1048575
2026-01-18 06:23:56.31	308.14	3.79	-85.2	-88.6	3.1	7.65e-01	0	47	104	0	60	1048573
2026-01-18 06:24:00.33	307.82	3.56	-85.2	-88.6	3.4	7.64e-01	0	47	104	0	60	1048574
2026-01-18 06:24:04.36	307.52	3.33	-85.2	-88.6	3.4	7.64e-01	0	47	104	0	60	1048575
2026-01-18 06:24:08.40	307.21	3.10	-85.2	-88.6	3.0	7.62e-01	0	47	104	0	60	1048574
2026-01-18 06:24:12.41	306.92	2.87	-85.2	-88.6	3.1	7.63e-01	0	47	104	0	60	1048573
2026-01-18 06:24:16.44	306.62	2.65	-84.7	-88.6	3.7	7.63e-01	0	47	104	0	60	1048575
2026-01-18 06:24:20.48	306.33	2.42	-85.2	-88.6	3.5	7.62e-01	0	47	104	0	60	1048575
2026-01-18 06:24:24.51	306.05	2.20	-84.7	-88.6	3.3	7.64e-01	0	47	104	0	60	1048575
2026-01-18 06:24:28.54	305.77	1.97	-84.7	-88.6	3.1	7.62e-01	0	47	104	0	60	1048575
2026-01-18 06:24:32.56	305.50	1.75	-85.2	-88.6	2.7	7.63e-01	0	47	104	0	60	1048575
2026-01-18 06:24:36.59	305.23	1.53	-85.2	-88.6	2.8	7.59e-01	0	47	104	0	60	1048574
2026-01-18 06:24:40.62	304.96	1.31	-85.2	-88.6	3.6	7.65e-01	0	47	104	0	60	1048575
2026-01-18 06:24:44.65	304.70	1.09	-85.2	-88.6	3.2	7.64e-01	0	47	104	0	60	1048570
2026-01-18 06:24:48.68	304.44	0.88	-85.2	-88.6	2.9	7.62e-01	0	47	104	0	60	1048566
2026-01-18 06:24:52.72	304.18	0.66	-85.2	-88.6	2.9	7.64e-01	0	47	104	0	60	1048563
2026-01-18 06:24:56.75	303.93	0.44	-85.2	-88.6	3.0	7.64e-01	0	47	104	0	60	1048575
2026-01-18 06:25:00.77	303.69	0.23	-83.5	-88.6	3.3	7.63e-01	0	47	104	0	60	1048573
2026-01-18 06:25:04.79	303.44	0.02	-85.2	-88.6	2.9	7.62e-01	0	47	104	0	60	1048574

#Closed at: 2026-01-18 06:25:06
#Recorded file [0 MB]: D:/Data/35015_260118_091131.dat