passes_logs/2026/01/18/R3.2S-Naryan-Mar/R3.2S-Naryan-Mar__20260118_171710_TY-39_rec.log

#Pass ID: 20260118_171710_TY-39
#Satellite: TY-39
#Configuration: TY-39
#almurnet v.1.7.20240730
#Start time: 2026-01-18 17:24:18

#Version: 2.2.20231116
#Station: R3.2S-Naryan-Mar
#Location: 53.008057 lon 67.646978 lat
#TLE: 1 51832U 22019J   26017.98752730  .00001701  00000-0  82876-4 0  9994
#TLE: 2 51832  97.3649  84.6051 0009812  43.2542 316.9462 15.19645685214988

#Time	Az	El	Level	Level2	SNR	BER	BlckErr	Temp	State	Recorded	gain1	gain2
2026-01-18 17:24:18.88	325.55	35.90	-83.1	-79.0	2.3	0.00e+00	0	49	0	0	60	1048574
2026-01-18 17:24:20.89	325.96	35.23	-83.5	-79.0	2.3	0.00e+00	0	49	104	0	60	1048574
2026-01-18 17:24:22.91	326.36	34.58	-83.1	-79.0	2.6	0.00e+00	0	49	104	0	60	1048573
2026-01-18 17:24:24.92	326.74	33.94	-83.5	-79.0	2.4	0.00e+00	0	49	104	0	60	1048575
2026-01-18 17:24:26.93	327.11	33.31	-83.5	-79.0	2.4	0.00e+00	0	49	104	0	60	1048574
2026-01-18 17:24:28.95	327.47	32.70	-83.5	-79.0	2.3	0.00e+00	0	49	104	0	60	1048564
2026-01-18 17:24:30.95	327.80	32.11	-83.5	-79.0	2.4	0.00e+00	0	49	104	0	60	1048573
2026-01-18 17:24:32.97	328.13	31.52	-83.1	-79.0	2.3	0.00e+00	0	49	104	0	60	1048575
2026-01-18 17:24:34.98	328.45	30.95	-83.5	-79.0	2.3	0.00e+00	0	49	104	0	60	1048574
2026-01-18 17:24:37.00	328.75	30.38	-83.1	-79.0	2.4	0.00e+00	0	49	104	0	60	1048575
2026-01-18 17:24:39.01	329.04	29.84	-83.5	-79.0	2.6	0.00e+00	0	49	104	0	60	1048568
2026-01-18 17:24:41.02	329.32	29.30	-83.5	-79.0	2.4	0.00e+00	0	49	104	0	60	1048574
2026-01-18 17:24:43.04	329.60	28.77	-83.1	-79.0	2.4	0.00e+00	0	49	104	0	60	1048575
2026-01-18 17:24:45.05	329.86	28.26	-83.5	-79.0	2.4	0.00e+00	0	49	104	0	60	1048565
2026-01-18 17:24:47.07	330.12	27.75	-82.8	-79.0	2.4	0.00e+00	0	49	104	0	60	1048573
2026-01-18 17:24:49.08	330.36	27.26	-83.5	-79.0	2.4	0.00e+00	0	49	104	0	60	1048575
2026-01-18 17:24:51.10	330.60	26.77	-83.5	-79.0	2.4	0.00e+00	0	49	104	0	60	1048570
2026-01-18 17:24:53.12	330.83	26.30	-83.5	-79.0	2.4	0.00e+00	0	49	104	0	60	1048575
2026-01-18 17:24:55.13	331.06	25.83	-83.5	-79.0	2.4	0.00e+00	0	49	104	0	60	1048568
2026-01-18 17:24:57.15	331.28	25.38	-83.1	-79.0	2.3	0.00e+00	0	49	104	0	60	1048567
2026-01-18 17:24:59.16	331.49	24.93	-83.5	-79.0	2.3	0.00e+00	0	49	104	0	60	1048575
2026-01-18 17:25:01.16	331.69	24.50	-82.8	-79.0	2.4	0.00e+00	0	49	104	0	60	1048572
2026-01-18 17:25:03.17	331.89	24.07	-83.5	-79.0	2.3	0.00e+00	0	49	104	0	60	1048574
2026-01-18 17:25:05.19	332.08	23.65	-83.1	-79.0	2.3	0.00e+00	0	49	104	0	60	1048575
2026-01-18 17:25:07.20	332.27	23.24	-83.5	-79.0	2.3	0.00e+00	0	49	104	0	60	1048575
2026-01-18 17:25:09.22	332.45	22.83	-83.5	-79.0	2.4	0.00e+00	0	49	104	0	60	1048575
2026-01-18 17:25:11.23	332.63	22.43	-83.1	-79.0	2.4	0.00e+00	0	49	104	0	60	1048567
2026-01-18 17:25:13.24	332.80	22.04	-83.1	-79.0	2.4	0.00e+00	0	49	104	0	60	1048570
2026-01-18 17:25:15.26	332.97	21.66	-83.1	-79.0	2.4	0.00e+00	0	49	104	0	60	1048568
2026-01-18 17:25:17.27	333.13	21.28	-83.5	-79.0	2.4	0.00e+00	0	49	104	0	60	1048575
2026-01-18 17:25:19.28	333.29	20.91	-83.1	-79.0	2.4	0.00e+00	0	49	104	0	60	1048572
2026-01-18 17:25:21.29	333.45	20.55	-83.5	-79.0	2.3	0.00e+00	0	49	104	0	60	1048575
2026-01-18 17:25:23.31	333.60	20.19	-83.1	-79.0	2.3	0.00e+00	0	49	104	0	60	1048572
2026-01-18 17:25:25.32	333.75	19.84	-83.1	-79.0	2.3	0.00e+00	0	49	104	0	60	1048575
2026-01-18 17:25:27.33	333.89	19.50	-83.5	-79.0	2.4	0.00e+00	0	49	104	0	60	1048573
2026-01-18 17:25:29.35	334.03	19.16	-83.5	-79.0	2.3	0.00e+00	0	49	104	0	60	1048575
2026-01-18 17:25:31.35	334.17	18.83	-83.5	-79.0	2.3	0.00e+00	0	49	104	0	60	1048568
2026-01-18 17:25:33.37	334.31	18.50	-83.5	-79.0	2.4	0.00e+00	0	49	104	0	60	1048569
2026-01-18 17:25:35.38	334.44	18.18	-83.5	-79.0	2.3	0.00e+00	0	49	104	0	60	1048572
2026-01-18 17:25:37.39	334.57	17.86	-83.5	-79.0	2.5	0.00e+00	0	49	104	0	60	1048568
2026-01-18 17:25:39.40	334.69	17.55	-83.1	-79.0	2.4	0.00e+00	0	49	104	0	60	1048574
2026-01-18 17:25:41.42	334.81	17.24	-83.5	-79.0	2.4	0.00e+00	0	49	104	0	60	1048569
2026-01-18 17:25:43.43	334.93	16.94	-83.5	-79.0	2.5	0.00e+00	0	49	104	0	60	1048568
2026-01-18 17:25:45.45	335.05	16.64	-83.5	-79.0	2.3	0.00e+00	0	49	104	0	60	1048575
2026-01-18 17:25:47.46	335.17	16.35	-83.5	-79.0	2.2	0.00e+00	0	49	104	0	60	1048574
2026-01-18 17:25:49.47	335.28	16.06	-83.1	-79.0	2.4	0.00e+00	0	49	104	0	60	1048575
2026-01-18 17:25:51.49	335.39	15.78	-83.5	-79.0	2.3	0.00e+00	0	49	104	0	60	1048575
2026-01-18 17:25:53.50	335.50	15.50	-82.8	-79.0	2.4	0.00e+00	0	49	104	0	60	1048573
2026-01-18 17:25:55.51	335.60	15.22	-83.5	-79.0	2.5	0.00e+00	0	49	104	0	60	1048565
2026-01-18 17:25:57.52	335.71	14.95	-83.5	-79.0	2.4	0.00e+00	0	49	104	0	60	1048569
2026-01-18 17:25:59.52	335.81	14.68	-83.1	-79.0	2.3	0.00e+00	0	49	104	0	60	1048574
2026-01-18 17:26:01.54	335.91	14.42	-83.5	-79.0	2.4	0.00e+00	0	49	104	0	60	1048565
2026-01-18 17:26:03.56	336.01	14.15	-83.1	-79.0	2.3	0.00e+00	0	49	104	0	60	1048575
2026-01-18 17:26:05.56	336.10	13.90	-83.5	-79.0	2.4	0.00e+00	0	49	104	0	60	1048574
2026-01-18 17:26:07.58	336.20	13.64	-83.5	-79.0	2.4	0.00e+00	0	49	104	0	60	1048560
2026-01-18 17:26:09.59	336.29	13.39	-83.5	-79.0	2.4	0.00e+00	0	49	104	0	60	1048573
2026-01-18 17:26:11.59	336.38	13.15	-83.5	-79.0	2.4	0.00e+00	0	50	104	0	60	1048575
2026-01-18 17:26:13.60	336.47	12.90	-83.1	-79.0	2.3	0.00e+00	0	49	104	0	60	1048567
2026-01-18 17:26:15.62	336.56	12.66	-83.5	-79.0	2.4	0.00e+00	0	49	104	0	60	1048573
2026-01-18 17:26:17.63	336.65	12.42	-83.1	-79.0	2.4	0.00e+00	0	49	104	0	60	1048571
2026-01-18 17:26:19.65	336.73	12.19	-83.1	-79.0	2.4	0.00e+00	0	49	104	0	60	1048575
2026-01-18 17:26:21.66	336.81	11.96	-83.1	-79.0	2.4	0.00e+00	0	49	104	0	60	1048575
2026-01-18 17:26:23.68	336.90	11.73	-83.5	-79.0	2.4	0.00e+00	0	49	104	0	60	1048566
2026-01-18 17:26:25.69	336.98	11.50	-83.5	-79.0	2.5	0.00e+00	0	49	104	0	60	1048574
2026-01-18 17:26:27.70	337.06	11.28	-83.5	-79.0	2.5	0.00e+00	0	49	104	0	60	1048571
2026-01-18 17:26:29.72	337.13	11.06	-83.5	-79.0	2.3	0.00e+00	0	49	104	0	60	1048574
2026-01-18 17:26:31.73	337.21	10.84	-83.1	-79.0	2.4	0.00e+00	0	49	104	0	60	1048566
2026-01-18 17:26:33.75	337.29	10.62	-83.5	-79.0	2.4	0.00e+00	0	49	104	0	60	1048571
2026-01-18 17:26:35.77	337.36	10.41	-83.1	-79.0	2.7	0.00e+00	0	49	104	0	60	1048575
2026-01-18 17:26:37.78	337.43	10.20	-83.5	-79.0	2.4	0.00e+00	0	49	104	0	60	1048573
2026-01-18 17:26:39.79	337.51	9.99	-83.1	-79.0	2.4	0.00e+00	0	49	104	0	60	1048565
2026-01-18 17:26:41.80	337.58	9.78	-83.1	-79.0	2.4	0.00e+00	0	49	104	0	60	1048570
2026-01-18 17:26:43.81	337.65	9.58	-83.5	-79.0	2.3	0.00e+00	0	49	104	0	60	1048569
2026-01-18 17:26:45.83	337.72	9.37	-83.1	-79.0	2.4	0.00e+00	0	49	104	0	60	1048570
2026-01-18 17:26:47.84	337.78	9.18	-83.5	-79.0	2.4	0.00e+00	0	49	104	0	60	1048575
2026-01-18 17:26:49.86	337.85	8.98	-83.5	-79.0	2.3	0.00e+00	0	49	104	0	60	1048567
2026-01-18 17:26:51.88	337.92	8.78	-83.5	-79.0	2.4	0.00e+00	0	49	104	0	60	1048575
2026-01-18 17:26:53.89	337.98	8.59	-83.5	-79.0	2.4	0.00e+00	0	49	104	0	60	1048571
2026-01-18 17:26:55.91	338.05	8.39	-82.8	-79.0	2.3	0.00e+00	0	49	104	0	60	1048574
2026-01-18 17:26:57.92	338.11	8.20	-83.5	-79.0	2.5	0.00e+00	0	49	104	0	60	1048570
2026-01-18 17:26:59.93	338.17	8.02	-82.8	-79.0	2.4	0.00e+00	0	49	104	0	60	1048567
2026-01-18 17:27:01.95	338.23	7.83	-83.5	-79.0	2.4	0.00e+00	0	49	104	0	60	1048573
2026-01-18 17:27:03.96	338.29	7.65	-83.5	-79.0	2.4	0.00e+00	0	49	104	0	60	1048573
2026-01-18 17:27:05.98	338.35	7.46	-83.5	-79.0	2.4	0.00e+00	0	49	104	0	60	1048575
2026-01-18 17:27:08.00	338.41	7.28	-83.5	-79.0	2.4	0.00e+00	0	49	104	0	60	1048571
2026-01-18 17:27:10.02	338.47	7.10	-82.8	-79.0	2.4	0.00e+00	0	49	104	0	60	1048573
2026-01-18 17:27:12.03	338.53	6.92	-83.5	-79.0	2.4	0.00e+00	0	49	104	0	60	1048567
2026-01-18 17:27:14.04	338.58	6.75	-83.1	-79.0	2.4	0.00e+00	0	49	104	0	60	1048575
2026-01-18 17:27:16.06	338.64	6.57	-83.5	-79.0	2.5	0.00e+00	0	49	104	0	60	1048575
2026-01-18 17:27:18.07	338.70	6.40	-83.5	-79.0	2.5	0.00e+00	0	49	104	0	60	1048575
2026-01-18 17:27:20.08	338.75	6.23	-83.1	-79.0	2.4	0.00e+00	0	49	104	0	60	1048575
2026-01-18 17:27:22.10	338.80	6.06	-83.5	-79.0	2.5	0.00e+00	0	49	104	0	60	1048570
2026-01-18 17:27:24.11	338.86	5.89	-83.1	-79.0	2.4	0.00e+00	0	49	104	0	60	1048568
2026-01-18 17:27:26.13	338.91	5.72	-83.5	-79.0	2.5	0.00e+00	0	49	104	0	60	1048575
2026-01-18 17:27:28.14	338.96	5.56	-83.5	-79.0	2.3	0.00e+00	0	49	104	0	60	1048569
2026-01-18 17:27:30.15	339.01	5.39	-83.5	-79.0	2.4	0.00e+00	0	49	104	0	60	1048567
2026-01-18 17:27:32.16	339.06	5.23	-83.5	-79.0	2.4	0.00e+00	0	49	104	0	60	1048571
2026-01-18 17:27:34.17	339.11	5.07	-83.1	-79.0	2.4	0.00e+00	0	49	104	0	60	1048569
2026-01-18 17:27:36.18	339.16	4.91	-83.5	-79.0	2.4	0.00e+00	0	49	104	0	60	1048569
2026-01-18 17:27:38.19	339.21	4.75	-83.1	-79.0	2.4	0.00e+00	0	49	104	0	60	1048553
2026-01-18 17:27:40.21	339.26	4.59	-83.5	-79.0	2.4	0.00e+00	0	49	104	0	60	1048571
2026-01-18 17:27:42.22	339.31	4.44	-83.5	-79.0	2.6	0.00e+00	0	49	104	0	60	1048572
2026-01-18 17:27:44.23	339.36	4.28	-83.1	-79.0	2.4	0.00e+00	0	49	104	0	60	1048573
2026-01-18 17:27:46.24	339.40	4.13	-83.5	-79.0	2.4	0.00e+00	0	49	104	0	60	1048575
2026-01-18 17:27:48.26	339.45	3.97	-82.8	-79.0	2.5	0.00e+00	0	49	104	0	60	1048574
2026-01-18 17:27:50.27	339.50	3.82	-83.5	-79.0	2.4	0.00e+00	0	49	104	0	60	1048575
2026-01-18 17:27:52.29	339.54	3.67	-83.1	-79.0	2.4	0.00e+00	0	49	104	0	60	1048574
2026-01-18 17:27:54.31	339.59	3.52	-83.5	-79.0	2.4	0.00e+00	0	49	104	0	60	1048575
2026-01-18 17:27:56.32	339.63	3.37	-83.5	-79.0	2.4	0.00e+00	0	49	104	0	60	1048573
2026-01-18 17:27:58.34	339.68	3.22	-83.5	-79.0	2.7	0.00e+00	0	49	104	0	60	1048563
2026-01-18 17:28:00.36	339.72	3.08	-83.5	-79.0	2.4	0.00e+00	0	49	104	0	60	1048573
2026-01-18 17:28:02.36	339.76	2.93	-82.8	-79.0	2.4	0.00e+00	0	49	104	0	60	1048574
2026-01-18 17:28:04.37	339.81	2.79	-83.5	-79.0	2.4	0.00e+00	0	49	104	0	60	1048572
2026-01-18 17:28:06.39	339.85	2.64	-82.8	-79.0	2.4	0.00e+00	0	49	104	0	60	1048575
2026-01-18 17:28:08.40	339.89	2.50	-83.5	-79.0	2.4	0.00e+00	0	49	104	0	60	1048572
2026-01-18 17:28:10.42	339.93	2.36	-83.5	-79.0	2.4	0.00e+00	0	49	104	0	60	1048569
2026-01-18 17:28:12.43	339.97	2.22	-83.1	-79.0	2.4	0.00e+00	0	49	104	0	60	1048575
2026-01-18 17:28:14.45	340.01	2.08	-83.5	-79.0	2.4	0.00e+00	0	49	104	0	60	1048575
2026-01-18 17:28:16.47	340.05	1.94	-83.1	-79.0	2.4	0.00e+00	0	49	104	0	60	1048569
2026-01-18 17:28:18.48	340.09	1.80	-83.5	-79.0	2.3	0.00e+00	0	49	104	0	60	1048574
2026-01-18 17:28:20.48	340.13	1.67	-83.5	-79.0	2.4	0.00e+00	0	49	104	0	60	1048572
2026-01-18 17:28:22.50	340.17	1.53	-83.5	-79.0	2.4	0.00e+00	0	49	104	0	60	1048575
2026-01-18 17:28:24.51	340.21	1.39	-83.5	-79.0	2.5	0.00e+00	0	49	104	0	60	1048566
2026-01-18 17:28:26.52	340.25	1.26	-83.1	-79.0	2.5	0.00e+00	0	49	104	0	60	1048561
2026-01-18 17:28:28.54	340.29	1.12	-83.5	-79.0	2.4	0.00e+00	0	49	104	0	60	1048570
2026-01-18 17:28:30.56	340.33	0.99	-83.1	-79.0	2.2	0.00e+00	0	49	104	0	60	1048573
2026-01-18 17:28:32.57	340.36	0.86	-83.5	-79.0	2.5	0.00e+00	0	49	104	0	60	1048574
2026-01-18 17:28:34.59	340.40	0.73	-83.5	-79.0	2.5	0.00e+00	0	49	104	0	60	1048575
2026-01-18 17:28:36.60	340.44	0.60	-83.5	-79.0	2.4	0.00e+00	0	49	104	0	60	1048570
2026-01-18 17:28:38.62	340.48	0.47	-83.5	-79.0	2.4	0.00e+00	0	49	104	0	60	1048571
2026-01-18 17:28:40.62	340.51	0.34	-83.1	-79.0	2.4	0.00e+00	0	49	104	0	60	1048573
2026-01-18 17:28:42.64	340.55	0.21	-83.5	-79.0	2.3	0.00e+00	0	49	104	0	60	1048575
2026-01-18 17:28:44.65	340.58	0.08	-83.1	-79.0	2.4	0.00e+00	0	49	104	0	60	1048574
2026-01-18 17:28:46.67	340.62	-0.05	-83.5	-79.0	2.4	0.00e+00	0	49	104	0	60	1048575

#Closed at: 2026-01-18 17:28:47
#Recorded file [0 MB]: D:/Data/35015_260118_202418.dat