passes_logs/2026/01/18/R3.2S-Naryan-Mar/R3.2S-Naryan-Mar__20260118_080043_NOAA_21_JPSS-2_rec.log

#Pass ID: 20260118_080043_NOAA 21 (JPSS-2)
#Satellite: NOAA 21 (JPSS-2)
#Configuration: NOAA-21
#almurnet v.1.7.20240730
#Start time: 2026-01-18 08:09:49

#Version: 2.2.20231116
#Station: R3.2S-Naryan-Mar
#Location: 53.008057 lon 67.646978 lat
#TLE: 1 54234U 22150A   26017.26823908  .00000042  00000+0  40962-4 0  9992
#TLE: 2 54234  98.7501 318.1405 0000613 274.2947  85.8159 14.19535194165131

#Time	Az	El	Level	Level2	SNR	BER	BlckErr	Temp	State	Recorded	gain1	gain2
2026-01-18 08:09:49.00	348.81	51.59	-84.7	-88.6	5.0	7.76e-01	0	47	0	0	60	1048575
2026-01-18 08:09:51.02	348.42	50.92	-85.2	-88.8	2.8	1.56e+00	0	48	104	0	60	1048575
2026-01-18 08:09:53.03	348.05	50.27	-85.2	-88.8	3.0	1.56e+00	0	48	104	0	60	1048573
2026-01-18 08:09:55.04	347.69	49.62	-85.2	-88.8	2.7	1.56e+00	0	48	104	0	60	1048573
2026-01-18 08:09:57.06	347.35	48.98	-85.2	-88.8	2.6	1.56e+00	0	48	104	0	60	1048574
2026-01-18 08:09:59.08	347.02	48.34	-85.2	-88.8	2.9	1.56e+00	0	48	104	0	60	1048574
2026-01-18 08:10:01.09	346.71	47.72	-85.2	-88.8	2.8	1.56e+00	0	48	104	0	60	1048574
2026-01-18 08:10:03.10	346.41	47.10	-85.2	-88.8	2.7	1.56e+00	0	47	104	0	60	1048568
2026-01-18 08:10:05.11	346.12	46.50	-85.2	-88.8	2.6	1.56e+00	0	48	104	0	60	1048575
2026-01-18 08:10:07.12	345.84	45.90	-85.2	-88.8	2.4	1.56e+00	0	48	104	0	60	1048572
2026-01-18 08:10:09.14	345.57	45.30	-85.2	-88.8	2.7	1.56e+00	0	48	104	0	60	1048574
2026-01-18 08:10:11.16	345.31	44.72	-85.2	-88.8	2.6	1.56e+00	0	48	104	0	60	1048571
2026-01-18 08:10:13.17	345.06	44.14	-85.2	-88.8	2.6	1.56e+00	0	48	104	0	60	1048575
2026-01-18 08:10:15.19	344.82	43.57	-85.2	-88.8	2.8	1.56e+00	0	47	104	0	60	1048572
2026-01-18 08:10:17.20	344.59	43.01	-85.2	-88.8	2.9	1.56e+00	0	47	104	0	60	1048574
2026-01-18 08:10:19.22	344.37	42.46	-85.2	-88.8	2.8	1.56e+00	0	48	104	0	60	1048575
2026-01-18 08:10:21.23	344.16	41.91	-85.2	-88.8	2.8	1.56e+00	0	48	104	0	60	1048573
2026-01-18 08:10:23.24	343.95	41.37	-85.2	-88.8	2.7	1.56e+00	0	48	104	0	60	1048575
2026-01-18 08:10:25.25	343.75	40.85	-85.2	-88.8	2.6	1.56e+00	0	48	104	0	60	1048575
2026-01-18 08:10:27.27	343.56	40.32	-85.2	-88.8	2.8	1.56e+00	0	48	104	0	60	1048575
2026-01-18 08:10:29.28	343.37	39.81	-85.2	-88.8	2.7	1.56e+00	0	47	104	0	60	1048571
2026-01-18 08:10:31.30	343.19	39.30	-85.2	-88.8	2.6	1.56e+00	0	48	104	0	60	1048574
2026-01-18 08:10:33.31	343.01	38.79	-85.2	-88.8	2.7	1.56e+00	0	48	104	0	60	1048573
2026-01-18 08:10:35.32	342.84	38.30	-85.2	-88.8	2.8	1.56e+00	0	48	104	0	60	1048572
2026-01-18 08:10:37.33	342.68	37.81	-85.2	-88.8	2.8	1.56e+00	0	48	104	0	60	1048574
2026-01-18 08:10:39.35	342.52	37.33	-85.2	-88.8	2.7	1.56e+00	0	48	104	0	60	1048573
2026-01-18 08:10:41.35	342.36	36.86	-85.2	-88.8	2.7	1.56e+00	0	47	104	0	60	1048575
2026-01-18 08:10:43.36	342.21	36.39	-85.2	-88.8	2.8	1.56e+00	0	47	104	0	60	1048575
2026-01-18 08:10:45.38	342.07	35.93	-85.2	-88.8	2.7	1.56e+00	0	48	104	0	60	1048574
2026-01-18 08:10:47.40	341.93	35.47	-84.7	-88.8	2.9	1.56e+00	0	47	104	0	60	1048571
2026-01-18 08:10:49.41	341.79	35.02	-85.2	-88.8	2.7	1.56e+00	0	48	104	0	60	1048573
2026-01-18 08:10:51.42	341.66	34.58	-85.2	-88.8	2.7	1.56e+00	0	47	104	0	60	1048575
2026-01-18 08:10:53.43	341.53	34.15	-85.2	-88.8	2.5	1.56e+00	0	47	104	0	60	1048574
2026-01-18 08:10:55.45	341.40	33.71	-85.2	-88.8	2.9	1.56e+00	0	48	104	0	60	1048572
2026-01-18 08:10:57.46	341.28	33.29	-85.2	-88.8	2.6	1.56e+00	0	48	104	0	60	1048573
2026-01-18 08:10:59.48	341.16	32.87	-85.2	-88.8	2.7	1.56e+00	0	48	104	0	60	1048574
2026-01-18 08:11:01.49	341.04	32.46	-85.2	-88.8	2.6	1.56e+00	0	48	104	0	60	1048575
2026-01-18 08:11:03.51	340.93	32.05	-85.2	-88.8	2.5	1.56e+00	0	48	104	0	60	1048575
2026-01-18 08:11:05.52	340.82	31.64	-85.2	-88.8	2.9	1.56e+00	0	48	104	0	60	1048574
2026-01-18 08:11:07.54	340.71	31.24	-85.2	-88.8	2.7	1.56e+00	0	47	104	0	60	1048575
2026-01-18 08:11:09.55	340.61	30.85	-85.2	-88.8	2.6	1.56e+00	0	48	104	0	60	1048575
2026-01-18 08:11:11.56	340.50	30.47	-85.2	-88.8	2.7	1.56e+00	0	47	104	0	60	1048575
2026-01-18 08:11:13.57	340.41	30.09	-85.2	-88.8	2.6	1.56e+00	0	48	104	0	60	1048573
2026-01-18 08:11:15.58	340.31	29.71	-84.7	-88.8	2.8	1.56e+00	0	47	104	0	60	1048573
2026-01-18 08:11:17.60	340.21	29.33	-85.2	-88.8	2.6	1.56e+00	0	47	104	0	60	1048570
2026-01-18 08:11:19.62	340.12	28.97	-85.2	-88.8	2.6	1.56e+00	0	47	104	0	60	1048575
2026-01-18 08:11:21.63	340.03	28.60	-85.2	-88.8	2.6	1.56e+00	0	48	104	0	60	1048574
2026-01-18 08:11:23.64	339.95	28.25	-85.2	-88.8	2.6	1.56e+00	0	48	104	0	60	1048574
2026-01-18 08:11:25.65	339.86	27.89	-85.2	-88.8	2.7	1.56e+00	0	48	104	0	60	1048575
2026-01-18 08:11:27.67	339.78	27.54	-85.2	-88.8	2.7	1.56e+00	0	48	104	0	60	1048574
2026-01-18 08:11:29.68	339.70	27.20	-85.2	-88.8	2.6	1.56e+00	0	48	104	0	60	1048574
2026-01-18 08:11:31.68	339.62	26.86	-85.2	-88.8	2.8	1.56e+00	0	48	104	0	60	1048574
2026-01-18 08:11:33.70	339.54	26.52	-85.2	-88.8	2.9	1.56e+00	0	48	104	0	60	1048575
2026-01-18 08:11:35.71	339.46	26.19	-85.2	-88.8	2.7	1.56e+00	0	48	104	0	60	1048573
2026-01-18 08:11:37.73	339.39	25.86	-85.2	-88.8	2.8	1.56e+00	0	47	104	0	60	1048571
2026-01-18 08:11:39.74	339.32	25.54	-85.2	-88.8	2.6	1.56e+00	0	47	104	0	60	1048575
2026-01-18 08:11:41.75	339.25	25.21	-85.2	-88.8	2.7	1.56e+00	0	48	104	0	60	1048570
2026-01-18 08:11:43.75	339.18	24.90	-85.2	-88.8	2.6	1.56e+00	0	47	104	0	60	1048574
2026-01-18 08:11:45.76	339.11	24.59	-84.7	-88.8	2.7	1.56e+00	0	47	104	0	60	1048575
2026-01-18 08:11:47.77	339.04	24.28	-85.2	-88.8	2.8	1.56e+00	0	48	104	0	60	1048570
2026-01-18 08:11:49.77	338.98	23.97	-84.7	-88.8	2.5	1.56e+00	0	48	104	0	60	1048573
2026-01-18 08:11:51.78	338.91	23.67	-85.2	-88.8	2.7	1.56e+00	0	48	104	0	60	1048573
2026-01-18 08:11:53.79	338.85	23.37	-85.2	-88.8	2.7	1.56e+00	0	48	104	0	60	1048575
2026-01-18 08:11:55.81	338.79	23.08	-85.2	-88.8	2.7	1.56e+00	0	48	104	0	60	1048575
2026-01-18 08:11:57.82	338.73	22.78	-85.2	-88.8	2.7	1.56e+00	0	48	104	0	60	1048574
2026-01-18 08:11:59.84	338.67	22.49	-85.2	-88.8	2.8	1.56e+00	0	48	104	0	60	1048575
2026-01-18 08:12:01.84	338.62	22.21	-85.2	-88.8	2.7	1.56e+00	0	48	104	0	60	1048573
2026-01-18 08:12:03.85	338.56	21.93	-85.2	-88.8	2.7	1.56e+00	0	48	104	0	60	1048575
2026-01-18 08:12:05.87	338.51	21.65	-84.7	-88.8	2.6	1.56e+00	0	48	104	0	60	1048575
2026-01-18 08:12:07.88	338.45	21.37	-85.2	-88.8	2.6	1.56e+00	0	48	104	0	60	1048575
2026-01-18 08:12:09.89	338.40	21.10	-85.2	-88.8	2.6	1.56e+00	0	48	104	0	60	1048573
2026-01-18 08:12:11.91	338.35	20.83	-85.2	-88.8	2.6	1.56e+00	0	48	104	0	60	1048572
2026-01-18 08:12:13.93	338.30	20.56	-82.8	-88.8	2.9	1.56e+00	0	48	104	0	60	1048574
2026-01-18 08:12:15.94	338.25	20.29	-85.2	-88.8	2.7	1.56e+00	0	48	104	0	60	1048575
2026-01-18 08:12:17.95	338.20	20.03	-85.2	-88.8	2.7	1.56e+00	0	48	104	0	60	1048575
2026-01-18 08:12:19.97	338.15	19.77	-85.2	-88.8	2.8	1.56e+00	0	48	104	0	60	1048570
2026-01-18 08:12:21.98	338.11	19.51	-85.2	-88.8	2.6	1.56e+00	0	48	104	0	60	1048575
2026-01-18 08:12:24.00	338.06	19.26	-85.2	-88.8	2.8	1.56e+00	0	48	104	0	60	1048575
2026-01-18 08:12:26.01	338.02	19.01	-85.2	-88.8	2.6	1.56e+00	0	47	104	0	60	1048574
2026-01-18 08:12:28.03	337.97	18.76	-85.2	-88.8	2.6	1.56e+00	0	48	104	0	60	1048568
2026-01-18 08:12:30.04	337.93	18.51	-84.3	-88.8	2.6	1.56e+00	0	48	104	0	60	1048573
2026-01-18 08:12:32.05	337.89	18.26	-85.2	-88.8	2.7	1.56e+00	0	48	104	0	60	1048573
2026-01-18 08:12:34.06	337.85	18.02	-85.2	-88.8	2.7	1.56e+00	0	48	104	0	60	1048575
2026-01-18 08:12:36.08	337.81	17.78	-85.2	-88.8	2.8	1.56e+00	0	48	104	0	60	1048571
2026-01-18 08:12:38.10	337.77	17.54	-85.2	-88.8	2.8	1.56e+00	0	47	104	0	60	1048571
2026-01-18 08:12:40.11	337.73	17.31	-85.2	-88.8	2.6	1.56e+00	0	48	104	0	60	1048572
2026-01-18 08:12:42.13	337.69	17.08	-85.2	-88.8	2.8	1.56e+00	0	47	104	0	60	1048574
2026-01-18 08:12:44.15	337.65	16.84	-85.2	-88.8	2.7	1.56e+00	0	48	104	0	60	1048573
2026-01-18 08:12:46.16	337.61	16.62	-85.2	-88.8	2.7	1.56e+00	0	48	104	0	60	1048574
2026-01-18 08:12:48.17	337.58	16.39	-85.2	-88.8	2.8	1.55e+00	0	48	104	0	60	1048572
2026-01-18 08:12:50.19	337.54	16.16	-84.3	-88.8	2.8	1.56e+00	0	48	104	0	60	1048575
2026-01-18 08:12:52.21	337.51	15.94	-85.2	-88.8	2.7	1.56e+00	0	47	104	0	60	1048575
2026-01-18 08:12:54.22	337.47	15.72	-85.2	-88.8	2.6	1.56e+00	0	48	104	0	60	1048574
2026-01-18 08:12:56.22	337.44	15.50	-85.2	-88.8	2.8	1.56e+00	0	48	104	0	60	1048572
2026-01-18 08:12:58.23	337.41	15.29	-85.2	-88.8	2.6	1.56e+00	0	48	104	0	60	1048573
2026-01-18 08:13:00.24	337.37	15.07	-85.2	-88.8	2.6	1.56e+00	0	48	104	0	60	1048574
2026-01-18 08:13:02.26	337.34	14.86	-85.2	-88.8	2.7	1.56e+00	0	48	104	0	60	1048574
2026-01-18 08:13:04.27	337.31	14.65	-85.2	-88.8	2.8	1.56e+00	0	47	104	0	60	1048572
2026-01-18 08:13:06.27	337.28	14.44	-85.2	-88.8	2.7	1.56e+00	0	48	104	0	60	1048575
2026-01-18 08:13:08.28	337.25	14.24	-85.2	-88.8	2.8	1.56e+00	0	48	104	0	60	1048575
2026-01-18 08:13:10.30	337.22	14.03	-85.2	-88.8	2.6	1.56e+00	0	48	104	0	60	1048575
2026-01-18 08:13:12.31	337.19	13.83	-85.2	-88.8	2.6	1.56e+00	0	48	104	0	60	1048574
2026-01-18 08:13:14.33	337.16	13.62	-85.2	-88.8	2.4	1.56e+00	0	48	104	0	60	1048574
2026-01-18 08:13:16.35	337.13	13.42	-85.2	-88.8	2.7	1.56e+00	0	48	104	0	60	1048575
2026-01-18 08:13:18.37	337.10	13.22	-85.2	-88.8	2.7	1.56e+00	0	48	104	0	60	1048575
2026-01-18 08:13:20.38	337.08	13.02	-85.2	-88.8	2.8	1.56e+00	0	48	104	0	60	1048573
2026-01-18 08:13:22.39	337.05	12.83	-85.2	-88.8	2.7	1.56e+00	0	48	104	0	60	1048574
2026-01-18 08:13:24.40	337.02	12.64	-85.2	-88.8	2.8	1.56e+00	0	48	104	0	60	1048573
2026-01-18 08:13:26.40	337.00	12.44	-85.2	-88.8	2.7	1.56e+00	0	48	104	0	60	1048572
2026-01-18 08:13:28.41	336.97	12.25	-85.2	-88.8	2.6	1.56e+00	0	48	104	0	60	1048575
2026-01-18 08:13:30.42	336.95	12.06	-85.2	-88.8	2.7	1.56e+00	0	48	104	0	60	1048574
2026-01-18 08:13:32.43	336.92	11.88	-85.2	-88.8	2.6	1.56e+00	0	48	104	0	60	1048573
2026-01-18 08:13:34.45	336.90	11.69	-85.2	-88.8	2.8	1.56e+00	0	48	104	0	60	1048575
2026-01-18 08:13:36.47	336.88	11.50	-85.2	-88.8	2.7	1.56e+00	0	48	104	0	60	1048573
2026-01-18 08:13:38.48	336.85	11.32	-85.2	-88.8	2.5	1.56e+00	0	48	104	0	60	1048571
2026-01-18 08:13:40.49	336.83	11.14	-85.2	-88.8	2.6	1.56e+00	0	48	104	0	60	1048574
2026-01-18 08:13:42.50	336.81	10.96	-85.2	-88.8	2.8	1.56e+00	0	48	104	0	60	1048575
2026-01-18 08:13:44.51	336.79	10.78	-84.3	-88.8	2.8	1.56e+00	0	47	104	0	60	1048574
2026-01-18 08:13:46.52	336.76	10.60	-85.2	-88.8	2.9	1.56e+00	0	48	104	0	60	1048572
2026-01-18 08:13:48.54	336.74	10.42	-85.2	-88.8	2.7	1.56e+00	0	48	104	0	60	1048573
2026-01-18 08:13:50.55	336.72	10.24	-85.2	-88.8	3.0	1.55e+00	0	48	104	0	60	1048573
2026-01-18 08:13:52.57	336.70	10.07	-85.2	-88.8	2.7	1.56e+00	0	48	104	0	60	1048575
2026-01-18 08:13:54.58	336.68	9.89	-85.2	-88.8	2.7	1.56e+00	0	48	104	0	60	1048574
2026-01-18 08:13:56.59	336.66	9.72	-85.2	-88.8	2.9	1.56e+00	0	47	104	0	60	1048573
2026-01-18 08:13:58.60	336.64	9.55	-85.2	-88.8	2.7	1.56e+00	0	47	104	0	60	1048573
2026-01-18 08:14:00.61	336.62	9.38	-85.2	-88.8	2.6	1.56e+00	0	48	104	0	60	1048575
2026-01-18 08:14:02.62	336.60	9.21	-85.2	-88.8	2.7	1.56e+00	0	48	104	0	60	1048575
2026-01-18 08:14:04.63	336.58	9.04	-85.2	-88.8	2.4	1.56e+00	0	48	104	0	60	1048573
2026-01-18 08:14:06.65	336.56	8.88	-85.2	-88.8	2.7	1.56e+00	0	48	104	0	60	1048569
2026-01-18 08:14:08.66	336.55	8.71	-85.2	-88.8	2.6	1.56e+00	0	48	104	0	60	1048574
2026-01-18 08:14:10.67	336.53	8.55	-85.2	-88.8	2.6	1.56e+00	0	48	104	0	60	1048574
2026-01-18 08:14:12.68	336.51	8.38	-85.2	-88.8	2.7	1.56e+00	0	48	104	0	60	1048575
2026-01-18 08:14:14.69	336.49	8.22	-85.2	-88.8	2.7	1.56e+00	0	48	104	0	60	1048574
2026-01-18 08:14:16.71	336.48	8.06	-85.2	-88.8	2.6	1.56e+00	0	48	104	0	60	1048572
2026-01-18 08:14:18.73	336.46	7.90	-85.2	-88.8	2.7	1.56e+00	0	48	104	0	60	1048573
2026-01-18 08:14:20.74	336.44	7.74	-85.2	-88.8	2.6	1.56e+00	0	48	104	0	60	1048575
2026-01-18 08:14:22.76	336.43	7.58	-85.2	-88.8	2.6	1.56e+00	0	48	104	0	60	1048575
2026-01-18 08:14:24.77	336.41	7.42	-84.7	-88.8	2.7	1.56e+00	0	48	104	0	60	1048575
2026-01-18 08:14:26.79	336.40	7.27	-85.2	-88.8	2.6	1.56e+00	0	48	104	0	60	1048574
2026-01-18 08:14:28.80	336.38	7.11	-85.2	-88.8	2.7	1.56e+00	0	48	104	0	60	1048574
2026-01-18 08:14:30.81	336.37	6.96	-85.2	-88.8	2.6	1.56e+00	0	48	104	0	60	1048574
2026-01-18 08:14:32.81	336.35	6.80	-85.2	-88.8	2.8	1.56e+00	0	48	104	0	60	1048574
2026-01-18 08:14:34.83	336.34	6.65	-85.2	-88.8	2.7	1.56e+00	0	48	104	0	60	1048573
2026-01-18 08:14:36.85	336.32	6.50	-85.2	-88.8	2.7	1.56e+00	0	48	104	0	60	1048575
2026-01-18 08:14:38.86	336.31	6.35	-85.2	-88.8	2.9	1.56e+00	0	48	104	0	60	1048575
2026-01-18 08:14:40.88	336.29	6.20	-85.2	-88.8	2.5	1.56e+00	0	48	104	0	60	1048575
2026-01-18 08:14:42.89	336.28	6.05	-85.2	-88.8	2.9	1.56e+00	0	48	104	0	60	1048575
2026-01-18 08:14:44.91	336.27	5.90	-84.7	-88.8	2.6	1.56e+00	0	48	104	0	60	1048575
2026-01-18 08:14:46.92	336.25	5.75	-85.2	-88.8	2.8	1.56e+00	0	48	104	0	60	1048574
2026-01-18 08:14:48.94	336.24	5.61	-85.2	-88.8	2.7	1.56e+00	0	48	104	0	60	1048574
2026-01-18 08:14:50.95	336.23	5.46	-85.2	-88.8	2.7	1.56e+00	0	48	104	0	60	1048573
2026-01-18 08:14:52.96	336.22	5.31	-85.2	-88.8	2.7	1.56e+00	0	48	104	0	60	1048572
2026-01-18 08:14:54.97	336.20	5.17	-85.2	-88.8	2.6	1.56e+00	0	48	104	0	60	1048575
2026-01-18 08:14:56.99	336.19	5.03	-85.2	-88.8	2.6	1.56e+00	0	48	104	0	60	1048574
2026-01-18 08:14:59.01	336.18	4.88	-85.2	-88.8	2.8	1.56e+00	0	48	104	0	60	1048575
2026-01-18 08:15:01.02	336.17	4.74	-84.7	-88.8	2.6	1.56e+00	0	48	104	0	60	1048572
2026-01-18 08:15:03.03	336.16	4.60	-85.2	-88.8	2.8	1.56e+00	0	48	104	0	60	1048570
2026-01-18 08:15:05.05	336.15	4.46	-85.2	-88.8	2.7	1.56e+00	0	48	104	0	60	1048575
2026-01-18 08:15:07.06	336.13	4.32	-85.2	-88.8	2.8	1.56e+00	0	48	104	0	60	1048567
2026-01-18 08:15:09.07	336.12	4.18	-85.2	-88.8	2.6	1.56e+00	0	48	104	0	60	1048574
2026-01-18 08:15:11.08	336.11	4.04	-85.2	-88.8	2.4	1.56e+00	0	48	104	0	60	1048569
2026-01-18 08:15:13.10	336.10	3.90	-85.2	-88.8	2.7	1.56e+00	0	48	104	0	60	1048573
2026-01-18 08:15:15.12	336.09	3.77	-84.7	-88.8	2.9	1.56e+00	0	48	104	0	60	1048573
2026-01-18 08:15:17.13	336.08	3.63	-85.2	-88.8	2.7	1.56e+00	0	48	104	0	60	1048570
2026-01-18 08:15:19.14	336.07	3.50	-85.2	-88.8	2.9	1.56e+00	0	47	104	0	60	1048575
2026-01-18 08:15:21.15	336.06	3.36	-85.2	-88.8	2.7	1.56e+00	0	47	104	0	60	1048575
2026-01-18 08:15:23.17	336.05	3.23	-85.2	-88.8	2.6	1.56e+00	0	48	104	0	60	1048572
2026-01-18 08:15:25.18	336.04	3.09	-85.2	-88.8	2.7	1.56e+00	0	48	104	0	60	1048574
2026-01-18 08:15:27.19	336.03	2.96	-85.2	-88.8	2.8	1.56e+00	0	48	104	0	60	1048571
2026-01-18 08:15:29.19	336.02	2.83	-85.2	-88.8	2.5	1.56e+00	0	48	104	0	60	1048573
2026-01-18 08:15:31.21	336.02	2.70	-85.2	-88.8	2.7	1.56e+00	0	48	104	0	60	1048575
2026-01-18 08:15:33.22	336.01	2.57	-85.2	-88.8	2.6	1.56e+00	0	48	104	0	60	1048575
2026-01-18 08:15:35.24	336.00	2.43	-85.2	-88.8	2.8	1.56e+00	0	48	104	0	60	1048575
2026-01-18 08:15:37.25	335.99	2.30	-85.2	-88.8	2.6	1.56e+00	0	48	104	0	60	1048575
2026-01-18 08:15:39.26	335.98	2.18	-85.2	-88.8	2.5	1.56e+00	0	48	104	0	60	1048574
2026-01-18 08:15:41.28	335.97	2.05	-85.2	-88.8	2.4	1.56e+00	0	48	104	0	60	1048573
2026-01-18 08:15:43.29	335.96	1.92	-85.2	-88.8	2.8	1.56e+00	0	48	104	0	60	1048571
2026-01-18 08:15:45.30	335.96	1.79	-85.2	-88.8	2.7	1.56e+00	0	48	104	0	60	1048575
2026-01-18 08:15:47.32	335.95	1.66	-85.2	-88.8	2.7	1.56e+00	0	48	104	0	60	1048575
2026-01-18 08:15:49.33	335.94	1.54	-85.2	-88.8	2.8	1.56e+00	0	48	104	0	60	1048571
2026-01-18 08:15:51.34	335.93	1.41	-85.2	-88.8	2.7	1.56e+00	0	48	104	0	60	1048572
2026-01-18 08:15:53.35	335.93	1.29	-85.2	-88.8	2.6	1.56e+00	0	48	104	0	60	1048575
2026-01-18 08:15:55.36	335.92	1.16	-84.7	-88.8	2.7	1.56e+00	0	48	104	0	60	1048575
2026-01-18 08:15:57.37	335.91	1.04	-85.2	-88.8	2.4	1.56e+00	0	48	104	0	60	1048573
2026-01-18 08:15:59.39	335.91	0.91	-85.2	-88.8	2.7	1.56e+00	0	48	104	0	60	1048573
2026-01-18 08:16:01.40	335.90	0.79	-85.2	-88.8	2.8	1.56e+00	0	48	104	0	60	1048572
2026-01-18 08:16:03.42	335.89	0.67	-85.2	-88.8	2.7	1.56e+00	0	48	104	0	60	1048574
2026-01-18 08:16:05.44	335.89	0.54	-85.2	-88.8	2.7	1.56e+00	0	48	104	0	60	1048574
2026-01-18 08:16:07.44	335.88	0.42	-85.2	-88.8	2.6	1.56e+00	0	48	104	0	60	1048573
2026-01-18 08:16:09.45	335.87	0.30	-85.2	-88.8	2.8	1.56e+00	0	48	104	0	60	1048571
2026-01-18 08:16:11.46	335.87	0.18	-85.2	-88.8	2.7	1.56e+00	0	48	104	0	60	1048572
2026-01-18 08:16:13.48	335.86	0.06	-85.2	-88.8	2.8	1.56e+00	0	48	104	0	60	1048575

#Closed at: 2026-01-18 08:16:14
#Recorded file [0 MB]: D:/Data/35015_260118_110948.dat