passes_logs/2026/01/18/R3.2S-Naryan-Mar/R3.2S-Naryan-Mar__20260118_173112_TY-42_rec.log

#Pass ID: 20260118_173112_TY-42
#Satellite: TY-42
#Configuration: TY-42
#almurnet v.1.7.20240730
#Start time: 2026-01-18 17:31:15

#Version: 2.2.20231116
#Station: R3.2S-Naryan-Mar
#Location: 53.008057 lon 67.646978 lat
#TLE: 1 64048U 25103A   26018.53100694  .00008009  00000-0  38191-3 0 09990
#TLE: 2 64048 097.4124 093.8820 0001871 093.1015 305.9816 15.19165829 37354

#Time	Az	El	Level	Level2	SNR	BER	BlckErr	Temp	State	Recorded	gain1	gain2
2026-01-18 17:31:15.08	157.05	0.16	-83.5	-79.0	2.6	0.00e+00	0	47	0	0	60	1048575
2026-01-18 17:31:18.09	157.05	0.35	-83.5	-79.0	2.5	0.00e+00	0	47	104	0	60	1048567
2026-01-18 17:31:21.12	157.06	0.55	-83.5	-79.0	2.4	0.00e+00	0	47	104	0	60	1048575
2026-01-18 17:31:24.13	157.07	0.75	-82.8	-79.0	2.4	0.00e+00	0	47	104	0	60	1048574
2026-01-18 17:31:27.15	157.08	0.95	-83.5	-79.0	2.4	0.00e+00	0	47	104	0	60	1048575
2026-01-18 17:31:30.18	157.08	1.15	-83.5	-79.0	2.4	0.00e+00	0	48	104	0	60	1048569
2026-01-18 17:31:33.20	157.09	1.36	-83.5	-79.0	2.3	0.00e+00	0	47	104	0	60	1048575
2026-01-18 17:31:36.22	157.10	1.56	-83.1	-79.0	2.3	0.00e+00	0	47	104	0	60	1048572
2026-01-18 17:31:39.25	157.11	1.77	-83.1	-79.0	2.4	0.00e+00	0	47	104	0	60	1048574
2026-01-18 17:31:42.26	157.11	1.98	-83.1	-79.0	2.4	0.00e+00	0	48	104	0	60	1048574
2026-01-18 17:31:45.28	157.12	2.19	-83.5	-79.0	2.4	0.00e+00	0	48	104	0	60	1048571
2026-01-18 17:31:48.29	157.13	2.41	-82.8	-79.0	2.5	0.00e+00	0	48	104	0	60	1048573
2026-01-18 17:31:51.31	157.13	2.62	-83.5	-79.0	2.4	0.00e+00	0	48	104	0	60	1048572
2026-01-18 17:31:54.33	157.14	2.84	-83.5	-79.0	2.4	0.00e+00	0	48	104	0	60	1048573
2026-01-18 17:31:57.35	157.15	3.06	-83.1	-79.0	2.3	0.00e+00	0	48	104	0	60	1048574
2026-01-18 17:32:00.37	157.15	3.29	-83.5	-79.0	2.4	0.00e+00	0	48	104	0	60	1048575
2026-01-18 17:32:03.40	157.16	3.51	-83.1	-79.0	2.4	0.00e+00	0	48	104	0	60	1048568
2026-01-18 17:32:06.42	157.17	3.74	-83.1	-79.0	2.6	0.00e+00	0	48	104	0	60	1048570
2026-01-18 17:32:09.45	157.18	3.97	-83.5	-79.0	2.5	0.00e+00	0	48	104	0	60	1048574
2026-01-18 17:32:12.47	157.18	4.21	-83.1	-79.0	2.5	0.00e+00	0	48	104	0	60	1048572
2026-01-18 17:32:15.48	157.19	4.44	-83.1	-79.0	2.3	0.00e+00	0	48	104	0	60	1048574
2026-01-18 17:32:18.50	157.20	4.68	-83.5	-79.0	2.4	0.00e+00	0	48	104	0	60	1048575
2026-01-18 17:32:21.52	157.20	4.92	-82.8	-79.0	2.4	0.00e+00	0	48	104	0	60	1048570
2026-01-18 17:32:24.55	157.21	5.17	-83.5	-79.0	2.4	0.00e+00	0	48	104	0	60	1048575
2026-01-18 17:32:27.56	157.21	5.42	-83.5	-79.0	2.4	0.00e+00	0	48	104	0	60	1048575
2026-01-18 17:32:30.58	157.22	5.67	-82.8	-79.0	2.4	0.00e+00	0	48	104	0	60	1048570
2026-01-18 17:32:33.60	157.23	5.92	-83.5	-79.0	2.4	0.00e+00	0	48	104	0	60	1048573
2026-01-18 17:32:36.62	157.23	6.18	-83.5	-79.0	2.4	0.00e+00	0	48	104	0	60	1048575
2026-01-18 17:32:39.64	157.24	6.44	-83.1	-79.0	2.5	0.00e+00	0	48	104	0	60	1048567
2026-01-18 17:32:42.66	157.24	6.70	-83.5	-79.0	2.5	0.00e+00	0	48	104	0	60	1048567
2026-01-18 17:32:45.68	157.25	6.97	-83.1	-79.0	2.6	0.00e+00	0	48	104	0	60	1048575
2026-01-18 17:32:48.68	157.26	7.24	-83.1	-79.0	2.4	0.00e+00	0	49	104	0	60	1048570
2026-01-18 17:32:51.69	157.26	7.52	-83.5	-79.0	2.4	0.00e+00	0	49	104	0	60	1048574
2026-01-18 17:32:54.70	157.27	7.80	-83.1	-79.0	2.5	0.00e+00	0	48	104	0	60	1048571
2026-01-18 17:32:57.71	157.27	8.08	-83.5	-79.0	2.4	0.00e+00	0	48	104	0	60	1048572
2026-01-18 17:33:00.72	157.28	8.37	-83.1	-79.0	2.3	0.00e+00	0	48	104	0	60	1048574
2026-01-18 17:33:03.74	157.28	8.66	-83.1	-79.0	2.5	0.00e+00	0	48	104	0	60	1048565
2026-01-18 17:33:06.75	157.29	8.96	-83.5	-79.0	2.5	0.00e+00	0	48	104	0	60	1048569
2026-01-18 17:33:09.77	157.29	9.26	-83.1	-79.0	2.4	0.00e+00	0	49	104	0	60	1048575
2026-01-18 17:33:12.78	157.30	9.56	-83.5	-79.0	2.4	0.00e+00	0	49	104	0	60	1048574
2026-01-18 17:33:15.80	157.30	9.88	-83.1	-79.0	2.3	0.00e+00	0	48	104	0	60	1048566
2026-01-18 17:33:18.83	157.31	10.19	-83.1	-79.0	2.4	0.00e+00	0	49	104	0	60	1048575
2026-01-18 17:33:21.85	157.31	10.52	-83.1	-79.0	2.4	0.00e+00	0	48	104	0	60	1048575
2026-01-18 17:33:24.86	157.31	10.84	-83.5	-79.0	2.5	0.00e+00	0	49	104	0	60	1048575
2026-01-18 17:33:27.88	157.32	11.18	-82.8	-79.0	2.4	0.00e+00	0	49	104	0	60	1048571
2026-01-18 17:33:30.90	157.32	11.52	-83.5	-79.0	2.8	0.00e+00	0	49	104	0	60	1048573
2026-01-18 17:33:33.92	157.32	11.87	-83.5	-79.0	2.4	0.00e+00	0	49	104	0	60	1048575
2026-01-18 17:33:36.94	157.33	12.22	-83.1	-79.0	2.4	0.00e+00	0	49	104	0	60	1048575
2026-01-18 17:33:39.97	157.33	12.58	-83.5	-79.0	2.3	0.00e+00	0	49	104	0	60	1048575
2026-01-18 17:33:42.99	157.33	12.95	-83.1	-79.0	2.4	0.00e+00	0	49	104	0	60	1048574
2026-01-18 17:33:46.02	157.34	13.32	-83.5	-79.0	2.4	0.00e+00	0	49	104	0	60	1048575
2026-01-18 17:33:49.04	157.34	13.71	-83.1	-79.0	2.4	0.00e+00	0	49	104	0	60	1048573
2026-01-18 17:33:52.07	157.34	14.10	-83.5	-79.0	2.5	0.00e+00	0	49	104	0	60	1048564
2026-01-18 17:33:55.09	157.34	14.50	-83.1	-79.0	2.4	0.00e+00	0	49	104	0	60	1048571
2026-01-18 17:33:58.11	157.34	14.91	-83.5	-79.0	2.5	0.00e+00	0	49	104	0	60	1048567
2026-01-18 17:34:01.13	157.34	15.32	-82.8	-79.0	2.4	0.00e+00	0	49	104	0	60	1048570
2026-01-18 17:34:04.15	157.34	15.75	-83.5	-79.0	2.7	0.00e+00	0	49	104	0	60	1048575
2026-01-18 17:34:07.17	157.34	16.18	-83.5	-79.0	2.3	0.00e+00	0	49	104	0	60	1048574
2026-01-18 17:34:10.18	157.34	16.63	-83.5	-79.0	2.3	0.00e+00	0	49	104	0	60	1048570
2026-01-18 17:34:13.20	157.34	17.08	-83.5	-79.0	2.4	0.00e+00	0	49	104	0	60	1048572
2026-01-18 17:34:16.23	157.34	17.55	-83.1	-79.0	2.4	0.00e+00	0	49	104	0	60	1048574
2026-01-18 17:34:19.25	157.34	18.03	-83.5	-79.0	2.4	0.00e+00	0	49	104	0	60	1048571
2026-01-18 17:34:22.28	157.34	18.53	-83.5	-79.0	2.4	0.00e+00	0	49	104	0	60	1048572
2026-01-18 17:34:25.30	157.34	19.03	-83.1	-79.0	2.3	0.00e+00	0	49	104	0	60	1048567
2026-01-18 17:34:28.31	157.34	19.55	-83.1	-79.0	2.4	0.00e+00	0	49	104	0	60	1048575
2026-01-18 17:34:31.33	157.33	20.08	-83.1	-79.0	2.4	0.00e+00	0	49	104	0	60	1048570
2026-01-18 17:34:34.36	157.33	20.62	-82.8	-79.0	2.4	0.00e+00	0	49	104	0	60	1048575
2026-01-18 17:34:37.38	157.33	21.19	-83.1	-79.0	2.4	0.00e+00	0	49	104	0	60	1048575
2026-01-18 17:34:40.40	157.32	21.76	-83.5	-79.0	2.4	0.00e+00	0	49	104	0	60	1048572
2026-01-18 17:34:43.41	157.31	22.35	-83.5	-79.0	2.4	0.00e+00	0	49	104	0	60	1048570
2026-01-18 17:34:46.43	157.31	22.97	-83.5	-79.0	2.5	0.00e+00	0	49	104	0	60	1048566
2026-01-18 17:34:49.45	157.30	23.59	-83.5	-79.0	2.4	0.00e+00	0	49	104	0	60	1048574
2026-01-18 17:34:52.48	157.29	24.25	-83.5	-79.0	2.5	0.00e+00	0	49	104	0	60	1048575
2026-01-18 17:34:55.50	157.28	24.91	-83.1	-79.0	2.3	0.00e+00	0	49	104	0	60	1048575
2026-01-18 17:34:58.52	157.27	25.61	-83.1	-79.0	2.4	0.00e+00	0	49	104	0	60	1048571
2026-01-18 17:35:01.54	157.26	26.32	-83.1	-79.0	2.3	0.00e+00	0	49	104	0	60	1048575
2026-01-18 17:35:04.56	157.25	27.05	-83.5	-79.0	2.4	0.00e+00	0	49	104	0	60	1048574
2026-01-18 17:35:07.58	157.24	27.81	-83.1	-79.0	2.3	0.00e+00	0	49	104	0	60	1048575
2026-01-18 17:35:10.61	157.22	28.60	-83.5	-79.0	2.4	0.00e+00	0	49	104	0	60	1048575
2026-01-18 17:35:13.63	157.21	29.42	-83.5	-79.0	2.4	0.00e+00	0	49	104	0	60	1048574
2026-01-18 17:35:16.64	157.19	30.26	-83.1	-79.0	2.4	0.00e+00	0	49	104	0	60	1048569
2026-01-18 17:35:19.66	157.17	31.13	-83.5	-79.0	2.3	0.00e+00	0	49	104	0	60	1048570
2026-01-18 17:35:22.68	157.15	32.04	-83.1	-79.0	2.4	0.00e+00	0	49	104	0	60	1048574
2026-01-18 17:35:25.71	157.13	32.98	-83.5	-79.0	2.4	0.00e+00	0	49	104	0	60	1048575
2026-01-18 17:35:28.73	157.10	33.95	-83.1	-79.0	2.2	0.00e+00	0	49	104	0	60	1048574
2026-01-18 17:35:31.75	157.07	34.96	-82.8	-79.0	2.4	0.00e+00	0	49	104	0	60	1048575
2026-01-18 17:35:34.77	157.04	36.01	-83.5	-79.0	2.5	0.00e+00	0	49	104	0	60	1048575
2026-01-18 17:35:37.79	157.01	37.10	-83.5	-79.0	2.4	0.00e+00	0	49	104	0	60	1048575
2026-01-18 17:35:40.81	156.97	38.23	-83.1	-79.0	2.4	0.00e+00	0	49	104	0	60	1048564
2026-01-18 17:35:43.84	156.93	39.41	-83.5	-79.0	2.3	0.00e+00	0	49	104	0	60	1048573
2026-01-18 17:35:46.87	156.89	40.64	-83.5	-79.0	2.4	0.00e+00	0	49	104	0	60	1048574
2026-01-18 17:35:49.88	156.84	41.91	-83.1	-79.0	2.3	0.00e+00	0	49	104	0	60	1048575
2026-01-18 17:35:52.90	156.79	43.24	-83.5	-79.0	2.5	0.00e+00	0	49	104	0	60	1048570
2026-01-18 17:35:55.92	156.72	44.62	-83.5	-79.0	2.4	0.00e+00	0	49	104	0	60	1048575
2026-01-18 17:35:58.94	156.66	46.05	-83.5	-79.0	2.4	0.00e+00	0	49	104	0	60	1048572
2026-01-18 17:36:01.97	156.58	47.55	-83.1	-79.0	2.5	0.00e+00	0	49	104	0	60	1048573
2026-01-18 17:36:04.98	156.50	49.10	-83.1	-79.0	2.3	0.00e+00	0	49	104	0	60	1048575
2026-01-18 17:36:08.00	156.40	50.72	-83.1	-79.0	2.4	0.00e+00	0	49	104	0	60	1048571
2026-01-18 17:36:11.03	156.29	52.40	-83.5	-79.0	2.4	0.00e+00	0	49	104	0	60	1048563
2026-01-18 17:36:14.05	156.17	54.15	-83.1	-79.0	2.5	0.00e+00	0	49	104	0	60	1048566
2026-01-18 17:36:17.08	156.03	55.97	-83.5	-79.0	2.4	0.00e+00	0	49	104	0	60	1048569
2026-01-18 17:36:20.10	155.87	57.85	-83.5	-79.0	2.4	0.00e+00	0	49	104	0	60	1048574
2026-01-18 17:36:23.11	155.68	59.79	-83.1	-79.0	2.5	0.00e+00	0	49	104	0	60	1048575
2026-01-18 17:36:26.13	155.45	61.81	-83.1	-79.0	2.4	0.00e+00	0	49	104	0	60	1048574
2026-01-18 17:36:29.14	155.19	63.89	-82.8	-79.0	2.4	0.00e+00	0	49	104	0	60	1048573
2026-01-18 17:36:32.16	154.87	66.04	-83.1	-79.0	2.4	0.00e+00	0	49	104	0	60	1048573
2026-01-18 17:36:35.19	154.47	68.26	-83.1	-79.0	2.4	0.00e+00	0	49	104	0	60	1048575
2026-01-18 17:36:38.21	153.96	70.54	-83.1	-79.0	2.4	0.00e+00	0	49	104	0	60	1048574
2026-01-18 17:36:41.23	153.31	72.87	-83.1	-79.0	2.4	0.00e+00	0	49	104	0	60	1048575
2026-01-18 17:36:44.26	152.43	75.25	-83.5	-79.0	2.5	0.00e+00	0	49	104	0	60	1048575
2026-01-18 17:36:47.28	151.19	77.67	-83.1	-79.0	2.4	0.00e+00	0	49	104	0	60	1048574
2026-01-18 17:36:50.31	149.31	80.13	-83.5	-79.0	2.4	0.00e+00	0	49	104	0	60	1048572
2026-01-18 17:36:53.33	146.14	82.60	-83.5	-79.0	2.4	0.00e+00	0	49	104	0	60	1048559
2026-01-18 17:36:56.35	139.78	85.04	-83.5	-79.0	2.4	0.00e+00	0	49	104	0	60	1048574
2026-01-18 17:36:59.36	121.92	87.32	-83.5	-79.0	2.3	0.00e+00	0	49	104	0	60	1048575
2026-01-18 17:37:02.39	53.98	88.34	-83.1	-79.0	2.4	0.00e+00	0	49	104	0	60	1048573
2026-01-18 17:37:05.41	6.90	86.62	-83.5	-79.0	2.5	0.00e+00	0	49	104	0	60	1048575
2026-01-18 17:37:08.44	354.75	84.24	-83.1	-79.0	2.3	0.00e+00	0	49	104	0	60	1048573
2026-01-18 17:37:11.46	349.83	81.79	-83.1	-79.0	2.3	0.00e+00	0	49	104	0	60	1048569
2026-01-18 17:37:14.47	347.21	79.33	-83.5	-79.0	2.4	0.00e+00	0	49	104	0	60	1048574
2026-01-18 17:37:17.49	345.58	76.89	-83.5	-79.0	2.4	0.00e+00	0	49	104	0	60	1048572
2026-01-18 17:37:20.52	344.48	74.48	-83.1	-79.0	2.4	0.00e+00	0	49	104	0	60	1048571
2026-01-18 17:37:23.54	343.69	72.12	-83.5	-79.0	2.5	0.00e+00	0	49	104	0	60	1048573
2026-01-18 17:37:26.56	343.09	69.81	-83.1	-79.0	2.4	0.00e+00	0	49	104	0	60	1048573
2026-01-18 17:37:29.57	342.63	67.57	-83.1	-79.0	2.3	0.00e+00	0	49	104	0	60	1048575
2026-01-18 17:37:32.59	342.25	65.38	-83.5	-79.0	2.3	0.00e+00	0	49	104	0	60	1048573
2026-01-18 17:37:35.61	341.95	63.25	-83.1	-79.0	2.4	0.00e+00	0	49	104	0	60	1048569
2026-01-18 17:37:38.64	341.70	61.19	-83.5	-79.0	2.4	0.00e+00	0	49	104	0	60	1048566
2026-01-18 17:37:41.66	341.49	59.19	-83.5	-79.0	2.4	0.00e+00	0	49	104	0	60	1048571
2026-01-18 17:37:44.68	341.31	57.27	-83.1	-79.0	2.3	0.00e+00	0	49	104	0	60	1048575
2026-01-18 17:37:47.70	341.15	55.42	-83.5	-79.0	2.5	0.00e+00	0	49	104	0	60	1048574
2026-01-18 17:37:50.72	341.02	53.63	-83.1	-79.0	2.4	0.00e+00	0	49	104	0	60	1048572
2026-01-18 17:37:53.74	340.90	51.91	-83.1	-79.0	2.4	0.00e+00	0	49	104	0	60	1048565
2026-01-18 17:37:56.76	340.80	50.25	-83.5	-79.0	2.4	0.00e+00	0	49	104	0	60	1048571
2026-01-18 17:37:59.79	340.71	48.65	-83.5	-79.0	2.4	0.00e+00	0	49	104	0	60	1048572
2026-01-18 17:38:02.81	340.63	47.12	-83.1	-79.0	2.4	0.00e+00	0	49	104	0	60	1048573
2026-01-18 17:38:05.82	340.55	45.66	-83.5	-79.0	2.3	0.00e+00	0	49	104	0	60	1048573
2026-01-18 17:38:08.84	340.49	44.24	-82.8	-79.0	2.5	0.00e+00	0	49	104	0	60	1048573
2026-01-18 17:38:11.87	340.43	42.88	-83.5	-79.0	2.5	0.00e+00	0	49	104	0	60	1048572
2026-01-18 17:38:14.89	340.38	41.58	-83.1	-79.0	2.3	0.00e+00	0	49	104	0	60	1048571
2026-01-18 17:38:17.91	340.33	40.32	-83.1	-79.0	2.4	0.00e+00	0	49	104	0	60	1048575
2026-01-18 17:38:20.92	340.29	39.12	-83.5	-79.0	2.4	0.00e+00	0	49	104	0	60	1048571
2026-01-18 17:38:23.94	340.25	37.96	-83.5	-79.0	2.4	0.00e+00	0	49	104	0	60	1048575
2026-01-18 17:38:26.96	340.22	36.84	-83.1	-79.0	2.4	0.00e+00	0	49	104	0	60	1048569
2026-01-18 17:38:29.98	340.18	35.77	-83.5	-79.0	2.4	0.00e+00	0	49	104	0	60	1048573
2026-01-18 17:38:33.01	340.15	34.73	-83.5	-79.0	2.4	0.00e+00	0	49	104	0	60	1048575
2026-01-18 17:38:36.02	340.13	33.74	-83.5	-79.0	2.4	0.00e+00	0	49	104	0	60	1048571
2026-01-18 17:38:39.04	340.10	32.78	-83.5	-79.0	2.5	0.00e+00	0	49	104	0	60	1048574
2026-01-18 17:38:42.06	340.08	31.85	-82.8	-79.0	2.4	0.00e+00	0	49	104	0	60	1048575
2026-01-18 17:38:45.09	340.06	30.96	-83.5	-79.0	2.4	0.00e+00	0	49	104	0	60	1048573
2026-01-18 17:38:48.11	340.04	30.10	-83.1	-79.0	2.4	0.00e+00	0	49	104	0	60	1048572
2026-01-18 17:38:51.14	340.03	29.26	-83.1	-79.0	2.4	0.00e+00	0	49	104	0	60	1048575
2026-01-18 17:38:54.16	340.01	28.46	-83.5	-79.0	2.3	0.00e+00	0	49	104	0	60	1048559
2026-01-18 17:38:57.18	340.00	27.68	-83.5	-79.0	2.4	0.00e+00	0	49	104	0	60	1048575
2026-01-18 17:39:00.19	339.99	26.94	-82.8	-79.0	2.4	0.00e+00	0	49	104	0	60	1048575
2026-01-18 17:39:03.21	339.98	26.21	-83.5	-79.0	2.4	0.00e+00	0	49	104	0	60	1048567
2026-01-18 17:39:06.22	339.97	25.51	-83.5	-79.0	2.3	0.00e+00	0	49	104	0	60	1048574
2026-01-18 17:39:09.24	339.96	24.83	-83.5	-79.0	2.4	0.00e+00	0	49	104	0	60	1048566
2026-01-18 17:39:12.26	339.95	24.16	-83.5	-79.0	2.5	0.00e+00	0	49	104	0	60	1048574
2026-01-18 17:39:15.28	339.94	23.52	-83.1	-79.0	2.4	0.00e+00	0	49	104	0	60	1048575
2026-01-18 17:39:18.30	339.94	22.90	-83.5	-79.0	2.4	0.00e+00	0	49	104	0	60	1048574
2026-01-18 17:39:21.32	339.93	22.30	-83.1	-79.0	2.6	0.00e+00	0	49	104	0	60	1048574
2026-01-18 17:39:24.34	339.93	21.71	-83.1	-79.0	2.4	0.00e+00	0	49	104	0	60	1048575
2026-01-18 17:39:27.36	339.93	21.14	-83.5	-79.0	2.3	0.00e+00	0	49	104	0	60	1048573
2026-01-18 17:39:30.38	339.92	20.58	-83.5	-79.0	2.4	0.00e+00	0	49	104	0	60	1048573
2026-01-18 17:39:33.40	339.92	20.04	-83.1	-79.0	2.3	0.00e+00	0	49	104	0	60	1048575
2026-01-18 17:39:36.43	339.92	19.52	-83.1	-79.0	2.4	0.00e+00	0	49	104	0	60	1048567
2026-01-18 17:39:39.45	339.92	19.00	-83.1	-79.0	2.4	0.00e+00	0	49	104	0	60	1048574
2026-01-18 17:39:42.47	339.92	18.50	-83.5	-79.0	2.4	0.00e+00	0	49	104	0	60	1048572
2026-01-18 17:39:45.48	339.91	18.02	-83.5	-79.0	2.4	0.00e+00	0	49	104	0	60	1048573
2026-01-18 17:39:48.50	339.91	17.54	-82.8	-79.0	2.3	0.00e+00	0	49	104	0	60	1048575
2026-01-18 17:39:51.52	339.92	17.08	-83.5	-79.0	2.5	0.00e+00	0	49	104	0	60	1048568
2026-01-18 17:39:54.55	339.92	16.63	-83.1	-79.0	2.6	0.00e+00	0	49	104	0	60	1048574
2026-01-18 17:39:57.57	339.92	16.18	-82.8	-79.0	2.5	0.00e+00	0	49	104	0	60	1048575
2026-01-18 17:40:00.59	339.92	15.75	-83.5	-79.0	2.4	0.00e+00	0	49	104	0	60	1048574
2026-01-18 17:40:03.61	339.92	15.33	-83.5	-79.0	2.4	0.00e+00	0	49	104	0	60	1048575
2026-01-18 17:40:06.64	339.92	14.92	-83.5	-79.0	2.5	0.00e+00	0	49	104	0	60	1048574
2026-01-18 17:40:09.65	339.93	14.51	-83.5	-79.0	2.4	0.00e+00	0	49	104	0	60	1048575
2026-01-18 17:40:12.68	339.93	14.12	-82.8	-79.0	2.4	0.00e+00	0	49	104	0	60	1048574
2026-01-18 17:40:15.70	339.93	13.73	-83.5	-79.0	2.4	0.00e+00	0	49	104	0	60	1048570
2026-01-18 17:40:18.71	339.94	13.35	-83.5	-79.0	2.4	0.00e+00	0	49	104	0	60	1048571
2026-01-18 17:40:21.73	339.94	12.98	-82.8	-79.0	2.4	0.00e+00	0	49	104	0	60	1048574
2026-01-18 17:40:24.76	339.94	12.61	-83.5	-79.0	2.4	0.00e+00	0	49	104	0	60	1048572
2026-01-18 17:40:27.78	339.95	12.26	-83.1	-79.0	2.5	0.00e+00	0	49	104	0	60	1048575
2026-01-18 17:40:30.80	339.95	11.90	-83.1	-79.0	2.3	0.00e+00	0	49	104	0	60	1048575
2026-01-18 17:40:33.82	339.96	11.56	-83.5	-79.0	2.4	0.00e+00	0	49	104	0	60	1048574
2026-01-18 17:40:36.84	339.96	11.22	-83.5	-79.0	2.4	0.00e+00	0	49	104	0	60	1048570
2026-01-18 17:40:39.86	339.97	10.89	-83.5	-79.0	2.4	0.00e+00	0	50	104	0	60	1048574
2026-01-18 17:40:42.88	339.97	10.56	-83.5	-79.0	2.4	0.00e+00	0	49	104	0	60	1048575
2026-01-18 17:40:45.91	339.98	10.24	-82.8	-79.0	2.3	0.00e+00	0	49	104	0	60	1048571
2026-01-18 17:40:48.93	339.99	9.93	-83.5	-79.0	2.4	0.00e+00	0	49	104	0	60	1048571
2026-01-18 17:40:51.94	339.99	9.62	-83.5	-79.0	2.4	0.00e+00	0	49	104	0	60	1048568
2026-01-18 17:40:54.97	340.00	9.31	-82.8	-79.0	2.4	0.00e+00	0	49	104	0	60	1048573
2026-01-18 17:40:57.99	340.00	9.01	-83.5	-79.0	2.5	0.00e+00	0	49	104	0	60	1048575
2026-01-18 17:41:01.01	340.01	8.72	-83.1	-79.0	2.7	0.00e+00	0	49	104	0	60	1048564
2026-01-18 17:41:04.04	340.02	8.42	-83.1	-79.0	2.5	0.00e+00	0	49	104	0	60	1048575
2026-01-18 17:41:07.06	340.02	8.14	-83.5	-79.0	2.4	0.00e+00	0	49	104	0	60	1048572
2026-01-18 17:41:10.08	340.03	7.86	-83.5	-79.0	2.4	0.00e+00	0	49	104	0	60	1048570
2026-01-18 17:41:13.10	340.04	7.58	-83.5	-79.0	2.4	0.00e+00	0	49	104	0	60	1048570
2026-01-18 17:41:16.12	340.05	7.30	-83.5	-79.0	2.4	0.00e+00	0	49	104	0	60	1048574
2026-01-18 17:41:19.15	340.05	7.03	-83.1	-79.0	2.2	0.00e+00	0	49	104	0	60	1048571
2026-01-18 17:41:22.16	340.06	6.77	-83.5	-79.0	2.4	0.00e+00	0	49	104	0	60	1048569
2026-01-18 17:41:25.18	340.07	6.50	-83.5	-79.0	2.5	0.00e+00	0	49	104	0	60	1048575
2026-01-18 17:41:28.20	340.08	6.24	-83.1	-79.0	2.4	0.00e+00	0	49	104	0	60	1048575
2026-01-18 17:41:31.21	340.08	5.99	-83.5	-79.0	2.4	0.00e+00	0	50	104	0	60	1048570
2026-01-18 17:41:34.24	340.09	5.73	-83.1	-79.0	2.4	0.00e+00	0	49	104	0	60	1048567
2026-01-18 17:41:37.26	340.10	5.49	-83.5	-79.0	2.5	0.00e+00	0	49	104	0	60	1048575
2026-01-18 17:41:40.29	340.11	5.24	-83.5	-79.0	2.4	0.00e+00	0	49	104	0	60	1048571
2026-01-18 17:41:43.30	340.12	5.00	-83.5	-79.0	2.4	0.00e+00	0	49	104	0	60	1048574
2026-01-18 17:41:46.32	340.12	4.75	-83.1	-79.0	2.4	0.00e+00	0	49	104	0	60	1048563
2026-01-18 17:41:49.33	340.13	4.52	-83.5	-79.0	2.4	0.00e+00	0	49	104	0	60	1048574
2026-01-18 17:41:52.36	340.14	4.28	-82.8	-79.0	2.4	0.00e+00	0	49	104	0	60	1048575
2026-01-18 17:41:55.38	340.15	4.05	-83.5	-79.0	2.4	0.00e+00	0	49	104	0	60	1048575
2026-01-18 17:41:58.40	340.16	3.82	-83.5	-79.0	2.4	0.00e+00	0	49	104	0	60	1048574
2026-01-18 17:42:01.42	340.17	3.59	-82.8	-79.0	2.3	0.00e+00	0	49	104	0	60	1048573
2026-01-18 17:42:04.44	340.18	3.37	-83.5	-79.0	2.4	0.00e+00	0	49	104	0	60	1048574
2026-01-18 17:42:07.47	340.19	3.15	-83.5	-79.0	2.4	0.00e+00	0	49	104	0	60	1048571
2026-01-18 17:42:10.49	340.19	2.93	-83.5	-79.0	2.3	0.00e+00	0	49	104	0	60	1048574
2026-01-18 17:42:13.50	340.20	2.71	-83.5	-79.0	2.4	0.00e+00	0	49	104	0	60	1048574
2026-01-18 17:42:16.52	340.21	2.49	-83.1	-79.0	2.4	0.00e+00	0	49	104	0	60	1048574
2026-01-18 17:42:19.54	340.22	2.28	-83.5	-79.0	2.3	0.00e+00	0	49	104	0	60	1048575
2026-01-18 17:42:22.56	340.23	2.07	-83.5	-79.0	2.4	0.00e+00	0	49	104	0	60	1048570
2026-01-18 17:42:25.58	340.24	1.86	-83.1	-79.0	2.4	0.00e+00	0	49	104	0	60	1048573
2026-01-18 17:42:28.59	340.25	1.65	-83.5	-79.0	2.4	0.00e+00	0	49	104	0	60	1048571
2026-01-18 17:42:31.61	340.26	1.45	-83.1	-79.0	2.4	0.00e+00	0	49	104	0	60	1048575
2026-01-18 17:42:34.64	340.27	1.24	-83.1	-79.0	2.4	0.00e+00	0	49	104	0	60	1048575
2026-01-18 17:42:37.66	340.28	1.04	-83.5	-79.0	2.5	0.00e+00	0	49	104	0	60	1048568
2026-01-18 17:42:40.68	340.29	0.84	-83.1	-79.0	2.4	0.00e+00	0	49	104	0	60	1048575
2026-01-18 17:42:43.71	340.30	0.64	-83.1	-79.0	2.5	0.00e+00	0	49	104	0	60	1048572
2026-01-18 17:42:46.73	340.31	0.44	-83.5	-79.0	2.5	0.00e+00	0	49	104	0	60	1048574
2026-01-18 17:42:49.75	340.32	0.25	-83.5	-79.0	2.5	0.00e+00	0	49	104	0	60	1048571
2026-01-18 17:42:52.77	340.33	0.06	-83.5	-79.0	2.4	0.00e+00	0	49	104	0	60	1048574
2026-01-18 17:42:55.79	340.34	-0.13	-83.5	-79.0	2.4	0.00e+00	0	49	104	0	60	1048572

#Closed at: 2026-01-18 17:42:55
#Recorded file [0 MB]: D:/Data/35015_260118_203115.dat