passes_logs/2026/01/18/R3.2S-Naryan-Mar/R3.2S-Naryan-Mar__20260118_103804_AQUA_rec.log

#Pass ID: 20260118_103804_AQUA
#Satellite: AQUA
#Configuration: AQUA
#almurnet v.1.7.20240730
#Start time: 2026-01-18 10:47:16

#Version: 2.2.20231116
#Station: R3.2S-Naryan-Mar
#Location: 53.008057 lon 67.646978 lat
#TLE: 1 27424U 02022A   26017.29152041  .00000842  00000+0  17841-3 0  9992
#TLE: 2 27424  98.4085 343.7574 0002011  75.4099  30.6811 14.61825797261228

#Time	Az	El	Level	Level2	SNR	BER	BlckErr	Temp	State	Recorded	gain1	gain2
2026-01-18 10:47:16.92	325.10	29.10	-85.2	-88.6	3.4	1.56e+00	0	47	0	0	60	1048575
2026-01-18 10:47:18.93	325.36	28.71	-83.9	-88.8	2.5	3.12e+01	0	47	104	0	60	1048572
2026-01-18 10:47:20.94	325.62	28.31	-84.3	-88.8	2.4	3.12e+01	0	47	104	0	60	1048572
2026-01-18 10:47:22.96	325.87	27.92	-84.3	-88.8	2.6	3.12e+01	0	47	104	0	60	1048572
2026-01-18 10:47:24.97	326.12	27.54	-84.3	-88.8	2.2	3.12e+01	0	47	104	0	60	1048572
2026-01-18 10:47:26.99	326.36	27.16	-84.3	-88.8	2.6	3.12e+01	0	47	104	0	60	1048572
2026-01-18 10:47:29.00	326.60	26.79	-83.5	-88.8	2.5	3.12e+01	0	47	104	0	60	1048572
2026-01-18 10:47:31.02	326.83	26.42	-84.3	-88.8	2.4	3.12e+01	0	47	104	0	60	1048572
2026-01-18 10:47:33.03	327.05	26.05	-84.3	-88.8	2.6	3.12e+01	0	47	104	0	60	1048572
2026-01-18 10:47:35.04	327.27	25.70	-84.3	-88.8	2.5	3.12e+01	0	47	104	0	60	1048572
2026-01-18 10:47:37.05	327.49	25.34	-84.3	-88.8	2.8	3.12e+01	0	47	104	0	60	1048572
2026-01-18 10:47:39.07	327.70	24.99	-84.3	-88.8	2.5	3.12e+01	0	47	104	0	60	1048572
2026-01-18 10:47:41.09	327.90	24.65	-84.3	-88.8	2.7	3.12e+01	0	47	104	0	60	1048572
2026-01-18 10:47:43.10	328.10	24.31	-83.9	-88.8	2.4	3.12e+01	0	47	104	0	60	1048572
2026-01-18 10:47:45.12	328.30	23.97	-84.3	-88.8	2.5	3.12e+01	0	47	104	0	60	1048572
2026-01-18 10:47:47.13	328.49	23.64	-83.9	-88.8	2.4	3.12e+01	0	47	104	0	60	1048572
2026-01-18 10:47:49.14	328.68	23.31	-84.3	-88.8	2.4	3.12e+01	0	47	104	0	60	1048572
2026-01-18 10:47:51.16	328.87	22.99	-84.3	-88.8	2.6	3.12e+01	0	47	104	0	60	1048572
2026-01-18 10:47:53.17	329.05	22.67	-83.9	-88.8	2.5	3.12e+01	0	47	104	0	60	1048572
2026-01-18 10:47:55.19	329.23	22.36	-84.3	-88.8	2.4	3.12e+01	0	47	104	0	60	1048572
2026-01-18 10:47:57.21	329.40	22.04	-83.9	-88.8	2.5	3.12e+01	0	47	104	0	60	1048572
2026-01-18 10:47:59.22	329.57	21.74	-84.3	-88.8	2.4	3.12e+01	0	47	104	0	60	1048572
2026-01-18 10:48:01.24	329.74	21.43	-83.9	-88.8	2.6	3.12e+01	0	47	104	0	60	1048572
2026-01-18 10:48:03.25	329.90	21.13	-84.3	-88.8	2.4	3.12e+01	0	47	104	0	60	1048572
2026-01-18 10:48:05.26	330.06	20.84	-83.9	-88.8	2.7	3.12e+01	0	47	104	0	60	1048572
2026-01-18 10:48:07.28	330.22	20.55	-83.9	-88.8	2.6	3.12e+01	0	47	104	0	60	1048572
2026-01-18 10:48:09.29	330.38	20.26	-84.3	-88.8	2.8	3.12e+01	0	47	104	0	60	1048572
2026-01-18 10:48:11.30	330.53	19.97	-83.9	-88.8	2.4	3.12e+01	0	47	104	0	60	1048572
2026-01-18 10:48:13.32	330.68	19.69	-84.3	-88.8	2.6	3.12e+01	0	47	104	0	60	1048572
2026-01-18 10:48:15.33	330.83	19.41	-84.3	-88.8	2.5	3.12e+01	0	47	104	0	60	1048572
2026-01-18 10:48:17.35	330.97	19.14	-84.3	-88.8	2.3	3.12e+01	0	47	104	0	60	1048572
2026-01-18 10:48:19.36	331.11	18.86	-84.3	-88.8	2.6	3.12e+01	0	47	104	0	60	1048572
2026-01-18 10:48:21.38	331.25	18.60	-83.9	-88.8	2.6	3.12e+01	0	47	104	0	60	1048572
2026-01-18 10:48:23.40	331.39	18.33	-84.3	-88.8	2.6	3.12e+01	0	47	104	0	60	1048572
2026-01-18 10:48:25.41	331.52	18.07	-83.5	-88.8	2.5	3.12e+01	0	47	104	0	60	1048572
2026-01-18 10:48:27.42	331.65	17.81	-83.9	-88.8	2.7	3.12e+01	0	47	104	0	60	1048572
2026-01-18 10:48:29.44	331.78	17.55	-84.3	-88.8	3.0	3.12e+01	0	47	104	0	60	1048572
2026-01-18 10:48:31.45	331.91	17.29	-83.9	-88.8	2.5	3.12e+01	0	47	104	0	60	1048572
2026-01-18 10:48:33.47	332.04	17.04	-84.3	-88.8	2.0	3.12e+01	0	47	104	0	60	1048572
2026-01-18 10:48:35.48	332.16	16.79	-83.9	-88.8	2.7	3.12e+01	0	47	104	0	60	1048572
2026-01-18 10:48:37.50	332.28	16.55	-84.3	-88.8	2.3	3.12e+01	0	47	104	0	60	1048572
2026-01-18 10:48:39.51	332.40	16.30	-83.9	-88.8	2.5	3.12e+01	0	47	104	0	60	1048572
2026-01-18 10:48:41.52	332.52	16.06	-84.3	-88.8	2.4	3.12e+01	0	47	104	0	60	1048572
2026-01-18 10:48:43.54	332.64	15.82	-84.3	-88.8	2.6	3.12e+01	0	47	104	0	60	1048572
2026-01-18 10:48:45.56	332.75	15.59	-83.9	-88.8	2.6	3.12e+01	0	47	104	0	60	1048572
2026-01-18 10:48:47.57	332.86	15.35	-84.3	-88.8	2.3	3.12e+01	0	47	104	0	60	1048573
2026-01-18 10:48:49.59	332.97	15.12	-83.9	-88.8	2.6	3.12e+01	0	47	104	0	60	1048573
2026-01-18 10:48:51.60	333.08	14.89	-84.3	-88.8	2.4	3.12e+01	0	47	104	0	60	1048573
2026-01-18 10:48:53.62	333.19	14.67	-84.3	-88.8	2.6	3.12e+01	0	47	104	0	60	1048573
2026-01-18 10:48:55.64	333.30	14.44	-84.3	-88.8	2.3	3.12e+01	0	47	104	0	60	1048573
2026-01-18 10:48:57.65	333.40	14.22	-84.3	-88.8	2.7	3.12e+01	0	47	104	0	60	1048573
2026-01-18 10:48:59.66	333.50	14.00	-83.9	-88.8	2.3	3.12e+01	0	47	104	0	60	1048573
2026-01-18 10:49:01.67	333.61	13.78	-84.3	-88.8	2.6	3.12e+01	0	47	104	0	60	1048573
2026-01-18 10:49:03.68	333.71	13.57	-83.9	-88.8	2.5	3.12e+01	0	47	104	0	60	1048573
2026-01-18 10:49:05.69	333.80	13.35	-84.3	-88.8	2.3	3.12e+01	0	47	104	0	60	1048573
2026-01-18 10:49:07.71	333.90	13.14	-84.3	-88.8	2.3	3.12e+01	0	47	104	0	60	1048573
2026-01-18 10:49:09.72	334.00	12.93	-84.3	-88.8	2.5	3.12e+01	0	47	104	0	60	1048573
2026-01-18 10:49:11.74	334.09	12.72	-83.9	-88.8	2.5	3.12e+01	0	47	104	0	60	1048573
2026-01-18 10:49:13.76	334.18	12.52	-83.9	-88.8	2.3	3.12e+01	0	47	104	0	60	1048573
2026-01-18 10:49:15.77	334.28	12.31	-84.3	-88.8	2.6	3.12e+01	0	47	104	0	60	1048573
2026-01-18 10:49:17.78	334.37	12.11	-83.9	-88.8	2.3	3.12e+01	0	47	104	0	60	1048573
2026-01-18 10:49:19.79	334.46	11.91	-84.3	-88.8	2.5	3.12e+01	0	47	104	0	60	1048573
2026-01-18 10:49:21.81	334.55	11.71	-84.3	-88.8	2.5	3.12e+01	0	47	104	0	60	1048573
2026-01-18 10:49:23.83	334.63	11.51	-83.9	-88.8	2.4	3.12e+01	0	47	104	0	60	1048573
2026-01-18 10:49:25.84	334.72	11.32	-84.3	-88.8	2.2	3.12e+01	0	47	104	0	60	1048573
2026-01-18 10:49:27.86	334.80	11.12	-83.9	-88.8	2.7	3.12e+01	0	47	104	0	60	1048573
2026-01-18 10:49:29.87	334.89	10.93	-83.9	-88.8	2.5	3.12e+01	0	47	104	0	60	1048573
2026-01-18 10:49:31.88	334.97	10.74	-83.9	-88.8	2.5	3.12e+01	0	47	104	0	60	1048573
2026-01-18 10:49:33.89	335.05	10.55	-84.3	-88.8	2.7	3.12e+01	0	47	104	0	60	1048573
2026-01-18 10:49:35.91	335.13	10.37	-84.3	-88.8	2.4	3.12e+01	0	47	104	0	60	1048573
2026-01-18 10:49:37.92	335.21	10.18	-83.9	-88.8	2.4	3.12e+01	0	47	104	0	60	1048573
2026-01-18 10:49:39.93	335.29	10.00	-84.3	-88.8	2.2	3.12e+01	0	47	104	0	60	1048573
2026-01-18 10:49:41.95	335.37	9.81	-83.9	-88.8	2.3	3.12e+01	0	47	104	0	60	1048573
2026-01-18 10:49:43.96	335.45	9.63	-84.3	-88.8	2.6	3.12e+01	0	47	104	0	60	1048573
2026-01-18 10:49:45.97	335.52	9.45	-84.3	-88.8	2.6	3.12e+01	0	47	104	0	60	1048573
2026-01-18 10:49:47.98	335.60	9.27	-84.3	-88.8	2.7	3.12e+01	0	47	104	0	60	1048573
2026-01-18 10:49:50.00	335.67	9.10	-84.3	-88.8	2.7	3.12e+01	0	47	104	0	60	1048573
2026-01-18 10:49:52.01	335.75	8.92	-83.9	-88.8	2.6	3.12e+01	0	47	104	0	60	1048573
2026-01-18 10:49:54.03	335.82	8.75	-84.3	-88.8	2.4	3.12e+01	0	47	104	0	60	1048573
2026-01-18 10:49:56.05	335.89	8.57	-83.9	-88.8	2.2	3.12e+01	0	47	104	0	60	1048573
2026-01-18 10:49:58.06	335.96	8.40	-84.3	-88.8	2.4	3.12e+01	0	47	104	0	60	1048573
2026-01-18 10:50:00.08	336.03	8.23	-84.3	-88.8	2.5	3.12e+01	0	47	104	0	60	1048573
2026-01-18 10:50:02.09	336.10	8.06	-84.3	-88.8	2.4	3.12e+01	0	47	104	0	60	1048573
2026-01-18 10:50:04.10	336.17	7.89	-84.3	-88.8	2.5	3.12e+01	0	47	104	0	60	1048573
2026-01-18 10:50:06.11	336.24	7.73	-83.9	-88.8	2.5	3.12e+01	0	47	104	0	60	1048573
2026-01-18 10:50:08.13	336.31	7.56	-84.3	-88.8	2.2	3.12e+01	0	47	104	0	60	1048573
2026-01-18 10:50:10.14	336.37	7.40	-83.9	-88.8	2.5	3.12e+01	0	47	104	0	60	1048573
2026-01-18 10:50:12.16	336.44	7.23	-84.3	-88.8	2.7	3.12e+01	0	47	104	0	60	1048573
2026-01-18 10:50:14.17	336.50	7.07	-84.3	-88.8	2.4	3.12e+01	0	47	104	0	60	1048573
2026-01-18 10:50:16.18	336.57	6.91	-84.3	-88.8	2.5	3.12e+01	0	47	104	0	60	1048573
2026-01-18 10:50:18.19	336.63	6.75	-83.9	-88.8	2.5	3.12e+01	0	47	104	0	60	1048574
2026-01-18 10:50:20.21	336.70	6.59	-83.9	-88.8	2.5	3.12e+01	0	47	104	0	60	1048574
2026-01-18 10:50:22.23	336.76	6.43	-83.9	-88.8	2.8	3.12e+01	0	47	104	0	60	1048574
2026-01-18 10:50:24.24	336.82	6.28	-83.9	-88.8	2.6	3.12e+01	0	47	104	0	60	1048574
2026-01-18 10:50:26.25	336.88	6.12	-84.3	-88.8	2.4	3.12e+01	0	47	104	0	60	1048574
2026-01-18 10:50:28.27	336.94	5.97	-84.3	-88.8	2.5	3.12e+01	0	47	104	0	60	1048574
2026-01-18 10:50:30.29	337.00	5.81	-83.9	-88.8	2.3	3.12e+01	0	47	104	0	60	1048574
2026-01-18 10:50:32.30	337.06	5.66	-84.3	-88.8	2.5	3.12e+01	0	47	104	0	60	1048574
2026-01-18 10:50:34.31	337.12	5.51	-83.9	-88.8	2.4	3.12e+01	0	47	104	0	60	1048574
2026-01-18 10:50:36.33	337.18	5.36	-84.3	-88.8	2.4	3.12e+01	0	47	104	0	60	1048574
2026-01-18 10:50:38.34	337.24	5.21	-83.9	-88.8	2.7	3.12e+01	0	47	104	0	60	1048574
2026-01-18 10:50:40.35	337.30	5.06	-83.9	-88.8	2.6	3.12e+01	0	47	104	0	60	1048574
2026-01-18 10:50:42.37	337.35	4.91	-84.3	-88.8	2.6	3.12e+01	0	47	104	0	60	1048574
2026-01-18 10:50:44.39	337.41	4.76	-84.3	-88.8	2.5	3.12e+01	0	47	104	0	60	1048574
2026-01-18 10:50:46.41	337.47	4.62	-84.3	-88.8	2.4	3.12e+01	0	47	104	0	60	1048574
2026-01-18 10:50:48.42	337.52	4.47	-83.9	-88.8	2.4	3.12e+01	0	47	104	0	60	1048574
2026-01-18 10:50:50.44	337.58	4.33	-84.3	-88.8	2.6	3.12e+01	0	47	104	0	60	1048574
2026-01-18 10:50:52.45	337.63	4.18	-83.9	-88.8	2.4	3.12e+01	0	47	104	0	60	1048574
2026-01-18 10:50:54.47	337.68	4.04	-84.3	-88.8	2.5	3.12e+01	0	47	104	0	60	1048574
2026-01-18 10:50:56.49	337.74	3.90	-84.3	-88.8	2.6	3.12e+01	0	47	104	0	60	1048574
2026-01-18 10:50:58.50	337.79	3.76	-83.9	-88.8	2.5	3.12e+01	0	47	104	0	60	1048574
2026-01-18 10:51:00.50	337.84	3.62	-83.9	-88.8	2.2	3.12e+01	0	47	104	0	60	1048574
2026-01-18 10:51:02.51	337.89	3.48	-83.9	-88.8	2.4	3.12e+01	0	47	104	0	60	1048574
2026-01-18 10:51:04.53	337.95	3.34	-84.3	-88.8	2.4	3.12e+01	0	47	104	0	60	1048574
2026-01-18 10:51:06.54	338.00	3.20	-84.3	-88.8	2.6	3.12e+01	0	47	104	0	60	1048574
2026-01-18 10:51:08.55	338.05	3.06	-84.3	-88.8	2.5	3.12e+01	0	47	104	0	60	1048574
2026-01-18 10:51:10.56	338.10	2.93	-84.3	-88.8	2.6	3.12e+01	0	47	104	0	60	1048574
2026-01-18 10:51:12.57	338.15	2.79	-83.9	-88.8	2.7	3.12e+01	0	47	104	0	60	1048574
2026-01-18 10:51:14.59	338.20	2.66	-84.3	-88.8	2.3	3.12e+01	0	47	104	0	60	1048574
2026-01-18 10:51:16.60	338.25	2.52	-83.9	-88.8	2.4	3.12e+01	0	47	104	0	60	1048574
2026-01-18 10:51:18.62	338.30	2.39	-84.3	-88.8	2.5	3.12e+01	0	47	104	0	60	1048574
2026-01-18 10:51:20.64	338.34	2.25	-84.3	-88.8	2.5	3.12e+01	0	47	104	0	60	1048574
2026-01-18 10:51:22.65	338.39	2.12	-84.3	-88.8	2.5	3.12e+01	0	47	104	0	60	1048574
2026-01-18 10:51:24.67	338.44	1.99	-84.3	-88.8	2.4	3.12e+01	0	47	104	0	60	1048574
2026-01-18 10:51:26.68	338.49	1.86	-83.9	-88.8	2.3	3.12e+01	0	47	104	0	60	1048574
2026-01-18 10:51:28.69	338.53	1.73	-84.3	-88.8	2.6	3.12e+01	0	47	104	0	60	1048574
2026-01-18 10:51:30.71	338.58	1.60	-84.3	-88.8	2.7	3.12e+01	0	47	104	0	60	1048574
2026-01-18 10:51:32.72	338.63	1.47	-84.3	-88.8	2.6	3.12e+01	0	47	104	0	60	1048574
2026-01-18 10:51:34.74	338.67	1.34	-84.3	-88.8	2.5	3.12e+01	0	47	104	0	60	1048574
2026-01-18 10:51:36.76	338.72	1.21	-84.3	-88.8	2.5	3.12e+01	0	47	104	0	60	1048574
2026-01-18 10:51:38.77	338.76	1.09	-84.3	-88.8	2.4	3.12e+01	0	47	104	0	60	1048574
2026-01-18 10:51:40.79	338.81	0.96	-83.9	-88.8	2.5	3.12e+01	0	47	104	0	60	1048574
2026-01-18 10:51:42.80	338.85	0.83	-84.3	-88.8	2.7	3.12e+01	0	47	104	0	60	1048574
2026-01-18 10:51:44.81	338.89	0.71	-83.9	-88.8	2.7	3.12e+01	0	47	104	0	60	1048574
2026-01-18 10:51:46.82	338.94	0.58	-84.3	-88.8	2.7	3.12e+01	0	47	104	0	60	1048574
2026-01-18 10:51:48.83	338.98	0.46	-84.3	-88.8	2.4	3.12e+01	0	47	104	0	60	1048574
2026-01-18 10:51:50.85	339.03	0.33	-83.9	-88.8	2.7	3.12e+01	0	47	104	0	60	1048574
2026-01-18 10:51:52.86	339.07	0.21	-84.3	-88.8	2.4	3.12e+01	0	47	104	0	60	1048574
2026-01-18 10:51:54.88	339.11	0.09	-83.9	-88.8	2.4	3.12e+01	0	47	104	0	60	1048574
2026-01-18 10:51:56.89	339.15	-0.03	-84.3	-88.8	2.5	3.12e+01	0	47	104	0	60	1048574

#Closed at: 2026-01-18 10:51:57
#Recorded file [0 MB]: D:/Data/35015_260118_134716.dat