passes_logs/2026/01/18/R3.2S-Naryan-Mar/R3.2S-Naryan-Mar__20260118_092828_TY-41_rec.log

#Pass ID: 20260118_092828_TY-41
#Satellite: TY-41
#Configuration: TY-39
#almurnet v.1.7.20240730
#Start time: 2026-01-18 09:28:32

#Version: 2.2.20231116
#Station: R3.2S-Naryan-Mar
#Location: 53.008057 lon 67.646978 lat
#TLE: 1 61231U 24173E   26017.70896991  .00008013  00000-0  38191-3 0 09992
#TLE: 2 61231 097.4119 092.6921 0001804 091.8360 205.6844 15.19179825 72900

#Time	Az	El	Level	Level2	SNR	BER	BlckErr	Temp	State	Recorded	gain1	gain2
2026-01-18 09:28:32.04	22.15	0.19	-84.3	-88.8	2.1	3.12e+01	0	45	0	0	60	1048575
2026-01-18 09:28:35.06	21.99	0.38	-83.5	-79.0	2.5	0.00e+00	0	46	104	0	60	1048570
2026-01-18 09:28:38.08	21.82	0.56	-83.5	-79.0	2.3	0.00e+00	0	46	104	0	60	1048570
2026-01-18 09:28:41.11	21.65	0.75	-83.1	-79.0	2.4	0.00e+00	0	46	104	0	60	1048574
2026-01-18 09:28:44.13	21.48	0.94	-83.5	-79.0	2.4	0.00e+00	0	46	104	0	60	1048573
2026-01-18 09:28:47.16	21.30	1.13	-83.5	-79.0	2.4	0.00e+00	0	47	104	0	60	1048572
2026-01-18 09:28:50.18	21.13	1.32	-83.1	-79.0	2.4	0.00e+00	0	47	104	0	60	1048573
2026-01-18 09:28:53.20	20.95	1.51	-83.5	-79.0	2.6	0.00e+00	0	47	104	0	60	1048573
2026-01-18 09:28:56.22	20.76	1.70	-83.5	-79.0	2.4	0.00e+00	0	47	104	0	60	1048572
2026-01-18 09:28:59.25	20.57	1.90	-83.5	-79.0	2.3	0.00e+00	0	47	104	0	60	1048566
2026-01-18 09:29:02.26	20.38	2.10	-83.5	-79.0	2.4	0.00e+00	0	47	104	0	60	1048570
2026-01-18 09:29:05.28	20.19	2.29	-83.1	-79.0	2.4	0.00e+00	0	47	104	0	60	1048575
2026-01-18 09:29:08.30	19.99	2.49	-83.5	-79.0	2.4	0.00e+00	0	47	104	0	60	1048574
2026-01-18 09:29:11.31	19.79	2.69	-83.5	-79.0	2.4	0.00e+00	0	47	104	0	60	1048572
2026-01-18 09:29:14.34	19.58	2.90	-83.1	-79.0	2.4	0.00e+00	0	47	104	0	60	1048575
2026-01-18 09:29:17.36	19.37	3.10	-83.5	-79.0	2.4	0.00e+00	0	47	104	0	60	1048572
2026-01-18 09:29:20.39	19.16	3.31	-83.5	-79.0	2.4	0.00e+00	0	47	104	0	60	1048573
2026-01-18 09:29:23.42	18.94	3.52	-83.1	-79.0	2.3	0.00e+00	0	47	104	0	60	1048574
2026-01-18 09:29:26.43	18.72	3.73	-83.1	-79.0	2.7	0.00e+00	0	47	104	0	60	1048575
2026-01-18 09:29:29.45	18.50	3.94	-83.1	-79.0	2.4	0.00e+00	0	47	104	0	60	1048573
2026-01-18 09:29:32.47	18.27	4.15	-82.8	-79.0	2.4	0.00e+00	0	47	104	0	60	1048574
2026-01-18 09:29:35.49	18.03	4.37	-83.5	-79.0	2.4	0.00e+00	0	47	104	0	60	1048573
2026-01-18 09:29:38.52	17.79	4.59	-82.8	-79.0	2.4	0.00e+00	0	47	104	0	60	1048568
2026-01-18 09:29:41.54	17.55	4.80	-83.5	-79.0	2.4	0.00e+00	0	48	104	0	60	1048574
2026-01-18 09:29:44.56	17.30	5.03	-83.5	-79.0	2.2	0.00e+00	0	48	104	0	60	1048575
2026-01-18 09:29:47.58	17.04	5.25	-82.8	-79.0	2.5	0.00e+00	0	48	104	0	60	1048570
2026-01-18 09:29:50.60	16.79	5.47	-83.5	-79.0	2.4	0.00e+00	0	48	104	0	60	1048572
2026-01-18 09:29:53.62	16.52	5.70	-83.5	-79.0	2.4	0.00e+00	0	48	104	0	60	1048575
2026-01-18 09:29:56.65	16.25	5.93	-83.1	-79.0	2.3	0.00e+00	0	48	104	0	60	1048574
2026-01-18 09:29:59.67	15.97	6.16	-83.1	-79.0	2.8	0.00e+00	0	48	104	0	60	1048573
2026-01-18 09:30:02.69	15.69	6.40	-83.1	-79.0	2.4	0.00e+00	0	48	104	0	60	1048571
2026-01-18 09:30:05.71	15.41	6.63	-83.1	-79.0	2.5	0.00e+00	0	48	104	0	60	1048574
2026-01-18 09:30:08.74	15.11	6.87	-83.5	-79.0	2.4	0.00e+00	0	48	104	0	60	1048572
2026-01-18 09:30:11.76	14.81	7.11	-82.8	-79.0	2.2	0.00e+00	0	48	104	0	60	1048569
2026-01-18 09:30:14.78	14.50	7.35	-83.5	-79.0	2.5	0.00e+00	0	48	104	0	60	1048572
2026-01-18 09:30:17.80	14.19	7.60	-83.5	-79.0	2.4	0.00e+00	0	48	104	0	60	1048575
2026-01-18 09:30:20.82	13.87	7.85	-82.8	-79.0	2.3	0.00e+00	0	48	104	0	60	1048570
2026-01-18 09:30:23.84	13.55	8.10	-83.5	-79.0	2.4	0.00e+00	0	48	104	0	60	1048575
2026-01-18 09:30:26.87	13.21	8.35	-83.5	-79.0	2.4	0.00e+00	0	48	104	0	60	1048574
2026-01-18 09:30:29.89	12.87	8.61	-83.1	-79.0	2.4	0.00e+00	0	48	104	0	60	1048573
2026-01-18 09:30:32.91	12.52	8.86	-83.5	-79.0	2.2	0.00e+00	0	48	104	0	60	1048574
2026-01-18 09:30:35.93	12.16	9.13	-83.5	-79.0	2.5	0.00e+00	0	48	104	0	60	1048574
2026-01-18 09:30:38.95	11.80	9.39	-83.1	-79.0	2.4	0.00e+00	0	48	104	0	60	1048575
2026-01-18 09:30:41.97	11.42	9.65	-83.5	-79.0	2.3	0.00e+00	0	48	104	0	60	1048574
2026-01-18 09:30:44.99	11.04	9.92	-83.1	-79.0	2.4	0.00e+00	0	48	104	0	60	1048575
2026-01-18 09:30:48.02	10.64	10.20	-83.5	-79.0	2.4	0.00e+00	0	48	104	0	60	1048574
2026-01-18 09:30:51.04	10.24	10.47	-83.5	-79.0	2.5	0.00e+00	0	48	104	0	60	1048575
2026-01-18 09:30:54.07	9.83	10.75	-82.8	-79.0	2.3	0.00e+00	0	48	104	0	60	1048570
2026-01-18 09:30:57.08	9.41	11.03	-83.5	-79.0	2.4	0.00e+00	0	48	104	0	60	1048572
2026-01-18 09:31:00.10	8.98	11.31	-83.5	-79.0	2.4	0.00e+00	0	48	104	0	60	1048572
2026-01-18 09:31:03.12	8.54	11.60	-83.1	-79.0	2.4	0.00e+00	0	48	104	0	60	1048572
2026-01-18 09:31:06.14	8.09	11.89	-83.5	-79.0	2.2	0.00e+00	0	48	104	0	60	1048573
2026-01-18 09:31:09.17	7.62	12.18	-83.1	-79.0	2.5	0.00e+00	0	48	104	0	60	1048571
2026-01-18 09:31:12.19	7.15	12.47	-83.5	-79.0	2.4	0.00e+00	0	48	104	0	60	1048575
2026-01-18 09:31:15.21	6.66	12.77	-83.1	-79.0	2.4	0.00e+00	0	48	104	0	60	1048572
2026-01-18 09:31:18.24	6.16	13.07	-83.1	-79.0	2.5	0.00e+00	0	48	104	0	60	1048570
2026-01-18 09:31:21.26	5.65	13.38	-83.5	-79.0	2.5	0.00e+00	0	49	104	0	60	1048573
2026-01-18 09:31:24.29	5.12	13.68	-83.5	-79.0	2.4	0.00e+00	0	49	104	0	60	1048569
2026-01-18 09:31:27.30	4.59	13.99	-82.8	-79.0	2.4	0.00e+00	0	48	104	0	60	1048570
2026-01-18 09:31:30.33	4.03	14.31	-83.5	-79.0	2.4	0.00e+00	0	49	104	0	60	1048575
2026-01-18 09:31:33.34	3.47	14.62	-83.5	-79.0	2.3	0.00e+00	0	49	104	0	60	1048572
2026-01-18 09:31:36.37	2.88	14.94	-83.1	-79.0	2.4	0.00e+00	0	49	104	0	60	1048569
2026-01-18 09:31:39.39	2.29	15.26	-83.5	-79.0	2.4	0.00e+00	0	48	104	0	60	1048575
2026-01-18 09:31:42.40	1.68	15.58	-83.1	-79.0	2.3	0.00e+00	0	48	104	0	60	1048566
2026-01-18 09:31:45.41	1.05	15.91	-83.5	-79.0	2.4	0.00e+00	0	49	104	0	60	1048575
2026-01-18 09:31:48.43	0.41	16.24	-83.5	-79.0	2.4	0.00e+00	0	49	104	0	60	1048572
2026-01-18 09:31:51.45	359.75	16.57	-83.1	-79.0	2.4	0.00e+00	0	49	104	0	60	1048574
2026-01-18 09:31:54.47	359.07	16.90	-83.5	-79.0	2.4	0.00e+00	0	49	104	0	60	1048571
2026-01-18 09:31:57.49	358.37	17.24	-83.5	-79.0	2.4	0.00e+00	0	49	104	0	60	1048573
2026-01-18 09:32:00.51	357.66	17.58	-82.8	-79.0	2.4	0.00e+00	0	49	104	0	60	1048567
2026-01-18 09:32:03.53	356.92	17.92	-83.5	-79.0	2.4	0.00e+00	0	49	104	0	60	1048573
2026-01-18 09:32:06.55	356.17	18.26	-83.5	-79.0	2.4	0.00e+00	0	49	104	0	60	1048571
2026-01-18 09:32:09.58	355.39	18.60	-83.1	-79.0	2.5	0.00e+00	0	49	104	0	60	1048568
2026-01-18 09:32:12.58	354.60	18.94	-83.1	-79.0	2.4	0.00e+00	0	49	104	0	60	1048575
2026-01-18 09:32:15.58	353.79	19.28	-83.1	-79.0	2.3	0.00e+00	0	49	104	0	60	1048575
2026-01-18 09:32:18.59	352.96	19.62	-83.1	-79.0	2.4	0.00e+00	0	49	104	0	60	1048570
2026-01-18 09:32:21.62	352.09	19.97	-83.5	-79.0	2.4	0.00e+00	0	49	104	0	60	1048574
2026-01-18 09:32:24.64	351.21	20.31	-83.1	-79.0	2.4	0.00e+00	0	49	104	0	60	1048575
2026-01-18 09:32:27.67	350.30	20.66	-83.5	-79.0	2.4	0.00e+00	0	49	104	0	60	1048573
2026-01-18 09:32:30.68	349.38	21.00	-83.1	-79.0	2.3	0.00e+00	0	49	104	0	60	1048575
2026-01-18 09:32:33.69	348.43	21.34	-83.1	-79.0	2.4	0.00e+00	0	49	104	0	60	1048573
2026-01-18 09:32:36.70	347.46	21.68	-83.5	-79.0	2.4	0.00e+00	0	49	104	0	60	1048574
2026-01-18 09:32:39.71	346.46	22.01	-83.5	-79.0	2.3	0.00e+00	0	49	104	0	60	1048573
2026-01-18 09:32:42.73	345.43	22.34	-83.5	-79.0	2.5	0.00e+00	0	49	104	0	60	1048575
2026-01-18 09:32:45.74	344.39	22.67	-83.5	-79.0	2.3	0.00e+00	0	49	104	0	60	1048572
2026-01-18 09:32:48.76	343.31	23.00	-83.1	-79.0	2.4	0.00e+00	0	49	104	0	60	1048574
2026-01-18 09:32:51.77	342.21	23.31	-83.1	-79.0	2.4	0.00e+00	0	49	104	0	60	1048575
2026-01-18 09:32:54.79	341.09	23.63	-83.5	-79.0	2.3	0.00e+00	0	49	104	0	60	1048575
2026-01-18 09:32:57.81	339.93	23.94	-83.1	-79.0	2.4	0.00e+00	0	49	104	0	60	1048571
2026-01-18 09:33:00.83	338.76	24.23	-83.5	-79.0	2.4	0.00e+00	0	49	104	0	60	1048575
2026-01-18 09:33:03.84	337.56	24.53	-83.5	-79.0	2.4	0.00e+00	0	49	104	0	60	1048575
2026-01-18 09:33:06.86	336.33	24.81	-83.1	-79.0	2.4	0.00e+00	0	49	104	0	60	1048573
2026-01-18 09:33:09.88	335.08	25.08	-83.5	-79.0	2.4	0.00e+00	0	49	104	0	60	1048575
2026-01-18 09:33:12.91	333.80	25.34	-83.1	-79.0	2.5	0.00e+00	0	49	104	0	60	1048574
2026-01-18 09:33:15.93	332.50	25.59	-83.1	-79.0	2.5	0.00e+00	0	49	104	0	60	1048575
2026-01-18 09:33:18.96	331.18	25.83	-83.5	-79.0	2.4	0.00e+00	0	49	104	0	60	1048573
2026-01-18 09:33:21.98	329.83	26.06	-83.1	-79.0	2.5	0.00e+00	0	49	104	0	60	1048574
2026-01-18 09:33:24.98	328.48	26.27	-83.5	-79.0	2.5	0.00e+00	0	49	104	0	60	1048574
2026-01-18 09:33:28.01	327.09	26.46	-83.5	-79.0	2.4	0.00e+00	0	49	104	0	60	1048573
2026-01-18 09:33:31.02	325.69	26.65	-83.1	-79.0	2.5	0.00e+00	0	49	104	0	60	1048572
2026-01-18 09:33:34.05	324.27	26.81	-83.5	-79.0	2.4	0.00e+00	0	49	104	0	60	1048567
2026-01-18 09:33:37.07	322.83	26.96	-83.5	-79.0	2.7	0.00e+00	0	49	104	0	60	1048574
2026-01-18 09:33:40.08	321.39	27.09	-83.5	-79.0	2.4	0.00e+00	0	49	104	0	60	1048572
2026-01-18 09:33:43.10	319.93	27.20	-83.5	-79.0	2.4	0.00e+00	0	49	104	0	60	1048569
2026-01-18 09:33:46.12	318.46	27.29	-83.5	-79.0	2.4	0.00e+00	0	49	104	0	60	1048573
2026-01-18 09:33:49.15	316.97	27.37	-83.5	-79.0	2.4	0.00e+00	0	49	104	0	60	1048575
2026-01-18 09:33:52.17	315.49	27.42	-83.1	-79.0	2.4	0.00e+00	0	49	104	0	60	1048564
2026-01-18 09:33:55.18	314.00	27.46	-82.8	-79.0	2.3	0.00e+00	0	49	104	0	60	1048573
2026-01-18 09:33:58.21	312.50	27.47	-83.5	-79.0	2.4	0.00e+00	0	49	104	0	60	1048566
2026-01-18 09:34:01.23	311.01	27.47	-83.5	-79.0	2.4	0.00e+00	0	49	104	0	60	1048570
2026-01-18 09:34:04.25	309.52	27.44	-83.1	-79.0	2.3	0.00e+00	0	49	104	0	60	1048570
2026-01-18 09:34:07.28	308.02	27.40	-83.1	-79.0	2.4	0.00e+00	0	49	104	0	60	1048572
2026-01-18 09:34:10.30	306.54	27.33	-83.5	-79.0	2.4	0.00e+00	0	49	104	0	60	1048574
2026-01-18 09:34:13.32	305.06	27.25	-83.1	-79.0	2.4	0.00e+00	0	49	104	0	60	1048572
2026-01-18 09:34:16.33	303.60	27.15	-83.5	-79.0	2.4	0.00e+00	0	49	104	0	60	1048575
2026-01-18 09:34:19.35	302.14	27.03	-83.1	-79.0	2.5	0.00e+00	0	49	104	0	60	1048575
2026-01-18 09:34:22.37	300.70	26.89	-83.5	-79.0	2.5	0.00e+00	0	49	104	0	60	1048575
2026-01-18 09:34:25.40	299.26	26.73	-83.1	-79.0	2.4	0.00e+00	0	49	104	0	60	1048571
2026-01-18 09:34:28.42	297.85	26.56	-83.1	-79.0	2.3	0.00e+00	0	49	104	0	60	1048570
2026-01-18 09:34:31.43	296.46	26.37	-83.5	-79.0	2.3	0.00e+00	0	49	104	0	60	1048573
2026-01-18 09:34:34.45	295.08	26.17	-83.5	-79.0	2.4	0.00e+00	0	49	104	0	60	1048570
2026-01-18 09:34:37.48	293.72	25.95	-83.1	-79.0	2.4	0.00e+00	0	49	104	0	60	1048575
2026-01-18 09:34:40.50	292.39	25.71	-83.5	-79.0	2.4	0.00e+00	0	49	104	0	60	1048573
2026-01-18 09:34:43.52	291.07	25.47	-83.5	-79.0	2.3	0.00e+00	0	49	104	0	60	1048575
2026-01-18 09:34:46.54	289.78	25.21	-83.1	-79.0	2.4	0.00e+00	0	49	104	0	60	1048572
2026-01-18 09:34:49.57	288.51	24.94	-83.5	-79.0	2.4	0.00e+00	0	49	104	0	60	1048575
2026-01-18 09:34:52.59	287.27	24.66	-83.1	-79.0	2.4	0.00e+00	0	49	104	0	60	1048573
2026-01-18 09:34:55.61	286.05	24.38	-83.5	-79.0	2.4	0.00e+00	0	49	104	0	60	1048575
2026-01-18 09:34:58.64	284.85	24.08	-83.1	-79.0	2.4	0.00e+00	0	49	104	0	60	1048573
2026-01-18 09:35:01.66	283.69	23.77	-83.1	-79.0	2.4	0.00e+00	0	49	104	0	60	1048575
2026-01-18 09:35:04.68	282.54	23.46	-83.5	-79.0	2.4	0.00e+00	0	49	104	0	60	1048570
2026-01-18 09:35:07.70	281.43	23.15	-83.5	-79.0	2.4	0.00e+00	0	49	104	0	60	1048572
2026-01-18 09:35:10.73	280.33	22.82	-83.1	-79.0	2.3	0.00e+00	0	49	104	0	60	1048575
2026-01-18 09:35:13.75	279.26	22.49	-83.5	-79.0	2.4	0.00e+00	0	49	104	0	60	1048572
2026-01-18 09:35:16.77	278.22	22.16	-83.5	-79.0	2.4	0.00e+00	0	49	104	0	60	1048569
2026-01-18 09:35:19.79	277.21	21.83	-83.5	-79.0	2.4	0.00e+00	0	49	104	0	60	1048573
2026-01-18 09:35:22.81	276.22	21.49	-83.5	-79.0	2.4	0.00e+00	0	49	104	0	60	1048574
2026-01-18 09:35:25.83	275.25	21.15	-83.1	-79.0	2.4	0.00e+00	0	49	104	0	60	1048573
2026-01-18 09:35:28.85	274.31	20.80	-83.5	-79.0	2.4	0.00e+00	0	49	104	0	60	1048575
2026-01-18 09:35:31.88	273.38	20.46	-83.1	-79.0	2.4	0.00e+00	0	49	104	0	60	1048574
2026-01-18 09:35:34.90	272.49	20.11	-83.1	-79.0	2.4	0.00e+00	0	49	104	0	60	1048575
2026-01-18 09:35:37.93	271.61	19.77	-83.5	-79.0	2.4	0.00e+00	0	49	104	0	60	1048575
2026-01-18 09:35:40.95	270.76	19.42	-83.5	-79.0	2.4	0.00e+00	0	49	104	0	60	1048575
2026-01-18 09:35:43.97	269.93	19.07	-83.1	-79.0	2.4	0.00e+00	0	49	104	0	60	1048575
2026-01-18 09:35:47.00	269.12	18.73	-83.5	-79.0	2.4	0.00e+00	0	49	104	0	60	1048574
2026-01-18 09:35:50.02	268.33	18.38	-83.5	-79.0	2.2	0.00e+00	0	49	104	0	60	1048575
2026-01-18 09:35:53.04	267.57	18.04	-83.1	-79.0	2.3	0.00e+00	0	49	104	0	60	1048573
2026-01-18 09:35:56.06	266.82	17.70	-83.5	-79.0	2.4	0.00e+00	0	49	104	0	60	1048575
2026-01-18 09:35:59.09	266.09	17.36	-83.1	-79.0	2.4	0.00e+00	0	49	104	0	60	1048565
2026-01-18 09:36:02.10	265.39	17.02	-83.5	-79.0	2.4	0.00e+00	0	49	104	0	60	1048569
2026-01-18 09:36:05.13	264.69	16.69	-83.1	-79.0	2.5	0.00e+00	0	49	104	0	60	1048574
2026-01-18 09:36:08.15	264.02	16.35	-83.1	-79.0	2.3	0.00e+00	0	49	104	0	60	1048573
2026-01-18 09:36:11.17	263.37	16.02	-83.5	-79.0	2.4	0.00e+00	0	49	104	0	60	1048575
2026-01-18 09:36:14.18	262.73	15.69	-83.5	-79.0	2.5	0.00e+00	0	49	104	0	60	1048573
2026-01-18 09:36:17.20	262.11	15.37	-83.1	-79.0	2.3	0.00e+00	0	49	104	0	60	1048573
2026-01-18 09:36:20.23	261.50	15.04	-83.5	-79.0	2.5	0.00e+00	0	49	104	0	60	1048571
2026-01-18 09:36:23.26	260.91	14.72	-83.5	-79.0	2.6	0.00e+00	0	49	104	0	60	1048575
2026-01-18 09:36:26.27	260.34	14.40	-83.1	-79.0	2.4	0.00e+00	0	49	104	0	60	1048575
2026-01-18 09:36:29.29	259.77	14.09	-83.5	-79.0	2.5	0.00e+00	0	49	104	0	60	1048575
2026-01-18 09:36:32.32	259.23	13.78	-83.1	-79.0	2.3	0.00e+00	0	49	104	0	60	1048575
2026-01-18 09:36:35.34	258.69	13.47	-83.5	-79.0	2.5	0.00e+00	0	49	104	0	60	1048575
2026-01-18 09:36:38.37	258.17	13.16	-83.1	-79.0	2.3	0.00e+00	0	49	104	0	60	1048564
2026-01-18 09:36:41.39	257.66	12.86	-83.5	-79.0	2.4	0.00e+00	0	49	104	0	60	1048574
2026-01-18 09:36:44.41	257.17	12.56	-82.8	-79.0	2.4	0.00e+00	0	49	104	0	60	1048574
2026-01-18 09:36:47.43	256.69	12.26	-83.5	-79.0	2.3	0.00e+00	0	49	104	0	60	1048574
2026-01-18 09:36:50.46	256.22	11.96	-83.1	-79.0	2.3	0.00e+00	0	49	104	0	60	1048575
2026-01-18 09:36:53.48	255.76	11.67	-83.5	-79.0	2.4	0.00e+00	0	49	104	0	60	1048574
2026-01-18 09:36:56.51	255.31	11.38	-83.5	-79.0	2.5	0.00e+00	0	49	104	0	60	1048569
2026-01-18 09:36:59.53	254.87	11.10	-83.1	-79.0	2.4	0.00e+00	0	49	104	0	60	1048575
2026-01-18 09:37:02.55	254.44	10.81	-83.1	-79.0	2.1	0.00e+00	0	49	104	0	60	1048574
2026-01-18 09:37:05.57	254.02	10.53	-83.5	-79.0	2.4	0.00e+00	0	49	104	0	60	1048575
2026-01-18 09:37:08.59	253.62	10.26	-83.1	-79.0	2.4	0.00e+00	0	49	104	0	60	1048575
2026-01-18 09:37:11.61	253.22	9.98	-83.5	-79.0	2.4	0.00e+00	0	49	104	0	60	1048571
2026-01-18 09:37:14.64	252.83	9.71	-83.1	-79.0	2.4	0.00e+00	0	49	104	0	60	1048575
2026-01-18 09:37:17.65	252.45	9.45	-83.5	-79.0	2.4	0.00e+00	0	49	104	0	60	1048575
2026-01-18 09:37:20.68	252.08	9.18	-83.5	-79.0	2.3	0.00e+00	0	49	104	0	60	1048575
2026-01-18 09:37:23.70	251.71	8.92	-83.1	-79.0	2.4	0.00e+00	0	49	104	0	60	1048574
2026-01-18 09:37:26.72	251.36	8.66	-83.5	-79.0	2.4	0.00e+00	0	49	104	0	60	1048563
2026-01-18 09:37:29.74	251.01	8.40	-83.5	-79.0	2.6	0.00e+00	0	49	104	0	60	1048570
2026-01-18 09:37:32.76	250.67	8.14	-83.5	-79.0	2.3	0.00e+00	0	49	104	0	60	1048575
2026-01-18 09:37:35.78	250.34	7.89	-83.5	-79.0	2.5	0.00e+00	0	49	104	0	60	1048574
2026-01-18 09:37:38.79	250.01	7.64	-83.5	-79.0	2.4	0.00e+00	0	49	104	0	60	1048561
2026-01-18 09:37:41.82	249.69	7.40	-83.1	-79.0	2.5	0.00e+00	0	49	104	0	60	1048568
2026-01-18 09:37:44.84	249.38	7.15	-83.1	-79.0	2.5	0.00e+00	0	49	104	0	60	1048572
2026-01-18 09:37:47.86	249.08	6.91	-83.1	-79.0	2.5	0.00e+00	0	49	104	0	60	1048575
2026-01-18 09:37:50.88	248.78	6.67	-83.5	-79.0	2.5	0.00e+00	0	49	104	0	60	1048565
2026-01-18 09:37:53.91	248.49	6.43	-83.5	-79.0	2.5	0.00e+00	0	49	104	0	60	1048573
2026-01-18 09:37:56.93	248.20	6.20	-83.1	-79.0	2.3	0.00e+00	0	49	104	0	60	1048575
2026-01-18 09:37:59.96	247.92	5.96	-83.5	-79.0	2.4	0.00e+00	0	49	104	0	60	1048575
2026-01-18 09:38:02.98	247.65	5.73	-83.5	-79.0	2.4	0.00e+00	0	49	104	0	60	1048572
2026-01-18 09:38:06.01	247.38	5.50	-83.1	-79.0	2.4	0.00e+00	0	49	104	0	60	1048574
2026-01-18 09:38:09.03	247.11	5.27	-83.5	-79.0	2.4	0.00e+00	0	49	104	0	60	1048575
2026-01-18 09:38:12.05	246.85	5.05	-83.5	-79.0	2.3	0.00e+00	0	49	104	0	60	1048572
2026-01-18 09:38:15.07	246.60	4.83	-83.5	-79.0	2.4	0.00e+00	0	49	104	0	60	1048573
2026-01-18 09:38:18.10	246.35	4.61	-82.8	-79.0	2.4	0.00e+00	0	49	104	0	60	1048575
2026-01-18 09:38:21.12	246.11	4.39	-83.1	-79.0	2.4	0.00e+00	0	49	104	0	60	1048573
2026-01-18 09:38:24.13	245.87	4.17	-83.5	-79.0	2.4	0.00e+00	0	49	104	0	60	1048564
2026-01-18 09:38:27.15	245.64	3.96	-83.5	-79.0	2.5	0.00e+00	0	49	104	0	60	1048575
2026-01-18 09:38:30.17	245.41	3.74	-83.1	-79.0	2.3	0.00e+00	0	49	104	0	60	1048575
2026-01-18 09:38:33.20	245.18	3.53	-83.5	-79.0	2.3	0.00e+00	0	49	104	0	60	1048567
2026-01-18 09:38:36.22	244.96	3.32	-83.5	-79.0	2.7	0.00e+00	0	49	104	0	60	1048574
2026-01-18 09:38:39.23	244.74	3.12	-83.1	-79.0	2.2	0.00e+00	0	49	104	0	60	1048575
2026-01-18 09:38:42.25	244.53	2.91	-83.5	-79.0	2.3	0.00e+00	0	49	104	0	60	1048575
2026-01-18 09:38:45.27	244.32	2.71	-83.5	-79.0	2.3	0.00e+00	0	49	104	0	60	1048575
2026-01-18 09:38:48.29	244.12	2.50	-83.5	-79.0	2.5	0.00e+00	0	49	104	0	60	1048559
2026-01-18 09:38:51.32	243.91	2.30	-83.1	-79.0	2.5	0.00e+00	0	49	104	0	60	1048574
2026-01-18 09:38:54.34	243.72	2.10	-82.8	-79.0	2.4	0.00e+00	0	49	104	0	60	1048575
2026-01-18 09:38:57.35	243.52	1.91	-83.5	-79.0	2.4	0.00e+00	0	49	104	0	60	1048571
2026-01-18 09:39:00.37	243.33	1.71	-83.5	-79.0	2.3	0.00e+00	0	49	104	0	60	1048568
2026-01-18 09:39:03.38	243.14	1.51	-83.1	-79.0	2.4	0.00e+00	0	49	104	0	60	1048575
2026-01-18 09:39:06.40	242.96	1.32	-83.5	-79.0	2.4	0.00e+00	0	49	104	0	60	1048573
2026-01-18 09:39:09.42	242.78	1.13	-83.5	-79.0	2.8	0.00e+00	0	49	104	0	60	1048574
2026-01-18 09:39:12.43	242.60	0.94	-83.5	-79.0	2.2	0.00e+00	0	49	104	0	60	1048573
2026-01-18 09:39:15.46	242.43	0.75	-83.5	-79.0	2.4	0.00e+00	0	49	104	0	60	1048569
2026-01-18 09:39:18.48	242.25	0.56	-83.1	-79.0	2.3	0.00e+00	0	49	104	0	60	1048574
2026-01-18 09:39:21.50	242.08	0.38	-83.5	-79.0	2.5	0.00e+00	0	49	104	0	60	1048572
2026-01-18 09:39:24.52	241.92	0.19	-83.1	-79.0	2.3	0.00e+00	0	49	104	0	60	1048574
2026-01-18 09:39:27.53	241.75	0.01	-82.8	-79.0	2.3	0.00e+00	0	49	104	0	60	1048573

#Closed at: 2026-01-18 09:39:27
#Recorded file [0 MB]: D:/Data/35015_260118_122832.dat