passes_logs/2026/01/18/R3.2S-Naryan-Mar/R3.2S-Naryan-Mar__20260118_153936_TY-41_rec.log

#Pass ID: 20260118_153936_TY-41
#Satellite: TY-41
#Configuration: TY-39
#almurnet v.1.7.20240730
#Start time: 2026-01-18 15:39:41

#Version: 2.2.20231116
#Station: R3.2S-Naryan-Mar
#Location: 53.008057 lon 67.646978 lat
#TLE: 1 61231U 24173E   26018.25438657  .00008012  00000-0  38191-3 0 09993
#TLE: 2 61231 097.4123 093.2273 0001689 092.2184 306.3117 15.19177353 72997

#Time	Az	El	Level	Level2	SNR	BER	BlckErr	Temp	State	Recorded	gain1	gain2
2026-01-18 15:39:41.26	108.95	0.28	-84.7	-88.6	2.8	7.77e-01	0	45	0	0	60	1048572
2026-01-18 15:39:44.27	108.75	0.46	-83.5	-79.0	2.4	0.00e+00	0	46	104	0	60	1048556
2026-01-18 15:39:47.28	108.54	0.64	-83.5	-79.0	2.4	0.00e+00	0	46	104	0	60	1048574
2026-01-18 15:39:50.31	108.33	0.83	-83.1	-79.0	2.4	0.00e+00	0	47	104	0	60	1048574
2026-01-18 15:39:53.33	108.12	1.01	-83.1	-79.0	2.4	0.00e+00	0	47	104	0	60	1048569
2026-01-18 15:39:56.36	107.90	1.20	-83.5	-79.0	2.3	0.00e+00	0	47	104	0	60	1048575
2026-01-18 15:39:59.37	107.68	1.38	-83.5	-79.0	2.4	0.00e+00	0	47	104	0	60	1048567
2026-01-18 15:40:02.39	107.46	1.57	-82.8	-79.0	2.4	0.00e+00	0	47	104	0	60	1048569
2026-01-18 15:40:05.42	107.23	1.76	-83.5	-79.0	2.4	0.00e+00	0	47	104	0	60	1048573
2026-01-18 15:40:08.44	106.99	1.95	-83.1	-79.0	2.4	0.00e+00	0	47	104	0	60	1048572
2026-01-18 15:40:11.47	106.76	2.14	-83.5	-79.0	2.3	0.00e+00	0	47	104	0	60	1048575
2026-01-18 15:40:14.49	106.52	2.34	-83.5	-79.0	2.3	0.00e+00	0	47	104	0	60	1048575
2026-01-18 15:40:17.51	106.27	2.53	-83.1	-79.0	2.4	0.00e+00	0	47	104	0	60	1048573
2026-01-18 15:40:20.53	106.02	2.73	-83.5	-79.0	2.3	0.00e+00	0	47	104	0	60	1048568
2026-01-18 15:40:23.55	105.77	2.92	-83.5	-79.0	2.4	0.00e+00	0	47	104	0	60	1048574
2026-01-18 15:40:26.57	105.51	3.12	-83.1	-79.0	2.3	0.00e+00	0	47	104	0	60	1048571
2026-01-18 15:40:29.59	105.25	3.32	-83.5	-79.0	2.4	0.00e+00	0	47	104	0	60	1048572
2026-01-18 15:40:32.61	104.98	3.52	-83.5	-79.0	2.4	0.00e+00	0	47	104	0	60	1048575
2026-01-18 15:40:35.63	104.71	3.72	-83.1	-79.0	2.4	0.00e+00	0	48	104	0	60	1048575
2026-01-18 15:40:38.64	104.44	3.93	-83.5	-79.0	2.4	0.00e+00	0	48	104	0	60	1048573
2026-01-18 15:40:41.67	104.15	4.13	-83.5	-79.0	2.3	0.00e+00	0	48	104	0	60	1048574
2026-01-18 15:40:44.69	103.87	4.34	-83.1	-79.0	2.4	0.00e+00	0	48	104	0	60	1048572
2026-01-18 15:40:47.71	103.57	4.55	-83.1	-79.0	2.4	0.00e+00	0	48	104	0	60	1048571
2026-01-18 15:40:50.73	103.28	4.76	-83.1	-79.0	2.4	0.00e+00	0	48	104	0	60	1048574
2026-01-18 15:40:53.76	102.97	4.97	-83.5	-79.0	2.4	0.00e+00	0	48	104	0	60	1048574
2026-01-18 15:40:56.77	102.66	5.18	-83.5	-79.0	2.4	0.00e+00	0	48	104	0	60	1048563
2026-01-18 15:40:59.80	102.35	5.40	-83.1	-79.0	2.4	0.00e+00	0	48	104	0	60	1048574
2026-01-18 15:41:02.82	102.02	5.61	-83.5	-79.0	2.4	0.00e+00	0	48	104	0	60	1048573
2026-01-18 15:41:05.84	101.70	5.83	-83.5	-79.0	2.3	0.00e+00	0	48	104	0	60	1048574
2026-01-18 15:41:08.86	101.36	6.05	-83.1	-79.0	2.4	0.00e+00	0	48	104	0	60	1048574
2026-01-18 15:41:11.88	101.02	6.27	-83.5	-79.0	2.2	0.00e+00	0	48	104	0	60	1048567
2026-01-18 15:41:14.91	100.67	6.50	-83.5	-79.0	2.5	0.00e+00	0	48	104	0	60	1048571
2026-01-18 15:41:17.93	100.32	6.72	-83.5	-79.0	2.4	0.00e+00	0	48	104	0	60	1048575
2026-01-18 15:41:20.95	99.96	6.95	-83.1	-79.0	2.4	0.00e+00	0	48	104	0	60	1048575
2026-01-18 15:41:23.97	99.59	7.18	-83.1	-79.0	2.5	0.00e+00	0	48	104	0	60	1048571
2026-01-18 15:41:26.98	99.22	7.41	-83.5	-79.0	2.5	0.00e+00	0	48	104	0	60	1048564
2026-01-18 15:41:30.00	98.83	7.64	-83.5	-79.0	2.4	0.00e+00	0	48	104	0	60	1048573
2026-01-18 15:41:33.02	98.44	7.87	-83.1	-79.0	2.4	0.00e+00	0	48	104	0	60	1048566
2026-01-18 15:41:36.04	98.04	8.11	-83.5	-79.0	2.3	0.00e+00	0	48	104	0	60	1048575
2026-01-18 15:41:39.06	97.63	8.35	-83.5	-79.0	2.5	0.00e+00	0	48	104	0	60	1048574
2026-01-18 15:41:42.08	97.22	8.58	-82.8	-79.0	2.2	0.00e+00	0	48	104	0	60	1048574
2026-01-18 15:41:45.10	96.79	8.83	-83.5	-79.0	2.4	0.00e+00	0	48	104	0	60	1048575
2026-01-18 15:41:48.12	96.36	9.07	-83.5	-79.0	2.5	0.00e+00	0	48	104	0	60	1048575
2026-01-18 15:41:51.14	95.91	9.31	-83.5	-79.0	2.4	0.00e+00	0	48	104	0	60	1048569
2026-01-18 15:41:54.16	95.46	9.56	-83.1	-79.0	2.4	0.00e+00	0	48	104	0	60	1048573
2026-01-18 15:41:57.18	95.00	9.81	-83.1	-79.0	2.4	0.00e+00	0	48	104	0	60	1048574
2026-01-18 15:42:00.20	94.53	10.06	-83.5	-79.0	2.3	0.00e+00	0	48	104	0	60	1048573
2026-01-18 15:42:03.22	94.05	10.31	-83.1	-79.0	2.4	0.00e+00	0	48	104	0	60	1048575
2026-01-18 15:42:06.24	93.55	10.56	-83.1	-79.0	2.3	0.00e+00	0	48	104	0	60	1048572
2026-01-18 15:42:09.27	93.05	10.82	-83.5	-79.0	2.3	0.00e+00	0	48	104	0	60	1048573
2026-01-18 15:42:12.29	92.54	11.07	-83.5	-79.0	2.4	0.00e+00	0	48	104	0	60	1048568
2026-01-18 15:42:15.31	92.01	11.33	-83.1	-79.0	2.4	0.00e+00	0	48	104	0	60	1048574
2026-01-18 15:42:18.34	91.47	11.59	-83.5	-79.0	2.4	0.00e+00	0	48	104	0	60	1048575
2026-01-18 15:42:21.36	90.92	11.85	-83.1	-79.0	2.5	0.00e+00	0	48	104	0	60	1048573
2026-01-18 15:42:24.38	90.36	12.11	-83.1	-79.0	2.3	0.00e+00	0	48	104	0	60	1048575
2026-01-18 15:42:27.39	89.79	12.37	-83.5	-79.0	2.4	0.00e+00	0	48	104	0	60	1048575
2026-01-18 15:42:30.41	89.21	12.64	-83.1	-79.0	2.3	0.00e+00	0	48	104	0	60	1048572
2026-01-18 15:42:33.43	88.61	12.91	-83.5	-79.0	2.2	0.00e+00	0	48	104	0	60	1048575
2026-01-18 15:42:36.46	87.99	13.17	-83.5	-79.0	2.5	0.00e+00	0	48	104	0	60	1048572
2026-01-18 15:42:39.48	87.37	13.44	-83.1	-79.0	2.4	0.00e+00	0	48	104	0	60	1048572
2026-01-18 15:42:42.50	86.73	13.71	-83.5	-79.0	2.4	0.00e+00	0	48	104	0	60	1048575
2026-01-18 15:42:45.52	86.08	13.98	-83.5	-79.0	2.4	0.00e+00	0	48	104	0	60	1048575
2026-01-18 15:42:48.54	85.41	14.25	-83.1	-79.0	2.3	0.00e+00	0	49	104	0	60	1048572
2026-01-18 15:42:51.57	84.73	14.52	-83.5	-79.0	2.4	0.00e+00	0	48	104	0	60	1048574
2026-01-18 15:42:54.59	84.03	14.79	-83.1	-79.0	2.6	0.00e+00	0	48	104	0	60	1048566
2026-01-18 15:42:57.61	83.32	15.06	-83.5	-79.0	2.5	0.00e+00	0	49	104	0	60	1048570
2026-01-18 15:43:00.62	82.59	15.33	-83.5	-79.0	2.4	0.00e+00	0	49	104	0	60	1048575
2026-01-18 15:43:03.63	81.85	15.60	-83.1	-79.0	2.5	0.00e+00	0	48	104	0	60	1048575
2026-01-18 15:43:06.64	81.09	15.87	-83.5	-79.0	2.3	0.00e+00	0	48	104	0	60	1048575
2026-01-18 15:43:09.66	80.32	16.14	-83.1	-79.0	2.4	0.00e+00	0	48	104	0	60	1048563
2026-01-18 15:43:12.69	79.52	16.41	-83.1	-79.0	2.4	0.00e+00	0	48	104	0	60	1048575
2026-01-18 15:43:15.70	78.72	16.67	-83.5	-79.0	2.3	0.00e+00	0	49	104	0	60	1048571
2026-01-18 15:43:18.72	77.89	16.94	-83.1	-79.0	2.4	0.00e+00	0	49	104	0	60	1048569
2026-01-18 15:43:21.75	77.04	17.20	-83.5	-79.0	2.3	0.00e+00	0	49	104	0	60	1048573
2026-01-18 15:43:24.76	76.19	17.46	-83.5	-79.0	2.4	0.00e+00	0	49	104	0	60	1048568
2026-01-18 15:43:27.76	75.31	17.72	-83.1	-79.0	2.3	0.00e+00	0	48	104	0	60	1048575
2026-01-18 15:43:30.77	74.42	17.98	-83.5	-79.0	2.4	0.00e+00	0	49	104	0	60	1048571
2026-01-18 15:43:33.80	73.51	18.23	-83.5	-79.0	2.4	0.00e+00	0	49	104	0	60	1048573
2026-01-18 15:43:36.81	72.58	18.48	-83.1	-79.0	2.4	0.00e+00	0	48	104	0	60	1048575
2026-01-18 15:43:39.84	71.63	18.72	-83.5	-79.0	2.4	0.00e+00	0	49	104	0	60	1048572
2026-01-18 15:43:42.86	70.66	18.96	-83.1	-79.0	2.3	0.00e+00	0	49	104	0	60	1048572
2026-01-18 15:43:45.88	69.68	19.20	-83.1	-79.0	2.4	0.00e+00	0	49	104	0	60	1048574
2026-01-18 15:43:48.91	68.67	19.43	-83.5	-79.0	2.4	0.00e+00	0	49	104	0	60	1048575
2026-01-18 15:43:51.93	67.66	19.66	-83.1	-79.0	2.4	0.00e+00	0	49	104	0	60	1048575
2026-01-18 15:43:54.95	66.62	19.88	-83.5	-79.0	2.6	0.00e+00	0	49	104	0	60	1048575
2026-01-18 15:43:57.97	65.57	20.09	-83.5	-79.0	2.5	0.00e+00	0	49	104	0	60	1048573
2026-01-18 15:44:00.99	64.50	20.29	-83.1	-79.0	2.5	0.00e+00	0	49	104	0	60	1048575
2026-01-18 15:44:04.01	63.42	20.49	-83.5	-79.0	2.4	0.00e+00	0	49	104	0	60	1048572
2026-01-18 15:44:07.02	62.32	20.68	-83.1	-79.0	2.4	0.00e+00	0	49	104	0	60	1048574
2026-01-18 15:44:10.04	61.20	20.86	-83.1	-79.0	2.3	0.00e+00	0	49	104	0	60	1048568
2026-01-18 15:44:13.06	60.07	21.04	-83.5	-79.0	2.2	0.00e+00	0	49	104	0	60	1048571
2026-01-18 15:44:16.07	58.93	21.20	-83.5	-79.0	2.4	0.00e+00	0	49	104	0	60	1048575
2026-01-18 15:44:19.10	57.77	21.35	-83.1	-79.0	2.4	0.00e+00	0	49	104	0	60	1048570
2026-01-18 15:44:22.11	56.61	21.50	-83.5	-79.0	2.4	0.00e+00	0	49	104	0	60	1048562
2026-01-18 15:44:25.13	55.42	21.63	-83.1	-79.0	2.3	0.00e+00	0	49	104	0	60	1048575
2026-01-18 15:44:28.14	54.24	21.75	-83.1	-79.0	2.5	0.00e+00	0	49	104	0	60	1048573
2026-01-18 15:44:31.16	53.03	21.86	-83.5	-79.0	2.5	0.00e+00	0	49	104	0	60	1048572
2026-01-18 15:44:34.18	51.82	21.96	-82.8	-79.0	2.4	0.00e+00	0	49	104	0	60	1048571
2026-01-18 15:44:37.20	50.60	22.05	-83.5	-79.0	2.5	0.00e+00	0	49	104	0	60	1048575
2026-01-18 15:44:40.23	49.37	22.12	-83.5	-79.0	2.4	0.00e+00	0	49	104	0	60	1048573
2026-01-18 15:44:43.24	48.14	22.18	-83.1	-79.0	2.4	0.00e+00	0	49	104	0	60	1048574
2026-01-18 15:44:46.26	46.90	22.23	-83.5	-79.0	2.4	0.00e+00	0	49	104	0	60	1048572
2026-01-18 15:44:49.27	45.66	22.27	-83.5	-79.0	2.4	0.00e+00	0	49	104	0	60	1048566
2026-01-18 15:44:52.29	44.42	22.29	-83.5	-79.0	2.5	0.00e+00	0	49	104	0	60	1048573
2026-01-18 15:44:55.31	43.17	22.30	-83.5	-79.0	2.3	0.00e+00	0	49	104	0	60	1048570
2026-01-18 15:44:58.33	41.93	22.30	-83.1	-79.0	2.4	0.00e+00	0	49	104	0	60	1048573
2026-01-18 15:45:01.34	40.69	22.29	-83.5	-79.0	2.3	0.00e+00	0	49	104	0	60	1048573
2026-01-18 15:45:04.35	39.45	22.26	-83.5	-79.0	2.2	0.00e+00	0	49	104	0	60	1048568
2026-01-18 15:45:07.38	38.20	22.21	-83.1	-79.0	2.3	0.00e+00	0	49	104	0	60	1048572
2026-01-18 15:45:10.40	36.97	22.16	-83.5	-79.0	2.4	0.00e+00	0	49	104	0	60	1048575
2026-01-18 15:45:13.42	35.74	22.09	-83.5	-79.0	2.4	0.00e+00	0	49	104	0	60	1048574
2026-01-18 15:45:16.44	34.51	22.01	-83.1	-79.0	2.4	0.00e+00	0	49	104	0	60	1048575
2026-01-18 15:45:19.47	33.29	21.92	-83.5	-79.0	2.3	0.00e+00	0	49	104	0	60	1048574
2026-01-18 15:45:22.49	32.09	21.82	-83.1	-79.0	2.5	0.00e+00	0	49	104	0	60	1048574
2026-01-18 15:45:25.51	30.89	21.70	-83.1	-79.0	2.4	0.00e+00	0	49	104	0	60	1048573
2026-01-18 15:45:28.53	29.70	21.58	-83.5	-79.0	2.4	0.00e+00	0	49	104	0	60	1048574
2026-01-18 15:45:31.55	28.53	21.44	-83.1	-79.0	2.4	0.00e+00	0	49	104	0	60	1048567
2026-01-18 15:45:34.57	27.36	21.29	-83.5	-79.0	2.4	0.00e+00	0	49	104	0	60	1048573
2026-01-18 15:45:37.60	26.21	21.14	-83.5	-79.0	2.4	0.00e+00	0	49	104	0	60	1048574
2026-01-18 15:45:40.62	25.07	20.97	-83.1	-79.0	2.4	0.00e+00	0	49	104	0	60	1048573
2026-01-18 15:45:43.64	23.95	20.79	-83.5	-79.0	2.4	0.00e+00	0	49	104	0	60	1048574
2026-01-18 15:45:46.67	22.84	20.61	-83.5	-79.0	2.3	0.00e+00	0	49	104	0	60	1048572
2026-01-18 15:45:49.68	21.75	20.42	-83.1	-79.0	2.4	0.00e+00	0	49	104	0	60	1048573
2026-01-18 15:45:52.70	20.68	20.22	-83.5	-79.0	2.4	0.00e+00	0	49	104	0	60	1048565
2026-01-18 15:45:55.72	19.62	20.01	-83.5	-79.0	2.4	0.00e+00	0	49	104	0	60	1048573
2026-01-18 15:45:58.75	18.57	19.79	-83.5	-79.0	2.4	0.00e+00	0	49	104	0	60	1048575
2026-01-18 15:46:01.77	17.55	19.57	-83.5	-79.0	2.4	0.00e+00	0	49	104	0	60	1048557
2026-01-18 15:46:04.79	16.54	19.34	-83.1	-79.0	2.3	0.00e+00	0	49	104	0	60	1048570
2026-01-18 15:46:07.81	15.55	19.11	-83.1	-79.0	2.4	0.00e+00	0	49	104	0	60	1048575
2026-01-18 15:46:10.83	14.57	18.87	-83.1	-79.0	2.4	0.00e+00	0	49	104	0	60	1048574
2026-01-18 15:46:13.84	13.62	18.63	-83.1	-79.0	2.4	0.00e+00	0	49	104	0	60	1048575
2026-01-18 15:46:16.87	12.68	18.39	-83.5	-79.0	2.4	0.00e+00	0	49	104	0	60	1048570
2026-01-18 15:46:19.89	11.76	18.14	-83.5	-79.0	2.3	0.00e+00	0	49	104	0	60	1048573
2026-01-18 15:46:22.92	10.85	17.88	-83.1	-79.0	2.4	0.00e+00	0	49	104	0	60	1048575
2026-01-18 15:46:25.93	9.97	17.63	-83.5	-79.0	2.2	0.00e+00	0	49	104	0	60	1048571
2026-01-18 15:46:28.95	9.11	17.37	-83.5	-79.0	2.4	0.00e+00	0	49	104	0	60	1048567
2026-01-18 15:46:31.97	8.25	17.11	-83.5	-79.0	2.4	0.00e+00	0	49	104	0	60	1048571
2026-01-18 15:46:35.00	7.42	16.84	-83.5	-79.0	2.5	0.00e+00	0	49	104	0	60	1048570
2026-01-18 15:46:38.02	6.60	16.58	-82.8	-79.0	2.4	0.00e+00	0	49	104	0	60	1048570
2026-01-18 15:46:41.03	5.81	16.31	-83.1	-79.0	2.3	0.00e+00	0	49	104	0	60	1048573
2026-01-18 15:46:44.06	5.02	16.04	-83.5	-79.0	2.3	0.00e+00	0	49	104	0	60	1048570
2026-01-18 15:46:47.08	4.26	15.78	-83.1	-79.0	2.4	0.00e+00	0	49	104	0	60	1048575
2026-01-18 15:46:50.10	3.51	15.51	-83.5	-79.0	2.4	0.00e+00	0	49	104	0	60	1048572
2026-01-18 15:46:53.13	2.77	15.24	-83.5	-79.0	2.4	0.00e+00	0	49	104	0	60	1048574
2026-01-18 15:46:56.15	2.05	14.97	-83.1	-79.0	2.4	0.00e+00	0	49	104	0	60	1048569
2026-01-18 15:46:59.17	1.35	14.70	-83.5	-79.0	2.4	0.00e+00	0	49	104	0	60	1048572
2026-01-18 15:47:02.19	0.66	14.43	-83.1	-79.0	2.4	0.00e+00	0	49	104	0	60	1048571
2026-01-18 15:47:05.21	359.99	14.16	-83.5	-79.0	2.4	0.00e+00	0	49	104	0	60	1048565
2026-01-18 15:47:08.23	359.33	13.89	-83.5	-79.0	2.5	0.00e+00	0	49	104	0	60	1048572
2026-01-18 15:47:11.25	358.69	13.62	-83.1	-79.0	2.4	0.00e+00	0	49	104	0	60	1048574
2026-01-18 15:47:14.28	358.05	13.35	-83.5	-79.0	2.6	0.00e+00	0	49	104	0	60	1048573
2026-01-18 15:47:17.30	357.44	13.09	-83.5	-79.0	2.4	0.00e+00	0	49	104	0	60	1048574
2026-01-18 15:47:20.32	356.83	12.82	-83.1	-79.0	2.4	0.00e+00	0	49	104	0	60	1048571
2026-01-18 15:47:23.34	356.24	12.56	-83.5	-79.0	2.4	0.00e+00	0	49	104	0	60	1048575
2026-01-18 15:47:26.36	355.67	12.29	-83.5	-79.0	2.4	0.00e+00	0	49	104	0	60	1048575
2026-01-18 15:47:29.39	355.10	12.03	-83.1	-79.0	2.4	0.00e+00	0	49	104	0	60	1048575
2026-01-18 15:47:32.40	354.55	11.77	-83.5	-79.0	2.3	0.00e+00	0	49	104	0	60	1048572
2026-01-18 15:47:35.42	354.01	11.51	-83.1	-79.0	2.4	0.00e+00	0	49	104	0	60	1048574
2026-01-18 15:47:38.45	353.48	11.25	-83.1	-79.0	2.5	0.00e+00	0	49	104	0	60	1048575
2026-01-18 15:47:41.47	352.96	11.00	-83.1	-79.0	2.4	0.00e+00	0	49	104	0	60	1048574
2026-01-18 15:47:44.49	352.45	10.74	-83.5	-79.0	2.3	0.00e+00	0	49	104	0	60	1048575
2026-01-18 15:47:47.51	351.96	10.49	-83.5	-79.0	2.3	0.00e+00	0	49	104	0	60	1048574
2026-01-18 15:47:50.53	351.47	10.24	-83.5	-79.0	2.4	0.00e+00	0	49	104	0	60	1048575
2026-01-18 15:47:53.55	350.99	9.99	-83.1	-79.0	2.4	0.00e+00	0	49	104	0	60	1048565
2026-01-18 15:47:56.58	350.53	9.74	-83.5	-79.0	2.4	0.00e+00	0	49	104	0	60	1048570
2026-01-18 15:47:59.60	350.07	9.49	-83.5	-79.0	2.4	0.00e+00	0	49	104	0	60	1048568
2026-01-18 15:48:02.62	349.63	9.25	-83.5	-79.0	2.5	0.00e+00	0	49	104	0	60	1048571
2026-01-18 15:48:05.64	349.19	9.01	-83.5	-79.0	2.3	0.00e+00	0	49	104	0	60	1048575
2026-01-18 15:48:08.67	348.76	8.77	-83.5	-79.0	2.4	0.00e+00	0	49	104	0	60	1048575
2026-01-18 15:48:11.69	348.34	8.53	-83.5	-79.0	2.4	0.00e+00	0	49	104	0	60	1048572
2026-01-18 15:48:14.71	347.93	8.29	-83.5	-79.0	2.4	0.00e+00	0	49	104	0	60	1048574
2026-01-18 15:48:17.73	347.53	8.05	-83.1	-79.0	2.4	0.00e+00	0	49	104	0	60	1048574
2026-01-18 15:48:20.75	347.14	7.82	-83.1	-79.0	2.3	0.00e+00	0	49	104	0	60	1048561
2026-01-18 15:48:23.77	346.75	7.59	-83.5	-79.0	2.4	0.00e+00	0	49	104	0	60	1048570
2026-01-18 15:48:26.79	346.37	7.36	-83.1	-79.0	2.4	0.00e+00	0	49	104	0	60	1048569
2026-01-18 15:48:29.82	346.00	7.13	-83.5	-79.0	2.5	0.00e+00	0	49	104	0	60	1048574
2026-01-18 15:48:32.84	345.64	6.90	-83.5	-79.0	2.4	0.00e+00	0	49	104	0	60	1048567
2026-01-18 15:48:35.86	345.28	6.68	-83.1	-79.0	2.3	0.00e+00	0	49	104	0	60	1048573
2026-01-18 15:48:38.87	344.93	6.45	-83.5	-79.0	2.3	0.00e+00	0	49	104	0	60	1048573
2026-01-18 15:48:41.90	344.59	6.23	-83.5	-79.0	2.4	0.00e+00	0	49	104	0	60	1048574
2026-01-18 15:48:44.92	344.25	6.01	-83.5	-79.0	2.4	0.00e+00	0	49	104	0	60	1048568
2026-01-18 15:48:47.95	343.92	5.79	-83.5	-79.0	2.4	0.00e+00	0	49	104	0	60	1048558
2026-01-18 15:48:50.97	343.60	5.57	-83.1	-79.0	2.4	0.00e+00	0	49	104	0	60	1048572
2026-01-18 15:48:53.99	343.28	5.36	-83.1	-79.0	2.4	0.00e+00	0	49	104	0	60	1048571
2026-01-18 15:48:57.00	342.97	5.15	-83.5	-79.0	2.4	0.00e+00	0	49	104	0	60	1048575
2026-01-18 15:49:00.02	342.67	4.93	-83.1	-79.0	2.4	0.00e+00	0	49	104	0	60	1048567
2026-01-18 15:49:03.04	342.37	4.72	-83.5	-79.0	2.4	0.00e+00	0	49	104	0	60	1048575
2026-01-18 15:49:06.06	342.08	4.52	-83.1	-79.0	2.4	0.00e+00	0	49	104	0	60	1048575
2026-01-18 15:49:09.08	341.79	4.31	-83.1	-79.0	2.4	0.00e+00	0	49	104	0	60	1048574
2026-01-18 15:49:12.11	341.50	4.10	-83.5	-79.0	2.2	0.00e+00	0	49	104	0	60	1048575
2026-01-18 15:49:15.13	341.23	3.90	-83.1	-79.0	2.4	0.00e+00	0	49	104	0	60	1048574
2026-01-18 15:49:18.15	340.95	3.69	-83.5	-79.0	2.4	0.00e+00	0	49	104	0	60	1048575
2026-01-18 15:49:21.17	340.69	3.49	-83.5	-79.0	2.5	0.00e+00	0	49	104	0	60	1048573
2026-01-18 15:49:24.20	340.42	3.29	-83.1	-79.0	2.4	0.00e+00	0	49	104	0	60	1048574
2026-01-18 15:49:27.22	340.16	3.09	-83.1	-79.0	2.4	0.00e+00	0	49	104	0	60	1048573
2026-01-18 15:49:30.24	339.91	2.90	-83.5	-79.0	2.3	0.00e+00	0	49	104	0	60	1048573
2026-01-18 15:49:33.26	339.66	2.70	-83.1	-79.0	2.4	0.00e+00	0	49	104	0	60	1048575
2026-01-18 15:49:36.27	339.42	2.51	-83.5	-79.0	2.4	0.00e+00	0	49	104	0	60	1048571
2026-01-18 15:49:39.30	339.18	2.31	-83.5	-79.0	2.4	0.00e+00	0	49	104	0	60	1048575
2026-01-18 15:49:42.32	338.94	2.12	-83.1	-79.0	2.4	0.00e+00	0	49	104	0	60	1048575
2026-01-18 15:49:45.32	338.71	1.93	-83.5	-79.0	2.4	0.00e+00	0	49	104	0	60	1048573
2026-01-18 15:49:48.34	338.48	1.74	-82.8	-79.0	2.4	0.00e+00	0	49	104	0	60	1048575
2026-01-18 15:49:51.36	338.26	1.56	-83.5	-79.0	2.4	0.00e+00	0	49	104	0	60	1048574
2026-01-18 15:49:54.38	338.04	1.37	-83.5	-79.0	2.4	0.00e+00	0	49	104	0	60	1048571
2026-01-18 15:49:57.40	337.82	1.18	-83.1	-79.0	2.3	0.00e+00	0	49	104	0	60	1048565
2026-01-18 15:50:00.42	337.60	1.00	-83.5	-79.0	2.4	0.00e+00	0	49	104	0	60	1048574
2026-01-18 15:50:03.44	337.39	0.82	-83.5	-79.0	2.3	0.00e+00	0	49	104	0	60	1048575
2026-01-18 15:50:06.47	337.19	0.63	-83.1	-79.0	2.4	0.00e+00	0	49	104	0	60	1048574
2026-01-18 15:50:09.49	336.98	0.45	-83.5	-79.0	2.4	0.00e+00	0	49	104	0	60	1048565
2026-01-18 15:50:12.51	336.78	0.27	-83.5	-79.0	2.4	0.00e+00	0	49	104	0	60	1048575
2026-01-18 15:50:15.53	336.59	0.09	-83.5	-79.0	2.4	0.00e+00	0	49	104	0	60	1048575
2026-01-18 15:50:18.56	336.39	-0.08	-83.5	-79.0	2.3	0.00e+00	0	49	104	0	60	1048575

#Closed at: 2026-01-18 15:50:19
#Recorded file [0 MB]: D:/Data/35015_260118_183941.dat