passes_logs/2026/01/18/R3.2S-Naryan-Mar/R3.2S-Naryan-Mar__20260118_121706_AQUA_rec.log

#Pass ID: 20260118_121706_AQUA
#Satellite: AQUA
#Configuration: AQUA
#almurnet v.1.7.20240730
#Start time: 2026-01-18 12:17:08

#Version: 2.2.20231116
#Station: R3.2S-Naryan-Mar
#Location: 53.008057 lon 67.646978 lat
#TLE: 1 27424U 02022A   26017.29152041  .00000842  00000+0  17841-3 0  9992
#TLE: 2 27424  98.4085 343.7574 0002011  75.4099  30.6811 14.61825797261228

#Time	Az	El	Level	Level2	SNR	BER	BlckErr	Temp	State	Recorded	gain1	gain2
2026-01-18 12:17:08.46	211.89	0.13	-83.9	-88.8	2.0	3.11e+01	0	46	0	0	60	1048574
2026-01-18 12:17:11.48	212.11	0.29	-83.9	-88.8	2.6	3.11e+01	0	46	104	0	60	1048574
2026-01-18 12:17:14.50	212.34	0.45	-84.3	-88.8	2.6	3.11e+01	0	46	104	0	60	1048574
2026-01-18 12:17:17.52	212.57	0.62	-83.9	-88.8	2.5	3.11e+01	0	46	104	0	60	1048574
2026-01-18 12:17:20.55	212.80	0.78	-83.9	-88.8	2.7	3.11e+01	0	46	104	0	60	1048574
2026-01-18 12:17:23.57	213.03	0.94	-84.3	-88.8	2.4	3.11e+01	0	46	104	0	60	1048574
2026-01-18 12:17:26.59	213.27	1.11	-83.9	-88.8	2.5	3.11e+01	0	47	104	0	60	1048574
2026-01-18 12:17:29.61	213.50	1.28	-83.9	-88.8	2.5	3.11e+01	0	47	104	0	60	1048574
2026-01-18 12:17:32.63	213.74	1.44	-84.3	-88.8	2.7	3.11e+01	0	47	104	0	60	1048574
2026-01-18 12:17:35.64	213.99	1.61	-83.9	-88.8	2.7	3.11e+01	0	47	104	0	60	1048574
2026-01-18 12:17:38.67	214.23	1.78	-83.9	-88.8	2.5	3.11e+01	0	47	104	0	60	1048574
2026-01-18 12:17:41.69	214.48	1.94	-84.3	-88.8	2.7	3.11e+01	0	47	104	0	60	1048574
2026-01-18 12:17:44.71	214.74	2.11	-83.9	-88.8	2.5	3.11e+01	0	47	104	0	60	1048574
2026-01-18 12:17:47.73	214.99	2.28	-83.9	-88.8	2.6	3.11e+01	0	47	104	0	60	1048574
2026-01-18 12:17:50.75	215.25	2.45	-84.3	-88.8	2.7	3.11e+01	0	47	104	0	60	1048574
2026-01-18 12:17:53.76	215.51	2.62	-83.9	-88.8	2.6	3.11e+01	0	47	104	0	60	1048574
2026-01-18 12:17:56.79	215.78	2.80	-84.3	-88.8	2.7	3.11e+01	0	47	104	0	60	1048574
2026-01-18 12:17:59.81	216.05	2.97	-84.3	-88.8	2.7	3.11e+01	0	47	104	0	60	1048574
2026-01-18 12:18:02.83	216.32	3.14	-83.9	-88.8	2.5	3.11e+01	0	47	104	0	60	1048572
2026-01-18 12:18:05.85	216.59	3.32	-84.3	-88.8	2.7	3.11e+01	0	47	104	0	60	1048572
2026-01-18 12:18:08.88	216.87	3.49	-84.3	-88.8	2.8	3.11e+01	0	47	104	0	60	1048572
2026-01-18 12:18:11.90	217.15	3.67	-83.9	-88.8	2.5	3.11e+01	0	47	104	0	60	1048572
2026-01-18 12:18:14.92	217.44	3.84	-84.3	-88.8	2.5	3.11e+01	0	47	104	0	60	1048572
2026-01-18 12:18:17.95	217.73	4.02	-83.9	-88.8	2.4	3.11e+01	0	47	104	0	60	1048572
2026-01-18 12:18:20.97	218.02	4.20	-84.3	-88.8	2.6	3.11e+01	0	47	104	0	60	1048572
2026-01-18 12:18:23.99	218.32	4.38	-84.3	-88.8	2.7	3.11e+01	0	47	104	0	60	1048570
2026-01-18 12:18:27.01	218.62	4.56	-83.9	-88.8	2.6	3.11e+01	0	47	104	0	60	1048570
2026-01-18 12:18:30.03	218.92	4.74	-84.3	-88.8	2.5	3.11e+01	0	47	104	0	60	1048570
2026-01-18 12:18:33.06	219.23	4.92	-83.9	-88.8	2.4	3.11e+01	0	47	104	0	60	1048570
2026-01-18 12:18:36.07	219.54	5.10	-83.9	-88.8	2.4	3.11e+01	0	47	104	0	60	1048570
2026-01-18 12:18:39.09	219.86	5.28	-84.3	-88.8	2.5	3.11e+01	0	47	104	0	60	1048570
2026-01-18 12:18:42.12	220.18	5.46	-84.3	-88.8	2.6	3.11e+01	0	47	104	0	60	1048570
2026-01-18 12:18:45.14	220.51	5.65	-84.3	-88.8	2.5	3.11e+01	0	47	104	0	60	1048570
2026-01-18 12:18:48.17	220.84	5.83	-84.3	-88.8	2.1	3.11e+01	0	47	104	0	60	1048570
2026-01-18 12:18:51.19	221.17	6.02	-83.9	-88.8	2.5	3.11e+01	0	47	104	0	60	1048570
2026-01-18 12:18:54.20	221.51	6.20	-84.3	-88.8	2.7	3.11e+01	0	47	104	0	60	1048570
2026-01-18 12:18:57.22	221.85	6.39	-84.3	-88.8	2.7	3.11e+01	0	47	104	0	60	1048570
2026-01-18 12:19:00.23	222.20	6.57	-83.5	-88.8	2.7	3.11e+01	0	47	104	0	60	1048570
2026-01-18 12:19:03.25	222.55	6.76	-83.9	-88.8	2.7	3.11e+01	0	47	104	0	60	1048570
2026-01-18 12:19:06.28	222.91	6.95	-83.9	-88.8	2.6	3.11e+01	0	47	104	0	60	1048575
2026-01-18 12:19:09.30	223.27	7.14	-83.9	-88.8	2.4	3.11e+01	0	47	104	0	60	1048575
2026-01-18 12:19:12.32	223.63	7.33	-84.3	-88.8	2.4	3.11e+01	0	47	104	0	60	1048575
2026-01-18 12:19:15.34	224.00	7.52	-84.3	-88.8	2.7	3.11e+01	0	47	104	0	60	1048575
2026-01-18 12:19:18.36	224.38	7.71	-84.3	-88.8	2.6	3.11e+01	0	47	104	0	60	1048575
2026-01-18 12:19:21.39	224.76	7.90	-83.9	-88.8	2.6	3.11e+01	0	47	104	0	60	1048575
2026-01-18 12:19:24.41	225.15	8.10	-84.3	-88.8	2.6	3.11e+01	0	47	104	0	60	1048575
2026-01-18 12:19:27.43	225.54	8.29	-84.3	-88.8	2.7	3.11e+01	0	47	104	0	60	1048575
2026-01-18 12:19:30.45	225.94	8.48	-84.3	-88.8	2.8	3.11e+01	0	47	104	0	60	1048575
2026-01-18 12:19:33.47	226.35	8.68	-83.9	-88.8	2.7	3.11e+01	0	47	104	0	60	1048575
2026-01-18 12:19:36.49	226.75	8.87	-84.3	-88.8	2.4	3.11e+01	0	47	104	0	60	1048575
2026-01-18 12:19:39.52	227.17	9.07	-83.9	-88.8	2.6	3.11e+01	0	47	104	0	60	1048575
2026-01-18 12:19:42.54	227.59	9.26	-83.9	-88.8	2.6	3.11e+01	0	47	104	0	60	1048575
2026-01-18 12:19:45.56	228.02	9.46	-83.9	-88.8	2.6	3.11e+01	0	47	104	0	60	1048575
2026-01-18 12:19:48.58	228.45	9.65	-84.3	-88.8	2.8	3.11e+01	0	47	104	0	60	1048575
2026-01-18 12:19:51.60	228.89	9.85	-83.9	-88.8	2.6	3.11e+01	0	47	104	0	60	1048575
2026-01-18 12:19:54.62	229.33	10.05	-84.3	-88.8	2.5	3.11e+01	0	47	104	0	60	1048575
2026-01-18 12:19:57.64	229.79	10.24	-83.9	-88.8	2.6	3.11e+01	0	47	104	0	60	1048575
2026-01-18 12:20:00.67	230.25	10.44	-83.9	-88.8	2.5	3.11e+01	0	47	104	0	60	1048575
2026-01-18 12:20:03.69	230.71	10.64	-84.3	-88.8	2.5	3.11e+01	0	47	104	0	60	1048575
2026-01-18 12:20:06.71	231.18	10.84	-83.9	-88.8	2.7	3.11e+01	0	47	104	0	60	1048575
2026-01-18 12:20:09.74	231.66	11.04	-84.3	-88.8	2.6	3.11e+01	0	47	104	0	60	1048575
2026-01-18 12:20:12.77	232.15	11.23	-84.3	-88.8	2.5	3.11e+01	0	47	104	0	60	1048575
2026-01-18 12:20:15.79	232.64	11.43	-83.9	-88.8	2.6	3.11e+01	0	47	104	0	60	1048575
2026-01-18 12:20:18.81	233.14	11.63	-84.3	-88.8	2.4	3.11e+01	0	47	104	0	60	1048575
2026-01-18 12:20:21.83	233.64	11.83	-84.3	-88.8	2.6	3.11e+01	0	47	104	0	60	1048575
2026-01-18 12:20:24.84	234.15	12.03	-84.3	-88.8	2.6	3.11e+01	0	47	104	0	60	1048575
2026-01-18 12:20:27.86	234.67	12.22	-84.3	-88.8	2.3	3.11e+01	0	47	104	0	60	1048575
2026-01-18 12:20:30.88	235.20	12.42	-83.9	-88.8	2.5	3.11e+01	0	47	104	0	60	1048575
2026-01-18 12:20:33.91	235.73	12.62	-84.3	-88.8	2.5	3.11e+01	0	47	104	0	60	1048575
2026-01-18 12:20:36.91	236.27	12.81	-84.3	-88.8	2.4	3.11e+01	0	47	104	0	60	1048575
2026-01-18 12:20:39.93	236.82	13.01	-83.9	-88.8	2.8	3.11e+01	0	47	104	0	60	1048575
2026-01-18 12:20:42.96	237.38	13.21	-84.3	-88.8	2.6	3.11e+01	0	47	104	0	60	1048575
2026-01-18 12:20:45.98	237.94	13.40	-84.3	-88.8	2.4	3.11e+01	0	47	104	0	60	1048575
2026-01-18 12:20:49.01	238.52	13.60	-83.9	-88.8	2.4	3.11e+01	0	47	104	0	60	1048575
2026-01-18 12:20:52.02	239.10	13.79	-84.3	-88.8	2.5	3.11e+01	0	47	104	0	60	1048575
2026-01-18 12:20:55.04	239.69	13.98	-84.3	-88.8	2.5	3.11e+01	0	47	104	0	60	1048575
2026-01-18 12:20:58.07	240.28	14.17	-84.3	-88.8	2.5	3.11e+01	0	47	104	0	60	1048575
2026-01-18 12:21:01.09	240.89	14.36	-84.3	-88.8	2.8	3.11e+01	0	47	104	0	60	1048575
2026-01-18 12:21:04.12	241.50	14.55	-83.9	-88.8	2.6	3.11e+01	0	47	104	0	60	1048575
2026-01-18 12:21:07.14	242.12	14.74	-84.3	-88.8	2.6	3.11e+01	0	47	104	0	60	1048575
2026-01-18 12:21:10.16	242.75	14.93	-84.3	-88.8	2.7	3.11e+01	0	47	104	0	60	1048575
2026-01-18 12:21:13.19	243.39	15.11	-83.9	-88.8	2.5	3.11e+01	0	47	104	0	60	1048575
2026-01-18 12:21:16.21	244.04	15.30	-84.3	-88.8	2.5	3.11e+01	0	47	104	0	60	1048575
2026-01-18 12:21:19.24	244.69	15.48	-83.9	-88.8	2.5	3.11e+01	0	47	104	0	60	1048575
2026-01-18 12:21:22.25	245.35	15.66	-83.9	-88.8	2.4	3.11e+01	0	47	104	0	60	1048575
2026-01-18 12:21:25.26	246.02	15.84	-84.3	-88.8	2.5	3.11e+01	0	48	104	0	60	1048575
2026-01-18 12:21:28.28	246.70	16.01	-83.9	-88.8	2.8	3.11e+01	0	47	104	0	60	1048575
2026-01-18 12:21:31.30	247.38	16.18	-84.3	-88.8	2.5	3.11e+01	0	47	104	0	60	1048575
2026-01-18 12:21:34.32	248.08	16.36	-84.3	-88.8	2.6	3.11e+01	0	47	104	0	60	1048575
2026-01-18 12:21:37.34	248.78	16.52	-83.9	-88.8	2.4	3.11e+01	0	47	104	0	60	1048575
2026-01-18 12:21:40.35	249.49	16.69	-84.3	-88.8	2.6	3.11e+01	0	47	104	0	60	1048575
2026-01-18 12:21:43.36	250.20	16.85	-84.3	-88.8	2.5	3.11e+01	0	47	104	0	60	1048575
2026-01-18 12:21:46.37	250.93	17.01	-83.9	-88.8	2.4	3.11e+01	0	47	104	0	60	1048575
2026-01-18 12:21:49.39	251.66	17.17	-84.3	-88.8	2.5	3.11e+01	0	47	104	0	60	1048575
2026-01-18 12:21:52.40	252.40	17.32	-83.9	-88.8	2.7	3.11e+01	0	47	104	0	60	1048575
2026-01-18 12:21:55.42	253.15	17.47	-83.9	-88.8	2.4	3.11e+01	0	47	104	0	60	1048575
2026-01-18 12:21:58.43	253.91	17.62	-84.3	-88.8	2.5	3.11e+01	0	47	104	0	60	1048575
2026-01-18 12:22:01.45	254.67	17.76	-83.9	-88.8	2.5	3.11e+01	0	47	104	0	60	1048575
2026-01-18 12:22:04.47	255.44	17.90	-84.3	-88.8	2.4	3.11e+01	0	47	104	0	60	1048575
2026-01-18 12:22:07.49	256.22	18.03	-84.3	-88.8	2.7	3.11e+01	0	47	104	0	60	1048575
2026-01-18 12:22:10.52	257.01	18.16	-83.9	-88.8	2.5	3.11e+01	0	47	104	0	60	1048575
2026-01-18 12:22:13.53	257.80	18.29	-84.3	-88.8	2.5	3.11e+01	0	47	104	0	60	1048575
2026-01-18 12:22:16.55	258.60	18.41	-84.3	-88.8	2.5	3.11e+01	0	47	104	0	60	1048575
2026-01-18 12:22:19.58	259.41	18.53	-83.9	-88.8	2.7	3.11e+01	0	47	104	0	60	1048575
2026-01-18 12:22:22.60	260.22	18.64	-84.3	-88.8	2.5	3.11e+01	0	47	104	0	60	1048575
2026-01-18 12:22:25.63	261.05	18.75	-83.9	-88.8	2.6	3.11e+01	0	47	104	0	60	1048575
2026-01-18 12:22:28.65	261.87	18.85	-84.3	-88.8	2.5	3.11e+01	0	47	104	0	60	1048575
2026-01-18 12:22:31.66	262.70	18.95	-84.3	-88.8	2.6	3.11e+01	0	47	104	0	60	1048575
2026-01-18 12:22:34.69	263.54	19.04	-84.3	-88.8	2.5	3.11e+01	0	47	104	0	60	1048575
2026-01-18 12:22:37.71	264.38	19.13	-84.3	-88.8	2.7	3.11e+01	0	48	104	0	60	1048575
2026-01-18 12:22:40.74	265.23	19.21	-84.3	-88.8	2.5	3.11e+01	0	47	104	0	60	1048575
2026-01-18 12:22:43.76	266.08	19.28	-83.9	-88.8	2.5	3.11e+01	0	47	104	0	60	1048575
2026-01-18 12:22:46.77	266.93	19.35	-84.3	-88.8	2.6	3.11e+01	0	47	104	0	60	1048575
2026-01-18 12:22:49.80	267.79	19.41	-84.3	-88.8	2.8	3.11e+01	0	47	104	0	60	1048575
2026-01-18 12:22:52.82	268.65	19.47	-83.9	-88.8	2.7	3.11e+01	0	47	104	0	60	1048575
2026-01-18 12:22:55.84	269.51	19.52	-84.3	-88.8	2.5	3.11e+01	0	47	104	0	60	1048575
2026-01-18 12:22:58.85	270.38	19.57	-83.9	-88.8	2.5	3.11e+01	0	48	104	0	60	1048575
2026-01-18 12:23:01.87	271.25	19.61	-83.9	-88.8	2.4	3.11e+01	0	48	104	0	60	1048575
2026-01-18 12:23:04.89	272.12	19.64	-84.3	-88.8	2.6	3.11e+01	0	48	104	0	60	1048575
2026-01-18 12:23:07.90	272.99	19.67	-83.9	-88.8	2.6	3.11e+01	0	47	104	0	60	1048575
2026-01-18 12:23:10.92	273.86	19.69	-84.3	-88.8	2.0	3.11e+01	0	47	104	0	60	1048575
2026-01-18 12:23:13.94	274.74	19.71	-84.3	-88.8	2.6	3.11e+01	0	47	104	0	60	1048575
2026-01-18 12:23:16.97	275.62	19.71	-83.9	-88.8	2.5	3.11e+01	0	47	104	0	60	1048575
2026-01-18 12:23:19.98	276.49	19.72	-84.3	-88.8	2.5	3.11e+01	0	47	104	0	60	1048575
2026-01-18 12:23:23.00	277.37	19.71	-84.3	-88.8	2.6	3.11e+01	0	47	104	0	60	1048575
2026-01-18 12:23:26.01	278.24	19.70	-83.9	-88.8	2.7	3.11e+01	0	47	104	0	60	1048575
2026-01-18 12:23:29.03	279.12	19.68	-84.3	-88.8	2.5	3.11e+01	0	47	104	0	60	1048575
2026-01-18 12:23:32.04	279.99	19.66	-83.9	-88.8	2.6	3.11e+01	0	47	104	0	60	1048575
2026-01-18 12:23:35.06	280.86	19.63	-84.3	-88.8	2.3	3.11e+01	0	48	104	0	60	1048575
2026-01-18 12:23:38.09	281.73	19.59	-84.3	-88.8	2.4	3.11e+01	0	47	104	0	60	1048575
2026-01-18 12:23:41.11	282.60	19.55	-83.9	-88.8	2.6	3.11e+01	0	47	104	0	60	1048575
2026-01-18 12:23:44.13	283.46	19.50	-84.3	-88.8	2.7	3.11e+01	0	48	104	0	60	1048575
2026-01-18 12:23:47.15	284.33	19.45	-84.3	-88.8	2.6	3.11e+01	0	47	104	0	60	1048575
2026-01-18 12:23:50.18	285.19	19.39	-83.9	-88.8	2.6	3.11e+01	0	47	104	0	60	1048575
2026-01-18 12:23:53.20	286.04	19.32	-84.3	-88.8	2.5	3.11e+01	0	47	104	0	60	1048575
2026-01-18 12:23:56.21	286.89	19.25	-84.3	-88.8	2.7	3.11e+01	0	47	104	0	60	1048575
2026-01-18 12:23:59.23	287.74	19.17	-83.5	-88.8	2.5	3.11e+01	0	48	104	0	60	1048575
2026-01-18 12:24:02.24	288.58	19.09	-84.3	-88.8	2.5	3.11e+01	0	47	104	0	60	1048575
2026-01-18 12:24:05.26	289.41	19.00	-83.9	-88.8	2.6	3.11e+01	0	47	104	0	60	1048575
2026-01-18 12:24:08.28	290.24	18.91	-84.3	-88.8	2.5	3.11e+01	0	47	104	0	60	1048575
2026-01-18 12:24:11.29	291.07	18.81	-84.3	-88.8	2.3	3.11e+01	0	47	104	0	60	1048575
2026-01-18 12:24:14.32	291.89	18.71	-83.9	-88.8	2.6	3.11e+01	0	47	104	0	60	1048575
2026-01-18 12:24:17.34	292.71	18.60	-84.3	-88.8	2.5	3.11e+01	0	47	104	0	60	1048575
2026-01-18 12:24:20.37	293.52	18.48	-84.3	-88.8	2.7	3.11e+01	0	47	104	0	60	1048575
2026-01-18 12:24:23.38	294.32	18.36	-83.9	-88.8	2.5	3.11e+01	0	47	104	0	60	1048575
2026-01-18 12:24:26.41	295.11	18.24	-84.3	-88.8	2.4	3.11e+01	0	47	104	0	60	1048575
2026-01-18 12:24:29.43	295.90	18.11	-84.3	-88.8	2.6	3.11e+01	0	47	104	0	60	1048575
2026-01-18 12:24:32.45	296.68	17.98	-83.9	-88.8	2.6	3.11e+01	0	47	104	0	60	1048575
2026-01-18 12:24:35.48	297.46	17.85	-84.3	-88.8	2.7	3.11e+01	0	47	104	0	60	1048575
2026-01-18 12:24:38.49	298.22	17.71	-83.9	-88.8	2.5	3.11e+01	0	47	104	0	60	1048575
2026-01-18 12:24:41.52	298.99	17.56	-84.3	-88.8	2.5	3.11e+01	0	47	104	0	60	1048575
2026-01-18 12:24:44.54	299.74	17.42	-84.3	-88.8	2.6	3.11e+01	0	47	104	0	60	1048575
2026-01-18 12:24:47.56	300.48	17.26	-83.9	-88.8	2.7	3.11e+01	0	47	104	0	60	1048575
2026-01-18 12:24:50.58	301.22	17.11	-83.9	-88.8	2.7	3.11e+01	0	47	104	0	60	1048575
2026-01-18 12:24:53.61	301.95	16.95	-84.3	-88.8	2.6	3.11e+01	0	47	104	0	60	1048575
2026-01-18 12:24:56.62	302.67	16.79	-83.9	-88.8	2.6	3.11e+01	0	47	104	0	60	1048575
2026-01-18 12:24:59.64	303.38	16.63	-84.3	-88.8	2.7	3.11e+01	0	47	104	0	60	1048575
2026-01-18 12:25:02.65	304.08	16.47	-83.9	-88.8	2.6	3.11e+01	0	47	104	0	60	1048575
2026-01-18 12:25:05.66	304.77	16.30	-83.9	-88.8	2.7	3.11e+01	0	47	104	0	60	1048575
2026-01-18 12:25:08.68	305.46	16.13	-84.3	-88.8	2.6	3.11e+01	0	47	104	0	60	1048575
2026-01-18 12:25:11.70	306.14	15.95	-83.9	-88.8	2.5	3.11e+01	0	47	104	0	60	1048575
2026-01-18 12:25:14.72	306.81	15.78	-84.3	-88.8	2.4	3.11e+01	0	47	104	0	60	1048575
2026-01-18 12:25:17.73	307.48	15.60	-84.3	-88.8	2.7	3.11e+01	0	47	104	0	60	1048575
2026-01-18 12:25:20.75	308.13	15.42	-83.9	-88.8	2.6	3.11e+01	0	47	104	0	60	1048575
2026-01-18 12:25:23.77	308.78	15.24	-84.3	-88.8	2.6	3.11e+01	0	47	104	0	60	1048575
2026-01-18 12:25:26.80	309.42	15.06	-84.3	-88.8	2.5	3.11e+01	0	48	104	0	60	1048575
2026-01-18 12:25:29.82	310.05	14.87	-83.9	-88.8	2.6	3.11e+01	0	47	104	0	60	1048575
2026-01-18 12:25:32.83	310.67	14.69	-83.9	-88.8	2.6	3.11e+01	0	47	104	0	60	1048575
2026-01-18 12:25:35.85	311.28	14.50	-84.3	-88.8	2.7	3.11e+01	0	48	104	0	60	1048575
2026-01-18 12:25:38.87	311.89	14.31	-84.3	-88.8	2.7	3.11e+01	0	47	104	0	60	1048575
2026-01-18 12:25:41.89	312.49	14.12	-84.3	-88.8	2.8	3.11e+01	0	47	104	0	60	1048575
2026-01-18 12:25:44.91	313.08	13.93	-83.9	-88.8	2.6	3.11e+01	0	47	104	0	60	1048575
2026-01-18 12:25:47.93	313.66	13.74	-84.3	-88.8	2.6	3.11e+01	0	47	104	0	60	1048575
2026-01-18 12:25:50.95	314.24	13.55	-84.3	-88.8	2.4	3.11e+01	0	47	104	0	60	1048575
2026-01-18 12:25:53.96	314.80	13.36	-83.9	-88.8	2.6	3.11e+01	0	47	104	0	60	1048572
2026-01-18 12:25:56.98	315.36	13.16	-84.3	-88.8	2.6	3.11e+01	0	47	104	0	60	1048572
2026-01-18 12:26:00.00	315.91	12.97	-83.9	-88.8	2.8	3.11e+01	0	47	104	0	60	1048572
2026-01-18 12:26:03.02	316.46	12.77	-83.9	-88.8	2.6	3.11e+01	0	47	104	0	60	1048572
2026-01-18 12:26:06.04	316.99	12.58	-83.9	-88.8	2.6	3.11e+01	0	47	104	0	60	1048572
2026-01-18 12:26:09.06	317.52	12.38	-83.9	-88.8	2.7	3.11e+01	0	47	104	0	60	1048572
2026-01-18 12:26:12.07	318.04	12.19	-84.3	-88.8	2.5	3.11e+01	0	47	104	0	60	1048572
2026-01-18 12:26:15.10	318.56	11.99	-84.3	-88.8	2.6	3.11e+01	0	47	104	0	60	1048572
2026-01-18 12:26:18.12	319.07	11.79	-83.9	-88.8	2.3	3.11e+01	0	47	104	0	60	1048572
2026-01-18 12:26:21.15	319.57	11.60	-84.3	-88.8	2.5	3.11e+01	0	47	104	0	60	1048572
2026-01-18 12:26:24.16	320.06	11.40	-83.9	-88.8	2.7	3.11e+01	0	47	104	0	60	1048572
2026-01-18 12:26:27.19	320.55	11.20	-83.9	-88.8	2.7	3.11e+01	0	47	104	0	60	1048572
2026-01-18 12:26:30.20	321.03	11.01	-84.3	-88.8	2.2	3.11e+01	0	47	104	0	60	1048572
2026-01-18 12:26:33.23	321.50	10.81	-84.3	-88.8	2.7	3.11e+01	0	47	104	0	60	1048572
2026-01-18 12:26:36.25	321.97	10.62	-83.9	-88.8	2.7	3.11e+01	0	47	104	0	60	1048572
2026-01-18 12:26:39.27	322.43	10.42	-83.9	-88.8	2.6	3.11e+01	0	48	104	0	60	1048572
2026-01-18 12:26:42.29	322.89	10.22	-84.3	-88.8	2.5	3.11e+01	0	47	104	0	60	1048572
2026-01-18 12:26:45.32	323.33	10.03	-83.9	-88.8	2.7	3.11e+01	0	47	104	0	60	1048572
2026-01-18 12:26:48.34	323.78	9.83	-84.3	-88.8	2.5	3.11e+01	0	47	104	0	60	1048572
2026-01-18 12:26:51.36	324.21	9.64	-83.9	-88.8	2.5	3.11e+01	0	47	104	0	60	1048572
2026-01-18 12:26:54.39	324.64	9.44	-83.9	-88.8	2.6	3.11e+01	0	47	104	0	60	1048572
2026-01-18 12:26:57.40	325.06	9.25	-84.3	-88.8	2.3	3.11e+01	0	47	104	0	60	1048572
2026-01-18 12:27:00.42	325.48	9.06	-83.9	-88.8	2.5	3.11e+01	0	47	104	0	60	1048572
2026-01-18 12:27:03.44	325.89	8.86	-84.3	-88.8	2.4	3.11e+01	0	47	104	0	60	1048572
2026-01-18 12:27:06.46	326.30	8.67	-84.3	-88.8	2.6	3.11e+01	0	48	104	0	60	1048572
2026-01-18 12:27:09.49	326.70	8.48	-84.3	-88.8	2.5	3.11e+01	0	47	104	0	60	1048572
2026-01-18 12:27:12.51	327.10	8.29	-84.3	-88.8	2.5	3.11e+01	0	47	104	0	60	1048572
2026-01-18 12:27:15.53	327.49	8.09	-84.3	-88.8	2.5	3.11e+01	0	47	104	0	60	1048572
2026-01-18 12:27:18.55	327.87	7.90	-84.3	-88.8	2.6	3.11e+01	0	47	104	0	60	1048572
2026-01-18 12:27:21.57	328.25	7.71	-84.3	-88.8	2.6	3.11e+01	0	47	104	0	60	1048572
2026-01-18 12:27:24.59	328.62	7.52	-83.9	-88.8	2.5	3.11e+01	0	48	104	0	60	1048572
2026-01-18 12:27:27.61	328.99	7.34	-84.3	-88.8	2.4	3.11e+01	0	47	104	0	60	1048572
2026-01-18 12:27:30.63	329.36	7.15	-83.9	-88.8	2.3	3.11e+01	0	48	104	0	60	1048572
2026-01-18 12:27:33.64	329.71	6.96	-83.9	-88.8	2.5	3.11e+01	0	48	104	0	60	1048572
2026-01-18 12:27:36.65	330.07	6.78	-84.3	-88.8	2.5	3.11e+01	0	47	104	0	60	1048572
2026-01-18 12:27:39.68	330.42	6.59	-84.3	-88.8	2.5	3.11e+01	0	47	104	0	60	1048572
2026-01-18 12:27:42.70	330.76	6.40	-83.9	-88.8	2.6	3.11e+01	0	47	104	0	60	1048572
2026-01-18 12:27:45.72	331.10	6.22	-83.9	-88.8	2.5	3.11e+01	0	47	104	0	60	1048572
2026-01-18 12:27:48.75	331.44	6.03	-83.9	-88.8	2.6	3.11e+01	0	47	104	0	60	1048572
2026-01-18 12:27:51.77	331.77	5.85	-84.3	-88.8	2.7	3.11e+01	0	47	104	0	60	1048572
2026-01-18 12:27:54.79	332.10	5.67	-84.3	-88.8	2.4	3.11e+01	0	47	104	0	60	1048572
2026-01-18 12:27:57.82	332.42	5.49	-83.9	-88.8	2.4	3.11e+01	0	47	104	0	60	1048572
2026-01-18 12:28:00.83	332.74	5.31	-84.3	-88.8	2.5	3.11e+01	0	47	104	0	60	1048572
2026-01-18 12:28:03.85	333.06	5.13	-84.3	-88.8	2.6	3.11e+01	0	47	104	0	60	1048572
2026-01-18 12:28:06.88	333.37	4.94	-83.9	-88.8	2.7	3.11e+01	0	48	104	0	60	1048572
2026-01-18 12:28:09.90	333.68	4.77	-84.3	-88.8	2.5	3.11e+01	0	47	104	0	60	1048572
2026-01-18 12:28:12.92	333.98	4.59	-84.3	-88.8	2.8	3.11e+01	0	47	104	0	60	1048572
2026-01-18 12:28:15.95	334.28	4.41	-83.9	-88.8	2.5	3.11e+01	0	47	104	0	60	1048572
2026-01-18 12:28:18.96	334.57	4.23	-83.9	-88.8	2.5	3.11e+01	0	47	104	0	60	1048572
2026-01-18 12:28:21.98	334.87	4.06	-83.9	-88.8	2.6	3.11e+01	0	48	104	0	60	1048572
2026-01-18 12:28:25.00	335.15	3.88	-84.3	-88.8	2.7	3.11e+01	0	48	104	0	60	1048572
2026-01-18 12:28:28.02	335.44	3.71	-84.3	-88.8	2.7	3.11e+01	0	47	104	0	60	1048572
2026-01-18 12:28:31.03	335.72	3.53	-83.9	-88.8	2.7	3.11e+01	0	47	104	0	60	1048572
2026-01-18 12:28:34.05	336.00	3.36	-84.3	-88.8	2.4	3.11e+01	0	48	104	0	60	1048574
2026-01-18 12:28:37.07	336.27	3.19	-84.3	-88.8	2.4	3.11e+01	0	47	104	0	60	1048574
2026-01-18 12:28:40.08	336.54	3.02	-83.5	-88.8	2.4	3.11e+01	0	47	104	0	60	1048574
2026-01-18 12:28:43.10	336.81	2.85	-84.3	-88.8	2.5	3.11e+01	0	47	104	0	60	1048574
2026-01-18 12:28:46.12	337.07	2.68	-83.9	-88.8	2.7	3.11e+01	0	48	104	0	60	1048574
2026-01-18 12:28:49.13	337.33	2.51	-84.3	-88.8	2.4	3.11e+01	0	47	104	0	60	1048574
2026-01-18 12:28:52.15	337.59	2.34	-84.3	-88.8	2.5	3.11e+01	0	47	104	0	60	1048574
2026-01-18 12:28:55.17	337.85	2.17	-83.9	-88.8	2.5	3.11e+01	0	47	104	0	60	1048574
2026-01-18 12:28:58.18	338.10	2.00	-84.3	-88.8	2.6	3.11e+01	0	47	104	0	60	1048574
2026-01-18 12:29:01.20	338.35	1.84	-84.3	-88.8	2.8	3.11e+01	0	47	104	0	60	1048574
2026-01-18 12:29:04.22	338.60	1.67	-83.9	-88.8	2.6	3.11e+01	0	48	104	0	60	1048574
2026-01-18 12:29:07.24	338.84	1.50	-84.3	-88.8	2.7	3.11e+01	0	47	104	0	60	1048574
2026-01-18 12:29:10.25	339.08	1.34	-84.3	-88.8	2.6	3.11e+01	0	47	104	0	60	1048574
2026-01-18 12:29:13.28	339.32	1.18	-83.9	-88.8	2.7	3.11e+01	0	47	104	0	60	1048574
2026-01-18 12:29:16.29	339.55	1.01	-84.3	-88.8	2.4	3.11e+01	0	47	104	0	60	1048574
2026-01-18 12:29:19.31	339.79	0.85	-83.9	-88.8	2.8	3.11e+01	0	47	104	0	60	1048574
2026-01-18 12:29:22.33	340.02	0.69	-84.3	-88.8	2.5	3.11e+01	0	47	104	0	60	1048574
2026-01-18 12:29:25.36	340.25	0.53	-84.3	-88.8	2.6	3.11e+01	0	47	104	0	60	1048574
2026-01-18 12:29:28.38	340.47	0.37	-83.9	-88.8	2.6	3.11e+01	0	47	104	0	60	1048574
2026-01-18 12:29:31.39	340.69	0.21	-84.3	-88.8	2.7	3.11e+01	0	47	104	0	60	1048574
2026-01-18 12:29:34.42	340.92	0.05	-84.3	-88.8	2.5	3.11e+01	0	48	104	0	60	1048574

#Closed at: 2026-01-18 12:29:37
#Recorded file [0 MB]: D:/Data/35015_260118_151708.dat