passes_logs/2026/01/18/R3.2S-Naryan-Mar/R3.2S-Naryan-Mar__20260118_110210_TY-41_rec.log

#Pass ID: 20260118_110210_TY-41
#Satellite: TY-41
#Configuration: TY-39
#almurnet v.1.7.20240730
#Start time: 2026-01-18 11:02:14

#Version: 2.2.20231116
#Station: R3.2S-Naryan-Mar
#Location: 53.008057 lon 67.646978 lat
#TLE: 1 61231U 24173E   26017.70896991  .00008013  00000-0  38191-3 0 09992
#TLE: 2 61231 097.4119 092.6921 0001804 091.8360 205.6844 15.19179825 72900

#Time	Az	El	Level	Level2	SNR	BER	BlckErr	Temp	State	Recorded	gain1	gain2
2026-01-18 11:02:14.65	29.40	0.20	-84.3	-88.8	2.1	3.12e+01	0	45	0	0	60	1048574
2026-01-18 11:02:17.67	29.11	0.36	-83.5	-79.0	2.4	0.00e+00	0	46	104	0	60	1048570
2026-01-18 11:02:20.68	28.81	0.52	-83.1	-79.0	2.4	0.00e+00	0	46	104	0	60	1048574
2026-01-18 11:02:23.71	28.51	0.68	-83.5	-79.0	2.3	0.00e+00	0	47	104	0	60	1048575
2026-01-18 11:02:26.73	28.21	0.84	-83.1	-79.0	2.5	0.00e+00	0	47	104	0	60	1048573
2026-01-18 11:02:29.76	27.90	1.01	-83.5	-79.0	2.2	0.00e+00	0	47	104	0	60	1048566
2026-01-18 11:02:32.78	27.59	1.17	-83.5	-79.0	2.5	0.00e+00	0	47	104	0	60	1048573
2026-01-18 11:02:35.79	27.27	1.33	-82.8	-79.0	2.3	0.00e+00	0	47	104	0	60	1048563
2026-01-18 11:02:38.81	26.95	1.49	-83.5	-79.0	2.5	0.00e+00	0	47	104	0	60	1048575
2026-01-18 11:02:41.84	26.62	1.66	-83.5	-79.0	2.5	0.00e+00	0	47	104	0	60	1048572
2026-01-18 11:02:44.86	26.29	1.82	-83.1	-79.0	2.5	0.00e+00	0	47	104	0	60	1048573
2026-01-18 11:02:47.89	25.95	1.99	-83.1	-79.0	2.4	0.00e+00	0	47	104	0	60	1048575
2026-01-18 11:02:50.91	25.61	2.15	-83.5	-79.0	2.4	0.00e+00	0	47	104	0	60	1048575
2026-01-18 11:02:53.93	25.26	2.32	-83.1	-79.0	2.5	0.00e+00	0	47	104	0	60	1048574
2026-01-18 11:02:56.95	24.91	2.49	-83.5	-79.0	2.5	0.00e+00	0	47	104	0	60	1048571
2026-01-18 11:02:59.96	24.55	2.65	-83.1	-79.0	2.2	0.00e+00	0	47	104	0	60	1048574
2026-01-18 11:03:02.98	24.19	2.82	-83.5	-79.0	2.4	0.00e+00	0	47	104	0	60	1048566
2026-01-18 11:03:05.99	23.82	2.99	-83.5	-79.0	2.5	0.00e+00	0	47	104	0	60	1048570
2026-01-18 11:03:09.01	23.45	3.15	-82.8	-79.0	2.5	0.00e+00	0	47	104	0	60	1048574
2026-01-18 11:03:12.03	23.07	3.32	-83.5	-79.0	2.5	0.00e+00	0	47	104	0	60	1048572
2026-01-18 11:03:15.05	22.69	3.49	-83.5	-79.0	2.3	0.00e+00	0	47	104	0	60	1048575
2026-01-18 11:03:18.07	22.30	3.66	-83.1	-79.0	2.4	0.00e+00	0	48	104	0	60	1048569
2026-01-18 11:03:21.09	21.90	3.83	-83.1	-79.0	2.6	0.00e+00	0	48	104	0	60	1048575
2026-01-18 11:03:24.11	21.50	4.00	-83.5	-79.0	2.4	0.00e+00	0	48	104	0	60	1048573
2026-01-18 11:03:27.12	21.09	4.17	-83.5	-79.0	2.1	0.00e+00	0	48	104	0	60	1048574
2026-01-18 11:03:30.14	20.68	4.34	-83.5	-79.0	2.3	0.00e+00	0	48	104	0	60	1048573
2026-01-18 11:03:33.16	20.25	4.51	-83.1	-79.0	2.5	0.00e+00	0	48	104	0	60	1048575
2026-01-18 11:03:36.18	19.83	4.68	-83.5	-79.0	2.3	0.00e+00	0	48	104	0	60	1048565
2026-01-18 11:03:39.21	19.39	4.85	-83.5	-79.0	2.0	0.00e+00	0	48	104	0	60	1048574
2026-01-18 11:03:42.23	18.95	5.02	-82.8	-79.0	2.4	0.00e+00	0	48	104	0	60	1048567
2026-01-18 11:03:45.25	18.50	5.19	-83.5	-79.0	2.4	0.00e+00	0	48	104	0	60	1048570
2026-01-18 11:03:48.28	18.05	5.36	-83.5	-79.0	2.6	0.00e+00	0	48	104	0	60	1048574
2026-01-18 11:03:51.30	17.59	5.53	-83.1	-79.0	2.2	0.00e+00	0	48	104	0	60	1048570
2026-01-18 11:03:54.32	17.12	5.71	-83.5	-79.0	2.6	0.00e+00	0	48	104	0	60	1048573
2026-01-18 11:03:57.34	16.65	5.88	-83.5	-79.0	2.5	0.00e+00	0	48	104	0	60	1048569
2026-01-18 11:04:00.37	16.16	6.05	-83.5	-79.0	2.4	0.00e+00	0	48	104	0	60	1048567
2026-01-18 11:04:03.39	15.67	6.22	-83.5	-79.0	2.0	0.00e+00	0	48	104	0	60	1048567
2026-01-18 11:04:06.41	15.18	6.39	-83.1	-79.0	2.5	0.00e+00	0	48	104	0	60	1048574
2026-01-18 11:04:09.44	14.67	6.56	-83.5	-79.0	2.5	0.00e+00	0	48	104	0	60	1048575
2026-01-18 11:04:12.46	14.16	6.73	-83.5	-79.0	2.5	0.00e+00	0	48	104	0	60	1048574
2026-01-18 11:04:15.48	13.64	6.90	-83.1	-79.0	2.1	0.00e+00	0	48	104	0	60	1048568
2026-01-18 11:04:18.50	13.11	7.07	-83.5	-79.0	2.6	0.00e+00	0	48	104	0	60	1048573
2026-01-18 11:04:21.52	12.58	7.24	-83.5	-79.0	2.4	0.00e+00	0	48	104	0	60	1048574
2026-01-18 11:04:24.54	12.03	7.41	-83.1	-79.0	2.5	0.00e+00	0	48	104	0	60	1048572
2026-01-18 11:04:27.56	11.48	7.57	-83.5	-79.0	2.4	0.00e+00	0	48	104	0	60	1048574
2026-01-18 11:04:30.57	10.92	7.74	-83.1	-79.0	2.5	0.00e+00	0	48	104	0	60	1048573
2026-01-18 11:04:33.60	10.36	7.91	-83.5	-79.0	2.4	0.00e+00	0	48	104	0	60	1048575
2026-01-18 11:04:36.62	9.78	8.07	-83.5	-79.0	2.5	0.00e+00	0	48	104	0	60	1048575
2026-01-18 11:04:39.65	9.20	8.24	-83.1	-79.0	2.4	0.00e+00	0	48	104	0	60	1048573
2026-01-18 11:04:42.67	8.60	8.40	-83.5	-79.0	2.6	0.00e+00	0	48	104	0	60	1048570
2026-01-18 11:04:45.68	8.01	8.56	-83.5	-79.0	2.4	0.00e+00	0	48	104	0	60	1048572
2026-01-18 11:04:48.69	7.40	8.72	-82.8	-79.0	2.4	0.00e+00	0	48	104	0	60	1048573
2026-01-18 11:04:51.71	6.78	8.88	-83.5	-79.0	2.4	0.00e+00	0	48	104	0	60	1048575
2026-01-18 11:04:54.73	6.16	9.04	-83.5	-79.0	2.5	0.00e+00	0	48	104	0	60	1048571
2026-01-18 11:04:57.76	5.52	9.20	-83.5	-79.0	2.5	0.00e+00	0	49	104	0	60	1048564
2026-01-18 11:05:00.77	4.88	9.36	-83.5	-79.0	2.2	0.00e+00	0	48	104	0	60	1048573
2026-01-18 11:05:03.79	4.23	9.51	-83.5	-79.0	2.3	0.00e+00	0	48	104	0	60	1048570
2026-01-18 11:05:06.81	3.57	9.66	-83.5	-79.0	2.4	0.00e+00	0	48	104	0	60	1048575
2026-01-18 11:05:09.83	2.90	9.81	-83.5	-79.0	2.5	0.00e+00	0	48	104	0	60	1048571
2026-01-18 11:05:12.86	2.22	9.96	-82.8	-79.0	2.4	0.00e+00	0	49	104	0	60	1048568
2026-01-18 11:05:15.87	1.54	10.10	-83.5	-79.0	2.5	0.00e+00	0	48	104	0	60	1048573
2026-01-18 11:05:18.89	0.85	10.25	-83.5	-79.0	2.5	0.00e+00	0	49	104	0	60	1048572
2026-01-18 11:05:21.91	0.14	10.39	-82.8	-79.0	2.4	0.00e+00	0	48	104	0	60	1048571
2026-01-18 11:05:24.93	359.43	10.53	-83.5	-79.0	2.4	0.00e+00	0	49	104	0	60	1048575
2026-01-18 11:05:27.95	358.71	10.66	-83.1	-79.0	2.4	0.00e+00	0	48	104	0	60	1048572
2026-01-18 11:05:30.98	357.99	10.80	-83.5	-79.0	2.5	0.00e+00	0	48	104	0	60	1048573
2026-01-18 11:05:33.99	357.25	10.93	-83.5	-79.0	2.5	0.00e+00	0	49	104	0	60	1048575
2026-01-18 11:05:37.01	356.51	11.05	-83.5	-79.0	2.2	0.00e+00	0	49	104	0	60	1048572
2026-01-18 11:05:40.04	355.76	11.18	-83.5	-79.0	2.2	0.00e+00	0	49	104	0	60	1048574
2026-01-18 11:05:43.06	355.00	11.30	-83.5	-79.0	2.4	0.00e+00	0	48	104	0	60	1048573
2026-01-18 11:05:46.08	354.23	11.42	-83.1	-79.0	2.4	0.00e+00	0	49	104	0	60	1048573
2026-01-18 11:05:49.11	353.46	11.53	-83.5	-79.0	2.5	0.00e+00	0	48	104	0	60	1048571
2026-01-18 11:05:52.13	352.68	11.64	-83.1	-79.0	2.0	0.00e+00	0	49	104	0	60	1048575
2026-01-18 11:05:55.15	351.89	11.75	-82.8	-79.0	2.4	0.00e+00	0	48	104	0	60	1048575
2026-01-18 11:05:58.17	351.09	11.85	-83.5	-79.0	2.5	0.00e+00	0	49	104	0	60	1048573
2026-01-18 11:06:01.19	350.29	11.95	-83.1	-79.0	2.4	0.00e+00	0	49	104	0	60	1048575
2026-01-18 11:06:04.21	349.49	12.04	-83.5	-79.0	2.1	0.00e+00	0	49	104	0	60	1048571
2026-01-18 11:06:07.23	348.67	12.13	-83.5	-79.0	2.6	0.00e+00	0	49	104	0	60	1048575
2026-01-18 11:06:10.26	347.85	12.21	-83.1	-79.0	2.4	0.00e+00	0	49	104	0	60	1048573
2026-01-18 11:06:13.28	347.02	12.29	-83.5	-79.0	2.5	0.00e+00	0	49	104	0	60	1048572
2026-01-18 11:06:16.30	346.19	12.37	-83.5	-79.0	2.2	0.00e+00	0	49	104	0	60	1048568
2026-01-18 11:06:19.32	345.36	12.44	-83.1	-79.0	2.5	0.00e+00	0	49	104	0	60	1048570
2026-01-18 11:06:22.34	344.52	12.51	-83.5	-79.0	2.5	0.00e+00	0	49	104	0	60	1048575
2026-01-18 11:06:25.35	343.68	12.57	-83.1	-79.0	2.3	0.00e+00	0	49	104	0	60	1048575
2026-01-18 11:06:28.37	342.83	12.62	-82.8	-79.0	2.7	0.00e+00	0	49	104	0	60	1048574
2026-01-18 11:06:31.38	341.98	12.67	-83.5	-79.0	2.5	0.00e+00	0	49	104	0	60	1048573
2026-01-18 11:06:34.40	341.12	12.72	-83.1	-79.0	2.5	0.00e+00	0	49	104	0	60	1048574
2026-01-18 11:06:37.43	340.26	12.76	-83.5	-79.0	2.5	0.00e+00	0	49	104	0	60	1048571
2026-01-18 11:06:40.45	339.40	12.79	-83.5	-79.0	2.4	0.00e+00	0	49	104	0	60	1048574
2026-01-18 11:06:43.48	338.53	12.82	-83.5	-79.0	2.4	0.00e+00	0	49	104	0	60	1048575
2026-01-18 11:06:46.50	337.66	12.84	-83.5	-79.0	2.5	0.00e+00	0	49	104	0	60	1048571
2026-01-18 11:06:49.52	336.80	12.86	-83.5	-79.0	2.5	0.00e+00	0	49	104	0	60	1048575
2026-01-18 11:06:52.54	335.93	12.87	-82.8	-79.0	2.4	0.00e+00	0	49	104	0	60	1048573
2026-01-18 11:06:55.56	335.06	12.88	-83.5	-79.0	2.5	0.00e+00	0	49	104	0	60	1048574
2026-01-18 11:06:58.58	334.19	12.88	-83.5	-79.0	2.4	0.00e+00	0	49	104	0	60	1048573
2026-01-18 11:07:01.60	333.32	12.88	-83.1	-79.0	2.4	0.00e+00	0	49	104	0	60	1048575
2026-01-18 11:07:04.62	332.45	12.87	-83.5	-79.0	2.4	0.00e+00	0	49	104	0	60	1048571
2026-01-18 11:07:07.63	331.59	12.85	-83.5	-79.0	2.5	0.00e+00	0	49	104	0	60	1048574
2026-01-18 11:07:10.66	330.72	12.83	-83.5	-79.0	2.5	0.00e+00	0	49	104	0	60	1048574
2026-01-18 11:07:13.68	329.85	12.80	-83.5	-79.0	2.3	0.00e+00	0	49	104	0	60	1048575
2026-01-18 11:07:16.69	328.99	12.77	-83.1	-79.0	2.4	0.00e+00	0	49	104	0	60	1048575
2026-01-18 11:07:19.70	328.13	12.74	-83.5	-79.0	2.5	0.00e+00	0	49	104	0	60	1048575
2026-01-18 11:07:22.72	327.28	12.69	-83.5	-79.0	2.5	0.00e+00	0	49	104	0	60	1048572
2026-01-18 11:07:25.74	326.42	12.64	-83.1	-79.0	2.5	0.00e+00	0	49	104	0	60	1048570
2026-01-18 11:07:28.76	325.57	12.59	-83.5	-79.0	2.2	0.00e+00	0	49	104	0	60	1048575
2026-01-18 11:07:31.78	324.72	12.53	-83.5	-79.0	2.4	0.00e+00	0	49	104	0	60	1048575
2026-01-18 11:07:34.78	323.89	12.47	-83.1	-79.0	2.4	0.00e+00	0	49	104	0	60	1048574
2026-01-18 11:07:37.80	323.05	12.40	-83.5	-79.0	2.4	0.00e+00	0	49	104	0	60	1048574
2026-01-18 11:07:40.83	322.21	12.33	-83.1	-79.0	2.2	0.00e+00	0	49	104	0	60	1048571
2026-01-18 11:07:43.85	321.38	12.25	-83.1	-79.0	2.6	0.00e+00	0	49	104	0	60	1048575
2026-01-18 11:07:46.87	320.56	12.17	-83.5	-79.0	2.5	0.00e+00	0	49	104	0	60	1048574
2026-01-18 11:07:49.89	319.74	12.08	-82.8	-79.0	2.5	0.00e+00	0	49	104	0	60	1048574
2026-01-18 11:07:52.91	318.93	11.99	-83.5	-79.0	2.3	0.00e+00	0	49	104	0	60	1048573
2026-01-18 11:07:55.93	318.12	11.89	-83.5	-79.0	2.6	0.00e+00	0	49	104	0	60	1048575
2026-01-18 11:07:58.96	317.32	11.79	-83.1	-79.0	2.6	0.00e+00	0	49	104	0	60	1048572
2026-01-18 11:08:01.98	316.53	11.69	-83.5	-79.0	2.4	0.00e+00	0	49	104	0	60	1048575
2026-01-18 11:08:05.00	315.75	11.58	-83.5	-79.0	2.2	0.00e+00	0	49	104	0	60	1048575
2026-01-18 11:08:08.01	314.97	11.47	-83.1	-79.0	2.5	0.00e+00	0	49	104	0	60	1048568
2026-01-18 11:08:11.04	314.20	11.35	-83.5	-79.0	2.4	0.00e+00	0	49	104	0	60	1048573
2026-01-18 11:08:14.06	313.43	11.23	-83.1	-79.0	2.4	0.00e+00	0	49	104	0	60	1048570
2026-01-18 11:08:17.08	312.68	11.11	-83.5	-79.0	2.3	0.00e+00	0	49	104	0	60	1048573
2026-01-18 11:08:20.11	311.93	10.98	-83.5	-79.0	2.4	0.00e+00	0	49	104	0	60	1048573
2026-01-18 11:08:23.13	311.19	10.85	-82.8	-79.0	2.5	0.00e+00	0	49	104	0	60	1048574
2026-01-18 11:08:26.15	310.46	10.72	-83.5	-79.0	2.5	0.00e+00	0	49	104	0	60	1048575
2026-01-18 11:08:29.16	309.74	10.59	-83.5	-79.0	2.5	0.00e+00	0	49	104	0	60	1048571
2026-01-18 11:08:32.18	309.02	10.45	-83.1	-79.0	2.6	0.00e+00	0	49	104	0	60	1048575
2026-01-18 11:08:35.21	308.31	10.31	-83.5	-79.0	2.4	0.00e+00	0	49	104	0	60	1048569
2026-01-18 11:08:38.23	307.61	10.16	-83.1	-79.0	2.4	0.00e+00	0	49	104	0	60	1048571
2026-01-18 11:08:41.25	306.92	10.02	-83.1	-79.0	2.5	0.00e+00	0	49	104	0	60	1048574
2026-01-18 11:08:44.28	306.24	9.87	-83.5	-79.0	2.6	0.00e+00	0	49	104	0	60	1048569
2026-01-18 11:08:47.30	305.56	9.72	-83.1	-79.0	2.5	0.00e+00	0	49	104	0	60	1048572
2026-01-18 11:08:50.32	304.90	9.57	-83.5	-79.0	2.4	0.00e+00	0	49	104	0	60	1048573
2026-01-18 11:08:53.34	304.24	9.42	-83.5	-79.0	2.3	0.00e+00	0	49	104	0	60	1048573
2026-01-18 11:08:56.37	303.59	9.26	-82.8	-79.0	2.4	0.00e+00	0	49	104	0	60	1048575
2026-01-18 11:08:59.38	302.95	9.11	-83.5	-79.0	2.4	0.00e+00	0	49	104	0	60	1048575
2026-01-18 11:09:02.40	302.32	8.95	-83.5	-79.0	2.3	0.00e+00	0	49	104	0	60	1048575
2026-01-18 11:09:05.41	301.70	8.79	-83.1	-79.0	2.6	0.00e+00	0	49	104	0	60	1048571
2026-01-18 11:09:08.43	301.09	8.63	-83.5	-79.0	2.4	0.00e+00	0	49	104	0	60	1048568
2026-01-18 11:09:11.45	300.48	8.46	-83.1	-79.0	2.5	0.00e+00	0	49	104	0	60	1048574
2026-01-18 11:09:14.48	299.88	8.30	-83.1	-79.0	2.2	0.00e+00	0	49	104	0	60	1048572
2026-01-18 11:09:17.50	299.30	8.14	-83.5	-79.0	2.5	0.00e+00	0	49	104	0	60	1048575
2026-01-18 11:09:20.52	298.71	7.97	-83.1	-79.0	2.5	0.00e+00	0	49	104	0	60	1048571
2026-01-18 11:09:23.54	298.14	7.80	-83.5	-79.0	2.5	0.00e+00	0	49	104	0	60	1048571
2026-01-18 11:09:26.56	297.58	7.64	-83.5	-79.0	2.2	0.00e+00	0	49	104	0	60	1048574
2026-01-18 11:09:29.59	297.02	7.47	-83.1	-79.0	2.5	0.00e+00	0	49	104	0	60	1048574
2026-01-18 11:09:32.61	296.47	7.30	-83.5	-79.0	2.4	0.00e+00	0	49	104	0	60	1048573
2026-01-18 11:09:35.64	295.93	7.13	-83.5	-79.0	2.4	0.00e+00	0	49	104	0	60	1048575
2026-01-18 11:09:38.65	295.40	6.96	-83.1	-79.0	2.4	0.00e+00	0	49	104	0	60	1048574
2026-01-18 11:09:41.67	294.87	6.79	-83.5	-79.0	2.5	0.00e+00	0	49	104	0	60	1048574
2026-01-18 11:09:44.69	294.36	6.62	-83.1	-79.0	2.5	0.00e+00	0	49	104	0	60	1048575
2026-01-18 11:09:47.71	293.85	6.45	-83.1	-79.0	2.5	0.00e+00	0	49	104	0	60	1048570
2026-01-18 11:09:50.73	293.35	6.28	-83.5	-79.0	2.4	0.00e+00	0	49	104	0	60	1048569
2026-01-18 11:09:53.75	292.85	6.11	-83.1	-79.0	2.3	0.00e+00	0	49	104	0	60	1048573
2026-01-18 11:09:56.77	292.37	5.94	-83.5	-79.0	2.4	0.00e+00	0	49	104	0	60	1048572
2026-01-18 11:09:59.80	291.88	5.77	-83.5	-79.0	2.5	0.00e+00	0	49	104	0	60	1048572
2026-01-18 11:10:02.81	291.41	5.60	-82.8	-79.0	2.6	0.00e+00	0	49	104	0	60	1048575
2026-01-18 11:10:05.82	290.95	5.42	-83.5	-79.0	2.4	0.00e+00	0	49	104	0	60	1048572
2026-01-18 11:10:08.85	290.49	5.25	-83.5	-79.0	2.4	0.00e+00	0	49	104	0	60	1048560
2026-01-18 11:10:11.87	290.04	5.08	-83.1	-79.0	2.3	0.00e+00	0	49	104	0	60	1048573
2026-01-18 11:10:14.89	289.59	4.91	-83.5	-79.0	2.2	0.00e+00	0	49	104	0	60	1048572
2026-01-18 11:10:17.91	289.15	4.74	-83.5	-79.0	2.5	0.00e+00	0	49	104	0	60	1048575
2026-01-18 11:10:20.93	288.72	4.57	-83.1	-79.0	2.6	0.00e+00	0	49	104	0	60	1048574
2026-01-18 11:10:23.95	288.30	4.40	-83.5	-79.0	2.5	0.00e+00	0	49	104	0	60	1048574
2026-01-18 11:10:26.97	287.88	4.23	-83.1	-79.0	2.3	0.00e+00	0	49	104	0	60	1048575
2026-01-18 11:10:30.00	287.46	4.06	-83.1	-79.0	2.3	0.00e+00	0	49	104	0	60	1048568
2026-01-18 11:10:33.02	287.06	3.88	-83.5	-79.0	2.5	0.00e+00	0	49	104	0	60	1048574
2026-01-18 11:10:36.03	286.66	3.72	-83.1	-79.0	2.6	0.00e+00	0	49	104	0	60	1048570
2026-01-18 11:10:39.06	286.26	3.55	-83.5	-79.0	2.5	0.00e+00	0	49	104	0	60	1048563
2026-01-18 11:10:42.08	285.87	3.38	-83.5	-79.0	2.5	0.00e+00	0	49	104	0	60	1048574
2026-01-18 11:10:45.11	285.49	3.21	-82.8	-79.0	2.4	0.00e+00	0	49	104	0	60	1048573
2026-01-18 11:10:48.12	285.11	3.04	-83.5	-79.0	2.5	0.00e+00	0	49	104	0	60	1048572
2026-01-18 11:10:51.15	284.74	2.87	-83.1	-79.0	2.4	0.00e+00	0	49	104	0	60	1048574
2026-01-18 11:10:54.17	284.37	2.70	-83.1	-79.0	2.5	0.00e+00	0	49	104	0	60	1048575
2026-01-18 11:10:57.20	284.01	2.54	-83.5	-79.0	2.4	0.00e+00	0	49	104	0	60	1048574
2026-01-18 11:11:00.22	283.65	2.37	-83.1	-79.0	2.4	0.00e+00	0	49	104	0	60	1048574
2026-01-18 11:11:03.24	283.30	2.20	-83.5	-79.0	2.4	0.00e+00	0	49	104	0	60	1048574
2026-01-18 11:11:06.26	282.96	2.04	-83.5	-79.0	2.4	0.00e+00	0	49	104	0	60	1048572
2026-01-18 11:11:09.28	282.62	1.87	-82.8	-79.0	2.4	0.00e+00	0	49	104	0	60	1048573
2026-01-18 11:11:12.31	282.28	1.71	-83.5	-79.0	2.5	0.00e+00	0	49	104	0	60	1048571
2026-01-18 11:11:15.33	281.95	1.54	-83.5	-79.0	2.4	0.00e+00	0	49	104	0	60	1048574
2026-01-18 11:11:18.36	281.62	1.38	-83.1	-79.0	2.2	0.00e+00	0	49	104	0	60	1048571
2026-01-18 11:11:21.38	281.30	1.21	-83.5	-79.0	2.5	0.00e+00	0	49	104	0	60	1048575
2026-01-18 11:11:24.40	280.99	1.05	-83.1	-79.0	2.4	0.00e+00	0	49	104	0	60	1048574
2026-01-18 11:11:27.43	280.67	0.89	-83.1	-79.0	2.3	0.00e+00	0	49	104	0	60	1048575
2026-01-18 11:11:30.44	280.37	0.73	-83.5	-79.0	2.4	0.00e+00	0	49	104	0	60	1048575
2026-01-18 11:11:33.46	280.06	0.57	-83.1	-79.0	2.4	0.00e+00	0	49	104	0	60	1048570
2026-01-18 11:11:36.48	279.77	0.40	-83.5	-79.0	2.4	0.00e+00	0	49	104	0	60	1048575
2026-01-18 11:11:39.50	279.47	0.24	-83.5	-79.0	2.5	0.00e+00	0	49	104	0	60	1048568
2026-01-18 11:11:42.52	279.18	0.08	-82.8	-79.0	2.0	0.00e+00	0	49	104	0	60	1048573
2026-01-18 11:11:45.54	278.89	-0.07	-83.5	-79.0	2.3	0.00e+00	0	49	104	0	60	1048573

#Closed at: 2026-01-18 11:11:46
#Recorded file [0 MB]: D:/Data/35015_260118_140214.dat