passes_logs/2026/01/18/R3.2S-Naryan-Mar/R3.2S-Naryan-Mar__20260118_023544_AQUA_rec.log

#Pass ID: 20260118_023544_AQUA
#Satellite: AQUA
#Configuration: AQUA
#almurnet v.1.7.20240730
#Start time: 2026-01-18 02:35:46

#Version: 2.2.20231116
#Station: R3.2S-Naryan-Mar
#Location: 53.008057 lon 67.646978 lat
#TLE: 1 27424U 02022A   26017.29152041  .00000842  00000+0  17841-3 0  9992
#TLE: 2 27424  98.4085 343.7574 0002011  75.4099  30.6811 14.61825797261228

#Time	Az	El	Level	Level2	SNR	BER	BlckErr	Temp	State	Recorded	gain1	gain2
2026-01-18 02:35:46.07	28.97	0.09	-85.2	-88.6	3.2	1.56e+00	0	45	0	0	60	1048574
2026-01-18 02:35:49.09	28.84	0.27	-84.3	-88.8	2.6	3.10e+01	0	46	104	0	60	1048573
2026-01-18 02:35:52.11	28.71	0.45	-84.3	-88.8	2.5	3.10e+01	0	46	104	0	60	1048573
2026-01-18 02:35:55.13	28.58	0.63	-84.3	-88.8	2.6	3.10e+01	0	46	104	0	60	1048573
2026-01-18 02:35:58.15	28.45	0.81	-84.3	-88.8	2.3	3.10e+01	0	46	104	0	60	1048573
2026-01-18 02:36:01.17	28.31	0.99	-83.9	-88.8	2.7	3.10e+01	0	46	104	0	60	1048573
2026-01-18 02:36:04.19	28.18	1.18	-84.3	-88.8	2.3	3.10e+01	0	46	104	0	60	1048573
2026-01-18 02:36:07.21	28.04	1.36	-84.3	-88.8	2.2	3.10e+01	0	46	104	0	60	1048573
2026-01-18 02:36:10.22	27.90	1.55	-83.9	-88.8	2.4	3.10e+01	0	46	104	0	60	1048573
2026-01-18 02:36:13.24	27.75	1.73	-84.3	-88.8	2.6	3.10e+01	0	46	104	0	60	1048573
2026-01-18 02:36:16.26	27.61	1.92	-83.9	-88.8	2.1	3.10e+01	0	46	104	0	60	1048573
2026-01-18 02:36:19.28	27.46	2.11	-83.9	-88.8	2.7	3.10e+01	0	47	104	0	60	1048573
2026-01-18 02:36:22.29	27.31	2.30	-84.3	-88.8	2.3	3.10e+01	0	46	104	0	60	1048573
2026-01-18 02:36:25.31	27.16	2.49	-83.9	-88.8	2.4	3.10e+01	0	47	104	0	60	1048573
2026-01-18 02:36:28.33	27.01	2.69	-84.3	-88.8	2.7	3.10e+01	0	47	104	0	60	1048573
2026-01-18 02:36:31.34	26.85	2.88	-84.3	-88.8	2.3	3.10e+01	0	47	104	0	60	1048573
2026-01-18 02:36:34.36	26.69	3.07	-83.9	-88.8	2.6	3.10e+01	0	47	104	0	60	1048573
2026-01-18 02:36:37.39	26.53	3.27	-84.3	-88.8	2.4	3.10e+01	0	46	104	0	60	1048575
2026-01-18 02:36:40.41	26.37	3.47	-84.3	-88.8	2.7	3.10e+01	0	47	104	0	60	1048575
2026-01-18 02:36:43.42	26.20	3.67	-83.9	-88.8	2.2	3.10e+01	0	47	104	0	60	1048575
2026-01-18 02:36:46.44	26.03	3.87	-84.3	-88.8	2.4	3.10e+01	0	47	104	0	60	1048573
2026-01-18 02:36:49.45	25.86	4.07	-83.9	-88.8	2.3	3.10e+01	0	47	104	0	60	1048573
2026-01-18 02:36:52.47	25.69	4.28	-84.3	-88.8	2.5	3.10e+01	0	47	104	0	60	1048573
2026-01-18 02:36:55.50	25.51	4.48	-84.3	-88.8	2.5	3.10e+01	0	47	104	0	60	1048573
2026-01-18 02:36:58.51	25.33	4.69	-83.9	-88.8	2.6	3.10e+01	0	47	104	0	60	1048573
2026-01-18 02:37:01.53	25.14	4.90	-83.9	-88.8	2.5	3.10e+01	0	47	104	0	60	1048573
2026-01-18 02:37:04.56	24.96	5.11	-84.3	-88.8	2.7	3.10e+01	0	47	104	0	60	1048573
2026-01-18 02:37:07.57	24.77	5.32	-83.9	-88.8	2.3	3.10e+01	0	47	104	0	60	1048573
2026-01-18 02:37:10.59	24.57	5.53	-84.3	-88.8	2.5	3.10e+01	0	47	104	0	60	1048573
2026-01-18 02:37:13.61	24.38	5.75	-84.3	-88.8	2.5	3.10e+01	0	47	104	0	60	1048573
2026-01-18 02:37:16.63	24.18	5.96	-83.9	-88.8	2.3	3.10e+01	0	47	104	0	60	1048573
2026-01-18 02:37:19.64	23.97	6.18	-84.3	-88.8	2.5	3.10e+01	0	47	104	0	60	1048574
2026-01-18 02:37:22.66	23.77	6.40	-83.9	-88.8	2.6	3.10e+01	0	47	104	0	60	1048574
2026-01-18 02:37:25.68	23.56	6.62	-84.3	-88.8	2.4	3.10e+01	0	47	104	0	60	1048574
2026-01-18 02:37:28.69	23.34	6.85	-84.3	-88.8	2.6	3.10e+01	0	47	104	0	60	1048574
2026-01-18 02:37:31.72	23.12	7.07	-83.9	-88.8	2.7	3.10e+01	0	47	104	0	60	1048574
2026-01-18 02:37:34.73	22.90	7.30	-84.3	-88.8	2.6	3.10e+01	0	47	104	0	60	1048574
2026-01-18 02:37:37.75	22.68	7.53	-84.3	-88.8	2.6	3.10e+01	0	47	104	0	60	1048574
2026-01-18 02:37:40.77	22.45	7.76	-83.9	-88.8	2.4	3.10e+01	0	47	104	0	60	1048574
2026-01-18 02:37:43.80	22.21	7.99	-84.3	-88.8	2.4	3.10e+01	0	47	104	0	60	1048574
2026-01-18 02:37:46.82	21.97	8.23	-84.3	-88.8	2.4	3.10e+01	0	47	104	0	60	1048574
2026-01-18 02:37:49.84	21.73	8.46	-83.9	-88.8	2.6	3.10e+01	0	47	104	0	60	1048574
2026-01-18 02:37:52.86	21.48	8.70	-83.9	-88.8	2.4	3.10e+01	0	47	104	0	60	1048574
2026-01-18 02:37:55.87	21.23	8.94	-84.3	-88.8	2.7	3.10e+01	0	47	104	0	60	1048574
2026-01-18 02:37:58.88	20.97	9.18	-84.3	-88.8	2.3	3.10e+01	0	47	104	0	60	1048574
2026-01-18 02:38:01.90	20.71	9.43	-84.3	-88.8	2.5	3.10e+01	0	47	104	0	60	1048574
2026-01-18 02:38:04.92	20.44	9.68	-83.9	-88.8	2.4	3.10e+01	0	47	104	0	60	1048574
2026-01-18 02:38:07.95	20.17	9.93	-84.3	-88.8	2.4	3.10e+01	0	47	104	0	60	1048574
2026-01-18 02:38:10.96	19.89	10.18	-84.3	-88.8	2.2	3.10e+01	0	47	104	0	60	1048574
2026-01-18 02:38:13.99	19.61	10.43	-83.9	-88.8	2.5	3.10e+01	0	47	104	0	60	1048574
2026-01-18 02:38:17.00	19.32	10.69	-84.3	-88.8	2.5	3.10e+01	0	47	104	0	60	1048574
2026-01-18 02:38:20.03	19.03	10.94	-84.3	-88.8	2.2	3.10e+01	0	47	104	0	60	1048574
2026-01-18 02:38:23.04	18.73	11.20	-83.9	-88.8	2.3	3.10e+01	0	47	104	0	60	1048574
2026-01-18 02:38:26.06	18.42	11.47	-84.3	-88.8	2.5	3.10e+01	0	47	104	0	60	1048574
2026-01-18 02:38:29.08	18.11	11.73	-83.9	-88.8	2.5	3.10e+01	0	47	104	0	60	1048574
2026-01-18 02:38:32.10	17.79	12.00	-84.3	-88.8	2.2	3.10e+01	0	47	104	0	60	1048574
2026-01-18 02:38:35.12	17.47	12.27	-84.3	-88.8	2.6	3.10e+01	0	47	104	0	60	1048574
2026-01-18 02:38:38.15	17.13	12.54	-83.9	-88.8	2.2	3.10e+01	0	47	104	0	60	1048574
2026-01-18 02:38:41.16	16.80	12.82	-84.3	-88.8	2.4	3.10e+01	0	47	104	0	60	1048574
2026-01-18 02:38:44.17	16.45	13.09	-84.3	-88.8	2.4	3.10e+01	0	47	104	0	60	1048574
2026-01-18 02:38:47.19	16.10	13.37	-83.9	-88.8	2.6	3.10e+01	0	47	104	0	60	1048574
2026-01-18 02:38:50.21	15.74	13.66	-84.3	-88.8	2.2	3.10e+01	0	47	104	0	60	1048574
2026-01-18 02:38:53.24	15.37	13.94	-84.3	-88.8	2.4	3.10e+01	0	47	104	0	60	1048574
2026-01-18 02:38:56.25	14.99	14.23	-84.3	-88.8	2.2	3.10e+01	0	47	104	0	60	1048574
2026-01-18 02:38:59.27	14.61	14.52	-84.3	-88.8	2.6	3.10e+01	0	47	104	0	60	1048574
2026-01-18 02:39:02.27	14.22	14.81	-83.9	-88.8	2.8	3.10e+01	0	47	104	0	60	1048574
2026-01-18 02:39:05.28	13.82	15.10	-84.3	-88.8	2.5	3.10e+01	0	47	104	0	60	1048574
2026-01-18 02:39:08.29	13.41	15.40	-84.3	-88.8	2.4	3.10e+01	0	47	104	0	60	1048574
2026-01-18 02:39:11.31	12.99	15.70	-83.9	-88.8	2.3	3.10e+01	0	47	104	0	60	1048574
2026-01-18 02:39:14.33	12.56	16.00	-84.3	-88.8	2.5	3.10e+01	0	47	104	0	60	1048574
2026-01-18 02:39:17.35	12.12	16.31	-84.3	-88.8	2.0	3.10e+01	0	47	104	0	60	1048574
2026-01-18 02:39:20.37	11.67	16.62	-83.9	-88.8	2.5	3.10e+01	0	47	104	0	60	1048574
2026-01-18 02:39:23.39	11.22	16.93	-83.9	-88.8	2.5	3.10e+01	0	47	104	0	60	1048574
2026-01-18 02:39:26.41	10.75	17.24	-83.9	-88.8	2.5	3.10e+01	0	47	104	0	60	1048574
2026-01-18 02:39:29.43	10.27	17.56	-84.3	-88.8	2.7	3.10e+01	0	47	104	0	60	1048574
2026-01-18 02:39:32.45	9.78	17.87	-84.3	-88.8	2.4	3.10e+01	0	47	104	0	60	1048574
2026-01-18 02:39:35.48	9.28	18.20	-83.9	-88.8	2.8	3.10e+01	0	47	104	0	60	1048574
2026-01-18 02:39:38.50	8.76	18.52	-84.3	-88.8	2.5	3.10e+01	0	47	104	0	60	1048574
2026-01-18 02:39:41.53	8.24	18.84	-84.3	-88.8	2.4	3.10e+01	0	47	104	0	60	1048574
2026-01-18 02:39:44.55	7.70	19.17	-83.9	-88.8	2.4	3.10e+01	0	47	104	0	60	1048574
2026-01-18 02:39:47.56	7.15	19.50	-84.3	-88.8	2.4	3.10e+01	0	47	104	0	60	1048574
2026-01-18 02:39:50.58	6.59	19.83	-84.3	-88.8	2.3	3.10e+01	0	47	104	0	60	1048574
2026-01-18 02:39:53.60	6.01	20.17	-83.9	-88.8	2.3	3.10e+01	0	47	104	0	60	1048574
2026-01-18 02:39:56.62	5.42	20.50	-84.3	-88.8	2.8	3.10e+01	0	47	104	0	60	1048574
2026-01-18 02:39:59.64	4.82	20.84	-83.9	-88.8	2.4	3.10e+01	0	47	104	0	60	1048574
2026-01-18 02:40:02.65	4.20	21.18	-84.3	-88.8	2.4	3.10e+01	0	47	104	0	60	1048574
2026-01-18 02:40:05.67	3.57	21.52	-84.3	-88.8	2.6	3.10e+01	0	47	104	0	60	1048574
2026-01-18 02:40:08.68	2.92	21.86	-83.9	-88.8	2.4	3.10e+01	0	47	104	0	60	1048574
2026-01-18 02:40:11.70	2.26	22.20	-84.3	-88.8	2.5	3.10e+01	0	47	104	0	60	1048574
2026-01-18 02:40:14.72	1.58	22.55	-84.3	-88.8	2.4	3.10e+01	0	47	104	0	60	1048574
2026-01-18 02:40:17.75	0.88	22.89	-83.9	-88.8	2.5	3.10e+01	0	47	104	0	60	1048574
2026-01-18 02:40:20.76	0.17	23.24	-84.3	-88.8	2.5	3.10e+01	0	47	104	0	60	1048574
2026-01-18 02:40:23.77	359.45	23.58	-84.3	-88.8	2.6	3.10e+01	0	47	104	0	60	1048574
2026-01-18 02:40:26.78	358.71	23.92	-83.9	-88.8	2.5	3.10e+01	0	47	104	0	60	1048574
2026-01-18 02:40:29.80	357.94	24.27	-84.3	-88.8	2.5	3.10e+01	0	47	104	0	60	1048574
2026-01-18 02:40:32.83	357.16	24.62	-83.9	-88.8	2.5	3.10e+01	0	47	104	0	60	1048574
2026-01-18 02:40:35.84	356.36	24.96	-84.3	-88.8	2.4	3.10e+01	0	47	104	0	60	1048574
2026-01-18 02:40:38.86	355.54	25.30	-84.3	-88.8	2.5	3.10e+01	0	47	104	0	60	1048574
2026-01-18 02:40:41.88	354.71	25.64	-83.9	-88.8	2.5	3.10e+01	0	47	104	0	60	1048574
2026-01-18 02:40:44.90	353.85	25.98	-84.3	-88.8	2.3	3.10e+01	0	47	104	0	60	1048574
2026-01-18 02:40:47.93	352.97	26.32	-84.3	-88.8	2.6	3.10e+01	0	47	104	0	60	1048574
2026-01-18 02:40:50.95	352.08	26.65	-83.9	-88.8	2.5	3.10e+01	0	47	104	0	60	1048574
2026-01-18 02:40:53.97	351.16	26.98	-84.3	-88.8	2.0	3.10e+01	0	47	104	0	60	1048574
2026-01-18 02:40:56.99	350.23	27.31	-84.3	-88.8	2.6	3.10e+01	0	47	104	0	60	1048574
2026-01-18 02:41:00.00	349.28	27.63	-84.3	-88.8	2.1	3.10e+01	0	47	104	0	60	1048574
2026-01-18 02:41:03.03	348.30	27.95	-84.3	-88.8	2.6	3.10e+01	0	47	104	0	60	1048574
2026-01-18 02:41:06.05	347.30	28.27	-83.9	-88.8	2.3	3.10e+01	0	47	104	0	60	1048574
2026-01-18 02:41:09.06	346.29	28.57	-84.3	-88.8	2.5	3.10e+01	0	47	104	0	60	1048573
2026-01-18 02:41:12.08	345.25	28.87	-84.3	-88.8	2.0	3.10e+01	0	47	104	0	60	1048573
2026-01-18 02:41:15.11	344.19	29.17	-83.9	-88.8	2.3	3.10e+01	0	47	104	0	60	1048572
2026-01-18 02:41:18.13	343.12	29.45	-84.3	-88.8	2.2	3.10e+01	0	47	104	0	60	1048572
2026-01-18 02:41:21.16	342.02	29.73	-84.3	-88.8	2.6	3.10e+01	0	47	104	0	60	1048572
2026-01-18 02:41:24.18	340.90	30.00	-84.3	-88.8	2.4	3.10e+01	0	47	104	0	60	1048572
2026-01-18 02:41:27.20	339.77	30.26	-84.3	-88.8	2.5	3.10e+01	0	47	104	0	60	1048572
2026-01-18 02:41:30.22	338.61	30.51	-84.3	-88.8	2.4	3.10e+01	0	47	104	0	60	1048572
2026-01-18 02:41:33.23	337.44	30.75	-84.3	-88.8	2.3	3.10e+01	0	47	104	0	60	1048572
2026-01-18 02:41:36.26	336.25	30.98	-84.3	-88.8	2.5	3.10e+01	0	47	104	0	60	1048572
2026-01-18 02:41:39.29	335.04	31.19	-83.9	-88.8	2.6	3.10e+01	0	47	104	0	60	1048572
2026-01-18 02:41:42.30	333.82	31.39	-84.3	-88.8	2.4	3.10e+01	0	47	104	0	60	1048572
2026-01-18 02:41:45.31	332.58	31.58	-84.3	-88.8	2.3	3.10e+01	0	47	104	0	60	1048572
2026-01-18 02:41:48.33	331.33	31.76	-83.5	-88.8	2.7	3.10e+01	0	47	104	0	60	1048572
2026-01-18 02:41:51.35	330.06	31.92	-84.3	-88.8	2.3	3.10e+01	0	47	104	0	60	1048572
2026-01-18 02:41:54.36	328.79	32.07	-84.3	-88.8	2.6	3.10e+01	0	47	104	0	60	1048572
2026-01-18 02:41:57.39	327.49	32.20	-83.9	-88.8	2.7	3.10e+01	0	47	104	0	60	1048572
2026-01-18 02:42:00.40	326.20	32.31	-84.3	-88.8	2.6	3.10e+01	0	47	104	0	60	1048572
2026-01-18 02:42:03.42	324.88	32.42	-84.3	-88.8	2.6	3.10e+01	0	47	104	0	60	1048572
2026-01-18 02:42:06.44	323.57	32.50	-84.3	-88.8	2.5	3.10e+01	0	47	104	0	60	1048572
2026-01-18 02:42:09.45	322.25	32.57	-84.3	-88.8	2.2	3.10e+01	0	47	104	0	60	1048572
2026-01-18 02:42:12.48	320.91	32.62	-83.9	-88.8	2.3	3.10e+01	0	47	104	0	60	1048572
2026-01-18 02:42:15.50	319.58	32.65	-84.3	-88.8	2.3	3.10e+01	0	47	104	0	60	1048572
2026-01-18 02:42:18.51	318.25	32.67	-84.3	-88.8	2.7	3.10e+01	0	47	104	0	60	1048572
2026-01-18 02:42:21.54	316.91	32.66	-83.9	-88.8	2.3	3.10e+01	0	47	104	0	60	1048572
2026-01-18 02:42:24.56	315.57	32.65	-84.3	-88.8	2.4	3.10e+01	0	47	104	0	60	1048572
2026-01-18 02:42:27.58	314.24	32.61	-84.3	-88.8	2.3	3.10e+01	0	47	104	0	60	1048572
2026-01-18 02:42:30.61	312.90	32.56	-83.9	-88.8	2.8	3.10e+01	0	47	104	0	60	1048572
2026-01-18 02:42:33.62	311.58	32.49	-84.3	-88.8	2.1	3.10e+01	0	47	104	0	60	1048572
2026-01-18 02:42:36.64	310.26	32.40	-84.3	-88.8	2.6	3.10e+01	0	47	104	0	60	1048572
2026-01-18 02:42:39.66	308.95	32.30	-84.3	-88.8	2.3	3.10e+01	0	47	104	0	60	1048572
2026-01-18 02:42:42.68	307.65	32.18	-84.3	-88.8	2.4	3.10e+01	0	47	104	0	60	1048572
2026-01-18 02:42:45.70	306.36	32.05	-83.9	-88.8	2.3	3.10e+01	0	47	104	0	60	1048572
2026-01-18 02:42:48.72	305.08	31.90	-84.3	-88.8	2.5	3.10e+01	0	47	104	0	60	1048572
2026-01-18 02:42:51.74	303.82	31.73	-84.3	-88.8	2.7	3.10e+01	0	47	104	0	60	1048572
2026-01-18 02:42:54.77	302.56	31.55	-83.5	-88.8	2.5	3.10e+01	0	47	104	0	60	1048572
2026-01-18 02:42:57.77	301.33	31.36	-84.3	-88.8	2.3	3.10e+01	0	47	104	0	60	1048572
2026-01-18 02:43:00.79	300.11	31.16	-83.9	-88.8	2.6	3.10e+01	0	47	104	0	60	1048572
2026-01-18 02:43:03.80	298.90	30.94	-84.3	-88.8	2.7	3.10e+01	0	47	104	0	60	1048572
2026-01-18 02:43:06.81	297.72	30.71	-84.3	-88.8	2.7	3.10e+01	0	47	104	0	60	1048572
2026-01-18 02:43:09.83	296.55	30.47	-83.9	-88.8	2.2	3.10e+01	0	47	104	0	60	1048572
2026-01-18 02:43:12.85	295.39	30.22	-84.3	-88.8	2.6	3.10e+01	0	47	104	0	60	1048572
2026-01-18 02:43:15.87	294.26	29.96	-84.3	-88.8	2.5	3.10e+01	0	47	104	0	60	1048574
2026-01-18 02:43:18.88	293.15	29.69	-83.9	-88.8	2.4	3.10e+01	0	47	104	0	60	1048574
2026-01-18 02:43:21.91	292.05	29.41	-84.3	-88.8	2.5	3.10e+01	0	47	104	0	60	1048574
2026-01-18 02:43:24.92	290.98	29.12	-84.3	-88.8	2.7	3.10e+01	0	47	104	0	60	1048574
2026-01-18 02:43:27.93	289.92	28.83	-83.5	-88.8	2.3	3.10e+01	0	47	104	0	60	1048574
2026-01-18 02:43:30.94	288.89	28.53	-84.3	-88.8	2.4	3.10e+01	0	47	104	0	60	1048574
2026-01-18 02:43:33.96	287.88	28.22	-83.9	-88.8	2.2	3.10e+01	0	47	104	0	60	1048574
2026-01-18 02:43:36.98	286.88	27.90	-84.3	-88.8	2.4	3.10e+01	0	47	104	0	60	1048574
2026-01-18 02:43:40.00	285.91	27.59	-84.3	-88.8	2.5	3.10e+01	0	47	104	0	60	1048574
2026-01-18 02:43:43.03	284.95	27.26	-84.3	-88.8	2.5	3.10e+01	0	47	104	0	60	1048574
2026-01-18 02:43:46.05	284.01	26.93	-84.3	-88.8	2.2	3.10e+01	0	47	104	0	60	1048574
2026-01-18 02:43:49.06	283.10	26.60	-84.3	-88.8	2.7	3.10e+01	0	47	104	0	60	1048574
2026-01-18 02:43:52.09	282.21	26.26	-83.5	-88.8	2.6	3.10e+01	0	47	104	0	60	1048574
2026-01-18 02:43:55.11	281.33	25.93	-84.3	-88.8	2.3	3.10e+01	0	47	104	0	60	1048574
2026-01-18 02:43:58.13	280.47	25.59	-83.9	-88.8	2.6	3.10e+01	0	47	104	0	60	1048574
2026-01-18 02:44:01.13	279.64	25.25	-83.9	-88.8	2.5	3.10e+01	0	47	104	0	60	1048574
2026-01-18 02:44:04.15	278.83	24.90	-84.3	-88.8	2.5	3.10e+01	0	47	104	0	60	1048574
2026-01-18 02:44:07.17	278.03	24.56	-84.3	-88.8	2.5	3.10e+01	0	47	104	0	60	1048574
2026-01-18 02:44:10.20	277.24	24.21	-83.9	-88.8	2.3	3.10e+01	0	47	104	0	60	1048574
2026-01-18 02:44:13.21	276.48	23.86	-84.3	-88.8	2.3	3.10e+01	0	47	104	0	60	1048574
2026-01-18 02:44:16.23	275.74	23.52	-84.3	-88.8	2.5	3.10e+01	0	47	104	0	60	1048574
2026-01-18 02:44:19.25	275.01	23.17	-84.3	-88.8	2.5	3.10e+01	0	47	104	0	60	1048571
2026-01-18 02:44:22.27	274.30	22.82	-84.3	-88.8	2.6	3.10e+01	0	47	104	0	60	1048571
2026-01-18 02:44:25.29	273.60	22.48	-83.9	-88.8	2.4	3.10e+01	0	47	104	0	60	1048571
2026-01-18 02:44:28.31	272.92	22.13	-84.3	-88.8	2.7	3.10e+01	0	47	104	0	60	1048572
2026-01-18 02:44:31.32	272.26	21.79	-84.3	-88.8	2.5	3.10e+01	0	47	104	0	60	1048572
2026-01-18 02:44:34.34	271.62	21.45	-83.9	-88.8	2.5	3.10e+01	0	47	104	0	60	1048572
2026-01-18 02:44:37.36	270.98	21.11	-84.3	-88.8	2.5	3.10e+01	0	47	104	0	60	1048572
2026-01-18 02:44:40.38	270.36	20.77	-84.3	-88.8	2.4	3.10e+01	0	47	104	0	60	1048572
2026-01-18 02:44:43.41	269.76	20.43	-83.9	-88.8	2.6	3.10e+01	0	47	104	0	60	1048572
2026-01-18 02:44:46.43	269.17	20.09	-83.9	-88.8	2.6	3.10e+01	0	47	104	0	60	1048572
2026-01-18 02:44:49.45	268.59	19.76	-83.9	-88.8	2.6	3.10e+01	0	47	104	0	60	1048572
2026-01-18 02:44:52.47	268.03	19.42	-84.3	-88.8	2.4	3.10e+01	0	47	104	0	60	1048572
2026-01-18 02:44:55.49	267.48	19.09	-84.3	-88.8	2.5	3.10e+01	0	47	104	0	60	1048572
2026-01-18 02:44:58.52	266.94	18.77	-83.9	-88.8	2.5	3.10e+01	0	47	104	0	60	1048572
2026-01-18 02:45:01.54	266.42	18.44	-84.3	-88.8	2.3	3.10e+01	0	47	104	0	60	1048572
2026-01-18 02:45:04.56	265.90	18.12	-84.3	-88.8	2.3	3.10e+01	0	47	104	0	60	1048572
2026-01-18 02:45:07.58	265.40	17.79	-83.9	-88.8	2.6	3.10e+01	0	47	104	0	60	1048572
2026-01-18 02:45:10.61	264.91	17.47	-84.3	-88.8	2.7	3.10e+01	0	47	104	0	60	1048572
2026-01-18 02:45:13.63	264.43	17.16	-84.3	-88.8	2.5	3.10e+01	0	47	104	0	60	1048572
2026-01-18 02:45:16.64	263.96	16.85	-84.3	-88.8	2.4	3.10e+01	0	47	104	0	60	1048572
2026-01-18 02:45:19.66	263.50	16.53	-84.3	-88.8	2.5	3.10e+01	0	47	104	0	60	1048572
2026-01-18 02:45:22.69	263.05	16.23	-83.9	-88.8	2.0	3.10e+01	0	47	104	0	60	1048572
2026-01-18 02:45:25.70	262.62	15.92	-84.3	-88.8	2.4	3.10e+01	0	47	104	0	60	1048572
2026-01-18 02:45:28.72	262.19	15.62	-84.3	-88.8	2.5	3.10e+01	0	47	104	0	60	1048575
2026-01-18 02:45:31.75	261.77	15.32	-83.9	-88.8	2.3	3.10e+01	0	47	104	0	60	1048575
2026-01-18 02:45:34.77	261.36	15.02	-84.3	-88.8	2.0	3.10e+01	0	47	104	0	60	1048575
2026-01-18 02:45:37.79	260.95	14.72	-84.3	-88.8	2.3	3.10e+01	0	47	104	0	60	1048575
2026-01-18 02:45:40.81	260.56	14.43	-83.9	-88.8	2.6	3.10e+01	0	47	104	0	60	1048575
2026-01-18 02:45:43.82	260.18	14.14	-84.3	-88.8	2.6	3.10e+01	0	47	104	0	60	1048575
2026-01-18 02:45:46.84	259.80	13.85	-84.3	-88.8	2.5	3.10e+01	0	47	104	0	60	1048575
2026-01-18 02:45:49.85	259.43	13.57	-84.3	-88.8	2.4	3.10e+01	0	47	104	0	60	1048575
2026-01-18 02:45:52.88	259.07	13.28	-84.3	-88.8	2.4	3.10e+01	0	47	104	0	60	1048575
2026-01-18 02:45:55.90	258.72	13.00	-83.9	-88.8	2.3	3.10e+01	0	47	104	0	60	1048575
2026-01-18 02:45:58.91	258.37	12.73	-84.3	-88.8	2.7	3.10e+01	0	47	104	0	60	1048575
2026-01-18 02:46:01.93	258.03	12.45	-84.3	-88.8	2.5	3.10e+01	0	47	104	0	60	1048575
2026-01-18 02:46:04.96	257.70	12.18	-83.9	-88.8	2.6	3.10e+01	0	47	104	0	60	1048575
2026-01-18 02:46:07.97	257.37	11.91	-84.3	-88.8	2.0	3.10e+01	0	47	104	0	60	1048575
2026-01-18 02:46:10.99	257.05	11.64	-84.3	-88.8	2.5	3.10e+01	0	47	104	0	60	1048575
2026-01-18 02:46:14.01	256.74	11.37	-83.9	-88.8	2.3	3.10e+01	0	47	104	0	60	1048575
2026-01-18 02:46:17.02	256.43	11.11	-84.3	-88.8	2.6	3.10e+01	0	47	104	0	60	1048575
2026-01-18 02:46:20.05	256.13	10.85	-83.9	-88.8	2.6	3.10e+01	0	47	104	0	60	1048575
2026-01-18 02:46:23.08	255.84	10.59	-84.3	-88.8	2.3	3.10e+01	0	47	104	0	60	1048575
2026-01-18 02:46:26.10	255.55	10.34	-84.3	-88.8	2.5	3.10e+01	0	47	104	0	60	1048575
2026-01-18 02:46:29.12	255.26	10.08	-83.9	-88.8	2.3	3.10e+01	0	47	104	0	60	1048575
2026-01-18 02:46:32.13	254.99	9.83	-84.3	-88.8	2.3	3.10e+01	0	47	104	0	60	1048575
2026-01-18 02:46:35.15	254.71	9.58	-84.3	-88.8	2.5	3.10e+01	0	47	104	0	60	1048575
2026-01-18 02:46:38.18	254.44	9.33	-83.9	-88.8	2.5	3.10e+01	0	47	104	0	60	1048575
2026-01-18 02:46:41.19	254.18	9.09	-84.3	-88.8	2.2	3.10e+01	0	47	104	0	60	1048575
2026-01-18 02:46:44.22	253.92	8.85	-83.9	-88.8	2.6	3.10e+01	0	47	104	0	60	1048575
2026-01-18 02:46:47.23	253.67	8.61	-83.9	-88.8	2.6	3.10e+01	0	47	104	0	60	1048575
2026-01-18 02:46:50.24	253.42	8.37	-83.9	-88.8	2.4	3.10e+01	0	47	104	0	60	1048575
2026-01-18 02:46:53.26	253.18	8.13	-84.3	-88.8	2.6	3.10e+01	0	47	104	0	60	1048575
2026-01-18 02:46:56.27	252.94	7.90	-84.3	-88.8	2.6	3.10e+01	0	47	104	0	60	1048575
2026-01-18 02:46:59.28	252.71	7.66	-84.3	-88.8	2.7	3.10e+01	0	47	104	0	60	1048575
2026-01-18 02:47:02.29	252.47	7.43	-83.9	-88.8	2.7	3.10e+01	0	47	104	0	60	1048575
2026-01-18 02:47:05.31	252.25	7.21	-84.3	-88.8	2.2	3.10e+01	0	47	104	0	60	1048575
2026-01-18 02:47:08.33	252.02	6.98	-84.3	-88.8	2.5	3.10e+01	0	47	104	0	60	1048575
2026-01-18 02:47:11.34	251.81	6.75	-83.9	-88.8	2.3	3.10e+01	0	47	104	0	60	1048575
2026-01-18 02:47:14.36	251.59	6.53	-84.3	-88.8	2.4	3.10e+01	0	47	104	0	60	1048575
2026-01-18 02:47:17.37	251.38	6.31	-84.3	-88.8	2.5	3.10e+01	0	47	104	0	60	1048575
2026-01-18 02:47:20.38	251.17	6.09	-83.9	-88.8	2.6	3.10e+01	0	47	104	0	60	1048575
2026-01-18 02:47:23.40	250.97	5.87	-84.3	-88.8	2.5	3.10e+01	0	47	104	0	60	1048575
2026-01-18 02:47:26.43	250.77	5.65	-83.9	-88.8	2.5	3.10e+01	0	47	104	0	60	1048575
2026-01-18 02:47:29.45	250.57	5.44	-84.3	-88.8	2.5	3.10e+01	0	47	104	0	60	1048575
2026-01-18 02:47:32.47	250.37	5.23	-84.3	-88.8	2.5	3.10e+01	0	47	104	0	60	1048575
2026-01-18 02:47:35.49	250.18	5.01	-83.9	-88.8	2.5	3.10e+01	0	47	104	0	60	1048575
2026-01-18 02:47:38.51	249.99	4.80	-84.3	-88.8	2.2	3.10e+01	0	47	104	0	60	1048575
2026-01-18 02:47:41.53	249.81	4.59	-84.3	-88.8	2.4	3.10e+01	0	47	104	0	60	1048575
2026-01-18 02:47:44.55	249.63	4.39	-83.5	-88.8	2.6	3.10e+01	0	47	104	0	60	1048575
2026-01-18 02:47:47.57	249.45	4.18	-84.3	-88.8	2.2	3.10e+01	0	47	104	0	60	1048575
2026-01-18 02:47:50.59	249.27	3.98	-84.3	-88.8	2.5	3.10e+01	0	47	104	0	60	1048575
2026-01-18 02:47:53.61	249.10	3.78	-83.9	-88.8	2.3	3.10e+01	0	47	104	0	60	1048575
2026-01-18 02:47:56.63	248.93	3.57	-84.3	-88.8	2.3	3.10e+01	0	47	104	0	60	1048575
2026-01-18 02:47:59.65	248.76	3.37	-83.9	-88.8	2.1	3.10e+01	0	47	104	0	60	1048575
2026-01-18 02:48:02.67	248.59	3.18	-83.9	-88.8	2.5	3.10e+01	0	47	104	0	60	1048575
2026-01-18 02:48:05.69	248.43	2.98	-84.3	-88.8	2.4	3.10e+01	0	47	104	0	60	1048575
2026-01-18 02:48:08.71	248.27	2.78	-83.9	-88.8	2.5	3.10e+01	0	47	104	0	60	1048575
2026-01-18 02:48:11.72	248.11	2.59	-84.3	-88.8	2.1	3.10e+01	0	47	104	0	60	1048575
2026-01-18 02:48:14.75	247.96	2.39	-84.3	-88.8	2.5	3.10e+01	0	47	104	0	60	1048575
2026-01-18 02:48:17.77	247.80	2.20	-83.9	-88.8	2.5	3.10e+01	0	47	104	0	60	1048575
2026-01-18 02:48:20.80	247.65	2.01	-84.3	-88.8	2.2	3.10e+01	0	47	104	0	60	1048575
2026-01-18 02:48:23.82	247.50	1.82	-84.3	-88.8	2.3	3.10e+01	0	47	104	0	60	1048575
2026-01-18 02:48:26.84	247.36	1.63	-84.3	-88.8	2.5	3.10e+01	0	47	104	0	60	1048575
2026-01-18 02:48:29.85	247.21	1.45	-84.3	-88.8	2.5	3.10e+01	0	47	104	0	60	1048575
2026-01-18 02:48:32.87	247.07	1.26	-83.9	-88.8	2.4	3.10e+01	0	47	104	0	60	1048575
2026-01-18 02:48:35.90	246.93	1.08	-84.3	-88.8	2.6	3.10e+01	0	47	104	0	60	1048575
2026-01-18 02:48:38.92	246.79	0.89	-84.3	-88.8	2.6	3.10e+01	0	47	104	0	60	1048575
2026-01-18 02:48:41.94	246.65	0.71	-83.9	-88.8	2.8	3.10e+01	0	47	104	0	60	1048575
2026-01-18 02:48:44.95	246.52	0.53	-84.3	-88.8	2.3	3.10e+01	0	47	104	0	60	1048575
2026-01-18 02:48:47.97	246.39	0.35	-84.3	-88.8	2.5	3.10e+01	0	47	104	0	60	1048575
2026-01-18 02:48:50.99	246.26	0.17	-83.9	-88.8	2.5	3.10e+01	0	47	104	0	60	1048575
2026-01-18 02:48:54.01	246.13	-0.01	-84.3	-88.8	2.6	3.10e+01	0	47	104	0	60	1048575

#Closed at: 2026-01-18 02:48:54
#Recorded file [0 MB]: D:/Data/35015_260118_053546.dat