passes_logs/2026/01/18/R3.2S-Naryan-Mar/R3.2S-Naryan-Mar__20260118_081307_TY-42_rec.log

#Pass ID: 20260118_081307_TY-42
#Satellite: TY-42
#Configuration: TY-42
#almurnet v.1.7.20240730
#Start time: 2026-01-18 08:16:20

#Version: 2.2.20231116
#Station: R3.2S-Naryan-Mar
#Location: 53.008057 lon 67.646978 lat
#TLE: 1 64048U 25103A   26017.93564815  .00008007  00000-0  38191-3 0 09990
#TLE: 2 64048 097.4124 093.2979 0001864 092.4902 292.6580 15.19155384 37267

#Time	Az	El	Level	Level2	SNR	BER	BlckErr	Temp	State	Recorded	gain1	gain2
2026-01-18 08:16:20.66	16.74	18.70	-85.2	-88.8	3.0	1.56e+00	0	47	0	0	60	1048575
2026-01-18 08:16:22.66	16.66	19.03	-83.5	-79.0	2.5	0.00e+00	0	48	104	0	60	1048573
2026-01-18 08:16:24.67	16.58	19.37	-83.5	-79.0	2.7	0.00e+00	0	48	104	0	60	1048573
2026-01-18 08:16:26.68	16.49	19.71	-83.1	-79.0	2.4	0.00e+00	0	48	104	0	60	1048574
2026-01-18 08:16:28.69	16.40	20.06	-83.5	-79.0	2.4	0.00e+00	0	48	104	0	60	1048569
2026-01-18 08:16:30.70	16.31	20.41	-83.1	-79.0	2.4	0.00e+00	0	48	104	0	60	1048575
2026-01-18 08:16:32.72	16.22	20.78	-83.5	-79.0	2.4	0.00e+00	0	48	104	0	60	1048574
2026-01-18 08:16:34.72	16.12	21.14	-83.1	-79.0	2.4	0.00e+00	0	48	104	0	60	1048575
2026-01-18 08:16:36.74	16.02	21.52	-83.5	-79.0	2.4	0.00e+00	0	48	104	0	60	1048574
2026-01-18 08:16:38.76	15.92	21.91	-83.5	-79.0	2.4	0.00e+00	0	48	104	0	60	1048568
2026-01-18 08:16:40.77	15.81	22.30	-83.5	-79.0	2.4	0.00e+00	0	48	104	0	60	1048575
2026-01-18 08:16:42.79	15.70	22.69	-83.5	-79.0	2.4	0.00e+00	0	48	104	0	60	1048575
2026-01-18 08:16:44.81	15.59	23.10	-82.8	-79.0	2.4	0.00e+00	0	48	104	0	60	1048573
2026-01-18 08:16:46.82	15.47	23.51	-83.5	-79.0	2.2	0.00e+00	0	48	104	0	60	1048573
2026-01-18 08:16:48.83	15.35	23.93	-83.1	-79.0	2.4	0.00e+00	0	48	104	0	60	1048574
2026-01-18 08:16:50.85	15.23	24.36	-83.5	-79.0	2.4	0.00e+00	0	48	104	0	60	1048565
2026-01-18 08:16:52.86	15.10	24.80	-83.5	-79.0	2.4	0.00e+00	0	48	104	0	60	1048573
2026-01-18 08:16:54.88	14.97	25.25	-83.5	-79.0	2.5	0.00e+00	0	48	104	0	60	1048572
2026-01-18 08:16:56.89	14.83	25.71	-83.5	-79.0	2.4	0.00e+00	0	48	104	0	60	1048575
2026-01-18 08:16:58.90	14.69	26.17	-83.1	-79.0	2.4	0.00e+00	0	48	104	0	60	1048570
2026-01-18 08:17:00.91	14.54	26.65	-83.5	-79.0	2.5	0.00e+00	0	48	104	0	60	1048575
2026-01-18 08:17:02.92	14.39	27.13	-83.5	-79.0	2.4	0.00e+00	0	48	104	0	60	1048574
2026-01-18 08:17:04.94	14.23	27.63	-83.5	-79.0	2.4	0.00e+00	0	48	104	0	60	1048560
2026-01-18 08:17:06.96	14.07	28.14	-83.5	-79.0	2.4	0.00e+00	0	48	104	0	60	1048573
2026-01-18 08:17:08.97	13.90	28.65	-82.8	-79.0	2.4	0.00e+00	0	48	104	0	60	1048573
2026-01-18 08:17:10.98	13.73	29.18	-83.5	-79.0	2.5	0.00e+00	0	48	104	0	60	1048575
2026-01-18 08:17:13.00	13.54	29.72	-83.1	-79.0	2.4	0.00e+00	0	48	104	0	60	1048575
2026-01-18 08:17:15.01	13.35	30.28	-83.1	-79.0	2.4	0.00e+00	0	48	104	0	60	1048574
2026-01-18 08:17:17.03	13.16	30.84	-83.5	-79.0	2.4	0.00e+00	0	48	104	0	60	1048574
2026-01-18 08:17:19.04	12.95	31.42	-83.5	-79.0	2.4	0.00e+00	0	48	104	0	60	1048573
2026-01-18 08:17:21.06	12.74	32.01	-83.5	-79.0	2.4	0.00e+00	0	49	104	0	60	1048570
2026-01-18 08:17:23.07	12.52	32.62	-83.1	-79.0	2.4	0.00e+00	0	49	104	0	60	1048569
2026-01-18 08:17:25.08	12.29	33.24	-83.5	-79.0	2.4	0.00e+00	0	48	104	0	60	1048572
2026-01-18 08:17:27.10	12.04	33.87	-83.1	-79.0	2.3	0.00e+00	0	48	104	0	60	1048573
2026-01-18 08:17:29.12	11.79	34.52	-83.5	-79.0	2.4	0.00e+00	0	48	104	0	60	1048575
2026-01-18 08:17:31.13	11.53	35.19	-83.5	-79.0	2.4	0.00e+00	0	48	104	0	60	1048575
2026-01-18 08:17:33.14	11.25	35.87	-83.5	-79.0	2.4	0.00e+00	0	49	104	0	60	1048574
2026-01-18 08:17:35.15	10.96	36.56	-83.5	-79.0	2.5	0.00e+00	0	49	104	0	60	1048567
2026-01-18 08:17:37.16	10.66	37.28	-82.8	-79.0	2.4	0.00e+00	0	49	104	0	60	1048569
2026-01-18 08:17:39.18	10.34	38.01	-83.5	-79.0	2.4	0.00e+00	0	48	104	0	60	1048575
2026-01-18 08:17:41.19	10.01	38.75	-83.1	-79.0	2.4	0.00e+00	0	49	104	0	60	1048575
2026-01-18 08:17:43.20	9.66	39.52	-83.5	-79.0	2.4	0.00e+00	0	48	104	0	60	1048574
2026-01-18 08:17:45.22	9.29	40.31	-83.1	-79.0	2.4	0.00e+00	0	48	104	0	60	1048573
2026-01-18 08:17:47.24	8.90	41.11	-83.1	-79.0	2.4	0.00e+00	0	48	104	0	60	1048568
2026-01-18 08:17:49.25	8.49	41.93	-83.5	-79.0	2.4	0.00e+00	0	48	104	0	60	1048571
2026-01-18 08:17:51.27	8.05	42.78	-82.8	-79.0	2.3	0.00e+00	0	48	104	0	60	1048574
2026-01-18 08:17:53.28	7.60	43.64	-83.5	-79.0	2.4	0.00e+00	0	48	104	0	60	1048575
2026-01-18 08:17:55.28	7.11	44.51	-83.1	-79.0	2.4	0.00e+00	0	49	104	0	60	1048569
2026-01-18 08:17:57.30	6.60	45.42	-83.5	-79.0	2.4	0.00e+00	0	49	104	0	60	1048575
2026-01-18 08:17:59.31	6.05	46.34	-83.5	-79.0	2.4	0.00e+00	0	49	104	0	60	1048571
2026-01-18 08:18:01.32	5.47	47.28	-83.1	-79.0	2.5	0.00e+00	0	49	104	0	60	1048574
2026-01-18 08:18:03.33	4.85	48.24	-83.5	-79.0	2.4	0.00e+00	0	49	104	0	60	1048574
2026-01-18 08:18:05.34	4.19	49.23	-83.1	-79.0	2.3	0.00e+00	0	49	104	0	60	1048574
2026-01-18 08:18:07.35	3.48	50.23	-83.5	-79.0	2.4	0.00e+00	0	49	104	0	60	1048575
2026-01-18 08:18:09.36	2.73	51.25	-83.5	-79.0	2.3	0.00e+00	0	49	104	0	60	1048568
2026-01-18 08:18:11.38	1.91	52.30	-83.5	-79.0	2.4	0.00e+00	0	49	104	0	60	1048573
2026-01-18 08:18:13.39	1.03	53.36	-83.5	-79.0	2.4	0.00e+00	0	49	104	0	60	1048570
2026-01-18 08:18:15.39	0.09	54.43	-83.1	-79.0	2.4	0.00e+00	0	49	104	0	60	1048574
2026-01-18 08:18:17.41	359.07	55.53	-83.5	-79.0	2.4	0.00e+00	0	49	104	0	60	1048571
2026-01-18 08:18:19.43	357.95	56.65	-83.1	-79.0	2.4	0.00e+00	0	49	104	0	60	1048567
2026-01-18 08:18:21.43	356.76	57.77	-83.5	-79.0	2.4	0.00e+00	0	49	104	0	60	1048574
2026-01-18 08:18:23.44	355.45	58.90	-83.5	-79.0	2.4	0.00e+00	0	49	104	0	60	1048575
2026-01-18 08:18:25.46	354.01	60.05	-83.5	-79.0	2.5	0.00e+00	0	49	104	0	60	1048575
2026-01-18 08:18:27.46	352.45	61.19	-83.5	-79.0	2.4	0.00e+00	0	49	104	0	60	1048573
2026-01-18 08:18:29.47	350.73	62.34	-83.1	-79.0	2.4	0.00e+00	0	49	104	0	60	1048575
2026-01-18 08:18:31.48	348.84	63.49	-83.5	-79.0	2.3	0.00e+00	0	49	104	0	60	1048564
2026-01-18 08:18:33.49	346.75	64.63	-83.5	-79.0	2.4	0.00e+00	0	49	104	0	60	1048573
2026-01-18 08:18:35.51	344.42	65.76	-83.5	-79.0	2.4	0.00e+00	0	49	104	0	60	1048574
2026-01-18 08:18:37.52	341.86	66.86	-83.5	-79.0	2.4	0.00e+00	0	49	104	0	60	1048575
2026-01-18 08:18:39.54	339.00	67.93	-83.1	-79.0	2.4	0.00e+00	0	49	104	0	60	1048572
2026-01-18 08:18:41.54	335.86	68.95	-83.5	-79.0	2.4	0.00e+00	0	49	104	0	60	1048573
2026-01-18 08:18:43.56	332.34	69.93	-82.8	-79.0	2.3	0.00e+00	0	49	104	0	60	1048572
2026-01-18 08:18:45.57	328.47	70.84	-83.5	-79.0	2.4	0.00e+00	0	49	104	0	60	1048575
2026-01-18 08:18:47.59	324.18	71.67	-83.1	-79.0	2.4	0.00e+00	0	49	104	0	60	1048573
2026-01-18 08:18:49.61	319.49	72.39	-83.5	-79.0	2.5	0.00e+00	0	49	104	0	60	1048575
2026-01-18 08:18:51.62	314.42	73.00	-83.5	-79.0	2.3	0.00e+00	0	49	104	0	60	1048574
2026-01-18 08:18:53.63	309.01	73.47	-83.1	-79.0	2.4	0.00e+00	0	49	104	0	60	1048573
2026-01-18 08:18:55.64	303.31	73.80	-83.5	-79.0	2.3	0.00e+00	0	49	104	0	60	1048569
2026-01-18 08:18:57.65	297.43	73.97	-83.1	-79.0	2.4	0.00e+00	0	49	104	0	60	1048573
2026-01-18 08:18:59.66	291.48	73.97	-83.5	-79.0	2.5	0.00e+00	0	49	104	0	60	1048572
2026-01-18 08:19:01.67	285.58	73.82	-83.5	-79.0	2.3	0.00e+00	0	49	104	0	60	1048572
2026-01-18 08:19:03.68	279.87	73.50	-83.5	-79.0	2.4	0.00e+00	0	49	104	0	60	1048574
2026-01-18 08:19:05.70	274.41	73.03	-83.5	-79.0	2.4	0.00e+00	0	49	104	0	60	1048571
2026-01-18 08:19:07.72	269.30	72.42	-83.1	-79.0	2.4	0.00e+00	0	49	104	0	60	1048564
2026-01-18 08:19:09.73	264.61	71.70	-83.5	-79.0	2.4	0.00e+00	0	49	104	0	60	1048572
2026-01-18 08:19:11.74	260.31	70.89	-83.1	-79.0	2.4	0.00e+00	0	49	104	0	60	1048568
2026-01-18 08:19:13.75	256.41	69.98	-83.5	-79.0	2.4	0.00e+00	0	49	104	0	60	1048573
2026-01-18 08:19:15.77	252.87	69.01	-83.5	-79.0	2.4	0.00e+00	0	49	104	0	60	1048575
2026-01-18 08:19:17.78	249.70	67.98	-83.5	-79.0	2.5	0.00e+00	0	49	104	0	60	1048574
2026-01-18 08:19:19.80	246.82	66.91	-83.5	-79.0	2.4	0.00e+00	0	49	104	0	60	1048571
2026-01-18 08:19:21.81	244.24	65.80	-82.8	-79.0	2.4	0.00e+00	0	49	104	0	60	1048573
2026-01-18 08:19:23.83	241.91	64.67	-83.5	-79.0	2.3	0.00e+00	0	49	104	0	60	1048575
2026-01-18 08:19:25.84	239.80	63.53	-83.5	-79.0	2.4	0.00e+00	0	49	104	0	60	1048566
2026-01-18 08:19:27.86	237.89	62.38	-83.5	-79.0	2.5	0.00e+00	0	49	104	0	60	1048575
2026-01-18 08:19:29.87	236.16	61.23	-83.5	-79.0	2.4	0.00e+00	0	49	104	0	60	1048575
2026-01-18 08:19:31.88	234.59	60.08	-83.5	-79.0	2.4	0.00e+00	0	49	104	0	60	1048572
2026-01-18 08:19:33.89	233.15	58.93	-83.5	-79.0	2.4	0.00e+00	0	49	104	0	60	1048567
2026-01-18 08:19:35.91	231.83	57.79	-83.1	-79.0	2.3	0.00e+00	0	49	104	0	60	1048575
2026-01-18 08:19:37.93	230.61	56.65	-83.1	-79.0	2.4	0.00e+00	0	49	104	0	60	1048575
2026-01-18 08:19:39.94	229.50	55.54	-83.5	-79.0	2.3	0.00e+00	0	49	104	0	60	1048572
2026-01-18 08:19:41.95	228.48	54.44	-83.1	-79.0	2.4	0.00e+00	0	49	104	0	60	1048566
2026-01-18 08:19:43.96	227.53	53.36	-83.1	-79.0	2.4	0.00e+00	0	49	104	0	60	1048570
2026-01-18 08:19:45.98	226.64	52.29	-83.5	-79.0	2.4	0.00e+00	0	49	104	0	60	1048575
2026-01-18 08:19:47.99	225.83	51.25	-83.1	-79.0	2.4	0.00e+00	0	49	104	0	60	1048575
2026-01-18 08:19:50.00	225.07	50.22	-83.1	-79.0	2.4	0.00e+00	0	49	104	0	60	1048567
2026-01-18 08:19:52.02	224.36	49.21	-83.5	-79.0	2.4	0.00e+00	0	49	104	0	60	1048573
2026-01-18 08:19:54.02	223.70	48.23	-83.5	-79.0	2.4	0.00e+00	0	49	104	0	60	1048574
2026-01-18 08:19:56.04	223.07	47.26	-83.5	-79.0	2.4	0.00e+00	0	49	104	0	60	1048575
2026-01-18 08:19:58.05	222.49	46.31	-83.5	-79.0	2.4	0.00e+00	0	49	104	0	60	1048573
2026-01-18 08:20:00.06	221.94	45.39	-83.1	-79.0	2.4	0.00e+00	0	49	104	0	60	1048575
2026-01-18 08:20:02.07	221.43	44.48	-83.5	-79.0	2.4	0.00e+00	0	49	104	0	60	1048569
2026-01-18 08:20:04.08	220.94	43.60	-83.1	-79.0	2.4	0.00e+00	0	49	104	0	60	1048574
2026-01-18 08:20:06.09	220.48	42.74	-83.5	-79.0	2.4	0.00e+00	0	49	104	0	60	1048575
2026-01-18 08:20:08.10	220.05	41.89	-83.5	-79.0	2.4	0.00e+00	0	49	104	0	60	1048574
2026-01-18 08:20:10.12	219.63	41.07	-83.1	-79.0	2.4	0.00e+00	0	49	104	0	60	1048575
2026-01-18 08:20:12.14	219.24	40.26	-83.5	-79.0	2.3	0.00e+00	0	49	104	0	60	1048573
2026-01-18 08:20:14.15	218.87	39.47	-83.1	-79.0	2.4	0.00e+00	0	49	104	0	60	1048574
2026-01-18 08:20:16.17	218.52	38.70	-83.5	-79.0	2.4	0.00e+00	0	49	104	0	60	1048573
2026-01-18 08:20:18.18	218.19	37.95	-83.1	-79.0	2.4	0.00e+00	0	49	104	0	60	1048575
2026-01-18 08:20:20.19	217.87	37.22	-83.5	-79.0	2.4	0.00e+00	0	49	104	0	60	1048572
2026-01-18 08:20:22.21	217.56	36.50	-83.5	-79.0	2.5	0.00e+00	0	49	104	0	60	1048574
2026-01-18 08:20:24.22	217.27	35.80	-83.5	-79.0	2.5	0.00e+00	0	49	104	0	60	1048572
2026-01-18 08:20:26.24	217.00	35.12	-83.5	-79.0	2.5	0.00e+00	0	49	104	0	60	1048573
2026-01-18 08:20:28.25	216.73	34.45	-82.8	-79.0	2.4	0.00e+00	0	49	104	0	60	1048570
2026-01-18 08:20:30.27	216.48	33.80	-83.5	-79.0	2.4	0.00e+00	0	49	104	0	60	1048575
2026-01-18 08:20:32.28	216.24	33.16	-83.1	-79.0	2.4	0.00e+00	0	49	104	0	60	1048574
2026-01-18 08:20:34.29	216.00	32.54	-83.1	-79.0	2.4	0.00e+00	0	49	104	0	60	1048572
2026-01-18 08:20:36.31	215.78	31.93	-83.5	-79.0	2.4	0.00e+00	0	49	104	0	60	1048575
2026-01-18 08:20:38.33	215.57	31.34	-83.1	-79.0	2.3	0.00e+00	0	49	104	0	60	1048573
2026-01-18 08:20:40.34	215.36	30.76	-83.5	-79.0	2.4	0.00e+00	0	49	104	0	60	1048573
2026-01-18 08:20:42.35	215.16	30.19	-83.1	-79.0	2.5	0.00e+00	0	49	104	0	60	1048573
2026-01-18 08:20:44.37	214.97	29.63	-83.5	-79.0	2.4	0.00e+00	0	49	104	0	60	1048575
2026-01-18 08:20:46.39	214.79	29.09	-83.5	-79.0	2.4	0.00e+00	0	49	104	0	60	1048575
2026-01-18 08:20:48.40	214.61	28.56	-83.5	-79.0	2.3	0.00e+00	0	49	104	0	60	1048571
2026-01-18 08:20:50.42	214.44	28.04	-83.5	-79.0	2.5	0.00e+00	0	49	104	0	60	1048574
2026-01-18 08:20:52.44	214.28	27.53	-83.1	-79.0	2.4	0.00e+00	0	49	104	0	60	1048572
2026-01-18 08:20:54.45	214.12	27.03	-83.5	-79.0	2.4	0.00e+00	0	49	104	0	60	1048573
2026-01-18 08:20:56.47	213.97	26.55	-82.8	-79.0	2.4	0.00e+00	0	49	104	0	60	1048575
2026-01-18 08:20:58.48	213.82	26.07	-83.5	-79.0	2.4	0.00e+00	0	49	104	0	60	1048567
2026-01-18 08:21:00.50	213.68	25.60	-83.5	-79.0	2.5	0.00e+00	0	49	104	0	60	1048573
2026-01-18 08:21:02.52	213.54	25.14	-83.5	-79.0	2.4	0.00e+00	0	49	104	0	60	1048571
2026-01-18 08:21:04.53	213.41	24.69	-83.5	-79.0	2.4	0.00e+00	0	49	104	0	60	1048570
2026-01-18 08:21:06.55	213.28	24.25	-83.1	-79.0	2.4	0.00e+00	0	49	104	0	60	1048568
2026-01-18 08:21:08.55	213.15	23.83	-83.5	-79.0	2.4	0.00e+00	0	49	104	0	60	1048575
2026-01-18 08:21:10.56	213.03	23.40	-83.1	-79.0	2.4	0.00e+00	0	49	104	0	60	1048573
2026-01-18 08:21:12.58	212.92	22.99	-83.5	-79.0	2.5	0.00e+00	0	49	104	0	60	1048564
2026-01-18 08:21:14.59	212.80	22.58	-83.5	-79.0	2.5	0.00e+00	0	49	104	0	60	1048575
2026-01-18 08:21:16.60	212.69	22.19	-83.1	-79.0	2.4	0.00e+00	0	49	104	0	60	1048571
2026-01-18 08:21:18.62	212.59	21.79	-83.5	-79.0	2.4	0.00e+00	0	49	104	0	60	1048573
2026-01-18 08:21:20.64	212.48	21.41	-83.1	-79.0	2.4	0.00e+00	0	49	104	0	60	1048575
2026-01-18 08:21:22.65	212.38	21.03	-83.5	-79.0	2.3	0.00e+00	0	49	104	0	60	1048570
2026-01-18 08:21:24.66	212.28	20.66	-83.5	-79.0	2.4	0.00e+00	0	49	104	0	60	1048574
2026-01-18 08:21:26.68	212.19	20.30	-83.5	-79.0	2.4	0.00e+00	0	49	104	0	60	1048571
2026-01-18 08:21:28.69	212.10	19.94	-83.5	-79.0	2.3	0.00e+00	0	49	104	0	60	1048574
2026-01-18 08:21:30.71	212.01	19.59	-83.5	-79.0	2.4	0.00e+00	0	49	104	0	60	1048566
2026-01-18 08:21:32.72	211.92	19.25	-83.1	-79.0	2.4	0.00e+00	0	49	104	0	60	1048575
2026-01-18 08:21:34.73	211.84	18.91	-83.1	-79.0	2.4	0.00e+00	0	49	104	0	60	1048574
2026-01-18 08:21:36.75	211.75	18.57	-83.5	-79.0	2.4	0.00e+00	0	49	104	0	60	1048575
2026-01-18 08:21:38.76	211.67	18.25	-83.1	-79.0	2.3	0.00e+00	0	49	104	0	60	1048574
2026-01-18 08:21:40.78	211.59	17.92	-83.5	-79.0	2.4	0.00e+00	0	49	104	0	60	1048574
2026-01-18 08:21:42.80	211.52	17.60	-83.5	-79.0	2.4	0.00e+00	0	49	104	0	60	1048575
2026-01-18 08:21:44.81	211.44	17.29	-83.1	-79.0	2.3	0.00e+00	0	49	104	0	60	1048573
2026-01-18 08:21:46.82	211.37	16.99	-83.5	-79.0	2.6	0.00e+00	0	49	104	0	60	1048569
2026-01-18 08:21:48.84	211.30	16.68	-83.1	-79.0	2.4	0.00e+00	0	49	104	0	60	1048572
2026-01-18 08:21:50.85	211.23	16.38	-83.5	-79.0	2.4	0.00e+00	0	49	104	0	60	1048574
2026-01-18 08:21:52.86	211.17	16.09	-83.5	-79.0	2.7	0.00e+00	0	49	104	0	60	1048575
2026-01-18 08:21:54.88	211.10	15.80	-83.5	-79.0	2.3	0.00e+00	0	49	104	0	60	1048569
2026-01-18 08:21:56.89	211.04	15.52	-83.5	-79.0	2.4	0.00e+00	0	49	104	0	60	1048557
2026-01-18 08:21:58.91	210.98	15.24	-83.1	-79.0	2.3	0.00e+00	0	49	104	0	60	1048570
2026-01-18 08:22:00.93	210.91	14.96	-83.5	-79.0	2.4	0.00e+00	0	49	104	0	60	1048575
2026-01-18 08:22:02.94	210.86	14.69	-83.1	-79.0	2.5	0.00e+00	0	49	104	0	60	1048574
2026-01-18 08:22:04.95	210.80	14.42	-83.5	-79.0	2.4	0.00e+00	0	49	104	0	60	1048574
2026-01-18 08:22:06.97	210.74	14.16	-83.5	-79.0	2.3	0.00e+00	0	49	104	0	60	1048575
2026-01-18 08:22:08.98	210.69	13.89	-83.1	-79.0	2.4	0.00e+00	0	49	104	0	60	1048575
2026-01-18 08:22:10.99	210.63	13.64	-83.5	-79.0	2.4	0.00e+00	0	49	104	0	60	1048575
2026-01-18 08:22:13.01	210.58	13.38	-83.1	-79.0	2.4	0.00e+00	0	49	104	0	60	1048566
2026-01-18 08:22:15.02	210.53	13.13	-83.5	-79.0	2.4	0.00e+00	0	49	104	0	60	1048573
2026-01-18 08:22:17.04	210.48	12.88	-83.5	-79.0	2.4	0.00e+00	0	49	104	0	60	1048568
2026-01-18 08:22:19.05	210.43	12.64	-83.5	-79.0	2.3	0.00e+00	0	49	104	0	60	1048562
2026-01-18 08:22:21.07	210.38	12.40	-83.5	-79.0	2.5	0.00e+00	0	49	104	0	60	1048573
2026-01-18 08:22:23.09	210.33	12.16	-83.1	-79.0	2.4	0.00e+00	0	49	104	0	60	1048568
2026-01-18 08:22:25.10	210.29	11.93	-83.5	-79.0	2.4	0.00e+00	0	49	104	0	60	1048575
2026-01-18 08:22:27.12	210.24	11.69	-83.1	-79.0	2.4	0.00e+00	0	49	104	0	60	1048561
2026-01-18 08:22:29.13	210.20	11.46	-83.5	-79.0	2.3	0.00e+00	0	49	104	0	60	1048570
2026-01-18 08:22:31.14	210.16	11.24	-83.5	-79.0	2.4	0.00e+00	0	49	104	0	60	1048573
2026-01-18 08:22:33.15	210.11	11.02	-83.5	-79.0	2.3	0.00e+00	0	49	104	0	60	1048575
2026-01-18 08:22:35.16	210.07	10.80	-83.5	-79.0	2.3	0.00e+00	0	49	104	0	60	1048574
2026-01-18 08:22:37.18	210.03	10.58	-83.1	-79.0	2.4	0.00e+00	0	49	104	0	60	1048575
2026-01-18 08:22:39.19	209.99	10.36	-83.5	-79.0	2.4	0.00e+00	0	49	104	0	60	1048567
2026-01-18 08:22:41.20	209.95	10.15	-83.1	-79.0	2.4	0.00e+00	0	49	104	0	60	1048575
2026-01-18 08:22:43.22	209.92	9.94	-83.5	-79.0	2.3	0.00e+00	0	49	104	0	60	1048572
2026-01-18 08:22:45.23	209.88	9.73	-83.1	-79.0	2.5	0.00e+00	0	49	104	0	60	1048575
2026-01-18 08:22:47.24	209.84	9.52	-83.5	-79.0	2.4	0.00e+00	0	49	104	0	60	1048575
2026-01-18 08:22:49.26	209.81	9.32	-83.5	-79.0	2.4	0.00e+00	0	49	104	0	60	1048572
2026-01-18 08:22:51.28	209.77	9.11	-83.1	-79.0	2.3	0.00e+00	0	49	104	0	60	1048575
2026-01-18 08:22:53.29	209.74	8.91	-83.5	-79.0	2.5	0.00e+00	0	49	104	0	60	1048575
2026-01-18 08:22:55.30	209.70	8.72	-83.1	-79.0	2.4	0.00e+00	0	49	104	0	60	1048574
2026-01-18 08:22:57.30	209.67	8.52	-83.5	-79.0	2.4	0.00e+00	0	49	104	0	60	1048574
2026-01-18 08:22:59.32	209.64	8.33	-83.5	-79.0	2.6	0.00e+00	0	49	104	0	60	1048574
2026-01-18 08:23:01.32	209.61	8.14	-83.5	-79.0	2.5	0.00e+00	0	49	104	0	60	1048575
2026-01-18 08:23:03.34	209.58	7.95	-83.5	-79.0	2.4	0.00e+00	0	49	104	0	60	1048575
2026-01-18 08:23:05.35	209.55	7.76	-83.1	-79.0	2.4	0.00e+00	0	49	104	0	60	1048574
2026-01-18 08:23:07.35	209.52	7.57	-83.5	-79.0	2.4	0.00e+00	0	49	104	0	60	1048575
2026-01-18 08:23:09.36	209.49	7.39	-83.1	-79.0	2.4	0.00e+00	0	49	104	0	60	1048569
2026-01-18 08:23:11.37	209.46	7.21	-83.5	-79.0	2.4	0.00e+00	0	49	104	0	60	1048572
2026-01-18 08:23:13.38	209.43	7.03	-83.1	-79.0	2.4	0.00e+00	0	49	104	0	60	1048570
2026-01-18 08:23:15.40	209.40	6.85	-83.5	-79.0	2.5	0.00e+00	0	49	104	0	60	1048571
2026-01-18 08:23:17.42	209.38	6.67	-83.5	-79.0	2.4	0.00e+00	0	49	104	0	60	1048575
2026-01-18 08:23:19.43	209.35	6.49	-83.1	-79.0	2.3	0.00e+00	0	49	104	0	60	1048572
2026-01-18 08:23:21.44	209.32	6.32	-83.5	-79.0	2.4	0.00e+00	0	49	104	0	60	1048573
2026-01-18 08:23:23.46	209.30	6.14	-83.1	-79.0	2.4	0.00e+00	0	49	104	0	60	1048575
2026-01-18 08:23:25.46	209.27	5.97	-83.5	-79.0	2.4	0.00e+00	0	49	104	0	60	1048571
2026-01-18 08:23:27.47	209.25	5.80	-83.5	-79.0	2.4	0.00e+00	0	49	104	0	60	1048574
2026-01-18 08:23:29.48	209.22	5.64	-83.5	-79.0	2.5	0.00e+00	0	49	104	0	60	1048574
2026-01-18 08:23:31.49	209.20	5.47	-83.5	-79.0	2.3	0.00e+00	0	49	104	0	60	1048571
2026-01-18 08:23:33.51	209.18	5.30	-83.1	-79.0	2.4	0.00e+00	0	49	104	0	60	1048573
2026-01-18 08:23:35.52	209.15	5.14	-83.5	-79.0	2.4	0.00e+00	0	49	104	0	60	1048575
2026-01-18 08:23:37.54	209.13	4.97	-83.1	-79.0	2.4	0.00e+00	0	49	104	0	60	1048571
2026-01-18 08:23:39.56	209.11	4.81	-83.5	-79.0	2.4	0.00e+00	0	49	104	0	60	1048575
2026-01-18 08:23:41.57	209.09	4.65	-83.5	-79.0	2.4	0.00e+00	0	49	104	0	60	1048573
2026-01-18 08:23:43.58	209.07	4.49	-83.5	-79.0	2.4	0.00e+00	0	49	104	0	60	1048572
2026-01-18 08:23:45.60	209.05	4.33	-83.5	-79.0	2.4	0.00e+00	0	49	104	0	60	1048575
2026-01-18 08:23:47.61	209.03	4.18	-83.5	-79.0	2.3	0.00e+00	0	49	104	0	60	1048575
2026-01-18 08:23:49.63	209.01	4.02	-83.5	-79.0	2.4	0.00e+00	0	49	104	0	60	1048574
2026-01-18 08:23:51.64	208.99	3.87	-83.5	-79.0	2.3	0.00e+00	0	49	104	0	60	1048574
2026-01-18 08:23:53.66	208.97	3.71	-83.5	-79.0	2.4	0.00e+00	0	49	104	0	60	1048571
2026-01-18 08:23:55.67	208.95	3.56	-83.5	-79.0	2.4	0.00e+00	0	49	104	0	60	1048573
2026-01-18 08:23:57.69	208.93	3.41	-83.1	-79.0	2.3	0.00e+00	0	49	104	0	60	1048573
2026-01-18 08:23:59.70	208.91	3.26	-83.5	-79.0	2.4	0.00e+00	0	49	104	0	60	1048575
2026-01-18 08:24:01.71	208.89	3.11	-83.1	-79.0	2.3	0.00e+00	0	49	104	0	60	1048571
2026-01-18 08:24:03.72	208.87	2.97	-83.5	-79.0	2.4	0.00e+00	0	49	104	0	60	1048575
2026-01-18 08:24:05.73	208.86	2.82	-83.5	-79.0	2.4	0.00e+00	0	49	104	0	60	1048574
2026-01-18 08:24:07.75	208.84	2.67	-83.1	-79.0	2.4	0.00e+00	0	49	104	0	60	1048570
2026-01-18 08:24:09.76	208.82	2.53	-83.5	-79.0	2.4	0.00e+00	0	49	104	0	60	1048575
2026-01-18 08:24:11.77	208.81	2.38	-83.1	-79.0	2.4	0.00e+00	0	49	104	0	60	1048572
2026-01-18 08:24:13.78	208.79	2.24	-83.5	-79.0	2.4	0.00e+00	0	49	104	0	60	1048566
2026-01-18 08:24:15.79	208.77	2.10	-83.1	-79.0	2.4	0.00e+00	0	49	104	0	60	1048571
2026-01-18 08:24:17.81	208.76	1.96	-83.5	-79.0	2.5	0.00e+00	0	49	104	0	60	1048571
2026-01-18 08:24:19.82	208.74	1.82	-83.5	-79.0	2.4	0.00e+00	0	49	104	0	60	1048574
2026-01-18 08:24:21.83	208.73	1.68	-83.5	-79.0	2.5	0.00e+00	0	49	104	0	60	1048575
2026-01-18 08:24:23.84	208.71	1.54	-83.5	-79.0	2.5	0.00e+00	0	49	104	0	60	1048574
2026-01-18 08:24:25.86	208.70	1.40	-83.1	-79.0	2.5	0.00e+00	0	49	104	0	60	1048572
2026-01-18 08:24:27.87	208.68	1.27	-83.5	-79.0	2.5	0.00e+00	0	49	104	0	60	1048574
2026-01-18 08:24:29.88	208.67	1.13	-83.5	-79.0	2.4	0.00e+00	0	49	104	0	60	1048575
2026-01-18 08:24:31.89	208.65	1.00	-83.5	-79.0	2.4	0.00e+00	0	49	104	0	60	1048573
2026-01-18 08:24:33.91	208.64	0.86	-83.5	-79.0	2.3	0.00e+00	0	49	104	0	60	1048574
2026-01-18 08:24:35.92	208.63	0.73	-83.1	-79.0	2.4	0.00e+00	0	49	104	0	60	1048574
2026-01-18 08:24:37.94	208.61	0.60	-83.5	-79.0	2.4	0.00e+00	0	49	104	0	60	1048570
2026-01-18 08:24:39.95	208.60	0.46	-83.1	-79.0	2.4	0.00e+00	0	49	104	0	60	1048575
2026-01-18 08:24:41.97	208.59	0.33	-83.5	-79.0	2.3	0.00e+00	0	49	104	0	60	1048573
2026-01-18 08:24:43.98	208.58	0.20	-83.5	-79.0	2.4	0.00e+00	0	49	104	0	60	1048569
2026-01-18 08:24:45.99	208.56	0.07	-83.5	-79.0	2.5	0.00e+00	0	49	104	0	60	1048568
2026-01-18 08:24:48.00	208.55	-0.06	-83.5	-79.0	2.5	0.00e+00	0	49	104	0	60	1048575

#Closed at: 2026-01-18 08:24:49
#Recorded file [0 MB]: D:/Data/35015_260118_111620.dat