passes_logs/2026/01/18/R3.2S-Naryan-Mar/R3.2S-Naryan-Mar__20260118_033318_SUOMI_NPP_rec.log

#Pass ID: 20260118_033318_SUOMI NPP
#Satellite: SUOMI NPP
#Configuration: NPP
#almurnet v.1.7.20240730
#Start time: 2026-01-18 03:33:20

#Version: 2.2.20231116
#Station: R3.2S-Naryan-Mar
#Location: 53.008057 lon 67.646978 lat
#TLE: 1 37849U 11061A   26017.28905266  .00000074  00000+0  55894-4 0  9999
#TLE: 2 37849  98.7814 319.3179 0002408  59.7048 300.4366 14.19525847737038

#Time	Az	El	Level	Level2	SNR	BER	BlckErr	Temp	State	Recorded	gain1	gain2
2026-01-18 03:33:20.29	56.47	0.12	-85.2	-88.6	5.1	1.63e+00	0	46	0	0	60	1048575
2026-01-18 03:33:24.31	56.22	0.33	-85.2	-88.6	3.0	1.56e+00	0	46	104	0	60	1048574
2026-01-18 03:33:28.32	55.97	0.54	-85.2	-88.6	3.0	1.56e+00	0	46	104	0	60	1048574
2026-01-18 03:33:32.35	55.72	0.76	-85.2	-88.6	3.0	1.55e+00	0	46	104	0	60	1048575
2026-01-18 03:33:36.38	55.45	0.97	-85.2	-88.6	2.8	1.56e+00	0	46	104	0	60	1048574
2026-01-18 03:33:40.41	55.19	1.19	-85.2	-88.6	2.8	1.56e+00	0	46	104	0	60	1048574
2026-01-18 03:33:44.44	54.92	1.41	-84.3	-88.6	2.9	1.56e+00	0	46	104	0	60	1048574
2026-01-18 03:33:48.47	54.65	1.63	-85.2	-88.6	3.0	1.55e+00	0	46	104	0	60	1048574
2026-01-18 03:33:52.49	54.37	1.85	-85.2	-88.6	3.0	1.56e+00	0	46	104	0	60	1048575
2026-01-18 03:33:56.52	54.09	2.07	-85.2	-88.6	2.9	1.55e+00	0	46	104	0	60	1048575
2026-01-18 03:34:00.54	53.81	2.29	-85.2	-88.6	2.9	1.56e+00	0	46	104	0	60	1048575
2026-01-18 03:34:04.57	53.51	2.51	-85.2	-88.6	3.0	1.56e+00	0	46	104	0	60	1048575
2026-01-18 03:34:08.59	53.22	2.74	-85.2	-88.6	3.3	1.56e+00	0	46	104	0	60	1048574
2026-01-18 03:34:12.62	52.92	2.96	-85.2	-88.6	2.8	1.56e+00	0	47	104	0	60	1048575
2026-01-18 03:34:16.64	52.62	3.19	-85.2	-88.6	3.0	1.55e+00	0	47	104	0	60	1048573
2026-01-18 03:34:20.66	52.31	3.41	-85.2	-88.6	3.1	1.56e+00	0	47	104	0	60	1048573
2026-01-18 03:34:24.69	51.99	3.64	-85.2	-88.6	3.0	1.55e+00	0	47	104	0	60	1048574
2026-01-18 03:34:28.72	51.67	3.87	-85.2	-88.6	2.9	1.55e+00	0	47	104	0	60	1048575
2026-01-18 03:34:32.74	51.35	4.10	-85.2	-88.6	3.1	1.55e+00	0	47	104	0	60	1048575
2026-01-18 03:34:36.76	51.02	4.33	-85.2	-88.6	3.1	1.56e+00	0	47	104	0	60	1048575
2026-01-18 03:34:40.78	50.68	4.56	-85.2	-88.6	2.9	1.56e+00	0	47	104	0	60	1048574
2026-01-18 03:34:44.81	50.34	4.80	-85.2	-88.6	3.1	1.56e+00	0	47	104	0	60	1048572
2026-01-18 03:34:48.84	49.99	5.03	-85.2	-88.6	3.1	1.56e+00	0	47	104	0	60	1048575
2026-01-18 03:34:52.87	49.64	5.27	-85.2	-88.6	2.8	1.55e+00	0	47	104	0	60	1048574
2026-01-18 03:34:56.90	49.28	5.51	-85.2	-88.6	2.8	1.56e+00	0	47	104	0	60	1048574
2026-01-18 03:35:00.93	48.91	5.74	-85.2	-88.6	3.0	1.56e+00	0	47	104	0	60	1048574
2026-01-18 03:35:04.96	48.54	5.98	-85.2	-88.6	2.9	1.55e+00	0	47	104	0	60	1048574
2026-01-18 03:35:08.98	48.17	6.22	-85.2	-88.6	3.1	1.55e+00	0	47	104	0	60	1048574
2026-01-18 03:35:13.02	47.78	6.46	-85.2	-88.6	3.0	1.55e+00	0	47	104	0	60	1048575
2026-01-18 03:35:17.05	47.39	6.71	-85.2	-88.6	2.9	1.56e+00	0	47	104	0	60	1048574
2026-01-18 03:35:21.08	46.99	6.95	-85.2	-88.6	3.0	1.56e+00	0	47	104	0	60	1048573
2026-01-18 03:35:25.11	46.59	7.19	-85.2	-88.6	2.9	1.56e+00	0	47	104	0	60	1048574
2026-01-18 03:35:29.14	46.17	7.44	-85.2	-88.6	2.9	1.55e+00	0	47	104	0	60	1048575
2026-01-18 03:35:33.17	45.75	7.68	-85.2	-88.6	2.9	1.55e+00	0	47	104	0	60	1048575
2026-01-18 03:35:37.20	45.33	7.93	-85.2	-88.6	2.9	1.56e+00	0	47	104	0	60	1048575
2026-01-18 03:35:41.23	44.89	8.18	-85.2	-88.6	3.0	1.56e+00	0	47	104	0	60	1048575
2026-01-18 03:35:45.26	44.45	8.43	-85.2	-88.6	3.0	1.56e+00	0	47	104	0	60	1048574
2026-01-18 03:35:49.29	44.00	8.68	-85.2	-88.6	2.8	1.56e+00	0	47	104	0	60	1048573
2026-01-18 03:35:53.32	43.54	8.93	-85.2	-88.6	3.1	1.56e+00	0	47	104	0	60	1048573
2026-01-18 03:35:57.35	43.08	9.18	-85.2	-88.6	2.9	1.56e+00	0	47	104	0	60	1048575
2026-01-18 03:36:01.38	42.60	9.43	-85.2	-88.6	3.0	1.56e+00	0	47	104	0	60	1048573
2026-01-18 03:36:05.41	42.12	9.68	-85.2	-88.6	3.1	1.56e+00	0	47	104	0	60	1048575
2026-01-18 03:36:09.44	41.63	9.93	-85.2	-88.6	2.9	1.55e+00	0	47	104	0	60	1048575
2026-01-18 03:36:13.48	41.13	10.19	-85.2	-88.6	2.9	1.55e+00	0	47	104	0	60	1048575
2026-01-18 03:36:17.50	40.62	10.44	-85.2	-88.6	3.0	1.55e+00	0	47	104	0	60	1048575
2026-01-18 03:36:21.53	40.10	10.69	-85.2	-88.6	3.0	1.56e+00	0	47	104	0	60	1048574
2026-01-18 03:36:25.56	39.58	10.95	-85.2	-88.6	3.1	1.55e+00	0	47	104	0	60	1048573
2026-01-18 03:36:29.60	39.04	11.20	-85.2	-88.6	2.9	1.55e+00	0	47	104	0	60	1048575
2026-01-18 03:36:33.63	38.49	11.46	-85.2	-88.6	3.0	1.55e+00	0	47	104	0	60	1048575
2026-01-18 03:36:37.66	37.93	11.71	-85.2	-88.6	3.0	1.56e+00	0	47	104	0	60	1048574
2026-01-18 03:36:41.69	37.37	11.96	-85.2	-88.6	3.0	1.56e+00	0	47	104	0	60	1048574
2026-01-18 03:36:45.72	36.79	12.22	-85.2	-88.6	3.0	1.56e+00	0	47	104	0	60	1048575
2026-01-18 03:36:49.74	36.21	12.47	-85.2	-88.6	3.3	1.56e+00	0	47	104	0	60	1048575
2026-01-18 03:36:53.77	35.61	12.73	-85.2	-88.6	2.9	1.56e+00	0	47	104	0	60	1048574
2026-01-18 03:36:57.80	35.00	12.98	-85.2	-88.6	2.9	1.56e+00	0	47	104	0	60	1048575
2026-01-18 03:37:01.83	34.38	13.23	-85.2	-88.6	3.2	1.56e+00	0	47	104	0	60	1048570
2026-01-18 03:37:05.86	33.76	13.48	-85.2	-88.6	3.1	1.56e+00	0	47	104	0	60	1048573
2026-01-18 03:37:09.88	33.12	13.73	-85.2	-88.6	3.2	1.56e+00	0	47	104	0	60	1048575
2026-01-18 03:37:13.92	32.46	13.98	-85.2	-88.6	2.8	1.56e+00	0	47	104	0	60	1048575
2026-01-18 03:37:17.95	31.80	14.23	-85.2	-88.6	2.8	1.56e+00	0	47	104	0	60	1048575
2026-01-18 03:37:21.97	31.13	14.48	-85.2	-88.6	3.1	1.56e+00	0	47	104	0	60	1048575
2026-01-18 03:37:26.00	30.45	14.72	-85.2	-88.6	3.0	1.56e+00	0	47	104	0	60	1048574
2026-01-18 03:37:30.03	29.75	14.96	-85.2	-88.6	3.1	1.56e+00	0	47	104	0	60	1048572
2026-01-18 03:37:34.06	29.04	15.21	-85.2	-88.6	2.9	1.55e+00	0	47	104	0	60	1048574
2026-01-18 03:37:38.09	28.32	15.45	-85.2	-88.6	3.1	1.56e+00	0	47	104	0	60	1048575
2026-01-18 03:37:42.12	27.59	15.68	-85.2	-88.6	3.0	1.56e+00	0	47	104	0	60	1048571
2026-01-18 03:37:46.16	26.85	15.92	-85.2	-88.6	3.1	1.56e+00	0	47	104	0	60	1048575
2026-01-18 03:37:50.18	26.09	16.15	-85.2	-88.6	2.9	1.56e+00	0	47	104	0	60	1048574
2026-01-18 03:37:54.21	25.33	16.38	-85.2	-88.6	3.1	1.56e+00	0	47	104	0	60	1048575
2026-01-18 03:37:58.24	24.55	16.60	-85.2	-88.6	3.1	1.56e+00	0	47	104	0	60	1048575
2026-01-18 03:38:02.27	23.76	16.82	-85.2	-88.6	3.1	1.55e+00	0	47	104	0	60	1048575
2026-01-18 03:38:06.30	22.95	17.04	-85.2	-88.6	3.0	1.55e+00	0	47	104	0	60	1048574
2026-01-18 03:38:10.32	22.14	17.26	-85.2	-88.6	2.9	1.56e+00	0	47	104	0	60	1048575
2026-01-18 03:38:14.35	21.32	17.47	-85.2	-88.6	3.1	1.56e+00	0	47	104	0	60	1048572
2026-01-18 03:38:18.39	20.48	17.67	-85.2	-88.6	3.0	1.56e+00	0	47	104	0	60	1048574
2026-01-18 03:38:22.41	19.63	17.87	-85.2	-88.6	3.1	1.55e+00	0	47	104	0	60	1048574
2026-01-18 03:38:26.45	18.77	18.07	-85.2	-88.6	3.2	1.55e+00	0	47	104	0	60	1048575
2026-01-18 03:38:30.46	17.90	18.26	-84.3	-88.6	2.8	1.55e+00	0	47	104	0	60	1048575
2026-01-18 03:38:34.49	17.02	18.45	-84.3	-88.6	3.1	1.56e+00	0	47	104	0	60	1048575
2026-01-18 03:38:38.52	16.13	18.62	-85.2	-88.6	3.0	1.56e+00	0	47	104	0	60	1048575
2026-01-18 03:38:42.55	15.22	18.80	-85.2	-88.6	2.9	1.56e+00	0	47	104	0	60	1048573
2026-01-18 03:38:46.58	14.31	18.97	-85.2	-88.6	3.0	1.56e+00	0	47	104	0	60	1048574
2026-01-18 03:38:50.61	13.39	19.13	-84.7	-88.6	3.0	1.56e+00	0	47	104	0	60	1048571
2026-01-18 03:38:54.64	12.45	19.28	-85.2	-88.6	3.1	1.56e+00	0	47	104	0	60	1048574
2026-01-18 03:38:58.67	11.51	19.43	-85.2	-88.6	3.2	1.56e+00	0	47	104	0	60	1048575
2026-01-18 03:39:02.69	10.56	19.56	-85.2	-88.6	3.0	1.56e+00	0	47	104	0	60	1048575
2026-01-18 03:39:06.72	9.60	19.70	-85.2	-88.6	2.9	1.56e+00	0	47	104	0	60	1048574
2026-01-18 03:39:10.74	8.63	19.82	-85.2	-88.6	3.0	1.56e+00	0	47	104	0	60	1048575
2026-01-18 03:39:14.77	7.66	19.93	-85.2	-88.6	2.9	1.56e+00	0	47	104	0	60	1048575
2026-01-18 03:39:18.80	6.67	20.04	-85.2	-88.6	3.0	1.56e+00	0	47	104	0	60	1048575
2026-01-18 03:39:22.83	5.68	20.14	-85.2	-88.6	3.0	1.56e+00	0	47	104	0	60	1048573
2026-01-18 03:39:26.86	4.69	20.23	-85.2	-88.6	3.0	1.56e+00	0	47	104	0	60	1048575
2026-01-18 03:39:30.89	3.69	20.31	-85.2	-88.6	3.0	1.56e+00	0	47	104	0	60	1048575
2026-01-18 03:39:34.91	2.68	20.38	-85.2	-88.6	3.2	1.56e+00	0	47	104	0	60	1048574
2026-01-18 03:39:38.95	1.67	20.45	-85.2	-88.6	3.0	1.56e+00	0	47	104	0	60	1048574
2026-01-18 03:39:42.98	0.65	20.50	-85.2	-88.6	3.0	1.56e+00	0	47	104	0	60	1048575
2026-01-18 03:39:47.00	359.64	20.54	-85.2	-88.6	3.0	1.56e+00	0	47	104	0	60	1048575
2026-01-18 03:39:51.03	358.62	20.58	-85.2	-88.6	3.0	1.56e+00	0	47	104	0	60	1048573
2026-01-18 03:39:55.06	357.60	20.60	-85.2	-88.6	3.1	1.56e+00	0	47	104	0	60	1048574
2026-01-18 03:39:59.09	356.57	20.62	-85.2	-88.6	3.1	1.55e+00	0	47	104	0	60	1048572
2026-01-18 03:40:03.12	355.55	20.62	-85.2	-88.6	2.9	1.55e+00	0	47	104	0	60	1048575
2026-01-18 03:40:07.15	354.52	20.62	-85.2	-88.6	3.1	1.56e+00	0	47	104	0	60	1048575
2026-01-18 03:40:11.17	353.50	20.61	-85.2	-88.6	2.9	1.56e+00	0	47	104	0	60	1048575
2026-01-18 03:40:15.20	352.48	20.58	-85.2	-88.6	2.8	1.56e+00	0	47	104	0	60	1048575
2026-01-18 03:40:19.24	351.45	20.55	-85.2	-88.6	3.2	1.56e+00	0	47	104	0	60	1048575
2026-01-18 03:40:23.26	350.44	20.51	-85.2	-88.6	2.9	1.56e+00	0	47	104	0	60	1048575
2026-01-18 03:40:27.29	349.42	20.46	-85.2	-88.6	2.9	1.56e+00	0	47	104	0	60	1048574
2026-01-18 03:40:31.33	348.41	20.39	-85.2	-88.6	2.9	1.56e+00	0	47	104	0	60	1048575
2026-01-18 03:40:35.35	347.40	20.32	-85.2	-88.6	3.2	1.56e+00	0	47	104	0	60	1048571
2026-01-18 03:40:39.38	346.40	20.24	-85.2	-88.6	3.1	1.55e+00	0	47	104	0	60	1048575
2026-01-18 03:40:43.40	345.41	20.16	-85.2	-88.6	3.2	1.56e+00	0	47	104	0	60	1048574
2026-01-18 03:40:47.43	344.42	20.06	-85.2	-88.6	3.1	1.56e+00	0	47	104	0	60	1048575
2026-01-18 03:40:51.46	343.43	19.95	-85.2	-88.6	3.0	1.56e+00	0	47	104	0	60	1048575
2026-01-18 03:40:55.48	342.46	19.84	-85.2	-88.6	3.1	1.56e+00	0	47	104	0	60	1048574
2026-01-18 03:40:59.50	341.49	19.72	-85.2	-88.6	3.1	1.56e+00	0	47	104	0	60	1048575
2026-01-18 03:41:03.53	340.53	19.59	-85.2	-88.6	2.6	1.56e+00	0	47	104	0	60	1048574
2026-01-18 03:41:07.56	339.57	19.45	-85.2	-88.6	3.0	1.55e+00	0	47	104	0	60	1048574
2026-01-18 03:41:11.58	338.63	19.30	-85.2	-88.6	3.2	1.56e+00	0	47	104	0	60	1048575
2026-01-18 03:41:15.61	337.70	19.15	-85.2	-88.6	3.0	1.55e+00	0	47	104	0	60	1048571
2026-01-18 03:41:19.63	336.77	18.99	-85.2	-88.6	2.9	1.55e+00	0	47	104	0	60	1048575
2026-01-18 03:41:23.66	335.86	18.83	-85.2	-88.6	2.7	1.56e+00	0	47	104	0	60	1048574
2026-01-18 03:41:27.68	334.96	18.66	-85.2	-88.6	3.1	1.56e+00	0	47	104	0	60	1048575
2026-01-18 03:41:31.71	334.06	18.48	-85.2	-88.6	3.0	1.56e+00	0	47	104	0	60	1048573
2026-01-18 03:41:35.74	333.18	18.29	-85.2	-88.6	3.0	1.56e+00	0	47	104	0	60	1048575
2026-01-18 03:41:39.77	332.30	18.10	-85.2	-88.6	3.1	1.56e+00	0	47	104	0	60	1048572
2026-01-18 03:41:43.80	331.44	17.91	-85.2	-88.6	3.0	1.56e+00	0	47	104	0	60	1048572
2026-01-18 03:41:47.82	330.59	17.71	-85.2	-88.6	3.0	1.56e+00	0	47	104	0	60	1048574
2026-01-18 03:41:51.85	329.75	17.50	-85.2	-88.6	2.9	1.55e+00	0	47	104	0	60	1048575
2026-01-18 03:41:55.89	328.92	17.29	-85.2	-88.6	2.9	1.55e+00	0	47	104	0	60	1048572
2026-01-18 03:41:59.92	328.11	17.08	-85.2	-88.6	2.8	1.55e+00	0	47	104	0	60	1048575
2026-01-18 03:42:03.94	327.31	16.86	-85.2	-88.6	2.9	1.56e+00	0	47	104	0	60	1048573
2026-01-18 03:42:07.97	326.51	16.64	-85.2	-88.6	2.9	1.55e+00	0	47	104	0	60	1048575
2026-01-18 03:42:12.01	325.73	16.42	-85.2	-88.6	3.0	1.56e+00	0	47	104	0	60	1048572
2026-01-18 03:42:16.03	324.96	16.19	-85.2	-88.6	3.2	1.56e+00	0	47	104	0	60	1048573
2026-01-18 03:42:20.05	324.21	15.96	-85.2	-88.6	3.1	1.56e+00	0	47	104	0	60	1048575
2026-01-18 03:42:24.08	323.46	15.72	-85.2	-88.6	2.8	1.56e+00	0	47	104	0	60	1048575
2026-01-18 03:42:28.11	322.73	15.49	-85.2	-88.6	3.0	1.56e+00	0	47	104	0	60	1048573
2026-01-18 03:42:32.14	322.01	15.25	-84.7	-88.6	2.7	1.56e+00	0	47	104	0	60	1048575
2026-01-18 03:42:36.16	321.30	15.01	-85.2	-88.6	3.0	1.56e+00	0	47	104	0	60	1048575
2026-01-18 03:42:40.20	320.60	14.76	-85.2	-88.6	3.2	1.55e+00	0	47	104	0	60	1048573
2026-01-18 03:42:44.23	319.91	14.52	-85.2	-88.6	3.2	1.56e+00	0	47	104	0	60	1048575
2026-01-18 03:42:48.25	319.24	14.27	-85.2	-88.6	3.0	1.56e+00	0	47	104	0	60	1048574
2026-01-18 03:42:52.27	318.58	14.03	-85.2	-88.6	3.1	1.56e+00	0	47	104	0	60	1048570
2026-01-18 03:42:56.30	317.93	13.78	-84.7	-88.6	3.1	1.56e+00	0	47	104	0	60	1048574
2026-01-18 03:43:00.32	317.28	13.53	-85.2	-88.6	3.1	1.55e+00	0	47	104	0	60	1048575
2026-01-18 03:43:04.34	316.66	13.28	-85.2	-88.6	3.1	1.56e+00	0	47	104	0	60	1048575
2026-01-18 03:43:08.36	316.04	13.03	-85.2	-88.6	3.2	1.56e+00	0	47	104	0	60	1048575
2026-01-18 03:43:12.38	315.43	12.77	-85.2	-88.6	3.0	1.56e+00	0	47	104	0	60	1048575
2026-01-18 03:43:16.41	314.83	12.52	-85.2	-88.6	3.0	1.56e+00	0	47	104	0	60	1048575
2026-01-18 03:43:20.45	314.24	12.27	-85.2	-88.6	3.1	1.56e+00	0	47	104	0	60	1048571
2026-01-18 03:43:24.46	313.67	12.01	-85.2	-88.6	3.1	1.55e+00	0	47	104	0	60	1048575
2026-01-18 03:43:28.47	313.10	11.76	-85.2	-88.6	2.9	1.55e+00	0	47	104	0	60	1048575
2026-01-18 03:43:32.50	312.54	11.51	-85.2	-88.6	3.2	1.55e+00	0	47	104	0	60	1048575
2026-01-18 03:43:36.53	311.99	11.25	-85.2	-88.6	2.9	1.56e+00	0	47	104	0	60	1048571
2026-01-18 03:43:40.56	311.45	11.00	-85.2	-88.6	2.9	1.56e+00	0	47	104	0	60	1048575
2026-01-18 03:43:44.59	310.93	10.74	-85.2	-88.6	3.2	1.56e+00	0	47	104	0	60	1048573
2026-01-18 03:43:48.62	310.41	10.49	-85.2	-88.6	3.0	1.56e+00	0	47	104	0	60	1048573
2026-01-18 03:43:52.65	309.89	10.24	-85.2	-88.6	3.1	1.56e+00	0	47	104	0	60	1048574
2026-01-18 03:43:56.68	309.39	9.98	-85.2	-88.6	3.0	1.56e+00	0	47	104	0	60	1048574
2026-01-18 03:44:00.70	308.90	9.73	-85.2	-88.6	2.9	1.55e+00	0	47	104	0	60	1048573
2026-01-18 03:44:04.73	308.42	9.48	-85.2	-88.6	3.0	1.56e+00	0	47	104	0	60	1048573
2026-01-18 03:44:08.76	307.94	9.23	-85.2	-88.6	2.9	1.56e+00	0	47	104	0	60	1048574
2026-01-18 03:44:12.78	307.47	8.98	-85.2	-88.6	3.2	1.56e+00	0	47	104	0	60	1048575
2026-01-18 03:44:16.81	307.01	8.73	-85.2	-88.6	3.1	1.55e+00	0	47	104	0	60	1048574
2026-01-18 03:44:20.83	306.56	8.48	-85.2	-88.6	2.9	1.56e+00	0	47	104	0	60	1048575
2026-01-18 03:44:24.87	306.12	8.23	-85.2	-88.6	3.2	1.55e+00	0	47	104	0	60	1048572
2026-01-18 03:44:28.89	305.68	7.98	-85.2	-88.6	3.0	1.56e+00	0	47	104	0	60	1048573
2026-01-18 03:44:32.92	305.26	7.74	-85.2	-88.6	2.8	1.56e+00	0	47	104	0	60	1048575
2026-01-18 03:44:36.95	304.84	7.49	-85.2	-88.6	2.9	1.56e+00	0	47	104	0	60	1048575
2026-01-18 03:44:40.98	304.42	7.24	-85.2	-88.6	3.1	1.55e+00	0	47	104	0	60	1048572
2026-01-18 03:44:45.01	304.02	7.00	-85.2	-88.6	2.9	1.56e+00	0	47	104	0	60	1048574
2026-01-18 03:44:49.03	303.62	6.76	-85.2	-88.6	3.1	1.56e+00	0	47	104	0	60	1048574
2026-01-18 03:44:53.05	303.22	6.52	-85.2	-88.6	3.1	1.55e+00	0	47	104	0	60	1048575
2026-01-18 03:44:57.08	302.84	6.28	-85.2	-88.6	2.9	1.55e+00	0	47	104	0	60	1048574
2026-01-18 03:45:01.10	302.46	6.04	-85.2	-88.6	3.0	1.56e+00	0	47	104	0	60	1048571
2026-01-18 03:45:05.12	302.09	5.80	-85.2	-88.6	2.9	1.56e+00	0	47	104	0	60	1048572
2026-01-18 03:45:09.15	301.72	5.56	-85.2	-88.6	3.1	1.56e+00	0	47	104	0	60	1048575
2026-01-18 03:45:13.19	301.36	5.32	-85.2	-88.6	3.1	1.55e+00	0	47	104	0	60	1048571
2026-01-18 03:45:17.22	301.00	5.08	-85.2	-88.6	3.0	1.56e+00	0	47	104	0	60	1048574
2026-01-18 03:45:21.25	300.66	4.85	-85.2	-88.6	2.9	1.56e+00	0	47	104	0	60	1048575
2026-01-18 03:45:25.27	300.31	4.62	-85.2	-88.6	3.0	1.55e+00	0	47	104	0	60	1048575
2026-01-18 03:45:29.30	299.98	4.38	-85.2	-88.6	3.0	1.55e+00	0	47	104	0	60	1048575
2026-01-18 03:45:33.32	299.64	4.15	-85.2	-88.6	3.0	1.55e+00	0	47	104	0	60	1048575
2026-01-18 03:45:37.35	299.32	3.92	-85.2	-88.6	3.0	1.55e+00	0	47	104	0	60	1048575
2026-01-18 03:45:41.37	299.00	3.69	-85.2	-88.6	3.0	1.55e+00	0	47	104	0	60	1048575
2026-01-18 03:45:45.40	298.68	3.46	-85.2	-88.6	2.9	1.56e+00	0	47	104	0	60	1048575
2026-01-18 03:45:49.43	298.37	3.24	-85.2	-88.6	2.8	1.55e+00	0	47	104	0	60	1048575
2026-01-18 03:45:53.46	298.06	3.01	-85.2	-88.6	3.1	1.56e+00	0	47	104	0	60	1048575
2026-01-18 03:45:57.48	297.76	2.78	-85.2	-88.6	3.0	1.55e+00	0	47	104	0	60	1048573
2026-01-18 03:46:01.50	297.47	2.56	-85.2	-88.6	2.9	1.56e+00	0	47	104	0	60	1048575
2026-01-18 03:46:05.53	297.18	2.34	-85.2	-88.6	3.1	1.56e+00	0	47	104	0	60	1048575
2026-01-18 03:46:09.55	296.89	2.12	-85.2	-88.6	3.1	1.56e+00	0	47	104	0	60	1048572
2026-01-18 03:46:13.58	296.61	1.89	-85.2	-88.6	3.0	1.56e+00	0	47	104	0	60	1048575
2026-01-18 03:46:17.61	296.33	1.67	-85.2	-88.6	3.0	1.56e+00	0	47	104	0	60	1048573
2026-01-18 03:46:21.65	296.05	1.45	-85.2	-88.6	3.0	1.56e+00	0	47	104	0	60	1048568
2026-01-18 03:46:25.68	295.78	1.24	-85.2	-88.6	3.0	1.56e+00	0	47	104	0	60	1048574
2026-01-18 03:46:29.70	295.52	1.02	-85.2	-88.6	3.0	1.56e+00	0	47	104	0	60	1048573
2026-01-18 03:46:33.73	295.26	0.80	-85.2	-88.6	3.3	1.56e+00	0	47	104	0	60	1048572
2026-01-18 03:46:37.76	295.00	0.59	-85.2	-88.6	2.9	1.56e+00	0	47	104	0	60	1048573
2026-01-18 03:46:41.79	294.75	0.38	-84.3	-88.6	3.0	1.56e+00	0	47	104	0	60	1048575
2026-01-18 03:46:45.82	294.50	0.16	-85.2	-88.6	2.9	1.55e+00	0	47	104	0	60	1048574

#Closed at: 2026-01-18 03:46:49
#Recorded file [0 MB]: D:/Data/35015_260118_063320.dat