passes_logs/2026/01/18/R3.2S-Naryan-Mar/R3.2S-Naryan-Mar__20260118_063905_TY-42_rec.log

#Pass ID: 20260118_063905_TY-42
#Satellite: TY-42
#Configuration: TY-42
#almurnet v.1.7.20240730
#Start time: 2026-01-18 06:39:10

#Version: 2.2.20231116
#Station: R3.2S-Naryan-Mar
#Location: 53.008057 lon 67.646978 lat
#TLE: 1 64048U 25103A   26017.93564815  .00008007  00000-0  38191-3 0 09990
#TLE: 2 64048 097.4124 093.2979 0001864 092.4902 292.6580 15.19155384 37267

#Time	Az	El	Level	Level2	SNR	BER	BlckErr	Temp	State	Recorded	gain1	gain2
2026-01-18 06:39:10.26	20.21	0.28	-85.2	-88.8	3.0	1.56e+00	0	45	0	0	60	1048573
2026-01-18 06:39:13.28	20.40	0.46	-83.1	-79.0	2.4	0.00e+00	0	46	104	0	60	1048575
2026-01-18 06:39:16.29	20.59	0.65	-83.1	-79.0	2.4	0.00e+00	0	47	104	0	60	1048575
2026-01-18 06:39:19.32	20.79	0.83	-83.5	-79.0	2.5	0.00e+00	0	47	104	0	60	1048574
2026-01-18 06:39:22.34	20.99	1.01	-83.1	-79.0	2.5	0.00e+00	0	47	104	0	60	1048573
2026-01-18 06:39:25.36	21.19	1.20	-83.5	-79.0	2.4	0.00e+00	0	47	104	0	60	1048566
2026-01-18 06:39:28.38	21.39	1.39	-83.1	-79.0	2.4	0.00e+00	0	47	104	0	60	1048574
2026-01-18 06:39:31.40	21.60	1.58	-83.5	-79.0	2.4	0.00e+00	0	47	104	0	60	1048575
2026-01-18 06:39:34.41	21.81	1.77	-83.1	-79.0	2.3	0.00e+00	0	47	104	0	60	1048573
2026-01-18 06:39:37.43	22.02	1.96	-83.1	-79.0	2.4	0.00e+00	0	47	104	0	60	1048575
2026-01-18 06:39:40.46	22.24	2.15	-83.5	-79.0	2.4	0.00e+00	0	47	104	0	60	1048573
2026-01-18 06:39:43.48	22.46	2.35	-83.5	-79.0	2.4	0.00e+00	0	47	104	0	60	1048574
2026-01-18 06:39:46.49	22.68	2.54	-83.1	-79.0	2.5	0.00e+00	0	47	104	0	60	1048572
2026-01-18 06:39:49.51	22.91	2.74	-83.5	-79.0	2.4	0.00e+00	0	47	104	0	60	1048574
2026-01-18 06:39:52.53	23.14	2.94	-83.5	-79.0	2.3	0.00e+00	0	47	104	0	60	1048573
2026-01-18 06:39:55.55	23.37	3.14	-83.5	-79.0	2.4	0.00e+00	0	47	104	0	60	1048570
2026-01-18 06:39:58.57	23.61	3.34	-83.5	-79.0	2.5	0.00e+00	0	47	104	0	60	1048572
2026-01-18 06:40:01.60	23.86	3.55	-83.1	-79.0	2.4	0.00e+00	0	47	104	0	60	1048571
2026-01-18 06:40:04.62	24.10	3.75	-83.5	-79.0	2.4	0.00e+00	0	48	104	0	60	1048575
2026-01-18 06:40:07.63	24.35	3.96	-83.5	-79.0	2.3	0.00e+00	0	47	104	0	60	1048574
2026-01-18 06:40:10.65	24.61	4.17	-83.1	-79.0	2.4	0.00e+00	0	48	104	0	60	1048570
2026-01-18 06:40:13.67	24.87	4.38	-83.5	-79.0	2.4	0.00e+00	0	48	104	0	60	1048571
2026-01-18 06:40:16.69	25.13	4.59	-83.5	-79.0	2.3	0.00e+00	0	48	104	0	60	1048570
2026-01-18 06:40:19.71	25.40	4.81	-83.1	-79.0	2.4	0.00e+00	0	48	104	0	60	1048575
2026-01-18 06:40:22.73	25.68	5.02	-83.5	-79.0	2.5	0.00e+00	0	48	104	0	60	1048575
2026-01-18 06:40:25.76	25.95	5.24	-83.1	-79.0	2.4	0.00e+00	0	48	104	0	60	1048573
2026-01-18 06:40:28.78	26.24	5.46	-83.5	-79.0	2.4	0.00e+00	0	48	104	0	60	1048574
2026-01-18 06:40:31.80	26.53	5.69	-83.1	-79.0	2.4	0.00e+00	0	48	104	0	60	1048573
2026-01-18 06:40:34.82	26.82	5.91	-83.1	-79.0	2.3	0.00e+00	0	48	104	0	60	1048575
2026-01-18 06:40:37.84	27.12	6.14	-83.5	-79.0	2.4	0.00e+00	0	48	104	0	60	1048574
2026-01-18 06:40:40.86	27.43	6.36	-83.5	-79.0	2.4	0.00e+00	0	48	104	0	60	1048573
2026-01-18 06:40:43.88	27.74	6.60	-83.1	-79.0	2.3	0.00e+00	0	48	104	0	60	1048562
2026-01-18 06:40:46.91	28.05	6.83	-83.5	-79.0	2.5	0.00e+00	0	48	104	0	60	1048574
2026-01-18 06:40:49.93	28.38	7.06	-83.5	-79.0	2.4	0.00e+00	0	48	104	0	60	1048571
2026-01-18 06:40:52.96	28.71	7.30	-83.1	-79.0	2.3	0.00e+00	0	48	104	0	60	1048572
2026-01-18 06:40:55.98	29.04	7.54	-83.5	-79.0	2.3	0.00e+00	0	48	104	0	60	1048571
2026-01-18 06:40:59.00	29.39	7.78	-83.5	-79.0	2.4	0.00e+00	0	48	104	0	60	1048571
2026-01-18 06:41:02.02	29.74	8.03	-83.5	-79.0	2.3	0.00e+00	0	48	104	0	60	1048574
2026-01-18 06:41:05.04	30.09	8.27	-83.5	-79.0	2.4	0.00e+00	0	48	104	0	60	1048567
2026-01-18 06:41:08.06	30.46	8.52	-83.1	-79.0	2.3	0.00e+00	0	48	104	0	60	1048575
2026-01-18 06:41:11.08	30.83	8.77	-83.5	-79.0	2.5	0.00e+00	0	48	104	0	60	1048567
2026-01-18 06:41:14.10	31.21	9.03	-83.5	-79.0	2.5	0.00e+00	0	48	104	0	60	1048563
2026-01-18 06:41:17.12	31.59	9.28	-83.1	-79.0	2.4	0.00e+00	0	48	104	0	60	1048573
2026-01-18 06:41:20.15	31.99	9.54	-83.5	-79.0	2.3	0.00e+00	0	48	104	0	60	1048563
2026-01-18 06:41:23.17	32.39	9.81	-83.5	-79.0	2.6	0.00e+00	0	48	104	0	60	1048574
2026-01-18 06:41:26.19	32.80	10.07	-83.5	-79.0	2.5	0.00e+00	0	48	104	0	60	1048574
2026-01-18 06:41:29.21	33.22	10.34	-83.5	-79.0	2.2	0.00e+00	0	48	104	0	60	1048575
2026-01-18 06:41:32.23	33.65	10.61	-83.1	-79.0	2.4	0.00e+00	0	48	104	0	60	1048575
2026-01-18 06:41:35.25	34.09	10.88	-83.5	-79.0	2.4	0.00e+00	0	48	104	0	60	1048572
2026-01-18 06:41:38.27	34.54	11.15	-83.5	-79.0	2.4	0.00e+00	0	48	104	0	60	1048567
2026-01-18 06:41:41.29	35.00	11.43	-83.1	-79.0	2.4	0.00e+00	0	48	104	0	60	1048570
2026-01-18 06:41:44.32	35.47	11.71	-83.5	-79.0	2.3	0.00e+00	0	48	104	0	60	1048572
2026-01-18 06:41:47.33	35.95	12.00	-83.5	-79.0	2.4	0.00e+00	0	48	104	0	60	1048570
2026-01-18 06:41:50.36	36.45	12.28	-83.1	-79.0	2.5	0.00e+00	0	48	104	0	60	1048574
2026-01-18 06:41:53.38	36.95	12.57	-83.5	-79.0	2.4	0.00e+00	0	48	104	0	60	1048571
2026-01-18 06:41:56.41	37.47	12.86	-83.5	-79.0	2.5	0.00e+00	0	48	104	0	60	1048575
2026-01-18 06:41:59.42	37.99	13.16	-83.5	-79.0	2.4	0.00e+00	0	48	104	0	60	1048574
2026-01-18 06:42:02.44	38.53	13.45	-83.5	-79.0	2.3	0.00e+00	0	48	104	0	60	1048567
2026-01-18 06:42:05.46	39.08	13.75	-83.5	-79.0	2.5	0.00e+00	0	49	104	0	60	1048574
2026-01-18 06:42:08.49	39.65	14.06	-83.5	-79.0	2.5	0.00e+00	0	49	104	0	60	1048574
2026-01-18 06:42:11.51	40.23	14.36	-83.5	-79.0	2.5	0.00e+00	0	49	104	0	60	1048571
2026-01-18 06:42:14.53	40.82	14.67	-83.1	-79.0	2.3	0.00e+00	0	48	104	0	60	1048575
2026-01-18 06:42:17.55	41.43	14.98	-83.5	-79.0	2.3	0.00e+00	0	48	104	0	60	1048575
2026-01-18 06:42:20.57	42.05	15.29	-83.5	-79.0	2.4	0.00e+00	0	48	104	0	60	1048574
2026-01-18 06:42:23.58	42.68	15.61	-83.1	-79.0	2.4	0.00e+00	0	48	104	0	60	1048572
2026-01-18 06:42:26.60	43.33	15.92	-83.5	-79.0	2.4	0.00e+00	0	48	104	0	60	1048566
2026-01-18 06:42:29.62	44.00	16.24	-83.5	-79.0	2.3	0.00e+00	0	49	104	0	60	1048575
2026-01-18 06:42:32.64	44.69	16.57	-83.1	-79.0	2.5	0.00e+00	0	49	104	0	60	1048573
2026-01-18 06:42:35.66	45.39	16.89	-83.5	-79.0	2.4	0.00e+00	0	49	104	0	60	1048567
2026-01-18 06:42:38.68	46.11	17.21	-83.5	-79.0	2.5	0.00e+00	0	49	104	0	60	1048575
2026-01-18 06:42:41.70	46.85	17.54	-83.5	-79.0	2.5	0.00e+00	0	49	104	0	60	1048574
2026-01-18 06:42:44.72	47.60	17.87	-83.5	-79.0	2.4	0.00e+00	0	49	104	0	60	1048574
2026-01-18 06:42:47.74	48.38	18.20	-83.1	-79.0	2.3	0.00e+00	0	49	104	0	60	1048562
2026-01-18 06:42:50.76	49.17	18.53	-83.5	-79.0	2.3	0.00e+00	0	49	104	0	60	1048573
2026-01-18 06:42:53.79	49.99	18.86	-83.5	-79.0	2.4	0.00e+00	0	49	104	0	60	1048575
2026-01-18 06:42:56.80	50.82	19.19	-83.1	-79.0	2.3	0.00e+00	0	49	104	0	60	1048570
2026-01-18 06:42:59.81	51.67	19.52	-83.5	-79.0	2.5	0.00e+00	0	49	104	0	60	1048571
2026-01-18 06:43:02.82	52.55	19.85	-83.5	-79.0	2.3	0.00e+00	0	49	104	0	60	1048575
2026-01-18 06:43:05.83	53.44	20.18	-83.5	-79.0	2.4	0.00e+00	0	49	104	0	60	1048574
2026-01-18 06:43:08.84	54.36	20.51	-83.5	-79.0	2.4	0.00e+00	0	49	104	0	60	1048570
2026-01-18 06:43:11.87	55.30	20.84	-82.8	-79.0	2.3	0.00e+00	0	49	104	0	60	1048573
2026-01-18 06:43:14.89	56.27	21.17	-83.5	-79.0	2.4	0.00e+00	0	49	104	0	60	1048574
2026-01-18 06:43:17.92	57.26	21.50	-83.5	-79.0	2.3	0.00e+00	0	49	104	0	60	1048575
2026-01-18 06:43:20.94	58.27	21.82	-83.1	-79.0	2.4	0.00e+00	0	49	104	0	60	1048565
2026-01-18 06:43:23.95	59.30	22.14	-83.5	-79.0	2.3	0.00e+00	0	49	104	0	60	1048575
2026-01-18 06:43:26.97	60.36	22.45	-83.1	-79.0	2.4	0.00e+00	0	49	104	0	60	1048573
2026-01-18 06:43:29.98	61.44	22.76	-83.1	-79.0	2.5	0.00e+00	0	49	104	0	60	1048572
2026-01-18 06:43:32.99	62.54	23.06	-83.5	-79.0	2.5	0.00e+00	0	49	104	0	60	1048574
2026-01-18 06:43:36.02	63.67	23.36	-83.5	-79.0	2.4	0.00e+00	0	49	104	0	60	1048573
2026-01-18 06:43:39.04	64.83	23.66	-83.5	-79.0	2.4	0.00e+00	0	49	104	0	60	1048575
2026-01-18 06:43:42.05	66.00	23.94	-83.5	-79.0	2.4	0.00e+00	0	49	104	0	60	1048575
2026-01-18 06:43:45.06	67.20	24.22	-82.8	-79.0	2.4	0.00e+00	0	49	104	0	60	1048575
2026-01-18 06:43:48.08	68.42	24.49	-83.5	-79.0	2.4	0.00e+00	0	49	104	0	60	1048574
2026-01-18 06:43:51.11	69.67	24.75	-83.5	-79.0	2.4	0.00e+00	0	49	104	0	60	1048571
2026-01-18 06:43:54.13	70.94	24.99	-83.1	-79.0	2.5	0.00e+00	0	49	104	0	60	1048573
2026-01-18 06:43:57.15	72.24	25.23	-83.5	-79.0	2.2	0.00e+00	0	49	104	0	60	1048575
2026-01-18 06:44:00.16	73.54	25.46	-83.5	-79.0	2.5	0.00e+00	0	49	104	0	60	1048575
2026-01-18 06:44:03.18	74.88	25.67	-83.1	-79.0	2.4	0.00e+00	0	49	104	0	60	1048574
2026-01-18 06:44:06.20	76.23	25.87	-83.5	-79.0	2.3	0.00e+00	0	49	104	0	60	1048571
2026-01-18 06:44:09.23	77.60	26.06	-83.1	-79.0	2.5	0.00e+00	0	49	104	0	60	1048567
2026-01-18 06:44:12.25	78.99	26.23	-83.5	-79.0	2.3	0.00e+00	0	49	104	0	60	1048575
2026-01-18 06:44:15.27	80.39	26.39	-83.5	-79.0	2.4	0.00e+00	0	49	104	0	60	1048575
2026-01-18 06:44:18.29	81.81	26.53	-83.1	-79.0	2.3	0.00e+00	0	49	104	0	60	1048571
2026-01-18 06:44:21.31	83.24	26.65	-83.5	-79.0	2.4	0.00e+00	0	49	104	0	60	1048573
2026-01-18 06:44:24.33	84.68	26.76	-83.5	-79.0	2.4	0.00e+00	0	49	104	0	60	1048567
2026-01-18 06:44:27.36	86.14	26.85	-83.1	-79.0	2.5	0.00e+00	0	49	104	0	60	1048575
2026-01-18 06:44:30.38	87.60	26.92	-83.5	-79.0	2.4	0.00e+00	0	49	104	0	60	1048575
2026-01-18 06:44:33.39	89.06	26.97	-83.5	-79.0	2.5	0.00e+00	0	49	104	0	60	1048574
2026-01-18 06:44:36.41	90.53	27.01	-83.1	-79.0	2.3	0.00e+00	0	49	104	0	60	1048575
2026-01-18 06:44:39.44	92.01	27.02	-83.5	-79.0	2.4	0.00e+00	0	49	104	0	60	1048575
2026-01-18 06:44:42.46	93.48	27.02	-83.1	-79.0	2.2	0.00e+00	0	49	104	0	60	1048572
2026-01-18 06:44:45.48	94.95	27.00	-83.5	-79.0	2.5	0.00e+00	0	49	104	0	60	1048559
2026-01-18 06:44:48.50	96.42	26.96	-83.5	-79.0	2.4	0.00e+00	0	49	104	0	60	1048575
2026-01-18 06:44:51.52	97.89	26.90	-82.8	-79.0	2.3	0.00e+00	0	49	104	0	60	1048558
2026-01-18 06:44:54.54	99.35	26.82	-83.5	-79.0	2.3	0.00e+00	0	49	104	0	60	1048575
2026-01-18 06:44:57.57	100.80	26.73	-83.5	-79.0	2.4	0.00e+00	0	49	104	0	60	1048570
2026-01-18 06:45:00.60	102.25	26.62	-82.8	-79.0	2.5	0.00e+00	0	49	104	0	60	1048574
2026-01-18 06:45:03.61	103.67	26.49	-83.5	-79.0	2.3	0.00e+00	0	49	104	0	60	1048573
2026-01-18 06:45:06.63	105.09	26.34	-83.5	-79.0	2.3	0.00e+00	0	49	104	0	60	1048575
2026-01-18 06:45:09.65	106.49	26.18	-83.5	-79.0	2.4	0.00e+00	0	49	104	0	60	1048575
2026-01-18 06:45:12.68	107.88	26.01	-83.5	-79.0	2.4	0.00e+00	0	49	104	0	60	1048572
2026-01-18 06:45:15.70	109.25	25.81	-83.1	-79.0	2.4	0.00e+00	0	49	104	0	60	1048574
2026-01-18 06:45:18.72	110.60	25.61	-83.5	-79.0	2.4	0.00e+00	0	49	104	0	60	1048574
2026-01-18 06:45:21.74	111.93	25.39	-83.5	-79.0	2.4	0.00e+00	0	49	104	0	60	1048573
2026-01-18 06:45:24.76	113.24	25.16	-83.1	-79.0	2.5	0.00e+00	0	49	104	0	60	1048575
2026-01-18 06:45:27.78	114.53	24.92	-83.5	-79.0	2.4	0.00e+00	0	49	104	0	60	1048571
2026-01-18 06:45:30.80	115.80	24.67	-83.5	-79.0	2.3	0.00e+00	0	49	104	0	60	1048568
2026-01-18 06:45:33.83	117.04	24.40	-82.8	-79.0	2.4	0.00e+00	0	49	104	0	60	1048573
2026-01-18 06:45:36.84	118.26	24.13	-83.5	-79.0	2.3	0.00e+00	0	49	104	0	60	1048574
2026-01-18 06:45:39.86	119.46	23.85	-83.5	-79.0	2.5	0.00e+00	0	49	104	0	60	1048573
2026-01-18 06:45:42.88	120.63	23.56	-83.5	-79.0	2.3	0.00e+00	0	49	104	0	60	1048567
2026-01-18 06:45:45.90	121.79	23.26	-83.5	-79.0	2.5	0.00e+00	0	49	104	0	60	1048567
2026-01-18 06:45:48.93	122.92	22.96	-83.1	-79.0	2.5	0.00e+00	0	49	104	0	60	1048566
2026-01-18 06:45:51.95	124.02	22.65	-83.5	-79.0	2.4	0.00e+00	0	49	104	0	60	1048571
2026-01-18 06:45:54.96	125.10	22.34	-83.5	-79.0	2.4	0.00e+00	0	49	104	0	60	1048573
2026-01-18 06:45:57.98	126.15	22.02	-83.1	-79.0	2.3	0.00e+00	0	49	104	0	60	1048575
2026-01-18 06:46:00.99	127.18	21.70	-83.5	-79.0	2.4	0.00e+00	0	49	104	0	60	1048575
2026-01-18 06:46:04.02	128.19	21.38	-83.5	-79.0	2.4	0.00e+00	0	49	104	0	60	1048574
2026-01-18 06:46:07.04	129.17	21.05	-83.1	-79.0	2.4	0.00e+00	0	49	104	0	60	1048565
2026-01-18 06:46:10.06	130.14	20.72	-83.5	-79.0	2.4	0.00e+00	0	49	104	0	60	1048575
2026-01-18 06:46:13.08	131.08	20.39	-83.5	-79.0	2.5	0.00e+00	0	49	104	0	60	1048575
2026-01-18 06:46:16.11	132.00	20.05	-83.5	-79.0	2.4	0.00e+00	0	49	104	0	60	1048574
2026-01-18 06:46:19.13	132.89	19.72	-83.5	-79.0	2.4	0.00e+00	0	49	104	0	60	1048566
2026-01-18 06:46:22.16	133.77	19.38	-83.1	-79.0	2.4	0.00e+00	0	49	104	0	60	1048571
2026-01-18 06:46:25.17	134.62	19.05	-83.5	-79.0	2.4	0.00e+00	0	49	104	0	60	1048575
2026-01-18 06:46:28.19	135.45	18.72	-83.5	-79.0	2.3	0.00e+00	0	49	104	0	60	1048575
2026-01-18 06:46:31.20	136.25	18.39	-82.8	-79.0	2.3	0.00e+00	0	49	104	0	60	1048575
2026-01-18 06:46:34.22	137.05	18.05	-83.5	-79.0	2.4	0.00e+00	0	49	104	0	60	1048565
2026-01-18 06:46:37.25	137.82	17.72	-83.1	-79.0	2.4	0.00e+00	0	49	104	0	60	1048573
2026-01-18 06:46:40.27	138.57	17.39	-83.5	-79.0	2.4	0.00e+00	0	49	104	0	60	1048573
2026-01-18 06:46:43.29	139.31	17.06	-83.5	-79.0	2.4	0.00e+00	0	49	104	0	60	1048575
2026-01-18 06:46:46.31	140.03	16.73	-83.1	-79.0	2.4	0.00e+00	0	49	104	0	60	1048575
2026-01-18 06:46:49.32	140.72	16.41	-83.5	-79.0	2.4	0.00e+00	0	49	104	0	60	1048575
2026-01-18 06:46:52.35	141.41	16.09	-83.5	-79.0	2.5	0.00e+00	0	49	104	0	60	1048574
2026-01-18 06:46:55.37	142.07	15.76	-83.1	-79.0	2.3	0.00e+00	0	49	104	0	60	1048575
2026-01-18 06:46:58.40	142.72	15.44	-83.5	-79.0	2.3	0.00e+00	0	49	104	0	60	1048563
2026-01-18 06:47:01.41	143.36	15.13	-83.5	-79.0	2.3	0.00e+00	0	49	104	0	60	1048571
2026-01-18 06:47:04.42	143.97	14.82	-82.8	-79.0	2.5	0.00e+00	0	49	104	0	60	1048575
2026-01-18 06:47:07.44	144.58	14.50	-83.5	-79.0	2.4	0.00e+00	0	49	104	0	60	1048574
2026-01-18 06:47:10.46	145.17	14.20	-83.1	-79.0	2.4	0.00e+00	0	49	104	0	60	1048573
2026-01-18 06:47:13.49	145.75	13.89	-83.5	-79.0	2.4	0.00e+00	0	49	104	0	60	1048575
2026-01-18 06:47:16.51	146.31	13.58	-83.5	-79.0	2.4	0.00e+00	0	49	104	0	60	1048574
2026-01-18 06:47:19.53	146.86	13.28	-83.5	-79.0	2.3	0.00e+00	0	49	104	0	60	1048575
2026-01-18 06:47:22.54	147.39	12.99	-83.5	-79.0	2.5	0.00e+00	0	49	104	0	60	1048572
2026-01-18 06:47:25.56	147.92	12.69	-83.5	-79.0	2.4	0.00e+00	0	49	104	0	60	1048573
2026-01-18 06:47:28.58	148.43	12.40	-83.1	-79.0	2.4	0.00e+00	0	49	104	0	60	1048572
2026-01-18 06:47:31.60	148.93	12.11	-83.5	-79.0	2.3	0.00e+00	0	49	104	0	60	1048571
2026-01-18 06:47:34.63	149.42	11.82	-83.5	-79.0	2.4	0.00e+00	0	49	104	0	60	1048570
2026-01-18 06:47:37.65	149.90	11.54	-83.1	-79.0	2.4	0.00e+00	0	49	104	0	60	1048575
2026-01-18 06:47:40.67	150.36	11.26	-83.5	-79.0	2.4	0.00e+00	0	49	104	0	60	1048570
2026-01-18 06:47:43.70	150.82	10.98	-83.1	-79.0	2.4	0.00e+00	0	49	104	0	60	1048575
2026-01-18 06:47:46.72	151.27	10.70	-83.1	-79.0	2.4	0.00e+00	0	49	104	0	60	1048575
2026-01-18 06:47:49.74	151.71	10.43	-83.5	-79.0	2.5	0.00e+00	0	49	104	0	60	1048575
2026-01-18 06:47:52.76	152.13	10.16	-83.1	-79.0	2.3	0.00e+00	0	49	104	0	60	1048569
2026-01-18 06:47:55.78	152.55	9.89	-83.5	-79.0	2.5	0.00e+00	0	49	104	0	60	1048571
2026-01-18 06:47:58.80	152.96	9.62	-83.5	-79.0	2.5	0.00e+00	0	49	104	0	60	1048573
2026-01-18 06:48:01.81	153.36	9.36	-83.1	-79.0	2.3	0.00e+00	0	49	104	0	60	1048573
2026-01-18 06:48:04.83	153.75	9.10	-83.5	-79.0	2.4	0.00e+00	0	49	104	0	60	1048575
2026-01-18 06:48:07.85	154.14	8.85	-83.5	-79.0	2.4	0.00e+00	0	49	104	0	60	1048572
2026-01-18 06:48:10.86	154.51	8.59	-83.5	-79.0	2.4	0.00e+00	0	49	104	0	60	1048575
2026-01-18 06:48:13.88	154.88	8.34	-83.5	-79.0	2.4	0.00e+00	0	49	104	0	60	1048572
2026-01-18 06:48:16.91	155.25	8.09	-83.5	-79.0	2.3	0.00e+00	0	49	104	0	60	1048575
2026-01-18 06:48:19.93	155.60	7.84	-83.5	-79.0	2.4	0.00e+00	0	49	104	0	60	1048574
2026-01-18 06:48:22.95	155.95	7.60	-83.5	-79.0	2.3	0.00e+00	0	49	104	0	60	1048571
2026-01-18 06:48:25.97	156.29	7.36	-83.1	-79.0	2.5	0.00e+00	0	49	104	0	60	1048575
2026-01-18 06:48:28.98	156.62	7.12	-83.5	-79.0	2.3	0.00e+00	0	49	104	0	60	1048574
2026-01-18 06:48:32.01	156.95	6.88	-83.5	-79.0	2.5	0.00e+00	0	49	104	0	60	1048573
2026-01-18 06:48:35.03	157.27	6.64	-83.1	-79.0	2.4	0.00e+00	0	49	104	0	60	1048574
2026-01-18 06:48:38.04	157.58	6.41	-83.5	-79.0	2.4	0.00e+00	0	49	104	0	60	1048574
2026-01-18 06:48:41.06	157.89	6.18	-83.5	-79.0	2.4	0.00e+00	0	49	104	0	60	1048574
2026-01-18 06:48:44.09	158.19	5.95	-83.1	-79.0	2.5	0.00e+00	0	49	104	0	60	1048575
2026-01-18 06:48:47.12	158.49	5.72	-83.5	-79.0	2.6	0.00e+00	0	49	104	0	60	1048573
2026-01-18 06:48:50.14	158.78	5.50	-83.1	-79.0	2.3	0.00e+00	0	49	104	0	60	1048571
2026-01-18 06:48:53.17	159.07	5.27	-83.1	-79.0	2.4	0.00e+00	0	49	104	0	60	1048568
2026-01-18 06:48:56.19	159.35	5.05	-83.5	-79.0	2.5	0.00e+00	0	49	104	0	60	1048575
2026-01-18 06:48:59.21	159.63	4.83	-83.1	-79.0	2.4	0.00e+00	0	49	104	0	60	1048575
2026-01-18 06:49:02.22	159.90	4.62	-83.5	-79.0	2.4	0.00e+00	0	49	104	0	60	1048570
2026-01-18 06:49:05.24	160.16	4.40	-83.5	-79.0	2.4	0.00e+00	0	49	104	0	60	1048570
2026-01-18 06:49:08.26	160.43	4.19	-83.1	-79.0	2.4	0.00e+00	0	49	104	0	60	1048575
2026-01-18 06:49:11.28	160.68	3.98	-83.5	-79.0	2.4	0.00e+00	0	49	104	0	60	1048568
2026-01-18 06:49:14.29	160.94	3.77	-83.5	-79.0	2.3	0.00e+00	0	49	104	0	60	1048574
2026-01-18 06:49:17.32	161.18	3.56	-83.1	-79.0	2.4	0.00e+00	0	49	104	0	60	1048573
2026-01-18 06:49:20.34	161.43	3.35	-83.5	-79.0	2.4	0.00e+00	0	49	104	0	60	1048567
2026-01-18 06:49:23.36	161.67	3.15	-83.1	-79.0	2.4	0.00e+00	0	49	104	0	60	1048574
2026-01-18 06:49:26.39	161.91	2.94	-83.5	-79.0	2.4	0.00e+00	0	49	104	0	60	1048567
2026-01-18 06:49:29.40	162.14	2.74	-83.5	-79.0	2.4	0.00e+00	0	49	104	0	60	1048575
2026-01-18 06:49:32.42	162.37	2.54	-83.1	-79.0	2.3	0.00e+00	0	49	104	0	60	1048571
2026-01-18 06:49:35.44	162.59	2.35	-83.5	-79.0	2.3	0.00e+00	0	49	104	0	60	1048571
2026-01-18 06:49:38.46	162.81	2.15	-83.5	-79.0	2.4	0.00e+00	0	49	104	0	60	1048572
2026-01-18 06:49:41.49	163.03	1.95	-83.1	-79.0	2.3	0.00e+00	0	49	104	0	60	1048573
2026-01-18 06:49:44.51	163.25	1.76	-83.5	-79.0	2.4	0.00e+00	0	49	104	0	60	1048575
2026-01-18 06:49:47.52	163.46	1.57	-83.5	-79.0	2.4	0.00e+00	0	49	104	0	60	1048574
2026-01-18 06:49:50.54	163.66	1.38	-83.5	-79.0	2.5	0.00e+00	0	49	104	0	60	1048575
2026-01-18 06:49:53.56	163.87	1.19	-83.5	-79.0	2.4	0.00e+00	0	49	104	0	60	1048573
2026-01-18 06:49:56.59	164.07	1.00	-83.1	-79.0	2.4	0.00e+00	0	49	104	0	60	1048573
2026-01-18 06:49:59.62	164.27	0.81	-83.1	-79.0	2.4	0.00e+00	0	49	104	0	60	1048574
2026-01-18 06:50:02.63	164.46	0.63	-83.5	-79.0	2.4	0.00e+00	0	49	104	0	60	1048572
2026-01-18 06:50:05.65	164.66	0.44	-83.1	-79.0	2.4	0.00e+00	0	49	104	0	60	1048573
2026-01-18 06:50:08.66	164.84	0.26	-83.5	-79.0	2.4	0.00e+00	0	49	104	0	60	1048575
2026-01-18 06:50:11.69	165.03	0.08	-83.5	-79.0	2.4	0.00e+00	0	49	104	0	60	1048571
2026-01-18 06:50:14.71	165.22	-0.10	-83.1	-79.0	2.4	0.00e+00	0	49	104	0	60	1048575

#Closed at: 2026-01-18 06:50:14
#Recorded file [0 MB]: D:/Data/35015_260118_093910.dat