passes_logs/2026/01/18/R3.2S-Naryan-Mar/R3.2S-Naryan-Mar__20260118_085105_NOAA_20_JPSS-1_rec.log

#Pass ID: 20260118_085105_NOAA 20 (JPSS-1)
#Satellite: NOAA 20 (JPSS-1)
#Configuration: NOAA 20
#almurnet v.1.7.20240730
#Start time: 2026-01-18 08:51:07

#Version: 2.2.20231116
#Station: R3.2S-Naryan-Mar
#Location: 53.008057 lon 67.646978 lat
#TLE: 1 43013U 17073A   26017.30359522  .00000067  00000+0  52526-4 0  9990
#TLE: 2 43013  98.7639 318.2187 0001419  36.2087 323.9184 14.19536557423067

#Time	Az	El	Level	Level2	SNR	BER	BlckErr	Temp	State	Recorded	gain1	gain2
2026-01-18 08:51:07.37	166.41	0.09	-85.2	-88.6	3.1	1.56e+00	0	45	0	0	60	1048570
2026-01-18 08:51:11.40	166.48	0.34	-85.2	-88.6	3.0	1.56e+00	0	46	104	0	60	1048575
2026-01-18 08:51:15.43	166.55	0.58	-85.2	-88.6	2.9	1.56e+00	0	46	104	0	60	1048571
2026-01-18 08:51:19.46	166.62	0.82	-85.2	-88.6	3.1	1.56e+00	0	46	104	0	60	1048574
2026-01-18 08:51:23.49	166.69	1.07	-85.2	-88.6	3.1	1.56e+00	0	46	104	0	60	1048572
2026-01-18 08:51:27.52	166.77	1.32	-85.2	-88.6	2.9	1.56e+00	0	46	104	0	60	1048574
2026-01-18 08:51:31.55	166.84	1.57	-85.2	-88.6	3.0	1.56e+00	0	46	104	0	60	1048573
2026-01-18 08:51:35.58	166.92	1.83	-85.2	-88.6	3.2	1.56e+00	0	46	104	0	60	1048572
2026-01-18 08:51:39.61	167.00	2.08	-85.2	-88.6	2.9	1.56e+00	0	46	104	0	60	1048570
2026-01-18 08:51:43.64	167.08	2.34	-85.2	-88.6	3.1	1.56e+00	0	46	104	0	60	1048568
2026-01-18 08:51:47.65	167.16	2.60	-85.2	-88.6	3.1	1.55e+00	0	46	104	0	60	1048575
2026-01-18 08:51:51.68	167.24	2.86	-85.2	-88.6	3.1	1.56e+00	0	46	104	0	60	1048574
2026-01-18 08:51:55.72	167.32	3.13	-85.2	-88.6	3.0	1.56e+00	0	46	104	0	60	1048573
2026-01-18 08:51:59.73	167.40	3.40	-85.2	-88.6	3.0	1.56e+00	0	46	104	0	60	1048573
2026-01-18 08:52:03.75	167.49	3.67	-85.2	-88.6	2.9	1.56e+00	0	46	104	0	60	1048575
2026-01-18 08:52:07.78	167.57	3.94	-85.2	-88.6	2.9	1.56e+00	0	46	104	0	60	1048574
2026-01-18 08:52:11.80	167.66	4.22	-85.2	-88.6	3.1	1.56e+00	0	47	104	0	60	1048573
2026-01-18 08:52:15.83	167.75	4.50	-85.2	-88.6	2.9	1.56e+00	0	47	104	0	60	1048575
2026-01-18 08:52:19.86	167.84	4.78	-85.2	-88.6	2.9	1.56e+00	0	46	104	0	60	1048575
2026-01-18 08:52:23.88	167.93	5.06	-85.2	-88.6	3.1	1.56e+00	0	47	104	0	60	1048574
2026-01-18 08:52:27.90	168.02	5.35	-85.2	-88.6	3.0	1.56e+00	0	47	104	0	60	1048574
2026-01-18 08:52:31.93	168.12	5.64	-85.2	-88.6	3.0	1.55e+00	0	47	104	0	60	1048574
2026-01-18 08:52:35.96	168.22	5.93	-85.2	-88.6	3.1	1.56e+00	0	47	104	0	60	1048572
2026-01-18 08:52:39.99	168.31	6.23	-85.2	-88.6	3.1	1.56e+00	0	47	104	0	60	1048575
2026-01-18 08:52:44.02	168.41	6.53	-85.2	-88.6	3.2	1.55e+00	0	47	104	0	60	1048573
2026-01-18 08:52:48.05	168.52	6.84	-85.2	-88.6	3.0	1.56e+00	0	47	104	0	60	1048572
2026-01-18 08:52:52.07	168.62	7.14	-85.2	-88.6	3.1	1.56e+00	0	47	104	0	60	1048575
2026-01-18 08:52:56.09	168.73	7.45	-85.2	-88.6	2.9	1.56e+00	0	47	104	0	60	1048570
2026-01-18 08:53:00.12	168.83	7.77	-85.2	-88.6	3.1	1.56e+00	0	47	104	0	60	1048573
2026-01-18 08:53:04.14	168.94	8.09	-85.2	-88.6	3.0	1.56e+00	0	47	104	0	60	1048573
2026-01-18 08:53:08.16	169.05	8.41	-85.2	-88.6	3.0	1.55e+00	0	47	104	0	60	1048575
2026-01-18 08:53:12.19	169.17	8.74	-85.2	-88.6	3.1	1.55e+00	0	47	104	0	60	1048575
2026-01-18 08:53:16.22	169.28	9.07	-85.2	-88.6	2.8	1.56e+00	0	47	104	0	60	1048575
2026-01-18 08:53:20.25	169.40	9.41	-85.2	-88.6	3.0	1.56e+00	0	47	104	0	60	1048575
2026-01-18 08:53:24.27	169.52	9.75	-85.2	-88.6	2.9	1.56e+00	0	47	104	0	60	1048574
2026-01-18 08:53:28.29	169.65	10.09	-84.7	-88.6	2.9	1.56e+00	0	47	104	0	60	1048574
2026-01-18 08:53:32.32	169.77	10.44	-85.2	-88.6	2.8	1.56e+00	0	47	104	0	60	1048572
2026-01-18 08:53:36.35	169.90	10.80	-85.2	-88.6	2.9	1.56e+00	0	47	104	0	60	1048571
2026-01-18 08:53:40.37	170.04	11.16	-85.2	-88.6	3.2	1.56e+00	0	47	104	0	60	1048575
2026-01-18 08:53:44.40	170.17	11.52	-85.2	-88.6	3.0	1.56e+00	0	47	104	0	60	1048575
2026-01-18 08:53:48.44	170.31	11.89	-85.2	-88.6	2.9	1.56e+00	0	47	104	0	60	1048573
2026-01-18 08:53:52.47	170.45	12.27	-85.2	-88.6	3.0	1.56e+00	0	47	104	0	60	1048575
2026-01-18 08:53:56.50	170.59	12.65	-85.2	-88.6	3.1	1.56e+00	0	47	104	0	60	1048575
2026-01-18 08:54:00.52	170.74	13.04	-85.2	-88.6	3.0	1.55e+00	0	47	104	0	60	1048575
2026-01-18 08:54:04.55	170.89	13.43	-85.2	-88.6	2.9	1.55e+00	0	47	104	0	60	1048574
2026-01-18 08:54:08.58	171.05	13.83	-85.2	-88.6	2.8	1.56e+00	0	47	104	0	60	1048575
2026-01-18 08:54:12.61	171.21	14.24	-85.2	-88.6	3.2	1.56e+00	0	47	104	0	60	1048575
2026-01-18 08:54:16.63	171.37	14.65	-85.2	-88.6	2.9	1.56e+00	0	47	104	0	60	1048574
2026-01-18 08:54:20.66	171.54	15.07	-85.2	-88.6	3.1	1.55e+00	0	47	104	0	60	1048575
2026-01-18 08:54:24.69	171.71	15.50	-85.2	-88.6	3.0	1.56e+00	0	47	104	0	60	1048575
2026-01-18 08:54:28.72	171.88	15.94	-85.2	-88.6	2.9	1.56e+00	0	47	104	0	60	1048574
2026-01-18 08:54:32.74	172.07	16.38	-85.2	-88.6	3.0	1.55e+00	0	47	104	0	60	1048575
2026-01-18 08:54:36.76	172.25	16.83	-85.2	-88.6	3.0	1.56e+00	0	47	104	0	60	1048573
2026-01-18 08:54:40.80	172.44	17.29	-85.2	-88.6	3.1	1.56e+00	0	47	104	0	60	1048572
2026-01-18 08:54:44.83	172.64	17.76	-85.2	-88.6	3.2	1.55e+00	0	47	104	0	60	1048575
2026-01-18 08:54:48.86	172.84	18.24	-85.2	-88.6	3.0	1.56e+00	0	47	104	0	60	1048575
2026-01-18 08:54:52.90	173.05	18.72	-85.2	-88.6	2.8	1.56e+00	0	47	104	0	60	1048574
2026-01-18 08:54:56.92	173.27	19.22	-85.2	-88.6	3.0	1.55e+00	0	47	104	0	60	1048575
2026-01-18 08:55:00.94	173.49	19.72	-85.2	-88.6	3.3	1.55e+00	0	47	104	0	60	1048574
2026-01-18 08:55:04.96	173.71	20.23	-85.2	-88.6	3.0	1.55e+00	0	47	104	0	60	1048574
2026-01-18 08:55:09.00	173.95	20.76	-85.2	-88.6	3.0	1.56e+00	0	47	104	0	60	1048575
2026-01-18 08:55:13.03	174.19	21.30	-85.2	-88.6	3.0	1.56e+00	0	47	104	0	60	1048575
2026-01-18 08:55:17.06	174.45	21.84	-85.2	-88.6	3.0	1.55e+00	0	47	104	0	60	1048574
2026-01-18 08:55:21.09	174.71	22.40	-85.2	-88.6	2.9	1.56e+00	0	47	104	0	60	1048575
2026-01-18 08:55:25.13	174.98	22.97	-85.2	-88.6	3.0	1.56e+00	0	47	104	0	60	1048575
2026-01-18 08:55:29.16	175.25	23.56	-85.2	-88.6	3.1	1.55e+00	0	47	104	0	60	1048575
2026-01-18 08:55:33.18	175.54	24.15	-85.2	-88.6	3.2	1.56e+00	0	47	104	0	60	1048575
2026-01-18 08:55:37.21	175.84	24.76	-85.2	-88.6	3.1	1.56e+00	0	47	104	0	60	1048575
2026-01-18 08:55:41.23	176.15	25.38	-85.2	-88.6	3.0	1.56e+00	0	47	104	0	60	1048571
2026-01-18 08:55:45.27	176.47	26.02	-85.2	-88.6	2.9	1.56e+00	0	47	104	0	60	1048575
2026-01-18 08:55:49.30	176.81	26.67	-85.2	-88.6	2.8	1.55e+00	0	47	104	0	60	1048572
2026-01-18 08:55:53.33	177.16	27.34	-85.2	-88.6	3.0	1.56e+00	0	47	104	0	60	1048575
2026-01-18 08:55:57.36	177.52	28.02	-85.2	-88.6	3.0	1.56e+00	0	47	104	0	60	1048574
2026-01-18 08:56:01.39	177.90	28.72	-85.2	-88.6	3.0	1.56e+00	0	47	104	0	60	1048575
2026-01-18 08:56:05.42	178.29	29.43	-85.2	-88.6	3.0	1.56e+00	0	47	104	0	60	1048575
2026-01-18 08:56:09.44	178.70	30.16	-85.2	-88.6	3.0	1.56e+00	0	47	104	0	60	1048574
2026-01-18 08:56:13.47	179.13	30.91	-85.2	-88.6	3.1	1.56e+00	0	47	104	0	60	1048575
2026-01-18 08:56:17.50	179.59	31.67	-85.2	-88.6	2.9	1.55e+00	0	47	104	0	60	1048575
2026-01-18 08:56:21.54	180.06	32.46	-85.2	-88.6	3.0	1.56e+00	0	47	104	0	60	1048575
2026-01-18 08:56:25.55	180.55	33.26	-85.2	-88.6	2.9	1.55e+00	0	47	104	0	60	1048574
2026-01-18 08:56:29.58	181.07	34.08	-85.2	-88.6	3.1	1.56e+00	0	47	104	0	60	1048574
2026-01-18 08:56:33.61	181.61	34.93	-85.2	-88.6	3.0	1.55e+00	0	47	104	0	60	1048574
2026-01-18 08:56:37.64	182.18	35.79	-85.2	-88.6	2.8	1.56e+00	0	47	104	0	60	1048574
2026-01-18 08:56:41.68	182.79	36.68	-85.2	-88.6	2.9	1.55e+00	0	47	104	0	60	1048571
2026-01-18 08:56:45.70	183.42	37.58	-85.2	-88.6	2.9	1.56e+00	0	47	104	0	60	1048574
2026-01-18 08:56:49.73	184.10	38.50	-85.2	-88.6	3.2	1.55e+00	0	47	104	0	60	1048575
2026-01-18 08:56:53.76	184.81	39.45	-85.2	-88.6	2.9	1.55e+00	0	47	104	0	60	1048574
2026-01-18 08:56:57.79	185.56	40.42	-85.2	-88.6	3.0	1.56e+00	0	47	104	0	60	1048575
2026-01-18 08:57:01.82	186.36	41.41	-85.2	-88.6	3.0	1.56e+00	0	47	104	0	60	1048575
2026-01-18 08:57:05.85	187.21	42.42	-85.2	-88.6	2.9	1.56e+00	0	47	104	0	60	1048574
2026-01-18 08:57:09.88	188.11	43.45	-84.7	-88.6	3.0	1.56e+00	0	47	104	0	60	1048575
2026-01-18 08:57:13.91	189.07	44.50	-85.2	-88.6	2.9	1.56e+00	0	47	104	0	60	1048574
2026-01-18 08:57:17.94	190.10	45.57	-85.2	-88.6	3.0	1.56e+00	0	47	104	0	60	1048572
2026-01-18 08:57:21.97	191.20	46.66	-85.2	-88.6	3.0	1.56e+00	0	47	104	0	60	1048574
2026-01-18 08:57:26.00	192.38	47.77	-85.2	-88.6	3.2	1.55e+00	0	47	104	0	60	1048575
2026-01-18 08:57:30.03	193.64	48.89	-85.2	-88.6	2.9	1.56e+00	0	47	104	0	60	1048575
2026-01-18 08:57:34.06	195.00	50.03	-85.2	-88.6	3.1	1.55e+00	0	47	104	0	60	1048573
2026-01-18 08:57:38.09	196.46	51.17	-85.2	-88.6	3.1	1.56e+00	0	47	104	0	60	1048573
2026-01-18 08:57:42.12	198.04	52.33	-85.2	-88.6	2.8	1.56e+00	0	47	104	0	60	1048570
2026-01-18 08:57:46.16	199.75	53.48	-85.2	-88.6	3.0	1.55e+00	0	47	104	0	60	1048575
2026-01-18 08:57:50.18	201.59	54.64	-85.2	-88.6	3.1	1.56e+00	0	47	104	0	60	1048575
2026-01-18 08:57:54.21	203.59	55.79	-85.2	-88.6	2.9	1.56e+00	0	47	104	0	60	1048575
2026-01-18 08:57:58.24	205.75	56.92	-84.7	-88.6	3.1	1.56e+00	0	47	104	0	60	1048574
2026-01-18 08:58:02.27	208.10	58.04	-85.2	-88.6	3.0	1.56e+00	0	47	104	0	60	1048575
2026-01-18 08:58:06.29	210.64	59.13	-85.2	-88.6	3.0	1.55e+00	0	47	104	0	60	1048574
2026-01-18 08:58:10.33	213.42	60.19	-85.2	-88.6	3.1	1.56e+00	0	47	104	0	60	1048573
2026-01-18 08:58:14.36	216.41	61.19	-85.2	-88.6	3.0	1.56e+00	0	47	104	0	60	1048573
2026-01-18 08:58:18.39	219.65	62.14	-85.2	-88.6	2.9	1.56e+00	0	47	104	0	60	1048575
2026-01-18 08:58:22.42	223.13	63.02	-85.2	-88.6	3.1	1.56e+00	0	47	104	0	60	1048575
2026-01-18 08:58:26.45	226.87	63.81	-85.2	-88.6	3.1	1.55e+00	0	47	104	0	60	1048573
2026-01-18 08:58:30.48	230.86	64.51	-85.2	-88.6	3.1	1.56e+00	0	47	104	0	60	1048575
2026-01-18 08:58:34.52	235.08	65.10	-85.2	-88.6	3.2	1.56e+00	0	47	104	0	60	1048575
2026-01-18 08:58:38.55	239.49	65.56	-84.7	-88.6	2.9	1.55e+00	0	47	104	0	60	1048574
2026-01-18 08:58:42.56	244.04	65.89	-85.2	-88.6	3.0	1.56e+00	0	47	104	0	60	1048575
2026-01-18 08:58:46.59	248.73	66.08	-85.2	-88.6	3.2	1.55e+00	0	47	104	0	60	1048575
2026-01-18 08:58:50.62	253.46	66.12	-85.2	-88.6	2.8	1.56e+00	0	47	104	0	60	1048575
2026-01-18 08:58:54.65	258.18	66.02	-85.2	-88.6	3.1	1.56e+00	0	47	104	0	60	1048575
2026-01-18 08:58:58.67	262.81	65.78	-85.2	-88.6	3.0	1.55e+00	0	47	104	0	60	1048575
2026-01-18 08:59:02.68	267.31	65.39	-84.3	-88.6	3.2	1.56e+00	0	47	104	0	60	1048575
2026-01-18 08:59:06.71	271.64	64.88	-85.2	-88.6	2.9	1.56e+00	0	47	104	0	60	1048574
2026-01-18 08:59:10.73	275.76	64.26	-85.2	-88.6	3.0	1.56e+00	0	47	104	0	60	1048573
2026-01-18 08:59:14.76	279.64	63.52	-85.2	-88.6	3.1	1.56e+00	0	47	104	0	60	1048575
2026-01-18 08:59:18.79	283.28	62.70	-85.2	-88.6	3.1	1.56e+00	0	47	104	0	60	1048575
2026-01-18 08:59:22.82	286.67	61.79	-85.2	-88.6	3.0	1.55e+00	0	47	104	0	60	1048575
2026-01-18 08:59:26.85	289.81	60.82	-85.2	-88.6	3.0	1.56e+00	0	47	104	0	60	1048574
2026-01-18 08:59:30.88	292.71	59.80	-85.2	-88.6	2.9	1.56e+00	0	47	104	0	60	1048574
2026-01-18 08:59:34.89	295.38	58.74	-85.2	-88.6	2.9	1.56e+00	0	47	104	0	60	1048573
2026-01-18 08:59:38.93	297.85	57.64	-85.2	-88.6	2.9	1.56e+00	0	47	104	0	60	1048575
2026-01-18 08:59:42.96	300.13	56.51	-85.2	-88.6	2.9	1.56e+00	0	47	104	0	60	1048575
2026-01-18 08:59:46.99	302.23	55.38	-85.2	-88.6	2.9	1.56e+00	0	47	104	0	60	1048571
2026-01-18 08:59:51.02	304.16	54.23	-85.2	-88.6	3.0	1.56e+00	0	47	104	0	60	1048574
2026-01-18 08:59:55.05	305.95	53.07	-85.2	-88.6	3.1	1.55e+00	0	47	104	0	60	1048575
2026-01-18 08:59:59.08	307.60	51.92	-85.2	-88.6	3.1	1.56e+00	0	47	104	0	60	1048574
2026-01-18 09:00:03.10	309.13	50.78	-85.2	-88.6	3.1	1.56e+00	0	47	104	0	60	1048575
2026-01-18 09:00:07.13	310.55	49.64	-85.2	-88.6	3.0	1.55e+00	0	47	104	0	60	1048575
2026-01-18 09:00:11.16	311.87	48.51	-85.2	-88.6	3.1	1.56e+00	0	47	104	0	60	1048573
2026-01-18 09:00:15.19	313.10	47.40	-85.2	-88.6	2.9	1.55e+00	0	47	104	0	60	1048575
2026-01-18 09:00:19.22	314.25	46.31	-85.2	-88.6	2.9	1.56e+00	0	47	104	0	60	1048573
2026-01-18 09:00:23.24	315.32	45.23	-85.2	-88.6	3.0	1.55e+00	0	47	104	0	60	1048574
2026-01-18 09:00:27.27	316.32	44.17	-85.2	-88.6	3.0	1.55e+00	0	47	104	0	60	1048569
2026-01-18 09:00:31.30	317.26	43.13	-85.2	-88.6	3.1	1.56e+00	0	47	104	0	60	1048575
2026-01-18 09:00:35.32	318.14	42.11	-85.2	-88.6	3.1	1.56e+00	0	47	104	0	60	1048575
2026-01-18 09:00:39.35	318.97	41.11	-85.2	-88.6	2.8	1.56e+00	0	47	104	0	60	1048574
2026-01-18 09:00:43.38	319.75	40.13	-85.2	-88.6	2.9	1.56e+00	0	47	104	0	60	1048575
2026-01-18 09:00:47.41	320.49	39.18	-85.2	-88.6	3.1	1.55e+00	0	47	104	0	60	1048570
2026-01-18 09:00:51.44	321.18	38.24	-85.2	-88.6	3.0	1.56e+00	0	47	104	0	60	1048571
2026-01-18 09:00:55.47	321.84	37.33	-85.2	-88.6	2.9	1.55e+00	0	47	104	0	60	1048575
2026-01-18 09:00:59.50	322.47	36.43	-85.2	-88.6	3.0	1.55e+00	0	47	104	0	60	1048574
2026-01-18 09:01:03.53	323.06	35.56	-85.2	-88.6	3.0	1.56e+00	0	47	104	0	60	1048573
2026-01-18 09:01:07.56	323.62	34.71	-85.2	-88.6	3.1	1.55e+00	0	47	104	0	60	1048575
2026-01-18 09:01:11.59	324.16	33.88	-85.2	-88.6	3.0	1.55e+00	0	47	104	0	60	1048573
2026-01-18 09:01:15.62	324.67	33.06	-85.2	-88.6	3.0	1.56e+00	0	47	104	0	60	1048575
2026-01-18 09:01:19.65	325.15	32.27	-85.2	-88.6	3.1	1.56e+00	0	47	104	0	60	1048574
2026-01-18 09:01:23.68	325.62	31.49	-85.2	-88.6	3.0	1.56e+00	0	47	104	0	60	1048574
2026-01-18 09:01:27.71	326.06	30.74	-85.2	-88.6	2.9	1.55e+00	0	47	104	0	60	1048574
2026-01-18 09:01:31.73	326.48	30.00	-85.2	-88.6	3.1	1.55e+00	0	47	104	0	60	1048574
2026-01-18 09:01:35.77	326.89	29.28	-85.2	-88.6	2.9	1.55e+00	0	47	104	0	60	1048574
2026-01-18 09:01:39.79	327.28	28.57	-85.2	-88.6	3.1	1.56e+00	0	47	104	0	60	1048575
2026-01-18 09:01:43.81	327.65	27.88	-85.2	-88.6	2.9	1.56e+00	0	47	104	0	60	1048575
2026-01-18 09:01:47.84	328.01	27.21	-85.2	-88.6	2.9	1.56e+00	0	47	104	0	60	1048574
2026-01-18 09:01:51.86	328.36	26.55	-85.2	-88.6	2.8	1.56e+00	0	47	104	0	60	1048575
2026-01-18 09:01:55.89	328.69	25.91	-85.2	-88.6	3.1	1.56e+00	0	47	104	0	60	1048575
2026-01-18 09:01:59.93	329.01	25.28	-85.2	-88.6	3.0	1.56e+00	0	47	104	0	60	1048575
2026-01-18 09:02:03.95	329.31	24.67	-85.2	-88.6	3.1	1.56e+00	0	47	104	0	60	1048575
2026-01-18 09:02:07.98	329.61	24.06	-85.2	-88.6	2.9	1.56e+00	0	47	104	0	60	1048575
2026-01-18 09:02:12.02	329.90	23.47	-85.2	-88.6	3.1	1.55e+00	0	47	104	0	60	1048575
2026-01-18 09:02:16.04	330.17	22.90	-85.2	-88.6	3.0	1.55e+00	0	47	104	0	60	1048574
2026-01-18 09:02:20.07	330.44	22.33	-85.2	-88.6	3.1	1.56e+00	0	47	104	0	60	1048575
2026-01-18 09:02:24.10	330.70	21.78	-85.2	-88.6	3.1	1.55e+00	0	47	104	0	60	1048575
2026-01-18 09:02:28.13	330.95	21.24	-85.2	-88.6	3.1	1.55e+00	0	47	104	0	60	1048575
2026-01-18 09:02:32.15	331.19	20.71	-85.2	-88.6	3.1	1.55e+00	0	47	104	0	60	1048575
2026-01-18 09:02:36.18	331.43	20.19	-85.2	-88.6	2.8	1.56e+00	0	47	104	0	60	1048575
2026-01-18 09:02:40.21	331.65	19.68	-85.2	-88.6	3.1	1.56e+00	0	47	104	0	60	1048575
2026-01-18 09:02:44.24	331.88	19.18	-84.7	-88.6	2.8	1.56e+00	0	47	104	0	60	1048574
2026-01-18 09:02:48.27	332.09	18.69	-84.3	-88.6	2.9	1.56e+00	0	47	104	0	60	1048573
2026-01-18 09:02:52.30	332.30	18.21	-84.7	-88.6	2.7	1.56e+00	0	47	104	0	60	1048574
2026-01-18 09:02:56.32	332.50	17.74	-85.2	-88.6	3.0	1.56e+00	0	47	104	0	60	1048573
2026-01-18 09:03:00.34	332.70	17.28	-85.2	-88.6	2.9	1.56e+00	0	47	104	0	60	1048575
2026-01-18 09:03:04.36	332.89	16.82	-85.2	-88.6	3.0	1.56e+00	0	47	104	0	60	1048575
2026-01-18 09:03:08.39	333.07	16.38	-85.2	-88.6	3.0	1.56e+00	0	47	104	0	60	1048573
2026-01-18 09:03:12.42	333.25	15.94	-85.2	-88.6	3.1	1.56e+00	0	47	104	0	60	1048573
2026-01-18 09:03:16.45	333.43	15.51	-84.7	-88.6	3.1	1.56e+00	0	47	104	0	60	1048575
2026-01-18 09:03:20.48	333.60	15.08	-85.2	-88.6	3.0	1.56e+00	0	47	104	0	60	1048575
2026-01-18 09:03:24.50	333.77	14.66	-85.2	-88.6	3.0	1.56e+00	0	47	104	0	60	1048572
2026-01-18 09:03:28.52	333.93	14.26	-85.2	-88.6	2.8	1.56e+00	0	47	104	0	60	1048575
2026-01-18 09:03:32.54	334.09	13.85	-85.2	-88.6	3.0	1.56e+00	0	47	104	0	60	1048573
2026-01-18 09:03:36.58	334.25	13.45	-85.2	-88.6	3.0	1.56e+00	0	47	104	0	60	1048575
2026-01-18 09:03:40.61	334.40	13.06	-84.7	-88.6	2.8	1.56e+00	0	47	104	0	60	1048575
2026-01-18 09:03:44.64	334.55	12.68	-84.7	-88.6	3.0	1.56e+00	0	47	104	0	60	1048575
2026-01-18 09:03:48.67	334.70	12.30	-85.2	-88.6	3.1	1.56e+00	0	47	104	0	60	1048575
2026-01-18 09:03:52.69	334.84	11.93	-85.2	-88.6	3.0	1.56e+00	0	47	104	0	60	1048575
2026-01-18 09:03:56.72	334.98	11.56	-85.2	-88.6	2.9	1.56e+00	0	47	104	0	60	1048574
2026-01-18 09:04:00.75	335.12	11.20	-85.2	-88.6	3.1	1.56e+00	0	47	104	0	60	1048573
2026-01-18 09:04:04.78	335.25	10.84	-84.7	-88.6	3.0	1.56e+00	0	47	104	0	60	1048574
2026-01-18 09:04:08.80	335.38	10.49	-84.7	-88.6	3.1	1.56e+00	0	47	104	0	60	1048575
2026-01-18 09:04:12.82	335.51	10.14	-84.3	-88.6	3.1	1.56e+00	0	47	104	0	60	1048573
2026-01-18 09:04:16.85	335.63	9.80	-85.2	-88.6	3.0	1.56e+00	0	47	104	0	60	1048575
2026-01-18 09:04:20.88	335.76	9.46	-83.5	-88.6	3.0	1.55e+00	0	47	104	0	60	1048575
2026-01-18 09:04:24.91	335.88	9.13	-85.2	-88.6	2.9	1.56e+00	0	47	104	0	60	1048572
2026-01-18 09:04:28.93	336.00	8.80	-85.2	-88.6	3.0	1.56e+00	0	47	104	0	60	1048575
2026-01-18 09:04:32.94	336.11	8.47	-84.7	-88.6	3.2	1.55e+00	0	47	104	0	60	1048574
2026-01-18 09:04:36.97	336.23	8.15	-84.7	-88.6	3.1	1.55e+00	0	47	104	0	60	1048575
2026-01-18 09:04:41.00	336.34	7.84	-85.2	-88.6	3.0	1.55e+00	0	47	104	0	60	1048574
2026-01-18 09:04:45.04	336.45	7.52	-85.2	-88.6	3.0	1.56e+00	0	47	104	0	60	1048575
2026-01-18 09:04:49.06	336.56	7.21	-85.2	-88.6	3.0	1.55e+00	0	47	104	0	60	1048573
2026-01-18 09:04:53.09	336.66	6.91	-85.2	-88.6	2.9	1.56e+00	0	47	104	0	60	1048572
2026-01-18 09:04:57.13	336.77	6.60	-85.2	-88.6	2.8	1.56e+00	0	47	104	0	60	1048575
2026-01-18 09:05:01.15	336.87	6.31	-84.7	-88.6	3.3	1.56e+00	0	47	104	0	60	1048575
2026-01-18 09:05:05.17	336.97	6.01	-85.2	-88.6	3.1	1.55e+00	0	47	104	0	60	1048574
2026-01-18 09:05:09.20	337.07	5.72	-85.2	-88.6	2.9	1.55e+00	0	47	104	0	60	1048575
2026-01-18 09:05:13.23	337.17	5.43	-85.2	-88.6	2.9	1.56e+00	0	47	104	0	60	1048574
2026-01-18 09:05:17.26	337.26	5.14	-85.2	-88.6	3.2	1.56e+00	0	47	104	0	60	1048575
2026-01-18 09:05:21.30	337.36	4.86	-85.2	-88.6	3.0	1.55e+00	0	47	104	0	60	1048574
2026-01-18 09:05:25.32	337.45	4.58	-85.2	-88.6	3.1	1.56e+00	0	47	104	0	60	1048575
2026-01-18 09:05:29.34	337.54	4.30	-85.2	-88.6	3.0	1.56e+00	0	47	104	0	60	1048574
2026-01-18 09:05:33.36	337.63	4.03	-85.2	-88.6	3.0	1.56e+00	0	47	104	0	60	1048575
2026-01-18 09:05:37.39	337.72	3.76	-85.2	-88.6	2.8	1.55e+00	0	47	104	0	60	1048574
2026-01-18 09:05:41.42	337.81	3.49	-85.2	-88.6	3.0	1.56e+00	0	47	104	0	60	1048573
2026-01-18 09:05:45.45	337.90	3.22	-85.2	-88.6	2.9	1.55e+00	0	47	104	0	60	1048574
2026-01-18 09:05:49.48	337.98	2.96	-85.2	-88.6	2.8	1.56e+00	0	47	104	0	60	1048571
2026-01-18 09:05:53.51	338.07	2.70	-85.2	-88.6	3.0	1.56e+00	0	47	104	0	60	1048573
2026-01-18 09:05:57.53	338.15	2.44	-85.2	-88.6	2.9	1.56e+00	0	47	104	0	60	1048573
2026-01-18 09:06:01.56	338.23	2.18	-85.2	-88.6	3.1	1.56e+00	0	47	104	0	60	1048574
2026-01-18 09:06:05.60	338.31	1.93	-85.2	-88.6	3.0	1.56e+00	0	47	104	0	60	1048575
2026-01-18 09:06:09.63	338.39	1.67	-85.2	-88.6	3.0	1.56e+00	0	47	104	0	60	1048575
2026-01-18 09:06:13.65	338.47	1.42	-85.2	-88.6	3.0	1.56e+00	0	47	104	0	60	1048573
2026-01-18 09:06:17.69	338.55	1.18	-85.2	-88.6	3.0	1.56e+00	0	47	104	0	60	1048575
2026-01-18 09:06:21.72	338.62	0.93	-85.2	-88.6	3.0	1.56e+00	0	47	104	0	60	1048571
2026-01-18 09:06:25.75	338.70	0.69	-85.2	-88.6	3.1	1.56e+00	0	47	104	0	60	1048575
2026-01-18 09:06:29.78	338.78	0.44	-85.2	-88.6	3.1	1.56e+00	0	47	104	0	60	1048572
2026-01-18 09:06:33.81	338.85	0.20	-85.2	-88.6	3.0	1.56e+00	0	47	104	0	60	1048575
2026-01-18 09:06:37.84	338.92	-0.04	-85.2	-88.6	3.0	1.56e+00	0	47	104	0	60	1048575

#Closed at: 2026-01-18 09:06:39
#Recorded file [0 MB]: D:/Data/35015_260118_115107.dat