passes_logs/2026/01/18/R3.2S-Naryan-Mar/R3.2S-Naryan-Mar__20260118_171236_TY-41_rec.log

#Pass ID: 20260118_171236_TY-41
#Satellite: TY-41
#Configuration: TY-39
#almurnet v.1.7.20240730
#Start time: 2026-01-18 17:12:38

#Version: 2.2.20231116
#Station: R3.2S-Naryan-Mar
#Location: 53.008057 lon 67.646978 lat
#TLE: 1 61231U 24173E   26018.25438657  .00008012  00000-0  38191-3 0 09993
#TLE: 2 61231 097.4123 093.2273 0001689 092.2184 306.3117 15.19177353 72997

#Time	Az	El	Level	Level2	SNR	BER	BlckErr	Temp	State	Recorded	gain1	gain2
2026-01-18 17:12:38.59	149.40	0.14	-83.5	-79.0	2.7	0.00e+00	0	46	0	0	60	1048571
2026-01-18 17:12:41.59	149.38	0.34	-83.1	-79.0	2.5	0.00e+00	0	46	104	0	60	1048573
2026-01-18 17:12:44.61	149.35	0.53	-83.1	-79.0	2.4	0.00e+00	0	46	104	0	60	1048566
2026-01-18 17:12:47.61	149.32	0.73	-83.5	-79.0	2.3	0.00e+00	0	46	104	0	60	1048569
2026-01-18 17:12:50.63	149.29	0.93	-83.1	-79.0	2.4	0.00e+00	0	47	104	0	60	1048572
2026-01-18 17:12:53.65	149.26	1.13	-83.5	-79.0	2.4	0.00e+00	0	47	104	0	60	1048572
2026-01-18 17:12:56.67	149.22	1.34	-82.8	-79.0	2.4	0.00e+00	0	47	104	0	60	1048573
2026-01-18 17:12:59.69	149.19	1.54	-83.5	-79.0	2.3	0.00e+00	0	47	104	0	60	1048570
2026-01-18 17:13:02.70	149.16	1.75	-83.5	-79.0	2.4	0.00e+00	0	47	104	0	60	1048570
2026-01-18 17:13:05.72	149.12	1.96	-83.1	-79.0	2.4	0.00e+00	0	47	104	0	60	1048573
2026-01-18 17:13:08.73	149.09	2.17	-83.5	-79.0	2.4	0.00e+00	0	47	104	0	60	1048571
2026-01-18 17:13:11.75	149.05	2.38	-83.5	-79.0	2.5	0.00e+00	0	47	104	0	60	1048574
2026-01-18 17:13:14.77	149.02	2.60	-83.1	-79.0	2.4	0.00e+00	0	47	104	0	60	1048574
2026-01-18 17:13:17.80	148.98	2.82	-83.5	-79.0	2.4	0.00e+00	0	47	104	0	60	1048570
2026-01-18 17:13:20.81	148.94	3.04	-83.5	-79.0	2.5	0.00e+00	0	47	104	0	60	1048574
2026-01-18 17:13:23.83	148.90	3.26	-83.1	-79.0	2.5	0.00e+00	0	47	104	0	60	1048570
2026-01-18 17:13:26.85	148.86	3.49	-83.5	-79.0	2.4	0.00e+00	0	47	104	0	60	1048575
2026-01-18 17:13:29.87	148.82	3.71	-83.1	-79.0	2.5	0.00e+00	0	48	104	0	60	1048575
2026-01-18 17:13:32.89	148.78	3.94	-83.5	-79.0	2.5	0.00e+00	0	47	104	0	60	1048575
2026-01-18 17:13:35.91	148.73	4.18	-83.5	-79.0	2.5	0.00e+00	0	47	104	0	60	1048563
2026-01-18 17:13:38.93	148.69	4.41	-83.1	-79.0	2.4	0.00e+00	0	48	104	0	60	1048573
2026-01-18 17:13:41.95	148.65	4.65	-83.5	-79.0	2.5	0.00e+00	0	48	104	0	60	1048574
2026-01-18 17:13:44.97	148.60	4.89	-83.1	-79.0	2.4	0.00e+00	0	48	104	0	60	1048574
2026-01-18 17:13:47.99	148.55	5.13	-83.1	-79.0	2.4	0.00e+00	0	48	104	0	60	1048574
2026-01-18 17:13:51.01	148.50	5.38	-83.1	-79.0	2.4	0.00e+00	0	48	104	0	60	1048575
2026-01-18 17:13:54.03	148.45	5.63	-83.5	-79.0	2.4	0.00e+00	0	48	104	0	60	1048573
2026-01-18 17:13:57.04	148.40	5.88	-83.5	-79.0	2.4	0.00e+00	0	48	104	0	60	1048574
2026-01-18 17:14:00.07	148.35	6.14	-83.1	-79.0	2.4	0.00e+00	0	48	104	0	60	1048559
2026-01-18 17:14:03.09	148.29	6.40	-83.1	-79.0	2.4	0.00e+00	0	48	104	0	60	1048571
2026-01-18 17:14:06.11	148.24	6.66	-83.5	-79.0	2.4	0.00e+00	0	48	104	0	60	1048575
2026-01-18 17:14:09.13	148.18	6.93	-83.5	-79.0	2.4	0.00e+00	0	48	104	0	60	1048569
2026-01-18 17:14:12.15	148.12	7.20	-83.1	-79.0	2.3	0.00e+00	0	48	104	0	60	1048575
2026-01-18 17:14:15.17	148.06	7.47	-83.5	-79.0	2.4	0.00e+00	0	48	104	0	60	1048574
2026-01-18 17:14:18.20	148.00	7.75	-83.5	-79.0	2.4	0.00e+00	0	48	104	0	60	1048563
2026-01-18 17:14:21.22	147.93	8.03	-83.1	-79.0	2.4	0.00e+00	0	48	104	0	60	1048568
2026-01-18 17:14:24.24	147.87	8.32	-83.1	-79.0	2.3	0.00e+00	0	48	104	0	60	1048571
2026-01-18 17:14:27.26	147.80	8.61	-83.5	-79.0	2.4	0.00e+00	0	48	104	0	60	1048574
2026-01-18 17:14:30.29	147.73	8.91	-83.5	-79.0	2.4	0.00e+00	0	48	104	0	60	1048574
2026-01-18 17:14:33.31	147.66	9.21	-83.5	-79.0	2.4	0.00e+00	0	48	104	0	60	1048573
2026-01-18 17:14:36.33	147.58	9.51	-83.1	-79.0	2.5	0.00e+00	0	48	104	0	60	1048565
2026-01-18 17:14:39.35	147.51	9.82	-83.1	-79.0	2.4	0.00e+00	0	48	104	0	60	1048574
2026-01-18 17:14:42.37	147.43	10.14	-83.5	-79.0	2.6	0.00e+00	0	48	104	0	60	1048574
2026-01-18 17:14:45.39	147.35	10.46	-83.1	-79.0	2.4	0.00e+00	0	48	104	0	60	1048575
2026-01-18 17:14:48.42	147.27	10.78	-83.5	-79.0	2.5	0.00e+00	0	48	104	0	60	1048575
2026-01-18 17:14:51.44	147.18	11.11	-83.5	-79.0	2.4	0.00e+00	0	48	104	0	60	1048575
2026-01-18 17:14:54.47	147.09	11.45	-83.1	-79.0	2.3	0.00e+00	0	48	104	0	60	1048572
2026-01-18 17:14:57.48	147.00	11.79	-83.1	-79.0	2.4	0.00e+00	0	48	104	0	60	1048573
2026-01-18 17:15:00.50	146.91	12.14	-83.1	-79.0	2.4	0.00e+00	0	48	104	0	60	1048571
2026-01-18 17:15:03.52	146.81	12.50	-83.5	-79.0	2.4	0.00e+00	0	48	104	0	60	1048567
2026-01-18 17:15:06.55	146.71	12.86	-83.5	-79.0	2.4	0.00e+00	0	48	104	0	60	1048575
2026-01-18 17:15:09.57	146.61	13.24	-83.1	-79.0	2.4	0.00e+00	0	49	104	0	60	1048572
2026-01-18 17:15:12.60	146.50	13.61	-83.5	-79.0	2.4	0.00e+00	0	48	104	0	60	1048573
2026-01-18 17:15:15.61	146.39	14.00	-83.5	-79.0	2.4	0.00e+00	0	48	104	0	60	1048572
2026-01-18 17:15:18.64	146.27	14.39	-82.8	-79.0	2.4	0.00e+00	0	48	104	0	60	1048570
2026-01-18 17:15:21.66	146.15	14.80	-83.5	-79.0	2.4	0.00e+00	0	49	104	0	60	1048571
2026-01-18 17:15:24.68	146.03	15.21	-83.1	-79.0	2.3	0.00e+00	0	48	104	0	60	1048570
2026-01-18 17:15:27.71	145.90	15.63	-83.5	-79.0	2.4	0.00e+00	0	49	104	0	60	1048575
2026-01-18 17:15:30.72	145.77	16.05	-83.1	-79.0	2.4	0.00e+00	0	49	104	0	60	1048573
2026-01-18 17:15:33.74	145.64	16.49	-83.1	-79.0	2.3	0.00e+00	0	49	104	0	60	1048574
2026-01-18 17:15:36.75	145.49	16.94	-83.5	-79.0	2.4	0.00e+00	0	49	104	0	60	1048572
2026-01-18 17:15:39.77	145.35	17.40	-83.5	-79.0	2.4	0.00e+00	0	49	104	0	60	1048573
2026-01-18 17:15:42.80	145.19	17.87	-83.1	-79.0	2.4	0.00e+00	0	49	104	0	60	1048575
2026-01-18 17:15:45.82	145.03	18.35	-83.1	-79.0	2.5	0.00e+00	0	49	104	0	60	1048574
2026-01-18 17:15:48.84	144.87	18.85	-83.5	-79.0	2.4	0.00e+00	0	49	104	0	60	1048575
2026-01-18 17:15:51.86	144.70	19.35	-83.1	-79.0	2.4	0.00e+00	0	49	104	0	60	1048574
2026-01-18 17:15:54.88	144.52	19.87	-83.5	-79.0	2.4	0.00e+00	0	49	104	0	60	1048562
2026-01-18 17:15:57.90	144.33	20.40	-83.1	-79.0	2.5	0.00e+00	0	49	104	0	60	1048572
2026-01-18 17:16:00.92	144.14	20.95	-83.5	-79.0	2.4	0.00e+00	0	49	104	0	60	1048574
2026-01-18 17:16:03.94	143.93	21.51	-83.1	-79.0	2.5	0.00e+00	0	49	104	0	60	1048575
2026-01-18 17:16:06.96	143.72	22.09	-83.1	-79.0	2.3	0.00e+00	0	49	104	0	60	1048575
2026-01-18 17:16:09.98	143.50	22.68	-83.5	-79.0	2.5	0.00e+00	0	49	104	0	60	1048575
2026-01-18 17:16:13.00	143.27	23.29	-83.5	-79.0	2.4	0.00e+00	0	49	104	0	60	1048571
2026-01-18 17:16:16.03	143.02	23.92	-83.1	-79.0	2.3	0.00e+00	0	49	104	0	60	1048573
2026-01-18 17:16:19.05	142.77	24.57	-83.5	-79.0	2.4	0.00e+00	0	49	104	0	60	1048573
2026-01-18 17:16:22.07	142.50	25.24	-83.5	-79.0	2.4	0.00e+00	0	49	104	0	60	1048571
2026-01-18 17:16:25.09	142.22	25.92	-83.1	-79.0	2.5	0.00e+00	0	49	104	0	60	1048574
2026-01-18 17:16:28.11	141.92	26.63	-83.5	-79.0	2.3	0.00e+00	0	49	104	0	60	1048570
2026-01-18 17:16:31.13	141.61	27.36	-83.5	-79.0	2.3	0.00e+00	0	49	104	0	60	1048574
2026-01-18 17:16:34.16	141.28	28.11	-83.1	-79.0	2.3	0.00e+00	0	49	104	0	60	1048573
2026-01-18 17:16:37.18	140.94	28.89	-83.1	-79.0	2.3	0.00e+00	0	49	104	0	60	1048575
2026-01-18 17:16:40.20	140.57	29.69	-83.1	-79.0	2.4	0.00e+00	0	49	104	0	60	1048575
2026-01-18 17:16:43.23	140.19	30.52	-83.5	-79.0	2.4	0.00e+00	0	49	104	0	60	1048575
2026-01-18 17:16:46.24	139.78	31.37	-83.5	-79.0	2.4	0.00e+00	0	49	104	0	60	1048573
2026-01-18 17:16:49.27	139.34	32.26	-83.1	-79.0	2.4	0.00e+00	0	49	104	0	60	1048571
2026-01-18 17:16:52.29	138.88	33.17	-83.5	-79.0	2.5	0.00e+00	0	49	104	0	60	1048573
2026-01-18 17:16:55.31	138.39	34.12	-83.5	-79.0	2.4	0.00e+00	0	49	104	0	60	1048575
2026-01-18 17:16:58.33	137.87	35.10	-82.8	-79.0	2.5	0.00e+00	0	49	104	0	60	1048571
2026-01-18 17:17:01.36	137.31	36.11	-83.5	-79.0	2.4	0.00e+00	0	49	104	0	60	1048568
2026-01-18 17:17:04.38	136.71	37.15	-83.1	-79.0	2.3	0.00e+00	0	49	104	0	60	1048575
2026-01-18 17:17:07.39	136.08	38.23	-83.5	-79.0	2.4	0.00e+00	0	49	104	0	60	1048574
2026-01-18 17:17:10.42	135.38	39.35	-83.1	-79.0	2.4	0.00e+00	0	49	104	0	60	1048574
2026-01-18 17:17:13.43	134.65	40.50	-82.8	-79.0	2.4	0.00e+00	0	49	104	0	60	1048565
2026-01-18 17:17:16.45	133.85	41.69	-83.5	-79.0	2.6	0.00e+00	0	49	104	0	60	1048572
2026-01-18 17:17:19.48	132.98	42.92	-83.5	-79.0	2.4	0.00e+00	0	49	104	0	60	1048573
2026-01-18 17:17:22.50	132.04	44.19	-82.8	-79.0	2.3	0.00e+00	0	49	104	0	60	1048567
2026-01-18 17:17:25.52	131.02	45.49	-83.5	-79.0	2.4	0.00e+00	0	49	104	0	60	1048574
2026-01-18 17:17:28.53	129.91	46.83	-83.5	-79.0	2.4	0.00e+00	0	49	104	0	60	1048574
2026-01-18 17:17:31.55	128.69	48.21	-82.8	-79.0	2.1	0.00e+00	0	49	104	0	60	1048574
2026-01-18 17:17:34.57	127.35	49.62	-83.5	-79.0	2.4	0.00e+00	0	49	104	0	60	1048574
2026-01-18 17:17:37.59	125.87	51.07	-83.1	-79.0	2.4	0.00e+00	0	49	104	0	60	1048560
2026-01-18 17:17:40.61	124.24	52.55	-83.5	-79.0	2.5	0.00e+00	0	49	104	0	60	1048567
2026-01-18 17:17:43.64	122.43	54.05	-83.1	-79.0	2.4	0.00e+00	0	49	104	0	60	1048563
2026-01-18 17:17:46.66	120.41	55.56	-83.1	-79.0	2.3	0.00e+00	0	49	104	0	60	1048574
2026-01-18 17:17:49.68	118.16	57.08	-83.5	-79.0	2.4	0.00e+00	0	49	104	0	60	1048575
2026-01-18 17:17:52.71	115.63	58.61	-83.5	-79.0	2.3	0.00e+00	0	49	104	0	60	1048569
2026-01-18 17:17:55.73	112.80	60.11	-83.1	-79.0	2.4	0.00e+00	0	49	104	0	60	1048573
2026-01-18 17:17:58.74	109.63	61.58	-83.5	-79.0	2.5	0.00e+00	0	49	104	0	60	1048569
2026-01-18 17:18:01.76	106.04	63.00	-83.5	-79.0	2.3	0.00e+00	0	49	104	0	60	1048573
2026-01-18 17:18:04.78	102.01	64.34	-83.1	-79.0	2.4	0.00e+00	0	49	104	0	60	1048574
2026-01-18 17:18:07.80	97.50	65.59	-83.5	-79.0	2.4	0.00e+00	0	49	104	0	60	1048572
2026-01-18 17:18:10.83	92.45	66.70	-83.1	-79.0	2.4	0.00e+00	0	49	104	0	60	1048575
2026-01-18 17:18:13.84	86.92	67.64	-83.5	-79.0	2.4	0.00e+00	0	49	104	0	60	1048575
2026-01-18 17:18:16.87	80.88	68.38	-83.5	-79.0	2.4	0.00e+00	0	49	104	0	60	1048575
2026-01-18 17:18:19.89	74.46	68.89	-83.1	-79.0	2.3	0.00e+00	0	49	104	0	60	1048575
2026-01-18 17:18:22.90	67.81	69.15	-83.5	-79.0	2.3	0.00e+00	0	49	104	0	60	1048573
2026-01-18 17:18:25.92	61.05	69.14	-83.5	-79.0	2.4	0.00e+00	0	49	104	0	60	1048574
2026-01-18 17:18:28.93	54.42	68.86	-83.1	-79.0	2.5	0.00e+00	0	49	104	0	60	1048575
2026-01-18 17:18:31.96	48.01	68.34	-83.5	-79.0	2.3	0.00e+00	0	49	104	0	60	1048572
2026-01-18 17:18:34.98	42.02	67.58	-83.5	-79.0	2.4	0.00e+00	0	49	104	0	60	1048574
2026-01-18 17:18:38.00	36.52	66.63	-83.1	-79.0	2.3	0.00e+00	0	49	104	0	60	1048575
2026-01-18 17:18:41.03	31.51	65.50	-83.5	-79.0	2.3	0.00e+00	0	49	104	0	60	1048573
2026-01-18 17:18:44.05	27.03	64.26	-83.1	-79.0	2.5	0.00e+00	0	49	104	0	60	1048575
2026-01-18 17:18:47.07	23.04	62.91	-83.5	-79.0	2.4	0.00e+00	0	49	104	0	60	1048574
2026-01-18 17:18:50.09	19.49	61.49	-83.5	-79.0	2.3	0.00e+00	0	49	104	0	60	1048570
2026-01-18 17:18:53.11	16.34	60.01	-83.1	-79.0	2.4	0.00e+00	0	49	104	0	60	1048573
2026-01-18 17:18:56.12	13.54	58.52	-83.5	-79.0	2.4	0.00e+00	0	49	104	0	60	1048573
2026-01-18 17:18:59.14	11.04	57.00	-83.5	-79.0	2.3	0.00e+00	0	49	104	0	60	1048574
2026-01-18 17:19:02.14	8.83	55.49	-83.1	-79.0	2.4	0.00e+00	0	49	104	0	60	1048571
2026-01-18 17:19:05.16	6.83	53.98	-83.5	-79.0	2.4	0.00e+00	0	49	104	0	60	1048575
2026-01-18 17:19:08.17	5.04	52.50	-83.5	-79.0	2.4	0.00e+00	0	49	104	0	60	1048573
2026-01-18 17:19:11.18	3.42	51.03	-83.5	-79.0	2.3	0.00e+00	0	49	104	0	60	1048575
2026-01-18 17:19:14.20	1.96	49.59	-83.5	-79.0	2.4	0.00e+00	0	49	104	0	60	1048575
2026-01-18 17:19:17.22	0.63	48.18	-83.1	-79.0	2.6	0.00e+00	0	49	104	0	60	1048572
2026-01-18 17:19:20.24	359.41	46.81	-83.5	-79.0	2.3	0.00e+00	0	49	104	0	60	1048569
2026-01-18 17:19:23.26	358.30	45.47	-83.5	-79.0	2.4	0.00e+00	0	49	104	0	60	1048573
2026-01-18 17:19:26.28	357.29	44.17	-83.1	-79.0	2.7	0.00e+00	0	49	104	0	60	1048564
2026-01-18 17:19:29.29	356.36	42.91	-83.5	-79.0	2.5	0.00e+00	0	49	104	0	60	1048573
2026-01-18 17:19:32.30	355.50	41.70	-83.5	-79.0	2.4	0.00e+00	0	49	104	0	60	1048573
2026-01-18 17:19:35.32	354.70	40.51	-83.1	-79.0	2.3	0.00e+00	0	49	104	0	60	1048575
2026-01-18 17:19:38.35	353.96	39.36	-83.5	-79.0	2.4	0.00e+00	0	49	104	0	60	1048570
2026-01-18 17:19:41.37	353.28	38.25	-83.1	-79.0	2.3	0.00e+00	0	49	104	0	60	1048575
2026-01-18 17:19:44.39	352.64	37.17	-83.1	-79.0	2.3	0.00e+00	0	49	104	0	60	1048574
2026-01-18 17:19:47.41	352.05	36.13	-83.5	-79.0	2.4	0.00e+00	0	49	104	0	60	1048574
2026-01-18 17:19:50.44	351.49	35.13	-83.1	-79.0	2.5	0.00e+00	0	49	104	0	60	1048568
2026-01-18 17:19:53.46	350.97	34.15	-83.5	-79.0	2.4	0.00e+00	0	49	104	0	60	1048575
2026-01-18 17:19:56.48	350.48	33.21	-83.5	-79.0	2.4	0.00e+00	0	49	104	0	60	1048566
2026-01-18 17:19:59.49	350.03	32.31	-83.1	-79.0	2.4	0.00e+00	0	49	104	0	60	1048575
2026-01-18 17:20:02.52	349.59	31.43	-83.5	-79.0	2.3	0.00e+00	0	49	104	0	60	1048573
2026-01-18 17:20:05.54	349.19	30.57	-83.5	-79.0	2.4	0.00e+00	0	49	104	0	60	1048574
2026-01-18 17:20:08.56	348.80	29.75	-83.5	-79.0	2.4	0.00e+00	0	49	104	0	60	1048575
2026-01-18 17:20:11.59	348.44	28.95	-83.5	-79.0	2.5	0.00e+00	0	49	104	0	60	1048571
2026-01-18 17:20:14.61	348.09	28.18	-83.1	-79.0	2.4	0.00e+00	0	49	104	0	60	1048575
2026-01-18 17:20:17.63	347.77	27.43	-83.1	-79.0	2.3	0.00e+00	0	49	104	0	60	1048555
2026-01-18 17:20:20.64	347.46	26.70	-83.5	-79.0	2.4	0.00e+00	0	49	104	0	60	1048574
2026-01-18 17:20:23.67	347.17	26.00	-82.8	-79.0	2.4	0.00e+00	0	49	104	0	60	1048571
2026-01-18 17:20:26.69	346.89	25.31	-83.5	-79.0	2.4	0.00e+00	0	49	104	0	60	1048575
2026-01-18 17:20:29.71	346.62	24.65	-83.5	-79.0	2.4	0.00e+00	0	49	104	0	60	1048575
2026-01-18 17:20:32.73	346.37	24.01	-83.1	-79.0	2.6	0.00e+00	0	49	104	0	60	1048575
2026-01-18 17:20:35.74	346.13	23.38	-83.5	-79.0	2.5	0.00e+00	0	49	104	0	60	1048574
2026-01-18 17:20:38.75	345.90	22.78	-83.5	-79.0	2.3	0.00e+00	0	49	104	0	60	1048569
2026-01-18 17:20:41.77	345.68	22.18	-83.5	-79.0	2.3	0.00e+00	0	49	104	0	60	1048565
2026-01-18 17:20:44.80	345.46	21.61	-83.5	-79.0	2.3	0.00e+00	0	49	104	0	60	1048574
2026-01-18 17:20:47.82	345.26	21.05	-83.1	-79.0	2.4	0.00e+00	0	49	104	0	60	1048574
2026-01-18 17:20:50.84	345.07	20.50	-83.5	-79.0	2.3	0.00e+00	0	49	104	0	60	1048574
2026-01-18 17:20:53.86	344.88	19.97	-83.5	-79.0	2.4	0.00e+00	0	49	104	0	60	1048571
2026-01-18 17:20:56.88	344.71	19.45	-83.1	-79.0	2.4	0.00e+00	0	49	104	0	60	1048575
2026-01-18 17:20:59.90	344.53	18.95	-83.5	-79.0	2.5	0.00e+00	0	49	104	0	60	1048575
2026-01-18 17:21:02.93	344.37	18.45	-83.5	-79.0	2.4	0.00e+00	0	49	104	0	60	1048575
2026-01-18 17:21:05.95	344.21	17.97	-83.1	-79.0	2.5	0.00e+00	0	49	104	0	60	1048574
2026-01-18 17:21:08.97	344.06	17.51	-83.5	-79.0	2.3	0.00e+00	0	49	104	0	60	1048574
2026-01-18 17:21:11.99	343.92	17.05	-82.8	-79.0	2.5	0.00e+00	0	49	104	0	60	1048575
2026-01-18 17:21:15.01	343.77	16.60	-83.5	-79.0	2.3	0.00e+00	0	49	104	0	60	1048569
2026-01-18 17:21:18.03	343.64	16.16	-83.5	-79.0	2.4	0.00e+00	0	49	104	0	60	1048574
2026-01-18 17:21:21.06	343.51	15.73	-83.1	-79.0	2.4	0.00e+00	0	49	104	0	60	1048574
2026-01-18 17:21:24.07	343.38	15.32	-83.1	-79.0	2.4	0.00e+00	0	49	104	0	60	1048574
2026-01-18 17:21:27.08	343.26	14.91	-83.5	-79.0	2.5	0.00e+00	0	49	104	0	60	1048572
2026-01-18 17:21:30.11	343.14	14.51	-83.1	-79.0	2.3	0.00e+00	0	49	104	0	60	1048573
2026-01-18 17:21:33.13	343.03	14.11	-83.5	-79.0	2.4	0.00e+00	0	49	104	0	60	1048575
2026-01-18 17:21:36.16	342.92	13.73	-83.5	-79.0	2.4	0.00e+00	0	49	104	0	60	1048573
2026-01-18 17:21:39.16	342.82	13.35	-83.1	-79.0	2.5	0.00e+00	0	49	104	0	60	1048563
2026-01-18 17:21:42.19	342.71	12.98	-83.5	-79.0	2.4	0.00e+00	0	49	104	0	60	1048573
2026-01-18 17:21:45.21	342.62	12.62	-83.5	-79.0	2.4	0.00e+00	0	49	104	0	60	1048574
2026-01-18 17:21:48.23	342.52	12.27	-83.5	-79.0	2.4	0.00e+00	0	49	104	0	60	1048571
2026-01-18 17:21:51.25	342.43	11.92	-83.5	-79.0	2.3	0.00e+00	0	49	104	0	60	1048574
2026-01-18 17:21:54.27	342.34	11.57	-83.1	-79.0	2.4	0.00e+00	0	49	104	0	60	1048575
2026-01-18 17:21:57.28	342.25	11.24	-83.1	-79.0	2.4	0.00e+00	0	49	104	0	60	1048568
2026-01-18 17:22:00.30	342.17	10.91	-83.5	-79.0	2.4	0.00e+00	0	49	104	0	60	1048575
2026-01-18 17:22:03.32	342.09	10.58	-82.8	-79.0	2.4	0.00e+00	0	49	104	0	60	1048569
2026-01-18 17:22:06.34	342.01	10.26	-83.5	-79.0	2.4	0.00e+00	0	49	104	0	60	1048572
2026-01-18 17:22:09.36	341.93	9.95	-83.5	-79.0	2.4	0.00e+00	0	49	104	0	60	1048571
2026-01-18 17:22:12.39	341.85	9.64	-83.1	-79.0	2.4	0.00e+00	0	49	104	0	60	1048573
2026-01-18 17:22:15.41	341.78	9.34	-83.5	-79.0	2.5	0.00e+00	0	49	104	0	60	1048574
2026-01-18 17:22:18.43	341.71	9.04	-83.5	-79.0	2.3	0.00e+00	0	49	104	0	60	1048573
2026-01-18 17:22:21.46	341.64	8.74	-83.5	-79.0	2.4	0.00e+00	0	49	104	0	60	1048569
2026-01-18 17:22:24.48	341.58	8.45	-83.5	-79.0	2.3	0.00e+00	0	49	104	0	60	1048575
2026-01-18 17:22:27.50	341.51	8.16	-83.1	-79.0	2.5	0.00e+00	0	49	104	0	60	1048572
2026-01-18 17:22:30.51	341.45	7.88	-83.1	-79.0	2.2	0.00e+00	0	49	104	0	60	1048571
2026-01-18 17:22:33.54	341.39	7.61	-83.5	-79.0	2.4	0.00e+00	0	49	104	0	60	1048572
2026-01-18 17:22:36.56	341.33	7.33	-83.1	-79.0	2.3	0.00e+00	0	49	104	0	60	1048575
2026-01-18 17:22:39.59	341.27	7.06	-83.5	-79.0	2.3	0.00e+00	0	49	104	0	60	1048567
2026-01-18 17:22:42.61	341.22	6.80	-83.1	-79.0	2.5	0.00e+00	0	49	104	0	60	1048574
2026-01-18 17:22:45.63	341.16	6.53	-83.1	-79.0	2.3	0.00e+00	0	49	104	0	60	1048573
2026-01-18 17:22:48.65	341.11	6.27	-83.5	-79.0	2.4	0.00e+00	0	49	104	0	60	1048569
2026-01-18 17:22:51.66	341.06	6.02	-83.1	-79.0	2.4	0.00e+00	0	49	104	0	60	1048566
2026-01-18 17:22:54.68	341.01	5.77	-83.5	-79.0	2.4	0.00e+00	0	49	104	0	60	1048572
2026-01-18 17:22:57.70	340.96	5.52	-83.5	-79.0	2.4	0.00e+00	0	49	104	0	60	1048574
2026-01-18 17:23:00.71	340.92	5.27	-82.8	-79.0	2.4	0.00e+00	0	49	104	0	60	1048575
2026-01-18 17:23:03.72	340.87	5.03	-83.1	-79.0	2.5	0.00e+00	0	49	104	0	60	1048574
2026-01-18 17:23:06.74	340.82	4.79	-83.5	-79.0	2.3	0.00e+00	0	49	104	0	60	1048575
2026-01-18 17:23:09.76	340.78	4.55	-83.1	-79.0	2.3	0.00e+00	0	49	104	0	60	1048565
2026-01-18 17:23:12.78	340.74	4.32	-83.5	-79.0	2.5	0.00e+00	0	49	104	0	60	1048574
2026-01-18 17:23:15.80	340.70	4.08	-83.5	-79.0	2.4	0.00e+00	0	49	104	0	60	1048574
2026-01-18 17:23:18.83	340.66	3.85	-83.1	-79.0	2.5	0.00e+00	0	49	104	0	60	1048571
2026-01-18 17:23:21.84	340.62	3.63	-83.5	-79.0	2.4	0.00e+00	0	49	104	0	60	1048575
2026-01-18 17:23:24.86	340.58	3.40	-83.1	-79.0	2.5	0.00e+00	0	49	104	0	60	1048575
2026-01-18 17:23:27.88	340.54	3.18	-83.5	-79.0	2.4	0.00e+00	0	49	104	0	60	1048572
2026-01-18 17:23:30.89	340.51	2.96	-83.5	-79.0	2.3	0.00e+00	0	49	104	0	60	1048575
2026-01-18 17:23:33.91	340.47	2.74	-83.1	-79.0	2.3	0.00e+00	0	49	104	0	60	1048573
2026-01-18 17:23:36.93	340.44	2.53	-83.5	-79.0	2.3	0.00e+00	0	49	104	0	60	1048572
2026-01-18 17:23:39.95	340.40	2.31	-83.5	-79.0	2.4	0.00e+00	0	49	104	0	60	1048564
2026-01-18 17:23:42.98	340.37	2.10	-83.1	-79.0	2.5	0.00e+00	0	49	104	0	60	1048572
2026-01-18 17:23:46.00	340.34	1.89	-83.5	-79.0	2.4	0.00e+00	0	49	104	0	60	1048575
2026-01-18 17:23:49.03	340.31	1.69	-83.5	-79.0	2.4	0.00e+00	0	49	104	0	60	1048575
2026-01-18 17:23:52.05	340.28	1.48	-83.5	-79.0	2.4	0.00e+00	0	49	104	0	60	1048569
2026-01-18 17:23:55.07	340.25	1.28	-83.5	-79.0	2.4	0.00e+00	0	49	104	0	60	1048561
2026-01-18 17:23:58.09	340.22	1.07	-83.5	-79.0	2.4	0.00e+00	0	49	104	0	60	1048575
2026-01-18 17:24:01.11	340.19	0.87	-83.1	-79.0	2.4	0.00e+00	0	49	104	0	60	1048571
2026-01-18 17:24:04.14	340.16	0.68	-83.5	-79.0	2.5	0.00e+00	0	49	104	0	60	1048574
2026-01-18 17:24:07.16	340.14	0.48	-83.1	-79.0	2.3	0.00e+00	0	49	104	0	60	1048573
2026-01-18 17:24:10.18	340.11	0.28	-83.1	-79.0	2.5	0.00e+00	0	49	104	0	60	1048570
2026-01-18 17:24:13.20	340.08	0.09	-83.5	-79.0	2.4	0.00e+00	0	49	104	0	60	1048567
2026-01-18 17:24:16.21	340.06	-0.10	-83.1	-79.0	2.3	0.00e+00	0	49	104	0	60	1048570

#Closed at: 2026-01-18 17:24:16
#Recorded file [0 MB]: D:/Data/35015_260118_201238.dat