passes_logs/2026/01/18/R3.2S-Naryan-Mar/R3.2S-Naryan-Mar__20260118_110921_FENGYUN_3D_rec.log

#Pass ID: 20260118_110921_FENGYUN 3D
#Satellite: FENGYUN 3D
#Configuration: FENGYUN 3D
#almurnet v.1.7.20240730
#Start time: 2026-01-18 11:15:40

#Version: 2.2.20231116
#Station: R3.2S-Naryan-Mar
#Location: 53.008057 lon 67.646978 lat
#TLE: 1 43010U 17072A   26017.25882587  .00000461  00000+0  23963-3 0  9992
#TLE: 2 43010  98.9934 349.1096 0002357 104.0487 256.0951 14.19697152423579

#Time	Az	El	Level	Level2	SNR	BER	BlckErr	Temp	State	Recorded	gain1	gain2
2026-01-18 11:15:40.98	207.70	43.57	-83.1	-79.0	2.4	0.00e+00	0	49	0	0	60	1048575
2026-01-18 11:15:44.00	208.79	44.21	-84.7	-88.6	6.4	2.78e-01	0	49	0	0	60	1048574
2026-01-18 11:15:47.03	209.93	44.86	-84.7	-88.6	5.3	2.73e-01	0	49	0	0	60	1048575
2026-01-18 11:15:50.05	211.11	45.49	-84.3	-88.6	6.1	2.77e-01	0	49	0	0	60	1048575
2026-01-18 11:15:53.07	212.34	46.13	-84.7	-88.6	6.0	2.78e-01	0	49	0	0	60	1048575
2026-01-18 11:15:56.09	213.62	46.76	-84.7	-88.6	6.1	2.75e-01	0	49	0	0	60	1048574
2026-01-18 11:15:59.12	214.95	47.39	-84.7	-88.6	6.1	2.77e-01	0	48	0	0	60	1048571
2026-01-18 11:16:02.14	216.33	48.00	-85.2	-88.6	5.4	2.76e-01	0	49	0	0	60	1048572
2026-01-18 11:16:05.16	217.77	48.61	-84.7	-88.6	6.0	2.80e-01	0	48	0	0	60	1048570
2026-01-18 11:16:08.18	219.27	49.21	-84.7	-88.6	6.3	2.74e-01	0	48	0	0	60	1048574
2026-01-18 11:16:11.20	220.82	49.79	-84.7	-88.6	6.0	2.79e-01	0	48	0	0	60	1048574
2026-01-18 11:16:14.23	222.44	50.36	-85.2	-88.6	5.7	2.74e-01	0	48	0	0	60	1048574
2026-01-18 11:16:17.25	224.11	50.90	-84.7	-88.6	6.1	2.77e-01	0	49	0	0	60	1048575
2026-01-18 11:16:20.28	225.85	51.43	-85.2	-88.6	5.8	2.76e-01	0	48	0	0	60	1048574
2026-01-18 11:16:23.30	227.64	51.94	-84.7	-88.6	6.3	2.72e-01	0	48	0	0	60	1048573
2026-01-18 11:16:26.32	229.49	52.42	-84.7	-88.6	5.6	2.77e-01	0	48	0	0	60	1048573
2026-01-18 11:16:29.33	231.40	52.88	-85.2	-88.6	6.7	2.75e-01	0	48	0	0	60	1048575
2026-01-18 11:16:32.35	233.37	53.30	-84.7	-88.6	5.8	2.75e-01	0	48	0	0	60	1048574
2026-01-18 11:16:35.37	235.39	53.70	-85.2	-88.6	5.7	2.77e-01	0	48	0	0	60	1048574
2026-01-18 11:16:38.40	237.48	54.06	-85.2	-88.6	6.0	2.77e-01	0	48	0	0	60	1048575
2026-01-18 11:16:41.42	239.61	54.39	-84.7	-88.6	6.5	2.79e-01	0	48	0	0	60	1048575
2026-01-18 11:16:44.45	241.79	54.67	-84.7	-88.6	6.0	2.69e-01	0	48	0	0	60	1048574
2026-01-18 11:16:47.47	244.00	54.92	-84.7	-88.6	6.1	2.77e-01	0	48	0	0	60	1048574
2026-01-18 11:16:50.50	246.26	55.13	-84.7	-88.6	6.2	2.78e-01	0	48	0	0	60	1048574
2026-01-18 11:16:53.52	248.54	55.29	-84.7	-88.6	5.9	2.74e-01	0	48	0	0	60	1048565
2026-01-18 11:16:56.54	250.84	55.41	-85.2	-88.6	6.0	2.80e-01	0	48	0	0	60	1048574
2026-01-18 11:16:59.56	253.16	55.48	-84.7	-88.6	6.0	2.78e-01	0	48	0	0	60	1048575
2026-01-18 11:17:02.58	255.48	55.51	-84.7	-88.6	5.9	2.81e-01	0	48	0	0	60	1048572
2026-01-18 11:17:05.60	257.81	55.49	-84.7	-88.6	6.1	2.78e-01	0	48	0	0	60	1048571
2026-01-18 11:17:08.63	260.13	55.43	-85.2	-88.6	6.4	2.78e-01	0	48	0	0	60	1048573
2026-01-18 11:17:11.65	262.44	55.32	-84.7	-88.6	6.4	2.77e-01	0	48	0	0	60	1048570
2026-01-18 11:17:14.67	264.72	55.16	-84.7	-88.6	5.4	2.78e-01	0	48	0	0	60	1048575
2026-01-18 11:17:17.68	266.97	54.97	-85.2	-88.6	5.8	2.74e-01	0	48	0	0	60	1048575
2026-01-18 11:17:20.70	269.19	54.73	-85.2	-88.6	6.2	2.78e-01	0	48	0	0	60	1048575
2026-01-18 11:17:23.73	271.38	54.45	-84.7	-88.6	6.6	2.75e-01	0	48	0	0	60	1048575
2026-01-18 11:17:26.75	273.52	54.14	-85.2	-88.6	5.5	2.77e-01	0	48	0	0	60	1048572
2026-01-18 11:17:29.77	275.61	53.78	-84.7	-88.6	6.0	2.75e-01	0	48	0	0	60	1048574
2026-01-18 11:17:32.77	277.63	53.40	-85.2	-88.6	6.4	2.71e-01	0	48	0	0	60	1048573
2026-01-18 11:17:35.79	279.61	52.98	-85.2	-88.6	6.1	2.79e-01	0	48	0	0	60	1048573
2026-01-18 11:17:38.81	281.53	52.53	-84.7	-88.6	6.2	2.73e-01	0	48	0	0	60	1048571
2026-01-18 11:17:41.84	283.40	52.06	-85.2	-88.6	3.0	7.57e-01	0	48	104	0	60	1048574
2026-01-18 11:17:44.87	285.21	51.55	-84.7	-88.6	2.9	7.62e-01	0	48	104	0	60	1048575
2026-01-18 11:17:47.89	286.95	51.03	-85.2	-88.6	3.2	7.62e-01	0	48	104	0	60	1048574
2026-01-18 11:17:50.92	288.64	50.49	-85.2	-88.6	3.2	7.63e-01	0	48	104	0	60	1048573
2026-01-18 11:17:53.94	290.26	49.93	-85.2	-88.6	3.5	7.65e-01	0	48	104	0	60	1048570
2026-01-18 11:17:56.97	291.83	49.35	-85.2	-88.6	3.0	7.64e-01	0	48	104	0	60	1048567
2026-01-18 11:17:59.99	293.34	48.76	-84.7	-88.6	2.9	7.63e-01	0	48	104	0	60	1048572
2026-01-18 11:18:03.00	294.78	48.16	-85.2	-88.6	3.0	7.63e-01	0	48	104	0	60	1048574
2026-01-18 11:18:06.02	296.17	47.54	-85.2	-88.6	3.1	7.64e-01	0	48	104	0	60	1048573
2026-01-18 11:18:09.05	297.52	46.92	-85.2	-88.6	3.1	7.64e-01	0	48	104	0	60	1048567
2026-01-18 11:18:12.07	298.81	46.29	-85.2	-88.6	3.4	7.65e-01	0	48	104	0	60	1048572
2026-01-18 11:18:15.09	300.04	45.66	-85.2	-88.6	2.9	7.64e-01	0	48	104	0	60	1048565
2026-01-18 11:18:18.12	301.24	45.02	-85.2	-88.6	2.8	7.64e-01	0	48	104	0	60	1048575
2026-01-18 11:18:21.14	302.38	44.38	-84.7	-88.6	3.6	7.63e-01	0	48	104	0	60	1048572
2026-01-18 11:18:24.16	303.48	43.74	-85.2	-88.6	3.1	7.63e-01	0	48	104	0	60	1048571
2026-01-18 11:18:27.18	304.53	43.10	-85.2	-88.6	3.7	7.64e-01	0	48	104	0	60	1048573
2026-01-18 11:18:30.20	305.55	42.46	-84.7	-88.6	2.9	7.63e-01	0	48	104	0	60	1048572
2026-01-18 11:18:33.21	306.52	41.83	-85.2	-88.6	3.3	7.65e-01	0	48	104	0	60	1048574
2026-01-18 11:18:36.24	307.46	41.19	-85.2	-88.6	2.8	7.63e-01	0	48	104	0	60	1048572
2026-01-18 11:18:39.26	308.37	40.56	-85.2	-88.6	3.0	7.64e-01	0	47	104	0	60	1048573
2026-01-18 11:18:42.28	309.24	39.93	-85.2	-88.6	3.1	7.63e-01	0	48	104	0	60	1048574
2026-01-18 11:18:45.31	310.08	39.30	-85.2	-88.6	3.5	7.63e-01	0	48	104	0	60	1048573
2026-01-18 11:18:48.33	310.88	38.68	-85.2	-88.6	3.5	7.63e-01	0	48	104	0	60	1048575
2026-01-18 11:18:51.36	311.66	38.07	-85.2	-88.6	3.1	7.63e-01	0	48	104	0	60	1048572
2026-01-18 11:18:54.36	312.40	37.46	-85.2	-88.6	3.1	7.64e-01	0	48	104	0	60	1048575
2026-01-18 11:18:57.37	313.12	36.86	-85.2	-88.6	3.1	7.64e-01	0	48	104	0	60	1048575
2026-01-18 11:19:00.39	313.82	36.26	-85.2	-88.6	3.3	7.64e-01	0	47	104	0	60	1048575
2026-01-18 11:19:03.40	314.49	35.68	-85.2	-88.6	2.8	7.63e-01	0	48	104	0	60	1048574
2026-01-18 11:19:06.43	315.14	35.09	-85.2	-88.6	3.4	7.64e-01	0	48	104	0	60	1048574
2026-01-18 11:19:09.45	315.76	34.52	-85.2	-88.6	3.2	7.62e-01	0	48	104	0	60	1048573
2026-01-18 11:19:12.48	316.37	33.94	-84.7	-88.6	3.1	7.62e-01	0	48	104	0	60	1048574
2026-01-18 11:19:15.50	316.96	33.38	-85.2	-88.6	3.7	7.63e-01	0	48	104	0	60	1048575
2026-01-18 11:19:18.53	317.52	32.83	-84.7	-88.6	3.1	7.64e-01	0	48	104	0	60	1048572
2026-01-18 11:19:21.55	318.07	32.28	-85.2	-88.6	3.2	7.63e-01	0	47	104	0	60	1048575
2026-01-18 11:19:24.58	318.60	31.74	-85.2	-88.6	3.1	7.62e-01	0	48	104	0	60	1048573
2026-01-18 11:19:27.60	319.12	31.20	-85.2	-88.6	3.2	7.63e-01	0	48	104	0	60	1048573
2026-01-18 11:19:30.62	319.61	30.68	-85.2	-88.6	3.0	7.63e-01	0	48	104	0	60	1048575
2026-01-18 11:19:33.64	320.09	30.16	-85.2	-88.6	2.7	7.64e-01	0	48	104	0	60	1048574
2026-01-18 11:19:36.66	320.56	29.65	-85.2	-88.6	3.6	7.63e-01	0	47	104	0	60	1048575
2026-01-18 11:19:39.69	321.01	29.14	-85.2	-88.6	2.9	7.64e-01	0	47	104	0	60	1048572
2026-01-18 11:19:42.71	321.45	28.64	-85.2	-88.6	3.4	7.62e-01	0	47	104	0	60	1048574
2026-01-18 11:19:45.73	321.88	28.15	-85.2	-88.6	2.7	7.63e-01	0	47	104	0	60	1048573
2026-01-18 11:19:48.75	322.29	27.67	-85.2	-88.6	3.1	7.64e-01	0	48	104	0	60	1048574
2026-01-18 11:19:51.77	322.69	27.20	-85.2	-88.6	3.5	7.63e-01	0	48	104	0	60	1048570
2026-01-18 11:19:54.80	323.09	26.72	-85.2	-88.6	2.9	7.63e-01	0	47	104	0	60	1048571
2026-01-18 11:19:57.82	323.47	26.26	-85.2	-88.6	3.4	7.64e-01	0	47	104	0	60	1048575
2026-01-18 11:20:00.84	323.84	25.81	-84.7	-88.6	3.2	7.64e-01	0	47	104	0	60	1048575
2026-01-18 11:20:03.85	324.19	25.36	-85.2	-88.6	3.1	7.63e-01	0	47	104	0	60	1048572
2026-01-18 11:20:06.88	324.54	24.92	-85.2	-88.6	3.4	7.63e-01	0	47	104	0	60	1048575
2026-01-18 11:20:09.90	324.89	24.48	-84.7	-88.6	2.8	7.63e-01	0	48	104	0	60	1048575
2026-01-18 11:20:12.92	325.22	24.05	-85.2	-88.6	3.0	7.63e-01	0	47	104	0	60	1048574
2026-01-18 11:20:15.95	325.54	23.62	-85.2	-88.6	3.0	7.64e-01	0	47	104	0	60	1048573
2026-01-18 11:20:18.96	325.86	23.21	-84.7	-88.6	3.8	7.63e-01	0	47	104	0	60	1048567
2026-01-18 11:20:21.98	326.16	22.79	-85.2	-88.6	3.6	7.65e-01	0	48	104	0	60	1048571
2026-01-18 11:20:25.00	326.46	22.39	-85.2	-88.6	3.1	7.63e-01	0	48	104	0	60	1048575
2026-01-18 11:20:28.02	326.75	21.99	-85.2	-88.6	3.5	7.63e-01	0	47	104	0	60	1048573
2026-01-18 11:20:31.04	327.04	21.59	-84.7	-88.6	2.9	7.63e-01	0	48	104	0	60	1048575
2026-01-18 11:20:34.04	327.32	21.20	-84.7	-88.6	2.9	7.63e-01	0	47	104	0	60	1048574
2026-01-18 11:20:37.07	327.59	20.82	-85.2	-88.6	3.3	7.64e-01	0	47	104	0	60	1048571
2026-01-18 11:20:40.08	327.85	20.44	-85.2	-88.6	2.9	7.63e-01	0	48	104	0	60	1048575
2026-01-18 11:20:43.11	328.11	20.07	-85.2	-88.6	3.0	7.64e-01	0	47	104	0	60	1048575
2026-01-18 11:20:46.13	328.37	19.70	-85.2	-88.6	2.9	7.62e-01	0	47	104	0	60	1048574
2026-01-18 11:20:49.15	328.61	19.33	-85.2	-88.6	3.6	7.62e-01	0	47	104	0	60	1048575
2026-01-18 11:20:52.16	328.86	18.97	-84.7	-88.6	3.2	7.62e-01	0	48	104	0	60	1048575
2026-01-18 11:20:55.18	329.09	18.62	-85.2	-88.6	3.2	7.63e-01	0	47	104	0	60	1048572
2026-01-18 11:20:58.20	329.32	18.27	-84.7	-88.6	3.5	7.63e-01	0	48	104	0	60	1048575
2026-01-18 11:21:01.22	329.55	17.92	-85.2	-88.6	2.8	7.63e-01	0	47	104	0	60	1048575
2026-01-18 11:21:04.24	329.77	17.58	-85.2	-88.6	2.9	7.64e-01	0	48	104	0	60	1048571
2026-01-18 11:21:07.26	329.99	17.25	-85.2	-88.6	3.5	7.62e-01	0	48	104	0	60	1048566
2026-01-18 11:21:10.27	330.20	16.92	-84.7	-88.6	3.8	7.63e-01	0	47	104	0	60	1048574
2026-01-18 11:21:13.29	330.41	16.59	-85.2	-88.6	3.6	7.62e-01	0	47	104	0	60	1048572
2026-01-18 11:21:16.31	330.62	16.26	-85.2	-88.6	3.0	7.64e-01	0	48	104	0	60	1048573
2026-01-18 11:21:19.33	330.82	15.94	-85.2	-88.6	3.6	7.64e-01	0	48	104	0	60	1048575
2026-01-18 11:21:22.35	331.01	15.63	-85.2	-88.6	2.8	7.63e-01	0	47	104	0	60	1048571
2026-01-18 11:21:25.37	331.21	15.31	-84.7	-88.6	3.0	7.64e-01	0	47	104	0	60	1048575
2026-01-18 11:21:28.40	331.40	15.00	-85.2	-88.6	3.6	7.63e-01	0	47	104	0	60	1048575
2026-01-18 11:21:31.42	331.58	14.70	-85.2	-88.6	3.0	7.64e-01	0	48	104	0	60	1048573
2026-01-18 11:21:34.44	331.77	14.40	-85.2	-88.6	3.1	7.63e-01	0	47	104	0	60	1048570
2026-01-18 11:21:37.46	331.94	14.10	-85.2	-88.6	3.2	7.63e-01	0	47	104	0	60	1048572
2026-01-18 11:21:40.49	332.12	13.80	-84.7	-88.6	3.0	7.62e-01	0	47	104	0	60	1048571
2026-01-18 11:21:43.51	332.29	13.51	-85.2	-88.6	2.9	7.63e-01	0	47	104	0	60	1048574
2026-01-18 11:21:46.53	332.46	13.22	-85.2	-88.6	3.5	7.63e-01	0	48	104	0	60	1048572
2026-01-18 11:21:49.55	332.63	12.94	-85.2	-88.6	3.5	7.63e-01	0	48	104	0	60	1048575
2026-01-18 11:21:52.58	332.79	12.66	-85.2	-88.6	2.8	7.64e-01	0	48	104	0	60	1048575
2026-01-18 11:21:55.61	332.95	12.38	-85.2	-88.6	3.0	7.63e-01	0	48	104	0	60	1048569
2026-01-18 11:21:58.61	333.11	12.10	-85.2	-88.6	2.8	7.63e-01	0	48	104	0	60	1048573
2026-01-18 11:22:01.64	333.27	11.83	-85.2	-88.6	3.0	7.64e-01	0	47	104	0	60	1048570
2026-01-18 11:22:04.65	333.42	11.56	-84.7	-88.6	3.5	7.64e-01	0	48	104	0	60	1048573
2026-01-18 11:22:07.68	333.57	11.29	-85.2	-88.6	3.1	7.64e-01	0	47	104	0	60	1048575
2026-01-18 11:22:10.70	333.72	11.03	-85.2	-88.6	3.4	7.65e-01	0	48	104	0	60	1048572
2026-01-18 11:22:13.72	333.86	10.76	-84.7	-88.6	2.7	7.61e-01	0	48	104	0	60	1048573
2026-01-18 11:22:16.74	334.00	10.50	-85.2	-88.6	3.2	7.63e-01	0	47	104	0	60	1048574
2026-01-18 11:22:19.76	334.14	10.25	-85.2	-88.6	3.0	7.64e-01	0	47	104	0	60	1048574
2026-01-18 11:22:22.79	334.28	9.99	-85.2	-88.6	3.5	7.62e-01	0	47	104	0	60	1048574
2026-01-18 11:22:25.82	334.42	9.74	-84.7	-88.6	2.7	7.64e-01	0	47	104	0	60	1048573
2026-01-18 11:22:28.84	334.55	9.49	-85.2	-88.6	3.3	7.63e-01	0	47	104	0	60	1048569
2026-01-18 11:22:31.85	334.69	9.24	-85.2	-88.6	3.2	7.63e-01	0	47	104	0	60	1048575
2026-01-18 11:22:34.87	334.82	9.00	-85.2	-88.6	3.7	7.62e-01	0	48	104	0	60	1048575
2026-01-18 11:22:37.89	334.94	8.76	-85.2	-88.6	3.2	7.64e-01	0	47	104	0	60	1048573
2026-01-18 11:22:40.92	335.07	8.52	-84.7	-88.6	3.2	7.64e-01	0	47	104	0	60	1048575
2026-01-18 11:22:43.94	335.20	8.28	-85.2	-88.6	2.9	7.63e-01	0	47	104	0	60	1048574
2026-01-18 11:22:46.96	335.32	8.04	-85.2	-88.6	3.0	7.64e-01	0	47	104	0	60	1048573
2026-01-18 11:22:49.98	335.44	7.81	-85.2	-88.6	3.6	7.63e-01	0	47	104	0	60	1048571
2026-01-18 11:22:53.00	335.56	7.58	-85.2	-88.6	3.1	7.63e-01	0	47	104	0	60	1048575
2026-01-18 11:22:56.03	335.68	7.35	-85.2	-88.6	3.3	7.64e-01	0	47	104	0	60	1048575
2026-01-18 11:22:59.05	335.79	7.12	-85.2	-88.6	3.5	7.62e-01	0	47	104	0	60	1048571
2026-01-18 11:23:02.06	335.91	6.90	-85.2	-88.6	3.6	7.63e-01	0	47	104	0	60	1048573
2026-01-18 11:23:05.08	336.02	6.67	-85.2	-88.6	2.9	7.63e-01	0	47	104	0	60	1048575
2026-01-18 11:23:08.10	336.13	6.45	-85.2	-88.6	3.2	7.64e-01	0	48	104	0	60	1048573
2026-01-18 11:23:11.12	336.24	6.23	-85.2	-88.6	3.0	7.64e-01	0	47	104	0	60	1048574
2026-01-18 11:23:14.13	336.35	6.01	-85.2	-88.6	3.0	7.64e-01	0	47	104	0	60	1048570
2026-01-18 11:23:17.16	336.46	5.79	-85.2	-88.6	2.7	7.63e-01	0	47	104	0	60	1048575
2026-01-18 11:23:20.17	336.56	5.58	-84.7	-88.6	2.8	7.61e-01	0	47	104	0	60	1048570
2026-01-18 11:23:23.18	336.67	5.37	-85.2	-88.6	3.1	7.63e-01	0	47	104	0	60	1048575
2026-01-18 11:23:26.20	336.77	5.16	-85.2	-88.6	3.2	7.64e-01	0	47	104	0	60	1048570
2026-01-18 11:23:29.21	336.87	4.95	-84.7	-88.6	3.6	7.62e-01	0	47	104	0	60	1048573
2026-01-18 11:23:32.23	336.97	4.74	-85.2	-88.6	2.9	7.63e-01	0	47	104	0	60	1048572
2026-01-18 11:23:35.25	337.07	4.53	-84.7	-88.6	3.0	7.63e-01	0	48	104	0	60	1048575
2026-01-18 11:23:38.26	337.17	4.33	-85.2	-88.6	3.6	7.64e-01	0	47	104	0	60	1048572
2026-01-18 11:23:41.29	337.27	4.12	-85.2	-88.6	3.5	7.64e-01	0	48	104	0	60	1048573
2026-01-18 11:23:44.30	337.36	3.92	-84.7	-88.6	3.4	7.63e-01	0	47	104	0	60	1048569
2026-01-18 11:23:47.33	337.46	3.72	-85.2	-88.6	3.5	7.62e-01	0	48	104	0	60	1048575
2026-01-18 11:23:50.35	337.55	3.52	-85.2	-88.6	2.9	7.64e-01	0	48	104	0	60	1048575
2026-01-18 11:23:53.37	337.65	3.32	-85.2	-88.6	3.1	7.63e-01	0	48	104	0	60	1048575
2026-01-18 11:23:56.38	337.74	3.13	-85.2	-88.6	3.0	7.64e-01	0	48	104	0	60	1048569
2026-01-18 11:23:59.40	337.83	2.93	-85.2	-88.6	3.4	7.64e-01	0	48	104	0	60	1048574
2026-01-18 11:24:02.43	337.92	2.74	-85.2	-88.6	2.9	7.61e-01	0	47	104	0	60	1048575
2026-01-18 11:24:05.45	338.01	2.54	-85.2	-88.6	3.5	7.63e-01	0	47	104	0	60	1048575
2026-01-18 11:24:08.47	338.09	2.35	-84.7	-88.6	3.5	7.63e-01	0	47	104	0	60	1048575
2026-01-18 11:24:11.49	338.18	2.16	-85.2	-88.6	3.1	7.65e-01	0	47	104	0	60	1048574
2026-01-18 11:24:14.51	338.27	1.97	-85.2	-88.6	3.5	7.63e-01	0	47	104	0	60	1048574
2026-01-18 11:24:17.54	338.35	1.78	-85.2	-88.6	3.0	7.63e-01	0	47	104	0	60	1048575
2026-01-18 11:24:20.56	338.44	1.60	-85.2	-88.6	3.3	7.63e-01	0	47	104	0	60	1048571
2026-01-18 11:24:23.58	338.52	1.41	-85.2	-88.6	3.5	7.62e-01	0	47	104	0	60	1048572
2026-01-18 11:24:26.60	338.60	1.23	-85.2	-88.6	2.8	7.63e-01	0	47	104	0	60	1048565
2026-01-18 11:24:29.61	338.68	1.05	-85.2	-88.6	3.7	7.62e-01	0	47	104	0	60	1048574
2026-01-18 11:24:32.63	338.76	0.86	-85.2	-88.6	3.8	7.63e-01	0	47	104	0	60	1048568
2026-01-18 11:24:35.64	338.84	0.68	-85.2	-88.6	3.3	7.62e-01	0	47	104	0	60	1048575
2026-01-18 11:24:38.67	338.92	0.50	-85.2	-88.6	3.0	7.63e-01	0	47	104	0	60	1048574
2026-01-18 11:24:41.69	339.00	0.32	-84.7	-88.6	3.6	7.64e-01	0	47	104	0	60	1048571
2026-01-18 11:24:44.72	339.08	0.15	-85.2	-88.6	3.1	7.63e-01	0	47	104	0	60	1048575
2026-01-18 11:24:47.74	339.15	-0.03	-85.2	-88.6	3.2	7.63e-01	0	47	104	0	60	1048575

#Closed at: 2026-01-18 11:24:49
#Recorded file [0 MB]: D:/Data/35015_260118_141540.dat