passes_logs/2026/01/18/R3.2S-Naryan-Mar/R3.2S-Naryan-Mar__20260118_043229_FENGYUN_3D_rec.log

#Pass ID: 20260118_043229_FENGYUN 3D
#Satellite: FENGYUN 3D
#Configuration: FENGYUN 3D
#almurnet v.1.7.20240730
#Start time: 2026-01-18 04:32:30

#Version: 2.2.20231116
#Station: R3.2S-Naryan-Mar
#Location: 53.008057 lon 67.646978 lat
#TLE: 1 43010U 17072A   26017.25882587  .00000461  00000+0  23963-3 0  9992
#TLE: 2 43010  98.9934 349.1096 0002357 104.0487 256.0951 14.19697152423579

#Time	Az	El	Level	Level2	SNR	BER	BlckErr	Temp	State	Recorded	gain1	gain2
2026-01-18 04:32:30.62	44.92	0.04	-83.9	-88.8	2.8	3.12e+01	0	45	0	0	60	1048574
2026-01-18 04:32:34.63	44.70	0.26	-84.7	-88.6	6.0	2.80e-01	0	46	0	0	60	1048567
2026-01-18 04:32:38.65	44.47	0.48	-84.7	-88.6	6.2	2.79e-01	0	46	0	0	60	1048573
2026-01-18 04:32:42.68	44.25	0.70	-84.7	-88.6	6.2	2.82e-01	0	46	0	0	60	1048571
2026-01-18 04:32:46.71	44.02	0.92	-85.2	-88.6	5.8	2.86e-01	0	46	0	0	60	1048573
2026-01-18 04:32:50.73	43.78	1.15	-84.7	-88.6	5.8	2.80e-01	0	46	0	0	60	1048573
2026-01-18 04:32:54.76	43.54	1.37	-85.2	-88.6	6.3	2.83e-01	0	46	0	0	60	1048575
2026-01-18 04:32:58.78	43.30	1.60	-84.7	-88.6	5.7	2.78e-01	0	47	0	0	60	1048570
2026-01-18 04:33:02.80	43.06	1.82	-84.7	-88.6	5.8	2.78e-01	0	46	0	0	60	1048572
2026-01-18 04:33:06.83	42.81	2.05	-85.2	-88.6	5.6	2.75e-01	0	46	0	0	60	1048571
2026-01-18 04:33:10.85	42.56	2.28	-84.7	-88.6	5.7	2.78e-01	0	47	0	0	60	1048574
2026-01-18 04:33:14.88	42.30	2.51	-85.2	-88.6	6.0	2.76e-01	0	47	0	0	60	1048574
2026-01-18 04:33:18.90	42.04	2.75	-84.7	-88.6	5.9	2.77e-01	0	46	0	0	60	1048575
2026-01-18 04:33:22.93	41.77	2.98	-84.7	-88.6	5.9	2.81e-01	0	47	0	0	60	1048573
2026-01-18 04:33:26.95	41.50	3.22	-84.7	-88.6	6.3	2.76e-01	0	47	0	0	60	1048573
2026-01-18 04:33:30.97	41.22	3.45	-84.7	-88.6	5.9	2.74e-01	0	47	0	0	60	1048572
2026-01-18 04:33:35.00	40.94	3.69	-84.7	-88.6	6.3	2.75e-01	0	47	0	0	60	1048572
2026-01-18 04:33:39.02	40.66	3.93	-84.7	-88.6	5.9	2.79e-01	0	47	0	0	60	1048574
2026-01-18 04:33:43.05	40.37	4.17	-85.2	-88.6	5.9	2.78e-01	0	47	0	0	60	1048574
2026-01-18 04:33:47.08	40.07	4.41	-85.2	-88.6	5.5	2.74e-01	0	47	0	0	60	1048575
2026-01-18 04:33:51.11	39.77	4.66	-84.7	-88.6	5.9	2.79e-01	0	47	0	0	60	1048574
2026-01-18 04:33:55.14	39.46	4.90	-84.7	-88.6	6.3	2.77e-01	0	47	0	0	60	1048570
2026-01-18 04:33:59.16	39.15	5.15	-84.7	-88.6	5.7	2.78e-01	0	47	0	0	60	1048574
2026-01-18 04:34:03.18	38.83	5.40	-84.7	-88.6	5.6	2.77e-01	0	47	0	0	60	1048572
2026-01-18 04:34:07.21	38.51	5.65	-84.7	-88.6	5.6	2.75e-01	0	47	0	0	60	1048571
2026-01-18 04:34:11.24	38.18	5.90	-84.7	-88.6	5.5	2.74e-01	0	47	0	0	60	1048572
2026-01-18 04:34:15.26	37.85	6.15	-84.7	-88.6	6.2	2.76e-01	0	47	0	0	60	1048568
2026-01-18 04:34:19.28	37.51	6.40	-84.7	-88.6	5.8	2.76e-01	0	47	0	0	60	1048573
2026-01-18 04:34:23.31	37.16	6.66	-85.2	-88.6	6.0	2.77e-01	0	47	0	0	60	1048571
2026-01-18 04:34:27.34	36.81	6.92	-85.2	-88.6	6.3	2.78e-01	0	47	0	0	60	1048574
2026-01-18 04:34:31.36	36.45	7.18	-84.7	-88.6	6.2	2.80e-01	0	47	0	0	60	1048574
2026-01-18 04:34:35.39	36.08	7.44	-85.2	-88.6	5.8	2.78e-01	0	47	0	0	60	1048569
2026-01-18 04:34:39.43	35.70	7.70	-84.7	-88.6	5.7	2.76e-01	0	47	0	0	60	1048574
2026-01-18 04:34:43.46	35.32	7.96	-84.7	-88.6	6.3	2.78e-01	0	47	0	0	60	1048575
2026-01-18 04:34:47.49	34.94	8.23	-84.7	-88.6	6.6	2.78e-01	0	47	0	0	60	1048571
2026-01-18 04:34:51.52	34.54	8.49	-84.7	-88.6	5.9	2.75e-01	0	47	0	0	60	1048571
2026-01-18 04:34:55.54	34.14	8.76	-85.2	-88.6	6.3	2.76e-01	0	47	0	0	60	1048575
2026-01-18 04:34:59.57	33.73	9.03	-85.2	-88.6	6.5	2.77e-01	0	47	0	0	60	1048569
2026-01-18 04:35:03.58	33.31	9.30	-85.2	-88.6	3.4	7.64e-01	0	47	104	0	60	1048575
2026-01-18 04:35:07.61	32.88	9.57	-84.7	-88.6	2.8	7.63e-01	0	47	104	0	60	1048572
2026-01-18 04:35:11.63	32.45	9.85	-84.7	-88.6	3.5	7.63e-01	0	47	104	0	60	1048575
2026-01-18 04:35:15.65	32.01	10.12	-85.2	-88.6	3.1	7.62e-01	0	47	104	0	60	1048574
2026-01-18 04:35:19.67	31.55	10.40	-85.2	-88.6	3.0	7.64e-01	0	47	104	0	60	1048575
2026-01-18 04:35:23.70	31.09	10.67	-85.2	-88.6	3.5	7.63e-01	0	47	104	0	60	1048574
2026-01-18 04:35:27.73	30.62	10.95	-85.2	-88.6	3.1	7.64e-01	0	47	104	0	60	1048571
2026-01-18 04:35:31.76	30.14	11.23	-85.2	-88.6	3.6	7.64e-01	0	47	104	0	60	1048575
2026-01-18 04:35:35.78	29.65	11.51	-84.7	-88.6	2.8	7.65e-01	0	47	104	0	60	1048568
2026-01-18 04:35:39.81	29.15	11.80	-84.7	-88.6	3.3	7.63e-01	0	47	104	0	60	1048575
2026-01-18 04:35:43.84	28.64	12.08	-85.2	-88.6	3.6	7.57e-01	0	47	104	0	60	1048575
2026-01-18 04:35:47.87	28.12	12.36	-85.2	-88.6	3.7	7.64e-01	0	47	104	0	60	1048565
2026-01-18 04:35:51.90	27.60	12.65	-85.2	-88.6	2.9	7.63e-01	0	47	104	0	60	1048573
2026-01-18 04:35:55.92	27.06	12.94	-85.2	-88.6	3.3	7.63e-01	0	47	104	0	60	1048573
2026-01-18 04:35:59.95	26.50	13.22	-85.2	-88.6	3.6	7.62e-01	0	47	104	0	60	1048575
2026-01-18 04:36:03.98	25.94	13.51	-84.7	-88.6	3.4	7.62e-01	0	47	104	0	60	1048574
2026-01-18 04:36:08.01	25.37	13.80	-85.2	-88.6	3.4	7.63e-01	0	47	104	0	60	1048568
2026-01-18 04:36:12.04	24.78	14.09	-85.2	-88.6	2.9	7.62e-01	0	47	104	0	60	1048569
2026-01-18 04:36:16.06	24.19	14.38	-85.2	-88.6	3.6	7.64e-01	0	47	104	0	60	1048572
2026-01-18 04:36:20.09	23.58	14.67	-85.2	-88.6	3.2	7.64e-01	0	47	104	0	60	1048574
2026-01-18 04:36:24.12	22.96	14.96	-85.2	-88.6	3.5	7.64e-01	0	47	104	0	60	1048575
2026-01-18 04:36:28.15	22.32	15.25	-85.2	-88.6	3.0	7.63e-01	0	47	104	0	60	1048574
2026-01-18 04:36:32.17	21.68	15.53	-85.2	-88.6	3.4	7.63e-01	0	47	104	0	60	1048573
2026-01-18 04:36:36.20	21.02	15.82	-85.2	-88.6	3.0	7.64e-01	0	47	104	0	60	1048574
2026-01-18 04:36:40.23	20.35	16.11	-84.7	-88.6	3.2	7.63e-01	0	47	104	0	60	1048575
2026-01-18 04:36:44.26	19.66	16.40	-85.2	-88.6	3.4	7.64e-01	0	47	104	0	60	1048575
2026-01-18 04:36:48.27	18.97	16.68	-85.2	-88.6	3.4	7.62e-01	0	47	104	0	60	1048575
2026-01-18 04:36:52.29	18.26	16.97	-85.2	-88.6	3.3	7.63e-01	0	47	104	0	60	1048570
2026-01-18 04:36:56.32	17.53	17.25	-85.2	-88.6	2.7	7.64e-01	0	47	104	0	60	1048574
2026-01-18 04:37:00.35	16.79	17.54	-85.2	-88.6	3.1	7.65e-01	0	47	104	0	60	1048574
2026-01-18 04:37:04.37	16.04	17.82	-85.2	-88.6	2.9	7.64e-01	0	47	104	0	60	1048572
2026-01-18 04:37:08.41	15.26	18.10	-85.2	-88.6	3.8	7.63e-01	0	47	104	0	60	1048574
2026-01-18 04:37:12.44	14.48	18.37	-85.2	-88.6	2.9	7.63e-01	0	47	104	0	60	1048573
2026-01-18 04:37:16.47	13.68	18.65	-85.2	-88.6	2.8	7.63e-01	0	47	104	0	60	1048571
2026-01-18 04:37:20.49	12.87	18.92	-85.2	-88.6	3.0	7.64e-01	0	47	104	0	60	1048573
2026-01-18 04:37:24.52	12.05	19.19	-84.7	-88.6	3.0	7.63e-01	0	47	104	0	60	1048573
2026-01-18 04:37:28.55	11.20	19.45	-85.2	-88.6	3.0	7.63e-01	0	47	104	0	60	1048575
2026-01-18 04:37:32.58	10.35	19.71	-85.2	-88.6	3.4	7.63e-01	0	47	104	0	60	1048573
2026-01-18 04:37:36.60	9.48	19.97	-85.2	-88.6	2.8	7.64e-01	0	47	104	0	60	1048572
2026-01-18 04:37:40.62	8.59	20.22	-85.2	-88.6	3.0	7.62e-01	0	47	104	0	60	1048575
2026-01-18 04:37:44.65	7.69	20.46	-85.2	-88.6	3.2	7.62e-01	0	47	104	0	60	1048569
2026-01-18 04:37:48.69	6.77	20.71	-84.7	-88.6	3.0	7.63e-01	0	47	104	0	60	1048574
2026-01-18 04:37:52.72	5.84	20.94	-85.2	-88.6	3.0	7.63e-01	0	47	104	0	60	1048575
2026-01-18 04:37:56.75	4.90	21.17	-84.7	-88.6	3.0	7.63e-01	0	47	104	0	60	1048575
2026-01-18 04:38:00.78	3.94	21.40	-85.2	-88.6	3.0	7.64e-01	0	47	104	0	60	1048575
2026-01-18 04:38:04.80	2.97	21.61	-85.2	-88.6	3.0	7.64e-01	0	47	104	0	60	1048575
2026-01-18 04:38:08.83	1.98	21.82	-85.2	-88.6	3.1	7.63e-01	0	47	104	0	60	1048574
2026-01-18 04:38:12.86	0.98	22.03	-84.7	-88.6	3.6	7.63e-01	0	47	104	0	60	1048573
2026-01-18 04:38:16.89	359.97	22.22	-85.2	-88.6	3.3	7.63e-01	0	47	104	0	60	1048573
2026-01-18 04:38:20.92	358.95	22.41	-85.2	-88.6	3.3	7.63e-01	0	47	104	0	60	1048575
2026-01-18 04:38:24.95	357.91	22.58	-85.2	-88.6	3.3	7.64e-01	0	47	104	0	60	1048570
2026-01-18 04:38:28.97	356.86	22.75	-85.2	-88.6	3.1	7.64e-01	0	47	104	0	60	1048575
2026-01-18 04:38:33.01	355.80	22.91	-85.2	-88.6	3.1	7.63e-01	0	47	104	0	60	1048574
2026-01-18 04:38:37.04	354.73	23.06	-84.7	-88.6	2.9	7.63e-01	0	47	104	0	60	1048573
2026-01-18 04:38:41.06	353.65	23.20	-84.7	-88.6	3.7	7.64e-01	0	47	104	0	60	1048575
2026-01-18 04:38:45.09	352.56	23.33	-85.2	-88.6	3.6	7.62e-01	0	47	104	0	60	1048574
2026-01-18 04:38:49.12	351.46	23.45	-85.2	-88.6	3.2	7.63e-01	0	47	104	0	60	1048574
2026-01-18 04:38:53.15	350.35	23.55	-85.2	-88.6	3.1	7.63e-01	0	47	104	0	60	1048574
2026-01-18 04:38:57.17	349.24	23.65	-84.7	-88.6	3.1	7.62e-01	0	47	104	0	60	1048571
2026-01-18 04:39:01.19	348.12	23.73	-85.2	-88.6	3.1	7.62e-01	0	47	104	0	60	1048572
2026-01-18 04:39:05.20	347.00	23.80	-84.7	-88.6	3.5	7.63e-01	0	47	104	0	60	1048573
2026-01-18 04:39:09.23	345.87	23.87	-84.7	-88.6	3.5	7.63e-01	0	47	104	0	60	1048575
2026-01-18 04:39:13.26	344.73	23.91	-85.2	-88.6	3.1	7.63e-01	0	47	104	0	60	1048575
2026-01-18 04:39:17.28	343.60	23.95	-84.7	-88.6	3.1	7.63e-01	0	47	104	0	60	1048575
2026-01-18 04:39:21.31	342.45	23.98	-85.2	-88.6	3.2	7.64e-01	0	47	104	0	60	1048572
2026-01-18 04:39:25.34	341.31	23.99	-85.2	-88.6	3.5	7.63e-01	0	47	104	0	60	1048571
2026-01-18 04:39:29.36	340.17	23.99	-85.2	-88.6	3.4	7.63e-01	0	47	104	0	60	1048570
2026-01-18 04:39:33.40	339.03	23.97	-84.7	-88.6	2.9	7.62e-01	0	47	104	0	60	1048575
2026-01-18 04:39:37.42	337.89	23.95	-85.2	-88.6	3.1	7.63e-01	0	47	104	0	60	1048565
2026-01-18 04:39:41.45	336.75	23.91	-85.2	-88.6	3.6	7.63e-01	0	47	104	0	60	1048573
2026-01-18 04:39:45.47	335.62	23.86	-85.2	-88.6	3.6	7.63e-01	0	47	104	0	60	1048575
2026-01-18 04:39:49.51	334.48	23.80	-85.2	-88.6	3.4	7.64e-01	0	47	104	0	60	1048575
2026-01-18 04:39:53.54	333.35	23.73	-85.2	-88.6	2.9	7.62e-01	0	47	104	0	60	1048575
2026-01-18 04:39:57.57	332.23	23.64	-85.2	-88.6	2.8	7.63e-01	0	47	104	0	60	1048574
2026-01-18 04:40:01.59	331.12	23.55	-84.7	-88.6	3.0	7.62e-01	0	47	104	0	60	1048573
2026-01-18 04:40:05.61	330.02	23.44	-85.2	-88.6	3.0	7.65e-01	0	47	104	0	60	1048575
2026-01-18 04:40:09.64	328.92	23.32	-85.2	-88.6	3.2	7.62e-01	0	47	104	0	60	1048575
2026-01-18 04:40:13.67	327.83	23.19	-85.2	-88.6	3.0	7.62e-01	0	47	104	0	60	1048572
2026-01-18 04:40:17.70	326.74	23.05	-84.7	-88.6	3.3	7.62e-01	0	47	104	0	60	1048572
2026-01-18 04:40:21.72	325.68	22.90	-85.2	-88.6	3.5	7.63e-01	0	47	104	0	60	1048575
2026-01-18 04:40:25.75	324.62	22.74	-84.7	-88.6	3.1	7.62e-01	0	47	104	0	60	1048570
2026-01-18 04:40:29.78	323.57	22.57	-85.2	-88.6	2.9	7.62e-01	0	47	104	0	60	1048572
2026-01-18 04:40:33.81	322.53	22.39	-85.2	-88.6	3.0	7.60e-01	0	47	104	0	60	1048566
2026-01-18 04:40:37.81	321.51	22.21	-85.2	-88.6	2.8	7.64e-01	0	47	104	0	60	1048574
2026-01-18 04:40:41.84	320.50	22.01	-85.2	-88.6	3.1	7.64e-01	0	47	104	0	60	1048574
2026-01-18 04:40:45.86	319.50	21.81	-85.2	-88.6	3.2	7.63e-01	0	47	104	0	60	1048573
2026-01-18 04:40:49.89	318.51	21.60	-84.7	-88.6	3.1	7.64e-01	0	47	104	0	60	1048574
2026-01-18 04:40:53.91	317.54	21.38	-85.2	-88.6	3.1	7.63e-01	0	47	104	0	60	1048574
2026-01-18 04:40:57.93	316.59	21.16	-85.2	-88.6	2.8	7.64e-01	0	47	104	0	60	1048574
2026-01-18 04:41:01.96	315.64	20.93	-85.2	-88.6	3.6	7.63e-01	0	47	104	0	60	1048572
2026-01-18 04:41:05.98	314.71	20.69	-84.3	-88.6	3.0	7.64e-01	0	47	104	0	60	1048571
2026-01-18 04:41:10.01	313.80	20.45	-84.7	-88.6	2.9	7.62e-01	0	47	104	0	60	1048570
2026-01-18 04:41:14.04	312.89	20.20	-85.2	-88.6	3.0	7.64e-01	0	47	104	0	60	1048575
2026-01-18 04:41:18.07	312.01	19.95	-85.2	-88.6	3.1	7.63e-01	0	47	104	0	60	1048572
2026-01-18 04:41:22.09	311.14	19.69	-85.2	-88.6	3.7	7.64e-01	0	47	104	0	60	1048574
2026-01-18 04:41:26.13	310.28	19.43	-85.2	-88.6	3.4	7.64e-01	0	47	104	0	60	1048569
2026-01-18 04:41:30.15	309.44	19.17	-85.2	-88.6	3.1	7.61e-01	0	47	104	0	60	1048574
2026-01-18 04:41:34.18	308.61	18.90	-85.2	-88.6	3.0	7.64e-01	0	47	104	0	60	1048573
2026-01-18 04:41:38.21	307.80	18.63	-85.2	-88.6	3.1	7.64e-01	0	47	104	0	60	1048574
2026-01-18 04:41:42.24	307.00	18.35	-85.2	-88.6	3.4	7.63e-01	0	47	104	0	60	1048574
2026-01-18 04:41:46.27	306.21	18.08	-84.7	-88.6	3.5	7.63e-01	0	47	104	0	60	1048574
2026-01-18 04:41:50.28	305.45	17.80	-85.2	-88.6	3.3	7.63e-01	0	47	104	0	60	1048572
2026-01-18 04:41:54.31	304.69	17.52	-85.2	-88.6	3.1	7.63e-01	0	47	104	0	60	1048573
2026-01-18 04:41:58.33	303.95	17.23	-85.2	-88.6	3.6	7.64e-01	0	47	104	0	60	1048575
2026-01-18 04:42:02.35	303.23	16.95	-85.2	-88.6	2.8	7.63e-01	0	47	104	0	60	1048574
2026-01-18 04:42:06.37	302.51	16.67	-85.2	-88.6	3.0	7.61e-01	0	47	104	0	60	1048571
2026-01-18 04:42:10.40	301.82	16.38	-85.2	-88.6	3.1	7.63e-01	0	47	104	0	60	1048575
2026-01-18 04:42:14.42	301.13	16.09	-84.7	-88.6	2.9	7.64e-01	0	47	104	0	60	1048565
2026-01-18 04:42:18.44	300.46	15.80	-85.2	-88.6	3.1	7.62e-01	0	47	104	0	60	1048571
2026-01-18 04:42:22.47	299.80	15.51	-85.2	-88.6	3.5	7.64e-01	0	47	104	0	60	1048575
2026-01-18 04:42:26.50	299.15	15.22	-85.2	-88.6	2.8	7.63e-01	0	47	104	0	60	1048573
2026-01-18 04:42:30.53	298.52	14.93	-85.2	-88.6	3.2	7.63e-01	0	47	104	0	60	1048575
2026-01-18 04:42:34.55	297.90	14.64	-85.2	-88.6	3.1	7.64e-01	0	47	104	0	60	1048573
2026-01-18 04:42:38.57	297.29	14.35	-84.7	-88.6	3.0	7.64e-01	0	47	104	0	60	1048574
2026-01-18 04:42:42.60	296.69	14.06	-85.2	-88.6	3.6	7.64e-01	0	47	104	0	60	1048574
2026-01-18 04:42:46.63	296.10	13.78	-85.2	-88.6	3.4	7.63e-01	0	47	104	0	60	1048574
2026-01-18 04:42:50.66	295.53	13.49	-85.2	-88.6	2.9	7.62e-01	0	47	104	0	60	1048575
2026-01-18 04:42:54.70	294.96	13.20	-85.2	-88.6	2.9	7.63e-01	0	47	104	0	60	1048573
2026-01-18 04:42:58.71	294.42	12.91	-85.2	-88.6	2.9	7.64e-01	0	47	104	0	60	1048566
2026-01-18 04:43:02.73	293.88	12.63	-84.7	-88.6	3.0	7.63e-01	0	47	104	0	60	1048572
2026-01-18 04:43:06.74	293.35	12.34	-84.7	-88.6	3.3	7.62e-01	0	47	104	0	60	1048575
2026-01-18 04:43:10.76	292.83	12.06	-85.2	-88.6	3.5	7.63e-01	0	47	104	0	60	1048575
2026-01-18 04:43:14.79	292.32	11.77	-84.7	-88.6	3.2	7.63e-01	0	47	104	0	60	1048572
2026-01-18 04:43:18.82	291.82	11.49	-85.2	-88.6	3.0	7.63e-01	0	47	104	0	60	1048572
2026-01-18 04:43:22.85	291.33	11.21	-84.7	-88.6	3.1	7.63e-01	0	47	104	0	60	1048571
2026-01-18 04:43:26.87	290.85	10.93	-83.5	-88.6	3.4	7.63e-01	0	47	104	0	60	1048574
2026-01-18 04:43:30.89	290.38	10.65	-84.7	-88.6	3.6	7.63e-01	0	47	104	0	60	1048573
2026-01-18 04:43:34.93	289.91	10.37	-84.7	-88.6	3.3	7.63e-01	0	47	104	0	60	1048573
2026-01-18 04:43:38.95	289.46	10.09	-84.7	-88.6	3.4	7.63e-01	0	47	104	0	60	1048575
2026-01-18 04:43:42.98	289.02	9.82	-85.2	-88.6	2.7	7.63e-01	0	47	104	0	60	1048573
2026-01-18 04:43:47.01	288.58	9.54	-84.7	-88.6	2.8	7.62e-01	0	47	104	0	60	1048571
2026-01-18 04:43:51.04	288.15	9.27	-84.7	-88.6	3.6	7.63e-01	0	47	104	0	60	1048573
2026-01-18 04:43:55.07	287.73	9.00	-84.7	-88.6	3.0	7.63e-01	0	47	104	0	60	1048569
2026-01-18 04:43:59.10	287.32	8.73	-85.2	-88.6	3.0	7.64e-01	0	47	104	0	60	1048558
2026-01-18 04:44:03.12	286.92	8.46	-84.7	-88.6	3.6	7.64e-01	0	47	104	0	60	1048568
2026-01-18 04:44:07.16	286.52	8.20	-84.7	-88.6	3.0	7.62e-01	0	47	104	0	60	1048573
2026-01-18 04:44:11.19	286.13	7.93	-84.7	-88.6	2.9	7.63e-01	0	47	104	0	60	1048571
2026-01-18 04:44:15.22	285.75	7.67	-84.7	-88.6	3.1	7.62e-01	0	47	104	0	60	1048566
2026-01-18 04:44:19.24	285.37	7.41	-84.7	-88.6	3.3	7.63e-01	0	47	104	0	60	1048575
2026-01-18 04:44:23.27	285.00	7.14	-84.7	-88.6	3.6	7.65e-01	0	47	104	0	60	1048575
2026-01-18 04:44:27.31	284.64	6.88	-84.7	-88.6	3.7	7.64e-01	0	47	104	0	60	1048575
2026-01-18 04:44:31.33	284.29	6.63	-84.7	-88.6	3.4	7.62e-01	0	47	104	0	60	1048572
2026-01-18 04:44:35.36	283.94	6.37	-84.7	-88.6	3.1	7.65e-01	0	47	104	0	60	1048570
2026-01-18 04:44:39.39	283.60	6.12	-84.7	-88.6	3.2	7.63e-01	0	47	104	0	60	1048572
2026-01-18 04:44:43.42	283.26	5.86	-85.2	-88.6	3.2	7.62e-01	0	47	104	0	60	1048572
2026-01-18 04:44:47.44	282.93	5.61	-84.7	-88.6	3.1	7.64e-01	0	47	104	0	60	1048574
2026-01-18 04:44:51.47	282.61	5.36	-85.2	-88.6	2.9	7.63e-01	0	47	104	0	60	1048575
2026-01-18 04:44:55.50	282.29	5.11	-84.7	-88.6	3.1	7.63e-01	0	47	104	0	60	1048573
2026-01-18 04:44:59.53	281.98	4.87	-84.7	-88.6	2.9	7.64e-01	0	47	104	0	60	1048574
2026-01-18 04:45:03.56	281.67	4.62	-84.7	-88.6	2.9	7.63e-01	0	47	104	0	60	1048573
2026-01-18 04:45:07.59	281.37	4.38	-84.3	-88.6	3.0	7.63e-01	0	47	104	0	60	1048574
2026-01-18 04:45:11.62	281.07	4.13	-84.7	-88.6	3.1	7.64e-01	0	47	104	0	60	1048573
2026-01-18 04:45:15.65	280.78	3.89	-84.7	-88.6	3.0	7.63e-01	0	47	104	0	60	1048573
2026-01-18 04:45:19.68	280.49	3.65	-84.7	-88.6	3.0	7.64e-01	0	47	104	0	60	1048575
2026-01-18 04:45:23.71	280.21	3.41	-84.7	-88.6	3.1	7.59e-01	0	47	104	0	60	1048575
2026-01-18 04:45:27.74	279.93	3.18	-84.7	-88.6	3.5	7.64e-01	0	47	104	0	60	1048571
2026-01-18 04:45:31.77	279.66	2.94	-84.7	-88.6	3.4	7.64e-01	0	47	104	0	60	1048573
2026-01-18 04:45:35.79	279.39	2.71	-84.7	-88.6	3.5	7.63e-01	0	47	104	0	60	1048571
2026-01-18 04:45:39.80	279.13	2.48	-84.7	-88.6	2.8	7.64e-01	0	47	104	0	60	1048567
2026-01-18 04:45:43.84	278.87	2.24	-84.7	-88.6	3.0	7.63e-01	0	47	104	0	60	1048575
2026-01-18 04:45:47.87	278.61	2.01	-85.2	-88.6	3.5	7.64e-01	0	47	104	0	60	1048575
2026-01-18 04:45:51.90	278.36	1.78	-84.7	-88.6	3.2	7.63e-01	0	47	104	0	60	1048575
2026-01-18 04:45:55.93	278.12	1.56	-85.2	-88.6	3.1	7.63e-01	0	47	104	0	60	1048573
2026-01-18 04:45:59.94	277.87	1.33	-84.7	-88.6	3.1	7.63e-01	0	47	104	0	60	1048573
2026-01-18 04:46:03.97	277.63	1.11	-85.2	-88.6	3.0	7.63e-01	0	47	104	0	60	1048575
2026-01-18 04:46:08.00	277.40	0.88	-84.7	-88.6	3.1	7.64e-01	0	47	104	0	60	1048575
2026-01-18 04:46:12.02	277.17	0.66	-85.2	-88.6	2.9	7.62e-01	0	47	104	0	60	1048574
2026-01-18 04:46:16.04	276.94	0.44	-85.2	-88.6	3.7	7.64e-01	0	47	104	0	60	1048572
2026-01-18 04:46:20.07	276.72	0.22	-85.2	-88.6	3.5	7.65e-01	0	47	104	0	60	1048574
2026-01-18 04:46:24.10	276.49	0.00	-84.7	-88.6	3.4	7.63e-01	0	47	104	0	60	1048575

#Closed at: 2026-01-18 04:46:26
#Recorded file [0 MB]: D:/Data/35015_260118_073230.dat