passes_logs/2026/01/18/R3.2S-Naryan-Mar/R3.2S-Naryan-Mar__20260118_065042_SUOMI_NPP_rec.log

#Pass ID: 20260118_065042_SUOMI NPP
#Satellite: SUOMI NPP
#Configuration: NPP
#almurnet v.1.7.20240730
#Start time: 2026-01-18 06:54:36

#Version: 2.2.20231116
#Station: R3.2S-Naryan-Mar
#Location: 53.008057 lon 67.646978 lat
#TLE: 1 37849U 11061A   26017.28905266  .00000074  00000+0  55894-4 0  9999
#TLE: 2 37849  98.7814 319.3179 0002408  59.7048 300.4366 14.19525847737038

#Time	Az	El	Level	Level2	SNR	BER	BlckErr	Temp	State	Recorded	gain1	gain2
2026-01-18 06:54:36.96	103.78	18.23	-83.5	-79.0	2.4	0.00e+00	0	48	0	0	60	1048569
2026-01-18 06:54:39.98	103.43	18.55	-84.7	-88.6	3.1	1.55e+00	0	49	104	0	60	1048575
2026-01-18 06:54:43.00	103.07	18.88	-85.2	-88.6	3.0	1.56e+00	0	48	104	0	60	1048575
2026-01-18 06:54:46.02	102.71	19.21	-85.2	-88.6	3.1	1.55e+00	0	48	104	0	60	1048575
2026-01-18 06:54:49.05	102.33	19.54	-84.3	-88.6	2.7	1.56e+00	0	48	104	0	60	1048573
2026-01-18 06:54:52.07	101.95	19.88	-85.2	-88.6	3.1	1.56e+00	0	48	104	0	60	1048575
2026-01-18 06:54:55.09	101.56	20.22	-85.2	-88.6	3.1	1.56e+00	0	48	104	0	60	1048571
2026-01-18 06:54:58.12	101.16	20.56	-85.2	-88.6	2.9	1.55e+00	0	48	104	0	60	1048575
2026-01-18 06:55:01.14	100.75	20.91	-85.2	-88.6	3.1	1.56e+00	0	48	104	0	60	1048574
2026-01-18 06:55:04.15	100.33	21.26	-85.2	-88.6	2.9	1.56e+00	0	48	104	0	60	1048574
2026-01-18 06:55:07.17	99.90	21.61	-85.2	-88.6	2.9	1.56e+00	0	48	104	0	60	1048575
2026-01-18 06:55:10.20	99.46	21.97	-85.2	-88.6	2.9	1.56e+00	0	48	104	0	60	1048575
2026-01-18 06:55:13.22	99.01	22.32	-85.2	-88.6	3.0	1.56e+00	0	48	104	0	60	1048573
2026-01-18 06:55:16.24	98.55	22.69	-85.2	-88.6	3.0	1.56e+00	0	48	104	0	60	1048573
2026-01-18 06:55:19.25	98.08	23.05	-85.2	-88.6	3.1	1.56e+00	0	48	104	0	60	1048574
2026-01-18 06:55:22.27	97.60	23.42	-85.2	-88.6	2.8	1.56e+00	0	48	104	0	60	1048574
2026-01-18 06:55:25.28	97.11	23.79	-85.2	-88.6	2.8	1.56e+00	0	48	104	0	60	1048572
2026-01-18 06:55:28.30	96.60	24.16	-85.2	-88.6	3.1	1.56e+00	0	48	104	0	60	1048575
2026-01-18 06:55:31.33	96.08	24.54	-85.2	-88.6	3.1	1.56e+00	0	48	104	0	60	1048574
2026-01-18 06:55:34.35	95.55	24.92	-85.2	-88.6	3.1	1.56e+00	0	48	104	0	60	1048573
2026-01-18 06:55:37.37	95.01	25.30	-85.2	-88.6	3.2	1.56e+00	0	48	104	0	60	1048575
2026-01-18 06:55:40.38	94.45	25.68	-85.2	-88.6	2.8	1.56e+00	0	48	104	0	60	1048573
2026-01-18 06:55:43.41	93.88	26.07	-85.2	-88.6	3.0	1.56e+00	0	48	104	0	60	1048570
2026-01-18 06:55:46.43	93.29	26.46	-85.2	-88.6	3.0	1.56e+00	0	48	104	0	60	1048575
2026-01-18 06:55:49.44	92.69	26.85	-85.2	-88.6	3.0	1.55e+00	0	48	104	0	60	1048573
2026-01-18 06:55:52.46	92.08	27.25	-85.2	-88.6	3.2	1.56e+00	0	48	104	0	60	1048575
2026-01-18 06:55:55.48	91.44	27.64	-85.2	-88.6	3.0	1.55e+00	0	48	104	0	60	1048570
2026-01-18 06:55:58.50	90.80	28.04	-85.2	-88.6	2.9	1.56e+00	0	48	104	0	60	1048575
2026-01-18 06:56:01.52	90.13	28.44	-85.2	-88.6	3.0	1.56e+00	0	48	104	0	60	1048575
2026-01-18 06:56:04.55	89.45	28.84	-85.2	-88.6	2.9	1.56e+00	0	48	104	0	60	1048575
2026-01-18 06:56:07.57	88.75	29.24	-85.2	-88.6	2.8	1.56e+00	0	48	104	0	60	1048575
2026-01-18 06:56:10.58	88.04	29.64	-85.2	-88.6	2.9	1.56e+00	0	48	104	0	60	1048569
2026-01-18 06:56:13.61	87.30	30.05	-85.2	-88.6	2.9	1.56e+00	0	48	104	0	60	1048575
2026-01-18 06:56:16.63	86.55	30.45	-85.2	-88.6	3.0	1.56e+00	0	48	104	0	60	1048572
2026-01-18 06:56:19.64	85.78	30.85	-85.2	-88.6	3.1	1.56e+00	0	48	104	0	60	1048573
2026-01-18 06:56:22.67	84.98	31.26	-85.2	-88.6	3.2	1.56e+00	0	48	104	0	60	1048573
2026-01-18 06:56:25.68	84.17	31.66	-85.2	-88.6	3.0	1.56e+00	0	48	104	0	60	1048574
2026-01-18 06:56:28.70	83.34	32.06	-85.2	-88.6	2.9	1.55e+00	0	48	104	0	60	1048575
2026-01-18 06:56:31.73	82.48	32.46	-85.2	-88.6	3.1	1.56e+00	0	48	104	0	60	1048573
2026-01-18 06:56:34.75	81.61	32.85	-85.2	-88.6	3.0	1.55e+00	0	48	104	0	60	1048574
2026-01-18 06:56:37.77	80.71	33.25	-85.2	-88.6	3.3	1.56e+00	0	48	104	0	60	1048575
2026-01-18 06:56:40.79	79.79	33.64	-85.2	-88.6	2.9	1.56e+00	0	48	104	0	60	1048575
2026-01-18 06:56:43.82	78.85	34.02	-85.2	-88.6	2.8	1.56e+00	0	48	104	0	60	1048575
2026-01-18 06:56:46.84	77.89	34.41	-85.2	-88.6	2.8	1.56e+00	0	48	104	0	60	1048573
2026-01-18 06:56:49.85	76.90	34.78	-85.2	-88.6	3.0	1.56e+00	0	48	104	0	60	1048575
2026-01-18 06:56:52.87	75.89	35.15	-85.2	-88.6	3.2	1.56e+00	0	48	104	0	60	1048575
2026-01-18 06:56:55.89	74.86	35.52	-85.2	-88.6	3.1	1.55e+00	0	48	104	0	60	1048574
2026-01-18 06:56:58.90	73.81	35.88	-85.2	-88.6	3.0	1.56e+00	0	47	104	0	60	1048573
2026-01-18 06:57:01.92	72.73	36.23	-85.2	-88.6	3.0	1.56e+00	0	48	104	0	60	1048575
2026-01-18 06:57:04.93	71.63	36.57	-85.2	-88.6	3.0	1.56e+00	0	48	104	0	60	1048575
2026-01-18 06:57:07.95	70.50	36.91	-85.2	-88.6	3.0	1.55e+00	0	48	104	0	60	1048573
2026-01-18 06:57:10.98	69.35	37.23	-85.2	-88.6	2.9	1.56e+00	0	47	104	0	60	1048575
2026-01-18 06:57:14.00	68.18	37.55	-85.2	-88.6	2.9	1.56e+00	0	48	104	0	60	1048575
2026-01-18 06:57:17.02	66.98	37.85	-85.2	-88.6	2.9	1.56e+00	0	47	104	0	60	1048575
2026-01-18 06:57:20.03	65.77	38.14	-85.2	-88.6	3.0	1.56e+00	0	48	104	0	60	1048575
2026-01-18 06:57:23.05	64.53	38.42	-85.2	-88.6	3.2	1.55e+00	0	48	104	0	60	1048570
2026-01-18 06:57:26.06	63.28	38.69	-85.2	-88.6	3.0	1.55e+00	0	48	104	0	60	1048575
2026-01-18 06:57:29.08	62.00	38.94	-85.2	-88.6	2.9	1.56e+00	0	48	104	0	60	1048572
2026-01-18 06:57:32.10	60.70	39.18	-85.2	-88.6	3.2	1.56e+00	0	47	104	0	60	1048574
2026-01-18 06:57:35.12	59.38	39.40	-85.2	-88.6	3.1	1.56e+00	0	48	104	0	60	1048575
2026-01-18 06:57:38.14	58.05	39.61	-85.2	-88.6	2.9	1.55e+00	0	47	104	0	60	1048575
2026-01-18 06:57:41.15	56.70	39.79	-85.2	-88.6	3.0	1.56e+00	0	47	104	0	60	1048572
2026-01-18 06:57:44.18	55.33	39.97	-85.2	-88.6	3.1	1.56e+00	0	47	104	0	60	1048575
2026-01-18 06:57:47.20	53.95	40.12	-85.2	-88.6	2.9	1.55e+00	0	47	104	0	60	1048575
2026-01-18 06:57:50.23	52.55	40.25	-84.7	-88.6	3.0	1.56e+00	0	47	104	0	60	1048575
2026-01-18 06:57:53.25	51.15	40.37	-85.2	-88.6	3.1	1.56e+00	0	47	104	0	60	1048575
2026-01-18 06:57:56.27	49.74	40.47	-85.2	-88.6	3.0	1.56e+00	0	47	104	0	60	1048574
2026-01-18 06:57:59.30	48.32	40.54	-85.2	-88.6	3.2	1.56e+00	0	47	104	0	60	1048573
2026-01-18 06:58:02.32	46.89	40.60	-85.2	-88.6	3.1	1.56e+00	0	47	104	0	60	1048573
2026-01-18 06:58:05.33	45.47	40.64	-85.2	-88.6	2.9	1.55e+00	0	47	104	0	60	1048573
2026-01-18 06:58:08.35	44.03	40.65	-85.2	-88.6	2.9	1.56e+00	0	47	104	0	60	1048575
2026-01-18 06:58:11.37	42.60	40.65	-85.2	-88.6	2.9	1.56e+00	0	47	104	0	60	1048573
2026-01-18 06:58:14.39	41.17	40.63	-85.2	-88.6	2.9	1.55e+00	0	47	104	0	60	1048575
2026-01-18 06:58:17.42	39.74	40.58	-85.2	-88.6	2.8	1.55e+00	0	47	104	0	60	1048574
2026-01-18 06:58:20.44	38.31	40.52	-85.2	-88.6	2.9	1.56e+00	0	47	104	0	60	1048575
2026-01-18 06:58:23.46	36.90	40.43	-85.2	-88.6	2.8	1.56e+00	0	47	104	0	60	1048574
2026-01-18 06:58:26.47	35.49	40.33	-85.2	-88.6	3.0	1.56e+00	0	47	104	0	60	1048574
2026-01-18 06:58:29.48	34.10	40.21	-85.2	-88.6	2.7	1.56e+00	0	47	104	0	60	1048575
2026-01-18 06:58:32.50	32.71	40.06	-85.2	-88.6	3.0	1.56e+00	0	47	104	0	60	1048575
2026-01-18 06:58:35.52	31.34	39.90	-85.2	-88.6	2.9	1.55e+00	0	47	104	0	60	1048572
2026-01-18 06:58:38.54	29.98	39.73	-85.2	-88.6	3.1	1.55e+00	0	47	104	0	60	1048575
2026-01-18 06:58:41.56	28.64	39.53	-85.2	-88.6	3.0	1.56e+00	0	47	104	0	60	1048574
2026-01-18 06:58:44.58	27.31	39.32	-85.2	-88.6	3.1	1.56e+00	0	47	104	0	60	1048575
2026-01-18 06:58:47.61	26.00	39.09	-85.2	-88.6	2.9	1.55e+00	0	47	104	0	60	1048571
2026-01-18 06:58:50.63	24.71	38.85	-85.2	-88.6	3.1	1.55e+00	0	47	104	0	60	1048575
2026-01-18 06:58:53.65	23.44	38.59	-85.2	-88.6	3.1	1.56e+00	0	47	104	0	60	1048574
2026-01-18 06:58:56.68	22.18	38.32	-85.2	-88.6	3.0	1.56e+00	0	47	104	0	60	1048575
2026-01-18 06:58:59.68	20.96	38.04	-85.2	-88.6	3.0	1.55e+00	0	47	104	0	60	1048575
2026-01-18 06:59:02.70	19.76	37.74	-85.2	-88.6	3.0	1.56e+00	0	47	104	0	60	1048574
2026-01-18 06:59:05.72	18.57	37.44	-85.2	-88.6	3.1	1.55e+00	0	47	104	0	60	1048575
2026-01-18 06:59:08.74	17.41	37.12	-85.2	-88.6	2.9	1.55e+00	0	47	104	0	60	1048575
2026-01-18 06:59:11.77	16.27	36.79	-85.2	-88.6	3.0	1.56e+00	0	47	104	0	60	1048575
2026-01-18 06:59:14.78	15.16	36.45	-85.2	-88.6	3.1	1.56e+00	0	47	104	0	60	1048575
2026-01-18 06:59:17.80	14.07	36.11	-85.2	-88.6	3.0	1.55e+00	0	47	104	0	60	1048575
2026-01-18 06:59:20.82	13.00	35.75	-85.2	-88.6	3.2	1.55e+00	0	47	104	0	60	1048575
2026-01-18 06:59:23.84	11.95	35.39	-85.2	-88.6	3.0	1.56e+00	0	47	104	0	60	1048575
2026-01-18 06:59:26.87	10.93	35.02	-85.2	-88.6	3.2	1.56e+00	0	47	104	0	60	1048573
2026-01-18 06:59:29.89	9.93	34.65	-85.2	-88.6	3.1	1.55e+00	0	47	104	0	60	1048571
2026-01-18 06:59:32.91	8.96	34.27	-85.2	-88.6	2.8	1.55e+00	0	47	104	0	60	1048575
2026-01-18 06:59:35.93	8.00	33.89	-85.2	-88.6	3.1	1.56e+00	0	47	104	0	60	1048575
2026-01-18 06:59:38.96	7.07	33.50	-85.2	-88.6	2.7	1.56e+00	0	47	104	0	60	1048575
2026-01-18 06:59:41.98	6.16	33.11	-85.2	-88.6	2.9	1.56e+00	0	47	104	0	60	1048573
2026-01-18 06:59:45.01	5.27	32.71	-85.2	-88.6	2.9	1.56e+00	0	47	104	0	60	1048575
2026-01-18 06:59:48.02	4.41	32.32	-85.2	-88.6	3.1	1.56e+00	0	47	104	0	60	1048574
2026-01-18 06:59:51.04	3.57	31.92	-85.2	-88.6	2.9	1.56e+00	0	47	104	0	60	1048574
2026-01-18 06:59:54.07	2.74	31.52	-85.2	-88.6	3.1	1.56e+00	0	47	104	0	60	1048575
2026-01-18 06:59:57.09	1.94	31.12	-85.2	-88.6	2.8	1.55e+00	0	47	104	0	60	1048574
2026-01-18 07:00:00.12	1.16	30.72	-85.2	-88.6	3.0	1.56e+00	0	47	104	0	60	1048570
2026-01-18 07:00:03.13	0.40	30.32	-85.2	-88.6	3.2	1.56e+00	0	47	104	0	60	1048575
2026-01-18 07:00:06.15	359.65	29.92	-84.7	-88.6	3.0	1.56e+00	0	47	104	0	60	1048575
2026-01-18 07:00:09.17	358.93	29.51	-85.2	-88.6	3.0	1.56e+00	0	47	104	0	60	1048574
2026-01-18 07:00:12.20	358.22	29.11	-85.2	-88.6	2.8	1.55e+00	0	47	104	0	60	1048575
2026-01-18 07:00:15.22	357.53	28.71	-85.2	-88.6	2.9	1.55e+00	0	47	104	0	60	1048573
2026-01-18 07:00:18.23	356.86	28.32	-85.2	-88.6	3.0	1.55e+00	0	47	104	0	60	1048575
2026-01-18 07:00:21.25	356.20	27.92	-85.2	-88.6	3.1	1.56e+00	0	47	104	0	60	1048572
2026-01-18 07:00:24.28	355.56	27.52	-85.2	-88.6	3.0	1.56e+00	0	47	104	0	60	1048575
2026-01-18 07:00:27.30	354.94	27.13	-85.2	-88.6	3.3	1.56e+00	0	47	104	0	60	1048575
2026-01-18 07:00:30.33	354.33	26.73	-85.2	-88.6	3.0	1.56e+00	0	47	104	0	60	1048575
2026-01-18 07:00:33.35	353.73	26.34	-85.2	-88.6	3.1	1.56e+00	0	47	104	0	60	1048575
2026-01-18 07:00:36.37	353.15	25.96	-85.2	-88.6	3.2	1.56e+00	0	47	104	0	60	1048575
2026-01-18 07:00:39.40	352.59	25.57	-85.2	-88.6	3.1	1.56e+00	0	47	104	0	60	1048575
2026-01-18 07:00:42.41	352.04	25.19	-85.2	-88.6	3.1	1.55e+00	0	47	104	0	60	1048574
2026-01-18 07:00:45.43	351.50	24.81	-85.2	-88.6	2.9	1.55e+00	0	47	104	0	60	1048575
2026-01-18 07:00:48.46	350.98	24.43	-85.2	-88.6	3.1	1.55e+00	0	47	104	0	60	1048575
2026-01-18 07:00:51.48	350.46	24.06	-85.2	-88.6	3.0	1.56e+00	0	47	104	0	60	1048575
2026-01-18 07:00:54.50	349.96	23.69	-85.2	-88.6	3.1	1.55e+00	0	47	104	0	60	1048574
2026-01-18 07:00:57.52	349.48	23.32	-85.2	-88.6	3.1	1.55e+00	0	47	104	0	60	1048574
2026-01-18 07:01:00.54	349.00	22.95	-85.2	-88.6	3.0	1.56e+00	0	47	104	0	60	1048575
2026-01-18 07:01:03.56	348.54	22.59	-85.2	-88.6	3.0	1.56e+00	0	47	104	0	60	1048574
2026-01-18 07:01:06.59	348.08	22.23	-85.2	-88.6	3.1	1.56e+00	0	47	104	0	60	1048575
2026-01-18 07:01:09.61	347.64	21.87	-85.2	-88.6	3.1	1.56e+00	0	47	104	0	60	1048575
2026-01-18 07:01:12.63	347.21	21.52	-85.2	-88.6	3.0	1.56e+00	0	47	104	0	60	1048575
2026-01-18 07:01:15.65	346.78	21.17	-85.2	-88.6	3.0	1.56e+00	0	47	104	0	60	1048575
2026-01-18 07:01:18.67	346.37	20.82	-85.2	-88.6	3.1	1.56e+00	0	47	104	0	60	1048575
2026-01-18 07:01:21.69	345.97	20.48	-85.2	-88.6	3.1	1.56e+00	0	47	104	0	60	1048572
2026-01-18 07:01:24.72	345.57	20.14	-85.2	-88.6	3.1	1.55e+00	0	47	104	0	60	1048575
2026-01-18 07:01:27.74	345.18	19.80	-85.2	-88.6	2.9	1.56e+00	0	47	104	0	60	1048573
2026-01-18 07:01:30.76	344.81	19.46	-85.2	-88.6	2.7	1.56e+00	0	47	104	0	60	1048575
2026-01-18 07:01:33.78	344.44	19.13	-85.2	-88.6	3.2	1.56e+00	0	47	104	0	60	1048575
2026-01-18 07:01:36.81	344.07	18.80	-85.2	-88.6	2.9	1.55e+00	0	47	104	0	60	1048575
2026-01-18 07:01:39.83	343.72	18.48	-85.2	-88.6	3.0	1.56e+00	0	47	104	0	60	1048575
2026-01-18 07:01:42.85	343.38	18.16	-85.2	-88.6	2.7	1.56e+00	0	47	104	0	60	1048575
2026-01-18 07:01:45.86	343.04	17.84	-84.7	-88.6	3.1	1.56e+00	0	47	104	0	60	1048571
2026-01-18 07:01:48.88	342.71	17.53	-85.2	-88.6	3.0	1.56e+00	0	47	104	0	60	1048575
2026-01-18 07:01:51.90	342.39	17.21	-82.2	-88.6	2.8	1.55e+00	0	47	104	0	60	1048574
2026-01-18 07:01:54.92	342.07	16.90	-85.2	-88.6	3.0	1.56e+00	0	47	104	0	60	1048575
2026-01-18 07:01:57.94	341.76	16.60	-85.2	-88.6	3.2	1.56e+00	0	47	104	0	60	1048575
2026-01-18 07:02:00.96	341.45	16.29	-84.7	-88.6	3.0	1.56e+00	0	47	104	0	60	1048574
2026-01-18 07:02:03.98	341.16	15.99	-85.2	-88.6	2.8	1.56e+00	0	47	104	0	60	1048575
2026-01-18 07:02:07.01	340.86	15.69	-85.2	-88.6	3.2	1.56e+00	0	47	104	0	60	1048575
2026-01-18 07:02:10.03	340.58	15.40	-85.2	-88.6	3.2	1.56e+00	0	47	104	0	60	1048574
2026-01-18 07:02:13.05	340.30	15.11	-85.2	-88.6	3.0	1.55e+00	0	47	104	0	60	1048575
2026-01-18 07:02:16.08	340.03	14.82	-85.2	-88.6	2.8	1.56e+00	0	47	104	0	60	1048572
2026-01-18 07:02:19.10	339.76	14.53	-85.2	-88.6	3.2	1.56e+00	0	47	104	0	60	1048575
2026-01-18 07:02:22.11	339.49	14.25	-85.2	-88.6	3.1	1.56e+00	0	47	104	0	60	1048575
2026-01-18 07:02:25.13	339.24	13.97	-85.2	-88.6	3.3	1.56e+00	0	47	104	0	60	1048575
2026-01-18 07:02:28.16	338.98	13.69	-85.2	-88.6	2.8	1.56e+00	0	47	104	0	60	1048575
2026-01-18 07:02:31.18	338.73	13.41	-83.5	-88.6	3.2	1.56e+00	0	47	104	0	60	1048573
2026-01-18 07:02:34.20	338.49	13.14	-85.2	-88.6	3.0	1.56e+00	0	47	104	0	60	1048575
2026-01-18 07:02:37.22	338.25	12.87	-85.2	-88.6	2.8	1.56e+00	0	47	104	0	60	1048572
2026-01-18 07:02:40.24	338.02	12.60	-85.2	-88.6	3.0	1.56e+00	0	47	104	0	60	1048573
2026-01-18 07:02:43.26	337.79	12.33	-85.2	-88.6	2.9	1.56e+00	0	47	104	0	60	1048573
2026-01-18 07:02:46.29	337.56	12.07	-85.2	-88.6	3.1	1.55e+00	0	47	104	0	60	1048575
2026-01-18 07:02:49.31	337.34	11.81	-85.2	-88.6	2.8	1.56e+00	0	47	104	0	60	1048575
2026-01-18 07:02:52.33	337.12	11.55	-85.2	-88.6	3.0	1.55e+00	0	47	104	0	60	1048575
2026-01-18 07:02:55.34	336.91	11.29	-85.2	-88.6	3.0	1.56e+00	0	47	104	0	60	1048574
2026-01-18 07:02:58.36	336.70	11.04	-85.2	-88.6	2.8	1.56e+00	0	47	104	0	60	1048573
2026-01-18 07:03:01.37	336.50	10.79	-85.2	-88.6	2.9	1.55e+00	0	47	104	0	60	1048575
2026-01-18 07:03:04.39	336.29	10.54	-85.2	-88.6	2.8	1.55e+00	0	47	104	0	60	1048574
2026-01-18 07:03:07.40	336.10	10.29	-85.2	-88.6	3.1	1.56e+00	0	47	104	0	60	1048573
2026-01-18 07:03:10.42	335.90	10.04	-85.2	-88.6	3.0	1.56e+00	0	48	104	0	60	1048575
2026-01-18 07:03:13.43	335.71	9.80	-85.2	-88.6	3.1	1.56e+00	0	47	104	0	60	1048574
2026-01-18 07:03:16.46	335.52	9.56	-85.2	-88.6	2.9	1.55e+00	0	47	104	0	60	1048573
2026-01-18 07:03:19.48	335.34	9.32	-85.2	-88.6	3.0	1.56e+00	0	47	104	0	60	1048574
2026-01-18 07:03:22.51	335.16	9.08	-85.2	-88.6	3.0	1.56e+00	0	47	104	0	60	1048574
2026-01-18 07:03:25.52	334.98	8.84	-85.2	-88.6	3.1	1.56e+00	0	47	104	0	60	1048575
2026-01-18 07:03:28.53	334.80	8.61	-85.2	-88.6	3.0	1.56e+00	0	47	104	0	60	1048575
2026-01-18 07:03:31.55	334.63	8.38	-85.2	-88.6	3.2	1.56e+00	0	47	104	0	60	1048575
2026-01-18 07:03:34.56	334.46	8.15	-85.2	-88.6	3.1	1.56e+00	0	47	104	0	60	1048573
2026-01-18 07:03:37.58	334.30	7.92	-85.2	-88.6	3.2	1.55e+00	0	47	104	0	60	1048574
2026-01-18 07:03:40.58	334.13	7.70	-85.2	-88.6	3.2	1.55e+00	0	47	104	0	60	1048573
2026-01-18 07:03:43.60	333.97	7.47	-85.2	-88.6	2.8	1.56e+00	0	47	104	0	60	1048575
2026-01-18 07:03:46.62	333.81	7.25	-85.2	-88.6	3.0	1.56e+00	0	47	104	0	60	1048572
2026-01-18 07:03:49.64	333.66	7.03	-85.2	-88.6	3.0	1.55e+00	0	47	104	0	60	1048573
2026-01-18 07:03:52.67	333.50	6.81	-85.2	-88.6	3.1	1.56e+00	0	47	104	0	60	1048574
2026-01-18 07:03:55.68	333.35	6.59	-85.2	-88.6	2.7	1.56e+00	0	47	104	0	60	1048575
2026-01-18 07:03:58.69	333.20	6.38	-85.2	-88.6	3.0	1.56e+00	0	47	104	0	60	1048575
2026-01-18 07:04:01.71	333.06	6.16	-84.7	-88.6	2.9	1.56e+00	0	47	104	0	60	1048575
2026-01-18 07:04:04.71	332.91	5.95	-85.2	-88.6	3.0	1.56e+00	0	47	104	0	60	1048573
2026-01-18 07:04:07.73	332.77	5.74	-85.2	-88.6	3.1	1.56e+00	0	47	104	0	60	1048568
2026-01-18 07:04:10.75	332.63	5.53	-85.2	-88.6	3.0	1.56e+00	0	47	104	0	60	1048575
2026-01-18 07:04:13.77	332.50	5.32	-85.2	-88.6	2.9	1.56e+00	0	47	104	0	60	1048575
2026-01-18 07:04:16.80	332.36	5.11	-85.2	-88.6	3.0	1.56e+00	0	47	104	0	60	1048575
2026-01-18 07:04:19.82	332.23	4.91	-85.2	-88.6	2.8	1.55e+00	0	47	104	0	60	1048574
2026-01-18 07:04:22.85	332.10	4.70	-85.2	-88.6	3.2	1.56e+00	0	47	104	0	60	1048575
2026-01-18 07:04:25.87	331.97	4.50	-85.2	-88.6	3.0	1.56e+00	0	47	104	0	60	1048574
2026-01-18 07:04:28.88	331.84	4.30	-85.2	-88.6	3.1	1.56e+00	0	47	104	0	60	1048575
2026-01-18 07:04:31.91	331.71	4.10	-85.2	-88.6	2.9	1.56e+00	0	47	104	0	60	1048575
2026-01-18 07:04:34.93	331.59	3.90	-85.2	-88.6	3.1	1.56e+00	0	47	104	0	60	1048575
2026-01-18 07:04:37.95	331.47	3.70	-85.2	-88.6	3.1	1.56e+00	0	47	104	0	60	1048570
2026-01-18 07:04:40.97	331.35	3.51	-85.2	-88.6	3.3	1.56e+00	0	47	104	0	60	1048572
2026-01-18 07:04:43.99	331.23	3.31	-85.2	-88.6	3.3	1.55e+00	0	47	104	0	60	1048574
2026-01-18 07:04:47.01	331.11	3.12	-85.2	-88.6	2.9	1.56e+00	0	47	104	0	60	1048574
2026-01-18 07:04:50.02	331.00	2.93	-85.2	-88.6	3.2	1.56e+00	0	47	104	0	60	1048575
2026-01-18 07:04:53.04	330.89	2.73	-85.2	-88.6	3.1	1.56e+00	0	47	104	0	60	1048575
2026-01-18 07:04:56.07	330.78	2.54	-85.2	-88.6	2.9	1.56e+00	0	47	104	0	60	1048574
2026-01-18 07:04:59.10	330.67	2.35	-85.2	-88.6	2.8	1.55e+00	0	47	104	0	60	1048574
2026-01-18 07:05:02.11	330.56	2.17	-85.2	-88.6	3.0	1.55e+00	0	47	104	0	60	1048575
2026-01-18 07:05:05.13	330.45	1.98	-85.2	-88.6	3.0	1.56e+00	0	47	104	0	60	1048575
2026-01-18 07:05:08.15	330.35	1.79	-85.2	-88.6	2.9	1.56e+00	0	47	104	0	60	1048575
2026-01-18 07:05:11.17	330.24	1.61	-85.2	-88.6	2.8	1.56e+00	0	47	104	0	60	1048575
2026-01-18 07:05:14.20	330.14	1.43	-85.2	-88.6	3.1	1.56e+00	0	47	104	0	60	1048569
2026-01-18 07:05:17.22	330.04	1.24	-85.2	-88.6	3.0	1.56e+00	0	47	104	0	60	1048575
2026-01-18 07:05:20.25	329.94	1.06	-85.2	-88.6	3.0	1.56e+00	0	47	104	0	60	1048574
2026-01-18 07:05:23.26	329.84	0.88	-85.2	-88.6	3.0	1.56e+00	0	47	104	0	60	1048575
2026-01-18 07:05:26.28	329.74	0.70	-85.2	-88.6	3.1	1.56e+00	0	47	104	0	60	1048575
2026-01-18 07:05:29.30	329.65	0.52	-85.2	-88.6	3.1	1.56e+00	0	47	104	0	60	1048575
2026-01-18 07:05:32.33	329.55	0.35	-85.2	-88.6	3.1	1.56e+00	0	47	104	0	60	1048572
2026-01-18 07:05:35.34	329.46	0.17	-85.2	-88.6	3.0	1.55e+00	0	47	104	0	60	1048574
2026-01-18 07:05:38.36	329.37	-0.00	-85.2	-88.6	2.9	1.56e+00	0	47	104	0	60	1048574

#Closed at: 2026-01-18 07:05:39
#Recorded file [0 MB]: D:/Data/35015_260118_095436.dat