passes_logs/2026/01/18/R3.2S-Naryan-Mar/R3.2S-Naryan-Mar__20260118_071103_NOAA_20_JPSS-1_rec.log

#Pass ID: 20260118_071103_NOAA 20 (JPSS-1)
#Satellite: NOAA 20 (JPSS-1)
#Configuration: NOAA 20
#almurnet v.1.7.20240730
#Start time: 2026-01-18 07:11:04

#Version: 2.2.20231116
#Station: R3.2S-Naryan-Mar
#Location: 53.008057 lon 67.646978 lat
#TLE: 1 43013U 17073A   26017.30359522  .00000067  00000+0  52526-4 0  9990
#TLE: 2 43013  98.7639 318.2187 0001419  36.2087 323.9184 14.19536557423067

#Time	Az	El	Level	Level2	SNR	BER	BlckErr	Temp	State	Recorded	gain1	gain2
2026-01-18 07:11:04.71	127.24	0.09	-85.2	-88.6	3.4	1.56e+00	0	45	0	0	60	1048574
2026-01-18 07:11:08.74	127.15	0.33	-85.2	-88.6	3.3	1.56e+00	0	46	104	0	60	1048574
2026-01-18 07:11:12.76	127.05	0.57	-85.2	-88.6	2.8	1.55e+00	0	46	104	0	60	1048575
2026-01-18 07:11:16.79	126.95	0.81	-84.3	-88.6	3.0	1.56e+00	0	46	104	0	60	1048575
2026-01-18 07:11:20.82	126.86	1.06	-85.2	-88.6	3.1	1.55e+00	0	46	104	0	60	1048574
2026-01-18 07:11:24.84	126.75	1.30	-85.2	-88.6	3.1	1.56e+00	0	46	104	0	60	1048575
2026-01-18 07:11:28.88	126.65	1.55	-82.5	-88.6	3.0	1.56e+00	0	46	104	0	60	1048574
2026-01-18 07:11:32.91	126.55	1.81	-85.2	-88.6	3.1	1.56e+00	0	46	104	0	60	1048575
2026-01-18 07:11:36.94	126.44	2.06	-85.2	-88.6	3.0	1.56e+00	0	46	104	0	60	1048575
2026-01-18 07:11:40.97	126.33	2.31	-85.2	-88.6	3.1	1.56e+00	0	46	104	0	60	1048574
2026-01-18 07:11:45.00	126.22	2.57	-85.2	-88.6	3.1	1.56e+00	0	46	104	0	60	1048575
2026-01-18 07:11:49.01	126.11	2.83	-85.2	-88.6	3.1	1.56e+00	0	46	104	0	60	1048574
2026-01-18 07:11:53.03	125.99	3.09	-85.2	-88.6	3.0	1.56e+00	0	46	104	0	60	1048575
2026-01-18 07:11:57.06	125.88	3.36	-85.2	-88.6	3.0	1.56e+00	0	47	104	0	60	1048575
2026-01-18 07:12:01.08	125.76	3.62	-85.2	-88.6	3.0	1.56e+00	0	47	104	0	60	1048575
2026-01-18 07:12:05.11	125.63	3.89	-84.3	-88.6	3.3	1.56e+00	0	47	104	0	60	1048575
2026-01-18 07:12:09.14	125.51	4.17	-85.2	-88.6	2.9	1.55e+00	0	47	104	0	60	1048575
2026-01-18 07:12:13.17	125.38	4.44	-85.2	-88.6	3.0	1.56e+00	0	47	104	0	60	1048571
2026-01-18 07:12:17.20	125.25	4.72	-85.2	-88.6	3.0	1.56e+00	0	47	104	0	60	1048574
2026-01-18 07:12:21.23	125.12	5.00	-85.2	-88.6	3.1	1.56e+00	0	47	104	0	60	1048575
2026-01-18 07:12:25.25	124.98	5.28	-85.2	-88.6	3.2	1.56e+00	0	47	104	0	60	1048574
2026-01-18 07:12:29.29	124.84	5.57	-85.2	-88.6	3.1	1.56e+00	0	46	104	0	60	1048575
2026-01-18 07:12:33.31	124.70	5.85	-85.2	-88.6	3.2	1.56e+00	0	47	104	0	60	1048570
2026-01-18 07:12:37.33	124.56	6.15	-85.2	-88.6	3.1	1.55e+00	0	47	104	0	60	1048575
2026-01-18 07:12:41.36	124.41	6.44	-85.2	-88.6	3.3	1.56e+00	0	47	104	0	60	1048575
2026-01-18 07:12:45.39	124.26	6.74	-85.2	-88.6	3.0	1.56e+00	0	47	104	0	60	1048575
2026-01-18 07:12:49.42	124.11	7.04	-85.2	-88.6	3.1	1.56e+00	0	47	104	0	60	1048575
2026-01-18 07:12:53.45	123.95	7.35	-85.2	-88.6	2.8	1.56e+00	0	47	104	0	60	1048575
2026-01-18 07:12:57.47	123.79	7.65	-85.2	-88.6	3.1	1.56e+00	0	47	104	0	60	1048574
2026-01-18 07:13:01.49	123.62	7.96	-85.2	-88.6	3.2	1.56e+00	0	47	104	0	60	1048575
2026-01-18 07:13:05.50	123.45	8.28	-85.2	-88.6	3.1	1.55e+00	0	47	104	0	60	1048575
2026-01-18 07:13:09.52	123.28	8.60	-85.2	-88.6	3.1	1.56e+00	0	47	104	0	60	1048574
2026-01-18 07:13:13.55	123.10	8.92	-85.2	-88.6	2.9	1.56e+00	0	47	104	0	60	1048573
2026-01-18 07:13:17.58	122.92	9.25	-85.2	-88.6	3.0	1.56e+00	0	47	104	0	60	1048572
2026-01-18 07:13:21.61	122.73	9.58	-85.2	-88.6	2.9	1.56e+00	0	47	104	0	60	1048575
2026-01-18 07:13:25.63	122.54	9.91	-85.2	-88.6	3.1	1.56e+00	0	47	104	0	60	1048575
2026-01-18 07:13:29.65	122.35	10.25	-85.2	-88.6	3.2	1.56e+00	0	47	104	0	60	1048574
2026-01-18 07:13:33.67	122.15	10.59	-85.2	-88.6	3.1	1.56e+00	0	47	104	0	60	1048575
2026-01-18 07:13:37.70	121.94	10.94	-85.2	-88.6	2.9	1.56e+00	0	47	104	0	60	1048575
2026-01-18 07:13:41.72	121.73	11.29	-85.2	-88.6	3.0	1.56e+00	0	47	104	0	60	1048575
2026-01-18 07:13:45.76	121.52	11.65	-85.2	-88.6	2.9	1.56e+00	0	47	104	0	60	1048575
2026-01-18 07:13:49.78	121.30	12.01	-85.2	-88.6	2.8	1.56e+00	0	47	104	0	60	1048573
2026-01-18 07:13:53.81	121.07	12.38	-85.2	-88.6	3.1	1.56e+00	0	47	104	0	60	1048574
2026-01-18 07:13:57.83	120.83	12.75	-85.2	-88.6	3.1	1.56e+00	0	47	104	0	60	1048574
2026-01-18 07:14:01.85	120.60	13.13	-85.2	-88.6	3.0	1.55e+00	0	47	104	0	60	1048573
2026-01-18 07:14:05.88	120.35	13.51	-85.2	-88.6	3.1	1.55e+00	0	47	104	0	60	1048573
2026-01-18 07:14:09.91	120.10	13.90	-85.2	-88.6	2.9	1.56e+00	0	47	104	0	60	1048574
2026-01-18 07:14:13.93	119.84	14.29	-85.2	-88.6	3.0	1.55e+00	0	47	104	0	60	1048572
2026-01-18 07:14:17.96	119.57	14.69	-84.3	-88.6	2.9	1.56e+00	0	47	104	0	60	1048575
2026-01-18 07:14:21.99	119.29	15.10	-85.2	-88.6	2.9	1.55e+00	0	47	104	0	60	1048573
2026-01-18 07:14:26.03	119.01	15.51	-85.2	-88.6	2.9	1.56e+00	0	47	104	0	60	1048573
2026-01-18 07:14:30.05	118.72	15.93	-85.2	-88.6	2.9	1.56e+00	0	47	104	0	60	1048575
2026-01-18 07:14:34.07	118.42	16.35	-85.2	-88.6	2.9	1.55e+00	0	47	104	0	60	1048574
2026-01-18 07:14:38.10	118.11	16.79	-85.2	-88.6	3.0	1.56e+00	0	47	104	0	60	1048574
2026-01-18 07:14:42.13	117.79	17.22	-85.2	-88.6	3.0	1.55e+00	0	47	104	0	60	1048575
2026-01-18 07:14:46.16	117.46	17.67	-85.2	-88.6	3.1	1.56e+00	0	47	104	0	60	1048573
2026-01-18 07:14:50.18	117.12	18.12	-85.2	-88.6	3.1	1.56e+00	0	47	104	0	60	1048570
2026-01-18 07:14:54.21	116.77	18.58	-85.2	-88.6	2.8	1.55e+00	0	47	104	0	60	1048573
2026-01-18 07:14:58.24	116.41	19.05	-85.2	-88.6	3.0	1.56e+00	0	47	104	0	60	1048575
2026-01-18 07:15:02.26	116.04	19.52	-85.2	-88.6	3.0	1.56e+00	0	47	104	0	60	1048574
2026-01-18 07:15:06.29	115.65	20.01	-85.2	-88.6	3.2	1.56e+00	0	47	104	0	60	1048573
2026-01-18 07:15:10.33	115.25	20.50	-85.2	-88.6	3.0	1.56e+00	0	47	104	0	60	1048574
2026-01-18 07:15:14.36	114.84	21.00	-85.2	-88.6	2.9	1.56e+00	0	47	104	0	60	1048575
2026-01-18 07:15:18.37	114.42	21.50	-85.2	-88.6	3.1	1.56e+00	0	47	104	0	60	1048575
2026-01-18 07:15:22.40	113.98	22.02	-85.2	-88.6	3.1	1.55e+00	0	47	104	0	60	1048574
2026-01-18 07:15:26.43	113.52	22.54	-85.2	-88.6	3.1	1.55e+00	0	47	104	0	60	1048574
2026-01-18 07:15:30.46	113.05	23.08	-85.2	-88.6	3.0	1.56e+00	0	47	104	0	60	1048573
2026-01-18 07:15:34.49	112.56	23.62	-85.2	-88.6	3.1	1.56e+00	0	47	104	0	60	1048575
2026-01-18 07:15:38.51	112.06	24.17	-85.2	-88.6	3.0	1.55e+00	0	47	104	0	60	1048573
2026-01-18 07:15:42.53	111.54	24.73	-85.2	-88.6	3.1	1.56e+00	0	47	104	0	60	1048575
2026-01-18 07:15:46.56	110.99	25.30	-85.2	-88.6	3.0	1.56e+00	0	47	104	0	60	1048574
2026-01-18 07:15:50.59	110.43	25.88	-85.2	-88.6	2.9	1.55e+00	0	47	104	0	60	1048574
2026-01-18 07:15:54.61	109.84	26.47	-85.2	-88.6	3.2	1.56e+00	0	47	104	0	60	1048575
2026-01-18 07:15:58.64	109.23	27.07	-85.2	-88.6	3.0	1.55e+00	0	47	104	0	60	1048575
2026-01-18 07:16:02.67	108.60	27.68	-85.2	-88.6	3.1	1.55e+00	0	47	104	0	60	1048575
2026-01-18 07:16:06.70	107.94	28.30	-85.2	-88.6	3.0	1.55e+00	0	47	104	0	60	1048574
2026-01-18 07:16:10.72	107.26	28.92	-85.2	-88.6	3.0	1.55e+00	0	47	104	0	60	1048573
2026-01-18 07:16:14.75	106.55	29.56	-85.2	-88.6	3.0	1.56e+00	0	47	104	0	60	1048575
2026-01-18 07:16:18.78	105.81	30.21	-85.2	-88.6	3.0	1.55e+00	0	47	104	0	60	1048572
2026-01-18 07:16:22.81	105.03	30.86	-85.2	-88.6	2.9	1.56e+00	0	47	104	0	60	1048575
2026-01-18 07:16:26.83	104.23	31.52	-85.2	-88.6	3.0	1.56e+00	0	47	104	0	60	1048575
2026-01-18 07:16:30.85	103.39	32.19	-85.2	-88.6	2.9	1.56e+00	0	47	104	0	60	1048575
2026-01-18 07:16:34.87	102.52	32.87	-85.2	-88.6	2.9	1.56e+00	0	47	104	0	60	1048574
2026-01-18 07:16:38.91	101.61	33.56	-85.2	-88.6	2.9	1.56e+00	0	47	104	0	60	1048572
2026-01-18 07:16:42.93	100.65	34.26	-85.2	-88.6	3.2	1.55e+00	0	47	104	0	60	1048573
2026-01-18 07:16:46.95	99.66	34.96	-85.2	-88.6	3.2	1.56e+00	0	47	104	0	60	1048574
2026-01-18 07:16:50.97	98.62	35.66	-85.2	-88.6	3.0	1.56e+00	0	47	104	0	60	1048575
2026-01-18 07:16:55.01	97.54	36.37	-85.2	-88.6	3.2	1.55e+00	0	47	104	0	60	1048575
2026-01-18 07:16:59.03	96.40	37.08	-85.2	-88.6	3.0	1.55e+00	0	47	104	0	60	1048574
2026-01-18 07:17:03.06	95.22	37.80	-85.2	-88.6	2.8	1.56e+00	0	47	104	0	60	1048575
2026-01-18 07:17:07.09	93.98	38.52	-85.2	-88.6	3.2	1.56e+00	0	47	104	0	60	1048574
2026-01-18 07:17:11.12	92.68	39.23	-85.2	-88.6	3.1	1.55e+00	0	47	104	0	60	1048573
2026-01-18 07:17:15.14	91.33	39.94	-85.2	-88.6	3.1	1.56e+00	0	47	104	0	60	1048574
2026-01-18 07:17:19.16	89.92	40.65	-85.2	-88.6	2.9	1.56e+00	0	47	104	0	60	1048575
2026-01-18 07:17:23.18	88.44	41.35	-85.2	-88.6	3.0	1.56e+00	0	47	104	0	60	1048575
2026-01-18 07:17:27.19	86.91	42.03	-85.2	-88.6	3.0	1.56e+00	0	47	104	0	60	1048575
2026-01-18 07:17:31.20	85.30	42.71	-85.2	-88.6	3.0	1.56e+00	0	47	104	0	60	1048574
2026-01-18 07:17:35.23	83.62	43.37	-85.2	-88.6	3.0	1.55e+00	0	47	104	0	60	1048571
2026-01-18 07:17:39.24	81.88	44.02	-85.2	-88.6	3.0	1.56e+00	0	47	104	0	60	1048575
2026-01-18 07:17:43.27	80.06	44.64	-85.2	-88.6	2.9	1.56e+00	0	47	104	0	60	1048575
2026-01-18 07:17:47.29	78.17	45.25	-84.3	-88.6	3.0	1.55e+00	0	47	104	0	60	1048575
2026-01-18 07:17:51.33	76.20	45.82	-85.2	-88.6	3.2	1.56e+00	0	47	104	0	60	1048575
2026-01-18 07:17:55.36	74.17	46.36	-85.2	-88.6	3.0	1.56e+00	0	47	104	0	60	1048575
2026-01-18 07:17:59.39	72.06	46.87	-85.2	-88.6	3.0	1.56e+00	0	47	104	0	60	1048574
2026-01-18 07:18:03.42	69.89	47.34	-85.2	-88.6	3.1	1.56e+00	0	47	104	0	60	1048575
2026-01-18 07:18:07.45	67.65	47.77	-85.2	-88.6	3.2	1.56e+00	0	47	104	0	60	1048575
2026-01-18 07:18:11.48	65.36	48.16	-85.2	-88.6	3.2	1.56e+00	0	47	104	0	60	1048573
2026-01-18 07:18:15.52	63.00	48.49	-85.2	-88.6	2.9	1.56e+00	0	47	104	0	60	1048575
2026-01-18 07:18:19.55	60.60	48.78	-85.2	-88.6	2.9	1.56e+00	0	47	104	0	60	1048571
2026-01-18 07:18:23.58	58.16	49.01	-85.2	-88.6	3.0	1.56e+00	0	47	104	0	60	1048575
2026-01-18 07:18:27.61	55.69	49.18	-85.2	-88.6	3.2	1.56e+00	0	47	104	0	60	1048575
2026-01-18 07:18:31.63	53.21	49.30	-85.2	-88.6	3.1	1.55e+00	0	47	104	0	60	1048575
2026-01-18 07:18:35.66	50.70	49.36	-85.2	-88.6	2.9	1.56e+00	0	47	104	0	60	1048575
2026-01-18 07:18:39.69	48.18	49.36	-85.2	-88.6	3.0	1.55e+00	0	47	104	0	60	1048572
2026-01-18 07:18:43.71	45.68	49.30	-85.2	-88.6	3.2	1.55e+00	0	47	104	0	60	1048575
2026-01-18 07:18:47.74	43.19	49.18	-85.2	-88.6	3.2	1.55e+00	0	47	104	0	60	1048570
2026-01-18 07:18:51.77	40.72	49.01	-85.2	-88.6	3.0	1.56e+00	0	47	104	0	60	1048573
2026-01-18 07:18:55.79	38.29	48.78	-85.2	-88.6	3.0	1.56e+00	0	47	104	0	60	1048573
2026-01-18 07:18:59.82	35.89	48.50	-85.2	-88.6	3.0	1.56e+00	0	47	104	0	60	1048575
2026-01-18 07:19:03.84	33.55	48.16	-85.2	-88.6	3.2	1.56e+00	0	47	104	0	60	1048572
2026-01-18 07:19:07.88	31.25	47.78	-85.2	-88.6	2.8	1.56e+00	0	47	104	0	60	1048573
2026-01-18 07:19:11.91	29.02	47.35	-85.2	-88.6	3.0	1.56e+00	0	47	104	0	60	1048574
2026-01-18 07:19:15.94	26.84	46.88	-85.2	-88.6	3.1	1.55e+00	0	47	104	0	60	1048575
2026-01-18 07:19:19.97	24.74	46.37	-85.2	-88.6	2.9	1.55e+00	0	47	104	0	60	1048572
2026-01-18 07:19:24.00	22.71	45.83	-85.2	-88.6	3.0	1.56e+00	0	47	104	0	60	1048571
2026-01-18 07:19:28.04	20.74	45.26	-85.2	-88.6	3.1	1.56e+00	0	47	104	0	60	1048575
2026-01-18 07:19:32.06	18.86	44.66	-85.2	-88.6	3.1	1.56e+00	0	47	104	0	60	1048568
2026-01-18 07:19:36.09	17.04	44.03	-85.2	-88.6	3.0	1.56e+00	0	47	104	0	60	1048574
2026-01-18 07:19:40.13	15.29	43.39	-85.2	-88.6	3.3	1.56e+00	0	47	104	0	60	1048575
2026-01-18 07:19:44.16	13.61	42.72	-84.3	-88.6	3.2	1.56e+00	0	47	104	0	60	1048575
2026-01-18 07:19:48.18	12.01	42.05	-85.2	-88.6	2.9	1.56e+00	0	47	104	0	60	1048573
2026-01-18 07:19:52.20	10.47	41.36	-85.2	-88.6	2.9	1.55e+00	0	47	104	0	60	1048575
2026-01-18 07:19:56.24	8.99	40.66	-85.2	-88.6	3.1	1.56e+00	0	47	104	0	60	1048575
2026-01-18 07:20:00.27	7.58	39.95	-85.2	-88.6	3.2	1.56e+00	0	47	104	0	60	1048575
2026-01-18 07:20:04.30	6.23	39.24	-85.2	-88.6	3.1	1.56e+00	0	47	104	0	60	1048575
2026-01-18 07:20:08.32	4.94	38.53	-85.2	-88.6	3.1	1.56e+00	0	47	104	0	60	1048573
2026-01-18 07:20:12.35	3.70	37.82	-85.2	-88.6	2.8	1.56e+00	0	47	104	0	60	1048574
2026-01-18 07:20:16.38	2.52	37.11	-85.2	-88.6	3.2	1.56e+00	0	47	104	0	60	1048574
2026-01-18 07:20:20.42	1.39	36.39	-85.2	-88.6	3.1	1.56e+00	0	47	104	0	60	1048574
2026-01-18 07:20:24.44	0.31	35.69	-85.2	-88.6	3.0	1.56e+00	0	47	104	0	60	1048575
2026-01-18 07:20:28.47	359.27	34.98	-85.2	-88.6	2.9	1.56e+00	0	47	104	0	60	1048574
2026-01-18 07:20:32.50	358.28	34.28	-85.2	-88.6	2.9	1.55e+00	0	47	104	0	60	1048575
2026-01-18 07:20:36.53	357.33	33.59	-85.2	-88.6	3.2	1.55e+00	0	47	104	0	60	1048573
2026-01-18 07:20:40.56	356.42	32.91	-85.2	-88.6	3.1	1.56e+00	0	47	104	0	60	1048575
2026-01-18 07:20:44.59	355.54	32.23	-85.2	-88.6	3.0	1.56e+00	0	47	104	0	60	1048573
2026-01-18 07:20:48.62	354.71	31.56	-85.2	-88.6	3.1	1.55e+00	0	47	104	0	60	1048575
2026-01-18 07:20:52.65	353.91	30.90	-85.2	-88.6	3.1	1.56e+00	0	47	104	0	60	1048575
2026-01-18 07:20:56.68	353.14	30.24	-85.2	-88.6	3.1	1.55e+00	0	47	104	0	60	1048575
2026-01-18 07:21:00.70	352.40	29.60	-85.2	-88.6	3.1	1.56e+00	0	47	104	0	60	1048573
2026-01-18 07:21:04.73	351.69	28.97	-85.2	-88.6	3.3	1.56e+00	0	47	104	0	60	1048575
2026-01-18 07:21:08.76	351.01	28.34	-85.2	-88.6	3.1	1.56e+00	0	47	104	0	60	1048575
2026-01-18 07:21:12.79	350.35	27.72	-85.2	-88.6	2.9	1.56e+00	0	47	104	0	60	1048575
2026-01-18 07:21:16.81	349.72	27.12	-85.2	-88.6	3.0	1.56e+00	0	47	104	0	60	1048573
2026-01-18 07:21:20.84	349.12	26.52	-85.2	-88.6	3.0	1.56e+00	0	47	104	0	60	1048575
2026-01-18 07:21:24.87	348.53	25.93	-85.2	-88.6	3.0	1.55e+00	0	47	104	0	60	1048574
2026-01-18 07:21:28.89	347.97	25.36	-84.7	-88.6	3.0	1.56e+00	0	47	104	0	60	1048575
2026-01-18 07:21:32.92	347.43	24.79	-85.2	-88.6	3.1	1.56e+00	0	47	104	0	60	1048572
2026-01-18 07:21:36.96	346.91	24.23	-85.2	-88.6	2.9	1.55e+00	0	47	104	0	60	1048574
2026-01-18 07:21:40.99	346.40	23.68	-85.2	-88.6	3.0	1.55e+00	0	47	104	0	60	1048575
2026-01-18 07:21:45.01	345.92	23.14	-85.2	-88.6	3.0	1.55e+00	0	47	104	0	60	1048572
2026-01-18 07:21:49.02	345.45	22.61	-85.2	-88.6	3.1	1.56e+00	0	47	104	0	60	1048575
2026-01-18 07:21:53.05	345.00	22.09	-85.2	-88.6	3.1	1.56e+00	0	47	104	0	60	1048575
2026-01-18 07:21:57.08	344.56	21.57	-85.2	-88.6	3.1	1.56e+00	0	47	104	0	60	1048575
2026-01-18 07:22:01.10	344.14	21.07	-85.2	-88.6	3.0	1.56e+00	0	47	104	0	60	1048575
2026-01-18 07:22:05.13	343.73	20.57	-85.2	-88.6	3.1	1.56e+00	0	47	104	0	60	1048574
2026-01-18 07:22:09.15	343.34	20.08	-85.2	-88.6	3.0	1.56e+00	0	47	104	0	60	1048575
2026-01-18 07:22:13.18	342.95	19.60	-83.9	-88.6	2.9	1.56e+00	0	47	104	0	60	1048575
2026-01-18 07:22:17.20	342.58	19.13	-85.2	-88.6	2.8	1.55e+00	0	47	104	0	60	1048569
2026-01-18 07:22:21.22	342.23	18.66	-85.2	-88.6	2.8	1.56e+00	0	47	104	0	60	1048575
2026-01-18 07:22:25.26	341.88	18.20	-85.2	-88.6	3.1	1.55e+00	0	47	104	0	60	1048573
2026-01-18 07:22:29.29	341.54	17.75	-85.2	-88.6	3.0	1.56e+00	0	47	104	0	60	1048575
2026-01-18 07:22:33.31	341.22	17.31	-82.8	-88.6	3.1	1.56e+00	0	47	104	0	60	1048573
2026-01-18 07:22:37.34	340.90	16.87	-85.2	-88.6	3.2	1.56e+00	0	47	104	0	60	1048575
2026-01-18 07:22:41.36	340.59	16.44	-85.2	-88.6	3.2	1.56e+00	0	47	104	0	60	1048573
2026-01-18 07:22:45.39	340.29	16.02	-85.2	-88.6	3.0	1.56e+00	0	47	104	0	60	1048574
2026-01-18 07:22:49.41	340.00	15.60	-85.2	-88.6	3.2	1.56e+00	0	47	104	0	60	1048574
2026-01-18 07:22:53.44	339.72	15.19	-85.2	-88.6	3.0	1.55e+00	0	47	104	0	60	1048575
2026-01-18 07:22:57.46	339.45	14.79	-85.2	-88.6	3.1	1.56e+00	0	47	104	0	60	1048575
2026-01-18 07:23:01.48	339.19	14.39	-84.7	-88.6	3.0	1.56e+00	0	47	104	0	60	1048573
2026-01-18 07:23:05.49	338.93	14.00	-85.2	-88.6	2.9	1.56e+00	0	47	104	0	60	1048575
2026-01-18 07:23:09.52	338.68	13.61	-85.2	-88.6	2.8	1.56e+00	0	47	104	0	60	1048575
2026-01-18 07:23:13.55	338.43	13.23	-85.2	-88.6	3.2	1.55e+00	0	47	104	0	60	1048574
2026-01-18 07:23:17.58	338.19	12.85	-85.2	-88.6	3.1	1.55e+00	0	47	104	0	60	1048574
2026-01-18 07:23:21.61	337.96	12.48	-85.2	-88.6	2.9	1.56e+00	0	47	104	0	60	1048575
2026-01-18 07:23:25.61	337.74	12.11	-85.2	-88.6	3.0	1.56e+00	0	47	104	0	60	1048573
2026-01-18 07:23:29.62	337.52	11.75	-85.2	-88.6	3.1	1.55e+00	0	47	104	0	60	1048574
2026-01-18 07:23:33.65	337.31	11.40	-85.2	-88.6	2.9	1.55e+00	0	47	104	0	60	1048575
2026-01-18 07:23:37.68	337.10	11.05	-85.2	-88.6	3.0	1.56e+00	0	47	104	0	60	1048575
2026-01-18 07:23:41.70	336.90	10.70	-85.2	-88.6	3.1	1.55e+00	0	47	104	0	60	1048575
2026-01-18 07:23:45.72	336.70	10.36	-85.2	-88.6	3.0	1.56e+00	0	47	104	0	60	1048574
2026-01-18 07:23:49.74	336.51	10.02	-85.2	-88.6	3.0	1.56e+00	0	47	104	0	60	1048572
2026-01-18 07:23:53.77	336.32	9.68	-85.2	-88.6	2.8	1.55e+00	0	47	104	0	60	1048575
2026-01-18 07:23:57.79	336.13	9.35	-85.2	-88.6	3.1	1.56e+00	0	47	104	0	60	1048575
2026-01-18 07:24:01.81	335.95	9.03	-85.2	-88.6	2.9	1.55e+00	0	47	104	0	60	1048575
2026-01-18 07:24:05.83	335.78	8.71	-85.2	-88.6	3.0	1.56e+00	0	47	104	0	60	1048573
2026-01-18 07:24:09.85	335.61	8.39	-85.2	-88.6	2.9	1.56e+00	0	47	104	0	60	1048570
2026-01-18 07:24:13.88	335.44	8.08	-85.2	-88.6	2.9	1.56e+00	0	47	104	0	60	1048572
2026-01-18 07:24:17.90	335.28	7.76	-85.2	-88.6	3.0	1.56e+00	0	47	104	0	60	1048572
2026-01-18 07:24:21.94	335.12	7.46	-85.2	-88.6	3.1	1.55e+00	0	47	104	0	60	1048575
2026-01-18 07:24:25.96	334.97	7.15	-85.2	-88.6	2.9	1.56e+00	0	47	104	0	60	1048575
2026-01-18 07:24:29.98	334.81	6.85	-85.2	-88.6	3.1	1.56e+00	0	47	104	0	60	1048571
2026-01-18 07:24:34.00	334.67	6.56	-85.2	-88.6	3.1	1.56e+00	0	47	104	0	60	1048571
2026-01-18 07:24:38.04	334.52	6.26	-85.2	-88.6	3.2	1.55e+00	0	47	104	0	60	1048575
2026-01-18 07:24:42.07	334.38	5.97	-85.2	-88.6	2.9	1.56e+00	0	47	104	0	60	1048573
2026-01-18 07:24:46.09	334.24	5.68	-85.2	-88.6	3.1	1.56e+00	0	47	104	0	60	1048575
2026-01-18 07:24:50.12	334.10	5.40	-85.2	-88.6	3.3	1.56e+00	0	47	104	0	60	1048575
2026-01-18 07:24:54.15	333.97	5.11	-84.3	-88.6	3.1	1.55e+00	0	47	104	0	60	1048572
2026-01-18 07:24:58.18	333.84	4.83	-85.2	-88.6	3.1	1.55e+00	0	47	104	0	60	1048575
2026-01-18 07:25:02.21	333.71	4.56	-85.2	-88.6	2.8	1.56e+00	0	47	104	0	60	1048572
2026-01-18 07:25:06.23	333.59	4.28	-85.2	-88.6	3.0	1.56e+00	0	47	104	0	60	1048574
2026-01-18 07:25:10.26	333.47	4.01	-85.2	-88.6	3.0	1.56e+00	0	47	104	0	60	1048572
2026-01-18 07:25:14.29	333.35	3.74	-85.2	-88.6	3.2	1.56e+00	0	47	104	0	60	1048574
2026-01-18 07:25:18.32	333.23	3.48	-85.2	-88.6	2.8	1.56e+00	0	47	104	0	60	1048573
2026-01-18 07:25:22.34	333.12	3.21	-85.2	-88.6	3.1	1.56e+00	0	47	104	0	60	1048574
2026-01-18 07:25:26.37	333.00	2.95	-85.2	-88.6	3.1	1.56e+00	0	47	104	0	60	1048574
2026-01-18 07:25:30.40	332.89	2.69	-85.2	-88.6	3.2	1.56e+00	0	47	104	0	60	1048575
2026-01-18 07:25:34.43	332.79	2.43	-85.2	-88.6	3.0	1.56e+00	0	47	104	0	60	1048575
2026-01-18 07:25:38.45	332.68	2.18	-85.2	-88.6	3.1	1.55e+00	0	47	104	0	60	1048575
2026-01-18 07:25:42.48	332.58	1.93	-85.2	-88.6	3.0	1.56e+00	0	47	104	0	60	1048575
2026-01-18 07:25:46.52	332.47	1.67	-85.2	-88.6	3.0	1.56e+00	0	47	104	0	60	1048570
2026-01-18 07:25:50.53	332.38	1.43	-85.2	-88.6	2.9	1.56e+00	0	47	104	0	60	1048574
2026-01-18 07:25:54.55	332.28	1.18	-85.2	-88.6	3.0	1.56e+00	0	47	104	0	60	1048574
2026-01-18 07:25:58.57	332.18	0.94	-85.2	-88.6	3.1	1.56e+00	0	47	104	0	60	1048574
2026-01-18 07:26:02.60	332.09	0.69	-85.2	-88.6	3.1	1.56e+00	0	47	104	0	60	1048575
2026-01-18 07:26:06.63	332.00	0.45	-85.2	-88.6	2.7	1.56e+00	0	47	104	0	60	1048575
2026-01-18 07:26:10.66	331.91	0.21	-85.2	-88.6	3.0	1.56e+00	0	47	104	0	60	1048575
2026-01-18 07:26:14.69	331.82	-0.02	-85.2	-88.6	3.1	1.55e+00	0	47	104	0	60	1048575

#Closed at: 2026-01-18 07:26:15
#Recorded file [0 MB]: D:/Data/35015_260118_101104.dat