passes_logs/2026/01/18/R3.2S-Naryan-Mar/R3.2S-Naryan-Mar__20260118_143500_FENGYUN_3E_rec.log

#Pass ID: 20260118_143500_FENGYUN 3E
#Satellite: FENGYUN 3E
#Configuration: FENGYUN 3E
#almurnet v.1.7.20240730
#Start time: 2026-01-18 14:38:33

#Version: 2.2.20231116
#Station: R3.2S-Naryan-Mar
#Location: 53.008057 lon 67.646978 lat
#TLE: 1 49008U 21062A   26017.61301378  .00000104  00000+0  69808-4 0  9996
#TLE: 2 49008  98.7484  22.7108 0002130 132.1860 227.9498 14.19886007235218

#Time	Az	El	Level	Level2	SNR	BER	BlckErr	Temp	State	Recorded	gain1	gain2
2026-01-18 14:38:33.43	221.22	13.76	-82.8	-79.0	2.5	0.00e+00	0	49	0	0	60	1048572
2026-01-18 14:38:36.44	221.64	13.99	-84.7	-88.6	5.4	4.02e-01	0	49	0	0	60	1048570
2026-01-18 14:38:39.46	222.05	14.22	-84.7	-88.6	5.2	4.01e-01	0	49	0	0	60	1048573
2026-01-18 14:38:42.48	222.48	14.45	-84.7	-88.6	5.2	4.01e-01	0	49	0	0	60	1048570
2026-01-18 14:38:45.51	222.91	14.68	-84.7	-88.6	5.5	4.02e-01	0	49	0	0	60	1048570
2026-01-18 14:38:48.53	223.35	14.92	-84.7	-88.6	5.5	3.99e-01	0	49	0	0	60	1048572
2026-01-18 14:38:51.56	223.80	15.15	-84.7	-88.6	2.5	7.76e-01	0	49	104	0	60	1048568
2026-01-18 14:38:54.58	224.25	15.38	-84.7	-88.6	3.0	7.76e-01	0	49	104	0	60	1048571
2026-01-18 14:38:57.60	224.71	15.62	-84.7	-88.6	3.0	7.76e-01	0	49	104	0	60	1048572
2026-01-18 14:39:00.61	225.18	15.85	-84.7	-88.6	3.0	7.76e-01	0	49	104	0	60	1048575
2026-01-18 14:39:03.62	225.65	16.09	-84.7	-88.6	3.3	7.77e-01	0	49	104	0	60	1048573
2026-01-18 14:39:06.64	226.13	16.33	-84.7	-88.6	3.0	7.77e-01	0	49	104	0	60	1048575
2026-01-18 14:39:09.66	226.61	16.56	-84.7	-88.6	3.4	7.76e-01	0	49	104	0	60	1048574
2026-01-18 14:39:12.68	227.11	16.80	-84.7	-88.6	3.1	7.77e-01	0	49	104	0	60	1048573
2026-01-18 14:39:15.71	227.61	17.04	-84.7	-88.6	3.5	7.77e-01	0	49	104	0	60	1048571
2026-01-18 14:39:18.73	228.13	17.27	-84.7	-88.6	3.6	7.76e-01	0	49	104	0	60	1048574
2026-01-18 14:39:21.76	228.65	17.51	-84.7	-88.6	2.9	7.75e-01	0	49	104	0	60	1048572
2026-01-18 14:39:24.77	229.17	17.75	-84.7	-88.6	3.0	7.75e-01	0	49	104	0	60	1048575
2026-01-18 14:39:27.79	229.71	17.99	-84.7	-88.6	2.9	7.77e-01	0	49	104	0	60	1048572
2026-01-18 14:39:30.80	230.25	18.22	-84.7	-88.6	3.4	7.76e-01	0	49	104	0	60	1048574
2026-01-18 14:39:33.82	230.80	18.46	-84.7	-88.6	2.9	7.77e-01	0	49	104	0	60	1048573
2026-01-18 14:39:36.84	231.36	18.70	-84.7	-88.6	2.8	7.75e-01	0	48	104	0	60	1048571
2026-01-18 14:39:39.87	231.93	18.93	-84.7	-88.6	3.0	7.77e-01	0	49	104	0	60	1048573
2026-01-18 14:39:42.89	232.50	19.17	-84.7	-88.6	2.9	7.77e-01	0	48	104	0	60	1048575
2026-01-18 14:39:45.91	233.09	19.41	-84.7	-88.6	2.6	7.76e-01	0	48	104	0	60	1048573
2026-01-18 14:39:48.93	233.68	19.64	-84.7	-88.6	3.1	7.76e-01	0	49	104	0	60	1048575
2026-01-18 14:39:51.96	234.29	19.88	-84.7	-88.6	2.8	7.77e-01	0	48	104	0	60	1048575
2026-01-18 14:39:54.98	234.90	20.11	-84.7	-88.6	3.4	7.77e-01	0	48	104	0	60	1048570
2026-01-18 14:39:58.00	235.52	20.34	-84.7	-88.6	3.1	7.77e-01	0	48	104	0	60	1048575
2026-01-18 14:40:01.02	236.15	20.57	-84.7	-88.6	2.9	7.75e-01	0	48	104	0	60	1048571
2026-01-18 14:40:04.04	236.79	20.80	-84.7	-88.6	2.8	7.76e-01	0	48	104	0	60	1048575
2026-01-18 14:40:07.07	237.44	21.03	-84.7	-88.6	2.5	7.76e-01	0	48	104	0	60	1048571
2026-01-18 14:40:10.09	238.10	21.25	-84.7	-88.6	3.3	7.77e-01	0	48	104	0	60	1048570
2026-01-18 14:40:13.12	238.77	21.48	-84.7	-88.6	2.8	7.77e-01	0	48	104	0	60	1048572
2026-01-18 14:40:16.14	239.45	21.70	-84.7	-88.6	3.3	7.76e-01	0	48	104	0	60	1048575
2026-01-18 14:40:19.17	240.14	21.92	-84.7	-88.6	3.3	7.76e-01	0	48	104	0	60	1048574
2026-01-18 14:40:22.19	240.83	22.14	-84.7	-88.6	2.9	7.75e-01	0	48	104	0	60	1048572
2026-01-18 14:40:25.21	241.54	22.35	-84.7	-88.6	3.3	7.77e-01	0	48	104	0	60	1048575
2026-01-18 14:40:28.23	242.25	22.57	-84.7	-88.6	2.5	7.77e-01	0	48	104	0	60	1048569
2026-01-18 14:40:31.25	242.98	22.78	-84.7	-88.6	3.0	7.78e-01	0	48	104	0	60	1048572
2026-01-18 14:40:34.26	243.71	22.98	-84.7	-88.6	3.0	7.78e-01	0	48	104	0	60	1048574
2026-01-18 14:40:37.29	244.46	23.19	-84.7	-88.6	2.8	7.75e-01	0	48	104	0	60	1048574
2026-01-18 14:40:40.31	245.21	23.39	-84.7	-88.6	2.6	7.76e-01	0	48	104	0	60	1048573
2026-01-18 14:40:43.33	245.97	23.58	-84.7	-88.6	2.9	7.78e-01	0	48	104	0	60	1048574
2026-01-18 14:40:46.36	246.75	23.78	-84.7	-88.6	3.0	7.76e-01	0	48	104	0	60	1048574
2026-01-18 14:40:49.38	247.53	23.97	-84.7	-88.6	3.3	7.77e-01	0	48	104	0	60	1048575
2026-01-18 14:40:52.39	248.31	24.15	-84.7	-88.6	3.0	7.76e-01	0	48	104	0	60	1048574
2026-01-18 14:40:55.41	249.11	24.33	-84.7	-88.6	2.7	7.76e-01	0	48	104	0	60	1048575
2026-01-18 14:40:58.43	249.92	24.51	-84.7	-88.6	2.8	7.76e-01	0	48	104	0	60	1048575
2026-01-18 14:41:01.45	250.74	24.68	-84.7	-88.6	3.1	7.76e-01	0	48	104	0	60	1048574
2026-01-18 14:41:04.47	251.56	24.84	-84.7	-88.6	3.4	7.76e-01	0	48	104	0	60	1048574
2026-01-18 14:41:07.50	252.40	25.00	-84.7	-88.6	3.2	7.76e-01	0	48	104	0	60	1048570
2026-01-18 14:41:10.51	253.24	25.16	-84.7	-88.6	3.4	7.75e-01	0	48	104	0	60	1048562
2026-01-18 14:41:13.53	254.09	25.31	-84.7	-88.6	2.8	7.76e-01	0	48	104	0	60	1048573
2026-01-18 14:41:16.56	254.95	25.45	-84.7	-88.6	2.9	7.75e-01	0	48	104	0	60	1048567
2026-01-18 14:41:19.58	255.81	25.59	-84.7	-88.6	3.4	7.76e-01	0	48	104	0	60	1048571
2026-01-18 14:41:22.60	256.69	25.72	-84.7	-88.6	3.2	7.76e-01	0	48	104	0	60	1048574
2026-01-18 14:41:25.61	257.56	25.85	-84.7	-88.6	2.4	7.76e-01	0	48	104	0	60	1048573
2026-01-18 14:41:28.63	258.45	25.97	-84.7	-88.6	3.0	7.76e-01	0	48	104	0	60	1048571
2026-01-18 14:41:31.65	259.34	26.08	-84.7	-88.6	3.0	7.76e-01	0	48	104	0	60	1048575
2026-01-18 14:41:34.67	260.24	26.19	-84.7	-88.6	2.9	7.77e-01	0	48	104	0	60	1048575
2026-01-18 14:41:37.69	261.14	26.28	-84.7	-88.6	3.1	7.76e-01	0	48	104	0	60	1048571
2026-01-18 14:41:40.72	262.05	26.38	-84.7	-88.6	3.2	7.76e-01	0	48	104	0	60	1048574
2026-01-18 14:41:43.74	262.97	26.46	-84.7	-88.6	3.4	7.76e-01	0	48	104	0	60	1048571
2026-01-18 14:41:46.75	263.88	26.54	-84.7	-88.6	2.8	7.76e-01	0	48	104	0	60	1048563
2026-01-18 14:41:49.77	264.81	26.61	-84.7	-88.6	3.0	7.77e-01	0	48	104	0	60	1048572
2026-01-18 14:41:52.78	265.73	26.67	-84.7	-88.6	3.0	7.77e-01	0	48	104	0	60	1048574
2026-01-18 14:41:55.80	266.66	26.72	-84.7	-88.6	3.0	7.76e-01	0	48	104	0	60	1048573
2026-01-18 14:41:58.82	267.59	26.77	-84.7	-88.6	3.1	7.78e-01	0	48	104	0	60	1048557
2026-01-18 14:42:01.84	268.52	26.80	-84.7	-88.6	3.4	7.76e-01	0	48	104	0	60	1048575
2026-01-18 14:42:04.86	269.46	26.83	-84.7	-88.6	2.8	7.70e-01	0	48	104	0	60	1048574
2026-01-18 14:42:07.89	270.40	26.86	-84.7	-88.6	3.0	7.76e-01	0	48	104	0	60	1048574
2026-01-18 14:42:10.91	271.34	26.87	-84.7	-88.6	3.2	7.77e-01	0	48	104	0	60	1048573
2026-01-18 14:42:13.94	272.28	26.88	-84.7	-88.6	3.0	7.76e-01	0	48	104	0	60	1048572
2026-01-18 14:42:16.96	273.22	26.87	-84.7	-88.6	3.0	7.75e-01	0	48	104	0	60	1048575
2026-01-18 14:42:19.99	274.16	26.86	-84.7	-88.6	2.9	7.76e-01	0	48	104	0	60	1048569
2026-01-18 14:42:23.01	275.10	26.84	-84.7	-88.6	2.9	7.76e-01	0	48	104	0	60	1048575
2026-01-18 14:42:26.04	276.04	26.82	-84.7	-88.6	2.7	7.76e-01	0	48	104	0	60	1048574
2026-01-18 14:42:29.06	276.98	26.78	-84.7	-88.6	3.4	7.77e-01	0	48	104	0	60	1048574
2026-01-18 14:42:32.08	277.91	26.74	-84.7	-88.6	3.3	7.77e-01	0	48	104	0	60	1048575
2026-01-18 14:42:35.10	278.84	26.69	-84.7	-88.6	3.4	7.75e-01	0	48	104	0	60	1048575
2026-01-18 14:42:38.12	279.77	26.63	-84.7	-88.6	3.1	7.76e-01	0	48	104	0	60	1048575
2026-01-18 14:42:41.15	280.69	26.57	-84.7	-88.6	2.9	7.75e-01	0	48	104	0	60	1048568
2026-01-18 14:42:44.16	281.61	26.49	-84.7	-88.6	3.3	7.76e-01	0	48	104	0	60	1048565
2026-01-18 14:42:47.18	282.52	26.41	-84.7	-88.6	3.1	7.75e-01	0	48	104	0	60	1048569
2026-01-18 14:42:50.20	283.43	26.32	-84.7	-88.6	3.0	7.76e-01	0	48	104	0	60	1048573
2026-01-18 14:42:53.22	284.34	26.23	-84.7	-88.6	3.5	7.75e-01	0	48	104	0	60	1048575
2026-01-18 14:42:56.24	285.24	26.13	-84.7	-88.6	2.9	7.78e-01	0	48	104	0	60	1048574
2026-01-18 14:42:59.26	286.13	26.02	-84.7	-88.6	2.8	7.77e-01	0	48	104	0	60	1048571
2026-01-18 14:43:02.28	287.02	25.90	-84.7	-88.6	2.3	7.76e-01	0	48	104	0	60	1048575
2026-01-18 14:43:05.30	287.90	25.78	-84.7	-88.6	3.1	7.77e-01	0	48	104	0	60	1048572
2026-01-18 14:43:08.31	288.77	25.65	-84.7	-88.6	3.2	7.77e-01	0	48	104	0	60	1048572
2026-01-18 14:43:11.34	289.64	25.51	-84.7	-88.6	1.7	7.77e-01	0	48	104	0	60	1048572
2026-01-18 14:43:14.36	290.50	25.37	-84.7	-88.6	3.3	7.77e-01	0	48	104	0	60	1048575
2026-01-18 14:43:17.38	291.35	25.22	-84.7	-88.6	2.8	7.76e-01	0	48	104	0	60	1048575
2026-01-18 14:43:20.41	292.19	25.07	-84.7	-88.6	2.9	7.77e-01	0	48	104	0	60	1048575
2026-01-18 14:43:23.42	293.03	24.91	-84.7	-88.6	3.5	7.78e-01	0	48	104	0	60	1048575
2026-01-18 14:43:26.43	293.85	24.75	-84.7	-88.6	3.2	7.77e-01	0	48	104	0	60	1048571
2026-01-18 14:43:29.45	294.67	24.58	-84.7	-88.6	2.9	7.76e-01	0	48	104	0	60	1048575
2026-01-18 14:43:32.46	295.48	24.41	-84.7	-88.6	1.6	7.78e-01	0	48	104	0	60	1048575
2026-01-18 14:43:35.49	296.28	24.23	-84.7	-88.6	2.9	7.77e-01	0	48	104	0	60	1048572
2026-01-18 14:43:38.51	297.07	24.05	-84.7	-88.6	3.5	7.76e-01	0	48	104	0	60	1048575
2026-01-18 14:43:41.53	297.85	23.86	-84.7	-88.6	3.0	7.77e-01	0	48	104	0	60	1048573
2026-01-18 14:43:44.56	298.63	23.67	-84.7	-88.6	3.4	7.77e-01	0	48	104	0	60	1048574
2026-01-18 14:43:47.58	299.39	23.48	-84.7	-88.6	2.7	7.77e-01	0	48	104	0	60	1048572
2026-01-18 14:43:50.60	300.15	23.28	-84.7	-88.6	2.9	7.76e-01	0	48	104	0	60	1048568
2026-01-18 14:43:53.62	300.89	23.08	-84.7	-88.6	3.6	7.77e-01	0	48	104	0	60	1048575
2026-01-18 14:43:56.64	301.63	22.88	-84.7	-88.6	3.0	7.77e-01	0	48	104	0	60	1048568
2026-01-18 14:43:59.67	302.36	22.67	-84.7	-88.6	3.1	7.77e-01	0	48	104	0	60	1048547
2026-01-18 14:44:02.69	303.08	22.46	-84.7	-88.6	3.5	7.77e-01	0	48	104	0	60	1048572
2026-01-18 14:44:05.72	303.79	22.24	-84.7	-88.6	3.0	7.77e-01	0	48	104	0	60	1048572
2026-01-18 14:44:08.73	304.48	22.03	-84.7	-88.6	2.9	7.77e-01	0	48	104	0	60	1048566
2026-01-18 14:44:11.75	305.17	21.81	-84.7	-88.6	3.0	7.78e-01	0	48	104	0	60	1048572
2026-01-18 14:44:14.77	305.85	21.59	-84.7	-88.6	2.8	7.76e-01	0	48	104	0	60	1048574
2026-01-18 14:44:17.79	306.52	21.37	-84.7	-88.6	3.0	7.76e-01	0	48	104	0	60	1048574
2026-01-18 14:44:20.81	307.18	21.14	-84.7	-88.6	2.9	7.78e-01	0	48	104	0	60	1048573
2026-01-18 14:44:23.84	307.83	20.92	-84.7	-88.6	3.4	7.77e-01	0	48	104	0	60	1048564
2026-01-18 14:44:26.86	308.47	20.69	-84.7	-88.6	3.5	7.77e-01	0	48	104	0	60	1048565
2026-01-18 14:44:29.88	309.11	20.46	-84.7	-88.6	3.4	7.77e-01	0	48	104	0	60	1048574
2026-01-18 14:44:32.90	309.73	20.23	-84.7	-88.6	3.6	7.77e-01	0	48	104	0	60	1048575
2026-01-18 14:44:35.93	310.35	20.00	-84.7	-88.6	3.0	7.77e-01	0	48	104	0	60	1048571
2026-01-18 14:44:38.96	310.95	19.77	-84.7	-88.6	2.5	7.76e-01	0	48	104	0	60	1048571
2026-01-18 14:44:41.98	311.55	19.53	-84.7	-88.6	2.9	7.77e-01	0	48	104	0	60	1048569
2026-01-18 14:44:44.99	312.13	19.30	-84.7	-88.6	3.0	7.76e-01	0	48	104	0	60	1048567
2026-01-18 14:44:48.02	312.72	19.07	-84.7	-88.6	2.8	7.77e-01	0	48	104	0	60	1048575
2026-01-18 14:44:51.04	313.29	18.83	-84.7	-88.6	2.5	7.75e-01	0	48	104	0	60	1048573
2026-01-18 14:44:54.06	313.85	18.60	-84.7	-88.6	2.9	7.77e-01	0	48	104	0	60	1048569
2026-01-18 14:44:57.09	314.40	18.36	-84.7	-88.6	3.2	7.76e-01	0	48	104	0	60	1048575
2026-01-18 14:45:00.11	314.95	18.12	-84.7	-88.6	3.0	7.76e-01	0	48	104	0	60	1048572
2026-01-18 14:45:03.13	315.48	17.89	-84.7	-88.6	2.6	7.76e-01	0	48	104	0	60	1048573
2026-01-18 14:45:06.15	316.01	17.65	-84.7	-88.6	2.9	7.77e-01	0	48	104	0	60	1048574
2026-01-18 14:45:09.17	316.53	17.42	-84.7	-88.6	3.3	7.77e-01	0	48	104	0	60	1048574
2026-01-18 14:45:12.20	317.05	17.18	-84.7	-88.6	3.0	7.76e-01	0	48	104	0	60	1048569
2026-01-18 14:45:15.22	317.55	16.94	-84.7	-88.6	3.2	7.75e-01	0	48	104	0	60	1048575
2026-01-18 14:45:18.24	318.05	16.71	-84.7	-88.6	3.0	7.76e-01	0	48	104	0	60	1048575
2026-01-18 14:45:21.26	318.54	16.47	-84.7	-88.6	2.9	7.76e-01	0	48	104	0	60	1048573
2026-01-18 14:45:24.28	319.02	16.24	-84.7	-88.6	2.5	7.78e-01	0	48	104	0	60	1048575
2026-01-18 14:45:27.31	319.50	16.00	-84.7	-88.6	3.1	7.76e-01	0	48	104	0	60	1048569
2026-01-18 14:45:30.33	319.97	15.77	-84.7	-88.6	2.9	7.77e-01	0	48	104	0	60	1048572
2026-01-18 14:45:33.35	320.43	15.54	-84.7	-88.6	3.5	7.76e-01	0	48	104	0	60	1048568
2026-01-18 14:45:36.37	320.88	15.30	-84.7	-88.6	3.1	7.75e-01	0	48	104	0	60	1048570
2026-01-18 14:45:39.39	321.33	15.07	-84.7	-88.6	2.6	7.75e-01	0	48	104	0	60	1048574
2026-01-18 14:45:42.42	321.77	14.84	-84.7	-88.6	3.0	7.75e-01	0	48	104	0	60	1048569
2026-01-18 14:45:45.44	322.21	14.61	-84.7	-88.6	3.1	7.77e-01	0	48	104	0	60	1048575
2026-01-18 14:45:48.47	322.64	14.38	-84.7	-88.6	3.0	7.77e-01	0	48	104	0	60	1048573
2026-01-18 14:45:51.48	323.06	14.15	-84.7	-88.6	3.0	7.76e-01	0	48	104	0	60	1048574
2026-01-18 14:45:54.50	323.47	13.92	-84.7	-88.6	2.7	7.78e-01	0	48	104	0	60	1048574
2026-01-18 14:45:57.52	323.88	13.69	-84.7	-88.6	3.0	7.77e-01	0	48	104	0	60	1048574
2026-01-18 14:46:00.55	324.28	13.46	-84.7	-88.6	2.9	7.76e-01	0	48	104	0	60	1048575
2026-01-18 14:46:03.57	324.68	13.24	-84.7	-88.6	3.0	7.76e-01	0	48	104	0	60	1048568
2026-01-18 14:46:06.60	325.07	13.01	-84.7	-88.6	2.7	7.76e-01	0	48	104	0	60	1048575
2026-01-18 14:46:09.61	325.46	12.79	-84.7	-88.6	2.8	7.77e-01	0	48	104	0	60	1048574
2026-01-18 14:46:12.63	325.84	12.56	-84.7	-88.6	3.0	7.77e-01	0	48	104	0	60	1048570
2026-01-18 14:46:15.65	326.21	12.34	-84.7	-88.6	3.2	7.78e-01	0	48	104	0	60	1048574
2026-01-18 14:46:18.68	326.58	12.12	-84.7	-88.6	3.3	7.76e-01	0	48	104	0	60	1048568
2026-01-18 14:46:21.70	326.95	11.90	-84.7	-88.6	2.9	7.76e-01	0	48	104	0	60	1048568
2026-01-18 14:46:24.72	327.31	11.68	-84.7	-88.6	3.1	7.76e-01	0	48	104	0	60	1048575
2026-01-18 14:46:27.74	327.66	11.46	-84.7	-88.6	3.0	7.76e-01	0	48	104	0	60	1048575
2026-01-18 14:46:30.76	328.01	11.24	-84.7	-88.6	3.3	7.77e-01	0	48	104	0	60	1048570
2026-01-18 14:46:33.78	328.35	11.03	-84.7	-88.6	2.9	7.76e-01	0	48	104	0	60	1048572
2026-01-18 14:46:36.81	328.69	10.81	-84.7	-88.6	2.8	7.76e-01	0	48	104	0	60	1048572
2026-01-18 14:46:39.82	329.03	10.60	-84.7	-88.6	3.2	7.76e-01	0	48	104	0	60	1048575
2026-01-18 14:46:42.83	329.35	10.38	-84.7	-88.6	3.1	7.76e-01	0	48	104	0	60	1048566
2026-01-18 14:46:45.85	329.68	10.17	-84.7	-88.6	2.9	7.78e-01	0	48	104	0	60	1048575
2026-01-18 14:46:48.87	330.00	9.96	-84.7	-88.6	2.5	7.77e-01	0	48	104	0	60	1048564
2026-01-18 14:46:51.89	330.32	9.75	-84.7	-88.6	2.9	7.72e-01	0	48	104	0	60	1048572
2026-01-18 14:46:54.91	330.63	9.54	-84.7	-88.6	2.7	7.75e-01	0	48	104	0	60	1048573
2026-01-18 14:46:57.93	330.93	9.33	-84.7	-88.6	2.8	7.78e-01	0	48	104	0	60	1048574
2026-01-18 14:47:00.96	331.24	9.12	-84.7	-88.6	3.3	7.77e-01	0	48	104	0	60	1048569
2026-01-18 14:47:03.98	331.54	8.92	-84.7	-88.6	3.5	7.77e-01	0	48	104	0	60	1048575
2026-01-18 14:47:07.00	331.83	8.71	-84.7	-88.6	3.1	7.76e-01	0	48	104	0	60	1048574
2026-01-18 14:47:10.02	332.13	8.51	-84.7	-88.6	3.0	7.76e-01	0	48	104	0	60	1048573
2026-01-18 14:47:13.04	332.41	8.31	-84.7	-88.6	3.0	7.77e-01	0	48	104	0	60	1048575
2026-01-18 14:47:16.07	332.70	8.10	-84.7	-88.6	3.0	7.76e-01	0	48	104	0	60	1048574
2026-01-18 14:47:19.09	332.98	7.90	-84.7	-88.6	3.0	7.71e-01	0	48	104	0	60	1048575
2026-01-18 14:47:22.11	333.26	7.70	-84.7	-88.6	2.8	7.75e-01	0	48	104	0	60	1048574
2026-01-18 14:47:25.13	333.53	7.51	-84.7	-88.6	3.1	7.78e-01	0	48	104	0	60	1048574
2026-01-18 14:47:28.15	333.80	7.31	-84.7	-88.6	3.0	7.76e-01	0	48	104	0	60	1048573
2026-01-18 14:47:31.16	334.06	7.11	-84.7	-88.6	2.9	7.75e-01	0	48	104	0	60	1048575
2026-01-18 14:47:34.17	334.33	6.92	-84.7	-88.6	3.0	7.77e-01	0	48	104	0	60	1048575
2026-01-18 14:47:37.20	334.59	6.72	-84.7	-88.6	2.6	7.72e-01	0	48	104	0	60	1048575
2026-01-18 14:47:40.22	334.84	6.53	-84.7	-88.6	2.8	7.76e-01	0	48	104	0	60	1048567
2026-01-18 14:47:43.24	335.10	6.34	-84.7	-88.6	3.0	7.70e-01	0	48	104	0	60	1048573
2026-01-18 14:47:46.27	335.35	6.14	-84.7	-88.6	3.1	7.76e-01	0	48	104	0	60	1048570
2026-01-18 14:47:49.29	335.59	5.95	-84.7	-88.6	3.3	7.76e-01	0	48	104	0	60	1048575
2026-01-18 14:47:52.32	335.84	5.76	-84.7	-88.6	2.5	7.75e-01	0	48	104	0	60	1048574
2026-01-18 14:47:55.34	336.08	5.57	-84.7	-88.6	2.8	7.76e-01	0	48	104	0	60	1048575
2026-01-18 14:47:58.37	336.32	5.39	-84.7	-88.6	2.4	7.76e-01	0	48	104	0	60	1048575
2026-01-18 14:48:01.39	336.55	5.20	-84.7	-88.6	3.1	7.77e-01	0	48	104	0	60	1048568
2026-01-18 14:48:04.41	336.79	5.01	-84.7	-88.6	2.9	7.76e-01	0	48	104	0	60	1048571
2026-01-18 14:48:07.44	337.02	4.83	-84.7	-88.6	2.9	7.77e-01	0	48	104	0	60	1048574
2026-01-18 14:48:10.46	337.24	4.64	-84.7	-88.6	3.1	7.76e-01	0	48	104	0	60	1048567
2026-01-18 14:48:13.48	337.47	4.46	-84.7	-88.6	3.3	7.78e-01	0	48	104	0	60	1048574
2026-01-18 14:48:16.50	337.69	4.28	-84.7	-88.6	3.0	7.78e-01	0	48	104	0	60	1048570
2026-01-18 14:48:19.52	337.91	4.10	-84.7	-88.6	3.0	7.77e-01	0	48	104	0	60	1048571
2026-01-18 14:48:22.54	338.13	3.92	-84.7	-88.6	2.2	7.76e-01	0	48	104	0	60	1048575
2026-01-18 14:48:25.57	338.34	3.74	-84.7	-88.6	2.9	7.77e-01	0	48	104	0	60	1048571
2026-01-18 14:48:28.59	338.55	3.56	-84.7	-88.6	3.4	7.76e-01	0	48	104	0	60	1048572
2026-01-18 14:48:31.61	338.76	3.38	-84.7	-88.6	3.1	7.76e-01	0	48	104	0	60	1048575
2026-01-18 14:48:34.64	338.97	3.20	-84.7	-88.6	2.9	7.77e-01	0	48	104	0	60	1048575
2026-01-18 14:48:37.66	339.17	3.03	-84.7	-88.6	3.5	7.77e-01	0	48	104	0	60	1048574
2026-01-18 14:48:40.68	339.38	2.85	-84.7	-88.6	2.9	7.76e-01	0	48	104	0	60	1048575
2026-01-18 14:48:43.70	339.58	2.68	-84.7	-88.6	3.6	7.77e-01	0	48	104	0	60	1048572
2026-01-18 14:48:46.72	339.78	2.51	-84.7	-88.6	2.9	7.77e-01	0	48	104	0	60	1048574
2026-01-18 14:48:49.74	339.97	2.33	-84.7	-88.6	3.1	7.77e-01	0	48	104	0	60	1048564
2026-01-18 14:48:52.76	340.17	2.16	-84.7	-88.6	2.9	7.76e-01	0	48	104	0	60	1048574
2026-01-18 14:48:55.79	340.36	1.99	-84.7	-88.6	2.7	7.76e-01	0	48	104	0	60	1048574
2026-01-18 14:48:58.80	340.55	1.82	-84.7	-88.6	3.4	7.76e-01	0	48	104	0	60	1048565
2026-01-18 14:49:01.81	340.73	1.65	-84.7	-88.6	3.2	7.75e-01	0	48	104	0	60	1048575
2026-01-18 14:49:04.83	340.92	1.48	-84.7	-88.6	3.0	7.77e-01	0	48	104	0	60	1048570
2026-01-18 14:49:07.85	341.10	1.31	-84.7	-88.6	3.1	7.76e-01	0	48	104	0	60	1048575
2026-01-18 14:49:10.87	341.29	1.15	-84.7	-88.6	2.9	7.75e-01	0	48	104	0	60	1048573
2026-01-18 14:49:13.89	341.47	0.98	-84.7	-88.6	2.8	7.76e-01	0	48	104	0	60	1048574
2026-01-18 14:49:16.91	341.65	0.82	-84.7	-88.6	3.5	7.77e-01	0	48	104	0	60	1048574
2026-01-18 14:49:19.93	341.82	0.65	-84.7	-88.6	2.7	7.76e-01	0	48	104	0	60	1048574
2026-01-18 14:49:22.95	342.00	0.49	-84.7	-88.6	2.7	7.76e-01	0	48	104	0	60	1048571
2026-01-18 14:49:25.97	342.17	0.32	-84.7	-88.6	2.7	7.77e-01	0	48	104	0	60	1048575
2026-01-18 14:49:28.99	342.34	0.16	-84.7	-88.6	3.2	7.77e-01	0	48	104	0	60	1048568
2026-01-18 14:49:32.01	342.51	-0.00	-84.7	-88.6	2.9	7.76e-01	0	48	104	0	60	1048573

#Closed at: 2026-01-18 14:49:32
#Recorded file [0 MB]: D:/Data/35015_260118_173833.dat