passes_logs/2026/01/18/R3.2S-Naryan-Mar/R3.2S-Naryan-Mar__20260118_015358_SUOMI_NPP_rec.log

#Pass ID: 20260118_015358_SUOMI NPP
#Satellite: SUOMI NPP
#Configuration: NPP
#almurnet v.1.7.20240730
#Start time: 2026-01-18 01:53:59

#Version: 2.2.20231116
#Station: R3.2S-Naryan-Mar
#Location: 53.008057 lon 67.646978 lat
#TLE: 1 37849U 11061A   26017.28905266  .00000074  00000+0  55894-4 0  9999
#TLE: 2 37849  98.7814 319.3179 0002408  59.7048 300.4366 14.19525847737038

#Time	Az	El	Level	Level2	SNR	BER	BlckErr	Temp	State	Recorded	gain1	gain2
2026-01-18 01:53:59.87	38.23	0.07	-85.2	-88.8	3.0	1.56e+00	0	45	0	0	60	1048575
2026-01-18 01:54:03.89	38.04	0.29	-85.2	-88.6	3.2	1.56e+00	0	46	104	0	60	1048574
2026-01-18 01:54:07.92	37.84	0.52	-85.2	-88.6	3.1	1.56e+00	0	46	104	0	60	1048575
2026-01-18 01:54:11.95	37.64	0.75	-85.2	-88.6	3.0	1.56e+00	0	46	104	0	60	1048574
2026-01-18 01:54:15.96	37.44	0.97	-85.2	-88.6	2.9	1.56e+00	0	46	104	0	60	1048575
2026-01-18 01:54:19.99	37.23	1.20	-85.2	-88.6	3.1	1.56e+00	0	46	104	0	60	1048574
2026-01-18 01:54:24.02	37.02	1.44	-85.2	-88.6	3.1	1.56e+00	0	46	104	0	60	1048575
2026-01-18 01:54:28.04	36.81	1.67	-85.2	-88.6	3.1	1.56e+00	0	46	104	0	60	1048575
2026-01-18 01:54:32.07	36.59	1.90	-85.2	-88.6	3.1	1.56e+00	0	46	104	0	60	1048572
2026-01-18 01:54:36.10	36.37	2.14	-85.2	-88.6	3.2	1.56e+00	0	46	104	0	60	1048574
2026-01-18 01:54:40.13	36.14	2.38	-85.2	-88.6	3.1	1.56e+00	0	46	104	0	60	1048575
2026-01-18 01:54:44.17	35.91	2.61	-85.2	-88.6	2.9	1.56e+00	0	46	104	0	60	1048573
2026-01-18 01:54:48.19	35.68	2.85	-85.2	-88.6	3.1	1.56e+00	0	46	104	0	60	1048574
2026-01-18 01:54:52.21	35.44	3.10	-85.2	-88.6	2.9	1.56e+00	0	46	104	0	60	1048574
2026-01-18 01:54:56.25	35.20	3.34	-85.2	-88.6	2.8	1.55e+00	0	47	104	0	60	1048575
2026-01-18 01:55:00.28	34.96	3.59	-85.2	-88.6	2.7	1.56e+00	0	47	104	0	60	1048574
2026-01-18 01:55:04.30	34.71	3.83	-85.2	-88.6	3.0	1.56e+00	0	46	104	0	60	1048575
2026-01-18 01:55:08.33	34.45	4.08	-85.2	-88.6	2.8	1.56e+00	0	46	104	0	60	1048573
2026-01-18 01:55:12.36	34.19	4.33	-85.2	-88.6	3.0	1.55e+00	0	46	104	0	60	1048575
2026-01-18 01:55:16.39	33.93	4.58	-85.2	-88.6	2.9	1.56e+00	0	47	104	0	60	1048575
2026-01-18 01:55:20.42	33.66	4.84	-85.2	-88.6	3.0	1.56e+00	0	46	104	0	60	1048574
2026-01-18 01:55:24.45	33.39	5.09	-85.2	-88.6	3.0	1.56e+00	0	47	104	0	60	1048575
2026-01-18 01:55:28.47	33.11	5.35	-85.2	-88.6	3.1	1.56e+00	0	47	104	0	60	1048575
2026-01-18 01:55:32.50	32.82	5.61	-85.2	-88.6	2.8	1.55e+00	0	47	104	0	60	1048575
2026-01-18 01:55:36.53	32.53	5.87	-82.5	-88.6	3.0	1.56e+00	0	47	104	0	60	1048574
2026-01-18 01:55:40.56	32.24	6.14	-85.2	-88.6	2.8	1.56e+00	0	47	104	0	60	1048573
2026-01-18 01:55:44.59	31.94	6.40	-85.2	-88.6	3.3	1.56e+00	0	47	104	0	60	1048575
2026-01-18 01:55:48.63	31.63	6.67	-85.2	-88.6	2.8	1.55e+00	0	47	104	0	60	1048571
2026-01-18 01:55:52.65	31.32	6.94	-85.2	-88.6	3.0	1.56e+00	0	47	104	0	60	1048575
2026-01-18 01:55:56.67	31.00	7.21	-85.2	-88.6	3.1	1.55e+00	0	47	104	0	60	1048575
2026-01-18 01:56:00.70	30.67	7.48	-85.2	-88.6	3.2	1.56e+00	0	47	104	0	60	1048575
2026-01-18 01:56:04.73	30.34	7.76	-85.2	-88.6	2.6	1.56e+00	0	47	104	0	60	1048575
2026-01-18 01:56:08.75	30.00	8.03	-84.7	-88.6	3.0	1.56e+00	0	47	104	0	60	1048575
2026-01-18 01:56:12.77	29.66	8.31	-85.2	-88.6	3.0	1.56e+00	0	47	104	0	60	1048575
2026-01-18 01:56:16.80	29.31	8.59	-85.2	-88.6	3.0	1.55e+00	0	47	104	0	60	1048573
2026-01-18 01:56:20.83	28.95	8.88	-85.2	-88.6	2.9	1.55e+00	0	47	104	0	60	1048575
2026-01-18 01:56:24.86	28.58	9.16	-83.5	-88.6	3.1	1.56e+00	0	47	104	0	60	1048575
2026-01-18 01:56:28.88	28.21	9.45	-85.2	-88.6	3.2	1.55e+00	0	47	104	0	60	1048574
2026-01-18 01:56:32.91	27.83	9.74	-85.2	-88.6	3.0	1.56e+00	0	47	104	0	60	1048572
2026-01-18 01:56:36.94	27.44	10.03	-85.2	-88.6	3.1	1.55e+00	0	47	104	0	60	1048573
2026-01-18 01:56:40.97	27.04	10.32	-85.2	-88.6	2.8	1.56e+00	0	47	104	0	60	1048575
2026-01-18 01:56:44.99	26.63	10.62	-85.2	-88.6	3.1	1.56e+00	0	47	104	0	60	1048572
2026-01-18 01:56:49.01	26.22	10.92	-85.2	-88.6	2.9	1.56e+00	0	47	104	0	60	1048573
2026-01-18 01:56:53.05	25.80	11.22	-85.2	-88.6	2.9	1.56e+00	0	47	104	0	60	1048575
2026-01-18 01:56:57.07	25.36	11.52	-85.2	-88.6	2.8	1.56e+00	0	47	104	0	60	1048575
2026-01-18 01:57:01.10	24.92	11.82	-85.2	-88.6	3.2	1.56e+00	0	47	104	0	60	1048575
2026-01-18 01:57:05.13	24.47	12.13	-85.2	-88.6	3.1	1.56e+00	0	47	104	0	60	1048575
2026-01-18 01:57:09.15	24.01	12.44	-84.3	-88.6	3.1	1.56e+00	0	47	104	0	60	1048575
2026-01-18 01:57:13.19	23.54	12.75	-85.2	-88.6	2.9	1.56e+00	0	47	104	0	60	1048573
2026-01-18 01:57:17.22	23.05	13.06	-85.2	-88.6	2.7	1.55e+00	0	47	104	0	60	1048575
2026-01-18 01:57:21.25	22.56	13.38	-85.2	-88.6	3.0	1.56e+00	0	47	104	0	60	1048573
2026-01-18 01:57:25.28	22.06	13.69	-85.2	-88.6	2.9	1.56e+00	0	47	104	0	60	1048574
2026-01-18 01:57:29.31	21.54	14.01	-85.2	-88.6	3.0	1.56e+00	0	47	104	0	60	1048575
2026-01-18 01:57:33.34	21.02	14.33	-85.2	-88.6	2.9	1.56e+00	0	47	104	0	60	1048574
2026-01-18 01:57:37.36	20.48	14.65	-85.2	-88.6	3.0	1.56e+00	0	47	104	0	60	1048570
2026-01-18 01:57:41.39	19.93	14.98	-85.2	-88.6	2.9	1.55e+00	0	47	104	0	60	1048575
2026-01-18 01:57:45.42	19.37	15.30	-85.2	-88.6	3.0	1.56e+00	0	47	104	0	60	1048574
2026-01-18 01:57:49.44	18.79	15.63	-85.2	-88.6	2.7	1.55e+00	0	47	104	0	60	1048575
2026-01-18 01:57:53.47	18.21	15.95	-85.2	-88.6	2.8	1.55e+00	0	47	104	0	60	1048574
2026-01-18 01:57:57.50	17.60	16.28	-85.2	-88.6	3.0	1.55e+00	0	47	104	0	60	1048573
2026-01-18 01:58:01.53	16.99	16.61	-85.2	-88.6	2.9	1.56e+00	0	47	104	0	60	1048574
2026-01-18 01:58:05.57	16.36	16.95	-85.2	-88.6	3.1	1.56e+00	0	47	104	0	60	1048575
2026-01-18 01:58:09.58	15.72	17.28	-85.2	-88.6	3.0	1.56e+00	0	47	104	0	60	1048575
2026-01-18 01:58:13.62	15.06	17.61	-85.2	-88.6	2.7	1.56e+00	0	47	104	0	60	1048575
2026-01-18 01:58:17.64	14.39	17.94	-85.2	-88.6	2.8	1.56e+00	0	47	104	0	60	1048575
2026-01-18 01:58:21.67	13.70	18.27	-85.2	-88.6	3.2	1.55e+00	0	47	104	0	60	1048574
2026-01-18 01:58:25.69	13.00	18.61	-85.2	-88.6	3.3	1.56e+00	0	47	104	0	60	1048575
2026-01-18 01:58:29.70	12.28	18.94	-85.2	-88.6	3.0	1.55e+00	0	47	104	0	60	1048575
2026-01-18 01:58:33.73	11.55	19.27	-85.2	-88.6	2.9	1.56e+00	0	47	104	0	60	1048575
2026-01-18 01:58:37.76	10.79	19.60	-85.2	-88.6	3.2	1.56e+00	0	47	104	0	60	1048574
2026-01-18 01:58:41.79	10.02	19.94	-85.2	-88.6	3.1	1.55e+00	0	47	104	0	60	1048575
2026-01-18 01:58:45.81	9.24	20.27	-85.2	-88.6	2.8	1.55e+00	0	47	104	0	60	1048574
2026-01-18 01:58:49.84	8.44	20.59	-84.7	-88.6	2.7	1.55e+00	0	47	104	0	60	1048575
2026-01-18 01:58:53.87	7.62	20.92	-85.2	-88.6	3.0	1.55e+00	0	47	104	0	60	1048574
2026-01-18 01:58:57.89	6.78	21.24	-85.2	-88.6	3.1	1.55e+00	0	47	104	0	60	1048574
2026-01-18 01:59:01.91	5.93	21.57	-85.2	-88.6	3.0	1.55e+00	0	47	104	0	60	1048575
2026-01-18 01:59:05.93	5.05	21.88	-85.2	-88.6	2.9	1.55e+00	0	47	104	0	60	1048574
2026-01-18 01:59:09.96	4.16	22.20	-85.2	-88.6	2.9	1.56e+00	0	47	104	0	60	1048575
2026-01-18 01:59:13.98	3.25	22.51	-85.2	-88.6	3.2	1.56e+00	0	47	104	0	60	1048574
2026-01-18 01:59:18.00	2.32	22.82	-85.2	-88.6	2.7	1.56e+00	0	47	104	0	60	1048575
2026-01-18 01:59:22.02	1.38	23.12	-85.2	-88.6	2.8	1.56e+00	0	47	104	0	60	1048575
2026-01-18 01:59:26.05	0.41	23.42	-85.2	-88.6	3.0	1.55e+00	0	47	104	0	60	1048575
2026-01-18 01:59:30.06	359.43	23.71	-85.2	-88.6	3.0	1.56e+00	0	47	104	0	60	1048573
2026-01-18 01:59:34.09	358.43	24.00	-85.2	-88.6	3.0	1.56e+00	0	47	104	0	60	1048575
2026-01-18 01:59:38.11	357.41	24.28	-85.2	-88.6	2.7	1.55e+00	0	47	104	0	60	1048575
2026-01-18 01:59:42.14	356.36	24.55	-85.2	-88.6	3.2	1.56e+00	0	47	104	0	60	1048575
2026-01-18 01:59:46.16	355.31	24.81	-85.2	-88.6	3.0	1.56e+00	0	47	104	0	60	1048574
2026-01-18 01:59:50.18	354.23	25.07	-85.2	-88.6	2.9	1.55e+00	0	47	104	0	60	1048574
2026-01-18 01:59:54.20	353.14	25.31	-85.2	-88.6	3.2	1.55e+00	0	47	104	0	60	1048574
2026-01-18 01:59:58.23	352.03	25.55	-85.2	-88.6	2.9	1.56e+00	0	47	104	0	60	1048574
2026-01-18 02:00:02.25	350.91	25.78	-85.2	-88.6	3.0	1.56e+00	0	47	104	0	60	1048575
2026-01-18 02:00:06.27	349.76	26.00	-85.2	-88.6	2.9	1.56e+00	0	47	104	0	60	1048575
2026-01-18 02:00:10.29	348.61	26.20	-85.2	-88.6	3.2	1.56e+00	0	47	104	0	60	1048575
2026-01-18 02:00:14.32	347.43	26.40	-85.2	-88.6	3.0	1.55e+00	0	47	104	0	60	1048575
2026-01-18 02:00:18.35	346.24	26.58	-85.2	-88.6	2.9	1.56e+00	0	47	104	0	60	1048575
2026-01-18 02:00:22.37	345.04	26.75	-85.2	-88.6	2.8	1.56e+00	0	47	104	0	60	1048571
2026-01-18 02:00:26.40	343.83	26.91	-85.2	-88.6	2.9	1.55e+00	0	47	104	0	60	1048571
2026-01-18 02:00:30.42	342.61	27.05	-85.2	-88.6	2.8	1.56e+00	0	47	104	0	60	1048575
2026-01-18 02:00:34.45	341.37	27.18	-85.2	-88.6	3.1	1.55e+00	0	47	104	0	60	1048574
2026-01-18 02:00:38.47	340.12	27.30	-85.2	-88.6	2.8	1.56e+00	0	47	104	0	60	1048574
2026-01-18 02:00:42.50	338.87	27.40	-85.2	-88.6	3.0	1.55e+00	0	47	104	0	60	1048574
2026-01-18 02:00:46.52	337.61	27.48	-84.7	-88.6	3.0	1.55e+00	0	47	104	0	60	1048575
2026-01-18 02:00:50.55	336.34	27.55	-85.2	-88.6	2.9	1.56e+00	0	47	104	0	60	1048575
2026-01-18 02:00:54.58	335.07	27.61	-85.2	-88.6	3.1	1.56e+00	0	47	104	0	60	1048573
2026-01-18 02:00:58.61	333.79	27.65	-85.2	-88.6	3.0	1.56e+00	0	47	104	0	60	1048575
2026-01-18 02:01:02.63	332.51	27.67	-85.2	-88.6	2.8	1.56e+00	0	47	104	0	60	1048575
2026-01-18 02:01:06.66	331.23	27.68	-85.2	-88.6	3.1	1.56e+00	0	47	104	0	60	1048575
2026-01-18 02:01:10.68	329.95	27.67	-83.5	-88.6	3.0	1.55e+00	0	47	104	0	60	1048574
2026-01-18 02:01:14.70	328.67	27.64	-85.2	-88.6	3.0	1.56e+00	0	47	104	0	60	1048575
2026-01-18 02:01:18.72	327.40	27.60	-85.2	-88.6	3.1	1.55e+00	0	47	104	0	60	1048575
2026-01-18 02:01:22.76	326.12	27.55	-85.2	-88.6	3.1	1.56e+00	0	47	104	0	60	1048575
2026-01-18 02:01:26.78	324.86	27.48	-85.2	-88.6	2.9	1.56e+00	0	47	104	0	60	1048574
2026-01-18 02:01:30.81	323.59	27.39	-85.2	-88.6	2.8	1.56e+00	0	47	104	0	60	1048574
2026-01-18 02:01:34.82	322.34	27.29	-85.2	-88.6	2.7	1.56e+00	0	47	104	0	60	1048575
2026-01-18 02:01:38.85	321.10	27.17	-85.2	-88.6	3.1	1.56e+00	0	47	104	0	60	1048574
2026-01-18 02:01:42.88	319.86	27.04	-85.2	-88.6	3.0	1.56e+00	0	47	104	0	60	1048571
2026-01-18 02:01:46.90	318.64	26.90	-85.2	-88.6	2.8	1.56e+00	0	47	104	0	60	1048574
2026-01-18 02:01:50.93	317.42	26.74	-85.2	-88.6	3.0	1.55e+00	0	47	104	0	60	1048575
2026-01-18 02:01:54.95	316.22	26.57	-85.2	-88.6	3.1	1.56e+00	0	47	104	0	60	1048575
2026-01-18 02:01:58.99	315.03	26.38	-85.2	-88.6	3.0	1.55e+00	0	47	104	0	60	1048574
2026-01-18 02:02:03.00	313.86	26.19	-85.2	-88.6	3.1	1.55e+00	0	47	104	0	60	1048575
2026-01-18 02:02:07.04	312.70	25.98	-85.2	-88.6	2.9	1.56e+00	0	47	104	0	60	1048575
2026-01-18 02:02:11.07	311.56	25.76	-85.2	-88.6	3.1	1.55e+00	0	47	104	0	60	1048575
2026-01-18 02:02:15.09	310.43	25.53	-83.5	-88.6	3.0	1.56e+00	0	47	104	0	60	1048575
2026-01-18 02:02:19.12	309.32	25.29	-85.2	-88.6	3.2	1.55e+00	0	47	104	0	60	1048575
2026-01-18 02:02:23.14	308.23	25.05	-85.2	-88.6	2.9	1.56e+00	0	47	104	0	60	1048575
2026-01-18 02:02:27.17	307.15	24.79	-85.2	-88.6	3.0	1.56e+00	0	47	104	0	60	1048574
2026-01-18 02:02:31.19	306.09	24.52	-85.2	-88.6	2.9	1.55e+00	0	47	104	0	60	1048575
2026-01-18 02:02:35.22	305.05	24.25	-85.2	-88.6	3.1	1.56e+00	0	47	104	0	60	1048575
2026-01-18 02:02:39.24	304.03	23.97	-85.2	-88.6	3.1	1.56e+00	0	47	104	0	60	1048573
2026-01-18 02:02:43.27	303.03	23.68	-85.2	-88.6	3.1	1.56e+00	0	47	104	0	60	1048573
2026-01-18 02:02:47.30	302.04	23.39	-85.2	-88.6	3.0	1.55e+00	0	47	104	0	60	1048572
2026-01-18 02:02:51.32	301.08	23.09	-85.2	-88.6	2.8	1.56e+00	0	47	104	0	60	1048571
2026-01-18 02:02:55.34	300.13	22.79	-85.2	-88.6	3.0	1.56e+00	0	47	104	0	60	1048574
2026-01-18 02:02:59.36	299.21	22.48	-85.2	-88.6	3.1	1.56e+00	0	47	104	0	60	1048575
2026-01-18 02:03:03.39	298.29	22.17	-85.2	-88.6	3.0	1.56e+00	0	47	104	0	60	1048575
2026-01-18 02:03:07.41	297.40	21.85	-85.2	-88.6	2.9	1.55e+00	0	47	104	0	60	1048575
2026-01-18 02:03:11.43	296.53	21.53	-85.2	-88.6	2.7	1.55e+00	0	47	104	0	60	1048573
2026-01-18 02:03:15.46	295.67	21.21	-85.2	-88.6	2.9	1.56e+00	0	47	104	0	60	1048571
2026-01-18 02:03:19.50	294.83	20.88	-85.2	-88.6	2.9	1.55e+00	0	47	104	0	60	1048575
2026-01-18 02:03:23.53	294.01	20.56	-85.2	-88.6	3.0	1.56e+00	0	47	104	0	60	1048573
2026-01-18 02:03:27.54	293.21	20.23	-85.2	-88.6	3.0	1.55e+00	0	47	104	0	60	1048572
2026-01-18 02:03:31.56	292.43	19.90	-85.2	-88.6	3.0	1.56e+00	0	47	104	0	60	1048574
2026-01-18 02:03:35.58	291.66	19.57	-85.2	-88.6	2.9	1.56e+00	0	47	104	0	60	1048575
2026-01-18 02:03:39.61	290.91	19.23	-85.2	-88.6	2.9	1.56e+00	0	47	104	0	60	1048573
2026-01-18 02:03:43.64	290.18	18.90	-85.2	-88.6	3.0	1.56e+00	0	47	104	0	60	1048575
2026-01-18 02:03:47.66	289.46	18.57	-85.2	-88.6	3.1	1.55e+00	0	47	104	0	60	1048573
2026-01-18 02:03:51.70	288.75	18.23	-85.2	-88.6	3.1	1.56e+00	0	47	104	0	60	1048575
2026-01-18 02:03:55.73	288.06	17.90	-85.2	-88.6	3.0	1.56e+00	0	47	104	0	60	1048575
2026-01-18 02:03:59.74	287.39	17.57	-85.2	-88.6	3.0	1.56e+00	0	47	104	0	60	1048575
2026-01-18 02:04:03.76	286.74	17.24	-85.2	-88.6	3.0	1.56e+00	0	47	104	0	60	1048575
2026-01-18 02:04:07.80	286.09	16.90	-85.2	-88.6	2.7	1.56e+00	0	47	104	0	60	1048573
2026-01-18 02:04:11.82	285.46	16.57	-85.2	-88.6	2.9	1.56e+00	0	47	104	0	60	1048575
2026-01-18 02:04:15.85	284.85	16.24	-85.2	-88.6	3.0	1.55e+00	0	47	104	0	60	1048573
2026-01-18 02:04:19.88	284.25	15.91	-85.2	-88.6	2.9	1.56e+00	0	47	104	0	60	1048575
2026-01-18 02:04:23.90	283.66	15.58	-85.2	-88.6	3.0	1.56e+00	0	47	104	0	60	1048571
2026-01-18 02:04:27.93	283.08	15.26	-85.2	-88.6	3.0	1.55e+00	0	47	104	0	60	1048575
2026-01-18 02:04:31.95	282.52	14.93	-85.2	-88.6	3.0	1.56e+00	0	47	104	0	60	1048575
2026-01-18 02:04:35.97	281.97	14.61	-84.7	-88.6	2.9	1.56e+00	0	47	104	0	60	1048575
2026-01-18 02:04:40.00	281.43	14.29	-85.2	-88.6	3.1	1.56e+00	0	47	104	0	60	1048574
2026-01-18 02:04:44.04	280.91	13.97	-85.2	-88.6	2.9	1.56e+00	0	47	104	0	60	1048569
2026-01-18 02:04:48.06	280.39	13.65	-85.2	-88.6	3.0	1.56e+00	0	47	104	0	60	1048574
2026-01-18 02:04:52.09	279.89	13.33	-85.2	-88.6	2.8	1.56e+00	0	47	104	0	60	1048571
2026-01-18 02:04:56.12	279.39	13.02	-85.2	-88.6	2.9	1.55e+00	0	47	104	0	60	1048575
2026-01-18 02:05:00.14	278.91	12.70	-85.2	-88.6	2.9	1.56e+00	0	47	104	0	60	1048575
2026-01-18 02:05:04.16	278.44	12.39	-85.2	-88.6	3.0	1.56e+00	0	47	104	0	60	1048574
2026-01-18 02:05:08.19	277.98	12.09	-85.2	-88.6	2.8	1.56e+00	0	47	104	0	60	1048570
2026-01-18 02:05:12.22	277.53	11.78	-84.7	-88.6	3.0	1.55e+00	0	47	104	0	60	1048575
2026-01-18 02:05:16.25	277.08	11.47	-85.2	-88.6	3.2	1.55e+00	0	47	104	0	60	1048575
2026-01-18 02:05:20.27	276.65	11.17	-85.2	-88.6	2.9	1.56e+00	0	47	104	0	60	1048575
2026-01-18 02:05:24.29	276.23	10.87	-85.2	-88.6	3.2	1.55e+00	0	47	104	0	60	1048575
2026-01-18 02:05:28.31	275.81	10.57	-85.2	-88.6	3.0	1.56e+00	0	47	104	0	60	1048575
2026-01-18 02:05:32.34	275.40	10.28	-84.7	-88.6	3.0	1.56e+00	0	47	104	0	60	1048571
2026-01-18 02:05:36.36	275.01	9.99	-85.2	-88.6	3.2	1.56e+00	0	47	104	0	60	1048575
2026-01-18 02:05:40.39	274.62	9.69	-85.2	-88.6	3.1	1.56e+00	0	47	104	0	60	1048574
2026-01-18 02:05:44.42	274.23	9.40	-85.2	-88.6	3.1	1.56e+00	0	47	104	0	60	1048574
2026-01-18 02:05:48.44	273.86	9.12	-85.2	-88.6	3.0	1.55e+00	0	47	104	0	60	1048574
2026-01-18 02:05:52.48	273.49	8.83	-85.2	-88.6	3.1	1.56e+00	0	47	104	0	60	1048573
2026-01-18 02:05:56.50	273.13	8.55	-85.2	-88.6	2.8	1.56e+00	0	47	104	0	60	1048575
2026-01-18 02:06:00.53	272.78	8.27	-85.2	-88.6	3.0	1.56e+00	0	47	104	0	60	1048575
2026-01-18 02:06:04.55	272.43	7.99	-85.2	-88.6	2.9	1.56e+00	0	47	104	0	60	1048575
2026-01-18 02:06:08.58	272.09	7.71	-85.2	-88.6	3.0	1.56e+00	0	47	104	0	60	1048575
2026-01-18 02:06:12.60	271.76	7.43	-85.2	-88.6	3.0	1.55e+00	0	47	104	0	60	1048574
2026-01-18 02:06:16.62	271.44	7.16	-85.2	-88.6	3.0	1.56e+00	0	47	104	0	60	1048575
2026-01-18 02:06:20.65	271.12	6.89	-85.2	-88.6	2.9	1.55e+00	0	47	104	0	60	1048575
2026-01-18 02:06:24.68	270.80	6.62	-85.2	-88.6	3.0	1.56e+00	0	47	104	0	60	1048574
2026-01-18 02:06:28.69	270.49	6.36	-85.2	-88.6	3.0	1.55e+00	0	47	104	0	60	1048574
2026-01-18 02:06:32.72	270.19	6.09	-85.2	-88.6	3.0	1.56e+00	0	47	104	0	60	1048574
2026-01-18 02:06:36.74	269.90	5.83	-85.2	-88.6	3.2	1.56e+00	0	47	104	0	60	1048575
2026-01-18 02:06:40.77	269.61	5.57	-84.7	-88.6	3.0	1.55e+00	0	47	104	0	60	1048574
2026-01-18 02:06:44.80	269.32	5.31	-85.2	-88.6	3.1	1.55e+00	0	47	104	0	60	1048575
2026-01-18 02:06:48.82	269.04	5.05	-85.2	-88.6	2.9	1.56e+00	0	47	104	0	60	1048575
2026-01-18 02:06:52.85	268.76	4.79	-85.2	-88.6	2.7	1.55e+00	0	47	104	0	60	1048574
2026-01-18 02:06:56.89	268.49	4.54	-85.2	-88.6	3.0	1.55e+00	0	47	104	0	60	1048575
2026-01-18 02:07:00.91	268.23	4.29	-85.2	-88.6	3.1	1.56e+00	0	47	104	0	60	1048575
2026-01-18 02:07:04.93	267.97	4.04	-85.2	-88.6	3.0	1.56e+00	0	47	104	0	60	1048571
2026-01-18 02:07:08.97	267.71	3.79	-85.2	-88.6	3.1	1.55e+00	0	47	104	0	60	1048575
2026-01-18 02:07:13.00	267.46	3.54	-85.2	-88.6	3.0	1.56e+00	0	47	104	0	60	1048572
2026-01-18 02:07:17.02	267.21	3.29	-85.2	-88.6	3.1	1.56e+00	0	47	104	0	60	1048574
2026-01-18 02:07:21.04	266.97	3.05	-85.2	-88.6	3.0	1.56e+00	0	47	104	0	60	1048573
2026-01-18 02:07:25.08	266.73	2.81	-85.2	-88.6	2.9	1.56e+00	0	47	104	0	60	1048575
2026-01-18 02:07:29.10	266.50	2.57	-85.2	-88.6	3.2	1.56e+00	0	47	104	0	60	1048574
2026-01-18 02:07:33.12	266.27	2.33	-85.2	-88.6	3.1	1.56e+00	0	47	104	0	60	1048574
2026-01-18 02:07:37.15	266.04	2.09	-85.2	-88.6	3.2	1.55e+00	0	47	104	0	60	1048574
2026-01-18 02:07:41.18	265.82	1.86	-85.2	-88.6	3.0	1.55e+00	0	47	104	0	60	1048575
2026-01-18 02:07:45.21	265.60	1.62	-85.2	-88.6	2.9	1.56e+00	0	47	104	0	60	1048575
2026-01-18 02:07:49.24	265.38	1.39	-85.2	-88.6	3.0	1.55e+00	0	47	104	0	60	1048575
2026-01-18 02:07:53.27	265.17	1.16	-85.2	-88.6	2.9	1.56e+00	0	47	104	0	60	1048575
2026-01-18 02:07:57.29	264.96	0.93	-85.2	-88.6	2.9	1.56e+00	0	47	104	0	60	1048570
2026-01-18 02:08:01.32	264.76	0.70	-85.2	-88.6	2.8	1.56e+00	0	47	104	0	60	1048573
2026-01-18 02:08:05.34	264.56	0.47	-85.2	-88.6	2.9	1.56e+00	0	47	104	0	60	1048574
2026-01-18 02:08:09.36	264.36	0.25	-85.2	-88.6	3.0	1.56e+00	0	47	104	0	60	1048574
2026-01-18 02:08:13.39	264.16	0.02	-85.2	-88.6	3.0	1.55e+00	0	47	104	0	60	1048575

#Closed at: 2026-01-18 02:08:14
#Recorded file [0 MB]: D:/Data/35015_260118_045359.dat