passes_logs/2026/01/18/R3.2S-Naryan-Mar/R3.2S-Naryan-Mar__20260118_154340_TY-39_rec.log

#Pass ID: 20260118_154340_TY-39
#Satellite: TY-39
#Configuration: TY-39
#almurnet v.1.7.20240730
#Start time: 2026-01-18 15:50:21

#Version: 2.2.20231116
#Station: R3.2S-Naryan-Mar
#Location: 53.008057 lon 67.646978 lat
#TLE: 1 51832U 22019J   26017.98752730  .00001701  00000-0  82876-4 0  9994
#TLE: 2 51832  97.3649  84.6051 0009812  43.2542 316.9462 15.19645685214988

#Time	Az	El	Level	Level2	SNR	BER	BlckErr	Temp	State	Recorded	gain1	gain2
2026-01-18 15:50:21.60	16.19	26.12	-83.5	-79.0	2.4	0.00e+00	0	49	0	0	60	1048573
2026-01-18 15:50:23.61	15.42	25.84	-83.1	-79.0	2.4	0.00e+00	0	49	104	0	60	1048564
2026-01-18 15:50:25.62	14.66	25.55	-82.8	-79.0	2.5	0.00e+00	0	49	104	0	60	1048573
2026-01-18 15:50:27.63	13.92	25.27	-83.5	-79.0	2.3	0.00e+00	0	49	104	0	60	1048575
2026-01-18 15:50:29.65	13.20	24.98	-83.5	-79.0	2.4	0.00e+00	0	49	104	0	60	1048574
2026-01-18 15:50:31.66	12.49	24.70	-83.5	-79.0	2.4	0.00e+00	0	49	104	0	60	1048573
2026-01-18 15:50:33.68	11.79	24.41	-83.5	-79.0	2.4	0.00e+00	0	49	104	0	60	1048575
2026-01-18 15:50:35.69	11.11	24.13	-82.8	-79.0	2.4	0.00e+00	0	49	104	0	60	1048567
2026-01-18 15:50:37.69	10.44	23.84	-83.5	-79.0	2.2	0.00e+00	0	49	104	0	60	1048572
2026-01-18 15:50:39.71	9.79	23.55	-83.1	-79.0	2.4	0.00e+00	0	49	104	0	60	1048563
2026-01-18 15:50:41.72	9.15	23.27	-83.5	-79.0	2.4	0.00e+00	0	49	104	0	60	1048566
2026-01-18 15:50:43.74	8.52	22.98	-83.5	-79.0	2.4	0.00e+00	0	49	104	0	60	1048567
2026-01-18 15:50:45.76	7.90	22.70	-83.5	-79.0	2.4	0.00e+00	0	49	104	0	60	1048572
2026-01-18 15:50:47.77	7.30	22.41	-83.1	-79.0	2.5	0.00e+00	0	49	104	0	60	1048573
2026-01-18 15:50:49.79	6.71	22.13	-83.1	-79.0	2.4	0.00e+00	0	49	104	0	60	1048568
2026-01-18 15:50:51.79	6.13	21.85	-83.5	-79.0	2.4	0.00e+00	0	49	104	0	60	1048574
2026-01-18 15:50:53.80	5.57	21.57	-83.1	-79.0	2.5	0.00e+00	0	49	104	0	60	1048575
2026-01-18 15:50:55.82	5.01	21.29	-83.5	-79.0	2.4	0.00e+00	0	49	104	0	60	1048569
2026-01-18 15:50:57.84	4.47	21.01	-83.5	-79.0	2.4	0.00e+00	0	49	104	0	60	1048574
2026-01-18 15:50:59.85	3.93	20.73	-83.1	-79.0	2.4	0.00e+00	0	49	104	0	60	1048573
2026-01-18 15:51:01.87	3.41	20.45	-83.5	-79.0	2.3	0.00e+00	0	49	104	0	60	1048573
2026-01-18 15:51:03.88	2.90	20.18	-83.1	-79.0	2.5	0.00e+00	0	49	104	0	60	1048573
2026-01-18 15:51:05.89	2.40	19.91	-83.5	-79.0	2.4	0.00e+00	0	49	104	0	60	1048574
2026-01-18 15:51:07.90	1.91	19.64	-83.5	-79.0	2.5	0.00e+00	0	49	104	0	60	1048575
2026-01-18 15:51:09.91	1.44	19.37	-83.5	-79.0	2.3	0.00e+00	0	49	104	0	60	1048574
2026-01-18 15:51:11.92	0.97	19.10	-83.5	-79.0	2.4	0.00e+00	0	49	104	0	60	1048575
2026-01-18 15:51:13.94	0.50	18.84	-82.8	-79.0	2.4	0.00e+00	0	49	104	0	60	1048570
2026-01-18 15:51:15.95	0.05	18.58	-83.5	-79.0	2.4	0.00e+00	0	49	104	0	60	1048560
2026-01-18 15:51:17.97	359.61	18.31	-83.5	-79.0	2.4	0.00e+00	0	49	104	0	60	1048572
2026-01-18 15:51:19.98	359.18	18.05	-83.5	-79.0	2.3	0.00e+00	0	49	104	0	60	1048571
2026-01-18 15:51:21.99	358.75	17.80	-83.5	-79.0	2.3	0.00e+00	0	49	104	0	60	1048575
2026-01-18 15:51:24.01	358.34	17.54	-83.5	-79.0	2.5	0.00e+00	0	49	104	0	60	1048573
2026-01-18 15:51:26.01	357.93	17.29	-83.5	-79.0	2.3	0.00e+00	0	49	104	0	60	1048574
2026-01-18 15:51:28.02	357.53	17.04	-82.8	-79.0	2.4	0.00e+00	0	49	104	0	60	1048575
2026-01-18 15:51:30.04	357.14	16.79	-83.5	-79.0	2.4	0.00e+00	0	49	104	0	60	1048571
2026-01-18 15:51:32.05	356.75	16.54	-83.1	-79.0	2.3	0.00e+00	0	49	104	0	60	1048572
2026-01-18 15:51:34.06	356.38	16.30	-83.5	-79.0	2.3	0.00e+00	0	49	104	0	60	1048575
2026-01-18 15:51:36.07	356.01	16.05	-83.5	-79.0	2.3	0.00e+00	0	49	104	0	60	1048574
2026-01-18 15:51:38.08	355.64	15.81	-83.5	-79.0	2.4	0.00e+00	0	49	104	0	60	1048575
2026-01-18 15:51:40.10	355.29	15.57	-83.5	-79.0	2.3	0.00e+00	0	49	104	0	60	1048573
2026-01-18 15:51:42.11	354.94	15.34	-82.8	-79.0	2.5	0.00e+00	0	49	104	0	60	1048573
2026-01-18 15:51:44.12	354.60	15.10	-83.5	-79.0	2.4	0.00e+00	0	49	104	0	60	1048575
2026-01-18 15:51:46.14	354.26	14.87	-83.1	-79.0	2.4	0.00e+00	0	49	104	0	60	1048574
2026-01-18 15:51:48.15	353.93	14.64	-83.5	-79.0	2.4	0.00e+00	0	49	104	0	60	1048575
2026-01-18 15:51:50.16	353.61	14.41	-83.5	-79.0	2.5	0.00e+00	0	49	104	0	60	1048572
2026-01-18 15:51:52.18	353.29	14.18	-83.1	-79.0	2.5	0.00e+00	0	49	104	0	60	1048575
2026-01-18 15:51:54.19	352.98	13.96	-83.1	-79.0	2.2	0.00e+00	0	49	104	0	60	1048573
2026-01-18 15:51:56.20	352.67	13.74	-82.8	-79.0	2.4	0.00e+00	0	49	104	0	60	1048574
2026-01-18 15:51:58.21	352.37	13.52	-83.5	-79.0	2.4	0.00e+00	0	49	104	0	60	1048575
2026-01-18 15:52:00.22	352.07	13.30	-83.5	-79.0	2.4	0.00e+00	0	49	104	0	60	1048572
2026-01-18 15:52:02.24	351.78	13.08	-83.5	-79.0	2.4	0.00e+00	0	49	104	0	60	1048575
2026-01-18 15:52:04.25	351.50	12.86	-83.1	-79.0	2.4	0.00e+00	0	49	104	0	60	1048575
2026-01-18 15:52:06.27	351.22	12.65	-83.1	-79.0	2.3	0.00e+00	0	49	104	0	60	1048574
2026-01-18 15:52:08.29	350.94	12.44	-83.5	-79.0	2.4	0.00e+00	0	49	104	0	60	1048558
2026-01-18 15:52:10.30	350.67	12.23	-83.1	-79.0	2.4	0.00e+00	0	49	104	0	60	1048574
2026-01-18 15:52:12.31	350.41	12.02	-83.5	-79.0	2.4	0.00e+00	0	49	104	0	60	1048568
2026-01-18 15:52:14.31	350.15	11.82	-83.5	-79.0	2.5	0.00e+00	0	49	104	0	60	1048572
2026-01-18 15:52:16.32	349.89	11.61	-83.5	-79.0	2.4	0.00e+00	0	49	104	0	60	1048573
2026-01-18 15:52:18.34	349.64	11.41	-83.5	-79.0	2.5	0.00e+00	0	49	104	0	60	1048574
2026-01-18 15:52:20.35	349.39	11.21	-82.8	-79.0	2.5	0.00e+00	0	49	104	0	60	1048575
2026-01-18 15:52:22.37	349.15	11.01	-83.5	-79.0	2.3	0.00e+00	0	49	104	0	60	1048572
2026-01-18 15:52:24.39	348.91	10.81	-83.1	-79.0	2.4	0.00e+00	0	49	104	0	60	1048575
2026-01-18 15:52:26.40	348.68	10.61	-83.5	-79.0	2.3	0.00e+00	0	49	104	0	60	1048570
2026-01-18 15:52:28.42	348.44	10.42	-83.5	-79.0	2.4	0.00e+00	0	49	104	0	60	1048572
2026-01-18 15:52:30.43	348.22	10.23	-83.1	-79.0	2.4	0.00e+00	0	49	104	0	60	1048574
2026-01-18 15:52:32.43	347.99	10.04	-83.1	-79.0	2.4	0.00e+00	0	49	104	0	60	1048567
2026-01-18 15:52:34.44	347.77	9.85	-83.1	-79.0	2.5	0.00e+00	0	49	104	0	60	1048575
2026-01-18 15:52:36.46	347.56	9.66	-83.5	-79.0	2.4	0.00e+00	0	49	104	0	60	1048574
2026-01-18 15:52:38.47	347.35	9.48	-83.5	-79.0	2.3	0.00e+00	0	49	104	0	60	1048574
2026-01-18 15:52:40.48	347.14	9.29	-83.5	-79.0	2.3	0.00e+00	0	49	104	0	60	1048572
2026-01-18 15:52:42.50	346.93	9.11	-83.5	-79.0	2.5	0.00e+00	0	49	104	0	60	1048575
2026-01-18 15:52:44.51	346.73	8.93	-83.1	-79.0	2.4	0.00e+00	0	49	104	0	60	1048574
2026-01-18 15:52:46.53	346.53	8.74	-83.5	-79.0	2.4	0.00e+00	0	49	104	0	60	1048573
2026-01-18 15:52:48.55	346.33	8.57	-83.1	-79.0	2.5	0.00e+00	0	49	104	0	60	1048575
2026-01-18 15:52:50.56	346.14	8.39	-83.5	-79.0	2.5	0.00e+00	0	49	104	0	60	1048568
2026-01-18 15:52:52.57	345.95	8.21	-83.1	-79.0	2.5	0.00e+00	0	49	104	0	60	1048575
2026-01-18 15:52:54.58	345.76	8.04	-83.5	-79.0	2.5	0.00e+00	0	49	104	0	60	1048555
2026-01-18 15:52:56.59	345.57	7.87	-83.5	-79.0	2.3	0.00e+00	0	49	104	0	60	1048574
2026-01-18 15:52:58.60	345.39	7.69	-83.1	-79.0	2.4	0.00e+00	0	49	104	0	60	1048575
2026-01-18 15:53:00.58	345.22	7.53	-83.1	-79.0	2.4	0.00e+00	0	49	104	0	60	1048573
2026-01-18 15:53:02.58	345.04	7.36	-83.1	-79.0	2.3	0.00e+00	0	49	104	0	60	1048575
2026-01-18 15:53:04.59	344.87	7.19	-83.5	-79.0	2.3	0.00e+00	0	49	104	0	60	1048573
2026-01-18 15:53:06.60	344.70	7.02	-83.5	-79.0	2.4	0.00e+00	0	49	104	0	60	1048575
2026-01-18 15:53:08.62	344.53	6.86	-83.1	-79.0	2.4	0.00e+00	0	49	104	0	60	1048574
2026-01-18 15:53:10.63	344.36	6.69	-83.5	-79.0	2.5	0.00e+00	0	49	104	0	60	1048571
2026-01-18 15:53:12.64	344.20	6.53	-83.1	-79.0	2.5	0.00e+00	0	49	104	0	60	1048572
2026-01-18 15:53:14.66	344.04	6.37	-83.5	-79.0	2.4	0.00e+00	0	49	104	0	60	1048574
2026-01-18 15:53:16.68	343.88	6.21	-83.1	-79.0	2.4	0.00e+00	0	49	104	0	60	1048575
2026-01-18 15:53:18.68	343.72	6.05	-83.5	-79.0	2.3	0.00e+00	0	49	104	0	60	1048570
2026-01-18 15:53:20.69	343.57	5.89	-83.5	-79.0	2.4	0.00e+00	0	49	104	0	60	1048567
2026-01-18 15:53:22.70	343.42	5.73	-83.1	-79.0	2.4	0.00e+00	0	49	104	0	60	1048575
2026-01-18 15:53:24.72	343.27	5.57	-83.5	-79.0	2.4	0.00e+00	0	49	104	0	60	1048570
2026-01-18 15:53:26.73	343.12	5.42	-83.1	-79.0	2.3	0.00e+00	0	49	104	0	60	1048574
2026-01-18 15:53:28.74	342.97	5.26	-83.5	-79.0	2.4	0.00e+00	0	49	104	0	60	1048568
2026-01-18 15:53:30.75	342.83	5.11	-83.5	-79.0	2.4	0.00e+00	0	49	104	0	60	1048575
2026-01-18 15:53:32.76	342.69	4.96	-83.5	-79.0	2.5	0.00e+00	0	49	104	0	60	1048568
2026-01-18 15:53:34.77	342.55	4.81	-83.5	-79.0	2.4	0.00e+00	0	49	104	0	60	1048574
2026-01-18 15:53:36.79	342.41	4.66	-83.5	-79.0	2.4	0.00e+00	0	49	104	0	60	1048575
2026-01-18 15:53:38.80	342.27	4.51	-83.5	-79.0	2.4	0.00e+00	0	49	104	0	60	1048564
2026-01-18 15:53:40.82	342.14	4.36	-82.8	-79.0	2.3	0.00e+00	0	49	104	0	60	1048575
2026-01-18 15:53:42.84	342.01	4.21	-83.5	-79.0	2.4	0.00e+00	0	49	104	0	60	1048575
2026-01-18 15:53:44.85	341.88	4.07	-83.5	-79.0	2.4	0.00e+00	0	49	104	0	60	1048575
2026-01-18 15:53:46.87	341.75	3.92	-83.5	-79.0	2.4	0.00e+00	0	49	104	0	60	1048573
2026-01-18 15:53:48.88	341.62	3.78	-83.5	-79.0	2.7	0.00e+00	0	49	104	0	60	1048574
2026-01-18 15:53:50.90	341.49	3.63	-82.8	-79.0	2.4	0.00e+00	0	49	104	0	60	1048573
2026-01-18 15:53:52.91	341.37	3.49	-83.5	-79.0	2.5	0.00e+00	0	49	104	0	60	1048573
2026-01-18 15:53:54.93	341.25	3.35	-83.1	-79.0	2.4	0.00e+00	0	49	104	0	60	1048575
2026-01-18 15:53:56.95	341.13	3.20	-83.5	-79.0	2.4	0.00e+00	0	49	104	0	60	1048575
2026-01-18 15:53:58.96	341.01	3.06	-83.5	-79.0	2.5	0.00e+00	0	49	104	0	60	1048575
2026-01-18 15:54:00.98	340.89	2.92	-83.1	-79.0	2.3	0.00e+00	0	49	104	0	60	1048575
2026-01-18 15:54:03.00	340.77	2.79	-83.5	-79.0	2.3	0.00e+00	0	49	104	0	60	1048575
2026-01-18 15:54:05.01	340.66	2.65	-83.1	-79.0	2.4	0.00e+00	0	49	104	0	60	1048572
2026-01-18 15:54:07.02	340.55	2.51	-83.5	-79.0	2.4	0.00e+00	0	49	104	0	60	1048574
2026-01-18 15:54:09.03	340.43	2.37	-83.1	-79.0	2.3	0.00e+00	0	49	104	0	60	1048571
2026-01-18 15:54:11.04	340.32	2.24	-83.1	-79.0	2.4	0.00e+00	0	49	104	0	60	1048575
2026-01-18 15:54:13.06	340.21	2.10	-83.5	-79.0	2.4	0.00e+00	0	49	104	0	60	1048567
2026-01-18 15:54:15.07	340.11	1.97	-83.5	-79.0	2.4	0.00e+00	0	49	104	0	60	1048574
2026-01-18 15:54:17.08	340.00	1.84	-83.5	-79.0	2.4	0.00e+00	0	49	104	0	60	1048575
2026-01-18 15:54:19.10	339.90	1.70	-83.1	-79.0	2.4	0.00e+00	0	49	104	0	60	1048575
2026-01-18 15:54:21.12	339.79	1.57	-83.5	-79.0	2.4	0.00e+00	0	49	104	0	60	1048572
2026-01-18 15:54:23.13	339.69	1.44	-83.1	-79.0	2.3	0.00e+00	0	49	104	0	60	1048575
2026-01-18 15:54:25.14	339.59	1.31	-83.5	-79.0	2.4	0.00e+00	0	49	104	0	60	1048574
2026-01-18 15:54:27.16	339.49	1.18	-83.1	-79.0	2.4	0.00e+00	0	49	104	0	60	1048571
2026-01-18 15:54:29.17	339.39	1.05	-83.1	-79.0	2.3	0.00e+00	0	49	104	0	60	1048569
2026-01-18 15:54:31.19	339.29	0.92	-83.5	-79.0	2.4	0.00e+00	0	49	104	0	60	1048572
2026-01-18 15:54:33.20	339.20	0.80	-83.1	-79.0	2.5	0.00e+00	0	49	104	0	60	1048575
2026-01-18 15:54:35.22	339.10	0.67	-83.5	-79.0	2.4	0.00e+00	0	49	104	0	60	1048570
2026-01-18 15:54:37.23	339.01	0.54	-83.1	-79.0	2.4	0.00e+00	0	49	104	0	60	1048575
2026-01-18 15:54:39.25	338.91	0.42	-83.5	-79.0	2.5	0.00e+00	0	49	104	0	60	1048575
2026-01-18 15:54:41.26	338.82	0.29	-83.5	-79.0	2.4	0.00e+00	0	49	104	0	60	1048574
2026-01-18 15:54:43.28	338.73	0.17	-82.8	-79.0	2.5	0.00e+00	0	49	104	0	60	1048575
2026-01-18 15:54:45.29	338.64	0.04	-83.5	-79.0	2.4	0.00e+00	0	49	104	0	60	1048575

#Closed at: 2026-01-18 15:54:46
#Recorded file [0 MB]: D:/Data/35015_260118_185021.dat