passes_logs/2026/01/18/R3.2S-Naryan-Mar/R3.2S-Naryan-Mar__20260118_025245_FENGYUN_3D_rec.log

#Pass ID: 20260118_025245_FENGYUN 3D
#Satellite: FENGYUN 3D
#Configuration: FENGYUN 3D
#almurnet v.1.7.20240730
#Start time: 2026-01-18 02:52:46

#Version: 2.2.20231116
#Station: R3.2S-Naryan-Mar
#Location: 53.008057 lon 67.646978 lat
#TLE: 1 43010U 17072A   26017.25882587  .00000461  00000+0  23963-3 0  9992
#TLE: 2 43010  98.9934 349.1096 0002357 104.0487 256.0951 14.19697152423579

#Time	Az	El	Level	Level2	SNR	BER	BlckErr	Temp	State	Recorded	gain1	gain2
2026-01-18 02:52:46.39	31.29	0.05	-83.9	-88.8	2.5	3.10e+01	0	45	0	0	60	1048575
2026-01-18 02:52:50.41	31.17	0.28	-85.2	-88.6	5.9	2.78e-01	0	46	0	0	60	1048571
2026-01-18 02:52:54.44	31.04	0.52	-85.2	-88.6	5.7	2.83e-01	0	46	0	0	60	1048575
2026-01-18 02:52:58.46	30.91	0.75	-85.2	-88.6	5.7	2.77e-01	0	46	0	0	60	1048573
2026-01-18 02:53:02.48	30.79	0.99	-84.7	-88.6	5.8	2.79e-01	0	46	0	0	60	1048572
2026-01-18 02:53:06.49	30.66	1.23	-84.7	-88.6	5.6	2.78e-01	0	46	0	0	60	1048575
2026-01-18 02:53:10.51	30.52	1.48	-84.7	-88.6	6.1	2.76e-01	0	46	0	0	60	1048573
2026-01-18 02:53:14.54	30.38	1.72	-84.7	-88.6	6.1	2.73e-01	0	46	0	0	60	1048572
2026-01-18 02:53:18.56	30.25	1.97	-84.7	-88.6	6.2	2.78e-01	0	47	0	0	60	1048571
2026-01-18 02:53:22.58	30.10	2.22	-84.7	-88.6	5.9	2.79e-01	0	47	0	0	60	1048571
2026-01-18 02:53:26.60	29.96	2.47	-85.2	-88.6	6.0	2.76e-01	0	47	0	0	60	1048574
2026-01-18 02:53:30.62	29.81	2.72	-85.2	-88.6	5.6	2.77e-01	0	47	0	0	60	1048573
2026-01-18 02:53:34.65	29.66	2.98	-84.7	-88.6	5.8	2.75e-01	0	47	0	0	60	1048574
2026-01-18 02:53:38.67	29.51	3.24	-84.7	-88.6	6.0	2.75e-01	0	47	0	0	60	1048572
2026-01-18 02:53:42.69	29.36	3.50	-84.7	-88.6	6.6	2.85e-01	0	47	0	0	60	1048575
2026-01-18 02:53:46.72	29.20	3.76	-85.2	-88.6	6.3	2.78e-01	0	47	0	0	60	1048572
2026-01-18 02:53:50.73	29.03	4.02	-84.7	-88.6	5.8	2.74e-01	0	47	0	0	60	1048573
2026-01-18 02:53:54.76	28.87	4.29	-84.7	-88.6	5.8	2.77e-01	0	47	0	0	60	1048571
2026-01-18 02:53:58.78	28.70	4.56	-84.7	-88.6	6.2	2.79e-01	0	47	0	0	60	1048572
2026-01-18 02:54:02.80	28.53	4.83	-84.7	-88.6	6.2	2.77e-01	0	47	0	0	60	1048569
2026-01-18 02:54:06.84	28.35	5.10	-84.7	-88.6	5.4	2.75e-01	0	47	0	0	60	1048571
2026-01-18 02:54:10.87	28.17	5.38	-84.7	-88.6	6.1	2.76e-01	0	47	0	0	60	1048574
2026-01-18 02:54:14.90	27.99	5.66	-84.7	-88.6	6.1	2.80e-01	0	47	0	0	60	1048571
2026-01-18 02:54:18.93	27.80	5.94	-84.7	-88.6	5.7	2.77e-01	0	47	0	0	60	1048575
2026-01-18 02:54:22.95	27.61	6.23	-84.7	-88.6	5.6	2.74e-01	0	47	0	0	60	1048574
2026-01-18 02:54:26.98	27.42	6.51	-84.7	-88.6	6.0	2.80e-01	0	47	0	0	60	1048575
2026-01-18 02:54:31.00	27.22	6.80	-85.2	-88.6	3.0	7.65e-01	0	47	104	0	60	1048575
2026-01-18 02:54:35.03	27.01	7.10	-85.2	-88.6	3.2	7.63e-01	0	47	104	0	60	1048571
2026-01-18 02:54:39.06	26.80	7.39	-85.2	-88.6	3.7	7.64e-01	0	47	104	0	60	1048574
2026-01-18 02:54:43.09	26.59	7.69	-85.2	-88.6	3.6	7.62e-01	0	47	104	0	60	1048575
2026-01-18 02:54:47.13	26.37	8.00	-85.2	-88.6	2.9	7.64e-01	0	47	104	0	60	1048575
2026-01-18 02:54:51.16	26.15	8.30	-85.2	-88.6	3.2	7.63e-01	0	47	104	0	60	1048575
2026-01-18 02:54:55.17	25.92	8.61	-85.2	-88.6	3.0	7.60e-01	0	47	104	0	60	1048572
2026-01-18 02:54:59.20	25.69	8.92	-85.2	-88.6	2.9	7.62e-01	0	47	104	0	60	1048574
2026-01-18 02:55:03.23	25.45	9.24	-85.2	-88.6	3.3	7.62e-01	0	47	104	0	60	1048566
2026-01-18 02:55:07.25	25.21	9.56	-85.2	-88.6	3.3	7.63e-01	0	47	104	0	60	1048572
2026-01-18 02:55:11.28	24.96	9.88	-85.2	-88.6	3.3	7.63e-01	0	47	104	0	60	1048574
2026-01-18 02:55:15.31	24.70	10.21	-85.2	-88.6	3.6	7.64e-01	0	47	104	0	60	1048573
2026-01-18 02:55:19.33	24.44	10.54	-85.2	-88.6	3.2	7.64e-01	0	47	104	0	60	1048573
2026-01-18 02:55:23.36	24.17	10.88	-85.2	-88.6	3.7	7.62e-01	0	47	104	0	60	1048575
2026-01-18 02:55:27.38	23.90	11.21	-85.2	-88.6	3.1	7.63e-01	0	47	104	0	60	1048573
2026-01-18 02:55:31.42	23.61	11.56	-85.2	-88.6	3.2	7.64e-01	0	47	104	0	60	1048575
2026-01-18 02:55:35.45	23.32	11.90	-85.2	-88.6	3.0	7.64e-01	0	47	104	0	60	1048574
2026-01-18 02:55:39.47	23.03	12.25	-85.2	-88.6	3.3	7.64e-01	0	47	104	0	60	1048575
2026-01-18 02:55:43.49	22.73	12.61	-85.2	-88.6	2.9	7.64e-01	0	47	104	0	60	1048575
2026-01-18 02:55:47.52	22.41	12.97	-84.7	-88.6	3.3	7.63e-01	0	47	104	0	60	1048570
2026-01-18 02:55:51.54	22.09	13.33	-84.7	-88.6	2.6	7.63e-01	0	47	104	0	60	1048575
2026-01-18 02:55:55.57	21.77	13.70	-85.2	-88.6	3.3	7.64e-01	0	47	104	0	60	1048570
2026-01-18 02:55:59.60	21.43	14.07	-84.7	-88.6	3.5	7.64e-01	0	47	104	0	60	1048570
2026-01-18 02:56:03.63	21.08	14.45	-84.7	-88.6	3.0	7.63e-01	0	47	104	0	60	1048574
2026-01-18 02:56:07.66	20.73	14.83	-85.2	-88.6	3.0	7.61e-01	0	47	104	0	60	1048567
2026-01-18 02:56:11.69	20.36	15.22	-84.7	-88.6	3.6	7.62e-01	0	47	104	0	60	1048574
2026-01-18 02:56:15.72	19.99	15.62	-84.7	-88.6	3.2	7.63e-01	0	47	104	0	60	1048575
2026-01-18 02:56:19.75	19.60	16.01	-85.2	-88.6	3.1	7.63e-01	0	47	104	0	60	1048574
2026-01-18 02:56:23.78	19.21	16.42	-84.3	-88.6	2.8	7.63e-01	0	47	104	0	60	1048575
2026-01-18 02:56:27.81	18.80	16.83	-85.2	-88.6	3.6	7.62e-01	0	47	104	0	60	1048574
2026-01-18 02:56:31.83	18.38	17.24	-85.2	-88.6	3.7	7.64e-01	0	47	104	0	60	1048575
2026-01-18 02:56:35.87	17.95	17.66	-85.2	-88.6	2.9	7.64e-01	0	47	104	0	60	1048571
2026-01-18 02:56:39.90	17.50	18.08	-85.2	-88.6	2.9	7.64e-01	0	47	104	0	60	1048574
2026-01-18 02:56:43.92	17.05	18.51	-85.2	-88.6	3.1	7.64e-01	0	47	104	0	60	1048570
2026-01-18 02:56:47.95	16.58	18.95	-85.2	-88.6	3.0	7.64e-01	0	47	104	0	60	1048573
2026-01-18 02:56:51.97	16.09	19.39	-85.2	-88.6	3.0	7.64e-01	0	47	104	0	60	1048572
2026-01-18 02:56:56.00	15.59	19.84	-85.2	-88.6	3.5	7.64e-01	0	47	104	0	60	1048574
2026-01-18 02:57:00.02	15.08	20.29	-84.7	-88.6	3.6	7.62e-01	0	47	104	0	60	1048571
2026-01-18 02:57:04.04	14.55	20.75	-85.2	-88.6	3.1	7.64e-01	0	47	104	0	60	1048575
2026-01-18 02:57:08.08	14.00	21.21	-84.7	-88.6	3.1	7.63e-01	0	47	104	0	60	1048567
2026-01-18 02:57:12.10	13.44	21.68	-85.2	-88.6	3.7	7.64e-01	0	47	104	0	60	1048571
2026-01-18 02:57:16.13	12.85	22.16	-85.2	-88.6	3.2	7.63e-01	0	47	104	0	60	1048572
2026-01-18 02:57:20.16	12.25	22.64	-83.5	-88.6	3.6	7.64e-01	0	47	104	0	60	1048575
2026-01-18 02:57:24.19	11.63	23.12	-82.8	-88.6	3.4	7.62e-01	0	47	104	0	60	1048575
2026-01-18 02:57:28.21	10.99	23.62	-85.2	-88.6	3.1	7.65e-01	0	47	104	0	60	1048574
2026-01-18 02:57:32.24	10.33	24.11	-85.2	-88.6	3.0	7.64e-01	0	47	104	0	60	1048575
2026-01-18 02:57:36.27	9.65	24.62	-85.2	-88.6	3.4	7.64e-01	0	47	104	0	60	1048575
2026-01-18 02:57:40.29	8.94	25.12	-85.2	-88.6	2.8	7.64e-01	0	47	104	0	60	1048573
2026-01-18 02:57:44.32	8.21	25.64	-84.3	-88.6	2.9	7.63e-01	0	47	104	0	60	1048571
2026-01-18 02:57:48.34	7.46	26.15	-85.2	-88.6	3.2	7.64e-01	0	47	104	0	60	1048573
2026-01-18 02:57:52.37	6.68	26.68	-85.2	-88.6	3.2	7.62e-01	0	47	104	0	60	1048575
2026-01-18 02:57:56.39	5.87	27.20	-85.2	-88.6	3.2	7.64e-01	0	47	104	0	60	1048569
2026-01-18 02:58:00.42	5.04	27.73	-84.7	-88.6	3.2	7.64e-01	0	47	104	0	60	1048575
2026-01-18 02:58:04.44	4.18	28.26	-85.2	-88.6	3.6	7.63e-01	0	47	104	0	60	1048573
2026-01-18 02:58:08.46	3.28	28.80	-85.2	-88.6	3.6	7.64e-01	0	47	104	0	60	1048575
2026-01-18 02:58:12.49	2.36	29.34	-85.2	-88.6	3.1	7.61e-01	0	47	104	0	60	1048574
2026-01-18 02:58:16.53	1.40	29.88	-85.2	-88.6	3.0	7.62e-01	0	47	104	0	60	1048573
2026-01-18 02:58:20.56	0.41	30.42	-84.7	-88.6	3.1	7.64e-01	0	47	104	0	60	1048575
2026-01-18 02:58:24.59	359.39	30.96	-83.9	-88.6	2.9	7.62e-01	0	47	104	0	60	1048571
2026-01-18 02:58:28.60	358.34	31.49	-84.7	-88.6	3.3	7.63e-01	0	47	104	0	60	1048575
2026-01-18 02:58:32.63	357.24	32.03	-85.2	-88.6	3.2	7.63e-01	0	47	104	0	60	1048573
2026-01-18 02:58:36.66	356.11	32.57	-85.2	-88.6	3.3	7.63e-01	0	47	104	0	60	1048574
2026-01-18 02:58:40.69	354.94	33.10	-85.2	-88.6	3.2	7.63e-01	0	47	104	0	60	1048571
2026-01-18 02:58:44.71	353.74	33.63	-85.2	-88.6	2.8	7.64e-01	0	47	104	0	60	1048575
2026-01-18 02:58:48.73	352.49	34.15	-85.2	-88.6	3.2	7.63e-01	0	47	104	0	60	1048573
2026-01-18 02:58:52.76	351.20	34.66	-85.2	-88.6	3.3	7.63e-01	0	47	104	0	60	1048575
2026-01-18 02:58:56.78	349.88	35.16	-85.2	-88.6	3.4	7.63e-01	0	47	104	0	60	1048574
2026-01-18 02:59:00.80	348.51	35.66	-85.2	-88.6	3.8	7.64e-01	0	47	104	0	60	1048571
2026-01-18 02:59:04.81	347.10	36.14	-85.2	-88.6	3.1	7.61e-01	0	47	104	0	60	1048575
2026-01-18 02:59:08.85	345.64	36.61	-85.2	-88.6	3.2	7.63e-01	0	47	104	0	60	1048572
2026-01-18 02:59:12.87	344.14	37.06	-85.2	-88.6	3.4	7.63e-01	0	47	104	0	60	1048574
2026-01-18 02:59:16.89	342.61	37.50	-84.7	-88.6	2.9	7.63e-01	0	47	104	0	60	1048571
2026-01-18 02:59:20.92	341.02	37.92	-85.2	-88.6	3.5	7.63e-01	0	47	104	0	60	1048573
2026-01-18 02:59:24.95	339.40	38.32	-85.2	-88.6	3.1	7.64e-01	0	47	104	0	60	1048564
2026-01-18 02:59:28.98	337.74	38.69	-83.9	-88.6	3.6	7.63e-01	0	47	104	0	60	1048575
2026-01-18 02:59:33.01	336.04	39.04	-85.2	-88.6	3.0	7.65e-01	0	47	104	0	60	1048571
2026-01-18 02:59:37.03	334.31	39.37	-85.2	-88.6	2.8	7.64e-01	0	47	104	0	60	1048575
2026-01-18 02:59:41.06	332.54	39.66	-85.2	-88.6	3.0	7.63e-01	0	47	104	0	60	1048575
2026-01-18 02:59:45.09	330.74	39.93	-84.7	-88.6	3.0	7.64e-01	0	47	104	0	60	1048575
2026-01-18 02:59:49.12	328.91	40.17	-85.2	-88.6	3.4	7.62e-01	0	47	104	0	60	1048574
2026-01-18 02:59:53.15	327.05	40.37	-85.2	-88.6	3.7	7.64e-01	0	47	104	0	60	1048573
2026-01-18 02:59:57.18	325.18	40.55	-84.7	-88.6	3.2	7.63e-01	0	47	104	0	60	1048571
2026-01-18 03:00:01.21	323.28	40.68	-85.2	-88.6	3.0	7.64e-01	0	47	104	0	60	1048574
2026-01-18 03:00:05.23	321.38	40.78	-85.2	-88.6	3.0	7.63e-01	0	47	104	0	60	1048572
2026-01-18 03:00:09.27	319.45	40.85	-84.7	-88.6	3.6	7.64e-01	0	47	104	0	60	1048573
2026-01-18 03:00:13.29	317.53	40.88	-84.7	-88.6	3.4	7.63e-01	0	47	104	0	60	1048571
2026-01-18 03:00:17.32	315.61	40.87	-85.2	-88.6	3.6	7.63e-01	0	47	104	0	60	1048574
2026-01-18 03:00:21.34	313.69	40.83	-85.2	-88.6	3.1	7.63e-01	0	47	104	0	60	1048573
2026-01-18 03:00:25.36	311.78	40.74	-85.2	-88.6	3.0	7.63e-01	0	47	104	0	60	1048575
2026-01-18 03:00:29.38	309.88	40.63	-85.2	-88.6	2.9	7.62e-01	0	47	104	0	60	1048573
2026-01-18 03:00:33.40	307.99	40.48	-84.7	-88.6	3.4	7.64e-01	0	47	104	0	60	1048575
2026-01-18 03:00:37.42	306.13	40.29	-85.2	-88.6	2.7	7.65e-01	0	47	104	0	60	1048571
2026-01-18 03:00:41.44	304.29	40.07	-85.2	-88.6	2.7	7.64e-01	0	47	104	0	60	1048575
2026-01-18 03:00:45.46	302.47	39.82	-85.2	-88.6	3.5	7.63e-01	0	47	104	0	60	1048575
2026-01-18 03:00:49.48	300.68	39.54	-85.2	-88.6	3.0	7.63e-01	0	47	104	0	60	1048568
2026-01-18 03:00:53.51	298.93	39.23	-85.2	-88.6	3.2	7.65e-01	0	47	104	0	60	1048572
2026-01-18 03:00:57.53	297.21	38.90	-85.2	-88.6	3.0	7.64e-01	0	47	104	0	60	1048575
2026-01-18 03:01:01.56	295.52	38.53	-85.2	-88.6	3.6	7.62e-01	0	47	104	0	60	1048568
2026-01-18 03:01:05.59	293.87	38.15	-85.2	-88.6	3.1	7.63e-01	0	47	104	0	60	1048575
2026-01-18 03:01:09.62	292.26	37.74	-85.2	-88.6	2.8	7.63e-01	0	47	104	0	60	1048570
2026-01-18 03:01:13.64	290.70	37.31	-85.2	-88.6	3.2	7.65e-01	0	47	104	0	60	1048574
2026-01-18 03:01:17.67	289.17	36.87	-85.2	-88.6	3.1	7.63e-01	0	47	104	0	60	1048575
2026-01-18 03:01:21.70	287.69	36.41	-85.2	-88.6	2.8	7.63e-01	0	47	104	0	60	1048570
2026-01-18 03:01:25.73	286.25	35.93	-85.2	-88.6	3.7	7.61e-01	0	47	104	0	60	1048574
2026-01-18 03:01:29.75	284.85	35.44	-84.7	-88.6	3.6	7.63e-01	0	47	104	0	60	1048571
2026-01-18 03:01:33.77	283.50	34.94	-85.2	-88.6	3.2	7.63e-01	0	47	104	0	60	1048572
2026-01-18 03:01:37.81	282.18	34.43	-85.2	-88.6	2.9	7.63e-01	0	47	104	0	60	1048568
2026-01-18 03:01:41.83	280.91	33.91	-85.2	-88.6	2.9	7.63e-01	0	47	104	0	60	1048573
2026-01-18 03:01:45.86	279.67	33.39	-85.2	-88.6	3.4	7.62e-01	0	47	104	0	60	1048575
2026-01-18 03:01:49.89	278.48	32.86	-85.2	-88.6	3.2	7.64e-01	0	47	104	0	60	1048575
2026-01-18 03:01:53.92	277.32	32.32	-84.7	-88.6	3.3	7.63e-01	0	47	104	0	60	1048569
2026-01-18 03:01:57.95	276.21	31.78	-84.7	-88.6	3.3	7.62e-01	0	47	104	0	60	1048575
2026-01-18 03:02:01.97	275.13	31.24	-85.2	-88.6	3.3	7.62e-01	0	47	104	0	60	1048575
2026-01-18 03:02:06.00	274.08	30.70	-84.7	-88.6	3.1	7.65e-01	0	47	104	0	60	1048573
2026-01-18 03:02:10.03	273.07	30.16	-85.2	-88.6	3.5	7.61e-01	0	47	104	0	60	1048574
2026-01-18 03:02:14.06	272.10	29.62	-85.2	-88.6	3.2	7.64e-01	0	47	104	0	60	1048574
2026-01-18 03:02:18.08	271.15	29.08	-85.2	-88.6	3.7	7.63e-01	0	47	104	0	60	1048572
2026-01-18 03:02:22.12	270.24	28.54	-84.7	-88.6	2.9	7.63e-01	0	47	104	0	60	1048573
2026-01-18 03:02:26.15	269.36	28.00	-84.7	-88.6	3.0	7.64e-01	0	47	104	0	60	1048570
2026-01-18 03:02:30.17	268.50	27.47	-84.3	-88.6	2.8	7.63e-01	0	47	104	0	60	1048570
2026-01-18 03:02:34.19	267.68	26.94	-83.9	-88.6	3.3	7.63e-01	0	47	104	0	60	1048574
2026-01-18 03:02:38.22	266.88	26.42	-85.2	-88.6	3.4	7.63e-01	0	47	104	0	60	1048575
2026-01-18 03:02:42.25	266.11	25.90	-84.7	-88.6	2.9	7.62e-01	0	47	104	0	60	1048573
2026-01-18 03:02:46.28	265.37	25.38	-84.7	-88.6	3.1	7.64e-01	0	47	104	0	60	1048574
2026-01-18 03:02:50.32	264.64	24.86	-85.2	-88.6	3.1	7.63e-01	0	47	104	0	60	1048575
2026-01-18 03:02:54.35	263.94	24.36	-85.2	-88.6	3.3	7.64e-01	0	47	104	0	60	1048571
2026-01-18 03:02:58.37	263.27	23.86	-85.2	-88.6	3.7	7.65e-01	0	47	104	0	60	1048572
2026-01-18 03:03:02.39	262.62	23.36	-85.2	-88.6	3.7	7.63e-01	0	47	104	0	60	1048566
2026-01-18 03:03:06.41	261.98	22.87	-85.2	-88.6	2.9	7.63e-01	0	47	104	0	60	1048574
2026-01-18 03:03:10.43	261.37	22.38	-85.2	-88.6	3.1	7.62e-01	0	47	104	0	60	1048575
2026-01-18 03:03:14.46	260.77	21.90	-85.2	-88.6	3.0	7.63e-01	0	47	104	0	60	1048574
2026-01-18 03:03:18.49	260.20	21.43	-85.2	-88.6	3.2	7.64e-01	0	47	104	0	60	1048573
2026-01-18 03:03:22.53	259.64	20.96	-85.2	-88.6	3.0	7.63e-01	0	47	104	0	60	1048575
2026-01-18 03:03:26.54	259.10	20.50	-85.2	-88.6	3.0	7.64e-01	0	47	104	0	60	1048575
2026-01-18 03:03:30.56	258.57	20.04	-85.2	-88.6	3.0	7.64e-01	0	47	104	0	60	1048575
2026-01-18 03:03:34.60	258.06	19.59	-84.3	-88.6	3.5	7.64e-01	0	47	104	0	60	1048575
2026-01-18 03:03:38.63	257.56	19.14	-84.7	-88.6	3.1	7.63e-01	0	47	104	0	60	1048573
2026-01-18 03:03:42.66	257.08	18.70	-85.2	-88.6	3.2	7.63e-01	0	47	104	0	60	1048575
2026-01-18 03:03:46.69	256.62	18.27	-85.2	-88.6	3.0	7.64e-01	0	47	104	0	60	1048572
2026-01-18 03:03:50.72	256.16	17.84	-85.2	-88.6	3.6	7.64e-01	0	47	104	0	60	1048575
2026-01-18 03:03:54.75	255.72	17.42	-84.7	-88.6	3.8	7.63e-01	0	47	104	0	60	1048573
2026-01-18 03:03:58.78	255.29	17.00	-85.2	-88.6	3.0	7.63e-01	0	47	104	0	60	1048574
2026-01-18 03:04:02.80	254.88	16.59	-85.2	-88.6	3.1	7.64e-01	0	47	104	0	60	1048575
2026-01-18 03:04:06.83	254.47	16.18	-85.2	-88.6	2.9	7.65e-01	0	47	104	0	60	1048575
2026-01-18 03:04:10.87	254.08	15.78	-85.2	-88.6	2.8	7.63e-01	0	47	104	0	60	1048572
2026-01-18 03:04:14.89	253.70	15.38	-85.2	-88.6	2.8	7.65e-01	0	47	104	0	60	1048575
2026-01-18 03:04:18.91	253.33	14.99	-85.2	-88.6	3.1	7.64e-01	0	47	104	0	60	1048575
2026-01-18 03:04:22.94	252.96	14.60	-85.2	-88.6	3.0	7.62e-01	0	48	104	0	60	1048573
2026-01-18 03:04:26.97	252.61	14.22	-85.2	-88.6	3.0	7.63e-01	0	47	104	0	60	1048574
2026-01-18 03:04:30.98	252.27	13.85	-85.2	-88.6	2.9	7.64e-01	0	47	104	0	60	1048574
2026-01-18 03:04:35.00	251.93	13.47	-85.2	-88.6	3.4	7.65e-01	0	47	104	0	60	1048573
2026-01-18 03:04:39.04	251.61	13.11	-85.2	-88.6	3.9	7.63e-01	0	47	104	0	60	1048572
2026-01-18 03:04:43.07	251.29	12.74	-85.2	-88.6	3.0	7.63e-01	0	47	104	0	60	1048575
2026-01-18 03:04:47.10	250.98	12.38	-85.2	-88.6	3.6	7.64e-01	0	47	104	0	60	1048574
2026-01-18 03:04:51.11	250.68	12.03	-85.2	-88.6	3.1	7.64e-01	0	47	104	0	60	1048573
2026-01-18 03:04:55.15	250.38	11.68	-84.7	-88.6	3.0	7.64e-01	0	47	104	0	60	1048574
2026-01-18 03:04:59.18	250.09	11.34	-84.7	-88.6	3.0	7.64e-01	0	47	104	0	60	1048573
2026-01-18 03:05:03.20	249.81	10.99	-85.2	-88.6	3.5	7.63e-01	0	47	104	0	60	1048571
2026-01-18 03:05:07.23	249.54	10.66	-85.2	-88.6	2.9	7.61e-01	0	47	104	0	60	1048574
2026-01-18 03:05:11.25	249.27	10.32	-85.2	-88.6	2.9	7.63e-01	0	47	104	0	60	1048562
2026-01-18 03:05:15.28	249.01	9.99	-85.2	-88.6	2.9	7.63e-01	0	47	104	0	60	1048574
2026-01-18 03:05:19.30	248.75	9.67	-85.2	-88.6	3.3	7.62e-01	0	47	104	0	60	1048574
2026-01-18 03:05:23.33	248.50	9.35	-85.2	-88.6	3.4	7.63e-01	0	47	104	0	60	1048575
2026-01-18 03:05:27.35	248.26	9.03	-85.2	-88.6	3.7	7.63e-01	0	47	104	0	60	1048575
2026-01-18 03:05:31.37	248.02	8.71	-85.2	-88.6	3.4	7.64e-01	0	47	104	0	60	1048575
2026-01-18 03:05:35.40	247.79	8.40	-85.2	-88.6	3.3	7.63e-01	0	47	104	0	60	1048572
2026-01-18 03:05:39.43	247.56	8.09	-85.2	-88.6	2.9	7.64e-01	0	47	104	0	60	1048575
2026-01-18 03:05:43.45	247.34	7.79	-85.2	-88.6	3.1	7.63e-01	0	47	104	0	60	1048573
2026-01-18 03:05:47.48	247.12	7.49	-85.2	-88.6	3.0	7.63e-01	0	47	104	0	60	1048565
2026-01-18 03:05:51.51	246.91	7.19	-84.7	-88.6	3.7	7.64e-01	0	47	104	0	60	1048570
2026-01-18 03:05:55.54	246.70	6.89	-84.7	-88.6	3.2	7.63e-01	0	47	104	0	60	1048574
2026-01-18 03:05:59.56	246.49	6.60	-85.2	-88.6	3.0	7.63e-01	0	47	104	0	60	1048561
2026-01-18 03:06:03.59	246.29	6.31	-85.2	-88.6	3.1	7.64e-01	0	47	104	0	60	1048575
2026-01-18 03:06:07.62	246.10	6.02	-85.2	-88.6	3.1	7.64e-01	0	47	104	0	60	1048575
2026-01-18 03:06:11.65	245.90	5.74	-85.2	-88.6	3.5	7.65e-01	0	47	104	0	60	1048574
2026-01-18 03:06:15.67	245.72	5.46	-84.7	-88.6	3.7	7.63e-01	0	47	104	0	60	1048573
2026-01-18 03:06:19.69	245.53	5.18	-84.7	-88.6	3.6	7.63e-01	0	47	104	0	60	1048568
2026-01-18 03:06:23.73	245.35	4.90	-85.2	-88.6	3.3	7.64e-01	0	47	104	0	60	1048574
2026-01-18 03:06:27.75	245.18	4.63	-85.2	-88.6	3.0	7.64e-01	0	47	104	0	60	1048574
2026-01-18 03:06:31.77	245.00	4.36	-85.2	-88.6	3.1	7.64e-01	0	47	104	0	60	1048575
2026-01-18 03:06:35.80	244.83	4.09	-85.2	-88.6	2.8	7.64e-01	0	47	104	0	60	1048573
2026-01-18 03:06:39.83	244.67	3.82	-85.2	-88.6	3.1	7.62e-01	0	47	104	0	60	1048575
2026-01-18 03:06:43.85	244.50	3.56	-84.7	-88.6	3.0	7.64e-01	0	47	104	0	60	1048574
2026-01-18 03:06:47.88	244.34	3.30	-84.7	-88.6	3.5	7.63e-01	0	47	104	0	60	1048575
2026-01-18 03:06:51.91	244.19	3.04	-85.2	-88.6	3.1	7.62e-01	0	47	104	0	60	1048572
2026-01-18 03:06:55.95	244.03	2.78	-85.2	-88.6	2.9	7.65e-01	0	47	104	0	60	1048575
2026-01-18 03:06:59.97	243.88	2.53	-85.2	-88.6	3.1	7.63e-01	0	47	104	0	60	1048573
2026-01-18 03:07:04.00	243.73	2.27	-85.2	-88.6	3.0	7.63e-01	0	47	104	0	60	1048568
2026-01-18 03:07:08.02	243.59	2.02	-84.7	-88.6	3.0	7.64e-01	0	47	104	0	60	1048574
2026-01-18 03:07:12.05	243.44	1.77	-84.7	-88.6	2.9	7.63e-01	0	47	104	0	60	1048575
2026-01-18 03:07:16.07	243.30	1.53	-85.2	-88.6	3.1	7.64e-01	0	47	104	0	60	1048575
2026-01-18 03:07:20.09	243.16	1.28	-85.2	-88.6	2.7	7.64e-01	0	47	104	0	60	1048575
2026-01-18 03:07:24.12	243.03	1.04	-84.7	-88.6	3.4	7.63e-01	0	47	104	0	60	1048572
2026-01-18 03:07:28.14	242.90	0.80	-85.2	-88.6	3.7	7.65e-01	0	47	104	0	60	1048574
2026-01-18 03:07:32.17	242.76	0.56	-85.2	-88.6	3.2	7.63e-01	0	47	104	0	60	1048574
2026-01-18 03:07:36.19	242.64	0.32	-84.7	-88.6	3.6	7.64e-01	0	47	104	0	60	1048571
2026-01-18 03:07:40.22	242.51	0.09	-85.2	-88.6	3.1	7.64e-01	0	47	104	0	60	1048575

#Closed at: 2026-01-18 03:07:42
#Recorded file [0 MB]: D:/Data/35015_260118_055246.dat