passes_logs/2026/01/18/R3.2S-Naryan-Mar/R3.2S-Naryan-Mar__20260118_083022_SUOMI_NPP_rec.log

#Pass ID: 20260118_083022_SUOMI NPP
#Satellite: SUOMI NPP
#Configuration: NPP
#almurnet v.1.7.20240730
#Start time: 2026-01-18 08:30:27

#Version: 2.2.20231116
#Station: R3.2S-Naryan-Mar
#Location: 53.008057 lon 67.646978 lat
#TLE: 1 37849U 11061A   26017.28905266  .00000074  00000+0  55894-4 0  9999
#TLE: 2 37849  98.7814 319.3179 0002408  59.7048 300.4366 14.19525847737038

#Time	Az	El	Level	Level2	SNR	BER	BlckErr	Temp	State	Recorded	gain1	gain2
2026-01-18 08:30:27.59	156.37	0.28	-83.1	-79.0	2.5	0.00e+00	0	46	0	0	60	1048573
2026-01-18 08:30:31.61	156.39	0.52	-85.2	-88.6	3.0	1.55e+00	0	47	104	0	60	1048574
2026-01-18 08:30:35.65	156.42	0.77	-85.2	-88.6	2.9	1.56e+00	0	47	104	0	60	1048574
2026-01-18 08:30:39.67	156.45	1.02	-84.3	-88.6	3.0	1.56e+00	0	47	104	0	60	1048574
2026-01-18 08:30:43.69	156.47	1.27	-85.2	-88.6	3.1	1.55e+00	0	47	104	0	60	1048574
2026-01-18 08:30:47.72	156.50	1.52	-85.2	-88.6	2.9	1.55e+00	0	47	104	0	60	1048575
2026-01-18 08:30:51.76	156.53	1.78	-85.2	-88.6	3.0	1.56e+00	0	47	104	0	60	1048574
2026-01-18 08:30:55.77	156.56	2.04	-85.2	-88.6	2.8	1.55e+00	0	47	104	0	60	1048575
2026-01-18 08:30:59.80	156.59	2.30	-84.3	-88.6	2.8	1.56e+00	0	47	104	0	60	1048575
2026-01-18 08:31:03.83	156.61	2.56	-85.2	-88.6	3.0	1.56e+00	0	47	104	0	60	1048573
2026-01-18 08:31:07.86	156.64	2.82	-85.2	-88.6	2.8	1.55e+00	0	47	104	0	60	1048571
2026-01-18 08:31:11.88	156.67	3.09	-85.2	-88.6	2.8	1.56e+00	0	47	104	0	60	1048575
2026-01-18 08:31:15.90	156.70	3.36	-85.2	-88.6	2.8	1.56e+00	0	47	104	0	60	1048574
2026-01-18 08:31:19.93	156.73	3.63	-85.2	-88.6	3.1	1.56e+00	0	47	104	0	60	1048572
2026-01-18 08:31:23.96	156.76	3.91	-85.2	-88.6	3.1	1.56e+00	0	47	104	0	60	1048575
2026-01-18 08:31:27.98	156.79	4.19	-85.2	-88.6	2.9	1.55e+00	0	47	104	0	60	1048575
2026-01-18 08:31:32.00	156.82	4.47	-85.2	-88.6	2.8	1.56e+00	0	47	104	0	60	1048572
2026-01-18 08:31:36.03	156.86	4.75	-85.2	-88.6	3.1	1.55e+00	0	47	104	0	60	1048575
2026-01-18 08:31:40.06	156.89	5.04	-85.2	-88.6	3.0	1.56e+00	0	47	104	0	60	1048574
2026-01-18 08:31:44.08	156.92	5.33	-85.2	-88.6	3.0	1.55e+00	0	47	104	0	60	1048575
2026-01-18 08:31:48.09	156.95	5.62	-85.2	-88.6	2.9	1.56e+00	0	47	104	0	60	1048575
2026-01-18 08:31:52.11	156.98	5.92	-85.2	-88.6	3.0	1.56e+00	0	47	104	0	60	1048575
2026-01-18 08:31:56.14	157.02	6.22	-85.2	-88.6	3.1	1.56e+00	0	47	104	0	60	1048575
2026-01-18 08:32:00.17	157.05	6.52	-85.2	-88.6	3.0	1.56e+00	0	47	104	0	60	1048573
2026-01-18 08:32:04.18	157.08	6.83	-85.2	-88.6	3.1	1.56e+00	0	47	104	0	60	1048575
2026-01-18 08:32:08.21	157.12	7.14	-85.2	-88.6	3.0	1.55e+00	0	47	104	0	60	1048574
2026-01-18 08:32:12.24	157.15	7.45	-85.2	-88.6	3.2	1.56e+00	0	47	104	0	60	1048575
2026-01-18 08:32:16.27	157.19	7.77	-85.2	-88.6	2.9	1.56e+00	0	47	104	0	60	1048575
2026-01-18 08:32:20.30	157.22	8.10	-85.2	-88.6	2.9	1.56e+00	0	47	104	0	60	1048575
2026-01-18 08:32:24.32	157.26	8.42	-85.2	-88.6	2.8	1.55e+00	0	47	104	0	60	1048572
2026-01-18 08:32:28.35	157.30	8.76	-85.2	-88.6	3.0	1.56e+00	0	47	104	0	60	1048574
2026-01-18 08:32:32.37	157.34	9.09	-85.2	-88.6	3.0	1.56e+00	0	47	104	0	60	1048575
2026-01-18 08:32:36.40	157.37	9.43	-85.2	-88.6	2.9	1.56e+00	0	47	104	0	60	1048575
2026-01-18 08:32:40.43	157.41	9.78	-85.2	-88.6	3.1	1.55e+00	0	47	104	0	60	1048572
2026-01-18 08:32:44.47	157.45	10.13	-85.2	-88.6	3.0	1.56e+00	0	47	104	0	60	1048575
2026-01-18 08:32:48.50	157.49	10.48	-85.2	-88.6	3.0	1.56e+00	0	47	104	0	60	1048573
2026-01-18 08:32:52.53	157.53	10.85	-85.2	-88.6	3.2	1.56e+00	0	47	104	0	60	1048575
2026-01-18 08:32:56.55	157.57	11.21	-85.2	-88.6	3.0	1.56e+00	0	47	104	0	60	1048574
2026-01-18 08:33:00.58	157.61	11.58	-85.2	-88.6	3.2	1.56e+00	0	47	104	0	60	1048573
2026-01-18 08:33:04.59	157.66	11.96	-85.2	-88.6	3.2	1.56e+00	0	47	104	0	60	1048574
2026-01-18 08:33:08.61	157.70	12.34	-85.2	-88.6	3.1	1.55e+00	0	47	104	0	60	1048572
2026-01-18 08:33:12.65	157.74	12.73	-85.2	-88.6	3.1	1.56e+00	0	47	104	0	60	1048575
2026-01-18 08:33:16.68	157.79	13.13	-84.3	-88.6	3.0	1.55e+00	0	47	104	0	60	1048575
2026-01-18 08:33:20.70	157.83	13.53	-85.2	-88.6	2.8	1.56e+00	0	47	104	0	60	1048574
2026-01-18 08:33:24.72	157.88	13.94	-85.2	-88.6	3.0	1.55e+00	0	47	104	0	60	1048573
2026-01-18 08:33:28.74	157.93	14.35	-85.2	-88.6	3.0	1.56e+00	0	47	104	0	60	1048575
2026-01-18 08:33:32.76	157.98	14.77	-85.2	-88.6	3.0	1.56e+00	0	47	104	0	60	1048575
2026-01-18 08:33:36.80	158.03	15.21	-85.2	-88.6	3.1	1.56e+00	0	47	104	0	60	1048575
2026-01-18 08:33:40.83	158.08	15.64	-84.3	-88.6	2.9	1.56e+00	0	47	104	0	60	1048575
2026-01-18 08:33:44.86	158.13	16.09	-85.2	-88.6	3.0	1.56e+00	0	47	104	0	60	1048575
2026-01-18 08:33:48.89	158.18	16.55	-85.2	-88.6	3.2	1.56e+00	0	47	104	0	60	1048574
2026-01-18 08:33:52.93	158.24	17.01	-85.2	-88.6	3.1	1.56e+00	0	47	104	0	60	1048574
2026-01-18 08:33:56.95	158.29	17.48	-85.2	-88.6	3.0	1.55e+00	0	47	104	0	60	1048575
2026-01-18 08:34:00.97	158.35	17.96	-85.2	-88.6	3.0	1.56e+00	0	47	104	0	60	1048575
2026-01-18 08:34:05.01	158.41	18.45	-85.2	-88.6	3.0	1.56e+00	0	47	104	0	60	1048573
2026-01-18 08:34:09.03	158.46	18.95	-85.2	-88.6	3.0	1.56e+00	0	47	104	0	60	1048575
2026-01-18 08:34:13.06	158.53	19.47	-85.2	-88.6	3.2	1.56e+00	0	47	104	0	60	1048575
2026-01-18 08:34:17.08	158.59	19.99	-85.2	-88.6	3.1	1.55e+00	0	47	104	0	60	1048575
2026-01-18 08:34:21.11	158.65	20.52	-85.2	-88.6	3.0	1.55e+00	0	47	104	0	60	1048572
2026-01-18 08:34:25.14	158.72	21.07	-83.9	-88.6	3.0	1.56e+00	0	47	104	0	60	1048568
2026-01-18 08:34:29.17	158.79	21.62	-85.2	-88.6	3.0	1.55e+00	0	47	104	0	60	1048574
2026-01-18 08:34:33.21	158.86	22.20	-85.2	-88.6	3.0	1.55e+00	0	47	104	0	60	1048574
2026-01-18 08:34:37.24	158.93	22.78	-85.2	-88.6	3.0	1.56e+00	0	47	104	0	60	1048575
2026-01-18 08:34:41.27	159.00	23.37	-85.2	-88.6	2.9	1.55e+00	0	47	104	0	60	1048573
2026-01-18 08:34:45.30	159.08	23.98	-85.2	-88.6	3.0	1.55e+00	0	47	104	0	60	1048575
2026-01-18 08:34:49.33	159.16	24.61	-85.2	-88.6	2.8	1.56e+00	0	47	104	0	60	1048573
2026-01-18 08:34:53.36	159.24	25.25	-85.2	-88.6	2.9	1.56e+00	0	47	104	0	60	1048573
2026-01-18 08:34:57.39	159.32	25.91	-85.2	-88.6	3.2	1.56e+00	0	47	104	0	60	1048573
2026-01-18 08:35:01.42	159.41	26.58	-85.2	-88.6	2.9	1.56e+00	0	47	104	0	60	1048574
2026-01-18 08:35:05.45	159.50	27.27	-85.2	-88.6	2.9	1.55e+00	0	47	104	0	60	1048575
2026-01-18 08:35:09.48	159.59	27.98	-85.2	-88.6	3.0	1.56e+00	0	47	104	0	60	1048573
2026-01-18 08:35:13.51	159.69	28.70	-85.2	-88.6	2.9	1.55e+00	0	47	104	0	60	1048575
2026-01-18 08:35:17.53	159.79	29.44	-85.2	-88.6	2.9	1.56e+00	0	47	104	0	60	1048575
2026-01-18 08:35:21.55	159.90	30.21	-85.2	-88.6	3.0	1.56e+00	0	47	104	0	60	1048575
2026-01-18 08:35:25.58	160.01	30.99	-84.7	-88.6	3.1	1.55e+00	0	47	104	0	60	1048575
2026-01-18 08:35:29.61	160.12	31.80	-85.2	-88.6	3.0	1.56e+00	0	47	104	0	60	1048575
2026-01-18 08:35:33.64	160.24	32.63	-85.2	-88.6	3.0	1.56e+00	0	47	104	0	60	1048574
2026-01-18 08:35:37.67	160.37	33.49	-85.2	-88.6	2.9	1.56e+00	0	47	104	0	60	1048575
2026-01-18 08:35:41.70	160.50	34.36	-85.2	-88.6	3.1	1.55e+00	0	47	104	0	60	1048575
2026-01-18 08:35:45.73	160.64	35.27	-85.2	-88.6	3.1	1.56e+00	0	47	104	0	60	1048575
2026-01-18 08:35:49.76	160.78	36.20	-85.2	-88.6	3.0	1.55e+00	0	47	104	0	60	1048575
2026-01-18 08:35:53.79	160.93	37.16	-85.2	-88.6	2.8	1.56e+00	0	47	104	0	60	1048575
2026-01-18 08:35:57.82	161.09	38.14	-85.2	-88.6	3.0	1.55e+00	0	47	104	0	60	1048574
2026-01-18 08:36:01.84	161.26	39.15	-85.2	-88.6	2.9	1.55e+00	0	47	104	0	60	1048574
2026-01-18 08:36:05.87	161.44	40.20	-85.2	-88.6	2.8	1.56e+00	0	47	104	0	60	1048573
2026-01-18 08:36:09.90	161.64	41.28	-85.2	-88.6	2.9	1.56e+00	0	47	104	0	60	1048574
2026-01-18 08:36:13.93	161.84	42.39	-85.2	-88.6	2.8	1.56e+00	0	47	104	0	60	1048568
2026-01-18 08:36:17.97	162.06	43.53	-85.2	-88.6	3.2	1.56e+00	0	47	104	0	60	1048574
2026-01-18 08:36:22.00	162.29	44.71	-85.2	-88.6	3.2	1.55e+00	0	47	104	0	60	1048575
2026-01-18 08:36:26.03	162.54	45.92	-85.2	-88.6	2.9	1.56e+00	0	47	104	0	60	1048575
2026-01-18 08:36:30.06	162.81	47.17	-85.2	-88.6	3.0	1.56e+00	0	47	104	0	60	1048574
2026-01-18 08:36:34.09	163.10	48.46	-85.2	-88.6	2.9	1.56e+00	0	47	104	0	60	1048569
2026-01-18 08:36:38.12	163.41	49.79	-85.2	-88.6	2.9	1.56e+00	0	47	104	0	60	1048573
2026-01-18 08:36:42.14	163.75	51.15	-85.2	-88.6	2.9	1.55e+00	0	47	104	0	60	1048573
2026-01-18 08:36:46.17	164.13	52.55	-85.2	-88.6	2.9	1.55e+00	0	47	104	0	60	1048574
2026-01-18 08:36:50.20	164.54	54.00	-85.2	-88.6	3.0	1.56e+00	0	47	104	0	60	1048574
2026-01-18 08:36:54.23	164.99	55.48	-85.2	-88.6	3.0	1.56e+00	0	47	104	0	60	1048575
2026-01-18 08:36:58.26	165.49	57.01	-85.2	-88.6	2.9	1.56e+00	0	47	104	0	60	1048575
2026-01-18 08:37:02.29	166.05	58.57	-85.2	-88.6	3.1	1.56e+00	0	47	104	0	60	1048573
2026-01-18 08:37:06.32	166.68	60.18	-85.2	-88.6	2.8	1.56e+00	0	47	104	0	60	1048573
2026-01-18 08:37:10.35	167.39	61.82	-85.2	-88.6	3.0	1.56e+00	0	47	104	0	60	1048575
2026-01-18 08:37:14.38	168.20	63.50	-85.2	-88.6	3.2	1.56e+00	0	47	104	0	60	1048575
2026-01-18 08:37:18.41	169.14	65.21	-85.2	-88.6	3.0	1.56e+00	0	47	104	0	60	1048574
2026-01-18 08:37:22.43	170.22	66.95	-85.2	-88.6	2.9	1.56e+00	0	47	104	0	60	1048575
2026-01-18 08:37:26.46	171.51	68.73	-85.2	-88.6	3.0	1.56e+00	0	47	104	0	60	1048575
2026-01-18 08:37:30.48	173.04	70.52	-85.2	-88.6	3.0	1.56e+00	0	47	104	0	60	1048575
2026-01-18 08:37:34.50	174.90	72.33	-85.2	-88.6	2.9	1.56e+00	0	47	104	0	60	1048574
2026-01-18 08:37:38.53	177.22	74.15	-85.2	-88.6	3.0	1.56e+00	0	47	104	0	60	1048574
2026-01-18 08:37:42.56	180.17	75.97	-83.5	-88.6	3.1	1.56e+00	0	47	104	0	60	1048575
2026-01-18 08:37:46.59	184.02	77.76	-85.2	-88.6	2.9	1.56e+00	0	47	104	0	60	1048569
2026-01-18 08:37:50.61	189.18	79.50	-85.2	-88.6	3.0	1.55e+00	0	47	104	0	60	1048574
2026-01-18 08:37:54.64	196.38	81.14	-85.2	-88.6	3.0	1.55e+00	0	47	104	0	60	1048575
2026-01-18 08:37:58.68	206.68	82.60	-85.2	-88.6	3.0	1.56e+00	0	47	104	0	60	1048575
2026-01-18 08:38:02.71	221.30	83.72	-85.2	-88.6	3.1	1.56e+00	0	47	104	0	60	1048575
2026-01-18 08:38:06.74	240.41	84.29	-85.2	-88.6	2.9	1.56e+00	0	47	104	0	60	1048571
2026-01-18 08:38:10.77	260.99	84.15	-85.2	-88.6	3.0	1.56e+00	0	47	104	0	60	1048575
2026-01-18 08:38:14.81	278.54	83.33	-85.2	-88.6	2.9	1.56e+00	0	47	104	0	60	1048574
2026-01-18 08:38:18.84	291.32	82.06	-85.2	-88.6	3.0	1.56e+00	0	47	104	0	60	1048575
2026-01-18 08:38:22.86	300.23	80.53	-85.2	-88.6	2.9	1.56e+00	0	47	104	0	60	1048575
2026-01-18 08:38:26.88	306.53	78.85	-85.2	-88.6	3.0	1.55e+00	0	47	104	0	60	1048575
2026-01-18 08:38:30.90	311.12	77.09	-85.2	-88.6	2.8	1.55e+00	0	47	104	0	60	1048574
2026-01-18 08:38:34.93	314.58	75.28	-85.2	-88.6	3.0	1.56e+00	0	47	104	0	60	1048569
2026-01-18 08:38:38.95	317.25	73.47	-85.2	-88.6	3.2	1.55e+00	0	47	104	0	60	1048575
2026-01-18 08:38:42.97	319.38	71.65	-85.2	-88.6	2.9	1.56e+00	0	47	104	0	60	1048575
2026-01-18 08:38:47.00	321.11	69.85	-84.3	-88.6	3.0	1.55e+00	0	47	104	0	60	1048573
2026-01-18 08:38:51.03	322.54	68.06	-85.2	-88.6	2.7	1.56e+00	0	47	104	0	60	1048575
2026-01-18 08:38:55.06	323.74	66.30	-85.2	-88.6	3.1	1.56e+00	0	47	104	0	60	1048575
2026-01-18 08:38:59.08	324.77	64.58	-85.2	-88.6	3.1	1.56e+00	0	47	104	0	60	1048575
2026-01-18 08:39:03.10	325.65	62.88	-85.2	-88.6	3.0	1.56e+00	0	47	104	0	60	1048575
2026-01-18 08:39:07.13	326.42	61.22	-85.2	-88.6	2.9	1.55e+00	0	47	104	0	60	1048572
2026-01-18 08:39:11.16	327.10	59.60	-85.2	-88.6	3.3	1.56e+00	0	47	104	0	60	1048575
2026-01-18 08:39:15.19	327.70	58.01	-85.2	-88.6	3.0	1.56e+00	0	47	104	0	60	1048575
2026-01-18 08:39:19.21	328.23	56.47	-85.2	-88.6	3.1	1.55e+00	0	47	104	0	60	1048574
2026-01-18 08:39:23.24	328.72	54.97	-85.2	-88.6	3.0	1.56e+00	0	47	104	0	60	1048575
2026-01-18 08:39:27.27	329.15	53.50	-85.2	-88.6	3.1	1.56e+00	0	47	104	0	60	1048574
2026-01-18 08:39:31.29	329.55	52.08	-85.2	-88.6	3.0	1.55e+00	0	47	104	0	60	1048575
2026-01-18 08:39:35.32	329.91	50.69	-85.2	-88.6	3.0	1.55e+00	0	47	104	0	60	1048574
2026-01-18 08:39:39.35	330.24	49.35	-85.2	-88.6	3.0	1.56e+00	0	47	104	0	60	1048574
2026-01-18 08:39:43.38	330.55	48.04	-85.2	-88.6	2.9	1.56e+00	0	47	104	0	60	1048575
2026-01-18 08:39:47.40	330.83	46.77	-85.2	-88.6	3.2	1.55e+00	0	47	104	0	60	1048573
2026-01-18 08:39:51.43	331.09	45.54	-85.2	-88.6	2.9	1.56e+00	0	47	104	0	60	1048575
2026-01-18 08:39:55.46	331.33	44.34	-85.2	-88.6	3.0	1.56e+00	0	47	104	0	60	1048575
2026-01-18 08:39:59.49	331.56	43.18	-85.2	-88.6	3.2	1.56e+00	0	47	104	0	60	1048574
2026-01-18 08:40:03.51	331.77	42.06	-85.2	-88.6	2.9	1.56e+00	0	47	104	0	60	1048575
2026-01-18 08:40:07.54	331.97	40.96	-85.2	-88.6	3.0	1.56e+00	0	47	104	0	60	1048575
2026-01-18 08:40:11.57	332.16	39.90	-85.2	-88.6	2.9	1.56e+00	0	47	104	0	60	1048575
2026-01-18 08:40:15.60	332.34	38.87	-85.2	-88.6	3.1	1.55e+00	0	47	104	0	60	1048574
2026-01-18 08:40:19.63	332.51	37.87	-85.2	-88.6	2.9	1.56e+00	0	47	104	0	60	1048575
2026-01-18 08:40:23.65	332.67	36.90	-85.2	-88.6	2.9	1.55e+00	0	47	104	0	60	1048574
2026-01-18 08:40:27.68	332.82	35.95	-85.2	-88.6	3.4	1.56e+00	0	47	104	0	60	1048574
2026-01-18 08:40:31.71	332.96	35.04	-85.2	-88.6	3.1	1.56e+00	0	47	104	0	60	1048573
2026-01-18 08:40:35.75	333.10	34.14	-85.2	-88.6	3.2	1.55e+00	0	47	104	0	60	1048572
2026-01-18 08:40:39.77	333.23	33.28	-85.2	-88.6	3.1	1.56e+00	0	47	104	0	60	1048574
2026-01-18 08:40:43.80	333.35	32.43	-85.2	-88.6	3.0	1.56e+00	0	47	104	0	60	1048575
2026-01-18 08:40:47.84	333.47	31.61	-85.2	-88.6	2.9	1.56e+00	0	47	104	0	60	1048574
2026-01-18 08:40:51.86	333.58	30.82	-85.2	-88.6	2.9	1.56e+00	0	47	104	0	60	1048575
2026-01-18 08:40:55.89	333.69	30.04	-85.2	-88.6	3.0	1.56e+00	0	47	104	0	60	1048575
2026-01-18 08:40:59.92	333.80	29.29	-85.2	-88.6	3.1	1.56e+00	0	47	104	0	60	1048575
2026-01-18 08:41:03.96	333.90	28.55	-85.2	-88.6	2.9	1.56e+00	0	47	104	0	60	1048575
2026-01-18 08:41:07.99	334.00	27.83	-85.2	-88.6	3.1	1.56e+00	0	47	104	0	60	1048575
2026-01-18 08:41:12.02	334.09	27.13	-85.2	-88.6	3.2	1.56e+00	0	47	104	0	60	1048573
2026-01-18 08:41:16.05	334.18	26.45	-85.2	-88.6	3.0	1.56e+00	0	47	104	0	60	1048573
2026-01-18 08:41:20.08	334.27	25.79	-85.2	-88.6	2.7	1.55e+00	0	47	104	0	60	1048573
2026-01-18 08:41:24.12	334.35	25.14	-85.2	-88.6	3.1	1.56e+00	0	47	104	0	60	1048575
2026-01-18 08:41:28.15	334.44	24.50	-85.2	-88.6	3.0	1.56e+00	0	47	104	0	60	1048575
2026-01-18 08:41:32.17	334.52	23.89	-85.2	-88.6	2.9	1.56e+00	0	47	104	0	60	1048575
2026-01-18 08:41:36.21	334.59	23.28	-85.2	-88.6	2.9	1.56e+00	0	47	104	0	60	1048575
2026-01-18 08:41:40.24	334.67	22.69	-85.2	-88.6	2.8	1.56e+00	0	47	104	0	60	1048575
2026-01-18 08:41:44.27	334.74	22.12	-85.2	-88.6	3.1	1.55e+00	0	47	104	0	60	1048574
2026-01-18 08:41:48.29	334.81	21.55	-85.2	-88.6	3.0	1.55e+00	0	47	104	0	60	1048575
2026-01-18 08:41:52.32	334.88	21.00	-85.2	-88.6	3.0	1.56e+00	0	47	104	0	60	1048575
2026-01-18 08:41:56.34	334.95	20.46	-85.2	-88.6	2.9	1.56e+00	0	47	104	0	60	1048575
2026-01-18 08:42:00.37	335.01	19.94	-85.2	-88.6	2.9	1.55e+00	0	47	104	0	60	1048574
2026-01-18 08:42:04.39	335.08	19.42	-85.2	-88.6	2.8	1.55e+00	0	47	104	0	60	1048572
2026-01-18 08:42:08.42	335.14	18.91	-85.2	-88.6	2.9	1.56e+00	0	47	104	0	60	1048574
2026-01-18 08:42:12.45	335.20	18.42	-85.2	-88.6	3.1	1.56e+00	0	47	104	0	60	1048570
2026-01-18 08:42:16.48	335.26	17.93	-85.2	-88.6	3.1	1.55e+00	0	47	104	0	60	1048573
2026-01-18 08:42:20.50	335.32	17.45	-85.2	-88.6	3.1	1.56e+00	0	47	104	0	60	1048575
2026-01-18 08:42:24.53	335.37	16.98	-85.2	-88.6	2.9	1.55e+00	0	47	104	0	60	1048575
2026-01-18 08:42:28.56	335.43	16.53	-84.7	-88.6	2.9	1.56e+00	0	47	104	0	60	1048575
2026-01-18 08:42:32.58	335.48	16.08	-85.2	-88.6	3.0	1.56e+00	0	47	104	0	60	1048575
2026-01-18 08:42:36.61	335.54	15.63	-85.2	-88.6	2.9	1.56e+00	0	47	104	0	60	1048575
2026-01-18 08:42:40.64	335.59	15.20	-85.2	-88.6	2.9	1.56e+00	0	47	104	0	60	1048573
2026-01-18 08:42:44.68	335.64	14.77	-85.2	-88.6	2.9	1.56e+00	0	47	104	0	60	1048575
2026-01-18 08:42:48.70	335.69	14.35	-85.2	-88.6	2.9	1.55e+00	0	47	104	0	60	1048575
2026-01-18 08:42:52.73	335.74	13.94	-83.9	-88.6	3.2	1.56e+00	0	47	104	0	60	1048575
2026-01-18 08:42:56.75	335.79	13.53	-85.2	-88.6	3.0	1.56e+00	0	47	104	0	60	1048571
2026-01-18 08:43:00.77	335.84	13.14	-85.2	-88.6	3.0	1.56e+00	0	47	104	0	60	1048575
2026-01-18 08:43:04.79	335.88	12.74	-85.2	-88.6	2.9	1.55e+00	0	47	104	0	60	1048575
2026-01-18 08:43:08.82	335.93	12.36	-85.2	-88.6	2.8	1.56e+00	0	47	104	0	60	1048575
2026-01-18 08:43:12.85	335.98	11.98	-85.2	-88.6	3.0	1.56e+00	0	47	104	0	60	1048575
2026-01-18 08:43:16.89	336.02	11.60	-85.2	-88.6	2.9	1.56e+00	0	47	104	0	60	1048575
2026-01-18 08:43:20.92	336.06	11.23	-85.2	-88.6	2.8	1.56e+00	0	47	104	0	60	1048571
2026-01-18 08:43:24.93	336.11	10.87	-85.2	-88.6	3.1	1.56e+00	0	47	104	0	60	1048575
2026-01-18 08:43:28.94	336.15	10.52	-85.2	-88.6	3.1	1.56e+00	0	47	104	0	60	1048575
2026-01-18 08:43:32.97	336.19	10.16	-85.2	-88.6	2.9	1.55e+00	0	47	104	0	60	1048574
2026-01-18 08:43:37.00	336.23	9.81	-85.2	-88.6	3.1	1.56e+00	0	47	104	0	60	1048575
2026-01-18 08:43:41.02	336.28	9.47	-85.2	-88.6	3.1	1.55e+00	0	47	104	0	60	1048574
2026-01-18 08:43:45.04	336.32	9.13	-85.2	-88.6	3.0	1.55e+00	0	47	104	0	60	1048573
2026-01-18 08:43:49.07	336.36	8.80	-85.2	-88.6	3.1	1.56e+00	0	47	104	0	60	1048572
2026-01-18 08:43:53.10	336.40	8.47	-85.2	-88.6	2.9	1.56e+00	0	47	104	0	60	1048575
2026-01-18 08:43:57.13	336.43	8.15	-85.2	-88.6	3.1	1.56e+00	0	47	104	0	60	1048575
2026-01-18 08:44:01.16	336.47	7.82	-85.2	-88.6	3.0	1.55e+00	0	47	104	0	60	1048574
2026-01-18 08:44:05.19	336.51	7.51	-85.2	-88.6	3.0	1.56e+00	0	47	104	0	60	1048573
2026-01-18 08:44:09.22	336.55	7.19	-85.2	-88.6	3.0	1.56e+00	0	47	104	0	60	1048575
2026-01-18 08:44:13.25	336.59	6.88	-85.2	-88.6	3.0	1.55e+00	0	47	104	0	60	1048572
2026-01-18 08:44:17.27	336.62	6.58	-85.2	-88.6	2.9	1.55e+00	0	47	104	0	60	1048575
2026-01-18 08:44:21.30	336.66	6.28	-85.2	-88.6	2.8	1.56e+00	0	47	104	0	60	1048575
2026-01-18 08:44:25.31	336.70	5.98	-85.2	-88.6	3.1	1.56e+00	0	47	104	0	60	1048575
2026-01-18 08:44:29.33	336.73	5.69	-85.2	-88.6	3.1	1.56e+00	0	47	104	0	60	1048574
2026-01-18 08:44:33.35	336.77	5.39	-85.2	-88.6	3.0	1.55e+00	0	47	104	0	60	1048572
2026-01-18 08:44:37.37	336.80	5.11	-85.2	-88.6	3.1	1.56e+00	0	47	104	0	60	1048574
2026-01-18 08:44:41.40	336.84	4.82	-85.2	-88.6	3.1	1.56e+00	0	47	104	0	60	1048572
2026-01-18 08:44:45.42	336.87	4.54	-85.2	-88.6	3.1	1.56e+00	0	47	104	0	60	1048574
2026-01-18 08:44:49.43	336.90	4.26	-85.2	-88.6	3.3	1.56e+00	0	47	104	0	60	1048575
2026-01-18 08:44:53.45	336.94	3.98	-85.2	-88.6	2.9	1.55e+00	0	47	104	0	60	1048575
2026-01-18 08:44:57.46	336.97	3.71	-85.2	-88.6	3.0	1.56e+00	0	47	104	0	60	1048573
2026-01-18 08:45:01.48	337.00	3.44	-85.2	-88.6	3.1	1.56e+00	0	47	104	0	60	1048575
2026-01-18 08:45:05.51	337.04	3.17	-85.2	-88.6	3.0	1.55e+00	0	47	104	0	60	1048572
2026-01-18 08:45:09.53	337.07	2.91	-85.2	-88.6	3.1	1.56e+00	0	47	104	0	60	1048574
2026-01-18 08:45:13.54	337.10	2.64	-85.2	-88.6	3.0	1.55e+00	0	47	104	0	60	1048575
2026-01-18 08:45:17.55	337.13	2.38	-85.2	-88.6	2.8	1.56e+00	0	47	104	0	60	1048564
2026-01-18 08:45:21.56	337.17	2.13	-85.2	-88.6	3.0	1.56e+00	0	47	104	0	60	1048574
2026-01-18 08:45:25.58	337.20	1.87	-85.2	-88.6	3.2	1.56e+00	0	47	104	0	60	1048575
2026-01-18 08:45:29.59	337.23	1.62	-85.2	-88.6	2.9	1.55e+00	0	47	104	0	60	1048575
2026-01-18 08:45:33.61	337.26	1.36	-85.2	-88.6	2.8	1.56e+00	0	47	104	0	60	1048574
2026-01-18 08:45:37.61	337.29	1.12	-85.2	-88.6	3.2	1.55e+00	0	47	104	0	60	1048574
2026-01-18 08:45:41.63	337.32	0.87	-85.2	-88.6	3.1	1.55e+00	0	47	104	0	60	1048575
2026-01-18 08:45:45.65	337.35	0.62	-85.2	-88.6	3.0	1.56e+00	0	47	104	0	60	1048575
2026-01-18 08:45:49.68	337.38	0.38	-85.2	-88.6	2.9	1.55e+00	0	47	104	0	60	1048575
2026-01-18 08:45:53.70	337.41	0.14	-85.2	-88.6	3.0	1.56e+00	0	47	104	0	60	1048574

#Closed at: 2026-01-18 08:45:56
#Recorded file [0 MB]: D:/Data/35015_260118_113027.dat