passes_logs/2026/01/18/R3.2S-Naryan-Mar/R3.2S-Naryan-Mar__20260118_051158_SUOMI_NPP_rec.log

#Pass ID: 20260118_051158_SUOMI NPP
#Satellite: SUOMI NPP
#Configuration: NPP
#almurnet v.1.7.20240730
#Start time: 2026-01-18 05:12:02

#Version: 2.2.20231116
#Station: R3.2S-Naryan-Mar
#Location: 53.008057 lon 67.646978 lat
#TLE: 1 37849U 11061A   26017.28905266  .00000074  00000+0  55894-4 0  9999
#TLE: 2 37849  98.7814 319.3179 0002408  59.7048 300.4366 14.19525847737038

#Time	Az	El	Level	Level2	SNR	BER	BlckErr	Temp	State	Recorded	gain1	gain2
2026-01-18 05:12:02.51	83.58	0.19	-82.8	-79.0	2.5	0.00e+00	0	45	0	0	60	1048574
2026-01-18 05:12:06.54	83.36	0.41	-85.2	-88.6	3.0	1.55e+00	0	46	104	0	60	1048575
2026-01-18 05:12:10.56	83.13	0.63	-85.2	-88.6	3.0	1.56e+00	0	46	104	0	60	1048574
2026-01-18 05:12:14.60	82.89	0.86	-85.2	-88.6	3.2	1.56e+00	0	46	104	0	60	1048575
2026-01-18 05:12:18.62	82.66	1.08	-85.2	-88.6	2.9	1.56e+00	0	46	104	0	60	1048574
2026-01-18 05:12:22.64	82.42	1.30	-85.2	-88.6	2.8	1.56e+00	0	46	104	0	60	1048572
2026-01-18 05:12:26.68	82.17	1.53	-84.7	-88.6	3.1	1.56e+00	0	46	104	0	60	1048574
2026-01-18 05:12:30.70	81.92	1.75	-85.2	-88.6	3.0	1.56e+00	0	46	104	0	60	1048574
2026-01-18 05:12:34.73	81.67	1.98	-85.2	-88.6	2.9	1.56e+00	0	46	104	0	60	1048575
2026-01-18 05:12:38.76	81.41	2.21	-85.2	-88.6	3.0	1.55e+00	0	47	104	0	60	1048575
2026-01-18 05:12:42.79	81.15	2.44	-85.2	-88.6	3.0	1.55e+00	0	47	104	0	60	1048574
2026-01-18 05:12:46.82	80.88	2.67	-84.7	-88.6	3.1	1.56e+00	0	46	104	0	60	1048572
2026-01-18 05:12:50.84	80.61	2.91	-85.2	-88.6	3.0	1.56e+00	0	47	104	0	60	1048575
2026-01-18 05:12:54.86	80.34	3.14	-85.2	-88.6	3.0	1.56e+00	0	47	104	0	60	1048575
2026-01-18 05:12:58.88	80.06	3.38	-85.2	-88.6	3.0	1.55e+00	0	47	104	0	60	1048575
2026-01-18 05:13:02.91	79.78	3.61	-85.2	-88.6	3.1	1.55e+00	0	47	104	0	60	1048574
2026-01-18 05:13:06.93	79.49	3.85	-85.2	-88.6	3.0	1.56e+00	0	47	104	0	60	1048574
2026-01-18 05:13:10.94	79.19	4.09	-85.2	-88.6	3.0	1.56e+00	0	47	104	0	60	1048574
2026-01-18 05:13:14.97	78.89	4.33	-85.2	-88.6	3.1	1.56e+00	0	47	104	0	60	1048573
2026-01-18 05:13:19.00	78.59	4.58	-85.2	-88.6	3.2	1.56e+00	0	47	104	0	60	1048575
2026-01-18 05:13:23.03	78.28	4.82	-85.2	-88.6	2.9	1.56e+00	0	47	104	0	60	1048574
2026-01-18 05:13:27.06	77.97	5.07	-85.2	-88.6	2.9	1.56e+00	0	47	104	0	60	1048574
2026-01-18 05:13:31.07	77.65	5.31	-85.2	-88.6	3.0	1.55e+00	0	47	104	0	60	1048574
2026-01-18 05:13:35.10	77.32	5.56	-85.2	-88.6	3.0	1.56e+00	0	47	104	0	60	1048574
2026-01-18 05:13:39.12	76.99	5.81	-85.2	-88.6	2.9	1.56e+00	0	47	104	0	60	1048575
2026-01-18 05:13:43.15	76.65	6.06	-85.2	-88.6	3.1	1.56e+00	0	47	104	0	60	1048575
2026-01-18 05:13:47.18	76.30	6.31	-85.2	-88.6	2.8	1.56e+00	0	47	104	0	60	1048574
2026-01-18 05:13:51.21	75.95	6.57	-84.3	-88.6	3.0	1.56e+00	0	47	104	0	60	1048574
2026-01-18 05:13:55.24	75.60	6.83	-85.2	-88.6	3.0	1.55e+00	0	47	104	0	60	1048575
2026-01-18 05:13:59.26	75.23	7.08	-85.2	-88.6	3.1	1.55e+00	0	47	104	0	60	1048575
2026-01-18 05:14:03.27	74.87	7.34	-85.2	-88.6	3.1	1.56e+00	0	47	104	0	60	1048572
2026-01-18 05:14:07.30	74.49	7.60	-85.2	-88.6	2.9	1.56e+00	0	47	104	0	60	1048574
2026-01-18 05:14:11.33	74.10	7.86	-85.2	-88.6	3.1	1.56e+00	0	47	104	0	60	1048574
2026-01-18 05:14:15.36	73.71	8.13	-84.3	-88.6	2.9	1.56e+00	0	47	104	0	60	1048573
2026-01-18 05:14:19.39	73.31	8.39	-85.2	-88.6	2.8	1.56e+00	0	47	104	0	60	1048573
2026-01-18 05:14:23.42	72.91	8.66	-85.2	-88.6	3.1	1.55e+00	0	47	104	0	60	1048575
2026-01-18 05:14:27.45	72.49	8.92	-85.2	-88.6	2.9	1.56e+00	0	47	104	0	60	1048573
2026-01-18 05:14:31.47	72.07	9.19	-85.2	-88.6	2.7	1.55e+00	0	47	104	0	60	1048574
2026-01-18 05:14:35.49	71.64	9.46	-85.2	-88.6	3.1	1.56e+00	0	47	104	0	60	1048575
2026-01-18 05:14:39.51	71.21	9.73	-85.2	-88.6	2.8	1.56e+00	0	47	104	0	60	1048575
2026-01-18 05:14:43.54	70.76	10.01	-85.2	-88.6	2.9	1.56e+00	0	47	104	0	60	1048575
2026-01-18 05:14:47.58	70.30	10.28	-85.2	-88.6	3.1	1.56e+00	0	47	104	0	60	1048575
2026-01-18 05:14:51.60	69.84	10.56	-85.2	-88.6	3.0	1.56e+00	0	47	104	0	60	1048573
2026-01-18 05:14:55.62	69.37	10.83	-84.7	-88.6	2.8	1.56e+00	0	47	104	0	60	1048573
2026-01-18 05:14:59.65	68.88	11.11	-85.2	-88.6	3.1	1.56e+00	0	47	104	0	60	1048573
2026-01-18 05:15:03.67	68.39	11.39	-85.2	-88.6	3.0	1.55e+00	0	47	104	0	60	1048575
2026-01-18 05:15:07.68	67.89	11.67	-85.2	-88.6	3.0	1.56e+00	0	47	104	0	60	1048574
2026-01-18 05:15:11.72	67.38	11.95	-85.2	-88.6	3.0	1.56e+00	0	47	104	0	60	1048575
2026-01-18 05:15:15.75	66.86	12.23	-85.2	-88.6	3.1	1.56e+00	0	47	104	0	60	1048571
2026-01-18 05:15:19.77	66.33	12.51	-85.2	-88.6	2.9	1.56e+00	0	47	104	0	60	1048573
2026-01-18 05:15:23.80	65.78	12.80	-85.2	-88.6	3.1	1.55e+00	0	47	104	0	60	1048575
2026-01-18 05:15:27.82	65.23	13.08	-85.2	-88.6	3.1	1.56e+00	0	47	104	0	60	1048573
2026-01-18 05:15:31.85	64.67	13.36	-85.2	-88.6	2.9	1.56e+00	0	47	104	0	60	1048575
2026-01-18 05:15:35.87	64.09	13.65	-85.2	-88.6	3.1	1.56e+00	0	47	104	0	60	1048575
2026-01-18 05:15:39.89	63.51	13.93	-85.2	-88.6	3.1	1.55e+00	0	47	104	0	60	1048574
2026-01-18 05:15:43.92	62.91	14.22	-85.2	-88.6	2.9	1.56e+00	0	47	104	0	60	1048575
2026-01-18 05:15:47.95	62.30	14.51	-85.2	-88.6	3.0	1.56e+00	0	47	104	0	60	1048573
2026-01-18 05:15:51.98	61.68	14.79	-85.2	-88.6	3.0	1.56e+00	0	47	104	0	60	1048573
2026-01-18 05:15:55.99	61.04	15.08	-84.7	-88.6	2.9	1.56e+00	0	47	104	0	60	1048575
2026-01-18 05:16:00.01	60.40	15.36	-85.2	-88.6	2.6	1.56e+00	0	47	104	0	60	1048574
2026-01-18 05:16:04.04	59.74	15.65	-85.2	-88.6	3.0	1.56e+00	0	47	104	0	60	1048571
2026-01-18 05:16:08.07	59.07	15.93	-85.2	-88.6	3.0	1.55e+00	0	47	104	0	60	1048575
2026-01-18 05:16:12.10	58.38	16.22	-85.2	-88.6	3.0	1.56e+00	0	47	104	0	60	1048575
2026-01-18 05:16:16.13	57.68	16.50	-85.2	-88.6	3.1	1.55e+00	0	47	104	0	60	1048575
2026-01-18 05:16:20.15	56.97	16.78	-85.2	-88.6	3.0	1.55e+00	0	47	104	0	60	1048575
2026-01-18 05:16:24.19	56.24	17.06	-85.2	-88.6	3.0	1.56e+00	0	47	104	0	60	1048572
2026-01-18 05:16:28.21	55.50	17.34	-85.2	-88.6	3.0	1.56e+00	0	47	104	0	60	1048575
2026-01-18 05:16:32.23	54.75	17.62	-85.2	-88.6	2.9	1.56e+00	0	47	104	0	60	1048574
2026-01-18 05:16:36.26	53.98	17.89	-85.2	-88.6	3.0	1.55e+00	0	47	104	0	60	1048574
2026-01-18 05:16:40.29	53.20	18.16	-85.2	-88.6	3.0	1.56e+00	0	47	104	0	60	1048575
2026-01-18 05:16:44.32	52.41	18.43	-85.2	-88.6	3.2	1.56e+00	0	47	104	0	60	1048573
2026-01-18 05:16:48.35	51.60	18.70	-85.2	-88.6	2.7	1.56e+00	0	47	104	0	60	1048575
2026-01-18 05:16:52.38	50.77	18.96	-85.2	-88.6	3.0	1.56e+00	0	47	104	0	60	1048575
2026-01-18 05:16:56.41	49.93	19.22	-85.2	-88.6	3.0	1.56e+00	0	47	104	0	60	1048575
2026-01-18 05:17:00.43	49.08	19.48	-85.2	-88.6	3.0	1.56e+00	0	47	104	0	60	1048574
2026-01-18 05:17:04.46	48.21	19.73	-85.2	-88.6	3.0	1.56e+00	0	47	104	0	60	1048575
2026-01-18 05:17:08.49	47.33	19.98	-85.2	-88.6	3.1	1.55e+00	0	47	104	0	60	1048575
2026-01-18 05:17:12.52	46.43	20.22	-85.2	-88.6	3.1	1.56e+00	0	47	104	0	60	1048575
2026-01-18 05:17:16.54	45.52	20.45	-84.7	-88.6	3.1	1.56e+00	0	47	104	0	60	1048575
2026-01-18 05:17:20.57	44.60	20.69	-85.2	-88.6	2.9	1.55e+00	0	47	104	0	60	1048573
2026-01-18 05:17:24.60	43.66	20.91	-85.2	-88.6	2.9	1.56e+00	0	47	104	0	60	1048575
2026-01-18 05:17:28.63	42.70	21.13	-85.2	-88.6	3.1	1.56e+00	0	47	104	0	60	1048572
2026-01-18 05:17:32.65	41.74	21.34	-85.2	-88.6	3.0	1.55e+00	0	47	104	0	60	1048574
2026-01-18 05:17:36.68	40.76	21.55	-85.2	-88.6	2.8	1.56e+00	0	47	104	0	60	1048574
2026-01-18 05:17:40.70	39.77	21.74	-85.2	-88.6	2.8	1.55e+00	0	47	104	0	60	1048575
2026-01-18 05:17:44.73	38.77	21.94	-85.2	-88.6	3.2	1.56e+00	0	47	104	0	60	1048573
2026-01-18 05:17:48.76	37.75	22.12	-85.2	-88.6	3.0	1.56e+00	0	47	104	0	60	1048573
2026-01-18 05:17:52.79	36.72	22.29	-85.2	-88.6	3.1	1.55e+00	0	47	104	0	60	1048574
2026-01-18 05:17:56.81	35.68	22.45	-85.2	-88.6	2.9	1.55e+00	0	47	104	0	60	1048575
2026-01-18 05:18:00.84	34.63	22.61	-85.2	-88.6	2.8	1.56e+00	0	47	104	0	60	1048573
2026-01-18 05:18:04.86	33.57	22.75	-85.2	-88.6	3.0	1.56e+00	0	47	104	0	60	1048572
2026-01-18 05:18:08.88	32.50	22.89	-85.2	-88.6	2.7	1.56e+00	0	47	104	0	60	1048575
2026-01-18 05:18:12.91	31.42	23.02	-85.2	-88.6	3.2	1.56e+00	0	47	104	0	60	1048575
2026-01-18 05:18:16.93	30.34	23.13	-85.2	-88.6	2.9	1.55e+00	0	47	104	0	60	1048575
2026-01-18 05:18:20.97	29.24	23.24	-85.2	-88.6	3.0	1.55e+00	0	47	104	0	60	1048574
2026-01-18 05:18:25.00	28.13	23.33	-85.2	-88.6	3.0	1.56e+00	0	47	104	0	60	1048573
2026-01-18 05:18:29.02	27.03	23.41	-85.2	-88.6	2.9	1.56e+00	0	47	104	0	60	1048575
2026-01-18 05:18:33.05	25.91	23.48	-85.2	-88.6	2.9	1.56e+00	0	47	104	0	60	1048574
2026-01-18 05:18:37.08	24.79	23.54	-83.5	-88.6	2.9	1.56e+00	0	47	104	0	60	1048575
2026-01-18 05:18:41.11	23.67	23.59	-85.2	-88.6	2.9	1.56e+00	0	47	104	0	60	1048574
2026-01-18 05:18:45.13	22.55	23.62	-85.2	-88.6	2.9	1.55e+00	0	47	104	0	60	1048575
2026-01-18 05:18:49.17	21.41	23.65	-85.2	-88.6	3.0	1.56e+00	0	47	104	0	60	1048575
2026-01-18 05:18:53.19	20.29	23.66	-85.2	-88.6	2.9	1.55e+00	0	47	104	0	60	1048574
2026-01-18 05:18:57.22	19.16	23.66	-85.2	-88.6	3.0	1.55e+00	0	47	104	0	60	1048574
2026-01-18 05:19:01.23	18.03	23.64	-85.2	-88.6	3.0	1.56e+00	0	47	104	0	60	1048574
2026-01-18 05:19:05.24	16.91	23.62	-85.2	-88.6	2.9	1.56e+00	0	47	104	0	60	1048574
2026-01-18 05:19:09.27	15.79	23.58	-85.2	-88.6	3.2	1.56e+00	0	47	104	0	60	1048575
2026-01-18 05:19:13.31	14.66	23.53	-85.2	-88.6	3.2	1.55e+00	0	47	104	0	60	1048575
2026-01-18 05:19:17.34	13.54	23.47	-85.2	-88.6	3.1	1.56e+00	0	47	104	0	60	1048574
2026-01-18 05:19:21.37	12.43	23.40	-85.2	-88.6	3.1	1.56e+00	0	47	104	0	60	1048573
2026-01-18 05:19:25.41	11.32	23.32	-85.2	-88.6	3.1	1.55e+00	0	47	104	0	60	1048571
2026-01-18 05:19:29.44	10.22	23.22	-85.2	-88.6	3.0	1.55e+00	0	47	104	0	60	1048574
2026-01-18 05:19:33.45	9.13	23.12	-85.2	-88.6	3.0	1.55e+00	0	47	104	0	60	1048575
2026-01-18 05:19:37.48	8.04	23.00	-85.2	-88.6	3.1	1.56e+00	0	47	104	0	60	1048575
2026-01-18 05:19:41.51	6.96	22.88	-85.2	-88.6	3.0	1.56e+00	0	47	104	0	60	1048573
2026-01-18 05:19:45.54	5.89	22.74	-85.2	-88.6	2.9	1.56e+00	0	47	104	0	60	1048574
2026-01-18 05:19:49.57	4.83	22.59	-85.2	-88.6	3.1	1.56e+00	0	47	104	0	60	1048572
2026-01-18 05:19:53.60	3.78	22.44	-85.2	-88.6	3.1	1.56e+00	0	47	104	0	60	1048575
2026-01-18 05:19:57.63	2.74	22.27	-85.2	-88.6	3.0	1.56e+00	0	47	104	0	60	1048574
2026-01-18 05:20:01.66	1.72	22.10	-85.2	-88.6	2.8	1.56e+00	0	47	104	0	60	1048574
2026-01-18 05:20:05.68	0.70	21.92	-85.2	-88.6	3.0	1.56e+00	0	47	104	0	60	1048575
2026-01-18 05:20:09.71	359.70	21.73	-85.2	-88.6	3.1	1.56e+00	0	47	104	0	60	1048574
2026-01-18 05:20:13.74	358.71	21.53	-85.2	-88.6	2.9	1.55e+00	0	47	104	0	60	1048573
2026-01-18 05:20:17.77	357.74	21.32	-85.2	-88.6	3.0	1.56e+00	0	47	104	0	60	1048573
2026-01-18 05:20:21.79	356.77	21.11	-85.2	-88.6	2.8	1.55e+00	0	47	104	0	60	1048574
2026-01-18 05:20:25.82	355.82	20.89	-85.2	-88.6	3.0	1.56e+00	0	47	104	0	60	1048574
2026-01-18 05:20:29.85	354.89	20.66	-85.2	-88.6	3.1	1.55e+00	0	47	104	0	60	1048574
2026-01-18 05:20:33.88	353.97	20.43	-85.2	-88.6	3.0	1.56e+00	0	47	104	0	60	1048575
2026-01-18 05:20:37.90	353.06	20.19	-85.2	-88.6	3.0	1.55e+00	0	47	104	0	60	1048575
2026-01-18 05:20:41.93	352.17	19.95	-85.2	-88.6	3.0	1.56e+00	0	47	104	0	60	1048575
2026-01-18 05:20:45.96	351.29	19.71	-85.2	-88.6	3.1	1.56e+00	0	47	104	0	60	1048575
2026-01-18 05:20:49.99	350.42	19.45	-85.2	-88.6	3.2	1.56e+00	0	47	104	0	60	1048574
2026-01-18 05:20:54.02	349.57	19.20	-85.2	-88.6	3.1	1.55e+00	0	47	104	0	60	1048575
2026-01-18 05:20:58.05	348.73	18.94	-85.2	-88.6	3.1	1.56e+00	0	47	104	0	60	1048573
2026-01-18 05:21:02.07	347.91	18.68	-85.2	-88.6	3.0	1.56e+00	0	47	104	0	60	1048574
2026-01-18 05:21:06.10	347.11	18.41	-85.2	-88.6	3.0	1.56e+00	0	47	104	0	60	1048575
2026-01-18 05:21:10.13	346.31	18.14	-85.2	-88.6	2.9	1.56e+00	0	47	104	0	60	1048571
2026-01-18 05:21:14.17	345.53	17.87	-85.2	-88.6	2.8	1.55e+00	0	47	104	0	60	1048575
2026-01-18 05:21:18.20	344.77	17.59	-85.2	-88.6	3.0	1.55e+00	0	47	104	0	60	1048575
2026-01-18 05:21:22.23	344.02	17.32	-85.2	-88.6	2.8	1.55e+00	0	47	104	0	60	1048572
2026-01-18 05:21:26.26	343.28	17.04	-85.2	-88.6	3.0	1.55e+00	0	47	104	0	60	1048574
2026-01-18 05:21:30.29	342.56	16.76	-85.2	-88.6	3.0	1.56e+00	0	47	104	0	60	1048572
2026-01-18 05:21:34.31	341.85	16.48	-85.2	-88.6	2.9	1.56e+00	0	47	104	0	60	1048575
2026-01-18 05:21:38.34	341.15	16.19	-85.2	-88.6	3.0	1.56e+00	0	47	104	0	60	1048575
2026-01-18 05:21:42.37	340.47	15.91	-85.2	-88.6	2.8	1.56e+00	0	47	104	0	60	1048569
2026-01-18 05:21:46.38	339.80	15.63	-85.2	-88.6	3.1	1.56e+00	0	47	104	0	60	1048575
2026-01-18 05:21:50.40	339.15	15.34	-85.2	-88.6	2.9	1.56e+00	0	47	104	0	60	1048575
2026-01-18 05:21:54.42	338.51	15.06	-85.2	-88.6	2.8	1.56e+00	0	47	104	0	60	1048575
2026-01-18 05:21:58.45	337.87	14.77	-85.2	-88.6	2.9	1.56e+00	0	47	104	0	60	1048574
2026-01-18 05:22:02.47	337.26	14.49	-85.2	-88.6	3.0	1.55e+00	0	47	104	0	60	1048571
2026-01-18 05:22:06.50	336.65	14.20	-85.2	-88.6	3.0	1.56e+00	0	47	104	0	60	1048574
2026-01-18 05:22:10.53	336.05	13.92	-85.2	-88.6	3.0	1.56e+00	0	47	104	0	60	1048575
2026-01-18 05:22:14.56	335.47	13.63	-85.2	-88.6	3.1	1.55e+00	0	47	104	0	60	1048574
2026-01-18 05:22:18.57	334.90	13.35	-85.2	-88.6	3.1	1.56e+00	0	47	104	0	60	1048575
2026-01-18 05:22:22.60	334.34	13.06	-85.2	-88.6	2.8	1.56e+00	0	47	104	0	60	1048574
2026-01-18 05:22:26.62	333.79	12.78	-85.2	-88.6	3.0	1.55e+00	0	47	104	0	60	1048575
2026-01-18 05:22:30.65	333.25	12.50	-85.2	-88.6	2.8	1.55e+00	0	47	104	0	60	1048575
2026-01-18 05:22:34.68	332.72	12.22	-85.2	-88.6	3.0	1.56e+00	0	47	104	0	60	1048571
2026-01-18 05:22:38.70	332.20	11.94	-85.2	-88.6	2.8	1.56e+00	0	47	104	0	60	1048575
2026-01-18 05:22:42.73	331.69	11.66	-85.2	-88.6	3.2	1.55e+00	0	47	104	0	60	1048575
2026-01-18 05:22:46.75	331.19	11.38	-85.2	-88.6	3.1	1.56e+00	0	47	104	0	60	1048575
2026-01-18 05:22:50.78	330.70	11.10	-85.2	-88.6	2.9	1.56e+00	0	47	104	0	60	1048575
2026-01-18 05:22:54.81	330.22	10.82	-85.2	-88.6	3.0	1.55e+00	0	47	104	0	60	1048574
2026-01-18 05:22:58.83	329.75	10.55	-85.2	-88.6	3.1	1.55e+00	0	47	104	0	60	1048575
2026-01-18 05:23:02.86	329.29	10.27	-85.2	-88.6	2.9	1.56e+00	0	47	104	0	60	1048575
2026-01-18 05:23:06.88	328.84	10.00	-85.2	-88.6	2.7	1.56e+00	0	47	104	0	60	1048575
2026-01-18 05:23:10.90	328.40	9.73	-85.2	-88.6	2.9	1.55e+00	0	47	104	0	60	1048571
2026-01-18 05:23:14.93	327.96	9.46	-85.2	-88.6	3.0	1.56e+00	0	47	104	0	60	1048575
2026-01-18 05:23:18.97	327.53	9.18	-85.2	-88.6	3.1	1.56e+00	0	48	104	0	60	1048575
2026-01-18 05:23:22.99	327.11	8.92	-85.2	-88.6	2.9	1.56e+00	0	47	104	0	60	1048575
2026-01-18 05:23:27.00	326.70	8.65	-84.3	-88.6	3.1	1.56e+00	0	47	104	0	60	1048574
2026-01-18 05:23:31.02	326.30	8.39	-85.2	-88.6	2.9	1.56e+00	0	47	104	0	60	1048573
2026-01-18 05:23:35.06	325.90	8.12	-85.2	-88.6	3.2	1.56e+00	0	47	104	0	60	1048572
2026-01-18 05:23:39.08	325.51	7.86	-85.2	-88.6	3.1	1.56e+00	0	47	104	0	60	1048574
2026-01-18 05:23:43.11	325.13	7.60	-84.3	-88.6	3.0	1.56e+00	0	47	104	0	60	1048574
2026-01-18 05:23:47.14	324.76	7.34	-85.2	-88.6	3.2	1.56e+00	0	47	104	0	60	1048575
2026-01-18 05:23:51.17	324.39	7.08	-85.2	-88.6	3.0	1.56e+00	0	47	104	0	60	1048573
2026-01-18 05:23:55.20	324.03	6.82	-85.2	-88.6	2.9	1.56e+00	0	47	104	0	60	1048575
2026-01-18 05:23:59.21	323.67	6.57	-85.2	-88.6	2.9	1.56e+00	0	47	104	0	60	1048575
2026-01-18 05:24:03.24	323.32	6.31	-84.7	-88.6	3.1	1.56e+00	0	47	104	0	60	1048575
2026-01-18 05:24:07.27	322.98	6.06	-85.2	-88.6	3.1	1.56e+00	0	47	104	0	60	1048575
2026-01-18 05:24:11.30	322.65	5.81	-85.2	-88.6	3.0	1.56e+00	0	47	104	0	60	1048575
2026-01-18 05:24:15.33	322.32	5.56	-85.2	-88.6	3.1	1.55e+00	0	47	104	0	60	1048575
2026-01-18 05:24:19.35	321.99	5.31	-85.2	-88.6	3.0	1.56e+00	0	47	104	0	60	1048575
2026-01-18 05:24:23.38	321.67	5.07	-85.2	-88.6	3.1	1.56e+00	0	47	104	0	60	1048573
2026-01-18 05:24:27.41	321.36	4.82	-85.2	-88.6	3.1	1.56e+00	0	47	104	0	60	1048575
2026-01-18 05:24:31.44	321.05	4.58	-85.2	-88.6	3.0	1.55e+00	0	47	104	0	60	1048574
2026-01-18 05:24:35.46	320.75	4.34	-85.2	-88.6	3.2	1.56e+00	0	47	104	0	60	1048574
2026-01-18 05:24:39.50	320.45	4.09	-85.2	-88.6	2.8	1.56e+00	0	47	104	0	60	1048574
2026-01-18 05:24:43.53	320.16	3.85	-85.2	-88.6	3.0	1.55e+00	0	47	104	0	60	1048575
2026-01-18 05:24:47.56	319.87	3.62	-85.2	-88.6	2.7	1.55e+00	0	47	104	0	60	1048575
2026-01-18 05:24:51.59	319.59	3.38	-85.2	-88.6	2.8	1.55e+00	0	47	104	0	60	1048575
2026-01-18 05:24:55.62	319.31	3.14	-85.2	-88.6	3.1	1.56e+00	0	47	104	0	60	1048575
2026-01-18 05:24:59.65	319.04	2.91	-85.2	-88.6	3.1	1.56e+00	0	47	104	0	60	1048574
2026-01-18 05:25:03.67	318.77	2.68	-85.2	-88.6	3.0	1.56e+00	0	47	104	0	60	1048572
2026-01-18 05:25:07.69	318.51	2.45	-85.2	-88.6	2.7	1.56e+00	0	47	104	0	60	1048574
2026-01-18 05:25:11.72	318.25	2.22	-85.2	-88.6	2.9	1.56e+00	0	47	104	0	60	1048575
2026-01-18 05:25:15.75	317.99	1.99	-85.2	-88.6	3.1	1.56e+00	0	47	104	0	60	1048572
2026-01-18 05:25:19.78	317.74	1.76	-85.2	-88.6	2.9	1.55e+00	0	47	104	0	60	1048575
2026-01-18 05:25:23.81	317.50	1.53	-85.2	-88.6	3.0	1.56e+00	0	47	104	0	60	1048574
2026-01-18 05:25:27.84	317.25	1.31	-85.2	-88.6	2.7	1.56e+00	0	47	104	0	60	1048575
2026-01-18 05:25:31.87	317.01	1.08	-85.2	-88.6	3.0	1.56e+00	0	47	104	0	60	1048575
2026-01-18 05:25:35.90	316.78	0.86	-85.2	-88.6	2.8	1.56e+00	0	47	104	0	60	1048573
2026-01-18 05:25:39.92	316.55	0.64	-85.2	-88.6	3.0	1.56e+00	0	47	104	0	60	1048574
2026-01-18 05:25:43.95	316.32	0.42	-85.2	-88.6	3.2	1.56e+00	0	47	104	0	60	1048574
2026-01-18 05:25:47.98	316.09	0.20	-85.2	-88.6	2.9	1.56e+00	0	47	104	0	60	1048575
2026-01-18 05:25:52.01	315.87	-0.02	-85.2	-88.6	3.0	1.56e+00	0	47	104	0	60	1048575

#Closed at: 2026-01-18 05:25:52
#Recorded file [0 MB]: D:/Data/35015_260118_081202.dat