passes_logs/2026/01/18/R3.2S-Naryan-Mar/R3.2S-Naryan-Mar__20260118_112436_NOAA_21_JPSS-2_rec.log

#Pass ID: 20260118_112436_NOAA 21 (JPSS-2)
#Satellite: NOAA 21 (JPSS-2)
#Configuration: NOAA-21
#almurnet v.1.7.20240730
#Start time: 2026-01-18 11:33:27

#Version: 2.2.20231116
#Station: R3.2S-Naryan-Mar
#Location: 53.008057 lon 67.646978 lat
#TLE: 1 54234U 22150A   26017.26823908  .00000042  00000+0  40962-4 0  9992
#TLE: 2 54234  98.7501 318.1405 0000613 274.2947  85.8159 14.19535194165131

#Time	Az	El	Level	Level2	SNR	BER	BlckErr	Temp	State	Recorded	gain1	gain2
2026-01-18 11:33:27.22	316.26	10.40	-83.1	-79.0	2.5	0.00e+00	0	48	0	0	60	1048569
2026-01-18 11:33:28.22	316.42	10.37	-85.2	-88.8	2.7	1.56e+00	0	49	104	0	60	1048573
2026-01-18 11:33:29.23	316.59	10.33	-85.2	-88.8	2.8	1.56e+00	0	49	104	0	60	1048575
2026-01-18 11:33:30.23	316.75	10.29	-85.2	-88.8	2.8	1.56e+00	0	49	104	0	60	1048573
2026-01-18 11:33:31.23	316.91	10.25	-85.2	-88.8	2.8	1.56e+00	0	49	104	0	60	1048572
2026-01-18 11:33:32.24	317.07	10.21	-85.2	-88.8	2.7	1.56e+00	0	49	104	0	60	1048575
2026-01-18 11:33:33.25	317.23	10.17	-85.2	-88.8	2.8	1.56e+00	0	49	104	0	60	1048572
2026-01-18 11:33:34.25	317.39	10.13	-85.2	-88.8	2.7	1.56e+00	0	49	104	0	60	1048574
2026-01-18 11:33:35.26	317.56	10.09	-85.2	-88.8	2.8	1.56e+00	0	49	104	0	60	1048575
2026-01-18 11:33:36.27	317.72	10.05	-85.2	-88.8	2.5	1.56e+00	0	49	104	0	60	1048573
2026-01-18 11:33:37.27	317.88	10.01	-85.2	-88.8	2.5	1.56e+00	0	49	104	0	60	1048573
2026-01-18 11:33:38.28	318.04	9.97	-85.2	-88.8	2.4	1.56e+00	0	49	104	0	60	1048575
2026-01-18 11:33:39.29	318.19	9.93	-85.2	-88.8	2.9	1.56e+00	0	49	104	0	60	1048574
2026-01-18 11:33:40.29	318.35	9.89	-85.2	-88.8	2.7	1.56e+00	0	49	104	0	60	1048572
2026-01-18 11:33:41.30	318.51	9.85	-85.2	-88.8	2.7	1.56e+00	0	49	104	0	60	1048575
2026-01-18 11:33:42.31	318.67	9.81	-85.2	-88.8	2.8	1.56e+00	0	49	104	0	60	1048572
2026-01-18 11:33:43.32	318.83	9.77	-85.2	-88.8	2.6	1.56e+00	0	49	104	0	60	1048571
2026-01-18 11:33:44.32	318.98	9.73	-85.2	-88.8	2.7	1.56e+00	0	49	104	0	60	1048572
2026-01-18 11:33:45.33	319.14	9.69	-85.2	-88.8	2.6	1.56e+00	0	49	104	0	60	1048575
2026-01-18 11:33:46.34	319.30	9.65	-85.2	-88.8	2.6	1.56e+00	0	49	104	0	60	1048574
2026-01-18 11:33:47.35	319.45	9.61	-85.2	-88.8	2.8	1.56e+00	0	49	104	0	60	1048575
2026-01-18 11:33:48.36	319.61	9.57	-85.2	-88.8	2.7	1.56e+00	0	49	104	0	60	1048575
2026-01-18 11:33:49.36	319.76	9.53	-85.2	-88.8	2.7	1.56e+00	0	49	104	0	60	1048575
2026-01-18 11:33:50.37	319.92	9.49	-85.2	-88.8	2.6	1.56e+00	0	49	104	0	60	1048575
2026-01-18 11:33:51.38	320.07	9.44	-85.2	-88.8	2.9	1.56e+00	0	49	104	0	60	1048572
2026-01-18 11:33:52.38	320.23	9.40	-85.2	-88.8	2.6	1.56e+00	0	49	104	0	60	1048575
2026-01-18 11:33:53.39	320.38	9.36	-85.2	-88.8	2.7	1.56e+00	0	49	104	0	60	1048575
2026-01-18 11:33:54.39	320.53	9.32	-85.2	-88.8	2.7	1.56e+00	0	49	104	0	60	1048571
2026-01-18 11:33:55.40	320.69	9.28	-85.2	-88.8	2.8	1.56e+00	0	49	104	0	60	1048572
2026-01-18 11:33:56.41	320.84	9.24	-85.2	-88.8	2.6	1.56e+00	0	49	104	0	60	1048575
2026-01-18 11:33:57.42	320.99	9.19	-85.2	-88.8	2.5	1.56e+00	0	49	104	0	60	1048569
2026-01-18 11:33:58.42	321.14	9.15	-85.2	-88.8	2.7	1.56e+00	0	49	104	0	60	1048574
2026-01-18 11:33:59.43	321.29	9.11	-85.2	-88.8	2.7	1.56e+00	0	49	104	0	60	1048575
2026-01-18 11:34:00.44	321.44	9.07	-85.2	-88.8	2.6	1.56e+00	0	49	104	0	60	1048572
2026-01-18 11:34:01.45	321.59	9.02	-85.2	-88.8	2.8	1.56e+00	0	49	104	0	60	1048575
2026-01-18 11:34:02.46	321.74	8.98	-85.2	-88.8	2.6	1.56e+00	0	49	104	0	60	1048575
2026-01-18 11:34:03.46	321.89	8.94	-85.2	-88.8	2.8	1.56e+00	0	49	104	0	60	1048574
2026-01-18 11:34:04.47	322.04	8.90	-85.2	-88.8	2.7	1.56e+00	0	49	104	0	60	1048568
2026-01-18 11:34:05.48	322.19	8.85	-85.2	-88.8	2.6	1.56e+00	0	49	104	0	60	1048575
2026-01-18 11:34:06.49	322.34	8.81	-85.2	-88.8	2.7	1.56e+00	0	49	104	0	60	1048575
2026-01-18 11:34:07.49	322.48	8.77	-85.2	-88.8	2.8	1.56e+00	0	49	104	0	60	1048573
2026-01-18 11:34:08.50	322.63	8.73	-85.2	-88.8	2.7	1.56e+00	0	49	104	0	60	1048574
2026-01-18 11:34:09.50	322.78	8.68	-85.2	-88.8	2.8	1.56e+00	0	49	104	0	60	1048573
2026-01-18 11:34:10.51	322.92	8.64	-85.2	-88.8	2.7	1.56e+00	0	49	104	0	60	1048573
2026-01-18 11:34:11.51	323.07	8.60	-85.2	-88.8	2.7	1.56e+00	0	49	104	0	60	1048572
2026-01-18 11:34:12.52	323.21	8.55	-85.2	-88.8	2.7	1.56e+00	0	49	104	0	60	1048573
2026-01-18 11:34:13.53	323.36	8.51	-85.2	-88.8	2.8	1.56e+00	0	49	104	0	60	1048573
2026-01-18 11:34:14.54	323.50	8.47	-85.2	-88.8	2.9	1.56e+00	0	49	104	0	60	1048574
2026-01-18 11:34:15.54	323.65	8.42	-85.2	-88.8	2.7	1.56e+00	0	49	104	0	60	1048571
2026-01-18 11:34:16.55	323.79	8.38	-85.2	-88.8	2.8	1.56e+00	0	49	104	0	60	1048574
2026-01-18 11:34:17.56	323.93	8.33	-85.2	-88.8	2.7	1.56e+00	0	49	104	0	60	1048573
2026-01-18 11:34:18.56	324.08	8.29	-85.2	-88.8	2.8	1.56e+00	0	49	104	0	60	1048575
2026-01-18 11:34:19.57	324.22	8.25	-85.2	-88.8	2.8	1.56e+00	0	49	104	0	60	1048575
2026-01-18 11:34:20.58	324.36	8.20	-85.2	-88.8	2.7	1.56e+00	0	49	104	0	60	1048572
2026-01-18 11:34:21.59	324.50	8.16	-85.2	-88.8	2.7	1.56e+00	0	49	104	0	60	1048575
2026-01-18 11:34:22.59	324.64	8.11	-85.2	-88.8	2.7	1.56e+00	0	49	104	0	60	1048575
2026-01-18 11:34:23.60	324.78	8.07	-85.2	-88.8	2.7	1.56e+00	0	49	104	0	60	1048574
2026-01-18 11:34:24.61	324.93	8.03	-85.2	-88.8	2.7	1.56e+00	0	49	104	0	60	1048575
2026-01-18 11:34:25.62	325.07	7.98	-85.2	-88.8	2.7	1.56e+00	0	49	104	0	60	1048575
2026-01-18 11:34:26.62	325.20	7.94	-85.2	-88.8	2.8	1.56e+00	0	49	104	0	60	1048574
2026-01-18 11:34:27.63	325.34	7.89	-85.2	-88.8	2.8	1.56e+00	0	48	104	0	60	1048572
2026-01-18 11:34:28.64	325.48	7.85	-85.2	-88.8	2.7	1.56e+00	0	49	104	0	60	1048571
2026-01-18 11:34:29.64	325.62	7.80	-85.2	-88.8	2.8	1.56e+00	0	48	104	0	60	1048574
2026-01-18 11:34:30.64	325.76	7.76	-85.2	-88.8	2.6	1.56e+00	0	48	104	0	60	1048575
2026-01-18 11:34:31.65	325.90	7.71	-85.2	-88.8	2.9	1.56e+00	0	48	104	0	60	1048574
2026-01-18 11:34:32.65	326.03	7.67	-85.2	-88.8	2.9	1.56e+00	0	48	104	0	60	1048571
2026-01-18 11:34:33.66	326.17	7.63	-85.2	-88.8	2.9	1.56e+00	0	48	104	0	60	1048575
2026-01-18 11:34:34.66	326.30	7.58	-85.2	-88.8	2.6	1.56e+00	0	48	104	0	60	1048574
2026-01-18 11:34:35.67	326.44	7.54	-85.2	-88.8	2.9	1.56e+00	0	48	104	0	60	1048573
2026-01-18 11:34:36.68	326.58	7.49	-85.2	-88.8	2.6	1.56e+00	0	48	104	0	60	1048574
2026-01-18 11:34:37.68	326.71	7.45	-85.2	-88.8	2.6	1.56e+00	0	48	104	0	60	1048575
2026-01-18 11:34:38.69	326.85	7.40	-85.2	-88.8	2.7	1.56e+00	0	48	104	0	60	1048573
2026-01-18 11:34:39.70	326.98	7.36	-85.2	-88.8	2.7	1.56e+00	0	48	104	0	60	1048571
2026-01-18 11:34:40.71	327.11	7.31	-85.2	-88.8	2.7	1.56e+00	0	48	104	0	60	1048571
2026-01-18 11:34:41.71	327.25	7.26	-85.2	-88.8	2.7	1.56e+00	0	48	104	0	60	1048575
2026-01-18 11:34:42.72	327.38	7.22	-85.2	-88.8	2.7	1.56e+00	0	48	104	0	60	1048573
2026-01-18 11:34:43.73	327.51	7.17	-85.2	-88.8	2.7	1.56e+00	0	48	104	0	60	1048573
2026-01-18 11:34:44.74	327.65	7.13	-85.2	-88.8	2.7	1.56e+00	0	48	104	0	60	1048574
2026-01-18 11:34:45.75	327.78	7.08	-85.2	-88.8	2.8	1.56e+00	0	48	104	0	60	1048575
2026-01-18 11:34:46.76	327.91	7.04	-85.2	-88.8	2.8	1.56e+00	0	48	104	0	60	1048573
2026-01-18 11:34:47.76	328.04	6.99	-85.2	-88.8	2.9	1.56e+00	0	48	104	0	60	1048575
2026-01-18 11:34:48.77	328.17	6.95	-85.2	-88.8	2.6	1.56e+00	0	48	104	0	60	1048564
2026-01-18 11:34:49.78	328.30	6.90	-85.2	-88.8	2.8	1.56e+00	0	48	104	0	60	1048571
2026-01-18 11:34:50.79	328.43	6.85	-85.2	-88.8	2.6	1.56e+00	0	48	104	0	60	1048575
2026-01-18 11:34:51.80	328.56	6.81	-85.2	-88.8	2.9	1.56e+00	0	48	104	0	60	1048571
2026-01-18 11:34:52.80	328.69	6.76	-85.2	-88.8	2.5	1.56e+00	0	48	104	0	60	1048571
2026-01-18 11:34:53.81	328.82	6.72	-85.2	-88.8	2.7	1.56e+00	0	48	104	0	60	1048575
2026-01-18 11:34:54.82	328.95	6.67	-85.2	-88.8	2.8	1.56e+00	0	48	104	0	60	1048572
2026-01-18 11:34:55.83	329.08	6.63	-85.2	-88.8	2.7	1.56e+00	0	48	104	0	60	1048575
2026-01-18 11:34:56.84	329.21	6.58	-85.2	-88.8	2.6	1.56e+00	0	48	104	0	60	1048575
2026-01-18 11:34:57.84	329.33	6.53	-85.2	-88.8	3.0	1.56e+00	0	48	104	0	60	1048575
2026-01-18 11:34:58.84	329.46	6.49	-85.2	-88.8	2.7	1.56e+00	0	48	104	0	60	1048573
2026-01-18 11:34:59.85	329.58	6.44	-84.7	-88.8	2.7	1.56e+00	0	48	104	0	60	1048575
2026-01-18 11:35:00.86	329.71	6.40	-85.2	-88.8	2.6	1.56e+00	0	48	104	0	60	1048571
2026-01-18 11:35:01.87	329.84	6.35	-85.2	-88.8	2.7	1.56e+00	0	48	104	0	60	1048573
2026-01-18 11:35:02.87	329.96	6.30	-85.2	-88.8	2.7	1.56e+00	0	48	104	0	60	1048572
2026-01-18 11:35:03.88	330.09	6.26	-85.2	-88.8	2.7	1.56e+00	0	48	104	0	60	1048574
2026-01-18 11:35:04.88	330.21	6.21	-84.7	-88.8	2.9	1.56e+00	0	48	104	0	60	1048575
2026-01-18 11:35:05.89	330.33	6.17	-85.2	-88.8	2.6	1.56e+00	0	48	104	0	60	1048573
2026-01-18 11:35:06.90	330.46	6.12	-85.2	-88.8	2.8	1.56e+00	0	48	104	0	60	1048572
2026-01-18 11:35:07.91	330.58	6.07	-85.2	-88.8	2.6	1.56e+00	0	48	104	0	60	1048574
2026-01-18 11:35:08.91	330.71	6.03	-85.2	-88.8	2.4	1.56e+00	0	48	104	0	60	1048572
2026-01-18 11:35:09.92	330.83	5.98	-85.2	-88.8	2.6	1.56e+00	0	48	104	0	60	1048575
2026-01-18 11:35:10.92	330.95	5.93	-85.2	-88.8	2.8	1.56e+00	0	48	104	0	60	1048572
2026-01-18 11:35:11.93	331.07	5.89	-85.2	-88.8	2.6	1.56e+00	0	48	104	0	60	1048573
2026-01-18 11:35:12.94	331.19	5.84	-85.2	-88.8	2.6	1.56e+00	0	48	104	0	60	1048573
2026-01-18 11:35:13.95	331.32	5.80	-85.2	-88.8	2.8	1.56e+00	0	48	104	0	60	1048575
2026-01-18 11:35:14.96	331.44	5.75	-85.2	-88.8	2.4	1.56e+00	0	48	104	0	60	1048573
2026-01-18 11:35:15.96	331.56	5.70	-85.2	-88.8	2.6	1.56e+00	0	48	104	0	60	1048574
2026-01-18 11:35:16.97	331.68	5.66	-85.2	-88.8	2.8	1.56e+00	0	48	104	0	60	1048573
2026-01-18 11:35:17.98	331.80	5.61	-85.2	-88.8	2.8	1.56e+00	0	48	104	0	60	1048575
2026-01-18 11:35:18.99	331.92	5.56	-85.2	-88.8	2.7	1.56e+00	0	48	104	0	60	1048575
2026-01-18 11:35:19.99	332.03	5.52	-85.2	-88.8	2.8	1.56e+00	0	48	104	0	60	1048574
2026-01-18 11:35:21.00	332.15	5.47	-85.2	-88.8	2.8	1.56e+00	0	48	104	0	60	1048568
2026-01-18 11:35:22.00	332.27	5.42	-85.2	-88.8	2.6	1.56e+00	0	48	104	0	60	1048572
2026-01-18 11:35:23.01	332.39	5.38	-85.2	-88.8	2.6	1.56e+00	0	48	104	0	60	1048574
2026-01-18 11:35:24.02	332.51	5.33	-84.7	-88.8	2.9	1.56e+00	0	48	104	0	60	1048566
2026-01-18 11:35:25.03	332.62	5.28	-85.2	-88.8	2.9	1.56e+00	0	48	104	0	60	1048575
2026-01-18 11:35:26.04	332.74	5.24	-85.2	-88.8	2.7	1.56e+00	0	48	104	0	60	1048574
2026-01-18 11:35:27.04	332.86	5.19	-85.2	-88.8	2.7	1.56e+00	0	48	104	0	60	1048575
2026-01-18 11:35:28.05	332.97	5.14	-85.2	-88.8	3.0	1.56e+00	0	48	104	0	60	1048575
2026-01-18 11:35:29.06	333.09	5.10	-83.9	-88.8	2.7	1.56e+00	0	48	104	0	60	1048575
2026-01-18 11:35:30.07	333.21	5.05	-85.2	-88.8	2.8	1.56e+00	0	48	104	0	60	1048575
2026-01-18 11:35:31.08	333.32	5.00	-85.2	-88.8	2.6	1.56e+00	0	48	104	0	60	1048572
2026-01-18 11:35:32.08	333.44	4.96	-85.2	-88.8	2.7	1.56e+00	0	48	104	0	60	1048572
2026-01-18 11:35:33.09	333.55	4.91	-85.2	-88.8	2.6	1.56e+00	0	48	104	0	60	1048575
2026-01-18 11:35:34.10	333.66	4.86	-85.2	-88.8	2.8	1.56e+00	0	48	104	0	60	1048575
2026-01-18 11:35:35.10	333.78	4.82	-85.2	-88.8	2.7	1.56e+00	0	48	104	0	60	1048575
2026-01-18 11:35:36.10	333.89	4.77	-85.2	-88.8	2.7	1.56e+00	0	48	104	0	60	1048573
2026-01-18 11:35:37.11	334.00	4.72	-85.2	-88.8	2.7	1.56e+00	0	48	104	0	60	1048575
2026-01-18 11:35:38.12	334.12	4.68	-85.2	-88.8	2.9	1.56e+00	0	48	104	0	60	1048575
2026-01-18 11:35:39.12	334.23	4.63	-85.2	-88.8	2.7	1.56e+00	0	48	104	0	60	1048575
2026-01-18 11:35:40.13	334.34	4.58	-85.2	-88.8	2.7	1.56e+00	0	48	104	0	60	1048575
2026-01-18 11:35:41.14	334.45	4.54	-83.9	-88.8	2.4	1.56e+00	0	48	104	0	60	1048574
2026-01-18 11:35:42.15	334.56	4.49	-85.2	-88.8	2.8	1.56e+00	0	48	104	0	60	1048573
2026-01-18 11:35:43.16	334.67	4.44	-85.2	-88.8	2.6	1.56e+00	0	48	104	0	60	1048575
2026-01-18 11:35:44.17	334.79	4.40	-85.2	-88.8	2.8	1.56e+00	0	48	104	0	60	1048573
2026-01-18 11:35:45.17	334.90	4.35	-85.2	-88.8	2.9	1.56e+00	0	48	104	0	60	1048570
2026-01-18 11:35:46.18	335.01	4.30	-83.5	-88.8	2.7	1.56e+00	0	48	104	0	60	1048574
2026-01-18 11:35:47.19	335.12	4.26	-84.7	-88.8	2.6	1.56e+00	0	48	104	0	60	1048575
2026-01-18 11:35:48.19	335.22	4.21	-85.2	-88.8	2.7	1.56e+00	0	48	104	0	60	1048574
2026-01-18 11:35:49.20	335.33	4.16	-85.2	-88.8	2.9	1.56e+00	0	48	104	0	60	1048574
2026-01-18 11:35:50.21	335.44	4.12	-85.2	-88.8	2.7	1.56e+00	0	48	104	0	60	1048566
2026-01-18 11:35:51.22	335.55	4.07	-84.3	-88.8	2.6	1.56e+00	0	48	104	0	60	1048574
2026-01-18 11:35:52.23	335.66	4.02	-85.2	-88.8	2.7	1.56e+00	0	48	104	0	60	1048575
2026-01-18 11:35:53.24	335.77	3.98	-85.2	-88.8	2.5	1.56e+00	0	48	104	0	60	1048575
2026-01-18 11:35:54.24	335.87	3.93	-85.2	-88.8	2.8	1.56e+00	0	48	104	0	60	1048575
2026-01-18 11:35:55.25	335.98	3.88	-85.2	-88.8	2.8	1.56e+00	0	48	104	0	60	1048575
2026-01-18 11:35:56.26	336.09	3.84	-85.2	-88.8	2.7	1.56e+00	0	48	104	0	60	1048575
2026-01-18 11:35:57.27	336.19	3.79	-85.2	-88.8	2.8	1.56e+00	0	48	104	0	60	1048575
2026-01-18 11:35:58.28	336.30	3.74	-85.2	-88.8	2.8	1.56e+00	0	48	104	0	60	1048571
2026-01-18 11:35:59.28	336.41	3.70	-85.2	-88.8	2.7	1.56e+00	0	48	104	0	60	1048572
2026-01-18 11:36:00.29	336.51	3.65	-85.2	-88.8	2.7	1.56e+00	0	48	104	0	60	1048574
2026-01-18 11:36:01.30	336.62	3.60	-85.2	-88.8	2.7	1.56e+00	0	48	104	0	60	1048571
2026-01-18 11:36:02.30	336.72	3.56	-85.2	-88.8	2.6	1.56e+00	0	48	104	0	60	1048575
2026-01-18 11:36:03.31	336.83	3.51	-85.2	-88.8	2.6	1.56e+00	0	48	104	0	60	1048574
2026-01-18 11:36:04.32	336.93	3.46	-85.2	-88.8	2.8	1.56e+00	0	48	104	0	60	1048570
2026-01-18 11:36:05.32	337.03	3.42	-85.2	-88.8	2.8	1.56e+00	0	48	104	0	60	1048575
2026-01-18 11:36:06.33	337.14	3.37	-84.7	-88.8	2.8	1.56e+00	0	48	104	0	60	1048574
2026-01-18 11:36:07.34	337.24	3.32	-85.2	-88.8	2.7	1.56e+00	0	48	104	0	60	1048575
2026-01-18 11:36:08.35	337.34	3.27	-85.2	-88.8	2.8	1.56e+00	0	48	104	0	60	1048575
2026-01-18 11:36:09.36	337.45	3.23	-85.2	-88.8	2.8	1.56e+00	0	48	104	0	60	1048572
2026-01-18 11:36:10.36	337.55	3.18	-85.2	-88.8	2.6	1.56e+00	0	48	104	0	60	1048574
2026-01-18 11:36:11.37	337.65	3.13	-85.2	-88.8	2.7	1.56e+00	0	48	104	0	60	1048575
2026-01-18 11:36:12.38	337.75	3.09	-85.2	-88.8	2.7	1.56e+00	0	48	104	0	60	1048570
2026-01-18 11:36:13.39	337.85	3.04	-85.2	-88.8	2.7	1.56e+00	0	48	104	0	60	1048572
2026-01-18 11:36:14.40	337.95	2.99	-85.2	-88.8	2.7	1.56e+00	0	48	104	0	60	1048575
2026-01-18 11:36:15.41	338.06	2.95	-85.2	-88.8	2.7	1.56e+00	0	48	104	0	60	1048575
2026-01-18 11:36:16.41	338.16	2.90	-84.7	-88.8	2.6	1.56e+00	0	48	104	0	60	1048575
2026-01-18 11:36:17.42	338.26	2.85	-85.2	-88.8	2.8	1.56e+00	0	48	104	0	60	1048573
2026-01-18 11:36:18.43	338.36	2.81	-85.2	-88.8	2.7	1.56e+00	0	48	104	0	60	1048572
2026-01-18 11:36:19.44	338.46	2.76	-85.2	-88.8	2.8	1.56e+00	0	48	104	0	60	1048574
2026-01-18 11:36:20.44	338.55	2.71	-85.2	-88.8	2.8	1.55e+00	0	48	104	0	60	1048575
2026-01-18 11:36:21.45	338.65	2.67	-85.2	-88.8	2.6	1.55e+00	0	48	104	0	60	1048575
2026-01-18 11:36:22.46	338.75	2.62	-85.2	-88.8	2.8	1.56e+00	0	48	104	0	60	1048575
2026-01-18 11:36:23.46	338.85	2.58	-85.2	-88.8	2.6	1.56e+00	0	48	104	0	60	1048575
2026-01-18 11:36:24.47	338.95	2.53	-85.2	-88.8	2.5	1.56e+00	0	48	104	0	60	1048575
2026-01-18 11:36:25.47	339.05	2.48	-85.2	-88.8	2.7	1.56e+00	0	48	104	0	60	1048573
2026-01-18 11:36:26.48	339.14	2.44	-84.7	-88.8	2.7	1.56e+00	0	48	104	0	60	1048572
2026-01-18 11:36:27.49	339.24	2.39	-85.2	-88.8	2.7	1.56e+00	0	48	104	0	60	1048575
2026-01-18 11:36:28.49	339.34	2.34	-85.2	-88.8	2.7	1.56e+00	0	48	104	0	60	1048575
2026-01-18 11:36:29.50	339.43	2.30	-85.2	-88.8	2.8	1.56e+00	0	48	104	0	60	1048572
2026-01-18 11:36:30.50	339.53	2.25	-85.2	-88.8	2.8	1.56e+00	0	48	104	0	60	1048575
2026-01-18 11:36:31.51	339.63	2.20	-84.3	-88.8	2.5	1.56e+00	0	48	104	0	60	1048575
2026-01-18 11:36:32.52	339.72	2.16	-85.2	-88.8	2.8	1.56e+00	0	48	104	0	60	1048575
2026-01-18 11:36:33.52	339.82	2.11	-85.2	-88.8	2.8	1.56e+00	0	48	104	0	60	1048564
2026-01-18 11:36:34.53	339.91	2.06	-85.2	-88.8	2.7	1.56e+00	0	48	104	0	60	1048574
2026-01-18 11:36:35.54	340.01	2.02	-85.2	-88.8	2.8	1.56e+00	0	48	104	0	60	1048571
2026-01-18 11:36:36.55	340.10	1.97	-85.2	-88.8	2.8	1.56e+00	0	48	104	0	60	1048575
2026-01-18 11:36:37.55	340.20	1.93	-85.2	-88.8	2.9	1.56e+00	0	48	104	0	60	1048575
2026-01-18 11:36:38.56	340.29	1.88	-85.2	-88.8	2.5	1.56e+00	0	48	104	0	60	1048574
2026-01-18 11:36:39.57	340.38	1.83	-85.2	-88.8	2.8	1.56e+00	0	48	104	0	60	1048574
2026-01-18 11:36:40.58	340.48	1.79	-85.2	-88.8	2.7	1.56e+00	0	48	104	0	60	1048572
2026-01-18 11:36:41.58	340.57	1.74	-85.2	-88.8	2.8	1.56e+00	0	48	104	0	60	1048575
2026-01-18 11:36:42.59	340.66	1.69	-85.2	-88.8	2.5	1.56e+00	0	48	104	0	60	1048573
2026-01-18 11:36:43.60	340.76	1.65	-85.2	-88.8	2.5	1.56e+00	0	48	104	0	60	1048571
2026-01-18 11:36:44.61	340.85	1.60	-85.2	-88.8	2.6	1.56e+00	0	48	104	0	60	1048573
2026-01-18 11:36:45.62	340.94	1.55	-85.2	-88.8	2.8	1.56e+00	0	48	104	0	60	1048574
2026-01-18 11:36:46.62	341.03	1.51	-85.2	-88.8	2.7	1.56e+00	0	48	104	0	60	1048574
2026-01-18 11:36:47.63	341.12	1.46	-85.2	-88.8	2.5	1.56e+00	0	48	104	0	60	1048571
2026-01-18 11:36:48.64	341.22	1.42	-85.2	-88.8	2.7	1.56e+00	0	48	104	0	60	1048572
2026-01-18 11:36:49.65	341.31	1.37	-85.2	-88.8	2.9	1.56e+00	0	48	104	0	60	1048575
2026-01-18 11:36:50.66	341.40	1.32	-85.2	-88.8	2.7	1.56e+00	0	48	104	0	60	1048575
2026-01-18 11:36:51.67	341.49	1.28	-84.7	-88.8	2.8	1.56e+00	0	48	104	0	60	1048574
2026-01-18 11:36:52.68	341.58	1.23	-85.2	-88.8	2.8	1.56e+00	0	48	104	0	60	1048575
2026-01-18 11:36:53.68	341.67	1.19	-85.2	-88.8	2.7	1.56e+00	0	48	104	0	60	1048575
2026-01-18 11:36:54.69	341.76	1.14	-85.2	-88.8	2.7	1.56e+00	0	48	104	0	60	1048575
2026-01-18 11:36:55.70	341.85	1.09	-85.2	-88.8	2.4	1.56e+00	0	48	104	0	60	1048570
2026-01-18 11:36:56.71	341.94	1.05	-85.2	-88.8	2.6	1.56e+00	0	48	104	0	60	1048575
2026-01-18 11:36:57.72	342.03	1.00	-85.2	-88.8	2.8	1.56e+00	0	48	104	0	60	1048571
2026-01-18 11:36:58.72	342.12	0.95	-85.2	-88.8	2.6	1.56e+00	0	48	104	0	60	1048575
2026-01-18 11:36:59.73	342.20	0.91	-85.2	-88.8	2.9	1.56e+00	0	48	104	0	60	1048575
2026-01-18 11:37:00.73	342.29	0.86	-85.2	-88.8	2.8	1.56e+00	0	48	104	0	60	1048574
2026-01-18 11:37:01.73	342.38	0.82	-85.2	-88.8	2.6	1.56e+00	0	48	104	0	60	1048569
2026-01-18 11:37:02.74	342.47	0.77	-85.2	-88.8	2.7	1.56e+00	0	48	104	0	60	1048575
2026-01-18 11:37:03.75	342.55	0.73	-84.7	-88.8	2.6	1.56e+00	0	48	104	0	60	1048574
2026-01-18 11:37:04.76	342.64	0.68	-85.2	-88.8	2.7	1.56e+00	0	48	104	0	60	1048575
2026-01-18 11:37:05.76	342.73	0.63	-85.2	-88.8	2.7	1.56e+00	0	48	104	0	60	1048575
2026-01-18 11:37:06.77	342.82	0.59	-85.2	-88.8	2.6	1.56e+00	0	48	104	0	60	1048569
2026-01-18 11:37:07.78	342.90	0.54	-85.2	-88.8	2.6	1.56e+00	0	48	104	0	60	1048575
2026-01-18 11:37:08.78	342.99	0.50	-84.7	-88.8	2.8	1.56e+00	0	48	104	0	60	1048575
2026-01-18 11:37:09.79	343.07	0.45	-85.2	-88.8	2.8	1.56e+00	0	48	104	0	60	1048575
2026-01-18 11:37:10.80	343.16	0.40	-85.2	-88.8	2.8	1.56e+00	0	48	104	0	60	1048574
2026-01-18 11:37:11.81	343.25	0.36	-85.2	-88.8	2.6	1.56e+00	0	48	104	0	60	1048571
2026-01-18 11:37:12.82	343.33	0.31	-85.2	-88.8	2.7	1.56e+00	0	48	104	0	60	1048575
2026-01-18 11:37:13.82	343.42	0.27	-85.2	-88.8	2.7	1.56e+00	0	48	104	0	60	1048573
2026-01-18 11:37:14.83	343.50	0.22	-85.2	-88.8	2.9	1.56e+00	0	48	104	0	60	1048573
2026-01-18 11:37:15.83	343.58	0.18	-85.2	-88.8	2.7	1.56e+00	0	48	104	0	60	1048574
2026-01-18 11:37:16.84	343.67	0.13	-85.2	-88.8	2.9	1.56e+00	0	48	104	0	60	1048574
2026-01-18 11:37:17.84	343.75	0.09	-85.2	-88.8	2.6	1.55e+00	0	48	104	0	60	1048575
2026-01-18 11:37:18.85	343.84	0.04	-85.2	-88.8	2.7	1.56e+00	0	48	104	0	60	1048575
2026-01-18 11:37:19.85	343.92	-0.00	-85.2	-88.8	2.6	1.56e+00	0	48	104	0	60	1048574
2026-01-18 11:37:20.86	344.00	-0.05	-85.2	-88.8	2.6	1.56e+00	0	48	104	0	60	1048572
2026-01-18 11:37:21.86	344.08	-0.10	-85.2	-88.8	2.7	1.56e+00	0	48	104	0	60	1048574

#Closed at: 2026-01-18 11:37:22
#Recorded file [0 MB]: D:/Data/35015_260118_143327.dat