passes_logs/2026/01/18/R3.2S-Naryan-Mar/R3.2S-Naryan-Mar__20260118_115523_SUOMI_NPP_rec.log

#Pass ID: 20260118_115523_SUOMI NPP
#Satellite: SUOMI NPP
#Configuration: NPP
#almurnet v.1.7.20240730
#Start time: 2026-01-18 11:55:25

#Version: 2.2.20231116
#Station: R3.2S-Naryan-Mar
#Location: 53.008057 lon 67.646978 lat
#TLE: 1 37849U 11061A   26017.28905266  .00000074  00000+0  55894-4 0  9999
#TLE: 2 37849  98.7814 319.3179 0002408  59.7048 300.4366 14.19525847737038

#Time	Az	El	Level	Level2	SNR	BER	BlckErr	Temp	State	Recorded	gain1	gain2
2026-01-18 11:55:25.38	245.02	0.07	-85.2	-88.8	3.0	1.56e+00	0	45	0	0	60	1048574
2026-01-18 11:55:28.38	245.30	0.20	-85.2	-88.6	2.9	1.56e+00	0	46	104	0	60	1048575
2026-01-18 11:55:31.40	245.59	0.32	-85.2	-88.6	2.9	1.56e+00	0	46	104	0	60	1048575
2026-01-18 11:55:34.43	245.88	0.45	-85.2	-88.6	2.8	1.55e+00	0	46	104	0	60	1048575
2026-01-18 11:55:37.45	246.17	0.57	-85.2	-88.6	3.0	1.55e+00	0	46	104	0	60	1048575
2026-01-18 11:55:40.47	246.47	0.70	-85.2	-88.6	3.1	1.56e+00	0	46	104	0	60	1048574
2026-01-18 11:55:43.48	246.76	0.82	-85.2	-88.6	3.0	1.56e+00	0	46	104	0	60	1048573
2026-01-18 11:55:46.50	247.06	0.94	-85.2	-88.6	3.1	1.55e+00	0	46	104	0	60	1048575
2026-01-18 11:55:49.51	247.36	1.07	-85.2	-88.6	3.0	1.56e+00	0	46	104	0	60	1048575
2026-01-18 11:55:52.52	247.66	1.19	-85.2	-88.6	3.1	1.55e+00	0	46	104	0	60	1048574
2026-01-18 11:55:55.53	247.96	1.31	-85.2	-88.6	2.9	1.55e+00	0	47	104	0	60	1048571
2026-01-18 11:55:58.55	248.27	1.44	-85.2	-88.6	2.7	1.56e+00	0	47	104	0	60	1048575
2026-01-18 11:56:01.56	248.58	1.56	-85.2	-88.6	3.1	1.56e+00	0	47	104	0	60	1048575
2026-01-18 11:56:04.58	248.89	1.68	-85.2	-88.6	2.9	1.56e+00	0	47	104	0	60	1048575
2026-01-18 11:56:07.60	249.21	1.81	-85.2	-88.6	3.1	1.56e+00	0	47	104	0	60	1048575
2026-01-18 11:56:10.62	249.52	1.93	-85.2	-88.6	3.0	1.55e+00	0	47	104	0	60	1048575
2026-01-18 11:56:13.64	249.84	2.05	-85.2	-88.6	3.0	1.55e+00	0	47	104	0	60	1048575
2026-01-18 11:56:16.65	250.17	2.18	-85.2	-88.6	3.1	1.56e+00	0	47	104	0	60	1048574
2026-01-18 11:56:19.67	250.49	2.30	-85.2	-88.6	2.9	1.56e+00	0	47	104	0	60	1048575
2026-01-18 11:56:22.68	250.82	2.42	-85.2	-88.6	3.0	1.55e+00	0	47	104	0	60	1048573
2026-01-18 11:56:25.70	251.15	2.54	-85.2	-88.6	3.0	1.56e+00	0	47	104	0	60	1048573
2026-01-18 11:56:28.71	251.48	2.66	-85.2	-88.6	3.0	1.55e+00	0	47	104	0	60	1048569
2026-01-18 11:56:31.72	251.81	2.79	-85.2	-88.6	2.9	1.56e+00	0	47	104	0	60	1048573
2026-01-18 11:56:34.74	252.15	2.91	-85.2	-88.6	3.0	1.56e+00	0	47	104	0	60	1048574
2026-01-18 11:56:37.76	252.49	3.03	-85.2	-88.6	3.1	1.55e+00	0	47	104	0	60	1048575
2026-01-18 11:56:40.78	252.84	3.15	-85.2	-88.6	2.8	1.55e+00	0	47	104	0	60	1048571
2026-01-18 11:56:43.80	253.18	3.27	-85.2	-88.6	3.1	1.55e+00	0	47	104	0	60	1048575
2026-01-18 11:56:46.81	253.53	3.39	-85.2	-88.6	3.1	1.56e+00	0	47	104	0	60	1048574
2026-01-18 11:56:49.82	253.88	3.51	-85.2	-88.6	2.8	1.56e+00	0	47	104	0	60	1048575
2026-01-18 11:56:52.84	254.23	3.63	-85.2	-88.6	3.1	1.56e+00	0	47	104	0	60	1048573
2026-01-18 11:56:55.85	254.59	3.75	-85.2	-88.6	3.0	1.56e+00	0	47	104	0	60	1048575
2026-01-18 11:56:58.86	254.95	3.87	-85.2	-88.6	3.0	1.56e+00	0	47	104	0	60	1048573
2026-01-18 11:57:01.88	255.31	3.98	-85.2	-88.6	3.1	1.56e+00	0	47	104	0	60	1048575
2026-01-18 11:57:04.89	255.68	4.10	-85.2	-88.6	2.9	1.56e+00	0	47	104	0	60	1048571
2026-01-18 11:57:07.91	256.04	4.22	-85.2	-88.6	2.8	1.56e+00	0	47	104	0	60	1048575
2026-01-18 11:57:10.92	256.41	4.34	-85.2	-88.6	3.0	1.56e+00	0	47	104	0	60	1048575
2026-01-18 11:57:13.93	256.79	4.45	-85.2	-88.6	2.9	1.56e+00	0	47	104	0	60	1048574
2026-01-18 11:57:16.95	257.16	4.57	-85.2	-88.6	2.8	1.55e+00	0	47	104	0	60	1048575
2026-01-18 11:57:19.96	257.54	4.68	-84.7	-88.6	3.0	1.56e+00	0	47	104	0	60	1048575
2026-01-18 11:57:22.97	257.92	4.80	-85.2	-88.6	2.8	1.56e+00	0	47	104	0	60	1048575
2026-01-18 11:57:25.99	258.31	4.91	-85.2	-88.6	2.9	1.56e+00	0	47	104	0	60	1048574
2026-01-18 11:57:29.01	258.70	5.03	-85.2	-88.6	2.9	1.56e+00	0	47	104	0	60	1048574
2026-01-18 11:57:32.01	259.09	5.14	-85.2	-88.6	3.1	1.56e+00	0	47	104	0	60	1048574
2026-01-18 11:57:35.02	259.48	5.25	-85.2	-88.6	3.0	1.56e+00	0	47	104	0	60	1048574
2026-01-18 11:57:38.04	259.88	5.36	-85.2	-88.6	2.9	1.56e+00	0	47	104	0	60	1048575
2026-01-18 11:57:41.06	260.28	5.48	-85.2	-88.6	3.1	1.56e+00	0	47	104	0	60	1048575
2026-01-18 11:57:44.07	260.68	5.59	-85.2	-88.6	3.1	1.55e+00	0	47	104	0	60	1048575
2026-01-18 11:57:47.08	261.08	5.70	-85.2	-88.6	2.9	1.56e+00	0	47	104	0	60	1048575
2026-01-18 11:57:50.09	261.49	5.80	-85.2	-88.6	3.0	1.56e+00	0	47	104	0	60	1048575
2026-01-18 11:57:53.11	261.90	5.91	-85.2	-88.6	3.0	1.56e+00	0	47	104	0	60	1048575
2026-01-18 11:57:56.13	262.32	6.02	-85.2	-88.6	3.1	1.55e+00	0	47	104	0	60	1048575
2026-01-18 11:57:59.15	262.73	6.13	-85.2	-88.6	2.9	1.56e+00	0	47	104	0	60	1048575
2026-01-18 11:58:02.16	263.15	6.23	-85.2	-88.6	3.1	1.56e+00	0	47	104	0	60	1048575
2026-01-18 11:58:05.18	263.58	6.34	-85.2	-88.6	3.0	1.56e+00	0	47	104	0	60	1048574
2026-01-18 11:58:08.19	264.00	6.44	-85.2	-88.6	3.0	1.56e+00	0	47	104	0	60	1048573
2026-01-18 11:58:11.20	264.43	6.55	-85.2	-88.6	3.0	1.56e+00	0	47	104	0	60	1048574
2026-01-18 11:58:14.22	264.86	6.65	-85.2	-88.6	2.9	1.56e+00	0	47	104	0	60	1048575
2026-01-18 11:58:17.23	265.30	6.75	-85.2	-88.6	3.2	1.56e+00	0	47	104	0	60	1048575
2026-01-18 11:58:20.25	265.73	6.85	-85.2	-88.6	3.0	1.56e+00	0	47	104	0	60	1048575
2026-01-18 11:58:23.27	266.17	6.95	-84.3	-88.6	2.8	1.56e+00	0	47	104	0	60	1048575
2026-01-18 11:58:26.28	266.62	7.05	-85.2	-88.6	2.9	1.56e+00	0	47	104	0	60	1048575
2026-01-18 11:58:29.30	267.06	7.15	-85.2	-88.6	3.0	1.56e+00	0	47	104	0	60	1048572
2026-01-18 11:58:32.31	267.51	7.24	-85.2	-88.6	3.0	1.55e+00	0	47	104	0	60	1048575
2026-01-18 11:58:35.33	267.96	7.34	-85.2	-88.6	3.1	1.56e+00	0	47	104	0	60	1048567
2026-01-18 11:58:38.34	268.42	7.43	-85.2	-88.6	2.8	1.56e+00	0	47	104	0	60	1048575
2026-01-18 11:58:41.35	268.87	7.52	-85.2	-88.6	3.2	1.55e+00	0	47	104	0	60	1048573
2026-01-18 11:58:44.37	269.33	7.61	-85.2	-88.6	3.1	1.56e+00	0	47	104	0	60	1048575
2026-01-18 11:58:47.38	269.80	7.70	-85.2	-88.6	3.2	1.56e+00	0	47	104	0	60	1048575
2026-01-18 11:58:50.40	270.26	7.79	-85.2	-88.6	3.0	1.56e+00	0	47	104	0	60	1048575
2026-01-18 11:58:53.41	270.73	7.88	-85.2	-88.6	3.1	1.56e+00	0	47	104	0	60	1048575
2026-01-18 11:58:56.44	271.20	7.97	-85.2	-88.6	3.1	1.56e+00	0	47	104	0	60	1048575
2026-01-18 11:58:59.44	271.68	8.05	-85.2	-88.6	2.9	1.55e+00	0	47	104	0	60	1048575
2026-01-18 11:59:02.45	272.15	8.14	-85.2	-88.6	3.1	1.55e+00	0	47	104	0	60	1048574
2026-01-18 11:59:05.46	272.63	8.22	-85.2	-88.6	3.0	1.55e+00	0	47	104	0	60	1048573
2026-01-18 11:59:08.48	273.11	8.30	-85.2	-88.6	3.2	1.55e+00	0	47	104	0	60	1048573
2026-01-18 11:59:11.49	273.59	8.38	-85.2	-88.6	2.9	1.56e+00	0	47	104	0	60	1048575
2026-01-18 11:59:14.50	274.08	8.46	-85.2	-88.6	2.9	1.56e+00	0	47	104	0	60	1048571
2026-01-18 11:59:17.52	274.57	8.53	-85.2	-88.6	3.0	1.56e+00	0	47	104	0	60	1048574
2026-01-18 11:59:20.54	275.06	8.61	-85.2	-88.6	2.9	1.55e+00	0	47	104	0	60	1048573
2026-01-18 11:59:23.56	275.56	8.68	-85.2	-88.6	2.9	1.56e+00	0	47	104	0	60	1048575
2026-01-18 11:59:26.57	276.05	8.75	-85.2	-88.6	3.2	1.56e+00	0	47	104	0	60	1048574
2026-01-18 11:59:29.58	276.55	8.82	-85.2	-88.6	2.9	1.56e+00	0	47	104	0	60	1048575
2026-01-18 11:59:32.59	277.05	8.89	-85.2	-88.6	3.0	1.56e+00	0	47	104	0	60	1048574
2026-01-18 11:59:35.60	277.55	8.95	-85.2	-88.6	3.1	1.55e+00	0	47	104	0	60	1048573
2026-01-18 11:59:38.63	278.06	9.02	-85.2	-88.6	2.9	1.55e+00	0	47	104	0	60	1048575
2026-01-18 11:59:41.64	278.56	9.08	-85.2	-88.6	2.9	1.55e+00	0	47	104	0	60	1048575
2026-01-18 11:59:44.66	279.07	9.14	-85.2	-88.6	2.9	1.55e+00	0	47	104	0	60	1048575
2026-01-18 11:59:47.67	279.58	9.20	-85.2	-88.6	2.9	1.56e+00	0	47	104	0	60	1048575
2026-01-18 11:59:50.69	280.10	9.26	-85.2	-88.6	3.0	1.55e+00	0	47	104	0	60	1048575
2026-01-18 11:59:53.70	280.61	9.31	-85.2	-88.6	2.9	1.56e+00	0	47	104	0	60	1048575
2026-01-18 11:59:56.72	281.13	9.37	-85.2	-88.6	2.9	1.55e+00	0	47	104	0	60	1048574
2026-01-18 11:59:59.74	281.65	9.42	-85.2	-88.6	3.0	1.55e+00	0	47	104	0	60	1048575
2026-01-18 12:00:02.74	282.17	9.47	-85.2	-88.6	3.0	1.56e+00	0	47	104	0	60	1048574
2026-01-18 12:00:05.75	282.69	9.52	-85.2	-88.6	3.0	1.55e+00	0	47	104	0	60	1048575
2026-01-18 12:00:08.76	283.21	9.56	-85.2	-88.6	2.9	1.56e+00	0	47	104	0	60	1048573
2026-01-18 12:00:11.77	283.74	9.61	-85.2	-88.6	2.8	1.56e+00	0	47	104	0	60	1048575
2026-01-18 12:00:14.78	284.26	9.65	-85.2	-88.6	3.0	1.55e+00	0	47	104	0	60	1048575
2026-01-18 12:00:17.80	284.79	9.69	-85.2	-88.6	3.0	1.56e+00	0	47	104	0	60	1048572
2026-01-18 12:00:20.82	285.32	9.72	-85.2	-88.6	2.9	1.56e+00	0	47	104	0	60	1048575
2026-01-18 12:00:23.84	285.85	9.76	-85.2	-88.6	2.9	1.55e+00	0	47	104	0	60	1048575
2026-01-18 12:00:26.84	286.38	9.79	-85.2	-88.6	3.1	1.56e+00	0	47	104	0	60	1048574
2026-01-18 12:00:29.85	286.91	9.82	-85.2	-88.6	2.9	1.56e+00	0	47	104	0	60	1048574
2026-01-18 12:00:32.87	287.45	9.85	-85.2	-88.6	2.9	1.56e+00	0	47	104	0	60	1048575
2026-01-18 12:00:35.88	287.98	9.88	-85.2	-88.6	2.7	1.55e+00	0	47	104	0	60	1048573
2026-01-18 12:00:38.89	288.52	9.91	-85.2	-88.6	2.9	1.56e+00	0	47	104	0	60	1048574
2026-01-18 12:00:41.90	289.05	9.93	-85.2	-88.6	2.8	1.56e+00	0	47	104	0	60	1048575
2026-01-18 12:00:44.91	289.59	9.95	-85.2	-88.6	2.7	1.56e+00	0	47	104	0	60	1048573
2026-01-18 12:00:47.93	290.13	9.97	-85.2	-88.6	3.1	1.56e+00	0	47	104	0	60	1048574
2026-01-18 12:00:50.95	290.67	9.98	-85.2	-88.6	3.1	1.56e+00	0	47	104	0	60	1048575
2026-01-18 12:00:53.96	291.21	10.00	-85.2	-88.6	3.1	1.56e+00	0	47	104	0	60	1048575
2026-01-18 12:00:56.97	291.74	10.01	-85.2	-88.6	3.2	1.56e+00	0	47	104	0	60	1048572
2026-01-18 12:00:59.99	292.28	10.02	-85.2	-88.6	2.9	1.55e+00	0	47	104	0	60	1048575
2026-01-18 12:01:02.99	292.82	10.03	-85.2	-88.6	3.2	1.56e+00	0	47	104	0	60	1048572
2026-01-18 12:01:06.01	293.36	10.03	-85.2	-88.6	3.1	1.55e+00	0	47	104	0	60	1048575
2026-01-18 12:01:09.03	293.90	10.03	-85.2	-88.6	3.0	1.55e+00	0	47	104	0	60	1048575
2026-01-18 12:01:12.04	294.44	10.03	-85.2	-88.6	2.9	1.56e+00	0	47	104	0	60	1048574
2026-01-18 12:01:15.07	294.99	10.03	-85.2	-88.6	3.1	1.56e+00	0	47	104	0	60	1048575
2026-01-18 12:01:18.07	295.53	10.03	-85.2	-88.6	3.1	1.56e+00	0	47	104	0	60	1048573
2026-01-18 12:01:21.09	296.07	10.02	-85.2	-88.6	3.2	1.56e+00	0	47	104	0	60	1048571
2026-01-18 12:01:24.10	296.61	10.01	-85.2	-88.6	3.2	1.56e+00	0	47	104	0	60	1048572
2026-01-18 12:01:27.12	297.15	10.00	-85.2	-88.6	3.1	1.55e+00	0	47	104	0	60	1048571
2026-01-18 12:01:30.12	297.68	9.99	-85.2	-88.6	3.1	1.56e+00	0	47	104	0	60	1048575
2026-01-18 12:01:33.12	298.22	9.98	-85.2	-88.6	3.0	1.56e+00	0	47	104	0	60	1048575
2026-01-18 12:01:36.13	298.75	9.96	-85.2	-88.6	2.8	1.56e+00	0	48	104	0	60	1048575
2026-01-18 12:01:39.15	299.29	9.94	-84.7	-88.6	2.9	1.56e+00	0	47	104	0	60	1048573
2026-01-18 12:01:42.16	299.83	9.92	-85.2	-88.6	2.8	1.56e+00	0	48	104	0	60	1048575
2026-01-18 12:01:45.18	300.37	9.90	-85.2	-88.6	3.0	1.56e+00	0	47	104	0	60	1048574
2026-01-18 12:01:48.18	300.90	9.87	-85.2	-88.6	3.1	1.55e+00	0	47	104	0	60	1048573
2026-01-18 12:01:51.20	301.43	9.84	-85.2	-88.6	2.8	1.56e+00	0	47	104	0	60	1048574
2026-01-18 12:01:54.21	301.96	9.81	-85.2	-88.6	3.0	1.56e+00	0	47	104	0	60	1048573
2026-01-18 12:01:57.21	302.49	9.78	-85.2	-88.6	3.0	1.56e+00	0	47	104	0	60	1048575
2026-01-18 12:02:00.22	303.02	9.75	-85.2	-88.6	3.1	1.56e+00	0	47	104	0	60	1048572
2026-01-18 12:02:03.24	303.55	9.71	-85.2	-88.6	3.1	1.56e+00	0	47	104	0	60	1048575
2026-01-18 12:02:06.26	304.08	9.67	-85.2	-88.6	2.9	1.56e+00	0	47	104	0	60	1048574
2026-01-18 12:02:09.27	304.61	9.63	-84.7	-88.6	2.9	1.55e+00	0	47	104	0	60	1048575
2026-01-18 12:02:12.29	305.13	9.59	-85.2	-88.6	2.9	1.56e+00	0	47	104	0	60	1048575
2026-01-18 12:02:15.30	305.66	9.54	-85.2	-88.6	3.0	1.56e+00	0	47	104	0	60	1048575
2026-01-18 12:02:18.31	306.18	9.50	-85.2	-88.6	3.0	1.55e+00	0	47	104	0	60	1048575
2026-01-18 12:02:21.32	306.70	9.45	-85.2	-88.6	2.9	1.56e+00	0	47	104	0	60	1048575
2026-01-18 12:02:24.34	307.21	9.40	-85.2	-88.6	3.0	1.56e+00	0	47	104	0	60	1048574
2026-01-18 12:02:27.36	307.73	9.35	-85.2	-88.6	2.8	1.56e+00	0	47	104	0	60	1048574
2026-01-18 12:02:30.36	308.24	9.29	-85.2	-88.6	3.0	1.56e+00	0	47	104	0	60	1048575
2026-01-18 12:02:33.38	308.76	9.24	-85.2	-88.6	2.9	1.56e+00	0	47	104	0	60	1048575
2026-01-18 12:02:36.39	309.27	9.18	-85.2	-88.6	3.1	1.56e+00	0	47	104	0	60	1048575
2026-01-18 12:02:39.40	309.78	9.12	-85.2	-88.6	3.1	1.56e+00	0	47	104	0	60	1048575
2026-01-18 12:02:42.41	310.28	9.06	-85.2	-88.6	2.9	1.56e+00	0	47	104	0	60	1048574
2026-01-18 12:02:45.42	310.79	9.00	-85.2	-88.6	3.1	1.56e+00	0	47	104	0	60	1048575
2026-01-18 12:02:48.43	311.29	8.93	-85.2	-88.6	3.1	1.56e+00	0	47	104	0	60	1048575
2026-01-18 12:02:51.44	311.79	8.86	-85.2	-88.6	2.9	1.56e+00	0	47	104	0	60	1048575
2026-01-18 12:02:54.45	312.29	8.80	-85.2	-88.6	2.8	1.55e+00	0	47	104	0	60	1048575
2026-01-18 12:02:57.46	312.78	8.73	-85.2	-88.6	3.0	1.56e+00	0	47	104	0	60	1048572
2026-01-18 12:03:00.47	313.27	8.65	-85.2	-88.6	2.9	1.56e+00	0	47	104	0	60	1048573
2026-01-18 12:03:03.46	313.76	8.58	-85.2	-88.6	3.0	1.56e+00	0	47	104	0	60	1048574
2026-01-18 12:03:06.47	314.25	8.51	-85.2	-88.6	3.1	1.56e+00	0	47	104	0	60	1048575
2026-01-18 12:03:09.48	314.73	8.43	-85.2	-88.6	2.9	1.56e+00	0	47	104	0	60	1048573
2026-01-18 12:03:12.48	315.22	8.35	-85.2	-88.6	3.0	1.56e+00	0	47	104	0	60	1048575
2026-01-18 12:03:15.49	315.70	8.28	-85.2	-88.6	3.0	1.55e+00	0	47	104	0	60	1048571
2026-01-18 12:03:18.50	316.17	8.19	-85.2	-88.6	2.9	1.56e+00	0	47	104	0	60	1048575
2026-01-18 12:03:21.52	316.65	8.11	-85.2	-88.6	2.9	1.56e+00	0	47	104	0	60	1048575
2026-01-18 12:03:24.54	317.13	8.03	-85.2	-88.6	2.8	1.56e+00	0	47	104	0	60	1048575
2026-01-18 12:03:27.56	317.60	7.94	-85.2	-88.6	3.1	1.56e+00	0	47	104	0	60	1048574
2026-01-18 12:03:30.57	318.07	7.86	-85.2	-88.6	3.1	1.56e+00	0	48	104	0	60	1048574
2026-01-18 12:03:33.58	318.53	7.77	-85.2	-88.6	3.0	1.55e+00	0	47	104	0	60	1048575
2026-01-18 12:03:36.58	318.99	7.68	-85.2	-88.6	3.1	1.56e+00	0	47	104	0	60	1048575
2026-01-18 12:03:39.58	319.45	7.59	-84.7	-88.6	2.8	1.56e+00	0	47	104	0	60	1048574
2026-01-18 12:03:42.59	319.90	7.50	-85.2	-88.6	3.0	1.56e+00	0	47	104	0	60	1048575
2026-01-18 12:03:45.61	320.36	7.41	-85.2	-88.6	3.0	1.56e+00	0	47	104	0	60	1048574
2026-01-18 12:03:48.62	320.81	7.32	-85.2	-88.6	2.7	1.56e+00	0	47	104	0	60	1048575
2026-01-18 12:03:51.63	321.26	7.22	-85.2	-88.6	2.7	1.56e+00	0	47	104	0	60	1048575
2026-01-18 12:03:54.64	321.70	7.12	-85.2	-88.6	3.1	1.55e+00	0	47	104	0	60	1048575
2026-01-18 12:03:57.65	322.15	7.03	-85.2	-88.6	2.9	1.56e+00	0	47	104	0	60	1048575
2026-01-18 12:04:00.66	322.59	6.93	-85.2	-88.6	2.9	1.55e+00	0	48	104	0	60	1048570
2026-01-18 12:04:03.68	323.03	6.83	-85.2	-88.6	2.7	1.55e+00	0	48	104	0	60	1048575
2026-01-18 12:04:06.70	323.46	6.73	-85.2	-88.6	2.9	1.56e+00	0	48	104	0	60	1048575
2026-01-18 12:04:09.70	323.89	6.63	-85.2	-88.6	2.8	1.55e+00	0	47	104	0	60	1048575
2026-01-18 12:04:12.71	324.32	6.53	-85.2	-88.6	2.9	1.56e+00	0	48	104	0	60	1048574
2026-01-18 12:04:15.73	324.74	6.43	-85.2	-88.6	3.2	1.56e+00	0	48	104	0	60	1048574
2026-01-18 12:04:18.75	325.17	6.32	-84.7	-88.6	2.9	1.56e+00	0	48	104	0	60	1048574
2026-01-18 12:04:21.76	325.59	6.22	-85.2	-88.6	2.8	1.55e+00	0	48	104	0	60	1048575
2026-01-18 12:04:24.77	326.00	6.11	-85.2	-88.6	3.1	1.56e+00	0	48	104	0	60	1048575
2026-01-18 12:04:27.78	326.42	6.01	-85.2	-88.6	3.2	1.56e+00	0	48	104	0	60	1048575
2026-01-18 12:04:30.80	326.83	5.90	-85.2	-88.6	3.1	1.56e+00	0	47	104	0	60	1048575
2026-01-18 12:04:33.81	327.24	5.79	-85.2	-88.6	3.0	1.56e+00	0	47	104	0	60	1048573
2026-01-18 12:04:36.82	327.64	5.68	-85.2	-88.6	2.9	1.56e+00	0	48	104	0	60	1048573
2026-01-18 12:04:39.83	328.05	5.57	-85.2	-88.6	2.8	1.55e+00	0	48	104	0	60	1048575
2026-01-18 12:04:42.86	328.45	5.46	-85.2	-88.6	2.9	1.56e+00	0	47	104	0	60	1048575
2026-01-18 12:04:45.87	328.84	5.35	-85.2	-88.6	3.1	1.56e+00	0	47	104	0	60	1048575
2026-01-18 12:04:48.88	329.24	5.24	-85.2	-88.6	3.0	1.55e+00	0	47	104	0	60	1048575
2026-01-18 12:04:51.89	329.63	5.13	-85.2	-88.6	2.9	1.55e+00	0	47	104	0	60	1048575
2026-01-18 12:04:54.90	330.02	5.02	-85.2	-88.6	3.0	1.56e+00	0	48	104	0	60	1048574
2026-01-18 12:04:57.92	330.40	4.91	-85.2	-88.6	3.1	1.55e+00	0	47	104	0	60	1048575
2026-01-18 12:05:00.93	330.78	4.79	-85.2	-88.6	3.1	1.55e+00	0	47	104	0	60	1048575
2026-01-18 12:05:03.94	331.16	4.68	-85.2	-88.6	3.0	1.56e+00	0	47	104	0	60	1048575
2026-01-18 12:05:06.95	331.54	4.56	-85.2	-88.6	2.9	1.56e+00	0	47	104	0	60	1048575
2026-01-18 12:05:09.96	331.91	4.45	-85.2	-88.6	3.0	1.55e+00	0	47	104	0	60	1048575
2026-01-18 12:05:12.98	332.28	4.33	-85.2	-88.6	3.1	1.55e+00	0	47	104	0	60	1048572
2026-01-18 12:05:15.99	332.65	4.22	-85.2	-88.6	3.0	1.55e+00	0	47	104	0	60	1048574
2026-01-18 12:05:19.00	333.02	4.10	-85.2	-88.6	3.1	1.56e+00	0	47	104	0	60	1048575
2026-01-18 12:05:22.01	333.38	3.98	-85.2	-88.6	2.8	1.56e+00	0	47	104	0	60	1048575
2026-01-18 12:05:25.02	333.74	3.87	-85.2	-88.6	3.2	1.56e+00	0	48	104	0	60	1048575
2026-01-18 12:05:28.04	334.10	3.75	-85.2	-88.6	3.1	1.55e+00	0	48	104	0	60	1048575
2026-01-18 12:05:31.05	334.45	3.63	-85.2	-88.6	3.1	1.56e+00	0	48	104	0	60	1048575
2026-01-18 12:05:34.07	334.80	3.51	-85.2	-88.6	3.0	1.56e+00	0	47	104	0	60	1048575
2026-01-18 12:05:37.08	335.15	3.39	-85.2	-88.6	3.1	1.55e+00	0	48	104	0	60	1048572
2026-01-18 12:05:40.09	335.50	3.28	-85.2	-88.6	3.0	1.55e+00	0	48	104	0	60	1048575
2026-01-18 12:05:43.10	335.84	3.16	-85.2	-88.6	3.1	1.56e+00	0	47	104	0	60	1048575
2026-01-18 12:05:46.11	336.18	3.04	-85.2	-88.6	3.0	1.56e+00	0	47	104	0	60	1048573
2026-01-18 12:05:49.12	336.52	2.92	-85.2	-88.6	3.0	1.56e+00	0	47	104	0	60	1048573
2026-01-18 12:05:52.13	336.85	2.80	-85.2	-88.6	3.0	1.55e+00	0	48	104	0	60	1048575
2026-01-18 12:05:55.14	337.19	2.68	-85.2	-88.6	2.9	1.55e+00	0	47	104	0	60	1048574
2026-01-18 12:05:58.16	337.52	2.56	-85.2	-88.6	3.1	1.56e+00	0	47	104	0	60	1048575
2026-01-18 12:06:01.18	337.85	2.44	-85.2	-88.6	3.0	1.55e+00	0	48	104	0	60	1048574
2026-01-18 12:06:04.19	338.17	2.31	-85.2	-88.6	3.0	1.55e+00	0	47	104	0	60	1048574
2026-01-18 12:06:07.20	338.50	2.19	-85.2	-88.6	2.9	1.56e+00	0	47	104	0	60	1048575
2026-01-18 12:06:10.21	338.82	2.07	-85.2	-88.6	3.0	1.55e+00	0	48	104	0	60	1048570
2026-01-18 12:06:13.23	339.13	1.95	-85.2	-88.6	3.0	1.56e+00	0	47	104	0	60	1048573
2026-01-18 12:06:16.24	339.45	1.83	-85.2	-88.6	3.1	1.56e+00	0	48	104	0	60	1048573
2026-01-18 12:06:19.25	339.76	1.71	-85.2	-88.6	2.9	1.56e+00	0	48	104	0	60	1048573
2026-01-18 12:06:22.27	340.07	1.59	-85.2	-88.6	3.2	1.56e+00	0	48	104	0	60	1048574
2026-01-18 12:06:25.29	340.38	1.46	-85.2	-88.6	3.0	1.56e+00	0	47	104	0	60	1048574
2026-01-18 12:06:28.29	340.69	1.34	-85.2	-88.6	3.1	1.56e+00	0	47	104	0	60	1048575
2026-01-18 12:06:31.31	340.99	1.22	-85.2	-88.6	2.7	1.56e+00	0	47	104	0	60	1048573
2026-01-18 12:06:34.32	341.29	1.10	-85.2	-88.6	2.9	1.56e+00	0	47	104	0	60	1048575
2026-01-18 12:06:37.34	341.59	0.97	-85.2	-88.6	3.1	1.56e+00	0	47	104	0	60	1048573
2026-01-18 12:06:40.34	341.89	0.85	-85.2	-88.6	3.0	1.56e+00	0	48	104	0	60	1048575
2026-01-18 12:06:43.37	342.18	0.73	-85.2	-88.6	3.1	1.56e+00	0	47	104	0	60	1048575
2026-01-18 12:06:46.38	342.47	0.61	-85.2	-88.6	3.2	1.56e+00	0	47	104	0	60	1048575
2026-01-18 12:06:49.39	342.76	0.48	-85.2	-88.6	2.8	1.55e+00	0	47	104	0	60	1048575
2026-01-18 12:06:52.40	343.05	0.36	-85.2	-88.6	2.9	1.56e+00	0	47	104	0	60	1048575
2026-01-18 12:06:55.41	343.33	0.24	-85.2	-88.6	3.1	1.55e+00	0	48	104	0	60	1048575
2026-01-18 12:06:58.43	343.62	0.11	-85.2	-88.6	3.1	1.56e+00	0	48	104	0	60	1048574
2026-01-18 12:07:01.44	343.90	-0.01	-85.2	-88.6	2.6	1.55e+00	0	47	104	0	60	1048575

#Closed at: 2026-01-18 12:07:03
#Recorded file [0 MB]: D:/Data/35015_260118_145525.dat