passes_logs/2026/01/18/R3.2S-Naryan-Mar/R3.2S-Naryan-Mar__20260118_125132_FENGYUN_3D_rec.log

#Pass ID: 20260118_125132_FENGYUN 3D
#Satellite: FENGYUN 3D
#Configuration: FENGYUN 3D
#almurnet v.1.7.20240730
#Start time: 2026-01-18 12:51:36

#Version: 2.2.20231116
#Station: R3.2S-Naryan-Mar
#Location: 53.008057 lon 67.646978 lat
#TLE: 1 43010U 17072A   26017.61121112  .00000213  00000+0  12257-3 0  9991
#TLE: 2 43010  98.9934 349.4672 0002374 103.9362 256.2078 14.19696413423628

#Time	Az	El	Level	Level2	SNR	BER	BlckErr	Temp	State	Recorded	gain1	gain2
2026-01-18 12:51:36.11	216.09	0.15	-83.5	-79.0	2.4	0.00e+00	0	45	0	0	60	1048572
2026-01-18 12:51:40.13	216.37	0.36	-84.7	-88.6	5.9	2.82e-01	0	46	0	0	60	1048575
2026-01-18 12:51:44.15	216.66	0.56	-85.2	-88.6	5.7	2.79e-01	0	47	0	0	60	1048574
2026-01-18 12:51:48.18	216.95	0.77	-85.2	-88.6	5.7	2.82e-01	0	47	0	0	60	1048573
2026-01-18 12:51:52.20	217.25	0.98	-85.2	-88.6	5.8	2.78e-01	0	47	0	0	60	1048575
2026-01-18 12:51:56.22	217.54	1.18	-84.7	-88.6	6.0	2.85e-01	0	47	0	0	60	1048575
2026-01-18 12:52:00.24	217.85	1.39	-84.7	-88.6	5.7	2.82e-01	0	47	0	0	60	1048574
2026-01-18 12:52:04.27	218.15	1.60	-84.7	-88.6	5.7	2.80e-01	0	47	0	0	60	1048573
2026-01-18 12:52:08.30	218.46	1.81	-84.7	-88.6	5.8	2.83e-01	0	47	0	0	60	1048575
2026-01-18 12:52:12.33	218.78	2.03	-84.7	-88.6	5.5	2.80e-01	0	47	0	0	60	1048574
2026-01-18 12:52:16.36	219.10	2.24	-84.7	-88.6	6.0	2.86e-01	0	47	0	0	60	1048575
2026-01-18 12:52:20.39	219.42	2.45	-85.2	-88.6	5.9	2.83e-01	0	47	0	0	60	1048575
2026-01-18 12:52:24.42	219.75	2.67	-84.7	-88.6	5.8	2.81e-01	0	47	0	0	60	1048568
2026-01-18 12:52:28.45	220.09	2.88	-84.7	-88.6	6.5	2.81e-01	0	47	0	0	60	1048574
2026-01-18 12:52:32.47	220.42	3.10	-84.7	-88.6	5.9	2.77e-01	0	47	0	0	60	1048575
2026-01-18 12:52:36.51	220.77	3.32	-85.2	-88.6	5.8	2.83e-01	0	47	0	0	60	1048575
2026-01-18 12:52:40.54	221.11	3.54	-84.7	-88.6	6.4	2.81e-01	0	47	0	0	60	1048574
2026-01-18 12:52:44.57	221.47	3.75	-84.7	-88.6	6.1	2.81e-01	0	47	0	0	60	1048567
2026-01-18 12:52:48.60	221.82	3.97	-84.7	-88.6	5.9	2.79e-01	0	47	0	0	60	1048575
2026-01-18 12:52:52.63	222.19	4.20	-84.7	-88.6	6.2	2.83e-01	0	47	0	0	60	1048573
2026-01-18 12:52:56.65	222.55	4.42	-84.7	-88.6	6.3	2.81e-01	0	47	0	0	60	1048574
2026-01-18 12:53:00.68	222.93	4.64	-85.2	-88.6	6.1	2.80e-01	0	47	0	0	60	1048574
2026-01-18 12:53:04.69	223.30	4.86	-84.7	-88.6	5.9	2.79e-01	0	47	0	0	60	1048574
2026-01-18 12:53:08.72	223.69	5.09	-85.2	-88.6	5.7	2.81e-01	0	47	0	0	60	1048573
2026-01-18 12:53:12.74	224.08	5.31	-84.7	-88.6	6.3	2.84e-01	0	47	0	0	60	1048572
2026-01-18 12:53:16.77	224.47	5.54	-84.7	-88.6	6.0	2.83e-01	0	47	0	0	60	1048572
2026-01-18 12:53:20.80	224.87	5.76	-84.7	-88.6	5.9	2.81e-01	0	47	0	0	60	1048575
2026-01-18 12:53:24.82	225.28	5.99	-84.7	-88.6	5.8	2.81e-01	0	47	0	0	60	1048573
2026-01-18 12:53:28.85	225.70	6.22	-85.2	-88.6	5.9	2.84e-01	0	47	0	0	60	1048574
2026-01-18 12:53:32.87	226.11	6.45	-85.2	-88.6	6.2	2.87e-01	0	47	0	0	60	1048575
2026-01-18 12:53:36.90	226.54	6.68	-84.7	-88.6	6.2	2.80e-01	0	47	0	0	60	1048575
2026-01-18 12:53:40.92	226.97	6.91	-85.2	-88.6	3.6	7.62e-01	0	47	104	0	60	1048575
2026-01-18 12:53:44.96	227.41	7.14	-84.7	-88.6	3.4	7.62e-01	0	47	104	0	60	1048575
2026-01-18 12:53:48.99	227.86	7.37	-85.2	-88.6	2.7	7.63e-01	0	47	104	0	60	1048574
2026-01-18 12:53:53.02	228.31	7.61	-85.2	-88.6	2.9	7.64e-01	0	47	104	0	60	1048574
2026-01-18 12:53:57.05	228.77	7.84	-85.2	-88.6	3.6	7.63e-01	0	47	104	0	60	1048574
2026-01-18 12:54:01.08	229.24	8.07	-85.2	-88.6	2.6	7.63e-01	0	47	104	0	60	1048574
2026-01-18 12:54:05.10	229.72	8.31	-85.2	-88.6	3.4	7.62e-01	0	47	104	0	60	1048573
2026-01-18 12:54:09.14	230.20	8.54	-85.2	-88.6	3.0	7.62e-01	0	47	104	0	60	1048575
2026-01-18 12:54:13.17	230.69	8.78	-84.7	-88.6	3.0	7.62e-01	0	47	104	0	60	1048575
2026-01-18 12:54:17.19	231.19	9.02	-84.7	-88.6	3.3	7.63e-01	0	47	104	0	60	1048573
2026-01-18 12:54:21.22	231.69	9.25	-85.2	-88.6	3.3	7.63e-01	0	47	104	0	60	1048575
2026-01-18 12:54:25.25	232.20	9.49	-85.2	-88.6	3.3	7.62e-01	0	47	104	0	60	1048575
2026-01-18 12:54:29.27	232.72	9.72	-85.2	-88.6	2.9	7.63e-01	0	47	104	0	60	1048565
2026-01-18 12:54:33.30	233.25	9.96	-85.2	-88.6	2.8	7.64e-01	0	47	104	0	60	1048574
2026-01-18 12:54:37.33	233.79	10.20	-85.2	-88.6	3.5	7.63e-01	0	47	104	0	60	1048575
2026-01-18 12:54:41.37	234.34	10.44	-85.2	-88.6	2.9	7.64e-01	0	47	104	0	60	1048571
2026-01-18 12:54:45.39	234.89	10.67	-85.2	-88.6	3.3	7.64e-01	0	47	104	0	60	1048574
2026-01-18 12:54:49.42	235.46	10.91	-85.2	-88.6	2.8	7.63e-01	0	47	104	0	60	1048575
2026-01-18 12:54:53.45	236.03	11.15	-85.2	-88.6	3.1	7.62e-01	0	47	104	0	60	1048575
2026-01-18 12:54:57.48	236.61	11.38	-85.2	-88.6	3.0	7.62e-01	0	47	104	0	60	1048575
2026-01-18 12:55:01.52	237.20	11.62	-84.7	-88.6	3.0	7.63e-01	0	47	104	0	60	1048573
2026-01-18 12:55:05.55	237.80	11.86	-85.2	-88.6	3.7	7.64e-01	0	47	104	0	60	1048568
2026-01-18 12:55:09.58	238.41	12.09	-85.2	-88.6	3.3	7.64e-01	0	47	104	0	60	1048572
2026-01-18 12:55:13.61	239.03	12.33	-85.2	-88.6	3.0	7.63e-01	0	47	104	0	60	1048575
2026-01-18 12:55:17.62	239.66	12.56	-85.2	-88.6	3.1	7.63e-01	0	47	104	0	60	1048574
2026-01-18 12:55:21.64	240.29	12.79	-85.2	-88.6	2.8	7.62e-01	0	47	104	0	60	1048574
2026-01-18 12:55:25.66	240.94	13.02	-85.2	-88.6	3.1	7.63e-01	0	47	104	0	60	1048569
2026-01-18 12:55:29.70	241.60	13.26	-84.7	-88.6	3.2	7.62e-01	0	47	104	0	60	1048571
2026-01-18 12:55:33.73	242.26	13.49	-85.2	-88.6	3.1	7.64e-01	0	47	104	0	60	1048572
2026-01-18 12:55:37.76	242.94	13.71	-85.2	-88.6	3.1	7.61e-01	0	47	104	0	60	1048575
2026-01-18 12:55:41.77	243.63	13.94	-85.2	-88.6	2.9	7.64e-01	0	47	104	0	60	1048573
2026-01-18 12:55:45.81	244.33	14.16	-85.2	-88.6	3.1	7.62e-01	0	47	104	0	60	1048575
2026-01-18 12:55:49.83	245.03	14.39	-85.2	-88.6	2.9	7.62e-01	0	47	104	0	60	1048575
2026-01-18 12:55:53.85	245.75	14.61	-85.2	-88.6	3.7	7.60e-01	0	47	104	0	60	1048574
2026-01-18 12:55:57.88	246.48	14.83	-85.2	-88.6	3.6	7.64e-01	0	47	104	0	60	1048573
2026-01-18 12:56:01.92	247.22	15.04	-85.2	-88.6	2.6	7.64e-01	0	47	104	0	60	1048575
2026-01-18 12:56:05.95	247.97	15.26	-84.7	-88.6	3.3	7.63e-01	0	47	104	0	60	1048574
2026-01-18 12:56:09.97	248.73	15.47	-85.2	-88.6	3.0	7.62e-01	0	47	104	0	60	1048575
2026-01-18 12:56:13.99	249.50	15.67	-84.7	-88.6	3.1	7.63e-01	0	47	104	0	60	1048572
2026-01-18 12:56:18.03	250.28	15.88	-84.7	-88.6	3.6	7.63e-01	0	47	104	0	60	1048575
2026-01-18 12:56:22.06	251.07	16.08	-85.2	-88.6	3.4	7.65e-01	0	47	104	0	60	1048575
2026-01-18 12:56:26.08	251.87	16.28	-84.7	-88.6	3.1	7.62e-01	0	47	104	0	60	1048570
2026-01-18 12:56:30.10	252.68	16.47	-85.2	-88.6	2.9	7.65e-01	0	47	104	0	60	1048575
2026-01-18 12:56:34.13	253.50	16.66	-85.2	-88.6	3.3	7.62e-01	0	47	104	0	60	1048573
2026-01-18 12:56:38.16	254.33	16.85	-85.2	-88.6	3.6	7.63e-01	0	47	104	0	60	1048574
2026-01-18 12:56:42.19	255.17	17.03	-85.2	-88.6	3.4	7.62e-01	0	47	104	0	60	1048571
2026-01-18 12:56:46.21	256.02	17.20	-84.7	-88.6	2.9	7.64e-01	0	47	104	0	60	1048575
2026-01-18 12:56:50.24	256.88	17.38	-85.2	-88.6	3.0	7.64e-01	0	47	104	0	60	1048572
2026-01-18 12:56:54.28	257.76	17.54	-84.7	-88.6	3.5	7.64e-01	0	47	104	0	60	1048573
2026-01-18 12:56:58.31	258.64	17.71	-85.2	-88.6	2.9	7.63e-01	0	47	104	0	60	1048572
2026-01-18 12:57:02.34	259.52	17.86	-85.2	-88.6	3.6	7.63e-01	0	47	104	0	60	1048575
2026-01-18 12:57:06.37	260.42	18.01	-85.2	-88.6	3.3	7.62e-01	0	47	104	0	60	1048571
2026-01-18 12:57:10.40	261.33	18.16	-85.2	-88.6	3.1	7.63e-01	0	47	104	0	60	1048568
2026-01-18 12:57:14.44	262.24	18.29	-84.7	-88.6	3.5	7.63e-01	0	47	104	0	60	1048572
2026-01-18 12:57:18.47	263.17	18.43	-84.7	-88.6	3.4	7.62e-01	0	47	104	0	60	1048575
2026-01-18 12:57:22.50	264.09	18.55	-85.2	-88.6	3.9	7.64e-01	0	47	104	0	60	1048574
2026-01-18 12:57:26.52	265.03	18.67	-85.2	-88.6	3.6	7.64e-01	0	47	104	0	60	1048573
2026-01-18 12:57:30.54	265.97	18.78	-85.2	-88.6	3.0	7.63e-01	0	47	104	0	60	1048574
2026-01-18 12:57:34.57	266.92	18.89	-85.2	-88.6	3.0	7.62e-01	0	47	104	0	60	1048575
2026-01-18 12:57:38.60	267.88	18.98	-85.2	-88.6	2.8	7.62e-01	0	47	104	0	60	1048575
2026-01-18 12:57:42.64	268.84	19.07	-84.7	-88.6	3.7	7.63e-01	0	47	104	0	60	1048575
2026-01-18 12:57:46.66	269.81	19.15	-84.7	-88.6	3.2	7.63e-01	0	47	104	0	60	1048575
2026-01-18 12:57:50.69	270.78	19.23	-85.2	-88.6	3.6	7.64e-01	0	47	104	0	60	1048573
2026-01-18 12:57:54.72	271.75	19.29	-85.2	-88.6	3.8	7.64e-01	0	47	104	0	60	1048573
2026-01-18 12:57:58.75	272.73	19.35	-85.2	-88.6	2.8	7.64e-01	0	47	104	0	60	1048573
2026-01-18 12:58:02.78	273.72	19.40	-85.2	-88.6	2.7	7.63e-01	0	47	104	0	60	1048570
2026-01-18 12:58:06.80	274.70	19.45	-85.2	-88.6	3.1	7.65e-01	0	47	104	0	60	1048575
2026-01-18 12:58:10.84	275.69	19.48	-85.2	-88.6	2.9	7.63e-01	0	47	104	0	60	1048575
2026-01-18 12:58:14.87	276.68	19.50	-85.2	-88.6	3.3	7.62e-01	0	47	104	0	60	1048574
2026-01-18 12:58:18.89	277.67	19.52	-85.2	-88.6	3.6	7.63e-01	0	47	104	0	60	1048567
2026-01-18 12:58:22.92	278.66	19.53	-85.2	-88.6	3.3	7.64e-01	0	47	104	0	60	1048575
2026-01-18 12:58:26.95	279.66	19.53	-85.2	-88.6	2.9	7.61e-01	0	47	104	0	60	1048573
2026-01-18 12:58:30.97	280.65	19.52	-84.7	-88.6	3.3	7.65e-01	0	47	104	0	60	1048574
2026-01-18 12:58:35.00	281.64	19.51	-84.7	-88.6	3.2	7.62e-01	0	47	104	0	60	1048571
2026-01-18 12:58:39.04	282.63	19.48	-84.7	-88.6	3.2	7.61e-01	0	47	104	0	60	1048572
2026-01-18 12:58:43.07	283.62	19.45	-85.2	-88.6	2.9	7.62e-01	0	47	104	0	60	1048574
2026-01-18 12:58:47.10	284.60	19.41	-85.2	-88.6	2.9	7.63e-01	0	47	104	0	60	1048575
2026-01-18 12:58:51.13	285.59	19.36	-85.2	-88.6	3.2	7.63e-01	0	47	104	0	60	1048571
2026-01-18 12:58:55.16	286.56	19.30	-85.2	-88.6	3.7	7.64e-01	0	47	104	0	60	1048575
2026-01-18 12:58:59.18	287.54	19.23	-84.7	-88.6	2.8	7.63e-01	0	47	104	0	60	1048573
2026-01-18 12:59:03.21	288.51	19.16	-84.7	-88.6	3.0	7.62e-01	0	47	104	0	60	1048574
2026-01-18 12:59:07.24	289.47	19.08	-85.2	-88.6	3.2	7.64e-01	0	47	104	0	60	1048575
2026-01-18 12:59:11.28	290.44	18.99	-85.2	-88.6	3.6	7.63e-01	0	47	104	0	60	1048575
2026-01-18 12:59:15.31	291.39	18.89	-85.2	-88.6	3.5	7.62e-01	0	47	104	0	60	1048572
2026-01-18 12:59:19.34	292.34	18.79	-85.2	-88.6	3.4	7.63e-01	0	47	104	0	60	1048575
2026-01-18 12:59:23.37	293.28	18.68	-85.2	-88.6	3.1	7.64e-01	0	47	104	0	60	1048571
2026-01-18 12:59:27.40	294.22	18.56	-85.2	-88.6	3.1	7.64e-01	0	47	104	0	60	1048573
2026-01-18 12:59:31.41	295.14	18.44	-85.2	-88.6	2.9	7.58e-01	0	47	104	0	60	1048570
2026-01-18 12:59:35.44	296.06	18.31	-85.2	-88.6	3.4	7.65e-01	0	47	104	0	60	1048574
2026-01-18 12:59:39.48	296.98	18.17	-85.2	-88.6	2.8	7.62e-01	0	47	104	0	60	1048574
2026-01-18 12:59:43.51	297.88	18.03	-85.2	-88.6	3.2	7.63e-01	0	47	104	0	60	1048575
2026-01-18 12:59:47.53	298.77	17.88	-85.2	-88.6	3.2	7.64e-01	0	47	104	0	60	1048575
2026-01-18 12:59:51.55	299.66	17.72	-85.2	-88.6	3.4	7.62e-01	0	47	104	0	60	1048575
2026-01-18 12:59:55.58	300.54	17.56	-84.7	-88.6	3.2	7.63e-01	0	47	104	0	60	1048572
2026-01-18 12:59:59.59	301.40	17.40	-85.2	-88.6	3.3	7.64e-01	0	47	104	0	60	1048575
2026-01-18 13:00:03.62	302.26	17.23	-85.2	-88.6	3.3	7.62e-01	0	47	104	0	60	1048575
2026-01-18 13:00:07.65	303.11	17.05	-85.2	-88.6	2.8	7.64e-01	0	47	104	0	60	1048575
2026-01-18 13:00:11.68	303.95	16.87	-85.2	-88.6	3.6	7.64e-01	0	47	104	0	60	1048573
2026-01-18 13:00:15.71	304.78	16.69	-85.2	-88.6	2.9	7.64e-01	0	47	104	0	60	1048574
2026-01-18 13:00:19.73	305.60	16.50	-84.7	-88.6	3.1	7.65e-01	0	47	104	0	60	1048575
2026-01-18 13:00:23.76	306.41	16.31	-84.7	-88.6	3.1	7.63e-01	0	47	104	0	60	1048573
2026-01-18 13:00:27.79	307.21	16.11	-85.2	-88.6	3.6	7.63e-01	0	47	104	0	60	1048574
2026-01-18 13:00:31.82	308.00	15.91	-85.2	-88.6	3.2	7.61e-01	0	47	104	0	60	1048574
2026-01-18 13:00:35.85	308.78	15.71	-84.7	-88.6	3.2	7.63e-01	0	47	104	0	60	1048573
2026-01-18 13:00:39.89	309.55	15.50	-85.2	-88.6	3.2	7.62e-01	0	47	104	0	60	1048575
2026-01-18 13:00:43.91	310.30	15.29	-85.2	-88.6	3.5	7.63e-01	0	47	104	0	60	1048571
2026-01-18 13:00:47.94	311.05	15.08	-84.7	-88.6	2.9	7.63e-01	0	47	104	0	60	1048570
2026-01-18 13:00:51.97	311.79	14.87	-85.2	-88.6	3.5	7.63e-01	0	47	104	0	60	1048574
2026-01-18 13:00:55.99	312.51	14.65	-84.7	-88.6	3.0	7.61e-01	0	47	104	0	60	1048575
2026-01-18 13:01:00.02	313.23	14.43	-85.2	-88.6	3.0	7.63e-01	0	47	104	0	60	1048572
2026-01-18 13:01:04.05	313.94	14.21	-85.2	-88.6	3.3	7.64e-01	0	47	104	0	60	1048566
2026-01-18 13:01:08.08	314.64	13.99	-85.2	-88.6	3.6	7.63e-01	0	47	104	0	60	1048573
2026-01-18 13:01:12.11	315.32	13.76	-85.2	-88.6	3.6	7.62e-01	0	47	104	0	60	1048575
2026-01-18 13:01:16.14	316.00	13.53	-85.2	-88.6	3.1	7.62e-01	0	47	104	0	60	1048574
2026-01-18 13:01:20.17	316.66	13.31	-85.2	-88.6	2.8	7.62e-01	0	47	104	0	60	1048575
2026-01-18 13:01:24.21	317.32	13.08	-84.7	-88.6	3.1	7.63e-01	0	47	104	0	60	1048575
2026-01-18 13:01:28.23	317.97	12.85	-85.2	-88.6	3.0	7.64e-01	0	47	104	0	60	1048574
2026-01-18 13:01:32.26	318.60	12.62	-85.2	-88.6	3.1	7.62e-01	0	47	104	0	60	1048575
2026-01-18 13:01:36.29	319.23	12.38	-85.2	-88.6	3.2	7.63e-01	0	47	104	0	60	1048572
2026-01-18 13:01:40.32	319.85	12.15	-84.7	-88.6	3.0	7.62e-01	0	47	104	0	60	1048573
2026-01-18 13:01:44.34	320.46	11.92	-85.2	-88.6	3.3	7.64e-01	0	47	104	0	60	1048572
2026-01-18 13:01:48.36	321.05	11.68	-85.2	-88.6	3.1	7.63e-01	0	47	104	0	60	1048572
2026-01-18 13:01:52.39	321.64	11.45	-85.2	-88.6	3.0	7.63e-01	0	47	104	0	60	1048574
2026-01-18 13:01:56.41	322.22	11.22	-85.2	-88.6	3.7	7.54e-01	0	47	104	0	60	1048574
2026-01-18 13:02:00.43	322.79	10.98	-85.2	-88.6	3.3	7.63e-01	0	47	104	0	60	1048574
2026-01-18 13:02:04.46	323.36	10.75	-84.7	-88.6	3.0	7.62e-01	0	48	104	0	60	1048575
2026-01-18 13:02:08.49	323.91	10.51	-84.7	-88.6	3.2	7.62e-01	0	47	104	0	60	1048573
2026-01-18 13:02:12.52	324.46	10.27	-85.2	-88.6	3.1	7.63e-01	0	47	104	0	60	1048575
2026-01-18 13:02:16.55	325.00	10.04	-85.2	-88.6	3.6	7.63e-01	0	47	104	0	60	1048571
2026-01-18 13:02:20.58	325.53	9.80	-85.2	-88.6	3.3	7.65e-01	0	47	104	0	60	1048574
2026-01-18 13:02:24.60	326.05	9.57	-85.2	-88.6	3.2	7.62e-01	0	47	104	0	60	1048573
2026-01-18 13:02:28.63	326.56	9.33	-84.7	-88.6	3.1	7.64e-01	0	47	104	0	60	1048574
2026-01-18 13:02:32.65	327.06	9.10	-85.2	-88.6	3.0	7.63e-01	0	47	104	0	60	1048574
2026-01-18 13:02:36.68	327.56	8.87	-85.2	-88.6	3.7	7.63e-01	0	47	104	0	60	1048574
2026-01-18 13:02:40.71	328.05	8.63	-85.2	-88.6	3.2	7.62e-01	0	48	104	0	60	1048574
2026-01-18 13:02:44.74	328.53	8.40	-85.2	-88.6	2.9	7.62e-01	0	48	104	0	60	1048574
2026-01-18 13:02:48.78	329.01	8.17	-85.2	-88.6	3.1	7.63e-01	0	47	104	0	60	1048573
2026-01-18 13:02:52.80	329.48	7.93	-85.2	-88.6	3.1	7.62e-01	0	47	104	0	60	1048575
2026-01-18 13:02:56.83	329.94	7.70	-85.2	-88.6	3.0	7.63e-01	0	47	104	0	60	1048573
2026-01-18 13:03:00.86	330.39	7.47	-84.3	-88.6	3.3	7.65e-01	0	47	104	0	60	1048571
2026-01-18 13:03:04.86	330.84	7.24	-85.2	-88.6	3.0	7.63e-01	0	47	104	0	60	1048572
2026-01-18 13:03:08.88	331.27	7.01	-85.2	-88.6	3.7	7.62e-01	0	47	104	0	60	1048573
2026-01-18 13:03:12.91	331.71	6.78	-85.2	-88.6	3.4	7.62e-01	0	47	104	0	60	1048575
2026-01-18 13:03:16.94	332.14	6.56	-85.2	-88.6	3.2	7.62e-01	0	47	104	0	60	1048573
2026-01-18 13:03:20.96	332.56	6.33	-85.2	-88.6	2.9	7.63e-01	0	47	104	0	60	1048572
2026-01-18 13:03:24.98	332.97	6.10	-84.7	-88.6	3.2	7.64e-01	0	47	104	0	60	1048571
2026-01-18 13:03:29.01	333.38	5.88	-84.7	-88.6	3.4	7.64e-01	0	47	104	0	60	1048575
2026-01-18 13:03:33.03	333.78	5.65	-85.2	-88.6	3.4	7.64e-01	0	47	104	0	60	1048572
2026-01-18 13:03:37.06	334.18	5.43	-85.2	-88.6	3.4	7.62e-01	0	47	104	0	60	1048575
2026-01-18 13:03:41.09	334.57	5.20	-85.2	-88.6	2.8	7.63e-01	0	47	104	0	60	1048574
2026-01-18 13:03:45.12	334.96	4.98	-85.2	-88.6	2.6	7.64e-01	0	47	104	0	60	1048574
2026-01-18 13:03:49.15	335.34	4.76	-84.7	-88.6	3.3	7.63e-01	0	47	104	0	60	1048570
2026-01-18 13:03:53.18	335.71	4.54	-84.7	-88.6	3.4	7.64e-01	0	47	104	0	60	1048572
2026-01-18 13:03:57.20	336.08	4.32	-85.2	-88.6	3.2	7.63e-01	0	47	104	0	60	1048574
2026-01-18 13:04:01.24	336.44	4.10	-85.2	-88.6	3.1	7.63e-01	0	47	104	0	60	1048574
2026-01-18 13:04:05.27	336.80	3.88	-85.2	-88.6	3.0	7.64e-01	0	47	104	0	60	1048575
2026-01-18 13:04:09.30	337.16	3.66	-85.2	-88.6	3.3	7.63e-01	0	47	104	0	60	1048575
2026-01-18 13:04:13.32	337.51	3.44	-85.2	-88.6	3.6	7.61e-01	0	47	104	0	60	1048571
2026-01-18 13:04:17.34	337.85	3.23	-84.7	-88.6	3.7	7.62e-01	0	47	104	0	60	1048575
2026-01-18 13:04:21.38	338.19	3.01	-85.2	-88.6	3.6	7.63e-01	0	47	104	0	60	1048572
2026-01-18 13:04:25.41	338.53	2.80	-84.7	-88.6	3.2	7.62e-01	0	47	104	0	60	1048574
2026-01-18 13:04:29.43	338.86	2.59	-85.2	-88.6	3.5	7.64e-01	0	47	104	0	60	1048575
2026-01-18 13:04:33.46	339.18	2.38	-85.2	-88.6	3.0	7.64e-01	0	47	104	0	60	1048574
2026-01-18 13:04:37.49	339.50	2.16	-85.2	-88.6	3.0	7.64e-01	0	47	104	0	60	1048575
2026-01-18 13:04:41.53	339.82	1.95	-84.7	-88.6	2.8	7.62e-01	0	47	104	0	60	1048573
2026-01-18 13:04:45.55	340.14	1.74	-84.7	-88.6	2.7	7.60e-01	0	47	104	0	60	1048575
2026-01-18 13:04:49.58	340.44	1.54	-85.2	-88.6	3.0	7.63e-01	0	47	104	0	60	1048574
2026-01-18 13:04:53.62	340.75	1.33	-85.2	-88.6	2.9	7.62e-01	0	47	104	0	60	1048574
2026-01-18 13:04:57.65	341.05	1.12	-85.2	-88.6	3.7	7.63e-01	0	47	104	0	60	1048575
2026-01-18 13:05:01.68	341.35	0.91	-85.2	-88.6	3.3	7.63e-01	0	47	104	0	60	1048572
2026-01-18 13:05:05.70	341.64	0.71	-84.7	-88.6	3.2	7.63e-01	0	47	104	0	60	1048573
2026-01-18 13:05:09.74	341.93	0.51	-85.2	-88.6	3.1	7.63e-01	0	47	104	0	60	1048574
2026-01-18 13:05:13.76	342.22	0.30	-85.2	-88.6	2.9	7.63e-01	0	48	104	0	60	1048575
2026-01-18 13:05:17.79	342.50	0.10	-85.2	-88.6	3.0	7.64e-01	0	47	104	0	60	1048575

#Closed at: 2026-01-18 13:05:20
#Recorded file [0 MB]: D:/Data/35015_260118_155136.dat