passes_logs/2026/01/18/R3.2S-Naryan-Mar/R3.2S-Naryan-Mar__20260118_054859_AQUA_rec.log

#Pass ID: 20260118_054859_AQUA
#Satellite: AQUA
#Configuration: AQUA
#almurnet v.1.7.20240730
#Start time: 2026-01-18 05:49:00

#Version: 2.2.20231116
#Station: R3.2S-Naryan-Mar
#Location: 53.008057 lon 67.646978 lat
#TLE: 1 27424U 02022A   26017.29152041  .00000842  00000+0  17841-3 0  9992
#TLE: 2 27424  98.4085 343.7574 0002011  75.4099  30.6811 14.61825797261228

#Time	Az	El	Level	Level2	SNR	BER	BlckErr	Temp	State	Recorded	gain1	gain2
2026-01-18 05:49:00.45	61.96	0.05	-85.2	-88.6	3.3	1.55e+00	0	45	0	0	60	1048573
2026-01-18 05:49:03.47	61.72	0.21	-84.3	-88.8	2.6	3.13e+01	0	46	104	0	60	1048575
2026-01-18 05:49:06.48	61.49	0.37	-83.5	-88.8	2.4	3.13e+01	0	46	104	0	60	1048575
2026-01-18 05:49:09.50	61.25	0.52	-84.3	-88.8	2.7	3.13e+01	0	46	104	0	60	1048575
2026-01-18 05:49:12.51	61.01	0.68	-84.3	-88.8	2.7	3.13e+01	0	46	104	0	60	1048575
2026-01-18 05:49:15.52	60.77	0.84	-83.9	-88.8	2.7	3.13e+01	0	46	104	0	60	1048575
2026-01-18 05:49:18.55	60.52	1.00	-84.3	-88.8	2.5	3.13e+01	0	46	104	0	60	1048575
2026-01-18 05:49:21.56	60.28	1.16	-83.9	-88.8	2.6	3.13e+01	0	46	104	0	60	1048575
2026-01-18 05:49:24.59	60.02	1.32	-83.9	-88.8	2.7	3.13e+01	0	47	104	0	60	1048575
2026-01-18 05:49:27.60	59.77	1.48	-84.3	-88.8	2.8	3.13e+01	0	47	104	0	60	1048575
2026-01-18 05:49:30.61	59.51	1.64	-83.9	-88.8	2.6	3.13e+01	0	47	104	0	60	1048575
2026-01-18 05:49:33.63	59.25	1.81	-84.3	-88.8	2.6	3.13e+01	0	47	104	0	60	1048575
2026-01-18 05:49:36.64	58.98	1.97	-84.3	-88.8	2.6	3.13e+01	0	47	104	0	60	1048575
2026-01-18 05:49:39.66	58.71	2.13	-83.9	-88.8	2.6	3.13e+01	0	47	104	0	60	1048575
2026-01-18 05:49:42.69	58.44	2.30	-84.3	-88.8	2.7	3.13e+01	0	46	104	0	60	1048575
2026-01-18 05:49:45.71	58.17	2.46	-84.3	-88.8	2.5	3.13e+01	0	47	104	0	60	1048575
2026-01-18 05:49:48.72	57.89	2.62	-83.9	-88.8	2.7	3.13e+01	0	47	104	0	60	1048575
2026-01-18 05:49:51.75	57.61	2.79	-84.3	-88.8	2.5	3.13e+01	0	47	104	0	60	1048575
2026-01-18 05:49:54.77	57.32	2.96	-83.9	-88.8	2.7	3.13e+01	0	47	104	0	60	1048575
2026-01-18 05:49:57.80	57.03	3.12	-84.3	-88.8	2.6	3.13e+01	0	47	104	0	60	1048575
2026-01-18 05:50:00.82	56.73	3.29	-84.3	-88.8	2.4	3.13e+01	0	47	104	0	60	1048575
2026-01-18 05:50:03.83	56.44	3.46	-83.9	-88.8	2.7	3.13e+01	0	47	104	0	60	1048575
2026-01-18 05:50:06.85	56.14	3.62	-84.3	-88.8	2.5	3.13e+01	0	47	104	0	60	1048575
2026-01-18 05:50:09.87	55.83	3.79	-84.3	-88.8	2.7	3.13e+01	0	47	104	0	60	1048575
2026-01-18 05:50:12.89	55.52	3.96	-83.9	-88.8	2.5	3.13e+01	0	47	104	0	60	1048575
2026-01-18 05:50:15.92	55.21	4.13	-84.3	-88.8	2.4	3.13e+01	0	47	104	0	60	1048575
2026-01-18 05:50:18.94	54.89	4.30	-83.9	-88.8	2.4	3.13e+01	0	47	104	0	60	1048575
2026-01-18 05:50:21.96	54.57	4.47	-84.3	-88.8	2.5	3.13e+01	0	47	104	0	60	1048575
2026-01-18 05:50:24.98	54.24	4.64	-84.3	-88.8	2.5	3.13e+01	0	47	104	0	60	1048575
2026-01-18 05:50:28.00	53.91	4.81	-83.9	-88.8	2.6	3.13e+01	0	47	104	0	60	1048575
2026-01-18 05:50:31.03	53.58	4.98	-84.3	-88.8	2.5	3.13e+01	0	47	104	0	60	1048575
2026-01-18 05:50:34.05	53.24	5.15	-84.3	-88.8	2.6	3.13e+01	0	47	104	0	60	1048575
2026-01-18 05:50:37.07	52.90	5.32	-83.9	-88.8	2.4	3.13e+01	0	47	104	0	60	1048575
2026-01-18 05:50:40.08	52.55	5.49	-84.3	-88.8	2.5	3.13e+01	0	47	104	0	60	1048575
2026-01-18 05:50:43.10	52.20	5.66	-84.3	-88.8	2.3	3.13e+01	0	47	104	0	60	1048575
2026-01-18 05:50:46.13	51.84	5.84	-83.9	-88.8	2.6	3.13e+01	0	47	104	0	60	1048575
2026-01-18 05:50:49.15	51.48	6.01	-84.3	-88.8	2.5	3.13e+01	0	47	104	0	60	1048575
2026-01-18 05:50:52.16	51.11	6.18	-83.9	-88.8	2.4	3.13e+01	0	47	104	0	60	1048575
2026-01-18 05:50:55.19	50.74	6.36	-84.3	-88.8	2.6	3.13e+01	0	47	104	0	60	1048575
2026-01-18 05:50:58.21	50.36	6.53	-84.3	-88.8	2.8	3.13e+01	0	47	104	0	60	1048575
2026-01-18 05:51:01.23	49.98	6.70	-83.9	-88.8	2.7	3.13e+01	0	47	104	0	60	1048575
2026-01-18 05:51:04.25	49.60	6.88	-84.3	-88.8	2.5	3.13e+01	0	47	104	0	60	1048575
2026-01-18 05:51:07.28	49.20	7.05	-84.3	-88.8	2.3	3.13e+01	0	47	104	0	60	1048575
2026-01-18 05:51:10.29	48.81	7.22	-83.9	-88.8	2.4	3.13e+01	0	47	104	0	60	1048575
2026-01-18 05:51:13.32	48.40	7.40	-84.3	-88.8	2.7	3.13e+01	0	47	104	0	60	1048575
2026-01-18 05:51:16.34	47.99	7.57	-84.3	-88.8	2.3	3.13e+01	0	47	104	0	60	1048575
2026-01-18 05:51:19.36	47.58	7.75	-83.9	-88.8	2.5	3.13e+01	0	47	104	0	60	1048575
2026-01-18 05:51:22.39	47.16	7.92	-84.3	-88.8	2.7	3.13e+01	0	47	104	0	60	1048575
2026-01-18 05:51:25.41	46.74	8.09	-83.9	-88.8	2.5	3.13e+01	0	47	104	0	60	1048575
2026-01-18 05:51:28.42	46.31	8.27	-83.9	-88.8	2.6	3.13e+01	0	47	104	0	60	1048575
2026-01-18 05:51:31.44	45.87	8.44	-84.3	-88.8	2.7	3.13e+01	0	47	104	0	60	1048575
2026-01-18 05:51:34.46	45.43	8.61	-83.9	-88.8	2.4	3.13e+01	0	47	104	0	60	1048575
2026-01-18 05:51:37.48	44.98	8.79	-84.3	-88.8	2.4	3.13e+01	0	47	104	0	60	1048575
2026-01-18 05:51:40.51	44.53	8.96	-84.3	-88.8	2.4	3.13e+01	0	47	104	0	60	1048575
2026-01-18 05:51:43.53	44.07	9.13	-83.9	-88.8	2.5	3.13e+01	0	47	104	0	60	1048575
2026-01-18 05:51:46.55	43.61	9.31	-84.3	-88.8	2.5	3.13e+01	0	47	104	0	60	1048575
2026-01-18 05:51:49.56	43.14	9.48	-84.3	-88.8	2.5	3.13e+01	0	47	104	0	60	1048575
2026-01-18 05:51:52.59	42.66	9.65	-83.9	-88.8	2.7	3.13e+01	0	47	104	0	60	1048573
2026-01-18 05:51:55.61	42.17	9.82	-84.3	-88.8	2.5	3.13e+01	0	47	104	0	60	1048573
2026-01-18 05:51:58.63	41.68	9.99	-84.3	-88.8	2.7	3.13e+01	0	47	104	0	60	1048573
2026-01-18 05:52:01.65	41.19	10.16	-84.3	-88.8	2.5	3.13e+01	0	47	104	0	60	1048573
2026-01-18 05:52:04.67	40.69	10.33	-84.3	-88.8	2.5	3.13e+01	0	47	104	0	60	1048573
2026-01-18 05:52:07.69	40.18	10.50	-83.9	-88.8	2.5	3.13e+01	0	47	104	0	60	1048573
2026-01-18 05:52:10.70	39.66	10.66	-84.3	-88.8	2.4	3.13e+01	0	47	104	0	60	1048573
2026-01-18 05:52:13.73	39.14	10.83	-84.3	-88.8	2.7	3.13e+01	0	47	104	0	60	1048573
2026-01-18 05:52:16.75	38.61	11.00	-83.9	-88.8	2.5	3.13e+01	0	47	104	0	60	1048573
2026-01-18 05:52:19.77	38.08	11.16	-84.3	-88.8	2.4	3.13e+01	0	47	104	0	60	1048573
2026-01-18 05:52:22.79	37.54	11.32	-84.3	-88.8	2.7	3.13e+01	0	47	104	0	60	1048573
2026-01-18 05:52:25.81	36.99	11.49	-83.9	-88.8	2.6	3.13e+01	0	47	104	0	60	1048574
2026-01-18 05:52:28.83	36.43	11.65	-84.3	-88.8	2.7	3.13e+01	0	47	104	0	60	1048574
2026-01-18 05:52:31.84	35.87	11.81	-83.9	-88.8	2.6	3.13e+01	0	47	104	0	60	1048574
2026-01-18 05:52:34.86	35.31	11.96	-84.3	-88.8	2.6	3.13e+01	0	47	104	0	60	1048574
2026-01-18 05:52:37.86	34.73	12.12	-84.3	-88.8	2.6	3.13e+01	0	47	104	0	60	1048574
2026-01-18 05:52:40.88	34.15	12.27	-83.9	-88.8	2.5	3.13e+01	0	47	104	0	60	1048574
2026-01-18 05:52:43.90	33.57	12.43	-84.3	-88.8	2.6	3.13e+01	0	47	104	0	60	1048574
2026-01-18 05:52:46.92	32.97	12.58	-84.3	-88.8	2.7	3.13e+01	0	47	104	0	60	1048575
2026-01-18 05:52:49.92	32.37	12.73	-83.9	-88.8	2.4	3.13e+01	0	47	104	0	60	1048575
2026-01-18 05:52:52.93	31.77	12.87	-84.3	-88.8	2.7	3.13e+01	0	47	104	0	60	1048575
2026-01-18 05:52:55.95	31.15	13.02	-83.9	-88.8	2.6	3.13e+01	0	47	104	0	60	1048575
2026-01-18 05:52:58.96	30.54	13.16	-84.3	-88.8	2.5	3.13e+01	0	47	104	0	60	1048575
2026-01-18 05:53:01.97	29.91	13.30	-84.3	-88.8	2.7	3.13e+01	0	47	104	0	60	1048575
2026-01-18 05:53:04.98	29.28	13.44	-83.9	-88.8	2.5	3.13e+01	0	47	104	0	60	1048575
2026-01-18 05:53:08.00	28.64	13.58	-84.3	-88.8	2.7	3.13e+01	0	47	104	0	60	1048575
2026-01-18 05:53:11.01	27.99	13.71	-84.3	-88.8	2.4	3.13e+01	0	47	104	0	60	1048575
2026-01-18 05:53:14.03	27.34	13.84	-83.9	-88.8	2.7	3.13e+01	0	47	104	0	60	1048575
2026-01-18 05:53:17.06	26.68	13.97	-84.3	-88.8	2.6	3.13e+01	0	47	104	0	60	1048575
2026-01-18 05:53:20.09	26.01	14.10	-84.3	-88.8	2.5	3.13e+01	0	47	104	0	60	1048575
2026-01-18 05:53:23.10	25.34	14.22	-83.9	-88.8	2.4	3.13e+01	0	47	104	0	60	1048575
2026-01-18 05:53:26.11	24.67	14.34	-84.3	-88.8	2.6	3.13e+01	0	47	104	0	60	1048575
2026-01-18 05:53:29.11	23.99	14.46	-84.3	-88.8	2.5	3.13e+01	0	47	104	0	60	1048575
2026-01-18 05:53:32.14	23.30	14.57	-84.3	-88.8	2.6	3.13e+01	0	47	104	0	60	1048575
2026-01-18 05:53:35.16	22.60	14.68	-84.3	-88.8	2.7	3.13e+01	0	47	104	0	60	1048575
2026-01-18 05:53:38.18	21.91	14.78	-83.9	-88.8	2.5	3.13e+01	0	47	104	0	60	1048575
2026-01-18 05:53:41.19	21.20	14.89	-84.3	-88.8	2.5	3.13e+01	0	47	104	0	60	1048575
2026-01-18 05:53:44.21	20.49	14.99	-84.3	-88.8	2.3	3.13e+01	0	47	104	0	60	1048575
2026-01-18 05:53:47.24	19.77	15.08	-83.9	-88.8	2.5	3.13e+01	0	47	104	0	60	1048575
2026-01-18 05:53:50.26	19.05	15.17	-84.3	-88.8	2.4	3.13e+01	0	47	104	0	60	1048575
2026-01-18 05:53:53.28	18.33	15.26	-84.3	-88.8	2.7	3.13e+01	0	47	104	0	60	1048575
2026-01-18 05:53:56.29	17.60	15.34	-83.9	-88.8	2.6	3.13e+01	0	47	104	0	60	1048575
2026-01-18 05:53:59.32	16.87	15.42	-84.3	-88.8	2.5	3.13e+01	0	47	104	0	60	1048575
2026-01-18 05:54:02.33	16.13	15.49	-84.3	-88.8	2.6	3.13e+01	0	47	104	0	60	1048575
2026-01-18 05:54:05.36	15.39	15.57	-84.3	-88.8	2.6	3.13e+01	0	47	104	0	60	1048575
2026-01-18 05:54:08.38	14.64	15.63	-84.3	-88.8	2.4	3.13e+01	0	47	104	0	60	1048575
2026-01-18 05:54:11.40	13.90	15.69	-83.9	-88.8	2.6	3.13e+01	0	47	104	0	60	1048575
2026-01-18 05:54:14.42	13.15	15.75	-84.3	-88.8	2.5	3.13e+01	0	47	104	0	60	1048575
2026-01-18 05:54:17.44	12.39	15.80	-84.3	-88.8	2.2	3.13e+01	0	47	104	0	60	1048575
2026-01-18 05:54:20.46	11.63	15.85	-83.9	-88.8	2.6	3.13e+01	0	47	104	0	60	1048575
2026-01-18 05:54:23.47	10.88	15.89	-84.3	-88.8	2.7	3.13e+01	0	47	104	0	60	1048575
2026-01-18 05:54:26.49	10.12	15.93	-84.3	-88.8	2.5	3.13e+01	0	47	104	0	60	1048575
2026-01-18 05:54:29.51	9.35	15.96	-83.9	-88.8	2.6	3.13e+01	0	47	104	0	60	1048575
2026-01-18 05:54:32.54	8.58	15.99	-84.3	-88.8	2.5	3.13e+01	0	47	104	0	60	1048575
2026-01-18 05:54:35.56	7.82	16.01	-83.9	-88.8	2.6	3.13e+01	0	47	104	0	60	1048575
2026-01-18 05:54:38.58	7.05	16.03	-84.3	-88.8	2.5	3.13e+01	0	47	104	0	60	1048575
2026-01-18 05:54:41.60	6.28	16.05	-84.3	-88.8	2.6	3.13e+01	0	47	104	0	60	1048575
2026-01-18 05:54:44.62	5.51	16.05	-83.9	-88.8	2.6	3.13e+01	0	47	104	0	60	1048575
2026-01-18 05:54:47.64	4.74	16.06	-84.3	-88.8	2.4	3.13e+01	0	47	104	0	60	1048575
2026-01-18 05:54:50.65	3.97	16.06	-84.3	-88.8	2.5	3.13e+01	0	47	104	0	60	1048575
2026-01-18 05:54:53.68	3.20	16.05	-83.9	-88.8	2.6	3.13e+01	0	47	104	0	60	1048575
2026-01-18 05:54:56.70	2.43	16.04	-84.3	-88.8	2.6	3.13e+01	0	47	104	0	60	1048575
2026-01-18 05:54:59.72	1.67	16.02	-84.3	-88.8	2.9	3.13e+01	0	47	104	0	60	1048575
2026-01-18 05:55:02.74	0.90	16.00	-84.3	-88.8	2.5	3.13e+01	0	47	104	0	60	1048575
2026-01-18 05:55:05.76	0.13	15.97	-84.3	-88.8	2.8	3.13e+01	0	47	104	0	60	1048575
2026-01-18 05:55:08.78	359.37	15.94	-83.9	-88.8	2.6	3.13e+01	0	47	104	0	60	1048575
2026-01-18 05:55:11.81	358.60	15.91	-84.3	-88.8	2.6	3.13e+01	0	47	104	0	60	1048575
2026-01-18 05:55:14.83	357.84	15.87	-84.3	-88.8	2.4	3.13e+01	0	47	104	0	60	1048575
2026-01-18 05:55:17.85	357.09	15.82	-83.9	-88.8	2.8	3.13e+01	0	47	104	0	60	1048575
2026-01-18 05:55:20.86	356.33	15.77	-84.3	-88.8	2.6	3.13e+01	0	47	104	0	60	1048575
2026-01-18 05:55:23.87	355.58	15.72	-84.3	-88.8	2.5	3.13e+01	0	47	104	0	60	1048575
2026-01-18 05:55:26.89	354.83	15.66	-83.9	-88.8	2.8	3.13e+01	0	47	104	0	60	1048575
2026-01-18 05:55:29.91	354.09	15.59	-83.9	-88.8	2.4	3.13e+01	0	47	104	0	60	1048575
2026-01-18 05:55:32.94	353.34	15.52	-84.3	-88.8	2.5	3.13e+01	0	47	104	0	60	1048575
2026-01-18 05:55:35.96	352.60	15.45	-84.3	-88.8	2.6	3.13e+01	0	47	104	0	60	1048575
2026-01-18 05:55:38.98	351.87	15.37	-84.3	-88.8	2.3	3.13e+01	0	47	104	0	60	1048575
2026-01-18 05:55:42.00	351.14	15.29	-83.9	-88.8	2.8	3.13e+01	0	47	104	0	60	1048575
2026-01-18 05:55:45.03	350.41	15.21	-84.3	-88.8	2.7	3.13e+01	0	47	104	0	60	1048575
2026-01-18 05:55:48.05	349.69	15.12	-84.3	-88.8	2.2	3.13e+01	0	47	104	0	60	1048575
2026-01-18 05:55:51.07	348.97	15.02	-83.9	-88.8	2.4	3.13e+01	0	47	104	0	60	1048575
2026-01-18 05:55:54.09	348.26	14.93	-84.3	-88.8	2.5	3.13e+01	0	47	104	0	60	1048575
2026-01-18 05:55:57.12	347.55	14.83	-84.3	-88.8	2.5	3.13e+01	0	47	104	0	60	1048575
2026-01-18 05:56:00.14	346.85	14.72	-83.9	-88.8	2.7	3.13e+01	0	47	104	0	60	1048575
2026-01-18 05:56:03.16	346.15	14.61	-84.3	-88.8	2.8	3.13e+01	0	47	104	0	60	1048575
2026-01-18 05:56:06.19	345.46	14.50	-83.9	-88.8	2.5	3.13e+01	0	47	104	0	60	1048575
2026-01-18 05:56:09.20	344.78	14.39	-84.3	-88.8	2.6	3.13e+01	0	47	104	0	60	1048575
2026-01-18 05:56:12.21	344.10	14.27	-84.3	-88.8	2.6	3.13e+01	0	47	104	0	60	1048575
2026-01-18 05:56:15.23	343.43	14.15	-84.3	-88.8	2.6	3.13e+01	0	47	104	0	60	1048575
2026-01-18 05:56:18.25	342.76	14.02	-84.3	-88.8	2.6	3.13e+01	0	47	104	0	60	1048575
2026-01-18 05:56:21.27	342.10	13.90	-84.3	-88.8	2.5	3.13e+01	0	47	104	0	60	1048575
2026-01-18 05:56:24.29	341.44	13.77	-83.9	-88.8	2.5	3.13e+01	0	47	104	0	60	1048575
2026-01-18 05:56:27.30	340.80	13.63	-84.3	-88.8	2.4	3.13e+01	0	47	104	0	60	1048575
2026-01-18 05:56:30.31	340.16	13.50	-84.3	-88.8	2.8	3.13e+01	0	47	104	0	60	1048575
2026-01-18 05:56:33.32	339.52	13.36	-84.3	-88.8	2.6	3.13e+01	0	47	104	0	60	1048575
2026-01-18 05:56:36.35	338.89	13.22	-84.3	-88.8	2.6	3.13e+01	0	47	104	0	60	1048575
2026-01-18 05:56:39.37	338.27	13.08	-84.3	-88.8	2.4	3.13e+01	0	47	104	0	60	1048575
2026-01-18 05:56:42.39	337.65	12.93	-84.3	-88.8	2.6	3.13e+01	0	47	104	0	60	1048574
2026-01-18 05:56:45.41	337.04	12.79	-84.3	-88.8	2.4	3.13e+01	0	47	104	0	60	1048574
2026-01-18 05:56:48.44	336.44	12.64	-83.9	-88.8	2.7	3.13e+01	0	47	104	0	60	1048574
2026-01-18 05:56:51.46	335.84	12.49	-84.3	-88.8	2.7	3.13e+01	0	47	104	0	60	1048574
2026-01-18 05:56:54.48	335.25	12.33	-84.3	-88.8	2.6	3.13e+01	0	47	104	0	60	1048574
2026-01-18 05:56:57.51	334.67	12.18	-83.9	-88.8	2.5	3.13e+01	0	47	104	0	60	1048574
2026-01-18 05:57:00.52	334.09	12.02	-84.3	-88.8	2.5	3.13e+01	0	47	104	0	60	1048574
2026-01-18 05:57:03.54	333.52	11.87	-84.3	-88.8	2.7	3.13e+01	0	47	104	0	60	1048574
2026-01-18 05:57:06.56	332.96	11.71	-83.9	-88.8	2.3	3.13e+01	0	47	104	0	60	1048574
2026-01-18 05:57:09.59	332.40	11.55	-83.9	-88.8	2.5	3.13e+01	0	47	104	0	60	1048574
2026-01-18 05:57:12.61	331.85	11.38	-83.9	-88.8	2.6	3.13e+01	0	47	104	0	60	1048574
2026-01-18 05:57:15.64	331.30	11.22	-84.3	-88.8	2.7	3.13e+01	0	47	104	0	60	1048574
2026-01-18 05:57:18.66	330.77	11.06	-84.3	-88.8	2.4	3.13e+01	0	47	104	0	60	1048574
2026-01-18 05:57:21.68	330.24	10.89	-83.9	-88.8	2.4	3.13e+01	0	47	104	0	60	1048574
2026-01-18 05:57:24.70	329.71	10.73	-84.3	-88.8	2.5	3.13e+01	0	47	104	0	60	1048574
2026-01-18 05:57:27.73	329.19	10.56	-84.3	-88.8	2.6	3.13e+01	0	47	104	0	60	1048574
2026-01-18 05:57:30.74	328.69	10.39	-83.9	-88.8	2.5	3.13e+01	0	47	104	0	60	1048574
2026-01-18 05:57:33.75	328.18	10.22	-84.3	-88.8	2.4	3.13e+01	0	47	104	0	60	1048574
2026-01-18 05:57:36.77	327.68	10.05	-84.3	-88.8	2.3	3.13e+01	0	47	104	0	60	1048574
2026-01-18 05:57:39.79	327.19	9.88	-83.9	-88.8	2.7	3.13e+01	0	47	104	0	60	1048574
2026-01-18 05:57:42.81	326.71	9.71	-84.3	-88.8	2.7	3.13e+01	0	47	104	0	60	1048574
2026-01-18 05:57:45.84	326.23	9.54	-83.9	-88.8	2.4	3.13e+01	0	47	104	0	60	1048574
2026-01-18 05:57:48.86	325.75	9.37	-84.3	-88.8	2.6	3.13e+01	0	47	104	0	60	1048574
2026-01-18 05:57:51.89	325.29	9.20	-84.3	-88.8	2.9	3.13e+01	0	47	104	0	60	1048574
2026-01-18 05:57:54.91	324.82	9.02	-83.9	-88.8	2.7	3.13e+01	0	47	104	0	60	1048574
2026-01-18 05:57:57.93	324.37	8.85	-84.3	-88.8	2.4	3.13e+01	0	47	104	0	60	1048574
2026-01-18 05:58:00.96	323.92	8.68	-84.3	-88.8	2.7	3.13e+01	0	47	104	0	60	1048574
2026-01-18 05:58:03.98	323.48	8.51	-83.9	-88.8	2.6	3.13e+01	0	47	104	0	60	1048574
2026-01-18 05:58:06.99	323.04	8.33	-84.3	-88.8	2.5	3.13e+01	0	47	104	0	60	1048574
2026-01-18 05:58:10.01	322.61	8.16	-83.9	-88.8	2.5	3.13e+01	0	47	104	0	60	1048574
2026-01-18 05:58:13.03	322.18	7.99	-84.3	-88.8	2.6	3.13e+01	0	47	104	0	60	1048574
2026-01-18 05:58:16.05	321.76	7.81	-84.3	-88.8	2.6	3.13e+01	0	47	104	0	60	1048574
2026-01-18 05:58:19.08	321.35	7.64	-83.9	-88.8	2.7	3.13e+01	0	47	104	0	60	1048575
2026-01-18 05:58:22.10	320.94	7.46	-84.3	-88.8	2.2	3.13e+01	0	47	104	0	60	1048575
2026-01-18 05:58:25.13	320.53	7.29	-83.9	-88.8	2.7	3.13e+01	0	47	104	0	60	1048575
2026-01-18 05:58:28.15	320.13	7.12	-83.9	-88.8	2.3	3.13e+01	0	47	104	0	60	1048575
2026-01-18 05:58:31.17	319.74	6.94	-84.3	-88.8	2.7	3.13e+01	0	47	104	0	60	1048575
2026-01-18 05:58:34.19	319.35	6.77	-84.3	-88.8	2.3	3.13e+01	0	47	104	0	60	1048575
2026-01-18 05:58:37.22	318.97	6.59	-83.9	-88.8	2.5	3.13e+01	0	47	104	0	60	1048575
2026-01-18 05:58:40.23	318.59	6.42	-84.3	-88.8	2.7	3.13e+01	0	47	104	0	60	1048575
2026-01-18 05:58:43.26	318.22	6.25	-84.3	-88.8	2.6	3.13e+01	0	47	104	0	60	1048575
2026-01-18 05:58:46.27	317.85	6.08	-84.3	-88.8	2.5	3.13e+01	0	47	104	0	60	1048575
2026-01-18 05:58:49.29	317.49	5.90	-84.3	-88.8	2.7	3.13e+01	0	47	104	0	60	1048575
2026-01-18 05:58:52.31	317.13	5.73	-83.9	-88.8	2.6	3.13e+01	0	47	104	0	60	1048575
2026-01-18 05:58:55.33	316.77	5.56	-84.3	-88.8	2.6	3.13e+01	0	47	104	0	60	1048575
2026-01-18 05:58:58.36	316.42	5.39	-84.3	-88.8	2.6	3.13e+01	0	47	104	0	60	1048575
2026-01-18 05:59:01.37	316.08	5.22	-83.9	-88.8	2.5	3.13e+01	0	47	104	0	60	1048575
2026-01-18 05:59:04.38	315.74	5.05	-84.3	-88.8	2.5	3.13e+01	0	47	104	0	60	1048575
2026-01-18 05:59:07.40	315.41	4.87	-84.3	-88.8	2.7	3.13e+01	0	47	104	0	60	1048575
2026-01-18 05:59:10.42	315.08	4.70	-83.9	-88.8	2.5	3.13e+01	0	47	104	0	60	1048575
2026-01-18 05:59:13.43	314.75	4.54	-84.3	-88.8	2.4	3.13e+01	0	47	104	0	60	1048575
2026-01-18 05:59:16.45	314.43	4.37	-84.3	-88.8	2.7	3.13e+01	0	47	104	0	60	1048575
2026-01-18 05:59:19.48	314.11	4.20	-84.3	-88.8	2.5	3.13e+01	0	47	104	0	60	1048575
2026-01-18 05:59:22.49	313.79	4.03	-84.3	-88.8	2.5	3.13e+01	0	47	104	0	60	1048575
2026-01-18 05:59:25.51	313.48	3.86	-83.9	-88.8	2.4	3.13e+01	0	47	104	0	60	1048575
2026-01-18 05:59:28.53	313.18	3.69	-84.3	-88.8	2.5	3.13e+01	0	47	104	0	60	1048575
2026-01-18 05:59:31.55	312.88	3.52	-84.3	-88.8	2.6	3.13e+01	0	47	104	0	60	1048575
2026-01-18 05:59:34.56	312.58	3.36	-83.9	-88.8	2.6	3.13e+01	0	47	104	0	60	1048575
2026-01-18 05:59:37.59	312.28	3.19	-84.3	-88.8	2.5	3.13e+01	0	47	104	0	60	1048575
2026-01-18 05:59:40.62	311.99	3.02	-84.3	-88.8	2.5	3.13e+01	0	47	104	0	60	1048575
2026-01-18 05:59:43.64	311.70	2.86	-83.9	-88.8	2.7	3.13e+01	0	47	104	0	60	1048575
2026-01-18 05:59:46.66	311.42	2.69	-84.3	-88.8	2.6	3.13e+01	0	47	104	0	60	1048575
2026-01-18 05:59:49.68	311.14	2.53	-84.3	-88.8	2.6	3.13e+01	0	47	104	0	60	1048575
2026-01-18 05:59:52.71	310.86	2.36	-83.9	-88.8	2.5	3.13e+01	0	47	104	0	60	1048575
2026-01-18 05:59:55.73	310.59	2.20	-84.3	-88.8	2.5	3.13e+01	0	47	104	0	60	1048575
2026-01-18 05:59:58.76	310.32	2.03	-83.9	-88.8	2.7	3.13e+01	0	47	104	0	60	1048575
2026-01-18 06:00:01.77	310.05	1.87	-84.3	-88.8	2.6	3.13e+01	0	47	104	0	60	1048575
2026-01-18 06:00:04.80	309.79	1.71	-84.3	-88.8	2.5	3.13e+01	0	47	104	0	60	1048575
2026-01-18 06:00:07.82	309.53	1.55	-83.9	-88.8	2.2	3.13e+01	0	47	104	0	60	1048575
2026-01-18 06:00:10.84	309.27	1.39	-84.3	-88.8	2.7	3.13e+01	0	47	104	0	60	1048571
2026-01-18 06:00:13.86	309.02	1.23	-84.3	-88.8	2.5	3.13e+01	0	47	104	0	60	1048571
2026-01-18 06:00:16.89	308.77	1.06	-83.9	-88.8	2.6	3.13e+01	0	47	104	0	60	1048571
2026-01-18 06:00:19.91	308.52	0.90	-84.3	-88.8	2.5	3.13e+01	0	47	104	0	60	1048571
2026-01-18 06:00:22.92	308.28	0.75	-83.9	-88.8	2.7	3.13e+01	0	47	104	0	60	1048571
2026-01-18 06:00:25.93	308.04	0.59	-84.3	-88.8	2.6	3.13e+01	0	47	104	0	60	1048571
2026-01-18 06:00:28.96	307.80	0.43	-84.3	-88.8	2.7	3.13e+01	0	47	104	0	60	1048571
2026-01-18 06:00:31.98	307.57	0.27	-83.9	-88.8	2.7	3.13e+01	0	47	104	0	60	1048571
2026-01-18 06:00:35.00	307.33	0.11	-84.3	-88.8	2.4	3.13e+01	0	47	104	0	60	1048571
2026-01-18 06:00:38.01	307.11	-0.04	-84.3	-88.8	2.5	3.13e+01	0	47	104	0	60	1048571

#Closed at: 2026-01-18 06:00:38
#Recorded file [0 MB]: D:/Data/35015_260118_084900.dat