passes_logs/2026/01/18/R3.2S-Naryan-Mar/R3.2S-Naryan-Mar__20260118_075005_FENGYUN_3D_rec.log

#Pass ID: 20260118_075005_FENGYUN 3D
#Satellite: FENGYUN 3D
#Configuration: FENGYUN 3D
#almurnet v.1.7.20240730
#Start time: 2026-01-18 07:50:08

#Version: 2.2.20231116
#Station: R3.2S-Naryan-Mar
#Location: 53.008057 lon 67.646978 lat
#TLE: 1 43010U 17072A   26017.25882587  .00000461  00000+0  23963-3 0  9992
#TLE: 2 43010  98.9934 349.1096 0002357 104.0487 256.0951 14.19697152423579

#Time	Az	El	Level	Level2	SNR	BER	BlckErr	Temp	State	Recorded	gain1	gain2
2026-01-18 07:50:08.89	96.83	0.18	-84.7	-88.6	6.3	2.78e-01	0	45	0	0	60	1048570
2026-01-18 07:50:12.92	96.64	0.40	-84.7	-88.6	6.3	2.78e-01	0	46	0	0	60	1048574
2026-01-18 07:50:16.95	96.44	0.63	-85.2	-88.6	3.3	7.64e-01	0	46	104	0	60	1048574
2026-01-18 07:50:20.98	96.24	0.86	-85.2	-88.6	3.4	7.62e-01	0	46	104	0	60	1048575
2026-01-18 07:50:25.00	96.04	1.09	-84.7	-88.6	2.6	7.63e-01	0	46	104	0	60	1048575
2026-01-18 07:50:29.03	95.84	1.32	-84.7	-88.6	3.1	7.64e-01	0	46	104	0	60	1048575
2026-01-18 07:50:33.05	95.63	1.56	-85.2	-88.6	2.9	7.63e-01	0	46	104	0	60	1048574
2026-01-18 07:50:37.07	95.42	1.79	-85.2	-88.6	3.3	7.64e-01	0	46	104	0	60	1048573
2026-01-18 07:50:41.09	95.20	2.03	-85.2	-88.6	3.2	7.63e-01	0	46	104	0	60	1048571
2026-01-18 07:50:45.12	94.98	2.27	-85.2	-88.6	3.0	7.62e-01	0	46	104	0	60	1048569
2026-01-18 07:50:49.15	94.76	2.51	-85.2	-88.6	3.0	7.64e-01	0	46	104	0	60	1048575
2026-01-18 07:50:53.18	94.53	2.75	-84.7	-88.6	3.1	7.63e-01	0	46	104	0	60	1048573
2026-01-18 07:50:57.20	94.30	2.99	-85.2	-88.6	3.1	7.64e-01	0	46	104	0	60	1048575
2026-01-18 07:51:01.22	94.07	3.24	-84.7	-88.6	2.5	7.63e-01	0	46	104	0	60	1048575
2026-01-18 07:51:05.25	93.83	3.48	-84.7	-88.6	3.4	7.63e-01	0	46	104	0	60	1048568
2026-01-18 07:51:09.28	93.58	3.73	-84.7	-88.6	2.9	7.63e-01	0	46	104	0	60	1048575
2026-01-18 07:51:13.31	93.34	3.98	-85.2	-88.6	3.0	7.63e-01	0	47	104	0	60	1048573
2026-01-18 07:51:17.33	93.08	4.23	-85.2	-88.6	3.2	7.63e-01	0	46	104	0	60	1048575
2026-01-18 07:51:21.36	92.83	4.49	-85.2	-88.6	3.3	7.63e-01	0	47	104	0	60	1048575
2026-01-18 07:51:25.38	92.57	4.74	-85.2	-88.6	3.6	7.63e-01	0	47	104	0	60	1048571
2026-01-18 07:51:29.39	92.30	5.00	-85.2	-88.6	3.3	7.65e-01	0	46	104	0	60	1048571
2026-01-18 07:51:33.40	92.03	5.26	-85.2	-88.6	3.1	7.63e-01	0	47	104	0	60	1048572
2026-01-18 07:51:37.43	91.75	5.52	-85.2	-88.6	3.2	7.63e-01	0	47	104	0	60	1048573
2026-01-18 07:51:41.45	91.47	5.78	-85.2	-88.6	2.9	7.62e-01	0	47	104	0	60	1048569
2026-01-18 07:51:45.48	91.18	6.05	-84.7	-88.6	2.9	7.64e-01	0	47	104	0	60	1048574
2026-01-18 07:51:49.49	90.89	6.31	-85.2	-88.6	2.9	7.64e-01	0	47	104	0	60	1048571
2026-01-18 07:51:53.52	90.59	6.58	-85.2	-88.6	3.7	7.63e-01	0	47	104	0	60	1048575
2026-01-18 07:51:57.56	90.29	6.85	-85.2	-88.6	3.4	7.64e-01	0	47	104	0	60	1048575
2026-01-18 07:52:01.58	89.98	7.13	-85.2	-88.6	3.1	7.64e-01	0	47	104	0	60	1048572
2026-01-18 07:52:05.60	89.66	7.40	-85.2	-88.6	3.0	7.63e-01	0	47	104	0	60	1048570
2026-01-18 07:52:09.64	89.34	7.68	-85.2	-88.6	3.5	7.64e-01	0	47	104	0	60	1048572
2026-01-18 07:52:13.67	89.01	7.96	-85.2	-88.6	3.3	7.64e-01	0	47	104	0	60	1048574
2026-01-18 07:52:17.69	88.68	8.24	-84.7	-88.6	3.1	7.61e-01	0	47	104	0	60	1048575
2026-01-18 07:52:21.72	88.33	8.53	-85.2	-88.6	2.9	7.62e-01	0	47	104	0	60	1048574
2026-01-18 07:52:25.75	87.98	8.81	-85.2	-88.6	3.0	7.64e-01	0	47	104	0	60	1048573
2026-01-18 07:52:29.78	87.63	9.10	-85.2	-88.6	3.0	7.63e-01	0	47	104	0	60	1048571
2026-01-18 07:52:33.81	87.26	9.40	-85.2	-88.6	3.3	7.63e-01	0	47	104	0	60	1048572
2026-01-18 07:52:37.83	86.89	9.69	-84.7	-88.6	3.4	7.63e-01	0	47	104	0	60	1048570
2026-01-18 07:52:41.87	86.51	9.98	-84.7	-88.6	3.0	7.63e-01	0	47	104	0	60	1048575
2026-01-18 07:52:45.89	86.12	10.28	-85.2	-88.6	3.3	7.64e-01	0	47	104	0	60	1048573
2026-01-18 07:52:49.92	85.73	10.58	-85.2	-88.6	2.8	7.62e-01	0	47	104	0	60	1048575
2026-01-18 07:52:53.94	85.32	10.88	-85.2	-88.6	3.2	7.63e-01	0	47	104	0	60	1048575
2026-01-18 07:52:57.96	84.91	11.19	-85.2	-88.6	3.1	7.65e-01	0	47	104	0	60	1048570
2026-01-18 07:53:01.97	84.49	11.49	-85.2	-88.6	3.6	7.62e-01	0	47	104	0	60	1048572
2026-01-18 07:53:05.99	84.06	11.80	-84.7	-88.6	3.1	7.63e-01	0	47	104	0	60	1048575
2026-01-18 07:53:10.01	83.62	12.11	-84.7	-88.6	3.3	7.63e-01	0	47	104	0	60	1048575
2026-01-18 07:53:14.05	83.17	12.43	-85.2	-88.6	2.8	7.66e-01	0	47	104	0	60	1048572
2026-01-18 07:53:18.08	82.71	12.75	-84.7	-88.6	3.0	7.63e-01	0	47	104	0	60	1048575
2026-01-18 07:53:22.10	82.24	13.06	-85.2	-88.6	3.6	7.62e-01	0	47	104	0	60	1048569
2026-01-18 07:53:26.12	81.76	13.38	-85.2	-88.6	3.2	7.63e-01	0	47	104	0	60	1048573
2026-01-18 07:53:30.14	81.27	13.71	-85.2	-88.6	3.1	7.64e-01	0	47	104	0	60	1048565
2026-01-18 07:53:34.17	80.76	14.03	-84.7	-88.6	3.4	7.63e-01	0	47	104	0	60	1048567
2026-01-18 07:53:38.20	80.25	14.36	-85.2	-88.6	3.4	7.63e-01	0	47	104	0	60	1048572
2026-01-18 07:53:42.23	79.72	14.69	-85.2	-88.6	3.0	7.63e-01	0	47	104	0	60	1048571
2026-01-18 07:53:46.26	79.18	15.02	-85.2	-88.6	3.1	7.63e-01	0	47	104	0	60	1048574
2026-01-18 07:53:50.29	78.63	15.35	-85.2	-88.6	2.9	7.62e-01	0	47	104	0	60	1048574
2026-01-18 07:53:54.32	78.07	15.69	-85.2	-88.6	2.9	7.64e-01	0	47	104	0	60	1048575
2026-01-18 07:53:58.35	77.49	16.02	-85.2	-88.6	3.6	7.64e-01	0	47	104	0	60	1048575
2026-01-18 07:54:02.37	76.90	16.36	-85.2	-88.6	3.5	7.63e-01	0	47	104	0	60	1048570
2026-01-18 07:54:06.39	76.30	16.70	-85.2	-88.6	2.9	7.62e-01	0	47	104	0	60	1048575
2026-01-18 07:54:10.42	75.68	17.04	-85.2	-88.6	3.0	7.63e-01	0	47	104	0	60	1048574
2026-01-18 07:54:14.43	75.05	17.38	-85.2	-88.6	3.3	7.63e-01	0	47	104	0	60	1048566
2026-01-18 07:54:18.46	74.41	17.72	-85.2	-88.6	3.4	7.63e-01	0	47	104	0	60	1048573
2026-01-18 07:54:22.49	73.74	18.07	-85.2	-88.6	2.9	7.64e-01	0	47	104	0	60	1048573
2026-01-18 07:54:26.52	73.07	18.41	-84.7	-88.6	3.1	7.62e-01	0	47	104	0	60	1048572
2026-01-18 07:54:30.55	72.37	18.76	-85.2	-88.6	3.1	7.63e-01	0	47	104	0	60	1048575
2026-01-18 07:54:34.57	71.67	19.10	-85.2	-88.6	3.0	7.61e-01	0	47	104	0	60	1048573
2026-01-18 07:54:38.59	70.94	19.45	-85.2	-88.6	3.0	7.62e-01	0	47	104	0	60	1048572
2026-01-18 07:54:42.63	70.20	19.80	-85.2	-88.6	3.0	7.62e-01	0	47	104	0	60	1048574
2026-01-18 07:54:46.65	69.44	20.14	-85.2	-88.6	3.5	7.63e-01	0	47	104	0	60	1048573
2026-01-18 07:54:50.68	68.66	20.49	-85.2	-88.6	3.1	7.62e-01	0	47	104	0	60	1048574
2026-01-18 07:54:54.72	67.86	20.83	-84.7	-88.6	3.0	7.64e-01	0	47	104	0	60	1048570
2026-01-18 07:54:58.75	67.05	21.17	-85.2	-88.6	2.9	7.63e-01	0	47	104	0	60	1048574
2026-01-18 07:55:02.77	66.22	21.51	-85.2	-88.6	3.0	7.63e-01	0	47	104	0	60	1048572
2026-01-18 07:55:06.79	65.37	21.85	-85.2	-88.6	3.0	7.63e-01	0	47	104	0	60	1048575
2026-01-18 07:55:10.82	64.50	22.19	-85.2	-88.6	3.4	7.63e-01	0	47	104	0	60	1048574
2026-01-18 07:55:14.85	63.61	22.52	-85.2	-88.6	3.1	7.64e-01	0	47	104	0	60	1048575
2026-01-18 07:55:18.88	62.71	22.85	-85.2	-88.6	3.6	7.63e-01	0	47	104	0	60	1048575
2026-01-18 07:55:22.90	61.78	23.18	-85.2	-88.6	3.4	7.61e-01	0	47	104	0	60	1048575
2026-01-18 07:55:26.93	60.84	23.50	-85.2	-88.6	3.1	7.62e-01	0	47	104	0	60	1048575
2026-01-18 07:55:30.96	59.87	23.82	-85.2	-88.6	2.9	7.62e-01	0	47	104	0	60	1048570
2026-01-18 07:55:34.99	58.88	24.13	-85.2	-88.6	3.3	7.63e-01	0	47	104	0	60	1048574
2026-01-18 07:55:39.01	57.88	24.43	-85.2	-88.6	3.1	7.63e-01	0	47	104	0	60	1048565
2026-01-18 07:55:43.04	56.85	24.73	-85.2	-88.6	3.3	7.63e-01	0	47	104	0	60	1048568
2026-01-18 07:55:47.07	55.81	25.03	-85.2	-88.6	3.0	7.64e-01	0	47	104	0	60	1048572
2026-01-18 07:55:51.10	54.74	25.31	-85.2	-88.6	3.0	7.64e-01	0	47	104	0	60	1048574
2026-01-18 07:55:55.13	53.66	25.59	-85.2	-88.6	2.9	7.63e-01	0	47	104	0	60	1048572
2026-01-18 07:55:59.16	52.55	25.86	-85.2	-88.6	3.4	7.64e-01	0	47	104	0	60	1048571
2026-01-18 07:56:03.18	51.44	26.12	-85.2	-88.6	3.2	7.62e-01	0	47	104	0	60	1048575
2026-01-18 07:56:07.22	50.29	26.37	-84.7	-88.6	2.9	7.62e-01	0	47	104	0	60	1048574
2026-01-18 07:56:11.23	49.14	26.61	-85.2	-88.6	3.0	7.63e-01	0	47	104	0	60	1048575
2026-01-18 07:56:15.26	47.97	26.84	-85.2	-88.6	3.0	7.64e-01	0	47	104	0	60	1048572
2026-01-18 07:56:19.29	46.77	27.05	-85.2	-88.6	3.3	7.64e-01	0	47	104	0	60	1048569
2026-01-18 07:56:23.32	45.57	27.26	-85.2	-88.6	3.6	7.63e-01	0	47	104	0	60	1048575
2026-01-18 07:56:27.35	44.34	27.45	-85.2	-88.6	3.2	7.62e-01	0	47	104	0	60	1048573
2026-01-18 07:56:31.38	43.11	27.63	-85.2	-88.6	2.7	7.63e-01	0	47	104	0	60	1048573
2026-01-18 07:56:35.41	41.86	27.79	-85.2	-88.6	2.8	7.64e-01	0	47	104	0	60	1048573
2026-01-18 07:56:39.44	40.59	27.94	-84.7	-88.6	3.6	7.62e-01	0	47	104	0	60	1048571
2026-01-18 07:56:43.46	39.32	28.07	-84.7	-88.6	3.6	7.63e-01	0	47	104	0	60	1048575
2026-01-18 07:56:47.48	38.04	28.19	-85.2	-88.6	3.4	7.63e-01	0	47	104	0	60	1048574
2026-01-18 07:56:51.51	36.75	28.30	-85.2	-88.6	3.4	7.63e-01	0	47	104	0	60	1048574
2026-01-18 07:56:55.54	35.45	28.39	-85.2	-88.6	2.9	7.63e-01	0	47	104	0	60	1048575
2026-01-18 07:56:59.57	34.14	28.46	-84.7	-88.6	3.2	7.62e-01	0	47	104	0	60	1048575
2026-01-18 07:57:03.59	32.83	28.51	-84.7	-88.6	3.4	7.63e-01	0	47	104	0	60	1048573
2026-01-18 07:57:07.63	31.51	28.55	-85.2	-88.6	3.5	7.62e-01	0	47	104	0	60	1048571
2026-01-18 07:57:11.66	30.19	28.57	-85.2	-88.6	3.2	7.62e-01	0	47	104	0	60	1048575
2026-01-18 07:57:15.69	28.87	28.58	-85.2	-88.6	3.1	7.63e-01	0	47	104	0	60	1048574
2026-01-18 07:57:19.71	27.55	28.56	-85.2	-88.6	2.8	7.63e-01	0	47	104	0	60	1048570
2026-01-18 07:57:23.74	26.24	28.53	-85.2	-88.6	3.2	7.64e-01	0	47	104	0	60	1048571
2026-01-18 07:57:27.77	24.92	28.49	-84.7	-88.6	2.9	7.62e-01	0	47	104	0	60	1048575
2026-01-18 07:57:31.80	23.61	28.42	-85.2	-88.6	3.3	7.62e-01	0	47	104	0	60	1048574
2026-01-18 07:57:35.83	22.31	28.34	-85.2	-88.6	3.0	7.61e-01	0	47	104	0	60	1048572
2026-01-18 07:57:39.85	21.01	28.25	-85.2	-88.6	2.9	7.63e-01	0	47	104	0	60	1048575
2026-01-18 07:57:43.88	19.73	28.14	-85.2	-88.6	3.0	7.63e-01	0	47	104	0	60	1048573
2026-01-18 07:57:47.90	18.45	28.01	-85.2	-88.6	3.7	7.62e-01	0	47	104	0	60	1048574
2026-01-18 07:57:51.93	17.18	27.87	-85.2	-88.6	2.9	7.64e-01	0	47	104	0	60	1048574
2026-01-18 07:57:55.95	15.93	27.71	-84.7	-88.6	3.4	7.64e-01	0	47	104	0	60	1048570
2026-01-18 07:57:59.98	14.69	27.54	-85.2	-88.6	3.2	7.64e-01	0	47	104	0	60	1048572
2026-01-18 07:58:04.00	13.46	27.36	-85.2	-88.6	3.5	7.63e-01	0	47	104	0	60	1048572
2026-01-18 07:58:08.02	12.25	27.16	-85.2	-88.6	2.9	7.63e-01	0	47	104	0	60	1048571
2026-01-18 07:58:12.05	11.05	26.95	-84.7	-88.6	2.9	7.62e-01	0	47	104	0	60	1048566
2026-01-18 07:58:16.07	9.87	26.73	-84.7	-88.6	3.0	7.63e-01	0	47	104	0	60	1048573
2026-01-18 07:58:20.09	8.71	26.50	-84.7	-88.6	3.0	7.64e-01	0	47	104	0	60	1048573
2026-01-18 07:58:24.10	7.57	26.25	-85.2	-88.6	3.2	7.63e-01	0	47	104	0	60	1048570
2026-01-18 07:58:28.13	6.44	26.00	-82.8	-88.6	3.3	7.61e-01	0	47	104	0	60	1048574
2026-01-18 07:58:32.15	5.33	25.73	-85.2	-88.6	3.1	7.62e-01	0	47	104	0	60	1048567
2026-01-18 07:58:36.19	4.23	25.46	-85.2	-88.6	3.1	7.63e-01	0	47	104	0	60	1048572
2026-01-18 07:58:40.22	3.16	25.18	-85.2	-88.6	3.0	7.63e-01	0	47	104	0	60	1048573
2026-01-18 07:58:44.25	2.10	24.89	-85.2	-88.6	3.0	7.65e-01	0	47	104	0	60	1048574
2026-01-18 07:58:48.28	1.07	24.59	-85.2	-88.6	3.3	7.63e-01	0	47	104	0	60	1048569
2026-01-18 07:58:52.31	0.06	24.29	-85.2	-88.6	3.3	7.64e-01	0	47	104	0	60	1048573
2026-01-18 07:58:56.34	359.06	23.98	-85.2	-88.6	3.1	7.64e-01	0	47	104	0	60	1048575
2026-01-18 07:59:00.37	358.09	23.67	-85.2	-88.6	2.9	7.64e-01	0	47	104	0	60	1048575
2026-01-18 07:59:04.37	357.14	23.35	-85.2	-88.6	2.9	7.63e-01	0	47	104	0	60	1048573
2026-01-18 07:59:08.40	356.20	23.03	-85.2	-88.6	3.2	7.61e-01	0	47	104	0	60	1048573
2026-01-18 07:59:12.43	355.29	22.70	-84.7	-88.6	3.3	7.62e-01	0	47	104	0	60	1048575
2026-01-18 07:59:16.46	354.39	22.37	-84.7	-88.6	3.7	7.63e-01	0	47	104	0	60	1048568
2026-01-18 07:59:20.48	353.51	22.04	-85.2	-88.6	3.1	7.63e-01	0	47	104	0	60	1048575
2026-01-18 07:59:24.51	352.65	21.70	-85.2	-88.6	3.1	7.62e-01	0	47	104	0	60	1048562
2026-01-18 07:59:28.54	351.81	21.36	-85.2	-88.6	2.9	7.64e-01	0	47	104	0	60	1048570
2026-01-18 07:59:32.55	351.00	21.02	-85.2	-88.6	2.7	7.63e-01	0	47	104	0	60	1048574
2026-01-18 07:59:36.59	350.19	20.68	-84.7	-88.6	3.1	7.63e-01	0	47	104	0	60	1048575
2026-01-18 07:59:40.62	349.41	20.33	-84.7	-88.6	3.4	7.64e-01	0	47	104	0	60	1048575
2026-01-18 07:59:44.65	348.64	19.99	-85.2	-88.6	2.9	7.63e-01	0	47	104	0	60	1048571
2026-01-18 07:59:48.68	347.89	19.64	-85.2	-88.6	3.3	7.63e-01	0	47	104	0	60	1048574
2026-01-18 07:59:52.71	347.16	19.30	-85.2	-88.6	2.9	7.62e-01	0	47	104	0	60	1048573
2026-01-18 07:59:56.73	346.44	18.95	-84.7	-88.6	3.1	7.64e-01	0	47	104	0	60	1048568
2026-01-18 08:00:00.77	345.74	18.61	-85.2	-88.6	2.9	7.61e-01	0	47	104	0	60	1048572
2026-01-18 08:00:04.79	345.06	18.26	-84.7	-88.6	3.3	7.62e-01	0	47	104	0	60	1048575
2026-01-18 08:00:08.81	344.39	17.92	-85.2	-88.6	3.2	7.63e-01	0	47	104	0	60	1048575
2026-01-18 08:00:12.84	343.74	17.58	-85.2	-88.6	3.0	7.64e-01	0	47	104	0	60	1048571
2026-01-18 08:00:16.87	343.10	17.23	-85.2	-88.6	3.0	7.62e-01	0	47	104	0	60	1048575
2026-01-18 08:00:20.90	342.48	16.89	-85.2	-88.6	3.0	7.64e-01	0	47	104	0	60	1048574
2026-01-18 08:00:24.92	341.87	16.55	-84.7	-88.6	3.5	7.63e-01	0	47	104	0	60	1048574
2026-01-18 08:00:28.95	341.27	16.22	-84.7	-88.6	3.3	7.64e-01	0	47	104	0	60	1048575
2026-01-18 08:00:32.98	340.69	15.88	-84.7	-88.6	3.7	7.63e-01	0	47	104	0	60	1048570
2026-01-18 08:00:37.00	340.12	15.55	-85.2	-88.6	3.4	7.63e-01	0	47	104	0	60	1048574
2026-01-18 08:00:41.02	339.57	15.21	-85.2	-88.6	3.0	7.63e-01	0	47	104	0	60	1048574
2026-01-18 08:00:45.05	339.03	14.88	-85.2	-88.6	3.1	7.64e-01	0	47	104	0	60	1048575
2026-01-18 08:00:49.08	338.50	14.55	-84.3	-88.6	3.0	7.64e-01	0	47	104	0	60	1048570
2026-01-18 08:00:53.11	337.98	14.22	-85.2	-88.6	3.4	7.63e-01	0	47	104	0	60	1048573
2026-01-18 08:00:57.13	337.47	13.90	-85.2	-88.6	3.3	7.63e-01	0	47	104	0	60	1048565
2026-01-18 08:01:01.16	336.97	13.58	-84.7	-88.6	3.0	7.61e-01	0	47	104	0	60	1048574
2026-01-18 08:01:05.19	336.49	13.25	-85.2	-88.6	3.1	7.63e-01	0	47	104	0	60	1048573
2026-01-18 08:01:09.22	336.01	12.93	-85.2	-88.6	2.9	7.64e-01	0	47	104	0	60	1048572
2026-01-18 08:01:13.25	335.55	12.62	-85.2	-88.6	3.5	7.64e-01	0	47	104	0	60	1048575
2026-01-18 08:01:17.28	335.09	12.30	-85.2	-88.6	3.5	7.62e-01	0	47	104	0	60	1048575
2026-01-18 08:01:21.31	334.65	11.99	-85.2	-88.6	3.0	7.63e-01	0	47	104	0	60	1048572
2026-01-18 08:01:25.33	334.22	11.68	-85.2	-88.6	3.0	7.61e-01	0	47	104	0	60	1048570
2026-01-18 08:01:29.35	333.79	11.37	-85.2	-88.6	3.1	7.63e-01	0	47	104	0	60	1048575
2026-01-18 08:01:33.37	333.38	11.07	-83.5	-88.6	3.3	7.62e-01	0	47	104	0	60	1048574
2026-01-18 08:01:37.40	332.97	10.77	-84.7	-88.6	3.1	7.63e-01	0	47	104	0	60	1048572
2026-01-18 08:01:41.43	332.57	10.46	-85.2	-88.6	3.3	7.65e-01	0	47	104	0	60	1048574
2026-01-18 08:01:45.46	332.18	10.17	-85.2	-88.6	3.5	7.63e-01	0	47	104	0	60	1048573
2026-01-18 08:01:49.47	331.80	9.87	-85.2	-88.6	3.6	7.64e-01	0	47	104	0	60	1048573
2026-01-18 08:01:53.50	331.43	9.58	-84.7	-88.6	3.6	7.62e-01	0	47	104	0	60	1048574
2026-01-18 08:01:57.53	331.06	9.28	-85.2	-88.6	3.1	7.63e-01	0	47	104	0	60	1048572
2026-01-18 08:02:01.55	330.70	8.99	-85.2	-88.6	3.0	7.61e-01	0	47	104	0	60	1048572
2026-01-18 08:02:05.58	330.35	8.71	-85.2	-88.6	3.5	7.63e-01	0	47	104	0	60	1048574
2026-01-18 08:02:09.60	330.01	8.42	-85.2	-88.6	3.4	7.63e-01	0	47	104	0	60	1048574
2026-01-18 08:02:13.64	329.67	8.14	-84.3	-88.6	3.8	7.64e-01	0	47	104	0	60	1048574
2026-01-18 08:02:17.66	329.34	7.86	-84.7	-88.6	3.0	7.63e-01	0	47	104	0	60	1048575
2026-01-18 08:02:21.68	329.01	7.58	-84.7	-88.6	3.4	7.63e-01	0	47	104	0	60	1048572
2026-01-18 08:02:25.71	328.69	7.30	-84.7	-88.6	2.9	7.61e-01	0	47	104	0	60	1048572
2026-01-18 08:02:29.74	328.38	7.03	-85.2	-88.6	3.0	7.63e-01	0	47	104	0	60	1048574
2026-01-18 08:02:33.76	328.08	6.76	-85.2	-88.6	3.6	7.63e-01	0	47	104	0	60	1048571
2026-01-18 08:02:37.78	327.78	6.49	-85.2	-88.6	3.5	7.63e-01	0	47	104	0	60	1048571
2026-01-18 08:02:41.81	327.48	6.22	-84.7	-88.6	3.1	7.63e-01	0	47	104	0	60	1048574
2026-01-18 08:02:45.84	327.20	5.95	-84.7	-88.6	3.2	7.63e-01	0	47	104	0	60	1048573
2026-01-18 08:02:49.87	326.91	5.69	-84.7	-88.6	3.1	7.63e-01	0	47	104	0	60	1048572
2026-01-18 08:02:53.91	326.64	5.43	-85.2	-88.6	3.2	7.63e-01	0	47	104	0	60	1048572
2026-01-18 08:02:57.93	326.36	5.17	-85.2	-88.6	3.0	7.63e-01	0	47	104	0	60	1048574
2026-01-18 08:03:01.95	326.10	4.91	-84.7	-88.6	3.5	7.63e-01	0	47	104	0	60	1048569
2026-01-18 08:03:05.97	325.84	4.65	-84.7	-88.6	3.0	7.63e-01	0	47	104	0	60	1048573
2026-01-18 08:03:09.99	325.58	4.40	-84.7	-88.6	2.9	7.62e-01	0	47	104	0	60	1048570
2026-01-18 08:03:14.03	325.32	4.15	-84.7	-88.6	3.3	7.63e-01	0	47	104	0	60	1048569
2026-01-18 08:03:18.06	325.08	3.89	-85.2	-88.6	2.9	7.63e-01	0	47	104	0	60	1048574
2026-01-18 08:03:22.09	324.83	3.65	-84.7	-88.6	3.0	7.63e-01	0	47	104	0	60	1048574
2026-01-18 08:03:26.10	324.59	3.40	-84.7	-88.6	3.1	7.64e-01	0	47	104	0	60	1048575
2026-01-18 08:03:30.12	324.36	3.15	-84.7	-88.6	3.2	7.62e-01	0	47	104	0	60	1048570
2026-01-18 08:03:34.14	324.13	2.91	-84.7	-88.6	3.5	7.63e-01	0	47	104	0	60	1048575
2026-01-18 08:03:38.17	323.90	2.67	-84.7	-88.6	3.7	7.63e-01	0	47	104	0	60	1048574
2026-01-18 08:03:42.20	323.68	2.43	-84.7	-88.6	3.3	7.63e-01	0	47	104	0	60	1048574
2026-01-18 08:03:46.23	323.46	2.19	-84.7	-88.6	3.7	7.63e-01	0	47	104	0	60	1048575
2026-01-18 08:03:50.26	323.24	1.95	-84.7	-88.6	3.1	7.63e-01	0	47	104	0	60	1048574
2026-01-18 08:03:54.28	323.03	1.72	-84.7	-88.6	3.7	7.64e-01	0	47	104	0	60	1048575
2026-01-18 08:03:58.31	322.82	1.48	-84.7	-88.6	2.9	7.62e-01	0	47	104	0	60	1048574
2026-01-18 08:04:02.32	322.62	1.25	-84.7	-88.6	3.1	7.63e-01	0	47	104	0	60	1048569
2026-01-18 08:04:06.36	322.42	1.02	-84.7	-88.6	3.0	7.64e-01	0	47	104	0	60	1048570
2026-01-18 08:04:10.39	322.22	0.79	-84.7	-88.6	3.5	7.61e-01	0	47	104	0	60	1048572
2026-01-18 08:04:14.40	322.03	0.56	-84.7	-88.6	3.5	7.63e-01	0	47	104	0	60	1048572
2026-01-18 08:04:18.43	321.83	0.33	-84.7	-88.6	3.3	7.64e-01	0	47	104	0	60	1048574
2026-01-18 08:04:22.46	321.65	0.11	-84.7	-88.6	3.0	7.63e-01	0	47	104	0	60	1048574

#Closed at: 2026-01-18 08:04:26
#Recorded file [0 MB]: D:/Data/35015_260118_105008.dat