passes_logs/2026/01/18/R3.2S-Naryan-Mar/R3.2S-Naryan-Mar__20260118_155758_TY-42_rec.log

#Pass ID: 20260118_155758_TY-42
#Satellite: TY-42
#Configuration: TY-42
#almurnet v.1.7.20240730
#Start time: 2026-01-18 15:57:59

#Version: 2.2.20231116
#Station: R3.2S-Naryan-Mar
#Location: 53.008057 lon 67.646978 lat
#TLE: 1 64048U 25103A   26018.53100694  .00008009  00000-0  38191-3 0 09990
#TLE: 2 64048 097.4124 093.8820 0001871 093.1015 305.9816 15.19165829 37354

#Time	Az	El	Level	Level2	SNR	BER	BlckErr	Temp	State	Recorded	gain1	gain2
2026-01-18 15:57:59.65	116.31	0.04	-83.1	-79.0	2.3	0.00e+00	0	45	0	0	60	1048573
2026-01-18 15:58:02.65	116.13	0.23	-83.5	-79.0	2.4	0.00e+00	0	47	104	0	60	1048575
2026-01-18 15:58:05.67	115.96	0.41	-83.5	-79.0	2.1	0.00e+00	0	47	104	0	60	1048575
2026-01-18 15:58:08.70	115.78	0.60	-82.8	-79.0	2.3	0.00e+00	0	47	104	0	60	1048575
2026-01-18 15:58:11.72	115.60	0.78	-83.5	-79.0	2.3	0.00e+00	0	47	104	0	60	1048572
2026-01-18 15:58:14.74	115.42	0.97	-83.1	-79.0	2.5	0.00e+00	0	47	104	0	60	1048575
2026-01-18 15:58:17.76	115.23	1.16	-83.1	-79.0	2.3	0.00e+00	0	47	104	0	60	1048573
2026-01-18 15:58:20.78	115.04	1.35	-83.5	-79.0	2.4	0.00e+00	0	47	104	0	60	1048575
2026-01-18 15:58:23.80	114.85	1.55	-83.1	-79.0	2.4	0.00e+00	0	47	104	0	60	1048575
2026-01-18 15:58:26.82	114.65	1.74	-83.5	-79.0	2.5	0.00e+00	0	47	104	0	60	1048575
2026-01-18 15:58:29.84	114.45	1.93	-83.5	-79.0	2.4	0.00e+00	0	47	104	0	60	1048566
2026-01-18 15:58:32.87	114.25	2.13	-83.1	-79.0	2.3	0.00e+00	0	47	104	0	60	1048575
2026-01-18 15:58:35.89	114.04	2.33	-83.5	-79.0	2.4	0.00e+00	0	47	104	0	60	1048570
2026-01-18 15:58:38.91	113.83	2.53	-83.5	-79.0	2.3	0.00e+00	0	48	104	0	60	1048575
2026-01-18 15:58:41.94	113.61	2.73	-82.8	-79.0	2.4	0.00e+00	0	48	104	0	60	1048572
2026-01-18 15:58:44.96	113.39	2.94	-83.5	-79.0	2.4	0.00e+00	0	48	104	0	60	1048569
2026-01-18 15:58:47.99	113.17	3.14	-83.1	-79.0	2.5	0.00e+00	0	48	104	0	60	1048575
2026-01-18 15:58:51.01	112.94	3.35	-83.5	-79.0	2.3	0.00e+00	0	48	104	0	60	1048573
2026-01-18 15:58:54.04	112.71	3.55	-83.5	-79.0	2.5	0.00e+00	0	48	104	0	60	1048571
2026-01-18 15:58:57.06	112.47	3.76	-83.1	-79.0	2.4	0.00e+00	0	48	104	0	60	1048574
2026-01-18 15:59:00.07	112.23	3.98	-83.5	-79.0	2.3	0.00e+00	0	48	104	0	60	1048575
2026-01-18 15:59:03.09	111.99	4.19	-83.5	-79.0	2.4	0.00e+00	0	48	104	0	60	1048575
2026-01-18 15:59:06.11	111.74	4.40	-83.1	-79.0	2.2	0.00e+00	0	48	104	0	60	1048575
2026-01-18 15:59:09.12	111.48	4.62	-83.5	-79.0	2.4	0.00e+00	0	48	104	0	60	1048575
2026-01-18 15:59:12.14	111.22	4.84	-83.5	-79.0	2.4	0.00e+00	0	48	104	0	60	1048575
2026-01-18 15:59:15.16	110.96	5.06	-82.8	-79.0	2.4	0.00e+00	0	48	104	0	60	1048573
2026-01-18 15:59:18.19	110.69	5.28	-83.1	-79.0	2.4	0.00e+00	0	48	104	0	60	1048574
2026-01-18 15:59:21.21	110.41	5.51	-83.1	-79.0	2.3	0.00e+00	0	48	104	0	60	1048568
2026-01-18 15:59:24.23	110.13	5.73	-83.5	-79.0	2.4	0.00e+00	0	48	104	0	60	1048575
2026-01-18 15:59:27.25	109.85	5.96	-83.5	-79.0	2.5	0.00e+00	0	48	104	0	60	1048573
2026-01-18 15:59:30.28	109.55	6.19	-83.1	-79.0	2.4	0.00e+00	0	48	104	0	60	1048574
2026-01-18 15:59:33.30	109.25	6.43	-83.5	-79.0	2.3	0.00e+00	0	48	104	0	60	1048572
2026-01-18 15:59:36.31	108.95	6.66	-83.5	-79.0	2.4	0.00e+00	0	48	104	0	60	1048575
2026-01-18 15:59:39.34	108.64	6.90	-83.1	-79.0	2.4	0.00e+00	0	48	104	0	60	1048575
2026-01-18 15:59:42.35	108.32	7.14	-83.5	-79.0	2.5	0.00e+00	0	48	104	0	60	1048571
2026-01-18 15:59:45.37	108.00	7.38	-83.5	-79.0	2.4	0.00e+00	0	48	104	0	60	1048573
2026-01-18 15:59:48.39	107.66	7.62	-82.8	-79.0	2.4	0.00e+00	0	48	104	0	60	1048574
2026-01-18 15:59:51.42	107.32	7.87	-83.5	-79.0	2.4	0.00e+00	0	48	104	0	60	1048575
2026-01-18 15:59:54.44	106.98	8.12	-83.1	-79.0	2.5	0.00e+00	0	48	104	0	60	1048567
2026-01-18 15:59:57.46	106.62	8.37	-83.1	-79.0	2.5	0.00e+00	0	48	104	0	60	1048567
2026-01-18 16:00:00.49	106.26	8.62	-83.5	-79.0	2.5	0.00e+00	0	48	104	0	60	1048571
2026-01-18 16:00:03.50	105.89	8.88	-83.1	-79.0	2.4	0.00e+00	0	48	104	0	60	1048570
2026-01-18 16:00:06.52	105.51	9.14	-83.5	-79.0	2.4	0.00e+00	0	48	104	0	60	1048571
2026-01-18 16:00:09.54	105.13	9.40	-83.5	-79.0	2.4	0.00e+00	0	49	104	0	60	1048575
2026-01-18 16:00:12.56	104.73	9.66	-82.8	-79.0	2.4	0.00e+00	0	48	104	0	60	1048575
2026-01-18 16:00:15.58	104.33	9.93	-83.1	-79.0	2.5	0.00e+00	0	48	104	0	60	1048575
2026-01-18 16:00:18.60	103.91	10.20	-83.5	-79.0	2.4	0.00e+00	0	48	104	0	60	1048569
2026-01-18 16:00:21.62	103.49	10.47	-83.1	-79.0	2.4	0.00e+00	0	48	104	0	60	1048575
2026-01-18 16:00:24.65	103.06	10.74	-83.5	-79.0	2.4	0.00e+00	0	49	104	0	60	1048574
2026-01-18 16:00:27.67	102.61	11.02	-83.1	-79.0	2.3	0.00e+00	0	49	104	0	60	1048573
2026-01-18 16:00:30.68	102.16	11.30	-83.5	-79.0	2.4	0.00e+00	0	49	104	0	60	1048575
2026-01-18 16:00:33.70	101.69	11.58	-83.5	-79.0	2.4	0.00e+00	0	49	104	0	60	1048574
2026-01-18 16:00:36.72	101.22	11.86	-83.1	-79.0	2.5	0.00e+00	0	49	104	0	60	1048575
2026-01-18 16:00:39.74	100.73	12.15	-83.5	-79.0	2.4	0.00e+00	0	49	104	0	60	1048572
2026-01-18 16:00:42.76	100.23	12.44	-83.1	-79.0	2.4	0.00e+00	0	49	104	0	60	1048574
2026-01-18 16:00:45.79	99.72	12.73	-83.1	-79.0	2.6	0.00e+00	0	49	104	0	60	1048574
2026-01-18 16:00:48.81	99.20	13.03	-83.1	-79.0	2.4	0.00e+00	0	49	104	0	60	1048575
2026-01-18 16:00:51.83	98.66	13.33	-83.5	-79.0	2.4	0.00e+00	0	49	104	0	60	1048570
2026-01-18 16:00:54.85	98.11	13.63	-82.8	-79.0	2.5	0.00e+00	0	49	104	0	60	1048570
2026-01-18 16:00:57.88	97.54	13.93	-83.1	-79.0	2.4	0.00e+00	0	49	104	0	60	1048574
2026-01-18 16:01:00.90	96.96	14.24	-83.1	-79.0	2.4	0.00e+00	0	49	104	0	60	1048574
2026-01-18 16:01:03.92	96.37	14.54	-83.5	-79.0	2.4	0.00e+00	0	49	104	0	60	1048575
2026-01-18 16:01:06.94	95.77	14.85	-83.5	-79.0	2.4	0.00e+00	0	49	104	0	60	1048574
2026-01-18 16:01:09.96	95.14	15.17	-83.1	-79.0	2.5	0.00e+00	0	49	104	0	60	1048574
2026-01-18 16:01:12.99	94.50	15.48	-83.5	-79.0	2.4	0.00e+00	0	49	104	0	60	1048575
2026-01-18 16:01:16.01	93.85	15.80	-83.1	-79.0	2.4	0.00e+00	0	49	104	0	60	1048569
2026-01-18 16:01:19.04	93.17	16.12	-83.1	-79.0	2.4	0.00e+00	0	49	104	0	60	1048573
2026-01-18 16:01:22.06	92.49	16.44	-83.1	-79.0	2.5	0.00e+00	0	49	104	0	60	1048573
2026-01-18 16:01:25.07	91.78	16.76	-83.5	-79.0	2.3	0.00e+00	0	49	104	0	60	1048575
2026-01-18 16:01:28.09	91.06	17.08	-83.1	-79.0	2.4	0.00e+00	0	49	104	0	60	1048572
2026-01-18 16:01:31.12	90.31	17.41	-83.5	-79.0	2.3	0.00e+00	0	49	104	0	60	1048570
2026-01-18 16:01:34.14	89.55	17.73	-83.1	-79.0	2.3	0.00e+00	0	49	104	0	60	1048575
2026-01-18 16:01:37.16	88.77	18.06	-83.5	-79.0	2.2	0.00e+00	0	49	104	0	60	1048575
2026-01-18 16:01:40.18	87.97	18.38	-83.5	-79.0	2.4	0.00e+00	0	49	104	0	60	1048574
2026-01-18 16:01:43.20	87.15	18.71	-83.1	-79.0	2.4	0.00e+00	0	49	104	0	60	1048574
2026-01-18 16:01:46.21	86.31	19.03	-83.5	-79.0	2.4	0.00e+00	0	49	104	0	60	1048565
2026-01-18 16:01:49.23	85.45	19.36	-83.5	-79.0	2.4	0.00e+00	0	49	104	0	60	1048568
2026-01-18 16:01:52.26	84.56	19.69	-83.1	-79.0	2.4	0.00e+00	0	49	104	0	60	1048571
2026-01-18 16:01:55.28	83.66	20.01	-83.1	-79.0	2.4	0.00e+00	0	49	104	0	60	1048574
2026-01-18 16:01:58.29	82.74	20.33	-83.5	-79.0	2.4	0.00e+00	0	49	104	0	60	1048571
2026-01-18 16:02:01.31	81.79	20.65	-83.1	-79.0	2.4	0.00e+00	0	49	104	0	60	1048569
2026-01-18 16:02:04.33	80.81	20.97	-83.5	-79.0	2.4	0.00e+00	0	49	104	0	60	1048574
2026-01-18 16:02:07.36	79.81	21.28	-83.1	-79.0	2.4	0.00e+00	0	49	104	0	60	1048574
2026-01-18 16:02:10.38	78.80	21.60	-83.5	-79.0	2.5	0.00e+00	0	49	104	0	60	1048570
2026-01-18 16:02:13.40	77.75	21.90	-83.5	-79.0	2.4	0.00e+00	0	49	104	0	60	1048569
2026-01-18 16:02:16.42	76.69	22.20	-82.8	-79.0	2.4	0.00e+00	0	49	104	0	60	1048573
2026-01-18 16:02:19.44	75.60	22.50	-83.5	-79.0	2.5	0.00e+00	0	49	104	0	60	1048573
2026-01-18 16:02:22.47	74.49	22.79	-83.5	-79.0	2.4	0.00e+00	0	49	104	0	60	1048575
2026-01-18 16:02:25.48	73.35	23.07	-83.1	-79.0	2.4	0.00e+00	0	49	104	0	60	1048573
2026-01-18 16:02:28.50	72.20	23.35	-83.1	-79.0	2.3	0.00e+00	0	49	104	0	60	1048574
2026-01-18 16:02:31.52	71.02	23.62	-83.1	-79.0	2.3	0.00e+00	0	49	104	0	60	1048575
2026-01-18 16:02:34.54	69.81	23.87	-83.5	-79.0	2.3	0.00e+00	0	49	104	0	60	1048574
2026-01-18 16:02:37.56	68.59	24.12	-83.5	-79.0	2.4	0.00e+00	0	49	104	0	60	1048571
2026-01-18 16:02:40.58	67.34	24.36	-83.1	-79.0	2.4	0.00e+00	0	49	104	0	60	1048575
2026-01-18 16:02:43.60	66.07	24.59	-83.5	-79.0	2.4	0.00e+00	0	49	104	0	60	1048574
2026-01-18 16:02:46.63	64.78	24.80	-83.5	-79.0	2.4	0.00e+00	0	49	104	0	60	1048572
2026-01-18 16:02:49.65	63.48	25.01	-83.1	-79.0	2.5	0.00e+00	0	49	104	0	60	1048574
2026-01-18 16:02:52.67	62.15	25.20	-83.5	-79.0	2.4	0.00e+00	0	49	104	0	60	1048575
2026-01-18 16:02:55.69	60.81	25.37	-83.1	-79.0	2.4	0.00e+00	0	49	104	0	60	1048565
2026-01-18 16:02:58.70	59.46	25.53	-83.1	-79.0	2.4	0.00e+00	0	49	104	0	60	1048573
2026-01-18 16:03:01.72	58.09	25.68	-83.1	-79.0	2.4	0.00e+00	0	49	104	0	60	1048575
2026-01-18 16:03:04.74	56.70	25.81	-83.5	-79.0	2.4	0.00e+00	0	49	104	0	60	1048575
2026-01-18 16:03:07.75	55.31	25.92	-83.5	-79.0	2.4	0.00e+00	0	49	104	0	60	1048565
2026-01-18 16:03:10.77	53.91	26.02	-83.5	-79.0	2.5	0.00e+00	0	49	104	0	60	1048574
2026-01-18 16:03:13.80	52.49	26.10	-82.8	-79.0	2.4	0.00e+00	0	49	104	0	60	1048570
2026-01-18 16:03:16.82	51.06	26.16	-83.5	-79.0	2.7	0.00e+00	0	49	104	0	60	1048572
2026-01-18 16:03:19.84	49.64	26.21	-83.5	-79.0	2.5	0.00e+00	0	49	104	0	60	1048565
2026-01-18 16:03:22.86	48.21	26.23	-83.1	-79.0	2.5	0.00e+00	0	49	104	0	60	1048572
2026-01-18 16:03:25.88	46.77	26.24	-83.5	-79.0	2.3	0.00e+00	0	49	104	0	60	1048575
2026-01-18 16:03:28.90	45.34	26.23	-83.5	-79.0	2.3	0.00e+00	0	49	104	0	60	1048572
2026-01-18 16:03:31.92	43.91	26.20	-83.1	-79.0	2.3	0.00e+00	0	49	104	0	60	1048575
2026-01-18 16:03:34.95	42.48	26.16	-83.1	-79.0	2.4	0.00e+00	0	49	104	0	60	1048575
2026-01-18 16:03:37.96	41.06	26.09	-83.1	-79.0	2.5	0.00e+00	0	49	104	0	60	1048572
2026-01-18 16:03:40.98	39.65	26.01	-83.5	-79.0	2.4	0.00e+00	0	49	104	0	60	1048570
2026-01-18 16:03:44.00	38.25	25.92	-83.5	-79.0	2.4	0.00e+00	0	49	104	0	60	1048575
2026-01-18 16:03:47.03	36.85	25.80	-83.1	-79.0	2.5	0.00e+00	0	49	104	0	60	1048573
2026-01-18 16:03:50.05	35.46	25.67	-83.5	-79.0	2.4	0.00e+00	0	49	104	0	60	1048568
2026-01-18 16:03:53.07	34.10	25.52	-83.5	-79.0	2.4	0.00e+00	0	49	104	0	60	1048574
2026-01-18 16:03:56.09	32.74	25.36	-83.1	-79.0	2.5	0.00e+00	0	49	104	0	60	1048575
2026-01-18 16:03:59.10	31.41	25.19	-83.5	-79.0	2.5	0.00e+00	0	49	104	0	60	1048564
2026-01-18 16:04:02.13	30.08	25.00	-83.5	-79.0	2.4	0.00e+00	0	49	104	0	60	1048573
2026-01-18 16:04:05.16	28.78	24.79	-83.5	-79.0	2.4	0.00e+00	0	49	104	0	60	1048574
2026-01-18 16:04:08.18	27.49	24.58	-83.5	-79.0	2.4	0.00e+00	0	49	104	0	60	1048571
2026-01-18 16:04:11.20	26.23	24.35	-83.1	-79.0	2.5	0.00e+00	0	49	104	0	60	1048575
2026-01-18 16:04:14.22	24.99	24.11	-83.5	-79.0	2.5	0.00e+00	0	49	104	0	60	1048575
2026-01-18 16:04:17.24	23.77	23.86	-83.5	-79.0	2.3	0.00e+00	0	49	104	0	60	1048574
2026-01-18 16:04:20.26	22.57	23.60	-83.1	-79.0	2.4	0.00e+00	0	49	104	0	60	1048571
2026-01-18 16:04:23.28	21.39	23.34	-83.5	-79.0	2.7	0.00e+00	0	49	104	0	60	1048573
2026-01-18 16:04:26.29	20.24	23.06	-83.5	-79.0	2.4	0.00e+00	0	49	104	0	60	1048575
2026-01-18 16:04:29.31	19.11	22.78	-82.8	-79.0	2.4	0.00e+00	0	49	104	0	60	1048570
2026-01-18 16:04:32.33	18.01	22.49	-83.5	-79.0	2.4	0.00e+00	0	49	104	0	60	1048572
2026-01-18 16:04:35.35	16.92	22.19	-83.5	-79.0	2.4	0.00e+00	0	49	104	0	60	1048569
2026-01-18 16:04:38.37	15.86	21.89	-83.5	-79.0	2.4	0.00e+00	0	49	104	0	60	1048575
2026-01-18 16:04:41.40	14.82	21.59	-83.5	-79.0	2.5	0.00e+00	0	49	104	0	60	1048568
2026-01-18 16:04:44.42	13.81	21.28	-83.1	-79.0	2.5	0.00e+00	0	49	104	0	60	1048575
2026-01-18 16:04:47.43	12.82	20.97	-83.1	-79.0	2.4	0.00e+00	0	49	104	0	60	1048575
2026-01-18 16:04:50.46	11.85	20.65	-83.5	-79.0	2.4	0.00e+00	0	49	104	0	60	1048575
2026-01-18 16:04:53.48	10.90	20.33	-83.1	-79.0	2.4	0.00e+00	0	49	104	0	60	1048571
2026-01-18 16:04:56.50	9.98	20.01	-83.5	-79.0	2.4	0.00e+00	0	49	104	0	60	1048575
2026-01-18 16:04:59.52	9.08	19.69	-83.5	-79.0	2.5	0.00e+00	0	49	104	0	60	1048570
2026-01-18 16:05:02.53	8.20	19.36	-83.1	-79.0	2.4	0.00e+00	0	49	104	0	60	1048575
2026-01-18 16:05:05.55	7.35	19.04	-83.5	-79.0	2.4	0.00e+00	0	49	104	0	60	1048573
2026-01-18 16:05:08.57	6.51	18.71	-83.5	-79.0	2.4	0.00e+00	0	49	104	0	60	1048568
2026-01-18 16:05:11.58	5.70	18.39	-83.1	-79.0	2.4	0.00e+00	0	49	104	0	60	1048575
2026-01-18 16:05:14.60	4.90	18.06	-83.5	-79.0	2.3	0.00e+00	0	49	104	0	60	1048574
2026-01-18 16:05:17.62	4.12	17.74	-83.1	-79.0	2.5	0.00e+00	0	49	104	0	60	1048573
2026-01-18 16:05:20.64	3.37	17.42	-83.5	-79.0	2.4	0.00e+00	0	49	104	0	60	1048574
2026-01-18 16:05:23.66	2.63	17.09	-83.5	-79.0	2.4	0.00e+00	0	49	104	0	60	1048566
2026-01-18 16:05:26.69	1.91	16.77	-83.1	-79.0	2.4	0.00e+00	0	49	104	0	60	1048574
2026-01-18 16:05:29.71	1.20	16.45	-83.5	-79.0	2.2	0.00e+00	0	49	104	0	60	1048572
2026-01-18 16:05:32.74	0.52	16.13	-83.5	-79.0	2.4	0.00e+00	0	49	104	0	60	1048574
2026-01-18 16:05:35.76	359.85	15.81	-82.8	-79.0	2.4	0.00e+00	0	49	104	0	60	1048570
2026-01-18 16:05:38.78	359.20	15.50	-83.5	-79.0	2.4	0.00e+00	0	49	104	0	60	1048573
2026-01-18 16:05:41.81	358.56	15.18	-83.1	-79.0	2.3	0.00e+00	0	49	104	0	60	1048573
2026-01-18 16:05:44.83	357.94	14.87	-83.5	-79.0	2.5	0.00e+00	0	49	104	0	60	1048575
2026-01-18 16:05:47.85	357.34	14.57	-83.5	-79.0	2.3	0.00e+00	0	49	104	0	60	1048570
2026-01-18 16:05:50.88	356.75	14.26	-83.1	-79.0	2.5	0.00e+00	0	49	104	0	60	1048575
2026-01-18 16:05:53.90	356.17	13.95	-83.1	-79.0	2.4	0.00e+00	0	49	104	0	60	1048574
2026-01-18 16:05:56.92	355.61	13.65	-83.1	-79.0	2.4	0.00e+00	0	49	104	0	60	1048571
2026-01-18 16:05:59.94	355.07	13.35	-83.1	-79.0	2.3	0.00e+00	0	49	104	0	60	1048572
2026-01-18 16:06:02.96	354.53	13.06	-83.5	-79.0	2.6	0.00e+00	0	49	104	0	60	1048574
2026-01-18 16:06:05.99	354.01	12.76	-83.1	-79.0	2.4	0.00e+00	0	49	104	0	60	1048564
2026-01-18 16:06:09.01	353.50	12.47	-82.8	-79.0	2.3	0.00e+00	0	49	104	0	60	1048572
2026-01-18 16:06:12.04	353.00	12.18	-83.5	-79.0	2.6	0.00e+00	0	49	104	0	60	1048574
2026-01-18 16:06:15.06	352.52	11.90	-83.1	-79.0	2.4	0.00e+00	0	49	104	0	60	1048575
2026-01-18 16:06:18.09	352.04	11.61	-83.5	-79.0	2.4	0.00e+00	0	49	104	0	60	1048573
2026-01-18 16:06:21.11	351.58	11.33	-83.5	-79.0	2.4	0.00e+00	0	49	104	0	60	1048561
2026-01-18 16:06:24.13	351.13	11.05	-82.8	-79.0	2.4	0.00e+00	0	49	104	0	60	1048570
2026-01-18 16:06:27.16	350.69	10.78	-83.5	-79.0	2.3	0.00e+00	0	49	104	0	60	1048571
2026-01-18 16:06:30.18	350.26	10.50	-83.5	-79.0	2.4	0.00e+00	0	49	104	0	60	1048574
2026-01-18 16:06:33.21	349.84	10.23	-82.8	-79.0	2.5	0.00e+00	0	49	104	0	60	1048575
2026-01-18 16:06:36.23	349.43	9.96	-83.5	-79.0	2.3	0.00e+00	0	49	104	0	60	1048574
2026-01-18 16:06:39.25	349.02	9.70	-83.5	-79.0	2.4	0.00e+00	0	49	104	0	60	1048575
2026-01-18 16:06:42.27	348.63	9.44	-82.8	-79.0	2.3	0.00e+00	0	49	104	0	60	1048570
2026-01-18 16:06:45.28	348.25	9.18	-83.5	-79.0	2.4	0.00e+00	0	49	104	0	60	1048571
2026-01-18 16:06:48.31	347.87	8.92	-83.1	-79.0	2.3	0.00e+00	0	49	104	0	60	1048567
2026-01-18 16:06:51.33	347.51	8.66	-83.5	-79.0	2.4	0.00e+00	0	49	104	0	60	1048575
2026-01-18 16:06:54.36	347.15	8.41	-83.1	-79.0	2.3	0.00e+00	0	49	104	0	60	1048575
2026-01-18 16:06:57.38	346.79	8.16	-83.1	-79.0	2.3	0.00e+00	0	49	104	0	60	1048571
2026-01-18 16:07:00.39	346.45	7.91	-83.5	-79.0	2.5	0.00e+00	0	49	104	0	60	1048575
2026-01-18 16:07:03.42	346.11	7.67	-83.5	-79.0	2.4	0.00e+00	0	49	104	0	60	1048571
2026-01-18 16:07:06.45	345.78	7.42	-83.1	-79.0	2.4	0.00e+00	0	49	104	0	60	1048571
2026-01-18 16:07:09.46	345.46	7.18	-83.5	-79.0	2.4	0.00e+00	0	49	104	0	60	1048575
2026-01-18 16:07:12.48	345.15	6.95	-83.5	-79.0	2.4	0.00e+00	0	49	104	0	60	1048573
2026-01-18 16:07:15.50	344.84	6.71	-83.1	-79.0	2.4	0.00e+00	0	49	104	0	60	1048575
2026-01-18 16:07:18.52	344.54	6.47	-83.5	-79.0	2.4	0.00e+00	0	49	104	0	60	1048572
2026-01-18 16:07:21.54	344.24	6.24	-83.1	-79.0	2.4	0.00e+00	0	49	104	0	60	1048574
2026-01-18 16:07:24.57	343.95	6.01	-83.1	-79.0	2.4	0.00e+00	0	49	104	0	60	1048562
2026-01-18 16:07:27.59	343.66	5.78	-83.1	-79.0	2.5	0.00e+00	0	49	104	0	60	1048573
2026-01-18 16:07:30.61	343.39	5.56	-83.1	-79.0	2.4	0.00e+00	0	49	104	0	60	1048573
2026-01-18 16:07:33.64	343.11	5.33	-83.5	-79.0	2.6	0.00e+00	0	49	104	0	60	1048572
2026-01-18 16:07:36.66	342.84	5.11	-83.5	-79.0	2.4	0.00e+00	0	49	104	0	60	1048575
2026-01-18 16:07:39.68	342.58	4.89	-83.1	-79.0	2.4	0.00e+00	0	49	104	0	60	1048570
2026-01-18 16:07:42.71	342.32	4.67	-83.5	-79.0	2.3	0.00e+00	0	49	104	0	60	1048570
2026-01-18 16:07:45.72	342.07	4.46	-83.5	-79.0	2.4	0.00e+00	0	49	104	0	60	1048573
2026-01-18 16:07:48.75	341.82	4.24	-82.8	-79.0	2.4	0.00e+00	0	49	104	0	60	1048575
2026-01-18 16:07:51.77	341.58	4.03	-83.5	-79.0	2.4	0.00e+00	0	49	104	0	60	1048575
2026-01-18 16:07:54.80	341.34	3.82	-83.5	-79.0	2.4	0.00e+00	0	49	104	0	60	1048572
2026-01-18 16:07:57.82	341.11	3.61	-83.1	-79.0	2.4	0.00e+00	0	49	104	0	60	1048570
2026-01-18 16:08:00.84	340.88	3.40	-83.1	-79.0	2.4	0.00e+00	0	49	104	0	60	1048575
2026-01-18 16:08:03.86	340.65	3.20	-83.1	-79.0	2.4	0.00e+00	0	49	104	0	60	1048575
2026-01-18 16:08:06.88	340.43	2.99	-83.5	-79.0	2.5	0.00e+00	0	49	104	0	60	1048568
2026-01-18 16:08:09.89	340.22	2.79	-83.5	-79.0	2.4	0.00e+00	0	49	104	0	60	1048574
2026-01-18 16:08:12.92	340.00	2.59	-83.1	-79.0	2.4	0.00e+00	0	49	104	0	60	1048570
2026-01-18 16:08:15.94	339.79	2.39	-83.5	-79.0	2.6	0.00e+00	0	49	104	0	60	1048571
2026-01-18 16:08:18.96	339.59	2.19	-83.1	-79.0	2.3	0.00e+00	0	49	104	0	60	1048572
2026-01-18 16:08:21.98	339.39	2.00	-82.8	-79.0	2.5	0.00e+00	0	49	104	0	60	1048574
2026-01-18 16:08:24.98	339.19	1.81	-83.5	-79.0	2.4	0.00e+00	0	49	104	0	60	1048575
2026-01-18 16:08:28.01	339.00	1.61	-83.1	-79.0	2.4	0.00e+00	0	49	104	0	60	1048573
2026-01-18 16:08:31.03	338.80	1.42	-83.5	-79.0	2.4	0.00e+00	0	49	104	0	60	1048568
2026-01-18 16:08:34.05	338.62	1.23	-83.5	-79.0	2.3	0.00e+00	0	49	104	0	60	1048571
2026-01-18 16:08:37.08	338.43	1.04	-82.8	-79.0	2.4	0.00e+00	0	49	104	0	60	1048574
2026-01-18 16:08:40.09	338.25	0.85	-83.5	-79.0	2.5	0.00e+00	0	49	104	0	60	1048568
2026-01-18 16:08:43.11	338.07	0.67	-83.5	-79.0	2.4	0.00e+00	0	49	104	0	60	1048574
2026-01-18 16:08:46.13	337.90	0.48	-83.1	-79.0	2.5	0.00e+00	0	49	104	0	60	1048575
2026-01-18 16:08:49.16	337.72	0.30	-83.1	-79.0	2.4	0.00e+00	0	49	104	0	60	1048575
2026-01-18 16:08:52.17	337.55	0.11	-83.5	-79.0	2.4	0.00e+00	0	49	104	0	60	1048574
2026-01-18 16:08:55.19	337.39	-0.07	-83.1	-79.0	2.5	0.00e+00	0	49	104	0	60	1048574

#Closed at: 2026-01-18 16:08:55
#Recorded file [0 MB]: D:/Data/35015_260118_185759.dat