passes_logs/2026/01/18/R3.2S-Naryan-Mar/R3.2S-Naryan-Mar__20260118_021426_NOAA_20_JPSS-1_rec.log

#Pass ID: 20260118_021426_NOAA 20 (JPSS-1)
#Satellite: NOAA 20 (JPSS-1)
#Configuration: NOAA 20
#almurnet v.1.7.20240730
#Start time: 2026-01-18 02:14:27

#Version: 2.2.20231116
#Station: R3.2S-Naryan-Mar
#Location: 53.008057 lon 67.646978 lat
#TLE: 1 43013U 17073A   26017.30359522  .00000067  00000+0  52526-4 0  9990
#TLE: 2 43013  98.7639 318.2187 0001419  36.2087 323.9184 14.19536557423067

#Time	Az	El	Level	Level2	SNR	BER	BlckErr	Temp	State	Recorded	gain1	gain2
2026-01-18 02:14:27.32	42.01	0.05	-85.2	-88.6	3.1	1.56e+00	0	45	0	0	60	1048575
2026-01-18 02:14:31.34	41.80	0.27	-85.2	-88.6	3.1	1.56e+00	0	46	104	0	60	1048570
2026-01-18 02:14:35.36	41.58	0.49	-85.2	-88.6	3.1	1.55e+00	0	46	104	0	60	1048575
2026-01-18 02:14:39.39	41.36	0.72	-85.2	-88.6	2.9	1.56e+00	0	46	104	0	60	1048573
2026-01-18 02:14:43.42	41.13	0.94	-85.2	-88.6	2.8	1.56e+00	0	46	104	0	60	1048572
2026-01-18 02:14:47.44	40.91	1.17	-85.2	-88.6	3.0	1.56e+00	0	46	104	0	60	1048573
2026-01-18 02:14:51.46	40.68	1.39	-85.2	-88.6	2.9	1.56e+00	0	46	104	0	60	1048575
2026-01-18 02:14:55.50	40.44	1.62	-83.9	-88.6	2.9	1.56e+00	0	46	104	0	60	1048575
2026-01-18 02:14:59.53	40.20	1.85	-85.2	-88.6	3.0	1.56e+00	0	47	104	0	60	1048574
2026-01-18 02:15:03.56	39.96	2.08	-85.2	-88.6	3.1	1.56e+00	0	46	104	0	60	1048569
2026-01-18 02:15:07.58	39.71	2.31	-85.2	-88.6	3.0	1.56e+00	0	46	104	0	60	1048574
2026-01-18 02:15:11.61	39.46	2.54	-85.2	-88.6	3.0	1.55e+00	0	46	104	0	60	1048575
2026-01-18 02:15:15.63	39.20	2.78	-85.2	-88.6	3.0	1.56e+00	0	46	104	0	60	1048574
2026-01-18 02:15:19.66	38.94	3.01	-85.2	-88.6	3.0	1.56e+00	0	46	104	0	60	1048574
2026-01-18 02:15:23.68	38.68	3.25	-85.2	-88.6	2.9	1.56e+00	0	47	104	0	60	1048574
2026-01-18 02:15:27.71	38.41	3.49	-85.2	-88.6	3.2	1.56e+00	0	47	104	0	60	1048574
2026-01-18 02:15:31.74	38.13	3.73	-85.2	-88.6	3.3	1.55e+00	0	47	104	0	60	1048575
2026-01-18 02:15:35.76	37.85	3.97	-85.2	-88.6	3.0	1.56e+00	0	47	104	0	60	1048575
2026-01-18 02:15:39.78	37.57	4.21	-85.2	-88.6	3.1	1.56e+00	0	47	104	0	60	1048574
2026-01-18 02:15:43.81	37.28	4.46	-85.2	-88.6	2.9	1.55e+00	0	47	104	0	60	1048575
2026-01-18 02:15:47.84	36.99	4.70	-85.2	-88.6	3.0	1.55e+00	0	46	104	0	60	1048575
2026-01-18 02:15:51.87	36.69	4.95	-85.2	-88.6	3.1	1.56e+00	0	47	104	0	60	1048575
2026-01-18 02:15:55.89	36.38	5.20	-85.2	-88.6	3.0	1.56e+00	0	47	104	0	60	1048575
2026-01-18 02:15:59.92	36.07	5.45	-85.2	-88.6	2.8	1.55e+00	0	47	104	0	60	1048575
2026-01-18 02:16:03.94	35.76	5.70	-85.2	-88.6	2.9	1.56e+00	0	47	104	0	60	1048575
2026-01-18 02:16:07.97	35.44	5.96	-85.2	-88.6	3.0	1.56e+00	0	47	104	0	60	1048575
2026-01-18 02:16:12.00	35.11	6.21	-85.2	-88.6	3.1	1.56e+00	0	47	104	0	60	1048575
2026-01-18 02:16:16.03	34.77	6.47	-85.2	-88.6	2.9	1.56e+00	0	47	104	0	60	1048574
2026-01-18 02:16:20.06	34.44	6.73	-85.2	-88.6	3.1	1.56e+00	0	47	104	0	60	1048573
2026-01-18 02:16:24.09	34.09	6.99	-85.2	-88.6	3.0	1.56e+00	0	47	104	0	60	1048574
2026-01-18 02:16:28.11	33.74	7.25	-85.2	-88.6	2.9	1.56e+00	0	47	104	0	60	1048573
2026-01-18 02:16:32.12	33.38	7.51	-85.2	-88.6	3.4	1.56e+00	0	47	104	0	60	1048566
2026-01-18 02:16:36.14	33.01	7.78	-85.2	-88.6	3.0	1.56e+00	0	47	104	0	60	1048575
2026-01-18 02:16:40.16	32.64	8.04	-85.2	-88.6	3.0	1.55e+00	0	47	104	0	60	1048568
2026-01-18 02:16:44.18	32.26	8.31	-85.2	-88.6	3.1	1.55e+00	0	47	104	0	60	1048575
2026-01-18 02:16:48.21	31.87	8.58	-85.2	-88.6	3.0	1.56e+00	0	47	104	0	60	1048574
2026-01-18 02:16:52.23	31.48	8.85	-85.2	-88.6	2.8	1.56e+00	0	47	104	0	60	1048575
2026-01-18 02:16:56.26	31.08	9.12	-85.2	-88.6	3.1	1.55e+00	0	47	104	0	60	1048571
2026-01-18 02:17:00.27	30.67	9.40	-85.2	-88.6	3.0	1.56e+00	0	47	104	0	60	1048573
2026-01-18 02:17:04.30	30.25	9.67	-85.2	-88.6	2.9	1.56e+00	0	47	104	0	60	1048574
2026-01-18 02:17:08.32	29.82	9.95	-85.2	-88.6	2.9	1.56e+00	0	47	104	0	60	1048574
2026-01-18 02:17:12.36	29.39	10.23	-85.2	-88.6	2.9	1.56e+00	0	47	104	0	60	1048575
2026-01-18 02:17:16.38	28.94	10.51	-85.2	-88.6	3.2	1.56e+00	0	47	104	0	60	1048575
2026-01-18 02:17:20.40	28.49	10.79	-85.2	-88.6	3.1	1.56e+00	0	47	104	0	60	1048574
2026-01-18 02:17:24.43	28.03	11.08	-85.2	-88.6	3.0	1.56e+00	0	47	104	0	60	1048574
2026-01-18 02:17:28.46	27.56	11.36	-85.2	-88.6	3.0	1.56e+00	0	47	104	0	60	1048575
2026-01-18 02:17:32.49	27.08	11.65	-85.2	-88.6	3.0	1.56e+00	0	47	104	0	60	1048575
2026-01-18 02:17:36.51	26.59	11.94	-85.2	-88.6	3.1	1.56e+00	0	47	104	0	60	1048575
2026-01-18 02:17:40.53	26.09	12.22	-85.2	-88.6	2.9	1.55e+00	0	47	104	0	60	1048575
2026-01-18 02:17:44.56	25.57	12.51	-85.2	-88.6	3.1	1.55e+00	0	47	104	0	60	1048574
2026-01-18 02:17:48.60	25.05	12.81	-85.2	-88.6	3.0	1.56e+00	0	47	104	0	60	1048574
2026-01-18 02:17:52.63	24.52	13.10	-85.2	-88.6	2.8	1.56e+00	0	47	104	0	60	1048573
2026-01-18 02:17:56.65	23.98	13.39	-85.2	-88.6	3.0	1.55e+00	0	47	104	0	60	1048575
2026-01-18 02:18:00.69	23.42	13.69	-85.2	-88.6	3.0	1.56e+00	0	47	104	0	60	1048570
2026-01-18 02:18:04.72	22.86	13.98	-85.2	-88.6	3.0	1.56e+00	0	47	104	0	60	1048575
2026-01-18 02:18:08.75	22.28	14.28	-84.7	-88.6	3.2	1.56e+00	0	47	104	0	60	1048575
2026-01-18 02:18:12.78	21.69	14.58	-85.2	-88.6	3.0	1.56e+00	0	47	104	0	60	1048573
2026-01-18 02:18:16.81	21.09	14.87	-85.2	-88.6	2.9	1.56e+00	0	47	104	0	60	1048575
2026-01-18 02:18:20.84	20.47	15.17	-85.2	-88.6	3.1	1.56e+00	0	47	104	0	60	1048575
2026-01-18 02:18:24.86	19.85	15.47	-85.2	-88.6	3.0	1.56e+00	0	47	104	0	60	1048575
2026-01-18 02:18:28.88	19.21	15.76	-85.2	-88.6	3.0	1.56e+00	0	47	104	0	60	1048575
2026-01-18 02:18:32.91	18.56	16.06	-85.2	-88.6	3.0	1.55e+00	0	47	104	0	60	1048575
2026-01-18 02:18:36.94	17.89	16.36	-85.2	-88.6	3.0	1.56e+00	0	47	104	0	60	1048575
2026-01-18 02:18:40.96	17.22	16.65	-85.2	-88.6	3.1	1.56e+00	0	47	104	0	60	1048575
2026-01-18 02:18:44.99	16.52	16.95	-85.2	-88.6	3.0	1.56e+00	0	47	104	0	60	1048574
2026-01-18 02:18:49.01	15.82	17.25	-85.2	-88.6	2.9	1.56e+00	0	47	104	0	60	1048574
2026-01-18 02:18:53.05	15.09	17.54	-85.2	-88.6	3.0	1.56e+00	0	47	104	0	60	1048574
2026-01-18 02:18:57.07	14.36	17.83	-85.2	-88.6	3.1	1.56e+00	0	47	104	0	60	1048573
2026-01-18 02:19:01.09	13.61	18.12	-85.2	-88.6	2.9	1.56e+00	0	47	104	0	60	1048574
2026-01-18 02:19:05.11	12.85	18.41	-85.2	-88.6	3.0	1.56e+00	0	47	104	0	60	1048571
2026-01-18 02:19:09.13	12.07	18.70	-85.2	-88.6	2.9	1.56e+00	0	47	104	0	60	1048575
2026-01-18 02:19:13.15	11.28	18.98	-85.2	-88.6	3.0	1.56e+00	0	47	104	0	60	1048575
2026-01-18 02:19:17.18	10.47	19.27	-85.2	-88.6	3.0	1.55e+00	0	47	104	0	60	1048575
2026-01-18 02:19:21.20	9.65	19.55	-84.3	-88.6	3.1	1.56e+00	0	47	104	0	60	1048573
2026-01-18 02:19:25.23	8.81	19.82	-85.2	-88.6	3.1	1.56e+00	0	47	104	0	60	1048575
2026-01-18 02:19:29.26	7.95	20.10	-85.2	-88.6	3.1	1.56e+00	0	47	104	0	60	1048574
2026-01-18 02:19:33.28	7.08	20.36	-85.2	-88.6	2.9	1.56e+00	0	47	104	0	60	1048573
2026-01-18 02:19:37.31	6.20	20.63	-84.7	-88.6	3.2	1.55e+00	0	47	104	0	60	1048574
2026-01-18 02:19:41.33	5.30	20.89	-84.3	-88.6	3.0	1.55e+00	0	47	104	0	60	1048572
2026-01-18 02:19:45.36	4.38	21.14	-85.2	-88.6	3.0	1.56e+00	0	47	104	0	60	1048575
2026-01-18 02:19:49.37	3.45	21.39	-85.2	-88.6	3.0	1.56e+00	0	47	104	0	60	1048573
2026-01-18 02:19:53.39	2.51	21.63	-85.2	-88.6	2.9	1.56e+00	0	47	104	0	60	1048575
2026-01-18 02:19:57.41	1.54	21.87	-85.2	-88.6	2.9	1.56e+00	0	47	104	0	60	1048575
2026-01-18 02:20:01.43	0.57	22.10	-85.2	-88.6	3.1	1.56e+00	0	47	104	0	60	1048573
2026-01-18 02:20:05.44	359.58	22.32	-83.9	-88.6	3.3	1.56e+00	0	47	104	0	60	1048574
2026-01-18 02:20:09.45	358.58	22.54	-85.2	-88.6	3.2	1.56e+00	0	47	104	0	60	1048570
2026-01-18 02:20:13.47	357.56	22.75	-85.2	-88.6	3.1	1.55e+00	0	47	104	0	60	1048575
2026-01-18 02:20:17.50	356.53	22.95	-85.2	-88.6	3.0	1.55e+00	0	47	104	0	60	1048571
2026-01-18 02:20:21.52	355.49	23.14	-85.2	-88.6	2.8	1.56e+00	0	47	104	0	60	1048575
2026-01-18 02:20:25.55	354.43	23.32	-85.2	-88.6	3.0	1.56e+00	0	47	104	0	60	1048574
2026-01-18 02:20:29.58	353.35	23.49	-85.2	-88.6	2.9	1.56e+00	0	47	104	0	60	1048573
2026-01-18 02:20:33.62	352.27	23.66	-85.2	-88.6	2.9	1.56e+00	0	47	104	0	60	1048575
2026-01-18 02:20:37.64	351.18	23.81	-85.2	-88.6	3.0	1.56e+00	0	47	104	0	60	1048575
2026-01-18 02:20:41.66	350.07	23.95	-84.3	-88.6	3.1	1.56e+00	0	47	104	0	60	1048575
2026-01-18 02:20:45.70	348.96	24.08	-85.2	-88.6	3.1	1.56e+00	0	47	104	0	60	1048575
2026-01-18 02:20:49.73	347.83	24.20	-85.2	-88.6	3.0	1.56e+00	0	47	104	0	60	1048575
2026-01-18 02:20:53.75	346.70	24.31	-85.2	-88.6	3.0	1.56e+00	0	47	104	0	60	1048574
2026-01-18 02:20:57.77	345.56	24.41	-85.2	-88.6	3.0	1.56e+00	0	47	104	0	60	1048575
2026-01-18 02:21:01.80	344.42	24.49	-85.2	-88.6	3.2	1.56e+00	0	47	104	0	60	1048575
2026-01-18 02:21:05.82	343.27	24.57	-85.2	-88.6	2.9	1.55e+00	0	47	104	0	60	1048574
2026-01-18 02:21:09.84	342.11	24.63	-85.2	-88.6	3.0	1.56e+00	0	47	104	0	60	1048575
2026-01-18 02:21:13.87	340.95	24.67	-85.2	-88.6	2.9	1.56e+00	0	47	104	0	60	1048575
2026-01-18 02:21:17.89	339.79	24.71	-85.2	-88.6	3.0	1.55e+00	0	47	104	0	60	1048574
2026-01-18 02:21:21.92	338.63	24.73	-85.2	-88.6	2.9	1.56e+00	0	47	104	0	60	1048573
2026-01-18 02:21:25.94	337.46	24.74	-85.2	-88.6	3.0	1.56e+00	0	47	104	0	60	1048575
2026-01-18 02:21:29.96	336.30	24.73	-85.2	-88.6	3.0	1.55e+00	0	47	104	0	60	1048575
2026-01-18 02:21:33.99	335.13	24.71	-85.2	-88.6	3.1	1.56e+00	0	47	104	0	60	1048575
2026-01-18 02:21:38.01	333.97	24.68	-85.2	-88.6	3.1	1.56e+00	0	47	104	0	60	1048570
2026-01-18 02:21:42.05	332.80	24.64	-85.2	-88.6	2.8	1.56e+00	0	47	104	0	60	1048575
2026-01-18 02:21:46.07	331.65	24.59	-85.2	-88.6	2.9	1.55e+00	0	47	104	0	60	1048575
2026-01-18 02:21:50.08	330.50	24.52	-85.2	-88.6	3.2	1.56e+00	0	47	104	0	60	1048575
2026-01-18 02:21:54.10	329.35	24.44	-85.2	-88.6	2.8	1.56e+00	0	47	104	0	60	1048575
2026-01-18 02:21:58.14	328.21	24.34	-85.2	-88.6	3.2	1.56e+00	0	47	104	0	60	1048575
2026-01-18 02:22:02.17	327.07	24.24	-84.7	-88.6	2.9	1.55e+00	0	47	104	0	60	1048570
2026-01-18 02:22:06.19	325.95	24.12	-85.2	-88.6	3.0	1.56e+00	0	47	104	0	60	1048575
2026-01-18 02:22:10.23	324.82	23.99	-85.2	-88.6	3.0	1.55e+00	0	47	104	0	60	1048571
2026-01-18 02:22:14.26	323.72	23.85	-85.2	-88.6	3.1	1.55e+00	0	47	104	0	60	1048574
2026-01-18 02:22:18.28	322.62	23.71	-85.2	-88.6	3.1	1.56e+00	0	47	104	0	60	1048572
2026-01-18 02:22:22.32	321.53	23.54	-83.5	-88.6	3.0	1.56e+00	0	47	104	0	60	1048573
2026-01-18 02:22:26.35	320.45	23.37	-85.2	-88.6	3.1	1.56e+00	0	47	104	0	60	1048575
2026-01-18 02:22:30.38	319.39	23.19	-85.2	-88.6	2.9	1.55e+00	0	47	104	0	60	1048574
2026-01-18 02:22:34.41	318.34	23.01	-85.2	-88.6	2.7	1.56e+00	0	47	104	0	60	1048575
2026-01-18 02:22:38.43	317.30	22.81	-85.2	-88.6	3.0	1.56e+00	0	47	104	0	60	1048573
2026-01-18 02:22:42.46	316.28	22.60	-85.2	-88.6	2.8	1.56e+00	0	47	104	0	60	1048575
2026-01-18 02:22:46.49	315.26	22.39	-85.2	-88.6	3.1	1.56e+00	0	47	104	0	60	1048575
2026-01-18 02:22:50.52	314.27	22.17	-85.2	-88.6	3.0	1.56e+00	0	47	104	0	60	1048572
2026-01-18 02:22:54.54	313.29	21.94	-85.2	-88.6	2.9	1.56e+00	0	47	104	0	60	1048569
2026-01-18 02:22:58.56	312.32	21.70	-85.2	-88.6	2.7	1.56e+00	0	47	104	0	60	1048572
2026-01-18 02:23:02.58	311.37	21.46	-85.2	-88.6	3.0	1.55e+00	0	47	104	0	60	1048571
2026-01-18 02:23:06.60	310.43	21.21	-85.2	-88.6	3.1	1.56e+00	0	47	104	0	60	1048575
2026-01-18 02:23:10.63	309.51	20.96	-85.2	-88.6	2.9	1.56e+00	0	47	104	0	60	1048573
2026-01-18 02:23:14.65	308.61	20.70	-85.2	-88.6	3.0	1.56e+00	0	47	104	0	60	1048573
2026-01-18 02:23:18.69	307.71	20.44	-85.2	-88.6	3.0	1.55e+00	0	47	104	0	60	1048575
2026-01-18 02:23:22.71	306.84	20.17	-85.2	-88.6	3.2	1.56e+00	0	47	104	0	60	1048573
2026-01-18 02:23:26.72	305.98	19.90	-85.2	-88.6	3.0	1.56e+00	0	47	104	0	60	1048575
2026-01-18 02:23:30.74	305.14	19.62	-85.2	-88.6	3.0	1.56e+00	0	47	104	0	60	1048574
2026-01-18 02:23:34.77	304.31	19.34	-85.2	-88.6	3.1	1.55e+00	0	47	104	0	60	1048575
2026-01-18 02:23:38.80	303.49	19.06	-85.2	-88.6	2.9	1.56e+00	0	47	104	0	60	1048575
2026-01-18 02:23:42.82	302.69	18.78	-85.2	-88.6	2.9	1.56e+00	0	47	104	0	60	1048573
2026-01-18 02:23:46.84	301.91	18.49	-85.2	-88.6	3.0	1.56e+00	0	47	104	0	60	1048575
2026-01-18 02:23:50.87	301.14	18.20	-85.2	-88.6	3.2	1.56e+00	0	47	104	0	60	1048575
2026-01-18 02:23:54.90	300.38	17.91	-85.2	-88.6	3.3	1.56e+00	0	47	104	0	60	1048574
2026-01-18 02:23:58.93	299.64	17.62	-85.2	-88.6	3.1	1.56e+00	0	47	104	0	60	1048575
2026-01-18 02:24:02.94	298.92	17.32	-85.2	-88.6	3.0	1.56e+00	0	47	104	0	60	1048575
2026-01-18 02:24:06.97	298.21	17.03	-85.2	-88.6	3.0	1.56e+00	0	47	104	0	60	1048575
2026-01-18 02:24:11.00	297.51	16.73	-85.2	-88.6	2.7	1.56e+00	0	47	104	0	60	1048575
2026-01-18 02:24:15.02	296.83	16.44	-85.2	-88.6	3.0	1.56e+00	0	47	104	0	60	1048574
2026-01-18 02:24:19.05	296.16	16.14	-85.2	-88.6	2.8	1.56e+00	0	47	104	0	60	1048575
2026-01-18 02:24:23.08	295.50	15.84	-85.2	-88.6	3.0	1.56e+00	0	47	104	0	60	1048575
2026-01-18 02:24:27.10	294.86	15.54	-85.2	-88.6	2.7	1.56e+00	0	47	104	0	60	1048575
2026-01-18 02:24:31.12	294.23	15.25	-85.2	-88.6	3.1	1.55e+00	0	47	104	0	60	1048574
2026-01-18 02:24:35.15	293.61	14.95	-85.2	-88.6	3.0	1.55e+00	0	47	104	0	60	1048575
2026-01-18 02:24:39.16	293.00	14.65	-85.2	-88.6	3.0	1.55e+00	0	47	104	0	60	1048572
2026-01-18 02:24:43.19	292.41	14.36	-85.2	-88.6	3.0	1.56e+00	0	47	104	0	60	1048573
2026-01-18 02:24:47.21	291.83	14.06	-85.2	-88.6	3.2	1.55e+00	0	47	104	0	60	1048574
2026-01-18 02:24:51.24	291.26	13.76	-85.2	-88.6	3.1	1.55e+00	0	47	104	0	60	1048575
2026-01-18 02:24:55.26	290.70	13.47	-85.2	-88.6	3.0	1.56e+00	0	47	104	0	60	1048574
2026-01-18 02:24:59.29	290.15	13.17	-85.2	-88.6	3.0	1.56e+00	0	47	104	0	60	1048575
2026-01-18 02:25:03.33	289.61	12.88	-85.2	-88.6	2.9	1.55e+00	0	47	104	0	60	1048572
2026-01-18 02:25:07.34	289.09	12.59	-85.2	-88.6	3.0	1.56e+00	0	47	104	0	60	1048566
2026-01-18 02:25:11.37	288.58	12.30	-85.2	-88.6	2.8	1.56e+00	0	47	104	0	60	1048574
2026-01-18 02:25:15.39	288.07	12.01	-85.2	-88.6	2.9	1.56e+00	0	47	104	0	60	1048575
2026-01-18 02:25:19.42	287.58	11.72	-85.2	-88.6	2.9	1.56e+00	0	47	104	0	60	1048575
2026-01-18 02:25:23.45	287.09	11.43	-85.2	-88.6	3.0	1.56e+00	0	47	104	0	60	1048573
2026-01-18 02:25:27.47	286.62	11.15	-85.2	-88.6	3.0	1.56e+00	0	47	104	0	60	1048575
2026-01-18 02:25:31.50	286.15	10.86	-85.2	-88.6	3.1	1.56e+00	0	47	104	0	60	1048575
2026-01-18 02:25:35.54	285.69	10.58	-85.2	-88.6	2.9	1.56e+00	0	47	104	0	60	1048575
2026-01-18 02:25:39.56	285.24	10.30	-85.2	-88.6	2.8	1.56e+00	0	47	104	0	60	1048571
2026-01-18 02:25:43.58	284.81	10.02	-85.2	-88.6	2.7	1.55e+00	0	47	104	0	60	1048575
2026-01-18 02:25:47.61	284.37	9.74	-84.3	-88.6	3.1	1.55e+00	0	47	104	0	60	1048575
2026-01-18 02:25:51.64	283.95	9.46	-85.2	-88.6	3.0	1.56e+00	0	47	104	0	60	1048575
2026-01-18 02:25:55.66	283.54	9.19	-85.2	-88.6	3.2	1.55e+00	0	47	104	0	60	1048575
2026-01-18 02:25:59.68	283.13	8.92	-85.2	-88.6	3.1	1.56e+00	0	47	104	0	60	1048575
2026-01-18 02:26:03.72	282.73	8.64	-85.2	-88.6	3.0	1.55e+00	0	47	104	0	60	1048575
2026-01-18 02:26:07.75	282.34	8.37	-85.2	-88.6	2.8	1.55e+00	0	47	104	0	60	1048574
2026-01-18 02:26:11.78	281.96	8.10	-85.2	-88.6	3.2	1.56e+00	0	47	104	0	60	1048575
2026-01-18 02:26:15.80	281.58	7.84	-85.2	-88.6	3.0	1.56e+00	0	47	104	0	60	1048575
2026-01-18 02:26:19.82	281.21	7.57	-85.2	-88.6	2.8	1.56e+00	0	47	104	0	60	1048575
2026-01-18 02:26:23.85	280.85	7.31	-85.2	-88.6	3.2	1.55e+00	0	47	104	0	60	1048573
2026-01-18 02:26:27.87	280.49	7.04	-85.2	-88.6	3.2	1.56e+00	0	47	104	0	60	1048575
2026-01-18 02:26:31.90	280.14	6.78	-85.2	-88.6	3.0	1.56e+00	0	47	104	0	60	1048575
2026-01-18 02:26:35.92	279.80	6.52	-85.2	-88.6	3.1	1.55e+00	0	47	104	0	60	1048575
2026-01-18 02:26:39.95	279.47	6.27	-85.2	-88.6	3.1	1.56e+00	0	47	104	0	60	1048573
2026-01-18 02:26:43.97	279.14	6.01	-84.7	-88.6	3.1	1.56e+00	0	47	104	0	60	1048575
2026-01-18 02:26:47.99	278.81	5.76	-85.2	-88.6	2.9	1.56e+00	0	47	104	0	60	1048575
2026-01-18 02:26:52.01	278.49	5.50	-85.2	-88.6	3.0	1.56e+00	0	47	104	0	60	1048575
2026-01-18 02:26:56.04	278.18	5.25	-85.2	-88.6	3.0	1.56e+00	0	47	104	0	60	1048575
2026-01-18 02:27:00.06	277.87	5.00	-85.2	-88.6	3.1	1.56e+00	0	47	104	0	60	1048575
2026-01-18 02:27:04.08	277.57	4.76	-85.2	-88.6	2.9	1.56e+00	0	47	104	0	60	1048574
2026-01-18 02:27:08.10	277.27	4.51	-85.2	-88.6	2.6	1.56e+00	0	47	104	0	60	1048575
2026-01-18 02:27:12.13	276.98	4.26	-85.2	-88.6	3.1	1.56e+00	0	47	104	0	60	1048574
2026-01-18 02:27:16.17	276.70	4.02	-85.2	-88.6	2.9	1.56e+00	0	47	104	0	60	1048573
2026-01-18 02:27:20.19	276.41	3.78	-85.2	-88.6	3.1	1.56e+00	0	47	104	0	60	1048575
2026-01-18 02:27:24.22	276.14	3.54	-85.2	-88.6	3.1	1.56e+00	0	47	104	0	60	1048575
2026-01-18 02:27:28.25	275.86	3.30	-85.2	-88.6	3.1	1.55e+00	0	47	104	0	60	1048574
2026-01-18 02:27:32.28	275.60	3.06	-85.2	-88.6	3.1	1.56e+00	0	47	104	0	60	1048574
2026-01-18 02:27:36.30	275.33	2.82	-85.2	-88.6	2.9	1.56e+00	0	47	104	0	60	1048574
2026-01-18 02:27:40.32	275.08	2.59	-85.2	-88.6	3.2	1.56e+00	0	47	104	0	60	1048575
2026-01-18 02:27:44.34	274.82	2.36	-85.2	-88.6	3.0	1.56e+00	0	47	104	0	60	1048575
2026-01-18 02:27:48.37	274.57	2.13	-85.2	-88.6	3.1	1.55e+00	0	47	104	0	60	1048573
2026-01-18 02:27:52.39	274.32	1.89	-85.2	-88.6	2.9	1.56e+00	0	47	104	0	60	1048575
2026-01-18 02:27:56.41	274.08	1.67	-85.2	-88.6	2.9	1.56e+00	0	47	104	0	60	1048573
2026-01-18 02:28:00.44	273.84	1.44	-85.2	-88.6	2.9	1.55e+00	0	47	104	0	60	1048575
2026-01-18 02:28:04.47	273.61	1.21	-85.2	-88.6	3.2	1.55e+00	0	47	104	0	60	1048570
2026-01-18 02:28:08.49	273.38	0.99	-85.2	-88.6	3.1	1.56e+00	0	47	104	0	60	1048572
2026-01-18 02:28:12.52	273.15	0.76	-85.2	-88.6	3.1	1.56e+00	0	47	104	0	60	1048575
2026-01-18 02:28:16.54	272.93	0.54	-85.2	-88.6	2.9	1.56e+00	0	47	104	0	60	1048575
2026-01-18 02:28:20.56	272.71	0.32	-85.2	-88.6	2.9	1.56e+00	0	47	104	0	60	1048575
2026-01-18 02:28:24.59	272.49	0.10	-85.2	-88.6	3.0	1.56e+00	0	47	104	0	60	1048574

#Closed at: 2026-01-18 02:28:26
#Recorded file [0 MB]: D:/Data/35015_260118_051427.dat