passes_logs/2026/01/18/R3.2S-Naryan-Mar/R3.2S-Naryan-Mar__20260118_011230_FENGYUN_3D_rec.log

#Pass ID: 20260118_011230_FENGYUN 3D
#Satellite: FENGYUN 3D
#Configuration: FENGYUN 3D
#almurnet v.1.7.20240730
#Start time: 2026-01-18 01:12:31

#Version: 2.2.20231116
#Station: R3.2S-Naryan-Mar
#Location: 53.008057 lon 67.646978 lat
#TLE: 1 43010U 17072A   26017.25882587  .00000461  00000+0  23963-3 0  9992
#TLE: 2 43010  98.9934 349.1096 0002357 104.0487 256.0951 14.19697152423579

#Time	Az	El	Level	Level2	SNR	BER	BlckErr	Temp	State	Recorded	gain1	gain2
2026-01-18 01:12:31.70	23.17	0.09	-84.3	-88.8	1.9	3.11e+01	0	46	0	0	60	1048572
2026-01-18 01:12:35.71	23.20	0.33	-85.2	-88.6	3.0	7.61e-01	0	47	104	0	60	1048575
2026-01-18 01:12:39.74	23.23	0.58	-85.2	-88.6	3.1	7.62e-01	0	47	104	0	60	1048573
2026-01-18 01:12:43.77	23.26	0.82	-85.2	-88.6	3.2	7.63e-01	0	47	104	0	60	1048573
2026-01-18 01:12:47.80	23.29	1.07	-85.2	-88.6	2.9	7.64e-01	0	47	104	0	60	1048574
2026-01-18 01:12:51.81	23.32	1.32	-85.2	-88.6	3.2	7.64e-01	0	47	104	0	60	1048573
2026-01-18 01:12:55.84	23.35	1.57	-85.2	-88.6	3.3	7.63e-01	0	47	104	0	60	1048572
2026-01-18 01:12:59.85	23.39	1.82	-85.2	-88.6	2.9	7.63e-01	0	47	104	0	60	1048570
2026-01-18 01:13:03.87	23.42	2.08	-85.2	-88.6	2.9	7.64e-01	0	47	104	0	60	1048566
2026-01-18 01:13:07.89	23.45	2.34	-85.2	-88.6	3.1	7.63e-01	0	47	104	0	60	1048575
2026-01-18 01:13:11.91	23.48	2.60	-84.7	-88.6	2.9	7.64e-01	0	47	104	0	60	1048575
2026-01-18 01:13:15.94	23.51	2.86	-84.7	-88.6	3.5	7.64e-01	0	47	104	0	60	1048574
2026-01-18 01:13:19.97	23.55	3.13	-85.2	-88.6	3.6	7.62e-01	0	47	104	0	60	1048571
2026-01-18 01:13:23.99	23.58	3.39	-85.2	-88.6	3.0	7.62e-01	0	47	104	0	60	1048573
2026-01-18 01:13:28.01	23.61	3.67	-85.2	-88.6	3.6	7.64e-01	0	47	104	0	60	1048574
2026-01-18 01:13:32.03	23.65	3.94	-85.2	-88.6	3.1	7.65e-01	0	47	104	0	60	1048573
2026-01-18 01:13:36.06	23.68	4.22	-85.2	-88.6	2.9	7.63e-01	0	47	104	0	60	1048573
2026-01-18 01:13:40.09	23.71	4.49	-85.2	-88.6	3.1	7.65e-01	0	47	104	0	60	1048572
2026-01-18 01:13:44.11	23.75	4.78	-85.2	-88.6	3.1	7.63e-01	0	47	104	0	60	1048571
2026-01-18 01:13:48.14	23.78	5.06	-85.2	-88.6	2.9	7.64e-01	0	47	104	0	60	1048575
2026-01-18 01:13:52.16	23.82	5.35	-85.2	-88.6	3.3	7.63e-01	0	47	104	0	60	1048575
2026-01-18 01:13:56.19	23.85	5.64	-85.2	-88.6	3.6	7.62e-01	0	47	104	0	60	1048575
2026-01-18 01:14:00.21	23.89	5.94	-85.2	-88.6	3.2	7.63e-01	0	47	104	0	60	1048575
2026-01-18 01:14:04.24	23.92	6.23	-85.2	-88.6	3.3	7.63e-01	0	47	104	0	60	1048575
2026-01-18 01:14:08.27	23.96	6.54	-84.7	-88.6	3.5	7.64e-01	0	47	104	0	60	1048575
2026-01-18 01:14:12.29	24.00	6.84	-85.2	-88.6	3.5	7.64e-01	0	47	104	0	60	1048575
2026-01-18 01:14:16.31	24.03	7.15	-85.2	-88.6	3.6	7.63e-01	0	47	104	0	60	1048573
2026-01-18 01:14:20.34	24.07	7.46	-85.2	-88.6	2.9	7.63e-01	0	47	104	0	60	1048568
2026-01-18 01:14:24.37	24.11	7.78	-85.2	-88.6	3.0	7.63e-01	0	47	104	0	60	1048571
2026-01-18 01:14:28.40	24.15	8.10	-85.2	-88.6	3.0	7.62e-01	0	47	104	0	60	1048573
2026-01-18 01:14:32.42	24.19	8.42	-85.2	-88.6	2.7	7.63e-01	0	47	104	0	60	1048575
2026-01-18 01:14:36.45	24.23	8.75	-85.2	-88.6	3.4	7.63e-01	0	47	104	0	60	1048574
2026-01-18 01:14:40.48	24.27	9.09	-85.2	-88.6	3.4	7.61e-01	0	47	104	0	60	1048575
2026-01-18 01:14:44.52	24.31	9.43	-85.2	-88.6	3.3	7.64e-01	0	47	104	0	60	1048575
2026-01-18 01:14:48.54	24.35	9.77	-85.2	-88.6	3.1	7.63e-01	0	47	104	0	60	1048574
2026-01-18 01:14:52.57	24.39	10.12	-85.2	-88.6	3.4	7.64e-01	0	47	104	0	60	1048575
2026-01-18 01:14:56.61	24.43	10.47	-85.2	-88.6	3.0	7.62e-01	0	47	104	0	60	1048571
2026-01-18 01:15:00.63	24.47	10.83	-84.7	-88.6	3.2	7.63e-01	0	47	104	0	60	1048572
2026-01-18 01:15:04.66	24.52	11.19	-84.7	-88.6	3.0	7.63e-01	0	47	104	0	60	1048573
2026-01-18 01:15:08.68	24.56	11.56	-85.2	-88.6	3.2	7.64e-01	0	47	104	0	60	1048575
2026-01-18 01:15:12.71	24.61	11.93	-85.2	-88.6	2.9	7.63e-01	0	47	104	0	60	1048575
2026-01-18 01:15:16.74	24.65	12.31	-85.2	-88.6	3.2	7.62e-01	0	47	104	0	60	1048570
2026-01-18 01:15:20.77	24.70	12.70	-85.2	-88.6	3.3	7.64e-01	0	47	104	0	60	1048573
2026-01-18 01:15:24.79	24.74	13.09	-84.7	-88.6	2.9	7.62e-01	0	47	104	0	60	1048575
2026-01-18 01:15:28.82	24.79	13.49	-84.7	-88.6	3.2	7.62e-01	0	47	104	0	60	1048575
2026-01-18 01:15:32.85	24.84	13.89	-85.2	-88.6	2.8	7.63e-01	0	47	104	0	60	1048575
2026-01-18 01:15:36.87	24.89	14.30	-85.2	-88.6	3.7	7.62e-01	0	47	104	0	60	1048572
2026-01-18 01:15:40.89	24.94	14.72	-85.2	-88.6	3.1	7.63e-01	0	47	104	0	60	1048570
2026-01-18 01:15:44.92	24.99	15.15	-82.8	-88.6	3.1	7.63e-01	0	47	104	0	60	1048570
2026-01-18 01:15:48.95	25.04	15.58	-85.2	-88.6	3.0	7.60e-01	0	47	104	0	60	1048571
2026-01-18 01:15:52.96	25.09	16.02	-85.2	-88.6	3.0	7.63e-01	0	47	104	0	60	1048573
2026-01-18 01:15:56.98	25.15	16.47	-85.2	-88.6	3.0	7.62e-01	0	47	104	0	60	1048575
2026-01-18 01:16:01.00	25.20	16.93	-85.2	-88.6	3.1	7.64e-01	0	47	104	0	60	1048572
2026-01-18 01:16:05.04	25.26	17.40	-85.2	-88.6	3.6	7.63e-01	0	47	104	0	60	1048571
2026-01-18 01:16:09.06	25.32	17.87	-85.2	-88.6	3.3	7.63e-01	0	47	104	0	60	1048570
2026-01-18 01:16:13.08	25.38	18.36	-85.2	-88.6	3.0	7.64e-01	0	47	104	0	60	1048573
2026-01-18 01:16:17.12	25.44	18.86	-85.2	-88.6	3.5	7.61e-01	0	47	104	0	60	1048575
2026-01-18 01:16:21.15	25.50	19.36	-85.2	-88.6	2.9	7.63e-01	0	47	104	0	60	1048575
2026-01-18 01:16:25.18	25.56	19.88	-83.1	-88.6	2.9	7.64e-01	0	47	104	0	60	1048573
2026-01-18 01:16:29.21	25.63	20.41	-85.2	-88.6	3.2	7.64e-01	0	47	104	0	60	1048574
2026-01-18 01:16:33.23	25.70	20.94	-85.2	-88.6	3.0	7.63e-01	0	47	104	0	60	1048574
2026-01-18 01:16:37.26	25.76	21.49	-85.2	-88.6	2.7	7.63e-01	0	47	104	0	60	1048573
2026-01-18 01:16:41.29	25.83	22.06	-85.2	-88.6	2.9	7.63e-01	0	47	104	0	60	1048575
2026-01-18 01:16:45.31	25.91	22.63	-85.2	-88.6	3.1	7.63e-01	0	47	104	0	60	1048575
2026-01-18 01:16:49.34	25.98	23.22	-85.2	-88.6	3.5	7.65e-01	0	47	104	0	60	1048573
2026-01-18 01:16:53.37	26.06	23.82	-84.7	-88.6	3.2	7.63e-01	0	47	104	0	60	1048572
2026-01-18 01:16:57.40	26.14	24.44	-85.2	-88.6	3.3	7.63e-01	0	47	104	0	60	1048573
2026-01-18 01:17:01.42	26.22	25.07	-85.2	-88.6	3.1	7.62e-01	0	47	104	0	60	1048564
2026-01-18 01:17:05.45	26.30	25.72	-85.2	-88.6	2.9	7.59e-01	0	47	104	0	60	1048573
2026-01-18 01:17:09.48	26.39	26.38	-84.7	-88.6	3.0	7.63e-01	0	47	104	0	60	1048573
2026-01-18 01:17:13.51	26.48	27.06	-84.7	-88.6	3.7	7.64e-01	0	47	104	0	60	1048575
2026-01-18 01:17:17.53	26.57	27.76	-85.2	-88.6	3.5	7.63e-01	0	47	104	0	60	1048575
2026-01-18 01:17:21.55	26.67	28.47	-85.2	-88.6	3.2	7.64e-01	0	47	104	0	60	1048574
2026-01-18 01:17:25.58	26.77	29.21	-85.2	-88.6	3.1	7.63e-01	0	47	104	0	60	1048575
2026-01-18 01:17:29.60	26.87	29.96	-85.2	-88.6	3.3	7.63e-01	0	47	104	0	60	1048575
2026-01-18 01:17:33.63	26.98	30.73	-85.2	-88.6	3.6	7.63e-01	0	47	104	0	60	1048575
2026-01-18 01:17:37.66	27.10	31.53	-84.7	-88.6	3.7	7.63e-01	0	47	104	0	60	1048575
2026-01-18 01:17:41.69	27.21	32.35	-85.2	-88.6	3.3	7.62e-01	0	47	104	0	60	1048572
2026-01-18 01:17:45.73	27.34	33.19	-85.2	-88.6	2.8	7.65e-01	0	47	104	0	60	1048567
2026-01-18 01:17:49.76	27.47	34.06	-85.2	-88.6	3.2	7.63e-01	0	47	104	0	60	1048569
2026-01-18 01:17:53.78	27.60	34.94	-84.7	-88.6	2.7	7.61e-01	0	47	104	0	60	1048575
2026-01-18 01:17:57.80	27.74	35.86	-83.9	-88.6	3.1	7.63e-01	0	47	104	0	60	1048575
2026-01-18 01:18:01.84	27.89	36.80	-84.7	-88.6	3.2	7.62e-01	0	47	104	0	60	1048571
2026-01-18 01:18:05.86	28.05	37.77	-84.7	-88.6	3.4	7.61e-01	0	47	104	0	60	1048575
2026-01-18 01:18:09.88	28.22	38.77	-85.2	-88.6	3.7	7.63e-01	0	47	104	0	60	1048575
2026-01-18 01:18:13.90	28.39	39.79	-85.2	-88.6	3.2	7.63e-01	0	47	104	0	60	1048574
2026-01-18 01:18:17.92	28.58	40.85	-85.2	-88.6	3.0	7.63e-01	0	47	104	0	60	1048573
2026-01-18 01:18:21.96	28.78	41.95	-85.2	-88.6	3.1	7.64e-01	0	47	104	0	60	1048571
2026-01-18 01:18:25.99	28.99	43.07	-85.2	-88.6	3.2	7.63e-01	0	47	104	0	60	1048575
2026-01-18 01:18:30.01	29.21	44.23	-85.2	-88.6	3.0	7.64e-01	0	47	104	0	60	1048573
2026-01-18 01:18:34.03	29.45	45.42	-85.2	-88.6	3.6	7.63e-01	0	47	104	0	60	1048569
2026-01-18 01:18:38.06	29.71	46.65	-85.2	-88.6	3.0	7.65e-01	0	47	104	0	60	1048571
2026-01-18 01:18:42.08	29.99	47.91	-85.2	-88.6	3.0	7.62e-01	0	47	104	0	60	1048574
2026-01-18 01:18:46.12	30.29	49.22	-85.2	-88.6	2.9	7.63e-01	0	47	104	0	60	1048573
2026-01-18 01:18:50.15	30.62	50.57	-85.2	-88.6	3.4	7.64e-01	0	47	104	0	60	1048574
2026-01-18 01:18:54.18	30.98	51.95	-85.2	-88.6	3.1	7.63e-01	0	47	104	0	60	1048574
2026-01-18 01:18:58.20	31.37	53.37	-84.7	-88.6	3.5	7.64e-01	0	47	104	0	60	1048574
2026-01-18 01:19:02.23	31.80	54.84	-85.2	-88.6	3.2	7.63e-01	0	47	104	0	60	1048573
2026-01-18 01:19:06.24	32.28	56.33	-85.2	-88.6	2.9	7.62e-01	0	47	104	0	60	1048573
2026-01-18 01:19:10.27	32.81	57.88	-84.3	-88.6	3.3	7.62e-01	0	47	104	0	60	1048566
2026-01-18 01:19:14.29	33.40	59.45	-85.2	-88.6	3.1	7.64e-01	0	47	104	0	60	1048575
2026-01-18 01:19:18.32	34.06	61.08	-85.2	-88.6	3.0	7.63e-01	0	47	104	0	60	1048575
2026-01-18 01:19:22.34	34.82	62.73	-84.7	-88.6	3.7	7.64e-01	0	47	104	0	60	1048575
2026-01-18 01:19:26.36	35.69	64.42	-85.2	-88.6	3.2	7.63e-01	0	47	104	0	60	1048574
2026-01-18 01:19:30.39	36.70	66.15	-85.2	-88.6	3.6	7.63e-01	0	47	104	0	60	1048575
2026-01-18 01:19:34.42	37.88	67.91	-85.2	-88.6	2.9	7.62e-01	0	47	104	0	60	1048575
2026-01-18 01:19:38.44	39.28	69.70	-85.2	-88.6	3.3	7.63e-01	0	47	104	0	60	1048574
2026-01-18 01:19:42.47	40.98	71.50	-84.7	-88.6	3.0	7.64e-01	0	47	104	0	60	1048575
2026-01-18 01:19:46.49	43.06	73.32	-85.2	-88.6	2.9	7.65e-01	0	47	104	0	60	1048575
2026-01-18 01:19:50.51	45.68	75.14	-85.2	-88.6	2.9	7.63e-01	0	47	104	0	60	1048573
2026-01-18 01:19:54.54	49.05	76.95	-85.2	-88.6	3.7	7.64e-01	0	47	104	0	60	1048575
2026-01-18 01:19:58.57	53.53	78.72	-84.7	-88.6	3.2	7.63e-01	0	47	104	0	60	1048575
2026-01-18 01:20:02.59	59.66	80.41	-85.2	-88.6	3.4	7.63e-01	0	47	104	0	60	1048573
2026-01-18 01:20:06.61	68.32	81.97	-84.7	-88.6	3.0	7.64e-01	0	47	104	0	60	1048568
2026-01-18 01:20:10.64	80.78	83.27	-84.7	-88.6	3.1	7.62e-01	0	47	104	0	60	1048573
2026-01-18 01:20:14.66	97.95	84.13	-85.2	-88.6	3.1	7.63e-01	0	47	104	0	60	1048575
2026-01-18 01:20:18.69	118.53	84.33	-85.2	-88.6	3.1	7.63e-01	0	47	104	0	60	1048574
2026-01-18 01:20:22.72	138.02	83.81	-85.2	-88.6	3.2	7.62e-01	0	47	104	0	60	1048573
2026-01-18 01:20:26.74	153.02	82.73	-85.2	-88.6	3.1	7.64e-01	0	47	104	0	60	1048574
2026-01-18 01:20:30.77	163.63	81.29	-84.3	-88.6	3.1	7.63e-01	0	47	104	0	60	1048575
2026-01-18 01:20:34.80	171.03	79.66	-84.3	-88.6	3.2	7.63e-01	0	47	104	0	60	1048575
2026-01-18 01:20:38.83	176.33	77.92	-85.2	-88.6	3.2	7.63e-01	0	47	104	0	60	1048575
2026-01-18 01:20:42.84	180.24	76.13	-85.2	-88.6	3.5	7.63e-01	0	47	104	0	60	1048571
2026-01-18 01:20:46.87	183.24	74.31	-85.2	-88.6	3.4	7.63e-01	0	47	104	0	60	1048573
2026-01-18 01:20:50.90	185.60	72.48	-85.2	-88.6	2.9	7.63e-01	0	47	104	0	60	1048574
2026-01-18 01:20:54.93	187.49	70.67	-85.2	-88.6	3.1	7.64e-01	0	47	104	0	60	1048575
2026-01-18 01:20:58.96	189.05	68.86	-85.2	-88.6	3.5	7.64e-01	0	47	104	0	60	1048575
2026-01-18 01:21:02.99	190.34	67.09	-85.2	-88.6	3.5	7.62e-01	0	47	104	0	60	1048575
2026-01-18 01:21:07.02	191.44	65.34	-85.2	-88.6	3.1	7.63e-01	0	47	104	0	60	1048573
2026-01-18 01:21:11.04	192.38	63.62	-85.2	-88.6	3.1	7.64e-01	0	47	104	0	60	1048572
2026-01-18 01:21:15.06	193.20	61.94	-85.2	-88.6	2.9	7.64e-01	0	47	104	0	60	1048574
2026-01-18 01:21:19.08	193.91	60.30	-85.2	-88.6	2.9	7.63e-01	0	47	104	0	60	1048575
2026-01-18 01:21:23.12	194.54	58.69	-85.2	-88.6	3.5	7.63e-01	0	47	104	0	60	1048574
2026-01-18 01:21:27.15	195.11	57.12	-85.2	-88.6	3.3	7.63e-01	0	47	104	0	60	1048575
2026-01-18 01:21:31.17	195.61	55.59	-85.2	-88.6	3.5	7.64e-01	0	47	104	0	60	1048575
2026-01-18 01:21:35.19	196.06	54.11	-85.2	-88.6	3.3	7.63e-01	0	47	104	0	60	1048571
2026-01-18 01:21:39.22	196.47	52.66	-85.2	-88.6	3.1	7.64e-01	0	47	104	0	60	1048573
2026-01-18 01:21:43.24	196.85	51.26	-85.2	-88.6	3.0	7.63e-01	0	47	104	0	60	1048575
2026-01-18 01:21:47.27	197.19	49.89	-85.2	-88.6	2.9	7.63e-01	0	47	104	0	60	1048575
2026-01-18 01:21:51.29	197.50	48.56	-85.2	-88.6	3.6	7.63e-01	0	47	104	0	60	1048572
2026-01-18 01:21:55.31	197.79	47.27	-85.2	-88.6	3.1	7.64e-01	0	47	104	0	60	1048572
2026-01-18 01:21:59.34	198.06	46.02	-84.7	-88.6	3.5	7.63e-01	0	47	104	0	60	1048571
2026-01-18 01:22:03.36	198.31	44.80	-84.7	-88.6	2.6	7.65e-01	0	47	104	0	60	1048575
2026-01-18 01:22:07.39	198.54	43.62	-85.2	-88.6	3.2	7.64e-01	0	47	104	0	60	1048574
2026-01-18 01:22:11.41	198.76	42.48	-85.2	-88.6	3.1	7.63e-01	0	47	104	0	60	1048571
2026-01-18 01:22:15.44	198.97	41.36	-85.2	-88.6	3.4	7.63e-01	0	47	104	0	60	1048570
2026-01-18 01:22:19.46	199.16	40.29	-85.2	-88.6	3.3	7.61e-01	0	47	104	0	60	1048575
2026-01-18 01:22:23.49	199.34	39.24	-84.7	-88.6	3.2	7.62e-01	0	47	104	0	60	1048574
2026-01-18 01:22:27.52	199.51	38.22	-85.2	-88.6	3.0	7.64e-01	0	47	104	0	60	1048573
2026-01-18 01:22:31.55	199.67	37.23	-84.7	-88.6	3.1	7.63e-01	0	47	104	0	60	1048575
2026-01-18 01:22:35.57	199.82	36.27	-85.2	-88.6	3.3	7.64e-01	0	47	104	0	60	1048575
2026-01-18 01:22:39.60	199.97	35.34	-84.7	-88.6	2.9	7.63e-01	0	47	104	0	60	1048568
2026-01-18 01:22:43.63	200.11	34.43	-85.2	-88.6	3.4	7.64e-01	0	47	104	0	60	1048575
2026-01-18 01:22:47.66	200.24	33.55	-85.2	-88.6	3.0	7.63e-01	0	47	104	0	60	1048575
2026-01-18 01:22:51.68	200.36	32.70	-85.2	-88.6	2.6	7.63e-01	0	47	104	0	60	1048574
2026-01-18 01:22:55.71	200.48	31.87	-85.2	-88.6	2.7	7.63e-01	0	47	104	0	60	1048571
2026-01-18 01:22:59.72	200.60	31.06	-85.2	-88.6	2.9	7.64e-01	0	47	104	0	60	1048574
2026-01-18 01:23:03.75	200.71	30.27	-85.2	-88.6	3.3	7.62e-01	0	47	104	0	60	1048575
2026-01-18 01:23:07.77	200.81	29.51	-84.7	-88.6	3.5	7.62e-01	0	47	104	0	60	1048573
2026-01-18 01:23:11.79	200.91	28.76	-84.7	-88.6	2.9	7.63e-01	0	47	104	0	60	1048571
2026-01-18 01:23:15.82	201.01	28.03	-85.2	-88.6	3.1	7.63e-01	0	47	104	0	60	1048572
2026-01-18 01:23:19.86	201.10	27.32	-85.2	-88.6	3.2	7.62e-01	0	47	104	0	60	1048575
2026-01-18 01:23:23.88	201.19	26.63	-85.2	-88.6	3.3	7.63e-01	0	47	104	0	60	1048570
2026-01-18 01:23:27.89	201.28	25.96	-85.2	-88.6	3.1	7.62e-01	0	47	104	0	60	1048574
2026-01-18 01:23:31.91	201.36	25.31	-85.2	-88.6	3.1	7.63e-01	0	47	104	0	60	1048575
2026-01-18 01:23:35.94	201.45	24.66	-84.7	-88.6	3.6	7.61e-01	0	47	104	0	60	1048568
2026-01-18 01:23:39.96	201.52	24.04	-85.2	-88.6	3.2	7.61e-01	0	47	104	0	60	1048575
2026-01-18 01:23:43.99	201.60	23.43	-84.7	-88.6	2.6	7.63e-01	0	47	104	0	60	1048573
2026-01-18 01:23:48.02	201.67	22.83	-85.2	-88.6	3.7	7.63e-01	0	47	104	0	60	1048575
2026-01-18 01:23:52.04	201.75	22.25	-85.2	-88.6	3.1	7.62e-01	0	47	104	0	60	1048574
2026-01-18 01:23:56.07	201.82	21.67	-85.2	-88.6	3.4	7.62e-01	0	47	104	0	60	1048571
2026-01-18 01:24:00.09	201.88	21.12	-85.2	-88.6	3.0	7.63e-01	0	47	104	0	60	1048574
2026-01-18 01:24:04.12	201.95	20.57	-85.2	-88.6	3.5	7.63e-01	0	47	104	0	60	1048574
2026-01-18 01:24:08.14	202.01	20.04	-84.7	-88.6	3.3	7.63e-01	0	47	104	0	60	1048573
2026-01-18 01:24:12.16	202.08	19.51	-84.7	-88.6	3.2	7.61e-01	0	47	104	0	60	1048574
2026-01-18 01:24:16.19	202.14	19.00	-85.2	-88.6	3.1	7.63e-01	0	47	104	0	60	1048562
2026-01-18 01:24:20.21	202.20	18.50	-85.2	-88.6	2.9	7.54e-01	0	47	104	0	60	1048574
2026-01-18 01:24:24.24	202.25	18.01	-85.2	-88.6	3.3	7.64e-01	0	47	104	0	60	1048575
2026-01-18 01:24:28.26	202.31	17.53	-84.7	-88.6	3.7	7.63e-01	0	47	104	0	60	1048571
2026-01-18 01:24:32.29	202.36	17.05	-85.2	-88.6	3.0	7.63e-01	0	47	104	0	60	1048575
2026-01-18 01:24:36.31	202.42	16.59	-85.2	-88.6	3.4	7.62e-01	0	47	104	0	60	1048575
2026-01-18 01:24:40.33	202.47	16.13	-85.2	-88.6	2.7	7.63e-01	0	47	104	0	60	1048575
2026-01-18 01:24:44.36	202.52	15.69	-85.2	-88.6	3.4	7.63e-01	0	47	104	0	60	1048573
2026-01-18 01:24:48.38	202.57	15.25	-85.2	-88.6	3.0	7.63e-01	0	47	104	0	60	1048575
2026-01-18 01:24:52.40	202.62	14.82	-85.2	-88.6	3.4	7.64e-01	0	47	104	0	60	1048566
2026-01-18 01:24:56.43	202.67	14.39	-85.2	-88.6	2.9	7.63e-01	0	47	104	0	60	1048574
2026-01-18 01:25:00.46	202.72	13.98	-85.2	-88.6	3.2	7.62e-01	0	47	104	0	60	1048574
2026-01-18 01:25:04.49	202.76	13.57	-85.2	-88.6	3.6	7.63e-01	0	47	104	0	60	1048574
2026-01-18 01:25:08.52	202.81	13.16	-85.2	-88.6	3.2	7.63e-01	0	47	104	0	60	1048573
2026-01-18 01:25:12.54	202.85	12.77	-85.2	-88.6	3.2	7.65e-01	0	47	104	0	60	1048575
2026-01-18 01:25:16.56	202.90	12.38	-85.2	-88.6	3.8	7.62e-01	0	47	104	0	60	1048569
2026-01-18 01:25:20.59	202.94	12.00	-84.7	-88.6	3.6	7.64e-01	0	47	104	0	60	1048574
2026-01-18 01:25:24.61	202.98	11.62	-85.2	-88.6	3.4	7.63e-01	0	47	104	0	60	1048574
2026-01-18 01:25:28.63	203.03	11.25	-85.2	-88.6	2.9	7.62e-01	0	47	104	0	60	1048575
2026-01-18 01:25:32.65	203.07	10.88	-85.2	-88.6	3.1	7.62e-01	0	47	104	0	60	1048575
2026-01-18 01:25:36.68	203.11	10.52	-84.7	-88.6	3.0	7.63e-01	0	47	104	0	60	1048574
2026-01-18 01:25:40.70	203.15	10.16	-85.2	-88.6	3.1	7.63e-01	0	47	104	0	60	1048572
2026-01-18 01:25:44.72	203.19	9.81	-85.2	-88.6	3.7	7.63e-01	0	48	104	0	60	1048570
2026-01-18 01:25:48.75	203.22	9.47	-85.2	-88.6	3.5	7.63e-01	0	47	104	0	60	1048574
2026-01-18 01:25:52.77	203.26	9.13	-85.2	-88.6	3.1	7.64e-01	0	47	104	0	60	1048575
2026-01-18 01:25:56.80	203.30	8.79	-85.2	-88.6	3.1	7.62e-01	0	47	104	0	60	1048575
2026-01-18 01:26:00.83	203.34	8.46	-85.2	-88.6	2.9	7.63e-01	0	47	104	0	60	1048571
2026-01-18 01:26:04.84	203.37	8.13	-85.2	-88.6	3.5	7.62e-01	0	47	104	0	60	1048574
2026-01-18 01:26:08.87	203.41	7.81	-85.2	-88.6	3.3	7.64e-01	0	47	104	0	60	1048574
2026-01-18 01:26:12.89	203.44	7.49	-85.2	-88.6	3.5	7.64e-01	0	47	104	0	60	1048572
2026-01-18 01:26:16.91	203.48	7.17	-84.3	-88.6	3.0	7.62e-01	0	47	104	0	60	1048575
2026-01-18 01:26:20.94	203.51	6.86	-84.3	-88.6	3.2	7.63e-01	0	47	104	0	60	1048573
2026-01-18 01:26:24.96	203.55	6.55	-85.2	-88.6	3.2	7.62e-01	0	47	104	0	60	1048573
2026-01-18 01:26:28.99	203.58	6.25	-83.1	-88.6	3.2	7.63e-01	0	47	104	0	60	1048571
2026-01-18 01:26:33.01	203.61	5.95	-84.7	-88.6	3.0	7.63e-01	0	47	104	0	60	1048575
2026-01-18 01:26:37.04	203.65	5.65	-85.2	-88.6	3.4	7.64e-01	0	47	104	0	60	1048570
2026-01-18 01:26:41.07	203.68	5.36	-85.2	-88.6	3.5	7.62e-01	0	47	104	0	60	1048574
2026-01-18 01:26:45.10	203.71	5.07	-85.2	-88.6	3.5	7.62e-01	0	47	104	0	60	1048566
2026-01-18 01:26:49.13	203.74	4.78	-85.2	-88.6	3.0	7.63e-01	0	47	104	0	60	1048574
2026-01-18 01:26:53.15	203.77	4.50	-85.2	-88.6	3.0	7.63e-01	0	47	104	0	60	1048568
2026-01-18 01:26:57.18	203.80	4.21	-85.2	-88.6	2.9	7.62e-01	0	47	104	0	60	1048573
2026-01-18 01:27:01.20	203.84	3.94	-85.2	-88.6	3.1	7.63e-01	0	47	104	0	60	1048571
2026-01-18 01:27:05.23	203.87	3.66	-85.2	-88.6	2.9	7.64e-01	0	47	104	0	60	1048574
2026-01-18 01:27:09.25	203.90	3.39	-84.7	-88.6	3.0	7.63e-01	0	47	104	0	60	1048574
2026-01-18 01:27:13.28	203.93	3.12	-85.2	-88.6	2.8	7.64e-01	0	47	104	0	60	1048575
2026-01-18 01:27:17.31	203.95	2.85	-85.2	-88.6	2.9	7.61e-01	0	47	104	0	60	1048574
2026-01-18 01:27:21.34	203.98	2.58	-85.2	-88.6	3.5	7.62e-01	0	47	104	0	60	1048575
2026-01-18 01:27:25.37	204.01	2.32	-85.2	-88.6	3.3	7.63e-01	0	47	104	0	60	1048573
2026-01-18 01:27:29.40	204.04	2.06	-85.2	-88.6	3.0	7.64e-01	0	47	104	0	60	1048575
2026-01-18 01:27:33.42	204.07	1.80	-85.2	-88.6	2.9	7.63e-01	0	47	104	0	60	1048575
2026-01-18 01:27:37.45	204.10	1.55	-85.2	-88.6	3.0	7.62e-01	0	47	104	0	60	1048575
2026-01-18 01:27:41.47	204.12	1.29	-85.2	-88.6	3.6	7.63e-01	0	47	104	0	60	1048575
2026-01-18 01:27:45.50	204.15	1.04	-85.2	-88.6	3.4	7.64e-01	0	47	104	0	60	1048573
2026-01-18 01:27:49.53	204.18	0.79	-85.2	-88.6	2.6	7.63e-01	0	47	104	0	60	1048574
2026-01-18 01:27:53.56	204.21	0.55	-85.2	-88.6	2.9	7.64e-01	0	47	104	0	60	1048575
2026-01-18 01:27:57.58	204.23	0.30	-85.2	-88.6	3.0	7.65e-01	0	47	104	0	60	1048571
2026-01-18 01:28:01.61	204.26	0.06	-85.2	-88.6	3.1	7.63e-01	0	47	104	0	60	1048574

#Closed at: 2026-01-18 01:28:03
#Recorded file [0 MB]: D:/Data/35015_260118_041231.dat