passes_logs/2026/01/18/R3.2S-Naryan-Mar/R3.2S-Naryan-Mar__20260118_072444_AQUA_rec.log

#Pass ID: 20260118_072444_AQUA
#Satellite: AQUA
#Configuration: AQUA
#almurnet v.1.7.20240730
#Start time: 2026-01-18 07:26:18

#Version: 2.2.20231116
#Station: R3.2S-Naryan-Mar
#Location: 53.008057 lon 67.646978 lat
#TLE: 1 27424U 02022A   26017.29152041  .00000842  00000+0  17841-3 0  9992
#TLE: 2 27424  98.4085 343.7574 0002011  75.4099  30.6811 14.61825797261228

#Time	Az	El	Level	Level2	SNR	BER	BlckErr	Temp	State	Recorded	gain1	gain2
2026-01-18 07:26:18.65	84.96	5.62	-85.2	-88.6	3.4	1.56e+00	0	47	0	0	60	1048574
2026-01-18 07:26:21.67	84.68	5.81	-84.3	-88.8	2.3	3.11e+01	0	47	104	0	60	1048573
2026-01-18 07:26:24.69	84.38	6.01	-83.9	-88.8	2.5	3.11e+01	0	47	104	0	60	1048573
2026-01-18 07:26:27.71	84.09	6.21	-84.3	-88.8	2.8	3.11e+01	0	47	104	0	60	1048573
2026-01-18 07:26:30.73	83.79	6.41	-83.9	-88.8	2.6	3.11e+01	0	47	104	0	60	1048573
2026-01-18 07:26:33.75	83.48	6.61	-83.9	-88.8	2.6	3.11e+01	0	47	104	0	60	1048573
2026-01-18 07:26:36.77	83.17	6.81	-84.3	-88.8	2.6	3.11e+01	0	47	104	0	60	1048573
2026-01-18 07:26:39.80	82.85	7.01	-84.3	-88.8	2.5	3.11e+01	0	47	104	0	60	1048573
2026-01-18 07:26:42.82	82.53	7.21	-83.9	-88.8	2.5	3.11e+01	0	47	104	0	60	1048573
2026-01-18 07:26:45.84	82.21	7.42	-84.3	-88.8	2.4	3.11e+01	0	47	104	0	60	1048573
2026-01-18 07:26:48.87	81.87	7.62	-83.9	-88.8	2.5	3.11e+01	0	47	104	0	60	1048573
2026-01-18 07:26:51.89	81.54	7.83	-84.3	-88.8	2.4	3.11e+01	0	47	104	0	60	1048573
2026-01-18 07:26:54.92	81.20	8.04	-84.3	-88.8	2.5	3.11e+01	0	47	104	0	60	1048573
2026-01-18 07:26:57.93	80.85	8.24	-83.9	-88.8	2.7	3.11e+01	0	47	104	0	60	1048573
2026-01-18 07:27:00.95	80.50	8.45	-84.3	-88.8	2.8	3.11e+01	0	47	104	0	60	1048575
2026-01-18 07:27:03.97	80.14	8.66	-84.3	-88.8	2.4	3.11e+01	0	47	104	0	60	1048575
2026-01-18 07:27:06.99	79.78	8.87	-83.9	-88.8	2.6	3.11e+01	0	47	104	0	60	1048575
2026-01-18 07:27:10.02	79.41	9.09	-84.3	-88.8	2.5	3.11e+01	0	47	104	0	60	1048575
2026-01-18 07:27:13.05	79.03	9.30	-84.3	-88.8	2.7	3.11e+01	0	47	104	0	60	1048575
2026-01-18 07:27:16.06	78.65	9.51	-84.3	-88.8	2.8	3.11e+01	0	47	104	0	60	1048575
2026-01-18 07:27:19.08	78.26	9.73	-84.3	-88.8	2.5	3.11e+01	0	47	104	0	60	1048575
2026-01-18 07:27:22.10	77.87	9.94	-83.9	-88.8	2.4	3.11e+01	0	47	104	0	60	1048575
2026-01-18 07:27:25.12	77.46	10.16	-84.3	-88.8	2.6	3.11e+01	0	47	104	0	60	1048575
2026-01-18 07:27:28.15	77.06	10.37	-84.3	-88.8	2.7	3.11e+01	0	47	104	0	60	1048575
2026-01-18 07:27:31.16	76.64	10.59	-83.9	-88.8	2.7	3.11e+01	0	47	104	0	60	1048575
2026-01-18 07:27:34.18	76.22	10.81	-84.3	-88.8	2.7	3.11e+01	0	47	104	0	60	1048575
2026-01-18 07:27:37.20	75.79	11.03	-84.3	-88.8	2.6	3.11e+01	0	47	104	0	60	1048575
2026-01-18 07:27:40.22	75.36	11.25	-83.9	-88.8	2.5	3.11e+01	0	47	104	0	60	1048575
2026-01-18 07:27:43.24	74.92	11.47	-84.3	-88.8	2.6	3.11e+01	0	47	104	0	60	1048575
2026-01-18 07:27:46.27	74.47	11.69	-84.3	-88.8	2.6	3.11e+01	0	47	104	0	60	1048575
2026-01-18 07:27:49.29	74.01	11.91	-84.3	-88.8	2.5	3.11e+01	0	47	104	0	60	1048575
2026-01-18 07:27:52.30	73.55	12.13	-84.3	-88.8	2.5	3.11e+01	0	47	104	0	60	1048575
2026-01-18 07:27:55.33	73.07	12.36	-83.9	-88.8	2.5	3.11e+01	0	47	104	0	60	1048575
2026-01-18 07:27:58.35	72.59	12.58	-84.3	-88.8	2.5	3.11e+01	0	47	104	0	60	1048575
2026-01-18 07:28:01.38	72.10	12.80	-84.3	-88.8	2.7	3.11e+01	0	47	104	0	60	1048575
2026-01-18 07:28:04.39	71.61	13.02	-83.9	-88.8	2.6	3.11e+01	0	47	104	0	60	1048575
2026-01-18 07:28:07.41	71.10	13.25	-84.3	-88.8	2.7	3.11e+01	0	47	104	0	60	1048575
2026-01-18 07:28:10.44	70.59	13.47	-84.3	-88.8	2.3	3.11e+01	0	47	104	0	60	1048575
2026-01-18 07:28:13.46	70.07	13.70	-83.9	-88.8	2.6	3.11e+01	0	47	104	0	60	1048575
2026-01-18 07:28:16.49	69.54	13.92	-84.3	-88.8	2.3	3.11e+01	0	47	104	0	60	1048575
2026-01-18 07:28:19.51	69.00	14.14	-84.3	-88.8	2.6	3.11e+01	0	47	104	0	60	1048575
2026-01-18 07:28:22.53	68.45	14.37	-84.3	-88.8	2.5	3.11e+01	0	47	104	0	60	1048575
2026-01-18 07:28:25.55	67.89	14.59	-84.3	-88.8	2.5	3.11e+01	0	47	104	0	60	1048575
2026-01-18 07:28:28.57	67.33	14.81	-83.9	-88.8	2.6	3.11e+01	0	47	104	0	60	1048575
2026-01-18 07:28:31.59	66.75	15.04	-84.3	-88.8	2.5	3.11e+01	0	47	104	0	60	1048575
2026-01-18 07:28:34.62	66.17	15.26	-84.3	-88.8	2.7	3.11e+01	0	47	104	0	60	1048575
2026-01-18 07:28:37.63	65.57	15.48	-83.9	-88.8	2.6	3.11e+01	0	47	104	0	60	1048575
2026-01-18 07:28:40.66	64.97	15.70	-84.3	-88.8	2.6	3.11e+01	0	47	104	0	60	1048575
2026-01-18 07:28:43.68	64.36	15.92	-83.9	-88.8	2.4	3.11e+01	0	47	104	0	60	1048575
2026-01-18 07:28:46.70	63.73	16.14	-84.3	-88.8	2.4	3.11e+01	0	47	104	0	60	1048575
2026-01-18 07:28:49.73	63.10	16.36	-84.3	-88.8	2.5	3.11e+01	0	47	104	0	60	1048575
2026-01-18 07:28:52.75	62.46	16.57	-83.9	-88.8	2.7	3.11e+01	0	47	104	0	60	1048575
2026-01-18 07:28:55.77	61.80	16.79	-83.9	-88.8	2.5	3.11e+01	0	47	104	0	60	1048575
2026-01-18 07:28:58.80	61.14	17.00	-84.3	-88.8	2.6	3.11e+01	0	47	104	0	60	1048575
2026-01-18 07:29:01.81	60.47	17.21	-83.9	-88.8	2.8	3.11e+01	0	47	104	0	60	1048575
2026-01-18 07:29:04.82	59.79	17.42	-84.3	-88.8	2.7	3.11e+01	0	47	104	0	60	1048575
2026-01-18 07:29:07.84	59.10	17.62	-84.3	-88.8	2.5	3.11e+01	0	47	104	0	60	1048575
2026-01-18 07:29:10.86	58.39	17.83	-83.9	-88.8	2.8	3.11e+01	0	47	104	0	60	1048575
2026-01-18 07:29:13.88	57.68	18.03	-84.3	-88.8	2.3	3.11e+01	0	47	104	0	60	1048575
2026-01-18 07:29:16.90	56.96	18.23	-84.3	-88.8	2.4	3.11e+01	0	47	104	0	60	1048575
2026-01-18 07:29:19.92	56.23	18.43	-84.3	-88.8	2.6	3.11e+01	0	47	104	0	60	1048575
2026-01-18 07:29:22.95	55.48	18.62	-84.3	-88.8	2.4	3.11e+01	0	47	104	0	60	1048575
2026-01-18 07:29:25.97	54.73	18.81	-84.3	-88.8	2.6	3.11e+01	0	47	104	0	60	1048575
2026-01-18 07:29:28.99	53.96	19.00	-84.3	-88.8	2.7	3.11e+01	0	47	104	0	60	1048575
2026-01-18 07:29:32.01	53.19	19.18	-84.3	-88.8	2.6	3.11e+01	0	47	104	0	60	1048575
2026-01-18 07:29:35.03	52.41	19.36	-83.9	-88.8	2.8	3.11e+01	0	47	104	0	60	1048575
2026-01-18 07:29:38.05	51.62	19.54	-84.3	-88.8	2.6	3.11e+01	0	47	104	0	60	1048575
2026-01-18 07:29:41.08	50.81	19.71	-84.3	-88.8	2.5	3.11e+01	0	47	104	0	60	1048575
2026-01-18 07:29:44.10	50.00	19.88	-83.9	-88.8	2.5	3.11e+01	0	47	104	0	60	1048575
2026-01-18 07:29:47.12	49.18	20.04	-84.3	-88.8	2.7	3.11e+01	0	47	104	0	60	1048575
2026-01-18 07:29:50.14	48.35	20.19	-83.9	-88.8	2.6	3.11e+01	0	47	104	0	60	1048575
2026-01-18 07:29:53.15	47.51	20.35	-83.9	-88.8	2.3	3.11e+01	0	47	104	0	60	1048575
2026-01-18 07:29:56.17	46.66	20.49	-83.9	-88.8	2.7	3.11e+01	0	47	104	0	60	1048575
2026-01-18 07:29:59.19	45.81	20.63	-83.9	-88.8	2.7	3.11e+01	0	47	104	0	60	1048575
2026-01-18 07:30:02.20	44.95	20.77	-84.3	-88.8	2.6	3.11e+01	0	47	104	0	60	1048575
2026-01-18 07:30:05.22	44.07	20.90	-84.3	-88.8	2.7	3.11e+01	0	47	104	0	60	1048575
2026-01-18 07:30:08.24	43.19	21.02	-83.5	-88.8	2.6	3.11e+01	0	47	104	0	60	1048575
2026-01-18 07:30:11.26	42.31	21.14	-84.3	-88.8	2.7	3.11e+01	0	47	104	0	60	1048575
2026-01-18 07:30:14.29	41.41	21.25	-84.3	-88.8	2.5	3.11e+01	0	47	104	0	60	1048575
2026-01-18 07:30:17.31	40.51	21.36	-83.9	-88.8	2.7	3.11e+01	0	47	104	0	60	1048575
2026-01-18 07:30:20.33	39.60	21.45	-83.9	-88.8	2.7	3.11e+01	0	47	104	0	60	1048575
2026-01-18 07:30:23.34	38.69	21.54	-84.3	-88.8	2.4	3.11e+01	0	47	104	0	60	1048575
2026-01-18 07:30:26.36	37.78	21.63	-84.3	-88.8	2.6	3.11e+01	0	47	104	0	60	1048575
2026-01-18 07:30:29.39	36.85	21.70	-84.3	-88.8	2.5	3.11e+01	0	47	104	0	60	1048575
2026-01-18 07:30:32.40	35.93	21.77	-83.9	-88.8	2.7	3.11e+01	0	47	104	0	60	1048575
2026-01-18 07:30:35.42	34.99	21.83	-84.3	-88.8	2.7	3.11e+01	0	47	104	0	60	1048575
2026-01-18 07:30:38.45	34.06	21.89	-84.3	-88.8	2.5	3.11e+01	0	47	104	0	60	1048575
2026-01-18 07:30:41.46	33.12	21.93	-83.9	-88.8	2.8	3.11e+01	0	47	104	0	60	1048575
2026-01-18 07:30:44.48	32.18	21.97	-84.3	-88.8	2.5	3.11e+01	0	47	104	0	60	1048575
2026-01-18 07:30:47.50	31.24	22.00	-84.3	-88.8	2.7	3.11e+01	0	47	104	0	60	1048575
2026-01-18 07:30:50.52	30.29	22.02	-83.9	-88.8	2.5	3.11e+01	0	47	104	0	60	1048575
2026-01-18 07:30:53.53	29.35	22.04	-84.3	-88.8	2.6	3.11e+01	0	47	104	0	60	1048575
2026-01-18 07:30:56.54	28.41	22.04	-84.3	-88.8	2.6	3.11e+01	0	47	104	0	60	1048575
2026-01-18 07:30:59.55	27.46	22.04	-84.3	-88.8	2.6	3.11e+01	0	47	104	0	60	1048575
2026-01-18 07:31:02.57	26.52	22.03	-84.3	-88.8	2.5	3.11e+01	0	47	104	0	60	1048575
2026-01-18 07:31:05.60	25.57	22.01	-83.9	-88.8	2.4	3.11e+01	0	47	104	0	60	1048575
2026-01-18 07:31:08.62	24.63	21.99	-84.3	-88.8	2.4	3.11e+01	0	47	104	0	60	1048575
2026-01-18 07:31:11.64	23.68	21.95	-84.3	-88.8	2.6	3.11e+01	0	47	104	0	60	1048575
2026-01-18 07:31:14.65	22.75	21.91	-83.9	-88.8	2.6	3.11e+01	0	47	104	0	60	1048575
2026-01-18 07:31:17.67	21.81	21.86	-83.9	-88.8	2.6	3.11e+01	0	47	104	0	60	1048575
2026-01-18 07:31:20.69	20.88	21.80	-84.3	-88.8	2.8	3.11e+01	0	47	104	0	60	1048575
2026-01-18 07:31:23.72	19.95	21.74	-83.9	-88.8	2.7	3.11e+01	0	47	104	0	60	1048575
2026-01-18 07:31:26.74	19.02	21.67	-84.3	-88.8	2.5	3.11e+01	0	47	104	0	60	1048575
2026-01-18 07:31:29.76	18.10	21.59	-84.3	-88.8	2.5	3.11e+01	0	47	104	0	60	1048575
2026-01-18 07:31:32.78	17.19	21.50	-84.3	-88.8	2.6	3.11e+01	0	47	104	0	60	1048575
2026-01-18 07:31:35.80	16.28	21.41	-84.3	-88.8	2.6	3.11e+01	0	47	104	0	60	1048575
2026-01-18 07:31:38.82	15.38	21.31	-83.9	-88.8	2.5	3.11e+01	0	47	104	0	60	1048575
2026-01-18 07:31:41.85	14.48	21.20	-84.3	-88.8	2.6	3.11e+01	0	47	104	0	60	1048575
2026-01-18 07:31:44.86	13.59	21.08	-84.3	-88.8	2.6	3.11e+01	0	47	104	0	60	1048575
2026-01-18 07:31:47.88	12.71	20.96	-83.9	-88.8	2.5	3.11e+01	0	47	104	0	60	1048575
2026-01-18 07:31:50.90	11.83	20.84	-84.3	-88.8	2.7	3.11e+01	0	47	104	0	60	1048575
2026-01-18 07:31:53.93	10.96	20.71	-84.3	-88.8	2.6	3.11e+01	0	47	104	0	60	1048575
2026-01-18 07:31:56.95	10.10	20.57	-83.9	-88.8	2.7	3.11e+01	0	47	104	0	60	1048575
2026-01-18 07:31:59.96	9.26	20.42	-84.3	-88.8	2.4	3.11e+01	0	47	104	0	60	1048575
2026-01-18 07:32:02.97	8.42	20.27	-84.3	-88.8	2.5	3.11e+01	0	47	104	0	60	1048575
2026-01-18 07:32:05.99	7.58	20.12	-84.3	-88.8	2.5	3.11e+01	0	47	104	0	60	1048575
2026-01-18 07:32:09.01	6.76	19.96	-84.3	-88.8	2.3	3.11e+01	0	47	104	0	60	1048575
2026-01-18 07:32:12.04	5.94	19.80	-83.9	-88.8	2.6	3.11e+01	0	47	104	0	60	1048575
2026-01-18 07:32:15.06	5.14	19.63	-84.3	-88.8	2.5	3.11e+01	0	47	104	0	60	1048575
2026-01-18 07:32:18.08	4.34	19.45	-83.9	-88.8	2.8	3.11e+01	0	47	104	0	60	1048575
2026-01-18 07:32:21.10	3.55	19.28	-83.9	-88.8	2.7	3.11e+01	0	47	104	0	60	1048575
2026-01-18 07:32:24.12	2.78	19.10	-84.3	-88.8	2.6	3.11e+01	0	47	104	0	60	1048575
2026-01-18 07:32:27.15	2.01	18.91	-84.3	-88.8	2.6	3.11e+01	0	47	104	0	60	1048575
2026-01-18 07:32:30.17	1.25	18.72	-84.3	-88.8	2.4	3.11e+01	0	47	104	0	60	1048575
2026-01-18 07:32:33.18	0.51	18.53	-84.3	-88.8	2.5	3.11e+01	0	47	104	0	60	1048575
2026-01-18 07:32:36.21	359.77	18.34	-84.3	-88.8	2.8	3.11e+01	0	47	104	0	60	1048575
2026-01-18 07:32:39.23	359.04	18.14	-84.3	-88.8	2.4	3.11e+01	0	47	104	0	60	1048575
2026-01-18 07:32:42.25	358.33	17.94	-84.3	-88.8	2.4	3.11e+01	0	47	104	0	60	1048575
2026-01-18 07:32:45.27	357.62	17.74	-83.9	-88.8	2.5	3.11e+01	0	47	104	0	60	1048575
2026-01-18 07:32:48.29	356.92	17.53	-84.3	-88.8	2.6	3.11e+01	0	47	104	0	60	1048575
2026-01-18 07:32:51.31	356.24	17.32	-84.3	-88.8	2.7	3.11e+01	0	47	104	0	60	1048575
2026-01-18 07:32:54.32	355.56	17.11	-83.9	-88.8	2.6	3.11e+01	0	47	104	0	60	1048573
2026-01-18 07:32:57.34	354.90	16.90	-84.3	-88.8	2.6	3.11e+01	0	47	104	0	60	1048573
2026-01-18 07:33:00.35	354.25	16.69	-83.9	-88.8	2.8	3.11e+01	0	47	104	0	60	1048573
2026-01-18 07:33:03.37	353.60	16.48	-83.9	-88.8	2.3	3.11e+01	0	47	104	0	60	1048573
2026-01-18 07:33:06.39	352.96	16.26	-84.3	-88.8	2.6	3.11e+01	0	47	104	0	60	1048573
2026-01-18 07:33:09.41	352.34	16.04	-84.3	-88.8	2.6	3.11e+01	0	47	104	0	60	1048573
2026-01-18 07:33:12.43	351.72	15.82	-84.3	-88.8	2.6	3.11e+01	0	47	104	0	60	1048573
2026-01-18 07:33:15.45	351.12	15.60	-84.3	-88.8	2.5	3.11e+01	0	47	104	0	60	1048573
2026-01-18 07:33:18.48	350.52	15.38	-83.9	-88.8	2.7	3.11e+01	0	47	104	0	60	1048573
2026-01-18 07:33:21.50	349.93	15.16	-84.3	-88.8	2.6	3.11e+01	0	47	104	0	60	1048573
2026-01-18 07:33:24.51	349.35	14.94	-84.3	-88.8	2.5	3.11e+01	0	47	104	0	60	1048573
2026-01-18 07:33:27.52	348.79	14.72	-83.9	-88.8	2.4	3.11e+01	0	47	104	0	60	1048573
2026-01-18 07:33:30.54	348.23	14.50	-84.3	-88.8	2.6	3.11e+01	0	47	104	0	60	1048573
2026-01-18 07:33:33.56	347.68	14.28	-84.3	-88.8	2.6	3.11e+01	0	47	104	0	60	1048573
2026-01-18 07:33:36.58	347.13	14.05	-83.9	-88.8	2.6	3.11e+01	0	47	104	0	60	1048573
2026-01-18 07:33:39.60	346.60	13.83	-84.3	-88.8	2.6	3.11e+01	0	47	104	0	60	1048573
2026-01-18 07:33:42.62	346.08	13.61	-83.9	-88.8	2.7	3.11e+01	0	47	104	0	60	1048573
2026-01-18 07:33:45.65	345.56	13.38	-84.3	-88.8	2.8	3.11e+01	0	47	104	0	60	1048573
2026-01-18 07:33:48.67	345.05	13.16	-84.3	-88.8	2.5	3.11e+01	0	47	104	0	60	1048573
2026-01-18 07:33:51.69	344.55	12.94	-83.9	-88.8	2.7	3.11e+01	0	47	104	0	60	1048573
2026-01-18 07:33:54.72	344.06	12.71	-84.3	-88.8	2.7	3.11e+01	0	47	104	0	60	1048573
2026-01-18 07:33:57.73	343.58	12.49	-84.3	-88.8	2.6	3.11e+01	0	47	104	0	60	1048573
2026-01-18 07:34:00.75	343.10	12.27	-83.9	-88.8	2.6	3.11e+01	0	47	104	0	60	1048573
2026-01-18 07:34:03.77	342.64	12.05	-84.3	-88.8	2.6	3.11e+01	0	47	104	0	60	1048573
2026-01-18 07:34:06.80	342.18	11.83	-84.3	-88.8	2.6	3.11e+01	0	47	104	0	60	1048573
2026-01-18 07:34:09.82	341.72	11.61	-84.3	-88.8	2.5	3.11e+01	0	47	104	0	60	1048573
2026-01-18 07:34:12.84	341.28	11.39	-84.3	-88.8	2.6	3.11e+01	0	47	104	0	60	1048573
2026-01-18 07:34:15.86	340.84	11.17	-83.9	-88.8	2.4	3.11e+01	0	47	104	0	60	1048573
2026-01-18 07:34:18.88	340.41	10.95	-84.3	-88.8	2.5	3.11e+01	0	47	104	0	60	1048573
2026-01-18 07:34:21.90	339.99	10.73	-84.3	-88.8	2.4	3.11e+01	0	47	104	0	60	1048573
2026-01-18 07:34:24.93	339.57	10.51	-83.9	-88.8	2.6	3.11e+01	0	47	104	0	60	1048573
2026-01-18 07:34:27.94	339.16	10.30	-84.3	-88.8	2.5	3.11e+01	0	47	104	0	60	1048573
2026-01-18 07:34:30.96	338.76	10.08	-84.3	-88.8	2.5	3.11e+01	0	47	104	0	60	1048573
2026-01-18 07:34:33.98	338.37	9.86	-83.9	-88.8	2.4	3.11e+01	0	47	104	0	60	1048573
2026-01-18 07:34:37.00	337.98	9.65	-84.3	-88.8	2.5	3.11e+01	0	47	104	0	60	1048573
2026-01-18 07:34:40.03	337.59	9.44	-84.3	-88.8	2.7	3.11e+01	0	47	104	0	60	1048573
2026-01-18 07:34:43.05	337.21	9.22	-84.3	-88.8	2.6	3.11e+01	0	47	104	0	60	1048573
2026-01-18 07:34:46.07	336.84	9.01	-84.3	-88.8	2.6	3.11e+01	0	47	104	0	60	1048573
2026-01-18 07:34:49.09	336.48	8.80	-83.9	-88.8	2.4	3.11e+01	0	47	104	0	60	1048573
2026-01-18 07:34:52.11	336.12	8.59	-84.3	-88.8	2.4	3.11e+01	0	47	104	0	60	1048573
2026-01-18 07:34:55.14	335.76	8.38	-84.3	-88.8	2.6	3.11e+01	0	47	104	0	60	1048573
2026-01-18 07:34:58.16	335.41	8.17	-83.9	-88.8	2.5	3.11e+01	0	47	104	0	60	1048573
2026-01-18 07:35:01.18	335.07	7.97	-84.3	-88.8	2.6	3.11e+01	0	47	104	0	60	1048573
2026-01-18 07:35:04.20	334.73	7.76	-84.3	-88.8	2.4	3.11e+01	0	47	104	0	60	1048573
2026-01-18 07:35:07.21	334.40	7.56	-83.9	-88.8	2.5	3.11e+01	0	47	104	0	60	1048573
2026-01-18 07:35:10.23	334.08	7.35	-84.3	-88.8	2.6	3.11e+01	0	47	104	0	60	1048573
2026-01-18 07:35:13.25	333.76	7.15	-83.9	-88.8	2.6	3.11e+01	0	47	104	0	60	1048573
2026-01-18 07:35:16.28	333.44	6.95	-84.3	-88.8	2.6	3.11e+01	0	47	104	0	60	1048573
2026-01-18 07:35:19.30	333.13	6.75	-84.3	-88.8	2.5	3.11e+01	0	47	104	0	60	1048573
2026-01-18 07:35:22.32	332.82	6.55	-83.9	-88.8	2.6	3.11e+01	0	47	104	0	60	1048573
2026-01-18 07:35:25.34	332.52	6.35	-84.3	-88.8	2.5	3.11e+01	0	47	104	0	60	1048573
2026-01-18 07:35:28.36	332.22	6.15	-84.3	-88.8	2.4	3.11e+01	0	47	104	0	60	1048573
2026-01-18 07:35:31.38	331.93	5.95	-83.9	-88.8	2.6	3.11e+01	0	47	104	0	60	1048575
2026-01-18 07:35:34.39	331.64	5.76	-84.3	-88.8	2.5	3.11e+01	0	47	104	0	60	1048575
2026-01-18 07:35:37.41	331.35	5.56	-84.3	-88.8	2.4	3.11e+01	0	47	104	0	60	1048575
2026-01-18 07:35:40.43	331.07	5.37	-83.9	-88.8	2.7	3.11e+01	0	47	104	0	60	1048575
2026-01-18 07:35:43.46	330.80	5.17	-84.3	-88.8	2.5	3.11e+01	0	47	104	0	60	1048575
2026-01-18 07:35:46.49	330.52	4.98	-83.9	-88.8	2.6	3.11e+01	0	47	104	0	60	1048575
2026-01-18 07:35:49.51	330.26	4.79	-84.3	-88.8	2.8	3.11e+01	0	47	104	0	60	1048575
2026-01-18 07:35:52.53	329.99	4.60	-84.3	-88.8	2.4	3.11e+01	0	47	104	0	60	1048575
2026-01-18 07:35:55.55	329.73	4.41	-83.9	-88.8	2.6	3.11e+01	0	47	104	0	60	1048575
2026-01-18 07:35:58.57	329.48	4.22	-84.3	-88.8	2.8	3.11e+01	0	47	104	0	60	1048575
2026-01-18 07:36:01.59	329.22	4.03	-84.3	-88.8	2.7	3.11e+01	0	47	104	0	60	1048575
2026-01-18 07:36:04.61	328.98	3.85	-83.9	-88.8	2.5	3.11e+01	0	47	104	0	60	1048575
2026-01-18 07:36:07.64	328.73	3.66	-84.3	-88.8	2.5	3.11e+01	0	47	104	0	60	1048575
2026-01-18 07:36:10.66	328.49	3.48	-84.3	-88.8	2.6	3.11e+01	0	47	104	0	60	1048575
2026-01-18 07:36:13.68	328.25	3.29	-84.3	-88.8	2.7	3.11e+01	0	47	104	0	60	1048575
2026-01-18 07:36:16.70	328.02	3.11	-84.3	-88.8	2.6	3.11e+01	0	47	104	0	60	1048575
2026-01-18 07:36:19.73	327.78	2.93	-83.9	-88.8	2.6	3.11e+01	0	47	104	0	60	1048575
2026-01-18 07:36:22.75	327.55	2.75	-84.3	-88.8	2.7	3.11e+01	0	47	104	0	60	1048575
2026-01-18 07:36:25.76	327.33	2.57	-84.3	-88.8	2.6	3.11e+01	0	47	104	0	60	1048575
2026-01-18 07:36:28.78	327.11	2.39	-83.9	-88.8	2.5	3.11e+01	0	47	104	0	60	1048575
2026-01-18 07:36:31.80	326.89	2.21	-84.3	-88.8	2.8	3.11e+01	0	47	104	0	60	1048575
2026-01-18 07:36:34.81	326.67	2.03	-84.3	-88.8	2.7	3.11e+01	0	47	104	0	60	1048575
2026-01-18 07:36:37.84	326.46	1.85	-83.9	-88.8	2.6	3.11e+01	0	47	104	0	60	1048575
2026-01-18 07:36:40.86	326.25	1.68	-84.3	-88.8	2.5	3.11e+01	0	47	104	0	60	1048575
2026-01-18 07:36:43.88	326.04	1.50	-83.9	-88.8	2.4	3.11e+01	0	47	104	0	60	1048575
2026-01-18 07:36:46.89	325.84	1.33	-84.3	-88.8	2.7	3.11e+01	0	47	104	0	60	1048575
2026-01-18 07:36:49.91	325.64	1.16	-84.3	-88.8	2.7	3.11e+01	0	47	104	0	60	1048575
2026-01-18 07:36:52.93	325.44	0.98	-83.9	-88.8	2.6	3.11e+01	0	47	104	0	60	1048575
2026-01-18 07:36:55.96	325.24	0.81	-84.3	-88.8	2.6	3.11e+01	0	47	104	0	60	1048575
2026-01-18 07:36:58.98	325.05	0.64	-84.3	-88.8	2.4	3.11e+01	0	47	104	0	60	1048575
2026-01-18 07:37:02.00	324.86	0.47	-83.9	-88.8	2.4	3.11e+01	0	47	104	0	60	1048575
2026-01-18 07:37:05.02	324.67	0.30	-84.3	-88.8	2.5	3.11e+01	0	47	104	0	60	1048575
2026-01-18 07:37:08.04	324.49	0.13	-84.3	-88.8	2.5	3.11e+01	0	47	104	0	60	1048575
2026-01-18 07:37:11.07	324.30	-0.04	-83.9	-88.8	2.5	3.11e+01	0	47	104	0	60	1048575

#Closed at: 2026-01-18 07:37:12
#Recorded file [0 MB]: D:/Data/35015_260118_102618.dat