passes_logs/2026/01/18/R3.2S-Naryan-Mar/R3.2S-Naryan-Mar__20260118_030356_NOAA_21_JPSS-2_rec.log

#Pass ID: 20260118_030356_NOAA 21 (JPSS-2)
#Satellite: NOAA 21 (JPSS-2)
#Configuration: NOAA-21
#almurnet v.1.7.20240730
#Start time: 2026-01-18 03:07:45

#Version: 2.2.20231116
#Station: R3.2S-Naryan-Mar
#Location: 53.008057 lon 67.646978 lat
#TLE: 1 54234U 22150A   26017.26823908  .00000042  00000+0  40962-4 0  9992
#TLE: 2 54234  98.7501 318.1405 0000613 274.2947  85.8159 14.19535194165131

#Time	Az	El	Level	Level2	SNR	BER	BlckErr	Temp	State	Recorded	gain1	gain2
2026-01-18 03:07:45.37	28.61	13.76	-84.7	-88.6	4.0	7.64e-01	0	47	0	0	60	1048574
2026-01-18 03:07:48.39	28.14	13.95	-85.2	-88.8	2.7	1.56e+00	0	47	104	0	60	1048568
2026-01-18 03:07:51.41	27.65	14.15	-85.2	-88.8	2.6	1.56e+00	0	47	104	0	60	1048573
2026-01-18 03:07:54.43	27.17	14.34	-85.2	-88.8	2.8	1.56e+00	0	48	104	0	60	1048574
2026-01-18 03:07:57.44	26.67	14.53	-85.2	-88.8	2.6	1.56e+00	0	48	104	0	60	1048573
2026-01-18 03:08:00.46	26.17	14.72	-85.2	-88.8	2.7	1.56e+00	0	48	104	0	60	1048570
2026-01-18 03:08:03.48	25.66	14.91	-84.7	-88.8	2.8	1.56e+00	0	48	104	0	60	1048575
2026-01-18 03:08:06.51	25.15	15.10	-85.2	-88.8	2.8	1.56e+00	0	48	104	0	60	1048575
2026-01-18 03:08:09.53	24.63	15.29	-85.2	-88.8	2.9	1.56e+00	0	48	104	0	60	1048575
2026-01-18 03:08:12.55	24.10	15.48	-85.2	-88.8	2.8	1.56e+00	0	47	104	0	60	1048563
2026-01-18 03:08:15.58	23.56	15.67	-85.2	-88.8	2.7	1.56e+00	0	48	104	0	60	1048574
2026-01-18 03:08:18.60	23.02	15.85	-85.2	-88.8	2.8	1.56e+00	0	47	104	0	60	1048575
2026-01-18 03:08:21.62	22.47	16.04	-85.2	-88.8	2.8	1.56e+00	0	48	104	0	60	1048575
2026-01-18 03:08:24.64	21.92	16.22	-85.2	-88.8	2.7	1.56e+00	0	48	104	0	60	1048573
2026-01-18 03:08:27.66	21.36	16.40	-85.2	-88.8	2.7	1.56e+00	0	48	104	0	60	1048572
2026-01-18 03:08:30.67	20.79	16.58	-85.2	-88.8	2.6	1.56e+00	0	48	104	0	60	1048574
2026-01-18 03:08:33.69	20.21	16.76	-85.2	-88.8	2.9	1.56e+00	0	47	104	0	60	1048575
2026-01-18 03:08:36.72	19.63	16.94	-85.2	-88.8	2.9	1.56e+00	0	47	104	0	60	1048574
2026-01-18 03:08:39.74	19.04	17.11	-85.2	-88.8	2.6	1.56e+00	0	48	104	0	60	1048574
2026-01-18 03:08:42.76	18.44	17.29	-85.2	-88.8	2.7	1.56e+00	0	48	104	0	60	1048575
2026-01-18 03:08:45.78	17.84	17.46	-85.2	-88.8	2.7	1.56e+00	0	47	104	0	60	1048574
2026-01-18 03:08:48.81	17.23	17.63	-85.2	-88.8	2.7	1.56e+00	0	47	104	0	60	1048568
2026-01-18 03:08:51.83	16.61	17.79	-85.2	-88.8	2.8	1.56e+00	0	47	104	0	60	1048571
2026-01-18 03:08:54.85	15.99	17.96	-85.2	-88.8	2.9	1.56e+00	0	48	104	0	60	1048575
2026-01-18 03:08:57.87	15.36	18.12	-83.5	-88.8	2.7	1.56e+00	0	48	104	0	60	1048573
2026-01-18 03:09:00.88	14.72	18.28	-85.2	-88.8	2.8	1.56e+00	0	48	104	0	60	1048569
2026-01-18 03:09:03.90	14.08	18.43	-85.2	-88.8	2.6	1.56e+00	0	48	104	0	60	1048568
2026-01-18 03:09:06.93	13.42	18.59	-85.2	-88.8	2.8	1.56e+00	0	48	104	0	60	1048568
2026-01-18 03:09:09.95	12.76	18.74	-85.2	-88.8	2.8	1.56e+00	0	48	104	0	60	1048571
2026-01-18 03:09:12.97	12.10	18.89	-85.2	-88.8	2.8	1.56e+00	0	48	104	0	60	1048575
2026-01-18 03:09:15.99	11.43	19.03	-85.2	-88.8	2.8	1.56e+00	0	47	104	0	60	1048573
2026-01-18 03:09:19.00	10.75	19.17	-83.9	-88.8	2.7	1.56e+00	0	48	104	0	60	1048575
2026-01-18 03:09:22.03	10.07	19.31	-85.2	-88.8	2.7	1.56e+00	0	48	104	0	60	1048574
2026-01-18 03:09:25.05	9.38	19.44	-85.2	-88.8	2.9	1.56e+00	0	48	104	0	60	1048569
2026-01-18 03:09:28.08	8.68	19.57	-85.2	-88.8	2.5	1.56e+00	0	48	104	0	60	1048573
2026-01-18 03:09:31.09	7.98	19.70	-85.2	-88.8	2.7	1.56e+00	0	48	104	0	60	1048575
2026-01-18 03:09:34.11	7.27	19.82	-85.2	-88.8	2.9	1.56e+00	0	48	104	0	60	1048573
2026-01-18 03:09:37.14	6.56	19.94	-85.2	-88.8	2.8	1.56e+00	0	48	104	0	60	1048570
2026-01-18 03:09:40.16	5.84	20.06	-85.2	-88.8	2.7	1.56e+00	0	48	104	0	60	1048574
2026-01-18 03:09:43.19	5.11	20.17	-85.2	-88.8	2.8	1.56e+00	0	48	104	0	60	1048575
2026-01-18 03:09:46.21	4.38	20.27	-85.2	-88.8	2.9	1.56e+00	0	48	104	0	60	1048574
2026-01-18 03:09:49.23	3.65	20.37	-85.2	-88.8	2.7	1.56e+00	0	48	104	0	60	1048575
2026-01-18 03:09:52.25	2.91	20.47	-85.2	-88.8	2.8	1.56e+00	0	48	104	0	60	1048572
2026-01-18 03:09:55.27	2.17	20.56	-85.2	-88.8	2.6	1.56e+00	0	48	104	0	60	1048575
2026-01-18 03:09:58.28	1.42	20.65	-85.2	-88.8	2.9	1.56e+00	0	48	104	0	60	1048574
2026-01-18 03:10:01.31	0.67	20.73	-85.2	-88.8	2.5	1.56e+00	0	48	104	0	60	1048575
2026-01-18 03:10:04.32	359.91	20.81	-85.2	-88.8	2.6	1.56e+00	0	48	104	0	60	1048574
2026-01-18 03:10:07.34	359.15	20.88	-85.2	-88.8	2.7	1.56e+00	0	48	104	0	60	1048574
2026-01-18 03:10:10.36	358.39	20.95	-85.2	-88.8	2.8	1.56e+00	0	48	104	0	60	1048573
2026-01-18 03:10:13.38	357.62	21.01	-85.2	-88.8	2.7	1.56e+00	0	48	104	0	60	1048569
2026-01-18 03:10:16.41	356.85	21.06	-85.2	-88.8	2.7	1.56e+00	0	48	104	0	60	1048573
2026-01-18 03:10:19.43	356.08	21.11	-85.2	-88.8	2.8	1.56e+00	0	48	104	0	60	1048571
2026-01-18 03:10:22.45	355.31	21.16	-85.2	-88.8	2.7	1.56e+00	0	48	104	0	60	1048575
2026-01-18 03:10:25.48	354.53	21.20	-85.2	-88.8	2.6	1.56e+00	0	48	104	0	60	1048572
2026-01-18 03:10:28.50	353.75	21.23	-85.2	-88.8	2.8	1.56e+00	0	48	104	0	60	1048572
2026-01-18 03:10:31.53	352.97	21.26	-85.2	-88.8	2.7	1.56e+00	0	47	104	0	60	1048571
2026-01-18 03:10:34.55	352.18	21.29	-85.2	-88.8	2.8	1.56e+00	0	48	104	0	60	1048574
2026-01-18 03:10:37.56	351.40	21.30	-85.2	-88.8	2.8	1.56e+00	0	48	104	0	60	1048569
2026-01-18 03:10:40.58	350.62	21.32	-85.2	-88.8	2.6	1.56e+00	0	48	104	0	60	1048573
2026-01-18 03:10:43.60	349.84	21.32	-85.2	-88.8	2.6	1.56e+00	0	48	104	0	60	1048575
2026-01-18 03:10:46.62	349.05	21.32	-85.2	-88.8	2.6	1.56e+00	0	48	104	0	60	1048575
2026-01-18 03:10:49.64	348.27	21.32	-85.2	-88.8	2.7	1.56e+00	0	47	104	0	60	1048575
2026-01-18 03:10:52.67	347.48	21.31	-84.3	-88.8	2.7	1.56e+00	0	48	104	0	60	1048575
2026-01-18 03:10:55.68	346.70	21.29	-85.2	-88.8	2.7	1.56e+00	0	48	104	0	60	1048575
2026-01-18 03:10:58.70	345.92	21.27	-83.9	-88.8	2.6	1.56e+00	0	47	104	0	60	1048575
2026-01-18 03:11:01.72	345.14	21.24	-85.2	-88.8	2.5	1.56e+00	0	47	104	0	60	1048573
2026-01-18 03:11:04.74	344.36	21.20	-85.2	-88.8	2.7	1.56e+00	0	48	104	0	60	1048575
2026-01-18 03:11:07.76	343.58	21.17	-85.2	-88.8	2.5	1.56e+00	0	47	104	0	60	1048575
2026-01-18 03:11:10.77	342.81	21.12	-85.2	-88.8	2.5	1.56e+00	0	48	104	0	60	1048575
2026-01-18 03:11:13.79	342.04	21.07	-85.2	-88.8	2.8	1.56e+00	0	48	104	0	60	1048574
2026-01-18 03:11:16.82	341.27	21.01	-85.2	-88.8	2.6	1.56e+00	0	48	104	0	60	1048573
2026-01-18 03:11:19.83	340.50	20.95	-85.2	-88.8	2.7	1.56e+00	0	48	104	0	60	1048574
2026-01-18 03:11:22.86	339.74	20.89	-85.2	-88.8	2.6	1.56e+00	0	48	104	0	60	1048575
2026-01-18 03:11:25.88	338.98	20.82	-85.2	-88.8	2.9	1.56e+00	0	48	104	0	60	1048574
2026-01-18 03:11:28.90	338.22	20.74	-84.3	-88.8	2.8	1.56e+00	0	48	104	0	60	1048574
2026-01-18 03:11:31.92	337.47	20.66	-85.2	-88.8	2.6	1.56e+00	0	48	104	0	60	1048574
2026-01-18 03:11:34.95	336.72	20.57	-85.2	-88.8	2.6	1.56e+00	0	48	104	0	60	1048572
2026-01-18 03:11:37.97	335.97	20.48	-85.2	-88.8	2.8	1.56e+00	0	48	104	0	60	1048575
2026-01-18 03:11:40.99	335.23	20.38	-85.2	-88.8	2.8	1.56e+00	0	48	104	0	60	1048574
2026-01-18 03:11:44.01	334.50	20.28	-85.2	-88.8	2.8	1.56e+00	0	48	104	0	60	1048570
2026-01-18 03:11:47.02	333.77	20.18	-85.2	-88.8	2.7	1.56e+00	0	48	104	0	60	1048575
2026-01-18 03:11:50.04	333.04	20.07	-85.2	-88.8	2.8	1.56e+00	0	48	104	0	60	1048574
2026-01-18 03:11:53.05	332.33	19.96	-85.2	-88.8	2.6	1.56e+00	0	48	104	0	60	1048568
2026-01-18 03:11:56.07	331.61	19.84	-85.2	-88.8	2.9	1.56e+00	0	48	104	0	60	1048575
2026-01-18 03:11:59.09	330.90	19.72	-85.2	-88.8	2.6	1.56e+00	0	48	104	0	60	1048568
2026-01-18 03:12:02.10	330.20	19.59	-85.2	-88.8	2.6	1.56e+00	0	48	104	0	60	1048575
2026-01-18 03:12:05.12	329.51	19.46	-85.2	-88.8	2.7	1.56e+00	0	48	104	0	60	1048571
2026-01-18 03:12:08.15	328.81	19.33	-85.2	-88.8	2.7	1.56e+00	0	48	104	0	60	1048565
2026-01-18 03:12:11.17	328.13	19.19	-85.2	-88.8	2.8	1.56e+00	0	48	104	0	60	1048572
2026-01-18 03:12:14.19	327.45	19.05	-84.7	-88.8	2.6	1.56e+00	0	48	104	0	60	1048574
2026-01-18 03:12:17.21	326.78	18.90	-85.2	-88.8	2.8	1.56e+00	0	48	104	0	60	1048574
2026-01-18 03:12:20.23	326.11	18.76	-85.2	-88.8	2.4	1.56e+00	0	48	104	0	60	1048575
2026-01-18 03:12:23.25	325.45	18.61	-85.2	-88.8	2.9	1.56e+00	0	48	104	0	60	1048575
2026-01-18 03:12:26.27	324.80	18.45	-85.2	-88.8	2.8	1.56e+00	0	48	104	0	60	1048572
2026-01-18 03:12:29.29	324.15	18.30	-85.2	-88.8	2.6	1.56e+00	0	48	104	0	60	1048566
2026-01-18 03:12:32.32	323.51	18.14	-83.9	-88.8	2.9	1.56e+00	0	48	104	0	60	1048573
2026-01-18 03:12:35.33	322.88	17.98	-85.2	-88.8	2.5	1.56e+00	0	48	104	0	60	1048575
2026-01-18 03:12:38.35	322.26	17.81	-85.2	-88.8	2.7	1.56e+00	0	48	104	0	60	1048571
2026-01-18 03:12:41.38	321.64	17.65	-85.2	-88.8	2.8	1.56e+00	0	48	104	0	60	1048575
2026-01-18 03:12:44.40	321.02	17.48	-85.2	-88.8	2.7	1.56e+00	0	48	104	0	60	1048571
2026-01-18 03:12:47.43	320.42	17.31	-85.2	-88.8	2.6	1.56e+00	0	48	104	0	60	1048571
2026-01-18 03:12:50.45	319.82	17.13	-85.2	-88.8	2.8	1.56e+00	0	48	104	0	60	1048574
2026-01-18 03:12:53.47	319.23	16.96	-84.3	-88.8	2.8	1.56e+00	0	48	104	0	60	1048575
2026-01-18 03:12:56.48	318.65	16.78	-84.7	-88.8	2.7	1.56e+00	0	48	104	0	60	1048573
2026-01-18 03:12:59.49	318.07	16.60	-85.2	-88.8	2.5	1.56e+00	0	47	104	0	60	1048575
2026-01-18 03:13:02.51	317.50	16.42	-85.2	-88.8	2.8	1.56e+00	0	48	104	0	60	1048571
2026-01-18 03:13:05.52	316.94	16.24	-85.2	-88.8	2.8	1.56e+00	0	48	104	0	60	1048572
2026-01-18 03:13:08.53	316.38	16.06	-84.7	-88.8	2.8	1.56e+00	0	48	104	0	60	1048574
2026-01-18 03:13:11.54	315.84	15.88	-85.2	-88.8	2.7	1.56e+00	0	48	104	0	60	1048575
2026-01-18 03:13:14.57	315.29	15.69	-85.2	-88.8	2.8	1.56e+00	0	48	104	0	60	1048574
2026-01-18 03:13:17.59	314.76	15.50	-85.2	-88.8	2.8	1.56e+00	0	48	104	0	60	1048575
2026-01-18 03:13:20.62	314.23	15.31	-85.2	-88.8	2.7	1.56e+00	0	48	104	0	60	1048574
2026-01-18 03:13:23.64	313.70	15.13	-85.2	-88.8	2.6	1.56e+00	0	48	104	0	60	1048575
2026-01-18 03:13:26.64	313.19	14.94	-85.2	-88.8	2.7	1.56e+00	0	48	104	0	60	1048575
2026-01-18 03:13:29.65	312.68	14.75	-85.2	-88.8	2.7	1.56e+00	0	48	104	0	60	1048575
2026-01-18 03:13:32.68	312.18	14.56	-84.3	-88.8	2.7	1.56e+00	0	48	104	0	60	1048575
2026-01-18 03:13:35.70	311.68	14.36	-85.2	-88.8	2.7	1.56e+00	0	48	104	0	60	1048572
2026-01-18 03:13:38.72	311.19	14.17	-85.2	-88.8	2.8	1.56e+00	0	48	104	0	60	1048572
2026-01-18 03:13:41.74	310.71	13.98	-85.2	-88.8	2.8	1.56e+00	0	48	104	0	60	1048572
2026-01-18 03:13:44.76	310.23	13.78	-85.2	-88.8	2.8	1.56e+00	0	48	104	0	60	1048572
2026-01-18 03:13:47.78	309.76	13.59	-85.2	-88.8	2.9	1.56e+00	0	48	104	0	60	1048574
2026-01-18 03:13:50.80	309.30	13.39	-85.2	-88.8	2.8	1.56e+00	0	48	104	0	60	1048574
2026-01-18 03:13:53.82	308.84	13.20	-85.2	-88.8	2.6	1.56e+00	0	48	104	0	60	1048575
2026-01-18 03:13:56.83	308.39	13.01	-85.2	-88.8	2.8	1.56e+00	0	48	104	0	60	1048575
2026-01-18 03:13:59.83	307.95	12.81	-85.2	-88.8	2.6	1.56e+00	0	48	104	0	60	1048568
2026-01-18 03:14:02.85	307.51	12.62	-84.7	-88.8	2.9	1.56e+00	0	47	104	0	60	1048574
2026-01-18 03:14:05.87	307.07	12.42	-85.2	-88.8	2.7	1.56e+00	0	47	104	0	60	1048575
2026-01-18 03:14:08.89	306.64	12.22	-85.2	-88.8	2.6	1.56e+00	0	48	104	0	60	1048574
2026-01-18 03:14:11.91	306.22	12.03	-85.2	-88.8	2.8	1.56e+00	0	48	104	0	60	1048570
2026-01-18 03:14:14.92	305.81	11.83	-85.2	-88.8	2.6	1.56e+00	0	48	104	0	60	1048575
2026-01-18 03:14:17.94	305.39	11.64	-85.2	-88.8	2.7	1.56e+00	0	48	104	0	60	1048575
2026-01-18 03:14:20.95	304.99	11.44	-85.2	-88.8	2.9	1.56e+00	0	48	104	0	60	1048573
2026-01-18 03:14:23.98	304.59	11.25	-85.2	-88.8	2.6	1.56e+00	0	48	104	0	60	1048574
2026-01-18 03:14:27.00	304.19	11.05	-85.2	-88.8	2.7	1.56e+00	0	48	104	0	60	1048569
2026-01-18 03:14:30.02	303.80	10.86	-85.2	-88.8	2.7	1.56e+00	0	48	104	0	60	1048575
2026-01-18 03:14:33.04	303.42	10.66	-85.2	-88.8	2.5	1.56e+00	0	48	104	0	60	1048573
2026-01-18 03:14:36.07	303.04	10.47	-85.2	-88.8	2.8	1.56e+00	0	48	104	0	60	1048574
2026-01-18 03:14:39.08	302.67	10.28	-84.3	-88.8	2.6	1.56e+00	0	48	104	0	60	1048574
2026-01-18 03:14:42.11	302.30	10.08	-85.2	-88.8	2.7	1.56e+00	0	48	104	0	60	1048572
2026-01-18 03:14:45.13	301.93	9.89	-83.5	-88.8	2.4	1.56e+00	0	48	104	0	60	1048575
2026-01-18 03:14:48.15	301.57	9.70	-85.2	-88.8	2.7	1.56e+00	0	48	104	0	60	1048575
2026-01-18 03:14:51.17	301.22	9.50	-85.2	-88.8	2.5	1.56e+00	0	48	104	0	60	1048575
2026-01-18 03:14:54.19	300.87	9.31	-85.2	-88.8	2.6	1.56e+00	0	48	104	0	60	1048575
2026-01-18 03:14:57.22	300.52	9.12	-85.2	-88.8	2.4	1.56e+00	0	48	104	0	60	1048575
2026-01-18 03:15:00.23	300.18	8.93	-85.2	-88.8	2.7	1.56e+00	0	48	104	0	60	1048575
2026-01-18 03:15:03.25	299.85	8.74	-85.2	-88.8	2.6	1.56e+00	0	48	104	0	60	1048574
2026-01-18 03:15:06.27	299.52	8.55	-83.1	-88.8	2.7	1.56e+00	0	48	104	0	60	1048575
2026-01-18 03:15:09.29	299.19	8.36	-85.2	-88.8	2.4	1.56e+00	0	48	104	0	60	1048574
2026-01-18 03:15:12.31	298.87	8.17	-85.2	-88.8	2.8	1.56e+00	0	48	104	0	60	1048575
2026-01-18 03:15:15.33	298.55	7.98	-85.2	-88.8	2.6	1.56e+00	0	48	104	0	60	1048575
2026-01-18 03:15:18.34	298.24	7.79	-85.2	-88.8	2.8	1.56e+00	0	48	104	0	60	1048574
2026-01-18 03:15:21.36	297.93	7.61	-83.1	-88.8	2.5	1.56e+00	0	48	104	0	60	1048573
2026-01-18 03:15:24.38	297.62	7.42	-85.2	-88.8	2.8	1.56e+00	0	48	104	0	60	1048571
2026-01-18 03:15:27.40	297.32	7.23	-85.2	-88.8	2.8	1.56e+00	0	48	104	0	60	1048569
2026-01-18 03:15:30.42	297.02	7.05	-85.2	-88.8	2.7	1.56e+00	0	48	104	0	60	1048575
2026-01-18 03:15:33.45	296.73	6.86	-83.1	-88.8	2.6	1.56e+00	0	48	104	0	60	1048575
2026-01-18 03:15:36.46	296.44	6.68	-85.2	-88.8	2.7	1.56e+00	0	48	104	0	60	1048574
2026-01-18 03:15:39.47	296.15	6.49	-85.2	-88.8	2.5	1.56e+00	0	48	104	0	60	1048575
2026-01-18 03:15:42.50	295.87	6.31	-85.2	-88.8	2.6	1.56e+00	0	48	104	0	60	1048573
2026-01-18 03:15:45.52	295.59	6.13	-85.2	-88.8	2.6	1.56e+00	0	48	104	0	60	1048575
2026-01-18 03:15:48.54	295.31	5.95	-83.9	-88.8	2.8	1.56e+00	0	48	104	0	60	1048566
2026-01-18 03:15:51.56	295.04	5.76	-85.2	-88.8	2.6	1.56e+00	0	48	104	0	60	1048568
2026-01-18 03:15:54.58	294.77	5.58	-85.2	-88.8	2.9	1.56e+00	0	48	104	0	60	1048575
2026-01-18 03:15:57.60	294.51	5.40	-85.2	-88.8	2.8	1.56e+00	0	48	104	0	60	1048575
2026-01-18 03:16:00.61	294.25	5.22	-82.2	-88.8	2.7	1.56e+00	0	48	104	0	60	1048575
2026-01-18 03:16:03.63	293.99	5.05	-85.2	-88.8	2.6	1.56e+00	0	48	104	0	60	1048570
2026-01-18 03:16:06.66	293.73	4.87	-85.2	-88.8	2.8	1.56e+00	0	48	104	0	60	1048574
2026-01-18 03:16:09.68	293.48	4.69	-85.2	-88.8	2.8	1.56e+00	0	48	104	0	60	1048575
2026-01-18 03:16:12.70	293.23	4.51	-83.1	-88.8	2.8	1.56e+00	0	48	104	0	60	1048575
2026-01-18 03:16:15.72	292.99	4.34	-85.2	-88.8	2.9	1.56e+00	0	48	104	0	60	1048573
2026-01-18 03:16:18.74	292.74	4.16	-85.2	-88.8	2.6	1.56e+00	0	48	104	0	60	1048573
2026-01-18 03:16:21.76	292.50	3.99	-85.2	-88.8	2.8	1.56e+00	0	48	104	0	60	1048575
2026-01-18 03:16:24.78	292.27	3.81	-85.2	-88.8	2.9	1.56e+00	0	48	104	0	60	1048575
2026-01-18 03:16:27.79	292.03	3.64	-85.2	-88.8	2.6	1.56e+00	0	48	104	0	60	1048575
2026-01-18 03:16:30.81	291.80	3.47	-82.2	-88.8	2.6	1.56e+00	0	48	104	0	60	1048574
2026-01-18 03:16:33.83	291.57	3.29	-85.2	-88.8	2.7	1.56e+00	0	48	104	0	60	1048575
2026-01-18 03:16:36.85	291.35	3.12	-85.2	-88.8	2.5	1.56e+00	0	48	104	0	60	1048572
2026-01-18 03:16:39.88	291.13	2.95	-85.2	-88.8	2.8	1.56e+00	0	48	104	0	60	1048571
2026-01-18 03:16:42.90	290.91	2.78	-82.8	-88.8	2.7	1.56e+00	0	48	104	0	60	1048574
2026-01-18 03:16:45.92	290.69	2.61	-82.8	-88.8	2.9	1.56e+00	0	48	104	0	60	1048572
2026-01-18 03:16:48.93	290.47	2.44	-85.2	-88.8	2.8	1.56e+00	0	48	104	0	60	1048575
2026-01-18 03:16:51.96	290.26	2.27	-82.8	-88.8	2.7	1.56e+00	0	48	104	0	60	1048575
2026-01-18 03:16:54.98	290.05	2.11	-85.2	-88.8	2.7	1.56e+00	0	48	104	0	60	1048575
2026-01-18 03:16:58.00	289.84	1.94	-85.2	-88.8	2.7	1.56e+00	0	48	104	0	60	1048573
2026-01-18 03:17:01.01	289.64	1.77	-85.2	-88.8	2.7	1.56e+00	0	48	104	0	60	1048573
2026-01-18 03:17:04.04	289.44	1.61	-85.2	-88.8	2.5	1.56e+00	0	48	104	0	60	1048575
2026-01-18 03:17:07.06	289.24	1.44	-83.1	-88.8	2.6	1.56e+00	0	48	104	0	60	1048575
2026-01-18 03:17:10.09	289.04	1.28	-85.2	-88.8	2.7	1.56e+00	0	48	104	0	60	1048575
2026-01-18 03:17:13.11	288.84	1.11	-83.1	-88.8	2.6	1.56e+00	0	48	104	0	60	1048574
2026-01-18 03:17:16.13	288.65	0.95	-85.2	-88.8	2.7	1.56e+00	0	48	104	0	60	1048575
2026-01-18 03:17:19.14	288.46	0.79	-84.7	-88.8	2.8	1.56e+00	0	48	104	0	60	1048572
2026-01-18 03:17:22.16	288.27	0.62	-85.2	-88.8	2.8	1.56e+00	0	48	104	0	60	1048574
2026-01-18 03:17:25.18	288.08	0.46	-85.2	-88.8	2.8	1.56e+00	0	48	104	0	60	1048570
2026-01-18 03:17:28.20	287.90	0.30	-85.2	-88.8	2.7	1.56e+00	0	48	104	0	60	1048571
2026-01-18 03:17:31.22	287.72	0.14	-85.2	-88.8	2.5	1.56e+00	0	48	104	0	60	1048565
2026-01-18 03:17:34.24	287.54	-0.02	-85.2	-88.8	2.7	1.56e+00	0	48	104	0	60	1048572

#Closed at: 2026-01-18 03:17:35
#Recorded file [0 MB]: D:/Data/35015_260118_060745.dat