passes_logs/2026/01/18/R3.2S-Naryan-Mar/R3.2S-Naryan-Mar__20260118_090049_AQUA_rec.log

#Pass ID: 20260118_090049_AQUA
#Satellite: AQUA
#Configuration: AQUA
#almurnet v.1.7.20240730
#Start time: 2026-01-18 09:06:42

#Version: 2.2.20231116
#Station: R3.2S-Naryan-Mar
#Location: 53.008057 lon 67.646978 lat
#TLE: 1 27424U 02022A   26017.29152041  .00000842  00000+0  17841-3 0  9992
#TLE: 2 27424  98.4085 343.7574 0002011  75.4099  30.6811 14.61825797261228

#Time	Az	El	Level	Level2	SNR	BER	BlckErr	Temp	State	Recorded	gain1	gain2
2026-01-18 09:06:42.29	82.53	40.36	-85.2	-88.6	3.1	1.56e+00	0	47	0	0	60	1048575
2026-01-18 09:06:44.29	81.56	40.68	-83.9	-88.8	2.5	3.12e+01	0	47	104	0	60	1048568
2026-01-18 09:06:46.31	80.56	41.00	-84.3	-88.8	2.6	3.12e+01	0	47	104	0	60	1048574
2026-01-18 09:06:48.32	79.54	41.32	-83.9	-88.8	2.7	3.12e+01	0	47	104	0	60	1048574
2026-01-18 09:06:50.34	78.50	41.62	-84.3	-88.8	2.6	3.12e+01	0	47	104	0	60	1048574
2026-01-18 09:06:52.36	77.44	41.92	-84.3	-88.8	2.9	3.12e+01	0	47	104	0	60	1048574
2026-01-18 09:06:54.37	76.37	42.21	-84.3	-88.8	2.6	3.12e+01	0	47	104	0	60	1048574
2026-01-18 09:06:56.39	75.27	42.49	-84.3	-88.8	2.5	3.12e+01	0	47	104	0	60	1048574
2026-01-18 09:06:58.41	74.15	42.77	-84.3	-88.8	2.5	3.12e+01	0	47	104	0	60	1048574
2026-01-18 09:07:00.41	73.02	43.02	-84.3	-88.8	2.5	3.12e+01	0	47	104	0	60	1048574
2026-01-18 09:07:02.42	71.87	43.27	-83.5	-88.8	2.6	3.12e+01	0	47	104	0	60	1048574
2026-01-18 09:07:04.44	70.69	43.51	-84.3	-88.8	2.8	3.12e+01	0	47	104	0	60	1048574
2026-01-18 09:07:06.45	69.51	43.74	-84.3	-88.8	2.5	3.12e+01	0	47	104	0	60	1048574
2026-01-18 09:07:08.47	68.30	43.95	-83.9	-88.8	2.4	3.12e+01	0	47	104	0	60	1048574
2026-01-18 09:07:10.49	67.07	44.15	-84.3	-88.8	2.5	3.12e+01	0	47	104	0	60	1048574
2026-01-18 09:07:12.51	65.83	44.34	-83.9	-88.8	2.6	3.12e+01	0	47	104	0	60	1048574
2026-01-18 09:07:14.52	64.58	44.51	-83.9	-88.8	2.6	3.12e+01	0	47	104	0	60	1048574
2026-01-18 09:07:16.52	63.33	44.67	-83.9	-88.8	2.6	3.12e+01	0	47	104	0	60	1048574
2026-01-18 09:07:18.54	62.04	44.82	-84.3	-88.8	2.8	3.12e+01	0	47	104	0	60	1048574
2026-01-18 09:07:20.55	60.76	44.94	-84.3	-88.8	2.6	3.12e+01	0	47	104	0	60	1048574
2026-01-18 09:07:22.57	59.46	45.06	-84.3	-88.8	2.8	3.12e+01	0	47	104	0	60	1048574
2026-01-18 09:07:24.58	58.15	45.15	-84.3	-88.8	2.5	3.12e+01	0	47	104	0	60	1048574
2026-01-18 09:07:26.60	56.83	45.23	-83.5	-88.8	2.6	3.12e+01	0	47	104	0	60	1048574
2026-01-18 09:07:28.61	55.52	45.30	-84.3	-88.8	2.5	3.12e+01	0	47	104	0	60	1048574
2026-01-18 09:07:30.62	54.19	45.35	-84.3	-88.8	2.6	3.12e+01	0	47	104	0	60	1048574
2026-01-18 09:07:32.64	52.86	45.38	-84.3	-88.8	2.3	3.12e+01	0	47	104	0	60	1048574
2026-01-18 09:07:34.65	51.53	45.39	-83.9	-88.8	2.5	3.12e+01	0	47	104	0	60	1048574
2026-01-18 09:07:36.66	50.21	45.39	-83.9	-88.8	2.6	3.12e+01	0	47	104	0	60	1048574
2026-01-18 09:07:38.68	48.87	45.37	-84.3	-88.8	2.5	3.12e+01	0	47	104	0	60	1048574
2026-01-18 09:07:40.69	47.55	45.33	-83.9	-88.8	2.6	3.12e+01	0	47	104	0	60	1048574
2026-01-18 09:07:42.71	46.22	45.28	-84.3	-88.8	2.7	3.12e+01	0	47	104	0	60	1048574
2026-01-18 09:07:44.72	44.91	45.21	-83.9	-88.8	2.6	3.12e+01	0	47	104	0	60	1048574
2026-01-18 09:07:46.74	43.59	45.12	-84.3	-88.8	2.6	3.12e+01	0	47	104	0	60	1048574
2026-01-18 09:07:48.75	42.29	45.02	-84.3	-88.8	2.3	3.12e+01	0	47	104	0	60	1048574
2026-01-18 09:07:50.76	41.00	44.90	-83.9	-88.8	2.4	3.12e+01	0	47	104	0	60	1048574
2026-01-18 09:07:52.78	39.71	44.76	-83.9	-88.8	2.6	3.12e+01	0	47	104	0	60	1048574
2026-01-18 09:07:54.79	38.45	44.62	-83.9	-88.8	2.7	3.12e+01	0	47	104	0	60	1048574
2026-01-18 09:07:56.81	37.18	44.45	-84.3	-88.8	2.5	3.12e+01	0	47	104	0	60	1048574
2026-01-18 09:07:58.83	35.93	44.27	-84.3	-88.8	2.6	3.12e+01	0	47	104	0	60	1048574
2026-01-18 09:08:00.85	34.70	44.08	-84.3	-88.8	2.4	3.12e+01	0	47	104	0	60	1048574
2026-01-18 09:08:02.86	33.49	43.87	-84.3	-88.8	2.7	3.12e+01	0	47	104	0	60	1048574
2026-01-18 09:08:04.87	32.29	43.66	-83.9	-88.8	2.5	3.12e+01	0	47	104	0	60	1048574
2026-01-18 09:08:06.89	31.11	43.43	-84.3	-88.8	2.7	3.12e+01	0	47	104	0	60	1048574
2026-01-18 09:08:08.90	29.95	43.18	-83.9	-88.8	2.6	3.12e+01	0	47	104	0	60	1048574
2026-01-18 09:08:10.91	28.80	42.93	-84.3	-88.8	2.7	3.12e+01	0	47	104	0	60	1048574
2026-01-18 09:08:12.92	27.68	42.67	-84.3	-88.8	2.5	3.12e+01	0	47	104	0	60	1048574
2026-01-18 09:08:14.94	26.57	42.39	-84.3	-88.8	2.6	3.12e+01	0	47	104	0	60	1048574
2026-01-18 09:08:16.96	25.48	42.11	-84.3	-88.8	2.5	3.12e+01	0	47	104	0	60	1048574
2026-01-18 09:08:18.97	24.41	41.82	-83.9	-88.8	2.5	3.12e+01	0	47	104	0	60	1048574
2026-01-18 09:08:20.98	23.36	41.52	-84.3	-88.8	2.4	3.12e+01	0	47	104	0	60	1048574
2026-01-18 09:08:22.99	22.34	41.21	-83.9	-88.8	2.6	3.12e+01	0	47	104	0	60	1048574
2026-01-18 09:08:25.00	21.33	40.89	-84.3	-88.8	2.8	3.12e+01	0	47	104	0	60	1048574
2026-01-18 09:08:27.02	20.34	40.57	-84.3	-88.8	2.7	3.12e+01	0	47	104	0	60	1048574
2026-01-18 09:08:29.04	19.37	40.24	-83.9	-88.8	2.5	3.12e+01	0	47	104	0	60	1048574
2026-01-18 09:08:31.05	18.43	39.91	-84.3	-88.8	2.4	3.12e+01	0	47	104	0	60	1048574
2026-01-18 09:08:33.07	17.50	39.56	-83.9	-88.8	2.7	3.12e+01	0	47	104	0	60	1048574
2026-01-18 09:08:35.08	16.59	39.22	-83.9	-88.8	2.4	3.12e+01	0	47	104	0	60	1048574
2026-01-18 09:08:37.10	15.70	38.87	-83.9	-88.8	2.5	3.12e+01	0	48	104	0	60	1048574
2026-01-18 09:08:39.12	14.83	38.52	-84.3	-88.8	2.7	3.12e+01	0	47	104	0	60	1048574
2026-01-18 09:08:41.13	13.98	38.16	-84.3	-88.8	2.5	3.12e+01	0	47	104	0	60	1048574
2026-01-18 09:08:43.15	13.15	37.80	-83.9	-88.8	2.7	3.12e+01	0	47	104	0	60	1048574
2026-01-18 09:08:45.16	12.34	37.44	-84.3	-88.8	2.8	3.12e+01	0	47	104	0	60	1048574
2026-01-18 09:08:47.18	11.54	37.08	-83.9	-88.8	2.5	3.12e+01	0	47	104	0	60	1048574
2026-01-18 09:08:49.20	10.76	36.71	-84.3	-88.8	2.6	3.12e+01	0	47	104	0	60	1048574
2026-01-18 09:08:51.21	10.01	36.35	-84.3	-88.8	2.4	3.12e+01	0	47	104	0	60	1048574
2026-01-18 09:08:53.23	9.27	35.98	-84.3	-88.8	2.4	3.12e+01	0	47	104	0	60	1048574
2026-01-18 09:08:55.24	8.55	35.61	-83.9	-88.8	2.6	3.12e+01	0	47	104	0	60	1048574
2026-01-18 09:08:57.25	7.84	35.24	-83.9	-88.8	2.4	3.12e+01	0	47	104	0	60	1048574
2026-01-18 09:08:59.26	7.15	34.88	-84.3	-88.8	2.7	3.12e+01	0	47	104	0	60	1048574
2026-01-18 09:09:01.26	6.48	34.51	-84.3	-88.8	2.5	3.12e+01	0	47	104	0	60	1048574
2026-01-18 09:09:03.28	5.82	34.14	-84.3	-88.8	2.4	3.12e+01	0	47	104	0	60	1048574
2026-01-18 09:09:05.29	5.18	33.77	-84.3	-88.8	2.6	3.12e+01	0	47	104	0	60	1048574
2026-01-18 09:09:07.31	4.55	33.40	-83.9	-88.8	2.5	3.12e+01	0	47	104	0	60	1048574
2026-01-18 09:09:09.32	3.94	33.04	-83.9	-88.8	2.4	3.12e+01	0	47	104	0	60	1048574
2026-01-18 09:09:11.34	3.34	32.67	-83.9	-88.8	2.5	3.12e+01	0	47	104	0	60	1048574
2026-01-18 09:09:13.35	2.75	32.31	-84.3	-88.8	2.7	3.12e+01	0	47	104	0	60	1048574
2026-01-18 09:09:15.36	2.18	31.95	-83.9	-88.8	2.6	3.12e+01	0	47	104	0	60	1048574
2026-01-18 09:09:17.38	1.62	31.59	-84.3	-88.8	2.8	3.12e+01	0	47	104	0	60	1048574
2026-01-18 09:09:19.40	1.07	31.23	-84.3	-88.8	2.8	3.12e+01	0	47	104	0	60	1048574
2026-01-18 09:09:21.41	0.54	30.87	-84.3	-88.8	2.6	3.12e+01	0	47	104	0	60	1048574
2026-01-18 09:09:23.43	0.02	30.51	-84.3	-88.8	2.7	3.12e+01	0	47	104	0	60	1048574
2026-01-18 09:09:25.44	359.51	30.16	-83.9	-88.8	2.8	3.12e+01	0	47	104	0	60	1048574
2026-01-18 09:09:27.46	359.01	29.81	-83.9	-88.8	2.4	3.12e+01	0	47	104	0	60	1048574
2026-01-18 09:09:29.47	358.52	29.46	-84.3	-88.8	2.6	3.12e+01	0	47	104	0	60	1048574
2026-01-18 09:09:31.48	358.05	29.12	-84.3	-88.8	2.6	3.12e+01	0	47	104	0	60	1048574
2026-01-18 09:09:33.49	357.58	28.77	-84.3	-88.8	2.6	3.12e+01	0	47	104	0	60	1048574
2026-01-18 09:09:35.51	357.12	28.43	-83.9	-88.8	2.7	3.12e+01	0	47	104	0	60	1048574
2026-01-18 09:09:37.52	356.68	28.09	-84.3	-88.8	2.6	3.12e+01	0	47	104	0	60	1048574
2026-01-18 09:09:39.54	356.24	27.76	-83.9	-88.8	2.6	3.12e+01	0	47	104	0	60	1048574
2026-01-18 09:09:41.55	355.82	27.42	-84.3	-88.8	2.4	3.12e+01	0	47	104	0	60	1048574
2026-01-18 09:09:43.57	355.40	27.09	-84.3	-88.8	2.6	3.12e+01	0	47	104	0	60	1048574
2026-01-18 09:09:45.58	354.99	26.76	-83.9	-88.8	2.6	3.12e+01	0	47	104	0	60	1048574
2026-01-18 09:09:47.60	354.59	26.44	-84.3	-88.8	2.8	3.12e+01	0	47	104	0	60	1048574
2026-01-18 09:09:49.61	354.20	26.11	-83.9	-88.8	2.7	3.12e+01	0	47	104	0	60	1048574
2026-01-18 09:09:51.63	353.82	25.79	-84.3	-88.8	2.5	3.12e+01	0	47	104	0	60	1048574
2026-01-18 09:09:53.65	353.44	25.48	-83.9	-88.8	2.6	3.12e+01	0	47	104	0	60	1048574
2026-01-18 09:09:55.66	353.08	25.16	-84.3	-88.8	2.6	3.12e+01	0	47	104	0	60	1048574
2026-01-18 09:09:57.67	352.72	24.85	-84.3	-88.8	2.5	3.12e+01	0	47	104	0	60	1048574
2026-01-18 09:09:59.69	352.37	24.54	-84.3	-88.8	2.3	3.12e+01	0	47	104	0	60	1048574
2026-01-18 09:10:01.70	352.03	24.23	-84.3	-88.8	2.6	3.12e+01	0	47	104	0	60	1048571
2026-01-18 09:10:03.71	351.69	23.93	-83.9	-88.8	2.6	3.12e+01	0	47	104	0	60	1048573
2026-01-18 09:10:05.71	351.36	23.63	-84.3	-88.8	2.7	3.12e+01	0	47	104	0	60	1048573
2026-01-18 09:10:07.73	351.04	23.34	-83.9	-88.8	2.5	3.12e+01	0	47	104	0	60	1048573
2026-01-18 09:10:09.74	350.72	23.04	-84.3	-88.8	2.5	3.12e+01	0	47	104	0	60	1048573
2026-01-18 09:10:11.76	350.41	22.75	-84.3	-88.8	2.4	3.12e+01	0	47	104	0	60	1048573
2026-01-18 09:10:13.78	350.10	22.46	-83.9	-88.8	2.5	3.12e+01	0	47	104	0	60	1048573
2026-01-18 09:10:15.79	349.81	22.17	-84.3	-88.8	2.5	3.12e+01	0	47	104	0	60	1048573
2026-01-18 09:10:17.81	349.51	21.89	-83.5	-88.8	2.5	3.12e+01	0	47	104	0	60	1048573
2026-01-18 09:10:19.82	349.23	21.60	-84.3	-88.8	2.6	3.12e+01	0	47	104	0	60	1048573
2026-01-18 09:10:21.83	348.94	21.33	-83.9	-88.8	2.6	3.12e+01	0	47	104	0	60	1048573
2026-01-18 09:10:23.85	348.67	21.05	-84.3	-88.8	2.7	3.12e+01	0	47	104	0	60	1048573
2026-01-18 09:10:25.86	348.40	20.78	-84.3	-88.8	2.7	3.12e+01	0	47	104	0	60	1048573
2026-01-18 09:10:27.88	348.13	20.50	-83.9	-88.8	2.7	3.12e+01	0	47	104	0	60	1048573
2026-01-18 09:10:29.89	347.87	20.24	-84.3	-88.8	2.7	3.12e+01	0	47	104	0	60	1048573
2026-01-18 09:10:31.91	347.61	19.97	-83.9	-88.8	2.5	3.12e+01	0	47	104	0	60	1048575
2026-01-18 09:10:33.92	347.36	19.71	-84.3	-88.8	2.4	3.12e+01	0	47	104	0	60	1048575
2026-01-18 09:10:35.93	347.12	19.45	-83.9	-88.8	2.6	3.12e+01	0	47	104	0	60	1048575
2026-01-18 09:10:37.94	346.88	19.19	-84.3	-88.8	2.5	3.12e+01	0	47	104	0	60	1048575
2026-01-18 09:10:39.96	346.64	18.93	-84.3	-88.8	2.7	3.12e+01	0	47	104	0	60	1048575
2026-01-18 09:10:41.97	346.41	18.68	-83.9	-88.8	2.3	3.12e+01	0	47	104	0	60	1048575
2026-01-18 09:10:43.99	346.18	18.43	-84.3	-88.8	2.4	3.12e+01	0	47	104	0	60	1048575
2026-01-18 09:10:46.00	345.95	18.18	-83.5	-88.8	2.5	3.12e+01	0	47	104	0	60	1048575
2026-01-18 09:10:48.02	345.73	17.93	-84.3	-88.8	2.3	3.12e+01	0	47	104	0	60	1048575
2026-01-18 09:10:50.04	345.51	17.68	-84.3	-88.8	2.5	3.12e+01	0	47	104	0	60	1048575
2026-01-18 09:10:52.04	345.30	17.44	-84.3	-88.8	2.5	3.12e+01	0	47	104	0	60	1048575
2026-01-18 09:10:54.05	345.09	17.20	-84.3	-88.8	2.6	3.12e+01	0	47	104	0	60	1048575
2026-01-18 09:10:56.06	344.89	16.97	-84.3	-88.8	2.7	3.12e+01	0	47	104	0	60	1048575
2026-01-18 09:10:58.08	344.68	16.73	-84.3	-88.8	2.8	3.12e+01	0	47	104	0	60	1048575
2026-01-18 09:11:00.09	344.48	16.50	-83.9	-88.8	2.7	3.12e+01	0	47	104	0	60	1048575
2026-01-18 09:11:02.11	344.29	16.26	-84.3	-88.8	2.4	3.12e+01	0	47	104	0	60	1048575
2026-01-18 09:11:04.12	344.10	16.04	-84.3	-88.8	2.5	3.12e+01	0	47	104	0	60	1048575
2026-01-18 09:11:06.13	343.91	15.81	-84.3	-88.8	2.3	3.12e+01	0	47	104	0	60	1048575
2026-01-18 09:11:08.15	343.72	15.58	-83.9	-88.8	2.5	3.12e+01	0	47	104	0	60	1048575
2026-01-18 09:11:10.16	343.54	15.36	-83.5	-88.8	2.7	3.12e+01	0	47	104	0	60	1048575
2026-01-18 09:11:12.18	343.36	15.14	-84.3	-88.8	2.6	3.12e+01	0	47	104	0	60	1048575
2026-01-18 09:11:14.20	343.18	14.92	-84.3	-88.8	2.6	3.12e+01	0	47	104	0	60	1048575
2026-01-18 09:11:16.21	343.01	14.70	-84.3	-88.8	2.5	3.12e+01	0	47	104	0	60	1048575
2026-01-18 09:11:18.23	342.83	14.48	-84.3	-88.8	2.6	3.12e+01	0	47	104	0	60	1048575
2026-01-18 09:11:20.24	342.67	14.27	-84.3	-88.8	2.6	3.12e+01	0	47	104	0	60	1048575
2026-01-18 09:11:22.26	342.50	14.06	-84.3	-88.8	2.7	3.12e+01	0	47	104	0	60	1048575
2026-01-18 09:11:24.28	342.34	13.85	-83.9	-88.8	2.5	3.12e+01	0	47	104	0	60	1048575
2026-01-18 09:11:26.29	342.17	13.64	-83.9	-88.8	2.5	3.12e+01	0	47	104	0	60	1048575
2026-01-18 09:11:28.31	342.02	13.43	-83.9	-88.8	2.5	3.12e+01	0	47	104	0	60	1048575
2026-01-18 09:11:30.32	341.86	13.23	-84.3	-88.8	2.6	3.12e+01	0	47	104	0	60	1048575
2026-01-18 09:11:32.34	341.71	13.02	-84.3	-88.8	2.4	3.12e+01	0	47	104	0	60	1048575
2026-01-18 09:11:34.34	341.56	12.82	-84.3	-88.8	2.3	3.12e+01	0	47	104	0	60	1048575
2026-01-18 09:11:36.36	341.41	12.62	-84.3	-88.8	2.7	3.12e+01	0	47	104	0	60	1048575
2026-01-18 09:11:38.37	341.26	12.42	-83.9	-88.8	2.4	3.12e+01	0	47	104	0	60	1048575
2026-01-18 09:11:40.39	341.12	12.23	-84.3	-88.8	2.5	3.12e+01	0	47	104	0	60	1048575
2026-01-18 09:11:42.41	340.97	12.03	-84.3	-88.8	2.4	3.12e+01	0	47	104	0	60	1048575
2026-01-18 09:11:44.42	340.83	11.84	-83.9	-88.8	2.9	3.12e+01	0	47	104	0	60	1048575
2026-01-18 09:11:46.42	340.70	11.65	-84.3	-88.8	2.8	3.12e+01	0	47	104	0	60	1048575
2026-01-18 09:11:48.43	340.56	11.46	-83.9	-88.8	2.6	3.12e+01	0	47	104	0	60	1048575
2026-01-18 09:11:50.44	340.43	11.27	-84.3	-88.8	2.6	3.12e+01	0	47	104	0	60	1048575
2026-01-18 09:11:52.45	340.30	11.08	-83.9	-88.8	2.7	3.12e+01	0	47	104	0	60	1048575
2026-01-18 09:11:54.47	340.17	10.89	-84.3	-88.8	2.6	3.12e+01	0	47	104	0	60	1048575
2026-01-18 09:11:56.48	340.04	10.71	-84.3	-88.8	2.6	3.12e+01	0	47	104	0	60	1048575
2026-01-18 09:11:58.50	339.91	10.53	-83.9	-88.8	2.6	3.12e+01	0	47	104	0	60	1048575
2026-01-18 09:12:00.52	339.79	10.34	-84.3	-88.8	2.6	3.12e+01	0	47	104	0	60	1048575
2026-01-18 09:12:02.53	339.66	10.16	-83.9	-88.8	2.6	3.12e+01	0	47	104	0	60	1048575
2026-01-18 09:12:04.53	339.54	9.99	-84.3	-88.8	2.5	3.12e+01	0	47	104	0	60	1048575
2026-01-18 09:12:06.55	339.42	9.81	-83.9	-88.8	2.5	3.12e+01	0	47	104	0	60	1048575
2026-01-18 09:12:08.57	339.31	9.63	-83.9	-88.8	2.3	3.12e+01	0	47	104	0	60	1048575
2026-01-18 09:12:10.58	339.19	9.45	-84.3	-88.8	2.5	3.12e+01	0	47	104	0	60	1048575
2026-01-18 09:12:12.60	339.08	9.28	-83.9	-88.8	2.5	3.12e+01	0	47	104	0	60	1048575
2026-01-18 09:12:14.61	338.96	9.11	-84.3	-88.8	2.6	3.12e+01	0	47	104	0	60	1048575
2026-01-18 09:12:16.62	338.85	8.94	-83.5	-88.8	2.6	3.12e+01	0	47	104	0	60	1048575
2026-01-18 09:12:18.64	338.74	8.76	-84.3	-88.8	2.8	3.12e+01	0	47	104	0	60	1048575
2026-01-18 09:12:20.65	338.63	8.59	-83.9	-88.8	2.5	3.12e+01	0	47	104	0	60	1048575
2026-01-18 09:12:22.66	338.53	8.43	-84.3	-88.8	2.6	3.12e+01	0	47	104	0	60	1048575
2026-01-18 09:12:24.67	338.42	8.26	-84.3	-88.8	2.6	3.12e+01	0	47	104	0	60	1048575
2026-01-18 09:12:26.69	338.32	8.09	-83.9	-88.8	2.6	3.12e+01	0	47	104	0	60	1048575
2026-01-18 09:12:28.70	338.22	7.93	-84.3	-88.8	2.5	3.12e+01	0	47	104	0	60	1048575
2026-01-18 09:12:30.72	338.11	7.77	-83.9	-88.8	2.6	3.12e+01	0	47	104	0	60	1048575
2026-01-18 09:12:32.72	338.01	7.60	-84.3	-88.8	2.6	3.12e+01	0	47	104	0	60	1048575
2026-01-18 09:12:34.73	337.92	7.44	-83.9	-88.8	2.6	3.12e+01	0	47	104	0	60	1048575
2026-01-18 09:12:36.75	337.82	7.28	-83.9	-88.8	2.6	3.12e+01	0	47	104	0	60	1048575
2026-01-18 09:12:38.76	337.72	7.12	-84.3	-88.8	2.6	3.12e+01	0	47	104	0	60	1048575
2026-01-18 09:12:40.77	337.63	6.96	-83.9	-88.8	2.8	3.12e+01	0	47	104	0	60	1048575
2026-01-18 09:12:42.79	337.53	6.81	-84.3	-88.8	2.5	3.12e+01	0	47	104	0	60	1048575
2026-01-18 09:12:44.81	337.44	6.65	-83.9	-88.8	2.4	3.12e+01	0	47	104	0	60	1048575
2026-01-18 09:12:46.82	337.35	6.49	-84.3	-88.8	2.3	3.12e+01	0	47	104	0	60	1048575
2026-01-18 09:12:48.83	337.26	6.34	-84.3	-88.8	2.4	3.12e+01	0	47	104	0	60	1048575
2026-01-18 09:12:50.85	337.17	6.19	-84.3	-88.8	2.6	3.12e+01	0	47	104	0	60	1048575
2026-01-18 09:12:52.86	337.08	6.03	-84.3	-88.8	2.6	3.12e+01	0	47	104	0	60	1048575
2026-01-18 09:12:54.88	336.99	5.88	-83.9	-88.8	2.2	3.12e+01	0	47	104	0	60	1048575
2026-01-18 09:12:56.89	336.91	5.73	-84.3	-88.8	2.5	3.12e+01	0	47	104	0	60	1048575
2026-01-18 09:12:58.90	336.82	5.58	-83.9	-88.8	2.8	3.12e+01	0	47	104	0	60	1048575
2026-01-18 09:13:00.91	336.74	5.43	-84.3	-88.8	2.6	3.12e+01	0	47	104	0	60	1048575
2026-01-18 09:13:02.92	336.66	5.28	-84.3	-88.8	2.5	3.12e+01	0	47	104	0	60	1048575
2026-01-18 09:13:04.94	336.58	5.14	-83.9	-88.8	2.6	3.12e+01	0	47	104	0	60	1048575
2026-01-18 09:13:06.95	336.49	4.99	-84.3	-88.8	2.5	3.12e+01	0	47	104	0	60	1048575
2026-01-18 09:13:08.96	336.42	4.85	-83.9	-88.8	2.6	3.12e+01	0	47	104	0	60	1048575
2026-01-18 09:13:10.97	336.34	4.70	-84.3	-88.8	2.7	3.12e+01	0	47	104	0	60	1048575
2026-01-18 09:13:12.99	336.26	4.56	-84.3	-88.8	2.7	3.12e+01	0	47	104	0	60	1048575
2026-01-18 09:13:15.01	336.18	4.41	-84.3	-88.8	2.7	3.12e+01	0	47	104	0	60	1048575
2026-01-18 09:13:17.02	336.11	4.27	-84.3	-88.8	2.8	3.12e+01	0	47	104	0	60	1048575
2026-01-18 09:13:19.04	336.03	4.13	-83.9	-88.8	2.3	3.12e+01	0	47	104	0	60	1048575
2026-01-18 09:13:21.05	335.96	3.99	-83.9	-88.8	2.6	3.12e+01	0	47	104	0	60	1048575
2026-01-18 09:13:23.07	335.88	3.85	-83.9	-88.8	2.5	3.12e+01	0	47	104	0	60	1048575
2026-01-18 09:13:25.07	335.81	3.71	-84.3	-88.8	2.7	3.12e+01	0	47	104	0	60	1048575
2026-01-18 09:13:27.08	335.74	3.57	-84.3	-88.8	2.5	3.12e+01	0	47	104	0	60	1048575
2026-01-18 09:13:29.10	335.67	3.43	-84.3	-88.8	2.5	3.12e+01	0	47	104	0	60	1048575
2026-01-18 09:13:31.12	335.60	3.29	-84.3	-88.8	2.6	3.12e+01	0	47	104	0	60	1048575
2026-01-18 09:13:33.13	335.53	3.16	-83.9	-88.8	2.5	3.12e+01	0	47	104	0	60	1048575
2026-01-18 09:13:35.14	335.46	3.02	-84.3	-88.8	2.4	3.12e+01	0	47	104	0	60	1048575
2026-01-18 09:13:37.16	335.39	2.89	-83.9	-88.8	2.5	3.12e+01	0	47	104	0	60	1048575
2026-01-18 09:13:39.17	335.32	2.75	-84.3	-88.8	2.7	3.12e+01	0	47	104	0	60	1048575
2026-01-18 09:13:41.18	335.26	2.62	-83.9	-88.8	2.6	3.12e+01	0	47	104	0	60	1048575
2026-01-18 09:13:43.20	335.19	2.49	-84.3	-88.8	2.7	3.12e+01	0	47	104	0	60	1048575
2026-01-18 09:13:45.22	335.13	2.35	-84.3	-88.8	2.5	3.12e+01	0	47	104	0	60	1048575
2026-01-18 09:13:47.24	335.06	2.22	-83.9	-88.8	2.6	3.12e+01	0	47	104	0	60	1048575
2026-01-18 09:13:49.25	335.00	2.09	-84.3	-88.8	2.5	3.12e+01	0	47	104	0	60	1048575
2026-01-18 09:13:51.27	334.94	1.96	-83.9	-88.8	2.3	3.12e+01	0	47	104	0	60	1048575
2026-01-18 09:13:53.28	334.87	1.83	-84.3	-88.8	2.4	3.12e+01	0	47	104	0	60	1048575
2026-01-18 09:13:55.29	334.81	1.70	-84.3	-88.8	2.4	3.12e+01	0	47	104	0	60	1048575
2026-01-18 09:13:57.29	334.75	1.57	-83.9	-88.8	2.5	3.12e+01	0	47	104	0	60	1048575
2026-01-18 09:13:59.30	334.69	1.45	-84.3	-88.8	2.8	3.12e+01	0	47	104	0	60	1048575
2026-01-18 09:14:01.32	334.63	1.32	-83.9	-88.8	2.7	3.12e+01	0	47	104	0	60	1048575
2026-01-18 09:14:03.33	334.57	1.19	-84.3	-88.8	2.6	3.12e+01	0	47	104	0	60	1048575
2026-01-18 09:14:05.35	334.52	1.07	-84.3	-88.8	2.7	3.12e+01	0	47	104	0	60	1048575
2026-01-18 09:14:07.37	334.46	0.94	-83.9	-88.8	2.6	3.12e+01	0	47	104	0	60	1048575
2026-01-18 09:14:09.38	334.40	0.81	-84.3	-88.8	2.6	3.12e+01	0	47	104	0	60	1048575
2026-01-18 09:14:11.40	334.35	0.69	-83.9	-88.8	2.6	3.12e+01	0	47	104	0	60	1048575
2026-01-18 09:14:13.41	334.29	0.57	-83.9	-88.8	2.5	3.12e+01	0	47	104	0	60	1048575
2026-01-18 09:14:15.43	334.23	0.44	-83.9	-88.8	2.4	3.12e+01	0	47	104	0	60	1048575
2026-01-18 09:14:17.45	334.18	0.32	-84.3	-88.8	2.6	3.12e+01	0	47	104	0	60	1048575
2026-01-18 09:14:19.46	334.13	0.20	-84.3	-88.8	2.5	3.12e+01	0	47	104	0	60	1048575
2026-01-18 09:14:21.48	334.07	0.07	-84.3	-88.8	2.6	3.12e+01	0	47	104	0	60	1048575

#Closed at: 2026-01-18 09:14:23
#Recorded file [0 MB]: D:/Data/35015_260118_120642.dat