passes_logs/2026/01/18/R3.2S-Naryan-Mar/R3.2S-Naryan-Mar__20260118_062121_NOAA_21_JPSS-2_rec.log

#Pass ID: 20260118_062121_NOAA 21 (JPSS-2)
#Satellite: NOAA 21 (JPSS-2)
#Configuration: NOAA-21
#almurnet v.1.7.20240730
#Start time: 2026-01-18 06:31:13

#Version: 2.2.20231116
#Station: R3.2S-Naryan-Mar
#Location: 53.008057 lon 67.646978 lat
#TLE: 1 54234U 22150A   26017.26823908  .00000042  00000+0  40962-4 0  9992
#TLE: 2 54234  98.7501 318.1405 0000613 274.2947  85.8159 14.19535194165131

#Time	Az	El	Level	Level2	SNR	BER	BlckErr	Temp	State	Recorded	gain1	gain2
2026-01-18 06:31:13.61	351.95	22.67	-84.7	-88.6	3.1	7.78e-01	0	47	0	0	60	1048568
2026-01-18 06:31:15.61	351.58	22.46	-85.2	-88.8	3.0	1.56e+00	0	47	104	0	60	1048572
2026-01-18 06:31:17.63	351.21	22.25	-85.2	-88.8	2.7	1.56e+00	0	48	104	0	60	1048574
2026-01-18 06:31:19.65	350.84	22.04	-85.2	-88.8	2.7	1.56e+00	0	48	104	0	60	1048575
2026-01-18 06:31:21.66	350.48	21.83	-85.2	-88.8	2.8	1.56e+00	0	48	104	0	60	1048573
2026-01-18 06:31:23.68	350.13	21.62	-85.2	-88.8	2.9	1.56e+00	0	48	104	0	60	1048573
2026-01-18 06:31:25.69	349.78	21.41	-85.2	-88.8	2.8	1.56e+00	0	48	104	0	60	1048567
2026-01-18 06:31:27.70	349.44	21.21	-85.2	-88.8	2.8	1.56e+00	0	48	104	0	60	1048570
2026-01-18 06:31:29.71	349.10	21.00	-85.2	-88.8	2.7	1.56e+00	0	48	104	0	60	1048572
2026-01-18 06:31:31.72	348.76	20.79	-85.2	-88.8	2.5	1.56e+00	0	47	104	0	60	1048574
2026-01-18 06:31:33.74	348.43	20.59	-85.2	-88.8	2.9	1.56e+00	0	48	104	0	60	1048575
2026-01-18 06:31:35.76	348.10	20.38	-85.2	-88.8	2.8	1.56e+00	0	48	104	0	60	1048575
2026-01-18 06:31:37.77	347.78	20.18	-85.2	-88.8	2.7	1.56e+00	0	48	104	0	60	1048573
2026-01-18 06:31:39.79	347.46	19.97	-85.2	-88.8	2.7	1.56e+00	0	48	104	0	60	1048575
2026-01-18 06:31:41.81	347.15	19.77	-85.2	-88.8	2.8	1.56e+00	0	47	104	0	60	1048570
2026-01-18 06:31:43.82	346.84	19.57	-85.2	-88.8	2.6	1.56e+00	0	47	104	0	60	1048575
2026-01-18 06:31:45.83	346.54	19.37	-85.2	-88.8	2.8	1.56e+00	0	48	104	0	60	1048575
2026-01-18 06:31:47.84	346.24	19.17	-85.2	-88.8	2.7	1.56e+00	0	47	104	0	60	1048575
2026-01-18 06:31:49.85	345.94	18.97	-85.2	-88.8	2.7	1.56e+00	0	48	104	0	60	1048574
2026-01-18 06:31:51.87	345.65	18.77	-85.2	-88.8	2.7	1.56e+00	0	47	104	0	60	1048575
2026-01-18 06:31:53.88	345.36	18.57	-85.2	-88.8	2.8	1.56e+00	0	48	104	0	60	1048574
2026-01-18 06:31:55.90	345.07	18.37	-85.2	-88.8	2.8	1.56e+00	0	48	104	0	60	1048575
2026-01-18 06:31:57.91	344.79	18.17	-85.2	-88.8	2.7	1.56e+00	0	48	104	0	60	1048575
2026-01-18 06:31:59.92	344.52	17.98	-85.2	-88.8	2.5	1.56e+00	0	48	104	0	60	1048575
2026-01-18 06:32:01.93	344.24	17.79	-85.2	-88.8	2.6	1.56e+00	0	48	104	0	60	1048573
2026-01-18 06:32:03.94	343.97	17.59	-85.2	-88.8	2.5	1.56e+00	0	48	104	0	60	1048574
2026-01-18 06:32:05.95	343.71	17.40	-85.2	-88.8	2.6	1.56e+00	0	47	104	0	60	1048573
2026-01-18 06:32:07.97	343.44	17.21	-85.2	-88.8	3.0	1.56e+00	0	47	104	0	60	1048574
2026-01-18 06:32:09.99	343.18	17.01	-85.2	-88.8	2.7	1.56e+00	0	48	104	0	60	1048570
2026-01-18 06:32:12.00	342.92	16.82	-85.2	-88.8	2.6	1.56e+00	0	48	104	0	60	1048575
2026-01-18 06:32:14.02	342.67	16.63	-85.2	-88.8	2.9	1.56e+00	0	47	104	0	60	1048574
2026-01-18 06:32:16.03	342.42	16.44	-85.2	-88.8	2.7	1.56e+00	0	48	104	0	60	1048573
2026-01-18 06:32:18.04	342.17	16.26	-85.2	-88.8	2.5	1.56e+00	0	48	104	0	60	1048574
2026-01-18 06:32:20.05	341.93	16.07	-85.2	-88.8	2.8	1.56e+00	0	48	104	0	60	1048574
2026-01-18 06:32:22.06	341.69	15.88	-85.2	-88.8	2.4	1.56e+00	0	48	104	0	60	1048574
2026-01-18 06:32:24.08	341.45	15.70	-85.2	-88.8	2.8	1.56e+00	0	48	104	0	60	1048574
2026-01-18 06:32:26.10	341.22	15.51	-85.2	-88.8	2.8	1.56e+00	0	47	104	0	60	1048575
2026-01-18 06:32:28.11	340.99	15.33	-85.2	-88.8	2.8	1.56e+00	0	48	104	0	60	1048573
2026-01-18 06:32:30.13	340.76	15.15	-85.2	-88.8	2.8	1.56e+00	0	48	104	0	60	1048574
2026-01-18 06:32:32.15	340.53	14.97	-85.2	-88.8	2.6	1.56e+00	0	48	104	0	60	1048574
2026-01-18 06:32:34.16	340.31	14.79	-84.3	-88.8	2.7	1.56e+00	0	47	104	0	60	1048575
2026-01-18 06:32:36.18	340.09	14.60	-85.2	-88.8	2.8	1.56e+00	0	48	104	0	60	1048575
2026-01-18 06:32:38.19	339.87	14.43	-85.2	-88.8	2.7	1.56e+00	0	48	104	0	60	1048575
2026-01-18 06:32:40.21	339.65	14.25	-85.2	-88.8	2.8	1.56e+00	0	48	104	0	60	1048572
2026-01-18 06:32:42.22	339.44	14.07	-85.2	-88.8	2.9	1.56e+00	0	47	104	0	60	1048574
2026-01-18 06:32:44.23	339.23	13.89	-85.2	-88.8	2.8	1.56e+00	0	48	104	0	60	1048575
2026-01-18 06:32:46.25	339.02	13.72	-85.2	-88.8	2.8	1.56e+00	0	47	104	0	60	1048574
2026-01-18 06:32:48.26	338.82	13.54	-85.2	-88.8	2.7	1.56e+00	0	47	104	0	60	1048572
2026-01-18 06:32:50.27	338.62	13.37	-85.2	-88.8	2.7	1.56e+00	0	48	104	0	60	1048570
2026-01-18 06:32:52.28	338.42	13.20	-85.2	-88.8	2.7	1.56e+00	0	48	104	0	60	1048574
2026-01-18 06:32:54.30	338.22	13.03	-85.2	-88.8	2.7	1.56e+00	0	48	104	0	60	1048575
2026-01-18 06:32:56.31	338.03	12.86	-85.2	-88.8	2.8	1.56e+00	0	48	104	0	60	1048575
2026-01-18 06:32:58.32	337.83	12.69	-85.2	-88.8	2.6	1.56e+00	0	48	104	0	60	1048575
2026-01-18 06:33:00.33	337.64	12.52	-85.2	-88.8	2.8	1.56e+00	0	48	104	0	60	1048575
2026-01-18 06:33:02.35	337.46	12.35	-85.2	-88.8	2.7	1.56e+00	0	48	104	0	60	1048574
2026-01-18 06:33:04.35	337.27	12.18	-85.2	-88.8	2.8	1.56e+00	0	48	104	0	60	1048575
2026-01-18 06:33:06.36	337.09	12.01	-85.2	-88.8	2.7	1.56e+00	0	48	104	0	60	1048574
2026-01-18 06:33:08.36	336.91	11.85	-85.2	-88.8	2.6	1.56e+00	0	48	104	0	60	1048573
2026-01-18 06:33:10.37	336.73	11.68	-85.2	-88.8	2.7	1.56e+00	0	48	104	0	60	1048572
2026-01-18 06:33:12.38	336.55	11.52	-85.2	-88.8	2.7	1.56e+00	0	48	104	0	60	1048575
2026-01-18 06:33:14.39	336.38	11.36	-85.2	-88.8	2.7	1.56e+00	0	48	104	0	60	1048571
2026-01-18 06:33:16.41	336.20	11.19	-85.2	-88.8	2.7	1.56e+00	0	48	104	0	60	1048575
2026-01-18 06:33:18.42	336.03	11.03	-85.2	-88.8	2.7	1.56e+00	0	48	104	0	60	1048572
2026-01-18 06:33:20.44	335.86	10.87	-85.2	-88.8	2.7	1.56e+00	0	48	104	0	60	1048574
2026-01-18 06:33:22.45	335.69	10.71	-84.7	-88.8	2.8	1.56e+00	0	48	104	0	60	1048574
2026-01-18 06:33:24.46	335.53	10.55	-84.7	-88.8	2.7	1.56e+00	0	48	104	0	60	1048573
2026-01-18 06:33:26.47	335.37	10.39	-85.2	-88.8	2.7	1.56e+00	0	48	104	0	60	1048570
2026-01-18 06:33:28.48	335.20	10.24	-85.2	-88.8	2.8	1.56e+00	0	48	104	0	60	1048574
2026-01-18 06:33:30.49	335.04	10.08	-85.2	-88.8	2.8	1.56e+00	0	48	104	0	60	1048570
2026-01-18 06:33:32.50	334.89	9.92	-85.2	-88.8	2.7	1.56e+00	0	48	104	0	60	1048573
2026-01-18 06:33:34.52	334.73	9.77	-85.2	-88.8	2.6	1.56e+00	0	48	104	0	60	1048575
2026-01-18 06:33:36.53	334.57	9.61	-84.7	-88.8	2.8	1.56e+00	0	48	104	0	60	1048574
2026-01-18 06:33:38.55	334.42	9.46	-85.2	-88.8	2.7	1.56e+00	0	48	104	0	60	1048575
2026-01-18 06:33:40.56	334.27	9.30	-85.2	-88.8	2.7	1.56e+00	0	48	104	0	60	1048573
2026-01-18 06:33:42.58	334.12	9.15	-85.2	-88.8	2.7	1.56e+00	0	48	104	0	60	1048575
2026-01-18 06:33:44.59	333.97	9.00	-85.2	-88.8	2.6	1.56e+00	0	48	104	0	60	1048573
2026-01-18 06:33:46.60	333.83	8.85	-85.2	-88.8	2.8	1.56e+00	0	48	104	0	60	1048575
2026-01-18 06:33:48.62	333.68	8.70	-85.2	-88.8	2.8	1.56e+00	0	48	104	0	60	1048567
2026-01-18 06:33:50.63	333.54	8.55	-85.2	-88.8	2.8	1.56e+00	0	48	104	0	60	1048573
2026-01-18 06:33:52.65	333.40	8.40	-85.2	-88.8	2.7	1.56e+00	0	48	104	0	60	1048574
2026-01-18 06:33:54.66	333.26	8.25	-85.2	-88.8	2.8	1.56e+00	0	48	104	0	60	1048575
2026-01-18 06:33:56.68	333.12	8.10	-85.2	-88.8	2.6	1.56e+00	0	48	104	0	60	1048573
2026-01-18 06:33:58.69	332.98	7.96	-85.2	-88.8	2.7	1.56e+00	0	48	104	0	60	1048574
2026-01-18 06:34:00.71	332.84	7.81	-85.2	-88.8	2.7	1.56e+00	0	48	104	0	60	1048575
2026-01-18 06:34:02.71	332.71	7.66	-85.2	-88.8	2.7	1.56e+00	0	48	104	0	60	1048575
2026-01-18 06:34:04.73	332.58	7.52	-85.2	-88.8	2.9	1.56e+00	0	48	104	0	60	1048574
2026-01-18 06:34:06.75	332.44	7.37	-85.2	-88.8	2.7	1.56e+00	0	48	104	0	60	1048572
2026-01-18 06:34:08.76	332.31	7.23	-85.2	-88.8	2.9	1.56e+00	0	48	104	0	60	1048574
2026-01-18 06:34:10.78	332.18	7.09	-85.2	-88.8	2.7	1.56e+00	0	48	104	0	60	1048575
2026-01-18 06:34:12.79	332.06	6.94	-85.2	-88.8	2.7	1.56e+00	0	48	104	0	60	1048571
2026-01-18 06:34:14.80	331.93	6.80	-85.2	-88.8	2.9	1.56e+00	0	48	104	0	60	1048575
2026-01-18 06:34:16.81	331.81	6.66	-85.2	-88.8	2.8	1.56e+00	0	48	104	0	60	1048572
2026-01-18 06:34:18.83	331.68	6.52	-85.2	-88.8	2.6	1.56e+00	0	48	104	0	60	1048575
2026-01-18 06:34:20.84	331.56	6.38	-85.2	-88.8	2.8	1.56e+00	0	48	104	0	60	1048573
2026-01-18 06:34:22.86	331.44	6.24	-85.2	-88.8	2.7	1.56e+00	0	48	104	0	60	1048574
2026-01-18 06:34:24.87	331.32	6.10	-85.2	-88.8	2.8	1.56e+00	0	48	104	0	60	1048569
2026-01-18 06:34:26.89	331.20	5.97	-85.2	-88.8	2.7	1.56e+00	0	47	104	0	60	1048573
2026-01-18 06:34:28.89	331.08	5.83	-85.2	-88.8	2.6	1.56e+00	0	48	104	0	60	1048566
2026-01-18 06:34:30.90	330.97	5.69	-85.2	-88.8	2.8	1.56e+00	0	48	104	0	60	1048575
2026-01-18 06:34:32.92	330.85	5.56	-85.2	-88.8	2.7	1.56e+00	0	48	104	0	60	1048571
2026-01-18 06:34:34.93	330.74	5.42	-85.2	-88.8	2.6	1.56e+00	0	48	104	0	60	1048575
2026-01-18 06:34:36.94	330.62	5.29	-85.2	-88.8	2.6	1.56e+00	0	48	104	0	60	1048575
2026-01-18 06:34:38.96	330.51	5.15	-85.2	-88.8	2.7	1.56e+00	0	48	104	0	60	1048574
2026-01-18 06:34:40.97	330.40	5.02	-85.2	-88.8	2.7	1.56e+00	0	48	104	0	60	1048575
2026-01-18 06:34:42.99	330.29	4.88	-85.2	-88.8	2.6	1.56e+00	0	48	104	0	60	1048573
2026-01-18 06:34:45.00	330.18	4.75	-85.2	-88.8	2.9	1.56e+00	0	48	104	0	60	1048572
2026-01-18 06:34:47.02	330.08	4.62	-85.2	-88.8	2.7	1.56e+00	0	47	104	0	60	1048574
2026-01-18 06:34:49.03	329.97	4.49	-85.2	-88.8	2.8	1.56e+00	0	48	104	0	60	1048574
2026-01-18 06:34:51.04	329.86	4.36	-85.2	-88.8	2.8	1.56e+00	0	48	104	0	60	1048575
2026-01-18 06:34:53.05	329.76	4.23	-84.3	-88.8	2.6	1.56e+00	0	48	104	0	60	1048575
2026-01-18 06:34:55.07	329.66	4.10	-85.2	-88.8	2.8	1.56e+00	0	48	104	0	60	1048573
2026-01-18 06:34:57.09	329.55	3.97	-85.2	-88.8	2.7	1.56e+00	0	47	104	0	60	1048571
2026-01-18 06:34:59.10	329.45	3.84	-84.3	-88.8	2.5	1.56e+00	0	48	104	0	60	1048573
2026-01-18 06:35:01.11	329.35	3.71	-85.2	-88.8	2.8	1.56e+00	0	48	104	0	60	1048575
2026-01-18 06:35:03.12	329.25	3.58	-84.3	-88.8	2.8	1.56e+00	0	48	104	0	60	1048570
2026-01-18 06:35:05.13	329.15	3.45	-85.2	-88.8	2.7	1.56e+00	0	48	104	0	60	1048574
2026-01-18 06:35:07.15	329.05	3.33	-85.2	-88.8	2.9	1.56e+00	0	48	104	0	60	1048575
2026-01-18 06:35:09.15	328.96	3.20	-84.3	-88.8	2.5	1.56e+00	0	48	104	0	60	1048575
2026-01-18 06:35:11.17	328.86	3.08	-85.2	-88.8	2.7	1.56e+00	0	48	104	0	60	1048569
2026-01-18 06:35:13.19	328.77	2.95	-85.2	-88.8	2.7	1.56e+00	0	48	104	0	60	1048575
2026-01-18 06:35:15.20	328.67	2.82	-85.2	-88.8	2.7	1.56e+00	0	48	104	0	60	1048574
2026-01-18 06:35:17.22	328.58	2.70	-85.2	-88.8	2.8	1.56e+00	0	48	104	0	60	1048572
2026-01-18 06:35:19.23	328.49	2.58	-85.2	-88.8	2.7	1.56e+00	0	47	104	0	60	1048574
2026-01-18 06:35:21.24	328.39	2.45	-85.2	-88.8	2.6	1.56e+00	0	48	104	0	60	1048574
2026-01-18 06:35:23.25	328.30	2.33	-85.2	-88.8	2.6	1.56e+00	0	48	104	0	60	1048575
2026-01-18 06:35:25.26	328.21	2.21	-85.2	-88.8	2.7	1.56e+00	0	48	104	0	60	1048572
2026-01-18 06:35:27.28	328.12	2.09	-85.2	-88.8	2.5	1.56e+00	0	48	104	0	60	1048573
2026-01-18 06:35:29.29	328.04	1.96	-84.7	-88.8	2.7	1.56e+00	0	48	104	0	60	1048573
2026-01-18 06:35:31.31	327.95	1.84	-85.2	-88.8	2.7	1.56e+00	0	48	104	0	60	1048573
2026-01-18 06:35:33.32	327.86	1.72	-85.2	-88.8	2.8	1.56e+00	0	48	104	0	60	1048575
2026-01-18 06:35:35.33	327.78	1.60	-85.2	-88.8	2.6	1.56e+00	0	48	104	0	60	1048574
2026-01-18 06:35:37.35	327.69	1.48	-85.2	-88.8	2.7	1.56e+00	0	48	104	0	60	1048574
2026-01-18 06:35:39.36	327.61	1.36	-85.2	-88.8	2.7	1.56e+00	0	48	104	0	60	1048574
2026-01-18 06:35:41.38	327.52	1.24	-85.2	-88.8	2.6	1.56e+00	0	48	104	0	60	1048574
2026-01-18 06:35:43.40	327.44	1.12	-85.2	-88.8	2.8	1.56e+00	0	48	104	0	60	1048573
2026-01-18 06:35:45.41	327.36	1.00	-85.2	-88.8	2.6	1.56e+00	0	48	104	0	60	1048574
2026-01-18 06:35:47.43	327.27	0.89	-85.2	-88.8	2.8	1.56e+00	0	48	104	0	60	1048573
2026-01-18 06:35:49.44	327.19	0.77	-85.2	-88.8	2.6	1.56e+00	0	48	104	0	60	1048574
2026-01-18 06:35:51.45	327.11	0.65	-85.2	-88.8	2.8	1.56e+00	0	48	104	0	60	1048575
2026-01-18 06:35:53.47	327.03	0.54	-85.2	-88.8	2.7	1.56e+00	0	48	104	0	60	1048573
2026-01-18 06:35:55.49	326.95	0.42	-85.2	-88.8	2.7	1.56e+00	0	48	104	0	60	1048575
2026-01-18 06:35:57.50	326.88	0.30	-85.2	-88.8	2.8	1.56e+00	0	48	104	0	60	1048575
2026-01-18 06:35:59.51	326.80	0.19	-85.2	-88.8	2.8	1.56e+00	0	48	104	0	60	1048575
2026-01-18 06:36:01.53	326.72	0.07	-85.2	-88.8	2.8	1.56e+00	0	48	104	0	60	1048573

#Closed at: 2026-01-18 06:36:03
#Recorded file [0 MB]: D:/Data/35015_260118_093113.dat