passes_logs/2026/01/18/R3.2S-Naryan-Mar/R3.2S-Naryan-Mar__20260118_142544_TY-42_rec.log

#Pass ID: 20260118_142544_TY-42
#Satellite: TY-42
#Configuration: TY-42
#almurnet v.1.7.20240730
#Start time: 2026-01-18 14:25:46

#Version: 2.2.20231116
#Station: R3.2S-Naryan-Mar
#Location: 53.008057 lon 67.646978 lat
#TLE: 1 64048U 25103A   26018.53100694  .00008009  00000-0  38191-3 0 09990
#TLE: 2 64048 097.4124 093.8820 0001871 093.1015 305.9816 15.19165829 37354

#Time	Az	El	Level	Level2	SNR	BER	BlckErr	Temp	State	Recorded	gain1	gain2
2026-01-18 14:25:46.00	79.13	0.10	-83.5	-79.0	2.5	0.00e+00	0	45	0	0	60	1048570
2026-01-18 14:25:48.99	78.84	0.26	-83.1	-79.0	2.4	0.00e+00	0	46	104	0	60	1048573
2026-01-18 14:25:52.00	78.54	0.41	-83.1	-79.0	2.4	0.00e+00	0	47	104	0	60	1048573
2026-01-18 14:25:55.01	78.24	0.57	-83.5	-79.0	2.4	0.00e+00	0	47	104	0	60	1048573
2026-01-18 14:25:58.03	77.93	0.73	-83.5	-79.0	2.5	0.00e+00	0	47	104	0	60	1048569
2026-01-18 14:26:01.05	77.62	0.89	-83.1	-79.0	2.3	0.00e+00	0	47	104	0	60	1048575
2026-01-18 14:26:04.08	77.30	1.06	-83.5	-79.0	2.4	0.00e+00	0	47	104	0	60	1048575
2026-01-18 14:26:07.10	76.98	1.22	-83.5	-79.0	2.4	0.00e+00	0	47	104	0	60	1048574
2026-01-18 14:26:10.12	76.65	1.38	-83.1	-79.0	2.4	0.00e+00	0	47	104	0	60	1048571
2026-01-18 14:26:13.14	76.32	1.54	-83.5	-79.0	2.3	0.00e+00	0	47	104	0	60	1048570
2026-01-18 14:26:16.16	75.99	1.70	-83.5	-79.0	2.4	0.00e+00	0	47	104	0	60	1048575
2026-01-18 14:26:19.19	75.64	1.87	-83.5	-79.0	2.7	0.00e+00	0	47	104	0	60	1048574
2026-01-18 14:26:22.21	75.30	2.03	-83.5	-79.0	2.4	0.00e+00	0	47	104	0	60	1048574
2026-01-18 14:26:25.24	74.95	2.20	-83.1	-79.0	2.3	0.00e+00	0	47	104	0	60	1048572
2026-01-18 14:26:28.26	74.59	2.36	-83.5	-79.0	2.3	0.00e+00	0	47	104	0	60	1048574
2026-01-18 14:26:31.27	74.23	2.53	-83.1	-79.0	2.4	0.00e+00	0	48	104	0	60	1048567
2026-01-18 14:26:34.30	73.87	2.69	-83.1	-79.0	2.4	0.00e+00	0	48	104	0	60	1048574
2026-01-18 14:26:37.32	73.49	2.86	-83.5	-79.0	2.5	0.00e+00	0	48	104	0	60	1048569
2026-01-18 14:26:40.34	73.12	3.02	-83.5	-79.0	2.3	0.00e+00	0	48	104	0	60	1048573
2026-01-18 14:26:43.36	72.74	3.19	-83.1	-79.0	2.3	0.00e+00	0	48	104	0	60	1048569
2026-01-18 14:26:46.39	72.35	3.36	-83.5	-79.0	2.4	0.00e+00	0	48	104	0	60	1048573
2026-01-18 14:26:49.41	71.95	3.52	-83.1	-79.0	2.4	0.00e+00	0	48	104	0	60	1048571
2026-01-18 14:26:52.44	71.55	3.69	-83.5	-79.0	2.4	0.00e+00	0	48	104	0	60	1048575
2026-01-18 14:26:55.46	71.15	3.86	-83.5	-79.0	2.7	0.00e+00	0	48	104	0	60	1048575
2026-01-18 14:26:58.48	70.73	4.03	-83.1	-79.0	2.5	0.00e+00	0	48	104	0	60	1048575
2026-01-18 14:27:01.49	70.32	4.20	-83.5	-79.0	2.4	0.00e+00	0	48	104	0	60	1048567
2026-01-18 14:27:04.52	69.89	4.36	-83.1	-79.0	2.4	0.00e+00	0	48	104	0	60	1048572
2026-01-18 14:27:07.54	69.46	4.53	-83.1	-79.0	2.4	0.00e+00	0	48	104	0	60	1048566
2026-01-18 14:27:10.56	69.02	4.70	-83.5	-79.0	2.4	0.00e+00	0	48	104	0	60	1048575
2026-01-18 14:27:13.59	68.58	4.87	-83.5	-79.0	2.4	0.00e+00	0	48	104	0	60	1048568
2026-01-18 14:27:16.61	68.13	5.04	-83.1	-79.0	2.5	0.00e+00	0	48	104	0	60	1048575
2026-01-18 14:27:19.63	67.67	5.21	-83.5	-79.0	2.4	0.00e+00	0	48	104	0	60	1048575
2026-01-18 14:27:22.65	67.21	5.38	-83.1	-79.0	2.3	0.00e+00	0	48	104	0	60	1048573
2026-01-18 14:27:25.68	66.74	5.55	-83.5	-79.0	2.6	0.00e+00	0	48	104	0	60	1048575
2026-01-18 14:27:28.70	66.26	5.71	-83.1	-79.0	2.4	0.00e+00	0	48	104	0	60	1048575
2026-01-18 14:27:31.72	65.78	5.88	-83.5	-79.0	2.5	0.00e+00	0	48	104	0	60	1048572
2026-01-18 14:27:34.74	65.29	6.05	-83.5	-79.0	2.4	0.00e+00	0	48	104	0	60	1048575
2026-01-18 14:27:37.76	64.79	6.22	-83.5	-79.0	2.4	0.00e+00	0	48	104	0	60	1048575
2026-01-18 14:27:40.78	64.28	6.39	-83.1	-79.0	2.4	0.00e+00	0	48	104	0	60	1048574
2026-01-18 14:27:43.80	63.77	6.55	-83.5	-79.0	2.4	0.00e+00	0	48	104	0	60	1048575
2026-01-18 14:27:46.83	63.24	6.72	-83.1	-79.0	2.5	0.00e+00	0	48	104	0	60	1048574
2026-01-18 14:27:49.84	62.72	6.89	-83.1	-79.0	2.4	0.00e+00	0	48	104	0	60	1048568
2026-01-18 14:27:52.86	62.18	7.05	-83.5	-79.0	2.4	0.00e+00	0	48	104	0	60	1048572
2026-01-18 14:27:55.88	61.64	7.22	-83.1	-79.0	2.3	0.00e+00	0	49	104	0	60	1048575
2026-01-18 14:27:58.91	61.08	7.38	-83.5	-79.0	2.5	0.00e+00	0	48	104	0	60	1048573
2026-01-18 14:28:01.93	60.52	7.55	-83.1	-79.0	2.5	0.00e+00	0	49	104	0	60	1048572
2026-01-18 14:28:04.95	59.95	7.71	-83.1	-79.0	2.4	0.00e+00	0	49	104	0	60	1048570
2026-01-18 14:28:07.96	59.38	7.87	-83.5	-79.0	2.2	0.00e+00	0	49	104	0	60	1048573
2026-01-18 14:28:10.99	58.80	8.03	-83.5	-79.0	2.4	0.00e+00	0	49	104	0	60	1048573
2026-01-18 14:28:14.00	58.21	8.19	-83.1	-79.0	2.4	0.00e+00	0	49	104	0	60	1048575
2026-01-18 14:28:17.02	57.61	8.35	-83.5	-79.0	2.5	0.00e+00	0	49	104	0	60	1048575
2026-01-18 14:28:20.05	56.99	8.51	-83.5	-79.0	2.4	0.00e+00	0	49	104	0	60	1048573
2026-01-18 14:28:23.07	56.38	8.67	-83.1	-79.0	2.4	0.00e+00	0	49	104	0	60	1048575
2026-01-18 14:28:26.09	55.75	8.82	-83.5	-79.0	2.4	0.00e+00	0	49	104	0	60	1048573
2026-01-18 14:28:29.12	55.12	8.98	-83.5	-79.0	2.4	0.00e+00	0	49	104	0	60	1048571
2026-01-18 14:28:32.14	54.48	9.13	-83.5	-79.0	2.5	0.00e+00	0	49	104	0	60	1048569
2026-01-18 14:28:35.16	53.83	9.28	-83.1	-79.0	2.4	0.00e+00	0	49	104	0	60	1048575
2026-01-18 14:28:38.19	53.17	9.43	-83.1	-79.0	2.4	0.00e+00	0	49	104	0	60	1048574
2026-01-18 14:28:41.21	52.50	9.57	-83.5	-79.0	2.4	0.00e+00	0	49	104	0	60	1048574
2026-01-18 14:28:44.23	51.83	9.72	-83.5	-79.0	2.3	0.00e+00	0	49	104	0	60	1048574
2026-01-18 14:28:47.26	51.14	9.86	-83.1	-79.0	2.5	0.00e+00	0	49	104	0	60	1048571
2026-01-18 14:28:50.28	50.45	10.00	-83.5	-79.0	2.4	0.00e+00	0	49	104	0	60	1048575
2026-01-18 14:28:53.30	49.75	10.14	-83.1	-79.0	2.4	0.00e+00	0	49	104	0	60	1048573
2026-01-18 14:28:56.31	49.05	10.27	-83.1	-79.0	2.4	0.00e+00	0	49	104	0	60	1048575
2026-01-18 14:28:59.33	48.33	10.40	-83.5	-79.0	2.4	0.00e+00	0	49	104	0	60	1048574
2026-01-18 14:29:02.35	47.61	10.53	-83.5	-79.0	2.5	0.00e+00	0	49	104	0	60	1048575
2026-01-18 14:29:05.36	46.88	10.66	-83.5	-79.0	2.3	0.00e+00	0	49	104	0	60	1048570
2026-01-18 14:29:08.39	46.14	10.78	-83.5	-79.0	2.4	0.00e+00	0	49	104	0	60	1048575
2026-01-18 14:29:11.41	45.39	10.90	-83.1	-79.0	2.3	0.00e+00	0	49	104	0	60	1048572
2026-01-18 14:29:14.43	44.64	11.02	-83.5	-79.0	2.4	0.00e+00	0	49	104	0	60	1048573
2026-01-18 14:29:17.45	43.88	11.13	-83.5	-79.0	2.4	0.00e+00	0	49	104	0	60	1048575
2026-01-18 14:29:20.48	43.11	11.24	-83.1	-79.0	2.5	0.00e+00	0	49	104	0	60	1048571
2026-01-18 14:29:23.50	42.34	11.35	-83.5	-79.0	2.5	0.00e+00	0	49	104	0	60	1048572
2026-01-18 14:29:26.52	41.56	11.45	-83.5	-79.0	2.4	0.00e+00	0	49	104	0	60	1048575
2026-01-18 14:29:29.54	40.77	11.55	-83.1	-79.0	2.4	0.00e+00	0	49	104	0	60	1048574
2026-01-18 14:29:32.55	39.98	11.64	-83.5	-79.0	2.3	0.00e+00	0	49	104	0	60	1048573
2026-01-18 14:29:35.57	39.18	11.73	-83.1	-79.0	2.4	0.00e+00	0	49	104	0	60	1048575
2026-01-18 14:29:38.60	38.37	11.82	-83.5	-79.0	2.4	0.00e+00	0	49	104	0	60	1048573
2026-01-18 14:29:41.62	37.56	11.90	-83.5	-79.0	2.4	0.00e+00	0	49	104	0	60	1048575
2026-01-18 14:29:44.64	36.74	11.98	-83.1	-79.0	2.4	0.00e+00	0	49	104	0	60	1048561
2026-01-18 14:29:47.66	35.92	12.05	-83.5	-79.0	2.5	0.00e+00	0	49	104	0	60	1048573
2026-01-18 14:29:50.69	35.09	12.12	-83.5	-79.0	2.5	0.00e+00	0	49	104	0	60	1048572
2026-01-18 14:29:53.71	34.26	12.18	-83.1	-79.0	2.5	0.00e+00	0	49	104	0	60	1048573
2026-01-18 14:29:56.72	33.43	12.24	-83.5	-79.0	2.5	0.00e+00	0	49	104	0	60	1048575
2026-01-18 14:29:59.73	32.59	12.29	-83.5	-79.0	2.3	0.00e+00	0	49	104	0	60	1048575
2026-01-18 14:30:02.75	31.75	12.34	-83.1	-79.0	2.4	0.00e+00	0	49	104	0	60	1048572
2026-01-18 14:30:05.76	30.91	12.38	-83.5	-79.0	2.4	0.00e+00	0	49	104	0	60	1048575
2026-01-18 14:30:08.78	30.06	12.42	-82.8	-79.0	2.4	0.00e+00	0	49	104	0	60	1048575
2026-01-18 14:30:11.81	29.20	12.45	-83.5	-79.0	2.4	0.00e+00	0	49	104	0	60	1048575
2026-01-18 14:30:14.83	28.35	12.48	-83.1	-79.0	2.4	0.00e+00	0	49	104	0	60	1048569
2026-01-18 14:30:17.85	27.50	12.50	-83.1	-79.0	2.5	0.00e+00	0	49	104	0	60	1048575
2026-01-18 14:30:20.86	26.64	12.52	-83.5	-79.0	2.4	0.00e+00	0	49	104	0	60	1048572
2026-01-18 14:30:23.88	25.79	12.53	-83.5	-79.0	2.5	0.00e+00	0	49	104	0	60	1048575
2026-01-18 14:30:26.90	24.93	12.53	-83.1	-79.0	2.4	0.00e+00	0	49	104	0	60	1048567
2026-01-18 14:30:29.92	24.07	12.53	-83.5	-79.0	2.4	0.00e+00	0	49	104	0	60	1048575
2026-01-18 14:30:32.93	23.22	12.53	-83.5	-79.0	2.4	0.00e+00	0	49	104	0	60	1048570
2026-01-18 14:30:35.95	22.36	12.52	-83.1	-79.0	2.5	0.00e+00	0	49	104	0	60	1048575
2026-01-18 14:30:38.97	21.51	12.50	-83.5	-79.0	2.5	0.00e+00	0	49	104	0	60	1048574
2026-01-18 14:30:42.00	20.65	12.48	-83.5	-79.0	2.5	0.00e+00	0	49	104	0	60	1048572
2026-01-18 14:30:45.02	19.80	12.45	-83.5	-79.0	2.5	0.00e+00	0	49	104	0	60	1048573
2026-01-18 14:30:48.04	18.95	12.42	-83.1	-79.0	2.4	0.00e+00	0	49	104	0	60	1048572
2026-01-18 14:30:51.07	18.10	12.39	-83.1	-79.0	2.5	0.00e+00	0	49	104	0	60	1048575
2026-01-18 14:30:54.09	17.25	12.34	-83.5	-79.0	2.5	0.00e+00	0	49	104	0	60	1048572
2026-01-18 14:30:57.11	16.41	12.30	-83.5	-79.0	2.3	0.00e+00	0	49	104	0	60	1048575
2026-01-18 14:31:00.13	15.57	12.24	-83.1	-79.0	2.3	0.00e+00	0	49	104	0	60	1048572
2026-01-18 14:31:03.16	14.73	12.19	-83.5	-79.0	2.3	0.00e+00	0	49	104	0	60	1048575
2026-01-18 14:31:06.18	13.90	12.12	-83.5	-79.0	2.4	0.00e+00	0	49	104	0	60	1048575
2026-01-18 14:31:09.20	13.08	12.06	-83.1	-79.0	2.5	0.00e+00	0	49	104	0	60	1048570
2026-01-18 14:31:12.22	12.26	11.98	-83.5	-79.0	2.3	0.00e+00	0	49	104	0	60	1048575
2026-01-18 14:31:15.24	11.44	11.91	-83.1	-79.0	2.4	0.00e+00	0	49	104	0	60	1048575
2026-01-18 14:31:18.27	10.63	11.83	-83.5	-79.0	2.5	0.00e+00	0	49	104	0	60	1048574
2026-01-18 14:31:21.29	9.82	11.74	-83.5	-79.0	2.5	0.00e+00	0	49	104	0	60	1048575
2026-01-18 14:31:24.31	9.02	11.65	-83.1	-79.0	2.5	0.00e+00	0	49	104	0	60	1048568
2026-01-18 14:31:27.32	8.23	11.56	-83.5	-79.0	2.5	0.00e+00	0	49	104	0	60	1048571
2026-01-18 14:31:30.34	7.44	11.46	-83.5	-79.0	2.4	0.00e+00	0	49	104	0	60	1048570
2026-01-18 14:31:33.36	6.66	11.36	-83.5	-79.0	2.5	0.00e+00	0	49	104	0	60	1048575
2026-01-18 14:31:36.39	5.89	11.25	-83.5	-79.0	2.4	0.00e+00	0	49	104	0	60	1048575
2026-01-18 14:31:39.41	5.12	11.14	-83.5	-79.0	2.4	0.00e+00	0	49	104	0	60	1048574
2026-01-18 14:31:42.43	4.36	11.03	-83.1	-79.0	2.5	0.00e+00	0	49	104	0	60	1048574
2026-01-18 14:31:45.45	3.61	10.91	-83.5	-79.0	2.4	0.00e+00	0	49	104	0	60	1048568
2026-01-18 14:31:48.46	2.87	10.79	-83.1	-79.0	2.4	0.00e+00	0	49	104	0	60	1048574
2026-01-18 14:31:51.48	2.13	10.67	-83.5	-79.0	2.5	0.00e+00	0	49	104	0	60	1048574
2026-01-18 14:31:54.51	1.40	10.54	-83.5	-79.0	2.4	0.00e+00	0	49	104	0	60	1048575
2026-01-18 14:31:57.52	0.68	10.42	-83.1	-79.0	2.4	0.00e+00	0	49	104	0	60	1048574
2026-01-18 14:32:00.53	359.97	10.28	-83.5	-79.0	2.4	0.00e+00	0	49	104	0	60	1048572
2026-01-18 14:32:03.56	359.26	10.15	-83.1	-79.0	2.3	0.00e+00	0	49	104	0	60	1048571
2026-01-18 14:32:06.58	358.56	10.01	-83.1	-79.0	2.4	0.00e+00	0	49	104	0	60	1048575
2026-01-18 14:32:09.60	357.87	9.87	-83.5	-79.0	2.5	0.00e+00	0	49	104	0	60	1048574
2026-01-18 14:32:12.63	357.18	9.73	-83.1	-79.0	2.5	0.00e+00	0	49	104	0	60	1048573
2026-01-18 14:32:15.65	356.51	9.59	-83.5	-79.0	2.5	0.00e+00	0	49	104	0	60	1048575
2026-01-18 14:32:18.67	355.85	9.44	-83.5	-79.0	2.4	0.00e+00	0	49	104	0	60	1048574
2026-01-18 14:32:21.68	355.19	9.30	-82.8	-79.0	2.3	0.00e+00	0	49	104	0	60	1048574
2026-01-18 14:32:24.71	354.54	9.15	-83.1	-79.0	2.4	0.00e+00	0	49	104	0	60	1048569
2026-01-18 14:32:27.73	353.90	8.99	-83.5	-79.0	2.4	0.00e+00	0	49	104	0	60	1048574
2026-01-18 14:32:30.75	353.27	8.84	-83.1	-79.0	2.4	0.00e+00	0	49	104	0	60	1048570
2026-01-18 14:32:33.77	352.64	8.69	-83.5	-79.0	2.4	0.00e+00	0	49	104	0	60	1048575
2026-01-18 14:32:36.78	352.03	8.53	-83.5	-79.0	2.4	0.00e+00	0	49	104	0	60	1048568
2026-01-18 14:32:39.81	351.42	8.37	-83.1	-79.0	2.3	0.00e+00	0	49	104	0	60	1048575
2026-01-18 14:32:42.83	350.82	8.21	-83.5	-79.0	2.5	0.00e+00	0	49	104	0	60	1048567
2026-01-18 14:32:45.85	350.23	8.06	-83.5	-79.0	2.4	0.00e+00	0	49	104	0	60	1048575
2026-01-18 14:32:48.88	349.65	7.89	-83.5	-79.0	2.5	0.00e+00	0	49	104	0	60	1048572
2026-01-18 14:32:51.89	349.07	7.73	-83.5	-79.0	2.4	0.00e+00	0	49	104	0	60	1048567
2026-01-18 14:32:54.91	348.51	7.57	-83.1	-79.0	2.4	0.00e+00	0	49	104	0	60	1048573
2026-01-18 14:32:57.93	347.95	7.41	-83.5	-79.0	2.5	0.00e+00	0	49	104	0	60	1048569
2026-01-18 14:33:00.94	347.40	7.24	-83.1	-79.0	2.5	0.00e+00	0	49	104	0	60	1048573
2026-01-18 14:33:03.94	346.86	7.08	-83.1	-79.0	2.4	0.00e+00	0	49	104	0	60	1048572
2026-01-18 14:33:06.96	346.32	6.91	-83.5	-79.0	2.3	0.00e+00	0	49	104	0	60	1048572
2026-01-18 14:33:09.98	345.79	6.75	-83.5	-79.0	2.5	0.00e+00	0	49	104	0	60	1048570
2026-01-18 14:33:13.01	345.27	6.58	-83.1	-79.0	2.4	0.00e+00	0	49	104	0	60	1048573
2026-01-18 14:33:16.04	344.76	6.41	-83.5	-79.0	2.2	0.00e+00	0	49	104	0	60	1048574
2026-01-18 14:33:19.06	344.25	6.25	-83.1	-79.0	2.3	0.00e+00	0	49	104	0	60	1048574
2026-01-18 14:33:22.08	343.75	6.08	-82.8	-79.0	2.5	0.00e+00	0	49	104	0	60	1048570
2026-01-18 14:33:25.10	343.26	5.91	-83.5	-79.0	2.4	0.00e+00	0	49	104	0	60	1048572
2026-01-18 14:33:28.13	342.78	5.74	-83.1	-79.0	2.5	0.00e+00	0	49	104	0	60	1048573
2026-01-18 14:33:31.15	342.30	5.57	-83.5	-79.0	2.5	0.00e+00	0	49	104	0	60	1048575
2026-01-18 14:33:34.17	341.83	5.41	-83.5	-79.0	2.3	0.00e+00	0	49	104	0	60	1048574
2026-01-18 14:33:37.19	341.37	5.24	-82.8	-79.0	2.4	0.00e+00	0	49	104	0	60	1048572
2026-01-18 14:33:40.21	340.91	5.07	-83.5	-79.0	2.4	0.00e+00	0	49	104	0	60	1048570
2026-01-18 14:33:43.24	340.46	4.90	-83.1	-79.0	2.4	0.00e+00	0	49	104	0	60	1048571
2026-01-18 14:33:46.26	340.02	4.73	-83.5	-79.0	2.4	0.00e+00	0	49	104	0	60	1048573
2026-01-18 14:33:49.29	339.58	4.56	-83.5	-79.0	2.5	0.00e+00	0	49	104	0	60	1048559
2026-01-18 14:33:52.31	339.16	4.39	-83.1	-79.0	2.4	0.00e+00	0	49	104	0	60	1048573
2026-01-18 14:33:55.33	338.73	4.23	-83.5	-79.0	2.3	0.00e+00	0	49	104	0	60	1048566
2026-01-18 14:33:58.34	338.32	4.06	-83.5	-79.0	2.5	0.00e+00	0	49	104	0	60	1048574
2026-01-18 14:34:01.36	337.91	3.89	-83.1	-79.0	2.4	0.00e+00	0	49	104	0	60	1048573
2026-01-18 14:34:04.38	337.50	3.72	-83.5	-79.0	2.4	0.00e+00	0	49	104	0	60	1048573
2026-01-18 14:34:07.40	337.10	3.56	-83.5	-79.0	2.5	0.00e+00	0	49	104	0	60	1048573
2026-01-18 14:34:10.42	336.71	3.39	-83.1	-79.0	2.5	0.00e+00	0	49	104	0	60	1048574
2026-01-18 14:34:13.45	336.32	3.22	-83.5	-79.0	2.4	0.00e+00	0	49	104	0	60	1048574
2026-01-18 14:34:16.46	335.94	3.06	-83.1	-79.0	2.5	0.00e+00	0	49	104	0	60	1048575
2026-01-18 14:34:19.49	335.56	2.89	-83.5	-79.0	2.4	0.00e+00	0	49	104	0	60	1048575
2026-01-18 14:34:22.52	335.19	2.73	-83.5	-79.0	2.6	0.00e+00	0	49	104	0	60	1048574
2026-01-18 14:34:25.54	334.83	2.56	-83.1	-79.0	2.3	0.00e+00	0	49	104	0	60	1048574
2026-01-18 14:34:28.56	334.47	2.40	-83.5	-79.0	2.4	0.00e+00	0	49	104	0	60	1048573
2026-01-18 14:34:31.58	334.11	2.23	-83.5	-79.0	2.4	0.00e+00	0	49	104	0	60	1048569
2026-01-18 14:34:34.60	333.77	2.07	-83.1	-79.0	2.3	0.00e+00	0	49	104	0	60	1048572
2026-01-18 14:34:37.63	333.42	1.90	-83.5	-79.0	2.4	0.00e+00	0	49	104	0	60	1048573
2026-01-18 14:34:40.65	333.08	1.74	-83.1	-79.0	2.4	0.00e+00	0	49	104	0	60	1048573
2026-01-18 14:34:43.67	332.75	1.58	-83.1	-79.0	2.4	0.00e+00	0	49	104	0	60	1048575
2026-01-18 14:34:46.69	332.42	1.42	-83.5	-79.0	2.3	0.00e+00	0	49	104	0	60	1048568
2026-01-18 14:34:49.71	332.09	1.25	-83.1	-79.0	2.4	0.00e+00	0	49	104	0	60	1048573
2026-01-18 14:34:52.73	331.77	1.09	-83.1	-79.0	2.4	0.00e+00	0	49	104	0	60	1048572
2026-01-18 14:34:55.76	331.46	0.93	-83.5	-79.0	2.4	0.00e+00	0	49	104	0	60	1048570
2026-01-18 14:34:58.78	331.14	0.77	-83.1	-79.0	2.3	0.00e+00	0	49	104	0	60	1048573
2026-01-18 14:35:01.80	330.84	0.61	-83.5	-79.0	2.4	0.00e+00	0	49	104	0	60	1048573
2026-01-18 14:35:04.82	330.53	0.45	-83.5	-79.0	2.5	0.00e+00	0	49	104	0	60	1048571
2026-01-18 14:35:07.84	330.24	0.29	-83.1	-79.0	2.4	0.00e+00	0	49	104	0	60	1048573
2026-01-18 14:35:10.86	329.94	0.13	-83.5	-79.0	2.4	0.00e+00	0	49	104	0	60	1048569
2026-01-18 14:35:13.88	329.65	-0.02	-83.5	-79.0	2.3	0.00e+00	0	49	104	0	60	1048575

#Closed at: 2026-01-18 14:35:14
#Recorded file [0 MB]: D:/Data/35015_260118_172545.dat