passes_logs/2026/01/18/R3.2S-Naryan-Mar/R3.2S-Naryan-Mar__20260118_103258_NOAA_20_JPSS-1_rec.log

#Pass ID: 20260118_103258_NOAA 20 (JPSS-1)
#Satellite: NOAA 20 (JPSS-1)
#Configuration: NOAA 20
#almurnet v.1.7.20240730
#Start time: 2026-01-18 10:33:00

#Version: 2.2.20231116
#Station: R3.2S-Naryan-Mar
#Location: 53.008057 lon 67.646978 lat
#TLE: 1 43013U 17073A   26017.30359522  .00000067  00000+0  52526-4 0  9990
#TLE: 2 43013  98.7639 318.2187 0001419  36.2087 323.9184 14.19536557423067

#Time	Az	El	Level	Level2	SNR	BER	BlckErr	Temp	State	Recorded	gain1	gain2
2026-01-18 10:33:00.37	209.14	0.12	-85.2	-88.6	3.2	1.56e+00	0	45	0	0	60	1048575
2026-01-18 10:33:04.38	209.39	0.33	-85.2	-88.6	2.9	1.56e+00	0	46	104	0	60	1048573
2026-01-18 10:33:08.41	209.65	0.54	-85.2	-88.6	3.0	1.56e+00	0	46	104	0	60	1048575
2026-01-18 10:33:12.43	209.91	0.76	-85.2	-88.6	2.9	1.56e+00	0	46	104	0	60	1048573
2026-01-18 10:33:16.46	210.17	0.97	-85.2	-88.6	3.0	1.56e+00	0	46	104	0	60	1048575
2026-01-18 10:33:20.49	210.44	1.19	-85.2	-88.6	2.9	1.56e+00	0	46	104	0	60	1048572
2026-01-18 10:33:24.51	210.71	1.41	-85.2	-88.6	3.2	1.56e+00	0	46	104	0	60	1048574
2026-01-18 10:33:28.53	210.99	1.63	-85.2	-88.6	3.0	1.56e+00	0	46	104	0	60	1048575
2026-01-18 10:33:32.55	211.27	1.85	-85.2	-88.6	3.1	1.56e+00	0	46	104	0	60	1048574
2026-01-18 10:33:36.58	211.55	2.07	-85.2	-88.6	3.1	1.56e+00	0	46	104	0	60	1048575
2026-01-18 10:33:40.61	211.84	2.29	-85.2	-88.6	2.9	1.56e+00	0	46	104	0	60	1048573
2026-01-18 10:33:44.64	212.13	2.52	-85.2	-88.6	3.0	1.56e+00	0	46	104	0	60	1048575
2026-01-18 10:33:48.68	212.42	2.74	-85.2	-88.6	3.1	1.56e+00	0	46	104	0	60	1048574
2026-01-18 10:33:52.70	212.72	2.97	-85.2	-88.6	3.1	1.55e+00	0	47	104	0	60	1048574
2026-01-18 10:33:56.72	213.03	3.20	-85.2	-88.6	3.0	1.56e+00	0	47	104	0	60	1048575
2026-01-18 10:34:00.75	213.33	3.43	-85.2	-88.6	3.1	1.56e+00	0	47	104	0	60	1048574
2026-01-18 10:34:04.78	213.65	3.66	-85.2	-88.6	2.9	1.55e+00	0	47	104	0	60	1048574
2026-01-18 10:34:08.81	213.97	3.89	-85.2	-88.6	2.8	1.56e+00	0	47	104	0	60	1048575
2026-01-18 10:34:12.84	214.29	4.12	-85.2	-88.6	3.1	1.56e+00	0	47	104	0	60	1048573
2026-01-18 10:34:16.86	214.62	4.36	-85.2	-88.6	2.9	1.55e+00	0	47	104	0	60	1048573
2026-01-18 10:34:20.89	214.95	4.59	-85.2	-88.6	2.9	1.56e+00	0	47	104	0	60	1048575
2026-01-18 10:34:24.93	215.29	4.83	-85.2	-88.6	2.8	1.56e+00	0	47	104	0	60	1048575
2026-01-18 10:34:28.95	215.63	5.07	-85.2	-88.6	3.1	1.56e+00	0	47	104	0	60	1048573
2026-01-18 10:34:32.98	215.98	5.31	-85.2	-88.6	3.0	1.56e+00	0	47	104	0	60	1048575
2026-01-18 10:34:37.01	216.33	5.55	-85.2	-88.6	2.8	1.56e+00	0	47	104	0	60	1048575
2026-01-18 10:34:41.04	216.69	5.79	-85.2	-88.6	3.0	1.56e+00	0	47	104	0	60	1048575
2026-01-18 10:34:45.06	217.06	6.04	-85.2	-88.6	3.0	1.56e+00	0	47	104	0	60	1048575
2026-01-18 10:34:49.08	217.43	6.28	-85.2	-88.6	2.7	1.56e+00	0	47	104	0	60	1048574
2026-01-18 10:34:53.12	217.81	6.53	-85.2	-88.6	2.8	1.56e+00	0	47	104	0	60	1048574
2026-01-18 10:34:57.15	218.19	6.78	-85.2	-88.6	2.9	1.55e+00	0	47	104	0	60	1048575
2026-01-18 10:35:01.18	218.58	7.03	-85.2	-88.6	3.0	1.56e+00	0	47	104	0	60	1048575
2026-01-18 10:35:05.21	218.98	7.28	-85.2	-88.6	2.9	1.55e+00	0	47	104	0	60	1048574
2026-01-18 10:35:09.24	219.38	7.53	-85.2	-88.6	2.9	1.56e+00	0	47	104	0	60	1048573
2026-01-18 10:35:13.26	219.79	7.78	-85.2	-88.6	3.1	1.55e+00	0	47	104	0	60	1048573
2026-01-18 10:35:17.30	220.20	8.04	-85.2	-88.6	2.7	1.56e+00	0	47	104	0	60	1048572
2026-01-18 10:35:21.33	220.63	8.29	-85.2	-88.6	3.1	1.55e+00	0	47	104	0	60	1048575
2026-01-18 10:35:25.36	221.06	8.55	-85.2	-88.6	3.0	1.56e+00	0	47	104	0	60	1048574
2026-01-18 10:35:29.39	221.50	8.81	-85.2	-88.6	2.9	1.56e+00	0	47	104	0	60	1048575
2026-01-18 10:35:33.42	221.94	9.07	-85.2	-88.6	3.0	1.55e+00	0	47	104	0	60	1048573
2026-01-18 10:35:37.44	222.39	9.33	-85.2	-88.6	3.1	1.56e+00	0	47	104	0	60	1048574
2026-01-18 10:35:41.48	222.86	9.59	-85.2	-88.6	3.0	1.56e+00	0	47	104	0	60	1048570
2026-01-18 10:35:45.51	223.33	9.85	-85.2	-88.6	3.1	1.55e+00	0	47	104	0	60	1048571
2026-01-18 10:35:49.54	223.80	10.12	-85.2	-88.6	3.0	1.56e+00	0	47	104	0	60	1048574
2026-01-18 10:35:53.57	224.29	10.38	-85.2	-88.6	3.0	1.55e+00	0	47	104	0	60	1048575
2026-01-18 10:35:57.59	224.78	10.65	-85.2	-88.6	3.1	1.56e+00	0	47	104	0	60	1048575
2026-01-18 10:36:01.62	225.29	10.92	-85.2	-88.6	2.8	1.55e+00	0	47	104	0	60	1048575
2026-01-18 10:36:05.66	225.80	11.18	-84.7	-88.6	3.0	1.55e+00	0	47	104	0	60	1048574
2026-01-18 10:36:09.68	226.32	11.45	-85.2	-88.6	3.1	1.56e+00	0	47	104	0	60	1048574
2026-01-18 10:36:13.70	226.85	11.72	-85.2	-88.6	2.8	1.55e+00	0	47	104	0	60	1048575
2026-01-18 10:36:17.73	227.39	11.99	-85.2	-88.6	2.9	1.55e+00	0	47	104	0	60	1048571
2026-01-18 10:36:21.76	227.94	12.26	-85.2	-88.6	3.2	1.56e+00	0	47	104	0	60	1048574
2026-01-18 10:36:25.78	228.50	12.54	-84.7	-88.6	2.8	1.56e+00	0	47	104	0	60	1048573
2026-01-18 10:36:29.80	229.06	12.81	-85.2	-88.6	2.9	1.56e+00	0	47	104	0	60	1048575
2026-01-18 10:36:33.83	229.64	13.08	-85.2	-88.6	2.9	1.55e+00	0	47	104	0	60	1048575
2026-01-18 10:36:37.86	230.23	13.36	-85.2	-88.6	3.0	1.56e+00	0	47	104	0	60	1048575
2026-01-18 10:36:41.87	230.83	13.63	-85.2	-88.6	2.9	1.55e+00	0	47	104	0	60	1048575
2026-01-18 10:36:45.90	231.44	13.90	-85.2	-88.6	3.0	1.56e+00	0	47	104	0	60	1048575
2026-01-18 10:36:49.93	232.07	14.18	-85.2	-88.6	3.1	1.56e+00	0	47	104	0	60	1048575
2026-01-18 10:36:53.96	232.70	14.45	-85.2	-88.6	3.1	1.56e+00	0	47	104	0	60	1048574
2026-01-18 10:36:57.99	233.34	14.72	-85.2	-88.6	3.0	1.56e+00	0	47	104	0	60	1048573
2026-01-18 10:37:02.01	234.00	15.00	-85.2	-88.6	3.0	1.55e+00	0	47	104	0	60	1048570
2026-01-18 10:37:06.04	234.67	15.27	-85.2	-88.6	2.8	1.55e+00	0	47	104	0	60	1048573
2026-01-18 10:37:10.06	235.35	15.54	-85.2	-88.6	2.7	1.56e+00	0	47	104	0	60	1048573
2026-01-18 10:37:14.09	236.04	15.81	-85.2	-88.6	3.2	1.56e+00	0	47	104	0	60	1048572
2026-01-18 10:37:18.12	236.74	16.08	-85.2	-88.6	3.1	1.56e+00	0	47	104	0	60	1048575
2026-01-18 10:37:22.15	237.46	16.35	-85.2	-88.6	3.2	1.56e+00	0	47	104	0	60	1048575
2026-01-18 10:37:26.18	238.19	16.62	-85.2	-88.6	3.0	1.56e+00	0	47	104	0	60	1048574
2026-01-18 10:37:30.21	238.93	16.89	-85.2	-88.6	3.0	1.55e+00	0	47	104	0	60	1048575
2026-01-18 10:37:34.24	239.69	17.15	-85.2	-88.6	3.2	1.56e+00	0	47	104	0	60	1048569
2026-01-18 10:37:38.27	240.46	17.42	-85.2	-88.6	3.1	1.55e+00	0	47	104	0	60	1048573
2026-01-18 10:37:42.30	241.24	17.68	-85.2	-88.6	2.9	1.55e+00	0	47	104	0	60	1048570
2026-01-18 10:37:46.33	242.03	17.94	-85.2	-88.6	3.0	1.56e+00	0	47	104	0	60	1048575
2026-01-18 10:37:50.35	242.84	18.19	-85.2	-88.6	3.2	1.56e+00	0	47	104	0	60	1048575
2026-01-18 10:37:54.38	243.66	18.44	-85.2	-88.6	3.0	1.56e+00	0	47	104	0	60	1048575
2026-01-18 10:37:58.41	244.49	18.69	-85.2	-88.6	3.2	1.56e+00	0	47	104	0	60	1048575
2026-01-18 10:38:02.44	245.34	18.94	-85.2	-88.6	3.0	1.56e+00	0	47	104	0	60	1048574
2026-01-18 10:38:06.48	246.20	19.18	-85.2	-88.6	3.1	1.56e+00	0	47	104	0	60	1048575
2026-01-18 10:38:10.50	247.07	19.42	-85.2	-88.6	3.1	1.55e+00	0	47	104	0	60	1048573
2026-01-18 10:38:14.53	247.96	19.65	-85.2	-88.6	2.9	1.56e+00	0	47	104	0	60	1048575
2026-01-18 10:38:18.56	248.86	19.88	-85.2	-88.6	3.0	1.56e+00	0	47	104	0	60	1048575
2026-01-18 10:38:22.59	249.77	20.11	-85.2	-88.6	2.9	1.56e+00	0	47	104	0	60	1048573
2026-01-18 10:38:26.62	250.70	20.33	-85.2	-88.6	3.0	1.56e+00	0	47	104	0	60	1048575
2026-01-18 10:38:30.65	251.64	20.54	-85.2	-88.6	2.8	1.56e+00	0	47	104	0	60	1048573
2026-01-18 10:38:34.68	252.59	20.75	-85.2	-88.6	3.1	1.55e+00	0	47	104	0	60	1048575
2026-01-18 10:38:38.70	253.55	20.95	-85.2	-88.6	3.1	1.56e+00	0	47	104	0	60	1048574
2026-01-18 10:38:42.73	254.52	21.14	-85.2	-88.6	3.0	1.55e+00	0	47	104	0	60	1048572
2026-01-18 10:38:46.76	255.51	21.33	-85.2	-88.6	3.3	1.56e+00	0	47	104	0	60	1048575
2026-01-18 10:38:50.79	256.51	21.51	-85.2	-88.6	3.0	1.55e+00	0	47	104	0	60	1048575
2026-01-18 10:38:54.82	257.52	21.68	-85.2	-88.6	3.0	1.56e+00	0	47	104	0	60	1048567
2026-01-18 10:38:58.84	258.54	21.85	-85.2	-88.6	2.7	1.56e+00	0	47	104	0	60	1048574
2026-01-18 10:39:02.86	259.57	22.00	-85.2	-88.6	3.0	1.56e+00	0	47	104	0	60	1048575
2026-01-18 10:39:06.88	260.60	22.15	-85.2	-88.6	3.0	1.56e+00	0	47	104	0	60	1048575
2026-01-18 10:39:10.92	261.66	22.29	-85.2	-88.6	3.3	1.56e+00	0	47	104	0	60	1048575
2026-01-18 10:39:14.95	262.72	22.42	-85.2	-88.6	3.1	1.55e+00	0	47	104	0	60	1048575
2026-01-18 10:39:18.97	263.78	22.54	-85.2	-88.6	2.8	1.55e+00	0	47	104	0	60	1048575
2026-01-18 10:39:23.01	264.86	22.65	-85.2	-88.6	3.2	1.56e+00	0	47	104	0	60	1048571
2026-01-18 10:39:27.03	265.94	22.75	-84.7	-88.6	3.0	1.56e+00	0	47	104	0	60	1048574
2026-01-18 10:39:31.05	267.02	22.85	-84.7	-88.6	2.9	1.56e+00	0	47	104	0	60	1048575
2026-01-18 10:39:35.09	268.12	22.93	-85.2	-88.6	2.9	1.56e+00	0	47	104	0	60	1048575
2026-01-18 10:39:39.12	269.22	23.00	-85.2	-88.6	3.1	1.56e+00	0	47	104	0	60	1048574
2026-01-18 10:39:43.15	270.32	23.06	-85.2	-88.6	3.0	1.56e+00	0	47	104	0	60	1048574
2026-01-18 10:39:47.16	271.43	23.11	-85.2	-88.6	2.9	1.56e+00	0	47	104	0	60	1048575
2026-01-18 10:39:51.18	272.53	23.15	-85.2	-88.6	3.0	1.56e+00	0	47	104	0	60	1048569
2026-01-18 10:39:55.21	273.65	23.17	-85.2	-88.6	2.9	1.56e+00	0	47	104	0	60	1048575
2026-01-18 10:39:59.23	274.76	23.19	-85.2	-88.6	2.9	1.56e+00	0	47	104	0	60	1048575
2026-01-18 10:40:03.25	275.87	23.20	-85.2	-88.6	3.0	1.56e+00	0	47	104	0	60	1048571
2026-01-18 10:40:07.28	276.98	23.19	-85.2	-88.6	3.0	1.55e+00	0	47	104	0	60	1048575
2026-01-18 10:40:11.31	278.10	23.17	-85.2	-88.6	3.1	1.56e+00	0	47	104	0	60	1048574
2026-01-18 10:40:15.34	279.21	23.15	-85.2	-88.6	2.9	1.55e+00	0	47	104	0	60	1048572
2026-01-18 10:40:19.36	280.32	23.11	-85.2	-88.6	3.1	1.56e+00	0	47	104	0	60	1048575
2026-01-18 10:40:23.39	281.43	23.06	-85.2	-88.6	3.2	1.56e+00	0	47	104	0	60	1048573
2026-01-18 10:40:27.41	282.53	23.00	-85.2	-88.6	2.9	1.55e+00	0	47	104	0	60	1048575
2026-01-18 10:40:31.44	283.62	22.93	-85.2	-88.6	3.0	1.56e+00	0	47	104	0	60	1048575
2026-01-18 10:40:35.46	284.71	22.85	-85.2	-88.6	3.0	1.55e+00	0	47	104	0	60	1048570
2026-01-18 10:40:39.47	285.80	22.76	-84.3	-88.6	3.1	1.56e+00	0	47	104	0	60	1048573
2026-01-18 10:40:43.50	286.88	22.66	-85.2	-88.6	3.0	1.56e+00	0	47	104	0	60	1048574
2026-01-18 10:40:47.53	287.95	22.55	-85.2	-88.6	2.9	1.56e+00	0	47	104	0	60	1048575
2026-01-18 10:40:51.57	289.02	22.43	-85.2	-88.6	3.0	1.56e+00	0	47	104	0	60	1048574
2026-01-18 10:40:55.59	290.07	22.30	-85.2	-88.6	2.9	1.56e+00	0	47	104	0	60	1048574
2026-01-18 10:40:59.62	291.12	22.16	-83.5	-88.6	3.1	1.55e+00	0	47	104	0	60	1048575
2026-01-18 10:41:03.65	292.16	22.01	-85.2	-88.6	2.9	1.56e+00	0	47	104	0	60	1048574
2026-01-18 10:41:07.68	293.19	21.86	-85.2	-88.6	3.1	1.55e+00	0	47	104	0	60	1048572
2026-01-18 10:41:11.71	294.21	21.69	-85.2	-88.6	3.1	1.56e+00	0	47	104	0	60	1048573
2026-01-18 10:41:15.74	295.21	21.52	-85.2	-88.6	2.8	1.55e+00	0	47	104	0	60	1048574
2026-01-18 10:41:19.77	296.21	21.34	-85.2	-88.6	3.1	1.56e+00	0	47	104	0	60	1048571
2026-01-18 10:41:23.79	297.19	21.16	-85.2	-88.6	3.2	1.56e+00	0	47	104	0	60	1048573
2026-01-18 10:41:27.81	298.16	20.96	-85.2	-88.6	3.2	1.56e+00	0	47	104	0	60	1048573
2026-01-18 10:41:31.84	299.12	20.76	-85.2	-88.6	3.1	1.56e+00	0	47	104	0	60	1048575
2026-01-18 10:41:35.88	300.07	20.56	-85.2	-88.6	3.0	1.56e+00	0	47	104	0	60	1048575
2026-01-18 10:41:39.91	301.01	20.34	-85.2	-88.6	2.9	1.56e+00	0	47	104	0	60	1048573
2026-01-18 10:41:43.93	301.93	20.13	-85.2	-88.6	2.9	1.55e+00	0	47	104	0	60	1048575
2026-01-18 10:41:47.94	302.84	19.91	-85.2	-88.6	3.0	1.56e+00	0	47	104	0	60	1048572
2026-01-18 10:41:51.97	303.73	19.68	-85.2	-88.6	3.1	1.56e+00	0	47	104	0	60	1048573
2026-01-18 10:41:56.00	304.62	19.45	-85.2	-88.6	3.2	1.56e+00	0	47	104	0	60	1048575
2026-01-18 10:42:00.02	305.49	19.21	-85.2	-88.6	3.1	1.56e+00	0	47	104	0	60	1048575
2026-01-18 10:42:04.05	306.34	18.97	-85.2	-88.6	3.1	1.55e+00	0	47	104	0	60	1048575
2026-01-18 10:42:08.08	307.19	18.73	-85.2	-88.6	2.9	1.56e+00	0	47	104	0	60	1048571
2026-01-18 10:42:12.12	308.02	18.48	-85.2	-88.6	3.0	1.56e+00	0	47	104	0	60	1048574
2026-01-18 10:42:16.14	308.84	18.23	-85.2	-88.6	2.8	1.56e+00	0	47	104	0	60	1048574
2026-01-18 10:42:20.17	309.64	17.97	-85.2	-88.6	2.8	1.56e+00	0	47	104	0	60	1048575
2026-01-18 10:42:24.20	310.44	17.72	-85.2	-88.6	2.8	1.56e+00	0	47	104	0	60	1048574
2026-01-18 10:42:28.24	311.22	17.46	-85.2	-88.6	3.1	1.56e+00	0	47	104	0	60	1048575
2026-01-18 10:42:32.27	311.98	17.20	-85.2	-88.6	3.0	1.56e+00	0	47	104	0	60	1048573
2026-01-18 10:42:36.28	312.73	16.93	-85.2	-88.6	3.1	1.55e+00	0	47	104	0	60	1048572
2026-01-18 10:42:40.31	313.47	16.67	-85.2	-88.6	3.1	1.56e+00	0	47	104	0	60	1048575
2026-01-18 10:42:44.34	314.20	16.40	-85.2	-88.6	3.0	1.55e+00	0	47	104	0	60	1048575
2026-01-18 10:42:48.36	314.91	16.14	-85.2	-88.6	3.1	1.56e+00	0	47	104	0	60	1048575
2026-01-18 10:42:52.38	315.61	15.87	-85.2	-88.6	2.9	1.56e+00	0	47	104	0	60	1048573
2026-01-18 10:42:56.41	316.30	15.60	-85.2	-88.6	3.0	1.56e+00	0	47	104	0	60	1048573
2026-01-18 10:43:00.43	316.98	15.33	-85.2	-88.6	3.3	1.56e+00	0	47	104	0	60	1048575
2026-01-18 10:43:04.44	317.65	15.06	-85.2	-88.6	2.8	1.56e+00	0	47	104	0	60	1048573
2026-01-18 10:43:08.47	318.30	14.79	-85.2	-88.6	3.0	1.56e+00	0	47	104	0	60	1048575
2026-01-18 10:43:12.50	318.94	14.52	-85.2	-88.6	3.2	1.56e+00	0	47	104	0	60	1048574
2026-01-18 10:43:16.53	319.58	14.25	-85.2	-88.6	3.0	1.55e+00	0	47	104	0	60	1048575
2026-01-18 10:43:20.56	320.20	13.97	-85.2	-88.6	3.1	1.55e+00	0	47	104	0	60	1048575
2026-01-18 10:43:24.57	320.81	13.70	-85.2	-88.6	3.3	1.56e+00	0	47	104	0	60	1048575
2026-01-18 10:43:28.59	321.40	13.43	-85.2	-88.6	3.1	1.56e+00	0	47	104	0	60	1048575
2026-01-18 10:43:32.62	321.99	13.16	-85.2	-88.6	3.2	1.55e+00	0	47	104	0	60	1048574
2026-01-18 10:43:36.65	322.57	12.89	-85.2	-88.6	3.1	1.55e+00	0	47	104	0	60	1048574
2026-01-18 10:43:40.68	323.14	12.62	-85.2	-88.6	2.8	1.56e+00	0	47	104	0	60	1048575
2026-01-18 10:43:44.71	323.70	12.35	-85.2	-88.6	3.2	1.56e+00	0	47	104	0	60	1048574
2026-01-18 10:43:48.74	324.25	12.08	-85.2	-88.6	3.0	1.55e+00	0	47	104	0	60	1048575
2026-01-18 10:43:52.77	324.79	11.81	-84.7	-88.6	3.1	1.56e+00	0	47	104	0	60	1048573
2026-01-18 10:43:56.79	325.32	11.54	-85.2	-88.6	2.9	1.56e+00	0	47	104	0	60	1048575
2026-01-18 10:44:00.82	325.84	11.28	-85.2	-88.6	2.9	1.56e+00	0	47	104	0	60	1048575
2026-01-18 10:44:04.85	326.35	11.01	-85.2	-88.6	3.2	1.56e+00	0	47	104	0	60	1048575
2026-01-18 10:44:08.89	326.85	10.74	-85.2	-88.6	3.1	1.56e+00	0	47	104	0	60	1048574
2026-01-18 10:44:12.92	327.35	10.48	-85.2	-88.6	3.1	1.56e+00	0	47	104	0	60	1048575
2026-01-18 10:44:16.95	327.83	10.22	-85.2	-88.6	3.0	1.56e+00	0	47	104	0	60	1048575
2026-01-18 10:44:20.98	328.31	9.95	-85.2	-88.6	2.8	1.55e+00	0	47	104	0	60	1048574
2026-01-18 10:44:25.01	328.78	9.69	-85.2	-88.6	3.1	1.56e+00	0	47	104	0	60	1048575
2026-01-18 10:44:29.04	329.24	9.43	-85.2	-88.6	2.8	1.56e+00	0	47	104	0	60	1048573
2026-01-18 10:44:33.06	329.69	9.18	-85.2	-88.6	3.2	1.56e+00	0	47	104	0	60	1048573
2026-01-18 10:44:37.08	330.14	8.92	-85.2	-88.6	3.0	1.56e+00	0	47	104	0	60	1048575
2026-01-18 10:44:41.11	330.58	8.66	-85.2	-88.6	3.0	1.56e+00	0	47	104	0	60	1048573
2026-01-18 10:44:45.14	331.01	8.41	-85.2	-88.6	3.1	1.56e+00	0	47	104	0	60	1048574
2026-01-18 10:44:49.16	331.43	8.15	-85.2	-88.6	2.9	1.55e+00	0	47	104	0	60	1048572
2026-01-18 10:44:53.19	331.85	7.90	-85.2	-88.6	3.0	1.56e+00	0	47	104	0	60	1048575
2026-01-18 10:44:57.22	332.26	7.65	-85.2	-88.6	3.0	1.56e+00	0	47	104	0	60	1048575
2026-01-18 10:45:01.24	332.66	7.40	-85.2	-88.6	3.0	1.56e+00	0	47	104	0	60	1048575
2026-01-18 10:45:05.28	333.06	7.15	-85.2	-88.6	2.9	1.56e+00	0	47	104	0	60	1048574
2026-01-18 10:45:09.31	333.45	6.90	-85.2	-88.6	3.1	1.56e+00	0	47	104	0	60	1048573
2026-01-18 10:45:13.34	333.84	6.66	-85.2	-88.6	3.2	1.55e+00	0	47	104	0	60	1048574
2026-01-18 10:45:17.37	334.22	6.41	-85.2	-88.6	3.2	1.56e+00	0	47	104	0	60	1048573
2026-01-18 10:45:21.40	334.59	6.17	-85.2	-88.6	3.2	1.56e+00	0	47	104	0	60	1048571
2026-01-18 10:45:25.43	334.96	5.93	-85.2	-88.6	2.9	1.56e+00	0	47	104	0	60	1048574
2026-01-18 10:45:29.46	335.32	5.69	-85.2	-88.6	3.0	1.55e+00	0	47	104	0	60	1048575
2026-01-18 10:45:33.48	335.67	5.45	-85.2	-88.6	2.8	1.56e+00	0	47	104	0	60	1048575
2026-01-18 10:45:37.51	336.02	5.21	-85.2	-88.6	3.0	1.56e+00	0	47	104	0	60	1048573
2026-01-18 10:45:41.53	336.37	4.97	-85.2	-88.6	3.0	1.56e+00	0	47	104	0	60	1048574
2026-01-18 10:45:45.57	336.71	4.74	-85.2	-88.6	2.9	1.56e+00	0	47	104	0	60	1048575
2026-01-18 10:45:49.60	337.04	4.50	-85.2	-88.6	2.8	1.55e+00	0	47	104	0	60	1048572
2026-01-18 10:45:53.63	337.37	4.27	-85.2	-88.6	3.2	1.56e+00	0	47	104	0	60	1048574
2026-01-18 10:45:57.65	337.69	4.04	-85.2	-88.6	3.1	1.55e+00	0	47	104	0	60	1048575
2026-01-18 10:46:01.69	338.01	3.81	-84.3	-88.6	3.0	1.55e+00	0	47	104	0	60	1048572
2026-01-18 10:46:05.72	338.33	3.58	-85.2	-88.6	2.9	1.56e+00	0	47	104	0	60	1048573
2026-01-18 10:46:09.74	338.64	3.35	-85.2	-88.6	3.0	1.56e+00	0	47	104	0	60	1048575
2026-01-18 10:46:13.77	338.95	3.13	-85.2	-88.6	2.9	1.56e+00	0	47	104	0	60	1048575
2026-01-18 10:46:17.79	339.25	2.90	-85.2	-88.6	3.1	1.56e+00	0	47	104	0	60	1048575
2026-01-18 10:46:21.82	339.55	2.68	-85.2	-88.6	3.0	1.56e+00	0	47	104	0	60	1048575
2026-01-18 10:46:25.84	339.84	2.45	-85.2	-88.6	3.1	1.56e+00	0	47	104	0	60	1048574
2026-01-18 10:46:29.87	340.13	2.23	-85.2	-88.6	3.0	1.56e+00	0	47	104	0	60	1048573
2026-01-18 10:46:33.90	340.41	2.01	-85.2	-88.6	3.2	1.56e+00	0	47	104	0	60	1048574
2026-01-18 10:46:37.93	340.69	1.79	-85.2	-88.6	2.7	1.55e+00	0	47	104	0	60	1048574
2026-01-18 10:46:41.96	340.97	1.57	-85.2	-88.6	3.1	1.56e+00	0	47	104	0	60	1048573
2026-01-18 10:46:45.98	341.25	1.36	-84.7	-88.6	2.8	1.56e+00	0	47	104	0	60	1048575
2026-01-18 10:46:50.00	341.52	1.14	-85.2	-88.6	3.0	1.56e+00	0	47	104	0	60	1048574
2026-01-18 10:46:54.03	341.78	0.93	-85.2	-88.6	3.3	1.56e+00	0	47	104	0	60	1048575
2026-01-18 10:46:58.05	342.04	0.71	-85.2	-88.6	2.9	1.56e+00	0	47	104	0	60	1048575
2026-01-18 10:47:02.08	342.30	0.50	-85.2	-88.6	3.0	1.55e+00	0	47	104	0	60	1048575
2026-01-18 10:47:06.10	342.56	0.29	-85.2	-88.6	2.8	1.56e+00	0	47	104	0	60	1048573
2026-01-18 10:47:10.13	342.81	0.08	-85.2	-88.6	2.9	1.56e+00	0	47	104	0	60	1048574
2026-01-18 10:47:14.15	343.06	-0.13	-85.2	-88.6	2.9	1.56e+00	0	47	104	0	60	1048574

#Closed at: 2026-01-18 10:47:14
#Recorded file [0 MB]: D:/Data/35015_260118_133300.dat