passes_logs/2026/01/18/R3.2S-Naryan-Mar/R3.2S-Naryan-Mar__20260118_012425_NOAA_21_JPSS-2_rec.log

#Pass ID: 20260118_012425_NOAA 21 (JPSS-2)
#Satellite: NOAA 21 (JPSS-2)
#Configuration: NOAA-21
#almurnet v.1.7.20240730
#Start time: 2026-01-18 01:28:06

#Version: 2.2.20231116
#Station: R3.2S-Naryan-Mar
#Location: 53.008057 lon 67.646978 lat
#TLE: 1 54234U 22150A   26017.26823908  .00000042  00000+0  40962-4 0  9992
#TLE: 2 54234  98.7501 318.1405 0000613 274.2947  85.8159 14.19535194165131

#Time	Az	El	Level	Level2	SNR	BER	BlckErr	Temp	State	Recorded	gain1	gain2
2026-01-18 01:28:06.72	18.71	15.51	-85.2	-88.6	3.8	7.64e-01	0	47	0	0	60	1048573
2026-01-18 01:28:09.73	18.33	15.78	-85.2	-88.8	2.9	1.56e+00	0	47	104	0	60	1048575
2026-01-18 01:28:12.75	17.94	16.04	-85.2	-88.8	2.7	1.56e+00	0	47	104	0	60	1048575
2026-01-18 01:28:15.77	17.54	16.31	-85.2	-88.8	2.6	1.56e+00	0	48	104	0	60	1048575
2026-01-18 01:28:18.80	17.14	16.58	-85.2	-88.8	2.8	1.56e+00	0	48	104	0	60	1048575
2026-01-18 01:28:21.82	16.72	16.86	-85.2	-88.8	2.6	1.56e+00	0	47	104	0	60	1048572
2026-01-18 01:28:24.84	16.30	17.13	-85.2	-88.8	2.6	1.56e+00	0	47	104	0	60	1048572
2026-01-18 01:28:27.86	15.88	17.40	-85.2	-88.8	2.7	1.56e+00	0	47	104	0	60	1048574
2026-01-18 01:28:30.87	15.44	17.68	-85.2	-88.8	2.5	1.56e+00	0	47	104	0	60	1048575
2026-01-18 01:28:33.89	15.00	17.96	-85.2	-88.8	2.8	1.56e+00	0	48	104	0	60	1048573
2026-01-18 01:28:36.91	14.54	18.24	-85.2	-88.8	2.8	1.56e+00	0	48	104	0	60	1048573
2026-01-18 01:28:39.93	14.08	18.52	-85.2	-88.8	2.7	1.56e+00	0	48	104	0	60	1048575
2026-01-18 01:28:42.94	13.61	18.80	-85.2	-88.8	2.9	1.56e+00	0	47	104	0	60	1048573
2026-01-18 01:28:45.96	13.13	19.08	-85.2	-88.8	2.7	1.56e+00	0	47	104	0	60	1048575
2026-01-18 01:28:48.97	12.65	19.36	-85.2	-88.8	2.7	1.56e+00	0	48	104	0	60	1048574
2026-01-18 01:28:52.00	12.15	19.65	-85.2	-88.8	2.9	1.56e+00	0	48	104	0	60	1048575
2026-01-18 01:28:55.02	11.64	19.93	-85.2	-88.8	2.7	1.56e+00	0	47	104	0	60	1048575
2026-01-18 01:28:58.04	11.12	20.22	-85.2	-88.8	2.6	1.56e+00	0	48	104	0	60	1048575
2026-01-18 01:29:01.05	10.60	20.51	-85.2	-88.8	2.8	1.56e+00	0	48	104	0	60	1048575
2026-01-18 01:29:04.07	10.06	20.80	-85.2	-88.8	2.7	1.56e+00	0	48	104	0	60	1048575
2026-01-18 01:29:07.09	9.51	21.08	-85.2	-88.8	2.8	1.56e+00	0	48	104	0	60	1048564
2026-01-18 01:29:10.11	8.95	21.37	-85.2	-88.8	2.8	1.56e+00	0	47	104	0	60	1048574
2026-01-18 01:29:13.12	8.39	21.66	-85.2	-88.8	2.7	1.56e+00	0	47	104	0	60	1048574
2026-01-18 01:29:16.14	7.81	21.95	-85.2	-88.8	2.9	1.56e+00	0	48	104	0	60	1048575
2026-01-18 01:29:19.16	7.21	22.24	-85.2	-88.8	2.8	1.56e+00	0	48	104	0	60	1048575
2026-01-18 01:29:22.18	6.61	22.53	-85.2	-88.8	2.7	1.56e+00	0	47	104	0	60	1048575
2026-01-18 01:29:25.20	6.00	22.82	-84.7	-88.8	2.8	1.56e+00	0	48	104	0	60	1048574
2026-01-18 01:29:28.23	5.37	23.11	-85.2	-88.8	2.7	1.56e+00	0	48	104	0	60	1048575
2026-01-18 01:29:31.25	4.73	23.40	-85.2	-88.8	2.7	1.56e+00	0	48	104	0	60	1048570
2026-01-18 01:29:34.27	4.09	23.68	-85.2	-88.8	2.6	1.56e+00	0	48	104	0	60	1048574
2026-01-18 01:29:37.30	3.42	23.97	-85.2	-88.8	2.8	1.56e+00	0	48	104	0	60	1048575
2026-01-18 01:29:40.32	2.75	24.26	-85.2	-88.8	2.8	1.56e+00	0	47	104	0	60	1048574
2026-01-18 01:29:43.35	2.06	24.54	-85.2	-88.8	3.0	1.56e+00	0	48	104	0	60	1048573
2026-01-18 01:29:46.37	1.36	24.83	-85.2	-88.8	2.6	1.56e+00	0	47	104	0	60	1048575
2026-01-18 01:29:49.39	0.65	25.11	-85.2	-88.8	2.6	1.56e+00	0	47	104	0	60	1048572
2026-01-18 01:29:52.41	359.93	25.39	-85.2	-88.8	2.8	1.56e+00	0	47	104	0	60	1048574
2026-01-18 01:29:55.43	359.19	25.66	-85.2	-88.8	2.7	1.56e+00	0	47	104	0	60	1048573
2026-01-18 01:29:58.46	358.43	25.94	-84.3	-88.8	2.7	1.56e+00	0	47	104	0	60	1048566
2026-01-18 01:30:01.48	357.67	26.21	-85.2	-88.8	2.8	1.56e+00	0	48	104	0	60	1048574
2026-01-18 01:30:04.50	356.89	26.48	-83.9	-88.8	2.9	1.56e+00	0	47	104	0	60	1048574
2026-01-18 01:30:07.52	356.10	26.74	-85.2	-88.8	2.5	1.56e+00	0	47	104	0	60	1048574
2026-01-18 01:30:10.54	355.30	27.00	-85.2	-88.8	2.7	1.56e+00	0	48	104	0	60	1048574
2026-01-18 01:30:13.57	354.48	27.26	-84.3	-88.8	2.7	1.56e+00	0	48	104	0	60	1048575
2026-01-18 01:30:16.59	353.65	27.52	-85.2	-88.8	2.8	1.56e+00	0	48	104	0	60	1048574
2026-01-18 01:30:19.61	352.81	27.76	-85.2	-88.8	2.6	1.56e+00	0	47	104	0	60	1048575
2026-01-18 01:30:22.64	351.95	28.01	-85.2	-88.8	2.8	1.56e+00	0	48	104	0	60	1048575
2026-01-18 01:30:25.66	351.08	28.25	-85.2	-88.8	3.1	1.56e+00	0	48	104	0	60	1048575
2026-01-18 01:30:28.68	350.19	28.48	-85.2	-88.8	2.6	1.56e+00	0	48	104	0	60	1048575
2026-01-18 01:30:31.70	349.30	28.71	-85.2	-88.8	2.6	1.56e+00	0	48	104	0	60	1048575
2026-01-18 01:30:34.73	348.38	28.93	-85.2	-88.8	2.8	1.56e+00	0	48	104	0	60	1048573
2026-01-18 01:30:37.74	347.47	29.15	-85.2	-88.8	2.6	1.56e+00	0	48	104	0	60	1048569
2026-01-18 01:30:40.75	346.54	29.35	-85.2	-88.8	2.8	1.56e+00	0	48	104	0	60	1048574
2026-01-18 01:30:43.77	345.59	29.55	-85.2	-88.8	2.7	1.56e+00	0	47	104	0	60	1048573
2026-01-18 01:30:46.80	344.63	29.75	-84.7	-88.8	2.6	1.56e+00	0	48	104	0	60	1048575
2026-01-18 01:30:49.82	343.66	29.93	-85.2	-88.8	2.8	1.56e+00	0	48	104	0	60	1048573
2026-01-18 01:30:52.83	342.68	30.11	-85.2	-88.8	2.6	1.56e+00	0	48	104	0	60	1048574
2026-01-18 01:30:55.85	341.69	30.28	-85.2	-88.8	2.8	1.56e+00	0	48	104	0	60	1048575
2026-01-18 01:30:58.87	340.69	30.44	-85.2	-88.8	2.7	1.56e+00	0	48	104	0	60	1048575
2026-01-18 01:31:01.89	339.68	30.59	-85.2	-88.8	2.7	1.56e+00	0	48	104	0	60	1048572
2026-01-18 01:31:04.91	338.66	30.73	-85.2	-88.8	2.7	1.56e+00	0	48	104	0	60	1048572
2026-01-18 01:31:07.94	337.63	30.87	-85.2	-88.8	2.8	1.56e+00	0	48	104	0	60	1048575
2026-01-18 01:31:10.96	336.59	30.99	-85.2	-88.8	2.6	1.56e+00	0	48	104	0	60	1048574
2026-01-18 01:31:13.98	335.55	31.10	-85.2	-88.8	2.7	1.56e+00	0	48	104	0	60	1048573
2026-01-18 01:31:17.00	334.49	31.20	-85.2	-88.8	2.7	1.56e+00	0	48	104	0	60	1048574
2026-01-18 01:31:20.02	333.44	31.29	-85.2	-88.8	2.9	1.56e+00	0	47	104	0	60	1048571
2026-01-18 01:31:23.04	332.37	31.37	-85.2	-88.8	2.7	1.56e+00	0	48	104	0	60	1048575
2026-01-18 01:31:26.05	331.31	31.44	-85.2	-88.8	2.6	1.56e+00	0	48	104	0	60	1048573
2026-01-18 01:31:29.07	330.23	31.50	-85.2	-88.8	2.8	1.56e+00	0	48	104	0	60	1048574
2026-01-18 01:31:32.08	329.16	31.54	-85.2	-88.8	2.6	1.56e+00	0	48	104	0	60	1048572
2026-01-18 01:31:35.11	328.08	31.58	-85.2	-88.8	2.6	1.56e+00	0	48	104	0	60	1048573
2026-01-18 01:31:38.12	327.00	31.60	-84.7	-88.8	2.5	1.56e+00	0	48	104	0	60	1048571
2026-01-18 01:31:41.15	325.91	31.61	-85.2	-88.8	2.5	1.56e+00	0	48	104	0	60	1048575
2026-01-18 01:31:44.17	324.83	31.61	-85.2	-88.8	2.8	1.56e+00	0	48	104	0	60	1048573
2026-01-18 01:31:47.19	323.75	31.60	-85.2	-88.8	2.6	1.56e+00	0	48	104	0	60	1048575
2026-01-18 01:31:50.21	322.67	31.58	-85.2	-88.8	2.7	1.56e+00	0	48	104	0	60	1048573
2026-01-18 01:31:53.24	321.58	31.55	-85.2	-88.8	2.8	1.56e+00	0	48	104	0	60	1048572
2026-01-18 01:31:56.26	320.51	31.50	-85.2	-88.8	2.9	1.56e+00	0	48	104	0	60	1048575
2026-01-18 01:31:59.29	319.43	31.44	-85.2	-88.8	2.7	1.56e+00	0	48	104	0	60	1048575
2026-01-18 01:32:02.30	318.36	31.37	-85.2	-88.8	2.8	1.56e+00	0	48	104	0	60	1048575
2026-01-18 01:32:05.32	317.30	31.30	-85.2	-88.8	2.6	1.56e+00	0	48	104	0	60	1048575
2026-01-18 01:32:08.34	316.24	31.20	-85.2	-88.8	2.7	1.56e+00	0	48	104	0	60	1048575
2026-01-18 01:32:11.37	315.18	31.10	-85.2	-88.8	2.6	1.56e+00	0	48	104	0	60	1048572
2026-01-18 01:32:14.39	314.14	30.99	-85.2	-88.8	2.7	1.56e+00	0	48	104	0	60	1048575
2026-01-18 01:32:17.40	313.10	30.87	-85.2	-88.8	2.9	1.56e+00	0	48	104	0	60	1048567
2026-01-18 01:32:20.41	312.08	30.74	-85.2	-88.8	2.8	1.56e+00	0	48	104	0	60	1048575
2026-01-18 01:32:23.43	311.05	30.60	-85.2	-88.8	2.8	1.56e+00	0	48	104	0	60	1048575
2026-01-18 01:32:26.45	310.04	30.45	-85.2	-88.8	2.8	1.56e+00	0	48	104	0	60	1048574
2026-01-18 01:32:29.46	309.04	30.29	-85.2	-88.8	2.9	1.56e+00	0	48	104	0	60	1048574
2026-01-18 01:32:32.48	308.05	30.12	-85.2	-88.8	2.7	1.56e+00	0	48	104	0	60	1048573
2026-01-18 01:32:35.49	307.07	29.94	-85.2	-88.8	2.6	1.56e+00	0	48	104	0	60	1048572
2026-01-18 01:32:38.50	306.10	29.76	-85.2	-88.8	2.6	1.56e+00	0	47	104	0	60	1048575
2026-01-18 01:32:41.52	305.14	29.56	-85.2	-88.8	2.7	1.56e+00	0	48	104	0	60	1048574
2026-01-18 01:32:44.54	304.19	29.36	-85.2	-88.8	2.4	1.56e+00	0	48	104	0	60	1048571
2026-01-18 01:32:47.56	303.26	29.16	-85.2	-88.8	2.6	1.56e+00	0	47	104	0	60	1048575
2026-01-18 01:32:50.58	302.34	28.94	-84.7	-88.8	2.8	1.56e+00	0	48	104	0	60	1048569
2026-01-18 01:32:53.59	301.43	28.72	-85.2	-88.8	2.6	1.56e+00	0	48	104	0	60	1048575
2026-01-18 01:32:56.60	300.53	28.49	-85.2	-88.8	2.6	1.56e+00	0	48	104	0	60	1048575
2026-01-18 01:32:59.61	299.65	28.26	-85.2	-88.8	2.6	1.56e+00	0	48	104	0	60	1048572
2026-01-18 01:33:02.63	298.78	28.02	-85.2	-88.8	2.8	1.56e+00	0	48	104	0	60	1048563
2026-01-18 01:33:05.65	297.92	27.78	-85.2	-88.8	2.6	1.56e+00	0	48	104	0	60	1048569
2026-01-18 01:33:08.66	297.07	27.53	-84.7	-88.8	2.8	1.56e+00	0	48	104	0	60	1048573
2026-01-18 01:33:11.68	296.24	27.27	-85.2	-88.8	2.8	1.56e+00	0	48	104	0	60	1048575
2026-01-18 01:33:14.71	295.42	27.02	-85.2	-88.8	2.8	1.56e+00	0	48	104	0	60	1048567
2026-01-18 01:33:17.73	294.61	26.75	-85.2	-88.8	2.9	1.56e+00	0	48	104	0	60	1048573
2026-01-18 01:33:20.75	293.82	26.49	-85.2	-88.8	3.0	1.56e+00	0	48	104	0	60	1048575
2026-01-18 01:33:23.77	293.04	26.22	-85.2	-88.8	2.9	1.56e+00	0	48	104	0	60	1048575
2026-01-18 01:33:26.78	292.27	25.95	-85.2	-88.8	2.7	1.56e+00	0	48	104	0	60	1048575
2026-01-18 01:33:29.80	291.52	25.67	-85.2	-88.8	2.8	1.56e+00	0	48	104	0	60	1048574
2026-01-18 01:33:32.82	290.78	25.40	-85.2	-88.8	2.8	1.56e+00	0	47	104	0	60	1048574
2026-01-18 01:33:35.84	290.05	25.12	-85.2	-88.8	2.4	1.56e+00	0	48	104	0	60	1048574
2026-01-18 01:33:38.86	289.34	24.84	-85.2	-88.8	2.9	1.56e+00	0	48	104	0	60	1048575
2026-01-18 01:33:41.87	288.64	24.55	-85.2	-88.8	2.7	1.56e+00	0	48	104	0	60	1048575
2026-01-18 01:33:44.89	287.95	24.27	-85.2	-88.8	2.9	1.56e+00	0	48	104	0	60	1048574
2026-01-18 01:33:47.91	287.28	23.98	-85.2	-88.8	3.0	1.56e+00	0	48	104	0	60	1048574
2026-01-18 01:33:50.93	286.61	23.69	-84.7	-88.8	2.8	1.56e+00	0	48	104	0	60	1048572
2026-01-18 01:33:53.96	285.96	23.41	-85.2	-88.8	2.8	1.56e+00	0	48	104	0	60	1048575
2026-01-18 01:33:56.97	285.32	23.12	-85.2	-88.8	2.7	1.56e+00	0	48	104	0	60	1048574
2026-01-18 01:33:59.99	284.69	22.83	-85.2	-88.8	2.8	1.56e+00	0	48	104	0	60	1048573
2026-01-18 01:34:03.01	284.08	22.54	-85.2	-88.8	2.6	1.56e+00	0	48	104	0	60	1048574
2026-01-18 01:34:06.02	283.47	22.25	-85.2	-88.8	3.0	1.56e+00	0	48	104	0	60	1048575
2026-01-18 01:34:09.05	282.88	21.96	-85.2	-88.8	2.7	1.56e+00	0	48	104	0	60	1048575
2026-01-18 01:34:12.06	282.30	21.67	-85.2	-88.8	2.6	1.56e+00	0	48	104	0	60	1048575
2026-01-18 01:34:15.08	281.73	21.38	-84.7	-88.8	2.8	1.56e+00	0	48	104	0	60	1048574
2026-01-18 01:34:18.10	281.16	21.09	-85.2	-88.8	2.5	1.56e+00	0	47	104	0	60	1048574
2026-01-18 01:34:21.12	280.61	20.80	-85.2	-88.8	2.6	1.56e+00	0	47	104	0	60	1048575
2026-01-18 01:34:24.14	280.07	20.51	-85.2	-88.8	2.7	1.56e+00	0	48	104	0	60	1048573
2026-01-18 01:34:27.17	279.54	20.22	-85.2	-88.8	2.7	1.56e+00	0	47	104	0	60	1048575
2026-01-18 01:34:30.19	279.02	19.93	-85.2	-88.8	3.0	1.56e+00	0	48	104	0	60	1048574
2026-01-18 01:34:33.20	278.51	19.65	-85.2	-88.8	3.0	1.56e+00	0	48	104	0	60	1048574
2026-01-18 01:34:36.22	278.01	19.36	-85.2	-88.8	2.5	1.56e+00	0	48	104	0	60	1048575
2026-01-18 01:34:39.24	277.52	19.08	-85.2	-88.8	2.5	1.56e+00	0	48	104	0	60	1048574
2026-01-18 01:34:42.26	277.04	18.79	-85.2	-88.8	2.7	1.56e+00	0	48	104	0	60	1048573
2026-01-18 01:34:45.29	276.57	18.51	-85.2	-88.8	2.7	1.56e+00	0	48	104	0	60	1048575
2026-01-18 01:34:48.30	276.10	18.23	-85.2	-88.8	2.7	1.56e+00	0	48	104	0	60	1048573
2026-01-18 01:34:51.32	275.65	17.95	-85.2	-88.8	2.8	1.56e+00	0	48	104	0	60	1048573
2026-01-18 01:34:54.34	275.20	17.67	-84.7	-88.8	2.8	1.56e+00	0	48	104	0	60	1048572
2026-01-18 01:34:57.35	274.77	17.40	-85.2	-88.8	2.8	1.56e+00	0	48	104	0	60	1048574
2026-01-18 01:35:00.38	274.33	17.12	-84.3	-88.8	2.7	1.56e+00	0	48	104	0	60	1048571
2026-01-18 01:35:03.40	273.91	16.85	-85.2	-88.8	2.7	1.56e+00	0	48	104	0	60	1048574
2026-01-18 01:35:06.42	273.50	16.57	-85.2	-88.8	2.5	1.56e+00	0	48	104	0	60	1048575
2026-01-18 01:35:09.44	273.09	16.30	-84.7	-88.8	2.8	1.56e+00	0	48	104	0	60	1048575
2026-01-18 01:35:12.47	272.69	16.03	-85.2	-88.8	2.7	1.56e+00	0	48	104	0	60	1048571
2026-01-18 01:35:15.49	272.29	15.76	-85.2	-88.8	2.8	1.56e+00	0	48	104	0	60	1048575
2026-01-18 01:35:18.51	271.91	15.49	-85.2	-88.8	2.8	1.56e+00	0	48	104	0	60	1048573
2026-01-18 01:35:21.53	271.53	15.23	-85.2	-88.8	2.6	1.56e+00	0	48	104	0	60	1048570
2026-01-18 01:35:24.55	271.16	14.97	-84.3	-88.8	2.7	1.56e+00	0	47	104	0	60	1048575
2026-01-18 01:35:27.57	270.79	14.70	-85.2	-88.8	2.8	1.56e+00	0	48	104	0	60	1048569
2026-01-18 01:35:30.58	270.44	14.44	-85.2	-88.8	2.7	1.56e+00	0	48	104	0	60	1048573
2026-01-18 01:35:33.60	270.08	14.19	-85.2	-88.8	2.9	1.56e+00	0	48	104	0	60	1048575
2026-01-18 01:35:36.62	269.74	13.93	-85.2	-88.8	2.6	1.56e+00	0	48	104	0	60	1048575
2026-01-18 01:35:39.64	269.40	13.67	-85.2	-88.8	2.7	1.56e+00	0	48	104	0	60	1048574
2026-01-18 01:35:42.65	269.06	13.42	-85.2	-88.8	2.9	1.56e+00	0	47	104	0	60	1048575
2026-01-18 01:35:45.68	268.73	13.17	-85.2	-88.8	2.6	1.56e+00	0	48	104	0	60	1048574
2026-01-18 01:35:48.70	268.41	12.92	-85.2	-88.8	2.4	1.56e+00	0	48	104	0	60	1048573
2026-01-18 01:35:51.72	268.09	12.67	-85.2	-88.8	2.8	1.56e+00	0	48	104	0	60	1048575
2026-01-18 01:35:54.75	267.78	12.42	-85.2	-88.8	2.6	1.56e+00	0	48	104	0	60	1048574
2026-01-18 01:35:57.77	267.48	12.17	-85.2	-88.8	2.6	1.56e+00	0	47	104	0	60	1048573
2026-01-18 01:36:00.79	267.17	11.93	-85.2	-88.8	2.4	1.56e+00	0	48	104	0	60	1048575
2026-01-18 01:36:03.81	266.88	11.69	-84.3	-88.8	2.6	1.56e+00	0	47	104	0	60	1048575
2026-01-18 01:36:06.83	266.59	11.45	-85.2	-88.8	2.7	1.56e+00	0	48	104	0	60	1048568
2026-01-18 01:36:09.85	266.30	11.21	-85.2	-88.8	2.6	1.56e+00	0	48	104	0	60	1048575
2026-01-18 01:36:12.87	266.02	10.97	-85.2	-88.8	2.6	1.56e+00	0	48	104	0	60	1048575
2026-01-18 01:36:15.88	265.74	10.74	-85.2	-88.8	2.6	1.56e+00	0	48	104	0	60	1048574
2026-01-18 01:36:18.91	265.47	10.50	-85.2	-88.8	2.7	1.56e+00	0	48	104	0	60	1048574
2026-01-18 01:36:21.93	265.20	10.27	-85.2	-88.8	2.7	1.56e+00	0	47	104	0	60	1048575
2026-01-18 01:36:24.96	264.94	10.04	-85.2	-88.8	2.8	1.56e+00	0	47	104	0	60	1048575
2026-01-18 01:36:27.97	264.68	9.81	-85.2	-88.8	2.6	1.56e+00	0	48	104	0	60	1048575
2026-01-18 01:36:30.99	264.42	9.58	-85.2	-88.8	2.8	1.56e+00	0	48	104	0	60	1048573
2026-01-18 01:36:34.01	264.17	9.35	-85.2	-88.8	2.7	1.56e+00	0	47	104	0	60	1048575
2026-01-18 01:36:37.04	263.92	9.13	-85.2	-88.8	2.6	1.56e+00	0	47	104	0	60	1048575
2026-01-18 01:36:40.06	263.68	8.90	-85.2	-88.8	2.6	1.56e+00	0	47	104	0	60	1048568
2026-01-18 01:36:43.09	263.44	8.68	-85.2	-88.8	2.7	1.56e+00	0	48	104	0	60	1048575
2026-01-18 01:36:46.10	263.21	8.46	-85.2	-88.8	2.7	1.56e+00	0	48	104	0	60	1048571
2026-01-18 01:36:49.13	262.97	8.24	-85.2	-88.8	2.8	1.56e+00	0	48	104	0	60	1048574
2026-01-18 01:36:52.15	262.75	8.02	-85.2	-88.8	2.7	1.56e+00	0	47	104	0	60	1048575
2026-01-18 01:36:55.17	262.52	7.81	-85.2	-88.8	2.6	1.56e+00	0	48	104	0	60	1048569
2026-01-18 01:36:58.20	262.30	7.59	-85.2	-88.8	2.7	1.56e+00	0	47	104	0	60	1048573
2026-01-18 01:37:01.22	262.08	7.38	-85.2	-88.8	2.6	1.56e+00	0	47	104	0	60	1048574
2026-01-18 01:37:04.23	261.87	7.17	-85.2	-88.8	2.8	1.56e+00	0	47	104	0	60	1048568
2026-01-18 01:37:07.25	261.65	6.96	-85.2	-88.8	2.6	1.56e+00	0	48	104	0	60	1048573
2026-01-18 01:37:10.27	261.45	6.75	-85.2	-88.8	2.7	1.56e+00	0	48	104	0	60	1048571
2026-01-18 01:37:13.30	261.24	6.54	-85.2	-88.8	2.7	1.56e+00	0	48	104	0	60	1048575
2026-01-18 01:37:16.32	261.04	6.33	-85.2	-88.8	2.5	1.56e+00	0	47	104	0	60	1048568
2026-01-18 01:37:19.34	260.84	6.13	-85.2	-88.8	2.7	1.56e+00	0	48	104	0	60	1048575
2026-01-18 01:37:22.36	260.64	5.92	-85.2	-88.8	2.8	1.56e+00	0	48	104	0	60	1048575
2026-01-18 01:37:25.37	260.45	5.72	-85.2	-88.8	2.9	1.56e+00	0	47	104	0	60	1048575
2026-01-18 01:37:28.39	260.26	5.52	-85.2	-88.8	2.8	1.56e+00	0	48	104	0	60	1048573
2026-01-18 01:37:31.42	260.07	5.32	-85.2	-88.8	2.9	1.56e+00	0	48	104	0	60	1048575
2026-01-18 01:37:34.44	259.88	5.12	-85.2	-88.8	2.9	1.56e+00	0	47	104	0	60	1048574
2026-01-18 01:37:37.46	259.70	4.92	-85.2	-88.8	2.7	1.56e+00	0	47	104	0	60	1048575
2026-01-18 01:37:40.48	259.52	4.72	-85.2	-88.8	2.7	1.56e+00	0	47	104	0	60	1048575
2026-01-18 01:37:43.50	259.34	4.53	-85.2	-88.8	2.7	1.56e+00	0	48	104	0	60	1048573
2026-01-18 01:37:46.52	259.17	4.33	-85.2	-88.8	2.6	1.56e+00	0	48	104	0	60	1048575
2026-01-18 01:37:49.55	259.00	4.14	-85.2	-88.8	2.7	1.56e+00	0	48	104	0	60	1048575
2026-01-18 01:37:52.57	258.83	3.95	-85.2	-88.8	2.6	1.56e+00	0	48	104	0	60	1048574
2026-01-18 01:37:55.59	258.66	3.75	-85.2	-88.8	2.7	1.56e+00	0	48	104	0	60	1048572
2026-01-18 01:37:58.60	258.49	3.56	-85.2	-88.8	2.8	1.56e+00	0	48	104	0	60	1048575
2026-01-18 01:38:01.63	258.33	3.37	-85.2	-88.8	2.7	1.56e+00	0	48	104	0	60	1048575
2026-01-18 01:38:04.65	258.17	3.19	-85.2	-88.8	2.7	1.56e+00	0	47	104	0	60	1048575
2026-01-18 01:38:07.68	258.01	3.00	-85.2	-88.8	2.6	1.56e+00	0	48	104	0	60	1048572
2026-01-18 01:38:10.69	257.85	2.81	-85.2	-88.8	2.7	1.56e+00	0	48	104	0	60	1048575
2026-01-18 01:38:13.71	257.70	2.63	-85.2	-88.8	2.8	1.56e+00	0	47	104	0	60	1048574
2026-01-18 01:38:16.73	257.54	2.45	-85.2	-88.8	2.6	1.56e+00	0	47	104	0	60	1048575
2026-01-18 01:38:19.76	257.39	2.26	-85.2	-88.8	2.8	1.56e+00	0	48	104	0	60	1048571
2026-01-18 01:38:22.78	257.24	2.08	-85.2	-88.8	2.9	1.56e+00	0	48	104	0	60	1048573
2026-01-18 01:38:25.79	257.10	1.90	-85.2	-88.8	2.6	1.56e+00	0	48	104	0	60	1048571
2026-01-18 01:38:28.80	256.95	1.72	-85.2	-88.8	2.9	1.56e+00	0	47	104	0	60	1048572
2026-01-18 01:38:31.82	256.81	1.54	-85.2	-88.8	2.8	1.56e+00	0	47	104	0	60	1048571
2026-01-18 01:38:34.84	256.67	1.36	-85.2	-88.8	2.7	1.56e+00	0	48	104	0	60	1048573
2026-01-18 01:38:37.86	256.53	1.19	-85.2	-88.8	2.8	1.56e+00	0	48	104	0	60	1048575
2026-01-18 01:38:40.87	256.39	1.01	-85.2	-88.8	2.7	1.56e+00	0	48	104	0	60	1048565
2026-01-18 01:38:43.90	256.25	0.83	-85.2	-88.8	2.8	1.56e+00	0	48	104	0	60	1048575
2026-01-18 01:38:46.92	256.12	0.66	-85.2	-88.8	2.8	1.56e+00	0	48	104	0	60	1048574
2026-01-18 01:38:49.94	255.99	0.49	-85.2	-88.8	2.7	1.56e+00	0	48	104	0	60	1048575
2026-01-18 01:38:52.97	255.85	0.31	-85.2	-88.8	2.8	1.56e+00	0	48	104	0	60	1048574
2026-01-18 01:38:55.99	255.73	0.14	-84.7	-88.8	2.7	1.56e+00	0	48	104	0	60	1048575
2026-01-18 01:38:59.00	255.60	-0.03	-85.2	-88.8	2.7	1.56e+00	0	48	104	0	60	1048575

#Closed at: 2026-01-18 01:39:00
#Recorded file [0 MB]: D:/Data/35015_260118_042806.dat