passes_logs/2026/01/18/R3.2S-Naryan-Mar/R3.2S-Naryan-Mar__20260118_041243_AQUA_rec.log

#Pass ID: 20260118_041243_AQUA
#Satellite: AQUA
#Configuration: AQUA
#almurnet v.1.7.20240730
#Start time: 2026-01-18 04:12:45

#Version: 2.2.20231116
#Station: R3.2S-Naryan-Mar
#Location: 53.008057 lon 67.646978 lat
#TLE: 1 27424U 02022A   26017.29152041  .00000842  00000+0  17841-3 0  9992
#TLE: 2 27424  98.4085 343.7574 0002011  75.4099  30.6811 14.61825797261228

#Time	Az	El	Level	Level2	SNR	BER	BlckErr	Temp	State	Recorded	gain1	gain2
2026-01-18 04:12:45.26	41.12	0.09	-85.2	-88.6	4.7	1.56e+00	0	45	0	0	60	1048575
2026-01-18 04:12:48.28	40.91	0.25	-84.3	-88.8	2.3	3.12e+01	0	46	104	0	60	1048575
2026-01-18 04:12:51.30	40.70	0.41	-84.3	-88.8	2.3	3.12e+01	0	46	104	0	60	1048575
2026-01-18 04:12:54.33	40.48	0.58	-83.9	-88.8	2.2	3.12e+01	0	46	104	0	60	1048575
2026-01-18 04:12:57.33	40.26	0.74	-84.3	-88.8	2.3	3.12e+01	0	46	104	0	60	1048575
2026-01-18 04:13:00.35	40.04	0.90	-84.3	-88.8	2.3	3.12e+01	0	46	104	0	60	1048575
2026-01-18 04:13:03.37	39.82	1.07	-83.9	-88.8	2.1	3.12e+01	0	46	104	0	60	1048575
2026-01-18 04:13:06.39	39.59	1.24	-84.3	-88.8	2.6	3.12e+01	0	46	104	0	60	1048575
2026-01-18 04:13:09.41	39.36	1.40	-83.9	-88.8	2.4	3.12e+01	0	46	104	0	60	1048575
2026-01-18 04:13:12.43	39.12	1.57	-84.3	-88.8	2.2	3.12e+01	0	46	104	0	60	1048575
2026-01-18 04:13:15.45	38.89	1.74	-84.3	-88.8	2.2	3.12e+01	0	46	104	0	60	1048575
2026-01-18 04:13:18.48	38.65	1.91	-83.9	-88.8	2.6	3.12e+01	0	46	104	0	60	1048575
2026-01-18 04:13:21.50	38.40	2.08	-84.3	-88.8	2.2	3.12e+01	0	46	104	0	60	1048575
2026-01-18 04:13:24.51	38.16	2.25	-84.3	-88.8	2.2	3.12e+01	0	46	104	0	60	1048575
2026-01-18 04:13:27.53	37.91	2.42	-83.9	-88.8	2.4	3.12e+01	0	46	104	0	60	1048575
2026-01-18 04:13:30.53	37.66	2.59	-84.3	-88.8	2.1	3.12e+01	0	46	104	0	60	1048575
2026-01-18 04:13:33.56	37.40	2.76	-83.9	-88.8	2.3	3.12e+01	0	46	104	0	60	1048575
2026-01-18 04:13:36.58	37.14	2.94	-84.3	-88.8	2.2	3.12e+01	0	47	104	0	60	1048575
2026-01-18 04:13:39.60	36.88	3.11	-84.3	-88.8	2.2	3.12e+01	0	46	104	0	60	1048575
2026-01-18 04:13:42.62	36.61	3.29	-83.9	-88.8	2.2	3.12e+01	0	47	104	0	60	1048575
2026-01-18 04:13:45.64	36.34	3.46	-84.3	-88.8	2.4	3.12e+01	0	47	104	0	60	1048575
2026-01-18 04:13:48.66	36.07	3.64	-84.3	-88.8	2.5	3.12e+01	0	47	104	0	60	1048575
2026-01-18 04:13:51.68	35.79	3.81	-83.9	-88.8	2.3	3.12e+01	0	47	104	0	60	1048575
2026-01-18 04:13:54.71	35.50	3.99	-84.3	-88.8	2.1	3.12e+01	0	47	104	0	60	1048575
2026-01-18 04:13:57.73	35.22	4.17	-84.3	-88.8	2.2	3.12e+01	0	47	104	0	60	1048575
2026-01-18 04:14:00.74	34.93	4.35	-83.9	-88.8	2.1	3.12e+01	0	47	104	0	60	1048575
2026-01-18 04:14:03.75	34.64	4.53	-83.9	-88.8	2.0	3.12e+01	0	47	104	0	60	1048575
2026-01-18 04:14:06.77	34.34	4.71	-84.3	-88.8	2.2	3.12e+01	0	47	104	0	60	1048575
2026-01-18 04:14:09.80	34.04	4.89	-84.3	-88.8	2.6	3.12e+01	0	47	104	0	60	1048575
2026-01-18 04:14:12.82	33.73	5.07	-84.3	-88.8	2.2	3.12e+01	0	47	104	0	60	1048575
2026-01-18 04:14:15.84	33.42	5.25	-83.9	-88.8	2.4	3.12e+01	0	47	104	0	60	1048575
2026-01-18 04:14:18.86	33.10	5.43	-84.3	-88.8	2.0	3.12e+01	0	47	104	0	60	1048575
2026-01-18 04:14:21.89	32.78	5.61	-84.3	-88.8	2.1	3.12e+01	0	47	104	0	60	1048575
2026-01-18 04:14:24.90	32.46	5.80	-83.9	-88.8	2.4	3.12e+01	0	47	104	0	60	1048575
2026-01-18 04:14:27.92	32.13	5.98	-84.3	-88.8	2.3	3.12e+01	0	47	104	0	60	1048575
2026-01-18 04:14:30.93	31.80	6.17	-84.3	-88.8	2.2	3.12e+01	0	47	104	0	60	1048575
2026-01-18 04:14:33.95	31.46	6.35	-83.9	-88.8	2.2	3.12e+01	0	47	104	0	60	1048575
2026-01-18 04:14:36.97	31.12	6.54	-84.3	-88.8	2.4	3.12e+01	0	47	104	0	60	1048575
2026-01-18 04:14:40.00	30.77	6.72	-84.3	-88.8	2.1	3.12e+01	0	47	104	0	60	1048575
2026-01-18 04:14:43.02	30.42	6.91	-83.9	-88.8	2.2	3.12e+01	0	47	104	0	60	1048575
2026-01-18 04:14:46.03	30.06	7.10	-84.3	-88.8	2.4	3.12e+01	0	47	104	0	60	1048575
2026-01-18 04:14:49.05	29.70	7.29	-83.9	-88.8	2.0	3.12e+01	0	47	104	0	60	1048575
2026-01-18 04:14:52.07	29.33	7.48	-84.3	-88.8	2.0	3.12e+01	0	47	104	0	60	1048575
2026-01-18 04:14:55.09	28.95	7.66	-84.3	-88.8	2.0	3.12e+01	0	47	104	0	60	1048575
2026-01-18 04:14:58.12	28.57	7.85	-83.9	-88.8	2.6	3.12e+01	0	47	104	0	60	1048575
2026-01-18 04:15:01.13	28.19	8.04	-84.3	-88.8	2.0	3.12e+01	0	47	104	0	60	1048575
2026-01-18 04:15:04.15	27.80	8.23	-84.3	-88.8	2.2	3.12e+01	0	47	104	0	60	1048575
2026-01-18 04:15:07.17	27.40	8.42	-84.3	-88.8	2.3	3.12e+01	0	47	104	0	60	1048575
2026-01-18 04:15:10.19	27.00	8.62	-84.3	-88.8	2.6	3.12e+01	0	47	104	0	60	1048575
2026-01-18 04:15:13.21	26.59	8.81	-83.9	-88.8	1.9	3.12e+01	0	47	104	0	60	1048575
2026-01-18 04:15:16.24	26.18	9.00	-84.3	-88.8	2.4	3.12e+01	0	47	104	0	60	1048575
2026-01-18 04:15:19.25	25.76	9.19	-84.3	-88.8	2.1	3.12e+01	0	47	104	0	60	1048575
2026-01-18 04:15:22.27	25.33	9.38	-83.9	-88.8	2.5	3.12e+01	0	47	104	0	60	1048575
2026-01-18 04:15:25.30	24.90	9.58	-84.3	-88.8	1.9	3.12e+01	0	47	104	0	60	1048575
2026-01-18 04:15:28.31	24.46	9.77	-84.3	-88.8	2.1	3.12e+01	0	47	104	0	60	1048575
2026-01-18 04:15:31.33	24.02	9.96	-83.9	-88.8	2.2	3.12e+01	0	47	104	0	60	1048575
2026-01-18 04:15:34.35	23.56	10.15	-84.3	-88.8	2.3	3.12e+01	0	47	104	0	60	1048575
2026-01-18 04:15:37.37	23.11	10.35	-84.3	-88.8	2.3	3.12e+01	0	47	104	0	60	1048575
2026-01-18 04:15:40.38	22.64	10.54	-83.9	-88.8	2.2	3.12e+01	0	47	104	0	60	1048575
2026-01-18 04:15:43.41	22.17	10.73	-84.3	-88.8	2.3	3.12e+01	0	47	104	0	60	1048575
2026-01-18 04:15:46.43	21.69	10.92	-84.3	-88.8	2.3	3.12e+01	0	47	104	0	60	1048575
2026-01-18 04:15:49.46	21.20	11.12	-84.3	-88.8	2.3	3.12e+01	0	47	104	0	60	1048575
2026-01-18 04:15:52.48	20.71	11.31	-84.3	-88.8	1.9	3.12e+01	0	47	104	0	60	1048575
2026-01-18 04:15:55.50	20.21	11.50	-83.9	-88.8	2.6	3.12e+01	0	47	104	0	60	1048575
2026-01-18 04:15:58.52	19.70	11.69	-84.3	-88.8	2.2	3.12e+01	0	47	104	0	60	1048575
2026-01-18 04:16:01.54	19.19	11.88	-83.9	-88.8	2.3	3.12e+01	0	47	104	0	60	1048575
2026-01-18 04:16:04.57	18.66	12.07	-83.9	-88.8	2.0	3.12e+01	0	47	104	0	60	1048575
2026-01-18 04:16:07.59	18.14	12.26	-84.3	-88.8	2.5	3.12e+01	0	47	104	0	60	1048575
2026-01-18 04:16:10.61	17.60	12.45	-84.3	-88.8	2.3	3.12e+01	0	47	104	0	60	1048575
2026-01-18 04:16:13.62	17.06	12.64	-83.9	-88.8	2.0	3.12e+01	0	47	104	0	60	1048575
2026-01-18 04:16:16.64	16.50	12.83	-84.3	-88.8	2.2	3.12e+01	0	47	104	0	60	1048575
2026-01-18 04:16:19.67	15.94	13.01	-83.9	-88.8	2.1	3.12e+01	0	47	104	0	60	1048575
2026-01-18 04:16:22.69	15.38	13.20	-84.3	-88.8	2.2	3.12e+01	0	47	104	0	60	1048575
2026-01-18 04:16:25.71	14.80	13.38	-84.3	-88.8	2.0	3.12e+01	0	47	104	0	60	1048575
2026-01-18 04:16:28.72	14.22	13.57	-83.9	-88.8	2.4	3.12e+01	0	47	104	0	60	1048575
2026-01-18 04:16:31.75	13.63	13.75	-84.3	-88.8	2.2	3.12e+01	0	47	104	0	60	1048575
2026-01-18 04:16:34.77	13.03	13.93	-84.3	-88.8	2.1	3.12e+01	0	47	104	0	60	1048575
2026-01-18 04:16:37.80	12.42	14.11	-83.9	-88.8	2.2	3.12e+01	0	47	104	0	60	1048575
2026-01-18 04:16:40.82	11.80	14.29	-84.3	-88.8	2.1	3.12e+01	0	47	104	0	60	1048575
2026-01-18 04:16:43.83	11.18	14.46	-84.3	-88.8	2.4	3.12e+01	0	47	104	0	60	1048575
2026-01-18 04:16:46.84	10.56	14.63	-84.3	-88.8	2.3	3.12e+01	0	47	104	0	60	1048575
2026-01-18 04:16:49.86	9.92	14.80	-84.3	-88.8	2.3	3.12e+01	0	47	104	0	60	1048575
2026-01-18 04:16:52.89	9.27	14.97	-83.9	-88.8	2.0	3.12e+01	0	47	104	0	60	1048575
2026-01-18 04:16:55.90	8.62	15.14	-84.3	-88.8	2.1	3.12e+01	0	47	104	0	60	1048575
2026-01-18 04:16:58.92	7.95	15.31	-83.9	-88.8	2.3	3.12e+01	0	47	104	0	60	1048575
2026-01-18 04:17:01.93	7.29	15.47	-83.9	-88.8	2.5	3.12e+01	0	47	104	0	60	1048575
2026-01-18 04:17:04.95	6.61	15.63	-84.3	-88.8	2.0	3.12e+01	0	47	104	0	60	1048575
2026-01-18 04:17:07.96	5.92	15.78	-84.3	-88.8	2.0	3.12e+01	0	47	104	0	60	1048575
2026-01-18 04:17:10.99	5.23	15.94	-83.9	-88.8	2.2	3.12e+01	0	47	104	0	60	1048575
2026-01-18 04:17:14.01	4.53	16.09	-84.3	-88.8	2.4	3.12e+01	0	47	104	0	60	1048575
2026-01-18 04:17:17.03	3.82	16.24	-84.3	-88.8	2.3	3.12e+01	0	47	104	0	60	1048575
2026-01-18 04:17:20.05	3.10	16.38	-84.3	-88.8	2.0	3.12e+01	0	47	104	0	60	1048575
2026-01-18 04:17:23.06	2.38	16.52	-84.3	-88.8	2.2	3.12e+01	0	47	104	0	60	1048575
2026-01-18 04:17:26.09	1.65	16.66	-83.9	-88.8	2.5	3.12e+01	0	47	104	0	60	1048575
2026-01-18 04:17:29.10	0.91	16.79	-84.3	-88.8	2.1	3.12e+01	0	47	104	0	60	1048575
2026-01-18 04:17:32.13	0.17	16.92	-84.3	-88.8	2.0	3.12e+01	0	47	104	0	60	1048575
2026-01-18 04:17:35.14	359.42	17.05	-83.9	-88.8	2.4	3.12e+01	0	47	104	0	60	1048575
2026-01-18 04:17:38.16	358.66	17.17	-84.3	-88.8	1.8	3.12e+01	0	47	104	0	60	1048575
2026-01-18 04:17:41.19	357.89	17.29	-83.9	-88.8	2.2	3.12e+01	0	47	104	0	60	1048575
2026-01-18 04:17:44.21	357.12	17.40	-83.9	-88.8	2.0	3.12e+01	0	47	104	0	60	1048575
2026-01-18 04:17:47.23	356.34	17.51	-84.3	-88.8	2.7	3.12e+01	0	47	104	0	60	1048575
2026-01-18 04:17:50.25	355.56	17.61	-84.3	-88.8	2.1	3.12e+01	0	47	104	0	60	1048575
2026-01-18 04:17:53.27	354.77	17.71	-84.3	-88.8	2.3	3.12e+01	0	47	104	0	60	1048575
2026-01-18 04:17:56.30	353.97	17.80	-84.3	-88.8	2.0	3.12e+01	0	47	104	0	60	1048575
2026-01-18 04:17:59.32	353.17	17.89	-83.5	-88.8	2.4	3.12e+01	0	47	104	0	60	1048575
2026-01-18 04:18:02.34	352.37	17.97	-84.3	-88.8	2.2	3.12e+01	0	47	104	0	60	1048575
2026-01-18 04:18:05.36	351.56	18.05	-83.9	-88.8	2.2	3.12e+01	0	47	104	0	60	1048575
2026-01-18 04:18:08.38	350.75	18.13	-83.9	-88.8	2.0	3.12e+01	0	47	104	0	60	1048575
2026-01-18 04:18:11.39	349.93	18.19	-84.3	-88.8	2.2	3.12e+01	0	47	104	0	60	1048575
2026-01-18 04:18:14.41	349.11	18.25	-84.3	-88.8	2.2	3.12e+01	0	47	104	0	60	1048575
2026-01-18 04:18:17.43	348.29	18.31	-83.9	-88.8	2.3	3.12e+01	0	47	104	0	60	1048575
2026-01-18 04:18:20.45	347.46	18.36	-84.3	-88.8	2.1	3.12e+01	0	47	104	0	60	1048575
2026-01-18 04:18:23.47	346.63	18.40	-83.9	-88.8	2.0	3.12e+01	0	47	104	0	60	1048575
2026-01-18 04:18:26.49	345.80	18.44	-84.3	-88.8	2.5	3.12e+01	0	47	104	0	60	1048575
2026-01-18 04:18:29.50	344.97	18.48	-84.3	-88.8	2.1	3.12e+01	0	47	104	0	60	1048575
2026-01-18 04:18:32.53	344.13	18.50	-83.9	-88.8	2.0	3.12e+01	0	47	104	0	60	1048575
2026-01-18 04:18:35.55	343.29	18.52	-84.3	-88.8	2.5	3.12e+01	0	47	104	0	60	1048575
2026-01-18 04:18:38.58	342.45	18.54	-83.9	-88.8	2.1	3.12e+01	0	47	104	0	60	1048575
2026-01-18 04:18:41.60	341.61	18.55	-83.9	-88.8	2.1	3.12e+01	0	47	104	0	60	1048575
2026-01-18 04:18:44.62	340.77	18.55	-84.3	-88.8	2.3	3.12e+01	0	47	104	0	60	1048575
2026-01-18 04:18:47.65	339.93	18.54	-84.3	-88.8	2.5	3.12e+01	0	47	104	0	60	1048575
2026-01-18 04:18:50.67	339.09	18.53	-83.9	-88.8	2.1	3.12e+01	0	47	104	0	60	1048575
2026-01-18 04:18:53.69	338.25	18.52	-84.3	-88.8	2.1	3.12e+01	0	47	104	0	60	1048575
2026-01-18 04:18:56.71	337.41	18.50	-83.9	-88.8	2.3	3.12e+01	0	47	104	0	60	1048575
2026-01-18 04:18:59.73	336.58	18.47	-84.3	-88.8	2.3	3.12e+01	0	47	104	0	60	1048575
2026-01-18 04:19:02.75	335.74	18.43	-84.3	-88.8	2.2	3.12e+01	0	47	104	0	60	1048575
2026-01-18 04:19:05.76	334.91	18.39	-83.9	-88.8	2.6	3.12e+01	0	47	104	0	60	1048575
2026-01-18 04:19:08.79	334.08	18.35	-84.3	-88.8	2.2	3.12e+01	0	47	104	0	60	1048575
2026-01-18 04:19:11.81	333.25	18.30	-84.3	-88.8	2.3	3.12e+01	0	47	104	0	60	1048575
2026-01-18 04:19:14.83	332.43	18.24	-83.9	-88.8	2.3	3.12e+01	0	47	104	0	60	1048575
2026-01-18 04:19:17.85	331.61	18.17	-84.3	-88.8	2.1	3.12e+01	0	47	104	0	60	1048575
2026-01-18 04:19:20.88	330.79	18.11	-84.3	-88.8	2.2	3.12e+01	0	47	104	0	60	1048573
2026-01-18 04:19:23.90	329.98	18.03	-84.3	-88.8	2.3	3.12e+01	0	47	104	0	60	1048573
2026-01-18 04:19:26.93	329.17	17.95	-84.3	-88.8	2.4	3.12e+01	0	47	104	0	60	1048573
2026-01-18 04:19:29.94	328.37	17.87	-83.9	-88.8	2.2	3.12e+01	0	47	104	0	60	1048573
2026-01-18 04:19:32.96	327.57	17.78	-84.3	-88.8	2.3	3.12e+01	0	47	104	0	60	1048573
2026-01-18 04:19:35.98	326.78	17.68	-84.3	-88.8	2.4	3.12e+01	0	47	104	0	60	1048573
2026-01-18 04:19:39.00	325.99	17.58	-83.9	-88.8	2.4	3.12e+01	0	47	104	0	60	1048573
2026-01-18 04:19:42.02	325.21	17.48	-84.3	-88.8	2.2	3.12e+01	0	47	104	0	60	1048573
2026-01-18 04:19:45.04	324.43	17.37	-84.3	-88.8	2.1	3.12e+01	0	47	104	0	60	1048573
2026-01-18 04:19:48.06	323.66	17.25	-83.9	-88.8	2.6	3.12e+01	0	47	104	0	60	1048573
2026-01-18 04:19:51.08	322.90	17.14	-84.3	-88.8	2.2	3.12e+01	0	47	104	0	60	1048573
2026-01-18 04:19:54.10	322.14	17.01	-84.3	-88.8	2.2	3.12e+01	0	47	104	0	60	1048573
2026-01-18 04:19:57.13	321.39	16.89	-83.9	-88.8	2.5	3.12e+01	0	47	104	0	60	1048573
2026-01-18 04:20:00.15	320.64	16.76	-84.3	-88.8	2.5	3.12e+01	0	47	104	0	60	1048573
2026-01-18 04:20:03.17	319.91	16.62	-83.5	-88.8	1.9	3.12e+01	0	47	104	0	60	1048573
2026-01-18 04:20:06.19	319.18	16.48	-84.3	-88.8	2.0	3.12e+01	0	47	104	0	60	1048573
2026-01-18 04:20:09.21	318.46	16.34	-84.3	-88.8	2.1	3.12e+01	0	47	104	0	60	1048573
2026-01-18 04:20:12.23	317.74	16.19	-83.9	-88.8	2.5	3.12e+01	0	47	104	0	60	1048573
2026-01-18 04:20:15.26	317.03	16.05	-84.3	-88.8	2.2	3.12e+01	0	47	104	0	60	1048573
2026-01-18 04:20:18.28	316.33	15.89	-84.3	-88.8	2.0	3.12e+01	0	47	104	0	60	1048573
2026-01-18 04:20:21.30	315.64	15.74	-83.9	-88.8	2.3	3.12e+01	0	47	104	0	60	1048573
2026-01-18 04:20:24.33	314.95	15.58	-84.3	-88.8	2.1	3.12e+01	0	47	104	0	60	1048573
2026-01-18 04:20:27.35	314.28	15.42	-84.3	-88.8	2.1	3.12e+01	0	47	104	0	60	1048573
2026-01-18 04:20:30.35	313.61	15.26	-84.3	-88.8	2.3	3.12e+01	0	47	104	0	60	1048573
2026-01-18 04:20:33.38	312.95	15.09	-84.3	-88.8	2.5	3.12e+01	0	47	104	0	60	1048573
2026-01-18 04:20:36.40	312.29	14.92	-83.9	-88.8	2.2	3.12e+01	0	47	104	0	60	1048569
2026-01-18 04:20:39.42	311.65	14.75	-84.3	-88.8	2.1	3.12e+01	0	47	104	0	60	1048575
2026-01-18 04:20:42.44	311.01	14.58	-84.3	-88.8	2.0	3.12e+01	0	47	104	0	60	1048575
2026-01-18 04:20:45.45	310.39	14.41	-83.9	-88.8	2.4	3.12e+01	0	47	104	0	60	1048575
2026-01-18 04:20:48.48	309.76	14.23	-84.3	-88.8	2.0	3.12e+01	0	47	104	0	60	1048575
2026-01-18 04:20:51.49	309.15	14.05	-84.3	-88.8	2.2	3.12e+01	0	47	104	0	60	1048575
2026-01-18 04:20:54.52	308.54	13.87	-83.9	-88.8	2.4	3.12e+01	0	47	104	0	60	1048575
2026-01-18 04:20:57.54	307.95	13.69	-84.3	-88.8	2.1	3.12e+01	0	47	104	0	60	1048575
2026-01-18 04:21:00.56	307.36	13.51	-84.3	-88.8	2.0	3.12e+01	0	47	104	0	60	1048575
2026-01-18 04:21:03.58	306.77	13.33	-84.3	-88.8	2.0	3.12e+01	0	47	104	0	60	1048575
2026-01-18 04:21:06.60	306.20	13.14	-84.3	-88.8	2.2	3.12e+01	0	47	104	0	60	1048575
2026-01-18 04:21:09.62	305.63	12.96	-83.9	-88.8	2.1	3.12e+01	0	47	104	0	60	1048575
2026-01-18 04:21:12.64	305.08	12.77	-84.3	-88.8	2.3	3.12e+01	0	47	104	0	60	1048575
2026-01-18 04:21:15.65	304.53	12.58	-84.3	-88.8	2.0	3.12e+01	0	47	104	0	60	1048575
2026-01-18 04:21:18.67	303.98	12.39	-83.9	-88.8	2.0	3.12e+01	0	47	104	0	60	1048575
2026-01-18 04:21:21.69	303.45	12.20	-84.3	-88.8	2.2	3.12e+01	0	47	104	0	60	1048575
2026-01-18 04:21:24.72	302.92	12.01	-84.3	-88.8	2.2	3.12e+01	0	47	104	0	60	1048575
2026-01-18 04:21:27.74	302.40	11.82	-83.9	-88.8	2.1	3.12e+01	0	47	104	0	60	1048575
2026-01-18 04:21:30.74	301.89	11.63	-83.9	-88.8	2.4	3.12e+01	0	47	104	0	60	1048575
2026-01-18 04:21:33.75	301.38	11.44	-83.9	-88.8	2.3	3.12e+01	0	47	104	0	60	1048575
2026-01-18 04:21:36.77	300.88	11.25	-84.3	-88.8	2.6	3.12e+01	0	47	104	0	60	1048575
2026-01-18 04:21:39.80	300.39	11.06	-84.3	-88.8	2.2	3.12e+01	0	47	104	0	60	1048575
2026-01-18 04:21:42.80	299.91	10.87	-83.9	-88.8	2.1	3.12e+01	0	47	104	0	60	1048575
2026-01-18 04:21:45.82	299.43	10.67	-84.3	-88.8	2.2	3.12e+01	0	47	104	0	60	1048575
2026-01-18 04:21:48.83	298.96	10.48	-83.9	-88.8	2.4	3.12e+01	0	47	104	0	60	1048575
2026-01-18 04:21:51.84	298.50	10.29	-83.9	-88.8	2.6	3.12e+01	0	47	104	0	60	1048575
2026-01-18 04:21:54.86	298.04	10.10	-84.3	-88.8	2.3	3.12e+01	0	47	104	0	60	1048575
2026-01-18 04:21:57.87	297.59	9.90	-84.3	-88.8	2.2	3.12e+01	0	47	104	0	60	1048575
2026-01-18 04:22:00.89	297.15	9.71	-84.3	-88.8	2.4	3.12e+01	0	47	104	0	60	1048575
2026-01-18 04:22:03.91	296.71	9.52	-84.3	-88.8	2.6	3.12e+01	0	47	104	0	60	1048575
2026-01-18 04:22:06.93	296.28	9.32	-83.9	-88.8	2.0	3.12e+01	0	47	104	0	60	1048575
2026-01-18 04:22:09.95	295.85	9.13	-84.3	-88.8	2.5	3.12e+01	0	47	104	0	60	1048575
2026-01-18 04:22:12.98	295.43	8.94	-84.3	-88.8	2.3	3.12e+01	0	47	104	0	60	1048575
2026-01-18 04:22:16.00	295.02	8.75	-83.9	-88.8	2.3	3.12e+01	0	47	104	0	60	1048575
2026-01-18 04:22:19.02	294.61	8.56	-84.3	-88.8	2.1	3.12e+01	0	47	104	0	60	1048575
2026-01-18 04:22:22.05	294.21	8.36	-84.3	-88.8	2.2	3.12e+01	0	47	104	0	60	1048575
2026-01-18 04:22:25.07	293.81	8.17	-83.9	-88.8	2.3	3.12e+01	0	47	104	0	60	1048575
2026-01-18 04:22:28.10	293.42	7.98	-84.3	-88.8	2.5	3.12e+01	0	47	104	0	60	1048575
2026-01-18 04:22:31.12	293.03	7.79	-84.3	-88.8	2.2	3.12e+01	0	47	104	0	60	1048575
2026-01-18 04:22:34.14	292.66	7.60	-84.3	-88.8	2.0	3.12e+01	0	47	104	0	60	1048575
2026-01-18 04:22:37.16	292.28	7.41	-84.3	-88.8	2.5	3.12e+01	0	47	104	0	60	1048575
2026-01-18 04:22:40.18	291.91	7.23	-83.9	-88.8	2.4	3.12e+01	0	47	104	0	60	1048575
2026-01-18 04:22:43.20	291.55	7.04	-84.3	-88.8	2.1	3.12e+01	0	47	104	0	60	1048575
2026-01-18 04:22:46.23	291.19	6.85	-84.3	-88.8	2.1	3.12e+01	0	47	104	0	60	1048575
2026-01-18 04:22:49.25	290.84	6.66	-83.9	-88.8	2.1	3.12e+01	0	47	104	0	60	1048575
2026-01-18 04:22:52.27	290.49	6.47	-84.3	-88.8	2.3	3.12e+01	0	47	104	0	60	1048575
2026-01-18 04:22:55.28	290.15	6.29	-84.3	-88.8	2.3	3.12e+01	0	47	104	0	60	1048575
2026-01-18 04:22:58.29	289.81	6.10	-83.9	-88.8	2.3	3.12e+01	0	47	104	0	60	1048575
2026-01-18 04:23:01.30	289.48	5.92	-84.3	-88.8	2.1	3.12e+01	0	47	104	0	60	1048575
2026-01-18 04:23:04.32	289.15	5.74	-83.9	-88.8	2.4	3.12e+01	0	47	104	0	60	1048575
2026-01-18 04:23:07.33	288.83	5.55	-84.3	-88.8	1.9	3.12e+01	0	47	104	0	60	1048575
2026-01-18 04:23:10.35	288.51	5.37	-84.3	-88.8	2.3	3.12e+01	0	47	104	0	60	1048575
2026-01-18 04:23:13.36	288.20	5.19	-83.5	-88.8	2.0	3.12e+01	0	47	104	0	60	1048575
2026-01-18 04:23:16.38	287.89	5.01	-84.3	-88.8	1.9	3.12e+01	0	47	104	0	60	1048575
2026-01-18 04:23:19.41	287.58	4.83	-84.3	-88.8	2.0	3.12e+01	0	47	104	0	60	1048575
2026-01-18 04:23:22.42	287.28	4.65	-83.9	-88.8	2.3	3.12e+01	0	47	104	0	60	1048575
2026-01-18 04:23:25.44	286.98	4.47	-84.3	-88.8	2.0	3.12e+01	0	47	104	0	60	1048575
2026-01-18 04:23:28.44	286.69	4.29	-84.3	-88.8	1.9	3.12e+01	0	47	104	0	60	1048575
2026-01-18 04:23:31.45	286.40	4.11	-84.3	-88.8	2.3	3.12e+01	0	47	104	0	60	1048575
2026-01-18 04:23:34.48	286.11	3.93	-84.3	-88.8	2.1	3.12e+01	0	47	104	0	60	1048575
2026-01-18 04:23:37.50	285.83	3.75	-83.9	-88.8	2.1	3.12e+01	0	47	104	0	60	1048574
2026-01-18 04:23:40.52	285.56	3.58	-84.3	-88.8	2.1	3.12e+01	0	47	104	0	60	1048574
2026-01-18 04:23:43.54	285.28	3.40	-84.3	-88.8	2.3	3.12e+01	0	47	104	0	60	1048574
2026-01-18 04:23:46.56	285.01	3.23	-83.9	-88.8	2.4	3.12e+01	0	47	104	0	60	1048574
2026-01-18 04:23:49.57	284.74	3.05	-84.3	-88.8	2.3	3.12e+01	0	47	104	0	60	1048574
2026-01-18 04:23:52.60	284.48	2.88	-84.3	-88.8	1.9	3.12e+01	0	47	104	0	60	1048574
2026-01-18 04:23:55.61	284.22	2.71	-83.9	-88.8	2.5	3.12e+01	0	47	104	0	60	1048574
2026-01-18 04:23:58.63	283.96	2.53	-84.3	-88.8	2.1	3.12e+01	0	47	104	0	60	1048574
2026-01-18 04:24:01.64	283.71	2.36	-83.9	-88.8	2.2	3.12e+01	0	47	104	0	60	1048574
2026-01-18 04:24:04.67	283.46	2.19	-84.3	-88.8	2.1	3.12e+01	0	47	104	0	60	1048574
2026-01-18 04:24:07.69	283.22	2.02	-84.3	-88.8	2.2	3.12e+01	0	47	104	0	60	1048574
2026-01-18 04:24:10.72	282.97	1.85	-84.3	-88.8	2.3	3.12e+01	0	47	104	0	60	1048574
2026-01-18 04:24:13.74	282.73	1.68	-84.3	-88.8	2.1	3.12e+01	0	47	104	0	60	1048574
2026-01-18 04:24:16.76	282.49	1.51	-84.3	-88.8	2.2	3.12e+01	0	47	104	0	60	1048574
2026-01-18 04:24:19.78	282.26	1.35	-83.9	-88.8	2.1	3.12e+01	0	47	104	0	60	1048574
2026-01-18 04:24:22.80	282.03	1.18	-84.3	-88.8	2.4	3.12e+01	0	47	104	0	60	1048574
2026-01-18 04:24:25.83	281.80	1.01	-84.3	-88.8	2.2	3.12e+01	0	47	104	0	60	1048574
2026-01-18 04:24:28.83	281.58	0.85	-83.9	-88.8	2.2	3.12e+01	0	47	104	0	60	1048574
2026-01-18 04:24:31.85	281.36	0.68	-84.3	-88.8	1.9	3.12e+01	0	47	104	0	60	1048574
2026-01-18 04:24:34.86	281.14	0.52	-84.3	-88.8	2.2	3.12e+01	0	47	104	0	60	1048574
2026-01-18 04:24:37.89	280.92	0.35	-83.9	-88.8	2.2	3.12e+01	0	47	104	0	60	1048574
2026-01-18 04:24:40.91	280.70	0.19	-84.3	-88.8	2.4	3.12e+01	0	47	104	0	60	1048574
2026-01-18 04:24:43.94	280.49	0.03	-83.9	-88.8	2.0	3.12e+01	0	47	104	0	60	1048574

#Closed at: 2026-01-18 04:24:46
#Recorded file [0 MB]: D:/Data/35015_260118_071245.dat