passes_logs/2026/01/18/R3.2S-Naryan-Mar/R3.2S-Naryan-Mar__20260118_094136_NOAA_21_JPSS-2_rec.log

#Pass ID: 20260118_094136_NOAA 21 (JPSS-2)
#Satellite: NOAA 21 (JPSS-2)
#Configuration: NOAA-21
#almurnet v.1.7.20240730
#Start time: 2026-01-18 09:48:56

#Version: 2.2.20231116
#Station: R3.2S-Naryan-Mar
#Location: 53.008057 lon 67.646978 lat
#TLE: 1 54234U 22150A   26017.26823908  .00000042  00000+0  40962-4 0  9992
#TLE: 2 54234  98.7501 318.1405 0000613 274.2947  85.8159 14.19535194165131

#Time	Az	El	Level	Level2	SNR	BER	BlckErr	Temp	State	Recorded	gain1	gain2
2026-01-18 09:48:56.92	258.72	38.82	-84.7	-88.6	3.2	7.73e-01	0	47	0	0	60	1048570
2026-01-18 09:48:58.93	259.62	38.86	-85.2	-88.8	2.9	1.56e+00	0	48	104	0	60	1048575
2026-01-18 09:49:00.94	260.52	38.90	-85.2	-88.8	2.6	1.56e+00	0	48	104	0	60	1048574
2026-01-18 09:49:02.95	261.42	38.93	-85.2	-88.8	2.8	1.56e+00	0	48	104	0	60	1048574
2026-01-18 09:49:04.96	262.32	38.95	-85.2	-88.8	2.9	1.56e+00	0	48	104	0	60	1048570
2026-01-18 09:49:06.97	263.23	38.96	-85.2	-88.8	2.8	1.56e+00	0	48	104	0	60	1048575
2026-01-18 09:49:08.99	264.14	38.96	-85.2	-88.8	2.8	1.56e+00	0	48	104	0	60	1048571
2026-01-18 09:49:10.99	265.04	38.96	-85.2	-88.8	2.7	1.56e+00	0	48	104	0	60	1048574
2026-01-18 09:49:13.01	265.94	38.95	-85.2	-88.8	2.7	1.56e+00	0	48	104	0	60	1048575
2026-01-18 09:49:15.02	266.85	38.93	-85.2	-88.8	2.9	1.56e+00	0	48	104	0	60	1048574
2026-01-18 09:49:17.03	267.75	38.90	-85.2	-88.8	2.8	1.56e+00	0	48	104	0	60	1048573
2026-01-18 09:49:19.05	268.65	38.86	-85.2	-88.8	2.6	1.56e+00	0	48	104	0	60	1048575
2026-01-18 09:49:21.07	269.55	38.82	-85.2	-88.8	2.7	1.56e+00	0	48	104	0	60	1048575
2026-01-18 09:49:23.09	270.45	38.77	-85.2	-88.8	2.5	1.56e+00	0	48	104	0	60	1048572
2026-01-18 09:49:25.11	271.35	38.71	-85.2	-88.8	2.7	1.56e+00	0	48	104	0	60	1048574
2026-01-18 09:49:27.12	272.24	38.64	-85.2	-88.8	2.5	1.56e+00	0	48	104	0	60	1048572
2026-01-18 09:49:29.13	273.12	38.57	-85.2	-88.8	2.8	1.56e+00	0	48	104	0	60	1048572
2026-01-18 09:49:31.15	274.01	38.49	-85.2	-88.8	2.9	1.56e+00	0	48	104	0	60	1048575
2026-01-18 09:49:33.16	274.88	38.40	-85.2	-88.8	2.8	1.56e+00	0	48	104	0	60	1048571
2026-01-18 09:49:35.17	275.75	38.31	-85.2	-88.8	2.8	1.56e+00	0	48	104	0	60	1048575
2026-01-18 09:49:37.19	276.62	38.20	-85.2	-88.8	2.9	1.56e+00	0	48	104	0	60	1048572
2026-01-18 09:49:39.20	277.48	38.10	-85.2	-88.8	2.7	1.56e+00	0	48	104	0	60	1048574
2026-01-18 09:49:41.22	278.34	37.98	-85.2	-88.8	2.6	1.56e+00	0	48	104	0	60	1048573
2026-01-18 09:49:43.23	279.19	37.86	-85.2	-88.8	2.8	1.56e+00	0	48	104	0	60	1048571
2026-01-18 09:49:45.25	280.03	37.73	-85.2	-88.8	2.7	1.56e+00	0	48	104	0	60	1048573
2026-01-18 09:49:47.27	280.87	37.59	-85.2	-88.8	2.9	1.56e+00	0	48	104	0	60	1048573
2026-01-18 09:49:49.28	281.70	37.45	-85.2	-88.8	2.6	1.56e+00	0	48	104	0	60	1048574
2026-01-18 09:49:51.30	282.53	37.31	-85.2	-88.8	2.7	1.56e+00	0	48	104	0	60	1048575
2026-01-18 09:49:53.31	283.34	37.15	-85.2	-88.8	2.8	1.56e+00	0	48	104	0	60	1048573
2026-01-18 09:49:55.33	284.15	37.00	-85.2	-88.8	2.7	1.56e+00	0	48	104	0	60	1048574
2026-01-18 09:49:57.35	284.95	36.83	-85.2	-88.8	2.7	1.56e+00	0	48	104	0	60	1048573
2026-01-18 09:49:59.37	285.74	36.66	-85.2	-88.8	2.6	1.56e+00	0	48	104	0	60	1048572
2026-01-18 09:50:01.37	286.52	36.49	-85.2	-88.8	2.8	1.56e+00	0	48	104	0	60	1048575
2026-01-18 09:50:03.38	287.29	36.31	-85.2	-88.8	2.8	1.56e+00	0	48	104	0	60	1048575
2026-01-18 09:50:05.40	288.06	36.13	-85.2	-88.8	2.5	1.56e+00	0	48	104	0	60	1048571
2026-01-18 09:50:07.41	288.82	35.94	-84.7	-88.8	2.7	1.56e+00	0	48	104	0	60	1048574
2026-01-18 09:50:09.43	289.57	35.75	-85.2	-88.8	2.9	1.56e+00	0	48	104	0	60	1048573
2026-01-18 09:50:11.45	290.31	35.55	-85.2	-88.8	2.6	1.56e+00	0	48	104	0	60	1048575
2026-01-18 09:50:13.46	291.04	35.35	-85.2	-88.8	2.7	1.56e+00	0	48	104	0	60	1048573
2026-01-18 09:50:15.48	291.77	35.15	-85.2	-88.8	2.7	1.56e+00	0	48	104	0	60	1048575
2026-01-18 09:50:17.49	292.48	34.94	-85.2	-88.8	2.6	1.56e+00	0	48	104	0	60	1048575
2026-01-18 09:50:19.51	293.19	34.73	-85.2	-88.8	2.7	1.56e+00	0	48	104	0	60	1048575
2026-01-18 09:50:21.52	293.88	34.51	-85.2	-88.8	2.7	1.56e+00	0	48	104	0	60	1048574
2026-01-18 09:50:23.54	294.57	34.30	-85.2	-88.8	2.8	1.56e+00	0	48	104	0	60	1048572
2026-01-18 09:50:25.56	295.25	34.08	-85.2	-88.8	2.7	1.56e+00	0	48	104	0	60	1048569
2026-01-18 09:50:27.57	295.92	33.85	-85.2	-88.8	2.7	1.56e+00	0	48	104	0	60	1048570
2026-01-18 09:50:29.59	296.58	33.63	-85.2	-88.8	2.5	1.56e+00	0	48	104	0	60	1048573
2026-01-18 09:50:31.61	297.23	33.40	-85.2	-88.8	2.8	1.56e+00	0	48	104	0	60	1048573
2026-01-18 09:50:33.62	297.87	33.17	-85.2	-88.8	2.7	1.56e+00	0	48	104	0	60	1048573
2026-01-18 09:50:35.64	298.50	32.94	-85.2	-88.8	2.7	1.56e+00	0	48	104	0	60	1048574
2026-01-18 09:50:37.65	299.13	32.70	-85.2	-88.8	2.7	1.56e+00	0	48	104	0	60	1048573
2026-01-18 09:50:39.67	299.74	32.47	-85.2	-88.8	2.7	1.56e+00	0	48	104	0	60	1048575
2026-01-18 09:50:41.68	300.35	32.23	-85.2	-88.8	2.7	1.56e+00	0	48	104	0	60	1048575
2026-01-18 09:50:43.69	300.94	31.99	-85.2	-88.8	2.6	1.56e+00	0	48	104	0	60	1048575
2026-01-18 09:50:45.71	301.53	31.75	-85.2	-88.8	2.8	1.56e+00	0	48	104	0	60	1048574
2026-01-18 09:50:47.72	302.11	31.51	-85.2	-88.8	2.8	1.56e+00	0	48	104	0	60	1048575
2026-01-18 09:50:49.74	302.69	31.27	-85.2	-88.8	2.9	1.56e+00	0	48	104	0	60	1048575
2026-01-18 09:50:51.75	303.25	31.02	-85.2	-88.8	2.8	1.56e+00	0	48	104	0	60	1048575
2026-01-18 09:50:53.76	303.80	30.78	-85.2	-88.8	2.6	1.56e+00	0	48	104	0	60	1048569
2026-01-18 09:50:55.77	304.35	30.54	-85.2	-88.8	2.7	1.56e+00	0	48	104	0	60	1048572
2026-01-18 09:50:57.79	304.89	30.29	-85.2	-88.8	2.7	1.56e+00	0	48	104	0	60	1048575
2026-01-18 09:50:59.80	305.42	30.04	-85.2	-88.8	2.5	1.56e+00	0	48	104	0	60	1048575
2026-01-18 09:51:01.82	305.94	29.80	-85.2	-88.8	2.8	1.56e+00	0	48	104	0	60	1048575
2026-01-18 09:51:03.83	306.46	29.55	-85.2	-88.8	2.8	1.56e+00	0	48	104	0	60	1048574
2026-01-18 09:51:05.84	306.96	29.30	-85.2	-88.8	2.7	1.56e+00	0	48	104	0	60	1048574
2026-01-18 09:51:07.86	307.46	29.05	-84.7	-88.8	2.8	1.56e+00	0	48	104	0	60	1048567
2026-01-18 09:51:09.87	307.96	28.81	-85.2	-88.8	2.7	1.56e+00	0	48	104	0	60	1048573
2026-01-18 09:51:11.89	308.44	28.56	-85.2	-88.8	2.7	1.56e+00	0	48	104	0	60	1048571
2026-01-18 09:51:13.90	308.92	28.31	-85.2	-88.8	2.5	1.56e+00	0	48	104	0	60	1048572
2026-01-18 09:51:15.92	309.39	28.06	-85.2	-88.8	2.7	1.56e+00	0	48	104	0	60	1048574
2026-01-18 09:51:17.93	309.85	27.82	-85.2	-88.8	2.7	1.56e+00	0	48	104	0	60	1048575
2026-01-18 09:51:19.95	310.31	27.57	-85.2	-88.8	2.6	1.56e+00	0	48	104	0	60	1048572
2026-01-18 09:51:21.96	310.76	27.32	-84.3	-88.8	2.5	1.56e+00	0	48	104	0	60	1048575
2026-01-18 09:51:23.98	311.20	27.08	-85.2	-88.8	2.7	1.56e+00	0	48	104	0	60	1048575
2026-01-18 09:51:25.99	311.64	26.83	-85.2	-88.8	3.1	1.56e+00	0	48	104	0	60	1048575
2026-01-18 09:51:28.00	312.07	26.59	-84.7	-88.8	2.9	1.56e+00	0	48	104	0	60	1048573
2026-01-18 09:51:30.01	312.49	26.34	-85.2	-88.8	2.6	1.56e+00	0	48	104	0	60	1048575
2026-01-18 09:51:32.02	312.91	26.10	-85.2	-88.8	2.8	1.56e+00	0	48	104	0	60	1048575
2026-01-18 09:51:34.04	313.32	25.86	-85.2	-88.8	2.9	1.56e+00	0	48	104	0	60	1048575
2026-01-18 09:51:36.05	313.72	25.61	-85.2	-88.8	2.6	1.56e+00	0	48	104	0	60	1048574
2026-01-18 09:51:38.07	314.12	25.37	-85.2	-88.8	2.8	1.56e+00	0	48	104	0	60	1048572
2026-01-18 09:51:40.09	314.52	25.13	-85.2	-88.8	2.9	1.56e+00	0	48	104	0	60	1048574
2026-01-18 09:51:42.10	314.90	24.89	-85.2	-88.8	2.7	1.56e+00	0	48	104	0	60	1048572
2026-01-18 09:51:44.12	315.28	24.65	-85.2	-88.8	2.8	1.56e+00	0	48	104	0	60	1048572
2026-01-18 09:51:46.13	315.66	24.41	-84.7	-88.8	2.7	1.56e+00	0	48	104	0	60	1048574
2026-01-18 09:51:48.14	316.03	24.18	-85.2	-88.8	2.8	1.56e+00	0	48	104	0	60	1048570
2026-01-18 09:51:50.15	316.39	23.94	-85.2	-88.8	2.7	1.56e+00	0	48	104	0	60	1048574
2026-01-18 09:51:52.16	316.75	23.70	-85.2	-88.8	2.5	1.56e+00	0	48	104	0	60	1048575
2026-01-18 09:51:54.18	317.11	23.47	-85.2	-88.8	2.8	1.56e+00	0	48	104	0	60	1048571
2026-01-18 09:51:56.19	317.46	23.24	-83.5	-88.8	2.7	1.56e+00	0	48	104	0	60	1048572
2026-01-18 09:51:58.20	317.80	23.00	-85.2	-88.8	2.7	1.56e+00	0	48	104	0	60	1048574
2026-01-18 09:52:00.21	318.14	22.77	-85.2	-88.8	2.8	1.56e+00	0	48	104	0	60	1048574
2026-01-18 09:52:02.22	318.47	22.54	-85.2	-88.8	2.8	1.56e+00	0	48	104	0	60	1048569
2026-01-18 09:52:04.23	318.80	22.32	-85.2	-88.8	2.8	1.56e+00	0	48	104	0	60	1048574
2026-01-18 09:52:06.24	319.13	22.09	-83.5	-88.8	2.6	1.56e+00	0	48	104	0	60	1048575
2026-01-18 09:52:08.26	319.45	21.86	-85.2	-88.8	2.7	1.56e+00	0	48	104	0	60	1048571
2026-01-18 09:52:10.28	319.76	21.63	-85.2	-88.8	2.7	1.56e+00	0	48	104	0	60	1048575
2026-01-18 09:52:12.29	320.08	21.41	-84.7	-88.8	2.7	1.56e+00	0	48	104	0	60	1048575
2026-01-18 09:52:14.31	320.38	21.19	-85.2	-88.8	2.6	1.56e+00	0	48	104	0	60	1048575
2026-01-18 09:52:16.32	320.69	20.97	-85.2	-88.8	2.8	1.56e+00	0	48	104	0	60	1048574
2026-01-18 09:52:18.33	320.98	20.75	-85.2	-88.8	2.8	1.56e+00	0	48	104	0	60	1048575
2026-01-18 09:52:20.34	321.28	20.53	-85.2	-88.8	2.8	1.56e+00	0	48	104	0	60	1048575
2026-01-18 09:52:22.36	321.57	20.31	-84.7	-88.8	2.8	1.56e+00	0	48	104	0	60	1048573
2026-01-18 09:52:24.37	321.86	20.09	-85.2	-88.8	2.8	1.56e+00	0	48	104	0	60	1048571
2026-01-18 09:52:26.39	322.14	19.87	-84.7	-88.8	2.6	1.56e+00	0	48	104	0	60	1048575
2026-01-18 09:52:28.40	322.42	19.66	-85.2	-88.8	2.8	1.56e+00	0	48	104	0	60	1048575
2026-01-18 09:52:30.42	322.69	19.44	-85.2	-88.8	2.7	1.56e+00	0	48	104	0	60	1048574
2026-01-18 09:52:32.43	322.96	19.23	-84.3	-88.8	2.7	1.56e+00	0	48	104	0	60	1048575
2026-01-18 09:52:34.44	323.23	19.02	-85.2	-88.8	2.7	1.56e+00	0	48	104	0	60	1048575
2026-01-18 09:52:36.45	323.50	18.81	-85.2	-88.8	2.7	1.56e+00	0	48	104	0	60	1048575
2026-01-18 09:52:38.46	323.76	18.60	-85.2	-88.8	2.8	1.56e+00	0	48	104	0	60	1048575
2026-01-18 09:52:40.48	324.02	18.40	-85.2	-88.8	2.7	1.56e+00	0	48	104	0	60	1048575
2026-01-18 09:52:42.50	324.27	18.19	-85.2	-88.8	2.5	1.56e+00	0	48	104	0	60	1048572
2026-01-18 09:52:44.51	324.52	17.98	-85.2	-88.8	2.8	1.56e+00	0	48	104	0	60	1048574
2026-01-18 09:52:46.53	324.77	17.78	-85.2	-88.8	2.7	1.56e+00	0	48	104	0	60	1048573
2026-01-18 09:52:48.54	325.01	17.58	-85.2	-88.8	2.6	1.56e+00	0	48	104	0	60	1048572
2026-01-18 09:52:50.55	325.25	17.38	-85.2	-88.8	2.3	1.56e+00	0	48	104	0	60	1048573
2026-01-18 09:52:52.56	325.49	17.18	-85.2	-88.8	2.6	1.56e+00	0	48	104	0	60	1048573
2026-01-18 09:52:54.57	325.73	16.98	-85.2	-88.8	2.8	1.56e+00	0	48	104	0	60	1048573
2026-01-18 09:52:56.58	325.96	16.78	-85.2	-88.8	2.7	1.56e+00	0	48	104	0	60	1048572
2026-01-18 09:52:58.60	326.19	16.58	-85.2	-88.8	2.8	1.56e+00	0	48	104	0	60	1048575
2026-01-18 09:53:00.61	326.41	16.39	-85.2	-88.8	2.7	1.56e+00	0	48	104	0	60	1048573
2026-01-18 09:53:02.62	326.64	16.19	-85.2	-88.8	2.7	1.56e+00	0	48	104	0	60	1048566
2026-01-18 09:53:04.63	326.86	16.00	-85.2	-88.8	2.9	1.56e+00	0	48	104	0	60	1048575
2026-01-18 09:53:06.63	327.08	15.81	-85.2	-88.8	2.7	1.56e+00	0	48	104	0	60	1048574
2026-01-18 09:53:08.64	327.29	15.62	-85.2	-88.8	2.8	1.56e+00	0	48	104	0	60	1048572
2026-01-18 09:53:10.65	327.50	15.43	-85.2	-88.8	2.8	1.56e+00	0	48	104	0	60	1048574
2026-01-18 09:53:12.66	327.71	15.24	-85.2	-88.8	2.8	1.56e+00	0	48	104	0	60	1048574
2026-01-18 09:53:14.67	327.92	15.05	-85.2	-88.8	2.8	1.56e+00	0	48	104	0	60	1048574
2026-01-18 09:53:16.68	328.13	14.87	-85.2	-88.8	2.7	1.56e+00	0	48	104	0	60	1048575
2026-01-18 09:53:18.70	328.33	14.68	-85.2	-88.8	2.7	1.56e+00	0	48	104	0	60	1048574
2026-01-18 09:53:20.71	328.53	14.50	-85.2	-88.8	2.6	1.56e+00	0	48	104	0	60	1048573
2026-01-18 09:53:22.72	328.73	14.31	-85.2	-88.8	2.8	1.56e+00	0	48	104	0	60	1048575
2026-01-18 09:53:24.72	328.92	14.13	-85.2	-88.8	2.8	1.56e+00	0	48	104	0	60	1048573
2026-01-18 09:53:26.74	329.12	13.95	-85.2	-88.8	2.9	1.56e+00	0	48	104	0	60	1048570
2026-01-18 09:53:28.75	329.31	13.77	-84.7	-88.8	2.9	1.56e+00	0	48	104	0	60	1048575
2026-01-18 09:53:30.76	329.50	13.59	-85.2	-88.8	2.6	1.56e+00	0	48	104	0	60	1048575
2026-01-18 09:53:32.77	329.69	13.41	-84.7	-88.8	2.7	1.56e+00	0	48	104	0	60	1048574
2026-01-18 09:53:34.79	329.87	13.24	-85.2	-88.8	2.7	1.56e+00	0	48	104	0	60	1048575
2026-01-18 09:53:36.80	330.05	13.06	-84.3	-88.8	2.7	1.56e+00	0	48	104	0	60	1048570
2026-01-18 09:53:38.82	330.24	12.89	-85.2	-88.8	2.8	1.56e+00	0	48	104	0	60	1048575
2026-01-18 09:53:40.84	330.42	12.71	-85.2	-88.8	2.7	1.56e+00	0	48	104	0	60	1048575
2026-01-18 09:53:42.85	330.59	12.54	-85.2	-88.8	2.7	1.56e+00	0	48	104	0	60	1048572
2026-01-18 09:53:44.87	330.77	12.37	-85.2	-88.8	2.8	1.56e+00	0	48	104	0	60	1048574
2026-01-18 09:53:46.88	330.94	12.20	-85.2	-88.8	2.6	1.56e+00	0	48	104	0	60	1048575
2026-01-18 09:53:48.90	331.11	12.02	-85.2	-88.8	2.5	1.56e+00	0	48	104	0	60	1048572
2026-01-18 09:53:50.92	331.28	11.86	-85.2	-88.8	2.7	1.56e+00	0	48	104	0	60	1048575
2026-01-18 09:53:52.93	331.45	11.69	-85.2	-88.8	2.7	1.56e+00	0	48	104	0	60	1048573
2026-01-18 09:53:54.94	331.62	11.52	-85.2	-88.8	2.7	1.56e+00	0	48	104	0	60	1048575
2026-01-18 09:53:56.96	331.78	11.35	-85.2	-88.8	2.8	1.56e+00	0	48	104	0	60	1048575
2026-01-18 09:53:58.96	331.94	11.19	-85.2	-88.8	2.8	1.56e+00	0	48	104	0	60	1048573
2026-01-18 09:54:00.98	332.10	11.03	-85.2	-88.8	2.8	1.56e+00	0	48	104	0	60	1048573
2026-01-18 09:54:02.99	332.26	10.86	-85.2	-88.8	2.8	1.56e+00	0	48	104	0	60	1048574
2026-01-18 09:54:05.01	332.42	10.70	-85.2	-88.8	2.5	1.56e+00	0	48	104	0	60	1048575
2026-01-18 09:54:07.03	332.58	10.54	-85.2	-88.8	2.6	1.56e+00	0	48	104	0	60	1048567
2026-01-18 09:54:09.04	332.73	10.38	-85.2	-88.8	2.9	1.56e+00	0	48	104	0	60	1048574
2026-01-18 09:54:11.06	332.88	10.22	-85.2	-88.8	2.7	1.56e+00	0	48	104	0	60	1048572
2026-01-18 09:54:13.07	333.03	10.06	-85.2	-88.8	2.6	1.56e+00	0	48	104	0	60	1048574
2026-01-18 09:54:15.09	333.18	9.90	-85.2	-88.8	2.7	1.56e+00	0	48	104	0	60	1048574
2026-01-18 09:54:17.10	333.33	9.74	-85.2	-88.8	2.8	1.56e+00	0	48	104	0	60	1048574
2026-01-18 09:54:19.12	333.48	9.59	-85.2	-88.8	2.8	1.56e+00	0	48	104	0	60	1048568
2026-01-18 09:54:21.13	333.62	9.43	-85.2	-88.8	2.6	1.56e+00	0	48	104	0	60	1048574
2026-01-18 09:54:23.15	333.77	9.27	-85.2	-88.8	2.8	1.56e+00	0	48	104	0	60	1048571
2026-01-18 09:54:25.16	333.91	9.12	-85.2	-88.8	2.8	1.56e+00	0	48	104	0	60	1048575
2026-01-18 09:54:27.18	334.05	8.97	-85.2	-88.8	2.5	1.56e+00	0	48	104	0	60	1048574
2026-01-18 09:54:29.18	334.19	8.82	-85.2	-88.8	2.7	1.56e+00	0	48	104	0	60	1048573
2026-01-18 09:54:31.20	334.33	8.66	-85.2	-88.8	2.8	1.55e+00	0	48	104	0	60	1048574
2026-01-18 09:54:33.21	334.46	8.51	-85.2	-88.8	2.6	1.56e+00	0	48	104	0	60	1048575
2026-01-18 09:54:35.22	334.60	8.36	-85.2	-88.8	2.7	1.56e+00	0	48	104	0	60	1048575
2026-01-18 09:54:37.24	334.73	8.21	-84.7	-88.8	2.7	1.56e+00	0	48	104	0	60	1048575
2026-01-18 09:54:39.25	334.87	8.07	-85.2	-88.8	2.7	1.56e+00	0	48	104	0	60	1048575
2026-01-18 09:54:41.27	335.00	7.92	-85.2	-88.8	2.7	1.56e+00	0	48	104	0	60	1048568
2026-01-18 09:54:43.28	335.13	7.77	-84.7	-88.8	2.7	1.56e+00	0	48	104	0	60	1048570
2026-01-18 09:54:45.29	335.26	7.62	-85.2	-88.8	2.7	1.56e+00	0	48	104	0	60	1048575
2026-01-18 09:54:47.31	335.39	7.48	-85.2	-88.8	2.5	1.56e+00	0	48	104	0	60	1048575
2026-01-18 09:54:49.32	335.51	7.33	-84.7	-88.8	2.5	1.56e+00	0	48	104	0	60	1048574
2026-01-18 09:54:51.34	335.64	7.19	-85.2	-88.8	2.6	1.56e+00	0	48	104	0	60	1048575
2026-01-18 09:54:53.36	335.76	7.05	-85.2	-88.8	2.6	1.56e+00	0	48	104	0	60	1048574
2026-01-18 09:54:55.37	335.89	6.90	-85.2	-88.8	2.7	1.56e+00	0	48	104	0	60	1048574
2026-01-18 09:54:57.39	336.01	6.76	-85.2	-88.8	2.8	1.56e+00	0	48	104	0	60	1048573
2026-01-18 09:54:59.41	336.13	6.62	-85.2	-88.8	2.7	1.56e+00	0	48	104	0	60	1048573
2026-01-18 09:55:01.42	336.25	6.48	-85.2	-88.8	2.6	1.56e+00	0	48	104	0	60	1048573
2026-01-18 09:55:03.42	336.37	6.34	-85.2	-88.8	2.8	1.56e+00	0	48	104	0	60	1048569
2026-01-18 09:55:05.43	336.49	6.20	-85.2	-88.8	2.8	1.56e+00	0	48	104	0	60	1048573
2026-01-18 09:55:07.44	336.60	6.06	-85.2	-88.8	2.8	1.56e+00	0	48	104	0	60	1048575
2026-01-18 09:55:09.46	336.72	5.92	-85.2	-88.8	2.9	1.56e+00	0	48	104	0	60	1048575
2026-01-18 09:55:11.47	336.84	5.79	-85.2	-88.8	2.8	1.56e+00	0	48	104	0	60	1048574
2026-01-18 09:55:13.49	336.95	5.65	-85.2	-88.8	2.7	1.56e+00	0	48	104	0	60	1048575
2026-01-18 09:55:15.50	337.06	5.51	-85.2	-88.8	2.8	1.56e+00	0	48	104	0	60	1048575
2026-01-18 09:55:17.52	337.17	5.38	-85.2	-88.8	2.6	1.56e+00	0	48	104	0	60	1048572
2026-01-18 09:55:19.52	337.29	5.24	-85.2	-88.8	2.8	1.56e+00	0	48	104	0	60	1048575
2026-01-18 09:55:21.54	337.40	5.11	-85.2	-88.8	2.8	1.56e+00	0	48	104	0	60	1048575
2026-01-18 09:55:23.55	337.51	4.98	-85.2	-88.8	2.6	1.56e+00	0	48	104	0	60	1048575
2026-01-18 09:55:25.57	337.61	4.84	-85.2	-88.8	2.8	1.56e+00	0	48	104	0	60	1048575
2026-01-18 09:55:27.58	337.72	4.71	-85.2	-88.8	2.7	1.56e+00	0	48	104	0	60	1048571
2026-01-18 09:55:29.60	337.83	4.58	-85.2	-88.8	2.8	1.56e+00	0	48	104	0	60	1048573
2026-01-18 09:55:31.62	337.93	4.45	-85.2	-88.8	2.7	1.56e+00	0	48	104	0	60	1048575
2026-01-18 09:55:33.62	338.04	4.32	-85.2	-88.8	2.8	1.56e+00	0	48	104	0	60	1048575
2026-01-18 09:55:35.64	338.14	4.18	-85.2	-88.8	2.7	1.56e+00	0	48	104	0	60	1048565
2026-01-18 09:55:37.65	338.25	4.06	-83.5	-88.8	2.8	1.56e+00	0	48	104	0	60	1048573
2026-01-18 09:55:39.67	338.35	3.93	-85.2	-88.8	2.7	1.56e+00	0	48	104	0	60	1048572
2026-01-18 09:55:41.69	338.45	3.80	-85.2	-88.8	2.8	1.56e+00	0	48	104	0	60	1048573
2026-01-18 09:55:43.71	338.55	3.67	-85.2	-88.8	2.6	1.56e+00	0	48	104	0	60	1048575
2026-01-18 09:55:45.72	338.65	3.54	-85.2	-88.8	2.8	1.56e+00	0	48	104	0	60	1048574
2026-01-18 09:55:47.74	338.75	3.41	-85.2	-88.8	2.8	1.56e+00	0	48	104	0	60	1048574
2026-01-18 09:55:49.76	338.85	3.29	-85.2	-88.8	2.7	1.56e+00	0	48	104	0	60	1048574
2026-01-18 09:55:51.76	338.95	3.16	-85.2	-88.8	2.9	1.56e+00	0	48	104	0	60	1048573
2026-01-18 09:55:53.78	339.04	3.04	-84.7	-88.8	2.7	1.56e+00	0	48	104	0	60	1048573
2026-01-18 09:55:55.79	339.14	2.91	-85.2	-88.8	2.7	1.56e+00	0	48	104	0	60	1048571
2026-01-18 09:55:57.81	339.24	2.79	-85.2	-88.8	2.8	1.56e+00	0	48	104	0	60	1048575
2026-01-18 09:55:59.83	339.33	2.66	-85.2	-88.8	2.7	1.56e+00	0	48	104	0	60	1048572
2026-01-18 09:56:01.84	339.43	2.54	-84.7	-88.8	2.6	1.56e+00	0	48	104	0	60	1048575
2026-01-18 09:56:03.85	339.52	2.42	-85.2	-88.8	2.6	1.56e+00	0	48	104	0	60	1048575
2026-01-18 09:56:05.87	339.61	2.29	-85.2	-88.8	2.9	1.56e+00	0	48	104	0	60	1048573
2026-01-18 09:56:07.88	339.70	2.17	-84.3	-88.8	2.6	1.56e+00	0	48	104	0	60	1048572
2026-01-18 09:56:09.89	339.80	2.05	-85.2	-88.8	2.6	1.56e+00	0	48	104	0	60	1048575
2026-01-18 09:56:11.91	339.89	1.93	-85.2	-88.8	2.8	1.56e+00	0	48	104	0	60	1048574
2026-01-18 09:56:13.92	339.98	1.81	-85.2	-88.8	2.6	1.56e+00	0	48	104	0	60	1048575
2026-01-18 09:56:15.94	340.07	1.69	-85.2	-88.8	2.7	1.56e+00	0	48	104	0	60	1048575
2026-01-18 09:56:17.95	340.15	1.57	-85.2	-88.8	2.7	1.56e+00	0	48	104	0	60	1048574
2026-01-18 09:56:19.97	340.24	1.45	-85.2	-88.8	2.7	1.56e+00	0	48	104	0	60	1048574
2026-01-18 09:56:21.98	340.33	1.33	-85.2	-88.8	2.7	1.56e+00	0	48	104	0	60	1048574
2026-01-18 09:56:24.00	340.42	1.21	-85.2	-88.8	2.6	1.56e+00	0	48	104	0	60	1048575
2026-01-18 09:56:26.01	340.50	1.09	-85.2	-88.8	2.8	1.56e+00	0	48	104	0	60	1048575
2026-01-18 09:56:28.03	340.59	0.98	-85.2	-88.8	2.7	1.56e+00	0	48	104	0	60	1048572
2026-01-18 09:56:30.04	340.67	0.86	-85.2	-88.8	2.6	1.56e+00	0	48	104	0	60	1048573
2026-01-18 09:56:32.06	340.76	0.74	-85.2	-88.8	2.7	1.56e+00	0	48	104	0	60	1048573
2026-01-18 09:56:34.07	340.84	0.63	-85.2	-88.8	2.8	1.56e+00	0	48	104	0	60	1048573
2026-01-18 09:56:36.08	340.93	0.51	-85.2	-88.8	2.5	1.56e+00	0	48	104	0	60	1048574
2026-01-18 09:56:38.10	341.01	0.39	-83.1	-88.8	2.7	1.56e+00	0	48	104	0	60	1048574
2026-01-18 09:56:40.12	341.09	0.28	-85.2	-88.8	2.6	1.56e+00	0	48	104	0	60	1048575
2026-01-18 09:56:42.13	341.17	0.17	-85.2	-88.8	2.6	1.56e+00	0	48	104	0	60	1048575
2026-01-18 09:56:44.15	341.25	0.05	-85.2	-88.8	2.7	1.56e+00	0	48	104	0	60	1048573
2026-01-18 09:56:46.16	341.33	-0.06	-85.2	-88.8	2.6	1.56e+00	0	48	104	0	60	1048575

#Closed at: 2026-01-18 09:56:46
#Recorded file [0 MB]: D:/Data/35015_260118_124856.dat