passes_logs/2026/01/18/R3.2S-Naryan-Mar/R3.2S-Naryan-Mar__20260118_101144_SUOMI_NPP_rec.log

#Pass ID: 20260118_101144_SUOMI NPP
#Satellite: SUOMI NPP
#Configuration: NPP
#almurnet v.1.7.20240730
#Start time: 2026-01-18 10:11:47

#Version: 2.2.20231116
#Station: R3.2S-Naryan-Mar
#Location: 53.008057 lon 67.646978 lat
#TLE: 1 37849U 11061A   26017.28905266  .00000074  00000+0  55894-4 0  9999
#TLE: 2 37849  98.7814 319.3179 0002408  59.7048 300.4366 14.19525847737038

#Time	Az	El	Level	Level2	SNR	BER	BlckErr	Temp	State	Recorded	gain1	gain2
2026-01-18 10:11:47.44	198.08	0.15	-82.8	-79.0	2.5	0.00e+00	0	45	0	0	60	1048575
2026-01-18 10:11:51.47	198.29	0.37	-85.2	-88.6	3.1	1.55e+00	0	46	104	0	60	1048575
2026-01-18 10:11:55.50	198.51	0.60	-85.2	-88.6	3.0	1.56e+00	0	46	104	0	60	1048575
2026-01-18 10:11:59.52	198.72	0.82	-85.2	-88.6	3.0	1.56e+00	0	46	104	0	60	1048575
2026-01-18 10:12:03.55	198.94	1.05	-85.2	-88.6	2.9	1.56e+00	0	46	104	0	60	1048573
2026-01-18 10:12:07.58	199.16	1.28	-85.2	-88.6	3.0	1.56e+00	0	46	104	0	60	1048574
2026-01-18 10:12:11.61	199.38	1.51	-85.2	-88.6	3.1	1.56e+00	0	46	104	0	60	1048571
2026-01-18 10:12:15.64	199.61	1.74	-85.2	-88.6	3.2	1.55e+00	0	47	104	0	60	1048573
2026-01-18 10:12:19.66	199.84	1.98	-85.2	-88.6	3.0	1.56e+00	0	46	104	0	60	1048572
2026-01-18 10:12:23.70	200.08	2.21	-85.2	-88.6	2.8	1.56e+00	0	47	104	0	60	1048574
2026-01-18 10:12:27.73	200.31	2.45	-85.2	-88.6	3.0	1.56e+00	0	47	104	0	60	1048575
2026-01-18 10:12:31.75	200.56	2.69	-85.2	-88.6	3.0	1.56e+00	0	46	104	0	60	1048564
2026-01-18 10:12:35.79	200.80	2.93	-85.2	-88.6	3.0	1.55e+00	0	47	104	0	60	1048575
2026-01-18 10:12:39.81	201.05	3.17	-84.7	-88.6	3.1	1.56e+00	0	47	104	0	60	1048573
2026-01-18 10:12:43.85	201.30	3.42	-85.2	-88.6	3.2	1.56e+00	0	47	104	0	60	1048575
2026-01-18 10:12:47.87	201.56	3.66	-85.2	-88.6	3.1	1.55e+00	0	47	104	0	60	1048575
2026-01-18 10:12:51.89	201.82	3.91	-85.2	-88.6	2.8	1.55e+00	0	47	104	0	60	1048575
2026-01-18 10:12:55.91	202.09	4.16	-85.2	-88.6	2.9	1.55e+00	0	47	104	0	60	1048575
2026-01-18 10:12:59.93	202.35	4.41	-85.2	-88.6	3.1	1.55e+00	0	47	104	0	60	1048574
2026-01-18 10:13:03.95	202.63	4.66	-85.2	-88.6	3.0	1.55e+00	0	47	104	0	60	1048575
2026-01-18 10:13:07.97	202.91	4.92	-85.2	-88.6	2.9	1.55e+00	0	47	104	0	60	1048572
2026-01-18 10:13:12.00	203.19	5.17	-85.2	-88.6	2.9	1.56e+00	0	47	104	0	60	1048575
2026-01-18 10:13:16.02	203.48	5.43	-85.2	-88.6	3.1	1.56e+00	0	47	104	0	60	1048575
2026-01-18 10:13:20.04	203.77	5.69	-85.2	-88.6	3.0	1.56e+00	0	47	104	0	60	1048574
2026-01-18 10:13:24.07	204.07	5.95	-85.2	-88.6	3.2	1.56e+00	0	47	104	0	60	1048574
2026-01-18 10:13:28.09	204.37	6.22	-85.2	-88.6	3.0	1.56e+00	0	47	104	0	60	1048575
2026-01-18 10:13:32.11	204.68	6.48	-85.2	-88.6	2.9	1.56e+00	0	47	104	0	60	1048575
2026-01-18 10:13:36.12	204.99	6.75	-85.2	-88.6	2.9	1.55e+00	0	47	104	0	60	1048574
2026-01-18 10:13:40.14	205.31	7.02	-85.2	-88.6	2.9	1.56e+00	0	47	104	0	60	1048573
2026-01-18 10:13:44.16	205.63	7.29	-85.2	-88.6	3.1	1.56e+00	0	47	104	0	60	1048575
2026-01-18 10:13:48.19	205.96	7.57	-85.2	-88.6	2.9	1.56e+00	0	47	104	0	60	1048575
2026-01-18 10:13:52.22	206.30	7.85	-85.2	-88.6	3.0	1.55e+00	0	47	104	0	60	1048569
2026-01-18 10:13:56.24	206.64	8.13	-85.2	-88.6	3.4	1.55e+00	0	47	104	0	60	1048575
2026-01-18 10:14:00.27	206.99	8.41	-85.2	-88.6	3.1	1.56e+00	0	47	104	0	60	1048572
2026-01-18 10:14:04.30	207.35	8.69	-85.2	-88.6	2.9	1.56e+00	0	47	104	0	60	1048574
2026-01-18 10:14:08.33	207.71	8.98	-85.2	-88.6	2.8	1.56e+00	0	47	104	0	60	1048572
2026-01-18 10:14:12.36	208.08	9.27	-85.2	-88.6	3.1	1.56e+00	0	47	104	0	60	1048574
2026-01-18 10:14:16.39	208.45	9.56	-85.2	-88.6	3.2	1.56e+00	0	47	104	0	60	1048572
2026-01-18 10:14:20.42	208.84	9.85	-85.2	-88.6	2.9	1.56e+00	0	47	104	0	60	1048575
2026-01-18 10:14:24.45	209.23	10.15	-85.2	-88.6	2.9	1.56e+00	0	47	104	0	60	1048572
2026-01-18 10:14:28.48	209.63	10.45	-85.2	-88.6	3.1	1.56e+00	0	47	104	0	60	1048574
2026-01-18 10:14:32.51	210.03	10.75	-85.2	-88.6	3.0	1.56e+00	0	47	104	0	60	1048575
2026-01-18 10:14:36.54	210.45	11.05	-85.2	-88.6	2.9	1.56e+00	0	47	104	0	60	1048575
2026-01-18 10:14:40.57	210.87	11.36	-85.2	-88.6	3.1	1.56e+00	0	47	104	0	60	1048574
2026-01-18 10:14:44.59	211.30	11.67	-85.2	-88.6	3.1	1.55e+00	0	47	104	0	60	1048573
2026-01-18 10:14:48.62	211.74	11.98	-85.2	-88.6	3.1	1.56e+00	0	47	104	0	60	1048574
2026-01-18 10:14:52.64	212.19	12.29	-85.2	-88.6	2.9	1.56e+00	0	47	104	0	60	1048571
2026-01-18 10:14:56.68	212.65	12.61	-85.2	-88.6	2.8	1.55e+00	0	47	104	0	60	1048574
2026-01-18 10:15:00.71	213.12	12.93	-85.2	-88.6	2.9	1.56e+00	0	47	104	0	60	1048571
2026-01-18 10:15:04.73	213.60	13.25	-85.2	-88.6	3.2	1.56e+00	0	47	104	0	60	1048574
2026-01-18 10:15:08.76	214.09	13.57	-85.2	-88.6	3.1	1.56e+00	0	47	104	0	60	1048575
2026-01-18 10:15:12.79	214.59	13.89	-85.2	-88.6	3.1	1.51e+00	0	47	104	0	60	1048575
2026-01-18 10:15:16.82	215.10	14.22	-85.2	-88.6	3.1	1.56e+00	0	47	104	0	60	1048575
2026-01-18 10:15:20.84	215.62	14.55	-85.2	-88.6	3.1	1.56e+00	0	47	104	0	60	1048574
2026-01-18 10:15:24.88	216.15	14.89	-85.2	-88.6	2.9	1.56e+00	0	47	104	0	60	1048574
2026-01-18 10:15:28.91	216.69	15.22	-85.2	-88.6	2.8	1.56e+00	0	47	104	0	60	1048575
2026-01-18 10:15:32.94	217.25	15.56	-85.2	-88.6	3.1	1.55e+00	0	47	104	0	60	1048573
2026-01-18 10:15:36.97	217.82	15.90	-85.2	-88.6	3.1	1.56e+00	0	47	104	0	60	1048571
2026-01-18 10:15:40.99	218.40	16.24	-85.2	-88.6	3.1	1.55e+00	0	47	104	0	60	1048574
2026-01-18 10:15:45.03	218.99	16.58	-85.2	-88.6	3.2	1.56e+00	0	47	104	0	60	1048575
2026-01-18 10:15:49.06	219.60	16.93	-85.2	-88.6	2.8	1.56e+00	0	47	104	0	60	1048571
2026-01-18 10:15:53.08	220.22	17.27	-85.2	-88.6	3.0	1.56e+00	0	47	104	0	60	1048574
2026-01-18 10:15:57.12	220.85	17.62	-85.2	-88.6	3.2	1.56e+00	0	47	104	0	60	1048575
2026-01-18 10:16:01.15	221.50	17.98	-85.2	-88.6	3.0	1.56e+00	0	47	104	0	60	1048575
2026-01-18 10:16:05.18	222.17	18.33	-85.2	-88.6	3.0	1.55e+00	0	47	104	0	60	1048575
2026-01-18 10:16:09.20	222.84	18.68	-85.2	-88.6	3.0	1.56e+00	0	47	104	0	60	1048570
2026-01-18 10:16:13.24	223.54	19.04	-85.2	-88.6	3.1	1.56e+00	0	47	104	0	60	1048575
2026-01-18 10:16:17.27	224.25	19.39	-85.2	-88.6	2.8	1.56e+00	0	47	104	0	60	1048573
2026-01-18 10:16:21.30	224.98	19.75	-85.2	-88.6	3.0	1.55e+00	0	47	104	0	60	1048575
2026-01-18 10:16:25.33	225.72	20.10	-85.2	-88.6	2.8	1.56e+00	0	47	104	0	60	1048575
2026-01-18 10:16:29.36	226.48	20.46	-85.2	-88.6	3.1	1.56e+00	0	47	104	0	60	1048574
2026-01-18 10:16:33.38	227.25	20.82	-85.2	-88.6	3.2	1.56e+00	0	47	104	0	60	1048575
2026-01-18 10:16:37.41	228.05	21.17	-85.2	-88.6	2.9	1.55e+00	0	47	104	0	60	1048575
2026-01-18 10:16:41.44	228.86	21.53	-85.2	-88.6	2.8	1.56e+00	0	47	104	0	60	1048575
2026-01-18 10:16:45.46	229.69	21.88	-85.2	-88.6	2.7	1.55e+00	0	47	104	0	60	1048575
2026-01-18 10:16:49.49	230.54	22.24	-85.2	-88.6	2.9	1.56e+00	0	47	104	0	60	1048574
2026-01-18 10:16:53.53	231.41	22.59	-85.2	-88.6	2.8	1.56e+00	0	47	104	0	60	1048573
2026-01-18 10:16:57.56	232.30	22.94	-85.2	-88.6	3.0	1.56e+00	0	47	104	0	60	1048570
2026-01-18 10:17:01.58	233.21	23.29	-85.2	-88.6	3.2	1.55e+00	0	47	104	0	60	1048575
2026-01-18 10:17:05.61	234.13	23.63	-85.2	-88.6	3.0	1.55e+00	0	47	104	0	60	1048575
2026-01-18 10:17:09.64	235.08	23.98	-85.2	-88.6	3.0	1.56e+00	0	47	104	0	60	1048574
2026-01-18 10:17:13.67	236.05	24.31	-85.2	-88.6	3.2	1.55e+00	0	47	104	0	60	1048575
2026-01-18 10:17:17.70	237.04	24.65	-85.2	-88.6	3.0	1.55e+00	0	47	104	0	60	1048575
2026-01-18 10:17:21.73	238.05	24.98	-85.2	-88.6	3.0	1.56e+00	0	47	104	0	60	1048575
2026-01-18 10:17:25.76	239.08	25.30	-85.2	-88.6	3.0	1.56e+00	0	47	104	0	60	1048575
2026-01-18 10:17:29.78	240.12	25.62	-85.2	-88.6	3.2	1.56e+00	0	47	104	0	60	1048574
2026-01-18 10:17:33.81	241.19	25.93	-85.2	-88.6	2.9	1.56e+00	0	47	104	0	60	1048575
2026-01-18 10:17:37.83	242.28	26.23	-85.2	-88.6	3.0	1.56e+00	0	47	104	0	60	1048575
2026-01-18 10:17:41.86	243.39	26.53	-85.2	-88.6	3.0	1.56e+00	0	47	104	0	60	1048575
2026-01-18 10:17:45.89	244.52	26.82	-85.2	-88.6	2.9	1.56e+00	0	47	104	0	60	1048575
2026-01-18 10:17:49.92	245.68	27.10	-85.2	-88.6	3.1	1.56e+00	0	47	104	0	60	1048575
2026-01-18 10:17:53.95	246.85	27.37	-85.2	-88.6	3.2	1.56e+00	0	47	104	0	60	1048575
2026-01-18 10:17:57.98	248.04	27.63	-85.2	-88.6	3.1	1.56e+00	0	47	104	0	60	1048575
2026-01-18 10:18:02.01	249.25	27.88	-85.2	-88.6	2.9	1.56e+00	0	47	104	0	60	1048575
2026-01-18 10:18:06.04	250.47	28.11	-85.2	-88.6	3.0	1.56e+00	0	47	104	0	60	1048573
2026-01-18 10:18:10.07	251.72	28.34	-85.2	-88.6	3.1	1.56e+00	0	47	104	0	60	1048575
2026-01-18 10:18:14.10	252.98	28.55	-85.2	-88.6	3.1	1.55e+00	0	47	104	0	60	1048574
2026-01-18 10:18:18.13	254.25	28.75	-85.2	-88.6	2.9	1.56e+00	0	47	104	0	60	1048575
2026-01-18 10:18:22.16	255.55	28.94	-85.2	-88.6	3.1	1.56e+00	0	47	104	0	60	1048574
2026-01-18 10:18:26.19	256.85	29.11	-85.2	-88.6	3.2	1.56e+00	0	47	104	0	60	1048573
2026-01-18 10:18:30.22	258.17	29.26	-85.2	-88.6	2.9	1.56e+00	0	47	104	0	60	1048575
2026-01-18 10:18:34.24	259.50	29.40	-85.2	-88.6	3.0	1.56e+00	0	47	104	0	60	1048575
2026-01-18 10:18:38.26	260.83	29.52	-85.2	-88.6	3.1	1.56e+00	0	47	104	0	60	1048575
2026-01-18 10:18:42.29	262.18	29.63	-85.2	-88.6	3.1	1.56e+00	0	47	104	0	60	1048575
2026-01-18 10:18:46.32	263.54	29.72	-85.2	-88.6	3.1	1.56e+00	0	47	104	0	60	1048575
2026-01-18 10:18:50.35	264.91	29.79	-85.2	-88.6	2.9	1.56e+00	0	47	104	0	60	1048570
2026-01-18 10:18:54.36	266.27	29.85	-85.2	-88.6	2.9	1.55e+00	0	48	104	0	60	1048574
2026-01-18 10:18:58.40	267.65	29.89	-85.2	-88.6	2.8	1.55e+00	0	47	104	0	60	1048575
2026-01-18 10:19:02.42	269.02	29.91	-85.2	-88.6	3.0	1.56e+00	0	47	104	0	60	1048573
2026-01-18 10:19:06.43	270.39	29.91	-85.2	-88.6	2.9	1.56e+00	0	47	104	0	60	1048574
2026-01-18 10:19:10.47	271.77	29.90	-85.2	-88.6	2.9	1.56e+00	0	47	104	0	60	1048572
2026-01-18 10:19:14.50	273.15	29.87	-85.2	-88.6	3.1	1.56e+00	0	47	104	0	60	1048574
2026-01-18 10:19:18.53	274.52	29.82	-85.2	-88.6	2.9	1.55e+00	0	47	104	0	60	1048571
2026-01-18 10:19:22.56	275.88	29.75	-85.2	-88.6	3.1	1.55e+00	0	47	104	0	60	1048575
2026-01-18 10:19:26.58	277.24	29.66	-85.2	-88.6	3.2	1.55e+00	0	47	104	0	60	1048574
2026-01-18 10:19:30.61	278.59	29.56	-85.2	-88.6	3.0	1.56e+00	0	47	104	0	60	1048575
2026-01-18 10:19:34.64	279.94	29.45	-85.2	-88.6	3.0	1.56e+00	0	47	104	0	60	1048575
2026-01-18 10:19:38.66	281.26	29.31	-85.2	-88.6	3.0	1.56e+00	0	47	104	0	60	1048574
2026-01-18 10:19:42.69	282.59	29.16	-85.2	-88.6	3.0	1.55e+00	0	47	104	0	60	1048574
2026-01-18 10:19:46.70	283.89	29.00	-85.2	-88.6	2.9	1.56e+00	0	47	104	0	60	1048575
2026-01-18 10:19:50.73	285.18	28.82	-85.2	-88.6	3.1	1.55e+00	0	47	104	0	60	1048575
2026-01-18 10:19:54.76	286.46	28.63	-85.2	-88.6	2.9	1.56e+00	0	47	104	0	60	1048575
2026-01-18 10:19:58.79	287.72	28.42	-85.2	-88.6	3.1	1.56e+00	0	47	104	0	60	1048575
2026-01-18 10:20:02.80	288.97	28.20	-85.2	-88.6	3.1	1.56e+00	0	47	104	0	60	1048575
2026-01-18 10:20:06.80	290.19	27.97	-85.2	-88.6	3.0	1.56e+00	0	47	104	0	60	1048569
2026-01-18 10:20:10.82	291.40	27.73	-85.2	-88.6	3.0	1.56e+00	0	47	104	0	60	1048575
2026-01-18 10:20:14.85	292.59	27.47	-85.2	-88.6	3.0	1.56e+00	0	47	104	0	60	1048573
2026-01-18 10:20:18.88	293.76	27.21	-85.2	-88.6	3.1	1.56e+00	0	47	104	0	60	1048574
2026-01-18 10:20:22.90	294.92	26.93	-85.2	-88.6	3.0	1.56e+00	0	47	104	0	60	1048573
2026-01-18 10:20:26.94	296.05	26.65	-85.2	-88.6	3.0	1.55e+00	0	47	104	0	60	1048574
2026-01-18 10:20:30.97	297.17	26.36	-85.2	-88.6	3.0	1.56e+00	0	47	104	0	60	1048572
2026-01-18 10:20:35.00	298.27	26.06	-85.2	-88.6	3.1	1.56e+00	0	47	104	0	60	1048571
2026-01-18 10:20:39.02	299.34	25.75	-83.5	-88.6	3.1	1.56e+00	0	47	104	0	60	1048575
2026-01-18 10:20:43.05	300.39	25.44	-85.2	-88.6	2.8	1.56e+00	0	47	104	0	60	1048574
2026-01-18 10:20:47.09	301.43	25.11	-85.2	-88.6	3.0	1.55e+00	0	47	104	0	60	1048572
2026-01-18 10:20:51.11	302.44	24.79	-85.2	-88.6	3.2	1.56e+00	0	47	104	0	60	1048575
2026-01-18 10:20:55.14	303.43	24.46	-85.2	-88.6	2.8	1.56e+00	0	47	104	0	60	1048575
2026-01-18 10:20:59.17	304.40	24.12	-83.1	-88.6	3.1	1.56e+00	0	47	104	0	60	1048575
2026-01-18 10:21:03.20	305.36	23.79	-85.2	-88.6	3.1	1.55e+00	0	47	104	0	60	1048571
2026-01-18 10:21:07.22	306.29	23.44	-85.2	-88.6	2.8	1.56e+00	0	47	104	0	60	1048572
2026-01-18 10:21:11.25	307.20	23.10	-85.2	-88.6	3.0	1.56e+00	0	47	104	0	60	1048573
2026-01-18 10:21:15.28	308.09	22.75	-85.2	-88.6	3.0	1.56e+00	0	47	104	0	60	1048574
2026-01-18 10:21:19.31	308.96	22.40	-85.2	-88.6	3.0	1.55e+00	0	47	104	0	60	1048575
2026-01-18 10:21:23.34	309.82	22.05	-85.2	-88.6	2.7	1.55e+00	0	47	104	0	60	1048574
2026-01-18 10:21:27.37	310.65	21.70	-85.2	-88.6	3.0	1.56e+00	0	47	104	0	60	1048574
2026-01-18 10:21:31.41	311.47	21.35	-85.2	-88.6	2.8	1.56e+00	0	47	104	0	60	1048575
2026-01-18 10:21:35.44	312.27	20.99	-85.2	-88.6	3.0	1.55e+00	0	47	104	0	60	1048575
2026-01-18 10:21:39.47	313.05	20.64	-85.2	-88.6	3.0	1.56e+00	0	47	104	0	60	1048572
2026-01-18 10:21:43.50	313.82	20.28	-84.3	-88.6	3.0	1.56e+00	0	47	104	0	60	1048575
2026-01-18 10:21:47.52	314.56	19.93	-85.2	-88.6	2.9	1.55e+00	0	47	104	0	60	1048573
2026-01-18 10:21:51.55	315.29	19.58	-85.2	-88.6	3.1	1.56e+00	0	47	104	0	60	1048575
2026-01-18 10:21:55.58	316.01	19.22	-85.2	-88.6	3.0	1.55e+00	0	47	104	0	60	1048575
2026-01-18 10:21:59.60	316.70	18.87	-85.2	-88.6	3.1	1.56e+00	0	47	104	0	60	1048575
2026-01-18 10:22:03.63	317.39	18.52	-84.3	-88.6	2.9	1.55e+00	0	47	104	0	60	1048575
2026-01-18 10:22:07.67	318.05	18.17	-85.2	-88.6	2.9	1.56e+00	0	47	104	0	60	1048574
2026-01-18 10:22:11.70	318.71	17.82	-85.2	-88.6	2.9	1.55e+00	0	47	104	0	60	1048575
2026-01-18 10:22:15.72	319.34	17.47	-85.2	-88.6	3.0	1.56e+00	0	47	104	0	60	1048573
2026-01-18 10:22:19.76	319.97	17.13	-85.2	-88.6	2.7	1.56e+00	0	47	104	0	60	1048572
2026-01-18 10:22:23.79	320.58	16.78	-83.5	-88.6	3.2	1.56e+00	0	47	104	0	60	1048571
2026-01-18 10:22:27.82	321.18	16.44	-85.2	-88.6	3.1	1.56e+00	0	47	104	0	60	1048575
2026-01-18 10:22:31.83	321.76	16.10	-85.2	-88.6	3.0	1.56e+00	0	47	104	0	60	1048575
2026-01-18 10:22:35.86	322.33	15.77	-85.2	-88.6	3.1	1.56e+00	0	47	104	0	60	1048575
2026-01-18 10:22:39.89	322.89	15.43	-85.2	-88.6	3.0	1.56e+00	0	47	104	0	60	1048575
2026-01-18 10:22:43.93	323.44	15.10	-85.2	-88.6	3.2	1.56e+00	0	47	104	0	60	1048573
2026-01-18 10:22:47.96	323.98	14.76	-85.2	-88.6	2.9	1.56e+00	0	47	104	0	60	1048574
2026-01-18 10:22:51.97	324.50	14.44	-85.2	-88.6	3.2	1.56e+00	0	47	104	0	60	1048575
2026-01-18 10:22:56.00	325.01	14.11	-85.2	-88.6	3.0	1.56e+00	0	47	104	0	60	1048574
2026-01-18 10:23:00.02	325.51	13.79	-85.2	-88.6	3.0	1.55e+00	0	47	104	0	60	1048573
2026-01-18 10:23:04.03	326.00	13.47	-85.2	-88.6	3.0	1.56e+00	0	47	104	0	60	1048575
2026-01-18 10:23:08.05	326.49	13.15	-85.2	-88.6	2.9	1.56e+00	0	47	104	0	60	1048574
2026-01-18 10:23:12.08	326.96	12.83	-85.2	-88.6	3.1	1.55e+00	0	47	104	0	60	1048573
2026-01-18 10:23:16.11	327.42	12.51	-85.2	-88.6	3.0	1.56e+00	0	47	104	0	60	1048574
2026-01-18 10:23:20.13	327.87	12.20	-85.2	-88.6	3.0	1.56e+00	0	47	104	0	60	1048575
2026-01-18 10:23:24.14	328.32	11.90	-85.2	-88.6	3.1	1.56e+00	0	47	104	0	60	1048574
2026-01-18 10:23:28.16	328.75	11.59	-85.2	-88.6	3.1	1.56e+00	0	47	104	0	60	1048574
2026-01-18 10:23:32.19	329.18	11.28	-85.2	-88.6	3.1	1.56e+00	0	47	104	0	60	1048575
2026-01-18 10:23:36.22	329.60	10.98	-85.2	-88.6	3.0	1.55e+00	0	47	104	0	60	1048575
2026-01-18 10:23:40.25	330.01	10.68	-85.2	-88.6	3.1	1.56e+00	0	47	104	0	60	1048575
2026-01-18 10:23:44.28	330.41	10.38	-84.3	-88.6	2.8	1.55e+00	0	47	104	0	60	1048575
2026-01-18 10:23:48.31	330.81	10.09	-85.2	-88.6	2.9	1.56e+00	0	47	104	0	60	1048573
2026-01-18 10:23:52.34	331.19	9.80	-85.2	-88.6	2.9	1.56e+00	0	47	104	0	60	1048575
2026-01-18 10:23:56.35	331.57	9.51	-85.2	-88.6	2.7	1.56e+00	0	47	104	0	60	1048575
2026-01-18 10:24:00.39	331.95	9.22	-85.2	-88.6	2.9	1.56e+00	0	47	104	0	60	1048573
2026-01-18 10:24:04.41	332.31	8.93	-85.2	-88.6	3.2	1.55e+00	0	47	104	0	60	1048575
2026-01-18 10:24:08.44	332.67	8.65	-85.2	-88.6	3.1	1.56e+00	0	47	104	0	60	1048575
2026-01-18 10:24:12.47	333.03	8.37	-85.2	-88.6	3.1	1.56e+00	0	47	104	0	60	1048574
2026-01-18 10:24:16.50	333.37	8.09	-85.2	-88.6	3.1	1.56e+00	0	47	104	0	60	1048575
2026-01-18 10:24:20.54	333.71	7.81	-85.2	-88.6	3.1	1.56e+00	0	47	104	0	60	1048575
2026-01-18 10:24:24.57	334.05	7.54	-85.2	-88.6	3.0	1.56e+00	0	47	104	0	60	1048574
2026-01-18 10:24:28.59	334.38	7.26	-85.2	-88.6	3.2	1.56e+00	0	47	104	0	60	1048575
2026-01-18 10:24:32.62	334.70	6.99	-85.2	-88.6	2.9	1.56e+00	0	47	104	0	60	1048574
2026-01-18 10:24:36.65	335.02	6.73	-85.2	-88.6	2.9	1.56e+00	0	47	104	0	60	1048575
2026-01-18 10:24:40.68	335.33	6.46	-85.2	-88.6	2.9	1.56e+00	0	47	104	0	60	1048575
2026-01-18 10:24:44.71	335.64	6.20	-85.2	-88.6	2.7	1.56e+00	0	47	104	0	60	1048575
2026-01-18 10:24:48.73	335.94	5.94	-85.2	-88.6	3.0	1.56e+00	0	47	104	0	60	1048574
2026-01-18 10:24:52.76	336.24	5.68	-85.2	-88.6	2.9	1.56e+00	0	47	104	0	60	1048575
2026-01-18 10:24:56.79	336.53	5.42	-85.2	-88.6	2.9	1.55e+00	0	47	104	0	60	1048572
2026-01-18 10:25:00.82	336.81	5.16	-85.2	-88.6	3.2	1.56e+00	0	47	104	0	60	1048575
2026-01-18 10:25:04.84	337.10	4.91	-85.2	-88.6	3.1	1.55e+00	0	47	104	0	60	1048572
2026-01-18 10:25:08.88	337.38	4.66	-85.2	-88.6	3.0	1.56e+00	0	47	104	0	60	1048572
2026-01-18 10:25:12.91	337.65	4.41	-85.2	-88.6	3.0	1.56e+00	0	47	104	0	60	1048574
2026-01-18 10:25:16.94	337.92	4.16	-85.2	-88.6	2.7	1.56e+00	0	47	104	0	60	1048575
2026-01-18 10:25:20.97	338.18	3.91	-85.2	-88.6	3.0	1.56e+00	0	47	104	0	60	1048574
2026-01-18 10:25:25.00	338.44	3.67	-85.2	-88.6	3.1	1.56e+00	0	47	104	0	60	1048574
2026-01-18 10:25:29.03	338.70	3.42	-83.9	-88.6	3.1	1.56e+00	0	47	104	0	60	1048575
2026-01-18 10:25:33.06	338.96	3.18	-84.7	-88.6	3.1	1.56e+00	0	47	104	0	60	1048575
2026-01-18 10:25:37.07	339.20	2.94	-85.2	-88.6	2.9	1.56e+00	0	47	104	0	60	1048575
2026-01-18 10:25:41.10	339.45	2.70	-85.2	-88.6	3.0	1.56e+00	0	47	104	0	60	1048575
2026-01-18 10:25:45.14	339.69	2.47	-85.2	-88.6	3.1	1.56e+00	0	47	104	0	60	1048571
2026-01-18 10:25:49.17	339.93	2.23	-85.2	-88.6	3.2	1.56e+00	0	47	104	0	60	1048575
2026-01-18 10:25:53.19	340.17	2.00	-85.2	-88.6	3.1	1.55e+00	0	47	104	0	60	1048575
2026-01-18 10:25:57.21	340.40	1.77	-85.2	-88.6	3.0	1.56e+00	0	47	104	0	60	1048573
2026-01-18 10:26:01.25	340.63	1.54	-85.2	-88.6	3.0	1.56e+00	0	47	104	0	60	1048575
2026-01-18 10:26:05.27	340.85	1.31	-85.2	-88.6	3.0	1.56e+00	0	47	104	0	60	1048567
2026-01-18 10:26:09.31	341.07	1.08	-85.2	-88.6	2.9	1.56e+00	0	47	104	0	60	1048574
2026-01-18 10:26:13.34	341.29	0.86	-85.2	-88.6	3.0	1.56e+00	0	47	104	0	60	1048572
2026-01-18 10:26:17.37	341.51	0.63	-85.2	-88.6	3.0	1.56e+00	0	47	104	0	60	1048575
2026-01-18 10:26:21.40	341.72	0.41	-85.2	-88.6	3.0	1.56e+00	0	47	104	0	60	1048575
2026-01-18 10:26:25.42	341.93	0.19	-85.2	-88.6	3.0	1.56e+00	0	47	104	0	60	1048575
2026-01-18 10:26:29.45	342.14	-0.03	-85.2	-88.6	3.1	1.55e+00	0	47	104	0	60	1048575

#Closed at: 2026-01-18 10:26:31
#Recorded file [0 MB]: D:/Data/35015_260118_131147.dat