passes_logs/2026/01/18/R3.2S-Naryan-Mar/R3.2S-Naryan-Mar__20260118_005817_AQUA_rec.log

#Pass ID: 20260118_005817_AQUA
#Satellite: AQUA
#Configuration: AQUA
#almurnet v.1.7.20240730
#Start time: 2026-01-18 00:58:20

#Version: 2.2.20231116
#Station: R3.2S-Naryan-Mar
#Location: 53.008057 lon 67.646978 lat
#TLE: 1 27424U 02022A   26017.29152041  .00000842  00000+0  17841-3 0  9992
#TLE: 2 27424  98.4085 343.7574 0002011  75.4099  30.6811 14.61825797261228

#Time	Az	El	Level	Level2	SNR	BER	BlckErr	Temp	State	Recorded	gain1	gain2
2026-01-18 00:58:20.02	22.42	0.18	-83.9	-88.8	1.9	3.11e+01	0	46	0	0	60	1048574
2026-01-18 00:58:24.05	22.42	0.43	-84.3	-88.8	2.4	3.11e+01	0	46	104	0	60	1048575
2026-01-18 00:58:28.07	22.43	0.68	-84.3	-88.8	2.7	3.11e+01	0	46	104	0	60	1048575
2026-01-18 00:58:32.09	22.44	0.94	-84.3	-88.8	2.6	3.11e+01	0	46	104	0	60	1048575
2026-01-18 00:58:36.12	22.44	1.19	-84.3	-88.8	2.5	3.11e+01	0	46	104	0	60	1048575
2026-01-18 00:58:40.14	22.45	1.45	-83.9	-88.8	2.5	3.11e+01	0	46	104	0	60	1048575
2026-01-18 00:58:44.15	22.45	1.71	-84.3	-88.8	2.5	3.11e+01	0	46	104	0	60	1048575
2026-01-18 00:58:48.17	22.46	1.98	-84.3	-88.8	2.8	3.11e+01	0	46	104	0	60	1048575
2026-01-18 00:58:52.19	22.46	2.24	-84.3	-88.8	2.6	3.11e+01	0	46	104	0	60	1048575
2026-01-18 00:58:56.22	22.47	2.51	-84.3	-88.8	2.5	3.11e+01	0	46	104	0	60	1048575
2026-01-18 00:59:00.24	22.47	2.79	-84.3	-88.8	2.7	3.11e+01	0	46	104	0	60	1048575
2026-01-18 00:59:04.26	22.48	3.06	-83.9	-88.8	2.7	3.11e+01	0	46	104	0	60	1048575
2026-01-18 00:59:08.27	22.48	3.34	-83.9	-88.8	2.6	3.11e+01	0	46	104	0	60	1048575
2026-01-18 00:59:12.31	22.48	3.62	-84.3	-88.8	2.6	3.11e+01	0	46	104	0	60	1048575
2026-01-18 00:59:16.32	22.49	3.91	-84.3	-88.8	2.5	3.11e+01	0	47	104	0	60	1048575
2026-01-18 00:59:20.35	22.49	4.20	-84.3	-88.8	2.6	3.11e+01	0	47	104	0	60	1048575
2026-01-18 00:59:24.38	22.49	4.49	-84.3	-88.8	2.7	3.11e+01	0	47	104	0	60	1048575
2026-01-18 00:59:28.41	22.49	4.78	-83.9	-88.8	2.5	3.11e+01	0	46	104	0	60	1048575
2026-01-18 00:59:32.44	22.49	5.08	-83.9	-88.8	2.5	3.11e+01	0	47	104	0	60	1048575
2026-01-18 00:59:36.47	22.50	5.39	-83.9	-88.8	2.6	3.11e+01	0	46	104	0	60	1048575
2026-01-18 00:59:40.50	22.50	5.70	-83.9	-88.8	2.4	3.11e+01	0	47	104	0	60	1048575
2026-01-18 00:59:44.53	22.50	6.01	-84.3	-88.8	2.5	3.11e+01	0	47	104	0	60	1048575
2026-01-18 00:59:48.56	22.50	6.32	-84.3	-88.8	2.7	3.11e+01	0	47	104	0	60	1048575
2026-01-18 00:59:52.56	22.50	6.64	-84.3	-88.8	2.4	3.11e+01	0	47	104	0	60	1048575
2026-01-18 00:59:56.60	22.50	6.97	-83.9	-88.8	2.5	3.11e+01	0	47	104	0	60	1048575
2026-01-18 01:00:00.63	22.50	7.30	-83.9	-88.8	2.7	3.11e+01	0	47	104	0	60	1048575
2026-01-18 01:00:04.65	22.50	7.63	-84.3	-88.8	2.5	3.11e+01	0	47	104	0	60	1048575
2026-01-18 01:00:08.68	22.49	7.97	-84.3	-88.8	2.8	3.11e+01	0	47	104	0	60	1048575
2026-01-18 01:00:12.71	22.49	8.31	-84.3	-88.8	2.5	3.11e+01	0	47	104	0	60	1048575
2026-01-18 01:00:16.74	22.49	8.66	-84.3	-88.8	2.6	3.11e+01	0	47	104	0	60	1048575
2026-01-18 01:00:20.76	22.48	9.02	-83.9	-88.8	2.5	3.11e+01	0	47	104	0	60	1048575
2026-01-18 01:00:24.78	22.48	9.38	-83.5	-88.8	2.7	3.11e+01	0	47	104	0	60	1048575
2026-01-18 01:00:28.80	22.48	9.74	-84.3	-88.8	2.7	3.11e+01	0	47	104	0	60	1048575
2026-01-18 01:00:32.83	22.47	10.12	-84.3	-88.8	2.6	3.11e+01	0	47	104	0	60	1048575
2026-01-18 01:00:36.85	22.47	10.49	-84.3	-88.8	2.6	3.11e+01	0	47	104	0	60	1048575
2026-01-18 01:00:40.88	22.46	10.88	-84.3	-88.8	2.6	3.11e+01	0	47	104	0	60	1048575
2026-01-18 01:00:44.91	22.45	11.27	-84.3	-88.8	2.7	3.11e+01	0	47	104	0	60	1048575
2026-01-18 01:00:48.94	22.44	11.67	-83.9	-88.8	2.7	3.11e+01	0	47	104	0	60	1048575
2026-01-18 01:00:52.97	22.43	12.08	-83.9	-88.8	2.6	3.11e+01	0	47	104	0	60	1048575
2026-01-18 01:00:56.99	22.43	12.49	-84.3	-88.8	2.6	3.11e+01	0	47	104	0	60	1048575
2026-01-18 01:01:01.01	22.42	12.92	-84.3	-88.8	2.6	3.11e+01	0	47	104	0	60	1048575
2026-01-18 01:01:05.04	22.40	13.35	-84.3	-88.8	2.6	3.11e+01	0	47	104	0	60	1048575
2026-01-18 01:01:09.06	22.39	13.79	-84.3	-88.8	2.7	3.11e+01	0	47	104	0	60	1048575
2026-01-18 01:01:13.09	22.38	14.24	-83.9	-88.8	2.7	3.11e+01	0	47	104	0	60	1048575
2026-01-18 01:01:17.12	22.37	14.69	-83.9	-88.8	2.6	3.11e+01	0	47	104	0	60	1048575
2026-01-18 01:01:21.14	22.35	15.16	-84.3	-88.8	2.5	3.11e+01	0	47	104	0	60	1048575
2026-01-18 01:01:25.17	22.33	15.64	-84.3	-88.8	2.3	3.11e+01	0	47	104	0	60	1048575
2026-01-18 01:01:29.20	22.32	16.13	-83.9	-88.8	2.7	3.11e+01	0	47	104	0	60	1048575
2026-01-18 01:01:33.23	22.30	16.63	-84.3	-88.8	2.5	3.11e+01	0	47	104	0	60	1048575
2026-01-18 01:01:37.25	22.28	17.14	-84.3	-88.8	2.6	3.11e+01	0	47	104	0	60	1048575
2026-01-18 01:01:41.29	22.26	17.66	-83.9	-88.8	2.7	3.11e+01	0	47	104	0	60	1048575
2026-01-18 01:01:45.31	22.23	18.20	-83.9	-88.8	2.4	3.11e+01	0	47	104	0	60	1048575
2026-01-18 01:01:49.31	22.21	18.74	-84.3	-88.8	2.6	3.11e+01	0	47	104	0	60	1048575
2026-01-18 01:01:53.34	22.19	19.31	-84.3	-88.8	2.7	3.11e+01	0	47	104	0	60	1048575
2026-01-18 01:01:57.37	22.16	19.88	-84.3	-88.8	2.5	3.11e+01	0	47	104	0	60	1048575
2026-01-18 01:02:01.38	22.13	20.47	-84.3	-88.8	2.7	3.11e+01	0	47	104	0	60	1048575
2026-01-18 01:02:05.41	22.10	21.08	-83.9	-88.8	2.8	3.11e+01	0	47	104	0	60	1048575
2026-01-18 01:02:09.43	22.06	21.70	-83.9	-88.8	2.8	3.11e+01	0	47	104	0	60	1048575
2026-01-18 01:02:13.46	22.03	22.34	-83.9	-88.8	2.7	3.11e+01	0	47	104	0	60	1048575
2026-01-18 01:02:17.48	21.99	23.00	-84.3	-88.8	2.7	3.11e+01	0	47	104	0	60	1048575
2026-01-18 01:02:21.51	21.95	23.68	-84.3	-88.8	2.7	3.11e+01	0	47	104	0	60	1048575
2026-01-18 01:02:25.54	21.91	24.38	-84.3	-88.8	2.6	3.11e+01	0	47	104	0	60	1048575
2026-01-18 01:02:29.57	21.86	25.10	-84.3	-88.8	2.4	3.11e+01	0	47	104	0	60	1048575
2026-01-18 01:02:33.59	21.81	25.84	-83.9	-88.8	2.3	3.11e+01	0	47	104	0	60	1048575
2026-01-18 01:02:37.61	21.76	26.60	-83.9	-88.8	2.5	3.11e+01	0	47	104	0	60	1048575
2026-01-18 01:02:41.64	21.71	27.39	-83.9	-88.8	2.6	3.11e+01	0	47	104	0	60	1048575
2026-01-18 01:02:45.68	21.65	28.20	-84.3	-88.8	2.5	3.11e+01	0	47	104	0	60	1048575
2026-01-18 01:02:49.70	21.58	29.04	-83.9	-88.8	2.7	3.11e+01	0	47	104	0	60	1048575
2026-01-18 01:02:53.73	21.52	29.91	-84.3	-88.8	2.5	3.11e+01	0	47	104	0	60	1048575
2026-01-18 01:02:57.75	21.44	30.80	-84.3	-88.8	2.3	3.11e+01	0	47	104	0	60	1048575
2026-01-18 01:03:01.76	21.37	31.73	-83.9	-88.8	2.4	3.11e+01	0	47	104	0	60	1048575
2026-01-18 01:03:05.78	21.28	32.68	-83.9	-88.8	2.1	3.11e+01	0	47	104	0	60	1048575
2026-01-18 01:03:09.80	21.19	33.67	-84.3	-88.8	2.3	3.11e+01	0	47	104	0	60	1048575
2026-01-18 01:03:13.83	21.10	34.70	-84.3	-88.8	2.2	3.11e+01	0	47	104	0	60	1048575
2026-01-18 01:03:17.86	20.99	35.77	-84.3	-88.8	2.6	3.11e+01	0	47	104	0	60	1048575
2026-01-18 01:03:21.89	20.88	36.87	-84.3	-88.8	2.5	3.11e+01	0	47	104	0	60	1048575
2026-01-18 01:03:25.91	20.75	38.01	-83.9	-88.8	2.6	3.11e+01	0	47	104	0	60	1048575
2026-01-18 01:03:29.93	20.62	39.20	-83.9	-88.8	2.6	3.11e+01	0	47	104	0	60	1048575
2026-01-18 01:03:33.95	20.48	40.43	-84.3	-88.8	2.6	3.11e+01	0	47	104	0	60	1048575
2026-01-18 01:03:37.98	20.32	41.71	-84.3	-88.8	2.6	3.11e+01	0	47	104	0	60	1048575
2026-01-18 01:03:42.00	20.14	43.03	-84.3	-88.8	2.7	3.11e+01	0	47	104	0	60	1048575
2026-01-18 01:03:46.03	19.95	44.41	-84.3	-88.8	2.4	3.11e+01	0	47	104	0	60	1048575
2026-01-18 01:03:50.05	19.75	45.83	-83.9	-88.8	2.4	3.11e+01	0	47	104	0	60	1048575
2026-01-18 01:03:54.08	19.51	47.32	-83.9	-88.8	2.4	3.11e+01	0	47	104	0	60	1048575
2026-01-18 01:03:58.11	19.26	48.86	-84.3	-88.8	2.5	3.11e+01	0	47	104	0	60	1048575
2026-01-18 01:04:02.13	18.97	50.45	-84.3	-88.8	2.7	3.11e+01	0	47	104	0	60	1048575
2026-01-18 01:04:06.16	18.65	52.11	-84.3	-88.8	2.8	3.11e+01	0	47	104	0	60	1048575
2026-01-18 01:04:10.19	18.29	53.83	-84.3	-88.8	2.7	3.11e+01	0	47	104	0	60	1048575
2026-01-18 01:04:14.21	17.87	55.60	-84.3	-88.8	2.6	3.11e+01	0	47	104	0	60	1048575
2026-01-18 01:04:18.23	17.40	57.44	-83.9	-88.8	2.4	3.11e+01	0	47	104	0	60	1048575
2026-01-18 01:04:22.26	16.86	59.34	-83.9	-88.8	2.4	3.11e+01	0	47	104	0	60	1048575
2026-01-18 01:04:26.29	16.23	61.30	-84.3	-88.8	2.4	3.11e+01	0	47	104	0	60	1048575
2026-01-18 01:04:30.32	15.48	63.32	-84.3	-88.8	2.6	3.11e+01	0	47	104	0	60	1048575
2026-01-18 01:04:34.33	14.59	65.38	-84.3	-88.8	2.6	3.11e+01	0	47	104	0	60	1048575
2026-01-18 01:04:38.36	13.51	67.51	-84.3	-88.8	2.7	3.11e+01	0	47	104	0	60	1048575
2026-01-18 01:04:42.39	12.18	69.69	-83.9	-88.8	2.7	3.11e+01	0	47	104	0	60	1048575
2026-01-18 01:04:46.43	10.48	71.90	-83.9	-88.8	2.7	3.11e+01	0	47	104	0	60	1048575
2026-01-18 01:04:50.45	8.28	74.14	-84.3	-88.8	2.5	3.11e+01	0	47	104	0	60	1048575
2026-01-18 01:04:54.48	5.30	76.40	-84.3	-88.8	2.4	3.11e+01	0	47	104	0	60	1048575
2026-01-18 01:04:58.52	1.08	78.64	-84.3	-88.8	2.5	3.11e+01	0	47	104	0	60	1048575
2026-01-18 01:05:02.55	354.76	80.82	-84.3	-88.8	2.5	3.11e+01	0	47	104	0	60	1048575
2026-01-18 01:05:06.58	344.64	82.84	-84.3	-88.8	2.6	3.11e+01	0	47	104	0	60	1048575
2026-01-18 01:05:10.61	327.50	84.49	-83.9	-88.8	2.6	3.11e+01	0	47	104	0	60	1048575
2026-01-18 01:05:14.65	300.51	85.33	-83.9	-88.8	2.4	3.11e+01	0	47	104	0	60	1048575
2026-01-18 01:05:18.68	271.16	84.91	-84.3	-88.8	2.4	3.11e+01	0	47	104	0	60	1048575
2026-01-18 01:05:22.70	250.63	83.49	-84.3	-88.8	2.5	3.11e+01	0	47	104	0	60	1048575
2026-01-18 01:05:26.72	238.47	81.57	-84.3	-88.8	2.4	3.11e+01	0	47	104	0	60	1048575
2026-01-18 01:05:30.74	231.06	79.44	-84.3	-88.8	2.6	3.11e+01	0	47	104	0	60	1048575
2026-01-18 01:05:34.77	226.21	77.21	-84.3	-88.8	2.5	3.11e+01	0	47	104	0	60	1048575
2026-01-18 01:05:38.78	222.86	74.97	-83.9	-88.8	2.6	3.11e+01	0	47	104	0	60	1048575
2026-01-18 01:05:42.81	220.41	72.72	-84.3	-88.8	2.6	3.11e+01	0	47	104	0	60	1048575
2026-01-18 01:05:46.84	218.55	70.49	-84.3	-88.8	2.5	3.11e+01	0	47	104	0	60	1048575
2026-01-18 01:05:50.85	217.10	68.31	-84.3	-88.8	2.4	3.11e+01	0	47	104	0	60	1048575
2026-01-18 01:05:54.88	215.93	66.16	-84.3	-88.8	2.4	3.11e+01	0	47	104	0	60	1048574
2026-01-18 01:05:58.89	214.98	64.07	-84.3	-88.8	2.5	3.11e+01	0	47	104	0	60	1048574
2026-01-18 01:06:02.91	214.18	62.03	-83.9	-88.8	2.5	3.11e+01	0	47	104	0	60	1048574
2026-01-18 01:06:06.94	213.51	60.04	-83.9	-88.8	2.6	3.11e+01	0	47	104	0	60	1048574
2026-01-18 01:06:10.96	212.93	58.12	-84.3	-88.8	2.8	3.11e+01	0	47	104	0	60	1048574
2026-01-18 01:06:14.98	212.44	56.25	-84.3	-88.8	2.7	3.11e+01	0	47	104	0	60	1048574
2026-01-18 01:06:19.01	212.00	54.45	-84.3	-88.8	2.8	3.11e+01	0	47	104	0	60	1048574
2026-01-18 01:06:23.04	211.62	52.70	-84.3	-88.8	2.6	3.11e+01	0	47	104	0	60	1048574
2026-01-18 01:06:27.06	211.29	51.02	-83.9	-88.8	2.6	3.11e+01	0	47	104	0	60	1048574
2026-01-18 01:06:31.09	210.99	49.40	-83.9	-88.8	2.5	3.11e+01	0	47	104	0	60	1048574
2026-01-18 01:06:35.12	210.72	47.83	-84.3	-88.8	2.4	3.11e+01	0	47	104	0	60	1048574
2026-01-18 01:06:39.15	210.48	46.33	-84.3	-88.8	2.8	3.11e+01	0	47	104	0	60	1048574
2026-01-18 01:06:43.18	210.26	44.87	-84.3	-88.8	2.8	3.11e+01	0	47	104	0	60	1048574
2026-01-18 01:06:47.21	210.06	43.47	-84.3	-88.8	2.6	3.11e+01	0	47	104	0	60	1048574
2026-01-18 01:06:51.24	209.88	42.12	-84.3	-88.8	2.6	3.11e+01	0	47	104	0	60	1048574
2026-01-18 01:06:55.27	209.72	40.82	-83.9	-88.8	2.6	3.11e+01	0	47	104	0	60	1048574
2026-01-18 01:06:59.30	209.57	39.57	-83.9	-88.8	2.4	3.11e+01	0	47	104	0	60	1048574
2026-01-18 01:07:03.32	209.43	38.37	-84.3	-88.8	2.4	3.11e+01	0	47	104	0	60	1048574
2026-01-18 01:07:07.35	209.30	37.20	-84.3	-88.8	2.7	3.11e+01	0	47	104	0	60	1048574
2026-01-18 01:07:11.37	209.18	36.08	-84.3	-88.8	2.5	3.11e+01	0	47	104	0	60	1048574
2026-01-18 01:07:15.39	209.07	35.00	-84.3	-88.8	2.5	3.11e+01	0	47	104	0	60	1048574
2026-01-18 01:07:19.41	208.97	33.96	-84.3	-88.8	2.6	3.11e+01	0	47	104	0	60	1048574
2026-01-18 01:07:23.44	208.88	32.95	-83.9	-88.8	2.7	3.11e+01	0	47	104	0	60	1048574
2026-01-18 01:07:27.47	208.79	31.98	-84.3	-88.8	2.7	3.11e+01	0	47	104	0	60	1048574
2026-01-18 01:07:31.50	208.71	31.04	-84.3	-88.8	2.6	3.11e+01	0	47	104	0	60	1048574
2026-01-18 01:07:35.53	208.63	30.13	-84.3	-88.8	2.5	3.11e+01	0	47	104	0	60	1048575
2026-01-18 01:07:39.55	208.56	29.25	-84.3	-88.8	2.6	3.11e+01	0	47	104	0	60	1048575
2026-01-18 01:07:43.58	208.50	28.40	-84.3	-88.8	2.7	3.11e+01	0	47	104	0	60	1048575
2026-01-18 01:07:47.61	208.43	27.58	-83.9	-88.8	2.6	3.11e+01	0	47	104	0	60	1048575
2026-01-18 01:07:51.64	208.38	26.78	-83.9	-88.8	2.6	3.11e+01	0	47	104	0	60	1048575
2026-01-18 01:07:55.67	208.32	26.00	-84.3	-88.8	2.7	3.11e+01	0	47	104	0	60	1048575
2026-01-18 01:07:59.70	208.27	25.25	-84.3	-88.8	2.4	3.11e+01	0	47	104	0	60	1048575
2026-01-18 01:08:03.73	208.22	24.52	-84.3	-88.8	2.6	3.11e+01	0	47	104	0	60	1048575
2026-01-18 01:08:07.76	208.18	23.82	-84.3	-88.8	2.4	3.11e+01	0	47	104	0	60	1048575
2026-01-18 01:08:11.78	208.14	23.13	-84.3	-88.8	2.5	3.11e+01	0	47	104	0	60	1048575
2026-01-18 01:08:15.81	208.10	22.46	-83.9	-88.8	2.4	3.11e+01	0	47	104	0	60	1048575
2026-01-18 01:08:19.84	208.06	21.81	-83.9	-88.8	2.5	3.11e+01	0	47	104	0	60	1048575
2026-01-18 01:08:23.86	208.02	21.18	-84.3	-88.8	2.6	3.11e+01	0	47	104	0	60	1048575
2026-01-18 01:08:27.88	207.99	20.57	-84.3	-88.8	2.5	3.11e+01	0	47	104	0	60	1048575
2026-01-18 01:08:31.91	207.96	19.97	-84.3	-88.8	2.6	3.11e+01	0	47	104	0	60	1048575
2026-01-18 01:08:35.94	207.93	19.39	-83.9	-88.8	2.7	3.11e+01	0	47	104	0	60	1048575
2026-01-18 01:08:39.96	207.90	18.82	-83.9	-88.8	2.5	3.11e+01	0	47	104	0	60	1048575
2026-01-18 01:08:44.00	207.87	18.26	-83.9	-88.8	2.5	3.11e+01	0	47	104	0	60	1048575
2026-01-18 01:08:48.03	207.85	17.72	-84.3	-88.8	2.4	3.11e+01	0	47	104	0	60	1048575
2026-01-18 01:08:52.06	207.83	17.19	-84.3	-88.8	2.6	3.11e+01	0	47	104	0	60	1048575
2026-01-18 01:08:56.09	207.80	16.68	-84.3	-88.8	2.5	3.11e+01	0	47	104	0	60	1048575
2026-01-18 01:09:00.11	207.78	16.17	-84.3	-88.8	2.5	3.11e+01	0	47	104	0	60	1048575
2026-01-18 01:09:04.12	207.76	15.68	-83.9	-88.8	2.7	3.11e+01	0	47	104	0	60	1048575
2026-01-18 01:09:08.14	207.74	15.20	-83.9	-88.8	2.4	3.11e+01	0	47	104	0	60	1048575
2026-01-18 01:09:12.17	207.73	14.73	-84.3	-88.8	2.2	3.11e+01	0	47	104	0	60	1048575
2026-01-18 01:09:16.17	207.71	14.27	-84.3	-88.8	2.4	3.11e+01	0	47	104	0	60	1048575
2026-01-18 01:09:20.21	207.70	13.81	-84.3	-88.8	2.5	3.11e+01	0	47	104	0	60	1048575
2026-01-18 01:09:24.24	207.68	13.37	-84.3	-88.8	2.5	3.11e+01	0	47	104	0	60	1048575
2026-01-18 01:09:28.26	207.67	12.94	-84.3	-88.8	2.6	3.11e+01	0	47	104	0	60	1048575
2026-01-18 01:09:32.29	207.65	12.51	-83.9	-88.8	2.6	3.11e+01	0	47	104	0	60	1048575
2026-01-18 01:09:36.31	207.64	12.09	-83.9	-88.8	2.8	3.11e+01	0	47	104	0	60	1048575
2026-01-18 01:09:40.33	207.63	11.68	-84.3	-88.8	2.6	3.11e+01	0	47	104	0	60	1048575
2026-01-18 01:09:44.37	207.62	11.28	-84.3	-88.8	2.4	3.11e+01	0	47	104	0	60	1048575
2026-01-18 01:09:48.39	207.61	10.88	-84.3	-88.8	2.4	3.11e+01	0	47	104	0	60	1048575
2026-01-18 01:09:52.42	207.60	10.50	-84.3	-88.8	2.6	3.11e+01	0	47	104	0	60	1048575
2026-01-18 01:09:56.44	207.59	10.11	-84.3	-88.8	2.7	3.11e+01	0	47	104	0	60	1048575
2026-01-18 01:10:00.48	207.59	9.74	-83.9	-88.8	2.5	3.11e+01	0	47	104	0	60	1048575
2026-01-18 01:10:04.51	207.58	9.37	-83.9	-88.8	2.5	3.11e+01	0	47	104	0	60	1048575
2026-01-18 01:10:08.53	207.57	9.01	-84.3	-88.8	2.4	3.11e+01	0	47	104	0	60	1048575
2026-01-18 01:10:12.56	207.57	8.65	-84.3	-88.8	2.6	3.11e+01	0	47	104	0	60	1048575
2026-01-18 01:10:16.58	207.56	8.30	-83.9	-88.8	2.5	3.11e+01	0	47	104	0	60	1048575
2026-01-18 01:10:20.61	207.56	7.95	-84.3	-88.8	2.6	3.11e+01	0	47	104	0	60	1048575
2026-01-18 01:10:24.64	207.55	7.61	-83.9	-88.8	2.6	3.11e+01	0	47	104	0	60	1048575
2026-01-18 01:10:28.66	207.55	7.27	-83.9	-88.8	2.7	3.11e+01	0	47	104	0	60	1048575
2026-01-18 01:10:32.69	207.54	6.94	-84.3	-88.8	2.5	3.11e+01	0	47	104	0	60	1048575
2026-01-18 01:10:36.71	207.54	6.62	-84.3	-88.8	2.6	3.11e+01	0	47	104	0	60	1048575
2026-01-18 01:10:40.73	207.54	6.29	-84.3	-88.8	2.4	3.11e+01	0	47	104	0	60	1048575
2026-01-18 01:10:44.76	207.53	5.98	-83.9	-88.8	2.6	3.11e+01	0	47	104	0	60	1048575
2026-01-18 01:10:48.79	207.53	5.66	-84.3	-88.8	2.4	3.11e+01	0	47	104	0	60	1048575
2026-01-18 01:10:52.82	207.53	5.35	-83.9	-88.8	2.3	3.11e+01	0	47	104	0	60	1048575
2026-01-18 01:10:56.85	207.53	5.05	-83.9	-88.8	2.6	3.11e+01	0	47	104	0	60	1048575
2026-01-18 01:11:00.88	207.53	4.75	-84.3	-88.8	2.5	3.11e+01	0	47	104	0	60	1048575
2026-01-18 01:11:04.90	207.53	4.45	-84.3	-88.8	2.6	3.11e+01	0	47	104	0	60	1048575
2026-01-18 01:11:08.92	207.53	4.15	-84.3	-88.8	2.5	3.11e+01	0	47	104	0	60	1048575
2026-01-18 01:11:12.94	207.53	3.86	-84.3	-88.8	2.4	3.11e+01	0	47	104	0	60	1048575
2026-01-18 01:11:16.97	207.53	3.58	-83.9	-88.8	2.6	3.11e+01	0	47	104	0	60	1048575
2026-01-18 01:11:21.01	207.53	3.29	-83.9	-88.8	2.5	3.11e+01	0	47	104	0	60	1048575
2026-01-18 01:11:25.04	207.53	3.01	-84.3	-88.8	2.4	3.11e+01	0	47	104	0	60	1048575
2026-01-18 01:11:29.05	207.53	2.74	-84.3	-88.8	2.3	3.11e+01	0	47	104	0	60	1048575
2026-01-18 01:11:33.08	207.53	2.46	-84.3	-88.8	2.2	3.11e+01	0	47	104	0	60	1048575
2026-01-18 01:11:37.11	207.53	2.19	-84.3	-88.8	2.4	3.11e+01	0	47	104	0	60	1048575
2026-01-18 01:11:41.14	207.53	1.92	-84.3	-88.8	2.6	3.11e+01	0	47	104	0	60	1048575
2026-01-18 01:11:45.16	207.53	1.66	-83.9	-88.8	2.4	3.11e+01	0	47	104	0	60	1048575
2026-01-18 01:11:49.17	207.54	1.39	-83.9	-88.8	2.7	3.11e+01	0	47	104	0	60	1048575
2026-01-18 01:11:53.17	207.54	1.13	-84.3	-88.8	2.7	3.11e+01	0	47	104	0	60	1048575
2026-01-18 01:11:57.20	207.54	0.88	-84.3	-88.8	2.6	3.11e+01	0	47	104	0	60	1048575
2026-01-18 01:12:01.23	207.54	0.62	-84.3	-88.8	2.7	3.11e+01	0	47	104	0	60	1048575
2026-01-18 01:12:05.26	207.55	0.37	-84.3	-88.8	2.6	3.11e+01	0	47	104	0	60	1048572
2026-01-18 01:12:09.28	207.55	0.12	-83.9	-88.8	2.5	3.11e+01	0	47	104	0	60	1048572

#Closed at: 2026-01-18 01:12:13
#Recorded file [0 MB]: D:/Data/35015_260118_035820.dat