passes_logs/2026/01/18/R3.2S-Naryan-Mar/R3.2S-Naryan-Mar__20260118_140727_TY-41_rec.log

#Pass ID: 20260118_140727_TY-41
#Satellite: TY-41
#Configuration: TY-39
#almurnet v.1.7.20240730
#Start time: 2026-01-18 14:07:30

#Version: 2.2.20231116
#Station: R3.2S-Naryan-Mar
#Location: 53.008057 lon 67.646978 lat
#TLE: 1 61231U 24173E   26018.25438657  .00008012  00000-0  38191-3 0 09993
#TLE: 2 61231 097.4123 093.2273 0001689 092.2184 306.3117 15.19177353 72997

#Time	Az	El	Level	Level2	SNR	BER	BlckErr	Temp	State	Recorded	gain1	gain2
2026-01-18 14:07:30.33	72.92	0.16	-84.7	-88.6	3.7	7.61e-01	0	45	0	0	60	1048571
2026-01-18 14:07:33.34	72.61	0.31	-83.5	-79.0	2.4	0.00e+00	0	46	104	0	60	1048573
2026-01-18 14:07:36.37	72.29	0.47	-83.1	-79.0	2.5	0.00e+00	0	46	104	0	60	1048571
2026-01-18 14:07:39.39	71.97	0.62	-83.5	-79.0	2.5	0.00e+00	0	46	104	0	60	1048569
2026-01-18 14:07:42.42	71.64	0.78	-83.1	-79.0	2.4	0.00e+00	0	46	104	0	60	1048575
2026-01-18 14:07:45.44	71.32	0.93	-83.5	-79.0	2.6	0.00e+00	0	47	104	0	60	1048571
2026-01-18 14:07:48.46	70.98	1.09	-83.5	-79.0	2.4	0.00e+00	0	47	104	0	60	1048571
2026-01-18 14:07:51.48	70.64	1.25	-83.1	-79.0	2.3	0.00e+00	0	47	104	0	60	1048575
2026-01-18 14:07:54.50	70.30	1.41	-83.5	-79.0	2.4	0.00e+00	0	47	104	0	60	1048572
2026-01-18 14:07:57.52	69.95	1.56	-83.5	-79.0	2.4	0.00e+00	0	47	104	0	60	1048573
2026-01-18 14:08:00.55	69.60	1.72	-83.1	-79.0	2.5	0.00e+00	0	47	104	0	60	1048574
2026-01-18 14:08:03.57	69.24	1.88	-83.5	-79.0	2.5	0.00e+00	0	47	104	0	60	1048560
2026-01-18 14:08:06.59	68.88	2.04	-83.5	-79.0	2.4	0.00e+00	0	47	104	0	60	1048575
2026-01-18 14:08:09.60	68.51	2.19	-82.8	-79.0	2.4	0.00e+00	0	47	104	0	60	1048573
2026-01-18 14:08:12.63	68.14	2.35	-83.5	-79.0	2.3	0.00e+00	0	47	104	0	60	1048573
2026-01-18 14:08:15.65	67.76	2.51	-83.1	-79.0	2.5	0.00e+00	0	47	104	0	60	1048575
2026-01-18 14:08:18.68	67.38	2.67	-83.5	-79.0	2.4	0.00e+00	0	47	104	0	60	1048573
2026-01-18 14:08:21.70	66.99	2.83	-83.5	-79.0	2.4	0.00e+00	0	47	104	0	60	1048575
2026-01-18 14:08:24.71	66.60	2.99	-83.1	-79.0	2.4	0.00e+00	0	47	104	0	60	1048573
2026-01-18 14:08:27.74	66.20	3.15	-83.5	-79.0	2.4	0.00e+00	0	48	104	0	60	1048575
2026-01-18 14:08:30.76	65.79	3.31	-83.5	-79.0	2.3	0.00e+00	0	47	104	0	60	1048575
2026-01-18 14:08:33.78	65.38	3.47	-83.1	-79.0	2.4	0.00e+00	0	48	104	0	60	1048568
2026-01-18 14:08:36.81	64.96	3.63	-83.5	-79.0	2.6	0.00e+00	0	48	104	0	60	1048571
2026-01-18 14:08:39.83	64.54	3.79	-83.5	-79.0	2.4	0.00e+00	0	48	104	0	60	1048567
2026-01-18 14:08:42.84	64.11	3.95	-83.1	-79.0	2.6	0.00e+00	0	48	104	0	60	1048575
2026-01-18 14:08:45.87	63.67	4.11	-83.5	-79.0	2.4	0.00e+00	0	48	104	0	60	1048573
2026-01-18 14:08:48.89	63.23	4.27	-83.5	-79.0	2.4	0.00e+00	0	48	104	0	60	1048575
2026-01-18 14:08:51.91	62.79	4.43	-83.5	-79.0	2.5	0.00e+00	0	48	104	0	60	1048572
2026-01-18 14:08:54.92	62.33	4.59	-83.5	-79.0	2.6	0.00e+00	0	48	104	0	60	1048575
2026-01-18 14:08:57.94	61.87	4.75	-83.1	-79.0	2.4	0.00e+00	0	48	104	0	60	1048569
2026-01-18 14:09:00.94	61.41	4.91	-83.5	-79.0	2.5	0.00e+00	0	48	104	0	60	1048575
2026-01-18 14:09:03.97	60.94	5.07	-83.5	-79.0	2.7	0.00e+00	0	48	104	0	60	1048570
2026-01-18 14:09:06.99	60.46	5.23	-83.1	-79.0	2.6	0.00e+00	0	48	104	0	60	1048575
2026-01-18 14:09:10.00	59.97	5.39	-83.1	-79.0	2.6	0.00e+00	0	48	104	0	60	1048574
2026-01-18 14:09:13.02	59.48	5.54	-83.5	-79.0	2.4	0.00e+00	0	48	104	0	60	1048574
2026-01-18 14:09:16.04	58.98	5.70	-83.1	-79.0	2.5	0.00e+00	0	48	104	0	60	1048570
2026-01-18 14:09:19.07	58.47	5.86	-83.5	-79.0	2.5	0.00e+00	0	48	104	0	60	1048573
2026-01-18 14:09:22.09	57.96	6.02	-83.1	-79.0	2.3	0.00e+00	0	48	104	0	60	1048569
2026-01-18 14:09:25.11	57.43	6.17	-83.1	-79.0	2.4	0.00e+00	0	48	104	0	60	1048574
2026-01-18 14:09:28.13	56.91	6.33	-83.5	-79.0	2.7	0.00e+00	0	48	104	0	60	1048575
2026-01-18 14:09:31.15	56.37	6.48	-83.5	-79.0	2.4	0.00e+00	0	48	104	0	60	1048575
2026-01-18 14:09:34.17	55.83	6.64	-83.5	-79.0	2.7	0.00e+00	0	48	104	0	60	1048574
2026-01-18 14:09:37.19	55.28	6.79	-83.5	-79.0	2.4	0.00e+00	0	48	104	0	60	1048573
2026-01-18 14:09:40.21	54.72	6.94	-82.8	-79.0	2.6	0.00e+00	0	48	104	0	60	1048574
2026-01-18 14:09:43.23	54.16	7.09	-83.1	-79.0	2.4	0.00e+00	0	48	104	0	60	1048574
2026-01-18 14:09:46.24	53.59	7.24	-83.5	-79.0	2.4	0.00e+00	0	48	104	0	60	1048573
2026-01-18 14:09:49.26	53.01	7.39	-83.5	-79.0	2.4	0.00e+00	0	48	104	0	60	1048574
2026-01-18 14:09:52.28	52.42	7.54	-83.5	-79.0	2.5	0.00e+00	0	48	104	0	60	1048572
2026-01-18 14:09:55.30	51.83	7.69	-83.5	-79.0	2.4	0.00e+00	0	48	104	0	60	1048575
2026-01-18 14:09:58.32	51.22	7.83	-83.5	-79.0	2.3	0.00e+00	0	48	104	0	60	1048575
2026-01-18 14:10:01.33	50.62	7.98	-83.5	-79.0	2.4	0.00e+00	0	48	104	0	60	1048572
2026-01-18 14:10:04.36	50.00	8.12	-83.1	-79.0	2.5	0.00e+00	0	48	104	0	60	1048558
2026-01-18 14:10:07.38	49.37	8.26	-83.5	-79.0	2.5	0.00e+00	0	48	104	0	60	1048574
2026-01-18 14:10:10.40	48.74	8.40	-83.5	-79.0	2.7	0.00e+00	0	48	104	0	60	1048570
2026-01-18 14:10:13.42	48.10	8.54	-83.1	-79.0	2.4	0.00e+00	0	48	104	0	60	1048575
2026-01-18 14:10:16.44	47.45	8.67	-83.5	-79.0	2.6	0.00e+00	0	48	104	0	60	1048568
2026-01-18 14:10:19.46	46.80	8.80	-83.5	-79.0	2.5	0.00e+00	0	48	104	0	60	1048575
2026-01-18 14:10:22.48	46.14	8.93	-83.1	-79.0	2.6	0.00e+00	0	48	104	0	60	1048565
2026-01-18 14:10:25.51	45.47	9.06	-83.5	-79.0	2.4	0.00e+00	0	48	104	0	60	1048573
2026-01-18 14:10:28.52	44.79	9.19	-83.1	-79.0	2.4	0.00e+00	0	48	104	0	60	1048574
2026-01-18 14:10:31.54	44.11	9.31	-83.5	-79.0	2.6	0.00e+00	0	48	104	0	60	1048572
2026-01-18 14:10:34.56	43.42	9.44	-83.5	-79.0	2.5	0.00e+00	0	48	104	0	60	1048571
2026-01-18 14:10:37.58	42.72	9.55	-83.1	-79.0	2.4	0.00e+00	0	48	104	0	60	1048572
2026-01-18 14:10:40.60	42.01	9.67	-83.1	-79.0	2.3	0.00e+00	0	48	104	0	60	1048572
2026-01-18 14:10:43.63	41.30	9.78	-83.5	-79.0	2.5	0.00e+00	0	48	104	0	60	1048574
2026-01-18 14:10:46.65	40.58	9.89	-82.8	-79.0	2.4	0.00e+00	0	48	104	0	60	1048572
2026-01-18 14:10:49.68	39.85	10.00	-83.5	-79.0	2.4	0.00e+00	0	49	104	0	60	1048573
2026-01-18 14:10:52.69	39.12	10.11	-83.5	-79.0	2.4	0.00e+00	0	48	104	0	60	1048575
2026-01-18 14:10:55.71	38.39	10.21	-83.1	-79.0	2.4	0.00e+00	0	49	104	0	60	1048574
2026-01-18 14:10:58.73	37.64	10.30	-83.5	-79.0	2.5	0.00e+00	0	48	104	0	60	1048572
2026-01-18 14:11:01.76	36.89	10.40	-83.1	-79.0	2.4	0.00e+00	0	49	104	0	60	1048571
2026-01-18 14:11:04.78	36.13	10.49	-83.1	-79.0	2.1	0.00e+00	0	48	104	0	60	1048572
2026-01-18 14:11:07.80	35.37	10.57	-83.5	-79.0	2.4	0.00e+00	0	48	104	0	60	1048573
2026-01-18 14:11:10.82	34.61	10.66	-83.1	-79.0	2.4	0.00e+00	0	48	104	0	60	1048571
2026-01-18 14:11:13.84	33.83	10.73	-83.5	-79.0	2.4	0.00e+00	0	48	104	0	60	1048571
2026-01-18 14:11:16.87	33.05	10.81	-83.5	-79.0	2.3	0.00e+00	0	49	104	0	60	1048574
2026-01-18 14:11:19.89	32.27	10.88	-83.1	-79.0	2.4	0.00e+00	0	49	104	0	60	1048575
2026-01-18 14:11:22.92	31.48	10.95	-83.1	-79.0	2.4	0.00e+00	0	49	104	0	60	1048574
2026-01-18 14:11:25.94	30.69	11.01	-83.5	-79.0	2.4	0.00e+00	0	49	104	0	60	1048568
2026-01-18 14:11:28.96	29.90	11.07	-83.1	-79.0	2.5	0.00e+00	0	49	104	0	60	1048568
2026-01-18 14:11:31.99	29.10	11.12	-83.5	-79.0	2.5	0.00e+00	0	49	104	0	60	1048574
2026-01-18 14:11:35.01	28.30	11.17	-83.1	-79.0	2.4	0.00e+00	0	49	104	0	60	1048575
2026-01-18 14:11:38.04	27.49	11.21	-83.5	-79.0	2.5	0.00e+00	0	48	104	0	60	1048575
2026-01-18 14:11:41.05	26.69	11.25	-83.5	-79.0	2.5	0.00e+00	0	48	104	0	60	1048571
2026-01-18 14:11:44.07	25.88	11.29	-83.5	-79.0	2.4	0.00e+00	0	49	104	0	60	1048574
2026-01-18 14:11:47.08	25.07	11.32	-83.5	-79.0	2.4	0.00e+00	0	49	104	0	60	1048559
2026-01-18 14:11:50.10	24.25	11.34	-83.5	-79.0	2.4	0.00e+00	0	49	104	0	60	1048573
2026-01-18 14:11:53.12	23.44	11.36	-82.8	-79.0	2.5	0.00e+00	0	49	104	0	60	1048572
2026-01-18 14:11:56.14	22.62	11.38	-83.1	-79.0	2.4	0.00e+00	0	49	104	0	60	1048571
2026-01-18 14:11:59.16	21.80	11.39	-83.5	-79.0	2.4	0.00e+00	0	49	104	0	60	1048562
2026-01-18 14:12:02.18	20.98	11.40	-82.8	-79.0	2.4	0.00e+00	0	49	104	0	60	1048571
2026-01-18 14:12:05.21	20.16	11.40	-83.5	-79.0	2.4	0.00e+00	0	49	104	0	60	1048574
2026-01-18 14:12:08.24	19.34	11.40	-83.5	-79.0	2.5	0.00e+00	0	49	104	0	60	1048570
2026-01-18 14:12:11.26	18.53	11.39	-83.5	-79.0	2.4	0.00e+00	0	49	104	0	60	1048575
2026-01-18 14:12:14.28	17.71	11.38	-83.5	-79.0	2.6	0.00e+00	0	49	104	0	60	1048575
2026-01-18 14:12:17.29	16.89	11.36	-83.1	-79.0	2.3	0.00e+00	0	49	104	0	60	1048573
2026-01-18 14:12:20.32	16.08	11.33	-83.5	-79.0	2.2	0.00e+00	0	49	104	0	60	1048575
2026-01-18 14:12:23.34	15.26	11.31	-83.5	-79.0	2.3	0.00e+00	0	49	104	0	60	1048574
2026-01-18 14:12:26.36	14.45	11.28	-83.1	-79.0	2.5	0.00e+00	0	49	104	0	60	1048569
2026-01-18 14:12:29.38	13.65	11.24	-83.5	-79.0	2.4	0.00e+00	0	49	104	0	60	1048574
2026-01-18 14:12:32.40	12.84	11.20	-83.5	-79.0	2.4	0.00e+00	0	49	104	0	60	1048571
2026-01-18 14:12:35.43	12.03	11.15	-83.1	-79.0	2.4	0.00e+00	0	49	104	0	60	1048564
2026-01-18 14:12:38.45	11.23	11.10	-83.5	-79.0	2.6	0.00e+00	0	49	104	0	60	1048573
2026-01-18 14:12:41.47	10.44	11.04	-83.5	-79.0	2.6	0.00e+00	0	49	104	0	60	1048563
2026-01-18 14:12:44.49	9.65	10.99	-83.5	-79.0	2.2	0.00e+00	0	49	104	0	60	1048575
2026-01-18 14:12:47.51	8.86	10.92	-83.5	-79.0	2.4	0.00e+00	0	49	104	0	60	1048571
2026-01-18 14:12:50.53	8.07	10.85	-83.5	-79.0	2.4	0.00e+00	0	49	104	0	60	1048574
2026-01-18 14:12:53.55	7.30	10.78	-83.5	-79.0	2.4	0.00e+00	0	49	104	0	60	1048572
2026-01-18 14:12:56.58	6.52	10.71	-83.5	-79.0	2.7	0.00e+00	0	49	104	0	60	1048575
2026-01-18 14:12:59.60	5.75	10.63	-82.8	-79.0	2.4	0.00e+00	0	49	104	0	60	1048572
2026-01-18 14:13:02.62	4.99	10.54	-83.5	-79.0	2.4	0.00e+00	0	49	104	0	60	1048575
2026-01-18 14:13:05.63	4.23	10.45	-83.5	-79.0	2.5	0.00e+00	0	49	104	0	60	1048569
2026-01-18 14:13:08.66	3.47	10.36	-83.1	-79.0	2.3	0.00e+00	0	49	104	0	60	1048574
2026-01-18 14:13:11.68	2.73	10.27	-83.5	-79.0	2.4	0.00e+00	0	49	104	0	60	1048575
2026-01-18 14:13:14.70	1.99	10.17	-83.1	-79.0	2.3	0.00e+00	0	49	104	0	60	1048567
2026-01-18 14:13:17.71	1.25	10.07	-83.5	-79.0	2.6	0.00e+00	0	49	104	0	60	1048572
2026-01-18 14:13:20.73	0.53	9.96	-83.5	-79.0	2.4	0.00e+00	0	49	104	0	60	1048575
2026-01-18 14:13:23.75	359.81	9.85	-83.1	-79.0	2.4	0.00e+00	0	49	104	0	60	1048574
2026-01-18 14:13:26.77	359.09	9.74	-83.5	-79.0	2.4	0.00e+00	0	49	104	0	60	1048570
2026-01-18 14:13:29.78	358.38	9.63	-83.5	-79.0	2.6	0.00e+00	0	49	104	0	60	1048575
2026-01-18 14:13:32.80	357.68	9.51	-83.1	-79.0	2.4	0.00e+00	0	49	104	0	60	1048575
2026-01-18 14:13:35.83	356.99	9.39	-83.1	-79.0	2.6	0.00e+00	0	49	104	0	60	1048575
2026-01-18 14:13:38.85	356.30	9.27	-83.5	-79.0	2.4	0.00e+00	0	49	104	0	60	1048565
2026-01-18 14:13:41.87	355.62	9.15	-83.1	-79.0	2.5	0.00e+00	0	49	104	0	60	1048574
2026-01-18 14:13:44.90	354.95	9.02	-83.5	-79.0	2.5	0.00e+00	0	49	104	0	60	1048574
2026-01-18 14:13:47.92	354.28	8.89	-83.1	-79.0	2.1	0.00e+00	0	49	104	0	60	1048573
2026-01-18 14:13:50.95	353.62	8.76	-83.5	-79.0	2.5	0.00e+00	0	49	104	0	60	1048575
2026-01-18 14:13:53.97	352.97	8.62	-83.5	-79.0	2.5	0.00e+00	0	49	104	0	60	1048575
2026-01-18 14:13:56.99	352.33	8.49	-83.1	-79.0	2.4	0.00e+00	0	49	104	0	60	1048575
2026-01-18 14:14:00.01	351.69	8.35	-83.5	-79.0	2.4	0.00e+00	0	49	104	0	60	1048574
2026-01-18 14:14:03.03	351.06	8.21	-83.5	-79.0	2.3	0.00e+00	0	49	104	0	60	1048575
2026-01-18 14:14:06.06	350.44	8.07	-83.1	-79.0	2.6	0.00e+00	0	49	104	0	60	1048575
2026-01-18 14:14:09.08	349.83	7.93	-83.1	-79.0	2.4	0.00e+00	0	49	104	0	60	1048573
2026-01-18 14:14:12.10	349.22	7.78	-83.5	-79.0	2.5	0.00e+00	0	49	104	0	60	1048575
2026-01-18 14:14:15.12	348.63	7.64	-83.1	-79.0	2.5	0.00e+00	0	49	104	0	60	1048574
2026-01-18 14:14:18.14	348.04	7.49	-83.5	-79.0	2.5	0.00e+00	0	49	104	0	60	1048574
2026-01-18 14:14:21.16	347.45	7.34	-83.1	-79.0	2.3	0.00e+00	0	49	104	0	60	1048571
2026-01-18 14:14:24.19	346.88	7.19	-83.5	-79.0	2.4	0.00e+00	0	49	104	0	60	1048574
2026-01-18 14:14:27.21	346.31	7.04	-83.5	-79.0	2.4	0.00e+00	0	49	104	0	60	1048571
2026-01-18 14:14:30.22	345.75	6.89	-83.1	-79.0	2.4	0.00e+00	0	49	104	0	60	1048574
2026-01-18 14:14:33.24	345.20	6.74	-83.5	-79.0	2.4	0.00e+00	0	49	104	0	60	1048572
2026-01-18 14:14:36.26	344.65	6.58	-83.5	-79.0	2.4	0.00e+00	0	49	104	0	60	1048574
2026-01-18 14:14:39.28	344.11	6.43	-83.1	-79.0	2.5	0.00e+00	0	49	104	0	60	1048573
2026-01-18 14:14:42.30	343.58	6.28	-83.5	-79.0	2.3	0.00e+00	0	49	104	0	60	1048575
2026-01-18 14:14:45.32	343.06	6.12	-83.5	-79.0	2.4	0.00e+00	0	49	104	0	60	1048574
2026-01-18 14:14:48.35	342.54	5.96	-83.1	-79.0	2.4	0.00e+00	0	49	104	0	60	1048572
2026-01-18 14:14:51.37	342.03	5.81	-83.5	-79.0	2.6	0.00e+00	0	49	104	0	60	1048575
2026-01-18 14:14:54.40	341.52	5.65	-83.1	-79.0	2.4	0.00e+00	0	49	104	0	60	1048574
2026-01-18 14:14:57.42	341.03	5.49	-83.5	-79.0	2.5	0.00e+00	0	49	104	0	60	1048573
2026-01-18 14:15:00.43	340.54	5.33	-83.5	-79.0	2.4	0.00e+00	0	49	104	0	60	1048573
2026-01-18 14:15:03.45	340.06	5.17	-82.8	-79.0	2.4	0.00e+00	0	49	104	0	60	1048573
2026-01-18 14:15:06.47	339.58	5.02	-83.5	-79.0	2.8	0.00e+00	0	49	104	0	60	1048571
2026-01-18 14:15:09.49	339.11	4.86	-83.5	-79.0	2.4	0.00e+00	0	49	104	0	60	1048574
2026-01-18 14:15:12.52	338.65	4.70	-83.1	-79.0	2.4	0.00e+00	0	49	104	0	60	1048574
2026-01-18 14:15:15.54	338.19	4.54	-83.5	-79.0	2.6	0.00e+00	0	49	104	0	60	1048575
2026-01-18 14:15:18.56	337.74	4.38	-83.5	-79.0	2.4	0.00e+00	0	49	104	0	60	1048574
2026-01-18 14:15:21.59	337.30	4.22	-83.1	-79.0	2.5	0.00e+00	0	49	104	0	60	1048575
2026-01-18 14:15:24.61	336.86	4.06	-83.5	-79.0	2.6	0.00e+00	0	49	104	0	60	1048573
2026-01-18 14:15:27.64	336.43	3.90	-83.1	-79.0	2.2	0.00e+00	0	49	104	0	60	1048574
2026-01-18 14:15:30.65	336.00	3.74	-83.5	-79.0	2.5	0.00e+00	0	49	104	0	60	1048572
2026-01-18 14:15:33.67	335.58	3.58	-83.5	-79.0	2.4	0.00e+00	0	49	104	0	60	1048567
2026-01-18 14:15:36.69	335.17	3.42	-82.8	-79.0	2.5	0.00e+00	0	49	104	0	60	1048574
2026-01-18 14:15:39.71	334.76	3.26	-83.5	-79.0	2.4	0.00e+00	0	49	104	0	60	1048572
2026-01-18 14:15:42.73	334.36	3.10	-83.5	-79.0	2.4	0.00e+00	0	49	104	0	60	1048573
2026-01-18 14:15:45.76	333.96	2.94	-83.1	-79.0	2.4	0.00e+00	0	49	104	0	60	1048575
2026-01-18 14:15:48.77	333.58	2.78	-83.1	-79.0	2.5	0.00e+00	0	49	104	0	60	1048573
2026-01-18 14:15:51.79	333.19	2.62	-83.5	-79.0	2.4	0.00e+00	0	49	104	0	60	1048574
2026-01-18 14:15:54.81	332.81	2.46	-83.1	-79.0	2.4	0.00e+00	0	49	104	0	60	1048572
2026-01-18 14:15:57.83	332.44	2.30	-83.5	-79.0	2.5	0.00e+00	0	49	104	0	60	1048572
2026-01-18 14:16:00.86	332.07	2.15	-83.1	-79.0	2.4	0.00e+00	0	49	104	0	60	1048575
2026-01-18 14:16:03.88	331.70	1.99	-83.5	-79.0	2.5	0.00e+00	0	49	104	0	60	1048574
2026-01-18 14:16:06.90	331.34	1.83	-83.5	-79.0	2.5	0.00e+00	0	49	104	0	60	1048575
2026-01-18 14:16:09.93	330.99	1.67	-82.8	-79.0	2.4	0.00e+00	0	49	104	0	60	1048573
2026-01-18 14:16:12.95	330.64	1.51	-83.5	-79.0	2.6	0.00e+00	0	49	104	0	60	1048575
2026-01-18 14:16:15.97	330.29	1.36	-83.5	-79.0	2.4	0.00e+00	0	49	104	0	60	1048575
2026-01-18 14:16:18.99	329.95	1.20	-83.1	-79.0	2.4	0.00e+00	0	49	104	0	60	1048574
2026-01-18 14:16:22.01	329.62	1.04	-83.1	-79.0	2.8	0.00e+00	0	49	104	0	60	1048573
2026-01-18 14:16:25.02	329.29	0.89	-83.5	-79.0	2.4	0.00e+00	0	49	104	0	60	1048574
2026-01-18 14:16:28.04	328.97	0.73	-83.5	-79.0	2.4	0.00e+00	0	49	104	0	60	1048572
2026-01-18 14:16:31.06	328.64	0.58	-83.5	-79.0	2.6	0.00e+00	0	49	104	0	60	1048575
2026-01-18 14:16:34.08	328.33	0.42	-83.1	-79.0	2.2	0.00e+00	0	49	104	0	60	1048575
2026-01-18 14:16:37.10	328.01	0.27	-83.5	-79.0	2.3	0.00e+00	0	49	104	0	60	1048574
2026-01-18 14:16:40.12	327.71	0.11	-83.5	-79.0	2.4	0.00e+00	0	49	104	0	60	1048573
2026-01-18 14:16:43.14	327.40	-0.04	-82.8	-79.0	2.5	0.00e+00	0	49	104	0	60	1048574

#Closed at: 2026-01-18 14:16:43
#Recorded file [0 MB]: D:/Data/35015_260118_170730.dat