passes_logs/2026/01/18/R3.2S-Naryan-Mar/R3.2S-Naryan-Mar__20260118_001358_SUOMI_NPP_rec.log

#Pass ID: 20260118_001358_SUOMI NPP
#Satellite: SUOMI NPP
#Configuration: NPP
#almurnet v.1.7.20240730
#Start time: 2026-01-18 00:14:00

#Version: 2.2.20231116
#Station: R3.2S-Naryan-Mar
#Location: 53.008057 lon 67.646978 lat
#TLE: 1 37849U 11061A   26017.28905266  .00000074  00000+0  55894-4 0  9999
#TLE: 2 37849  98.7814 319.3179 0002408  59.7048 300.4366 14.19525847737038

#Time	Az	El	Level	Level2	SNR	BER	BlckErr	Temp	State	Recorded	gain1	gain2
2026-01-18 00:14:00.37	27.11	0.12	-85.2	-88.8	3.2	1.56e+00	0	44	0	0	60	1048572
2026-01-18 00:14:04.39	27.04	0.36	-85.2	-88.6	3.0	1.55e+00	0	46	104	0	60	1048575
2026-01-18 00:14:08.42	26.96	0.60	-85.2	-88.6	3.0	1.55e+00	0	46	104	0	60	1048575
2026-01-18 00:14:12.45	26.89	0.84	-85.2	-88.6	3.2	1.55e+00	0	46	104	0	60	1048573
2026-01-18 00:14:16.48	26.81	1.09	-85.2	-88.6	3.1	1.55e+00	0	46	104	0	60	1048574
2026-01-18 00:14:20.49	26.73	1.33	-85.2	-88.6	2.9	1.56e+00	0	46	104	0	60	1048575
2026-01-18 00:14:24.52	26.65	1.58	-85.2	-88.6	2.9	1.56e+00	0	46	104	0	60	1048572
2026-01-18 00:14:28.55	26.57	1.84	-85.2	-88.6	2.9	1.56e+00	0	46	104	0	60	1048575
2026-01-18 00:14:32.58	26.49	2.09	-85.2	-88.6	3.0	1.56e+00	0	46	104	0	60	1048575
2026-01-18 00:14:36.60	26.41	2.35	-85.2	-88.6	2.9	1.56e+00	0	46	104	0	60	1048574
2026-01-18 00:14:40.63	26.32	2.60	-85.2	-88.6	3.0	1.56e+00	0	46	104	0	60	1048575
2026-01-18 00:14:44.66	26.23	2.86	-85.2	-88.6	2.9	1.56e+00	0	46	104	0	60	1048572
2026-01-18 00:14:48.69	26.14	3.13	-85.2	-88.6	3.0	1.56e+00	0	46	104	0	60	1048569
2026-01-18 00:14:52.72	26.05	3.39	-85.2	-88.6	2.9	1.55e+00	0	46	104	0	60	1048573
2026-01-18 00:14:56.75	25.96	3.66	-85.2	-88.6	2.9	1.55e+00	0	47	104	0	60	1048575
2026-01-18 00:15:00.78	25.86	3.93	-85.2	-88.6	3.0	1.55e+00	0	46	104	0	60	1048575
2026-01-18 00:15:04.81	25.76	4.21	-85.2	-88.6	3.1	1.56e+00	0	46	104	0	60	1048575
2026-01-18 00:15:08.83	25.66	4.48	-85.2	-88.6	3.2	1.56e+00	0	46	104	0	60	1048575
2026-01-18 00:15:12.86	25.56	4.76	-84.3	-88.6	3.1	1.56e+00	0	46	104	0	60	1048575
2026-01-18 00:15:16.89	25.45	5.04	-85.2	-88.6	2.8	1.56e+00	0	47	104	0	60	1048575
2026-01-18 00:15:20.92	25.35	5.33	-85.2	-88.6	3.0	1.56e+00	0	47	104	0	60	1048575
2026-01-18 00:15:24.93	25.24	5.61	-85.2	-88.6	3.0	1.56e+00	0	47	104	0	60	1048575
2026-01-18 00:15:28.97	25.13	5.90	-85.2	-88.6	3.0	1.56e+00	0	47	104	0	60	1048575
2026-01-18 00:15:33.00	25.01	6.20	-85.2	-88.6	2.9	1.55e+00	0	47	104	0	60	1048575
2026-01-18 00:15:37.01	24.89	6.49	-85.2	-88.6	3.1	1.56e+00	0	47	104	0	60	1048574
2026-01-18 00:15:41.04	24.77	6.79	-85.2	-88.6	3.0	1.56e+00	0	47	104	0	60	1048572
2026-01-18 00:15:45.06	24.65	7.09	-85.2	-88.6	2.9	1.55e+00	0	47	104	0	60	1048575
2026-01-18 00:15:49.09	24.53	7.40	-85.2	-88.6	3.0	1.56e+00	0	47	104	0	60	1048575
2026-01-18 00:15:53.13	24.40	7.71	-85.2	-88.6	2.9	1.55e+00	0	47	104	0	60	1048575
2026-01-18 00:15:57.15	24.26	8.03	-85.2	-88.6	3.0	1.56e+00	0	47	104	0	60	1048572
2026-01-18 00:16:01.17	24.13	8.34	-85.2	-88.6	2.9	1.56e+00	0	47	104	0	60	1048575
2026-01-18 00:16:05.21	23.99	8.67	-85.2	-88.6	2.8	1.55e+00	0	47	104	0	60	1048575
2026-01-18 00:16:09.24	23.85	8.99	-85.2	-88.6	3.2	1.56e+00	0	47	104	0	60	1048574
2026-01-18 00:16:13.25	23.70	9.32	-85.2	-88.6	3.0	1.55e+00	0	47	104	0	60	1048573
2026-01-18 00:16:17.28	23.55	9.65	-85.2	-88.6	2.9	1.55e+00	0	47	104	0	60	1048575
2026-01-18 00:16:21.31	23.40	9.99	-85.2	-88.6	2.9	1.56e+00	0	47	104	0	60	1048575
2026-01-18 00:16:25.33	23.24	10.33	-85.2	-88.6	3.0	1.56e+00	0	47	104	0	60	1048575
2026-01-18 00:16:29.35	23.08	10.68	-85.2	-88.6	3.1	1.56e+00	0	47	104	0	60	1048575
2026-01-18 00:16:33.36	22.91	11.03	-85.2	-88.6	3.0	1.56e+00	0	47	104	0	60	1048571
2026-01-18 00:16:37.39	22.74	11.39	-85.2	-88.6	2.8	1.55e+00	0	47	104	0	60	1048573
2026-01-18 00:16:41.41	22.57	11.75	-85.2	-88.6	3.1	1.56e+00	0	47	104	0	60	1048575
2026-01-18 00:16:45.43	22.39	12.12	-85.2	-88.6	2.8	1.56e+00	0	47	104	0	60	1048573
2026-01-18 00:16:49.45	22.20	12.49	-85.2	-88.6	3.2	1.56e+00	0	47	104	0	60	1048575
2026-01-18 00:16:53.49	22.01	12.87	-85.2	-88.6	2.9	1.56e+00	0	47	104	0	60	1048575
2026-01-18 00:16:57.52	21.82	13.25	-85.2	-88.6	2.7	1.56e+00	0	47	104	0	60	1048575
2026-01-18 00:17:01.55	21.62	13.64	-85.2	-88.6	2.8	1.56e+00	0	47	104	0	60	1048575
2026-01-18 00:17:05.57	21.41	14.03	-85.2	-88.6	2.9	1.56e+00	0	47	104	0	60	1048574
2026-01-18 00:17:09.59	21.20	14.43	-85.2	-88.6	3.1	1.56e+00	0	47	104	0	60	1048575
2026-01-18 00:17:13.62	20.98	14.84	-84.7	-88.6	3.1	1.55e+00	0	47	104	0	60	1048575
2026-01-18 00:17:17.65	20.75	15.25	-81.5	-88.6	3.0	1.56e+00	0	47	104	0	60	1048575
2026-01-18 00:17:21.67	20.52	15.67	-85.2	-88.6	2.8	1.56e+00	0	47	104	0	60	1048574
2026-01-18 00:17:25.69	20.28	16.10	-85.2	-88.6	3.0	1.56e+00	0	47	104	0	60	1048574
2026-01-18 00:17:29.72	20.04	16.53	-85.2	-88.6	2.8	1.56e+00	0	47	104	0	60	1048572
2026-01-18 00:17:33.75	19.78	16.98	-85.2	-88.6	3.1	1.56e+00	0	47	104	0	60	1048575
2026-01-18 00:17:37.78	19.52	17.42	-85.2	-88.6	3.1	1.55e+00	0	47	104	0	60	1048573
2026-01-18 00:17:41.81	19.25	17.88	-85.2	-88.6	2.9	1.56e+00	0	47	104	0	60	1048575
2026-01-18 00:17:45.84	18.97	18.35	-85.2	-88.6	3.2	1.56e+00	0	47	104	0	60	1048575
2026-01-18 00:17:49.87	18.68	18.82	-85.2	-88.6	3.1	1.56e+00	0	47	104	0	60	1048574
2026-01-18 00:17:53.88	18.38	19.30	-85.2	-88.6	2.8	1.56e+00	0	47	104	0	60	1048572
2026-01-18 00:17:57.90	18.07	19.79	-85.2	-88.6	2.8	1.55e+00	0	47	104	0	60	1048572
2026-01-18 00:18:01.93	17.75	20.29	-85.2	-88.6	3.1	1.55e+00	0	47	104	0	60	1048575
2026-01-18 00:18:05.96	17.42	20.79	-85.2	-88.6	3.0	1.56e+00	0	47	104	0	60	1048575
2026-01-18 00:18:09.97	17.08	21.31	-85.2	-88.6	3.0	1.56e+00	0	47	104	0	60	1048574
2026-01-18 00:18:14.00	16.72	21.83	-85.2	-88.6	3.1	1.56e+00	0	47	104	0	60	1048569
2026-01-18 00:18:18.02	16.35	22.37	-85.2	-88.6	3.1	1.56e+00	0	47	104	0	60	1048575
2026-01-18 00:18:22.05	15.97	22.92	-85.2	-88.6	3.2	1.56e+00	0	47	104	0	60	1048570
2026-01-18 00:18:26.08	15.58	23.47	-85.2	-88.6	2.9	1.56e+00	0	47	104	0	60	1048575
2026-01-18 00:18:30.09	15.17	24.04	-85.2	-88.6	3.0	1.56e+00	0	47	104	0	60	1048575
2026-01-18 00:18:34.11	14.74	24.62	-85.2	-88.6	2.8	1.56e+00	0	47	104	0	60	1048575
2026-01-18 00:18:38.14	14.30	25.21	-85.2	-88.6	2.9	1.55e+00	0	47	104	0	60	1048574
2026-01-18 00:18:42.17	13.84	25.81	-85.2	-88.6	2.8	1.56e+00	0	47	104	0	60	1048575
2026-01-18 00:18:46.20	13.36	26.42	-85.2	-88.6	3.0	1.55e+00	0	47	104	0	60	1048575
2026-01-18 00:18:50.23	12.86	27.04	-85.2	-88.6	2.9	1.55e+00	0	47	104	0	60	1048575
2026-01-18 00:18:54.26	12.34	27.68	-85.2	-88.6	3.1	1.56e+00	0	47	104	0	60	1048574
2026-01-18 00:18:58.28	11.80	28.33	-85.2	-88.6	3.0	1.56e+00	0	47	104	0	60	1048575
2026-01-18 00:19:02.30	11.23	28.99	-85.2	-88.6	3.0	1.56e+00	0	47	104	0	60	1048573
2026-01-18 00:19:06.32	10.65	29.66	-85.2	-88.6	2.9	1.56e+00	0	47	104	0	60	1048575
2026-01-18 00:19:10.35	10.03	30.34	-85.2	-88.6	3.0	1.56e+00	0	47	104	0	60	1048575
2026-01-18 00:19:14.37	9.39	31.04	-85.2	-88.6	2.9	1.55e+00	0	47	104	0	60	1048575
2026-01-18 00:19:18.40	8.72	31.75	-85.2	-88.6	3.1	1.56e+00	0	47	104	0	60	1048574
2026-01-18 00:19:22.43	8.02	32.48	-85.2	-88.6	3.2	1.56e+00	0	47	104	0	60	1048575
2026-01-18 00:19:26.46	7.28	33.21	-85.2	-88.6	3.1	1.56e+00	0	47	104	0	60	1048574
2026-01-18 00:19:30.49	6.51	33.96	-85.2	-88.6	3.2	1.56e+00	0	47	104	0	60	1048575
2026-01-18 00:19:34.52	5.70	34.73	-85.2	-88.6	2.9	1.56e+00	0	47	104	0	60	1048575
2026-01-18 00:19:38.54	4.85	35.50	-84.3	-88.6	2.9	1.55e+00	0	47	104	0	60	1048575
2026-01-18 00:19:42.57	3.96	36.28	-85.2	-88.6	3.0	1.56e+00	0	47	104	0	60	1048572
2026-01-18 00:19:46.59	3.03	37.08	-85.2	-88.6	2.8	1.55e+00	0	47	104	0	60	1048575
2026-01-18 00:19:50.61	2.05	37.88	-85.2	-88.6	2.9	1.55e+00	0	47	104	0	60	1048575
2026-01-18 00:19:54.65	1.01	38.70	-85.2	-88.6	3.0	1.56e+00	0	47	104	0	60	1048574
2026-01-18 00:19:58.68	359.93	39.52	-84.7	-88.6	3.1	1.55e+00	0	47	104	0	60	1048574
2026-01-18 00:20:02.71	358.78	40.35	-85.2	-88.6	3.1	1.56e+00	0	47	104	0	60	1048574
2026-01-18 00:20:06.72	357.58	41.19	-85.2	-88.6	3.1	1.56e+00	0	47	104	0	60	1048575
2026-01-18 00:20:10.75	356.31	42.03	-85.2	-88.6	3.2	1.56e+00	0	47	104	0	60	1048574
2026-01-18 00:20:14.78	354.97	42.87	-85.2	-88.6	3.0	1.56e+00	0	47	104	0	60	1048573
2026-01-18 00:20:18.81	353.56	43.71	-85.2	-88.6	3.0	1.55e+00	0	47	104	0	60	1048574
2026-01-18 00:20:22.84	352.07	44.56	-85.2	-88.6	2.9	1.56e+00	0	47	104	0	60	1048575
2026-01-18 00:20:26.87	350.49	45.39	-85.2	-88.6	3.2	1.56e+00	0	47	104	0	60	1048574
2026-01-18 00:20:30.89	348.84	46.22	-85.2	-88.6	3.2	1.56e+00	0	47	104	0	60	1048575
2026-01-18 00:20:34.92	347.09	47.04	-85.2	-88.6	2.9	1.55e+00	0	47	104	0	60	1048573
2026-01-18 00:20:38.95	345.25	47.84	-85.2	-88.6	2.9	1.56e+00	0	47	104	0	60	1048575
2026-01-18 00:20:42.98	343.32	48.62	-85.2	-88.6	2.8	1.56e+00	0	47	104	0	60	1048575
2026-01-18 00:20:47.01	341.28	49.38	-85.2	-88.6	3.0	1.56e+00	0	47	104	0	60	1048575
2026-01-18 00:20:51.04	339.14	50.11	-85.2	-88.6	3.0	1.55e+00	0	47	104	0	60	1048573
2026-01-18 00:20:55.07	336.89	50.80	-85.2	-88.6	3.1	1.56e+00	0	47	104	0	60	1048573
2026-01-18 00:20:59.09	334.55	51.46	-85.2	-88.6	2.9	1.56e+00	0	47	104	0	60	1048574
2026-01-18 00:21:03.11	332.11	52.07	-85.2	-88.6	3.2	1.55e+00	0	47	104	0	60	1048574
2026-01-18 00:21:07.14	329.56	52.64	-85.2	-88.6	3.2	1.56e+00	0	47	104	0	60	1048575
2026-01-18 00:21:11.16	326.92	53.14	-85.2	-88.6	3.0	1.56e+00	0	47	104	0	60	1048575
2026-01-18 00:21:15.19	324.19	53.59	-85.2	-88.6	3.0	1.56e+00	0	47	104	0	60	1048575
2026-01-18 00:21:19.21	321.38	53.98	-85.2	-88.6	2.9	1.55e+00	0	47	104	0	60	1048574
2026-01-18 00:21:23.25	318.49	54.29	-85.2	-88.6	2.9	1.56e+00	0	47	104	0	60	1048575
2026-01-18 00:21:27.28	315.55	54.53	-85.2	-88.6	3.1	1.55e+00	0	47	104	0	60	1048574
2026-01-18 00:21:31.31	312.56	54.70	-85.2	-88.6	3.1	1.56e+00	0	47	104	0	60	1048572
2026-01-18 00:21:35.34	309.55	54.78	-85.2	-88.6	3.1	1.56e+00	0	47	104	0	60	1048575
2026-01-18 00:21:39.36	306.54	54.79	-84.7	-88.6	3.0	1.56e+00	0	47	104	0	60	1048573
2026-01-18 00:21:43.39	303.53	54.72	-85.2	-88.6	3.0	1.56e+00	0	47	104	0	60	1048573
2026-01-18 00:21:47.41	300.54	54.57	-85.2	-88.6	3.1	1.56e+00	0	47	104	0	60	1048575
2026-01-18 00:21:51.43	297.60	54.35	-85.2	-88.6	3.1	1.56e+00	0	47	104	0	60	1048574
2026-01-18 00:21:55.45	294.71	54.05	-85.2	-88.6	3.2	1.56e+00	0	47	104	0	60	1048573
2026-01-18 00:21:59.48	291.88	53.68	-85.2	-88.6	3.3	1.56e+00	0	47	104	0	60	1048574
2026-01-18 00:22:03.52	289.12	53.24	-85.2	-88.6	3.1	1.56e+00	0	47	104	0	60	1048575
2026-01-18 00:22:07.55	286.45	52.74	-85.2	-88.6	3.2	1.55e+00	0	47	104	0	60	1048573
2026-01-18 00:22:11.58	283.88	52.19	-85.2	-88.6	3.1	1.56e+00	0	47	104	0	60	1048575
2026-01-18 00:22:15.61	281.41	51.58	-85.2	-88.6	2.9	1.55e+00	0	47	104	0	60	1048572
2026-01-18 00:22:19.63	279.04	50.93	-85.2	-88.6	3.1	1.56e+00	0	47	104	0	60	1048575
2026-01-18 00:22:23.64	276.79	50.25	-85.2	-88.6	3.1	1.56e+00	0	47	104	0	60	1048574
2026-01-18 00:22:27.67	274.62	49.52	-84.7	-88.6	3.0	1.56e+00	0	47	104	0	60	1048571
2026-01-18 00:22:31.70	272.56	48.77	-85.2	-88.6	3.1	1.56e+00	0	47	104	0	60	1048575
2026-01-18 00:22:35.72	270.60	47.99	-85.2	-88.6	3.1	1.56e+00	0	47	104	0	60	1048573
2026-01-18 00:22:39.75	268.74	47.19	-85.2	-88.6	3.0	1.56e+00	0	47	104	0	60	1048575
2026-01-18 00:22:43.78	266.97	46.38	-85.2	-88.6	3.1	1.55e+00	0	47	104	0	60	1048575
2026-01-18 00:22:47.81	265.29	45.55	-85.2	-88.6	3.0	1.56e+00	0	47	104	0	60	1048573
2026-01-18 00:22:51.84	263.70	44.71	-85.2	-88.6	3.1	1.56e+00	0	47	104	0	60	1048575
2026-01-18 00:22:55.86	262.20	43.87	-85.2	-88.6	3.0	1.56e+00	0	47	104	0	60	1048574
2026-01-18 00:22:59.88	260.77	43.03	-85.2	-88.6	3.0	1.56e+00	0	47	104	0	60	1048575
2026-01-18 00:23:03.90	259.42	42.18	-85.2	-88.6	3.0	1.56e+00	0	47	104	0	60	1048574
2026-01-18 00:23:07.91	258.13	41.34	-85.2	-88.6	2.9	1.56e+00	0	47	104	0	60	1048575
2026-01-18 00:23:11.94	256.91	40.50	-85.2	-88.6	3.0	1.56e+00	0	47	104	0	60	1048571
2026-01-18 00:23:15.97	255.75	39.67	-85.2	-88.6	3.0	1.56e+00	0	47	104	0	60	1048574
2026-01-18 00:23:20.00	254.65	38.84	-85.2	-88.6	3.1	1.56e+00	0	47	104	0	60	1048574
2026-01-18 00:23:24.03	253.60	38.02	-85.2	-88.6	3.1	1.56e+00	0	47	104	0	60	1048575
2026-01-18 00:23:28.04	252.61	37.22	-85.2	-88.6	3.0	1.56e+00	0	47	104	0	60	1048575
2026-01-18 00:23:32.07	251.67	36.42	-85.2	-88.6	3.1	1.56e+00	0	47	104	0	60	1048575
2026-01-18 00:23:36.10	250.77	35.63	-85.2	-88.6	2.8	1.55e+00	0	47	104	0	60	1048573
2026-01-18 00:23:40.13	249.91	34.85	-85.2	-88.6	3.1	1.56e+00	0	47	104	0	60	1048575
2026-01-18 00:23:44.16	249.09	34.08	-85.2	-88.6	3.0	1.55e+00	0	47	104	0	60	1048572
2026-01-18 00:23:48.18	248.31	33.33	-85.2	-88.6	3.2	1.56e+00	0	47	104	0	60	1048573
2026-01-18 00:23:52.21	247.57	32.59	-85.2	-88.6	3.2	1.56e+00	0	47	104	0	60	1048572
2026-01-18 00:23:56.23	246.86	31.86	-85.2	-88.6	3.1	1.56e+00	0	47	104	0	60	1048573
2026-01-18 00:24:00.26	246.17	31.15	-85.2	-88.6	3.1	1.56e+00	0	47	104	0	60	1048573
2026-01-18 00:24:04.28	245.53	30.44	-85.2	-88.6	2.9	1.56e+00	0	47	104	0	60	1048574
2026-01-18 00:24:08.30	244.90	29.76	-85.2	-88.6	3.2	1.56e+00	0	47	104	0	60	1048575
2026-01-18 00:24:12.33	244.31	29.08	-85.2	-88.6	3.1	1.56e+00	0	47	104	0	60	1048573
2026-01-18 00:24:16.36	243.74	28.41	-85.2	-88.6	2.7	1.55e+00	0	47	104	0	60	1048575
2026-01-18 00:24:20.38	243.19	27.76	-85.2	-88.6	2.9	1.56e+00	0	47	104	0	60	1048574
2026-01-18 00:24:24.41	242.66	27.12	-85.2	-88.6	2.8	1.56e+00	0	47	104	0	60	1048575
2026-01-18 00:24:28.44	242.16	26.49	-85.2	-88.6	3.1	1.55e+00	0	47	104	0	60	1048574
2026-01-18 00:24:32.46	241.67	25.88	-85.2	-88.6	3.2	1.56e+00	0	47	104	0	60	1048574
2026-01-18 00:24:36.48	241.21	25.27	-85.2	-88.6	3.1	1.55e+00	0	47	104	0	60	1048575
2026-01-18 00:24:40.51	240.76	24.68	-85.2	-88.6	3.2	1.56e+00	0	47	104	0	60	1048574
2026-01-18 00:24:44.54	240.33	24.10	-85.2	-88.6	3.0	1.56e+00	0	47	104	0	60	1048575
2026-01-18 00:24:48.56	239.91	23.53	-85.2	-88.6	3.0	1.56e+00	0	47	104	0	60	1048575
2026-01-18 00:24:52.59	239.51	22.97	-85.2	-88.6	2.9	1.56e+00	0	47	104	0	60	1048574
2026-01-18 00:24:56.61	239.13	22.42	-85.2	-88.6	2.9	1.56e+00	0	47	104	0	60	1048575
2026-01-18 00:25:00.65	238.75	21.88	-85.2	-88.6	2.8	1.56e+00	0	47	104	0	60	1048569
2026-01-18 00:25:04.66	238.40	21.35	-85.2	-88.6	3.1	1.56e+00	0	47	104	0	60	1048575
2026-01-18 00:25:08.67	238.05	20.83	-85.2	-88.6	3.0	1.55e+00	0	47	104	0	60	1048573
2026-01-18 00:25:12.70	237.71	20.32	-85.2	-88.6	2.7	1.56e+00	0	47	104	0	60	1048575
2026-01-18 00:25:16.73	237.39	19.82	-85.2	-88.6	3.0	1.56e+00	0	47	104	0	60	1048575
2026-01-18 00:25:20.76	237.08	19.33	-85.2	-88.6	2.8	1.56e+00	0	47	104	0	60	1048575
2026-01-18 00:25:24.79	236.77	18.84	-85.2	-88.6	3.1	1.56e+00	0	47	104	0	60	1048575
2026-01-18 00:25:28.82	236.48	18.37	-85.2	-88.6	2.9	1.55e+00	0	47	104	0	60	1048575
2026-01-18 00:25:32.85	236.20	17.90	-85.2	-88.6	3.1	1.55e+00	0	47	104	0	60	1048573
2026-01-18 00:25:36.88	235.92	17.44	-85.2	-88.6	3.1	1.55e+00	0	47	104	0	60	1048575
2026-01-18 00:25:40.90	235.65	16.99	-85.2	-88.6	2.9	1.56e+00	0	47	104	0	60	1048575
2026-01-18 00:25:44.93	235.40	16.55	-85.2	-88.6	2.9	1.56e+00	0	47	104	0	60	1048571
2026-01-18 00:25:48.95	235.15	16.11	-85.2	-88.6	3.0	1.55e+00	0	47	104	0	60	1048571
2026-01-18 00:25:52.98	234.90	15.68	-85.2	-88.6	3.1	1.55e+00	0	47	104	0	60	1048575
2026-01-18 00:25:57.01	234.67	15.26	-85.2	-88.6	3.0	1.56e+00	0	47	104	0	60	1048574
2026-01-18 00:26:01.04	234.44	14.84	-85.2	-88.6	3.2	1.55e+00	0	47	104	0	60	1048575
2026-01-18 00:26:05.06	234.21	14.43	-85.2	-88.6	3.1	1.56e+00	0	47	104	0	60	1048574
2026-01-18 00:26:09.08	234.00	14.03	-85.2	-88.6	2.8	1.56e+00	0	47	104	0	60	1048572
2026-01-18 00:26:13.11	233.79	13.63	-85.2	-88.6	3.0	1.56e+00	0	47	104	0	60	1048575
2026-01-18 00:26:17.13	233.58	13.24	-85.2	-88.6	2.9	1.55e+00	0	47	104	0	60	1048574
2026-01-18 00:26:21.16	233.39	12.86	-85.2	-88.6	2.9	1.56e+00	0	47	104	0	60	1048575
2026-01-18 00:26:25.17	233.19	12.48	-85.2	-88.6	2.8	1.55e+00	0	47	104	0	60	1048573
2026-01-18 00:26:29.19	233.01	12.11	-85.2	-88.6	2.9	1.56e+00	0	47	104	0	60	1048572
2026-01-18 00:26:33.22	232.82	11.74	-85.2	-88.6	2.9	1.55e+00	0	47	104	0	60	1048575
2026-01-18 00:26:37.25	232.64	11.38	-85.2	-88.6	2.9	1.55e+00	0	47	104	0	60	1048569
2026-01-18 00:26:41.28	232.47	11.02	-85.2	-88.6	2.9	1.56e+00	0	47	104	0	60	1048574
2026-01-18 00:26:45.30	232.30	10.66	-85.2	-88.6	2.9	1.56e+00	0	47	104	0	60	1048573
2026-01-18 00:26:49.33	232.14	10.32	-85.2	-88.6	2.9	1.56e+00	0	47	104	0	60	1048574
2026-01-18 00:26:53.36	231.98	9.97	-85.2	-88.6	2.9	1.56e+00	0	47	104	0	60	1048575
2026-01-18 00:26:57.39	231.82	9.63	-85.2	-88.6	3.1	1.56e+00	0	47	104	0	60	1048573
2026-01-18 00:27:01.41	231.67	9.30	-85.2	-88.6	3.1	1.56e+00	0	47	104	0	60	1048573
2026-01-18 00:27:05.44	231.52	8.97	-85.2	-88.6	3.0	1.56e+00	0	47	104	0	60	1048568
2026-01-18 00:27:09.47	231.37	8.64	-85.2	-88.6	3.0	1.56e+00	0	47	104	0	60	1048575
2026-01-18 00:27:13.50	231.23	8.32	-85.2	-88.6	3.0	1.56e+00	0	47	104	0	60	1048575
2026-01-18 00:27:17.53	231.09	8.00	-85.2	-88.6	2.9	1.56e+00	0	47	104	0	60	1048575
2026-01-18 00:27:21.55	230.96	7.68	-85.2	-88.6	2.8	1.55e+00	0	47	104	0	60	1048573
2026-01-18 00:27:25.58	230.82	7.37	-85.2	-88.6	3.3	1.56e+00	0	47	104	0	60	1048575
2026-01-18 00:27:29.61	230.69	7.06	-85.2	-88.6	3.2	1.55e+00	0	47	104	0	60	1048573
2026-01-18 00:27:33.63	230.57	6.76	-85.2	-88.6	2.9	1.55e+00	0	47	104	0	60	1048575
2026-01-18 00:27:37.65	230.44	6.46	-85.2	-88.6	2.8	1.56e+00	0	47	104	0	60	1048575
2026-01-18 00:27:41.68	230.32	6.16	-85.2	-88.6	3.0	1.55e+00	0	47	104	0	60	1048575
2026-01-18 00:27:45.71	230.21	5.87	-85.2	-88.6	3.1	1.56e+00	0	47	104	0	60	1048572
2026-01-18 00:27:49.73	230.09	5.57	-85.2	-88.6	2.9	1.56e+00	0	47	104	0	60	1048575
2026-01-18 00:27:53.76	229.98	5.29	-84.3	-88.6	3.0	1.56e+00	0	47	104	0	60	1048574
2026-01-18 00:27:57.78	229.87	5.00	-85.2	-88.6	3.0	1.56e+00	0	47	104	0	60	1048575
2026-01-18 00:28:01.81	229.76	4.72	-85.2	-88.6	3.2	1.56e+00	0	47	104	0	60	1048574
2026-01-18 00:28:05.84	229.65	4.44	-85.2	-88.6	3.1	1.56e+00	0	47	104	0	60	1048575
2026-01-18 00:28:09.85	229.55	4.16	-84.7	-88.6	3.2	1.55e+00	0	47	104	0	60	1048575
2026-01-18 00:28:13.88	229.45	3.89	-85.2	-88.6	3.1	1.55e+00	0	47	104	0	60	1048575
2026-01-18 00:28:17.91	229.35	3.62	-85.2	-88.6	3.1	1.55e+00	0	47	104	0	60	1048575
2026-01-18 00:28:21.93	229.25	3.35	-85.2	-88.6	3.0	1.56e+00	0	47	104	0	60	1048574
2026-01-18 00:28:25.96	229.16	3.08	-85.2	-88.6	2.9	1.55e+00	0	47	104	0	60	1048573
2026-01-18 00:28:29.98	229.06	2.82	-85.2	-88.6	3.2	1.56e+00	0	47	104	0	60	1048573
2026-01-18 00:28:34.02	228.97	2.56	-85.2	-88.6	2.9	1.56e+00	0	47	104	0	60	1048575
2026-01-18 00:28:38.04	228.88	2.30	-85.2	-88.6	3.1	1.56e+00	0	47	104	0	60	1048574
2026-01-18 00:28:42.06	228.80	2.04	-85.2	-88.6	3.1	1.55e+00	0	47	104	0	60	1048575
2026-01-18 00:28:46.08	228.71	1.79	-85.2	-88.6	2.9	1.55e+00	0	47	104	0	60	1048575
2026-01-18 00:28:50.12	228.62	1.54	-85.2	-88.6	3.1	1.55e+00	0	47	104	0	60	1048575
2026-01-18 00:28:54.15	228.54	1.29	-85.2	-88.6	3.0	1.56e+00	0	47	104	0	60	1048573
2026-01-18 00:28:58.17	228.46	1.04	-85.2	-88.6	2.9	1.56e+00	0	47	104	0	60	1048574
2026-01-18 00:29:02.20	228.38	0.79	-85.2	-88.6	2.8	1.56e+00	0	47	104	0	60	1048573
2026-01-18 00:29:06.22	228.30	0.55	-85.2	-88.6	3.0	1.56e+00	0	47	104	0	60	1048575
2026-01-18 00:29:10.24	228.23	0.31	-85.2	-88.6	2.9	1.55e+00	0	47	104	0	60	1048575
2026-01-18 00:29:14.27	228.15	0.07	-85.2	-88.6	3.0	1.55e+00	0	47	104	0	60	1048575

#Closed at: 2026-01-18 00:29:17
#Recorded file [0 MB]: D:/Data/35015_260118_031400.dat