passes_logs/2026/01/18/R3.2S-Naryan-Mar/R3.2S-Naryan-Mar__20260118_003435_NOAA_20_JPSS-1_rec.log

#Pass ID: 20260118_003435_NOAA 20 (JPSS-1)
#Satellite: NOAA 20 (JPSS-1)
#Configuration: NOAA 20
#almurnet v.1.7.20240730
#Start time: 2026-01-18 00:34:37

#Version: 2.2.20231116
#Station: R3.2S-Naryan-Mar
#Location: 53.008057 lon 67.646978 lat
#TLE: 1 43013U 17073A   26017.30359522  .00000067  00000+0  52526-4 0  9990
#TLE: 2 43013  98.7639 318.2187 0001419  36.2087 323.9184 14.19536557423067

#Time	Az	El	Level	Level2	SNR	BER	BlckErr	Temp	State	Recorded	gain1	gain2
2026-01-18 00:34:37.01	29.33	0.12	-85.2	-88.6	3.2	1.55e+00	0	45	0	0	60	1048575
2026-01-18 00:34:41.04	29.23	0.35	-85.2	-88.6	2.9	1.56e+00	0	46	104	0	60	1048575
2026-01-18 00:34:45.07	29.12	0.59	-85.2	-88.6	3.1	1.56e+00	0	46	104	0	60	1048574
2026-01-18 00:34:49.09	29.00	0.83	-85.2	-88.6	3.0	1.55e+00	0	46	104	0	60	1048575
2026-01-18 00:34:53.13	28.89	1.08	-85.2	-88.6	3.1	1.56e+00	0	46	104	0	60	1048575
2026-01-18 00:34:57.15	28.77	1.32	-84.3	-88.6	3.1	1.55e+00	0	46	104	0	60	1048573
2026-01-18 00:35:01.18	28.65	1.56	-83.5	-88.6	3.1	1.56e+00	0	46	104	0	60	1048573
2026-01-18 00:35:05.21	28.53	1.81	-85.2	-88.6	2.9	1.56e+00	0	46	104	0	60	1048575
2026-01-18 00:35:09.23	28.41	2.06	-85.2	-88.6	2.9	1.56e+00	0	46	104	0	60	1048573
2026-01-18 00:35:13.26	28.29	2.31	-85.2	-88.6	2.9	1.56e+00	0	46	104	0	60	1048574
2026-01-18 00:35:17.29	28.16	2.57	-85.2	-88.6	3.0	1.56e+00	0	47	104	0	60	1048574
2026-01-18 00:35:21.31	28.03	2.82	-85.2	-88.6	3.0	1.55e+00	0	46	104	0	60	1048575
2026-01-18 00:35:25.33	27.89	3.08	-85.2	-88.6	3.2	1.55e+00	0	47	104	0	60	1048575
2026-01-18 00:35:29.36	27.76	3.34	-85.2	-88.6	3.0	1.55e+00	0	47	104	0	60	1048574
2026-01-18 00:35:33.40	27.62	3.61	-85.2	-88.6	3.0	1.55e+00	0	47	104	0	60	1048575
2026-01-18 00:35:37.42	27.48	3.87	-85.2	-88.6	3.0	1.56e+00	0	47	104	0	60	1048575
2026-01-18 00:35:41.45	27.33	4.14	-84.7	-88.6	3.1	1.56e+00	0	47	104	0	60	1048574
2026-01-18 00:35:45.47	27.19	4.41	-85.2	-88.6	3.0	1.56e+00	0	47	104	0	60	1048575
2026-01-18 00:35:49.50	27.04	4.68	-85.2	-88.6	3.2	1.56e+00	0	47	104	0	60	1048574
2026-01-18 00:35:53.53	26.88	4.96	-85.2	-88.6	3.1	1.56e+00	0	47	104	0	60	1048575
2026-01-18 00:35:57.55	26.73	5.24	-85.2	-88.6	2.7	1.55e+00	0	47	104	0	60	1048575
2026-01-18 00:36:01.57	26.57	5.52	-84.3	-88.6	3.0	1.56e+00	0	47	104	0	60	1048574
2026-01-18 00:36:05.61	26.40	5.80	-85.2	-88.6	3.1	1.56e+00	0	47	104	0	60	1048575
2026-01-18 00:36:09.63	26.24	6.09	-85.2	-88.6	3.0	1.56e+00	0	47	104	0	60	1048574
2026-01-18 00:36:13.65	26.07	6.37	-85.2	-88.6	2.9	1.55e+00	0	47	104	0	60	1048575
2026-01-18 00:36:17.68	25.89	6.67	-85.2	-88.6	3.1	1.56e+00	0	47	104	0	60	1048573
2026-01-18 00:36:21.71	25.72	6.96	-85.2	-88.6	3.2	1.55e+00	0	47	104	0	60	1048574
2026-01-18 00:36:25.74	25.53	7.26	-85.2	-88.6	3.0	1.55e+00	0	47	104	0	60	1048570
2026-01-18 00:36:29.77	25.35	7.56	-85.2	-88.6	3.0	1.56e+00	0	47	104	0	60	1048575
2026-01-18 00:36:33.79	25.16	7.87	-85.2	-88.6	3.1	1.56e+00	0	47	104	0	60	1048573
2026-01-18 00:36:37.82	24.96	8.18	-85.2	-88.6	3.1	1.56e+00	0	47	104	0	60	1048573
2026-01-18 00:36:41.85	24.76	8.49	-84.3	-88.6	3.2	1.56e+00	0	47	104	0	60	1048575
2026-01-18 00:36:45.88	24.56	8.80	-85.2	-88.6	2.9	1.55e+00	0	47	104	0	60	1048572
2026-01-18 00:36:49.91	24.35	9.12	-85.2	-88.6	3.1	1.55e+00	0	47	104	0	60	1048575
2026-01-18 00:36:53.94	24.13	9.45	-85.2	-88.6	3.0	1.56e+00	0	47	104	0	60	1048575
2026-01-18 00:36:57.97	23.91	9.77	-85.2	-88.6	3.1	1.55e+00	0	47	104	0	60	1048573
2026-01-18 00:37:01.99	23.69	10.10	-85.2	-88.6	3.1	1.56e+00	0	47	104	0	60	1048575
2026-01-18 00:37:06.02	23.46	10.44	-85.2	-88.6	2.9	1.55e+00	0	47	104	0	60	1048573
2026-01-18 00:37:10.05	23.22	10.78	-85.2	-88.6	3.1	1.56e+00	0	47	104	0	60	1048575
2026-01-18 00:37:14.07	22.98	11.12	-85.2	-88.6	3.0	1.55e+00	0	47	104	0	60	1048572
2026-01-18 00:37:18.10	22.74	11.46	-85.2	-88.6	3.1	1.56e+00	0	47	104	0	60	1048574
2026-01-18 00:37:22.12	22.48	11.81	-85.2	-88.6	3.2	1.55e+00	0	47	104	0	60	1048575
2026-01-18 00:37:26.14	22.22	12.17	-85.2	-88.6	3.2	1.56e+00	0	47	104	0	60	1048573
2026-01-18 00:37:30.17	21.95	12.53	-85.2	-88.6	3.1	1.55e+00	0	47	104	0	60	1048575
2026-01-18 00:37:34.20	21.68	12.90	-85.2	-88.6	2.9	1.56e+00	0	47	104	0	60	1048575
2026-01-18 00:37:38.23	21.40	13.27	-85.2	-88.6	3.2	1.56e+00	0	47	104	0	60	1048574
2026-01-18 00:37:42.25	21.11	13.64	-85.2	-88.6	3.2	1.56e+00	0	47	104	0	60	1048575
2026-01-18 00:37:46.27	20.81	14.02	-84.3	-88.6	3.1	1.55e+00	0	47	104	0	60	1048575
2026-01-18 00:37:50.30	20.51	14.40	-85.2	-88.6	3.0	1.56e+00	0	47	104	0	60	1048574
2026-01-18 00:37:54.32	20.19	14.79	-85.2	-88.6	3.1	1.55e+00	0	47	104	0	60	1048574
2026-01-18 00:37:58.34	19.87	15.19	-85.2	-88.6	2.9	1.55e+00	0	47	104	0	60	1048575
2026-01-18 00:38:02.37	19.54	15.59	-85.2	-88.6	3.2	1.56e+00	0	47	104	0	60	1048575
2026-01-18 00:38:06.40	19.20	16.00	-85.2	-88.6	2.9	1.56e+00	0	47	104	0	60	1048574
2026-01-18 00:38:10.43	18.85	16.41	-85.2	-88.6	3.0	1.56e+00	0	47	104	0	60	1048575
2026-01-18 00:38:14.44	18.49	16.83	-85.2	-88.6	3.1	1.55e+00	0	47	104	0	60	1048575
2026-01-18 00:38:18.48	18.11	17.25	-85.2	-88.6	3.1	1.55e+00	0	47	104	0	60	1048573
2026-01-18 00:38:22.50	17.73	17.68	-84.7	-88.6	2.9	1.56e+00	0	47	104	0	60	1048575
2026-01-18 00:38:26.53	17.34	18.12	-85.2	-88.6	3.0	1.55e+00	0	47	104	0	60	1048575
2026-01-18 00:38:30.54	16.93	18.56	-85.2	-88.6	3.0	1.56e+00	0	47	104	0	60	1048574
2026-01-18 00:38:34.56	16.51	19.01	-85.2	-88.6	3.1	1.56e+00	0	47	104	0	60	1048575
2026-01-18 00:38:38.58	16.08	19.47	-85.2	-88.6	3.1	1.56e+00	0	47	104	0	60	1048573
2026-01-18 00:38:42.61	15.64	19.93	-85.2	-88.6	2.8	1.56e+00	0	47	104	0	60	1048575
2026-01-18 00:38:46.63	15.18	20.40	-85.2	-88.6	2.9	1.56e+00	0	47	104	0	60	1048573
2026-01-18 00:38:50.66	14.70	20.88	-85.2	-88.6	3.1	1.56e+00	0	47	104	0	60	1048572
2026-01-18 00:38:54.69	14.21	21.36	-85.2	-88.6	3.0	1.56e+00	0	47	104	0	60	1048575
2026-01-18 00:38:58.72	13.70	21.85	-85.2	-88.6	2.9	1.56e+00	0	47	104	0	60	1048572
2026-01-18 00:39:02.74	13.18	22.35	-85.2	-88.6	3.0	1.56e+00	0	47	104	0	60	1048574
2026-01-18 00:39:06.76	12.64	22.85	-85.2	-88.6	3.0	1.55e+00	0	47	104	0	60	1048573
2026-01-18 00:39:10.79	12.08	23.37	-85.2	-88.6	2.9	1.55e+00	0	47	104	0	60	1048571
2026-01-18 00:39:14.82	11.50	23.89	-85.2	-88.6	3.0	1.56e+00	0	47	104	0	60	1048573
2026-01-18 00:39:18.85	10.90	24.41	-85.2	-88.6	3.1	1.55e+00	0	47	104	0	60	1048575
2026-01-18 00:39:22.88	10.28	24.95	-85.2	-88.6	3.0	1.56e+00	0	47	104	0	60	1048575
2026-01-18 00:39:26.91	9.64	25.49	-85.2	-88.6	3.0	1.56e+00	0	47	104	0	60	1048574
2026-01-18 00:39:30.93	8.98	26.03	-85.2	-88.6	3.0	1.55e+00	0	47	104	0	60	1048573
2026-01-18 00:39:34.96	8.29	26.59	-85.2	-88.6	2.9	1.56e+00	0	47	104	0	60	1048575
2026-01-18 00:39:38.99	7.58	27.15	-85.2	-88.6	3.1	1.56e+00	0	47	104	0	60	1048574
2026-01-18 00:39:43.02	6.84	27.72	-85.2	-88.6	3.0	1.56e+00	0	47	104	0	60	1048575
2026-01-18 00:39:47.05	6.07	28.29	-85.2	-88.6	3.1	1.56e+00	0	47	104	0	60	1048574
2026-01-18 00:39:51.08	5.27	28.87	-85.2	-88.6	3.0	1.56e+00	0	47	104	0	60	1048575
2026-01-18 00:39:55.11	4.45	29.46	-85.2	-88.6	3.1	1.56e+00	0	47	104	0	60	1048573
2026-01-18 00:39:59.13	3.59	30.05	-85.2	-88.6	2.9	1.55e+00	0	47	104	0	60	1048574
2026-01-18 00:40:03.15	2.70	30.64	-85.2	-88.6	2.9	1.56e+00	0	47	104	0	60	1048575
2026-01-18 00:40:07.17	1.78	31.24	-84.7	-88.6	3.0	1.56e+00	0	47	104	0	60	1048574
2026-01-18 00:40:11.20	0.82	31.85	-85.2	-88.6	3.1	1.56e+00	0	47	104	0	60	1048575
2026-01-18 00:40:15.23	359.83	32.45	-85.2	-88.6	2.7	1.56e+00	0	47	104	0	60	1048574
2026-01-18 00:40:19.26	358.79	33.06	-85.2	-88.6	3.1	1.56e+00	0	47	104	0	60	1048575
2026-01-18 00:40:23.28	357.72	33.67	-85.2	-88.6	3.3	1.55e+00	0	47	104	0	60	1048575
2026-01-18 00:40:27.31	356.60	34.28	-85.2	-88.6	3.2	1.56e+00	0	47	104	0	60	1048568
2026-01-18 00:40:31.33	355.45	34.89	-85.2	-88.6	3.0	1.56e+00	0	47	104	0	60	1048575
2026-01-18 00:40:35.37	354.24	35.49	-85.2	-88.6	3.0	1.56e+00	0	47	104	0	60	1048575
2026-01-18 00:40:39.39	352.99	36.10	-85.2	-88.6	3.0	1.56e+00	0	47	104	0	60	1048575
2026-01-18 00:40:43.42	351.70	36.69	-85.2	-88.6	3.0	1.56e+00	0	47	104	0	60	1048575
2026-01-18 00:40:47.45	350.35	37.29	-84.3	-88.6	3.0	1.56e+00	0	47	104	0	60	1048575
2026-01-18 00:40:51.48	348.96	37.87	-85.2	-88.6	3.1	1.56e+00	0	47	104	0	60	1048573
2026-01-18 00:40:55.50	347.51	38.44	-85.2	-88.6	3.3	1.56e+00	0	47	104	0	60	1048575
2026-01-18 00:40:59.52	346.02	39.00	-85.2	-88.6	2.9	1.56e+00	0	47	104	0	60	1048574
2026-01-18 00:41:03.54	344.47	39.55	-85.2	-88.6	2.9	1.55e+00	0	47	104	0	60	1048573
2026-01-18 00:41:07.57	342.87	40.08	-83.5	-88.6	3.1	1.56e+00	0	47	104	0	60	1048575
2026-01-18 00:41:11.60	341.21	40.59	-85.2	-88.6	3.0	1.56e+00	0	47	104	0	60	1048574
2026-01-18 00:41:15.62	339.51	41.08	-85.2	-88.6	2.8	1.56e+00	0	47	104	0	60	1048575
2026-01-18 00:41:19.65	337.75	41.54	-85.2	-88.6	3.2	1.55e+00	0	47	104	0	60	1048571
2026-01-18 00:41:23.68	335.94	41.99	-85.2	-88.6	2.9	1.56e+00	0	47	104	0	60	1048575
2026-01-18 00:41:27.71	334.08	42.40	-85.2	-88.6	3.0	1.56e+00	0	47	104	0	60	1048575
2026-01-18 00:41:31.73	332.18	42.78	-85.2	-88.6	2.7	1.56e+00	0	47	104	0	60	1048575
2026-01-18 00:41:35.76	330.23	43.13	-85.2	-88.6	3.0	1.56e+00	0	47	104	0	60	1048572
2026-01-18 00:41:39.79	328.24	43.44	-85.2	-88.6	3.2	1.55e+00	0	47	104	0	60	1048575
2026-01-18 00:41:43.81	326.22	43.72	-85.2	-88.6	3.0	1.56e+00	0	47	104	0	60	1048575
2026-01-18 00:41:47.83	324.16	43.96	-85.2	-88.6	2.8	1.55e+00	0	47	104	0	60	1048573
2026-01-18 00:41:51.86	322.07	44.15	-85.2	-88.6	2.9	1.55e+00	0	47	104	0	60	1048575
2026-01-18 00:41:55.89	319.95	44.31	-85.2	-88.6	2.9	1.56e+00	0	47	104	0	60	1048573
2026-01-18 00:41:59.91	317.83	44.42	-85.2	-88.6	3.2	1.55e+00	0	47	104	0	60	1048574
2026-01-18 00:42:03.91	315.70	44.49	-85.2	-88.6	3.1	1.56e+00	0	47	104	0	60	1048575
2026-01-18 00:42:07.94	313.55	44.51	-85.2	-88.6	3.0	1.56e+00	0	47	104	0	60	1048575
2026-01-18 00:42:11.97	311.40	44.49	-85.2	-88.6	3.1	1.56e+00	0	47	104	0	60	1048575
2026-01-18 00:42:15.99	309.26	44.42	-85.2	-88.6	3.0	1.56e+00	0	47	104	0	60	1048575
2026-01-18 00:42:20.02	307.13	44.31	-85.2	-88.6	3.2	1.55e+00	0	47	104	0	60	1048575
2026-01-18 00:42:24.05	305.02	44.15	-85.2	-88.6	3.1	1.56e+00	0	47	104	0	60	1048574
2026-01-18 00:42:28.08	302.93	43.95	-85.2	-88.6	3.0	1.56e+00	0	47	104	0	60	1048575
2026-01-18 00:42:32.11	300.86	43.71	-85.2	-88.6	3.0	1.56e+00	0	47	104	0	60	1048575
2026-01-18 00:42:36.14	298.83	43.43	-85.2	-88.6	3.1	1.55e+00	0	47	104	0	60	1048574
2026-01-18 00:42:40.16	296.85	43.12	-85.2	-88.6	3.1	1.55e+00	0	47	104	0	60	1048575
2026-01-18 00:42:44.19	294.90	42.77	-85.2	-88.6	2.9	1.56e+00	0	47	104	0	60	1048574
2026-01-18 00:42:48.22	292.99	42.39	-85.2	-88.6	2.9	1.55e+00	0	47	104	0	60	1048573
2026-01-18 00:42:52.25	291.13	41.97	-85.2	-88.6	3.1	1.55e+00	0	47	104	0	60	1048574
2026-01-18 00:42:56.28	289.32	41.53	-85.2	-88.6	3.1	1.55e+00	0	47	104	0	60	1048571
2026-01-18 00:43:00.29	287.57	41.06	-85.2	-88.6	3.1	1.56e+00	0	47	104	0	60	1048574
2026-01-18 00:43:04.32	285.86	40.57	-85.2	-88.6	2.8	1.55e+00	0	47	104	0	60	1048575
2026-01-18 00:43:08.35	284.20	40.06	-85.2	-88.6	3.1	1.56e+00	0	47	104	0	60	1048574
2026-01-18 00:43:12.37	282.60	39.53	-84.3	-88.6	3.1	1.56e+00	0	47	104	0	60	1048575
2026-01-18 00:43:16.40	281.05	38.98	-85.2	-88.6	3.1	1.56e+00	0	47	104	0	60	1048575
2026-01-18 00:43:20.42	279.55	38.42	-85.2	-88.6	3.2	1.56e+00	0	47	104	0	60	1048574
2026-01-18 00:43:24.44	278.11	37.84	-85.2	-88.6	3.1	1.55e+00	0	47	104	0	60	1048573
2026-01-18 00:43:28.45	276.72	37.26	-85.2	-88.6	3.1	1.55e+00	0	47	104	0	60	1048575
2026-01-18 00:43:32.47	275.38	36.67	-84.3	-88.6	3.1	1.55e+00	0	47	104	0	60	1048575
2026-01-18 00:43:36.51	274.08	36.07	-85.2	-88.6	2.9	1.55e+00	0	47	104	0	60	1048574
2026-01-18 00:43:40.52	272.83	35.47	-85.2	-88.6	2.8	1.55e+00	0	47	104	0	60	1048574
2026-01-18 00:43:44.55	271.63	34.86	-85.2	-88.6	3.1	1.56e+00	0	47	104	0	60	1048575
2026-01-18 00:43:48.58	270.46	34.25	-85.2	-88.6	2.9	1.56e+00	0	47	104	0	60	1048573
2026-01-18 00:43:52.61	269.35	33.64	-85.2	-88.6	3.1	1.56e+00	0	47	104	0	60	1048573
2026-01-18 00:43:56.63	268.27	33.03	-85.2	-88.6	3.1	1.56e+00	0	47	104	0	60	1048575
2026-01-18 00:44:00.65	267.24	32.42	-85.2	-88.6	3.1	1.56e+00	0	47	104	0	60	1048575
2026-01-18 00:44:04.68	266.24	31.81	-85.2	-88.6	3.0	1.56e+00	0	47	104	0	60	1048575
2026-01-18 00:44:08.72	265.28	31.20	-85.2	-88.6	3.0	1.56e+00	0	47	104	0	60	1048573
2026-01-18 00:44:12.74	264.36	30.60	-84.7	-88.6	3.0	1.56e+00	0	47	104	0	60	1048574
2026-01-18 00:44:16.76	263.47	30.01	-85.2	-88.6	3.2	1.56e+00	0	47	104	0	60	1048573
2026-01-18 00:44:20.79	262.61	29.41	-85.2	-88.6	3.0	1.55e+00	0	47	104	0	60	1048575
2026-01-18 00:44:24.81	261.78	28.83	-85.2	-88.6	2.9	1.56e+00	0	47	104	0	60	1048574
2026-01-18 00:44:28.84	260.98	28.25	-85.2	-88.6	2.9	1.55e+00	0	47	104	0	60	1048575
2026-01-18 00:44:32.86	260.22	27.67	-85.2	-88.6	2.9	1.56e+00	0	47	104	0	60	1048575
2026-01-18 00:44:36.89	259.47	27.10	-85.2	-88.6	2.8	1.55e+00	0	47	104	0	60	1048575
2026-01-18 00:44:40.91	258.76	26.54	-85.2	-88.6	2.8	1.55e+00	0	47	104	0	60	1048575
2026-01-18 00:44:44.94	258.07	25.99	-85.2	-88.6	3.0	1.56e+00	0	47	104	0	60	1048575
2026-01-18 00:44:48.97	257.40	25.44	-85.2	-88.6	3.0	1.56e+00	0	47	104	0	60	1048575
2026-01-18 00:44:53.00	256.76	24.89	-85.2	-88.6	3.1	1.56e+00	0	47	104	0	60	1048573
2026-01-18 00:44:57.04	256.14	24.36	-85.2	-88.6	3.0	1.56e+00	0	47	104	0	60	1048575
2026-01-18 00:45:01.07	255.54	23.83	-85.2	-88.6	3.1	1.55e+00	0	47	104	0	60	1048575
2026-01-18 00:45:05.10	254.96	23.31	-85.2	-88.6	3.0	1.56e+00	0	47	104	0	60	1048573
2026-01-18 00:45:09.11	254.40	22.80	-85.2	-88.6	3.2	1.55e+00	0	47	104	0	60	1048575
2026-01-18 00:45:13.14	253.85	22.29	-85.2	-88.6	3.0	1.56e+00	0	47	104	0	60	1048575
2026-01-18 00:45:17.17	253.33	21.79	-85.2	-88.6	3.0	1.56e+00	0	47	104	0	60	1048575
2026-01-18 00:45:21.19	252.82	21.30	-85.2	-88.6	2.9	1.56e+00	0	47	104	0	60	1048574
2026-01-18 00:45:25.20	252.33	20.82	-85.2	-88.6	3.0	1.56e+00	0	47	104	0	60	1048575
2026-01-18 00:45:29.21	251.86	20.34	-85.2	-88.6	3.0	1.56e+00	0	47	104	0	60	1048573
2026-01-18 00:45:33.23	251.40	19.87	-85.2	-88.6	3.1	1.56e+00	0	47	104	0	60	1048574
2026-01-18 00:45:37.26	250.95	19.41	-85.2	-88.6	3.2	1.55e+00	0	47	104	0	60	1048574
2026-01-18 00:45:41.28	250.52	18.95	-85.2	-88.6	3.0	1.56e+00	0	47	104	0	60	1048574
2026-01-18 00:45:45.31	250.09	18.50	-85.2	-88.6	2.9	1.55e+00	0	47	104	0	60	1048575
2026-01-18 00:45:49.34	249.69	18.06	-85.2	-88.6	2.9	1.56e+00	0	47	104	0	60	1048574
2026-01-18 00:45:53.36	249.29	17.62	-85.2	-88.6	2.8	1.55e+00	0	47	104	0	60	1048575
2026-01-18 00:45:57.38	248.91	17.19	-85.2	-88.6	2.9	1.56e+00	0	47	104	0	60	1048573
2026-01-18 00:46:01.41	248.53	16.76	-85.2	-88.6	3.0	1.56e+00	0	47	104	0	60	1048575
2026-01-18 00:46:05.44	248.17	16.34	-85.2	-88.6	3.0	1.56e+00	0	47	104	0	60	1048575
2026-01-18 00:46:09.47	247.81	15.93	-85.2	-88.6	3.2	1.56e+00	0	47	104	0	60	1048573
2026-01-18 00:46:13.49	247.47	15.52	-85.2	-88.6	3.0	1.55e+00	0	47	104	0	60	1048575
2026-01-18 00:46:17.52	247.14	15.12	-85.2	-88.6	2.9	1.56e+00	0	47	104	0	60	1048575
2026-01-18 00:46:21.55	246.81	14.72	-85.2	-88.6	3.1	1.56e+00	0	47	104	0	60	1048574
2026-01-18 00:46:25.57	246.50	14.33	-85.2	-88.6	2.9	1.55e+00	0	47	104	0	60	1048572
2026-01-18 00:46:29.60	246.19	13.95	-85.2	-88.6	3.2	1.56e+00	0	47	104	0	60	1048570
2026-01-18 00:46:33.62	245.89	13.57	-85.2	-88.6	2.9	1.56e+00	0	47	104	0	60	1048573
2026-01-18 00:46:37.65	245.60	13.19	-85.2	-88.6	3.1	1.56e+00	0	47	104	0	60	1048575
2026-01-18 00:46:41.68	245.32	12.82	-85.2	-88.6	3.0	1.56e+00	0	47	104	0	60	1048574
2026-01-18 00:46:45.71	245.04	12.45	-85.2	-88.6	3.0	1.55e+00	0	47	104	0	60	1048572
2026-01-18 00:46:49.74	244.77	12.09	-85.2	-88.6	2.9	1.56e+00	0	47	104	0	60	1048575
2026-01-18 00:46:53.77	244.51	11.74	-84.3	-88.6	3.2	1.56e+00	0	47	104	0	60	1048575
2026-01-18 00:46:57.79	244.25	11.38	-85.2	-88.6	3.0	1.55e+00	0	47	104	0	60	1048573
2026-01-18 00:47:01.82	244.00	11.04	-85.2	-88.6	2.9	1.56e+00	0	47	104	0	60	1048572
2026-01-18 00:47:05.85	243.76	10.69	-85.2	-88.6	2.8	1.56e+00	0	47	104	0	60	1048574
2026-01-18 00:47:09.87	243.52	10.36	-85.2	-88.6	3.1	1.56e+00	0	47	104	0	60	1048573
2026-01-18 00:47:13.90	243.29	10.02	-85.2	-88.6	3.2	1.55e+00	0	47	104	0	60	1048574
2026-01-18 00:47:17.93	243.06	9.69	-85.2	-88.6	2.9	1.56e+00	0	47	104	0	60	1048575
2026-01-18 00:47:21.96	242.84	9.36	-85.2	-88.6	3.2	1.56e+00	0	47	104	0	60	1048573
2026-01-18 00:47:25.99	242.63	9.04	-85.2	-88.6	2.9	1.56e+00	0	47	104	0	60	1048569
2026-01-18 00:47:30.03	242.41	8.72	-85.2	-88.6	3.0	1.56e+00	0	47	104	0	60	1048575
2026-01-18 00:47:34.05	242.21	8.40	-85.2	-88.6	3.2	1.56e+00	0	47	104	0	60	1048574
2026-01-18 00:47:38.08	242.01	8.09	-85.2	-88.6	3.0	1.56e+00	0	47	104	0	60	1048575
2026-01-18 00:47:42.11	241.81	7.78	-85.2	-88.6	3.1	1.55e+00	0	47	104	0	60	1048574
2026-01-18 00:47:46.14	241.62	7.48	-85.2	-88.6	2.8	1.55e+00	0	47	104	0	60	1048575
2026-01-18 00:47:50.16	241.43	7.18	-85.2	-88.6	3.1	1.56e+00	0	47	104	0	60	1048575
2026-01-18 00:47:54.19	241.24	6.88	-85.2	-88.6	3.0	1.56e+00	0	47	104	0	60	1048575
2026-01-18 00:47:58.21	241.06	6.58	-85.2	-88.6	3.0	1.56e+00	0	47	104	0	60	1048575
2026-01-18 00:48:02.23	240.89	6.29	-85.2	-88.6	3.0	1.56e+00	0	47	104	0	60	1048575
2026-01-18 00:48:06.26	240.71	6.00	-85.2	-88.6	2.9	1.56e+00	0	47	104	0	60	1048573
2026-01-18 00:48:10.28	240.54	5.71	-85.2	-88.6	3.1	1.56e+00	0	47	104	0	60	1048572
2026-01-18 00:48:14.32	240.38	5.43	-85.2	-88.6	3.1	1.56e+00	0	47	104	0	60	1048574
2026-01-18 00:48:18.34	240.22	5.15	-85.2	-88.6	3.1	1.56e+00	0	47	104	0	60	1048575
2026-01-18 00:48:22.36	240.06	4.87	-85.2	-88.6	3.0	1.56e+00	0	47	104	0	60	1048573
2026-01-18 00:48:26.38	239.90	4.60	-85.2	-88.6	3.2	1.56e+00	0	47	104	0	60	1048574
2026-01-18 00:48:30.40	239.75	4.32	-85.2	-88.6	3.1	1.56e+00	0	47	104	0	60	1048574
2026-01-18 00:48:34.43	239.60	4.05	-85.2	-88.6	3.0	1.55e+00	0	47	104	0	60	1048572
2026-01-18 00:48:38.46	239.45	3.78	-85.2	-88.6	3.0	1.56e+00	0	47	104	0	60	1048574
2026-01-18 00:48:42.49	239.31	3.52	-85.2	-88.6	3.0	1.56e+00	0	47	104	0	60	1048571
2026-01-18 00:48:46.51	239.17	3.26	-85.2	-88.6	3.1	1.56e+00	0	47	104	0	60	1048575
2026-01-18 00:48:50.53	239.03	2.99	-85.2	-88.6	2.9	1.56e+00	0	47	104	0	60	1048574
2026-01-18 00:48:54.56	238.89	2.74	-85.2	-88.6	3.2	1.56e+00	0	47	104	0	60	1048575
2026-01-18 00:48:58.58	238.76	2.48	-85.2	-88.6	2.8	1.55e+00	0	47	104	0	60	1048575
2026-01-18 00:49:02.60	238.63	2.23	-85.2	-88.6	2.9	1.56e+00	0	47	104	0	60	1048574
2026-01-18 00:49:06.63	238.50	1.97	-85.2	-88.6	3.0	1.55e+00	0	47	104	0	60	1048575
2026-01-18 00:49:10.65	238.38	1.72	-85.2	-88.6	3.3	1.56e+00	0	47	104	0	60	1048575
2026-01-18 00:49:14.68	238.25	1.48	-85.2	-88.6	3.0	1.56e+00	0	47	104	0	60	1048571
2026-01-18 00:49:18.70	238.13	1.23	-85.2	-88.6	3.0	1.56e+00	0	47	104	0	60	1048574
2026-01-18 00:49:22.73	238.01	0.99	-85.2	-88.6	3.0	1.56e+00	0	47	104	0	60	1048573
2026-01-18 00:49:26.77	237.89	0.74	-85.2	-88.6	3.2	1.56e+00	0	47	104	0	60	1048571
2026-01-18 00:49:30.79	237.78	0.50	-85.2	-88.6	3.0	1.56e+00	0	47	104	0	60	1048575
2026-01-18 00:49:34.80	237.67	0.26	-85.2	-88.6	3.2	1.56e+00	0	47	104	0	60	1048574
2026-01-18 00:49:38.83	237.56	0.03	-85.2	-88.6	2.9	1.56e+00	0	47	104	0	60	1048574

#Closed at: 2026-01-18 00:49:42
#Recorded file [0 MB]: D:/Data/35015_260118_033436.dat