passes_logs/2026/01/18/R3.2S-Naryan-Mar/R3.2S-Naryan-Mar__20260118_053210_NOAA_20_JPSS-1_rec.log

#Pass ID: 20260118_053210_NOAA 20 (JPSS-1)
#Satellite: NOAA 20 (JPSS-1)
#Configuration: NOAA 20
#almurnet v.1.7.20240730
#Start time: 2026-01-18 05:32:12

#Version: 2.2.20231116
#Station: R3.2S-Naryan-Mar
#Location: 53.008057 lon 67.646978 lat
#TLE: 1 43013U 17073A   26017.30359522  .00000067  00000+0  52526-4 0  9990
#TLE: 2 43013  98.7639 318.2187 0001419  36.2087 323.9184 14.19536557423067

#Time	Az	El	Level	Level2	SNR	BER	BlckErr	Temp	State	Recorded	gain1	gain2
2026-01-18 05:32:12.03	91.72	0.08	-85.2	-88.6	3.4	1.55e+00	0	45	0	0	60	1048575
2026-01-18 05:32:16.06	91.52	0.30	-85.2	-88.6	2.9	1.56e+00	0	46	104	0	60	1048575
2026-01-18 05:32:20.08	91.31	0.52	-85.2	-88.6	3.1	1.56e+00	0	46	104	0	60	1048575
2026-01-18 05:32:24.11	91.09	0.75	-85.2	-88.6	2.7	1.55e+00	0	46	104	0	60	1048575
2026-01-18 05:32:28.14	90.88	0.97	-84.3	-88.6	3.0	1.55e+00	0	46	104	0	60	1048575
2026-01-18 05:32:32.16	90.66	1.20	-85.2	-88.6	2.9	1.56e+00	0	46	104	0	60	1048575
2026-01-18 05:32:36.19	90.43	1.43	-85.2	-88.6	2.8	1.55e+00	0	46	104	0	60	1048575
2026-01-18 05:32:40.22	90.20	1.66	-85.2	-88.6	3.1	1.55e+00	0	46	104	0	60	1048572
2026-01-18 05:32:44.25	89.97	1.89	-85.2	-88.6	3.1	1.55e+00	0	46	104	0	60	1048574
2026-01-18 05:32:48.26	89.74	2.13	-85.2	-88.6	3.0	1.56e+00	0	46	104	0	60	1048574
2026-01-18 05:32:52.29	89.50	2.36	-85.2	-88.6	3.1	1.56e+00	0	46	104	0	60	1048573
2026-01-18 05:32:56.32	89.25	2.60	-85.2	-88.6	3.1	1.56e+00	0	46	104	0	60	1048575
2026-01-18 05:33:00.34	89.01	2.84	-85.2	-88.6	2.8	1.56e+00	0	46	104	0	60	1048573
2026-01-18 05:33:04.37	88.75	3.08	-85.2	-88.6	3.1	1.56e+00	0	46	104	0	60	1048575
2026-01-18 05:33:08.38	88.50	3.32	-85.2	-88.6	2.8	1.56e+00	0	46	104	0	60	1048575
2026-01-18 05:33:12.41	88.24	3.56	-85.2	-88.6	3.2	1.55e+00	0	46	104	0	60	1048575
2026-01-18 05:33:16.44	87.97	3.80	-85.2	-88.6	2.9	1.56e+00	0	47	104	0	60	1048575
2026-01-18 05:33:20.46	87.70	4.05	-85.2	-88.6	3.0	1.56e+00	0	46	104	0	60	1048572
2026-01-18 05:33:24.48	87.43	4.29	-85.2	-88.6	3.0	1.56e+00	0	47	104	0	60	1048575
2026-01-18 05:33:28.50	87.15	4.54	-85.2	-88.6	3.1	1.56e+00	0	46	104	0	60	1048573
2026-01-18 05:33:32.52	86.87	4.79	-85.2	-88.6	3.1	1.55e+00	0	47	104	0	60	1048575
2026-01-18 05:33:36.55	86.58	5.05	-85.2	-88.6	3.0	1.55e+00	0	47	104	0	60	1048574
2026-01-18 05:33:40.57	86.28	5.30	-85.2	-88.6	3.1	1.56e+00	0	47	104	0	60	1048574
2026-01-18 05:33:44.60	85.98	5.55	-84.3	-88.6	3.0	1.56e+00	0	47	104	0	60	1048575
2026-01-18 05:33:48.63	85.67	5.81	-85.2	-88.6	3.2	1.56e+00	0	47	104	0	60	1048575
2026-01-18 05:33:52.67	85.36	6.07	-85.2	-88.6	3.0	1.56e+00	0	47	104	0	60	1048575
2026-01-18 05:33:56.70	85.04	6.33	-85.2	-88.6	3.0	1.56e+00	0	47	104	0	60	1048572
2026-01-18 05:34:00.71	84.72	6.59	-85.2	-88.6	3.1	1.56e+00	0	47	104	0	60	1048575
2026-01-18 05:34:04.74	84.39	6.86	-85.2	-88.6	2.8	1.56e+00	0	47	104	0	60	1048575
2026-01-18 05:34:08.77	84.05	7.13	-84.7	-88.6	2.9	1.56e+00	0	47	104	0	60	1048575
2026-01-18 05:34:12.80	83.71	7.39	-85.2	-88.6	3.0	1.56e+00	0	47	104	0	60	1048574
2026-01-18 05:34:16.82	83.36	7.66	-85.2	-88.6	2.9	1.56e+00	0	47	104	0	60	1048575
2026-01-18 05:34:20.85	83.01	7.94	-85.2	-88.6	3.0	1.56e+00	0	47	104	0	60	1048575
2026-01-18 05:34:24.88	82.64	8.21	-85.2	-88.6	2.9	1.56e+00	0	47	104	0	60	1048574
2026-01-18 05:34:28.91	82.27	8.48	-85.2	-88.6	2.9	1.56e+00	0	47	104	0	60	1048572
2026-01-18 05:34:32.93	81.90	8.76	-85.2	-88.6	3.2	1.56e+00	0	47	104	0	60	1048575
2026-01-18 05:34:36.96	81.51	9.04	-85.2	-88.6	3.2	1.56e+00	0	47	104	0	60	1048574
2026-01-18 05:34:41.00	81.12	9.32	-85.2	-88.6	3.1	1.55e+00	0	47	104	0	60	1048573
2026-01-18 05:34:45.02	80.72	9.60	-85.2	-88.6	2.7	1.56e+00	0	47	104	0	60	1048575
2026-01-18 05:34:49.05	80.31	9.89	-85.2	-88.6	3.1	1.56e+00	0	47	104	0	60	1048573
2026-01-18 05:34:53.08	79.89	10.18	-85.2	-88.6	3.1	1.56e+00	0	47	104	0	60	1048573
2026-01-18 05:34:57.12	79.47	10.47	-85.2	-88.6	2.9	1.55e+00	0	47	104	0	60	1048574
2026-01-18 05:35:01.14	79.03	10.75	-85.2	-88.6	3.3	1.56e+00	0	47	104	0	60	1048575
2026-01-18 05:35:05.17	78.59	11.05	-85.2	-88.6	3.2	1.56e+00	0	47	104	0	60	1048575
2026-01-18 05:35:09.21	78.14	11.34	-85.2	-88.6	2.9	1.56e+00	0	47	104	0	60	1048575
2026-01-18 05:35:13.24	77.68	11.64	-85.2	-88.6	2.9	1.55e+00	0	47	104	0	60	1048573
2026-01-18 05:35:17.27	77.20	11.93	-85.2	-88.6	3.0	1.56e+00	0	47	104	0	60	1048572
2026-01-18 05:35:21.29	76.72	12.23	-85.2	-88.6	3.0	1.56e+00	0	47	104	0	60	1048575
2026-01-18 05:35:25.32	76.23	12.53	-85.2	-88.6	3.0	1.56e+00	0	47	104	0	60	1048574
2026-01-18 05:35:29.35	75.73	12.83	-85.2	-88.6	2.9	1.56e+00	0	47	104	0	60	1048575
2026-01-18 05:35:33.37	75.22	13.14	-85.2	-88.6	2.9	1.55e+00	0	47	104	0	60	1048575
2026-01-18 05:35:37.39	74.70	13.44	-85.2	-88.6	3.0	1.56e+00	0	47	104	0	60	1048571
2026-01-18 05:35:41.42	74.16	13.75	-85.2	-88.6	3.1	1.56e+00	0	47	104	0	60	1048575
2026-01-18 05:35:45.44	73.62	14.06	-85.2	-88.6	3.2	1.56e+00	0	47	104	0	60	1048575
2026-01-18 05:35:49.47	73.06	14.36	-85.2	-88.6	3.1	1.55e+00	0	47	104	0	60	1048572
2026-01-18 05:35:53.48	72.50	14.67	-84.7	-88.6	3.0	1.56e+00	0	47	104	0	60	1048572
2026-01-18 05:35:57.51	71.91	14.98	-85.2	-88.6	3.0	1.55e+00	0	47	104	0	60	1048575
2026-01-18 05:36:01.53	71.32	15.29	-85.2	-88.6	2.9	1.55e+00	0	47	104	0	60	1048574
2026-01-18 05:36:05.56	70.72	15.61	-85.2	-88.6	2.8	1.56e+00	0	47	104	0	60	1048575
2026-01-18 05:36:09.58	70.10	15.92	-85.2	-88.6	3.0	1.55e+00	0	47	104	0	60	1048574
2026-01-18 05:36:13.60	69.47	16.23	-85.2	-88.6	3.1	1.55e+00	0	47	104	0	60	1048572
2026-01-18 05:36:17.63	68.82	16.55	-84.7	-88.6	3.0	1.56e+00	0	47	104	0	60	1048574
2026-01-18 05:36:21.66	68.16	16.86	-85.2	-88.6	3.1	1.56e+00	0	47	104	0	60	1048575
2026-01-18 05:36:25.70	67.48	17.18	-84.7	-88.6	3.0	1.55e+00	0	47	104	0	60	1048573
2026-01-18 05:36:29.72	66.79	17.49	-85.2	-88.6	3.1	1.56e+00	0	47	104	0	60	1048575
2026-01-18 05:36:33.74	66.09	17.80	-84.7	-88.6	3.3	1.56e+00	0	47	104	0	60	1048575
2026-01-18 05:36:37.78	65.37	18.12	-85.2	-88.6	3.1	1.56e+00	0	47	104	0	60	1048574
2026-01-18 05:36:41.81	64.64	18.43	-84.7	-88.6	3.0	1.55e+00	0	47	104	0	60	1048573
2026-01-18 05:36:45.84	63.89	18.74	-85.2	-88.6	3.0	1.56e+00	0	47	104	0	60	1048575
2026-01-18 05:36:49.86	63.13	19.05	-84.7	-88.6	3.0	1.56e+00	0	47	104	0	60	1048575
2026-01-18 05:36:53.89	62.35	19.36	-85.2	-88.6	3.1	1.56e+00	0	47	104	0	60	1048572
2026-01-18 05:36:57.92	61.55	19.67	-85.2	-88.6	2.9	1.55e+00	0	47	104	0	60	1048575
2026-01-18 05:37:01.95	60.74	19.97	-85.2	-88.6	3.0	1.56e+00	0	47	104	0	60	1048575
2026-01-18 05:37:05.97	59.91	20.27	-84.7	-88.6	2.9	1.55e+00	0	47	104	0	60	1048571
2026-01-18 05:37:10.01	59.06	20.57	-85.2	-88.6	3.0	1.56e+00	0	47	104	0	60	1048575
2026-01-18 05:37:14.04	58.20	20.87	-84.7	-88.6	2.9	1.55e+00	0	47	104	0	60	1048575
2026-01-18 05:37:18.06	57.32	21.16	-85.2	-88.6	3.2	1.56e+00	0	47	104	0	60	1048574
2026-01-18 05:37:22.08	56.43	21.45	-85.2	-88.6	3.0	1.56e+00	0	47	104	0	60	1048574
2026-01-18 05:37:26.12	55.51	21.73	-85.2	-88.6	2.8	1.56e+00	0	47	104	0	60	1048575
2026-01-18 05:37:30.15	54.58	22.01	-84.7	-88.6	3.1	1.56e+00	0	47	104	0	60	1048575
2026-01-18 05:37:34.17	53.64	22.28	-85.2	-88.6	3.1	1.55e+00	0	47	104	0	60	1048573
2026-01-18 05:37:38.19	52.68	22.55	-84.7	-88.6	2.9	1.56e+00	0	47	104	0	60	1048575
2026-01-18 05:37:42.23	51.69	22.81	-85.2	-88.6	2.9	1.55e+00	0	47	104	0	60	1048573
2026-01-18 05:37:46.26	50.70	23.07	-85.2	-88.6	2.9	1.55e+00	0	47	104	0	60	1048575
2026-01-18 05:37:50.28	49.69	23.32	-85.2	-88.6	3.1	1.56e+00	0	47	104	0	60	1048575
2026-01-18 05:37:54.32	48.66	23.56	-85.2	-88.6	3.1	1.56e+00	0	47	104	0	60	1048573
2026-01-18 05:37:58.35	47.61	23.79	-85.2	-88.6	3.0	1.56e+00	0	47	104	0	60	1048574
2026-01-18 05:38:02.37	46.55	24.01	-84.7	-88.6	2.8	1.56e+00	0	47	104	0	60	1048575
2026-01-18 05:38:06.40	45.48	24.23	-85.2	-88.6	3.0	1.55e+00	0	47	104	0	60	1048575
2026-01-18 05:38:10.44	44.39	24.44	-85.2	-88.6	2.7	1.56e+00	0	47	104	0	60	1048573
2026-01-18 05:38:14.46	43.28	24.63	-85.2	-88.6	3.0	1.55e+00	0	47	104	0	60	1048575
2026-01-18 05:38:18.49	42.17	24.82	-85.2	-88.6	2.8	1.56e+00	0	47	104	0	60	1048574
2026-01-18 05:38:22.53	41.03	24.99	-85.2	-88.6	3.0	1.55e+00	0	47	104	0	60	1048571
2026-01-18 05:38:26.55	39.89	25.16	-83.9	-88.6	2.9	1.56e+00	0	47	104	0	60	1048575
2026-01-18 05:38:30.57	38.74	25.31	-84.7	-88.6	3.1	1.55e+00	0	47	104	0	60	1048575
2026-01-18 05:38:34.60	37.58	25.45	-85.2	-88.6	2.8	1.56e+00	0	47	104	0	60	1048574
2026-01-18 05:38:38.63	36.40	25.57	-85.2	-88.6	3.0	1.56e+00	0	47	104	0	60	1048575
2026-01-18 05:38:42.66	35.22	25.69	-85.2	-88.6	3.1	1.56e+00	0	47	104	0	60	1048575
2026-01-18 05:38:46.68	34.03	25.79	-85.2	-88.6	3.0	1.56e+00	0	47	104	0	60	1048575
2026-01-18 05:38:50.71	32.83	25.88	-85.2	-88.6	2.9	1.55e+00	0	47	104	0	60	1048574
2026-01-18 05:38:54.73	31.63	25.95	-85.2	-88.6	3.0	1.56e+00	0	47	104	0	60	1048574
2026-01-18 05:38:58.76	30.42	26.01	-84.7	-88.6	2.9	1.56e+00	0	47	104	0	60	1048575
2026-01-18 05:39:02.77	29.21	26.06	-85.2	-88.6	3.1	1.55e+00	0	47	104	0	60	1048574
2026-01-18 05:39:06.79	28.00	26.09	-85.2	-88.6	3.1	1.56e+00	0	47	104	0	60	1048573
2026-01-18 05:39:10.82	26.78	26.11	-85.2	-88.6	3.1	1.55e+00	0	47	104	0	60	1048574
2026-01-18 05:39:14.85	25.56	26.12	-85.2	-88.6	3.1	1.55e+00	0	47	104	0	60	1048575
2026-01-18 05:39:18.88	24.34	26.11	-85.2	-88.6	3.1	1.56e+00	0	47	104	0	60	1048566
2026-01-18 05:39:22.92	23.12	26.08	-85.2	-88.6	2.9	1.55e+00	0	47	104	0	60	1048574
2026-01-18 05:39:26.94	21.91	26.04	-85.2	-88.6	3.1	1.56e+00	0	47	104	0	60	1048571
2026-01-18 05:39:30.97	20.69	25.99	-85.2	-88.6	3.1	1.56e+00	0	47	104	0	60	1048575
2026-01-18 05:39:35.00	19.49	25.92	-85.2	-88.6	2.9	1.56e+00	0	47	104	0	60	1048575
2026-01-18 05:39:39.02	18.29	25.84	-85.2	-88.6	3.0	1.56e+00	0	47	104	0	60	1048574
2026-01-18 05:39:43.05	17.09	25.75	-85.2	-88.6	3.0	1.56e+00	0	47	104	0	60	1048573
2026-01-18 05:39:47.09	15.90	25.64	-85.2	-88.6	3.1	1.56e+00	0	47	104	0	60	1048575
2026-01-18 05:39:51.11	14.72	25.52	-85.2	-88.6	2.9	1.55e+00	0	47	104	0	60	1048574
2026-01-18 05:39:55.14	13.56	25.39	-85.2	-88.6	3.1	1.56e+00	0	47	104	0	60	1048573
2026-01-18 05:39:59.17	12.40	25.25	-85.2	-88.6	3.2	1.56e+00	0	47	104	0	60	1048575
2026-01-18 05:40:03.19	11.25	25.09	-85.2	-88.6	3.0	1.56e+00	0	47	104	0	60	1048575
2026-01-18 05:40:07.22	10.11	24.92	-85.2	-88.6	2.8	1.56e+00	0	47	104	0	60	1048575
2026-01-18 05:40:11.25	8.99	24.74	-85.2	-88.6	3.0	1.56e+00	0	47	104	0	60	1048575
2026-01-18 05:40:15.28	7.88	24.55	-85.2	-88.6	3.0	1.56e+00	0	47	104	0	60	1048575
2026-01-18 05:40:19.31	6.78	24.35	-85.2	-88.6	2.9	1.56e+00	0	47	104	0	60	1048575
2026-01-18 05:40:23.34	5.70	24.14	-85.2	-88.6	2.8	1.56e+00	0	47	104	0	60	1048572
2026-01-18 05:40:27.37	4.63	23.92	-85.2	-88.6	2.9	1.56e+00	0	47	104	0	60	1048572
2026-01-18 05:40:31.40	3.58	23.70	-85.2	-88.6	2.8	1.55e+00	0	47	104	0	60	1048574
2026-01-18 05:40:35.43	2.55	23.46	-85.2	-88.6	3.3	1.55e+00	0	47	104	0	60	1048570
2026-01-18 05:40:39.46	1.53	23.22	-85.2	-88.6	3.1	1.56e+00	0	47	104	0	60	1048573
2026-01-18 05:40:43.49	0.52	22.97	-85.2	-88.6	3.2	1.55e+00	0	47	104	0	60	1048575
2026-01-18 05:40:47.52	359.53	22.71	-85.2	-88.6	2.8	1.56e+00	0	47	104	0	60	1048575
2026-01-18 05:40:51.54	358.56	22.45	-85.2	-88.6	3.1	1.55e+00	0	47	104	0	60	1048574
2026-01-18 05:40:55.57	357.61	22.18	-85.2	-88.6	2.9	1.56e+00	0	47	104	0	60	1048575
2026-01-18 05:40:59.59	356.67	21.90	-85.2	-88.6	3.3	1.55e+00	0	47	104	0	60	1048575
2026-01-18 05:41:03.62	355.75	21.62	-85.2	-88.6	3.1	1.56e+00	0	47	104	0	60	1048574
2026-01-18 05:41:07.65	354.85	21.34	-85.2	-88.6	3.1	1.56e+00	0	47	104	0	60	1048574
2026-01-18 05:41:11.67	353.96	21.05	-85.2	-88.6	3.0	1.56e+00	0	47	104	0	60	1048572
2026-01-18 05:41:15.70	353.09	20.75	-85.2	-88.6	3.0	1.56e+00	0	47	104	0	60	1048575
2026-01-18 05:41:19.73	352.24	20.46	-85.2	-88.6	3.0	1.56e+00	0	47	104	0	60	1048574
2026-01-18 05:41:23.76	351.40	20.16	-85.2	-88.6	3.2	1.56e+00	0	47	104	0	60	1048575
2026-01-18 05:41:27.79	350.58	19.86	-85.2	-88.6	3.1	1.56e+00	0	47	104	0	60	1048574
2026-01-18 05:41:31.80	349.78	19.55	-85.2	-88.6	3.0	1.55e+00	0	47	104	0	60	1048575
2026-01-18 05:41:35.83	348.99	19.25	-84.7	-88.6	3.2	1.56e+00	0	47	104	0	60	1048574
2026-01-18 05:41:39.86	348.22	18.94	-85.2	-88.6	3.0	1.56e+00	0	47	104	0	60	1048573
2026-01-18 05:41:43.89	347.47	18.63	-85.2	-88.6	3.1	1.56e+00	0	47	104	0	60	1048574
2026-01-18 05:41:47.91	346.73	18.32	-85.2	-88.6	2.9	1.55e+00	0	47	104	0	60	1048575
2026-01-18 05:41:51.93	346.00	18.00	-85.2	-88.6	3.1	1.56e+00	0	47	104	0	60	1048575
2026-01-18 05:41:55.97	345.29	17.69	-85.2	-88.6	3.0	1.56e+00	0	47	104	0	60	1048575
2026-01-18 05:41:59.98	344.60	17.38	-85.2	-88.6	3.0	1.55e+00	0	47	104	0	60	1048574
2026-01-18 05:42:04.00	343.92	17.07	-85.2	-88.6	2.9	1.56e+00	0	47	104	0	60	1048573
2026-01-18 05:42:08.03	343.25	16.75	-85.2	-88.6	3.0	1.55e+00	0	47	104	0	60	1048575
2026-01-18 05:42:12.06	342.60	16.44	-85.2	-88.6	2.9	1.56e+00	0	47	104	0	60	1048574
2026-01-18 05:42:16.09	341.96	16.13	-85.2	-88.6	3.1	1.56e+00	0	47	104	0	60	1048570
2026-01-18 05:42:20.12	341.33	15.81	-85.2	-88.6	2.9	1.56e+00	0	47	104	0	60	1048575
2026-01-18 05:42:24.14	340.72	15.50	-85.2	-88.6	2.9	1.56e+00	0	47	104	0	60	1048575
2026-01-18 05:42:28.17	340.12	15.19	-85.2	-88.6	3.0	1.56e+00	0	47	104	0	60	1048575
2026-01-18 05:42:32.20	339.54	14.88	-85.2	-88.6	3.0	1.56e+00	0	47	104	0	60	1048573
2026-01-18 05:42:36.23	338.96	14.57	-85.2	-88.6	2.9	1.55e+00	0	47	104	0	60	1048574
2026-01-18 05:42:40.25	338.40	14.26	-84.7	-88.6	3.0	1.56e+00	0	47	104	0	60	1048575
2026-01-18 05:42:44.28	337.85	13.95	-85.2	-88.6	3.0	1.56e+00	0	47	104	0	60	1048574
2026-01-18 05:42:48.30	337.31	13.65	-85.2	-88.6	2.9	1.56e+00	0	47	104	0	60	1048573
2026-01-18 05:42:52.32	336.79	13.34	-85.2	-88.6	3.1	1.56e+00	0	47	104	0	60	1048575
2026-01-18 05:42:56.34	336.27	13.04	-84.7	-88.6	3.1	1.56e+00	0	47	104	0	60	1048575
2026-01-18 05:43:00.36	335.77	12.74	-85.2	-88.6	2.8	1.56e+00	0	47	104	0	60	1048574
2026-01-18 05:43:04.36	335.27	12.44	-85.2	-88.6	2.9	1.56e+00	0	47	104	0	60	1048575
2026-01-18 05:43:08.37	334.79	12.14	-85.2	-88.6	2.9	1.55e+00	0	47	104	0	60	1048574
2026-01-18 05:43:12.40	334.32	11.84	-85.2	-88.6	2.9	1.56e+00	0	47	104	0	60	1048575
2026-01-18 05:43:16.43	333.85	11.55	-85.2	-88.6	2.9	1.55e+00	0	47	104	0	60	1048575
2026-01-18 05:43:20.46	333.39	11.25	-85.2	-88.6	3.2	1.55e+00	0	47	104	0	60	1048575
2026-01-18 05:43:24.48	332.95	10.96	-85.2	-88.6	3.1	1.56e+00	0	47	104	0	60	1048573
2026-01-18 05:43:28.49	332.51	10.67	-85.2	-88.6	3.1	1.55e+00	0	47	104	0	60	1048574
2026-01-18 05:43:32.52	332.08	10.38	-85.2	-88.6	3.0	1.55e+00	0	47	104	0	60	1048574
2026-01-18 05:43:36.55	331.66	10.10	-85.2	-88.6	3.0	1.56e+00	0	47	104	0	60	1048575
2026-01-18 05:43:40.58	331.25	9.81	-85.2	-88.6	3.1	1.56e+00	0	47	104	0	60	1048575
2026-01-18 05:43:44.61	330.85	9.53	-85.2	-88.6	2.7	1.56e+00	0	47	104	0	60	1048575
2026-01-18 05:43:48.64	330.45	9.25	-85.2	-88.6	3.0	1.56e+00	0	47	104	0	60	1048573
2026-01-18 05:43:52.67	330.06	8.97	-85.2	-88.6	3.1	1.56e+00	0	47	104	0	60	1048573
2026-01-18 05:43:56.70	329.68	8.69	-85.2	-88.6	2.8	1.56e+00	0	47	104	0	60	1048575
2026-01-18 05:44:00.72	329.31	8.41	-85.2	-88.6	2.9	1.56e+00	0	47	104	0	60	1048575
2026-01-18 05:44:04.75	328.95	8.14	-85.2	-88.6	3.0	1.56e+00	0	47	104	0	60	1048575
2026-01-18 05:44:08.77	328.59	7.87	-85.2	-88.6	3.0	1.55e+00	0	47	104	0	60	1048574
2026-01-18 05:44:12.80	328.24	7.60	-85.2	-88.6	3.2	1.56e+00	0	47	104	0	60	1048575
2026-01-18 05:44:16.83	327.89	7.33	-85.2	-88.6	2.9	1.55e+00	0	47	104	0	60	1048575
2026-01-18 05:44:20.86	327.55	7.06	-85.2	-88.6	3.1	1.56e+00	0	47	104	0	60	1048575
2026-01-18 05:44:24.89	327.22	6.79	-85.2	-88.6	3.0	1.56e+00	0	47	104	0	60	1048575
2026-01-18 05:44:28.92	326.89	6.53	-85.2	-88.6	3.0	1.56e+00	0	47	104	0	60	1048575
2026-01-18 05:44:32.94	326.58	6.27	-85.2	-88.6	3.0	1.56e+00	0	47	104	0	60	1048574
2026-01-18 05:44:36.96	326.26	6.01	-85.2	-88.6	2.9	1.55e+00	0	47	104	0	60	1048575
2026-01-18 05:44:41.00	325.95	5.75	-85.2	-88.6	3.0	1.56e+00	0	47	104	0	60	1048575
2026-01-18 05:44:45.03	325.65	5.50	-85.2	-88.6	2.8	1.56e+00	0	47	104	0	60	1048575
2026-01-18 05:44:49.07	325.35	5.24	-85.2	-88.6	3.0	1.56e+00	0	47	104	0	60	1048574
2026-01-18 05:44:53.09	325.06	4.99	-85.2	-88.6	3.0	1.56e+00	0	47	104	0	60	1048575
2026-01-18 05:44:57.12	324.78	4.74	-84.7	-88.6	3.2	1.55e+00	0	47	104	0	60	1048574
2026-01-18 05:45:01.15	324.50	4.49	-85.2	-88.6	3.0	1.55e+00	0	47	104	0	60	1048575
2026-01-18 05:45:05.18	324.22	4.24	-85.2	-88.6	2.9	1.56e+00	0	47	104	0	60	1048575
2026-01-18 05:45:09.20	323.95	3.99	-85.2	-88.6	2.9	1.56e+00	0	47	104	0	60	1048575
2026-01-18 05:45:13.24	323.68	3.75	-85.2	-88.6	3.1	1.56e+00	0	47	104	0	60	1048575
2026-01-18 05:45:17.26	323.42	3.50	-85.2	-88.6	3.1	1.56e+00	0	47	104	0	60	1048573
2026-01-18 05:45:21.29	323.16	3.26	-85.2	-88.6	3.1	1.56e+00	0	47	104	0	60	1048574
2026-01-18 05:45:25.32	322.91	3.02	-85.2	-88.6	3.2	1.56e+00	0	47	104	0	60	1048575
2026-01-18 05:45:29.34	322.66	2.78	-85.2	-88.6	2.9	1.56e+00	0	47	104	0	60	1048575
2026-01-18 05:45:33.38	322.42	2.55	-85.2	-88.6	2.9	1.55e+00	0	47	104	0	60	1048574
2026-01-18 05:45:37.40	322.18	2.31	-85.2	-88.6	3.0	1.56e+00	0	47	104	0	60	1048572
2026-01-18 05:45:41.42	321.94	2.08	-85.2	-88.6	3.2	1.56e+00	0	47	104	0	60	1048575
2026-01-18 05:45:45.45	321.71	1.85	-85.2	-88.6	2.7	1.56e+00	0	47	104	0	60	1048573
2026-01-18 05:45:49.49	321.48	1.61	-85.2	-88.6	2.8	1.56e+00	0	47	104	0	60	1048575
2026-01-18 05:45:53.52	321.26	1.38	-85.2	-88.6	3.0	1.56e+00	0	47	104	0	60	1048573
2026-01-18 05:45:57.55	321.04	1.16	-85.2	-88.6	3.0	1.55e+00	0	47	104	0	60	1048573
2026-01-18 05:46:01.57	320.82	0.93	-85.2	-88.6	2.8	1.56e+00	0	47	104	0	60	1048573
2026-01-18 05:46:05.60	320.61	0.70	-85.2	-88.6	3.2	1.55e+00	0	47	104	0	60	1048572
2026-01-18 05:46:09.62	320.40	0.48	-85.2	-88.6	2.9	1.56e+00	0	47	104	0	60	1048574
2026-01-18 05:46:13.65	320.19	0.26	-85.2	-88.6	2.7	1.56e+00	0	47	104	0	60	1048573
2026-01-18 05:46:17.69	319.98	0.03	-85.2	-88.6	3.1	1.55e+00	0	47	104	0	60	1048573

#Closed at: 2026-01-18 05:46:20
#Recorded file [0 MB]: D:/Data/35015_260118_083212.dat