passes_logs/2026/01/05/R4.6S_Anadyr_2ch/R4.6S_Anadyr_2ch__20260105_195118_NOAA_20_JPSS-1_rec.log

#Pass ID: 20260105_195118_NOAA 20 (JPSS-1)
#Satellite: NOAA 20 (JPSS-1)
#Configuration: NOAA 20
#almurnet v.1.7.20251203
#Start time: 2026-01-05 19:51:20

#Version: 2.2.20231116
#Station: R4.6S_Anadyr_2ch
#Location: 177.4865 lon 64.73178 lat
#TLE: 1 43013U 17073A   25350.93759711  .00000080  00000+0  58734-4 0  9994
#TLE: 2 43013  98.7603 287.1885 0002156  81.1496 278.9924 14.19526878418610

#Time	Az	El	Level	Level2	SNR	BER	BlckErr	Temp	State	Recorded	gain1	gain2
2026-01-05 19:51:20.24	59.76	0.08	-51.1	-66.1	3.5	1.51e+00	0	29	0	0	60	98872
2026-01-05 19:51:23.27	59.53	0.22	-51.2	-66.5	3.6	1.51e+00	0	30	104	0	60	103187
2026-01-05 19:51:26.31	59.30	0.37	-51.3	-66.7	3.6	1.51e+00	0	30	104	0	60	104947
2026-01-05 19:51:29.34	59.07	0.52	-51.2	-66.5	3.6	1.51e+00	0	30	104	0	60	103402
2026-01-05 19:51:32.37	58.83	0.67	-51.1	-66.5	3.6	1.51e+00	0	30	104	0	60	103573
2026-01-05 19:51:35.40	58.59	0.82	-50.8	-66.2	3.6	1.51e+00	0	30	104	0	60	99173
2026-01-05 19:51:38.44	58.35	0.97	-49.7	-65.0	3.6	1.51e+00	0	31	104	0	60	86903
2026-01-05 19:51:41.47	58.11	1.12	-49.7	-65.1	3.6	1.51e+00	0	31	104	0	60	87306
2026-01-05 19:51:44.50	57.86	1.26	-49.7	-65.0	3.6	1.51e+00	0	31	104	0	60	86288
2026-01-05 19:51:47.54	57.61	1.42	-49.7	-65.0	3.6	1.51e+00	0	31	104	0	60	86849
2026-01-05 19:51:50.57	57.36	1.56	-49.7	-64.9	3.6	1.51e+00	0	31	104	0	60	86118
2026-01-05 19:51:53.60	57.11	1.72	-49.7	-64.9	3.6	1.51e+00	0	31	104	0	60	86140
2026-01-05 19:51:56.64	56.85	1.87	-49.7	-65.0	3.6	1.51e+00	0	31	104	0	60	86244
2026-01-05 19:51:59.67	56.59	2.02	-49.7	-64.9	3.6	1.51e+00	0	31	104	0	60	85320
2026-01-05 19:52:02.70	56.33	2.17	-49.7	-64.7	3.6	1.51e+00	0	31	104	0	60	83940
2026-01-05 19:52:05.73	56.06	2.32	-49.7	-65.0	3.6	1.51e+00	0	31	104	0	60	86434
2026-01-05 19:52:08.77	55.80	2.47	-49.6	-64.8	3.6	1.51e+00	0	31	104	0	60	84937
2026-01-05 19:52:11.80	55.53	2.62	-49.6	-64.7	3.6	1.51e+00	0	31	104	0	60	83706
2026-01-05 19:52:14.84	55.25	2.77	-49.6	-64.3	3.6	1.51e+00	0	31	104	0	60	80095
2026-01-05 19:52:17.87	54.98	2.93	-49.3	-58.8	4.9	8.49e-01	0	31	0	0	60	42544
2026-01-05 19:52:20.91	54.70	3.08	-47.9	-52.3	11.5	2.79e-01	0	31	102	1048576	60	20184
2026-01-05 19:52:23.94	54.41	3.23	-46.1	-49.0	14.8	1.28e+00	0	31	104	1048576	60	13702
2026-01-05 19:52:26.97	54.13	3.38	-46.1	-48.8	15.2	7.00e-07	0	31	0	1048576	60	13462
2026-01-05 19:52:30.01	53.84	3.54	-45.8	-48.2	15.9	0.00e+00	0	31	0	1048576	60	12601
2026-01-05 19:52:33.04	53.55	3.69	-44.6	-46.6	17.7	0.00e+00	0	31	0	1048576	60	10383
2026-01-05 19:52:36.07	53.25	3.84	-44.8	-46.9	17.4	0.00e+00	0	31	0	1048576	60	10742
2026-01-05 19:52:39.11	52.95	4.00	-44.8	-46.8	17.6	0.00e+00	0	31	0	1048576	60	10693
2026-01-05 19:52:42.14	52.65	4.15	-44.7	-46.6	17.8	0.00e+00	0	31	0	1048576	60	10387
2026-01-05 19:52:45.17	52.35	4.30	-44.2	-46.0	18.4	0.00e+00	0	31	101	1048576	60	9719
2026-01-05 19:52:48.21	52.04	4.46	-44.4	-46.3	18.1	0.00e+00	0	31	101	1048576	60	10026
2026-01-05 19:52:51.24	51.73	4.61	-44.2	-45.9	18.5	0.00e+00	0	31	101	1048576	60	9619
2026-01-05 19:52:54.27	51.42	4.77	-44.1	-45.8	18.7	0.00e+00	0	31	101	1048576	60	9507
2026-01-05 19:52:57.31	51.10	4.92	-44.1	-45.8	18.7	0.00e+00	0	31	101	1048576	60	9520
2026-01-05 19:53:00.34	50.78	5.07	-44.2	-45.9	18.7	0.00e+00	0	31	101	1048576	60	9643
2026-01-05 19:53:03.37	50.45	5.23	-43.8	-45.4	19.1	0.00e+00	0	31	101	1048576	60	9116
2026-01-05 19:53:06.41	50.12	5.38	-43.6	-45.2	19.2	0.00e+00	0	31	101	1048576	60	8857
2026-01-05 19:53:09.44	49.79	5.54	-43.6	-45.1	19.4	0.00e+00	0	31	101	1048576	60	8790
2026-01-05 19:53:12.47	49.45	5.69	-43.4	-44.9	19.6	0.00e+00	0	31	101	1048576	60	8584
2026-01-05 19:53:15.51	49.11	5.85	-43.5	-45.0	19.6	0.00e+00	0	31	101	1048576	60	8625
2026-01-05 19:53:18.54	48.77	6.00	-43.5	-45.0	19.6	0.00e+00	0	31	101	1048576	60	8662
2026-01-05 19:53:21.57	48.42	6.15	-43.6	-45.1	19.6	0.00e+00	0	31	101	1048576	60	8731
2026-01-05 19:53:24.61	48.07	6.31	-43.5	-45.0	19.6	0.00e+00	0	31	101	1048576	60	8683
2026-01-05 19:53:27.64	47.72	6.46	-43.8	-45.4	19.3	0.00e+00	0	31	101	1048576	60	9034
2026-01-05 19:53:30.67	47.36	6.61	-43.7	-45.2	19.6	0.00e+00	0	31	101	1048576	60	8835
2026-01-05 19:53:33.71	47.00	6.77	-43.3	-44.8	19.9	0.00e+00	0	31	101	1048576	60	8425
2026-01-05 19:53:36.74	46.63	6.92	-43.4	-44.8	19.9	0.00e+00	0	31	101	1048576	60	8456
2026-01-05 19:53:39.78	46.26	7.07	-43.3	-44.7	20.0	0.00e+00	0	31	101	1048576	60	8340
2026-01-05 19:53:42.81	45.89	7.23	-43.3	-44.7	20.1	0.00e+00	0	31	101	1048576	60	8370
2026-01-05 19:53:45.84	45.51	7.38	-43.3	-44.8	20.0	0.00e+00	0	31	101	1048576	60	8426
2026-01-05 19:53:48.87	45.13	7.53	-43.2	-44.6	20.2	0.00e+00	0	31	101	1048576	60	8311
2026-01-05 19:53:51.91	44.74	7.68	-43.3	-44.7	20.1	0.00e+00	0	31	101	1048576	60	8339
2026-01-05 19:53:54.94	44.35	7.84	-43.0	-44.3	20.5	0.00e+00	0	31	101	1048576	60	8040
2026-01-05 19:53:57.97	43.96	7.99	-42.9	-44.2	20.5	0.00e+00	0	31	101	1048576	60	7949
2026-01-05 19:54:01.01	43.56	8.14	-42.9	-44.2	20.6	0.00e+00	0	31	101	1048576	60	7886
2026-01-05 19:54:04.04	43.15	8.29	-42.6	-43.9	20.9	0.00e+00	0	31	101	1048576	60	7609
2026-01-05 19:54:07.07	42.75	8.44	-42.8	-44.1	20.7	0.00e+00	0	31	101	1048576	60	7797
2026-01-05 19:54:10.11	42.33	8.59	-42.7	-44.0	20.8	0.00e+00	0	31	101	1048576	60	7688
2026-01-05 19:54:13.14	41.92	8.74	-42.8	-44.1	20.7	0.00e+00	0	31	101	1048576	60	7814
2026-01-05 19:54:16.17	41.50	8.88	-42.7	-44.0	20.9	0.00e+00	0	31	101	1048576	60	7702
2026-01-05 19:54:19.20	41.07	9.03	-42.8	-44.1	20.6	0.00e+00	0	31	101	1048576	60	7786
2026-01-05 19:54:22.24	40.64	9.18	-42.8	-44.1	20.8	0.00e+00	0	31	101	1048576	60	7806
2026-01-05 19:54:25.27	40.21	9.33	-42.7	-43.9	20.9	0.00e+00	0	31	101	1048576	60	7672
2026-01-05 19:54:28.30	39.77	9.47	-42.6	-43.8	21.0	0.00e+00	0	31	101	1048576	60	7565
2026-01-05 19:54:31.34	39.33	9.62	-42.4	-43.6	21.3	0.00e+00	0	31	101	1048576	60	7366
2026-01-05 19:54:34.37	38.88	9.76	-42.1	-43.3	21.6	0.00e+00	0	31	101	1048576	60	7093
2026-01-05 19:54:37.40	38.43	9.90	-41.9	-43.0	21.7	0.00e+00	0	31	101	1048576	60	6918
2026-01-05 19:54:40.44	37.98	10.05	-41.8	-42.9	21.9	0.00e+00	0	31	101	1048576	60	6810
2026-01-05 19:54:43.47	37.52	10.19	-41.4	-42.5	22.4	0.00e+00	0	31	101	1048576	60	6467
2026-01-05 19:54:46.50	37.05	10.33	-41.3	-42.3	22.5	0.00e+00	0	31	101	1048576	60	6356
2026-01-05 19:54:49.53	36.58	10.47	-41.2	-42.2	22.6	0.00e+00	0	31	101	1048576	60	6275
2026-01-05 19:54:52.57	36.11	10.60	-41.0	-42.1	22.7	0.00e+00	0	31	101	1048576	60	6185
2026-01-05 19:54:55.60	35.63	10.74	-41.1	-42.1	22.6	0.00e+00	0	31	101	1048576	60	6189
2026-01-05 19:54:58.64	35.15	10.88	-40.8	-41.8	23.0	0.00e+00	0	31	101	1048576	60	5992
2026-01-05 19:55:01.67	34.66	11.01	-40.8	-41.8	23.0	0.00e+00	0	31	101	1048576	60	5981
2026-01-05 19:55:04.70	34.17	11.14	-40.7	-41.7	23.1	0.00e+00	0	31	101	1048576	60	5913
2026-01-05 19:55:07.74	33.67	11.28	-40.8	-41.8	23.0	0.00e+00	0	31	101	1048576	60	6009
2026-01-05 19:55:10.77	33.17	11.41	-40.7	-41.7	23.1	0.00e+00	0	31	101	1048576	60	5921
2026-01-05 19:55:13.80	32.66	11.53	-40.3	-41.2	23.5	0.00e+00	0	31	101	1048576	60	5589
2026-01-05 19:55:16.84	32.15	11.66	-40.3	-41.3	23.4	0.00e+00	0	31	101	1048576	60	5634
2026-01-05 19:55:19.87	31.64	11.79	-40.3	-41.2	23.5	0.00e+00	0	31	101	1048576	60	5616
2026-01-05 19:55:22.90	31.12	11.91	-40.4	-41.4	23.4	0.00e+00	0	31	101	1048576	60	5702
2026-01-05 19:55:25.94	30.59	12.03	-40.5	-41.5	23.3	0.00e+00	0	31	101	1048576	60	5789
2026-01-05 19:55:28.97	30.07	12.15	-40.6	-41.6	23.0	0.00e+00	0	31	101	1048576	60	5865
2026-01-05 19:55:32.00	29.54	12.27	-40.6	-41.6	23.2	0.00e+00	0	31	101	1048576	60	5865
2026-01-05 19:55:35.04	29.00	12.39	-40.9	-41.9	22.9	0.00e+00	0	31	101	1048576	60	6080
2026-01-05 19:55:38.07	28.46	12.50	-40.9	-41.8	23.0	0.00e+00	0	31	101	1048576	60	6028
2026-01-05 19:55:41.10	27.91	12.62	-40.8	-41.8	23.0	0.00e+00	0	32	101	1048576	60	5975
2026-01-05 19:55:44.14	27.36	12.73	-40.7	-41.6	23.2	0.00e+00	0	31	101	1048576	60	5874
2026-01-05 19:55:47.17	26.81	12.84	-40.6	-41.5	23.3	0.00e+00	0	32	101	1048576	60	5819
2026-01-05 19:55:50.20	26.25	12.94	-40.7	-41.7	23.2	0.00e+00	0	31	101	1048576	60	5929
2026-01-05 19:55:53.24	25.69	13.05	-40.4	-41.3	23.5	0.00e+00	0	31	101	1048576	60	5687
2026-01-05 19:55:56.27	25.12	13.15	-40.5	-41.4	23.3	0.00e+00	0	31	101	1048576	60	5741
2026-01-05 19:55:59.30	24.55	13.25	-40.4	-41.3	23.4	0.00e+00	0	31	101	1048576	60	5685
2026-01-05 19:56:02.34	23.98	13.35	-40.6	-41.5	23.3	0.00e+00	0	31	101	1048576	60	5818
2026-01-05 19:56:05.37	23.40	13.44	-40.4	-41.4	23.4	0.00e+00	0	31	101	1048576	60	5699
2026-01-05 19:56:08.40	22.82	13.53	-40.2	-41.2	23.6	0.00e+00	0	31	101	1048576	60	5579
2026-01-05 19:56:11.44	22.24	13.62	-40.4	-41.3	23.5	0.00e+00	0	31	101	1048576	60	5673
2026-01-05 19:56:14.47	21.65	13.71	-40.3	-41.2	23.6	0.00e+00	0	31	101	1048576	60	5593
2026-01-05 19:56:17.50	21.06	13.79	-40.2	-41.2	23.6	0.00e+00	0	31	101	1048576	58	6257
2026-01-05 19:56:20.54	20.46	13.88	-40.1	-41.1	23.7	0.00e+00	0	31	101	1048576	58	6175
2026-01-05 19:56:23.57	19.87	13.95	-40.4	-41.4	23.3	0.00e+00	0	31	101	1048576	58	6398
2026-01-05 19:56:26.60	19.26	14.03	-40.7	-41.6	23.2	0.00e+00	0	31	101	1048576	58	6590
2026-01-05 19:56:29.63	18.66	14.10	-40.5	-41.4	23.4	0.00e+00	0	31	101	1048576	58	6424
2026-01-05 19:56:32.67	18.05	14.17	-40.8	-41.8	23.1	0.00e+00	0	31	101	1048576	58	6717
2026-01-05 19:56:35.70	17.44	14.24	-40.9	-41.9	23.1	0.00e+00	0	31	101	1048576	58	6788
2026-01-05 19:56:38.73	16.83	14.30	-41.1	-42.1	22.8	0.00e+00	0	31	101	1048576	60	6241
2026-01-05 19:56:41.77	16.21	14.36	-41.3	-42.4	22.6	0.00e+00	0	31	101	1048576	60	6412
2026-01-05 19:56:44.80	15.60	14.42	-41.1	-42.1	22.8	0.00e+00	0	31	101	1048576	60	6211
2026-01-05 19:56:47.83	14.98	14.47	-40.9	-41.8	23.1	0.00e+00	0	31	101	1048576	60	6016
2026-01-05 19:56:50.87	14.35	14.53	-40.6	-41.6	23.3	0.00e+00	0	31	101	1048576	60	5835
2026-01-05 19:56:53.90	13.73	14.57	-40.4	-41.4	23.5	0.00e+00	0	31	101	1048576	60	5705
2026-01-05 19:56:56.93	13.10	14.62	-40.7	-41.7	23.3	0.00e+00	0	31	101	1048576	60	5904
2026-01-05 19:56:59.97	12.47	14.66	-40.4	-41.4	23.4	0.00e+00	0	31	101	1048576	60	5708
2026-01-05 19:57:03.00	11.84	14.70	-40.8	-41.8	23.1	0.00e+00	0	31	101	1048576	60	5998
2026-01-05 19:57:06.03	11.21	14.73	-41.1	-42.1	22.9	0.00e+00	0	31	101	1048576	60	6178
2026-01-05 19:57:09.07	10.58	14.76	-40.6	-41.5	23.4	0.00e+00	0	31	101	1048576	60	5800
2026-01-05 19:57:12.10	9.95	14.79	-40.8	-41.8	23.2	0.00e+00	0	32	101	1048576	60	5987
2026-01-05 19:57:15.14	9.31	14.81	-40.8	-41.7	23.2	0.00e+00	0	31	101	1048576	60	5952
2026-01-05 19:57:18.17	8.67	14.83	-40.6	-41.6	23.3	0.00e+00	0	31	101	1048576	60	5834
2026-01-05 19:57:21.20	8.04	14.85	-40.6	-41.6	23.3	0.00e+00	0	31	101	1048576	60	5843
2026-01-05 19:57:24.23	7.40	14.86	-40.6	-41.6	23.2	0.00e+00	0	31	101	1048576	60	5863
2026-01-05 19:57:27.27	6.76	14.87	-40.5	-41.4	23.5	0.00e+00	0	31	101	1048576	60	5735
2026-01-05 19:57:30.30	6.13	14.88	-40.7	-41.7	23.3	0.00e+00	0	31	101	1048576	60	5924
2026-01-05 19:57:33.33	5.49	14.88	-40.9	-41.8	23.1	0.00e+00	0	31	101	1048576	60	6016
2026-01-05 19:57:36.37	4.85	14.88	-40.4	-41.3	23.5	0.00e+00	0	31	101	1048576	60	5689
2026-01-05 19:57:39.40	4.21	14.87	-40.4	-41.4	23.5	0.00e+00	0	31	101	1048576	60	5710
2026-01-05 19:57:42.44	3.57	14.86	-40.6	-41.5	23.4	0.00e+00	0	31	101	1048576	60	5803
2026-01-05 19:57:45.47	2.93	14.85	-40.6	-41.6	23.2	0.00e+00	0	31	101	1048576	60	5863
2026-01-05 19:57:48.50	2.30	14.84	-40.9	-41.9	23.1	0.00e+00	0	31	101	1048576	60	6038
2026-01-05 19:57:51.54	1.66	14.82	-41.2	-42.2	22.8	0.00e+00	0	31	101	1048576	60	6285
2026-01-05 19:57:54.57	1.03	14.79	-41.1	-42.1	22.9	0.00e+00	0	31	101	1048576	60	6175
2026-01-05 19:57:57.60	0.39	14.77	-41.0	-42.0	23.1	0.00e+00	0	31	101	1048576	60	6108
2026-01-05 19:58:00.63	359.76	14.74	-41.1	-42.1	22.8	0.00e+00	0	31	101	1048576	60	6193
2026-01-05 19:58:03.67	359.13	14.71	-41.4	-42.5	22.6	0.00e+00	0	31	101	1048576	60	6493
2026-01-05 19:58:06.70	358.50	14.67	-41.3	-42.3	22.7	0.00e+00	0	32	101	1048576	60	6363
2026-01-05 19:58:09.74	357.87	14.63	-40.8	-41.8	23.3	0.00e+00	0	31	101	1048576	60	5975
2026-01-05 19:58:12.77	357.24	14.59	-40.9	-41.8	23.1	0.00e+00	0	31	101	1048576	60	6018
2026-01-05 19:58:15.80	356.62	14.54	-40.9	-41.8	23.1	0.00e+00	0	32	101	1048576	60	6029
2026-01-05 19:58:18.83	355.99	14.49	-40.6	-41.6	23.4	0.00e+00	0	31	101	1048576	60	5863
2026-01-05 19:58:21.87	355.37	14.44	-40.5	-41.4	23.4	0.00e+00	0	32	101	1048576	60	5739
2026-01-05 19:58:24.90	354.76	14.38	-40.5	-41.4	23.4	0.00e+00	0	31	101	1048576	60	5726
2026-01-05 19:58:27.93	354.14	14.32	-40.5	-41.5	23.4	0.00e+00	0	31	101	1048576	60	5788
2026-01-05 19:58:30.97	353.53	14.26	-40.6	-41.5	23.4	0.00e+00	0	32	101	1048576	60	5804
2026-01-05 19:58:34.00	352.92	14.19	-40.7	-41.6	23.3	0.00e+00	0	31	101	1048576	60	5890
2026-01-05 19:58:37.04	352.31	14.12	-40.9	-41.9	23.1	0.00e+00	0	31	101	1048576	60	6049
2026-01-05 19:58:40.07	351.70	14.05	-41.0	-41.9	23.0	0.00e+00	0	32	101	1048576	60	6101
2026-01-05 19:58:43.10	351.10	13.98	-40.9	-41.9	23.0	0.00e+00	0	32	101	1048576	60	6054
2026-01-05 19:58:46.14	350.50	13.90	-41.0	-42.0	23.0	0.00e+00	0	31	101	1048576	60	6111
2026-01-05 19:58:49.17	349.91	13.82	-40.9	-41.9	23.0	0.00e+00	0	31	101	1048576	60	6041
2026-01-05 19:58:52.20	349.32	13.73	-41.0	-42.0	22.9	0.00e+00	0	32	101	1048576	60	6133
2026-01-05 19:58:55.23	348.73	13.65	-41.0	-42.0	22.9	0.00e+00	0	32	101	1048576	60	6113
2026-01-05 19:58:58.27	348.14	13.56	-41.1	-42.1	22.8	0.00e+00	0	32	101	1048576	60	6214
2026-01-05 19:59:01.30	347.56	13.47	-40.6	-41.6	23.3	0.00e+00	0	32	101	1048576	60	5845
2026-01-05 19:59:04.33	346.98	13.37	-40.4	-41.4	23.4	0.00e+00	0	31	101	1048576	60	5715
2026-01-05 19:59:07.36	346.41	13.28	-40.5	-41.4	23.3	0.00e+00	0	31	101	1048576	60	5761
2026-01-05 19:59:10.40	345.84	13.18	-40.5	-41.4	23.4	0.00e+00	0	31	101	1048576	60	5759
2026-01-05 19:59:13.43	345.27	13.08	-40.4	-41.3	23.5	0.00e+00	0	31	101	1048576	60	5687
2026-01-05 19:59:16.46	344.71	12.97	-40.6	-41.6	23.3	0.00e+00	0	31	101	1048576	60	5872
2026-01-05 19:59:19.50	344.15	12.87	-40.7	-41.7	23.0	0.00e+00	0	31	101	1048576	60	5950
2026-01-05 19:59:22.53	343.60	12.76	-40.6	-41.6	23.2	0.00e+00	0	31	101	1048576	60	5867
2026-01-05 19:59:25.56	343.05	12.65	-40.6	-41.5	23.2	0.00e+00	0	31	101	1048576	60	5816
2026-01-05 19:59:28.60	342.50	12.54	-40.5	-41.4	23.4	0.00e+00	0	32	101	1048576	60	5719
2026-01-05 19:59:31.63	341.96	12.42	-40.6	-41.6	23.3	0.00e+00	0	32	101	1048576	60	5832
2026-01-05 19:59:34.66	341.42	12.31	-40.5	-41.5	23.3	0.00e+00	0	32	101	1048576	60	5797
2026-01-05 19:59:37.70	340.89	12.19	-40.7	-41.7	23.2	0.00e+00	0	32	101	1048576	60	5913
2026-01-05 19:59:40.73	340.36	12.07	-41.0	-42.0	22.8	0.00e+00	0	32	101	1048576	60	6159
2026-01-05 19:59:43.76	339.84	11.95	-41.3	-42.3	22.6	0.00e+00	0	31	101	1048576	60	6379
2026-01-05 19:59:46.80	339.32	11.82	-41.5	-42.5	22.3	0.00e+00	0	31	101	1048576	60	6518
2026-01-05 19:59:49.83	338.80	11.70	-41.6	-42.7	22.2	0.00e+00	0	32	101	1048576	60	6671
2026-01-05 19:59:52.86	338.29	11.57	-41.7	-42.7	22.1	0.00e+00	0	32	101	1048576	60	6683
2026-01-05 19:59:55.90	337.78	11.44	-41.9	-43.0	21.9	0.00e+00	0	31	101	1048576	60	6889
2026-01-05 19:59:58.93	337.28	11.31	-42.2	-43.4	21.5	0.00e+00	0	31	101	1048576	60	7183
2026-01-05 20:00:01.96	336.79	11.18	-42.5	-43.8	21.1	0.00e+00	0	32	101	1048576	60	7524
2026-01-05 20:00:05.00	336.29	11.05	-42.7	-44.0	20.9	0.00e+00	0	31	101	1048576	60	7701
2026-01-05 20:00:08.03	335.80	10.92	-42.7	-44.0	20.9	0.00e+00	0	31	101	1048576	60	7689
2026-01-05 20:00:11.06	335.32	10.78	-42.8	-44.1	20.7	0.00e+00	0	31	101	1048576	60	7822
2026-01-05 20:00:14.10	334.84	10.64	-43.2	-44.6	20.3	0.00e+00	0	32	101	1048576	60	8262
2026-01-05 20:00:17.13	334.37	10.51	-43.7	-45.1	19.9	0.00e+00	0	32	101	1048576	60	8806
2026-01-05 20:00:20.16	333.90	10.37	-43.5	-44.9	20.0	0.00e+00	0	31	101	1048576	60	8555
2026-01-05 20:00:23.20	333.43	10.23	-43.4	-44.8	20.1	0.00e+00	0	31	101	1048576	60	8471
2026-01-05 20:00:26.23	332.97	10.09	-43.8	-45.3	19.6	0.00e+00	0	31	101	1048576	60	8972
2026-01-05 20:00:29.26	332.51	9.95	-43.8	-45.2	19.7	0.00e+00	0	31	101	1048576	60	8908
2026-01-05 20:00:32.30	332.06	9.80	-43.7	-45.2	19.7	0.00e+00	0	31	101	1048576	60	8839
2026-01-05 20:00:35.33	331.61	9.66	-43.6	-45.1	19.9	0.00e+00	0	31	101	1048576	60	8740
2026-01-05 20:00:38.36	331.17	9.52	-43.5	-44.9	20.0	0.00e+00	0	32	101	1048576	60	8577
2026-01-05 20:00:41.40	330.73	9.37	-43.7	-45.2	19.7	0.00e+00	0	31	101	1048576	60	8867
2026-01-05 20:00:44.43	330.30	9.22	-43.6	-45.1	19.8	0.00e+00	0	31	101	1048576	60	8741
2026-01-05 20:00:47.46	329.87	9.08	-43.4	-44.8	20.1	0.00e+00	0	31	101	1048576	60	8452
2026-01-05 20:00:50.50	329.44	8.93	-43.1	-44.4	20.5	0.00e+00	0	31	101	1048576	60	8075
2026-01-05 20:00:53.53	329.02	8.78	-43.2	-44.5	20.4	0.00e+00	0	31	101	1048576	60	8233
2026-01-05 20:00:56.57	328.60	8.63	-43.0	-44.3	20.5	0.00e+00	0	32	101	1048576	60	8009
2026-01-05 20:00:59.60	328.19	8.48	-43.1	-44.4	20.5	0.00e+00	0	32	101	1048576	60	8117
2026-01-05 20:01:02.63	327.79	8.33	-42.9	-44.2	20.6	0.00e+00	0	32	101	1048576	60	7878
2026-01-05 20:01:05.66	327.38	8.18	-42.6	-43.9	20.9	0.00e+00	0	32	101	1048576	60	7633
2026-01-05 20:01:08.70	326.98	8.03	-42.7	-44.0	20.9	0.00e+00	0	32	101	1048576	60	7687
2026-01-05 20:01:11.73	326.59	7.88	-42.1	-43.2	21.4	0.00e+00	0	32	101	1048576	60	7076
2026-01-05 20:01:14.76	326.20	7.73	-42.0	-43.2	21.4	0.00e+00	0	32	101	1048576	60	7060
2026-01-05 20:01:17.80	325.81	7.58	-41.9	-43.0	21.7	0.00e+00	0	31	101	1048576	60	6897
2026-01-05 20:01:20.83	325.43	7.43	-41.8	-42.9	21.8	0.00e+00	0	31	101	1048576	60	6835
2026-01-05 20:01:23.86	325.05	7.28	-41.7	-42.8	21.8	0.00e+00	0	31	101	1048576	60	6762
2026-01-05 20:01:26.90	324.67	7.12	-41.5	-42.6	22.1	0.00e+00	0	31	101	1048576	60	6554
2026-01-05 20:01:29.93	324.30	6.97	-41.3	-42.4	21.9	0.00e+00	0	31	101	1048576	60	6417
2026-01-05 20:01:32.96	323.94	6.82	-41.4	-42.5	22.1	0.00e+00	0	31	101	1048576	60	6527
2026-01-05 20:01:36.00	323.57	6.66	-41.4	-42.5	22.0	0.00e+00	0	31	101	1048576	60	6506
2026-01-05 20:01:39.03	323.21	6.51	-41.5	-42.6	21.9	0.00e+00	0	31	101	1048576	60	6591
2026-01-05 20:01:42.06	322.86	6.36	-41.6	-42.8	21.8	0.00e+00	0	31	101	1048576	60	6696
2026-01-05 20:01:45.10	322.51	6.20	-41.5	-42.6	22.0	0.00e+00	0	31	101	1048576	60	6581
2026-01-05 20:01:48.13	322.16	6.05	-41.6	-42.7	21.8	0.00e+00	0	31	101	1048576	60	6678
2026-01-05 20:01:51.16	321.82	5.90	-41.6	-42.7	21.8	0.00e+00	0	31	101	1048576	60	6640
2026-01-05 20:01:54.19	321.48	5.74	-41.9	-43.0	21.5	0.00e+00	0	31	101	1048576	60	6923
2026-01-05 20:01:57.23	321.14	5.59	-41.9	-43.1	21.4	0.00e+00	0	31	101	1048576	60	6989
2026-01-05 20:02:00.26	320.81	5.43	-42.1	-43.3	21.2	0.00e+00	0	31	101	1048576	60	7138
2026-01-05 20:02:03.29	320.48	5.28	-41.9	-43.1	21.4	0.00e+00	0	31	101	1048576	60	6990
2026-01-05 20:02:06.32	320.15	5.13	-42.2	-43.4	21.1	0.00e+00	0	31	101	1048576	60	7238
2026-01-05 20:02:09.36	319.83	4.97	-42.1	-43.3	21.0	0.00e+00	0	31	101	1048576	60	7165
2026-01-05 20:02:12.39	319.51	4.82	-42.1	-43.4	21.0	0.00e+00	0	31	101	1048576	60	7200
2026-01-05 20:02:15.43	319.20	4.66	-42.4	-43.7	20.6	0.00e+00	0	31	101	1048576	60	7479
2026-01-05 20:02:18.46	318.89	4.51	-42.5	-43.8	20.6	0.00e+00	0	31	101	1048576	60	7558
2026-01-05 20:02:21.49	318.58	4.36	-42.7	-44.0	20.3	0.00e+00	0	31	101	1048576	60	7760
2026-01-05 20:02:24.52	318.27	4.20	-43.1	-44.5	19.9	0.00e+00	0	31	101	1048576	60	8191
2026-01-05 20:02:27.56	317.97	4.05	-42.8	-44.1	20.2	0.00e+00	0	31	101	1048576	60	7853
2026-01-05 20:02:30.59	317.67	3.90	-42.9	-44.4	19.9	0.00e+00	0	31	101	1048576	60	8046
2026-01-05 20:02:33.62	317.38	3.74	-43.0	-44.4	19.8	0.00e+00	0	31	101	1048576	60	8135
2026-01-05 20:02:36.66	317.09	3.59	-43.2	-44.7	19.5	0.00e+00	0	31	101	1048576	60	8360
2026-01-05 20:02:39.69	316.80	3.44	-43.2	-44.7	19.5	0.00e+00	0	31	101	1048576	60	8408
2026-01-05 20:02:42.72	316.51	3.28	-43.8	-45.5	18.7	0.00e+00	0	31	101	1048576	60	9229
2026-01-05 20:02:45.75	316.23	3.13	-43.6	-45.2	18.9	0.00e+00	0	31	101	1048576	60	8898
2026-01-05 20:02:48.78	315.95	2.98	-50.6	-65.9	3.6	1.51e+00	0	31	104	1048576	60	96406
2026-01-05 20:02:51.82	315.67	2.83	-51.2	-66.5	3.6	1.51e+00	0	31	104	1048576	60	102912
2026-01-05 20:02:54.85	315.40	2.68	-51.3	-66.6	3.6	1.51e+00	0	31	104	1048576	60	103999
2026-01-05 20:02:57.88	315.13	2.52	-51.3	-66.6	3.6	1.51e+00	0	31	104	1048576	60	104168
2026-01-05 20:03:00.92	314.86	2.37	-51.1	-66.5	3.6	1.51e+00	0	32	104	1048576	60	102876
2026-01-05 20:03:03.95	314.59	2.22	-51.1	-66.5	3.6	1.51e+00	0	32	104	1048576	60	102627
2026-01-05 20:03:06.98	314.33	2.07	-51.1	-66.5	3.6	1.51e+00	0	31	104	1048576	60	102964
2026-01-05 20:03:10.02	314.07	1.92	-51.1	-66.5	3.5	1.51e+00	0	31	104	1048576	60	102592
2026-01-05 20:03:13.05	313.82	1.77	-51.2	-66.5	3.6	1.51e+00	0	31	104	1048576	60	102831
2026-01-05 20:03:16.08	313.56	1.62	-51.1	-66.5	3.6	1.51e+00	0	31	104	1048576	60	102659
2026-01-05 20:03:19.12	313.31	1.47	-51.1	-66.5	3.6	1.51e+00	0	32	104	1048576	60	103309
2026-01-05 20:03:22.15	313.06	1.32	-51.2	-66.5	3.6	1.51e+00	0	32	104	1048576	60	102493
2026-01-05 20:03:25.19	312.81	1.17	-51.1	-66.5	3.6	1.51e+00	0	32	104	1048576	60	102716
2026-01-05 20:03:28.22	312.57	1.02	-51.1	-66.5	3.5	1.51e+00	0	32	104	1048576	60	102827
2026-01-05 20:03:31.25	312.33	0.87	-51.1	-66.4	3.6	1.51e+00	0	32	104	1048576	60	102151
2026-01-05 20:03:34.28	312.09	0.72	-51.2	-66.5	3.6	1.51e+00	0	32	104	1048576	60	103096
2026-01-05 20:03:37.32	311.86	0.58	-51.1	-66.5	3.6	1.51e+00	0	32	104	1048576	60	102954
2026-01-05 20:03:40.35	311.62	0.43	-51.1	-66.5	3.6	1.51e+00	0	32	104	1048576	60	102785
2026-01-05 20:03:43.38	311.39	0.28	-51.1	-66.4	3.6	1.51e+00	0	32	104	1048576	60	102402
2026-01-05 20:03:46.42	311.16	0.13	-51.1	-66.4	3.6	1.51e+00	0	32	104	1048576	60	102377
2026-01-05 20:03:49.45	310.93	-0.02	-51.1	-66.4	3.6	1.51e+00	0	32	104	1048576	60	101689

#Closed at: 2026-01-05 20:03:51
#Recorded file [1 MB]: D:/lorett/data/35034_260105_225120.dat