passes_logs/2026/01/05/R4.6S_Anadyr_2ch/R4.6S_Anadyr_2ch__20260105_210912_SUOMI_NPP_rec.log

#Pass ID: 20260105_210912_SUOMI NPP
#Satellite: SUOMI NPP
#Configuration: NPP
#almurnet v.1.7.20251203
#Start time: 2026-01-05 21:09:13

#Version: 2.2.20231116
#Station: R4.6S_Anadyr_2ch
#Location: 177.4865 lon 64.73178 lat
#TLE: 1 37849U 11061A   25350.92281687  .00000071  00000+0  54882-4 0  9996
#TLE: 2 37849  98.7777 288.2268 0002366 112.8570 247.2856 14.19515404732588

#Time	Az	El	Level	Level2	SNR	BER	BlckErr	Temp	State	Recorded	gain1	gain2
2026-01-05 21:09:13.28	82.92	0.06	-50.7	-61.7	3.4	8.45e-01	0	29	0	0	60	59674
2026-01-05 21:09:17.32	82.65	0.26	-51.1	-66.5	3.6	1.51e+00	0	30	104	0	60	103225
2026-01-05 21:09:21.37	82.38	0.47	-51.2	-66.6	3.6	1.51e+00	0	30	104	0	60	103736
2026-01-05 21:09:25.41	82.11	0.68	-50.8	-66.4	3.6	1.51e+00	0	30	104	0	60	101977
2026-01-05 21:09:29.45	81.83	0.90	-49.8	-65.1	3.6	1.51e+00	0	31	104	0	60	88136
2026-01-05 21:09:33.50	81.55	1.11	-49.6	-65.0	3.6	1.51e+00	0	31	104	0	60	86952
2026-01-05 21:09:37.54	81.26	1.32	-49.6	-65.0	3.6	1.51e+00	0	31	104	0	60	86539
2026-01-05 21:09:41.59	80.97	1.54	-49.6	-64.9	3.6	1.51e+00	0	31	104	0	60	85978
2026-01-05 21:09:45.63	80.67	1.75	-49.5	-64.9	3.6	1.51e+00	0	31	104	0	60	85955
2026-01-05 21:09:49.68	80.37	1.97	-49.5	-64.9	3.6	1.51e+00	0	31	104	0	60	85492
2026-01-05 21:09:53.72	80.06	2.19	-49.5	-64.6	3.6	1.51e+00	0	31	104	0	60	83186
2026-01-05 21:09:57.77	79.75	2.40	-49.5	-64.9	3.6	1.51e+00	0	31	104	0	60	85649
2026-01-05 21:10:01.80	79.44	2.62	-49.5	-64.7	3.6	1.51e+00	0	31	104	0	60	83684
2026-01-05 21:10:05.85	79.12	2.84	-49.5	-64.7	3.6	1.51e+00	0	31	104	0	60	83444
2026-01-05 21:10:09.90	78.79	3.06	-48.1	-53.4	10.0	2.85e-02	65	31	102	1048576	60	22811
2026-01-05 21:10:13.94	78.47	3.28	-49.8	-65.0	3.6	1.51e+00	0	31	104	1048576	60	86368
2026-01-05 21:10:17.98	78.13	3.51	-44.0	-45.8	18.2	0.00e+00	92	31	0	1048576	60	9466
2026-01-05 21:10:22.02	77.79	3.73	-43.7	-45.4	18.6	0.00e+00	0	31	0	1048576	60	9115
2026-01-05 21:10:26.07	77.44	3.95	-43.4	-45.0	18.9	0.00e+00	92	31	0	1048576	60	8656
2026-01-05 21:10:30.11	77.09	4.18	-43.3	-44.8	19.2	0.00e+00	90	31	0	1048576	60	8517
2026-01-05 21:10:34.16	76.74	4.40	-43.6	-45.2	19.0	0.00e+00	0	31	101	1048576	60	8838
2026-01-05 21:10:38.20	76.37	4.63	-43.5	-45.0	19.1	0.00e+00	0	31	101	1048576	60	8701
2026-01-05 21:10:42.25	76.00	4.86	-44.0	-45.7	18.5	0.00e+00	92	31	101	1048576	60	9370
2026-01-05 21:10:46.29	75.63	5.09	-44.0	-45.7	18.5	0.00e+00	90	31	101	1048576	60	9430
2026-01-05 21:10:50.34	75.25	5.32	-43.9	-45.6	18.8	0.00e+00	0	31	101	1048576	60	9312
2026-01-05 21:10:54.38	74.86	5.55	-43.7	-45.2	19.1	0.00e+00	0	31	101	1048576	60	8917
2026-01-05 21:10:58.42	74.47	5.78	-43.5	-45.1	19.3	0.00e+00	64	31	101	1048576	60	8722
2026-01-05 21:11:02.47	74.07	6.01	-43.3	-44.7	19.6	0.00e+00	92	31	101	1048576	60	8402
2026-01-05 21:11:06.52	73.66	6.24	-43.2	-44.7	19.7	0.00e+00	0	31	101	1048576	60	8343
2026-01-05 21:11:10.56	73.25	6.47	-43.5	-45.0	19.4	0.00e+00	64	31	101	1048576	60	8633
2026-01-05 21:11:14.61	72.83	6.71	-43.9	-45.6	18.8	0.00e+00	90	31	101	1048576	60	9239
2026-01-05 21:11:18.65	72.40	6.94	-43.4	-44.9	19.2	0.00e+00	0	31	101	1048576	60	8544
2026-01-05 21:11:22.70	71.97	7.17	-43.6	-45.1	19.3	0.00e+00	0	31	101	1048576	60	8808
2026-01-05 21:11:26.74	71.53	7.41	-43.1	-44.6	20.0	0.00e+00	92	31	101	1048576	60	8239
2026-01-05 21:11:30.79	71.08	7.65	-43.0	-44.4	20.0	0.00e+00	92	31	101	1048576	60	8105
2026-01-05 21:11:34.83	70.62	7.88	-43.0	-44.4	20.0	0.00e+00	0	31	101	1048576	60	8128
2026-01-05 21:11:38.88	70.16	8.12	-43.0	-44.4	20.1	0.00e+00	0	31	101	1048576	60	8064
2026-01-05 21:11:42.93	69.69	8.36	-42.8	-44.2	20.2	0.00e+00	81	31	101	1048576	60	7931
2026-01-05 21:11:46.97	69.21	8.59	-43.0	-44.4	20.1	0.00e+00	75	31	101	1048576	60	8119
2026-01-05 21:11:51.02	68.72	8.83	-43.2	-44.7	19.9	0.00e+00	0	31	101	1048576	60	8396
2026-01-05 21:11:55.06	68.22	9.07	-43.0	-44.5	20.0	0.00e+00	92	31	101	1048576	60	8144
2026-01-05 21:11:59.11	67.72	9.31	-42.4	-43.6	20.8	0.00e+00	92	31	101	1048576	60	7407
2026-01-05 21:12:03.15	67.21	9.55	-42.3	-43.5	21.0	0.00e+00	0	31	101	1048576	60	7335
2026-01-05 21:12:07.20	66.69	9.78	-42.2	-43.4	21.0	0.00e+00	0	31	101	1048576	60	7240
2026-01-05 21:12:11.25	66.16	10.02	-42.2	-43.5	20.9	0.00e+00	17	31	101	1048576	60	7264
2026-01-05 21:12:15.29	65.62	10.26	-42.4	-43.7	20.8	0.00e+00	92	31	101	1048576	60	7443
2026-01-05 21:12:19.34	65.07	10.50	-42.2	-43.3	21.1	0.00e+00	0	31	101	1048576	60	7162
2026-01-05 21:12:23.38	64.51	10.74	-42.0	-43.2	21.3	0.00e+00	0	31	101	1048576	60	7025
2026-01-05 21:12:27.43	63.95	10.97	-42.0	-43.2	21.3	0.00e+00	66	31	101	1048576	60	7024
2026-01-05 21:12:31.47	63.37	11.21	-42.3	-43.5	21.0	0.00e+00	0	31	101	1048576	60	7331
2026-01-05 21:12:35.52	62.79	11.45	-42.1	-43.2	21.3	0.00e+00	0	31	101	1048576	60	7063
2026-01-05 21:12:39.56	62.19	11.68	-42.9	-44.2	20.5	0.00e+00	92	31	101	1048576	60	7909
2026-01-05 21:12:43.60	61.59	11.92	-42.5	-43.8	20.9	0.00e+00	92	31	101	1048576	60	7543
2026-01-05 21:12:47.65	60.97	12.15	-42.8	-44.1	20.7	0.00e+00	0	31	101	1048576	60	7836
2026-01-05 21:12:51.69	60.35	12.38	-42.3	-43.6	21.1	0.00e+00	0	31	101	1048576	60	7339
2026-01-05 21:12:55.74	59.71	12.61	-41.9	-43.1	21.4	0.00e+00	69	31	101	1048576	60	6934
2026-01-05 21:12:59.78	59.07	12.84	-42.1	-43.3	21.3	0.00e+00	65	31	101	1048576	60	7101
2026-01-05 21:13:03.82	58.42	13.07	-41.8	-42.9	21.6	0.00e+00	0	31	101	1048576	60	6823
2026-01-05 21:13:07.87	57.75	13.30	-41.2	-42.2	22.2	0.00e+00	1	31	101	1048576	60	6308
2026-01-05 21:13:11.91	57.08	13.52	-40.8	-41.8	22.5	0.00e+00	73	31	101	1048576	60	6019
2026-01-05 21:13:15.96	56.39	13.75	-40.4	-41.4	22.9	0.00e+00	0	31	101	1048576	60	5730
2026-01-05 21:13:20.01	55.69	13.97	-40.4	-41.4	22.9	0.00e+00	0	31	101	1048576	60	5715
2026-01-05 21:13:24.05	54.99	14.19	-40.3	-41.2	22.9	0.00e+00	92	31	101	1048576	58	6287
2026-01-05 21:13:28.09	54.27	14.40	-40.4	-41.4	23.0	0.00e+00	92	31	101	1048576	58	6432
2026-01-05 21:13:32.14	53.54	14.62	-40.7	-41.7	22.6	0.00e+00	29	31	101	1048576	58	6680
2026-01-05 21:13:36.18	52.80	14.83	-40.8	-41.9	22.6	0.00e+00	0	31	101	1048576	58	6781
2026-01-05 21:13:40.23	52.05	15.03	-40.2	-41.2	23.0	0.00e+00	11	31	101	1048576	58	6253
2026-01-05 21:13:44.27	51.29	15.24	-39.3	-40.2	23.8	0.00e+00	64	31	101	1048576	58	5607
2026-01-05 21:13:48.31	50.52	15.44	-39.7	-40.6	23.5	0.00e+00	0	31	101	1048576	58	5851
2026-01-05 21:13:52.35	49.74	15.63	-40.1	-41.1	23.1	0.00e+00	76	31	101	1048576	58	6217
2026-01-05 21:13:56.40	48.95	15.83	-40.1	-41.0	23.1	0.00e+00	88	31	101	1048576	58	6147
2026-01-05 21:14:00.44	48.15	16.02	-39.7	-40.6	23.5	0.00e+00	0	31	101	1048576	58	5896
2026-01-05 21:14:04.49	47.34	16.20	-39.3	-40.2	23.8	0.00e+00	33	31	101	1048576	58	5587
2026-01-05 21:14:08.53	46.52	16.38	-39.3	-40.2	23.8	0.00e+00	92	31	101	1048576	56	6271
2026-01-05 21:14:12.58	45.69	16.56	-39.5	-40.4	23.7	0.00e+00	92	31	101	1048576	56	6417
2026-01-05 21:14:16.62	44.85	16.73	-39.9	-40.9	23.4	0.00e+00	0	31	101	1048576	56	6770
2026-01-05 21:14:20.67	44.00	16.89	-40.1	-41.0	23.2	0.00e+00	0	31	101	1048576	58	6169
2026-01-05 21:14:24.71	43.14	17.05	-39.5	-40.4	23.8	0.00e+00	3	31	101	1048576	58	5710
2026-01-05 21:14:28.75	42.27	17.21	-38.9	-39.7	24.2	0.00e+00	25	31	101	1048576	56	5919
2026-01-05 21:14:32.80	41.39	17.35	-39.0	-39.8	24.2	0.00e+00	0	31	101	1048576	56	5998
2026-01-05 21:14:36.84	40.51	17.50	-38.8	-39.6	24.3	0.00e+00	0	31	101	1048576	56	5896
2026-01-05 21:14:40.88	39.61	17.63	-39.3	-40.2	23.8	0.00e+00	18	31	101	1048576	56	6285
2026-01-05 21:14:44.93	38.71	17.76	-40.0	-40.9	23.2	0.00e+00	0	31	101	1048576	56	6813
2026-01-05 21:14:48.97	37.80	17.88	-39.9	-40.8	23.4	0.00e+00	0	31	101	1048576	58	6018
2026-01-05 21:14:53.02	36.88	18.00	-40.2	-41.2	23.1	0.00e+00	40	31	101	1048576	58	6265
2026-01-05 21:14:57.07	35.96	18.11	-40.6	-41.6	22.6	0.00e+00	0	31	101	1048576	58	6555
2026-01-05 21:15:01.11	35.03	18.21	-39.7	-40.6	23.5	0.00e+00	0	31	101	1048576	58	5848
2026-01-05 21:15:05.16	34.09	18.30	-40.2	-41.2	23.1	0.00e+00	0	31	101	1048576	58	6266
2026-01-05 21:15:09.20	33.15	18.39	-39.9	-40.9	23.3	0.00e+00	92	31	101	1048576	58	6053
2026-01-05 21:15:13.25	32.20	18.47	-40.7	-41.7	22.6	0.00e+00	0	31	101	1048576	58	6676
2026-01-05 21:15:17.29	31.25	18.54	-41.9	-43.1	21.5	0.00e+00	0	31	101	1048576	60	6992
2026-01-05 21:15:21.34	30.29	18.60	-40.9	-42.0	22.4	0.00e+00	74	31	101	1048576	60	6143
2026-01-05 21:15:25.38	29.34	18.65	-40.7	-41.7	22.6	0.00e+00	0	31	101	1048576	60	5963
2026-01-05 21:15:29.42	28.38	18.70	-40.6	-41.6	22.8	0.00e+00	0	31	101	1048576	60	5871
2026-01-05 21:15:33.47	27.41	18.73	-40.1	-41.0	23.2	0.00e+00	0	31	101	1048576	58	6161
2026-01-05 21:15:37.51	26.44	18.76	-40.0	-40.9	23.2	0.00e+00	85	31	101	1048576	58	6088
2026-01-05 21:15:41.56	25.47	18.78	-40.5	-41.5	22.8	0.00e+00	0	31	101	1048576	58	6477
2026-01-05 21:15:45.60	24.50	18.80	-40.4	-41.4	22.9	0.00e+00	0	31	101	1048576	58	6443
2026-01-05 21:15:49.64	23.54	18.80	-40.1	-41.1	23.1	0.00e+00	0	31	101	1048576	58	6190
2026-01-05 21:15:53.69	22.56	18.79	-40.8	-41.8	22.5	0.00e+00	74	31	101	1048576	58	6747
2026-01-05 21:15:57.73	21.60	18.78	-41.6	-42.7	21.9	0.00e+00	0	31	101	1048576	60	6659
2026-01-05 21:16:01.78	20.63	18.76	-40.3	-41.3	22.8	0.00e+00	0	31	101	1048576	60	5676
2026-01-05 21:16:05.82	19.66	18.73	-39.4	-40.3	23.7	0.00e+00	73	31	101	1048576	58	5647
2026-01-05 21:16:09.87	18.70	18.69	-39.4	-40.4	23.7	0.00e+00	0	31	101	1048576	58	5699
2026-01-05 21:16:13.91	17.74	18.64	-39.4	-40.4	23.7	0.00e+00	0	31	101	1048576	58	5698
2026-01-05 21:16:17.96	16.78	18.58	-39.2	-40.1	23.8	0.00e+00	0	31	101	1048576	58	5534
2026-01-05 21:16:22.00	15.82	18.52	-38.8	-39.7	24.2	0.00e+00	45	31	101	1048576	56	5899
2026-01-05 21:16:26.05	14.87	18.45	-38.9	-39.8	24.0	0.00e+00	0	31	101	1048576	56	5988
2026-01-05 21:16:30.09	13.93	18.37	-39.0	-39.8	24.1	0.00e+00	0	31	101	1048576	56	6019
2026-01-05 21:16:34.13	12.99	18.28	-39.3	-40.2	23.8	0.00e+00	0	31	101	1048576	56	6257
2026-01-05 21:16:38.18	12.05	18.19	-39.6	-40.5	23.7	0.00e+00	58	32	101	1048576	56	6505
2026-01-05 21:16:42.22	11.13	18.08	-40.2	-41.2	23.1	0.00e+00	0	31	101	1048576	56	7048
2026-01-05 21:16:46.27	10.20	17.97	-41.1	-42.1	22.2	0.00e+00	0	31	101	1048576	58	6983
2026-01-05 21:16:50.31	9.29	17.86	-40.9	-41.9	22.5	0.00e+00	75	31	101	1048576	58	6807
2026-01-05 21:16:54.36	8.38	17.73	-40.8	-41.8	22.5	0.00e+00	0	31	101	1048576	58	6767
2026-01-05 21:16:58.40	7.49	17.60	-41.3	-42.4	22.1	0.00e+00	0	31	101	1048576	58	7222
2026-01-05 21:17:02.44	6.60	17.47	-41.0	-42.0	22.5	0.00e+00	0	31	101	1048576	60	6152
2026-01-05 21:17:06.48	5.71	17.32	-40.7	-41.7	22.7	0.00e+00	89	31	101	1048576	60	5932
2026-01-05 21:17:10.53	4.84	17.17	-40.5	-41.5	22.9	0.00e+00	0	31	101	1048576	60	5804
2026-01-05 21:17:14.57	3.97	17.02	-40.1	-41.1	23.1	0.00e+00	0	31	101	1048576	58	6206
2026-01-05 21:17:18.62	3.12	16.86	-39.4	-40.3	23.8	0.00e+00	0	31	101	1048576	58	5670
2026-01-05 21:17:22.66	2.27	16.69	-39.5	-40.4	23.6	0.00e+00	70	31	101	1048576	58	5745
2026-01-05 21:17:26.71	1.43	16.52	-40.6	-41.6	22.7	0.00e+00	0	31	101	1048576	58	6568
2026-01-05 21:17:30.75	0.61	16.35	-41.6	-42.8	21.9	0.00e+00	0	31	101	1048576	60	6705
2026-01-05 21:17:34.79	359.79	16.17	-41.0	-42.1	22.3	0.00e+00	73	32	101	1048576	60	6229
2026-01-05 21:17:38.84	358.98	15.98	-41.6	-42.7	21.4	0.00e+00	0	31	101	1048576	60	6659
2026-01-05 21:17:42.88	358.18	15.79	-41.8	-42.9	21.8	0.00e+00	0	31	101	1048576	60	6835
2026-01-05 21:17:46.93	357.40	15.60	-40.3	-41.3	23.1	0.00e+00	0	32	101	1048576	60	5652
2026-01-05 21:17:50.97	356.62	15.40	-40.0	-40.9	23.2	0.00e+00	92	32	101	1048576	58	6100
2026-01-05 21:17:55.02	355.85	15.20	-40.4	-41.4	22.8	0.00e+00	0	31	101	1048576	58	6463
2026-01-05 21:17:59.06	355.10	14.99	-40.7	-41.7	22.6	0.00e+00	0	32	101	1048576	58	6684
2026-01-05 21:18:03.10	354.35	14.79	-40.2	-41.1	23.2	0.00e+00	25	31	101	1048576	58	6211
2026-01-05 21:18:07.15	353.62	14.57	-41.1	-42.1	22.2	0.00e+00	61	31	101	1048576	58	6965
2026-01-05 21:18:11.19	352.90	14.36	-42.9	-44.2	20.4	0.00e+00	29	32	101	1048576	60	7932
2026-01-05 21:18:15.24	352.18	14.15	-42.7	-44.0	20.7	0.00e+00	0	32	101	1048576	60	7727
2026-01-05 21:18:19.28	351.48	13.93	-42.4	-43.6	20.9	0.00e+00	72	31	101	1048576	60	7415
2026-01-05 21:18:23.32	350.79	13.71	-41.9	-43.1	21.4	0.00e+00	0	32	101	1048576	60	6969
2026-01-05 21:18:27.37	350.11	13.48	-41.6	-42.7	21.8	0.00e+00	0	32	101	1048576	60	6672
2026-01-05 21:18:31.41	349.44	13.26	-42.1	-43.3	21.2	0.00e+00	0	32	101	1048576	60	7159
2026-01-05 21:18:35.46	348.77	13.03	-41.1	-42.1	22.2	0.00e+00	92	32	101	1048576	60	6244
2026-01-05 21:18:39.50	348.12	12.80	-40.7	-41.7	22.5	0.00e+00	0	31	101	1048576	60	5935
2026-01-05 21:18:43.54	347.48	12.57	-41.1	-42.1	22.3	0.00e+00	0	32	101	1048576	60	6215
2026-01-05 21:18:47.59	346.85	12.34	-41.3	-42.5	21.8	0.00e+00	0	31	101	1048576	60	6485
2026-01-05 21:18:51.63	346.23	12.11	-41.1	-42.2	22.1	0.00e+00	80	32	101	1048576	60	6274
2026-01-05 21:18:55.68	345.62	11.88	-40.8	-41.8	22.2	0.00e+00	0	32	101	1048576	60	6017
2026-01-05 21:18:59.73	345.02	11.64	-39.9	-40.9	23.1	0.00e+00	0	32	101	1048576	58	6048
2026-01-05 21:19:03.77	344.43	11.41	-39.3	-40.2	23.7	0.00e+00	64	31	101	1048576	58	5593
2026-01-05 21:19:07.81	343.85	11.17	-39.7	-40.7	23.4	0.00e+00	0	31	101	1048576	58	5910
2026-01-05 21:19:11.86	343.28	10.94	-40.4	-41.4	22.8	0.00e+00	0	31	101	1048576	58	6418
2026-01-05 21:19:15.90	342.72	10.70	-40.3	-41.3	22.8	0.00e+00	0	32	101	1048576	58	6326
2026-01-05 21:19:19.95	342.16	10.46	-39.9	-40.9	23.1	0.00e+00	85	32	101	1048576	58	6037
2026-01-05 21:19:23.99	341.62	10.22	-40.0	-41.0	23.0	0.00e+00	0	32	101	1048576	58	6127
2026-01-05 21:19:28.03	341.09	9.99	-40.4	-41.4	22.8	0.00e+00	0	32	101	1048576	58	6416
2026-01-05 21:19:32.08	340.56	9.75	-41.0	-42.1	22.1	0.00e+00	0	31	101	1048576	58	6976
2026-01-05 21:19:36.12	340.04	9.51	-41.3	-42.4	21.9	0.00e+00	92	31	101	1048576	60	6426
2026-01-05 21:19:40.17	339.53	9.27	-40.5	-41.5	22.3	0.00e+00	0	32	101	1048576	60	5810
2026-01-05 21:19:44.21	339.03	9.04	-40.2	-41.1	22.8	0.00e+00	0	31	101	1048576	58	6231
2026-01-05 21:19:48.26	338.54	8.80	-40.9	-42.0	21.8	0.00e+00	71	31	101	1048576	58	6871
2026-01-05 21:19:52.30	338.06	8.56	-42.1	-43.4	21.1	0.00e+00	0	32	101	1048576	60	7182
2026-01-05 21:19:56.35	337.58	8.32	-41.7	-42.9	21.4	0.00e+00	0	32	101	1048576	60	6784
2026-01-05 21:20:00.39	337.12	8.09	-41.0	-42.1	22.1	0.00e+00	0	32	101	1048576	60	6176
2026-01-05 21:20:04.43	336.66	7.85	-41.2	-42.3	21.8	0.00e+00	92	32	101	1048576	60	6343
2026-01-05 21:20:08.48	336.20	7.62	-41.3	-42.4	21.7	0.00e+00	0	31	101	1048576	60	6451
2026-01-05 21:20:12.52	335.76	7.38	-41.8	-43.0	21.1	0.00e+00	0	31	101	1048576	60	6920
2026-01-05 21:20:16.57	335.32	7.15	-42.1	-43.4	20.7	0.00e+00	0	31	101	1048576	60	7230
2026-01-05 21:20:20.61	334.89	6.91	-41.8	-43.1	21.0	0.00e+00	92	32	101	1048576	60	6931
2026-01-05 21:20:24.65	334.47	6.68	-41.7	-43.0	21.1	0.00e+00	0	32	101	1048576	60	6867
2026-01-05 21:20:28.70	334.05	6.45	-42.0	-43.3	20.6	0.00e+00	0	31	101	1048576	60	7164
2026-01-05 21:20:32.74	333.64	6.21	-42.7	-44.2	19.7	0.00e+00	66	32	101	1048576	60	7926
2026-01-05 21:20:36.79	333.24	5.98	-43.3	-44.9	19.1	0.00e+00	0	31	101	1048576	60	8600
2026-01-05 21:20:40.83	332.84	5.75	-43.1	-44.7	19.2	0.00e+00	0	32	101	1048576	60	8395
2026-01-05 21:20:44.88	332.45	5.52	-42.8	-44.2	19.8	0.00e+00	0	31	101	1048576	60	7914
2026-01-05 21:20:48.92	332.07	5.29	-42.5	-43.9	20.0	0.00e+00	80	31	101	1048576	60	7622
2026-01-05 21:20:52.97	331.69	5.06	-42.7	-44.2	19.7	0.00e+00	0	32	101	1048576	60	7927
2026-01-05 21:20:57.01	331.32	4.84	-42.7	-44.2	19.8	0.00e+00	0	31	101	1048576	60	7871
2026-01-05 21:21:01.05	330.95	4.61	-42.7	-44.2	19.7	0.00e+00	0	31	101	1048576	60	7885
2026-01-05 21:21:05.10	330.59	4.38	-42.9	-44.4	19.6	0.00e+00	92	32	101	1048576	60	8062
2026-01-05 21:21:09.14	330.24	4.16	-42.8	-44.3	19.6	0.00e+00	29	31	101	1048576	60	8014
2026-01-05 21:21:13.18	329.89	3.93	-42.8	-44.3	19.5	0.00e+00	0	32	101	1048576	60	7992
2026-01-05 21:21:17.23	329.55	3.71	-42.8	-44.3	19.3	0.00e+00	5	31	101	1048576	60	8043
2026-01-05 21:21:21.27	329.21	3.49	-43.5	-45.3	18.3	0.00e+00	0	31	101	1048576	60	8985
2026-01-05 21:21:25.32	328.88	3.27	-44.7	-47.0	16.4	0.00e+00	0	31	101	1048576	60	10884
2026-01-05 21:21:29.36	328.55	3.04	-50.3	-65.6	3.6	1.51e+00	0	32	104	1048576	60	92835
2026-01-05 21:21:33.40	328.23	2.82	-51.1	-66.5	3.6	1.51e+00	0	32	104	1048576	60	103022
2026-01-05 21:21:37.45	327.92	2.61	-51.2	-66.6	3.6	1.51e+00	0	32	104	1048576	60	103935
2026-01-05 21:21:41.50	327.60	2.39	-51.0	-66.5	3.6	1.51e+00	0	32	104	1048576	60	103341
2026-01-05 21:21:45.54	327.30	2.17	-51.1	-66.5	3.6	1.51e+00	0	32	104	1048576	60	103070
2026-01-05 21:21:49.58	326.99	1.95	-51.1	-66.5	3.6	1.51e+00	0	32	104	1048576	60	102546
2026-01-05 21:21:53.63	326.70	1.74	-51.1	-66.4	3.6	1.51e+00	0	32	104	1048576	60	102444
2026-01-05 21:21:57.67	326.40	1.52	-51.1	-66.4	3.6	1.51e+00	0	32	104	1048576	60	101973
2026-01-05 21:22:01.72	326.11	1.31	-51.0	-66.4	3.6	1.51e+00	0	32	104	1048576	60	101980
2026-01-05 21:22:05.76	325.83	1.10	-51.1	-66.4	3.6	1.51e+00	0	32	104	1048576	60	102288
2026-01-05 21:22:09.81	325.55	0.88	-51.0	-66.4	3.6	1.51e+00	0	32	104	1048576	60	101786
2026-01-05 21:22:13.85	325.27	0.67	-51.1	-66.4	3.6	1.51e+00	0	32	104	1048576	60	101856
2026-01-05 21:22:17.90	325.00	0.46	-51.0	-66.4	3.6	1.51e+00	0	32	104	1048576	60	102078
2026-01-05 21:22:21.94	324.73	0.25	-51.0	-66.4	3.6	1.51e+00	0	32	104	1048576	60	102219
2026-01-05 21:22:25.99	324.47	0.04	-51.0	-66.4	3.6	1.51e+00	0	32	104	1048576	60	102004

#Closed at: 2026-01-05 21:22:29
#Recorded file [1 MB]: D:/lorett/data/35034_260106_000913.dat