passes_logs/2026/01/05/R4.6S_Anadyr_2ch/R4.6S_Anadyr_2ch__20260105_021607_AQUA_rec.log

#Pass ID: 20260105_021607_AQUA
#Satellite: AQUA
#Configuration: AQUA
#almurnet v.1.7.20251203
#Start time: 2026-01-05 02:16:10

#Version: 2.2.20231116
#Station: R4.6S_Anadyr_2ch
#Location: 177.4865 lon 64.73178 lat
#TLE: 1 27424U 02022A   25351.00450321  .00000925  00000+0  19503-3 0  9992
#TLE: 2 27424  98.4041 311.9529 0001248 113.7180 322.1616 14.61819266256652

#Time	Az	El	Level	Level2	SNR	BER	BlckErr	Temp	State	Recorded	gain1	gain2
2026-01-05 02:16:10.29	165.35	0.15	-51.8	-63.6	3.5	8.45e-01	0	24	0	0	60	74136
2026-01-05 02:16:14.34	165.41	0.40	-52.2	-70.0	3.5	3.02e+01	0	25	104	0	60	163715
2026-01-05 02:16:18.38	165.46	0.65	-52.2	-70.0	3.5	3.02e+01	0	25	104	0	60	163463
2026-01-05 02:16:22.42	165.53	0.91	-52.5	-70.3	3.5	3.02e+01	0	25	104	0	60	169738
2026-01-05 02:16:26.46	165.59	1.17	-51.4	-69.3	3.5	3.02e+01	0	25	104	0	60	151104
2026-01-05 02:16:30.51	165.65	1.43	-51.9	-69.8	3.5	3.02e+01	0	26	104	0	60	159996
2026-01-05 02:16:34.55	165.71	1.69	-52.3	-70.1	3.5	3.02e+01	0	26	104	0	60	165160
2026-01-05 02:16:38.60	165.78	1.96	-52.6	-70.4	3.5	3.02e+01	0	26	104	0	60	172250
2026-01-05 02:16:42.64	165.84	2.23	-52.7	-70.6	3.5	3.02e+01	0	26	104	0	60	175267
2026-01-05 02:16:46.68	165.91	2.50	-52.3	-70.1	3.5	3.02e+01	0	26	104	0	60	165701
2026-01-05 02:16:50.72	165.98	2.77	-53.1	-70.9	3.5	3.02e+01	0	26	104	0	60	181582
2026-01-05 02:16:54.77	166.05	3.05	-53.0	-70.7	3.5	3.02e+01	0	26	104	0	60	178454
2026-01-05 02:16:58.81	166.12	3.33	-52.4	-70.2	3.5	3.02e+01	0	26	104	0	60	168510
2026-01-05 02:17:02.86	166.19	3.61	-51.8	-69.7	3.5	3.02e+01	0	26	104	0	60	157862
2026-01-05 02:17:06.90	166.26	3.90	-51.6	-69.5	3.5	3.02e+01	0	26	104	0	60	154802
2026-01-05 02:17:10.95	166.33	4.19	-49.7	-67.6	3.5	3.02e+01	0	26	104	0	60	124936
2026-01-05 02:17:14.99	166.41	4.49	-50.4	-68.2	3.5	3.02e+01	0	26	104	0	60	133002
2026-01-05 02:17:19.03	166.49	4.78	-50.2	-67.8	3.5	3.02e+01	0	26	104	0	60	126841
2026-01-05 02:17:23.08	166.56	5.09	-50.6	-67.4	3.5	3.02e+01	0	26	104	0	60	121133
2026-01-05 02:17:27.12	166.64	5.39	-50.1	-67.2	3.5	3.02e+01	0	26	104	0	60	119103
2026-01-05 02:17:31.16	166.73	5.70	-50.1	-67.8	3.5	3.02e+01	0	26	104	0	60	126795
2026-01-05 02:17:35.21	166.81	6.02	-50.2	-67.0	3.5	3.02e+01	0	26	104	0	60	116413
2026-01-05 02:17:39.25	166.89	6.33	-50.0	-64.4	4.3	3.02e+01	0	26	104	0	60	86267
2026-01-05 02:17:43.30	166.98	6.66	-50.1	-64.8	3.6	3.02e+01	0	26	104	0	60	90245
2026-01-05 02:17:47.34	167.07	6.98	-47.1	-50.9	16.7	3.02e+01	90	26	0	5242880	60	18266
2026-01-05 02:17:51.38	167.16	7.31	-42.0	-43.7	23.9	3.02e+01	92	26	0	13107200	60	7925
2026-01-05 02:17:55.42	167.25	7.65	-42.3	-44.0	23.4	3.02e+01	91	26	0	20447232	60	8261
2026-01-05 02:17:59.47	167.34	7.99	-50.2	-59.2	12.8	3.02e+01	91	26	104	27262976	60	47379
2026-01-05 02:18:03.51	167.44	8.34	-43.7	-45.8	21.7	3.02e+01	92	26	0	33554432	60	10097
2026-01-05 02:18:07.56	167.53	8.69	-42.5	-44.3	23.9	3.02e+01	92	26	0	40894464	60	8503
2026-01-05 02:18:11.60	167.63	9.05	-41.1	-42.7	24.9	3.02e+01	92	26	0	48758784	60	7082
2026-01-05 02:18:15.64	167.74	9.41	-40.3	-41.8	25.7	3.02e+01	92	26	0	56098816	60	6384
2026-01-05 02:18:19.69	167.84	9.78	-39.9	-41.3	26.5	3.02e+01	92	26	0	63963136	60	6004
2026-01-05 02:18:23.73	167.95	10.15	-40.2	-41.7	26.1	3.02e+01	92	26	0	71303168	60	6310
2026-01-05 02:18:27.78	168.06	10.53	-39.2	-40.5	26.9	3.02e+01	92	26	0	79167488	58	6171
2026-01-05 02:18:31.82	168.17	10.92	-38.9	-40.2	27.3	3.02e+01	92	26	0	86507520	58	5988
2026-01-05 02:18:35.87	168.29	11.32	-38.4	-39.7	27.8	3.02e+01	92	26	0	94371840	56	6284
2026-01-05 02:18:39.91	168.41	11.72	-38.5	-39.8	27.8	3.02e+01	92	26	0	101711872	56	6401
2026-01-05 02:18:43.96	168.53	12.13	-38.4	-39.7	28.0	3.02e+01	90	26	0	109051904	56	6322
2026-01-05 02:18:48.00	168.65	12.55	-38.2	-39.5	28.2	3.02e+01	88	26	0	116916224	56	6139
2026-01-05 02:18:52.04	168.78	12.97	-38.3	-39.6	28.1	3.02e+01	91	26	0	124256256	56	6228
2026-01-05 02:18:56.09	168.92	13.41	-38.8	-40.1	28.1	3.02e+01	90	27	0	132120576	56	6621
2026-01-05 02:19:00.13	169.05	13.85	-39.5	-40.7	28.2	3.02e+01	90	26	0	139460608	58	6324
2026-01-05 02:19:04.18	169.19	14.30	-38.9	-40.2	27.9	3.02e+01	92	27	0	147324928	58	5935
2026-01-05 02:19:08.22	169.34	14.76	-38.8	-40.1	28.2	3.02e+01	92	26	0	154664960	58	5870
2026-01-05 02:19:12.26	169.49	15.23	-37.9	-39.2	28.6	3.02e+01	92	27	0	162529280	56	5959
2026-01-05 02:19:16.31	169.64	15.71	-37.7	-38.9	28.8	3.02e+01	92	27	0	169869312	56	5787
2026-01-05 02:19:20.35	169.80	16.20	-37.8	-39.1	28.5	3.02e+01	92	27	0	177733632	56	5890
2026-01-05 02:19:24.40	169.96	16.70	-37.5	-38.7	29.0	3.02e+01	90	27	0	185073664	56	5615
2026-01-05 02:19:28.44	170.13	17.22	-37.6	-38.8	29.1	3.02e+01	92	27	0	192937984	54	6367
2026-01-05 02:19:32.49	170.30	17.74	-37.2	-38.4	29.2	3.02e+01	89	27	0	200278016	54	6105
2026-01-05 02:19:36.53	170.48	18.28	-37.1	-38.4	29.2	3.02e+01	90	27	0	208142336	54	6068
2026-01-05 02:19:40.57	170.67	18.83	-37.3	-38.5	29.2	3.02e+01	90	27	0	215482368	54	6183
2026-01-05 02:19:44.62	170.87	19.39	-37.2	-38.4	29.3	3.02e+01	89	27	0	223346688	54	6071
2026-01-05 02:19:48.66	171.07	19.97	-37.2	-38.5	29.1	3.02e+01	92	26	0	230686720	54	6135
2026-01-05 02:19:52.71	171.28	20.56	-36.8	-37.9	29.5	3.02e+01	92	27	0	238026752	54	5790
2026-01-05 02:19:56.75	171.49	21.17	-36.7	-37.9	29.6	3.02e+01	92	27	0	245891072	54	5746
2026-01-05 02:20:00.79	171.72	21.80	-36.8	-38.0	29.5	3.02e+01	91	27	0	253231104	54	5845
2026-01-05 02:20:04.84	171.95	22.44	-36.9	-38.1	29.5	3.02e+01	92	27	0	261095424	54	5886
2026-01-05 02:20:08.89	172.20	23.10	-36.8	-38.0	29.6	3.02e+01	91	27	0	268435456	54	5844
2026-01-05 02:20:12.93	172.45	23.77	-36.7	-37.9	29.7	3.02e+01	92	27	0	276299776	54	5765
2026-01-05 02:20:16.97	172.72	24.47	-36.9	-38.1	29.6	3.02e+01	91	27	0	283639808	54	5864
2026-01-05 02:20:21.02	173.00	25.19	-37.0	-38.1	29.6	3.02e+01	92	27	0	291504128	54	5925
2026-01-05 02:20:25.06	173.29	25.92	-36.9	-38.0	29.7	3.02e+01	91	27	0	298844160	54	5858
2026-01-05 02:20:29.11	173.59	26.68	-37.0	-38.1	29.7	3.02e+01	91	27	0	306708480	54	5925
2026-01-05 02:20:33.15	173.91	27.46	-36.8	-38.0	29.7	3.02e+01	92	27	0	314048512	54	5806
2026-01-05 02:20:37.20	174.25	28.27	-36.9	-38.1	29.6	3.02e+01	92	27	0	321388544	54	5891
2026-01-05 02:20:41.24	174.60	29.10	-36.8	-38.0	29.7	3.02e+01	92	27	0	329252864	54	5820
2026-01-05 02:20:45.28	174.97	29.96	-36.9	-38.1	29.7	3.02e+01	92	27	0	336592896	54	5872
2026-01-05 02:20:49.33	175.36	30.84	-37.0	-38.2	29.5	3.02e+01	92	27	0	344457216	54	5946
2026-01-05 02:20:53.37	175.78	31.75	-37.4	-38.6	29.2	3.02e+01	92	27	0	351797248	54	6214
2026-01-05 02:20:57.42	176.22	32.70	-37.2	-38.4	29.5	3.02e+01	91	27	0	359661568	54	6079
2026-01-05 02:21:01.46	176.68	33.67	-37.1	-38.3	29.5	3.02e+01	92	27	0	367001600	54	6012
2026-01-05 02:21:05.50	177.17	34.67	-37.1	-38.3	29.4	3.02e+01	91	27	0	374865920	54	6041
2026-01-05 02:21:09.55	177.70	35.71	-37.2	-38.5	29.4	3.02e+01	92	27	0	382205952	54	6139
2026-01-05 02:21:13.60	178.26	36.78	-37.2	-38.4	29.5	3.02e+01	92	26	0	390070272	54	6096
2026-01-05 02:21:17.64	178.86	37.88	-37.7	-47.9	3.6	3.02e+01	0	27	104	391118848	54	18128
2026-01-05 02:21:21.68	179.50	39.02	-40.0	-50.2	3.6	3.02e+01	0	27	104	391118848	60	16708
2026-01-05 02:21:25.72	180.19	40.20	-40.5	-50.8	3.4	3.02e+01	0	27	104	391118848	60	18094
2026-01-05 02:21:29.77	180.93	41.42	-44.5	-55.1	3.4	3.02e+01	0	27	104	391118848	60	29464
2026-01-05 02:21:33.81	181.73	42.68	-43.4	-54.1	3.5	3.02e+01	0	27	104	391118848	60	26206
2026-01-05 02:21:37.86	182.59	43.97	-40.1	-50.5	3.5	3.02e+01	0	27	104	391118848	56	21882
2026-01-05 02:21:41.90	183.53	45.31	-40.5	-50.9	3.5	3.02e+01	0	27	104	391118848	60	18196
2026-01-05 02:21:45.94	184.55	46.68	-43.8	-54.6	3.5	3.02e+01	0	27	104	391118848	60	27793
2026-01-05 02:21:49.99	185.67	48.09	-41.8	-52.3	3.5	3.02e+01	0	27	104	391118848	60	21360
2026-01-05 02:21:54.03	186.89	49.54	-48.0	-59.8	3.5	3.02e+01	0	27	104	391118848	60	50759
2026-01-05 02:21:58.08	188.24	51.02	-50.5	-65.1	3.5	3.02e+01	0	27	104	391118848	60	93246
2026-01-05 02:22:02.12	189.72	52.54	-45.1	-56.1	3.5	3.02e+01	0	27	104	391118848	60	33140
2026-01-05 02:22:06.17	191.38	54.08	-51.4	-68.9	3.6	3.02e+01	0	27	104	391118848	60	144278
2026-01-05 02:22:10.21	193.21	55.65	-41.8	-52.2	3.5	3.02e+01	0	27	104	391118848	60	21141
2026-01-05 02:22:14.25	195.27	57.23	-50.3	-64.6	3.5	3.02e+01	0	27	104	391118848	60	87666
2026-01-05 02:22:18.30	197.58	58.82	-41.2	-51.6	3.5	3.02e+01	0	27	104	391118848	60	19806
2026-01-05 02:22:22.34	200.18	60.41	-42.9	-53.5	3.5	3.02e+01	0	27	104	391118848	60	24547
2026-01-05 02:22:26.38	203.13	61.97	-39.5	-49.7	3.5	3.02e+01	0	27	104	391118848	58	17825
2026-01-05 02:22:30.42	206.47	63.50	-40.3	-50.5	3.5	3.02e+01	0	27	104	391118848	60	17475
2026-01-05 02:22:34.46	210.26	64.98	-46.6	-57.9	3.5	3.02e+01	0	27	104	391118848	60	40857
2026-01-05 02:22:38.50	214.57	66.37	-39.5	-49.8	3.5	3.02e+01	0	27	104	391118848	60	16071
2026-01-05 02:22:42.55	219.46	67.64	-40.2	-50.5	3.5	3.02e+01	0	27	104	391118848	60	17398
2026-01-05 02:22:46.59	224.94	68.77	-39.3	-49.5	3.5	3.02e+01	0	27	104	391118848	58	17337
2026-01-05 02:22:50.63	231.03	69.71	-45.8	-56.8	3.5	3.02e+01	0	27	104	391118848	60	36112
2026-01-05 02:22:54.68	237.70	70.43	-38.4	-48.6	3.5	3.02e+01	0	27	104	391118848	56	17600
2026-01-05 02:22:58.72	244.78	70.88	-40.2	-50.4	3.5	3.02e+01	0	27	104	391118848	56	21538
2026-01-05 02:23:02.77	252.13	71.05	-42.2	-52.7	3.5	3.02e+01	0	27	104	391118848	60	22301
2026-01-05 02:23:06.81	259.48	70.93	-49.2	-62.6	3.5	3.02e+01	0	27	104	391118848	60	70341
2026-01-05 02:23:10.86	266.64	70.52	-41.1	-51.6	3.5	3.02e+01	0	27	104	391118848	60	19656
2026-01-05 02:23:14.90	273.37	69.85	-43.9	-54.7	3.5	3.02e+01	0	27	104	391118848	60	28049
2026-01-05 02:23:18.94	279.55	68.95	-50.1	-63.0	3.4	3.02e+01	0	27	104	391118848	60	72967
2026-01-05 02:23:22.98	285.14	67.85	-45.9	-57.1	3.5	3.02e+01	0	27	104	391118848	60	37353
2026-01-05 02:23:27.03	290.13	66.60	-51.8	-69.4	3.6	3.02e+01	0	27	104	391118848	60	153292
2026-01-05 02:23:31.07	294.52	65.23	-46.4	-57.9	3.5	3.02e+01	0	27	104	391118848	60	40566
2026-01-05 02:23:35.11	298.40	63.77	-51.7	-69.6	3.5	3.02e+01	0	27	104	391118848	60	156186
2026-01-05 02:23:39.16	301.82	62.25	-45.3	-56.5	3.5	3.02e+01	0	27	104	391118848	60	34794
2026-01-05 02:23:43.20	304.82	60.70	-50.5	-64.3	3.5	3.02e+01	0	27	104	391118848	60	85543
2026-01-05 02:23:47.25	307.48	59.11	-47.2	-58.7	3.5	3.02e+01	0	27	104	391118848	60	44863
2026-01-05 02:23:51.29	309.83	57.53	-44.9	-55.4	3.6	3.02e+01	0	27	104	391118848	60	30432
2026-01-05 02:23:55.33	311.93	55.95	-50.7	-64.6	3.5	3.02e+01	0	27	104	391118848	60	88394
2026-01-05 02:23:59.36	313.79	54.39	-47.8	-59.6	3.5	3.02e+01	0	27	104	391118848	60	49793
2026-01-05 02:24:03.39	315.47	52.86	-51.1	-66.9	3.6	3.02e+01	0	27	104	391118848	60	115248
2026-01-05 02:24:07.43	316.98	51.34	-42.8	-53.2	3.5	3.02e+01	0	27	104	391118848	60	23667
2026-01-05 02:24:11.47	318.35	49.86	-52.4	-70.0	3.5	3.02e+01	0	27	104	391118848	60	164794
2026-01-05 02:24:15.52	319.59	48.41	-43.5	-53.8	3.5	3.02e+01	0	27	104	391118848	60	25440
2026-01-05 02:24:19.56	320.73	46.99	-42.2	-52.5	3.5	3.02e+01	0	27	104	391118848	60	21984
2026-01-05 02:24:23.60	321.76	45.62	-42.3	-52.4	3.5	3.02e+01	0	27	104	391118848	60	21608
2026-01-05 02:24:27.65	322.72	44.28	-40.7	-51.0	3.5	3.02e+01	0	27	104	391118848	60	18420
2026-01-05 02:24:31.69	323.59	42.99	-42.0	-52.5	3.5	3.02e+01	0	27	104	391118848	60	21810
2026-01-05 02:24:35.73	324.40	41.73	-48.9	-61.1	3.5	3.02e+01	0	27	104	391118848	60	59024
2026-01-05 02:24:39.78	325.15	40.51	-40.2	-50.8	3.5	3.02e+01	0	27	104	391118848	60	17978
2026-01-05 02:24:43.82	325.85	39.33	-38.0	-48.2	3.5	3.02e+01	0	27	104	391118848	56	16786
2026-01-05 02:24:47.87	326.50	38.18	-50.7	-66.1	3.5	3.02e+01	0	27	104	391118848	60	104709
2026-01-05 02:24:51.91	327.11	37.07	-41.2	-51.6	3.5	3.02e+01	0	26	104	391118848	60	19704
2026-01-05 02:24:55.95	327.67	36.00	-49.9	-64.8	3.5	3.02e+01	0	27	104	391118848	60	90418
2026-01-05 02:24:59.99	328.21	34.96	-39.7	-50.1	3.5	3.02e+01	0	27	104	391118848	60	16512
2026-01-05 02:25:04.04	328.71	33.96	-42.1	-52.7	3.5	3.02e+01	0	27	104	391118848	60	22327
2026-01-05 02:25:08.08	329.18	32.98	-39.7	-49.8	3.5	3.02e+01	0	27	104	391118848	60	16116
2026-01-05 02:25:12.13	329.62	32.04	-44.4	-54.9	3.5	3.02e+01	0	26	104	391118848	60	28784
2026-01-05 02:25:16.17	330.04	31.12	-43.4	-54.0	3.5	3.02e+01	0	27	104	391118848	60	26162
2026-01-05 02:25:20.21	330.44	30.24	-40.5	-50.7	3.6	3.02e+01	0	27	104	391118848	60	17890
2026-01-05 02:25:24.25	330.81	29.38	-50.1	-63.8	3.5	3.02e+01	0	26	104	391118848	60	80685
2026-01-05 02:25:28.30	331.17	28.55	-42.3	-53.0	3.5	3.02e+01	0	27	104	391118848	60	23274
2026-01-05 02:25:32.34	331.51	27.74	-50.6	-65.7	3.5	3.02e+01	0	27	104	391118848	60	99663
2026-01-05 02:25:36.38	331.84	26.96	-39.2	-49.4	3.5	3.02e+01	0	27	104	391118848	58	17110
2026-01-05 02:25:40.43	332.14	26.20	-40.5	-51.0	3.5	3.02e+01	0	27	104	391118848	60	18420
2026-01-05 02:25:44.47	332.44	25.46	-47.3	-58.7	3.5	3.02e+01	0	27	104	391118848	60	44681
2026-01-05 02:25:48.52	332.72	24.74	-46.6	-57.7	3.5	3.02e+01	0	26	104	391118848	60	39747
2026-01-05 02:25:52.56	332.99	24.04	-41.6	-52.2	3.5	3.02e+01	0	27	104	391118848	60	21255
2026-01-05 02:25:56.61	333.25	23.36	-37.2	-47.4	3.5	3.02e+01	0	26	104	391118848	54	17252
2026-01-05 02:26:00.65	333.50	22.70	-38.2	-48.3	3.5	3.02e+01	0	26	104	391118848	58	15072
2026-01-05 02:26:04.69	333.73	22.06	-38.3	-48.5	3.5	3.02e+01	0	27	104	391118848	56	17341
2026-01-05 02:26:08.74	333.96	21.44	-51.0	-66.9	3.5	3.02e+01	0	27	104	391118848	60	114299
2026-01-05 02:26:12.78	334.18	20.83	-40.4	-50.8	3.5	3.02e+01	0	27	104	391118848	60	17953
2026-01-05 02:26:16.82	334.40	20.23	-50.9	-66.0	3.5	3.02e+01	0	27	104	391118848	60	103900
2026-01-05 02:26:20.87	334.60	19.65	-39.8	-50.0	3.5	3.02e+01	0	27	104	391118848	60	16378
2026-01-05 02:26:24.91	334.80	19.09	-44.7	-55.5	3.5	3.02e+01	0	26	104	391118848	60	31015
2026-01-05 02:26:28.95	334.99	18.54	-38.9	-49.2	3.5	3.02e+01	0	27	104	391118848	60	15033
2026-01-05 02:26:32.99	335.17	18.00	-37.4	-47.7	3.5	3.02e+01	0	26	104	391118848	56	15868
2026-01-05 02:26:37.03	335.35	17.47	-46.0	-57.1	3.5	3.02e+01	0	26	104	391118848	60	37332
2026-01-05 02:26:41.08	335.52	16.96	-46.4	-57.8	3.5	3.02e+01	0	27	104	391118848	60	40114
2026-01-05 02:26:45.12	335.69	16.46	-51.9	-69.3	3.5	3.02e+01	0	27	104	391118848	60	151964
2026-01-05 02:26:49.17	335.85	15.97	-39.2	-49.4	3.5	3.02e+01	0	26	104	391118848	60	15266
2026-01-05 02:26:53.21	336.00	15.49	-51.2	-68.7	3.5	3.02e+01	0	26	104	391118848	60	140618
2026-01-05 02:26:57.25	336.16	15.01	-38.2	-48.4	3.5	3.02e+01	0	27	104	391118848	56	17148
2026-01-05 02:27:01.29	336.30	14.55	-40.1	-50.4	3.6	3.02e+01	0	26	104	391118848	60	17133
2026-01-05 02:27:05.34	336.45	14.10	-40.1	-50.5	3.5	3.02e+01	0	27	104	391118848	60	17380
2026-01-05 02:27:09.38	336.59	13.66	-39.2	-49.4	3.5	3.02e+01	0	27	104	391118848	58	17249
2026-01-05 02:27:13.42	336.72	13.23	-43.8	-54.6	3.5	3.02e+01	0	27	104	391118848	60	27760
2026-01-05 02:27:17.47	336.85	12.80	-39.7	-50.0	3.5	3.02e+01	0	27	104	391118848	60	16364
2026-01-05 02:27:21.51	336.98	12.38	-42.1	-52.5	3.5	3.02e+01	0	27	104	391118848	60	21850
2026-01-05 02:27:25.55	337.11	11.97	-38.4	-48.7	3.5	3.02e+01	0	27	104	391118848	56	17702
2026-01-05 02:27:29.60	337.23	11.57	-48.3	-61.0	3.6	3.02e+01	0	27	104	391118848	60	58315
2026-01-05 02:27:33.64	337.35	11.17	-40.1	-50.5	3.5	3.02e+01	0	27	104	391118848	60	17328
2026-01-05 02:27:37.68	337.46	10.79	-41.6	-52.1	3.6	3.02e+01	0	26	104	391118848	58	23420
2026-01-05 02:27:41.73	337.58	10.40	-39.0	-49.4	3.5	3.02e+01	0	26	104	391118848	58	17247
2026-01-05 02:27:45.77	337.69	10.03	-39.4	-49.8	3.5	3.02e+01	0	27	104	391118848	56	20249
2026-01-05 02:27:49.82	337.80	9.66	-41.4	-42.8	25.9	3.02e+01	90	26	0	394264576	60	7193
2026-01-05 02:27:53.86	337.90	9.30	-39.7	-41.0	27.3	3.02e+01	91	27	0	401604608	60	5828
2026-01-05 02:27:57.90	338.01	8.94	-40.1	-41.5	27.0	3.02e+01	92	26	0	409468928	60	6201
2026-01-05 02:28:01.95	338.11	8.59	-39.0	-40.4	27.7	3.02e+01	92	27	0	416808960	56	6835
2026-01-05 02:28:05.99	338.21	8.24	-38.4	-39.7	28.4	3.02e+01	92	26	0	424673280	56	6288
2026-01-05 02:28:10.04	338.30	7.90	-37.7	-38.9	28.8	3.02e+01	92	27	0	432013312	54	6478
2026-01-05 02:28:14.09	338.40	7.56	-40.0	-41.4	26.8	3.02e+01	92	26	0	439353344	58	6883
2026-01-05 02:28:18.13	338.49	7.23	-38.9	-40.3	27.8	3.02e+01	92	26	0	447217664	56	6734
2026-01-05 02:28:22.17	338.58	6.90	-38.2	-39.4	28.1	3.02e+01	92	26	0	454557696	56	6133
2026-01-05 02:28:26.22	338.67	6.58	-38.5	-39.8	28.7	3.02e+01	92	26	0	462422016	56	6374
2026-01-05 02:28:30.26	338.76	6.26	-38.6	-39.9	28.0	3.02e+01	91	27	0	469762048	56	6457
2026-01-05 02:28:34.30	338.85	5.95	-38.1	-39.4	28.5	3.02e+01	92	26	0	477626368	56	6104
2026-01-05 02:28:38.35	338.93	5.64	-37.9	-39.1	28.7	3.02e+01	92	26	0	484966400	56	5919
2026-01-05 02:28:42.39	339.01	5.33	-38.3	-39.6	28.5	3.02e+01	57	26	0	492830720	56	6227
2026-01-05 02:28:46.44	339.10	5.03	-37.6	-38.8	28.7	3.02e+01	55	26	0	500170752	56	5706
2026-01-05 02:28:50.48	339.18	4.73	-38.2	-39.5	28.2	3.02e+01	59	26	0	508035072	56	6160
2026-01-05 02:28:54.53	339.26	4.44	-37.9	-39.1	28.5	3.02e+01	53	26	0	515375104	56	5917
2026-01-05 02:28:58.57	339.33	4.15	-38.4	-39.6	27.9	3.02e+01	61	26	0	523239424	56	6270
2026-01-05 02:29:02.61	339.41	3.86	-38.4	-39.7	27.8	3.02e+01	45	26	0	530579456	56	6321
2026-01-05 02:29:06.66	339.48	3.58	-38.3	-39.6	28.0	3.02e+01	57	26	0	538443776	56	6253
2026-01-05 02:29:10.70	339.56	3.30	-39.2	-40.6	27.6	3.02e+01	49	26	0	545783808	56	6963
2026-01-05 02:29:14.74	339.63	3.02	-39.2	-40.5	27.0	3.02e+01	56	26	0	553123840	58	6166
2026-01-05 02:29:18.79	339.70	2.74	-38.6	-39.9	27.4	3.02e+01	57	26	0	560988160	56	6495
2026-01-05 02:29:22.84	339.77	2.47	-38.7	-40.0	27.2	3.02e+01	56	26	0	568328192	56	6549
2026-01-05 02:29:26.88	339.84	2.20	-39.2	-40.5	26.7	3.02e+01	59	26	0	576192512	56	6948
2026-01-05 02:29:30.92	339.91	1.94	-39.7	-41.1	25.7	3.02e+01	58	26	0	583532544	58	6631
2026-01-05 02:29:34.97	339.98	1.67	-40.9	-42.6	23.3	3.02e+01	59	26	0	591396864	60	7016
2026-01-05 02:29:39.01	340.05	1.41	-42.7	-45.2	20.3	3.02e+01	57	26	0	598736896	60	9403
2026-01-05 02:29:43.06	340.11	1.15	-44.6	-48.5	16.2	3.02e+01	58	26	0	606601216	60	13815
2026-01-05 02:29:47.10	340.18	0.90	-45.9	-52.8	11.1	3.02e+01	59	27	0	613941248	60	22724
2026-01-05 02:29:51.15	340.24	0.65	-46.4	-57.3	5.6	3.02e+01	92	27	0	621805568	60	37860
2026-01-05 02:29:55.19	340.30	0.39	-46.7	-62.5	3.5	3.02e+01	0	26	104	621805568	60	69228
2026-01-05 02:29:59.23	340.37	0.15	-46.7	-64.1	3.5	3.02e+01	0	26	104	621805568	60	83180

#Closed at: 2026-01-05 02:30:02
#Recorded file [621 MB]: D:/lorett/data/35034_260105_051610.dat