passes_logs/2026/01/05/R4.6S_Anadyr_2ch/R4.6S_Anadyr_2ch__20260105_203938_FENGYUN_3E_rec.log

#Pass ID: 20260105_203938_FENGYUN 3E
#Satellite: FENGYUN 3E
#Configuration: FENGYUN 3E
#almurnet v.1.7.20251203
#Start time: 2026-01-05 20:39:39

#Version: 2.2.20231116
#Station: R4.6S_Anadyr_2ch
#Location: 177.4865 lon 64.73178 lat
#TLE: 1 49008U 21062A   25350.97288215  .00000176  00000+0  10353-3 0  9997
#TLE: 2 49008  98.7477 351.4440 0000638 234.3856 125.7261 14.19881381230726

#Time	Az	El	Level	Level2	SNR	BER	BlckErr	Temp	State	Recorded	gain1	gain2
2026-01-05 20:39:39.06	25.80	0.05	-51.1	-66.1	3.6	1.51e+00	0	29	0	0	60	98871
2026-01-05 20:39:43.10	25.64	0.28	-50.8	-62.2	3.6	8.46e-01	0	30	104	0	60	63662
2026-01-05 20:39:47.15	25.48	0.52	-50.9	-62.3	3.6	8.45e-01	0	30	104	0	60	64491
2026-01-05 20:39:51.19	25.32	0.75	-50.8	-62.3	3.6	8.46e-01	0	31	104	0	60	64618
2026-01-05 20:39:55.24	25.16	0.99	-50.5	-62.0	3.6	8.45e-01	0	30	104	0	60	62004
2026-01-05 20:39:59.28	24.99	1.22	-49.6	-61.0	3.6	8.45e-01	0	31	104	0	60	55626
2026-01-05 20:40:03.33	24.82	1.46	-49.4	-60.8	3.6	8.46e-01	0	31	104	0	60	54345
2026-01-05 20:40:07.37	24.65	1.71	-49.4	-60.8	3.6	8.47e-01	0	31	104	0	60	53814
2026-01-05 20:40:11.42	24.47	1.95	-49.3	-60.8	3.6	8.46e-01	0	31	104	0	60	53874
2026-01-05 20:40:15.46	24.29	2.19	-49.3	-60.6	3.6	8.44e-01	0	31	104	0	60	52647
2026-01-05 20:40:19.51	24.11	2.44	-49.3	-60.4	3.6	8.45e-01	0	31	104	0	60	51753
2026-01-05 20:40:23.55	23.92	2.69	-49.3	-60.8	3.6	8.45e-01	0	31	104	0	60	53919
2026-01-05 20:40:27.60	23.73	2.94	-49.3	-60.6	3.6	8.44e-01	0	31	104	0	60	52967
2026-01-05 20:40:31.64	23.54	3.19	-49.2	-59.5	3.6	8.45e-01	0	31	104	0	60	46406
2026-01-05 20:40:35.69	23.34	3.44	-49.0	-58.2	3.8	8.45e-01	0	31	104	0	60	40290
2026-01-05 20:40:39.73	23.14	3.70	-46.5	-49.2	10.1	1.17e-02	0	31	102	1048576	60	14303
2026-01-05 20:40:43.77	22.94	3.96	-47.9	-52.9	4.4	8.16e-01	0	31	104	1048576	60	21897
2026-01-05 20:40:47.82	22.73	4.22	-37.6	-38.2	21.6	0.00e+00	0	31	0	1048576	54	5676
2026-01-05 20:40:51.86	22.52	4.48	-37.6	-38.2	21.5	0.00e+00	0	31	0	1048576	54	5669
2026-01-05 20:40:55.91	22.30	4.75	-36.9	-37.5	22.4	0.00e+00	0	31	101	1048576	52	5857
2026-01-05 20:40:59.95	22.08	5.01	-36.8	-37.4	22.6	0.00e+00	0	31	101	1048576	52	5783
2026-01-05 20:41:04.00	21.85	5.28	-36.8	-37.4	22.6	0.00e+00	0	31	101	1048576	52	5797
2026-01-05 20:41:08.04	21.62	5.55	-37.1	-37.7	22.2	0.00e+00	0	31	101	1048576	52	6016
2026-01-05 20:41:12.09	21.39	5.83	-36.8	-37.4	22.7	0.00e+00	0	31	101	1048576	52	5775
2026-01-05 20:41:16.13	21.15	6.10	-36.5	-37.1	22.9	0.00e+00	0	31	101	1048576	52	5627
2026-01-05 20:41:20.18	20.90	6.38	-35.9	-36.5	23.4	0.00e+00	0	31	101	1048576	50	5840
2026-01-05 20:41:24.22	20.66	6.66	-36.6	-37.2	23.0	0.00e+00	0	31	101	1048576	50	6333
2026-01-05 20:41:28.27	20.40	6.95	-36.4	-37.0	23.0	0.00e+00	0	31	101	1048576	50	6220
2026-01-05 20:41:32.32	20.14	7.23	-36.2	-36.8	23.4	0.00e+00	0	31	101	1048576	50	6067
2026-01-05 20:41:36.36	19.88	7.52	-36.2	-36.8	23.3	0.00e+00	0	31	101	1048576	50	6090
2026-01-05 20:41:40.40	19.61	7.81	-36.0	-36.6	23.6	0.00e+00	0	31	101	1048576	50	5916
2026-01-05 20:41:44.45	19.33	8.11	-35.9	-36.5	23.7	0.00e+00	0	31	101	1048576	50	5858
2026-01-05 20:41:48.50	19.05	8.40	-35.8	-36.4	23.8	0.00e+00	0	31	101	1048576	50	5797
2026-01-05 20:41:52.54	18.76	8.70	-35.7	-36.3	23.9	0.00e+00	0	31	101	1048576	50	5731
2026-01-05 20:41:56.58	18.46	9.01	-35.6	-36.2	24.1	0.00e+00	0	31	101	1048576	50	5658
2026-01-05 20:42:00.63	18.16	9.31	-35.5	-36.1	24.2	0.00e+00	0	32	101	1048576	50	5570
2026-01-05 20:42:04.67	17.85	9.62	-35.4	-35.9	24.4	0.00e+00	0	31	101	1048576	50	5471
2026-01-05 20:42:08.72	17.54	9.93	-35.4	-35.9	24.3	0.00e+00	0	31	101	1048576	50	5475
2026-01-05 20:42:12.76	17.21	10.25	-35.3	-35.8	24.5	0.00e+00	0	31	101	1048576	48	6084
2026-01-05 20:42:16.80	16.88	10.56	-35.4	-35.9	24.5	0.00e+00	0	31	101	1048576	48	6140
2026-01-05 20:42:20.84	16.55	10.88	-35.1	-35.6	24.8	0.00e+00	0	32	101	1048576	48	5923
2026-01-05 20:42:24.89	16.20	11.21	-34.9	-35.5	24.8	0.00e+00	0	32	101	1048576	48	5836
2026-01-05 20:42:28.93	15.85	11.53	-34.8	-35.4	24.8	0.00e+00	0	32	101	1048576	48	5766
2026-01-05 20:42:32.97	15.49	11.86	-34.5	-35.0	25.2	0.00e+00	0	32	101	1048576	48	5539
2026-01-05 20:42:37.02	15.11	12.20	-34.7	-35.2	25.1	0.00e+00	0	32	101	1048576	48	5646
2026-01-05 20:42:41.06	14.74	12.54	-34.8	-35.3	25.2	0.00e+00	0	32	101	1048576	48	5747
2026-01-05 20:42:45.11	14.35	12.88	-34.4	-34.9	25.4	0.00e+00	0	32	101	1048576	48	5464
2026-01-05 20:42:49.15	13.95	13.22	-34.6	-35.1	25.3	0.00e+00	0	32	101	1048576	48	5595
2026-01-05 20:42:53.20	13.54	13.57	-34.6	-35.1	25.2	0.00e+00	0	31	101	1048576	48	5617
2026-01-05 20:42:57.24	13.12	13.92	-34.0	-34.5	25.9	0.00e+00	0	32	101	1048576	46	5868
2026-01-05 20:43:01.28	12.69	14.27	-34.0	-34.5	25.8	0.00e+00	0	32	101	1048576	46	5882
2026-01-05 20:43:05.33	12.26	14.63	-34.0	-34.5	25.8	0.00e+00	0	32	101	1048576	46	5868
2026-01-05 20:43:09.37	11.81	14.99	-33.9	-34.5	25.8	0.00e+00	0	32	101	1048576	46	5829
2026-01-05 20:43:13.42	11.34	15.36	-34.1	-34.6	25.8	0.00e+00	0	32	101	1048576	46	5917
2026-01-05 20:43:17.46	10.87	15.73	-33.9	-34.4	26.0	0.00e+00	0	32	101	1048576	46	5795
2026-01-05 20:43:21.51	10.38	16.10	-33.7	-34.2	26.1	0.00e+00	0	32	101	1048576	46	5638
2026-01-05 20:43:25.56	9.88	16.48	-33.6	-34.1	26.2	0.00e+00	0	32	101	1048576	46	5581
2026-01-05 20:43:29.60	9.37	16.85	-33.5	-34.0	26.2	0.00e+00	0	32	101	1048576	46	5530
2026-01-05 20:43:33.65	8.85	17.24	-33.3	-33.8	26.5	0.00e+00	0	32	101	1048576	46	5378
2026-01-05 20:43:37.69	8.31	17.62	-33.2	-33.7	26.5	0.00e+00	0	32	101	1048576	44	6010
2026-01-05 20:43:41.74	7.76	18.01	-33.0	-33.5	26.7	0.00e+00	0	32	101	1048576	44	5879
2026-01-05 20:43:45.78	7.19	18.41	-32.9	-33.4	26.8	0.00e+00	0	32	101	1048576	44	5794
2026-01-05 20:43:49.82	6.61	18.80	-32.7	-33.2	27.0	0.00e+00	0	32	101	1048576	44	5642
2026-01-05 20:43:53.87	6.01	19.20	-32.6	-33.0	27.1	0.00e+00	0	32	101	1048576	44	5562
2026-01-05 20:43:57.91	5.39	19.60	-32.3	-32.8	27.3	0.00e+00	0	32	101	1048576	44	5397
2026-01-05 20:44:01.96	4.76	20.01	-32.3	-32.8	27.3	0.00e+00	0	32	101	1048576	44	5397
2026-01-05 20:44:06.00	4.11	20.42	-32.7	-33.2	27.1	0.00e+00	0	32	101	1048576	44	5666
2026-01-05 20:44:10.05	3.44	20.83	-32.7	-33.1	27.1	0.00e+00	0	32	101	1048576	44	5625
2026-01-05 20:44:14.09	2.76	21.24	-32.5	-33.0	27.2	0.00e+00	0	32	101	1048576	44	5505
2026-01-05 20:44:18.13	2.05	21.66	-32.4	-32.8	27.4	0.00e+00	0	32	101	1048576	44	5426
2026-01-05 20:44:22.18	1.33	22.08	-32.6	-33.0	27.2	0.00e+00	0	32	101	1048576	44	5566
2026-01-05 20:44:26.22	0.58	22.50	-32.4	-32.9	27.2	0.00e+00	0	32	101	1048576	44	5470
2026-01-05 20:44:30.27	359.81	22.92	-32.4	-32.9	27.3	0.00e+00	0	32	101	1048576	44	5468
2026-01-05 20:44:34.31	359.03	23.34	-32.3	-32.8	27.3	0.00e+00	0	32	101	1048576	44	5411
2026-01-05 20:44:38.35	358.22	23.76	-32.0	-32.5	27.6	0.00e+00	0	32	101	1048576	42	5866
2026-01-05 20:44:42.40	357.39	24.19	-31.8	-32.3	27.8	0.00e+00	0	32	101	1048576	42	5711
2026-01-05 20:44:46.45	356.53	24.61	-31.8	-32.3	27.8	0.00e+00	0	32	101	1048576	42	5712
2026-01-05 20:44:50.49	355.65	25.03	-31.7	-32.1	27.9	0.00e+00	0	32	101	1048576	42	5626
2026-01-05 20:44:54.54	354.75	25.46	-31.6	-32.0	27.9	0.00e+00	0	32	101	1048576	42	5564
2026-01-05 20:44:58.58	353.82	25.88	-31.6	-32.0	27.9	0.00e+00	0	32	101	1048576	42	5557
2026-01-05 20:45:02.63	352.87	26.30	-31.6	-32.1	27.7	0.00e+00	0	32	101	1048576	42	5595
2026-01-05 20:45:06.67	351.89	26.71	-31.8	-32.2	27.5	0.00e+00	0	32	101	1048576	42	5684
2026-01-05 20:45:10.72	350.89	27.13	-31.7	-32.2	27.8	0.00e+00	0	32	101	1048576	42	5644
2026-01-05 20:45:14.76	349.86	27.54	-31.7	-32.1	28.0	0.00e+00	0	32	101	1048576	42	5618
2026-01-05 20:45:18.81	348.80	27.94	-31.9	-32.4	27.8	0.00e+00	0	32	101	1048576	42	5766
2026-01-05 20:45:22.85	347.71	28.34	-31.8	-32.2	27.9	0.00e+00	0	32	101	1048576	42	5673
2026-01-05 20:45:26.89	346.60	28.74	-31.5	-31.9	28.1	0.00e+00	0	32	101	1048576	42	5502
2026-01-05 20:45:30.94	345.46	29.12	-31.7	-32.2	27.9	0.00e+00	0	32	101	1048576	42	5644
2026-01-05 20:45:34.98	344.29	29.50	-31.7	-32.1	27.9	0.00e+00	0	32	101	1048576	42	5617
2026-01-05 20:45:39.03	343.10	29.87	-31.7	-32.2	27.8	0.00e+00	0	32	101	1048576	42	5677
2026-01-05 20:45:43.07	341.87	30.23	-31.7	-32.2	27.9	0.00e+00	0	32	101	1048576	42	5635
2026-01-05 20:45:47.12	340.62	30.58	-31.2	-31.6	28.3	0.00e+00	0	32	101	1048576	42	5300
2026-01-05 20:45:51.16	339.34	30.92	-31.4	-31.9	28.1	0.00e+00	0	32	101	1048576	42	5463
2026-01-05 20:45:55.21	338.03	31.25	-31.4	-31.9	28.2	0.00e+00	0	32	101	1048576	42	5449
2026-01-05 20:45:59.25	336.70	31.56	-31.5	-31.9	28.1	0.00e+00	0	32	101	1048576	42	5485
2026-01-05 20:46:03.29	335.35	31.86	-31.2	-31.6	28.4	0.00e+00	0	32	101	1048576	42	5309
2026-01-05 20:46:07.34	333.96	32.14	-31.1	-31.6	28.4	0.00e+00	0	32	101	1048576	40	5905
2026-01-05 20:46:11.38	332.56	32.40	-31.1	-31.6	28.3	0.00e+00	0	32	101	1048576	40	5903
2026-01-05 20:46:15.43	331.13	32.65	-31.3	-31.7	28.2	0.00e+00	0	32	101	1048576	40	6032
2026-01-05 20:46:19.48	329.68	32.88	-30.9	-31.4	28.5	0.00e+00	0	32	101	1048576	40	5788
2026-01-05 20:46:23.52	328.21	33.09	-30.8	-31.3	28.5	0.00e+00	0	32	101	1048576	40	5726
2026-01-05 20:46:27.57	326.72	33.28	-31.1	-31.6	28.4	0.00e+00	0	32	101	1048576	40	5929
2026-01-05 20:46:31.61	325.22	33.45	-31.3	-31.8	28.2	0.00e+00	0	32	101	1048576	40	6069
2026-01-05 20:46:35.66	323.69	33.59	-30.9	-31.3	28.6	0.00e+00	0	32	101	1048576	40	5747
2026-01-05 20:46:39.70	322.16	33.71	-31.2	-31.6	28.3	0.00e+00	0	32	101	1048576	40	5964
2026-01-05 20:46:43.75	320.62	33.81	-31.1	-31.5	28.5	0.00e+00	0	32	101	1048576	40	5866
2026-01-05 20:46:47.79	319.07	33.89	-31.2	-31.7	28.3	0.00e+00	0	32	101	1048576	40	5996
2026-01-05 20:46:51.83	317.51	33.94	-31.3	-31.7	28.3	0.00e+00	0	32	101	1048576	40	6012
2026-01-05 20:46:55.88	315.95	33.97	-31.1	-31.6	28.4	0.00e+00	0	32	101	1048576	40	5909
2026-01-05 20:46:59.92	314.39	33.98	-31.0	-31.5	28.5	0.00e+00	0	32	101	1048576	40	5847
2026-01-05 20:47:03.97	312.82	33.96	-30.8	-31.3	28.5	0.00e+00	0	32	101	1048576	40	5724
2026-01-05 20:47:08.01	311.26	33.91	-31.3	-31.8	28.3	0.00e+00	0	32	101	1048576	40	6043
2026-01-05 20:47:12.06	309.71	33.84	-31.1	-31.5	28.4	0.00e+00	0	32	101	1048576	40	5876
2026-01-05 20:47:16.10	308.16	33.75	-31.2	-31.6	28.3	0.00e+00	0	32	101	1048576	40	5942
2026-01-05 20:47:20.14	306.62	33.64	-31.1	-31.6	28.2	0.00e+00	0	32	101	1048576	40	5935
2026-01-05 20:47:24.19	305.10	33.50	-31.0	-31.4	28.5	0.00e+00	0	32	101	1048576	40	5814
2026-01-05 20:47:28.23	303.59	33.34	-30.7	-31.2	28.6	0.00e+00	0	32	101	1048576	40	5653
2026-01-05 20:47:32.28	302.09	33.16	-31.1	-31.6	28.4	0.00e+00	0	32	101	1048576	40	5909
2026-01-05 20:47:36.32	300.61	32.96	-30.9	-31.4	28.5	0.00e+00	0	32	101	1048576	40	5780
2026-01-05 20:47:40.37	299.15	32.73	-31.1	-31.6	28.3	0.00e+00	0	32	101	1048576	40	5938
2026-01-05 20:47:44.41	297.71	32.49	-31.1	-31.6	28.4	0.00e+00	0	32	101	1048576	40	5915
2026-01-05 20:47:48.46	296.29	32.23	-31.3	-31.8	28.2	0.00e+00	0	32	101	1048576	40	6053
2026-01-05 20:47:52.50	294.90	31.96	-31.3	-31.7	28.3	0.00e+00	0	32	101	1048576	40	6032
2026-01-05 20:47:56.55	293.53	31.66	-31.2	-31.7	28.3	0.00e+00	0	32	101	1048576	40	6001
2026-01-05 20:48:00.60	292.19	31.36	-30.9	-31.4	28.5	0.00e+00	0	32	101	1048576	40	5796
2026-01-05 20:48:04.64	290.87	31.03	-31.2	-31.7	28.3	0.00e+00	0	32	101	1048576	40	5994
2026-01-05 20:48:08.69	289.58	30.70	-31.2	-31.7	28.3	0.00e+00	0	32	101	1048576	40	6005
2026-01-05 20:48:12.73	288.31	30.35	-31.2	-31.7	28.3	0.00e+00	0	32	101	1048576	40	5996
2026-01-05 20:48:16.78	287.07	29.99	-31.2	-31.7	28.3	0.00e+00	0	32	101	1048576	40	5971
2026-01-05 20:48:20.82	285.87	29.63	-31.3	-31.7	28.3	0.00e+00	0	32	101	1048576	40	6020
2026-01-05 20:48:24.86	284.69	29.25	-31.3	-31.7	28.3	0.00e+00	0	32	101	1048576	40	6021
2026-01-05 20:48:28.91	283.53	28.86	-31.4	-31.8	28.1	0.00e+00	0	32	101	1048576	40	6078
2026-01-05 20:48:32.95	282.41	28.47	-31.3	-31.7	28.2	0.00e+00	0	32	101	1048576	40	6012
2026-01-05 20:48:37.00	281.31	28.07	-31.0	-31.4	28.4	0.00e+00	0	32	101	1048576	40	5801
2026-01-05 20:48:41.04	280.24	27.67	-31.4	-31.8	28.2	0.00e+00	0	32	101	1048576	40	6100
2026-01-05 20:48:45.09	279.19	27.26	-31.6	-32.3	23.6	0.00e+00	0	32	101	1048576	40	6403
2026-01-05 20:48:49.13	278.18	26.84	-31.5	-32.2	23.9	0.00e+00	0	32	101	1048576	40	6328
2026-01-05 20:48:53.18	277.18	26.43	-31.3	-31.9	24.0	0.00e+00	0	32	101	1048576	40	6164
2026-01-05 20:48:57.22	276.22	26.01	-31.4	-32.1	23.9	0.00e+00	0	32	101	1048576	40	6258
2026-01-05 20:49:01.27	275.28	25.58	-31.6	-32.3	23.7	0.00e+00	0	32	101	1048576	40	6426
2026-01-05 20:49:05.31	274.37	25.16	-31.4	-32.1	24.0	0.00e+00	0	32	101	1048576	40	6254
2026-01-05 20:49:09.35	273.48	24.74	-31.3	-32.0	24.0	0.00e+00	0	32	101	1048576	40	6208
2026-01-05 20:49:13.40	272.61	24.31	-31.6	-32.2	23.8	0.00e+00	0	32	101	1048576	40	6384
2026-01-05 20:49:17.44	271.77	23.89	-31.7	-32.4	23.7	0.00e+00	0	32	101	1048576	40	6475
2026-01-05 20:49:21.49	270.95	23.46	-31.6	-32.3	24.2	0.00e+00	0	32	101	1048576	40	6413
2026-01-05 20:49:25.53	270.15	23.04	-31.6	-32.2	24.2	0.00e+00	0	32	101	1048576	40	6357
2026-01-05 20:49:29.58	269.37	22.61	-31.7	-32.4	23.6	0.00e+00	0	32	101	1048576	40	6478
2026-01-05 20:49:33.62	268.62	22.19	-31.4	-32.1	23.8	0.00e+00	0	32	101	1048576	40	6281
2026-01-05 20:49:37.67	267.88	21.77	-31.6	-32.3	23.8	0.00e+00	0	32	101	1048576	40	6405
2026-01-05 20:49:41.71	267.17	21.35	-31.9	-32.6	23.8	0.00e+00	0	32	101	1048576	40	6619
2026-01-05 20:49:45.75	266.47	20.94	-32.1	-32.7	23.8	0.00e+00	0	32	101	1048576	42	6023
2026-01-05 20:49:49.80	265.80	20.52	-32.2	-32.8	23.5	0.00e+00	0	32	101	1048576	42	6094
2026-01-05 20:49:53.84	265.14	20.11	-32.3	-33.0	23.5	0.00e+00	0	32	101	1048576	42	6177
2026-01-05 20:49:57.89	264.50	19.70	-32.2	-32.8	23.8	0.00e+00	0	32	101	1048576	42	6064
2026-01-05 20:50:01.93	263.87	19.30	-32.4	-33.0	23.7	0.00e+00	0	32	101	1048576	42	6239
2026-01-05 20:50:05.98	263.26	18.90	-32.4	-33.0	23.7	0.00e+00	0	32	101	1048576	42	6240
2026-01-05 20:50:10.02	262.67	18.50	-32.4	-33.1	23.4	0.00e+00	0	32	101	1048576	42	6275
2026-01-05 20:50:14.07	262.09	18.10	-32.7	-33.4	23.3	0.00e+00	0	32	101	1048576	42	6520
2026-01-05 20:50:18.11	261.53	17.71	-33.0	-33.7	23.2	0.00e+00	0	32	101	1048576	44	5986
2026-01-05 20:50:22.15	260.99	17.32	-32.8	-33.4	23.5	0.00e+00	0	32	101	1048576	44	5819
2026-01-05 20:50:26.20	260.45	16.94	-32.6	-33.3	23.7	0.00e+00	0	32	101	1048576	44	5713
2026-01-05 20:50:30.24	259.94	16.56	-33.0	-33.6	23.4	0.00e+00	0	32	101	1048576	44	5960
2026-01-05 20:50:34.29	259.43	16.18	-33.5	-34.2	22.9	0.00e+00	0	32	101	1048576	44	6345
2026-01-05 20:50:38.33	258.94	15.80	-33.7	-34.4	22.7	0.00e+00	0	32	101	1048576	44	6539
2026-01-05 20:50:42.38	258.46	15.43	-33.4	-34.1	23.0	0.00e+00	0	32	101	1048576	44	6265
2026-01-05 20:50:46.42	257.99	15.06	-33.1	-33.8	23.4	0.00e+00	0	32	101	1048576	44	6067
2026-01-05 20:50:50.46	257.53	14.70	-33.2	-33.8	23.5	0.00e+00	0	32	101	1048576	44	6099
2026-01-05 20:50:54.51	257.09	14.34	-33.6	-34.3	23.2	0.00e+00	0	32	101	1048576	44	6397
2026-01-05 20:50:58.55	256.65	13.98	-33.7	-34.4	23.1	0.00e+00	0	32	101	1048576	44	6475
2026-01-05 20:51:02.60	256.23	13.63	-33.9	-34.6	23.1	0.00e+00	0	32	101	1048576	44	6617
2026-01-05 20:51:06.64	255.81	13.28	-34.3	-35.0	22.7	0.00e+00	0	32	101	1048576	46	6203
2026-01-05 20:51:10.69	255.41	12.93	-34.5	-35.3	22.4	0.00e+00	0	32	101	1048576	46	6402
2026-01-05 20:51:14.73	255.01	12.59	-34.2	-35.0	22.5	0.00e+00	0	32	101	1048576	46	6174
2026-01-05 20:51:18.78	254.63	12.25	-34.1	-34.8	22.8	0.00e+00	0	32	101	1048576	46	6095
2026-01-05 20:51:22.82	254.25	11.91	-34.1	-34.8	22.7	0.00e+00	0	32	101	1048576	46	6080
2026-01-05 20:51:26.86	253.88	11.58	-34.2	-34.9	22.8	0.00e+00	0	32	101	1048576	46	6142
2026-01-05 20:51:30.91	253.53	11.25	-34.4	-35.1	22.7	0.00e+00	0	32	101	1048576	46	6298
2026-01-05 20:51:34.95	253.17	10.93	-34.5	-35.2	22.7	0.00e+00	0	32	101	1048576	46	6321
2026-01-05 20:51:39.00	252.83	10.60	-34.9	-35.4	24.9	0.00e+00	0	32	101	1048576	46	6534
2026-01-05 20:51:43.04	252.50	10.28	-35.1	-35.7	24.6	0.00e+00	0	32	101	1048576	48	5982
2026-01-05 20:51:47.08	252.17	9.97	-35.1	-35.6	24.7	0.00e+00	0	32	101	1048576	48	5931
2026-01-05 20:51:51.13	251.85	9.65	-35.0	-35.5	24.8	0.00e+00	0	32	101	1048576	48	5858
2026-01-05 20:51:55.17	251.53	9.34	-34.7	-35.3	24.9	0.00e+00	0	32	101	1048576	48	5703
2026-01-05 20:51:59.22	251.23	9.04	-34.7	-35.2	25.0	0.00e+00	0	32	101	1048576	48	5673
2026-01-05 20:52:03.26	250.93	8.73	-35.0	-35.5	24.7	0.00e+00	0	32	101	1048576	48	5860
2026-01-05 20:52:07.30	250.63	8.43	-35.4	-35.9	24.3	0.00e+00	0	32	101	1048576	48	6132
2026-01-05 20:52:11.35	250.34	8.13	-35.9	-36.5	23.6	0.00e+00	0	32	101	1048576	48	6585
2026-01-05 20:52:15.39	250.06	7.84	-36.3	-36.8	23.5	0.00e+00	0	32	101	1048576	50	6091
2026-01-05 20:52:19.44	249.79	7.54	-36.4	-37.0	23.3	0.00e+00	0	32	101	1048576	50	6217
2026-01-05 20:52:23.48	249.52	7.25	-36.6	-37.2	23.1	0.00e+00	0	32	101	1048576	50	6325
2026-01-05 20:52:27.53	249.25	6.96	-36.5	-37.1	23.1	0.00e+00	0	32	101	1048576	50	6301
2026-01-05 20:52:31.57	248.99	6.68	-36.5	-37.1	23.1	0.00e+00	0	32	101	1048576	50	6284
2026-01-05 20:52:35.62	248.74	6.40	-36.5	-37.1	23.0	0.00e+00	0	32	101	1048576	50	6272
2026-01-05 20:52:39.66	248.49	6.12	-36.6	-37.2	22.9	0.00e+00	0	32	101	1048576	50	6333
2026-01-05 20:52:43.70	248.25	5.84	-36.7	-37.3	22.7	0.00e+00	0	32	101	1048576	50	6463
2026-01-05 20:52:47.75	248.01	5.56	-36.6	-37.2	22.8	0.00e+00	0	32	101	1048576	50	6380
2026-01-05 20:52:51.79	247.77	5.29	-36.7	-37.3	22.7	0.00e+00	0	32	101	1048576	50	6427
2026-01-05 20:52:55.84	247.54	5.02	-37.0	-37.6	22.3	0.00e+00	0	32	101	1048576	52	5957
2026-01-05 20:52:59.88	247.32	4.75	-37.5	-38.1	21.8	0.00e+00	0	32	101	1048576	52	6270
2026-01-05 20:53:03.92	247.10	4.49	-37.5	-38.1	21.8	0.00e+00	0	32	101	1048576	52	6285
2026-01-05 20:53:07.97	246.88	4.22	-38.2	-38.9	20.9	0.00e+00	0	32	101	1048576	54	6126
2026-01-05 20:53:12.02	246.67	3.96	-38.5	-39.3	20.6	0.00e+00	0	32	101	1048576	54	6397
2026-01-05 20:53:16.06	246.46	3.70	-38.9	-39.7	20.1	0.00e+00	0	32	101	1048576	56	5984
2026-01-05 20:53:20.10	246.25	3.45	-39.6	-40.4	19.3	0.00e+00	0	32	101	1048576	56	6527
2026-01-05 20:53:24.15	246.05	3.19	-40.5	-41.4	18.0	0.00e+00	0	32	101	1048576	58	6519
2026-01-05 20:53:28.19	245.85	2.94	-41.3	-42.3	17.0	0.00e+00	0	32	101	1048576	60	6441
2026-01-05 20:53:32.24	245.66	2.69	-50.2	-61.5	3.6	8.45e-01	0	32	104	1048576	60	58836
2026-01-05 20:53:36.28	245.47	2.44	-50.9	-62.2	3.6	8.45e-01	0	32	104	1048576	60	63765
2026-01-05 20:53:40.33	245.28	2.19	-50.9	-62.3	3.6	8.45e-01	0	32	104	1048576	60	64346
2026-01-05 20:53:44.37	245.10	1.94	-50.6	-62.2	3.6	8.45e-01	0	32	104	1048576	60	63879
2026-01-05 20:53:48.41	244.92	1.70	-50.8	-62.2	3.6	8.45e-01	0	32	104	1048576	60	63624
2026-01-05 20:53:52.46	244.74	1.46	-50.7	-62.2	3.6	8.45e-01	0	32	104	1048576	60	63895
2026-01-05 20:53:56.50	244.56	1.22	-50.7	-62.2	3.6	8.46e-01	0	32	104	1048576	60	63697
2026-01-05 20:54:00.55	244.39	0.98	-50.7	-62.2	3.6	8.45e-01	0	32	104	1048576	60	63753
2026-01-05 20:54:04.54	244.23	0.74	-50.7	-62.2	3.6	8.46e-01	0	32	104	1048576	60	63385
2026-01-05 20:54:08.59	244.06	0.51	-50.7	-62.2	3.6	8.46e-01	0	32	104	1048576	60	63256
2026-01-05 20:54:12.63	243.90	0.28	-50.7	-62.2	3.6	8.45e-01	0	32	104	1048576	60	63378
2026-01-05 20:54:16.68	243.74	0.04	-50.7	-62.1	3.6	8.45e-01	0	32	104	1048576	60	63090

#Closed at: 2026-01-05 20:54:19
#Recorded file [1 MB]: D:/lorett/data/35034_260105_233939.dat