passes_logs/2026/01/05/R4.6S_Anadyr_2ch/R4.6S_Anadyr_2ch__20260105_172237_NOAA_21_JPSS-2_rec.log

#Pass ID: 20260105_172237_NOAA 21 (JPSS-2)
#Satellite: NOAA 21 (JPSS-2)
#Configuration: NOAA-21
#almurnet v.1.7.20251203
#Start time: 2026-01-05 17:28:16

#Version: 2.2.20231116
#Station: R4.6S_Anadyr_2ch
#Location: 177.4865 lon 64.73178 lat
#TLE: 1 54234U 22150A   25350.97269056  .00000057  00000+0  47676-4 0  9992
#TLE: 2 54234  98.7466 287.2282 0002043  29.8355 330.2937 14.19525482160692

#Time	Az	El	Level	Level2	SNR	BER	BlckErr	Temp	State	Recorded	gain1	gain2
2026-01-05 17:28:16.45	347.88	20.53	-51.0	-62.7	3.5	8.44e-01	0	31	0	0	60	66814
2026-01-05 17:28:18.47	347.39	20.62	-51.0	-64.0	3.5	1.52e+00	0	31	104	0	60	74705
2026-01-05 17:28:20.49	346.91	20.70	-51.1	-64.0	3.5	1.52e+00	0	31	104	0	60	75013
2026-01-05 17:28:22.51	346.42	20.79	-51.2	-64.1	3.5	1.52e+00	0	31	104	0	60	76179
2026-01-05 17:28:24.53	345.92	20.87	-50.9	-64.1	3.5	1.52e+00	0	31	104	0	60	75512
2026-01-05 17:28:26.55	345.43	20.95	-51.0	-64.2	3.5	1.51e+00	0	31	104	0	60	76964
2026-01-05 17:28:28.58	344.93	21.02	-51.2	-64.1	3.5	1.52e+00	0	31	104	0	60	76268
2026-01-05 17:28:30.60	344.43	21.10	-51.0	-64.0	3.5	1.52e+00	0	31	104	0	60	75211
2026-01-05 17:28:32.62	343.93	21.17	-50.9	-63.9	3.5	1.52e+00	0	31	104	0	60	74401
2026-01-05 17:28:34.64	343.42	21.24	-50.9	-63.9	3.5	1.52e+00	0	31	104	0	60	74203
2026-01-05 17:28:36.67	342.91	21.31	-50.9	-63.9	3.5	1.52e+00	0	31	104	0	60	74194
2026-01-05 17:28:38.69	342.40	21.38	-50.9	-63.9	3.5	1.52e+00	0	31	104	0	60	74148
2026-01-05 17:28:40.71	341.89	21.44	-50.9	-63.9	3.5	1.52e+00	0	31	104	0	60	74392
2026-01-05 17:28:42.73	341.38	21.50	-50.9	-63.8	3.5	1.52e+00	0	31	104	0	60	73242
2026-01-05 17:28:44.75	340.86	21.56	-50.9	-63.9	3.5	1.51e+00	0	31	104	0	60	74147
2026-01-05 17:28:46.78	340.34	21.62	-50.9	-63.8	3.5	1.52e+00	0	31	104	0	60	73750
2026-01-05 17:28:48.80	339.82	21.67	-50.9	-63.8	3.5	1.52e+00	0	31	104	0	60	73554
2026-01-05 17:28:50.82	339.30	21.73	-50.8	-63.8	3.5	1.52e+00	0	31	104	0	60	73174
2026-01-05 17:28:52.84	338.78	21.78	-50.9	-63.9	3.5	1.51e+00	0	31	104	0	60	73813
2026-01-05 17:28:54.87	338.25	21.82	-50.8	-63.7	3.5	1.52e+00	0	31	104	0	60	72747
2026-01-05 17:28:56.89	337.72	21.87	-50.8	-63.5	3.5	1.52e+00	0	31	104	0	60	71209
2026-01-05 17:28:58.91	337.19	21.91	-50.9	-63.8	3.5	1.52e+00	0	31	104	0	60	73608
2026-01-05 17:29:00.92	336.67	21.95	-50.8	-63.8	3.5	1.52e+00	0	31	104	0	60	73572
2026-01-05 17:29:02.94	336.14	21.99	-50.8	-63.6	3.5	1.52e+00	0	31	104	0	60	71464
2026-01-05 17:29:04.96	335.60	22.02	-50.8	-63.6	3.5	1.52e+00	0	31	104	0	60	72074
2026-01-05 17:29:06.98	335.07	22.05	-50.8	-63.7	3.5	1.52e+00	0	31	104	0	60	72504
2026-01-05 17:29:09.00	334.54	22.08	-50.8	-63.5	3.5	1.51e+00	0	31	104	0	60	71070
2026-01-05 17:29:11.03	334.00	22.11	-50.8	-63.5	3.5	1.52e+00	0	31	104	0	60	70765
2026-01-05 17:29:13.05	333.46	22.13	-50.8	-62.7	3.5	1.52e+00	0	31	104	0	60	64957
2026-01-05 17:29:15.07	332.93	22.16	-50.1	-57.7	7.2	1.28e+00	123	31	104	0	60	36393
2026-01-05 17:29:17.09	332.39	22.17	-39.0	-40.1	22.8	0.00e+00	122	31	102	1048576	58	5347
2026-01-05 17:29:19.12	331.85	22.19	-37.4	-38.3	24.1	0.00e+00	122	31	102	1048576	54	5520
2026-01-05 17:29:21.14	331.31	22.20	-50.6	-60.7	4.0	1.21e+00	0	31	104	1048576	60	51202
2026-01-05 17:29:23.16	330.77	22.21	-50.7	-62.0	3.5	1.17e+00	0	31	104	1048576	60	59580
2026-01-05 17:29:25.18	330.23	22.22	-43.3	-44.8	18.5	0.00e+00	122	31	0	1048576	60	8214
2026-01-05 17:29:27.21	329.69	22.23	-40.0	-41.1	21.9	0.00e+00	122	31	0	1048576	60	5369
2026-01-05 17:29:29.23	329.15	22.23	-36.9	-37.8	24.5	0.00e+00	120	31	0	1048576	52	5824
2026-01-05 17:29:31.25	328.61	22.23	-36.3	-37.2	24.8	0.00e+00	123	31	0	1048576	52	5455
2026-01-05 17:29:33.27	328.07	22.23	-36.0	-36.9	25.0	0.00e+00	123	31	0	1048576	50	5867
2026-01-05 17:29:35.29	327.53	22.22	-36.1	-37.0	25.0	0.00e+00	122	31	101	1048576	50	5947
2026-01-05 17:29:37.32	326.99	22.21	-36.2	-37.1	24.8	0.00e+00	123	31	101	1048576	50	6044
2026-01-05 17:29:39.34	326.45	22.20	-36.5	-37.4	24.6	0.00e+00	123	31	101	1048576	50	6270
2026-01-05 17:29:41.36	325.91	22.19	-36.6	-37.4	24.6	0.00e+00	120	31	101	1048576	50	6277
2026-01-05 17:29:43.38	325.37	22.17	-36.2	-37.1	24.8	0.00e+00	122	31	101	1048576	50	6059
2026-01-05 17:29:45.40	324.83	22.15	-36.3	-37.2	24.7	0.00e+00	123	31	101	1048576	50	6100
2026-01-05 17:29:47.42	324.30	22.13	-36.7	-37.6	24.6	0.00e+00	123	31	101	1048576	50	6354
2026-01-05 17:29:49.45	323.76	22.10	-36.7	-37.6	24.6	0.00e+00	123	31	101	1048576	50	6417
2026-01-05 17:29:51.47	323.22	22.08	-36.6	-37.5	24.6	0.00e+00	123	31	101	1048576	50	6322
2026-01-05 17:29:53.49	322.69	22.05	-36.4	-37.3	24.8	0.00e+00	123	31	101	1048576	50	6183
2026-01-05 17:29:55.51	322.15	22.01	-36.4	-37.3	24.8	0.00e+00	123	31	101	1048576	50	6156
2026-01-05 17:29:57.54	321.62	21.98	-36.2	-37.1	25.0	0.00e+00	123	31	101	1048576	50	6039
2026-01-05 17:29:59.56	321.09	21.94	-36.2	-37.1	24.9	0.00e+00	123	31	101	1048576	50	6018
2026-01-05 17:30:01.58	320.56	21.90	-36.0	-36.8	25.1	0.00e+00	120	31	101	1048576	50	5845
2026-01-05 17:30:03.61	320.03	21.86	-36.3	-37.2	24.8	0.00e+00	123	31	101	1048576	50	6097
2026-01-05 17:30:05.63	319.50	21.81	-36.6	-37.5	24.6	0.00e+00	123	31	101	1048576	50	6309
2026-01-05 17:30:07.65	318.98	21.76	-36.5	-37.4	24.7	0.00e+00	122	31	101	1048576	50	6258
2026-01-05 17:30:09.67	318.45	21.71	-36.3	-37.1	24.8	0.00e+00	122	31	101	1048576	50	6055
2026-01-05 17:30:11.70	317.93	21.66	-36.3	-37.2	24.8	0.00e+00	123	31	101	1048576	50	6108
2026-01-05 17:30:13.72	317.41	21.61	-36.1	-37.0	25.0	0.00e+00	122	31	101	1048576	50	5946
2026-01-05 17:30:15.74	316.89	21.55	-36.1	-37.0	25.0	0.00e+00	123	31	101	1048576	50	5939
2026-01-05 17:30:17.76	316.38	21.49	-36.2	-37.1	24.7	0.00e+00	123	31	101	1048576	50	6029
2026-01-05 17:30:19.78	315.86	21.43	-36.2	-37.1	24.7	0.00e+00	123	31	101	1048576	50	6035
2026-01-05 17:30:21.81	315.35	21.36	-36.5	-37.4	24.7	0.00e+00	122	31	101	1048576	50	6226
2026-01-05 17:30:23.83	314.84	21.29	-36.4	-37.3	24.7	0.00e+00	123	31	101	1048576	50	6168
2026-01-05 17:30:25.85	314.33	21.23	-36.6	-37.5	24.7	0.00e+00	123	31	101	1048576	50	6295
2026-01-05 17:30:27.87	313.83	21.15	-36.5	-37.3	24.8	0.00e+00	122	31	101	1048576	50	6198
2026-01-05 17:30:29.89	313.32	21.08	-36.5	-37.4	24.6	0.00e+00	123	31	101	1048576	50	6236
2026-01-05 17:30:31.92	312.82	21.01	-36.7	-37.6	24.6	0.00e+00	123	31	101	1048576	50	6419
2026-01-05 17:30:33.94	312.32	20.93	-36.3	-37.2	24.8	0.00e+00	120	31	101	1048576	50	6110
2026-01-05 17:30:35.96	311.83	20.85	-36.4	-37.3	24.8	0.00e+00	120	31	101	1048576	50	6160
2026-01-05 17:30:37.98	311.34	20.77	-36.4	-37.3	24.8	0.00e+00	122	31	101	1048576	50	6150
2026-01-05 17:30:40.01	310.84	20.68	-36.5	-37.4	24.8	0.00e+00	123	31	101	1048576	50	6229
2026-01-05 17:30:42.03	310.36	20.60	-36.4	-37.3	24.7	0.00e+00	120	31	101	1048576	50	6189
2026-01-05 17:30:44.05	309.87	20.51	-36.5	-37.5	24.7	0.00e+00	123	31	101	1048576	50	6280
2026-01-05 17:30:46.07	309.39	20.42	-36.9	-37.7	24.5	0.00e+00	122	31	101	1048576	50	6492
2026-01-05 17:30:48.10	308.91	20.33	-36.9	-37.8	24.4	0.00e+00	122	31	101	1048576	50	6539
2026-01-05 17:30:50.12	308.43	20.24	-36.6	-37.5	24.6	0.00e+00	123	31	101	1048576	50	6318
2026-01-05 17:30:52.14	307.96	20.14	-36.6	-37.4	24.7	0.00e+00	123	31	101	1048576	50	6271
2026-01-05 17:30:54.16	307.49	20.05	-36.3	-37.2	24.9	0.00e+00	123	31	101	1048576	50	6072
2026-01-05 17:30:56.18	307.02	19.95	-36.1	-37.0	24.9	0.00e+00	123	31	101	1048576	50	5954
2026-01-05 17:30:58.21	306.56	19.85	-36.3	-37.2	24.8	0.00e+00	123	31	101	1048576	50	6073
2026-01-05 17:31:00.23	306.10	19.75	-36.5	-37.4	24.7	0.00e+00	123	31	101	1048576	50	6217
2026-01-05 17:31:02.25	305.64	19.65	-36.7	-37.6	24.6	0.00e+00	123	31	101	1048576	50	6381
2026-01-05 17:31:04.27	305.18	19.54	-36.9	-37.8	24.4	0.00e+00	120	31	101	1048576	50	6539
2026-01-05 17:31:06.29	304.73	19.44	-36.8	-37.7	24.5	0.00e+00	120	31	101	1048576	50	6454
2026-01-05 17:31:08.32	304.28	19.33	-36.8	-37.7	24.5	0.00e+00	123	31	101	1048576	50	6476
2026-01-05 17:31:10.34	303.84	19.22	-36.8	-37.7	24.5	0.00e+00	123	31	101	1048576	50	6435
2026-01-05 17:31:12.36	303.39	19.11	-36.6	-37.5	24.6	0.00e+00	122	31	101	1048576	50	6287
2026-01-05 17:31:14.38	302.95	19.00	-36.6	-37.5	24.6	0.00e+00	120	31	101	1048576	50	6304
2026-01-05 17:31:16.41	302.52	18.89	-36.7	-37.6	24.6	0.00e+00	123	31	101	1048576	50	6396
2026-01-05 17:31:18.43	302.08	18.77	-37.0	-37.9	24.3	0.00e+00	122	31	101	1048576	50	6584
2026-01-05 17:31:20.45	301.65	18.66	-37.1	-38.0	24.3	0.00e+00	123	31	101	1048576	52	5976
2026-01-05 17:31:22.47	301.23	18.54	-37.3	-38.2	24.1	0.00e+00	122	31	101	1048576	52	6074
2026-01-05 17:31:24.50	300.80	18.43	-37.0	-37.9	24.2	0.00e+00	123	31	101	1048576	52	5899
2026-01-05 17:31:26.52	300.38	18.31	-36.8	-37.7	24.5	0.00e+00	122	31	101	1048576	52	5739
2026-01-05 17:31:28.54	299.97	18.19	-36.7	-37.6	24.5	0.00e+00	123	31	101	1048576	52	5680
2026-01-05 17:31:30.56	299.55	18.07	-36.9	-37.8	24.4	0.00e+00	123	31	101	1048576	52	5820
2026-01-05 17:31:32.59	299.14	17.95	-36.7	-37.6	24.5	0.00e+00	122	31	101	1048576	52	5673
2026-01-05 17:31:34.61	298.74	17.83	-36.6	-37.5	24.6	0.00e+00	123	31	101	1048576	52	5639
2026-01-05 17:31:36.63	298.33	17.71	-36.7	-37.6	24.5	0.00e+00	123	31	101	1048576	52	5704
2026-01-05 17:31:38.65	297.93	17.58	-37.1	-38.0	24.2	0.00e+00	122	31	101	1048576	52	5964
2026-01-05 17:31:40.67	297.54	17.46	-37.3	-38.2	24.0	0.00e+00	123	31	101	1048576	52	6105
2026-01-05 17:31:42.70	297.14	17.33	-37.2	-38.1	24.1	0.00e+00	123	31	101	1048576	52	6048
2026-01-05 17:31:44.71	296.75	17.21	-36.9	-37.8	24.2	0.00e+00	122	31	101	1048576	52	5845
2026-01-05 17:31:46.73	296.37	17.08	-36.9	-37.9	24.3	0.00e+00	123	31	101	1048576	52	5865
2026-01-05 17:31:48.76	295.98	16.95	-37.0	-37.9	24.4	0.00e+00	120	31	101	1048576	52	5867
2026-01-05 17:31:50.78	295.60	16.83	-37.0	-37.9	24.3	0.00e+00	123	31	101	1048576	52	5890
2026-01-05 17:31:52.80	295.23	16.70	-37.0	-37.9	24.3	0.00e+00	122	31	101	1048576	52	5909
2026-01-05 17:31:54.82	294.85	16.57	-37.1	-38.0	24.1	0.00e+00	123	31	101	1048576	52	5984
2026-01-05 17:31:56.85	294.48	16.44	-37.0	-37.9	24.3	0.00e+00	120	31	101	1048576	52	5877
2026-01-05 17:31:58.87	294.11	16.31	-37.0	-37.9	24.3	0.00e+00	123	31	101	1048576	52	5911
2026-01-05 17:32:00.89	293.75	16.18	-37.1	-38.0	24.2	0.00e+00	122	31	101	1048576	52	5950
2026-01-05 17:32:02.91	293.39	16.05	-37.2	-38.1	24.1	0.00e+00	120	31	101	1048576	52	6051
2026-01-05 17:32:04.93	293.03	15.92	-37.2	-38.2	24.1	0.00e+00	122	31	101	1048576	52	6081
2026-01-05 17:32:06.96	292.67	15.78	-37.4	-38.4	24.0	0.00e+00	123	31	101	1048576	52	6230
2026-01-05 17:32:08.98	292.32	15.65	-37.2	-38.2	24.1	0.00e+00	122	31	101	1048576	52	6072
2026-01-05 17:32:11.00	291.98	15.52	-37.3	-38.2	24.0	0.00e+00	123	31	101	1048576	52	6126
2026-01-05 17:32:13.02	291.63	15.39	-37.3	-38.2	24.0	0.00e+00	123	31	101	1048576	52	6080
2026-01-05 17:32:15.04	291.29	15.25	-37.4	-38.3	23.9	0.00e+00	122	31	101	1048576	52	6200
2026-01-05 17:32:17.07	290.95	15.12	-37.4	-38.4	23.9	0.00e+00	122	31	101	1048576	52	6215
2026-01-05 17:32:19.09	290.61	14.99	-37.3	-38.3	24.0	0.00e+00	123	31	101	1048576	52	6147
2026-01-05 17:32:21.11	290.28	14.85	-37.1	-38.0	24.1	0.00e+00	123	31	101	1048576	52	5968
2026-01-05 17:32:23.14	289.95	14.72	-37.0	-37.9	24.3	0.00e+00	123	31	101	1048576	52	5915
2026-01-05 17:32:25.16	289.62	14.58	-37.1	-38.0	24.1	0.00e+00	123	31	101	1048576	52	5962
2026-01-05 17:32:27.18	289.30	14.45	-37.3	-38.2	23.9	0.00e+00	123	31	101	1048576	52	6124
2026-01-05 17:32:29.20	288.98	14.31	-37.6	-38.6	23.7	0.00e+00	122	31	101	1048576	52	6365
2026-01-05 17:32:31.22	288.66	14.18	-37.6	-38.5	23.7	0.00e+00	120	31	101	1048576	52	6337
2026-01-05 17:32:33.25	288.34	14.04	-37.5	-38.4	23.8	0.00e+00	122	31	101	1048576	52	6254
2026-01-05 17:32:35.27	288.03	13.91	-37.4	-38.4	23.8	0.00e+00	122	31	101	1048576	52	6232
2026-01-05 17:32:37.29	287.72	13.77	-37.4	-38.3	23.8	0.00e+00	123	31	101	1048576	52	6171
2026-01-05 17:32:39.31	287.42	13.64	-37.1	-38.0	24.0	0.00e+00	123	31	101	1048576	52	5964
2026-01-05 17:32:41.33	287.11	13.50	-37.0	-37.9	24.1	0.00e+00	123	31	101	1048576	52	5906
2026-01-05 17:32:43.36	286.81	13.36	-37.0	-37.9	24.2	0.00e+00	123	31	101	1048576	52	5906
2026-01-05 17:32:45.38	286.51	13.23	-37.1	-38.0	24.1	0.00e+00	120	31	101	1048576	52	5955
2026-01-05 17:32:47.40	286.22	13.09	-37.4	-38.3	23.9	0.00e+00	122	31	101	1048576	52	6189
2026-01-05 17:32:49.42	285.93	12.96	-37.6	-38.5	23.7	0.00e+00	123	31	101	1048576	52	6341
2026-01-05 17:32:51.44	285.64	12.82	-37.8	-38.7	23.5	0.00e+00	122	31	101	1048576	52	6495
2026-01-05 17:32:53.47	285.35	12.69	-37.8	-38.8	23.5	0.00e+00	122	31	101	1048576	52	6514
2026-01-05 17:32:55.49	285.06	12.55	-38.0	-38.9	23.4	0.00e+00	122	31	101	1048576	52	6647
2026-01-05 17:32:57.51	284.78	12.42	-38.1	-39.0	23.3	0.00e+00	122	31	101	1048576	52	6705
2026-01-05 17:32:59.53	284.50	12.28	-38.2	-39.1	23.1	0.00e+00	123	31	101	1048576	54	6064
2026-01-05 17:33:01.56	284.22	12.14	-38.0	-38.9	23.3	0.00e+00	123	31	101	1048576	54	5918
2026-01-05 17:33:03.58	283.95	12.01	-37.8	-38.7	23.5	0.00e+00	122	31	101	1048576	54	5779
2026-01-05 17:33:05.60	283.68	11.87	-38.0	-38.9	23.3	0.00e+00	122	31	101	1048576	54	5910
2026-01-05 17:33:07.62	283.41	11.74	-38.0	-38.9	23.3	0.00e+00	120	31	101	1048576	54	5926
2026-01-05 17:33:09.64	283.14	11.60	-38.4	-39.4	22.9	0.00e+00	123	31	101	1048576	54	6232
2026-01-05 17:33:11.67	282.88	11.47	-38.7	-39.7	22.6	0.00e+00	123	31	101	1048576	54	6463
2026-01-05 17:33:13.69	282.62	11.34	-38.8	-39.8	22.5	0.00e+00	123	31	101	1048576	54	6533
2026-01-05 17:33:15.71	282.36	11.20	-38.4	-39.4	22.7	0.00e+00	120	31	101	1048576	54	6263
2026-01-05 17:33:17.73	282.10	11.07	-38.5	-39.5	22.7	0.00e+00	120	31	101	1048576	54	6278
2026-01-05 17:33:19.75	281.85	10.93	-38.3	-39.3	23.0	0.00e+00	123	31	101	1048576	54	6166
2026-01-05 17:33:21.78	281.60	10.80	-38.4	-39.4	22.9	0.00e+00	123	31	101	1048576	54	6256
2026-01-05 17:33:23.80	281.35	10.66	-38.6	-39.6	22.8	0.00e+00	120	31	101	1048576	54	6363
2026-01-05 17:33:25.82	281.10	10.53	-38.7	-39.7	22.6	0.00e+00	123	31	101	1048576	54	6465
2026-01-05 17:33:27.84	280.85	10.40	-38.9	-39.9	22.5	0.00e+00	123	31	101	1048576	54	6594
2026-01-05 17:33:29.86	280.61	10.26	-38.9	-39.9	22.4	0.00e+00	122	31	101	1048576	54	6643
2026-01-05 17:33:31.88	280.37	10.13	-38.9	-40.0	22.3	0.00e+00	120	31	101	1048576	54	6670
2026-01-05 17:33:33.91	280.13	10.00	-38.7	-39.8	22.4	0.00e+00	120	31	101	1048576	54	6507
2026-01-05 17:33:35.93	279.90	9.87	-38.8	-39.8	22.4	0.00e+00	123	31	101	1048576	54	6535
2026-01-05 17:33:37.95	279.66	9.73	-38.8	-39.8	22.5	0.00e+00	123	31	101	1048576	54	6509
2026-01-05 17:33:39.97	279.43	9.60	-38.5	-39.5	22.7	0.00e+00	120	31	101	1048576	54	6336
2026-01-05 17:33:42.00	279.20	9.47	-38.8	-39.8	22.5	0.00e+00	123	31	101	1048576	54	6516
2026-01-05 17:33:44.02	278.97	9.34	-39.1	-40.1	22.2	0.00e+00	123	31	101	1048576	54	6790
2026-01-05 17:33:46.04	278.75	9.21	-39.2	-40.2	22.2	0.00e+00	122	31	101	1048576	54	6853
2026-01-05 17:33:48.06	278.53	9.08	-39.2	-40.2	22.2	0.00e+00	122	31	101	1048576	56	6120
2026-01-05 17:33:50.08	278.30	8.95	-39.1	-40.2	22.2	0.00e+00	122	31	101	1048576	56	6080
2026-01-05 17:33:52.10	278.09	8.82	-38.8	-39.8	22.4	0.00e+00	123	31	101	1048576	56	5854
2026-01-05 17:33:54.12	277.87	8.69	-38.8	-39.8	22.5	0.00e+00	123	31	101	1048576	56	5816
2026-01-05 17:33:56.15	277.65	8.56	-38.9	-39.9	22.4	0.00e+00	122	31	101	1048576	56	5890
2026-01-05 17:33:58.17	277.44	8.43	-38.9	-39.9	22.4	0.00e+00	122	31	101	1048576	56	5889
2026-01-05 17:34:00.19	277.23	8.30	-39.1	-40.1	22.2	0.00e+00	123	31	101	1048576	56	6035
2026-01-05 17:34:02.21	277.02	8.17	-39.2	-40.3	22.0	0.00e+00	120	31	101	1048576	56	6149
2026-01-05 17:34:04.24	276.81	8.04	-39.5	-40.5	21.9	0.00e+00	123	31	101	1048576	56	6335
2026-01-05 17:34:06.26	276.60	7.91	-39.5	-40.6	21.8	0.00e+00	123	31	101	1048576	56	6360
2026-01-05 17:34:08.28	276.40	7.78	-39.5	-40.6	21.8	0.00e+00	122	31	101	1048576	56	6359
2026-01-05 17:34:10.31	276.20	7.65	-39.5	-40.6	21.7	0.00e+00	122	31	101	1048576	56	6384
2026-01-05 17:34:12.33	276.00	7.53	-39.2	-40.2	22.1	0.00e+00	123	31	101	1048576	56	6092
2026-01-05 17:34:14.35	275.80	7.40	-39.1	-40.1	22.1	0.00e+00	121	31	101	1048576	56	6057
2026-01-05 17:34:16.37	275.60	7.27	-38.7	-39.7	22.4	0.00e+00	123	31	101	1048576	56	5760
2026-01-05 17:34:18.39	275.41	7.15	-38.8	-39.8	22.4	0.00e+00	123	31	101	1048576	56	5856
2026-01-05 17:34:20.41	275.22	7.02	-38.8	-39.8	22.3	0.00e+00	123	31	101	1048576	56	5843
2026-01-05 17:34:22.44	275.02	6.89	-38.9	-39.8	22.3	0.00e+00	123	31	101	1048576	56	5857
2026-01-05 17:34:24.46	274.83	6.77	-39.3	-40.4	21.8	0.00e+00	122	31	101	1048576	56	6231
2026-01-05 17:34:26.48	274.65	6.64	-39.7	-40.8	21.5	0.00e+00	122	31	101	1048576	56	6511
2026-01-05 17:34:28.50	274.46	6.52	-39.9	-41.1	21.2	0.00e+00	122	31	101	1048576	56	6745
2026-01-05 17:34:30.53	274.27	6.39	-40.2	-41.4	20.9	0.00e+00	122	31	101	1048576	58	6206
2026-01-05 17:34:32.55	274.09	6.27	-40.2	-41.4	20.9	0.00e+00	122	31	101	1048576	58	6236
2026-01-05 17:34:34.57	273.91	6.14	-40.1	-41.3	21.0	0.00e+00	123	31	101	1048576	58	6161
2026-01-05 17:34:36.59	273.73	6.02	-39.9	-41.0	21.2	0.00e+00	122	31	101	1048576	58	5951
2026-01-05 17:34:38.61	273.55	5.90	-39.7	-40.8	21.4	0.00e+00	123	32	101	1048576	58	5805
2026-01-05 17:34:40.63	273.37	5.77	-39.3	-40.3	21.8	0.00e+00	122	31	101	1048576	58	5530
2026-01-05 17:34:42.65	273.20	5.65	-39.1	-40.1	21.9	0.00e+00	123	31	101	1048576	56	6051
2026-01-05 17:34:44.68	273.02	5.53	-39.0	-40.0	22.0	0.00e+00	120	31	101	1048576	56	5967
2026-01-05 17:34:46.70	272.85	5.40	-38.9	-39.9	22.0	0.00e+00	123	31	101	1048576	56	5921
2026-01-05 17:34:48.72	272.68	5.28	-39.3	-40.3	21.7	0.00e+00	122	31	101	1048576	56	6202
2026-01-05 17:34:50.74	272.51	5.16	-39.5	-40.5	21.5	0.00e+00	122	31	101	1048576	56	6325
2026-01-05 17:34:52.76	272.34	5.04	-39.6	-40.7	21.3	0.00e+00	120	31	101	1048576	56	6445
2026-01-05 17:34:54.79	272.18	4.92	-39.8	-40.9	21.1	0.00e+00	123	32	101	1048576	56	6639
2026-01-05 17:34:56.81	272.01	4.80	-40.0	-41.1	21.0	0.00e+00	123	31	101	1048576	56	6799
2026-01-05 17:34:58.83	271.85	4.68	-40.2	-41.4	20.7	0.00e+00	122	31	101	1048576	58	6245
2026-01-05 17:35:00.85	271.69	4.56	-40.3	-41.5	20.5	0.00e+00	122	31	101	1048576	58	6331
2026-01-05 17:35:02.88	271.52	4.44	-40.5	-41.7	20.4	0.00e+00	120	32	101	1048576	58	6461
2026-01-05 17:35:04.90	271.37	4.32	-40.4	-41.6	20.4	0.00e+00	122	31	101	1048576	58	6410
2026-01-05 17:35:06.92	271.21	4.20	-40.4	-41.6	20.3	0.00e+00	123	31	101	1048576	58	6357
2026-01-05 17:35:08.95	271.05	4.08	-40.4	-41.6	20.4	0.00e+00	123	31	101	1048576	58	6396
2026-01-05 17:35:10.97	270.89	3.96	-40.4	-41.6	20.3	0.00e+00	123	31	101	1048576	58	6382
2026-01-05 17:35:12.99	270.74	3.84	-40.5	-41.7	20.2	0.00e+00	123	31	101	1048576	58	6448
2026-01-05 17:35:15.02	270.59	3.73	-40.0	-41.2	20.6	0.00e+00	122	32	101	1048576	58	6086
2026-01-05 17:35:17.04	270.43	3.61	-40.5	-41.7	20.2	0.00e+00	123	31	101	1048576	58	6464
2026-01-05 17:35:19.06	270.28	3.49	-40.5	-41.7	20.2	0.00e+00	123	32	101	1048576	58	6440
2026-01-05 17:35:21.08	270.14	3.38	-40.5	-41.8	20.0	0.00e+00	121	31	101	1048576	58	6517
2026-01-05 17:35:23.11	269.99	3.26	-40.4	-41.7	20.1	0.00e+00	122	31	101	1048576	58	6427
2026-01-05 17:35:25.13	269.84	3.14	-41.0	-42.3	19.5	0.00e+00	123	31	101	1048576	58	6886
2026-01-05 17:35:27.15	269.69	3.03	-50.4	-63.2	3.5	1.52e+00	0	31	104	1048576	60	68694
2026-01-05 17:35:29.17	269.55	2.91	-51.0	-63.9	3.5	1.52e+00	0	31	104	1048576	60	73961
2026-01-05 17:35:31.19	269.41	2.80	-51.1	-64.1	3.5	1.52e+00	0	31	104	1048576	60	75574
2026-01-05 17:35:33.22	269.26	2.68	-51.1	-64.1	3.5	1.52e+00	0	31	104	1048576	60	75593
2026-01-05 17:35:35.24	269.12	2.57	-51.1	-64.1	3.5	1.52e+00	0	31	104	1048576	60	75634
2026-01-05 17:35:37.26	268.98	2.45	-50.8	-64.0	3.5	1.52e+00	0	31	104	1048576	60	75202
2026-01-05 17:35:39.28	268.85	2.34	-51.1	-63.9	3.5	1.52e+00	0	31	104	1048576	60	74388
2026-01-05 17:35:41.31	268.71	2.22	-51.0	-63.9	3.5	1.51e+00	0	32	104	1048576	60	74207
2026-01-05 17:35:43.33	268.57	2.11	-51.0	-63.9	3.5	1.52e+00	0	32	104	1048576	60	74570
2026-01-05 17:35:45.35	268.44	2.00	-51.0	-63.9	3.5	1.52e+00	0	31	104	1048576	60	74383
2026-01-05 17:35:47.37	268.30	1.88	-51.0	-63.9	3.5	1.52e+00	0	32	104	1048576	60	74513
2026-01-05 17:35:49.40	268.17	1.77	-51.0	-63.9	3.5	1.52e+00	0	32	104	1048576	60	74604
2026-01-05 17:35:51.42	268.04	1.66	-51.0	-63.9	3.5	1.52e+00	0	31	104	1048576	60	74130
2026-01-05 17:35:53.44	267.90	1.55	-51.0	-64.0	3.5	1.52e+00	0	31	104	1048576	60	74664
2026-01-05 17:35:55.46	267.77	1.44	-51.0	-63.9	3.5	1.51e+00	0	32	104	1048576	60	74269
2026-01-05 17:35:57.48	267.65	1.32	-51.0	-63.9	3.5	1.52e+00	0	32	104	1048576	60	74171
2026-01-05 17:35:59.51	267.52	1.21	-51.0	-63.9	3.5	1.52e+00	0	31	104	1048576	60	73925
2026-01-05 17:36:01.53	267.39	1.10	-51.0	-63.9	3.5	1.52e+00	0	31	104	1048576	60	74142
2026-01-05 17:36:03.55	267.26	0.99	-51.0	-63.9	3.5	1.52e+00	0	31	104	1048576	60	74274
2026-01-05 17:36:05.57	267.14	0.88	-51.0	-63.8	3.5	1.52e+00	0	31	104	1048576	60	73730
2026-01-05 17:36:07.60	267.01	0.77	-51.0	-63.9	3.5	1.52e+00	0	31	104	1048576	60	74312
2026-01-05 17:36:09.62	266.89	0.66	-51.0	-63.9	3.5	1.52e+00	0	32	104	1048576	60	74321
2026-01-05 17:36:11.64	266.77	0.55	-51.0	-63.9	3.5	1.52e+00	0	32	104	1048576	60	74283
2026-01-05 17:36:13.67	266.65	0.44	-51.0	-63.9	3.5	1.52e+00	0	32	104	1048576	60	74387
2026-01-05 17:36:15.69	266.53	0.33	-51.0	-63.9	3.5	1.51e+00	0	32	104	1048576	60	74364
2026-01-05 17:36:17.71	266.41	0.22	-51.0	-63.9	3.5	1.52e+00	0	32	104	1048576	60	74191
2026-01-05 17:36:19.74	266.29	0.12	-51.0	-63.9	3.5	1.52e+00	0	32	104	1048576	60	74435
2026-01-05 17:36:21.76	266.17	0.01	-51.0	-63.9	3.5	1.52e+00	0	32	104	1048576	60	73979

#Closed at: 2026-01-05 17:36:23
#Recorded file [1 MB]: D:/lorett/data/35034_260105_202816.dat