passes_logs/2026/01/05/R4.6S_Anadyr_2ch/R4.6S_Anadyr_2ch__20260105_153820_AQUA_rec.log

#Pass ID: 20260105_153820_AQUA
#Satellite: AQUA
#Configuration: AQUA
#almurnet v.1.7.20251203
#Start time: 2026-01-05 15:38:22

#Version: 2.2.20231116
#Station: R4.6S_Anadyr_2ch
#Location: 177.4865 lon 64.73178 lat
#TLE: 1 27424U 02022A   25351.00450321  .00000925  00000+0  19503-3 0  9992
#TLE: 2 27424  98.4041 311.9529 0001248 113.7180 322.1616 14.61819266256652

#Time	Az	El	Level	Level2	SNR	BER	BlckErr	Temp	State	Recorded	gain1	gain2
2026-01-05 15:38:22.88	19.58	0.13	-51.1	-66.1	3.6	1.51e+00	0	26	0	0	60	98844
2026-01-05 15:38:26.93	19.70	0.38	-51.4	-69.2	3.5	3.02e+01	0	28	104	0	60	150542
2026-01-05 15:38:30.97	19.83	0.62	-51.4	-69.3	3.5	3.02e+01	0	28	104	0	60	151776
2026-01-05 15:38:35.02	19.95	0.87	-51.6	-69.4	3.5	3.02e+01	0	28	104	0	60	153913
2026-01-05 15:38:39.06	20.08	1.12	-51.4	-69.2	3.5	3.02e+01	0	28	104	0	60	150038
2026-01-05 15:38:43.11	20.21	1.38	-51.5	-69.4	3.5	3.02e+01	0	28	104	0	60	153149
2026-01-05 15:38:47.15	20.35	1.63	-51.6	-69.5	3.5	3.02e+01	0	28	104	0	60	154138
2026-01-05 15:38:51.19	20.48	1.89	-51.4	-69.3	3.5	3.02e+01	0	28	104	0	60	152025
2026-01-05 15:38:55.24	20.62	2.15	-51.4	-69.3	3.5	3.02e+01	0	28	104	0	60	151653
2026-01-05 15:38:59.28	20.76	2.41	-51.3	-69.2	3.5	3.02e+01	0	28	104	0	60	149713
2026-01-05 15:39:03.32	20.90	2.68	-51.6	-69.5	3.5	3.02e+01	0	28	104	0	60	154651
2026-01-05 15:39:07.37	21.05	2.95	-51.6	-69.4	3.5	3.02e+01	0	29	104	0	60	154068
2026-01-05 15:39:11.42	21.19	3.22	-51.5	-69.4	3.5	3.02e+01	0	29	104	0	60	152583
2026-01-05 15:39:15.46	21.34	3.49	-51.4	-69.3	3.5	3.02e+01	0	28	104	0	60	151378
2026-01-05 15:39:19.50	21.50	3.77	-51.2	-69.2	3.5	3.02e+01	0	29	104	0	60	150399
2026-01-05 15:39:23.55	21.65	4.05	-51.1	-69.0	3.5	3.02e+01	0	29	104	0	60	146732
2026-01-05 15:39:27.59	21.81	4.34	-50.4	-68.3	3.5	3.02e+01	0	29	104	0	60	134782
2026-01-05 15:39:31.64	21.97	4.62	-50.1	-68.0	3.5	3.02e+01	0	29	104	0	60	129768
2026-01-05 15:39:35.68	22.14	4.91	-50.0	-67.9	3.5	3.02e+01	0	29	104	0	60	128316
2026-01-05 15:39:39.73	22.31	5.21	-50.0	-67.7	3.5	3.02e+01	0	29	104	0	60	125783
2026-01-05 15:39:43.77	22.48	5.50	-48.9	-67.7	3.5	3.02e+01	0	29	104	0	60	125455
2026-01-05 15:39:47.82	22.65	5.80	-40.4	-67.4	3.5	3.02e+01	0	29	104	0	60	121203
2026-01-05 15:39:51.86	22.83	6.11	-49.7	-63.0	4.9	3.02e+01	0	29	104	0	60	73183
2026-01-05 15:39:55.90	23.01	6.41	-49.4	-58.0	9.1	3.02e+01	46	29	0	0	60	41175
2026-01-05 15:39:59.95	23.20	6.73	-43.8	-46.0	21.6	3.02e+01	58	29	102	524288	60	10311
2026-01-05 15:40:03.99	23.39	7.04	-41.3	-42.9	24.3	3.02e+01	47	29	102	524288	60	7273
2026-01-05 15:40:08.04	23.58	7.36	-44.6	-55.8	3.6	3.02e+01	0	29	104	524288	60	31917
2026-01-05 15:40:12.08	23.78	7.69	-49.7	-66.4	3.5	3.02e+01	0	29	104	524288	60	108301
2026-01-05 15:40:16.12	23.98	8.01	-47.4	-59.8	3.6	3.02e+01	0	29	104	524288	60	50486
2026-01-05 15:40:20.17	24.19	8.35	-46.0	-57.9	3.4	3.02e+01	0	29	104	524288	60	40833
2026-01-05 15:40:24.21	24.40	8.69	-49.8	-65.7	3.5	3.02e+01	0	29	104	524288	60	99495
2026-01-05 15:40:28.25	24.62	9.03	-41.3	-51.8	3.6	3.02e+01	0	29	104	524288	60	20238
2026-01-05 15:40:32.30	24.84	9.38	-41.3	-51.9	3.5	3.02e+01	0	29	104	524288	60	20321
2026-01-05 15:40:36.34	25.07	9.73	-40.8	-51.3	3.5	3.02e+01	0	29	104	524288	60	19087
2026-01-05 15:40:40.39	25.30	10.09	-50.3	-67.9	3.5	3.02e+01	0	29	104	524288	60	128440
2026-01-05 15:40:44.43	25.54	10.45	-44.1	-55.0	3.5	3.02e+01	0	29	104	524288	60	29348
2026-01-05 15:40:48.48	25.78	10.82	-45.3	-56.5	3.5	3.02e+01	0	29	104	524288	60	34579
2026-01-05 15:40:52.52	26.03	11.20	-40.6	-51.0	3.5	3.02e+01	0	29	104	524288	60	18444
2026-01-05 15:40:56.57	26.29	11.58	-41.4	-51.9	3.5	3.02e+01	0	29	104	524288	60	20385
2026-01-05 15:41:00.61	26.55	11.97	-43.0	-53.7	3.5	3.02e+01	0	29	104	524288	60	25105
2026-01-05 15:41:04.66	26.83	12.36	-39.9	-50.2	3.5	3.02e+01	0	29	104	524288	60	16824
2026-01-05 15:41:08.70	27.10	12.76	-48.1	-60.9	3.5	3.02e+01	0	29	104	524288	60	57628
2026-01-05 15:41:12.74	27.39	13.17	-43.5	-54.3	3.5	3.02e+01	0	29	104	524288	60	26824
2026-01-05 15:41:16.78	27.69	13.58	-46.2	-57.9	3.5	3.02e+01	0	29	104	524288	60	40896
2026-01-05 15:41:20.82	27.99	14.01	-43.6	-54.4	3.5	3.02e+01	0	29	104	524288	60	27169
2026-01-05 15:41:24.86	28.30	14.44	-50.5	-67.0	3.5	3.02e+01	0	29	104	524288	60	116691
2026-01-05 15:41:28.91	28.62	14.88	-39.6	-50.0	3.5	3.02e+01	0	29	104	524288	60	16377
2026-01-05 15:41:32.95	28.95	15.32	-40.4	-50.8	3.5	3.02e+01	0	29	104	524288	60	18090
2026-01-05 15:41:37.00	29.30	15.78	-42.5	-53.3	3.5	3.02e+01	0	29	104	524288	60	23923
2026-01-05 15:41:41.04	29.65	16.24	-38.6	-48.8	3.5	3.02e+01	0	29	104	524288	58	16119
2026-01-05 15:41:45.09	30.01	16.71	-50.1	-66.6	3.5	3.02e+01	0	29	104	524288	60	111521
2026-01-05 15:41:49.13	30.39	17.19	-38.7	-49.0	3.5	3.02e+01	0	29	104	524288	58	16482
2026-01-05 15:41:53.17	30.77	17.68	-42.0	-52.6	3.5	3.02e+01	0	29	104	524288	60	22125
2026-01-05 15:41:57.22	31.18	18.19	-38.4	-48.5	3.5	3.02e+01	0	29	104	524288	58	15580
2026-01-05 15:42:01.26	31.59	18.70	-50.1	-67.0	3.5	3.02e+01	0	29	104	524288	60	116563
2026-01-05 15:42:05.30	32.02	19.22	-41.7	-52.1	3.5	3.02e+01	0	29	104	524288	60	20987
2026-01-05 15:42:09.35	32.46	19.75	-39.9	-50.2	3.5	3.02e+01	0	29	104	524288	58	18764
2026-01-05 15:42:13.39	32.92	20.29	-42.0	-52.6	3.5	3.02e+01	0	29	104	524288	60	22073
2026-01-05 15:42:17.44	33.40	20.85	-38.0	-48.2	3.5	3.02e+01	0	29	104	524288	58	15025
2026-01-05 15:42:21.48	33.90	21.42	-46.6	-58.5	3.5	3.02e+01	0	29	104	524288	60	43825
2026-01-05 15:42:25.52	34.41	21.99	-39.8	-50.1	3.5	3.02e+01	0	29	104	524288	56	20807
2026-01-05 15:42:29.57	34.95	22.59	-39.9	-50.2	3.5	3.02e+01	0	29	104	524288	56	21150
2026-01-05 15:42:33.61	35.50	23.19	-38.6	-48.9	3.5	3.02e+01	0	29	104	524288	58	16228
2026-01-05 15:42:37.65	36.08	23.81	-46.1	-57.7	3.5	3.02e+01	0	29	104	524288	60	39769
2026-01-05 15:42:41.70	36.68	24.44	-42.5	-53.1	3.5	3.02e+01	0	29	104	524288	60	23395
2026-01-05 15:42:45.75	37.31	25.08	-50.9	-68.1	3.5	3.02e+01	0	29	104	524288	60	131174
2026-01-05 15:42:49.79	37.96	25.74	-38.2	-48.4	3.5	3.02e+01	0	29	104	524288	56	17102
2026-01-05 15:42:53.84	38.64	26.42	-38.6	-48.8	3.5	3.02e+01	0	29	104	524288	54	20306
2026-01-05 15:42:57.88	39.35	27.10	-38.8	-49.0	3.5	3.02e+01	0	29	104	524288	60	14686
2026-01-05 15:43:01.92	40.10	27.80	-39.9	-50.3	3.5	3.02e+01	0	29	104	524288	58	19093
2026-01-05 15:43:05.97	40.88	28.52	-50.3	-66.3	3.5	3.02e+01	0	29	104	524288	60	107375
2026-01-05 15:43:10.01	41.69	29.25	-40.4	-50.7	3.5	3.02e+01	0	29	104	524288	60	17863
2026-01-05 15:43:14.06	42.55	30.00	-42.2	-52.9	3.5	3.02e+01	0	29	104	524288	60	22843
2026-01-05 15:43:18.10	43.44	30.75	-37.9	-48.1	3.5	3.02e+01	0	29	104	524288	56	16666
2026-01-05 15:43:22.15	44.38	31.53	-50.7	-66.6	3.5	3.02e+01	0	29	104	524288	60	111358
2026-01-05 15:43:26.19	45.36	32.32	-38.8	-49.0	3.6	3.02e+01	0	29	104	524288	58	16443
2026-01-05 15:43:30.24	46.40	33.12	-39.3	-49.6	3.5	3.02e+01	0	29	104	524288	60	15685
2026-01-05 15:43:34.28	47.49	33.93	-41.5	-51.9	3.6	3.02e+01	0	29	104	524288	60	20463
2026-01-05 15:43:38.33	48.64	34.76	-38.4	-48.6	3.6	3.02e+01	0	29	104	524288	56	17631
2026-01-05 15:43:42.37	49.84	35.59	-49.4	-63.0	3.6	3.02e+01	0	29	104	524288	60	73362
2026-01-05 15:43:46.41	51.11	36.44	-37.9	-48.1	3.5	3.02e+01	0	29	104	524288	56	16557
2026-01-05 15:43:50.46	52.45	37.29	-37.8	-48.0	3.5	3.02e+01	0	29	104	524288	56	16430
2026-01-05 15:43:54.50	53.86	38.15	-38.5	-48.7	3.5	3.02e+01	0	29	104	524288	56	17883
2026-01-05 15:43:58.55	55.35	39.01	-50.5	-67.1	3.5	3.02e+01	0	29	104	524288	60	118034
2026-01-05 15:44:02.59	56.92	39.87	-40.4	-50.8	3.5	3.02e+01	0	29	104	524288	60	17941
2026-01-05 15:44:06.63	58.58	40.73	-48.1	-60.7	3.5	3.02e+01	0	30	104	524288	60	56270
2026-01-05 15:44:10.68	60.33	41.59	-38.3	-48.6	3.5	3.02e+01	0	29	104	524288	56	17536
2026-01-05 15:44:14.72	62.17	42.43	-40.4	-50.8	3.5	3.02e+01	0	29	104	524288	60	18017
2026-01-05 15:44:18.77	64.12	43.27	-39.9	-50.3	3.5	3.02e+01	0	29	104	524288	60	16977
2026-01-05 15:44:22.81	66.16	44.08	-44.6	-55.7	3.5	3.02e+01	0	29	104	524288	60	31760
2026-01-05 15:44:26.85	68.31	44.87	-49.8	-65.4	3.5	3.02e+01	0	29	104	524288	60	96176
2026-01-05 15:44:30.90	70.57	45.63	-42.3	-53.4	3.5	3.02e+01	0	29	104	524288	60	24149
2026-01-05 15:44:34.94	72.94	46.35	-46.0	-57.5	3.5	3.02e+01	0	29	104	524288	60	38790
2026-01-05 15:44:38.99	75.43	47.04	-41.5	-52.2	3.5	3.02e+01	0	30	104	524288	60	21177
2026-01-05 15:44:43.03	78.01	47.67	-50.4	-67.3	3.5	3.02e+01	0	29	104	524288	60	119882
2026-01-05 15:44:47.07	80.70	48.25	-39.4	-49.7	3.5	3.02e+01	0	30	104	524288	58	17835
2026-01-05 15:44:51.12	83.49	48.77	-40.4	-50.7	3.6	3.02e+01	0	29	104	524288	60	17849
2026-01-05 15:44:55.17	86.38	49.22	-42.1	-52.6	3.5	3.02e+01	0	29	104	524288	60	22099
2026-01-05 15:44:59.21	89.33	49.60	-41.1	-51.6	3.5	3.02e+01	0	30	104	524288	60	19656
2026-01-05 15:45:03.26	92.36	49.89	-50.3	-64.9	3.5	3.02e+01	0	29	104	524288	60	91417
2026-01-05 15:45:07.30	95.44	50.11	-39.8	-50.0	3.5	3.02e+01	0	29	104	524288	60	16421
2026-01-05 15:45:11.34	98.55	50.24	-38.1	-48.4	3.5	3.02e+01	0	29	104	524288	60	13578
2026-01-05 15:45:15.39	101.68	50.28	-36.9	-47.1	3.5	3.02e+01	0	29	104	524288	54	16663
2026-01-05 15:45:19.43	104.81	50.24	-51.1	-68.1	3.5	3.02e+01	0	29	104	524288	60	131863
2026-01-05 15:45:23.48	107.93	50.10	-41.0	-51.5	3.5	3.02e+01	0	29	104	524288	60	19475
2026-01-05 15:45:27.52	111.01	49.88	-41.0	-51.3	3.5	3.02e+01	0	29	104	524288	56	23965
2026-01-05 15:45:31.57	114.04	49.58	-39.8	-50.0	3.5	3.02e+01	0	30	104	524288	60	16455
2026-01-05 15:45:35.61	116.99	49.20	-40.0	-50.2	3.5	3.02e+01	0	29	104	524288	58	18931
2026-01-05 15:45:39.66	119.88	48.74	-40.2	-50.6	3.5	3.02e+01	0	29	104	524288	60	17570
2026-01-05 15:45:43.70	122.66	48.22	-48.5	-61.0	3.5	3.02e+01	0	29	104	524288	60	58078
2026-01-05 15:45:47.75	125.36	47.64	-45.7	-56.8	3.5	3.02e+01	0	29	104	524288	60	35951
2026-01-05 15:45:51.79	127.94	47.00	-42.5	-53.2	3.5	3.02e+01	0	29	104	524288	60	23808
2026-01-05 15:45:55.83	130.42	46.31	-42.3	-52.9	3.5	3.02e+01	0	30	104	524288	60	22826
2026-01-05 15:45:59.88	132.79	45.58	-38.3	-48.6	3.5	3.02e+01	0	30	104	524288	56	17661
2026-01-05 15:46:03.92	135.05	44.82	-51.2	-68.3	3.6	3.02e+01	0	29	104	524288	60	135299
2026-01-05 15:46:07.97	137.20	44.02	-38.9	-49.1	3.5	3.02e+01	0	30	104	524288	58	16550
2026-01-05 15:46:12.01	139.25	43.21	-41.9	-52.3	3.5	3.02e+01	0	30	104	524288	60	21433
2026-01-05 15:46:16.06	141.19	42.37	-42.1	-52.5	3.5	3.02e+01	0	29	104	524288	60	21894
2026-01-05 15:46:20.10	143.03	41.52	-39.1	-49.5	3.5	3.02e+01	0	29	104	524288	58	17424
2026-01-05 15:46:24.14	144.78	40.66	-51.0	-67.4	3.5	3.02e+01	0	29	104	524288	60	121344
2026-01-05 15:46:28.19	146.44	39.80	-39.5	-49.6	3.6	3.02e+01	0	29	104	524288	60	15708
2026-01-05 15:46:32.23	148.00	38.93	-44.0	-54.6	3.5	3.02e+01	0	30	104	524288	60	27908
2026-01-05 15:46:36.28	149.49	38.06	-38.9	-49.4	3.5	3.02e+01	0	30	104	524288	58	17192
2026-01-05 15:46:40.32	150.90	37.20	-51.3	-68.7	3.5	3.02e+01	0	29	104	524288	60	141614
2026-01-05 15:46:44.36	152.24	36.35	-40.6	-42.0	26.4	3.02e+01	60	30	0	524288	60	6557
2026-01-05 15:46:48.41	153.51	35.50	-39.3	-40.5	27.6	3.02e+01	58	29	0	524288	58	6204
2026-01-05 15:46:52.45	154.71	34.66	-38.5	-39.7	28.4	3.02e+01	60	29	101	524288	58	5631
2026-01-05 15:46:56.50	155.86	33.83	-37.9	-39.1	29.1	3.02e+01	64	29	101	524288	56	5867
2026-01-05 15:47:00.54	156.95	33.01	-37.8	-39.0	29.1	3.02e+01	59	30	101	524288	56	5849
2026-01-05 15:47:04.58	157.98	32.21	-37.5	-38.7	29.2	3.02e+01	58	29	101	524288	54	6350
2026-01-05 15:47:08.63	158.97	31.42	-37.8	-39.0	29.0	3.02e+01	59	29	101	524288	54	6549
2026-01-05 15:47:12.67	159.90	30.64	-37.7	-38.9	29.1	3.02e+01	58	30	101	524288	54	6482
2026-01-05 15:47:16.72	160.80	29.88	-37.9	-39.2	29.0	3.02e+01	57	29	101	524288	54	6651
2026-01-05 15:47:20.76	161.65	29.13	-37.8	-39.0	29.2	3.02e+01	52	29	101	524288	54	6535
2026-01-05 15:47:24.81	162.46	28.40	-37.9	-39.1	29.0	3.02e+01	59	29	101	524288	54	6591
2026-01-05 15:47:28.85	163.24	27.68	-37.5	-38.7	29.3	3.02e+01	48	30	101	524288	54	6314
2026-01-05 15:47:32.89	163.98	26.98	-37.5	-38.7	29.4	3.02e+01	58	30	101	524288	54	6304
2026-01-05 15:47:36.94	164.69	26.29	-37.1	-38.2	29.6	3.02e+01	53	29	101	524288	54	5979
2026-01-05 15:47:40.98	165.37	25.61	-36.8	-37.9	30.0	3.02e+01	59	29	101	524288	54	5782
2026-01-05 15:47:45.03	166.03	24.95	-36.5	-37.7	30.1	3.02e+01	49	29	101	524288	54	5627
2026-01-05 15:47:49.07	166.65	24.30	-36.3	-37.4	30.2	3.02e+01	59	29	101	524288	52	6125
2026-01-05 15:47:53.12	167.25	23.67	-35.7	-36.8	30.7	3.02e+01	55	29	101	524288	52	5702
2026-01-05 15:47:57.16	167.83	23.05	-35.8	-37.0	30.6	3.02e+01	57	29	101	524288	52	5821
2026-01-05 15:48:01.20	168.38	22.45	-35.8	-37.0	30.7	3.02e+01	44	29	101	524288	52	5812
2026-01-05 15:48:05.25	168.91	21.85	-35.8	-37.0	30.6	3.02e+01	60	29	101	524288	52	5796
2026-01-05 15:48:09.29	169.42	21.27	-35.8	-36.9	30.7	3.02e+01	53	29	101	524288	52	5762
2026-01-05 15:48:13.34	169.92	20.70	-36.0	-37.2	30.5	3.02e+01	59	29	101	524288	52	5947
2026-01-05 15:48:17.38	170.39	20.15	-36.0	-37.2	30.5	3.02e+01	43	29	101	524288	52	5958
2026-01-05 15:48:21.43	170.85	19.60	-36.2	-37.3	30.3	3.02e+01	57	29	101	524288	52	6064
2026-01-05 15:48:25.47	171.30	19.07	-36.5	-37.7	29.9	3.02e+01	59	29	101	524288	52	6303
2026-01-05 15:48:29.52	171.72	18.54	-36.7	-37.8	30.0	3.02e+01	60	29	101	524288	52	6418
2026-01-05 15:48:33.56	172.14	18.03	-36.6	-37.8	29.9	3.02e+01	59	29	101	524288	52	6396
2026-01-05 15:48:37.61	172.53	17.53	-36.8	-37.9	29.9	3.02e+01	57	29	101	524288	52	6492
2026-01-05 15:48:41.65	172.92	17.04	-36.9	-38.1	29.7	3.02e+01	60	29	101	524288	52	6595
2026-01-05 15:48:45.70	173.29	16.55	-37.1	-38.3	29.6	3.02e+01	60	29	101	524288	52	6727
2026-01-05 15:48:49.74	173.65	16.08	-36.7	-37.9	29.9	3.02e+01	57	29	101	524288	52	6439
2026-01-05 15:48:53.78	174.00	15.61	-36.9	-38.1	29.8	3.02e+01	54	29	101	524288	52	6579
2026-01-05 15:48:57.83	174.34	15.16	-37.0	-38.2	29.7	3.02e+01	58	29	101	524288	52	6650
2026-01-05 15:49:01.87	174.67	14.71	-36.6	-37.8	29.9	3.02e+01	61	29	101	524288	52	6397
2026-01-05 15:49:05.91	174.99	14.27	-36.8	-38.0	29.8	3.02e+01	59	29	101	524288	52	6520
2026-01-05 15:49:09.96	175.30	13.84	-36.7	-37.8	29.8	3.02e+01	60	29	101	524288	52	6416
2026-01-05 15:49:14.00	175.60	13.42	-36.5	-37.6	30.0	3.02e+01	57	29	101	524288	52	6259
2026-01-05 15:49:18.05	175.90	13.00	-36.5	-37.7	30.0	3.02e+01	62	29	101	524288	52	6318
2026-01-05 15:49:22.09	176.18	12.59	-36.6	-37.8	29.9	3.02e+01	60	29	101	524288	52	6370
2026-01-05 15:49:26.13	176.46	12.19	-36.6	-37.8	30.0	3.02e+01	46	29	101	524288	52	6355
2026-01-05 15:49:30.18	176.72	11.79	-36.7	-37.9	29.7	3.02e+01	59	29	101	524288	52	6493
2026-01-05 15:49:34.22	176.99	11.41	-37.0	-38.2	29.4	3.02e+01	59	29	101	524288	52	6708
2026-01-05 15:49:38.27	177.24	11.02	-36.8	-38.0	29.6	3.02e+01	58	29	101	524288	52	6547
2026-01-05 15:49:42.31	177.49	10.65	-36.5	-37.7	29.8	3.02e+01	48	29	101	524288	52	6279
2026-01-05 15:49:46.36	177.73	10.28	-36.5	-37.7	29.9	3.02e+01	58	29	101	524288	52	6323
2026-01-05 15:49:50.40	177.97	9.91	-36.7	-37.9	29.7	3.02e+01	50	29	101	524288	52	6431
2026-01-05 15:49:54.45	178.20	9.55	-36.7	-37.9	29.6	3.02e+01	58	29	101	524288	52	6453
2026-01-05 15:49:58.49	178.42	9.20	-36.7	-37.9	29.7	3.02e+01	47	29	101	524288	52	6451
2026-01-05 15:50:02.54	178.64	8.85	-36.9	-38.1	29.4	3.02e+01	60	30	101	524288	52	6638
2026-01-05 15:50:06.58	178.85	8.50	-36.8	-38.0	29.6	3.02e+01	48	29	101	524288	52	6538
2026-01-05 15:50:10.63	179.06	8.17	-36.9	-38.1	29.6	3.02e+01	58	30	101	524288	52	6577
2026-01-05 15:50:14.67	179.27	7.83	-36.8	-38.0	29.6	3.02e+01	44	30	101	524288	52	6567
2026-01-05 15:50:18.72	179.47	7.50	-37.0	-38.2	29.4	3.02e+01	59	30	101	524288	52	6724
2026-01-05 15:50:22.76	179.66	7.18	-37.3	-38.6	29.1	3.02e+01	61	30	101	524288	52	6966
2026-01-05 15:50:26.81	179.85	6.86	-37.2	-38.5	29.2	3.02e+01	53	30	101	524288	52	6884
2026-01-05 15:50:30.85	180.04	6.54	-37.2	-38.4	29.1	3.02e+01	60	30	101	524288	54	6128
2026-01-05 15:50:34.89	180.22	6.23	-37.2	-38.5	29.1	3.02e+01	57	30	101	524288	54	6149
2026-01-05 15:50:38.94	180.40	5.92	-37.4	-38.6	28.9	3.02e+01	58	30	101	524288	54	6246
2026-01-05 15:50:42.99	180.57	5.61	-37.5	-38.7	28.8	3.02e+01	63	29	101	524288	54	6322
2026-01-05 15:50:47.03	180.75	5.31	-37.4	-38.7	28.9	3.02e+01	61	29	101	524288	54	6294
2026-01-05 15:50:51.07	180.91	5.01	-37.5	-38.7	28.8	3.02e+01	60	29	101	524288	54	6318
2026-01-05 15:50:55.12	181.08	4.72	-37.6	-38.9	28.7	3.02e+01	59	29	101	524288	54	6444
2026-01-05 15:50:59.16	181.24	4.43	-37.8	-39.1	28.5	3.02e+01	61	29	101	524288	54	6604
2026-01-05 15:51:03.21	181.40	4.14	-38.2	-39.4	28.2	3.02e+01	58	29	101	524288	54	6864
2026-01-05 15:51:07.25	181.55	3.86	-38.0	-39.3	28.2	3.02e+01	59	29	101	524288	54	6771
2026-01-05 15:51:11.30	181.70	3.58	-38.2	-39.5	28.1	3.02e+01	60	29	101	524288	54	6894
2026-01-05 15:51:15.34	181.85	3.30	-38.2	-39.5	28.0	3.02e+01	59	30	101	524288	54	6931
2026-01-05 15:51:19.38	182.00	3.03	-38.3	-39.6	28.0	3.02e+01	59	30	101	524288	56	6228
2026-01-05 15:51:23.43	182.14	2.75	-38.6	-39.9	27.7	3.02e+01	60	29	101	524288	56	6477
2026-01-05 15:51:27.47	182.28	2.48	-39.0	-40.4	27.3	3.02e+01	61	30	101	524288	56	6841
2026-01-05 15:51:31.52	182.42	2.22	-39.2	-40.6	27.0	3.02e+01	48	29	101	524288	56	6997
2026-01-05 15:51:35.57	182.56	1.95	-38.9	-40.2	27.4	3.02e+01	63	30	101	524288	56	6695
2026-01-05 15:51:39.61	182.69	1.69	-38.9	-40.3	27.2	3.02e+01	60	29	101	524288	56	6753
2026-01-05 15:51:43.65	182.82	1.43	-38.8	-40.1	27.2	3.02e+01	51	29	101	524288	58	5908
2026-01-05 15:51:47.70	182.95	1.18	-39.2	-40.6	26.9	3.02e+01	44	29	101	524288	58	6243
2026-01-05 15:51:51.74	183.08	0.92	-39.5	-40.9	26.4	3.02e+01	61	30	101	524288	58	6493
2026-01-05 15:51:55.79	183.21	0.67	-39.4	-40.9	26.4	3.02e+01	53	30	101	524288	58	6436
2026-01-05 15:51:59.83	183.33	0.42	-39.5	-41.0	26.3	3.02e+01	58	30	101	524288	58	6567
2026-01-05 15:52:03.88	183.45	0.17	-40.1	-41.6	25.5	3.02e+01	44	29	101	524288	58	7007
2026-01-05 15:52:07.92	183.57	-0.07	-39.9	-41.4	25.9	3.02e+01	65	29	101	524288	60	6091

#Closed at: 2026-01-05 15:52:09
#Recorded file [0 MB]: D:/lorett/data/35034_260105_183822.dat