passes_logs/2026/01/05/R4.6S_Anadyr_2ch/R4.6S_Anadyr_2ch__20260105_145234_NOAA_20_JPSS-1_rec.log

#Pass ID: 20260105_145234_NOAA 20 (JPSS-1)
#Satellite: NOAA 20 (JPSS-1)
#Configuration: NOAA 20
#almurnet v.1.7.20251203
#Start time: 2026-01-05 14:52:35

#Version: 2.2.20231116
#Station: R4.6S_Anadyr_2ch
#Location: 177.4865 lon 64.73178 lat
#TLE: 1 43013U 17073A   25350.93759711  .00000080  00000+0  58734-4 0  9994
#TLE: 2 43013  98.7603 287.1885 0002156  81.1496 278.9924 14.19526878418610

#Time	Az	El	Level	Level2	SNR	BER	BlckErr	Temp	State	Recorded	gain1	gain2
2026-01-05 14:52:35.03	20.84	0.04	-51.1	-66.2	3.5	1.51e+00	0	26	0	0	60	99093
2026-01-05 14:52:39.07	20.84	0.28	-51.0	-66.4	3.6	1.51e+00	0	27	104	0	60	102280
2026-01-05 14:52:43.12	20.84	0.52	-51.1	-66.5	3.6	1.51e+00	0	27	104	0	60	103094
2026-01-05 14:52:47.16	20.84	0.77	-50.9	-66.3	3.6	1.51e+00	0	27	104	0	60	100204
2026-01-05 14:52:51.21	20.84	1.02	-50.3	-65.6	3.6	1.51e+00	0	27	104	0	60	93160
2026-01-05 14:52:55.25	20.84	1.27	-49.7	-65.1	3.6	1.51e+00	0	27	104	0	60	87344
2026-01-05 14:52:59.30	20.84	1.52	-49.7	-64.9	3.6	1.51e+00	0	28	104	0	60	85504
2026-01-05 14:53:03.34	20.83	1.78	-49.7	-65.0	3.6	1.51e+00	0	28	104	0	60	87166
2026-01-05 14:53:07.39	20.83	2.03	-49.7	-65.1	3.6	1.51e+00	0	28	104	0	60	87495
2026-01-05 14:53:11.43	20.83	2.29	-49.7	-64.7	3.6	1.51e+00	0	28	104	0	60	83944
2026-01-05 14:53:15.48	20.83	2.56	-49.7	-63.8	3.6	1.51e+00	0	28	104	0	60	75740
2026-01-05 14:53:19.52	20.83	2.82	-49.7	-63.6	3.6	1.51e+00	0	28	104	0	60	73395
2026-01-05 14:53:23.56	20.82	3.09	-48.9	-55.6	7.6	1.34e-01	3	28	102	1048576	60	29522
2026-01-05 14:53:27.61	20.82	3.36	-47.7	-51.9	11.9	7.09e-04	7	28	102	1048576	60	19268
2026-01-05 14:53:31.65	20.81	3.63	-47.9	-52.5	11.3	7.90e-04	92	28	102	1048576	60	20511
2026-01-05 14:53:35.70	20.81	3.90	-47.2	-50.9	12.5	7.00e-07	81	28	102	1048576	60	17109
2026-01-05 14:53:39.74	20.81	4.18	-45.0	-47.2	6.0	1.48e+00	0	28	104	1048576	60	11150
2026-01-05 14:53:43.79	20.80	4.46	-44.3	-46.1	18.2	0.00e+00	0	28	0	1048576	60	9858
2026-01-05 14:53:47.83	20.80	4.74	-44.3	-46.2	18.2	0.00e+00	92	28	0	1048576	60	9914
2026-01-05 14:53:51.87	20.79	5.03	-44.4	-46.3	18.1	0.00e+00	2	28	0	1048576	60	10034
2026-01-05 14:53:55.92	20.78	5.32	-44.2	-46.0	18.4	0.00e+00	0	28	0	1048576	60	9704
2026-01-05 14:53:59.96	20.78	5.61	-44.3	-46.1	18.4	0.00e+00	0	28	101	1048576	60	9860
2026-01-05 14:54:04.00	20.77	5.91	-43.9	-45.6	18.9	0.00e+00	92	28	101	1048576	60	9281
2026-01-05 14:54:08.05	20.76	6.21	-44.0	-45.7	19.0	0.00e+00	0	28	101	1048576	60	9387
2026-01-05 14:54:12.09	20.75	6.51	-43.8	-45.4	19.3	0.00e+00	0	28	101	1048576	60	9041
2026-01-05 14:54:16.14	20.74	6.82	-43.7	-45.3	19.4	0.00e+00	81	28	101	1048576	60	8947
2026-01-05 14:54:20.18	20.73	7.13	-43.6	-45.1	19.6	0.00e+00	92	28	101	1048576	60	8771
2026-01-05 14:54:24.22	20.72	7.44	-43.5	-45.0	19.7	0.00e+00	0	28	101	1048576	60	8662
2026-01-05 14:54:28.27	20.71	7.76	-43.4	-44.9	19.9	0.00e+00	0	28	101	1048576	60	8552
2026-01-05 14:54:32.31	20.70	8.08	-43.5	-45.0	19.9	0.00e+00	0	28	101	1048576	60	8670
2026-01-05 14:54:36.35	20.69	8.41	-43.2	-44.6	20.1	0.00e+00	90	28	101	1048576	60	8314
2026-01-05 14:54:40.40	20.67	8.74	-43.1	-44.5	20.3	0.00e+00	6	28	101	1048576	60	8194
2026-01-05 14:54:44.44	20.66	9.07	-43.0	-44.4	20.5	0.00e+00	0	28	101	1048576	60	8067
2026-01-05 14:54:48.49	20.65	9.41	-43.1	-44.4	20.4	0.00e+00	0	28	101	1048576	60	8097
2026-01-05 14:54:52.53	20.63	9.76	-42.9	-44.2	20.8	0.00e+00	0	28	101	1048576	60	7899
2026-01-05 14:54:56.57	20.62	10.11	-42.8	-44.1	20.9	0.00e+00	84	28	101	1048576	60	7793
2026-01-05 14:55:00.62	20.60	10.46	-42.6	-43.9	21.1	0.00e+00	0	28	101	1048576	60	7599
2026-01-05 14:55:04.66	20.58	10.82	-42.6	-43.8	21.1	0.00e+00	92	28	101	1048576	60	7575
2026-01-05 14:55:08.71	20.56	11.18	-42.3	-43.5	21.4	0.00e+00	82	28	101	1048576	60	7323
2026-01-05 14:55:12.75	20.54	11.55	-42.2	-43.4	21.5	0.00e+00	81	28	101	1048576	60	7237
2026-01-05 14:55:16.80	20.52	11.93	-42.2	-43.3	21.6	0.00e+00	2	28	101	1048576	60	7145
2026-01-05 14:55:20.84	20.50	12.31	-42.1	-43.3	21.6	0.00e+00	92	28	101	1048576	60	7131
2026-01-05 14:55:24.89	20.48	12.70	-42.0	-43.1	21.7	0.00e+00	2	28	101	1048576	60	6977
2026-01-05 14:55:28.93	20.46	13.09	-42.0	-43.1	21.9	0.00e+00	81	28	101	1048576	60	6961
2026-01-05 14:55:32.97	20.43	13.49	-41.8	-42.9	22.0	0.00e+00	82	28	101	1048576	60	6845
2026-01-05 14:55:37.02	20.41	13.90	-41.7	-42.8	22.0	0.00e+00	92	28	101	1048576	60	6749
2026-01-05 14:55:41.06	20.38	14.31	-41.6	-42.7	22.2	0.00e+00	0	28	101	1048576	60	6653
2026-01-05 14:55:45.11	20.35	14.73	-41.6	-42.7	22.4	0.00e+00	0	28	101	1048576	60	6631
2026-01-05 14:55:49.15	20.32	15.16	-41.4	-42.4	22.5	0.00e+00	72	28	101	1048576	60	6441
2026-01-05 14:55:53.20	20.29	15.60	-41.2	-42.3	22.7	0.00e+00	92	28	101	1048576	60	6327
2026-01-05 14:55:57.24	20.26	16.04	-41.1	-42.1	22.8	0.00e+00	0	28	101	1048576	60	6236
2026-01-05 14:56:01.28	20.23	16.49	-41.1	-42.1	22.8	0.00e+00	2	28	101	1048576	60	6228
2026-01-05 14:56:05.33	20.19	16.95	-40.9	-41.9	23.1	0.00e+00	59	28	101	1048576	60	6035
2026-01-05 14:56:09.37	20.16	17.42	-40.7	-41.7	23.3	0.00e+00	0	28	101	1048576	60	5924
2026-01-05 14:56:13.41	20.12	17.90	-40.6	-41.5	23.4	0.00e+00	5	28	101	1048576	60	5811
2026-01-05 14:56:17.46	20.08	18.39	-40.6	-41.5	23.5	0.00e+00	0	28	101	1048576	60	5812
2026-01-05 14:56:21.50	20.03	18.89	-40.5	-41.4	23.6	0.00e+00	92	28	101	1048576	60	5723
2026-01-05 14:56:25.55	19.99	19.40	-40.4	-41.3	23.7	0.00e+00	0	28	101	1048576	60	5665
2026-01-05 14:56:29.59	19.94	19.92	-40.4	-41.3	23.7	0.00e+00	0	28	101	1048576	60	5669
2026-01-05 14:56:33.63	19.90	20.45	-40.4	-41.4	23.6	0.00e+00	0	28	101	1048576	60	5708
2026-01-05 14:56:37.67	19.85	20.99	-40.2	-41.1	23.7	0.00e+00	92	28	101	1048576	60	5559
2026-01-05 14:56:41.72	19.79	21.54	-40.2	-41.2	23.8	0.00e+00	79	28	101	1048576	58	6252
2026-01-05 14:56:45.76	19.74	22.11	-40.2	-41.2	23.8	0.00e+00	0	28	101	1048576	58	6248
2026-01-05 14:56:49.81	19.68	22.68	-40.1	-41.1	23.8	0.00e+00	2	28	101	1048576	58	6176
2026-01-05 14:56:53.85	19.62	23.28	-40.0	-40.9	24.0	0.00e+00	92	28	101	1048576	58	6053
2026-01-05 14:56:57.90	19.55	23.88	-39.8	-40.7	24.1	0.00e+00	79	28	101	1048576	58	5929
2026-01-05 14:57:01.94	19.49	24.50	-39.8	-40.7	24.1	0.00e+00	0	28	101	1048576	58	5945
2026-01-05 14:57:05.99	19.42	25.14	-39.9	-40.7	24.1	0.00e+00	0	28	101	1048576	58	5960
2026-01-05 14:57:10.03	19.34	25.79	-40.1	-41.0	23.9	0.00e+00	92	28	101	1048576	58	6142
2026-01-05 14:57:14.07	19.26	26.45	-40.4	-41.3	23.7	0.00e+00	0	28	101	1048576	58	6353
2026-01-05 14:57:18.12	19.18	27.14	-40.7	-41.7	23.4	0.00e+00	5	28	101	1048576	58	6619
2026-01-05 14:57:22.17	19.09	27.84	-41.3	-42.3	22.9	0.00e+00	92	28	101	1048576	60	6325
2026-01-05 14:57:26.21	19.00	28.56	-42.1	-43.1	22.2	0.00e+00	16	28	101	1048576	60	7007
2026-01-05 14:57:30.25	18.91	29.30	-42.6	-43.8	21.3	0.00e+00	0	28	101	1048576	60	7538
2026-01-05 14:57:34.30	18.80	30.06	-43.5	-44.8	20.6	0.00e+00	78	28	101	1048576	60	8500
2026-01-05 14:57:38.34	18.70	30.84	-44.1	-45.5	19.9	0.00e+00	92	28	101	1048576	60	9220
2026-01-05 14:57:42.39	18.58	31.64	-44.1	-45.6	19.9	0.00e+00	0	28	101	1048576	60	9271
2026-01-05 14:57:46.43	18.46	32.46	-43.5	-44.8	20.6	0.00e+00	0	28	101	1048576	60	8481
2026-01-05 14:57:50.47	18.34	33.30	-42.4	-43.6	21.7	0.00e+00	8	28	101	1048576	60	7346
2026-01-05 14:57:54.52	18.20	34.17	-41.3	-42.3	22.9	0.00e+00	92	28	101	1048576	60	6325
2026-01-05 14:57:58.56	18.06	35.07	-40.3	-41.2	23.9	0.00e+00	82	28	101	1048576	60	5582
2026-01-05 14:58:02.61	17.90	35.99	-39.6	-40.4	24.6	0.00e+00	6	28	101	1048576	58	5731
2026-01-05 14:58:06.65	17.74	36.93	-39.0	-39.8	25.1	0.00e+00	0	28	101	1048576	56	5998
2026-01-05 14:58:10.70	17.57	37.91	-38.8	-39.6	25.2	0.00e+00	92	28	101	1048576	56	5883
2026-01-05 14:58:14.74	17.38	38.91	-39.3	-40.1	24.8	0.00e+00	0	28	101	1048576	56	6208
2026-01-05 14:58:18.79	17.19	39.95	-39.8	-40.6	24.4	0.00e+00	75	28	101	1048576	56	6602
2026-01-05 14:58:22.83	16.97	41.01	-40.1	-41.0	24.1	0.00e+00	0	28	101	1048576	58	6141
2026-01-05 14:58:26.87	16.74	42.11	-40.2	-41.1	24.0	0.00e+00	43	28	101	1048576	58	6214
2026-01-05 14:58:30.92	16.50	43.24	-40.3	-41.2	23.9	0.00e+00	5	28	101	1048576	58	6254
2026-01-05 14:58:34.96	16.23	44.40	-40.8	-41.8	23.4	0.00e+00	0	28	101	1048576	58	6711
2026-01-05 14:58:39.01	15.95	45.60	-42.6	-43.7	21.6	0.00e+00	92	28	101	1048576	60	7496
2026-01-05 14:58:43.05	15.64	46.84	-43.9	-45.3	20.3	0.00e+00	0	28	101	1048576	60	8952
2026-01-05 14:58:47.10	15.30	48.11	-43.4	-44.7	20.7	0.00e+00	6	28	101	1048576	60	8330
2026-01-05 14:58:51.14	14.93	49.42	-42.4	-43.5	21.9	0.00e+00	0	28	101	1048576	60	7295
2026-01-05 14:58:55.18	14.53	50.76	-40.4	-41.4	23.8	0.00e+00	92	29	101	1048576	60	5709
2026-01-05 14:58:59.23	14.08	52.15	-38.8	-39.6	25.2	0.00e+00	0	28	101	1048576	56	5851
2026-01-05 14:59:03.27	13.59	53.57	-38.8	-39.6	25.1	0.00e+00	4	29	101	1048576	56	5832
2026-01-05 14:59:07.31	13.05	55.03	-39.4	-40.2	24.7	0.00e+00	0	28	101	1048576	56	6273
2026-01-05 14:59:11.36	12.45	56.53	-41.5	-42.6	22.5	0.00e+00	92	28	101	1048576	60	6560
2026-01-05 14:59:15.40	11.77	58.07	-43.8	-45.2	20.1	0.00e+00	5	28	101	1048576	60	8897
2026-01-05 14:59:19.44	11.01	59.64	-42.7	-44.0	21.4	0.00e+00	5	28	101	1048576	60	7695
2026-01-05 14:59:23.49	10.15	61.26	-40.7	-41.6	23.4	0.00e+00	0	28	101	1048576	60	5884
2026-01-05 14:59:27.53	9.17	62.90	-39.1	-39.9	24.9	0.00e+00	92	28	101	1048576	58	5432
2026-01-05 14:59:31.58	8.03	64.58	-39.5	-40.3	24.6	0.00e+00	81	28	101	1048576	56	6357
2026-01-05 14:59:35.62	6.71	66.28	-40.8	-41.8	23.2	0.00e+00	0	28	101	1048576	58	6740
2026-01-05 14:59:39.67	5.16	68.01	-40.7	-41.6	23.4	0.00e+00	0	29	101	1048576	58	6593
2026-01-05 14:59:43.71	3.32	69.75	-40.2	-41.1	22.9	0.00e+00	37	28	101	1048576	58	6199
2026-01-05 14:59:47.76	1.10	71.51	-40.7	-41.7	23.5	0.00e+00	0	28	101	1048576	58	6659
2026-01-05 14:59:51.80	358.38	73.25	-40.9	-41.9	23.1	0.00e+00	0	28	101	1048576	58	6806
2026-01-05 14:59:55.85	354.99	74.99	-41.4	-42.5	22.6	0.00e+00	90	29	101	1048576	60	6485
2026-01-05 14:59:59.89	350.69	76.67	-42.3	-43.4	21.7	0.00e+00	74	29	101	1048576	60	7252
2026-01-05 15:00:03.94	345.12	78.29	-40.7	-41.7	23.5	0.00e+00	8	28	101	1048576	60	5907
2026-01-05 15:00:07.98	337.82	79.77	-39.3	-40.1	24.8	0.00e+00	79	28	101	1048576	58	5555
2026-01-05 15:00:12.02	328.21	81.04	-40.1	-41.0	23.7	0.00e+00	91	28	101	1048576	58	6156
2026-01-05 15:00:16.07	315.81	82.00	-43.2	-44.5	20.8	0.00e+00	0	28	101	1048576	60	8201
2026-01-05 15:00:20.11	300.94	82.50	-43.2	-44.4	20.9	0.00e+00	7	28	101	1048576	60	8121
2026-01-05 15:00:24.16	285.12	82.45	-43.4	-44.7	20.9	0.00e+00	0	28	101	1048576	60	8349
2026-01-05 15:00:28.20	270.61	81.86	-42.3	-43.5	21.8	0.00e+00	92	28	101	1048576	60	7266
2026-01-05 15:00:32.25	258.69	80.84	-40.4	-41.3	23.6	0.00e+00	0	28	101	1048576	60	5646
2026-01-05 15:00:36.29	249.51	79.52	-40.2	-41.1	23.9	0.00e+00	79	28	101	1048576	58	6228
2026-01-05 15:00:40.33	242.55	78.01	-43.2	-44.5	20.7	0.00e+00	4	28	101	1048576	60	8178
2026-01-05 15:00:44.38	237.23	76.38	-40.4	-41.3	23.8	0.00e+00	92	28	101	1048576	60	5660
2026-01-05 15:00:48.42	233.11	74.69	-41.3	-42.3	22.8	0.00e+00	0	28	101	1048576	60	6363
2026-01-05 15:00:52.47	229.84	72.95	-39.5	-40.3	24.6	0.00e+00	5	28	101	1048576	58	5672
2026-01-05 15:00:56.51	227.22	71.20	-38.4	-39.2	25.4	0.00e+00	23	28	101	1048576	54	6247
2026-01-05 15:01:00.56	225.07	69.44	-41.6	-42.7	22.5	0.00e+00	92	28	101	1048576	60	6648
2026-01-05 15:01:04.60	223.29	67.70	-43.0	-44.2	20.9	0.00e+00	6	28	101	1048576	60	7925
2026-01-05 15:01:08.65	221.78	65.97	-43.0	-44.3	21.1	0.00e+00	1	28	101	1048576	60	7982
2026-01-05 15:01:12.69	220.49	64.27	-38.9	-39.7	25.1	0.00e+00	92	28	101	1048576	56	5913
2026-01-05 15:01:16.73	219.39	62.59	-38.9	-39.7	25.1	0.00e+00	8	28	101	1048576	56	5956
2026-01-05 15:01:20.78	218.43	60.95	-39.6	-40.5	24.4	0.00e+00	73	29	101	1048576	56	6501
2026-01-05 15:01:24.82	217.58	59.34	-42.9	-44.2	21.2	0.00e+00	0	28	101	1048576	60	7906
2026-01-05 15:01:28.87	216.84	57.77	-42.2	-43.3	21.9	0.00e+00	90	28	101	1048576	60	7140
2026-01-05 15:01:32.92	216.17	56.23	-41.1	-42.0	23.2	0.00e+00	76	28	101	1048576	60	6168
2026-01-05 15:01:36.96	215.58	54.73	-37.9	-38.7	25.8	0.00e+00	81	28	101	1048576	54	5915
2026-01-05 15:01:41.01	215.05	53.27	-39.0	-39.8	25.0	0.00e+00	0	28	101	1048576	54	6745
2026-01-05 15:01:45.05	214.56	51.85	-39.3	-40.1	24.7	0.00e+00	92	28	101	1048576	56	6198
2026-01-05 15:01:49.10	214.13	50.47	-42.5	-43.6	21.7	0.00e+00	73	28	101	1048576	60	7406
2026-01-05 15:01:53.15	213.73	49.13	-43.5	-44.9	20.5	0.00e+00	82	28	101	1048576	60	8535
2026-01-05 15:01:57.19	213.37	47.82	-44.7	-46.3	19.2	0.00e+00	88	28	101	1048576	60	10123
2026-01-05 15:02:01.24	213.03	46.55	-43.1	-44.3	21.1	0.00e+00	92	28	101	1048576	60	8045
2026-01-05 15:02:05.28	212.72	45.32	-42.4	-43.5	21.9	0.00e+00	5	28	101	1048576	60	7286
2026-01-05 15:02:09.33	212.44	44.13	-43.8	-45.2	20.2	0.00e+00	82	28	101	1048576	60	8877
2026-01-05 15:02:13.37	212.18	42.97	-42.4	-43.5	22.0	0.00e+00	92	28	101	1048576	60	7308
2026-01-05 15:02:17.41	211.93	41.84	-42.4	-43.5	21.8	0.00e+00	4	28	101	1048576	60	7315
2026-01-05 15:02:21.46	211.71	40.75	-43.7	-45.1	20.6	0.00e+00	5	28	101	1048576	60	8734
2026-01-05 15:02:25.50	211.50	39.69	-43.3	-44.5	20.9	0.00e+00	1	28	101	1048576	60	8220
2026-01-05 15:02:29.55	211.30	38.65	-42.4	-43.6	21.7	0.00e+00	90	28	101	1048576	60	7350
2026-01-05 15:02:33.59	211.12	37.65	-42.6	-43.8	21.5	0.00e+00	7	28	101	1048576	60	7511
2026-01-05 15:02:37.64	210.94	36.68	-42.2	-43.3	22.1	0.00e+00	0	28	101	1048576	60	7117
2026-01-05 15:02:41.68	210.78	35.73	-41.9	-43.0	22.3	0.00e+00	6	28	101	1048576	60	6895
2026-01-05 15:02:45.72	210.63	34.82	-41.7	-42.8	22.4	0.00e+00	92	28	101	1048576	60	6708
2026-01-05 15:02:49.77	210.48	33.92	-41.4	-42.4	22.9	0.00e+00	78	28	101	1048576	60	6404
2026-01-05 15:02:53.81	210.35	33.06	-42.5	-43.7	21.5	0.00e+00	0	28	101	1048576	60	7478
2026-01-05 15:02:57.86	210.22	32.21	-43.3	-44.6	20.8	0.00e+00	0	28	101	1048576	60	8324
2026-01-05 15:03:01.90	210.10	31.39	-42.8	-44.0	21.3	0.00e+00	92	28	101	1048576	60	7705
2026-01-05 15:03:05.95	209.99	30.59	-42.2	-43.3	22.0	0.00e+00	0	29	101	1048576	60	7131
2026-01-05 15:03:09.99	209.88	29.82	-41.9	-43.0	22.3	0.00e+00	0	28	101	1048576	60	6890
2026-01-05 15:03:14.04	209.78	29.06	-42.3	-43.4	21.9	0.00e+00	5	28	101	1048576	60	7234
2026-01-05 15:03:18.08	209.68	28.32	-42.6	-43.8	21.5	0.00e+00	92	28	101	1048576	60	7570
2026-01-05 15:03:22.12	209.59	27.61	-42.2	-43.3	21.9	0.00e+00	0	28	101	1048576	60	7165
2026-01-05 15:03:26.17	209.50	26.91	-41.9	-42.9	22.3	0.00e+00	78	28	101	1048576	60	6845
2026-01-05 15:03:30.21	209.42	26.23	-41.6	-42.6	22.6	0.00e+00	90	28	101	1048576	60	6602
2026-01-05 15:03:34.26	209.34	25.56	-41.2	-42.2	22.9	0.00e+00	0	28	101	1048576	60	6282
2026-01-05 15:03:38.30	209.26	24.91	-41.1	-42.1	22.9	0.00e+00	0	28	101	1048576	60	6234
2026-01-05 15:03:42.35	209.19	24.28	-41.1	-42.1	23.1	0.00e+00	82	28	101	1048576	60	6181
2026-01-05 15:03:46.39	209.12	23.66	-41.2	-42.2	23.0	0.00e+00	91	28	101	1048576	60	6293
2026-01-05 15:03:50.43	209.06	23.05	-41.2	-42.2	22.9	0.00e+00	0	28	101	1048576	60	6297
2026-01-05 15:03:54.48	208.99	22.46	-41.1	-42.1	23.1	0.00e+00	6	28	101	1048576	60	6198
2026-01-05 15:03:58.52	208.93	21.89	-41.1	-42.1	23.0	0.00e+00	0	28	101	1048576	60	6236
2026-01-05 15:04:02.56	208.88	21.32	-41.1	-42.1	23.0	0.00e+00	92	28	101	1048576	60	6208
2026-01-05 15:04:06.61	208.82	20.77	-41.5	-42.6	22.6	0.00e+00	0	28	101	1048576	60	6551
2026-01-05 15:04:10.65	208.77	20.23	-41.7	-42.8	22.3	0.00e+00	0	28	101	1048576	60	6718
2026-01-05 15:04:14.70	208.72	19.70	-41.9	-43.0	22.2	0.00e+00	0	28	101	1048576	60	6902
2026-01-05 15:04:18.74	208.67	19.18	-41.7	-42.8	22.3	0.00e+00	90	28	101	1048576	60	6703
2026-01-05 15:04:22.79	208.63	18.67	-41.9	-43.0	22.2	0.00e+00	0	28	101	1048576	60	6862
2026-01-05 15:04:26.83	208.58	18.18	-42.2	-43.3	21.9	0.00e+00	0	28	101	1048576	60	7149
2026-01-05 15:04:30.87	208.54	17.69	-42.4	-43.6	21.6	0.00e+00	37	28	101	1048576	60	7352
2026-01-05 15:04:34.92	208.50	17.21	-42.8	-44.0	21.2	0.00e+00	92	28	101	1048576	60	7756
2026-01-05 15:04:38.96	208.46	16.74	-42.8	-44.1	21.2	0.00e+00	82	28	101	1048576	60	7775
2026-01-05 15:04:43.01	208.42	16.28	-43.0	-44.3	20.8	0.00e+00	0	28	101	1048576	60	8004
2026-01-05 15:04:47.05	208.39	15.83	-43.0	-44.3	20.9	0.00e+00	92	28	101	1048576	60	8008
2026-01-05 15:04:51.10	208.36	15.39	-43.0	-44.2	21.0	0.00e+00	0	28	101	1048576	60	7934
2026-01-05 15:04:55.14	208.32	14.95	-42.8	-44.1	21.1	0.00e+00	82	28	101	1048576	60	7806
2026-01-05 15:04:59.19	208.29	14.52	-43.0	-44.2	21.0	0.00e+00	0	28	101	1048576	60	7930
2026-01-05 15:05:03.23	208.26	14.10	-42.7	-43.9	21.3	0.00e+00	92	28	101	1048576	60	7624
2026-01-05 15:05:07.28	208.23	13.69	-42.6	-43.8	21.3	0.00e+00	0	28	101	1048576	60	7539
2026-01-05 15:05:11.32	208.20	13.28	-42.5	-43.7	21.4	0.00e+00	0	28	101	1048576	60	7429
2026-01-05 15:05:15.36	208.18	12.88	-42.7	-43.9	21.2	0.00e+00	0	28	101	1048576	60	7638
2026-01-05 15:05:19.41	208.15	12.49	-42.6	-43.7	21.3	0.00e+00	90	28	101	1048576	60	7499
2026-01-05 15:05:23.45	208.13	12.10	-42.6	-43.8	21.3	0.00e+00	5	28	101	1048576	60	7521
2026-01-05 15:05:27.49	208.10	11.72	-42.7	-43.9	21.1	0.00e+00	85	28	101	1048576	60	7654
2026-01-05 15:05:31.54	208.08	11.35	-42.8	-44.1	20.9	0.00e+00	0	28	101	1048576	60	7803
2026-01-05 15:05:35.58	208.06	10.98	-43.0	-44.3	20.7	0.00e+00	92	28	101	1048576	60	7986
2026-01-05 15:05:39.63	208.04	10.61	-43.2	-44.5	20.5	0.00e+00	8	28	101	1048576	60	8228
2026-01-05 15:05:43.67	208.02	10.26	-43.2	-44.6	20.5	0.00e+00	0	28	101	1048576	60	8252
2026-01-05 15:05:47.72	208.00	9.90	-43.4	-44.8	20.1	0.00e+00	87	28	101	1048576	60	8511
2026-01-05 15:05:51.76	207.98	9.55	-43.5	-44.9	20.1	0.00e+00	92	28	101	1048576	60	8586
2026-01-05 15:05:55.80	207.96	9.21	-43.6	-45.1	19.9	0.00e+00	0	28	101	1048576	60	8773
2026-01-05 15:05:59.85	207.94	8.87	-43.6	-45.1	19.8	0.00e+00	0	28	101	1048576	60	8757
2026-01-05 15:06:03.89	207.93	8.54	-43.7	-45.2	19.7	0.00e+00	90	28	101	1048576	60	8885
2026-01-05 15:06:07.93	207.91	8.21	-43.5	-45.0	20.0	0.00e+00	92	28	101	1048576	60	8652
2026-01-05 15:06:11.98	207.89	7.88	-43.5	-45.0	19.7	0.00e+00	82	28	101	1048576	60	8693
2026-01-05 15:06:16.02	207.88	7.56	-43.5	-45.0	19.7	0.00e+00	0	28	101	1048576	60	8672
2026-01-05 15:06:20.07	207.87	7.24	-44.0	-45.6	19.3	0.00e+00	90	28	101	1048576	60	9274
2026-01-05 15:06:24.11	207.85	6.93	-43.5	-45.0	19.7	0.00e+00	0	28	101	1048576	60	8623
2026-01-05 15:06:28.15	207.84	6.62	-43.5	-44.9	19.7	0.00e+00	0	28	101	1048576	60	8616
2026-01-05 15:06:32.20	207.83	6.31	-43.6	-45.0	19.6	0.00e+00	0	28	101	1048576	60	8713
2026-01-05 15:06:36.24	207.81	6.01	-43.6	-45.1	19.6	0.00e+00	92	29	101	1048576	60	8741
2026-01-05 15:06:40.29	207.80	5.71	-43.5	-45.0	19.7	0.00e+00	2	28	101	1048576	60	8628
2026-01-05 15:06:44.33	207.79	5.41	-43.4	-44.9	19.7	0.00e+00	0	29	101	1048576	60	8551
2026-01-05 15:06:48.38	207.78	5.12	-43.7	-45.3	19.2	0.00e+00	61	28	101	1048576	60	8971
2026-01-05 15:06:52.42	207.77	4.83	-43.7	-45.3	19.2	0.00e+00	92	28	101	1048576	60	9006
2026-01-05 15:06:56.46	207.76	4.54	-44.0	-45.7	18.9	0.00e+00	6	28	101	1048576	60	9355
2026-01-05 15:07:00.51	207.75	4.26	-43.9	-45.6	18.8	0.00e+00	0	28	101	1048576	60	9263
2026-01-05 15:07:04.55	207.74	3.98	-43.6	-45.2	19.2	0.00e+00	84	28	101	1048576	60	8844
2026-01-05 15:07:08.60	207.74	3.70	-43.9	-45.6	18.7	0.00e+00	92	28	101	1048576	60	9273
2026-01-05 15:07:12.65	207.73	3.43	-43.7	-45.4	18.5	0.00e+00	6	28	101	1048576	60	9086
2026-01-05 15:07:16.69	207.72	3.16	-44.5	-46.4	17.7	0.00e+00	0	28	101	1048576	60	10209
2026-01-05 15:07:20.74	207.71	2.89	-50.8	-66.2	3.6	1.51e+00	0	29	104	1048576	60	99648
2026-01-05 15:07:24.78	207.71	2.62	-51.1	-66.6	3.6	1.51e+00	0	28	104	1048576	60	103680
2026-01-05 15:07:28.82	207.70	2.36	-50.8	-66.5	3.6	1.51e+00	0	29	104	1048576	60	103626
2026-01-05 15:07:32.87	207.69	2.09	-51.0	-66.4	3.6	1.51e+00	0	29	104	1048576	60	102140
2026-01-05 15:07:36.91	207.69	1.83	-51.1	-66.4	3.6	1.51e+00	0	29	104	1048576	60	102059
2026-01-05 15:07:40.96	207.68	1.58	-51.1	-66.5	3.6	1.51e+00	0	29	104	1048576	60	102846
2026-01-05 15:07:45.00	207.68	1.32	-51.1	-66.5	3.6	1.51e+00	0	29	104	1048576	60	102486
2026-01-05 15:07:49.04	207.67	1.07	-51.1	-66.4	3.6	1.51e+00	0	29	104	1048576	60	102139
2026-01-05 15:07:53.09	207.67	0.82	-51.1	-66.5	3.6	1.51e+00	0	29	104	1048576	60	103162
2026-01-05 15:07:57.13	207.66	0.57	-51.1	-66.5	3.6	1.51e+00	0	29	104	1048576	60	102539
2026-01-05 15:08:01.18	207.66	0.32	-51.1	-66.4	3.6	1.51e+00	0	29	104	1048576	60	102013
2026-01-05 15:08:05.23	207.65	0.08	-51.1	-66.5	3.6	1.51e+00	0	29	104	1048576	60	102515

#Closed at: 2026-01-05 15:08:09
#Recorded file [1 MB]: D:/lorett/data/35034_260105_175235.dat