passes_logs/2026/01/05/R4.6S_Anadyr_2ch/R4.6S_Anadyr_2ch__20260105_014638_FENGYUN_3D_rec.log

#Pass ID: 20260105_014638_FENGYUN 3D
#Satellite: FENGYUN 3D
#Configuration: FENGYUN 3D
#almurnet v.1.7.20251203
#Start time: 2026-01-05 01:46:40

#Version: 2.2.20231116
#Station: R4.6S_Anadyr_2ch
#Location: 177.4865 lon 64.73178 lat
#TLE: 1 43010U 17072A   25350.96693137  .00000321  00000+0  17364-3 0  9993
#TLE: 2 43010  98.9888 317.3403 0001146 169.6565 190.4634 14.19686173419132

#Time	Az	El	Level	Level2	SNR	BER	BlckErr	Temp	State	Recorded	gain1	gain2
2026-01-05 01:46:40.24	144.72	0.09	-51.8	-66.9	3.5	1.51e+00	0	25	0	0	60	108149
2026-01-05 01:46:44.28	144.68	0.33	-52.8	-65.1	3.6	8.45e-01	0	26	104	0	60	87724
2026-01-05 01:46:48.33	144.65	0.58	-51.6	-63.9	3.6	8.46e-01	0	26	104	0	60	76276
2026-01-05 01:46:52.37	144.61	0.82	-51.3	-63.7	3.5	8.46e-01	0	26	104	0	60	74692
2026-01-05 01:46:56.41	144.57	1.07	-51.1	-63.4	3.6	8.46e-01	0	26	104	0	60	72219
2026-01-05 01:47:00.45	144.53	1.33	-50.4	-62.8	3.6	8.46e-01	0	26	104	0	60	67309
2026-01-05 01:47:04.49	144.49	1.58	-49.5	-61.8	3.6	8.44e-01	0	26	104	0	60	59841
2026-01-05 01:47:08.54	144.44	1.84	-49.4	-61.6	3.6	8.46e-01	0	26	104	0	60	58711
2026-01-05 01:47:12.58	144.40	2.09	-49.3	-61.7	3.6	8.47e-01	0	26	104	0	60	59009
2026-01-05 01:47:16.63	144.36	2.36	-49.3	-61.5	3.6	8.46e-01	0	27	104	0	60	57817
2026-01-05 01:47:20.67	144.31	2.62	-49.3	-61.6	3.6	8.46e-01	0	27	104	0	60	58521
2026-01-05 01:47:24.71	144.27	2.89	-49.2	-61.6	3.6	8.46e-01	0	26	104	0	60	58337
2026-01-05 01:47:28.76	144.22	3.15	-49.4	-61.8	3.6	8.46e-01	0	26	104	0	60	59686
2026-01-05 01:47:32.80	144.17	3.43	-49.1	-59.7	3.6	8.45e-01	0	27	104	0	60	46855
2026-01-05 01:47:36.84	144.12	3.70	-47.5	-51.5	8.7	7.63e-02	0	27	0	11534336	60	18375
2026-01-05 01:47:40.89	144.07	3.98	-45.0	-47.2	13.4	3.66e-05	0	27	0	33554432	60	11202
2026-01-05 01:47:44.93	144.02	4.26	-43.0	-44.5	16.5	0.00e+00	0	27	0	56623104	60	8159
2026-01-05 01:47:48.98	143.97	4.54	-41.3	-42.5	18.3	0.00e+00	0	27	0	77594624	60	6511
2026-01-05 01:47:53.02	143.92	4.82	-40.8	-42.0	19.0	0.00e+00	0	27	0	93323264	60	6109
2026-01-05 01:47:57.06	143.86	5.11	-40.7	-41.7	19.7	0.00e+00	0	27	0	115343360	60	5935
2026-01-05 01:48:01.11	143.80	5.40	-39.7	-40.7	20.4	0.00e+00	0	27	0	138412032	58	5940
2026-01-05 01:48:05.15	143.75	5.70	-39.6	-40.6	20.5	0.00e+00	0	27	0	161480704	58	5873
2026-01-05 01:48:09.20	143.69	6.00	-39.7	-40.6	20.5	0.00e+00	0	27	0	183500800	58	5884
2026-01-05 01:48:13.24	143.63	6.30	-39.4	-40.3	20.8	0.00e+00	0	27	0	206569472	56	6354
2026-01-05 01:48:17.28	143.56	6.60	-39.2	-40.2	21.0	0.00e+00	0	27	0	229638144	56	6261
2026-01-05 01:48:21.33	143.50	6.91	-39.1	-39.9	21.4	0.00e+00	0	27	0	252706816	56	6102
2026-01-05 01:48:25.37	143.43	7.22	-38.9	-39.8	21.3	0.00e+00	0	27	0	274726912	56	5994
2026-01-05 01:48:29.42	143.37	7.54	-38.8	-39.6	21.7	0.00e+00	0	27	0	297795584	56	5891
2026-01-05 01:48:33.46	143.30	7.86	-38.7	-39.5	21.9	0.00e+00	0	27	0	320864256	56	5793
2026-01-05 01:48:37.51	143.23	8.19	-38.4	-39.2	22.2	0.00e+00	0	27	0	342884352	56	5617
2026-01-05 01:48:41.55	143.15	8.51	-38.0	-38.8	22.4	0.00e+00	0	27	0	365953024	54	6004
2026-01-05 01:48:45.59	143.08	8.85	-37.9	-38.6	22.7	0.00e+00	0	27	0	389021696	54	5895
2026-01-05 01:48:49.64	143.00	9.18	-38.2	-39.0	22.7	0.00e+00	0	27	0	411041792	54	6111
2026-01-05 01:48:53.68	142.92	9.52	-37.6	-38.4	23.1	0.00e+00	0	27	0	434110464	54	5725
2026-01-05 01:48:57.73	142.84	9.87	-37.6	-38.4	23.0	0.00e+00	0	27	0	457179136	54	5721
2026-01-05 01:49:01.77	142.76	10.22	-37.3	-38.0	23.1	0.00e+00	0	27	0	480247808	54	5502
2026-01-05 01:49:05.81	142.67	10.58	-37.3	-38.1	23.1	0.00e+00	0	27	0	502267904	54	5542
2026-01-05 01:49:09.86	142.58	10.94	-37.4	-38.1	23.1	0.00e+00	0	27	0	525336576	54	5541
2026-01-05 01:49:13.90	142.49	11.31	-37.6	-38.4	22.6	0.00e+00	0	27	0	547356672	54	5725
2026-01-05 01:49:17.94	142.40	11.68	-37.3	-38.0	22.9	0.00e+00	0	27	0	570425344	54	5500
2026-01-05 01:49:21.98	142.30	12.06	-37.5	-38.3	22.9	0.00e+00	0	27	0	593494016	54	5677
2026-01-05 01:49:26.03	142.21	12.44	-37.5	-38.2	23.1	0.00e+00	0	27	0	616562688	54	5624
2026-01-05 01:49:30.07	142.10	12.83	-37.6	-38.3	23.0	0.00e+00	0	27	0	638582784	52	6379
2026-01-05 01:49:34.11	142.00	13.22	-37.0	-37.7	23.8	0.00e+00	0	27	0	661651456	52	5955
2026-01-05 01:49:38.16	141.89	13.63	-36.9	-37.7	24.2	0.00e+00	0	27	0	684720128	52	5900
2026-01-05 01:49:42.20	141.78	14.04	-36.2	-36.9	24.6	0.00e+00	0	27	0	706740224	52	5401
2026-01-05 01:49:46.25	141.66	14.45	-36.6	-37.3	24.9	0.00e+00	0	27	0	729808896	50	6352
2026-01-05 01:49:50.29	141.55	14.88	-36.5	-37.1	25.0	0.00e+00	0	27	0	752877568	50	6234
2026-01-05 01:49:54.33	141.42	15.31	-35.4	-36.0	25.6	0.00e+00	0	27	0	774897664	50	5493
2026-01-05 01:49:58.38	141.30	15.74	-34.9	-35.5	25.9	0.00e+00	0	27	0	797966336	48	5820
2026-01-05 01:50:02.42	141.17	16.19	-34.7	-35.3	26.2	0.00e+00	0	27	0	821035008	48	5671
2026-01-05 01:50:06.47	141.03	16.64	-34.5	-35.2	26.4	0.00e+00	0	27	0	844103680	48	5592
2026-01-05 01:50:10.51	140.89	17.11	-34.5	-35.2	26.4	0.00e+00	0	27	0	866123776	48	5578
2026-01-05 01:50:14.56	140.75	17.58	-34.4	-35.1	26.4	0.00e+00	0	27	0	889192448	48	5515
2026-01-05 01:50:18.60	140.60	18.06	-34.4	-35.1	26.5	0.00e+00	0	27	0	912261120	48	5519
2026-01-05 01:50:22.64	140.44	18.55	-34.4	-35.0	26.8	0.00e+00	0	27	0	934281216	46	6173
2026-01-05 01:50:26.69	140.28	19.05	-34.3	-34.9	26.9	0.00e+00	0	27	0	957349888	46	6052
2026-01-05 01:50:30.73	140.12	19.55	-34.2	-34.9	26.9	0.00e+00	0	27	0	980418560	46	6043
2026-01-05 01:50:34.77	139.95	20.07	-34.5	-35.2	26.6	0.00e+00	0	27	0	1002438656	46	6267
2026-01-05 01:50:38.82	139.77	20.60	-34.4	-35.0	26.6	0.00e+00	0	27	0	1025507328	46	6172
2026-01-05 01:50:42.86	139.58	21.14	-34.9	-35.5	26.4	0.00e+00	0	27	0	1048576000	48	5820
2026-01-05 01:50:46.91	139.39	21.70	-34.5	-35.2	26.7	0.00e+00	0	27	0	1071644672	48	5573
2026-01-05 01:50:50.95	139.19	22.26	-33.4	-34.0	27.5	0.00e+00	0	27	0	1093664768	46	5444
2026-01-05 01:50:54.99	138.98	22.84	-33.5	-34.1	27.5	0.00e+00	0	27	0	1116733440	46	5524
2026-01-05 01:50:59.04	138.77	23.43	-33.3	-33.9	27.7	0.00e+00	0	27	0	1139802112	46	5438
2026-01-05 01:51:03.09	138.54	24.03	-33.0	-33.7	27.7	0.00e+00	0	27	0	1161822208	44	5936
2026-01-05 01:51:07.13	138.31	24.65	-33.0	-33.7	27.8	0.00e+00	0	27	0	1184890880	44	5900
2026-01-05 01:51:11.17	138.07	25.28	-33.0	-33.6	27.7	0.00e+00	0	27	0	1207959552	44	5894
2026-01-05 01:51:15.22	137.81	25.93	-32.9	-33.5	27.8	0.00e+00	0	27	0	1229979648	44	5805
2026-01-05 01:51:19.26	137.54	26.59	-32.6	-33.2	28.0	0.00e+00	0	27	0	1253048320	44	5616
2026-01-05 01:51:23.30	137.27	27.26	-32.8	-33.4	28.0	0.00e+00	0	27	0	1276116992	44	5722
2026-01-05 01:51:27.35	136.98	27.96	-33.3	-33.9	27.9	0.00e+00	0	27	0	1298137088	44	6087
2026-01-05 01:51:31.40	136.67	28.67	-33.3	-33.9	28.1	0.00e+00	0	27	0	1321205760	44	6086
2026-01-05 01:51:35.44	136.35	29.39	-32.3	-32.9	28.3	0.00e+00	0	27	0	1344274432	44	5384
2026-01-05 01:51:39.48	136.02	30.14	-32.7	-33.4	28.1	0.00e+00	0	27	0	1367343104	44	5701
2026-01-05 01:51:43.53	135.67	30.90	-32.3	-32.9	28.3	0.00e+00	0	27	0	1389363200	44	5417
2026-01-05 01:51:47.57	135.30	31.69	-32.3	-32.8	28.6	0.00e+00	0	27	0	1412431872	42	6028
2026-01-05 01:51:51.62	134.91	32.49	-32.1	-32.8	28.5	0.00e+00	0	27	0	1435500544	42	5976
2026-01-05 01:51:55.66	134.50	33.31	-32.5	-33.1	28.3	0.00e+00	0	27	0	1457520640	42	6218
2026-01-05 01:51:59.70	134.07	34.16	-32.4	-33.0	28.2	0.00e+00	0	27	0	1480589312	42	6151
2026-01-05 01:52:03.75	133.62	35.02	-32.1	-32.7	28.6	0.00e+00	0	27	0	1503657984	42	5912
2026-01-05 01:52:07.79	133.14	35.91	-31.9	-32.5	28.5	0.00e+00	0	27	0	1525678080	42	5808
2026-01-05 01:52:11.83	132.63	36.82	-32.3	-32.9	28.4	0.00e+00	0	27	0	1548746752	42	6077
2026-01-05 01:52:15.88	132.09	37.76	-32.6	-33.2	28.4	0.00e+00	0	27	0	1571815424	42	6268
2026-01-05 01:52:19.92	131.52	38.71	-32.0	-32.6	28.7	0.00e+00	0	27	0	1594884096	42	5850
2026-01-05 01:52:23.97	130.92	39.70	-32.2	-32.8	28.4	0.00e+00	0	27	0	1616904192	42	6030
2026-01-05 01:52:28.01	130.27	40.70	-32.5	-33.2	28.3	0.00e+00	0	27	0	1639972864	42	6259
2026-01-05 01:52:32.06	129.58	41.73	-32.8	-33.4	27.9	0.00e+00	0	27	0	1663041536	42	6430
2026-01-05 01:52:36.10	128.85	42.79	-32.6	-33.2	28.0	0.00e+00	0	27	0	1685061632	44	5619
2026-01-05 01:52:40.14	128.06	43.86	-32.8	-33.4	28.0	0.00e+00	0	27	0	1708130304	44	5720
2026-01-05 01:52:44.18	127.22	44.97	-32.4	-33.0	28.4	0.00e+00	0	27	0	1731198976	44	5492
2026-01-05 01:52:48.23	126.32	46.09	-33.0	-33.6	28.0	0.00e+00	0	27	0	1753219072	44	5858
2026-01-05 01:52:52.27	125.34	47.24	-33.1	-33.7	27.9	0.00e+00	0	27	0	1776287744	44	5928
2026-01-05 01:52:56.32	124.29	48.42	-32.6	-33.2	28.3	0.00e+00	0	27	0	1799356416	44	5586
2026-01-05 01:53:00.36	123.16	49.61	-32.8	-33.4	28.0	0.00e+00	0	27	0	1822425088	44	5760
2026-01-05 01:53:04.41	121.93	50.82	-33.4	-34.0	27.5	0.00e+00	0	27	0	1844445184	44	6155
2026-01-05 01:53:08.45	120.60	52.05	-34.2	-34.9	27.5	0.00e+00	0	27	0	1867513856	44	6795
2026-01-05 01:53:12.50	119.15	53.29	-33.1	-33.8	27.7	0.00e+00	0	27	0	1889533952	46	5321
2026-01-05 01:53:16.54	117.57	54.54	-33.6	-34.2	27.5	0.00e+00	0	27	0	1912602624	46	5616
2026-01-05 01:53:20.59	115.84	55.80	-33.4	-34.0	27.4	0.00e+00	0	27	0	1935671296	46	5500
2026-01-05 01:53:24.63	113.95	57.06	-34.1	-34.7	27.0	0.00e+00	0	27	0	1958739968	46	5923
2026-01-05 01:53:28.67	111.89	58.31	-34.1	-34.7	26.8	0.00e+00	0	27	0	1980760064	46	5950
2026-01-05 01:53:32.72	109.61	59.55	-33.1	-33.8	27.7	0.00e+00	0	27	0	2003828736	44	5988
2026-01-05 01:53:36.76	107.11	60.77	-33.3	-33.9	27.7	0.00e+00	0	27	0	2026897408	44	6084
2026-01-05 01:53:40.81	104.35	61.96	-33.0	-33.6	27.9	0.00e+00	0	27	0	2049966080	44	5877
2026-01-05 01:53:44.85	101.32	63.10	-32.6	-33.2	28.3	0.00e+00	0	27	0	2071986176	44	5589
2026-01-05 01:53:48.90	97.98	64.20	-32.4	-33.1	28.3	0.00e+00	0	27	0	2095054848	44	5505
2026-01-05 01:53:52.94	94.33	65.21	-31.7	-32.3	28.8	0.00e+00	0	27	0	2117074944	42	5680
2026-01-05 01:53:56.98	90.35	66.14	-31.7	-32.3	29.0	0.00e+00	0	27	0	2140143616	42	5636
2026-01-05 01:54:00.95	86.11	66.96	-31.9	-32.6	28.7	0.00e+00	0	27	0	2162163712	42	5836
2026-01-05 01:54:05.00	81.46	67.66	-30.8	-31.4	29.3	0.00e+00	0	27	0	2185232384	40	5710
2026-01-05 01:54:09.04	76.53	68.23	-31.3	-31.9	29.2	0.00e+00	0	27	0	2208301056	40	6065
2026-01-05 01:54:13.08	71.34	68.64	-31.6	-32.3	28.9	0.00e+00	0	27	0	2230321152	40	6334
2026-01-05 01:54:17.13	65.97	68.88	-30.9	-31.5	29.3	0.00e+00	0	27	0	2253389824	40	5797
2026-01-05 01:54:21.17	60.53	68.95	-31.2	-31.8	29.2	0.00e+00	0	27	0	2275409920	40	5966
2026-01-05 01:54:25.21	55.10	68.84	-31.4	-31.9	29.0	0.00e+00	0	27	0	2298478592	40	6087
2026-01-05 01:54:29.26	49.77	68.56	-31.5	-32.1	29.1	0.00e+00	0	27	0	2321547264	40	6212
2026-01-05 01:54:33.30	44.64	68.11	-31.2	-31.8	28.9	0.00e+00	0	27	0	2344615936	40	5967
2026-01-05 01:54:37.35	39.76	67.51	-31.0	-31.6	29.2	0.00e+00	0	27	0	2366636032	40	5871
2026-01-05 01:54:41.39	35.20	66.77	-31.2	-31.8	29.1	0.00e+00	0	27	0	2389704704	40	5988
2026-01-05 01:54:45.44	30.96	65.92	-31.2	-31.8	29.1	0.00e+00	0	27	0	2412773376	40	5997
2026-01-05 01:54:49.48	27.07	64.97	-31.6	-32.2	28.8	0.00e+00	0	27	0	2435842048	42	5618
2026-01-05 01:54:53.52	23.51	63.93	-32.0	-32.6	28.8	0.00e+00	0	27	0	2457862144	42	5865
2026-01-05 01:54:57.57	20.25	62.83	-31.9	-32.4	28.8	0.00e+00	0	27	0	2480930816	42	5723
2026-01-05 01:55:01.61	17.30	61.67	-32.0	-32.7	28.6	0.00e+00	0	27	0	2502950912	42	5928
2026-01-05 01:55:05.66	14.61	60.48	-32.1	-32.8	28.5	0.00e+00	0	27	0	2526019584	42	5981
2026-01-05 01:55:09.70	12.17	59.25	-32.9	-33.5	28.1	0.00e+00	0	27	0	2549088256	42	6471
2026-01-05 01:55:13.75	9.95	58.01	-32.3	-32.9	28.3	0.00e+00	0	27	0	2572156928	42	6097
2026-01-05 01:55:17.79	7.93	56.76	-32.2	-32.7	28.4	0.00e+00	0	27	0	2594177024	42	5928
2026-01-05 01:55:21.83	6.09	55.50	-33.0	-33.6	28.0	0.00e+00	0	27	0	2617245696	42	6567
2026-01-05 01:55:25.88	4.40	54.25	-33.1	-33.7	27.7	0.00e+00	0	27	0	2640314368	44	5898
2026-01-05 01:55:29.92	2.86	53.00	-32.9	-33.6	28.0	0.00e+00	0	27	0	2662334464	44	5845
2026-01-05 01:55:33.97	1.44	51.77	-32.8	-33.5	27.9	0.00e+00	0	27	0	2685403136	44	5769
2026-01-05 01:55:38.01	0.14	50.55	-33.5	-34.1	27.4	0.00e+00	0	27	0	2708471808	44	6206
2026-01-05 01:55:42.06	358.94	49.34	-33.4	-33.9	27.4	0.00e+00	0	27	0	2730491904	44	6091
2026-01-05 01:55:46.10	357.83	48.16	-32.3	-32.9	28.2	0.00e+00	0	27	0	2753560576	44	5390
2026-01-05 01:55:50.15	356.80	47.00	-32.3	-32.8	28.2	0.00e+00	0	27	0	2776629248	42	6012
2026-01-05 01:55:54.19	355.85	45.86	-32.2	-32.9	28.4	0.00e+00	0	27	0	2799697920	42	6050
2026-01-05 01:55:58.23	354.96	44.74	-32.8	-33.5	27.9	0.00e+00	0	27	0	2821718016	44	5813
2026-01-05 01:56:02.28	354.13	43.65	-32.1	-32.8	28.4	0.00e+00	0	27	0	2844786688	42	6003
2026-01-05 01:56:06.32	353.36	42.58	-33.1	-33.6	27.5	0.00e+00	0	27	0	2866806784	44	5864
2026-01-05 01:56:10.37	352.64	41.53	-32.1	-32.8	28.4	0.00e+00	0	27	0	2889875456	42	5966
2026-01-05 01:56:14.41	351.97	40.51	-32.0	-32.7	28.5	0.00e+00	0	27	0	2912944128	42	5946
2026-01-05 01:56:18.45	351.33	39.51	-31.4	-32.0	28.9	0.00e+00	0	27	0	2936012800	42	5486
2026-01-05 01:56:22.49	350.74	38.54	-31.2	-31.9	29.0	0.00e+00	0	27	0	2958032896	42	5418
2026-01-05 01:56:26.54	350.18	37.59	-31.7	-32.3	28.7	0.00e+00	0	27	0	2981101568	42	5695
2026-01-05 01:56:30.58	349.65	36.67	-31.3	-31.8	29.0	0.00e+00	0	27	0	3004170240	42	5377
2026-01-05 01:56:34.63	349.15	35.76	-32.2	-32.9	28.4	0.00e+00	0	27	0	3026190336	42	6056
2026-01-05 01:56:38.67	348.68	34.88	-31.5	-32.0	28.8	0.00e+00	0	27	0	3049259008	42	5482
2026-01-05 01:56:42.72	348.23	34.03	-31.6	-32.3	28.7	0.00e+00	0	27	0	3072327680	42	5660
2026-01-05 01:56:46.76	347.81	33.19	-32.1	-32.6	28.2	0.00e+00	0	27	0	3094347776	42	5856
2026-01-05 01:56:50.81	347.41	32.37	-31.9	-32.6	28.6	0.00e+00	0	27	0	3117416448	42	5852
2026-01-05 01:56:54.85	347.02	31.58	-31.8	-32.4	28.7	0.00e+00	0	27	0	3140485120	42	5712
2026-01-05 01:56:58.89	346.66	30.80	-32.1	-32.6	28.6	0.00e+00	0	27	0	3163553792	42	5843
2026-01-05 01:57:02.94	346.32	30.04	-32.2	-32.8	28.4	0.00e+00	0	27	0	3185573888	42	5990
2026-01-05 01:57:06.98	345.99	29.31	-32.1	-32.7	28.4	0.00e+00	0	27	0	3208642560	42	5906
2026-01-05 01:57:11.03	345.68	28.58	-32.2	-32.8	28.5	0.00e+00	0	27	0	3231711232	42	5975
2026-01-05 01:57:15.07	345.38	27.88	-32.3	-33.0	28.1	0.00e+00	0	27	0	3253731328	42	6160
2026-01-05 01:57:19.11	345.09	27.19	-32.4	-33.1	27.9	0.00e+00	0	27	0	3276800000	42	6186
2026-01-05 01:57:23.16	344.82	26.52	-32.3	-32.8	28.4	0.00e+00	0	27	0	3299868672	42	6002
2026-01-05 01:57:27.20	344.56	25.87	-32.3	-32.8	28.3	0.00e+00	0	27	0	3321888768	42	6000
2026-01-05 01:57:31.24	344.31	25.23	-33.3	-33.8	28.0	0.00e+00	0	27	0	3344957440	42	6732
2026-01-05 01:57:35.29	344.07	24.60	-32.7	-33.2	27.9	0.00e+00	0	27	0	3368026112	44	5623
2026-01-05 01:57:39.33	343.84	23.99	-32.4	-33.0	28.0	0.00e+00	0	27	0	3391094784	44	5448
2026-01-05 01:57:43.38	343.62	23.39	-32.8	-33.3	27.9	0.00e+00	0	27	0	3413114880	44	5670
2026-01-05 01:57:47.42	343.40	22.81	-32.6	-33.1	27.9	0.00e+00	0	27	0	3436183552	44	5551
2026-01-05 01:57:51.47	343.20	22.23	-32.7	-33.4	27.8	0.00e+00	0	27	0	3459252224	44	5752
2026-01-05 01:57:55.51	343.00	21.67	-33.0	-33.7	27.7	0.00e+00	0	27	0	3481272320	44	5917
2026-01-05 01:57:59.55	342.82	21.13	-33.2	-33.9	27.6	0.00e+00	0	27	0	3504340992	44	6088
2026-01-05 01:58:03.60	342.64	20.59	-33.6	-34.3	27.3	0.00e+00	0	27	0	3527409664	44	6387
2026-01-05 01:58:07.64	342.46	20.06	-33.9	-34.5	27.2	0.00e+00	0	27	0	3549429760	46	5765
2026-01-05 01:58:11.69	342.29	19.55	-33.9	-34.6	26.9	0.00e+00	0	27	0	3572498432	46	5834
2026-01-05 01:58:15.73	342.13	19.04	-33.5	-34.2	27.2	0.00e+00	0	27	0	3595567104	46	5581
2026-01-05 01:58:19.77	341.97	18.55	-33.4	-33.9	27.3	0.00e+00	0	27	0	3617587200	46	5433
2026-01-05 01:58:23.82	341.82	18.06	-33.7	-34.2	27.1	0.00e+00	0	27	0	3640655872	46	5630
2026-01-05 01:58:27.86	341.68	17.58	-33.8	-34.3	26.9	0.00e+00	0	27	0	3663724544	46	5684
2026-01-05 01:58:31.91	341.54	17.11	-34.1	-34.7	26.7	0.00e+00	0	27	0	3686793216	46	5925
2026-01-05 01:58:35.95	341.40	16.66	-34.3	-34.9	26.6	0.00e+00	0	27	0	3708813312	46	6042
2026-01-05 01:58:39.99	341.27	16.21	-34.2	-34.8	26.6	0.00e+00	0	27	0	3731881984	46	5998
2026-01-05 01:58:44.04	341.14	15.76	-34.5	-35.0	26.4	0.00e+00	0	27	0	3754950656	46	6171
2026-01-05 01:58:48.08	341.02	15.33	-34.3	-35.0	26.4	0.00e+00	0	27	0	3776970752	46	6171
2026-01-05 01:58:52.13	340.90	14.90	-34.5	-35.1	26.2	0.00e+00	0	27	0	3800039424	46	6203
2026-01-05 01:58:56.17	340.78	14.48	-34.7	-35.3	26.1	0.00e+00	0	27	0	3823108096	46	6363
2026-01-05 01:59:00.22	340.67	14.07	-34.9	-35.5	25.9	0.00e+00	0	27	0	3845128192	46	6528
2026-01-05 01:59:04.26	340.56	13.66	-35.0	-35.6	25.8	0.00e+00	0	27	0	3868196864	46	6579
2026-01-05 01:59:08.30	340.46	13.26	-35.1	-35.7	25.6	0.00e+00	0	27	0	3891265536	48	5932
2026-01-05 01:59:12.35	340.36	12.87	-35.2	-35.9	25.6	0.00e+00	0	27	0	3914334208	48	6060
2026-01-05 01:59:16.39	340.26	12.48	-35.7	-36.3	24.9	0.00e+00	0	27	0	3936354304	48	6387
2026-01-05 01:59:20.44	340.16	12.10	-35.6	-36.2	25.3	0.00e+00	0	27	0	3959422976	50	5591
2026-01-05 01:59:24.48	340.07	11.72	-35.8	-36.4	25.0	0.00e+00	0	27	0	3982491648	50	5761
2026-01-05 01:59:28.53	339.98	11.35	-35.8	-36.4	25.1	0.00e+00	0	27	0	4004511744	50	5712
2026-01-05 01:59:32.57	339.90	10.99	-35.8	-36.4	25.1	0.00e+00	0	27	0	4027580416	50	5734
2026-01-05 01:59:36.62	339.81	10.63	-35.9	-36.6	25.0	0.00e+00	0	27	0	4050649088	50	5864
2026-01-05 01:59:40.67	339.73	10.27	-36.4	-37.1	24.8	0.00e+00	0	27	0	4072669184	50	6222
2026-01-05 01:59:44.71	339.65	9.92	-36.0	-36.6	24.8	0.00e+00	0	27	0	4095737856	50	5853
2026-01-05 01:59:48.75	339.57	9.58	-36.1	-36.8	24.7	0.00e+00	0	27	0	4118806528	50	6015
2026-01-05 01:59:52.80	339.50	9.24	-36.2	-37.0	24.5	0.00e+00	0	27	0	4141875200	50	6122
2026-01-05 01:59:56.84	339.42	8.90	-36.3	-37.1	24.5	0.00e+00	0	27	0	4163895296	50	6195
2026-01-05 02:00:00.88	339.35	8.57	-36.6	-37.2	24.3	0.00e+00	0	27	0	4186963968	50	6286
2026-01-05 02:00:04.93	339.28	8.24	-36.9	-37.5	24.0	0.00e+00	0	27	0	4210032640	50	6513
2026-01-05 02:00:08.97	339.21	7.92	-36.9	-37.7	23.8	0.00e+00	0	27	0	4232052736	52	5905
2026-01-05 02:00:13.02	339.15	7.60	-36.9	-37.8	23.9	0.00e+00	0	27	0	4255121408	52	5977
2026-01-05 02:00:17.06	339.08	7.29	-37.9	-38.6	23.0	0.00e+00	0	27	0	4278190080	54	5849
2026-01-05 02:00:21.11	339.02	6.98	-38.0	-38.7	22.7	0.00e+00	0	27	0	4300210176	54	5917
2026-01-05 02:00:25.15	338.96	6.67	-37.4	-38.1	23.4	0.00e+00	0	27	0	4323278848	52	6208
2026-01-05 02:00:29.19	338.90	6.37	-37.7	-38.4	22.9	0.00e+00	0	27	0	4346347520	52	6452
2026-01-05 02:00:33.24	338.85	6.07	-37.5	-38.2	23.3	0.00e+00	0	27	0	4369416192	52	6258
2026-01-05 02:00:37.28	338.79	5.77	-37.4	-38.1	23.2	0.00e+00	0	27	0	4391436288	52	6218
2026-01-05 02:00:41.33	338.74	5.48	-37.5	-38.3	22.8	0.00e+00	0	27	0	4414504960	52	6365
2026-01-05 02:00:45.37	338.68	5.19	-37.9	-38.7	22.2	0.00e+00	0	27	0	4436525056	52	6632
2026-01-05 02:00:49.41	338.63	4.90	-38.8	-39.6	20.8	0.00e+00	0	27	0	4459593728	54	6614
2026-01-05 02:00:53.46	338.58	4.61	-40.2	-41.4	18.5	0.00e+00	0	27	0	4482662400	58	6412
2026-01-05 02:00:57.50	338.53	4.33	-42.4	-44.1	15.0	0.00e+00	0	27	0	4505731072	60	7835
2026-01-05 02:01:01.55	338.49	4.05	-44.1	-47.1	10.9	2.17e-03	0	27	0	4527751168	60	11047
2026-01-05 02:01:05.59	338.44	3.78	-45.4	-50.5	6.2	2.18e-01	0	27	0	4550819840	60	16371
2026-01-05 02:01:09.63	338.39	3.51	-45.9	-53.6	3.8	8.30e-01	0	27	0	4559208448	60	23362
2026-01-05 02:01:13.68	338.35	3.24	-46.2	-57.3	3.6	8.45e-01	0	27	104	4559208448	60	35789
2026-01-05 02:01:17.72	338.31	2.97	-46.1	-58.4	3.6	8.45e-01	0	27	104	4559208448	60	40558
2026-01-05 02:01:21.77	338.27	2.70	-46.1	-58.5	3.6	8.45e-01	0	27	104	4559208448	60	40943
2026-01-05 02:01:25.81	338.22	2.44	-50.9	-63.2	3.6	8.46e-01	0	27	104	4559208448	60	70738
2026-01-05 02:01:29.85	338.19	2.18	-51.5	-63.8	3.6	8.45e-01	0	27	104	4559208448	60	75545
2026-01-05 02:01:33.90	338.15	1.92	-51.2	-63.6	3.6	8.45e-01	0	27	104	4559208448	60	73783
2026-01-05 02:01:37.94	338.11	1.67	-51.4	-63.7	3.6	8.46e-01	0	27	104	4559208448	60	74791
2026-01-05 02:01:41.99	338.07	1.41	-51.6	-63.9	3.6	8.45e-01	0	27	104	4559208448	60	76668
2026-01-05 02:01:46.03	338.04	1.16	-51.2	-63.5	3.6	8.46e-01	0	27	104	4559208448	60	73246
2026-01-05 02:01:50.08	338.00	0.91	-51.2	-63.6	3.6	8.46e-01	0	27	104	4559208448	60	73552
2026-01-05 02:01:54.12	337.97	0.67	-51.8	-64.1	3.6	8.44e-01	0	27	104	4559208448	60	77981
2026-01-05 02:01:58.16	337.93	0.42	-51.4	-63.8	3.6	8.45e-01	0	27	104	4559208448	60	75479
2026-01-05 02:02:02.21	337.90	0.18	-51.6	-63.9	3.6	8.46e-01	0	27	104	4559208448	60	76412

#Closed at: 2026-01-05 02:02:06
#Recorded file [4559 MB]: D:/lorett/data/35034_260105_044640.dat