passes_logs/2026/01/05/R4.6S_Anadyr_2ch/R4.6S_Anadyr_2ch__20260105_171244_FENGYUN_3D_rec.log

#Pass ID: 20260105_171244_FENGYUN 3D
#Satellite: FENGYUN 3D
#Configuration: FENGYUN 3D
#almurnet v.1.7.20251203
#Start time: 2026-01-05 17:12:47

#Version: 2.2.20231116
#Station: R4.6S_Anadyr_2ch
#Location: 177.4865 lon 64.73178 lat
#TLE: 1 43010U 17072A   25350.96693137  .00000321  00000+0  17364-3 0  9993
#TLE: 2 43010  98.9888 317.3403 0001146 169.6565 190.4634 14.19686173419132

#Time	Az	El	Level	Level2	SNR	BER	BlckErr	Temp	State	Recorded	gain1	gain2
2026-01-05 17:12:47.21	22.02	0.17	-51.0	-61.9	3.3	8.40e-01	0	29	0	0	60	60552
2026-01-05 17:12:51.25	21.99	0.42	-51.0	-63.3	3.6	8.46e-01	0	29	104	0	60	71174
2026-01-05 17:12:55.29	21.96	0.66	-51.1	-63.4	3.6	8.46e-01	0	29	104	0	60	72123
2026-01-05 17:12:59.34	21.93	0.91	-51.2	-63.4	3.6	8.46e-01	0	30	104	0	60	72452
2026-01-05 17:13:03.38	21.90	1.16	-50.9	-63.3	3.6	8.46e-01	0	30	104	0	60	70929
2026-01-05 17:13:07.42	21.87	1.41	-50.3	-62.6	3.6	8.45e-01	0	30	104	0	60	65581
2026-01-05 17:13:11.47	21.84	1.66	-49.8	-61.9	3.6	8.46e-01	0	30	104	0	60	60978
2026-01-05 17:13:15.52	21.80	1.92	-49.7	-61.2	3.6	8.44e-01	0	30	104	0	60	56105
2026-01-05 17:13:19.56	21.77	2.17	-49.7	-61.4	3.6	8.44e-01	0	30	104	0	60	57552
2026-01-05 17:13:23.61	21.73	2.44	-49.8	-62.1	3.6	8.44e-01	0	30	104	0	60	61842
2026-01-05 17:13:27.65	21.69	2.70	-49.7	-61.6	3.6	8.45e-01	0	30	104	0	60	58422
2026-01-05 17:13:31.69	21.66	2.96	-49.6	-59.8	3.6	8.45e-01	0	30	104	0	60	47764
2026-01-05 17:13:35.74	21.62	3.23	-49.6	-60.2	3.6	8.45e-01	0	30	104	0	60	49999
2026-01-05 17:13:39.78	21.58	3.50	-48.5	-53.3	7.0	3.20e-01	0	30	102	1048576	60	22480
2026-01-05 17:13:43.83	21.54	3.77	-45.3	-47.5	13.6	4.46e-05	0	30	102	1048576	60	11531
2026-01-05 17:13:47.87	21.49	4.05	-45.4	-47.6	13.3	1.48e-05	0	30	102	1048576	60	11713
2026-01-05 17:13:51.91	21.45	4.33	-47.5	-51.3	9.7	1.78e-02	0	30	104	1048576	60	17872
2026-01-05 17:13:55.95	21.41	4.61	-39.8	-40.7	20.8	2.86e-05	0	30	0	1048576	60	5283
2026-01-05 17:14:00.00	21.36	4.89	-38.1	-38.8	22.2	0.00e+00	0	30	0	1048576	54	6032
2026-01-05 17:14:04.04	21.32	5.18	-38.3	-39.1	22.1	0.00e+00	0	30	101	1048576	54	6214
2026-01-05 17:14:08.08	21.27	5.47	-37.5	-38.3	22.9	0.00e+00	0	30	101	1048576	54	5666
2026-01-05 17:14:12.13	21.22	5.76	-37.4	-38.2	23.0	0.00e+00	0	30	101	1048576	54	5568
2026-01-05 17:14:16.17	21.17	6.06	-37.5	-38.3	23.2	0.00e+00	0	30	101	1048576	54	5636
2026-01-05 17:14:20.21	21.11	6.36	-37.3	-38.0	23.3	0.00e+00	0	30	101	1048576	52	6169
2026-01-05 17:14:24.25	21.06	6.66	-37.2	-37.9	23.5	0.00e+00	0	30	101	1048576	52	6063
2026-01-05 17:14:28.30	21.01	6.97	-37.1	-37.8	23.6	0.00e+00	0	30	101	1048576	52	6001
2026-01-05 17:14:32.34	20.95	7.28	-37.0	-37.8	23.7	0.00e+00	0	30	101	1048576	52	5972
2026-01-05 17:14:36.39	20.89	7.60	-36.9	-37.6	23.9	0.00e+00	0	30	101	1048576	52	5847
2026-01-05 17:14:40.44	20.83	7.92	-36.9	-37.6	23.8	0.00e+00	0	30	101	1048576	52	5870
2026-01-05 17:14:44.48	20.77	8.24	-36.5	-37.2	24.2	0.00e+00	0	30	101	1048576	52	5629
2026-01-05 17:14:48.53	20.71	8.57	-36.8	-37.5	24.0	0.00e+00	0	30	101	1048576	52	5786
2026-01-05 17:14:52.57	20.64	8.90	-36.5	-37.2	24.2	0.00e+00	0	31	101	1048576	52	5612
2026-01-05 17:14:56.61	20.57	9.23	-36.3	-37.0	24.5	0.00e+00	0	30	101	1048576	52	5480
2026-01-05 17:15:00.66	20.50	9.57	-36.3	-36.9	24.5	0.00e+00	0	30	101	1048576	52	5436
2026-01-05 17:15:04.71	20.43	9.92	-36.1	-36.8	24.7	0.00e+00	0	30	101	1048576	50	6000
2026-01-05 17:15:08.75	20.36	10.27	-36.2	-36.9	24.6	0.00e+00	0	31	101	1048576	50	6051
2026-01-05 17:15:12.79	20.28	10.62	-36.0	-36.7	24.7	0.00e+00	0	31	101	1048576	50	5956
2026-01-05 17:15:16.84	20.21	10.98	-36.0	-36.7	24.8	0.00e+00	0	30	101	1048576	50	5897
2026-01-05 17:15:20.88	20.13	11.35	-35.8	-36.4	25.0	0.00e+00	0	30	101	1048576	50	5747
2026-01-05 17:15:24.92	20.04	11.72	-35.6	-36.2	25.1	0.00e+00	0	30	101	1048576	50	5627
2026-01-05 17:15:28.97	19.96	12.09	-35.6	-36.3	25.3	0.00e+00	0	31	101	1048576	50	5658
2026-01-05 17:15:33.02	19.87	12.48	-35.5	-36.2	25.2	0.00e+00	0	30	101	1048576	50	5604
2026-01-05 17:15:37.06	19.78	12.86	-35.5	-36.2	25.3	0.00e+00	0	31	101	1048576	50	5587
2026-01-05 17:15:41.11	19.69	13.26	-35.5	-36.2	25.2	0.00e+00	0	31	101	1048576	50	5598
2026-01-05 17:15:45.15	19.59	13.66	-35.4	-36.1	25.4	0.00e+00	0	31	101	1048576	50	5522
2026-01-05 17:15:49.20	19.49	14.07	-35.4	-36.1	25.3	0.00e+00	0	31	101	1048576	50	5541
2026-01-05 17:15:53.24	19.39	14.48	-35.4	-36.1	25.4	0.00e+00	0	31	101	1048576	50	5525
2026-01-05 17:15:57.28	19.28	14.90	-35.3	-36.0	25.5	0.00e+00	0	31	101	1048576	50	5468
2026-01-05 17:16:01.33	19.17	15.33	-35.2	-35.9	25.6	0.00e+00	0	31	101	1048576	50	5418
2026-01-05 17:16:05.38	19.06	15.77	-35.0	-35.7	25.7	0.00e+00	0	31	101	1048576	48	5900
2026-01-05 17:16:09.42	18.94	16.21	-34.8	-35.5	26.0	0.00e+00	0	31	101	1048576	48	5784
2026-01-05 17:16:13.46	18.82	16.66	-34.7	-35.3	26.2	0.00e+00	0	31	101	1048576	48	5683
2026-01-05 17:16:17.51	18.69	17.12	-34.3	-34.9	26.6	0.00e+00	0	31	101	1048576	48	5411
2026-01-05 17:16:21.55	18.56	17.59	-34.2	-34.8	26.6	0.00e+00	0	31	101	1048576	46	6011
2026-01-05 17:16:25.60	18.43	18.07	-34.0	-34.6	26.7	0.00e+00	0	31	101	1048576	46	5881
2026-01-05 17:16:29.64	18.29	18.55	-33.9	-34.5	26.9	0.00e+00	0	31	101	1048576	46	5791
2026-01-05 17:16:33.69	18.14	19.05	-33.5	-34.1	27.1	0.00e+00	0	31	101	1048576	46	5559
2026-01-05 17:16:37.73	17.99	19.56	-33.4	-34.0	27.2	0.00e+00	0	31	101	1048576	46	5491
2026-01-05 17:16:41.77	17.83	20.07	-33.3	-33.9	27.4	0.00e+00	0	31	101	1048576	46	5403
2026-01-05 17:16:45.82	17.67	20.60	-33.5	-34.1	27.2	0.00e+00	0	31	101	1048576	46	5545
2026-01-05 17:16:49.86	17.50	21.14	-33.6	-34.3	27.1	0.00e+00	0	31	101	1048576	46	5636
2026-01-05 17:16:53.91	17.33	21.69	-33.6	-34.2	27.1	0.00e+00	0	31	101	1048576	46	5604
2026-01-05 17:16:57.95	17.15	22.25	-33.6	-34.2	27.2	0.00e+00	0	31	101	1048576	46	5605
2026-01-05 17:17:02.00	16.96	22.83	-33.0	-33.6	27.7	0.00e+00	0	31	101	1048576	44	5870
2026-01-05 17:17:06.04	16.76	23.41	-32.9	-33.5	27.7	0.00e+00	0	31	101	1048576	44	5785
2026-01-05 17:17:10.09	16.56	24.01	-32.6	-33.2	27.9	0.00e+00	0	31	101	1048576	44	5610
2026-01-05 17:17:14.13	16.34	24.63	-32.6	-33.3	28.0	0.00e+00	0	31	101	1048576	44	5635
2026-01-05 17:17:18.17	16.12	25.25	-32.6	-33.2	28.1	0.00e+00	0	31	101	1048576	44	5574
2026-01-05 17:17:22.22	15.89	25.90	-32.7	-33.3	27.9	0.00e+00	0	31	101	1048576	44	5636
2026-01-05 17:17:26.26	15.64	26.56	-32.6	-33.3	27.9	0.00e+00	0	31	101	1048576	44	5632
2026-01-05 17:17:30.30	15.39	27.23	-32.4	-33.0	28.1	0.00e+00	0	31	101	1048576	44	5490
2026-01-05 17:17:34.35	15.12	27.92	-32.3	-33.0	28.2	0.00e+00	0	31	101	1048576	44	5452
2026-01-05 17:17:38.39	14.84	28.63	-32.5	-33.1	28.1	0.00e+00	0	31	101	1048576	44	5520
2026-01-05 17:17:42.43	14.55	29.35	-32.5	-33.1	28.1	0.00e+00	0	31	101	1048576	44	5538
2026-01-05 17:17:46.48	14.25	30.10	-32.5	-33.1	28.1	0.00e+00	0	31	101	1048576	44	5549
2026-01-05 17:17:50.53	13.92	30.86	-32.5	-33.1	28.1	0.00e+00	0	31	101	1048576	44	5550
2026-01-05 17:17:54.57	13.58	31.64	-32.3	-32.9	28.2	0.00e+00	0	31	101	1048576	44	5417
2026-01-05 17:17:58.61	13.23	32.44	-32.0	-32.7	28.4	0.00e+00	0	31	101	1048576	42	5907
2026-01-05 17:18:02.66	12.85	33.26	-32.2	-32.8	28.4	0.00e+00	0	31	101	1048576	42	5975
2026-01-05 17:18:06.70	12.46	34.11	-31.8	-32.4	28.7	0.00e+00	0	31	101	1048576	42	5759
2026-01-05 17:18:10.75	12.04	34.97	-31.6	-32.2	28.8	0.00e+00	0	31	101	1048576	42	5587
2026-01-05 17:18:14.79	11.60	35.86	-31.7	-32.3	28.7	0.00e+00	0	31	101	1048576	42	5682
2026-01-05 17:18:18.84	11.13	36.77	-31.2	-31.8	29.1	0.00e+00	0	31	101	1048576	42	5360
2026-01-05 17:18:22.88	10.64	37.71	-31.2	-31.8	29.0	0.00e+00	0	31	101	1048576	40	6025
2026-01-05 17:18:26.92	10.11	38.66	-31.8	-32.4	28.6	0.00e+00	0	31	101	1048576	40	6412
2026-01-05 17:18:30.97	9.55	39.65	-31.5	-32.1	28.9	0.00e+00	0	31	101	1048576	40	6191
2026-01-05 17:18:35.02	8.95	40.66	-31.9	-32.5	28.7	0.00e+00	0	31	101	1048576	40	6478
2026-01-05 17:18:39.06	8.32	41.69	-32.0	-32.6	28.6	0.00e+00	0	31	101	1048576	40	6541
2026-01-05 17:18:43.10	7.64	42.75	-32.0	-32.6	28.4	0.00e+00	0	31	101	1048576	40	6598
2026-01-05 17:18:47.15	6.91	43.84	-32.1	-32.7	28.4	0.00e+00	0	31	101	1048576	42	5941
2026-01-05 17:18:51.19	6.13	44.95	-31.8	-32.4	28.6	0.00e+00	0	31	101	1048576	42	5747
2026-01-05 17:18:55.24	5.29	46.09	-32.0	-32.7	28.5	0.00e+00	0	31	101	1048576	42	5912
2026-01-05 17:18:59.28	4.39	47.25	-32.3	-32.9	28.3	0.00e+00	0	31	101	1048576	42	6037
2026-01-05 17:19:03.32	3.42	48.43	-32.1	-32.7	28.4	0.00e+00	0	31	101	1048576	42	5949
2026-01-05 17:19:07.37	2.36	49.64	-32.7	-33.3	28.0	0.00e+00	0	31	101	1048576	42	6359
2026-01-05 17:19:11.41	1.22	50.87	-32.8	-33.4	27.9	0.00e+00	0	31	101	1048576	42	6419
2026-01-05 17:19:15.46	359.97	52.12	-32.9	-33.5	27.9	0.00e+00	0	31	101	1048576	42	6506
2026-01-05 17:19:19.50	358.62	53.39	-33.8	-34.5	27.1	0.00e+00	0	31	101	1048576	44	6475
2026-01-05 17:19:23.55	357.14	54.67	-32.7	-33.4	27.9	0.00e+00	0	31	101	1048576	44	5708
2026-01-05 17:19:27.59	355.52	55.97	-33.1	-33.7	27.6	0.00e+00	0	31	101	1048576	44	5923
2026-01-05 17:19:31.64	353.73	57.27	-33.1	-33.7	27.7	0.00e+00	0	31	101	1048576	44	5963
2026-01-05 17:19:35.68	351.77	58.56	-32.8	-33.4	27.8	0.00e+00	0	31	101	1048576	44	5755
2026-01-05 17:19:39.73	349.61	59.86	-33.0	-33.7	27.7	0.00e+00	0	31	101	1048576	44	5914
2026-01-05 17:19:43.77	347.21	61.13	-32.8	-33.4	27.8	0.00e+00	0	31	101	1048576	44	5745
2026-01-05 17:19:47.81	344.57	62.39	-32.5	-33.2	28.1	0.00e+00	0	31	101	1048576	44	5568
2026-01-05 17:19:51.86	341.63	63.61	-32.4	-33.1	28.1	0.00e+00	0	31	101	1048576	44	5524
2026-01-05 17:19:55.90	338.38	64.77	-32.3	-32.9	28.2	0.00e+00	0	31	101	1048576	42	6058
2026-01-05 17:19:59.95	334.78	65.88	-31.8	-32.4	28.6	0.00e+00	0	31	101	1048576	42	5751
2026-01-05 17:20:03.99	330.81	66.90	-31.4	-32.0	28.9	0.00e+00	0	31	101	1048576	42	5472
2026-01-05 17:20:08.04	326.45	67.83	-30.9	-31.4	29.2	0.00e+00	0	31	101	1048576	40	5757
2026-01-05 17:20:12.08	321.72	68.63	-30.7	-31.3	29.4	0.00e+00	0	31	101	1048576	40	5655
2026-01-05 17:20:16.12	316.62	69.29	-31.1	-31.6	29.1	0.00e+00	0	31	101	1048576	40	5889
2026-01-05 17:20:20.17	311.19	69.79	-31.4	-32.0	28.8	0.00e+00	0	31	101	1048576	40	6109
2026-01-05 17:20:24.21	305.52	70.12	-31.2	-31.9	29.0	0.00e+00	0	31	101	1048576	40	6046
2026-01-05 17:20:28.26	299.70	70.26	-31.3	-31.9	28.9	0.00e+00	0	31	101	1048576	40	6068
2026-01-05 17:20:32.30	293.87	70.20	-31.0	-31.6	29.1	0.00e+00	0	31	101	1048576	40	5864
2026-01-05 17:20:36.35	288.11	69.96	-31.2	-31.8	28.9	0.00e+00	0	31	101	1048576	40	6024
2026-01-05 17:20:40.39	282.57	69.53	-31.1	-31.8	28.8	0.00e+00	0	31	101	1048576	40	5986
2026-01-05 17:20:44.44	277.31	68.94	-30.9	-31.5	29.1	0.00e+00	0	31	101	1048576	40	5797
2026-01-05 17:20:48.48	272.41	68.19	-31.4	-31.9	28.8	0.00e+00	0	31	101	1048576	40	6095
2026-01-05 17:20:52.53	267.87	67.32	-31.2	-31.8	29.0	0.00e+00	0	31	101	1048576	40	6021
2026-01-05 17:20:56.57	263.74	66.33	-31.0	-31.5	29.0	0.00e+00	0	31	101	1048576	40	5784
2026-01-05 17:21:00.62	259.97	65.26	-31.3	-31.9	29.0	0.00e+00	0	31	101	1048576	40	6100
2026-01-05 17:21:04.66	256.58	64.11	-31.2	-31.7	29.0	0.00e+00	0	31	101	1048576	40	5937
2026-01-05 17:21:08.71	253.50	62.91	-31.1	-31.7	29.0	0.00e+00	0	31	101	1048576	40	5911
2026-01-05 17:21:12.75	250.73	61.67	-31.5	-32.1	28.8	0.00e+00	0	31	101	1048576	40	6231
2026-01-05 17:21:16.80	248.22	60.40	-31.8	-32.5	28.5	0.00e+00	0	31	101	1048576	40	6483
2026-01-05 17:21:20.84	245.96	59.11	-32.1	-32.6	28.4	0.00e+00	0	31	101	1048576	40	6604
2026-01-05 17:21:24.88	243.91	57.81	-32.0	-32.5	28.4	0.00e+00	0	31	101	1048576	42	5795
2026-01-05 17:21:28.93	242.05	56.50	-32.0	-32.6	28.4	0.00e+00	0	31	101	1048576	42	5882
2026-01-05 17:21:32.98	240.36	55.20	-32.4	-33.0	28.2	0.00e+00	0	31	101	1048576	42	6131
2026-01-05 17:21:37.02	238.82	53.91	-32.6	-33.2	28.0	0.00e+00	0	31	101	1048576	42	6287
2026-01-05 17:21:41.06	237.41	52.64	-32.8	-33.4	27.8	0.00e+00	0	31	101	1048576	42	6433
2026-01-05 17:21:45.11	236.11	51.37	-32.2	-32.7	28.3	0.00e+00	0	31	101	1048576	42	5914
2026-01-05 17:21:49.15	234.93	50.13	-32.8	-33.4	27.6	0.00e+00	0	31	101	1048576	42	6400
2026-01-05 17:21:53.20	233.83	48.91	-32.7	-33.4	27.6	0.00e+00	0	31	101	1048576	42	6442
2026-01-05 17:21:57.24	232.82	47.71	-32.0	-32.6	28.3	0.00e+00	0	31	101	1048576	42	5856
2026-01-05 17:22:01.29	231.89	46.53	-31.6	-32.1	28.7	0.00e+00	0	31	101	1048576	42	5517
2026-01-05 17:22:05.33	231.02	45.38	-32.1	-32.6	28.4	0.00e+00	0	31	101	1048576	42	5866
2026-01-05 17:22:09.37	230.22	44.26	-32.1	-32.7	28.3	0.00e+00	0	31	101	1048576	42	5939
2026-01-05 17:22:13.42	229.47	43.16	-31.7	-32.4	28.6	0.00e+00	0	31	101	1048576	42	5722
2026-01-05 17:22:17.46	228.77	42.08	-31.7	-32.2	28.6	0.00e+00	0	31	101	1048576	42	5630
2026-01-05 17:22:21.51	228.11	41.03	-31.8	-32.3	28.6	0.00e+00	0	31	101	1048576	42	5684
2026-01-05 17:22:25.55	227.50	40.01	-31.9	-32.5	28.5	0.00e+00	0	31	101	1048576	42	5763
2026-01-05 17:22:29.60	226.92	39.01	-31.4	-32.0	28.9	0.00e+00	0	31	101	1048576	42	5494
2026-01-05 17:22:33.64	226.38	38.04	-31.3	-31.8	28.9	0.00e+00	0	31	101	1048576	40	5997
2026-01-05 17:22:37.69	225.87	37.09	-31.1	-31.7	29.0	0.00e+00	0	31	101	1048576	40	5904
2026-01-05 17:22:41.73	225.39	36.17	-31.4	-31.9	28.8	0.00e+00	0	31	101	1048576	40	6079
2026-01-05 17:22:45.77	224.93	35.27	-31.8	-32.3	28.5	0.00e+00	0	31	101	1048576	40	6359
2026-01-05 17:22:49.82	224.50	34.39	-31.9	-32.4	28.6	0.00e+00	0	31	101	1048576	40	6407
2026-01-05 17:22:53.86	224.10	33.53	-32.1	-32.6	28.4	0.00e+00	0	31	101	1048576	40	6593
2026-01-05 17:22:57.91	223.71	32.70	-31.8	-32.4	28.5	0.00e+00	0	31	101	1048576	40	6455
2026-01-05 17:23:01.95	223.34	31.89	-31.6	-32.1	28.7	0.00e+00	0	31	101	1048576	40	6229
2026-01-05 17:23:06.00	223.00	31.09	-31.9	-32.4	28.4	0.00e+00	0	31	101	1048576	40	6443
2026-01-05 17:23:10.04	222.67	30.32	-31.9	-32.4	28.5	0.00e+00	0	31	101	1048576	40	6419
2026-01-05 17:23:14.09	222.35	29.57	-31.8	-32.3	28.4	0.00e+00	0	31	101	1048576	40	6350
2026-01-05 17:23:18.13	222.05	28.83	-31.9	-32.5	28.4	0.00e+00	0	31	101	1048576	40	6467
2026-01-05 17:23:22.17	221.77	28.12	-31.9	-32.4	28.5	0.00e+00	0	31	101	1048576	40	6423
2026-01-05 17:23:26.22	221.49	27.42	-31.9	-32.5	28.5	0.00e+00	0	31	101	1048576	40	6535
2026-01-05 17:23:30.27	221.23	26.73	-31.8	-32.5	28.4	0.00e+00	0	31	101	1048576	40	6496
2026-01-05 17:23:34.31	220.98	26.07	-32.1	-32.8	28.3	0.00e+00	0	31	101	1048576	42	6019
2026-01-05 17:23:38.35	220.74	25.42	-32.4	-33.1	28.1	0.00e+00	0	31	101	1048576	42	6175
2026-01-05 17:23:42.40	220.51	24.78	-32.4	-33.1	28.1	0.00e+00	0	31	101	1048576	42	6175
2026-01-05 17:23:46.44	220.29	24.16	-32.2	-32.7	28.3	0.00e+00	0	31	101	1048576	42	5899
2026-01-05 17:23:50.49	220.08	23.55	-32.5	-33.0	28.0	0.00e+00	0	31	101	1048576	42	6166
2026-01-05 17:23:54.53	219.88	22.96	-32.7	-33.3	27.8	0.00e+00	0	31	101	1048576	42	6359
2026-01-05 17:23:58.58	219.69	22.37	-33.0	-33.5	27.6	0.00e+00	0	31	101	1048576	42	6519
2026-01-05 17:24:02.62	219.50	21.81	-32.9	-33.4	27.7	0.00e+00	0	31	101	1048576	42	6460
2026-01-05 17:24:06.59	219.32	21.26	-32.8	-33.5	27.8	0.00e+00	0	31	101	1048576	42	6489
2026-01-05 17:24:10.64	219.15	20.71	-32.7	-33.2	27.9	0.00e+00	0	31	101	1048576	42	6294
2026-01-05 17:24:14.68	218.98	20.18	-32.9	-33.5	27.7	0.00e+00	0	31	101	1048576	42	6467
2026-01-05 17:24:18.73	218.82	19.66	-33.1	-33.6	27.5	0.00e+00	0	31	101	1048576	44	5867
2026-01-05 17:24:22.77	218.67	19.14	-33.3	-33.8	27.4	0.00e+00	0	31	101	1048576	44	6024
2026-01-05 17:24:26.82	218.52	18.64	-33.4	-34.0	27.3	0.00e+00	0	31	101	1048576	44	6104
2026-01-05 17:24:30.86	218.37	18.15	-33.5	-34.2	27.2	0.00e+00	0	31	101	1048576	44	6285
2026-01-05 17:24:34.91	218.23	17.67	-33.6	-34.1	27.1	0.00e+00	0	31	101	1048576	44	6231
2026-01-05 17:24:38.95	218.10	17.19	-33.7	-34.2	27.1	0.00e+00	0	31	101	1048576	44	6287
2026-01-05 17:24:43.00	217.97	16.73	-33.9	-34.4	26.8	0.00e+00	0	31	101	1048576	44	6464
2026-01-05 17:24:47.04	217.84	16.27	-34.0	-34.6	26.6	0.00e+00	0	31	101	1048576	44	6581
2026-01-05 17:24:51.08	217.72	15.82	-34.2	-34.8	26.5	0.00e+00	0	31	101	1048576	46	6009
2026-01-05 17:24:55.13	217.60	15.38	-34.3	-34.9	26.5	0.00e+00	0	31	101	1048576	46	6068
2026-01-05 17:24:59.17	217.49	14.95	-34.5	-35.1	26.3	0.00e+00	0	31	101	1048576	46	6212
2026-01-05 17:25:03.22	217.38	14.53	-34.6	-35.4	26.2	0.00e+00	0	31	101	1048576	46	6398
2026-01-05 17:25:07.26	217.27	14.11	-34.8	-35.4	26.1	0.00e+00	0	31	101	1048576	46	6413
2026-01-05 17:25:11.30	217.17	13.70	-34.8	-35.4	26.0	0.00e+00	0	31	101	1048576	46	6434
2026-01-05 17:25:15.35	217.07	13.29	-35.0	-35.6	25.9	0.00e+00	0	31	101	1048576	46	6575
2026-01-05 17:25:19.40	216.97	12.89	-35.2	-35.8	25.7	0.00e+00	0	31	101	1048576	48	6005
2026-01-05 17:25:23.44	216.88	12.50	-35.1	-35.7	25.7	0.00e+00	0	31	101	1048576	48	5942
2026-01-05 17:25:27.48	216.78	12.12	-35.2	-35.8	25.6	0.00e+00	0	31	101	1048576	48	5968
2026-01-05 17:25:31.53	216.70	11.74	-35.3	-36.0	25.5	0.00e+00	0	31	101	1048576	48	6158
2026-01-05 17:25:35.57	216.61	11.37	-35.2	-35.9	25.6	0.00e+00	0	31	101	1048576	48	6065
2026-01-05 17:25:39.62	216.52	11.00	-35.2	-35.8	25.6	0.00e+00	0	31	101	1048576	48	6005
2026-01-05 17:25:43.66	216.44	10.63	-35.1	-35.7	25.6	0.00e+00	0	31	101	1048576	48	5907
2026-01-05 17:25:47.71	216.36	10.28	-35.5	-36.1	25.2	0.00e+00	0	31	101	1048576	48	6192
2026-01-05 17:25:51.75	216.29	9.92	-35.3	-35.9	25.4	0.00e+00	0	31	101	1048576	48	6049
2026-01-05 17:25:55.80	216.21	9.58	-35.4	-36.0	25.3	0.00e+00	0	31	101	1048576	48	6123
2026-01-05 17:25:59.84	216.14	9.23	-35.6	-36.2	25.2	0.00e+00	0	31	101	1048576	48	6261
2026-01-05 17:26:03.88	216.07	8.90	-35.7	-36.3	25.0	0.00e+00	0	31	101	1048576	48	6340
2026-01-05 17:26:07.93	216.00	8.56	-35.8	-36.4	24.9	0.00e+00	0	31	101	1048576	48	6439
2026-01-05 17:26:11.97	215.93	8.23	-36.0	-36.7	24.7	0.00e+00	0	31	101	1048576	48	6680
2026-01-05 17:26:16.02	215.86	7.91	-36.3	-37.0	24.5	0.00e+00	0	31	101	1048576	50	6148
2026-01-05 17:26:20.06	215.80	7.59	-36.4	-37.1	24.4	0.00e+00	0	31	101	1048576	50	6232
2026-01-05 17:26:24.11	215.74	7.27	-36.6	-37.3	24.2	0.00e+00	0	31	101	1048576	50	6380
2026-01-05 17:26:28.15	215.68	6.96	-36.4	-37.0	24.3	0.00e+00	0	31	101	1048576	50	6145
2026-01-05 17:26:32.20	215.62	6.65	-36.6	-37.3	24.0	0.00e+00	0	31	101	1048576	50	6321
2026-01-05 17:26:36.24	215.56	6.34	-36.9	-37.7	23.8	0.00e+00	0	31	101	1048576	50	6638
2026-01-05 17:26:40.28	215.51	6.04	-36.9	-37.5	23.7	0.00e+00	0	31	101	1048576	50	6535
2026-01-05 17:26:44.33	215.45	5.74	-37.0	-37.6	23.6	0.00e+00	0	31	101	1048576	52	5892
2026-01-05 17:26:48.37	215.40	5.44	-37.3	-38.0	23.3	0.00e+00	0	31	101	1048576	52	6150
2026-01-05 17:26:52.42	215.34	5.15	-37.3	-38.1	23.3	0.00e+00	0	31	101	1048576	52	6196
2026-01-05 17:26:56.46	215.29	4.86	-37.4	-38.1	23.1	0.00e+00	0	31	101	1048576	52	6220
2026-01-05 17:27:00.50	215.24	4.58	-37.5	-38.2	23.0	0.00e+00	0	31	101	1048576	52	6268
2026-01-05 17:27:04.55	215.20	4.29	-37.8	-38.5	22.6	0.00e+00	0	31	101	1048576	52	6491
2026-01-05 17:27:08.59	215.15	4.01	-38.2	-38.9	22.2	0.00e+00	0	31	101	1048576	54	6065
2026-01-05 17:27:12.63	215.10	3.74	-37.8	-38.5	22.5	0.00e+00	0	31	101	1048576	54	5803
2026-01-05 17:27:16.68	215.06	3.46	-38.0	-38.9	22.2	0.00e+00	0	31	101	1048576	54	6064
2026-01-05 17:27:20.72	215.01	3.19	-37.9	-38.6	22.3	0.00e+00	0	31	101	1048576	54	5885
2026-01-05 17:27:24.77	214.97	2.92	-37.8	-38.6	22.2	0.00e+00	0	31	101	1048576	54	5842
2026-01-05 17:27:28.81	214.93	2.65	-50.0	-62.1	3.6	2.84e-01	0	31	104	1048576	60	62216
2026-01-05 17:27:32.86	214.89	2.39	-51.0	-63.2	3.6	8.46e-01	0	31	104	1048576	60	70797
2026-01-05 17:27:36.90	214.85	2.13	-51.1	-63.3	3.6	8.46e-01	0	31	104	1048576	60	71658
2026-01-05 17:27:40.94	214.81	1.87	-51.0	-63.2	3.5	8.45e-01	0	31	104	1048576	60	70718
2026-01-05 17:27:44.99	214.77	1.61	-51.0	-63.2	3.6	8.47e-01	0	31	104	1048576	60	70714
2026-01-05 17:27:49.03	214.73	1.36	-51.0	-63.2	3.6	8.45e-01	0	31	104	1048576	60	70686
2026-01-05 17:27:53.08	214.70	1.10	-51.0	-63.2	3.6	8.45e-01	0	31	104	1048576	60	70681
2026-01-05 17:27:57.12	214.66	0.85	-51.0	-63.2	3.6	8.45e-01	0	31	104	1048576	60	70547
2026-01-05 17:28:01.17	214.63	0.60	-51.0	-63.2	3.6	8.44e-01	0	31	104	1048576	60	70494
2026-01-05 17:28:05.21	214.59	0.36	-51.0	-63.2	3.6	8.45e-01	0	31	104	1048576	60	70757
2026-01-05 17:28:09.25	214.56	0.11	-51.0	-63.2	3.6	8.45e-01	0	31	104	1048576	60	70488

#Closed at: 2026-01-05 17:28:13
#Recorded file [1 MB]: D:/lorett/data/35034_260105_201247.dat