passes_logs/2026/01/05/R4.6S_Anadyr_2ch/R4.6S_Anadyr_2ch__20260105_181233_NOAA_20_JPSS-1_rec.log

#Pass ID: 20260105_181233_NOAA 20 (JPSS-1)
#Satellite: NOAA 20 (JPSS-1)
#Configuration: NOAA 20
#almurnet v.1.7.20251203
#Start time: 2026-01-05 18:12:34

#Version: 2.2.20231116
#Station: R4.6S_Anadyr_2ch
#Location: 177.4865 lon 64.73178 lat
#TLE: 1 43013U 17073A   25350.93759711  .00000080  00000+0  58734-4 0  9994
#TLE: 2 43013  98.7603 287.1885 0002156  81.1496 278.9924 14.19526878418610

#Time	Az	El	Level	Level2	SNR	BER	BlckErr	Temp	State	Recorded	gain1	gain2
2026-01-05 18:12:34.85	38.31	0.09	-51.1	-66.0	3.5	1.51e+00	0	29	0	0	60	97642
2026-01-05 18:12:38.90	38.03	0.29	-51.2	-66.5	3.6	1.51e+00	0	30	104	0	60	102979
2026-01-05 18:12:42.94	37.75	0.50	-51.2	-66.5	3.6	1.51e+00	0	30	104	0	60	102598
2026-01-05 18:12:46.99	37.46	0.70	-51.0	-66.2	3.6	1.51e+00	0	30	104	0	60	99716
2026-01-05 18:12:51.03	37.17	0.91	-50.0	-65.2	3.5	1.51e+00	0	30	104	0	60	88617
2026-01-05 18:12:55.07	36.87	1.12	-49.7	-65.0	3.6	1.51e+00	0	30	104	0	60	86326
2026-01-05 18:12:59.12	36.57	1.33	-49.7	-64.9	3.6	1.51e+00	0	30	104	0	60	85882
2026-01-05 18:13:03.16	36.26	1.54	-49.7	-65.0	3.6	1.51e+00	0	30	104	0	60	86258
2026-01-05 18:13:07.20	35.96	1.75	-49.7	-64.9	3.6	1.51e+00	0	30	104	0	60	85856
2026-01-05 18:13:11.25	35.64	1.96	-49.7	-64.9	3.6	1.51e+00	0	30	104	0	60	85428
2026-01-05 18:13:15.29	35.32	2.17	-49.7	-64.7	3.6	1.51e+00	0	30	104	0	60	83974
2026-01-05 18:13:19.33	35.00	2.38	-49.7	-65.0	3.6	1.51e+00	0	30	104	0	60	86240
2026-01-05 18:13:23.38	34.67	2.59	-49.7	-64.9	3.6	1.51e+00	0	31	104	0	60	85904
2026-01-05 18:13:27.42	34.33	2.81	-49.7	-63.9	3.5	1.51e+00	0	31	104	0	60	76415
2026-01-05 18:13:31.47	33.99	3.02	-49.4	-59.2	4.4	1.45e+00	32	31	0	0	60	44654
2026-01-05 18:13:35.51	33.65	3.23	-49.3	-58.2	5.1	1.49e+00	0	31	104	1048576	60	39809
2026-01-05 18:13:39.56	33.30	3.45	-44.8	-46.8	17.3	0.00e+00	90	31	0	1048576	60	10640
2026-01-05 18:13:43.60	32.95	3.67	-44.3	-46.0	18.2	0.00e+00	60	31	0	1048576	60	9751
2026-01-05 18:13:47.64	32.58	3.88	-44.3	-46.1	18.1	0.00e+00	0	31	0	1048576	60	9817
2026-01-05 18:13:51.69	32.22	4.10	-44.4	-46.1	18.3	0.00e+00	0	31	0	1048576	60	9871
2026-01-05 18:13:55.74	31.85	4.32	-44.3	-46.0	18.5	0.00e+00	91	31	0	1048576	60	9703
2026-01-05 18:13:59.78	31.47	4.54	-44.3	-46.1	18.3	0.00e+00	2	31	101	1048576	60	9795
2026-01-05 18:14:03.82	31.09	4.76	-44.4	-46.2	18.3	0.00e+00	0	31	101	1048576	60	9914
2026-01-05 18:14:07.87	30.70	4.98	-44.5	-46.3	18.4	0.00e+00	0	31	101	1048576	60	10034
2026-01-05 18:14:11.91	30.30	5.20	-44.3	-46.1	18.5	0.00e+00	90	31	101	1048576	60	9786
2026-01-05 18:14:15.96	29.90	5.42	-44.2	-45.9	18.7	0.00e+00	48	31	101	1048576	60	9652
2026-01-05 18:14:20.00	29.49	5.64	-44.3	-46.0	18.7	0.00e+00	2	31	101	1048576	60	9712
2026-01-05 18:14:24.04	29.08	5.86	-44.2	-45.8	18.9	0.00e+00	92	31	101	1048576	60	9491
2026-01-05 18:14:28.09	28.65	6.08	-44.0	-45.6	19.1	0.00e+00	0	31	101	1048576	60	9257
2026-01-05 18:14:32.13	28.23	6.31	-44.2	-45.8	18.9	0.00e+00	36	31	101	1048576	60	9486
2026-01-05 18:14:36.18	27.79	6.53	-44.0	-45.5	19.2	0.00e+00	0	31	101	1048576	60	9216
2026-01-05 18:14:40.22	27.35	6.75	-44.0	-45.6	19.2	0.00e+00	92	31	101	1048576	60	9257
2026-01-05 18:14:44.26	26.90	6.98	-43.8	-45.3	19.6	0.00e+00	0	31	101	1048576	60	8948
2026-01-05 18:14:48.31	26.44	7.20	-43.8	-45.3	19.5	0.00e+00	35	31	101	1048576	60	9002
2026-01-05 18:14:52.35	25.98	7.42	-43.3	-44.6	19.7	0.00e+00	47	31	101	1048576	60	8297
2026-01-05 18:14:56.40	25.51	7.65	-43.1	-44.4	20.4	0.00e+00	91	31	101	1048576	60	8137
2026-01-05 18:15:00.44	25.03	7.87	-43.2	-44.6	20.3	0.00e+00	9	31	101	1048576	60	8238
2026-01-05 18:15:04.49	24.55	8.10	-43.1	-44.4	20.5	0.00e+00	35	31	101	1048576	60	8127
2026-01-05 18:15:08.53	24.05	8.32	-43.2	-44.6	20.4	0.00e+00	0	31	101	1048576	60	8278
2026-01-05 18:15:12.57	23.55	8.55	-43.3	-44.6	20.4	0.00e+00	91	31	101	1048576	60	8292
2026-01-05 18:15:16.62	23.04	8.77	-43.2	-44.6	20.5	0.00e+00	6	31	101	1048576	60	8260
2026-01-05 18:15:20.66	22.53	8.99	-42.8	-44.1	20.8	0.00e+00	0	31	101	1048576	60	7842
2026-01-05 18:15:24.71	22.00	9.22	-42.8	-44.1	20.9	0.00e+00	51	31	101	1048576	60	7794
2026-01-05 18:15:28.75	21.47	9.44	-42.7	-43.9	21.0	0.00e+00	92	31	101	1048576	60	7646
2026-01-05 18:15:32.80	20.92	9.66	-42.5	-43.7	21.2	0.00e+00	2	31	101	1048576	60	7483
2026-01-05 18:15:36.84	20.37	9.89	-42.6	-43.8	21.2	0.00e+00	0	31	101	1048576	60	7518
2026-01-05 18:15:40.88	19.81	10.11	-42.5	-43.7	21.3	0.00e+00	92	31	101	1048576	60	7430
2026-01-05 18:15:44.93	19.24	10.33	-42.6	-43.8	21.2	0.00e+00	35	31	101	1048576	60	7572
2026-01-05 18:15:48.97	18.67	10.55	-42.6	-43.8	21.2	0.00e+00	49	31	101	1048576	60	7582
2026-01-05 18:15:53.02	18.08	10.77	-42.7	-44.0	21.1	0.00e+00	0	31	101	1048576	60	7713
2026-01-05 18:15:57.06	17.49	10.99	-42.7	-43.9	21.1	0.00e+00	91	31	101	1048576	60	7635
2026-01-05 18:16:01.11	16.88	11.20	-42.4	-43.5	21.5	0.00e+00	0	31	101	1048576	60	7319
2026-01-05 18:16:05.15	16.27	11.42	-42.7	-43.9	21.1	0.00e+00	45	31	101	1048576	60	7639
2026-01-05 18:16:09.20	15.65	11.63	-42.8	-44.0	21.1	0.00e+00	2	31	101	1048576	60	7735
2026-01-05 18:16:13.24	15.02	11.85	-42.4	-43.5	21.5	0.00e+00	92	31	101	1048576	60	7335
2026-01-05 18:16:17.28	14.38	12.06	-42.2	-43.3	21.5	0.00e+00	36	31	101	1048576	60	7149
2026-01-05 18:16:21.33	13.72	12.27	-41.9	-43.0	22.0	0.00e+00	39	31	101	1048576	60	6908
2026-01-05 18:16:25.37	13.06	12.47	-41.7	-42.8	22.3	0.00e+00	37	31	101	1048576	60	6723
2026-01-05 18:16:29.42	12.39	12.68	-41.3	-42.3	22.7	0.00e+00	91	31	101	1048576	60	6361
2026-01-05 18:16:33.46	11.72	12.88	-41.1	-42.1	22.9	0.00e+00	6	31	101	1048576	60	6215
2026-01-05 18:16:37.51	11.03	13.08	-41.1	-42.1	22.8	0.00e+00	0	31	101	1048576	60	6242
2026-01-05 18:16:41.55	10.33	13.28	-40.9	-41.9	23.1	0.00e+00	92	31	101	1048576	60	6091
2026-01-05 18:16:45.59	9.62	13.48	-40.8	-41.8	23.2	0.00e+00	39	31	101	1048576	60	5971
2026-01-05 18:16:49.64	8.91	13.67	-40.5	-41.4	23.5	0.00e+00	0	31	101	1048576	60	5745
2026-01-05 18:16:53.69	8.18	13.86	-40.3	-41.2	23.7	0.00e+00	38	31	101	1048576	60	5625
2026-01-05 18:16:57.73	7.44	14.05	-40.0	-40.8	23.9	0.00e+00	92	31	101	1048576	58	6031
2026-01-05 18:17:01.77	6.70	14.23	-40.1	-41.0	23.8	0.00e+00	0	31	101	1048576	58	6155
2026-01-05 18:17:05.81	5.94	14.41	-40.3	-41.2	23.7	0.00e+00	50	31	101	1048576	58	6290
2026-01-05 18:17:09.86	5.18	14.58	-40.8	-41.7	23.3	0.00e+00	0	31	101	1048576	58	6683
2026-01-05 18:17:13.90	4.41	14.76	-40.6	-41.5	23.4	0.00e+00	91	31	101	1048576	58	6505
2026-01-05 18:17:17.95	3.63	14.92	-40.7	-41.6	23.3	0.00e+00	40	31	101	1048576	58	6607
2026-01-05 18:17:21.99	2.84	15.09	-40.6	-41.6	23.4	0.00e+00	49	31	101	1048576	58	6566
2026-01-05 18:17:26.03	2.04	15.25	-40.3	-41.2	23.8	0.00e+00	0	31	101	1048576	58	6247
2026-01-05 18:17:30.08	1.23	15.40	-40.1	-41.0	23.9	0.00e+00	92	31	101	1048576	58	6104
2026-01-05 18:17:34.12	0.41	15.55	-39.9	-40.8	23.4	0.00e+00	40	31	101	1048576	58	5990
2026-01-05 18:17:38.17	359.59	15.69	-40.2	-41.1	24.0	0.00e+00	0	31	101	1048576	58	6188
2026-01-05 18:17:42.21	358.76	15.83	-40.0	-40.9	24.1	0.00e+00	55	31	101	1048576	58	6060
2026-01-05 18:17:46.25	357.92	15.97	-40.1	-41.0	23.8	0.00e+00	0	31	101	1048576	58	6145
2026-01-05 18:17:50.30	357.07	16.09	-39.9	-40.7	24.1	0.00e+00	0	31	101	1048576	58	5948
2026-01-05 18:17:54.34	356.21	16.22	-40.2	-41.1	23.8	0.00e+00	0	31	101	1048576	58	6243
2026-01-05 18:17:58.39	355.35	16.33	-40.1	-41.0	23.9	0.00e+00	90	31	101	1048576	58	6105
2026-01-05 18:18:02.43	354.48	16.44	-40.1	-40.9	24.0	0.00e+00	0	31	101	1048576	58	6093
2026-01-05 18:18:06.47	353.61	16.55	-39.9	-40.7	24.1	0.00e+00	0	31	101	1048576	58	5940
2026-01-05 18:18:10.52	352.73	16.64	-40.2	-41.1	23.7	0.00e+00	33	31	101	1048576	58	6178
2026-01-05 18:18:14.56	351.84	16.73	-40.4	-41.3	23.7	0.00e+00	92	31	101	1048576	58	6358
2026-01-05 18:18:18.61	350.95	16.82	-40.8	-41.7	23.3	0.00e+00	6	31	101	1048576	58	6663
2026-01-05 18:18:22.65	350.06	16.90	-40.8	-41.8	23.2	0.00e+00	6	31	101	1048576	58	6693
2026-01-05 18:18:26.70	349.15	16.97	-40.7	-41.6	23.3	0.00e+00	0	31	101	1048576	58	6602
2026-01-05 18:18:30.74	348.25	17.03	-40.8	-41.7	23.3	0.00e+00	92	31	101	1048576	58	6646
2026-01-05 18:18:34.78	347.34	17.08	-41.0	-42.0	23.2	0.00e+00	48	31	101	1048576	58	6887
2026-01-05 18:18:38.83	346.43	17.13	-41.0	-41.9	23.1	0.00e+00	0	31	101	1048576	58	6838
2026-01-05 18:18:42.87	345.52	17.17	-40.9	-41.9	23.1	0.00e+00	0	31	101	1048576	60	6056
2026-01-05 18:18:46.92	344.60	17.21	-41.0	-42.0	23.1	0.00e+00	90	31	101	1048576	60	6135
2026-01-05 18:18:50.96	343.68	17.23	-40.9	-41.9	23.3	0.00e+00	4	31	101	1048576	60	6048
2026-01-05 18:18:55.01	342.76	17.25	-40.8	-41.8	23.3	0.00e+00	0	31	101	1048576	60	5978
2026-01-05 18:18:59.05	341.84	17.26	-40.9	-41.8	23.3	0.00e+00	0	31	101	1048576	60	6003
2026-01-05 18:19:03.10	340.92	17.27	-41.0	-42.0	23.1	0.00e+00	90	31	101	1048576	60	6104
2026-01-05 18:19:07.14	340.00	17.26	-41.3	-42.3	22.0	0.00e+00	0	31	101	1048576	60	6375
2026-01-05 18:19:11.19	339.07	17.25	-40.7	-41.6	23.4	0.00e+00	2	31	101	1048576	60	5866
2026-01-05 18:19:15.23	338.16	17.23	-40.7	-41.6	23.4	0.00e+00	87	31	101	1048576	60	5868
2026-01-05 18:19:19.27	337.24	17.21	-41.0	-42.0	23.1	0.00e+00	37	31	101	1048576	60	6124
2026-01-05 18:19:23.32	336.32	17.17	-41.0	-42.0	23.2	0.00e+00	0	31	101	1048576	60	6107
2026-01-05 18:19:27.36	335.41	17.13	-40.4	-41.3	23.7	0.00e+00	42	31	101	1048576	60	5666
2026-01-05 18:19:31.41	334.49	17.08	-40.5	-41.4	23.5	0.00e+00	92	31	101	1048576	60	5743
2026-01-05 18:19:35.45	333.59	17.02	-40.4	-41.4	23.6	0.00e+00	0	31	101	1048576	60	5697
2026-01-05 18:19:39.50	332.68	16.96	-40.3	-41.2	23.6	0.00e+00	0	31	101	1048576	60	5623
2026-01-05 18:19:43.54	331.78	16.89	-40.0	-40.9	24.0	0.00e+00	38	31	101	1048576	58	6073
2026-01-05 18:19:47.58	330.89	16.81	-39.9	-40.8	24.0	0.00e+00	92	31	101	1048576	58	5986
2026-01-05 18:19:51.63	329.99	16.73	-40.0	-40.9	24.0	0.00e+00	0	31	101	1048576	58	6076
2026-01-05 18:19:55.67	329.11	16.64	-40.2	-41.1	23.9	0.00e+00	38	31	101	1048576	58	6240
2026-01-05 18:19:59.72	328.23	16.54	-40.3	-41.2	23.8	0.00e+00	0	31	101	1048576	58	6292
2026-01-05 18:20:03.76	327.35	16.44	-40.4	-41.3	23.6	0.00e+00	90	31	101	1048576	58	6354
2026-01-05 18:20:07.80	326.49	16.32	-40.6	-41.6	23.5	0.00e+00	43	31	101	1048576	58	6551
2026-01-05 18:20:11.85	325.62	16.21	-40.9	-41.9	23.1	0.00e+00	0	31	101	1048576	58	6807
2026-01-05 18:20:15.89	324.77	16.09	-41.0	-42.0	23.1	0.00e+00	40	31	101	1048576	58	6858
2026-01-05 18:20:19.93	323.92	15.96	-41.0	-42.0	23.1	0.00e+00	92	31	101	1048576	58	6855
2026-01-05 18:20:23.98	323.08	15.82	-40.9	-41.8	23.3	0.00e+00	0	31	101	1048576	58	6750
2026-01-05 18:20:28.02	322.25	15.68	-40.6	-41.5	23.5	0.00e+00	0	31	101	1048576	58	6483
2026-01-05 18:20:32.07	321.42	15.54	-40.5	-41.4	23.5	0.00e+00	92	31	101	1048576	58	6416
2026-01-05 18:20:36.11	320.61	15.39	-40.7	-41.6	23.4	0.00e+00	43	31	101	1048576	58	6576
2026-01-05 18:20:40.16	319.80	15.23	-40.7	-41.6	23.4	0.00e+00	47	31	101	1048576	58	6608
2026-01-05 18:20:44.20	319.00	15.08	-40.5	-41.5	23.4	0.00e+00	43	31	101	1048576	58	6469
2026-01-05 18:20:48.25	318.21	14.91	-40.7	-41.6	23.3	0.00e+00	90	31	101	1048576	58	6571
2026-01-05 18:20:52.29	317.43	14.74	-40.9	-41.8	23.1	0.00e+00	37	31	101	1048576	58	6754
2026-01-05 18:20:56.33	316.66	14.57	-40.9	-41.8	23.2	0.00e+00	39	31	101	1048576	58	6748
2026-01-05 18:21:00.38	315.89	14.40	-40.5	-41.4	23.5	0.00e+00	47	31	101	1048576	58	6446
2026-01-05 18:21:04.42	315.14	14.22	-41.3	-42.3	22.8	0.00e+00	92	31	101	1048576	60	6371
2026-01-05 18:21:08.47	314.39	14.03	-41.4	-42.4	22.7	0.00e+00	0	31	101	1048576	60	6427
2026-01-05 18:21:12.51	313.65	13.85	-41.5	-42.6	22.6	0.00e+00	30	31	101	1048576	60	6566
2026-01-05 18:21:16.56	312.93	13.65	-41.8	-42.8	22.4	0.00e+00	73	31	101	1048576	60	6755
2026-01-05 18:21:20.60	312.21	13.46	-42.1	-43.2	22.0	0.00e+00	92	31	101	1048576	60	7017
2026-01-05 18:21:24.64	311.50	13.27	-42.5	-43.6	21.6	0.00e+00	7	31	101	1048576	60	7412
2026-01-05 18:21:28.69	310.81	13.07	-42.5	-43.6	21.6	0.00e+00	0	31	101	1048576	60	7404
2026-01-05 18:21:32.73	310.12	12.87	-42.2	-43.3	21.8	0.00e+00	36	31	101	1048576	60	7108
2026-01-05 18:21:36.78	309.44	12.66	-42.6	-43.8	21.4	0.00e+00	90	31	101	1048576	60	7572
2026-01-05 18:21:40.82	308.77	12.46	-43.0	-44.2	21.0	0.00e+00	0	31	101	1048576	60	7914
2026-01-05 18:21:44.87	308.11	12.25	-42.8	-44.0	21.2	0.00e+00	0	31	101	1048576	60	7736
2026-01-05 18:21:48.91	307.46	12.04	-42.9	-44.2	21.0	0.00e+00	90	31	101	1048576	60	7873
2026-01-05 18:21:52.96	306.81	11.83	-43.0	-44.3	20.9	0.00e+00	36	31	101	1048576	60	7966
2026-01-05 18:21:57.00	306.18	11.62	-43.0	-44.3	21.0	0.00e+00	0	31	101	1048576	60	7970
2026-01-05 18:22:01.04	305.56	11.40	-42.9	-44.2	21.0	0.00e+00	2	31	101	1048576	60	7876
2026-01-05 18:22:05.09	304.95	11.19	-43.0	-44.2	20.9	0.00e+00	90	31	101	1048576	60	7948
2026-01-05 18:22:09.13	304.34	10.97	-42.7	-43.9	21.2	0.00e+00	51	31	101	1048576	60	7660
2026-01-05 18:22:13.17	303.75	10.75	-42.5	-43.6	21.5	0.00e+00	48	31	101	1048576	60	7400
2026-01-05 18:22:17.22	303.16	10.53	-42.2	-43.4	21.8	0.00e+00	0	31	101	1048576	60	7175
2026-01-05 18:22:21.26	302.58	10.31	-42.1	-43.2	21.8	0.00e+00	90	31	101	1048576	60	7052
2026-01-05 18:22:25.31	302.02	10.09	-42.2	-43.4	21.6	0.00e+00	0	31	101	1048576	60	7199
2026-01-05 18:22:29.35	301.46	9.87	-41.8	-42.9	22.1	0.00e+00	47	31	101	1048576	60	6835
2026-01-05 18:22:33.40	300.90	9.64	-41.4	-42.5	22.5	0.00e+00	0	31	101	1048576	60	6489
2026-01-05 18:22:37.44	300.36	9.42	-41.4	-42.4	22.5	0.00e+00	90	31	101	1048576	60	6453
2026-01-05 18:22:41.49	299.83	9.20	-41.3	-42.3	22.5	0.00e+00	0	31	101	1048576	60	6385
2026-01-05 18:22:45.53	299.30	8.98	-41.2	-42.2	22.7	0.00e+00	51	31	101	1048576	60	6264
2026-01-05 18:22:49.57	298.78	8.75	-40.9	-41.8	23.0	0.00e+00	12	31	101	1048576	60	6030
2026-01-05 18:22:53.62	298.27	8.53	-41.1	-42.1	22.8	0.00e+00	56	31	101	1048576	60	6183
2026-01-05 18:22:57.66	297.77	8.30	-41.1	-42.1	22.7	0.00e+00	0	31	101	1048576	60	6220
2026-01-05 18:23:01.71	297.28	8.08	-41.2	-42.2	22.6	0.00e+00	0	31	101	1048576	60	6267
2026-01-05 18:23:05.75	296.79	7.85	-41.2	-42.2	22.6	0.00e+00	92	31	101	1048576	60	6298
2026-01-05 18:23:09.80	296.31	7.63	-41.5	-42.5	22.3	0.00e+00	0	31	101	1048576	60	6524
2026-01-05 18:23:13.84	295.84	7.40	-41.7	-42.8	22.1	0.00e+00	2	31	101	1048576	60	6697
2026-01-05 18:23:17.89	295.38	7.18	-41.6	-42.7	22.1	0.00e+00	35	31	101	1048576	60	6667
2026-01-05 18:23:21.93	294.92	6.96	-41.3	-42.4	22.4	0.00e+00	92	31	101	1048576	60	6415
2026-01-05 18:23:25.97	294.47	6.73	-41.4	-42.5	22.3	0.00e+00	47	31	101	1048576	60	6479
2026-01-05 18:23:30.02	294.03	6.51	-41.7	-42.9	21.9	0.00e+00	0	31	101	1048576	60	6774
2026-01-05 18:23:34.06	293.59	6.29	-42.1	-43.3	21.4	0.00e+00	0	31	101	1048576	60	7127
2026-01-05 18:23:38.11	293.16	6.06	-42.3	-43.5	21.2	0.00e+00	92	31	101	1048576	60	7311
2026-01-05 18:23:42.15	292.74	5.84	-42.5	-43.7	21.1	0.00e+00	53	31	101	1048576	60	7464
2026-01-05 18:23:46.20	292.33	5.62	-42.5	-43.7	21.0	0.00e+00	0	31	101	1048576	60	7485
2026-01-05 18:23:50.24	291.92	5.40	-42.8	-44.1	20.6	0.00e+00	0	31	101	1048576	60	7792
2026-01-05 18:23:54.29	291.51	5.18	-43.0	-44.3	20.3	0.00e+00	36	31	101	1048576	60	8031
2026-01-05 18:23:58.33	291.12	4.96	-43.4	-44.8	19.9	0.00e+00	49	31	101	1048576	60	8461
2026-01-05 18:24:02.37	290.73	4.74	-43.4	-44.8	19.8	0.00e+00	0	31	101	1048576	60	8509
2026-01-05 18:24:06.42	290.34	4.52	-43.3	-44.8	19.7	0.00e+00	74	31	101	1048576	60	8441
2026-01-05 18:24:10.46	289.96	4.30	-43.6	-45.1	19.4	0.00e+00	0	31	101	1048576	60	8807
2026-01-05 18:24:14.50	289.59	4.08	-43.9	-45.5	19.0	0.00e+00	0	31	101	1048576	60	9140
2026-01-05 18:24:18.54	289.23	3.86	-43.9	-45.5	18.9	0.00e+00	31	31	101	1048576	60	9223
2026-01-05 18:24:22.59	288.86	3.65	-43.8	-45.4	18.9	0.00e+00	92	31	101	1048576	60	9107
2026-01-05 18:24:26.63	288.51	3.43	-44.1	-45.8	18.6	0.00e+00	0	31	101	1048576	60	9460
2026-01-05 18:24:30.68	288.16	3.21	-44.2	-45.9	18.3	0.00e+00	32	31	101	1048576	60	9666
2026-01-05 18:24:34.72	287.81	3.00	-50.8	-66.0	3.6	1.51e+00	0	31	104	1048576	60	97689
2026-01-05 18:24:38.77	287.47	2.79	-51.3	-66.5	3.6	1.51e+00	0	31	104	1048576	60	103237
2026-01-05 18:24:42.81	287.14	2.57	-51.3	-66.5	3.6	1.51e+00	0	31	104	1048576	60	103613
2026-01-05 18:24:46.86	286.81	2.36	-51.2	-66.4	3.6	1.51e+00	0	31	104	1048576	60	102378
2026-01-05 18:24:50.90	286.48	2.15	-51.2	-66.4	3.6	1.51e+00	0	31	104	1048576	60	102040
2026-01-05 18:24:54.95	286.16	1.94	-51.2	-66.5	3.6	1.51e+00	0	31	104	1048576	60	102469
2026-01-05 18:24:58.99	285.84	1.73	-51.2	-66.4	3.6	1.51e+00	0	31	104	1048576	60	101870
2026-01-05 18:25:03.03	285.53	1.52	-51.2	-66.4	3.6	1.51e+00	0	31	104	1048576	60	101877
2026-01-05 18:25:07.08	285.23	1.31	-51.2	-66.4	3.6	1.51e+00	0	31	104	1048576	60	101736
2026-01-05 18:25:11.12	284.92	1.10	-51.2	-66.4	3.6	1.51e+00	0	31	104	1048576	60	102048
2026-01-05 18:25:15.16	284.63	0.89	-51.2	-66.4	3.6	1.51e+00	0	31	104	1048576	60	102091
2026-01-05 18:25:19.21	284.33	0.68	-51.2	-66.4	3.6	1.51e+00	0	31	104	1048576	60	101852
2026-01-05 18:25:23.26	284.04	0.48	-51.2	-66.4	3.6	1.51e+00	0	31	104	1048576	60	101529
2026-01-05 18:25:27.30	283.76	0.27	-51.2	-66.4	3.6	1.51e+00	0	31	104	1048576	60	102038
2026-01-05 18:25:31.34	283.48	0.07	-51.2	-66.4	3.6	1.51e+00	0	31	104	1048576	60	102236

#Closed at: 2026-01-05 18:25:33
#Recorded file [1 MB]: D:/lorett/data/35034_260105_211234.dat