passes_logs/2026/01/05/R4.6S_Anadyr_2ch/R4.6S_Anadyr_2ch__20260105_235731_NOAA_21_JPSS-2_rec.log

#Pass ID: 20260105_235731_NOAA 21 (JPSS-2)
#Satellite: NOAA 21 (JPSS-2)
#Configuration: NOAA-21
#almurnet v.1.7.20251203
#Start time: 2026-01-05 23:57:34

#Version: 2.2.20231116
#Station: R4.6S_Anadyr_2ch
#Location: 177.4865 lon 64.73178 lat
#TLE: 1 54234U 22150A   25350.97269056  .00000057  00000+0  47676-4 0  9992
#TLE: 2 54234  98.7466 287.2282 0002043  29.8355 330.2937 14.19525482160692

#Time	Az	El	Level	Level2	SNR	BER	BlckErr	Temp	State	Recorded	gain1	gain2
2026-01-05 23:57:34.89	149.89	0.20	-51.3	-62.8	3.3	1.54e+00	0	30	0	0	60	65547
2026-01-05 23:57:38.93	149.87	0.45	-51.4	-64.4	3.5	1.52e+00	0	30	104	0	60	78810
2026-01-05 23:57:42.97	149.86	0.70	-51.0	-64.1	3.5	1.52e+00	0	31	104	0	60	75708
2026-01-05 23:57:47.02	149.84	0.95	-50.1	-63.1	3.5	1.52e+00	0	31	104	0	60	67476
2026-01-05 23:57:51.06	149.82	1.20	-49.7	-62.7	3.5	1.52e+00	0	31	104	0	60	64716
2026-01-05 23:57:55.11	149.81	1.45	-49.8	-62.7	3.5	1.52e+00	0	31	104	0	60	64674
2026-01-05 23:57:59.15	149.79	1.71	-49.7	-62.8	3.5	1.52e+00	0	31	104	0	60	65082
2026-01-05 23:58:03.20	149.77	1.97	-49.7	-62.6	3.5	1.52e+00	0	31	104	0	60	63622
2026-01-05 23:58:07.24	149.75	2.23	-49.7	-62.3	3.5	1.51e+00	0	31	104	0	60	61578
2026-01-05 23:58:11.28	149.73	2.49	-49.7	-62.2	3.5	1.52e+00	0	31	104	0	60	61068
2026-01-05 23:58:15.33	149.71	2.76	-49.6	-61.9	3.5	1.52e+00	0	31	104	0	60	58818
2026-01-05 23:58:19.37	149.69	3.02	-49.7	-62.2	3.5	1.52e+00	0	31	104	0	60	61077
2026-01-05 23:58:23.42	149.67	3.29	-48.5	-54.0	7.1	1.61e-01	123	31	0	0	60	23789
2026-01-05 23:58:27.46	149.65	3.57	-46.0	-48.7	13.3	5.26e-05	123	31	102	1048576	60	12914
2026-01-05 23:58:31.51	149.62	3.84	-49.8	-62.4	3.5	1.49e+00	0	31	104	1048576	60	62649
2026-01-05 23:58:35.55	149.60	4.12	-48.8	-56.0	4.7	1.50e+00	0	31	104	1048576	60	29977
2026-01-05 23:58:39.59	149.57	4.40	-40.5	-41.8	20.4	0.00e+00	120	31	0	1048576	60	5798
2026-01-05 23:58:43.63	149.55	4.69	-40.6	-41.8	20.2	0.00e+00	120	31	0	1048576	58	6532
2026-01-05 23:58:47.68	149.52	4.98	-40.1	-41.3	20.9	0.00e+00	123	31	101	1048576	58	6170
2026-01-05 23:58:51.72	149.50	5.27	-39.7	-40.8	21.3	0.00e+00	118	31	101	1048576	58	5858
2026-01-05 23:58:55.77	149.47	5.56	-39.6	-40.7	21.4	0.00e+00	122	31	101	1048576	58	5771
2026-01-05 23:58:59.81	149.44	5.86	-39.9	-41.0	21.2	0.00e+00	122	31	101	1048576	58	5958
2026-01-05 23:59:03.85	149.41	6.16	-39.5	-40.6	21.7	0.00e+00	120	31	101	1048576	58	5688
2026-01-05 23:59:07.89	149.38	6.47	-39.4	-40.5	21.7	0.00e+00	122	31	101	1048576	58	5642
2026-01-05 23:59:11.94	149.35	6.77	-39.4	-40.5	21.7	0.00e+00	122	31	101	1048576	58	5619
2026-01-05 23:59:15.98	149.32	7.09	-39.4	-40.4	21.9	0.00e+00	120	31	101	1048576	58	5577
2026-01-05 23:59:20.02	149.29	7.40	-39.1	-40.1	22.1	0.00e+00	123	31	101	1048576	56	6063
2026-01-05 23:59:24.07	149.25	7.72	-39.2	-40.2	22.1	0.00e+00	123	31	101	1048576	56	6126
2026-01-05 23:59:28.11	149.22	8.05	-39.2	-40.3	22.1	0.00e+00	122	31	101	1048576	56	6154
2026-01-05 23:59:32.16	149.18	8.37	-38.9	-40.0	22.3	0.00e+00	120	31	101	1048576	56	5944
2026-01-05 23:59:36.20	149.15	8.71	-39.0	-40.0	22.4	0.00e+00	122	31	101	1048576	56	5948
2026-01-05 23:59:40.24	149.11	9.04	-38.6	-39.6	22.7	0.00e+00	122	32	101	1048576	56	5669
2026-01-05 23:59:44.29	149.07	9.38	-38.4	-39.4	22.9	0.00e+00	123	32	101	1048576	56	5562
2026-01-05 23:59:48.33	149.03	9.73	-38.3	-39.3	23.0	0.00e+00	122	32	101	1048576	56	5489
2026-01-05 23:59:52.38	148.99	10.08	-38.1	-39.0	23.2	0.00e+00	122	32	101	1048576	54	5978
2026-01-05 23:59:56.42	148.95	10.44	-37.9	-38.9	23.2	0.00e+00	120	31	101	1048576	54	5897
2026-01-06 00:00:00.46	148.90	10.80	-38.1	-39.1	23.2	0.00e+00	123	31	101	1048576	54	6039
2026-01-06 00:00:04.51	148.86	11.17	-37.8	-38.8	23.4	0.00e+00	123	32	101	1048576	54	5835
2026-01-06 00:00:08.55	148.81	11.54	-37.6	-38.6	23.6	0.00e+00	120	32	101	1048576	54	5670
2026-01-06 00:00:12.60	148.76	11.92	-37.6	-38.5	23.7	0.00e+00	120	32	101	1048576	54	5624
2026-01-06 00:00:16.64	148.71	12.30	-37.4	-38.4	23.8	0.00e+00	120	32	101	1048576	54	5531
2026-01-06 00:00:20.68	148.66	12.69	-37.3	-38.3	23.9	0.00e+00	122	32	101	1048576	54	5484
2026-01-06 00:00:24.73	148.60	13.09	-37.2	-38.1	24.0	0.00e+00	120	32	101	1048576	54	5388
2026-01-06 00:00:28.77	148.55	13.49	-37.2	-38.1	24.1	0.00e+00	123	32	101	1048576	54	5385
2026-01-06 00:00:32.81	148.49	13.90	-37.4	-38.3	23.9	0.00e+00	123	31	101	1048576	52	6171
2026-01-06 00:00:36.86	148.43	14.31	-37.2	-38.1	24.0	0.00e+00	123	32	101	1048576	52	6037
2026-01-06 00:00:40.90	148.37	14.74	-37.3	-38.2	24.0	0.00e+00	123	32	101	1048576	52	6104
2026-01-06 00:00:44.95	148.31	15.17	-37.3	-38.2	24.0	0.00e+00	123	32	101	1048576	52	6090
2026-01-06 00:00:48.99	148.24	15.61	-37.3	-38.2	24.0	0.00e+00	122	32	101	1048576	52	6113
2026-01-06 00:00:53.03	148.17	16.05	-37.5	-38.5	23.8	0.00e+00	122	32	101	1048576	52	6285
2026-01-06 00:00:57.08	148.10	16.51	-37.4	-38.3	23.9	0.00e+00	122	32	101	1048576	52	6193
2026-01-06 00:01:01.12	148.03	16.97	-37.6	-38.6	23.8	0.00e+00	123	32	101	1048576	52	6352
2026-01-06 00:01:05.17	147.95	17.45	-37.6	-38.6	23.7	0.00e+00	123	32	101	1048576	52	6354
2026-01-06 00:01:09.21	147.87	17.93	-37.7	-38.7	23.6	0.00e+00	123	32	101	1048576	52	6438
2026-01-06 00:01:13.26	147.79	18.42	-37.5	-38.5	23.7	0.00e+00	123	32	101	1048576	52	6295
2026-01-06 00:01:17.30	147.71	18.92	-37.5	-38.5	23.8	0.00e+00	123	32	101	1048576	52	6300
2026-01-06 00:01:21.34	147.62	19.43	-37.4	-38.3	23.9	0.00e+00	122	32	101	1048576	52	6204
2026-01-06 00:01:25.39	147.52	19.95	-37.4	-38.3	24.0	0.00e+00	123	32	101	1048576	52	6170
2026-01-06 00:01:29.43	147.43	20.49	-36.8	-37.7	24.5	0.00e+00	123	32	101	1048576	52	5782
2026-01-06 00:01:33.48	147.33	21.03	-36.8	-37.7	24.6	0.00e+00	123	32	101	1048576	52	5745
2026-01-06 00:01:37.52	147.23	21.59	-36.3	-37.2	24.9	0.00e+00	122	32	101	1048576	52	5448
2026-01-06 00:01:41.56	147.12	22.16	-36.1	-37.0	25.0	0.00e+00	123	32	101	1048576	50	5981
2026-01-06 00:01:45.61	147.01	22.74	-35.8	-36.7	25.3	0.00e+00	123	32	101	1048576	50	5749
2026-01-06 00:01:49.65	146.89	23.33	-35.7	-36.6	25.3	0.00e+00	120	32	101	1048576	50	5662
2026-01-06 00:01:53.70	146.77	23.94	-35.7	-36.5	25.3	0.00e+00	123	32	101	1048576	50	5656
2026-01-06 00:01:57.74	146.64	24.57	-36.0	-36.8	25.2	0.00e+00	122	32	101	1048576	50	5854
2026-01-06 00:02:01.79	146.50	25.21	-36.3	-37.2	24.9	0.00e+00	123	32	101	1048576	50	6077
2026-01-06 00:02:05.83	146.37	25.86	-36.8	-37.7	24.6	0.00e+00	122	32	101	1048576	50	6483
2026-01-06 00:02:09.87	146.22	26.53	-37.2	-38.2	24.3	0.00e+00	123	32	101	1048576	52	6065
2026-01-06 00:02:13.92	146.07	27.22	-37.5	-38.4	24.0	0.00e+00	123	32	101	1048576	52	6231
2026-01-06 00:02:17.96	145.91	27.92	-37.7	-38.6	23.8	0.00e+00	123	32	101	1048576	52	6394
2026-01-06 00:02:22.00	145.74	28.64	-37.9	-38.9	23.7	0.00e+00	122	32	101	1048576	52	6585
2026-01-06 00:02:26.04	145.56	29.38	-37.4	-38.4	24.1	0.00e+00	122	32	101	1048576	52	6214
2026-01-06 00:02:30.09	145.37	30.15	-37.0	-37.9	24.5	0.00e+00	123	32	101	1048576	52	5905
2026-01-06 00:02:34.13	145.18	30.93	-36.6	-37.5	24.8	0.00e+00	122	32	101	1048576	52	5612
2026-01-06 00:02:38.17	144.97	31.73	-36.4	-37.3	25.0	0.00e+00	122	32	101	1048576	52	5503
2026-01-06 00:02:42.21	144.76	32.55	-36.7	-37.5	24.9	0.00e+00	122	32	101	1048576	52	5644
2026-01-06 00:02:46.26	144.53	33.40	-37.1	-38.0	24.5	0.00e+00	122	32	101	1048576	52	5962
2026-01-06 00:02:50.31	144.28	34.27	-37.6	-38.6	24.1	0.00e+00	123	32	101	1048576	52	6352
2026-01-06 00:02:54.35	144.03	35.16	-38.3	-39.2	23.4	0.00e+00	122	32	101	1048576	54	6121
2026-01-06 00:02:58.39	143.76	36.08	-38.5	-39.5	23.3	0.00e+00	123	32	101	1048576	54	6284
2026-01-06 00:03:02.43	143.47	37.03	-38.6	-39.6	23.2	0.00e+00	123	32	101	1048576	54	6383
2026-01-06 00:03:06.48	143.16	38.00	-38.7	-39.7	23.2	0.00e+00	123	32	101	1048576	54	6463
2026-01-06 00:03:10.52	142.83	39.00	-38.3	-39.3	23.5	0.00e+00	123	32	101	1048576	54	6142
2026-01-06 00:03:14.57	142.48	40.03	-38.3	-39.3	23.4	0.00e+00	122	32	101	1048576	54	6145
2026-01-06 00:03:18.61	142.11	41.09	-38.4	-39.4	23.4	0.00e+00	122	32	101	1048576	54	6227
2026-01-06 00:03:22.65	141.71	42.18	-39.2	-40.1	22.8	0.00e+00	122	32	101	1048576	54	6788
2026-01-06 00:03:26.70	141.28	43.30	-40.0	-41.1	21.9	0.00e+00	122	32	101	1048576	56	6735
2026-01-06 00:03:30.74	140.82	44.45	-40.0	-41.1	21.9	0.00e+00	122	32	101	1048576	56	6731
2026-01-06 00:03:34.79	140.32	45.64	-39.9	-41.0	22.3	0.00e+00	122	32	101	1048576	58	5929
2026-01-06 00:03:38.83	139.79	46.85	-39.0	-40.0	22.9	0.00e+00	120	32	101	1048576	56	5983
2026-01-06 00:03:42.88	139.20	48.11	-39.1	-40.1	22.9	0.00e+00	123	32	101	1048576	56	6017
2026-01-06 00:03:46.92	138.57	49.39	-38.9	-39.9	23.0	0.00e+00	122	32	101	1048576	56	5863
2026-01-06 00:03:50.96	137.88	50.71	-38.6	-39.5	23.3	0.00e+00	122	32	101	1048576	56	5650
2026-01-06 00:03:55.01	137.12	52.06	-38.4	-39.4	23.4	0.00e+00	122	32	101	1048576	56	5561
2026-01-06 00:03:59.05	136.29	53.44	-37.6	-38.5	24.0	0.00e+00	122	32	101	1048576	54	5648
2026-01-06 00:04:03.09	135.38	54.85	-37.2	-38.1	24.3	0.00e+00	123	32	101	1048576	54	5378
2026-01-06 00:04:07.14	134.36	56.30	-36.4	-37.3	25.0	0.00e+00	122	32	101	1048576	52	5494
2026-01-06 00:04:11.18	133.24	57.77	-36.4	-37.3	24.7	0.00e+00	123	32	101	1048576	50	6201
2026-01-06 00:04:15.22	131.98	59.27	-36.1	-37.0	25.2	0.00e+00	122	32	101	1048576	50	5952
2026-01-06 00:04:19.27	130.56	60.80	-36.2	-37.1	25.0	0.00e+00	122	32	101	1048576	50	6045
2026-01-06 00:04:23.31	128.96	62.34	-35.9	-36.8	25.3	0.00e+00	123	32	101	1048576	50	5802
2026-01-06 00:04:27.36	127.14	63.89	-35.2	-36.1	25.7	0.00e+00	123	32	101	1048576	48	5998
2026-01-06 00:04:31.40	125.06	65.45	-35.4	-36.3	25.6	0.00e+00	122	32	101	1048576	48	6160
2026-01-06 00:04:35.45	122.65	67.01	-35.8	-36.7	25.2	0.00e+00	123	32	101	1048576	48	6428
2026-01-06 00:04:39.49	119.87	68.55	-34.7	-35.5	25.9	0.00e+00	120	32	101	1048576	48	5634
2026-01-06 00:04:43.53	116.62	70.06	-34.5	-35.3	26.1	0.00e+00	121	32	101	1048576	48	5528
2026-01-06 00:04:47.58	112.80	71.53	-35.5	-36.3	25.5	0.00e+00	120	32	101	1048576	48	6202
2026-01-06 00:04:51.62	108.30	72.92	-35.3	-36.1	25.7	0.00e+00	120	32	101	1048576	48	6056
2026-01-06 00:04:55.67	102.99	74.21	-35.4	-36.2	25.7	0.00e+00	123	32	101	1048576	48	6105
2026-01-06 00:04:59.71	96.75	75.35	-35.6	-36.5	25.5	0.00e+00	123	32	101	1048576	48	6291
2026-01-06 00:05:03.75	89.52	76.31	-35.6	-36.4	25.3	0.00e+00	122	32	101	1048576	48	6272
2026-01-06 00:05:07.80	81.29	77.03	-35.3	-36.1	25.6	0.00e+00	120	32	101	1048576	48	6039
2026-01-06 00:05:11.84	72.30	77.46	-35.7	-36.6	24.6	0.00e+00	123	32	101	1048576	48	6413
2026-01-06 00:05:15.88	62.89	77.58	-35.9	-36.8	25.1	0.00e+00	123	32	101	1048576	50	5802
2026-01-06 00:05:19.93	53.54	77.36	-35.4	-36.3	25.5	0.00e+00	122	32	101	1048576	50	5489
2026-01-06 00:05:23.97	44.75	76.84	-35.5	-36.4	25.6	0.00e+00	120	32	101	1048576	50	5538
2026-01-06 00:05:28.01	36.83	76.05	-35.9	-36.9	25.1	0.00e+00	120	32	101	1048576	50	5861
2026-01-06 00:05:32.06	29.88	75.03	-35.2	-36.0	25.6	0.00e+00	122	32	101	1048576	48	5964
2026-01-06 00:05:36.10	23.94	73.84	-34.9	-35.8	25.5	0.00e+00	122	32	101	1048576	48	5802
2026-01-06 00:05:40.14	18.90	72.52	-36.0	-36.9	24.6	0.00e+00	122	32	101	1048576	50	5880
2026-01-06 00:05:44.19	14.61	71.10	-35.7	-36.5	25.4	0.00e+00	120	32	101	1048576	50	5658
2026-01-06 00:05:48.23	10.98	69.63	-34.5	-35.3	26.0	0.00e+00	122	32	101	1048576	48	5530
2026-01-06 00:05:52.28	7.88	68.10	-36.9	-37.9	23.8	0.00e+00	123	32	101	1048576	50	6585
2026-01-06 00:05:56.32	5.22	66.56	-35.3	-36.1	25.7	0.00e+00	123	32	101	1048576	50	5404
2026-01-06 00:06:00.37	2.92	65.00	-36.7	-37.6	24.6	0.00e+00	122	32	101	1048576	52	5678
2026-01-06 00:06:04.41	0.92	63.45	-36.6	-37.5	24.3	0.00e+00	122	32	101	1048576	50	6294
2026-01-06 00:06:08.46	359.17	61.90	-36.7	-37.6	24.6	0.00e+00	122	32	101	1048576	52	5698
2026-01-06 00:06:12.50	357.63	60.37	-36.5	-37.4	24.6	0.00e+00	123	32	101	1048576	50	6251
2026-01-06 00:06:16.54	356.26	58.86	-38.5	-39.5	23.0	0.00e+00	122	32	101	1048576	54	6337
2026-01-06 00:06:20.59	355.05	57.37	-36.2	-37.1	24.8	0.00e+00	123	32	101	1048576	50	6000
2026-01-06 00:06:24.63	353.96	55.91	-38.3	-39.3	23.3	0.00e+00	120	32	101	1048576	54	6140
2026-01-06 00:06:28.67	352.97	54.48	-36.6	-37.5	24.8	0.00e+00	123	32	101	1048576	52	5605
2026-01-06 00:06:32.72	352.09	53.08	-39.4	-40.5	22.1	0.00e+00	120	32	101	1048576	56	6297
2026-01-06 00:06:36.76	351.28	51.71	-38.7	-39.7	22.8	0.00e+00	122	32	101	1048576	56	5765
2026-01-06 00:06:40.81	350.54	50.37	-38.5	-39.5	23.3	0.00e+00	123	32	101	1048576	54	6323
2026-01-06 00:06:44.85	349.87	49.07	-39.1	-40.1	22.6	0.00e+00	120	32	101	1048576	56	6053
2026-01-06 00:06:48.90	349.26	47.80	-39.5	-40.5	22.3	0.00e+00	120	32	101	1048576	56	6301
2026-01-06 00:06:52.94	348.69	46.56	-38.8	-39.8	23.0	0.00e+00	123	32	101	1048576	56	5811
2026-01-06 00:06:56.98	348.17	45.36	-39.0	-40.0	22.9	0.00e+00	122	32	101	1048576	56	5931
2026-01-06 00:07:01.02	347.68	44.19	-41.4	-42.7	20.6	0.00e+00	123	32	101	1048576	60	6460
2026-01-06 00:07:05.07	347.23	43.05	-40.9	-42.0	21.2	0.00e+00	122	32	101	1048576	60	5993
2026-01-06 00:07:09.11	346.81	41.95	-38.7	-39.6	23.3	0.00e+00	123	32	101	1048576	56	5708
2026-01-06 00:07:13.15	346.42	40.87	-39.4	-40.4	22.6	0.00e+00	122	32	101	1048576	56	6252
2026-01-06 00:07:17.20	346.06	39.82	-39.7	-40.7	22.2	0.00e+00	123	32	101	1048576	56	6498
2026-01-06 00:07:21.24	345.72	38.81	-39.3	-40.3	22.7	0.00e+00	123	32	101	1048576	56	6177
2026-01-06 00:07:25.28	345.40	37.82	-39.0	-40.1	22.9	0.00e+00	123	32	101	1048576	56	5999
2026-01-06 00:07:29.33	345.10	36.86	-38.2	-39.2	23.6	0.00e+00	122	32	101	1048576	56	5412
2026-01-06 00:07:33.37	344.81	35.92	-37.8	-38.7	23.9	0.00e+00	122	32	101	1048576	54	5756
2026-01-06 00:07:37.41	344.55	35.01	-38.0	-39.0	23.7	0.00e+00	122	32	101	1048576	54	5962
2026-01-06 00:07:41.46	344.30	34.13	-37.7	-38.6	23.9	0.00e+00	123	32	101	1048576	54	5687
2026-01-06 00:07:45.50	344.06	33.27	-37.5	-38.4	24.0	0.00e+00	122	32	101	1048576	54	5589
2026-01-06 00:07:49.54	343.84	32.43	-37.3	-38.2	24.3	0.00e+00	122	32	101	1048576	54	5424
2026-01-06 00:07:53.59	343.62	31.62	-36.9	-37.8	24.5	0.00e+00	122	32	101	1048576	52	5830
2026-01-06 00:07:57.63	343.42	30.82	-36.8	-37.7	24.6	0.00e+00	122	32	101	1048576	52	5742
2026-01-06 00:08:01.68	343.23	30.05	-36.7	-37.6	24.7	0.00e+00	122	32	101	1048576	52	5687
2026-01-06 00:08:05.72	343.05	29.30	-37.1	-38.0	24.4	0.00e+00	123	32	101	1048576	52	5945
2026-01-06 00:08:09.76	342.88	28.56	-37.1	-38.0	24.3	0.00e+00	123	32	101	1048576	52	5974
2026-01-06 00:08:13.81	342.71	27.85	-37.0	-37.9	24.5	0.00e+00	120	32	101	1048576	52	5882
2026-01-06 00:08:17.85	342.56	27.15	-36.4	-37.3	24.9	0.00e+00	122	32	101	1048576	52	5478
2026-01-06 00:08:21.89	342.41	26.47	-36.1	-36.9	25.0	0.00e+00	122	32	101	1048576	50	5921
2026-01-06 00:08:25.94	342.27	25.81	-36.1	-37.0	25.0	0.00e+00	122	32	101	1048576	50	5970
2026-01-06 00:08:29.98	342.13	25.16	-36.3	-37.3	24.7	0.00e+00	123	32	101	1048576	50	6137
2026-01-06 00:08:34.02	342.00	24.53	-36.3	-37.2	24.8	0.00e+00	122	32	101	1048576	50	6075
2026-01-06 00:08:38.07	341.88	23.91	-36.3	-37.2	24.8	0.00e+00	122	32	101	1048576	50	6111
2026-01-06 00:08:42.11	341.76	23.31	-36.3	-37.2	24.8	0.00e+00	123	32	101	1048576	50	6078
2026-01-06 00:08:46.15	341.64	22.72	-36.2	-37.1	25.0	0.00e+00	123	32	101	1048576	50	6048
2026-01-06 00:08:50.20	341.53	22.14	-36.0	-36.9	25.1	0.00e+00	122	32	101	1048576	50	5875
2026-01-06 00:08:54.24	341.43	21.58	-35.9	-36.8	25.2	0.00e+00	123	32	101	1048576	50	5824
2026-01-06 00:08:58.28	341.33	21.03	-36.1	-37.0	25.0	0.00e+00	122	32	101	1048576	50	5930
2026-01-06 00:09:02.33	341.23	20.49	-36.2	-37.1	24.9	0.00e+00	123	32	101	1048576	50	6037
2026-01-06 00:09:06.37	341.14	19.96	-36.6	-37.5	24.6	0.00e+00	122	32	101	1048576	50	6281
2026-01-06 00:09:10.42	341.05	19.44	-36.8	-37.7	24.5	0.00e+00	120	32	101	1048576	50	6440
2026-01-06 00:09:14.46	340.97	18.93	-36.9	-37.8	24.4	0.00e+00	123	32	101	1048576	50	6509
2026-01-06 00:09:18.50	340.88	18.44	-37.1	-38.0	24.3	0.00e+00	123	32	101	1048576	50	6676
2026-01-06 00:09:22.55	340.80	17.95	-37.2	-38.2	24.1	0.00e+00	122	32	101	1048576	52	6073
2026-01-06 00:09:26.59	340.73	17.47	-37.4	-38.3	24.0	0.00e+00	123	32	101	1048576	52	6191
2026-01-06 00:09:30.64	340.66	17.00	-37.5	-38.5	23.9	0.00e+00	122	32	101	1048576	52	6294
2026-01-06 00:09:34.68	340.59	16.54	-37.4	-38.4	23.9	0.00e+00	123	32	101	1048576	52	6206
2026-01-06 00:09:38.72	340.52	16.09	-37.4	-38.4	23.9	0.00e+00	122	32	101	1048576	52	6240
2026-01-06 00:09:42.77	340.45	15.65	-37.5	-38.5	23.9	0.00e+00	122	32	101	1048576	52	6280
2026-01-06 00:09:46.81	340.39	15.21	-37.6	-38.6	23.7	0.00e+00	122	32	101	1048576	52	6384
2026-01-06 00:09:50.85	340.33	14.79	-37.9	-38.9	23.4	0.00e+00	122	32	101	1048576	52	6579
2026-01-06 00:09:54.90	340.27	14.37	-37.9	-38.9	23.5	0.00e+00	122	32	101	1048576	52	6578
2026-01-06 00:09:58.94	340.21	13.95	-38.0	-39.0	23.3	0.00e+00	122	32	101	1048576	52	6668
2026-01-06 00:10:02.99	340.16	13.55	-38.1	-39.0	23.3	0.00e+00	123	32	101	1048576	52	6715
2026-01-06 00:10:07.03	340.11	13.15	-38.1	-39.1	23.2	0.00e+00	123	32	101	1048576	54	6014
2026-01-06 00:10:11.07	340.06	12.75	-38.0	-39.0	23.3	0.00e+00	123	32	101	1048576	54	5975
2026-01-06 00:10:15.12	340.01	12.36	-38.0	-39.0	23.3	0.00e+00	120	32	101	1048576	54	5967
2026-01-06 00:10:19.16	339.96	11.98	-38.0	-39.0	23.3	0.00e+00	122	32	101	1048576	54	5927
2026-01-06 00:10:23.20	339.92	11.61	-38.0	-39.0	23.2	0.00e+00	122	32	101	1048576	54	5973
2026-01-06 00:10:27.25	339.87	11.24	-38.2	-39.2	23.0	0.00e+00	122	32	101	1048576	54	6110
2026-01-06 00:10:31.29	339.83	10.87	-38.4	-39.4	22.9	0.00e+00	122	32	101	1048576	54	6233
2026-01-06 00:10:35.33	339.79	10.52	-38.4	-39.3	22.9	0.00e+00	123	32	101	1048576	54	6203
2026-01-06 00:10:39.37	339.75	10.16	-38.7	-39.7	22.5	0.00e+00	123	32	101	1048576	54	6460
2026-01-06 00:10:43.42	339.71	9.81	-38.7	-39.7	22.5	0.00e+00	123	32	101	1048576	54	6449
2026-01-06 00:10:47.46	339.67	9.47	-39.0	-40.1	22.3	0.00e+00	123	32	101	1048576	56	5995
2026-01-06 00:10:51.51	339.64	9.13	-39.0	-40.0	22.3	0.00e+00	123	32	101	1048576	56	5963
2026-01-06 00:10:55.55	339.60	8.80	-39.1	-40.2	22.1	0.00e+00	122	32	101	1048576	56	6087
2026-01-06 00:10:59.59	339.57	8.47	-39.2	-40.3	22.1	0.00e+00	122	32	101	1048576	56	6140
2026-01-06 00:11:03.64	339.54	8.14	-39.4	-40.4	21.8	0.00e+00	123	32	101	1048576	56	6274
2026-01-06 00:11:07.68	339.51	7.82	-39.4	-40.5	21.8	0.00e+00	123	32	101	1048576	56	6325
2026-01-06 00:11:11.72	339.48	7.50	-39.5	-40.6	21.7	0.00e+00	122	32	101	1048576	56	6381
2026-01-06 00:11:15.77	339.45	7.18	-39.8	-40.9	21.4	0.00e+00	122	32	101	1048576	56	6622
2026-01-06 00:11:19.81	339.42	6.87	-39.8	-40.9	21.2	0.00e+00	121	32	101	1048576	58	5915
2026-01-06 00:11:23.85	339.39	6.57	-39.8	-40.9	21.2	0.00e+00	122	32	101	1048576	58	5887
2026-01-06 00:11:27.89	339.37	6.27	-39.8	-40.9	21.1	0.00e+00	123	32	101	1048576	58	5918
2026-01-06 00:11:31.94	339.34	5.97	-39.9	-41.1	20.8	0.00e+00	122	32	101	1048576	58	6058
2026-01-06 00:11:35.98	339.32	5.67	-40.6	-41.9	19.8	0.00e+00	123	32	101	1048576	58	6627
2026-01-06 00:11:40.02	339.29	5.38	-41.5	-43.0	18.4	0.00e+00	123	32	101	1048576	60	6715
2026-01-06 00:11:44.07	339.27	5.09	-43.0	-45.1	15.8	0.00e+00	122	32	101	1048576	60	8494
2026-01-06 00:11:48.11	339.25	4.80	-44.4	-47.6	12.2	1.72e-04	123	32	101	1048576	60	11327
2026-01-06 00:11:52.15	339.23	4.52	-45.5	-50.8	7.7	5.92e-02	123	32	101	1048576	60	16378
2026-01-06 00:11:56.19	339.21	4.24	-46.0	-55.0	4.6	7.56e-01	123	32	104	1048576	60	26757
2026-01-06 00:12:00.24	339.19	3.96	-46.1	-58.1	3.5	1.52e+00	0	32	104	1048576	60	37946
2026-01-06 00:12:04.28	339.17	3.68	-46.3	-58.3	3.5	1.51e+00	0	32	104	1048576	60	38913
2026-01-06 00:12:08.32	339.15	3.41	-46.2	-58.9	3.5	1.52e+00	0	32	104	1048576	60	41774
2026-01-06 00:12:12.37	339.13	3.14	-46.3	-59.4	3.5	1.52e+00	0	33	104	1048576	60	44093
2026-01-06 00:12:16.41	339.12	2.88	-50.9	-63.9	3.5	1.52e+00	0	32	104	1048576	60	74279
2026-01-06 00:12:20.46	339.10	2.61	-51.3	-64.3	3.5	1.52e+00	0	32	104	1048576	60	77804
2026-01-06 00:12:24.50	339.08	2.35	-50.9	-64.3	3.5	1.52e+00	0	32	104	1048576	60	77604
2026-01-06 00:12:28.54	339.07	2.09	-51.2	-64.3	3.5	1.52e+00	0	32	104	1048576	60	77407
2026-01-06 00:12:32.59	339.05	1.83	-51.2	-64.3	3.5	1.51e+00	0	32	104	1048576	60	77390
2026-01-06 00:12:36.63	339.04	1.58	-51.2	-64.2	3.5	1.52e+00	0	32	104	1048576	60	77125
2026-01-06 00:12:40.68	339.03	1.33	-51.2	-64.2	3.5	1.52e+00	0	33	104	1048576	60	77228
2026-01-06 00:12:44.72	339.01	1.07	-51.2	-64.2	3.5	1.52e+00	0	32	104	1048576	60	76600
2026-01-06 00:12:48.77	339.00	0.83	-51.2	-64.2	3.5	1.52e+00	0	32	104	1048576	60	77092
2026-01-06 00:12:52.81	338.99	0.58	-51.2	-64.2	3.5	1.52e+00	0	32	104	1048576	60	76538
2026-01-06 00:12:56.85	338.98	0.34	-51.2	-64.2	3.5	1.52e+00	0	32	104	1048576	60	77018
2026-01-06 00:13:00.90	338.97	0.09	-51.2	-64.2	3.5	1.52e+00	0	32	104	1048576	60	76909

#Closed at: 2026-01-06 00:13:03
#Recorded file [1 MB]: D:/lorett/data/35034_260106_025734.dat