passes_logs/2026/01/05/R4.6S_Anadyr_2ch/R4.6S_Anadyr_2ch__20260105_212609_TY-42_rec.log

#Pass ID: 20260105_212609_TY-42
#Satellite: TY-42
#Configuration: TY-42_900M
#almurnet v.1.7.20251203
#Start time: 2026-01-05 21:26:41

#Version: 2.2.20231116
#Station: R4.6S_Anadyr_2ch
#Location: 177.4865 lon 64.73178 lat
#TLE: 1 64048U 25103A   25351.20653935  .00008008  00000-0  38191-3 0 09993
#TLE: 2 64048 097.4116 062.1676 0001744 093.8066 035.1511 15.19160500 32445

#Time	Az	El	Level	Level2	SNR	BER	BlckErr	Temp	State	Recorded	gain1	gain2
2026-01-05 21:26:41.26	28.13	1.62	-51.0	-66.1	3.5	1.51e+00	0	29	0	0	60	98595
2026-01-05 21:26:44.29	28.49	1.77	-51.2	-53.7	6.1	0.00e+00	0	31	104	0	60	80851
2026-01-05 21:26:47.32	28.86	1.93	-51.1	-53.7	6.1	0.00e+00	0	31	104	0	60	80876
2026-01-05 21:26:50.36	29.24	2.08	-51.1	-53.7	6.1	0.00e+00	0	31	104	0	60	80690
2026-01-05 21:26:53.39	29.61	2.24	-51.1	-53.6	6.1	0.00e+00	0	31	104	0	60	79917
2026-01-05 21:26:56.42	29.99	2.39	-51.2	-53.6	6.1	0.00e+00	0	31	104	0	60	80380
2026-01-05 21:26:59.46	30.38	2.55	-51.2	-53.7	6.1	0.00e+00	0	31	104	0	60	80922
2026-01-05 21:27:02.49	30.77	2.70	-51.2	-53.7	6.1	0.00e+00	0	31	104	0	60	80555
2026-01-05 21:27:05.52	31.17	2.86	-51.2	-53.7	6.1	0.00e+00	0	31	104	0	60	81025
2026-01-05 21:27:08.56	31.57	3.02	-51.1	-53.6	6.1	0.00e+00	0	31	104	0	60	80166
2026-01-05 21:27:11.59	31.98	3.18	-51.2	-53.7	6.1	0.00e+00	0	31	104	0	60	80979
2026-01-05 21:27:14.62	32.40	3.33	-51.2	-53.7	6.1	0.00e+00	0	32	104	0	60	80943
2026-01-05 21:27:17.66	32.82	3.49	-51.1	-53.6	6.1	0.00e+00	0	31	104	0	60	80329
2026-01-05 21:27:20.69	33.24	3.65	-51.2	-53.7	6.1	0.00e+00	0	32	104	0	60	80799
2026-01-05 21:27:23.72	33.67	3.80	-51.2	-53.7	6.1	0.00e+00	0	32	104	0	60	80748
2026-01-05 21:27:26.76	34.11	3.96	-51.2	-53.7	6.1	0.00e+00	0	32	104	0	60	81125
2026-01-05 21:27:29.79	34.55	4.12	-51.1	-53.6	6.1	0.00e+00	0	32	104	0	60	80100
2026-01-05 21:27:32.82	34.99	4.28	-51.2	-53.7	6.1	0.00e+00	0	32	104	0	60	80795
2026-01-05 21:27:35.86	35.45	4.44	-51.1	-53.6	6.1	0.00e+00	0	32	104	0	60	80439
2026-01-05 21:27:38.89	35.91	4.59	-51.2	-53.6	6.1	0.00e+00	0	32	104	0	60	80185
2026-01-05 21:27:41.92	36.37	4.75	-51.2	-53.7	6.1	0.00e+00	0	32	104	0	60	80981
2026-01-05 21:27:44.96	36.84	4.91	-51.3	-53.7	6.1	0.00e+00	0	32	104	0	60	81178
2026-01-05 21:27:47.99	37.32	5.07	-51.2	-53.6	6.1	0.00e+00	0	32	104	0	60	80423
2026-01-05 21:27:51.03	37.81	5.22	-51.1	-53.6	6.0	0.00e+00	0	32	104	0	60	79958
2026-01-05 21:27:54.06	38.30	5.38	-51.2	-53.7	6.1	0.00e+00	0	32	104	0	60	80881
2026-01-05 21:27:57.09	38.79	5.54	-51.2	-53.7	6.1	0.00e+00	0	32	104	0	60	80622
2026-01-05 21:28:00.12	39.30	5.69	-51.2	-53.7	6.1	0.00e+00	0	32	104	0	60	81116
2026-01-05 21:28:03.15	39.81	5.85	-51.2	-53.7	6.1	0.00e+00	0	32	104	0	60	80937
2026-01-05 21:28:06.19	40.32	6.00	-51.2	-53.6	6.1	0.00e+00	0	32	104	0	60	80363
2026-01-05 21:28:09.22	40.85	6.16	-51.2	-53.6	6.1	0.00e+00	0	32	104	0	60	80405
2026-01-05 21:28:12.25	41.38	6.31	-51.2	-53.7	6.1	0.00e+00	0	32	104	0	60	81206
2026-01-05 21:28:15.29	41.92	6.47	-51.2	-53.6	6.1	0.00e+00	0	33	104	0	60	80282
2026-01-05 21:28:18.32	42.46	6.62	-51.2	-53.6	6.1	0.00e+00	0	33	104	0	60	79936
2026-01-05 21:28:21.35	43.01	6.77	-51.1	-53.6	6.1	0.00e+00	0	33	104	0	60	80311
2026-01-05 21:28:24.39	43.57	6.93	-51.2	-53.7	6.1	0.00e+00	0	33	104	0	60	80567
2026-01-05 21:28:27.42	44.14	7.08	-51.2	-53.7	6.1	0.00e+00	0	33	104	0	60	80722
2026-01-05 21:28:30.46	44.71	7.23	-51.2	-53.7	6.1	0.00e+00	0	33	104	0	60	80901
2026-01-05 21:28:33.49	45.29	7.38	-51.2	-53.7	6.0	0.00e+00	0	33	104	0	60	80886
2026-01-05 21:28:36.52	45.88	7.53	-51.2	-53.7	6.1	0.00e+00	0	33	104	0	60	80613
2026-01-05 21:28:39.56	46.47	7.67	-51.2	-53.7	6.1	0.00e+00	0	33	104	0	60	80569
2026-01-05 21:28:42.59	47.07	7.82	-51.2	-53.7	6.1	0.00e+00	0	33	104	0	60	80879
2026-01-05 21:28:45.62	47.68	7.97	-51.3	-53.8	6.1	0.00e+00	0	33	104	0	60	81425
2026-01-05 21:28:48.66	48.30	8.11	-51.2	-53.7	6.1	0.00e+00	0	33	104	0	60	80675
2026-01-05 21:28:51.69	48.92	8.25	-51.2	-53.6	6.1	0.00e+00	0	33	104	0	60	80378
2026-01-05 21:28:54.72	49.55	8.39	-51.2	-53.7	6.1	0.00e+00	0	33	104	0	60	80520
2026-01-05 21:28:57.76	50.19	8.53	-51.3	-53.7	6.1	0.00e+00	0	33	104	0	60	80952
2026-01-05 21:29:00.79	50.84	8.67	-51.3	-53.8	6.1	0.00e+00	0	33	104	0	60	81427
2026-01-05 21:29:03.82	51.49	8.81	-51.0	-53.4	6.1	0.00e+00	0	33	104	0	60	78555
2026-01-05 21:29:06.86	52.15	8.94	-51.0	-53.6	6.1	0.00e+00	0	33	104	0	60	79648
2026-01-05 21:29:09.89	52.82	9.07	-50.2	-52.8	6.1	0.00e+00	0	33	104	0	60	73374
2026-01-05 21:29:12.92	53.50	9.20	-49.3	-51.9	6.1	0.00e+00	0	33	104	0	60	65476
2026-01-05 21:29:15.96	54.18	9.33	-49.3	-51.8	6.1	0.00e+00	0	33	104	0	60	65259
2026-01-05 21:29:18.99	54.87	9.46	-49.3	-51.8	6.1	0.00e+00	0	33	104	0	60	65282
2026-01-05 21:29:22.02	55.56	9.58	-49.3	-51.8	6.1	0.00e+00	0	33	104	0	60	65288
2026-01-05 21:29:25.06	56.27	9.70	-49.3	-51.8	6.1	0.00e+00	0	33	104	0	60	65373
2026-01-05 21:29:28.09	56.98	9.82	-49.3	-51.8	6.1	0.00e+00	0	33	104	0	60	65277
2026-01-05 21:29:31.12	57.70	9.93	-49.3	-51.8	6.1	0.00e+00	0	33	104	0	60	65388
2026-01-05 21:29:34.16	58.42	10.05	-49.3	-51.8	6.1	0.00e+00	0	33	104	0	60	65286
2026-01-05 21:29:37.19	59.15	10.16	-49.3	-51.8	6.1	0.00e+00	0	33	104	0	60	65007
2026-01-05 21:29:40.22	59.89	10.26	-49.3	-51.8	6.1	0.00e+00	0	33	104	0	60	65039
2026-01-05 21:29:43.26	60.64	10.37	-49.3	-51.8	6.1	0.00e+00	0	33	104	0	60	65270
2026-01-05 21:29:46.29	61.39	10.47	-49.3	-51.8	6.1	0.00e+00	0	33	104	0	60	65123
2026-01-05 21:29:49.32	62.14	10.57	-49.3	-51.8	6.1	0.00e+00	0	33	104	0	60	65396
2026-01-05 21:29:52.36	62.91	10.66	-49.3	-51.8	6.1	0.00e+00	0	33	104	0	60	65150
2026-01-05 21:29:55.39	63.68	10.75	-49.4	-51.9	6.1	0.00e+00	0	33	104	0	60	66080
2026-01-05 21:29:58.42	64.45	10.84	-49.7	-52.3	6.1	0.00e+00	0	33	104	0	60	68521
2026-01-05 21:30:01.46	65.23	10.92	-49.8	-52.3	6.1	0.00e+00	0	33	104	0	60	68588
2026-01-05 21:30:04.49	66.02	11.00	-49.7	-52.2	6.1	0.00e+00	0	33	104	0	60	67928
2026-01-05 21:30:07.52	66.81	11.08	-49.8	-52.3	6.1	0.00e+00	0	33	104	0	60	68721
2026-01-05 21:30:10.56	67.60	11.15	-49.7	-52.2	6.1	0.00e+00	0	33	104	0	60	68000
2026-01-05 21:30:13.59	68.40	11.22	-49.9	-52.4	6.1	0.00e+00	0	33	104	0	60	69835
2026-01-05 21:30:16.62	69.20	11.28	-49.6	-52.1	6.1	0.00e+00	0	33	104	0	60	67563
2026-01-05 21:30:19.66	70.01	11.34	-49.9	-52.4	6.1	0.00e+00	0	33	104	0	60	69951
2026-01-05 21:30:22.69	70.82	11.40	-50.0	-52.5	6.1	0.00e+00	0	33	104	0	60	70365
2026-01-05 21:30:25.73	71.64	11.45	-50.2	-52.7	6.1	0.00e+00	0	34	104	0	60	72169
2026-01-05 21:30:28.76	72.46	11.49	-50.0	-52.5	6.1	0.00e+00	0	33	104	0	60	70257
2026-01-05 21:30:31.80	73.28	11.53	-50.1	-52.5	6.1	0.00e+00	0	33	104	0	60	70847
2026-01-05 21:30:34.83	74.11	11.57	-50.2	-52.6	6.1	0.00e+00	0	34	104	0	60	71574
2026-01-05 21:30:37.86	74.93	11.60	-50.1	-52.7	6.1	0.00e+00	0	34	104	0	60	71805
2026-01-05 21:30:40.90	75.76	11.63	-50.0	-52.5	6.1	0.00e+00	0	34	104	0	60	70650
2026-01-05 21:30:43.93	76.59	11.66	-49.9	-52.5	6.1	0.00e+00	0	34	104	0	60	70418
2026-01-05 21:30:46.96	77.42	11.67	-50.3	-52.8	6.1	0.00e+00	0	34	104	0	60	72974
2026-01-05 21:30:50.00	78.26	11.69	-50.0	-52.6	6.1	0.00e+00	0	34	104	0	60	71298
2026-01-05 21:30:53.03	79.09	11.70	-50.1	-52.6	6.1	0.00e+00	0	34	104	0	60	71552
2026-01-05 21:30:56.06	79.92	11.70	-50.1	-52.7	6.1	0.00e+00	0	34	104	0	60	71784
2026-01-05 21:30:59.10	80.76	11.70	-50.2	-52.7	6.1	0.00e+00	0	34	104	0	60	72513
2026-01-05 21:31:02.12	81.59	11.70	-48.6	-51.4	6.1	0.00e+00	0	34	104	0	60	62199
2026-01-05 21:31:05.15	82.43	11.69	-48.4	-51.2	6.1	0.00e+00	0	34	104	0	60	60665
2026-01-05 21:31:08.18	83.26	11.67	-50.0	-52.5	6.1	0.00e+00	0	34	104	0	60	70786
2026-01-05 21:31:11.22	84.09	11.65	-49.0	-51.7	6.1	0.00e+00	0	34	104	0	60	63931
2026-01-05 21:31:14.25	84.92	11.63	-49.8	-52.4	6.1	0.00e+00	0	34	104	0	60	69399
2026-01-05 21:31:17.28	85.75	11.60	-49.9	-52.5	6.1	0.00e+00	0	34	104	0	60	70551
2026-01-05 21:31:20.32	86.58	11.57	-49.6	-52.2	6.1	0.00e+00	0	34	104	0	60	68099
2026-01-05 21:31:23.35	87.40	11.53	-50.0	-52.6	6.1	0.00e+00	0	34	104	0	60	71479
2026-01-05 21:31:26.38	88.23	11.49	-50.5	-53.0	6.1	0.00e+00	0	34	104	0	60	74491
2026-01-05 21:31:29.41	89.04	11.44	-50.2	-52.8	6.1	0.00e+00	0	34	104	0	60	72937
2026-01-05 21:31:32.45	89.86	11.39	-50.2	-52.8	6.1	0.00e+00	0	34	104	0	60	72548
2026-01-05 21:31:35.48	90.67	11.33	-50.3	-52.8	6.1	0.00e+00	0	34	104	0	60	72887
2026-01-05 21:31:38.51	91.48	11.27	-49.8	-52.4	6.1	0.00e+00	0	34	104	0	60	69576
2026-01-05 21:31:41.55	92.29	11.21	-50.2	-52.8	6.1	0.00e+00	0	34	104	0	60	72765
2026-01-05 21:31:44.58	93.09	11.14	-50.4	-52.9	6.1	0.00e+00	0	34	104	0	60	73832
2026-01-05 21:31:47.62	93.89	11.06	-49.7	-52.3	6.1	0.00e+00	0	34	104	0	60	69020
2026-01-05 21:31:50.65	94.68	10.99	-47.9	-50.7	6.2	0.00e+00	0	34	104	0	60	57242
2026-01-05 21:31:53.68	95.46	10.91	-49.5	-52.2	6.1	0.00e+00	0	34	104	0	60	67705
2026-01-05 21:31:56.72	96.25	10.82	-46.8	-49.6	6.4	0.00e+00	0	34	104	0	60	50361
2026-01-05 21:31:59.75	97.02	10.73	-47.0	-49.8	6.4	0.00e+00	0	34	104	0	60	51673
2026-01-05 21:32:02.78	97.79	10.64	-50.1	-52.7	6.1	0.00e+00	0	34	104	0	60	71753
2026-01-05 21:32:05.82	98.56	10.55	-49.8	-52.5	6.1	0.00e+00	0	34	104	0	60	70195
2026-01-05 21:32:08.85	99.32	10.45	-47.9	-49.3	7.0	1.67e-02	0	34	104	0	60	48910
2026-01-05 21:32:11.88	100.07	10.35	-25.6	-26.0	17.0	5.48e-03	0	34	102	8388608	32	16778
2026-01-05 21:32:14.92	100.82	10.24	-26.1	-26.5	16.7	0.00e+00	0	34	102	8388608	32	17756
2026-01-05 21:32:17.95	101.56	10.13	-26.1	-26.5	17.0	3.81e-05	0	34	102	8388608	32	17653
2026-01-05 21:32:20.98	102.29	10.02	-26.5	-27.0	17.0	3.26e-05	0	34	102	8388608	32	18678
2026-01-05 21:32:24.02	103.02	9.91	-26.8	-27.3	16.8	3.26e-05	0	34	102	8388608	32	19380
2026-01-05 21:32:27.05	103.74	9.79	-26.7	-27.1	16.8	1.63e-05	0	34	102	8388608	32	19052
2026-01-05 21:32:30.09	104.45	9.67	-26.7	-27.2	16.7	5.40e-06	0	34	102	8388608	32	19209
2026-01-05 21:32:33.12	105.16	9.55	-26.8	-27.3	16.8	1.63e-05	0	34	102	8388608	32	19389
2026-01-05 21:32:36.15	105.85	9.43	-27.0	-27.4	15.6	7.08e-05	0	34	102	8388608	32	19616
2026-01-05 21:32:39.18	106.55	9.30	-26.9	-27.3	15.5	4.63e-04	0	34	102	8388608	32	19416
2026-01-05 21:32:42.22	107.23	9.17	-26.9	-27.3	16.6	4.52e-04	0	34	102	8388608	32	19467
2026-01-05 21:32:45.25	107.91	9.04	-26.9	-27.3	16.8	5.40e-06	0	34	102	8388608	32	19500
2026-01-05 21:32:48.28	108.58	8.90	-26.9	-27.4	16.6	2.17e-05	0	34	102	8388608	32	19567
2026-01-05 21:32:51.32	109.24	8.77	-27.0	-27.4	16.8	5.40e-06	0	34	102	8388608	32	19709
2026-01-05 21:32:54.35	109.90	8.63	-26.9	-27.4	15.7	5.99e-05	0	34	102	8388608	34	17409
2026-01-05 21:32:57.38	110.54	8.49	-26.8	-27.2	15.9	2.18e-04	0	34	102	8388608	34	17118
2026-01-05 21:33:00.42	111.19	8.35	-26.9	-27.3	15.9	1.36e-04	0	35	102	8388608	34	17340
2026-01-05 21:33:03.45	111.82	8.21	-26.7	-27.1	15.3	1.36e-04	0	35	102	8388608	34	16863
2026-01-05 21:33:06.49	112.45	8.07	-26.7	-27.2	16.6	2.94e-04	0	35	102	8388608	34	17025
2026-01-05 21:33:09.52	113.06	7.92	-26.8	-27.2	16.6	1.08e-05	0	35	102	8388608	34	17161
2026-01-05 21:33:12.55	113.68	7.77	-27.0	-27.4	16.5	2.72e-05	0	35	102	8388608	34	17537
2026-01-05 21:33:15.58	114.28	7.63	-26.8	-27.3	16.7	2.72e-05	0	35	102	8388608	34	17210
2026-01-05 21:33:18.62	114.88	7.48	-26.8	-27.3	16.8	5.40e-06	0	35	102	8388608	34	17257
2026-01-05 21:33:21.65	115.46	7.33	-26.8	-27.2	16.1	1.31e-04	0	35	102	8388608	34	17100
2026-01-05 21:33:24.68	116.05	7.18	-26.8	-27.2	16.7	1.96e-04	0	35	102	8388608	34	17174
2026-01-05 21:33:27.72	116.62	7.03	-26.9	-27.3	16.1	2.72e-05	0	34	102	8388608	34	17385
2026-01-05 21:33:30.75	117.19	6.87	-26.9	-27.3	16.1	1.80e-04	0	35	102	8388608	34	17246
2026-01-05 21:33:33.78	117.75	6.72	-26.8	-27.2	16.2	2.07e-04	0	35	102	8388608	34	17037
2026-01-05 21:33:36.82	118.30	6.56	-27.0	-27.4	16.6	1.36e-04	0	35	102	8388608	34	17474
2026-01-05 21:33:39.85	118.85	6.41	-26.9	-27.4	16.5	1.08e-05	0	35	102	8388608	34	17411
2026-01-05 21:33:42.88	119.39	6.25	-26.8	-27.3	16.6	2.72e-05	0	35	102	8388608	34	17238
2026-01-05 21:33:45.92	119.92	6.10	-26.9	-27.4	16.5	2.17e-05	0	35	102	8388608	34	17413
2026-01-05 21:33:48.95	120.44	5.94	-26.9	-27.3	16.6	1.08e-05	0	35	102	8388608	34	17289
2026-01-05 21:33:51.98	120.96	5.78	-27.0	-27.4	16.5	5.44e-05	0	35	102	8388608	34	17503
2026-01-05 21:33:55.02	121.47	5.63	-26.8	-27.2	16.5	2.17e-05	0	35	102	8388608	34	17151
2026-01-05 21:33:58.05	121.98	5.47	-26.8	-27.2	16.5	1.08e-05	0	35	102	8388608	34	17162
2026-01-05 21:34:01.08	122.48	5.31	-26.8	-27.2	16.5	1.08e-05	0	35	102	8388608	34	17129
2026-01-05 21:34:04.12	122.97	5.15	-27.0	-27.4	16.5	5.40e-06	0	35	102	8388608	34	17545
2026-01-05 21:34:07.15	123.45	4.99	-27.1	-27.6	16.3	1.63e-05	0	35	102	8388608	34	17834
2026-01-05 21:34:10.18	123.93	4.83	-27.1	-27.6	16.4	2.72e-05	0	35	102	8388608	34	17816
2026-01-05 21:34:13.22	124.40	4.68	-27.0	-27.4	16.5	3.81e-05	0	35	102	8388608	34	17511
2026-01-05 21:34:16.25	124.87	4.52	-26.9	-27.3	16.5	5.40e-06	0	35	102	8388608	34	17311
2026-01-05 21:34:19.29	125.33	4.36	-27.0	-27.4	16.5	1.08e-05	0	35	102	8388608	34	17447
2026-01-05 21:34:22.32	125.79	4.20	-26.9	-27.3	16.5	1.63e-05	0	35	102	8388608	34	17305
2026-01-05 21:34:25.35	126.23	4.04	-26.8	-27.2	16.5	2.72e-05	0	35	102	8388608	34	17151
2026-01-05 21:34:28.38	126.67	3.88	-26.9	-27.2	16.5	5.40e-06	0	35	102	8388608	34	17189
2026-01-05 21:34:31.41	127.11	3.72	-26.9	-27.3	16.6	5.40e-06	0	35	102	8388608	34	17320
2026-01-05 21:34:34.45	127.54	3.56	-27.0	-27.3	16.4	3.26e-05	0	35	102	8388608	34	17398
2026-01-05 21:34:37.48	127.97	3.40	-27.1	-27.5	16.5	5.44e-05	0	35	102	8388608	34	17689
2026-01-05 21:34:40.51	128.39	3.24	-26.9	-27.3	16.6	3.81e-05	0	35	102	8388608	34	17303
2026-01-05 21:34:43.55	128.80	3.09	-26.9	-27.3	16.4	2.17e-05	0	35	102	8388608	34	17345
2026-01-05 21:34:46.58	129.21	2.93	-26.9	-27.3	16.6	5.44e-05	0	35	102	8388608	34	17371
2026-01-05 21:34:49.61	129.61	2.77	-26.9	-27.3	16.5	1.08e-05	0	35	102	8388608	34	17340
2026-01-05 21:34:52.65	130.01	2.61	-26.8	-27.2	16.4	1.63e-05	0	35	102	8388608	34	17157
2026-01-05 21:34:55.68	130.40	2.45	-27.1	-27.4	16.5	2.17e-05	0	35	102	8388608	34	17568
2026-01-05 21:34:58.71	130.79	2.30	-27.0	-27.4	16.7	4.90e-05	0	35	102	8388608	34	17552
2026-01-05 21:35:01.75	131.17	2.14	-27.0	-27.4	16.7	0.00e+00	0	35	102	8388608	34	17496
2026-01-05 21:35:04.78	131.55	1.98	-27.2	-27.6	16.7	1.63e-05	0	35	102	8388608	34	17877
2026-01-05 21:35:07.81	131.92	1.83	-27.1	-27.5	16.8	5.40e-06	0	35	102	8388608	34	17667
2026-01-05 21:35:10.85	132.29	1.67	-27.6	-28.0	16.8	1.63e-05	0	35	102	8388608	34	18648
2026-01-05 21:35:13.88	132.65	1.51	-27.3	-27.7	16.8	5.40e-06	0	35	102	8388608	34	18074
2026-01-05 21:35:16.91	133.01	1.36	-27.2	-27.5	16.8	1.08e-05	0	35	102	8388608	34	17777
2026-01-05 21:35:19.94	133.36	1.20	-27.3	-27.6	16.8	1.08e-05	0	35	102	8388608	34	17985
2026-01-05 21:35:22.98	133.71	1.05	-27.3	-27.7	16.8	5.40e-06	0	35	102	8388608	34	18158
2026-01-05 21:35:26.01	134.06	0.89	-27.4	-27.8	16.8	1.08e-05	0	35	102	8388608	34	18247
2026-01-05 21:35:29.05	134.40	0.74	-27.4	-27.8	16.8	1.63e-05	0	35	102	8388608	34	18372
2026-01-05 21:35:32.08	134.73	0.58	-27.6	-28.0	16.8	1.08e-05	0	35	102	8388608	34	18765
2026-01-05 21:35:35.12	135.07	0.43	-27.4	-27.8	17.0	1.08e-05	0	35	102	8388608	34	18249
2026-01-05 21:35:38.15	135.39	0.28	-27.6	-27.9	16.9	1.08e-05	0	35	102	8388608	34	18636
2026-01-05 21:35:41.18	135.72	0.12	-27.6	-28.0	16.9	3.81e-05	0	35	102	8388608	34	18695
2026-01-05 21:35:44.21	136.04	-0.03	-27.8	-28.2	16.9	3.26e-05	0	35	102	8388608	34	19143

#Closed at: 2026-01-05 21:35:45
#Recorded file [8 MB]: D:/lorett/data/35034_260106_002641.dat