passes_logs/2026/01/05/R4.6S_Anadyr_2ch/R4.6S_Anadyr_2ch__20260105_022801_SUOMI_NPP_rec.log

#Pass ID: 20260105_022801_SUOMI NPP
#Satellite: SUOMI NPP
#Configuration: NPP
#almurnet v.1.7.20251203
#Start time: 2026-01-05 02:30:06

#Version: 2.2.20231116
#Station: R4.6S_Anadyr_2ch
#Location: 177.4865 lon 64.73178 lat
#TLE: 1 37849U 11061A   25350.92281687  .00000071  00000+0  54882-4 0  9996
#TLE: 2 37849  98.7777 288.2268 0002366 112.8570 247.2856 14.19515404732588

#Time	Az	El	Level	Level2	SNR	BER	BlckErr	Temp	State	Recorded	gain1	gain2
2026-01-05 02:30:06.17	223.72	6.83	-47.2	-64.7	3.4	3.02e+01	0	26	0	0	60	88980
2026-01-05 02:30:09.20	224.04	7.01	-51.8	-67.2	3.6	1.51e+00	0	27	104	0	60	111902
2026-01-05 02:30:12.23	224.37	7.19	-52.0	-67.3	3.6	1.51e+00	0	27	104	0	60	113246
2026-01-05 02:30:15.27	224.70	7.37	-52.0	-67.5	3.6	1.51e+00	0	27	104	0	60	115866
2026-01-05 02:30:18.30	225.03	7.55	-51.8	-67.1	3.6	1.51e+00	0	27	104	0	60	110949
2026-01-05 02:30:21.33	225.37	7.72	-51.6	-67.0	3.6	1.51e+00	0	27	104	0	60	108853
2026-01-05 02:30:24.36	225.71	7.90	-52.3	-67.7	3.6	1.51e+00	0	27	104	0	60	118140
2026-01-05 02:30:27.39	226.06	8.08	-51.6	-67.0	3.6	1.51e+00	0	27	104	0	60	109097
2026-01-05 02:30:30.42	226.41	8.26	-52.2	-67.6	3.6	1.51e+00	0	27	104	0	60	116514
2026-01-05 02:30:33.46	226.76	8.44	-52.0	-67.3	3.6	1.51e+00	0	27	104	0	60	112841
2026-01-05 02:30:36.49	227.12	8.62	-51.7	-67.0	3.6	1.51e+00	0	27	104	0	60	109105
2026-01-05 02:30:39.52	227.48	8.80	-51.7	-67.0	3.6	1.51e+00	0	27	104	0	60	109630
2026-01-05 02:30:42.55	227.85	8.98	-51.7	-67.1	3.6	1.51e+00	0	27	104	0	60	110203
2026-01-05 02:30:45.59	228.22	9.17	-51.5	-66.9	3.6	1.51e+00	0	27	104	0	60	107356
2026-01-05 02:30:48.62	228.60	9.35	-51.3	-66.7	3.6	1.51e+00	0	26	104	0	60	105487
2026-01-05 02:30:51.65	228.98	9.53	-51.7	-67.1	3.6	1.51e+00	0	27	104	0	60	109919
2026-01-05 02:30:54.68	229.36	9.71	-51.4	-66.8	3.6	1.51e+00	0	27	104	0	60	106745
2026-01-05 02:30:57.72	229.75	9.90	-51.6	-66.9	3.6	1.51e+00	0	27	104	0	60	108239
2026-01-05 02:31:00.75	230.15	10.08	-51.5	-67.0	3.6	1.51e+00	0	27	104	0	60	109505
2026-01-05 02:31:03.78	230.55	10.26	-51.8	-67.2	3.6	1.51e+00	0	27	104	0	60	111394
2026-01-05 02:31:06.81	230.95	10.44	-51.1	-66.7	3.6	1.51e+00	0	27	104	0	60	105256
2026-01-05 02:31:09.84	231.36	10.63	-51.2	-66.6	3.6	1.51e+00	0	27	104	0	60	104013
2026-01-05 02:31:12.88	231.77	10.81	-51.1	-66.5	3.6	1.51e+00	0	27	104	0	60	102501
2026-01-05 02:31:15.91	232.19	10.99	-50.8	-66.1	3.6	1.51e+00	0	27	104	0	60	98898
2026-01-05 02:31:18.94	232.62	11.18	-50.8	-66.1	3.6	1.51e+00	0	27	104	0	60	98301
2026-01-05 02:31:21.97	233.05	11.36	-50.8	-66.1	3.6	1.51e+00	0	27	104	0	60	98414
2026-01-05 02:31:25.00	233.48	11.54	-50.8	-66.1	3.6	1.51e+00	0	27	104	0	60	98404
2026-01-05 02:31:28.03	233.92	11.72	-50.9	-66.2	3.6	1.51e+00	0	27	104	0	60	99398
2026-01-05 02:31:31.07	234.37	11.91	-51.2	-66.5	3.6	1.51e+00	0	27	104	0	60	102850
2026-01-05 02:31:34.10	234.82	12.09	-50.9	-66.2	3.6	1.51e+00	0	27	104	0	60	99002
2026-01-05 02:31:37.13	235.27	12.27	-50.9	-66.2	3.6	1.51e+00	0	27	104	0	60	99616
2026-01-05 02:31:40.17	235.74	12.46	-51.0	-66.3	3.6	1.51e+00	0	27	104	0	60	101053
2026-01-05 02:31:43.20	236.20	12.64	-50.9	-66.1	3.6	1.51e+00	0	27	104	0	60	98626
2026-01-05 02:31:46.23	236.67	12.82	-50.8	-65.3	3.5	1.51e+00	0	27	104	0	60	89816
2026-01-05 02:31:49.27	237.15	13.00	-50.7	-63.5	3.7	1.51e+00	0	26	104	0	60	72862
2026-01-05 02:31:52.30	237.64	13.18	-48.3	-52.1	12.8	1.16e-02	91	27	0	3145728	60	19552
2026-01-05 02:31:55.33	238.13	13.36	-42.1	-43.2	21.6	0.00e+00	0	26	0	8388608	60	7054
2026-01-05 02:31:58.36	238.62	13.54	-47.7	-50.8	13.9	0.00e+00	92	26	0	13631488	60	16983
2026-01-05 02:32:01.40	239.12	13.72	-44.4	-46.0	19.8	0.00e+00	92	26	0	16777216	60	9721
2026-01-05 02:32:04.43	239.63	13.90	-43.7	-45.1	19.8	0.00e+00	45	26	0	23068672	60	8751
2026-01-05 02:32:07.47	240.15	14.07	-43.6	-45.0	20.2	0.00e+00	0	26	0	28311552	60	8663
2026-01-05 02:32:10.50	240.66	14.25	-42.2	-43.4	21.3	0.00e+00	91	26	0	33554432	60	7186
2026-01-05 02:32:13.53	241.19	14.43	-42.1	-43.2	21.5	0.00e+00	90	26	0	39845888	60	7034
2026-01-05 02:32:16.57	241.72	14.60	-42.4	-43.6	21.7	0.00e+00	0	27	0	45088768	60	7405
2026-01-05 02:32:19.60	242.26	14.77	-41.0	-42.0	22.7	0.00e+00	91	27	0	51380224	60	6168
2026-01-05 02:32:22.63	242.80	14.95	-40.4	-41.3	23.1	0.00e+00	92	26	0	56623104	60	5693
2026-01-05 02:32:25.67	243.35	15.12	-40.5	-41.4	23.1	0.00e+00	0	26	0	62914560	60	5747
2026-01-05 02:32:28.70	243.91	15.29	-40.4	-41.3	23.0	0.00e+00	0	26	0	68157440	60	5664
2026-01-05 02:32:31.73	244.47	15.46	-40.4	-41.4	23.2	0.00e+00	92	26	0	73400320	60	5697
2026-01-05 02:32:34.77	245.04	15.62	-40.3	-41.2	23.3	0.00e+00	92	26	0	79691776	60	5614
2026-01-05 02:32:37.80	245.61	15.79	-40.4	-41.4	23.1	0.00e+00	0	26	0	84934656	60	5736
2026-01-05 02:32:40.83	246.19	15.95	-40.1	-41.0	23.4	0.00e+00	92	26	0	91226112	58	6152
2026-01-05 02:32:43.87	246.78	16.11	-40.3	-41.2	23.2	0.00e+00	92	26	0	96468992	58	6279
2026-01-05 02:32:46.90	247.37	16.28	-40.8	-41.8	22.7	0.00e+00	0	26	0	102760448	58	6760
2026-01-05 02:32:49.93	247.97	16.43	-40.8	-41.8	22.7	0.00e+00	92	26	0	108003328	58	6750
2026-01-05 02:32:52.96	248.57	16.59	-41.1	-42.1	22.6	0.00e+00	58	26	0	113246208	58	6941
2026-01-05 02:32:56.00	249.18	16.74	-41.5	-42.6	22.1	0.00e+00	47	26	0	119537664	60	6589
2026-01-05 02:32:59.03	249.80	16.90	-41.7	-42.8	21.6	0.00e+00	0	26	0	124780544	60	6757
2026-01-05 02:33:02.07	250.42	17.05	-41.6	-42.6	22.1	0.00e+00	56	26	0	131072000	60	6591
2026-01-05 02:33:05.10	251.05	17.20	-41.7	-42.8	21.9	0.00e+00	91	26	0	136314880	60	6749
2026-01-05 02:33:08.13	251.69	17.34	-42.0	-43.1	21.8	0.00e+00	0	26	0	141557760	60	7004
2026-01-05 02:33:11.17	252.33	17.48	-42.1	-43.3	21.5	0.00e+00	92	26	0	147849216	60	7097
2026-01-05 02:33:14.20	252.97	17.62	-42.6	-43.8	21.3	0.00e+00	92	26	0	153092096	60	7558
2026-01-05 02:33:17.24	253.63	17.76	-42.3	-43.4	21.5	0.00e+00	0	26	0	159383552	60	7246
2026-01-05 02:33:20.27	254.29	17.90	-43.2	-44.5	20.9	0.00e+00	0	26	0	164626432	60	8153
2026-01-05 02:33:23.30	254.95	18.03	-42.0	-43.1	21.9	0.00e+00	92	26	0	170917888	60	6943
2026-01-05 02:33:26.33	255.62	18.16	-41.6	-42.7	22.2	0.00e+00	92	26	0	176160768	60	6616
2026-01-05 02:33:29.37	256.29	18.28	-41.9	-43.0	21.8	0.00e+00	0	26	0	181403648	60	6919
2026-01-05 02:33:32.40	256.97	18.40	-41.4	-42.4	22.5	0.00e+00	92	26	0	187695104	60	6398
2026-01-05 02:33:35.43	257.66	18.52	-41.6	-42.7	21.9	0.00e+00	92	26	0	192937984	60	6657
2026-01-05 02:33:38.47	258.35	18.64	-42.1	-43.2	21.5	0.00e+00	0	26	0	199229440	60	7069
2026-01-05 02:33:41.50	259.04	18.75	-40.3	-41.2	23.3	0.00e+00	42	26	0	204472320	60	5609
2026-01-05 02:33:44.53	259.74	18.86	-40.6	-41.5	23.0	0.00e+00	92	26	0	210763776	58	6518
2026-01-05 02:33:47.57	260.45	18.96	-40.7	-41.6	23.0	0.00e+00	0	26	0	216006656	60	5885
2026-01-05 02:33:50.60	261.16	19.06	-40.1	-41.0	23.6	0.00e+00	0	26	0	221249536	58	6124
2026-01-05 02:33:53.63	261.87	19.16	-40.2	-41.1	23.6	0.00e+00	71	26	0	227540992	58	6180
2026-01-05 02:33:56.67	262.59	19.25	-39.9	-40.7	23.6	0.00e+00	92	26	0	232783872	58	5955
2026-01-05 02:33:59.70	263.32	19.34	-40.0	-41.0	23.5	0.00e+00	0	26	0	239075328	58	6108
2026-01-05 02:34:02.73	264.04	19.42	-40.0	-40.9	23.5	0.00e+00	92	26	0	244318208	58	6081
2026-01-05 02:34:05.77	264.77	19.50	-40.1	-41.0	23.5	0.00e+00	76	26	0	250609664	58	6157
2026-01-05 02:34:08.80	265.51	19.58	-40.5	-41.4	23.2	0.00e+00	0	26	0	255852544	58	6424
2026-01-05 02:34:11.83	266.24	19.65	-40.0	-40.9	23.6	0.00e+00	0	26	0	261095424	58	6046
2026-01-05 02:34:14.87	266.98	19.72	-40.3	-41.3	23.2	0.00e+00	90	26	0	267386880	58	6323
2026-01-05 02:34:17.90	267.73	19.78	-39.8	-40.7	23.6	0.00e+00	46	26	0	272629760	58	5946
2026-01-05 02:34:20.93	268.47	19.84	-40.3	-41.3	23.3	0.00e+00	0	26	0	278921216	58	6326
2026-01-05 02:34:23.96	269.22	19.89	-40.8	-41.8	22.9	0.00e+00	92	26	0	284164096	60	5966
2026-01-05 02:34:27.00	269.97	19.94	-41.0	-42.0	22.7	0.00e+00	92	26	0	289406976	60	6114
2026-01-05 02:34:30.03	270.73	19.98	-41.6	-42.6	22.3	0.00e+00	0	26	0	295698432	60	6614
2026-01-05 02:34:33.06	271.48	20.02	-40.7	-41.6	23.1	0.00e+00	46	26	0	300941312	60	5857
2026-01-05 02:34:36.10	272.24	20.06	-40.7	-41.6	23.3	0.00e+00	90	26	0	307232768	60	5863
2026-01-05 02:34:39.13	273.00	20.08	-40.4	-41.3	23.4	0.00e+00	0	26	0	312475648	60	5639
2026-01-05 02:34:42.16	273.76	20.11	-40.3	-41.2	23.3	0.00e+00	0	26	0	318767104	60	5624
2026-01-05 02:34:45.20	274.52	20.13	-41.4	-42.4	22.5	0.00e+00	92	26	0	324009984	60	6439
2026-01-05 02:34:48.23	275.28	20.14	-41.6	-42.6	22.3	0.00e+00	90	26	0	329252864	60	6574
2026-01-05 02:34:51.26	276.04	20.15	-41.9	-42.9	22.3	0.00e+00	0	26	0	335544320	60	6823
2026-01-05 02:34:54.29	276.80	20.15	-41.4	-42.4	22.5	0.00e+00	91	26	0	340787200	60	6413
2026-01-05 02:34:57.33	277.57	20.15	-41.6	-42.6	22.2	0.00e+00	92	26	0	347078656	60	6607
2026-01-05 02:35:00.36	278.33	20.15	-41.5	-42.5	22.4	0.00e+00	0	26	0	352321536	60	6519
2026-01-05 02:35:03.39	279.09	20.14	-41.6	-42.6	22.4	0.00e+00	0	26	0	358612992	60	6612
2026-01-05 02:35:06.43	279.85	20.12	-41.8	-42.9	22.0	0.00e+00	92	26	0	363855872	60	6845
2026-01-05 02:35:09.46	280.61	20.10	-41.6	-42.7	22.2	0.00e+00	41	26	0	369098752	60	6643
2026-01-05 02:35:12.50	281.37	20.07	-41.5	-42.5	22.3	0.00e+00	0	26	0	375390208	60	6533
2026-01-05 02:35:15.53	282.13	20.04	-41.6	-42.6	22.2	0.00e+00	92	26	0	380633088	60	6615
2026-01-05 02:35:18.56	282.88	20.01	-41.0	-42.0	22.8	0.00e+00	92	26	0	386924544	60	6130
2026-01-05 02:35:21.59	283.64	19.97	-40.7	-41.7	23.1	0.00e+00	0	26	0	392167424	60	5911
2026-01-05 02:35:24.63	284.39	19.92	-40.8	-41.8	22.9	0.00e+00	0	26	0	397410304	60	6009
2026-01-05 02:35:27.66	285.14	19.87	-41.3	-42.3	22.6	0.00e+00	44	26	0	403701760	60	6366
2026-01-05 02:35:30.69	285.88	19.82	-41.4	-42.4	22.4	0.00e+00	33	26	0	408944640	60	6447
2026-01-05 02:35:33.73	286.63	19.76	-40.9	-41.9	22.9	0.00e+00	0	26	0	415236096	60	6041
2026-01-05 02:35:36.76	287.37	19.69	-41.1	-42.0	22.8	0.00e+00	92	26	0	420478976	60	6161
2026-01-05 02:35:39.79	288.11	19.63	-41.0	-41.9	22.9	0.00e+00	62	26	0	426770432	60	6094
2026-01-05 02:35:42.83	288.84	19.55	-40.7	-41.7	23.1	0.00e+00	0	26	0	432013312	60	5917
2026-01-05 02:35:45.86	289.57	19.48	-41.1	-42.1	22.8	0.00e+00	92	26	0	437256192	60	6211
2026-01-05 02:35:48.89	290.30	19.39	-40.9	-41.8	23.1	0.00e+00	83	26	0	443547648	60	6023
2026-01-05 02:35:51.93	291.03	19.31	-41.3	-42.3	22.5	0.00e+00	0	26	0	448790528	60	6373
2026-01-05 02:35:54.96	291.74	19.22	-42.1	-43.2	21.8	0.00e+00	0	26	0	455081984	60	7074
2026-01-05 02:35:57.99	292.46	19.12	-41.2	-42.2	22.6	0.00e+00	90	26	0	460324864	60	6265
2026-01-05 02:36:01.03	293.17	19.03	-40.5	-41.4	23.2	0.00e+00	3	26	0	466616320	60	5739
2026-01-05 02:36:04.06	293.88	18.92	-41.2	-42.3	22.6	0.00e+00	0	26	0	471859200	60	6320
2026-01-05 02:36:07.09	294.58	18.82	-40.8	-41.7	23.0	0.00e+00	55	26	0	477102080	60	5945
2026-01-05 02:36:10.13	295.27	18.71	-41.2	-42.2	22.7	0.00e+00	92	26	0	483393536	60	6260
2026-01-05 02:36:13.16	295.96	18.60	-41.3	-42.3	22.3	0.00e+00	0	26	0	488636416	60	6383
2026-01-05 02:36:16.19	296.65	18.48	-40.1	-41.0	23.6	0.00e+00	0	26	0	494927872	58	6126
2026-01-05 02:36:19.23	297.33	18.36	-39.7	-40.5	23.8	0.00e+00	92	26	0	500170752	58	5824
2026-01-05 02:36:22.26	298.01	18.24	-40.1	-41.0	23.5	0.00e+00	0	26	0	506462208	58	6123
2026-01-05 02:36:25.29	298.68	18.11	-40.1	-41.0	23.4	0.00e+00	0	26	0	511705088	58	6131
2026-01-05 02:36:28.33	299.34	17.98	-40.2	-41.1	23.4	0.00e+00	92	26	0	516947968	58	6213
2026-01-05 02:36:31.36	300.00	17.85	-40.6	-41.5	23.0	0.00e+00	90	26	0	523239424	58	6524
2026-01-05 02:36:34.40	300.66	17.72	-40.3	-41.3	23.1	0.00e+00	0	26	0	528482304	58	6323
2026-01-05 02:36:37.43	301.30	17.58	-40.6	-41.6	23.0	0.00e+00	90	26	0	534773760	58	6579
2026-01-05 02:36:40.46	301.95	17.44	-40.5	-41.4	23.1	0.00e+00	28	26	0	540016640	58	6444
2026-01-05 02:36:43.50	302.58	17.30	-41.2	-42.3	22.5	0.00e+00	0	26	0	546308096	58	7090
2026-01-05 02:36:46.53	303.21	17.15	-41.8	-42.8	22.0	0.00e+00	0	26	0	551550976	60	6757
2026-01-05 02:36:49.56	303.84	17.00	-41.7	-42.8	22.2	0.00e+00	92	26	0	556793856	60	6704
2026-01-05 02:36:52.59	304.45	16.85	-41.7	-42.7	22.3	0.00e+00	40	26	0	563085312	60	6650
2026-01-05 02:36:55.63	305.07	16.70	-40.9	-41.9	23.0	0.00e+00	0	26	0	568328192	60	6038
2026-01-05 02:36:58.66	305.67	16.55	-40.9	-41.9	23.0	0.00e+00	84	26	0	574619648	60	6051
2026-01-05 02:37:01.69	306.27	16.39	-41.2	-42.2	22.6	0.00e+00	92	26	0	579862528	60	6308
2026-01-05 02:37:04.73	306.87	16.23	-42.5	-43.7	21.5	0.00e+00	0	26	0	585105408	60	7454
2026-01-05 02:37:07.76	307.45	16.07	-42.5	-43.7	21.4	0.00e+00	0	26	0	591396864	60	7464
2026-01-05 02:37:10.79	308.04	15.91	-42.1	-43.2	21.6	0.00e+00	92	26	0	596639744	60	7067
2026-01-05 02:37:13.83	308.61	15.75	-41.5	-42.5	22.4	0.00e+00	0	26	0	602931200	60	6499
2026-01-05 02:37:16.86	309.18	15.58	-41.1	-42.1	22.8	0.00e+00	0	26	0	608174080	60	6195
2026-01-05 02:37:19.89	309.74	15.42	-41.6	-42.6	22.4	0.00e+00	91	26	0	614465536	60	6611
2026-01-05 02:37:22.93	310.30	15.25	-43.0	-44.2	21.1	0.00e+00	44	26	0	619708416	60	7942
2026-01-05 02:37:25.96	310.85	15.08	-42.7	-43.9	21.6	0.00e+00	0	26	0	624951296	60	7639
2026-01-05 02:37:28.99	311.40	14.91	-41.7	-42.8	22.4	0.00e+00	70	26	0	631242752	60	6702
2026-01-05 02:37:32.03	311.94	14.74	-41.5	-42.6	22.1	0.00e+00	88	26	0	636485632	60	6567
2026-01-05 02:37:35.06	312.47	14.57	-41.3	-42.4	22.1	0.00e+00	0	26	0	642777088	60	6392
2026-01-05 02:37:38.09	313.00	14.39	-40.9	-41.9	22.7	0.00e+00	0	26	0	648019968	60	6041
2026-01-05 02:37:41.13	313.52	14.22	-41.3	-42.4	22.3	0.00e+00	12	26	0	654311424	60	6396
2026-01-05 02:37:44.16	314.03	14.04	-41.5	-42.6	22.2	0.00e+00	40	26	0	659554304	60	6591
2026-01-05 02:37:47.19	314.54	13.87	-41.1	-42.1	22.4	0.00e+00	0	26	0	664797184	60	6232
2026-01-05 02:37:50.23	315.05	13.69	-41.1	-42.1	22.5	0.00e+00	92	26	0	671088640	60	6230
2026-01-05 02:37:53.26	315.54	13.51	-41.2	-42.2	22.2	0.00e+00	92	26	0	676331520	60	6308
2026-01-05 02:37:56.29	316.03	13.33	-41.3	-42.4	22.5	0.00e+00	0	26	0	682622976	60	6398
2026-01-05 02:37:59.33	316.52	13.16	-41.9	-43.0	22.0	0.00e+00	0	26	0	687865856	60	6874
2026-01-05 02:38:02.36	317.00	12.98	-42.0	-43.1	22.1	0.00e+00	91	26	0	694157312	60	6970
2026-01-05 02:38:05.39	317.47	12.80	-42.3	-43.4	22.3	0.00e+00	0	26	0	699400192	60	7210
2026-01-05 02:38:08.43	317.94	12.62	-41.5	-42.5	22.8	0.00e+00	0	26	0	704643072	60	6477
2026-01-05 02:38:11.46	318.41	12.44	-40.6	-41.6	23.2	0.00e+00	33	26	0	710934528	60	5837
2026-01-05 02:38:14.49	318.86	12.26	-41.0	-42.0	22.5	0.00e+00	36	26	0	716177408	60	6115
2026-01-05 02:38:17.52	319.32	12.08	-41.1	-42.1	22.6	0.00e+00	0	26	0	722468864	60	6219
2026-01-05 02:38:20.56	319.76	11.89	-41.1	-42.1	22.6	0.00e+00	0	26	0	727711744	60	6236
2026-01-05 02:38:23.59	320.21	11.71	-40.7	-41.7	22.9	0.00e+00	91	26	0	734003200	60	5931
2026-01-05 02:38:26.62	320.64	11.53	-41.1	-42.1	22.6	0.00e+00	0	26	0	739246080	60	6218
2026-01-05 02:38:29.66	321.08	11.35	-41.8	-42.9	22.2	0.00e+00	0	26	0	744488960	60	6783
2026-01-05 02:38:32.69	321.50	11.17	-42.2	-43.2	22.4	0.00e+00	11	26	0	750780416	60	7071
2026-01-05 02:38:35.72	321.92	10.99	-40.9	-41.9	22.9	0.00e+00	0	26	0	756023296	60	6043
2026-01-05 02:38:38.76	322.34	10.80	-41.1	-42.2	22.5	0.00e+00	0	26	0	762314752	60	6251
2026-01-05 02:38:41.79	322.75	10.62	-41.7	-42.8	21.8	0.00e+00	0	26	0	767557632	60	6759
2026-01-05 02:38:44.82	323.16	10.44	-42.2	-43.4	21.4	0.00e+00	65	26	0	772800512	60	7244
2026-01-05 02:38:47.86	323.56	10.26	-42.2	-43.4	21.4	0.00e+00	0	26	0	779091968	60	7229
2026-01-05 02:38:50.89	323.95	10.08	-42.1	-43.3	21.6	0.00e+00	0	26	0	784334848	60	7134
2026-01-05 02:38:53.92	324.35	9.90	-41.9	-43.0	21.6	0.00e+00	92	26	0	790626304	60	6900
2026-01-05 02:38:56.96	324.74	9.72	-42.1	-43.3	21.4	0.00e+00	0	26	0	795869184	60	7127
2026-01-05 02:38:59.99	325.12	9.54	-41.8	-42.9	21.5	0.00e+00	0	26	0	802160640	60	6827
2026-01-05 02:39:03.02	325.50	9.36	-41.5	-42.6	21.8	0.00e+00	0	26	0	807403520	60	6564
2026-01-05 02:39:06.06	325.87	9.18	-41.9	-43.1	21.4	0.00e+00	12	26	0	812646400	60	6948
2026-01-05 02:39:09.09	326.24	9.00	-41.9	-43.1	21.3	0.00e+00	0	26	0	818937856	60	7006
2026-01-05 02:39:12.12	326.60	8.82	-41.7	-42.9	21.5	0.00e+00	0	26	0	824180736	60	6773
2026-01-05 02:39:15.16	326.97	8.64	-41.4	-42.5	21.8	0.00e+00	92	26	0	830472192	60	6529
2026-01-05 02:39:18.19	327.32	8.46	-41.6	-42.6	22.0	0.00e+00	0	26	0	835715072	60	6615
2026-01-05 02:39:21.22	327.67	8.28	-41.6	-42.8	21.6	0.00e+00	0	26	0	842006528	60	6706
2026-01-05 02:39:24.26	328.02	8.10	-42.2	-43.4	21.2	0.00e+00	92	26	0	847249408	60	7194
2026-01-05 02:39:27.29	328.37	7.92	-42.4	-43.7	20.9	0.00e+00	0	26	0	852492288	60	7431
2026-01-05 02:39:30.32	328.71	7.75	-42.1	-43.3	21.2	0.00e+00	0	26	0	858783744	60	7163
2026-01-05 02:39:33.36	329.04	7.57	-42.1	-43.2	21.7	0.00e+00	0	26	0	864026624	60	7058
2026-01-05 02:39:36.39	329.38	7.39	-41.9	-43.1	21.5	0.00e+00	39	26	0	870318080	60	6943
2026-01-05 02:39:39.42	329.71	7.22	-42.3	-43.5	21.2	0.00e+00	0	26	0	875560960	60	7285
2026-01-05 02:39:42.46	330.03	7.04	-42.9	-44.3	20.4	0.00e+00	0	26	0	881852416	60	7995
2026-01-05 02:39:45.49	330.35	6.87	-43.3	-44.7	20.3	0.00e+00	92	26	0	887095296	60	8354
2026-01-05 02:39:48.52	330.67	6.69	-43.0	-44.3	20.2	0.00e+00	0	26	0	892338176	60	8029
2026-01-05 02:39:51.56	330.98	6.52	-43.3	-44.7	19.8	0.00e+00	0	26	0	898629632	60	8420
2026-01-05 02:39:54.59	331.29	6.34	-43.8	-45.4	19.1	0.00e+00	0	26	0	903872512	60	9131
2026-01-05 02:39:57.62	331.60	6.17	-44.1	-45.8	18.7	0.00e+00	33	26	0	910163968	60	9496
2026-01-05 02:40:00.65	331.90	6.00	-43.9	-45.6	18.8	0.00e+00	0	26	0	915406848	60	9262
2026-01-05 02:40:03.69	332.20	5.83	-43.3	-44.9	19.3	0.00e+00	0	26	0	921698304	60	8583
2026-01-05 02:40:06.72	332.50	5.66	-43.6	-45.3	18.7	0.00e+00	34	26	0	926941184	60	8977
2026-01-05 02:40:09.75	332.79	5.48	-44.1	-46.1	17.5	0.00e+00	0	26	0	932184064	60	9851
2026-01-05 02:40:12.78	333.08	5.31	-44.9	-47.7	14.9	0.00e+00	0	26	0	938475520	60	11877
2026-01-05 02:40:15.82	333.37	5.14	-45.6	-50.0	11.6	3.78e-04	92	26	0	943718400	60	15483
2026-01-05 02:40:18.85	333.66	4.97	-46.1	-52.5	8.1	2.58e-02	0	26	0	950009856	60	20498
2026-01-05 02:40:21.88	333.94	4.81	-46.2	-54.6	5.4	3.39e-01	0	26	0	955252736	60	26095
2026-01-05 02:40:24.92	334.21	4.64	-46.1	-56.5	3.9	1.04e+00	0	26	0	960495616	60	32553
2026-01-05 02:40:27.95	334.49	4.47	-46.1	-59.2	3.6	1.49e+00	0	26	104	960495616	60	44412
2026-01-05 02:40:30.98	334.76	4.30	-46.4	-60.4	3.6	1.51e+00	0	26	104	960495616	60	50827
2026-01-05 02:40:34.02	335.03	4.13	-46.3	-60.8	3.6	1.51e+00	0	26	104	960495616	60	53173
2026-01-05 02:40:37.05	335.30	3.97	-46.3	-61.5	3.6	1.51e+00	0	26	104	960495616	60	58122
2026-01-05 02:40:40.08	335.56	3.80	-46.2	-61.3	3.6	1.51e+00	0	26	104	960495616	60	56918
2026-01-05 02:40:43.12	335.82	3.64	-46.3	-61.6	3.6	1.51e+00	0	26	104	960495616	60	58349
2026-01-05 02:40:46.15	336.08	3.47	-46.1	-61.4	3.6	1.51e+00	0	26	104	960495616	60	57159
2026-01-05 02:40:49.18	336.33	3.31	-46.6	-61.9	3.6	1.51e+00	0	26	104	960495616	60	60872
2026-01-05 02:40:52.22	336.58	3.14	-46.2	-61.5	3.6	1.51e+00	0	26	104	960495616	60	57828
2026-01-05 02:40:55.25	336.83	2.98	-50.7	-66.1	3.6	1.51e+00	0	26	104	960495616	60	97981
2026-01-05 02:40:58.28	337.08	2.82	-51.2	-66.5	3.6	1.51e+00	0	26	104	960495616	60	103424
2026-01-05 02:41:01.32	337.33	2.66	-51.6	-66.9	3.6	1.51e+00	0	26	104	960495616	60	108194
2026-01-05 02:41:04.35	337.57	2.50	-51.1	-66.9	3.6	1.51e+00	0	26	104	960495616	60	107559
2026-01-05 02:41:07.38	337.81	2.33	-51.3	-66.7	3.6	1.51e+00	0	26	104	960495616	60	105581
2026-01-05 02:41:10.42	338.04	2.17	-51.6	-67.0	3.6	1.51e+00	0	26	104	960495616	60	108749
2026-01-05 02:41:13.45	338.28	2.01	-51.5	-66.9	3.6	1.51e+00	0	26	104	960495616	60	107472
2026-01-05 02:41:16.48	338.51	1.86	-51.5	-66.8	3.6	1.51e+00	0	26	104	960495616	60	107060
2026-01-05 02:41:19.52	338.74	1.70	-52.0	-67.3	3.6	1.51e+00	0	26	104	960495616	60	113109
2026-01-05 02:41:22.55	338.97	1.54	-51.3	-66.7	3.6	1.51e+00	0	26	104	960495616	60	105521
2026-01-05 02:41:25.58	339.20	1.38	-51.6	-66.9	3.6	1.51e+00	0	26	104	960495616	60	108223
2026-01-05 02:41:28.62	339.42	1.22	-51.7	-67.0	3.6	1.51e+00	0	26	104	960495616	60	109596
2026-01-05 02:41:31.65	339.64	1.07	-51.8	-67.1	3.6	1.51e+00	0	26	104	960495616	60	110908
2026-01-05 02:41:34.68	339.86	0.91	-51.5	-66.9	3.6	1.51e+00	0	26	104	960495616	60	107498
2026-01-05 02:41:37.71	340.08	0.76	-51.6	-67.0	3.6	1.51e+00	0	26	104	960495616	60	108880
2026-01-05 02:41:40.75	340.29	0.60	-51.5	-66.9	3.6	1.51e+00	0	26	104	960495616	60	107955
2026-01-05 02:41:43.78	340.50	0.45	-52.7	-68.1	3.6	1.51e+00	0	26	104	960495616	60	123557
2026-01-05 02:41:46.81	340.71	0.29	-51.7	-67.1	3.6	1.51e+00	0	26	104	960495616	60	109806
2026-01-05 02:41:49.85	340.92	0.14	-52.2	-67.6	3.6	1.51e+00	0	26	104	960495616	60	116767
2026-01-05 02:41:52.88	341.13	-0.02	-51.9	-67.3	3.6	1.51e+00	0	26	104	960495616	60	112700

#Closed at: 2026-01-05 02:41:54
#Recorded file [960 MB]: D:/lorett/data/35034_260105_053006.dat