passes_logs/2026/01/05/R4.6S_Anadyr_2ch/R4.6S_Anadyr_2ch__20260105_193102_SUOMI_NPP_rec.log

#Pass ID: 20260105_193102_SUOMI NPP
#Satellite: SUOMI NPP
#Configuration: NPP
#almurnet v.1.7.20251203
#Start time: 2026-01-05 19:31:02

#Version: 2.2.20231116
#Station: R4.6S_Anadyr_2ch
#Location: 177.4865 lon 64.73178 lat
#TLE: 1 37849U 11061A   25350.92281687  .00000071  00000+0  54882-4 0  9996
#TLE: 2 37849  98.7777 288.2268 0002366 112.8570 247.2856 14.19515404732588

#Time	Az	El	Level	Level2	SNR	BER	BlckErr	Temp	State	Recorded	gain1	gain2
2026-01-05 19:31:02.75	53.43	0.03	-50.8	-61.6	3.5	8.45e-01	0	29	0	0	60	59534
2026-01-05 19:31:05.78	53.20	0.18	-51.2	-66.5	3.6	1.51e+00	0	30	104	0	60	102651
2026-01-05 19:31:08.81	52.97	0.32	-51.3	-66.5	3.6	1.51e+00	0	30	104	0	60	103548
2026-01-05 19:31:11.85	52.74	0.47	-51.3	-66.6	3.6	1.51e+00	0	30	104	0	60	103789
2026-01-05 19:31:14.88	52.50	0.62	-51.2	-66.5	3.6	1.51e+00	0	30	104	0	60	103062
2026-01-05 19:31:17.91	52.26	0.77	-50.9	-66.2	3.6	1.51e+00	0	30	104	0	60	99000
2026-01-05 19:31:20.95	52.02	0.92	-49.7	-65.0	3.6	1.51e+00	0	30	104	0	60	86530
2026-01-05 19:31:23.98	51.78	1.06	-49.7	-64.9	3.6	1.51e+00	0	31	104	0	60	85964
2026-01-05 19:31:27.01	51.53	1.21	-49.7	-65.0	3.6	1.51e+00	0	31	104	0	60	86212
2026-01-05 19:31:30.04	51.28	1.36	-49.7	-64.9	3.6	1.51e+00	0	31	104	0	60	86159
2026-01-05 19:31:33.07	51.03	1.51	-49.7	-64.9	3.6	1.51e+00	0	31	104	0	60	86006
2026-01-05 19:31:36.11	50.78	1.66	-49.7	-64.9	3.6	1.51e+00	0	31	104	0	60	85398
2026-01-05 19:31:39.14	50.52	1.81	-49.7	-64.9	3.6	1.51e+00	0	31	104	0	60	86200
2026-01-05 19:31:42.17	50.26	1.96	-49.7	-64.9	3.6	1.51e+00	0	31	104	0	60	85937
2026-01-05 19:31:45.20	50.00	2.11	-49.7	-64.7	3.6	1.51e+00	0	31	104	0	60	83630
2026-01-05 19:31:48.24	49.73	2.26	-49.7	-64.7	3.6	1.51e+00	0	31	104	0	60	83396
2026-01-05 19:31:51.27	49.46	2.41	-49.7	-64.8	3.6	1.51e+00	0	31	104	0	60	85119
2026-01-05 19:31:54.30	49.19	2.56	-49.7	-64.9	3.6	1.51e+00	0	31	104	0	60	85726
2026-01-05 19:31:57.33	48.92	2.71	-49.6	-63.7	3.6	1.51e+00	0	31	104	0	60	75066
2026-01-05 19:32:00.36	48.64	2.87	-49.6	-64.1	3.6	1.51e+00	0	31	104	0	60	78525
2026-01-05 19:32:03.39	48.36	3.02	-48.7	-54.8	8.8	1.28e-01	0	31	102	1048576	60	26732
2026-01-05 19:32:06.43	48.08	3.17	-49.6	-64.6	3.6	1.51e+00	0	31	104	1048576	60	83110
2026-01-05 19:32:09.46	47.79	3.32	-46.5	-49.5	14.5	0.00e+00	0	31	0	1048576	60	14637
2026-01-05 19:32:12.49	47.51	3.47	-44.9	-47.1	17.1	0.00e+00	0	31	0	1048576	60	10987
2026-01-05 19:32:15.53	47.21	3.63	-44.7	-46.7	17.4	0.00e+00	0	31	0	1048576	60	10559
2026-01-05 19:32:18.56	46.92	3.78	-44.7	-46.7	17.5	0.00e+00	0	31	0	1048576	60	10485
2026-01-05 19:32:21.59	46.62	3.93	-44.5	-46.5	17.9	0.00e+00	0	31	0	1048576	60	10273
2026-01-05 19:32:24.62	46.32	4.08	-44.8	-46.8	17.5	0.00e+00	0	31	0	1048576	60	10666
2026-01-05 19:32:27.66	46.01	4.24	-44.5	-46.5	17.9	0.00e+00	0	31	101	1048576	60	10269
2026-01-05 19:32:30.69	45.70	4.39	-44.8	-46.8	17.7	0.00e+00	0	31	101	1048576	60	10618
2026-01-05 19:32:33.72	45.39	4.54	-44.7	-46.6	17.7	0.00e+00	0	31	101	1048576	60	10455
2026-01-05 19:32:36.75	45.08	4.69	-44.3	-46.1	18.3	0.00e+00	0	31	101	1048576	60	9855
2026-01-05 19:32:39.79	44.76	4.85	-44.3	-46.2	18.2	0.00e+00	0	31	101	1048576	60	9903
2026-01-05 19:32:42.82	44.44	5.00	-44.4	-46.3	18.1	0.00e+00	0	31	101	1048576	60	10074
2026-01-05 19:32:45.85	44.11	5.15	-44.4	-46.3	18.1	0.00e+00	0	31	101	1048576	60	10050
2026-01-05 19:32:48.88	43.79	5.31	-44.4	-46.3	18.2	0.00e+00	0	31	101	1048576	60	10021
2026-01-05 19:32:51.92	43.45	5.46	-44.2	-46.0	18.4	0.00e+00	0	31	101	1048576	60	9739
2026-01-05 19:32:54.95	43.12	5.61	-43.5	-45.0	19.4	0.00e+00	0	31	101	1048576	60	8709
2026-01-05 19:32:57.98	42.78	5.77	-43.1	-44.5	19.7	0.00e+00	0	31	101	1048576	60	8228
2026-01-05 19:33:01.02	42.43	5.92	-43.3	-44.8	19.7	0.00e+00	0	31	101	1048576	60	8448
2026-01-05 19:33:04.05	42.09	6.07	-43.0	-44.4	20.0	0.00e+00	0	31	101	1048576	60	8136
2026-01-05 19:33:07.09	41.73	6.22	-42.9	-44.3	20.1	0.00e+00	0	31	101	1048576	60	8007
2026-01-05 19:33:10.12	41.38	6.38	-43.0	-44.5	19.6	0.00e+00	0	31	101	1048576	60	8144
2026-01-05 19:33:13.15	41.02	6.53	-43.1	-44.5	20.0	0.00e+00	0	31	101	1048576	60	8180
2026-01-05 19:33:16.18	40.66	6.68	-43.1	-44.5	19.9	0.00e+00	0	31	101	1048576	60	8226
2026-01-05 19:33:19.22	40.29	6.83	-43.4	-44.9	19.6	0.00e+00	0	31	101	1048576	60	8549
2026-01-05 19:33:22.25	39.92	6.99	-43.1	-44.5	20.0	0.00e+00	0	31	101	1048576	60	8164
2026-01-05 19:33:25.29	39.55	7.14	-43.3	-44.8	19.7	0.00e+00	0	31	101	1048576	60	8454
2026-01-05 19:33:28.32	39.17	7.29	-43.7	-45.2	19.4	0.00e+00	0	31	101	1048576	60	8891
2026-01-05 19:33:31.35	38.79	7.44	-43.4	-44.8	19.7	0.00e+00	0	31	101	1048576	60	8522
2026-01-05 19:33:34.39	38.40	7.59	-43.2	-44.6	20.0	0.00e+00	0	31	101	1048576	60	8249
2026-01-05 19:33:37.42	38.01	7.74	-43.1	-44.5	20.1	0.00e+00	0	31	101	1048576	60	8188
2026-01-05 19:33:40.45	37.62	7.89	-42.9	-44.3	20.3	0.00e+00	0	31	101	1048576	60	7961
2026-01-05 19:33:43.49	37.22	8.04	-42.6	-43.9	20.7	0.00e+00	0	31	101	1048576	60	7616
2026-01-05 19:33:46.52	36.82	8.19	-42.9	-44.3	20.3	0.00e+00	0	31	101	1048576	60	7990
2026-01-05 19:33:49.55	36.41	8.34	-43.2	-44.6	19.9	0.00e+00	0	31	101	1048576	60	8287
2026-01-05 19:33:52.58	36.00	8.49	-43.5	-45.1	19.6	0.00e+00	0	31	101	1048576	60	8757
2026-01-05 19:33:55.61	35.58	8.63	-43.3	-44.7	19.9	0.00e+00	0	31	101	1048576	60	8376
2026-01-05 19:33:58.65	35.16	8.78	-43.1	-44.5	20.1	0.00e+00	0	31	101	1048576	60	8223
2026-01-05 19:34:01.68	34.74	8.93	-43.2	-44.6	20.0	0.00e+00	0	31	101	1048576	60	8303
2026-01-05 19:34:04.71	34.31	9.07	-42.8	-44.1	20.5	0.00e+00	0	31	101	1048576	60	7805
2026-01-05 19:34:07.75	33.88	9.22	-42.4	-43.7	20.8	0.00e+00	0	31	101	1048576	60	7465
2026-01-05 19:34:10.78	33.44	9.36	-42.1	-43.3	21.2	0.00e+00	0	31	101	1048576	60	7102
2026-01-05 19:34:13.82	33.00	9.51	-41.9	-43.1	21.4	0.00e+00	0	31	101	1048576	60	6969
2026-01-05 19:34:16.85	32.55	9.65	-41.6	-42.8	21.5	0.00e+00	0	31	101	1048576	60	6704
2026-01-05 19:34:19.89	32.10	9.79	-41.2	-42.2	22.2	0.00e+00	0	31	101	1048576	60	6291
2026-01-05 19:34:22.92	31.65	9.93	-41.2	-42.3	22.1	0.00e+00	0	31	101	1048576	60	6356
2026-01-05 19:34:25.95	31.19	10.07	-41.3	-42.3	22.0	0.00e+00	0	31	101	1048576	60	6380
2026-01-05 19:34:28.99	30.72	10.21	-41.7	-42.9	21.6	0.00e+00	0	31	101	1048576	60	6818
2026-01-05 19:34:32.02	30.25	10.35	-41.9	-43.1	21.4	0.00e+00	0	31	101	1048576	60	6994
2026-01-05 19:34:35.05	29.78	10.48	-41.5	-42.6	21.9	0.00e+00	0	31	101	1048576	60	6595
2026-01-05 19:34:38.09	29.30	10.62	-40.9	-41.9	22.4	0.00e+00	0	31	101	1048576	60	6099
2026-01-05 19:34:41.12	28.82	10.75	-40.6	-41.6	22.7	0.00e+00	0	31	101	1048576	60	5871
2026-01-05 19:34:44.15	28.33	10.89	-40.5	-41.5	22.8	0.00e+00	0	31	101	1048576	60	5784
2026-01-05 19:34:47.19	27.84	11.02	-40.6	-41.6	22.8	0.00e+00	0	31	101	1048576	60	5862
2026-01-05 19:34:50.22	27.35	11.15	-40.8	-41.9	22.5	0.00e+00	0	31	101	1048576	60	6038
2026-01-05 19:34:53.25	26.85	11.28	-40.2	-41.1	22.9	0.00e+00	0	31	101	1048576	58	6224
2026-01-05 19:34:56.29	26.34	11.40	-40.1	-41.1	23.1	0.00e+00	0	31	101	1048576	58	6187
2026-01-05 19:34:59.32	25.83	11.53	-40.0	-41.0	23.3	0.00e+00	0	31	101	1048576	58	6112
2026-01-05 19:35:02.35	25.32	11.65	-40.5	-41.6	22.7	0.00e+00	0	31	101	1048576	58	6549
2026-01-05 19:35:05.39	24.80	11.78	-41.0	-42.0	22.4	0.00e+00	0	31	101	1048576	58	6920
2026-01-05 19:35:08.42	24.28	11.90	-40.9	-42.0	22.2	0.00e+00	0	31	101	1048576	58	6849
2026-01-05 19:35:11.45	23.75	12.02	-41.0	-42.0	22.4	0.00e+00	0	31	101	1048576	60	6157
2026-01-05 19:35:14.49	23.22	12.13	-40.8	-41.8	22.5	0.00e+00	0	31	101	1048576	60	5982
2026-01-05 19:35:17.52	22.69	12.25	-41.2	-42.2	22.3	0.00e+00	0	31	101	1048576	60	6310
2026-01-05 19:35:20.55	22.15	12.36	-41.2	-42.3	22.3	0.00e+00	0	31	101	1048576	60	6361
2026-01-05 19:35:23.59	21.60	12.48	-40.5	-41.5	22.8	0.00e+00	0	31	101	1048576	60	5780
2026-01-05 19:35:26.62	21.06	12.58	-40.5	-41.4	22.8	0.00e+00	0	31	101	1048576	60	5750
2026-01-05 19:35:29.65	20.51	12.69	-40.5	-41.5	22.9	0.00e+00	0	31	101	1048576	60	5811
2026-01-05 19:35:32.69	19.95	12.80	-40.8	-41.9	22.6	0.00e+00	0	31	101	1048576	60	6050
2026-01-05 19:35:35.72	19.39	12.90	-40.6	-41.6	22.7	0.00e+00	0	31	101	1048576	60	5895
2026-01-05 19:35:38.75	18.83	13.00	-40.7	-41.7	22.6	0.00e+00	0	31	101	1048576	60	5931
2026-01-05 19:35:41.79	18.26	13.10	-41.3	-42.5	22.2	0.00e+00	0	31	101	1048576	60	6468
2026-01-05 19:35:44.82	17.69	13.19	-41.6	-42.8	21.8	0.00e+00	0	31	101	1048576	60	6752
2026-01-05 19:35:47.85	17.11	13.29	-41.1	-42.2	22.4	0.00e+00	0	31	101	1048576	60	6272
2026-01-05 19:35:50.88	16.53	13.38	-40.1	-41.1	23.1	0.00e+00	0	31	101	1048576	60	5506
2026-01-05 19:35:53.92	15.95	13.47	-39.5	-40.4	23.6	0.00e+00	0	31	101	1048576	58	5726
2026-01-05 19:35:56.95	15.37	13.55	-39.8	-40.7	23.5	0.00e+00	0	31	101	1048576	58	5947
2026-01-05 19:35:59.99	14.78	13.64	-39.8	-40.7	23.5	0.00e+00	0	31	101	1048576	58	5934
2026-01-05 19:36:03.02	14.18	13.72	-39.8	-40.7	23.5	0.00e+00	0	31	101	1048576	58	5948
2026-01-05 19:36:06.05	13.59	13.79	-39.8	-40.7	23.4	0.00e+00	0	31	101	1048576	58	5918
2026-01-05 19:36:09.08	12.99	13.87	-40.7	-41.7	22.5	0.00e+00	0	31	101	1048576	58	6681
2026-01-05 19:36:12.12	12.39	13.94	-41.1	-42.1	22.4	0.00e+00	0	31	101	1048576	60	6238
2026-01-05 19:36:15.15	11.78	14.01	-40.9	-42.0	22.5	0.00e+00	0	31	101	1048576	60	6107
2026-01-05 19:36:18.18	11.18	14.07	-41.3	-42.4	21.9	0.00e+00	0	31	101	1048576	60	6403
2026-01-05 19:36:21.22	10.57	14.14	-41.1	-42.2	22.3	0.00e+00	0	31	101	1048576	60	6295
2026-01-05 19:36:24.25	9.95	14.19	-40.9	-41.9	22.6	0.00e+00	0	31	101	1048576	60	6068
2026-01-05 19:36:27.28	9.34	14.25	-40.6	-41.6	22.8	0.00e+00	0	31	101	1048576	60	5880
2026-01-05 19:36:30.31	8.72	14.30	-40.2	-41.1	23.1	0.00e+00	0	31	101	1048576	60	5531
2026-01-05 19:36:33.35	8.10	14.35	-40.0	-40.9	23.3	0.00e+00	0	31	101	1048576	58	6053
2026-01-05 19:36:36.38	7.48	14.40	-40.6	-41.5	22.8	0.00e+00	0	31	101	1048576	58	6537
2026-01-05 19:36:39.41	6.86	14.44	-40.5	-41.5	23.0	0.00e+00	0	31	101	1048576	58	6483
2026-01-05 19:36:42.45	6.23	14.48	-40.6	-41.6	22.6	0.00e+00	0	31	101	1048576	58	6583
2026-01-05 19:36:45.48	5.61	14.52	-40.4	-41.4	22.9	0.00e+00	0	31	101	1048576	58	6396
2026-01-05 19:36:48.51	4.98	14.55	-40.5	-41.5	22.9	0.00e+00	0	31	101	1048576	58	6501
2026-01-05 19:36:51.55	4.35	14.58	-40.7	-41.7	22.7	0.00e+00	0	31	101	1048576	58	6648
2026-01-05 19:36:54.58	3.72	14.61	-40.6	-41.6	22.7	0.00e+00	0	31	101	1048576	58	6569
2026-01-05 19:36:57.61	3.09	14.63	-40.1	-41.1	23.1	0.00e+00	0	31	101	1048576	58	6206
2026-01-05 19:37:00.65	2.45	14.65	-40.4	-41.4	23.0	0.00e+00	0	31	101	1048576	58	6417
2026-01-05 19:37:03.68	1.82	14.67	-40.5	-41.4	22.9	0.00e+00	0	31	101	1048576	58	6453
2026-01-05 19:37:06.71	1.19	14.68	-40.4	-41.4	23.0	0.00e+00	0	31	101	1048576	58	6421
2026-01-05 19:37:09.75	0.55	14.69	-41.0	-42.1	22.4	0.00e+00	0	31	101	1048576	58	6952
2026-01-05 19:37:12.78	359.92	14.69	-41.0	-42.0	22.5	0.00e+00	0	31	101	1048576	58	6892
2026-01-05 19:37:15.81	359.28	14.70	-40.5	-41.5	22.9	0.00e+00	0	31	101	1048576	58	6518
2026-01-05 19:37:18.85	358.65	14.69	-40.1	-41.1	23.2	0.00e+00	0	31	101	1048576	58	6176
2026-01-05 19:37:21.88	358.01	14.69	-40.5	-41.5	22.8	0.00e+00	0	31	101	1048576	58	6511
2026-01-05 19:37:24.91	357.38	14.68	-40.9	-42.0	22.4	0.00e+00	0	31	101	1048576	58	6885
2026-01-05 19:37:27.95	356.74	14.67	-40.8	-41.8	22.6	0.00e+00	0	31	101	1048576	58	6744
2026-01-05 19:37:30.98	356.11	14.65	-41.0	-42.0	21.8	0.00e+00	0	31	101	1048576	58	6911
2026-01-05 19:37:34.01	355.48	14.63	-41.4	-42.6	21.8	0.00e+00	0	31	101	1048576	60	6545
2026-01-05 19:37:37.05	354.84	14.61	-41.0	-42.1	22.4	0.00e+00	0	31	101	1048576	60	6203
2026-01-05 19:37:40.08	354.21	14.58	-40.4	-41.4	23.0	0.00e+00	0	31	101	1048576	60	5721
2026-01-05 19:37:43.11	353.59	14.56	-40.4	-41.4	22.9	0.00e+00	0	31	101	1048576	60	5711
2026-01-05 19:37:46.15	352.96	14.52	-40.7	-41.7	22.9	0.00e+00	0	31	101	1048576	60	5913
2026-01-05 19:37:49.18	352.33	14.49	-40.9	-41.9	22.6	0.00e+00	0	31	101	1048576	60	6093
2026-01-05 19:37:52.21	351.70	14.45	-40.4	-41.4	23.1	0.00e+00	0	31	101	1048576	60	5696
2026-01-05 19:37:55.25	351.08	14.40	-39.7	-40.6	23.4	0.00e+00	0	31	101	1048576	58	5848
2026-01-05 19:37:58.28	350.46	14.36	-40.0	-41.0	23.1	0.00e+00	0	31	101	1048576	58	6116
2026-01-05 19:38:01.31	349.84	14.31	-40.2	-41.1	23.1	0.00e+00	0	31	101	1048576	58	6232
2026-01-05 19:38:04.35	349.22	14.25	-40.5	-41.5	22.8	0.00e+00	0	31	101	1048576	58	6503
2026-01-05 19:38:07.38	348.61	14.20	-40.7	-41.7	22.7	0.00e+00	0	31	101	1048576	58	6643
2026-01-05 19:38:10.41	348.00	14.14	-40.8	-41.9	22.5	0.00e+00	0	31	101	1048576	58	6796
2026-01-05 19:38:13.45	347.38	14.08	-40.6	-41.6	22.8	0.00e+00	0	31	101	1048576	58	6562
2026-01-05 19:38:16.48	346.78	14.01	-40.0	-40.9	23.3	0.00e+00	0	31	101	1048576	58	6089
2026-01-05 19:38:19.51	346.17	13.94	-40.2	-41.2	23.0	0.00e+00	0	31	101	1048576	58	6288
2026-01-05 19:38:22.55	345.57	13.87	-40.5	-41.5	22.8	0.00e+00	0	31	101	1048576	58	6520
2026-01-05 19:38:25.58	344.97	13.80	-40.1	-41.0	23.2	0.00e+00	0	31	101	1048576	58	6142
2026-01-05 19:38:28.61	344.38	13.72	-40.4	-41.4	22.8	0.00e+00	0	31	101	1048576	58	6433
2026-01-05 19:38:31.64	343.79	13.64	-40.6	-41.7	22.7	0.00e+00	0	31	101	1048576	58	6617
2026-01-05 19:38:34.68	343.20	13.56	-40.8	-41.9	22.5	0.00e+00	0	31	101	1048576	58	6795
2026-01-05 19:38:37.71	342.61	13.47	-40.7	-41.8	22.6	0.00e+00	0	31	101	1048576	58	6694
2026-01-05 19:38:40.75	342.03	13.38	-40.9	-41.9	22.5	0.00e+00	0	31	101	1048576	58	6821
2026-01-05 19:38:43.78	341.45	13.29	-40.8	-41.8	22.5	0.00e+00	0	31	101	1048576	58	6746
2026-01-05 19:38:46.81	340.87	13.20	-40.6	-41.6	22.7	0.00e+00	0	31	101	1048576	58	6610
2026-01-05 19:38:49.85	340.30	13.10	-40.6	-41.6	22.7	0.00e+00	0	31	101	1048576	58	6609
2026-01-05 19:38:52.88	339.73	13.01	-40.7	-41.7	22.6	0.00e+00	0	31	101	1048576	58	6658
2026-01-05 19:38:55.92	339.17	12.91	-40.3	-41.2	23.0	0.00e+00	0	31	101	1048576	58	6295
2026-01-05 19:38:58.95	338.61	12.80	-39.8	-40.7	23.3	0.00e+00	0	31	101	1048576	58	5957
2026-01-05 19:39:01.98	338.05	12.70	-40.1	-41.0	23.0	0.00e+00	0	31	101	1048576	58	6144
2026-01-05 19:39:05.02	337.50	12.59	-40.2	-41.1	22.8	0.00e+00	0	31	101	1048576	58	6237
2026-01-05 19:39:08.05	336.95	12.48	-40.5	-41.5	22.8	0.00e+00	0	31	101	1048576	58	6527
2026-01-05 19:39:11.09	336.41	12.37	-40.7	-41.7	22.5	0.00e+00	0	31	101	1048576	58	6692
2026-01-05 19:39:14.12	335.87	12.26	-41.1	-42.2	22.2	0.00e+00	0	31	101	1048576	60	6283
2026-01-05 19:39:17.15	335.34	12.14	-40.9	-41.9	22.3	0.00e+00	0	31	101	1048576	60	6097
2026-01-05 19:39:20.19	334.80	12.02	-41.2	-42.3	22.4	0.00e+00	0	31	101	1048576	60	6353
2026-01-05 19:39:23.22	334.28	11.91	-41.2	-42.3	22.1	0.00e+00	0	31	101	1048576	60	6326
2026-01-05 19:39:26.25	333.76	11.79	-41.4	-42.5	22.0	0.00e+00	0	31	101	1048576	60	6507
2026-01-05 19:39:29.29	333.24	11.66	-41.6	-42.7	21.8	0.00e+00	0	31	101	1048576	60	6678
2026-01-05 19:39:32.32	332.72	11.54	-41.7	-42.8	21.6	0.00e+00	0	31	101	1048576	60	6756
2026-01-05 19:39:35.35	332.22	11.41	-41.9	-42.9	21.7	0.00e+00	0	31	101	1048576	60	6842
2026-01-05 19:39:38.39	331.71	11.29	-41.4	-42.5	22.1	0.00e+00	0	31	101	1048576	60	6467
2026-01-05 19:39:41.42	331.21	11.16	-41.1	-42.1	22.3	0.00e+00	0	31	101	1048576	60	6212
2026-01-05 19:39:44.45	330.72	11.03	-42.0	-43.2	21.4	0.00e+00	0	31	101	1048576	60	7016
2026-01-05 19:39:47.49	330.22	10.90	-43.2	-44.5	20.2	0.00e+00	0	31	101	1048576	60	8205
2026-01-05 19:39:50.52	329.74	10.76	-42.9	-44.2	20.5	0.00e+00	0	31	101	1048576	60	7880
2026-01-05 19:39:53.55	329.26	10.63	-42.0	-43.1	21.4	0.00e+00	0	31	101	1048576	60	6990
2026-01-05 19:39:56.59	328.78	10.49	-42.2	-43.4	21.3	0.00e+00	0	32	101	1048576	60	7187
2026-01-05 19:39:59.62	328.30	10.36	-43.6	-45.1	19.8	0.00e+00	0	31	101	1048576	60	8798
2026-01-05 19:40:02.65	327.84	10.22	-44.5	-46.2	18.5	0.00e+00	0	31	101	1048576	60	9918
2026-01-05 19:40:05.69	327.37	10.08	-44.4	-46.1	18.7	0.00e+00	0	31	101	1048576	60	9796
2026-01-05 19:40:08.72	326.91	9.94	-43.7	-45.2	19.5	0.00e+00	0	31	101	1048576	60	8906
2026-01-05 19:40:11.75	326.46	9.80	-43.7	-45.1	19.5	0.00e+00	0	31	101	1048576	60	8773
2026-01-05 19:40:14.79	326.01	9.66	-43.4	-44.8	20.0	0.00e+00	0	31	101	1048576	60	8437
2026-01-05 19:40:17.82	325.56	9.52	-43.2	-44.5	20.2	0.00e+00	0	31	101	1048576	60	8203
2026-01-05 19:40:20.85	325.12	9.37	-42.8	-44.1	20.6	0.00e+00	0	32	101	1048576	60	7822
2026-01-05 19:40:23.88	324.68	9.23	-42.8	-44.1	20.3	0.00e+00	0	31	101	1048576	60	7837
2026-01-05 19:40:26.92	324.25	9.08	-42.5	-43.7	21.0	0.00e+00	0	31	101	1048576	60	7503
2026-01-05 19:40:29.95	323.82	8.94	-42.3	-43.5	21.1	0.00e+00	0	31	101	1048576	60	7290
2026-01-05 19:40:32.98	323.39	8.79	-42.0	-43.2	21.4	0.00e+00	0	31	101	1048576	60	7057
2026-01-05 19:40:36.02	322.97	8.65	-42.0	-43.2	21.3	0.00e+00	0	32	101	1048576	60	7010
2026-01-05 19:40:39.05	322.56	8.50	-42.2	-43.4	21.2	0.00e+00	0	32	101	1048576	60	7206
2026-01-05 19:40:42.09	322.15	8.35	-42.5	-43.8	20.8	0.00e+00	0	31	101	1048576	60	7544
2026-01-05 19:40:45.12	321.74	8.20	-42.6	-43.8	20.7	0.00e+00	0	32	101	1048576	60	7594
2026-01-05 19:40:48.15	321.34	8.05	-42.5	-43.8	20.8	0.00e+00	0	31	101	1048576	60	7520
2026-01-05 19:40:51.19	320.94	7.90	-42.5	-43.8	20.8	0.00e+00	0	31	101	1048576	60	7538
2026-01-05 19:40:54.22	320.54	7.75	-42.5	-43.8	20.8	0.00e+00	0	31	101	1048576	60	7516
2026-01-05 19:40:57.25	320.15	7.60	-42.2	-43.4	21.1	0.00e+00	0	31	101	1048576	60	7227
2026-01-05 19:41:00.29	319.77	7.45	-41.4	-42.5	21.9	0.00e+00	0	31	101	1048576	60	6469
2026-01-05 19:41:03.32	319.38	7.30	-41.2	-42.2	22.0	0.00e+00	0	31	101	1048576	60	6305
2026-01-05 19:41:06.36	319.00	7.15	-41.3	-42.4	21.9	0.00e+00	0	31	101	1048576	60	6444
2026-01-05 19:41:09.39	318.63	7.00	-41.5	-42.7	21.8	0.00e+00	0	31	101	1048576	60	6623
2026-01-05 19:41:12.42	318.26	6.85	-41.5	-42.7	21.6	0.00e+00	0	31	101	1048576	60	6627
2026-01-05 19:41:15.46	317.89	6.69	-41.2	-42.3	21.9	0.00e+00	0	31	101	1048576	60	6356
2026-01-05 19:41:18.49	317.53	6.54	-41.2	-42.3	21.9	0.00e+00	0	31	101	1048576	60	6327
2026-01-05 19:41:21.52	317.17	6.39	-41.5	-42.6	21.6	0.00e+00	0	31	101	1048576	60	6564
2026-01-05 19:41:24.56	316.82	6.24	-41.6	-42.7	21.5	0.00e+00	0	31	101	1048576	60	6678
2026-01-05 19:41:27.59	316.47	6.08	-42.0	-43.2	21.2	0.00e+00	0	31	101	1048576	60	7048
2026-01-05 19:41:30.62	316.12	5.93	-42.1	-43.3	21.0	0.00e+00	0	31	101	1048576	60	7167
2026-01-05 19:41:33.66	315.78	5.78	-42.1	-43.4	20.9	0.00e+00	0	31	101	1048576	60	7184
2026-01-05 19:41:36.69	315.44	5.63	-42.2	-43.4	20.7	0.00e+00	0	31	101	1048576	60	7238
2026-01-05 19:41:39.72	315.10	5.47	-42.2	-43.4	20.8	0.00e+00	0	31	101	1048576	60	7241
2026-01-05 19:41:42.75	314.77	5.32	-42.2	-43.5	20.8	0.00e+00	0	31	101	1048576	60	7306
2026-01-05 19:41:45.79	314.44	5.17	-41.9	-43.1	20.5	0.00e+00	0	31	101	1048576	60	6981
2026-01-05 19:41:48.82	314.12	5.01	-41.8	-42.9	21.1	0.00e+00	0	31	101	1048576	60	6845
2026-01-05 19:41:51.86	313.79	4.86	-42.2	-43.5	20.6	0.00e+00	0	32	101	1048576	60	7293
2026-01-05 19:41:54.89	313.47	4.71	-41.8	-43.0	21.1	7.00e-07	0	31	101	1048576	60	6874
2026-01-05 19:41:57.92	313.16	4.55	-42.4	-43.7	20.5	0.00e+00	0	31	101	1048576	60	7457
2026-01-05 19:42:00.96	312.85	4.40	-43.0	-44.4	19.9	0.00e+00	0	31	101	1048576	60	8071
2026-01-05 19:42:03.99	312.54	4.25	-43.1	-44.6	19.5	0.00e+00	0	31	101	1048576	60	8300
2026-01-05 19:42:07.03	312.23	4.10	-42.2	-43.5	20.6	0.00e+00	0	31	101	1048576	60	7310
2026-01-05 19:42:10.06	311.93	3.94	-42.0	-43.2	20.8	0.00e+00	0	32	101	1048576	60	7085
2026-01-05 19:42:13.09	311.63	3.79	-42.0	-43.3	20.7	0.00e+00	0	31	101	1048576	60	7122
2026-01-05 19:42:16.13	311.34	3.64	-41.8	-43.0	21.0	0.00e+00	0	31	101	1048576	60	6876
2026-01-05 19:42:19.16	311.05	3.49	-42.1	-43.4	20.4	0.00e+00	0	32	101	1048576	60	7193
2026-01-05 19:42:22.20	310.76	3.33	-42.5	-43.8	20.1	0.00e+00	0	31	101	1048576	60	7572
2026-01-05 19:42:25.23	310.47	3.18	-43.1	-44.6	19.4	0.00e+00	0	31	101	1048576	60	8307
2026-01-05 19:42:28.26	310.19	3.03	-50.5	-65.8	3.6	1.51e+00	0	32	104	1048576	60	95131
2026-01-05 19:42:31.29	309.91	2.88	-51.2	-66.5	3.6	1.51e+00	0	32	104	1048576	60	103087
2026-01-05 19:42:34.32	309.63	2.73	-51.3	-66.7	3.6	1.51e+00	0	32	104	1048576	60	105265
2026-01-05 19:42:37.36	309.36	2.58	-51.3	-66.6	3.6	1.51e+00	0	32	104	1048576	60	104302
2026-01-05 19:42:40.39	309.09	2.43	-51.2	-66.5	3.6	1.51e+00	0	32	104	1048576	60	102794
2026-01-05 19:42:43.42	308.82	2.27	-51.1	-66.4	3.6	1.51e+00	0	32	104	1048576	60	102243
2026-01-05 19:42:46.46	308.55	2.12	-51.2	-66.5	3.6	1.51e+00	0	32	104	1048576	60	102928
2026-01-05 19:42:49.49	308.29	1.97	-51.2	-66.5	3.6	1.51e+00	0	32	104	1048576	60	102769
2026-01-05 19:42:52.52	308.03	1.82	-51.2	-66.5	3.6	1.51e+00	0	32	104	1048576	60	102800
2026-01-05 19:42:55.56	307.77	1.67	-51.2	-66.4	3.6	1.51e+00	0	32	104	1048576	60	102432
2026-01-05 19:42:58.59	307.52	1.52	-51.1	-66.5	3.6	1.51e+00	0	32	104	1048576	60	102564
2026-01-05 19:43:01.63	307.27	1.37	-51.2	-66.5	3.6	1.51e+00	0	32	104	1048576	60	102734
2026-01-05 19:43:04.66	307.02	1.23	-51.2	-66.5	3.6	1.51e+00	0	32	104	1048576	60	102628
2026-01-05 19:43:07.70	306.77	1.08	-51.2	-66.5	3.6	1.51e+00	0	32	104	1048576	60	102780
2026-01-05 19:43:10.73	306.53	0.93	-51.2	-66.5	3.6	1.51e+00	0	32	104	1048576	60	102717
2026-01-05 19:43:13.76	306.29	0.78	-51.1	-66.5	3.6	1.51e+00	0	32	104	1048576	60	102963
2026-01-05 19:43:16.80	306.05	0.63	-51.2	-66.5	3.6	1.51e+00	0	32	104	1048576	60	102541
2026-01-05 19:43:19.83	305.81	0.48	-51.2	-66.4	3.6	1.51e+00	0	32	104	1048576	60	102444
2026-01-05 19:43:22.86	305.58	0.34	-51.2	-66.5	3.6	1.51e+00	0	32	104	1048576	60	103062
2026-01-05 19:43:25.90	305.34	0.19	-51.1	-66.5	3.6	1.51e+00	0	32	104	1048576	60	102769
2026-01-05 19:43:28.93	305.11	0.04	-51.1	-66.5	3.6	1.51e+00	0	32	104	1048576	60	102641

#Closed at: 2026-01-05 19:43:31
#Recorded file [1 MB]: D:/lorett/data/35034_260105_223102.dat