passes_logs/2026/01/05/R4.6S_Anadyr_2ch/R4.6S_Anadyr_2ch__20260105_230755_NOAA_20_JPSS-1_rec.log

#Pass ID: 20260105_230755_NOAA 20 (JPSS-1)
#Satellite: NOAA 20 (JPSS-1)
#Configuration: NOAA 20
#almurnet v.1.7.20251203
#Start time: 2026-01-05 23:07:57

#Version: 2.2.20231116
#Station: R4.6S_Anadyr_2ch
#Location: 177.4865 lon 64.73178 lat
#TLE: 1 43013U 17073A   25350.93759711  .00000080  00000+0  58734-4 0  9994
#TLE: 2 43013  98.7603 287.1885 0002156  81.1496 278.9924 14.19526878418610

#Time	Az	El	Level	Level2	SNR	BER	BlckErr	Temp	State	Recorded	gain1	gain2
2026-01-05 23:07:57.39	129.67	0.12	-51.2	-66.3	3.5	1.51e+00	0	29	0	0	60	101015
2026-01-05 23:08:01.43	129.57	0.36	-51.4	-66.7	3.6	1.51e+00	0	30	104	0	60	105516
2026-01-05 23:08:05.47	129.46	0.60	-51.2	-66.6	3.6	1.51e+00	0	30	104	0	60	104536
2026-01-05 23:08:09.52	129.35	0.84	-50.9	-66.2	3.6	1.51e+00	0	30	104	0	60	100012
2026-01-05 23:08:13.56	129.24	1.09	-49.9	-65.2	3.6	1.51e+00	0	30	104	0	60	88608
2026-01-05 23:08:17.60	129.12	1.33	-49.9	-65.2	3.6	1.51e+00	0	31	104	0	60	88290
2026-01-05 23:08:21.64	129.01	1.58	-49.9	-65.1	3.6	1.51e+00	0	31	104	0	60	88086
2026-01-05 23:08:25.69	128.89	1.83	-49.9	-65.3	3.6	1.51e+00	0	31	104	0	60	89354
2026-01-05 23:08:29.73	128.77	2.09	-49.9	-64.9	3.6	1.51e+00	0	31	104	0	60	86011
2026-01-05 23:08:33.77	128.65	2.34	-49.8	-65.1	3.6	1.51e+00	0	31	104	0	60	87717
2026-01-05 23:08:37.82	128.52	2.60	-49.9	-65.2	3.6	1.51e+00	0	31	104	0	60	88340
2026-01-05 23:08:41.86	128.39	2.86	-49.8	-64.6	3.5	1.51e+00	0	31	104	0	60	82478
2026-01-05 23:08:45.91	128.26	3.12	-49.8	-65.0	3.6	1.51e+00	0	31	104	0	60	87109
2026-01-05 23:08:49.95	128.13	3.39	-49.1	-56.1	7.1	2.93e-01	90	31	102	1048576	60	31025
2026-01-05 23:08:54.00	127.99	3.65	-47.2	-50.8	13.3	1.22e-05	89	31	102	1048576	60	16817
2026-01-05 23:08:58.04	127.85	3.92	-42.6	-43.9	20.5	1.69e-02	91	31	0	1048576	60	7661
2026-01-05 23:09:02.08	127.71	4.19	-42.8	-44.2	20.1	0.00e+00	0	31	0	1048576	60	7931
2026-01-05 23:09:06.13	127.57	4.47	-42.8	-44.1	20.3	0.00e+00	92	31	0	1048576	60	7862
2026-01-05 23:09:10.17	127.42	4.74	-42.9	-44.3	20.1	0.00e+00	92	31	0	1048576	60	7991
2026-01-05 23:09:14.22	127.27	5.03	-42.4	-43.7	20.7	0.00e+00	92	31	0	1048576	60	7480
2026-01-05 23:09:18.26	127.12	5.31	-42.5	-43.8	20.8	0.00e+00	0	31	0	1048576	60	7538
2026-01-05 23:09:22.30	126.96	5.59	-42.4	-43.7	20.8	0.00e+00	92	31	101	1048576	60	7451
2026-01-05 23:09:26.34	126.80	5.88	-42.7	-44.1	20.5	0.00e+00	92	31	101	1048576	60	7775
2026-01-05 23:09:30.39	126.64	6.17	-42.5	-43.8	20.8	0.00e+00	2	31	101	1048576	60	7556
2026-01-05 23:09:34.43	126.47	6.47	-42.4	-43.6	20.9	0.00e+00	70	31	101	1048576	60	7394
2026-01-05 23:09:38.48	126.30	6.76	-42.3	-43.5	21.2	0.00e+00	91	31	101	1048576	60	7295
2026-01-05 23:09:42.52	126.13	7.07	-42.4	-43.6	21.0	0.00e+00	92	31	101	1048576	60	7416
2026-01-05 23:09:46.57	125.95	7.37	-42.3	-43.5	21.2	0.00e+00	19	31	101	1048576	60	7320
2026-01-05 23:09:50.61	125.77	7.68	-42.0	-43.1	21.6	0.00e+00	92	31	101	1048576	60	7006
2026-01-05 23:09:54.66	125.58	7.99	-42.1	-43.3	21.4	0.00e+00	91	31	101	1048576	60	7119
2026-01-05 23:09:58.70	125.39	8.30	-42.1	-43.3	21.4	0.00e+00	92	31	101	1048576	60	7158
2026-01-05 23:10:02.75	125.20	8.62	-41.7	-42.8	21.9	0.00e+00	23	31	101	1048576	60	6749
2026-01-05 23:10:06.79	125.00	8.94	-41.7	-42.8	22.0	0.00e+00	92	31	101	1048576	60	6717
2026-01-05 23:10:10.83	124.79	9.27	-41.7	-42.8	22.0	0.00e+00	92	31	101	1048576	60	6719
2026-01-05 23:10:14.88	124.58	9.60	-41.3	-42.4	22.4	0.00e+00	90	31	101	1048576	60	6426
2026-01-05 23:10:18.92	124.37	9.93	-41.3	-42.3	22.5	0.00e+00	8	31	101	1048576	60	6384
2026-01-05 23:10:22.96	124.15	10.27	-41.3	-42.3	22.5	0.00e+00	90	31	101	1048576	60	6372
2026-01-05 23:10:27.01	123.92	10.61	-41.1	-42.1	22.7	0.00e+00	91	31	101	1048576	60	6223
2026-01-05 23:10:31.05	123.69	10.96	-40.8	-41.8	23.0	0.00e+00	91	31	101	1048576	60	5988
2026-01-05 23:10:35.10	123.46	11.31	-41.0	-42.0	23.0	0.00e+00	0	31	101	1048576	60	6106
2026-01-05 23:10:39.14	123.21	11.66	-40.6	-41.6	23.2	0.00e+00	92	31	101	1048576	60	5841
2026-01-05 23:10:43.19	122.96	12.02	-40.7	-41.7	23.2	0.00e+00	92	31	101	1048576	60	5900
2026-01-05 23:10:47.23	122.71	12.39	-40.6	-41.6	23.2	0.00e+00	91	31	101	1048576	60	5866
2026-01-05 23:10:51.27	122.45	12.76	-40.5	-41.5	23.3	0.00e+00	0	31	101	1048576	60	5769
2026-01-05 23:10:55.32	122.18	13.13	-40.5	-41.4	23.4	0.00e+00	91	31	101	1048576	60	5761
2026-01-05 23:10:59.36	121.90	13.51	-40.7	-41.7	23.3	0.00e+00	92	31	101	1048576	60	5928
2026-01-05 23:11:03.41	121.62	13.90	-40.5	-41.5	23.5	0.00e+00	92	31	101	1048576	60	5781
2026-01-05 23:11:07.45	121.33	14.29	-40.5	-41.4	23.4	0.00e+00	92	31	101	1048576	60	5735
2026-01-05 23:11:11.49	121.03	14.69	-40.6	-41.5	23.4	0.00e+00	92	31	101	1048576	60	5796
2026-01-05 23:11:15.54	120.72	15.09	-40.5	-41.5	23.4	0.00e+00	90	31	101	1048576	60	5767
2026-01-05 23:11:19.58	120.40	15.50	-40.7	-41.6	23.3	0.00e+00	90	31	101	1048576	60	5884
2026-01-05 23:11:23.63	120.07	15.91	-40.4	-41.3	23.5	0.00e+00	91	31	101	1048576	60	5671
2026-01-05 23:11:27.67	119.74	16.33	-40.4	-41.3	23.6	0.00e+00	92	31	101	1048576	60	5655
2026-01-05 23:11:31.71	119.39	16.76	-40.6	-41.6	23.4	0.00e+00	92	31	101	1048576	60	5848
2026-01-05 23:11:35.76	119.04	17.19	-40.7	-41.6	23.4	0.00e+00	62	31	101	1048576	60	5867
2026-01-05 23:11:39.80	118.67	17.63	-40.9	-41.9	23.1	0.00e+00	92	31	101	1048576	60	6052
2026-01-05 23:11:43.84	118.29	18.07	-40.9	-41.9	23.1	0.00e+00	92	31	101	1048576	60	6086
2026-01-05 23:11:47.89	117.90	18.53	-40.9	-41.9	23.2	0.00e+00	92	31	101	1048576	60	6055
2026-01-05 23:11:51.93	117.50	18.99	-41.0	-42.0	23.0	0.00e+00	0	31	101	1048576	60	6145
2026-01-05 23:11:55.98	117.09	19.45	-40.9	-41.9	23.2	0.00e+00	92	31	101	1048576	60	6037
2026-01-05 23:12:00.02	116.66	19.93	-41.0	-42.0	23.0	0.00e+00	92	31	101	1048576	60	6151
2026-01-05 23:12:04.07	116.22	20.41	-40.9	-41.9	23.2	0.00e+00	0	31	101	1048576	60	6086
2026-01-05 23:12:08.11	115.76	20.90	-41.1	-42.1	23.0	0.00e+00	75	31	101	1048576	60	6202
2026-01-05 23:12:12.15	115.29	21.40	-40.9	-41.9	23.2	0.00e+00	91	31	101	1048576	60	6079
2026-01-05 23:12:16.20	114.80	21.90	-41.0	-41.9	23.1	0.00e+00	91	31	101	1048576	60	6094
2026-01-05 23:12:20.24	114.30	22.41	-40.9	-41.9	23.2	0.00e+00	7	31	101	1048576	60	6054
2026-01-05 23:12:24.28	113.78	22.93	-40.9	-41.9	23.2	0.00e+00	90	31	101	1048576	60	6068
2026-01-05 23:12:28.33	113.24	23.46	-41.1	-42.1	23.0	0.00e+00	90	31	101	1048576	60	6231
2026-01-05 23:12:32.37	112.68	24.00	-41.0	-42.0	23.1	0.00e+00	92	31	101	1048576	60	6148
2026-01-05 23:12:36.41	112.10	24.54	-41.0	-41.9	22.9	0.00e+00	6	31	101	1048576	60	6099
2026-01-05 23:12:40.46	111.50	25.09	-41.0	-42.0	23.1	0.00e+00	92	31	101	1048576	60	6134
2026-01-05 23:12:44.50	110.88	25.65	-41.1	-42.1	23.0	0.00e+00	92	31	101	1048576	60	6195
2026-01-05 23:12:48.55	110.24	26.22	-41.0	-41.9	23.3	0.00e+00	91	31	101	1048576	60	6091
2026-01-05 23:12:52.59	109.57	26.80	-40.8	-41.8	23.4	0.00e+00	26	31	101	1048576	60	6000
2026-01-05 23:12:56.64	108.88	27.38	-41.0	-42.0	23.2	0.00e+00	92	31	101	1048576	60	6125
2026-01-05 23:13:00.68	108.16	27.97	-40.9	-41.8	23.3	0.00e+00	92	31	101	1048576	60	6028
2026-01-05 23:13:04.73	107.41	28.57	-41.2	-42.2	23.1	0.00e+00	92	31	101	1048576	60	6291
2026-01-05 23:13:08.77	106.64	29.18	-41.7	-42.8	22.4	0.00e+00	0	31	101	1048576	60	6695
2026-01-05 23:13:12.81	105.83	29.79	-42.8	-44.0	21.3	0.00e+00	92	31	101	1048576	60	7721
2026-01-05 23:13:16.86	104.99	30.41	-43.4	-44.7	20.7	0.00e+00	92	31	101	1048576	60	8377
2026-01-05 23:13:20.90	104.12	31.04	-43.7	-45.1	20.4	0.00e+00	71	31	101	1048576	60	8763
2026-01-05 23:13:24.94	103.22	31.67	-43.8	-45.2	20.3	0.00e+00	14	31	101	1048576	60	8890
2026-01-05 23:13:28.99	102.27	32.31	-43.5	-44.8	20.7	0.00e+00	91	31	101	1048576	60	8498
2026-01-05 23:13:33.03	101.29	32.95	-43.5	-44.9	20.6	0.00e+00	92	31	101	1048576	60	8529
2026-01-05 23:13:37.08	100.27	33.60	-43.8	-45.2	20.4	0.00e+00	2	31	101	1048576	60	8838
2026-01-05 23:13:41.12	99.21	34.25	-43.4	-44.6	20.9	0.00e+00	91	31	101	1048576	60	8313
2026-01-05 23:13:45.16	98.10	34.90	-42.8	-44.0	21.4	0.00e+00	91	31	101	1048576	60	7736
2026-01-05 23:13:49.21	96.95	35.55	-42.3	-43.4	22.1	0.00e+00	92	31	101	1048576	60	7198
2026-01-05 23:13:53.25	95.75	36.20	-42.1	-43.2	22.2	0.00e+00	8	31	101	1048576	60	7015
2026-01-05 23:13:57.30	94.50	36.85	-42.1	-43.2	22.2	0.00e+00	92	31	101	1048576	60	7013
2026-01-05 23:14:01.34	93.21	37.49	-41.9	-42.9	22.4	0.00e+00	92	31	101	1048576	60	6843
2026-01-05 23:14:05.39	91.85	38.13	-42.4	-43.6	21.8	0.00e+00	92	31	101	1048576	60	7339
2026-01-05 23:14:09.43	90.45	38.76	-42.6	-43.7	21.8	0.00e+00	7	31	101	1048576	60	7452
2026-01-05 23:14:13.47	88.99	39.39	-42.9	-44.1	21.3	0.00e+00	92	31	101	1048576	60	7829
2026-01-05 23:14:17.52	87.47	40.00	-42.6	-43.8	21.6	0.00e+00	90	31	101	1048576	60	7562
2026-01-05 23:14:21.56	85.90	40.60	-41.8	-42.9	22.6	0.00e+00	52	31	101	1048576	60	6811
2026-01-05 23:14:25.61	84.26	41.18	-40.6	-41.5	23.6	0.00e+00	0	31	101	1048576	60	5825
2026-01-05 23:14:29.65	82.57	41.75	-40.0	-40.9	24.2	0.00e+00	91	31	101	1048576	58	6064
2026-01-05 23:14:33.69	80.82	42.29	-40.0	-40.9	24.2	0.00e+00	91	31	101	1048576	58	6040
2026-01-05 23:14:37.74	79.00	42.81	-39.7	-40.6	24.4	0.00e+00	30	31	101	1048576	58	5832
2026-01-05 23:14:41.78	77.14	43.31	-40.6	-41.5	23.6	0.00e+00	35	31	101	1048576	58	6523
2026-01-05 23:14:45.82	75.21	43.77	-41.4	-42.4	22.9	0.00e+00	92	31	101	1048576	60	6429
2026-01-05 23:14:49.87	73.23	44.20	-41.3	-42.3	23.0	0.00e+00	91	31	101	1048576	60	6321
2026-01-05 23:14:53.91	71.19	44.60	-41.0	-42.0	23.3	0.00e+00	0	32	101	1048576	60	6126
2026-01-05 23:14:57.96	69.11	44.96	-41.1	-42.1	23.1	0.00e+00	92	31	101	1048576	60	6208
2026-01-05 23:15:02.00	66.98	45.28	-41.8	-42.9	22.4	0.00e+00	92	31	101	1048576	60	6807
2026-01-05 23:15:06.05	64.81	45.56	-42.1	-43.2	22.2	0.00e+00	92	31	101	1048576	60	7064
2026-01-05 23:15:10.09	62.61	45.79	-41.7	-42.8	22.5	0.00e+00	0	31	101	1048576	60	6712
2026-01-05 23:15:14.14	60.37	45.97	-43.1	-44.4	21.1	0.00e+00	90	31	101	1048576	60	8060
2026-01-05 23:15:18.18	58.12	46.11	-42.3	-43.4	22.1	0.00e+00	92	31	101	1048576	60	7236
2026-01-05 23:15:22.23	55.84	46.20	-42.6	-43.7	21.8	0.00e+00	0	31	101	1048576	60	7496
2026-01-05 23:15:26.27	53.56	46.24	-42.1	-43.2	22.2	0.00e+00	0	31	101	1048576	60	7045
2026-01-05 23:15:30.31	51.28	46.22	-42.5	-43.6	21.8	0.00e+00	90	31	101	1048576	60	7411
2026-01-05 23:15:34.36	49.00	46.16	-42.4	-43.6	21.9	0.00e+00	92	31	101	1048576	60	7357
2026-01-05 23:15:38.40	46.74	46.05	-42.7	-43.8	21.5	0.00e+00	0	31	101	1048576	60	7578
2026-01-05 23:15:42.44	44.50	45.89	-43.3	-44.5	21.0	0.00e+00	76	31	101	1048576	60	8208
2026-01-05 23:15:46.49	42.28	45.68	-43.4	-44.7	20.9	0.00e+00	92	31	101	1048576	60	8331
2026-01-05 23:15:50.53	40.09	45.43	-42.8	-44.0	21.4	0.00e+00	46	31	101	1048576	60	7736
2026-01-05 23:15:54.58	37.94	45.13	-42.6	-43.8	21.6	0.00e+00	53	31	101	1048576	60	7517
2026-01-05 23:15:58.62	35.84	44.80	-41.7	-42.8	22.6	0.00e+00	92	31	101	1048576	60	6700
2026-01-05 23:16:02.66	33.78	44.42	-41.1	-42.0	23.4	0.00e+00	92	31	101	1048576	60	6142
2026-01-05 23:16:06.71	31.77	44.01	-40.4	-41.3	23.8	0.00e+00	0	31	101	1048576	60	5682
2026-01-05 23:16:10.75	29.82	43.56	-40.0	-40.9	24.2	0.00e+00	35	31	101	1048576	58	6035
2026-01-05 23:16:14.79	27.93	43.08	-38.8	-39.5	25.4	0.00e+00	92	31	101	1048576	56	5814
2026-01-05 23:16:18.84	26.08	42.58	-38.9	-39.7	25.3	0.00e+00	90	31	101	1048576	56	5946
2026-01-05 23:16:22.88	24.30	42.05	-38.7	-39.5	25.4	0.00e+00	0	31	101	1048576	56	5785
2026-01-05 23:16:26.93	22.58	41.50	-38.8	-39.6	25.4	0.00e+00	0	31	101	1048576	56	5875
2026-01-05 23:16:30.97	20.92	40.92	-38.5	-39.3	25.5	0.00e+00	92	31	101	1048576	56	5655
2026-01-05 23:16:35.01	19.32	40.34	-39.3	-40.1	24.9	0.00e+00	83	31	101	1048576	56	6198
2026-01-05 23:16:39.06	17.77	39.73	-39.4	-40.2	24.7	0.00e+00	0	31	101	1048576	56	6287
2026-01-05 23:16:43.10	16.29	39.12	-39.7	-40.6	24.5	0.00e+00	0	31	101	1048576	56	6567
2026-01-05 23:16:47.15	14.86	38.49	-39.9	-40.8	24.4	0.00e+00	92	31	101	1048576	56	6707
2026-01-05 23:16:51.19	13.48	37.86	-40.2	-41.0	24.1	0.00e+00	2	31	101	1048576	56	6909
2026-01-05 23:16:55.24	12.16	37.21	-40.7	-41.7	23.6	0.00e+00	48	31	101	1048576	58	6617
2026-01-05 23:16:59.28	10.89	36.57	-41.3	-42.3	23.0	0.00e+00	0	31	101	1048576	60	6375
2026-01-05 23:17:03.32	9.67	35.92	-41.9	-43.0	22.4	0.00e+00	34	31	101	1048576	60	6865
2026-01-05 23:17:07.37	8.49	35.28	-42.5	-43.6	21.8	0.00e+00	0	31	101	1048576	60	7385
2026-01-05 23:17:11.41	7.37	34.63	-43.6	-44.9	20.6	0.00e+00	48	31	101	1048576	60	8579
2026-01-05 23:17:15.45	6.29	33.98	-44.3	-45.8	19.7	0.00e+00	92	32	101	1048576	60	9555
2026-01-05 23:17:19.50	5.25	33.34	-44.1	-45.5	20.1	0.00e+00	54	31	101	1048576	60	9196
2026-01-05 23:17:23.54	4.25	32.70	-43.9	-45.3	20.3	0.00e+00	32	31	101	1048576	60	8985
2026-01-05 23:17:27.58	3.29	32.06	-43.4	-44.8	20.7	0.00e+00	31	31	101	1048576	60	8436
2026-01-05 23:17:31.63	2.37	31.43	-42.5	-43.7	21.7	0.00e+00	92	31	101	1048576	60	7438
2026-01-05 23:17:35.67	1.48	30.80	-42.6	-43.7	21.6	0.00e+00	0	31	101	1048576	60	7506
2026-01-05 23:17:39.72	0.63	30.18	-42.7	-43.8	21.6	0.00e+00	0	31	101	1048576	60	7581
2026-01-05 23:17:43.76	359.81	29.56	-42.4	-43.6	21.8	0.00e+00	49	31	101	1048576	60	7346
2026-01-05 23:17:47.80	359.02	28.95	-42.5	-43.7	21.6	0.00e+00	91	31	101	1048576	60	7463
2026-01-05 23:17:51.85	358.26	28.35	-42.0	-43.1	22.2	0.00e+00	50	31	101	1048576	60	6932
2026-01-05 23:17:55.89	357.53	27.76	-42.3	-43.5	21.8	0.00e+00	0	31	101	1048576	60	7259
2026-01-05 23:17:59.93	356.82	27.17	-42.3	-43.4	22.0	0.00e+00	0	31	101	1048576	60	7195
2026-01-05 23:18:03.98	356.15	26.60	-41.9	-43.0	22.4	0.00e+00	92	31	101	1048576	60	6856
2026-01-05 23:18:08.02	355.49	26.03	-41.8	-42.9	22.4	0.00e+00	2	31	101	1048576	60	6821
2026-01-05 23:18:12.07	354.86	25.46	-41.7	-42.8	22.5	0.00e+00	0	32	101	1048576	60	6743
2026-01-05 23:18:16.11	354.25	24.91	-42.0	-43.1	22.1	0.00e+00	55	31	101	1048576	60	6994
2026-01-05 23:18:20.15	353.67	24.36	-41.5	-42.5	22.8	0.00e+00	73	31	101	1048576	60	6491
2026-01-05 23:18:24.20	353.10	23.82	-41.2	-42.2	23.0	0.00e+00	32	31	101	1048576	60	6251
2026-01-05 23:18:28.24	352.55	23.29	-41.2	-42.2	23.0	0.00e+00	50	31	101	1048576	60	6272
2026-01-05 23:18:32.29	352.02	22.77	-41.2	-42.2	22.9	0.00e+00	90	31	101	1048576	60	6254
2026-01-05 23:18:36.33	351.51	22.26	-41.2	-42.2	22.9	0.00e+00	29	31	101	1048576	60	6311
2026-01-05 23:18:40.37	351.02	21.75	-41.3	-42.3	22.9	0.00e+00	52	31	101	1048576	60	6351
2026-01-05 23:18:44.42	350.54	21.25	-41.4	-42.4	22.8	0.00e+00	51	31	101	1048576	60	6404
2026-01-05 23:18:48.46	350.08	20.76	-41.4	-42.4	22.9	0.00e+00	92	31	101	1048576	60	6403
2026-01-05 23:18:52.51	349.64	20.28	-41.3	-42.3	22.9	0.00e+00	29	31	101	1048576	60	6349
2026-01-05 23:18:56.55	349.20	19.80	-41.5	-42.5	22.7	0.00e+00	0	31	101	1048576	60	6495
2026-01-05 23:19:00.59	348.78	19.33	-41.4	-42.4	22.8	0.00e+00	29	31	101	1048576	60	6424
2026-01-05 23:19:04.64	348.38	18.87	-41.3	-42.4	22.8	0.00e+00	90	31	101	1048576	60	6399
2026-01-05 23:19:08.68	347.98	18.41	-41.4	-42.5	22.7	0.00e+00	7	31	101	1048576	60	6504
2026-01-05 23:19:12.73	347.60	17.97	-41.8	-42.8	22.3	0.00e+00	24	31	101	1048576	60	6769
2026-01-05 23:19:16.77	347.23	17.52	-42.0	-43.1	22.1	0.00e+00	0	31	101	1048576	60	6991
2026-01-05 23:19:20.81	346.87	17.09	-41.9	-43.0	22.2	0.00e+00	92	31	101	1048576	60	6902
2026-01-05 23:19:24.85	346.52	16.66	-41.8	-42.9	22.2	0.00e+00	52	31	101	1048576	60	6837
2026-01-05 23:19:28.90	346.19	16.24	-41.7	-42.7	22.5	0.00e+00	0	31	101	1048576	60	6689
2026-01-05 23:19:32.94	345.86	15.82	-41.4	-42.4	22.6	0.00e+00	30	31	101	1048576	60	6434
2026-01-05 23:19:36.98	345.54	15.41	-41.4	-42.5	22.5	0.00e+00	92	31	101	1048576	60	6511
2026-01-05 23:19:41.02	345.23	15.01	-41.5	-42.6	22.4	0.00e+00	62	32	101	1048576	60	6592
2026-01-05 23:19:45.06	344.93	14.61	-41.8	-42.9	22.0	0.00e+00	2	31	101	1048576	60	6820
2026-01-05 23:19:49.11	344.63	14.22	-42.1	-43.3	21.7	0.00e+00	92	31	101	1048576	60	7115
2026-01-05 23:19:53.15	344.35	13.83	-42.3	-43.5	21.5	0.00e+00	54	31	101	1048576	60	7317
2026-01-05 23:19:57.20	344.07	13.45	-42.4	-43.7	21.2	0.00e+00	54	31	101	1048576	60	7436
2026-01-05 23:20:01.24	343.80	13.07	-42.4	-43.6	21.4	0.00e+00	0	32	101	1048576	60	7409
2026-01-05 23:20:05.28	343.54	12.70	-42.3	-43.6	21.4	0.00e+00	92	32	101	1048576	60	7346
2026-01-05 23:20:09.33	343.28	12.34	-42.5	-43.8	21.2	0.00e+00	0	32	101	1048576	60	7595
2026-01-05 23:20:13.37	343.03	11.97	-42.5	-43.8	21.3	0.00e+00	60	31	101	1048576	60	7519
2026-01-05 23:20:17.41	342.79	11.62	-42.4	-43.7	21.3	0.00e+00	55	32	101	1048576	60	7434
2026-01-05 23:20:21.46	342.55	11.27	-42.7	-44.0	21.0	0.00e+00	92	32	101	1048576	60	7689
2026-01-05 23:20:25.50	342.32	10.92	-42.5	-43.8	21.2	0.00e+00	6	32	101	1048576	60	7553
2026-01-05 23:20:29.54	342.09	10.57	-42.8	-44.1	20.8	0.00e+00	0	31	101	1048576	60	7839
2026-01-05 23:20:33.59	341.87	10.24	-42.8	-44.2	20.8	0.00e+00	1	32	101	1048576	60	7870
2026-01-05 23:20:37.63	341.66	9.90	-42.9	-44.4	20.5	0.00e+00	91	31	101	1048576	60	8058
2026-01-05 23:20:41.68	341.45	9.57	-43.0	-44.4	20.5	0.00e+00	5	32	101	1048576	60	8119
2026-01-05 23:20:45.72	341.25	9.24	-43.0	-44.4	20.5	0.00e+00	0	31	101	1048576	60	8129
2026-01-05 23:20:49.76	341.05	8.92	-43.0	-44.4	20.5	0.00e+00	28	32	101	1048576	60	8075
2026-01-05 23:20:53.81	340.85	8.60	-43.0	-44.4	20.4	0.00e+00	92	31	101	1048576	60	8125
2026-01-05 23:20:57.85	340.66	8.28	-43.2	-44.6	20.2	0.00e+00	2	32	101	1048576	60	8262
2026-01-05 23:21:01.89	340.48	7.97	-43.2	-44.6	20.1	0.00e+00	0	31	101	1048576	60	8295
2026-01-05 23:21:05.93	340.30	7.66	-43.4	-44.8	19.9	0.00e+00	91	32	101	1048576	60	8520
2026-01-05 23:21:09.98	340.12	7.36	-43.8	-45.4	19.3	0.00e+00	20	31	101	1048576	60	9104
2026-01-05 23:21:14.02	339.95	7.06	-43.6	-45.2	19.5	0.00e+00	0	31	101	1048576	60	8836
2026-01-05 23:21:18.07	339.78	6.76	-43.6	-45.1	19.5	0.00e+00	0	31	101	1048576	60	8782
2026-01-05 23:21:22.11	339.61	6.46	-43.6	-45.1	19.5	0.00e+00	92	31	101	1048576	60	8814
2026-01-05 23:21:26.15	339.45	6.17	-43.6	-45.2	19.4	0.00e+00	57	31	101	1048576	60	8833
2026-01-05 23:21:30.20	339.29	5.88	-43.6	-45.2	19.0	0.00e+00	0	32	101	1048576	60	8921
2026-01-05 23:21:34.24	339.13	5.59	-43.9	-45.7	18.3	1.50e-06	0	32	101	1048576	60	9450
2026-01-05 23:21:38.28	338.98	5.31	-44.8	-47.2	16.3	0.00e+00	92	31	101	1048576	60	11166
2026-01-05 23:21:42.33	338.83	5.03	-45.6	-49.0	13.7	2.20e-06	0	32	101	1048576	60	13802
2026-01-05 23:21:46.37	338.69	4.75	-46.2	-51.2	10.6	1.74e-03	0	32	101	1048576	60	17702
2026-01-05 23:21:50.39	338.55	4.48	-46.5	-53.7	6.9	1.13e-01	14	31	101	1048576	60	23556
2026-01-05 23:21:54.43	338.41	4.21	-46.5	-56.4	4.1	9.54e-01	8	32	101	1048576	60	32102
2026-01-05 23:21:58.47	338.27	3.94	-46.3	-60.1	3.6	1.51e+00	0	32	104	1048576	60	49555
2026-01-05 23:22:02.52	338.14	3.67	-46.1	-61.2	3.6	1.51e+00	0	32	104	1048576	60	55855
2026-01-05 23:22:06.56	338.01	3.40	-46.1	-61.4	3.6	1.51e+00	0	32	104	1048576	60	57384
2026-01-05 23:22:10.60	337.88	3.14	-46.1	-61.4	3.6	1.51e+00	0	32	104	1048576	60	57336
2026-01-05 23:22:14.65	337.75	2.88	-50.7	-66.0	3.6	1.51e+00	0	32	104	1048576	60	97337
2026-01-05 23:22:18.69	337.63	2.62	-51.3	-66.6	3.6	1.51e+00	0	32	104	1048576	60	104755
2026-01-05 23:22:22.73	337.51	2.37	-51.1	-66.6	3.6	1.51e+00	0	32	104	1048576	60	104765
2026-01-05 23:22:26.78	337.39	2.11	-51.1	-66.6	3.6	1.51e+00	0	32	104	1048576	60	103800
2026-01-05 23:22:30.82	337.27	1.86	-51.3	-66.6	3.6	1.51e+00	0	32	104	1048576	60	104231
2026-01-05 23:22:34.87	337.16	1.61	-51.2	-66.6	3.6	1.51e+00	0	32	104	1048576	60	104280
2026-01-05 23:22:38.91	337.05	1.36	-51.2	-66.6	3.6	1.51e+00	0	32	104	1048576	60	104200
2026-01-05 23:22:42.95	336.94	1.12	-51.2	-66.6	3.6	1.51e+00	0	32	104	1048576	60	104219
2026-01-05 23:22:47.00	336.83	0.87	-51.2	-66.5	3.6	1.51e+00	0	32	104	1048576	60	103344
2026-01-05 23:22:51.04	336.72	0.63	-51.2	-66.5	3.6	1.51e+00	0	32	104	1048576	60	103325
2026-01-05 23:22:55.09	336.62	0.39	-51.2	-66.6	3.6	1.51e+00	0	32	104	1048576	60	104161
2026-01-05 23:22:59.13	336.52	0.15	-51.2	-66.5	3.6	1.51e+00	0	32	104	1048576	60	103300
2026-01-05 23:23:03.17	336.42	-0.08	-51.2	-66.6	3.6	1.51e+00	0	32	104	1048576	60	103919

#Closed at: 2026-01-05 23:23:04
#Recorded file [1 MB]: D:/lorett/data/35034_260106_020757.dat