passes_logs/2026/01/05/R4.6S_Anadyr_2ch/R4.6S_Anadyr_2ch__20260105_185921_FENGYUN_3E_rec.log

#Pass ID: 20260105_185921_FENGYUN 3E
#Satellite: FENGYUN 3E
#Configuration: FENGYUN 3E
#almurnet v.1.7.20251203
#Start time: 2026-01-05 18:59:23

#Version: 2.2.20231116
#Station: R4.6S_Anadyr_2ch
#Location: 177.4865 lon 64.73178 lat
#TLE: 1 49008U 21062A   25350.97288215  .00000176  00000+0  10353-3 0  9997
#TLE: 2 49008  98.7477 351.4440 0000638 234.3856 125.7261 14.19881381230726

#Time	Az	El	Level	Level2	SNR	BER	BlckErr	Temp	State	Recorded	gain1	gain2
2026-01-05 18:59:23.38	20.46	0.13	-51.2	-66.1	3.5	1.51e+00	0	29	0	0	60	98097
2026-01-05 18:59:27.42	20.48	0.37	-50.9	-62.2	3.6	8.46e-01	0	30	104	0	60	63552
2026-01-05 18:59:31.46	20.50	0.62	-50.8	-62.2	3.6	8.45e-01	0	30	104	0	60	63243
2026-01-05 18:59:35.51	20.52	0.86	-50.5	-62.1	3.6	8.46e-01	0	30	104	0	60	62938
2026-01-05 18:59:39.55	20.54	1.11	-50.1	-61.6	3.6	8.46e-01	0	30	104	0	60	59460
2026-01-05 18:59:43.59	20.56	1.36	-49.4	-60.8	3.6	8.45e-01	0	31	104	0	60	54132
2026-01-05 18:59:47.64	20.58	1.62	-49.3	-60.5	3.6	8.46e-01	0	31	104	0	60	52124
2026-01-05 18:59:51.68	20.60	1.87	-49.3	-60.1	3.6	8.44e-01	0	31	104	0	60	49834
2026-01-05 18:59:55.73	20.62	2.13	-49.4	-60.6	3.6	8.46e-01	0	31	104	0	60	53108
2026-01-05 18:59:59.78	20.64	2.39	-49.3	-60.6	3.6	8.46e-01	0	31	104	0	60	52757
2026-01-05 19:00:03.82	20.66	2.65	-49.1	-58.4	3.7	8.46e-01	0	31	104	0	60	40984
2026-01-05 19:00:07.86	20.68	2.92	-48.9	-55.8	3.8	8.31e-01	0	31	0	0	60	30262
2026-01-05 19:00:11.91	20.70	3.19	-47.9	-52.0	6.8	2.43e-01	0	31	0	0	60	19574
2026-01-05 19:00:15.95	20.72	3.46	-44.0	-45.6	14.3	2.20e-06	0	31	102	1048576	60	9362
2026-01-05 19:00:19.99	20.74	3.73	-41.4	-42.5	17.5	0.00e+00	0	31	102	1048576	60	6549
2026-01-05 19:00:24.04	20.76	4.00	-44.4	-46.1	13.6	1.48e-05	0	31	102	1048576	60	9991
2026-01-05 19:00:28.08	20.78	4.28	-49.3	-59.1	3.6	5.95e-01	0	31	104	1048576	60	44547
2026-01-05 19:00:32.13	20.80	4.56	-37.3	-38.0	21.8	0.00e+00	0	31	0	1048576	54	5503
2026-01-05 19:00:36.18	20.82	4.85	-36.6	-37.2	22.7	0.00e+00	0	31	101	1048576	52	5693
2026-01-05 19:00:40.22	20.84	5.14	-36.5	-37.0	22.9	0.00e+00	0	31	101	1048576	52	5564
2026-01-05 19:00:44.27	20.86	5.43	-36.1	-36.7	23.2	0.00e+00	0	31	101	1048576	52	5316
2026-01-05 19:00:48.31	20.88	5.72	-36.5	-37.2	22.8	0.00e+00	0	31	101	1048576	52	5631
2026-01-05 19:00:52.36	20.90	6.02	-36.1	-36.7	23.2	0.00e+00	0	31	101	1048576	50	6020
2026-01-05 19:00:56.40	20.92	6.32	-36.3	-36.9	23.2	0.00e+00	0	31	101	1048576	50	6112
2026-01-05 19:01:00.45	20.94	6.62	-36.1	-36.6	23.4	0.00e+00	0	31	101	1048576	50	5959
2026-01-05 19:01:04.49	20.96	6.93	-35.7	-36.2	23.9	0.00e+00	0	31	101	1048576	50	5686
2026-01-05 19:01:08.53	20.98	7.24	-35.8	-36.4	23.7	0.00e+00	0	31	101	1048576	50	5799
2026-01-05 19:01:12.58	21.00	7.56	-35.7	-36.2	23.9	0.00e+00	0	31	101	1048576	50	5680
2026-01-05 19:01:16.63	21.02	7.88	-35.6	-36.1	24.0	0.00e+00	0	31	101	1048576	50	5630
2026-01-05 19:01:20.67	21.04	8.20	-35.5	-36.1	24.0	0.00e+00	0	31	101	1048576	50	5592
2026-01-05 19:01:24.71	21.06	8.53	-35.8	-36.3	23.9	0.00e+00	0	31	101	1048576	50	5743
2026-01-05 19:01:28.76	21.08	8.86	-35.4	-35.9	24.2	0.00e+00	0	31	101	1048576	50	5498
2026-01-05 19:01:32.80	21.10	9.19	-35.1	-35.6	24.6	0.00e+00	0	31	101	1048576	48	5918
2026-01-05 19:01:36.85	21.13	9.53	-35.1	-35.6	24.6	0.00e+00	0	31	101	1048576	48	5936
2026-01-05 19:01:40.89	21.15	9.88	-35.0	-35.6	24.7	0.00e+00	0	31	101	1048576	48	5900
2026-01-05 19:01:44.94	21.17	10.23	-34.8	-35.4	24.8	0.00e+00	0	31	101	1048576	48	5769
2026-01-05 19:01:48.98	21.19	10.59	-34.5	-35.1	25.1	0.00e+00	0	31	101	1048576	48	5571
2026-01-05 19:01:53.03	21.21	10.95	-34.5	-35.0	25.2	0.00e+00	0	31	101	1048576	48	5535
2026-01-05 19:01:57.07	21.23	11.31	-34.3	-34.9	25.3	0.00e+00	0	31	101	1048576	48	5444
2026-01-05 19:02:01.12	21.25	11.69	-34.4	-34.9	25.3	0.00e+00	0	31	101	1048576	48	5470
2026-01-05 19:02:05.16	21.28	12.06	-34.3	-34.8	25.5	0.00e+00	0	31	101	1048576	48	5427
2026-01-05 19:02:09.21	21.30	12.45	-34.0	-34.5	25.7	0.00e+00	0	31	101	1048576	46	5839
2026-01-05 19:02:13.25	21.32	12.84	-34.1	-34.5	25.7	0.00e+00	0	31	101	1048576	46	5894
2026-01-05 19:02:17.29	21.34	13.23	-33.9	-34.4	25.8	0.00e+00	0	31	101	1048576	46	5825
2026-01-05 19:02:21.34	21.36	13.63	-33.9	-34.4	25.9	0.00e+00	0	31	101	1048576	46	5798
2026-01-05 19:02:25.38	21.39	14.04	-33.5	-34.0	26.1	0.00e+00	0	31	101	1048576	46	5528
2026-01-05 19:02:29.43	21.41	14.46	-33.4	-33.9	26.2	0.00e+00	0	31	101	1048576	46	5474
2026-01-05 19:02:33.47	21.43	14.88	-33.3	-33.8	26.4	0.00e+00	0	31	101	1048576	46	5424
2026-01-05 19:02:37.52	21.45	15.32	-33.2	-33.7	26.4	0.00e+00	0	32	101	1048576	44	6009
2026-01-05 19:02:41.56	21.48	15.75	-33.2	-33.7	26.4	0.00e+00	0	31	101	1048576	44	5973
2026-01-05 19:02:45.61	21.50	16.20	-33.1	-33.6	26.5	0.00e+00	0	31	101	1048576	44	5957
2026-01-05 19:02:49.66	21.52	16.66	-33.1	-33.5	26.6	0.00e+00	0	31	101	1048576	44	5892
2026-01-05 19:02:53.70	21.55	17.12	-33.1	-33.6	26.7	0.00e+00	0	31	101	1048576	44	5904
2026-01-05 19:02:57.75	21.57	17.60	-33.1	-33.5	26.7	0.00e+00	0	31	101	1048576	44	5891
2026-01-05 19:03:01.79	21.59	18.08	-33.0	-33.5	26.7	0.00e+00	0	31	101	1048576	44	5888
2026-01-05 19:03:05.83	21.62	18.57	-32.8	-33.3	26.8	0.00e+00	0	31	101	1048576	44	5720
2026-01-05 19:03:09.88	21.64	19.07	-32.7	-33.2	26.9	0.00e+00	0	31	101	1048576	44	5666
2026-01-05 19:03:13.92	21.67	19.58	-32.4	-32.8	27.2	0.00e+00	0	31	101	1048576	44	5435
2026-01-05 19:03:17.97	21.69	20.11	-32.6	-33.0	27.1	0.00e+00	0	31	101	1048576	44	5555
2026-01-05 19:03:22.01	21.72	20.64	-32.6	-33.1	27.0	0.00e+00	0	32	101	1048576	44	5582
2026-01-05 19:03:26.06	21.74	21.19	-32.1	-32.6	27.5	0.00e+00	0	31	101	1048576	44	5262
2026-01-05 19:03:30.10	21.77	21.75	-32.0	-32.5	27.5	0.00e+00	0	32	101	1048576	42	5871
2026-01-05 19:03:34.15	21.79	22.32	-31.9	-32.3	27.7	0.00e+00	0	32	101	1048576	42	5757
2026-01-05 19:03:38.20	21.82	22.90	-31.9	-32.4	27.6	0.00e+00	0	31	101	1048576	42	5786
2026-01-05 19:03:42.24	21.85	23.50	-32.1	-32.6	27.5	0.00e+00	0	32	101	1048576	42	5916
2026-01-05 19:03:46.29	21.87	24.12	-31.9	-32.4	27.5	0.00e+00	0	31	101	1048576	42	5807
2026-01-05 19:03:50.33	21.90	24.74	-31.9	-32.4	27.7	0.00e+00	0	32	101	1048576	42	5794
2026-01-05 19:03:54.38	21.93	25.38	-31.8	-32.3	27.9	0.00e+00	0	31	101	1048576	42	5700
2026-01-05 19:03:58.42	21.96	26.04	-31.9	-32.4	27.8	0.00e+00	0	32	101	1048576	42	5776
2026-01-05 19:04:02.46	21.99	26.72	-31.8	-32.3	27.7	0.00e+00	0	31	101	1048576	42	5735
2026-01-05 19:04:06.51	22.02	27.41	-31.5	-31.9	28.0	0.00e+00	0	31	101	1048576	42	5487
2026-01-05 19:04:10.55	22.05	28.12	-31.3	-31.7	28.2	0.00e+00	0	32	101	1048576	42	5365
2026-01-05 19:04:14.59	22.08	28.85	-31.5	-32.0	28.0	0.00e+00	0	32	101	1048576	42	5517
2026-01-05 19:04:18.64	22.11	29.60	-31.5	-32.0	28.0	0.00e+00	0	32	101	1048576	42	5504
2026-01-05 19:04:22.68	22.14	30.36	-31.2	-31.7	28.3	0.00e+00	0	32	101	1048576	42	5351
2026-01-05 19:04:26.72	22.17	31.15	-31.3	-31.7	28.2	0.00e+00	0	32	101	1048576	42	5369
2026-01-05 19:04:30.77	22.21	31.97	-31.3	-31.7	28.2	0.00e+00	0	31	101	1048576	42	5365
2026-01-05 19:04:34.82	22.24	32.80	-31.3	-31.7	28.3	0.00e+00	0	31	101	1048576	42	5362
2026-01-05 19:04:38.86	22.28	33.66	-31.1	-31.6	28.3	0.00e+00	0	31	101	1048576	40	5931
2026-01-05 19:04:42.91	22.31	34.55	-31.0	-31.5	28.4	0.00e+00	0	32	101	1048576	40	5865
2026-01-05 19:04:46.95	22.35	35.46	-31.3	-31.8	28.2	0.00e+00	0	31	101	1048576	40	6083
2026-01-05 19:04:50.99	22.39	36.39	-31.3	-31.8	28.2	0.00e+00	0	32	101	1048576	40	6059
2026-01-05 19:04:55.04	22.43	37.36	-31.2	-31.7	28.2	0.00e+00	0	31	101	1048576	40	6005
2026-01-05 19:04:59.08	22.47	38.35	-31.1	-31.6	28.3	0.00e+00	0	32	101	1048576	40	5922
2026-01-05 19:05:03.13	22.51	39.37	-31.3	-31.7	28.3	0.00e+00	0	32	101	1048576	40	6025
2026-01-05 19:05:07.17	22.56	40.43	-31.6	-32.1	28.0	0.00e+00	0	32	101	1048576	40	6296
2026-01-05 19:05:11.22	22.61	41.52	-31.8	-32.3	27.9	0.00e+00	0	32	101	1048576	40	6423
2026-01-05 19:05:15.26	22.66	42.64	-31.5	-31.9	28.2	0.00e+00	0	32	101	1048576	40	6167
2026-01-05 19:05:19.31	22.71	43.79	-31.3	-31.7	28.3	0.00e+00	0	32	101	1048576	40	6028
2026-01-05 19:05:23.35	22.76	44.98	-31.7	-32.1	28.0	0.00e+00	0	32	101	1048576	40	6307
2026-01-05 19:05:27.39	22.82	46.21	-31.6	-32.1	28.0	0.00e+00	0	31	101	1048576	40	6284
2026-01-05 19:05:31.43	22.88	47.47	-31.9	-32.4	27.7	0.00e+00	0	31	101	1048576	42	5795
2026-01-05 19:05:35.48	22.95	48.78	-32.1	-32.6	27.5	0.00e+00	0	31	101	1048576	42	5932
2026-01-05 19:05:39.52	23.02	50.13	-32.4	-32.8	27.5	0.00e+00	0	31	101	1048576	42	6092
2026-01-05 19:05:43.57	23.09	51.51	-33.1	-33.6	26.8	0.00e+00	0	32	101	1048576	44	5920
2026-01-05 19:05:47.61	23.17	52.94	-32.9	-33.4	27.0	0.00e+00	0	32	101	1048576	44	5768
2026-01-05 19:05:51.65	23.26	54.41	-32.7	-33.2	27.1	0.00e+00	0	32	101	1048576	44	5677
2026-01-05 19:05:55.70	23.35	55.92	-33.0	-33.5	26.9	0.00e+00	0	32	101	1048576	44	5836
2026-01-05 19:05:59.75	23.46	57.48	-32.7	-33.2	27.0	0.00e+00	0	32	101	1048576	44	5671
2026-01-05 19:06:03.79	23.57	59.08	-33.6	-34.1	26.5	0.00e+00	0	31	101	1048576	44	6303
2026-01-05 19:06:07.83	23.70	60.72	-33.1	-33.6	26.9	0.00e+00	0	31	101	1048576	44	5911
2026-01-05 19:06:11.88	23.84	62.41	-32.9	-33.3	27.1	0.00e+00	0	31	101	1048576	44	5756
2026-01-05 19:06:15.92	24.01	64.14	-32.3	-32.8	27.2	0.00e+00	0	32	101	1048576	44	5417
2026-01-05 19:06:19.97	24.19	65.91	-32.4	-32.9	27.3	0.00e+00	0	32	101	1048576	42	6149
2026-01-05 19:06:24.01	24.41	67.72	-31.2	-31.6	28.5	0.00e+00	0	32	101	1048576	40	5931
2026-01-05 19:06:28.06	24.67	69.57	-31.3	-31.8	28.3	0.00e+00	0	31	101	1048576	40	6039
2026-01-05 19:06:32.10	24.98	71.45	-31.6	-32.1	27.9	0.00e+00	0	31	101	1048576	42	5568
2026-01-05 19:06:36.14	25.36	73.37	-31.6	-32.0	28.2	0.00e+00	0	32	101	1048576	42	5550
2026-01-05 19:06:40.19	25.85	75.33	-32.0	-32.5	27.8	0.00e+00	0	32	101	1048576	42	5840
2026-01-05 19:06:44.23	26.48	77.30	-31.0	-31.4	28.4	0.00e+00	0	32	101	1048576	42	5181
2026-01-05 19:06:48.27	27.36	79.30	-30.7	-31.1	28.7	0.00e+00	0	31	101	1048576	40	5615
2026-01-05 19:06:52.32	28.64	81.33	-30.2	-30.7	28.9	0.00e+00	0	31	101	1048576	38	5968
2026-01-05 19:06:56.36	30.71	83.36	-30.0	-30.4	29.1	0.00e+00	0	32	101	1048576	38	5825
2026-01-05 19:07:00.41	34.63	85.40	-29.8	-30.2	29.1	0.00e+00	0	32	101	1048576	38	5675
2026-01-05 19:07:04.45	44.57	87.38	-30.1	-30.5	29.1	0.00e+00	0	31	101	1048576	38	5884
2026-01-05 19:07:08.50	93.63	88.94	-30.5	-31.0	28.8	0.00e+00	0	32	101	1048576	38	6208
2026-01-05 19:07:12.54	172.31	87.99	-32.5	-32.9	28.3	0.00e+00	0	32	101	1048576	40	6923
2026-01-05 19:07:16.59	187.51	86.04	-31.7	-32.2	27.5	0.00e+00	0	32	101	1048576	42	5644
2026-01-05 19:07:20.63	192.55	84.02	-30.6	-31.1	28.3	0.00e+00	0	32	101	1048576	40	5600
2026-01-05 19:07:24.68	195.05	81.98	-30.6	-31.0	28.7	0.00e+00	0	32	101	1048576	40	5539
2026-01-05 19:07:28.72	196.52	79.95	-29.7	-30.1	29.3	0.00e+00	0	31	101	1048576	38	5630
2026-01-05 19:07:32.77	197.51	77.94	-29.7	-30.2	29.3	0.00e+00	0	32	101	1048576	38	5641
2026-01-05 19:07:36.81	198.21	75.95	-29.9	-30.3	29.2	0.00e+00	0	32	101	1048576	38	5746
2026-01-05 19:07:40.86	198.73	73.98	-30.8	-31.2	28.2	0.00e+00	0	32	101	1048576	38	6383
2026-01-05 19:07:44.90	199.14	72.05	-31.6	-32.1	27.9	0.00e+00	0	31	101	1048576	40	6275
2026-01-05 19:07:48.95	199.47	70.15	-31.9	-32.4	27.7	0.00e+00	0	31	101	1048576	40	6493
2026-01-05 19:07:52.99	199.75	68.28	-31.5	-32.0	27.9	0.00e+00	0	32	101	1048576	40	6212
2026-01-05 19:07:57.04	199.98	66.45	-31.2	-31.7	28.2	0.00e+00	0	32	101	1048576	40	6005
2026-01-05 19:08:01.08	200.17	64.67	-31.1	-31.5	28.3	0.00e+00	0	32	101	1048576	40	5868
2026-01-05 19:08:05.13	200.34	62.92	-31.3	-31.8	28.0	0.00e+00	0	32	101	1048576	40	6038
2026-01-05 19:08:09.17	200.49	61.22	-32.0	-32.5	27.6	0.00e+00	0	32	101	1048576	40	6553
2026-01-05 19:08:13.22	200.62	59.56	-32.1	-32.6	27.4	0.00e+00	0	32	101	1048576	42	5922
2026-01-05 19:08:17.26	200.74	57.94	-33.1	-33.6	26.7	0.00e+00	0	32	101	1048576	44	5960
2026-01-05 19:08:21.31	200.85	56.36	-33.3	-33.8	25.9	0.00e+00	0	32	101	1048576	44	6042
2026-01-05 19:08:25.36	200.95	54.83	-33.1	-33.6	26.6	0.00e+00	0	32	101	1048576	44	5940
2026-01-05 19:08:29.40	201.03	53.34	-32.6	-33.1	27.3	0.00e+00	0	32	101	1048576	44	5571
2026-01-05 19:08:33.45	201.12	51.90	-32.5	-33.0	27.2	0.00e+00	0	32	101	1048576	44	5506
2026-01-05 19:08:37.49	201.19	50.49	-32.7	-33.2	27.0	0.00e+00	0	32	101	1048576	44	5673
2026-01-05 19:08:41.53	201.26	49.13	-32.6	-33.1	27.2	0.00e+00	0	32	101	1048576	44	5577
2026-01-05 19:08:45.57	201.33	47.81	-33.2	-33.6	24.3	0.00e+00	0	32	101	1048576	44	5955
2026-01-05 19:08:49.62	201.39	46.53	-32.6	-33.1	27.3	0.00e+00	0	32	101	1048576	44	5576
2026-01-05 19:08:53.66	201.45	45.29	-31.8	-32.2	27.9	0.00e+00	0	32	101	1048576	42	5679
2026-01-05 19:08:57.71	201.50	44.08	-31.8	-32.3	27.8	0.00e+00	0	32	101	1048576	42	5737
2026-01-05 19:09:01.75	201.55	42.91	-31.8	-32.3	27.7	0.00e+00	0	32	101	1048576	42	5741
2026-01-05 19:09:05.79	201.60	41.77	-31.6	-32.1	27.1	0.00e+00	0	32	101	1048576	42	5591
2026-01-05 19:09:09.84	201.65	40.67	-31.6	-32.0	27.7	0.00e+00	0	32	101	1048576	42	5564
2026-01-05 19:09:13.88	201.69	39.60	-31.2	-31.7	28.0	0.00e+00	0	32	101	1048576	42	5354
2026-01-05 19:09:17.93	201.74	38.57	-31.2	-31.7	28.2	0.00e+00	0	32	101	1048576	42	5359
2026-01-05 19:09:21.97	201.78	37.56	-31.5	-32.0	28.1	0.00e+00	0	32	101	1048576	42	5522
2026-01-05 19:09:26.02	201.82	36.58	-31.6	-32.1	28.0	0.00e+00	0	32	101	1048576	42	5581
2026-01-05 19:09:30.06	201.86	35.64	-31.6	-32.1	28.0	0.00e+00	0	32	101	1048576	42	5567
2026-01-05 19:09:34.11	201.89	34.71	-31.2	-31.7	28.3	0.00e+00	0	32	101	1048576	42	5340
2026-01-05 19:09:38.15	201.93	33.82	-30.8	-31.3	28.6	0.00e+00	0	32	101	1048576	40	5736
2026-01-05 19:09:42.19	201.96	32.95	-31.1	-31.5	28.5	0.00e+00	0	32	101	1048576	40	5866
2026-01-05 19:09:46.24	202.00	32.11	-31.0	-31.4	28.3	0.00e+00	0	32	101	1048576	40	5803
2026-01-05 19:09:50.28	202.03	31.28	-31.0	-31.5	28.5	0.00e+00	0	32	101	1048576	40	5835
2026-01-05 19:09:54.32	202.06	30.49	-30.7	-31.2	28.5	0.00e+00	0	32	101	1048576	40	5674
2026-01-05 19:09:58.37	202.09	29.71	-30.6	-31.1	28.7	0.00e+00	0	32	101	1048576	40	5576
2026-01-05 19:10:02.41	202.12	28.95	-30.8	-31.2	28.6	0.00e+00	0	32	101	1048576	40	5685
2026-01-05 19:10:06.46	202.15	28.21	-31.3	-31.7	28.3	0.00e+00	0	32	101	1048576	40	6013
2026-01-05 19:10:10.50	202.18	27.50	-31.5	-31.9	28.0	0.00e+00	0	32	101	1048576	40	6159
2026-01-05 19:10:14.54	202.21	26.80	-31.6	-32.1	28.0	0.00e+00	0	32	101	1048576	40	6267
2026-01-05 19:10:18.59	202.23	26.11	-31.7	-32.2	28.0	0.00e+00	0	32	101	1048576	40	6321
2026-01-05 19:10:22.63	202.26	25.45	-31.8	-32.2	27.9	0.00e+00	0	32	101	1048576	40	6383
2026-01-05 19:10:26.67	202.29	24.80	-31.9	-32.4	27.8	0.00e+00	0	32	101	1048576	40	6467
2026-01-05 19:10:30.72	202.31	24.17	-32.0	-32.4	27.6	0.00e+00	0	32	101	1048576	40	6535
2026-01-05 19:10:34.76	202.34	23.55	-32.0	-32.5	27.7	0.00e+00	0	32	101	1048576	42	5842
2026-01-05 19:10:38.81	202.36	22.94	-32.0	-32.4	27.6	0.00e+00	0	32	101	1048576	42	5825
2026-01-05 19:10:42.85	202.39	22.35	-31.9	-32.4	27.7	0.00e+00	0	31	101	1048576	42	5778
2026-01-05 19:10:46.90	202.41	21.78	-31.9	-32.3	27.8	0.00e+00	0	32	101	1048576	42	5750
2026-01-05 19:10:50.94	202.43	21.21	-31.9	-32.4	27.8	0.00e+00	0	31	101	1048576	42	5787
2026-01-05 19:10:54.99	202.46	20.66	-32.2	-32.7	27.5	0.00e+00	0	32	101	1048576	42	6008
2026-01-05 19:10:59.03	202.48	20.12	-32.1	-32.6	27.4	0.00e+00	0	32	101	1048576	42	5906
2026-01-05 19:11:03.08	202.50	19.59	-32.1	-32.5	27.5	0.00e+00	0	31	101	1048576	42	5890
2026-01-05 19:11:07.12	202.53	19.08	-32.1	-32.6	27.4	0.00e+00	0	32	101	1048576	42	5939
2026-01-05 19:11:11.17	202.55	18.57	-32.2	-32.7	27.5	0.00e+00	0	32	101	1048576	42	5989
2026-01-05 19:11:15.21	202.57	18.07	-32.4	-32.8	27.3	0.00e+00	0	32	101	1048576	42	6094
2026-01-05 19:11:19.26	202.59	17.59	-32.3	-32.8	27.3	0.00e+00	0	32	101	1048576	42	6069
2026-01-05 19:11:23.30	202.61	17.11	-32.5	-33.0	27.3	0.00e+00	0	32	101	1048576	42	6199
2026-01-05 19:11:27.35	202.63	16.64	-32.6	-33.0	27.2	0.00e+00	0	31	101	1048576	42	6222
2026-01-05 19:11:31.39	202.65	16.18	-32.8	-33.3	27.0	0.00e+00	0	31	101	1048576	42	6403
2026-01-05 19:11:35.44	202.68	15.73	-32.9	-33.3	26.9	0.00e+00	0	32	101	1048576	42	6458
2026-01-05 19:11:39.48	202.70	15.29	-33.0	-33.5	26.7	0.00e+00	0	32	101	1048576	44	5843
2026-01-05 19:11:43.53	202.72	14.85	-33.4	-33.9	26.4	0.00e+00	0	32	101	1048576	44	6113
2026-01-05 19:11:47.57	202.74	14.43	-33.5	-33.9	26.3	0.00e+00	0	32	101	1048576	44	6169
2026-01-05 19:11:51.62	202.76	14.01	-33.7	-34.2	26.1	0.00e+00	0	32	101	1048576	44	6372
2026-01-05 19:11:55.66	202.78	13.59	-34.0	-34.5	25.9	0.00e+00	0	32	101	1048576	44	6575
2026-01-05 19:11:59.71	202.80	13.19	-34.1	-34.7	25.8	0.00e+00	0	32	101	1048576	46	5969
2026-01-05 19:12:03.75	202.81	12.79	-34.4	-34.9	25.6	0.00e+00	0	32	101	1048576	46	6133
2026-01-05 19:12:07.80	202.83	12.40	-34.4	-34.9	25.6	0.00e+00	0	32	101	1048576	46	6144
2026-01-05 19:12:11.84	202.85	12.01	-34.7	-35.2	25.2	0.00e+00	0	31	101	1048576	46	6333
2026-01-05 19:12:15.88	202.87	11.63	-34.7	-35.2	25.1	0.00e+00	0	32	101	1048576	46	6326
2026-01-05 19:12:19.93	202.89	11.26	-34.8	-35.4	25.0	0.00e+00	0	32	101	1048576	46	6479
2026-01-05 19:12:23.97	202.91	10.89	-34.9	-35.4	25.1	0.00e+00	0	32	101	1048576	46	6491
2026-01-05 19:12:28.02	202.93	10.52	-35.0	-35.5	24.9	0.00e+00	0	32	101	1048576	48	5866
2026-01-05 19:12:32.06	202.95	10.17	-35.0	-35.5	24.9	0.00e+00	0	32	101	1048576	48	5863
2026-01-05 19:12:36.10	202.96	9.81	-34.9	-35.5	24.9	0.00e+00	0	32	101	1048576	48	5831
2026-01-05 19:12:40.15	202.98	9.47	-35.2	-35.7	24.7	0.00e+00	0	32	101	1048576	48	5995
2026-01-05 19:12:44.20	203.00	9.12	-35.0	-35.5	24.8	0.00e+00	0	32	101	1048576	48	5883
2026-01-05 19:12:48.24	203.02	8.78	-35.2	-35.7	24.6	0.00e+00	0	32	101	1048576	48	5997
2026-01-05 19:12:52.28	203.03	8.45	-35.2	-35.8	24.6	0.00e+00	0	32	101	1048576	48	6047
2026-01-05 19:12:56.33	203.05	8.12	-35.2	-35.7	24.6	0.00e+00	0	32	101	1048576	48	6007
2026-01-05 19:13:00.37	203.07	7.80	-35.3	-35.8	24.5	0.00e+00	0	32	101	1048576	48	6079
2026-01-05 19:13:04.41	203.09	7.47	-35.5	-36.0	24.3	0.00e+00	0	32	101	1048576	48	6205
2026-01-05 19:13:08.46	203.10	7.16	-35.5	-36.0	24.3	0.00e+00	0	32	101	1048576	48	6225
2026-01-05 19:13:12.50	203.12	6.84	-35.5	-36.1	24.1	0.00e+00	0	32	101	1048576	48	6272
2026-01-05 19:13:16.54	203.14	6.53	-35.8	-36.3	23.8	0.00e+00	0	32	101	1048576	48	6438
2026-01-05 19:13:20.59	203.16	6.23	-35.8	-36.3	23.8	0.00e+00	0	32	101	1048576	48	6449
2026-01-05 19:13:24.63	203.17	5.93	-35.7	-36.2	24.0	0.00e+00	0	32	101	1048576	50	5680
2026-01-05 19:13:28.68	203.19	5.63	-35.8	-36.3	23.8	0.00e+00	0	32	101	1048576	50	5749
2026-01-05 19:13:32.72	203.21	5.33	-36.0	-36.5	23.6	0.00e+00	0	32	101	1048576	50	5894
2026-01-05 19:13:36.77	203.22	5.04	-36.1	-36.6	23.5	0.00e+00	0	32	101	1048576	50	5950
2026-01-05 19:13:40.81	203.24	4.75	-36.3	-36.9	23.2	0.00e+00	0	32	101	1048576	50	6162
2026-01-05 19:13:44.86	203.26	4.47	-36.2	-36.8	23.2	0.00e+00	0	32	101	1048576	50	6048
2026-01-05 19:13:48.90	203.27	4.18	-36.6	-37.2	22.8	0.00e+00	0	32	101	1048576	50	6333
2026-01-05 19:13:52.94	203.29	3.90	-36.8	-37.4	22.6	0.00e+00	0	32	101	1048576	50	6524
2026-01-05 19:13:56.99	203.30	3.63	-36.9	-37.5	22.4	0.00e+00	0	32	101	1048576	52	5883
2026-01-05 19:14:01.03	203.32	3.35	-37.7	-38.4	21.6	0.00e+00	0	32	101	1048576	52	6484
2026-01-05 19:14:05.08	203.34	3.08	-37.4	-38.0	21.9	0.00e+00	0	32	101	1048576	52	6242
2026-01-05 19:14:09.12	203.35	2.81	-37.5	-38.1	21.6	0.00e+00	0	32	101	1048576	52	6313
2026-01-05 19:14:13.17	203.37	2.54	-50.3	-61.9	3.6	8.45e-01	0	32	104	1048576	60	61594
2026-01-05 19:14:17.21	203.39	2.28	-50.8	-62.3	3.6	8.44e-01	0	32	104	1048576	60	64262
2026-01-05 19:14:21.25	203.40	2.02	-50.8	-62.3	3.6	8.46e-01	0	32	104	1048576	60	64065
2026-01-05 19:14:25.30	203.42	1.76	-50.7	-62.2	3.6	8.46e-01	0	32	104	1048576	60	63312
2026-01-05 19:14:29.34	203.43	1.50	-50.8	-62.2	3.6	8.47e-01	0	32	104	1048576	60	63625
2026-01-05 19:14:33.39	203.45	1.25	-50.8	-62.1	3.6	8.46e-01	0	32	104	1048576	60	62942
2026-01-05 19:14:37.43	203.46	1.00	-50.8	-62.2	3.6	8.44e-01	0	32	104	1048576	60	63458
2026-01-05 19:14:41.48	203.48	0.75	-50.8	-62.3	3.6	8.45e-01	0	32	104	1048576	60	64172
2026-01-05 19:14:45.52	203.49	0.50	-50.8	-62.2	3.6	8.45e-01	0	32	104	1048576	60	63665
2026-01-05 19:14:49.57	203.51	0.25	-50.8	-62.2	3.6	8.46e-01	0	32	104	1048576	60	63637
2026-01-05 19:14:53.61	203.53	0.01	-50.8	-62.2	3.6	8.45e-01	0	32	104	1048576	60	63401

#Closed at: 2026-01-05 19:14:54
#Recorded file [1 MB]: D:/lorett/data/35034_260105_215923.dat