passes_logs/2026/01/05/R4.6S_Anadyr_2ch/R4.6S_Anadyr_2ch__20260105_004555_SUOMI_NPP_rec.log

#Pass ID: 20260105_004555_SUOMI NPP
#Satellite: SUOMI NPP
#Configuration: NPP
#almurnet v.1.7.20251203
#Start time: 2026-01-05 00:52:33

#Version: 2.2.20231116
#Station: R4.6S_Anadyr_2ch
#Location: 177.4865 lon 64.73178 lat
#TLE: 1 37849U 11061A   25350.92281687  .00000071  00000+0  54882-4 0  9996
#TLE: 2 37849  98.7777 288.2268 0002366 112.8570 247.2856 14.19515404732588

#Time	Az	El	Level	Level2	SNR	BER	BlckErr	Temp	State	Recorded	gain1	gain2
2026-01-05 00:52:33.07	201.13	52.39	-46.6	-64.3	3.5	3.03e+01	0	28	0	0	60	85068
2026-01-05 00:52:36.10	202.45	53.25	-51.3	-66.7	3.6	1.51e+00	0	29	104	0	60	105643
2026-01-05 00:52:39.13	203.85	54.10	-51.3	-66.9	3.6	1.51e+00	0	29	104	0	60	107766
2026-01-05 00:52:42.16	205.33	54.95	-51.5	-66.8	3.6	1.51e+00	0	29	104	0	60	107219
2026-01-05 00:52:45.19	206.90	55.79	-51.4	-66.7	3.6	1.51e+00	0	29	104	0	60	105460
2026-01-05 00:52:48.23	208.57	56.63	-51.2	-66.5	3.6	1.51e+00	0	29	104	0	60	103140
2026-01-05 00:52:51.26	210.34	57.45	-51.3	-66.6	3.6	1.51e+00	0	29	104	0	60	104324
2026-01-05 00:52:54.29	212.22	58.26	-51.3	-66.7	3.6	1.51e+00	0	29	104	0	60	104913
2026-01-05 00:52:57.33	214.22	59.05	-51.3	-66.6	3.6	1.51e+00	0	29	104	0	60	104211
2026-01-05 00:53:00.36	216.33	59.81	-51.6	-66.9	3.6	1.51e+00	0	29	104	0	60	108445
2026-01-05 00:53:03.39	218.57	60.55	-51.4	-66.6	3.6	1.51e+00	0	29	104	0	60	104604
2026-01-05 00:53:06.42	220.93	61.25	-51.3	-66.6	3.6	1.51e+00	0	29	104	0	60	104075
2026-01-05 00:53:09.45	223.43	61.92	-51.6	-66.9	3.6	1.51e+00	0	29	104	0	60	107413
2026-01-05 00:53:12.49	226.08	62.55	-51.3	-66.6	3.6	1.51e+00	0	29	104	0	60	103956
2026-01-05 00:53:15.52	228.85	63.12	-51.6	-66.8	3.6	1.51e+00	0	29	104	0	60	107272
2026-01-05 00:53:18.55	231.74	63.64	-51.6	-66.9	3.6	1.51e+00	0	29	104	0	60	108032
2026-01-05 00:53:21.59	234.78	64.11	-51.4	-66.8	3.6	1.51e+00	0	29	104	0	60	106082
2026-01-05 00:53:24.62	237.91	64.51	-51.3	-66.7	3.6	1.51e+00	0	29	104	0	60	105681
2026-01-05 00:53:27.65	241.15	64.84	-51.2	-66.9	3.6	1.51e+00	0	29	104	0	60	107408
2026-01-05 00:53:30.68	244.48	65.10	-51.0	-66.6	3.6	1.51e+00	0	29	104	0	60	104036
2026-01-05 00:53:33.72	247.88	65.28	-51.2	-66.8	3.6	1.51e+00	0	29	104	0	60	106429
2026-01-05 00:53:36.75	251.31	65.39	-51.4	-67.0	3.6	1.51e+00	0	29	104	0	60	109165
2026-01-05 00:53:39.78	254.76	65.42	-51.4	-67.0	3.6	1.51e+00	0	29	104	0	60	108558
2026-01-05 00:53:42.81	258.21	65.36	-51.8	-67.4	3.6	1.51e+00	0	29	104	0	60	114587
2026-01-05 00:53:45.84	261.63	65.23	-51.8	-67.3	3.6	1.51e+00	0	29	104	0	60	113069
2026-01-05 00:53:48.88	265.01	65.02	-51.5	-67.1	3.6	1.51e+00	0	29	104	0	60	110977
2026-01-05 00:53:51.91	268.30	64.73	-51.6	-67.1	3.6	1.51e+00	0	29	104	0	60	110470
2026-01-05 00:53:54.94	271.51	64.38	-51.3	-66.7	3.6	1.51e+00	0	29	104	0	60	105944
2026-01-05 00:53:57.97	274.60	63.95	-51.3	-66.7	3.6	1.51e+00	0	29	104	0	60	105516
2026-01-05 00:54:01.00	277.58	63.47	-51.4	-66.9	3.6	1.51e+00	0	29	104	0	60	107756
2026-01-05 00:54:04.04	280.44	62.93	-51.4	-66.9	3.6	1.51e+00	0	29	104	0	60	107363
2026-01-05 00:54:07.07	283.16	62.33	-51.5	-66.7	3.6	1.51e+00	0	29	104	0	60	105192
2026-01-05 00:54:10.11	285.75	61.69	-51.2	-66.3	3.6	1.51e+00	0	29	104	0	60	100733
2026-01-05 00:54:13.14	288.20	61.01	-51.3	-66.6	3.6	1.51e+00	0	29	104	0	60	104460
2026-01-05 00:54:16.17	290.52	60.30	-51.0	-64.0	3.7	1.50e+00	0	29	104	0	60	77151
2026-01-05 00:54:19.20	292.71	59.56	-47.1	-49.5	16.8	1.43e+00	0	29	0	0	60	14622
2026-01-05 00:54:22.23	294.77	58.79	-47.8	-50.7	17.6	1.13e+00	0	29	104	2097152	60	16772
2026-01-05 00:54:25.26	296.72	57.99	-45.2	-47.0	19.0	0.00e+00	0	29	0	4194304	60	10885
2026-01-05 00:54:28.30	298.56	57.18	-41.2	-42.3	22.9	0.00e+00	0	29	0	9437184	60	6330
2026-01-05 00:54:31.33	300.29	56.36	-40.6	-41.6	23.2	0.00e+00	0	29	0	15728640	60	5842
2026-01-05 00:54:34.36	301.93	55.52	-39.7	-40.5	24.4	0.00e+00	0	29	0	20971520	58	5828
2026-01-05 00:54:37.40	303.47	54.67	-39.5	-40.3	24.5	0.00e+00	0	29	0	26214400	56	6383
2026-01-05 00:54:40.43	304.91	53.83	-39.7	-40.5	24.2	0.00e+00	0	29	0	32505856	58	5813
2026-01-05 00:54:43.46	306.28	52.98	-39.5	-40.3	24.3	0.00e+00	0	29	0	37748736	56	6353
2026-01-05 00:54:46.50	307.57	52.12	-39.5	-40.3	24.4	7.00e-07	0	29	0	44040192	56	6387
2026-01-05 00:54:49.53	308.79	51.27	-38.5	-39.3	24.9	0.00e+00	0	29	0	49283072	56	5669
2026-01-05 00:54:52.56	309.94	50.42	-39.8	-40.7	24.1	0.00e+00	0	29	0	55574528	58	5921
2026-01-05 00:54:55.60	311.04	49.58	-41.4	-42.5	22.7	0.00e+00	0	29	0	60817408	60	6492
2026-01-05 00:54:58.63	312.07	48.74	-40.6	-41.6	23.4	0.00e+00	0	29	0	66060288	60	5840
2026-01-05 00:55:01.66	313.05	47.91	-40.2	-41.1	23.7	0.00e+00	0	29	0	72351744	58	6180
2026-01-05 00:55:04.70	313.98	47.08	-42.9	-44.2	21.0	0.00e+00	0	29	0	77594624	60	7891
2026-01-05 00:55:07.73	314.86	46.27	-42.3	-43.4	21.9	0.00e+00	0	29	0	83886080	60	7200
2026-01-05 00:55:10.76	315.70	45.46	-40.9	-41.9	22.9	0.00e+00	0	29	0	89128960	60	6069
2026-01-05 00:55:13.79	316.49	44.66	-42.2	-43.3	21.9	0.00e+00	0	29	0	95420416	60	7091
2026-01-05 00:55:16.83	317.25	43.88	-42.7	-43.9	21.4	0.00e+00	0	29	0	100663296	60	7641
2026-01-05 00:55:19.86	317.98	43.10	-41.1	-42.0	22.9	0.00e+00	0	29	0	105906176	60	6122
2026-01-05 00:55:22.90	318.67	42.34	-41.6	-42.6	22.4	0.00e+00	0	29	0	112197632	60	6610
2026-01-05 00:55:25.93	319.33	41.58	-38.5	-39.3	25.0	0.00e+00	0	29	0	117440512	56	5659
2026-01-05 00:55:28.96	319.95	40.84	-39.6	-40.5	23.8	0.00e+00	0	29	0	123731968	56	6472
2026-01-05 00:55:32.00	320.56	40.11	-43.0	-44.3	21.1	0.00e+00	0	29	0	128974848	60	7969
2026-01-05 00:55:35.03	321.13	39.39	-40.0	-40.9	23.8	0.00e+00	0	29	0	135266304	58	6083
2026-01-05 00:55:38.06	321.69	38.69	-38.0	-38.8	25.2	0.00e+00	0	29	0	140509184	54	5988
2026-01-05 00:55:41.09	322.22	37.99	-43.1	-44.5	20.8	0.00e+00	0	29	0	145752064	60	8185
2026-01-05 00:55:44.13	322.72	37.31	-40.9	-41.9	23.1	0.00e+00	0	29	0	152043520	60	6101
2026-01-05 00:55:47.16	323.21	36.64	-39.2	-40.0	24.3	0.00e+00	0	29	0	157286400	56	6112
2026-01-05 00:55:50.19	323.68	35.98	-41.8	-42.8	22.2	0.00e+00	0	29	0	163577856	60	6751
2026-01-05 00:55:53.23	324.13	35.33	-42.1	-43.2	22.0	0.00e+00	0	29	0	168820736	60	7037
2026-01-05 00:55:56.26	324.57	34.69	-40.6	-41.5	23.5	0.00e+00	0	29	0	174063616	60	5770
2026-01-05 00:55:59.30	324.99	34.06	-39.9	-40.8	23.8	0.00e+00	0	29	0	180355072	58	5986
2026-01-05 00:56:02.33	325.39	33.45	-41.2	-42.1	23.1	0.00e+00	0	29	0	185597952	60	6214
2026-01-05 00:56:05.36	325.78	32.84	-41.0	-42.0	23.2	0.00e+00	0	29	0	191889408	60	6118
2026-01-05 00:56:08.40	326.15	32.25	-41.0	-41.9	23.3	0.00e+00	0	29	0	197132288	60	6086
2026-01-05 00:56:11.43	326.51	31.67	-41.6	-42.6	22.5	0.00e+00	0	29	0	203423744	60	6559
2026-01-05 00:56:14.46	326.86	31.09	-42.8	-44.0	21.5	0.00e+00	0	29	0	208666624	60	7753
2026-01-05 00:56:17.50	327.20	30.53	-42.8	-44.0	21.7	0.00e+00	0	29	0	213909504	60	7715
2026-01-05 00:56:20.53	327.53	29.98	-41.7	-42.7	22.6	0.00e+00	0	29	0	220200960	60	6625
2026-01-05 00:56:23.56	327.85	29.43	-41.3	-42.3	22.9	0.00e+00	0	29	0	225443840	60	6343
2026-01-05 00:56:26.60	328.15	28.90	-41.9	-42.9	22.2	0.00e+00	0	29	0	231735296	60	6845
2026-01-05 00:56:29.63	328.45	28.37	-42.2	-43.3	21.9	0.00e+00	0	29	0	236978176	60	7096
2026-01-05 00:56:32.66	328.74	27.86	-41.5	-42.6	22.3	0.00e+00	0	29	0	243269632	60	6568
2026-01-05 00:56:35.70	329.02	27.35	-40.6	-41.6	23.0	0.00e+00	0	29	0	248512512	60	5876
2026-01-05 00:56:38.73	329.29	26.85	-39.9	-40.8	23.7	0.00e+00	0	29	0	253755392	58	6015
2026-01-05 00:56:41.76	329.55	26.36	-40.3	-41.2	23.3	0.00e+00	0	29	0	260046848	58	6286
2026-01-05 00:56:44.80	329.81	25.88	-40.4	-41.4	23.4	0.00e+00	0	29	0	265289728	58	6402
2026-01-05 00:56:47.83	330.06	25.41	-40.4	-41.3	23.3	0.00e+00	0	29	0	271581184	58	6375
2026-01-05 00:56:50.86	330.30	24.94	-40.5	-41.5	23.2	0.00e+00	0	29	0	276824064	58	6510
2026-01-05 00:56:53.90	330.54	24.48	-40.6	-41.6	23.0	0.00e+00	0	29	0	283115520	58	6604
2026-01-05 00:56:56.93	330.76	24.03	-40.8	-41.8	22.7	0.00e+00	0	29	0	288358400	58	6755
2026-01-05 00:56:59.96	330.99	23.59	-39.3	-40.2	24.0	0.00e+00	0	29	0	293601280	58	5583
2026-01-05 00:57:03.00	331.21	23.15	-38.0	-38.7	25.0	0.00e+00	0	29	0	299892736	54	5954
2026-01-05 00:57:06.03	331.42	22.72	-37.1	-37.8	25.5	0.00e+00	0	29	0	305135616	52	6017
2026-01-05 00:57:09.06	331.62	22.30	-37.3	-38.0	25.4	0.00e+00	0	29	0	311427072	52	6151
2026-01-05 00:57:12.10	331.82	21.88	-38.1	-38.9	24.9	0.00e+00	0	29	0	316669952	54	6074
2026-01-05 00:57:15.13	332.02	21.47	-38.9	-39.7	24.3	0.00e+00	0	29	0	322961408	54	6635
2026-01-05 00:57:18.16	332.21	21.07	-39.0	-39.8	24.2	0.00e+00	0	29	0	328204288	54	6727
2026-01-05 00:57:21.20	332.40	20.67	-38.9	-39.8	24.4	0.00e+00	0	29	0	333447168	56	5983
2026-01-05 00:57:24.23	332.58	20.28	-38.8	-39.6	24.5	0.00e+00	0	29	0	339738624	56	5855
2026-01-05 00:57:27.26	332.76	19.90	-38.7	-39.5	24.5	0.00e+00	0	29	0	344981504	56	5791
2026-01-05 00:57:30.30	332.93	19.51	-38.6	-39.5	24.4	0.00e+00	0	29	0	351272960	56	5778
2026-01-05 00:57:33.33	333.10	19.14	-39.1	-39.9	24.2	0.00e+00	0	29	0	356515840	56	6096
2026-01-05 00:57:36.36	333.27	18.77	-39.3	-40.1	24.1	0.00e+00	0	29	0	361758720	56	6235
2026-01-05 00:57:39.40	333.43	18.41	-39.5	-40.4	23.8	0.00e+00	0	29	0	368050176	56	6448
2026-01-05 00:57:42.43	333.59	18.05	-40.0	-40.9	23.5	0.00e+00	0	29	0	373293056	58	6059
2026-01-05 00:57:45.46	333.75	17.70	-40.0	-41.0	23.4	0.00e+00	0	29	0	379584512	58	6131
2026-01-05 00:57:48.49	333.90	17.35	-40.1	-41.0	23.3	0.00e+00	0	29	0	384827392	58	6163
2026-01-05 00:57:51.53	334.05	17.00	-39.9	-40.8	23.4	0.00e+00	0	29	0	391118848	58	6013
2026-01-05 00:57:54.56	334.20	16.66	-39.8	-40.7	23.6	0.00e+00	0	29	0	396361728	58	5944
2026-01-05 00:57:57.60	334.34	16.33	-39.3	-40.1	24.1	0.00e+00	0	29	0	401604608	56	6229
2026-01-05 00:58:00.63	334.48	16.00	-38.7	-39.6	24.3	0.00e+00	0	29	0	407896064	56	5841
2026-01-05 00:58:03.66	334.62	15.67	-38.7	-39.6	24.2	0.00e+00	0	29	0	413138944	56	5847
2026-01-05 00:58:06.70	334.75	15.35	-38.6	-39.5	24.2	0.00e+00	0	29	0	419430400	56	5775
2026-01-05 00:58:09.73	334.88	15.03	-38.9	-39.8	24.1	0.00e+00	0	29	0	424673280	56	5989
2026-01-05 00:58:12.76	335.01	14.72	-39.3	-40.2	23.8	0.00e+00	0	29	0	430964736	56	6252
2026-01-05 00:58:15.80	335.14	14.41	-39.4	-40.3	23.8	0.00e+00	0	29	0	436207616	56	6340
2026-01-05 00:58:18.83	335.27	14.10	-40.0	-40.9	23.3	0.00e+00	0	29	0	441450496	56	6817
2026-01-05 00:58:21.86	335.39	13.80	-40.2	-41.1	23.3	0.00e+00	0	29	0	447741952	58	6205
2026-01-05 00:58:24.90	335.51	13.50	-40.4	-41.3	23.0	0.00e+00	0	29	0	452984832	58	6382
2026-01-05 00:58:27.93	335.63	13.21	-40.4	-41.4	22.6	0.00e+00	0	29	0	459276288	58	6417
2026-01-05 00:58:30.96	335.75	12.91	-40.7	-41.7	22.6	0.00e+00	0	29	0	464519168	58	6672
2026-01-05 00:58:33.99	335.86	12.63	-40.9	-42.0	22.3	0.00e+00	0	29	0	470810624	58	6860
2026-01-05 00:58:37.03	335.97	12.34	-41.2	-42.3	22.0	0.00e+00	0	29	0	476053504	60	6365
2026-01-05 00:58:40.06	336.09	12.06	-42.0	-43.1	21.7	0.00e+00	0	29	0	481296384	60	7006
2026-01-05 00:58:43.09	336.19	11.78	-42.1	-43.4	21.4	0.00e+00	0	29	0	487587840	60	7171
2026-01-05 00:58:46.13	336.30	11.50	-42.7	-44.0	20.9	0.00e+00	0	29	0	492830720	60	7709
2026-01-05 00:58:49.16	336.41	11.23	-42.3	-43.5	21.2	0.00e+00	0	29	0	499122176	60	7313
2026-01-05 00:58:52.19	336.51	10.96	-43.0	-44.4	20.2	0.00e+00	0	29	0	504365056	60	8115
2026-01-05 00:58:55.23	336.61	10.69	-42.1	-43.4	21.3	0.00e+00	0	29	0	510656512	60	7191
2026-01-05 00:58:58.26	336.71	10.43	-41.8	-43.0	21.6	0.00e+00	0	29	0	515899392	60	6864
2026-01-05 00:59:01.29	336.81	10.17	-41.6	-42.8	21.6	0.00e+00	0	29	0	521142272	60	6716
2026-01-05 00:59:04.32	336.91	9.91	-41.6	-42.7	21.7	0.00e+00	0	29	0	527433728	60	6664
2026-01-05 00:59:07.36	337.01	9.66	-41.5	-42.6	21.8	0.00e+00	0	29	0	532676608	60	6577
2026-01-05 00:59:10.39	337.10	9.40	-41.3	-42.4	22.0	0.00e+00	0	29	0	538968064	60	6463
2026-01-05 00:59:13.42	337.19	9.15	-41.1	-42.2	22.1	0.00e+00	0	29	0	544210944	60	6300
2026-01-05 00:59:16.46	337.29	8.90	-40.9	-41.9	22.3	0.00e+00	0	29	0	549453824	60	6085
2026-01-05 00:59:19.49	337.38	8.66	-41.0	-42.1	22.0	0.00e+00	0	29	0	555745280	60	6222
2026-01-05 00:59:22.52	337.47	8.41	-41.0	-42.1	22.1	0.00e+00	0	29	0	560988160	60	6209
2026-01-05 00:59:25.56	337.55	8.17	-41.1	-42.1	22.0	0.00e+00	0	29	0	567279616	60	6245
2026-01-05 00:59:28.59	337.64	7.93	-41.2	-42.3	22.1	0.00e+00	0	29	0	572522496	60	6343
2026-01-05 00:59:31.62	337.73	7.70	-41.7	-42.9	21.8	0.00e+00	0	29	0	578813952	60	6772
2026-01-05 00:59:34.65	337.81	7.46	-41.3	-42.4	21.9	0.00e+00	0	29	0	584056832	60	6404
2026-01-05 00:59:37.69	337.89	7.23	-41.5	-42.6	21.8	0.00e+00	0	29	0	589299712	60	6564
2026-01-05 00:59:40.72	337.98	7.00	-41.5	-42.7	21.4	0.00e+00	0	29	0	595591168	60	6661
2026-01-05 00:59:43.75	338.06	6.77	-41.5	-42.7	21.4	0.00e+00	0	29	0	600834048	60	6664
2026-01-05 00:59:46.78	338.14	6.54	-41.5	-42.7	21.5	0.00e+00	0	29	0	607125504	60	6664
2026-01-05 00:59:49.82	338.22	6.32	-41.9	-43.2	21.2	0.00e+00	0	29	0	612368384	60	7020
2026-01-05 00:59:52.85	338.30	6.10	-41.5	-42.7	21.1	0.00e+00	0	29	0	618659840	60	6654
2026-01-05 00:59:55.88	338.37	5.87	-41.5	-42.7	21.1	0.00e+00	0	29	0	623902720	60	6672
2026-01-05 00:59:58.92	338.45	5.65	-42.0	-43.3	20.3	0.00e+00	0	29	0	629145600	60	7167
2026-01-05 01:00:01.95	338.52	5.44	-42.6	-44.2	19.3	0.00e+00	0	29	0	635437056	60	7867
2026-01-05 01:00:04.99	338.60	5.22	-43.7	-45.9	17.2	0.00e+00	0	29	0	640679936	60	9573
2026-01-05 01:00:08.02	338.67	5.01	-44.5	-47.5	14.4	0.00e+00	0	29	0	646971392	60	11564
2026-01-05 01:00:11.05	338.74	4.80	-45.3	-49.6	11.9	1.24e-04	0	29	0	652214272	60	14693
2026-01-05 01:00:14.08	338.82	4.59	-45.9	-52.2	8.3	1.91e-02	0	29	0	658505728	60	19862
2026-01-05 01:00:17.12	338.89	4.38	-46.2	-54.5	5.4	2.61e-01	0	29	0	663748608	60	25804
2026-01-05 01:00:20.15	338.96	4.17	-46.3	-55.9	4.2	8.34e-01	0	29	0	668991488	60	30572
2026-01-05 01:00:23.18	339.03	3.96	-46.2	-59.6	3.7	1.50e+00	0	29	104	670040064	60	46547
2026-01-05 01:00:26.22	339.10	3.76	-46.2	-60.7	3.5	1.51e+00	0	29	104	670040064	60	53132
2026-01-05 01:00:29.25	339.16	3.56	-46.3	-61.6	3.6	1.51e+00	0	29	104	670040064	60	58919
2026-01-05 01:00:32.28	339.23	3.36	-46.3	-61.4	3.6	1.51e+00	0	29	104	670040064	60	57609
2026-01-05 01:00:35.32	339.30	3.16	-46.2	-61.5	3.6	1.51e+00	0	29	104	670040064	60	57912
2026-01-05 01:00:38.35	339.36	2.96	-50.6	-66.0	3.6	1.51e+00	0	29	104	670040064	60	97469
2026-01-05 01:00:41.38	339.43	2.76	-51.2	-66.6	3.6	1.51e+00	0	29	104	670040064	60	104410
2026-01-05 01:00:44.42	339.49	2.56	-51.3	-66.7	3.6	1.51e+00	0	29	104	670040064	60	105210
2026-01-05 01:00:47.45	339.56	2.37	-51.3	-66.7	3.6	1.51e+00	0	29	104	670040064	60	105953
2026-01-05 01:00:50.48	339.62	2.18	-51.2	-66.6	3.6	1.51e+00	0	29	104	670040064	60	104259
2026-01-05 01:00:53.52	339.68	1.99	-51.4	-66.8	3.6	1.51e+00	0	29	104	670040064	60	106563
2026-01-05 01:00:56.55	339.74	1.80	-51.4	-66.7	3.6	1.51e+00	0	29	104	670040064	60	106007
2026-01-05 01:00:59.58	339.80	1.61	-51.5	-66.8	3.6	1.51e+00	0	29	104	670040064	60	106773
2026-01-05 01:01:02.61	339.87	1.42	-51.4	-66.8	3.6	1.51e+00	0	29	104	670040064	60	106574
2026-01-05 01:01:05.64	339.93	1.23	-51.7	-67.0	3.6	1.51e+00	0	29	104	670040064	60	109481
2026-01-05 01:01:08.68	339.98	1.05	-51.5	-66.9	3.6	1.51e+00	0	29	104	670040064	60	107471
2026-01-05 01:01:11.71	340.04	0.86	-51.6	-67.0	3.6	1.51e+00	0	29	104	670040064	60	108838
2026-01-05 01:01:14.74	340.10	0.68	-51.9	-67.3	3.6	1.51e+00	0	29	104	670040064	60	113390
2026-01-05 01:01:17.77	340.16	0.50	-51.6	-67.0	3.6	1.51e+00	0	29	104	670040064	60	108733
2026-01-05 01:01:20.81	340.22	0.31	-51.7	-67.0	3.6	1.51e+00	0	29	104	670040064	60	109418
2026-01-05 01:01:23.84	340.27	0.13	-51.4	-66.7	3.6	1.51e+00	0	29	104	670040064	60	105687
2026-01-05 01:01:26.87	340.33	-0.04	-51.8	-67.1	3.6	1.51e+00	0	29	104	670040064	60	111038

#Closed at: 2026-01-05 01:01:28
#Recorded file [670 MB]: D:/lorett/data/35034_260105_035233.dat