passes_logs/2026/01/05/R4.6S_Anadyr_2ch/R4.6S_Anadyr_2ch__20260105_125119_SUOMI_NPP_rec.log

#Pass ID: 20260105_125119_SUOMI NPP
#Satellite: SUOMI NPP
#Configuration: NPP
#almurnet v.1.7.20251203
#Start time: 2026-01-05 12:51:21

#Version: 2.2.20231116
#Station: R4.6S_Anadyr_2ch
#Location: 177.4865 lon 64.73178 lat
#TLE: 1 37849U 11061A   25350.92281687  .00000071  00000+0  54882-4 0  9996
#TLE: 2 37849  98.7777 288.2268 0002366 112.8570 247.2856 14.19515404732588

#Time	Az	El	Level	Level2	SNR	BER	BlckErr	Temp	State	Recorded	gain1	gain2
2026-01-05 12:51:21.70	18.90	0.10	-51.0	-63.7	3.4	1.52e+00	0	20	0	0	60	72161
2026-01-05 12:51:25.74	19.15	0.31	-51.1	-66.4	3.6	1.51e+00	0	22	104	0	60	102440
2026-01-05 12:51:29.78	19.41	0.52	-50.8	-66.2	3.5	1.51e+00	0	22	104	0	60	99489
2026-01-05 12:51:33.83	19.67	0.74	-50.3	-65.7	3.6	1.51e+00	0	22	104	0	60	94083
2026-01-05 12:51:37.87	19.93	0.95	-49.4	-64.7	3.6	1.51e+00	0	22	104	0	60	83558
2026-01-05 12:51:41.91	20.19	1.17	-49.5	-64.8	3.6	1.51e+00	0	22	104	0	60	84564
2026-01-05 12:51:45.96	20.46	1.39	-49.4	-64.8	3.6	1.51e+00	0	22	104	0	60	84981
2026-01-05 12:51:50.00	20.74	1.61	-49.4	-64.6	3.5	1.51e+00	0	22	104	0	60	83160
2026-01-05 12:51:54.05	21.02	1.83	-49.4	-64.7	3.6	1.51e+00	0	22	104	0	60	84044
2026-01-05 12:51:58.09	21.30	2.05	-49.4	-64.7	3.6	1.51e+00	0	22	104	0	60	83716
2026-01-05 12:52:02.13	21.58	2.27	-49.4	-63.6	3.6	1.51e+00	0	22	104	0	60	73918
2026-01-05 12:52:06.18	21.87	2.49	-48.4	-54.5	8.9	1.12e-01	0	22	0	0	60	25863
2026-01-05 12:52:10.23	22.17	2.72	-43.8	-45.6	18.1	0.00e+00	0	22	102	1048576	60	9331
2026-01-05 12:52:14.27	22.46	2.94	-43.6	-45.3	18.3	0.00e+00	0	22	102	1048576	60	8988
2026-01-05 12:52:18.31	22.76	3.17	-42.2	-43.6	19.9	0.00e+00	92	22	102	1048576	60	7420
2026-01-05 12:52:22.36	23.07	3.40	-49.5	-62.7	3.6	1.24e+00	0	22	104	1048576	60	66898
2026-01-05 12:52:26.40	23.38	3.63	-45.7	-48.3	15.4	0.00e+00	33	22	0	1048576	60	12640
2026-01-05 12:52:30.44	23.70	3.86	-45.9	-48.5	16.0	0.00e+00	25	22	0	1048576	60	13008
2026-01-05 12:52:34.49	24.02	4.09	-45.7	-48.2	15.5	0.00e+00	90	22	0	1048576	60	12584
2026-01-05 12:52:38.53	24.34	4.33	-45.3	-47.6	16.6	0.00e+00	0	22	0	1048576	60	11763
2026-01-05 12:52:42.58	24.67	4.56	-44.9	-47.0	17.2	0.00e+00	0	23	101	1048576	60	10921
2026-01-05 12:52:46.62	25.01	4.80	-44.2	-46.1	17.4	0.00e+00	62	23	101	1048576	60	9810
2026-01-05 12:52:50.67	25.35	5.04	-44.2	-46.0	17.9	0.00e+00	0	23	101	1048576	60	9754
2026-01-05 12:52:54.71	25.69	5.27	-44.8	-46.9	17.5	0.00e+00	0	23	101	1048576	60	10736
2026-01-05 12:52:58.76	26.04	5.51	-43.5	-45.1	19.1	0.00e+00	0	23	101	1048576	60	8741
2026-01-05 12:53:02.80	26.40	5.76	-43.0	-44.4	19.9	0.00e+00	92	22	101	1048576	60	8110
2026-01-05 12:53:06.85	26.76	6.00	-41.9	-43.1	21.0	0.00e+00	0	22	101	1048576	60	6963
2026-01-05 12:53:10.89	27.13	6.24	-41.9	-43.2	20.9	0.00e+00	0	23	101	1048576	60	7047
2026-01-05 12:53:14.93	27.50	6.49	-42.2	-43.4	20.6	0.00e+00	63	23	101	1048576	60	7241
2026-01-05 12:53:18.98	27.88	6.74	-42.1	-43.3	20.8	0.00e+00	37	23	101	1048576	60	7154
2026-01-05 12:53:23.02	28.27	6.98	-42.0	-43.2	20.7	0.00e+00	0	23	101	1048576	60	7068
2026-01-05 12:53:27.07	28.66	7.23	-42.4	-43.7	20.5	0.00e+00	0	23	101	1048576	60	7458
2026-01-05 12:53:31.11	29.06	7.49	-42.6	-43.9	20.3	0.00e+00	61	23	101	1048576	60	7641
2026-01-05 12:53:35.16	29.46	7.74	-42.8	-44.2	20.2	0.00e+00	0	23	101	1048576	60	7871
2026-01-05 12:53:39.20	29.87	7.99	-42.5	-43.8	20.4	0.00e+00	0	23	101	1048576	60	7575
2026-01-05 12:53:43.24	30.29	8.25	-42.5	-43.8	20.6	0.00e+00	0	23	101	1048576	60	7538
2026-01-05 12:53:47.29	30.72	8.50	-42.0	-43.2	21.0	0.00e+00	75	23	101	1048576	60	7077
2026-01-05 12:53:51.33	31.15	8.76	-42.1	-43.4	20.9	0.00e+00	0	23	101	1048576	60	7183
2026-01-05 12:53:55.38	31.59	9.02	-41.6	-42.8	21.4	0.00e+00	0	23	101	1048576	60	6715
2026-01-05 12:53:59.42	32.04	9.28	-41.5	-42.6	21.7	0.00e+00	62	23	101	1048576	60	6584
2026-01-05 12:54:03.41	32.49	9.54	-41.2	-42.3	21.9	0.00e+00	0	23	101	1048576	60	6328
2026-01-05 12:54:07.46	32.95	9.80	-41.0	-42.1	21.7	0.00e+00	0	23	101	1048576	60	6177
2026-01-05 12:54:11.50	33.42	10.07	-40.8	-41.9	22.2	0.00e+00	0	23	101	1048576	60	6062
2026-01-05 12:54:15.55	33.90	10.33	-40.9	-41.9	22.1	0.00e+00	73	23	101	1048576	60	6099
2026-01-05 12:54:19.60	34.39	10.60	-41.0	-42.0	22.1	0.00e+00	0	23	101	1048576	60	6169
2026-01-05 12:54:23.64	34.89	10.87	-41.1	-42.2	22.1	0.00e+00	0	23	101	1048576	60	6265
2026-01-05 12:54:27.68	35.39	11.13	-40.7	-41.7	22.4	0.00e+00	0	23	101	1048576	60	5946
2026-01-05 12:54:31.73	35.91	11.40	-40.7	-41.7	22.4	0.00e+00	86	23	101	1048576	60	5950
2026-01-05 12:54:35.77	36.43	11.67	-40.8	-41.8	22.4	0.00e+00	0	23	101	1048576	60	6022
2026-01-05 12:54:39.81	36.96	11.95	-40.5	-41.6	22.6	0.00e+00	0	23	101	1048576	60	5837
2026-01-05 12:54:43.86	37.51	12.22	-40.3	-41.2	22.9	0.00e+00	63	23	101	1048576	58	6310
2026-01-05 12:54:47.91	38.06	12.49	-39.9	-40.8	23.1	0.00e+00	0	23	101	1048576	58	6020
2026-01-05 12:54:51.95	38.62	12.77	-40.1	-41.1	23.0	0.00e+00	0	23	101	1048576	58	6177
2026-01-05 12:54:56.00	39.20	13.04	-40.2	-41.2	22.9	0.00e+00	0	23	101	1048576	58	6295
2026-01-05 12:55:00.04	39.78	13.31	-40.2	-41.1	22.9	0.00e+00	73	23	101	1048576	58	6235
2026-01-05 12:55:04.09	40.37	13.59	-40.3	-41.3	22.7	0.00e+00	0	23	101	1048576	58	6324
2026-01-05 12:55:08.13	40.98	13.86	-40.4	-41.4	22.8	0.00e+00	0	23	101	1048576	58	6439
2026-01-05 12:55:12.18	41.59	14.14	-40.0	-41.0	23.1	0.00e+00	0	23	101	1048576	58	6136
2026-01-05 12:55:16.22	42.22	14.42	-39.8	-40.8	23.3	0.00e+00	0	23	101	1048576	58	5980
2026-01-05 12:55:20.26	42.86	14.69	-39.7	-40.7	23.3	0.00e+00	0	23	101	1048576	58	5920
2026-01-05 12:55:24.31	43.51	14.97	-39.7	-40.6	23.4	0.00e+00	0	23	101	1048576	58	5852
2026-01-05 12:55:28.35	44.17	15.24	-39.7	-40.6	23.4	0.00e+00	69	23	101	1048576	58	5852
2026-01-05 12:55:32.40	44.84	15.52	-39.6	-40.5	23.5	0.00e+00	0	23	101	1048576	58	5794
2026-01-05 12:55:36.44	45.52	15.79	-40.0	-41.0	23.1	0.00e+00	0	23	101	1048576	58	6123
2026-01-05 12:55:40.49	46.22	16.07	-39.9	-40.9	23.2	0.00e+00	0	23	101	1048576	58	6082
2026-01-05 12:55:44.53	46.93	16.34	-39.9	-40.9	23.2	0.00e+00	90	23	101	1048576	58	6056
2026-01-05 12:55:48.57	47.65	16.61	-40.1	-41.1	23.1	0.00e+00	0	23	101	1048576	58	6197
2026-01-05 12:55:52.62	48.39	16.88	-40.4	-41.4	22.9	0.00e+00	0	23	101	1048576	58	6429
2026-01-05 12:55:56.67	49.14	17.15	-39.6	-40.6	23.5	0.00e+00	0	23	101	1048576	58	5846
2026-01-05 12:56:00.71	49.90	17.41	-39.7	-40.6	23.3	0.00e+00	90	23	101	1048576	58	5881
2026-01-05 12:56:04.75	50.67	17.68	-39.6	-40.6	23.5	0.00e+00	0	23	101	1048576	58	5845
2026-01-05 12:56:08.80	51.46	17.94	-40.1	-41.1	23.1	0.00e+00	0	23	101	1048576	58	6210
2026-01-05 12:56:12.84	52.26	18.20	-39.7	-40.7	23.4	0.00e+00	80	23	101	1048576	58	5908
2026-01-05 12:56:16.89	53.08	18.46	-39.8	-40.8	23.4	0.00e+00	0	23	101	1048576	58	5995
2026-01-05 12:56:20.93	53.91	18.71	-40.2	-41.2	23.1	0.00e+00	0	23	101	1048576	58	6274
2026-01-05 12:56:24.98	54.75	18.97	-40.4	-41.3	22.9	0.00e+00	0	23	101	1048576	58	6384
2026-01-05 12:56:29.02	55.60	19.21	-41.3	-42.4	22.1	0.00e+00	92	23	101	1048576	60	6428
2026-01-05 12:56:33.07	56.47	19.46	-40.7	-41.6	22.8	0.00e+00	0	23	101	1048576	60	5894
2026-01-05 12:56:37.12	57.36	19.70	-41.2	-42.3	22.3	0.00e+00	0	23	101	1048576	60	6350
2026-01-05 12:56:41.16	58.25	19.93	-41.4	-42.5	22.0	0.00e+00	34	23	101	1048576	60	6489
2026-01-05 12:56:45.20	59.16	20.16	-42.0	-43.2	21.4	0.00e+00	33	23	101	1048576	60	7060
2026-01-05 12:56:49.25	60.08	20.39	-40.7	-41.7	22.7	0.00e+00	33	23	101	1048576	60	5917
2026-01-05 12:56:53.29	61.02	20.61	-40.5	-41.6	22.7	0.00e+00	0	23	101	1048576	60	5843
2026-01-05 12:56:57.34	61.97	20.82	-41.1	-42.2	22.3	0.00e+00	66	23	101	1048576	60	6269
2026-01-05 12:57:01.38	62.93	21.03	-41.1	-42.2	22.3	0.00e+00	0	23	101	1048576	60	6263
2026-01-05 12:57:05.43	63.91	21.23	-40.4	-41.3	22.9	0.00e+00	0	23	101	1048576	58	6388
2026-01-05 12:57:09.47	64.89	21.42	-40.5	-41.6	22.7	0.00e+00	0	23	101	1048576	58	6542
2026-01-05 12:57:13.51	65.89	21.61	-40.9	-42.0	22.5	0.00e+00	92	23	101	1048576	58	6854
2026-01-05 12:57:17.56	66.90	21.79	-40.2	-41.2	23.0	0.00e+00	0	23	101	1048576	60	5576
2026-01-05 12:57:21.60	67.92	21.96	-40.4	-41.4	22.8	0.00e+00	0	23	101	1048576	58	6443
2026-01-05 12:57:25.65	68.96	22.13	-40.6	-41.6	22.7	0.00e+00	62	23	101	1048576	58	6574
2026-01-05 12:57:29.69	70.00	22.28	-40.2	-41.1	23.0	0.00e+00	0	23	101	1048576	58	6219
2026-01-05 12:57:33.74	71.05	22.43	-40.5	-41.5	22.9	0.00e+00	0	23	101	1048576	58	6492
2026-01-05 12:57:37.78	72.12	22.57	-40.6	-41.6	22.8	0.00e+00	0	23	101	1048576	58	6580
2026-01-05 12:57:41.83	73.19	22.70	-41.3	-42.4	22.1	0.00e+00	64	23	101	1048576	60	6455
2026-01-05 12:57:45.87	74.27	22.82	-40.8	-41.8	22.6	0.00e+00	0	23	101	1048576	60	6024
2026-01-05 12:57:49.91	75.36	22.92	-40.6	-41.6	22.8	0.00e+00	0	23	101	1048576	60	5842
2026-01-05 12:57:53.96	76.45	23.02	-39.8	-40.8	23.4	0.00e+00	0	23	101	1048576	58	5967
2026-01-05 12:57:58.00	77.55	23.11	-40.6	-41.6	22.7	0.00e+00	68	23	101	1048576	58	6560
2026-01-05 12:58:02.05	78.66	23.19	-40.0	-40.9	23.3	0.00e+00	0	23	101	1048576	58	6064
2026-01-05 12:58:06.09	79.78	23.26	-40.0	-40.9	23.2	0.00e+00	0	23	101	1048576	58	6079
2026-01-05 12:58:10.13	80.89	23.31	-40.6	-41.6	22.8	0.00e+00	32	23	101	1048576	58	6608
2026-01-05 12:58:14.18	82.01	23.36	-40.0	-40.9	23.2	0.00e+00	15	23	101	1048576	58	6081
2026-01-05 12:58:18.22	83.14	23.39	-40.3	-41.3	23.0	0.00e+00	0	23	101	1048576	58	6363
2026-01-05 12:58:22.27	84.26	23.42	-40.3	-41.2	23.1	0.00e+00	0	23	101	1048576	58	6314
2026-01-05 12:58:26.31	85.39	23.43	-39.9	-40.8	23.4	0.00e+00	80	23	101	1048576	58	6008
2026-01-05 12:58:30.36	86.52	23.43	-39.9	-40.9	23.4	0.00e+00	0	23	101	1048576	58	6047
2026-01-05 12:58:34.40	87.65	23.42	-39.6	-40.5	23.6	0.00e+00	33	23	101	1048576	58	5820
2026-01-05 12:58:38.45	88.78	23.39	-39.2	-40.0	24.1	0.00e+00	0	23	101	1048576	56	6147
2026-01-05 12:58:42.49	89.90	23.36	-39.8	-40.7	23.4	0.00e+00	92	23	101	1048576	56	6640
2026-01-05 12:58:46.54	91.02	23.32	-40.1	-41.1	23.0	0.00e+00	0	23	101	1048576	58	6184
2026-01-05 12:58:50.58	92.14	23.26	-40.2	-41.1	23.1	0.00e+00	0	23	101	1048576	58	6232
2026-01-05 12:58:54.62	93.25	23.19	-39.9	-40.8	23.3	0.00e+00	19	23	101	1048576	58	6011
2026-01-05 12:58:58.67	94.36	23.12	-40.0	-41.0	23.3	0.00e+00	0	23	101	1048576	58	6119
2026-01-05 12:59:02.71	95.47	23.03	-38.9	-39.7	24.2	0.00e+00	0	23	101	1048576	56	5958
2026-01-05 12:59:06.76	96.57	22.93	-39.0	-39.8	24.0	0.00e+00	0	23	101	1048576	56	6010
2026-01-05 12:59:10.80	97.66	22.82	-38.3	-39.1	24.5	0.00e+00	50	23	101	1048576	54	6217
2026-01-05 12:59:14.85	98.74	22.70	-38.8	-39.7	24.1	0.00e+00	0	23	101	1048576	54	6624
2026-01-05 12:59:18.89	99.81	22.57	-38.9	-39.8	24.2	0.00e+00	0	23	101	1048576	56	5971
2026-01-05 12:59:22.94	100.88	22.44	-38.9	-39.8	24.0	0.00e+00	0	23	101	1048576	56	5987
2026-01-05 12:59:26.98	101.94	22.29	-38.3	-39.1	24.6	0.00e+00	72	23	101	1048576	56	5520
2026-01-05 12:59:31.03	102.98	22.13	-37.5	-38.3	25.1	0.00e+00	0	23	101	1048576	54	5687
2026-01-05 12:59:35.07	104.02	21.97	-38.3	-39.1	24.4	0.00e+00	0	23	101	1048576	54	6212
2026-01-05 12:59:39.12	105.04	21.80	-38.0	-38.8	24.7	0.00e+00	64	23	101	1048576	54	6009
2026-01-05 12:59:43.16	106.06	21.62	-38.2	-39.1	24.7	0.00e+00	0	23	101	1048576	54	6188
2026-01-05 12:59:47.20	107.06	21.43	-38.4	-39.3	24.4	0.00e+00	33	23	101	1048576	54	6333
2026-01-05 12:59:51.25	108.05	21.23	-39.2	-40.2	23.8	0.00e+00	0	23	101	1048576	54	7026
2026-01-05 12:59:55.30	109.03	21.03	-38.4	-39.3	24.5	0.00e+00	85	23	101	1048576	56	5638
2026-01-05 12:59:59.34	109.99	20.82	-39.4	-40.3	23.6	0.00e+00	0	23	101	1048576	56	6376
2026-01-05 13:00:03.39	110.95	20.61	-40.1	-41.1	23.0	0.00e+00	0	23	101	1048576	58	6220
2026-01-05 13:00:07.43	111.88	20.39	-39.9	-40.9	23.4	0.00e+00	0	23	101	1048576	58	6078
2026-01-05 13:00:11.47	112.81	20.16	-39.7	-40.6	23.4	0.00e+00	92	23	101	1048576	56	6588
2026-01-05 13:00:15.52	113.72	19.93	-39.8	-40.7	23.4	0.00e+00	0	23	101	1048576	58	5940
2026-01-05 13:00:19.57	114.62	19.69	-39.9	-40.9	23.1	0.00e+00	0	23	101	1048576	58	6077
2026-01-05 13:00:23.61	115.51	19.45	-40.2	-41.2	22.9	0.00e+00	62	23	101	1048576	58	6299
2026-01-05 13:00:27.65	116.38	19.21	-39.9	-40.8	23.3	0.00e+00	34	23	101	1048576	58	6027
2026-01-05 13:00:31.70	117.24	18.96	-40.5	-41.5	22.8	0.00e+00	0	23	101	1048576	58	6489
2026-01-05 13:00:35.74	118.08	18.70	-40.2	-41.1	23.1	0.00e+00	0	23	101	1048576	58	6237
2026-01-05 13:00:39.79	118.92	18.45	-40.4	-41.4	22.8	0.00e+00	81	23	101	1048576	58	6438
2026-01-05 13:00:43.83	119.73	18.19	-40.1	-41.1	23.1	0.00e+00	0	23	101	1048576	58	6205
2026-01-05 13:00:47.88	120.54	17.93	-39.9	-40.9	23.2	0.00e+00	0	23	101	1048576	58	6080
2026-01-05 13:00:51.92	121.33	17.66	-39.2	-40.1	23.9	0.00e+00	0	23	101	1048576	58	5530
2026-01-05 13:00:55.96	122.11	17.40	-39.6	-40.5	23.5	0.00e+00	82	23	101	1048576	56	6484
2026-01-05 13:01:00.01	122.87	17.13	-40.1	-41.1	23.0	0.00e+00	0	23	101	1048576	58	6212
2026-01-05 13:01:04.05	123.62	16.86	-40.8	-41.9	22.5	0.00e+00	0	23	101	1048576	58	6771
2026-01-05 13:01:08.10	124.36	16.59	-41.6	-42.8	21.8	0.00e+00	30	23	101	1048576	60	6714
2026-01-05 13:01:12.14	125.08	16.31	-39.4	-40.3	23.6	0.00e+00	15	23	101	1048576	58	5655
2026-01-05 13:01:16.19	125.80	16.04	-40.0	-41.0	23.1	0.00e+00	0	23	101	1048576	58	6137
2026-01-05 13:01:20.23	126.50	15.76	-40.3	-41.3	22.9	0.00e+00	0	23	101	1048576	58	6329
2026-01-05 13:01:24.28	127.19	15.49	-39.5	-40.4	23.5	0.00e+00	92	23	101	1048576	58	5752
2026-01-05 13:01:28.32	127.86	15.21	-40.5	-41.5	22.9	0.00e+00	0	23	101	1048576	58	6478
2026-01-05 13:01:32.37	128.52	14.93	-40.0	-40.9	23.2	0.00e+00	0	23	101	1048576	58	6085
2026-01-05 13:01:36.41	129.18	14.66	-40.4	-41.5	22.8	0.00e+00	0	23	101	1048576	58	6469
2026-01-05 13:01:40.46	129.82	14.38	-40.9	-42.0	22.2	0.00e+00	65	23	101	1048576	58	6883
2026-01-05 13:01:44.50	130.44	14.10	-40.3	-41.2	22.8	0.00e+00	0	23	101	1048576	58	6310
2026-01-05 13:01:48.55	131.06	13.82	-41.4	-42.6	21.8	0.00e+00	0	23	101	1048576	60	6575
2026-01-05 13:01:52.59	131.67	13.54	-41.2	-42.4	22.0	0.00e+00	57	23	101	1048576	60	6395
2026-01-05 13:01:56.63	132.26	13.27	-40.8	-41.9	22.4	0.00e+00	0	23	101	1048576	60	6057
2026-01-05 13:02:00.68	132.85	12.99	-40.4	-41.4	22.8	0.00e+00	0	23	101	1048576	60	5735
2026-01-05 13:02:04.73	133.42	12.71	-40.1	-41.1	23.0	0.00e+00	0	23	101	1048576	58	6219
2026-01-05 13:02:08.77	133.98	12.44	-39.7	-40.6	23.2	0.00e+00	78	23	101	1048576	58	5863
2026-01-05 13:02:12.81	134.54	12.16	-40.3	-41.3	22.7	0.00e+00	0	23	101	1048576	58	6355
2026-01-05 13:02:16.86	135.08	11.89	-40.6	-41.6	22.3	0.00e+00	0	23	101	1048576	58	6612
2026-01-05 13:02:20.90	135.62	11.61	-40.2	-41.2	22.8	0.00e+00	9	23	101	1048576	58	6248
2026-01-05 13:02:24.95	136.14	11.34	-40.2	-41.3	22.8	0.00e+00	63	23	101	1048576	58	6322
2026-01-05 13:02:28.99	136.66	11.07	-40.7	-41.8	22.3	0.00e+00	0	23	101	1048576	58	6726
2026-01-05 13:02:33.04	137.16	10.80	-40.5	-41.5	22.6	0.00e+00	0	23	101	1048576	58	6495
2026-01-05 13:02:37.08	137.66	10.53	-40.4	-41.4	22.5	0.00e+00	27	23	101	1048576	58	6399
2026-01-05 13:02:41.13	138.15	10.26	-40.6	-41.6	22.5	0.00e+00	0	23	101	1048576	58	6550
2026-01-05 13:02:45.17	138.63	9.99	-41.7	-42.9	21.2	0.00e+00	0	23	101	1048576	60	6834
2026-01-05 13:02:49.22	139.10	9.73	-42.8	-44.2	20.3	0.00e+00	0	23	101	1048576	60	7866
2026-01-05 13:02:53.26	139.56	9.46	-42.7	-44.1	20.0	0.00e+00	64	23	101	1048576	60	7855
2026-01-05 13:02:57.30	140.02	9.20	-42.7	-44.2	19.6	0.00e+00	0	23	101	1048576	60	7888
2026-01-05 13:03:01.35	140.47	8.94	-43.1	-44.6	19.1	0.00e+00	0	23	101	1048576	60	8314
2026-01-05 13:03:05.39	140.90	8.68	-43.3	-45.0	18.7	0.00e+00	0	23	101	1048576	60	8641
2026-01-05 13:03:09.44	141.34	8.42	-43.4	-45.1	18.5	0.00e+00	92	23	101	1048576	60	8752
2026-01-05 13:03:13.48	141.76	8.16	-43.4	-45.1	18.3	0.00e+00	0	23	101	1048576	60	8800
2026-01-05 13:03:17.52	142.18	7.90	-43.7	-45.5	18.4	0.00e+00	0	23	101	1048576	60	9192
2026-01-05 13:03:21.57	142.59	7.64	-44.1	-46.0	17.9	0.00e+00	58	23	101	1048576	60	9731
2026-01-05 13:03:25.61	143.00	7.39	-43.7	-45.4	18.5	0.00e+00	0	23	101	1048576	60	9094
2026-01-05 13:03:29.66	143.39	7.14	-43.2	-44.8	19.0	0.00e+00	0	23	101	1048576	60	8510
2026-01-05 13:03:33.71	143.78	6.88	-42.3	-43.8	19.9	0.00e+00	0	23	101	1048576	60	7547
2026-01-05 13:03:37.75	144.17	6.63	-42.6	-44.1	19.7	0.00e+00	90	23	101	1048576	60	7774
2026-01-05 13:03:41.80	144.55	6.38	-42.9	-44.4	19.3	0.00e+00	0	23	101	1048576	60	8113
2026-01-05 13:03:45.84	144.92	6.14	-43.4	-45.1	18.9	0.00e+00	0	23	101	1048576	60	8760
2026-01-05 13:03:49.89	145.29	5.89	-43.6	-45.3	18.6	0.00e+00	0	23	101	1048576	60	9008
2026-01-05 13:03:53.93	145.65	5.65	-43.1	-44.7	19.2	0.00e+00	78	23	101	1048576	60	8364
2026-01-05 13:03:57.98	146.00	5.40	-42.5	-43.9	19.9	0.00e+00	0	23	101	1048576	60	7626
2026-01-05 13:04:02.02	146.35	5.16	-42.8	-44.3	19.6	0.00e+00	0	23	101	1048576	60	8002
2026-01-05 13:04:06.07	146.69	4.92	-42.5	-43.9	20.0	0.00e+00	21	23	101	1048576	60	7612
2026-01-05 13:04:10.11	147.03	4.68	-43.1	-44.6	19.2	0.00e+00	0	23	101	1048576	60	8271
2026-01-05 13:04:14.15	147.36	4.44	-43.1	-44.7	19.0	0.00e+00	0	23	101	1048576	60	8388
2026-01-05 13:04:18.20	147.69	4.20	-43.1	-44.6	18.8	0.00e+00	0	23	101	1048576	60	8324
2026-01-05 13:04:22.24	148.02	3.97	-43.2	-44.9	18.5	0.00e+00	80	23	101	1048576	60	8565
2026-01-05 13:04:26.29	148.33	3.73	-43.4	-45.2	18.4	0.00e+00	0	23	101	1048576	60	8904
2026-01-05 13:04:30.33	148.65	3.50	-43.7	-45.6	17.8	0.00e+00	0	23	101	1048576	60	9330
2026-01-05 13:04:34.37	148.95	3.27	-43.7	-45.6	17.8	0.00e+00	57	23	101	1048576	60	9325
2026-01-05 13:04:38.42	149.26	3.04	-49.6	-65.0	3.6	1.51e+00	0	23	104	1048576	60	86438
2026-01-05 13:04:42.46	149.56	2.81	-50.9	-66.2	3.6	1.51e+00	0	23	104	1048576	60	99803
2026-01-05 13:04:46.51	149.85	2.58	-51.0	-66.4	3.6	1.51e+00	0	23	104	1048576	60	101562
2026-01-05 13:04:50.55	150.14	2.36	-50.9	-66.3	3.6	1.51e+00	0	23	104	1048576	60	100534
2026-01-05 13:04:54.60	150.43	2.13	-51.0	-66.3	3.6	1.51e+00	0	23	104	1048576	60	100846
2026-01-05 13:04:58.64	150.71	1.91	-50.9	-66.2	3.6	1.51e+00	0	23	104	1048576	60	100013
2026-01-05 13:05:02.68	150.99	1.69	-50.9	-66.2	3.6	1.51e+00	0	23	104	1048576	60	99689
2026-01-05 13:05:06.73	151.27	1.46	-50.9	-66.2	3.6	1.51e+00	0	24	104	1048576	60	99894
2026-01-05 13:05:10.78	151.54	1.24	-50.9	-66.2	3.6	1.51e+00	0	24	104	1048576	60	100051
2026-01-05 13:05:14.82	151.81	1.02	-50.9	-66.2	3.6	1.51e+00	0	24	104	1048576	60	100079
2026-01-05 13:05:18.86	152.07	0.81	-51.0	-66.3	3.6	1.51e+00	0	24	104	1048576	60	100650
2026-01-05 13:05:22.91	152.33	0.59	-51.0	-66.3	3.6	1.51e+00	0	24	104	1048576	60	100872
2026-01-05 13:05:26.95	152.58	0.37	-50.9	-66.2	3.6	1.51e+00	0	24	104	1048576	60	100002
2026-01-05 13:05:31.00	152.84	0.16	-51.1	-66.4	3.6	1.51e+00	0	24	104	1048576	60	101995

#Closed at: 2026-01-05 13:05:34
#Recorded file [1 MB]: D:/lorett/data/35034_260105_155121.dat