passes_logs/2026/01/05/R4.6S_Anadyr_2ch/R4.6S_Anadyr_2ch__20260105_065615_FENGYUN_3E_rec.log

#Pass ID: 20260105_065615_FENGYUN 3E
#Satellite: FENGYUN 3E
#Configuration: FENGYUN 3E
#almurnet v.1.7.20251203
#Start time: 2026-01-05 06:56:18

#Version: 2.2.20231116
#Station: R4.6S_Anadyr_2ch
#Location: 177.4865 lon 64.73178 lat
#TLE: 1 49008U 21062A   25350.97288215  .00000176  00000+0  10353-3 0  9997
#TLE: 2 49008  98.7477 351.4440 0000638 234.3856 125.7261 14.19881381230726

#Time	Az	El	Level	Level2	SNR	BER	BlckErr	Temp	State	Recorded	gain1	gain2
2026-01-05 06:56:18.23	220.70	0.15	-52.3	-62.4	3.3	8.41e-01	0	20	0	0	60	65004
2026-01-05 06:56:22.27	221.00	0.35	-51.3	-63.1	3.6	8.45e-01	0	21	104	0	60	70387
2026-01-05 06:56:26.31	221.32	0.55	-50.9	-62.6	3.5	8.46e-01	0	21	104	0	60	66569
2026-01-05 06:56:30.36	221.63	0.75	-50.7	-62.3	3.6	8.45e-01	0	21	104	0	60	64124
2026-01-05 06:56:34.40	221.95	0.95	-50.7	-62.2	3.5	8.44e-01	0	21	104	0	60	63443
2026-01-05 06:56:38.44	222.28	1.15	-40.9	-59.9	3.6	8.45e-01	0	21	104	0	58	54928
2026-01-05 06:56:42.48	222.61	1.35	-40.2	-59.8	3.6	8.46e-01	0	21	104	0	58	54076
2026-01-05 06:56:46.53	222.94	1.55	-40.1	-59.7	3.6	8.45e-01	0	21	104	0	58	53698
2026-01-05 06:56:50.57	223.28	1.75	-39.8	-59.9	3.6	8.46e-01	0	21	104	0	58	54980
2026-01-05 06:56:54.61	223.62	1.96	-40.3	-59.9	3.6	8.46e-01	0	22	104	0	58	54901
2026-01-05 06:56:58.66	223.97	2.16	-40.6	-59.7	3.6	8.46e-01	0	21	104	0	58	53527
2026-01-05 06:57:02.70	224.32	2.37	-39.8	-59.5	3.6	8.45e-01	0	22	104	0	58	52464
2026-01-05 06:57:06.75	224.67	2.57	-40.1	-59.5	3.6	8.45e-01	0	22	104	0	58	51995
2026-01-05 06:57:10.79	225.03	2.78	-40.5	-57.5	3.7	8.44e-01	0	21	104	0	58	41293
2026-01-05 06:57:14.83	225.40	2.98	-39.5	-48.4	10.6	9.75e-03	0	22	0	17825792	58	14515
2026-01-05 06:57:18.87	225.77	3.19	-38.9	-45.2	13.3	1.71e-05	0	22	0	47185920	56	11294
2026-01-05 06:57:22.91	226.14	3.40	-39.8	-54.7	3.9	3.75e-01	0	22	0	60817408	58	30104
2026-01-05 06:57:26.96	226.52	3.60	-38.9	-43.9	14.9	0.00e+00	0	22	0	75497472	56	9729
2026-01-05 06:57:31.00	226.91	3.81	-38.3	-43.8	15.1	0.00e+00	0	22	0	104857600	56	9607
2026-01-05 06:57:35.04	227.30	4.02	-39.1	-44.0	15.0	0.00e+00	0	22	0	133169152	54	10995
2026-01-05 06:57:39.09	227.70	4.23	-39.9	-44.5	14.4	1.10e-06	0	22	0	162529280	58	9332
2026-01-05 06:57:43.13	228.10	4.44	-42.1	-45.5	13.9	3.40e-06	0	22	0	191889408	60	9250
2026-01-05 06:57:47.17	228.50	4.65	-43.0	-45.3	13.9	4.50e-06	0	22	0	221249536	60	9062
2026-01-05 06:57:51.21	228.92	4.86	-43.5	-46.0	13.2	2.05e-05	0	22	0	250609664	60	9808
2026-01-05 06:57:55.26	229.34	5.08	-43.1	-46.0	13.4	1.02e-05	0	22	0	279969792	60	9877
2026-01-05 06:57:59.30	229.76	5.29	-43.0	-46.2	13.0	3.08e-05	0	22	0	309329920	60	10075
2026-01-05 06:58:03.34	230.19	5.50	-44.0	-46.4	13.0	3.66e-05	0	22	0	337641472	60	10253
2026-01-05 06:58:07.38	230.63	5.71	-44.1	-46.2	13.2	1.60e-05	0	22	0	367001600	60	10038
2026-01-05 06:58:11.43	231.07	5.93	-43.7	-46.8	12.8	4.23e-05	0	22	0	396361728	60	10825
2026-01-05 06:58:15.47	231.52	6.14	-44.8	-47.4	12.4	1.46e-04	0	22	0	425721856	60	11533
2026-01-05 06:58:19.51	231.97	6.35	-44.4	-47.0	12.8	8.23e-05	0	22	0	455081984	60	11087
2026-01-05 06:58:23.56	232.44	6.57	-44.8	-47.3	12.5	1.11e-04	0	22	0	483393536	60	11409
2026-01-05 06:58:27.60	232.90	6.78	-44.7	-46.9	12.8	5.95e-05	0	22	0	512753664	60	10961
2026-01-05 06:58:31.65	233.38	7.00	-44.8	-47.3	12.5	1.19e-04	0	22	0	542113792	60	11399
2026-01-05 06:58:35.69	233.86	7.21	-44.1	-47.0	12.8	7.32e-05	0	22	0	571473920	60	11098
2026-01-05 06:58:39.74	234.35	7.43	-44.6	-46.8	13.2	3.43e-05	0	22	0	600834048	60	10787
2026-01-05 06:58:43.78	234.84	7.64	-44.7	-46.7	13.2	1.94e-05	0	22	0	630194176	60	10660
2026-01-05 06:58:47.82	235.35	7.85	-44.2	-46.3	13.7	1.37e-05	0	22	0	658505728	60	10239
2026-01-05 06:58:51.87	235.86	8.07	-43.4	-45.5	14.5	1.10e-06	0	22	0	687865856	60	9266
2026-01-05 06:58:55.91	236.37	8.28	-43.8	-45.5	14.6	0.00e+00	0	22	0	717225984	60	9286
2026-01-05 06:58:59.96	236.90	8.50	-43.7	-45.5	14.8	0.00e+00	0	22	0	746586112	60	9245
2026-01-05 06:59:04.00	237.43	8.71	-43.1	-44.6	15.6	0.00e+00	0	22	0	775946240	60	8418
2026-01-05 06:59:08.04	237.97	8.93	-42.5	-44.0	16.4	0.00e+00	0	22	0	804257792	60	7801
2026-01-05 06:59:12.09	238.52	9.14	-41.6	-42.9	17.2	0.00e+00	0	22	0	833617920	60	6849
2026-01-05 06:59:16.13	239.07	9.35	-41.1	-42.3	17.8	0.00e+00	0	22	0	862978048	60	6425
2026-01-05 06:59:20.17	239.63	9.56	-40.5	-41.6	18.5	0.00e+00	0	22	0	892338176	60	5931
2026-01-05 06:59:24.21	240.20	9.78	-39.9	-41.0	18.9	0.00e+00	0	22	0	921698304	58	6202
2026-01-05 06:59:28.26	240.78	9.99	-39.4	-40.4	19.2	0.00e+00	0	22	0	951058432	58	5802
2026-01-05 06:59:32.30	241.37	10.20	-38.9	-39.9	19.5	0.00e+00	0	22	0	980418560	56	6142
2026-01-05 06:59:36.34	241.96	10.41	-37.6	-38.6	20.4	0.00e+00	0	22	0	1008730112	54	5915
2026-01-05 06:59:40.39	242.57	10.61	-37.3	-38.3	20.7	0.00e+00	0	22	0	1038090240	54	5708
2026-01-05 06:59:44.43	243.18	10.82	-36.9	-37.8	21.0	0.00e+00	0	22	0	1067450368	52	6047
2026-01-05 06:59:48.48	243.80	11.03	-36.9	-37.8	21.2	0.00e+00	0	22	0	1096810496	52	6039
2026-01-05 06:59:52.52	244.43	11.23	-35.7	-36.5	22.0	0.00e+00	0	22	0	1126170624	50	5872
2026-01-05 06:59:56.57	245.06	11.44	-35.1	-35.9	22.3	0.00e+00	0	22	0	1155530752	50	5493
2026-01-05 07:00:00.61	245.71	11.64	-35.1	-36.0	22.3	0.00e+00	0	22	0	1184890880	48	6195
2026-01-05 07:00:04.66	246.36	11.84	-35.5	-36.4	22.2	0.00e+00	0	22	0	1213202432	48	6492
2026-01-05 07:00:08.70	247.03	12.04	-35.9	-36.7	22.4	0.00e+00	0	22	0	1242562560	48	6739
2026-01-05 07:00:12.74	247.70	12.23	-34.6	-35.4	22.8	0.00e+00	0	22	0	1271922688	48	5777
2026-01-05 07:00:16.79	248.38	12.43	-35.3	-36.2	22.0	0.00e+00	0	22	0	1301282816	48	6332
2026-01-05 07:00:20.83	249.06	12.62	-35.9	-36.8	22.2	0.00e+00	0	22	0	1330642944	50	6054
2026-01-05 07:00:24.88	249.76	12.81	-34.9	-35.7	22.6	0.00e+00	0	22	0	1360003072	48	6019
2026-01-05 07:00:28.92	250.47	13.00	-34.5	-35.3	22.8	0.00e+00	0	22	0	1388314624	48	5735
2026-01-05 07:00:32.96	251.18	13.18	-34.6	-35.4	22.8	0.00e+00	0	22	0	1417674752	48	5811
2026-01-05 07:00:37.01	251.91	13.37	-35.7	-36.6	22.5	0.00e+00	0	22	0	1447034880	48	6637
2026-01-05 07:00:41.05	252.64	13.55	-35.1	-35.9	22.9	0.00e+00	0	22	0	1476395008	48	6154
2026-01-05 07:00:45.10	253.38	13.72	-34.3	-35.1	23.0	0.00e+00	0	22	0	1505755136	46	6249
2026-01-05 07:00:49.14	254.13	13.90	-34.2	-35.1	22.8	0.00e+00	0	22	0	1534066688	46	6248
2026-01-05 07:00:53.18	254.88	14.07	-34.4	-35.2	23.1	0.00e+00	0	22	0	1563426816	46	6322
2026-01-05 07:00:57.22	255.65	14.23	-33.9	-34.7	23.2	0.00e+00	0	22	0	1592786944	46	5989
2026-01-05 07:01:01.27	256.42	14.40	-34.1	-34.9	23.1	0.00e+00	0	22	0	1622147072	46	6120
2026-01-05 07:01:05.31	257.21	14.56	-34.1	-34.9	23.1	0.00e+00	0	22	0	1651507200	46	6171
2026-01-05 07:01:09.36	258.00	14.71	-33.9	-34.7	23.1	0.00e+00	0	22	0	1680867328	46	5992
2026-01-05 07:01:13.41	258.80	14.86	-33.8	-34.6	23.0	0.00e+00	0	22	0	1710227456	46	5930
2026-01-05 07:01:17.45	259.60	15.01	-33.8	-34.6	23.1	0.00e+00	0	22	0	1739587584	46	5955
2026-01-05 07:01:21.49	260.41	15.15	-34.2	-35.0	23.1	0.00e+00	0	22	0	1767899136	46	6237
2026-01-05 07:01:25.54	261.24	15.29	-33.6	-34.5	23.1	0.00e+00	0	22	0	1797259264	46	5842
2026-01-05 07:01:29.58	262.06	15.42	-33.4	-34.2	23.3	0.00e+00	0	22	0	1826619392	46	5669
2026-01-05 07:01:33.62	262.90	15.55	-33.7	-34.5	23.1	0.00e+00	0	22	0	1855979520	46	5865
2026-01-05 07:01:37.67	263.74	15.67	-33.5	-34.3	23.1	0.00e+00	0	22	0	1885339648	46	5712
2026-01-05 07:01:41.71	264.59	15.79	-33.4	-34.2	23.2	0.00e+00	0	22	0	1914699776	46	5665
2026-01-05 07:01:45.76	265.44	15.90	-34.8	-35.6	22.6	0.00e+00	0	22	0	1943011328	46	6685
2026-01-05 07:01:49.80	266.30	16.01	-33.6	-34.4	23.4	0.00e+00	0	22	0	1972371456	46	5800
2026-01-05 07:01:53.85	267.17	16.11	-33.5	-34.2	23.6	0.00e+00	0	22	0	2001731584	46	5692
2026-01-05 07:01:57.89	268.04	16.21	-33.7	-34.5	23.5	0.00e+00	0	22	0	2031091712	46	5831
2026-01-05 07:02:01.94	268.92	16.30	-33.5	-34.3	23.4	0.00e+00	0	22	0	2060451840	46	5757
2026-01-05 07:02:05.98	269.80	16.38	-33.1	-33.9	23.4	0.00e+00	0	22	0	2089811968	44	6148
2026-01-05 07:02:10.02	270.69	16.46	-33.6	-34.4	23.2	0.00e+00	0	22	0	2118123520	44	6493
2026-01-05 07:02:14.07	271.58	16.53	-33.5	-34.3	23.1	0.00e+00	0	22	0	2147483648	44	6423
2026-01-05 07:02:18.11	272.47	16.59	-33.2	-34.0	23.3	0.00e+00	0	22	0	2176843776	44	6208
2026-01-05 07:02:22.16	273.37	16.65	-33.2	-34.0	23.4	0.00e+00	0	22	0	2206203904	44	6179
2026-01-05 07:02:26.20	274.27	16.70	-33.0	-33.8	23.5	0.00e+00	0	22	0	2235564032	44	6081
2026-01-05 07:02:30.24	275.18	16.74	-33.4	-34.2	23.3	0.00e+00	0	22	0	2263875584	44	6373
2026-01-05 07:02:34.29	276.08	16.78	-33.3	-34.1	23.3	0.00e+00	0	22	0	2293235712	44	6306
2026-01-05 07:02:38.33	276.99	16.81	-33.2	-34.0	23.4	0.00e+00	0	22	0	2322595840	44	6219
2026-01-05 07:02:42.37	277.90	16.84	-33.1	-33.9	23.3	0.00e+00	0	22	0	2351955968	44	6163
2026-01-05 07:02:46.42	278.81	16.85	-33.7	-34.5	23.1	0.00e+00	0	22	0	2381316096	44	6562
2026-01-05 07:02:50.46	279.72	16.86	-33.2	-34.0	23.1	0.00e+00	0	22	0	2391801856	44	6220
2026-01-05 07:02:54.51	280.64	16.87	-33.8	-34.6	23.1	0.00e+00	0	22	101	2391801856	44	6650
2026-01-05 07:02:58.54	281.54	16.86	-33.6	-34.4	23.4	0.00e+00	0	22	101	2391801856	44	6518
2026-01-05 07:03:02.57	282.45	16.85	-33.4	-34.2	23.4	0.00e+00	0	22	101	2391801856	44	6366
2026-01-05 07:03:06.61	283.36	16.84	-33.4	-34.2	23.3	0.00e+00	0	22	101	2391801856	44	6364
2026-01-05 07:03:10.63	284.27	16.81	-33.4	-34.2	23.3	0.00e+00	0	22	101	2391801856	44	6326
2026-01-05 07:03:14.66	285.17	16.78	-33.5	-34.3	23.1	0.00e+00	0	22	101	2391801856	44	6433
2026-01-05 07:03:18.69	286.07	16.75	-33.5	-34.4	23.0	0.00e+00	0	22	101	2392850432	44	6477
2026-01-05 07:03:22.73	286.98	16.70	-33.6	-34.4	22.8	0.00e+00	0	22	101	2392850432	44	6529
2026-01-05 07:03:26.77	287.87	16.65	-33.0	-33.9	23.2	0.00e+00	0	22	101	2392850432	44	6116
2026-01-05 07:03:30.82	288.77	16.59	-34.1	-34.9	23.0	0.00e+00	0	22	101	2392850432	46	6144
2026-01-05 07:03:34.86	289.67	16.53	-33.9	-34.7	23.2	0.00e+00	0	22	101	2392850432	46	5988
2026-01-05 07:03:38.91	290.56	16.46	-34.1	-34.9	23.2	0.00e+00	0	22	101	2392850432	46	6104
2026-01-05 07:03:42.95	291.44	16.38	-34.7	-35.5	23.2	0.00e+00	0	22	101	2392850432	46	6552
2026-01-05 07:03:47.00	292.32	16.30	-34.1	-34.9	23.2	0.00e+00	0	22	101	2392850432	46	6147
2026-01-05 07:03:51.04	293.20	16.21	-33.9	-34.7	23.2	0.00e+00	0	22	101	2392850432	46	6022
2026-01-05 07:03:55.09	294.07	16.12	-34.5	-35.3	23.0	0.00e+00	0	22	101	2392850432	46	6438
2026-01-05 07:03:59.13	294.93	16.02	-33.8	-34.7	23.1	0.00e+00	0	22	101	2392850432	46	5982
2026-01-05 07:04:03.18	295.79	15.91	-33.7	-34.5	23.2	0.00e+00	0	22	101	2392850432	46	5843
2026-01-05 07:04:07.22	296.64	15.80	-34.3	-35.1	23.0	0.00e+00	0	22	101	2392850432	46	6288
2026-01-05 07:04:11.26	297.49	15.68	-34.3	-35.1	23.0	0.00e+00	0	22	101	2392850432	46	6316
2026-01-05 07:04:15.31	298.33	15.56	-34.2	-35.0	22.8	0.00e+00	0	22	101	2392850432	46	6243
2026-01-05 07:04:19.35	299.16	15.43	-34.7	-35.5	22.9	0.00e+00	0	22	101	2392850432	46	6607
2026-01-05 07:04:23.40	299.99	15.30	-34.1	-34.9	22.9	0.00e+00	0	22	101	2392850432	46	6145
2026-01-05 07:04:27.44	300.81	15.16	-34.5	-35.4	23.0	0.00e+00	0	22	101	2392850432	48	5778
2026-01-05 07:04:31.49	301.62	15.02	-34.4	-35.2	23.3	0.00e+00	0	22	101	2392850432	46	6361
2026-01-05 07:04:35.53	302.42	14.88	-34.1	-34.8	26.1	0.00e+00	0	22	101	2392850432	46	6038
2026-01-05 07:04:39.57	303.22	14.73	-34.5	-35.2	26.1	0.00e+00	0	22	101	2392850432	46	6341
2026-01-05 07:04:43.62	304.01	14.57	-35.3	-35.9	25.9	0.00e+00	0	22	101	2392850432	48	6114
2026-01-05 07:04:47.66	304.78	14.41	-35.8	-36.5	25.2	0.00e+00	0	22	101	2392850432	50	5838
2026-01-05 07:04:51.71	305.56	14.25	-35.7	-36.3	25.4	0.00e+00	0	22	101	2392850432	48	6456
2026-01-05 07:04:55.75	306.32	14.09	-34.8	-35.5	25.6	0.00e+00	0	22	101	2392850432	48	5843
2026-01-05 07:04:59.80	307.08	13.92	-35.3	-36.0	25.6	0.00e+00	0	22	101	2392850432	48	6208
2026-01-05 07:05:03.84	307.82	13.75	-34.7	-35.3	25.8	0.00e+00	0	22	101	2392850432	48	5734
2026-01-05 07:05:07.88	308.56	13.57	-35.1	-35.7	25.6	0.00e+00	0	22	101	2392850432	48	6012
2026-01-05 07:05:11.93	309.29	13.39	-35.3	-36.0	25.2	0.00e+00	0	22	101	2392850432	50	5525
2026-01-05 07:05:15.97	310.01	13.21	-35.4	-36.0	25.6	0.00e+00	0	23	101	2392850432	48	6175
2026-01-05 07:05:20.02	310.72	13.03	-35.0	-35.7	25.0	0.00e+00	0	22	101	2392850432	48	5988
2026-01-05 07:05:24.06	311.43	12.84	-34.7	-35.3	25.3	0.00e+00	0	22	101	2392850432	48	5726
2026-01-05 07:05:28.10	312.12	12.65	-36.2	-36.9	25.2	0.00e+00	0	22	101	2392850432	50	6108
2026-01-05 07:05:32.15	312.81	12.46	-35.2	-35.9	25.3	0.00e+00	0	23	101	2392850432	48	6120
2026-01-05 07:05:36.19	313.48	12.27	-35.6	-36.2	24.9	0.00e+00	0	22	101	2392850432	50	5683
2026-01-05 07:05:40.24	314.15	12.07	-35.3	-35.9	25.1	0.00e+00	0	22	101	2392850432	50	5476
2026-01-05 07:05:44.28	314.81	11.88	-37.2	-37.8	24.7	0.00e+00	0	22	101	2392850432	52	6098
2026-01-05 07:05:48.33	315.47	11.68	-36.2	-36.8	24.8	0.00e+00	0	22	101	2392850432	50	6082
2026-01-05 07:05:52.37	316.11	11.48	-37.7	-38.3	24.0	0.00e+00	0	22	101	2392850432	52	6436
2026-01-05 07:05:56.42	316.75	11.28	-36.0	-36.6	24.6	0.00e+00	0	22	101	2392850432	50	5940
2026-01-05 07:06:00.46	317.37	11.07	-35.9	-36.6	24.6	0.00e+00	0	22	101	2392850432	50	5908
2026-01-05 07:06:04.51	317.99	10.87	-35.3	-36.0	24.8	0.00e+00	0	22	101	2392850432	48	6200
2026-01-05 07:06:08.55	318.60	10.66	-35.5	-36.2	24.6	0.00e+00	0	22	101	2392850432	50	5652
2026-01-05 07:06:12.59	319.20	10.46	-36.0	-36.6	24.2	0.00e+00	0	22	101	2392850432	50	5954
2026-01-05 07:06:16.64	319.79	10.25	-36.5	-37.1	24.3	0.00e+00	0	22	101	2392850432	50	6305
2026-01-05 07:06:20.68	320.38	10.04	-35.8	-36.4	24.6	0.00e+00	0	23	101	2392850432	50	5812
2026-01-05 07:06:24.73	320.96	9.83	-35.5	-36.1	24.7	0.00e+00	0	22	101	2392850432	50	5626
2026-01-05 07:06:28.77	321.53	9.62	-36.3	-36.9	24.3	0.00e+00	0	22	101	2392850432	50	6152
2026-01-05 07:06:32.82	322.09	9.41	-35.9	-36.6	24.1	0.00e+00	0	22	101	2392850432	50	5908
2026-01-05 07:06:36.86	322.64	9.20	-36.2	-36.9	23.9	0.00e+00	0	23	101	2392850432	50	6128
2026-01-05 07:06:40.91	323.19	8.99	-37.1	-37.8	23.6	0.00e+00	0	23	101	2392850432	52	6078
2026-01-05 07:06:44.95	323.73	8.78	-36.3	-37.0	24.1	0.00e+00	0	23	101	2392850432	52	5531
2026-01-05 07:06:48.99	324.26	8.57	-36.2	-36.8	24.0	0.00e+00	0	22	101	2392850432	52	5434
2026-01-05 07:06:53.04	324.78	8.35	-36.1	-36.7	24.1	0.00e+00	0	23	101	2392850432	50	6029
2026-01-05 07:06:57.08	325.30	8.14	-35.7	-36.4	24.0	0.00e+00	0	22	101	2392850432	50	5784
2026-01-05 07:07:01.13	325.81	7.93	-36.2	-36.8	23.7	0.00e+00	0	22	101	2392850432	50	6102
2026-01-05 07:07:05.17	326.31	7.72	-37.3	-38.0	23.8	0.00e+00	0	22	101	2392850432	52	6215
2026-01-05 07:07:09.22	326.80	7.50	-36.6	-37.3	23.3	0.00e+00	0	23	101	2392850432	52	5736
2026-01-05 07:07:13.26	327.29	7.29	-36.5	-37.2	23.2	0.00e+00	0	23	101	2392850432	52	5679
2026-01-05 07:07:17.30	327.77	7.08	-36.4	-37.1	23.5	0.00e+00	0	22	101	2392850432	52	5601
2026-01-05 07:07:21.35	328.25	6.86	-36.3	-37.0	23.3	0.00e+00	0	22	101	2392850432	52	5563
2026-01-05 07:07:25.39	328.71	6.65	-36.2	-36.9	23.2	0.00e+00	0	23	101	2392850432	50	6171
2026-01-05 07:07:29.44	329.18	6.44	-36.5	-37.3	23.0	0.00e+00	0	23	101	2392850432	50	6397
2026-01-05 07:07:33.49	329.63	6.23	-36.7	-37.4	23.0	0.00e+00	0	23	101	2392850432	52	5772
2026-01-05 07:07:37.53	330.08	6.02	-36.6	-37.3	22.9	0.00e+00	0	22	101	2392850432	52	5743
2026-01-05 07:07:41.57	330.52	5.81	-36.7	-37.5	22.8	0.00e+00	0	23	101	2392850432	52	5833
2026-01-05 07:07:45.62	330.96	5.59	-38.9	-39.7	21.0	0.00e+00	0	23	101	2392850432	54	6718
2026-01-05 07:07:49.66	331.39	5.38	-38.6	-39.4	20.5	0.00e+00	0	23	101	2392850432	54	6529
2026-01-05 07:07:53.71	331.82	5.17	-37.8	-38.5	21.8	0.00e+00	0	23	101	2392850432	54	5896
2026-01-05 07:07:57.75	332.24	4.96	-37.4	-38.1	21.8	0.00e+00	0	23	101	2392850432	54	5617
2026-01-05 07:08:01.80	332.65	4.76	-38.0	-38.9	20.8	0.00e+00	0	23	101	2392850432	54	6111
2026-01-05 07:08:05.84	333.06	4.55	-40.1	-41.3	16.6	0.00e+00	0	22	101	2392850432	58	6444
2026-01-05 07:08:09.88	333.46	4.34	-43.0	-45.5	11.0	9.03e-04	0	23	101	2392850432	60	9254
2026-01-05 07:08:13.93	333.86	4.13	-44.7	-50.0	5.1	6.89e-01	0	23	101	2392850432	60	15597
2026-01-05 07:08:17.97	334.25	3.92	-45.3	-55.1	3.6	8.45e-01	0	23	104	2392850432	60	28122
2026-01-05 07:08:22.01	334.63	3.72	-46.0	-57.1	3.6	8.44e-01	0	23	104	2392850432	60	35211
2026-01-05 07:08:26.06	335.02	3.51	-45.8	-57.0	3.6	8.45e-01	0	22	104	2392850432	60	34802
2026-01-05 07:08:30.10	335.39	3.31	-45.6	-57.0	3.6	8.45e-01	0	23	104	2392850432	60	35013
2026-01-05 07:08:34.14	335.76	3.10	-45.6	-57.1	3.5	8.46e-01	0	23	104	2392850432	60	35435
2026-01-05 07:08:38.19	336.13	2.90	-45.7	-57.2	3.6	8.44e-01	0	23	104	2392850432	60	35896
2026-01-05 07:08:42.23	336.49	2.69	-49.9	-61.7	3.6	8.45e-01	0	23	104	2392850432	60	60119
2026-01-05 07:08:46.28	336.85	2.49	-51.7	-63.3	3.6	8.45e-01	0	23	104	2392850432	60	72080
2026-01-05 07:08:50.32	337.20	2.29	-51.2	-62.9	3.6	8.45e-01	0	23	104	2392850432	60	69021
2026-01-05 07:08:54.37	337.55	2.08	-51.8	-63.4	3.6	8.44e-01	0	23	104	2392850432	60	72765
2026-01-05 07:08:58.41	337.89	1.88	-51.1	-62.6	3.6	8.45e-01	0	23	104	2392850432	60	66594
2026-01-05 07:09:02.46	338.23	1.68	-51.1	-62.6	3.6	8.47e-01	0	23	104	2392850432	60	66514
2026-01-05 07:09:06.50	338.57	1.48	-51.5	-62.9	3.6	8.45e-01	0	23	104	2392850432	60	68998
2026-01-05 07:09:10.54	338.90	1.28	-51.9	-63.3	3.6	8.46e-01	0	23	104	2392850432	60	72436
2026-01-05 07:09:14.59	339.22	1.08	-50.9	-62.4	3.6	8.45e-01	0	23	104	2392850432	60	64927
2026-01-05 07:09:18.63	339.55	0.89	-51.3	-62.8	3.6	8.45e-01	0	23	104	2392850432	60	68095
2026-01-05 07:09:22.67	339.87	0.69	-50.8	-62.3	3.6	8.45e-01	0	23	104	2392850432	60	63995
2026-01-05 07:09:26.72	340.18	0.49	-51.1	-62.6	3.6	8.46e-01	0	23	104	2392850432	60	66739
2026-01-05 07:09:30.76	340.49	0.30	-51.2	-62.7	3.6	8.45e-01	0	23	104	2392850432	60	67303
2026-01-05 07:09:34.81	340.80	0.10	-52.3	-63.8	3.6	8.46e-01	0	23	104	2392850432	60	76294

#Closed at: 2026-01-05 07:09:37
#Recorded file [2392 MB]: D:/lorett/data/35034_260105_095618.dat