passes_logs/2026/01/05/R4.6S_Anadyr_2ch/R4.6S_Anadyr_2ch__20260105_001617_NOAA_21_JPSS-2_rec.log

#Pass ID: 20260105_001617_NOAA 21 (JPSS-2)
#Satellite: NOAA 21 (JPSS-2)
#Configuration: NOAA-21
#almurnet v.1.7.20251203
#Start time: 2026-01-05 00:16:18

#Version: 2.2.20231116
#Station: R4.6S_Anadyr_2ch
#Location: 177.4865 lon 64.73178 lat
#TLE: 1 54234U 22150A   25350.97269056  .00000057  00000+0  47676-4 0  9992
#TLE: 2 54234  98.7466 287.2282 0002043  29.8355 330.2937 14.19525482160692

#Time	Az	El	Level	Level2	SNR	BER	BlckErr	Temp	State	Recorded	gain1	gain2
2026-01-05 00:16:18.02	157.66	0.04	-51.7	-66.8	3.4	1.51e+00	0	26	0	0	60	107087
2026-01-05 00:16:22.06	157.68	0.29	-51.9	-65.0	3.5	1.52e+00	0	27	104	0	60	83870
2026-01-05 00:16:26.11	157.70	0.53	-52.0	-65.1	3.5	1.52e+00	0	27	104	0	60	84914
2026-01-05 00:16:30.15	157.72	0.78	-51.1	-64.1	3.5	1.52e+00	0	28	104	0	60	75966
2026-01-05 00:16:34.19	157.75	1.03	-49.9	-62.9	3.5	1.52e+00	0	28	104	0	60	66400
2026-01-05 00:16:38.24	157.77	1.28	-49.8	-62.8	3.5	1.52e+00	0	28	104	0	60	64997
2026-01-05 00:16:42.28	157.79	1.54	-49.9	-62.8	3.5	1.52e+00	0	28	104	0	60	65227
2026-01-05 00:16:46.32	157.81	1.79	-49.7	-62.5	3.5	1.52e+00	0	28	104	0	60	63355
2026-01-05 00:16:50.37	157.83	2.05	-49.7	-62.4	3.5	1.52e+00	0	28	104	0	60	62092
2026-01-05 00:16:54.41	157.85	2.32	-49.9	-62.3	3.5	1.52e+00	0	28	104	0	60	61894
2026-01-05 00:16:58.45	157.88	2.58	-49.9	-62.0	3.5	1.52e+00	0	28	104	0	60	59771
2026-01-05 00:17:02.50	157.90	2.85	-49.5	-59.4	3.6	1.51e+00	0	28	104	0	60	44338
2026-01-05 00:17:06.54	157.92	3.11	-47.1	-50.6	11.3	2.07e-03	123	28	0	6291456	60	16079
2026-01-05 00:17:10.58	157.95	3.39	-43.7	-45.5	16.7	0.00e+00	123	28	0	18874368	60	8961
2026-01-05 00:17:14.63	157.97	3.66	-43.6	-45.3	16.6	0.00e+00	123	28	0	31457280	60	8760
2026-01-05 00:17:18.67	157.99	3.94	-42.5	-44.3	17.0	4.50e-06	123	28	104	35651584	60	7789
2026-01-05 00:17:22.72	158.02	4.22	-42.8	-44.3	17.9	0.00e+00	123	28	0	42991616	60	7799
2026-01-05 00:17:26.76	158.04	4.50	-42.3	-43.7	19.1	0.00e+00	123	28	0	55574528	60	7288
2026-01-05 00:17:30.81	158.06	4.79	-42.7	-44.3	18.3	0.00e+00	123	28	0	68157440	60	7772
2026-01-05 00:17:34.85	158.09	5.08	-42.5	-44.0	18.7	0.00e+00	123	28	0	80740352	60	7489
2026-01-05 00:17:38.89	158.11	5.37	-41.0	-42.3	20.1	0.00e+00	123	29	0	93323264	60	6163
2026-01-05 00:17:42.94	158.14	5.66	-41.1	-42.4	20.1	0.00e+00	123	28	0	105906176	60	6245
2026-01-05 00:17:46.99	158.16	5.96	-40.9	-42.1	20.6	0.00e+00	123	28	0	118489088	60	6015
2026-01-05 00:17:51.03	158.19	6.27	-40.6	-41.8	20.8	0.00e+00	123	28	0	131072000	60	5831
2026-01-05 00:17:55.07	158.21	6.57	-40.5	-41.7	21.0	0.00e+00	122	28	0	144703488	60	5763
2026-01-05 00:17:59.12	158.24	6.88	-40.0	-41.1	21.4	0.00e+00	123	29	0	157286400	60	5386
2026-01-05 00:18:03.16	158.26	7.20	-39.7	-40.8	21.6	0.00e+00	123	28	0	169869312	58	5829
2026-01-05 00:18:07.21	158.29	7.51	-39.8	-41.0	21.4	0.00e+00	120	28	0	182452224	58	5930
2026-01-05 00:18:11.25	158.32	7.83	-39.9	-41.0	21.6	0.00e+00	122	28	0	195035136	58	5984
2026-01-05 00:18:15.29	158.34	8.16	-40.4	-41.6	21.2	0.00e+00	122	29	0	207618048	58	6367
2026-01-05 00:18:19.34	158.37	8.49	-39.8	-40.9	21.3	0.00e+00	121	28	0	220200960	58	5916
2026-01-05 00:18:23.38	158.40	8.82	-39.8	-40.9	21.5	0.00e+00	120	29	0	232783872	58	5882
2026-01-05 00:18:27.42	158.43	9.16	-39.4	-40.5	22.2	0.00e+00	122	29	0	245366784	58	5610
2026-01-05 00:18:31.47	158.46	9.51	-39.1	-40.1	22.5	0.00e+00	123	29	0	257949696	56	6056
2026-01-05 00:18:35.51	158.48	9.85	-38.7	-39.7	22.7	0.00e+00	120	29	0	270532608	56	5744
2026-01-05 00:18:39.56	158.51	10.21	-38.7	-39.7	22.8	0.00e+00	120	29	0	283115520	56	5744
2026-01-05 00:18:43.60	158.54	10.57	-38.3	-39.3	22.9	0.00e+00	122	29	0	295698432	56	5510
2026-01-05 00:18:47.65	158.57	10.93	-38.2	-39.2	23.2	0.00e+00	123	29	0	308281344	54	6086
2026-01-05 00:18:51.69	158.60	11.30	-38.1	-39.1	23.3	0.00e+00	122	29	0	320864256	54	5999
2026-01-05 00:18:55.73	158.63	11.67	-37.8	-38.7	23.4	0.00e+00	120	29	0	333447168	54	5777
2026-01-05 00:18:59.78	158.67	12.05	-37.9	-38.8	23.4	0.00e+00	123	29	0	346030080	54	5840
2026-01-05 00:19:03.82	158.70	12.44	-37.7	-38.7	23.5	0.00e+00	123	29	0	358612992	54	5734
2026-01-05 00:19:07.87	158.73	12.83	-37.8	-38.8	23.7	0.00e+00	122	29	0	371195904	54	5802
2026-01-05 00:19:11.91	158.76	13.23	-37.6	-38.5	23.7	0.00e+00	123	29	0	384827392	54	5646
2026-01-05 00:19:15.96	158.80	13.64	-37.9	-38.9	23.8	0.00e+00	123	29	0	397410304	54	5886
2026-01-05 00:19:20.00	158.83	14.05	-37.8	-38.7	23.7	0.00e+00	122	29	0	409993216	54	5786
2026-01-05 00:19:24.04	158.86	14.47	-37.6	-38.6	23.8	0.00e+00	123	29	0	422576128	54	5676
2026-01-05 00:19:28.09	158.90	14.90	-37.4	-38.3	24.0	0.00e+00	123	29	0	435159040	54	5489
2026-01-05 00:19:32.13	158.93	15.33	-37.4	-38.3	24.2	0.00e+00	122	29	0	447741952	54	5526
2026-01-05 00:19:36.18	158.97	15.78	-38.0	-39.0	23.9	0.00e+00	123	29	0	460324864	54	5933
2026-01-05 00:19:40.22	159.01	16.23	-37.5	-38.4	24.0	0.00e+00	123	29	0	472907776	54	5586
2026-01-05 00:19:44.27	159.04	16.69	-37.7	-38.6	23.9	0.00e+00	122	29	0	485490688	54	5701
2026-01-05 00:19:48.31	159.08	17.16	-38.0	-39.0	23.6	0.00e+00	123	29	0	498073600	54	5949
2026-01-05 00:19:52.36	159.12	17.63	-38.2	-39.1	23.6	0.00e+00	122	29	0	510656512	54	6048
2026-01-05 00:19:56.40	159.16	18.12	-37.7	-38.6	23.8	0.00e+00	123	29	0	523239424	54	5723
2026-01-05 00:20:00.44	159.20	18.62	-37.7	-38.7	23.7	0.00e+00	123	29	0	535822336	54	5741
2026-01-05 00:20:04.49	159.25	19.13	-37.8	-38.7	23.8	0.00e+00	122	29	0	548405248	54	5766
2026-01-05 00:20:08.53	159.29	19.64	-37.6	-38.5	23.9	0.00e+00	123	29	0	560988160	54	5650
2026-01-05 00:20:12.58	159.33	20.17	-37.6	-38.5	24.1	0.00e+00	122	29	0	573571072	54	5656
2026-01-05 00:20:16.62	159.38	20.71	-37.0	-37.9	24.4	0.00e+00	123	29	0	586153984	52	5889
2026-01-05 00:20:20.67	159.42	21.26	-37.0	-37.9	24.5	0.00e+00	118	29	0	598736896	52	5897
2026-01-05 00:20:24.71	159.47	21.83	-36.7	-37.6	24.9	0.00e+00	122	29	0	612368384	52	5705
2026-01-05 00:20:28.76	159.52	22.41	-36.6	-37.5	24.8	0.00e+00	123	29	0	624951296	52	5600
2026-01-05 00:20:32.80	159.57	23.00	-37.0	-37.9	24.6	0.00e+00	127	29	0	637534208	52	5875
2026-01-05 00:20:36.85	159.62	23.60	-36.4	-37.2	24.9	0.00e+00	120	29	0	650117120	52	5466
2026-01-05 00:20:40.89	159.67	24.22	-36.2	-37.1	25.3	0.00e+00	123	29	0	662700032	50	6005
2026-01-05 00:20:44.94	159.73	24.85	-36.1	-36.9	25.1	0.00e+00	122	29	0	675282944	50	5919
2026-01-05 00:20:48.98	159.78	25.50	-36.5	-37.4	24.9	0.00e+00	122	29	0	687865856	50	6239
2026-01-05 00:20:53.02	159.84	26.17	-37.6	-38.5	24.5	0.00e+00	120	29	0	700448768	52	6286
2026-01-05 00:20:57.07	159.90	26.85	-37.8	-38.7	24.2	0.00e+00	123	29	0	713031680	52	6432
2026-01-05 00:21:01.11	159.96	27.55	-37.6	-38.5	24.2	0.00e+00	120	29	0	725614592	52	6315
2026-01-05 00:21:05.16	160.02	28.27	-37.8	-38.7	24.0	0.00e+00	123	29	0	738197504	54	5768
2026-01-05 00:21:09.20	160.09	29.00	-37.8	-38.8	24.1	0.00e+00	120	29	0	750780416	54	5810
2026-01-05 00:21:13.25	160.16	29.76	-37.8	-38.7	24.3	0.00e+00	123	29	0	763363328	54	5748
2026-01-05 00:21:17.29	160.23	30.54	-37.2	-38.1	24.3	0.00e+00	122	29	0	775946240	52	6019
2026-01-05 00:21:21.34	160.30	31.34	-37.1	-37.9	24.9	0.00e+00	122	29	0	788529152	52	5922
2026-01-05 00:21:25.38	160.38	32.16	-36.7	-37.6	24.8	0.00e+00	122	29	0	801112064	52	5676
2026-01-05 00:21:29.42	160.46	33.00	-37.6	-38.5	24.3	0.00e+00	123	29	0	813694976	52	6341
2026-01-05 00:21:33.47	160.54	33.87	-38.0	-38.9	23.9	0.00e+00	123	29	0	826277888	52	6599
2026-01-05 00:21:37.51	160.63	34.77	-38.6	-39.5	23.6	0.00e+00	122	29	0	838860800	54	6315
2026-01-05 00:21:41.56	160.72	35.69	-39.4	-40.4	23.0	0.00e+00	123	29	0	852492288	56	6214
2026-01-05 00:21:45.60	160.82	36.63	-40.0	-41.1	22.6	0.00e+00	122	29	0	865075200	58	5999
2026-01-05 00:21:49.65	160.92	37.61	-40.9	-41.9	22.5	0.00e+00	123	29	0	877658112	58	6631
2026-01-05 00:21:53.69	161.02	38.61	-39.3	-40.3	22.9	0.00e+00	123	29	0	890241024	56	6182
2026-01-05 00:21:57.73	161.14	39.65	-39.3	-40.3	23.2	0.00e+00	123	29	0	902823936	56	6159
2026-01-05 00:22:01.78	161.26	40.72	-38.3	-39.2	23.8	0.00e+00	123	29	0	915406848	56	5437
2026-01-05 00:22:05.82	161.38	41.81	-39.3	-40.2	23.0	0.00e+00	123	29	0	927989760	56	6128
2026-01-05 00:22:09.87	161.52	42.95	-40.6	-41.7	21.6	0.00e+00	122	29	0	940572672	58	6494
2026-01-05 00:22:13.91	161.66	44.11	-40.2	-41.3	22.1	0.00e+00	122	29	0	953155584	58	6160
2026-01-05 00:22:17.96	161.81	45.32	-40.5	-41.6	22.3	0.00e+00	122	29	0	965738496	58	6353
2026-01-05 00:22:22.00	161.97	46.56	-40.2	-41.3	22.0	0.00e+00	123	29	0	978321408	58	6136
2026-01-05 00:22:26.05	162.15	47.84	-39.4	-40.4	23.0	0.00e+00	122	29	0	990904320	56	6242
2026-01-05 00:22:30.09	162.34	49.16	-39.3	-40.2	23.3	0.00e+00	123	29	0	1003487232	56	6124
2026-01-05 00:22:34.13	162.55	50.51	-38.5	-39.4	23.6	0.00e+00	123	29	0	1016070144	56	5585
2026-01-05 00:22:38.18	162.77	51.91	-38.2	-39.1	23.9	0.00e+00	123	29	0	1028653056	54	6037
2026-01-05 00:22:42.22	163.02	53.35	-38.1	-39.0	23.8	0.00e+00	123	29	0	1041235968	54	5956
2026-01-05 00:22:46.27	163.29	54.83	-38.0	-38.9	23.9	0.00e+00	122	29	0	1053818880	54	5895
2026-01-05 00:22:50.31	163.58	56.35	-38.2	-39.2	23.6	0.00e+00	120	29	0	1066401792	54	6077
2026-01-05 00:22:54.36	163.92	57.92	-37.0	-37.9	24.6	0.00e+00	121	29	0	1080033280	52	5907
2026-01-05 00:22:58.40	164.29	59.52	-36.8	-37.7	24.7	0.00e+00	122	29	0	1092616192	52	5751
2026-01-05 00:23:02.44	164.71	61.17	-36.4	-37.3	25.0	0.00e+00	123	29	0	1105199104	52	5476
2026-01-05 00:23:06.48	165.18	62.86	-36.1	-37.0	25.4	0.00e+00	123	29	0	1117782016	50	5931
2026-01-05 00:23:10.52	165.73	64.58	-36.1	-36.9	25.0	0.00e+00	122	29	0	1130364928	50	5916
2026-01-05 00:23:14.57	166.36	66.35	-36.3	-37.2	25.1	0.00e+00	123	29	0	1142947840	50	6116
2026-01-05 00:23:18.61	167.11	68.15	-35.9	-36.8	25.6	0.00e+00	123	29	0	1155530752	50	5808
2026-01-05 00:23:22.66	168.00	69.99	-36.5	-37.4	25.2	0.00e+00	123	29	0	1168113664	50	6217
2026-01-05 00:23:26.70	169.08	71.86	-35.5	-36.3	25.6	0.00e+00	120	29	0	1180696576	50	5518
2026-01-05 00:23:30.75	170.43	73.75	-35.6	-36.4	26.0	0.00e+00	121	29	0	1193279488	50	5559
2026-01-05 00:23:34.79	172.15	75.66	-36.7	-37.6	25.5	0.00e+00	123	29	0	1205862400	52	5681
2026-01-05 00:23:38.84	174.42	77.58	-36.2	-37.2	24.6	0.00e+00	123	29	0	1218445312	50	6066
2026-01-05 00:23:42.88	177.53	79.50	-36.4	-37.3	24.5	0.00e+00	123	29	0	1231028224	52	5516
2026-01-05 00:23:46.92	182.05	81.39	-37.4	-38.3	24.4	0.00e+00	122	29	0	1243611136	52	6167
2026-01-05 00:23:50.97	189.10	83.22	-37.2	-38.2	24.6	0.00e+00	123	29	0	1256194048	52	6081
2026-01-05 00:23:55.01	201.02	84.88	-37.8	-38.8	24.6	0.00e+00	123	29	0	1268776960	52	6517
2026-01-05 00:23:59.03	222.23	86.14	-38.0	-38.9	24.6	0.00e+00	123	29	0	1281359872	52	6621
2026-01-05 00:24:03.07	254.55	86.52	-37.2	-38.1	24.5	0.00e+00	123	29	0	1293942784	50	6783
2026-01-05 00:24:07.12	283.78	85.76	-36.8	-37.7	25.3	0.00e+00	122	29	0	1306525696	52	5728
2026-01-05 00:24:11.16	301.11	84.32	-36.5	-37.4	25.2	0.00e+00	123	29	0	1320157184	52	5568
2026-01-05 00:24:15.20	310.87	82.58	-36.7	-37.7	24.4	0.00e+00	120	29	0	1331691520	52	5729
2026-01-05 00:24:19.25	316.83	80.72	-37.2	-38.1	25.4	0.00e+00	123	29	0	1345323008	52	6034
2026-01-05 00:24:23.29	320.75	78.82	-36.5	-37.4	25.3	0.00e+00	120	29	0	1357905920	50	6211
2026-01-05 00:24:27.34	323.52	76.90	-36.5	-37.3	25.4	0.00e+00	121	29	0	1370488832	50	6189
2026-01-05 00:24:31.38	325.56	74.98	-36.1	-37.0	25.5	0.00e+00	123	29	0	1383071744	50	5962
2026-01-05 00:24:35.43	327.13	73.08	-37.3	-38.2	25.2	0.00e+00	123	29	0	1395654656	54	5432
2026-01-05 00:24:39.47	328.37	71.20	-36.5	-37.3	25.8	0.00e+00	122	29	0	1408237568	50	6179
2026-01-05 00:24:43.52	329.38	69.35	-38.5	-39.5	24.6	0.00e+00	123	29	0	1420820480	54	6295
2026-01-05 00:24:47.56	330.21	67.53	-36.0	-36.9	25.4	0.00e+00	123	29	0	1433403392	50	5873
2026-01-05 00:24:51.61	330.92	65.74	-35.7	-36.5	25.4	0.00e+00	123	29	0	1445986304	50	5641
2026-01-05 00:24:55.65	331.52	63.99	-35.0	-35.8	26.0	0.00e+00	122	29	0	1458569216	48	5816
2026-01-05 00:24:59.69	332.04	62.28	-37.2	-38.1	24.5	0.00e+00	122	29	0	1471152128	52	6040
2026-01-05 00:25:03.74	332.49	60.61	-36.2	-37.1	25.1	0.00e+00	123	29	0	1483735040	50	5995
2026-01-05 00:25:07.78	332.89	58.99	-37.4	-38.3	24.6	0.00e+00	123	29	0	1496317952	52	6177
2026-01-05 00:25:11.82	333.25	57.40	-36.4	-37.3	25.0	0.00e+00	122	29	0	1508900864	50	6168
2026-01-05 00:25:15.87	333.57	55.85	-38.6	-39.6	23.2	0.00e+00	123	29	0	1521483776	54	6364
2026-01-05 00:25:19.91	333.86	54.35	-38.4	-39.4	23.5	0.00e+00	122	29	0	1534066688	54	6214
2026-01-05 00:25:23.96	334.12	52.89	-37.7	-38.6	24.2	0.00e+00	121	29	0	1547698176	52	6366
2026-01-05 00:25:28.00	334.36	51.47	-39.1	-40.1	22.7	0.00e+00	123	29	0	1559232512	56	6063
2026-01-05 00:25:32.04	334.57	50.10	-39.9	-40.9	22.4	0.00e+00	120	29	0	1571815424	56	6636
2026-01-05 00:25:36.09	334.78	48.76	-39.1	-40.1	23.0	0.00e+00	122	29	0	1585446912	58	5397
2026-01-05 00:25:40.13	334.96	47.46	-41.4	-42.7	21.0	0.00e+00	121	29	0	1598029824	60	6456
2026-01-05 00:25:44.18	335.13	46.20	-40.9	-42.0	21.8	0.00e+00	123	29	0	1610612736	60	5976
2026-01-05 00:25:48.22	335.29	44.98	-41.4	-42.6	21.3	0.00e+00	122	29	0	1623195648	58	7155
2026-01-05 00:25:52.27	335.44	43.79	-41.8	-43.0	20.7	0.00e+00	123	29	0	1635778560	60	6684
2026-01-05 00:25:56.31	335.59	42.64	-39.1	-40.0	23.2	0.00e+00	123	29	0	1648361472	56	5981
2026-01-05 00:26:00.36	335.72	41.52	-39.8	-40.9	22.0	0.00e+00	123	29	0	1660944384	58	5879
2026-01-05 00:26:04.40	335.84	40.44	-40.3	-41.4	21.9	0.00e+00	123	29	0	1673527296	58	6252
2026-01-05 00:26:08.44	335.96	39.39	-39.8	-40.9	22.1	0.00e+00	123	29	0	1686110208	58	5872
2026-01-05 00:26:12.49	336.07	38.36	-38.9	-39.9	23.0	0.00e+00	122	29	0	1698693120	56	5890
2026-01-05 00:26:16.53	336.18	37.38	-37.8	-38.8	23.4	0.00e+00	123	29	0	1711276032	54	5814
2026-01-05 00:26:20.58	336.28	36.41	-37.8	-38.7	23.6	0.00e+00	123	29	0	1723858944	54	5768
2026-01-05 00:26:24.62	336.37	35.48	-38.3	-39.2	23.5	0.00e+00	122	29	0	1736441856	54	6121
2026-01-05 00:26:28.66	336.46	34.57	-38.6	-39.6	23.2	0.00e+00	122	29	0	1749024768	54	6392
2026-01-05 00:26:32.71	336.55	33.69	-38.6	-39.5	23.4	0.00e+00	122	29	0	1761607680	54	6341
2026-01-05 00:26:36.75	336.63	32.83	-37.6	-38.5	24.3	0.00e+00	123	29	0	1774190592	54	5616
2026-01-05 00:26:40.80	336.72	32.00	-37.6	-38.5	24.4	0.00e+00	123	29	0	1786773504	54	5650
2026-01-05 00:26:44.84	336.79	31.19	-37.2	-38.1	24.3	0.00e+00	122	29	0	1799356416	54	5368
2026-01-05 00:26:48.89	336.87	30.40	-37.8	-38.8	23.8	0.00e+00	123	29	0	1812987904	54	5824
2026-01-05 00:26:52.93	336.94	29.63	-37.8	-38.8	23.8	0.00e+00	123	29	0	1825570816	54	5815
2026-01-05 00:26:56.98	337.01	28.88	-37.7	-38.6	23.7	0.00e+00	123	29	0	1838153728	54	5718
2026-01-05 00:27:01.02	337.07	28.16	-37.9	-38.9	23.2	0.00e+00	123	29	0	1850736640	54	5903
2026-01-05 00:27:05.06	337.14	27.45	-37.4	-38.4	23.6	0.00e+00	123	29	0	1863319552	54	5564
2026-01-05 00:27:09.11	337.20	26.76	-37.2	-38.2	23.9	0.00e+00	120	29	0	1875902464	52	6092
2026-01-05 00:27:13.15	337.26	26.08	-36.6	-37.5	24.5	0.00e+00	122	29	0	1888485376	52	5636
2026-01-05 00:27:17.20	337.32	25.42	-36.4	-37.3	24.7	0.00e+00	122	29	0	1901068288	52	5513
2026-01-05 00:27:21.24	337.38	24.78	-36.4	-37.4	24.7	0.00e+00	122	29	0	1913651200	52	5534
2026-01-05 00:27:25.29	337.43	24.16	-36.7	-37.6	24.7	0.00e+00	121	29	0	1926234112	52	5675
2026-01-05 00:27:29.33	337.49	23.54	-36.4	-37.3	24.9	0.00e+00	123	29	0	1938817024	52	5504
2026-01-05 00:27:33.37	337.54	22.95	-36.6	-37.5	24.9	0.00e+00	120	29	0	1951399936	52	5605
2026-01-05 00:27:37.42	337.59	22.36	-36.5	-37.3	24.9	0.00e+00	123	29	0	1963982848	52	5518
2026-01-05 00:27:41.46	337.64	21.79	-36.4	-37.3	24.9	0.00e+00	120	29	0	1976565760	52	5514
2026-01-05 00:27:45.51	337.69	21.23	-36.9	-37.8	24.6	0.00e+00	122	29	0	1989148672	52	5823
2026-01-05 00:27:49.55	337.74	20.69	-37.0	-38.0	24.4	0.00e+00	123	29	0	2001731584	52	5928
2026-01-05 00:27:53.59	337.78	20.15	-37.0	-37.9	24.4	0.00e+00	120	29	0	2014314496	52	5880
2026-01-05 00:27:57.64	337.83	19.63	-37.1	-38.0	24.2	0.00e+00	120	29	0	2026897408	52	5964
2026-01-05 00:28:01.68	337.87	19.12	-37.2	-38.1	24.3	0.00e+00	123	29	0	2039480320	52	6016
2026-01-05 00:28:05.73	337.92	18.62	-37.3	-38.2	24.1	0.00e+00	123	29	0	2053111808	52	6107
2026-01-05 00:28:09.77	337.96	18.12	-37.2	-38.2	24.1	0.00e+00	122	29	0	2065694720	52	6073
2026-01-05 00:28:13.82	338.00	17.64	-37.2	-38.1	24.0	0.00e+00	123	29	0	2078277632	52	6054
2026-01-05 00:28:17.86	338.04	17.17	-37.4	-38.4	23.9	0.00e+00	123	29	0	2090860544	52	6207
2026-01-05 00:28:21.90	338.08	16.70	-37.6	-38.5	23.9	0.00e+00	123	29	0	2103443456	52	6291
2026-01-05 00:28:25.95	338.12	16.25	-37.7	-38.7	23.6	0.00e+00	122	29	0	2116026368	52	6456
2026-01-05 00:28:29.99	338.16	15.80	-38.0	-39.0	23.5	0.00e+00	123	29	0	2128609280	52	6656
2026-01-05 00:28:34.04	338.20	15.36	-38.1	-39.0	23.5	0.00e+00	123	29	0	2141192192	54	5986
2026-01-05 00:28:38.08	338.24	14.93	-37.8	-38.8	23.5	0.00e+00	122	29	0	2153775104	54	5831
2026-01-05 00:28:42.13	338.28	14.51	-38.0	-39.0	23.3	0.00e+00	123	29	0	2166358016	54	5971
2026-01-05 00:28:46.17	338.31	14.09	-38.6	-39.6	22.8	0.00e+00	123	29	0	2178940928	54	6389
2026-01-05 00:28:50.22	338.35	13.68	-38.0	-38.9	23.3	0.00e+00	121	29	0	2191523840	54	5916
2026-01-05 00:28:54.26	338.38	13.28	-38.2	-39.2	23.1	0.00e+00	123	29	0	2204106752	54	6097
2026-01-05 00:28:58.31	338.42	12.88	-38.2	-39.1	23.1	0.00e+00	122	29	0	2216689664	54	6054
2026-01-05 00:29:02.35	338.45	12.49	-38.1	-39.1	23.1	0.00e+00	122	29	0	2229272576	54	6033
2026-01-05 00:29:06.40	338.49	12.11	-38.0	-38.9	23.2	0.00e+00	123	29	0	2241855488	54	5907
2026-01-05 00:29:10.44	338.52	11.73	-38.2	-39.1	23.0	0.00e+00	123	29	0	2254438400	54	6058
2026-01-05 00:29:14.48	338.56	11.36	-38.1	-39.0	23.1	0.00e+00	123	29	0	2267021312	54	5986
2026-01-05 00:29:18.53	338.59	10.99	-38.1	-39.1	23.1	0.00e+00	122	29	0	2280652800	54	6015
2026-01-05 00:29:22.57	338.62	10.63	-38.0	-38.9	23.1	0.00e+00	122	29	0	2293235712	54	5922
2026-01-05 00:29:26.62	338.65	10.28	-38.2	-39.2	22.9	0.00e+00	123	29	0	2305818624	54	6083
2026-01-05 00:29:30.66	338.69	9.93	-38.3	-39.2	22.8	0.00e+00	123	29	0	2318401536	54	6134
2026-01-05 00:29:34.70	338.72	9.58	-38.3	-39.3	22.7	0.00e+00	123	29	0	2330984448	54	6151
2026-01-05 00:29:38.75	338.75	9.24	-38.4	-39.4	22.8	0.00e+00	123	29	0	2343567360	54	6239
2026-01-05 00:29:42.79	338.78	8.90	-38.3	-39.3	22.8	0.00e+00	123	29	0	2356150272	54	6188
2026-01-05 00:29:46.84	338.81	8.57	-38.5	-39.5	22.6	0.00e+00	122	29	0	2368733184	54	6312
2026-01-05 00:29:50.88	338.84	8.24	-38.8	-39.9	22.3	0.00e+00	122	29	0	2381316096	54	6579
2026-01-05 00:29:54.92	338.87	7.92	-39.1	-40.1	22.1	0.00e+00	120	29	0	2393899008	56	6030
2026-01-05 00:29:58.97	338.90	7.60	-39.1	-40.1	22.2	0.00e+00	122	29	0	2406481920	56	6030
2026-01-05 00:30:03.01	338.93	7.29	-39.2	-40.3	22.0	0.00e+00	123	29	0	2419064832	56	6165
2026-01-05 00:30:07.05	338.96	6.98	-39.5	-40.6	21.7	0.00e+00	122	29	0	2431647744	56	6405
2026-01-05 00:30:11.10	338.99	6.67	-39.5	-40.6	21.7	0.00e+00	122	29	0	2444230656	56	6402
2026-01-05 00:30:15.14	339.02	6.36	-39.9	-41.1	21.4	0.00e+00	122	29	0	2456813568	58	6023
2026-01-05 00:30:19.19	339.05	6.06	-39.8	-41.0	21.2	0.00e+00	120	29	0	2469396480	56	6692
2026-01-05 00:30:23.23	339.08	5.77	-40.5	-41.7	20.2	0.00e+00	123	29	0	2481979392	58	6444
2026-01-05 00:30:27.27	339.10	5.47	-41.8	-43.3	18.6	0.00e+00	123	29	0	2494562304	60	6898
2026-01-05 00:30:31.32	339.13	5.18	-42.5	-44.2	16.8	0.00e+00	122	29	0	2507145216	60	7691
2026-01-05 00:30:35.37	339.16	4.89	-44.2	-46.8	13.9	1.50e-06	123	29	0	2520776704	60	10308
2026-01-05 00:30:39.41	339.19	4.61	-45.4	-49.4	10.2	3.43e-03	123	29	0	2533359616	60	13916
2026-01-05 00:30:43.45	339.22	4.33	-46.2	-52.3	6.1	2.20e-01	123	29	0	2545942528	60	19522
2026-01-05 00:30:47.50	339.24	4.05	-46.4	-56.5	4.0	1.46e+00	0	29	104	2545942528	60	31478
2026-01-05 00:30:51.54	339.27	3.77	-46.4	-58.9	3.5	1.52e+00	0	29	104	2545942528	60	41512
2026-01-05 00:30:55.59	339.30	3.50	-46.3	-59.0	3.5	1.52e+00	0	29	104	2545942528	60	42017
2026-01-05 00:30:59.63	339.32	3.23	-46.4	-59.4	3.5	1.52e+00	0	29	104	2545942528	60	44030
2026-01-05 00:31:03.68	339.35	2.96	-50.7	-63.7	3.5	1.52e+00	0	29	104	2545942528	60	72459
2026-01-05 00:31:07.72	339.38	2.70	-51.3	-64.3	3.5	1.52e+00	0	29	104	2545942528	60	77752
2026-01-05 00:31:11.77	339.40	2.44	-50.6	-64.4	3.5	1.52e+00	0	29	104	2545942528	60	78789
2026-01-05 00:31:15.81	339.43	2.18	-51.2	-64.3	3.5	1.52e+00	0	29	104	2545942528	60	77358
2026-01-05 00:31:19.85	339.46	1.92	-51.4	-64.3	3.5	1.52e+00	0	29	104	2545942528	60	77898
2026-01-05 00:31:23.89	339.48	1.66	-51.5	-64.5	3.5	1.52e+00	0	29	104	2545942528	60	79728
2026-01-05 00:31:27.93	339.51	1.41	-51.8	-64.8	3.5	1.52e+00	0	29	104	2545942528	60	82394
2026-01-05 00:31:31.98	339.53	1.16	-52.3	-65.2	3.5	1.52e+00	0	29	104	2545942528	60	86618
2026-01-05 00:31:36.02	339.56	0.91	-52.5	-65.5	3.5	1.52e+00	0	29	104	2545942528	60	88975
2026-01-05 00:31:40.06	339.59	0.66	-51.9	-64.9	3.5	1.51e+00	0	29	104	2545942528	60	83434
2026-01-05 00:31:44.11	339.61	0.42	-51.3	-64.3	3.5	1.52e+00	0	29	104	2545942528	60	77325
2026-01-05 00:31:48.16	339.64	0.17	-51.4	-64.5	3.5	1.52e+00	0	29	104	2545942528	60	79153

#Closed at: 2026-01-05 00:31:52
#Recorded file [2545 MB]: D:/lorett/data/35034_260105_031618.dat