passes_logs/2026/01/05/R4.6S_Anadyr_2ch/R4.6S_Anadyr_2ch__20260105_140210_NOAA_21_JPSS-2_rec.log

#Pass ID: 20260105_140210_NOAA 21 (JPSS-2)
#Satellite: NOAA 21 (JPSS-2)
#Configuration: NOAA-21
#almurnet v.1.7.20251203
#Start time: 2026-01-05 14:02:12

#Version: 2.2.20231116
#Station: R4.6S_Anadyr_2ch
#Location: 177.4865 lon 64.73178 lat
#TLE: 1 54234U 22150A   25350.97269056  .00000057  00000+0  47676-4 0  9992
#TLE: 2 54234  98.7466 287.2282 0002043  29.8355 330.2937 14.19525482160692

#Time	Az	El	Level	Level2	SNR	BER	BlckErr	Temp	State	Recorded	gain1	gain2
2026-01-05 14:02:12.12	19.37	0.10	-51.1	-66.1	3.6	1.51e+00	0	23	0	0	60	98791
2026-01-05 14:02:16.16	19.47	0.34	-51.0	-64.0	3.5	1.52e+00	0	24	104	0	60	74753
2026-01-05 14:02:20.20	19.57	0.58	-50.8	-63.8	3.5	1.52e+00	0	24	104	0	60	72968
2026-01-05 14:02:24.25	19.67	0.82	-50.2	-63.1	3.5	1.52e+00	0	24	104	0	60	67682
2026-01-05 14:02:28.29	19.77	1.07	-49.6	-62.5	3.5	1.52e+00	0	25	104	0	60	63290
2026-01-05 14:02:32.34	19.88	1.31	-49.6	-62.5	3.5	1.52e+00	0	25	104	0	60	62818
2026-01-05 14:02:36.38	19.98	1.56	-49.6	-62.5	3.5	1.52e+00	0	25	104	0	60	63143
2026-01-05 14:02:40.43	20.09	1.81	-49.6	-62.5	3.5	1.52e+00	0	25	104	0	60	63425
2026-01-05 14:02:44.47	20.20	2.06	-49.5	-61.5	3.5	1.52e+00	0	25	104	0	60	56269
2026-01-05 14:02:48.52	20.31	2.32	-49.4	-60.7	3.6	1.51e+00	0	25	104	0	60	51529
2026-01-05 14:02:52.56	20.42	2.57	-48.3	-54.4	7.8	1.16e-01	123	25	104	0	60	24962
2026-01-05 14:02:56.61	20.54	2.83	-44.0	-46.0	16.1	0.00e+00	123	25	102	1048576	60	9400
2026-01-05 14:03:00.65	20.65	3.09	-41.5	-42.9	18.9	0.00e+00	123	25	102	1048576	60	6597
2026-01-05 14:03:04.69	20.77	3.36	-44.5	-46.6	15.2	0.00e+00	123	25	102	1048576	60	10115
2026-01-05 14:03:08.74	20.89	3.62	-48.5	-54.5	6.4	3.80e-06	123	25	102	1048576	60	25031
2026-01-05 14:03:12.79	21.01	3.89	-42.9	-44.8	5.2	1.43e+00	0	25	104	1048576	60	8226
2026-01-05 14:03:16.83	21.14	4.16	-41.0	-42.2	19.8	0.00e+00	123	25	0	1048576	60	6125
2026-01-05 14:03:20.88	21.26	4.44	-40.2	-41.4	20.5	0.00e+00	122	25	0	1048576	60	5563
2026-01-05 14:03:24.92	21.39	4.71	-39.7	-40.8	21.1	0.00e+00	123	25	101	1048576	58	5844
2026-01-05 14:03:28.96	21.52	4.99	-39.9	-41.0	20.9	0.00e+00	123	25	101	1048576	58	5977
2026-01-05 14:03:33.01	21.65	5.28	-39.7	-40.8	21.1	0.00e+00	122	25	101	1048576	58	5828
2026-01-05 14:03:37.05	21.78	5.56	-39.5	-40.6	21.3	0.00e+00	122	25	101	1048576	58	5721
2026-01-05 14:03:41.10	21.92	5.85	-39.6	-40.7	21.3	0.00e+00	122	25	101	1048576	58	5775
2026-01-05 14:03:45.14	22.06	6.14	-39.3	-40.3	21.7	0.00e+00	122	25	101	1048576	58	5511
2026-01-05 14:03:49.19	22.20	6.44	-39.1	-40.1	21.9	0.00e+00	120	25	101	1048576	56	6042
2026-01-05 14:03:53.23	22.34	6.73	-39.1	-40.2	21.8	0.00e+00	123	25	101	1048576	56	6085
2026-01-05 14:03:57.27	22.49	7.03	-38.9	-39.9	22.1	0.00e+00	122	25	101	1048576	56	5912
2026-01-05 14:04:01.32	22.63	7.34	-38.8	-39.9	22.2	0.00e+00	123	26	101	1048576	56	5860
2026-01-05 14:04:05.36	22.79	7.65	-38.7	-39.7	22.4	0.00e+00	123	25	101	1048576	56	5786
2026-01-05 14:04:09.41	22.94	7.96	-38.6	-39.6	22.5	0.00e+00	123	25	101	1048576	56	5669
2026-01-05 14:04:13.45	23.10	8.27	-38.5	-39.5	22.6	0.00e+00	120	26	101	1048576	56	5613
2026-01-05 14:04:17.50	23.26	8.59	-38.2	-39.2	22.7	0.00e+00	123	26	101	1048576	54	6115
2026-01-05 14:04:21.54	23.42	8.92	-38.0	-39.0	22.9	0.00e+00	123	26	101	1048576	54	5970
2026-01-05 14:04:25.59	23.59	9.24	-38.0	-39.0	23.0	0.00e+00	123	26	101	1048576	54	5959
2026-01-05 14:04:29.63	23.76	9.57	-37.9	-38.9	23.1	0.00e+00	120	26	101	1048576	54	5873
2026-01-05 14:04:33.68	23.93	9.91	-37.8	-38.8	23.3	0.00e+00	123	26	101	1048576	54	5800
2026-01-05 14:04:37.72	24.11	10.25	-37.6	-38.6	23.3	0.00e+00	122	26	101	1048576	54	5692
2026-01-05 14:04:41.76	24.29	10.60	-37.6	-38.6	23.4	0.00e+00	123	26	101	1048576	54	5670
2026-01-05 14:04:45.81	24.47	10.94	-37.4	-38.4	23.5	0.00e+00	123	26	101	1048576	54	5554
2026-01-05 14:04:49.85	24.66	11.30	-37.4	-38.3	23.6	0.00e+00	123	26	101	1048576	54	5500
2026-01-05 14:04:53.90	24.85	11.66	-37.4	-38.3	23.6	0.00e+00	121	26	101	1048576	54	5529
2026-01-05 14:04:57.94	25.05	12.02	-37.3	-38.2	23.7	0.00e+00	122	26	101	1048576	54	5433
2026-01-05 14:05:01.99	25.25	12.39	-37.3	-38.3	23.7	0.00e+00	123	26	101	1048576	54	5498
2026-01-05 14:05:06.03	25.46	12.77	-37.2	-38.2	23.8	0.00e+00	123	26	101	1048576	52	6080
2026-01-05 14:05:10.08	25.67	13.15	-37.1	-38.1	24.0	0.00e+00	123	26	101	1048576	52	5995
2026-01-05 14:05:14.12	25.88	13.53	-37.1	-38.1	24.0	0.00e+00	123	26	101	1048576	52	6015
2026-01-05 14:05:18.17	26.11	13.93	-37.1	-38.0	24.0	0.00e+00	123	26	101	1048576	52	5936
2026-01-05 14:05:22.21	26.33	14.32	-36.9	-37.9	24.1	0.00e+00	123	26	101	1048576	52	5866
2026-01-05 14:05:26.26	26.56	14.73	-37.1	-38.0	24.0	0.00e+00	120	26	101	1048576	52	5970
2026-01-05 14:05:30.30	26.80	15.14	-37.0	-37.9	24.1	0.00e+00	123	26	101	1048576	52	5904
2026-01-05 14:05:34.34	27.05	15.56	-37.0	-37.9	24.1	0.00e+00	123	26	101	1048576	52	5885
2026-01-05 14:05:38.39	27.30	15.98	-37.2	-38.1	24.0	0.00e+00	123	26	101	1048576	52	6015
2026-01-05 14:05:42.43	27.56	16.41	-37.0	-37.9	24.1	0.00e+00	120	26	101	1048576	52	5925
2026-01-05 14:05:46.48	27.82	16.85	-36.9	-37.8	24.1	0.00e+00	123	26	101	1048576	52	5854
2026-01-05 14:05:50.52	28.09	17.30	-37.0	-37.9	24.1	0.00e+00	122	26	101	1048576	52	5903
2026-01-05 14:05:54.56	28.37	17.75	-37.1	-38.0	24.1	0.00e+00	120	26	101	1048576	52	5984
2026-01-05 14:05:58.61	28.66	18.21	-37.2	-38.2	23.9	0.00e+00	123	26	101	1048576	52	6066
2026-01-05 14:06:02.65	28.96	18.68	-37.2	-38.1	24.0	0.00e+00	123	26	101	1048576	52	6031
2026-01-05 14:06:06.70	29.26	19.16	-37.2	-38.1	24.0	0.00e+00	122	26	101	1048576	52	6004
2026-01-05 14:06:10.74	29.58	19.65	-36.8	-37.7	24.2	0.00e+00	121	26	101	1048576	52	5737
2026-01-05 14:06:14.79	29.90	20.14	-36.8	-37.7	24.3	0.00e+00	122	26	101	1048576	52	5745
2026-01-05 14:06:18.83	30.23	20.65	-36.5	-37.4	24.4	0.00e+00	123	26	101	1048576	52	5588
2026-01-05 14:06:22.87	30.58	21.16	-36.3	-37.2	24.6	0.00e+00	122	26	101	1048576	52	5428
2026-01-05 14:06:26.92	30.93	21.69	-36.1	-37.0	24.8	0.00e+00	123	26	101	1048576	50	5928
2026-01-05 14:06:30.96	31.30	22.22	-36.0	-36.8	24.9	0.00e+00	123	26	101	1048576	50	5845
2026-01-05 14:06:35.01	31.68	22.77	-35.7	-36.6	25.2	0.00e+00	123	26	101	1048576	50	5664
2026-01-05 14:06:39.05	32.07	23.32	-35.7	-36.5	25.2	0.00e+00	123	26	101	1048576	50	5646
2026-01-05 14:06:43.10	32.48	23.89	-35.6	-36.4	25.3	0.00e+00	123	26	101	1048576	50	5593
2026-01-05 14:06:47.14	32.90	24.46	-35.6	-36.5	25.3	0.00e+00	123	26	101	1048576	50	5625
2026-01-05 14:06:51.19	33.34	25.05	-35.8	-36.7	25.1	0.00e+00	123	26	101	1048576	50	5738
2026-01-05 14:06:55.23	33.79	25.65	-36.1	-36.9	25.0	0.00e+00	122	26	101	1048576	50	5916
2026-01-05 14:06:59.28	34.26	26.26	-36.3	-37.2	24.8	0.00e+00	123	26	101	1048576	50	6069
2026-01-05 14:07:03.32	34.74	26.89	-36.7	-37.6	24.4	0.00e+00	122	26	101	1048576	50	6386
2026-01-05 14:07:07.36	35.25	27.52	-36.5	-37.4	24.7	0.00e+00	120	26	101	1048576	50	6208
2026-01-05 14:07:11.41	35.78	28.17	-36.6	-37.4	24.6	0.00e+00	122	26	101	1048576	50	6270
2026-01-05 14:07:15.45	36.32	28.84	-36.8	-37.7	24.4	0.00e+00	123	26	101	1048576	50	6439
2026-01-05 14:07:19.50	36.89	29.51	-36.7	-37.6	24.4	0.00e+00	123	26	101	1048576	50	6391
2026-01-05 14:07:23.54	37.49	30.20	-36.5	-37.4	24.6	0.00e+00	123	26	101	1048576	50	6226
2026-01-05 14:07:27.59	38.10	30.91	-36.6	-37.5	24.6	0.00e+00	120	26	101	1048576	50	6302
2026-01-05 14:07:31.63	38.75	31.62	-36.7	-37.6	24.4	0.00e+00	122	26	101	1048576	50	6368
2026-01-05 14:07:35.68	39.42	32.35	-36.7	-37.5	24.6	0.00e+00	122	26	101	1048576	50	6349
2026-01-05 14:07:39.73	40.13	33.10	-37.2	-38.1	24.2	0.00e+00	122	26	101	1048576	50	6762
2026-01-05 14:07:43.77	40.87	33.86	-37.7	-38.6	23.8	0.00e+00	120	26	101	1048576	52	6416
2026-01-05 14:07:47.81	41.64	34.63	-38.2	-39.1	23.4	0.00e+00	123	26	101	1048576	52	6768
2026-01-05 14:07:51.86	42.45	35.41	-38.2	-39.2	23.2	0.00e+00	123	26	101	1048576	54	6099
2026-01-05 14:07:55.90	43.29	36.21	-38.4	-39.3	23.2	0.00e+00	122	26	101	1048576	54	6188
2026-01-05 14:07:59.95	44.19	37.02	-38.7	-39.6	22.8	0.00e+00	120	26	101	1048576	54	6422
2026-01-05 14:08:03.99	45.12	37.85	-39.3	-40.3	22.4	0.00e+00	123	26	101	1048576	56	6169
2026-01-05 14:08:08.03	46.10	38.68	-39.3	-40.4	22.2	0.00e+00	123	26	101	1048576	56	6220
2026-01-05 14:08:12.08	47.14	39.53	-39.2	-40.2	22.4	0.00e+00	123	26	101	1048576	56	6125
2026-01-05 14:08:16.12	48.22	40.39	-38.7	-39.7	22.9	0.00e+00	123	26	101	1048576	56	5754
2026-01-05 14:08:20.17	49.37	41.26	-39.2	-40.2	22.5	0.00e+00	123	26	101	1048576	56	6096
2026-01-05 14:08:24.21	50.58	42.13	-38.7	-39.7	22.9	0.00e+00	123	26	101	1048576	56	5779
2026-01-05 14:08:28.26	51.86	43.01	-39.8	-40.9	21.9	0.00e+00	123	26	101	1048576	56	6616
2026-01-05 14:08:32.30	53.20	43.90	-39.6	-40.6	22.1	0.00e+00	123	26	101	1048576	58	5725
2026-01-05 14:08:36.35	54.63	44.79	-39.3	-40.3	22.4	0.00e+00	123	26	101	1048576	56	6199
2026-01-05 14:08:40.39	56.13	45.68	-38.6	-39.5	23.1	0.00e+00	120	26	101	1048576	56	5645
2026-01-05 14:08:44.44	57.73	46.56	-38.5	-39.5	22.9	0.00e+00	122	26	101	1048576	56	5624
2026-01-05 14:08:48.48	59.41	47.44	-39.0	-40.1	22.5	0.00e+00	122	26	101	1048576	56	5997
2026-01-05 14:08:52.52	61.18	48.31	-38.7	-39.6	23.0	0.00e+00	120	26	101	1048576	56	5705
2026-01-05 14:08:56.57	63.06	49.17	-39.1	-40.2	22.5	0.00e+00	122	26	101	1048576	56	6074
2026-01-05 14:09:00.61	65.05	50.00	-38.5	-39.5	23.1	0.00e+00	120	26	101	1048576	56	5602
2026-01-05 14:09:04.66	67.14	50.82	-38.1	-39.0	23.4	0.00e+00	123	26	101	1048576	54	5987
2026-01-05 14:09:08.70	69.35	51.61	-37.4	-38.3	23.9	0.00e+00	122	26	101	1048576	54	5500
2026-01-05 14:09:12.75	71.68	52.36	-37.8	-38.7	23.7	0.00e+00	123	26	101	1048576	54	5750
2026-01-05 14:09:16.79	74.12	53.08	-37.7	-38.7	23.7	0.00e+00	123	26	101	1048576	54	5744
2026-01-05 14:09:20.84	76.68	53.75	-36.9	-37.8	24.3	0.00e+00	122	26	101	1048576	52	5858
2026-01-05 14:09:24.88	79.36	54.37	-36.8	-37.7	24.4	0.00e+00	123	27	101	1048576	52	5754
2026-01-05 14:09:28.93	82.15	54.93	-36.9	-37.8	24.3	0.00e+00	123	27	101	1048576	52	5798
2026-01-05 14:09:32.97	85.05	55.43	-36.7	-37.6	24.5	0.00e+00	120	26	101	1048576	52	5665
2026-01-05 14:09:37.01	88.03	55.86	-36.6	-37.5	24.5	0.00e+00	121	27	101	1048576	52	5636
2026-01-05 14:09:41.06	91.12	56.22	-36.4	-37.3	24.6	0.00e+00	123	26	101	1048576	50	6183
2026-01-05 14:09:45.10	94.26	56.49	-36.0	-36.9	24.9	0.00e+00	121	26	101	1048576	50	5898
2026-01-05 14:09:49.15	97.47	56.69	-37.2	-38.1	24.1	0.00e+00	122	26	101	1048576	52	6062
2026-01-05 14:09:53.19	100.70	56.79	-36.3	-37.1	24.7	0.00e+00	123	26	101	1048576	50	6063
2026-01-05 14:09:57.24	103.96	56.81	-36.5	-37.4	24.6	0.00e+00	123	27	101	1048576	50	6267
2026-01-05 14:10:01.28	107.20	56.75	-36.5	-37.4	24.7	0.00e+00	122	27	101	1048576	50	6233
2026-01-05 14:10:05.32	110.42	56.59	-35.8	-36.6	25.0	0.00e+00	120	27	101	1048576	50	5701
2026-01-05 14:10:09.37	113.60	56.36	-36.3	-37.2	24.7	0.00e+00	122	27	101	1048576	50	6102
2026-01-05 14:10:13.41	116.71	56.04	-36.3	-37.2	24.6	0.00e+00	120	26	101	1048576	50	6066
2026-01-05 14:10:17.46	119.75	55.64	-37.2	-38.1	24.2	0.00e+00	123	27	101	1048576	52	6016
2026-01-05 14:10:21.50	122.70	55.17	-37.4	-38.3	24.0	0.00e+00	122	27	101	1048576	52	6157
2026-01-05 14:10:25.55	125.54	54.64	-37.0	-37.9	24.3	0.00e+00	120	27	101	1048576	52	5894
2026-01-05 14:10:29.59	128.28	54.05	-36.7	-37.5	24.7	0.00e+00	122	26	101	1048576	50	6340
2026-01-05 14:10:33.64	130.90	53.40	-37.7	-38.7	23.5	0.00e+00	120	27	101	1048576	52	6432
2026-01-05 14:10:37.68	133.40	52.70	-38.1	-39.1	23.5	0.00e+00	122	27	101	1048576	52	6775
2026-01-05 14:10:41.72	135.78	51.96	-37.8	-38.8	23.3	0.00e+00	123	26	101	1048576	54	5795
2026-01-05 14:10:45.77	138.05	51.18	-38.0	-39.0	23.4	0.00e+00	122	26	101	1048576	54	5961
2026-01-05 14:10:49.81	140.20	50.38	-38.9	-39.9	22.8	0.00e+00	123	26	101	1048576	54	6601
2026-01-05 14:10:53.86	142.24	49.55	-38.4	-39.4	23.2	0.00e+00	123	27	101	1048576	54	6225
2026-01-05 14:10:57.90	144.17	48.70	-38.8	-39.8	22.8	0.00e+00	122	27	101	1048576	54	6546
2026-01-05 14:11:01.95	146.00	47.83	-37.7	-38.6	23.9	0.00e+00	120	27	101	1048576	54	5690
2026-01-05 14:11:05.99	147.73	46.95	-38.8	-39.7	22.6	0.00e+00	122	27	101	1048576	54	6497
2026-01-05 14:11:10.04	149.37	46.06	-38.7	-39.6	22.6	0.00e+00	123	27	101	1048576	56	5724
2026-01-05 14:11:14.08	150.91	45.17	-39.0	-40.0	22.8	0.00e+00	123	27	101	1048576	56	5936
2026-01-05 14:11:18.12	152.37	44.28	-39.6	-40.6	22.1	0.00e+00	123	27	101	1048576	58	5690
2026-01-05 14:11:22.17	153.76	43.39	-38.6	-39.5	23.1	0.00e+00	123	27	101	1048576	56	5651
2026-01-05 14:11:26.21	155.07	42.51	-39.9	-40.9	21.8	0.00e+00	123	27	101	1048576	56	6631
2026-01-05 14:11:30.26	156.31	41.62	-40.0	-41.2	21.5	0.00e+00	123	27	101	1048576	58	6093
2026-01-05 14:11:34.30	157.49	40.75	-38.7	-39.7	22.9	0.00e+00	120	27	101	1048576	56	5738
2026-01-05 14:11:38.35	158.61	39.88	-39.4	-40.5	22.3	0.00e+00	123	27	101	1048576	56	6297
2026-01-05 14:11:42.39	159.67	39.03	-38.2	-39.2	23.4	0.00e+00	122	27	101	1048576	56	5434
2026-01-05 14:11:46.44	160.67	38.18	-38.1	-39.1	23.4	0.00e+00	123	27	101	1048576	54	6005
2026-01-05 14:11:50.48	161.63	37.35	-37.7	-38.6	23.9	0.00e+00	121	27	101	1048576	54	5706
2026-01-05 14:11:54.52	162.54	36.53	-37.7	-38.7	23.7	0.00e+00	123	27	101	1048576	54	5727
2026-01-05 14:11:58.56	163.41	35.72	-37.0	-37.9	24.4	0.00e+00	122	27	101	1048576	52	5874
2026-01-05 14:12:02.61	164.24	34.92	-38.1	-39.0	23.1	0.00e+00	122	27	101	1048576	52	6726
2026-01-05 14:12:06.65	165.02	34.14	-38.3	-39.3	22.9	0.00e+00	122	27	101	1048576	54	6171
2026-01-05 14:12:10.70	165.78	33.37	-37.4	-38.4	23.9	0.00e+00	123	27	101	1048576	54	5549
2026-01-05 14:12:14.74	166.50	32.62	-37.8	-38.8	23.4	0.00e+00	120	27	101	1048576	54	5833
2026-01-05 14:12:18.79	167.19	31.88	-37.4	-38.3	24.0	0.00e+00	122	27	101	1048576	54	5499
2026-01-05 14:12:22.83	167.84	31.15	-36.7	-37.6	24.4	0.00e+00	120	27	101	1048576	52	5693
2026-01-05 14:12:26.87	168.47	30.44	-36.4	-37.3	24.3	0.00e+00	123	27	101	1048576	52	5524
2026-01-05 14:12:30.91	169.08	29.74	-36.2	-37.1	24.6	0.00e+00	123	27	101	1048576	52	5370
2026-01-05 14:12:34.96	169.66	29.06	-36.5	-37.4	24.3	0.00e+00	123	27	101	1048576	50	6218
2026-01-05 14:12:39.00	170.21	28.39	-36.5	-37.5	24.5	0.00e+00	122	27	101	1048576	50	6280
2026-01-05 14:12:43.04	170.75	27.73	-36.6	-37.5	24.6	0.00e+00	122	27	101	1048576	50	6306
2026-01-05 14:12:47.09	171.26	27.08	-36.1	-36.9	25.0	0.00e+00	120	27	101	1048576	50	5900
2026-01-05 14:12:51.14	171.76	26.45	-35.9	-36.8	25.0	0.00e+00	123	27	101	1048576	50	5807
2026-01-05 14:12:55.18	172.23	25.83	-35.9	-36.7	25.1	0.00e+00	123	27	101	1048576	50	5791
2026-01-05 14:12:59.22	172.69	25.22	-35.6	-36.4	25.3	0.00e+00	120	27	101	1048576	50	5594
2026-01-05 14:13:03.27	173.13	24.62	-35.7	-36.6	25.1	0.00e+00	123	27	101	1048576	50	5669
2026-01-05 14:13:07.31	173.56	24.04	-36.0	-36.9	25.0	0.00e+00	120	27	101	1048576	50	5879
2026-01-05 14:13:11.36	173.97	23.47	-36.3	-37.2	24.8	0.00e+00	122	27	101	1048576	50	6095
2026-01-05 14:13:15.40	174.37	22.91	-36.4	-37.3	24.7	0.00e+00	120	27	101	1048576	50	6137
2026-01-05 14:13:19.45	174.76	22.35	-36.4	-37.3	24.6	0.00e+00	122	27	101	1048576	50	6183
2026-01-05 14:13:23.49	175.13	21.81	-36.5	-37.4	24.4	0.00e+00	123	27	101	1048576	50	6214
2026-01-05 14:13:27.54	175.49	21.28	-36.4	-37.3	24.5	0.00e+00	123	27	101	1048576	50	6173
2026-01-05 14:13:31.58	175.83	20.76	-36.2	-37.1	24.7	0.00e+00	123	27	101	1048576	50	6016
2026-01-05 14:13:35.63	176.17	20.25	-35.8	-36.7	25.0	0.00e+00	123	27	101	1048576	50	5738
2026-01-05 14:13:39.67	176.50	19.75	-36.0	-36.8	24.8	0.00e+00	120	27	101	1048576	50	5850
2026-01-05 14:13:43.71	176.81	19.26	-36.2	-37.0	24.7	0.00e+00	123	27	101	1048576	50	5985
2026-01-05 14:13:47.76	177.12	18.77	-36.4	-37.3	24.6	0.00e+00	123	27	101	1048576	50	6150
2026-01-05 14:13:51.80	177.42	18.30	-36.5	-37.5	24.5	0.00e+00	120	27	101	1048576	50	6280
2026-01-05 14:13:55.84	177.71	17.83	-36.8	-37.7	24.3	0.00e+00	122	27	101	1048576	50	6466
2026-01-05 14:13:59.89	177.99	17.37	-36.7	-37.6	24.3	0.00e+00	121	27	101	1048576	50	6408
2026-01-05 14:14:03.93	178.27	16.92	-36.9	-37.8	24.1	0.00e+00	122	27	101	1048576	50	6514
2026-01-05 14:14:07.97	178.53	16.48	-37.0	-38.0	24.0	0.00e+00	123	27	101	1048576	50	6664
2026-01-05 14:14:12.02	178.79	16.04	-37.2	-38.1	23.9	0.00e+00	123	27	101	1048576	52	6042
2026-01-05 14:14:16.06	179.04	15.61	-37.4	-38.3	23.8	0.00e+00	121	27	101	1048576	52	6180
2026-01-05 14:14:20.11	179.29	15.19	-37.4	-38.3	23.8	0.00e+00	122	27	101	1048576	52	6198
2026-01-05 14:14:24.15	179.53	14.77	-37.6	-38.6	23.6	0.00e+00	120	27	101	1048576	52	6363
2026-01-05 14:14:28.20	179.76	14.36	-37.5	-38.4	23.7	0.00e+00	123	27	101	1048576	52	6262
2026-01-05 14:14:32.24	179.99	13.96	-37.5	-38.4	23.7	0.00e+00	122	27	101	1048576	52	6249
2026-01-05 14:14:36.29	180.21	13.56	-37.6	-38.5	23.6	0.00e+00	123	27	101	1048576	52	6328
2026-01-05 14:14:40.33	180.42	13.17	-37.5	-38.4	23.6	0.00e+00	122	27	101	1048576	52	6251
2026-01-05 14:14:44.37	180.63	12.79	-37.6	-38.5	23.6	0.00e+00	123	27	101	1048576	52	6322
2026-01-05 14:14:48.42	180.84	12.41	-37.6	-38.5	23.5	0.00e+00	122	27	101	1048576	52	6348
2026-01-05 14:14:52.46	181.04	12.04	-37.6	-38.6	23.5	0.00e+00	121	27	101	1048576	52	6378
2026-01-05 14:14:56.51	181.24	11.67	-37.6	-38.5	23.5	0.00e+00	123	27	101	1048576	52	6334
2026-01-05 14:15:00.55	181.43	11.31	-37.7	-38.7	23.3	0.00e+00	123	27	101	1048576	52	6451
2026-01-05 14:15:04.60	181.62	10.95	-37.7	-38.7	23.3	0.00e+00	123	27	101	1048576	52	6443
2026-01-05 14:15:08.64	181.80	10.60	-37.8	-38.7	23.3	0.00e+00	123	27	101	1048576	52	6487
2026-01-05 14:15:12.69	181.98	10.25	-37.7	-38.7	23.4	0.00e+00	122	27	101	1048576	52	6452
2026-01-05 14:15:16.73	182.15	9.91	-37.6	-38.6	23.4	0.00e+00	122	27	101	1048576	52	6362
2026-01-05 14:15:20.77	182.33	9.57	-37.8	-38.8	23.2	0.00e+00	123	27	101	1048576	52	6518
2026-01-05 14:15:24.82	182.49	9.23	-38.0	-39.0	23.0	0.00e+00	123	27	101	1048576	52	6693
2026-01-05 14:15:28.86	182.66	8.90	-37.7	-38.7	23.3	0.00e+00	123	27	101	1048576	54	5757
2026-01-05 14:15:32.90	182.82	8.58	-37.9	-38.8	23.0	0.00e+00	120	27	101	1048576	54	5852
2026-01-05 14:15:36.95	182.98	8.25	-38.2	-39.2	22.8	0.00e+00	123	27	101	1048576	54	6103
2026-01-05 14:15:40.99	183.13	7.94	-38.6	-39.6	22.4	0.00e+00	123	27	101	1048576	54	6375
2026-01-05 14:15:45.04	183.29	7.62	-38.9	-39.9	22.1	0.00e+00	123	27	101	1048576	54	6625
2026-01-05 14:15:49.08	183.44	7.31	-39.2	-40.2	21.9	0.00e+00	120	27	101	1048576	56	6121
2026-01-05 14:15:53.13	183.58	7.00	-39.3	-40.3	21.8	0.00e+00	123	27	101	1048576	56	6186
2026-01-05 14:15:57.17	183.72	6.70	-39.6	-40.7	21.5	0.00e+00	122	27	101	1048576	56	6472
2026-01-05 14:16:01.21	183.87	6.40	-39.6	-40.7	21.4	0.00e+00	122	27	101	1048576	56	6444
2026-01-05 14:16:05.26	184.00	6.10	-39.8	-40.9	21.3	0.00e+00	122	27	101	1048576	56	6612
2026-01-05 14:16:09.30	184.14	5.81	-40.0	-41.2	20.9	0.00e+00	123	27	101	1048576	56	6834
2026-01-05 14:16:13.34	184.27	5.52	-39.9	-41.0	21.1	0.00e+00	123	27	101	1048576	56	6682
2026-01-05 14:16:17.39	184.40	5.23	-40.0	-41.2	20.9	0.00e+00	122	27	101	1048576	56	6809
2026-01-05 14:16:21.43	184.53	4.95	-40.2	-41.4	20.7	0.00e+00	123	27	101	1048576	58	6231
2026-01-05 14:16:25.48	184.66	4.67	-40.1	-41.3	20.6	0.00e+00	123	27	101	1048576	58	6167
2026-01-05 14:16:29.52	184.78	4.39	-40.3	-41.5	20.5	0.00e+00	122	27	101	1048576	58	6333
2026-01-05 14:16:33.57	184.91	4.11	-40.5	-41.7	20.3	0.00e+00	123	27	101	1048576	58	6442
2026-01-05 14:16:37.61	185.03	3.84	-40.9	-42.2	19.7	0.00e+00	122	27	101	1048576	58	6823
2026-01-05 14:16:41.65	185.14	3.57	-41.0	-42.3	19.6	0.00e+00	120	27	101	1048576	58	6925
2026-01-05 14:16:45.70	185.26	3.30	-40.9	-42.2	19.6	0.00e+00	122	27	101	1048576	58	6837
2026-01-05 14:16:49.74	185.38	3.03	-50.3	-63.3	3.5	1.52e+00	0	27	104	1048576	60	69025
2026-01-05 14:16:53.79	185.49	2.77	-50.9	-63.9	3.5	1.52e+00	0	27	104	1048576	60	73854
2026-01-05 14:16:57.83	185.60	2.51	-51.0	-64.0	3.5	1.52e+00	0	27	104	1048576	60	74900
2026-01-05 14:17:01.87	185.71	2.25	-50.9	-63.9	3.5	1.52e+00	0	27	104	1048576	60	74116
2026-01-05 14:17:05.92	185.82	2.00	-50.9	-63.9	3.5	1.52e+00	0	27	104	1048576	60	73854
2026-01-05 14:17:09.96	185.92	1.74	-50.9	-63.8	3.5	1.52e+00	0	27	104	1048576	60	73725
2026-01-05 14:17:14.01	186.03	1.49	-50.9	-63.9	3.5	1.51e+00	0	27	104	1048576	60	74100
2026-01-05 14:17:18.05	186.13	1.24	-50.9	-63.9	3.5	1.52e+00	0	27	104	1048576	60	73776
2026-01-05 14:17:22.10	186.23	0.99	-51.0	-63.9	3.5	1.52e+00	0	27	104	1048576	60	73899
2026-01-05 14:17:26.14	186.33	0.75	-50.9	-63.8	3.5	1.52e+00	0	27	104	1048576	60	73684
2026-01-05 14:17:30.19	186.43	0.50	-50.9	-63.9	3.5	1.52e+00	0	27	104	1048576	60	74268
2026-01-05 14:17:34.23	186.53	0.26	-50.9	-63.9	3.5	1.52e+00	0	27	104	1048576	60	73890
2026-01-05 14:17:38.27	186.62	0.02	-50.9	-63.9	3.5	1.52e+00	0	27	104	1048576	60	74073

#Closed at: 2026-01-05 14:17:40
#Recorded file [1 MB]: D:/lorett/data/35034_260105_170212.dat