passes_logs/2026/01/05/R4.6S_Anadyr_2ch/R4.6S_Anadyr_2ch__20260105_113151_NOAA_20_JPSS-1_rec.log

#Pass ID: 20260105_113151_NOAA 20 (JPSS-1)
#Satellite: NOAA 20 (JPSS-1)
#Configuration: NOAA 20
#almurnet v.1.7.20251203
#Start time: 2026-01-05 11:31:54

#Version: 2.2.20231116
#Station: R4.6S_Anadyr_2ch
#Location: 177.4865 lon 64.73178 lat
#TLE: 1 43013U 17073A   25350.93759711  .00000080  00000+0  58734-4 0  9994
#TLE: 2 43013  98.7603 287.1885 0002156  81.1496 278.9924 14.19526878418610

#Time	Az	El	Level	Level2	SNR	BER	BlckErr	Temp	State	Recorded	gain1	gain2
2026-01-05 11:31:54.61	20.99	0.11	-52.6	-63.6	3.4	8.46e-01	0	19	0	0	60	74889
2026-01-05 11:31:57.64	21.29	0.22	-51.7	-67.1	3.5	1.51e+00	0	20	104	0	60	110073
2026-01-05 11:32:00.67	21.58	0.34	-51.2	-66.6	3.6	1.51e+00	0	20	104	0	60	103857
2026-01-05 11:32:03.70	21.88	0.46	-51.0	-66.3	3.6	1.51e+00	0	20	104	0	60	101106
2026-01-05 11:32:06.73	22.18	0.58	-50.7	-66.1	3.6	1.51e+00	0	20	104	0	60	98202
2026-01-05 11:32:09.77	22.49	0.70	-50.2	-65.6	3.6	1.51e+00	0	21	104	0	60	92507
2026-01-05 11:32:12.80	22.79	0.81	-49.4	-64.8	3.6	1.51e+00	0	21	104	0	60	84334
2026-01-05 11:32:15.83	23.10	0.93	-49.4	-64.8	3.6	1.51e+00	0	21	104	0	60	84523
2026-01-05 11:32:18.86	23.41	1.05	-49.4	-64.8	3.6	1.51e+00	0	21	104	0	60	84959
2026-01-05 11:32:21.90	23.72	1.17	-49.4	-64.7	3.6	1.51e+00	0	21	104	0	60	83983
2026-01-05 11:32:24.93	24.04	1.28	-49.5	-64.8	3.6	1.51e+00	0	21	104	0	60	84517
2026-01-05 11:32:27.96	24.36	1.40	-49.5	-64.8	3.6	1.51e+00	0	21	104	0	60	84648
2026-01-05 11:32:31.00	24.68	1.52	-49.4	-64.8	3.6	1.51e+00	0	21	104	0	60	84418
2026-01-05 11:32:34.03	25.00	1.63	-49.5	-64.8	3.6	1.51e+00	0	21	104	0	60	84562
2026-01-05 11:32:37.06	25.32	1.75	-49.5	-64.8	3.6	1.51e+00	0	21	104	0	60	84587
2026-01-05 11:32:40.10	25.65	1.87	-49.5	-64.8	3.6	1.51e+00	0	21	104	0	60	84393
2026-01-05 11:32:43.13	25.98	1.98	-49.4	-64.7	3.6	1.51e+00	0	21	104	0	60	83916
2026-01-05 11:32:46.16	26.31	2.10	-49.5	-64.8	3.6	1.51e+00	0	21	104	0	60	84760
2026-01-05 11:32:49.20	26.64	2.21	-49.5	-64.8	3.6	1.51e+00	0	21	104	0	60	84900
2026-01-05 11:32:52.23	26.98	2.33	-49.5	-64.7	3.6	1.51e+00	0	21	104	0	60	84149
2026-01-05 11:32:55.26	27.32	2.44	-49.5	-64.8	3.6	1.51e+00	0	21	104	0	60	84683
2026-01-05 11:32:58.30	27.66	2.56	-49.5	-64.2	3.6	1.51e+00	0	21	104	0	60	78676
2026-01-05 11:33:01.33	28.01	2.67	-49.5	-64.0	3.6	1.51e+00	0	21	104	0	60	77294
2026-01-05 11:33:04.36	28.35	2.78	-46.0	-48.9	15.2	5.56e-05	0	21	102	1048576	60	13518
2026-01-05 11:33:07.40	28.70	2.90	-43.9	-45.7	17.9	0.00e+00	0	21	102	1048576	60	9397
2026-01-05 11:33:10.43	29.06	3.01	-44.2	-46.1	17.6	6.79e-05	0	21	102	1048576	60	9846
2026-01-05 11:33:13.46	29.41	3.12	-44.0	-45.9	17.6	4.25e-01	0	21	104	1048576	60	9586
2026-01-05 11:33:16.49	29.77	3.23	-48.0	-53.6	5.8	1.51e+00	0	21	104	1048576	60	23314
2026-01-05 11:33:19.53	30.13	3.34	-49.4	-64.6	3.6	1.51e+00	0	21	104	1048576	60	83223
2026-01-05 11:33:22.56	30.49	3.46	-46.9	-50.6	9.9	0.00e+00	0	21	0	1048576	60	16476
2026-01-05 11:33:25.59	30.85	3.57	-42.9	-44.4	19.7	8.08e-05	0	21	0	1048576	60	8090
2026-01-05 11:33:28.63	31.22	3.68	-45.4	-47.8	6.0	1.49e+00	10	21	104	1048576	60	11906
2026-01-05 11:33:31.66	31.59	3.79	-49.6	-64.5	3.6	1.51e+00	0	21	104	1048576	60	82024
2026-01-05 11:33:34.69	31.96	3.89	-49.2	-58.2	3.4	1.00e-01	11	21	0	1048576	60	39595
2026-01-05 11:33:37.73	32.34	4.00	-43.0	-44.5	19.4	0.00e+00	0	21	0	1048576	60	8228
2026-01-05 11:33:40.76	32.72	4.11	-46.8	-50.3	5.8	1.51e+00	91	21	104	1048576	60	15872
2026-01-05 11:33:43.79	33.10	4.22	-49.6	-64.3	3.6	1.51e+00	0	21	104	1048576	60	80273
2026-01-05 11:33:46.82	33.48	4.32	-49.8	-64.6	3.6	0.00e+00	0	21	104	1048576	60	82403
2026-01-05 11:33:49.86	33.87	4.43	-43.2	-44.7	19.2	3.09e-04	0	21	0	1048576	60	8383
2026-01-05 11:33:52.89	34.26	4.54	-48.2	-53.2	10.5	1.48e+00	0	21	104	1048576	60	22305
2026-01-05 11:33:55.92	34.65	4.64	-49.7	-63.9	3.6	1.51e+00	0	21	104	1048576	60	76426
2026-01-05 11:33:58.95	35.04	4.75	-49.9	-64.7	3.6	5.53e-02	0	21	104	1048576	60	83823
2026-01-05 11:34:01.99	35.44	4.85	-42.8	-44.3	19.7	0.00e+00	0	21	0	1048576	60	7958
2026-01-05 11:34:05.02	35.84	4.95	-48.3	-53.3	10.5	1.18e+00	0	21	104	1048576	60	22464
2026-01-05 11:34:08.06	36.25	5.05	-49.8	-64.0	3.6	1.51e+00	0	21	104	1048576	60	76888
2026-01-05 11:34:11.09	36.65	5.16	-49.9	-65.1	4.1	1.51e+00	0	21	104	1048576	60	87331
2026-01-05 11:34:14.12	37.06	5.26	-50.8	-66.2	3.6	1.51e+00	0	22	104	1048576	60	99520
2026-01-05 11:34:17.16	37.47	5.36	-51.0	-66.4	3.6	1.51e+00	0	22	104	1048576	60	101764
2026-01-05 11:34:20.19	37.88	5.45	-51.1	-66.5	3.6	1.51e+00	0	22	104	1048576	60	102505
2026-01-05 11:34:23.22	38.30	5.55	-50.9	-66.4	3.6	1.51e+00	0	22	104	1048576	60	102404
2026-01-05 11:34:26.25	38.72	5.65	-51.4	-66.7	3.6	1.51e+00	0	22	104	1048576	60	105556
2026-01-05 11:34:29.29	39.14	5.75	-51.5	-66.8	3.6	1.51e+00	0	22	104	1048576	60	106811
2026-01-05 11:34:32.32	39.56	5.84	-51.5	-66.9	3.6	1.51e+00	0	21	104	1048576	60	107423
2026-01-05 11:34:35.35	39.99	5.93	-51.6	-66.9	3.6	1.51e+00	0	22	104	1048576	60	108038
2026-01-05 11:34:38.39	40.42	6.03	-51.9	-67.2	3.6	1.51e+00	0	22	104	1048576	60	111728
2026-01-05 11:34:41.42	40.85	6.12	-53.3	-68.7	3.6	1.51e+00	0	22	104	1048576	60	132535
2026-01-05 11:34:44.46	41.29	6.21	-52.4	-67.8	3.6	1.51e+00	0	22	104	1048576	60	119307
2026-01-05 11:34:47.49	41.72	6.30	-51.9	-67.2	3.6	1.51e+00	0	22	104	1048576	60	112206
2026-01-05 11:34:50.52	42.16	6.39	-52.3	-67.6	3.6	1.51e+00	0	22	104	1048576	60	116783
2026-01-05 11:34:53.56	42.61	6.48	-51.4	-66.9	3.6	1.51e+00	0	22	104	1048576	60	107293
2026-01-05 11:34:56.59	43.05	6.57	-51.7	-66.9	3.6	1.51e+00	0	21	104	1048576	60	108508
2026-01-05 11:34:59.63	43.50	6.65	-52.3	-67.7	3.6	1.51e+00	0	22	104	1048576	60	118769
2026-01-05 11:35:02.66	43.95	6.74	-52.0	-67.3	3.5	1.51e+00	0	22	104	1048576	60	113353
2026-01-05 11:35:05.69	44.40	6.82	-52.0	-67.4	3.6	1.51e+00	0	22	104	1048576	60	113712
2026-01-05 11:35:08.72	44.86	6.90	-52.9	-68.3	3.6	1.51e+00	0	22	104	1048576	60	126445
2026-01-05 11:35:11.76	45.32	6.98	-51.6	-66.9	3.6	1.51e+00	0	22	104	1048576	60	107918
2026-01-05 11:35:14.79	45.77	7.06	-51.7	-67.1	3.6	1.51e+00	0	22	104	1048576	60	110706
2026-01-05 11:35:17.82	46.24	7.14	-51.5	-66.9	3.6	1.51e+00	0	22	104	1048576	60	107787
2026-01-05 11:35:20.86	46.70	7.22	-51.1	-66.4	3.6	1.51e+00	0	22	104	1048576	60	102380
2026-01-05 11:35:23.89	47.17	7.29	-51.0	-66.3	3.6	1.51e+00	0	22	104	1048576	60	101154
2026-01-05 11:35:26.92	47.64	7.37	-50.4	-65.6	3.6	1.51e+00	0	22	104	1048576	60	92966
2026-01-05 11:35:29.96	48.11	7.44	-50.3	-63.2	3.8	5.63e-01	0	22	104	1048576	60	70199
2026-01-05 11:35:32.99	48.59	7.51	-44.3	-46.0	18.9	3.47e-04	0	22	0	1048576	60	9770
2026-01-05 11:35:36.02	49.06	7.58	-43.8	-45.4	19.6	0.00e+00	0	22	0	1048576	60	9047
2026-01-05 11:35:39.06	49.54	7.65	-42.7	-44.0	20.6	0.00e+00	0	22	0	1048576	60	7713
2026-01-05 11:35:42.09	50.02	7.72	-42.7	-44.1	20.5	0.00e+00	0	21	0	1048576	60	7791
2026-01-05 11:35:45.12	50.50	7.78	-42.9	-44.3	20.4	0.00e+00	0	22	0	1048576	60	7979
2026-01-05 11:35:48.16	50.99	7.84	-42.9	-44.3	20.3	0.00e+00	0	22	0	1048576	60	7988
2026-01-05 11:35:51.19	51.48	7.91	-43.0	-44.3	20.3	0.00e+00	0	22	0	1048576	60	8016
2026-01-05 11:35:54.23	51.97	7.97	-42.7	-44.1	20.6	0.00e+00	0	22	101	1048576	60	7783
2026-01-05 11:35:57.26	52.46	8.03	-42.8	-44.2	20.5	0.00e+00	0	22	101	1048576	60	7889
2026-01-05 11:36:00.29	52.95	8.08	-42.7	-44.0	20.7	0.00e+00	0	22	101	1048576	60	7747
2026-01-05 11:36:03.32	53.44	8.14	-42.8	-44.1	20.6	0.00e+00	0	21	101	1048576	60	7840
2026-01-05 11:36:06.36	53.94	8.19	-42.9	-44.2	20.5	0.00e+00	0	21	101	1048576	60	7929
2026-01-05 11:36:09.39	54.44	8.24	-42.8	-44.2	20.6	0.00e+00	0	22	101	1048576	60	7872
2026-01-05 11:36:12.42	54.94	8.29	-43.0	-44.4	20.4	0.00e+00	0	21	101	1048576	60	8070
2026-01-05 11:36:15.46	55.44	8.34	-43.1	-44.5	20.2	0.00e+00	0	21	101	1048576	60	8177
2026-01-05 11:36:18.49	55.95	8.39	-42.8	-44.1	20.7	0.00e+00	0	21	101	1048576	60	7820
2026-01-05 11:36:21.52	56.45	8.43	-42.8	-44.1	20.6	0.00e+00	0	21	101	1048576	60	7813
2026-01-05 11:36:24.56	56.96	8.48	-42.9	-44.2	20.4	0.00e+00	0	21	101	1048576	60	7905
2026-01-05 11:36:27.59	57.47	8.52	-43.2	-44.7	20.0	0.00e+00	0	21	101	1048576	60	8332
2026-01-05 11:36:30.62	57.97	8.56	-43.6	-45.1	19.7	0.00e+00	0	21	101	1048576	60	8749
2026-01-05 11:36:33.66	58.49	8.60	-43.8	-45.4	19.5	0.00e+00	0	22	101	1048576	60	9037
2026-01-05 11:36:36.69	59.00	8.63	-43.8	-45.3	19.5	0.00e+00	0	21	101	1048576	60	8960
2026-01-05 11:36:39.72	59.51	8.67	-43.3	-44.7	20.0	0.00e+00	0	21	101	1048576	60	8385
2026-01-05 11:36:42.76	60.02	8.70	-43.2	-44.6	20.1	0.00e+00	0	21	101	1048576	60	8234
2026-01-05 11:36:45.79	60.54	8.73	-43.8	-45.4	19.8	0.00e+00	0	21	101	1048576	60	9085
2026-01-05 11:36:48.82	61.06	8.75	-43.8	-45.4	19.3	0.00e+00	0	22	101	1048576	60	9083
2026-01-05 11:36:51.85	61.57	8.78	-43.9	-45.5	19.3	0.00e+00	0	21	101	1048576	60	9176
2026-01-05 11:36:54.89	62.09	8.80	-43.6	-45.1	19.6	0.00e+00	0	22	101	1048576	60	8789
2026-01-05 11:36:57.92	62.61	8.83	-43.7	-45.2	19.6	0.00e+00	0	22	101	1048576	60	8851
2026-01-05 11:37:00.95	63.13	8.85	-43.3	-44.7	20.1	0.00e+00	0	22	101	1048576	60	8363
2026-01-05 11:37:03.99	63.65	8.86	-42.9	-44.2	20.4	0.00e+00	0	22	101	1048576	60	7930
2026-01-05 11:37:07.02	64.17	8.88	-43.0	-44.3	20.5	0.00e+00	0	22	101	1048576	60	8007
2026-01-05 11:37:10.05	64.69	8.89	-43.1	-44.4	20.3	0.00e+00	0	21	101	1048576	60	8109
2026-01-05 11:37:13.09	65.21	8.91	-42.9	-44.3	20.3	0.00e+00	0	22	101	1048576	60	7987
2026-01-05 11:37:16.12	65.74	8.91	-42.8	-44.1	20.6	0.00e+00	0	21	101	1048576	60	7860
2026-01-05 11:37:19.15	66.26	8.92	-42.2	-43.5	21.3	0.00e+00	0	22	101	1048576	60	7254
2026-01-05 11:37:22.19	66.78	8.93	-42.1	-43.3	21.2	0.00e+00	0	21	101	1048576	60	7157
2026-01-05 11:37:25.22	67.31	8.93	-42.2	-43.4	21.2	0.00e+00	0	22	101	1048576	60	7207
2026-01-05 11:37:28.25	67.83	8.93	-42.4	-43.6	21.1	0.00e+00	0	21	101	1048576	60	7374
2026-01-05 11:37:31.29	68.35	8.93	-42.1	-43.3	21.4	0.00e+00	0	22	101	1048576	60	7141
2026-01-05 11:37:34.32	68.87	8.93	-41.8	-43.0	21.6	0.00e+00	0	21	101	1048576	60	6858
2026-01-05 11:37:37.35	69.40	8.93	-41.6	-42.7	21.8	0.00e+00	0	22	101	1048576	60	6688
2026-01-05 11:37:40.39	69.92	8.92	-41.7	-42.8	21.7	0.00e+00	0	22	101	1048576	60	6759
2026-01-05 11:37:43.42	70.44	8.91	-41.7	-42.9	21.8	0.00e+00	0	22	101	1048576	60	6775
2026-01-05 11:37:46.45	70.97	8.90	-42.1	-43.3	21.3	0.00e+00	0	22	101	1048576	60	7102
2026-01-05 11:37:49.49	71.49	8.89	-41.7	-42.9	21.7	0.00e+00	0	22	101	1048576	60	6781
2026-01-05 11:37:52.52	72.01	8.87	-42.1	-43.3	21.1	0.00e+00	0	22	101	1048576	60	7139
2026-01-05 11:37:55.55	72.53	8.85	-41.7	-42.9	21.7	0.00e+00	0	22	101	1048576	60	6789
2026-01-05 11:37:58.59	73.05	8.83	-41.8	-42.9	21.6	0.00e+00	0	22	101	1048576	60	6843
2026-01-05 11:38:01.61	73.57	8.81	-41.7	-42.9	21.8	0.00e+00	0	22	101	1048576	60	6796
2026-01-05 11:38:04.65	74.09	8.79	-41.5	-42.6	21.9	0.00e+00	0	22	101	1048576	60	6583
2026-01-05 11:38:07.68	74.61	8.77	-41.7	-42.8	21.8	0.00e+00	0	22	101	1048576	60	6748
2026-01-05 11:38:10.72	75.13	8.74	-41.9	-43.1	21.5	0.00e+00	0	22	101	1048576	60	6995
2026-01-05 11:38:13.75	75.64	8.71	-41.8	-43.0	21.6	0.00e+00	0	22	101	1048576	60	6873
2026-01-05 11:38:16.78	76.16	8.68	-41.9	-43.1	21.6	0.00e+00	0	22	101	1048576	60	6952
2026-01-05 11:38:19.82	76.67	8.65	-42.0	-43.2	21.5	0.00e+00	0	22	101	1048576	60	7054
2026-01-05 11:38:22.85	77.18	8.61	-41.9	-43.2	21.2	0.00e+00	0	22	101	1048576	60	7066
2026-01-05 11:38:25.88	77.70	8.57	-41.8	-43.0	21.5	0.00e+00	0	21	101	1048576	60	6876
2026-01-05 11:38:28.92	78.21	8.54	-42.0	-43.2	21.5	0.00e+00	0	22	101	1048576	60	7030
2026-01-05 11:38:31.95	78.72	8.49	-41.8	-43.0	21.7	0.00e+00	0	22	101	1048576	60	6880
2026-01-05 11:38:34.99	79.22	8.45	-41.9	-43.1	21.6	0.00e+00	0	22	101	1048576	60	6964
2026-01-05 11:38:38.02	79.73	8.41	-42.1	-43.4	21.2	0.00e+00	0	22	101	1048576	60	7223
2026-01-05 11:38:41.05	80.24	8.36	-42.0	-43.3	21.2	0.00e+00	0	22	101	1048576	60	7113
2026-01-05 11:38:44.09	80.74	8.31	-41.8	-43.0	21.7	0.00e+00	0	22	101	1048576	60	6863
2026-01-05 11:38:47.12	81.24	8.26	-41.5	-42.7	21.8	0.00e+00	0	22	101	1048576	60	6670
2026-01-05 11:38:50.15	81.74	8.21	-41.7	-42.8	21.9	0.00e+00	0	22	101	1048576	60	6755
2026-01-05 11:38:53.18	82.24	8.16	-41.4	-42.5	22.1	0.00e+00	0	21	101	1048576	60	6516
2026-01-05 11:38:56.22	82.74	8.10	-41.4	-42.5	22.2	0.00e+00	0	22	101	1048576	60	6476
2026-01-05 11:38:59.25	83.23	8.05	-41.5	-42.6	21.9	0.00e+00	0	22	101	1048576	60	6591
2026-01-05 11:39:02.29	83.73	7.99	-41.7	-42.8	21.8	0.00e+00	0	22	101	1048576	60	6716
2026-01-05 11:39:05.32	84.22	7.93	-41.5	-42.7	21.8	0.00e+00	0	22	101	1048576	60	6633
2026-01-05 11:39:08.35	84.70	7.87	-41.6	-42.7	21.6	0.00e+00	0	22	101	1048576	60	6662
2026-01-05 11:39:11.38	85.19	7.80	-41.8	-43.0	21.5	0.00e+00	0	22	101	1048576	60	6905
2026-01-05 11:39:14.42	85.68	7.74	-41.4	-42.5	21.6	0.00e+00	0	22	101	1048576	60	6525
2026-01-05 11:39:17.45	86.16	7.67	-41.1	-42.2	22.4	0.00e+00	0	22	101	1048576	60	6274
2026-01-05 11:39:20.48	86.64	7.60	-42.0	-43.1	21.5	0.00e+00	0	22	101	1048576	60	7004
2026-01-05 11:39:23.51	87.12	7.53	-42.2	-43.4	21.2	0.00e+00	0	22	101	1048576	60	7196
2026-01-05 11:39:26.55	87.60	7.46	-42.5	-43.8	20.9	0.00e+00	0	22	101	1048576	60	7541
2026-01-05 11:39:29.58	88.07	7.39	-42.3	-43.5	21.1	0.00e+00	0	22	101	1048576	60	7294
2026-01-05 11:39:32.61	88.54	7.32	-41.9	-43.0	21.5	0.00e+00	0	22	101	1048576	60	6908
2026-01-05 11:39:35.65	89.01	7.24	-41.7	-42.9	21.6	0.00e+00	0	22	101	1048576	60	6822
2026-01-05 11:39:38.68	89.48	7.16	-42.3	-43.5	21.0	0.00e+00	0	22	101	1048576	60	7322
2026-01-05 11:39:41.71	89.94	7.09	-42.3	-43.5	21.0	0.00e+00	0	22	101	1048576	60	7336
2026-01-05 11:39:44.74	90.41	7.01	-42.7	-44.0	20.5	0.00e+00	0	22	101	1048576	60	7764
2026-01-05 11:39:47.78	90.87	6.93	-43.5	-45.0	19.5	0.00e+00	0	22	101	1048576	60	8709
2026-01-05 11:39:50.81	91.32	6.84	-44.1	-45.8	18.9	0.00e+00	0	22	101	1048576	60	9505
2026-01-05 11:39:53.85	91.78	6.76	-44.0	-45.7	18.8	0.00e+00	0	22	101	1048576	60	9358
2026-01-05 11:39:56.88	92.23	6.68	-43.8	-45.4	19.3	0.00e+00	0	22	101	1048576	60	9095
2026-01-05 11:39:59.91	92.68	6.59	-43.4	-44.9	19.6	0.00e+00	0	22	101	1048576	60	8599
2026-01-05 11:40:02.95	93.13	6.50	-43.2	-44.7	20.0	0.00e+00	0	22	101	1048576	60	8423
2026-01-05 11:40:05.98	93.58	6.42	-43.3	-44.9	19.4	0.00e+00	0	22	101	1048576	60	8586
2026-01-05 11:40:09.01	94.02	6.33	-44.2	-46.0	18.9	0.00e+00	0	22	101	1048576	60	9746
2026-01-05 11:40:12.05	94.46	6.24	-44.3	-46.4	18.1	0.00e+00	0	22	101	1048576	60	10222
2026-01-05 11:40:15.08	94.90	6.14	-44.9	-47.0	17.5	0.00e+00	0	22	101	1048576	60	10941
2026-01-05 11:40:18.11	95.33	6.05	-45.0	-47.2	17.4	0.00e+00	0	22	101	1048576	60	11121
2026-01-05 11:40:21.14	95.76	5.96	-45.0	-47.0	17.5	0.00e+00	0	22	101	1048576	60	10951
2026-01-05 11:40:24.18	96.19	5.86	-44.8	-46.9	17.8	0.00e+00	0	22	101	1048576	60	10738
2026-01-05 11:40:27.21	96.62	5.77	-44.6	-46.6	17.9	0.00e+00	0	22	101	1048576	60	10397
2026-01-05 11:40:30.24	97.04	5.67	-44.5	-46.4	18.0	0.00e+00	0	22	101	1048576	60	10180
2026-01-05 11:40:33.27	97.46	5.57	-45.0	-47.2	17.2	0.00e+00	0	22	101	1048576	60	11215
2026-01-05 11:40:36.31	97.88	5.48	-44.9	-46.9	16.8	0.00e+00	0	22	101	1048576	60	10836
2026-01-05 11:40:39.34	98.30	5.38	-44.4	-46.3	18.3	0.00e+00	0	22	101	1048576	60	10031
2026-01-05 11:40:42.38	98.71	5.28	-44.0	-45.8	18.6	0.00e+00	0	22	101	1048576	60	9495
2026-01-05 11:40:45.41	99.12	5.17	-44.1	-46.0	18.3	0.00e+00	0	22	101	1048576	60	9689
2026-01-05 11:40:48.44	99.53	5.07	-44.7	-47.0	17.4	0.00e+00	0	22	101	1048576	60	10892
2026-01-05 11:40:51.47	99.93	4.97	-44.8	-46.8	17.3	0.00e+00	0	22	101	1048576	60	10663
2026-01-05 11:40:54.51	100.33	4.87	-44.3	-46.3	18.1	0.00e+00	0	22	101	1048576	60	10028
2026-01-05 11:40:57.54	100.73	4.76	-43.5	-45.2	19.1	0.00e+00	0	22	101	1048576	60	8824
2026-01-05 11:41:00.57	101.13	4.66	-43.6	-45.3	18.9	0.00e+00	0	22	101	1048576	60	9027
2026-01-05 11:41:03.61	101.52	4.55	-43.9	-46.6	18.1	0.00e+00	0	22	101	1048576	60	10460
2026-01-05 11:41:06.64	101.92	4.45	-43.2	-45.3	18.9	0.00e+00	0	22	101	1048576	60	8962
2026-01-05 11:41:09.67	102.30	4.34	-43.7	-45.5	18.7	0.00e+00	0	22	101	1048576	60	9203
2026-01-05 11:41:12.71	102.69	4.23	-43.8	-45.5	18.5	0.00e+00	0	22	101	1048576	60	9235
2026-01-05 11:41:15.74	103.07	4.12	-44.0	-45.9	18.3	0.00e+00	0	21	101	1048576	60	9599
2026-01-05 11:41:18.77	103.45	4.02	-44.0	-45.8	18.2	0.00e+00	0	22	101	1048576	60	9538
2026-01-05 11:41:21.80	103.83	3.91	-43.6	-45.6	18.5	0.00e+00	0	22	101	1048576	60	9299
2026-01-05 11:41:24.84	104.21	3.80	-43.2	-45.4	18.5	0.00e+00	0	22	101	1048576	60	9065
2026-01-05 11:41:27.87	104.58	3.69	-43.4	-45.5	18.6	0.00e+00	0	22	101	1048576	60	9152
2026-01-05 11:41:30.91	104.95	3.58	-44.0	-46.0	17.8	0.00e+00	0	22	101	1048576	60	9739
2026-01-05 11:41:33.94	105.32	3.46	-43.7	-45.8	17.7	0.00e+00	0	22	101	1048576	60	9560
2026-01-05 11:41:36.97	105.68	3.35	-44.5	-47.0	16.2	0.00e+00	0	22	101	1048576	60	10958
2026-01-05 11:41:40.01	106.04	3.24	-44.1	-46.6	16.7	0.00e+00	0	22	101	1048576	60	10470
2026-01-05 11:41:43.04	106.40	3.13	-43.8	-46.3	16.9	0.00e+00	0	22	101	1048576	60	10087
2026-01-05 11:41:46.08	106.76	3.01	-50.2	-65.5	3.6	1.51e+00	0	22	104	1048576	60	92351
2026-01-05 11:41:49.11	107.11	2.90	-50.9	-66.3	3.6	1.51e+00	0	22	104	1048576	60	100967
2026-01-05 11:41:52.14	107.46	2.79	-51.0	-66.4	3.6	1.51e+00	0	22	104	1048576	60	101823
2026-01-05 11:41:55.17	107.81	2.67	-51.1	-66.5	3.6	1.51e+00	0	22	104	1048576	60	102687
2026-01-05 11:41:58.21	108.16	2.56	-51.0	-66.5	3.6	1.51e+00	0	22	104	1048576	60	102978
2026-01-05 11:42:01.24	108.50	2.44	-51.3	-66.7	3.6	1.51e+00	0	22	104	1048576	60	105260
2026-01-05 11:42:04.27	108.84	2.33	-51.4	-66.8	3.6	1.51e+00	0	22	104	1048576	60	106163
2026-01-05 11:42:07.31	109.18	2.21	-51.3	-66.7	3.6	1.51e+00	0	22	104	1048576	60	104915
2026-01-05 11:42:10.34	109.52	2.09	-51.4	-66.8	3.6	1.51e+00	0	22	104	1048576	60	106516
2026-01-05 11:42:13.37	109.85	1.98	-51.7	-67.0	3.6	1.51e+00	0	22	104	1048576	60	109604
2026-01-05 11:42:16.41	110.18	1.86	-51.6	-66.9	3.6	1.51e+00	0	22	104	1048576	60	108224
2026-01-05 11:42:19.44	110.51	1.74	-51.8	-67.0	3.6	1.51e+00	0	22	104	1048576	60	109715
2026-01-05 11:42:22.47	110.83	1.63	-51.8	-67.1	3.6	1.51e+00	0	22	104	1048576	60	110868
2026-01-05 11:42:25.51	111.16	1.51	-52.4	-67.7	3.6	1.51e+00	0	22	104	1048576	60	118804
2026-01-05 11:42:28.54	111.48	1.39	-51.5	-66.9	3.6	1.51e+00	0	22	104	1048576	60	107470
2026-01-05 11:42:31.57	111.80	1.27	-53.0	-68.4	3.6	1.51e+00	0	22	104	1048576	60	128137
2026-01-05 11:42:34.61	112.11	1.15	-52.6	-67.9	3.6	1.51e+00	0	22	104	1048576	60	121389
2026-01-05 11:42:37.64	112.43	1.04	-51.5	-66.8	3.6	1.51e+00	0	22	104	1048576	60	107244
2026-01-05 11:42:40.67	112.74	0.92	-51.8	-67.2	3.6	1.51e+00	0	22	104	1048576	60	111099
2026-01-05 11:42:43.71	113.05	0.80	-52.4	-67.7	3.6	1.51e+00	0	22	104	1048576	60	118545
2026-01-05 11:42:46.74	113.35	0.68	-52.0	-67.3	3.6	1.51e+00	0	22	104	1048576	60	112771
2026-01-05 11:42:49.77	113.66	0.56	-51.7	-67.0	3.6	1.51e+00	0	22	104	1048576	60	109583
2026-01-05 11:42:52.81	113.96	0.44	-52.4	-67.7	3.6	1.51e+00	0	22	104	1048576	60	118745
2026-01-05 11:42:55.84	114.26	0.32	-52.7	-68.0	3.6	1.51e+00	0	22	104	1048576	60	123120
2026-01-05 11:42:58.87	114.56	0.20	-51.6	-67.0	3.6	1.51e+00	0	22	104	1048576	60	108655
2026-01-05 11:43:01.91	114.85	0.08	-51.8	-67.1	3.6	1.51e+00	0	22	104	1048576	60	110709

#Closed at: 2026-01-05 11:43:04
#Recorded file [1 MB]: D:/lorett/data/35034_260105_143154.dat