passes_logs/2026/01/05/R4.6S_Anadyr_2ch/R4.6S_Anadyr_2ch__20260105_221821_NOAA_21_JPSS-2_rec.log

#Pass ID: 20260105_221821_NOAA 21 (JPSS-2)
#Satellite: NOAA 21 (JPSS-2)
#Configuration: NOAA-21
#almurnet v.1.7.20251203
#Start time: 2026-01-05 22:18:27

#Version: 2.2.20231116
#Station: R4.6S_Anadyr_2ch
#Location: 177.4865 lon 64.73178 lat
#TLE: 1 54234U 22150A   25350.97269056  .00000057  00000+0  47676-4 0  9992
#TLE: 2 54234  98.7466 287.2282 0002043  29.8355 330.2937 14.19525482160692

#Time	Az	El	Level	Level2	SNR	BER	BlckErr	Temp	State	Recorded	gain1	gain2
2026-01-05 22:18:27.20	109.92	0.33	-27.7	-28.1	17.0	5.40e-06	0	29	0	0	34	19012
2026-01-05 22:18:31.24	109.73	0.56	-51.2	-64.2	3.5	1.52e+00	0	30	104	0	60	76668
2026-01-05 22:18:35.28	109.54	0.79	-51.0	-64.0	3.5	1.52e+00	0	31	104	0	60	75429
2026-01-05 22:18:39.32	109.35	1.03	-49.4	-62.6	3.5	1.52e+00	0	31	104	0	60	63566
2026-01-05 22:18:43.37	109.15	1.26	-48.5	-62.0	3.5	1.52e+00	0	31	104	0	60	59439
2026-01-05 22:18:47.41	108.95	1.50	-48.5	-62.0	3.5	1.52e+00	0	31	104	0	60	59312
2026-01-05 22:18:51.45	108.75	1.74	-48.5	-61.9	3.5	1.52e+00	0	31	104	0	60	59214
2026-01-05 22:18:55.50	108.54	1.98	-48.5	-62.0	3.5	1.51e+00	0	31	104	0	60	59625
2026-01-05 22:18:59.54	108.33	2.22	-48.5	-62.0	3.5	1.52e+00	0	31	104	0	60	59329
2026-01-05 22:19:03.59	108.12	2.46	-48.4	-61.8	3.5	1.52e+00	0	31	104	0	60	58552
2026-01-05 22:19:07.63	107.90	2.70	-48.4	-61.6	3.5	1.52e+00	0	31	104	0	60	56949
2026-01-05 22:19:11.67	107.68	2.95	-48.3	-60.7	3.5	1.51e+00	0	31	104	0	60	51224
2026-01-05 22:19:15.71	107.46	3.20	-48.3	-60.3	3.5	1.51e+00	0	31	104	0	60	48738
2026-01-05 22:19:19.76	107.23	3.45	-47.0	-52.2	8.7	7.20e-03	0	31	102	1048576	60	19311
2026-01-05 22:19:23.80	106.99	3.70	-44.1	-46.6	14.2	7.26e-04	0	31	0	1048576	60	10126
2026-01-05 22:19:27.84	106.75	3.95	-41.9	-43.7	17.7	0.00e+00	0	31	0	1048576	60	7246
2026-01-05 22:19:31.89	106.51	4.21	-40.8	-42.1	19.5	0.00e+00	0	31	0	1048576	60	6047
2026-01-05 22:19:35.93	106.27	4.47	-40.4	-41.6	20.3	0.00e+00	0	31	0	1048576	60	5709
2026-01-05 22:19:39.97	106.01	4.72	-39.9	-41.1	20.8	0.00e+00	0	31	101	1048576	58	6033
2026-01-05 22:19:44.01	105.76	4.99	-39.5	-40.6	21.2	0.00e+00	0	31	101	1048576	58	5719
2026-01-05 22:19:48.06	105.50	5.25	-39.5	-40.6	21.3	0.00e+00	0	31	101	1048576	58	5681
2026-01-05 22:19:52.10	105.23	5.51	-39.6	-40.7	21.2	0.00e+00	0	31	101	1048576	58	5769
2026-01-05 22:19:56.15	104.96	5.78	-39.4	-40.5	21.3	0.00e+00	0	31	101	1048576	58	5597
2026-01-05 22:20:00.19	104.68	6.05	-39.4	-40.5	21.5	0.00e+00	0	31	101	1048576	58	5604
2026-01-05 22:20:04.23	104.40	6.32	-39.4	-40.5	21.6	0.00e+00	0	31	101	1048576	58	5612
2026-01-05 22:20:08.28	104.11	6.60	-39.2	-40.2	22.0	0.00e+00	0	31	101	1048576	56	6123
2026-01-05 22:20:12.32	103.82	6.87	-39.0	-40.1	22.0	0.00e+00	0	31	101	1048576	56	6011
2026-01-05 22:20:16.36	103.52	7.15	-38.9	-39.9	22.1	0.00e+00	0	31	101	1048576	56	5918
2026-01-05 22:20:20.41	103.22	7.43	-38.8	-39.8	22.2	0.00e+00	0	31	101	1048576	56	5837
2026-01-05 22:20:24.45	102.91	7.72	-38.8	-39.9	22.2	0.00e+00	0	32	101	1048576	56	5871
2026-01-05 22:20:28.50	102.59	8.00	-38.7	-39.7	22.3	0.00e+00	0	31	101	1048576	56	5777
2026-01-05 22:20:32.54	102.27	8.29	-38.6	-39.6	22.6	0.00e+00	0	31	101	1048576	56	5689
2026-01-05 22:20:36.59	101.94	8.58	-38.5	-39.6	22.6	0.00e+00	0	31	101	1048576	56	5660
2026-01-05 22:20:40.63	101.60	8.87	-38.4	-39.4	22.8	0.00e+00	0	31	101	1048576	56	5540
2026-01-05 22:20:44.67	101.25	9.17	-38.1	-39.1	22.9	0.00e+00	0	32	101	1048576	54	6047
2026-01-05 22:20:48.72	100.90	9.46	-38.0	-39.0	23.0	0.00e+00	0	32	101	1048576	54	5968
2026-01-05 22:20:52.76	100.54	9.76	-38.1	-39.1	23.0	0.00e+00	0	32	101	1048576	54	6006
2026-01-05 22:20:56.81	100.18	10.07	-37.9	-38.9	23.1	0.00e+00	0	32	101	1048576	54	5887
2026-01-05 22:21:00.85	99.80	10.37	-37.8	-38.7	23.3	0.00e+00	0	32	101	1048576	54	5790
2026-01-05 22:21:04.89	99.42	10.68	-37.9	-38.9	23.1	0.00e+00	0	32	101	1048576	54	5910
2026-01-05 22:21:08.93	99.03	10.99	-37.6	-38.6	23.4	0.00e+00	0	31	101	1048576	54	5673
2026-01-05 22:21:12.98	98.63	11.30	-37.4	-38.3	23.6	0.00e+00	0	32	101	1048576	54	5500
2026-01-05 22:21:17.02	98.22	11.62	-37.3	-38.3	23.7	0.00e+00	0	32	101	1048576	54	5496
2026-01-05 22:21:21.06	97.80	11.93	-37.3	-38.2	23.8	0.00e+00	0	32	101	1048576	52	6105
2026-01-05 22:21:25.11	97.37	12.25	-37.2	-38.1	23.8	0.00e+00	0	32	101	1048576	52	6048
2026-01-05 22:21:29.15	96.94	12.58	-37.1	-38.0	24.0	0.00e+00	0	32	101	1048576	52	5983
2026-01-05 22:21:33.20	96.49	12.90	-36.9	-37.8	24.1	0.00e+00	0	32	101	1048576	52	5819
2026-01-05 22:21:37.24	96.03	13.23	-36.9	-37.8	24.0	0.00e+00	0	32	101	1048576	52	5856
2026-01-05 22:21:41.28	95.56	13.56	-36.9	-37.8	24.2	0.00e+00	0	32	101	1048576	52	5811
2026-01-05 22:21:45.33	95.08	13.90	-36.7	-37.6	24.3	0.00e+00	0	32	101	1048576	52	5707
2026-01-05 22:21:49.37	94.60	14.23	-36.8	-37.7	24.2	0.00e+00	0	32	101	1048576	52	5739
2026-01-05 22:21:53.42	94.09	14.57	-37.1	-38.1	23.9	0.00e+00	0	32	101	1048576	52	6001
2026-01-05 22:21:57.46	93.58	14.91	-37.0	-37.9	24.1	0.00e+00	0	32	101	1048576	52	5921
2026-01-05 22:22:01.50	93.06	15.25	-37.0	-37.9	24.1	0.00e+00	0	31	101	1048576	52	5908
2026-01-05 22:22:05.55	92.52	15.60	-37.0	-37.9	24.1	0.00e+00	0	32	101	1048576	52	5919
2026-01-05 22:22:09.59	91.97	15.95	-37.1	-38.0	24.0	0.00e+00	0	32	101	1048576	52	5989
2026-01-05 22:22:13.64	91.40	16.30	-37.0	-37.9	24.1	0.00e+00	0	32	101	1048576	52	5925
2026-01-05 22:22:17.68	90.83	16.65	-37.1	-38.0	24.0	0.00e+00	0	32	101	1048576	52	5982
2026-01-05 22:22:21.73	90.23	17.01	-36.9	-37.8	24.1	0.00e+00	0	32	101	1048576	52	5817
2026-01-05 22:22:25.77	89.63	17.36	-37.0	-37.9	24.1	0.00e+00	0	32	101	1048576	52	5921
2026-01-05 22:22:29.81	89.01	17.72	-37.1	-38.0	24.1	0.00e+00	0	32	101	1048576	52	5960
2026-01-05 22:22:33.86	88.37	18.08	-36.8	-37.7	24.4	0.00e+00	0	32	101	1048576	52	5785
2026-01-05 22:22:37.90	87.72	18.44	-37.0	-37.9	24.2	0.00e+00	0	32	101	1048576	52	5878
2026-01-05 22:22:41.94	87.06	18.80	-36.9	-37.8	24.3	0.00e+00	0	32	101	1048576	52	5817
2026-01-05 22:22:45.99	86.37	19.17	-36.8	-37.7	24.4	0.00e+00	0	32	101	1048576	52	5728
2026-01-05 22:22:50.03	85.67	19.53	-36.6	-37.5	24.5	0.00e+00	0	32	101	1048576	52	5595
2026-01-05 22:22:54.08	84.96	19.90	-36.5	-37.4	24.6	0.00e+00	0	32	101	1048576	52	5570
2026-01-05 22:22:58.12	84.22	20.26	-36.4	-37.3	24.6	0.00e+00	0	32	101	1048576	52	5518
2026-01-05 22:23:02.16	83.47	20.63	-36.4	-37.3	24.7	0.00e+00	0	32	101	1048576	52	5524
2026-01-05 22:23:06.21	82.70	20.99	-36.2	-37.1	24.8	0.00e+00	0	32	101	1048576	52	5366
2026-01-05 22:23:10.25	81.91	21.36	-36.1	-37.0	24.9	0.00e+00	0	32	101	1048576	50	5953
2026-01-05 22:23:14.30	81.10	21.72	-36.0	-36.9	25.0	0.00e+00	0	32	101	1048576	50	5879
2026-01-05 22:23:18.34	80.27	22.09	-36.1	-37.0	25.0	0.00e+00	0	32	101	1048576	50	5928
2026-01-05 22:23:22.39	79.43	22.45	-35.9	-36.7	25.1	0.00e+00	0	32	101	1048576	50	5779
2026-01-05 22:23:26.43	78.56	22.81	-35.9	-36.8	24.9	0.00e+00	0	32	101	1048576	50	5834
2026-01-05 22:23:30.47	77.67	23.17	-35.7	-36.6	25.3	0.00e+00	0	32	101	1048576	50	5663
2026-01-05 22:23:34.52	76.76	23.53	-35.7	-36.6	25.2	0.00e+00	0	32	101	1048576	50	5661
2026-01-05 22:23:38.56	75.83	23.88	-36.0	-36.9	24.9	0.00e+00	0	32	101	1048576	50	5867
2026-01-05 22:23:42.61	74.88	24.23	-36.0	-36.9	24.9	0.00e+00	0	32	101	1048576	50	5892
2026-01-05 22:23:46.65	73.91	24.57	-36.4	-37.3	24.8	0.00e+00	0	32	101	1048576	50	6147
2026-01-05 22:23:50.69	72.92	24.91	-36.4	-37.3	24.6	0.00e+00	0	32	101	1048576	50	6157
2026-01-05 22:23:54.73	71.91	25.25	-36.5	-37.4	24.6	0.00e+00	0	32	101	1048576	50	6264
2026-01-05 22:23:58.78	70.87	25.57	-36.3	-37.1	24.7	0.00e+00	0	32	101	1048576	50	6059
2026-01-05 22:24:02.82	69.81	25.90	-36.4	-37.3	24.6	0.00e+00	0	32	101	1048576	50	6173
2026-01-05 22:24:07.16	68.65	26.23	-36.5	-37.4	24.6	0.00e+00	0	32	101	1048576	50	6221
2026-01-05 22:24:11.20	67.55	26.54	-36.7	-37.6	24.4	0.00e+00	0	32	101	1048576	50	6421
2026-01-05 22:24:15.25	66.42	26.84	-36.6	-37.5	24.6	0.00e+00	0	32	101	1048576	50	6295
2026-01-05 22:24:19.29	65.28	27.13	-36.5	-37.4	24.7	0.00e+00	0	32	101	1048576	50	6224
2026-01-05 22:24:23.34	64.11	27.40	-36.2	-37.1	24.8	0.00e+00	0	32	101	1048576	50	6043
2026-01-05 22:24:27.38	62.93	27.67	-36.3	-37.2	24.8	0.00e+00	0	32	101	1048576	50	6087
2026-01-05 22:24:31.42	61.72	27.93	-36.3	-37.2	24.9	0.00e+00	0	32	101	1048576	50	6082
2026-01-05 22:24:35.47	60.50	28.17	-36.2	-37.1	24.9	0.00e+00	0	32	101	1048576	50	6034
2026-01-05 22:24:39.51	59.26	28.40	-36.4	-37.3	24.7	0.00e+00	0	32	101	1048576	50	6141
2026-01-05 22:24:43.55	58.00	28.62	-36.2	-37.1	24.9	0.00e+00	0	32	101	1048576	50	6030
2026-01-05 22:24:47.60	56.72	28.83	-36.6	-37.5	24.6	0.00e+00	0	32	101	1048576	50	6305
2026-01-05 22:24:51.64	55.43	29.02	-36.6	-37.5	24.5	0.00e+00	0	32	101	1048576	50	6345
2026-01-05 22:24:55.68	54.12	29.19	-36.6	-37.5	24.6	0.00e+00	0	32	101	1048576	50	6332
2026-01-05 22:24:59.73	52.80	29.35	-36.7	-37.7	24.5	0.00e+00	0	32	101	1048576	50	6426
2026-01-05 22:25:03.77	51.47	29.49	-36.8	-37.8	24.3	0.00e+00	0	32	101	1048576	50	6502
2026-01-05 22:25:07.82	50.12	29.61	-36.8	-37.7	24.4	0.00e+00	0	32	101	1048576	50	6467
2026-01-05 22:25:11.86	48.77	29.72	-36.5	-37.4	24.6	0.00e+00	0	32	101	1048576	50	6276
2026-01-05 22:25:15.90	47.41	29.81	-36.7	-37.6	24.5	0.00e+00	0	32	101	1048576	50	6371
2026-01-05 22:25:19.94	46.04	29.88	-36.2	-37.0	24.9	0.00e+00	0	32	101	1048576	50	5993
2026-01-05 22:25:23.99	44.66	29.94	-36.1	-36.9	25.0	0.00e+00	0	32	101	1048576	50	5922
2026-01-05 22:25:28.03	43.29	29.97	-36.2	-37.1	24.7	0.00e+00	0	32	101	1048576	50	6050
2026-01-05 22:25:32.07	41.91	29.99	-36.1	-36.9	24.9	0.00e+00	0	32	101	1048576	50	5917
2026-01-05 22:25:36.12	40.53	29.98	-36.4	-37.2	24.8	0.00e+00	0	32	101	1048576	50	6133
2026-01-05 22:25:40.16	39.15	29.96	-36.7	-37.6	24.4	0.00e+00	0	32	101	1048576	50	6403
2026-01-05 22:25:44.21	37.77	29.92	-37.1	-38.0	24.2	0.00e+00	0	32	101	1048576	50	6701
2026-01-05 22:25:48.25	36.40	29.86	-36.7	-37.6	24.5	0.00e+00	0	32	101	1048576	52	5717
2026-01-05 22:25:52.30	35.03	29.79	-36.8	-37.7	24.5	0.00e+00	0	32	101	1048576	52	5747
2026-01-05 22:25:56.34	33.67	29.69	-36.8	-37.7	24.4	0.00e+00	0	32	101	1048576	52	5765
2026-01-05 22:26:00.38	32.32	29.58	-36.7	-37.6	24.5	0.00e+00	0	32	101	1048576	52	5679
2026-01-05 22:26:04.43	30.98	29.45	-36.9	-37.8	24.4	0.00e+00	0	32	101	1048576	52	5804
2026-01-05 22:26:08.47	29.66	29.31	-36.6	-37.5	24.7	0.00e+00	0	32	101	1048576	52	5615
2026-01-05 22:26:12.52	28.34	29.14	-36.8	-37.7	24.4	0.00e+00	0	32	101	1048576	52	5780
2026-01-05 22:26:16.56	27.04	28.97	-36.9	-37.8	24.4	0.00e+00	0	32	101	1048576	52	5816
2026-01-05 22:26:20.61	25.75	28.77	-36.8	-37.8	24.5	0.00e+00	0	32	101	1048576	52	5793
2026-01-05 22:26:24.65	24.48	28.57	-36.7	-37.6	24.5	0.00e+00	0	32	101	1048576	52	5722
2026-01-05 22:26:28.69	23.23	28.34	-36.4	-37.3	24.7	0.00e+00	0	32	101	1048576	52	5526
2026-01-05 22:26:32.74	21.99	28.11	-36.6	-37.5	24.6	0.00e+00	0	32	101	1048576	52	5613
2026-01-05 22:26:36.78	20.78	27.86	-36.5	-37.4	24.7	0.00e+00	0	32	101	1048576	52	5567
2026-01-05 22:26:40.83	19.58	27.60	-36.4	-37.2	24.9	0.00e+00	0	32	101	1048576	50	6129
2026-01-05 22:26:44.87	18.40	27.33	-37.0	-37.9	24.2	0.00e+00	0	32	101	1048576	50	6637
2026-01-05 22:26:48.92	17.24	27.05	-36.4	-37.3	24.8	0.00e+00	0	32	101	1048576	50	6149
2026-01-05 22:26:52.96	16.11	26.76	-35.9	-36.8	25.1	0.00e+00	0	32	101	1048576	50	5835
2026-01-05 22:26:57.00	14.99	26.46	-35.6	-36.5	25.2	0.00e+00	0	32	101	1048576	50	5603
2026-01-05 22:27:01.05	13.90	26.16	-36.6	-37.5	24.5	0.00e+00	0	32	101	1048576	50	6291
2026-01-05 22:27:05.09	12.83	25.84	-35.9	-36.8	24.8	0.00e+00	0	32	101	1048576	50	5839
2026-01-05 22:27:09.13	11.78	25.52	-35.9	-36.8	25.1	0.00e+00	0	32	101	1048576	50	5829
2026-01-05 22:27:13.18	10.75	25.19	-36.3	-37.2	24.8	0.00e+00	0	32	101	1048576	50	6079
2026-01-05 22:27:17.22	9.74	24.86	-36.2	-37.1	24.9	0.00e+00	0	32	101	1048576	50	6017
2026-01-05 22:27:21.26	8.76	24.52	-36.5	-37.4	24.7	0.00e+00	0	32	101	1048576	50	6227
2026-01-05 22:27:25.31	7.79	24.17	-36.1	-37.0	25.1	0.00e+00	0	32	101	1048576	50	5944
2026-01-05 22:27:29.35	6.85	23.82	-36.4	-37.3	24.8	0.00e+00	0	32	101	1048576	50	6141
2026-01-05 22:27:33.39	5.93	23.47	-36.5	-37.5	24.5	0.00e+00	0	32	101	1048576	50	6280
2026-01-05 22:27:37.44	5.03	23.12	-36.2	-37.1	24.8	0.00e+00	0	32	101	1048576	50	6013
2026-01-05 22:27:41.48	4.15	22.76	-36.3	-37.2	24.9	0.00e+00	0	32	101	1048576	50	6085
2026-01-05 22:27:45.53	3.29	22.40	-36.0	-36.9	25.1	0.00e+00	0	32	101	1048576	50	5872
2026-01-05 22:27:49.57	2.45	22.04	-36.2	-37.1	24.9	0.00e+00	0	32	101	1048576	50	6026
2026-01-05 22:27:53.61	1.63	21.68	-36.2	-37.1	24.7	0.00e+00	0	32	101	1048576	50	6058
2026-01-05 22:27:57.66	0.83	21.31	-36.3	-37.2	24.8	0.00e+00	0	32	101	1048576	50	6117
2026-01-05 22:28:01.70	0.04	20.95	-36.5	-37.4	24.6	0.00e+00	0	32	101	1048576	50	6237
2026-01-05 22:28:05.75	359.28	20.58	-36.7	-37.5	24.5	0.00e+00	0	32	101	1048576	50	6342
2026-01-05 22:28:09.79	358.54	20.22	-36.5	-37.4	24.6	0.00e+00	0	32	101	1048576	50	6254
2026-01-05 22:28:13.83	357.81	19.85	-36.1	-36.9	24.9	0.00e+00	0	32	101	1048576	50	5920
2026-01-05 22:28:17.87	357.10	19.49	-35.7	-36.5	25.2	0.00e+00	0	32	101	1048576	50	5641
2026-01-05 22:28:21.91	356.41	19.13	-36.6	-37.5	24.4	0.00e+00	0	32	101	1048576	50	6301
2026-01-05 22:28:25.95	355.73	18.77	-36.7	-37.6	24.3	0.00e+00	0	32	101	1048576	50	6420
2026-01-05 22:28:30.00	355.07	18.41	-36.5	-37.4	24.4	0.00e+00	0	32	101	1048576	50	6274
2026-01-05 22:28:34.05	354.42	18.05	-36.8	-37.7	24.4	0.00e+00	0	32	101	1048576	50	6496
2026-01-05 22:28:38.09	353.80	17.69	-37.1	-38.1	24.1	0.00e+00	0	32	101	1048576	52	6004
2026-01-05 22:28:42.13	353.18	17.33	-37.1	-38.0	24.1	0.00e+00	0	32	101	1048576	52	5981
2026-01-05 22:28:46.17	352.58	16.98	-36.6	-37.6	24.5	0.00e+00	0	32	101	1048576	52	5661
2026-01-05 22:28:50.22	352.00	16.63	-37.2	-38.1	24.1	0.00e+00	0	32	101	1048576	52	6045
2026-01-05 22:28:54.26	351.43	16.28	-37.4	-38.3	23.8	0.00e+00	0	32	101	1048576	52	6174
2026-01-05 22:28:58.30	350.87	15.93	-36.8	-37.7	24.2	0.00e+00	0	32	101	1048576	52	5773
2026-01-05 22:29:02.35	350.32	15.58	-36.6	-37.6	24.5	0.00e+00	0	32	101	1048576	52	5663
2026-01-05 22:29:06.39	349.79	15.24	-37.3	-38.2	24.0	0.00e+00	0	32	101	1048576	52	6085
2026-01-05 22:29:10.43	349.27	14.90	-37.4	-38.4	23.8	0.00e+00	0	32	101	1048576	52	6213
2026-01-05 22:29:14.48	348.76	14.56	-37.0	-37.9	24.0	0.00e+00	0	32	101	1048576	52	5907
2026-01-05 22:29:18.52	348.27	14.22	-36.8	-37.8	24.2	0.00e+00	0	32	101	1048576	52	5804
2026-01-05 22:29:22.57	347.78	13.88	-37.0	-38.0	24.0	0.00e+00	0	32	101	1048576	52	5928
2026-01-05 22:29:26.61	347.31	13.55	-37.5	-38.5	23.8	0.00e+00	0	32	101	1048576	52	6287
2026-01-05 22:29:30.65	346.85	13.22	-38.0	-39.0	23.2	0.00e+00	0	32	101	1048576	52	6660
2026-01-05 22:29:34.70	346.39	12.90	-37.9	-38.8	23.2	0.00e+00	0	32	101	1048576	52	6572
2026-01-05 22:29:38.74	345.95	12.57	-37.5	-38.4	23.6	0.00e+00	0	32	101	1048576	52	6243
2026-01-05 22:29:42.79	345.52	12.25	-37.6	-38.5	23.5	0.00e+00	0	32	101	1048576	52	6324
2026-01-05 22:29:46.83	345.10	11.93	-38.0	-38.9	23.2	0.00e+00	0	32	101	1048576	52	6648
2026-01-05 22:29:50.88	344.68	11.62	-38.4	-39.5	22.8	0.00e+00	0	32	101	1048576	54	6286
2026-01-05 22:29:54.92	344.28	11.30	-38.7	-39.8	22.5	0.00e+00	0	32	101	1048576	54	6503
2026-01-05 22:29:58.96	343.88	10.99	-38.5	-39.5	22.6	0.00e+00	0	32	101	1048576	54	6334
2026-01-05 22:30:03.01	343.50	10.68	-38.3	-39.3	22.8	0.00e+00	0	32	101	1048576	54	6191
2026-01-05 22:30:07.05	343.12	10.38	-38.4	-39.4	22.7	0.00e+00	0	32	101	1048576	54	6259
2026-01-05 22:30:11.09	342.75	10.07	-38.4	-39.4	22.7	0.00e+00	0	32	101	1048576	54	6240
2026-01-05 22:30:15.14	342.38	9.77	-38.9	-39.9	22.3	0.00e+00	0	32	101	1048576	54	6633
2026-01-05 22:30:19.18	342.03	9.47	-39.3	-40.4	22.0	0.00e+00	0	32	101	1048576	56	6246
2026-01-05 22:30:23.23	341.68	9.18	-39.2	-40.3	21.9	0.00e+00	0	32	101	1048576	56	6189
2026-01-05 22:30:27.27	341.34	8.88	-38.9	-40.0	22.2	0.00e+00	0	32	101	1048576	56	5936
2026-01-05 22:30:31.31	341.01	8.59	-39.0	-40.1	22.1	0.00e+00	0	32	101	1048576	56	6024
2026-01-05 22:30:35.36	340.68	8.30	-38.7	-39.7	22.4	0.00e+00	0	32	101	1048576	56	5771
2026-01-05 22:30:39.40	340.36	8.02	-39.1	-40.1	22.1	0.00e+00	0	32	101	1048576	56	6043
2026-01-05 22:30:43.44	340.05	7.73	-39.1	-40.2	22.1	0.00e+00	0	32	101	1048576	56	6078
2026-01-05 22:30:47.49	339.74	7.45	-39.3	-40.3	21.9	0.00e+00	0	32	101	1048576	56	6190
2026-01-05 22:30:51.53	339.44	7.17	-39.4	-40.5	21.7	0.00e+00	0	32	101	1048576	56	6294
2026-01-05 22:30:55.57	339.15	6.90	-39.6	-40.7	21.4	0.00e+00	0	32	101	1048576	56	6468
2026-01-05 22:30:59.62	338.86	6.62	-39.4	-40.6	21.4	0.00e+00	0	32	101	1048576	56	6371
2026-01-05 22:31:03.66	338.58	6.35	-39.2	-40.3	21.6	0.00e+00	0	32	101	1048576	56	6145
2026-01-05 22:31:07.70	338.30	6.08	-39.1	-40.2	21.7	0.00e+00	0	32	101	1048576	56	6112
2026-01-05 22:31:11.75	338.03	5.81	-39.3	-40.5	21.2	0.00e+00	0	32	101	1048576	56	6287
2026-01-05 22:31:15.79	337.76	5.54	-40.4	-41.7	19.8	0.00e+00	0	32	101	1048576	58	6457
2026-01-05 22:31:19.83	337.50	5.28	-42.0	-43.7	16.8	0.00e+00	0	32	101	1048576	60	7245
2026-01-05 22:31:23.88	337.24	5.02	-43.8	-46.6	13.1	1.60e-05	0	32	101	1048576	60	10135
2026-01-05 22:31:27.92	336.99	4.76	-45.0	-49.5	9.1	1.69e-02	0	32	101	1048576	60	14060
2026-01-05 22:31:31.97	336.74	4.50	-45.8	-54.0	5.2	5.49e-01	0	32	104	1048576	60	23687
2026-01-05 22:31:36.01	336.50	4.24	-46.0	-57.1	3.5	1.50e+00	0	32	104	1048576	60	33901
2026-01-05 22:31:40.05	336.26	3.99	-46.1	-57.9	3.5	1.52e+00	0	32	104	1048576	60	37190
2026-01-05 22:31:44.10	336.02	3.73	-46.1	-58.8	3.5	1.52e+00	0	32	104	1048576	60	41304
2026-01-05 22:31:48.14	335.79	3.48	-46.0	-59.0	3.5	1.52e+00	0	32	104	1048576	60	42154
2026-01-05 22:31:52.18	335.57	3.23	-46.0	-59.0	3.5	1.51e+00	0	32	104	1048576	60	41960
2026-01-05 22:31:56.23	335.35	2.99	-50.4	-63.4	3.5	1.52e+00	0	32	104	1048576	60	70218
2026-01-05 22:32:00.28	335.13	2.74	-51.2	-64.2	3.5	1.52e+00	0	32	104	1048576	60	76646
2026-01-05 22:32:04.32	334.92	2.50	-51.2	-64.3	3.5	1.52e+00	0	32	104	1048576	60	77482
2026-01-05 22:32:08.36	334.71	2.26	-51.1	-64.2	3.5	1.52e+00	0	32	104	1048576	60	76396
2026-01-05 22:32:12.40	334.50	2.02	-51.2	-64.2	3.5	1.52e+00	0	32	104	1048576	60	76369
2026-01-05 22:32:16.45	334.30	1.78	-51.1	-64.1	3.5	1.52e+00	0	32	104	1048576	60	76116
2026-01-05 22:32:20.49	334.10	1.54	-51.1	-64.2	3.5	1.51e+00	0	32	104	1048576	60	76451
2026-01-05 22:32:24.53	333.90	1.31	-51.1	-64.1	3.5	1.52e+00	0	32	104	1048576	60	76260
2026-01-05 22:32:28.58	333.71	1.07	-51.1	-64.2	3.5	1.52e+00	0	32	104	1048576	60	76492
2026-01-05 22:32:32.62	333.52	0.84	-51.1	-64.1	3.5	1.52e+00	0	32	104	1048576	60	75711
2026-01-05 22:32:36.66	333.33	0.61	-51.1	-64.1	3.5	1.51e+00	0	32	104	1048576	60	75963
2026-01-05 22:32:40.70	333.15	0.38	-51.1	-64.1	3.5	1.52e+00	0	32	104	1048576	60	76211
2026-01-05 22:32:44.75	332.97	0.15	-51.1	-64.1	3.5	1.52e+00	0	32	104	1048576	60	76115
2026-01-05 22:32:48.80	332.79	-0.08	-51.1	-64.1	3.5	1.51e+00	0	32	104	1048576	60	75848

#Closed at: 2026-01-05 22:32:49
#Recorded file [1 MB]: D:/lorett/data/35034_260106_011827.dat