passes_logs/2026/01/05/R4.6S_Anadyr_2ch/R4.6S_Anadyr_2ch__20260105_131206_NOAA_20_JPSS-1_rec.log

#Pass ID: 20260105_131206_NOAA 20 (JPSS-1)
#Satellite: NOAA 20 (JPSS-1)
#Configuration: NOAA 20
#almurnet v.1.7.20251203
#Start time: 2026-01-05 13:12:07

#Version: 2.2.20231116
#Station: R4.6S_Anadyr_2ch
#Location: 177.4865 lon 64.73178 lat
#TLE: 1 43013U 17073A   25350.93759711  .00000080  00000+0  58734-4 0  9994
#TLE: 2 43013  98.7603 287.1885 0002156  81.1496 278.9924 14.19526878418610

#Time	Az	El	Level	Level2	SNR	BER	BlckErr	Temp	State	Recorded	gain1	gain2
2026-01-05 13:12:07.71	18.76	0.06	-51.1	-66.1	3.5	1.51e+00	0	21	0	0	60	98420
2026-01-05 13:12:11.75	18.96	0.28	-51.0	-66.3	3.6	1.51e+00	0	22	104	0	60	100690
2026-01-05 13:12:15.79	19.17	0.50	-50.9	-66.2	3.6	1.51e+00	0	22	104	0	60	99746
2026-01-05 13:12:19.84	19.37	0.73	-50.4	-65.8	3.6	1.51e+00	0	23	104	0	60	94771
2026-01-05 13:12:23.88	19.58	0.96	-49.5	-64.8	3.6	1.51e+00	0	23	104	0	60	84545
2026-01-05 13:12:27.93	19.80	1.19	-49.5	-64.8	3.6	1.51e+00	0	23	104	0	60	85148
2026-01-05 13:12:31.97	20.01	1.42	-49.5	-64.8	3.6	1.51e+00	0	23	104	0	60	85060
2026-01-05 13:12:36.01	20.23	1.65	-49.5	-64.7	3.6	1.51e+00	0	23	104	0	60	84074
2026-01-05 13:12:40.06	20.45	1.88	-49.5	-64.8	3.6	1.51e+00	0	23	104	0	60	84390
2026-01-05 13:12:44.10	20.68	2.12	-49.5	-64.7	3.6	1.51e+00	0	23	104	0	60	83715
2026-01-05 13:12:48.15	20.90	2.35	-49.5	-64.0	3.6	1.51e+00	0	23	104	0	60	77389
2026-01-05 13:12:52.19	21.14	2.59	-49.1	-58.7	5.4	1.03e+00	0	23	104	0	60	41789
2026-01-05 13:12:56.24	21.37	2.83	-45.4	-47.8	16.1	3.00e-06	81	23	102	1048576	60	12002
2026-01-05 13:13:00.28	21.61	3.08	-44.1	-46.0	17.8	0.00e+00	92	23	102	1048576	60	9759
2026-01-05 13:13:04.32	21.85	3.32	-47.8	-52.7	10.8	2.83e-04	0	23	102	1048576	60	21044
2026-01-05 13:13:08.37	22.10	3.57	-49.4	-63.8	3.6	1.51e+00	0	23	104	1048576	60	75118
2026-01-05 13:13:12.41	22.35	3.81	-45.8	-48.4	15.8	0.00e+00	0	23	0	1048576	60	12834
2026-01-05 13:13:16.45	22.60	4.06	-44.1	-45.8	18.2	0.00e+00	92	23	0	1048576	60	9560
2026-01-05 13:13:20.50	22.86	4.31	-44.1	-45.8	18.8	0.00e+00	5	23	0	1048576	60	9529
2026-01-05 13:13:24.54	23.12	4.57	-43.5	-45.1	19.1	0.00e+00	0	23	0	1048576	60	8738
2026-01-05 13:13:28.59	23.39	4.82	-43.3	-44.8	19.4	0.00e+00	0	23	101	1048576	60	8517
2026-01-05 13:13:32.63	23.66	5.08	-43.2	-44.7	19.6	0.00e+00	90	23	101	1048576	60	8345
2026-01-05 13:13:36.67	23.93	5.34	-43.0	-44.4	19.9	0.00e+00	6	23	101	1048576	60	8131
2026-01-05 13:13:40.72	24.21	5.60	-42.8	-44.2	20.3	0.00e+00	1	23	101	1048576	60	7873
2026-01-05 13:13:44.76	24.50	5.86	-42.2	-43.4	21.0	0.00e+00	0	23	101	1048576	60	7224
2026-01-05 13:13:48.80	24.79	6.13	-42.2	-43.4	21.0	0.00e+00	92	23	101	1048576	60	7228
2026-01-05 13:13:52.85	25.08	6.39	-42.2	-43.4	21.0	0.00e+00	0	23	101	1048576	60	7226
2026-01-05 13:13:56.89	25.38	6.66	-42.0	-43.2	21.1	0.00e+00	2	23	101	1048576	60	7088
2026-01-05 13:14:00.94	25.68	6.94	-41.8	-43.0	21.5	0.00e+00	0	23	101	1048576	60	6856
2026-01-05 13:14:04.98	25.99	7.21	-41.7	-42.8	21.6	0.00e+00	0	23	101	1048576	60	6717
2026-01-05 13:14:09.02	26.31	7.49	-41.4	-42.5	21.8	0.00e+00	0	23	101	1048576	60	6467
2026-01-05 13:14:13.07	26.63	7.77	-41.3	-42.4	22.0	0.00e+00	82	23	101	1048576	60	6461
2026-01-05 13:14:17.11	26.96	8.05	-41.5	-42.7	21.9	0.00e+00	92	23	101	1048576	60	6619
2026-01-05 13:14:21.16	27.29	8.33	-41.5	-42.7	21.9	0.00e+00	0	23	101	1048576	60	6624
2026-01-05 13:14:25.20	27.63	8.62	-40.9	-42.0	22.6	0.00e+00	82	23	101	1048576	60	6113
2026-01-05 13:14:29.25	27.97	8.91	-41.0	-42.0	22.5	0.00e+00	82	23	101	1048576	60	6143
2026-01-05 13:14:33.29	28.33	9.20	-41.1	-42.1	22.4	0.00e+00	92	23	101	1048576	60	6225
2026-01-05 13:14:37.34	28.68	9.49	-41.0	-42.1	22.5	0.00e+00	0	23	101	1048576	60	6177
2026-01-05 13:14:41.38	29.05	9.79	-41.4	-42.5	22.2	0.00e+00	0	23	101	1048576	60	6504
2026-01-05 13:14:45.42	29.42	10.08	-40.8	-41.9	22.8	0.00e+00	0	23	101	1048576	60	6038
2026-01-05 13:14:49.47	29.80	10.39	-40.5	-41.5	23.1	0.00e+00	92	23	101	1048576	60	5807
2026-01-05 13:14:53.51	30.19	10.69	-40.6	-41.5	23.2	0.00e+00	6	23	101	1048576	60	5812
2026-01-05 13:14:57.56	30.59	11.00	-40.6	-41.6	22.9	0.00e+00	0	23	101	1048576	60	5836
2026-01-05 13:15:01.60	30.99	11.30	-40.6	-41.6	23.1	0.00e+00	0	23	101	1048576	60	5835
2026-01-05 13:15:05.65	31.40	11.62	-40.3	-41.3	23.3	0.00e+00	91	23	101	1048576	60	5633
2026-01-05 13:15:09.70	31.82	11.93	-40.4	-41.3	23.3	0.00e+00	0	23	101	1048576	60	5695
2026-01-05 13:15:13.74	32.25	12.25	-40.6	-41.5	23.1	0.00e+00	8	24	101	1048576	60	5828
2026-01-05 13:15:17.79	32.69	12.57	-40.7	-41.6	23.0	0.00e+00	92	23	101	1048576	60	5895
2026-01-05 13:15:21.83	33.13	12.89	-40.8	-41.8	22.9	0.00e+00	0	24	101	1048576	60	6015
2026-01-05 13:15:25.87	33.59	13.22	-40.5	-41.5	23.2	0.00e+00	0	23	101	1048576	60	5800
2026-01-05 13:15:29.92	34.05	13.55	-40.7	-41.6	23.1	0.00e+00	0	24	101	1048576	60	5887
2026-01-05 13:15:33.96	34.53	13.88	-40.8	-41.8	22.9	0.00e+00	90	24	101	1048576	60	5967
2026-01-05 13:15:38.01	35.02	14.21	-40.7	-41.6	23.1	0.00e+00	2	24	101	1048576	60	5893
2026-01-05 13:15:42.05	35.51	14.55	-40.7	-41.7	23.1	0.00e+00	78	24	101	1048576	60	5923
2026-01-05 13:15:46.10	36.02	14.89	-40.7	-41.6	23.1	0.00e+00	0	24	101	1048576	60	5891
2026-01-05 13:15:50.14	36.54	15.23	-40.8	-41.8	23.0	0.00e+00	92	24	101	1048576	60	6010
2026-01-05 13:15:54.19	37.07	15.58	-40.8	-41.7	23.1	0.00e+00	0	24	101	1048576	60	5961
2026-01-05 13:15:58.23	37.62	15.92	-40.5	-41.4	23.4	0.00e+00	0	24	101	1048576	60	5759
2026-01-05 13:16:02.28	38.17	16.27	-40.7	-41.7	23.1	0.00e+00	2	24	101	1048576	60	5899
2026-01-05 13:16:06.32	38.74	16.63	-40.6	-41.6	23.3	0.00e+00	90	24	101	1048576	60	5839
2026-01-05 13:16:10.37	39.32	16.98	-40.6	-41.6	23.3	0.00e+00	0	24	101	1048576	60	5853
2026-01-05 13:16:14.41	39.91	17.34	-40.1	-41.0	23.8	0.00e+00	2	24	101	1048576	58	6107
2026-01-05 13:16:18.45	40.52	17.70	-40.1	-41.0	23.6	0.00e+00	0	24	101	1048576	58	6171
2026-01-05 13:16:22.50	41.15	18.06	-40.0	-40.9	23.8	0.00e+00	92	24	101	1048576	58	6038
2026-01-05 13:16:26.54	41.78	18.43	-39.5	-40.3	24.2	0.00e+00	4	24	101	1048576	58	5685
2026-01-05 13:16:30.59	42.44	18.79	-39.2	-40.1	24.5	0.00e+00	2	24	101	1048576	58	5511
2026-01-05 13:16:34.63	43.10	19.16	-39.3	-40.1	24.5	0.00e+00	92	24	101	1048576	58	5556
2026-01-05 13:16:38.68	43.79	19.53	-39.5	-40.3	24.4	0.00e+00	7	24	101	1048576	58	5682
2026-01-05 13:16:42.73	44.49	19.90	-39.3	-40.1	24.4	0.00e+00	6	24	101	1048576	58	5563
2026-01-05 13:16:46.77	45.20	20.28	-39.2	-40.0	24.7	0.00e+00	77	24	101	1048576	56	6125
2026-01-05 13:16:50.82	45.94	20.65	-39.0	-39.8	24.7	0.00e+00	92	24	101	1048576	56	6027
2026-01-05 13:16:54.86	46.69	21.02	-38.9	-39.7	24.8	0.00e+00	0	24	101	1048576	56	5928
2026-01-05 13:16:58.91	47.46	21.40	-38.5	-39.3	25.1	0.00e+00	0	24	101	1048576	56	5656
2026-01-05 13:17:02.95	48.25	21.78	-38.4	-39.2	25.3	0.00e+00	0	24	101	1048576	56	5591
2026-01-05 13:17:07.00	49.05	22.15	-38.3	-39.0	25.5	0.00e+00	92	24	101	1048576	56	5483
2026-01-05 13:17:11.04	49.88	22.53	-38.3	-39.1	25.3	0.00e+00	0	24	101	1048576	54	6203
2026-01-05 13:17:15.09	50.72	22.90	-38.7	-39.5	25.0	0.00e+00	0	24	101	1048576	54	6522
2026-01-05 13:17:19.13	51.59	23.28	-38.9	-39.7	24.8	0.00e+00	0	24	101	1048576	54	6677
2026-01-05 13:17:23.17	52.47	23.65	-39.2	-40.0	24.6	0.00e+00	92	24	101	1048576	56	6142
2026-01-05 13:17:27.22	53.38	24.02	-39.3	-40.1	24.6	0.00e+00	0	24	101	1048576	56	6215
2026-01-05 13:17:31.26	54.31	24.39	-39.3	-40.1	24.6	0.00e+00	2	24	101	1048576	56	6238
2026-01-05 13:17:35.31	55.26	24.76	-39.8	-40.7	24.1	0.00e+00	81	24	101	1048576	56	6669
2026-01-05 13:17:39.35	56.23	25.12	-39.9	-40.8	24.0	0.00e+00	0	24	101	1048576	56	6737
2026-01-05 13:17:43.40	57.23	25.48	-40.0	-40.9	24.0	0.00e+00	0	24	101	1048576	58	6051
2026-01-05 13:17:47.44	58.24	25.83	-39.6	-40.5	24.2	0.00e+00	0	24	101	1048576	58	5804
2026-01-05 13:17:51.49	59.28	26.18	-40.3	-41.2	23.6	0.00e+00	90	24	101	1048576	58	6298
2026-01-05 13:17:55.53	60.34	26.53	-41.0	-42.0	22.9	0.00e+00	2	24	101	1048576	58	6912
2026-01-05 13:17:59.57	61.42	26.87	-41.3	-42.3	22.7	0.00e+00	81	24	101	1048576	60	6341
2026-01-05 13:18:03.62	62.53	27.20	-41.7	-42.8	22.3	0.00e+00	83	24	101	1048576	60	6725
2026-01-05 13:18:07.66	63.66	27.52	-42.0	-43.1	21.9	0.00e+00	92	24	101	1048576	60	6976
2026-01-05 13:18:11.71	64.81	27.84	-42.4	-43.6	21.5	0.00e+00	0	24	101	1048576	60	7355
2026-01-05 13:18:15.75	65.98	28.15	-41.9	-43.1	22.0	0.00e+00	7	24	101	1048576	60	6932
2026-01-05 13:18:19.79	67.17	28.44	-41.5	-42.5	22.6	0.00e+00	5	24	101	1048576	60	6505
2026-01-05 13:18:23.84	68.39	28.73	-41.4	-42.4	22.6	0.00e+00	92	24	101	1048576	60	6425
2026-01-05 13:18:27.88	69.63	29.01	-41.6	-42.6	22.2	0.00e+00	0	24	101	1048576	60	6583
2026-01-05 13:18:31.93	70.89	29.27	-42.9	-44.1	21.1	0.00e+00	4	24	101	1048576	60	7859
2026-01-05 13:18:35.97	72.17	29.52	-43.5	-44.9	20.4	0.00e+00	2	24	101	1048576	60	8530
2026-01-05 13:18:40.01	73.47	29.76	-43.8	-45.2	20.0	0.00e+00	92	24	101	1048576	60	8900
2026-01-05 13:18:44.06	74.79	29.99	-44.1	-45.6	19.7	0.00e+00	0	24	101	1048576	60	9282
2026-01-05 13:18:48.10	76.12	30.20	-43.4	-44.7	20.6	0.00e+00	0	24	101	1048576	60	8362
2026-01-05 13:18:52.15	77.47	30.39	-43.3	-44.6	20.6	0.00e+00	0	24	101	1048576	60	8304
2026-01-05 13:18:56.19	78.84	30.57	-43.0	-44.3	20.8	0.00e+00	75	24	101	1048576	60	7997
2026-01-05 13:19:00.24	80.22	30.73	-42.3	-43.5	21.7	0.00e+00	0	24	101	1048576	60	7256
2026-01-05 13:19:04.28	81.61	30.87	-42.5	-43.6	21.6	0.00e+00	0	24	101	1048576	60	7409
2026-01-05 13:19:08.33	83.02	31.00	-42.2	-43.3	21.7	0.00e+00	92	24	101	1048576	60	7155
2026-01-05 13:19:12.37	84.44	31.11	-42.3	-43.5	21.6	0.00e+00	0	24	101	1048576	60	7284
2026-01-05 13:19:16.41	85.86	31.20	-42.8	-44.0	21.3	0.00e+00	6	24	101	1048576	60	7696
2026-01-05 13:19:20.46	87.29	31.27	-42.4	-43.6	21.5	0.00e+00	0	24	101	1048576	60	7356
2026-01-05 13:19:24.50	88.73	31.32	-42.1	-43.2	21.9	0.00e+00	92	24	101	1048576	60	7024
2026-01-05 13:19:28.55	90.17	31.35	-41.9	-43.0	22.1	0.00e+00	4	24	101	1048576	60	6882
2026-01-05 13:19:32.59	91.61	31.36	-41.4	-42.4	22.6	0.00e+00	4	24	101	1048576	60	6445
2026-01-05 13:19:36.63	93.05	31.35	-42.7	-43.9	20.6	0.00e+00	0	24	101	1048576	60	7618
2026-01-05 13:19:40.68	94.50	31.33	-42.4	-43.6	21.5	0.00e+00	92	24	101	1048576	60	7378
2026-01-05 13:19:44.72	95.93	31.28	-42.5	-43.7	21.5	0.00e+00	6	24	101	1048576	60	7430
2026-01-05 13:19:48.76	97.37	31.21	-42.4	-43.5	21.6	0.00e+00	6	24	101	1048576	60	7311
2026-01-05 13:19:52.81	98.80	31.13	-43.3	-44.6	20.6	0.00e+00	5	24	101	1048576	60	8242
2026-01-05 13:19:56.85	100.21	31.02	-43.6	-45.1	20.0	0.00e+00	92	24	101	1048576	60	8744
2026-01-05 13:20:00.90	101.63	30.90	-42.9	-44.2	21.0	0.00e+00	0	24	101	1048576	60	7910
2026-01-05 13:20:04.94	103.02	30.76	-44.0	-45.5	19.8	0.00e+00	5	24	101	1048576	60	9139
2026-01-05 13:20:08.99	104.41	30.60	-43.2	-44.5	20.7	0.00e+00	12	24	101	1048576	60	8179
2026-01-05 13:20:13.03	105.78	30.43	-41.7	-42.8	22.2	0.00e+00	92	24	101	1048576	60	6725
2026-01-05 13:20:17.08	107.14	30.24	-41.6	-42.6	22.5	0.00e+00	2	24	101	1048576	60	6574
2026-01-05 13:20:21.12	108.48	30.03	-42.6	-43.7	21.3	0.00e+00	0	24	101	1048576	60	7508
2026-01-05 13:20:25.16	109.80	29.81	-41.7	-42.8	22.4	0.00e+00	92	24	101	1048576	60	6736
2026-01-05 13:20:29.21	111.11	29.57	-41.5	-42.5	22.6	0.00e+00	32	24	101	1048576	60	6533
2026-01-05 13:20:33.25	112.39	29.32	-42.4	-43.5	21.6	0.00e+00	0	24	101	1048576	60	7331
2026-01-05 13:20:37.30	113.66	29.06	-42.7	-43.9	21.2	0.00e+00	0	24	101	1048576	60	7647
2026-01-05 13:20:41.34	114.91	28.78	-41.8	-42.9	22.2	0.00e+00	92	24	101	1048576	60	6777
2026-01-05 13:20:45.39	116.13	28.50	-42.6	-43.8	21.3	0.00e+00	4	24	101	1048576	60	7568
2026-01-05 13:20:49.43	117.33	28.20	-43.0	-44.2	20.8	0.00e+00	78	24	101	1048576	60	7924
2026-01-05 13:20:53.48	118.52	27.89	-42.9	-44.2	21.0	0.00e+00	5	24	101	1048576	60	7872
2026-01-05 13:20:57.52	119.67	27.58	-42.5	-43.7	21.4	0.00e+00	92	24	101	1048576	60	7457
2026-01-05 13:21:01.56	120.81	27.25	-41.0	-42.0	22.9	0.00e+00	6	24	101	1048576	60	6135
2026-01-05 13:21:05.61	121.92	26.92	-41.0	-42.0	22.9	0.00e+00	0	24	101	1048576	60	6140
2026-01-05 13:21:09.65	123.01	26.58	-41.8	-42.8	22.2	0.00e+00	82	24	101	1048576	60	6754
2026-01-05 13:21:13.70	124.08	26.24	-41.1	-42.1	22.9	0.00e+00	92	24	101	1048576	60	6199
2026-01-05 13:21:17.74	125.13	25.89	-40.7	-41.7	23.2	0.00e+00	7	24	101	1048576	60	5909
2026-01-05 13:21:21.79	126.15	25.53	-40.5	-41.4	23.4	0.00e+00	78	24	101	1048576	60	5735
2026-01-05 13:21:25.83	127.15	25.17	-41.9	-43.0	22.0	0.00e+00	92	24	101	1048576	60	6852
2026-01-05 13:21:29.87	128.13	24.80	-41.2	-42.1	22.8	0.00e+00	0	24	101	1048576	60	6238
2026-01-05 13:21:33.92	129.09	24.44	-41.8	-42.8	22.2	0.00e+00	0	24	101	1048576	60	6755
2026-01-05 13:21:37.96	130.02	24.07	-40.6	-41.5	23.4	0.00e+00	0	24	101	1048576	60	5822
2026-01-05 13:21:42.01	130.94	23.69	-41.1	-42.1	22.8	0.00e+00	90	24	101	1048576	58	6936
2026-01-05 13:21:46.05	131.83	23.32	-39.9	-40.8	24.0	0.00e+00	0	24	101	1048576	58	6007
2026-01-05 13:21:50.10	132.70	22.94	-41.3	-42.4	22.6	0.00e+00	0	24	101	1048576	60	6399
2026-01-05 13:21:54.14	133.55	22.56	-40.3	-41.3	23.7	0.00e+00	0	24	101	1048576	60	5631
2026-01-05 13:21:58.19	134.38	22.19	-40.3	-41.2	23.6	0.00e+00	92	24	101	1048576	58	6292
2026-01-05 13:22:02.23	135.20	21.81	-40.4	-41.4	23.6	0.00e+00	0	24	101	1048576	58	6403
2026-01-05 13:22:06.27	135.99	21.43	-40.2	-41.1	23.8	0.00e+00	0	24	101	1048576	58	6181
2026-01-05 13:22:10.32	136.76	21.05	-40.0	-40.9	23.9	0.00e+00	0	24	101	1048576	58	6067
2026-01-05 13:22:14.36	137.52	20.68	-39.1	-40.0	24.6	0.00e+00	91	24	101	1048576	56	6122
2026-01-05 13:22:18.41	138.26	20.30	-39.3	-40.1	24.5	0.00e+00	0	24	101	1048576	56	6236
2026-01-05 13:22:22.45	138.98	19.92	-39.2	-40.0	24.4	0.00e+00	0	24	101	1048576	56	6139
2026-01-05 13:22:26.49	139.68	19.55	-38.9	-39.8	24.8	0.00e+00	0	24	101	1048576	56	5968
2026-01-05 13:22:30.54	140.37	19.18	-39.2	-40.0	24.6	0.00e+00	90	24	101	1048576	56	6130
2026-01-05 13:22:34.58	141.04	18.81	-38.9	-39.7	24.8	0.00e+00	83	24	101	1048576	56	5954
2026-01-05 13:22:38.63	141.70	18.44	-39.1	-39.9	24.6	0.00e+00	0	24	101	1048576	56	6099
2026-01-05 13:22:42.67	142.34	18.07	-39.7	-40.5	24.2	0.00e+00	92	24	101	1048576	56	6517
2026-01-05 13:22:46.72	142.97	17.70	-39.9	-40.7	23.9	0.00e+00	92	24	101	1048576	56	6691
2026-01-05 13:22:50.76	143.58	17.34	-39.7	-40.6	24.1	0.00e+00	2	24	101	1048576	56	6589
2026-01-05 13:22:54.81	144.18	16.98	-39.9	-40.8	23.8	0.00e+00	2	24	101	1048576	56	6728
2026-01-05 13:22:58.85	144.76	16.62	-40.1	-41.0	23.6	0.00e+00	92	24	101	1048576	58	6165
2026-01-05 13:23:02.90	145.33	16.27	-40.5	-41.5	23.1	0.00e+00	0	24	101	1048576	58	6507
2026-01-05 13:23:06.94	145.89	15.91	-40.8	-41.8	23.0	0.00e+00	0	24	101	1048576	58	6717
2026-01-05 13:23:10.98	146.43	15.56	-41.3	-42.3	22.5	0.00e+00	80	24	101	1048576	60	6365
2026-01-05 13:23:15.03	146.97	15.22	-41.3	-42.4	22.5	0.00e+00	92	24	101	1048576	60	6394
2026-01-05 13:23:19.08	147.49	14.87	-40.7	-41.7	23.1	0.00e+00	0	24	101	1048576	60	5910
2026-01-05 13:23:23.12	148.00	14.53	-40.4	-41.4	23.3	0.00e+00	0	24	101	1048576	60	5717
2026-01-05 13:23:27.16	148.50	14.19	-41.3	-42.4	22.5	0.00e+00	0	24	101	1048576	60	6396
2026-01-05 13:23:31.21	148.99	13.85	-41.2	-42.3	22.4	0.00e+00	92	24	101	1048576	60	6354
2026-01-05 13:23:35.25	149.46	13.52	-40.6	-41.6	23.2	0.00e+00	81	24	101	1048576	60	5840
2026-01-05 13:23:39.30	149.93	13.19	-40.4	-41.4	23.4	0.00e+00	0	24	101	1048576	60	5696
2026-01-05 13:23:43.34	150.39	12.86	-40.8	-41.8	22.9	0.00e+00	0	24	101	1048576	60	6027
2026-01-05 13:23:47.39	150.84	12.53	-41.3	-42.3	22.4	0.00e+00	28	24	101	1048576	60	6382
2026-01-05 13:23:51.43	151.28	12.21	-40.8	-41.8	22.9	0.00e+00	81	24	101	1048576	60	6027
2026-01-05 13:23:55.47	151.70	11.89	-40.2	-41.2	23.4	0.00e+00	6	24	101	1048576	60	5582
2026-01-05 13:23:59.52	152.13	11.57	-40.3	-41.2	23.2	0.00e+00	90	24	101	1048576	58	6311
2026-01-05 13:24:03.55	152.54	11.26	-41.0	-42.1	22.5	0.00e+00	0	24	101	1048576	58	6953
2026-01-05 13:24:07.60	152.94	10.95	-41.6	-42.7	21.7	0.00e+00	83	24	101	1048576	60	6659
2026-01-05 13:24:11.64	153.33	10.64	-42.2	-43.5	20.8	0.00e+00	0	24	101	1048576	60	7320
2026-01-05 13:24:15.69	153.72	10.33	-42.9	-44.4	19.5	0.00e+00	91	24	101	1048576	60	8088
2026-01-05 13:24:19.73	154.10	10.03	-43.8	-45.7	18.1	0.00e+00	0	24	101	1048576	60	9356
2026-01-05 13:24:23.78	154.48	9.73	-44.8	-47.1	16.3	0.00e+00	81	24	101	1048576	60	11091
2026-01-05 13:24:27.83	154.84	9.43	-45.5	-48.5	14.8	0.00e+00	0	24	101	1048576	60	12944
2026-01-05 13:24:31.87	155.20	9.13	-45.2	-47.8	15.7	0.00e+00	90	24	101	1048576	60	11910
2026-01-05 13:24:35.92	155.55	8.84	-44.1	-46.0	17.6	0.00e+00	0	24	101	1048576	60	9739
2026-01-05 13:24:39.96	155.90	8.55	-43.5	-45.1	18.8	0.00e+00	0	24	101	1048576	60	8790
2026-01-05 13:24:44.00	156.23	8.26	-42.8	-44.2	20.1	0.00e+00	0	24	101	1048576	60	7904
2026-01-05 13:24:48.05	156.57	7.98	-42.5	-43.8	20.6	0.00e+00	92	24	101	1048576	60	7566
2026-01-05 13:24:52.09	156.89	7.69	-42.3	-43.6	20.8	0.00e+00	0	24	101	1048576	60	7363
2026-01-05 13:24:56.13	157.21	7.41	-42.0	-43.2	21.1	0.00e+00	0	24	101	1048576	60	7058
2026-01-05 13:25:00.18	157.53	7.13	-42.0	-43.3	21.1	0.00e+00	0	24	101	1048576	60	7100
2026-01-05 13:25:04.23	157.83	6.86	-42.0	-43.2	21.1	0.00e+00	92	24	101	1048576	60	7062
2026-01-05 13:25:08.27	158.14	6.58	-42.4	-43.7	20.6	0.00e+00	2	24	101	1048576	60	7489
2026-01-05 13:25:12.31	158.43	6.31	-42.2	-43.5	20.8	0.00e+00	0	24	101	1048576	60	7291
2026-01-05 13:25:16.36	158.73	6.04	-42.6	-44.0	20.3	0.00e+00	92	24	101	1048576	60	7705
2026-01-05 13:25:20.40	159.02	5.77	-42.8	-44.2	20.1	0.00e+00	81	24	101	1048576	60	7937
2026-01-05 13:25:24.45	159.30	5.51	-43.2	-44.7	19.7	0.00e+00	80	24	101	1048576	60	8384
2026-01-05 13:25:28.49	159.58	5.25	-43.4	-44.9	19.4	0.00e+00	0	24	101	1048576	60	8575
2026-01-05 13:25:32.54	159.85	4.98	-43.5	-45.1	19.2	0.00e+00	92	24	101	1048576	60	8731
2026-01-05 13:25:36.58	160.12	4.73	-43.2	-44.7	19.5	0.00e+00	0	24	101	1048576	60	8331
2026-01-05 13:25:40.63	160.38	4.47	-43.7	-45.3	18.9	0.00e+00	78	24	101	1048576	60	8987
2026-01-05 13:25:44.68	160.64	4.21	-43.9	-45.6	18.4	0.00e+00	0	24	101	1048576	60	9304
2026-01-05 13:25:48.72	160.90	3.96	-43.8	-45.5	18.6	0.00e+00	92	24	101	1048576	60	9159
2026-01-05 13:25:52.76	161.15	3.71	-43.7	-45.4	18.6	0.00e+00	6	24	101	1048576	60	9052
2026-01-05 13:25:56.81	161.40	3.46	-43.6	-45.3	18.7	0.00e+00	0	24	101	1048576	60	8954
2026-01-05 13:26:00.85	161.64	3.21	-44.4	-46.3	17.5	0.00e+00	62	24	101	1048576	60	10128
2026-01-05 13:26:04.89	161.88	2.97	-49.5	-64.7	3.6	1.51e+00	0	24	104	1048576	60	84105
2026-01-05 13:26:08.94	162.11	2.72	-50.9	-66.2	3.6	1.51e+00	0	24	104	1048576	60	100094
2026-01-05 13:26:12.99	162.35	2.48	-51.1	-66.4	3.6	1.51e+00	0	24	104	1048576	60	102003
2026-01-05 13:26:17.03	162.58	2.24	-51.0	-66.3	3.6	1.51e+00	0	24	104	1048576	60	101275
2026-01-05 13:26:21.08	162.80	2.00	-51.0	-66.3	3.6	1.51e+00	0	24	104	1048576	60	100498
2026-01-05 13:26:25.12	163.02	1.76	-51.0	-66.3	3.6	1.51e+00	0	24	104	1048576	60	100808
2026-01-05 13:26:29.16	163.24	1.53	-51.1	-66.4	3.6	1.51e+00	0	25	104	1048576	60	102259
2026-01-05 13:26:33.21	163.46	1.29	-51.1	-66.4	3.6	1.51e+00	0	24	104	1048576	60	101745
2026-01-05 13:26:37.25	163.67	1.06	-51.2	-66.5	3.6	1.51e+00	0	24	104	1048576	60	103007
2026-01-05 13:26:41.30	163.88	0.83	-51.1	-66.4	3.6	1.51e+00	0	24	104	1048576	60	101778
2026-01-05 13:26:45.34	164.09	0.60	-51.2	-66.5	3.6	1.51e+00	0	24	104	1048576	60	102551
2026-01-05 13:26:49.39	164.29	0.37	-51.3	-66.6	3.6	1.51e+00	0	24	104	1048576	60	104567
2026-01-05 13:26:53.43	164.49	0.15	-51.2	-66.5	3.6	1.51e+00	0	25	104	1048576	60	103179

#Closed at: 2026-01-05 13:26:56
#Recorded file [1 MB]: D:/lorett/data/35034_260105_161207.dat