passes_logs/2026/01/05/R4.6S_Anadyr_2ch/R4.6S_Anadyr_2ch__20260105_033337_FENGYUN_3E_rec.log

#Pass ID: 20260105_033337_FENGYUN 3E
#Satellite: FENGYUN 3E
#Configuration: FENGYUN 3E
#almurnet v.1.7.20251203
#Start time: 2026-01-05 03:33:39

#Version: 2.2.20231116
#Station: R4.6S_Anadyr_2ch
#Location: 177.4865 lon 64.73178 lat
#TLE: 1 49008U 21062A   25350.97288215  .00000176  00000+0  10353-3 0  9997
#TLE: 2 49008  98.7477 351.4440 0000638 234.3856 125.7261 14.19881381230726

#Time	Az	El	Level	Level2	SNR	BER	BlckErr	Temp	State	Recorded	gain1	gain2
2026-01-05 03:33:39.54	133.25	0.10	-52.7	-67.7	3.5	1.51e+00	0	22	0	0	60	118843
2026-01-05 03:33:43.59	133.16	0.34	-52.1	-63.6	3.6	8.45e-01	0	23	104	0	60	74980
2026-01-05 03:33:47.63	133.07	0.59	-51.4	-62.9	3.6	8.46e-01	0	24	104	0	60	68971
2026-01-05 03:33:51.67	132.97	0.83	-51.5	-63.0	3.6	8.45e-01	0	24	104	0	60	69387
2026-01-05 03:33:55.72	132.88	1.08	-51.0	-62.4	3.6	8.45e-01	0	24	104	0	60	65358
2026-01-05 03:33:59.76	132.78	1.33	-50.1	-61.6	3.6	8.46e-01	0	24	104	0	60	59151
2026-01-05 03:34:03.80	132.68	1.58	-49.6	-61.1	3.6	8.46e-01	0	24	104	0	60	55902
2026-01-05 03:34:07.85	132.58	1.83	-49.3	-60.9	3.6	8.45e-01	0	24	104	0	60	54647
2026-01-05 03:34:11.89	132.48	2.08	-49.5	-61.1	3.5	8.45e-01	0	24	104	0	60	55731
2026-01-05 03:34:15.94	132.37	2.34	-49.8	-61.1	3.6	8.45e-01	0	24	104	0	60	55743
2026-01-05 03:34:19.98	132.26	2.60	-49.4	-61.0	3.6	8.44e-01	0	24	104	0	60	55382
2026-01-05 03:34:24.02	132.15	2.86	-49.3	-60.5	3.6	8.45e-01	0	24	104	0	60	52111
2026-01-05 03:34:28.06	132.04	3.12	-49.2	-59.8	3.6	8.44e-01	0	24	104	0	60	48442
2026-01-05 03:34:32.11	131.93	3.39	-49.4	-61.0	3.6	8.44e-01	0	24	104	0	60	55234
2026-01-05 03:34:36.15	131.81	3.66	-47.2	-50.6	9.9	4.15e-02	0	24	0	7340032	60	16663
2026-01-05 03:34:40.19	131.69	3.93	-42.9	-44.3	16.0	0.00e+00	0	24	0	35651584	60	8094
2026-01-05 03:34:44.24	131.57	4.21	-38.9	-39.7	19.4	0.00e+00	0	24	104	52428800	56	5978
2026-01-05 03:34:48.28	131.45	4.48	-37.8	-38.5	21.3	0.00e+00	0	24	0	65011712	54	5834
2026-01-05 03:34:52.32	131.32	4.76	-37.4	-38.1	21.5	0.00e+00	0	24	0	94371840	54	5571
2026-01-05 03:34:56.37	131.19	5.04	-36.7	-37.4	22.6	0.00e+00	0	24	0	122683392	52	5765
2026-01-05 03:35:00.41	131.06	5.33	-36.8	-37.4	22.8	0.00e+00	0	24	0	152043520	52	5826
2026-01-05 03:35:04.46	130.92	5.62	-36.5	-37.1	22.8	0.00e+00	0	24	0	181403648	52	5617
2026-01-05 03:35:08.50	130.79	5.91	-37.1	-37.7	22.8	0.00e+00	0	24	0	210763776	52	5995
2026-01-05 03:35:12.54	130.64	6.20	-36.2	-36.8	23.3	0.00e+00	0	24	0	240123904	52	5416
2026-01-05 03:35:16.59	130.50	6.50	-36.4	-37.0	23.0	0.00e+00	0	24	0	269484032	52	5523
2026-01-05 03:35:20.63	130.35	6.80	-36.1	-36.7	23.5	0.00e+00	0	24	0	297795584	52	5349
2026-01-05 03:35:24.68	130.20	7.10	-36.2	-36.7	23.4	0.00e+00	0	24	0	327155712	50	6022
2026-01-05 03:35:28.72	130.05	7.41	-37.1	-37.7	22.0	0.00e+00	0	24	0	356515840	52	5993
2026-01-05 03:35:32.76	129.89	7.72	-36.0	-36.6	23.8	0.00e+00	0	24	0	385875968	50	5917
2026-01-05 03:35:36.81	129.73	8.04	-36.2	-36.7	23.7	0.00e+00	0	25	0	415236096	50	6017
2026-01-05 03:35:40.85	129.57	8.35	-36.4	-37.0	23.5	0.00e+00	0	24	0	443547648	50	6178
2026-01-05 03:35:44.90	129.40	8.68	-36.1	-36.6	23.8	0.00e+00	0	24	0	472907776	50	5947
2026-01-05 03:35:48.94	129.22	9.00	-35.7	-36.3	24.0	0.00e+00	0	25	0	502267904	50	5720
2026-01-05 03:35:52.99	129.05	9.33	-35.9	-36.4	24.0	0.00e+00	0	25	0	531628032	50	5813
2026-01-05 03:35:57.03	128.86	9.67	-35.6	-36.1	24.2	0.00e+00	0	25	0	560988160	50	5622
2026-01-05 03:36:01.08	128.68	10.01	-35.0	-35.6	24.6	0.00e+00	0	24	0	590348288	50	5280
2026-01-05 03:36:05.12	128.49	10.35	-35.0	-35.5	24.8	0.00e+00	0	25	0	619708416	48	5893
2026-01-05 03:36:09.17	128.29	10.70	-35.0	-35.6	24.8	0.00e+00	0	25	0	649068544	48	5900
2026-01-05 03:36:13.21	128.09	11.05	-35.0	-35.5	24.8	0.00e+00	0	25	0	678428672	48	5873
2026-01-05 03:36:17.25	127.89	11.41	-35.0	-35.5	24.8	0.00e+00	0	25	0	706740224	48	5860
2026-01-05 03:36:21.30	127.67	11.77	-34.8	-35.3	24.9	0.00e+00	0	25	0	736100352	48	5730
2026-01-05 03:36:25.34	127.46	12.13	-34.7	-35.2	24.9	0.00e+00	0	24	0	765460480	48	5676
2026-01-05 03:36:29.38	127.24	12.51	-34.5	-35.0	25.2	0.00e+00	0	25	0	794820608	48	5555
2026-01-05 03:36:33.43	127.01	12.88	-34.5	-35.1	25.2	0.00e+00	0	25	0	824180736	48	5576
2026-01-05 03:36:37.47	126.77	13.26	-34.4	-35.0	25.3	0.00e+00	0	24	0	852492288	48	5504
2026-01-05 03:36:41.52	126.53	13.65	-34.4	-35.0	25.3	0.00e+00	0	24	0	881852416	48	5506
2026-01-05 03:36:45.56	126.28	14.05	-36.2	-36.8	24.0	0.00e+00	0	25	0	911212544	50	6039
2026-01-05 03:36:49.61	126.03	14.45	-34.9	-35.4	24.9	0.00e+00	0	25	0	940572672	48	5820
2026-01-05 03:36:53.65	125.77	14.85	-36.0	-36.5	24.9	0.00e+00	0	25	0	969932800	50	5887
2026-01-05 03:36:57.69	125.50	15.26	-34.6	-35.1	25.6	0.00e+00	0	25	0	999292928	48	5606
2026-01-05 03:37:01.74	125.22	15.68	-34.7	-35.2	25.4	0.00e+00	0	25	0	1027604480	48	5650
2026-01-05 03:37:05.78	124.93	16.11	-33.9	-34.3	26.1	0.00e+00	0	25	0	1056964608	46	5756
2026-01-05 03:37:09.83	124.64	16.54	-35.4	-35.9	24.6	0.00e+00	0	25	0	1086324736	48	6143
2026-01-05 03:37:13.87	124.33	16.98	-33.6	-34.1	26.3	0.00e+00	0	25	0	1115684864	46	5626
2026-01-05 03:37:17.91	124.02	17.42	-33.5	-34.0	26.4	0.00e+00	0	25	0	1145044992	46	5543
2026-01-05 03:37:21.96	123.70	17.88	-33.0	-33.5	26.7	0.00e+00	0	25	0	1174405120	44	5888
2026-01-05 03:37:26.01	123.36	18.34	-33.6	-34.1	26.2	0.00e+00	0	25	0	1202716672	44	6268
2026-01-05 03:37:30.05	123.02	18.81	-32.8	-33.4	26.8	0.00e+00	0	25	0	1232076800	44	5764
2026-01-05 03:37:34.09	122.66	19.28	-32.7	-33.2	26.7	0.00e+00	0	25	0	1261436928	44	5676
2026-01-05 03:37:38.14	122.30	19.77	-32.6	-33.1	27.1	0.00e+00	0	25	0	1290797056	44	5582
2026-01-05 03:37:42.18	121.92	20.26	-33.2	-33.7	26.4	0.00e+00	0	25	0	1320157184	44	5994
2026-01-05 03:37:46.23	121.52	20.76	-34.8	-35.3	25.8	0.00e+00	0	25	0	1349517312	46	6397
2026-01-05 03:37:50.27	121.12	21.27	-32.7	-33.2	27.2	0.00e+00	0	25	0	1378877440	44	5645
2026-01-05 03:37:54.31	120.70	21.79	-32.2	-32.7	27.2	0.00e+00	0	25	0	1408237568	42	5999
2026-01-05 03:37:58.36	120.27	22.31	-32.2	-32.6	27.5	0.00e+00	0	25	0	1436549120	44	5307
2026-01-05 03:38:02.40	119.82	22.85	-32.4	-32.9	27.4	0.00e+00	0	25	0	1465909248	42	6108
2026-01-05 03:38:06.44	119.35	23.39	-32.7	-33.2	27.1	0.00e+00	0	25	0	1495269376	44	5646
2026-01-05 03:38:10.49	118.87	23.95	-32.6	-33.0	27.3	0.00e+00	0	25	0	1524629504	44	5563
2026-01-05 03:38:14.53	118.37	24.51	-32.6	-33.1	27.1	0.00e+00	0	25	0	1553989632	44	5574
2026-01-05 03:38:18.58	117.85	25.09	-32.6	-33.1	27.2	0.00e+00	0	25	0	1582301184	44	5598
2026-01-05 03:38:22.62	117.31	25.67	-32.5	-33.0	27.2	0.00e+00	0	25	0	1611661312	44	5504
2026-01-05 03:38:26.66	116.75	26.27	-32.8	-33.3	27.3	0.00e+00	0	25	0	1641021440	44	5731
2026-01-05 03:38:30.71	116.16	26.87	-32.3	-32.8	27.6	0.00e+00	0	25	0	1670381568	44	5385
2026-01-05 03:38:34.75	115.56	27.49	-32.7	-33.1	27.5	0.00e+00	0	25	0	1699741696	44	5609
2026-01-05 03:38:38.79	114.93	28.11	-31.6	-32.0	28.1	0.00e+00	0	25	0	1729101824	42	5555
2026-01-05 03:38:42.84	114.27	28.75	-31.3	-31.7	28.2	0.00e+00	0	25	0	1757413376	40	6026
2026-01-05 03:38:46.88	113.59	29.39	-31.5	-32.0	28.1	0.00e+00	0	25	0	1786773504	40	6235
2026-01-05 03:38:50.93	112.88	30.05	-31.6	-32.0	28.0	0.00e+00	0	25	0	1816133632	42	5562
2026-01-05 03:38:54.97	112.14	30.72	-31.7	-32.2	27.9	0.00e+00	0	25	0	1845493760	42	5641
2026-01-05 03:38:59.02	111.36	31.39	-32.0	-32.4	27.7	0.00e+00	0	25	0	1874853888	42	5822
2026-01-05 03:39:03.06	110.56	32.08	-32.6	-33.1	27.4	0.00e+00	0	25	0	1904214016	42	6268
2026-01-05 03:39:07.10	109.72	32.77	-32.1	-32.6	27.8	0.00e+00	0	25	0	1932525568	42	5935
2026-01-05 03:39:11.15	108.84	33.48	-31.5	-32.0	28.2	0.00e+00	0	25	0	1961885696	42	5526
2026-01-05 03:39:15.19	107.92	34.19	-31.1	-31.6	28.4	0.00e+00	0	25	0	1991245824	40	5934
2026-01-05 03:39:19.24	106.96	34.91	-32.7	-33.2	27.0	0.00e+00	0	25	0	2020605952	42	6336
2026-01-05 03:39:23.28	105.95	35.63	-32.1	-32.5	27.7	0.00e+00	0	25	0	2049966080	42	5890
2026-01-05 03:39:27.33	104.90	36.37	-31.7	-32.1	28.1	0.00e+00	0	25	0	2079326208	42	5625
2026-01-05 03:39:31.37	103.80	37.10	-31.9	-32.3	28.1	0.00e+00	0	25	0	2108686336	42	5753
2026-01-05 03:39:35.41	102.65	37.84	-31.8	-32.2	28.1	0.00e+00	0	25	0	2138046464	42	5677
2026-01-05 03:39:39.46	101.44	38.59	-32.3	-32.7	27.2	0.00e+00	0	25	0	2166358016	44	5360
2026-01-05 03:39:43.50	100.18	39.33	-32.3	-32.8	27.8	0.00e+00	0	25	0	2195718144	42	6068
2026-01-05 03:39:47.55	98.86	40.07	-32.2	-32.7	27.5	0.00e+00	0	25	0	2225078272	42	6005
2026-01-05 03:39:51.59	97.47	40.81	-31.7	-32.1	27.9	0.00e+00	0	25	0	2254438400	42	5604
2026-01-05 03:39:55.64	96.02	41.55	-32.3	-32.8	27.6	0.00e+00	0	25	0	2283798528	42	6047
2026-01-05 03:39:59.68	94.51	42.28	-32.3	-32.7	27.6	0.00e+00	0	25	0	2313158656	42	6025
2026-01-05 03:40:03.72	92.92	43.00	-31.7	-32.2	28.1	0.00e+00	0	25	0	2341470208	42	5659
2026-01-05 03:40:07.77	91.26	43.71	-31.7	-32.2	27.9	0.00e+00	0	25	0	2370830336	42	5635
2026-01-05 03:40:11.81	89.53	44.40	-32.0	-32.4	27.7	0.00e+00	0	25	0	2400190464	42	5822
2026-01-05 03:40:15.86	87.72	45.07	-32.1	-32.5	27.6	0.00e+00	0	25	0	2429550592	42	5886
2026-01-05 03:40:19.90	85.83	45.72	-31.5	-32.0	27.9	0.00e+00	0	25	0	2458910720	42	5512
2026-01-05 03:40:23.94	83.87	46.34	-32.4	-32.9	27.4	0.00e+00	0	25	0	2487222272	42	6115
2026-01-05 03:40:27.99	81.82	46.94	-32.0	-32.5	27.7	0.00e+00	0	25	0	2516582400	42	5829
2026-01-05 03:40:32.03	79.70	47.50	-33.1	-33.6	27.4	0.00e+00	0	25	0	2545942528	44	5947
2026-01-05 03:40:36.08	77.51	48.02	-32.7	-33.1	27.3	0.00e+00	0	25	0	2575302656	44	5619
2026-01-05 03:40:40.12	75.24	48.50	-33.1	-33.6	27.0	0.00e+00	0	25	0	2604662784	44	5948
2026-01-05 03:40:44.17	72.90	48.94	-33.2	-33.7	27.0	0.00e+00	0	25	0	2634022912	44	6003
2026-01-05 03:40:48.21	70.50	49.33	-34.4	-34.9	26.8	0.00e+00	0	25	0	2662334464	44	6921
2026-01-05 03:40:52.25	68.05	49.66	-32.7	-33.1	27.2	0.00e+00	0	25	0	2691694592	44	5622
2026-01-05 03:40:56.30	65.54	49.94	-33.1	-33.6	26.6	0.00e+00	0	25	0	2721054720	44	5925
2026-01-05 03:41:00.34	62.99	50.16	-32.7	-33.2	27.2	0.00e+00	0	25	0	2750414848	44	5659
2026-01-05 03:41:04.38	60.41	50.32	-33.0	-33.5	26.5	0.00e+00	0	25	0	2779774976	44	5875
2026-01-05 03:41:08.43	57.80	50.42	-32.9	-33.4	27.2	0.00e+00	0	25	0	2809135104	44	5792
2026-01-05 03:41:12.47	55.19	50.46	-33.2	-33.7	27.0	0.00e+00	0	25	0	2838495232	44	5997
2026-01-05 03:41:16.51	52.58	50.43	-33.1	-33.5	26.6	0.00e+00	0	25	0	2867855360	44	5895
2026-01-05 03:41:20.56	49.97	50.34	-32.5	-33.0	27.5	0.00e+00	0	25	0	2896166912	44	5506
2026-01-05 03:41:24.60	47.39	50.19	-33.1	-33.6	26.9	0.00e+00	0	25	0	2925527040	44	5909
2026-01-05 03:41:28.65	44.83	49.97	-32.6	-33.0	27.0	0.00e+00	0	25	0	2954887168	44	5556
2026-01-05 03:41:32.69	42.32	49.70	-32.4	-32.9	27.0	0.00e+00	0	25	0	2984247296	44	5462
2026-01-05 03:41:36.74	39.86	49.37	-33.2	-33.7	26.8	0.00e+00	0	25	0	3013607424	44	6031
2026-01-05 03:41:40.78	37.46	48.99	-32.8	-33.2	27.1	0.00e+00	0	25	0	3042967552	44	5695
2026-01-05 03:41:44.83	35.11	48.56	-32.1	-32.6	27.5	0.00e+00	0	25	0	3071279104	44	5268
2026-01-05 03:41:48.87	32.84	48.09	-32.7	-33.2	27.0	0.00e+00	0	25	0	3100639232	44	5650
2026-01-05 03:41:52.91	30.64	47.57	-32.1	-32.6	27.6	0.00e+00	0	25	0	3129999360	42	5931
2026-01-05 03:41:56.96	28.51	47.02	-32.3	-32.7	27.3	0.00e+00	0	25	0	3159359488	42	6010
2026-01-05 03:42:01.00	26.46	46.43	-32.7	-33.2	27.3	0.00e+00	0	25	0	3188719616	42	6332
2026-01-05 03:42:05.05	24.49	45.81	-32.3	-32.7	27.6	0.00e+00	0	25	0	3217031168	42	6023
2026-01-05 03:42:09.09	22.59	45.17	-31.5	-32.0	28.0	0.00e+00	0	25	0	3246391296	42	5521
2026-01-05 03:42:13.13	20.78	44.50	-33.1	-33.5	27.0	0.00e+00	0	25	0	3275751424	44	5883
2026-01-05 03:42:17.18	19.04	43.81	-32.2	-32.7	27.5	0.00e+00	0	25	0	3305111552	44	5327
2026-01-05 03:42:21.22	17.37	43.11	-31.6	-32.1	27.6	0.00e+00	0	25	0	3334471680	42	5610
2026-01-05 03:42:25.26	15.78	42.39	-31.3	-31.8	28.1	0.00e+00	0	25	0	3363831808	42	5419
2026-01-05 03:42:29.31	14.26	41.67	-31.5	-32.0	28.0	0.00e+00	0	25	0	3393191936	42	5532
2026-01-05 03:42:33.35	12.80	40.93	-31.6	-32.1	28.0	0.00e+00	0	25	0	3421503488	42	5604
2026-01-05 03:42:37.40	11.41	40.20	-31.2	-31.6	28.0	0.00e+00	0	25	0	3450863616	42	5309
2026-01-05 03:42:41.44	10.09	39.46	-31.3	-31.7	28.2	0.00e+00	0	25	0	3480223744	42	5372
2026-01-05 03:42:45.49	8.82	38.71	-31.4	-31.8	28.1	0.00e+00	0	25	0	3509583872	42	5436
2026-01-05 03:42:49.53	7.61	37.97	-31.7	-32.2	27.9	0.00e+00	0	25	0	3538944000	42	5631
2026-01-05 03:42:53.57	6.45	37.23	-31.5	-32.0	28.1	0.00e+00	0	25	0	3568304128	42	5528
2026-01-05 03:42:57.62	5.35	36.50	-31.4	-31.9	27.8	0.00e+00	0	25	0	3597664256	42	5482
2026-01-05 03:43:01.66	4.29	35.77	-31.9	-32.4	27.8	0.00e+00	0	25	0	3625975808	42	5810
2026-01-05 03:43:05.70	3.29	35.04	-31.7	-32.2	27.9	0.00e+00	0	25	0	3655335936	42	5668
2026-01-05 03:43:09.75	2.32	34.33	-31.2	-31.7	28.4	0.00e+00	0	25	0	3684696064	40	5969
2026-01-05 03:43:13.79	1.40	33.62	-31.3	-31.8	27.8	0.00e+00	0	25	0	3714056192	40	6083
2026-01-05 03:43:17.84	0.52	32.91	-31.3	-31.7	28.2	0.00e+00	0	25	0	3743416320	40	6023
2026-01-05 03:43:21.88	359.67	32.22	-31.3	-31.8	28.2	0.00e+00	0	25	0	3771727872	42	5403
2026-01-05 03:43:25.92	358.86	31.54	-31.3	-31.8	28.0	0.00e+00	0	25	0	3801088000	42	5403
2026-01-05 03:43:29.96	358.09	30.86	-31.5	-31.9	27.8	0.00e+00	0	25	0	3830448128	42	5502
2026-01-05 03:43:34.01	357.35	30.20	-31.1	-31.5	28.1	0.00e+00	0	25	0	3859808256	42	5247
2026-01-05 03:43:38.05	356.63	29.54	-31.3	-31.8	27.9	0.00e+00	0	25	0	3889168384	42	5401
2026-01-05 03:43:42.09	355.95	28.90	-31.9	-32.4	27.5	0.00e+00	0	25	0	3918528512	42	5810
2026-01-05 03:43:46.14	355.29	28.26	-31.7	-32.2	27.6	0.00e+00	0	25	0	3946840064	42	5656
2026-01-05 03:43:50.18	354.66	27.64	-31.7	-32.1	27.9	0.00e+00	0	25	0	3976200192	42	5612
2026-01-05 03:43:54.23	354.05	27.02	-31.7	-32.2	27.7	0.00e+00	0	25	0	4005560320	42	5669
2026-01-05 03:43:58.27	353.47	26.42	-31.8	-32.3	27.7	0.00e+00	0	25	0	4034920448	42	5712
2026-01-05 03:44:02.32	352.91	25.82	-32.1	-32.6	27.4	0.00e+00	0	25	0	4064280576	44	5312
2026-01-05 03:44:06.36	352.37	25.24	-32.8	-33.3	27.4	0.00e+00	0	25	0	4093640704	44	5742
2026-01-05 03:44:10.41	351.85	24.67	-32.3	-32.8	27.6	0.00e+00	0	25	0	4121952256	42	6089
2026-01-05 03:44:14.45	351.35	24.10	-33.1	-33.5	27.0	0.00e+00	0	25	0	4151312384	46	5243
2026-01-05 03:44:18.49	350.87	23.55	-32.7	-33.1	27.3	0.00e+00	0	25	0	4180672512	44	5624
2026-01-05 03:44:22.54	350.40	23.00	-32.5	-33.0	27.3	0.00e+00	0	25	0	4210032640	44	5524
2026-01-05 03:44:26.58	349.95	22.47	-32.1	-32.6	27.5	0.00e+00	0	25	0	4239392768	42	5915
2026-01-05 03:44:30.63	349.51	21.94	-31.9	-32.4	27.7	0.00e+00	0	25	0	4268752896	42	5787
2026-01-05 03:44:34.67	349.10	21.42	-32.0	-32.5	27.4	0.00e+00	0	25	0	4298113024	42	5865
2026-01-05 03:44:38.72	348.69	20.91	-32.1	-32.6	27.4	0.00e+00	0	25	0	4327473152	42	5936
2026-01-05 03:44:42.76	348.30	20.41	-32.7	-33.2	27.0	0.00e+00	0	25	0	4355784704	42	6319
2026-01-05 03:44:46.80	347.92	19.92	-32.8	-33.2	26.9	0.00e+00	0	25	0	4385144832	42	6386
2026-01-05 03:44:50.85	347.55	19.44	-32.9	-33.4	26.8	0.00e+00	0	25	0	4414504960	42	6483
2026-01-05 03:44:54.89	347.20	18.96	-32.9	-33.4	26.7	0.00e+00	0	25	0	4443865088	44	5821
2026-01-05 03:44:58.94	346.86	18.49	-32.7	-33.2	26.8	0.00e+00	0	25	0	4473225216	44	5661
2026-01-05 03:45:02.98	346.52	18.03	-32.8	-33.3	26.9	0.00e+00	0	25	0	4501536768	44	5705
2026-01-05 03:45:07.03	346.20	17.58	-33.0	-33.5	26.7	0.00e+00	0	25	0	4530896896	44	5874
2026-01-05 03:45:11.07	345.89	17.13	-32.8	-33.3	26.7	0.00e+00	0	25	0	4560257024	44	5717
2026-01-05 03:45:15.11	345.59	16.70	-33.0	-33.4	26.7	0.00e+00	0	25	0	4589617152	44	5821
2026-01-05 03:45:19.16	345.29	16.26	-33.0	-33.5	26.6	0.00e+00	0	25	0	4618977280	44	5837
2026-01-05 03:45:23.20	345.01	15.84	-33.3	-33.8	26.3	0.00e+00	0	25	0	4648337408	44	6060
2026-01-05 03:45:27.25	344.73	15.42	-33.4	-33.9	26.1	0.00e+00	0	25	0	4676648960	44	6148
2026-01-05 03:45:31.29	344.46	15.01	-33.7	-34.3	25.9	0.00e+00	0	25	0	4706009088	44	6398
2026-01-05 03:45:35.34	344.20	14.60	-34.0	-34.5	25.8	0.00e+00	0	25	0	4735369216	44	6563
2026-01-05 03:45:39.38	343.95	14.20	-34.2	-34.7	25.7	0.00e+00	0	25	0	4764729344	46	6000
2026-01-05 03:45:43.42	343.70	13.81	-34.0	-34.5	25.7	0.00e+00	0	25	0	4794089472	46	5868
2026-01-05 03:45:47.47	343.46	13.42	-34.5	-35.1	25.4	0.00e+00	0	25	0	4823449600	46	6255
2026-01-05 03:45:51.51	343.23	13.04	-34.6	-35.1	25.2	0.00e+00	0	25	0	4852809728	46	6275
2026-01-05 03:45:55.56	343.00	12.66	-34.7	-35.2	25.0	0.00e+00	0	25	0	4882169856	46	6369
2026-01-05 03:45:59.60	342.78	12.29	-34.8	-35.4	25.0	0.00e+00	0	25	0	4910481408	46	6490
2026-01-05 03:46:03.65	342.57	11.92	-35.2	-35.8	24.7	0.00e+00	0	25	0	4939841536	48	6046
2026-01-05 03:46:07.69	342.36	11.56	-35.0	-35.5	24.9	0.00e+00	0	25	0	4969201664	48	5860
2026-01-05 03:46:11.74	342.15	11.21	-35.1	-35.6	24.8	0.00e+00	0	25	0	4998561792	48	5958
2026-01-05 03:46:15.78	341.95	10.85	-35.2	-35.7	24.7	0.00e+00	0	25	0	5027921920	48	5986
2026-01-05 03:46:19.83	341.76	10.51	-35.2	-35.8	24.5	0.00e+00	0	25	0	5057282048	48	6056
2026-01-05 03:46:23.87	341.57	10.16	-35.4	-36.0	24.3	0.00e+00	0	25	0	5085593600	48	6178
2026-01-05 03:46:27.91	341.39	9.83	-35.5	-36.1	24.2	0.00e+00	0	25	0	5114953728	48	6276
2026-01-05 03:46:31.96	341.21	9.49	-35.7	-36.3	24.0	0.00e+00	0	25	0	5144313856	48	6410
2026-01-05 03:46:36.00	341.03	9.16	-35.7	-36.3	24.0	0.00e+00	0	25	0	5173673984	48	6398
2026-01-05 03:46:40.05	340.86	8.83	-35.8	-36.3	23.8	0.00e+00	0	25	0	5203034112	50	5748
2026-01-05 03:46:44.09	340.70	8.51	-35.7	-36.3	24.0	0.00e+00	0	25	0	5231345664	50	5742
2026-01-05 03:46:48.14	340.53	8.19	-35.9	-36.5	23.7	0.00e+00	0	25	0	5260705792	50	5888
2026-01-05 03:46:52.18	340.38	7.88	-36.2	-36.8	23.4	0.00e+00	0	25	0	5290065920	50	6091
2026-01-05 03:46:56.22	340.22	7.57	-36.0	-36.6	23.4	0.00e+00	0	25	0	5319426048	50	5944
2026-01-05 03:47:00.26	340.07	7.26	-36.1	-36.7	23.4	0.00e+00	0	25	0	5348786176	50	6023
2026-01-05 03:47:04.31	339.92	6.96	-36.3	-36.9	23.2	0.00e+00	0	25	0	5378146304	50	6153
2026-01-05 03:47:08.35	339.78	6.66	-36.7	-37.3	22.4	0.00e+00	0	25	0	5406457856	52	5752
2026-01-05 03:47:12.40	339.64	6.36	-36.6	-37.2	22.9	0.00e+00	0	25	0	5435817984	52	5651
2026-01-05 03:47:16.44	339.50	6.07	-37.0	-37.7	22.8	0.00e+00	0	25	0	5465178112	52	5965
2026-01-05 03:47:20.49	339.36	5.78	-37.2	-37.8	21.7	0.00e+00	0	25	0	5494538240	52	6099
2026-01-05 03:47:24.54	339.23	5.49	-37.6	-38.2	21.5	0.00e+00	0	25	0	5523898368	52	6335
2026-01-05 03:47:28.58	339.10	5.20	-38.8	-39.5	20.1	0.00e+00	0	25	0	5553258496	54	6595
2026-01-05 03:47:32.62	338.97	4.92	-40.0	-40.8	18.8	0.00e+00	0	25	0	5582618624	60	5426
2026-01-05 03:47:36.67	338.85	4.64	-40.4	-41.5	16.8	0.00e+00	0	25	0	5611978752	58	6573
2026-01-05 03:47:40.71	338.73	4.36	-42.5	-44.3	13.1	5.03e-05	0	25	0	5640290304	60	8122
2026-01-05 03:47:44.75	338.61	4.09	-44.5	-48.0	8.4	4.09e-02	0	25	0	5669650432	60	12342
2026-01-05 03:47:48.80	338.50	3.82	-45.2	-50.1	5.4	6.61e-01	0	25	0	5697961984	60	15765
2026-01-05 03:47:52.84	338.38	3.55	-45.6	-54.4	3.7	8.39e-01	0	25	104	5699010560	60	25789
2026-01-05 03:47:56.89	338.27	3.28	-46.0	-56.9	3.6	8.45e-01	0	25	104	5699010560	60	34323
2026-01-05 03:48:00.93	338.16	3.02	-45.9	-56.7	3.6	8.45e-01	0	25	104	5699010560	60	33813
2026-01-05 03:48:04.97	338.06	2.76	-45.7	-57.2	3.6	8.44e-01	0	25	104	5699010560	60	35529
2026-01-05 03:48:09.02	337.95	2.50	-50.5	-62.2	3.6	8.46e-01	0	25	104	5699010560	60	63247
2026-01-05 03:48:13.06	337.85	2.24	-51.2	-62.8	3.6	8.45e-01	0	25	104	5699010560	60	68011
2026-01-05 03:48:17.11	337.75	1.99	-50.2	-62.4	3.6	8.44e-01	0	25	104	5699010560	60	65167
2026-01-05 03:48:21.15	337.65	1.73	-51.3	-62.9	3.6	8.45e-01	0	25	104	5699010560	60	68533
2026-01-05 03:48:25.19	337.55	1.48	-51.1	-62.6	3.6	8.45e-01	0	25	104	5699010560	60	66873
2026-01-05 03:48:29.24	337.46	1.24	-51.6	-63.1	3.6	8.45e-01	0	25	104	5699010560	60	70574
2026-01-05 03:48:33.28	337.37	0.99	-51.5	-63.0	3.6	8.45e-01	0	25	104	5699010560	60	69368
2026-01-05 03:48:37.33	337.28	0.74	-51.7	-63.2	3.6	8.45e-01	0	25	104	5699010560	60	71306
2026-01-05 03:48:41.37	337.19	0.50	-51.7	-63.1	3.6	8.45e-01	0	25	104	5699010560	60	70834
2026-01-05 03:48:45.41	337.10	0.26	-51.3	-62.9	3.6	8.47e-01	0	25	104	5699010560	60	68495
2026-01-05 03:48:49.46	337.02	0.02	-51.4	-62.9	3.6	8.46e-01	0	25	104	5699010560	60	68769

#Closed at: 2026-01-05 03:48:50
#Recorded file [5699 MB]: D:/lorett/data/35034_260105_063339.dat