passes_logs/2026/01/05/R4.6S_Anadyr_2ch/R4.6S_Anadyr_2ch__20260105_224730_SUOMI_NPP_rec.log

#Pass ID: 20260105_224730_SUOMI NPP
#Satellite: SUOMI NPP
#Configuration: NPP
#almurnet v.1.7.20251203
#Start time: 2026-01-05 22:47:31

#Version: 2.2.20231116
#Station: R4.6S_Anadyr_2ch
#Location: 177.4865 lon 64.73178 lat
#TLE: 1 37849U 11061A   25350.92281687  .00000071  00000+0  54882-4 0  9996
#TLE: 2 37849  98.7777 288.2268 0002366 112.8570 247.2856 14.19515404732588

#Time	Az	El	Level	Level2	SNR	BER	BlckErr	Temp	State	Recorded	gain1	gain2
2026-01-05 22:47:31.76	119.84	0.07	-51.1	-63.8	3.5	1.51e+00	0	29	0	0	60	73072
2026-01-05 22:47:35.80	119.69	0.31	-51.2	-66.6	3.6	1.51e+00	0	30	104	0	60	104379
2026-01-05 22:47:39.84	119.54	0.54	-51.3	-66.7	3.6	1.51e+00	0	30	104	0	60	104903
2026-01-05 22:47:43.88	119.39	0.78	-51.1	-66.4	3.6	1.51e+00	0	30	104	0	60	102209
2026-01-05 22:47:47.93	119.24	1.02	-50.2	-65.7	3.6	1.51e+00	0	30	104	0	60	94108
2026-01-05 22:47:51.97	119.08	1.26	-49.4	-65.0	3.6	1.51e+00	0	30	104	0	60	86682
2026-01-05 22:47:56.01	118.92	1.50	-49.3	-65.1	3.6	1.51e+00	0	30	104	0	60	87346
2026-01-05 22:48:00.06	118.76	1.75	-49.4	-65.1	3.6	1.51e+00	0	30	104	0	60	87357
2026-01-05 22:48:04.10	118.59	2.00	-49.4	-65.0	3.6	1.51e+00	0	30	104	0	60	86555
2026-01-05 22:48:08.14	118.42	2.24	-49.3	-64.9	3.6	1.51e+00	0	31	104	0	60	86024
2026-01-05 22:48:12.19	118.25	2.49	-49.3	-65.0	3.6	1.51e+00	0	31	104	0	60	87120
2026-01-05 22:48:16.23	118.08	2.75	-49.3	-64.9	3.6	1.51e+00	0	31	104	0	60	85948
2026-01-05 22:48:20.28	117.90	3.00	-49.3	-64.3	3.6	1.51e+00	0	31	104	0	60	79589
2026-01-05 22:48:24.32	117.72	3.26	-49.3	-63.4	3.6	1.51e+00	0	31	104	0	60	72441
2026-01-05 22:48:28.36	117.54	3.52	-47.4	-51.8	12.0	6.47e-04	0	31	102	1048576	60	19047
2026-01-05 22:48:32.41	117.35	3.78	-48.5	-56.2	8.8	1.35e-01	92	31	104	1048576	60	31591
2026-01-05 22:48:36.45	117.16	4.04	-44.5	-46.6	17.5	0.00e+00	92	31	0	1048576	60	10425
2026-01-05 22:48:40.50	116.96	4.31	-43.4	-45.0	19.1	0.00e+00	0	31	0	1048576	60	8658
2026-01-05 22:48:44.54	116.76	4.58	-43.6	-45.3	18.8	0.00e+00	24	31	0	1048576	60	8945
2026-01-05 22:48:48.58	116.56	4.84	-43.8	-45.5	18.7	0.00e+00	65	31	0	1048576	60	9175
2026-01-05 22:48:52.63	116.35	5.12	-43.6	-45.2	18.9	0.00e+00	90	31	0	1048576	60	8917
2026-01-05 22:48:56.67	116.14	5.39	-43.6	-45.2	19.2	0.00e+00	0	31	101	1048576	60	8827
2026-01-05 22:49:00.72	115.92	5.67	-43.8	-45.5	18.9	0.00e+00	90	31	101	1048576	60	9160
2026-01-05 22:49:04.76	115.70	5.95	-43.5	-45.0	19.3	0.00e+00	92	31	101	1048576	60	8714
2026-01-05 22:49:08.80	115.48	6.23	-42.7	-44.1	20.1	0.00e+00	13	31	101	1048576	60	7794
2026-01-05 22:49:12.85	115.25	6.52	-43.2	-44.8	19.6	0.00e+00	0	31	101	1048576	60	8436
2026-01-05 22:49:16.89	115.02	6.81	-43.4	-45.0	19.5	0.00e+00	92	31	101	1048576	60	8622
2026-01-05 22:49:20.93	114.78	7.10	-42.5	-43.8	20.5	0.00e+00	92	31	101	1048576	60	7583
2026-01-05 22:49:24.98	114.53	7.39	-42.5	-43.8	20.6	0.00e+00	0	31	101	1048576	60	7573
2026-01-05 22:49:29.02	114.29	7.69	-42.6	-43.9	20.6	0.00e+00	23	31	101	1048576	60	7636
2026-01-05 22:49:33.06	114.03	7.99	-42.0	-43.1	21.2	0.00e+00	47	31	101	1048576	60	7001
2026-01-05 22:49:37.11	113.77	8.29	-42.2	-43.5	20.2	0.00e+00	92	31	101	1048576	60	7318
2026-01-05 22:49:41.15	113.51	8.59	-42.4	-43.7	20.9	0.00e+00	0	31	101	1048576	60	7463
2026-01-05 22:49:45.19	113.23	8.90	-41.9	-43.1	21.3	0.00e+00	90	31	101	1048576	60	6960
2026-01-05 22:49:49.24	112.96	9.22	-41.6	-42.7	21.7	0.00e+00	91	31	101	1048576	60	6645
2026-01-05 22:49:53.28	112.67	9.53	-42.3	-43.6	20.9	0.00e+00	16	31	101	1048576	60	7391
2026-01-05 22:49:57.33	112.38	9.85	-41.7	-42.9	21.6	0.00e+00	0	31	101	1048576	60	6788
2026-01-05 22:50:01.37	112.08	10.17	-41.9	-43.1	21.3	0.00e+00	90	31	101	1048576	60	6952
2026-01-05 22:50:05.41	111.78	10.50	-41.6	-42.7	21.7	0.00e+00	90	31	101	1048576	60	6675
2026-01-05 22:50:09.46	111.47	10.83	-41.3	-42.5	21.9	0.00e+00	0	31	101	1048576	60	6474
2026-01-05 22:50:13.50	111.15	11.16	-41.1	-42.1	22.2	0.00e+00	20	31	101	1048576	60	6221
2026-01-05 22:50:17.55	110.82	11.49	-41.1	-42.2	22.1	0.00e+00	92	31	101	1048576	60	6252
2026-01-05 22:50:21.59	110.49	11.83	-40.7	-41.6	22.5	0.00e+00	91	31	101	1048576	60	5888
2026-01-05 22:50:25.63	110.15	12.18	-41.3	-42.4	22.1	0.00e+00	0	31	101	1048576	60	6408
2026-01-05 22:50:29.68	109.80	12.53	-41.1	-42.2	22.2	0.00e+00	92	31	101	1048576	60	6261
2026-01-05 22:50:33.72	109.44	12.88	-41.0	-42.1	22.3	0.00e+00	91	31	101	1048576	60	6187
2026-01-05 22:50:37.76	109.07	13.23	-41.4	-42.5	22.1	0.00e+00	91	31	101	1048576	60	6527
2026-01-05 22:50:41.81	108.69	13.59	-41.1	-42.1	22.3	0.00e+00	0	31	101	1048576	60	6213
2026-01-05 22:50:45.85	108.31	13.95	-41.1	-42.1	22.3	0.00e+00	91	31	101	1048576	60	6211
2026-01-05 22:50:49.90	107.91	14.32	-41.5	-42.6	22.0	0.00e+00	92	31	101	1048576	60	6545
2026-01-05 22:50:53.94	107.50	14.69	-41.0	-42.1	22.4	0.00e+00	0	31	101	1048576	60	6188
2026-01-05 22:50:57.99	107.08	15.07	-40.7	-41.6	22.8	0.00e+00	0	31	101	1048576	60	5880
2026-01-05 22:51:02.03	106.65	15.45	-40.2	-41.1	23.1	0.00e+00	92	31	101	1048576	58	6190
2026-01-05 22:51:06.08	106.21	15.83	-39.9	-40.8	23.3	0.00e+00	92	31	101	1048576	58	5996
2026-01-05 22:51:10.12	105.76	16.22	-40.1	-41.0	23.2	0.00e+00	0	31	101	1048576	58	6151
2026-01-05 22:51:14.16	105.30	16.62	-40.4	-41.4	23.0	0.00e+00	92	31	101	1048576	58	6415
2026-01-05 22:51:18.21	104.82	17.01	-40.7	-41.7	22.6	0.00e+00	92	31	101	1048576	58	6687
2026-01-05 22:51:22.25	104.33	17.42	-40.6	-41.6	22.8	0.00e+00	0	31	101	1048576	58	6547
2026-01-05 22:51:26.29	103.83	17.82	-40.6	-41.6	22.5	0.00e+00	0	31	101	1048576	58	6580
2026-01-05 22:51:30.34	103.31	18.23	-40.9	-41.9	22.5	0.00e+00	92	31	101	1048576	60	6077
2026-01-05 22:51:34.38	102.78	18.65	-41.1	-42.2	22.3	0.00e+00	90	31	101	1048576	60	6264
2026-01-05 22:51:38.42	102.23	19.07	-41.4	-42.5	22.3	0.00e+00	29	31	101	1048576	60	6467
2026-01-05 22:51:42.47	101.67	19.49	-41.3	-42.3	22.4	0.00e+00	8	31	101	1048576	60	6364
2026-01-05 22:51:46.51	101.09	19.92	-42.0	-43.1	21.6	0.00e+00	84	31	101	1048576	60	6996
2026-01-05 22:51:50.56	100.49	20.35	-41.2	-42.3	22.3	0.00e+00	92	31	101	1048576	60	6336
2026-01-05 22:51:54.60	99.88	20.79	-41.4	-42.4	21.8	0.00e+00	0	31	101	1048576	60	6463
2026-01-05 22:51:58.64	99.25	21.23	-41.1	-42.2	22.4	0.00e+00	84	31	101	1048576	60	6253
2026-01-05 22:52:02.69	98.60	21.67	-40.8	-41.7	22.8	0.00e+00	70	31	101	1048576	60	5949
2026-01-05 22:52:06.73	97.93	22.12	-40.7	-41.7	22.8	0.00e+00	0	31	101	1048576	58	6660
2026-01-05 22:52:10.77	97.24	22.57	-40.5	-41.5	23.2	0.00e+00	0	31	101	1048576	58	6489
2026-01-05 22:52:14.82	96.53	23.03	-40.7	-41.7	22.8	0.00e+00	84	31	101	1048576	58	6658
2026-01-05 22:52:18.86	95.80	23.48	-41.4	-42.5	22.3	0.00e+00	91	31	101	1048576	60	6484
2026-01-05 22:52:22.90	95.05	23.95	-41.9	-43.1	21.7	0.00e+00	0	31	101	1048576	60	6950
2026-01-05 22:52:26.95	94.27	24.41	-42.5	-43.7	21.2	0.00e+00	25	31	101	1048576	60	7483
2026-01-05 22:52:30.99	93.47	24.88	-42.1	-43.2	21.6	0.00e+00	79	31	101	1048576	60	7080
2026-01-05 22:52:35.04	92.65	25.34	-41.8	-42.9	21.8	0.00e+00	34	31	101	1048576	60	6770
2026-01-05 22:52:39.08	91.80	25.81	-41.7	-42.8	22.0	0.00e+00	0	31	101	1048576	60	6727
2026-01-05 22:52:43.13	90.92	26.28	-41.7	-42.8	21.9	0.00e+00	92	31	101	1048576	60	6761
2026-01-05 22:52:47.17	90.02	26.76	-41.7	-42.8	21.9	0.00e+00	92	31	101	1048576	60	6759
2026-01-05 22:52:51.22	89.09	27.23	-41.4	-42.5	22.1	0.00e+00	0	31	101	1048576	60	6482
2026-01-05 22:52:55.26	88.14	27.70	-41.4	-42.4	22.3	0.00e+00	0	31	101	1048576	60	6448
2026-01-05 22:52:59.30	87.16	28.17	-42.4	-43.6	21.3	0.00e+00	20	31	101	1048576	60	7372
2026-01-05 22:53:03.35	86.14	28.64	-42.1	-43.2	21.5	0.00e+00	92	31	101	1048576	60	7084
2026-01-05 22:53:07.39	85.10	29.10	-41.1	-42.1	22.6	0.00e+00	0	31	101	1048576	60	6186
2026-01-05 22:53:11.43	84.02	29.56	-41.4	-42.4	22.5	0.00e+00	31	31	101	1048576	60	6462
2026-01-05 22:53:15.48	82.91	30.02	-41.4	-42.4	22.3	0.00e+00	91	31	101	1048576	60	6458
2026-01-05 22:53:19.52	81.78	30.47	-43.6	-45.0	20.1	0.00e+00	62	31	101	1048576	60	8702
2026-01-05 22:53:23.56	80.61	30.92	-42.9	-44.2	20.9	0.00e+00	0	31	101	1048576	60	7871
2026-01-05 22:53:27.61	79.40	31.36	-42.8	-44.0	21.0	0.00e+00	90	31	101	1048576	60	7704
2026-01-05 22:53:31.65	78.16	31.79	-44.4	-46.0	19.4	0.00e+00	90	31	101	1048576	60	9704
2026-01-05 22:53:35.69	76.90	32.21	-44.0	-45.4	19.8	0.00e+00	0	31	101	1048576	60	9118
2026-01-05 22:53:39.73	75.60	32.62	-45.1	-46.9	18.4	0.00e+00	0	31	101	1048576	60	10836
2026-01-05 22:53:43.78	74.26	33.02	-44.8	-46.4	19.4	0.00e+00	81	31	101	1048576	60	10192
2026-01-05 22:53:47.82	72.89	33.40	-43.8	-45.2	20.0	0.00e+00	92	31	101	1048576	60	8831
2026-01-05 22:53:51.87	71.49	33.78	-44.0	-45.4	19.8	0.00e+00	0	31	101	1048576	60	9119
2026-01-05 22:53:55.91	70.06	34.13	-43.3	-44.6	20.5	0.00e+00	30	31	101	1048576	60	8238
2026-01-05 22:53:59.95	68.59	34.47	-43.1	-44.3	20.9	0.00e+00	92	31	101	1048576	60	8035
2026-01-05 22:54:04.00	67.10	34.79	-42.9	-44.2	20.8	0.00e+00	28	31	101	1048576	60	7909
2026-01-05 22:54:08.07	65.57	35.09	-40.1	-41.0	23.5	0.00e+00	0	31	101	1048576	60	5451
2026-01-05 22:54:12.11	64.02	35.37	-39.3	-40.1	24.0	0.00e+00	92	31	101	1048576	56	6239
2026-01-05 22:54:16.16	62.44	35.63	-39.6	-40.4	23.9	0.00e+00	26	31	101	1048576	56	6463
2026-01-05 22:54:20.20	60.84	35.87	-39.8	-40.6	23.6	0.00e+00	29	31	101	1048576	58	5887
2026-01-05 22:54:24.24	59.22	36.08	-39.6	-40.5	23.7	0.00e+00	92	31	101	1048576	58	5803
2026-01-05 22:54:28.29	57.58	36.26	-40.3	-41.2	23.4	0.00e+00	90	31	101	1048576	58	6298
2026-01-05 22:54:32.33	55.92	36.42	-38.5	-39.3	24.7	0.00e+00	0	31	101	1048576	56	5634
2026-01-05 22:54:36.37	54.25	36.55	-39.5	-40.3	23.9	0.00e+00	0	31	101	1048576	56	6372
2026-01-05 22:54:40.42	52.56	36.66	-40.7	-41.7	22.9	0.00e+00	37	31	101	1048576	58	6626
2026-01-05 22:54:44.46	50.87	36.74	-41.4	-42.5	22.3	0.00e+00	89	31	101	1048576	60	6482
2026-01-05 22:54:48.51	49.16	36.78	-41.4	-42.4	22.4	0.00e+00	0	31	101	1048576	60	6454
2026-01-05 22:54:52.55	47.46	36.80	-40.9	-41.9	22.7	0.00e+00	0	31	101	1048576	60	6086
2026-01-05 22:54:56.59	45.76	36.79	-41.2	-42.1	22.4	0.00e+00	92	31	101	1048576	60	6243
2026-01-05 22:55:00.64	44.05	36.75	-41.7	-42.7	22.2	0.00e+00	0	31	101	1048576	60	6690
2026-01-05 22:55:04.68	42.36	36.68	-43.9	-45.4	19.9	0.00e+00	0	31	101	1048576	60	9037
2026-01-05 22:55:08.73	40.67	36.59	-41.7	-42.7	22.1	0.00e+00	92	31	101	1048576	60	6650
2026-01-05 22:55:12.77	38.99	36.46	-42.2	-43.2	21.7	0.00e+00	90	31	101	1048576	60	7085
2026-01-05 22:55:16.82	37.33	36.31	-42.4	-43.5	21.2	0.00e+00	0	31	101	1048576	60	7301
2026-01-05 22:55:20.86	35.68	36.14	-42.1	-43.2	21.8	0.00e+00	0	31	101	1048576	60	7057
2026-01-05 22:55:24.90	34.06	35.93	-43.5	-44.9	20.5	0.00e+00	40	31	101	1048576	60	8560
2026-01-05 22:55:28.95	32.45	35.71	-42.3	-43.5	21.5	0.00e+00	80	31	101	1048576	60	7292
2026-01-05 22:55:32.99	30.87	35.46	-42.3	-43.5	21.4	0.00e+00	0	31	101	1048576	60	7305
2026-01-05 22:55:37.04	29.32	35.18	-40.9	-41.9	22.8	0.00e+00	0	31	101	1048576	60	6077
2026-01-05 22:55:41.08	27.79	34.89	-41.1	-42.1	22.5	0.00e+00	90	31	101	1048576	58	6994
2026-01-05 22:55:45.12	26.29	34.57	-42.9	-44.2	20.8	0.00e+00	26	31	101	1048576	60	7892
2026-01-05 22:55:49.17	24.82	34.24	-41.8	-43.0	21.9	0.00e+00	0	31	101	1048576	60	6872
2026-01-05 22:55:53.21	23.38	33.89	-43.1	-44.5	20.6	0.00e+00	90	31	101	1048576	60	8187
2026-01-05 22:55:57.26	21.97	33.52	-42.1	-43.3	21.7	0.00e+00	92	31	101	1048576	60	7131
2026-01-05 22:56:01.30	20.60	33.14	-40.4	-41.3	23.3	0.00e+00	0	31	101	1048576	60	5683
2026-01-05 22:56:05.35	19.25	32.75	-42.0	-43.0	21.7	0.00e+00	0	31	101	1048576	60	6903
2026-01-05 22:56:09.39	17.95	32.34	-40.2	-41.1	23.4	0.00e+00	70	31	101	1048576	60	5519
2026-01-05 22:56:13.43	16.67	31.93	-42.2	-43.3	21.6	0.00e+00	0	31	101	1048576	60	7159
2026-01-05 22:56:17.48	15.43	31.50	-41.7	-42.8	22.1	0.00e+00	0	31	101	1048576	60	6724
2026-01-05 22:56:21.52	14.22	31.06	-42.9	-44.2	20.7	0.00e+00	29	31	101	1048576	60	7951
2026-01-05 22:56:25.57	13.04	30.62	-43.5	-44.9	20.1	0.00e+00	0	31	101	1048576	60	8535
2026-01-05 22:56:29.61	11.89	30.17	-43.4	-44.7	20.3	0.00e+00	0	31	101	1048576	60	8418
2026-01-05 22:56:33.65	10.78	29.72	-42.0	-43.1	21.9	0.00e+00	0	31	101	1048576	60	6974
2026-01-05 22:56:37.70	9.70	29.26	-40.8	-41.8	22.9	0.00e+00	34	31	101	1048576	60	6000
2026-01-05 22:56:41.74	8.65	28.80	-41.3	-42.4	22.4	0.00e+00	0	31	101	1048576	60	6428
2026-01-05 22:56:45.79	7.63	28.33	-42.1	-43.3	21.6	0.00e+00	0	31	101	1048576	60	7122
2026-01-05 22:56:49.83	6.64	27.86	-41.1	-42.2	22.5	0.00e+00	0	31	101	1048576	60	6259
2026-01-05 22:56:53.88	5.68	27.39	-41.0	-42.0	22.7	0.00e+00	41	31	101	1048576	60	6171
2026-01-05 22:56:57.92	4.74	26.92	-40.1	-41.0	23.2	0.00e+00	0	31	101	1048576	58	6164
2026-01-05 22:57:01.97	3.84	26.45	-40.3	-41.3	23.1	0.00e+00	0	31	101	1048576	58	6352
2026-01-05 22:57:06.01	2.96	25.99	-40.9	-42.0	22.6	0.00e+00	31	31	101	1048576	58	6892
2026-01-05 22:57:10.05	2.11	25.52	-40.9	-41.9	22.6	0.00e+00	64	31	101	1048576	60	6084
2026-01-05 22:57:14.10	1.28	25.05	-40.6	-41.6	22.9	0.00e+00	0	31	101	1048576	60	5863
2026-01-05 22:57:18.14	0.47	24.59	-40.1	-41.1	23.3	0.00e+00	0	31	101	1048576	58	6183
2026-01-05 22:57:22.19	359.69	24.12	-40.6	-41.5	23.2	0.00e+00	7	31	101	1048576	58	6531
2026-01-05 22:57:26.23	358.94	23.66	-40.0	-40.9	23.2	0.00e+00	0	31	101	1048576	58	6097
2026-01-05 22:57:30.27	358.20	23.21	-40.4	-41.4	22.7	0.00e+00	0	31	101	1048576	58	6419
2026-01-05 22:57:34.32	357.49	22.75	-41.1	-42.1	22.3	0.00e+00	0	31	101	1048576	58	7004
2026-01-05 22:57:38.36	356.80	22.30	-41.7	-42.8	21.8	0.00e+00	91	31	101	1048576	60	6758
2026-01-05 22:57:42.40	356.13	21.85	-40.2	-41.2	23.3	0.00e+00	0	31	101	1048576	60	5581
2026-01-05 22:57:46.45	355.47	21.41	-40.6	-41.6	22.9	0.00e+00	0	31	101	1048576	58	6551
2026-01-05 22:57:50.49	354.84	20.97	-40.7	-41.7	22.7	0.00e+00	57	31	101	1048576	58	6670
2026-01-05 22:57:54.54	354.22	20.53	-39.2	-40.1	24.0	0.00e+00	0	31	101	1048576	58	5541
2026-01-05 22:57:58.58	353.63	20.10	-40.5	-41.4	22.9	0.00e+00	0	31	101	1048576	58	6464
2026-01-05 22:58:02.62	353.04	19.67	-42.6	-43.9	20.9	0.00e+00	0	31	101	1048576	60	7670
2026-01-05 22:58:06.66	352.48	19.25	-43.0	-44.4	20.5	0.00e+00	92	31	101	1048576	60	8092
2026-01-05 22:58:10.71	351.93	18.83	-41.9	-43.1	21.7	0.00e+00	0	31	101	1048576	60	6950
2026-01-05 22:58:14.75	351.40	18.42	-41.5	-42.6	22.2	0.00e+00	0	31	101	1048576	60	6555
2026-01-05 22:58:18.79	350.88	18.01	-41.7	-42.8	22.0	0.00e+00	0	31	101	1048576	60	6720
2026-01-05 22:58:22.84	350.37	17.60	-40.6	-41.6	22.9	0.00e+00	55	31	101	1048576	60	5861
2026-01-05 22:58:26.88	349.88	17.20	-40.0	-40.9	23.4	0.00e+00	0	31	101	1048576	58	6070
2026-01-05 22:58:30.92	349.40	16.80	-40.6	-41.6	22.8	0.00e+00	0	31	101	1048576	58	6576
2026-01-05 22:58:34.96	348.94	16.41	-40.7	-41.7	22.7	0.00e+00	46	31	101	1048576	58	6617
2026-01-05 22:58:39.01	348.48	16.02	-40.9	-41.9	22.5	0.00e+00	92	31	101	1048576	58	6787
2026-01-05 22:58:43.05	348.04	15.63	-41.5	-42.5	22.0	0.00e+00	0	31	101	1048576	60	6522
2026-01-05 22:58:47.09	347.61	15.25	-41.6	-42.7	21.9	0.00e+00	0	31	101	1048576	60	6643
2026-01-05 22:58:51.14	347.20	14.88	-42.1	-43.3	21.3	0.00e+00	57	31	101	1048576	60	7112
2026-01-05 22:58:55.18	346.79	14.51	-43.0	-44.4	20.4	0.00e+00	0	31	101	1048576	60	8086
2026-01-05 22:58:59.22	346.39	14.14	-43.6	-45.2	19.8	0.00e+00	0	31	101	1048576	60	8840
2026-01-05 22:59:03.26	346.00	13.78	-42.5	-43.9	20.9	0.00e+00	0	31	101	1048576	60	7619
2026-01-05 22:59:07.31	345.63	13.42	-41.7	-42.9	21.8	0.00e+00	84	31	101	1048576	60	6778
2026-01-05 22:59:11.35	345.26	13.06	-41.1	-42.2	22.2	0.00e+00	0	31	101	1048576	60	6252
2026-01-05 22:59:15.39	344.90	12.71	-41.0	-42.1	22.3	0.00e+00	0	31	101	1048576	60	6209
2026-01-05 22:59:19.44	344.55	12.36	-41.2	-42.4	22.1	0.00e+00	21	31	101	1048576	60	6394
2026-01-05 22:59:23.48	344.21	12.02	-41.5	-42.6	21.8	0.00e+00	0	31	101	1048576	60	6566
2026-01-05 22:59:27.52	343.87	11.68	-41.9	-43.2	21.5	0.00e+00	0	31	101	1048576	60	7015
2026-01-05 22:59:31.57	343.55	11.34	-42.4	-43.7	20.9	0.00e+00	0	31	101	1048576	60	7471
2026-01-05 22:59:35.61	343.23	11.01	-42.4	-43.8	20.8	0.00e+00	92	31	101	1048576	60	7545
2026-01-05 22:59:39.65	342.92	10.68	-42.4	-43.8	20.8	0.00e+00	0	31	101	1048576	60	7521
2026-01-05 22:59:43.70	342.61	10.35	-43.1	-44.6	19.9	0.00e+00	0	31	101	1048576	60	8270
2026-01-05 22:59:47.74	342.32	10.03	-43.9	-45.6	19.3	0.00e+00	0	31	101	1048576	60	9293
2026-01-05 22:59:51.79	342.03	9.71	-43.9	-45.7	18.9	0.00e+00	92	31	101	1048576	60	9426
2026-01-05 22:59:55.83	341.74	9.40	-43.9	-45.7	18.9	0.00e+00	0	31	101	1048576	60	9398
2026-01-05 22:59:59.88	341.47	9.09	-43.1	-44.7	19.8	0.00e+00	0	31	101	1048576	60	8354
2026-01-05 23:00:03.92	341.20	8.78	-42.6	-44.0	20.5	0.00e+00	26	31	101	1048576	60	7750
2026-01-05 23:00:07.96	340.93	8.47	-42.3	-43.6	20.9	0.00e+00	0	31	101	1048576	60	7395
2026-01-05 23:00:12.01	340.67	8.17	-42.3	-43.7	20.8	0.00e+00	0	31	101	1048576	60	7451
2026-01-05 23:00:16.05	340.42	7.87	-43.0	-44.5	19.9	0.00e+00	0	31	101	1048576	60	8184
2026-01-05 23:00:20.10	340.17	7.57	-43.0	-44.6	19.9	0.00e+00	82	31	101	1048576	60	8245
2026-01-05 23:00:24.14	339.93	7.28	-43.5	-45.2	19.3	0.00e+00	0	31	101	1048576	60	8849
2026-01-05 23:00:28.19	339.69	6.99	-44.0	-45.8	18.6	0.00e+00	0	31	101	1048576	60	9462
2026-01-05 23:00:32.23	339.46	6.70	-43.9	-45.6	18.8	0.00e+00	0	31	101	1048576	60	9336
2026-01-05 23:00:36.27	339.23	6.41	-44.0	-45.8	18.5	0.00e+00	51	31	101	1048576	60	9556
2026-01-05 23:00:40.32	339.01	6.13	-44.1	-46.0	18.3	0.00e+00	0	31	101	1048576	60	9743
2026-01-05 23:00:44.36	338.79	5.85	-44.4	-46.5	17.7	0.00e+00	0	31	101	1048576	60	10277
2026-01-05 23:00:48.40	338.58	5.57	-45.1	-47.6	16.2	0.00e+00	22	31	101	1048576	60	11738
2026-01-05 23:00:52.45	338.37	5.30	-45.5	-48.6	14.7	0.00e+00	91	31	101	1048576	60	13066
2026-01-05 23:00:56.49	338.16	5.03	-45.9	-50.0	12.5	1.06e-04	0	31	101	1048576	60	15339
2026-01-05 23:01:00.54	337.96	4.75	-46.3	-52.1	9.2	1.32e-02	0	31	101	1048576	60	19653
2026-01-05 23:01:04.58	337.76	4.49	-46.3	-54.5	5.6	2.95e-01	15	31	101	1048576	60	25769
2026-01-05 23:01:08.63	337.57	4.22	-46.3	-58.8	3.9	1.46e+00	0	31	104	1048576	60	42712
2026-01-05 23:01:12.67	337.38	3.96	-46.1	-60.5	3.6	1.51e+00	0	31	104	1048576	60	51777
2026-01-05 23:01:16.71	337.20	3.70	-46.0	-61.4	3.6	1.51e+00	0	31	104	1048576	60	57129
2026-01-05 23:01:20.76	337.01	3.44	-46.0	-61.3	3.6	1.51e+00	0	31	104	1048576	60	56860
2026-01-05 23:01:24.80	336.83	3.18	-46.0	-61.4	3.5	1.51e+00	0	31	104	1048576	60	57188
2026-01-05 23:01:28.85	336.66	2.93	-50.8	-66.2	3.6	1.51e+00	0	31	104	1048576	60	99974
2026-01-05 23:01:32.89	336.49	2.67	-51.3	-66.6	3.6	1.51e+00	0	32	104	1048576	60	104848
2026-01-05 23:01:36.93	336.32	2.42	-50.9	-66.6	3.6	1.51e+00	0	32	104	1048576	60	104247
2026-01-05 23:01:40.98	336.15	2.17	-51.2	-66.6	3.6	1.51e+00	0	31	104	1048576	60	104118
2026-01-05 23:01:45.02	335.99	1.93	-51.2	-66.6	3.6	1.51e+00	0	32	104	1048576	60	104031
2026-01-05 23:01:49.06	335.83	1.68	-51.2	-66.6	3.6	1.51e+00	0	32	104	1048576	60	103953
2026-01-05 23:01:53.11	335.67	1.44	-51.2	-66.6	3.6	1.51e+00	0	31	104	1048576	60	103905
2026-01-05 23:01:57.15	335.52	1.20	-51.2	-66.5	3.6	1.51e+00	0	32	104	1048576	60	103647
2026-01-05 23:02:01.19	335.37	0.96	-51.2	-66.6	3.6	1.51e+00	0	31	104	1048576	60	104002
2026-01-05 23:02:05.24	335.22	0.72	-51.2	-66.5	3.6	1.51e+00	0	32	104	1048576	60	103572
2026-01-05 23:02:09.28	335.07	0.48	-51.2	-66.5	3.6	1.51e+00	0	32	104	1048576	60	103547
2026-01-05 23:02:13.32	334.93	0.25	-51.2	-66.6	3.6	1.51e+00	0	32	104	1048576	60	103998
2026-01-05 23:02:17.37	334.79	0.02	-51.2	-66.5	3.6	1.51e+00	0	32	104	1048576	60	103639

#Closed at: 2026-01-05 23:02:17
#Recorded file [1 MB]: D:/lorett/data/35034_260106_014731.dat