passes_logs/2026/01/05/R4.6S_Anadyr_2ch/R4.6S_Anadyr_2ch__20260105_143147_SUOMI_NPP_rec.log

#Pass ID: 20260105_143147_SUOMI NPP
#Satellite: SUOMI NPP
#Configuration: NPP
#almurnet v.1.7.20251203
#Start time: 2026-01-05 14:31:48

#Version: 2.2.20231116
#Station: R4.6S_Anadyr_2ch
#Location: 177.4865 lon 64.73178 lat
#TLE: 1 37849U 11061A   25350.92281687  .00000071  00000+0  54882-4 0  9996
#TLE: 2 37849  98.7777 288.2268 0002366 112.8570 247.2856 14.19515404732588

#Time	Az	El	Level	Level2	SNR	BER	BlckErr	Temp	State	Recorded	gain1	gain2
2026-01-05 14:31:48.40	20.05	0.08	-51.0	-63.5	3.4	1.52e+00	0	24	0	0	60	71187
2026-01-05 14:31:52.44	20.10	0.32	-51.0	-66.3	3.6	1.51e+00	0	26	104	0	60	101018
2026-01-05 14:31:56.49	20.15	0.57	-51.0	-66.3	3.6	1.51e+00	0	26	104	0	60	100691
2026-01-05 14:32:00.53	20.20	0.81	-50.4	-65.8	3.6	1.51e+00	0	26	104	0	60	94619
2026-01-05 14:32:04.57	20.25	1.06	-49.7	-64.9	3.6	1.51e+00	0	26	104	0	60	85857
2026-01-05 14:32:08.62	20.30	1.31	-49.7	-64.8	3.6	1.51e+00	0	26	104	0	60	84939
2026-01-05 14:32:12.66	20.36	1.56	-49.7	-64.8	3.6	1.51e+00	0	26	104	0	60	84567
2026-01-05 14:32:16.71	20.41	1.81	-49.7	-64.9	3.6	1.51e+00	0	26	104	0	60	85870
2026-01-05 14:32:20.75	20.46	2.07	-49.6	-64.9	3.6	1.51e+00	0	26	104	0	60	85619
2026-01-05 14:32:24.80	20.52	2.33	-49.6	-63.1	3.6	1.51e+00	0	27	104	0	60	69380
2026-01-05 14:32:28.84	20.57	2.59	-49.5	-62.6	3.6	1.50e+00	0	26	104	0	60	66067
2026-01-05 14:32:32.88	20.63	2.85	-48.9	-55.9	7.2	2.21e-01	0	27	102	1048576	60	30521
2026-01-05 14:32:36.93	20.69	3.12	-46.7	-50.1	13.8	9.90e-06	0	27	102	1048576	60	15520
2026-01-05 14:32:40.97	20.74	3.39	-45.8	-48.5	15.4	0.00e+00	92	26	102	1048576	60	12997
2026-01-05 14:32:45.02	20.80	3.66	-47.8	-52.4	11.2	4.34e-04	0	27	102	1048576	60	20315
2026-01-05 14:32:49.07	20.86	3.93	-49.6	-64.4	3.6	5.58e-01	0	27	104	1048576	60	81310
2026-01-05 14:32:53.11	20.92	4.21	-44.6	-46.6	17.5	0.00e+00	83	27	0	1048576	60	10471
2026-01-05 14:32:57.15	20.98	4.49	-43.6	-45.2	18.8	0.00e+00	0	27	0	1048576	60	8913
2026-01-05 14:33:01.20	21.04	4.77	-43.5	-45.1	19.1	0.00e+00	0	27	0	1048576	60	8750
2026-01-05 14:33:05.24	21.10	5.06	-43.1	-44.6	19.5	0.00e+00	0	27	0	1048576	60	8325
2026-01-05 14:33:09.29	21.16	5.34	-43.1	-44.6	19.6	0.00e+00	80	27	0	1048576	60	8317
2026-01-05 14:33:13.33	21.23	5.64	-42.9	-44.4	19.8	0.00e+00	0	27	101	1048576	60	8060
2026-01-05 14:33:17.37	21.29	5.93	-42.5	-43.9	20.2	0.00e+00	0	27	101	1048576	60	7636
2026-01-05 14:33:21.42	21.36	6.23	-42.6	-44.0	20.2	0.00e+00	13	27	101	1048576	60	7748
2026-01-05 14:33:25.46	21.42	6.53	-42.4	-43.7	20.5	0.00e+00	72	27	101	1048576	60	7469
2026-01-05 14:33:29.51	21.49	6.84	-42.3	-43.6	20.8	0.00e+00	0	27	101	1048576	60	7365
2026-01-05 14:33:33.55	21.56	7.14	-42.2	-43.5	20.8	0.00e+00	0	27	101	1048576	60	7278
2026-01-05 14:33:37.60	21.63	7.46	-41.9	-43.1	21.1	0.00e+00	19	27	101	1048576	60	6978
2026-01-05 14:33:41.64	21.70	7.77	-41.8	-43.1	21.3	0.00e+00	0	27	101	1048576	60	6941
2026-01-05 14:33:45.69	21.77	8.09	-41.8	-43.0	21.2	0.00e+00	0	27	101	1048576	60	6873
2026-01-05 14:33:49.73	21.84	8.42	-41.6	-42.8	21.4	0.00e+00	0	27	101	1048576	60	6698
2026-01-05 14:33:53.78	21.92	8.75	-41.7	-42.8	21.4	0.00e+00	66	27	101	1048576	60	6754
2026-01-05 14:33:57.82	21.99	9.08	-41.2	-42.3	22.0	0.00e+00	0	27	101	1048576	60	6361
2026-01-05 14:34:01.87	22.07	9.42	-41.1	-42.2	22.0	0.00e+00	0	27	101	1048576	60	6275
2026-01-05 14:34:05.91	22.15	9.76	-41.1	-42.2	22.0	0.00e+00	21	27	101	1048576	60	6271
2026-01-05 14:34:09.96	22.23	10.11	-40.8	-41.9	22.3	0.00e+00	92	27	101	1048576	60	6047
2026-01-05 14:34:14.00	22.31	10.46	-40.7	-41.7	22.5	0.00e+00	0	27	101	1048576	60	5963
2026-01-05 14:34:18.04	22.39	10.82	-40.5	-41.6	22.6	0.00e+00	0	27	101	1048576	60	5834
2026-01-05 14:34:22.09	22.47	11.18	-40.3	-41.3	22.8	0.00e+00	26	27	101	1048576	60	5657
2026-01-05 14:34:26.13	22.56	11.55	-40.3	-41.3	22.9	0.00e+00	25	27	101	1048576	60	5664
2026-01-05 14:34:30.18	22.65	11.92	-40.1	-41.1	23.0	0.00e+00	0	27	101	1048576	58	6187
2026-01-05 14:34:34.23	22.74	12.30	-39.8	-40.7	23.3	0.00e+00	0	27	101	1048576	58	5946
2026-01-05 14:34:38.27	22.83	12.68	-39.8	-40.8	23.2	0.00e+00	59	27	101	1048576	58	5980
2026-01-05 14:34:42.31	22.92	13.07	-40.0	-40.9	23.1	0.00e+00	0	27	101	1048576	58	6103
2026-01-05 14:34:46.36	23.02	13.47	-40.0	-40.9	23.1	0.00e+00	0	27	101	1048576	58	6098
2026-01-05 14:34:50.40	23.11	13.88	-39.8	-40.8	23.3	0.00e+00	0	27	101	1048576	58	5991
2026-01-05 14:34:54.45	23.21	14.29	-39.8	-40.7	23.3	0.00e+00	89	27	101	1048576	58	5947
2026-01-05 14:34:58.49	23.32	14.70	-39.7	-40.6	23.4	0.00e+00	0	27	101	1048576	58	5875
2026-01-05 14:35:02.53	23.42	15.13	-40.0	-41.0	22.8	0.00e+00	0	27	101	1048576	58	6110
2026-01-05 14:35:06.58	23.53	15.56	-40.0	-40.9	23.2	0.00e+00	16	27	101	1048576	58	6101
2026-01-05 14:35:10.62	23.64	16.00	-40.1	-41.1	23.2	0.00e+00	0	27	101	1048576	58	6174
2026-01-05 14:35:14.66	23.75	16.45	-40.6	-41.6	22.8	0.00e+00	0	27	101	1048576	58	6559
2026-01-05 14:35:18.71	23.86	16.91	-40.5	-41.5	22.8	0.00e+00	0	27	101	1048576	58	6511
2026-01-05 14:35:22.75	23.98	17.37	-40.8	-41.8	22.6	0.00e+00	89	27	101	1048576	58	6753
2026-01-05 14:35:26.80	24.10	17.85	-41.4	-42.4	22.2	0.00e+00	0	27	101	1048576	60	6460
2026-01-05 14:35:30.84	24.23	18.33	-41.5	-42.6	21.8	0.00e+00	0	27	101	1048576	60	6594
2026-01-05 14:35:34.88	24.36	18.82	-42.1	-43.3	21.4	0.00e+00	0	27	101	1048576	60	7149
2026-01-05 14:35:38.93	24.49	19.33	-41.9	-43.0	21.7	0.00e+00	91	27	101	1048576	60	6925
2026-01-05 14:35:42.97	24.62	19.84	-41.5	-42.7	21.9	0.00e+00	0	27	101	1048576	60	6628
2026-01-05 14:35:47.02	24.76	20.36	-41.3	-42.4	22.3	0.00e+00	0	27	101	1048576	60	6402
2026-01-05 14:35:51.06	24.91	20.90	-41.4	-42.4	22.4	0.00e+00	81	27	101	1048576	60	6460
2026-01-05 14:35:55.11	25.06	21.45	-41.5	-42.6	22.1	0.00e+00	0	27	101	1048576	60	6567
2026-01-05 14:35:59.15	25.21	22.00	-41.2	-42.3	22.3	0.00e+00	0	27	101	1048576	60	6344
2026-01-05 14:36:03.20	25.37	22.58	-41.1	-42.2	22.4	0.00e+00	12	27	101	1048576	60	6268
2026-01-05 14:36:07.24	25.53	23.16	-41.2	-42.3	22.3	0.00e+00	91	27	101	1048576	60	6362
2026-01-05 14:36:11.29	25.70	23.76	-41.3	-42.4	22.0	0.00e+00	0	27	101	1048576	60	6462
2026-01-05 14:36:15.33	25.88	24.37	-41.1	-42.1	22.5	0.00e+00	0	27	101	1048576	60	6241
2026-01-05 14:36:19.38	26.06	25.00	-40.8	-41.9	22.7	0.00e+00	0	27	101	1048576	60	6035
2026-01-05 14:36:23.42	26.25	25.64	-40.6	-41.6	22.9	0.00e+00	7	27	101	1048576	60	5838
2026-01-05 14:36:27.46	26.44	26.29	-40.8	-41.8	22.9	0.00e+00	0	27	101	1048576	60	6012
2026-01-05 14:36:31.51	26.65	26.96	-40.7	-41.6	22.9	0.00e+00	0	27	101	1048576	60	5886
2026-01-05 14:36:35.55	26.86	27.65	-40.9	-41.8	22.8	0.00e+00	22	27	101	1048576	60	6031
2026-01-05 14:36:39.60	27.08	28.36	-40.5	-41.5	22.9	0.00e+00	0	27	101	1048576	60	5791
2026-01-05 14:36:43.64	27.31	29.08	-40.4	-41.3	23.2	0.00e+00	0	27	101	1048576	58	6353
2026-01-05 14:36:47.69	27.55	29.83	-40.4	-41.3	23.0	0.00e+00	0	27	101	1048576	58	6388
2026-01-05 14:36:51.73	27.80	30.59	-40.9	-41.9	22.6	0.00e+00	83	27	101	1048576	58	6785
2026-01-05 14:36:55.78	28.06	31.37	-41.3	-42.3	22.3	0.00e+00	0	27	101	1048576	60	6363
2026-01-05 14:36:59.82	28.33	32.18	-42.4	-43.6	20.9	0.00e+00	0	27	101	1048576	60	7411
2026-01-05 14:37:03.86	28.62	33.00	-42.6	-43.9	21.0	0.00e+00	0	27	101	1048576	60	7679
2026-01-05 14:37:07.91	28.92	33.85	-42.7	-44.0	20.8	0.00e+00	92	27	101	1048576	60	7723
2026-01-05 14:37:11.95	29.24	34.72	-41.3	-42.4	22.3	0.00e+00	0	27	101	1048576	60	6396
2026-01-05 14:37:16.00	29.57	35.62	-40.6	-41.5	23.2	0.00e+00	0	27	101	1048576	60	5812
2026-01-05 14:37:20.04	29.92	36.54	-40.8	-41.8	23.0	0.00e+00	0	27	101	1048576	58	6711
2026-01-05 14:37:24.08	30.29	37.48	-41.6	-42.7	21.9	0.00e+00	0	27	101	1048576	60	6689
2026-01-05 14:37:28.13	30.68	38.46	-43.2	-44.6	20.4	0.00e+00	30	27	101	1048576	60	8310
2026-01-05 14:37:32.17	31.10	39.45	-43.2	-44.7	20.3	0.00e+00	0	27	101	1048576	60	8351
2026-01-05 14:37:36.22	31.54	40.48	-43.3	-44.7	20.2	0.00e+00	74	27	101	1048576	60	8409
2026-01-05 14:37:40.26	32.01	41.54	-42.6	-43.8	21.1	0.00e+00	0	27	101	1048576	60	7593
2026-01-05 14:37:44.31	32.51	42.63	-41.0	-42.0	22.7	0.00e+00	0	27	101	1048576	60	6118
2026-01-05 14:37:48.35	33.05	43.74	-41.4	-42.5	22.3	0.00e+00	30	27	101	1048576	60	6483
2026-01-05 14:37:52.40	33.62	44.89	-41.8	-42.9	21.9	0.00e+00	48	27	101	1048576	60	6809
2026-01-05 14:37:56.44	34.23	46.07	-42.7	-44.0	20.5	0.00e+00	0	27	101	1048576	60	7760
2026-01-05 14:38:00.48	34.89	47.27	-43.7	-45.2	20.2	0.00e+00	0	27	101	1048576	60	8907
2026-01-05 14:38:04.53	35.61	48.51	-41.7	-42.9	21.9	0.00e+00	28	27	101	1048576	60	6782
2026-01-05 14:38:08.57	36.38	49.78	-39.9	-40.9	23.4	0.00e+00	0	27	101	1048576	58	6089
2026-01-05 14:38:12.62	37.23	51.09	-39.1	-40.0	24.1	0.00e+00	0	27	101	1048576	56	6151
2026-01-05 14:38:16.66	38.14	52.42	-38.3	-39.1	24.9	0.00e+00	0	27	101	1048576	56	5563
2026-01-05 14:38:20.71	39.15	53.78	-38.5	-39.4	24.5	0.00e+00	90	27	101	1048576	54	6432
2026-01-05 14:38:24.75	40.25	55.17	-36.6	-37.3	25.8	0.00e+00	0	27	101	1048576	52	5663
2026-01-05 14:38:28.80	41.46	56.59	-37.2	-38.0	25.5	0.00e+00	0	27	101	1048576	52	6110
2026-01-05 14:38:32.84	42.81	58.02	-37.3	-38.1	25.4	0.00e+00	32	28	101	1048576	52	6193
2026-01-05 14:38:36.89	44.30	59.48	-37.0	-37.7	25.3	0.00e+00	0	27	101	1048576	52	5942
2026-01-05 14:38:40.93	45.98	60.96	-37.3	-38.1	25.4	0.00e+00	0	28	101	1048576	52	6213
2026-01-05 14:38:44.97	47.85	62.44	-38.0	-38.8	24.9	0.00e+00	0	27	101	1048576	52	6736
2026-01-05 14:38:49.02	49.98	63.93	-36.2	-36.9	26.2	0.00e+00	0	27	101	1048576	52	5404
2026-01-05 14:38:53.07	52.40	65.41	-38.6	-39.4	24.5	0.00e+00	0	27	101	1048576	54	6447
2026-01-05 14:38:57.11	55.15	66.88	-38.3	-39.1	24.6	0.00e+00	0	27	101	1048576	54	6237
2026-01-05 14:39:01.16	58.31	68.32	-40.7	-41.7	22.9	0.00e+00	0	27	101	1048576	60	5905
2026-01-05 14:39:05.20	61.94	69.70	-39.9	-40.8	23.4	0.00e+00	92	27	101	1048576	58	5981
2026-01-05 14:39:09.24	66.13	71.03	-42.8	-44.1	20.2	0.00e+00	0	28	101	1048576	60	7816
2026-01-05 14:39:13.29	70.98	72.25	-39.9	-40.8	23.5	0.00e+00	0	27	101	1048576	58	5991
2026-01-05 14:39:17.33	76.53	73.36	-40.0	-40.9	23.5	0.00e+00	44	28	101	1048576	58	6099
2026-01-05 14:39:21.38	82.85	74.30	-41.1	-42.1	22.0	0.00e+00	92	27	101	1048576	58	6987
2026-01-05 14:39:25.42	89.91	75.05	-40.1	-41.0	23.5	0.00e+00	0	27	101	1048576	58	6138
2026-01-05 14:39:29.46	97.61	75.55	-42.4	-43.8	21.0	0.00e+00	0	27	101	1048576	60	7521
2026-01-05 14:39:33.51	105.75	75.80	-39.5	-40.4	23.7	0.00e+00	73	28	101	1048576	58	5724
2026-01-05 14:39:37.55	114.00	75.76	-41.5	-42.6	22.4	0.00e+00	0	28	101	1048576	60	6554
2026-01-05 14:39:41.60	122.05	75.44	-42.6	-43.8	21.1	0.00e+00	0	28	101	1048576	60	7590
2026-01-05 14:39:45.64	129.59	74.86	-41.0	-41.9	22.9	0.00e+00	0	28	101	1048576	60	6099
2026-01-05 14:39:49.69	136.47	74.06	-42.1	-43.3	21.7	0.00e+00	73	28	101	1048576	60	7097
2026-01-05 14:39:53.74	142.59	73.06	-41.7	-42.7	22.0	0.00e+00	0	28	101	1048576	60	6665
2026-01-05 14:39:57.78	147.94	71.92	-43.1	-44.4	20.9	0.00e+00	0	27	101	1048576	60	8108
2026-01-05 14:40:01.82	152.58	70.66	-41.7	-42.8	22.0	0.00e+00	29	28	101	1048576	60	6715
2026-01-05 14:40:05.87	156.62	69.32	-41.6	-42.6	22.1	0.00e+00	66	28	101	1048576	60	6585
2026-01-05 14:40:09.91	160.12	67.91	-39.8	-40.7	23.7	0.00e+00	0	27	101	1048576	58	5929
2026-01-05 14:40:13.96	163.16	66.46	-39.1	-40.0	24.2	0.00e+00	0	27	101	1048576	58	5487
2026-01-05 14:40:18.00	165.82	64.99	-36.4	-37.1	25.9	0.00e+00	83	27	101	1048576	52	5557
2026-01-05 14:40:22.05	168.15	63.50	-37.3	-38.1	25.3	0.00e+00	0	27	101	1048576	50	6959
2026-01-05 14:40:26.09	170.20	62.01	-38.6	-39.5	24.3	0.00e+00	25	28	101	1048576	54	6511
2026-01-05 14:40:30.14	172.02	60.52	-38.7	-39.5	24.4	0.00e+00	0	27	101	1048576	54	6533
2026-01-05 14:40:34.18	173.64	59.05	-38.9	-39.7	24.5	0.00e+00	92	27	101	1048576	56	5926
2026-01-05 14:40:38.23	175.10	57.59	-38.0	-38.8	25.1	0.00e+00	0	27	101	1048576	54	6020
2026-01-05 14:40:42.27	176.40	56.15	-37.6	-38.4	25.1	0.00e+00	0	27	101	1048576	52	6463
2026-01-05 14:40:46.31	177.58	54.74	-38.0	-38.8	24.9	0.00e+00	27	27	101	1048576	52	6742
2026-01-05 14:40:50.36	178.66	53.36	-38.2	-39.1	24.7	0.00e+00	81	27	101	1048576	54	6181
2026-01-05 14:40:54.40	179.63	52.00	-40.6	-41.7	22.9	0.00e+00	0	28	101	1048576	60	5959
2026-01-05 14:40:58.45	180.53	50.67	-39.7	-40.5	23.5	0.00e+00	0	28	101	1048576	56	6539
2026-01-05 14:41:02.49	181.35	49.38	-45.7	-48.0	17.4	0.00e+00	92	28	101	1048576	60	12318
2026-01-05 14:41:06.54	182.11	48.11	-41.1	-42.2	22.6	0.00e+00	0	28	101	1048576	60	6270
2026-01-05 14:41:10.58	182.80	46.87	-43.1	-44.6	20.6	0.00e+00	0	28	101	1048576	60	8262
2026-01-05 14:41:14.63	183.45	45.67	-41.9	-43.0	21.9	0.00e+00	0	27	101	1048576	60	6877
2026-01-05 14:41:18.67	184.05	44.50	-38.9	-39.8	24.4	0.00e+00	92	27	101	1048576	56	5972
2026-01-05 14:41:22.72	184.62	43.36	-43.0	-44.3	20.7	0.00e+00	0	27	101	1048576	60	7999
2026-01-05 14:41:26.77	185.14	42.24	-39.2	-40.1	24.2	0.00e+00	0	27	101	1048576	56	6188
2026-01-05 14:41:30.81	185.63	41.16	-38.2	-39.0	24.7	0.00e+00	7	28	101	1048576	54	6142
2026-01-05 14:41:34.86	186.09	40.11	-40.7	-41.7	22.8	0.00e+00	0	28	101	1048576	58	6692
2026-01-05 14:41:38.90	186.52	39.09	-41.2	-42.3	22.5	0.00e+00	0	27	101	1048576	60	6335
2026-01-05 14:41:42.94	186.93	38.10	-39.2	-40.0	24.1	0.00e+00	0	28	101	1048576	56	6173
2026-01-05 14:41:46.99	187.32	37.13	-42.9	-44.3	20.5	0.00e+00	29	27	101	1048576	60	8021
2026-01-05 14:41:51.03	187.68	36.19	-43.7	-45.3	19.8	0.00e+00	0	28	101	1048576	60	9016
2026-01-05 14:41:55.08	188.03	35.27	-38.9	-39.8	24.4	0.00e+00	0	27	101	1048576	56	5992
2026-01-05 14:41:59.12	188.35	34.38	-40.8	-41.8	22.6	0.00e+00	0	28	101	1048576	58	6731
2026-01-05 14:42:03.17	188.66	33.51	-43.7	-45.2	19.9	0.00e+00	92	27	101	1048576	60	8893
2026-01-05 14:42:07.21	188.96	32.67	-42.7	-44.0	21.3	0.00e+00	11	28	101	1048576	60	7685
2026-01-05 14:42:11.26	189.24	31.85	-41.2	-42.2	22.5	0.00e+00	0	28	101	1048576	60	6298
2026-01-05 14:42:15.30	189.51	31.05	-40.3	-41.3	23.3	0.00e+00	25	28	101	1048576	60	5659
2026-01-05 14:42:19.34	189.77	30.27	-39.4	-40.3	24.0	0.00e+00	92	27	101	1048576	58	5655
2026-01-05 14:42:23.39	190.01	29.51	-39.9	-40.7	23.6	0.00e+00	0	28	101	1048576	56	6671
2026-01-05 14:42:27.43	190.25	28.77	-41.7	-42.8	21.9	0.00e+00	0	27	101	1048576	60	6718
2026-01-05 14:42:31.47	190.47	28.05	-42.4	-43.6	21.2	0.00e+00	92	28	101	1048576	60	7360
2026-01-05 14:42:35.52	190.69	27.34	-41.5	-42.6	22.2	0.00e+00	0	28	101	1048576	60	6550
2026-01-05 14:42:39.56	190.89	26.66	-40.9	-41.9	22.7	0.00e+00	0	28	101	1048576	60	6040
2026-01-05 14:42:43.61	191.09	25.99	-39.1	-40.0	24.0	0.00e+00	0	28	101	1048576	58	5452
2026-01-05 14:42:47.65	191.29	25.33	-38.9	-39.8	24.3	0.00e+00	88	28	101	1048576	56	5976
2026-01-05 14:42:51.70	191.47	24.70	-38.5	-39.3	24.7	0.00e+00	0	28	101	1048576	56	5695
2026-01-05 14:42:55.74	191.65	24.07	-37.8	-38.6	25.1	0.00e+00	0	28	101	1048576	54	5851
2026-01-05 14:42:59.79	191.82	23.46	-37.9	-38.6	25.0	0.00e+00	52	28	101	1048576	54	5895
2026-01-05 14:43:03.83	191.99	22.87	-38.6	-39.5	24.4	0.00e+00	0	28	101	1048576	54	6480
2026-01-05 14:43:07.87	192.15	22.29	-39.5	-40.4	23.9	0.00e+00	0	28	101	1048576	56	6447
2026-01-05 14:43:11.92	192.30	21.72	-39.0	-39.8	24.3	0.00e+00	0	28	101	1048576	56	6003
2026-01-05 14:43:15.96	192.45	21.16	-38.5	-39.3	24.5	0.00e+00	92	28	101	1048576	56	5673
2026-01-05 14:43:20.01	192.60	20.62	-38.7	-39.5	24.4	0.00e+00	0	27	101	1048576	56	5811
2026-01-05 14:43:24.05	192.74	20.08	-39.0	-39.9	24.1	0.00e+00	0	28	101	1048576	56	6060
2026-01-05 14:43:28.10	192.87	19.56	-39.3	-40.2	23.9	0.00e+00	0	28	101	1048576	56	6311
2026-01-05 14:43:32.14	193.01	19.05	-39.3	-40.2	24.0	0.00e+00	92	28	101	1048576	56	6276
2026-01-05 14:43:36.18	193.13	18.55	-39.5	-40.4	23.9	0.00e+00	0	28	101	1048576	56	6449
2026-01-05 14:43:40.23	193.26	18.06	-39.7	-40.6	23.5	0.00e+00	0	28	101	1048576	56	6586
2026-01-05 14:43:44.27	193.38	17.57	-39.8	-40.7	23.6	0.00e+00	21	28	101	1048576	56	6636
2026-01-05 14:43:48.32	193.50	17.10	-40.3	-41.2	23.1	0.00e+00	18	28	101	1048576	58	6303
2026-01-05 14:43:52.36	193.61	16.64	-40.4	-41.3	23.1	0.00e+00	0	28	101	1048576	58	6376
2026-01-05 14:43:56.40	193.73	16.18	-40.5	-41.5	22.8	0.00e+00	0	28	101	1048576	58	6488
2026-01-05 14:44:00.45	193.84	15.73	-40.7	-41.7	22.8	0.00e+00	9	28	101	1048576	58	6656
2026-01-05 14:44:04.49	193.94	15.30	-40.6	-41.6	22.8	0.00e+00	7	28	101	1048576	58	6571
2026-01-05 14:44:08.54	194.05	14.86	-40.8	-41.8	22.5	0.00e+00	0	27	101	1048576	58	6728
2026-01-05 14:44:12.58	194.15	14.44	-40.8	-41.8	22.5	0.00e+00	17	28	101	1048576	58	6747
2026-01-05 14:44:16.62	194.24	14.02	-40.8	-41.8	22.6	0.00e+00	64	28	101	1048576	58	6708
2026-01-05 14:44:20.66	194.34	13.62	-40.5	-41.4	22.8	0.00e+00	0	28	101	1048576	58	6454
2026-01-05 14:44:24.70	194.44	13.21	-40.3	-41.3	23.0	0.00e+00	0	28	101	1048576	58	6354
2026-01-05 14:44:28.75	194.53	12.82	-40.2	-41.2	23.0	0.00e+00	16	28	101	1048576	58	6267
2026-01-05 14:44:32.79	194.62	12.43	-40.3	-41.2	23.1	0.00e+00	92	28	101	1048576	58	6277
2026-01-05 14:44:36.84	194.70	12.04	-40.5	-41.5	22.6	0.00e+00	0	28	101	1048576	58	6488
2026-01-05 14:44:40.88	194.79	11.66	-40.2	-41.2	23.0	0.00e+00	0	28	101	1048576	58	6266
2026-01-05 14:44:44.93	194.88	11.29	-40.6	-41.6	22.6	0.00e+00	51	28	101	1048576	58	6571
2026-01-05 14:44:48.97	194.96	10.92	-40.4	-41.3	22.9	0.00e+00	0	28	101	1048576	58	6387
2026-01-05 14:44:53.01	195.04	10.56	-40.7	-41.7	22.6	0.00e+00	0	28	101	1048576	58	6651
2026-01-05 14:44:57.06	195.12	10.21	-40.7	-41.7	22.6	0.00e+00	0	28	101	1048576	58	6620
2026-01-05 14:45:01.10	195.19	9.86	-40.6	-41.6	22.6	0.00e+00	91	28	101	1048576	58	6605
2026-01-05 14:45:05.15	195.27	9.51	-40.5	-41.5	22.6	0.00e+00	19	28	101	1048576	58	6507
2026-01-05 14:45:09.19	195.35	9.17	-40.5	-41.5	22.6	0.00e+00	0	28	101	1048576	58	6532
2026-01-05 14:45:13.24	195.42	8.83	-40.6	-41.6	22.6	0.00e+00	16	28	101	1048576	58	6571
2026-01-05 14:45:17.28	195.49	8.50	-40.6	-41.6	22.4	0.00e+00	0	28	101	1048576	58	6582
2026-01-05 14:45:21.32	195.56	8.17	-40.7	-41.8	22.3	0.00e+00	0	28	101	1048576	58	6695
2026-01-05 14:45:25.37	195.63	7.84	-40.8	-41.9	22.2	0.00e+00	0	28	101	1048576	58	6771
2026-01-05 14:45:29.41	195.70	7.53	-40.7	-41.7	22.4	0.00e+00	41	28	101	1048576	58	6666
2026-01-05 14:45:33.46	195.76	7.21	-40.8	-41.9	22.2	0.00e+00	0	28	101	1048576	58	6773
2026-01-05 14:45:37.50	195.83	6.90	-40.8	-41.8	22.2	0.00e+00	0	28	101	1048576	58	6743
2026-01-05 14:45:41.55	195.89	6.59	-41.0	-42.1	21.9	0.00e+00	0	28	101	1048576	58	6963
2026-01-05 14:45:45.59	195.96	6.28	-41.1	-42.2	21.9	0.00e+00	92	28	101	1048576	58	7053
2026-01-05 14:45:49.63	196.02	5.98	-41.4	-42.5	21.6	0.00e+00	0	28	101	1048576	60	6519
2026-01-05 14:45:53.68	196.08	5.68	-41.4	-42.5	21.6	0.00e+00	0	28	101	1048576	60	6506
2026-01-05 14:45:57.72	196.14	5.39	-41.5	-42.7	21.6	0.00e+00	66	28	101	1048576	60	6621
2026-01-05 14:46:01.77	196.20	5.10	-41.3	-42.4	21.8	0.00e+00	0	28	101	1048576	60	6440
2026-01-05 14:46:05.81	196.26	4.81	-41.6	-42.8	21.3	0.00e+00	0	28	101	1048576	60	6738
2026-01-05 14:46:09.86	196.32	4.53	-41.7	-42.9	21.2	0.00e+00	0	28	101	1048576	60	6793
2026-01-05 14:46:13.90	196.38	4.24	-42.2	-43.5	20.6	0.00e+00	66	28	101	1048576	60	7282
2026-01-05 14:46:17.95	196.43	3.96	-41.7	-42.9	21.0	0.00e+00	0	28	101	1048576	60	6819
2026-01-05 14:46:21.99	196.49	3.69	-42.2	-43.5	20.3	0.00e+00	0	28	101	1048576	60	7290
2026-01-05 14:46:26.04	196.54	3.41	-42.4	-43.8	20.0	0.00e+00	0	28	101	1048576	60	7553
2026-01-05 14:46:30.08	196.59	3.14	-42.7	-44.2	19.6	0.00e+00	92	28	101	1048576	60	7881
2026-01-05 14:46:34.13	196.65	2.87	-50.9	-66.3	3.6	1.51e+00	0	28	104	1048576	60	100588
2026-01-05 14:46:38.17	196.70	2.61	-51.1	-66.5	3.6	1.51e+00	0	28	104	1048576	60	103078
2026-01-05 14:46:42.22	196.75	2.35	-50.9	-66.4	3.6	1.51e+00	0	28	104	1048576	60	101736
2026-01-05 14:46:46.26	196.80	2.09	-51.0	-66.4	3.6	1.51e+00	0	28	104	1048576	60	101558
2026-01-05 14:46:50.31	196.85	1.83	-51.0	-66.4	3.6	1.51e+00	0	28	104	1048576	60	101688
2026-01-05 14:46:54.35	196.90	1.57	-51.1	-66.4	3.6	1.51e+00	0	28	104	1048576	60	102099
2026-01-05 14:46:58.40	196.95	1.32	-51.1	-66.4	3.6	1.51e+00	0	28	104	1048576	60	101859
2026-01-05 14:47:02.44	197.00	1.06	-51.0	-66.4	3.6	1.51e+00	0	28	104	1048576	60	101752
2026-01-05 14:47:06.49	197.05	0.82	-51.1	-66.4	3.6	1.51e+00	0	28	104	1048576	60	102346
2026-01-05 14:47:10.53	197.09	0.57	-51.1	-66.4	3.6	1.51e+00	0	28	104	1048576	60	102182
2026-01-05 14:47:14.57	197.14	0.32	-51.0	-66.4	3.6	1.51e+00	0	28	104	1048576	60	102074
2026-01-05 14:47:18.62	197.18	0.08	-51.0	-66.4	3.6	1.51e+00	0	28	104	1048576	60	102072
2026-01-05 14:47:22.66	197.23	-0.16	-51.1	-66.3	3.6	1.51e+00	0	28	104	1048576	60	101039

#Closed at: 2026-01-05 14:47:22
#Recorded file [1 MB]: D:/lorett/data/35034_260105_173148.dat