passes_logs/2026/01/05/R4.6S_Anadyr_2ch/R4.6S_Anadyr_2ch__20260105_051347_FENGYUN_3E_rec.log

#Pass ID: 20260105_051347_FENGYUN 3E
#Satellite: FENGYUN 3E
#Configuration: FENGYUN 3E
#almurnet v.1.7.20251203
#Start time: 2026-01-05 05:13:50

#Version: 2.2.20231116
#Station: R4.6S_Anadyr_2ch
#Location: 177.4865 lon 64.73178 lat
#TLE: 1 49008U 21062A   25350.97288215  .00000176  00000+0  10353-3 0  9997
#TLE: 2 49008  98.7477 351.4440 0000638 234.3856 125.7261 14.19881381230726

#Time	Az	El	Level	Level2	SNR	BER	BlckErr	Temp	State	Recorded	gain1	gain2
2026-01-05 05:13:50.36	174.77	0.15	-51.6	-69.6	3.5	3.04e+01	0	21	0	0	60	156775
2026-01-05 05:13:54.39	174.87	0.39	-51.6	-63.2	3.6	8.43e-01	0	22	104	0	60	71634
2026-01-05 05:13:58.44	174.98	0.64	-51.0	-63.0	3.6	8.45e-01	0	22	104	0	60	70038
2026-01-05 05:14:02.48	175.08	0.88	-50.5	-62.7	3.6	8.45e-01	0	22	104	0	60	67083
2026-01-05 05:14:06.53	175.19	1.13	-49.8	-62.0	3.6	8.45e-01	0	22	104	0	60	61841
2026-01-05 05:14:10.57	175.30	1.37	-49.1	-60.8	3.6	8.44e-01	0	23	104	0	60	54207
2026-01-05 05:14:14.62	175.41	1.62	-50.1	-61.9	3.6	8.46e-01	0	23	104	0	60	61332
2026-01-05 05:14:18.66	175.52	1.88	-49.3	-61.2	3.6	8.45e-01	0	23	104	0	60	56681
2026-01-05 05:14:22.70	175.64	2.13	-49.1	-60.9	3.6	8.46e-01	0	23	104	0	60	54748
2026-01-05 05:14:26.74	175.75	2.39	-49.0	-60.5	3.6	8.45e-01	0	23	104	0	60	52426
2026-01-05 05:14:30.79	175.87	2.65	-49.0	-60.7	3.6	8.45e-01	0	23	104	0	60	53653
2026-01-05 05:14:34.83	175.99	2.91	-49.1	-58.3	3.7	8.42e-01	0	23	104	0	60	40722
2026-01-05 05:14:38.87	176.11	3.17	-49.2	-60.8	3.6	8.45e-01	0	23	104	0	60	53888
2026-01-05 05:14:42.92	176.23	3.44	-43.6	-45.2	15.2	0.00e+00	0	23	0	16777216	60	8937
2026-01-05 05:14:46.96	176.36	3.71	-38.3	-39.0	21.0	0.00e+00	0	23	0	46137344	56	5527
2026-01-05 05:14:51.00	176.49	3.98	-39.9	-40.7	18.4	0.00e+00	0	23	0	75497472	56	6769
2026-01-05 05:14:55.05	176.62	4.25	-42.4	-43.5	16.6	0.00e+00	0	23	0	104857600	60	7411
2026-01-05 05:14:59.09	176.75	4.53	-39.7	-40.6	20.4	0.00e+00	0	23	0	134217728	56	6623
2026-01-05 05:15:03.13	176.88	4.81	-38.7	-39.5	20.5	0.00e+00	0	23	0	162529280	54	6606
2026-01-05 05:15:07.18	177.02	5.09	-38.0	-38.7	21.3	0.00e+00	0	23	0	191889408	54	6023
2026-01-05 05:15:11.22	177.16	5.38	-37.9	-38.6	21.8	0.00e+00	0	23	0	221249536	52	6631
2026-01-05 05:15:15.27	177.30	5.66	-37.9	-38.6	21.6	0.00e+00	0	23	0	250609664	54	5910
2026-01-05 05:15:19.31	177.44	5.95	-38.4	-39.1	21.3	0.00e+00	0	23	0	279969792	54	6297
2026-01-05 05:15:23.35	177.59	6.25	-37.0	-37.7	22.8	0.00e+00	0	23	0	308281344	52	5984
2026-01-05 05:15:27.40	177.74	6.55	-36.9	-37.5	23.4	0.00e+00	0	23	0	337641472	52	5892
2026-01-05 05:15:31.44	177.89	6.85	-36.0	-36.6	23.9	0.00e+00	0	23	0	367001600	50	5919
2026-01-05 05:15:35.49	178.05	7.15	-36.1	-36.7	23.8	0.00e+00	0	23	0	396361728	50	6016
2026-01-05 05:15:39.53	178.21	7.46	-35.7	-36.3	24.2	0.00e+00	0	23	0	425721856	50	5700
2026-01-05 05:15:43.57	178.37	7.77	-35.6	-36.2	24.1	0.00e+00	0	23	0	455081984	50	5656
2026-01-05 05:15:47.62	178.53	8.09	-35.5	-36.1	24.3	0.00e+00	0	23	0	483393536	50	5572
2026-01-05 05:15:51.66	178.70	8.41	-35.3	-35.9	24.5	0.00e+00	0	23	0	512753664	50	5443
2026-01-05 05:15:55.71	178.87	8.73	-35.6	-36.1	24.8	0.00e+00	0	23	0	542113792	50	5604
2026-01-05 05:15:59.75	179.05	9.06	-35.3	-35.8	24.8	0.00e+00	0	23	0	571473920	50	5382
2026-01-05 05:16:03.79	179.23	9.39	-34.5	-35.0	25.2	0.00e+00	0	23	0	600834048	48	5561
2026-01-05 05:16:07.84	179.41	9.72	-34.7	-35.2	25.2	0.00e+00	0	23	0	630194176	48	5636
2026-01-05 05:16:11.88	179.59	10.06	-34.5	-35.0	25.3	0.00e+00	0	23	0	659554304	48	5512
2026-01-05 05:16:15.93	179.78	10.41	-34.6	-35.1	25.3	0.00e+00	0	23	0	688914432	46	6265
2026-01-05 05:16:19.97	179.98	10.76	-34.6	-35.1	25.4	0.00e+00	0	23	0	717225984	46	6284
2026-01-05 05:16:24.01	180.18	11.11	-35.0	-35.5	25.2	0.00e+00	0	23	0	746586112	48	5873
2026-01-05 05:16:28.06	180.38	11.47	-34.5	-35.0	25.4	0.00e+00	0	23	0	775946240	48	5530
2026-01-05 05:16:32.10	180.59	11.83	-34.4	-35.0	25.4	0.00e+00	0	23	0	805306368	48	5512
2026-01-05 05:16:36.15	180.80	12.20	-34.3	-34.9	25.5	0.00e+00	0	23	0	834666496	48	5458
2026-01-05 05:16:40.19	181.02	12.57	-34.6	-35.1	25.3	0.00e+00	0	23	0	864026624	48	5601
2026-01-05 05:16:44.24	181.24	12.95	-34.1	-34.7	25.6	0.00e+00	0	23	0	892338176	48	5344
2026-01-05 05:16:48.28	181.47	13.34	-34.0	-34.6	25.7	0.00e+00	0	23	0	921698304	46	5923
2026-01-05 05:16:52.32	181.71	13.73	-33.6	-34.2	26.0	0.00e+00	0	23	0	951058432	46	5639
2026-01-05 05:16:56.37	181.95	14.13	-33.5	-34.0	26.1	0.00e+00	0	23	0	980418560	46	5543
2026-01-05 05:17:00.41	182.19	14.53	-33.6	-34.1	26.1	0.00e+00	0	23	0	1009778688	46	5603
2026-01-05 05:17:04.46	182.45	14.94	-33.3	-33.8	26.4	0.00e+00	0	23	0	1038090240	46	5439
2026-01-05 05:17:08.50	182.71	15.35	-33.3	-33.8	26.4	0.00e+00	0	24	0	1067450368	46	5392
2026-01-05 05:17:12.54	182.97	15.78	-33.4	-33.9	26.3	0.00e+00	0	23	0	1096810496	44	6169
2026-01-05 05:17:16.59	183.25	16.21	-33.3	-33.8	26.7	0.00e+00	0	24	0	1126170624	44	6044
2026-01-05 05:17:20.63	183.53	16.64	-33.7	-34.2	26.7	0.00e+00	0	24	0	1155530752	46	5688
2026-01-05 05:17:24.68	183.82	17.09	-34.1	-34.7	26.0	0.00e+00	0	24	0	1184890880	46	5965
2026-01-05 05:17:28.72	184.12	17.54	-33.4	-33.9	26.6	0.00e+00	0	24	0	1214251008	46	5463
2026-01-05 05:17:32.76	184.42	18.00	-33.4	-33.9	26.7	0.00e+00	0	24	0	1242562560	46	5460
2026-01-05 05:17:36.81	184.74	18.47	-33.8	-34.4	26.1	0.00e+00	0	24	0	1271922688	46	5769
2026-01-05 05:17:40.85	185.06	18.94	-33.7	-34.2	26.4	0.00e+00	0	24	0	1301282816	46	5681
2026-01-05 05:17:44.90	185.40	19.42	-33.2	-33.7	26.7	0.00e+00	0	23	0	1330642944	44	6029
2026-01-05 05:17:48.94	185.74	19.92	-33.4	-33.9	26.7	0.00e+00	0	24	0	1360003072	46	5448
2026-01-05 05:17:52.98	186.10	20.42	-32.6	-33.2	27.4	0.00e+00	0	24	0	1389363200	44	5631
2026-01-05 05:17:57.03	186.46	20.93	-32.4	-32.9	27.4	0.00e+00	0	24	0	1418723328	44	5482
2026-01-05 05:18:01.07	186.84	21.45	-32.1	-32.6	27.5	0.00e+00	0	24	0	1447034880	44	5288
2026-01-05 05:18:05.12	187.24	21.98	-31.9	-32.4	27.6	0.00e+00	0	24	0	1476395008	42	5816
2026-01-05 05:18:09.16	187.64	22.52	-32.1	-32.6	27.4	0.00e+00	0	24	0	1505755136	42	5943
2026-01-05 05:18:13.20	188.06	23.07	-32.0	-32.5	27.6	0.00e+00	0	24	0	1535115264	42	5837
2026-01-05 05:18:17.25	188.49	23.63	-32.0	-32.5	27.6	0.00e+00	0	24	0	1564475392	42	5859
2026-01-05 05:18:21.29	188.94	24.20	-32.0	-32.5	27.6	0.00e+00	0	24	0	1593835520	42	5892
2026-01-05 05:18:25.34	189.40	24.78	-32.3	-32.8	27.4	0.00e+00	0	24	0	1622147072	42	6053
2026-01-05 05:18:29.38	189.88	25.37	-32.2	-32.7	27.7	0.00e+00	0	24	0	1651507200	42	6010
2026-01-05 05:18:33.42	190.38	25.97	-32.1	-32.6	27.6	0.00e+00	0	24	0	1680867328	42	5938
2026-01-05 05:18:37.47	190.90	26.59	-32.1	-32.6	27.6	0.00e+00	0	24	0	1710227456	42	5910
2026-01-05 05:18:41.51	191.44	27.22	-31.5	-32.0	28.0	0.00e+00	0	24	0	1739587584	42	5513
2026-01-05 05:18:45.55	192.00	27.86	-32.1	-32.6	27.7	0.00e+00	0	24	0	1767899136	42	5899
2026-01-05 05:18:49.60	192.58	28.51	-31.3	-31.8	28.2	0.00e+00	0	24	0	1797259264	42	5418
2026-01-05 05:18:53.64	193.18	29.17	-31.4	-31.9	28.3	0.00e+00	0	24	0	1826619392	42	5468
2026-01-05 05:18:57.69	193.81	29.85	-31.0	-31.5	28.5	0.00e+00	0	23	0	1855979520	40	5840
2026-01-05 05:19:01.73	194.47	30.54	-30.8	-31.3	28.5	0.00e+00	0	24	0	1885339648	40	5709
2026-01-05 05:19:05.77	195.15	31.24	-31.1	-31.5	28.4	0.00e+00	0	24	0	1914699776	40	5895
2026-01-05 05:19:09.82	195.87	31.95	-31.6	-32.1	27.9	0.00e+00	0	24	0	1943011328	40	6263
2026-01-05 05:19:13.86	196.61	32.68	-31.5	-32.0	28.0	0.00e+00	0	24	0	1972371456	40	6222
2026-01-05 05:19:17.90	197.39	33.42	-30.8	-31.3	28.3	0.00e+00	0	24	0	2001731584	40	5722
2026-01-05 05:19:21.95	198.21	34.17	-31.4	-31.9	28.1	0.00e+00	0	24	0	2031091712	40	6149
2026-01-05 05:19:25.99	199.06	34.93	-31.6	-32.1	27.8	0.00e+00	0	24	0	2060451840	40	6305
2026-01-05 05:19:30.04	199.95	35.71	-31.3	-31.7	28.2	0.00e+00	0	24	0	2089811968	40	6016
2026-01-05 05:19:34.08	200.89	36.49	-31.2	-31.6	28.3	0.00e+00	0	24	0	2119172096	40	5960
2026-01-05 05:19:38.12	201.87	37.29	-31.1	-31.6	28.3	0.00e+00	0	24	0	2148532224	40	5919
2026-01-05 05:19:42.16	202.89	38.09	-31.3	-31.8	28.2	0.00e+00	0	24	0	2176843776	40	6058
2026-01-05 05:19:46.21	203.98	38.91	-32.2	-32.7	27.7	0.00e+00	0	24	0	2206203904	40	6742
2026-01-05 05:19:50.25	205.11	39.73	-31.8	-32.3	27.8	0.00e+00	0	24	0	2235564032	42	5752
2026-01-05 05:19:54.30	206.31	40.56	-32.0	-32.4	27.8	0.00e+00	0	24	0	2264924160	42	5818
2026-01-05 05:19:58.34	207.56	41.40	-31.6	-32.1	28.0	0.00e+00	0	24	0	2294284288	42	5596
2026-01-05 05:20:02.39	208.88	42.24	-32.2	-32.7	27.6	0.00e+00	0	24	0	2323644416	42	6007
2026-01-05 05:20:06.43	210.27	43.07	-31.8	-32.3	27.9	0.00e+00	0	24	0	2351955968	42	5712
2026-01-05 05:20:10.47	211.74	43.91	-31.9	-32.4	27.8	0.00e+00	0	24	0	2381316096	42	5792
2026-01-05 05:20:14.52	213.28	44.75	-31.5	-31.9	28.0	0.00e+00	0	24	0	2410676224	42	5484
2026-01-05 05:20:18.56	214.90	45.58	-31.7	-32.2	27.9	0.00e+00	0	24	0	2440036352	42	5672
2026-01-05 05:20:22.61	216.62	46.40	-31.9	-32.4	27.7	0.00e+00	0	24	0	2469396480	42	5788
2026-01-05 05:20:26.65	218.41	47.21	-32.1	-32.6	27.6	0.00e+00	0	24	0	2497708032	42	5930
2026-01-05 05:20:30.69	220.30	48.00	-32.0	-32.5	27.7	0.00e+00	0	24	0	2527068160	42	5844
2026-01-05 05:20:34.74	222.30	48.77	-32.0	-32.5	27.6	0.00e+00	0	23	0	2556428288	42	5870
2026-01-05 05:20:38.78	224.38	49.51	-32.4	-32.8	27.3	0.00e+00	0	24	0	2585788416	42	6084
2026-01-05 05:20:42.82	226.57	50.23	-32.9	-33.4	26.7	0.00e+00	0	24	0	2615148544	44	5797
2026-01-05 05:20:46.87	228.87	50.91	-32.3	-32.8	27.3	0.00e+00	0	24	0	2644508672	44	5394
2026-01-05 05:20:50.91	231.26	51.55	-33.1	-33.5	26.9	0.00e+00	0	24	0	2672820224	44	5880
2026-01-05 05:20:54.95	233.75	52.14	-32.8	-33.3	27.1	0.00e+00	0	23	0	2702180352	44	5745
2026-01-05 05:20:59.00	236.34	52.69	-33.5	-34.0	26.5	0.00e+00	0	24	0	2731540480	44	6208
2026-01-05 05:21:03.04	239.02	53.17	-32.9	-33.4	27.3	0.00e+00	0	23	0	2760900608	44	5764
2026-01-05 05:21:07.09	241.79	53.60	-33.7	-34.2	26.4	0.00e+00	0	24	0	2790260736	44	6366
2026-01-05 05:21:11.13	244.63	53.96	-33.5	-33.9	26.6	0.00e+00	0	24	0	2819620864	46	5499
2026-01-05 05:21:15.17	247.54	54.26	-33.9	-34.4	26.6	0.00e+00	0	24	0	2848980992	46	5772
2026-01-05 05:21:19.22	250.50	54.48	-33.2	-33.7	26.9	0.00e+00	0	24	0	2877292544	44	5975
2026-01-05 05:21:23.26	253.49	54.62	-33.6	-34.1	26.5	0.00e+00	0	24	0	2906652672	44	6247
2026-01-05 05:21:27.31	256.52	54.69	-33.8	-34.2	26.5	0.00e+00	0	24	0	2936012800	46	5681
2026-01-05 05:21:31.35	259.54	54.68	-33.1	-33.5	26.8	0.00e+00	0	23	0	2965372928	44	5894
2026-01-05 05:21:35.39	262.55	54.59	-33.5	-34.0	26.3	0.00e+00	0	24	0	2994733056	44	6196
2026-01-05 05:21:39.44	265.54	54.42	-33.0	-33.5	26.8	0.00e+00	0	24	0	3024093184	44	5875
2026-01-05 05:21:43.48	268.48	54.18	-33.1	-33.6	26.6	0.00e+00	0	24	0	3053453312	44	5920
2026-01-05 05:21:47.52	271.36	53.87	-32.8	-33.2	27.1	0.00e+00	0	24	0	3081764864	44	5691
2026-01-05 05:21:51.57	274.19	53.49	-33.2	-33.7	26.7	0.00e+00	0	24	0	3111124992	46	5335
2026-01-05 05:21:55.61	276.93	53.04	-33.7	-34.2	26.5	0.00e+00	0	23	0	3140485120	44	6319
2026-01-05 05:21:59.65	279.58	52.54	-33.3	-33.7	26.9	0.00e+00	0	23	0	3169845248	44	6032
2026-01-05 05:22:03.70	282.14	51.98	-33.5	-34.0	26.8	0.00e+00	0	24	0	3199205376	44	6227
2026-01-05 05:22:07.74	284.60	51.38	-33.7	-34.2	26.1	0.00e+00	0	24	0	3227516928	46	5660
2026-01-05 05:22:11.79	286.97	50.73	-33.4	-33.9	26.8	0.00e+00	0	24	0	3256877056	46	5483
2026-01-05 05:22:15.83	289.22	50.04	-33.0	-33.4	27.1	0.00e+00	0	24	0	3286237184	44	5826
2026-01-05 05:22:19.87	291.38	49.32	-33.3	-33.9	26.7	0.00e+00	0	24	0	3315597312	44	6110
2026-01-05 05:22:23.92	293.44	48.57	-33.5	-34.0	26.9	0.00e+00	0	24	0	3344957440	44	6184
2026-01-05 05:22:27.96	295.39	47.79	-33.6	-34.1	26.9	0.00e+00	0	24	0	3374317568	46	5618
2026-01-05 05:22:32.01	297.26	47.00	-33.5	-34.0	26.9	0.00e+00	0	24	0	3402629120	44	6217
2026-01-05 05:22:36.05	299.03	46.19	-33.2	-33.7	27.3	0.00e+00	0	24	0	3431989248	46	5337
2026-01-05 05:22:40.10	300.71	45.37	-33.3	-33.7	27.8	0.00e+00	0	24	0	3461349376	46	5365
2026-01-05 05:22:44.14	302.31	44.54	-33.3	-33.7	27.7	0.00e+00	0	24	0	3490709504	44	6033
2026-01-05 05:22:48.18	303.82	43.71	-32.5	-33.0	27.8	0.00e+00	0	24	0	3520069632	42	6179
2026-01-05 05:22:52.23	305.27	42.87	-33.0	-33.5	27.8	0.00e+00	0	24	0	3549429760	44	5845
2026-01-05 05:22:56.27	306.64	42.04	-34.3	-34.8	27.5	0.00e+00	0	24	0	3578789888	44	6794
2026-01-05 05:23:00.32	307.94	41.20	-32.7	-33.2	27.9	0.00e+00	0	24	0	3607101440	44	5655
2026-01-05 05:23:04.36	309.17	40.38	-32.0	-32.5	27.6	0.00e+00	0	24	0	3636461568	42	5858
2026-01-05 05:23:08.40	310.35	39.55	-32.7	-33.2	27.6	0.00e+00	0	24	0	3665821696	44	5645
2026-01-05 05:23:12.45	311.47	38.73	-32.7	-33.2	27.8	0.00e+00	0	24	0	3695181824	42	6348
2026-01-05 05:23:16.49	312.53	37.93	-32.1	-32.6	28.1	0.00e+00	0	24	0	3724541952	42	5951
2026-01-05 05:23:20.53	313.54	37.13	-32.0	-32.5	27.8	0.00e+00	0	24	0	3753902080	42	5847
2026-01-05 05:23:24.58	314.51	36.34	-31.8	-32.3	27.9	0.00e+00	0	24	0	3783262208	42	5761
2026-01-05 05:23:28.62	315.43	35.56	-31.7	-32.1	28.0	0.00e+00	0	24	0	3811573760	42	5623
2026-01-05 05:23:32.67	316.32	34.79	-32.1	-32.6	28.2	0.00e+00	0	24	0	3840933888	42	5898
2026-01-05 05:23:36.71	317.16	34.03	-32.4	-32.9	27.7	0.00e+00	0	23	0	3870294016	44	5475
2026-01-05 05:23:40.75	317.96	33.29	-33.0	-33.5	27.5	0.00e+00	0	24	0	3899654144	44	5848
2026-01-05 05:23:44.79	318.73	32.56	-32.1	-32.6	28.0	0.00e+00	0	24	0	3929014272	42	5916
2026-01-05 05:23:48.84	319.47	31.84	-31.4	-31.8	27.9	0.00e+00	0	24	0	3957325824	42	5423
2026-01-05 05:23:52.88	320.17	31.13	-32.0	-32.5	27.9	0.00e+00	0	24	0	3986685952	42	5860
2026-01-05 05:23:56.93	320.85	30.43	-32.6	-33.1	26.7	0.00e+00	0	24	0	4016046080	44	5592
2026-01-05 05:24:00.90	321.49	29.76	-32.9	-33.3	27.2	0.00e+00	0	24	0	4045406208	44	5747
2026-01-05 05:24:04.94	322.11	29.09	-32.8	-33.3	27.5	0.00e+00	0	24	0	4074766336	44	5724
2026-01-05 05:24:08.99	322.71	28.44	-32.3	-32.8	27.6	0.00e+00	0	23	0	4104126464	42	6078
2026-01-05 05:24:13.03	323.28	27.79	-32.6	-33.1	27.9	0.00e+00	0	24	0	4132438016	44	5568
2026-01-05 05:24:17.07	323.84	27.16	-32.4	-32.8	27.8	0.00e+00	0	24	0	4161798144	44	5435
2026-01-05 05:24:21.12	324.37	26.54	-32.3	-32.8	27.8	0.00e+00	0	24	0	4191158272	44	5387
2026-01-05 05:24:25.16	324.88	25.93	-33.0	-33.5	27.0	0.00e+00	0	24	0	4220518400	44	5878
2026-01-05 05:24:29.20	325.38	25.33	-32.7	-33.2	27.6	0.00e+00	0	24	0	4249878528	44	5681
2026-01-05 05:24:33.25	325.86	24.74	-32.6	-33.1	27.3	0.00e+00	0	24	0	4278190080	44	5611
2026-01-05 05:24:37.30	326.32	24.16	-32.3	-32.8	27.3	0.00e+00	0	24	0	4307550208	44	5423
2026-01-05 05:24:41.34	326.76	23.60	-32.4	-32.8	27.4	0.00e+00	0	24	0	4336910336	42	6100
2026-01-05 05:24:45.39	327.19	23.04	-32.7	-33.1	27.7	0.00e+00	0	24	0	4366270464	42	6304
2026-01-05 05:24:49.43	327.61	22.50	-32.1	-32.6	27.4	0.00e+00	0	24	0	4395630592	42	5940
2026-01-05 05:24:53.47	328.01	21.97	-32.6	-33.0	26.9	0.00e+00	0	24	0	4424990720	44	5562
2026-01-05 05:24:57.52	328.40	21.44	-32.5	-33.0	27.2	0.00e+00	0	24	0	4454350848	44	5519
2026-01-05 05:25:01.55	328.78	20.93	-32.4	-32.9	27.2	0.00e+00	0	24	0	4482662400	44	5442
2026-01-05 05:25:05.60	329.14	20.42	-32.7	-33.2	27.0	0.00e+00	0	24	0	4512022528	44	5653
2026-01-05 05:25:09.63	329.50	19.92	-32.7	-33.2	27.0	0.00e+00	0	24	0	4541382656	44	5644
2026-01-05 05:25:13.68	329.84	19.44	-32.7	-33.2	27.1	0.00e+00	0	24	0	4570742784	44	5657
2026-01-05 05:25:17.72	330.17	18.96	-32.5	-32.9	27.0	0.00e+00	0	24	0	4600102912	44	5489
2026-01-05 05:25:21.77	330.50	18.48	-32.6	-33.1	27.0	0.00e+00	0	24	0	4629463040	44	5590
2026-01-05 05:25:25.81	330.81	18.02	-33.0	-33.5	26.7	0.00e+00	0	24	0	4658823168	44	5894
2026-01-05 05:25:29.86	331.12	17.57	-32.9	-33.4	26.8	0.00e+00	0	24	0	4687134720	44	5762
2026-01-05 05:25:33.90	331.42	17.12	-33.3	-33.8	26.4	0.00e+00	0	24	0	4716494848	44	6097
2026-01-05 05:25:37.94	331.71	16.68	-33.3	-33.8	26.5	0.00e+00	0	24	0	4745854976	44	6068
2026-01-05 05:25:41.99	331.99	16.24	-33.8	-34.3	26.2	0.00e+00	0	24	0	4775215104	46	5735
2026-01-05 05:25:46.03	332.26	15.82	-33.7	-34.2	26.2	0.00e+00	0	24	0	4804575232	46	5665
2026-01-05 05:25:50.08	332.53	15.40	-34.2	-34.7	26.1	0.00e+00	0	24	0	4833935360	46	6021
2026-01-05 05:25:54.12	332.79	14.99	-33.9	-34.4	25.9	0.00e+00	0	24	0	4862246912	46	5796
2026-01-05 05:25:58.16	333.04	14.58	-33.7	-34.2	26.0	0.00e+00	0	24	0	4891607040	46	5672
2026-01-05 05:26:02.21	333.29	14.18	-34.1	-34.6	25.9	0.00e+00	0	24	0	4920967168	48	5289
2026-01-05 05:26:06.25	333.53	13.79	-34.6	-35.1	25.7	0.00e+00	0	24	0	4950327296	48	5598
2026-01-05 05:26:10.30	333.77	13.40	-34.6	-35.1	25.5	0.00e+00	0	23	0	4979687424	46	6265
2026-01-05 05:26:14.34	334.00	13.02	-34.4	-34.9	25.4	0.00e+00	0	24	0	5007998976	48	5468
2026-01-05 05:26:18.38	334.22	12.64	-35.5	-36.1	24.6	0.00e+00	0	24	0	5037359104	48	6267
2026-01-05 05:26:22.43	334.44	12.27	-34.7	-35.3	25.0	0.00e+00	0	24	0	5066719232	48	5700
2026-01-05 05:26:26.47	334.66	11.90	-34.6	-35.1	25.2	0.00e+00	0	24	0	5096079360	48	5609
2026-01-05 05:26:30.51	334.87	11.54	-34.8	-35.4	25.0	0.00e+00	0	24	0	5125439488	48	5786
2026-01-05 05:26:34.56	335.07	11.18	-34.8	-35.3	24.8	0.00e+00	0	24	0	5154799616	48	5741
2026-01-05 05:26:38.60	335.27	10.83	-35.0	-35.6	24.6	0.00e+00	0	24	0	5183111168	48	5911
2026-01-05 05:26:42.64	335.47	10.49	-35.3	-35.9	24.3	0.00e+00	0	24	0	5212471296	48	6128
2026-01-05 05:26:46.69	335.66	10.15	-36.2	-36.8	23.8	0.00e+00	0	24	0	5241831424	52	5380
2026-01-05 05:26:50.73	335.85	9.81	-35.6	-36.2	24.4	0.00e+00	0	24	0	5271191552	50	5647
2026-01-05 05:26:54.78	336.03	9.47	-35.6	-36.1	24.3	0.00e+00	0	24	0	5300551680	50	5617
2026-01-05 05:26:58.82	336.21	9.15	-36.0	-36.6	24.0	0.00e+00	0	24	0	5329911808	50	5912
2026-01-05 05:27:02.86	336.39	8.82	-36.3	-36.9	23.8	0.00e+00	0	24	0	5359271936	50	6107
2026-01-05 05:27:06.91	336.56	8.50	-35.8	-36.4	24.0	0.00e+00	0	24	0	5388632064	50	5764
2026-01-05 05:27:10.95	336.73	8.18	-36.1	-36.6	23.7	0.00e+00	0	24	0	5416943616	50	5958
2026-01-05 05:27:15.00	336.90	7.87	-36.2	-36.8	23.6	0.00e+00	0	24	0	5446303744	50	6036
2026-01-05 05:27:19.04	337.06	7.56	-36.2	-36.8	23.3	0.00e+00	0	24	0	5475663872	50	6074
2026-01-05 05:27:23.08	337.23	7.25	-36.4	-37.0	23.3	0.00e+00	0	24	0	5505024000	52	5556
2026-01-05 05:27:27.13	337.38	6.95	-36.7	-37.3	23.0	0.00e+00	0	24	0	5534384128	52	5754
2026-01-05 05:27:31.17	337.54	6.65	-36.3	-36.9	23.2	0.00e+00	0	24	0	5563744256	52	5461
2026-01-05 05:27:35.22	337.69	6.36	-36.2	-36.8	23.1	0.00e+00	0	24	0	5592055808	50	6077
2026-01-05 05:27:39.26	337.84	6.06	-36.4	-37.0	23.0	0.00e+00	0	24	0	5621415936	50	6233
2026-01-05 05:27:43.31	337.99	5.77	-36.9	-37.5	22.6	0.00e+00	0	24	0	5650776064	50	6556
2026-01-05 05:27:47.35	338.13	5.49	-36.6	-37.3	22.4	0.00e+00	0	24	0	5680136192	52	5696
2026-01-05 05:27:51.40	338.27	5.20	-37.9	-38.6	21.1	0.00e+00	0	24	0	5709496320	52	6648
2026-01-05 05:27:55.44	338.41	4.92	-39.1	-39.9	19.6	0.00e+00	0	24	0	5737807872	54	6897
2026-01-05 05:27:59.48	338.55	4.65	-40.0	-41.0	17.8	0.00e+00	0	24	0	5767168000	58	6197
2026-01-05 05:28:03.53	338.69	4.37	-41.6	-43.1	14.6	0.00e+00	0	24	0	5796528128	60	7048
2026-01-05 05:28:07.57	338.82	4.10	-43.8	-46.6	10.4	3.20e-03	0	24	0	5825888256	60	10520
2026-01-05 05:28:11.61	338.95	3.83	-45.0	-49.7	5.9	3.09e-01	0	24	0	5855248384	60	14986
2026-01-05 05:28:15.66	339.08	3.56	-45.7	-54.7	3.8	8.43e-01	0	24	104	5858394112	60	26643
2026-01-05 05:28:19.70	339.21	3.30	-45.7	-56.3	3.6	8.46e-01	0	24	104	5858394112	60	32166
2026-01-05 05:28:23.75	339.33	3.03	-45.9	-57.4	3.6	8.45e-01	0	24	104	5858394112	60	36436
2026-01-05 05:28:27.79	339.46	2.77	-46.2	-57.6	3.6	8.45e-01	0	24	104	5858394112	60	37230
2026-01-05 05:28:31.84	339.58	2.52	-50.2	-62.1	3.6	8.44e-01	0	24	104	5858394112	60	62802
2026-01-05 05:28:35.88	339.70	2.26	-50.9	-62.5	3.6	8.45e-01	0	24	104	5858394112	60	65791
2026-01-05 05:28:39.92	339.81	2.01	-51.0	-62.6	3.6	8.46e-01	0	24	104	5858394112	60	66204
2026-01-05 05:28:43.97	339.93	1.76	-50.8	-62.3	3.6	8.45e-01	0	24	104	5858394112	60	64251
2026-01-05 05:28:48.01	340.05	1.51	-51.6	-63.1	3.5	8.44e-01	0	24	104	5858394112	60	70515
2026-01-05 05:28:52.05	340.16	1.26	-51.6	-63.1	3.6	8.44e-01	0	24	104	5858394112	60	70250
2026-01-05 05:28:56.09	340.27	1.02	-51.3	-62.8	3.6	8.45e-01	0	24	104	5858394112	60	68438
2026-01-05 05:29:00.14	340.38	0.77	-51.6	-63.1	3.6	8.44e-01	0	24	104	5858394112	60	70353
2026-01-05 05:29:04.18	340.49	0.53	-51.8	-63.3	3.6	8.45e-01	0	24	104	5858394112	60	72352
2026-01-05 05:29:08.22	340.60	0.29	-51.9	-63.4	3.6	8.44e-01	0	24	104	5858394112	60	72632
2026-01-05 05:29:12.27	340.70	0.06	-52.9	-64.4	3.6	8.46e-01	0	24	104	5858394112	60	82100

#Closed at: 2026-01-05 05:29:15
#Recorded file [5858 MB]: D:/lorett/data/35034_260105_081350.dat