passes_logs/2026/01/05/R4.6S_Anadyr_2ch/R4.6S_Anadyr_2ch__20260105_161208_SUOMI_NPP_rec.log

#Pass ID: 20260105_161208_SUOMI NPP
#Satellite: SUOMI NPP
#Configuration: NPP
#almurnet v.1.7.20251203
#Start time: 2026-01-05 16:12:10

#Version: 2.2.20231116
#Station: R4.6S_Anadyr_2ch
#Location: 177.4865 lon 64.73178 lat
#TLE: 1 37849U 11061A   25350.92281687  .00000071  00000+0  54882-4 0  9996
#TLE: 2 37849  98.7777 288.2268 0002366 112.8570 247.2856 14.19515404732588

#Time	Az	El	Level	Level2	SNR	BER	BlckErr	Temp	State	Recorded	gain1	gain2
2026-01-05 16:12:10.20	24.74	0.12	-40.0	-41.4	6.4	3.02e+01	25	28	0	0	60	6124
2026-01-05 16:12:14.25	24.60	0.36	-51.2	-66.5	3.6	1.51e+00	0	29	104	0	60	103074
2026-01-05 16:12:18.29	24.47	0.59	-51.0	-66.3	3.6	1.51e+00	0	29	104	0	60	101016
2026-01-05 16:12:22.33	24.33	0.83	-50.4	-65.7	3.6	1.51e+00	0	30	104	0	60	94439
2026-01-05 16:12:26.38	24.19	1.07	-49.8	-65.1	3.6	1.51e+00	0	30	104	0	60	87657
2026-01-05 16:12:30.42	24.05	1.32	-49.8	-65.0	3.6	1.51e+00	0	30	104	0	60	87066
2026-01-05 16:12:34.47	23.90	1.56	-49.8	-65.1	3.6	1.51e+00	0	30	104	0	60	87647
2026-01-05 16:12:38.51	23.75	1.80	-49.8	-65.0	3.6	1.51e+00	0	30	104	0	60	86229
2026-01-05 16:12:42.56	23.60	2.05	-49.8	-64.8	3.6	1.51e+00	0	30	104	0	60	85163
2026-01-05 16:12:46.60	23.45	2.30	-49.8	-65.1	3.5	1.51e+00	0	30	104	0	60	87654
2026-01-05 16:12:50.64	23.29	2.55	-49.8	-64.9	3.6	1.51e+00	0	30	104	0	60	85919
2026-01-05 16:12:54.69	23.13	2.81	-49.7	-64.0	3.6	1.51e+00	0	30	104	0	60	77199
2026-01-05 16:12:58.74	22.97	3.06	-49.7	-64.8	3.6	1.51e+00	0	30	104	0	60	85098
2026-01-05 16:13:02.78	22.80	3.32	-49.1	-56.3	6.7	2.19e-01	0	30	102	1048576	60	31842
2026-01-05 16:13:06.82	22.63	3.58	-49.7	-64.5	3.6	2.94e-02	0	30	104	1048576	60	82075
2026-01-05 16:13:10.87	22.46	3.84	-48.5	-54.5	3.5	0.00e+00	61	30	0	1048576	60	25994
2026-01-05 16:13:14.91	22.29	4.11	-42.8	-44.2	19.9	0.00e+00	0	30	0	1048576	60	7906
2026-01-05 16:13:18.95	22.11	4.37	-42.6	-44.0	20.0	0.00e+00	0	30	0	1048576	60	7722
2026-01-05 16:13:23.00	21.92	4.64	-42.5	-43.9	20.1	0.00e+00	0	30	0	1048576	60	7631
2026-01-05 16:13:27.04	21.74	4.91	-42.7	-44.1	20.0	0.00e+00	34	31	0	1048576	60	7833
2026-01-05 16:13:31.09	21.54	5.19	-42.5	-43.9	20.2	0.00e+00	0	30	101	1048576	60	7625
2026-01-05 16:13:35.13	21.35	5.46	-42.8	-44.3	19.9	0.00e+00	0	30	101	1048576	60	7960
2026-01-05 16:13:39.17	21.15	5.74	-42.8	-44.2	20.0	0.00e+00	20	30	101	1048576	60	7953
2026-01-05 16:13:43.22	20.95	6.03	-42.7	-44.1	20.1	0.00e+00	92	30	101	1048576	60	7850
2026-01-05 16:13:47.26	20.74	6.31	-42.6	-44.0	20.4	0.00e+00	0	30	101	1048576	60	7686
2026-01-05 16:13:51.31	20.53	6.60	-42.5	-43.8	20.5	0.00e+00	0	30	101	1048576	60	7547
2026-01-05 16:13:55.35	20.31	6.89	-42.2	-43.5	20.9	0.00e+00	0	30	101	1048576	60	7293
2026-01-05 16:13:59.39	20.09	7.18	-42.5	-43.8	20.7	0.00e+00	0	31	101	1048576	60	7570
2026-01-05 16:14:03.44	19.87	7.48	-42.2	-43.4	20.9	0.00e+00	0	31	101	1048576	60	7252
2026-01-05 16:14:07.48	19.64	7.77	-42.0	-43.2	21.2	0.00e+00	0	31	101	1048576	60	7058
2026-01-05 16:14:11.53	19.40	8.08	-42.0	-43.2	21.2	0.00e+00	92	31	101	1048576	60	7052
2026-01-05 16:14:15.57	19.16	8.38	-41.8	-43.0	21.3	0.00e+00	0	31	101	1048576	60	6895
2026-01-05 16:14:19.62	18.91	8.69	-42.3	-43.6	20.8	0.00e+00	0	31	101	1048576	60	7344
2026-01-05 16:14:23.66	18.66	9.00	-42.5	-43.8	20.8	0.00e+00	0	31	101	1048576	60	7595
2026-01-05 16:14:27.70	18.40	9.32	-42.5	-43.7	20.8	0.00e+00	91	31	101	1048576	60	7494
2026-01-05 16:14:31.75	18.14	9.63	-42.1	-43.4	21.2	0.00e+00	0	31	101	1048576	60	7173
2026-01-05 16:14:35.79	17.87	9.96	-41.6	-42.7	21.7	0.00e+00	0	31	101	1048576	60	6688
2026-01-05 16:14:39.84	17.59	10.28	-41.5	-42.6	21.8	0.00e+00	47	31	101	1048576	60	6553
2026-01-05 16:14:43.89	17.31	10.61	-41.4	-42.5	21.9	0.00e+00	0	31	101	1048576	60	6492
2026-01-05 16:14:47.93	17.02	10.94	-41.3	-42.4	21.9	0.00e+00	0	31	101	1048576	60	6461
2026-01-05 16:14:51.98	16.72	11.28	-41.2	-42.3	22.1	0.00e+00	0	31	101	1048576	60	6347
2026-01-05 16:14:56.02	16.42	11.62	-41.5	-42.7	21.7	0.00e+00	92	31	101	1048576	60	6653
2026-01-05 16:15:00.07	16.10	11.96	-41.5	-42.6	21.8	0.00e+00	0	31	101	1048576	60	6601
2026-01-05 16:15:04.12	15.78	12.31	-41.4	-42.5	22.1	0.00e+00	0	31	101	1048576	60	6486
2026-01-05 16:15:08.16	15.46	12.67	-41.2	-42.3	22.3	0.00e+00	0	31	101	1048576	60	6331
2026-01-05 16:15:12.20	15.12	13.02	-41.2	-42.3	22.3	0.00e+00	90	31	101	1048576	60	6334
2026-01-05 16:15:16.25	14.78	13.38	-41.2	-42.3	22.3	0.00e+00	0	31	101	1048576	60	6321
2026-01-05 16:15:20.29	14.42	13.75	-41.3	-42.4	22.1	0.00e+00	0	31	101	1048576	60	6420
2026-01-05 16:15:24.34	14.06	14.12	-41.2	-42.3	22.2	0.00e+00	0	31	101	1048576	60	6384
2026-01-05 16:15:28.38	13.69	14.49	-41.0	-42.0	22.5	0.00e+00	0	31	101	1048576	60	6150
2026-01-05 16:15:32.43	13.30	14.87	-41.0	-42.0	22.5	0.00e+00	0	31	101	1048576	60	6160
2026-01-05 16:15:36.47	12.91	15.25	-40.7	-41.7	22.7	0.00e+00	0	31	101	1048576	60	5959
2026-01-05 16:15:40.52	12.51	15.64	-40.6	-41.6	22.8	0.00e+00	91	31	101	1048576	60	5885
2026-01-05 16:15:44.56	12.09	16.03	-40.9	-41.9	22.6	0.00e+00	0	31	101	1048576	60	6077
2026-01-05 16:15:48.60	11.67	16.43	-40.8	-41.8	22.7	0.00e+00	0	31	101	1048576	60	5998
2026-01-05 16:15:52.65	11.23	16.83	-41.0	-42.1	22.4	0.00e+00	0	31	101	1048576	60	6181
2026-01-05 16:15:56.69	10.78	17.24	-41.0	-42.1	22.5	0.00e+00	89	31	101	1048576	60	6197
2026-01-05 16:16:00.74	10.32	17.65	-40.8	-41.8	22.7	0.00e+00	0	31	101	1048576	60	5979
2026-01-05 16:16:04.78	9.84	18.07	-40.7	-41.6	22.8	0.00e+00	0	31	101	1048576	60	5892
2026-01-05 16:16:08.83	9.35	18.49	-41.0	-42.0	22.5	0.00e+00	77	31	101	1048576	60	6160
2026-01-05 16:16:12.87	8.85	18.92	-41.2	-42.2	22.4	0.00e+00	0	31	101	1048576	60	6297
2026-01-05 16:16:16.92	8.33	19.35	-40.5	-41.5	23.0	0.00e+00	0	31	101	1048576	60	5765
2026-01-05 16:16:20.96	7.79	19.78	-40.6	-41.6	22.9	0.00e+00	0	31	101	1048576	60	5847
2026-01-05 16:16:25.01	7.24	20.23	-41.1	-42.2	22.5	0.00e+00	90	31	101	1048576	60	6249
2026-01-05 16:16:29.05	6.67	20.67	-41.2	-42.3	22.3	0.00e+00	0	31	101	1048576	60	6322
2026-01-05 16:16:33.09	6.09	21.12	-40.6	-41.6	23.0	0.00e+00	0	31	101	1048576	60	5834
2026-01-05 16:16:37.14	5.49	21.58	-40.9	-41.9	22.8	0.00e+00	0	31	101	1048576	60	6072
2026-01-05 16:16:41.18	4.87	22.04	-41.9	-43.1	21.8	0.00e+00	92	31	101	1048576	60	6937
2026-01-05 16:16:45.22	4.23	22.51	-42.0	-43.2	22.1	0.00e+00	0	31	101	1048576	60	7047
2026-01-05 16:16:49.27	3.57	22.98	-41.4	-42.5	22.3	0.00e+00	0	31	101	1048576	60	6511
2026-01-05 16:16:53.32	2.89	23.45	-41.4	-42.4	22.3	0.00e+00	54	31	101	1048576	60	6447
2026-01-05 16:16:57.36	2.19	23.93	-41.0	-42.1	22.6	0.00e+00	0	31	101	1048576	60	6180
2026-01-05 16:17:01.41	1.46	24.42	-40.1	-41.0	23.3	0.00e+00	0	31	101	1048576	60	5443
2026-01-05 16:17:05.45	0.72	24.90	-40.3	-41.3	23.2	0.00e+00	25	31	101	1048576	58	6352
2026-01-05 16:17:09.50	359.94	25.40	-40.8	-41.8	22.5	0.00e+00	91	31	101	1048576	58	6734
2026-01-05 16:17:13.54	359.15	25.89	-41.6	-42.7	22.0	0.00e+00	0	31	101	1048576	60	6676
2026-01-05 16:17:17.59	358.33	26.39	-43.2	-44.6	20.4	0.00e+00	0	31	101	1048576	60	8292
2026-01-05 16:17:21.63	357.48	26.88	-42.6	-43.8	21.3	0.00e+00	1	31	101	1048576	60	7553
2026-01-05 16:17:25.67	356.60	27.38	-43.7	-45.2	19.9	0.00e+00	51	31	101	1048576	60	8839
2026-01-05 16:17:29.72	355.70	27.89	-44.2	-45.9	19.3	0.00e+00	0	31	101	1048576	60	9567
2026-01-05 16:17:33.76	354.77	28.39	-42.8	-44.1	21.1	0.00e+00	0	31	101	1048576	60	7792
2026-01-05 16:17:37.81	353.80	28.90	-42.7	-44.0	20.9	0.00e+00	66	31	101	1048576	60	7740
2026-01-05 16:17:41.85	352.81	29.40	-42.4	-43.6	21.3	0.00e+00	0	31	101	1048576	60	7415
2026-01-05 16:17:45.90	351.78	29.90	-41.8	-42.9	22.0	0.00e+00	0	31	101	1048576	60	6806
2026-01-05 16:17:49.94	350.72	30.40	-43.3	-44.7	20.3	0.00e+00	0	31	101	1048576	60	8418
2026-01-05 16:17:53.98	349.63	30.90	-42.4	-43.6	21.3	0.00e+00	92	31	101	1048576	60	7404
2026-01-05 16:17:58.03	348.50	31.39	-42.6	-43.9	21.1	0.00e+00	0	31	101	1048576	60	7617
2026-01-05 16:18:02.08	347.34	31.88	-41.9	-43.0	21.9	0.00e+00	0	31	101	1048576	60	6887
2026-01-05 16:18:06.12	346.14	32.37	-42.9	-44.3	20.9	0.00e+00	38	31	101	1048576	60	7961
2026-01-05 16:18:10.16	344.91	32.84	-43.2	-44.5	20.6	0.00e+00	87	31	101	1048576	60	8179
2026-01-05 16:18:14.21	343.63	33.31	-43.6	-45.0	20.3	0.00e+00	0	31	101	1048576	60	8653
2026-01-05 16:18:18.25	342.33	33.77	-44.9	-46.8	18.9	0.00e+00	0	31	101	1048576	60	10616
2026-01-05 16:18:22.30	340.98	34.22	-44.8	-46.7	18.8	0.00e+00	38	31	101	1048576	60	10494
2026-01-05 16:18:26.34	339.60	34.65	-45.3	-47.2	18.2	0.00e+00	0	31	101	1048576	60	11192
2026-01-05 16:18:30.38	338.18	35.07	-42.9	-44.2	20.9	0.00e+00	0	31	101	1048576	60	7863
2026-01-05 16:18:34.43	336.72	35.48	-44.4	-46.1	18.7	0.00e+00	0	32	101	1048576	60	9802
2026-01-05 16:18:38.47	335.23	35.87	-42.6	-44.0	21.0	0.00e+00	55	31	101	1048576	60	7720
2026-01-05 16:18:42.52	333.70	36.24	-42.6	-43.9	21.3	0.00e+00	0	31	101	1048576	60	7643
2026-01-05 16:18:46.56	332.13	36.59	-40.6	-41.6	22.8	0.00e+00	0	31	101	1048576	60	5862
2026-01-05 16:18:50.61	330.53	36.93	-41.6	-42.7	22.3	0.00e+00	0	31	101	1048576	60	6622
2026-01-05 16:18:54.65	328.91	37.23	-41.1	-42.1	22.4	0.00e+00	76	31	101	1048576	60	6239
2026-01-05 16:18:58.69	327.25	37.52	-39.7	-40.7	23.7	0.00e+00	0	32	101	1048576	58	5920
2026-01-05 16:19:02.74	325.56	37.78	-40.2	-41.1	23.2	0.00e+00	0	31	101	1048576	58	6231
2026-01-05 16:19:06.79	323.84	38.01	-40.7	-41.7	23.0	0.00e+00	31	31	101	1048576	60	5964
2026-01-05 16:19:10.83	322.11	38.21	-38.2	-38.9	24.9	0.00e+00	0	31	101	1048576	54	6099
2026-01-05 16:19:14.87	320.35	38.38	-38.7	-39.5	24.6	0.00e+00	0	31	101	1048576	56	5820
2026-01-05 16:19:18.92	318.58	38.53	-39.7	-40.6	23.8	0.00e+00	0	31	101	1048576	56	6548
2026-01-05 16:19:22.96	316.79	38.64	-39.3	-40.2	24.0	0.00e+00	92	31	101	1048576	56	6261
2026-01-05 16:19:27.01	314.99	38.72	-39.7	-40.5	23.9	0.00e+00	0	31	101	1048576	56	6537
2026-01-05 16:19:31.05	313.18	38.77	-39.5	-40.4	24.0	0.00e+00	0	32	101	1048576	58	5737
2026-01-05 16:19:35.09	311.37	38.78	-40.8	-41.9	22.7	0.00e+00	0	31	101	1048576	58	6775
2026-01-05 16:19:39.14	309.56	38.76	-42.1	-43.3	21.6	0.00e+00	43	31	101	1048576	60	7117
2026-01-05 16:19:43.18	307.76	38.71	-41.1	-42.1	22.6	0.00e+00	0	31	101	1048576	60	6197
2026-01-05 16:19:47.23	305.96	38.63	-42.0	-43.1	21.8	0.00e+00	0	31	101	1048576	60	6996
2026-01-05 16:19:51.27	304.17	38.52	-42.3	-43.5	21.5	0.00e+00	76	32	101	1048576	60	7310
2026-01-05 16:19:55.32	302.39	38.37	-43.2	-44.6	20.4	0.00e+00	0	31	101	1048576	60	8237
2026-01-05 16:19:59.36	300.64	38.20	-43.7	-45.2	19.8	0.00e+00	0	31	101	1048576	60	8824
2026-01-05 16:20:03.41	298.90	37.99	-43.6	-45.0	20.3	0.00e+00	0	32	101	1048576	60	8693
2026-01-05 16:20:07.45	297.18	37.76	-43.2	-44.5	20.7	0.00e+00	89	32	101	1048576	60	8191
2026-01-05 16:20:11.50	295.49	37.50	-46.0	-48.5	17.6	0.00e+00	0	32	101	1048576	60	13033
2026-01-05 16:20:15.54	293.84	37.22	-42.3	-43.6	21.6	0.00e+00	0	32	101	1048576	60	7377
2026-01-05 16:20:19.59	292.20	36.91	-42.1	-43.3	21.6	0.00e+00	0	31	101	1048576	60	7129
2026-01-05 16:20:23.63	290.61	36.58	-39.2	-40.0	24.3	0.00e+00	21	32	101	1048576	56	6160
2026-01-05 16:20:27.67	289.04	36.22	-39.3	-40.1	24.1	0.00e+00	0	31	101	1048576	56	6224
2026-01-05 16:20:31.72	287.51	35.85	-41.0	-42.1	22.7	0.00e+00	0	32	101	1048576	58	6948
2026-01-05 16:20:35.76	286.02	35.46	-40.5	-41.5	23.0	0.00e+00	22	32	101	1048576	60	5768
2026-01-05 16:20:39.81	284.56	35.05	-41.4	-42.6	22.1	0.00e+00	0	32	101	1048576	60	6553
2026-01-05 16:20:43.85	283.14	34.62	-40.5	-41.4	23.0	0.00e+00	0	32	101	1048576	60	5737
2026-01-05 16:20:47.90	281.75	34.19	-40.1	-41.0	23.4	0.00e+00	0	32	101	1048576	60	5470
2026-01-05 16:20:51.94	280.41	33.74	-40.5	-41.4	23.2	0.00e+00	74	32	101	1048576	60	5715
2026-01-05 16:20:55.99	279.10	33.28	-41.0	-42.0	22.7	0.00e+00	0	31	101	1048576	58	6917
2026-01-05 16:21:00.03	277.83	32.81	-41.6	-42.6	22.2	0.00e+00	0	32	101	1048576	60	6611
2026-01-05 16:21:04.07	276.59	32.33	-42.0	-43.2	21.6	0.00e+00	27	32	101	1048576	60	7033
2026-01-05 16:21:08.12	275.39	31.84	-43.0	-44.3	20.8	0.00e+00	0	32	101	1048576	60	7983
2026-01-05 16:21:12.16	274.23	31.35	-43.5	-44.9	20.2	0.00e+00	0	32	101	1048576	60	8587
2026-01-05 16:21:16.21	273.10	30.86	-43.5	-44.9	20.3	0.00e+00	0	32	101	1048576	60	8556
2026-01-05 16:21:20.25	272.00	30.36	-41.7	-42.7	22.1	0.00e+00	27	32	101	1048576	60	6668
2026-01-05 16:21:24.30	270.94	29.86	-39.8	-40.7	23.8	0.00e+00	0	32	101	1048576	58	5916
2026-01-05 16:21:28.34	269.92	29.35	-41.1	-42.1	22.6	0.00e+00	0	32	101	1048576	58	6994
2026-01-05 16:21:32.38	268.92	28.85	-42.2	-43.3	21.6	0.00e+00	0	32	101	1048576	60	7165
2026-01-05 16:21:36.43	267.96	28.34	-41.1	-42.1	22.5	0.00e+00	92	32	101	1048576	60	6208
2026-01-05 16:21:40.48	267.02	27.84	-41.1	-42.1	22.8	0.00e+00	0	32	101	1048576	60	6194
2026-01-05 16:21:44.52	266.12	27.33	-39.7	-40.5	23.9	0.00e+00	0	32	101	1048576	58	5797
2026-01-05 16:21:48.57	265.24	26.83	-40.0	-40.9	23.5	0.00e+00	25	32	101	1048576	58	6087
2026-01-05 16:21:52.61	264.39	26.33	-41.2	-42.2	22.5	0.00e+00	90	32	101	1048576	60	6298
2026-01-05 16:21:56.66	263.57	25.83	-41.0	-42.0	22.7	0.00e+00	0	32	101	1048576	60	6152
2026-01-05 16:22:00.71	262.77	25.34	-40.7	-41.7	23.0	0.00e+00	0	32	101	1048576	60	5920
2026-01-05 16:22:04.75	262.00	24.85	-40.1	-41.1	23.3	0.00e+00	17	32	101	1048576	58	6187
2026-01-05 16:22:08.80	261.25	24.36	-40.4	-41.4	23.1	0.00e+00	0	32	101	1048576	58	6392
2026-01-05 16:22:12.84	260.52	23.87	-40.7	-41.7	22.9	0.00e+00	0	32	101	1048576	58	6659
2026-01-05 16:22:16.89	259.82	23.39	-41.0	-42.0	22.7	0.00e+00	0	32	101	1048576	60	6168
2026-01-05 16:22:20.93	259.14	22.92	-41.8	-42.9	21.9	0.00e+00	92	32	101	1048576	60	6795
2026-01-05 16:22:24.97	258.48	22.44	-42.1	-43.3	21.6	0.00e+00	0	32	101	1048576	60	7105
2026-01-05 16:22:29.02	257.83	21.98	-40.9	-41.9	22.8	0.00e+00	0	32	101	1048576	60	6038
2026-01-05 16:22:33.06	257.21	21.51	-40.3	-41.3	23.3	0.00e+00	23	32	101	1048576	58	6332
2026-01-05 16:22:37.11	256.61	21.06	-41.3	-42.3	22.6	0.00e+00	92	32	101	1048576	60	6349
2026-01-05 16:22:41.15	256.02	20.60	-39.8	-40.7	23.6	0.00e+00	0	32	101	1048576	58	5913
2026-01-05 16:22:45.20	255.46	20.16	-40.0	-40.9	23.5	0.00e+00	0	32	101	1048576	58	6088
2026-01-05 16:22:49.24	254.90	19.71	-41.9	-43.1	21.6	0.00e+00	21	32	101	1048576	60	6944
2026-01-05 16:22:53.28	254.37	19.28	-43.6	-45.0	19.9	0.00e+00	0	32	101	1048576	60	8655
2026-01-05 16:22:57.33	253.85	18.84	-43.2	-44.6	20.5	0.00e+00	0	32	101	1048576	60	8246
2026-01-05 16:23:01.37	253.34	18.42	-41.5	-42.6	22.1	0.00e+00	0	32	101	1048576	60	6573
2026-01-05 16:23:05.42	252.85	17.99	-41.7	-42.8	21.9	0.00e+00	92	32	101	1048576	60	6737
2026-01-05 16:23:09.46	252.37	17.58	-42.3	-43.5	21.3	0.00e+00	11	32	101	1048576	60	7297
2026-01-05 16:23:13.51	251.91	17.16	-40.9	-41.9	22.6	0.00e+00	0	32	101	1048576	60	6079
2026-01-05 16:23:17.55	251.46	16.76	-40.8	-41.7	22.8	0.00e+00	50	32	101	1048576	60	5958
2026-01-05 16:23:21.60	251.02	16.35	-41.4	-42.4	22.3	0.00e+00	92	32	101	1048576	60	6447
2026-01-05 16:23:25.64	250.59	15.95	-41.7	-42.7	22.0	0.00e+00	0	32	101	1048576	60	6680
2026-01-05 16:23:29.68	250.17	15.56	-41.8	-42.9	21.8	0.00e+00	0	32	101	1048576	60	6787
2026-01-05 16:23:33.73	249.77	15.17	-41.9	-43.0	21.7	0.00e+00	5	32	101	1048576	60	6898
2026-01-05 16:23:37.78	249.37	14.79	-41.4	-42.5	22.0	0.00e+00	0	32	101	1048576	60	6468
2026-01-05 16:23:41.82	248.99	14.41	-41.1	-42.1	22.4	0.00e+00	0	32	101	1048576	60	6195
2026-01-05 16:23:45.86	248.61	14.04	-42.2	-43.3	21.4	0.00e+00	0	32	101	1048576	60	7142
2026-01-05 16:23:49.91	248.25	13.67	-43.4	-44.8	20.1	0.00e+00	45	32	101	1048576	60	8445
2026-01-05 16:23:53.95	247.89	13.30	-42.9	-44.3	20.6	0.00e+00	0	32	101	1048576	60	7969
2026-01-05 16:23:58.00	247.55	12.94	-41.9	-43.1	21.6	0.00e+00	0	32	101	1048576	60	6946
2026-01-05 16:24:02.04	247.21	12.58	-41.2	-42.3	22.2	0.00e+00	61	32	101	1048576	60	6322
2026-01-05 16:24:06.11	246.88	12.23	-41.3	-42.4	22.2	0.00e+00	0	32	101	1048576	60	6423
2026-01-05 16:24:10.15	246.55	11.88	-41.4	-42.4	21.9	0.00e+00	6	32	101	1048576	60	6435
2026-01-05 16:24:14.20	246.24	11.53	-41.7	-42.8	21.8	0.00e+00	19	32	101	1048576	60	6714
2026-01-05 16:24:18.24	245.93	11.19	-41.9	-43.0	21.6	0.00e+00	91	32	101	1048576	60	6849
2026-01-05 16:24:22.29	245.63	10.86	-42.4	-43.6	20.9	0.00e+00	0	32	101	1048576	60	7414
2026-01-05 16:24:26.33	245.34	10.52	-42.8	-44.0	20.4	0.00e+00	0	32	101	1048576	60	7760
2026-01-05 16:24:30.37	245.06	10.19	-43.1	-44.4	19.9	0.00e+00	92	32	101	1048576	60	8134
2026-01-05 16:24:34.42	244.78	9.87	-43.6	-45.0	19.6	0.00e+00	0	32	101	1048576	60	8687
2026-01-05 16:24:38.46	244.50	9.55	-44.0	-45.5	19.0	0.00e+00	0	32	101	1048576	60	9227
2026-01-05 16:24:42.51	244.24	9.23	-44.8	-46.7	17.9	0.00e+00	0	32	101	1048576	60	10527
2026-01-05 16:24:46.55	243.98	8.91	-45.5	-47.6	16.9	0.00e+00	92	32	101	1048576	60	11731
2026-01-05 16:24:50.60	243.72	8.60	-45.8	-48.1	16.4	0.00e+00	0	32	101	1048576	60	12420
2026-01-05 16:24:54.64	243.47	8.29	-45.7	-48.1	16.4	0.00e+00	0	32	101	1048576	60	12399
2026-01-05 16:24:58.69	243.23	7.98	-45.3	-47.5	16.9	0.00e+00	15	32	101	1048576	60	11518
2026-01-05 16:25:02.73	242.99	7.68	-45.3	-47.5	16.8	0.00e+00	85	32	101	1048576	60	11593
2026-01-05 16:25:06.77	242.76	7.38	-45.4	-47.6	16.6	0.00e+00	0	32	101	1048576	60	11699
2026-01-05 16:25:10.82	242.53	7.09	-45.9	-48.4	16.0	0.00e+00	0	32	101	1048576	60	12790
2026-01-05 16:25:14.86	242.31	6.79	-46.5	-49.3	15.0	0.00e+00	92	32	101	1048576	60	14193
2026-01-05 16:25:18.91	242.09	6.50	-47.0	-50.4	13.7	6.80e-06	0	32	101	1048576	60	16135
2026-01-05 16:25:22.96	241.87	6.22	-47.5	-51.5	12.5	1.30e-04	0	32	101	1048576	60	18265
2026-01-05 16:25:27.00	241.66	5.93	-48.0	-52.6	11.1	1.25e-03	0	32	101	1048576	60	20859
2026-01-05 16:25:31.04	241.46	5.65	-48.2	-53.5	10.0	7.61e-03	92	32	101	1048576	60	23065
2026-01-05 16:25:35.08	241.26	5.37	-48.4	-54.2	9.2	2.35e-02	0	32	101	1048576	60	25057
2026-01-05 16:25:39.13	241.06	5.09	-48.7	-55.4	7.7	7.17e-02	0	32	101	1048576	60	28632
2026-01-05 16:25:43.17	240.87	4.82	-48.9	-56.6	6.1	2.20e-01	15	32	101	1048576	60	33108
2026-01-05 16:25:47.21	240.68	4.55	-49.0	-57.5	5.2	4.69e-01	86	32	101	1048576	60	36479
2026-01-05 16:25:51.26	240.49	4.28	-49.0	-58.4	4.5	8.15e-01	0	32	101	1048576	60	40388
2026-01-05 16:25:55.30	240.31	4.01	-49.0	-58.9	4.1	1.13e+00	8	32	101	1048576	60	42733
2026-01-05 16:25:59.35	240.13	3.75	-49.0	-60.1	3.8	1.37e+00	0	32	0	1048576	60	49424
2026-01-05 16:26:03.39	239.95	3.48	-48.9	-61.1	3.8	1.45e+00	0	32	0	1048576	60	55358
2026-01-05 16:26:07.44	239.78	3.22	-48.9	-61.8	3.7	1.48e+00	0	32	104	1048576	60	60067
2026-01-05 16:26:11.48	239.61	2.97	-50.9	-66.2	3.6	1.51e+00	0	32	104	1048576	60	99445
2026-01-05 16:26:15.53	239.45	2.71	-51.2	-66.5	3.6	1.51e+00	0	32	104	1048576	60	103294
2026-01-05 16:26:19.57	239.28	2.46	-51.0	-66.5	3.6	1.51e+00	0	32	104	1048576	60	103081
2026-01-05 16:26:23.61	239.12	2.21	-51.0	-66.3	3.6	1.51e+00	0	32	104	1048576	60	100971
2026-01-05 16:26:27.66	238.97	1.96	-51.1	-66.4	3.6	1.51e+00	0	32	104	1048576	60	101496
2026-01-05 16:26:31.70	238.81	1.71	-51.1	-66.4	3.6	1.51e+00	0	32	104	1048576	60	101471
2026-01-05 16:26:35.75	238.66	1.46	-51.1	-66.4	3.6	1.51e+00	0	32	104	1048576	60	101542
2026-01-05 16:26:39.79	238.51	1.22	-51.0	-66.4	3.6	1.51e+00	0	32	104	1048576	60	101640
2026-01-05 16:26:43.84	238.37	0.98	-51.1	-66.4	3.6	1.51e+00	0	32	104	1048576	60	102124
2026-01-05 16:26:47.88	238.22	0.74	-51.1	-66.4	3.6	1.51e+00	0	32	104	1048576	60	101450
2026-01-05 16:26:51.92	238.08	0.50	-51.0	-66.4	3.6	1.51e+00	0	32	104	1048576	60	101532
2026-01-05 16:26:55.96	237.94	0.26	-51.0	-66.4	3.6	1.51e+00	0	32	104	1048576	60	101834
2026-01-05 16:27:00.01	237.81	0.02	-51.0	-66.4	3.6	1.51e+00	0	32	104	1048576	60	101990

#Closed at: 2026-01-05 16:27:03
#Recorded file [1 MB]: D:/lorett/data/35034_260105_191210.dat