passes_logs/2026/01/05/R4.6S_Anadyr_2ch/R4.6S_Anadyr_2ch__20260105_122144_NOAA_21_JPSS-2_rec.log

#Pass ID: 20260105_122144_NOAA 21 (JPSS-2)
#Satellite: NOAA 21 (JPSS-2)
#Configuration: NOAA-21
#almurnet v.1.7.20251203
#Start time: 2026-01-05 12:21:46

#Version: 2.2.20231116
#Station: R4.6S_Anadyr_2ch
#Location: 177.4865 lon 64.73178 lat
#TLE: 1 54234U 22150A   25350.97269056  .00000057  00000+0  47676-4 0  9992
#TLE: 2 54234  98.7466 287.2282 0002043  29.8355 330.2937 14.19525482160692

#Time	Az	El	Level	Level2	SNR	BER	BlckErr	Temp	State	Recorded	gain1	gain2
2026-01-05 12:21:46.07	19.04	0.07	-52.1	-67.2	3.5	1.51e+00	0	19	0	0	60	111721
2026-01-05 12:21:50.12	19.34	0.26	-51.1	-64.1	3.5	1.52e+00	0	20	104	0	60	76310
2026-01-05 12:21:54.16	19.65	0.46	-50.9	-64.0	3.5	1.52e+00	0	21	104	0	60	74993
2026-01-05 12:21:58.20	19.95	0.66	-50.5	-63.5	3.5	1.51e+00	0	21	104	0	60	70475
2026-01-05 12:22:02.25	20.27	0.86	-49.5	-62.5	3.5	1.52e+00	0	21	104	0	60	63063
2026-01-05 12:22:06.29	20.58	1.06	-49.5	-62.5	3.5	1.52e+00	0	21	104	0	60	62883
2026-01-05 12:22:10.34	20.90	1.26	-49.5	-62.4	3.5	1.52e+00	0	21	104	0	60	62694
2026-01-05 12:22:14.38	21.22	1.46	-49.5	-62.4	3.5	1.51e+00	0	21	104	0	60	62727
2026-01-05 12:22:18.43	21.55	1.67	-49.5	-62.4	3.5	1.52e+00	0	21	104	0	60	62496
2026-01-05 12:22:22.47	21.88	1.87	-49.5	-62.4	3.5	1.52e+00	0	21	104	0	60	62570
2026-01-05 12:22:26.51	22.22	2.07	-49.4	-62.4	3.5	1.52e+00	0	21	104	0	60	62264
2026-01-05 12:22:30.56	22.56	2.28	-49.4	-61.4	3.5	1.52e+00	0	21	104	0	60	55550
2026-01-05 12:22:34.60	22.90	2.48	-47.6	-52.1	9.4	1.41e-02	122	22	0	0	60	19083
2026-01-05 12:22:38.65	23.25	2.69	-42.1	-43.6	18.4	0.00e+00	123	21	102	1048576	60	7198
2026-01-05 12:22:42.69	23.61	2.89	-44.6	-46.8	14.9	0.00e+00	121	22	102	1048576	60	10304
2026-01-05 12:22:46.73	23.96	3.10	-45.0	-47.7	5.0	1.25e+00	0	22	104	1048576	60	11451
2026-01-05 12:22:50.77	24.33	3.31	-45.1	-47.5	14.5	2.20e-06	122	21	0	1048576	60	11200
2026-01-05 12:22:54.82	24.70	3.52	-44.3	-46.3	15.7	0.00e+00	122	21	0	1048576	60	9799
2026-01-05 12:22:58.87	25.07	3.73	-43.9	-45.8	16.6	0.00e+00	122	22	0	1048576	60	9183
2026-01-05 12:23:02.91	25.45	3.94	-44.1	-46.0	16.1	0.00e+00	122	22	101	1048576	60	9455
2026-01-05 12:23:06.96	25.83	4.15	-43.1	-44.7	17.3	0.00e+00	122	22	101	1048576	60	8132
2026-01-05 12:23:11.00	26.22	4.36	-41.8	-43.2	18.7	0.00e+00	120	22	101	1048576	60	6853
2026-01-05 12:23:15.05	26.61	4.57	-41.8	-43.2	18.9	0.00e+00	122	22	101	1048576	60	6865
2026-01-05 12:23:19.09	27.01	4.78	-41.5	-42.8	19.4	0.00e+00	123	22	101	1048576	60	6565
2026-01-05 12:23:23.14	27.42	5.00	-40.7	-41.9	20.2	0.00e+00	123	22	101	1048576	60	5909
2026-01-05 12:23:27.18	27.83	5.21	-40.3	-41.5	20.5	0.00e+00	122	22	101	1048576	58	6319
2026-01-05 12:23:31.23	28.25	5.42	-40.6	-41.8	20.3	0.00e+00	122	22	101	1048576	58	6558
2026-01-05 12:23:35.27	28.67	5.64	-40.5	-41.7	20.5	0.00e+00	120	22	101	1048576	58	6432
2026-01-05 12:23:39.31	29.10	5.85	-40.4	-41.6	20.6	0.00e+00	123	22	101	1048576	58	6368
2026-01-05 12:23:43.36	29.53	6.07	-39.9	-41.0	21.2	0.00e+00	123	22	101	1048576	58	5994
2026-01-05 12:23:47.40	29.97	6.28	-39.6	-40.7	21.4	0.00e+00	122	22	101	1048576	58	5777
2026-01-05 12:23:51.45	30.42	6.50	-39.7	-40.8	21.3	0.00e+00	122	22	101	1048576	58	5800
2026-01-05 12:23:55.49	30.87	6.72	-39.8	-40.9	21.2	0.00e+00	122	22	101	1048576	58	5890
2026-01-05 12:23:59.54	31.33	6.93	-39.2	-40.3	21.8	0.00e+00	123	22	101	1048576	56	6141
2026-01-05 12:24:03.84	31.83	7.16	-39.5	-40.6	21.6	0.00e+00	122	22	101	1048576	56	6375
2026-01-05 12:24:07.89	32.30	7.38	-39.7	-40.8	21.6	0.00e+00	123	22	101	1048576	56	6517
2026-01-05 12:24:11.93	32.78	7.60	-39.1	-40.1	22.0	0.00e+00	122	22	101	1048576	56	6051
2026-01-05 12:24:15.98	33.27	7.82	-39.0	-40.0	22.1	0.00e+00	122	22	101	1048576	56	5978
2026-01-05 12:24:20.02	33.76	8.04	-38.8	-39.8	22.3	0.00e+00	122	22	101	1048576	56	5822
2026-01-05 12:24:24.06	34.26	8.25	-38.7	-39.7	22.4	0.00e+00	122	22	101	1048576	56	5786
2026-01-05 12:24:28.11	34.77	8.47	-38.8	-39.9	22.4	0.00e+00	121	22	101	1048576	56	5862
2026-01-05 12:24:32.15	35.29	8.69	-38.9	-39.9	22.3	0.00e+00	123	22	101	1048576	56	5880
2026-01-05 12:24:36.20	35.81	8.91	-38.4	-39.4	22.7	0.00e+00	122	22	101	1048576	56	5532
2026-01-05 12:24:40.24	36.34	9.13	-38.5	-39.5	22.7	0.00e+00	122	22	101	1048576	56	5620
2026-01-05 12:24:44.29	36.88	9.34	-38.5	-39.5	22.6	0.00e+00	120	22	101	1048576	56	5649
2026-01-05 12:24:48.33	37.43	9.56	-38.4	-39.4	22.7	0.00e+00	123	22	101	1048576	56	5553
2026-01-05 12:24:52.37	37.98	9.78	-38.3	-39.3	22.9	0.00e+00	122	22	101	1048576	56	5488
2026-01-05 12:24:56.42	38.54	10.00	-38.0	-39.0	23.0	0.00e+00	123	22	101	1048576	54	5943
2026-01-05 12:25:00.46	39.11	10.21	-37.8	-38.8	23.2	0.00e+00	123	22	101	1048576	54	5819
2026-01-05 12:25:04.50	39.69	10.43	-38.0	-38.9	23.0	0.00e+00	123	22	101	1048576	54	5919
2026-01-05 12:25:08.55	40.28	10.64	-37.9	-38.8	23.2	0.00e+00	122	22	101	1048576	54	5849
2026-01-05 12:25:12.59	40.87	10.86	-37.9	-38.8	23.2	0.00e+00	121	22	101	1048576	54	5850
2026-01-05 12:25:16.64	41.48	11.07	-37.9	-38.9	23.2	0.00e+00	123	22	101	1048576	54	5886
2026-01-05 12:25:20.69	42.09	11.28	-37.8	-38.8	23.3	0.00e+00	120	22	101	1048576	54	5799
2026-01-05 12:25:24.73	42.71	11.49	-37.5	-38.4	23.6	0.00e+00	123	22	101	1048576	54	5586
2026-01-05 12:25:28.77	43.34	11.70	-37.6	-38.6	23.4	0.00e+00	123	22	101	1048576	54	5672
2026-01-05 12:25:32.82	43.98	11.91	-37.5	-38.4	23.6	0.00e+00	122	22	101	1048576	54	5568
2026-01-05 12:25:36.86	44.62	12.12	-37.5	-38.5	23.6	0.00e+00	120	22	101	1048576	54	5597
2026-01-05 12:25:40.91	45.28	12.32	-37.6	-38.6	23.5	0.00e+00	123	22	101	1048576	54	5676
2026-01-05 12:25:44.95	45.94	12.53	-37.4	-38.4	23.7	0.00e+00	123	22	101	1048576	54	5544
2026-01-05 12:25:48.99	46.62	12.73	-37.5	-38.4	23.6	0.00e+00	123	22	101	1048576	54	5560
2026-01-05 12:25:53.04	47.30	12.93	-37.9	-38.9	23.1	0.00e+00	122	22	101	1048576	54	5895
2026-01-05 12:25:57.09	47.99	13.13	-37.8	-38.8	23.2	0.00e+00	122	22	101	1048576	54	5819
2026-01-05 12:26:01.13	48.69	13.33	-37.8	-38.8	23.4	0.00e+00	123	22	101	1048576	54	5807
2026-01-05 12:26:05.17	49.40	13.52	-37.6	-38.5	23.6	0.00e+00	123	22	101	1048576	54	5651
2026-01-05 12:26:09.22	50.12	13.71	-37.5	-38.4	23.6	0.00e+00	123	22	101	1048576	54	5574
2026-01-05 12:26:13.26	50.85	13.90	-37.8	-38.8	23.4	0.00e+00	122	22	101	1048576	54	5835
2026-01-05 12:26:17.31	51.58	14.09	-37.6	-38.5	23.6	0.00e+00	122	22	101	1048576	54	5657
2026-01-05 12:26:21.35	52.33	14.27	-37.5	-38.5	23.6	0.00e+00	122	22	101	1048576	54	5610
2026-01-05 12:26:25.39	53.08	14.45	-37.7	-38.7	23.4	0.00e+00	123	22	101	1048576	54	5740
2026-01-05 12:26:29.44	53.85	14.62	-37.8	-38.7	23.4	0.00e+00	122	22	101	1048576	54	5779
2026-01-05 12:26:33.48	54.62	14.80	-37.5	-38.4	23.7	0.00e+00	122	22	101	1048576	54	5571
2026-01-05 12:26:37.52	55.40	14.97	-37.5	-38.4	23.6	0.00e+00	120	22	101	1048576	54	5549
2026-01-05 12:26:41.57	56.19	15.13	-37.3	-38.3	23.8	0.00e+00	123	22	101	1048576	54	5472
2026-01-05 12:26:45.62	56.99	15.29	-37.9	-38.9	23.6	0.00e+00	120	22	101	1048576	54	5901
2026-01-05 12:26:49.66	57.80	15.45	-37.7	-38.7	23.4	0.00e+00	122	22	101	1048576	54	5744
2026-01-05 12:26:53.70	58.61	15.60	-37.9	-38.8	23.4	0.00e+00	120	22	101	1048576	54	5845
2026-01-05 12:26:57.75	59.43	15.75	-37.2	-38.1	24.0	0.00e+00	122	22	101	1048576	54	5401
2026-01-05 12:27:01.79	60.26	15.89	-36.9	-37.8	24.2	0.00e+00	122	22	101	1048576	52	5830
2026-01-05 12:27:05.84	61.10	16.03	-36.8	-37.7	24.3	0.00e+00	120	22	101	1048576	52	5762
2026-01-05 12:27:09.88	61.95	16.17	-36.9	-37.8	24.2	0.00e+00	122	22	101	1048576	52	5822
2026-01-05 12:27:13.92	62.80	16.30	-37.1	-38.0	24.0	0.00e+00	122	22	101	1048576	52	5987
2026-01-05 12:27:17.97	63.66	16.42	-36.8	-37.7	24.2	0.00e+00	120	22	101	1048576	52	5762
2026-01-05 12:27:22.02	64.53	16.54	-36.8	-37.7	24.2	0.00e+00	123	22	101	1048576	52	5771
2026-01-05 12:27:26.06	65.40	16.65	-36.9	-37.8	24.2	0.00e+00	123	22	101	1048576	52	5806
2026-01-05 12:27:30.11	66.28	16.75	-36.8	-37.7	24.2	0.00e+00	123	22	101	1048576	52	5740
2026-01-05 12:27:34.15	67.17	16.85	-37.0	-37.9	24.1	0.00e+00	122	22	101	1048576	52	5881
2026-01-05 12:27:38.19	68.06	16.95	-36.7	-37.6	24.3	0.00e+00	123	22	101	1048576	52	5678
2026-01-05 12:27:42.24	68.96	17.04	-37.0	-37.9	24.1	0.00e+00	123	22	101	1048576	52	5920
2026-01-05 12:27:46.29	69.86	17.12	-36.9	-37.8	24.2	0.00e+00	122	22	101	1048576	52	5827
2026-01-05 12:27:50.33	70.76	17.19	-37.1	-38.1	24.0	0.00e+00	120	22	101	1048576	52	6024
2026-01-05 12:27:54.37	71.67	17.26	-36.9	-37.8	24.2	0.00e+00	122	22	101	1048576	52	5800
2026-01-05 12:27:58.42	72.59	17.32	-37.0	-37.9	24.2	0.00e+00	123	22	101	1048576	52	5860
2026-01-05 12:28:02.46	73.51	17.37	-37.0	-37.9	24.1	0.00e+00	122	22	101	1048576	52	5925
2026-01-05 12:28:06.51	74.43	17.42	-36.7	-37.6	24.3	0.00e+00	122	22	101	1048576	52	5712
2026-01-05 12:28:10.55	75.35	17.46	-36.8	-37.7	24.3	0.00e+00	123	22	101	1048576	52	5771
2026-01-05 12:28:14.60	76.28	17.49	-37.2	-38.1	24.1	0.00e+00	123	22	101	1048576	52	6029
2026-01-05 12:28:18.64	77.20	17.52	-36.6	-37.5	24.4	0.00e+00	123	22	101	1048576	52	5653
2026-01-05 12:28:22.68	78.13	17.54	-36.7	-37.6	24.3	0.00e+00	122	22	101	1048576	52	5725
2026-01-05 12:28:26.73	79.06	17.55	-36.8	-37.7	24.2	0.00e+00	123	22	101	1048576	52	5785
2026-01-05 12:28:30.77	79.99	17.56	-36.9	-37.8	24.2	0.00e+00	123	22	101	1048576	52	5805
2026-01-05 12:28:34.82	80.93	17.55	-37.1	-38.1	24.0	0.00e+00	123	22	101	1048576	52	5996
2026-01-05 12:28:38.86	81.86	17.54	-37.0	-38.0	24.1	0.00e+00	122	22	101	1048576	52	5928
2026-01-05 12:28:42.91	82.79	17.52	-37.0	-37.9	24.1	0.00e+00	123	22	101	1048576	52	5918
2026-01-05 12:28:46.95	83.71	17.50	-37.0	-38.0	24.1	0.00e+00	122	22	101	1048576	52	5944
2026-01-05 12:28:51.00	84.64	17.47	-36.8	-37.7	24.3	0.00e+00	123	22	101	1048576	52	5785
2026-01-05 12:28:55.04	85.57	17.43	-37.1	-38.0	24.1	0.00e+00	123	22	101	1048576	52	5984
2026-01-05 12:28:59.09	86.49	17.38	-37.0	-38.0	24.0	0.00e+00	122	22	101	1048576	52	5938
2026-01-05 12:29:03.13	87.41	17.33	-36.9	-37.8	24.1	0.00e+00	120	22	101	1048576	52	5814
2026-01-05 12:29:07.17	88.32	17.27	-36.7	-37.6	24.3	0.00e+00	120	23	101	1048576	52	5675
2026-01-05 12:29:11.22	89.24	17.20	-37.2	-38.1	23.9	0.00e+00	122	22	101	1048576	52	6017
2026-01-05 12:29:15.26	90.15	17.13	-36.6	-37.5	24.4	0.00e+00	123	22	101	1048576	52	5620
2026-01-05 12:29:19.31	91.05	17.05	-36.8	-37.7	24.2	0.00e+00	123	22	101	1048576	52	5790
2026-01-05 12:29:23.35	91.95	16.96	-37.0	-37.9	24.1	0.00e+00	122	22	101	1048576	52	5923
2026-01-05 12:29:27.40	92.85	16.87	-36.9	-37.8	24.2	0.00e+00	122	22	101	1048576	52	5857
2026-01-05 12:29:31.44	93.73	16.77	-36.7	-37.6	24.3	0.00e+00	122	22	101	1048576	52	5710
2026-01-05 12:29:35.49	94.62	16.67	-37.0	-37.9	24.2	0.00e+00	120	22	101	1048576	52	5896
2026-01-05 12:29:39.53	95.49	16.56	-36.6	-37.5	24.4	0.00e+00	123	22	101	1048576	52	5655
2026-01-05 12:29:43.57	96.36	16.44	-37.0	-38.0	24.2	0.00e+00	122	23	101	1048576	52	5933
2026-01-05 12:29:47.62	97.23	16.32	-37.3	-38.2	23.9	0.00e+00	123	22	101	1048576	52	6088
2026-01-05 12:29:51.66	98.08	16.19	-36.6	-37.5	24.5	0.00e+00	123	22	101	1048576	52	5633
2026-01-05 12:29:55.71	98.93	16.05	-36.6	-37.5	24.4	0.00e+00	122	22	101	1048576	52	5623
2026-01-05 12:29:59.75	99.78	15.92	-36.7	-37.6	24.2	0.00e+00	120	23	101	1048576	52	5711
2026-01-05 12:30:03.80	100.61	15.77	-36.7	-37.6	24.4	0.00e+00	122	22	101	1048576	52	5708
2026-01-05 12:30:07.84	101.44	15.62	-36.7	-37.6	24.4	0.00e+00	122	22	101	1048576	52	5698
2026-01-05 12:30:11.89	102.26	15.47	-37.1	-38.0	24.0	0.00e+00	122	22	101	1048576	52	5988
2026-01-05 12:30:15.93	103.07	15.31	-37.1	-38.1	23.9	0.00e+00	123	22	101	1048576	52	5997
2026-01-05 12:30:19.97	103.87	15.15	-36.8	-37.7	24.3	0.00e+00	121	22	101	1048576	52	5745
2026-01-05 12:30:24.02	104.66	14.99	-37.1	-38.1	24.0	0.00e+00	122	22	101	1048576	52	6013
2026-01-05 12:30:28.06	105.45	14.82	-37.5	-38.4	23.7	0.00e+00	122	22	101	1048576	52	6245
2026-01-05 12:30:32.11	106.23	14.64	-37.7	-38.6	23.6	0.00e+00	123	22	101	1048576	52	6418
2026-01-05 12:30:36.15	106.99	14.47	-37.3	-38.2	23.7	0.00e+00	122	22	101	1048576	52	6112
2026-01-05 12:30:40.20	107.75	14.29	-37.3	-38.3	23.8	0.00e+00	123	22	101	1048576	52	6142
2026-01-05 12:30:44.24	108.50	14.10	-37.4	-38.4	23.6	0.00e+00	123	22	101	1048576	52	6249
2026-01-05 12:30:48.28	109.24	13.92	-37.6	-38.5	23.6	0.00e+00	123	23	101	1048576	52	6334
2026-01-05 12:30:52.33	109.98	13.73	-37.2	-38.2	23.8	0.00e+00	122	22	101	1048576	52	6078
2026-01-05 12:30:56.37	110.70	13.54	-37.4	-38.3	23.6	0.00e+00	120	22	101	1048576	52	6197
2026-01-05 12:31:00.42	111.41	13.34	-37.7	-38.6	23.4	0.00e+00	122	22	101	1048576	52	6383
2026-01-05 12:31:04.47	112.12	13.14	-37.5	-38.5	23.6	0.00e+00	122	22	101	1048576	52	6280
2026-01-05 12:31:08.51	112.81	12.94	-37.2	-38.2	23.8	0.00e+00	123	22	101	1048576	52	6077
2026-01-05 12:31:12.56	113.50	12.74	-37.5	-38.4	23.5	0.00e+00	120	22	101	1048576	52	6274
2026-01-05 12:31:16.60	114.18	12.54	-38.1	-39.1	23.1	0.00e+00	123	22	101	1048576	52	6788
2026-01-05 12:31:20.64	114.85	12.33	-37.7	-38.7	23.4	0.00e+00	122	22	101	1048576	54	5746
2026-01-05 12:31:24.69	115.51	12.13	-37.4	-38.4	23.6	0.00e+00	123	22	101	1048576	54	5567
2026-01-05 12:31:28.73	116.16	11.92	-37.4	-38.4	23.5	0.00e+00	122	22	101	1048576	54	5539
2026-01-05 12:31:32.77	116.80	11.71	-37.6	-38.5	23.5	0.00e+00	123	22	101	1048576	54	5656
2026-01-05 12:31:36.82	117.43	11.50	-37.6	-38.6	23.3	0.00e+00	122	22	101	1048576	54	5687
2026-01-05 12:31:40.86	118.06	11.28	-37.5	-38.4	23.5	0.00e+00	122	22	101	1048576	54	5585
2026-01-05 12:31:44.91	118.67	11.07	-37.4	-38.4	23.5	0.00e+00	123	22	101	1048576	54	5547
2026-01-05 12:31:48.95	119.28	10.86	-37.7	-38.6	23.3	0.00e+00	123	22	101	1048576	54	5714
2026-01-05 12:31:52.99	119.88	10.64	-37.6	-38.6	23.4	0.00e+00	123	22	101	1048576	54	5692
2026-01-05 12:31:57.04	120.47	10.42	-37.7	-38.7	23.3	0.00e+00	123	23	101	1048576	54	5755
2026-01-05 12:32:01.08	121.05	10.21	-38.1	-39.1	22.9	0.00e+00	123	22	101	1048576	54	6007
2026-01-05 12:32:05.12	121.62	9.99	-38.2	-39.2	22.9	0.00e+00	123	22	101	1048576	54	6073
2026-01-05 12:32:09.17	122.19	9.77	-38.3	-39.3	22.8	0.00e+00	122	23	101	1048576	54	6151
2026-01-05 12:32:13.21	122.74	9.55	-38.8	-39.8	22.4	0.00e+00	123	23	101	1048576	54	6544
2026-01-05 12:32:17.25	123.29	9.33	-38.8	-39.8	22.2	0.00e+00	122	22	101	1048576	54	6556
2026-01-05 12:32:21.30	123.83	9.11	-38.7	-39.8	22.3	0.00e+00	122	22	101	1048576	54	6500
2026-01-05 12:32:25.34	124.37	8.89	-38.4	-39.5	22.5	0.00e+00	122	22	101	1048576	54	6284
2026-01-05 12:32:29.39	124.89	8.67	-38.6	-39.6	22.5	0.00e+00	120	22	101	1048576	54	6404
2026-01-05 12:32:33.43	125.41	8.45	-38.7	-39.7	22.2	0.00e+00	122	23	101	1048576	54	6497
2026-01-05 12:32:37.48	125.92	8.23	-39.1	-40.2	21.9	0.00e+00	120	23	101	1048576	56	6090
2026-01-05 12:32:41.52	126.42	8.01	-38.8	-39.8	22.2	0.00e+00	123	23	101	1048576	56	5847
2026-01-05 12:32:45.56	126.92	7.79	-38.8	-39.9	22.2	0.00e+00	122	23	101	1048576	56	5860
2026-01-05 12:32:49.61	127.41	7.57	-39.0	-40.0	22.0	0.00e+00	123	23	101	1048576	56	5965
2026-01-05 12:32:53.65	127.89	7.35	-39.2	-40.3	21.7	0.00e+00	122	22	101	1048576	56	6176
2026-01-05 12:32:57.70	128.37	7.13	-39.3	-40.4	21.6	0.00e+00	123	23	101	1048576	56	6256
2026-01-05 12:33:01.74	128.83	6.91	-39.0	-40.1	22.0	0.00e+00	123	23	101	1048576	56	6036
2026-01-05 12:33:05.79	129.30	6.69	-39.2	-40.3	21.7	0.00e+00	120	22	101	1048576	56	6188
2026-01-05 12:33:09.83	129.75	6.47	-39.7	-40.9	21.3	0.00e+00	122	23	101	1048576	56	6582
2026-01-05 12:33:13.88	130.20	6.26	-40.1	-41.3	20.9	0.00e+00	120	23	101	1048576	56	6893
2026-01-05 12:33:17.92	130.64	6.04	-40.1	-41.2	20.9	0.00e+00	123	23	101	1048576	56	6854
2026-01-05 12:33:21.97	131.08	5.82	-39.5	-40.6	21.4	0.00e+00	122	23	101	1048576	56	6354
2026-01-05 12:33:26.01	131.51	5.60	-39.6	-40.7	21.3	0.00e+00	123	23	101	1048576	56	6493
2026-01-05 12:33:30.06	131.93	5.39	-39.5	-40.6	21.3	0.00e+00	120	23	101	1048576	56	6395
2026-01-05 12:33:34.10	132.35	5.17	-39.8	-41.0	20.9	0.00e+00	123	23	101	1048576	56	6684
2026-01-05 12:33:38.15	132.76	4.95	-40.0	-41.2	20.7	0.00e+00	122	23	101	1048576	58	6110
2026-01-05 12:33:42.19	133.17	4.74	-39.8	-40.9	21.0	0.00e+00	123	23	101	1048576	58	5903
2026-01-05 12:33:46.24	133.57	4.53	-39.9	-41.1	20.7	0.00e+00	120	23	101	1048576	58	6007
2026-01-05 12:33:50.28	133.96	4.31	-39.9	-41.1	20.7	0.00e+00	123	22	101	1048576	58	6008
2026-01-05 12:33:54.32	134.35	4.10	-40.0	-41.2	20.6	0.00e+00	122	22	101	1048576	58	6106
2026-01-05 12:33:58.37	134.73	3.89	-39.9	-41.0	20.6	0.00e+00	122	22	101	1048576	58	5990
2026-01-05 12:34:02.41	135.11	3.67	-39.9	-41.1	20.6	0.00e+00	123	22	101	1048576	58	5998
2026-01-05 12:34:06.45	135.48	3.46	-40.6	-41.9	19.8	0.00e+00	122	23	101	1048576	58	6621
2026-01-05 12:34:10.50	135.85	3.25	-40.3	-41.6	19.9	0.00e+00	123	22	101	1048576	58	6387
2026-01-05 12:34:14.54	136.22	3.04	-49.9	-63.2	3.5	1.52e+00	0	23	104	1048576	60	68450
2026-01-05 12:34:18.58	136.57	2.83	-50.9	-63.9	3.5	1.52e+00	0	23	104	1048576	60	74446
2026-01-05 12:34:22.63	136.93	2.62	-51.0	-64.0	3.5	1.52e+00	0	23	104	1048576	60	75373
2026-01-05 12:34:26.67	137.28	2.42	-50.9	-64.0	3.5	1.52e+00	0	23	104	1048576	60	74630
2026-01-05 12:34:30.72	137.62	2.21	-50.9	-64.0	3.5	1.52e+00	0	23	104	1048576	60	75011
2026-01-05 12:34:34.76	137.96	2.00	-51.0	-64.0	3.5	1.52e+00	0	23	104	1048576	60	75119
2026-01-05 12:34:38.80	138.30	1.80	-51.0	-64.0	3.5	1.52e+00	0	23	104	1048576	60	75245
2026-01-05 12:34:42.85	138.63	1.59	-51.1	-64.2	3.5	1.52e+00	0	23	104	1048576	60	76362
2026-01-05 12:34:46.89	138.95	1.39	-51.0	-64.1	3.5	1.52e+00	0	23	104	1048576	60	75559
2026-01-05 12:34:50.94	139.28	1.18	-51.1	-64.0	3.5	1.52e+00	0	23	104	1048576	60	75462
2026-01-05 12:34:54.98	139.59	0.98	-51.0	-64.0	3.5	1.52e+00	0	23	104	1048576	60	75252
2026-01-05 12:34:59.02	139.91	0.78	-51.0	-63.9	3.5	1.51e+00	0	23	104	1048576	60	74324
2026-01-05 12:35:03.07	140.22	0.58	-51.0	-63.9	3.5	1.52e+00	0	23	104	1048576	60	73953
2026-01-05 12:35:07.11	140.52	0.38	-50.9	-63.8	3.5	1.52e+00	0	23	104	1048576	60	73473
2026-01-05 12:35:11.16	140.83	0.18	-51.0	-63.9	3.5	1.52e+00	0	23	104	1048576	60	74492
2026-01-05 12:35:15.20	141.13	-0.02	-51.0	-63.9	3.5	1.52e+00	0	23	104	1048576	60	73777

#Closed at: 2026-01-05 12:35:17
#Recorded file [1 MB]: D:/lorett/data/35034_260105_152146.dat