passes_logs/2026/01/05/R4.6S_Anadyr_2ch/R4.6S_Anadyr_2ch__20260105_175201_SUOMI_NPP_rec.log

#Pass ID: 20260105_175201_SUOMI NPP
#Satellite: SUOMI NPP
#Configuration: NPP
#almurnet v.1.7.20251203
#Start time: 2026-01-05 17:52:03

#Version: 2.2.20231116
#Station: R4.6S_Anadyr_2ch
#Location: 177.4865 lon 64.73178 lat
#TLE: 1 37849U 11061A   25350.92281687  .00000071  00000+0  54882-4 0  9996
#TLE: 2 37849  98.7777 288.2268 0002366 112.8570 247.2856 14.19515404732588

#Time	Az	El	Level	Level2	SNR	BER	BlckErr	Temp	State	Recorded	gain1	gain2
2026-01-05 17:52:03.44	34.62	0.11	-51.0	-63.6	3.4	1.52e+00	0	28	0	0	60	71792
2026-01-05 17:52:07.49	34.36	0.32	-51.2	-66.4	3.6	1.51e+00	0	30	104	0	60	101827
2026-01-05 17:52:11.53	34.10	0.53	-51.0	-66.2	3.6	1.51e+00	0	30	104	0	60	99661
2026-01-05 17:52:15.57	33.83	0.74	-50.4	-65.7	3.6	1.51e+00	0	30	104	0	60	93806
2026-01-05 17:52:19.61	33.56	0.95	-49.6	-64.8	3.6	1.51e+00	0	30	104	0	60	85152
2026-01-05 17:52:23.66	33.28	1.17	-49.6	-64.8	3.6	1.51e+00	0	30	104	0	60	84588
2026-01-05 17:52:27.70	33.00	1.38	-49.6	-64.8	3.6	1.51e+00	0	30	104	0	60	84460
2026-01-05 17:52:31.75	32.72	1.60	-49.6	-64.8	3.6	1.51e+00	0	30	104	0	60	84961
2026-01-05 17:52:35.79	32.43	1.81	-49.6	-64.8	3.6	1.51e+00	0	30	104	0	60	84921
2026-01-05 17:52:39.83	32.13	2.03	-49.6	-64.4	3.6	1.51e+00	0	30	104	0	60	81385
2026-01-05 17:52:43.88	31.84	2.25	-49.6	-64.9	3.6	1.51e+00	0	30	104	0	60	85789
2026-01-05 17:52:47.92	31.53	2.47	-49.6	-64.8	3.6	1.51e+00	0	30	104	0	60	85197
2026-01-05 17:52:51.97	31.23	2.69	-49.6	-63.7	3.6	1.51e+00	0	30	104	0	60	74381
2026-01-05 17:52:56.01	30.91	2.91	-49.4	-60.3	4.5	1.50e+00	0	30	104	0	60	50422
2026-01-05 17:53:00.06	30.59	3.14	-49.7	-64.6	3.6	1.51e+00	0	31	104	1048576	60	82349
2026-01-05 17:53:04.10	30.27	3.36	-44.0	-45.9	17.3	5.04e-01	0	30	104	1048576	60	9563
2026-01-05 17:53:08.14	29.94	3.58	-44.1	-46.0	18.0	0.00e+00	0	30	0	1048576	60	9688
2026-01-05 17:53:12.18	29.61	3.81	-44.4	-46.3	17.8	0.00e+00	92	30	0	1048576	60	10073
2026-01-05 17:53:16.23	29.27	4.04	-43.9	-45.6	18.5	0.00e+00	0	30	0	1048576	60	9287
2026-01-05 17:53:20.27	28.93	4.26	-43.7	-45.3	18.8	0.00e+00	0	30	0	1048576	60	8959
2026-01-05 17:53:24.32	28.58	4.49	-43.9	-45.6	18.7	0.00e+00	0	30	101	1048576	60	9281
2026-01-05 17:53:28.36	28.22	4.72	-43.5	-45.1	19.0	0.00e+00	89	30	101	1048576	60	8772
2026-01-05 17:53:32.40	27.86	4.95	-43.3	-44.7	19.4	0.00e+00	0	31	101	1048576	60	8400
2026-01-05 17:53:36.45	27.50	5.18	-43.2	-44.7	19.6	0.00e+00	0	30	101	1048576	60	8334
2026-01-05 17:53:40.49	27.12	5.41	-42.9	-44.2	20.0	0.00e+00	0	30	101	1048576	60	7950
2026-01-05 17:53:44.54	26.74	5.64	-42.9	-44.3	19.9	0.00e+00	22	31	101	1048576	60	8015
2026-01-05 17:53:48.58	26.36	5.88	-43.0	-44.4	20.0	0.00e+00	0	31	101	1048576	60	8054
2026-01-05 17:53:52.63	25.96	6.11	-43.4	-44.9	19.6	0.00e+00	0	30	101	1048576	60	8532
2026-01-05 17:53:56.67	25.56	6.35	-43.4	-44.8	19.4	0.00e+00	85	31	101	1048576	60	8513
2026-01-05 17:54:00.72	25.16	6.58	-43.7	-45.2	19.3	0.00e+00	0	31	101	1048576	60	8892
2026-01-05 17:54:04.76	24.75	6.82	-43.5	-44.9	19.7	0.00e+00	0	31	101	1048576	60	8587
2026-01-05 17:54:08.80	24.33	7.06	-43.0	-44.3	20.1	0.00e+00	0	31	101	1048576	60	7987
2026-01-05 17:54:12.85	23.90	7.30	-43.1	-44.4	19.8	0.00e+00	90	31	101	1048576	60	8131
2026-01-05 17:54:16.89	23.47	7.53	-43.1	-44.5	19.8	0.00e+00	0	31	101	1048576	60	8179
2026-01-05 17:54:20.94	23.02	7.77	-43.2	-44.6	19.8	0.00e+00	0	31	101	1048576	60	8319
2026-01-05 17:54:24.98	22.58	8.01	-43.3	-44.8	19.8	0.00e+00	65	31	101	1048576	60	8425
2026-01-05 17:54:29.02	22.12	8.25	-43.4	-44.9	19.8	0.00e+00	0	31	101	1048576	60	8597
2026-01-05 17:54:33.07	21.65	8.49	-43.3	-44.7	19.8	0.00e+00	0	31	101	1048576	60	8422
2026-01-05 17:54:37.11	21.18	8.74	-43.1	-44.6	20.1	0.00e+00	0	31	101	1048576	60	8246
2026-01-05 17:54:41.16	20.70	8.98	-42.5	-43.8	20.7	0.00e+00	84	31	101	1048576	60	7558
2026-01-05 17:54:45.21	20.21	9.22	-42.6	-43.9	20.7	0.00e+00	0	31	101	1048576	60	7596
2026-01-05 17:54:49.25	19.71	9.46	-42.3	-43.5	21.1	0.00e+00	0	31	101	1048576	60	7314
2026-01-05 17:54:53.29	19.21	9.71	-42.3	-43.5	20.9	0.00e+00	0	31	101	1048576	60	7315
2026-01-05 17:54:57.33	18.70	9.95	-42.8	-44.2	20.5	0.00e+00	70	31	101	1048576	60	7876
2026-01-05 17:55:01.38	18.17	10.19	-42.8	-44.1	20.7	0.00e+00	0	31	101	1048576	60	7808
2026-01-05 17:55:05.43	17.64	10.43	-42.4	-43.7	20.9	0.00e+00	0	31	101	1048576	60	7426
2026-01-05 17:55:09.47	17.10	10.68	-42.2	-43.4	21.2	0.00e+00	73	31	101	1048576	60	7213
2026-01-05 17:55:13.51	16.55	10.92	-42.0	-43.1	21.3	0.00e+00	0	31	101	1048576	60	7007
2026-01-05 17:55:17.56	15.99	11.16	-42.1	-43.3	21.4	0.00e+00	0	31	101	1048576	60	7109
2026-01-05 17:55:21.60	15.42	11.40	-41.9	-43.1	21.4	0.00e+00	0	31	101	1048576	60	6963
2026-01-05 17:55:25.65	14.84	11.65	-42.2	-43.5	21.2	0.00e+00	19	31	101	1048576	60	7260
2026-01-05 17:55:29.69	14.25	11.89	-42.2	-43.4	21.1	0.00e+00	0	31	101	1048576	60	7204
2026-01-05 17:55:33.74	13.65	12.13	-42.0	-43.2	21.5	0.00e+00	0	31	101	1048576	60	7008
2026-01-05 17:55:37.78	13.04	12.37	-42.5	-43.8	20.9	0.00e+00	0	31	101	1048576	60	7532
2026-01-05 17:55:41.83	12.42	12.61	-42.4	-43.6	21.0	0.00e+00	65	31	101	1048576	60	7409
2026-01-05 17:55:45.87	11.79	12.84	-42.7	-44.0	20.8	0.00e+00	0	31	101	1048576	60	7714
2026-01-05 17:55:49.92	11.15	13.08	-42.1	-43.2	21.4	0.00e+00	0	31	101	1048576	60	7070
2026-01-05 17:55:53.96	10.50	13.32	-42.2	-43.4	21.3	0.00e+00	92	31	101	1048576	60	7181
2026-01-05 17:55:58.01	9.84	13.55	-42.1	-43.2	21.5	0.00e+00	0	31	101	1048576	60	7057
2026-01-05 17:56:02.05	9.16	13.78	-42.6	-43.9	20.7	0.00e+00	0	31	101	1048576	60	7663
2026-01-05 17:56:06.10	8.48	14.01	-42.5	-43.8	20.7	0.00e+00	0	31	101	1048576	60	7563
2026-01-05 17:56:10.14	7.79	14.24	-41.6	-42.8	21.7	0.00e+00	88	31	101	1048576	60	6701
2026-01-05 17:56:14.19	7.08	14.47	-41.1	-42.2	22.4	0.00e+00	0	31	101	1048576	60	6247
2026-01-05 17:56:18.23	6.37	14.69	-40.7	-41.8	22.6	0.00e+00	0	31	101	1048576	60	5977
2026-01-05 17:56:22.27	5.64	14.91	-40.7	-41.7	22.7	0.00e+00	0	31	101	1048576	60	5928
2026-01-05 17:56:26.31	4.90	15.13	-40.4	-41.3	23.0	0.00e+00	92	31	101	1048576	60	5686
2026-01-05 17:56:30.36	4.16	15.35	-40.5	-41.5	22.9	0.00e+00	0	31	101	1048576	60	5791
2026-01-05 17:56:34.40	3.40	15.56	-41.0	-42.1	22.4	0.00e+00	0	31	101	1048576	60	6186
2026-01-05 17:56:38.45	2.63	15.77	-41.3	-42.4	22.2	0.00e+00	73	31	101	1048576	60	6454
2026-01-05 17:56:42.49	1.84	15.97	-39.8	-40.7	23.6	0.00e+00	0	31	101	1048576	58	5939
2026-01-05 17:56:46.54	1.05	16.17	-39.5	-40.4	23.8	0.00e+00	0	31	101	1048576	58	5727
2026-01-05 17:56:50.58	0.25	16.37	-39.8	-40.8	23.0	0.00e+00	0	31	101	1048576	58	5982
2026-01-05 17:56:54.62	359.44	16.56	-40.1	-41.0	23.3	0.00e+00	88	31	101	1048576	58	6144
2026-01-05 17:56:58.67	358.61	16.75	-40.0	-40.9	23.3	0.00e+00	0	31	101	1048576	58	6084
2026-01-05 17:57:02.71	357.78	16.94	-39.9	-40.9	23.4	0.00e+00	0	31	101	1048576	58	6053
2026-01-05 17:57:06.76	356.93	17.12	-39.0	-39.9	24.2	0.00e+00	0	31	101	1048576	56	6047
2026-01-05 17:57:10.80	356.08	17.29	-39.2	-40.1	24.0	0.00e+00	92	31	101	1048576	56	6201
2026-01-05 17:57:14.84	355.21	17.46	-39.4	-40.3	23.9	0.00e+00	0	31	101	1048576	56	6349
2026-01-05 17:57:18.89	354.34	17.62	-40.2	-41.2	23.3	0.00e+00	0	31	101	1048576	58	6260
2026-01-05 17:57:22.93	353.46	17.78	-39.8	-40.8	23.5	0.00e+00	1	31	101	1048576	58	5971
2026-01-05 17:57:26.97	352.56	17.93	-39.6	-40.6	23.7	0.00e+00	0	31	101	1048576	58	5837
2026-01-05 17:57:31.02	351.66	18.07	-38.8	-39.7	24.3	0.00e+00	0	31	101	1048576	56	5910
2026-01-05 17:57:35.06	350.75	18.21	-39.0	-39.9	24.2	0.00e+00	0	31	101	1048576	56	6052
2026-01-05 17:57:39.11	349.83	18.34	-38.8	-39.6	24.3	0.00e+00	92	31	101	1048576	56	5874
2026-01-05 17:57:43.15	348.91	18.47	-39.7	-40.6	23.8	0.00e+00	0	31	101	1048576	56	6554
2026-01-05 17:57:47.20	347.97	18.58	-39.8	-40.7	23.6	0.00e+00	0	31	101	1048576	56	6640
2026-01-05 17:57:51.24	347.03	18.69	-40.4	-41.4	22.7	0.00e+00	0	31	101	1048576	58	6428
2026-01-05 17:57:55.29	346.08	18.79	-40.5	-41.5	22.9	0.00e+00	92	31	101	1048576	58	6472
2026-01-05 17:57:59.33	345.13	18.89	-40.3	-41.2	23.2	0.00e+00	0	31	101	1048576	58	6299
2026-01-05 17:58:03.38	344.17	18.97	-39.7	-40.6	23.6	0.00e+00	0	31	101	1048576	58	5879
2026-01-05 17:58:07.42	343.20	19.05	-40.6	-41.6	22.8	0.00e+00	0	31	101	1048576	58	6594
2026-01-05 17:58:11.46	342.24	19.12	-40.7	-41.7	23.0	0.00e+00	0	31	101	1048576	58	6622
2026-01-05 17:58:15.51	341.26	19.18	-42.4	-43.7	21.3	0.00e+00	0	31	101	1048576	60	7478
2026-01-05 17:58:19.55	340.28	19.23	-41.5	-42.6	22.1	0.00e+00	0	31	101	1048576	60	6540
2026-01-05 17:58:23.60	339.30	19.28	-40.7	-41.7	22.8	0.00e+00	89	31	101	1048576	60	5927
2026-01-05 17:58:27.64	338.32	19.31	-41.0	-42.0	22.6	0.00e+00	0	31	101	1048576	60	6134
2026-01-05 17:58:31.69	337.33	19.34	-39.9	-40.8	23.5	0.00e+00	0	31	101	1048576	58	5977
2026-01-05 17:58:35.73	336.35	19.36	-40.3	-41.3	23.0	0.00e+00	0	31	101	1048576	58	6336
2026-01-05 17:58:39.77	335.36	19.36	-40.7	-41.7	22.9	0.00e+00	92	31	101	1048576	58	6681
2026-01-05 17:58:43.81	334.37	19.36	-40.1	-41.1	23.4	0.00e+00	0	31	101	1048576	58	6184
2026-01-05 17:58:47.86	333.39	19.35	-40.5	-41.5	22.9	0.00e+00	0	31	101	1048576	58	6504
2026-01-05 17:58:51.90	332.40	19.34	-41.1	-42.1	22.5	0.00e+00	3	31	101	1048576	58	6982
2026-01-05 17:58:55.95	331.41	19.31	-41.7	-42.8	21.8	0.00e+00	0	31	101	1048576	60	6739
2026-01-05 17:58:59.99	330.43	19.27	-40.6	-41.6	22.9	0.00e+00	0	31	101	1048576	60	5831
2026-01-05 17:59:04.04	329.45	19.23	-39.4	-40.3	23.9	0.00e+00	0	31	101	1048576	58	5632
2026-01-05 17:59:08.08	328.47	19.18	-39.3	-40.1	23.9	0.00e+00	62	31	101	1048576	58	5554
2026-01-05 17:59:12.13	327.50	19.11	-39.2	-40.1	24.1	0.00e+00	31	31	101	1048576	56	6189
2026-01-05 17:59:16.17	326.53	19.04	-39.4	-40.3	23.7	0.00e+00	0	31	101	1048576	56	6336
2026-01-05 17:59:20.21	325.57	18.97	-38.6	-39.4	24.5	0.00e+00	5	31	101	1048576	56	5711
2026-01-05 17:59:24.25	324.61	18.88	-39.1	-40.0	24.1	0.00e+00	84	31	101	1048576	56	6123
2026-01-05 17:59:28.30	323.65	18.78	-39.5	-40.3	23.9	0.00e+00	0	31	101	1048576	56	6376
2026-01-05 17:59:32.34	322.70	18.68	-39.7	-40.6	23.7	0.00e+00	0	31	101	1048576	56	6580
2026-01-05 17:59:36.39	321.76	18.57	-39.6	-40.5	23.6	0.00e+00	0	31	101	1048576	56	6516
2026-01-05 17:59:40.43	320.83	18.45	-40.7	-41.7	22.7	0.00e+00	0	31	101	1048576	58	6675
2026-01-05 17:59:44.47	319.90	18.33	-41.3	-42.3	22.4	0.00e+00	0	31	101	1048576	60	6372
2026-01-05 17:59:48.52	318.98	18.20	-41.1	-42.2	22.5	0.00e+00	0	31	101	1048576	60	6267
2026-01-05 17:59:52.56	318.07	18.06	-41.2	-42.2	22.4	0.00e+00	85	31	101	1048576	60	6292
2026-01-05 17:59:56.61	317.17	17.91	-41.8	-42.9	21.9	0.00e+00	0	31	101	1048576	60	6791
2026-01-05 18:00:00.65	316.28	17.76	-41.6	-42.7	22.1	0.00e+00	0	31	101	1048576	60	6643
2026-01-05 18:00:04.69	315.40	17.61	-41.0	-42.0	22.7	0.00e+00	0	31	101	1048576	60	6114
2026-01-05 18:00:08.74	314.52	17.44	-40.7	-41.7	22.9	0.00e+00	56	31	101	1048576	60	5913
2026-01-05 18:00:12.78	313.66	17.27	-40.3	-41.2	23.1	0.00e+00	0	31	101	1048576	60	5629
2026-01-05 18:00:16.83	312.80	17.10	-39.6	-40.4	23.5	0.00e+00	0	31	101	1048576	58	5754
2026-01-05 18:00:20.87	311.96	16.92	-39.8	-40.7	23.5	0.00e+00	4	31	101	1048576	58	5946
2026-01-05 18:00:24.92	311.12	16.73	-40.5	-41.5	23.0	0.00e+00	0	31	101	1048576	58	6475
2026-01-05 18:00:28.96	310.30	16.54	-41.5	-42.5	22.2	0.00e+00	0	31	101	1048576	60	6511
2026-01-05 18:00:33.01	309.48	16.35	-41.4	-42.5	22.3	0.00e+00	0	31	101	1048576	60	6492
2026-01-05 18:00:37.05	308.68	16.15	-41.8	-42.9	21.8	0.00e+00	62	31	101	1048576	60	6833
2026-01-05 18:00:41.10	307.89	15.95	-42.0	-43.1	21.8	0.00e+00	0	31	101	1048576	60	6928
2026-01-05 18:00:45.14	307.11	15.74	-40.7	-41.6	23.0	0.00e+00	0	31	101	1048576	60	5880
2026-01-05 18:00:49.19	306.33	15.53	-40.5	-41.4	23.1	0.00e+00	31	31	101	1048576	60	5754
2026-01-05 18:00:53.23	305.57	15.32	-41.1	-42.2	22.5	0.00e+00	90	31	101	1048576	60	6247
2026-01-05 18:00:57.28	304.83	15.10	-41.1	-42.1	22.5	0.00e+00	0	31	101	1048576	60	6197
2026-01-05 18:01:01.32	304.09	14.89	-40.7	-41.7	22.9	0.00e+00	0	31	101	1048576	60	5911
2026-01-05 18:01:05.36	303.36	14.66	-41.5	-42.6	22.2	0.00e+00	0	31	101	1048576	60	6541
2026-01-05 18:01:09.41	302.65	14.44	-43.0	-44.3	20.6	0.00e+00	0	31	101	1048576	60	7960
2026-01-05 18:01:13.45	301.94	14.21	-42.9	-44.2	20.8	0.00e+00	0	31	101	1048576	60	7899
2026-01-05 18:01:17.50	301.25	13.98	-42.3	-43.4	21.3	0.00e+00	0	31	101	1048576	60	7235
2026-01-05 18:01:21.54	300.56	13.75	-42.1	-43.2	21.5	0.00e+00	70	31	101	1048576	60	7087
2026-01-05 18:01:25.59	299.89	13.52	-41.8	-42.9	21.9	0.00e+00	0	31	101	1048576	60	6830
2026-01-05 18:01:29.63	299.23	13.29	-42.4	-43.6	21.2	0.00e+00	0	31	101	1048576	60	7408
2026-01-05 18:01:33.67	298.58	13.05	-41.7	-42.8	21.8	0.00e+00	0	31	101	1048576	60	6745
2026-01-05 18:01:37.72	297.94	12.81	-41.4	-42.4	22.3	0.00e+00	89	31	101	1048576	60	6429
2026-01-05 18:01:41.77	297.31	12.58	-41.7	-42.7	21.9	0.00e+00	0	31	101	1048576	60	6681
2026-01-05 18:01:45.81	296.69	12.34	-41.7	-42.8	21.6	0.00e+00	0	31	101	1048576	60	6735
2026-01-05 18:01:49.86	296.08	12.10	-41.7	-42.8	21.8	0.00e+00	65	31	101	1048576	60	6749
2026-01-05 18:01:53.90	295.48	11.86	-41.3	-42.4	22.2	0.00e+00	0	31	101	1048576	60	6407
2026-01-05 18:01:57.95	294.89	11.61	-40.4	-41.4	23.1	0.00e+00	0	31	101	1048576	60	5724
2026-01-05 18:02:01.99	294.31	11.37	-39.6	-40.4	23.6	0.00e+00	0	31	101	1048576	58	5752
2026-01-05 18:02:06.03	293.74	11.13	-39.8	-40.7	23.4	0.00e+00	57	31	101	1048576	58	5938
2026-01-05 18:02:10.08	293.18	10.89	-40.7	-41.7	22.6	0.00e+00	0	31	101	1048576	58	6643
2026-01-05 18:02:14.12	292.62	10.64	-40.3	-41.2	23.0	0.00e+00	32	31	101	1048576	58	6312
2026-01-05 18:02:18.17	292.08	10.40	-39.8	-40.7	23.3	0.00e+00	0	31	101	1048576	58	5928
2026-01-05 18:02:22.21	291.55	10.16	-39.9	-40.8	23.3	0.00e+00	91	31	101	1048576	58	6015
2026-01-05 18:02:26.25	291.03	9.91	-40.2	-41.1	23.0	0.00e+00	0	31	101	1048576	58	6216
2026-01-05 18:02:30.30	290.51	9.67	-41.0	-42.0	22.0	0.00e+00	0	31	101	1048576	58	6866
2026-01-05 18:02:34.34	290.00	9.43	-41.3	-42.3	22.1	0.00e+00	0	31	101	1048576	60	6379
2026-01-05 18:02:38.39	289.50	9.19	-41.4	-42.5	22.0	0.00e+00	0	31	101	1048576	60	6484
2026-01-05 18:02:42.43	289.02	8.94	-41.2	-42.2	22.1	0.00e+00	0	31	101	1048576	60	6306
2026-01-05 18:02:46.47	288.53	8.70	-40.4	-41.4	22.9	0.00e+00	0	31	101	1048576	60	5698
2026-01-05 18:02:50.52	288.06	8.46	-41.0	-42.0	22.2	0.00e+00	84	31	101	1048576	60	6135
2026-01-05 18:02:54.56	287.60	8.22	-41.8	-43.0	21.5	0.00e+00	0	31	101	1048576	60	6871
2026-01-05 18:02:58.61	287.14	7.98	-41.6	-42.7	21.6	0.00e+00	0	31	101	1048576	60	6671
2026-01-05 18:03:02.65	286.69	7.74	-41.1	-42.2	22.2	0.00e+00	0	31	101	1048576	60	6256
2026-01-05 18:03:06.70	286.24	7.50	-41.1	-42.2	22.1	0.00e+00	78	31	101	1048576	60	6272
2026-01-05 18:03:10.74	285.81	7.26	-41.9	-43.0	21.4	0.00e+00	0	31	101	1048576	60	6901
2026-01-05 18:03:14.79	285.38	7.02	-42.0	-43.2	21.2	0.00e+00	0	31	101	1048576	60	7016
2026-01-05 18:03:18.83	284.96	6.78	-42.5	-43.7	20.7	0.00e+00	2	31	101	1048576	60	7483
2026-01-05 18:03:22.88	284.55	6.55	-42.3	-43.5	20.9	0.00e+00	0	31	101	1048576	60	7293
2026-01-05 18:03:26.92	284.14	6.31	-42.2	-43.4	21.0	0.00e+00	0	31	101	1048576	60	7191
2026-01-05 18:03:30.96	283.74	6.08	-42.2	-43.5	20.8	0.00e+00	0	31	101	1048576	60	7266
2026-01-05 18:03:35.01	283.35	5.84	-43.3	-44.7	19.7	0.00e+00	75	31	101	1048576	60	8389
2026-01-05 18:03:39.05	282.96	5.61	-43.9	-45.5	18.9	0.00e+00	0	31	101	1048576	60	9150
2026-01-05 18:03:43.10	282.58	5.37	-43.4	-44.9	19.5	0.00e+00	0	31	101	1048576	60	8536
2026-01-05 18:03:47.14	282.21	5.14	-42.8	-44.2	20.1	0.00e+00	0	31	101	1048576	60	7914
2026-01-05 18:03:51.19	281.84	4.91	-42.7	-44.1	20.1	0.00e+00	90	31	101	1048576	60	7799
2026-01-05 18:03:55.23	281.47	4.68	-42.8	-44.1	20.1	0.00e+00	0	31	101	1048576	60	7858
2026-01-05 18:03:59.28	281.12	4.45	-42.8	-44.2	19.9	0.00e+00	0	31	101	1048576	60	7937
2026-01-05 18:04:03.32	280.77	4.22	-43.0	-44.4	19.8	0.00e+00	10	31	101	1048576	60	8053
2026-01-05 18:04:07.36	280.42	4.00	-43.2	-44.7	19.4	0.00e+00	0	31	101	1048576	60	8339
2026-01-05 18:04:11.41	280.08	3.77	-42.8	-44.2	19.8	0.00e+00	0	31	101	1048576	60	7920
2026-01-05 18:04:15.45	279.75	3.55	-42.7	-44.1	19.6	0.00e+00	0	31	101	1048576	60	7827
2026-01-05 18:04:19.49	279.42	3.32	-43.0	-44.5	19.4	0.00e+00	75	31	101	1048576	60	8203
2026-01-05 18:04:23.54	279.09	3.10	-43.5	-45.1	18.8	0.00e+00	0	31	101	1048576	60	8757
2026-01-05 18:04:27.58	278.78	2.88	-51.1	-66.3	3.6	1.51e+00	0	31	104	1048576	60	101147
2026-01-05 18:04:31.62	278.46	2.65	-51.2	-66.5	3.6	1.51e+00	0	31	104	1048576	60	102776
2026-01-05 18:04:35.66	278.15	2.43	-51.0	-66.4	3.6	1.51e+00	0	31	104	1048576	60	101726
2026-01-05 18:04:39.71	277.85	2.21	-51.1	-66.3	3.6	1.51e+00	0	31	104	1048576	60	100826
2026-01-05 18:04:43.75	277.55	1.99	-51.1	-66.4	3.5	1.51e+00	0	31	104	1048576	60	102063
2026-01-05 18:04:47.80	277.25	1.78	-51.1	-66.4	3.6	1.51e+00	0	31	104	1048576	60	101317
2026-01-05 18:04:51.84	276.96	1.56	-51.1	-66.3	3.6	1.51e+00	0	31	104	1048576	60	101209
2026-01-05 18:04:55.89	276.68	1.34	-51.1	-66.3	3.6	1.51e+00	0	31	104	1048576	60	100954
2026-01-05 18:04:59.93	276.39	1.13	-51.1	-66.3	3.6	1.51e+00	0	31	104	1048576	60	100808
2026-01-05 18:05:03.97	276.12	0.91	-51.1	-66.3	3.6	1.51e+00	0	31	104	1048576	60	101106
2026-01-05 18:05:08.02	275.84	0.70	-51.1	-66.3	3.6	1.51e+00	0	31	104	1048576	60	101097
2026-01-05 18:05:12.06	275.57	0.49	-51.1	-66.3	3.6	1.51e+00	0	31	104	1048576	60	101010
2026-01-05 18:05:16.11	275.31	0.28	-51.1	-66.3	3.6	1.51e+00	0	31	104	1048576	60	100867
2026-01-05 18:05:20.15	275.05	0.07	-51.1	-66.3	3.6	1.51e+00	0	31	104	1048576	60	100709

#Closed at: 2026-01-05 18:05:23
#Recorded file [1 MB]: D:/lorett/data/35034_260105_205203.dat