passes_logs/2026/01/05/R4.6S_Anadyr_2ch/R4.6S_Anadyr_2ch__20260105_024939_NOAA_20_JPSS-1_rec.log

#Pass ID: 20260105_024939_NOAA 20 (JPSS-1)
#Satellite: NOAA 20 (JPSS-1)
#Configuration: NOAA 20
#almurnet v.1.7.20251203
#Start time: 2026-01-05 02:49:41

#Version: 2.2.20231116
#Station: R4.6S_Anadyr_2ch
#Location: 177.4865 lon 64.73178 lat
#TLE: 1 43013U 17073A   25350.93759711  .00000080  00000+0  58734-4 0  9994
#TLE: 2 43013  98.7603 287.1885 0002156  81.1496 278.9924 14.19526878418610

#Time	Az	El	Level	Level2	SNR	BER	BlckErr	Temp	State	Recorded	gain1	gain2
2026-01-05 02:49:41.35	225.55	0.08	-51.9	-67.0	3.5	1.51e+00	0	23	0	0	60	109015
2026-01-05 02:49:45.39	225.87	0.27	-52.0	-67.5	3.6	1.51e+00	0	25	104	0	60	115066
2026-01-05 02:49:49.44	226.20	0.46	-50.9	-66.7	3.6	1.51e+00	0	25	104	0	60	105381
2026-01-05 02:49:53.48	226.54	0.66	-51.1	-66.4	3.6	1.51e+00	0	25	104	0	60	102238
2026-01-05 02:49:57.53	226.88	0.85	-48.6	-64.0	3.6	1.51e+00	0	25	104	0	60	77027
2026-01-05 02:50:01.57	227.22	1.04	-48.6	-64.0	3.6	1.51e+00	0	25	104	0	60	77652
2026-01-05 02:50:05.61	227.57	1.23	-48.6	-64.0	3.6	1.51e+00	0	25	104	0	60	77043
2026-01-05 02:50:09.66	227.92	1.43	-48.7	-64.1	3.6	1.51e+00	0	25	104	0	60	77908
2026-01-05 02:50:13.71	228.28	1.62	-48.6	-63.9	3.6	1.51e+00	0	25	104	0	60	76527
2026-01-05 02:50:17.75	228.64	1.82	-48.5	-63.9	3.6	1.51e+00	0	25	104	0	60	75999
2026-01-05 02:50:21.79	229.00	2.01	-48.6	-63.9	3.6	1.51e+00	0	25	104	0	60	76527
2026-01-05 02:50:25.84	229.37	2.21	-48.6	-63.9	3.6	1.51e+00	0	25	104	0	60	76332
2026-01-05 02:50:29.88	229.75	2.40	-48.9	-64.1	3.6	1.51e+00	0	25	104	0	60	78073
2026-01-05 02:50:33.92	230.13	2.60	-49.0	-64.0	3.5	1.51e+00	0	25	104	0	60	77167
2026-01-05 02:50:37.97	230.51	2.79	-48.5	-62.5	3.6	1.51e+00	0	25	104	0	60	65023
2026-01-05 02:50:42.01	230.90	2.99	-48.6	-61.6	3.8	1.49e+00	0	25	104	0	60	58551
2026-01-05 02:50:46.05	231.29	3.19	-48.9	-64.2	3.6	1.51e+00	0	25	104	0	60	78718
2026-01-05 02:50:50.10	231.69	3.39	-48.9	-61.5	3.9	1.49e+00	0	25	104	0	60	58186
2026-01-05 02:50:54.14	232.10	3.58	-48.9	-61.8	3.7	1.49e+00	0	25	104	0	60	60049
2026-01-05 02:50:58.19	232.51	3.78	-49.0	-61.7	3.8	1.49e+00	0	25	104	0	60	59272
2026-01-05 02:51:02.23	232.92	3.98	-49.2	-61.9	3.8	1.49e+00	0	25	104	0	60	60455
2026-01-05 02:51:06.28	233.34	4.18	-49.2	-61.9	3.8	1.48e+00	0	25	104	0	60	60598
2026-01-05 02:51:10.32	233.77	4.38	-49.4	-61.3	3.8	1.45e+00	0	25	0	0	60	56935
2026-01-05 02:51:14.36	234.20	4.58	-49.5	-62.0	3.6	1.43e+00	0	25	104	0	60	61199
2026-01-05 02:51:18.40	234.63	4.77	-49.6	-61.9	3.9	1.44e+00	0	25	104	0	60	61029
2026-01-05 02:51:22.45	235.08	4.97	-49.9	-61.7	4.0	1.46e+00	0	25	104	0	60	59209
2026-01-05 02:51:26.49	235.53	5.17	-49.7	-59.7	4.1	1.13e+00	92	25	0	5242880	60	47188
2026-01-05 02:51:30.53	235.98	5.37	-49.6	-59.3	4.3	8.73e-01	0	25	0	12582912	60	44808
2026-01-05 02:51:34.58	236.44	5.57	-49.6	-58.5	4.8	6.95e-01	92	26	0	19922944	60	40989
2026-01-05 02:51:38.62	236.91	5.77	-49.4	-57.4	5.9	3.63e-01	92	26	0	28311552	60	36098
2026-01-05 02:51:42.67	237.38	5.97	-49.3	-56.5	6.9	1.63e-01	92	26	0	35651584	60	32773
2026-01-05 02:51:46.71	237.86	6.17	-49.1	-55.7	7.8	8.28e-02	92	26	0	42991616	60	29724
2026-01-05 02:51:50.75	238.34	6.37	-48.7	-54.4	9.4	2.01e-02	92	26	0	50331648	60	25626
2026-01-05 02:51:54.80	238.84	6.57	-48.3	-53.2	10.9	3.45e-03	92	26	0	57671680	60	22166
2026-01-05 02:51:58.84	239.33	6.77	-47.9	-52.1	12.1	3.17e-04	92	26	0	66060288	60	19635
2026-01-05 02:52:02.89	239.84	6.96	-47.6	-51.3	13.2	3.66e-05	92	26	0	73400320	60	17939
2026-01-05 02:52:06.93	240.35	7.16	-47.0	-50.1	14.4	7.00e-07	92	26	0	80740352	60	15599
2026-01-05 02:52:10.98	240.87	7.36	-46.4	-49.1	15.5	0.00e+00	92	26	0	88080384	60	13933
2026-01-05 02:52:15.02	241.39	7.56	-46.0	-48.4	16.1	0.00e+00	0	26	0	96468992	60	12831
2026-01-05 02:52:19.06	241.92	7.75	-45.5	-47.8	16.8	0.00e+00	92	26	0	103809024	60	11924
2026-01-05 02:52:23.11	242.46	7.95	-45.2	-47.2	17.7	0.00e+00	92	26	0	111149056	60	11140
2026-01-05 02:52:27.15	243.01	8.14	-45.0	-46.8	18.6	0.00e+00	92	26	0	118489088	60	10667
2026-01-05 02:52:31.19	243.56	8.34	-44.2	-45.8	19.0	0.00e+00	0	26	0	126877696	60	9549
2026-01-05 02:52:35.24	244.12	8.53	-43.2	-44.6	20.2	0.00e+00	92	26	0	134217728	60	8273
2026-01-05 02:52:39.28	244.69	8.72	-42.9	-44.2	20.9	0.00e+00	92	26	0	141557760	60	7900
2026-01-05 02:52:43.33	245.26	8.92	-42.7	-43.9	21.3	0.00e+00	54	26	0	148897792	60	7672
2026-01-05 02:52:47.37	245.84	9.11	-41.9	-42.9	22.1	0.00e+00	90	26	0	157286400	60	6842
2026-01-05 02:52:51.42	246.43	9.30	-41.4	-42.5	22.4	0.00e+00	92	26	0	164626432	60	6483
2026-01-05 02:52:55.46	247.03	9.48	-41.3	-42.3	22.8	0.00e+00	92	26	0	171966464	60	6347
2026-01-05 02:52:59.50	247.63	9.67	-41.8	-42.9	22.3	0.00e+00	0	26	0	179306496	60	6792
2026-01-05 02:53:03.55	248.24	9.86	-41.2	-42.3	22.7	0.00e+00	92	26	0	186646528	60	6328
2026-01-05 02:53:07.59	248.86	10.04	-41.7	-42.7	22.7	0.00e+00	92	26	0	195035136	60	6648
2026-01-05 02:53:11.64	249.49	10.22	-41.5	-42.5	23.0	0.00e+00	92	26	0	202375168	60	6484
2026-01-05 02:53:15.68	250.12	10.40	-41.1	-42.1	23.0	0.00e+00	3	26	0	209715200	60	6198
2026-01-05 02:53:19.73	250.76	10.58	-41.3	-42.3	22.9	0.00e+00	92	25	0	217055232	60	6333
2026-01-05 02:53:23.77	251.41	10.76	-41.0	-42.0	23.0	0.00e+00	92	26	0	225443840	60	6148
2026-01-05 02:53:27.82	252.07	10.94	-41.2	-42.1	23.1	0.00e+00	92	26	0	232783872	60	6245
2026-01-05 02:53:31.86	252.73	11.11	-41.1	-42.0	23.1	0.00e+00	56	26	0	240123904	60	6160
2026-01-05 02:53:35.91	253.40	11.28	-41.7	-42.7	22.7	0.00e+00	92	25	0	247463936	60	6667
2026-01-05 02:53:39.95	254.08	11.45	-41.8	-42.9	22.4	0.00e+00	92	25	0	255852544	60	6812
2026-01-05 02:53:43.99	254.77	11.61	-41.8	-42.8	22.7	0.00e+00	92	26	0	263192576	60	6745
2026-01-05 02:53:48.04	255.46	11.78	-43.0	-44.1	22.1	0.00e+00	18	26	0	270532608	60	7782
2026-01-05 02:53:52.08	256.16	11.94	-42.6	-43.8	21.6	0.00e+00	92	26	0	277872640	60	7558
2026-01-05 02:53:56.13	256.87	12.10	-42.9	-44.1	21.7	0.00e+00	92	26	0	285212672	60	7799
2026-01-05 02:54:00.11	257.58	12.25	-42.3	-43.4	21.9	0.00e+00	92	25	0	293601280	60	7210
2026-01-05 02:54:04.15	258.30	12.40	-43.1	-44.4	21.0	0.00e+00	92	26	0	300941312	60	8085
2026-01-05 02:54:08.20	259.03	12.55	-42.7	-43.9	21.6	0.00e+00	92	26	0	308281344	60	7622
2026-01-05 02:54:12.24	259.77	12.69	-42.9	-44.1	21.4	0.00e+00	92	25	0	315621376	60	7792
2026-01-05 02:54:16.29	260.51	12.84	-42.3	-43.5	21.8	0.00e+00	23	25	0	324009984	60	7256
2026-01-05 02:54:20.33	261.26	12.97	-42.9	-44.2	21.2	0.00e+00	92	26	0	331350016	60	7881
2026-01-05 02:54:24.37	262.02	13.11	-43.0	-44.2	21.2	0.00e+00	90	25	0	338690048	60	7874
2026-01-05 02:54:28.42	262.79	13.24	-42.9	-44.0	21.5	0.00e+00	92	25	0	346030080	60	7756
2026-01-05 02:54:32.46	263.56	13.36	-43.7	-45.0	20.6	0.00e+00	5	25	0	354418688	60	8659
2026-01-05 02:54:36.51	264.33	13.49	-42.8	-43.9	21.5	0.00e+00	90	25	0	361758720	60	7674
2026-01-05 02:54:40.55	265.12	13.61	-42.7	-43.9	21.6	0.00e+00	92	25	0	369098752	60	7636
2026-01-05 02:54:44.60	265.91	13.72	-42.3	-43.4	22.1	0.00e+00	92	25	0	376438784	60	7243
2026-01-05 02:54:48.64	266.70	13.83	-41.9	-43.0	22.8	0.00e+00	2	25	0	383778816	60	6852
2026-01-05 02:54:52.68	267.50	13.93	-41.7	-42.7	22.8	0.00e+00	92	26	0	392167424	60	6675
2026-01-05 02:54:56.73	268.31	14.03	-41.6	-42.6	22.8	0.00e+00	92	25	0	399507456	60	6602
2026-01-05 02:55:00.77	269.12	14.13	-41.4	-42.4	23.1	0.00e+00	90	25	0	406847488	60	6400
2026-01-05 02:55:04.81	269.93	14.22	-41.4	-42.4	23.0	0.00e+00	0	25	0	414187520	60	6407
2026-01-05 02:55:08.86	270.75	14.30	-41.9	-42.9	22.3	0.00e+00	92	25	0	422576128	60	6808
2026-01-05 02:55:12.90	271.58	14.38	-42.4	-43.6	21.8	0.00e+00	92	25	0	429916160	60	7349
2026-01-05 02:55:16.95	272.41	14.46	-42.3	-43.4	21.9	0.00e+00	90	25	0	437256192	60	7207
2026-01-05 02:55:20.99	273.24	14.53	-42.3	-43.4	22.0	0.00e+00	92	25	0	444596224	60	7199
2026-01-05 02:55:25.04	274.08	14.59	-42.4	-43.5	21.9	0.00e+00	92	25	0	452984832	60	7256
2026-01-05 02:55:29.08	274.92	14.65	-42.4	-43.5	22.1	0.00e+00	92	25	0	460324864	60	7295
2026-01-05 02:55:33.12	275.76	14.70	-42.0	-43.1	22.0	0.00e+00	21	25	0	467664896	60	6941
2026-01-05 02:55:37.16	276.60	14.75	-42.0	-43.1	22.4	0.00e+00	92	25	0	475004928	60	6971
2026-01-05 02:55:41.21	277.45	14.79	-41.9	-43.0	22.3	0.00e+00	92	25	0	483393536	60	6857
2026-01-05 02:55:45.25	278.30	14.82	-42.1	-43.2	22.2	0.00e+00	92	25	0	490733568	60	7049
2026-01-05 02:55:49.30	279.15	14.85	-41.6	-42.7	22.6	0.00e+00	0	25	0	498073600	60	6620
2026-01-05 02:55:53.34	280.00	14.88	-41.5	-42.5	22.6	0.00e+00	92	25	0	505413632	60	6499
2026-01-05 02:55:57.39	280.86	14.89	-41.8	-42.9	22.3	0.00e+00	92	25	0	512753664	60	6785
2026-01-05 02:56:01.43	281.71	14.91	-41.9	-43.0	22.5	0.00e+00	66	25	0	521142272	60	6868
2026-01-05 02:56:05.47	282.56	14.91	-41.3	-42.3	23.0	0.00e+00	4	25	0	528482304	60	6331
2026-01-05 02:56:09.52	283.42	14.91	-41.2	-42.2	23.0	0.00e+00	92	25	0	535822336	60	6255
2026-01-05 02:56:13.56	284.27	14.91	-41.3	-42.4	23.0	0.00e+00	92	25	0	543162368	60	6392
2026-01-05 02:56:17.61	285.13	14.89	-40.6	-41.6	23.5	0.00e+00	6	25	0	551550976	60	5842
2026-01-05 02:56:21.65	285.98	14.88	-41.1	-42.1	23.3	0.00e+00	0	26	0	558891008	60	6200
2026-01-05 02:56:25.70	286.84	14.85	-40.8	-41.7	23.5	0.00e+00	90	25	0	566231040	60	5952
2026-01-05 02:56:29.74	287.68	14.82	-41.1	-42.0	23.4	0.00e+00	92	25	0	573571072	60	6144
2026-01-05 02:56:33.79	288.53	14.79	-41.3	-42.2	22.7	0.00e+00	55	25	0	580911104	60	6311
2026-01-05 02:56:37.83	289.38	14.75	-41.0	-42.0	23.4	0.00e+00	77	25	0	589299712	60	6114
2026-01-05 02:56:41.87	290.22	14.70	-41.6	-42.5	23.1	0.00e+00	92	25	0	596639744	60	6529
2026-01-05 02:56:45.92	291.07	14.65	-41.3	-42.3	23.2	0.00e+00	92	25	0	603979776	60	6369
2026-01-05 02:56:49.97	291.90	14.59	-40.8	-41.7	23.5	0.00e+00	66	25	0	611319808	60	5921
2026-01-05 02:56:54.01	292.74	14.53	-41.4	-42.3	23.3	0.00e+00	92	25	0	619708416	60	6381
2026-01-05 02:56:58.05	293.57	14.46	-41.2	-42.1	23.6	0.00e+00	92	25	0	627048448	60	6214
2026-01-05 02:57:02.10	294.40	14.39	-40.9	-41.8	23.6	0.00e+00	0	25	0	634388480	60	5992
2026-01-05 02:57:06.14	295.22	14.31	-41.1	-42.0	23.3	0.00e+00	0	25	0	641728512	60	6159
2026-01-05 02:57:10.18	296.04	14.22	-41.0	-42.0	23.5	0.00e+00	92	25	0	650117120	60	6127
2026-01-05 02:57:14.23	296.85	14.13	-40.7	-41.6	23.9	0.00e+00	92	25	0	657457152	60	5884
2026-01-05 02:57:18.27	297.66	14.04	-40.3	-41.2	24.0	0.00e+00	25	25	0	664797184	58	6263
2026-01-05 02:57:22.32	298.46	13.94	-41.1	-42.0	23.6	0.00e+00	0	26	0	672137216	58	6899
2026-01-05 02:57:26.36	299.26	13.84	-40.7	-41.6	23.7	0.00e+00	91	26	0	680525824	58	6603
2026-01-05 02:57:30.41	300.05	13.73	-40.4	-41.3	24.0	0.00e+00	30	25	0	687865856	58	6350
2026-01-05 02:57:34.45	300.84	13.61	-40.4	-41.3	24.3	0.00e+00	0	25	0	695205888	60	5660
2026-01-05 02:57:38.50	301.62	13.50	-40.7	-41.6	24.2	0.00e+00	42	25	0	702545920	60	5844
2026-01-05 02:57:42.54	302.40	13.38	-40.9	-41.8	23.9	0.00e+00	91	25	0	709885952	60	5989
2026-01-05 02:57:46.58	303.16	13.25	-40.7	-41.6	23.6	0.00e+00	60	25	0	718274560	60	5864
2026-01-05 02:57:50.63	303.93	13.12	-40.4	-41.3	23.7	0.00e+00	0	25	0	725614592	60	5653
2026-01-05 02:57:54.67	304.68	12.99	-40.7	-41.6	23.7	0.00e+00	90	25	0	732954624	60	5840
2026-01-05 02:57:58.72	305.43	12.85	-40.9	-41.9	23.6	0.00e+00	92	25	0	740294656	60	6043
2026-01-05 02:58:02.76	306.17	12.71	-42.0	-42.9	23.3	0.00e+00	56	25	0	748683264	60	6844
2026-01-05 02:58:06.81	306.91	12.57	-42.6	-43.7	22.7	0.00e+00	0	25	0	756023296	60	7436
2026-01-05 02:58:10.85	307.63	12.42	-42.8	-43.8	22.9	0.00e+00	92	25	0	763363328	60	7514
2026-01-05 02:58:14.90	308.35	12.27	-42.9	-43.9	22.4	0.00e+00	92	25	0	770703360	60	7648
2026-01-05 02:58:18.94	309.07	12.11	-42.8	-43.9	22.5	0.00e+00	5	25	0	779091968	60	7625
2026-01-05 02:58:22.99	309.77	11.96	-43.2	-44.3	22.1	0.00e+00	58	25	0	786432000	60	8004
2026-01-05 02:58:27.03	310.47	11.80	-44.1	-45.4	21.0	0.00e+00	92	25	0	793772032	60	9059
2026-01-05 02:58:31.07	311.16	11.64	-44.2	-45.5	20.5	0.00e+00	92	25	0	801112064	60	9228
2026-01-05 02:58:35.12	311.85	11.47	-44.3	-45.7	19.8	0.00e+00	0	25	0	808452096	60	9414
2026-01-05 02:58:39.16	312.52	11.30	-43.9	-45.3	20.4	0.00e+00	77	25	0	816840704	60	8952
2026-01-05 02:58:43.21	313.19	11.14	-43.4	-44.6	21.2	0.00e+00	92	25	0	824180736	60	8291
2026-01-05 02:58:47.25	313.85	10.96	-43.5	-44.7	21.0	0.00e+00	28	26	0	831520768	60	8369
2026-01-05 02:58:51.30	314.51	10.79	-44.0	-45.4	20.6	0.00e+00	0	25	0	838860800	60	9031
2026-01-05 02:58:55.34	315.15	10.61	-43.7	-45.0	20.2	0.00e+00	91	25	0	847249408	60	8712
2026-01-05 02:58:59.38	315.79	10.44	-43.9	-45.3	20.4	0.00e+00	0	25	0	854589440	60	8934
2026-01-05 02:59:03.43	316.42	10.26	-43.5	-44.7	20.7	0.00e+00	5	25	0	861929472	60	8410
2026-01-05 02:59:07.47	317.04	10.08	-43.6	-44.9	20.8	0.00e+00	0	25	0	869269504	60	8578
2026-01-05 02:59:11.52	317.66	9.90	-43.2	-44.3	21.5	0.00e+00	92	25	0	877658112	60	8041
2026-01-05 02:59:15.56	318.27	9.71	-42.9	-44.1	21.2	0.00e+00	6	25	0	884998144	60	7834
2026-01-05 02:59:19.60	318.87	9.53	-43.0	-44.2	21.3	0.00e+00	64	25	0	892338176	60	7877
2026-01-05 02:59:23.65	319.46	9.34	-43.5	-44.8	21.2	0.00e+00	6	25	0	899678208	60	8436
2026-01-05 02:59:27.69	320.05	9.15	-43.1	-44.4	21.0	0.00e+00	92	25	0	907018240	60	8098
2026-01-05 02:59:31.74	320.63	8.96	-43.2	-44.5	20.9	0.00e+00	58	25	0	915406848	60	8150
2026-01-05 02:59:35.78	321.20	8.77	-41.9	-43.0	21.9	0.00e+00	58	25	0	922746880	60	6879
2026-01-05 02:59:39.83	321.77	8.58	-42.2	-43.3	22.4	0.00e+00	0	25	0	930086912	60	7090
2026-01-05 02:59:43.87	322.33	8.39	-43.3	-44.4	21.8	0.00e+00	92	25	0	937426944	60	8076
2026-01-05 02:59:47.92	322.88	8.20	-42.1	-43.2	21.9	0.00e+00	23	25	0	945815552	60	7009
2026-01-05 02:59:51.96	323.42	8.01	-42.7	-43.8	22.0	0.00e+00	59	25	0	953155584	60	7549
2026-01-05 02:59:56.00	323.96	7.81	-42.5	-43.6	21.8	0.00e+00	0	25	0	960495616	60	7418
2026-01-05 03:00:00.05	324.49	7.62	-42.3	-43.4	21.6	0.00e+00	92	25	0	967835648	60	7248
2026-01-05 03:00:04.09	325.01	7.42	-43.1	-44.2	21.8	0.00e+00	0	25	0	976224256	60	7945
2026-01-05 03:00:08.14	325.53	7.23	-43.4	-44.6	21.9	0.00e+00	23	25	0	983564288	60	8236
2026-01-05 03:00:12.18	326.04	7.03	-43.5	-44.7	21.5	0.00e+00	90	25	0	990904320	60	8350
2026-01-05 03:00:16.22	326.54	6.84	-42.1	-43.2	22.0	0.00e+00	0	25	0	998244352	60	7039
2026-01-05 03:00:20.27	327.04	6.64	-42.3	-43.4	21.7	0.00e+00	19	25	0	1006632960	60	7233
2026-01-05 03:00:24.31	327.53	6.44	-42.8	-44.0	21.3	0.00e+00	20	25	0	1013972992	60	7721
2026-01-05 03:00:28.36	328.01	6.25	-42.9	-44.1	21.0	0.00e+00	92	25	0	1021313024	60	7835
2026-01-05 03:00:32.40	328.49	6.05	-43.4	-44.6	21.0	0.00e+00	5	25	0	1028653056	60	8286
2026-01-05 03:00:36.45	328.96	5.85	-42.7	-43.9	20.8	0.00e+00	3	25	0	1035993088	60	7627
2026-01-05 03:00:40.49	329.43	5.65	-43.5	-44.9	20.0	0.00e+00	2	25	0	1044381696	60	8586
2026-01-05 03:00:44.54	329.89	5.46	-43.0	-44.4	20.2	0.00e+00	92	25	0	1051721728	60	8124
2026-01-05 03:00:48.58	330.34	5.26	-43.2	-44.6	20.1	0.00e+00	65	25	0	1059061760	60	8300
2026-01-05 03:00:52.62	330.79	5.06	-43.5	-45.1	19.4	0.00e+00	2	25	0	1066401792	60	8727
2026-01-05 03:00:56.67	331.23	4.87	-43.2	-44.7	19.7	0.00e+00	0	25	0	1074790400	60	8342
2026-01-05 03:01:00.71	331.67	4.67	-44.1	-45.8	18.8	0.00e+00	92	25	0	1082130432	60	9521
2026-01-05 03:01:04.75	332.10	4.47	-45.0	-47.7	15.4	0.00e+00	2	25	0	1089470464	60	11861
2026-01-05 03:01:08.80	332.52	4.28	-45.9	-51.4	9.9	6.21e-03	65	25	0	1096810496	60	18079
2026-01-05 03:01:12.84	332.94	4.08	-46.1	-56.0	4.0	8.83e-01	17	25	0	1104150528	60	30838
2026-01-05 03:01:16.89	333.36	3.88	-46.0	-60.2	3.6	1.51e+00	0	25	104	1105199104	60	49833
2026-01-05 03:01:20.93	333.77	3.69	-46.1	-61.4	3.6	1.51e+00	0	25	104	1105199104	60	57349
2026-01-05 03:01:24.98	334.17	3.49	-46.4	-61.7	3.6	1.51e+00	0	25	104	1105199104	60	59204
2026-01-05 03:01:29.02	334.57	3.30	-46.1	-61.5	3.6	1.51e+00	0	25	104	1105199104	60	57772
2026-01-05 03:01:33.07	334.97	3.10	-46.1	-61.5	3.6	1.51e+00	0	25	104	1105199104	60	57660
2026-01-05 03:01:37.11	335.36	2.91	-51.0	-66.4	3.6	1.51e+00	0	25	104	1105199104	60	101305
2026-01-05 03:01:41.16	335.74	2.71	-51.6	-66.9	3.6	1.51e+00	0	25	104	1105199104	60	108402
2026-01-05 03:01:45.20	336.12	2.52	-51.1	-66.9	3.5	1.51e+00	0	25	104	1105199104	60	107917
2026-01-05 03:01:49.24	336.50	2.32	-51.3	-66.8	3.6	1.51e+00	0	25	104	1105199104	60	106285
2026-01-05 03:01:53.29	336.87	2.13	-51.6	-67.0	3.5	1.51e+00	0	25	104	1105199104	60	109174
2026-01-05 03:01:57.33	337.23	1.94	-52.2	-67.6	3.6	1.51e+00	0	25	104	1105199104	60	116548
2026-01-05 03:02:01.37	337.59	1.75	-51.8	-67.2	3.6	1.51e+00	0	25	104	1105199104	60	111513
2026-01-05 03:02:05.42	337.95	1.55	-51.4	-66.7	3.6	1.51e+00	0	25	104	1105199104	60	105442
2026-01-05 03:02:09.46	338.30	1.36	-52.4	-67.8	3.6	1.51e+00	0	25	104	1105199104	60	119470
2026-01-05 03:02:13.51	338.65	1.17	-51.9	-67.2	3.6	1.51e+00	0	25	104	1105199104	60	112041
2026-01-05 03:02:17.55	339.00	0.98	-52.8	-68.2	3.6	1.51e+00	0	25	104	1105199104	60	125728
2026-01-05 03:02:21.60	339.34	0.79	-52.0	-67.4	3.6	1.51e+00	0	25	104	1105199104	60	114001
2026-01-05 03:02:25.64	339.67	0.60	-51.7	-67.1	3.6	1.51e+00	0	25	104	1105199104	60	110971
2026-01-05 03:02:29.69	340.01	0.41	-51.8	-67.1	3.6	1.51e+00	0	25	104	1105199104	60	110870
2026-01-05 03:02:33.73	340.33	0.22	-51.8	-67.2	3.6	1.51e+00	0	25	104	1105199104	60	111764
2026-01-05 03:02:37.77	340.66	0.03	-52.5	-67.9	3.6	1.51e+00	0	25	104	1105199104	60	120689

#Closed at: 2026-01-05 03:02:39
#Recorded file [1105 MB]: D:/lorett/data/35034_260105_054941.dat