passes_logs/2026/01/05/R4.6S_Anadyr_2ch/R4.6S_Anadyr_2ch__20260105_163250_NOAA_20_JPSS-1_rec.log

#Pass ID: 20260105_163250_NOAA 20 (JPSS-1)
#Satellite: NOAA 20 (JPSS-1)
#Configuration: NOAA 20
#almurnet v.1.7.20251203
#Start time: 2026-01-05 16:32:52

#Version: 2.2.20231116
#Station: R4.6S_Anadyr_2ch
#Location: 177.4865 lon 64.73178 lat
#TLE: 1 43013U 17073A   25350.93759711  .00000080  00000+0  58734-4 0  9994
#TLE: 2 43013  98.7603 287.1885 0002156  81.1496 278.9924 14.19526878418610

#Time	Az	El	Level	Level2	SNR	BER	BlckErr	Temp	State	Recorded	gain1	gain2
2026-01-05 16:32:52.78	26.58	0.12	-51.0	-66.0	3.5	1.51e+00	0	30	0	0	60	97300
2026-01-05 16:32:56.82	26.41	0.34	-51.2	-66.6	3.6	1.51e+00	0	31	104	0	60	103687
2026-01-05 16:33:00.87	26.23	0.58	-50.9	-66.2	3.6	1.51e+00	0	31	104	0	60	100079
2026-01-05 16:33:04.91	26.06	0.81	-50.2	-65.6	3.6	1.51e+00	0	31	104	0	60	92752
2026-01-05 16:33:08.96	25.88	1.04	-49.7	-65.1	3.6	1.51e+00	0	31	104	0	60	87328
2026-01-05 16:33:13.00	25.69	1.28	-49.7	-65.0	3.6	1.51e+00	0	31	104	0	60	87027
2026-01-05 16:33:17.05	25.50	1.51	-49.7	-65.0	3.6	1.51e+00	0	31	104	0	60	87149
2026-01-05 16:33:21.09	25.32	1.75	-49.7	-65.1	3.6	1.51e+00	0	31	104	0	60	87331
2026-01-05 16:33:25.14	25.12	1.99	-49.7	-64.8	3.6	1.51e+00	0	31	104	0	60	84459
2026-01-05 16:33:29.18	24.93	2.24	-49.7	-65.0	3.6	1.51e+00	0	31	104	0	60	86608
2026-01-05 16:33:33.22	24.72	2.48	-49.7	-65.0	3.6	1.51e+00	0	31	104	0	60	87074
2026-01-05 16:33:37.27	24.52	2.73	-49.7	-64.6	3.6	1.51e+00	0	31	104	0	60	82391
2026-01-05 16:33:41.31	24.31	2.97	-49.7	-64.9	3.6	1.51e+00	0	31	104	0	60	85882
2026-01-05 16:33:45.36	24.10	3.22	-49.3	-58.0	5.1	9.13e-01	50	31	102	1048576	60	38737
2026-01-05 16:33:49.40	23.89	3.47	-49.9	-65.1	3.6	1.51e+00	0	32	104	1048576	60	87510
2026-01-05 16:33:53.45	23.67	3.73	-46.7	-49.8	14.6	3.12e-05	5	32	0	1048576	60	14984
2026-01-05 16:33:57.49	23.44	3.98	-44.3	-46.1	18.3	0.00e+00	0	32	0	1048576	60	9800
2026-01-05 16:34:01.53	23.22	4.24	-43.8	-45.4	19.0	0.00e+00	92	32	0	1048576	60	9114
2026-01-05 16:34:05.58	22.98	4.50	-43.8	-45.5	18.9	0.00e+00	17	32	0	1048576	60	9141
2026-01-05 16:34:09.62	22.75	4.76	-43.5	-45.0	19.5	0.00e+00	2	31	0	1048576	60	8681
2026-01-05 16:34:13.67	22.51	5.02	-43.5	-45.0	19.4	0.00e+00	2	32	101	1048576	60	8664
2026-01-05 16:34:17.71	22.26	5.29	-43.1	-44.5	20.0	0.00e+00	92	31	101	1048576	60	8164
2026-01-05 16:34:21.75	22.01	5.55	-43.3	-44.7	19.9	0.00e+00	24	32	101	1048576	60	8423
2026-01-05 16:34:25.80	21.75	5.82	-42.8	-44.1	20.4	0.00e+00	0	31	101	1048576	60	7854
2026-01-05 16:34:29.84	21.49	6.10	-42.7	-44.0	20.6	0.00e+00	0	31	101	1048576	60	7741
2026-01-05 16:34:33.89	21.23	6.37	-43.0	-44.3	20.3	0.00e+00	92	32	101	1048576	60	8006
2026-01-05 16:34:37.94	20.96	6.65	-42.7	-44.0	20.6	0.00e+00	18	31	101	1048576	60	7749
2026-01-05 16:34:41.98	20.68	6.93	-42.6	-43.9	20.8	0.00e+00	64	31	101	1048576	60	7641
2026-01-05 16:34:46.03	20.40	7.21	-42.6	-43.8	20.9	0.00e+00	14	32	101	1048576	60	7579
2026-01-05 16:34:50.07	20.11	7.49	-42.8	-44.1	20.6	0.00e+00	91	31	101	1048576	60	7800
2026-01-05 16:34:54.12	19.82	7.78	-42.8	-44.1	20.6	0.00e+00	0	32	101	1048576	60	7842
2026-01-05 16:34:58.16	19.52	8.06	-42.7	-44.0	20.8	0.00e+00	0	32	101	1048576	60	7725
2026-01-05 16:35:02.21	19.21	8.36	-42.8	-44.1	20.7	0.00e+00	92	32	101	1048576	60	7777
2026-01-05 16:35:06.25	18.90	8.65	-42.7	-44.0	20.9	0.00e+00	2	32	101	1048576	60	7702
2026-01-05 16:35:10.29	18.58	8.94	-42.6	-43.9	20.9	0.00e+00	0	32	101	1048576	60	7637
2026-01-05 16:35:14.34	18.25	9.24	-42.5	-43.7	21.1	0.00e+00	0	32	101	1048576	60	7505
2026-01-05 16:35:18.38	17.92	9.54	-42.4	-43.6	21.2	0.00e+00	90	32	101	1048576	60	7382
2026-01-05 16:35:22.43	17.57	9.85	-42.2	-43.3	21.6	0.00e+00	5	32	101	1048576	60	7152
2026-01-05 16:35:26.47	17.23	10.15	-41.9	-43.1	21.8	0.00e+00	6	32	101	1048576	60	6954
2026-01-05 16:35:30.52	16.87	10.46	-41.8	-42.9	22.0	0.00e+00	22	32	101	1048576	60	6820
2026-01-05 16:35:34.57	16.50	10.78	-41.6	-42.7	22.2	0.00e+00	92	32	101	1048576	60	6632
2026-01-05 16:35:38.61	16.13	11.09	-41.6	-42.6	22.2	0.00e+00	6	32	101	1048576	60	6612
2026-01-05 16:35:42.66	15.75	11.41	-41.6	-42.7	22.2	0.00e+00	0	32	101	1048576	60	6658
2026-01-05 16:35:46.70	15.36	11.73	-41.6	-42.7	22.2	0.00e+00	0	32	101	1048576	60	6665
2026-01-05 16:35:50.75	14.96	12.05	-41.6	-42.7	22.2	0.00e+00	92	32	101	1048576	60	6638
2026-01-05 16:35:54.79	14.55	12.38	-41.5	-42.6	22.2	0.00e+00	24	32	101	1048576	60	6557
2026-01-05 16:35:58.84	14.14	12.71	-41.6	-42.6	22.3	0.00e+00	55	32	101	1048576	60	6606
2026-01-05 16:36:02.88	13.71	13.04	-41.4	-42.5	22.5	0.00e+00	10	32	101	1048576	60	6474
2026-01-05 16:36:06.93	13.27	13.38	-41.6	-42.6	22.3	0.00e+00	27	32	101	1048576	60	6596
2026-01-05 16:36:10.97	12.82	13.72	-41.4	-42.4	22.6	0.00e+00	2	32	101	1048576	60	6444
2026-01-05 16:36:15.02	12.37	14.06	-41.6	-42.6	22.5	0.00e+00	2	32	101	1048576	60	6594
2026-01-05 16:36:19.06	11.90	14.40	-41.7	-42.7	22.4	0.00e+00	92	32	101	1048576	60	6675
2026-01-05 16:36:23.10	11.42	14.75	-41.6	-42.7	22.3	0.00e+00	28	32	101	1048576	60	6619
2026-01-05 16:36:27.15	10.92	15.10	-41.8	-42.8	22.0	0.00e+00	0	32	101	1048576	60	6754
2026-01-05 16:36:31.19	10.42	15.45	-41.5	-42.5	22.5	0.00e+00	26	32	101	1048576	60	6526
2026-01-05 16:36:35.24	9.90	15.80	-41.4	-42.4	22.5	0.00e+00	92	32	101	1048576	60	6458
2026-01-05 16:36:39.28	9.37	16.16	-41.6	-42.7	22.4	0.00e+00	0	32	101	1048576	60	6621
2026-01-05 16:36:43.33	8.83	16.52	-41.7	-42.8	22.3	0.00e+00	2	32	101	1048576	60	6709
2026-01-05 16:36:47.37	8.27	16.89	-41.7	-42.7	22.4	0.00e+00	61	32	101	1048576	60	6675
2026-01-05 16:36:51.42	7.70	17.25	-41.6	-42.7	22.4	0.00e+00	92	31	101	1048576	60	6623
2026-01-05 16:36:55.46	7.12	17.62	-41.5	-42.5	22.4	0.00e+00	6	31	101	1048576	60	6507
2026-01-05 16:36:59.51	6.52	17.99	-41.3	-42.3	22.8	0.00e+00	25	32	101	1048576	60	6343
2026-01-05 16:37:03.55	5.90	18.36	-41.1	-42.1	22.9	0.00e+00	7	32	101	1048576	60	6215
2026-01-05 16:37:07.60	5.27	18.74	-40.9	-41.8	23.2	0.00e+00	92	31	101	1048576	60	6028
2026-01-05 16:37:11.64	4.63	19.12	-40.9	-41.9	22.2	0.00e+00	66	31	101	1048576	60	6055
2026-01-05 16:37:15.69	3.96	19.50	-40.8	-41.7	23.4	0.00e+00	7	31	101	1048576	60	5934
2026-01-05 16:37:19.73	3.28	19.88	-40.7	-41.6	23.4	0.00e+00	15	32	101	1048576	60	5884
2026-01-05 16:37:23.77	2.59	20.26	-40.8	-41.7	23.4	0.00e+00	28	32	101	1048576	60	5948
2026-01-05 16:37:27.82	1.87	20.64	-40.7	-41.6	23.4	0.00e+00	58	31	101	1048576	60	5888
2026-01-05 16:37:31.86	1.14	21.02	-41.0	-42.0	23.1	0.00e+00	2	31	101	1048576	60	6115
2026-01-05 16:37:35.91	0.38	21.41	-41.2	-42.2	22.9	0.00e+00	92	32	101	1048576	60	6307
2026-01-05 16:37:39.95	359.61	21.79	-41.4	-42.5	22.7	0.00e+00	29	31	101	1048576	60	6484
2026-01-05 16:37:44.00	358.82	22.18	-41.3	-42.3	22.9	0.00e+00	25	32	101	1048576	60	6359
2026-01-05 16:37:48.04	358.01	22.56	-41.1	-42.1	23.0	0.00e+00	52	31	101	1048576	60	6191
2026-01-05 16:37:52.08	357.18	22.95	-40.8	-41.8	23.3	0.00e+00	92	32	101	1048576	60	5997
2026-01-05 16:37:56.13	356.32	23.33	-40.7	-41.6	23.4	0.00e+00	30	32	101	1048576	60	5890
2026-01-05 16:38:00.17	355.45	23.71	-40.5	-41.5	23.6	0.00e+00	25	31	101	1048576	60	5762
2026-01-05 16:38:04.21	354.55	24.09	-39.8	-40.6	24.2	0.00e+00	0	31	101	1048576	58	5880
2026-01-05 16:38:08.26	353.63	24.47	-39.7	-40.6	24.3	0.00e+00	92	31	101	1048576	58	5868
2026-01-05 16:38:12.30	352.69	24.85	-39.9	-40.8	24.1	0.00e+00	28	31	101	1048576	58	5966
2026-01-05 16:38:16.35	351.72	25.22	-40.0	-40.8	24.2	0.00e+00	25	32	101	1048576	58	6021
2026-01-05 16:38:20.39	350.74	25.58	-39.8	-40.7	24.2	0.00e+00	20	32	101	1048576	58	5909
2026-01-05 16:38:24.44	349.73	25.95	-39.8	-40.7	24.2	0.00e+00	92	31	101	1048576	58	5903
2026-01-05 16:38:28.48	348.69	26.30	-40.3	-41.2	23.9	0.00e+00	5	31	101	1048576	58	6288
2026-01-05 16:38:32.52	347.64	26.66	-41.0	-42.0	23.1	0.00e+00	0	32	101	1048576	58	6850
2026-01-05 16:38:36.57	346.55	27.00	-41.0	-42.0	23.2	0.00e+00	35	31	101	1048576	58	6866
2026-01-05 16:38:40.62	345.45	27.34	-41.5	-42.5	22.8	0.00e+00	92	31	101	1048576	60	6491
2026-01-05 16:38:44.66	344.32	27.67	-41.9	-42.9	22.2	0.00e+00	0	32	101	1048576	60	6830
2026-01-05 16:38:48.70	343.17	27.99	-42.0	-43.1	22.2	0.00e+00	0	31	101	1048576	60	6946
2026-01-05 16:38:52.75	341.99	28.30	-42.1	-43.2	22.1	0.00e+00	90	31	101	1048576	60	7035
2026-01-05 16:38:56.79	340.79	28.60	-41.8	-42.9	22.4	0.00e+00	50	31	101	1048576	60	6799
2026-01-05 16:39:00.84	339.57	28.89	-41.4	-42.4	22.8	0.00e+00	0	31	101	1048576	60	6446
2026-01-05 16:39:04.88	338.33	29.17	-41.6	-42.6	22.5	0.00e+00	0	31	101	1048576	60	6590
2026-01-05 16:39:08.93	337.06	29.44	-41.3	-42.3	22.9	0.00e+00	92	31	101	1048576	60	6332
2026-01-05 16:39:12.97	335.78	29.69	-41.6	-42.6	22.6	0.00e+00	57	31	101	1048576	60	6585
2026-01-05 16:39:17.01	334.47	29.92	-41.6	-42.7	22.6	0.00e+00	2	31	101	1048576	60	6623
2026-01-05 16:39:21.06	333.15	30.15	-41.8	-42.9	22.4	0.00e+00	2	32	101	1048576	60	6787
2026-01-05 16:39:25.10	331.81	30.35	-42.1	-43.2	22.1	0.00e+00	92	31	101	1048576	60	7080
2026-01-05 16:39:29.15	330.45	30.54	-42.3	-43.4	21.9	0.00e+00	30	31	101	1048576	60	7226
2026-01-05 16:39:33.19	329.07	30.72	-41.5	-42.5	22.7	0.00e+00	49	31	101	1048576	60	6499
2026-01-05 16:39:37.24	327.68	30.87	-41.6	-42.6	22.7	0.00e+00	81	32	101	1048576	60	6568
2026-01-05 16:39:41.28	326.28	31.01	-41.4	-42.4	22.9	0.00e+00	83	31	101	1048576	60	6416
2026-01-05 16:39:45.32	324.87	31.12	-41.5	-42.5	22.8	0.00e+00	29	32	101	1048576	60	6466
2026-01-05 16:39:49.37	323.45	31.22	-42.0	-43.1	22.3	0.00e+00	50	32	101	1048576	60	6950
2026-01-05 16:39:53.41	322.02	31.30	-42.1	-43.2	22.2	0.00e+00	92	31	101	1048576	60	7039
2026-01-05 16:39:57.46	320.58	31.36	-42.5	-43.7	21.7	0.00e+00	0	31	101	1048576	60	7442
2026-01-05 16:40:01.50	319.15	31.40	-43.1	-44.4	21.2	0.00e+00	0	31	101	1048576	60	8047
2026-01-05 16:40:05.55	317.70	31.41	-42.6	-43.7	21.7	0.00e+00	60	32	101	1048576	60	7463
2026-01-05 16:40:09.59	316.26	31.41	-43.1	-44.3	21.3	0.00e+00	92	31	101	1048576	60	7973
2026-01-05 16:40:13.63	314.82	31.39	-42.2	-43.3	22.2	0.00e+00	63	32	101	1048576	60	7090
2026-01-05 16:40:17.68	313.38	31.34	-42.0	-43.1	22.3	0.00e+00	0	31	101	1048576	60	6960
2026-01-05 16:40:21.72	311.94	31.28	-42.1	-43.2	22.1	0.00e+00	31	31	101	1048576	60	7061
2026-01-05 16:40:25.76	310.52	31.20	-41.7	-42.7	22.6	0.00e+00	90	31	101	1048576	60	6635
2026-01-05 16:40:29.81	309.09	31.09	-42.2	-43.3	22.0	0.00e+00	51	31	101	1048576	60	7137
2026-01-05 16:40:33.85	307.69	30.97	-42.2	-43.3	22.0	0.00e+00	0	31	101	1048576	60	7110
2026-01-05 16:40:37.90	306.29	30.83	-41.7	-42.7	22.6	0.00e+00	0	31	101	1048576	60	6673
2026-01-05 16:40:41.95	304.90	30.66	-42.0	-43.1	22.3	0.00e+00	92	31	101	1048576	60	6975
2026-01-05 16:40:45.99	303.53	30.49	-42.0	-43.1	22.4	0.00e+00	50	31	101	1048576	60	6932
2026-01-05 16:40:50.04	302.17	30.29	-41.9	-43.0	22.4	0.00e+00	0	31	101	1048576	60	6876
2026-01-05 16:40:54.09	300.83	30.08	-42.2	-43.4	22.2	0.00e+00	2	31	101	1048576	60	7171
2026-01-05 16:40:58.13	299.51	29.85	-42.4	-43.5	21.9	0.00e+00	57	31	101	1048576	60	7311
2026-01-05 16:41:02.18	298.21	29.61	-42.4	-43.6	21.9	0.00e+00	50	31	101	1048576	60	7348
2026-01-05 16:41:06.22	296.93	29.35	-42.5	-43.6	21.8	0.00e+00	2	31	101	1048576	60	7406
2026-01-05 16:41:10.26	295.67	29.08	-42.9	-44.1	21.3	0.00e+00	92	32	101	1048576	60	7861
2026-01-05 16:41:14.31	294.43	28.80	-42.5	-43.6	21.8	0.00e+00	0	31	101	1048576	60	7408
2026-01-05 16:41:18.36	293.21	28.51	-42.2	-43.3	22.1	0.00e+00	53	31	101	1048576	60	7139
2026-01-05 16:41:22.40	292.02	28.20	-42.1	-43.2	22.1	0.00e+00	0	31	101	1048576	60	7034
2026-01-05 16:41:26.45	290.85	27.89	-42.1	-43.2	22.1	0.00e+00	92	31	101	1048576	60	7037
2026-01-05 16:41:30.49	289.70	27.56	-41.6	-42.6	22.8	0.00e+00	0	31	101	1048576	60	6556
2026-01-05 16:41:34.54	288.58	27.23	-41.7	-42.7	22.5	0.00e+00	0	31	101	1048576	60	6684
2026-01-05 16:41:38.58	287.48	26.89	-41.9	-42.9	22.4	0.00e+00	61	31	101	1048576	60	6827
2026-01-05 16:41:42.62	286.40	26.54	-41.1	-42.1	23.1	0.00e+00	92	31	101	1048576	60	6205
2026-01-05 16:41:46.67	285.35	26.19	-41.3	-42.3	23.1	0.00e+00	7	31	101	1048576	60	6321
2026-01-05 16:41:50.71	284.32	25.83	-40.8	-41.7	23.4	0.00e+00	0	31	101	1048576	60	5956
2026-01-05 16:41:54.75	283.31	25.46	-40.4	-41.3	23.8	0.00e+00	18	31	101	1048576	60	5693
2026-01-05 16:41:58.80	282.33	25.09	-40.0	-40.9	24.1	0.00e+00	92	31	101	1048576	58	6044
2026-01-05 16:42:02.84	281.37	24.72	-39.5	-40.4	24.3	0.00e+00	0	31	101	1048576	58	5708
2026-01-05 16:42:06.89	280.43	24.34	-39.1	-39.9	25.0	0.00e+00	0	31	101	1048576	56	6050
2026-01-05 16:42:10.93	279.52	23.96	-39.0	-39.8	25.0	0.00e+00	29	31	101	1048576	56	6014
2026-01-05 16:42:14.97	278.63	23.58	-38.9	-39.7	25.1	0.00e+00	90	31	101	1048576	56	5941
2026-01-05 16:42:19.02	277.76	23.20	-38.6	-39.3	25.4	0.00e+00	0	31	101	1048576	56	5688
2026-01-05 16:42:23.07	276.91	22.81	-38.4	-39.2	25.6	0.00e+00	0	31	101	1048576	56	5571
2026-01-05 16:42:27.11	276.08	22.43	-38.4	-39.2	25.5	0.00e+00	92	31	101	1048576	56	5593
2026-01-05 16:42:31.15	275.27	22.04	-38.3	-39.1	25.7	0.00e+00	28	31	101	1048576	56	5538
2026-01-05 16:42:35.20	274.48	21.66	-38.4	-39.1	25.6	0.00e+00	2	31	101	1048576	56	5550
2026-01-05 16:42:39.24	273.71	21.27	-38.7	-39.5	25.3	0.00e+00	2	31	101	1048576	56	5794
2026-01-05 16:42:43.29	272.96	20.88	-38.8	-39.6	25.1	0.00e+00	90	31	101	1048576	56	5833
2026-01-05 16:42:47.33	272.23	20.50	-38.9	-39.7	25.0	0.00e+00	27	31	101	1048576	56	5957
2026-01-05 16:42:51.37	271.52	20.12	-39.2	-40.0	24.8	0.00e+00	0	31	101	1048576	56	6141
2026-01-05 16:42:55.42	270.83	19.73	-39.6	-40.4	24.5	0.00e+00	58	31	101	1048576	56	6428
2026-01-05 16:42:59.46	270.15	19.35	-39.7	-40.5	24.3	0.00e+00	92	31	101	1048576	56	6504
2026-01-05 16:43:03.51	269.49	18.97	-39.8	-40.6	24.3	0.00e+00	0	31	101	1048576	56	6597
2026-01-05 16:43:07.55	268.85	18.60	-40.1	-40.9	24.1	0.00e+00	64	31	101	1048576	56	6836
2026-01-05 16:43:11.60	268.22	18.22	-39.9	-40.8	24.0	0.00e+00	79	31	101	1048576	58	6013
2026-01-05 16:43:15.64	267.61	17.85	-40.2	-41.1	23.9	0.00e+00	91	31	101	1048576	58	6181
2026-01-05 16:43:19.69	267.01	17.48	-40.3	-41.2	23.7	0.00e+00	7	31	101	1048576	58	6272
2026-01-05 16:43:23.73	266.43	17.11	-40.3	-41.2	23.7	0.00e+00	27	31	101	1048576	58	6310
2026-01-05 16:43:27.78	265.86	16.74	-40.2	-41.1	23.8	0.00e+00	92	31	101	1048576	58	6212
2026-01-05 16:43:31.82	265.30	16.38	-40.6	-41.5	23.4	0.00e+00	92	31	101	1048576	58	6534
2026-01-05 16:43:35.86	264.76	16.02	-40.7	-41.7	23.3	0.00e+00	0	31	101	1048576	58	6617
2026-01-05 16:43:39.91	264.23	15.66	-41.0	-41.9	23.1	0.00e+00	0	31	101	1048576	60	6095
2026-01-05 16:43:43.95	263.72	15.31	-41.0	-42.0	23.0	0.00e+00	92	31	101	1048576	60	6122
2026-01-05 16:43:48.00	263.21	14.95	-41.3	-42.3	22.7	0.00e+00	55	31	101	1048576	60	6379
2026-01-05 16:43:52.04	262.72	14.60	-41.5	-42.5	22.5	0.00e+00	0	31	101	1048576	60	6502
2026-01-05 16:43:56.09	262.24	14.26	-41.5	-42.6	22.5	0.00e+00	0	31	101	1048576	60	6561
2026-01-05 16:44:00.13	261.78	13.91	-41.4	-42.4	22.7	0.00e+00	92	31	101	1048576	60	6403
2026-01-05 16:44:04.18	261.32	13.57	-41.5	-42.5	22.4	0.00e+00	55	31	101	1048576	60	6509
2026-01-05 16:44:08.22	260.87	13.23	-41.5	-42.5	22.5	0.00e+00	60	31	101	1048576	60	6534
2026-01-05 16:44:12.26	260.43	12.90	-41.5	-42.5	22.4	0.00e+00	0	31	101	1048576	60	6488
2026-01-05 16:44:16.31	260.01	12.57	-41.8	-42.9	22.1	0.00e+00	92	31	101	1048576	60	6771
2026-01-05 16:44:20.35	259.59	12.24	-41.8	-42.9	22.1	0.00e+00	23	31	101	1048576	60	6819
2026-01-05 16:44:24.40	259.18	11.91	-42.1	-43.2	21.8	0.00e+00	5	31	101	1048576	60	7058
2026-01-05 16:44:28.44	258.79	11.59	-42.0	-43.1	21.9	0.00e+00	0	31	101	1048576	60	7004
2026-01-05 16:44:32.49	258.40	11.27	-42.2	-43.4	21.7	0.00e+00	92	31	101	1048576	60	7177
2026-01-05 16:44:36.53	258.01	10.95	-42.5	-43.7	21.3	0.00e+00	4	31	101	1048576	60	7445
2026-01-05 16:44:40.58	257.64	10.64	-42.5	-43.6	21.3	0.00e+00	17	31	101	1048576	60	7420
2026-01-05 16:44:44.62	257.28	10.32	-42.6	-43.9	21.1	0.00e+00	1	31	101	1048576	60	7604
2026-01-05 16:44:48.67	256.92	10.01	-42.3	-43.5	21.5	0.00e+00	92	31	101	1048576	60	7265
2026-01-05 16:44:52.72	256.57	9.71	-42.4	-43.6	21.3	0.00e+00	24	31	101	1048576	60	7345
2026-01-05 16:44:56.76	256.23	9.40	-42.5	-43.7	21.3	0.00e+00	23	31	101	1048576	60	7448
2026-01-05 16:45:00.80	255.90	9.10	-42.8	-44.0	20.9	0.00e+00	90	31	101	1048576	60	7744
2026-01-05 16:45:04.85	255.57	8.80	-42.9	-44.2	20.6	0.00e+00	0	31	101	1048576	60	7913
2026-01-05 16:45:08.89	255.25	8.51	-42.9	-44.2	20.6	0.00e+00	0	31	101	1048576	60	7949
2026-01-05 16:45:12.94	254.93	8.22	-43.2	-44.5	20.2	0.00e+00	16	31	101	1048576	60	8210
2026-01-05 16:45:16.98	254.63	7.93	-43.4	-44.9	20.0	0.00e+00	92	31	101	1048576	60	8528
2026-01-05 16:45:21.03	254.33	7.64	-43.5	-44.9	19.9	0.00e+00	2	31	101	1048576	60	8604
2026-01-05 16:45:25.07	254.03	7.35	-43.6	-45.0	19.8	0.00e+00	0	31	101	1048576	60	8685
2026-01-05 16:45:29.11	253.74	7.07	-43.6	-45.0	19.8	0.00e+00	0	31	101	1048576	60	8697
2026-01-05 16:45:33.16	253.46	6.79	-43.4	-44.9	19.9	0.00e+00	90	31	101	1048576	60	8558
2026-01-05 16:45:37.20	253.18	6.51	-43.5	-45.0	19.7	0.00e+00	64	31	101	1048576	60	8635
2026-01-05 16:45:41.25	252.91	6.23	-43.7	-45.3	19.4	0.00e+00	0	31	101	1048576	60	8926
2026-01-05 16:45:45.29	252.64	5.96	-43.8	-45.3	19.3	0.00e+00	0	31	101	1048576	60	8965
2026-01-05 16:45:49.34	252.38	5.69	-44.0	-45.6	19.1	0.00e+00	92	31	101	1048576	60	9279
2026-01-05 16:45:53.38	252.12	5.42	-44.1	-45.8	18.8	0.00e+00	62	31	101	1048576	60	9467
2026-01-05 16:45:57.42	251.87	5.15	-44.3	-46.0	18.6	0.00e+00	6	31	101	1048576	60	9778
2026-01-05 16:46:01.47	251.63	4.89	-44.4	-46.1	18.3	0.00e+00	92	31	101	1048576	60	9893
2026-01-05 16:46:05.51	251.38	4.62	-44.5	-46.3	18.2	0.00e+00	13	31	101	1048576	60	10122
2026-01-05 16:46:09.56	251.15	4.36	-44.5	-46.3	18.1	0.00e+00	0	31	101	1048576	60	10077
2026-01-05 16:46:13.60	250.91	4.10	-44.6	-46.5	17.8	0.00e+00	5	31	101	1048576	60	10290
2026-01-05 16:46:17.65	250.68	3.85	-44.7	-46.7	17.6	0.00e+00	92	31	101	1048576	60	10516
2026-01-05 16:46:21.69	250.46	3.59	-45.2	-47.4	17.0	0.00e+00	6	31	101	1048576	60	11424
2026-01-05 16:46:25.74	250.24	3.34	-45.2	-47.4	16.7	0.00e+00	2	31	101	1048576	60	11454
2026-01-05 16:46:29.78	250.02	3.09	-45.0	-47.2	16.9	0.00e+00	68	31	101	1048576	60	11113
2026-01-05 16:46:33.82	249.81	2.84	-51.1	-66.4	3.6	1.51e+00	0	31	104	1048576	60	101701
2026-01-05 16:46:37.87	249.60	2.59	-51.2	-66.6	3.6	1.51e+00	0	31	104	1048576	60	103663
2026-01-05 16:46:41.91	249.39	2.35	-51.1	-66.4	3.6	1.51e+00	0	31	104	1048576	60	102089
2026-01-05 16:46:45.96	249.19	2.10	-51.0	-66.4	3.6	1.51e+00	0	31	104	1048576	60	101499
2026-01-05 16:46:50.00	248.99	1.86	-51.1	-66.4	3.6	1.51e+00	0	31	104	1048576	60	101950
2026-01-05 16:46:54.05	248.79	1.62	-51.1	-66.4	3.6	1.51e+00	0	31	104	1048576	60	101399
2026-01-05 16:46:58.09	248.60	1.38	-51.1	-66.4	3.6	1.51e+00	0	31	104	1048576	60	101930
2026-01-05 16:47:02.14	248.41	1.15	-51.1	-66.4	3.6	1.51e+00	0	31	104	1048576	60	101814
2026-01-05 16:47:06.18	248.23	0.91	-51.1	-66.4	3.6	1.51e+00	0	31	104	1048576	60	101759
2026-01-05 16:47:10.23	248.05	0.68	-51.1	-66.4	3.6	1.51e+00	0	31	104	1048576	60	101884
2026-01-05 16:47:14.27	247.87	0.44	-51.1	-66.4	3.6	1.51e+00	0	31	104	1048576	60	101758
2026-01-05 16:47:18.32	247.69	0.21	-51.1	-66.4	3.6	1.51e+00	0	31	104	1048576	60	102041
2026-01-05 16:47:22.36	247.52	-0.02	-51.1	-66.4	3.6	1.51e+00	0	31	104	1048576	60	102172

#Closed at: 2026-01-05 16:47:23
#Recorded file [1 MB]: D:/lorett/data/35034_260105_193252.dat