passes_logs/2026/01/05/R4.6S_Anadyr_2ch/R4.6S_Anadyr_2ch__20260105_035506_AQUA_rec.log

#Pass ID: 20260105_035506_AQUA
#Satellite: AQUA
#Configuration: AQUA
#almurnet v.1.7.20251203
#Start time: 2026-01-05 03:55:08

#Version: 2.2.20231116
#Station: R4.6S_Anadyr_2ch
#Location: 177.4865 lon 64.73178 lat
#TLE: 1 27424U 02022A   25351.00450321  .00000925  00000+0  19503-3 0  9992
#TLE: 2 27424  98.4041 311.9529 0001248 113.7180 322.1616 14.61819266256652

#Time	Az	El	Level	Level2	SNR	BER	BlckErr	Temp	State	Recorded	gain1	gain2
2026-01-05 03:55:08.98	210.86	0.14	-51.1	-62.1	3.4	8.44e-01	0	22	0	0	60	62507
2026-01-05 03:55:12.01	211.09	0.30	-52.8	-70.6	3.5	3.04e+01	0	23	104	0	60	175276
2026-01-05 03:55:15.04	211.31	0.46	-51.6	-69.4	3.5	3.04e+01	0	23	104	0	60	153162
2026-01-05 03:55:18.07	211.54	0.62	-51.8	-69.5	3.5	3.04e+01	0	23	104	0	60	155713
2026-01-05 03:55:21.11	211.78	0.79	-52.4	-70.3	3.5	3.04e+01	0	24	104	0	60	169608
2026-01-05 03:55:24.14	212.01	0.95	-51.8	-69.6	3.5	3.04e+01	0	24	104	0	60	156262
2026-01-05 03:55:27.17	212.25	1.12	-52.3	-70.2	3.5	3.04e+01	0	23	104	0	60	167281
2026-01-05 03:55:30.21	212.49	1.28	-53.3	-71.0	3.5	3.04e+01	0	24	104	0	60	184979
2026-01-05 03:55:33.24	212.74	1.45	-52.6	-70.3	3.5	3.04e+01	0	24	104	0	60	170239
2026-01-05 03:55:36.27	212.98	1.62	-52.6	-70.4	3.5	3.04e+01	0	24	104	0	60	171690
2026-01-05 03:55:39.31	213.23	1.78	-52.3	-70.1	3.5	3.04e+01	0	24	104	0	60	166184
2026-01-05 03:55:42.34	213.49	1.95	-52.3	-70.1	3.5	3.04e+01	0	24	104	0	60	165166
2026-01-05 03:55:45.37	213.74	2.12	-52.6	-70.3	3.5	3.04e+01	0	24	104	0	60	170663
2026-01-05 03:55:48.40	214.00	2.29	-53.6	-71.4	3.5	3.04e+01	0	24	104	0	60	192180
2026-01-05 03:55:51.43	214.26	2.46	-53.5	-71.3	3.5	3.04e+01	0	24	104	0	60	189827
2026-01-05 03:55:54.47	214.53	2.63	-53.2	-71.0	3.5	3.04e+01	0	24	104	0	60	184356
2026-01-05 03:55:57.50	214.80	2.81	-52.9	-70.7	3.5	3.04e+01	0	24	104	0	60	177299
2026-01-05 03:56:00.53	215.07	2.98	-52.1	-70.1	3.5	3.04e+01	0	24	104	0	60	166130
2026-01-05 03:56:03.56	215.34	3.15	-51.8	-69.7	3.5	3.04e+01	0	24	104	0	60	157941
2026-01-05 03:56:06.60	215.62	3.33	-51.8	-69.7	3.5	3.04e+01	0	24	104	0	60	158781
2026-01-05 03:56:09.63	215.91	3.50	-51.4	-69.2	3.5	3.04e+01	0	24	104	0	60	149263
2026-01-05 03:56:12.66	216.19	3.68	-51.2	-69.1	3.5	3.04e+01	0	24	104	0	60	147557
2026-01-05 03:56:15.70	216.48	3.85	-50.1	-68.3	3.5	3.04e+01	0	24	104	0	60	135756
2026-01-05 03:56:18.73	216.77	4.03	-50.0	-67.7	3.5	3.04e+01	0	24	104	0	60	126172
2026-01-05 03:56:21.76	217.07	4.21	-50.1	-67.8	3.5	3.04e+01	0	24	104	0	60	126932
2026-01-05 03:56:24.80	217.37	4.39	-50.5	-68.3	3.4	3.04e+01	0	24	104	0	60	134493
2026-01-05 03:56:27.83	217.68	4.57	-50.2	-67.9	3.5	3.04e+01	0	24	104	0	60	129148
2026-01-05 03:56:30.86	217.98	4.75	-50.4	-68.2	3.5	3.04e+01	0	24	104	0	60	134209
2026-01-05 03:56:33.89	218.30	4.93	-50.3	-68.1	3.5	3.04e+01	0	24	104	0	60	131538
2026-01-05 03:56:36.93	218.61	5.11	-50.2	-68.0	3.5	3.04e+01	0	24	104	0	60	130188
2026-01-05 03:56:39.96	218.93	5.29	-50.1	-67.7	3.5	3.04e+01	0	24	104	0	60	125800
2026-01-05 03:56:42.99	219.26	5.47	-50.0	-67.6	3.5	3.04e+01	0	24	104	0	60	124541
2026-01-05 03:56:46.03	219.59	5.66	-50.0	-67.4	3.5	3.04e+01	0	24	104	0	60	121217
2026-01-05 03:56:49.06	219.92	5.84	-49.8	-63.8	4.4	3.04e+01	0	24	104	0	60	79945
2026-01-05 03:56:52.09	220.26	6.03	-50.0	-64.6	4.0	3.04e+01	0	24	104	0	60	88256
2026-01-05 03:56:55.12	220.60	6.21	-46.7	-50.2	17.0	3.04e+01	92	24	0	3670016	60	16836
2026-01-05 03:56:58.16	220.95	6.40	-50.2	-63.0	3.8	3.04e+01	35	24	104	9437184	60	73402
2026-01-05 03:57:01.19	221.30	6.59	-50.0	-63.3	3.7	3.04e+01	0	24	104	12582912	60	76256
2026-01-05 03:57:04.22	221.66	6.77	-41.9	-43.5	24.2	3.04e+01	92	24	0	16252928	60	7783
2026-01-05 03:57:07.25	222.02	6.96	-41.6	-43.1	24.9	3.04e+01	92	24	0	22020096	60	7457
2026-01-05 03:57:10.29	222.39	7.15	-41.1	-42.7	25.1	3.04e+01	90	24	0	27787264	60	7053
2026-01-05 03:57:13.32	222.76	7.34	-41.6	-43.3	24.5	3.04e+01	91	24	0	33554432	60	7581
2026-01-05 03:57:16.36	223.14	7.53	-41.0	-42.6	25.2	3.04e+01	92	24	0	39321600	60	6986
2026-01-05 03:57:19.39	223.52	7.72	-40.6	-42.1	25.9	3.04e+01	92	24	0	45088768	60	6592
2026-01-05 03:57:22.42	223.90	7.91	-40.7	-42.3	25.3	3.04e+01	92	24	0	50855936	60	6736
2026-01-05 03:57:25.45	224.30	8.10	-40.8	-42.3	25.8	3.04e+01	92	24	0	56098816	60	6752
2026-01-05 03:57:28.49	224.69	8.30	-40.5	-41.9	25.9	3.04e+01	92	24	0	61865984	60	6476
2026-01-05 03:57:31.52	225.10	8.49	-40.2	-41.6	26.0	3.04e+01	92	24	0	67633152	60	6251
2026-01-05 03:57:34.56	225.51	8.68	-40.2	-41.7	26.2	3.04e+01	92	24	0	73400320	60	6283
2026-01-05 03:57:37.59	225.92	8.88	-40.2	-41.7	26.0	3.04e+01	92	24	0	79167488	60	6312
2026-01-05 03:57:40.62	226.34	9.07	-40.1	-41.6	26.3	3.04e+01	92	24	0	84934656	60	6236
2026-01-05 03:57:43.66	226.77	9.27	-40.1	-41.7	26.2	3.04e+01	91	24	0	90701824	60	6320
2026-01-05 03:57:46.69	227.20	9.46	-40.3	-41.8	26.2	3.04e+01	92	24	0	95944704	60	6412
2026-01-05 03:57:49.72	227.64	9.66	-40.4	-41.9	25.9	3.04e+01	92	24	0	101711872	60	6474
2026-01-05 03:57:52.76	228.09	9.85	-40.5	-42.2	26.2	3.04e+01	91	24	0	107479040	60	6651
2026-01-05 03:57:55.79	228.54	10.05	-40.3	-42.0	26.2	3.04e+01	90	24	0	113246208	60	6536
2026-01-05 03:57:58.82	228.99	10.24	-40.3	-42.2	25.8	3.04e+01	92	24	0	119013376	60	6665
2026-01-05 03:58:01.85	229.46	10.44	-39.9	-41.8	26.0	3.04e+01	92	24	0	124780544	60	6392
2026-01-05 03:58:04.89	229.93	10.64	-40.2	-42.0	26.2	3.04e+01	92	24	0	130023424	60	6515
2026-01-05 03:58:07.92	230.41	10.83	-40.7	-42.4	25.9	3.04e+01	92	24	0	135790592	60	6876
2026-01-05 03:58:10.95	230.89	11.03	-40.6	-42.3	25.9	3.04e+01	92	24	0	141557760	60	6772
2026-01-05 03:58:13.99	231.38	11.23	-40.4	-42.2	26.1	3.04e+01	90	24	0	147324928	60	6661
2026-01-05 03:58:17.02	231.88	11.42	-41.0	-42.7	25.6	3.04e+01	90	24	0	153092096	60	7064
2026-01-05 03:58:20.05	232.38	11.62	-40.4	-42.2	25.9	3.04e+01	92	24	0	158859264	60	6650
2026-01-05 03:58:23.08	232.89	11.82	-40.5	-42.3	25.9	3.04e+01	90	24	0	164102144	60	6775
2026-01-05 03:58:26.12	233.41	12.01	-40.9	-42.6	25.7	3.04e+01	91	24	0	169869312	60	7011
2026-01-05 03:58:29.15	233.94	12.21	-41.1	-42.6	25.6	3.04e+01	92	24	0	175636480	60	7008
2026-01-05 03:58:32.18	234.47	12.41	-41.0	-42.5	25.6	3.04e+01	91	24	0	181403648	60	6958
2026-01-05 03:58:35.22	235.01	12.60	-40.6	-42.4	25.8	3.04e+01	92	24	0	187170816	60	6807
2026-01-05 03:58:38.25	235.56	12.80	-41.0	-42.6	25.3	3.04e+01	92	24	0	192937984	60	6997
2026-01-05 03:58:41.28	236.12	12.99	-41.3	-42.9	25.1	3.04e+01	92	24	0	198705152	60	7259
2026-01-05 03:58:44.31	236.68	13.18	-41.5	-43.1	25.0	3.04e+01	90	24	0	203948032	60	7394
2026-01-05 03:58:47.35	237.25	13.38	-41.9	-43.4	24.9	3.04e+01	92	24	0	209715200	60	7707
2026-01-05 03:58:50.38	237.83	13.57	-41.6	-43.3	25.2	3.04e+01	92	24	0	215482368	60	7549
2026-01-05 03:58:53.42	238.42	13.76	-41.1	-42.6	25.4	3.04e+01	92	24	0	221249536	60	6966
2026-01-05 03:58:56.45	239.01	13.95	-40.7	-42.2	25.9	3.04e+01	90	24	0	227016704	60	6700
2026-01-05 03:58:59.48	239.62	14.14	-40.8	-42.4	25.8	3.04e+01	92	24	0	232783872	60	6842
2026-01-05 03:59:02.51	240.23	14.33	-41.5	-43.0	25.5	3.04e+01	90	24	0	238551040	60	7333
2026-01-05 03:59:05.54	240.85	14.51	-41.2	-42.7	25.9	3.04e+01	92	24	0	243793920	60	7054
2026-01-05 03:59:08.58	241.47	14.70	-41.4	-42.9	25.4	3.04e+01	90	24	0	249561088	60	7286
2026-01-05 03:59:11.61	242.11	14.88	-40.7	-42.1	25.9	3.04e+01	92	24	0	255328256	60	6646
2026-01-05 03:59:14.64	242.75	15.06	-40.4	-41.8	26.0	3.04e+01	92	24	0	261095424	60	6383
2026-01-05 03:59:17.68	243.40	15.24	-40.6	-42.0	26.3	3.04e+01	91	24	0	266862592	60	6547
2026-01-05 03:59:20.71	244.06	15.42	-40.9	-42.3	26.4	3.04e+01	88	24	0	272629760	60	6748
2026-01-05 03:59:23.74	244.73	15.60	-40.5	-41.9	26.6	3.04e+01	92	24	0	278396928	60	6458
2026-01-05 03:59:26.78	245.41	15.77	-40.3	-41.7	26.7	3.04e+01	92	24	0	283639808	60	6337
2026-01-05 03:59:29.81	246.09	15.94	-39.8	-41.2	27.0	3.04e+01	90	24	0	289406976	60	5937
2026-01-05 03:59:32.84	246.78	16.11	-39.7	-41.1	27.0	3.04e+01	92	24	0	295174144	60	5874
2026-01-05 03:59:35.88	247.48	16.28	-39.0	-40.4	27.6	3.04e+01	90	24	0	300941312	58	6065
2026-01-05 03:59:38.91	248.19	16.44	-39.0	-40.3	27.7	3.04e+01	92	24	0	306708480	58	5999
2026-01-05 03:59:41.94	248.91	16.60	-39.0	-40.3	27.7	3.04e+01	90	24	0	311951360	58	6022
2026-01-05 03:59:44.97	249.63	16.76	-38.5	-39.8	27.9	3.04e+01	92	24	0	317718528	58	5690
2026-01-05 03:59:48.01	250.36	16.92	-38.3	-39.6	28.3	3.04e+01	92	24	0	323485696	56	6233
2026-01-05 03:59:51.04	251.10	17.07	-38.1	-39.4	28.4	3.04e+01	91	24	0	329252864	56	6067
2026-01-05 03:59:54.07	251.85	17.22	-37.8	-39.0	28.7	3.04e+01	92	24	0	335020032	56	5839
2026-01-05 03:59:57.10	252.60	17.36	-37.9	-39.2	28.8	3.04e+01	92	24	0	340787200	56	5932
2026-01-05 04:00:00.13	253.36	17.50	-37.7	-38.9	28.9	3.04e+01	92	24	0	346554368	56	5742
2026-01-05 04:00:03.16	254.13	17.64	-37.6	-38.9	29.0	3.04e+01	92	24	0	351797248	56	5729
2026-01-05 04:00:06.20	254.91	17.78	-37.5	-38.7	29.2	3.04e+01	92	24	0	357564416	56	5655
2026-01-05 04:00:09.23	255.69	17.90	-37.4	-38.6	29.1	3.04e+01	92	24	0	363331584	54	6275
2026-01-05 04:00:12.27	256.49	18.03	-37.4	-38.6	29.2	3.04e+01	91	24	0	369098752	54	6250
2026-01-05 04:00:15.30	257.28	18.15	-37.3	-38.5	29.3	3.04e+01	91	24	0	374865920	54	6152
2026-01-05 04:00:18.33	258.08	18.27	-37.6	-38.8	28.9	3.04e+01	91	24	0	380633088	54	6406
2026-01-05 04:00:21.36	258.89	18.38	-37.8	-39.0	29.0	3.04e+01	92	24	0	386400256	54	6563
2026-01-05 04:00:24.40	259.71	18.48	-38.2	-39.4	28.2	3.04e+01	92	24	0	391643136	56	6129
2026-01-05 04:00:27.43	260.53	18.59	-37.6	-38.8	29.2	3.04e+01	90	24	0	397410304	56	5705
2026-01-05 04:00:30.46	261.36	18.68	-37.5	-38.7	29.2	3.04e+01	92	24	0	403177472	56	5659
2026-01-05 04:00:33.49	262.19	18.77	-37.4	-38.6	29.3	3.04e+01	90	24	0	408944640	54	6264
2026-01-05 04:00:36.53	263.03	18.86	-37.6	-38.9	29.2	3.04e+01	92	24	0	414711808	54	6431
2026-01-05 04:00:39.56	263.87	18.94	-37.7	-38.9	29.1	3.04e+01	90	24	0	420478976	56	5770
2026-01-05 04:00:42.59	264.71	19.01	-37.4	-38.6	29.3	3.04e+01	91	24	0	426246144	54	6269
2026-01-05 04:00:45.63	265.56	19.08	-37.7	-38.9	29.1	3.04e+01	92	24	0	431489024	54	6444
2026-01-05 04:00:48.66	266.42	19.15	-37.7	-38.9	29.4	3.04e+01	91	24	0	437256192	56	5743
2026-01-05 04:00:51.69	267.27	19.20	-37.7	-38.9	29.2	3.04e+01	92	24	0	443023360	56	5761
2026-01-05 04:00:54.72	268.13	19.25	-37.6	-38.8	29.3	3.04e+01	92	24	0	448790528	56	5666
2026-01-05 04:00:57.76	269.00	19.30	-38.5	-39.7	28.5	3.04e+01	91	24	0	454557696	56	6312
2026-01-05 04:01:00.79	269.86	19.34	-38.3	-39.5	28.8	3.04e+01	92	24	0	459800576	56	6171
2026-01-05 04:01:03.82	270.73	19.37	-38.1	-39.3	28.9	3.04e+01	90	24	0	465567744	56	6062
2026-01-05 04:01:06.86	271.60	19.40	-37.8	-39.0	28.9	3.04e+01	92	24	0	471334912	56	5839
2026-01-05 04:01:09.89	272.47	19.42	-38.0	-39.2	28.9	3.04e+01	90	24	0	477102080	56	5959
2026-01-05 04:01:12.92	273.34	19.44	-38.1	-39.3	29.0	3.04e+01	91	24	0	482869248	56	6022
2026-01-05 04:01:15.96	274.21	19.44	-37.5	-38.7	29.3	3.04e+01	85	24	0	488636416	56	5637
2026-01-05 04:01:18.99	275.09	19.45	-37.4	-38.6	29.4	3.04e+01	92	24	0	494403584	56	5573
2026-01-05 04:01:22.02	275.96	19.44	-37.5	-38.7	29.3	3.04e+01	92	24	0	499646464	56	5631
2026-01-05 04:01:25.06	276.83	19.43	-38.2	-39.5	28.6	3.04e+01	92	24	0	505413632	56	6146
2026-01-05 04:01:28.09	277.70	19.41	-38.6	-39.8	28.7	3.04e+01	92	24	0	511180800	56	6389
2026-01-05 04:01:31.12	278.57	19.39	-38.2	-39.5	29.2	3.04e+01	89	24	0	516947968	56	6140
2026-01-05 04:01:34.15	279.44	19.36	-37.7	-38.9	29.2	3.04e+01	90	24	0	522715136	56	5731
2026-01-05 04:01:37.19	280.31	19.33	-38.0	-39.2	28.9	3.04e+01	92	24	0	528482304	56	5989
2026-01-05 04:01:40.22	281.17	19.29	-38.1	-39.4	28.8	3.04e+01	92	24	0	534249472	56	6081
2026-01-05 04:01:43.26	282.03	19.24	-39.3	-40.5	27.7	3.04e+01	92	24	0	539492352	56	6959
2026-01-05 04:01:46.29	282.89	19.19	-38.2	-39.5	28.7	3.04e+01	92	24	0	545259520	56	6166
2026-01-05 04:01:49.32	283.74	19.13	-38.9	-40.2	28.7	3.04e+01	92	24	0	551026688	56	6703
2026-01-05 04:01:52.35	284.59	19.06	-38.0	-39.2	29.1	3.04e+01	92	24	0	556793856	56	5993
2026-01-05 04:01:55.39	285.44	18.99	-37.9	-39.1	29.2	3.04e+01	90	24	0	562561024	56	5882
2026-01-05 04:01:58.42	286.28	18.91	-37.8	-39.0	29.2	3.04e+01	92	24	0	568328192	56	5800
2026-01-05 04:02:01.46	287.12	18.83	-37.5	-38.7	29.4	3.04e+01	90	24	0	574095360	56	5646
2026-01-05 04:02:04.49	287.96	18.74	-37.6	-38.8	29.3	3.04e+01	92	24	0	579338240	54	6392
2026-01-05 04:02:07.52	288.78	18.65	-37.6	-38.8	29.1	3.04e+01	92	24	0	585105408	54	6375
2026-01-05 04:02:10.56	289.61	18.55	-37.3	-38.5	29.4	3.04e+01	89	24	0	590872576	54	6154
2026-01-05 04:02:13.59	290.42	18.45	-37.5	-38.7	29.2	3.04e+01	92	24	0	596639744	54	6310
2026-01-05 04:02:16.62	291.23	18.34	-37.3	-38.5	29.5	3.04e+01	91	24	0	602406912	54	6137
2026-01-05 04:02:19.66	292.04	18.23	-37.4	-38.6	29.3	3.04e+01	91	24	0	608174080	54	6217
2026-01-05 04:02:22.69	292.84	18.12	-37.4	-38.6	29.3	3.04e+01	92	24	0	613416960	54	6264
2026-01-05 04:02:25.72	293.63	17.99	-37.6	-38.9	29.2	3.04e+01	92	24	0	619184128	54	6428
2026-01-05 04:02:28.76	294.42	17.87	-37.4	-38.5	29.3	3.04e+01	88	24	0	624951296	54	6199
2026-01-05 04:02:31.79	295.19	17.74	-37.7	-38.9	29.4	3.04e+01	91	24	0	630718464	54	6438
2026-01-05 04:02:34.82	295.97	17.60	-37.4	-38.6	29.5	3.04e+01	92	24	0	636485632	54	6250
2026-01-05 04:02:37.85	296.73	17.47	-37.8	-39.0	29.3	3.04e+01	92	24	0	642252800	54	6519
2026-01-05 04:02:40.89	297.49	17.32	-37.6	-38.8	29.1	3.04e+01	92	24	0	647495680	54	6392
2026-01-05 04:02:43.92	298.24	17.18	-37.5	-38.7	29.5	3.04e+01	92	24	0	653262848	54	6306
2026-01-05 04:02:46.96	298.98	17.03	-37.3	-38.5	29.3	3.04e+01	90	24	0	659030016	54	6182
2026-01-05 04:02:49.99	299.71	16.88	-37.5	-38.7	29.4	3.04e+01	57	24	0	664797184	54	6283
2026-01-05 04:02:53.02	300.44	16.72	-37.5	-38.7	29.6	3.04e+01	62	24	0	670564352	54	6289
2026-01-05 04:02:56.05	301.16	16.57	-37.3	-38.5	29.7	3.04e+01	59	24	0	676331520	54	6171
2026-01-05 04:02:59.09	301.87	16.40	-37.4	-38.6	29.5	3.04e+01	60	24	0	682098688	54	6269
2026-01-05 04:03:02.12	302.57	16.24	-37.2	-38.4	29.7	3.04e+01	60	24	0	687341568	54	6097
2026-01-05 04:03:05.15	303.26	16.07	-37.5	-38.7	29.4	3.04e+01	55	24	0	693108736	54	6333
2026-01-05 04:03:08.19	303.95	15.90	-36.9	-38.1	29.7	3.04e+01	38	24	0	698875904	54	5901
2026-01-05 04:03:11.22	304.63	15.73	-37.2	-38.4	29.6	3.04e+01	60	24	0	704643072	54	6130
2026-01-05 04:03:14.25	305.30	15.56	-37.2	-38.4	29.5	3.04e+01	62	24	0	710410240	54	6094
2026-01-05 04:03:17.28	305.96	15.38	-37.4	-38.6	29.6	3.04e+01	60	24	0	716177408	54	6269
2026-01-05 04:03:20.32	306.62	15.21	-37.3	-38.5	29.7	3.04e+01	60	24	0	721944576	54	6187
2026-01-05 04:03:23.35	307.26	15.03	-38.0	-39.2	29.4	3.04e+01	59	24	0	727187456	54	6658
2026-01-05 04:03:26.38	307.90	14.85	-37.5	-38.7	29.3	3.04e+01	60	24	0	732954624	56	5658
2026-01-05 04:03:29.42	308.53	14.66	-37.7	-38.9	29.3	3.04e+01	50	24	0	738721792	56	5777
2026-01-05 04:03:32.45	309.15	14.48	-37.6	-38.8	29.3	3.04e+01	58	24	0	744488960	56	5684
2026-01-05 04:03:35.48	309.76	14.29	-38.2	-39.4	29.0	3.04e+01	61	24	0	750256128	56	6068
2026-01-05 04:03:38.52	310.37	14.11	-37.7	-38.9	29.4	3.04e+01	58	24	0	756023296	56	5736
2026-01-05 04:03:41.55	310.97	13.92	-37.7	-38.9	29.5	3.04e+01	57	24	0	761790464	56	5734
2026-01-05 04:03:44.58	311.56	13.73	-37.8	-39.1	29.1	3.04e+01	57	24	0	767033344	56	5881
2026-01-05 04:03:47.62	312.14	13.54	-37.1	-38.3	29.5	3.04e+01	62	24	0	772800512	54	6036
2026-01-05 04:03:50.65	312.71	13.35	-37.4	-38.6	29.6	3.04e+01	48	24	0	778567680	54	6255
2026-01-05 04:03:53.68	313.28	13.16	-37.4	-38.6	29.5	3.04e+01	45	24	0	784334848	54	6274
2026-01-05 04:03:56.72	313.84	12.97	-37.9	-39.2	29.4	3.04e+01	59	24	0	790102016	56	5930
2026-01-05 04:03:59.75	314.39	12.77	-38.1	-39.4	29.0	3.04e+01	59	24	0	795869184	56	6082
2026-01-05 04:04:02.78	314.93	12.58	-37.7	-39.0	29.1	3.04e+01	60	24	0	801112064	56	5817
2026-01-05 04:04:05.82	315.47	12.39	-37.9	-39.2	29.1	3.04e+01	57	24	0	806879232	54	6688
2026-01-05 04:04:08.85	316.00	12.19	-37.6	-38.8	29.1	3.04e+01	57	24	0	812646400	54	6418
2026-01-05 04:04:11.88	316.52	12.00	-37.6	-38.8	29.5	3.04e+01	59	24	0	818413568	54	6414
2026-01-05 04:04:14.92	317.03	11.80	-37.2	-38.4	29.6	3.04e+01	48	24	0	824180736	54	6083
2026-01-05 04:04:17.95	317.54	11.61	-37.4	-38.6	29.5	3.04e+01	60	24	0	829947904	54	6209
2026-01-05 04:04:20.98	318.04	11.41	-37.1	-38.3	29.6	3.04e+01	60	24	0	835190784	54	6021
2026-01-05 04:04:24.01	318.53	11.22	-37.8	-39.1	29.4	3.04e+01	58	24	0	840957952	54	6579
2026-01-05 04:04:27.05	319.02	11.02	-37.5	-38.7	29.1	3.04e+01	63	24	0	846725120	54	6329
2026-01-05 04:04:30.08	319.50	10.83	-38.6	-39.9	29.0	3.04e+01	59	24	0	852492288	56	6424
2026-01-05 04:04:33.12	319.98	10.63	-38.7	-39.9	28.8	3.04e+01	46	24	0	858259456	56	6470
2026-01-05 04:04:36.15	320.44	10.44	-38.0	-39.2	29.0	3.04e+01	45	24	0	864026624	56	5946
2026-01-05 04:04:39.18	320.90	10.24	-38.1	-39.4	29.3	3.04e+01	59	24	0	869793792	56	6076
2026-01-05 04:04:42.21	321.36	10.05	-38.5	-39.7	28.6	3.04e+01	59	24	0	875036672	56	6322
2026-01-05 04:04:45.25	321.80	9.86	-37.8	-39.0	29.4	3.04e+01	58	24	0	880803840	56	5795
2026-01-05 04:04:48.28	322.25	9.66	-38.1	-39.3	29.1	3.04e+01	60	24	0	886571008	56	6012
2026-01-05 04:04:51.31	322.68	9.47	-38.7	-39.9	28.5	3.04e+01	61	24	0	892338176	56	6468
2026-01-05 04:04:54.34	323.11	9.28	-38.4	-39.6	29.1	3.04e+01	55	24	0	898105344	56	6251
2026-01-05 04:04:57.38	323.53	9.08	-38.2	-39.4	28.7	3.04e+01	52	24	0	903872512	56	6108
2026-01-05 04:05:00.41	323.95	8.89	-38.2	-39.4	29.1	3.04e+01	54	24	0	909639680	56	6132
2026-01-05 04:05:03.44	324.36	8.70	-38.3	-39.5	28.7	3.04e+01	57	24	0	914882560	56	6192
2026-01-05 04:05:06.48	324.77	8.51	-38.5	-39.8	28.7	3.04e+01	60	24	0	920649728	56	6355
2026-01-05 04:05:09.51	325.17	8.32	-38.2	-39.5	28.7	3.04e+01	61	24	0	926416896	56	6151
2026-01-05 04:05:12.54	325.56	8.13	-38.4	-39.7	28.5	3.04e+01	57	24	0	932184064	56	6289
2026-01-05 04:05:15.58	325.96	7.93	-38.9	-40.1	28.2	3.04e+01	60	24	0	937951232	56	6648
2026-01-05 04:05:18.61	326.34	7.75	-39.3	-40.6	27.8	3.04e+01	51	24	0	943718400	58	6221
2026-01-05 04:05:21.64	326.72	7.56	-39.2	-40.4	28.6	3.04e+01	56	24	0	948961280	58	6109
2026-01-05 04:05:24.67	327.09	7.37	-39.7	-41.0	28.3	3.04e+01	60	24	0	954728448	58	6551
2026-01-05 04:05:27.71	327.46	7.18	-39.2	-40.4	28.4	3.04e+01	60	24	0	960495616	58	6131
2026-01-05 04:05:30.74	327.83	6.99	-39.3	-40.6	27.3	3.04e+01	61	24	0	966262784	60	5558
2026-01-05 04:05:33.77	328.19	6.81	-39.0	-40.3	27.9	3.04e+01	57	24	0	972029952	58	6059
2026-01-05 04:05:36.81	328.54	6.62	-40.2	-41.5	27.8	3.04e+01	60	24	0	977797120	60	6164
2026-01-05 04:05:39.84	328.89	6.44	-39.4	-40.7	27.8	3.04e+01	46	24	0	983040000	58	6303
2026-01-05 04:05:42.87	329.24	6.25	-38.4	-39.7	28.4	3.04e+01	45	24	0	988807168	58	5596
2026-01-05 04:05:45.91	329.58	6.07	-38.5	-39.7	28.3	3.04e+01	57	24	0	994574336	56	6323
2026-01-05 04:05:48.94	329.92	5.89	-38.4	-39.7	28.2	3.04e+01	60	24	0	1000341504	56	6315
2026-01-05 04:05:51.97	330.25	5.70	-37.9	-39.2	28.4	3.04e+01	59	24	0	1006108672	56	5939
2026-01-05 04:05:55.01	330.58	5.52	-38.2	-39.5	28.3	3.04e+01	59	24	0	1011875840	56	6163
2026-01-05 04:05:58.04	330.90	5.34	-38.5	-39.7	28.2	3.04e+01	59	24	0	1017118720	56	6345
2026-01-05 04:06:01.07	331.22	5.16	-39.8	-41.1	27.3	3.04e+01	46	24	0	1022885888	58	6613
2026-01-05 04:06:04.11	331.54	4.98	-38.9	-40.2	27.8	3.04e+01	50	24	0	1028653056	58	5948
2026-01-05 04:06:07.14	331.85	4.80	-39.5	-40.8	27.9	3.04e+01	59	24	0	1034420224	58	6407
2026-01-05 04:06:10.17	332.15	4.62	-39.1	-40.4	27.8	3.04e+01	57	24	0	1040187392	58	6088
2026-01-05 04:06:13.21	332.46	4.45	-38.9	-49.1	3.6	3.04e+01	0	24	104	1044381696	58	16655
2026-01-05 04:06:16.24	332.76	4.27	-40.4	-50.9	3.4	3.04e+01	0	24	104	1044381696	58	20442
2026-01-05 04:06:19.27	333.05	4.09	-50.4	-67.1	3.4	3.04e+01	0	24	104	1044381696	60	117413
2026-01-05 04:06:22.31	333.35	3.92	-43.9	-54.6	4.0	3.04e+01	0	24	104	1044381696	60	27822
2026-01-05 04:06:25.34	333.64	3.74	-43.9	-54.7	4.0	3.04e+01	0	24	104	1044381696	60	28353
2026-01-05 04:06:28.37	333.92	3.57	-51.1	-67.7	3.5	3.04e+01	0	24	104	1044381696	60	125910
2026-01-05 04:06:31.41	334.20	3.39	-41.0	-51.4	3.6	3.04e+01	0	24	104	1044381696	60	19301
2026-01-05 04:06:34.44	334.48	3.22	-42.7	-53.3	3.6	3.04e+01	0	24	104	1044381696	60	24073
2026-01-05 04:06:37.47	334.76	3.05	-45.1	-56.1	3.5	3.04e+01	0	24	104	1044381696	60	33308
2026-01-05 04:06:40.51	335.03	2.88	-40.6	-51.0	3.5	3.04e+01	0	24	104	1044381696	60	18357
2026-01-05 04:06:43.54	335.30	2.71	-43.9	-54.7	3.5	3.04e+01	0	24	104	1044381696	60	28343
2026-01-05 04:06:46.57	335.56	2.54	-49.8	-65.0	3.5	3.04e+01	0	24	104	1044381696	60	92084
2026-01-05 04:06:49.60	335.82	2.37	-42.7	-53.3	3.5	3.04e+01	0	24	104	1044381696	60	23985
2026-01-05 04:06:52.63	336.08	2.20	-40.8	-51.2	3.5	3.04e+01	0	24	104	1044381696	60	18838
2026-01-05 04:06:55.66	336.34	2.03	-42.1	-52.9	3.5	3.04e+01	0	24	104	1044381696	60	22862
2026-01-05 04:06:58.70	336.59	1.87	-42.2	-52.9	3.5	3.04e+01	0	24	104	1044381696	60	22862
2026-01-05 04:07:01.73	336.84	1.70	-42.6	-53.4	3.5	3.04e+01	0	24	104	1044381696	60	24373
2026-01-05 04:07:04.76	337.09	1.54	-45.3	-58.6	3.5	3.04e+01	0	24	104	1044381696	60	44225
2026-01-05 04:07:07.79	337.33	1.37	-46.3	-61.9	3.5	3.04e+01	0	24	104	1044381696	60	64745
2026-01-05 04:07:10.82	337.57	1.21	-46.4	-63.4	3.5	3.04e+01	0	24	104	1044381696	60	76697
2026-01-05 04:07:13.86	337.81	1.04	-47.8	-65.3	3.5	3.04e+01	0	24	104	1044381696	60	96084
2026-01-05 04:07:16.89	338.05	0.88	-48.1	-66.0	3.5	3.04e+01	0	24	104	1044381696	60	103518
2026-01-05 04:07:19.92	338.28	0.72	-47.5	-65.5	3.5	3.04e+01	0	24	104	1044381696	60	97331
2026-01-05 04:07:22.95	338.51	0.56	-46.8	-64.7	3.5	3.04e+01	0	24	104	1044381696	60	89041
2026-01-05 04:07:25.99	338.74	0.39	-46.4	-64.2	3.5	3.04e+01	0	24	104	1044381696	60	84528
2026-01-05 04:07:29.02	338.97	0.23	-50.4	-68.4	3.5	3.04e+01	0	24	104	1044381696	60	137194
2026-01-05 04:07:32.05	339.19	0.07	-51.6	-69.4	3.5	3.04e+01	0	24	104	1044381696	60	153886

#Closed at: 2026-01-05 04:07:34
#Recorded file [1044 MB]: D:/lorett/data/35034_260105_065508.dat