passes_logs/2026/01/05/R4.6S_Anadyr_2ch/R4.6S_Anadyr_2ch__20260105_003912_AQUA_rec.log

#Pass ID: 20260105_003912_AQUA
#Satellite: AQUA
#Configuration: AQUA
#almurnet v.1.7.20251203
#Start time: 2026-01-05 00:39:13

#Version: 2.2.20231116
#Station: R4.6S_Anadyr_2ch
#Location: 177.4865 lon 64.73178 lat
#TLE: 1 27424U 02022A   25351.00450321  .00000925  00000+0  19503-3 0  9992
#TLE: 2 27424  98.4041 311.9529 0001248 113.7180 322.1616 14.61819266256652

#Time	Az	El	Level	Level2	SNR	BER	BlckErr	Temp	State	Recorded	gain1	gain2
2026-01-05 00:39:13.72	123.73	0.07	-51.5	-64.1	3.5	1.52e+00	0	26	0	0	60	76255
2026-01-05 00:39:17.76	123.57	0.31	-52.3	-70.0	3.5	3.03e+01	0	27	104	0	60	164756
2026-01-05 00:39:21.80	123.41	0.55	-51.8	-69.7	3.5	3.03e+01	0	27	104	0	60	157868
2026-01-05 00:39:25.84	123.24	0.80	-52.6	-70.4	3.5	3.03e+01	0	27	104	0	60	172280
2026-01-05 00:39:29.89	123.07	1.05	-52.3	-70.1	3.5	3.03e+01	0	27	104	0	60	166764
2026-01-05 00:39:33.93	122.90	1.30	-52.2	-70.0	3.5	3.03e+01	0	28	104	0	60	164003
2026-01-05 00:39:37.98	122.72	1.55	-51.6	-69.4	3.5	3.03e+01	0	28	104	0	60	153345
2026-01-05 00:39:42.02	122.55	1.81	-52.0	-69.8	3.5	3.03e+01	0	28	104	0	60	160486
2026-01-05 00:39:46.07	122.36	2.06	-51.6	-69.5	3.5	3.03e+01	0	28	104	0	60	154236
2026-01-05 00:39:50.11	122.18	2.32	-52.3	-70.1	3.5	3.03e+01	0	28	104	0	60	166814
2026-01-05 00:39:54.15	121.99	2.58	-52.6	-70.5	3.5	3.03e+01	0	28	104	0	60	173469
2026-01-05 00:39:58.19	121.79	2.85	-52.4	-70.3	3.5	3.03e+01	0	28	104	0	60	169148
2026-01-05 00:40:02.23	121.60	3.11	-52.6	-70.5	3.5	3.03e+01	0	28	104	0	60	173255
2026-01-05 00:40:06.27	121.39	3.38	-52.0	-69.7	3.5	3.03e+01	0	28	104	0	60	158424
2026-01-05 00:40:10.31	121.19	3.65	-51.8	-69.7	3.5	3.03e+01	0	28	104	0	60	158757
2026-01-05 00:40:14.36	120.98	3.93	-51.3	-69.1	3.5	3.03e+01	0	28	104	0	60	147448
2026-01-05 00:40:18.40	120.76	4.20	-50.1	-68.0	3.5	3.03e+01	0	28	104	0	60	130601
2026-01-05 00:40:22.44	120.54	4.48	-50.0	-67.8	3.5	3.03e+01	0	28	104	0	60	127711
2026-01-05 00:40:26.49	120.31	4.76	-50.1	-67.9	3.5	3.03e+01	0	28	104	0	60	128639
2026-01-05 00:40:30.53	120.08	5.05	-50.0	-67.9	3.5	3.03e+01	0	28	104	0	60	128702
2026-01-05 00:40:34.58	119.85	5.34	-50.0	-67.8	3.5	3.03e+01	0	28	104	0	60	127765
2026-01-05 00:40:38.62	119.61	5.63	-50.0	-67.7	3.5	3.03e+01	0	28	104	0	60	125403
2026-01-05 00:40:42.67	119.36	5.92	-50.0	-67.7	3.5	3.03e+01	0	28	104	0	60	126617
2026-01-05 00:40:46.71	119.11	6.22	-50.0	-67.8	3.5	3.03e+01	0	28	104	0	60	126907
2026-01-05 00:40:50.75	118.85	6.52	-50.0	-67.8	3.5	3.03e+01	0	28	104	0	60	127791
2026-01-05 00:40:54.80	118.58	6.83	-49.9	-67.5	3.5	3.03e+01	0	28	104	0	60	123758
2026-01-05 00:40:58.84	118.31	7.14	-46.1	-57.9	3.5	3.03e+01	0	28	104	0	60	40912
2026-01-05 00:41:02.88	118.04	7.45	-49.7	-67.1	3.5	3.03e+01	0	28	104	0	60	118159
2026-01-05 00:41:06.93	117.75	7.76	-41.8	-52.4	3.5	3.03e+01	0	28	104	0	60	21738
2026-01-05 00:41:10.97	117.46	8.08	-48.3	-61.7	3.5	3.03e+01	0	28	104	0	60	63300
2026-01-05 00:41:15.01	117.16	8.41	-41.8	-52.4	3.5	3.03e+01	0	28	104	0	60	21665
2026-01-05 00:41:19.05	116.85	8.73	-50.1	-66.7	3.5	3.03e+01	0	28	104	0	60	112309
2026-01-05 00:41:23.09	116.54	9.06	-43.0	-53.8	3.5	3.03e+01	0	28	104	0	60	25549
2026-01-05 00:41:27.14	116.22	9.40	-39.2	-49.5	3.5	3.03e+01	0	28	104	0	58	17420
2026-01-05 00:41:31.18	115.89	9.74	-50.1	-68.3	3.5	3.03e+01	0	28	104	0	60	134549
2026-01-05 00:41:35.23	115.55	10.08	-40.3	-50.7	3.5	3.03e+01	0	28	104	0	60	17875
2026-01-05 00:41:39.27	115.20	10.43	-50.6	-68.3	3.5	3.03e+01	0	28	104	0	60	135168
2026-01-05 00:41:43.32	114.84	10.78	-43.0	-53.8	3.5	3.03e+01	0	28	104	0	60	25351
2026-01-05 00:41:47.36	114.47	11.14	-44.1	-55.0	3.5	3.03e+01	0	28	104	0	60	29248
2026-01-05 00:41:51.40	114.09	11.50	-39.5	-49.8	3.5	3.03e+01	0	28	104	0	58	18003
2026-01-05 00:41:55.44	113.70	11.87	-39.2	-49.6	3.5	3.03e+01	0	28	104	0	58	17529
2026-01-05 00:41:59.49	113.30	12.24	-49.2	-63.0	3.6	3.03e+01	0	28	104	0	60	73171
2026-01-05 00:42:03.53	112.89	12.62	-45.2	-56.4	3.5	3.03e+01	0	28	104	0	60	34236
2026-01-05 00:42:07.57	112.47	13.00	-44.9	-56.0	3.6	3.03e+01	0	28	104	0	60	32828
2026-01-05 00:42:11.61	112.03	13.38	-38.9	-49.1	3.6	3.03e+01	0	28	104	0	58	16665
2026-01-05 00:42:15.65	111.59	13.78	-47.3	-59.5	3.5	3.03e+01	0	28	104	0	60	49249
2026-01-05 00:42:19.70	111.12	14.17	-43.4	-54.2	3.5	3.03e+01	0	28	104	0	60	26526
2026-01-05 00:42:23.75	110.65	14.58	-50.6	-68.1	3.5	3.03e+01	0	28	104	0	60	132032
2026-01-05 00:42:27.79	110.16	14.99	-39.0	-49.3	3.5	3.03e+01	0	28	104	0	58	16931
2026-01-05 00:42:31.83	109.66	15.40	-40.4	-50.8	3.5	3.03e+01	0	28	104	0	56	22580
2026-01-05 00:42:35.88	109.13	15.82	-39.0	-49.3	3.5	3.03e+01	0	28	104	0	60	15183
2026-01-05 00:42:39.92	108.60	16.25	-48.4	-61.5	3.5	3.03e+01	0	28	104	0	60	61513
2026-01-05 00:42:43.96	108.05	16.68	-50.7	-68.0	3.5	3.03e+01	0	28	104	0	60	130454
2026-01-05 00:42:48.01	107.48	17.11	-43.3	-54.0	3.5	3.03e+01	0	28	104	0	60	25873
2026-01-05 00:42:52.05	106.89	17.56	-44.6	-55.6	3.5	3.03e+01	0	28	104	0	60	31449
2026-01-05 00:42:56.09	106.28	18.00	-43.1	-53.8	3.5	3.03e+01	0	28	104	0	60	25411
2026-01-05 00:43:00.14	105.65	18.46	-50.6	-67.7	3.5	3.03e+01	0	28	104	0	60	126155
2026-01-05 00:43:04.18	105.00	18.92	-37.1	-47.3	3.5	3.03e+01	0	28	104	0	54	16997
2026-01-05 00:43:08.22	104.34	19.38	-40.8	-51.2	3.5	3.03e+01	0	28	104	0	60	18885
2026-01-05 00:43:12.27	103.64	19.86	-42.2	-52.8	3.5	3.03e+01	0	28	104	0	60	22575
2026-01-05 00:43:16.31	102.93	20.33	-49.3	-63.5	3.5	3.03e+01	0	28	104	0	60	78124
2026-01-05 00:43:20.35	102.19	20.82	-40.0	-50.4	3.5	3.03e+01	0	28	104	0	60	17129
2026-01-05 00:43:24.40	101.42	21.30	-41.1	-51.5	3.5	3.03e+01	0	28	104	0	60	19577
2026-01-05 00:43:28.44	100.63	21.80	-41.3	-51.8	3.6	3.03e+01	0	28	104	0	56	25304
2026-01-05 00:43:32.49	99.81	22.29	-37.5	-47.7	3.5	3.03e+01	0	28	104	0	56	15941
2026-01-05 00:43:36.53	98.97	22.79	-43.4	-54.2	3.6	3.03e+01	0	28	104	0	60	26502
2026-01-05 00:43:40.57	98.09	23.30	-37.3	-47.6	3.6	3.03e+01	0	28	104	0	54	17494
2026-01-05 00:43:44.61	97.19	23.81	-47.7	-59.9	3.4	3.03e+01	0	28	104	0	60	51083
2026-01-05 00:43:48.66	96.25	24.32	-41.0	-51.4	3.5	3.03e+01	0	28	104	0	60	19368
2026-01-05 00:43:52.70	95.28	24.83	-37.5	-47.7	3.5	3.03e+01	0	28	104	0	54	17841
2026-01-05 00:43:56.74	94.28	25.35	-38.1	-48.4	3.5	3.03e+01	0	29	104	0	56	17140
2026-01-05 00:44:00.78	93.24	25.87	-46.7	-58.3	3.5	3.03e+01	0	28	104	0	60	42508
2026-01-05 00:44:04.83	92.16	26.38	-50.9	-68.5	3.5	3.03e+01	0	29	104	0	60	138123
2026-01-05 00:44:08.87	91.05	26.90	-43.6	-54.4	3.5	3.03e+01	0	29	104	0	60	27113
2026-01-05 00:44:12.91	89.90	27.42	-50.7	-66.9	3.5	3.03e+01	0	28	104	0	60	114313
2026-01-05 00:44:16.96	88.71	27.93	-40.3	-50.6	3.5	3.03e+01	0	29	104	0	58	19669
2026-01-05 00:44:21.00	87.48	28.44	-50.4	-67.0	3.5	3.03e+01	0	29	104	0	60	116575
2026-01-05 00:44:25.04	86.21	28.94	-37.7	-47.9	3.5	3.03e+01	0	28	104	0	56	16315
2026-01-05 00:44:29.09	84.89	29.44	-39.9	-50.2	3.5	3.03e+01	0	28	104	0	58	18851
2026-01-05 00:44:33.13	83.54	29.93	-38.6	-48.8	3.5	3.03e+01	0	28	104	0	58	16098
2026-01-05 00:44:37.17	82.14	30.42	-50.3	-66.7	3.5	3.03e+01	0	29	104	0	60	112450
2026-01-05 00:44:41.22	80.69	30.89	-51.1	-68.0	3.5	3.03e+01	0	29	104	0	60	130014
2026-01-05 00:44:45.26	79.21	31.34	-40.1	-50.5	3.5	3.03e+01	0	29	104	0	60	17397
2026-01-05 00:44:49.30	77.68	31.79	-37.7	-47.9	3.5	3.03e+01	0	29	104	0	58	14440
2026-01-05 00:44:53.34	76.11	32.21	-37.7	-47.9	3.5	3.03e+01	0	28	104	0	56	16279
2026-01-05 00:44:57.38	74.50	32.62	-48.9	-62.3	3.6	3.03e+01	0	28	104	0	60	67438
2026-01-05 00:45:01.43	72.84	33.01	-36.9	-47.1	3.5	3.03e+01	0	28	104	0	54	16657
2026-01-05 00:45:05.47	71.14	33.38	-41.8	-52.2	3.5	3.03e+01	0	29	104	0	58	23778
2026-01-05 00:45:09.51	69.41	33.72	-40.1	-50.4	3.5	3.03e+01	0	29	104	0	60	17272
2026-01-05 00:45:13.55	67.64	34.04	-36.9	-47.1	3.5	3.03e+01	0	28	104	0	54	16646
2026-01-05 00:45:17.60	65.83	34.33	-41.5	-52.0	3.5	3.03e+01	0	28	104	0	60	20553
2026-01-05 00:45:21.64	64.00	34.59	-41.9	-52.5	3.5	3.03e+01	0	29	104	0	56	27443
2026-01-05 00:45:25.69	62.13	34.81	-49.0	-61.7	3.5	3.03e+01	0	29	104	0	60	63231
2026-01-05 00:45:29.73	60.24	35.01	-36.9	-47.2	3.5	3.03e+01	0	29	104	0	54	16718
2026-01-05 00:45:33.78	58.33	35.17	-40.9	-51.4	3.5	3.03e+01	0	29	104	0	60	19380
2026-01-05 00:45:37.82	56.40	35.29	-37.0	-47.3	3.5	3.03e+01	0	28	104	0	54	16953
2026-01-05 00:45:41.86	54.46	35.38	-50.6	-66.6	3.5	3.03e+01	0	29	104	0	60	110589
2026-01-05 00:45:45.90	52.52	35.44	-37.5	-47.8	3.5	3.03e+01	0	29	104	0	56	15999
2026-01-05 00:45:49.95	50.56	35.45	-38.5	-48.8	3.5	3.03e+01	0	29	104	0	54	20233
2026-01-05 00:45:53.99	48.61	35.43	-38.7	-49.0	3.5	3.03e+01	0	29	104	0	58	16360
2026-01-05 00:45:58.03	46.66	35.37	-45.1	-56.2	3.6	3.03e+01	0	29	104	0	60	33369
2026-01-05 00:46:02.08	44.72	35.28	-51.0	-68.0	3.5	3.03e+01	0	29	104	0	60	130061
2026-01-05 00:46:06.12	42.80	35.15	-41.1	-51.5	3.5	3.03e+01	0	29	104	0	60	19538
2026-01-05 00:46:10.16	40.89	34.98	-39.8	-50.2	3.5	3.03e+01	0	29	104	0	60	16875
2026-01-05 00:46:14.21	39.00	34.78	-37.8	-48.1	3.5	3.03e+01	0	29	104	0	56	16585
2026-01-05 00:46:18.25	37.15	34.55	-50.9	-67.7	3.5	3.03e+01	0	29	104	0	60	125663
2026-01-05 00:46:22.29	35.32	34.29	-37.6	-47.7	3.5	3.03e+01	0	29	104	0	56	15903
2026-01-05 00:46:26.34	33.52	34.00	-37.2	-38.4	29.5	3.03e+01	0	29	0	3670016	54	6112
2026-01-05 00:46:30.38	31.76	33.68	-37.3	-38.5	29.3	3.03e+01	0	29	0	11534336	54	6169
2026-01-05 00:46:34.43	30.03	33.33	-37.2	-38.5	29.4	3.03e+01	0	28	0	18874368	54	6166
2026-01-05 00:46:38.47	28.34	32.96	-37.1	-38.3	29.5	3.03e+01	0	29	0	26738688	54	6051
2026-01-05 00:46:42.52	26.69	32.57	-37.3	-38.5	29.4	3.03e+01	0	28	0	34078720	54	6200
2026-01-05 00:46:46.56	25.09	32.16	-37.3	-38.6	29.4	3.03e+01	0	29	0	41943040	54	6209
2026-01-05 00:46:50.61	23.53	31.73	-37.5	-38.8	29.2	3.03e+01	0	29	0	49283072	54	6362
2026-01-05 00:46:54.65	22.01	31.29	-37.4	-38.6	29.3	3.03e+01	0	29	0	57147392	54	6240
2026-01-05 00:46:58.69	20.53	30.83	-37.4	-38.6	29.3	3.03e+01	0	29	0	64487424	54	6226
2026-01-05 00:47:02.74	19.10	30.36	-37.3	-38.5	29.3	3.03e+01	0	29	0	72351744	54	6200
2026-01-05 00:47:06.78	17.71	29.88	-37.4	-38.6	29.3	3.03e+01	0	29	0	79691776	54	6222
2026-01-05 00:47:10.83	16.36	29.39	-37.1	-38.3	29.4	3.03e+01	0	29	0	87031808	54	6057
2026-01-05 00:47:14.87	15.06	28.89	-37.2	-38.4	29.4	3.03e+01	0	29	0	94896128	54	6117
2026-01-05 00:47:18.92	13.80	28.39	-37.9	-39.1	28.9	3.03e+01	0	29	0	102236160	54	6638
2026-01-05 00:47:22.96	12.58	27.88	-37.3	-38.5	29.3	3.03e+01	0	29	0	110100480	54	6160
2026-01-05 00:47:27.00	11.40	27.37	-37.1	-38.3	29.5	3.03e+01	0	29	0	117440512	54	6053
2026-01-05 00:47:31.05	10.25	26.85	-37.3	-38.5	29.4	3.03e+01	0	29	0	125304832	54	6157
2026-01-05 00:47:35.09	9.15	26.34	-37.4	-38.6	29.3	3.03e+01	0	28	0	132644864	54	6228
2026-01-05 00:47:39.14	8.08	25.82	-37.3	-38.5	29.4	3.03e+01	0	29	0	140509184	54	6149
2026-01-05 00:47:43.18	7.05	25.31	-37.2	-38.4	29.4	3.03e+01	0	29	0	147849216	54	6089
2026-01-05 00:47:47.23	6.06	24.79	-37.2	-38.4	29.4	3.03e+01	0	29	0	155713536	54	6090
2026-01-05 00:47:51.27	5.10	24.28	-37.4	-38.6	29.3	3.03e+01	0	29	0	163053568	54	6216
2026-01-05 00:47:55.32	4.16	23.77	-37.2	-38.4	29.4	3.03e+01	0	29	0	170917888	54	6099
2026-01-05 00:47:59.36	3.27	23.27	-37.8	-39.1	29.0	3.03e+01	0	29	0	178257920	54	6592
2026-01-05 00:48:03.40	2.40	22.76	-37.5	-38.7	29.1	3.03e+01	0	29	0	186122240	54	6341
2026-01-05 00:48:07.44	1.56	22.27	-37.4	-38.6	29.2	3.03e+01	0	29	0	193462272	54	6268
2026-01-05 00:48:11.48	0.75	21.77	-37.2	-38.4	29.5	3.03e+01	0	29	0	200802304	54	6123
2026-01-05 00:48:15.53	359.97	21.28	-37.3	-38.5	29.3	3.03e+01	0	29	0	208666624	54	6200
2026-01-05 00:48:19.57	359.21	20.80	-37.5	-38.8	29.1	3.03e+01	0	29	0	216006656	54	6356
2026-01-05 00:48:23.62	358.48	20.32	-37.3	-38.5	29.5	3.03e+01	0	29	0	223870976	54	6146
2026-01-05 00:48:27.66	357.77	19.84	-37.4	-38.6	29.3	3.03e+01	0	29	0	231211008	54	6276
2026-01-05 00:48:31.70	357.09	19.38	-37.5	-38.7	29.2	3.03e+01	0	29	0	239075328	54	6289
2026-01-05 00:48:35.75	356.42	18.91	-37.6	-38.9	29.1	3.03e+01	0	29	0	246415360	54	6434
2026-01-05 00:48:39.79	355.78	18.45	-37.7	-38.9	29.1	3.03e+01	0	29	0	254279680	54	6479
2026-01-05 00:48:43.84	355.16	18.00	-37.8	-39.0	28.9	3.03e+01	0	29	0	261619712	54	6531
2026-01-05 00:48:47.88	354.56	17.56	-37.5	-38.7	29.1	3.03e+01	0	29	0	269484032	54	6319
2026-01-05 00:48:51.93	353.97	17.12	-38.0	-39.2	28.7	3.03e+01	0	29	0	276824064	54	6685
2026-01-05 00:48:55.97	353.41	16.68	-37.3	-38.5	29.3	3.03e+01	0	29	0	284164096	54	6190
2026-01-05 00:49:00.01	352.86	16.25	-37.6	-38.8	29.0	3.03e+01	0	29	0	292028416	54	6387
2026-01-05 00:49:04.06	352.33	15.83	-37.4	-38.6	29.2	3.03e+01	0	29	0	299368448	54	6232
2026-01-05 00:49:08.10	351.81	15.41	-37.4	-38.6	29.2	3.03e+01	0	29	0	307232768	54	6262
2026-01-05 00:49:12.15	351.31	15.00	-37.5	-38.7	29.1	3.03e+01	0	29	0	314572800	54	6288
2026-01-05 00:49:16.19	350.83	14.59	-37.2	-38.5	29.3	3.03e+01	0	29	0	322437120	54	6135
2026-01-05 00:49:20.23	350.36	14.19	-37.4	-38.6	29.2	3.03e+01	0	29	0	329777152	54	6249
2026-01-05 00:49:24.28	349.90	13.80	-37.2	-38.4	29.3	3.03e+01	0	29	0	337641472	54	6075
2026-01-05 00:49:28.32	349.46	13.41	-37.2	-38.4	29.2	3.03e+01	0	29	0	344981504	54	6080
2026-01-05 00:49:32.37	349.03	13.02	-37.5	-38.7	29.0	3.03e+01	0	29	0	352845824	54	6304
2026-01-05 00:49:36.41	348.61	12.64	-37.3	-38.5	29.2	3.03e+01	0	29	0	360185856	54	6156
2026-01-05 00:49:40.45	348.20	12.27	-37.2	-38.4	29.3	3.03e+01	0	29	0	368050176	54	6095
2026-01-05 00:49:44.50	347.81	11.90	-37.2	-38.4	29.2	3.03e+01	0	29	0	375390208	54	6114
2026-01-05 00:49:48.54	347.42	11.53	-37.7	-39.0	28.7	3.03e+01	0	29	0	383254528	54	6526
2026-01-05 00:49:52.59	347.05	11.17	-37.4	-38.6	29.0	3.03e+01	0	29	0	390594560	54	6258
2026-01-05 00:49:56.63	346.69	10.82	-37.4	-38.7	29.0	3.03e+01	0	29	0	397934592	54	6280
2026-01-05 00:50:00.67	346.33	10.47	-37.2	-38.5	29.2	3.03e+01	0	29	0	405798912	54	6137
2026-01-05 00:50:04.72	345.99	10.12	-37.3	-38.5	29.1	3.03e+01	0	29	0	413138944	54	6172
2026-01-05 00:50:08.76	345.65	9.78	-37.5	-38.8	28.9	3.03e+01	0	29	0	421003264	54	6366
2026-01-05 00:50:12.80	345.32	9.44	-37.4	-38.6	29.0	3.03e+01	0	29	0	428343296	54	6269
2026-01-05 00:50:16.85	345.00	9.11	-37.4	-38.6	28.9	3.03e+01	0	29	0	436207616	54	6268
2026-01-05 00:50:20.89	344.69	8.78	-37.7	-38.9	28.8	3.03e+01	0	29	0	443547648	54	6468
2026-01-05 00:50:24.94	344.39	8.45	-37.8	-39.1	28.6	3.03e+01	0	29	0	451411968	54	6612
2026-01-05 00:50:28.98	344.10	8.13	-37.7	-39.0	28.7	3.03e+01	0	29	0	458752000	54	6502
2026-01-05 00:50:33.03	343.81	7.81	-37.6	-38.8	28.7	3.03e+01	0	29	0	466616320	54	6422
2026-01-05 00:50:37.07	343.53	7.50	-38.4	-39.7	28.1	3.03e+01	0	29	0	473956352	56	6287
2026-01-05 00:50:41.12	343.25	7.19	-38.2	-39.4	28.2	3.03e+01	0	29	0	481820672	56	6127
2026-01-05 00:50:45.16	342.99	6.88	-38.0	-39.2	28.5	3.03e+01	0	29	0	489160704	56	5976
2026-01-05 00:50:49.20	342.73	6.58	-38.2	-39.5	28.3	3.03e+01	0	29	0	496500736	56	6141
2026-01-05 00:50:53.25	342.47	6.28	-38.2	-39.5	28.2	3.03e+01	0	29	0	504365056	56	6167
2026-01-05 00:50:57.29	342.22	5.98	-38.1	-39.4	28.1	3.03e+01	0	29	0	511705088	56	6075
2026-01-05 00:51:01.34	341.98	5.69	-38.1	-39.4	28.2	3.03e+01	0	29	0	519569408	56	6076
2026-01-05 00:51:05.38	341.74	5.40	-38.5	-39.8	27.9	3.03e+01	0	29	0	526909440	56	6388
2026-01-05 00:51:09.43	341.51	5.11	-38.6	-39.9	27.9	3.03e+01	0	29	0	534773760	56	6439
2026-01-05 00:51:13.47	341.28	4.83	-38.4	-39.6	28.0	3.03e+01	0	29	0	542113792	56	6268
2026-01-05 00:51:17.52	341.06	4.54	-38.6	-39.9	27.7	3.03e+01	0	29	0	549978112	56	6474
2026-01-05 00:51:21.56	340.84	4.27	-38.8	-40.1	27.5	3.03e+01	0	29	0	557318144	56	6618
2026-01-05 00:51:25.60	340.63	3.99	-39.0	-40.3	27.3	3.03e+01	0	29	0	565182464	56	6766
2026-01-05 00:51:29.65	340.42	3.72	-38.9	-40.3	27.3	3.03e+01	0	29	0	572522496	56	6735
2026-01-05 00:51:33.69	340.22	3.45	-39.6	-41.0	26.7	3.03e+01	0	29	0	580386816	58	6517
2026-01-05 00:51:37.74	340.02	3.18	-39.4	-40.8	26.7	3.03e+01	0	28	0	587726848	58	6380
2026-01-05 00:51:41.78	339.83	2.91	-39.7	-41.1	26.1	3.03e+01	0	29	0	595066880	58	6621
2026-01-05 00:51:45.82	339.64	2.65	-40.4	-41.9	25.1	3.03e+01	0	29	0	602931200	60	6496
2026-01-05 00:51:49.87	339.45	2.39	-41.6	-43.4	23.6	3.03e+01	0	29	0	610271232	60	7676
2026-01-05 00:51:53.91	339.27	2.13	-42.8	-44.9	21.6	3.03e+01	0	29	0	618135552	60	9116
2026-01-05 00:51:57.96	339.09	1.88	-44.5	-47.5	18.1	3.03e+01	0	29	0	625475584	60	12318
2026-01-05 00:52:02.00	338.92	1.62	-45.3	-49.2	16.2	3.03e+01	0	29	0	633339904	60	14922
2026-01-05 00:52:06.05	338.75	1.37	-46.4	-52.4	12.5	3.03e+01	0	29	0	640679936	60	21662
2026-01-05 00:52:10.09	338.58	1.12	-46.7	-55.3	8.4	3.03e+01	2	29	0	648544256	60	30087
2026-01-05 00:52:14.14	338.41	0.87	-46.7	-59.7	3.8	3.03e+01	0	29	104	653262848	60	50427
2026-01-05 00:52:18.18	338.25	0.63	-46.8	-61.4	4.1	3.03e+01	0	29	104	653262848	60	61228
2026-01-05 00:52:22.23	338.09	0.39	-47.0	-63.8	3.5	3.03e+01	0	29	104	653262848	60	80858
2026-01-05 00:52:26.27	337.94	0.14	-46.7	-64.2	3.5	3.03e+01	0	29	104	653262848	60	83935

#Closed at: 2026-01-05 00:52:29
#Recorded file [653 MB]: D:/lorett/data/35034_260105_033913.dat