passes_logs/2026/01/05/R4.6S_Anadyr_2ch/R4.6S_Anadyr_2ch__20260105_010654_NOAA_20_JPSS-1_rec.log

#Pass ID: 20260105_010654_NOAA 20 (JPSS-1)
#Satellite: NOAA 20 (JPSS-1)
#Configuration: NOAA 20
#almurnet v.1.7.20251203
#Start time: 2026-01-05 01:06:56

#Version: 2.2.20231116
#Station: R4.6S_Anadyr_2ch
#Location: 177.4865 lon 64.73178 lat
#TLE: 1 43013U 17073A   25350.93759711  .00000080  00000+0  58734-4 0  9994
#TLE: 2 43013  98.7603 287.1885 0002156  81.1496 278.9924 14.19526878418610

#Time	Az	El	Level	Level2	SNR	BER	BlckErr	Temp	State	Recorded	gain1	gain2
2026-01-05 01:06:56.62	179.03	0.12	-51.6	-66.7	3.5	1.51e+00	0	26	0	0	60	104952
2026-01-05 01:07:00.67	179.15	0.36	-51.5	-66.8	3.6	1.51e+00	0	27	104	0	60	107141
2026-01-05 01:07:04.71	179.27	0.60	-51.2	-66.5	3.6	1.51e+00	0	27	104	0	60	103640
2026-01-05 01:07:08.75	179.40	0.84	-50.8	-66.2	3.6	1.51e+00	0	27	104	0	60	99242
2026-01-05 01:07:12.80	179.53	1.09	-49.7	-65.0	3.6	1.51e+00	0	27	104	0	60	86678
2026-01-05 01:07:16.84	179.66	1.33	-49.7	-65.0	3.6	1.51e+00	0	27	104	0	60	86972
2026-01-05 01:07:20.88	179.79	1.58	-49.7	-65.0	3.6	1.51e+00	0	27	104	0	60	86610
2026-01-05 01:07:24.92	179.93	1.83	-49.7	-64.9	3.6	1.51e+00	0	27	104	0	60	86008
2026-01-05 01:07:28.97	180.07	2.08	-49.7	-65.0	3.6	1.51e+00	0	27	104	0	60	86725
2026-01-05 01:07:33.01	180.21	2.33	-49.7	-65.0	3.6	1.51e+00	0	27	104	0	60	86575
2026-01-05 01:07:37.06	180.35	2.59	-49.6	-64.3	3.6	1.51e+00	0	28	104	0	60	79780
2026-01-05 01:07:41.10	180.49	2.85	-49.7	-63.9	3.6	1.51e+00	0	28	104	0	60	76198
2026-01-05 01:07:45.15	180.64	3.11	-48.8	-55.8	6.5	1.03e+00	0	28	104	0	60	30068
2026-01-05 01:07:49.19	180.78	3.37	-45.5	-47.9	16.7	0.00e+00	0	28	0	6291456	60	12118
2026-01-05 01:07:53.23	180.94	3.64	-44.7	-46.7	17.5	0.00e+00	0	28	0	13631488	60	10600
2026-01-05 01:07:57.28	181.09	3.91	-49.2	-55.4	12.7	9.50e-01	0	28	0	18874368	60	28705
2026-01-05 01:08:01.32	181.24	4.18	-44.6	-46.5	17.8	0.00e+00	0	28	0	26214400	60	10249
2026-01-05 01:08:05.37	181.40	4.45	-44.5	-46.3	17.6	7.00e-07	0	28	0	33554432	60	10113
2026-01-05 01:08:09.41	181.56	4.72	-44.5	-46.3	18.5	0.00e+00	0	28	0	40894464	60	10076
2026-01-05 01:08:13.45	181.73	5.00	-44.5	-46.3	18.1	0.00e+00	0	28	0	49283072	60	10088
2026-01-05 01:08:17.50	181.90	5.28	-43.9	-45.5	18.9	0.00e+00	0	28	0	56623104	60	9151
2026-01-05 01:08:21.54	182.07	5.57	-44.1	-45.8	19.0	0.00e+00	0	28	0	63963136	60	9482
2026-01-05 01:08:25.59	182.24	5.85	-45.4	-47.2	18.4	0.00e+00	0	28	0	71303168	60	11221
2026-01-05 01:08:29.63	182.42	6.14	-43.9	-45.5	19.2	0.00e+00	0	28	0	78643200	60	9192
2026-01-05 01:08:33.68	182.59	6.44	-43.4	-44.8	20.0	0.00e+00	0	28	0	87031808	60	8430
2026-01-05 01:08:37.72	182.78	6.73	-43.0	-44.3	20.6	0.00e+00	0	28	0	94371840	60	8031
2026-01-05 01:08:41.77	182.96	7.03	-42.9	-44.1	20.9	0.00e+00	0	28	0	101711872	60	7854
2026-01-05 01:08:45.81	183.15	7.33	-43.0	-44.4	20.5	0.00e+00	0	28	0	109051904	60	8058
2026-01-05 01:08:49.85	183.35	7.64	-42.6	-43.8	21.1	0.00e+00	0	28	0	117440512	60	7560
2026-01-05 01:08:53.90	183.55	7.95	-42.6	-43.8	21.1	0.00e+00	0	28	0	124780544	60	7546
2026-01-05 01:08:57.94	183.75	8.26	-42.2	-43.4	21.4	0.00e+00	0	28	0	132120576	60	7227
2026-01-05 01:09:01.99	183.95	8.58	-42.1	-43.2	21.5	0.00e+00	0	28	0	139460608	60	7063
2026-01-05 01:09:06.03	184.16	8.90	-42.1	-43.2	21.6	0.00e+00	0	28	0	147849216	60	7087
2026-01-05 01:09:10.08	184.38	9.22	-41.9	-43.0	21.8	0.00e+00	0	28	0	155189248	60	6908
2026-01-05 01:09:14.12	184.60	9.55	-41.7	-42.8	22.0	0.00e+00	0	28	0	162529280	60	6713
2026-01-05 01:09:18.17	184.82	9.88	-41.5	-42.6	22.2	0.00e+00	0	28	0	169869312	60	6553
2026-01-05 01:09:22.21	185.05	10.22	-41.5	-42.5	22.3	0.00e+00	0	28	0	178257920	60	6533
2026-01-05 01:09:26.26	185.28	10.56	-41.3	-42.4	22.5	0.00e+00	0	28	0	185597952	60	6399
2026-01-05 01:09:30.30	185.52	10.91	-41.4	-42.5	22.4	0.00e+00	0	28	0	192937984	60	6500
2026-01-05 01:09:34.35	185.76	11.26	-41.4	-42.5	22.4	0.00e+00	0	28	0	200278016	60	6481
2026-01-05 01:09:38.39	186.01	11.61	-41.3	-42.3	22.6	0.00e+00	0	28	0	207618048	60	6366
2026-01-05 01:09:42.43	186.27	11.97	-41.4	-42.4	22.6	0.00e+00	0	28	0	216006656	60	6447
2026-01-05 01:09:46.48	186.53	12.33	-41.0	-42.0	22.9	0.00e+00	0	28	0	223346688	60	6121
2026-01-05 01:09:50.52	186.80	12.70	-40.7	-41.6	23.2	0.00e+00	0	28	0	230686720	60	5889
2026-01-05 01:09:54.57	187.07	13.07	-40.9	-41.9	23.1	0.00e+00	0	28	0	238026752	60	6040
2026-01-05 01:09:58.61	187.35	13.45	-40.8	-41.8	23.1	0.00e+00	0	28	0	246415360	60	5982
2026-01-05 01:10:02.66	187.64	13.84	-40.7	-41.7	23.2	0.00e+00	0	28	0	253755392	60	5940
2026-01-05 01:10:06.70	187.93	14.23	-40.4	-41.3	23.6	0.00e+00	0	28	0	261095424	60	5694
2026-01-05 01:10:10.75	188.23	14.62	-39.9	-40.8	23.9	0.00e+00	0	28	0	268435456	58	6009
2026-01-05 01:10:14.79	188.54	15.02	-39.9	-40.8	24.0	0.00e+00	0	28	0	276824064	58	6009
2026-01-05 01:10:18.83	188.86	15.43	-39.8	-40.6	24.1	0.00e+00	0	28	0	284164096	58	5879
2026-01-05 01:10:22.88	189.19	15.85	-39.8	-40.6	24.1	0.00e+00	0	28	0	291504128	58	5883
2026-01-05 01:10:26.92	189.52	16.26	-39.5	-40.3	24.3	0.00e+00	0	28	0	298844160	58	5694
2026-01-05 01:10:30.97	189.87	16.69	-39.5	-40.3	24.4	0.00e+00	0	28	0	306184192	58	5677
2026-01-05 01:10:35.01	190.22	17.12	-39.6	-40.5	24.3	0.00e+00	0	28	0	314572800	58	5798
2026-01-05 01:10:39.06	190.58	17.56	-39.6	-40.4	24.3	0.00e+00	0	28	0	321912832	58	5752
2026-01-05 01:10:43.10	190.96	18.01	-39.5	-40.4	24.4	0.00e+00	0	28	0	329252864	58	5701
2026-01-05 01:10:47.15	191.34	18.46	-39.6	-40.4	24.4	0.00e+00	0	28	0	336592896	58	5737
2026-01-05 01:10:51.19	191.74	18.93	-39.6	-40.4	24.4	0.00e+00	0	28	0	344981504	58	5736
2026-01-05 01:10:55.23	192.14	19.39	-39.5	-40.3	24.5	0.00e+00	0	28	0	352321536	58	5680
2026-01-05 01:10:59.28	192.56	19.87	-39.5	-40.4	24.4	0.00e+00	0	28	0	359661568	58	5732
2026-01-05 01:11:03.32	193.00	20.35	-39.4	-40.2	24.6	0.00e+00	0	28	0	367001600	58	5592
2026-01-05 01:11:07.37	193.44	20.84	-39.5	-40.3	24.5	0.00e+00	0	28	0	375390208	58	5672
2026-01-05 01:11:11.41	193.90	21.34	-39.4	-40.3	24.5	0.00e+00	0	28	0	382730240	58	5654
2026-01-05 01:11:15.46	194.38	21.85	-39.4	-40.3	24.5	0.00e+00	0	28	0	390070272	58	5662
2026-01-05 01:11:19.50	194.87	22.37	-39.5	-40.4	24.5	0.00e+00	0	28	0	397410304	58	5704
2026-01-05 01:11:23.54	195.37	22.89	-39.7	-40.6	24.3	0.00e+00	0	28	0	404750336	58	5865
2026-01-05 01:11:27.59	195.90	23.43	-39.7	-40.6	24.3	0.00e+00	0	28	0	413138944	58	5894
2026-01-05 01:11:31.63	196.44	23.97	-39.7	-40.6	24.4	0.00e+00	0	28	0	420478976	58	5876
2026-01-05 01:11:35.68	196.99	24.52	-39.7	-40.5	24.3	0.00e+00	0	28	0	427819008	58	5825
2026-01-05 01:11:39.72	197.57	25.08	-40.1	-41.0	23.8	0.00e+00	0	28	0	435159040	58	6171
2026-01-05 01:11:43.77	198.17	25.65	-40.2	-41.1	24.0	0.00e+00	0	28	0	443547648	58	6198
2026-01-05 01:11:47.81	198.79	26.22	-40.3	-41.1	23.9	0.00e+00	0	28	0	450887680	58	6244
2026-01-05 01:11:51.85	199.43	26.81	-40.6	-41.5	23.6	0.00e+00	0	28	0	458227712	58	6490
2026-01-05 01:11:55.90	200.10	27.41	-40.8	-41.8	23.5	0.00e+00	0	28	0	465567744	58	6693
2026-01-05 01:11:59.94	200.79	28.01	-40.8	-41.7	23.5	0.00e+00	0	28	0	473956352	58	6646
2026-01-05 01:12:03.98	201.51	28.62	-41.2	-42.2	23.1	0.00e+00	0	28	0	481296384	60	6270
2026-01-05 01:12:08.03	202.25	29.24	-42.2	-43.2	22.1	0.00e+00	0	28	0	488636416	60	7081
2026-01-05 01:12:12.07	203.02	29.87	-42.8	-44.0	21.4	0.00e+00	0	28	0	495976448	60	7747
2026-01-05 01:12:16.12	203.83	30.51	-43.6	-44.9	20.6	0.00e+00	0	28	0	503316480	60	8613
2026-01-05 01:12:20.16	204.66	31.16	-43.5	-44.8	20.6	0.00e+00	0	28	0	511705088	60	8492
2026-01-05 01:12:24.20	205.53	31.82	-43.6	-44.9	20.4	0.00e+00	0	28	0	519045120	60	8594
2026-01-05 01:12:28.25	206.43	32.48	-42.9	-44.1	21.2	0.00e+00	0	28	0	526385152	60	7825
2026-01-05 01:12:32.29	207.37	33.15	-42.4	-43.5	21.7	0.00e+00	0	28	0	533725184	60	7300
2026-01-05 01:12:36.34	208.35	33.82	-40.8	-41.8	23.4	0.00e+00	0	28	0	542113792	60	5974
2026-01-05 01:12:40.38	209.37	34.50	-40.3	-41.2	24.1	0.00e+00	0	28	0	549453824	60	5569
2026-01-05 01:12:44.43	210.44	35.19	-40.3	-41.2	23.9	0.00e+00	0	28	0	556793856	58	6262
2026-01-05 01:12:48.47	211.55	35.88	-40.7	-41.7	23.3	0.00e+00	0	28	0	564133888	58	6641
2026-01-05 01:12:52.52	212.70	36.57	-41.8	-42.9	22.5	0.00e+00	0	28	0	572522496	60	6820
2026-01-05 01:12:56.56	213.90	37.26	-39.4	-40.2	24.7	0.00e+00	0	28	0	579862528	58	5615
2026-01-05 01:13:00.61	215.16	37.96	-39.8	-40.7	24.3	0.00e+00	0	28	0	587202560	58	5943
2026-01-05 01:13:04.65	216.47	38.65	-40.1	-41.0	24.1	0.00e+00	0	28	0	594542592	58	6115
2026-01-05 01:13:08.70	217.84	39.34	-39.8	-40.6	24.5	0.00e+00	0	28	0	602931200	58	5875
2026-01-05 01:13:12.74	219.26	40.02	-40.3	-41.2	23.9	0.00e+00	0	28	0	610271232	58	6249
2026-01-05 01:13:16.78	220.74	40.70	-40.8	-41.7	23.5	0.00e+00	0	28	0	617611264	58	6682
2026-01-05 01:13:20.83	222.28	41.37	-41.3	-42.3	23.1	0.00e+00	0	28	0	624951296	60	6320
2026-01-05 01:13:24.87	223.89	42.02	-41.4	-42.4	22.9	0.00e+00	0	28	0	632291328	60	6392
2026-01-05 01:13:28.92	225.57	42.66	-42.0	-43.0	22.2	0.00e+00	0	28	0	640679936	60	6900
2026-01-05 01:13:32.96	227.30	43.29	-41.0	-41.9	23.3	0.00e+00	0	28	0	648019968	60	6081
2026-01-05 01:13:37.00	229.11	43.89	-42.6	-43.7	21.7	0.00e+00	0	28	0	655360000	60	7496
2026-01-05 01:13:41.05	230.98	44.47	-40.6	-41.5	23.7	0.00e+00	0	28	0	662700032	60	5765
2026-01-05 01:13:45.09	232.92	45.03	-42.3	-43.4	22.0	0.00e+00	0	28	0	671088640	60	7252
2026-01-05 01:13:49.13	234.93	45.55	-40.3	-41.2	23.9	0.00e+00	0	28	0	678428672	60	5568
2026-01-05 01:13:53.18	237.00	46.04	-42.7	-43.8	21.6	0.00e+00	0	28	0	685768704	60	7571
2026-01-05 01:13:57.22	239.13	46.50	-42.6	-43.7	21.5	0.00e+00	0	28	0	693108736	60	7479
2026-01-05 01:14:01.27	241.33	46.92	-42.7	-43.9	21.6	0.00e+00	0	28	0	700448768	60	7629
2026-01-05 01:14:05.31	243.58	47.29	-42.8	-44.0	21.5	0.00e+00	0	28	0	708837376	60	7730
2026-01-05 01:14:09.36	245.88	47.62	-41.8	-42.8	22.6	0.00e+00	0	28	0	716177408	60	6733
2026-01-05 01:14:13.40	248.22	47.91	-43.3	-44.6	21.0	0.00e+00	0	28	0	723517440	60	8273
2026-01-05 01:14:17.44	250.60	48.14	-41.8	-42.8	22.6	0.00e+00	0	28	0	730857472	60	6723
2026-01-05 01:14:21.49	253.02	48.32	-42.0	-43.0	22.5	0.00e+00	0	28	0	739246080	60	6892
2026-01-05 01:14:25.53	255.46	48.44	-42.5	-43.7	21.9	0.00e+00	0	28	0	746586112	60	7450
2026-01-05 01:14:29.58	257.91	48.51	-41.5	-42.4	23.0	0.00e+00	0	28	0	753926144	60	6463
2026-01-05 01:14:33.62	260.37	48.53	-41.2	-42.2	23.1	0.00e+00	0	28	0	761266176	60	6250
2026-01-05 01:14:37.67	262.83	48.49	-41.4	-42.4	22.9	0.00e+00	0	28	0	769654784	60	6410
2026-01-05 01:14:41.71	265.28	48.39	-42.4	-43.6	22.0	0.00e+00	0	28	0	776994816	60	7341
2026-01-05 01:14:45.76	267.71	48.24	-42.0	-43.1	22.6	0.00e+00	0	28	0	784334848	60	6935
2026-01-05 01:14:49.80	270.11	48.04	-42.4	-43.5	22.1	0.00e+00	0	28	0	791674880	60	7275
2026-01-05 01:14:53.84	272.47	47.79	-42.7	-43.8	21.8	0.00e+00	0	28	0	800063488	60	7536
2026-01-05 01:14:57.89	274.79	47.48	-43.1	-44.3	21.3	0.00e+00	0	28	0	807403520	60	7993
2026-01-05 01:15:01.93	277.07	47.13	-42.5	-43.6	21.9	0.00e+00	0	28	0	814743552	60	7415
2026-01-05 01:15:05.98	279.29	46.74	-44.5	-46.0	20.1	0.00e+00	0	28	0	822083584	60	9689
2026-01-05 01:15:10.02	281.45	46.30	-44.5	-45.8	20.4	0.00e+00	0	28	0	829423616	60	9515
2026-01-05 01:15:14.07	283.56	45.83	-43.4	-44.7	21.2	0.00e+00	0	28	0	837812224	60	8343
2026-01-05 01:15:18.11	285.59	45.33	-42.5	-43.5	22.7	0.00e+00	0	28	0	845152256	60	7316
2026-01-05 01:15:22.16	287.57	44.79	-42.0	-43.0	23.0	0.00e+00	0	28	0	852492288	60	6886
2026-01-05 01:15:26.20	289.47	44.22	-40.9	-41.8	23.5	0.00e+00	0	28	0	859832320	60	6029
2026-01-05 01:15:30.24	291.31	43.63	-40.4	-41.3	24.2	0.00e+00	0	28	0	868220928	58	6378
2026-01-05 01:15:34.29	293.08	43.02	-39.6	-40.4	24.8	0.00e+00	0	28	0	875560960	58	5747
2026-01-05 01:15:38.33	294.79	42.39	-39.1	-39.9	25.1	0.00e+00	0	28	0	882900992	58	5390
2026-01-05 01:15:42.38	296.43	41.75	-40.6	-41.5	23.7	0.00e+00	0	28	0	890241024	58	6539
2026-01-05 01:15:46.42	298.00	41.09	-40.1	-41.0	24.1	0.00e+00	0	28	0	898629632	58	6144
2026-01-05 01:15:50.47	299.51	40.42	-40.0	-40.9	24.3	0.00e+00	0	28	0	905969664	60	5397
2026-01-05 01:15:54.51	300.97	39.74	-41.9	-43.0	22.9	0.00e+00	0	28	0	913309696	60	6852
2026-01-05 01:15:58.55	302.36	39.06	-40.6	-41.5	24.3	0.00e+00	0	28	0	920649728	60	5762
2026-01-05 01:16:02.60	303.69	38.38	-41.5	-42.4	23.5	0.00e+00	0	28	0	927989760	60	6462
2026-01-05 01:16:06.64	304.97	37.69	-42.8	-44.0	21.9	0.00e+00	0	28	0	936378368	60	7719
2026-01-05 01:16:10.69	306.21	37.00	-41.1	-42.0	23.8	0.00e+00	0	28	0	943718400	60	6144
2026-01-05 01:16:14.73	307.38	36.31	-44.9	-46.4	20.4	0.00e+00	0	28	0	951058432	60	10147
2026-01-05 01:16:18.78	308.52	35.62	-42.3	-43.2	23.1	0.00e+00	0	28	0	958398464	60	7071
2026-01-05 01:16:22.82	309.60	34.94	-44.6	-46.0	19.7	0.00e+00	0	28	0	966787072	60	9715
2026-01-05 01:16:26.87	310.64	34.26	-41.5	-42.5	23.1	0.00e+00	0	28	0	974127104	60	6467
2026-01-05 01:16:30.91	311.64	33.58	-44.8	-46.3	19.9	0.00e+00	0	28	0	981467136	60	10016
2026-01-05 01:16:34.95	312.60	32.91	-42.5	-43.6	22.4	0.00e+00	0	28	0	988807168	60	7392
2026-01-05 01:16:39.00	313.52	32.25	-42.8	-43.8	22.1	0.00e+00	0	28	0	997195776	60	7591
2026-01-05 01:16:43.04	314.41	31.60	-45.0	-46.7	19.3	0.00e+00	0	28	0	1004535808	60	10550
2026-01-05 01:16:47.08	315.26	30.95	-41.4	-42.4	23.3	0.00e+00	0	28	0	1011875840	60	6404
2026-01-05 01:16:51.13	316.08	30.31	-43.0	-44.1	22.0	0.00e+00	0	28	0	1019215872	60	7837
2026-01-05 01:16:55.17	316.87	29.68	-43.0	-44.2	22.0	0.00e+00	0	28	0	1026555904	60	7871
2026-01-05 01:16:59.22	317.63	29.05	-41.7	-42.6	23.1	0.00e+00	0	28	0	1034944512	60	6615
2026-01-05 01:17:03.26	318.36	28.44	-42.5	-43.6	22.2	0.00e+00	0	28	0	1042284544	60	7392
2026-01-05 01:17:07.30	319.06	27.83	-40.8	-41.7	23.8	0.00e+00	0	28	0	1049624576	60	5909
2026-01-05 01:17:11.35	319.74	27.24	-40.2	-41.0	24.5	0.00e+00	0	28	0	1056964608	58	6130
2026-01-05 01:17:15.39	320.40	26.65	-41.4	-42.4	23.3	0.00e+00	0	28	0	1065353216	60	6424
2026-01-05 01:17:19.43	321.03	26.07	-41.2	-42.2	23.4	0.00e+00	0	28	0	1072693248	60	6264
2026-01-05 01:17:23.48	321.64	25.50	-40.5	-41.4	23.7	0.00e+00	0	28	0	1080033280	60	5755
2026-01-05 01:17:27.52	322.23	24.94	-40.5	-41.4	23.9	0.00e+00	0	28	0	1087373312	60	5722
2026-01-05 01:17:31.57	322.80	24.38	-40.9	-41.9	23.4	0.00e+00	0	28	0	1095761920	60	6066
2026-01-05 01:17:35.61	323.35	23.84	-42.1	-43.2	22.3	0.00e+00	0	28	0	1103101952	60	7031
2026-01-05 01:17:39.66	323.88	23.31	-41.4	-42.4	23.0	0.00e+00	0	28	0	1110441984	60	6405
2026-01-05 01:17:43.70	324.40	22.78	-41.2	-42.1	23.4	0.00e+00	0	28	0	1117782016	60	6219
2026-01-05 01:17:47.74	324.90	22.26	-41.4	-42.4	23.0	0.00e+00	0	28	0	1126170624	60	6400
2026-01-05 01:17:51.79	325.38	21.75	-41.5	-42.5	23.1	0.00e+00	0	28	0	1133510656	60	6481
2026-01-05 01:17:55.83	325.85	21.25	-41.3	-42.2	23.2	0.00e+00	0	28	0	1140850688	60	6286
2026-01-05 01:17:59.88	326.31	20.76	-40.9	-41.9	23.2	0.00e+00	0	28	0	1148190720	60	6038
2026-01-05 01:18:03.92	326.75	20.27	-41.7	-42.7	23.1	0.00e+00	0	28	0	1155530752	60	6620
2026-01-05 01:18:07.97	327.17	19.79	-41.2	-42.2	23.1	0.00e+00	0	28	0	1163919360	60	6287
2026-01-05 01:18:12.01	327.59	19.32	-42.0	-43.0	22.8	0.00e+00	0	28	0	1171259392	60	6922
2026-01-05 01:18:16.05	327.99	18.86	-41.7	-42.8	22.5	0.00e+00	0	28	0	1178599424	60	6694
2026-01-05 01:18:20.10	328.39	18.41	-41.6	-42.7	22.6	0.00e+00	0	28	0	1185939456	60	6616
2026-01-05 01:18:24.14	328.77	17.96	-41.9	-42.9	22.4	0.00e+00	0	28	0	1194328064	60	6845
2026-01-05 01:18:28.19	329.14	17.52	-42.0	-43.0	22.8	0.00e+00	0	28	0	1201668096	60	6917
2026-01-05 01:18:32.23	329.50	17.08	-41.7	-42.7	22.7	0.00e+00	0	28	0	1209008128	60	6683
2026-01-05 01:18:36.27	329.85	16.66	-41.7	-42.7	22.7	0.00e+00	0	28	0	1216348160	60	6652
2026-01-05 01:18:40.32	330.19	16.23	-41.5	-42.5	22.8	0.00e+00	0	28	0	1223688192	60	6532
2026-01-05 01:18:44.36	330.52	15.82	-41.4	-42.4	22.9	0.00e+00	0	28	0	1232076800	60	6425
2026-01-05 01:18:48.41	330.85	15.41	-41.2	-42.2	22.9	0.00e+00	0	28	0	1239416832	60	6280
2026-01-05 01:18:52.45	331.16	15.01	-41.6	-42.6	22.8	0.00e+00	0	28	0	1246756864	60	6567
2026-01-05 01:18:56.50	331.47	14.61	-42.2	-43.2	22.2	0.00e+00	0	28	0	1254096896	60	7062
2026-01-05 01:19:00.54	331.77	14.22	-42.7	-43.9	21.7	0.00e+00	0	28	0	1262485504	60	7635
2026-01-05 01:19:04.58	332.06	13.83	-42.2	-43.4	21.7	0.00e+00	0	28	0	1269825536	60	7173
2026-01-05 01:19:08.63	332.35	13.45	-42.4	-43.6	21.8	0.00e+00	0	28	0	1277165568	60	7385
2026-01-05 01:19:12.67	332.63	13.08	-41.7	-42.7	22.3	0.00e+00	0	28	0	1284505600	60	6691
2026-01-05 01:19:16.71	332.90	12.71	-41.5	-42.5	22.5	0.00e+00	0	28	0	1292894208	60	6487
2026-01-05 01:19:20.76	333.17	12.34	-41.4	-42.4	22.6	0.00e+00	0	28	0	1300234240	60	6449
2026-01-05 01:19:24.80	333.43	11.98	-41.3	-42.3	22.5	0.00e+00	0	28	0	1307574272	60	6379
2026-01-05 01:19:28.84	333.69	11.63	-42.0	-43.1	22.0	0.00e+00	0	28	0	1314914304	60	6958
2026-01-05 01:19:32.89	333.94	11.28	-42.4	-43.5	21.6	0.00e+00	0	28	0	1323302912	60	7310
2026-01-05 01:19:36.93	334.18	10.93	-42.8	-44.0	21.0	0.00e+00	0	28	0	1330642944	60	7761
2026-01-05 01:19:40.98	334.42	10.59	-43.1	-44.4	20.7	0.00e+00	0	28	0	1337982976	60	8099
2026-01-05 01:19:45.02	334.65	10.25	-43.0	-44.4	20.6	0.00e+00	0	28	0	1345323008	60	8048
2026-01-05 01:19:49.07	334.88	9.92	-42.8	-44.1	21.0	0.00e+00	0	28	0	1352663040	60	7773
2026-01-05 01:19:53.11	335.10	9.59	-42.8	-44.0	21.2	0.00e+00	0	28	0	1361051648	60	7713
2026-01-05 01:19:57.16	335.32	9.27	-42.7	-43.9	21.2	0.00e+00	0	28	0	1368391680	60	7630
2026-01-05 01:20:01.20	335.54	8.95	-42.7	-44.0	21.3	0.00e+00	0	28	0	1375731712	60	7714
2026-01-05 01:20:05.24	335.75	8.63	-42.4	-43.6	21.4	0.00e+00	0	28	0	1383071744	60	7411
2026-01-05 01:20:09.29	335.96	8.32	-42.7	-44.0	20.9	0.00e+00	0	28	0	1391460352	60	7721
2026-01-05 01:20:13.33	336.16	8.01	-43.2	-44.5	20.6	0.00e+00	0	28	0	1398800384	60	8206
2026-01-05 01:20:17.37	336.36	7.70	-42.9	-44.3	20.5	0.00e+00	0	28	0	1406140416	60	7961
2026-01-05 01:20:21.42	336.55	7.40	-43.2	-44.7	19.9	0.00e+00	0	28	0	1413480448	60	8331
2026-01-05 01:20:25.46	336.75	7.10	-43.4	-44.8	19.9	0.00e+00	0	28	0	1420820480	60	8494
2026-01-05 01:20:29.51	336.93	6.80	-43.4	-44.9	19.8	0.00e+00	0	28	0	1429209088	60	8594
2026-01-05 01:20:33.55	337.12	6.51	-43.3	-44.8	19.9	0.00e+00	0	28	0	1436549120	60	8463
2026-01-05 01:20:37.59	337.30	6.22	-43.5	-45.1	19.4	0.00e+00	0	28	0	1443889152	60	8759
2026-01-05 01:20:41.64	337.48	5.93	-43.5	-45.2	19.2	0.00e+00	0	28	0	1451229184	60	8852
2026-01-05 01:20:45.68	337.65	5.64	-44.0	-45.8	18.3	0.00e+00	0	28	0	1459617792	60	9489
2026-01-05 01:20:49.73	337.83	5.36	-44.3	-46.3	17.1	0.00e+00	0	28	0	1466957824	60	10094
2026-01-05 01:20:53.77	338.00	5.08	-45.1	-48.0	14.8	0.00e+00	0	28	0	1474297856	60	12317
2026-01-05 01:20:57.82	338.16	4.81	-45.7	-49.8	12.2	5.56e-05	0	28	0	1481637888	60	14986
2026-01-05 01:21:01.86	338.33	4.54	-46.2	-52.2	9.0	1.39e-02	0	28	0	1490026496	60	19817
2026-01-05 01:21:05.91	338.49	4.26	-46.3	-54.9	5.2	3.89e-01	0	28	0	1497366528	60	26980
2026-01-05 01:21:09.95	338.65	4.00	-46.2	-58.1	3.6	1.43e+00	0	28	104	1501560832	60	39024
2026-01-05 01:21:14.00	338.80	3.73	-46.3	-60.8	3.6	1.51e+00	0	28	104	1501560832	60	53444
2026-01-05 01:21:18.04	338.96	3.47	-46.3	-61.6	3.6	1.51e+00	0	28	104	1501560832	60	58506
2026-01-05 01:21:22.08	339.11	3.21	-46.1	-61.4	3.6	1.51e+00	0	28	104	1501560832	60	57339
2026-01-05 01:21:26.12	339.25	2.95	-50.5	-65.8	3.6	1.51e+00	0	28	104	1501560832	60	95333
2026-01-05 01:21:30.17	339.40	2.69	-51.3	-66.7	3.6	1.51e+00	0	28	104	1501560832	60	105496
2026-01-05 01:21:34.21	339.55	2.44	-51.2	-66.7	3.6	1.51e+00	0	28	104	1501560832	60	105835
2026-01-05 01:21:38.25	339.69	2.19	-51.3	-66.7	3.6	1.51e+00	0	28	104	1501560832	60	105532
2026-01-05 01:21:42.29	339.83	1.94	-51.6	-67.0	3.6	1.51e+00	0	28	104	1501560832	60	108670
2026-01-05 01:21:46.33	339.97	1.69	-51.5	-66.9	3.6	1.51e+00	0	28	104	1501560832	60	107683
2026-01-05 01:21:50.38	340.10	1.44	-52.0	-67.3	3.6	1.51e+00	0	28	104	1501560832	60	113504
2026-01-05 01:21:54.42	340.24	1.20	-51.8	-67.2	3.6	1.51e+00	0	28	104	1501560832	60	111552
2026-01-05 01:21:58.47	340.37	0.96	-51.7	-67.1	3.6	1.51e+00	0	28	104	1501560832	60	110950
2026-01-05 01:22:02.51	340.50	0.72	-51.8	-67.2	3.6	1.51e+00	0	28	104	1501560832	60	111913
2026-01-05 01:22:06.56	340.63	0.48	-52.5	-67.9	3.6	1.51e+00	0	28	104	1501560832	60	121264
2026-01-05 01:22:10.60	340.76	0.24	-51.5	-66.8	3.6	1.51e+00	0	28	104	1501560832	60	106882
2026-01-05 01:22:14.64	340.88	0.01	-51.3	-66.6	3.6	1.51e+00	0	28	104	1501560832	60	104677

#Closed at: 2026-01-05 01:22:15
#Recorded file [1501 MB]: D:/lorett/data/35034_260105_040656.dat