passes_logs/2025/01/19/SPB_Silybum_02/SPB_Silybum_02__20250119_183615_TERRA_rec.log

#Pass ID: 20250119_183615_TERRA
#Satellite: TERRA
#Configuration: TERRA
#Start time: 2025-01-19 18:36:16

#Version: 2.0.20230423
#Station: SPB_Silybum_02
#Location: 30.233357 lon 59.946436 lat
#TLE: 1 25994U 99068A   25018.76132064  .00000971  00000+0  20987-3 0  9991
#TLE: 2 25994  98.0209  81.6719 0003338  64.8500  46.9329 14.60403262334620

#Time	Az	El	Level	Level2	SNR	BER	Gain	Gain2
2025-01-19 18:36:18.84	164.05	4.22	
2025-01-19 18:36:20.05	164.06	4.31	
2025-01-19 18:36:21.27	164.07	4.40	
2025-01-19 18:36:22.49	164.08	4.49	
2025-01-19 18:36:23.71	164.09	4.58	
2025-01-19 18:36:24.92	164.10	4.67	
2025-01-19 18:36:26.14	164.12	4.76	
2025-01-19 18:36:27.36	164.13	4.85	
2025-01-19 18:36:28.58	164.14	4.94	
2025-01-19 18:36:29.80	164.15	5.03	
2025-01-19 18:36:31.01	164.16	5.12	
2025-01-19 18:36:32.23	164.17	5.22	
2025-01-19 18:36:33.45	164.18	5.31	
2025-01-19 18:36:34.67	164.20	5.40	
2025-01-19 18:36:35.88	164.21	5.49	
2025-01-19 18:36:37.10	164.22	5.59	
2025-01-19 18:36:38.32	164.23	5.68	
2025-01-19 18:36:39.54	164.24	5.78	
2025-01-19 18:36:40.75	164.25	5.87	
2025-01-19 18:36:41.97	164.27	5.97	
2025-01-19 18:36:43.19	164.28	6.06	
2025-01-19 18:36:44.41	164.29	6.16	
2025-01-19 18:36:45.63	164.30	6.25	
2025-01-19 18:36:46.84	164.31	6.35	
2025-01-19 18:36:48.06	164.33	6.45	
2025-01-19 18:36:49.28	164.34	6.55	
2025-01-19 18:36:50.50	164.35	6.64	
2025-01-19 18:36:51.71	164.36	6.74	
2025-01-19 18:36:52.93	164.38	6.84	
2025-01-19 18:36:54.15	164.39	6.94	
2025-01-19 18:36:55.37	164.40	7.04	
2025-01-19 18:36:56.58	164.41	7.14	
2025-01-19 18:36:57.80	164.43	7.24	
2025-01-19 18:36:59.02	164.44	7.34	
2025-01-19 18:37:00.24	164.45	7.44	
2025-01-19 18:37:01.46	164.47	7.54	
2025-01-19 18:37:02.67	164.48	7.65	
2025-01-19 18:37:03.89	164.49	7.75	
2025-01-19 18:37:05.11	164.51	7.85	
2025-01-19 18:37:06.33	164.52	7.96	
2025-01-19 18:37:07.54	164.53	8.06	
2025-01-19 18:37:08.76	164.55	8.16	
2025-01-19 18:37:09.98	164.56	8.27	
2025-01-19 18:37:11.20	164.57	8.37	
2025-01-19 18:37:12.41	164.59	8.48	
2025-01-19 18:37:13.63	164.60	8.59	
2025-01-19 18:37:14.85	164.61	8.69	
2025-01-19 18:37:16.07	164.63	8.80	
2025-01-19 18:37:17.29	164.64	8.91	
2025-01-19 18:37:18.50	164.66	9.02	
2025-01-19 18:37:19.74	164.67	9.13	
2025-01-19 18:37:20.95	164.68	9.24	
2025-01-19 18:37:22.17	164.70	9.35	
2025-01-19 18:37:23.39	164.71	9.46	
2025-01-19 18:37:24.61	164.73	9.57	
2025-01-19 18:37:25.83	164.74	9.68	
2025-01-19 18:37:27.04	164.76	9.79	
2025-01-19 18:37:28.26	164.77	9.91	
2025-01-19 18:37:29.48	164.79	10.02	
2025-01-19 18:37:30.70	164.80	10.14	
2025-01-19 18:37:31.91	164.82	10.25	
2025-01-19 18:37:33.13	164.83	10.36	
2025-01-19 18:37:34.35	164.85	10.48	
2025-01-19 18:37:35.57	164.86	10.60	
2025-01-19 18:37:36.78	164.88	10.71	
2025-01-19 18:37:38.00	164.89	10.83	
2025-01-19 18:37:39.22	164.91	10.95	
2025-01-19 18:37:40.44	164.92	11.07	
2025-01-19 18:37:41.66	164.94	11.19	
2025-01-19 18:37:42.87	164.96	11.31	
2025-01-19 18:37:44.09	164.97	11.43	
2025-01-19 18:37:45.31	164.99	11.55	
2025-01-19 18:37:46.53	165.01	11.68	
2025-01-19 18:37:47.74	165.02	11.80	
2025-01-19 18:37:48.96	165.04	11.92	
2025-01-19 18:37:50.18	165.05	12.05	
2025-01-19 18:37:51.40	165.07	12.17	
2025-01-19 18:37:52.61	165.09	12.30	
2025-01-19 18:37:53.83	165.11	12.42	
2025-01-19 18:37:55.05	165.12	12.55	
2025-01-19 18:37:56.27	165.14	12.68	
2025-01-19 18:37:57.49	165.16	12.81	
2025-01-19 18:37:58.70	165.17	12.94	
2025-01-19 18:37:59.92	165.19	13.07	
2025-01-19 18:38:01.14	165.21	13.20	
2025-01-19 18:38:02.36	165.23	13.33	
2025-01-19 18:38:03.57	165.25	13.46	
2025-01-19 18:38:04.79	165.26	13.60	
2025-01-19 18:38:06.01	165.28	13.73	
2025-01-19 18:38:07.23	165.30	13.87	
2025-01-19 18:38:08.45	165.32	14.00	
2025-01-19 18:38:09.66	165.34	14.14	
2025-01-19 18:38:10.88	165.36	14.28	
2025-01-19 18:38:12.10	165.38	14.41	
2025-01-19 18:38:13.32	165.40	14.55	
2025-01-19 18:38:14.53	165.41	14.69	
2025-01-19 18:38:15.75	165.43	14.83	
2025-01-19 18:38:16.97	165.45	14.98	
2025-01-19 18:38:18.19	165.47	15.12	
2025-01-19 18:38:19.40	165.49	15.26	
2025-01-19 18:38:20.62	165.51	15.41	
2025-01-19 18:38:21.84	165.53	15.55	
2025-01-19 18:38:23.06	165.55	15.70	
2025-01-19 18:38:24.28	165.58	15.85	
2025-01-19 18:38:25.49	165.60	16.00	
2025-01-19 18:38:26.71	165.62	16.15	
2025-01-19 18:38:27.93	165.64	16.30	
2025-01-19 18:38:29.15	165.66	16.45	
2025-01-19 18:38:30.36	165.68	16.60	
2025-01-19 18:38:31.58	165.70	16.76	
2025-01-19 18:38:32.80	165.73	16.91	
2025-01-19 18:38:34.02	165.75	17.07	
2025-01-19 18:38:35.23	165.77	17.22	
2025-01-19 18:38:36.45	165.79	17.38	
2025-01-19 18:38:37.67	165.81	17.54	
2025-01-19 18:38:38.89	165.84	17.70	
2025-01-19 18:38:40.11	165.86	17.87	
2025-01-19 18:38:41.32	165.88	18.03	
2025-01-19 18:38:42.54	165.91	18.19	
2025-01-19 18:38:43.76	165.93	18.36	
2025-01-19 18:38:44.98	165.96	18.52	
2025-01-19 18:38:46.19	165.98	18.69	
2025-01-19 18:38:47.41	166.01	18.86	
2025-01-19 18:38:48.63	166.03	19.03	
2025-01-19 18:38:49.85	166.06	19.20	
2025-01-19 18:38:51.07	166.08	19.38	
2025-01-19 18:38:52.28	166.11	19.55	
2025-01-19 18:38:53.50	166.13	19.73	
2025-01-19 18:38:54.72	166.16	19.90	
2025-01-19 18:38:55.94	166.18	20.08	
2025-01-19 18:38:57.15	166.21	20.26	
2025-01-19 18:38:58.37	166.24	20.44	
2025-01-19 18:38:59.59	166.27	20.62	
2025-01-19 18:39:00.81	166.29	20.81	
2025-01-19 18:39:02.02	166.32	20.99	
2025-01-19 18:39:03.24	166.35	21.18	
2025-01-19 18:39:04.46	166.38	21.37	
2025-01-19 18:39:05.68	166.41	21.56	
2025-01-19 18:39:06.90	166.43	21.75	
2025-01-19 18:39:08.11	166.46	21.94	
2025-01-19 18:39:09.33	166.49	22.14	
2025-01-19 18:39:10.55	166.52	22.34	
2025-01-19 18:39:11.77	166.55	22.53	
2025-01-19 18:39:12.98	166.58	22.73	
2025-01-19 18:39:14.20	166.62	22.93	
2025-01-19 18:39:15.42	166.65	23.14	
2025-01-19 18:39:16.64	166.68	23.34	
2025-01-19 18:39:17.85	166.71	23.55	
2025-01-19 18:39:19.07	166.74	23.76	
2025-01-19 18:39:20.29	166.78	23.97	
2025-01-19 18:39:21.51	166.81	24.18	
2025-01-19 18:39:22.73	166.84	24.39	
2025-01-19 18:39:23.94	166.88	24.61	
2025-01-19 18:39:25.16	166.91	24.83	
2025-01-19 18:39:26.38	166.95	25.05	
2025-01-19 18:39:27.60	166.98	25.27	
2025-01-19 18:39:28.81	167.02	25.49	
2025-01-19 18:39:30.03	167.06	25.72	
2025-01-19 18:39:31.25	167.09	25.95	
2025-01-19 18:39:32.47	167.13	26.18	
2025-01-19 18:39:33.68	167.17	26.41	
2025-01-19 18:39:34.90	167.21	26.64	
2025-01-19 18:39:36.12	167.25	26.88	
2025-01-19 18:39:37.34	167.29	27.12	
2025-01-19 18:39:38.56	167.33	27.36	
2025-01-19 18:39:39.77	167.37	27.60	
2025-01-19 18:39:40.99	167.41	27.85	
2025-01-19 18:39:42.21	167.45	28.10	
2025-01-19 18:39:43.43	167.49	28.35	
2025-01-19 18:39:44.64	167.54	28.60	
2025-01-19 18:39:45.86	167.58	28.85	
2025-01-19 18:39:47.08	167.63	29.11	
2025-01-19 18:39:48.30	167.67	29.37	
2025-01-19 18:39:49.51	167.72	29.63	
2025-01-19 18:39:50.73	167.76	29.90	
2025-01-19 18:39:51.95	167.81	30.17	
2025-01-19 18:39:53.17	167.86	30.44	
2025-01-19 18:39:54.39	167.91	30.71	
2025-01-19 18:39:55.60	167.96	30.99	
2025-01-19 18:39:56.82	168.01	31.27	
2025-01-19 18:39:58.04	168.06	31.55	
2025-01-19 18:39:59.26	168.11	31.83	
2025-01-19 18:40:00.47	168.16	32.12	
2025-01-19 18:40:01.69	168.22	32.41	
2025-01-19 18:40:02.91	168.27	32.71	
2025-01-19 18:40:04.13	168.33	33.00	
2025-01-19 18:40:05.35	168.39	33.30	
2025-01-19 18:40:06.56	168.44	33.60	
2025-01-19 18:40:07.78	168.50	33.91	
2025-01-19 18:40:09.00	168.56	34.22	
2025-01-19 18:40:10.22	168.62	34.53	
2025-01-19 18:40:11.43	168.68	34.85	
2025-01-19 18:40:12.65	168.75	35.17	
2025-01-19 18:40:13.87	168.81	35.49	
2025-01-19 18:40:15.09	168.88	35.82	
2025-01-19 18:40:16.30	168.94	36.15	
2025-01-19 18:40:17.52	169.01	36.48	
2025-01-19 18:40:18.74	169.08	36.82	
2025-01-19 18:40:19.96	169.15	37.16	
2025-01-19 18:40:21.18	169.23	37.50	
2025-01-19 18:40:22.39	169.30	37.85	
2025-01-19 18:40:23.61	169.38	38.20	
2025-01-19 18:40:24.83	169.45	38.56	
2025-01-19 18:40:26.05	169.53	38.92	
2025-01-19 18:40:27.26	169.61	39.28	
2025-01-19 18:40:28.48	169.69	39.65	
2025-01-19 18:40:29.70	169.78	40.02	
2025-01-19 18:40:30.92	169.86	40.40	
2025-01-19 18:40:32.13	169.95	40.78	
2025-01-19 18:40:33.35	170.04	41.16	
2025-01-19 18:40:34.57	170.13	41.55	
2025-01-19 18:40:35.79	170.23	41.94	
2025-01-19 18:40:37.01	170.33	42.34	
2025-01-19 18:40:38.22	170.42	42.74	
2025-01-19 18:40:39.44	170.52	43.15	
2025-01-19 18:40:40.66	170.63	43.56	
2025-01-19 18:40:41.88	170.74	43.98	
2025-01-19 18:40:43.09	170.84	44.39	
2025-01-19 18:40:44.31	170.96	44.82	
2025-01-19 18:40:45.53	171.07	45.25	
2025-01-19 18:40:46.75	171.19	45.68	
2025-01-19 18:40:47.96	171.31	46.12	
2025-01-19 18:40:49.18	171.43	46.56	
2025-01-19 18:40:50.40	171.56	47.01	
2025-01-19 18:40:51.62	171.70	47.46	
2025-01-19 18:40:52.84	171.83	47.92	
2025-01-19 18:40:54.05	171.97	48.38	
2025-01-19 18:40:55.27	172.11	48.85	
2025-01-19 18:40:56.49	172.26	49.33	
2025-01-19 18:40:57.71	172.42	49.81	
2025-01-19 18:40:58.92	172.57	50.29	
2025-01-19 18:41:00.14	172.73	50.78	
2025-01-19 18:41:01.36	172.90	51.27	
2025-01-19 18:41:02.58	173.08	51.77	
2025-01-19 18:41:03.80	173.26	52.27	
2025-01-19 18:41:05.01	173.44	52.78	
2025-01-19 18:41:06.23	173.63	53.30	
2025-01-19 18:41:07.45	173.83	53.82	
2025-01-19 18:41:08.67	174.04	54.34	
2025-01-19 18:41:09.88	174.25	54.87	
2025-01-19 18:41:11.10	174.47	55.40	
2025-01-19 18:41:12.32	174.70	55.95	
2025-01-19 18:41:13.54	174.94	56.49	
2025-01-19 18:41:14.75	175.19	57.04	
2025-01-19 18:41:15.97	175.45	57.60	
2025-01-19 18:41:17.19	175.72	58.16	
2025-01-19 18:41:18.41	176.00	58.72	
2025-01-19 18:41:19.63	176.29	59.29	
2025-01-19 18:41:20.84	176.60	59.87	
2025-01-19 18:41:22.06	176.92	60.45	
2025-01-19 18:41:23.28	177.25	61.03	
2025-01-19 18:41:24.50	177.61	61.62	
2025-01-19 18:41:25.71	177.97	62.21	
2025-01-19 18:41:26.93	178.36	62.81	
2025-01-19 18:41:28.15	178.76	63.42	
2025-01-19 18:41:29.37	179.19	64.02	
2025-01-19 18:41:30.58	179.64	64.63	
2025-01-19 18:41:31.80	180.11	65.25	
2025-01-19 18:41:33.02	180.61	65.86	
2025-01-19 18:41:34.24	181.15	66.49	
2025-01-19 18:41:35.46	181.71	67.11	
2025-01-19 18:41:36.67	182.30	67.73	
2025-01-19 18:41:37.89	182.94	68.36	
2025-01-19 18:41:39.11	183.61	68.99	
2025-01-19 18:41:40.33	184.33	69.63	
2025-01-19 18:41:41.54	185.10	70.26	
2025-01-19 18:41:42.76	185.92	70.89	
2025-01-19 18:41:43.98	186.80	71.53	
2025-01-19 18:41:45.20	187.76	72.16	
2025-01-19 18:41:46.41	188.77	72.79	
2025-01-19 18:41:47.63	189.88	73.42	
2025-01-19 18:41:48.85	191.08	74.05	
2025-01-19 18:41:50.07	192.38	74.68	
2025-01-19 18:41:51.29	193.79	75.30	
2025-01-19 18:41:52.50	195.32	75.91	
2025-01-19 18:41:53.72	197.01	76.51	
2025-01-19 18:41:54.94	198.86	77.11	
2025-01-19 18:41:56.16	200.89	77.69	
2025-01-19 18:41:57.37	203.11	78.26	
2025-01-19 18:41:58.59	205.57	78.81	
2025-01-19 18:41:59.81	208.29	79.34	
2025-01-19 18:42:01.03	211.29	79.85	
2025-01-19 18:42:02.25	214.61	80.33	
2025-01-19 18:42:03.46	218.23	80.77	
2025-01-19 18:42:04.68	222.23	81.17	
2025-01-19 18:42:05.90	226.61	81.53	
2025-01-19 18:42:07.12	231.34	81.84	
2025-01-19 18:42:08.33	236.37	82.09	
2025-01-19 18:42:09.55	241.73	82.27	
2025-01-19 18:42:10.77	247.30	82.39	
2025-01-19 18:42:11.99	252.99	82.43	
2025-01-19 18:42:13.20	258.63	82.40	
2025-01-19 18:42:14.42	264.22	82.29	
2025-01-19 18:42:15.64	269.61	82.12	
2025-01-19 18:42:16.86	274.73	81.88	
2025-01-19 18:42:18.08	279.50	81.58	
2025-01-19 18:42:19.29	283.89	81.23	
2025-01-19 18:42:20.51	287.94	80.83	
2025-01-19 18:42:21.73	291.64	80.39	
2025-01-19 18:42:22.95	294.99	79.91	
2025-01-19 18:42:24.16	298.01	79.41	
2025-01-19 18:42:25.38	300.77	78.89	
2025-01-19 18:42:26.60	303.26	78.34	
2025-01-19 18:42:27.82	305.52	77.77	
2025-01-19 18:42:29.03	307.56	77.19	
2025-01-19 18:42:30.25	309.43	76.60	
2025-01-19 18:42:31.47	311.14	76.00	
2025-01-19 18:42:32.69	312.70	75.39	
2025-01-19 18:42:33.91	314.13	74.77	
2025-01-19 18:42:35.12	315.44	74.15	
2025-01-19 18:42:36.34	316.65	73.52	
2025-01-19 18:42:37.56	317.77	72.89	
2025-01-19 18:42:38.78	318.80	72.26	
2025-01-19 18:42:39.99	319.75	71.63	
2025-01-19 18:42:41.21	320.65	71.00	
2025-01-19 18:42:42.43	321.48	70.36	
2025-01-19 18:42:43.65	322.26	69.73	
2025-01-19 18:42:44.86	322.98	69.10	
2025-01-19 18:42:46.08	323.66	68.47	
2025-01-19 18:42:47.30	324.30	67.84	
2025-01-19 18:42:48.52	324.90	67.22	
2025-01-19 18:42:49.74	325.47	66.59	
2025-01-19 18:42:50.95	326.00	65.98	
2025-01-19 18:42:52.17	326.51	65.36	
2025-01-19 18:42:53.39	326.98	64.75	
2025-01-19 18:42:54.61	327.44	64.13	
2025-01-19 18:42:55.82	327.86	63.53	
2025-01-19 18:42:57.04	328.27	62.93	
2025-01-19 18:42:58.26	328.66	62.33	
2025-01-19 18:42:59.48	329.03	61.74	
2025-01-19 18:43:00.70	329.39	61.15	
2025-01-19 18:43:01.91	329.72	60.57	
2025-01-19 18:43:03.13	330.05	59.99	
2025-01-19 18:43:04.35	330.35	59.41	
2025-01-19 18:43:05.57	330.65	58.84	
2025-01-19 18:43:06.78	330.93	58.28	
2025-01-19 18:43:08.00	331.20	57.72	
2025-01-19 18:43:09.22	331.46	57.17	
2025-01-19 18:43:10.44	331.71	56.62	
2025-01-19 18:43:11.65	331.95	56.08	
2025-01-19 18:43:12.87	332.18	55.54	
2025-01-19 18:43:14.09	332.41	55.00	
2025-01-19 18:43:15.31	332.62	54.47	
2025-01-19 18:43:16.53	332.83	53.95	
2025-01-19 18:43:17.74	333.03	53.43	
2025-01-19 18:43:18.96	333.22	52.92	
2025-01-19 18:43:20.18	333.41	52.41	
2025-01-19 18:43:21.40	333.59	51.90	
2025-01-19 18:43:22.61	333.76	51.41	
2025-01-19 18:43:23.83	333.93	50.92	
2025-01-19 18:43:25.05	334.10	50.43	
2025-01-19 18:43:26.27	334.25	49.94	
2025-01-19 18:43:27.48	334.41	49.47	
2025-01-19 18:43:28.70	334.56	49.00	
2025-01-19 18:43:29.92	334.70	48.53	
2025-01-19 18:43:31.14	334.84	48.07	
2025-01-19 18:43:32.36	334.98	47.61	
2025-01-19 18:43:33.57	335.11	47.16	
2025-01-19 18:43:34.79	335.24	46.71	
2025-01-19 18:43:36.01	335.36	46.27	
2025-01-19 18:43:37.23	335.49	45.83	
2025-01-19 18:43:38.44	335.61	45.40	
2025-01-19 18:43:39.66	335.72	44.97	
2025-01-19 18:43:40.88	335.83	44.55	
2025-01-19 18:43:42.10	335.94	44.13	
2025-01-19 18:43:43.31	336.05	43.71	
2025-01-19 18:43:44.53	336.15	43.30	
2025-01-19 18:43:45.75	336.26	42.90	
2025-01-19 18:43:46.97	336.36	42.50	
2025-01-19 18:43:48.19	336.45	42.10	
2025-01-19 18:43:49.40	336.55	41.71	
2025-01-19 18:43:50.62	336.64	41.32	
2025-01-19 18:43:51.84	336.73	40.94	
2025-01-19 18:43:53.07	336.82	40.55	
2025-01-19 18:43:54.29	336.91	40.18	
2025-01-19 18:43:55.51	336.99	39.81	
2025-01-19 18:43:56.73	337.08	39.44	
2025-01-19 18:43:57.94	337.16	39.08	
2025-01-19 18:43:59.16	337.24	38.72	
2025-01-19 18:44:00.38	337.31	38.36	
2025-01-19 18:44:01.60	337.39	38.01	
2025-01-19 18:44:02.81	337.46	37.67	
2025-01-19 18:44:04.03	337.54	37.32	
2025-01-19 18:44:05.25	337.61	36.98	
2025-01-19 18:44:06.47	337.68	36.64	
2025-01-19 18:44:07.68	337.75	36.31	
2025-01-19 18:44:08.90	337.81	35.98	
2025-01-19 18:44:10.12	337.88	35.66	
2025-01-19 18:44:11.34	337.95	35.33	
2025-01-19 18:44:12.56	338.01	35.02	
2025-01-19 18:44:13.77	338.07	34.70	
2025-01-19 18:44:14.99	338.13	34.39	
2025-01-19 18:44:16.21	338.19	34.08	
2025-01-19 18:44:17.43	338.25	33.77	
2025-01-19 18:44:18.64	338.31	33.47	
2025-01-19 18:44:19.86	338.37	33.17	
2025-01-19 18:44:21.08	338.43	32.88	
2025-01-19 18:44:22.30	338.48	32.58	
2025-01-19 18:44:23.51	338.54	32.30	
2025-01-19 18:44:24.73	338.59	32.01	
2025-01-19 18:44:25.95	338.64	31.72	
2025-01-19 18:44:27.17	338.69	31.44	
2025-01-19 18:44:28.39	338.74	31.16	
2025-01-19 18:44:29.60	338.79	30.89	
2025-01-19 18:44:30.82	338.84	30.61	
2025-01-19 18:44:32.04	338.89	30.34	
2025-01-19 18:44:33.26	338.94	30.08	
2025-01-19 18:44:34.47	338.99	29.81	
2025-01-19 18:44:35.69	339.03	29.55	
2025-01-19 18:44:36.91	339.08	29.29	
2025-01-19 18:44:38.13	339.13	29.03	
2025-01-19 18:44:39.34	339.17	28.78	
2025-01-19 18:44:40.56	339.21	28.53	
2025-01-19 18:44:41.78	339.26	28.28	
2025-01-19 18:44:43.00	339.30	28.03	
2025-01-19 18:44:44.22	339.34	27.78	
2025-01-19 18:44:45.43	339.38	27.54	
2025-01-19 18:44:46.65	339.42	27.30	
2025-01-19 18:44:47.87	339.46	27.06	
2025-01-19 18:44:49.09	339.50	26.82	
2025-01-19 18:44:50.30	339.54	26.59	
2025-01-19 18:44:51.52	339.58	26.36	
2025-01-19 18:44:52.74	339.62	26.13	
2025-01-19 18:44:53.96	339.66	25.90	
2025-01-19 18:44:55.18	339.69	25.68	
2025-01-19 18:44:56.39	339.73	25.45	
2025-01-19 18:44:57.61	339.77	25.23	
2025-01-19 18:44:58.83	339.80	25.01	
2025-01-19 18:45:00.05	339.84	24.80	
2025-01-19 18:45:01.26	339.87	24.58	
2025-01-19 18:45:02.48	339.91	24.37	
2025-01-19 18:45:03.70	339.94	24.16	
2025-01-19 18:45:04.92	339.98	23.94	
2025-01-19 18:45:06.13	340.01	23.74	
2025-01-19 18:45:07.35	340.04	23.53	
2025-01-19 18:45:08.57	340.07	23.33	
2025-01-19 18:45:09.79	340.11	23.12	
2025-01-19 18:45:11.01	340.14	22.92	
2025-01-19 18:45:12.22	340.17	22.72	
2025-01-19 18:45:13.44	340.20	22.53	
2025-01-19 18:45:14.66	340.23	22.33	
2025-01-19 18:45:15.88	340.26	22.13	
2025-01-19 18:45:17.09	340.29	21.94	
2025-01-19 18:45:18.31	340.32	21.75	
2025-01-19 18:45:19.53	340.35	21.56	
2025-01-19 18:45:20.75	340.38	21.37	
2025-01-19 18:45:21.96	340.41	21.19	
2025-01-19 18:45:23.18	340.44	21.00	
2025-01-19 18:45:24.40	340.47	20.82	
2025-01-19 18:45:25.62	340.49	20.64	
2025-01-19 18:45:26.84	340.52	20.45	
2025-01-19 18:45:28.05	340.55	20.28	
2025-01-19 18:45:29.27	340.58	20.10	
2025-01-19 18:45:30.49	340.60	19.92	
2025-01-19 18:45:31.71	340.63	19.75	
2025-01-19 18:45:32.92	340.66	19.57	
2025-01-19 18:45:34.14	340.68	19.40	
2025-01-19 18:45:35.36	340.71	19.23	
2025-01-19 18:45:36.58	340.73	19.06	
2025-01-19 18:45:37.79	340.76	18.89	
2025-01-19 18:45:39.01	340.78	18.72	
2025-01-19 18:45:40.23	340.81	18.56	
2025-01-19 18:45:41.45	340.83	18.39	
2025-01-19 18:45:42.67	340.86	18.23	
2025-01-19 18:45:43.88	340.88	18.06	
2025-01-19 18:45:45.10	340.91	17.90	
2025-01-19 18:45:46.32	340.93	17.74	
2025-01-19 18:45:47.54	340.95	17.58	
2025-01-19 18:45:48.75	340.98	17.43	
2025-01-19 18:45:49.97	341.00	17.27	
2025-01-19 18:45:51.19	341.02	17.11	
2025-01-19 18:45:52.41	341.04	16.96	
2025-01-19 18:45:53.63	341.07	16.80	
2025-01-19 18:45:54.84	341.09	16.65	
2025-01-19 18:45:56.06	341.11	16.50	
2025-01-19 18:45:57.28	341.13	16.35	
2025-01-19 18:45:58.50	341.16	16.20	
2025-01-19 18:45:59.71	341.18	16.05	
2025-01-19 18:46:00.93	341.20	15.90	
2025-01-19 18:46:02.15	341.22	15.76	
2025-01-19 18:46:03.37	341.24	15.61	
2025-01-19 18:46:04.58	341.26	15.47	
2025-01-19 18:46:05.80	341.28	15.32	
2025-01-19 18:46:07.02	341.30	15.18	
2025-01-19 18:46:08.24	341.32	15.04	
2025-01-19 18:46:09.46	341.34	14.90	
2025-01-19 18:46:10.67	341.36	14.76	
2025-01-19 18:46:11.89	341.38	14.62	
2025-01-19 18:46:13.11	341.40	14.48	
2025-01-19 18:46:14.33	341.42	14.34	
2025-01-19 18:46:15.54	341.44	14.21	
2025-01-19 18:46:16.76	341.46	14.07	
2025-01-19 18:46:17.98	341.48	13.94	
2025-01-19 18:46:19.20	341.50	13.80	
2025-01-19 18:46:20.41	341.52	13.67	
2025-01-19 18:46:21.63	341.54	13.54	
2025-01-19 18:46:22.85	341.56	13.40	
2025-01-19 18:46:24.07	341.58	13.27	
2025-01-19 18:46:25.29	341.60	13.14	
2025-01-19 18:46:26.50	341.61	13.01	
2025-01-19 18:46:27.72	341.63	12.89	
2025-01-19 18:46:28.94	341.65	12.76	
2025-01-19 18:46:30.16	341.67	12.63	
2025-01-19 18:46:31.37	341.69	12.50	
2025-01-19 18:46:32.59	341.70	12.38	
2025-01-19 18:46:33.81	341.72	12.25	
2025-01-19 18:46:35.03	341.74	12.13	
2025-01-19 18:46:36.24	341.76	12.01	
2025-01-19 18:46:37.46	341.77	11.88	
2025-01-19 18:46:38.68	341.79	11.76	
2025-01-19 18:46:39.90	341.81	11.64	
2025-01-19 18:46:41.12	341.83	11.52	
2025-01-19 18:46:42.33	341.84	11.40	
2025-01-19 18:46:43.55	341.86	11.28	
2025-01-19 18:46:44.77	341.88	11.16	
2025-01-19 18:46:45.99	341.89	11.04	
2025-01-19 18:46:47.20	341.91	10.92	
2025-01-19 18:46:48.42	341.93	10.81	
2025-01-19 18:46:49.64	341.94	10.69	
2025-01-19 18:46:50.86	341.96	10.58	
2025-01-19 18:46:52.08	341.97	10.46	
2025-01-19 18:46:53.29	341.99	10.35	
2025-01-19 18:46:54.51	342.01	10.23	
2025-01-19 18:46:55.73	342.02	10.12	
2025-01-19 18:46:56.95	342.04	10.01	
2025-01-19 18:46:58.16	342.05	9.89	
2025-01-19 18:46:59.38	342.07	9.78	
2025-01-19 18:47:00.60	342.09	9.67	
2025-01-19 18:47:01.82	342.10	9.56	
2025-01-19 18:47:03.03	342.12	9.45	
2025-01-19 18:47:04.25	342.13	9.34	
2025-01-19 18:47:05.47	342.15	9.23	
2025-01-19 18:47:06.69	342.16	9.12	
2025-01-19 18:47:07.91	342.18	9.01	
2025-01-19 18:47:09.12	342.19	8.91	
2025-01-19 18:47:10.34	342.21	8.80	
2025-01-19 18:47:11.56	342.22	8.69	
2025-01-19 18:47:12.78	342.24	8.59	
2025-01-19 18:47:13.99	342.25	8.48	
2025-01-19 18:47:15.21	342.27	8.38	
2025-01-19 18:47:16.43	342.28	8.27	
2025-01-19 18:47:17.65	342.29	8.17	
2025-01-19 18:47:18.86	342.31	8.07	
2025-01-19 18:47:20.08	342.32	7.96	
2025-01-19 18:47:21.30	342.34	7.86	
2025-01-19 18:47:22.52	342.35	7.76	
2025-01-19 18:47:23.74	342.37	7.66	
2025-01-19 18:47:24.95	342.38	7.56	
2025-01-19 18:47:26.17	342.39	7.46	
2025-01-19 18:47:27.39	342.41	7.36	
2025-01-19 18:47:28.61	342.42	7.26	
2025-01-19 18:47:29.82	342.43	7.16	
2025-01-19 18:47:31.04	342.45	7.06	
2025-01-19 18:47:32.26	342.46	6.96	
2025-01-19 18:47:33.48	342.48	6.86	
2025-01-19 18:47:34.69	342.49	6.76	
2025-01-19 18:47:35.91	342.50	6.67	
2025-01-19 18:47:37.13	342.52	6.57	
2025-01-19 18:47:38.35	342.53	6.47	
2025-01-19 18:47:39.57	342.54	6.38	
2025-01-19 18:47:40.78	342.56	6.28	
2025-01-19 18:47:42.00	342.57	6.19	
2025-01-19 18:47:43.22	342.58	6.09	
2025-01-19 18:47:44.44	342.60	6.00	
2025-01-19 18:47:45.65	342.61	5.90	
2025-01-19 18:47:46.87	342.62	5.81	
2025-01-19 18:47:48.09	342.63	5.71	
2025-01-19 18:47:49.31	342.65	5.62	
2025-01-19 18:47:50.53	342.66	5.53	
2025-01-19 18:47:51.74	342.67	5.44	
2025-01-19 18:47:52.96	342.69	5.34	
2025-01-19 18:47:54.18	342.70	5.25	
2025-01-19 18:47:55.40	342.71	5.16	
2025-01-19 18:47:56.61	342.72	5.07	
2025-01-19 18:47:57.83	342.74	4.98	
2025-01-19 18:47:59.05	342.75	4.89	
2025-01-19 18:48:00.27	342.76	4.80	
2025-01-19 18:48:01.48	342.77	4.71	
2025-01-19 18:48:02.70	342.79	4.62	
2025-01-19 18:48:03.92	342.80	4.53	
2025-01-19 18:48:05.14	342.81	4.44	
2025-01-19 18:48:06.36	342.82	4.36	
2025-01-19 18:48:07.57	342.83	4.27	
2025-01-19 18:48:08.79	342.85	4.18	
2025-01-19 18:48:10.01	342.86	4.09	
2025-01-19 18:48:11.23	342.87	4.01	

#Closed at: 2025-01-19 18:48:11