passes_logs/2025/01/19/SPB_Silybum_02/SPB_Silybum_02__20250119_121309_SUOMI_NPP_rec.log

#Pass ID: 20250119_121309_SUOMI NPP
#Satellite: SUOMI NPP
#Configuration: NPP
#Start time: 2025-01-19 12:13:10

#Version: 2.0.20230423
#Station: SPB_Silybum_02
#Location: 30.233357 lon 59.946436 lat
#TLE: 1 37849U 11061A   25018.79654560  .00000210  00000+0  12058-3 0  9999
#TLE: 2 37849  98.7450 319.7371 0001526  35.0024 325.1252 14.19540179685454

#Time	Az	El	Level	Level2	SNR	BER	Gain	Gain2
2025-01-19 12:13:12.16	219.46	4.15	
2025-01-19 12:13:13.38	219.57	4.22	
2025-01-19 12:13:14.60	219.68	4.28	
2025-01-19 12:13:15.82	219.80	4.35	
2025-01-19 12:13:17.04	219.91	4.42	
2025-01-19 12:13:18.26	220.02	4.48	
2025-01-19 12:13:19.47	220.14	4.55	
2025-01-19 12:13:20.69	220.25	4.61	
2025-01-19 12:13:21.91	220.37	4.68	
2025-01-19 12:13:23.13	220.49	4.75	
2025-01-19 12:13:24.35	220.60	4.82	
2025-01-19 12:13:25.57	220.72	4.88	
2025-01-19 12:13:26.79	220.84	4.95	
2025-01-19 12:13:28.01	220.96	5.02	
2025-01-19 12:13:29.22	221.08	5.08	
2025-01-19 12:13:30.44	221.20	5.15	
2025-01-19 12:13:31.66	221.32	5.22	
2025-01-19 12:13:32.88	221.44	5.29	
2025-01-19 12:13:34.10	221.56	5.35	
2025-01-19 12:13:35.32	221.68	5.42	
2025-01-19 12:13:36.54	221.81	5.49	
2025-01-19 12:13:37.76	221.93	5.56	
2025-01-19 12:13:38.97	222.05	5.62	
2025-01-19 12:13:40.19	222.18	5.69	
2025-01-19 12:13:41.41	222.30	5.76	
2025-01-19 12:13:42.63	222.43	5.83	
2025-01-19 12:13:43.85	222.55	5.90	
2025-01-19 12:13:45.07	222.68	5.96	
2025-01-19 12:13:46.29	222.81	6.03	
2025-01-19 12:13:47.51	222.93	6.10	
2025-01-19 12:13:48.73	223.06	6.17	
2025-01-19 12:13:49.94	223.19	6.24	
2025-01-19 12:13:51.16	223.32	6.30	
2025-01-19 12:13:52.38	223.45	6.37	
2025-01-19 12:13:53.60	223.58	6.44	
2025-01-19 12:13:54.82	223.71	6.51	
2025-01-19 12:13:56.04	223.84	6.58	
2025-01-19 12:13:57.26	223.97	6.65	
2025-01-19 12:13:58.48	224.11	6.72	
2025-01-19 12:13:59.69	224.24	6.78	
2025-01-19 12:14:00.91	224.37	6.85	
2025-01-19 12:14:02.13	224.51	6.92	
2025-01-19 12:14:03.35	224.64	6.99	
2025-01-19 12:14:04.57	224.78	7.06	
2025-01-19 12:14:05.79	224.92	7.13	
2025-01-19 12:14:07.01	225.05	7.20	
2025-01-19 12:14:08.23	225.19	7.27	
2025-01-19 12:14:09.44	225.33	7.34	
2025-01-19 12:14:10.66	225.47	7.41	
2025-01-19 12:14:11.88	225.61	7.48	
2025-01-19 12:14:13.10	225.75	7.54	
2025-01-19 12:14:14.32	225.89	7.61	
2025-01-19 12:14:15.54	226.03	7.68	
2025-01-19 12:14:16.76	226.17	7.75	
2025-01-19 12:14:17.98	226.32	7.82	
2025-01-19 12:14:19.20	226.46	7.89	
2025-01-19 12:14:20.41	226.60	7.96	
2025-01-19 12:14:21.63	226.75	8.03	
2025-01-19 12:14:22.85	226.89	8.10	
2025-01-19 12:14:24.07	227.04	8.17	
2025-01-19 12:14:25.29	227.19	8.24	
2025-01-19 12:14:26.51	227.33	8.31	
2025-01-19 12:14:27.73	227.48	8.38	
2025-01-19 12:14:28.95	227.63	8.45	
2025-01-19 12:14:30.16	227.78	8.52	
2025-01-19 12:14:31.38	227.93	8.59	
2025-01-19 12:14:32.60	228.08	8.66	
2025-01-19 12:14:33.82	228.23	8.73	
2025-01-19 12:14:35.04	228.39	8.80	
2025-01-19 12:14:36.26	228.54	8.87	
2025-01-19 12:14:37.48	228.69	8.94	
2025-01-19 12:14:38.70	228.85	9.01	
2025-01-19 12:14:39.91	229.00	9.08	
2025-01-19 12:14:41.13	229.16	9.15	
2025-01-19 12:14:42.35	229.32	9.22	
2025-01-19 12:14:43.57	229.47	9.29	
2025-01-19 12:14:44.79	229.63	9.36	
2025-01-19 12:14:46.01	229.79	9.43	
2025-01-19 12:14:47.23	229.95	9.50	
2025-01-19 12:14:48.45	230.11	9.57	
2025-01-19 12:14:49.66	230.27	9.64	
2025-01-19 12:14:50.88	230.43	9.71	
2025-01-19 12:14:52.10	230.60	9.78	
2025-01-19 12:14:53.32	230.76	9.85	
2025-01-19 12:14:54.54	230.92	9.92	
2025-01-19 12:14:55.76	231.09	9.99	
2025-01-19 12:14:56.98	231.25	10.06	
2025-01-19 12:14:58.20	231.42	10.13	
2025-01-19 12:14:59.42	231.59	10.20	
2025-01-19 12:15:00.67	231.76	10.27	
2025-01-19 12:15:01.88	231.93	10.34	
2025-01-19 12:15:03.10	232.10	10.41	
2025-01-19 12:15:04.32	232.27	10.48	
2025-01-19 12:15:05.54	232.44	10.55	
2025-01-19 12:15:06.76	232.61	10.62	
2025-01-19 12:15:07.98	232.78	10.69	
2025-01-19 12:15:09.20	232.96	10.76	
2025-01-19 12:15:10.42	233.13	10.83	
2025-01-19 12:15:11.63	233.31	10.90	
2025-01-19 12:15:12.85	233.48	10.97	
2025-01-19 12:15:14.07	233.66	11.04	
2025-01-19 12:15:15.29	233.84	11.11	
2025-01-19 12:15:16.51	234.02	11.18	
2025-01-19 12:15:17.73	234.19	11.25	
2025-01-19 12:15:18.95	234.37	11.32	
2025-01-19 12:15:20.17	234.56	11.39	
2025-01-19 12:15:21.38	234.74	11.46	
2025-01-19 12:15:22.60	234.92	11.53	
2025-01-19 12:15:23.82	235.10	11.59	
2025-01-19 12:15:25.04	235.29	11.66	
2025-01-19 12:15:26.26	235.47	11.73	
2025-01-19 12:15:27.48	235.66	11.80	
2025-01-19 12:15:28.70	235.84	11.87	
2025-01-19 12:15:29.92	236.03	11.94	
2025-01-19 12:15:31.14	236.22	12.01	
2025-01-19 12:15:32.35	236.41	12.08	
2025-01-19 12:15:33.57	236.60	12.15	
2025-01-19 12:15:34.79	236.79	12.21	
2025-01-19 12:15:36.01	236.98	12.28	
2025-01-19 12:15:37.23	237.17	12.35	
2025-01-19 12:15:38.45	237.37	12.42	
2025-01-19 12:15:39.67	237.56	12.49	
2025-01-19 12:15:40.89	237.76	12.56	
2025-01-19 12:15:42.10	237.95	12.62	
2025-01-19 12:15:43.32	238.15	12.69	
2025-01-19 12:15:44.54	238.35	12.76	
2025-01-19 12:15:45.76	238.55	12.83	
2025-01-19 12:15:46.98	238.75	12.89	
2025-01-19 12:15:48.20	238.95	12.96	
2025-01-19 12:15:49.42	239.15	13.03	
2025-01-19 12:15:50.64	239.35	13.10	
2025-01-19 12:15:51.85	239.55	13.16	
2025-01-19 12:15:53.07	239.76	13.23	
2025-01-19 12:15:54.29	239.96	13.30	
2025-01-19 12:15:55.51	240.17	13.36	
2025-01-19 12:15:56.73	240.38	13.43	
2025-01-19 12:15:57.95	240.58	13.49	
2025-01-19 12:15:59.17	240.79	13.56	
2025-01-19 12:16:00.39	241.00	13.63	
2025-01-19 12:16:01.60	241.21	13.69	
2025-01-19 12:16:02.82	241.42	13.76	
2025-01-19 12:16:04.04	241.64	13.82	
2025-01-19 12:16:05.26	241.85	13.89	
2025-01-19 12:16:06.48	242.06	13.95	
2025-01-19 12:16:07.70	242.28	14.02	
2025-01-19 12:16:08.92	242.49	14.08	
2025-01-19 12:16:10.14	242.71	14.15	
2025-01-19 12:16:11.35	242.93	14.21	
2025-01-19 12:16:12.57	243.15	14.27	
2025-01-19 12:16:13.79	243.37	14.34	
2025-01-19 12:16:15.01	243.59	14.40	
2025-01-19 12:16:16.23	243.81	14.46	
2025-01-19 12:16:17.45	244.03	14.53	
2025-01-19 12:16:18.67	244.25	14.59	
2025-01-19 12:16:19.89	244.48	14.65	
2025-01-19 12:16:21.11	244.70	14.71	
2025-01-19 12:16:22.32	244.93	14.78	
2025-01-19 12:16:23.54	245.15	14.84	
2025-01-19 12:16:24.76	245.38	14.90	
2025-01-19 12:16:25.98	245.61	14.96	
2025-01-19 12:16:27.20	245.84	15.02	
2025-01-19 12:16:28.42	246.07	15.08	
2025-01-19 12:16:29.64	246.30	15.14	
2025-01-19 12:16:30.86	246.53	15.20	
2025-01-19 12:16:32.07	246.77	15.26	
2025-01-19 12:16:33.29	247.00	15.32	
2025-01-19 12:16:34.51	247.24	15.38	
2025-01-19 12:16:35.73	247.47	15.44	
2025-01-19 12:16:36.95	247.71	15.50	
2025-01-19 12:16:38.17	247.95	15.56	
2025-01-19 12:16:39.39	248.18	15.61	
2025-01-19 12:16:40.61	248.42	15.67	
2025-01-19 12:16:41.82	248.66	15.73	
2025-01-19 12:16:43.04	248.90	15.79	
2025-01-19 12:16:44.26	249.15	15.84	
2025-01-19 12:16:45.48	249.39	15.90	
2025-01-19 12:16:46.70	249.63	15.95	
2025-01-19 12:16:47.92	249.88	16.01	
2025-01-19 12:16:49.14	250.12	16.06	
2025-01-19 12:16:50.36	250.37	16.12	
2025-01-19 12:16:51.58	250.62	16.17	
2025-01-19 12:16:52.79	250.87	16.23	
2025-01-19 12:16:54.01	251.11	16.28	
2025-01-19 12:16:55.23	251.36	16.33	
2025-01-19 12:16:56.45	251.62	16.39	
2025-01-19 12:16:57.67	251.87	16.44	
2025-01-19 12:16:58.89	252.12	16.49	
2025-01-19 12:17:00.11	252.37	16.54	
2025-01-19 12:17:01.33	252.63	16.59	
2025-01-19 12:17:02.54	252.88	16.64	
2025-01-19 12:17:03.76	253.14	16.69	
2025-01-19 12:17:04.98	253.39	16.74	
2025-01-19 12:17:06.20	253.65	16.79	
2025-01-19 12:17:07.42	253.91	16.84	
2025-01-19 12:17:08.64	254.17	16.89	
2025-01-19 12:17:09.86	254.43	16.94	
2025-01-19 12:17:11.08	254.69	16.99	
2025-01-19 12:17:12.29	254.95	17.03	
2025-01-19 12:17:13.51	255.21	17.08	
2025-01-19 12:17:14.73	255.48	17.13	
2025-01-19 12:17:15.95	255.74	17.17	
2025-01-19 12:17:17.17	256.00	17.22	
2025-01-19 12:17:18.39	256.27	17.26	
2025-01-19 12:17:19.61	256.54	17.30	
2025-01-19 12:17:20.83	256.80	17.35	
2025-01-19 12:17:22.05	257.07	17.39	
2025-01-19 12:17:23.26	257.34	17.43	
2025-01-19 12:17:24.48	257.61	17.48	
2025-01-19 12:17:25.70	257.88	17.52	
2025-01-19 12:17:26.92	258.15	17.56	
2025-01-19 12:17:28.14	258.42	17.60	
2025-01-19 12:17:29.36	258.69	17.64	
2025-01-19 12:17:30.58	258.96	17.68	
2025-01-19 12:17:31.80	259.24	17.72	
2025-01-19 12:17:33.01	259.51	17.75	
2025-01-19 12:17:34.23	259.78	17.79	
2025-01-19 12:17:35.45	260.06	17.83	
2025-01-19 12:17:36.67	260.34	17.86	
2025-01-19 12:17:37.89	260.61	17.90	
2025-01-19 12:17:39.11	260.89	17.94	
2025-01-19 12:17:40.33	261.17	17.97	
2025-01-19 12:17:41.55	261.45	18.00	
2025-01-19 12:17:42.76	261.72	18.04	
2025-01-19 12:17:43.98	262.00	18.07	
2025-01-19 12:17:45.20	262.28	18.10	
2025-01-19 12:17:46.42	262.56	18.13	
2025-01-19 12:17:47.64	262.85	18.16	
2025-01-19 12:17:48.86	263.13	18.19	
2025-01-19 12:17:50.08	263.41	18.22	
2025-01-19 12:17:51.30	263.69	18.25	
2025-01-19 12:17:52.52	263.98	18.28	
2025-01-19 12:17:53.74	264.26	18.31	
2025-01-19 12:17:54.96	264.55	18.34	
2025-01-19 12:17:56.18	264.83	18.36	
2025-01-19 12:17:57.40	265.12	18.39	
2025-01-19 12:17:58.62	265.40	18.41	
2025-01-19 12:17:59.83	265.69	18.44	
2025-01-19 12:18:01.05	265.97	18.46	
2025-01-19 12:18:02.27	266.26	18.48	
2025-01-19 12:18:03.49	266.55	18.51	
2025-01-19 12:18:04.71	266.84	18.53	
2025-01-19 12:18:05.93	267.12	18.55	
2025-01-19 12:18:07.15	267.41	18.57	
2025-01-19 12:18:08.37	267.70	18.59	
2025-01-19 12:18:09.59	267.99	18.61	
2025-01-19 12:18:10.80	268.28	18.63	
2025-01-19 12:18:12.02	268.57	18.64	
2025-01-19 12:18:13.24	268.86	18.66	
2025-01-19 12:18:14.46	269.15	18.68	
2025-01-19 12:18:15.68	269.44	18.69	
2025-01-19 12:18:16.90	269.73	18.71	
2025-01-19 12:18:18.12	270.02	18.72	
2025-01-19 12:18:19.34	270.32	18.73	
2025-01-19 12:18:20.55	270.61	18.75	
2025-01-19 12:18:21.77	270.90	18.76	
2025-01-19 12:18:22.99	271.19	18.77	
2025-01-19 12:18:24.21	271.48	18.78	
2025-01-19 12:18:25.43	271.78	18.79	
2025-01-19 12:18:26.65	272.07	18.80	
2025-01-19 12:18:27.87	272.36	18.81	
2025-01-19 12:18:29.09	272.66	18.81	
2025-01-19 12:18:30.30	272.95	18.82	
2025-01-19 12:18:31.52	273.24	18.83	
2025-01-19 12:18:32.74	273.53	18.83	
2025-01-19 12:18:33.96	273.83	18.83	
2025-01-19 12:18:35.18	274.12	18.84	
2025-01-19 12:18:36.40	274.42	18.84	
2025-01-19 12:18:37.62	274.71	18.84	
2025-01-19 12:18:38.84	275.00	18.85	
2025-01-19 12:18:40.05	275.30	18.85	
2025-01-19 12:18:41.27	275.59	18.85	
2025-01-19 12:18:42.49	275.88	18.85	
2025-01-19 12:18:43.71	276.18	18.84	
2025-01-19 12:18:44.93	276.47	18.84	
2025-01-19 12:18:46.15	276.77	18.84	
2025-01-19 12:18:47.37	277.06	18.84	
2025-01-19 12:18:48.59	277.35	18.83	
2025-01-19 12:18:49.81	277.65	18.83	
2025-01-19 12:18:51.02	277.94	18.82	
2025-01-19 12:18:52.24	278.23	18.81	
2025-01-19 12:18:53.46	278.52	18.81	
2025-01-19 12:18:54.68	278.82	18.80	
2025-01-19 12:18:55.90	279.11	18.79	
2025-01-19 12:18:57.12	279.40	18.78	
2025-01-19 12:18:58.34	279.70	18.77	
2025-01-19 12:18:59.56	279.99	18.76	
2025-01-19 12:19:00.77	280.28	18.75	
2025-01-19 12:19:01.99	280.57	18.74	
2025-01-19 12:19:03.21	280.86	18.72	
2025-01-19 12:19:04.43	281.15	18.71	
2025-01-19 12:19:05.65	281.44	18.70	
2025-01-19 12:19:06.87	281.73	18.68	
2025-01-19 12:19:08.09	282.02	18.67	
2025-01-19 12:19:09.31	282.32	18.65	
2025-01-19 12:19:10.52	282.60	18.63	
2025-01-19 12:19:11.74	282.89	18.61	
2025-01-19 12:19:12.96	283.18	18.60	
2025-01-19 12:19:14.18	283.47	18.58	
2025-01-19 12:19:15.40	283.76	18.56	
2025-01-19 12:19:16.62	284.05	18.54	
2025-01-19 12:19:17.84	284.33	18.51	
2025-01-19 12:19:19.06	284.62	18.49	
2025-01-19 12:19:20.27	284.91	18.47	
2025-01-19 12:19:21.49	285.19	18.45	
2025-01-19 12:19:22.71	285.48	18.42	
2025-01-19 12:19:23.93	285.76	18.40	
2025-01-19 12:19:25.15	286.05	18.37	
2025-01-19 12:19:26.37	286.33	18.35	
2025-01-19 12:19:27.59	286.62	18.32	
2025-01-19 12:19:28.81	286.90	18.29	
2025-01-19 12:19:30.03	287.18	18.26	
2025-01-19 12:19:31.24	287.46	18.24	
2025-01-19 12:19:32.46	287.75	18.21	
2025-01-19 12:19:33.68	288.03	18.18	
2025-01-19 12:19:34.90	288.31	18.15	
2025-01-19 12:19:36.12	288.59	18.11	
2025-01-19 12:19:37.34	288.87	18.08	
2025-01-19 12:19:38.56	289.15	18.05	
2025-01-19 12:19:39.78	289.43	18.02	
2025-01-19 12:19:40.99	289.70	17.98	
2025-01-19 12:19:42.21	289.98	17.95	
2025-01-19 12:19:43.43	290.26	17.92	
2025-01-19 12:19:44.65	290.53	17.88	
2025-01-19 12:19:45.87	290.81	17.84	
2025-01-19 12:19:47.09	291.08	17.81	
2025-01-19 12:19:48.31	291.36	17.77	
2025-01-19 12:19:49.53	291.63	17.73	
2025-01-19 12:19:50.74	291.90	17.69	
2025-01-19 12:19:51.96	292.17	17.66	
2025-01-19 12:19:53.18	292.45	17.62	
2025-01-19 12:19:54.40	292.72	17.58	
2025-01-19 12:19:55.62	292.99	17.54	
2025-01-19 12:19:56.84	293.26	17.50	
2025-01-19 12:19:58.06	293.52	17.45	
2025-01-19 12:19:59.28	293.79	17.41	
2025-01-19 12:20:00.50	294.06	17.37	
2025-01-19 12:20:01.71	294.32	17.33	
2025-01-19 12:20:02.93	294.59	17.28	
2025-01-19 12:20:04.15	294.85	17.24	
2025-01-19 12:20:05.37	295.12	17.19	
2025-01-19 12:20:06.59	295.38	17.15	
2025-01-19 12:20:07.81	295.64	17.10	
2025-01-19 12:20:09.03	295.91	17.06	
2025-01-19 12:20:10.25	296.17	17.01	
2025-01-19 12:20:11.46	296.42	16.96	
2025-01-19 12:20:12.68	296.68	16.92	
2025-01-19 12:20:13.90	296.94	16.87	
2025-01-19 12:20:15.12	297.20	16.82	
2025-01-19 12:20:16.34	297.46	16.77	
2025-01-19 12:20:17.56	297.71	16.72	
2025-01-19 12:20:18.78	297.97	16.67	
2025-01-19 12:20:20.00	298.22	16.62	
2025-01-19 12:20:21.21	298.47	16.57	
2025-01-19 12:20:22.43	298.73	16.52	
2025-01-19 12:20:23.65	298.98	16.47	
2025-01-19 12:20:24.87	299.23	16.42	
2025-01-19 12:20:26.09	299.48	16.37	
2025-01-19 12:20:27.31	299.73	16.31	
2025-01-19 12:20:28.53	299.98	16.26	
2025-01-19 12:20:29.75	300.23	16.21	
2025-01-19 12:20:30.96	300.47	16.15	
2025-01-19 12:20:32.18	300.72	16.10	
2025-01-19 12:20:33.40	300.96	16.04	
2025-01-19 12:20:34.62	301.21	15.99	
2025-01-19 12:20:35.84	301.45	15.93	
2025-01-19 12:20:37.06	301.69	15.88	
2025-01-19 12:20:38.28	301.93	15.82	
2025-01-19 12:20:39.50	302.17	15.77	
2025-01-19 12:20:40.72	302.41	15.71	
2025-01-19 12:20:41.93	302.65	15.65	
2025-01-19 12:20:43.15	302.89	15.60	
2025-01-19 12:20:44.37	303.13	15.54	
2025-01-19 12:20:45.59	303.36	15.48	
2025-01-19 12:20:46.81	303.60	15.42	
2025-01-19 12:20:48.03	303.83	15.36	
2025-01-19 12:20:49.25	304.07	15.30	
2025-01-19 12:20:50.47	304.30	15.24	
2025-01-19 12:20:51.68	304.53	15.19	
2025-01-19 12:20:52.90	304.76	15.13	
2025-01-19 12:20:54.12	304.99	15.07	
2025-01-19 12:20:55.34	305.22	15.01	
2025-01-19 12:20:56.56	305.45	14.95	
2025-01-19 12:20:57.78	305.67	14.88	
2025-01-19 12:20:59.00	305.90	14.82	
2025-01-19 12:21:00.22	306.12	14.76	
2025-01-19 12:21:01.43	306.35	14.70	
2025-01-19 12:21:02.65	306.57	14.64	
2025-01-19 12:21:03.87	306.79	14.58	
2025-01-19 12:21:05.09	307.01	14.51	
2025-01-19 12:21:06.31	307.24	14.45	
2025-01-19 12:21:07.53	307.46	14.39	
2025-01-19 12:21:08.75	307.67	14.33	
2025-01-19 12:21:09.97	307.89	14.26	
2025-01-19 12:21:11.19	308.11	14.20	
2025-01-19 12:21:12.40	308.32	14.14	
2025-01-19 12:21:13.62	308.54	14.07	
2025-01-19 12:21:14.84	308.75	14.01	
2025-01-19 12:21:16.06	308.97	13.94	
2025-01-19 12:21:17.28	309.18	13.88	
2025-01-19 12:21:18.50	309.39	13.82	
2025-01-19 12:21:19.72	309.60	13.75	
2025-01-19 12:21:20.94	309.81	13.69	
2025-01-19 12:21:22.15	310.02	13.62	
2025-01-19 12:21:23.37	310.23	13.56	
2025-01-19 12:21:24.59	310.44	13.49	
2025-01-19 12:21:25.81	310.64	13.42	
2025-01-19 12:21:27.03	310.85	13.36	
2025-01-19 12:21:28.25	311.05	13.29	
2025-01-19 12:21:29.47	311.26	13.23	
2025-01-19 12:21:30.69	311.46	13.16	
2025-01-19 12:21:31.90	311.66	13.09	
2025-01-19 12:21:33.12	311.86	13.03	
2025-01-19 12:21:34.34	312.06	12.96	
2025-01-19 12:21:35.56	312.26	12.89	
2025-01-19 12:21:36.78	312.46	12.83	
2025-01-19 12:21:38.00	312.66	12.76	
2025-01-19 12:21:39.22	312.85	12.69	
2025-01-19 12:21:40.44	313.05	12.63	
2025-01-19 12:21:41.65	313.24	12.56	
2025-01-19 12:21:42.87	313.44	12.49	
2025-01-19 12:21:44.09	313.63	12.42	
2025-01-19 12:21:45.31	313.82	12.36	
2025-01-19 12:21:46.53	314.01	12.29	
2025-01-19 12:21:47.75	314.20	12.22	
2025-01-19 12:21:48.97	314.39	12.15	
2025-01-19 12:21:50.19	314.58	12.09	
2025-01-19 12:21:51.41	314.77	12.02	
2025-01-19 12:21:52.62	314.96	11.95	
2025-01-19 12:21:53.84	315.14	11.88	
2025-01-19 12:21:55.06	315.33	11.81	
2025-01-19 12:21:56.28	315.51	11.74	
2025-01-19 12:21:57.50	315.70	11.68	
2025-01-19 12:21:58.72	315.88	11.61	
2025-01-19 12:21:59.94	316.06	11.54	
2025-01-19 12:22:01.16	316.24	11.47	
2025-01-19 12:22:02.37	316.42	11.40	
2025-01-19 12:22:03.59	316.60	11.33	
2025-01-19 12:22:04.81	316.78	11.26	
2025-01-19 12:22:06.03	316.96	11.20	
2025-01-19 12:22:07.25	317.14	11.13	
2025-01-19 12:22:08.47	317.31	11.06	
2025-01-19 12:22:09.69	317.49	10.99	
2025-01-19 12:22:10.91	317.66	10.92	
2025-01-19 12:22:12.12	317.84	10.85	
2025-01-19 12:22:13.34	318.01	10.78	
2025-01-19 12:22:14.56	318.18	10.71	
2025-01-19 12:22:15.78	318.36	10.64	
2025-01-19 12:22:17.00	318.53	10.57	
2025-01-19 12:22:18.22	318.70	10.50	
2025-01-19 12:22:19.44	318.87	10.44	
2025-01-19 12:22:20.66	319.03	10.37	
2025-01-19 12:22:21.87	319.20	10.30	
2025-01-19 12:22:23.09	319.37	10.23	
2025-01-19 12:22:24.31	319.53	10.16	
2025-01-19 12:22:25.53	319.70	10.09	
2025-01-19 12:22:26.75	319.87	10.02	
2025-01-19 12:22:27.97	320.03	9.95	
2025-01-19 12:22:29.19	320.19	9.88	
2025-01-19 12:22:30.41	320.36	9.81	
2025-01-19 12:22:31.63	320.52	9.74	
2025-01-19 12:22:32.84	320.68	9.67	
2025-01-19 12:22:34.06	320.84	9.60	
2025-01-19 12:22:35.28	321.00	9.53	
2025-01-19 12:22:36.50	321.16	9.47	
2025-01-19 12:22:37.72	321.31	9.40	
2025-01-19 12:22:38.94	321.47	9.33	
2025-01-19 12:22:40.16	321.63	9.26	
2025-01-19 12:22:41.38	321.78	9.19	
2025-01-19 12:22:42.59	321.94	9.12	
2025-01-19 12:22:43.81	322.09	9.05	
2025-01-19 12:22:45.03	322.25	8.98	
2025-01-19 12:22:46.25	322.40	8.91	
2025-01-19 12:22:47.47	322.55	8.84	
2025-01-19 12:22:48.69	322.70	8.77	
2025-01-19 12:22:49.91	322.86	8.70	
2025-01-19 12:22:51.14	323.01	8.63	
2025-01-19 12:22:52.36	323.16	8.57	
2025-01-19 12:22:53.58	323.31	8.50	
2025-01-19 12:22:54.79	323.45	8.43	
2025-01-19 12:22:56.02	323.60	8.36	
2025-01-19 12:22:57.24	323.75	8.29	
2025-01-19 12:22:58.46	323.90	8.22	
2025-01-19 12:22:59.68	324.04	8.15	
2025-01-19 12:23:00.90	324.19	8.08	
2025-01-19 12:23:02.12	324.33	8.01	
2025-01-19 12:23:03.34	324.47	7.94	
2025-01-19 12:23:04.56	324.62	7.88	
2025-01-19 12:23:05.78	324.76	7.81	
2025-01-19 12:23:06.99	324.90	7.74	
2025-01-19 12:23:08.21	325.04	7.67	
2025-01-19 12:23:09.43	325.18	7.60	
2025-01-19 12:23:10.65	325.32	7.53	
2025-01-19 12:23:11.87	325.46	7.46	
2025-01-19 12:23:13.09	325.60	7.40	
2025-01-19 12:23:14.31	325.74	7.33	
2025-01-19 12:23:15.53	325.88	7.26	
2025-01-19 12:23:16.74	326.01	7.19	
2025-01-19 12:23:17.96	326.15	7.12	
2025-01-19 12:23:19.18	326.28	7.05	
2025-01-19 12:23:20.40	326.42	6.99	
2025-01-19 12:23:21.62	326.55	6.92	
2025-01-19 12:23:22.84	326.69	6.85	
2025-01-19 12:23:24.06	326.82	6.78	
2025-01-19 12:23:25.28	326.95	6.71	
2025-01-19 12:23:26.49	327.08	6.65	
2025-01-19 12:23:27.71	327.21	6.58	
2025-01-19 12:23:28.93	327.35	6.51	
2025-01-19 12:23:30.15	327.48	6.44	
2025-01-19 12:23:31.37	327.61	6.37	
2025-01-19 12:23:32.59	327.73	6.31	
2025-01-19 12:23:33.81	327.86	6.24	
2025-01-19 12:23:35.03	327.99	6.17	
2025-01-19 12:23:36.24	328.12	6.11	
2025-01-19 12:23:37.46	328.24	6.04	
2025-01-19 12:23:38.68	328.37	5.97	
2025-01-19 12:23:39.90	328.50	5.90	
2025-01-19 12:23:41.12	328.62	5.84	
2025-01-19 12:23:42.34	328.75	5.77	
2025-01-19 12:23:43.56	328.87	5.70	
2025-01-19 12:23:44.78	328.99	5.63	
2025-01-19 12:23:46.00	329.12	5.57	
2025-01-19 12:23:47.21	329.24	5.50	
2025-01-19 12:23:48.43	329.36	5.43	
2025-01-19 12:23:49.65	329.48	5.37	
2025-01-19 12:23:50.87	329.60	5.30	
2025-01-19 12:23:52.09	329.72	5.23	
2025-01-19 12:23:53.31	329.84	5.17	
2025-01-19 12:23:54.53	329.96	5.10	
2025-01-19 12:23:55.75	330.08	5.03	
2025-01-19 12:23:56.96	330.20	4.97	
2025-01-19 12:23:58.18	330.32	4.90	
2025-01-19 12:23:59.40	330.43	4.84	
2025-01-19 12:24:00.62	330.55	4.77	
2025-01-19 12:24:01.84	330.67	4.70	
2025-01-19 12:24:03.06	330.78	4.64	
2025-01-19 12:24:04.28	330.90	4.57	
2025-01-19 12:24:05.50	331.01	4.51	
2025-01-19 12:24:06.71	331.13	4.44	
2025-01-19 12:24:07.93	331.24	4.38	
2025-01-19 12:24:09.15	331.35	4.31	
2025-01-19 12:24:10.37	331.47	4.24	
2025-01-19 12:24:11.59	331.58	4.18	
2025-01-19 12:24:12.81	331.69	4.11	
2025-01-19 12:24:14.03	331.80	4.05	

#Closed at: 2025-01-19 12:24:15