passes_logs/2025/01/19/SPB_Silybum_02/SPB_Silybum_02__20250119_201536_TERRA_rec.log

#Pass ID: 20250119_201536_TERRA
#Satellite: TERRA
#Configuration: TERRA
#Start time: 2025-01-19 20:15:37

#Version: 2.0.20230423
#Station: SPB_Silybum_02
#Location: 30.233357 lon 59.946436 lat
#TLE: 1 25994U 99068A   25018.76132064  .00000971  00000+0  20987-3 0  9991
#TLE: 2 25994  98.0209  81.6719 0003338  64.8500  46.9329 14.60403262334620

#Time	Az	El	Level	Level2	SNR	BER	Gain	Gain2
2025-01-19 20:15:39.12	218.69	4.13	
2025-01-19 20:15:40.14	218.79	4.19	
2025-01-19 20:15:41.16	218.90	4.25	
2025-01-19 20:15:42.17	219.00	4.31	
2025-01-19 20:15:43.19	219.11	4.37	
2025-01-19 20:15:44.20	219.21	4.42	
2025-01-19 20:15:45.22	219.32	4.48	
2025-01-19 20:15:46.23	219.43	4.54	
2025-01-19 20:15:47.25	219.54	4.60	
2025-01-19 20:15:48.26	219.64	4.66	
2025-01-19 20:15:49.28	219.75	4.72	
2025-01-19 20:15:50.29	219.86	4.78	
2025-01-19 20:15:51.31	219.97	4.83	
2025-01-19 20:15:52.33	220.08	4.89	
2025-01-19 20:15:53.34	220.19	4.95	
2025-01-19 20:15:54.36	220.30	5.01	
2025-01-19 20:15:55.37	220.41	5.07	
2025-01-19 20:15:56.39	220.52	5.13	
2025-01-19 20:15:57.40	220.63	5.19	
2025-01-19 20:15:58.42	220.74	5.25	
2025-01-19 20:15:59.43	220.86	5.31	
2025-01-19 20:16:00.45	220.97	5.37	
2025-01-19 20:16:01.46	221.08	5.43	
2025-01-19 20:16:02.48	221.20	5.49	
2025-01-19 20:16:03.49	221.31	5.54	
2025-01-19 20:16:04.51	221.43	5.60	
2025-01-19 20:16:05.53	221.54	5.66	
2025-01-19 20:16:06.54	221.66	5.72	
2025-01-19 20:16:07.56	221.78	5.78	
2025-01-19 20:16:08.57	221.89	5.84	
2025-01-19 20:16:09.59	222.01	5.90	
2025-01-19 20:16:10.60	222.13	5.96	
2025-01-19 20:16:11.62	222.25	6.02	
2025-01-19 20:16:12.63	222.37	6.08	
2025-01-19 20:16:13.65	222.49	6.14	
2025-01-19 20:16:14.66	222.61	6.20	
2025-01-19 20:16:15.68	222.73	6.26	
2025-01-19 20:16:16.70	222.85	6.32	
2025-01-19 20:16:17.71	222.97	6.38	
2025-01-19 20:16:18.73	223.09	6.44	
2025-01-19 20:16:19.74	223.22	6.50	
2025-01-19 20:16:20.76	223.34	6.56	
2025-01-19 20:16:21.77	223.46	6.63	
2025-01-19 20:16:22.79	223.59	6.69	
2025-01-19 20:16:23.80	223.71	6.75	
2025-01-19 20:16:24.82	223.84	6.81	
2025-01-19 20:16:25.83	223.97	6.87	
2025-01-19 20:16:26.85	224.09	6.93	
2025-01-19 20:16:27.86	224.22	6.99	
2025-01-19 20:16:28.88	224.35	7.05	
2025-01-19 20:16:29.90	224.48	7.11	
2025-01-19 20:16:30.91	224.60	7.17	
2025-01-19 20:16:31.93	224.73	7.23	
2025-01-19 20:16:32.94	224.86	7.29	
2025-01-19 20:16:33.96	225.00	7.36	
2025-01-19 20:16:34.97	225.13	7.42	
2025-01-19 20:16:35.99	225.26	7.48	
2025-01-19 20:16:37.00	225.39	7.54	
2025-01-19 20:16:38.02	225.52	7.60	
2025-01-19 20:16:39.03	225.66	7.66	
2025-01-19 20:16:40.05	225.79	7.72	
2025-01-19 20:16:41.07	225.93	7.78	
2025-01-19 20:16:42.08	226.06	7.85	
2025-01-19 20:16:43.10	226.20	7.91	
2025-01-19 20:16:44.11	226.33	7.97	
2025-01-19 20:16:45.13	226.47	8.03	
2025-01-19 20:16:46.14	226.61	8.09	
2025-01-19 20:16:47.16	226.75	8.15	
2025-01-19 20:16:48.17	226.89	8.21	
2025-01-19 20:16:49.19	227.03	8.28	
2025-01-19 20:16:50.20	227.17	8.34	
2025-01-19 20:16:51.22	227.31	8.40	
2025-01-19 20:16:52.23	227.45	8.46	
2025-01-19 20:16:53.25	227.59	8.52	
2025-01-19 20:16:54.27	227.73	8.58	
2025-01-19 20:16:55.28	227.88	8.65	
2025-01-19 20:16:56.30	228.02	8.71	
2025-01-19 20:16:57.31	228.16	8.77	
2025-01-19 20:16:58.33	228.31	8.83	
2025-01-19 20:16:59.34	228.46	8.89	
2025-01-19 20:17:00.36	228.60	8.96	
2025-01-19 20:17:01.37	228.75	9.02	
2025-01-19 20:17:02.39	228.90	9.08	
2025-01-19 20:17:03.40	229.05	9.14	
2025-01-19 20:17:04.42	229.20	9.20	
2025-01-19 20:17:05.44	229.35	9.27	
2025-01-19 20:17:06.45	229.50	9.33	
2025-01-19 20:17:07.47	229.65	9.39	
2025-01-19 20:17:08.48	229.80	9.45	
2025-01-19 20:17:09.50	229.95	9.51	
2025-01-19 20:17:10.51	230.10	9.58	
2025-01-19 20:17:11.53	230.26	9.64	
2025-01-19 20:17:12.54	230.41	9.70	
2025-01-19 20:17:13.56	230.57	9.76	
2025-01-19 20:17:14.57	230.72	9.82	
2025-01-19 20:17:15.59	230.88	9.89	
2025-01-19 20:17:16.60	231.04	9.95	
2025-01-19 20:17:17.62	231.20	10.01	
2025-01-19 20:17:18.64	231.36	10.07	
2025-01-19 20:17:19.65	231.52	10.13	
2025-01-19 20:17:20.67	231.68	10.20	
2025-01-19 20:17:21.68	231.84	10.26	
2025-01-19 20:17:22.70	232.00	10.32	
2025-01-19 20:17:23.71	232.16	10.38	
2025-01-19 20:17:24.73	232.32	10.44	
2025-01-19 20:17:25.74	232.49	10.50	
2025-01-19 20:17:26.76	232.65	10.57	
2025-01-19 20:17:27.77	232.82	10.63	
2025-01-19 20:17:28.79	232.98	10.69	
2025-01-19 20:17:29.81	233.15	10.75	
2025-01-19 20:17:30.82	233.32	10.81	
2025-01-19 20:17:31.84	233.49	10.88	
2025-01-19 20:17:32.85	233.65	10.94	
2025-01-19 20:17:33.87	233.82	11.00	
2025-01-19 20:17:34.88	233.99	11.06	
2025-01-19 20:17:35.90	234.17	11.12	
2025-01-19 20:17:36.91	234.34	11.18	
2025-01-19 20:17:37.93	234.51	11.24	
2025-01-19 20:17:38.94	234.68	11.31	
2025-01-19 20:17:39.96	234.86	11.37	
2025-01-19 20:17:40.97	235.03	11.43	
2025-01-19 20:17:41.99	235.21	11.49	
2025-01-19 20:17:43.01	235.39	11.55	
2025-01-19 20:17:44.02	235.56	11.61	
2025-01-19 20:17:45.04	235.74	11.67	
2025-01-19 20:17:46.05	235.92	11.73	
2025-01-19 20:17:47.07	236.10	11.79	
2025-01-19 20:17:48.08	236.28	11.86	
2025-01-19 20:17:49.10	236.46	11.92	
2025-01-19 20:17:50.11	236.64	11.98	
2025-01-19 20:17:51.13	236.82	12.04	
2025-01-19 20:17:52.14	237.01	12.10	
2025-01-19 20:17:53.16	237.19	12.16	
2025-01-19 20:17:54.18	237.38	12.22	
2025-01-19 20:17:55.19	237.56	12.28	
2025-01-19 20:17:56.21	237.75	12.34	
2025-01-19 20:17:57.22	237.94	12.40	
2025-01-19 20:17:58.24	238.13	12.46	
2025-01-19 20:17:59.25	238.31	12.52	
2025-01-19 20:18:00.27	238.50	12.58	
2025-01-19 20:18:01.28	238.69	12.64	
2025-01-19 20:18:02.30	238.89	12.70	
2025-01-19 20:18:03.31	239.08	12.76	
2025-01-19 20:18:04.33	239.27	12.82	
2025-01-19 20:18:05.35	239.47	12.88	
2025-01-19 20:18:06.36	239.66	12.93	
2025-01-19 20:18:07.38	239.86	12.99	
2025-01-19 20:18:08.39	240.05	13.05	
2025-01-19 20:18:09.41	240.25	13.11	
2025-01-19 20:18:10.42	240.45	13.17	
2025-01-19 20:18:11.44	240.65	13.23	
2025-01-19 20:18:12.45	240.84	13.29	
2025-01-19 20:18:13.47	241.04	13.34	
2025-01-19 20:18:14.48	241.24	13.40	
2025-01-19 20:18:15.50	241.45	13.46	
2025-01-19 20:18:16.51	241.65	13.52	
2025-01-19 20:18:17.53	241.85	13.57	
2025-01-19 20:18:18.55	242.06	13.63	
2025-01-19 20:18:19.56	242.26	13.69	
2025-01-19 20:18:20.58	242.47	13.75	
2025-01-19 20:18:21.59	242.68	13.80	
2025-01-19 20:18:22.61	242.88	13.86	
2025-01-19 20:18:23.62	243.09	13.91	
2025-01-19 20:18:24.64	243.30	13.97	
2025-01-19 20:18:25.65	243.51	14.03	
2025-01-19 20:18:26.67	243.72	14.08	
2025-01-19 20:18:27.68	243.93	14.14	
2025-01-19 20:18:28.70	244.15	14.19	
2025-01-19 20:18:29.72	244.36	14.25	
2025-01-19 20:18:30.73	244.58	14.30	
2025-01-19 20:18:31.75	244.79	14.36	
2025-01-19 20:18:32.76	245.01	14.41	
2025-01-19 20:18:33.78	245.22	14.47	
2025-01-19 20:18:34.79	245.44	14.52	
2025-01-19 20:18:35.81	245.66	14.57	
2025-01-19 20:18:36.82	245.88	14.63	
2025-01-19 20:18:37.84	246.10	14.68	
2025-01-19 20:18:38.85	246.32	14.73	
2025-01-19 20:18:39.87	246.54	14.79	
2025-01-19 20:18:40.88	246.76	14.84	
2025-01-19 20:18:41.90	246.99	14.89	
2025-01-19 20:18:42.92	247.21	14.94	
2025-01-19 20:18:43.93	247.43	14.99	
2025-01-19 20:18:44.95	247.66	15.05	
2025-01-19 20:18:45.96	247.89	15.10	
2025-01-19 20:18:46.98	248.12	15.15	
2025-01-19 20:18:47.99	248.34	15.20	
2025-01-19 20:18:49.01	248.57	15.25	
2025-01-19 20:18:50.02	248.80	15.30	
2025-01-19 20:18:51.04	249.03	15.35	
2025-01-19 20:18:52.05	249.26	15.40	
2025-01-19 20:18:53.07	249.49	15.45	
2025-01-19 20:18:54.09	249.73	15.50	
2025-01-19 20:18:55.10	249.96	15.54	
2025-01-19 20:18:56.12	250.20	15.59	
2025-01-19 20:18:57.13	250.43	15.64	
2025-01-19 20:18:58.16	250.67	15.69	
2025-01-19 20:18:59.17	250.91	15.74	
2025-01-19 20:19:00.19	251.14	15.78	
2025-01-19 20:19:01.20	251.38	15.83	
2025-01-19 20:19:02.22	251.62	15.87	
2025-01-19 20:19:03.24	251.86	15.92	
2025-01-19 20:19:04.25	252.10	15.97	
2025-01-19 20:19:05.27	252.34	16.01	
2025-01-19 20:19:06.28	252.58	16.05	
2025-01-19 20:19:07.30	252.83	16.10	
2025-01-19 20:19:08.31	253.07	16.14	
2025-01-19 20:19:09.33	253.32	16.19	
2025-01-19 20:19:10.34	253.56	16.23	
2025-01-19 20:19:11.36	253.81	16.27	
2025-01-19 20:19:12.37	254.05	16.31	
2025-01-19 20:19:13.39	254.30	16.36	
2025-01-19 20:19:14.40	254.55	16.40	
2025-01-19 20:19:15.42	254.80	16.44	
2025-01-19 20:19:16.44	255.05	16.48	
2025-01-19 20:19:17.45	255.29	16.52	
2025-01-19 20:19:18.47	255.55	16.56	
2025-01-19 20:19:19.48	255.80	16.60	
2025-01-19 20:19:20.50	256.05	16.64	
2025-01-19 20:19:21.51	256.30	16.68	
2025-01-19 20:19:22.53	256.56	16.71	
2025-01-19 20:19:23.54	256.81	16.75	
2025-01-19 20:19:24.56	257.06	16.79	
2025-01-19 20:19:25.57	257.32	16.83	
2025-01-19 20:19:26.59	257.57	16.86	
2025-01-19 20:19:27.61	257.83	16.90	
2025-01-19 20:19:28.62	258.09	16.93	
2025-01-19 20:19:29.64	258.35	16.97	
2025-01-19 20:19:30.65	258.60	17.00	
2025-01-19 20:19:31.67	258.86	17.04	
2025-01-19 20:19:32.68	259.12	17.07	
2025-01-19 20:19:33.70	259.38	17.10	
2025-01-19 20:19:34.71	259.64	17.13	
2025-01-19 20:19:35.73	259.90	17.17	
2025-01-19 20:19:36.74	260.17	17.20	
2025-01-19 20:19:37.76	260.43	17.23	
2025-01-19 20:19:38.77	260.69	17.26	
2025-01-19 20:19:39.79	260.96	17.29	
2025-01-19 20:19:40.81	261.22	17.32	
2025-01-19 20:19:41.82	261.48	17.35	
2025-01-19 20:19:42.84	261.75	17.37	
2025-01-19 20:19:43.85	262.01	17.40	
2025-01-19 20:19:44.87	262.28	17.43	
2025-01-19 20:19:45.88	262.55	17.46	
2025-01-19 20:19:46.90	262.81	17.48	
2025-01-19 20:19:47.91	263.08	17.51	
2025-01-19 20:19:48.93	263.35	17.53	
2025-01-19 20:19:49.94	263.62	17.56	
2025-01-19 20:19:50.96	263.89	17.58	
2025-01-19 20:19:51.98	264.16	17.60	
2025-01-19 20:19:52.99	264.42	17.63	
2025-01-19 20:19:54.01	264.70	17.65	
2025-01-19 20:19:55.02	264.97	17.67	
2025-01-19 20:19:56.04	265.24	17.69	
2025-01-19 20:19:57.05	265.51	17.71	
2025-01-19 20:19:58.07	265.78	17.73	
2025-01-19 20:19:59.08	266.05	17.75	
2025-01-19 20:20:00.10	266.32	17.77	
2025-01-19 20:20:01.11	266.59	17.79	
2025-01-19 20:20:02.13	266.87	17.81	
2025-01-19 20:20:03.14	267.14	17.82	
2025-01-19 20:20:04.16	267.42	17.84	
2025-01-19 20:20:05.18	267.69	17.86	
2025-01-19 20:20:06.19	267.96	17.87	
2025-01-19 20:20:07.21	268.24	17.88	
2025-01-19 20:20:08.22	268.51	17.90	
2025-01-19 20:20:09.24	268.79	17.91	
2025-01-19 20:20:10.25	269.06	17.92	
2025-01-19 20:20:11.27	269.34	17.94	
2025-01-19 20:20:12.28	269.61	17.95	
2025-01-19 20:20:13.30	269.89	17.96	
2025-01-19 20:20:14.31	270.16	17.97	
2025-01-19 20:20:15.33	270.44	17.98	
2025-01-19 20:20:16.35	270.72	17.99	
2025-01-19 20:20:17.36	270.99	18.00	
2025-01-19 20:20:18.38	271.27	18.01	
2025-01-19 20:20:19.39	271.55	18.01	
2025-01-19 20:20:20.41	271.83	18.02	
2025-01-19 20:20:21.42	272.10	18.02	
2025-01-19 20:20:22.44	272.38	18.03	
2025-01-19 20:20:23.45	272.66	18.04	
2025-01-19 20:20:24.47	272.93	18.04	
2025-01-19 20:20:25.48	273.21	18.04	
2025-01-19 20:20:26.50	273.49	18.05	
2025-01-19 20:20:27.52	273.77	18.05	
2025-01-19 20:20:28.53	274.04	18.05	
2025-01-19 20:20:29.55	274.32	18.05	
2025-01-19 20:20:30.56	274.60	18.05	
2025-01-19 20:20:31.58	274.88	18.05	
2025-01-19 20:20:32.59	275.15	18.05	
2025-01-19 20:20:33.61	275.43	18.05	
2025-01-19 20:20:34.62	275.71	18.05	
2025-01-19 20:20:35.64	275.99	18.04	
2025-01-19 20:20:36.65	276.26	18.04	
2025-01-19 20:20:37.67	276.54	18.04	
2025-01-19 20:20:38.68	276.82	18.03	
2025-01-19 20:20:39.70	277.09	18.03	
2025-01-19 20:20:40.72	277.37	18.02	
2025-01-19 20:20:41.73	277.65	18.01	
2025-01-19 20:20:42.75	277.93	18.01	
2025-01-19 20:20:43.76	278.20	18.00	
2025-01-19 20:20:44.78	278.48	17.99	
2025-01-19 20:20:45.79	278.75	17.98	
2025-01-19 20:20:46.81	279.03	17.97	
2025-01-19 20:20:47.82	279.30	17.96	
2025-01-19 20:20:48.84	279.58	17.95	
2025-01-19 20:20:49.85	279.85	17.94	
2025-01-19 20:20:50.87	280.13	17.93	
2025-01-19 20:20:51.89	280.41	17.92	
2025-01-19 20:20:52.90	280.68	17.90	
2025-01-19 20:20:53.92	280.96	17.89	
2025-01-19 20:20:54.93	281.23	17.87	
2025-01-19 20:20:55.95	281.50	17.86	
2025-01-19 20:20:56.96	281.78	17.84	
2025-01-19 20:20:57.98	282.05	17.83	
2025-01-19 20:20:58.99	282.32	17.81	
2025-01-19 20:21:00.01	282.60	17.79	
2025-01-19 20:21:01.04	282.87	17.77	
2025-01-19 20:21:02.05	283.14	17.76	
2025-01-19 20:21:03.07	283.41	17.74	
2025-01-19 20:21:04.09	283.69	17.72	
2025-01-19 20:21:05.10	283.96	17.70	
2025-01-19 20:21:06.12	284.23	17.68	
2025-01-19 20:21:07.13	284.50	17.65	
2025-01-19 20:21:08.15	284.77	17.63	
2025-01-19 20:21:09.16	285.03	17.61	
2025-01-19 20:21:10.18	285.30	17.59	
2025-01-19 20:21:11.19	285.57	17.56	
2025-01-19 20:21:12.21	285.84	17.54	
2025-01-19 20:21:13.22	286.11	17.51	
2025-01-19 20:21:14.24	286.37	17.49	
2025-01-19 20:21:15.26	286.64	17.46	
2025-01-19 20:21:16.27	286.91	17.44	
2025-01-19 20:21:17.29	287.17	17.41	
2025-01-19 20:21:18.30	287.44	17.38	
2025-01-19 20:21:19.32	287.70	17.35	
2025-01-19 20:21:20.33	287.96	17.33	
2025-01-19 20:21:21.35	288.23	17.30	
2025-01-19 20:21:22.36	288.49	17.27	
2025-01-19 20:21:23.38	288.75	17.24	
2025-01-19 20:21:24.39	289.01	17.21	
2025-01-19 20:21:25.41	289.28	17.18	
2025-01-19 20:21:26.43	289.54	17.14	
2025-01-19 20:21:27.44	289.80	17.11	
2025-01-19 20:21:28.46	290.06	17.08	
2025-01-19 20:21:29.47	290.32	17.05	
2025-01-19 20:21:30.49	290.58	17.01	
2025-01-19 20:21:31.50	290.83	16.98	
2025-01-19 20:21:32.52	291.09	16.94	
2025-01-19 20:21:33.53	291.34	16.91	
2025-01-19 20:21:34.55	291.60	16.87	
2025-01-19 20:21:35.56	291.86	16.84	
2025-01-19 20:21:36.58	292.11	16.80	
2025-01-19 20:21:37.59	292.36	16.77	
2025-01-19 20:21:38.61	292.62	16.73	
2025-01-19 20:21:39.63	292.87	16.69	
2025-01-19 20:21:40.64	293.12	16.65	
2025-01-19 20:21:41.66	293.37	16.61	
2025-01-19 20:21:42.67	293.62	16.57	
2025-01-19 20:21:43.69	293.87	16.53	
2025-01-19 20:21:44.70	294.12	16.50	
2025-01-19 20:21:45.72	294.37	16.45	
2025-01-19 20:21:46.73	294.62	16.41	
2025-01-19 20:21:47.75	294.87	16.37	
2025-01-19 20:21:48.76	295.11	16.33	
2025-01-19 20:21:49.78	295.36	16.29	
2025-01-19 20:21:50.80	295.60	16.25	
2025-01-19 20:21:51.81	295.85	16.20	
2025-01-19 20:21:52.83	296.09	16.16	
2025-01-19 20:21:53.84	296.33	16.12	
2025-01-19 20:21:54.86	296.58	16.07	
2025-01-19 20:21:55.87	296.82	16.03	
2025-01-19 20:21:56.89	297.06	15.99	
2025-01-19 20:21:57.90	297.30	15.94	
2025-01-19 20:21:58.92	297.54	15.90	
2025-01-19 20:21:59.93	297.77	15.85	
2025-01-19 20:22:00.95	298.01	15.80	
2025-01-19 20:22:01.96	298.25	15.76	
2025-01-19 20:22:02.98	298.48	15.71	
2025-01-19 20:22:04.00	298.72	15.66	
2025-01-19 20:22:05.01	298.95	15.62	
2025-01-19 20:22:06.03	299.19	15.57	
2025-01-19 20:22:07.04	299.42	15.52	
2025-01-19 20:22:08.06	299.65	15.47	
2025-01-19 20:22:09.07	299.88	15.42	
2025-01-19 20:22:10.09	300.11	15.37	
2025-01-19 20:22:11.10	300.34	15.33	
2025-01-19 20:22:12.12	300.57	15.28	
2025-01-19 20:22:13.13	300.80	15.23	
2025-01-19 20:22:14.15	301.03	15.18	
2025-01-19 20:22:15.17	301.25	15.13	
2025-01-19 20:22:16.18	301.48	15.07	
2025-01-19 20:22:17.20	301.70	15.02	
2025-01-19 20:22:18.21	301.93	14.97	
2025-01-19 20:22:19.23	302.15	14.92	
2025-01-19 20:22:20.24	302.37	14.87	
2025-01-19 20:22:21.26	302.59	14.82	
2025-01-19 20:22:22.27	302.81	14.77	
2025-01-19 20:22:23.29	303.04	14.71	
2025-01-19 20:22:24.30	303.25	14.66	
2025-01-19 20:22:25.32	303.47	14.61	
2025-01-19 20:22:26.33	303.69	14.55	
2025-01-19 20:22:27.35	303.91	14.50	
2025-01-19 20:22:28.37	304.12	14.45	
2025-01-19 20:22:29.38	304.34	14.39	
2025-01-19 20:22:30.40	304.55	14.34	
2025-01-19 20:22:31.41	304.77	14.28	
2025-01-19 20:22:32.43	304.98	14.23	
2025-01-19 20:22:33.44	305.19	14.17	
2025-01-19 20:22:34.46	305.40	14.12	
2025-01-19 20:22:35.47	305.61	14.06	
2025-01-19 20:22:36.49	305.82	14.01	
2025-01-19 20:22:37.50	306.03	13.95	
2025-01-19 20:22:38.52	306.24	13.90	
2025-01-19 20:22:39.54	306.44	13.84	
2025-01-19 20:22:40.55	306.65	13.79	
2025-01-19 20:22:41.57	306.86	13.73	
2025-01-19 20:22:42.58	307.06	13.67	
2025-01-19 20:22:43.60	307.26	13.62	
2025-01-19 20:22:44.61	307.47	13.56	
2025-01-19 20:22:45.63	307.67	13.50	
2025-01-19 20:22:46.64	307.87	13.45	
2025-01-19 20:22:47.66	308.07	13.39	
2025-01-19 20:22:48.67	308.27	13.33	
2025-01-19 20:22:49.69	308.47	13.27	
2025-01-19 20:22:50.70	308.66	13.22	
2025-01-19 20:22:51.72	308.86	13.16	
2025-01-19 20:22:52.74	309.06	13.10	
2025-01-19 20:22:53.75	309.25	13.04	
2025-01-19 20:22:54.77	309.45	12.98	
2025-01-19 20:22:55.78	309.64	12.92	
2025-01-19 20:22:56.80	309.84	12.87	
2025-01-19 20:22:57.81	310.03	12.81	
2025-01-19 20:22:58.83	310.22	12.75	
2025-01-19 20:22:59.84	310.41	12.69	
2025-01-19 20:23:00.86	310.60	12.63	
2025-01-19 20:23:01.87	310.79	12.57	
2025-01-19 20:23:02.89	310.98	12.51	
2025-01-19 20:23:03.91	311.17	12.45	
2025-01-19 20:23:04.92	311.35	12.39	
2025-01-19 20:23:05.94	311.54	12.33	
2025-01-19 20:23:06.95	311.72	12.27	
2025-01-19 20:23:07.97	311.91	12.21	
2025-01-19 20:23:08.98	312.09	12.16	
2025-01-19 20:23:10.00	312.27	12.09	
2025-01-19 20:23:11.01	312.46	12.04	
2025-01-19 20:23:12.03	312.64	11.97	
2025-01-19 20:23:13.04	312.82	11.92	
2025-01-19 20:23:14.06	313.00	11.85	
2025-01-19 20:23:15.07	313.18	11.79	
2025-01-19 20:23:16.09	313.35	11.73	
2025-01-19 20:23:17.11	313.53	11.67	
2025-01-19 20:23:18.12	313.71	11.61	
2025-01-19 20:23:19.14	313.88	11.55	
2025-01-19 20:23:20.15	314.06	11.49	
2025-01-19 20:23:21.17	314.23	11.43	
2025-01-19 20:23:22.18	314.41	11.37	
2025-01-19 20:23:23.20	314.58	11.31	
2025-01-19 20:23:24.21	314.75	11.25	
2025-01-19 20:23:25.23	314.92	11.19	
2025-01-19 20:23:26.24	315.09	11.13	
2025-01-19 20:23:27.26	315.26	11.07	
2025-01-19 20:23:28.28	315.43	11.01	
2025-01-19 20:23:29.29	315.60	10.94	
2025-01-19 20:23:30.31	315.77	10.88	
2025-01-19 20:23:31.32	315.94	10.82	
2025-01-19 20:23:32.34	316.10	10.76	
2025-01-19 20:23:33.35	316.27	10.70	
2025-01-19 20:23:34.37	316.43	10.64	
2025-01-19 20:23:35.38	316.60	10.58	
2025-01-19 20:23:36.40	316.76	10.52	
2025-01-19 20:23:37.41	316.92	10.46	
2025-01-19 20:23:38.43	317.08	10.39	
2025-01-19 20:23:39.44	317.24	10.33	
2025-01-19 20:23:40.46	317.41	10.27	
2025-01-19 20:23:41.48	317.57	10.21	
2025-01-19 20:23:42.49	317.72	10.15	
2025-01-19 20:23:43.51	317.88	10.09	
2025-01-19 20:23:44.52	318.04	10.03	
2025-01-19 20:23:45.54	318.20	9.96	
2025-01-19 20:23:46.55	318.35	9.90	
2025-01-19 20:23:47.57	318.51	9.84	
2025-01-19 20:23:48.58	318.66	9.78	
2025-01-19 20:23:49.60	318.82	9.72	
2025-01-19 20:23:50.61	318.97	9.66	
2025-01-19 20:23:51.63	319.12	9.60	
2025-01-19 20:23:52.65	319.28	9.53	
2025-01-19 20:23:53.66	319.43	9.47	
2025-01-19 20:23:54.68	319.58	9.41	
2025-01-19 20:23:55.69	319.73	9.35	
2025-01-19 20:23:56.71	319.88	9.29	
2025-01-19 20:23:57.72	320.03	9.23	
2025-01-19 20:23:58.74	320.18	9.17	
2025-01-19 20:23:59.76	320.32	9.11	
2025-01-19 20:24:00.78	320.47	9.04	
2025-01-19 20:24:01.79	320.62	8.98	
2025-01-19 20:24:02.81	320.76	8.92	
2025-01-19 20:24:03.82	320.91	8.86	
2025-01-19 20:24:04.84	321.05	8.80	
2025-01-19 20:24:05.85	321.20	8.74	
2025-01-19 20:24:06.87	321.34	8.68	
2025-01-19 20:24:07.88	321.48	8.62	
2025-01-19 20:24:08.90	321.62	8.55	
2025-01-19 20:24:09.91	321.76	8.49	
2025-01-19 20:24:10.93	321.91	8.43	
2025-01-19 20:24:11.95	322.05	8.37	
2025-01-19 20:24:12.96	322.19	8.31	
2025-01-19 20:24:13.98	322.32	8.25	
2025-01-19 20:24:14.99	322.46	8.19	
2025-01-19 20:24:16.01	322.60	8.13	
2025-01-19 20:24:17.02	322.74	8.07	
2025-01-19 20:24:18.04	322.87	8.01	
2025-01-19 20:24:19.05	323.01	7.94	
2025-01-19 20:24:20.07	323.14	7.88	
2025-01-19 20:24:21.08	323.28	7.82	
2025-01-19 20:24:22.10	323.41	7.76	
2025-01-19 20:24:23.12	323.55	7.70	
2025-01-19 20:24:24.13	323.68	7.64	
2025-01-19 20:24:25.15	323.81	7.58	
2025-01-19 20:24:26.16	323.94	7.52	
2025-01-19 20:24:27.18	324.07	7.46	
2025-01-19 20:24:28.19	324.20	7.40	
2025-01-19 20:24:29.21	324.33	7.34	
2025-01-19 20:24:30.22	324.46	7.28	
2025-01-19 20:24:31.24	324.59	7.22	
2025-01-19 20:24:32.25	324.72	7.16	
2025-01-19 20:24:33.27	324.85	7.10	
2025-01-19 20:24:34.28	324.98	7.04	
2025-01-19 20:24:35.30	325.10	6.98	
2025-01-19 20:24:36.32	325.23	6.92	
2025-01-19 20:24:37.33	325.35	6.86	
2025-01-19 20:24:38.35	325.48	6.80	
2025-01-19 20:24:39.36	325.60	6.74	
2025-01-19 20:24:40.38	325.73	6.68	
2025-01-19 20:24:41.39	325.85	6.62	
2025-01-19 20:24:42.41	325.97	6.56	
2025-01-19 20:24:43.42	326.10	6.50	
2025-01-19 20:24:44.44	326.22	6.44	
2025-01-19 20:24:45.45	326.34	6.38	
2025-01-19 20:24:46.47	326.46	6.32	
2025-01-19 20:24:47.49	326.58	6.26	
2025-01-19 20:24:48.50	326.70	6.20	
2025-01-19 20:24:49.52	326.82	6.14	
2025-01-19 20:24:50.53	326.94	6.08	
2025-01-19 20:24:51.55	327.06	6.02	
2025-01-19 20:24:52.56	327.17	5.96	
2025-01-19 20:24:53.58	327.29	5.90	
2025-01-19 20:24:54.59	327.41	5.84	
2025-01-19 20:24:55.61	327.52	5.78	
2025-01-19 20:24:56.62	327.64	5.73	
2025-01-19 20:24:57.64	327.76	5.67	
2025-01-19 20:24:58.65	327.87	5.61	
2025-01-19 20:24:59.67	327.98	5.55	
2025-01-19 20:25:00.69	328.10	5.49	
2025-01-19 20:25:01.70	328.21	5.43	
2025-01-19 20:25:02.72	328.33	5.37	
2025-01-19 20:25:03.73	328.44	5.31	
2025-01-19 20:25:04.75	328.55	5.26	
2025-01-19 20:25:05.76	328.66	5.20	
2025-01-19 20:25:06.78	328.77	5.14	
2025-01-19 20:25:07.79	328.88	5.08	
2025-01-19 20:25:08.81	328.99	5.02	
2025-01-19 20:25:09.82	329.10	4.96	
2025-01-19 20:25:10.84	329.21	4.91	
2025-01-19 20:25:11.86	329.32	4.85	
2025-01-19 20:25:12.87	329.43	4.79	
2025-01-19 20:25:13.89	329.54	4.73	
2025-01-19 20:25:14.90	329.64	4.67	
2025-01-19 20:25:15.92	329.75	4.62	
2025-01-19 20:25:16.93	329.86	4.56	
2025-01-19 20:25:17.95	329.96	4.50	
2025-01-19 20:25:18.96	330.07	4.44	
2025-01-19 20:25:19.98	330.17	4.39	
2025-01-19 20:25:20.99	330.28	4.33	
2025-01-19 20:25:22.01	330.38	4.27	
2025-01-19 20:25:23.02	330.49	4.21	
2025-01-19 20:25:24.04	330.59	4.16	
2025-01-19 20:25:25.06	330.69	4.10	
2025-01-19 20:25:26.07	330.80	4.04	

#Closed at: 2025-01-19 20:25:26