passes_logs/2025/01/19/SPB_Silybum_02/SPB_Silybum_02__20250119_105448_AQUA_rec.log

#Pass ID: 20250119_105448_AQUA
#Satellite: AQUA
#Configuration: AQUA
#Start time: 2025-01-19 10:54:47

#Version: 2.0.20230423
#Station: SPB_Silybum_02
#Location: 30.233357 lon 59.946436 lat
#TLE: 1 27424U 02022A   25018.83604057  .00002232  00000+0  46784-3 0  9994
#TLE: 2 27424  98.3597 335.5348 0001881 107.7354 281.6526 14.60700248208189

#Time	Az	El	Level	Level2	SNR	BER	Gain	Gain2
2025-01-19 10:54:49.55	145.76	4.06	
2025-01-19 10:54:50.77	145.73	4.15	
2025-01-19 10:54:51.99	145.70	4.24	
2025-01-19 10:54:53.21	145.68	4.32	
2025-01-19 10:54:54.43	145.65	4.41	
2025-01-19 10:54:55.64	145.62	4.50	
2025-01-19 10:54:56.86	145.59	4.59	
2025-01-19 10:54:58.08	145.56	4.68	
2025-01-19 10:54:59.30	145.53	4.77	
2025-01-19 10:55:00.52	145.50	4.86	
2025-01-19 10:55:01.74	145.47	4.95	
2025-01-19 10:55:02.96	145.44	5.04	
2025-01-19 10:55:04.17	145.41	5.13	
2025-01-19 10:55:05.39	145.38	5.22	
2025-01-19 10:55:06.61	145.35	5.31	
2025-01-19 10:55:07.83	145.32	5.41	
2025-01-19 10:55:09.05	145.29	5.50	
2025-01-19 10:55:10.27	145.26	5.59	
2025-01-19 10:55:11.48	145.23	5.68	
2025-01-19 10:55:12.70	145.20	5.78	
2025-01-19 10:55:13.92	145.17	5.87	
2025-01-19 10:55:15.14	145.13	5.96	
2025-01-19 10:55:16.36	145.10	6.06	
2025-01-19 10:55:17.58	145.07	6.15	
2025-01-19 10:55:18.80	145.04	6.25	
2025-01-19 10:55:20.01	145.00	6.34	
2025-01-19 10:55:21.23	144.97	6.44	
2025-01-19 10:55:22.45	144.94	6.54	
2025-01-19 10:55:23.67	144.90	6.63	
2025-01-19 10:55:24.89	144.87	6.73	
2025-01-19 10:55:26.11	144.83	6.83	
2025-01-19 10:55:27.32	144.80	6.93	
2025-01-19 10:55:28.54	144.76	7.03	
2025-01-19 10:55:29.76	144.73	7.12	
2025-01-19 10:55:30.98	144.69	7.22	
2025-01-19 10:55:32.20	144.66	7.32	
2025-01-19 10:55:33.42	144.62	7.42	
2025-01-19 10:55:34.64	144.58	7.52	
2025-01-19 10:55:35.85	144.55	7.62	
2025-01-19 10:55:37.07	144.51	7.73	
2025-01-19 10:55:38.29	144.47	7.83	
2025-01-19 10:55:39.51	144.43	7.93	
2025-01-19 10:55:40.73	144.40	8.03	
2025-01-19 10:55:41.95	144.36	8.14	
2025-01-19 10:55:43.16	144.32	8.24	
2025-01-19 10:55:44.38	144.28	8.34	
2025-01-19 10:55:45.60	144.24	8.45	
2025-01-19 10:55:46.82	144.20	8.55	
2025-01-19 10:55:48.04	144.16	8.66	
2025-01-19 10:55:49.26	144.12	8.77	
2025-01-19 10:55:50.48	144.08	8.87	
2025-01-19 10:55:51.69	144.04	8.98	
2025-01-19 10:55:52.91	144.00	9.09	
2025-01-19 10:55:54.13	143.96	9.19	
2025-01-19 10:55:55.35	143.91	9.30	
2025-01-19 10:55:56.57	143.87	9.41	
2025-01-19 10:55:57.79	143.83	9.52	
2025-01-19 10:55:59.00	143.79	9.63	
2025-01-19 10:56:00.22	143.74	9.74	
2025-01-19 10:56:01.44	143.70	9.85	
2025-01-19 10:56:02.66	143.65	9.96	
2025-01-19 10:56:03.88	143.61	10.08	
2025-01-19 10:56:05.10	143.56	10.19	
2025-01-19 10:56:06.32	143.52	10.30	
2025-01-19 10:56:07.53	143.47	10.42	
2025-01-19 10:56:08.75	143.43	10.53	
2025-01-19 10:56:09.97	143.38	10.65	
2025-01-19 10:56:11.19	143.33	10.76	
2025-01-19 10:56:12.41	143.28	10.88	
2025-01-19 10:56:13.63	143.24	11.00	
2025-01-19 10:56:14.84	143.19	11.11	
2025-01-19 10:56:16.06	143.14	11.23	
2025-01-19 10:56:17.28	143.09	11.35	
2025-01-19 10:56:18.50	143.04	11.47	
2025-01-19 10:56:19.72	142.99	11.59	
2025-01-19 10:56:20.94	142.94	11.71	
2025-01-19 10:56:22.16	142.89	11.83	
2025-01-19 10:56:23.37	142.84	11.95	
2025-01-19 10:56:24.59	142.78	12.07	
2025-01-19 10:56:25.81	142.73	12.20	
2025-01-19 10:56:27.03	142.68	12.32	
2025-01-19 10:56:28.25	142.62	12.45	
2025-01-19 10:56:29.47	142.57	12.57	
2025-01-19 10:56:30.68	142.51	12.70	
2025-01-19 10:56:31.90	142.46	12.82	
2025-01-19 10:56:33.12	142.40	12.95	
2025-01-19 10:56:34.34	142.35	13.08	
2025-01-19 10:56:35.56	142.29	13.21	
2025-01-19 10:56:36.78	142.23	13.34	
2025-01-19 10:56:38.00	142.17	13.47	
2025-01-19 10:56:39.21	142.11	13.60	
2025-01-19 10:56:40.43	142.05	13.73	
2025-01-19 10:56:41.65	141.99	13.86	
2025-01-19 10:56:42.87	141.93	13.99	
2025-01-19 10:56:44.09	141.87	14.13	
2025-01-19 10:56:45.31	141.81	14.26	
2025-01-19 10:56:46.53	141.75	14.40	
2025-01-19 10:56:47.74	141.69	14.53	
2025-01-19 10:56:48.96	141.62	14.67	
2025-01-19 10:56:50.18	141.56	14.81	
2025-01-19 10:56:51.40	141.49	14.95	
2025-01-19 10:56:52.62	141.43	15.09	
2025-01-19 10:56:53.84	141.36	15.23	
2025-01-19 10:56:55.05	141.29	15.37	
2025-01-19 10:56:56.27	141.22	15.51	
2025-01-19 10:56:57.50	141.15	15.66	
2025-01-19 10:56:58.73	141.08	15.80	
2025-01-19 10:56:59.95	141.01	15.95	
2025-01-19 10:57:01.17	140.94	16.09	
2025-01-19 10:57:02.39	140.87	16.24	
2025-01-19 10:57:03.60	140.80	16.38	
2025-01-19 10:57:04.83	140.73	16.53	
2025-01-19 10:57:06.05	140.65	16.68	
2025-01-19 10:57:07.26	140.58	16.83	
2025-01-19 10:57:08.48	140.50	16.99	
2025-01-19 10:57:09.70	140.42	17.14	
2025-01-19 10:57:10.92	140.35	17.29	
2025-01-19 10:57:12.14	140.27	17.45	
2025-01-19 10:57:13.36	140.19	17.60	
2025-01-19 10:57:14.58	140.11	17.76	
2025-01-19 10:57:15.79	140.03	17.91	
2025-01-19 10:57:17.01	139.95	18.07	
2025-01-19 10:57:18.23	139.86	18.23	
2025-01-19 10:57:19.45	139.78	18.39	
2025-01-19 10:57:20.67	139.69	18.56	
2025-01-19 10:57:21.89	139.61	18.72	
2025-01-19 10:57:23.10	139.52	18.88	
2025-01-19 10:57:24.32	139.43	19.05	
2025-01-19 10:57:25.54	139.34	19.21	
2025-01-19 10:57:26.76	139.25	19.38	
2025-01-19 10:57:27.98	139.16	19.55	
2025-01-19 10:57:29.20	139.07	19.72	
2025-01-19 10:57:30.42	138.98	19.89	
2025-01-19 10:57:31.63	138.88	20.06	
2025-01-19 10:57:32.85	138.79	20.24	
2025-01-19 10:57:34.08	138.69	20.41	
2025-01-19 10:57:35.30	138.59	20.59	
2025-01-19 10:57:36.52	138.49	20.77	
2025-01-19 10:57:37.74	138.39	20.95	
2025-01-19 10:57:38.96	138.29	21.13	
2025-01-19 10:57:40.17	138.19	21.31	
2025-01-19 10:57:41.40	138.08	21.49	
2025-01-19 10:57:42.61	137.98	21.67	
2025-01-19 10:57:43.83	137.87	21.86	
2025-01-19 10:57:45.05	137.76	22.04	
2025-01-19 10:57:46.27	137.65	22.23	
2025-01-19 10:57:47.49	137.54	22.42	
2025-01-19 10:57:48.71	137.43	22.61	
2025-01-19 10:57:49.92	137.31	22.80	
2025-01-19 10:57:51.14	137.20	23.00	
2025-01-19 10:57:52.36	137.08	23.19	
2025-01-19 10:57:53.58	136.96	23.39	
2025-01-19 10:57:54.80	136.84	23.59	
2025-01-19 10:57:56.02	136.72	23.79	
2025-01-19 10:57:57.24	136.59	23.99	
2025-01-19 10:57:58.45	136.47	24.19	
2025-01-19 10:57:59.67	136.34	24.39	
2025-01-19 10:58:00.89	136.21	24.60	
2025-01-19 10:58:02.11	136.08	24.81	
2025-01-19 10:58:03.33	135.94	25.02	
2025-01-19 10:58:04.55	135.81	25.23	
2025-01-19 10:58:05.76	135.67	25.44	
2025-01-19 10:58:06.98	135.53	25.65	
2025-01-19 10:58:08.20	135.39	25.87	
2025-01-19 10:58:09.42	135.25	26.08	
2025-01-19 10:58:10.64	135.10	26.30	
2025-01-19 10:58:11.86	134.96	26.53	
2025-01-19 10:58:13.08	134.81	26.75	
2025-01-19 10:58:14.29	134.66	26.97	
2025-01-19 10:58:15.51	134.50	27.20	
2025-01-19 10:58:16.73	134.35	27.42	
2025-01-19 10:58:17.95	134.19	27.65	
2025-01-19 10:58:19.17	134.03	27.89	
2025-01-19 10:58:20.39	133.86	28.12	
2025-01-19 10:58:21.60	133.70	28.35	
2025-01-19 10:58:22.82	133.53	28.59	
2025-01-19 10:58:24.04	133.36	28.83	
2025-01-19 10:58:25.26	133.18	29.07	
2025-01-19 10:58:26.48	133.01	29.31	
2025-01-19 10:58:27.70	132.83	29.56	
2025-01-19 10:58:28.92	132.64	29.81	
2025-01-19 10:58:30.13	132.46	30.05	
2025-01-19 10:58:31.35	132.27	30.30	
2025-01-19 10:58:32.57	132.08	30.56	
2025-01-19 10:58:33.79	131.88	30.81	
2025-01-19 10:58:35.01	131.69	31.07	
2025-01-19 10:58:36.23	131.48	31.33	
2025-01-19 10:58:37.44	131.28	31.58	
2025-01-19 10:58:38.66	131.07	31.85	
2025-01-19 10:58:39.88	130.86	32.11	
2025-01-19 10:58:41.10	130.64	32.38	
2025-01-19 10:58:42.32	130.43	32.65	
2025-01-19 10:58:43.54	130.20	32.92	
2025-01-19 10:58:44.76	129.98	33.19	
2025-01-19 10:58:45.97	129.75	33.47	
2025-01-19 10:58:47.19	129.51	33.75	
2025-01-19 10:58:48.41	129.27	34.03	
2025-01-19 10:58:49.63	129.03	34.31	
2025-01-19 10:58:50.85	128.78	34.59	
2025-01-19 10:58:52.07	128.53	34.88	
2025-01-19 10:58:53.28	128.27	35.16	
2025-01-19 10:58:54.50	128.01	35.45	
2025-01-19 10:58:55.72	127.74	35.75	
2025-01-19 10:58:56.94	127.47	36.04	
2025-01-19 10:58:58.16	127.19	36.34	
2025-01-19 10:58:59.38	126.91	36.64	
2025-01-19 10:59:00.60	126.62	36.94	
2025-01-19 10:59:01.81	126.33	37.24	
2025-01-19 10:59:03.03	126.03	37.54	
2025-01-19 10:59:04.25	125.73	37.85	
2025-01-19 10:59:05.47	125.41	38.16	
2025-01-19 10:59:06.69	125.10	38.47	
2025-01-19 10:59:07.91	124.77	38.79	
2025-01-19 10:59:09.13	124.44	39.10	
2025-01-19 10:59:10.34	124.11	39.42	
2025-01-19 10:59:11.56	123.77	39.74	
2025-01-19 10:59:12.78	123.42	40.06	
2025-01-19 10:59:14.00	123.06	40.38	
2025-01-19 10:59:15.22	122.69	40.71	
2025-01-19 10:59:16.44	122.32	41.03	
2025-01-19 10:59:17.65	121.94	41.36	
2025-01-19 10:59:18.87	121.55	41.69	
2025-01-19 10:59:20.09	121.16	42.02	
2025-01-19 10:59:21.31	120.75	42.35	
2025-01-19 10:59:22.53	120.34	42.69	
2025-01-19 10:59:23.75	119.92	43.02	
2025-01-19 10:59:24.97	119.48	43.36	
2025-01-19 10:59:26.18	119.05	43.70	
2025-01-19 10:59:27.40	118.59	44.04	
2025-01-19 10:59:28.62	118.13	44.38	
2025-01-19 10:59:29.84	117.66	44.72	
2025-01-19 10:59:31.06	117.18	45.06	
2025-01-19 10:59:32.28	116.69	45.41	
2025-01-19 10:59:33.49	116.19	45.75	
2025-01-19 10:59:34.71	115.67	46.10	
2025-01-19 10:59:35.93	115.15	46.44	
2025-01-19 10:59:37.15	114.61	46.79	
2025-01-19 10:59:38.37	114.06	47.13	
2025-01-19 10:59:39.59	113.50	47.48	
2025-01-19 10:59:40.81	112.92	47.83	
2025-01-19 10:59:42.02	112.34	48.17	
2025-01-19 10:59:43.24	111.73	48.51	
2025-01-19 10:59:44.46	111.12	48.86	
2025-01-19 10:59:45.68	110.49	49.20	
2025-01-19 10:59:46.90	109.84	49.54	
2025-01-19 10:59:48.12	109.18	49.89	
2025-01-19 10:59:49.33	108.51	50.22	
2025-01-19 10:59:50.55	107.82	50.56	
2025-01-19 10:59:51.77	107.12	50.90	
2025-01-19 10:59:52.99	106.39	51.23	
2025-01-19 10:59:54.21	105.66	51.56	
2025-01-19 10:59:55.43	104.90	51.89	
2025-01-19 10:59:56.65	104.13	52.22	
2025-01-19 10:59:57.86	103.34	52.54	
2025-01-19 10:59:59.08	102.54	52.86	
2025-01-19 11:00:00.30	101.71	53.18	
2025-01-19 11:00:01.52	100.87	53.49	
2025-01-19 11:00:02.74	100.01	53.79	
2025-01-19 11:00:03.96	99.13	54.10	
2025-01-19 11:00:05.17	98.24	54.39	
2025-01-19 11:00:06.39	97.32	54.68	
2025-01-19 11:00:07.61	96.38	54.97	
2025-01-19 11:00:08.83	95.43	55.25	
2025-01-19 11:00:10.05	94.45	55.52	
2025-01-19 11:00:11.27	93.46	55.79	
2025-01-19 11:00:12.49	92.45	56.05	
2025-01-19 11:00:13.70	91.42	56.30	
2025-01-19 11:00:14.92	90.37	56.54	
2025-01-19 11:00:16.14	89.30	56.78	
2025-01-19 11:00:17.36	88.22	57.00	
2025-01-19 11:00:18.58	87.11	57.22	
2025-01-19 11:00:19.80	85.99	57.43	
2025-01-19 11:00:21.02	84.85	57.62	
2025-01-19 11:00:22.23	83.71	57.81	
2025-01-19 11:00:23.45	82.54	57.99	
2025-01-19 11:00:24.67	81.35	58.15	
2025-01-19 11:00:25.89	80.15	58.31	
2025-01-19 11:00:27.11	78.93	58.45	
2025-01-19 11:00:28.33	77.71	58.59	
2025-01-19 11:00:29.54	76.48	58.71	
2025-01-19 11:00:30.76	75.23	58.81	
2025-01-19 11:00:31.98	73.97	58.91	
2025-01-19 11:00:33.20	72.70	58.99	
2025-01-19 11:00:34.42	71.43	59.06	
2025-01-19 11:00:35.64	70.14	59.12	
2025-01-19 11:00:36.86	68.86	59.16	
2025-01-19 11:00:38.07	67.58	59.19	
2025-01-19 11:00:39.29	66.29	59.21	
2025-01-19 11:00:40.51	64.99	59.22	
2025-01-19 11:00:41.73	63.70	59.21	
2025-01-19 11:00:42.95	62.41	59.18	
2025-01-19 11:00:44.17	61.12	59.15	
2025-01-19 11:00:45.38	59.84	59.10	
2025-01-19 11:00:46.60	58.57	59.04	
2025-01-19 11:00:47.82	57.29	58.96	
2025-01-19 11:00:49.04	56.03	58.88	
2025-01-19 11:00:50.26	54.77	58.78	
2025-01-19 11:00:51.48	53.53	58.66	
2025-01-19 11:00:52.70	52.29	58.54	
2025-01-19 11:00:53.91	51.08	58.40	
2025-01-19 11:00:55.13	49.87	58.26	
2025-01-19 11:00:56.35	48.68	58.10	
2025-01-19 11:00:57.57	47.50	57.93	
2025-01-19 11:00:58.79	46.34	57.74	
2025-01-19 11:01:00.01	45.19	57.55	
2025-01-19 11:01:01.24	44.05	57.35	
2025-01-19 11:01:02.46	42.93	57.14	
2025-01-19 11:01:03.68	41.84	56.92	
2025-01-19 11:01:04.90	40.76	56.69	
2025-01-19 11:01:06.11	39.71	56.45	
2025-01-19 11:01:07.33	38.67	56.21	
2025-01-19 11:01:08.55	37.64	55.95	
2025-01-19 11:01:09.77	36.64	55.69	
2025-01-19 11:01:10.99	35.65	55.42	
2025-01-19 11:01:12.21	34.69	55.15	
2025-01-19 11:01:13.42	33.75	54.87	
2025-01-19 11:01:14.64	32.82	54.58	
2025-01-19 11:01:15.86	31.91	54.29	
2025-01-19 11:01:17.08	31.02	53.99	
2025-01-19 11:01:18.30	30.15	53.69	
2025-01-19 11:01:19.52	29.30	53.38	
2025-01-19 11:01:20.74	28.46	53.07	
2025-01-19 11:01:21.95	27.65	52.75	
2025-01-19 11:01:23.17	26.85	52.43	
2025-01-19 11:01:24.39	26.07	52.11	
2025-01-19 11:01:25.61	25.31	51.78	
2025-01-19 11:01:26.83	24.56	51.45	
2025-01-19 11:01:28.05	23.83	51.12	
2025-01-19 11:01:29.27	23.11	50.79	
2025-01-19 11:01:30.48	22.42	50.45	
2025-01-19 11:01:31.70	21.74	50.12	
2025-01-19 11:01:32.92	21.07	49.78	
2025-01-19 11:01:34.14	20.42	49.44	
2025-01-19 11:01:35.36	19.78	49.09	
2025-01-19 11:01:36.58	19.16	48.75	
2025-01-19 11:01:37.79	18.55	48.41	
2025-01-19 11:01:39.01	17.95	48.07	
2025-01-19 11:01:40.23	17.37	47.72	
2025-01-19 11:01:41.45	16.80	47.38	
2025-01-19 11:01:42.67	16.24	47.03	
2025-01-19 11:01:43.89	15.70	46.69	
2025-01-19 11:01:45.11	15.17	46.34	
2025-01-19 11:01:46.32	14.65	46.00	
2025-01-19 11:01:47.54	14.14	45.66	
2025-01-19 11:01:48.76	13.64	45.31	
2025-01-19 11:01:49.98	13.16	44.97	
2025-01-19 11:01:51.20	12.68	44.63	
2025-01-19 11:01:52.42	12.21	44.29	
2025-01-19 11:01:53.63	11.76	43.95	
2025-01-19 11:01:54.85	11.31	43.61	
2025-01-19 11:01:56.07	10.88	43.28	
2025-01-19 11:01:57.29	10.45	42.94	
2025-01-19 11:01:58.51	10.03	42.61	
2025-01-19 11:01:59.73	9.62	42.27	
2025-01-19 11:02:00.95	9.22	41.94	
2025-01-19 11:02:02.16	8.83	41.61	
2025-01-19 11:02:03.38	8.45	41.29	
2025-01-19 11:02:04.60	8.07	40.96	
2025-01-19 11:02:05.82	7.70	40.64	
2025-01-19 11:02:07.04	7.34	40.31	
2025-01-19 11:02:08.26	6.98	39.99	
2025-01-19 11:02:09.47	6.64	39.67	
2025-01-19 11:02:10.69	6.30	39.36	
2025-01-19 11:02:11.91	5.97	39.04	
2025-01-19 11:02:13.13	5.64	38.73	
2025-01-19 11:02:14.35	5.32	38.42	
2025-01-19 11:02:15.57	5.01	38.11	
2025-01-19 11:02:16.79	4.70	37.80	
2025-01-19 11:02:18.00	4.40	37.50	
2025-01-19 11:02:19.22	4.10	37.19	
2025-01-19 11:02:20.44	3.81	36.89	
2025-01-19 11:02:21.66	3.53	36.59	
2025-01-19 11:02:22.88	3.25	36.30	
2025-01-19 11:02:24.10	2.97	36.00	
2025-01-19 11:02:25.31	2.70	35.71	
2025-01-19 11:02:26.53	2.44	35.42	
2025-01-19 11:02:27.75	2.18	35.13	
2025-01-19 11:02:28.97	1.92	34.84	
2025-01-19 11:02:30.19	1.67	34.56	
2025-01-19 11:02:31.41	1.43	34.28	
2025-01-19 11:02:32.63	1.19	34.00	
2025-01-19 11:02:33.84	0.95	33.72	
2025-01-19 11:02:35.06	0.72	33.45	
2025-01-19 11:02:36.28	0.49	33.17	
2025-01-19 11:02:37.50	0.26	32.90	
2025-01-19 11:02:38.72	0.04	32.63	
2025-01-19 11:02:39.94	359.83	32.36	
2025-01-19 11:02:41.15	359.61	32.10	
2025-01-19 11:02:42.37	359.40	31.84	
2025-01-19 11:02:43.59	359.20	31.57	
2025-01-19 11:02:44.81	358.99	31.32	
2025-01-19 11:02:46.03	358.80	31.06	
2025-01-19 11:02:47.25	358.60	30.80	
2025-01-19 11:02:48.47	358.41	30.55	
2025-01-19 11:02:49.68	358.22	30.30	
2025-01-19 11:02:50.90	358.03	30.05	
2025-01-19 11:02:52.12	357.85	29.80	
2025-01-19 11:02:53.34	357.67	29.56	
2025-01-19 11:02:54.56	357.49	29.32	
2025-01-19 11:02:55.78	357.31	29.07	
2025-01-19 11:02:57.00	357.14	28.84	
2025-01-19 11:02:58.21	356.97	28.60	
2025-01-19 11:02:59.43	356.80	28.36	
2025-01-19 11:03:00.65	356.64	28.13	
2025-01-19 11:03:01.87	356.48	27.90	
2025-01-19 11:03:03.09	356.32	27.67	
2025-01-19 11:03:04.31	356.16	27.44	
2025-01-19 11:03:05.52	356.01	27.21	
2025-01-19 11:03:06.74	355.85	26.99	
2025-01-19 11:03:07.96	355.70	26.77	
2025-01-19 11:03:09.18	355.56	26.55	
2025-01-19 11:03:10.40	355.41	26.33	
2025-01-19 11:03:11.62	355.27	26.11	
2025-01-19 11:03:12.84	355.12	25.89	
2025-01-19 11:03:14.05	354.99	25.68	
2025-01-19 11:03:15.27	354.85	25.47	
2025-01-19 11:03:16.49	354.71	25.26	
2025-01-19 11:03:17.71	354.58	25.05	
2025-01-19 11:03:18.93	354.45	24.84	
2025-01-19 11:03:20.15	354.32	24.63	
2025-01-19 11:03:21.36	354.19	24.43	
2025-01-19 11:03:22.58	354.06	24.23	
2025-01-19 11:03:23.80	353.94	24.02	
2025-01-19 11:03:25.02	353.82	23.82	
2025-01-19 11:03:26.24	353.69	23.63	
2025-01-19 11:03:27.46	353.58	23.43	
2025-01-19 11:03:28.68	353.46	23.23	
2025-01-19 11:03:29.89	353.34	23.04	
2025-01-19 11:03:31.11	353.23	22.85	
2025-01-19 11:03:32.33	353.11	22.66	
2025-01-19 11:03:33.55	353.00	22.47	
2025-01-19 11:03:34.77	352.89	22.28	
2025-01-19 11:03:35.99	352.78	22.09	
2025-01-19 11:03:37.20	352.68	21.91	
2025-01-19 11:03:38.42	352.57	21.72	
2025-01-19 11:03:39.64	352.46	21.54	
2025-01-19 11:03:40.86	352.36	21.36	
2025-01-19 11:03:42.08	352.26	21.18	
2025-01-19 11:03:43.30	352.16	21.00	
2025-01-19 11:03:44.52	352.06	20.82	
2025-01-19 11:03:45.73	351.96	20.65	
2025-01-19 11:03:46.95	351.86	20.47	
2025-01-19 11:03:48.17	351.77	20.30	
2025-01-19 11:03:49.39	351.67	20.12	
2025-01-19 11:03:50.61	351.58	19.95	
2025-01-19 11:03:51.83	351.49	19.78	
2025-01-19 11:03:53.04	351.40	19.62	
2025-01-19 11:03:54.26	351.31	19.45	
2025-01-19 11:03:55.48	351.22	19.28	
2025-01-19 11:03:56.70	351.13	19.12	
2025-01-19 11:03:57.92	351.04	18.95	
2025-01-19 11:03:59.14	350.96	18.79	
2025-01-19 11:04:00.36	350.87	18.63	
2025-01-19 11:04:01.57	350.79	18.47	
2025-01-19 11:04:02.79	350.71	18.31	
2025-01-19 11:04:04.01	350.62	18.15	
2025-01-19 11:04:05.23	350.54	17.99	
2025-01-19 11:04:06.45	350.46	17.83	
2025-01-19 11:04:07.67	350.38	17.68	
2025-01-19 11:04:08.88	350.31	17.52	
2025-01-19 11:04:10.10	350.23	17.37	
2025-01-19 11:04:11.32	350.15	17.22	
2025-01-19 11:04:12.54	350.08	17.06	
2025-01-19 11:04:13.76	350.00	16.91	
2025-01-19 11:04:14.98	349.93	16.76	
2025-01-19 11:04:16.20	349.85	16.61	
2025-01-19 11:04:17.41	349.78	16.47	
2025-01-19 11:04:18.63	349.71	16.32	
2025-01-19 11:04:19.85	349.64	16.17	
2025-01-19 11:04:21.07	349.57	16.03	
2025-01-19 11:04:22.29	349.50	15.88	
2025-01-19 11:04:23.51	349.43	15.74	
2025-01-19 11:04:24.72	349.37	15.60	
2025-01-19 11:04:25.94	349.30	15.46	
2025-01-19 11:04:27.16	349.23	15.32	
2025-01-19 11:04:28.38	349.17	15.18	
2025-01-19 11:04:29.60	349.10	15.04	
2025-01-19 11:04:30.82	349.04	14.90	
2025-01-19 11:04:32.04	348.97	14.76	
2025-01-19 11:04:33.25	348.91	14.63	
2025-01-19 11:04:34.47	348.85	14.49	
2025-01-19 11:04:35.69	348.79	14.36	
2025-01-19 11:04:36.91	348.73	14.22	
2025-01-19 11:04:38.13	348.67	14.09	
2025-01-19 11:04:39.35	348.61	13.96	
2025-01-19 11:04:40.56	348.55	13.82	
2025-01-19 11:04:41.78	348.49	13.69	
2025-01-19 11:04:43.00	348.43	13.56	
2025-01-19 11:04:44.22	348.38	13.43	
2025-01-19 11:04:45.44	348.32	13.30	
2025-01-19 11:04:46.66	348.26	13.18	
2025-01-19 11:04:47.88	348.21	13.05	
2025-01-19 11:04:49.09	348.15	12.92	
2025-01-19 11:04:50.31	348.10	12.80	
2025-01-19 11:04:51.53	348.04	12.67	
2025-01-19 11:04:52.75	347.99	12.55	
2025-01-19 11:04:53.97	347.94	12.42	
2025-01-19 11:04:55.19	347.89	12.30	
2025-01-19 11:04:56.41	347.83	12.18	
2025-01-19 11:04:57.62	347.78	12.05	
2025-01-19 11:04:58.84	347.73	11.93	
2025-01-19 11:05:00.06	347.68	11.81	
2025-01-19 11:05:01.28	347.63	11.69	
2025-01-19 11:05:02.50	347.58	11.57	
2025-01-19 11:05:03.72	347.53	11.45	
2025-01-19 11:05:04.93	347.49	11.34	
2025-01-19 11:05:06.15	347.44	11.22	
2025-01-19 11:05:07.37	347.39	11.10	
2025-01-19 11:05:08.59	347.34	10.99	
2025-01-19 11:05:09.81	347.30	10.87	
2025-01-19 11:05:11.03	347.25	10.75	
2025-01-19 11:05:12.25	347.20	10.64	
2025-01-19 11:05:13.46	347.16	10.53	
2025-01-19 11:05:14.68	347.11	10.41	
2025-01-19 11:05:15.90	347.07	10.30	
2025-01-19 11:05:17.12	347.03	10.19	
2025-01-19 11:05:18.34	346.98	10.08	
2025-01-19 11:05:19.56	346.94	9.96	
2025-01-19 11:05:20.77	346.90	9.85	
2025-01-19 11:05:21.99	346.85	9.74	
2025-01-19 11:05:23.21	346.81	9.63	
2025-01-19 11:05:24.43	346.77	9.52	
2025-01-19 11:05:25.65	346.73	9.42	
2025-01-19 11:05:26.87	346.69	9.31	
2025-01-19 11:05:28.09	346.65	9.20	
2025-01-19 11:05:29.30	346.61	9.09	
2025-01-19 11:05:30.52	346.57	8.99	
2025-01-19 11:05:31.74	346.53	8.88	
2025-01-19 11:05:32.96	346.49	8.78	
2025-01-19 11:05:34.18	346.45	8.67	
2025-01-19 11:05:35.40	346.41	8.56	
2025-01-19 11:05:36.61	346.37	8.46	
2025-01-19 11:05:37.83	346.33	8.36	
2025-01-19 11:05:39.05	346.30	8.25	
2025-01-19 11:05:40.27	346.26	8.15	
2025-01-19 11:05:41.49	346.22	8.05	
2025-01-19 11:05:42.71	346.19	7.95	
2025-01-19 11:05:43.93	346.15	7.85	
2025-01-19 11:05:45.14	346.11	7.74	
2025-01-19 11:05:46.36	346.08	7.64	
2025-01-19 11:05:47.58	346.04	7.54	
2025-01-19 11:05:48.80	346.01	7.44	
2025-01-19 11:05:50.02	345.97	7.34	
2025-01-19 11:05:51.24	345.94	7.25	
2025-01-19 11:05:52.45	345.91	7.15	
2025-01-19 11:05:53.67	345.87	7.05	
2025-01-19 11:05:54.89	345.84	6.95	
2025-01-19 11:05:56.11	345.80	6.85	
2025-01-19 11:05:57.33	345.77	6.76	
2025-01-19 11:05:58.55	345.74	6.66	
2025-01-19 11:05:59.77	345.71	6.56	
2025-01-19 11:06:00.98	345.67	6.47	
2025-01-19 11:06:02.20	345.64	6.37	
2025-01-19 11:06:03.42	345.61	6.28	
2025-01-19 11:06:04.64	345.58	6.18	
2025-01-19 11:06:05.86	345.55	6.09	
2025-01-19 11:06:07.08	345.52	6.00	
2025-01-19 11:06:08.30	345.49	5.90	
2025-01-19 11:06:09.51	345.46	5.81	
2025-01-19 11:06:10.73	345.43	5.72	
2025-01-19 11:06:11.95	345.40	5.62	
2025-01-19 11:06:13.17	345.37	5.53	
2025-01-19 11:06:14.39	345.34	5.44	
2025-01-19 11:06:15.61	345.31	5.35	
2025-01-19 11:06:16.82	345.28	5.26	
2025-01-19 11:06:18.04	345.25	5.17	
2025-01-19 11:06:19.26	345.22	5.08	
2025-01-19 11:06:20.48	345.19	4.99	
2025-01-19 11:06:21.70	345.16	4.90	
2025-01-19 11:06:22.92	345.14	4.81	
2025-01-19 11:06:24.14	345.11	4.72	
2025-01-19 11:06:25.35	345.08	4.63	
2025-01-19 11:06:26.57	345.05	4.54	
2025-01-19 11:06:27.79	345.03	4.45	
2025-01-19 11:06:29.01	345.00	4.37	
2025-01-19 11:06:30.23	344.97	4.28	
2025-01-19 11:06:31.45	344.95	4.19	
2025-01-19 11:06:32.66	344.92	4.10	
2025-01-19 11:06:33.88	344.90	4.02	

#Closed at: 2025-01-19 11:06:34