passes_logs/2025/01/19/SPB_Silybum_02/SPB_Silybum_02__20250119_091914_AQUA_rec.log

#Pass ID: 20250119_091914_AQUA
#Satellite: AQUA
#Configuration: AQUA
#Start time: 2025-01-19 09:19:13

#Version: 2.0.20230423
#Station: SPB_Silybum_02
#Location: 30.233357 lon 59.946436 lat
#TLE: 1 27424U 02022A   25018.83604057  .00002232  00000+0  46784-3 0  9994
#TLE: 2 27424  98.3597 335.5348 0001881 107.7354 281.6526 14.60700248208189

#Time	Az	El	Level	Level2	SNR	BER	Gain	Gain2
2025-01-19 09:19:15.55	96.48	4.06	
2025-01-19 09:19:16.57	96.38	4.12	
2025-01-19 09:19:17.58	96.28	4.18	
2025-01-19 09:19:18.60	96.17	4.24	
2025-01-19 09:19:19.61	96.07	4.29	
2025-01-19 09:19:20.63	95.97	4.35	
2025-01-19 09:19:21.64	95.87	4.41	
2025-01-19 09:19:22.66	95.76	4.47	
2025-01-19 09:19:23.67	95.66	4.53	
2025-01-19 09:19:24.69	95.55	4.59	
2025-01-19 09:19:25.70	95.45	4.65	
2025-01-19 09:19:26.72	95.34	4.71	
2025-01-19 09:19:27.73	95.23	4.77	
2025-01-19 09:19:28.75	95.13	4.82	
2025-01-19 09:19:29.77	95.02	4.88	
2025-01-19 09:19:30.78	94.91	4.94	
2025-01-19 09:19:31.80	94.80	5.00	
2025-01-19 09:19:32.81	94.69	5.06	
2025-01-19 09:19:33.83	94.58	5.12	
2025-01-19 09:19:34.84	94.48	5.18	
2025-01-19 09:19:35.86	94.36	5.24	
2025-01-19 09:19:36.87	94.25	5.30	
2025-01-19 09:19:37.89	94.14	5.36	
2025-01-19 09:19:38.90	94.03	5.42	
2025-01-19 09:19:39.92	93.92	5.48	
2025-01-19 09:19:40.93	93.81	5.54	
2025-01-19 09:19:41.95	93.69	5.60	
2025-01-19 09:19:42.97	93.58	5.66	
2025-01-19 09:19:43.98	93.46	5.72	
2025-01-19 09:19:45.00	93.35	5.78	
2025-01-19 09:19:46.01	93.23	5.84	
2025-01-19 09:19:47.03	93.12	5.90	
2025-01-19 09:19:48.04	93.00	5.96	
2025-01-19 09:19:49.06	92.88	6.02	
2025-01-19 09:19:50.07	92.77	6.08	
2025-01-19 09:19:51.09	92.65	6.14	
2025-01-19 09:19:52.10	92.53	6.20	
2025-01-19 09:19:53.12	92.41	6.26	
2025-01-19 09:19:54.13	92.29	6.32	
2025-01-19 09:19:55.15	92.17	6.38	
2025-01-19 09:19:56.17	92.05	6.44	
2025-01-19 09:19:57.18	91.93	6.50	
2025-01-19 09:19:58.20	91.81	6.56	
2025-01-19 09:19:59.21	91.68	6.62	
2025-01-19 09:20:00.23	91.56	6.68	
2025-01-19 09:20:01.24	91.44	6.75	
2025-01-19 09:20:02.26	91.31	6.81	
2025-01-19 09:20:03.27	91.19	6.87	
2025-01-19 09:20:04.29	91.06	6.93	
2025-01-19 09:20:05.30	90.94	6.99	
2025-01-19 09:20:06.32	90.81	7.05	
2025-01-19 09:20:07.33	90.68	7.11	
2025-01-19 09:20:08.35	90.55	7.17	
2025-01-19 09:20:09.37	90.42	7.23	
2025-01-19 09:20:10.38	90.30	7.29	
2025-01-19 09:20:11.40	90.17	7.36	
2025-01-19 09:20:12.41	90.04	7.42	
2025-01-19 09:20:13.43	89.91	7.48	
2025-01-19 09:20:14.44	89.77	7.54	
2025-01-19 09:20:15.46	89.64	7.60	
2025-01-19 09:20:16.47	89.51	7.66	
2025-01-19 09:20:17.49	89.38	7.72	
2025-01-19 09:20:18.50	89.24	7.78	
2025-01-19 09:20:19.52	89.11	7.85	
2025-01-19 09:20:20.53	88.97	7.91	
2025-01-19 09:20:21.55	88.84	7.97	
2025-01-19 09:20:22.57	88.70	8.03	
2025-01-19 09:20:23.58	88.56	8.09	
2025-01-19 09:20:24.60	88.43	8.15	
2025-01-19 09:20:25.61	88.29	8.21	
2025-01-19 09:20:26.63	88.15	8.28	
2025-01-19 09:20:27.64	88.01	8.34	
2025-01-19 09:20:28.66	87.87	8.40	
2025-01-19 09:20:29.67	87.73	8.46	
2025-01-19 09:20:30.69	87.59	8.52	
2025-01-19 09:20:31.70	87.44	8.58	
2025-01-19 09:20:32.72	87.30	8.65	
2025-01-19 09:20:33.74	87.16	8.71	
2025-01-19 09:20:34.75	87.01	8.77	
2025-01-19 09:20:35.77	86.87	8.83	
2025-01-19 09:20:36.78	86.72	8.89	
2025-01-19 09:20:37.80	86.58	8.95	
2025-01-19 09:20:38.81	86.43	9.01	
2025-01-19 09:20:39.83	86.28	9.08	
2025-01-19 09:20:40.84	86.13	9.14	
2025-01-19 09:20:41.86	85.98	9.20	
2025-01-19 09:20:42.87	85.84	9.26	
2025-01-19 09:20:43.89	85.68	9.32	
2025-01-19 09:20:44.90	85.53	9.38	
2025-01-19 09:20:45.92	85.38	9.45	
2025-01-19 09:20:46.94	85.23	9.51	
2025-01-19 09:20:47.95	85.08	9.57	
2025-01-19 09:20:48.97	84.92	9.63	
2025-01-19 09:20:49.98	84.77	9.69	
2025-01-19 09:20:51.00	84.61	9.75	
2025-01-19 09:20:52.01	84.46	9.81	
2025-01-19 09:20:53.03	84.30	9.88	
2025-01-19 09:20:54.04	84.14	9.94	
2025-01-19 09:20:55.06	83.98	10.00	
2025-01-19 09:20:56.07	83.83	10.06	
2025-01-19 09:20:57.09	83.67	10.12	
2025-01-19 09:20:58.10	83.51	10.18	
2025-01-19 09:20:59.12	83.34	10.24	
2025-01-19 09:21:00.14	83.18	10.31	
2025-01-19 09:21:01.15	83.02	10.37	
2025-01-19 09:21:02.17	82.86	10.43	
2025-01-19 09:21:03.18	82.69	10.49	
2025-01-19 09:21:04.20	82.53	10.55	
2025-01-19 09:21:05.21	82.36	10.61	
2025-01-19 09:21:06.23	82.20	10.67	
2025-01-19 09:21:07.24	82.03	10.73	
2025-01-19 09:21:08.26	81.86	10.79	
2025-01-19 09:21:09.27	81.69	10.85	
2025-01-19 09:21:10.29	81.52	10.91	
2025-01-19 09:21:11.30	81.35	10.98	
2025-01-19 09:21:12.32	81.18	11.04	
2025-01-19 09:21:13.34	81.01	11.10	
2025-01-19 09:21:14.35	80.84	11.16	
2025-01-19 09:21:15.37	80.66	11.22	
2025-01-19 09:21:16.38	80.49	11.28	
2025-01-19 09:21:17.40	80.32	11.34	
2025-01-19 09:21:18.41	80.14	11.40	
2025-01-19 09:21:19.43	79.96	11.46	
2025-01-19 09:21:20.44	79.79	11.52	
2025-01-19 09:21:21.46	79.61	11.58	
2025-01-19 09:21:22.47	79.43	11.64	
2025-01-19 09:21:23.49	79.25	11.70	
2025-01-19 09:21:24.50	79.07	11.76	
2025-01-19 09:21:25.52	78.89	11.82	
2025-01-19 09:21:26.54	78.71	11.88	
2025-01-19 09:21:27.55	78.53	11.93	
2025-01-19 09:21:28.57	78.34	11.99	
2025-01-19 09:21:29.58	78.16	12.05	
2025-01-19 09:21:30.60	77.97	12.11	
2025-01-19 09:21:31.61	77.79	12.17	
2025-01-19 09:21:32.63	77.60	12.23	
2025-01-19 09:21:33.64	77.41	12.29	
2025-01-19 09:21:34.66	77.22	12.35	
2025-01-19 09:21:35.67	77.04	12.40	
2025-01-19 09:21:36.69	76.85	12.46	
2025-01-19 09:21:37.70	76.66	12.52	
2025-01-19 09:21:38.72	76.46	12.58	
2025-01-19 09:21:39.74	76.27	12.64	
2025-01-19 09:21:40.75	76.08	12.69	
2025-01-19 09:21:41.77	75.88	12.75	
2025-01-19 09:21:42.78	75.69	12.81	
2025-01-19 09:21:43.80	75.49	12.87	
2025-01-19 09:21:44.81	75.30	12.92	
2025-01-19 09:21:45.83	75.10	12.98	
2025-01-19 09:21:46.84	74.90	13.04	
2025-01-19 09:21:47.86	74.70	13.09	
2025-01-19 09:21:48.87	74.50	13.15	
2025-01-19 09:21:49.89	74.30	13.20	
2025-01-19 09:21:50.90	74.10	13.26	
2025-01-19 09:21:51.92	73.90	13.32	
2025-01-19 09:21:52.94	73.70	13.37	
2025-01-19 09:21:53.95	73.49	13.43	
2025-01-19 09:21:54.97	73.29	13.48	
2025-01-19 09:21:55.98	73.08	13.54	
2025-01-19 09:21:57.00	72.88	13.59	
2025-01-19 09:21:58.01	72.67	13.64	
2025-01-19 09:21:59.03	72.46	13.70	
2025-01-19 09:22:00.04	72.25	13.75	
2025-01-19 09:22:01.06	72.04	13.81	
2025-01-19 09:22:02.07	71.83	13.86	
2025-01-19 09:22:03.09	71.62	13.91	
2025-01-19 09:22:04.11	71.41	13.97	
2025-01-19 09:22:05.12	71.20	14.02	
2025-01-19 09:22:06.14	70.98	14.07	
2025-01-19 09:22:07.15	70.77	14.12	
2025-01-19 09:22:08.17	70.55	14.18	
2025-01-19 09:22:09.18	70.34	14.23	
2025-01-19 09:22:10.20	70.12	14.28	
2025-01-19 09:22:11.21	69.90	14.33	
2025-01-19 09:22:12.23	69.68	14.38	
2025-01-19 09:22:13.24	69.47	14.43	
2025-01-19 09:22:14.26	69.25	14.48	
2025-01-19 09:22:15.27	69.03	14.53	
2025-01-19 09:22:16.29	68.80	14.58	
2025-01-19 09:22:17.31	68.58	14.63	
2025-01-19 09:22:18.32	68.36	14.68	
2025-01-19 09:22:19.34	68.13	14.73	
2025-01-19 09:22:20.35	67.91	14.78	
2025-01-19 09:22:21.37	67.68	14.83	
2025-01-19 09:22:22.38	67.46	14.87	
2025-01-19 09:22:23.40	67.23	14.92	
2025-01-19 09:22:24.41	67.00	14.97	
2025-01-19 09:22:25.43	66.77	15.02	
2025-01-19 09:22:26.44	66.54	15.06	
2025-01-19 09:22:27.46	66.31	15.11	
2025-01-19 09:22:28.47	66.08	15.16	
2025-01-19 09:22:29.49	65.85	15.20	
2025-01-19 09:22:30.52	65.62	15.25	
2025-01-19 09:22:31.53	65.38	15.29	
2025-01-19 09:22:32.55	65.15	15.34	
2025-01-19 09:22:33.56	64.91	15.38	
2025-01-19 09:22:34.58	64.68	15.42	
2025-01-19 09:22:35.60	64.44	15.47	
2025-01-19 09:22:36.61	64.21	15.51	
2025-01-19 09:22:37.63	63.97	15.55	
2025-01-19 09:22:38.64	63.73	15.60	
2025-01-19 09:22:39.66	63.49	15.64	
2025-01-19 09:22:40.67	63.25	15.68	
2025-01-19 09:22:41.69	63.01	15.72	
2025-01-19 09:22:42.70	62.77	15.76	
2025-01-19 09:22:43.72	62.53	15.80	
2025-01-19 09:22:44.73	62.28	15.84	
2025-01-19 09:22:45.75	62.04	15.88	
2025-01-19 09:22:46.77	61.80	15.92	
2025-01-19 09:22:47.78	61.55	15.96	
2025-01-19 09:22:48.80	61.31	16.00	
2025-01-19 09:22:49.81	61.06	16.03	
2025-01-19 09:22:50.83	60.81	16.07	
2025-01-19 09:22:51.84	60.57	16.11	
2025-01-19 09:22:52.86	60.32	16.14	
2025-01-19 09:22:53.87	60.07	16.18	
2025-01-19 09:22:54.89	59.82	16.21	
2025-01-19 09:22:55.90	59.57	16.25	
2025-01-19 09:22:56.92	59.32	16.28	
2025-01-19 09:22:57.93	59.07	16.32	
2025-01-19 09:22:58.95	58.82	16.35	
2025-01-19 09:22:59.96	58.57	16.38	
2025-01-19 09:23:00.98	58.31	16.42	
2025-01-19 09:23:02.00	58.06	16.45	
2025-01-19 09:23:03.01	57.81	16.48	
2025-01-19 09:23:04.03	57.55	16.51	
2025-01-19 09:23:05.04	57.30	16.54	
2025-01-19 09:23:06.06	57.04	16.57	
2025-01-19 09:23:07.07	56.78	16.60	
2025-01-19 09:23:08.09	56.53	16.63	
2025-01-19 09:23:09.10	56.27	16.66	
2025-01-19 09:23:10.12	56.01	16.68	
2025-01-19 09:23:11.13	55.76	16.71	
2025-01-19 09:23:12.15	55.50	16.74	
2025-01-19 09:23:13.17	55.24	16.77	
2025-01-19 09:23:14.18	54.98	16.79	
2025-01-19 09:23:15.20	54.72	16.82	
2025-01-19 09:23:16.21	54.46	16.84	
2025-01-19 09:23:17.23	54.19	16.86	
2025-01-19 09:23:18.24	53.93	16.89	
2025-01-19 09:23:19.26	53.67	16.91	
2025-01-19 09:23:20.27	53.41	16.93	
2025-01-19 09:23:21.29	53.15	16.96	
2025-01-19 09:23:22.30	52.88	16.98	
2025-01-19 09:23:23.32	52.62	17.00	
2025-01-19 09:23:24.33	52.36	17.02	
2025-01-19 09:23:25.35	52.09	17.04	
2025-01-19 09:23:26.37	51.83	17.06	
2025-01-19 09:23:27.38	51.56	17.07	
2025-01-19 09:23:28.40	51.30	17.09	
2025-01-19 09:23:29.41	51.03	17.11	
2025-01-19 09:23:30.43	50.77	17.13	
2025-01-19 09:23:31.44	50.50	17.14	
2025-01-19 09:23:32.46	50.23	17.16	
2025-01-19 09:23:33.47	49.97	17.17	
2025-01-19 09:23:34.49	49.70	17.19	
2025-01-19 09:23:35.50	49.43	17.20	
2025-01-19 09:23:36.52	49.16	17.21	
2025-01-19 09:23:37.53	48.90	17.23	
2025-01-19 09:23:38.55	48.63	17.24	
2025-01-19 09:23:39.57	48.36	17.25	
2025-01-19 09:23:40.58	48.09	17.26	
2025-01-19 09:23:41.60	47.82	17.27	
2025-01-19 09:23:42.61	47.56	17.28	
2025-01-19 09:23:43.63	47.29	17.29	
2025-01-19 09:23:44.64	47.02	17.30	
2025-01-19 09:23:45.66	46.75	17.30	
2025-01-19 09:23:46.67	46.48	17.31	
2025-01-19 09:23:47.69	46.21	17.32	
2025-01-19 09:23:48.70	45.94	17.32	
2025-01-19 09:23:49.72	45.67	17.33	
2025-01-19 09:23:50.73	45.40	17.33	
2025-01-19 09:23:51.75	45.13	17.34	
2025-01-19 09:23:52.77	44.86	17.34	
2025-01-19 09:23:53.78	44.59	17.34	
2025-01-19 09:23:54.80	44.32	17.34	
2025-01-19 09:23:55.81	44.05	17.35	
2025-01-19 09:23:56.83	43.78	17.35	
2025-01-19 09:23:57.84	43.51	17.35	
2025-01-19 09:23:58.86	43.24	17.35	
2025-01-19 09:23:59.87	42.97	17.35	
2025-01-19 09:24:00.89	42.70	17.34	
2025-01-19 09:24:01.90	42.43	17.34	
2025-01-19 09:24:02.92	42.16	17.34	
2025-01-19 09:24:03.93	41.89	17.33	
2025-01-19 09:24:04.95	41.62	17.33	
2025-01-19 09:24:05.97	41.35	17.33	
2025-01-19 09:24:06.98	41.08	17.32	
2025-01-19 09:24:08.00	40.81	17.31	
2025-01-19 09:24:09.01	40.54	17.31	
2025-01-19 09:24:10.03	40.27	17.30	
2025-01-19 09:24:11.04	40.00	17.29	
2025-01-19 09:24:12.06	39.73	17.28	
2025-01-19 09:24:13.07	39.47	17.27	
2025-01-19 09:24:14.09	39.20	17.26	
2025-01-19 09:24:15.10	38.93	17.25	
2025-01-19 09:24:16.12	38.66	17.24	
2025-01-19 09:24:17.13	38.39	17.23	
2025-01-19 09:24:18.15	38.13	17.22	
2025-01-19 09:24:19.17	37.86	17.21	
2025-01-19 09:24:20.18	37.59	17.19	
2025-01-19 09:24:21.20	37.32	17.18	
2025-01-19 09:24:22.21	37.06	17.17	
2025-01-19 09:24:23.23	36.79	17.15	
2025-01-19 09:24:24.24	36.52	17.13	
2025-01-19 09:24:25.26	36.26	17.12	
2025-01-19 09:24:26.27	35.99	17.10	
2025-01-19 09:24:27.29	35.73	17.08	
2025-01-19 09:24:28.30	35.46	17.07	
2025-01-19 09:24:29.32	35.20	17.05	
2025-01-19 09:24:30.34	34.93	17.03	
2025-01-19 09:24:31.35	34.67	17.01	
2025-01-19 09:24:32.37	34.41	16.99	
2025-01-19 09:24:33.38	34.14	16.97	
2025-01-19 09:24:34.40	33.88	16.94	
2025-01-19 09:24:35.41	33.62	16.92	
2025-01-19 09:24:36.43	33.36	16.90	
2025-01-19 09:24:37.44	33.10	16.88	
2025-01-19 09:24:38.46	32.84	16.85	
2025-01-19 09:24:39.47	32.58	16.83	
2025-01-19 09:24:40.49	32.32	16.80	
2025-01-19 09:24:41.50	32.06	16.78	
2025-01-19 09:24:42.52	31.80	16.75	
2025-01-19 09:24:43.54	31.54	16.73	
2025-01-19 09:24:44.55	31.28	16.70	
2025-01-19 09:24:45.57	31.02	16.67	
2025-01-19 09:24:46.58	30.77	16.64	
2025-01-19 09:24:47.60	30.51	16.61	
2025-01-19 09:24:48.61	30.25	16.59	
2025-01-19 09:24:49.63	30.00	16.56	
2025-01-19 09:24:50.64	29.74	16.53	
2025-01-19 09:24:51.66	29.49	16.49	
2025-01-19 09:24:52.67	29.24	16.46	
2025-01-19 09:24:53.69	28.98	16.43	
2025-01-19 09:24:54.70	28.73	16.40	
2025-01-19 09:24:55.72	28.48	16.37	
2025-01-19 09:24:56.74	28.23	16.33	
2025-01-19 09:24:57.75	27.98	16.30	
2025-01-19 09:24:58.77	27.73	16.27	
2025-01-19 09:24:59.78	27.48	16.23	
2025-01-19 09:25:00.80	27.23	16.20	
2025-01-19 09:25:01.81	26.98	16.16	
2025-01-19 09:25:02.83	26.73	16.13	
2025-01-19 09:25:03.84	26.49	16.09	
2025-01-19 09:25:04.86	26.24	16.05	
2025-01-19 09:25:05.87	25.99	16.02	
2025-01-19 09:25:06.89	25.75	15.98	
2025-01-19 09:25:07.90	25.50	15.94	
2025-01-19 09:25:08.92	25.26	15.90	
2025-01-19 09:25:09.94	25.02	15.86	
2025-01-19 09:25:10.95	24.77	15.82	
2025-01-19 09:25:11.97	24.53	15.78	
2025-01-19 09:25:12.98	24.29	15.74	
2025-01-19 09:25:14.00	24.05	15.70	
2025-01-19 09:25:15.01	23.81	15.66	
2025-01-19 09:25:16.03	23.57	15.62	
2025-01-19 09:25:17.04	23.34	15.58	
2025-01-19 09:25:18.06	23.10	15.53	
2025-01-19 09:25:19.07	22.86	15.49	
2025-01-19 09:25:20.09	22.63	15.45	
2025-01-19 09:25:21.10	22.39	15.41	
2025-01-19 09:25:22.12	22.16	15.36	
2025-01-19 09:25:23.14	21.92	15.32	
2025-01-19 09:25:24.15	21.69	15.27	
2025-01-19 09:25:25.17	21.46	15.23	
2025-01-19 09:25:26.18	21.23	15.18	
2025-01-19 09:25:27.20	20.99	15.14	
2025-01-19 09:25:28.21	20.77	15.09	
2025-01-19 09:25:29.23	20.54	15.04	
2025-01-19 09:25:30.24	20.31	15.00	
2025-01-19 09:25:31.26	20.08	14.95	
2025-01-19 09:25:32.27	19.85	14.90	
2025-01-19 09:25:33.29	19.63	14.86	
2025-01-19 09:25:34.30	19.40	14.81	
2025-01-19 09:25:35.32	19.18	14.76	
2025-01-19 09:25:36.34	18.95	14.71	
2025-01-19 09:25:37.35	18.73	14.66	
2025-01-19 09:25:38.37	18.51	14.61	
2025-01-19 09:25:39.38	18.29	14.56	
2025-01-19 09:25:40.40	18.07	14.51	
2025-01-19 09:25:41.41	17.85	14.46	
2025-01-19 09:25:42.43	17.63	14.41	
2025-01-19 09:25:43.44	17.41	14.36	
2025-01-19 09:25:44.46	17.19	14.31	
2025-01-19 09:25:45.47	16.98	14.26	
2025-01-19 09:25:46.49	16.76	14.21	
2025-01-19 09:25:47.50	16.55	14.16	
2025-01-19 09:25:48.52	16.33	14.10	
2025-01-19 09:25:49.54	16.12	14.05	
2025-01-19 09:25:50.55	15.91	14.00	
2025-01-19 09:25:51.57	15.70	13.95	
2025-01-19 09:25:52.58	15.49	13.89	
2025-01-19 09:25:53.60	15.27	13.84	
2025-01-19 09:25:54.61	15.07	13.79	
2025-01-19 09:25:55.63	14.86	13.73	
2025-01-19 09:25:56.64	14.65	13.68	
2025-01-19 09:25:57.66	14.44	13.63	
2025-01-19 09:25:58.67	14.24	13.57	
2025-01-19 09:25:59.69	14.03	13.52	
2025-01-19 09:26:00.71	13.83	13.46	
2025-01-19 09:26:01.72	13.63	13.41	
2025-01-19 09:26:02.74	13.42	13.35	
2025-01-19 09:26:03.75	13.22	13.30	
2025-01-19 09:26:04.77	13.02	13.24	
2025-01-19 09:26:05.78	12.82	13.19	
2025-01-19 09:26:06.80	12.62	13.13	
2025-01-19 09:26:07.81	12.42	13.07	
2025-01-19 09:26:08.83	12.22	13.02	
2025-01-19 09:26:09.84	12.03	12.96	
2025-01-19 09:26:10.86	11.83	12.90	
2025-01-19 09:26:11.87	11.64	12.85	
2025-01-19 09:26:12.89	11.44	12.79	
2025-01-19 09:26:13.91	11.25	12.73	
2025-01-19 09:26:14.92	11.06	12.68	
2025-01-19 09:26:15.94	10.86	12.62	
2025-01-19 09:26:16.95	10.67	12.56	
2025-01-19 09:26:17.97	10.48	12.50	
2025-01-19 09:26:18.98	10.29	12.45	
2025-01-19 09:26:20.00	10.11	12.39	
2025-01-19 09:26:21.01	9.92	12.33	
2025-01-19 09:26:22.03	9.73	12.27	
2025-01-19 09:26:23.04	9.55	12.21	
2025-01-19 09:26:24.06	9.36	12.15	
2025-01-19 09:26:25.07	9.18	12.10	
2025-01-19 09:26:26.09	8.99	12.04	
2025-01-19 09:26:27.11	8.81	11.98	
2025-01-19 09:26:28.12	8.63	11.92	
2025-01-19 09:26:29.14	8.44	11.86	
2025-01-19 09:26:30.15	8.26	11.80	
2025-01-19 09:26:31.17	8.08	11.74	
2025-01-19 09:26:32.18	7.91	11.68	
2025-01-19 09:26:33.20	7.73	11.62	
2025-01-19 09:26:34.21	7.55	11.56	
2025-01-19 09:26:35.23	7.37	11.50	
2025-01-19 09:26:36.24	7.20	11.44	
2025-01-19 09:26:37.26	7.02	11.38	
2025-01-19 09:26:38.27	6.85	11.32	
2025-01-19 09:26:39.29	6.67	11.26	
2025-01-19 09:26:40.31	6.50	11.20	
2025-01-19 09:26:41.32	6.33	11.14	
2025-01-19 09:26:42.34	6.16	11.08	
2025-01-19 09:26:43.35	5.99	11.02	
2025-01-19 09:26:44.37	5.82	10.96	
2025-01-19 09:26:45.38	5.65	10.90	
2025-01-19 09:26:46.40	5.48	10.84	
2025-01-19 09:26:47.41	5.32	10.78	
2025-01-19 09:26:48.43	5.15	10.72	
2025-01-19 09:26:49.44	4.98	10.66	
2025-01-19 09:26:50.46	4.82	10.60	
2025-01-19 09:26:51.47	4.65	10.54	
2025-01-19 09:26:52.49	4.49	10.48	
2025-01-19 09:26:53.51	4.33	10.42	
2025-01-19 09:26:54.52	4.16	10.36	
2025-01-19 09:26:55.54	4.00	10.29	
2025-01-19 09:26:56.55	3.84	10.23	
2025-01-19 09:26:57.57	3.68	10.17	
2025-01-19 09:26:58.58	3.52	10.11	
2025-01-19 09:26:59.60	3.36	10.05	
2025-01-19 09:27:00.61	3.21	9.99	
2025-01-19 09:27:01.63	3.05	9.93	
2025-01-19 09:27:02.64	2.90	9.87	
2025-01-19 09:27:03.66	2.74	9.80	
2025-01-19 09:27:04.67	2.59	9.74	
2025-01-19 09:27:05.69	2.43	9.68	
2025-01-19 09:27:06.71	2.28	9.62	
2025-01-19 09:27:07.72	2.12	9.56	
2025-01-19 09:27:08.74	1.97	9.50	
2025-01-19 09:27:09.75	1.82	9.44	
2025-01-19 09:27:10.77	1.67	9.38	
2025-01-19 09:27:11.78	1.52	9.31	
2025-01-19 09:27:12.81	1.37	9.25	
2025-01-19 09:27:13.84	1.22	9.19	
2025-01-19 09:27:14.86	1.07	9.13	
2025-01-19 09:27:15.88	0.92	9.07	
2025-01-19 09:27:16.89	0.78	9.01	
2025-01-19 09:27:17.91	0.63	8.94	
2025-01-19 09:27:18.92	0.49	8.88	
2025-01-19 09:27:19.94	0.34	8.82	
2025-01-19 09:27:20.95	0.20	8.76	
2025-01-19 09:27:21.97	0.06	8.70	
2025-01-19 09:27:22.98	359.91	8.64	
2025-01-19 09:27:24.00	359.77	8.58	
2025-01-19 09:27:25.01	359.63	8.51	
2025-01-19 09:27:26.03	359.49	8.45	
2025-01-19 09:27:27.04	359.35	8.39	
2025-01-19 09:27:28.06	359.21	8.33	
2025-01-19 09:27:29.08	359.07	8.27	
2025-01-19 09:27:30.09	358.94	8.21	
2025-01-19 09:27:31.11	358.80	8.15	
2025-01-19 09:27:32.12	358.66	8.09	
2025-01-19 09:27:33.14	358.53	8.02	
2025-01-19 09:27:34.15	358.39	7.96	
2025-01-19 09:27:35.17	358.26	7.90	
2025-01-19 09:27:36.18	358.12	7.84	
2025-01-19 09:27:37.20	357.99	7.78	
2025-01-19 09:27:38.21	357.86	7.72	
2025-01-19 09:27:39.23	357.73	7.66	
2025-01-19 09:27:40.24	357.59	7.60	
2025-01-19 09:27:41.26	357.46	7.53	
2025-01-19 09:27:42.28	357.33	7.47	
2025-01-19 09:27:43.29	357.20	7.41	
2025-01-19 09:27:44.31	357.07	7.35	
2025-01-19 09:27:45.32	356.95	7.29	
2025-01-19 09:27:46.34	356.82	7.23	
2025-01-19 09:27:47.35	356.69	7.17	
2025-01-19 09:27:48.37	356.56	7.11	
2025-01-19 09:27:49.38	356.44	7.05	
2025-01-19 09:27:50.40	356.31	6.99	
2025-01-19 09:27:51.41	356.19	6.93	
2025-01-19 09:27:52.43	356.06	6.87	
2025-01-19 09:27:53.44	355.94	6.80	
2025-01-19 09:27:54.46	355.82	6.74	
2025-01-19 09:27:55.48	355.69	6.68	
2025-01-19 09:27:56.49	355.57	6.62	
2025-01-19 09:27:57.51	355.45	6.56	
2025-01-19 09:27:58.52	355.33	6.50	
2025-01-19 09:27:59.54	355.21	6.44	
2025-01-19 09:28:00.55	355.09	6.38	
2025-01-19 09:28:01.57	354.97	6.32	
2025-01-19 09:28:02.58	354.85	6.26	
2025-01-19 09:28:03.60	354.73	6.20	
2025-01-19 09:28:04.61	354.62	6.14	
2025-01-19 09:28:05.63	354.50	6.08	
2025-01-19 09:28:06.65	354.38	6.02	
2025-01-19 09:28:07.66	354.27	5.96	
2025-01-19 09:28:08.68	354.15	5.90	
2025-01-19 09:28:09.69	354.04	5.84	
2025-01-19 09:28:10.71	353.92	5.78	
2025-01-19 09:28:11.72	353.81	5.72	
2025-01-19 09:28:12.74	353.70	5.66	
2025-01-19 09:28:13.75	353.58	5.60	
2025-01-19 09:28:14.77	353.47	5.54	
2025-01-19 09:28:15.78	353.36	5.48	
2025-01-19 09:28:16.80	353.25	5.42	
2025-01-19 09:28:17.81	353.14	5.36	
2025-01-19 09:28:18.83	353.03	5.30	
2025-01-19 09:28:19.85	352.92	5.24	
2025-01-19 09:28:20.86	352.81	5.18	
2025-01-19 09:28:21.88	352.70	5.12	
2025-01-19 09:28:22.89	352.59	5.07	
2025-01-19 09:28:23.91	352.48	5.01	
2025-01-19 09:28:24.92	352.38	4.95	
2025-01-19 09:28:25.94	352.27	4.89	
2025-01-19 09:28:26.95	352.16	4.83	
2025-01-19 09:28:27.97	352.06	4.77	
2025-01-19 09:28:28.98	351.95	4.71	
2025-01-19 09:28:30.00	351.85	4.65	
2025-01-19 09:28:31.01	351.74	4.59	
2025-01-19 09:28:32.03	351.64	4.54	
2025-01-19 09:28:33.05	351.54	4.48	
2025-01-19 09:28:34.06	351.43	4.42	
2025-01-19 09:28:35.08	351.33	4.36	
2025-01-19 09:28:36.09	351.23	4.30	
2025-01-19 09:28:37.11	351.13	4.24	
2025-01-19 09:28:38.12	351.03	4.18	
2025-01-19 09:28:39.14	350.93	4.13	
2025-01-19 09:28:40.15	350.83	4.07	
2025-01-19 09:28:41.17	350.73	4.01	

#Closed at: 2025-01-19 09:28:41