passes_logs/2025/01/19/SPB_Silybum_02/SPB_Silybum_02__20250119_011825_AQUA_rec.log

#Pass ID: 20250119_011825_AQUA
#Satellite: AQUA
#Configuration: AQUA
#Start time: 2025-01-19 01:18:26

#Version: 2.0.20230423
#Station: SPB_Silybum_02
#Location: 30.233357 lon 59.946436 lat
#TLE: 1 27424U 02022A   25018.15645899  .00002321  00000+0  48623-3 0  9991
#TLE: 2 27424  98.3597 334.8489 0001860 108.2535 309.6560 14.60697098208087

#Time	Az	El	Level	Level2	SNR	BER	Gain	Gain2
2025-01-19 01:18:28.63	17.42	4.22	
2025-01-19 01:18:29.85	17.43	4.31	
2025-01-19 01:18:31.07	17.44	4.40	
2025-01-19 01:18:32.29	17.44	4.49	
2025-01-19 01:18:33.51	17.45	4.57	
2025-01-19 01:18:34.73	17.46	4.66	
2025-01-19 01:18:35.95	17.46	4.75	
2025-01-19 01:18:37.17	17.47	4.84	
2025-01-19 01:18:38.38	17.48	4.93	
2025-01-19 01:18:39.60	17.48	5.02	
2025-01-19 01:18:40.82	17.49	5.11	
2025-01-19 01:18:42.04	17.50	5.21	
2025-01-19 01:18:43.26	17.50	5.30	
2025-01-19 01:18:44.48	17.51	5.39	
2025-01-19 01:18:45.70	17.52	5.48	
2025-01-19 01:18:46.92	17.52	5.58	
2025-01-19 01:18:48.14	17.53	5.67	
2025-01-19 01:18:49.36	17.54	5.76	
2025-01-19 01:18:50.58	17.54	5.86	
2025-01-19 01:18:51.80	17.55	5.95	
2025-01-19 01:18:53.02	17.56	6.05	
2025-01-19 01:18:54.24	17.57	6.14	
2025-01-19 01:18:55.45	17.57	6.23	
2025-01-19 01:18:56.67	17.58	6.33	
2025-01-19 01:18:57.89	17.59	6.43	
2025-01-19 01:18:59.11	17.59	6.52	
2025-01-19 01:19:00.33	17.60	6.62	
2025-01-19 01:19:01.55	17.61	6.72	
2025-01-19 01:19:02.77	17.61	6.82	
2025-01-19 01:19:03.99	17.62	6.91	
2025-01-19 01:19:05.21	17.63	7.01	
2025-01-19 01:19:06.43	17.63	7.11	
2025-01-19 01:19:07.65	17.64	7.21	
2025-01-19 01:19:08.87	17.65	7.31	
2025-01-19 01:19:10.09	17.66	7.41	
2025-01-19 01:19:11.31	17.66	7.51	
2025-01-19 01:19:12.52	17.67	7.61	
2025-01-19 01:19:13.74	17.68	7.72	
2025-01-19 01:19:14.96	17.68	7.82	
2025-01-19 01:19:16.18	17.69	7.92	
2025-01-19 01:19:17.40	17.70	8.02	
2025-01-19 01:19:18.62	17.70	8.13	
2025-01-19 01:19:19.84	17.71	8.23	
2025-01-19 01:19:21.06	17.72	8.34	
2025-01-19 01:19:22.28	17.73	8.44	
2025-01-19 01:19:23.50	17.73	8.55	
2025-01-19 01:19:24.72	17.74	8.65	
2025-01-19 01:19:25.94	17.75	8.76	
2025-01-19 01:19:27.16	17.75	8.87	
2025-01-19 01:19:28.38	17.76	8.97	
2025-01-19 01:19:29.59	17.77	9.08	
2025-01-19 01:19:30.81	17.78	9.19	
2025-01-19 01:19:32.03	17.78	9.30	
2025-01-19 01:19:33.25	17.79	9.41	
2025-01-19 01:19:34.47	17.80	9.52	
2025-01-19 01:19:35.69	17.81	9.63	
2025-01-19 01:19:36.91	17.81	9.74	
2025-01-19 01:19:38.13	17.82	9.85	
2025-01-19 01:19:39.35	17.83	9.97	
2025-01-19 01:19:40.57	17.83	10.08	
2025-01-19 01:19:41.79	17.84	10.19	
2025-01-19 01:19:43.01	17.85	10.31	
2025-01-19 01:19:44.23	17.86	10.42	
2025-01-19 01:19:45.44	17.86	10.54	
2025-01-19 01:19:46.66	17.87	10.65	
2025-01-19 01:19:47.88	17.88	10.77	
2025-01-19 01:19:49.10	17.89	10.89	
2025-01-19 01:19:50.32	17.89	11.00	
2025-01-19 01:19:51.54	17.90	11.12	
2025-01-19 01:19:52.76	17.91	11.24	
2025-01-19 01:19:53.98	17.92	11.36	
2025-01-19 01:19:55.20	17.92	11.48	
2025-01-19 01:19:56.42	17.93	11.60	
2025-01-19 01:19:57.64	17.94	11.72	
2025-01-19 01:19:58.86	17.95	11.85	
2025-01-19 01:20:00.08	17.96	11.97	
2025-01-19 01:20:01.30	17.96	12.09	
2025-01-19 01:20:02.51	17.97	12.22	
2025-01-19 01:20:03.73	17.98	12.34	
2025-01-19 01:20:04.95	17.99	12.47	
2025-01-19 01:20:06.17	17.99	12.59	
2025-01-19 01:20:07.39	18.00	12.72	
2025-01-19 01:20:08.61	18.01	12.85	
2025-01-19 01:20:09.83	18.02	12.98	
2025-01-19 01:20:11.05	18.03	13.11	
2025-01-19 01:20:12.27	18.03	13.24	
2025-01-19 01:20:13.49	18.04	13.37	
2025-01-19 01:20:14.71	18.05	13.50	
2025-01-19 01:20:15.93	18.06	13.64	
2025-01-19 01:20:17.15	18.07	13.77	
2025-01-19 01:20:18.37	18.07	13.90	
2025-01-19 01:20:19.58	18.08	14.04	
2025-01-19 01:20:20.80	18.09	14.17	
2025-01-19 01:20:22.02	18.10	14.31	
2025-01-19 01:20:23.24	18.11	14.45	
2025-01-19 01:20:24.46	18.11	14.59	
2025-01-19 01:20:25.68	18.12	14.73	
2025-01-19 01:20:26.90	18.13	14.87	
2025-01-19 01:20:28.12	18.14	15.01	
2025-01-19 01:20:29.34	18.15	15.15	
2025-01-19 01:20:30.56	18.16	15.29	
2025-01-19 01:20:31.78	18.17	15.44	
2025-01-19 01:20:33.00	18.17	15.58	
2025-01-19 01:20:34.22	18.18	15.73	
2025-01-19 01:20:35.44	18.19	15.88	
2025-01-19 01:20:36.65	18.20	16.02	
2025-01-19 01:20:37.87	18.21	16.17	
2025-01-19 01:20:39.09	18.22	16.32	
2025-01-19 01:20:40.31	18.23	16.47	
2025-01-19 01:20:41.53	18.23	16.62	
2025-01-19 01:20:42.75	18.24	16.78	
2025-01-19 01:20:43.97	18.25	16.93	
2025-01-19 01:20:45.19	18.26	17.09	
2025-01-19 01:20:46.41	18.27	17.24	
2025-01-19 01:20:47.63	18.28	17.40	
2025-01-19 01:20:48.85	18.29	17.56	
2025-01-19 01:20:50.07	18.30	17.72	
2025-01-19 01:20:51.29	18.31	17.88	
2025-01-19 01:20:52.51	18.31	18.04	
2025-01-19 01:20:53.72	18.32	18.20	
2025-01-19 01:20:54.94	18.33	18.37	
2025-01-19 01:20:56.16	18.34	18.53	
2025-01-19 01:20:57.38	18.35	18.70	
2025-01-19 01:20:58.60	18.36	18.87	
2025-01-19 01:20:59.82	18.37	19.04	
2025-01-19 01:21:01.04	18.38	19.21	
2025-01-19 01:21:02.26	18.39	19.38	
2025-01-19 01:21:03.48	18.40	19.55	
2025-01-19 01:21:04.70	18.41	19.73	
2025-01-19 01:21:05.92	18.42	19.90	
2025-01-19 01:21:07.14	18.43	20.08	
2025-01-19 01:21:08.36	18.44	20.26	
2025-01-19 01:21:09.57	18.45	20.44	
2025-01-19 01:21:10.79	18.46	20.62	
2025-01-19 01:21:12.01	18.47	20.80	
2025-01-19 01:21:13.23	18.48	20.99	
2025-01-19 01:21:14.45	18.49	21.17	
2025-01-19 01:21:15.67	18.50	21.36	
2025-01-19 01:21:16.89	18.51	21.55	
2025-01-19 01:21:18.11	18.52	21.74	
2025-01-19 01:21:19.33	18.53	21.93	
2025-01-19 01:21:20.55	18.54	22.13	
2025-01-19 01:21:21.77	18.55	22.32	
2025-01-19 01:21:22.99	18.56	22.52	
2025-01-19 01:21:24.21	18.57	22.72	
2025-01-19 01:21:25.43	18.58	22.92	
2025-01-19 01:21:26.64	18.59	23.12	
2025-01-19 01:21:27.87	18.60	23.32	
2025-01-19 01:21:29.08	18.62	23.53	
2025-01-19 01:21:30.30	18.63	23.74	
2025-01-19 01:21:31.52	18.64	23.94	
2025-01-19 01:21:32.74	18.65	24.16	
2025-01-19 01:21:33.96	18.66	24.37	
2025-01-19 01:21:35.18	18.67	24.58	
2025-01-19 01:21:36.40	18.68	24.80	
2025-01-19 01:21:37.62	18.70	25.02	
2025-01-19 01:21:38.84	18.71	25.24	
2025-01-19 01:21:40.06	18.72	25.46	
2025-01-19 01:21:41.28	18.73	25.69	
2025-01-19 01:21:42.50	18.74	25.91	
2025-01-19 01:21:43.72	18.76	26.14	
2025-01-19 01:21:44.94	18.77	26.37	
2025-01-19 01:21:46.15	18.78	26.60	
2025-01-19 01:21:47.37	18.79	26.84	
2025-01-19 01:21:48.59	18.81	27.08	
2025-01-19 01:21:49.81	18.82	27.32	
2025-01-19 01:21:51.03	18.83	27.56	
2025-01-19 01:21:52.25	18.84	27.80	
2025-01-19 01:21:53.47	18.86	28.05	
2025-01-19 01:21:54.69	18.87	28.30	
2025-01-19 01:21:55.91	18.88	28.55	
2025-01-19 01:21:57.13	18.90	28.81	
2025-01-19 01:21:58.35	18.91	29.06	
2025-01-19 01:21:59.57	18.93	29.32	
2025-01-19 01:22:00.79	18.94	29.58	
2025-01-19 01:22:02.01	18.95	29.85	
2025-01-19 01:22:03.22	18.97	30.11	
2025-01-19 01:22:04.44	18.98	30.38	
2025-01-19 01:22:05.66	19.00	30.65	
2025-01-19 01:22:06.88	19.01	30.93	
2025-01-19 01:22:08.10	19.03	31.21	
2025-01-19 01:22:09.32	19.04	31.49	
2025-01-19 01:22:10.54	19.06	31.77	
2025-01-19 01:22:11.76	19.07	32.06	
2025-01-19 01:22:12.98	19.09	32.35	
2025-01-19 01:22:14.20	19.11	32.64	
2025-01-19 01:22:15.42	19.12	32.94	
2025-01-19 01:22:16.64	19.14	33.24	
2025-01-19 01:22:17.86	19.16	33.54	
2025-01-19 01:22:19.08	19.17	33.84	
2025-01-19 01:22:20.29	19.19	34.15	
2025-01-19 01:22:21.51	19.21	34.46	
2025-01-19 01:22:22.73	19.22	34.78	
2025-01-19 01:22:23.95	19.24	35.09	
2025-01-19 01:22:25.17	19.26	35.42	
2025-01-19 01:22:26.39	19.28	35.74	
2025-01-19 01:22:27.61	19.30	36.07	
2025-01-19 01:22:28.83	19.32	36.40	
2025-01-19 01:22:30.05	19.34	36.74	
2025-01-19 01:22:31.27	19.36	37.08	
2025-01-19 01:22:32.49	19.38	37.42	
2025-01-19 01:22:33.71	19.40	37.77	
2025-01-19 01:22:34.93	19.42	38.12	
2025-01-19 01:22:36.15	19.44	38.48	
2025-01-19 01:22:37.36	19.46	38.84	
2025-01-19 01:22:38.58	19.48	39.20	
2025-01-19 01:22:39.80	19.50	39.57	
2025-01-19 01:22:41.02	19.53	39.94	
2025-01-19 01:22:42.24	19.55	40.31	
2025-01-19 01:22:43.46	19.57	40.70	
2025-01-19 01:22:44.68	19.60	41.08	
2025-01-19 01:22:45.90	19.62	41.47	
2025-01-19 01:22:47.12	19.65	41.86	
2025-01-19 01:22:48.34	19.67	42.26	
2025-01-19 01:22:49.56	19.70	42.66	
2025-01-19 01:22:50.78	19.72	43.07	
2025-01-19 01:22:52.00	19.75	43.48	
2025-01-19 01:22:53.21	19.78	43.89	
2025-01-19 01:22:54.43	19.81	44.31	
2025-01-19 01:22:55.65	19.83	44.74	
2025-01-19 01:22:56.87	19.86	45.17	
2025-01-19 01:22:58.09	19.89	45.61	
2025-01-19 01:22:59.31	19.93	46.05	
2025-01-19 01:23:00.53	19.96	46.49	
2025-01-19 01:23:01.75	19.99	46.94	
2025-01-19 01:23:02.97	20.02	47.40	
2025-01-19 01:23:04.19	20.06	47.86	
2025-01-19 01:23:05.41	20.09	48.33	
2025-01-19 01:23:06.63	20.13	48.80	
2025-01-19 01:23:07.85	20.17	49.28	
2025-01-19 01:23:09.07	20.20	49.76	
2025-01-19 01:23:10.28	20.24	50.24	
2025-01-19 01:23:11.50	20.28	50.74	
2025-01-19 01:23:12.72	20.32	51.24	
2025-01-19 01:23:13.94	20.37	51.74	
2025-01-19 01:23:15.16	20.41	52.25	
2025-01-19 01:23:16.38	20.46	52.77	
2025-01-19 01:23:17.60	20.50	53.29	
2025-01-19 01:23:18.82	20.55	53.81	
2025-01-19 01:23:20.04	20.60	54.35	
2025-01-19 01:23:21.26	20.66	54.89	
2025-01-19 01:23:22.48	20.71	55.43	
2025-01-19 01:23:23.70	20.77	55.98	
2025-01-19 01:23:24.92	20.82	56.54	
2025-01-19 01:23:26.14	20.88	57.10	
2025-01-19 01:23:27.35	20.95	57.66	
2025-01-19 01:23:28.57	21.01	58.23	
2025-01-19 01:23:29.79	21.08	58.81	
2025-01-19 01:23:31.01	21.15	59.40	
2025-01-19 01:23:32.23	21.22	59.99	
2025-01-19 01:23:33.45	21.30	60.58	
2025-01-19 01:23:34.67	21.38	61.19	
2025-01-19 01:23:35.89	21.47	61.79	
2025-01-19 01:23:37.11	21.55	62.41	
2025-01-19 01:23:38.33	21.65	63.03	
2025-01-19 01:23:39.55	21.74	63.65	
2025-01-19 01:23:40.77	21.85	64.28	
2025-01-19 01:23:41.99	21.96	64.92	
2025-01-19 01:23:43.21	22.07	65.56	
2025-01-19 01:23:44.42	22.19	66.20	
2025-01-19 01:23:45.64	22.32	66.86	
2025-01-19 01:23:46.86	22.45	67.52	
2025-01-19 01:23:48.08	22.60	68.18	
2025-01-19 01:23:49.30	22.75	68.85	
2025-01-19 01:23:50.52	22.92	69.52	
2025-01-19 01:23:51.74	23.10	70.20	
2025-01-19 01:23:52.96	23.29	70.88	
2025-01-19 01:23:54.18	23.49	71.57	
2025-01-19 01:23:55.40	23.71	72.26	
2025-01-19 01:23:56.62	23.95	72.96	
2025-01-19 01:23:57.84	24.21	73.66	
2025-01-19 01:23:59.06	24.50	74.36	
2025-01-19 01:24:00.27	24.81	75.06	
2025-01-19 01:24:01.49	25.16	75.77	
2025-01-19 01:24:02.71	25.54	76.49	
2025-01-19 01:24:03.93	25.97	77.21	
2025-01-19 01:24:05.15	26.45	77.93	
2025-01-19 01:24:06.37	26.99	78.65	
2025-01-19 01:24:07.59	27.60	79.37	
2025-01-19 01:24:08.81	28.31	80.10	
2025-01-19 01:24:10.03	29.13	80.83	
2025-01-19 01:24:11.25	30.09	81.56	
2025-01-19 01:24:12.47	31.24	82.29	
2025-01-19 01:24:13.69	32.63	83.01	
2025-01-19 01:24:14.91	34.34	83.73	
2025-01-19 01:24:16.13	36.49	84.45	
2025-01-19 01:24:17.34	39.27	85.16	
2025-01-19 01:24:18.56	43.01	85.85	
2025-01-19 01:24:19.78	48.23	86.52	
2025-01-19 01:24:21.00	55.85	87.15	
2025-01-19 01:24:22.22	67.46	87.71	
2025-01-19 01:24:23.44	85.16	88.11	
2025-01-19 01:24:24.66	108.87	88.27	
2025-01-19 01:24:25.88	132.41	88.10	
2025-01-19 01:24:27.10	149.84	87.69	
2025-01-19 01:24:28.32	161.26	87.13	
2025-01-19 01:24:29.54	168.76	86.50	
2025-01-19 01:24:30.76	173.91	85.82	
2025-01-19 01:24:31.98	177.60	85.13	
2025-01-19 01:24:33.20	180.36	84.42	
2025-01-19 01:24:34.41	182.48	83.70	
2025-01-19 01:24:35.63	184.18	82.98	
2025-01-19 01:24:36.85	185.55	82.25	
2025-01-19 01:24:38.07	186.69	81.52	
2025-01-19 01:24:39.29	187.65	80.80	
2025-01-19 01:24:40.51	188.46	80.07	
2025-01-19 01:24:41.73	189.17	79.34	
2025-01-19 01:24:42.95	189.78	78.61	
2025-01-19 01:24:44.17	190.32	77.89	
2025-01-19 01:24:45.39	190.79	77.17	
2025-01-19 01:24:46.61	191.22	76.45	
2025-01-19 01:24:47.83	191.60	75.73	
2025-01-19 01:24:49.05	191.94	75.02	
2025-01-19 01:24:50.27	192.26	74.31	
2025-01-19 01:24:51.49	192.54	73.61	
2025-01-19 01:24:52.70	192.80	72.91	
2025-01-19 01:24:53.92	193.04	72.21	
2025-01-19 01:24:55.14	193.26	71.52	
2025-01-19 01:24:56.36	193.46	70.83	
2025-01-19 01:24:57.58	193.65	70.15	
2025-01-19 01:24:58.80	193.83	69.47	
2025-01-19 01:25:00.02	193.99	68.80	
2025-01-19 01:25:01.24	194.15	68.13	
2025-01-19 01:25:02.46	194.29	67.46	
2025-01-19 01:25:03.68	194.43	66.80	
2025-01-19 01:25:04.91	194.56	66.14	
2025-01-19 01:25:06.13	194.68	65.49	
2025-01-19 01:25:07.35	194.79	64.85	
2025-01-19 01:25:08.56	194.90	64.22	
2025-01-19 01:25:09.78	195.00	63.59	
2025-01-19 01:25:11.00	195.10	62.96	
2025-01-19 01:25:12.22	195.19	62.34	
2025-01-19 01:25:13.44	195.28	61.72	
2025-01-19 01:25:14.66	195.36	61.12	
2025-01-19 01:25:15.88	195.44	60.51	
2025-01-19 01:25:17.10	195.52	59.91	
2025-01-19 01:25:18.32	195.59	59.32	
2025-01-19 01:25:19.54	195.66	58.73	
2025-01-19 01:25:20.76	195.73	58.15	
2025-01-19 01:25:21.98	195.79	57.58	
2025-01-19 01:25:23.20	195.86	57.01	
2025-01-19 01:25:24.41	195.92	56.45	
2025-01-19 01:25:25.63	195.97	55.90	
2025-01-19 01:25:26.85	196.03	55.34	
2025-01-19 01:25:28.07	196.08	54.80	
2025-01-19 01:25:29.29	196.14	54.26	
2025-01-19 01:25:30.51	196.19	53.72	
2025-01-19 01:25:31.73	196.23	53.20	
2025-01-19 01:25:32.95	196.28	52.67	
2025-01-19 01:25:34.17	196.33	52.16	
2025-01-19 01:25:35.39	196.37	51.64	
2025-01-19 01:25:36.61	196.41	51.14	
2025-01-19 01:25:37.83	196.45	50.64	
2025-01-19 01:25:39.05	196.49	50.14	
2025-01-19 01:25:40.27	196.53	49.65	
2025-01-19 01:25:41.48	196.57	49.18	
2025-01-19 01:25:42.70	196.61	48.70	
2025-01-19 01:25:43.92	196.64	48.22	
2025-01-19 01:25:45.14	196.68	47.76	
2025-01-19 01:25:46.36	196.71	47.29	
2025-01-19 01:25:47.58	196.74	46.84	
2025-01-19 01:25:48.80	196.78	46.38	
2025-01-19 01:25:50.02	196.81	45.94	
2025-01-19 01:25:51.24	196.84	45.50	
2025-01-19 01:25:52.46	196.87	45.06	
2025-01-19 01:25:53.68	196.90	44.63	
2025-01-19 01:25:54.90	196.93	44.20	
2025-01-19 01:25:56.12	196.95	43.78	
2025-01-19 01:25:57.34	196.98	43.36	
2025-01-19 01:25:58.55	197.01	42.95	
2025-01-19 01:25:59.77	197.03	42.54	
2025-01-19 01:26:00.99	197.06	42.14	
2025-01-19 01:26:02.21	197.09	41.74	
2025-01-19 01:26:03.43	197.11	41.35	
2025-01-19 01:26:04.65	197.13	40.96	
2025-01-19 01:26:05.87	197.16	40.57	
2025-01-19 01:26:07.09	197.18	40.19	
2025-01-19 01:26:08.31	197.20	39.81	
2025-01-19 01:26:09.53	197.23	39.44	
2025-01-19 01:26:10.75	197.25	39.07	
2025-01-19 01:26:11.97	197.27	38.71	
2025-01-19 01:26:13.19	197.29	38.35	
2025-01-19 01:26:14.41	197.31	37.99	
2025-01-19 01:26:15.62	197.33	37.64	
2025-01-19 01:26:16.84	197.35	37.29	
2025-01-19 01:26:18.06	197.37	36.95	
2025-01-19 01:26:19.28	197.39	36.60	
2025-01-19 01:26:20.50	197.41	36.27	
2025-01-19 01:26:21.72	197.43	35.93	
2025-01-19 01:26:22.94	197.44	35.60	
2025-01-19 01:26:24.16	197.46	35.28	
2025-01-19 01:26:25.38	197.48	34.95	
2025-01-19 01:26:26.60	197.50	34.63	
2025-01-19 01:26:27.82	197.52	34.32	
2025-01-19 01:26:29.04	197.53	34.01	
2025-01-19 01:26:30.26	197.55	33.70	
2025-01-19 01:26:31.48	197.57	33.39	
2025-01-19 01:26:32.69	197.58	33.09	
2025-01-19 01:26:33.91	197.60	32.79	
2025-01-19 01:26:35.13	197.61	32.49	
2025-01-19 01:26:36.35	197.63	32.20	
2025-01-19 01:26:37.57	197.64	31.91	
2025-01-19 01:26:38.79	197.66	31.62	
2025-01-19 01:26:40.01	197.67	31.34	
2025-01-19 01:26:41.23	197.69	31.06	
2025-01-19 01:26:42.45	197.70	30.78	
2025-01-19 01:26:43.67	197.72	30.50	
2025-01-19 01:26:44.89	197.73	30.23	
2025-01-19 01:26:46.11	197.75	29.96	
2025-01-19 01:26:47.33	197.76	29.69	
2025-01-19 01:26:48.55	197.77	29.43	
2025-01-19 01:26:49.76	197.79	29.17	
2025-01-19 01:26:50.98	197.80	28.91	
2025-01-19 01:26:52.20	197.81	28.65	
2025-01-19 01:26:53.42	197.83	28.39	
2025-01-19 01:26:54.64	197.84	28.14	
2025-01-19 01:26:55.86	197.85	27.89	
2025-01-19 01:26:57.10	197.87	27.64	
2025-01-19 01:26:58.31	197.88	27.40	
2025-01-19 01:26:59.53	197.89	27.16	
2025-01-19 01:27:00.75	197.90	26.92	
2025-01-19 01:27:01.97	197.92	26.68	
2025-01-19 01:27:03.19	197.93	26.44	
2025-01-19 01:27:04.41	197.94	26.21	
2025-01-19 01:27:05.63	197.95	25.98	
2025-01-19 01:27:06.85	197.96	25.75	
2025-01-19 01:27:08.07	197.97	25.52	
2025-01-19 01:27:09.29	197.99	25.29	
2025-01-19 01:27:10.51	198.00	25.07	
2025-01-19 01:27:11.73	198.01	24.85	
2025-01-19 01:27:12.96	198.02	24.63	
2025-01-19 01:27:14.18	198.03	24.41	
2025-01-19 01:27:15.40	198.04	24.20	
2025-01-19 01:27:16.61	198.05	23.99	
2025-01-19 01:27:17.83	198.06	23.77	
2025-01-19 01:27:19.05	198.07	23.56	
2025-01-19 01:27:20.27	198.08	23.36	
2025-01-19 01:27:21.49	198.09	23.15	
2025-01-19 01:27:22.71	198.10	22.95	
2025-01-19 01:27:23.93	198.11	22.74	
2025-01-19 01:27:25.15	198.13	22.54	
2025-01-19 01:27:26.37	198.14	22.34	
2025-01-19 01:27:27.59	198.15	22.15	
2025-01-19 01:27:28.81	198.16	21.95	
2025-01-19 01:27:30.03	198.16	21.76	
2025-01-19 01:27:31.25	198.17	21.56	
2025-01-19 01:27:32.47	198.18	21.37	
2025-01-19 01:27:33.68	198.19	21.19	
2025-01-19 01:27:34.91	198.20	21.00	
2025-01-19 01:27:36.13	198.21	20.81	
2025-01-19 01:27:37.34	198.22	20.63	
2025-01-19 01:27:38.56	198.23	20.44	
2025-01-19 01:27:39.78	198.24	20.26	
2025-01-19 01:27:41.00	198.25	20.08	
2025-01-19 01:27:42.22	198.26	19.90	
2025-01-19 01:27:43.44	198.27	19.72	
2025-01-19 01:27:44.66	198.28	19.55	
2025-01-19 01:27:45.88	198.29	19.37	
2025-01-19 01:27:47.10	198.30	19.20	
2025-01-19 01:27:48.32	198.30	19.03	
2025-01-19 01:27:49.54	198.31	18.86	
2025-01-19 01:27:50.76	198.32	18.69	
2025-01-19 01:27:51.98	198.33	18.52	
2025-01-19 01:27:53.20	198.34	18.35	
2025-01-19 01:27:54.42	198.35	18.18	
2025-01-19 01:27:55.64	198.36	18.02	
2025-01-19 01:27:56.86	198.36	17.86	
2025-01-19 01:27:58.08	198.37	17.69	
2025-01-19 01:27:59.30	198.38	17.53	
2025-01-19 01:28:00.51	198.39	17.37	
2025-01-19 01:28:01.73	198.40	17.22	
2025-01-19 01:28:02.95	198.41	17.06	
2025-01-19 01:28:04.17	198.41	16.90	
2025-01-19 01:28:05.39	198.42	16.75	
2025-01-19 01:28:06.61	198.43	16.59	
2025-01-19 01:28:07.83	198.44	16.44	
2025-01-19 01:28:09.05	198.45	16.29	
2025-01-19 01:28:10.27	198.45	16.13	
2025-01-19 01:28:11.49	198.46	15.98	
2025-01-19 01:28:12.71	198.47	15.83	
2025-01-19 01:28:13.93	198.48	15.69	
2025-01-19 01:28:15.15	198.49	15.54	
2025-01-19 01:28:16.37	198.49	15.39	
2025-01-19 01:28:17.58	198.50	15.25	
2025-01-19 01:28:18.80	198.51	15.10	
2025-01-19 01:28:20.02	198.52	14.96	
2025-01-19 01:28:21.24	198.52	14.82	
2025-01-19 01:28:22.46	198.53	14.68	
2025-01-19 01:28:23.68	198.54	14.54	
2025-01-19 01:28:24.90	198.55	14.40	
2025-01-19 01:28:26.12	198.55	14.26	
2025-01-19 01:28:27.34	198.56	14.12	
2025-01-19 01:28:28.56	198.57	13.98	
2025-01-19 01:28:29.78	198.58	13.85	
2025-01-19 01:28:31.00	198.58	13.71	
2025-01-19 01:28:32.22	198.59	13.58	
2025-01-19 01:28:33.43	198.60	13.44	
2025-01-19 01:28:34.65	198.60	13.31	
2025-01-19 01:28:35.87	198.61	13.18	
2025-01-19 01:28:37.09	198.62	13.05	
2025-01-19 01:28:38.31	198.63	12.92	
2025-01-19 01:28:39.53	198.63	12.79	
2025-01-19 01:28:40.75	198.64	12.66	
2025-01-19 01:28:41.97	198.65	12.53	
2025-01-19 01:28:43.19	198.65	12.40	
2025-01-19 01:28:44.41	198.66	12.27	
2025-01-19 01:28:45.63	198.67	12.15	
2025-01-19 01:28:46.86	198.67	12.02	
2025-01-19 01:28:48.08	198.68	11.90	
2025-01-19 01:28:49.30	198.69	11.77	
2025-01-19 01:28:50.52	198.70	11.65	
2025-01-19 01:28:51.75	198.70	11.53	
2025-01-19 01:28:52.97	198.71	11.40	
2025-01-19 01:28:54.18	198.72	11.28	
2025-01-19 01:28:55.40	198.72	11.16	
2025-01-19 01:28:56.62	198.73	11.04	
2025-01-19 01:28:57.84	198.74	10.92	
2025-01-19 01:28:59.06	198.74	10.80	
2025-01-19 01:29:00.28	198.75	10.69	
2025-01-19 01:29:01.50	198.76	10.57	
2025-01-19 01:29:02.72	198.76	10.45	
2025-01-19 01:29:03.94	198.77	10.34	
2025-01-19 01:29:05.16	198.77	10.22	
2025-01-19 01:29:06.38	198.78	10.11	
2025-01-19 01:29:07.60	198.79	9.99	
2025-01-19 01:29:08.81	198.79	9.88	
2025-01-19 01:29:10.03	198.80	9.77	
2025-01-19 01:29:11.25	198.81	9.65	
2025-01-19 01:29:12.47	198.81	9.54	
2025-01-19 01:29:13.69	198.82	9.43	
2025-01-19 01:29:14.91	198.83	9.32	
2025-01-19 01:29:16.13	198.83	9.21	
2025-01-19 01:29:17.35	198.84	9.10	
2025-01-19 01:29:18.57	198.84	8.99	
2025-01-19 01:29:19.79	198.85	8.88	
2025-01-19 01:29:21.01	198.86	8.77	
2025-01-19 01:29:22.23	198.86	8.66	
2025-01-19 01:29:23.45	198.87	8.56	
2025-01-19 01:29:24.67	198.88	8.45	
2025-01-19 01:29:25.88	198.88	8.34	
2025-01-19 01:29:27.10	198.89	8.24	
2025-01-19 01:29:28.32	198.89	8.13	
2025-01-19 01:29:29.54	198.90	8.03	
2025-01-19 01:29:30.76	198.91	7.92	
2025-01-19 01:29:31.98	198.91	7.82	
2025-01-19 01:29:33.20	198.92	7.72	
2025-01-19 01:29:34.42	198.92	7.61	
2025-01-19 01:29:35.64	198.93	7.51	
2025-01-19 01:29:36.86	198.94	7.41	
2025-01-19 01:29:38.08	198.94	7.31	
2025-01-19 01:29:39.30	198.95	7.21	
2025-01-19 01:29:40.52	198.95	7.11	
2025-01-19 01:29:41.74	198.96	7.01	
2025-01-19 01:29:42.95	198.96	6.91	
2025-01-19 01:29:44.17	198.97	6.81	
2025-01-19 01:29:45.39	198.98	6.71	
2025-01-19 01:29:46.61	198.98	6.61	
2025-01-19 01:29:47.83	198.99	6.51	
2025-01-19 01:29:49.05	198.99	6.42	
2025-01-19 01:29:50.27	199.00	6.32	
2025-01-19 01:29:51.49	199.01	6.22	
2025-01-19 01:29:52.71	199.01	6.12	
2025-01-19 01:29:53.93	199.02	6.03	
2025-01-19 01:29:55.15	199.02	5.93	
2025-01-19 01:29:56.37	199.03	5.84	
2025-01-19 01:29:57.59	199.03	5.74	
2025-01-19 01:29:58.80	199.04	5.65	
2025-01-19 01:30:00.02	199.05	5.56	
2025-01-19 01:30:01.24	199.05	5.46	
2025-01-19 01:30:02.46	199.06	5.37	
2025-01-19 01:30:03.68	199.06	5.28	
2025-01-19 01:30:04.90	199.07	5.18	
2025-01-19 01:30:06.12	199.07	5.09	
2025-01-19 01:30:07.34	199.08	5.00	
2025-01-19 01:30:08.56	199.08	4.91	
2025-01-19 01:30:09.78	199.09	4.82	
2025-01-19 01:30:11.00	199.10	4.72	
2025-01-19 01:30:12.22	199.10	4.63	
2025-01-19 01:30:13.44	199.11	4.54	
2025-01-19 01:30:14.66	199.11	4.45	
2025-01-19 01:30:15.87	199.12	4.37	
2025-01-19 01:30:17.09	199.12	4.28	
2025-01-19 01:30:18.31	199.13	4.19	
2025-01-19 01:30:19.53	199.13	4.10	
2025-01-19 01:30:20.75	199.14	4.01	

#Closed at: 2025-01-19 01:30:20