passes_logs/2025/01/19/SPB_Silybum_02/SPB_Silybum_02__20250119_003803_SUOMI_NPP_rec.log

#Pass ID: 20250119_003803_SUOMI NPP
#Satellite: SUOMI NPP
#Configuration: NPP
#Start time: 2025-01-19 00:38:04

#Version: 2.0.20230423
#Station: SPB_Silybum_02
#Location: 30.233357 lon 59.946436 lat
#TLE: 1 37849U 11061A   25018.16218063  .00000203  00000+0  11733-3 0  9995
#TLE: 2 37849  98.7450 319.1107 0001555  36.1075 324.0206 14.19539838685362

#Time	Az	El	Level	Level2	SNR	BER	Gain	Gain2
2025-01-19 00:38:06.72	16.97	4.19	
2025-01-19 00:38:08.14	16.96	4.29	
2025-01-19 00:38:09.56	16.94	4.39	
2025-01-19 00:38:10.98	16.93	4.49	
2025-01-19 00:38:12.41	16.91	4.59	
2025-01-19 00:38:13.83	16.90	4.69	
2025-01-19 00:38:15.25	16.88	4.79	
2025-01-19 00:38:16.67	16.87	4.89	
2025-01-19 00:38:18.10	16.85	4.99	
2025-01-19 00:38:19.52	16.84	5.09	
2025-01-19 00:38:20.94	16.82	5.19	
2025-01-19 00:38:22.36	16.81	5.29	
2025-01-19 00:38:23.79	16.79	5.40	
2025-01-19 00:38:25.21	16.77	5.50	
2025-01-19 00:38:26.63	16.76	5.60	
2025-01-19 00:38:28.05	16.74	5.70	
2025-01-19 00:38:29.48	16.72	5.81	
2025-01-19 00:38:30.90	16.71	5.91	
2025-01-19 00:38:32.32	16.69	6.02	
2025-01-19 00:38:33.74	16.67	6.12	
2025-01-19 00:38:35.17	16.66	6.23	
2025-01-19 00:38:36.59	16.64	6.33	
2025-01-19 00:38:38.01	16.62	6.44	
2025-01-19 00:38:39.43	16.60	6.55	
2025-01-19 00:38:40.86	16.58	6.65	
2025-01-19 00:38:42.28	16.57	6.76	
2025-01-19 00:38:43.70	16.55	6.87	
2025-01-19 00:38:45.12	16.53	6.98	
2025-01-19 00:38:46.55	16.51	7.09	
2025-01-19 00:38:47.97	16.49	7.20	
2025-01-19 00:38:49.39	16.47	7.31	
2025-01-19 00:38:50.81	16.45	7.42	
2025-01-19 00:38:52.24	16.43	7.53	
2025-01-19 00:38:53.66	16.41	7.64	
2025-01-19 00:38:55.08	16.39	7.75	
2025-01-19 00:38:56.50	16.37	7.86	
2025-01-19 00:38:57.93	16.35	7.98	
2025-01-19 00:38:59.35	16.33	8.09	
2025-01-19 00:39:00.77	16.31	8.20	
2025-01-19 00:39:02.19	16.29	8.32	
2025-01-19 00:39:03.62	16.27	8.43	
2025-01-19 00:39:05.04	16.25	8.55	
2025-01-19 00:39:06.46	16.23	8.66	
2025-01-19 00:39:07.88	16.21	8.78	
2025-01-19 00:39:09.31	16.18	8.90	
2025-01-19 00:39:10.73	16.16	9.01	
2025-01-19 00:39:12.15	16.14	9.13	
2025-01-19 00:39:13.57	16.12	9.25	
2025-01-19 00:39:15.00	16.09	9.37	
2025-01-19 00:39:16.42	16.07	9.49	
2025-01-19 00:39:17.84	16.05	9.61	
2025-01-19 00:39:19.26	16.02	9.73	
2025-01-19 00:39:20.69	16.00	9.85	
2025-01-19 00:39:22.11	15.97	9.97	
2025-01-19 00:39:23.53	15.95	10.10	
2025-01-19 00:39:24.95	15.93	10.22	
2025-01-19 00:39:26.38	15.90	10.34	
2025-01-19 00:39:27.80	15.88	10.47	
2025-01-19 00:39:29.22	15.85	10.59	
2025-01-19 00:39:30.64	15.82	10.72	
2025-01-19 00:39:32.07	15.80	10.85	
2025-01-19 00:39:33.49	15.77	10.97	
2025-01-19 00:39:34.91	15.75	11.10	
2025-01-19 00:39:36.33	15.72	11.23	
2025-01-19 00:39:37.76	15.69	11.36	
2025-01-19 00:39:39.18	15.66	11.49	
2025-01-19 00:39:40.60	15.64	11.62	
2025-01-19 00:39:42.02	15.61	11.75	
2025-01-19 00:39:43.45	15.58	11.88	
2025-01-19 00:39:44.87	15.55	12.01	
2025-01-19 00:39:46.29	15.52	12.15	
2025-01-19 00:39:47.71	15.49	12.28	
2025-01-19 00:39:49.14	15.46	12.42	
2025-01-19 00:39:50.56	15.43	12.55	
2025-01-19 00:39:51.98	15.40	12.69	
2025-01-19 00:39:53.40	15.37	12.82	
2025-01-19 00:39:54.83	15.34	12.96	
2025-01-19 00:39:56.25	15.31	13.10	
2025-01-19 00:39:57.67	15.28	13.24	
2025-01-19 00:39:59.09	15.25	13.38	
2025-01-19 00:40:00.52	15.21	13.52	
2025-01-19 00:40:01.94	15.18	13.66	
2025-01-19 00:40:03.36	15.15	13.80	
2025-01-19 00:40:04.78	15.12	13.95	
2025-01-19 00:40:06.21	15.08	14.09	
2025-01-19 00:40:07.63	15.05	14.24	
2025-01-19 00:40:09.05	15.01	14.38	
2025-01-19 00:40:10.47	14.98	14.53	
2025-01-19 00:40:11.90	14.94	14.68	
2025-01-19 00:40:13.32	14.91	14.83	
2025-01-19 00:40:14.74	14.87	14.97	
2025-01-19 00:40:16.16	14.83	15.12	
2025-01-19 00:40:17.59	14.80	15.28	
2025-01-19 00:40:19.01	14.76	15.43	
2025-01-19 00:40:20.43	14.72	15.58	
2025-01-19 00:40:21.85	14.68	15.74	
2025-01-19 00:40:23.28	14.64	15.89	
2025-01-19 00:40:24.70	14.60	16.05	
2025-01-19 00:40:26.12	14.56	16.20	
2025-01-19 00:40:27.54	14.52	16.36	
2025-01-19 00:40:28.97	14.48	16.52	
2025-01-19 00:40:30.39	14.44	16.68	
2025-01-19 00:40:31.81	14.40	16.84	
2025-01-19 00:40:33.23	14.36	17.00	
2025-01-19 00:40:34.66	14.31	17.17	
2025-01-19 00:40:36.08	14.27	17.33	
2025-01-19 00:40:37.50	14.23	17.50	
2025-01-19 00:40:38.92	14.18	17.66	
2025-01-19 00:40:40.35	14.14	17.83	
2025-01-19 00:40:41.77	14.09	18.00	
2025-01-19 00:40:43.19	14.05	18.17	
2025-01-19 00:40:44.61	14.00	18.34	
2025-01-19 00:40:46.04	13.95	18.51	
2025-01-19 00:40:47.46	13.90	18.69	
2025-01-19 00:40:48.88	13.86	18.86	
2025-01-19 00:40:50.30	13.81	19.03	
2025-01-19 00:40:51.73	13.76	19.21	
2025-01-19 00:40:53.15	13.71	19.39	
2025-01-19 00:40:54.57	13.65	19.57	
2025-01-19 00:40:55.99	13.60	19.75	
2025-01-19 00:40:57.42	13.55	19.93	
2025-01-19 00:40:58.84	13.50	20.12	
2025-01-19 00:41:00.26	13.44	20.30	
2025-01-19 00:41:01.68	13.39	20.49	
2025-01-19 00:41:03.11	13.33	20.67	
2025-01-19 00:41:04.53	13.28	20.86	
2025-01-19 00:41:05.95	13.22	21.05	
2025-01-19 00:41:07.37	13.16	21.24	
2025-01-19 00:41:08.80	13.10	21.44	
2025-01-19 00:41:10.22	13.04	21.63	
2025-01-19 00:41:11.64	12.99	21.83	
2025-01-19 00:41:13.06	12.92	22.03	
2025-01-19 00:41:14.49	12.86	22.23	
2025-01-19 00:41:15.91	12.80	22.43	
2025-01-19 00:41:17.33	12.74	22.63	
2025-01-19 00:41:18.75	12.67	22.83	
2025-01-19 00:41:20.18	12.61	23.04	
2025-01-19 00:41:21.60	12.54	23.24	
2025-01-19 00:41:23.02	12.47	23.45	
2025-01-19 00:41:24.44	12.41	23.66	
2025-01-19 00:41:25.87	12.34	23.87	
2025-01-19 00:41:27.29	12.27	24.09	
2025-01-19 00:41:28.71	12.19	24.30	
2025-01-19 00:41:30.13	12.12	24.52	
2025-01-19 00:41:31.56	12.05	24.74	
2025-01-19 00:41:32.98	11.97	24.96	
2025-01-19 00:41:34.40	11.90	25.18	
2025-01-19 00:41:35.82	11.82	25.40	
2025-01-19 00:41:37.25	11.74	25.63	
2025-01-19 00:41:38.67	11.66	25.86	
2025-01-19 00:41:40.09	11.58	26.09	
2025-01-19 00:41:41.51	11.50	26.32	
2025-01-19 00:41:42.94	11.42	26.55	
2025-01-19 00:41:44.36	11.34	26.79	
2025-01-19 00:41:45.78	11.25	27.03	
2025-01-19 00:41:47.20	11.16	27.26	
2025-01-19 00:41:48.63	11.07	27.51	
2025-01-19 00:41:50.05	10.98	27.75	
2025-01-19 00:41:51.47	10.89	28.00	
2025-01-19 00:41:52.89	10.80	28.24	
2025-01-19 00:41:54.32	10.71	28.50	
2025-01-19 00:41:55.74	10.61	28.75	
2025-01-19 00:41:57.16	10.51	29.00	
2025-01-19 00:41:58.58	10.41	29.26	
2025-01-19 00:42:00.01	10.31	29.52	
2025-01-19 00:42:01.43	10.21	29.78	
2025-01-19 00:42:02.85	10.11	30.04	
2025-01-19 00:42:04.27	10.00	30.31	
2025-01-19 00:42:05.70	9.89	30.58	
2025-01-19 00:42:07.12	9.78	30.85	
2025-01-19 00:42:08.54	9.67	31.12	
2025-01-19 00:42:09.96	9.56	31.39	
2025-01-19 00:42:11.39	9.44	31.67	
2025-01-19 00:42:12.81	9.32	31.95	
2025-01-19 00:42:14.23	9.20	32.24	
2025-01-19 00:42:15.65	9.08	32.52	
2025-01-19 00:42:17.08	8.96	32.81	
2025-01-19 00:42:18.50	8.83	33.10	
2025-01-19 00:42:19.92	8.70	33.39	
2025-01-19 00:42:21.34	8.57	33.69	
2025-01-19 00:42:22.76	8.43	33.99	
2025-01-19 00:42:24.19	8.30	34.29	
2025-01-19 00:42:25.61	8.16	34.59	
2025-01-19 00:42:27.03	8.01	34.90	
2025-01-19 00:42:28.45	7.87	35.21	
2025-01-19 00:42:29.88	7.72	35.52	
2025-01-19 00:42:31.30	7.57	35.84	
2025-01-19 00:42:32.72	7.42	36.16	
2025-01-19 00:42:34.14	7.26	36.48	
2025-01-19 00:42:35.57	7.10	36.80	
2025-01-19 00:42:36.99	6.93	37.13	
2025-01-19 00:42:38.41	6.77	37.46	
2025-01-19 00:42:39.83	6.60	37.79	
2025-01-19 00:42:41.26	6.42	38.13	
2025-01-19 00:42:42.68	6.24	38.47	
2025-01-19 00:42:44.10	6.06	38.81	
2025-01-19 00:42:45.52	5.88	39.16	
2025-01-19 00:42:46.95	5.69	39.51	
2025-01-19 00:42:48.37	5.49	39.86	
2025-01-19 00:42:49.79	5.29	40.21	
2025-01-19 00:42:51.21	5.09	40.57	
2025-01-19 00:42:52.64	4.88	40.94	
2025-01-19 00:42:54.06	4.67	41.30	
2025-01-19 00:42:55.48	4.45	41.67	
2025-01-19 00:42:56.90	4.23	42.04	
2025-01-19 00:42:58.33	4.00	42.41	
2025-01-19 00:42:59.75	3.76	42.79	
2025-01-19 00:43:01.17	3.52	43.17	
2025-01-19 00:43:02.59	3.28	43.56	
2025-01-19 00:43:04.02	3.03	43.95	
2025-01-19 00:43:05.44	2.77	44.34	
2025-01-19 00:43:06.86	2.50	44.73	
2025-01-19 00:43:08.28	2.23	45.13	
2025-01-19 00:43:09.71	1.95	45.53	
2025-01-19 00:43:11.13	1.67	45.93	
2025-01-19 00:43:12.55	1.37	46.34	
2025-01-19 00:43:13.97	1.07	46.75	
2025-01-19 00:43:15.40	0.76	47.17	
2025-01-19 00:43:16.82	0.45	47.58	
2025-01-19 00:43:18.24	0.12	48.00	
2025-01-19 00:43:19.66	359.78	48.42	
2025-01-19 00:43:21.09	359.44	48.85	
2025-01-19 00:43:22.51	359.08	49.28	
2025-01-19 00:43:23.93	358.72	49.71	
2025-01-19 00:43:25.35	358.34	50.14	
2025-01-19 00:43:26.78	357.95	50.58	
2025-01-19 00:43:28.20	357.55	51.02	
2025-01-19 00:43:29.62	357.14	51.47	
2025-01-19 00:43:31.04	356.72	51.91	
2025-01-19 00:43:32.47	356.28	52.36	
2025-01-19 00:43:33.89	355.83	52.81	
2025-01-19 00:43:35.31	355.37	53.26	
2025-01-19 00:43:36.73	354.89	53.72	
2025-01-19 00:43:38.16	354.39	54.18	
2025-01-19 00:43:39.58	353.88	54.63	
2025-01-19 00:43:41.00	353.36	55.09	
2025-01-19 00:43:42.42	352.81	55.55	
2025-01-19 00:43:43.85	352.24	56.02	
2025-01-19 00:43:45.27	351.66	56.48	
2025-01-19 00:43:46.69	351.06	56.95	
2025-01-19 00:43:48.11	350.44	57.41	
2025-01-19 00:43:49.54	349.79	57.88	
2025-01-19 00:43:50.96	349.12	58.35	
2025-01-19 00:43:52.38	348.43	58.81	
2025-01-19 00:43:53.80	347.71	59.28	
2025-01-19 00:43:55.23	346.96	59.74	
2025-01-19 00:43:56.65	346.19	60.21	
2025-01-19 00:43:58.07	345.39	60.67	
2025-01-19 00:43:59.49	344.56	61.13	
2025-01-19 00:44:00.92	343.69	61.59	
2025-01-19 00:44:02.34	342.80	62.04	
2025-01-19 00:44:03.76	341.87	62.49	
2025-01-19 00:44:05.18	340.91	62.94	
2025-01-19 00:44:06.61	339.91	63.39	
2025-01-19 00:44:08.03	338.87	63.83	
2025-01-19 00:44:09.45	337.79	64.26	
2025-01-19 00:44:10.87	336.67	64.69	
2025-01-19 00:44:12.30	335.50	65.11	
2025-01-19 00:44:13.72	334.30	65.52	
2025-01-19 00:44:15.14	333.05	65.93	
2025-01-19 00:44:16.56	331.75	66.33	
2025-01-19 00:44:17.99	330.39	66.72	
2025-01-19 00:44:19.41	328.99	67.09	
2025-01-19 00:44:20.83	327.55	67.46	
2025-01-19 00:44:22.25	326.05	67.81	
2025-01-19 00:44:23.68	324.48	68.15	
2025-01-19 00:44:25.10	322.88	68.48	
2025-01-19 00:44:26.52	321.23	68.79	
2025-01-19 00:44:27.94	319.52	69.08	
2025-01-19 00:44:29.37	317.75	69.36	
2025-01-19 00:44:30.79	315.94	69.62	
2025-01-19 00:44:32.21	314.08	69.86	
2025-01-19 00:44:33.63	312.17	70.08	
2025-01-19 00:44:35.06	310.21	70.28	
2025-01-19 00:44:36.48	308.22	70.46	
2025-01-19 00:44:37.90	306.20	70.62	
2025-01-19 00:44:39.32	304.14	70.75	
2025-01-19 00:44:40.75	302.04	70.86	
2025-01-19 00:44:42.17	299.93	70.95	
2025-01-19 00:44:43.59	297.80	71.01	
2025-01-19 00:44:45.01	295.67	71.04	
2025-01-19 00:44:46.44	293.51	71.06	
2025-01-19 00:44:47.86	291.36	71.04	
2025-01-19 00:44:49.28	289.23	71.00	
2025-01-19 00:44:50.70	287.10	70.94	
2025-01-19 00:44:52.13	284.98	70.85	
2025-01-19 00:44:53.55	282.89	70.74	
2025-01-19 00:44:54.97	280.84	70.60	
2025-01-19 00:44:56.39	278.82	70.44	
2025-01-19 00:44:57.82	276.82	70.26	
2025-01-19 00:44:59.24	274.88	70.05	
2025-01-19 00:45:00.66	272.98	69.83	
2025-01-19 00:45:02.08	271.12	69.59	
2025-01-19 00:45:03.51	269.31	69.32	
2025-01-19 00:45:04.93	267.55	69.04	
2025-01-19 00:45:06.35	265.85	68.75	
2025-01-19 00:45:07.77	264.20	68.43	
2025-01-19 00:45:09.20	262.59	68.10	
2025-01-19 00:45:10.62	261.05	67.76	
2025-01-19 00:45:12.04	259.55	67.41	
2025-01-19 00:45:13.46	258.11	67.04	
2025-01-19 00:45:14.89	256.71	66.66	
2025-01-19 00:45:16.31	255.37	66.27	
2025-01-19 00:45:17.73	254.07	65.87	
2025-01-19 00:45:19.15	252.83	65.46	
2025-01-19 00:45:20.58	251.62	65.05	
2025-01-19 00:45:22.00	250.46	64.62	
2025-01-19 00:45:23.42	249.34	64.19	
2025-01-19 00:45:24.84	248.27	63.76	
2025-01-19 00:45:26.27	247.23	63.32	
2025-01-19 00:45:27.69	246.24	62.87	
2025-01-19 00:45:29.11	245.28	62.42	
2025-01-19 00:45:30.53	244.35	61.97	
2025-01-19 00:45:31.96	243.46	61.51	
2025-01-19 00:45:33.38	242.60	61.05	
2025-01-19 00:45:34.80	241.78	60.59	
2025-01-19 00:45:36.22	240.98	60.13	
2025-01-19 00:45:37.65	240.21	59.66	
2025-01-19 00:45:39.07	239.46	59.19	
2025-01-19 00:45:40.49	238.75	58.73	
2025-01-19 00:45:41.91	238.06	58.26	
2025-01-19 00:45:43.34	237.39	57.79	
2025-01-19 00:45:44.76	236.75	57.32	
2025-01-19 00:45:46.18	236.13	56.86	
2025-01-19 00:45:47.60	235.53	56.39	
2025-01-19 00:45:49.03	234.94	55.92	
2025-01-19 00:45:50.45	234.38	55.46	
2025-01-19 00:45:51.87	233.84	55.00	
2025-01-19 00:45:53.29	233.31	54.54	
2025-01-19 00:45:54.72	232.80	54.08	
2025-01-19 00:45:56.14	232.31	53.62	
2025-01-19 00:45:57.56	231.83	53.17	
2025-01-19 00:45:58.98	231.37	52.71	
2025-01-19 00:46:00.41	230.91	52.26	
2025-01-19 00:46:01.83	230.48	51.81	
2025-01-19 00:46:03.25	230.06	51.36	
2025-01-19 00:46:04.67	229.65	50.92	
2025-01-19 00:46:06.10	229.25	50.48	
2025-01-19 00:46:07.52	228.86	50.04	
2025-01-19 00:46:08.94	228.49	49.60	
2025-01-19 00:46:10.36	228.12	49.17	
2025-01-19 00:46:11.79	227.77	48.74	
2025-01-19 00:46:13.21	227.42	48.31	
2025-01-19 00:46:14.63	227.09	47.89	
2025-01-19 00:46:16.05	226.76	47.47	
2025-01-19 00:46:17.48	226.44	47.05	
2025-01-19 00:46:18.90	226.14	46.64	
2025-01-19 00:46:20.32	225.84	46.23	
2025-01-19 00:46:21.74	225.54	45.82	
2025-01-19 00:46:23.16	225.26	45.41	
2025-01-19 00:46:24.59	224.98	45.01	
2025-01-19 00:46:26.02	224.71	44.61	
2025-01-19 00:46:27.44	224.44	44.22	
2025-01-19 00:46:28.86	224.19	43.83	
2025-01-19 00:46:30.29	223.93	43.43	
2025-01-19 00:46:31.71	223.69	43.05	
2025-01-19 00:46:33.13	223.45	42.67	
2025-01-19 00:46:34.55	223.21	42.29	
2025-01-19 00:46:35.98	222.99	41.91	
2025-01-19 00:46:37.40	222.76	41.54	
2025-01-19 00:46:38.83	222.54	41.17	
2025-01-19 00:46:40.25	222.33	40.81	
2025-01-19 00:46:41.67	222.12	40.44	
2025-01-19 00:46:43.09	221.92	40.09	
2025-01-19 00:46:44.51	221.72	39.73	
2025-01-19 00:46:45.94	221.53	39.38	
2025-01-19 00:46:47.36	221.34	39.03	
2025-01-19 00:46:48.79	221.15	38.68	
2025-01-19 00:46:50.22	220.97	38.33	
2025-01-19 00:46:51.64	220.79	37.99	
2025-01-19 00:46:53.06	220.61	37.66	
2025-01-19 00:46:54.48	220.44	37.32	
2025-01-19 00:46:55.91	220.28	36.99	
2025-01-19 00:46:57.34	220.11	36.66	
2025-01-19 00:46:58.76	219.95	36.34	
2025-01-19 00:47:00.18	219.79	36.02	
2025-01-19 00:47:01.61	219.64	35.70	
2025-01-19 00:47:03.03	219.49	35.38	
2025-01-19 00:47:04.45	219.34	35.07	
2025-01-19 00:47:05.87	219.19	34.76	
2025-01-19 00:47:07.30	219.05	34.45	
2025-01-19 00:47:08.72	218.91	34.14	
2025-01-19 00:47:10.15	218.77	33.84	
2025-01-19 00:47:11.57	218.64	33.54	
2025-01-19 00:47:12.99	218.51	33.25	
2025-01-19 00:47:14.41	218.38	32.95	
2025-01-19 00:47:15.84	218.25	32.66	
2025-01-19 00:47:17.26	218.13	32.37	
2025-01-19 00:47:18.69	218.00	32.08	
2025-01-19 00:47:20.11	217.88	31.80	
2025-01-19 00:47:21.53	217.76	31.52	
2025-01-19 00:47:22.95	217.65	31.24	
2025-01-19 00:47:24.37	217.54	30.97	
2025-01-19 00:47:25.80	217.42	30.69	
2025-01-19 00:47:27.22	217.31	30.42	
2025-01-19 00:47:28.64	217.20	30.15	
2025-01-19 00:47:30.07	217.10	29.89	
2025-01-19 00:47:31.49	216.99	29.62	
2025-01-19 00:47:32.91	216.89	29.36	
2025-01-19 00:47:34.33	216.79	29.10	
2025-01-19 00:47:35.75	216.69	28.85	
2025-01-19 00:47:37.18	216.59	28.59	
2025-01-19 00:47:38.60	216.50	28.34	
2025-01-19 00:47:40.02	216.40	28.09	
2025-01-19 00:47:41.44	216.31	27.84	
2025-01-19 00:47:42.86	216.22	27.60	
2025-01-19 00:47:44.29	216.13	27.35	
2025-01-19 00:47:45.71	216.04	27.11	
2025-01-19 00:47:47.13	215.95	26.87	
2025-01-19 00:47:48.55	215.86	26.63	
2025-01-19 00:47:49.98	215.78	26.39	
2025-01-19 00:47:51.40	215.69	26.16	
2025-01-19 00:47:52.82	215.61	25.93	
2025-01-19 00:47:54.26	215.53	25.70	
2025-01-19 00:47:55.68	215.45	25.47	
2025-01-19 00:47:57.10	215.37	25.24	
2025-01-19 00:47:58.52	215.30	25.02	
2025-01-19 00:47:59.95	215.22	24.80	
2025-01-19 00:48:01.37	215.14	24.58	
2025-01-19 00:48:02.79	215.07	24.36	
2025-01-19 00:48:04.22	215.00	24.14	
2025-01-19 00:48:05.64	214.93	23.92	
2025-01-19 00:48:07.06	214.85	23.71	
2025-01-19 00:48:08.48	214.78	23.50	
2025-01-19 00:48:09.91	214.72	23.29	
2025-01-19 00:48:11.33	214.65	23.08	
2025-01-19 00:48:12.75	214.58	22.87	
2025-01-19 00:48:14.17	214.52	22.67	
2025-01-19 00:48:15.59	214.45	22.46	
2025-01-19 00:48:17.02	214.39	22.26	
2025-01-19 00:48:18.44	214.32	22.06	
2025-01-19 00:48:19.86	214.26	21.86	
2025-01-19 00:48:21.28	214.20	21.66	
2025-01-19 00:48:22.71	214.14	21.47	
2025-01-19 00:48:24.13	214.08	21.27	
2025-01-19 00:48:25.55	214.02	21.08	
2025-01-19 00:48:26.97	213.96	20.89	
2025-01-19 00:48:28.40	213.90	20.70	
2025-01-19 00:48:29.82	213.85	20.51	
2025-01-19 00:48:31.24	213.79	20.32	
2025-01-19 00:48:32.66	213.73	20.13	
2025-01-19 00:48:34.09	213.68	19.95	
2025-01-19 00:48:35.51	213.63	19.76	
2025-01-19 00:48:36.93	213.57	19.58	
2025-01-19 00:48:38.35	213.52	19.40	
2025-01-19 00:48:39.78	213.47	19.22	
2025-01-19 00:48:41.20	213.42	19.04	
2025-01-19 00:48:42.62	213.37	18.87	
2025-01-19 00:48:44.04	213.32	18.69	
2025-01-19 00:48:45.47	213.27	18.51	
2025-01-19 00:48:46.89	213.22	18.34	
2025-01-19 00:48:48.31	213.17	18.17	
2025-01-19 00:48:49.73	213.12	18.00	
2025-01-19 00:48:51.16	213.08	17.83	
2025-01-19 00:48:52.58	213.03	17.66	
2025-01-19 00:48:54.00	212.98	17.49	
2025-01-19 00:48:55.42	212.94	17.33	
2025-01-19 00:48:56.85	212.89	17.16	
2025-01-19 00:48:58.27	212.85	17.00	
2025-01-19 00:48:59.69	212.81	16.83	
2025-01-19 00:49:01.11	212.76	16.67	
2025-01-19 00:49:02.54	212.72	16.51	
2025-01-19 00:49:03.96	212.68	16.35	
2025-01-19 00:49:05.38	212.64	16.19	
2025-01-19 00:49:06.80	212.59	16.03	
2025-01-19 00:49:08.23	212.55	15.87	
2025-01-19 00:49:09.65	212.51	15.72	
2025-01-19 00:49:11.07	212.47	15.56	
2025-01-19 00:49:12.49	212.43	15.41	
2025-01-19 00:49:13.92	212.39	15.25	
2025-01-19 00:49:15.34	212.36	15.10	
2025-01-19 00:49:16.76	212.32	14.95	
2025-01-19 00:49:18.18	212.28	14.80	
2025-01-19 00:49:19.61	212.24	14.65	
2025-01-19 00:49:21.03	212.21	14.50	
2025-01-19 00:49:22.45	212.17	14.36	
2025-01-19 00:49:23.87	212.13	14.21	
2025-01-19 00:49:25.30	212.10	14.06	
2025-01-19 00:49:26.72	212.06	13.92	
2025-01-19 00:49:28.14	212.03	13.77	
2025-01-19 00:49:29.56	211.99	13.63	
2025-01-19 00:49:30.99	211.96	13.49	
2025-01-19 00:49:32.41	211.93	13.35	
2025-01-19 00:49:33.83	211.89	13.20	
2025-01-19 00:49:35.25	211.86	13.06	
2025-01-19 00:49:36.68	211.83	12.92	
2025-01-19 00:49:38.10	211.79	12.79	
2025-01-19 00:49:39.52	211.76	12.65	
2025-01-19 00:49:40.94	211.73	12.51	
2025-01-19 00:49:42.37	211.70	12.37	
2025-01-19 00:49:43.79	211.67	12.24	
2025-01-19 00:49:45.21	211.64	12.10	
2025-01-19 00:49:46.63	211.61	11.97	
2025-01-19 00:49:48.06	211.58	11.84	
2025-01-19 00:49:49.48	211.55	11.70	
2025-01-19 00:49:50.90	211.52	11.57	
2025-01-19 00:49:52.32	211.49	11.44	
2025-01-19 00:49:53.75	211.46	11.31	
2025-01-19 00:49:55.17	211.43	11.18	
2025-01-19 00:49:56.59	211.40	11.05	
2025-01-19 00:49:58.01	211.38	10.92	
2025-01-19 00:49:59.44	211.35	10.80	
2025-01-19 00:50:00.86	211.32	10.67	
2025-01-19 00:50:02.28	211.29	10.54	
2025-01-19 00:50:03.70	211.27	10.42	
2025-01-19 00:50:05.13	211.24	10.29	
2025-01-19 00:50:06.55	211.21	10.17	
2025-01-19 00:50:07.97	211.19	10.04	
2025-01-19 00:50:09.39	211.16	9.92	
2025-01-19 00:50:10.82	211.13	9.80	
2025-01-19 00:50:12.24	211.11	9.67	
2025-01-19 00:50:13.66	211.08	9.55	
2025-01-19 00:50:15.08	211.06	9.43	
2025-01-19 00:50:16.51	211.03	9.31	
2025-01-19 00:50:17.93	211.01	9.19	
2025-01-19 00:50:19.35	210.99	9.07	
2025-01-19 00:50:20.77	210.96	8.95	
2025-01-19 00:50:22.20	210.94	8.83	
2025-01-19 00:50:23.62	210.92	8.72	
2025-01-19 00:50:25.04	210.89	8.60	
2025-01-19 00:50:26.46	210.87	8.48	
2025-01-19 00:50:27.89	210.85	8.37	
2025-01-19 00:50:29.31	210.82	8.25	
2025-01-19 00:50:30.73	210.80	8.14	
2025-01-19 00:50:32.15	210.78	8.02	
2025-01-19 00:50:33.58	210.76	7.91	
2025-01-19 00:50:35.00	210.73	7.79	
2025-01-19 00:50:36.42	210.71	7.68	
2025-01-19 00:50:37.84	210.69	7.57	
2025-01-19 00:50:39.27	210.67	7.46	
2025-01-19 00:50:40.69	210.65	7.35	
2025-01-19 00:50:42.11	210.63	7.23	
2025-01-19 00:50:43.53	210.61	7.12	
2025-01-19 00:50:44.96	210.59	7.01	
2025-01-19 00:50:46.38	210.57	6.90	
2025-01-19 00:50:47.80	210.55	6.80	
2025-01-19 00:50:49.22	210.53	6.69	
2025-01-19 00:50:50.65	210.51	6.58	
2025-01-19 00:50:52.07	210.49	6.47	
2025-01-19 00:50:53.49	210.47	6.36	
2025-01-19 00:50:54.91	210.45	6.26	
2025-01-19 00:50:56.34	210.43	6.15	
2025-01-19 00:50:57.76	210.41	6.04	
2025-01-19 00:50:59.18	210.39	5.94	
2025-01-19 00:51:00.60	210.37	5.83	
2025-01-19 00:51:02.03	210.36	5.73	
2025-01-19 00:51:03.45	210.34	5.62	
2025-01-19 00:51:04.87	210.32	5.52	
2025-01-19 00:51:06.29	210.30	5.42	
2025-01-19 00:51:07.72	210.28	5.31	
2025-01-19 00:51:09.14	210.27	5.21	
2025-01-19 00:51:10.56	210.25	5.11	
2025-01-19 00:51:11.98	210.23	5.01	
2025-01-19 00:51:13.41	210.21	4.91	
2025-01-19 00:51:14.83	210.20	4.80	
2025-01-19 00:51:16.25	210.18	4.70	
2025-01-19 00:51:17.67	210.16	4.60	
2025-01-19 00:51:19.10	210.15	4.50	
2025-01-19 00:51:20.52	210.13	4.40	
2025-01-19 00:51:21.94	210.11	4.30	
2025-01-19 00:51:23.36	210.10	4.21	
2025-01-19 00:51:24.79	210.08	4.11	
2025-01-19 00:51:26.21	210.06	4.01	

#Closed at: 2025-01-19 00:51:26