passes_logs/2025/01/19/SPB_Silybum_02/SPB_Silybum_02__20250119_165948_TERRA_rec.log

#Pass ID: 20250119_165948_TERRA
#Satellite: TERRA
#Configuration: TERRA
#Start time: 2025-01-19 16:59:48

#Version: 2.0.20230423
#Station: SPB_Silybum_02
#Location: 30.233357 lon 59.946436 lat
#TLE: 1 25994U 99068A   25018.76132064  .00000971  00000+0  20987-3 0  9991
#TLE: 2 25994  98.0209  81.6719 0003338  64.8500  46.9329 14.60403262334620

#Time	Az	El	Level	Level2	SNR	BER	Gain	Gain2
2025-01-19 16:59:50.95	114.30	4.14	
2025-01-19 16:59:52.17	114.20	4.21	
2025-01-19 16:59:53.39	114.11	4.29	
2025-01-19 16:59:54.60	114.02	4.37	
2025-01-19 16:59:55.82	113.92	4.45	
2025-01-19 16:59:57.04	113.83	4.53	
2025-01-19 16:59:58.26	113.73	4.61	
2025-01-19 16:59:59.47	113.63	4.69	
2025-01-19 17:00:00.69	113.54	4.77	
2025-01-19 17:00:01.91	113.44	4.85	
2025-01-19 17:00:03.13	113.34	4.93	
2025-01-19 17:00:04.35	113.24	5.01	
2025-01-19 17:00:05.56	113.14	5.09	
2025-01-19 17:00:06.78	113.04	5.17	
2025-01-19 17:00:08.00	112.94	5.25	
2025-01-19 17:00:09.22	112.84	5.33	
2025-01-19 17:00:10.43	112.74	5.41	
2025-01-19 17:00:11.65	112.64	5.49	
2025-01-19 17:00:12.87	112.53	5.58	
2025-01-19 17:00:14.09	112.43	5.66	
2025-01-19 17:00:15.31	112.33	5.74	
2025-01-19 17:00:16.52	112.22	5.82	
2025-01-19 17:00:17.74	112.11	5.91	
2025-01-19 17:00:18.96	112.01	5.99	
2025-01-19 17:00:20.18	111.90	6.07	
2025-01-19 17:00:21.39	111.79	6.15	
2025-01-19 17:00:22.61	111.68	6.24	
2025-01-19 17:00:23.83	111.58	6.32	
2025-01-19 17:00:25.05	111.47	6.41	
2025-01-19 17:00:26.26	111.36	6.49	
2025-01-19 17:00:27.48	111.24	6.57	
2025-01-19 17:00:28.70	111.13	6.66	
2025-01-19 17:00:29.92	111.02	6.74	
2025-01-19 17:00:31.14	110.90	6.83	
2025-01-19 17:00:32.35	110.79	6.91	
2025-01-19 17:00:33.57	110.68	7.00	
2025-01-19 17:00:34.79	110.56	7.08	
2025-01-19 17:00:36.01	110.44	7.17	
2025-01-19 17:00:37.22	110.33	7.25	
2025-01-19 17:00:38.44	110.21	7.34	
2025-01-19 17:00:39.66	110.09	7.43	
2025-01-19 17:00:40.88	109.97	7.51	
2025-01-19 17:00:42.09	109.85	7.60	
2025-01-19 17:00:43.31	109.73	7.69	
2025-01-19 17:00:44.53	109.61	7.77	
2025-01-19 17:00:45.75	109.48	7.86	
2025-01-19 17:00:46.97	109.36	7.95	
2025-01-19 17:00:48.18	109.24	8.04	
2025-01-19 17:00:49.40	109.11	8.12	
2025-01-19 17:00:50.62	108.98	8.21	
2025-01-19 17:00:51.84	108.86	8.30	
2025-01-19 17:00:53.05	108.73	8.39	
2025-01-19 17:00:54.27	108.60	8.48	
2025-01-19 17:00:55.49	108.47	8.57	
2025-01-19 17:00:56.71	108.34	8.66	
2025-01-19 17:00:57.92	108.21	8.75	
2025-01-19 17:00:59.14	108.08	8.84	
2025-01-19 17:01:00.36	107.94	8.93	
2025-01-19 17:01:01.58	107.81	9.02	
2025-01-19 17:01:02.80	107.67	9.11	
2025-01-19 17:01:04.01	107.54	9.20	
2025-01-19 17:01:05.23	107.40	9.29	
2025-01-19 17:01:06.45	107.26	9.38	
2025-01-19 17:01:07.67	107.12	9.47	
2025-01-19 17:01:08.88	106.99	9.56	
2025-01-19 17:01:10.10	106.84	9.65	
2025-01-19 17:01:11.32	106.70	9.75	
2025-01-19 17:01:12.54	106.56	9.84	
2025-01-19 17:01:13.76	106.42	9.93	
2025-01-19 17:01:14.97	106.27	10.02	
2025-01-19 17:01:16.19	106.13	10.12	
2025-01-19 17:01:17.41	105.98	10.21	
2025-01-19 17:01:18.63	105.83	10.30	
2025-01-19 17:01:19.84	105.68	10.40	
2025-01-19 17:01:21.06	105.53	10.49	
2025-01-19 17:01:22.28	105.38	10.58	
2025-01-19 17:01:23.50	105.23	10.68	
2025-01-19 17:01:24.71	105.08	10.77	
2025-01-19 17:01:25.93	104.92	10.87	
2025-01-19 17:01:27.15	104.77	10.96	
2025-01-19 17:01:28.37	104.61	11.06	
2025-01-19 17:01:29.59	104.45	11.15	
2025-01-19 17:01:30.80	104.30	11.25	
2025-01-19 17:01:32.02	104.14	11.34	
2025-01-19 17:01:33.24	103.97	11.44	
2025-01-19 17:01:34.46	103.81	11.54	
2025-01-19 17:01:35.67	103.65	11.63	
2025-01-19 17:01:36.89	103.49	11.73	
2025-01-19 17:01:38.11	103.32	11.83	
2025-01-19 17:01:39.33	103.15	11.92	
2025-01-19 17:01:40.54	102.99	12.02	
2025-01-19 17:01:41.76	102.82	12.12	
2025-01-19 17:01:42.98	102.65	12.21	
2025-01-19 17:01:44.20	102.47	12.31	
2025-01-19 17:01:45.42	102.30	12.41	
2025-01-19 17:01:46.63	102.13	12.51	
2025-01-19 17:01:47.85	101.95	12.61	
2025-01-19 17:01:49.07	101.77	12.70	
2025-01-19 17:01:50.29	101.60	12.80	
2025-01-19 17:01:51.50	101.42	12.90	
2025-01-19 17:01:52.72	101.24	13.00	
2025-01-19 17:01:53.94	101.06	13.10	
2025-01-19 17:01:55.16	100.87	13.20	
2025-01-19 17:01:56.37	100.69	13.30	
2025-01-19 17:01:57.59	100.50	13.40	
2025-01-19 17:01:58.81	100.32	13.50	
2025-01-19 17:02:00.03	100.13	13.60	
2025-01-19 17:02:01.25	99.94	13.70	
2025-01-19 17:02:02.46	99.75	13.80	
2025-01-19 17:02:03.68	99.55	13.90	
2025-01-19 17:02:04.90	99.36	14.00	
2025-01-19 17:02:06.12	99.16	14.10	
2025-01-19 17:02:07.33	98.97	14.20	
2025-01-19 17:02:08.55	98.77	14.30	
2025-01-19 17:02:09.77	98.57	14.40	
2025-01-19 17:02:10.99	98.37	14.50	
2025-01-19 17:02:12.21	98.16	14.61	
2025-01-19 17:02:13.42	97.96	14.71	
2025-01-19 17:02:14.64	97.75	14.81	
2025-01-19 17:02:15.86	97.54	14.91	
2025-01-19 17:02:17.08	97.34	15.01	
2025-01-19 17:02:18.29	97.13	15.11	
2025-01-19 17:02:19.51	96.91	15.22	
2025-01-19 17:02:20.73	96.70	15.32	
2025-01-19 17:02:21.95	96.48	15.42	
2025-01-19 17:02:23.16	96.27	15.52	
2025-01-19 17:02:24.38	96.05	15.62	
2025-01-19 17:02:25.60	95.83	15.73	
2025-01-19 17:02:26.82	95.61	15.83	
2025-01-19 17:02:28.04	95.38	15.93	
2025-01-19 17:02:29.25	95.16	16.03	
2025-01-19 17:02:30.47	94.93	16.14	
2025-01-19 17:02:31.69	94.70	16.24	
2025-01-19 17:02:32.91	94.47	16.34	
2025-01-19 17:02:34.12	94.24	16.45	
2025-01-19 17:02:35.34	94.01	16.55	
2025-01-19 17:02:36.56	93.77	16.65	
2025-01-19 17:02:37.78	93.54	16.75	
2025-01-19 17:02:38.99	93.30	16.86	
2025-01-19 17:02:40.21	93.06	16.96	
2025-01-19 17:02:41.43	92.82	17.06	
2025-01-19 17:02:42.65	92.57	17.16	
2025-01-19 17:02:43.87	92.33	17.27	
2025-01-19 17:02:45.08	92.08	17.37	
2025-01-19 17:02:46.30	91.83	17.47	
2025-01-19 17:02:47.52	91.58	17.58	
2025-01-19 17:02:48.74	91.33	17.68	
2025-01-19 17:02:49.95	91.07	17.78	
2025-01-19 17:02:51.17	90.82	17.88	
2025-01-19 17:02:52.39	90.56	17.98	
2025-01-19 17:02:53.61	90.30	18.09	
2025-01-19 17:02:54.82	90.04	18.19	
2025-01-19 17:02:56.04	89.77	18.29	
2025-01-19 17:02:57.26	89.51	18.39	
2025-01-19 17:02:58.48	89.24	18.49	
2025-01-19 17:02:59.70	88.97	18.59	
2025-01-19 17:03:00.91	88.70	18.69	
2025-01-19 17:03:02.13	88.42	18.80	
2025-01-19 17:03:03.35	88.15	18.90	
2025-01-19 17:03:04.57	87.87	19.00	
2025-01-19 17:03:05.78	87.59	19.10	
2025-01-19 17:03:07.00	87.31	19.20	
2025-01-19 17:03:08.22	87.03	19.30	
2025-01-19 17:03:09.44	86.74	19.40	
2025-01-19 17:03:10.65	86.46	19.50	
2025-01-19 17:03:11.87	86.17	19.59	
2025-01-19 17:03:13.09	85.87	19.69	
2025-01-19 17:03:14.31	85.58	19.79	
2025-01-19 17:03:15.53	85.28	19.89	
2025-01-19 17:03:16.74	84.99	19.99	
2025-01-19 17:03:17.96	84.69	20.08	
2025-01-19 17:03:19.18	84.39	20.18	
2025-01-19 17:03:20.40	84.08	20.28	
2025-01-19 17:03:21.61	83.78	20.37	
2025-01-19 17:03:22.83	83.47	20.47	
2025-01-19 17:03:24.05	83.16	20.56	
2025-01-19 17:03:25.27	82.85	20.66	
2025-01-19 17:03:26.49	82.54	20.75	
2025-01-19 17:03:27.70	82.23	20.85	
2025-01-19 17:03:28.92	81.91	20.94	
2025-01-19 17:03:30.14	81.59	21.03	
2025-01-19 17:03:31.36	81.27	21.13	
2025-01-19 17:03:32.57	80.94	21.22	
2025-01-19 17:03:33.79	80.62	21.31	
2025-01-19 17:03:35.01	80.29	21.40	
2025-01-19 17:03:36.23	79.96	21.49	
2025-01-19 17:03:37.44	79.63	21.58	
2025-01-19 17:03:38.66	79.30	21.67	
2025-01-19 17:03:39.88	78.96	21.75	
2025-01-19 17:03:41.10	78.62	21.84	
2025-01-19 17:03:42.32	78.28	21.93	
2025-01-19 17:03:43.53	77.94	22.01	
2025-01-19 17:03:44.75	77.60	22.10	
2025-01-19 17:03:45.97	77.25	22.18	
2025-01-19 17:03:47.19	76.91	22.27	
2025-01-19 17:03:48.40	76.56	22.35	
2025-01-19 17:03:49.62	76.21	22.43	
2025-01-19 17:03:50.84	75.85	22.51	
2025-01-19 17:03:52.06	75.50	22.59	
2025-01-19 17:03:53.27	75.14	22.67	
2025-01-19 17:03:54.49	74.78	22.75	
2025-01-19 17:03:55.71	74.42	22.83	
2025-01-19 17:03:56.93	74.06	22.90	
2025-01-19 17:03:58.15	73.69	22.98	
2025-01-19 17:03:59.36	73.33	23.05	
2025-01-19 17:04:00.58	72.96	23.13	
2025-01-19 17:04:01.80	72.59	23.20	
2025-01-19 17:04:03.02	72.22	23.27	
2025-01-19 17:04:04.23	71.85	23.34	
2025-01-19 17:04:05.45	71.47	23.41	
2025-01-19 17:04:06.67	71.09	23.48	
2025-01-19 17:04:07.89	70.72	23.55	
2025-01-19 17:04:09.10	70.34	23.61	
2025-01-19 17:04:10.32	69.95	23.68	
2025-01-19 17:04:11.54	69.57	23.74	
2025-01-19 17:04:12.76	69.18	23.81	
2025-01-19 17:04:13.98	68.80	23.87	
2025-01-19 17:04:15.19	68.41	23.93	
2025-01-19 17:04:16.41	68.02	23.99	
2025-01-19 17:04:17.63	67.63	24.04	
2025-01-19 17:04:18.85	67.23	24.10	
2025-01-19 17:04:20.06	66.84	24.16	
2025-01-19 17:04:21.28	66.45	24.21	
2025-01-19 17:04:22.50	66.05	24.26	
2025-01-19 17:04:23.72	65.65	24.32	
2025-01-19 17:04:24.94	65.25	24.37	
2025-01-19 17:04:26.15	64.85	24.41	
2025-01-19 17:04:27.37	64.45	24.46	
2025-01-19 17:04:28.59	64.04	24.51	
2025-01-19 17:04:29.81	63.63	24.55	
2025-01-19 17:04:31.02	63.23	24.59	
2025-01-19 17:04:32.24	62.82	24.64	
2025-01-19 17:04:33.46	62.41	24.68	
2025-01-19 17:04:34.68	62.00	24.71	
2025-01-19 17:04:35.89	61.60	24.75	
2025-01-19 17:04:37.11	61.18	24.79	
2025-01-19 17:04:38.33	60.77	24.82	
2025-01-19 17:04:39.55	60.36	24.85	
2025-01-19 17:04:40.77	59.94	24.89	
2025-01-19 17:04:41.98	59.53	24.92	
2025-01-19 17:04:43.20	59.11	24.94	
2025-01-19 17:04:44.42	58.70	24.97	
2025-01-19 17:04:45.64	58.28	24.99	
2025-01-19 17:04:46.85	57.86	25.02	
2025-01-19 17:04:48.07	57.44	25.04	
2025-01-19 17:04:49.29	57.02	25.06	
2025-01-19 17:04:50.51	56.60	25.08	
2025-01-19 17:04:51.72	56.19	25.10	
2025-01-19 17:04:52.94	55.76	25.11	
2025-01-19 17:04:54.16	55.34	25.12	
2025-01-19 17:04:55.38	54.92	25.14	
2025-01-19 17:04:56.60	54.50	25.15	
2025-01-19 17:04:57.81	54.08	25.16	
2025-01-19 17:04:59.03	53.66	25.16	
2025-01-19 17:05:00.25	53.23	25.17	
2025-01-19 17:05:01.47	52.81	25.17	
2025-01-19 17:05:02.68	52.39	25.17	
2025-01-19 17:05:03.90	51.97	25.18	
2025-01-19 17:05:05.12	51.54	25.17	
2025-01-19 17:05:06.34	51.12	25.17	
2025-01-19 17:05:07.55	50.70	25.17	
2025-01-19 17:05:08.77	50.28	25.16	
2025-01-19 17:05:09.99	49.86	25.15	
2025-01-19 17:05:11.21	49.43	25.14	
2025-01-19 17:05:12.43	49.01	25.13	
2025-01-19 17:05:13.64	48.59	25.12	
2025-01-19 17:05:14.86	48.17	25.11	
2025-01-19 17:05:16.08	47.75	25.09	
2025-01-19 17:05:17.30	47.33	25.07	
2025-01-19 17:05:18.51	46.91	25.06	
2025-01-19 17:05:19.73	46.49	25.04	
2025-01-19 17:05:20.95	46.08	25.01	
2025-01-19 17:05:22.17	45.66	24.99	
2025-01-19 17:05:23.39	45.24	24.96	
2025-01-19 17:05:24.60	44.83	24.94	
2025-01-19 17:05:25.82	44.41	24.91	
2025-01-19 17:05:27.04	44.00	24.88	
2025-01-19 17:05:28.26	43.58	24.85	
2025-01-19 17:05:29.47	43.17	24.81	
2025-01-19 17:05:30.69	42.76	24.78	
2025-01-19 17:05:31.91	42.35	24.74	
2025-01-19 17:05:33.13	41.94	24.71	
2025-01-19 17:05:34.34	41.53	24.67	
2025-01-19 17:05:35.56	41.12	24.63	
2025-01-19 17:05:36.78	40.72	24.59	
2025-01-19 17:05:38.00	40.31	24.54	
2025-01-19 17:05:39.22	39.90	24.50	
2025-01-19 17:05:40.43	39.50	24.45	
2025-01-19 17:05:41.65	39.10	24.40	
2025-01-19 17:05:42.87	38.70	24.36	
2025-01-19 17:05:44.09	38.30	24.31	
2025-01-19 17:05:45.30	37.91	24.25	
2025-01-19 17:05:46.52	37.51	24.20	
2025-01-19 17:05:47.74	37.11	24.15	
2025-01-19 17:05:48.96	36.72	24.09	
2025-01-19 17:05:50.17	36.33	24.03	
2025-01-19 17:05:51.39	35.94	23.98	
2025-01-19 17:05:52.61	35.55	23.92	
2025-01-19 17:05:53.83	35.16	23.86	
2025-01-19 17:05:55.05	34.78	23.79	
2025-01-19 17:05:56.26	34.40	23.73	
2025-01-19 17:05:57.48	34.01	23.67	
2025-01-19 17:05:58.70	33.63	23.60	
2025-01-19 17:05:59.92	33.25	23.54	
2025-01-19 17:06:01.13	32.88	23.47	
2025-01-19 17:06:02.35	32.50	23.40	
2025-01-19 17:06:03.57	32.13	23.33	
2025-01-19 17:06:04.79	31.75	23.26	
2025-01-19 17:06:06.00	31.39	23.19	
2025-01-19 17:06:07.22	31.02	23.12	
2025-01-19 17:06:08.44	30.65	23.04	
2025-01-19 17:06:09.66	30.28	22.97	
2025-01-19 17:06:10.88	29.92	22.89	
2025-01-19 17:06:12.09	29.56	22.82	
2025-01-19 17:06:13.31	29.20	22.74	
2025-01-19 17:06:14.53	28.84	22.66	
2025-01-19 17:06:15.75	28.49	22.58	
2025-01-19 17:06:16.96	28.14	22.50	
2025-01-19 17:06:18.18	27.78	22.42	
2025-01-19 17:06:19.40	27.43	22.34	
2025-01-19 17:06:20.62	27.09	22.26	
2025-01-19 17:06:21.83	26.74	22.17	
2025-01-19 17:06:23.05	26.40	22.09	
2025-01-19 17:06:24.27	26.06	22.00	
2025-01-19 17:06:25.49	25.72	21.92	
2025-01-19 17:06:26.71	25.38	21.83	
2025-01-19 17:06:27.92	25.04	21.74	
2025-01-19 17:06:29.14	24.71	21.66	
2025-01-19 17:06:30.36	24.38	21.57	
2025-01-19 17:06:31.58	24.05	21.48	
2025-01-19 17:06:32.79	23.72	21.39	
2025-01-19 17:06:34.01	23.40	21.30	
2025-01-19 17:06:35.23	23.07	21.21	
2025-01-19 17:06:36.45	22.75	21.12	
2025-01-19 17:06:37.67	22.43	21.03	
2025-01-19 17:06:38.88	22.11	20.93	
2025-01-19 17:06:40.10	21.80	20.84	
2025-01-19 17:06:41.32	21.48	20.75	
2025-01-19 17:06:42.54	21.17	20.65	
2025-01-19 17:06:43.75	20.86	20.56	
2025-01-19 17:06:44.97	20.56	20.46	
2025-01-19 17:06:46.19	20.25	20.37	
2025-01-19 17:06:47.41	19.95	20.27	
2025-01-19 17:06:48.62	19.65	20.18	
2025-01-19 17:06:49.84	19.35	20.08	
2025-01-19 17:06:51.06	19.05	19.98	
2025-01-19 17:06:52.28	18.75	19.89	
2025-01-19 17:06:53.50	18.46	19.79	
2025-01-19 17:06:54.71	18.17	19.69	
2025-01-19 17:06:55.93	17.88	19.59	
2025-01-19 17:06:57.15	17.59	19.49	
2025-01-19 17:06:58.37	17.31	19.39	
2025-01-19 17:06:59.58	17.03	19.30	
2025-01-19 17:07:00.80	16.74	19.20	
2025-01-19 17:07:02.02	16.46	19.10	
2025-01-19 17:07:03.24	16.19	19.00	
2025-01-19 17:07:04.45	15.91	18.90	
2025-01-19 17:07:05.67	15.64	18.80	
2025-01-19 17:07:06.89	15.37	18.70	
2025-01-19 17:07:08.11	15.10	18.60	
2025-01-19 17:07:09.33	14.83	18.49	
2025-01-19 17:07:10.54	14.56	18.39	
2025-01-19 17:07:11.76	14.30	18.29	
2025-01-19 17:07:12.98	14.04	18.19	
2025-01-19 17:07:14.20	13.77	18.09	
2025-01-19 17:07:15.41	13.52	17.99	
2025-01-19 17:07:16.63	13.26	17.89	
2025-01-19 17:07:17.85	13.01	17.78	
2025-01-19 17:07:19.07	12.75	17.68	
2025-01-19 17:07:20.29	12.50	17.58	
2025-01-19 17:07:21.50	12.25	17.48	
2025-01-19 17:07:22.72	12.01	17.38	
2025-01-19 17:07:23.94	11.76	17.27	
2025-01-19 17:07:25.16	11.51	17.17	
2025-01-19 17:07:26.37	11.27	17.07	
2025-01-19 17:07:27.59	11.03	16.97	
2025-01-19 17:07:28.81	10.79	16.87	
2025-01-19 17:07:30.03	10.56	16.76	
2025-01-19 17:07:31.24	10.32	16.66	
2025-01-19 17:07:32.46	10.09	16.56	
2025-01-19 17:07:33.68	9.86	16.46	
2025-01-19 17:07:34.90	9.63	16.35	
2025-01-19 17:07:36.12	9.40	16.25	
2025-01-19 17:07:37.33	9.17	16.15	
2025-01-19 17:07:38.55	8.95	16.05	
2025-01-19 17:07:39.77	8.72	15.95	
2025-01-19 17:07:40.99	8.50	15.84	
2025-01-19 17:07:42.20	8.28	15.74	
2025-01-19 17:07:43.42	8.06	15.64	
2025-01-19 17:07:44.64	7.85	15.54	
2025-01-19 17:07:45.86	7.63	15.44	
2025-01-19 17:07:47.07	7.42	15.34	
2025-01-19 17:07:48.29	7.21	15.23	
2025-01-19 17:07:49.51	7.00	15.13	
2025-01-19 17:07:50.73	6.79	15.03	
2025-01-19 17:07:51.95	6.58	14.93	
2025-01-19 17:07:53.16	6.37	14.83	
2025-01-19 17:07:54.38	6.17	14.73	
2025-01-19 17:07:55.60	5.97	14.63	
2025-01-19 17:07:56.82	5.76	14.52	
2025-01-19 17:07:58.03	5.57	14.42	
2025-01-19 17:07:59.25	5.37	14.32	
2025-01-19 17:08:00.47	5.17	14.22	
2025-01-19 17:08:01.69	4.97	14.12	
2025-01-19 17:08:02.90	4.78	14.02	
2025-01-19 17:08:04.12	4.59	13.92	
2025-01-19 17:08:05.34	4.40	13.82	
2025-01-19 17:08:06.56	4.21	13.72	
2025-01-19 17:08:07.78	4.02	13.62	
2025-01-19 17:08:08.99	3.83	13.52	
2025-01-19 17:08:10.21	3.65	13.42	
2025-01-19 17:08:11.43	3.46	13.33	
2025-01-19 17:08:12.65	3.28	13.23	
2025-01-19 17:08:13.86	3.10	13.13	
2025-01-19 17:08:15.08	2.92	13.03	
2025-01-19 17:08:16.30	2.74	12.93	
2025-01-19 17:08:17.52	2.56	12.83	
2025-01-19 17:08:18.73	2.38	12.73	
2025-01-19 17:08:19.95	2.21	12.64	
2025-01-19 17:08:21.17	2.04	12.54	
2025-01-19 17:08:22.39	1.86	12.44	
2025-01-19 17:08:23.61	1.69	12.34	
2025-01-19 17:08:24.82	1.52	12.25	
2025-01-19 17:08:26.04	1.35	12.15	
2025-01-19 17:08:27.26	1.18	12.05	
2025-01-19 17:08:28.48	1.02	11.96	
2025-01-19 17:08:29.69	0.85	11.86	
2025-01-19 17:08:30.91	0.69	11.76	
2025-01-19 17:08:32.13	0.53	11.67	
2025-01-19 17:08:33.35	0.36	11.57	
2025-01-19 17:08:34.57	0.20	11.48	
2025-01-19 17:08:35.78	0.04	11.38	
2025-01-19 17:08:37.00	359.89	11.29	
2025-01-19 17:08:38.22	359.73	11.19	
2025-01-19 17:08:39.44	359.57	11.10	
2025-01-19 17:08:40.65	359.42	11.00	
2025-01-19 17:08:41.87	359.26	10.91	
2025-01-19 17:08:43.09	359.11	10.81	
2025-01-19 17:08:44.31	358.96	10.72	
2025-01-19 17:08:45.52	358.81	10.63	
2025-01-19 17:08:46.74	358.66	10.53	
2025-01-19 17:08:47.96	358.51	10.44	
2025-01-19 17:08:49.18	358.36	10.35	
2025-01-19 17:08:50.40	358.22	10.25	
2025-01-19 17:08:51.61	358.07	10.16	
2025-01-19 17:08:52.83	357.93	10.07	
2025-01-19 17:08:54.05	357.78	9.98	
2025-01-19 17:08:55.27	357.64	9.88	
2025-01-19 17:08:56.48	357.50	9.79	
2025-01-19 17:08:57.70	357.36	9.70	
2025-01-19 17:08:58.92	357.22	9.61	
2025-01-19 17:09:00.14	357.08	9.52	
2025-01-19 17:09:01.35	356.95	9.43	
2025-01-19 17:09:02.57	356.81	9.34	
2025-01-19 17:09:03.79	356.67	9.25	
2025-01-19 17:09:05.01	356.54	9.16	
2025-01-19 17:09:06.23	356.41	9.06	
2025-01-19 17:09:07.44	356.27	8.98	
2025-01-19 17:09:08.66	356.14	8.89	
2025-01-19 17:09:09.88	356.01	8.80	
2025-01-19 17:09:11.10	355.88	8.71	
2025-01-19 17:09:12.31	355.75	8.62	
2025-01-19 17:09:13.53	355.62	8.53	
2025-01-19 17:09:14.75	355.50	8.44	
2025-01-19 17:09:15.97	355.37	8.35	
2025-01-19 17:09:17.18	355.24	8.27	
2025-01-19 17:09:18.40	355.12	8.18	
2025-01-19 17:09:19.62	354.99	8.09	
2025-01-19 17:09:20.84	354.87	8.00	
2025-01-19 17:09:22.06	354.75	7.91	
2025-01-19 17:09:23.27	354.63	7.83	
2025-01-19 17:09:24.49	354.51	7.74	
2025-01-19 17:09:25.71	354.39	7.65	
2025-01-19 17:09:26.93	354.27	7.57	
2025-01-19 17:09:28.14	354.15	7.48	
2025-01-19 17:09:29.36	354.03	7.40	
2025-01-19 17:09:30.58	353.92	7.31	
2025-01-19 17:09:31.80	353.80	7.22	
2025-01-19 17:09:33.01	353.69	7.14	
2025-01-19 17:09:34.23	353.57	7.05	
2025-01-19 17:09:35.45	353.46	6.97	
2025-01-19 17:09:36.67	353.34	6.88	
2025-01-19 17:09:37.89	353.23	6.80	
2025-01-19 17:09:39.10	353.12	6.72	
2025-01-19 17:09:40.32	353.01	6.63	
2025-01-19 17:09:41.54	352.90	6.55	
2025-01-19 17:09:42.76	352.79	6.46	
2025-01-19 17:09:43.97	352.68	6.38	
2025-01-19 17:09:45.19	352.57	6.30	
2025-01-19 17:09:46.41	352.47	6.21	
2025-01-19 17:09:47.63	352.36	6.13	
2025-01-19 17:09:48.85	352.25	6.05	
2025-01-19 17:09:50.06	352.15	5.97	
2025-01-19 17:09:51.28	352.04	5.88	
2025-01-19 17:09:52.50	351.94	5.80	
2025-01-19 17:09:53.72	351.84	5.72	
2025-01-19 17:09:54.93	351.74	5.64	
2025-01-19 17:09:56.15	351.63	5.56	
2025-01-19 17:09:57.37	351.53	5.48	
2025-01-19 17:09:58.59	351.43	5.40	
2025-01-19 17:09:59.80	351.33	5.31	
2025-01-19 17:10:01.02	351.23	5.23	
2025-01-19 17:10:02.24	351.13	5.15	
2025-01-19 17:10:03.46	351.04	5.07	
2025-01-19 17:10:04.68	350.94	4.99	
2025-01-19 17:10:05.89	350.84	4.91	
2025-01-19 17:10:07.11	350.75	4.83	
2025-01-19 17:10:08.33	350.65	4.75	
2025-01-19 17:10:09.55	350.55	4.67	
2025-01-19 17:10:10.76	350.46	4.60	
2025-01-19 17:10:11.98	350.37	4.52	
2025-01-19 17:10:13.20	350.27	4.44	
2025-01-19 17:10:14.42	350.18	4.36	
2025-01-19 17:10:15.63	350.09	4.28	
2025-01-19 17:10:16.85	350.00	4.20	
2025-01-19 17:10:18.07	349.91	4.13	
2025-01-19 17:10:19.29	349.81	4.05	

#Closed at: 2025-01-19 17:10:20