passes_logs/2025/01/19/SPB_Silybum_02/SPB_Silybum_02__20250119_071415_SUOMI_NPP_rec.log

#Pass ID: 20250119_071415_SUOMI NPP
#Satellite: SUOMI NPP
#Configuration: NPP
#Start time: 2025-01-19 07:14:14

#Version: 2.0.20230423
#Station: SPB_Silybum_02
#Location: 30.233357 lon 59.946436 lat
#TLE: 1 37849U 11061A   25018.79654560  .00000210  00000+0  12058-3 0  9999
#TLE: 2 37849  98.7450 319.7371 0001526  35.0024 325.1252 14.19540179685454

#Time	Az	El	Level	Level2	SNR	BER	Gain	Gain2
2025-01-19 07:14:16.37	72.10	4.05	
2025-01-19 07:14:17.39	71.99	4.10	
2025-01-19 07:14:18.40	71.88	4.15	
2025-01-19 07:14:19.42	71.77	4.20	
2025-01-19 07:14:20.43	71.66	4.24	
2025-01-19 07:14:21.45	71.55	4.29	
2025-01-19 07:14:22.47	71.44	4.34	
2025-01-19 07:14:23.48	71.33	4.39	
2025-01-19 07:14:24.50	71.22	4.43	
2025-01-19 07:14:25.51	71.11	4.48	
2025-01-19 07:14:26.53	70.99	4.53	
2025-01-19 07:14:27.54	70.88	4.58	
2025-01-19 07:14:28.56	70.77	4.62	
2025-01-19 07:14:29.57	70.65	4.67	
2025-01-19 07:14:30.59	70.54	4.72	
2025-01-19 07:14:31.60	70.43	4.77	
2025-01-19 07:14:32.62	70.31	4.81	
2025-01-19 07:14:33.64	70.19	4.86	
2025-01-19 07:14:34.65	70.08	4.91	
2025-01-19 07:14:35.67	69.96	4.96	
2025-01-19 07:14:36.68	69.85	5.00	
2025-01-19 07:14:37.70	69.73	5.05	
2025-01-19 07:14:38.71	69.61	5.10	
2025-01-19 07:14:39.73	69.50	5.15	
2025-01-19 07:14:40.74	69.38	5.19	
2025-01-19 07:14:41.76	69.26	5.24	
2025-01-19 07:14:42.77	69.14	5.29	
2025-01-19 07:14:43.79	69.02	5.34	
2025-01-19 07:14:44.80	68.90	5.38	
2025-01-19 07:14:45.82	68.78	5.43	
2025-01-19 07:14:46.84	68.66	5.48	
2025-01-19 07:14:47.85	68.54	5.52	
2025-01-19 07:14:48.87	68.42	5.57	
2025-01-19 07:14:49.88	68.30	5.62	
2025-01-19 07:14:50.90	68.18	5.66	
2025-01-19 07:14:51.91	68.06	5.71	
2025-01-19 07:14:52.93	67.93	5.76	
2025-01-19 07:14:53.94	67.81	5.80	
2025-01-19 07:14:54.96	67.69	5.85	
2025-01-19 07:14:55.97	67.56	5.90	
2025-01-19 07:14:56.99	67.44	5.95	
2025-01-19 07:14:58.00	67.32	5.99	
2025-01-19 07:14:59.02	67.19	6.04	
2025-01-19 07:15:00.04	67.06	6.09	
2025-01-19 07:15:01.05	66.94	6.13	
2025-01-19 07:15:02.07	66.81	6.18	
2025-01-19 07:15:03.08	66.69	6.22	
2025-01-19 07:15:04.10	66.56	6.27	
2025-01-19 07:15:05.11	66.43	6.32	
2025-01-19 07:15:06.13	66.30	6.36	
2025-01-19 07:15:07.14	66.18	6.41	
2025-01-19 07:15:08.16	66.05	6.46	
2025-01-19 07:15:09.17	65.92	6.50	
2025-01-19 07:15:10.19	65.79	6.55	
2025-01-19 07:15:11.20	65.66	6.59	
2025-01-19 07:15:12.22	65.53	6.64	
2025-01-19 07:15:13.24	65.40	6.69	
2025-01-19 07:15:14.25	65.27	6.73	
2025-01-19 07:15:15.27	65.13	6.78	
2025-01-19 07:15:16.28	65.00	6.82	
2025-01-19 07:15:17.30	64.87	6.87	
2025-01-19 07:15:18.31	64.74	6.91	
2025-01-19 07:15:19.33	64.60	6.96	
2025-01-19 07:15:20.34	64.47	7.01	
2025-01-19 07:15:21.36	64.34	7.05	
2025-01-19 07:15:22.37	64.20	7.10	
2025-01-19 07:15:23.39	64.07	7.14	
2025-01-19 07:15:24.40	63.93	7.19	
2025-01-19 07:15:25.42	63.80	7.23	
2025-01-19 07:15:26.44	63.66	7.28	
2025-01-19 07:15:27.45	63.52	7.32	
2025-01-19 07:15:28.47	63.38	7.37	
2025-01-19 07:15:29.48	63.25	7.41	
2025-01-19 07:15:30.50	63.11	7.46	
2025-01-19 07:15:31.51	62.97	7.50	
2025-01-19 07:15:32.53	62.83	7.55	
2025-01-19 07:15:33.54	62.69	7.59	
2025-01-19 07:15:34.56	62.55	7.63	
2025-01-19 07:15:35.57	62.41	7.68	
2025-01-19 07:15:36.59	62.27	7.72	
2025-01-19 07:15:37.60	62.13	7.77	
2025-01-19 07:15:38.62	61.99	7.81	
2025-01-19 07:15:39.64	61.85	7.86	
2025-01-19 07:15:40.65	61.71	7.90	
2025-01-19 07:15:41.67	61.56	7.94	
2025-01-19 07:15:42.68	61.42	7.99	
2025-01-19 07:15:43.70	61.28	8.03	
2025-01-19 07:15:44.71	61.13	8.07	
2025-01-19 07:15:45.73	60.99	8.12	
2025-01-19 07:15:46.74	60.84	8.16	
2025-01-19 07:15:47.76	60.70	8.20	
2025-01-19 07:15:48.77	60.55	8.25	
2025-01-19 07:15:49.79	60.40	8.29	
2025-01-19 07:15:50.80	60.26	8.33	
2025-01-19 07:15:51.82	60.11	8.38	
2025-01-19 07:15:52.84	59.96	8.42	
2025-01-19 07:15:53.85	59.82	8.46	
2025-01-19 07:15:54.87	59.67	8.50	
2025-01-19 07:15:55.88	59.52	8.55	
2025-01-19 07:15:56.90	59.37	8.59	
2025-01-19 07:15:57.91	59.22	8.63	
2025-01-19 07:15:58.93	59.07	8.67	
2025-01-19 07:15:59.94	58.92	8.71	
2025-01-19 07:16:00.96	58.77	8.76	
2025-01-19 07:16:01.97	58.62	8.80	
2025-01-19 07:16:02.99	58.46	8.84	
2025-01-19 07:16:04.01	58.31	8.88	
2025-01-19 07:16:05.02	58.16	8.92	
2025-01-19 07:16:06.04	58.00	8.96	
2025-01-19 07:16:07.05	57.85	9.00	
2025-01-19 07:16:08.07	57.70	9.05	
2025-01-19 07:16:09.08	57.54	9.09	
2025-01-19 07:16:10.10	57.39	9.13	
2025-01-19 07:16:11.11	57.23	9.17	
2025-01-19 07:16:12.13	57.08	9.21	
2025-01-19 07:16:13.14	56.92	9.25	
2025-01-19 07:16:14.16	56.76	9.29	
2025-01-19 07:16:15.17	56.61	9.33	
2025-01-19 07:16:16.19	56.45	9.37	
2025-01-19 07:16:17.20	56.29	9.41	
2025-01-19 07:16:18.22	56.13	9.45	
2025-01-19 07:16:19.24	55.97	9.49	
2025-01-19 07:16:20.25	55.81	9.53	
2025-01-19 07:16:21.27	55.65	9.56	
2025-01-19 07:16:22.28	55.49	9.60	
2025-01-19 07:16:23.30	55.33	9.64	
2025-01-19 07:16:24.31	55.17	9.68	
2025-01-19 07:16:25.33	55.01	9.72	
2025-01-19 07:16:26.34	54.85	9.76	
2025-01-19 07:16:27.36	54.68	9.80	
2025-01-19 07:16:28.37	54.52	9.83	
2025-01-19 07:16:29.39	54.36	9.87	
2025-01-19 07:16:30.41	54.19	9.91	
2025-01-19 07:16:31.42	54.03	9.95	
2025-01-19 07:16:32.44	53.87	9.98	
2025-01-19 07:16:33.45	53.70	10.02	
2025-01-19 07:16:34.47	53.53	10.06	
2025-01-19 07:16:35.48	53.37	10.10	
2025-01-19 07:16:36.50	53.20	10.13	
2025-01-19 07:16:37.51	53.04	10.17	
2025-01-19 07:16:38.53	52.87	10.20	
2025-01-19 07:16:39.54	52.70	10.24	
2025-01-19 07:16:40.56	52.53	10.28	
2025-01-19 07:16:41.57	52.37	10.31	
2025-01-19 07:16:42.59	52.20	10.35	
2025-01-19 07:16:43.61	52.03	10.38	
2025-01-19 07:16:44.62	51.86	10.42	
2025-01-19 07:16:45.64	51.69	10.45	
2025-01-19 07:16:46.65	51.52	10.49	
2025-01-19 07:16:47.67	51.35	10.52	
2025-01-19 07:16:48.68	51.18	10.56	
2025-01-19 07:16:49.70	51.00	10.59	
2025-01-19 07:16:50.71	50.83	10.62	
2025-01-19 07:16:51.73	50.66	10.66	
2025-01-19 07:16:52.74	50.49	10.69	
2025-01-19 07:16:53.76	50.31	10.73	
2025-01-19 07:16:54.77	50.14	10.76	
2025-01-19 07:16:55.79	49.97	10.79	
2025-01-19 07:16:56.81	49.79	10.82	
2025-01-19 07:16:57.82	49.62	10.86	
2025-01-19 07:16:58.84	49.44	10.89	
2025-01-19 07:16:59.85	49.27	10.92	
2025-01-19 07:17:00.87	49.09	10.95	
2025-01-19 07:17:01.88	48.91	10.98	
2025-01-19 07:17:02.90	48.74	11.02	
2025-01-19 07:17:03.91	48.56	11.05	
2025-01-19 07:17:04.93	48.38	11.08	
2025-01-19 07:17:05.94	48.20	11.11	
2025-01-19 07:17:06.97	48.02	11.14	
2025-01-19 07:17:07.99	47.84	11.17	
2025-01-19 07:17:09.00	47.67	11.20	
2025-01-19 07:17:10.02	47.49	11.23	
2025-01-19 07:17:11.03	47.31	11.26	
2025-01-19 07:17:12.05	47.13	11.29	
2025-01-19 07:17:13.06	46.95	11.32	
2025-01-19 07:17:14.08	46.77	11.35	
2025-01-19 07:17:15.10	46.58	11.37	
2025-01-19 07:17:16.11	46.40	11.40	
2025-01-19 07:17:17.13	46.22	11.43	
2025-01-19 07:17:18.14	46.04	11.46	
2025-01-19 07:17:19.16	45.86	11.49	
2025-01-19 07:17:20.17	45.67	11.51	
2025-01-19 07:17:21.19	45.49	11.54	
2025-01-19 07:17:22.20	45.31	11.57	
2025-01-19 07:17:23.22	45.12	11.59	
2025-01-19 07:17:24.23	44.94	11.62	
2025-01-19 07:17:25.25	44.75	11.65	
2025-01-19 07:17:26.26	44.57	11.67	
2025-01-19 07:17:27.28	44.38	11.70	
2025-01-19 07:17:28.30	44.20	11.72	
2025-01-19 07:17:29.31	44.01	11.75	
2025-01-19 07:17:30.33	43.82	11.77	
2025-01-19 07:17:31.34	43.64	11.80	
2025-01-19 07:17:32.36	43.45	11.82	
2025-01-19 07:17:33.37	43.27	11.85	
2025-01-19 07:17:34.39	43.08	11.87	
2025-01-19 07:17:35.40	42.89	11.89	
2025-01-19 07:17:36.42	42.70	11.92	
2025-01-19 07:17:37.43	42.51	11.94	
2025-01-19 07:17:38.45	42.32	11.96	
2025-01-19 07:17:39.46	42.14	11.98	
2025-01-19 07:17:40.48	41.95	12.00	
2025-01-19 07:17:41.50	41.76	12.03	
2025-01-19 07:17:42.51	41.57	12.05	
2025-01-19 07:17:43.53	41.38	12.07	
2025-01-19 07:17:44.54	41.19	12.09	
2025-01-19 07:17:45.56	41.00	12.11	
2025-01-19 07:17:46.57	40.81	12.13	
2025-01-19 07:17:47.59	40.61	12.15	
2025-01-19 07:17:48.60	40.42	12.17	
2025-01-19 07:17:49.62	40.23	12.19	
2025-01-19 07:17:50.63	40.04	12.21	
2025-01-19 07:17:51.65	39.85	12.23	
2025-01-19 07:17:52.67	39.65	12.24	
2025-01-19 07:17:53.68	39.46	12.26	
2025-01-19 07:17:54.70	39.27	12.28	
2025-01-19 07:17:55.71	39.08	12.30	
2025-01-19 07:17:56.73	38.88	12.32	
2025-01-19 07:17:57.74	38.69	12.33	
2025-01-19 07:17:58.76	38.49	12.35	
2025-01-19 07:17:59.77	38.30	12.37	
2025-01-19 07:18:00.79	38.11	12.38	
2025-01-19 07:18:01.80	37.91	12.40	
2025-01-19 07:18:02.82	37.72	12.41	
2025-01-19 07:18:03.83	37.52	12.43	
2025-01-19 07:18:04.85	37.33	12.44	
2025-01-19 07:18:05.87	37.13	12.46	
2025-01-19 07:18:06.88	36.94	12.47	
2025-01-19 07:18:07.90	36.74	12.48	
2025-01-19 07:18:08.91	36.55	12.50	
2025-01-19 07:18:09.93	36.35	12.51	
2025-01-19 07:18:10.94	36.16	12.52	
2025-01-19 07:18:11.96	35.96	12.54	
2025-01-19 07:18:12.97	35.76	12.55	
2025-01-19 07:18:13.99	35.57	12.56	
2025-01-19 07:18:15.00	35.37	12.57	
2025-01-19 07:18:16.02	35.17	12.58	
2025-01-19 07:18:17.03	34.98	12.59	
2025-01-19 07:18:18.05	34.78	12.60	
2025-01-19 07:18:19.07	34.58	12.61	
2025-01-19 07:18:20.08	34.38	12.62	
2025-01-19 07:18:21.10	34.18	12.63	
2025-01-19 07:18:22.11	33.99	12.64	
2025-01-19 07:18:23.13	33.79	12.65	
2025-01-19 07:18:24.14	33.59	12.66	
2025-01-19 07:18:25.16	33.39	12.67	
2025-01-19 07:18:26.17	33.20	12.68	
2025-01-19 07:18:27.19	33.00	12.68	
2025-01-19 07:18:28.20	32.80	12.69	
2025-01-19 07:18:29.22	32.60	12.70	
2025-01-19 07:18:30.23	32.40	12.70	
2025-01-19 07:18:31.25	32.20	12.71	
2025-01-19 07:18:32.27	32.00	12.72	
2025-01-19 07:18:33.28	31.81	12.72	
2025-01-19 07:18:34.30	31.61	12.73	
2025-01-19 07:18:35.31	31.41	12.73	
2025-01-19 07:18:36.33	31.21	12.74	
2025-01-19 07:18:37.34	31.01	12.74	
2025-01-19 07:18:38.36	30.81	12.74	
2025-01-19 07:18:39.37	30.61	12.75	
2025-01-19 07:18:40.39	30.41	12.75	
2025-01-19 07:18:41.40	30.21	12.75	
2025-01-19 07:18:42.42	30.01	12.75	
2025-01-19 07:18:43.43	29.82	12.76	
2025-01-19 07:18:44.45	29.62	12.76	
2025-01-19 07:18:45.47	29.42	12.76	
2025-01-19 07:18:46.48	29.22	12.76	
2025-01-19 07:18:47.50	29.02	12.76	
2025-01-19 07:18:48.51	28.82	12.76	
2025-01-19 07:18:49.53	28.62	12.76	
2025-01-19 07:18:50.54	28.42	12.76	
2025-01-19 07:18:51.56	28.22	12.76	
2025-01-19 07:18:52.57	28.02	12.76	
2025-01-19 07:18:53.59	27.82	12.76	
2025-01-19 07:18:54.60	27.62	12.76	
2025-01-19 07:18:55.62	27.42	12.76	
2025-01-19 07:18:56.63	27.23	12.75	
2025-01-19 07:18:57.65	27.03	12.75	
2025-01-19 07:18:58.67	26.83	12.75	
2025-01-19 07:18:59.68	26.63	12.74	
2025-01-19 07:19:00.70	26.43	12.74	
2025-01-19 07:19:01.71	26.23	12.74	
2025-01-19 07:19:02.73	26.03	12.73	
2025-01-19 07:19:03.74	25.83	12.73	
2025-01-19 07:19:04.76	25.63	12.72	
2025-01-19 07:19:05.77	25.43	12.72	
2025-01-19 07:19:06.79	25.24	12.71	
2025-01-19 07:19:07.80	25.04	12.71	
2025-01-19 07:19:08.82	24.84	12.70	
2025-01-19 07:19:09.83	24.64	12.69	
2025-01-19 07:19:10.85	24.44	12.68	
2025-01-19 07:19:11.87	24.24	12.68	
2025-01-19 07:19:12.88	24.05	12.67	
2025-01-19 07:19:13.90	23.85	12.66	
2025-01-19 07:19:14.91	23.65	12.65	
2025-01-19 07:19:15.93	23.45	12.64	
2025-01-19 07:19:16.94	23.26	12.64	
2025-01-19 07:19:17.96	23.06	12.63	
2025-01-19 07:19:18.97	22.86	12.62	
2025-01-19 07:19:19.99	22.66	12.61	
2025-01-19 07:19:21.00	22.47	12.60	
2025-01-19 07:19:22.02	22.27	12.59	
2025-01-19 07:19:23.04	22.07	12.57	
2025-01-19 07:19:24.05	21.88	12.56	
2025-01-19 07:19:25.07	21.68	12.55	
2025-01-19 07:19:26.08	21.48	12.54	
2025-01-19 07:19:27.10	21.29	12.53	
2025-01-19 07:19:28.11	21.09	12.51	
2025-01-19 07:19:29.13	20.89	12.50	
2025-01-19 07:19:30.14	20.70	12.49	
2025-01-19 07:19:31.16	20.50	12.47	
2025-01-19 07:19:32.17	20.31	12.46	
2025-01-19 07:19:33.19	20.11	12.45	
2025-01-19 07:19:34.20	19.92	12.43	
2025-01-19 07:19:35.22	19.72	12.42	
2025-01-19 07:19:36.24	19.53	12.40	
2025-01-19 07:19:37.25	19.34	12.39	
2025-01-19 07:19:38.27	19.14	12.37	
2025-01-19 07:19:39.28	18.95	12.35	
2025-01-19 07:19:40.30	18.75	12.34	
2025-01-19 07:19:41.31	18.56	12.32	
2025-01-19 07:19:42.33	18.37	12.30	
2025-01-19 07:19:43.34	18.18	12.29	
2025-01-19 07:19:44.36	17.98	12.27	
2025-01-19 07:19:45.37	17.79	12.25	
2025-01-19 07:19:46.39	17.60	12.23	
2025-01-19 07:19:47.40	17.41	12.21	
2025-01-19 07:19:48.42	17.21	12.19	
2025-01-19 07:19:49.44	17.02	12.18	
2025-01-19 07:19:50.45	16.83	12.16	
2025-01-19 07:19:51.47	16.64	12.14	
2025-01-19 07:19:52.48	16.45	12.12	
2025-01-19 07:19:53.50	16.26	12.10	
2025-01-19 07:19:54.51	16.07	12.07	
2025-01-19 07:19:55.53	15.88	12.05	
2025-01-19 07:19:56.54	15.69	12.03	
2025-01-19 07:19:57.56	15.50	12.01	
2025-01-19 07:19:58.57	15.31	11.99	
2025-01-19 07:19:59.59	15.12	11.97	
2025-01-19 07:20:00.60	14.94	11.94	
2025-01-19 07:20:01.62	14.75	11.92	
2025-01-19 07:20:02.64	14.56	11.90	
2025-01-19 07:20:03.65	14.37	11.88	
2025-01-19 07:20:04.67	14.18	11.85	
2025-01-19 07:20:05.68	14.00	11.83	
2025-01-19 07:20:06.70	13.81	11.80	
2025-01-19 07:20:07.71	13.62	11.78	
2025-01-19 07:20:08.73	13.44	11.76	
2025-01-19 07:20:09.74	13.25	11.73	
2025-01-19 07:20:10.76	13.07	11.71	
2025-01-19 07:20:11.77	12.88	11.68	
2025-01-19 07:20:12.79	12.70	11.65	
2025-01-19 07:20:13.80	12.51	11.63	
2025-01-19 07:20:14.82	12.33	11.60	
2025-01-19 07:20:15.84	12.14	11.58	
2025-01-19 07:20:16.85	11.96	11.55	
2025-01-19 07:20:17.87	11.78	11.52	
2025-01-19 07:20:18.88	11.60	11.50	
2025-01-19 07:20:19.90	11.41	11.47	
2025-01-19 07:20:20.91	11.23	11.44	
2025-01-19 07:20:21.93	11.05	11.41	
2025-01-19 07:20:22.94	10.87	11.38	
2025-01-19 07:20:23.96	10.69	11.36	
2025-01-19 07:20:24.97	10.51	11.33	
2025-01-19 07:20:25.99	10.33	11.30	
2025-01-19 07:20:27.00	10.15	11.27	
2025-01-19 07:20:28.02	9.97	11.24	
2025-01-19 07:20:29.04	9.79	11.21	
2025-01-19 07:20:30.05	9.61	11.18	
2025-01-19 07:20:31.07	9.43	11.15	
2025-01-19 07:20:32.08	9.26	11.12	
2025-01-19 07:20:33.10	9.08	11.09	
2025-01-19 07:20:34.11	8.90	11.06	
2025-01-19 07:20:35.13	8.72	11.03	
2025-01-19 07:20:36.14	8.55	11.00	
2025-01-19 07:20:37.16	8.37	10.96	
2025-01-19 07:20:38.17	8.20	10.93	
2025-01-19 07:20:39.19	8.02	10.90	
2025-01-19 07:20:40.20	7.85	10.87	
2025-01-19 07:20:41.22	7.67	10.84	
2025-01-19 07:20:42.24	7.50	10.80	
2025-01-19 07:20:43.25	7.32	10.77	
2025-01-19 07:20:44.27	7.15	10.74	
2025-01-19 07:20:45.28	6.98	10.70	
2025-01-19 07:20:46.30	6.80	10.67	
2025-01-19 07:20:47.31	6.63	10.64	
2025-01-19 07:20:48.33	6.46	10.60	
2025-01-19 07:20:49.34	6.29	10.57	
2025-01-19 07:20:50.36	6.12	10.54	
2025-01-19 07:20:51.37	5.95	10.50	
2025-01-19 07:20:52.39	5.78	10.47	
2025-01-19 07:20:53.41	5.61	10.43	
2025-01-19 07:20:54.42	5.44	10.40	
2025-01-19 07:20:55.44	5.27	10.36	
2025-01-19 07:20:56.45	5.10	10.33	
2025-01-19 07:20:57.47	4.93	10.29	
2025-01-19 07:20:58.48	4.77	10.25	
2025-01-19 07:20:59.50	4.60	10.22	
2025-01-19 07:21:00.51	4.43	10.18	
2025-01-19 07:21:01.53	4.27	10.15	
2025-01-19 07:21:02.54	4.10	10.11	
2025-01-19 07:21:03.56	3.93	10.07	
2025-01-19 07:21:04.57	3.77	10.04	
2025-01-19 07:21:05.59	3.61	10.00	
2025-01-19 07:21:06.61	3.44	9.96	
2025-01-19 07:21:07.62	3.28	9.92	
2025-01-19 07:21:08.64	3.11	9.89	
2025-01-19 07:21:09.65	2.95	9.85	
2025-01-19 07:21:10.67	2.79	9.81	
2025-01-19 07:21:11.68	2.63	9.77	
2025-01-19 07:21:12.70	2.46	9.73	
2025-01-19 07:21:13.71	2.30	9.70	
2025-01-19 07:21:14.73	2.14	9.66	
2025-01-19 07:21:15.74	1.98	9.62	
2025-01-19 07:21:16.76	1.82	9.58	
2025-01-19 07:21:17.77	1.66	9.54	
2025-01-19 07:21:18.79	1.50	9.50	
2025-01-19 07:21:19.81	1.35	9.46	
2025-01-19 07:21:20.82	1.19	9.42	
2025-01-19 07:21:21.84	1.03	9.38	
2025-01-19 07:21:22.85	0.87	9.34	
2025-01-19 07:21:23.87	0.72	9.30	
2025-01-19 07:21:24.88	0.56	9.27	
2025-01-19 07:21:25.90	0.40	9.22	
2025-01-19 07:21:26.91	0.25	9.18	
2025-01-19 07:21:27.93	0.09	9.14	
2025-01-19 07:21:28.94	359.94	9.10	
2025-01-19 07:21:29.96	359.78	9.06	
2025-01-19 07:21:30.97	359.63	9.02	
2025-01-19 07:21:31.99	359.48	8.98	
2025-01-19 07:21:33.01	359.32	8.94	
2025-01-19 07:21:34.02	359.17	8.90	
2025-01-19 07:21:35.04	359.02	8.86	
2025-01-19 07:21:36.05	358.87	8.82	
2025-01-19 07:21:37.07	358.72	8.77	
2025-01-19 07:21:38.08	358.57	8.73	
2025-01-19 07:21:39.10	358.42	8.69	
2025-01-19 07:21:40.11	358.27	8.65	
2025-01-19 07:21:41.13	358.12	8.61	
2025-01-19 07:21:42.14	357.97	8.57	
2025-01-19 07:21:43.16	357.82	8.52	
2025-01-19 07:21:44.17	357.67	8.48	
2025-01-19 07:21:45.19	357.52	8.44	
2025-01-19 07:21:46.21	357.38	8.40	
2025-01-19 07:21:47.22	357.23	8.35	
2025-01-19 07:21:48.24	357.08	8.31	
2025-01-19 07:21:49.25	356.94	8.27	
2025-01-19 07:21:50.27	356.79	8.22	
2025-01-19 07:21:51.28	356.65	8.18	
2025-01-19 07:21:52.30	356.50	8.14	
2025-01-19 07:21:53.31	356.36	8.09	
2025-01-19 07:21:54.33	356.22	8.05	
2025-01-19 07:21:55.34	356.07	8.01	
2025-01-19 07:21:56.36	355.93	7.96	
2025-01-19 07:21:57.37	355.79	7.92	
2025-01-19 07:21:58.39	355.65	7.88	
2025-01-19 07:21:59.41	355.50	7.83	
2025-01-19 07:22:00.42	355.36	7.79	
2025-01-19 07:22:01.44	355.22	7.74	
2025-01-19 07:22:02.45	355.08	7.70	
2025-01-19 07:22:03.47	354.94	7.66	
2025-01-19 07:22:04.48	354.80	7.61	
2025-01-19 07:22:05.50	354.67	7.57	
2025-01-19 07:22:06.51	354.53	7.52	
2025-01-19 07:22:07.53	354.39	7.48	
2025-01-19 07:22:08.54	354.25	7.43	
2025-01-19 07:22:09.56	354.11	7.39	
2025-01-19 07:22:10.57	353.98	7.34	
2025-01-19 07:22:11.59	353.84	7.30	
2025-01-19 07:22:12.61	353.71	7.25	
2025-01-19 07:22:13.62	353.57	7.21	
2025-01-19 07:22:14.65	353.43	7.16	
2025-01-19 07:22:15.66	353.30	7.12	
2025-01-19 07:22:16.68	353.17	7.07	
2025-01-19 07:22:17.69	353.03	7.03	
2025-01-19 07:22:18.71	352.90	6.98	
2025-01-19 07:22:19.72	352.77	6.94	
2025-01-19 07:22:20.74	352.63	6.89	
2025-01-19 07:22:21.76	352.50	6.85	
2025-01-19 07:22:22.77	352.37	6.80	
2025-01-19 07:22:23.79	352.24	6.75	
2025-01-19 07:22:24.80	352.11	6.71	
2025-01-19 07:22:25.82	351.98	6.66	
2025-01-19 07:22:26.83	351.85	6.62	
2025-01-19 07:22:27.85	351.72	6.57	
2025-01-19 07:22:28.86	351.59	6.53	
2025-01-19 07:22:29.88	351.46	6.48	
2025-01-19 07:22:30.89	351.33	6.43	
2025-01-19 07:22:31.91	351.21	6.39	
2025-01-19 07:22:32.92	351.08	6.34	
2025-01-19 07:22:33.94	350.95	6.30	
2025-01-19 07:22:34.96	350.82	6.25	
2025-01-19 07:22:35.97	350.70	6.20	
2025-01-19 07:22:36.99	350.57	6.16	
2025-01-19 07:22:38.00	350.45	6.11	
2025-01-19 07:22:39.02	350.32	6.06	
2025-01-19 07:22:40.03	350.20	6.02	
2025-01-19 07:22:41.05	350.07	5.97	
2025-01-19 07:22:42.06	349.95	5.92	
2025-01-19 07:22:43.08	349.83	5.88	
2025-01-19 07:22:44.09	349.70	5.83	
2025-01-19 07:22:45.11	349.58	5.78	
2025-01-19 07:22:46.13	349.46	5.74	
2025-01-19 07:22:47.14	349.34	5.69	
2025-01-19 07:22:48.16	349.22	5.64	
2025-01-19 07:22:49.17	349.10	5.60	
2025-01-19 07:22:50.19	348.98	5.55	
2025-01-19 07:22:51.20	348.86	5.50	
2025-01-19 07:22:52.22	348.74	5.46	
2025-01-19 07:22:53.23	348.62	5.41	
2025-01-19 07:22:54.25	348.50	5.36	
2025-01-19 07:22:55.26	348.38	5.31	
2025-01-19 07:22:56.28	348.26	5.27	
2025-01-19 07:22:57.29	348.14	5.22	
2025-01-19 07:22:58.31	348.03	5.17	
2025-01-19 07:22:59.33	347.91	5.13	
2025-01-19 07:23:00.34	347.79	5.08	
2025-01-19 07:23:01.36	347.68	5.03	
2025-01-19 07:23:02.37	347.56	4.98	
2025-01-19 07:23:03.39	347.45	4.94	
2025-01-19 07:23:04.40	347.33	4.89	
2025-01-19 07:23:05.42	347.22	4.84	
2025-01-19 07:23:06.43	347.10	4.80	
2025-01-19 07:23:07.45	346.99	4.75	
2025-01-19 07:23:08.46	346.88	4.70	
2025-01-19 07:23:09.48	346.76	4.65	
2025-01-19 07:23:10.49	346.65	4.61	
2025-01-19 07:23:11.51	346.54	4.56	
2025-01-19 07:23:12.53	346.42	4.51	
2025-01-19 07:23:13.54	346.31	4.46	
2025-01-19 07:23:14.56	346.20	4.42	
2025-01-19 07:23:15.57	346.09	4.37	
2025-01-19 07:23:16.59	345.98	4.32	
2025-01-19 07:23:17.60	345.87	4.27	
2025-01-19 07:23:18.62	345.76	4.22	
2025-01-19 07:23:19.63	345.65	4.18	
2025-01-19 07:23:20.65	345.54	4.13	
2025-01-19 07:23:21.66	345.44	4.08	
2025-01-19 07:23:22.68	345.33	4.03	

#Closed at: 2025-01-19 07:23:23