passes_logs/2025/01/19/SPB_Silybum_02/SPB_Silybum_02__20250119_103754_TERRA_rec.log

#Pass ID: 20250119_103754_TERRA
#Satellite: TERRA
#Configuration: TERRA
#Start time: 2025-01-19 10:44:24

#Version: 2.0.20230423
#Station: SPB_Silybum_02
#Location: 30.233357 lon 59.946436 lat
#TLE: 1 25994U 99068A   25018.76132064  .00000971  00000+0  20987-3 0  9991
#TLE: 2 25994  98.0209  81.6719 0003338  64.8500  46.9329 14.60403262334620

#Time	Az	El	Level	Level2	SNR	BER	Gain	Gain2
2025-01-19 10:44:26.05	290.50	12.27	
2025-01-19 10:44:26.46	290.42	12.25	
2025-01-19 10:44:26.87	290.34	12.23	
2025-01-19 10:44:27.27	290.26	12.21	
2025-01-19 10:44:27.68	290.18	12.19	
2025-01-19 10:44:28.08	290.10	12.17	
2025-01-19 10:44:28.49	290.02	12.15	
2025-01-19 10:44:28.90	289.94	12.13	
2025-01-19 10:44:29.30	289.86	12.12	
2025-01-19 10:44:29.71	289.78	12.10	
2025-01-19 10:44:30.12	289.70	12.08	
2025-01-19 10:44:30.52	289.62	12.06	
2025-01-19 10:44:30.93	289.54	12.04	
2025-01-19 10:44:31.33	289.46	12.02	
2025-01-19 10:44:31.74	289.39	12.00	
2025-01-19 10:44:32.15	289.31	11.98	
2025-01-19 10:44:32.55	289.23	11.96	
2025-01-19 10:44:32.96	289.15	11.94	
2025-01-19 10:44:33.36	289.07	11.92	
2025-01-19 10:44:33.77	288.99	11.90	
2025-01-19 10:44:34.18	288.92	11.88	
2025-01-19 10:44:34.58	288.84	11.86	
2025-01-19 10:44:34.99	288.76	11.84	
2025-01-19 10:44:35.40	288.68	11.82	
2025-01-19 10:44:35.80	288.61	11.80	
2025-01-19 10:44:36.21	288.53	11.78	
2025-01-19 10:44:36.61	288.45	11.76	
2025-01-19 10:44:37.02	288.37	11.74	
2025-01-19 10:44:37.43	288.30	11.72	
2025-01-19 10:44:37.83	288.22	11.70	
2025-01-19 10:44:38.24	288.14	11.68	
2025-01-19 10:44:38.64	288.07	11.66	
2025-01-19 10:44:39.05	287.99	11.64	
2025-01-19 10:44:39.46	287.91	11.62	
2025-01-19 10:44:39.86	287.84	11.60	
2025-01-19 10:44:40.27	287.76	11.58	
2025-01-19 10:44:40.68	287.68	11.56	
2025-01-19 10:44:41.08	287.61	11.54	
2025-01-19 10:44:41.49	287.53	11.52	
2025-01-19 10:44:41.89	287.46	11.50	
2025-01-19 10:44:42.30	287.38	11.47	
2025-01-19 10:44:42.71	287.31	11.45	
2025-01-19 10:44:43.11	287.23	11.43	
2025-01-19 10:44:43.52	287.16	11.41	
2025-01-19 10:44:43.92	287.08	11.39	
2025-01-19 10:44:44.33	287.01	11.37	
2025-01-19 10:44:44.74	286.93	11.35	
2025-01-19 10:44:45.14	286.86	11.33	
2025-01-19 10:44:45.55	286.78	11.31	
2025-01-19 10:44:45.96	286.71	11.29	
2025-01-19 10:44:46.36	286.63	11.27	
2025-01-19 10:44:46.77	286.56	11.25	
2025-01-19 10:44:47.17	286.48	11.23	
2025-01-19 10:44:47.58	286.41	11.21	
2025-01-19 10:44:47.99	286.33	11.18	
2025-01-19 10:44:48.39	286.26	11.16	
2025-01-19 10:44:48.80	286.19	11.14	
2025-01-19 10:44:49.20	286.11	11.12	
2025-01-19 10:44:49.61	286.04	11.10	
2025-01-19 10:44:50.02	285.97	11.08	
2025-01-19 10:44:50.42	285.89	11.06	
2025-01-19 10:44:50.83	285.82	11.04	
2025-01-19 10:44:51.24	285.75	11.02	
2025-01-19 10:44:51.64	285.67	11.00	
2025-01-19 10:44:52.05	285.60	10.97	
2025-01-19 10:44:52.45	285.53	10.95	
2025-01-19 10:44:52.86	285.46	10.93	
2025-01-19 10:44:53.27	285.38	10.91	
2025-01-19 10:44:53.67	285.31	10.89	
2025-01-19 10:44:54.08	285.24	10.87	
2025-01-19 10:44:54.48	285.17	10.85	
2025-01-19 10:44:54.89	285.09	10.83	
2025-01-19 10:44:55.30	285.02	10.81	
2025-01-19 10:44:55.70	284.95	10.78	
2025-01-19 10:44:56.11	284.88	10.76	
2025-01-19 10:44:56.52	284.81	10.74	
2025-01-19 10:44:56.92	284.74	10.72	
2025-01-19 10:44:57.33	284.66	10.70	
2025-01-19 10:44:57.73	284.59	10.68	
2025-01-19 10:44:58.14	284.52	10.66	
2025-01-19 10:44:58.55	284.45	10.63	
2025-01-19 10:44:58.95	284.38	10.61	
2025-01-19 10:44:59.36	284.31	10.59	
2025-01-19 10:44:59.76	284.24	10.57	
2025-01-19 10:45:00.17	284.17	10.55	
2025-01-19 10:45:00.58	284.10	10.53	
2025-01-19 10:45:00.98	284.03	10.51	
2025-01-19 10:45:01.39	283.96	10.48	
2025-01-19 10:45:01.80	283.88	10.46	
2025-01-19 10:45:02.20	283.82	10.44	
2025-01-19 10:45:02.61	283.75	10.42	
2025-01-19 10:45:03.01	283.68	10.40	
2025-01-19 10:45:03.42	283.61	10.38	
2025-01-19 10:45:03.83	283.54	10.35	
2025-01-19 10:45:04.23	283.47	10.33	
2025-01-19 10:45:04.64	283.40	10.31	
2025-01-19 10:45:05.04	283.33	10.29	
2025-01-19 10:45:05.45	283.26	10.27	
2025-01-19 10:45:05.86	283.19	10.25	
2025-01-19 10:45:06.26	283.12	10.22	
2025-01-19 10:45:06.67	283.05	10.20	
2025-01-19 10:45:07.08	282.98	10.18	
2025-01-19 10:45:07.48	282.92	10.16	
2025-01-19 10:45:07.89	282.85	10.14	
2025-01-19 10:45:08.29	282.78	10.12	
2025-01-19 10:45:08.70	282.71	10.09	
2025-01-19 10:45:09.11	282.64	10.07	
2025-01-19 10:45:09.51	282.57	10.05	
2025-01-19 10:45:09.92	282.51	10.03	
2025-01-19 10:45:10.32	282.44	10.01	
2025-01-19 10:45:10.73	282.37	9.98	
2025-01-19 10:45:11.14	282.30	9.96	
2025-01-19 10:45:11.54	282.24	9.94	
2025-01-19 10:45:11.95	282.17	9.92	
2025-01-19 10:45:12.36	282.10	9.90	
2025-01-19 10:45:12.76	282.03	9.87	
2025-01-19 10:45:13.17	281.97	9.85	
2025-01-19 10:45:13.57	281.90	9.83	
2025-01-19 10:45:13.98	281.83	9.81	
2025-01-19 10:45:14.39	281.76	9.79	
2025-01-19 10:45:14.79	281.70	9.76	
2025-01-19 10:45:15.20	281.63	9.74	
2025-01-19 10:45:15.60	281.57	9.72	
2025-01-19 10:45:16.01	281.50	9.70	
2025-01-19 10:45:16.42	281.43	9.68	
2025-01-19 10:45:16.82	281.37	9.65	
2025-01-19 10:45:17.23	281.30	9.63	
2025-01-19 10:45:17.64	281.23	9.61	
2025-01-19 10:45:18.04	281.17	9.59	
2025-01-19 10:45:18.45	281.10	9.56	
2025-01-19 10:45:18.85	281.04	9.54	
2025-01-19 10:45:19.26	280.97	9.52	
2025-01-19 10:45:19.67	280.91	9.50	
2025-01-19 10:45:20.07	280.84	9.48	
2025-01-19 10:45:20.48	280.78	9.45	
2025-01-19 10:45:20.88	280.71	9.43	
2025-01-19 10:45:21.29	280.65	9.41	
2025-01-19 10:45:21.70	280.58	9.39	
2025-01-19 10:45:22.10	280.52	9.36	
2025-01-19 10:45:22.51	280.45	9.34	
2025-01-19 10:45:22.92	280.39	9.32	
2025-01-19 10:45:23.32	280.33	9.30	
2025-01-19 10:45:23.73	280.26	9.28	
2025-01-19 10:45:24.13	280.20	9.25	
2025-01-19 10:45:24.54	280.13	9.23	
2025-01-19 10:45:24.95	280.07	9.21	
2025-01-19 10:45:25.35	280.01	9.19	
2025-01-19 10:45:25.76	279.94	9.16	
2025-01-19 10:45:26.16	279.88	9.14	
2025-01-19 10:45:26.57	279.81	9.12	
2025-01-19 10:45:26.98	279.75	9.10	
2025-01-19 10:45:27.38	279.69	9.07	
2025-01-19 10:45:27.79	279.62	9.05	
2025-01-19 10:45:28.20	279.56	9.03	
2025-01-19 10:45:28.60	279.50	9.01	
2025-01-19 10:45:29.01	279.44	8.98	
2025-01-19 10:45:29.41	279.37	8.96	
2025-01-19 10:45:29.82	279.31	8.94	
2025-01-19 10:45:30.23	279.25	8.92	
2025-01-19 10:45:30.63	279.19	8.89	
2025-01-19 10:45:31.04	279.12	8.87	
2025-01-19 10:45:31.44	279.06	8.85	
2025-01-19 10:45:31.85	279.00	8.83	
2025-01-19 10:45:32.26	278.94	8.80	
2025-01-19 10:45:32.66	278.88	8.78	
2025-01-19 10:45:33.07	278.81	8.76	
2025-01-19 10:45:33.48	278.75	8.74	
2025-01-19 10:45:33.88	278.69	8.71	
2025-01-19 10:45:34.29	278.63	8.69	
2025-01-19 10:45:34.69	278.57	8.67	
2025-01-19 10:45:35.10	278.51	8.65	
2025-01-19 10:45:35.51	278.44	8.62	
2025-01-19 10:45:35.91	278.38	8.60	
2025-01-19 10:45:36.32	278.32	8.58	
2025-01-19 10:45:36.72	278.26	8.56	
2025-01-19 10:45:37.13	278.20	8.53	
2025-01-19 10:45:37.54	278.14	8.51	
2025-01-19 10:45:37.94	278.08	8.49	
2025-01-19 10:45:38.35	278.02	8.47	
2025-01-19 10:45:38.76	277.96	8.44	
2025-01-19 10:45:39.16	277.90	8.42	
2025-01-19 10:45:39.57	277.84	8.40	
2025-01-19 10:45:39.97	277.78	8.38	
2025-01-19 10:45:40.38	277.72	8.35	
2025-01-19 10:45:40.79	277.66	8.33	
2025-01-19 10:45:41.19	277.60	8.31	
2025-01-19 10:45:41.60	277.54	8.28	
2025-01-19 10:45:42.01	277.48	8.26	
2025-01-19 10:45:42.41	277.42	8.24	
2025-01-19 10:45:42.82	277.36	8.22	
2025-01-19 10:45:43.22	277.30	8.19	
2025-01-19 10:45:43.63	277.24	8.17	
2025-01-19 10:45:44.04	277.18	8.15	
2025-01-19 10:45:44.44	277.13	8.13	
2025-01-19 10:45:44.85	277.07	8.10	
2025-01-19 10:45:45.25	277.01	8.08	
2025-01-19 10:45:45.66	276.95	8.06	
2025-01-19 10:45:46.07	276.89	8.03	
2025-01-19 10:45:46.47	276.83	8.01	
2025-01-19 10:45:46.88	276.77	7.99	
2025-01-19 10:45:47.29	276.72	7.97	
2025-01-19 10:45:47.69	276.66	7.94	
2025-01-19 10:45:48.10	276.60	7.92	
2025-01-19 10:45:48.50	276.54	7.90	
2025-01-19 10:45:48.91	276.48	7.88	
2025-01-19 10:45:49.32	276.43	7.85	
2025-01-19 10:45:49.72	276.37	7.83	
2025-01-19 10:45:50.13	276.31	7.81	
2025-01-19 10:45:50.53	276.25	7.79	
2025-01-19 10:45:50.94	276.20	7.76	
2025-01-19 10:45:51.35	276.14	7.74	
2025-01-19 10:45:51.75	276.08	7.72	
2025-01-19 10:45:52.16	276.03	7.69	
2025-01-19 10:45:52.56	275.97	7.67	
2025-01-19 10:45:52.97	275.91	7.65	
2025-01-19 10:45:53.38	275.85	7.63	
2025-01-19 10:45:53.78	275.80	7.60	
2025-01-19 10:45:54.19	275.74	7.58	
2025-01-19 10:45:54.60	275.68	7.56	
2025-01-19 10:45:55.00	275.63	7.53	
2025-01-19 10:45:55.41	275.57	7.51	
2025-01-19 10:45:55.81	275.52	7.49	
2025-01-19 10:45:56.22	275.46	7.47	
2025-01-19 10:45:56.63	275.40	7.44	
2025-01-19 10:45:57.03	275.35	7.42	
2025-01-19 10:45:57.44	275.29	7.40	
2025-01-19 10:45:57.85	275.24	7.37	
2025-01-19 10:45:58.25	275.18	7.35	
2025-01-19 10:45:58.66	275.13	7.33	
2025-01-19 10:45:59.06	275.07	7.31	
2025-01-19 10:45:59.47	275.02	7.28	
2025-01-19 10:45:59.88	274.96	7.26	
2025-01-19 10:46:00.28	274.91	7.24	
2025-01-19 10:46:00.69	274.85	7.22	
2025-01-19 10:46:01.09	274.80	7.19	
2025-01-19 10:46:01.50	274.74	7.17	
2025-01-19 10:46:01.91	274.69	7.15	
2025-01-19 10:46:02.31	274.63	7.12	
2025-01-19 10:46:02.72	274.58	7.10	
2025-01-19 10:46:03.13	274.52	7.08	
2025-01-19 10:46:03.53	274.47	7.06	
2025-01-19 10:46:03.94	274.41	7.03	
2025-01-19 10:46:04.34	274.36	7.01	
2025-01-19 10:46:04.75	274.31	6.99	
2025-01-19 10:46:05.16	274.25	6.96	
2025-01-19 10:46:05.56	274.20	6.94	
2025-01-19 10:46:05.97	274.14	6.92	
2025-01-19 10:46:06.37	274.09	6.90	
2025-01-19 10:46:06.78	274.04	6.87	
2025-01-19 10:46:07.19	273.98	6.85	
2025-01-19 10:46:07.59	273.93	6.83	
2025-01-19 10:46:08.00	273.88	6.81	
2025-01-19 10:46:08.41	273.82	6.78	
2025-01-19 10:46:08.81	273.77	6.76	
2025-01-19 10:46:09.22	273.72	6.74	
2025-01-19 10:46:09.62	273.66	6.71	
2025-01-19 10:46:10.03	273.61	6.69	
2025-01-19 10:46:10.44	273.56	6.67	
2025-01-19 10:46:10.84	273.51	6.65	
2025-01-19 10:46:11.25	273.45	6.62	
2025-01-19 10:46:11.65	273.40	6.60	
2025-01-19 10:46:12.06	273.35	6.58	
2025-01-19 10:46:12.47	273.30	6.55	
2025-01-19 10:46:12.87	273.24	6.53	
2025-01-19 10:46:13.28	273.19	6.51	
2025-01-19 10:46:13.69	273.14	6.49	
2025-01-19 10:46:14.09	273.09	6.46	
2025-01-19 10:46:14.50	273.04	6.44	
2025-01-19 10:46:14.90	272.98	6.42	
2025-01-19 10:46:15.31	272.93	6.40	
2025-01-19 10:46:15.72	272.88	6.37	
2025-01-19 10:46:16.12	272.83	6.35	
2025-01-19 10:46:16.53	272.78	6.33	
2025-01-19 10:46:16.93	272.73	6.30	
2025-01-19 10:46:17.34	272.68	6.28	
2025-01-19 10:46:17.75	272.62	6.26	
2025-01-19 10:46:18.15	272.57	6.24	
2025-01-19 10:46:18.56	272.52	6.21	
2025-01-19 10:46:18.97	272.47	6.19	
2025-01-19 10:46:19.37	272.42	6.17	
2025-01-19 10:46:19.78	272.37	6.14	
2025-01-19 10:46:20.18	272.32	6.12	
2025-01-19 10:46:20.59	272.27	6.10	
2025-01-19 10:46:21.00	272.22	6.08	
2025-01-19 10:46:21.40	272.17	6.05	
2025-01-19 10:46:21.81	272.12	6.03	
2025-01-19 10:46:22.21	272.07	6.01	
2025-01-19 10:46:22.62	272.02	5.99	
2025-01-19 10:46:23.03	271.97	5.96	
2025-01-19 10:46:23.43	271.92	5.94	
2025-01-19 10:46:23.84	271.87	5.92	
2025-01-19 10:46:24.25	271.82	5.89	
2025-01-19 10:46:24.65	271.77	5.87	
2025-01-19 10:46:25.06	271.72	5.85	
2025-01-19 10:46:25.46	271.67	5.83	
2025-01-19 10:46:25.87	271.62	5.80	
2025-01-19 10:46:26.28	271.57	5.78	
2025-01-19 10:46:26.68	271.52	5.76	
2025-01-19 10:46:27.09	271.47	5.74	
2025-01-19 10:46:27.49	271.42	5.71	
2025-01-19 10:46:27.90	271.37	5.69	
2025-01-19 10:46:28.31	271.33	5.67	
2025-01-19 10:46:28.71	271.28	5.65	
2025-01-19 10:46:29.12	271.23	5.62	
2025-01-19 10:46:29.53	271.18	5.60	
2025-01-19 10:46:29.93	271.13	5.58	
2025-01-19 10:46:30.34	271.08	5.55	
2025-01-19 10:46:30.74	271.03	5.53	
2025-01-19 10:46:31.15	270.99	5.51	
2025-01-19 10:46:31.56	270.94	5.49	
2025-01-19 10:46:31.96	270.89	5.46	
2025-01-19 10:46:32.37	270.84	5.44	
2025-01-19 10:46:32.77	270.79	5.42	
2025-01-19 10:46:33.18	270.75	5.40	
2025-01-19 10:46:33.59	270.70	5.37	
2025-01-19 10:46:33.99	270.65	5.35	
2025-01-19 10:46:34.40	270.60	5.33	
2025-01-19 10:46:34.81	270.55	5.31	
2025-01-19 10:46:35.21	270.51	5.28	
2025-01-19 10:46:35.62	270.46	5.26	
2025-01-19 10:46:36.02	270.41	5.24	
2025-01-19 10:46:36.43	270.37	5.21	
2025-01-19 10:46:36.84	270.32	5.19	
2025-01-19 10:46:37.24	270.27	5.17	
2025-01-19 10:46:37.65	270.22	5.15	
2025-01-19 10:46:38.05	270.18	5.12	
2025-01-19 10:46:38.46	270.13	5.10	
2025-01-19 10:46:38.87	270.08	5.08	
2025-01-19 10:46:39.27	270.04	5.06	
2025-01-19 10:46:39.68	269.99	5.03	
2025-01-19 10:46:40.09	269.94	5.01	
2025-01-19 10:46:40.49	269.90	4.99	
2025-01-19 10:46:40.90	269.85	4.97	
2025-01-19 10:46:41.30	269.81	4.94	
2025-01-19 10:46:41.71	269.76	4.92	
2025-01-19 10:46:42.12	269.71	4.90	
2025-01-19 10:46:42.52	269.67	4.88	
2025-01-19 10:46:42.93	269.62	4.85	
2025-01-19 10:46:43.33	269.58	4.83	
2025-01-19 10:46:43.74	269.53	4.81	
2025-01-19 10:46:44.15	269.48	4.79	
2025-01-19 10:46:44.55	269.44	4.76	
2025-01-19 10:46:44.96	269.39	4.74	
2025-01-19 10:46:45.37	269.35	4.72	
2025-01-19 10:46:45.77	269.30	4.70	
2025-01-19 10:46:46.18	269.26	4.67	
2025-01-19 10:46:46.58	269.21	4.65	
2025-01-19 10:46:46.99	269.17	4.63	
2025-01-19 10:46:47.40	269.12	4.61	
2025-01-19 10:46:47.80	269.08	4.58	
2025-01-19 10:46:48.21	269.03	4.56	
2025-01-19 10:46:48.61	268.99	4.54	
2025-01-19 10:46:49.02	268.94	4.52	
2025-01-19 10:46:49.43	268.90	4.49	
2025-01-19 10:46:49.83	268.85	4.47	
2025-01-19 10:46:50.24	268.81	4.45	
2025-01-19 10:46:50.65	268.76	4.43	
2025-01-19 10:46:51.05	268.72	4.40	
2025-01-19 10:46:51.46	268.67	4.38	
2025-01-19 10:46:51.86	268.63	4.36	
2025-01-19 10:46:52.27	268.59	4.34	
2025-01-19 10:46:52.68	268.54	4.31	
2025-01-19 10:46:53.08	268.50	4.29	
2025-01-19 10:46:53.49	268.45	4.27	
2025-01-19 10:46:53.89	268.41	4.25	
2025-01-19 10:46:54.30	268.37	4.23	
2025-01-19 10:46:54.71	268.32	4.20	
2025-01-19 10:46:55.11	268.28	4.18	
2025-01-19 10:46:55.52	268.23	4.16	
2025-01-19 10:46:55.93	268.19	4.14	
2025-01-19 10:46:56.33	268.15	4.11	
2025-01-19 10:46:56.74	268.10	4.09	
2025-01-19 10:46:57.14	268.06	4.07	
2025-01-19 10:46:57.55	268.02	4.05	
2025-01-19 10:46:57.96	267.97	4.02	
2025-01-19 10:46:58.36	267.93	4.00	

#Closed at: 2025-01-19 10:46:58