passes_logs/2025/01/19/SPB_Silybum_02/SPB_Silybum_02__20250119_223907_SUOMI_NPP_rec.log

#Pass ID: 20250119_223907_SUOMI NPP
#Satellite: SUOMI NPP
#Configuration: NPP
#Start time: 2025-01-19 22:39:06

#Version: 2.0.20230423
#Station: SPB_Silybum_02
#Location: 30.233357 lon 59.946436 lat
#TLE: 1 37849U 11061A   25019.14897053  .00000245  00000+0  13701-3 0  9999
#TLE: 2 37849  98.7451 320.0850 0001518  34.7008 325.4267 14.19540506685500

#Time	Az	El	Level	Level2	SNR	BER	Gain	Gain2
2025-01-19 22:39:08.54	26.15	4.05	
2025-01-19 22:39:09.76	26.25	4.12	
2025-01-19 22:39:10.98	26.35	4.19	
2025-01-19 22:39:12.20	26.44	4.26	
2025-01-19 22:39:13.42	26.54	4.33	
2025-01-19 22:39:14.63	26.64	4.40	
2025-01-19 22:39:15.85	26.74	4.47	
2025-01-19 22:39:17.07	26.84	4.54	
2025-01-19 22:39:18.29	26.94	4.61	
2025-01-19 22:39:19.51	27.04	4.68	
2025-01-19 22:39:20.73	27.15	4.75	
2025-01-19 22:39:21.95	27.25	4.82	
2025-01-19 22:39:23.16	27.35	4.89	
2025-01-19 22:39:24.38	27.45	4.97	
2025-01-19 22:39:25.60	27.56	5.04	
2025-01-19 22:39:26.82	27.66	5.11	
2025-01-19 22:39:28.04	27.77	5.18	
2025-01-19 22:39:29.26	27.87	5.25	
2025-01-19 22:39:30.47	27.98	5.32	
2025-01-19 22:39:31.69	28.08	5.40	
2025-01-19 22:39:32.91	28.19	5.47	
2025-01-19 22:39:34.13	28.30	5.54	
2025-01-19 22:39:35.35	28.40	5.61	
2025-01-19 22:39:36.57	28.51	5.69	
2025-01-19 22:39:37.78	28.62	5.76	
2025-01-19 22:39:39.00	28.73	5.83	
2025-01-19 22:39:40.22	28.84	5.90	
2025-01-19 22:39:41.44	28.95	5.98	
2025-01-19 22:39:42.66	29.06	6.05	
2025-01-19 22:39:43.88	29.17	6.12	
2025-01-19 22:39:45.10	29.28	6.20	
2025-01-19 22:39:46.31	29.39	6.27	
2025-01-19 22:39:47.53	29.51	6.34	
2025-01-19 22:39:48.75	29.62	6.42	
2025-01-19 22:39:49.97	29.73	6.49	
2025-01-19 22:39:51.19	29.85	6.57	
2025-01-19 22:39:52.41	29.96	6.64	
2025-01-19 22:39:53.62	30.08	6.71	
2025-01-19 22:39:54.84	30.19	6.79	
2025-01-19 22:39:56.06	30.31	6.86	
2025-01-19 22:39:57.28	30.43	6.94	
2025-01-19 22:39:58.50	30.55	7.01	
2025-01-19 22:39:59.72	30.67	7.09	
2025-01-19 22:40:00.94	30.78	7.16	
2025-01-19 22:40:02.15	30.90	7.24	
2025-01-19 22:40:03.37	31.02	7.31	
2025-01-19 22:40:04.59	31.14	7.39	
2025-01-19 22:40:05.81	31.27	7.46	
2025-01-19 22:40:07.03	31.39	7.54	
2025-01-19 22:40:08.25	31.51	7.62	
2025-01-19 22:40:09.46	31.63	7.69	
2025-01-19 22:40:10.68	31.76	7.77	
2025-01-19 22:40:11.90	31.88	7.84	
2025-01-19 22:40:13.12	32.01	7.92	
2025-01-19 22:40:14.34	32.13	8.00	
2025-01-19 22:40:15.56	32.26	8.07	
2025-01-19 22:40:16.77	32.38	8.15	
2025-01-19 22:40:17.99	32.51	8.22	
2025-01-19 22:40:19.21	32.64	8.30	
2025-01-19 22:40:20.43	32.77	8.38	
2025-01-19 22:40:21.65	32.90	8.46	
2025-01-19 22:40:22.87	33.03	8.53	
2025-01-19 22:40:24.09	33.16	8.61	
2025-01-19 22:40:25.30	33.29	8.69	
2025-01-19 22:40:26.52	33.42	8.76	
2025-01-19 22:40:27.74	33.55	8.84	
2025-01-19 22:40:28.96	33.69	8.92	
2025-01-19 22:40:30.18	33.82	9.00	
2025-01-19 22:40:31.40	33.96	9.08	
2025-01-19 22:40:32.61	34.09	9.15	
2025-01-19 22:40:33.83	34.23	9.23	
2025-01-19 22:40:35.05	34.36	9.31	
2025-01-19 22:40:36.27	34.50	9.39	
2025-01-19 22:40:37.49	34.64	9.47	
2025-01-19 22:40:38.71	34.78	9.55	
2025-01-19 22:40:39.93	34.92	9.62	
2025-01-19 22:40:41.14	35.06	9.70	
2025-01-19 22:40:42.36	35.20	9.78	
2025-01-19 22:40:43.58	35.34	9.86	
2025-01-19 22:40:44.80	35.49	9.94	
2025-01-19 22:40:46.02	35.63	10.02	
2025-01-19 22:40:47.24	35.77	10.10	
2025-01-19 22:40:48.45	35.92	10.18	
2025-01-19 22:40:49.67	36.06	10.26	
2025-01-19 22:40:50.89	36.21	10.34	
2025-01-19 22:40:52.11	36.36	10.42	
2025-01-19 22:40:53.33	36.50	10.50	
2025-01-19 22:40:54.55	36.65	10.58	
2025-01-19 22:40:55.77	36.80	10.66	
2025-01-19 22:40:56.98	36.95	10.74	
2025-01-19 22:40:58.20	37.10	10.82	
2025-01-19 22:40:59.42	37.26	10.90	
2025-01-19 22:41:00.64	37.41	10.98	
2025-01-19 22:41:01.86	37.56	11.06	
2025-01-19 22:41:03.08	37.72	11.14	
2025-01-19 22:41:04.29	37.87	11.22	
2025-01-19 22:41:05.51	38.03	11.30	
2025-01-19 22:41:06.73	38.18	11.38	
2025-01-19 22:41:07.95	38.34	11.46	
2025-01-19 22:41:09.17	38.50	11.54	
2025-01-19 22:41:10.39	38.66	11.62	
2025-01-19 22:41:11.60	38.82	11.70	
2025-01-19 22:41:12.82	38.98	11.79	
2025-01-19 22:41:14.04	39.14	11.87	
2025-01-19 22:41:15.26	39.30	11.95	
2025-01-19 22:41:16.48	39.47	12.03	
2025-01-19 22:41:17.70	39.63	12.11	
2025-01-19 22:41:18.92	39.80	12.19	
2025-01-19 22:41:20.13	39.96	12.27	
2025-01-19 22:41:21.35	40.13	12.36	
2025-01-19 22:41:22.57	40.30	12.44	
2025-01-19 22:41:23.79	40.47	12.52	
2025-01-19 22:41:25.01	40.64	12.60	
2025-01-19 22:41:26.23	40.81	12.68	
2025-01-19 22:41:27.44	40.98	12.76	
2025-01-19 22:41:28.66	41.15	12.85	
2025-01-19 22:41:29.88	41.33	12.93	
2025-01-19 22:41:31.10	41.50	13.01	
2025-01-19 22:41:32.32	41.68	13.09	
2025-01-19 22:41:33.54	41.85	13.17	
2025-01-19 22:41:34.76	42.03	13.26	
2025-01-19 22:41:35.97	42.21	13.34	
2025-01-19 22:41:37.19	42.39	13.42	
2025-01-19 22:41:38.41	42.57	13.50	
2025-01-19 22:41:39.63	42.75	13.59	
2025-01-19 22:41:40.85	42.93	13.67	
2025-01-19 22:41:42.07	43.11	13.75	
2025-01-19 22:41:43.28	43.30	13.83	
2025-01-19 22:41:44.50	43.48	13.91	
2025-01-19 22:41:45.72	43.67	14.00	
2025-01-19 22:41:46.94	43.85	14.08	
2025-01-19 22:41:48.16	44.04	14.16	
2025-01-19 22:41:49.38	44.23	14.24	
2025-01-19 22:41:50.59	44.42	14.33	
2025-01-19 22:41:51.81	44.61	14.41	
2025-01-19 22:41:53.03	44.80	14.49	
2025-01-19 22:41:54.25	45.00	14.57	
2025-01-19 22:41:55.47	45.19	14.65	
2025-01-19 22:41:56.69	45.39	14.74	
2025-01-19 22:41:57.91	45.58	14.82	
2025-01-19 22:41:59.12	45.78	14.90	
2025-01-19 22:42:00.34	45.98	14.98	
2025-01-19 22:42:01.56	46.18	15.07	
2025-01-19 22:42:02.78	46.38	15.15	
2025-01-19 22:42:04.00	46.58	15.23	
2025-01-19 22:42:05.22	46.78	15.31	
2025-01-19 22:42:06.43	46.99	15.39	
2025-01-19 22:42:07.65	47.19	15.48	
2025-01-19 22:42:08.87	47.40	15.56	
2025-01-19 22:42:10.09	47.61	15.64	
2025-01-19 22:42:11.31	47.81	15.72	
2025-01-19 22:42:12.53	48.02	15.80	
2025-01-19 22:42:13.75	48.23	15.88	
2025-01-19 22:42:14.96	48.44	15.96	
2025-01-19 22:42:16.18	48.66	16.05	
2025-01-19 22:42:17.40	48.87	16.13	
2025-01-19 22:42:18.62	49.09	16.21	
2025-01-19 22:42:19.84	49.30	16.29	
2025-01-19 22:42:21.06	49.52	16.37	
2025-01-19 22:42:22.27	49.74	16.45	
2025-01-19 22:42:23.49	49.96	16.53	
2025-01-19 22:42:24.71	50.18	16.61	
2025-01-19 22:42:25.93	50.40	16.69	
2025-01-19 22:42:27.15	50.62	16.77	
2025-01-19 22:42:28.37	50.85	16.85	
2025-01-19 22:42:29.59	51.07	16.93	
2025-01-19 22:42:30.80	51.30	17.01	
2025-01-19 22:42:32.02	51.53	17.09	
2025-01-19 22:42:33.24	51.75	17.17	
2025-01-19 22:42:34.46	51.98	17.25	
2025-01-19 22:42:35.68	52.22	17.33	
2025-01-19 22:42:36.90	52.45	17.41	
2025-01-19 22:42:38.11	52.68	17.49	
2025-01-19 22:42:39.33	52.92	17.57	
2025-01-19 22:42:40.55	53.15	17.64	
2025-01-19 22:42:41.77	53.39	17.72	
2025-01-19 22:42:42.99	53.63	17.80	
2025-01-19 22:42:44.21	53.87	17.88	
2025-01-19 22:42:45.42	54.11	17.96	
2025-01-19 22:42:46.64	54.35	18.03	
2025-01-19 22:42:47.86	54.59	18.11	
2025-01-19 22:42:49.08	54.84	18.19	
2025-01-19 22:42:50.30	55.08	18.26	
2025-01-19 22:42:51.52	55.33	18.34	
2025-01-19 22:42:52.74	55.58	18.41	
2025-01-19 22:42:53.95	55.82	18.49	
2025-01-19 22:42:55.17	56.08	18.57	
2025-01-19 22:42:56.39	56.33	18.64	
2025-01-19 22:42:57.61	56.58	18.72	
2025-01-19 22:42:58.83	56.83	18.79	
2025-01-19 22:43:00.05	57.09	18.86	
2025-01-19 22:43:01.26	57.34	18.94	
2025-01-19 22:43:02.48	57.60	19.01	
2025-01-19 22:43:03.70	57.86	19.08	
2025-01-19 22:43:04.92	58.12	19.16	
2025-01-19 22:43:06.14	58.38	19.23	
2025-01-19 22:43:07.36	58.65	19.30	
2025-01-19 22:43:08.58	58.91	19.37	
2025-01-19 22:43:09.79	59.17	19.44	
2025-01-19 22:43:11.01	59.44	19.51	
2025-01-19 22:43:12.23	59.71	19.58	
2025-01-19 22:43:13.45	59.98	19.65	
2025-01-19 22:43:14.67	60.25	19.72	
2025-01-19 22:43:15.89	60.52	19.79	
2025-01-19 22:43:17.10	60.79	19.86	
2025-01-19 22:43:18.32	61.06	19.93	
2025-01-19 22:43:19.54	61.34	20.00	
2025-01-19 22:43:20.76	61.61	20.06	
2025-01-19 22:43:21.98	61.89	20.13	
2025-01-19 22:43:23.20	62.17	20.20	
2025-01-19 22:43:24.41	62.45	20.26	
2025-01-19 22:43:25.63	62.73	20.33	
2025-01-19 22:43:26.85	63.01	20.39	
2025-01-19 22:43:28.07	63.29	20.46	
2025-01-19 22:43:29.29	63.58	20.52	
2025-01-19 22:43:30.51	63.86	20.59	
2025-01-19 22:43:31.73	64.15	20.65	
2025-01-19 22:43:32.94	64.43	20.71	
2025-01-19 22:43:34.16	64.72	20.77	
2025-01-19 22:43:35.38	65.01	20.83	
2025-01-19 22:43:36.60	65.30	20.89	
2025-01-19 22:43:37.82	65.59	20.95	
2025-01-19 22:43:39.04	65.89	21.01	
2025-01-19 22:43:40.25	66.18	21.07	
2025-01-19 22:43:41.47	66.48	21.13	
2025-01-19 22:43:42.69	66.77	21.19	
2025-01-19 22:43:43.91	67.07	21.24	
2025-01-19 22:43:45.13	67.37	21.30	
2025-01-19 22:43:46.35	67.67	21.35	
2025-01-19 22:43:47.57	67.97	21.41	
2025-01-19 22:43:48.78	68.27	21.46	
2025-01-19 22:43:50.00	68.57	21.52	
2025-01-19 22:43:51.22	68.88	21.57	
2025-01-19 22:43:52.44	69.18	21.62	
2025-01-19 22:43:53.66	69.49	21.67	
2025-01-19 22:43:54.88	69.79	21.72	
2025-01-19 22:43:56.09	70.10	21.77	
2025-01-19 22:43:57.31	70.41	21.82	
2025-01-19 22:43:58.53	70.72	21.87	
2025-01-19 22:43:59.75	71.03	21.92	
2025-01-19 22:44:00.97	71.34	21.97	
2025-01-19 22:44:02.19	71.65	22.01	
2025-01-19 22:44:03.40	71.97	22.06	
2025-01-19 22:44:04.62	72.28	22.10	
2025-01-19 22:44:05.84	72.60	22.15	
2025-01-19 22:44:07.06	72.91	22.19	
2025-01-19 22:44:08.28	73.23	22.23	
2025-01-19 22:44:09.50	73.55	22.27	
2025-01-19 22:44:10.72	73.87	22.31	
2025-01-19 22:44:11.93	74.18	22.35	
2025-01-19 22:44:13.15	74.50	22.39	
2025-01-19 22:44:14.37	74.82	22.43	
2025-01-19 22:44:15.59	75.15	22.47	
2025-01-19 22:44:16.81	75.47	22.50	
2025-01-19 22:44:18.03	75.79	22.54	
2025-01-19 22:44:19.24	76.11	22.57	
2025-01-19 22:44:20.46	76.44	22.61	
2025-01-19 22:44:21.68	76.77	22.64	
2025-01-19 22:44:22.90	77.09	22.67	
2025-01-19 22:44:24.12	77.42	22.70	
2025-01-19 22:44:25.34	77.75	22.73	
2025-01-19 22:44:26.56	78.07	22.76	
2025-01-19 22:44:27.77	78.40	22.79	
2025-01-19 22:44:28.99	78.73	22.82	
2025-01-19 22:44:30.21	79.06	22.84	
2025-01-19 22:44:31.43	79.39	22.87	
2025-01-19 22:44:32.65	79.72	22.89	
2025-01-19 22:44:33.87	80.05	22.92	
2025-01-19 22:44:35.08	80.38	22.94	
2025-01-19 22:44:36.30	80.72	22.96	
2025-01-19 22:44:37.52	81.05	22.98	
2025-01-19 22:44:38.74	81.38	23.00	
2025-01-19 22:44:39.96	81.72	23.02	
2025-01-19 22:44:41.18	82.05	23.04	
2025-01-19 22:44:42.40	82.39	23.06	
2025-01-19 22:44:43.61	82.72	23.07	
2025-01-19 22:44:44.83	83.05	23.09	
2025-01-19 22:44:46.05	83.39	23.10	
2025-01-19 22:44:47.27	83.72	23.11	
2025-01-19 22:44:48.49	84.06	23.12	
2025-01-19 22:44:49.71	84.40	23.14	
2025-01-19 22:44:50.92	84.73	23.15	
2025-01-19 22:44:52.14	85.07	23.15	
2025-01-19 22:44:53.36	85.40	23.16	
2025-01-19 22:44:54.58	85.74	23.17	
2025-01-19 22:44:55.80	86.08	23.17	
2025-01-19 22:44:57.02	86.42	23.18	
2025-01-19 22:44:58.23	86.75	23.18	
2025-01-19 22:44:59.45	87.09	23.19	
2025-01-19 22:45:00.67	87.43	23.19	
2025-01-19 22:45:01.89	87.77	23.19	
2025-01-19 22:45:03.11	88.10	23.19	
2025-01-19 22:45:04.33	88.44	23.19	
2025-01-19 22:45:05.55	88.78	23.19	
2025-01-19 22:45:06.76	89.11	23.18	
2025-01-19 22:45:07.98	89.45	23.18	
2025-01-19 22:45:09.20	89.79	23.17	
2025-01-19 22:45:10.42	90.13	23.17	
2025-01-19 22:45:11.64	90.46	23.16	
2025-01-19 22:45:12.86	90.80	23.15	
2025-01-19 22:45:14.07	91.13	23.14	
2025-01-19 22:45:15.29	91.47	23.13	
2025-01-19 22:45:16.51	91.81	23.12	
2025-01-19 22:45:17.73	92.14	23.11	
2025-01-19 22:45:18.95	92.48	23.09	
2025-01-19 22:45:20.17	92.82	23.08	
2025-01-19 22:45:21.39	93.15	23.06	
2025-01-19 22:45:22.60	93.48	23.05	
2025-01-19 22:45:23.82	93.82	23.03	
2025-01-19 22:45:25.04	94.15	23.01	
2025-01-19 22:45:26.26	94.49	22.99	
2025-01-19 22:45:27.48	94.82	22.97	
2025-01-19 22:45:28.70	95.15	22.95	
2025-01-19 22:45:29.91	95.48	22.93	
2025-01-19 22:45:31.13	95.82	22.91	
2025-01-19 22:45:32.35	96.15	22.88	
2025-01-19 22:45:33.57	96.48	22.86	
2025-01-19 22:45:34.79	96.81	22.83	
2025-01-19 22:45:36.01	97.14	22.81	
2025-01-19 22:45:37.22	97.47	22.78	
2025-01-19 22:45:38.44	97.80	22.75	
2025-01-19 22:45:39.66	98.13	22.72	
2025-01-19 22:45:40.88	98.45	22.69	
2025-01-19 22:45:42.10	98.78	22.66	
2025-01-19 22:45:43.32	99.11	22.63	
2025-01-19 22:45:44.54	99.43	22.59	
2025-01-19 22:45:45.75	99.76	22.56	
2025-01-19 22:45:46.97	100.08	22.52	
2025-01-19 22:45:48.19	100.41	22.49	
2025-01-19 22:45:49.41	100.73	22.45	
2025-01-19 22:45:50.63	101.05	22.41	
2025-01-19 22:45:51.85	101.37	22.37	
2025-01-19 22:45:53.06	101.69	22.33	
2025-01-19 22:45:54.28	102.01	22.29	
2025-01-19 22:45:55.50	102.33	22.25	
2025-01-19 22:45:56.72	102.65	22.21	
2025-01-19 22:45:57.94	102.97	22.17	
2025-01-19 22:45:59.16	103.28	22.12	
2025-01-19 22:46:00.38	103.60	22.08	
2025-01-19 22:46:01.59	103.91	22.04	
2025-01-19 22:46:02.81	104.23	21.99	
2025-01-19 22:46:04.03	104.54	21.94	
2025-01-19 22:46:05.25	104.85	21.90	
2025-01-19 22:46:06.47	105.16	21.85	
2025-01-19 22:46:07.69	105.47	21.80	
2025-01-19 22:46:08.90	105.78	21.75	
2025-01-19 22:46:10.12	106.09	21.70	
2025-01-19 22:46:11.34	106.40	21.65	
2025-01-19 22:46:12.56	106.70	21.60	
2025-01-19 22:46:13.78	107.01	21.54	
2025-01-19 22:46:15.00	107.31	21.49	
2025-01-19 22:46:16.21	107.61	21.44	
2025-01-19 22:46:17.43	107.92	21.38	
2025-01-19 22:46:18.65	108.22	21.33	
2025-01-19 22:46:19.87	108.52	21.27	
2025-01-19 22:46:21.09	108.82	21.21	
2025-01-19 22:46:22.31	109.12	21.16	
2025-01-19 22:46:23.53	109.41	21.10	
2025-01-19 22:46:24.74	109.71	21.04	
2025-01-19 22:46:25.96	110.00	20.98	
2025-01-19 22:46:27.18	110.29	20.92	
2025-01-19 22:46:28.40	110.59	20.86	
2025-01-19 22:46:29.62	110.88	20.80	
2025-01-19 22:46:30.84	111.17	20.74	
2025-01-19 22:46:32.05	111.46	20.67	
2025-01-19 22:46:33.27	111.74	20.61	
2025-01-19 22:46:34.49	112.03	20.55	
2025-01-19 22:46:35.71	112.32	20.48	
2025-01-19 22:46:36.93	112.60	20.42	
2025-01-19 22:46:38.15	112.89	20.35	
2025-01-19 22:46:39.37	113.17	20.29	
2025-01-19 22:46:40.58	113.45	20.22	
2025-01-19 22:46:41.80	113.73	20.16	
2025-01-19 22:46:43.02	114.01	20.09	
2025-01-19 22:46:44.24	114.28	20.02	
2025-01-19 22:46:45.46	114.56	19.95	
2025-01-19 22:46:46.68	114.84	19.89	
2025-01-19 22:46:47.89	115.11	19.82	
2025-01-19 22:46:49.11	115.38	19.75	
2025-01-19 22:46:50.33	115.65	19.68	
2025-01-19 22:46:51.55	115.92	19.61	
2025-01-19 22:46:52.77	116.19	19.54	
2025-01-19 22:46:53.99	116.46	19.47	
2025-01-19 22:46:55.21	116.73	19.39	
2025-01-19 22:46:56.42	116.99	19.32	
2025-01-19 22:46:57.64	117.26	19.25	
2025-01-19 22:46:58.86	117.52	19.18	
2025-01-19 22:47:00.08	117.78	19.11	
2025-01-19 22:47:01.30	118.04	19.03	
2025-01-19 22:47:02.52	118.30	18.96	
2025-01-19 22:47:03.73	118.56	18.88	
2025-01-19 22:47:04.95	118.81	18.81	
2025-01-19 22:47:06.17	119.07	18.74	
2025-01-19 22:47:07.39	119.33	18.66	
2025-01-19 22:47:08.61	119.58	18.59	
2025-01-19 22:47:09.83	119.83	18.51	
2025-01-19 22:47:11.04	120.08	18.43	
2025-01-19 22:47:12.26	120.33	18.36	
2025-01-19 22:47:13.48	120.58	18.28	
2025-01-19 22:47:14.70	120.83	18.20	
2025-01-19 22:47:15.92	121.07	18.13	
2025-01-19 22:47:17.14	121.32	18.05	
2025-01-19 22:47:18.36	121.56	17.97	
2025-01-19 22:47:19.57	121.80	17.89	
2025-01-19 22:47:20.79	122.04	17.82	
2025-01-19 22:47:22.01	122.28	17.74	
2025-01-19 22:47:23.23	122.52	17.66	
2025-01-19 22:47:24.45	122.76	17.58	
2025-01-19 22:47:25.67	123.00	17.50	
2025-01-19 22:47:26.88	123.23	17.42	
2025-01-19 22:47:28.10	123.46	17.34	
2025-01-19 22:47:29.32	123.70	17.26	
2025-01-19 22:47:30.54	123.93	17.18	
2025-01-19 22:47:31.76	124.16	17.10	
2025-01-19 22:47:32.98	124.39	17.02	
2025-01-19 22:47:34.20	124.62	16.94	
2025-01-19 22:47:35.41	124.84	16.86	
2025-01-19 22:47:36.63	125.07	16.78	
2025-01-19 22:47:37.85	125.29	16.70	
2025-01-19 22:47:39.07	125.51	16.62	
2025-01-19 22:47:40.29	125.74	16.54	
2025-01-19 22:47:41.51	125.96	16.46	
2025-01-19 22:47:42.72	126.18	16.38	
2025-01-19 22:47:43.94	126.40	16.29	
2025-01-19 22:47:45.16	126.61	16.21	
2025-01-19 22:47:46.38	126.83	16.13	
2025-01-19 22:47:47.60	127.04	16.05	
2025-01-19 22:47:48.82	127.26	15.97	
2025-01-19 22:47:50.03	127.47	15.89	
2025-01-19 22:47:51.25	127.68	15.80	
2025-01-19 22:47:52.47	127.89	15.72	
2025-01-19 22:47:53.69	128.10	15.64	
2025-01-19 22:47:54.91	128.31	15.56	
2025-01-19 22:47:56.13	128.52	15.47	
2025-01-19 22:47:57.35	128.73	15.39	
2025-01-19 22:47:58.56	128.93	15.31	
2025-01-19 22:47:59.78	129.13	15.23	
2025-01-19 22:48:01.00	129.34	15.14	
2025-01-19 22:48:02.22	129.54	15.06	
2025-01-19 22:48:03.44	129.74	14.98	
2025-01-19 22:48:04.66	129.94	14.89	
2025-01-19 22:48:05.87	130.14	14.81	
2025-01-19 22:48:07.09	130.33	14.73	
2025-01-19 22:48:08.31	130.53	14.65	
2025-01-19 22:48:09.53	130.73	14.56	
2025-01-19 22:48:10.75	130.92	14.48	
2025-01-19 22:48:11.97	131.11	14.40	
2025-01-19 22:48:13.19	131.31	14.31	
2025-01-19 22:48:14.40	131.50	14.23	
2025-01-19 22:48:15.62	131.69	14.15	
2025-01-19 22:48:16.84	131.88	14.07	
2025-01-19 22:48:18.06	132.06	13.98	
2025-01-19 22:48:19.28	132.25	13.90	
2025-01-19 22:48:20.50	132.44	13.82	
2025-01-19 22:48:21.71	132.62	13.73	
2025-01-19 22:48:22.93	132.81	13.65	
2025-01-19 22:48:24.15	132.99	13.57	
2025-01-19 22:48:25.37	133.17	13.48	
2025-01-19 22:48:26.59	133.35	13.40	
2025-01-19 22:48:27.81	133.53	13.32	
2025-01-19 22:48:29.02	133.71	13.24	
2025-01-19 22:48:30.24	133.89	13.15	
2025-01-19 22:48:31.46	134.07	13.07	
2025-01-19 22:48:32.68	134.24	12.99	
2025-01-19 22:48:33.90	134.42	12.90	
2025-01-19 22:48:35.12	134.59	12.82	
2025-01-19 22:48:36.34	134.77	12.74	
2025-01-19 22:48:37.55	134.94	12.66	
2025-01-19 22:48:38.77	135.11	12.57	
2025-01-19 22:48:39.99	135.28	12.49	
2025-01-19 22:48:41.21	135.45	12.41	
2025-01-19 22:48:42.43	135.62	12.33	
2025-01-19 22:48:43.65	135.79	12.24	
2025-01-19 22:48:44.86	135.95	12.16	
2025-01-19 22:48:46.08	136.12	12.08	
2025-01-19 22:48:47.30	136.29	12.00	
2025-01-19 22:48:48.52	136.45	11.91	
2025-01-19 22:48:49.74	136.61	11.83	
2025-01-19 22:48:50.96	136.78	11.75	
2025-01-19 22:48:52.18	136.94	11.67	
2025-01-19 22:48:53.39	137.10	11.59	
2025-01-19 22:48:54.61	137.26	11.51	
2025-01-19 22:48:55.83	137.42	11.42	
2025-01-19 22:48:57.05	137.57	11.34	
2025-01-19 22:48:58.27	137.73	11.26	
2025-01-19 22:48:59.49	137.89	11.18	
2025-01-19 22:49:00.70	138.04	11.10	
2025-01-19 22:49:01.92	138.20	11.02	
2025-01-19 22:49:03.14	138.35	10.93	
2025-01-19 22:49:04.36	138.51	10.85	
2025-01-19 22:49:05.58	138.66	10.77	
2025-01-19 22:49:06.80	138.81	10.69	
2025-01-19 22:49:08.01	138.96	10.61	
2025-01-19 22:49:09.23	139.11	10.53	
2025-01-19 22:49:10.45	139.26	10.45	
2025-01-19 22:49:11.67	139.41	10.37	
2025-01-19 22:49:12.89	139.56	10.29	
2025-01-19 22:49:14.11	139.70	10.21	
2025-01-19 22:49:15.33	139.85	10.13	
2025-01-19 22:49:16.54	139.99	10.05	
2025-01-19 22:49:17.76	140.14	9.97	
2025-01-19 22:49:18.98	140.28	9.89	
2025-01-19 22:49:20.20	140.42	9.81	
2025-01-19 22:49:21.42	140.57	9.73	
2025-01-19 22:49:22.64	140.71	9.65	
2025-01-19 22:49:23.85	140.85	9.57	
2025-01-19 22:49:25.07	140.99	9.49	
2025-01-19 22:49:26.29	141.13	9.41	
2025-01-19 22:49:27.51	141.27	9.33	
2025-01-19 22:49:28.73	141.40	9.25	
2025-01-19 22:49:29.95	141.54	9.17	
2025-01-19 22:49:31.17	141.68	9.09	
2025-01-19 22:49:32.38	141.81	9.02	
2025-01-19 22:49:33.60	141.95	8.94	
2025-01-19 22:49:34.82	142.08	8.86	
2025-01-19 22:49:36.04	142.22	8.78	
2025-01-19 22:49:37.26	142.35	8.70	
2025-01-19 22:49:38.48	142.48	8.62	
2025-01-19 22:49:39.69	142.61	8.54	
2025-01-19 22:49:40.91	142.74	8.47	
2025-01-19 22:49:42.13	142.87	8.39	
2025-01-19 22:49:43.35	143.00	8.31	
2025-01-19 22:49:44.57	143.13	8.23	
2025-01-19 22:49:45.79	143.26	8.16	
2025-01-19 22:49:47.01	143.39	8.08	
2025-01-19 22:49:48.22	143.51	8.00	
2025-01-19 22:49:49.44	143.64	7.92	
2025-01-19 22:49:50.66	143.77	7.85	
2025-01-19 22:49:51.88	143.89	7.77	
2025-01-19 22:49:53.10	144.02	7.69	
2025-01-19 22:49:54.32	144.14	7.62	
2025-01-19 22:49:55.53	144.26	7.54	
2025-01-19 22:49:56.75	144.39	7.46	
2025-01-19 22:49:57.97	144.51	7.39	
2025-01-19 22:49:59.19	144.63	7.31	
2025-01-19 22:50:00.41	144.75	7.23	
2025-01-19 22:50:01.63	144.87	7.16	
2025-01-19 22:50:02.84	144.99	7.08	
2025-01-19 22:50:04.06	145.11	7.01	
2025-01-19 22:50:05.28	145.23	6.93	
2025-01-19 22:50:06.50	145.34	6.86	
2025-01-19 22:50:07.72	145.46	6.78	
2025-01-19 22:50:08.94	145.58	6.71	
2025-01-19 22:50:10.16	145.69	6.63	
2025-01-19 22:50:11.37	145.81	6.56	
2025-01-19 22:50:12.59	145.92	6.48	
2025-01-19 22:50:13.81	146.04	6.41	
2025-01-19 22:50:15.03	146.15	6.33	
2025-01-19 22:50:16.25	146.26	6.26	
2025-01-19 22:50:17.47	146.38	6.18	
2025-01-19 22:50:18.68	146.49	6.11	
2025-01-19 22:50:19.90	146.60	6.03	
2025-01-19 22:50:21.12	146.71	5.96	
2025-01-19 22:50:22.34	146.82	5.89	
2025-01-19 22:50:23.56	146.93	5.81	
2025-01-19 22:50:24.78	147.04	5.74	
2025-01-19 22:50:26.00	147.15	5.66	
2025-01-19 22:50:27.21	147.26	5.59	
2025-01-19 22:50:28.43	147.36	5.52	
2025-01-19 22:50:29.65	147.47	5.44	
2025-01-19 22:50:30.87	147.58	5.37	
2025-01-19 22:50:32.09	147.68	5.30	
2025-01-19 22:50:33.31	147.79	5.23	
2025-01-19 22:50:34.52	147.90	5.15	
2025-01-19 22:50:35.74	148.00	5.08	
2025-01-19 22:50:36.96	148.10	5.01	
2025-01-19 22:50:38.18	148.21	4.94	
2025-01-19 22:50:39.40	148.31	4.86	
2025-01-19 22:50:40.62	148.41	4.79	
2025-01-19 22:50:41.83	148.52	4.72	
2025-01-19 22:50:43.05	148.62	4.65	
2025-01-19 22:50:44.27	148.72	4.58	
2025-01-19 22:50:45.49	148.82	4.50	
2025-01-19 22:50:46.71	148.92	4.43	
2025-01-19 22:50:47.93	149.02	4.36	
2025-01-19 22:50:49.15	149.12	4.29	
2025-01-19 22:50:50.36	149.22	4.22	
2025-01-19 22:50:51.58	149.32	4.15	
2025-01-19 22:50:52.80	149.42	4.08	
2025-01-19 22:50:54.02	149.51	4.01	

#Closed at: 2025-01-19 22:50:54