passes_logs/2025/01/19/SPB_Silybum_02/SPB_Silybum_02__20250119_072219_TERRA_rec.log

#Pass ID: 20250119_072219_TERRA
#Satellite: TERRA
#Configuration: TERRA
#Start time: 2025-01-19 07:23:30

#Version: 2.0.20230423
#Station: SPB_Silybum_02
#Location: 30.233357 lon 59.946436 lat
#TLE: 1 25994U 99068A   25018.76132064  .00000971  00000+0  20987-3 0  9991
#TLE: 2 25994  98.0209  81.6719 0003338  64.8500  46.9329 14.60403262334620

#Time	Az	El	Level	Level2	SNR	BER	Gain	Gain2
2025-01-19 07:23:32.10	27.83	9.30	
2025-01-19 07:23:33.11	27.92	9.39	
2025-01-19 07:23:34.13	28.00	9.47	
2025-01-19 07:23:35.15	28.09	9.55	
2025-01-19 07:23:36.16	28.18	9.63	
2025-01-19 07:23:37.18	28.27	9.72	
2025-01-19 07:23:38.19	28.36	9.80	
2025-01-19 07:23:39.21	28.46	9.88	
2025-01-19 07:23:40.22	28.55	9.97	
2025-01-19 07:23:41.24	28.64	10.05	
2025-01-19 07:23:42.25	28.73	10.14	
2025-01-19 07:23:43.27	28.83	10.22	
2025-01-19 07:23:44.28	28.92	10.31	
2025-01-19 07:23:45.30	29.02	10.39	
2025-01-19 07:23:46.32	29.11	10.48	
2025-01-19 07:23:47.34	29.21	10.56	
2025-01-19 07:23:48.35	29.30	10.65	
2025-01-19 07:23:49.37	29.40	10.74	
2025-01-19 07:23:50.38	29.50	10.82	
2025-01-19 07:23:51.40	29.60	10.91	
2025-01-19 07:23:52.41	29.69	11.00	
2025-01-19 07:23:53.43	29.79	11.08	
2025-01-19 07:23:54.44	29.89	11.17	
2025-01-19 07:23:55.46	30.00	11.26	
2025-01-19 07:23:56.48	30.10	11.35	
2025-01-19 07:23:57.49	30.20	11.44	
2025-01-19 07:23:58.51	30.30	11.53	
2025-01-19 07:23:59.52	30.40	11.61	
2025-01-19 07:24:00.54	30.51	11.70	
2025-01-19 07:24:01.55	30.61	11.79	
2025-01-19 07:24:02.57	30.72	11.88	
2025-01-19 07:24:03.58	30.82	11.97	
2025-01-19 07:24:04.60	30.93	12.06	
2025-01-19 07:24:05.61	31.04	12.15	
2025-01-19 07:24:06.63	31.14	12.25	
2025-01-19 07:24:07.64	31.25	12.34	
2025-01-19 07:24:08.66	31.36	12.43	
2025-01-19 07:24:09.68	31.47	12.52	
2025-01-19 07:24:10.69	31.58	12.61	
2025-01-19 07:24:11.71	31.69	12.71	
2025-01-19 07:24:12.72	31.80	12.80	
2025-01-19 07:24:13.74	31.92	12.89	
2025-01-19 07:24:14.75	32.03	12.98	
2025-01-19 07:24:15.77	32.15	13.08	
2025-01-19 07:24:16.78	32.26	13.17	
2025-01-19 07:24:17.80	32.38	13.27	
2025-01-19 07:24:18.81	32.49	13.36	
2025-01-19 07:24:19.83	32.61	13.46	
2025-01-19 07:24:20.84	32.73	13.55	
2025-01-19 07:24:21.86	32.85	13.65	
2025-01-19 07:24:22.88	32.97	13.74	
2025-01-19 07:24:23.89	33.09	13.84	
2025-01-19 07:24:24.91	33.21	13.94	
2025-01-19 07:24:25.92	33.33	14.03	
2025-01-19 07:24:26.94	33.45	14.13	
2025-01-19 07:24:27.95	33.58	14.23	
2025-01-19 07:24:28.97	33.70	14.33	
2025-01-19 07:24:29.98	33.83	14.42	
2025-01-19 07:24:31.00	33.95	14.52	
2025-01-19 07:24:32.01	34.08	14.62	
2025-01-19 07:24:33.03	34.21	14.72	
2025-01-19 07:24:34.05	34.34	14.82	
2025-01-19 07:24:35.06	34.47	14.92	
2025-01-19 07:24:36.08	34.60	15.02	
2025-01-19 07:24:37.09	34.73	15.12	
2025-01-19 07:24:38.11	34.86	15.22	
2025-01-19 07:24:39.12	34.99	15.32	
2025-01-19 07:24:40.14	35.13	15.42	
2025-01-19 07:24:41.15	35.26	15.53	
2025-01-19 07:24:42.17	35.40	15.63	
2025-01-19 07:24:43.18	35.54	15.73	
2025-01-19 07:24:44.20	35.67	15.83	
2025-01-19 07:24:45.21	35.81	15.94	
2025-01-19 07:24:46.23	35.95	16.04	
2025-01-19 07:24:47.25	36.09	16.14	
2025-01-19 07:24:48.26	36.24	16.25	
2025-01-19 07:24:49.28	36.38	16.35	
2025-01-19 07:24:50.29	36.52	16.46	
2025-01-19 07:24:51.31	36.67	16.56	
2025-01-19 07:24:52.32	36.81	16.67	
2025-01-19 07:24:53.34	36.96	16.77	
2025-01-19 07:24:54.35	37.11	16.88	
2025-01-19 07:24:55.37	37.26	16.99	
2025-01-19 07:24:56.38	37.41	17.09	
2025-01-19 07:24:57.40	37.56	17.20	
2025-01-19 07:24:58.41	37.71	17.31	
2025-01-19 07:24:59.43	37.87	17.42	
2025-01-19 07:25:00.45	38.02	17.52	
2025-01-19 07:25:01.46	38.18	17.63	
2025-01-19 07:25:02.48	38.34	17.74	
2025-01-19 07:25:03.49	38.50	17.85	
2025-01-19 07:25:04.51	38.66	17.96	
2025-01-19 07:25:05.52	38.82	18.07	
2025-01-19 07:25:06.54	38.98	18.18	
2025-01-19 07:25:07.55	39.14	18.29	
2025-01-19 07:25:08.57	39.31	18.40	
2025-01-19 07:25:09.58	39.47	18.51	
2025-01-19 07:25:10.60	39.64	18.62	
2025-01-19 07:25:11.61	39.81	18.74	
2025-01-19 07:25:12.63	39.98	18.85	
2025-01-19 07:25:13.65	40.15	18.96	
2025-01-19 07:25:14.66	40.32	19.07	
2025-01-19 07:25:15.68	40.49	19.19	
2025-01-19 07:25:16.69	40.67	19.30	
2025-01-19 07:25:17.71	40.84	19.41	
2025-01-19 07:25:18.72	41.02	19.53	
2025-01-19 07:25:19.74	41.20	19.64	
2025-01-19 07:25:20.75	41.38	19.76	
2025-01-19 07:25:21.77	41.56	19.87	
2025-01-19 07:25:22.78	41.74	19.99	
2025-01-19 07:25:23.80	41.93	20.10	
2025-01-19 07:25:24.81	42.11	20.22	
2025-01-19 07:25:25.83	42.30	20.34	
2025-01-19 07:25:26.85	42.49	20.45	
2025-01-19 07:25:27.86	42.68	20.57	
2025-01-19 07:25:28.88	42.87	20.69	
2025-01-19 07:25:29.89	43.06	20.80	
2025-01-19 07:25:30.91	43.26	20.92	
2025-01-19 07:25:31.92	43.46	21.04	
2025-01-19 07:25:32.94	43.65	21.16	
2025-01-19 07:25:33.95	43.85	21.28	
2025-01-19 07:25:34.97	44.05	21.40	
2025-01-19 07:25:35.98	44.26	21.52	
2025-01-19 07:25:37.00	44.46	21.64	
2025-01-19 07:25:38.01	44.67	21.75	
2025-01-19 07:25:39.03	44.87	21.87	
2025-01-19 07:25:40.05	45.08	22.00	
2025-01-19 07:25:41.06	45.29	22.12	
2025-01-19 07:25:42.08	45.51	22.24	
2025-01-19 07:25:43.09	45.72	22.36	
2025-01-19 07:25:44.11	45.94	22.48	
2025-01-19 07:25:45.12	46.15	22.60	
2025-01-19 07:25:46.14	46.37	22.72	
2025-01-19 07:25:47.15	46.59	22.84	
2025-01-19 07:25:48.17	46.82	22.97	
2025-01-19 07:25:49.18	47.04	23.09	
2025-01-19 07:25:50.20	47.27	23.21	
2025-01-19 07:25:51.21	47.50	23.33	
2025-01-19 07:25:52.23	47.73	23.46	
2025-01-19 07:25:53.25	47.96	23.58	
2025-01-19 07:25:54.26	48.19	23.70	
2025-01-19 07:25:55.28	48.43	23.83	
2025-01-19 07:25:56.29	48.67	23.95	
2025-01-19 07:25:57.31	48.91	24.07	
2025-01-19 07:25:58.32	49.15	24.20	
2025-01-19 07:25:59.34	49.39	24.32	
2025-01-19 07:26:00.35	49.64	24.45	
2025-01-19 07:26:01.37	49.88	24.57	
2025-01-19 07:26:02.38	50.13	24.69	
2025-01-19 07:26:03.40	50.38	24.82	
2025-01-19 07:26:04.42	50.64	24.94	
2025-01-19 07:26:05.43	50.89	25.07	
2025-01-19 07:26:06.45	51.15	25.19	
2025-01-19 07:26:07.46	51.41	25.32	
2025-01-19 07:26:08.48	51.67	25.44	
2025-01-19 07:26:09.49	51.94	25.57	
2025-01-19 07:26:10.51	52.20	25.69	
2025-01-19 07:26:11.52	52.47	25.82	
2025-01-19 07:26:12.54	52.74	25.94	
2025-01-19 07:26:13.55	53.01	26.07	
2025-01-19 07:26:14.57	53.29	26.19	
2025-01-19 07:26:15.58	53.57	26.32	
2025-01-19 07:26:16.60	53.85	26.44	
2025-01-19 07:26:17.62	54.13	26.57	
2025-01-19 07:26:18.63	54.41	26.69	
2025-01-19 07:26:19.65	54.70	26.82	
2025-01-19 07:26:20.66	54.99	26.94	
2025-01-19 07:26:21.68	55.28	27.06	
2025-01-19 07:26:22.69	55.57	27.19	
2025-01-19 07:26:23.71	55.87	27.31	
2025-01-19 07:26:24.72	56.16	27.43	
2025-01-19 07:26:25.74	56.46	27.56	
2025-01-19 07:26:26.75	56.76	27.68	
2025-01-19 07:26:27.77	57.07	27.81	
2025-01-19 07:26:28.78	57.38	27.93	
2025-01-19 07:26:29.80	57.69	28.05	
2025-01-19 07:26:30.82	58.00	28.17	
2025-01-19 07:26:31.83	58.31	28.29	
2025-01-19 07:26:32.85	58.63	28.42	
2025-01-19 07:26:33.86	58.95	28.54	
2025-01-19 07:26:34.88	59.27	28.66	
2025-01-19 07:26:35.89	59.60	28.78	
2025-01-19 07:26:36.91	59.92	28.90	
2025-01-19 07:26:37.92	60.25	29.02	
2025-01-19 07:26:38.94	60.58	29.14	
2025-01-19 07:26:39.95	60.92	29.26	
2025-01-19 07:26:40.97	61.26	29.38	
2025-01-19 07:26:41.98	61.59	29.49	
2025-01-19 07:26:43.00	61.94	29.61	
2025-01-19 07:26:44.02	62.28	29.73	
2025-01-19 07:26:45.03	62.63	29.84	
2025-01-19 07:26:46.05	62.98	29.96	
2025-01-19 07:26:47.06	63.33	30.07	
2025-01-19 07:26:48.08	63.69	30.19	
2025-01-19 07:26:49.09	64.04	30.30	
2025-01-19 07:26:50.11	64.40	30.41	
2025-01-19 07:26:51.12	64.76	30.53	
2025-01-19 07:26:52.14	65.13	30.64	
2025-01-19 07:26:53.15	65.50	30.75	
2025-01-19 07:26:54.17	65.87	30.86	
2025-01-19 07:26:55.18	66.24	30.97	
2025-01-19 07:26:56.20	66.62	31.08	
2025-01-19 07:26:57.22	67.00	31.18	
2025-01-19 07:26:58.23	67.37	31.29	
2025-01-19 07:26:59.25	67.76	31.40	
2025-01-19 07:27:00.26	68.14	31.50	
2025-01-19 07:27:01.28	68.53	31.60	
2025-01-19 07:27:02.29	68.92	31.71	
2025-01-19 07:27:03.31	69.31	31.81	
2025-01-19 07:27:04.32	69.71	31.91	
2025-01-19 07:27:05.34	70.11	32.01	
2025-01-19 07:27:06.35	70.51	32.10	
2025-01-19 07:27:07.37	70.91	32.20	
2025-01-19 07:27:08.38	71.31	32.30	
2025-01-19 07:27:09.40	71.72	32.39	
2025-01-19 07:27:10.42	72.14	32.49	
2025-01-19 07:27:11.43	72.55	32.58	
2025-01-19 07:27:12.45	72.96	32.67	
2025-01-19 07:27:13.46	73.38	32.76	
2025-01-19 07:27:14.48	73.80	32.85	
2025-01-19 07:27:15.49	74.22	32.93	
2025-01-19 07:27:16.51	74.65	33.02	
2025-01-19 07:27:17.52	75.07	33.10	
2025-01-19 07:27:18.54	75.50	33.18	
2025-01-19 07:27:19.55	75.93	33.27	
2025-01-19 07:27:20.57	76.37	33.35	
2025-01-19 07:27:21.58	76.80	33.42	
2025-01-19 07:27:22.60	77.24	33.50	
2025-01-19 07:27:23.62	77.68	33.57	
2025-01-19 07:27:24.63	78.12	33.65	
2025-01-19 07:27:25.65	78.56	33.72	
2025-01-19 07:27:26.66	79.01	33.79	
2025-01-19 07:27:27.68	79.46	33.86	
2025-01-19 07:27:28.69	79.90	33.92	
2025-01-19 07:27:29.71	80.36	33.99	
2025-01-19 07:27:30.72	80.81	34.05	
2025-01-19 07:27:31.74	81.26	34.11	
2025-01-19 07:27:32.75	81.72	34.17	
2025-01-19 07:27:33.77	82.18	34.23	
2025-01-19 07:27:34.79	82.64	34.28	
2025-01-19 07:27:35.80	83.10	34.34	
2025-01-19 07:27:36.82	83.56	34.39	
2025-01-19 07:27:37.83	84.03	34.44	
2025-01-19 07:27:38.85	84.49	34.49	
2025-01-19 07:27:39.86	84.96	34.53	
2025-01-19 07:27:40.88	85.43	34.58	
2025-01-19 07:27:41.89	85.90	34.62	
2025-01-19 07:27:42.91	86.37	34.66	
2025-01-19 07:27:43.92	86.84	34.70	
2025-01-19 07:27:44.94	87.32	34.73	
2025-01-19 07:27:45.95	87.79	34.77	
2025-01-19 07:27:46.97	88.26	34.80	
2025-01-19 07:27:47.99	88.74	34.83	
2025-01-19 07:27:49.00	89.22	34.85	
2025-01-19 07:27:50.02	89.70	34.88	
2025-01-19 07:27:51.03	90.17	34.90	
2025-01-19 07:27:52.05	90.65	34.92	
2025-01-19 07:27:53.06	91.13	34.94	
2025-01-19 07:27:54.08	91.61	34.96	
2025-01-19 07:27:55.09	92.09	34.97	
2025-01-19 07:27:56.11	92.58	34.99	
2025-01-19 07:27:57.12	93.05	35.00	
2025-01-19 07:27:58.14	93.54	35.00	
2025-01-19 07:27:59.15	94.02	35.01	
2025-01-19 07:28:00.17	94.50	35.01	
2025-01-19 07:28:01.19	94.99	35.01	
2025-01-19 07:28:02.20	95.47	35.01	
2025-01-19 07:28:03.22	95.95	35.01	
2025-01-19 07:28:04.23	96.43	35.01	
2025-01-19 07:28:05.25	96.92	35.00	
2025-01-19 07:28:06.26	97.39	34.99	
2025-01-19 07:28:07.28	97.88	34.98	
2025-01-19 07:28:08.29	98.36	34.96	
2025-01-19 07:28:09.31	98.84	34.95	
2025-01-19 07:28:10.32	99.32	34.93	
2025-01-19 07:28:11.34	99.80	34.91	
2025-01-19 07:28:12.35	100.28	34.89	
2025-01-19 07:28:13.37	100.76	34.86	
2025-01-19 07:28:14.39	101.24	34.83	
2025-01-19 07:28:15.40	101.71	34.80	
2025-01-19 07:28:16.42	102.19	34.77	
2025-01-19 07:28:17.43	102.66	34.74	
2025-01-19 07:28:18.45	103.14	34.71	
2025-01-19 07:28:19.46	103.61	34.67	
2025-01-19 07:28:20.48	104.08	34.63	
2025-01-19 07:28:21.49	104.55	34.59	
2025-01-19 07:28:22.51	105.02	34.54	
2025-01-19 07:28:23.52	105.49	34.50	
2025-01-19 07:28:24.54	105.96	34.45	
2025-01-19 07:28:25.55	106.42	34.40	
2025-01-19 07:28:26.57	106.88	34.35	
2025-01-19 07:28:27.59	107.35	34.30	
2025-01-19 07:28:28.60	107.81	34.24	
2025-01-19 07:28:29.62	108.27	34.19	
2025-01-19 07:28:30.63	108.72	34.13	
2025-01-19 07:28:31.65	109.18	34.07	
2025-01-19 07:28:32.66	109.63	34.00	
2025-01-19 07:28:33.68	110.09	33.94	
2025-01-19 07:28:34.69	110.54	33.87	
2025-01-19 07:28:35.71	110.99	33.81	
2025-01-19 07:28:36.72	111.43	33.74	
2025-01-19 07:28:37.74	111.88	33.66	
2025-01-19 07:28:38.75	112.32	33.59	
2025-01-19 07:28:39.77	112.76	33.52	
2025-01-19 07:28:40.79	113.20	33.44	
2025-01-19 07:28:41.80	113.64	33.36	
2025-01-19 07:28:42.82	114.07	33.28	
2025-01-19 07:28:43.83	114.50	33.20	
2025-01-19 07:28:44.85	114.94	33.12	
2025-01-19 07:28:45.86	115.36	33.04	
2025-01-19 07:28:46.88	115.79	32.95	
2025-01-19 07:28:47.89	116.21	32.86	
2025-01-19 07:28:48.91	116.64	32.78	
2025-01-19 07:28:49.92	117.05	32.69	
2025-01-19 07:28:50.94	117.47	32.60	
2025-01-19 07:28:51.95	117.88	32.50	
2025-01-19 07:28:52.97	118.30	32.41	
2025-01-19 07:28:53.99	118.71	32.32	
2025-01-19 07:28:55.00	119.11	32.22	
2025-01-19 07:28:56.02	119.52	32.12	
2025-01-19 07:28:57.03	119.92	32.02	
2025-01-19 07:28:58.05	120.32	31.93	
2025-01-19 07:28:59.06	120.72	31.83	
2025-01-19 07:29:00.08	121.11	31.72	
2025-01-19 07:29:01.09	121.50	31.62	
2025-01-19 07:29:02.11	121.89	31.52	
2025-01-19 07:29:03.12	122.28	31.41	
2025-01-19 07:29:04.14	122.67	31.31	
2025-01-19 07:29:05.16	123.05	31.20	
2025-01-19 07:29:06.17	123.43	31.09	
2025-01-19 07:29:07.19	123.81	30.98	
2025-01-19 07:29:08.20	124.18	30.87	
2025-01-19 07:29:09.22	124.55	30.76	
2025-01-19 07:29:10.23	124.92	30.65	
2025-01-19 07:29:11.25	125.29	30.54	
2025-01-19 07:29:12.26	125.65	30.43	
2025-01-19 07:29:13.28	126.01	30.32	
2025-01-19 07:29:14.29	126.37	30.20	
2025-01-19 07:29:15.31	126.73	30.09	
2025-01-19 07:29:16.32	127.08	29.97	
2025-01-19 07:29:17.34	127.43	29.86	
2025-01-19 07:29:18.35	127.78	29.74	
2025-01-19 07:29:19.37	128.13	29.62	
2025-01-19 07:29:20.39	128.47	29.50	
2025-01-19 07:29:21.40	128.81	29.39	
2025-01-19 07:29:22.42	129.15	29.27	
2025-01-19 07:29:23.43	129.49	29.15	
2025-01-19 07:29:24.45	129.82	29.03	
2025-01-19 07:29:25.46	130.15	28.91	
2025-01-19 07:29:26.48	130.48	28.79	
2025-01-19 07:29:27.49	130.81	28.67	
2025-01-19 07:29:28.51	131.13	28.54	
2025-01-19 07:29:29.52	131.45	28.42	
2025-01-19 07:29:30.54	131.77	28.30	
2025-01-19 07:29:31.56	132.09	28.18	
2025-01-19 07:29:32.57	132.40	28.05	
2025-01-19 07:29:33.59	132.71	27.93	
2025-01-19 07:29:34.60	133.02	27.81	
2025-01-19 07:29:35.62	133.33	27.68	
2025-01-19 07:29:36.63	133.63	27.56	
2025-01-19 07:29:37.65	133.93	27.44	
2025-01-19 07:29:38.66	134.23	27.31	
2025-01-19 07:29:39.68	134.53	27.19	
2025-01-19 07:29:40.69	134.82	27.06	
2025-01-19 07:29:41.71	135.12	26.94	
2025-01-19 07:29:42.72	135.40	26.81	
2025-01-19 07:29:43.74	135.69	26.69	
2025-01-19 07:29:44.76	135.98	26.56	
2025-01-19 07:29:45.77	136.26	26.44	
2025-01-19 07:29:46.79	136.54	26.31	
2025-01-19 07:29:47.80	136.82	26.19	
2025-01-19 07:29:48.82	137.10	26.06	
2025-01-19 07:29:49.83	137.37	25.93	
2025-01-19 07:29:50.85	137.64	25.81	
2025-01-19 07:29:51.86	137.91	25.68	
2025-01-19 07:29:52.88	138.18	25.56	
2025-01-19 07:29:53.89	138.44	25.43	
2025-01-19 07:29:54.91	138.71	25.31	
2025-01-19 07:29:55.92	138.97	25.18	
2025-01-19 07:29:56.94	139.23	25.05	
2025-01-19 07:29:57.96	139.49	24.93	
2025-01-19 07:29:58.97	139.74	24.80	
2025-01-19 07:29:59.99	139.99	24.68	
2025-01-19 07:30:01.00	140.24	24.55	
2025-01-19 07:30:02.02	140.49	24.43	
2025-01-19 07:30:03.03	140.74	24.30	
2025-01-19 07:30:04.05	140.98	24.18	
2025-01-19 07:30:05.06	141.22	24.05	
2025-01-19 07:30:06.08	141.47	23.93	
2025-01-19 07:30:07.09	141.70	23.81	
2025-01-19 07:30:08.11	141.94	23.68	
2025-01-19 07:30:09.12	142.17	23.56	
2025-01-19 07:30:10.14	142.41	23.43	
2025-01-19 07:30:11.16	142.64	23.31	
2025-01-19 07:30:12.17	142.87	23.19	
2025-01-19 07:30:13.19	143.10	23.06	
2025-01-19 07:30:14.20	143.32	22.94	
2025-01-19 07:30:15.22	143.55	22.82	
2025-01-19 07:30:16.23	143.77	22.69	
2025-01-19 07:30:17.25	143.99	22.57	
2025-01-19 07:30:18.26	144.21	22.45	
2025-01-19 07:30:19.28	144.42	22.33	
2025-01-19 07:30:20.29	144.64	22.20	
2025-01-19 07:30:21.31	144.85	22.08	
2025-01-19 07:30:22.32	145.06	21.96	
2025-01-19 07:30:23.34	145.27	21.84	
2025-01-19 07:30:24.36	145.48	21.72	
2025-01-19 07:30:25.37	145.69	21.60	
2025-01-19 07:30:26.39	145.89	21.48	
2025-01-19 07:30:27.40	146.10	21.36	
2025-01-19 07:30:28.42	146.30	21.24	
2025-01-19 07:30:29.43	146.50	21.12	
2025-01-19 07:30:30.45	146.70	21.00	
2025-01-19 07:30:31.46	146.89	20.88	
2025-01-19 07:30:32.48	147.09	20.76	
2025-01-19 07:30:33.49	147.28	20.64	
2025-01-19 07:30:34.51	147.48	20.53	
2025-01-19 07:30:35.52	147.67	20.41	
2025-01-19 07:30:36.54	147.86	20.29	
2025-01-19 07:30:37.56	148.04	20.17	
2025-01-19 07:30:38.57	148.23	20.06	
2025-01-19 07:30:39.59	148.42	19.94	
2025-01-19 07:30:40.60	148.60	19.82	
2025-01-19 07:30:41.62	148.78	19.71	
2025-01-19 07:30:42.63	148.96	19.59	
2025-01-19 07:30:43.65	149.14	19.48	
2025-01-19 07:30:44.66	149.32	19.36	
2025-01-19 07:30:45.68	149.50	19.25	
2025-01-19 07:30:46.69	149.67	19.13	
2025-01-19 07:30:47.71	149.84	19.02	
2025-01-19 07:30:48.73	150.02	18.90	
2025-01-19 07:30:49.74	150.19	18.79	
2025-01-19 07:30:50.76	150.36	18.68	
2025-01-19 07:30:51.77	150.53	18.57	
2025-01-19 07:30:52.79	150.69	18.45	
2025-01-19 07:30:53.80	150.86	18.34	
2025-01-19 07:30:54.82	151.03	18.23	
2025-01-19 07:30:55.83	151.19	18.12	
2025-01-19 07:30:56.85	151.35	18.01	
2025-01-19 07:30:57.86	151.51	17.90	
2025-01-19 07:30:58.88	151.67	17.79	
2025-01-19 07:30:59.89	151.83	17.68	
2025-01-19 07:31:00.91	151.99	17.57	
2025-01-19 07:31:01.93	152.15	17.46	
2025-01-19 07:31:02.94	152.30	17.35	
2025-01-19 07:31:03.96	152.46	17.24	
2025-01-19 07:31:04.97	152.61	17.13	
2025-01-19 07:31:05.99	152.76	17.02	
2025-01-19 07:31:07.00	152.91	16.92	
2025-01-19 07:31:08.02	153.06	16.81	
2025-01-19 07:31:09.03	153.21	16.70	
2025-01-19 07:31:10.05	153.36	16.60	
2025-01-19 07:31:11.06	153.50	16.49	
2025-01-19 07:31:12.08	153.65	16.38	
2025-01-19 07:31:13.09	153.79	16.28	
2025-01-19 07:31:14.11	153.94	16.17	
2025-01-19 07:31:15.13	154.08	16.07	
2025-01-19 07:31:16.14	154.22	15.96	
2025-01-19 07:31:17.16	154.36	15.86	
2025-01-19 07:31:18.17	154.50	15.76	
2025-01-19 07:31:19.19	154.64	15.65	
2025-01-19 07:31:20.20	154.77	15.55	
2025-01-19 07:31:21.22	154.91	15.45	
2025-01-19 07:31:22.23	155.05	15.34	
2025-01-19 07:31:23.25	155.18	15.24	
2025-01-19 07:31:24.26	155.31	15.14	
2025-01-19 07:31:25.28	155.45	15.04	
2025-01-19 07:31:26.29	155.58	14.94	
2025-01-19 07:31:27.31	155.71	14.84	
2025-01-19 07:31:28.33	155.84	14.74	
2025-01-19 07:31:29.34	155.97	14.64	
2025-01-19 07:31:30.36	156.10	14.54	
2025-01-19 07:31:31.37	156.22	14.44	
2025-01-19 07:31:32.39	156.35	14.34	
2025-01-19 07:31:33.40	156.47	14.24	
2025-01-19 07:31:34.42	156.60	14.14	
2025-01-19 07:31:35.43	156.72	14.04	
2025-01-19 07:31:36.45	156.84	13.94	
2025-01-19 07:31:37.46	156.97	13.85	
2025-01-19 07:31:38.48	157.09	13.75	
2025-01-19 07:31:39.49	157.21	13.65	
2025-01-19 07:31:40.51	157.33	13.56	
2025-01-19 07:31:41.53	157.45	13.46	
2025-01-19 07:31:42.54	157.56	13.36	
2025-01-19 07:31:43.56	157.68	13.27	
2025-01-19 07:31:44.57	157.80	13.17	
2025-01-19 07:31:45.59	157.91	13.08	
2025-01-19 07:31:46.60	158.03	12.98	
2025-01-19 07:31:47.62	158.14	12.89	
2025-01-19 07:31:48.63	158.25	12.79	
2025-01-19 07:31:49.65	158.37	12.70	
2025-01-19 07:31:50.66	158.48	12.61	
2025-01-19 07:31:51.68	158.59	12.51	
2025-01-19 07:31:52.69	158.70	12.42	
2025-01-19 07:31:53.71	158.81	12.33	
2025-01-19 07:31:54.73	158.92	12.24	
2025-01-19 07:31:55.74	159.03	12.14	
2025-01-19 07:31:56.76	159.14	12.05	
2025-01-19 07:31:57.77	159.24	11.96	
2025-01-19 07:31:58.79	159.35	11.87	
2025-01-19 07:31:59.80	159.45	11.78	
2025-01-19 07:32:00.82	159.56	11.69	
2025-01-19 07:32:01.83	159.66	11.60	
2025-01-19 07:32:02.85	159.77	11.51	
2025-01-19 07:32:03.86	159.87	11.42	
2025-01-19 07:32:04.88	159.97	11.33	
2025-01-19 07:32:05.89	160.07	11.24	
2025-01-19 07:32:06.91	160.17	11.15	
2025-01-19 07:32:07.93	160.27	11.06	
2025-01-19 07:32:08.94	160.37	10.97	
2025-01-19 07:32:09.96	160.47	10.89	
2025-01-19 07:32:10.97	160.57	10.80	
2025-01-19 07:32:11.99	160.67	10.71	
2025-01-19 07:32:13.00	160.77	10.62	
2025-01-19 07:32:14.02	160.86	10.54	
2025-01-19 07:32:15.03	160.96	10.45	
2025-01-19 07:32:16.05	161.05	10.36	
2025-01-19 07:32:17.06	161.15	10.28	
2025-01-19 07:32:18.08	161.24	10.19	
2025-01-19 07:32:19.10	161.34	10.11	
2025-01-19 07:32:20.11	161.43	10.02	
2025-01-19 07:32:21.13	161.52	9.94	
2025-01-19 07:32:22.14	161.62	9.85	
2025-01-19 07:32:23.16	161.71	9.77	
2025-01-19 07:32:24.17	161.80	9.68	
2025-01-19 07:32:25.19	161.89	9.60	
2025-01-19 07:32:26.20	161.98	9.52	
2025-01-19 07:32:27.22	162.07	9.43	
2025-01-19 07:32:28.23	162.16	9.35	
2025-01-19 07:32:29.25	162.25	9.27	
2025-01-19 07:32:30.26	162.33	9.19	
2025-01-19 07:32:31.28	162.42	9.10	
2025-01-19 07:32:32.30	162.51	9.02	
2025-01-19 07:32:33.31	162.59	8.94	
2025-01-19 07:32:34.33	162.68	8.86	
2025-01-19 07:32:35.34	162.76	8.78	
2025-01-19 07:32:36.36	162.85	8.69	
2025-01-19 07:32:37.37	162.93	8.61	
2025-01-19 07:32:38.39	163.02	8.53	
2025-01-19 07:32:39.40	163.10	8.45	
2025-01-19 07:32:40.42	163.18	8.37	
2025-01-19 07:32:41.43	163.27	8.29	
2025-01-19 07:32:42.45	163.35	8.21	
2025-01-19 07:32:43.46	163.43	8.13	
2025-01-19 07:32:44.48	163.51	8.05	
2025-01-19 07:32:45.50	163.59	7.97	
2025-01-19 07:32:46.51	163.67	7.90	
2025-01-19 07:32:47.53	163.75	7.82	
2025-01-19 07:32:48.54	163.83	7.74	
2025-01-19 07:32:49.56	163.91	7.66	
2025-01-19 07:32:50.57	163.99	7.58	
2025-01-19 07:32:51.59	164.07	7.50	
2025-01-19 07:32:52.60	164.14	7.43	
2025-01-19 07:32:53.62	164.22	7.35	
2025-01-19 07:32:54.63	164.30	7.27	
2025-01-19 07:32:55.65	164.37	7.20	
2025-01-19 07:32:56.66	164.45	7.12	
2025-01-19 07:32:57.68	164.52	7.04	
2025-01-19 07:32:58.70	164.60	6.97	
2025-01-19 07:32:59.71	164.67	6.89	
2025-01-19 07:33:00.73	164.75	6.82	
2025-01-19 07:33:01.74	164.82	6.74	
2025-01-19 07:33:02.76	164.90	6.66	
2025-01-19 07:33:03.77	164.97	6.59	
2025-01-19 07:33:04.79	165.04	6.52	
2025-01-19 07:33:05.80	165.11	6.44	
2025-01-19 07:33:06.82	165.18	6.37	
2025-01-19 07:33:07.83	165.26	6.29	
2025-01-19 07:33:08.85	165.33	6.22	
2025-01-19 07:33:09.86	165.40	6.14	
2025-01-19 07:33:10.88	165.47	6.07	
2025-01-19 07:33:11.90	165.54	6.00	
2025-01-19 07:33:12.91	165.61	5.92	
2025-01-19 07:33:13.93	165.68	5.85	
2025-01-19 07:33:14.94	165.75	5.78	
2025-01-19 07:33:15.96	165.82	5.70	
2025-01-19 07:33:16.97	165.88	5.63	
2025-01-19 07:33:17.99	165.95	5.56	
2025-01-19 07:33:19.00	166.02	5.49	
2025-01-19 07:33:20.02	166.09	5.42	
2025-01-19 07:33:21.03	166.15	5.34	
2025-01-19 07:33:22.05	166.22	5.27	
2025-01-19 07:33:23.06	166.28	5.20	
2025-01-19 07:33:24.08	166.35	5.13	
2025-01-19 07:33:25.10	166.42	5.06	
2025-01-19 07:33:26.11	166.48	4.99	
2025-01-19 07:33:27.13	166.55	4.92	
2025-01-19 07:33:28.14	166.61	4.85	
2025-01-19 07:33:29.16	166.68	4.78	
2025-01-19 07:33:30.17	166.74	4.71	
2025-01-19 07:33:31.19	166.80	4.64	
2025-01-19 07:33:32.20	166.87	4.57	
2025-01-19 07:33:33.22	166.93	4.50	
2025-01-19 07:33:34.23	166.99	4.43	
2025-01-19 07:33:35.25	167.05	4.36	
2025-01-19 07:33:36.26	167.12	4.29	
2025-01-19 07:33:37.28	167.18	4.22	
2025-01-19 07:33:38.30	167.24	4.15	
2025-01-19 07:33:39.31	167.30	4.08	
2025-01-19 07:33:40.33	167.36	4.02	

#Closed at: 2025-01-19 07:33:40