passes_logs/2025/01/19/SPB_Silybum_02/SPB_Silybum_02__20250119_035848_SUOMI_NPP_rec.log

#Pass ID: 20250119_035848_SUOMI NPP
#Satellite: SUOMI NPP
#Configuration: NPP
#Start time: 2025-01-19 03:58:48

#Version: 2.0.20230423
#Station: SPB_Silybum_02
#Location: 30.233357 lon 59.946436 lat
#TLE: 1 37849U 11061A   25018.16218063  .00000203  00000+0  11733-3 0  9995
#TLE: 2 37849  98.7450 319.1107 0001555  36.1075 324.0206 14.19539838685362

#Time	Az	El	Level	Level2	SNR	BER	Gain	Gain2
2025-01-19 03:58:50.46	16.09	4.07	
2025-01-19 03:58:51.28	16.00	4.10	
2025-01-19 03:58:52.09	15.90	4.14	
2025-01-19 03:58:52.90	15.81	4.17	
2025-01-19 03:58:53.71	15.71	4.20	
2025-01-19 03:58:54.53	15.61	4.24	
2025-01-19 03:58:55.34	15.52	4.27	
2025-01-19 03:58:56.15	15.42	4.30	
2025-01-19 03:58:56.97	15.32	4.34	
2025-01-19 03:58:57.78	15.22	4.37	
2025-01-19 03:58:58.59	15.13	4.40	
2025-01-19 03:58:59.40	15.03	4.43	
2025-01-19 03:59:00.22	14.93	4.47	
2025-01-19 03:59:01.03	14.83	4.50	
2025-01-19 03:59:01.84	14.73	4.53	
2025-01-19 03:59:02.66	14.63	4.56	
2025-01-19 03:59:03.47	14.53	4.60	
2025-01-19 03:59:04.28	14.43	4.63	
2025-01-19 03:59:05.09	14.34	4.66	
2025-01-19 03:59:05.91	14.23	4.69	
2025-01-19 03:59:06.72	14.13	4.73	
2025-01-19 03:59:07.53	14.03	4.76	
2025-01-19 03:59:08.35	13.93	4.79	
2025-01-19 03:59:09.16	13.83	4.82	
2025-01-19 03:59:09.97	13.73	4.85	
2025-01-19 03:59:10.78	13.63	4.89	
2025-01-19 03:59:11.60	13.53	4.92	
2025-01-19 03:59:12.41	13.43	4.95	
2025-01-19 03:59:13.22	13.33	4.98	
2025-01-19 03:59:14.04	13.22	5.01	
2025-01-19 03:59:14.85	13.12	5.05	
2025-01-19 03:59:15.66	13.02	5.08	
2025-01-19 03:59:16.47	12.92	5.11	
2025-01-19 03:59:17.29	12.81	5.14	
2025-01-19 03:59:18.10	12.71	5.17	
2025-01-19 03:59:18.91	12.61	5.20	
2025-01-19 03:59:19.73	12.50	5.24	
2025-01-19 03:59:20.54	12.40	5.27	
2025-01-19 03:59:21.35	12.29	5.30	
2025-01-19 03:59:22.16	12.19	5.33	
2025-01-19 03:59:22.98	12.08	5.36	
2025-01-19 03:59:23.79	11.98	5.39	
2025-01-19 03:59:24.60	11.87	5.42	
2025-01-19 03:59:25.42	11.77	5.46	
2025-01-19 03:59:26.23	11.66	5.49	
2025-01-19 03:59:27.04	11.56	5.52	
2025-01-19 03:59:27.85	11.45	5.55	
2025-01-19 03:59:28.67	11.34	5.58	
2025-01-19 03:59:29.48	11.24	5.61	
2025-01-19 03:59:30.29	11.13	5.64	
2025-01-19 03:59:31.11	11.02	5.67	
2025-01-19 03:59:31.92	10.92	5.70	
2025-01-19 03:59:32.73	10.81	5.73	
2025-01-19 03:59:33.54	10.70	5.76	
2025-01-19 03:59:34.36	10.59	5.80	
2025-01-19 03:59:35.17	10.49	5.83	
2025-01-19 03:59:35.98	10.38	5.86	
2025-01-19 03:59:36.80	10.27	5.89	
2025-01-19 03:59:37.61	10.16	5.92	
2025-01-19 03:59:38.42	10.05	5.95	
2025-01-19 03:59:39.23	9.94	5.98	
2025-01-19 03:59:40.05	9.83	6.01	
2025-01-19 03:59:40.86	9.72	6.04	
2025-01-19 03:59:41.67	9.61	6.07	
2025-01-19 03:59:42.49	9.50	6.10	
2025-01-19 03:59:43.30	9.39	6.13	
2025-01-19 03:59:44.11	9.28	6.16	
2025-01-19 03:59:44.92	9.17	6.19	
2025-01-19 03:59:45.74	9.06	6.22	
2025-01-19 03:59:46.55	8.95	6.25	
2025-01-19 03:59:47.36	8.84	6.28	
2025-01-19 03:59:48.18	8.72	6.31	
2025-01-19 03:59:48.99	8.61	6.34	
2025-01-19 03:59:49.80	8.50	6.36	
2025-01-19 03:59:50.61	8.39	6.39	
2025-01-19 03:59:51.43	8.27	6.42	
2025-01-19 03:59:52.24	8.16	6.45	
2025-01-19 03:59:53.05	8.05	6.48	
2025-01-19 03:59:53.87	7.93	6.51	
2025-01-19 03:59:54.68	7.82	6.54	
2025-01-19 03:59:55.49	7.71	6.57	
2025-01-19 03:59:56.30	7.59	6.60	
2025-01-19 03:59:57.12	7.48	6.63	
2025-01-19 03:59:57.93	7.36	6.65	
2025-01-19 03:59:58.74	7.25	6.68	
2025-01-19 03:59:59.56	7.13	6.71	
2025-01-19 04:00:00.37	7.02	6.74	
2025-01-19 04:00:01.18	6.90	6.77	
2025-01-19 04:00:01.99	6.79	6.80	
2025-01-19 04:00:02.81	6.67	6.83	
2025-01-19 04:00:03.62	6.55	6.85	
2025-01-19 04:00:04.43	6.44	6.88	
2025-01-19 04:00:05.25	6.32	6.91	
2025-01-19 04:00:06.06	6.20	6.94	
2025-01-19 04:00:06.87	6.09	6.96	
2025-01-19 04:00:07.68	5.97	6.99	
2025-01-19 04:00:08.50	5.85	7.02	
2025-01-19 04:00:09.31	5.73	7.05	
2025-01-19 04:00:10.12	5.62	7.07	
2025-01-19 04:00:10.94	5.50	7.10	
2025-01-19 04:00:11.75	5.38	7.13	
2025-01-19 04:00:12.56	5.26	7.16	
2025-01-19 04:00:13.37	5.14	7.18	
2025-01-19 04:00:14.19	5.02	7.21	
2025-01-19 04:00:15.00	4.90	7.24	
2025-01-19 04:00:15.81	4.78	7.26	
2025-01-19 04:00:16.63	4.66	7.29	
2025-01-19 04:00:17.44	4.54	7.32	
2025-01-19 04:00:18.25	4.42	7.34	
2025-01-19 04:00:19.06	4.30	7.37	
2025-01-19 04:00:19.88	4.18	7.40	
2025-01-19 04:00:20.69	4.06	7.42	
2025-01-19 04:00:21.50	3.94	7.45	
2025-01-19 04:00:22.32	3.82	7.48	
2025-01-19 04:00:23.13	3.70	7.50	
2025-01-19 04:00:23.94	3.57	7.53	
2025-01-19 04:00:24.75	3.45	7.55	
2025-01-19 04:00:25.57	3.33	7.58	
2025-01-19 04:00:26.38	3.21	7.60	
2025-01-19 04:00:27.19	3.08	7.63	
2025-01-19 04:00:28.01	2.96	7.66	
2025-01-19 04:00:28.82	2.84	7.68	
2025-01-19 04:00:29.63	2.71	7.71	
2025-01-19 04:00:30.44	2.59	7.73	
2025-01-19 04:00:31.26	2.47	7.76	
2025-01-19 04:00:32.07	2.34	7.78	
2025-01-19 04:00:32.88	2.22	7.81	
2025-01-19 04:00:33.70	2.09	7.83	
2025-01-19 04:00:34.51	1.97	7.86	
2025-01-19 04:00:35.32	1.84	7.88	
2025-01-19 04:00:36.13	1.72	7.90	
2025-01-19 04:00:36.95	1.59	7.93	
2025-01-19 04:00:37.76	1.47	7.95	
2025-01-19 04:00:38.57	1.34	7.98	
2025-01-19 04:00:39.39	1.22	8.00	
2025-01-19 04:00:40.20	1.09	8.02	
2025-01-19 04:00:41.01	0.96	8.05	
2025-01-19 04:00:41.82	0.84	8.07	
2025-01-19 04:00:42.64	0.71	8.10	
2025-01-19 04:00:43.45	0.58	8.12	
2025-01-19 04:00:44.26	0.46	8.14	
2025-01-19 04:00:45.08	0.33	8.16	
2025-01-19 04:00:45.89	0.20	8.19	
2025-01-19 04:00:46.70	0.07	8.21	
2025-01-19 04:00:47.51	359.95	8.23	
2025-01-19 04:00:48.33	359.82	8.26	
2025-01-19 04:00:49.14	359.69	8.28	
2025-01-19 04:00:49.95	359.56	8.30	
2025-01-19 04:00:50.77	359.43	8.32	
2025-01-19 04:00:51.58	359.30	8.35	
2025-01-19 04:00:52.39	359.17	8.37	
2025-01-19 04:00:53.20	359.04	8.39	
2025-01-19 04:00:54.02	358.91	8.41	
2025-01-19 04:00:54.83	358.78	8.43	
2025-01-19 04:00:55.64	358.65	8.46	
2025-01-19 04:00:56.45	358.52	8.48	
2025-01-19 04:00:57.27	358.39	8.50	
2025-01-19 04:00:58.08	358.26	8.52	
2025-01-19 04:00:58.89	358.13	8.54	
2025-01-19 04:00:59.71	358.00	8.56	
2025-01-19 04:01:00.52	357.87	8.58	
2025-01-19 04:01:01.33	357.74	8.60	
2025-01-19 04:01:02.14	357.61	8.62	
2025-01-19 04:01:02.96	357.47	8.64	
2025-01-19 04:01:03.77	357.34	8.66	
2025-01-19 04:01:04.58	357.21	8.69	
2025-01-19 04:01:05.40	357.08	8.71	
2025-01-19 04:01:06.21	356.94	8.73	
2025-01-19 04:01:07.02	356.81	8.75	
2025-01-19 04:01:07.83	356.68	8.76	
2025-01-19 04:01:08.65	356.54	8.78	
2025-01-19 04:01:09.46	356.41	8.80	
2025-01-19 04:01:10.27	356.28	8.82	
2025-01-19 04:01:11.09	356.14	8.84	
2025-01-19 04:01:11.90	356.01	8.86	
2025-01-19 04:01:12.71	355.88	8.88	
2025-01-19 04:01:13.52	355.74	8.90	
2025-01-19 04:01:14.34	355.61	8.92	
2025-01-19 04:01:15.15	355.47	8.94	
2025-01-19 04:01:15.96	355.34	8.95	
2025-01-19 04:01:16.78	355.20	8.97	
2025-01-19 04:01:17.59	355.07	8.99	
2025-01-19 04:01:18.40	354.93	9.01	
2025-01-19 04:01:19.21	354.80	9.03	
2025-01-19 04:01:20.03	354.66	9.04	
2025-01-19 04:01:20.84	354.53	9.06	
2025-01-19 04:01:21.65	354.39	9.08	
2025-01-19 04:01:22.47	354.25	9.10	
2025-01-19 04:01:23.28	354.12	9.11	
2025-01-19 04:01:24.09	353.98	9.13	
2025-01-19 04:01:24.90	353.85	9.15	
2025-01-19 04:01:25.72	353.71	9.16	
2025-01-19 04:01:26.53	353.57	9.18	
2025-01-19 04:01:27.34	353.43	9.20	
2025-01-19 04:01:28.16	353.30	9.21	
2025-01-19 04:01:28.97	353.16	9.23	
2025-01-19 04:01:29.78	353.02	9.25	
2025-01-19 04:01:30.59	352.88	9.26	
2025-01-19 04:01:31.41	352.75	9.28	
2025-01-19 04:01:32.22	352.61	9.29	
2025-01-19 04:01:33.03	352.47	9.31	
2025-01-19 04:01:33.85	352.33	9.32	
2025-01-19 04:01:34.66	352.19	9.34	
2025-01-19 04:01:35.47	352.06	9.35	
2025-01-19 04:01:36.28	351.92	9.37	
2025-01-19 04:01:37.10	351.78	9.38	
2025-01-19 04:01:37.91	351.64	9.40	
2025-01-19 04:01:38.72	351.50	9.41	
2025-01-19 04:01:39.54	351.36	9.43	
2025-01-19 04:01:40.35	351.22	9.44	
2025-01-19 04:01:41.16	351.08	9.45	
2025-01-19 04:01:41.97	350.94	9.47	
2025-01-19 04:01:42.79	350.80	9.48	
2025-01-19 04:01:43.60	350.66	9.49	
2025-01-19 04:01:44.41	350.52	9.51	
2025-01-19 04:01:45.23	350.38	9.52	
2025-01-19 04:01:46.04	350.24	9.53	
2025-01-19 04:01:46.85	350.10	9.55	
2025-01-19 04:01:47.66	349.96	9.56	
2025-01-19 04:01:48.48	349.82	9.57	
2025-01-19 04:01:49.29	349.68	9.58	
2025-01-19 04:01:50.10	349.54	9.60	
2025-01-19 04:01:50.92	349.40	9.61	
2025-01-19 04:01:51.73	349.25	9.62	
2025-01-19 04:01:52.54	349.11	9.63	
2025-01-19 04:01:53.35	348.97	9.64	
2025-01-19 04:01:54.17	348.83	9.65	
2025-01-19 04:01:54.98	348.69	9.67	
2025-01-19 04:01:55.79	348.55	9.68	
2025-01-19 04:01:56.61	348.40	9.69	
2025-01-19 04:01:57.42	348.26	9.70	
2025-01-19 04:01:58.23	348.12	9.71	
2025-01-19 04:01:59.04	347.98	9.72	
2025-01-19 04:01:59.86	347.84	9.73	
2025-01-19 04:02:00.67	347.69	9.74	
2025-01-19 04:02:01.48	347.55	9.75	
2025-01-19 04:02:02.30	347.41	9.76	
2025-01-19 04:02:03.11	347.27	9.77	
2025-01-19 04:02:03.92	347.12	9.78	
2025-01-19 04:02:04.73	346.98	9.79	
2025-01-19 04:02:05.55	346.84	9.80	
2025-01-19 04:02:06.36	346.69	9.80	
2025-01-19 04:02:07.17	346.55	9.81	
2025-01-19 04:02:07.99	346.41	9.82	
2025-01-19 04:02:08.80	346.26	9.83	
2025-01-19 04:02:09.61	346.12	9.84	
2025-01-19 04:02:10.42	345.98	9.85	
2025-01-19 04:02:11.24	345.83	9.85	
2025-01-19 04:02:12.05	345.69	9.86	
2025-01-19 04:02:12.86	345.55	9.87	
2025-01-19 04:02:13.68	345.40	9.88	
2025-01-19 04:02:14.49	345.26	9.88	
2025-01-19 04:02:15.30	345.12	9.89	
2025-01-19 04:02:16.11	344.97	9.90	
2025-01-19 04:02:16.93	344.83	9.90	
2025-01-19 04:02:17.74	344.68	9.91	
2025-01-19 04:02:18.55	344.54	9.92	
2025-01-19 04:02:19.37	344.39	9.92	
2025-01-19 04:02:20.18	344.25	9.93	
2025-01-19 04:02:20.99	344.11	9.93	
2025-01-19 04:02:21.80	343.96	9.94	
2025-01-19 04:02:22.62	343.82	9.95	
2025-01-19 04:02:23.43	343.67	9.95	
2025-01-19 04:02:24.24	343.53	9.96	
2025-01-19 04:02:25.06	343.38	9.96	
2025-01-19 04:02:25.87	343.24	9.97	
2025-01-19 04:02:26.68	343.09	9.97	
2025-01-19 04:02:27.49	342.95	9.97	
2025-01-19 04:02:28.31	342.80	9.98	
2025-01-19 04:02:29.12	342.66	9.98	
2025-01-19 04:02:29.93	342.52	9.99	
2025-01-19 04:02:30.75	342.37	9.99	
2025-01-19 04:02:31.56	342.22	9.99	
2025-01-19 04:02:32.37	342.08	10.00	
2025-01-19 04:02:33.18	341.94	10.00	
2025-01-19 04:02:34.00	341.79	10.00	
2025-01-19 04:02:34.81	341.64	10.01	
2025-01-19 04:02:35.62	341.50	10.01	
2025-01-19 04:02:36.44	341.35	10.01	
2025-01-19 04:02:37.25	341.21	10.01	
2025-01-19 04:02:38.06	341.06	10.02	
2025-01-19 04:02:38.87	340.92	10.02	
2025-01-19 04:02:39.69	340.77	10.02	
2025-01-19 04:02:40.50	340.63	10.02	
2025-01-19 04:02:41.31	340.48	10.02	
2025-01-19 04:02:42.13	340.34	10.02	
2025-01-19 04:02:42.94	340.19	10.02	
2025-01-19 04:02:43.75	340.05	10.03	
2025-01-19 04:02:44.56	339.90	10.03	
2025-01-19 04:02:45.38	339.76	10.03	
2025-01-19 04:02:46.19	339.61	10.03	
2025-01-19 04:02:47.00	339.47	10.03	
2025-01-19 04:02:47.82	339.32	10.03	
2025-01-19 04:02:48.63	339.17	10.03	
2025-01-19 04:02:49.44	339.03	10.03	
2025-01-19 04:02:50.25	338.88	10.03	
2025-01-19 04:02:51.07	338.74	10.03	
2025-01-19 04:02:51.88	338.59	10.02	
2025-01-19 04:02:52.69	338.45	10.02	
2025-01-19 04:02:53.51	338.30	10.02	
2025-01-19 04:02:54.32	338.16	10.02	
2025-01-19 04:02:55.13	338.01	10.02	
2025-01-19 04:02:55.94	337.87	10.02	
2025-01-19 04:02:56.76	337.72	10.02	
2025-01-19 04:02:57.57	337.58	10.01	
2025-01-19 04:02:58.38	337.43	10.01	
2025-01-19 04:02:59.20	337.29	10.01	
2025-01-19 04:03:00.01	337.14	10.01	
2025-01-19 04:03:00.82	337.00	10.00	
2025-01-19 04:03:01.63	336.85	10.00	
2025-01-19 04:03:02.45	336.70	10.00	
2025-01-19 04:03:03.26	336.56	9.99	
2025-01-19 04:03:04.07	336.42	9.99	
2025-01-19 04:03:04.89	336.27	9.99	
2025-01-19 04:03:05.70	336.13	9.98	
2025-01-19 04:03:06.51	335.98	9.98	
2025-01-19 04:03:07.32	335.84	9.97	
2025-01-19 04:03:08.14	335.69	9.97	
2025-01-19 04:03:08.95	335.55	9.96	
2025-01-19 04:03:09.76	335.40	9.96	
2025-01-19 04:03:10.58	335.26	9.95	
2025-01-19 04:03:11.39	335.11	9.95	
2025-01-19 04:03:12.20	334.97	9.94	
2025-01-19 04:03:13.01	334.82	9.94	
2025-01-19 04:03:13.83	334.68	9.93	
2025-01-19 04:03:14.64	334.53	9.93	
2025-01-19 04:03:15.45	334.39	9.92	
2025-01-19 04:03:16.27	334.24	9.92	
2025-01-19 04:03:17.08	334.10	9.91	
2025-01-19 04:03:17.89	333.96	9.90	
2025-01-19 04:03:18.70	333.81	9.90	
2025-01-19 04:03:19.52	333.67	9.89	
2025-01-19 04:03:20.33	333.53	9.88	
2025-01-19 04:03:21.14	333.38	9.87	
2025-01-19 04:03:21.95	333.24	9.87	
2025-01-19 04:03:22.77	333.09	9.86	
2025-01-19 04:03:23.58	332.95	9.85	
2025-01-19 04:03:24.39	332.81	9.84	
2025-01-19 04:03:25.21	332.66	9.84	
2025-01-19 04:03:26.02	332.52	9.83	
2025-01-19 04:03:26.83	332.38	9.82	
2025-01-19 04:03:27.65	332.23	9.81	
2025-01-19 04:03:28.46	332.09	9.80	
2025-01-19 04:03:29.27	331.95	9.79	
2025-01-19 04:03:30.08	331.80	9.78	
2025-01-19 04:03:30.90	331.66	9.77	
2025-01-19 04:03:31.71	331.52	9.77	
2025-01-19 04:03:32.52	331.38	9.76	
2025-01-19 04:03:33.34	331.23	9.75	
2025-01-19 04:03:34.15	331.09	9.74	
2025-01-19 04:03:34.96	330.95	9.73	
2025-01-19 04:03:35.77	330.81	9.72	
2025-01-19 04:03:36.59	330.66	9.71	
2025-01-19 04:03:37.40	330.52	9.69	
2025-01-19 04:03:38.21	330.38	9.68	
2025-01-19 04:03:39.02	330.24	9.67	
2025-01-19 04:03:39.84	330.09	9.66	
2025-01-19 04:03:40.65	329.95	9.65	
2025-01-19 04:03:41.46	329.81	9.64	
2025-01-19 04:03:42.28	329.67	9.63	
2025-01-19 04:03:43.09	329.53	9.62	
2025-01-19 04:03:43.90	329.39	9.60	
2025-01-19 04:03:44.71	329.25	9.59	
2025-01-19 04:03:45.53	329.11	9.58	
2025-01-19 04:03:46.34	328.96	9.57	
2025-01-19 04:03:47.15	328.82	9.56	
2025-01-19 04:03:47.97	328.68	9.54	
2025-01-19 04:03:48.78	328.54	9.53	
2025-01-19 04:03:49.59	328.40	9.52	
2025-01-19 04:03:50.40	328.26	9.50	
2025-01-19 04:03:51.22	328.12	9.49	
2025-01-19 04:03:52.03	327.98	9.48	
2025-01-19 04:03:52.84	327.84	9.46	
2025-01-19 04:03:53.66	327.70	9.45	
2025-01-19 04:03:54.47	327.56	9.44	
2025-01-19 04:03:55.28	327.42	9.42	
2025-01-19 04:03:56.09	327.28	9.41	
2025-01-19 04:03:56.91	327.14	9.39	
2025-01-19 04:03:57.72	327.01	9.38	
2025-01-19 04:03:58.53	326.87	9.36	
2025-01-19 04:03:59.35	326.73	9.35	
2025-01-19 04:04:00.16	326.59	9.33	
2025-01-19 04:04:00.97	326.45	9.32	
2025-01-19 04:04:01.78	326.31	9.30	
2025-01-19 04:04:02.60	326.17	9.29	
2025-01-19 04:04:03.41	326.04	9.27	
2025-01-19 04:04:04.22	325.90	9.26	
2025-01-19 04:04:05.04	325.76	9.24	
2025-01-19 04:04:05.85	325.62	9.23	
2025-01-19 04:04:06.66	325.49	9.21	
2025-01-19 04:04:07.47	325.35	9.19	
2025-01-19 04:04:08.29	325.21	9.18	
2025-01-19 04:04:09.10	325.07	9.16	
2025-01-19 04:04:09.91	324.94	9.14	
2025-01-19 04:04:10.73	324.80	9.13	
2025-01-19 04:04:11.54	324.66	9.11	
2025-01-19 04:04:12.35	324.53	9.09	
2025-01-19 04:04:13.16	324.39	9.07	
2025-01-19 04:04:13.98	324.25	9.06	
2025-01-19 04:04:14.79	324.12	9.04	
2025-01-19 04:04:15.60	323.98	9.02	
2025-01-19 04:04:16.42	323.85	9.00	
2025-01-19 04:04:17.23	323.71	8.99	
2025-01-19 04:04:18.04	323.58	8.97	
2025-01-19 04:04:18.85	323.44	8.95	
2025-01-19 04:04:19.67	323.31	8.93	
2025-01-19 04:04:20.48	323.17	8.91	
2025-01-19 04:04:21.29	323.04	8.89	
2025-01-19 04:04:22.11	322.90	8.87	
2025-01-19 04:04:22.92	322.77	8.86	
2025-01-19 04:04:23.73	322.64	8.84	
2025-01-19 04:04:24.54	322.50	8.82	
2025-01-19 04:04:25.36	322.37	8.80	
2025-01-19 04:04:26.17	322.23	8.78	
2025-01-19 04:04:26.98	322.10	8.76	
2025-01-19 04:04:27.80	321.97	8.74	
2025-01-19 04:04:28.61	321.84	8.72	
2025-01-19 04:04:29.42	321.70	8.70	
2025-01-19 04:04:30.23	321.57	8.68	
2025-01-19 04:04:31.05	321.44	8.66	
2025-01-19 04:04:31.86	321.31	8.64	
2025-01-19 04:04:32.67	321.17	8.62	
2025-01-19 04:04:33.49	321.04	8.60	
2025-01-19 04:04:34.30	320.91	8.58	
2025-01-19 04:04:35.11	320.78	8.56	
2025-01-19 04:04:35.92	320.65	8.53	
2025-01-19 04:04:36.74	320.52	8.51	
2025-01-19 04:04:37.55	320.39	8.49	
2025-01-19 04:04:38.36	320.26	8.47	
2025-01-19 04:04:39.18	320.12	8.45	
2025-01-19 04:04:39.99	319.99	8.43	
2025-01-19 04:04:40.80	319.86	8.41	
2025-01-19 04:04:41.61	319.74	8.38	
2025-01-19 04:04:42.43	319.60	8.36	
2025-01-19 04:04:43.24	319.48	8.34	
2025-01-19 04:04:44.05	319.35	8.32	
2025-01-19 04:04:44.87	319.22	8.29	
2025-01-19 04:04:45.68	319.09	8.27	
2025-01-19 04:04:46.49	318.96	8.25	
2025-01-19 04:04:47.30	318.83	8.23	
2025-01-19 04:04:48.12	318.70	8.20	
2025-01-19 04:04:48.93	318.58	8.18	
2025-01-19 04:04:49.74	318.45	8.16	
2025-01-19 04:04:50.56	318.32	8.13	
2025-01-19 04:04:51.37	318.19	8.11	
2025-01-19 04:04:52.18	318.07	8.09	
2025-01-19 04:04:52.99	317.94	8.06	
2025-01-19 04:04:53.81	317.81	8.04	
2025-01-19 04:04:54.62	317.68	8.02	
2025-01-19 04:04:55.43	317.56	7.99	
2025-01-19 04:04:56.25	317.43	7.97	
2025-01-19 04:04:57.06	317.31	7.94	
2025-01-19 04:04:57.87	317.18	7.92	
2025-01-19 04:04:58.68	317.06	7.90	
2025-01-19 04:04:59.50	316.93	7.87	
2025-01-19 04:05:00.31	316.80	7.85	
2025-01-19 04:05:01.12	316.68	7.82	
2025-01-19 04:05:01.94	316.55	7.80	
2025-01-19 04:05:02.75	316.43	7.77	
2025-01-19 04:05:03.57	316.31	7.75	
2025-01-19 04:05:04.39	316.18	7.72	
2025-01-19 04:05:05.20	316.06	7.70	
2025-01-19 04:05:06.01	315.93	7.67	
2025-01-19 04:05:06.82	315.81	7.65	
2025-01-19 04:05:07.64	315.69	7.62	
2025-01-19 04:05:08.45	315.56	7.60	
2025-01-19 04:05:09.26	315.44	7.57	
2025-01-19 04:05:10.08	315.32	7.54	
2025-01-19 04:05:10.89	315.20	7.52	
2025-01-19 04:05:11.70	315.07	7.49	
2025-01-19 04:05:12.51	314.95	7.47	
2025-01-19 04:05:13.33	314.83	7.44	
2025-01-19 04:05:14.14	314.71	7.41	
2025-01-19 04:05:14.95	314.59	7.39	
2025-01-19 04:05:15.77	314.47	7.36	
2025-01-19 04:05:16.58	314.35	7.34	
2025-01-19 04:05:17.39	314.23	7.31	
2025-01-19 04:05:18.20	314.11	7.28	
2025-01-19 04:05:19.02	313.99	7.25	
2025-01-19 04:05:19.83	313.87	7.23	
2025-01-19 04:05:20.64	313.75	7.20	
2025-01-19 04:05:21.46	313.63	7.17	
2025-01-19 04:05:22.27	313.51	7.15	
2025-01-19 04:05:23.08	313.39	7.12	
2025-01-19 04:05:23.89	313.27	7.09	
2025-01-19 04:05:24.71	313.15	7.07	
2025-01-19 04:05:25.52	313.03	7.04	
2025-01-19 04:05:26.33	312.92	7.01	
2025-01-19 04:05:27.15	312.80	6.98	
2025-01-19 04:05:27.96	312.68	6.95	
2025-01-19 04:05:28.77	312.56	6.93	
2025-01-19 04:05:29.58	312.45	6.90	
2025-01-19 04:05:30.40	312.33	6.87	
2025-01-19 04:05:31.21	312.21	6.84	
2025-01-19 04:05:32.02	312.10	6.82	
2025-01-19 04:05:32.84	311.98	6.79	
2025-01-19 04:05:33.65	311.86	6.76	
2025-01-19 04:05:34.46	311.75	6.73	
2025-01-19 04:05:35.27	311.63	6.70	
2025-01-19 04:05:36.09	311.52	6.67	
2025-01-19 04:05:36.90	311.40	6.64	
2025-01-19 04:05:37.71	311.29	6.62	
2025-01-19 04:05:38.53	311.17	6.59	
2025-01-19 04:05:39.34	311.06	6.56	
2025-01-19 04:05:40.15	310.94	6.53	
2025-01-19 04:05:40.96	310.83	6.50	
2025-01-19 04:05:41.78	310.72	6.47	
2025-01-19 04:05:42.59	310.60	6.44	
2025-01-19 04:05:43.40	310.49	6.41	
2025-01-19 04:05:44.22	310.38	6.38	
2025-01-19 04:05:45.03	310.26	6.35	
2025-01-19 04:05:45.84	310.15	6.33	
2025-01-19 04:05:46.65	310.04	6.30	
2025-01-19 04:05:47.47	309.93	6.27	
2025-01-19 04:05:48.28	309.82	6.24	
2025-01-19 04:05:49.09	309.70	6.21	
2025-01-19 04:05:49.91	309.59	6.18	
2025-01-19 04:05:50.72	309.48	6.15	
2025-01-19 04:05:51.53	309.37	6.12	
2025-01-19 04:05:52.34	309.26	6.09	
2025-01-19 04:05:53.16	309.15	6.06	
2025-01-19 04:05:53.97	309.04	6.03	
2025-01-19 04:05:54.78	308.93	6.00	
2025-01-19 04:05:55.60	308.82	5.97	
2025-01-19 04:05:56.41	308.71	5.94	
2025-01-19 04:05:57.22	308.60	5.91	
2025-01-19 04:05:58.03	308.49	5.88	
2025-01-19 04:05:58.85	308.38	5.85	
2025-01-19 04:05:59.66	308.27	5.82	
2025-01-19 04:06:00.47	308.17	5.78	
2025-01-19 04:06:01.29	308.06	5.75	
2025-01-19 04:06:02.10	307.95	5.72	
2025-01-19 04:06:02.91	307.84	5.69	
2025-01-19 04:06:03.72	307.74	5.66	
2025-01-19 04:06:04.54	307.63	5.63	
2025-01-19 04:06:05.35	307.52	5.60	
2025-01-19 04:06:06.16	307.41	5.57	
2025-01-19 04:06:06.98	307.31	5.54	
2025-01-19 04:06:07.79	307.20	5.51	
2025-01-19 04:06:08.60	307.10	5.48	
2025-01-19 04:06:09.41	306.99	5.44	
2025-01-19 04:06:10.23	306.88	5.41	
2025-01-19 04:06:11.04	306.78	5.38	
2025-01-19 04:06:11.85	306.67	5.35	
2025-01-19 04:06:12.67	306.57	5.32	
2025-01-19 04:06:13.48	306.46	5.29	
2025-01-19 04:06:14.29	306.36	5.26	
2025-01-19 04:06:15.10	306.26	5.22	
2025-01-19 04:06:15.92	306.15	5.19	
2025-01-19 04:06:16.73	306.05	5.16	
2025-01-19 04:06:17.54	305.94	5.13	
2025-01-19 04:06:18.35	305.84	5.10	
2025-01-19 04:06:19.17	305.74	5.07	
2025-01-19 04:06:19.98	305.64	5.03	
2025-01-19 04:06:20.79	305.53	5.00	
2025-01-19 04:06:21.61	305.43	4.97	
2025-01-19 04:06:22.42	305.33	4.94	
2025-01-19 04:06:23.23	305.23	4.91	
2025-01-19 04:06:24.04	305.13	4.87	
2025-01-19 04:06:24.86	305.02	4.84	
2025-01-19 04:06:25.67	304.92	4.81	
2025-01-19 04:06:26.48	304.82	4.78	
2025-01-19 04:06:27.30	304.72	4.75	
2025-01-19 04:06:28.11	304.62	4.71	
2025-01-19 04:06:28.92	304.52	4.68	
2025-01-19 04:06:29.73	304.42	4.65	
2025-01-19 04:06:30.55	304.32	4.62	
2025-01-19 04:06:31.36	304.22	4.58	
2025-01-19 04:06:32.17	304.12	4.55	
2025-01-19 04:06:32.99	304.02	4.52	
2025-01-19 04:06:33.80	303.92	4.49	
2025-01-19 04:06:34.61	303.82	4.45	
2025-01-19 04:06:35.42	303.73	4.42	
2025-01-19 04:06:36.24	303.63	4.39	
2025-01-19 04:06:37.05	303.53	4.36	
2025-01-19 04:06:37.86	303.43	4.32	
2025-01-19 04:06:38.68	303.33	4.29	
2025-01-19 04:06:39.49	303.24	4.26	
2025-01-19 04:06:40.30	303.14	4.22	
2025-01-19 04:06:41.11	303.04	4.19	
2025-01-19 04:06:41.93	302.94	4.16	
2025-01-19 04:06:42.74	302.85	4.13	
2025-01-19 04:06:43.55	302.75	4.09	
2025-01-19 04:06:44.37	302.66	4.06	
2025-01-19 04:06:45.18	302.56	4.03	

#Closed at: 2025-01-19 04:06:45