passes_logs/2025/01/19/SPB_Silybum_02/SPB_Silybum_02__20250119_152535_TERRA_rec.log

#Pass ID: 20250119_152535_TERRA
#Satellite: TERRA
#Configuration: TERRA
#Start time: 2025-01-19 15:25:35

#Version: 2.0.20230423
#Station: SPB_Silybum_02
#Location: 30.233357 lon 59.946436 lat
#TLE: 1 25994U 99068A   25018.76132064  .00000971  00000+0  20987-3 0  9991
#TLE: 2 25994  98.0209  81.6719 0003338  64.8500  46.9329 14.60403262334620

#Time	Az	El	Level	Level2	SNR	BER	Gain	Gain2
2025-01-19 15:25:37.91	63.72	4.08	
2025-01-19 15:25:38.72	63.61	4.11	
2025-01-19 15:25:39.53	63.50	4.15	
2025-01-19 15:25:40.35	63.39	4.18	
2025-01-19 15:25:41.16	63.27	4.21	
2025-01-19 15:25:41.97	63.16	4.24	
2025-01-19 15:25:42.78	63.05	4.28	
2025-01-19 15:25:43.59	62.94	4.31	
2025-01-19 15:25:44.41	62.82	4.34	
2025-01-19 15:25:45.22	62.71	4.37	
2025-01-19 15:25:46.03	62.60	4.40	
2025-01-19 15:25:46.84	62.48	4.44	
2025-01-19 15:25:47.65	62.37	4.47	
2025-01-19 15:25:48.46	62.26	4.50	
2025-01-19 15:25:49.28	62.14	4.53	
2025-01-19 15:25:50.09	62.03	4.56	
2025-01-19 15:25:50.90	61.91	4.60	
2025-01-19 15:25:51.71	61.79	4.63	
2025-01-19 15:25:52.52	61.68	4.66	
2025-01-19 15:25:53.34	61.56	4.69	
2025-01-19 15:25:54.15	61.45	4.72	
2025-01-19 15:25:54.96	61.33	4.75	
2025-01-19 15:25:55.77	61.21	4.78	
2025-01-19 15:25:56.58	61.10	4.82	
2025-01-19 15:25:57.39	60.98	4.85	
2025-01-19 15:25:58.21	60.86	4.88	
2025-01-19 15:25:59.02	60.74	4.91	
2025-01-19 15:25:59.83	60.62	4.94	
2025-01-19 15:26:00.64	60.51	4.97	
2025-01-19 15:26:01.45	60.39	5.00	
2025-01-19 15:26:02.27	60.27	5.03	
2025-01-19 15:26:03.08	60.15	5.06	
2025-01-19 15:26:03.89	60.03	5.09	
2025-01-19 15:26:04.70	59.91	5.13	
2025-01-19 15:26:05.51	59.79	5.16	
2025-01-19 15:26:06.32	59.67	5.19	
2025-01-19 15:26:07.14	59.55	5.22	
2025-01-19 15:26:07.95	59.43	5.25	
2025-01-19 15:26:08.76	59.30	5.28	
2025-01-19 15:26:09.57	59.18	5.31	
2025-01-19 15:26:10.38	59.06	5.34	
2025-01-19 15:26:11.20	58.94	5.37	
2025-01-19 15:26:12.01	58.82	5.40	
2025-01-19 15:26:12.82	58.69	5.43	
2025-01-19 15:26:13.63	58.57	5.46	
2025-01-19 15:26:14.44	58.45	5.49	
2025-01-19 15:26:15.25	58.32	5.52	
2025-01-19 15:26:16.07	58.20	5.55	
2025-01-19 15:26:16.88	58.08	5.58	
2025-01-19 15:26:17.69	57.95	5.61	
2025-01-19 15:26:18.50	57.83	5.63	
2025-01-19 15:26:19.31	57.70	5.66	
2025-01-19 15:26:20.13	57.58	5.69	
2025-01-19 15:26:20.94	57.45	5.72	
2025-01-19 15:26:21.75	57.33	5.75	
2025-01-19 15:26:22.56	57.20	5.78	
2025-01-19 15:26:23.38	57.07	5.81	
2025-01-19 15:26:24.20	56.94	5.84	
2025-01-19 15:26:25.01	56.82	5.87	
2025-01-19 15:26:25.82	56.69	5.90	
2025-01-19 15:26:26.63	56.56	5.92	
2025-01-19 15:26:27.44	56.44	5.95	
2025-01-19 15:26:28.27	56.31	5.98	
2025-01-19 15:26:29.08	56.18	6.01	
2025-01-19 15:26:29.89	56.05	6.04	
2025-01-19 15:26:30.70	55.92	6.07	
2025-01-19 15:26:31.51	55.79	6.09	
2025-01-19 15:26:32.32	55.66	6.12	
2025-01-19 15:26:33.14	55.53	6.15	
2025-01-19 15:26:33.95	55.40	6.18	
2025-01-19 15:26:34.77	55.27	6.21	
2025-01-19 15:26:35.58	55.14	6.23	
2025-01-19 15:26:36.39	55.01	6.26	
2025-01-19 15:26:37.20	54.88	6.29	
2025-01-19 15:26:38.01	54.75	6.31	
2025-01-19 15:26:38.82	54.62	6.34	
2025-01-19 15:26:39.64	54.48	6.37	
2025-01-19 15:26:40.45	54.35	6.40	
2025-01-19 15:26:41.27	54.22	6.42	
2025-01-19 15:26:42.08	54.09	6.45	
2025-01-19 15:26:42.89	53.95	6.48	
2025-01-19 15:26:43.70	53.82	6.50	
2025-01-19 15:26:44.51	53.69	6.53	
2025-01-19 15:26:45.33	53.55	6.55	
2025-01-19 15:26:46.14	53.42	6.58	
2025-01-19 15:26:46.95	53.29	6.61	
2025-01-19 15:26:47.76	53.15	6.63	
2025-01-19 15:26:48.57	53.02	6.66	
2025-01-19 15:26:49.38	52.88	6.68	
2025-01-19 15:26:50.20	52.75	6.71	
2025-01-19 15:26:51.01	52.61	6.74	
2025-01-19 15:26:51.82	52.47	6.76	
2025-01-19 15:26:52.63	52.34	6.79	
2025-01-19 15:26:53.44	52.20	6.81	
2025-01-19 15:26:54.26	52.06	6.84	
2025-01-19 15:26:55.07	51.93	6.86	
2025-01-19 15:26:55.88	51.79	6.89	
2025-01-19 15:26:56.69	51.65	6.91	
2025-01-19 15:26:57.50	51.52	6.94	
2025-01-19 15:26:58.31	51.38	6.96	
2025-01-19 15:26:59.13	51.24	6.98	
2025-01-19 15:26:59.94	51.10	7.01	
2025-01-19 15:27:00.75	50.96	7.03	
2025-01-19 15:27:01.56	50.83	7.06	
2025-01-19 15:27:02.37	50.69	7.08	
2025-01-19 15:27:03.18	50.55	7.10	
2025-01-19 15:27:04.00	50.41	7.13	
2025-01-19 15:27:04.81	50.27	7.15	
2025-01-19 15:27:05.62	50.13	7.17	
2025-01-19 15:27:06.43	49.99	7.20	
2025-01-19 15:27:07.24	49.85	7.22	
2025-01-19 15:27:08.06	49.71	7.24	
2025-01-19 15:27:08.87	49.56	7.27	
2025-01-19 15:27:09.68	49.42	7.29	
2025-01-19 15:27:10.49	49.28	7.31	
2025-01-19 15:27:11.30	49.14	7.33	
2025-01-19 15:27:12.11	49.00	7.36	
2025-01-19 15:27:12.93	48.86	7.38	
2025-01-19 15:27:13.74	48.71	7.40	
2025-01-19 15:27:14.55	48.57	7.42	
2025-01-19 15:27:15.36	48.43	7.44	
2025-01-19 15:27:16.17	48.29	7.47	
2025-01-19 15:27:16.99	48.14	7.49	
2025-01-19 15:27:17.80	48.00	7.51	
2025-01-19 15:27:18.61	47.85	7.53	
2025-01-19 15:27:19.42	47.71	7.55	
2025-01-19 15:27:20.23	47.57	7.57	
2025-01-19 15:27:21.04	47.42	7.59	
2025-01-19 15:27:21.86	47.28	7.61	
2025-01-19 15:27:22.67	47.13	7.63	
2025-01-19 15:27:23.48	46.99	7.65	
2025-01-19 15:27:24.29	46.84	7.67	
2025-01-19 15:27:25.10	46.70	7.69	
2025-01-19 15:27:25.92	46.55	7.71	
2025-01-19 15:27:26.73	46.40	7.73	
2025-01-19 15:27:27.54	46.26	7.75	
2025-01-19 15:27:28.35	46.11	7.77	
2025-01-19 15:27:29.16	45.96	7.79	
2025-01-19 15:27:29.97	45.82	7.81	
2025-01-19 15:27:30.79	45.67	7.83	
2025-01-19 15:27:31.60	45.52	7.85	
2025-01-19 15:27:32.41	45.37	7.87	
2025-01-19 15:27:33.22	45.23	7.89	
2025-01-19 15:27:34.03	45.08	7.91	
2025-01-19 15:27:34.85	44.93	7.92	
2025-01-19 15:27:35.66	44.78	7.94	
2025-01-19 15:27:36.47	44.63	7.96	
2025-01-19 15:27:37.28	44.48	7.98	
2025-01-19 15:27:38.09	44.34	7.99	
2025-01-19 15:27:38.90	44.19	8.01	
2025-01-19 15:27:39.72	44.04	8.03	
2025-01-19 15:27:40.53	43.89	8.05	
2025-01-19 15:27:41.34	43.74	8.06	
2025-01-19 15:27:42.15	43.59	8.08	
2025-01-19 15:27:42.96	43.44	8.10	
2025-01-19 15:27:43.78	43.29	8.11	
2025-01-19 15:27:44.59	43.14	8.13	
2025-01-19 15:27:45.40	42.99	8.15	
2025-01-19 15:27:46.21	42.84	8.16	
2025-01-19 15:27:47.02	42.68	8.18	
2025-01-19 15:27:47.83	42.53	8.19	
2025-01-19 15:27:48.65	42.38	8.21	
2025-01-19 15:27:49.46	42.23	8.22	
2025-01-19 15:27:50.27	42.08	8.24	
2025-01-19 15:27:51.08	41.93	8.26	
2025-01-19 15:27:51.89	41.77	8.27	
2025-01-19 15:27:52.71	41.62	8.28	
2025-01-19 15:27:53.52	41.47	8.30	
2025-01-19 15:27:54.33	41.32	8.31	
2025-01-19 15:27:55.14	41.16	8.33	
2025-01-19 15:27:55.95	41.01	8.34	
2025-01-19 15:27:56.76	40.86	8.36	
2025-01-19 15:27:57.58	40.70	8.37	
2025-01-19 15:27:58.39	40.55	8.38	
2025-01-19 15:27:59.20	40.40	8.40	
2025-01-19 15:28:00.01	40.24	8.41	
2025-01-19 15:28:00.82	40.09	8.42	
2025-01-19 15:28:01.63	39.94	8.43	
2025-01-19 15:28:02.45	39.78	8.45	
2025-01-19 15:28:03.26	39.63	8.46	
2025-01-19 15:28:04.07	39.47	8.47	
2025-01-19 15:28:04.88	39.32	8.48	
2025-01-19 15:28:05.69	39.17	8.50	
2025-01-19 15:28:06.51	39.01	8.51	
2025-01-19 15:28:07.32	38.85	8.52	
2025-01-19 15:28:08.13	38.70	8.53	
2025-01-19 15:28:08.94	38.54	8.54	
2025-01-19 15:28:09.75	38.39	8.55	
2025-01-19 15:28:10.56	38.23	8.56	
2025-01-19 15:28:11.38	38.08	8.57	
2025-01-19 15:28:12.19	37.92	8.58	
2025-01-19 15:28:13.00	37.77	8.59	
2025-01-19 15:28:13.81	37.61	8.60	
2025-01-19 15:28:14.62	37.45	8.61	
2025-01-19 15:28:15.44	37.30	8.62	
2025-01-19 15:28:16.25	37.14	8.63	
2025-01-19 15:28:17.06	36.99	8.64	
2025-01-19 15:28:17.87	36.83	8.65	
2025-01-19 15:28:18.68	36.67	8.66	
2025-01-19 15:28:19.49	36.52	8.67	
2025-01-19 15:28:20.31	36.36	8.68	
2025-01-19 15:28:21.12	36.20	8.69	
2025-01-19 15:28:21.93	36.04	8.69	
2025-01-19 15:28:22.74	35.89	8.70	
2025-01-19 15:28:23.55	35.73	8.71	
2025-01-19 15:28:24.37	35.57	8.72	
2025-01-19 15:28:25.18	35.42	8.73	
2025-01-19 15:28:25.99	35.26	8.73	
2025-01-19 15:28:26.80	35.10	8.74	
2025-01-19 15:28:27.61	34.94	8.75	
2025-01-19 15:28:28.42	34.79	8.75	
2025-01-19 15:28:29.24	34.63	8.76	
2025-01-19 15:28:30.05	34.47	8.77	
2025-01-19 15:28:30.86	34.31	8.77	
2025-01-19 15:28:31.67	34.15	8.78	
2025-01-19 15:28:32.48	34.00	8.78	
2025-01-19 15:28:33.30	33.84	8.79	
2025-01-19 15:28:34.11	33.68	8.79	
2025-01-19 15:28:34.92	33.52	8.80	
2025-01-19 15:28:35.73	33.36	8.80	
2025-01-19 15:28:36.54	33.21	8.81	
2025-01-19 15:28:37.35	33.05	8.81	
2025-01-19 15:28:38.17	32.89	8.82	
2025-01-19 15:28:38.98	32.73	8.82	
2025-01-19 15:28:39.79	32.57	8.83	
2025-01-19 15:28:40.60	32.41	8.83	
2025-01-19 15:28:41.41	32.25	8.83	
2025-01-19 15:28:42.23	32.09	8.84	
2025-01-19 15:28:43.04	31.94	8.84	
2025-01-19 15:28:43.85	31.78	8.84	
2025-01-19 15:28:44.66	31.62	8.85	
2025-01-19 15:28:45.47	31.46	8.85	
2025-01-19 15:28:46.28	31.30	8.85	
2025-01-19 15:28:47.10	31.14	8.85	
2025-01-19 15:28:47.91	30.98	8.86	
2025-01-19 15:28:48.72	30.82	8.86	
2025-01-19 15:28:49.53	30.67	8.86	
2025-01-19 15:28:50.34	30.51	8.86	
2025-01-19 15:28:51.16	30.35	8.86	
2025-01-19 15:28:51.97	30.19	8.86	
2025-01-19 15:28:52.78	30.03	8.86	
2025-01-19 15:28:53.59	29.87	8.86	
2025-01-19 15:28:54.40	29.71	8.86	
2025-01-19 15:28:55.21	29.55	8.86	
2025-01-19 15:28:56.03	29.39	8.86	
2025-01-19 15:28:56.84	29.23	8.86	
2025-01-19 15:28:57.65	29.08	8.86	
2025-01-19 15:28:58.46	28.92	8.86	
2025-01-19 15:28:59.27	28.76	8.86	
2025-01-19 15:29:00.08	28.60	8.86	
2025-01-19 15:29:00.90	28.44	8.86	
2025-01-19 15:29:01.71	28.28	8.86	
2025-01-19 15:29:02.52	28.12	8.86	
2025-01-19 15:29:03.33	27.96	8.86	
2025-01-19 15:29:04.14	27.80	8.85	
2025-01-19 15:29:04.96	27.64	8.85	
2025-01-19 15:29:05.77	27.49	8.85	
2025-01-19 15:29:06.58	27.33	8.85	
2025-01-19 15:29:07.39	27.17	8.84	
2025-01-19 15:29:08.20	27.01	8.84	
2025-01-19 15:29:09.01	26.85	8.84	
2025-01-19 15:29:09.83	26.69	8.83	
2025-01-19 15:29:10.64	26.53	8.83	
2025-01-19 15:29:11.45	26.38	8.83	
2025-01-19 15:29:12.26	26.22	8.82	
2025-01-19 15:29:13.07	26.06	8.82	
2025-01-19 15:29:13.89	25.90	8.82	
2025-01-19 15:29:14.70	25.74	8.81	
2025-01-19 15:29:15.51	25.58	8.81	
2025-01-19 15:29:16.32	25.43	8.80	
2025-01-19 15:29:17.13	25.27	8.80	
2025-01-19 15:29:17.94	25.11	8.79	
2025-01-19 15:29:18.76	24.95	8.79	
2025-01-19 15:29:19.57	24.79	8.78	
2025-01-19 15:29:20.38	24.64	8.77	
2025-01-19 15:29:21.19	24.48	8.77	
2025-01-19 15:29:22.00	24.32	8.76	
2025-01-19 15:29:22.82	24.16	8.76	
2025-01-19 15:29:23.63	24.00	8.75	
2025-01-19 15:29:24.44	23.85	8.74	
2025-01-19 15:29:25.25	23.69	8.74	
2025-01-19 15:29:26.06	23.53	8.73	
2025-01-19 15:29:26.87	23.38	8.72	
2025-01-19 15:29:27.69	23.22	8.71	
2025-01-19 15:29:28.50	23.06	8.71	
2025-01-19 15:29:29.31	22.90	8.70	
2025-01-19 15:29:30.12	22.75	8.69	
2025-01-19 15:29:30.93	22.59	8.68	
2025-01-19 15:29:31.75	22.43	8.67	
2025-01-19 15:29:32.56	22.28	8.66	
2025-01-19 15:29:33.37	22.12	8.65	
2025-01-19 15:29:34.18	21.96	8.65	
2025-01-19 15:29:34.99	21.81	8.64	
2025-01-19 15:29:35.80	21.65	8.63	
2025-01-19 15:29:36.62	21.49	8.62	
2025-01-19 15:29:37.43	21.34	8.61	
2025-01-19 15:29:38.24	21.18	8.60	
2025-01-19 15:29:39.05	21.03	8.59	
2025-01-19 15:29:39.86	20.87	8.58	
2025-01-19 15:29:40.68	20.72	8.57	
2025-01-19 15:29:41.49	20.56	8.56	
2025-01-19 15:29:42.30	20.41	8.54	
2025-01-19 15:29:43.11	20.25	8.53	
2025-01-19 15:29:43.92	20.10	8.52	
2025-01-19 15:29:44.73	19.94	8.51	
2025-01-19 15:29:45.55	19.79	8.50	
2025-01-19 15:29:46.36	19.63	8.49	
2025-01-19 15:29:47.17	19.48	8.48	
2025-01-19 15:29:47.98	19.32	8.46	
2025-01-19 15:29:48.79	19.17	8.45	
2025-01-19 15:29:49.60	19.02	8.44	
2025-01-19 15:29:50.42	18.86	8.43	
2025-01-19 15:29:51.23	18.71	8.41	
2025-01-19 15:29:52.04	18.55	8.40	
2025-01-19 15:29:52.85	18.40	8.39	
2025-01-19 15:29:53.66	18.25	8.37	
2025-01-19 15:29:54.48	18.09	8.36	
2025-01-19 15:29:55.29	17.94	8.35	
2025-01-19 15:29:56.10	17.79	8.33	
2025-01-19 15:29:56.91	17.64	8.32	
2025-01-19 15:29:57.72	17.49	8.30	
2025-01-19 15:29:58.53	17.33	8.29	
2025-01-19 15:29:59.35	17.18	8.27	
2025-01-19 15:30:00.16	17.03	8.26	
2025-01-19 15:30:00.97	16.88	8.24	
2025-01-19 15:30:01.78	16.73	8.23	
2025-01-19 15:30:02.59	16.57	8.21	
2025-01-19 15:30:03.41	16.42	8.20	
2025-01-19 15:30:04.22	16.27	8.18	
2025-01-19 15:30:05.03	16.12	8.17	
2025-01-19 15:30:05.84	15.97	8.15	
2025-01-19 15:30:06.65	15.82	8.14	
2025-01-19 15:30:07.46	15.67	8.12	
2025-01-19 15:30:08.28	15.52	8.10	
2025-01-19 15:30:09.09	15.37	8.09	
2025-01-19 15:30:09.90	15.22	8.07	
2025-01-19 15:30:10.71	15.07	8.05	
2025-01-19 15:30:11.52	14.92	8.04	
2025-01-19 15:30:12.34	14.77	8.02	
2025-01-19 15:30:13.15	14.62	8.00	
2025-01-19 15:30:13.96	14.47	7.98	
2025-01-19 15:30:14.77	14.33	7.97	
2025-01-19 15:30:15.58	14.18	7.95	
2025-01-19 15:30:16.39	14.03	7.93	
2025-01-19 15:30:17.21	13.88	7.91	
2025-01-19 15:30:18.02	13.73	7.89	
2025-01-19 15:30:18.83	13.59	7.87	
2025-01-19 15:30:19.64	13.44	7.86	
2025-01-19 15:30:20.45	13.29	7.84	
2025-01-19 15:30:21.27	13.14	7.82	
2025-01-19 15:30:22.08	13.00	7.80	
2025-01-19 15:30:22.89	12.85	7.78	
2025-01-19 15:30:23.70	12.71	7.76	
2025-01-19 15:30:24.51	12.56	7.74	
2025-01-19 15:30:25.32	12.41	7.72	
2025-01-19 15:30:26.14	12.27	7.70	
2025-01-19 15:30:26.95	12.12	7.68	
2025-01-19 15:30:27.76	11.98	7.66	
2025-01-19 15:30:28.57	11.83	7.64	
2025-01-19 15:30:29.38	11.69	7.62	
2025-01-19 15:30:30.20	11.54	7.60	
2025-01-19 15:30:31.01	11.40	7.58	
2025-01-19 15:30:31.82	11.26	7.56	
2025-01-19 15:30:32.63	11.11	7.54	
2025-01-19 15:30:33.44	10.97	7.52	
2025-01-19 15:30:34.25	10.83	7.50	
2025-01-19 15:30:35.07	10.68	7.47	
2025-01-19 15:30:35.88	10.54	7.45	
2025-01-19 15:30:36.69	10.40	7.43	
2025-01-19 15:30:37.50	10.25	7.41	
2025-01-19 15:30:38.31	10.11	7.39	
2025-01-19 15:30:39.13	9.97	7.36	
2025-01-19 15:30:39.94	9.83	7.34	
2025-01-19 15:30:40.75	9.69	7.32	
2025-01-19 15:30:41.56	9.55	7.30	
2025-01-19 15:30:42.37	9.40	7.27	
2025-01-19 15:30:43.18	9.26	7.25	
2025-01-19 15:30:44.00	9.12	7.23	
2025-01-19 15:30:44.81	8.98	7.21	
2025-01-19 15:30:45.62	8.84	7.18	
2025-01-19 15:30:46.43	8.70	7.16	
2025-01-19 15:30:47.24	8.56	7.14	
2025-01-19 15:30:48.05	8.43	7.11	
2025-01-19 15:30:48.87	8.29	7.09	
2025-01-19 15:30:49.68	8.15	7.07	
2025-01-19 15:30:50.49	8.01	7.04	
2025-01-19 15:30:51.30	7.87	7.02	
2025-01-19 15:30:52.11	7.73	6.99	
2025-01-19 15:30:52.93	7.59	6.97	
2025-01-19 15:30:53.74	7.46	6.94	
2025-01-19 15:30:54.55	7.32	6.92	
2025-01-19 15:30:55.36	7.18	6.90	
2025-01-19 15:30:56.17	7.05	6.87	
2025-01-19 15:30:56.98	6.91	6.85	
2025-01-19 15:30:57.80	6.77	6.82	
2025-01-19 15:30:58.61	6.64	6.80	
2025-01-19 15:30:59.42	6.50	6.77	
2025-01-19 15:31:00.23	6.37	6.75	
2025-01-19 15:31:01.04	6.23	6.72	
2025-01-19 15:31:01.86	6.10	6.69	
2025-01-19 15:31:02.67	5.96	6.67	
2025-01-19 15:31:03.48	5.83	6.64	
2025-01-19 15:31:04.29	5.69	6.62	
2025-01-19 15:31:05.10	5.56	6.59	
2025-01-19 15:31:05.91	5.43	6.57	
2025-01-19 15:31:06.73	5.29	6.54	
2025-01-19 15:31:07.54	5.16	6.51	
2025-01-19 15:31:08.35	5.03	6.49	
2025-01-19 15:31:09.16	4.89	6.46	
2025-01-19 15:31:09.97	4.76	6.43	
2025-01-19 15:31:10.79	4.63	6.41	
2025-01-19 15:31:11.60	4.50	6.38	
2025-01-19 15:31:12.41	4.37	6.35	
2025-01-19 15:31:13.22	4.24	6.33	
2025-01-19 15:31:14.03	4.11	6.30	
2025-01-19 15:31:14.84	3.98	6.27	
2025-01-19 15:31:15.66	3.84	6.24	
2025-01-19 15:31:16.47	3.71	6.22	
2025-01-19 15:31:17.28	3.58	6.19	
2025-01-19 15:31:18.09	3.46	6.16	
2025-01-19 15:31:18.90	3.33	6.13	
2025-01-19 15:31:19.72	3.20	6.11	
2025-01-19 15:31:20.53	3.07	6.08	
2025-01-19 15:31:21.34	2.94	6.05	
2025-01-19 15:31:22.15	2.81	6.02	
2025-01-19 15:31:22.96	2.68	5.99	
2025-01-19 15:31:23.77	2.56	5.97	
2025-01-19 15:31:24.59	2.43	5.94	
2025-01-19 15:31:25.40	2.30	5.91	
2025-01-19 15:31:26.21	2.18	5.88	
2025-01-19 15:31:27.02	2.05	5.85	
2025-01-19 15:31:27.83	1.92	5.82	
2025-01-19 15:31:28.65	1.80	5.79	
2025-01-19 15:31:29.46	1.67	5.77	
2025-01-19 15:31:30.27	1.55	5.74	
2025-01-19 15:31:31.08	1.42	5.71	
2025-01-19 15:31:31.89	1.30	5.68	
2025-01-19 15:31:32.70	1.17	5.65	
2025-01-19 15:31:33.52	1.05	5.62	
2025-01-19 15:31:34.33	0.92	5.59	
2025-01-19 15:31:35.14	0.80	5.56	
2025-01-19 15:31:35.95	0.68	5.53	
2025-01-19 15:31:36.76	0.55	5.50	
2025-01-19 15:31:37.58	0.43	5.47	
2025-01-19 15:31:38.39	0.31	5.44	
2025-01-19 15:31:39.20	0.18	5.41	
2025-01-19 15:31:40.01	0.06	5.38	
2025-01-19 15:31:40.82	359.94	5.35	
2025-01-19 15:31:41.63	359.82	5.32	
2025-01-19 15:31:42.45	359.70	5.29	
2025-01-19 15:31:43.26	359.58	5.26	
2025-01-19 15:31:44.07	359.46	5.23	
2025-01-19 15:31:44.88	359.34	5.20	
2025-01-19 15:31:45.69	359.22	5.17	
2025-01-19 15:31:46.50	359.10	5.14	
2025-01-19 15:31:47.32	358.98	5.11	
2025-01-19 15:31:48.13	358.86	5.08	
2025-01-19 15:31:48.94	358.74	5.05	
2025-01-19 15:31:49.75	358.62	5.02	
2025-01-19 15:31:50.56	358.50	4.99	
2025-01-19 15:31:51.38	358.38	4.96	
2025-01-19 15:31:52.19	358.27	4.93	
2025-01-19 15:31:53.00	358.15	4.89	
2025-01-19 15:31:53.81	358.03	4.86	
2025-01-19 15:31:54.62	357.91	4.83	
2025-01-19 15:31:55.43	357.80	4.80	
2025-01-19 15:31:56.25	357.68	4.77	
2025-01-19 15:31:57.06	357.56	4.74	
2025-01-19 15:31:57.87	357.45	4.71	
2025-01-19 15:31:58.68	357.33	4.68	
2025-01-19 15:31:59.49	357.22	4.64	
2025-01-19 15:32:00.31	357.10	4.61	
2025-01-19 15:32:01.12	356.99	4.58	
2025-01-19 15:32:01.93	356.87	4.55	
2025-01-19 15:32:02.74	356.76	4.52	
2025-01-19 15:32:03.55	356.65	4.49	
2025-01-19 15:32:04.36	356.53	4.45	
2025-01-19 15:32:05.18	356.42	4.42	
2025-01-19 15:32:05.99	356.30	4.39	
2025-01-19 15:32:06.80	356.19	4.36	
2025-01-19 15:32:07.61	356.08	4.33	
2025-01-19 15:32:08.42	355.97	4.29	
2025-01-19 15:32:09.24	355.85	4.26	
2025-01-19 15:32:10.05	355.74	4.23	
2025-01-19 15:32:10.86	355.63	4.20	
2025-01-19 15:32:11.67	355.52	4.16	
2025-01-19 15:32:12.48	355.41	4.13	
2025-01-19 15:32:13.29	355.30	4.10	
2025-01-19 15:32:14.11	355.19	4.07	
2025-01-19 15:32:14.92	355.08	4.03	
2025-01-19 15:32:15.73	354.97	4.00	

#Closed at: 2025-01-19 15:32:15