passes_logs/2025/01/19/SPB_Silybum_02/SPB_Silybum_02__20250119_085129_SUOMI_NPP_rec.log

#Pass ID: 20250119_085129_SUOMI NPP
#Satellite: SUOMI NPP
#Configuration: NPP
#Start time: 2025-01-19 08:51:29

#Version: 2.0.20230423
#Station: SPB_Silybum_02
#Location: 30.233357 lon 59.946436 lat
#TLE: 1 37849U 11061A   25018.79654560  .00000210  00000+0  12058-3 0  9999
#TLE: 2 37849  98.7450 319.7371 0001526  35.0024 325.1252 14.19540179685454

#Time	Az	El	Level	Level2	SNR	BER	Gain	Gain2
2025-01-19 08:51:31.08	118.46	4.10	
2025-01-19 08:51:32.30	118.39	4.18	
2025-01-19 08:51:33.52	118.32	4.26	
2025-01-19 08:51:34.74	118.25	4.34	
2025-01-19 08:51:35.96	118.18	4.42	
2025-01-19 08:51:37.18	118.11	4.49	
2025-01-19 08:51:38.40	118.04	4.57	
2025-01-19 08:51:39.61	117.97	4.65	
2025-01-19 08:51:40.83	117.90	4.73	
2025-01-19 08:51:42.05	117.82	4.81	
2025-01-19 08:51:43.27	117.75	4.89	
2025-01-19 08:51:44.49	117.68	4.97	
2025-01-19 08:51:45.71	117.60	5.05	
2025-01-19 08:51:46.92	117.53	5.13	
2025-01-19 08:51:48.14	117.45	5.21	
2025-01-19 08:51:49.36	117.38	5.29	
2025-01-19 08:51:50.58	117.30	5.37	
2025-01-19 08:51:51.80	117.23	5.45	
2025-01-19 08:51:53.02	117.15	5.54	
2025-01-19 08:51:54.24	117.07	5.62	
2025-01-19 08:51:55.45	117.00	5.70	
2025-01-19 08:51:56.67	116.92	5.78	
2025-01-19 08:51:57.89	116.84	5.86	
2025-01-19 08:51:59.11	116.76	5.95	
2025-01-19 08:52:00.33	116.68	6.03	
2025-01-19 08:52:01.55	116.60	6.11	
2025-01-19 08:52:02.76	116.52	6.19	
2025-01-19 08:52:03.98	116.44	6.28	
2025-01-19 08:52:05.20	116.36	6.36	
2025-01-19 08:52:06.42	116.28	6.44	
2025-01-19 08:52:07.64	116.19	6.53	
2025-01-19 08:52:08.86	116.11	6.61	
2025-01-19 08:52:10.08	116.03	6.70	
2025-01-19 08:52:11.29	115.95	6.78	
2025-01-19 08:52:12.51	115.86	6.87	
2025-01-19 08:52:13.73	115.78	6.95	
2025-01-19 08:52:14.95	115.69	7.04	
2025-01-19 08:52:16.17	115.61	7.12	
2025-01-19 08:52:17.39	115.52	7.21	
2025-01-19 08:52:18.61	115.43	7.29	
2025-01-19 08:52:19.82	115.35	7.38	
2025-01-19 08:52:21.04	115.26	7.46	
2025-01-19 08:52:22.26	115.17	7.55	
2025-01-19 08:52:23.48	115.08	7.64	
2025-01-19 08:52:24.70	114.99	7.72	
2025-01-19 08:52:25.92	114.90	7.81	
2025-01-19 08:52:27.13	114.81	7.90	
2025-01-19 08:52:28.35	114.72	7.99	
2025-01-19 08:52:29.57	114.63	8.07	
2025-01-19 08:52:30.79	114.53	8.16	
2025-01-19 08:52:32.01	114.44	8.25	
2025-01-19 08:52:33.23	114.35	8.34	
2025-01-19 08:52:34.45	114.25	8.43	
2025-01-19 08:52:35.66	114.16	8.52	
2025-01-19 08:52:36.88	114.06	8.61	
2025-01-19 08:52:38.10	113.97	8.70	
2025-01-19 08:52:39.32	113.87	8.79	
2025-01-19 08:52:40.54	113.78	8.88	
2025-01-19 08:52:41.76	113.68	8.97	
2025-01-19 08:52:42.97	113.58	9.06	
2025-01-19 08:52:44.19	113.48	9.15	
2025-01-19 08:52:45.41	113.38	9.24	
2025-01-19 08:52:46.63	113.28	9.33	
2025-01-19 08:52:47.85	113.18	9.42	
2025-01-19 08:52:49.07	113.08	9.51	
2025-01-19 08:52:50.29	112.98	9.61	
2025-01-19 08:52:51.50	112.87	9.70	
2025-01-19 08:52:52.72	112.77	9.79	
2025-01-19 08:52:53.94	112.67	9.88	
2025-01-19 08:52:55.16	112.56	9.98	
2025-01-19 08:52:56.39	112.45	10.07	
2025-01-19 08:52:57.61	112.35	10.16	
2025-01-19 08:52:58.83	112.24	10.26	
2025-01-19 08:53:00.05	112.13	10.35	
2025-01-19 08:53:01.27	112.02	10.45	
2025-01-19 08:53:02.49	111.91	10.54	
2025-01-19 08:53:03.70	111.81	10.64	
2025-01-19 08:53:04.92	111.69	10.73	
2025-01-19 08:53:06.14	111.58	10.83	
2025-01-19 08:53:07.36	111.47	10.92	
2025-01-19 08:53:08.58	111.36	11.02	
2025-01-19 08:53:09.80	111.24	11.11	
2025-01-19 08:53:11.01	111.13	11.21	
2025-01-19 08:53:12.23	111.02	11.31	
2025-01-19 08:53:13.45	110.90	11.40	
2025-01-19 08:53:14.67	110.78	11.50	
2025-01-19 08:53:15.89	110.67	11.60	
2025-01-19 08:53:17.11	110.55	11.70	
2025-01-19 08:53:18.33	110.43	11.79	
2025-01-19 08:53:19.54	110.31	11.89	
2025-01-19 08:53:20.76	110.19	11.99	
2025-01-19 08:53:21.98	110.07	12.09	
2025-01-19 08:53:23.20	109.94	12.19	
2025-01-19 08:53:24.42	109.82	12.29	
2025-01-19 08:53:25.64	109.70	12.39	
2025-01-19 08:53:26.86	109.57	12.49	
2025-01-19 08:53:28.07	109.45	12.59	
2025-01-19 08:53:29.29	109.32	12.69	
2025-01-19 08:53:30.51	109.19	12.79	
2025-01-19 08:53:31.73	109.06	12.89	
2025-01-19 08:53:32.95	108.93	12.99	
2025-01-19 08:53:34.17	108.80	13.09	
2025-01-19 08:53:35.38	108.67	13.19	
2025-01-19 08:53:36.60	108.54	13.30	
2025-01-19 08:53:37.82	108.41	13.40	
2025-01-19 08:53:39.04	108.27	13.50	
2025-01-19 08:53:40.26	108.14	13.61	
2025-01-19 08:53:41.48	108.00	13.71	
2025-01-19 08:53:42.70	107.86	13.81	
2025-01-19 08:53:43.91	107.73	13.92	
2025-01-19 08:53:45.13	107.59	14.02	
2025-01-19 08:53:46.35	107.45	14.12	
2025-01-19 08:53:47.57	107.31	14.23	
2025-01-19 08:53:48.79	107.16	14.33	
2025-01-19 08:53:50.01	107.02	14.44	
2025-01-19 08:53:51.22	106.88	14.54	
2025-01-19 08:53:52.44	106.73	14.65	
2025-01-19 08:53:53.66	106.59	14.76	
2025-01-19 08:53:54.88	106.44	14.86	
2025-01-19 08:53:56.10	106.29	14.97	
2025-01-19 08:53:57.32	106.14	15.08	
2025-01-19 08:53:58.54	105.99	15.18	
2025-01-19 08:53:59.75	105.84	15.29	
2025-01-19 08:54:00.97	105.69	15.40	
2025-01-19 08:54:02.19	105.53	15.51	
2025-01-19 08:54:03.41	105.38	15.61	
2025-01-19 08:54:04.63	105.22	15.72	
2025-01-19 08:54:05.85	105.06	15.83	
2025-01-19 08:54:07.06	104.91	15.94	
2025-01-19 08:54:08.28	104.75	16.05	
2025-01-19 08:54:09.50	104.59	16.16	
2025-01-19 08:54:10.72	104.42	16.27	
2025-01-19 08:54:11.94	104.26	16.38	
2025-01-19 08:54:13.16	104.10	16.49	
2025-01-19 08:54:14.38	103.93	16.60	
2025-01-19 08:54:15.59	103.76	16.71	
2025-01-19 08:54:16.81	103.60	16.82	
2025-01-19 08:54:18.03	103.43	16.93	
2025-01-19 08:54:19.25	103.26	17.04	
2025-01-19 08:54:20.47	103.08	17.15	
2025-01-19 08:54:21.69	102.91	17.27	
2025-01-19 08:54:22.90	102.74	17.38	
2025-01-19 08:54:24.12	102.56	17.49	
2025-01-19 08:54:25.34	102.38	17.60	
2025-01-19 08:54:26.56	102.20	17.72	
2025-01-19 08:54:27.78	102.02	17.83	
2025-01-19 08:54:29.00	101.84	17.94	
2025-01-19 08:54:30.22	101.66	18.06	
2025-01-19 08:54:31.43	101.48	18.17	
2025-01-19 08:54:32.65	101.29	18.28	
2025-01-19 08:54:33.87	101.10	18.40	
2025-01-19 08:54:35.09	100.92	18.51	
2025-01-19 08:54:36.31	100.73	18.63	
2025-01-19 08:54:37.53	100.54	18.74	
2025-01-19 08:54:38.74	100.34	18.86	
2025-01-19 08:54:39.96	100.15	18.97	
2025-01-19 08:54:41.18	99.95	19.09	
2025-01-19 08:54:42.40	99.76	19.20	
2025-01-19 08:54:43.62	99.56	19.32	
2025-01-19 08:54:44.84	99.36	19.44	
2025-01-19 08:54:46.06	99.15	19.55	
2025-01-19 08:54:47.27	98.95	19.67	
2025-01-19 08:54:48.49	98.75	19.78	
2025-01-19 08:54:49.71	98.54	19.90	
2025-01-19 08:54:50.93	98.33	20.02	
2025-01-19 08:54:52.15	98.12	20.13	
2025-01-19 08:54:53.37	97.91	20.25	
2025-01-19 08:54:54.59	97.70	20.37	
2025-01-19 08:54:55.80	97.49	20.49	
2025-01-19 08:54:57.02	97.27	20.60	
2025-01-19 08:54:58.24	97.05	20.72	
2025-01-19 08:54:59.46	96.83	20.84	
2025-01-19 08:55:00.68	96.61	20.96	
2025-01-19 08:55:01.90	96.39	21.07	
2025-01-19 08:55:03.11	96.16	21.19	
2025-01-19 08:55:04.33	95.94	21.31	
2025-01-19 08:55:05.55	95.71	21.43	
2025-01-19 08:55:06.77	95.48	21.55	
2025-01-19 08:55:07.99	95.25	21.66	
2025-01-19 08:55:09.21	95.01	21.78	
2025-01-19 08:55:10.43	94.78	21.90	
2025-01-19 08:55:11.64	94.54	22.02	
2025-01-19 08:55:12.86	94.30	22.14	
2025-01-19 08:55:14.08	94.06	22.26	
2025-01-19 08:55:15.30	93.82	22.37	
2025-01-19 08:55:16.52	93.57	22.49	
2025-01-19 08:55:17.74	93.33	22.61	
2025-01-19 08:55:18.95	93.08	22.73	
2025-01-19 08:55:20.17	92.83	22.85	
2025-01-19 08:55:21.39	92.58	22.96	
2025-01-19 08:55:22.61	92.32	23.08	
2025-01-19 08:55:23.83	92.07	23.20	
2025-01-19 08:55:25.05	91.81	23.32	
2025-01-19 08:55:26.27	91.55	23.44	
2025-01-19 08:55:27.48	91.29	23.55	
2025-01-19 08:55:28.70	91.02	23.67	
2025-01-19 08:55:29.92	90.76	23.79	
2025-01-19 08:55:31.14	90.49	23.91	
2025-01-19 08:55:32.36	90.22	24.02	
2025-01-19 08:55:33.58	89.95	24.14	
2025-01-19 08:55:34.79	89.67	24.26	
2025-01-19 08:55:36.01	89.40	24.37	
2025-01-19 08:55:37.23	89.12	24.49	
2025-01-19 08:55:38.45	88.84	24.61	
2025-01-19 08:55:39.67	88.56	24.72	
2025-01-19 08:55:40.89	88.27	24.84	
2025-01-19 08:55:42.11	87.98	24.95	
2025-01-19 08:55:43.32	87.70	25.07	
2025-01-19 08:55:44.54	87.41	25.18	
2025-01-19 08:55:45.76	87.11	25.30	
2025-01-19 08:55:46.98	86.82	25.41	
2025-01-19 08:55:48.20	86.52	25.53	
2025-01-19 08:55:49.42	86.22	25.64	
2025-01-19 08:55:50.63	85.92	25.75	
2025-01-19 08:55:51.85	85.62	25.86	
2025-01-19 08:55:53.07	85.31	25.98	
2025-01-19 08:55:54.29	85.00	26.09	
2025-01-19 08:55:55.51	84.69	26.20	
2025-01-19 08:55:56.73	84.38	26.31	
2025-01-19 08:55:57.95	84.07	26.42	
2025-01-19 08:55:59.16	83.75	26.53	
2025-01-19 08:56:00.38	83.43	26.64	
2025-01-19 08:56:01.60	83.11	26.75	
2025-01-19 08:56:02.82	82.79	26.86	
2025-01-19 08:56:04.05	82.46	26.97	
2025-01-19 08:56:05.27	82.13	27.07	
2025-01-19 08:56:06.49	81.80	27.18	
2025-01-19 08:56:07.71	81.47	27.29	
2025-01-19 08:56:08.93	81.13	27.39	
2025-01-19 08:56:10.15	80.80	27.50	
2025-01-19 08:56:11.36	80.46	27.60	
2025-01-19 08:56:12.58	80.12	27.70	
2025-01-19 08:56:13.80	79.77	27.80	
2025-01-19 08:56:15.02	79.43	27.91	
2025-01-19 08:56:16.24	79.08	28.01	
2025-01-19 08:56:17.46	78.73	28.11	
2025-01-19 08:56:18.68	78.38	28.20	
2025-01-19 08:56:19.89	78.03	28.30	
2025-01-19 08:56:21.11	77.67	28.40	
2025-01-19 08:56:22.33	77.31	28.50	
2025-01-19 08:56:23.55	76.95	28.59	
2025-01-19 08:56:24.77	76.59	28.69	
2025-01-19 08:56:25.99	76.22	28.78	
2025-01-19 08:56:27.20	75.86	28.87	
2025-01-19 08:56:28.42	75.49	28.96	
2025-01-19 08:56:29.64	75.11	29.05	
2025-01-19 08:56:30.86	74.74	29.14	
2025-01-19 08:56:32.08	74.37	29.23	
2025-01-19 08:56:33.30	73.99	29.32	
2025-01-19 08:56:34.52	73.61	29.40	
2025-01-19 08:56:35.73	73.23	29.49	
2025-01-19 08:56:36.95	72.84	29.57	
2025-01-19 08:56:38.17	72.46	29.65	
2025-01-19 08:56:39.39	72.07	29.74	
2025-01-19 08:56:40.61	71.68	29.82	
2025-01-19 08:56:41.83	71.29	29.89	
2025-01-19 08:56:43.04	70.90	29.97	
2025-01-19 08:56:44.26	70.50	30.05	
2025-01-19 08:56:45.48	70.11	30.12	
2025-01-19 08:56:46.70	69.71	30.20	
2025-01-19 08:56:47.92	69.31	30.27	
2025-01-19 08:56:49.14	68.90	30.34	
2025-01-19 08:56:50.36	68.50	30.41	
2025-01-19 08:56:51.57	68.09	30.47	
2025-01-19 08:56:52.79	67.69	30.54	
2025-01-19 08:56:54.01	67.28	30.61	
2025-01-19 08:56:55.23	66.87	30.67	
2025-01-19 08:56:56.45	66.45	30.73	
2025-01-19 08:56:57.67	66.04	30.79	
2025-01-19 08:56:58.88	65.63	30.85	
2025-01-19 08:57:00.10	65.21	30.91	
2025-01-19 08:57:01.32	64.79	30.96	
2025-01-19 08:57:02.54	64.37	31.02	
2025-01-19 08:57:03.76	63.95	31.07	
2025-01-19 08:57:04.98	63.53	31.12	
2025-01-19 08:57:06.20	63.10	31.17	
2025-01-19 08:57:07.41	62.68	31.21	
2025-01-19 08:57:08.63	62.25	31.26	
2025-01-19 08:57:09.85	61.82	31.30	
2025-01-19 08:57:11.07	61.40	31.34	
2025-01-19 08:57:12.29	60.97	31.38	
2025-01-19 08:57:13.51	60.53	31.42	
2025-01-19 08:57:14.72	60.11	31.46	
2025-01-19 08:57:15.94	59.67	31.49	
2025-01-19 08:57:17.16	59.24	31.53	
2025-01-19 08:57:18.38	58.80	31.56	
2025-01-19 08:57:19.60	58.37	31.59	
2025-01-19 08:57:20.82	57.93	31.62	
2025-01-19 08:57:22.04	57.49	31.64	
2025-01-19 08:57:23.25	57.06	31.66	
2025-01-19 08:57:24.47	56.62	31.69	
2025-01-19 08:57:25.69	56.18	31.71	
2025-01-19 08:57:26.91	55.74	31.72	
2025-01-19 08:57:28.13	55.30	31.74	
2025-01-19 08:57:29.35	54.86	31.76	
2025-01-19 08:57:30.57	54.42	31.77	
2025-01-19 08:57:31.78	53.99	31.78	
2025-01-19 08:57:33.00	53.54	31.79	
2025-01-19 08:57:34.22	53.10	31.79	
2025-01-19 08:57:35.44	52.66	31.80	
2025-01-19 08:57:36.66	52.22	31.80	
2025-01-19 08:57:37.88	51.78	31.80	
2025-01-19 08:57:39.09	51.34	31.80	
2025-01-19 08:57:40.31	50.90	31.80	
2025-01-19 08:57:41.53	50.46	31.79	
2025-01-19 08:57:42.75	50.02	31.79	
2025-01-19 08:57:43.97	49.58	31.78	
2025-01-19 08:57:45.19	49.13	31.77	
2025-01-19 08:57:46.41	48.69	31.76	
2025-01-19 08:57:47.62	48.26	31.74	
2025-01-19 08:57:48.84	47.82	31.72	
2025-01-19 08:57:50.06	47.38	31.71	
2025-01-19 08:57:51.28	46.94	31.69	
2025-01-19 08:57:52.50	46.50	31.66	
2025-01-19 08:57:53.72	46.06	31.64	
2025-01-19 08:57:54.93	45.63	31.62	
2025-01-19 08:57:56.15	45.20	31.59	
2025-01-19 08:57:57.37	44.76	31.56	
2025-01-19 08:57:58.59	44.33	31.53	
2025-01-19 08:57:59.81	43.89	31.49	
2025-01-19 08:58:01.03	43.46	31.46	
2025-01-19 08:58:02.25	43.03	31.42	
2025-01-19 08:58:03.46	42.60	31.38	
2025-01-19 08:58:04.68	42.17	31.34	
2025-01-19 08:58:05.90	41.74	31.30	
2025-01-19 08:58:07.12	41.32	31.26	
2025-01-19 08:58:08.34	40.89	31.21	
2025-01-19 08:58:09.56	40.46	31.17	
2025-01-19 08:58:10.77	40.04	31.12	
2025-01-19 08:58:11.99	39.62	31.07	
2025-01-19 08:58:13.21	39.20	31.02	
2025-01-19 08:58:14.43	38.78	30.96	
2025-01-19 08:58:15.65	38.36	30.91	
2025-01-19 08:58:16.87	37.95	30.85	
2025-01-19 08:58:18.09	37.53	30.79	
2025-01-19 08:58:19.30	37.12	30.73	
2025-01-19 08:58:20.52	36.71	30.67	
2025-01-19 08:58:21.74	36.30	30.61	
2025-01-19 08:58:22.96	35.89	30.54	
2025-01-19 08:58:24.18	35.48	30.48	
2025-01-19 08:58:25.40	35.08	30.41	
2025-01-19 08:58:26.61	34.68	30.34	
2025-01-19 08:58:27.83	34.28	30.27	
2025-01-19 08:58:29.05	33.88	30.20	
2025-01-19 08:58:30.27	33.48	30.12	
2025-01-19 08:58:31.49	33.08	30.05	
2025-01-19 08:58:32.71	32.69	29.97	
2025-01-19 08:58:33.93	32.29	29.90	
2025-01-19 08:58:35.14	31.91	29.82	
2025-01-19 08:58:36.36	31.52	29.74	
2025-01-19 08:58:37.58	31.13	29.66	
2025-01-19 08:58:38.80	30.74	29.58	
2025-01-19 08:58:40.02	30.36	29.49	
2025-01-19 08:58:41.24	29.98	29.41	
2025-01-19 08:58:42.45	29.61	29.32	
2025-01-19 08:58:43.67	29.23	29.24	
2025-01-19 08:58:44.89	28.85	29.15	
2025-01-19 08:58:46.11	28.48	29.06	
2025-01-19 08:58:47.33	28.11	28.97	
2025-01-19 08:58:48.55	27.74	28.88	
2025-01-19 08:58:49.77	27.38	28.79	
2025-01-19 08:58:50.98	27.01	28.69	
2025-01-19 08:58:52.20	26.65	28.60	
2025-01-19 08:58:53.42	26.29	28.50	
2025-01-19 08:58:54.64	25.93	28.41	
2025-01-19 08:58:55.86	25.58	28.31	
2025-01-19 08:58:57.08	25.23	28.21	
2025-01-19 08:58:58.30	24.87	28.11	
2025-01-19 08:58:59.51	24.53	28.02	
2025-01-19 08:59:00.73	24.18	27.91	
2025-01-19 08:59:01.95	23.84	27.81	
2025-01-19 08:59:03.17	23.49	27.71	
2025-01-19 08:59:04.39	23.15	27.61	
2025-01-19 08:59:05.61	22.82	27.51	
2025-01-19 08:59:06.82	22.48	27.40	
2025-01-19 08:59:08.04	22.15	27.30	
2025-01-19 08:59:09.26	21.82	27.19	
2025-01-19 08:59:10.48	21.49	27.09	
2025-01-19 08:59:11.70	21.16	26.98	
2025-01-19 08:59:12.92	20.84	26.87	
2025-01-19 08:59:14.14	20.51	26.76	
2025-01-19 08:59:15.35	20.20	26.66	
2025-01-19 08:59:16.57	19.88	26.55	
2025-01-19 08:59:17.79	19.56	26.44	
2025-01-19 08:59:19.01	19.25	26.33	
2025-01-19 08:59:20.23	18.94	26.22	
2025-01-19 08:59:21.45	18.63	26.11	
2025-01-19 08:59:22.66	18.32	26.00	
2025-01-19 08:59:23.88	18.02	25.88	
2025-01-19 08:59:25.10	17.72	25.77	
2025-01-19 08:59:26.32	17.41	25.66	
2025-01-19 08:59:27.54	17.12	25.55	
2025-01-19 08:59:28.76	16.82	25.43	
2025-01-19 08:59:29.98	16.53	25.32	
2025-01-19 08:59:31.19	16.24	25.21	
2025-01-19 08:59:32.41	15.95	25.09	
2025-01-19 08:59:33.63	15.66	24.98	
2025-01-19 08:59:34.85	15.37	24.86	
2025-01-19 08:59:36.07	15.09	24.75	
2025-01-19 08:59:37.29	14.81	24.63	
2025-01-19 08:59:38.50	14.53	24.52	
2025-01-19 08:59:39.72	14.25	24.40	
2025-01-19 08:59:40.94	13.98	24.28	
2025-01-19 08:59:42.16	13.71	24.17	
2025-01-19 08:59:43.38	13.43	24.05	
2025-01-19 08:59:44.60	13.17	23.93	
2025-01-19 08:59:45.82	12.90	23.82	
2025-01-19 08:59:47.03	12.64	23.70	
2025-01-19 08:59:48.25	12.37	23.58	
2025-01-19 08:59:49.47	12.11	23.47	
2025-01-19 08:59:50.69	11.85	23.35	
2025-01-19 08:59:51.91	11.60	23.23	
2025-01-19 08:59:53.13	11.34	23.11	
2025-01-19 08:59:54.34	11.09	23.00	
2025-01-19 08:59:55.56	10.84	22.88	
2025-01-19 08:59:56.78	10.59	22.76	
2025-01-19 08:59:58.00	10.34	22.64	
2025-01-19 08:59:59.22	10.10	22.53	
2025-01-19 09:00:00.44	9.85	22.41	
2025-01-19 09:00:01.67	9.61	22.29	
2025-01-19 09:00:02.88	9.37	22.17	
2025-01-19 09:00:04.10	9.13	22.05	
2025-01-19 09:00:05.32	8.90	21.94	
2025-01-19 09:00:06.54	8.66	21.82	
2025-01-19 09:00:07.76	8.43	21.70	
2025-01-19 09:00:08.98	8.20	21.58	
2025-01-19 09:00:10.20	7.97	21.46	
2025-01-19 09:00:11.41	7.74	21.35	
2025-01-19 09:00:12.63	7.52	21.23	
2025-01-19 09:00:13.85	7.29	21.11	
2025-01-19 09:00:15.07	7.07	21.00	
2025-01-19 09:00:16.29	6.85	20.88	
2025-01-19 09:00:17.51	6.63	20.76	
2025-01-19 09:00:18.72	6.42	20.64	
2025-01-19 09:00:19.94	6.20	20.53	
2025-01-19 09:00:21.16	5.99	20.41	
2025-01-19 09:00:22.38	5.78	20.29	
2025-01-19 09:00:23.60	5.57	20.18	
2025-01-19 09:00:24.82	5.36	20.06	
2025-01-19 09:00:26.04	5.15	19.94	
2025-01-19 09:00:27.25	4.95	19.83	
2025-01-19 09:00:28.47	4.74	19.71	
2025-01-19 09:00:29.69	4.54	19.60	
2025-01-19 09:00:30.91	4.34	19.48	
2025-01-19 09:00:32.13	4.14	19.37	
2025-01-19 09:00:33.35	3.94	19.25	
2025-01-19 09:00:34.56	3.75	19.14	
2025-01-19 09:00:35.78	3.55	19.02	
2025-01-19 09:00:37.00	3.36	18.91	
2025-01-19 09:00:38.22	3.17	18.79	
2025-01-19 09:00:39.44	2.98	18.68	
2025-01-19 09:00:40.67	2.79	18.56	
2025-01-19 09:00:41.89	2.60	18.45	
2025-01-19 09:00:43.10	2.42	18.34	
2025-01-19 09:00:44.32	2.23	18.22	
2025-01-19 09:00:45.54	2.05	18.11	
2025-01-19 09:00:46.76	1.87	17.99	
2025-01-19 09:00:47.98	1.69	17.88	
2025-01-19 09:00:49.20	1.51	17.77	
2025-01-19 09:00:50.42	1.33	17.66	
2025-01-19 09:00:51.63	1.15	17.55	
2025-01-19 09:00:52.85	0.98	17.43	
2025-01-19 09:00:54.07	0.81	17.32	
2025-01-19 09:00:55.29	0.63	17.21	
2025-01-19 09:00:56.51	0.46	17.10	
2025-01-19 09:00:57.73	0.29	16.99	
2025-01-19 09:00:58.96	0.12	16.88	
2025-01-19 09:01:00.18	359.96	16.76	
2025-01-19 09:01:01.40	359.79	16.65	
2025-01-19 09:01:02.62	359.63	16.54	
2025-01-19 09:01:03.83	359.46	16.44	
2025-01-19 09:01:05.05	359.30	16.33	
2025-01-19 09:01:06.27	359.14	16.22	
2025-01-19 09:01:07.49	358.98	16.11	
2025-01-19 09:01:08.71	358.82	16.00	
2025-01-19 09:01:09.93	358.66	15.89	
2025-01-19 09:01:11.15	358.51	15.78	
2025-01-19 09:01:12.36	358.35	15.67	
2025-01-19 09:01:13.58	358.20	15.57	
2025-01-19 09:01:14.80	358.05	15.46	
2025-01-19 09:01:16.02	357.90	15.35	
2025-01-19 09:01:17.24	357.74	15.24	
2025-01-19 09:01:18.46	357.60	15.14	
2025-01-19 09:01:19.67	357.45	15.03	
2025-01-19 09:01:20.89	357.30	14.93	
2025-01-19 09:01:22.11	357.15	14.82	
2025-01-19 09:01:23.33	357.01	14.71	
2025-01-19 09:01:24.55	356.87	14.61	
2025-01-19 09:01:25.77	356.72	14.50	
2025-01-19 09:01:26.99	356.58	14.40	
2025-01-19 09:01:28.20	356.44	14.30	
2025-01-19 09:01:29.42	356.30	14.19	
2025-01-19 09:01:30.64	356.16	14.09	
2025-01-19 09:01:31.86	356.02	13.98	
2025-01-19 09:01:33.08	355.89	13.88	
2025-01-19 09:01:34.30	355.75	13.78	
2025-01-19 09:01:35.51	355.62	13.67	
2025-01-19 09:01:36.73	355.48	13.57	
2025-01-19 09:01:37.95	355.35	13.47	
2025-01-19 09:01:39.17	355.22	13.37	
2025-01-19 09:01:40.39	355.09	13.27	
2025-01-19 09:01:41.61	354.96	13.16	
2025-01-19 09:01:42.83	354.83	13.06	
2025-01-19 09:01:44.04	354.70	12.96	
2025-01-19 09:01:45.26	354.57	12.86	
2025-01-19 09:01:46.48	354.44	12.76	
2025-01-19 09:01:47.70	354.32	12.66	
2025-01-19 09:01:48.92	354.19	12.56	
2025-01-19 09:01:50.14	354.07	12.46	
2025-01-19 09:01:51.35	353.95	12.36	
2025-01-19 09:01:52.57	353.82	12.26	
2025-01-19 09:01:53.79	353.70	12.16	
2025-01-19 09:01:55.01	353.58	12.07	
2025-01-19 09:01:56.23	353.46	11.97	
2025-01-19 09:01:57.45	353.34	11.87	
2025-01-19 09:01:58.67	353.23	11.77	
2025-01-19 09:01:59.88	353.11	11.68	
2025-01-19 09:02:01.10	352.99	11.58	
2025-01-19 09:02:02.32	352.88	11.48	
2025-01-19 09:02:03.54	352.76	11.38	
2025-01-19 09:02:04.76	352.65	11.29	
2025-01-19 09:02:05.98	352.53	11.19	
2025-01-19 09:02:07.19	352.42	11.10	
2025-01-19 09:02:08.41	352.31	11.00	
2025-01-19 09:02:09.63	352.20	10.91	
2025-01-19 09:02:10.85	352.09	10.81	
2025-01-19 09:02:12.07	351.98	10.72	
2025-01-19 09:02:13.29	351.87	10.62	
2025-01-19 09:02:14.51	351.76	10.53	
2025-01-19 09:02:15.72	351.66	10.43	
2025-01-19 09:02:16.94	351.55	10.34	
2025-01-19 09:02:18.16	351.44	10.25	
2025-01-19 09:02:19.38	351.34	10.15	
2025-01-19 09:02:20.60	351.23	10.06	
2025-01-19 09:02:21.82	351.13	9.97	
2025-01-19 09:02:23.04	351.03	9.87	
2025-01-19 09:02:24.25	350.92	9.78	
2025-01-19 09:02:25.47	350.82	9.69	
2025-01-19 09:02:26.69	350.72	9.60	
2025-01-19 09:02:27.91	350.62	9.51	
2025-01-19 09:02:29.13	350.52	9.42	
2025-01-19 09:02:30.35	350.42	9.32	
2025-01-19 09:02:31.56	350.32	9.23	
2025-01-19 09:02:32.78	350.23	9.14	
2025-01-19 09:02:34.00	350.13	9.05	
2025-01-19 09:02:35.22	350.03	8.96	
2025-01-19 09:02:36.44	349.94	8.87	
2025-01-19 09:02:37.66	349.84	8.78	
2025-01-19 09:02:38.88	349.75	8.69	
2025-01-19 09:02:40.09	349.65	8.61	
2025-01-19 09:02:41.31	349.56	8.52	
2025-01-19 09:02:42.53	349.47	8.43	
2025-01-19 09:02:43.75	349.37	8.34	
2025-01-19 09:02:44.97	349.28	8.25	
2025-01-19 09:02:46.19	349.19	8.16	
2025-01-19 09:02:47.40	349.10	8.08	
2025-01-19 09:02:48.62	349.01	7.99	
2025-01-19 09:02:49.84	348.92	7.90	
2025-01-19 09:02:51.06	348.83	7.82	
2025-01-19 09:02:52.28	348.74	7.73	
2025-01-19 09:02:53.50	348.65	7.64	
2025-01-19 09:02:54.72	348.57	7.56	
2025-01-19 09:02:55.93	348.48	7.47	
2025-01-19 09:02:57.15	348.39	7.38	
2025-01-19 09:02:58.37	348.31	7.30	
2025-01-19 09:02:59.59	348.22	7.21	
2025-01-19 09:03:00.81	348.14	7.13	
2025-01-19 09:03:02.03	348.06	7.04	
2025-01-19 09:03:03.24	347.97	6.96	
2025-01-19 09:03:04.46	347.89	6.88	
2025-01-19 09:03:05.68	347.81	6.79	
2025-01-19 09:03:06.90	347.72	6.71	
2025-01-19 09:03:08.12	347.64	6.62	
2025-01-19 09:03:09.34	347.56	6.54	
2025-01-19 09:03:10.56	347.48	6.46	
2025-01-19 09:03:11.77	347.40	6.37	
2025-01-19 09:03:12.99	347.32	6.29	
2025-01-19 09:03:14.21	347.24	6.21	
2025-01-19 09:03:15.43	347.16	6.12	
2025-01-19 09:03:16.65	347.09	6.04	
2025-01-19 09:03:17.87	347.01	5.96	
2025-01-19 09:03:19.08	346.93	5.88	
2025-01-19 09:03:20.30	346.85	5.80	
2025-01-19 09:03:21.52	346.78	5.72	
2025-01-19 09:03:22.74	346.70	5.63	
2025-01-19 09:03:23.96	346.63	5.55	
2025-01-19 09:03:25.18	346.55	5.47	
2025-01-19 09:03:26.40	346.48	5.39	
2025-01-19 09:03:27.61	346.40	5.31	
2025-01-19 09:03:28.83	346.33	5.23	
2025-01-19 09:03:30.05	346.26	5.15	
2025-01-19 09:03:31.27	346.18	5.07	
2025-01-19 09:03:32.49	346.11	4.99	
2025-01-19 09:03:33.71	346.04	4.91	
2025-01-19 09:03:34.92	345.97	4.83	
2025-01-19 09:03:36.14	345.90	4.75	
2025-01-19 09:03:37.36	345.83	4.67	
2025-01-19 09:03:38.58	345.76	4.59	
2025-01-19 09:03:39.80	345.69	4.52	
2025-01-19 09:03:41.02	345.62	4.44	
2025-01-19 09:03:42.24	345.55	4.36	
2025-01-19 09:03:43.45	345.48	4.28	
2025-01-19 09:03:44.67	345.41	4.20	
2025-01-19 09:03:45.89	345.34	4.13	
2025-01-19 09:03:47.11	345.27	4.05	

#Closed at: 2025-01-19 09:03:47