passes_logs/2025/01/19/SPB_Silybum_02/SPB_Silybum_02__20250119_103049_SUOMI_NPP_rec.log

#Pass ID: 20250119_103049_SUOMI NPP
#Satellite: SUOMI NPP
#Configuration: NPP
#Start time: 2025-01-19 10:30:49

#Version: 2.0.20230423
#Station: SPB_Silybum_02
#Location: 30.233357 lon 59.946436 lat
#TLE: 1 37849U 11061A   25018.79654560  .00000210  00000+0  12058-3 0  9999
#TLE: 2 37849  98.7450 319.7371 0001526  35.0024 325.1252 14.19540179685454

#Time	Az	El	Level	Level2	SNR	BER	Gain	Gain2
2025-01-19 10:30:51.15	166.25	4.10	
2025-01-19 10:30:52.57	166.27	4.20	
2025-01-19 10:30:53.99	166.29	4.30	
2025-01-19 10:30:55.41	166.31	4.40	
2025-01-19 10:30:56.83	166.33	4.50	
2025-01-19 10:30:58.25	166.35	4.60	
2025-01-19 10:30:59.68	166.37	4.70	
2025-01-19 10:31:01.10	166.39	4.80	
2025-01-19 10:31:02.52	166.41	4.90	
2025-01-19 10:31:03.94	166.43	5.00	
2025-01-19 10:31:05.36	166.46	5.10	
2025-01-19 10:31:06.78	166.48	5.20	
2025-01-19 10:31:08.20	166.50	5.31	
2025-01-19 10:31:09.63	166.52	5.41	
2025-01-19 10:31:11.05	166.54	5.51	
2025-01-19 10:31:12.47	166.56	5.62	
2025-01-19 10:31:13.89	166.59	5.72	
2025-01-19 10:31:15.31	166.61	5.82	
2025-01-19 10:31:16.73	166.63	5.93	
2025-01-19 10:31:18.16	166.65	6.04	
2025-01-19 10:31:19.58	166.68	6.14	
2025-01-19 10:31:21.00	166.70	6.25	
2025-01-19 10:31:22.42	166.72	6.35	
2025-01-19 10:31:23.84	166.74	6.46	
2025-01-19 10:31:25.26	166.77	6.57	
2025-01-19 10:31:26.68	166.79	6.68	
2025-01-19 10:31:28.11	166.81	6.79	
2025-01-19 10:31:29.53	166.84	6.89	
2025-01-19 10:31:30.95	166.86	7.00	
2025-01-19 10:31:32.37	166.88	7.11	
2025-01-19 10:31:33.79	166.91	7.22	
2025-01-19 10:31:35.21	166.93	7.33	
2025-01-19 10:31:36.64	166.96	7.45	
2025-01-19 10:31:38.06	166.98	7.56	
2025-01-19 10:31:39.48	167.00	7.67	
2025-01-19 10:31:40.90	167.03	7.78	
2025-01-19 10:31:42.32	167.05	7.90	
2025-01-19 10:31:43.74	167.08	8.01	
2025-01-19 10:31:45.16	167.10	8.12	
2025-01-19 10:31:46.59	167.13	8.24	
2025-01-19 10:31:48.01	167.16	8.36	
2025-01-19 10:31:49.43	167.18	8.47	
2025-01-19 10:31:50.85	167.21	8.59	
2025-01-19 10:31:52.27	167.23	8.70	
2025-01-19 10:31:53.69	167.26	8.82	
2025-01-19 10:31:55.12	167.29	8.94	
2025-01-19 10:31:56.54	167.31	9.06	
2025-01-19 10:31:57.96	167.34	9.18	
2025-01-19 10:31:59.38	167.37	9.30	
2025-01-19 10:32:00.80	167.39	9.42	
2025-01-19 10:32:02.22	167.42	9.54	
2025-01-19 10:32:03.65	167.45	9.66	
2025-01-19 10:32:05.07	167.48	9.78	
2025-01-19 10:32:06.49	167.50	9.91	
2025-01-19 10:32:07.91	167.53	10.03	
2025-01-19 10:32:09.33	167.56	10.15	
2025-01-19 10:32:10.75	167.59	10.28	
2025-01-19 10:32:12.17	167.62	10.40	
2025-01-19 10:32:13.60	167.65	10.53	
2025-01-19 10:32:15.02	167.67	10.66	
2025-01-19 10:32:16.44	167.70	10.78	
2025-01-19 10:32:17.86	167.73	10.91	
2025-01-19 10:32:19.28	167.76	11.04	
2025-01-19 10:32:20.70	167.79	11.17	
2025-01-19 10:32:22.13	167.82	11.30	
2025-01-19 10:32:23.55	167.85	11.43	
2025-01-19 10:32:24.97	167.88	11.56	
2025-01-19 10:32:26.39	167.92	11.69	
2025-01-19 10:32:27.81	167.95	11.82	
2025-01-19 10:32:29.23	167.98	11.96	
2025-01-19 10:32:30.65	168.01	12.09	
2025-01-19 10:32:32.08	168.04	12.23	
2025-01-19 10:32:33.50	168.07	12.36	
2025-01-19 10:32:34.92	168.11	12.50	
2025-01-19 10:32:36.34	168.14	12.63	
2025-01-19 10:32:37.76	168.17	12.77	
2025-01-19 10:32:39.18	168.20	12.91	
2025-01-19 10:32:40.61	168.24	13.05	
2025-01-19 10:32:42.03	168.27	13.19	
2025-01-19 10:32:43.45	168.31	13.33	
2025-01-19 10:32:44.87	168.34	13.47	
2025-01-19 10:32:46.29	168.37	13.62	
2025-01-19 10:32:47.71	168.41	13.76	
2025-01-19 10:32:49.13	168.44	13.90	
2025-01-19 10:32:50.56	168.48	14.05	
2025-01-19 10:32:51.98	168.52	14.20	
2025-01-19 10:32:53.40	168.55	14.34	
2025-01-19 10:32:54.82	168.59	14.49	
2025-01-19 10:32:56.24	168.63	14.64	
2025-01-19 10:32:57.66	168.66	14.79	
2025-01-19 10:32:59.09	168.70	14.94	
2025-01-19 10:33:00.51	168.74	15.09	
2025-01-19 10:33:01.93	168.78	15.24	
2025-01-19 10:33:03.35	168.81	15.40	
2025-01-19 10:33:04.77	168.85	15.55	
2025-01-19 10:33:06.19	168.89	15.70	
2025-01-19 10:33:07.61	168.93	15.86	
2025-01-19 10:33:09.04	168.97	16.02	
2025-01-19 10:33:10.46	169.01	16.18	
2025-01-19 10:33:11.88	169.05	16.34	
2025-01-19 10:33:13.30	169.09	16.50	
2025-01-19 10:33:14.72	169.13	16.66	
2025-01-19 10:33:16.14	169.18	16.82	
2025-01-19 10:33:17.57	169.22	16.98	
2025-01-19 10:33:18.99	169.26	17.15	
2025-01-19 10:33:20.41	169.30	17.31	
2025-01-19 10:33:21.83	169.35	17.48	
2025-01-19 10:33:23.25	169.39	17.65	
2025-01-19 10:33:24.67	169.44	17.82	
2025-01-19 10:33:26.10	169.48	17.99	
2025-01-19 10:33:27.52	169.53	18.16	
2025-01-19 10:33:28.94	169.57	18.33	
2025-01-19 10:33:30.36	169.62	18.51	
2025-01-19 10:33:31.78	169.66	18.68	
2025-01-19 10:33:33.20	169.71	18.86	
2025-01-19 10:33:34.62	169.76	19.03	
2025-01-19 10:33:36.05	169.81	19.21	
2025-01-19 10:33:37.47	169.86	19.39	
2025-01-19 10:33:38.89	169.90	19.58	
2025-01-19 10:33:40.31	169.95	19.76	
2025-01-19 10:33:41.73	170.00	19.94	
2025-01-19 10:33:43.15	170.05	20.13	
2025-01-19 10:33:44.58	170.11	20.32	
2025-01-19 10:33:46.00	170.16	20.50	
2025-01-19 10:33:47.42	170.21	20.69	
2025-01-19 10:33:48.84	170.26	20.88	
2025-01-19 10:33:50.26	170.32	21.08	
2025-01-19 10:33:51.68	170.37	21.27	
2025-01-19 10:33:53.10	170.43	21.46	
2025-01-19 10:33:54.53	170.48	21.66	
2025-01-19 10:33:55.95	170.54	21.86	
2025-01-19 10:33:57.37	170.59	22.06	
2025-01-19 10:33:58.79	170.65	22.26	
2025-01-19 10:34:00.21	170.71	22.46	
2025-01-19 10:34:01.63	170.77	22.67	
2025-01-19 10:34:03.06	170.83	22.88	
2025-01-19 10:34:04.48	170.89	23.08	
2025-01-19 10:34:05.90	170.95	23.29	
2025-01-19 10:34:07.32	171.01	23.50	
2025-01-19 10:34:08.74	171.08	23.72	
2025-01-19 10:34:10.16	171.14	23.93	
2025-01-19 10:34:11.58	171.20	24.15	
2025-01-19 10:34:13.01	171.27	24.37	
2025-01-19 10:34:14.43	171.33	24.59	
2025-01-19 10:34:15.85	171.40	24.81	
2025-01-19 10:34:17.27	171.47	25.03	
2025-01-19 10:34:18.69	171.54	25.26	
2025-01-19 10:34:20.11	171.61	25.48	
2025-01-19 10:34:21.54	171.68	25.72	
2025-01-19 10:34:22.96	171.75	25.95	
2025-01-19 10:34:24.38	171.82	26.18	
2025-01-19 10:34:25.80	171.89	26.42	
2025-01-19 10:34:27.22	171.97	26.65	
2025-01-19 10:34:28.64	172.04	26.89	
2025-01-19 10:34:30.06	172.12	27.13	
2025-01-19 10:34:31.49	172.20	27.38	
2025-01-19 10:34:32.91	172.28	27.62	
2025-01-19 10:34:34.33	172.36	27.87	
2025-01-19 10:34:35.75	172.44	28.12	
2025-01-19 10:34:37.17	172.52	28.37	
2025-01-19 10:34:38.59	172.60	28.63	
2025-01-19 10:34:40.02	172.69	28.89	
2025-01-19 10:34:41.44	172.77	29.14	
2025-01-19 10:34:42.86	172.86	29.41	
2025-01-19 10:34:44.28	172.95	29.67	
2025-01-19 10:34:45.70	173.04	29.94	
2025-01-19 10:34:47.12	173.13	30.20	
2025-01-19 10:34:48.54	173.22	30.47	
2025-01-19 10:34:49.97	173.32	30.75	
2025-01-19 10:34:51.39	173.41	31.03	
2025-01-19 10:34:52.81	173.51	31.30	
2025-01-19 10:34:54.23	173.61	31.59	
2025-01-19 10:34:55.65	173.71	31.87	
2025-01-19 10:34:57.07	173.81	32.16	
2025-01-19 10:34:58.50	173.92	32.45	
2025-01-19 10:34:59.92	174.02	32.74	
2025-01-19 10:35:01.34	174.13	33.03	
2025-01-19 10:35:02.76	174.24	33.33	
2025-01-19 10:35:04.18	174.35	33.63	
2025-01-19 10:35:05.60	174.47	33.93	
2025-01-19 10:35:07.03	174.58	34.24	
2025-01-19 10:35:08.45	174.70	34.55	
2025-01-19 10:35:09.87	174.82	34.86	
2025-01-19 10:35:11.29	174.94	35.18	
2025-01-19 10:35:12.71	175.07	35.49	
2025-01-19 10:35:14.13	175.19	35.82	
2025-01-19 10:35:15.55	175.32	36.14	
2025-01-19 10:35:16.98	175.46	36.47	
2025-01-19 10:35:18.40	175.59	36.80	
2025-01-19 10:35:19.82	175.73	37.13	
2025-01-19 10:35:21.24	175.87	37.47	
2025-01-19 10:35:22.66	176.01	37.81	
2025-01-19 10:35:24.08	176.15	38.15	
2025-01-19 10:35:25.51	176.30	38.50	
2025-01-19 10:35:26.93	176.45	38.85	
2025-01-19 10:35:28.35	176.61	39.20	
2025-01-19 10:35:29.77	176.77	39.56	
2025-01-19 10:35:31.19	176.93	39.92	
2025-01-19 10:35:32.61	177.09	40.28	
2025-01-19 10:35:34.03	177.26	40.65	
2025-01-19 10:35:35.46	177.43	41.03	
2025-01-19 10:35:36.88	177.61	41.40	
2025-01-19 10:35:38.30	177.79	41.78	
2025-01-19 10:35:39.72	177.98	42.16	
2025-01-19 10:35:41.14	178.16	42.54	
2025-01-19 10:35:42.56	178.36	42.93	
2025-01-19 10:35:43.99	178.56	43.33	
2025-01-19 10:35:45.41	178.76	43.72	
2025-01-19 10:35:46.83	178.97	44.12	
2025-01-19 10:35:48.25	179.18	44.53	
2025-01-19 10:35:49.67	179.40	44.94	
2025-01-19 10:35:51.09	179.62	45.35	
2025-01-19 10:35:52.51	179.85	45.76	
2025-01-19 10:35:53.94	180.09	46.18	
2025-01-19 10:35:55.36	180.33	46.61	
2025-01-19 10:35:56.78	180.57	47.03	
2025-01-19 10:35:58.20	180.83	47.46	
2025-01-19 10:35:59.62	181.09	47.90	
2025-01-19 10:36:01.04	181.36	48.33	
2025-01-19 10:36:02.47	181.64	48.78	
2025-01-19 10:36:03.89	181.92	49.22	
2025-01-19 10:36:05.31	182.22	49.67	
2025-01-19 10:36:06.73	182.52	50.13	
2025-01-19 10:36:08.15	182.83	50.58	
2025-01-19 10:36:09.57	183.15	51.04	
2025-01-19 10:36:10.99	183.48	51.50	
2025-01-19 10:36:12.42	183.82	51.98	
2025-01-19 10:36:13.84	184.17	52.45	
2025-01-19 10:36:15.26	184.53	52.92	
2025-01-19 10:36:16.68	184.90	53.40	
2025-01-19 10:36:18.10	185.29	53.88	
2025-01-19 10:36:19.52	185.69	54.36	
2025-01-19 10:36:20.95	186.10	54.85	
2025-01-19 10:36:22.37	186.53	55.34	
2025-01-19 10:36:23.79	186.97	55.84	
2025-01-19 10:36:25.21	187.43	56.33	
2025-01-19 10:36:26.63	187.90	56.83	
2025-01-19 10:36:28.05	188.39	57.33	
2025-01-19 10:36:29.47	188.90	57.84	
2025-01-19 10:36:30.90	189.44	58.34	
2025-01-19 10:36:32.32	189.98	58.85	
2025-01-19 10:36:33.74	190.55	59.36	
2025-01-19 10:36:35.16	191.15	59.87	
2025-01-19 10:36:36.58	191.76	60.39	
2025-01-19 10:36:38.00	192.40	60.90	
2025-01-19 10:36:39.43	193.08	61.42	
2025-01-19 10:36:40.85	193.77	61.93	
2025-01-19 10:36:42.27	194.50	62.45	
2025-01-19 10:36:43.69	195.26	62.96	
2025-01-19 10:36:45.11	196.05	63.48	
2025-01-19 10:36:46.53	196.87	63.99	
2025-01-19 10:36:47.96	197.74	64.51	
2025-01-19 10:36:49.38	198.64	65.02	
2025-01-19 10:36:50.80	199.58	65.52	
2025-01-19 10:36:52.22	200.57	66.03	
2025-01-19 10:36:53.64	201.60	66.53	
2025-01-19 10:36:55.06	202.69	67.03	
2025-01-19 10:36:56.48	203.82	67.52	
2025-01-19 10:36:57.91	205.02	68.01	
2025-01-19 10:36:59.33	206.27	68.49	
2025-01-19 10:37:00.75	207.57	68.96	
2025-01-19 10:37:02.17	208.95	69.43	
2025-01-19 10:37:03.59	210.39	69.88	
2025-01-19 10:37:05.01	211.90	70.33	
2025-01-19 10:37:06.44	213.49	70.77	
2025-01-19 10:37:07.86	215.15	71.19	
2025-01-19 10:37:09.28	216.89	71.60	
2025-01-19 10:37:10.70	218.72	71.99	
2025-01-19 10:37:12.12	220.62	72.36	
2025-01-19 10:37:13.56	222.64	72.73	
2025-01-19 10:37:14.98	224.72	73.07	
2025-01-19 10:37:16.40	226.88	73.38	
2025-01-19 10:37:17.82	229.13	73.68	
2025-01-19 10:37:19.24	231.46	73.95	
2025-01-19 10:37:20.67	233.89	74.19	
2025-01-19 10:37:22.09	236.37	74.41	
2025-01-19 10:37:23.51	238.92	74.60	
2025-01-19 10:37:24.93	241.54	74.76	
2025-01-19 10:37:26.35	244.20	74.89	
2025-01-19 10:37:27.77	246.91	74.98	
2025-01-19 10:37:29.20	249.66	75.05	
2025-01-19 10:37:30.62	252.42	75.08	
2025-01-19 10:37:32.04	255.18	75.08	
2025-01-19 10:37:33.46	257.93	75.04	
2025-01-19 10:37:34.88	260.66	74.97	
2025-01-19 10:37:36.30	263.37	74.87	
2025-01-19 10:37:37.72	266.02	74.74	
2025-01-19 10:37:39.15	268.65	74.58	
2025-01-19 10:37:40.57	271.19	74.39	
2025-01-19 10:37:41.99	273.66	74.16	
2025-01-19 10:37:43.41	276.06	73.92	
2025-01-19 10:37:44.83	278.38	73.64	
2025-01-19 10:37:46.25	280.62	73.35	
2025-01-19 10:37:47.68	282.79	73.03	
2025-01-19 10:37:49.10	284.85	72.69	
2025-01-19 10:37:50.52	286.83	72.33	
2025-01-19 10:37:51.94	288.73	71.95	
2025-01-19 10:37:53.36	290.54	71.56	
2025-01-19 10:37:54.78	292.27	71.15	
2025-01-19 10:37:56.21	293.93	70.72	
2025-01-19 10:37:57.63	295.50	70.29	
2025-01-19 10:37:59.05	297.00	69.84	
2025-01-19 10:38:00.47	298.43	69.39	
2025-01-19 10:38:01.89	299.80	68.92	
2025-01-19 10:38:03.31	301.10	68.45	
2025-01-19 10:38:04.73	302.34	67.97	
2025-01-19 10:38:06.16	303.53	67.48	
2025-01-19 10:38:07.58	304.66	66.99	
2025-01-19 10:38:09.00	305.73	66.49	
2025-01-19 10:38:10.42	306.76	65.99	
2025-01-19 10:38:11.84	307.74	65.49	
2025-01-19 10:38:13.26	308.68	64.98	
2025-01-19 10:38:14.69	309.58	64.47	
2025-01-19 10:38:16.11	310.44	63.96	
2025-01-19 10:38:17.53	311.26	63.44	
2025-01-19 10:38:18.95	312.04	62.93	
2025-01-19 10:38:20.37	312.80	62.42	
2025-01-19 10:38:21.79	313.52	61.90	
2025-01-19 10:38:23.21	314.21	61.39	
2025-01-19 10:38:24.64	314.88	60.87	
2025-01-19 10:38:26.06	315.52	60.36	
2025-01-19 10:38:27.48	316.13	59.85	
2025-01-19 10:38:28.90	316.72	59.34	
2025-01-19 10:38:30.32	317.29	58.83	
2025-01-19 10:38:31.74	317.84	58.33	
2025-01-19 10:38:33.17	318.37	57.82	
2025-01-19 10:38:34.59	318.87	57.32	
2025-01-19 10:38:36.01	319.36	56.82	
2025-01-19 10:38:37.43	319.83	56.32	
2025-01-19 10:38:38.85	320.29	55.83	
2025-01-19 10:38:40.27	320.73	55.34	
2025-01-19 10:38:41.69	321.15	54.85	
2025-01-19 10:38:43.12	321.57	54.36	
2025-01-19 10:38:44.54	321.97	53.88	
2025-01-19 10:38:45.96	322.35	53.40	
2025-01-19 10:38:47.38	322.72	52.93	
2025-01-19 10:38:48.80	323.08	52.45	
2025-01-19 10:38:50.22	323.43	51.99	
2025-01-19 10:38:51.65	323.77	51.52	
2025-01-19 10:38:53.07	324.10	51.06	
2025-01-19 10:38:54.49	324.42	50.60	
2025-01-19 10:38:55.91	324.73	50.14	
2025-01-19 10:38:57.33	325.03	49.69	
2025-01-19 10:38:58.75	325.32	49.25	
2025-01-19 10:39:00.17	325.61	48.80	
2025-01-19 10:39:01.60	325.88	48.36	
2025-01-19 10:39:03.02	326.15	47.93	
2025-01-19 10:39:04.44	326.41	47.49	
2025-01-19 10:39:05.86	326.67	47.07	
2025-01-19 10:39:07.28	326.91	46.64	
2025-01-19 10:39:08.70	327.16	46.22	
2025-01-19 10:39:10.13	327.39	45.80	
2025-01-19 10:39:11.55	327.62	45.39	
2025-01-19 10:39:12.97	327.84	44.98	
2025-01-19 10:39:14.39	328.06	44.57	
2025-01-19 10:39:15.81	328.27	44.17	
2025-01-19 10:39:17.23	328.48	43.77	
2025-01-19 10:39:18.66	328.68	43.38	
2025-01-19 10:39:20.08	328.88	42.99	
2025-01-19 10:39:21.50	329.07	42.60	
2025-01-19 10:39:22.92	329.26	42.22	
2025-01-19 10:39:24.34	329.45	41.84	
2025-01-19 10:39:25.76	329.63	41.46	
2025-01-19 10:39:27.18	329.80	41.09	
2025-01-19 10:39:28.61	329.98	40.72	
2025-01-19 10:39:30.03	330.14	40.35	
2025-01-19 10:39:31.45	330.31	39.99	
2025-01-19 10:39:32.87	330.47	39.63	
2025-01-19 10:39:34.29	330.63	39.28	
2025-01-19 10:39:35.71	330.78	38.93	
2025-01-19 10:39:37.14	330.94	38.57	
2025-01-19 10:39:38.56	331.08	38.23	
2025-01-19 10:39:39.98	331.23	37.89	
2025-01-19 10:39:41.40	331.37	37.55	
2025-01-19 10:39:42.82	331.51	37.22	
2025-01-19 10:39:44.24	331.65	36.88	
2025-01-19 10:39:45.66	331.78	36.55	
2025-01-19 10:39:47.09	331.92	36.23	
2025-01-19 10:39:48.51	332.05	35.90	
2025-01-19 10:39:49.93	332.17	35.59	
2025-01-19 10:39:51.35	332.30	35.27	
2025-01-19 10:39:52.77	332.42	34.96	
2025-01-19 10:39:54.19	332.54	34.65	
2025-01-19 10:39:55.62	332.66	34.34	
2025-01-19 10:39:57.04	332.77	34.03	
2025-01-19 10:39:58.46	332.89	33.73	
2025-01-19 10:39:59.88	333.00	33.43	
2025-01-19 10:40:01.30	333.11	33.14	
2025-01-19 10:40:02.72	333.22	32.84	
2025-01-19 10:40:04.14	333.32	32.55	
2025-01-19 10:40:05.57	333.43	32.26	
2025-01-19 10:40:06.99	333.53	31.98	
2025-01-19 10:40:08.41	333.63	31.70	
2025-01-19 10:40:09.83	333.73	31.42	
2025-01-19 10:40:11.25	333.83	31.14	
2025-01-19 10:40:12.67	333.93	30.86	
2025-01-19 10:40:14.10	334.02	30.59	
2025-01-19 10:40:15.52	334.11	30.32	
2025-01-19 10:40:16.94	334.21	30.05	
2025-01-19 10:40:18.36	334.30	29.79	
2025-01-19 10:40:19.78	334.39	29.53	
2025-01-19 10:40:21.20	334.47	29.27	
2025-01-19 10:40:22.62	334.56	29.01	
2025-01-19 10:40:24.05	334.65	28.75	
2025-01-19 10:40:25.47	334.73	28.50	
2025-01-19 10:40:26.89	334.81	28.25	
2025-01-19 10:40:28.31	334.89	28.00	
2025-01-19 10:40:29.73	334.97	27.75	
2025-01-19 10:40:31.15	335.05	27.51	
2025-01-19 10:40:32.58	335.13	27.26	
2025-01-19 10:40:34.00	335.21	27.02	
2025-01-19 10:40:35.42	335.28	26.78	
2025-01-19 10:40:36.84	335.36	26.55	
2025-01-19 10:40:38.26	335.43	26.31	
2025-01-19 10:40:39.68	335.51	26.08	
2025-01-19 10:40:41.11	335.58	25.85	
2025-01-19 10:40:42.53	335.65	25.62	
2025-01-19 10:40:43.95	335.72	25.40	
2025-01-19 10:40:45.37	335.79	25.17	
2025-01-19 10:40:46.79	335.86	24.95	
2025-01-19 10:40:48.21	335.92	24.73	
2025-01-19 10:40:49.63	335.99	24.51	
2025-01-19 10:40:51.06	336.06	24.29	
2025-01-19 10:40:52.48	336.12	24.08	
2025-01-19 10:40:53.90	336.19	23.86	
2025-01-19 10:40:55.32	336.25	23.65	
2025-01-19 10:40:56.74	336.31	23.44	
2025-01-19 10:40:58.16	336.37	23.23	
2025-01-19 10:40:59.59	336.44	23.02	
2025-01-19 10:41:01.01	336.50	22.82	
2025-01-19 10:41:02.43	336.56	22.61	
2025-01-19 10:41:03.85	336.61	22.41	
2025-01-19 10:41:05.27	336.67	22.21	
2025-01-19 10:41:06.69	336.73	22.01	
2025-01-19 10:41:08.11	336.79	21.82	
2025-01-19 10:41:09.54	336.84	21.62	
2025-01-19 10:41:10.96	336.90	21.42	
2025-01-19 10:41:12.38	336.95	21.23	
2025-01-19 10:41:13.80	337.01	21.04	
2025-01-19 10:41:15.22	337.06	20.85	
2025-01-19 10:41:16.64	337.12	20.66	
2025-01-19 10:41:18.07	337.17	20.47	
2025-01-19 10:41:19.49	337.22	20.29	
2025-01-19 10:41:20.91	337.27	20.10	
2025-01-19 10:41:22.33	337.32	19.92	
2025-01-19 10:41:23.75	337.37	19.74	
2025-01-19 10:41:25.17	337.42	19.56	
2025-01-19 10:41:26.59	337.47	19.38	
2025-01-19 10:41:28.02	337.52	19.20	
2025-01-19 10:41:29.44	337.57	19.02	
2025-01-19 10:41:30.86	337.62	18.85	
2025-01-19 10:41:32.28	337.67	18.67	
2025-01-19 10:41:33.70	337.71	18.50	
2025-01-19 10:41:35.12	337.76	18.33	
2025-01-19 10:41:36.55	337.81	18.16	
2025-01-19 10:41:37.97	337.85	17.99	
2025-01-19 10:41:39.39	337.90	17.82	
2025-01-19 10:41:40.81	337.94	17.65	
2025-01-19 10:41:42.23	337.99	17.48	
2025-01-19 10:41:43.65	338.03	17.32	
2025-01-19 10:41:45.07	338.07	17.16	
2025-01-19 10:41:46.50	338.12	16.99	
2025-01-19 10:41:47.92	338.16	16.83	
2025-01-19 10:41:49.34	338.20	16.67	
2025-01-19 10:41:50.76	338.24	16.51	
2025-01-19 10:41:52.18	338.28	16.35	
2025-01-19 10:41:53.60	338.33	16.19	
2025-01-19 10:41:55.03	338.37	16.04	
2025-01-19 10:41:56.45	338.41	15.88	
2025-01-19 10:41:57.87	338.45	15.73	
2025-01-19 10:41:59.31	338.49	15.57	
2025-01-19 10:42:00.73	338.53	15.42	
2025-01-19 10:42:02.15	338.57	15.27	
2025-01-19 10:42:03.57	338.60	15.12	
2025-01-19 10:42:04.99	338.64	14.97	
2025-01-19 10:42:06.41	338.68	14.82	
2025-01-19 10:42:07.84	338.72	14.67	
2025-01-19 10:42:09.26	338.76	14.52	
2025-01-19 10:42:10.68	338.79	14.37	
2025-01-19 10:42:12.10	338.83	14.23	
2025-01-19 10:42:13.52	338.87	14.08	
2025-01-19 10:42:14.94	338.90	13.94	
2025-01-19 10:42:16.36	338.94	13.80	
2025-01-19 10:42:17.79	338.98	13.66	
2025-01-19 10:42:19.21	339.01	13.51	
2025-01-19 10:42:20.63	339.05	13.37	
2025-01-19 10:42:22.05	339.08	13.23	
2025-01-19 10:42:23.47	339.12	13.10	
2025-01-19 10:42:24.89	339.15	12.96	
2025-01-19 10:42:26.32	339.18	12.82	
2025-01-19 10:42:27.74	339.22	12.68	
2025-01-19 10:42:29.16	339.25	12.55	
2025-01-19 10:42:30.58	339.28	12.41	
2025-01-19 10:42:32.00	339.32	12.28	
2025-01-19 10:42:33.42	339.35	12.14	
2025-01-19 10:42:34.84	339.38	12.01	
2025-01-19 10:42:36.27	339.41	11.88	
2025-01-19 10:42:37.69	339.45	11.75	
2025-01-19 10:42:39.11	339.48	11.62	
2025-01-19 10:42:40.53	339.51	11.49	
2025-01-19 10:42:41.95	339.54	11.36	
2025-01-19 10:42:43.37	339.57	11.23	
2025-01-19 10:42:44.80	339.60	11.10	
2025-01-19 10:42:46.22	339.63	10.97	
2025-01-19 10:42:47.64	339.67	10.85	
2025-01-19 10:42:49.06	339.70	10.72	
2025-01-19 10:42:50.48	339.73	10.60	
2025-01-19 10:42:51.90	339.76	10.47	
2025-01-19 10:42:53.32	339.79	10.35	
2025-01-19 10:42:54.75	339.82	10.22	
2025-01-19 10:42:56.17	339.84	10.10	
2025-01-19 10:42:57.59	339.87	9.98	
2025-01-19 10:42:59.01	339.90	9.86	
2025-01-19 10:43:00.43	339.93	9.74	
2025-01-19 10:43:01.85	339.96	9.61	
2025-01-19 10:43:03.28	339.99	9.49	
2025-01-19 10:43:04.70	340.02	9.37	
2025-01-19 10:43:06.12	340.04	9.26	
2025-01-19 10:43:07.54	340.07	9.14	
2025-01-19 10:43:08.96	340.10	9.02	
2025-01-19 10:43:10.38	340.13	8.90	
2025-01-19 10:43:11.80	340.15	8.79	
2025-01-19 10:43:13.23	340.18	8.67	
2025-01-19 10:43:14.65	340.21	8.55	
2025-01-19 10:43:16.07	340.24	8.44	
2025-01-19 10:43:17.49	340.26	8.33	
2025-01-19 10:43:18.91	340.29	8.21	
2025-01-19 10:43:20.33	340.32	8.10	
2025-01-19 10:43:21.76	340.34	7.98	
2025-01-19 10:43:23.18	340.37	7.87	
2025-01-19 10:43:24.60	340.39	7.76	
2025-01-19 10:43:26.02	340.42	7.65	
2025-01-19 10:43:27.44	340.45	7.54	
2025-01-19 10:43:28.86	340.47	7.43	
2025-01-19 10:43:30.28	340.50	7.32	
2025-01-19 10:43:31.71	340.52	7.21	
2025-01-19 10:43:33.13	340.55	7.10	
2025-01-19 10:43:34.55	340.57	6.99	
2025-01-19 10:43:35.97	340.60	6.88	
2025-01-19 10:43:37.39	340.62	6.77	
2025-01-19 10:43:38.81	340.65	6.67	
2025-01-19 10:43:40.24	340.67	6.56	
2025-01-19 10:43:41.66	340.69	6.45	
2025-01-19 10:43:43.08	340.72	6.35	
2025-01-19 10:43:44.50	340.74	6.24	
2025-01-19 10:43:45.92	340.77	6.14	
2025-01-19 10:43:47.34	340.79	6.03	
2025-01-19 10:43:48.77	340.81	5.93	
2025-01-19 10:43:50.19	340.84	5.82	
2025-01-19 10:43:51.61	340.86	5.72	
2025-01-19 10:43:53.03	340.88	5.62	
2025-01-19 10:43:54.45	340.91	5.52	
2025-01-19 10:43:55.87	340.93	5.41	
2025-01-19 10:43:57.29	340.95	5.31	
2025-01-19 10:43:58.72	340.97	5.21	
2025-01-19 10:44:00.14	341.00	5.11	
2025-01-19 10:44:01.56	341.02	5.01	
2025-01-19 10:44:02.98	341.04	4.91	
2025-01-19 10:44:04.40	341.06	4.81	
2025-01-19 10:44:05.82	341.09	4.71	
2025-01-19 10:44:07.25	341.11	4.61	
2025-01-19 10:44:08.67	341.13	4.51	
2025-01-19 10:44:10.09	341.15	4.41	
2025-01-19 10:44:11.51	341.17	4.31	
2025-01-19 10:44:12.93	341.20	4.22	
2025-01-19 10:44:14.35	341.22	4.12	
2025-01-19 10:44:15.77	341.24	4.02	

#Closed at: 2025-01-19 10:44:16