passes_logs/2025/01/19/SPB_Silybum_02/SPB_Silybum_02__20250119_043412_AQUA_rec.log

#Pass ID: 20250119_043412_AQUA
#Satellite: AQUA
#Configuration: AQUA
#Start time: 2025-01-19 04:34:12

#Version: 2.0.20230423
#Station: SPB_Silybum_02
#Location: 30.233357 lon 59.946436 lat
#TLE: 1 27424U 02022A   25018.15645899  .00002321  00000+0  48623-3 0  9991
#TLE: 2 27424  98.3597 334.8489 0001860 108.2535 309.6560 14.60697098208087

#Time	Az	El	Level	Level2	SNR	BER	Gain	Gain2
2025-01-19 04:34:14.78	5.95	4.11	
2025-01-19 04:34:15.60	5.84	4.14	
2025-01-19 04:34:16.41	5.73	4.17	
2025-01-19 04:34:17.22	5.62	4.20	
2025-01-19 04:34:18.04	5.50	4.24	
2025-01-19 04:34:18.85	5.39	4.27	
2025-01-19 04:34:19.66	5.28	4.30	
2025-01-19 04:34:20.47	5.17	4.33	
2025-01-19 04:34:21.29	5.05	4.36	
2025-01-19 04:34:22.10	4.94	4.40	
2025-01-19 04:34:22.91	4.82	4.43	
2025-01-19 04:34:23.73	4.71	4.46	
2025-01-19 04:34:24.54	4.60	4.49	
2025-01-19 04:34:25.35	4.48	4.52	
2025-01-19 04:34:26.16	4.37	4.55	
2025-01-19 04:34:26.98	4.25	4.58	
2025-01-19 04:34:27.79	4.13	4.62	
2025-01-19 04:34:28.60	4.02	4.65	
2025-01-19 04:34:29.42	3.90	4.68	
2025-01-19 04:34:30.23	3.79	4.71	
2025-01-19 04:34:31.04	3.67	4.74	
2025-01-19 04:34:31.85	3.55	4.77	
2025-01-19 04:34:32.67	3.43	4.80	
2025-01-19 04:34:33.48	3.32	4.83	
2025-01-19 04:34:34.29	3.20	4.86	
2025-01-19 04:34:35.11	3.08	4.89	
2025-01-19 04:34:35.92	2.96	4.92	
2025-01-19 04:34:36.73	2.84	4.95	
2025-01-19 04:34:37.54	2.72	4.98	
2025-01-19 04:34:38.36	2.60	5.02	
2025-01-19 04:34:39.17	2.49	5.05	
2025-01-19 04:34:39.98	2.37	5.08	
2025-01-19 04:34:40.80	2.24	5.11	
2025-01-19 04:34:41.61	2.12	5.14	
2025-01-19 04:34:42.42	2.00	5.17	
2025-01-19 04:34:43.23	1.88	5.20	
2025-01-19 04:34:44.05	1.76	5.23	
2025-01-19 04:34:44.86	1.64	5.26	
2025-01-19 04:34:45.67	1.52	5.29	
2025-01-19 04:34:46.49	1.40	5.32	
2025-01-19 04:34:47.30	1.27	5.34	
2025-01-19 04:34:48.11	1.15	5.37	
2025-01-19 04:34:48.92	1.03	5.40	
2025-01-19 04:34:49.74	0.90	5.43	
2025-01-19 04:34:50.55	0.78	5.46	
2025-01-19 04:34:51.36	0.66	5.49	
2025-01-19 04:34:52.18	0.53	5.52	
2025-01-19 04:34:52.99	0.41	5.55	
2025-01-19 04:34:53.80	0.29	5.58	
2025-01-19 04:34:54.61	0.16	5.61	
2025-01-19 04:34:55.43	0.03	5.64	
2025-01-19 04:34:56.24	359.91	5.66	
2025-01-19 04:34:57.05	359.78	5.69	
2025-01-19 04:34:57.87	359.66	5.72	
2025-01-19 04:34:58.68	359.53	5.75	
2025-01-19 04:34:59.49	359.41	5.78	
2025-01-19 04:35:00.30	359.28	5.81	
2025-01-19 04:35:01.12	359.15	5.83	
2025-01-19 04:35:01.93	359.02	5.86	
2025-01-19 04:35:02.74	358.90	5.89	
2025-01-19 04:35:03.56	358.77	5.92	
2025-01-19 04:35:04.37	358.64	5.95	
2025-01-19 04:35:05.18	358.51	5.97	
2025-01-19 04:35:05.99	358.38	6.00	
2025-01-19 04:35:06.81	358.25	6.03	
2025-01-19 04:35:07.62	358.13	6.06	
2025-01-19 04:35:08.43	358.00	6.08	
2025-01-19 04:35:09.25	357.87	6.11	
2025-01-19 04:35:10.06	357.74	6.14	
2025-01-19 04:35:10.87	357.61	6.16	
2025-01-19 04:35:11.68	357.48	6.19	
2025-01-19 04:35:12.50	357.34	6.22	
2025-01-19 04:35:13.31	357.21	6.25	
2025-01-19 04:35:14.12	357.08	6.27	
2025-01-19 04:35:14.94	356.95	6.30	
2025-01-19 04:35:15.75	356.82	6.33	
2025-01-19 04:35:16.56	356.69	6.35	
2025-01-19 04:35:17.37	356.56	6.38	
2025-01-19 04:35:18.19	356.42	6.40	
2025-01-19 04:35:19.00	356.29	6.43	
2025-01-19 04:35:19.81	356.16	6.46	
2025-01-19 04:35:20.62	356.02	6.48	
2025-01-19 04:35:21.44	355.89	6.51	
2025-01-19 04:35:22.25	355.75	6.53	
2025-01-19 04:35:23.06	355.62	6.56	
2025-01-19 04:35:23.88	355.49	6.58	
2025-01-19 04:35:24.69	355.35	6.61	
2025-01-19 04:35:25.50	355.22	6.63	
2025-01-19 04:35:26.31	355.08	6.66	
2025-01-19 04:35:27.13	354.94	6.68	
2025-01-19 04:35:27.94	354.81	6.71	
2025-01-19 04:35:28.75	354.67	6.73	
2025-01-19 04:35:29.57	354.54	6.76	
2025-01-19 04:35:30.38	354.40	6.78	
2025-01-19 04:35:31.19	354.26	6.81	
2025-01-19 04:35:32.00	354.13	6.83	
2025-01-19 04:35:32.82	353.99	6.85	
2025-01-19 04:35:33.63	353.85	6.88	
2025-01-19 04:35:34.44	353.71	6.90	
2025-01-19 04:35:35.26	353.58	6.93	
2025-01-19 04:35:36.07	353.44	6.95	
2025-01-19 04:35:36.88	353.30	6.97	
2025-01-19 04:35:37.69	353.16	7.00	
2025-01-19 04:35:38.51	353.02	7.02	
2025-01-19 04:35:39.32	352.88	7.04	
2025-01-19 04:35:40.13	352.74	7.07	
2025-01-19 04:35:40.95	352.60	7.09	
2025-01-19 04:35:41.76	352.46	7.11	
2025-01-19 04:35:42.57	352.32	7.13	
2025-01-19 04:35:43.38	352.18	7.16	
2025-01-19 04:35:44.20	352.04	7.18	
2025-01-19 04:35:45.01	351.90	7.20	
2025-01-19 04:35:45.82	351.76	7.22	
2025-01-19 04:35:46.64	351.62	7.24	
2025-01-19 04:35:47.45	351.48	7.27	
2025-01-19 04:35:48.26	351.33	7.29	
2025-01-19 04:35:49.07	351.19	7.31	
2025-01-19 04:35:49.89	351.05	7.33	
2025-01-19 04:35:50.70	350.91	7.35	
2025-01-19 04:35:51.51	350.76	7.37	
2025-01-19 04:35:52.33	350.62	7.39	
2025-01-19 04:35:53.14	350.48	7.41	
2025-01-19 04:35:53.95	350.33	7.44	
2025-01-19 04:35:54.76	350.19	7.46	
2025-01-19 04:35:55.58	350.05	7.48	
2025-01-19 04:35:56.39	349.90	7.50	
2025-01-19 04:35:57.20	349.76	7.52	
2025-01-19 04:35:58.02	349.61	7.54	
2025-01-19 04:35:58.83	349.47	7.56	
2025-01-19 04:35:59.64	349.32	7.58	
2025-01-19 04:36:00.45	349.18	7.60	
2025-01-19 04:36:01.27	349.03	7.62	
2025-01-19 04:36:02.08	348.89	7.63	
2025-01-19 04:36:02.89	348.74	7.65	
2025-01-19 04:36:03.71	348.59	7.67	
2025-01-19 04:36:04.52	348.45	7.69	
2025-01-19 04:36:05.33	348.30	7.71	
2025-01-19 04:36:06.14	348.15	7.73	
2025-01-19 04:36:06.96	348.01	7.75	
2025-01-19 04:36:07.77	347.86	7.77	
2025-01-19 04:36:08.58	347.71	7.78	
2025-01-19 04:36:09.40	347.56	7.80	
2025-01-19 04:36:10.21	347.42	7.82	
2025-01-19 04:36:11.02	347.27	7.84	
2025-01-19 04:36:11.83	347.12	7.85	
2025-01-19 04:36:12.65	346.97	7.87	
2025-01-19 04:36:13.46	346.82	7.89	
2025-01-19 04:36:14.27	346.68	7.91	
2025-01-19 04:36:15.09	346.53	7.92	
2025-01-19 04:36:15.90	346.38	7.94	
2025-01-19 04:36:16.71	346.23	7.95	
2025-01-19 04:36:17.52	346.08	7.97	
2025-01-19 04:36:18.34	345.93	7.99	
2025-01-19 04:36:19.15	345.78	8.00	
2025-01-19 04:36:19.96	345.63	8.02	
2025-01-19 04:36:20.78	345.48	8.03	
2025-01-19 04:36:21.59	345.33	8.05	
2025-01-19 04:36:22.40	345.18	8.07	
2025-01-19 04:36:23.21	345.03	8.08	
2025-01-19 04:36:24.03	344.87	8.10	
2025-01-19 04:36:24.84	344.72	8.11	
2025-01-19 04:36:25.65	344.57	8.13	
2025-01-19 04:36:26.47	344.42	8.14	
2025-01-19 04:36:27.28	344.27	8.15	
2025-01-19 04:36:28.09	344.12	8.17	
2025-01-19 04:36:28.90	343.97	8.18	
2025-01-19 04:36:29.72	343.81	8.20	
2025-01-19 04:36:30.53	343.66	8.21	
2025-01-19 04:36:31.34	343.51	8.22	
2025-01-19 04:36:32.16	343.36	8.24	
2025-01-19 04:36:32.97	343.20	8.25	
2025-01-19 04:36:33.78	343.05	8.26	
2025-01-19 04:36:34.59	342.90	8.28	
2025-01-19 04:36:35.41	342.74	8.29	
2025-01-19 04:36:36.22	342.59	8.30	
2025-01-19 04:36:37.03	342.44	8.31	
2025-01-19 04:36:37.85	342.28	8.32	
2025-01-19 04:36:38.66	342.13	8.34	
2025-01-19 04:36:39.47	341.98	8.35	
2025-01-19 04:36:40.28	341.82	8.36	
2025-01-19 04:36:41.10	341.67	8.37	
2025-01-19 04:36:41.91	341.51	8.38	
2025-01-19 04:36:42.72	341.36	8.39	
2025-01-19 04:36:43.54	341.20	8.40	
2025-01-19 04:36:44.35	341.05	8.41	
2025-01-19 04:36:45.16	340.90	8.43	
2025-01-19 04:36:45.97	340.74	8.44	
2025-01-19 04:36:46.79	340.58	8.45	
2025-01-19 04:36:47.60	340.43	8.46	
2025-01-19 04:36:48.41	340.27	8.47	
2025-01-19 04:36:49.23	340.12	8.47	
2025-01-19 04:36:50.04	339.96	8.48	
2025-01-19 04:36:50.85	339.81	8.49	
2025-01-19 04:36:51.66	339.65	8.50	
2025-01-19 04:36:52.48	339.50	8.51	
2025-01-19 04:36:53.29	339.34	8.52	
2025-01-19 04:36:54.10	339.18	8.53	
2025-01-19 04:36:54.92	339.03	8.54	
2025-01-19 04:36:55.73	338.87	8.54	
2025-01-19 04:36:56.54	338.72	8.55	
2025-01-19 04:36:57.35	338.56	8.56	
2025-01-19 04:36:58.17	338.40	8.57	
2025-01-19 04:36:58.98	338.25	8.57	
2025-01-19 04:36:59.79	338.09	8.58	
2025-01-19 04:37:00.61	337.93	8.59	
2025-01-19 04:37:01.42	337.77	8.60	
2025-01-19 04:37:02.23	337.62	8.60	
2025-01-19 04:37:03.04	337.46	8.61	
2025-01-19 04:37:03.86	337.30	8.61	
2025-01-19 04:37:04.67	337.15	8.62	
2025-01-19 04:37:05.48	336.99	8.63	
2025-01-19 04:37:06.30	336.83	8.63	
2025-01-19 04:37:07.11	336.67	8.64	
2025-01-19 04:37:07.92	336.52	8.64	
2025-01-19 04:37:08.73	336.36	8.65	
2025-01-19 04:37:09.55	336.20	8.65	
2025-01-19 04:37:10.36	336.04	8.66	
2025-01-19 04:37:11.17	335.89	8.66	
2025-01-19 04:37:11.99	335.73	8.67	
2025-01-19 04:37:12.80	335.57	8.67	
2025-01-19 04:37:13.61	335.41	8.67	
2025-01-19 04:37:14.42	335.26	8.68	
2025-01-19 04:37:15.24	335.10	8.68	
2025-01-19 04:37:16.05	334.94	8.68	
2025-01-19 04:37:16.86	334.78	8.69	
2025-01-19 04:37:17.68	334.62	8.69	
2025-01-19 04:37:18.49	334.47	8.69	
2025-01-19 04:37:19.30	334.31	8.70	
2025-01-19 04:37:20.11	334.15	8.70	
2025-01-19 04:37:20.93	333.99	8.70	
2025-01-19 04:37:21.74	333.83	8.70	
2025-01-19 04:37:22.55	333.68	8.70	
2025-01-19 04:37:23.37	333.52	8.71	
2025-01-19 04:37:24.18	333.36	8.71	
2025-01-19 04:37:24.99	333.20	8.71	
2025-01-19 04:37:25.80	333.04	8.71	
2025-01-19 04:37:26.62	332.88	8.71	
2025-01-19 04:37:27.43	332.72	8.71	
2025-01-19 04:37:28.24	332.57	8.71	
2025-01-19 04:37:29.06	332.41	8.71	
2025-01-19 04:37:29.87	332.25	8.71	
2025-01-19 04:37:30.68	332.09	8.71	
2025-01-19 04:37:31.49	331.93	8.71	
2025-01-19 04:37:32.31	331.77	8.71	
2025-01-19 04:37:33.12	331.62	8.71	
2025-01-19 04:37:33.93	331.46	8.71	
2025-01-19 04:37:34.75	331.30	8.71	
2025-01-19 04:37:35.56	331.14	8.71	
2025-01-19 04:37:36.37	330.98	8.70	
2025-01-19 04:37:37.18	330.83	8.70	
2025-01-19 04:37:38.00	330.67	8.70	
2025-01-19 04:37:38.81	330.51	8.70	
2025-01-19 04:37:39.62	330.35	8.70	
2025-01-19 04:37:40.44	330.19	8.69	
2025-01-19 04:37:41.25	330.03	8.69	
2025-01-19 04:37:42.06	329.88	8.69	
2025-01-19 04:37:42.87	329.72	8.68	
2025-01-19 04:37:43.69	329.56	8.68	
2025-01-19 04:37:44.50	329.40	8.68	
2025-01-19 04:37:45.31	329.24	8.67	
2025-01-19 04:37:46.13	329.09	8.67	
2025-01-19 04:37:46.94	328.93	8.67	
2025-01-19 04:37:47.75	328.77	8.66	
2025-01-19 04:37:48.56	328.61	8.66	
2025-01-19 04:37:49.38	328.45	8.65	
2025-01-19 04:37:50.19	328.30	8.65	
2025-01-19 04:37:51.00	328.14	8.64	
2025-01-19 04:37:51.82	327.98	8.64	
2025-01-19 04:37:52.63	327.82	8.63	
2025-01-19 04:37:53.44	327.67	8.63	
2025-01-19 04:37:54.25	327.51	8.62	
2025-01-19 04:37:55.07	327.35	8.61	
2025-01-19 04:37:55.88	327.20	8.61	
2025-01-19 04:37:56.69	327.04	8.60	
2025-01-19 04:37:57.51	326.88	8.59	
2025-01-19 04:37:58.32	326.72	8.59	
2025-01-19 04:37:59.13	326.57	8.58	
2025-01-19 04:37:59.94	326.41	8.57	
2025-01-19 04:38:00.76	326.25	8.57	
2025-01-19 04:38:01.57	326.10	8.56	
2025-01-19 04:38:02.38	325.94	8.55	
2025-01-19 04:38:03.19	325.79	8.54	
2025-01-19 04:38:04.01	325.63	8.54	
2025-01-19 04:38:04.82	325.47	8.53	
2025-01-19 04:38:05.63	325.32	8.52	
2025-01-19 04:38:06.45	325.16	8.51	
2025-01-19 04:38:07.26	325.00	8.50	
2025-01-19 04:38:08.07	324.85	8.49	
2025-01-19 04:38:08.88	324.69	8.48	
2025-01-19 04:38:09.70	324.54	8.47	
2025-01-19 04:38:10.51	324.38	8.46	
2025-01-19 04:38:11.32	324.23	8.45	
2025-01-19 04:38:12.14	324.07	8.44	
2025-01-19 04:38:12.95	323.91	8.43	
2025-01-19 04:38:13.76	323.76	8.42	
2025-01-19 04:38:14.57	323.61	8.41	
2025-01-19 04:38:15.39	323.45	8.40	
2025-01-19 04:38:16.20	323.29	8.39	
2025-01-19 04:38:17.01	323.14	8.38	
2025-01-19 04:38:17.83	322.99	8.37	
2025-01-19 04:38:18.64	322.83	8.36	
2025-01-19 04:38:19.45	322.68	8.35	
2025-01-19 04:38:20.26	322.52	8.33	
2025-01-19 04:38:21.08	322.37	8.32	
2025-01-19 04:38:21.89	322.22	8.31	
2025-01-19 04:38:22.70	322.06	8.30	
2025-01-19 04:38:23.52	321.91	8.29	
2025-01-19 04:38:24.33	321.75	8.27	
2025-01-19 04:38:25.14	321.60	8.26	
2025-01-19 04:38:25.95	321.45	8.25	
2025-01-19 04:38:26.77	321.29	8.23	
2025-01-19 04:38:27.58	321.14	8.22	
2025-01-19 04:38:28.39	320.99	8.21	
2025-01-19 04:38:29.21	320.84	8.19	
2025-01-19 04:38:30.02	320.69	8.18	
2025-01-19 04:38:30.83	320.53	8.17	
2025-01-19 04:38:31.64	320.38	8.15	
2025-01-19 04:38:32.46	320.23	8.14	
2025-01-19 04:38:33.27	320.08	8.12	
2025-01-19 04:38:34.08	319.93	8.11	
2025-01-19 04:38:34.90	319.77	8.09	
2025-01-19 04:38:35.71	319.62	8.08	
2025-01-19 04:38:36.52	319.47	8.06	
2025-01-19 04:38:37.33	319.32	8.05	
2025-01-19 04:38:38.15	319.17	8.03	
2025-01-19 04:38:38.96	319.02	8.02	
2025-01-19 04:38:39.77	318.87	8.00	
2025-01-19 04:38:40.59	318.72	7.98	
2025-01-19 04:38:41.40	318.57	7.97	
2025-01-19 04:38:42.21	318.42	7.95	
2025-01-19 04:38:43.02	318.27	7.94	
2025-01-19 04:38:43.84	318.12	7.92	
2025-01-19 04:38:44.65	317.97	7.90	
2025-01-19 04:38:45.46	317.82	7.88	
2025-01-19 04:38:46.28	317.67	7.87	
2025-01-19 04:38:47.09	317.53	7.85	
2025-01-19 04:38:47.90	317.38	7.83	
2025-01-19 04:38:48.71	317.23	7.82	
2025-01-19 04:38:49.53	317.08	7.80	
2025-01-19 04:38:50.34	316.93	7.78	
2025-01-19 04:38:51.15	316.79	7.76	
2025-01-19 04:38:51.97	316.64	7.74	
2025-01-19 04:38:52.78	316.49	7.72	
2025-01-19 04:38:53.59	316.34	7.71	
2025-01-19 04:38:54.40	316.20	7.69	
2025-01-19 04:38:55.22	316.05	7.67	
2025-01-19 04:38:56.03	315.90	7.65	
2025-01-19 04:38:56.84	315.76	7.63	
2025-01-19 04:38:57.66	315.61	7.61	
2025-01-19 04:38:58.47	315.47	7.59	
2025-01-19 04:38:59.28	315.32	7.57	
2025-01-19 04:39:00.09	315.18	7.55	
2025-01-19 04:39:00.91	315.03	7.53	
2025-01-19 04:39:01.72	314.88	7.51	
2025-01-19 04:39:02.53	314.74	7.49	
2025-01-19 04:39:03.35	314.59	7.47	
2025-01-19 04:39:04.16	314.45	7.45	
2025-01-19 04:39:04.97	314.31	7.43	
2025-01-19 04:39:05.78	314.16	7.41	
2025-01-19 04:39:06.60	314.02	7.39	
2025-01-19 04:39:07.41	313.88	7.37	
2025-01-19 04:39:08.22	313.73	7.35	
2025-01-19 04:39:09.04	313.59	7.33	
2025-01-19 04:39:09.85	313.45	7.30	
2025-01-19 04:39:10.66	313.31	7.28	
2025-01-19 04:39:11.47	313.16	7.26	
2025-01-19 04:39:12.29	313.02	7.24	
2025-01-19 04:39:13.10	312.88	7.22	
2025-01-19 04:39:13.91	312.74	7.20	
2025-01-19 04:39:14.73	312.60	7.17	
2025-01-19 04:39:15.54	312.45	7.15	
2025-01-19 04:39:16.35	312.31	7.13	
2025-01-19 04:39:17.16	312.17	7.11	
2025-01-19 04:39:17.98	312.03	7.08	
2025-01-19 04:39:18.79	311.89	7.06	
2025-01-19 04:39:19.60	311.75	7.04	
2025-01-19 04:39:20.42	311.61	7.01	
2025-01-19 04:39:21.23	311.47	6.99	
2025-01-19 04:39:22.04	311.34	6.97	
2025-01-19 04:39:22.85	311.20	6.94	
2025-01-19 04:39:23.67	311.06	6.92	
2025-01-19 04:39:24.48	310.92	6.90	
2025-01-19 04:39:25.29	310.78	6.87	
2025-01-19 04:39:26.11	310.64	6.85	
2025-01-19 04:39:26.92	310.51	6.82	
2025-01-19 04:39:27.73	310.37	6.80	
2025-01-19 04:39:28.54	310.23	6.78	
2025-01-19 04:39:29.36	310.09	6.75	
2025-01-19 04:39:30.17	309.96	6.73	
2025-01-19 04:39:30.98	309.82	6.70	
2025-01-19 04:39:31.80	309.68	6.68	
2025-01-19 04:39:32.61	309.55	6.65	
2025-01-19 04:39:33.42	309.41	6.63	
2025-01-19 04:39:34.23	309.28	6.60	
2025-01-19 04:39:35.05	309.14	6.58	
2025-01-19 04:39:35.86	309.01	6.55	
2025-01-19 04:39:36.67	308.87	6.53	
2025-01-19 04:39:37.49	308.74	6.50	
2025-01-19 04:39:38.30	308.60	6.47	
2025-01-19 04:39:39.11	308.47	6.45	
2025-01-19 04:39:39.92	308.34	6.42	
2025-01-19 04:39:40.74	308.20	6.40	
2025-01-19 04:39:41.55	308.07	6.37	
2025-01-19 04:39:42.36	307.94	6.34	
2025-01-19 04:39:43.18	307.81	6.32	
2025-01-19 04:39:43.99	307.67	6.29	
2025-01-19 04:39:44.80	307.54	6.26	
2025-01-19 04:39:45.61	307.41	6.24	
2025-01-19 04:39:46.43	307.28	6.21	
2025-01-19 04:39:47.24	307.15	6.18	
2025-01-19 04:39:48.05	307.02	6.16	
2025-01-19 04:39:48.87	306.89	6.13	
2025-01-19 04:39:49.68	306.76	6.10	
2025-01-19 04:39:50.49	306.63	6.08	
2025-01-19 04:39:51.30	306.50	6.05	
2025-01-19 04:39:52.12	306.37	6.02	
2025-01-19 04:39:52.93	306.24	5.99	
2025-01-19 04:39:53.74	306.11	5.97	
2025-01-19 04:39:54.56	305.98	5.94	
2025-01-19 04:39:55.37	305.85	5.91	
2025-01-19 04:39:56.18	305.72	5.88	
2025-01-19 04:39:56.99	305.59	5.85	
2025-01-19 04:39:57.81	305.47	5.83	
2025-01-19 04:39:58.62	305.34	5.80	
2025-01-19 04:39:59.43	305.21	5.77	
2025-01-19 04:40:00.25	305.08	5.74	
2025-01-19 04:40:01.06	304.96	5.71	
2025-01-19 04:40:01.87	304.83	5.68	
2025-01-19 04:40:02.68	304.71	5.66	
2025-01-19 04:40:03.50	304.58	5.63	
2025-01-19 04:40:04.31	304.45	5.60	
2025-01-19 04:40:05.12	304.33	5.57	
2025-01-19 04:40:05.94	304.20	5.54	
2025-01-19 04:40:06.75	304.08	5.51	
2025-01-19 04:40:07.56	303.96	5.48	
2025-01-19 04:40:08.37	303.83	5.45	
2025-01-19 04:40:09.19	303.71	5.42	
2025-01-19 04:40:10.00	303.58	5.39	
2025-01-19 04:40:10.81	303.46	5.36	
2025-01-19 04:40:11.63	303.34	5.34	
2025-01-19 04:40:12.44	303.21	5.31	
2025-01-19 04:40:13.25	303.09	5.28	
2025-01-19 04:40:14.06	302.97	5.25	
2025-01-19 04:40:14.88	302.85	5.22	
2025-01-19 04:40:15.69	302.73	5.19	
2025-01-19 04:40:16.50	302.61	5.16	
2025-01-19 04:40:17.32	302.48	5.13	
2025-01-19 04:40:18.13	302.36	5.10	
2025-01-19 04:40:18.94	302.24	5.07	
2025-01-19 04:40:19.75	302.12	5.04	
2025-01-19 04:40:20.57	302.00	5.01	
2025-01-19 04:40:21.38	301.88	4.97	
2025-01-19 04:40:22.19	301.76	4.94	
2025-01-19 04:40:23.01	301.64	4.91	
2025-01-19 04:40:23.82	301.53	4.88	
2025-01-19 04:40:24.63	301.41	4.85	
2025-01-19 04:40:25.44	301.29	4.82	
2025-01-19 04:40:26.26	301.17	4.79	
2025-01-19 04:40:27.07	301.05	4.76	
2025-01-19 04:40:27.88	300.94	4.73	
2025-01-19 04:40:28.70	300.82	4.70	
2025-01-19 04:40:29.51	300.70	4.67	
2025-01-19 04:40:30.32	300.58	4.64	
2025-01-19 04:40:31.13	300.47	4.60	
2025-01-19 04:40:31.95	300.35	4.57	
2025-01-19 04:40:32.76	300.24	4.54	
2025-01-19 04:40:33.57	300.12	4.51	
2025-01-19 04:40:34.39	300.00	4.48	
2025-01-19 04:40:35.20	299.89	4.45	
2025-01-19 04:40:36.01	299.78	4.42	
2025-01-19 04:40:36.82	299.66	4.38	
2025-01-19 04:40:37.64	299.55	4.35	
2025-01-19 04:40:38.45	299.43	4.32	
2025-01-19 04:40:39.26	299.32	4.29	
2025-01-19 04:40:40.08	299.20	4.26	
2025-01-19 04:40:40.89	299.09	4.23	
2025-01-19 04:40:41.70	298.98	4.19	
2025-01-19 04:40:42.51	298.87	4.16	
2025-01-19 04:40:43.33	298.75	4.13	
2025-01-19 04:40:44.14	298.64	4.10	
2025-01-19 04:40:44.95	298.53	4.07	
2025-01-19 04:40:45.76	298.42	4.03	
2025-01-19 04:40:46.58	298.31	4.00	

#Closed at: 2025-01-19 04:40:46