passes_logs/2025/01/19/SPB_Silybum_02/SPB_Silybum_02__20250119_123257_AQUA_rec.log

#Pass ID: 20250119_123257_AQUA
#Satellite: AQUA
#Configuration: AQUA
#Start time: 2025-01-19 12:32:58

#Version: 2.0.20230423
#Station: SPB_Silybum_02
#Location: 30.233357 lon 59.946436 lat
#TLE: 1 27424U 02022A   25018.83604057  .00002232  00000+0  46784-3 0  9994
#TLE: 2 27424  98.3597 335.5348 0001881 107.7354 281.6526 14.60700248208189

#Time	Az	El	Level	Level2	SNR	BER	Gain	Gain2
2025-01-19 12:33:00.41	197.40	4.20	
2025-01-19 12:33:01.63	197.48	4.28	
2025-01-19 12:33:02.84	197.57	4.36	
2025-01-19 12:33:04.06	197.65	4.44	
2025-01-19 12:33:05.28	197.74	4.52	
2025-01-19 12:33:06.50	197.83	4.60	
2025-01-19 12:33:07.72	197.92	4.68	
2025-01-19 12:33:08.94	198.00	4.76	
2025-01-19 12:33:10.16	198.09	4.85	
2025-01-19 12:33:11.38	198.18	4.93	
2025-01-19 12:33:12.60	198.27	5.01	
2025-01-19 12:33:13.81	198.36	5.09	
2025-01-19 12:33:15.03	198.45	5.18	
2025-01-19 12:33:16.25	198.54	5.26	
2025-01-19 12:33:17.47	198.64	5.34	
2025-01-19 12:33:18.69	198.73	5.43	
2025-01-19 12:33:19.91	198.82	5.51	
2025-01-19 12:33:21.13	198.91	5.60	
2025-01-19 12:33:22.36	199.01	5.68	
2025-01-19 12:33:23.58	199.10	5.77	
2025-01-19 12:33:24.80	199.20	5.85	
2025-01-19 12:33:26.02	199.30	5.94	
2025-01-19 12:33:27.24	199.39	6.02	
2025-01-19 12:33:28.46	199.49	6.11	
2025-01-19 12:33:29.67	199.59	6.19	
2025-01-19 12:33:30.89	199.68	6.28	
2025-01-19 12:33:32.11	199.78	6.37	
2025-01-19 12:33:33.33	199.88	6.45	
2025-01-19 12:33:34.55	199.98	6.54	
2025-01-19 12:33:35.77	200.08	6.63	
2025-01-19 12:33:36.99	200.19	6.72	
2025-01-19 12:33:38.21	200.29	6.80	
2025-01-19 12:33:39.42	200.39	6.89	
2025-01-19 12:33:40.64	200.49	6.98	
2025-01-19 12:33:41.86	200.60	7.07	
2025-01-19 12:33:43.08	200.70	7.16	
2025-01-19 12:33:44.30	200.81	7.25	
2025-01-19 12:33:45.52	200.91	7.34	
2025-01-19 12:33:46.74	201.02	7.43	
2025-01-19 12:33:47.96	201.13	7.52	
2025-01-19 12:33:49.17	201.23	7.61	
2025-01-19 12:33:50.39	201.34	7.70	
2025-01-19 12:33:51.61	201.45	7.79	
2025-01-19 12:33:52.83	201.56	7.88	
2025-01-19 12:33:54.05	201.67	7.97	
2025-01-19 12:33:55.27	201.78	8.06	
2025-01-19 12:33:56.49	201.90	8.16	
2025-01-19 12:33:57.71	202.01	8.25	
2025-01-19 12:33:58.93	202.12	8.34	
2025-01-19 12:34:00.14	202.24	8.43	
2025-01-19 12:34:01.36	202.35	8.53	
2025-01-19 12:34:02.58	202.47	8.62	
2025-01-19 12:34:03.80	202.59	8.71	
2025-01-19 12:34:05.02	202.70	8.81	
2025-01-19 12:34:06.24	202.82	8.90	
2025-01-19 12:34:07.46	202.94	9.00	
2025-01-19 12:34:08.68	203.06	9.09	
2025-01-19 12:34:09.89	203.18	9.19	
2025-01-19 12:34:11.11	203.30	9.28	
2025-01-19 12:34:12.33	203.42	9.38	
2025-01-19 12:34:13.55	203.55	9.47	
2025-01-19 12:34:14.77	203.67	9.57	
2025-01-19 12:34:15.99	203.80	9.67	
2025-01-19 12:34:17.21	203.92	9.76	
2025-01-19 12:34:18.43	204.05	9.86	
2025-01-19 12:34:19.64	204.18	9.96	
2025-01-19 12:34:20.86	204.31	10.06	
2025-01-19 12:34:22.08	204.43	10.16	
2025-01-19 12:34:23.30	204.57	10.25	
2025-01-19 12:34:24.52	204.70	10.35	
2025-01-19 12:34:25.74	204.83	10.45	
2025-01-19 12:34:26.96	204.96	10.55	
2025-01-19 12:34:28.18	205.10	10.65	
2025-01-19 12:34:29.39	205.23	10.75	
2025-01-19 12:34:30.61	205.37	10.85	
2025-01-19 12:34:31.83	205.50	10.95	
2025-01-19 12:34:33.05	205.64	11.05	
2025-01-19 12:34:34.27	205.78	11.16	
2025-01-19 12:34:35.49	205.92	11.26	
2025-01-19 12:34:36.71	206.06	11.36	
2025-01-19 12:34:37.93	206.20	11.46	
2025-01-19 12:34:39.15	206.35	11.57	
2025-01-19 12:34:40.36	206.49	11.67	
2025-01-19 12:34:41.58	206.63	11.77	
2025-01-19 12:34:42.80	206.78	11.88	
2025-01-19 12:34:44.02	206.93	11.98	
2025-01-19 12:34:45.24	207.08	12.08	
2025-01-19 12:34:46.46	207.23	12.19	
2025-01-19 12:34:47.68	207.38	12.30	
2025-01-19 12:34:48.90	207.53	12.40	
2025-01-19 12:34:50.11	207.68	12.51	
2025-01-19 12:34:51.33	207.83	12.61	
2025-01-19 12:34:52.55	207.99	12.72	
2025-01-19 12:34:53.77	208.15	12.83	
2025-01-19 12:34:54.99	208.30	12.93	
2025-01-19 12:34:56.21	208.46	13.04	
2025-01-19 12:34:57.43	208.62	13.15	
2025-01-19 12:34:58.65	208.78	13.26	
2025-01-19 12:34:59.86	208.94	13.36	
2025-01-19 12:35:01.08	209.11	13.47	
2025-01-19 12:35:02.30	209.27	13.58	
2025-01-19 12:35:03.52	209.44	13.69	
2025-01-19 12:35:04.74	209.61	13.80	
2025-01-19 12:35:05.96	209.77	13.91	
2025-01-19 12:35:07.18	209.94	14.02	
2025-01-19 12:35:08.40	210.12	14.14	
2025-01-19 12:35:09.61	210.29	14.25	
2025-01-19 12:35:10.83	210.46	14.36	
2025-01-19 12:35:12.05	210.64	14.47	
2025-01-19 12:35:13.27	210.81	14.58	
2025-01-19 12:35:14.49	210.99	14.69	
2025-01-19 12:35:15.71	211.17	14.81	
2025-01-19 12:35:16.93	211.35	14.92	
2025-01-19 12:35:18.15	211.53	15.03	
2025-01-19 12:35:19.37	211.72	15.15	
2025-01-19 12:35:20.58	211.90	15.26	
2025-01-19 12:35:21.80	212.09	15.38	
2025-01-19 12:35:23.02	212.28	15.49	
2025-01-19 12:35:24.24	212.47	15.61	
2025-01-19 12:35:25.46	212.66	15.72	
2025-01-19 12:35:26.68	212.85	15.84	
2025-01-19 12:35:27.90	213.04	15.96	
2025-01-19 12:35:29.12	213.24	16.07	
2025-01-19 12:35:30.33	213.44	16.19	
2025-01-19 12:35:31.55	213.64	16.30	
2025-01-19 12:35:32.77	213.84	16.42	
2025-01-19 12:35:33.99	214.04	16.54	
2025-01-19 12:35:35.21	214.24	16.66	
2025-01-19 12:35:36.43	214.45	16.78	
2025-01-19 12:35:37.65	214.66	16.90	
2025-01-19 12:35:38.87	214.86	17.01	
2025-01-19 12:35:40.08	215.07	17.13	
2025-01-19 12:35:41.30	215.29	17.25	
2025-01-19 12:35:42.52	215.50	17.37	
2025-01-19 12:35:43.74	215.72	17.49	
2025-01-19 12:35:44.96	215.93	17.61	
2025-01-19 12:35:46.18	216.15	17.73	
2025-01-19 12:35:47.40	216.37	17.85	
2025-01-19 12:35:48.62	216.60	17.98	
2025-01-19 12:35:49.84	216.82	18.10	
2025-01-19 12:35:51.05	217.05	18.22	
2025-01-19 12:35:52.27	217.28	18.34	
2025-01-19 12:35:53.49	217.51	18.46	
2025-01-19 12:35:54.71	217.74	18.58	
2025-01-19 12:35:55.93	217.97	18.71	
2025-01-19 12:35:57.15	218.21	18.83	
2025-01-19 12:35:58.37	218.45	18.95	
2025-01-19 12:35:59.59	218.69	19.08	
2025-01-19 12:36:00.80	218.93	19.20	
2025-01-19 12:36:02.02	219.17	19.32	
2025-01-19 12:36:03.24	219.42	19.45	
2025-01-19 12:36:04.46	219.67	19.57	
2025-01-19 12:36:05.68	219.92	19.70	
2025-01-19 12:36:06.90	220.17	19.82	
2025-01-19 12:36:08.12	220.43	19.94	
2025-01-19 12:36:09.34	220.68	20.07	
2025-01-19 12:36:10.55	220.94	20.19	
2025-01-19 12:36:11.77	221.20	20.32	
2025-01-19 12:36:12.99	221.46	20.44	
2025-01-19 12:36:14.21	221.73	20.57	
2025-01-19 12:36:15.43	222.00	20.69	
2025-01-19 12:36:16.65	222.27	20.82	
2025-01-19 12:36:17.87	222.54	20.94	
2025-01-19 12:36:19.09	222.82	21.07	
2025-01-19 12:36:20.30	223.09	21.19	
2025-01-19 12:36:21.52	223.37	21.32	
2025-01-19 12:36:22.74	223.65	21.44	
2025-01-19 12:36:23.96	223.94	21.57	
2025-01-19 12:36:25.18	224.22	21.69	
2025-01-19 12:36:26.40	224.51	21.82	
2025-01-19 12:36:27.62	224.80	21.95	
2025-01-19 12:36:28.84	225.09	22.07	
2025-01-19 12:36:30.06	225.39	22.20	
2025-01-19 12:36:31.27	225.69	22.32	
2025-01-19 12:36:32.49	225.99	22.45	
2025-01-19 12:36:33.71	226.29	22.57	
2025-01-19 12:36:34.93	226.60	22.70	
2025-01-19 12:36:36.15	226.90	22.82	
2025-01-19 12:36:37.37	227.22	22.94	
2025-01-19 12:36:38.59	227.53	23.07	
2025-01-19 12:36:39.81	227.85	23.19	
2025-01-19 12:36:41.02	228.16	23.32	
2025-01-19 12:36:42.24	228.48	23.44	
2025-01-19 12:36:43.46	228.81	23.56	
2025-01-19 12:36:44.68	229.13	23.69	
2025-01-19 12:36:45.90	229.46	23.81	
2025-01-19 12:36:47.12	229.79	23.93	
2025-01-19 12:36:48.34	230.13	24.05	
2025-01-19 12:36:49.56	230.46	24.18	
2025-01-19 12:36:50.77	230.80	24.30	
2025-01-19 12:36:51.99	231.14	24.42	
2025-01-19 12:36:53.21	231.49	24.54	
2025-01-19 12:36:54.43	231.84	24.66	
2025-01-19 12:36:55.65	232.19	24.78	
2025-01-19 12:36:56.87	232.54	24.90	
2025-01-19 12:36:58.09	232.89	25.02	
2025-01-19 12:36:59.31	233.25	25.13	
2025-01-19 12:37:00.52	233.61	25.25	
2025-01-19 12:37:01.74	233.98	25.37	
2025-01-19 12:37:02.96	234.34	25.48	
2025-01-19 12:37:04.18	234.71	25.60	
2025-01-19 12:37:05.40	235.08	25.71	
2025-01-19 12:37:06.62	235.46	25.83	
2025-01-19 12:37:07.84	235.84	25.94	
2025-01-19 12:37:09.06	236.22	26.05	
2025-01-19 12:37:10.28	236.60	26.17	
2025-01-19 12:37:11.49	236.98	26.28	
2025-01-19 12:37:12.71	237.37	26.39	
2025-01-19 12:37:13.93	237.76	26.50	
2025-01-19 12:37:15.15	238.16	26.61	
2025-01-19 12:37:16.37	238.56	26.71	
2025-01-19 12:37:17.59	238.95	26.82	
2025-01-19 12:37:18.81	239.36	26.93	
2025-01-19 12:37:20.03	239.76	27.03	
2025-01-19 12:37:21.24	240.17	27.13	
2025-01-19 12:37:22.46	240.58	27.24	
2025-01-19 12:37:23.68	240.99	27.34	
2025-01-19 12:37:24.90	241.41	27.44	
2025-01-19 12:37:26.12	241.82	27.54	
2025-01-19 12:37:27.34	242.25	27.63	
2025-01-19 12:37:28.56	242.67	27.73	
2025-01-19 12:37:29.78	243.10	27.83	
2025-01-19 12:37:30.99	243.52	27.92	
2025-01-19 12:37:32.21	243.95	28.01	
2025-01-19 12:37:33.43	244.39	28.10	
2025-01-19 12:37:34.65	244.82	28.19	
2025-01-19 12:37:35.87	245.26	28.28	
2025-01-19 12:37:37.09	245.70	28.37	
2025-01-19 12:37:38.31	246.15	28.45	
2025-01-19 12:37:39.53	246.59	28.54	
2025-01-19 12:37:40.75	247.04	28.62	
2025-01-19 12:37:41.96	247.49	28.70	
2025-01-19 12:37:43.18	247.94	28.78	
2025-01-19 12:37:44.40	248.40	28.86	
2025-01-19 12:37:45.62	248.85	28.94	
2025-01-19 12:37:46.84	249.31	29.01	
2025-01-19 12:37:48.06	249.78	29.08	
2025-01-19 12:37:49.28	250.24	29.15	
2025-01-19 12:37:50.50	250.71	29.22	
2025-01-19 12:37:51.71	251.17	29.29	
2025-01-19 12:37:52.93	251.64	29.35	
2025-01-19 12:37:54.15	252.11	29.42	
2025-01-19 12:37:55.37	252.59	29.48	
2025-01-19 12:37:56.59	253.06	29.54	
2025-01-19 12:37:57.81	253.54	29.60	
2025-01-19 12:37:59.03	254.02	29.65	
2025-01-19 12:38:00.25	254.50	29.71	
2025-01-19 12:38:01.46	254.98	29.76	
2025-01-19 12:38:02.68	255.46	29.81	
2025-01-19 12:38:03.90	255.95	29.86	
2025-01-19 12:38:05.12	256.43	29.90	
2025-01-19 12:38:06.34	256.92	29.94	
2025-01-19 12:38:07.56	257.41	29.99	
2025-01-19 12:38:08.78	257.90	30.03	
2025-01-19 12:38:10.00	258.39	30.06	
2025-01-19 12:38:11.21	258.88	30.10	
2025-01-19 12:38:12.43	259.37	30.13	
2025-01-19 12:38:13.65	259.87	30.16	
2025-01-19 12:38:14.87	260.36	30.19	
2025-01-19 12:38:16.09	260.86	30.22	
2025-01-19 12:38:17.31	261.36	30.24	
2025-01-19 12:38:18.53	261.86	30.26	
2025-01-19 12:38:19.75	262.35	30.28	
2025-01-19 12:38:20.97	262.85	30.30	
2025-01-19 12:38:22.18	263.35	30.31	
2025-01-19 12:38:23.40	263.85	30.32	
2025-01-19 12:38:24.62	264.35	30.33	
2025-01-19 12:38:25.84	264.85	30.34	
2025-01-19 12:38:27.06	265.35	30.35	
2025-01-19 12:38:28.28	265.85	30.35	
2025-01-19 12:38:29.50	266.35	30.35	
2025-01-19 12:38:30.72	266.85	30.35	
2025-01-19 12:38:31.93	267.35	30.35	
2025-01-19 12:38:33.15	267.85	30.34	
2025-01-19 12:38:34.37	268.35	30.33	
2025-01-19 12:38:35.59	268.85	30.32	
2025-01-19 12:38:36.81	269.35	30.31	
2025-01-19 12:38:38.03	269.85	30.29	
2025-01-19 12:38:39.25	270.35	30.28	
2025-01-19 12:38:40.47	270.85	30.26	
2025-01-19 12:38:41.68	271.34	30.24	
2025-01-19 12:38:42.90	271.84	30.21	
2025-01-19 12:38:44.12	272.33	30.19	
2025-01-19 12:38:45.34	272.83	30.16	
2025-01-19 12:38:46.56	273.32	30.13	
2025-01-19 12:38:47.78	273.82	30.09	
2025-01-19 12:38:49.00	274.31	30.06	
2025-01-19 12:38:50.22	274.80	30.02	
2025-01-19 12:38:51.43	275.28	29.98	
2025-01-19 12:38:52.65	275.77	29.94	
2025-01-19 12:38:53.87	276.26	29.90	
2025-01-19 12:38:55.09	276.74	29.85	
2025-01-19 12:38:56.31	277.23	29.80	
2025-01-19 12:38:57.53	277.71	29.75	
2025-01-19 12:38:58.75	278.19	29.70	
2025-01-19 12:38:59.97	278.67	29.65	
2025-01-19 12:39:01.19	279.15	29.59	
2025-01-19 12:39:02.40	279.62	29.53	
2025-01-19 12:39:03.62	280.10	29.47	
2025-01-19 12:39:04.84	280.57	29.41	
2025-01-19 12:39:06.06	281.04	29.35	
2025-01-19 12:39:07.28	281.51	29.28	
2025-01-19 12:39:08.50	281.98	29.21	
2025-01-19 12:39:09.72	282.44	29.15	
2025-01-19 12:39:10.94	282.90	29.07	
2025-01-19 12:39:12.15	283.36	29.00	
2025-01-19 12:39:13.37	283.82	28.93	
2025-01-19 12:39:14.59	284.27	28.85	
2025-01-19 12:39:15.81	284.73	28.77	
2025-01-19 12:39:17.03	285.18	28.70	
2025-01-19 12:39:18.25	285.63	28.61	
2025-01-19 12:39:19.47	286.07	28.53	
2025-01-19 12:39:20.69	286.52	28.45	
2025-01-19 12:39:21.90	286.96	28.36	
2025-01-19 12:39:23.12	287.40	28.28	
2025-01-19 12:39:24.34	287.84	28.19	
2025-01-19 12:39:25.56	288.27	28.10	
2025-01-19 12:39:26.78	288.70	28.01	
2025-01-19 12:39:28.00	289.13	27.91	
2025-01-19 12:39:29.22	289.56	27.82	
2025-01-19 12:39:30.44	289.98	27.73	
2025-01-19 12:39:31.65	290.40	27.63	
2025-01-19 12:39:32.87	290.82	27.53	
2025-01-19 12:39:34.09	291.24	27.43	
2025-01-19 12:39:35.31	291.65	27.33	
2025-01-19 12:39:36.53	292.06	27.23	
2025-01-19 12:39:37.75	292.47	27.13	
2025-01-19 12:39:38.97	292.88	27.03	
2025-01-19 12:39:40.19	293.28	26.92	
2025-01-19 12:39:41.41	293.68	26.82	
2025-01-19 12:39:42.62	294.08	26.71	
2025-01-19 12:39:43.84	294.47	26.61	
2025-01-19 12:39:45.06	294.87	26.50	
2025-01-19 12:39:46.28	295.26	26.39	
2025-01-19 12:39:47.50	295.64	26.28	
2025-01-19 12:39:48.72	296.03	26.17	
2025-01-19 12:39:49.94	296.41	26.06	
2025-01-19 12:39:51.16	296.79	25.94	
2025-01-19 12:39:52.37	297.16	25.83	
2025-01-19 12:39:53.59	297.53	25.72	
2025-01-19 12:39:54.81	297.90	25.60	
2025-01-19 12:39:56.03	298.27	25.49	
2025-01-19 12:39:57.25	298.64	25.37	
2025-01-19 12:39:58.47	299.00	25.26	
2025-01-19 12:39:59.69	299.36	25.14	
2025-01-19 12:40:00.91	299.72	25.02	
2025-01-19 12:40:02.12	300.07	24.91	
2025-01-19 12:40:03.34	300.42	24.79	
2025-01-19 12:40:04.56	300.77	24.67	
2025-01-19 12:40:05.78	301.11	24.55	
2025-01-19 12:40:07.00	301.46	24.43	
2025-01-19 12:40:08.22	301.80	24.31	
2025-01-19 12:40:09.44	302.13	24.19	
2025-01-19 12:40:10.66	302.47	24.07	
2025-01-19 12:40:11.88	302.80	23.95	
2025-01-19 12:40:13.09	303.13	23.82	
2025-01-19 12:40:14.31	303.46	23.70	
2025-01-19 12:40:15.53	303.78	23.58	
2025-01-19 12:40:16.75	304.10	23.46	
2025-01-19 12:40:17.97	304.42	23.34	
2025-01-19 12:40:19.19	304.74	23.21	
2025-01-19 12:40:20.41	305.06	23.09	
2025-01-19 12:40:21.63	305.37	22.97	
2025-01-19 12:40:22.84	305.67	22.84	
2025-01-19 12:40:24.06	305.98	22.72	
2025-01-19 12:40:25.28	306.29	22.59	
2025-01-19 12:40:26.50	306.59	22.47	
2025-01-19 12:40:27.72	306.89	22.35	
2025-01-19 12:40:28.94	307.18	22.22	
2025-01-19 12:40:30.16	307.48	22.10	
2025-01-19 12:40:31.38	307.77	21.97	
2025-01-19 12:40:32.59	308.06	21.85	
2025-01-19 12:40:33.81	308.35	21.73	
2025-01-19 12:40:35.03	308.63	21.60	
2025-01-19 12:40:36.25	308.91	21.48	
2025-01-19 12:40:37.47	309.19	21.35	
2025-01-19 12:40:38.69	309.47	21.23	
2025-01-19 12:40:39.91	309.75	21.10	
2025-01-19 12:40:41.13	310.02	20.98	
2025-01-19 12:40:42.34	310.29	20.86	
2025-01-19 12:40:43.56	310.56	20.73	
2025-01-19 12:40:44.78	310.83	20.61	
2025-01-19 12:40:46.00	311.09	20.48	
2025-01-19 12:40:47.22	311.35	20.36	
2025-01-19 12:40:48.44	311.61	20.23	
2025-01-19 12:40:49.66	311.87	20.11	
2025-01-19 12:40:50.88	312.13	19.99	
2025-01-19 12:40:52.10	312.38	19.86	
2025-01-19 12:40:53.31	312.63	19.74	
2025-01-19 12:40:54.53	312.88	19.62	
2025-01-19 12:40:55.75	313.13	19.49	
2025-01-19 12:40:56.97	313.37	19.37	
2025-01-19 12:40:58.19	313.62	19.25	
2025-01-19 12:40:59.41	313.86	19.13	
2025-01-19 12:41:00.64	314.10	19.00	
2025-01-19 12:41:01.86	314.34	18.88	
2025-01-19 12:41:03.08	314.57	18.76	
2025-01-19 12:41:04.30	314.80	18.64	
2025-01-19 12:41:05.52	315.04	18.52	
2025-01-19 12:41:06.74	315.27	18.39	
2025-01-19 12:41:07.96	315.49	18.27	
2025-01-19 12:41:09.17	315.72	18.15	
2025-01-19 12:41:10.39	315.94	18.03	
2025-01-19 12:41:11.61	316.16	17.91	
2025-01-19 12:41:12.83	316.39	17.79	
2025-01-19 12:41:14.05	316.60	17.67	
2025-01-19 12:41:15.27	316.82	17.55	
2025-01-19 12:41:16.49	317.04	17.43	
2025-01-19 12:41:17.71	317.25	17.32	
2025-01-19 12:41:18.92	317.46	17.20	
2025-01-19 12:41:20.14	317.67	17.08	
2025-01-19 12:41:21.36	317.88	16.96	
2025-01-19 12:41:22.58	318.08	16.84	
2025-01-19 12:41:23.80	318.29	16.73	
2025-01-19 12:41:25.02	318.49	16.61	
2025-01-19 12:41:26.24	318.69	16.49	
2025-01-19 12:41:27.46	318.90	16.38	
2025-01-19 12:41:28.67	319.09	16.26	
2025-01-19 12:41:29.89	319.29	16.14	
2025-01-19 12:41:31.11	319.48	16.03	
2025-01-19 12:41:32.33	319.68	15.91	
2025-01-19 12:41:33.55	319.87	15.80	
2025-01-19 12:41:34.77	320.06	15.68	
2025-01-19 12:41:35.99	320.25	15.57	
2025-01-19 12:41:37.21	320.44	15.45	
2025-01-19 12:41:38.43	320.62	15.34	
2025-01-19 12:41:39.64	320.81	15.23	
2025-01-19 12:41:40.86	320.99	15.11	
2025-01-19 12:41:42.08	321.17	15.00	
2025-01-19 12:41:43.30	321.35	14.89	
2025-01-19 12:41:44.52	321.53	14.78	
2025-01-19 12:41:45.74	321.71	14.67	
2025-01-19 12:41:46.96	321.89	14.55	
2025-01-19 12:41:48.18	322.06	14.44	
2025-01-19 12:41:49.39	322.23	14.33	
2025-01-19 12:41:50.61	322.41	14.22	
2025-01-19 12:41:51.83	322.58	14.11	
2025-01-19 12:41:53.05	322.75	14.00	
2025-01-19 12:41:54.27	322.92	13.89	
2025-01-19 12:41:55.49	323.08	13.78	
2025-01-19 12:41:56.71	323.25	13.67	
2025-01-19 12:41:57.93	323.41	13.57	
2025-01-19 12:41:59.14	323.58	13.46	
2025-01-19 12:42:00.36	323.74	13.35	
2025-01-19 12:42:01.58	323.90	13.24	
2025-01-19 12:42:02.80	324.06	13.14	
2025-01-19 12:42:04.02	324.22	13.03	
2025-01-19 12:42:05.24	324.38	12.92	
2025-01-19 12:42:06.46	324.53	12.82	
2025-01-19 12:42:07.68	324.69	12.71	
2025-01-19 12:42:08.89	324.84	12.61	
2025-01-19 12:42:10.11	324.99	12.50	
2025-01-19 12:42:11.33	325.14	12.40	
2025-01-19 12:42:12.55	325.29	12.29	
2025-01-19 12:42:13.77	325.44	12.19	
2025-01-19 12:42:14.99	325.59	12.08	
2025-01-19 12:42:16.21	325.74	11.98	
2025-01-19 12:42:17.43	325.89	11.88	
2025-01-19 12:42:18.65	326.03	11.77	
2025-01-19 12:42:19.86	326.17	11.67	
2025-01-19 12:42:21.08	326.32	11.57	
2025-01-19 12:42:22.30	326.46	11.47	
2025-01-19 12:42:23.52	326.60	11.37	
2025-01-19 12:42:24.74	326.74	11.27	
2025-01-19 12:42:25.96	326.88	11.16	
2025-01-19 12:42:27.18	327.02	11.06	
2025-01-19 12:42:28.40	327.16	10.96	
2025-01-19 12:42:29.61	327.29	10.86	
2025-01-19 12:42:30.83	327.43	10.77	
2025-01-19 12:42:32.05	327.56	10.67	
2025-01-19 12:42:33.27	327.69	10.57	
2025-01-19 12:42:34.49	327.83	10.47	
2025-01-19 12:42:35.71	327.96	10.37	
2025-01-19 12:42:36.93	328.09	10.27	
2025-01-19 12:42:38.15	328.22	10.17	
2025-01-19 12:42:39.36	328.35	10.08	
2025-01-19 12:42:40.58	328.47	9.98	
2025-01-19 12:42:41.80	328.60	9.88	
2025-01-19 12:42:43.02	328.73	9.79	
2025-01-19 12:42:44.24	328.85	9.69	
2025-01-19 12:42:45.46	328.98	9.60	
2025-01-19 12:42:46.68	329.10	9.50	
2025-01-19 12:42:47.90	329.22	9.40	
2025-01-19 12:42:49.11	329.34	9.31	
2025-01-19 12:42:50.33	329.47	9.22	
2025-01-19 12:42:51.55	329.59	9.12	
2025-01-19 12:42:52.77	329.71	9.03	
2025-01-19 12:42:53.99	329.82	8.93	
2025-01-19 12:42:55.21	329.94	8.84	
2025-01-19 12:42:56.43	330.06	8.75	
2025-01-19 12:42:57.65	330.18	8.65	
2025-01-19 12:42:58.87	330.29	8.56	
2025-01-19 12:43:00.08	330.41	8.47	
2025-01-19 12:43:01.30	330.52	8.38	
2025-01-19 12:43:02.52	330.63	8.29	
2025-01-19 12:43:03.74	330.75	8.19	
2025-01-19 12:43:04.96	330.86	8.10	
2025-01-19 12:43:06.18	330.97	8.01	
2025-01-19 12:43:07.40	331.08	7.92	
2025-01-19 12:43:08.62	331.19	7.83	
2025-01-19 12:43:09.83	331.30	7.74	
2025-01-19 12:43:11.05	331.41	7.65	
2025-01-19 12:43:12.27	331.51	7.56	
2025-01-19 12:43:13.49	331.62	7.47	
2025-01-19 12:43:14.71	331.73	7.39	
2025-01-19 12:43:15.93	331.83	7.30	
2025-01-19 12:43:17.15	331.94	7.21	
2025-01-19 12:43:18.37	332.04	7.12	
2025-01-19 12:43:19.58	332.15	7.03	
2025-01-19 12:43:20.80	332.25	6.95	
2025-01-19 12:43:22.02	332.35	6.86	
2025-01-19 12:43:23.24	332.45	6.77	
2025-01-19 12:43:24.46	332.56	6.68	
2025-01-19 12:43:25.68	332.66	6.60	
2025-01-19 12:43:26.90	332.76	6.51	
2025-01-19 12:43:28.12	332.86	6.42	
2025-01-19 12:43:29.33	332.95	6.34	
2025-01-19 12:43:30.55	333.05	6.25	
2025-01-19 12:43:31.77	333.15	6.17	
2025-01-19 12:43:32.99	333.25	6.08	
2025-01-19 12:43:34.21	333.34	6.00	
2025-01-19 12:43:35.43	333.44	5.91	
2025-01-19 12:43:36.65	333.54	5.83	
2025-01-19 12:43:37.87	333.63	5.75	
2025-01-19 12:43:39.09	333.73	5.66	
2025-01-19 12:43:40.30	333.82	5.58	
2025-01-19 12:43:41.52	333.91	5.50	
2025-01-19 12:43:42.74	334.00	5.41	
2025-01-19 12:43:43.96	334.10	5.33	
2025-01-19 12:43:45.18	334.19	5.25	
2025-01-19 12:43:46.40	334.28	5.16	
2025-01-19 12:43:47.62	334.37	5.08	
2025-01-19 12:43:48.84	334.46	5.00	
2025-01-19 12:43:50.05	334.55	4.92	
2025-01-19 12:43:51.27	334.64	4.84	
2025-01-19 12:43:52.49	334.73	4.76	
2025-01-19 12:43:53.71	334.81	4.68	
2025-01-19 12:43:54.93	334.90	4.59	
2025-01-19 12:43:56.15	334.99	4.51	
2025-01-19 12:43:57.37	335.08	4.43	
2025-01-19 12:43:58.59	335.16	4.35	
2025-01-19 12:43:59.80	335.25	4.27	
2025-01-19 12:44:01.02	335.33	4.19	
2025-01-19 12:44:02.24	335.42	4.12	
2025-01-19 12:44:03.46	335.50	4.04	

#Closed at: 2025-01-19 12:44:04