passes_logs/2025/01/19/SPB_Silybum_02/SPB_Silybum_02__20250119_021834_SUOMI_NPP_rec.log

#Pass ID: 20250119_021834_SUOMI NPP
#Satellite: SUOMI NPP
#Configuration: NPP
#Start time: 2025-01-19 02:18:34

#Version: 2.0.20230423
#Station: SPB_Silybum_02
#Location: 30.233357 lon 59.946436 lat
#TLE: 1 37849U 11061A   25018.16218063  .00000203  00000+0  11733-3 0  9995
#TLE: 2 37849  98.7450 319.1107 0001555  36.1075 324.0206 14.19539838685362

#Time	Az	El	Level	Level2	SNR	BER	Gain	Gain2
2025-01-19 02:18:36.33	14.06	4.13	
2025-01-19 02:18:37.55	13.97	4.20	
2025-01-19 02:18:38.77	13.88	4.28	
2025-01-19 02:18:39.99	13.78	4.35	
2025-01-19 02:18:41.21	13.69	4.42	
2025-01-19 02:18:42.43	13.59	4.49	
2025-01-19 02:18:43.65	13.50	4.57	
2025-01-19 02:18:44.87	13.40	4.64	
2025-01-19 02:18:46.09	13.31	4.71	
2025-01-19 02:18:47.30	13.21	4.78	
2025-01-19 02:18:48.52	13.11	4.86	
2025-01-19 02:18:49.74	13.02	4.93	
2025-01-19 02:18:50.96	12.92	5.00	
2025-01-19 02:18:52.18	12.82	5.08	
2025-01-19 02:18:53.40	12.72	5.15	
2025-01-19 02:18:54.62	12.62	5.22	
2025-01-19 02:18:55.84	12.52	5.30	
2025-01-19 02:18:57.06	12.42	5.37	
2025-01-19 02:18:58.28	12.32	5.45	
2025-01-19 02:18:59.50	12.22	5.52	
2025-01-19 02:19:00.72	12.11	5.59	
2025-01-19 02:19:01.94	12.01	5.67	
2025-01-19 02:19:03.16	11.91	5.74	
2025-01-19 02:19:04.37	11.81	5.82	
2025-01-19 02:19:05.59	11.70	5.89	
2025-01-19 02:19:06.81	11.60	5.97	
2025-01-19 02:19:08.03	11.49	6.04	
2025-01-19 02:19:09.25	11.38	6.12	
2025-01-19 02:19:10.47	11.28	6.19	
2025-01-19 02:19:11.69	11.17	6.27	
2025-01-19 02:19:12.91	11.06	6.34	
2025-01-19 02:19:14.13	10.95	6.42	
2025-01-19 02:19:15.35	10.84	6.49	
2025-01-19 02:19:16.57	10.73	6.57	
2025-01-19 02:19:17.79	10.62	6.65	
2025-01-19 02:19:19.01	10.51	6.72	
2025-01-19 02:19:20.23	10.40	6.80	
2025-01-19 02:19:21.44	10.29	6.87	
2025-01-19 02:19:22.66	10.18	6.95	
2025-01-19 02:19:23.88	10.06	7.03	
2025-01-19 02:19:25.10	9.95	7.10	
2025-01-19 02:19:26.32	9.84	7.18	
2025-01-19 02:19:27.54	9.72	7.26	
2025-01-19 02:19:28.76	9.60	7.33	
2025-01-19 02:19:29.98	9.49	7.41	
2025-01-19 02:19:31.20	9.37	7.49	
2025-01-19 02:19:32.42	9.25	7.57	
2025-01-19 02:19:33.64	9.14	7.64	
2025-01-19 02:19:34.86	9.02	7.72	
2025-01-19 02:19:36.08	8.90	7.80	
2025-01-19 02:19:37.30	8.78	7.88	
2025-01-19 02:19:38.51	8.66	7.95	
2025-01-19 02:19:39.73	8.53	8.03	
2025-01-19 02:19:40.95	8.41	8.11	
2025-01-19 02:19:42.17	8.29	8.19	
2025-01-19 02:19:43.39	8.16	8.27	
2025-01-19 02:19:44.61	8.04	8.35	
2025-01-19 02:19:45.83	7.92	8.42	
2025-01-19 02:19:47.05	7.79	8.50	
2025-01-19 02:19:48.27	7.66	8.58	
2025-01-19 02:19:49.49	7.54	8.66	
2025-01-19 02:19:50.71	7.41	8.74	
2025-01-19 02:19:51.93	7.28	8.82	
2025-01-19 02:19:53.15	7.15	8.90	
2025-01-19 02:19:54.37	7.02	8.98	
2025-01-19 02:19:55.58	6.89	9.06	
2025-01-19 02:19:56.80	6.76	9.14	
2025-01-19 02:19:58.02	6.63	9.22	
2025-01-19 02:19:59.24	6.49	9.30	
2025-01-19 02:20:00.46	6.36	9.38	
2025-01-19 02:20:01.68	6.22	9.46	
2025-01-19 02:20:02.90	6.09	9.54	
2025-01-19 02:20:04.12	5.95	9.62	
2025-01-19 02:20:05.34	5.81	9.70	
2025-01-19 02:20:06.56	5.68	9.78	
2025-01-19 02:20:07.78	5.54	9.86	
2025-01-19 02:20:09.00	5.40	9.94	
2025-01-19 02:20:10.22	5.26	10.02	
2025-01-19 02:20:11.43	5.12	10.10	
2025-01-19 02:20:12.65	4.98	10.18	
2025-01-19 02:20:13.87	4.84	10.26	
2025-01-19 02:20:15.09	4.69	10.34	
2025-01-19 02:20:16.31	4.55	10.42	
2025-01-19 02:20:17.53	4.40	10.50	
2025-01-19 02:20:18.75	4.26	10.59	
2025-01-19 02:20:19.97	4.11	10.67	
2025-01-19 02:20:21.19	3.96	10.75	
2025-01-19 02:20:22.41	3.81	10.83	
2025-01-19 02:20:23.63	3.67	10.91	
2025-01-19 02:20:24.85	3.52	10.99	
2025-01-19 02:20:26.07	3.36	11.08	
2025-01-19 02:20:27.29	3.21	11.16	
2025-01-19 02:20:28.50	3.06	11.24	
2025-01-19 02:20:29.72	2.91	11.32	
2025-01-19 02:20:30.94	2.75	11.40	
2025-01-19 02:20:32.16	2.60	11.49	
2025-01-19 02:20:33.38	2.44	11.57	
2025-01-19 02:20:34.60	2.28	11.65	
2025-01-19 02:20:35.82	2.13	11.73	
2025-01-19 02:20:37.04	1.97	11.81	
2025-01-19 02:20:38.26	1.81	11.90	
2025-01-19 02:20:39.48	1.65	11.98	
2025-01-19 02:20:40.70	1.49	12.06	
2025-01-19 02:20:41.92	1.32	12.15	
2025-01-19 02:20:43.14	1.16	12.23	
2025-01-19 02:20:44.36	0.99	12.31	
2025-01-19 02:20:45.57	0.83	12.39	
2025-01-19 02:20:46.79	0.66	12.48	
2025-01-19 02:20:48.01	0.50	12.56	
2025-01-19 02:20:49.23	0.33	12.64	
2025-01-19 02:20:50.45	0.16	12.72	
2025-01-19 02:20:51.67	359.99	12.81	
2025-01-19 02:20:52.89	359.82	12.89	
2025-01-19 02:20:54.11	359.64	12.97	
2025-01-19 02:20:55.33	359.47	13.06	
2025-01-19 02:20:56.55	359.30	13.14	
2025-01-19 02:20:57.77	359.12	13.22	
2025-01-19 02:20:58.99	358.95	13.31	
2025-01-19 02:21:00.21	358.77	13.39	
2025-01-19 02:21:01.42	358.59	13.47	
2025-01-19 02:21:02.64	358.41	13.56	
2025-01-19 02:21:03.86	358.23	13.64	
2025-01-19 02:21:05.08	358.05	13.72	
2025-01-19 02:21:06.30	357.87	13.80	
2025-01-19 02:21:07.52	357.68	13.89	
2025-01-19 02:21:08.74	357.50	13.97	
2025-01-19 02:21:09.96	357.31	14.05	
2025-01-19 02:21:11.18	357.13	14.14	
2025-01-19 02:21:12.40	356.94	14.22	
2025-01-19 02:21:13.62	356.75	14.30	
2025-01-19 02:21:14.84	356.56	14.39	
2025-01-19 02:21:16.06	356.37	14.47	
2025-01-19 02:21:17.28	356.18	14.55	
2025-01-19 02:21:18.49	355.99	14.63	
2025-01-19 02:21:19.71	355.79	14.72	
2025-01-19 02:21:20.93	355.60	14.80	
2025-01-19 02:21:22.15	355.40	14.88	
2025-01-19 02:21:23.37	355.20	14.97	
2025-01-19 02:21:24.59	355.00	15.05	
2025-01-19 02:21:25.81	354.80	15.13	
2025-01-19 02:21:27.03	354.60	15.21	
2025-01-19 02:21:28.25	354.40	15.30	
2025-01-19 02:21:29.47	354.20	15.38	
2025-01-19 02:21:30.69	353.99	15.46	
2025-01-19 02:21:31.91	353.79	15.54	
2025-01-19 02:21:33.13	353.58	15.62	
2025-01-19 02:21:34.35	353.37	15.71	
2025-01-19 02:21:35.57	353.16	15.79	
2025-01-19 02:21:36.79	352.95	15.87	
2025-01-19 02:21:38.00	352.74	15.95	
2025-01-19 02:21:39.22	352.53	16.03	
2025-01-19 02:21:40.44	352.32	16.11	
2025-01-19 02:21:41.66	352.10	16.19	
2025-01-19 02:21:42.88	351.89	16.27	
2025-01-19 02:21:44.10	351.67	16.36	
2025-01-19 02:21:45.32	351.45	16.44	
2025-01-19 02:21:46.54	351.23	16.52	
2025-01-19 02:21:47.76	351.01	16.60	
2025-01-19 02:21:48.98	350.79	16.68	
2025-01-19 02:21:50.20	350.56	16.76	
2025-01-19 02:21:51.42	350.34	16.84	
2025-01-19 02:21:52.64	350.11	16.92	
2025-01-19 02:21:53.86	349.89	17.00	
2025-01-19 02:21:55.07	349.66	17.07	
2025-01-19 02:21:56.29	349.43	17.15	
2025-01-19 02:21:57.51	349.20	17.23	
2025-01-19 02:21:58.73	348.97	17.31	
2025-01-19 02:21:59.95	348.74	17.39	
2025-01-19 02:22:01.17	348.50	17.47	
2025-01-19 02:22:02.39	348.27	17.55	
2025-01-19 02:22:03.61	348.03	17.62	
2025-01-19 02:22:04.83	347.79	17.70	
2025-01-19 02:22:06.05	347.55	17.78	
2025-01-19 02:22:07.27	347.31	17.85	
2025-01-19 02:22:08.49	347.07	17.93	
2025-01-19 02:22:09.71	346.83	18.01	
2025-01-19 02:22:10.93	346.58	18.08	
2025-01-19 02:22:12.14	346.34	18.16	
2025-01-19 02:22:13.36	346.09	18.23	
2025-01-19 02:22:14.58	345.85	18.31	
2025-01-19 02:22:15.80	345.60	18.38	
2025-01-19 02:22:17.02	345.35	18.46	
2025-01-19 02:22:18.24	345.09	18.53	
2025-01-19 02:22:19.46	344.84	18.60	
2025-01-19 02:22:20.68	344.59	18.68	
2025-01-19 02:22:21.90	344.33	18.75	
2025-01-19 02:22:23.12	344.08	18.82	
2025-01-19 02:22:24.34	343.82	18.89	
2025-01-19 02:22:25.56	343.56	18.97	
2025-01-19 02:22:26.78	343.30	19.04	
2025-01-19 02:22:28.00	343.04	19.11	
2025-01-19 02:22:29.21	342.78	19.18	
2025-01-19 02:22:30.43	342.51	19.25	
2025-01-19 02:22:31.65	342.25	19.32	
2025-01-19 02:22:32.87	341.98	19.39	
2025-01-19 02:22:34.09	341.71	19.45	
2025-01-19 02:22:35.31	341.44	19.52	
2025-01-19 02:22:36.53	341.17	19.59	
2025-01-19 02:22:37.75	340.90	19.66	
2025-01-19 02:22:38.97	340.63	19.72	
2025-01-19 02:22:40.19	340.36	19.79	
2025-01-19 02:22:41.41	340.08	19.86	
2025-01-19 02:22:42.63	339.81	19.92	
2025-01-19 02:22:43.85	339.53	19.99	
2025-01-19 02:22:45.07	339.25	20.05	
2025-01-19 02:22:46.28	338.97	20.11	
2025-01-19 02:22:47.50	338.69	20.18	
2025-01-19 02:22:48.72	338.41	20.24	
2025-01-19 02:22:49.94	338.13	20.30	
2025-01-19 02:22:51.16	337.84	20.36	
2025-01-19 02:22:52.38	337.56	20.42	
2025-01-19 02:22:53.60	337.27	20.48	
2025-01-19 02:22:54.82	336.98	20.54	
2025-01-19 02:22:56.04	336.69	20.60	
2025-01-19 02:22:57.26	336.40	20.66	
2025-01-19 02:22:58.48	336.11	20.72	
2025-01-19 02:22:59.70	335.82	20.77	
2025-01-19 02:23:00.92	335.53	20.83	
2025-01-19 02:23:02.13	335.24	20.88	
2025-01-19 02:23:03.35	334.94	20.94	
2025-01-19 02:23:04.57	334.64	20.99	
2025-01-19 02:23:05.79	334.35	21.05	
2025-01-19 02:23:07.01	334.05	21.10	
2025-01-19 02:23:08.23	333.75	21.15	
2025-01-19 02:23:09.45	333.45	21.20	
2025-01-19 02:23:10.67	333.15	21.25	
2025-01-19 02:23:11.89	332.84	21.30	
2025-01-19 02:23:13.11	332.54	21.35	
2025-01-19 02:23:14.33	332.24	21.40	
2025-01-19 02:23:15.55	331.93	21.45	
2025-01-19 02:23:16.77	331.62	21.49	
2025-01-19 02:23:17.99	331.32	21.54	
2025-01-19 02:23:19.20	331.01	21.58	
2025-01-19 02:23:20.42	330.70	21.63	
2025-01-19 02:23:21.64	330.39	21.67	
2025-01-19 02:23:22.86	330.08	21.71	
2025-01-19 02:23:24.08	329.77	21.76	
2025-01-19 02:23:25.30	329.46	21.80	
2025-01-19 02:23:26.52	329.14	21.84	
2025-01-19 02:23:27.74	328.83	21.88	
2025-01-19 02:23:28.96	328.51	21.91	
2025-01-19 02:23:30.18	328.20	21.95	
2025-01-19 02:23:31.40	327.88	21.99	
2025-01-19 02:23:32.62	327.56	22.02	
2025-01-19 02:23:33.84	327.24	22.06	
2025-01-19 02:23:35.06	326.93	22.09	
2025-01-19 02:23:36.27	326.61	22.13	
2025-01-19 02:23:37.49	326.29	22.16	
2025-01-19 02:23:38.71	325.97	22.19	
2025-01-19 02:23:39.93	325.65	22.22	
2025-01-19 02:23:41.15	325.32	22.25	
2025-01-19 02:23:42.37	325.00	22.28	
2025-01-19 02:23:43.59	324.68	22.31	
2025-01-19 02:23:44.81	324.35	22.33	
2025-01-19 02:23:46.03	324.03	22.36	
2025-01-19 02:23:47.25	323.70	22.38	
2025-01-19 02:23:48.47	323.38	22.41	
2025-01-19 02:23:49.69	323.05	22.43	
2025-01-19 02:23:50.91	322.73	22.45	
2025-01-19 02:23:52.13	322.40	22.47	
2025-01-19 02:23:53.34	322.07	22.49	
2025-01-19 02:23:54.56	321.75	22.51	
2025-01-19 02:23:55.78	321.42	22.53	
2025-01-19 02:23:57.00	321.09	22.54	
2025-01-19 02:23:58.22	320.76	22.56	
2025-01-19 02:23:59.44	320.43	22.57	
2025-01-19 02:24:00.66	320.10	22.59	
2025-01-19 02:24:01.88	319.77	22.60	
2025-01-19 02:24:03.10	319.44	22.61	
2025-01-19 02:24:04.32	319.11	22.62	
2025-01-19 02:24:05.54	318.78	22.63	
2025-01-19 02:24:06.76	318.45	22.64	
2025-01-19 02:24:07.98	318.12	22.65	
2025-01-19 02:24:09.19	317.79	22.66	
2025-01-19 02:24:10.41	317.46	22.66	
2025-01-19 02:24:11.63	317.13	22.67	
2025-01-19 02:24:12.85	316.80	22.67	
2025-01-19 02:24:14.07	316.47	22.67	
2025-01-19 02:24:15.29	316.13	22.67	
2025-01-19 02:24:16.51	315.80	22.68	
2025-01-19 02:24:17.73	315.47	22.67	
2025-01-19 02:24:18.95	315.14	22.67	
2025-01-19 02:24:20.17	314.81	22.67	
2025-01-19 02:24:21.39	314.48	22.67	
2025-01-19 02:24:22.61	314.14	22.66	
2025-01-19 02:24:23.83	313.81	22.66	
2025-01-19 02:24:25.05	313.48	22.65	
2025-01-19 02:24:26.26	313.15	22.64	
2025-01-19 02:24:27.48	312.82	22.63	
2025-01-19 02:24:28.70	312.49	22.62	
2025-01-19 02:24:29.92	312.16	22.61	
2025-01-19 02:24:31.14	311.83	22.60	
2025-01-19 02:24:32.36	311.50	22.59	
2025-01-19 02:24:33.58	311.17	22.57	
2025-01-19 02:24:34.80	310.84	22.56	
2025-01-19 02:24:36.02	310.51	22.54	
2025-01-19 02:24:37.24	310.18	22.53	
2025-01-19 02:24:38.46	309.85	22.51	
2025-01-19 02:24:39.68	309.53	22.49	
2025-01-19 02:24:40.90	309.20	22.47	
2025-01-19 02:24:42.12	308.87	22.45	
2025-01-19 02:24:43.33	308.55	22.43	
2025-01-19 02:24:44.55	308.22	22.41	
2025-01-19 02:24:45.77	307.90	22.38	
2025-01-19 02:24:46.99	307.57	22.36	
2025-01-19 02:24:48.21	307.25	22.33	
2025-01-19 02:24:49.43	306.92	22.31	
2025-01-19 02:24:50.65	306.60	22.28	
2025-01-19 02:24:51.87	306.27	22.25	
2025-01-19 02:24:53.09	305.95	22.22	
2025-01-19 02:24:54.31	305.63	22.19	
2025-01-19 02:24:55.53	305.31	22.16	
2025-01-19 02:24:56.75	304.99	22.13	
2025-01-19 02:24:57.97	304.67	22.09	
2025-01-19 02:24:59.19	304.35	22.06	
2025-01-19 02:25:00.40	304.03	22.02	
2025-01-19 02:25:01.62	303.71	21.99	
2025-01-19 02:25:02.84	303.40	21.95	
2025-01-19 02:25:04.06	303.08	21.91	
2025-01-19 02:25:05.28	302.77	21.88	
2025-01-19 02:25:06.50	302.45	21.84	
2025-01-19 02:25:07.72	302.14	21.80	
2025-01-19 02:25:08.94	301.82	21.75	
2025-01-19 02:25:10.16	301.51	21.71	
2025-01-19 02:25:11.38	301.20	21.67	
2025-01-19 02:25:12.60	300.89	21.63	
2025-01-19 02:25:13.82	300.58	21.58	
2025-01-19 02:25:15.04	300.27	21.54	
2025-01-19 02:25:16.25	299.97	21.49	
2025-01-19 02:25:17.47	299.66	21.44	
2025-01-19 02:25:18.69	299.35	21.40	
2025-01-19 02:25:19.91	299.05	21.35	
2025-01-19 02:25:21.13	298.74	21.30	
2025-01-19 02:25:22.35	298.44	21.25	
2025-01-19 02:25:23.57	298.14	21.20	
2025-01-19 02:25:24.79	297.84	21.15	
2025-01-19 02:25:26.01	297.54	21.10	
2025-01-19 02:25:27.23	297.24	21.04	
2025-01-19 02:25:28.45	296.94	20.99	
2025-01-19 02:25:29.67	296.64	20.94	
2025-01-19 02:25:30.89	296.35	20.88	
2025-01-19 02:25:32.11	296.05	20.83	
2025-01-19 02:25:33.32	295.76	20.77	
2025-01-19 02:25:34.54	295.47	20.71	
2025-01-19 02:25:35.76	295.18	20.66	
2025-01-19 02:25:36.98	294.88	20.60	
2025-01-19 02:25:38.20	294.60	20.54	
2025-01-19 02:25:39.42	294.31	20.48	
2025-01-19 02:25:40.64	294.02	20.42	
2025-01-19 02:25:41.86	293.73	20.36	
2025-01-19 02:25:43.08	293.45	20.30	
2025-01-19 02:25:44.30	293.16	20.23	
2025-01-19 02:25:45.52	292.88	20.17	
2025-01-19 02:25:46.74	292.60	20.11	
2025-01-19 02:25:47.96	292.32	20.05	
2025-01-19 02:25:49.18	292.04	19.98	
2025-01-19 02:25:50.39	291.76	19.92	
2025-01-19 02:25:51.61	291.49	19.85	
2025-01-19 02:25:52.83	291.21	19.79	
2025-01-19 02:25:54.05	290.94	19.72	
2025-01-19 02:25:55.27	290.66	19.65	
2025-01-19 02:25:56.49	290.39	19.59	
2025-01-19 02:25:57.71	290.12	19.52	
2025-01-19 02:25:58.93	289.85	19.45	
2025-01-19 02:26:00.15	289.58	19.38	
2025-01-19 02:26:01.37	289.32	19.31	
2025-01-19 02:26:02.59	289.05	19.24	
2025-01-19 02:26:03.81	288.79	19.17	
2025-01-19 02:26:05.03	288.52	19.10	
2025-01-19 02:26:06.25	288.26	19.03	
2025-01-19 02:26:07.46	288.00	18.96	
2025-01-19 02:26:08.68	287.74	18.89	
2025-01-19 02:26:09.90	287.48	18.82	
2025-01-19 02:26:11.12	287.22	18.74	
2025-01-19 02:26:12.34	286.97	18.67	
2025-01-19 02:26:13.56	286.71	18.60	
2025-01-19 02:26:14.78	286.46	18.52	
2025-01-19 02:26:16.00	286.21	18.45	
2025-01-19 02:26:17.22	285.96	18.37	
2025-01-19 02:26:18.44	285.71	18.30	
2025-01-19 02:26:19.66	285.46	18.22	
2025-01-19 02:26:20.88	285.21	18.15	
2025-01-19 02:26:22.10	284.96	18.07	
2025-01-19 02:26:23.32	284.72	18.00	
2025-01-19 02:26:24.53	284.48	17.92	
2025-01-19 02:26:25.75	284.23	17.84	
2025-01-19 02:26:26.97	283.99	17.77	
2025-01-19 02:26:28.19	283.75	17.69	
2025-01-19 02:26:29.41	283.51	17.61	
2025-01-19 02:26:30.63	283.28	17.54	
2025-01-19 02:26:31.85	283.04	17.46	
2025-01-19 02:26:33.07	282.80	17.38	
2025-01-19 02:26:34.29	282.57	17.30	
2025-01-19 02:26:35.51	282.34	17.22	
2025-01-19 02:26:36.73	282.11	17.14	
2025-01-19 02:26:37.95	281.88	17.06	
2025-01-19 02:26:39.17	281.65	16.98	
2025-01-19 02:26:40.39	281.42	16.90	
2025-01-19 02:26:41.60	281.19	16.82	
2025-01-19 02:26:42.82	280.97	16.74	
2025-01-19 02:26:44.04	280.74	16.66	
2025-01-19 02:26:45.26	280.52	16.58	
2025-01-19 02:26:46.48	280.30	16.50	
2025-01-19 02:26:47.70	280.08	16.42	
2025-01-19 02:26:48.92	279.86	16.34	
2025-01-19 02:26:50.14	279.64	16.26	
2025-01-19 02:26:51.36	279.42	16.18	
2025-01-19 02:26:52.58	279.21	16.10	
2025-01-19 02:26:53.80	278.99	16.02	
2025-01-19 02:26:55.02	278.78	15.94	
2025-01-19 02:26:56.24	278.57	15.85	
2025-01-19 02:26:57.45	278.36	15.77	
2025-01-19 02:26:58.67	278.15	15.69	
2025-01-19 02:26:59.89	277.94	15.61	
2025-01-19 02:27:01.11	277.73	15.53	
2025-01-19 02:27:02.33	277.53	15.44	
2025-01-19 02:27:03.55	277.32	15.36	
2025-01-19 02:27:04.77	277.12	15.28	
2025-01-19 02:27:05.99	276.91	15.20	
2025-01-19 02:27:07.21	276.71	15.11	
2025-01-19 02:27:08.43	276.51	15.03	
2025-01-19 02:27:09.65	276.31	14.95	
2025-01-19 02:27:10.87	276.11	14.86	
2025-01-19 02:27:12.09	275.91	14.78	
2025-01-19 02:27:13.31	275.72	14.70	
2025-01-19 02:27:14.52	275.52	14.62	
2025-01-19 02:27:15.74	275.33	14.53	
2025-01-19 02:27:16.96	275.14	14.45	
2025-01-19 02:27:18.18	274.95	14.37	
2025-01-19 02:27:19.40	274.75	14.28	
2025-01-19 02:27:20.62	274.56	14.20	
2025-01-19 02:27:21.84	274.38	14.12	
2025-01-19 02:27:23.06	274.19	14.03	
2025-01-19 02:27:24.28	274.00	13.95	
2025-01-19 02:27:25.50	273.82	13.87	
2025-01-19 02:27:26.72	273.63	13.78	
2025-01-19 02:27:27.94	273.45	13.70	
2025-01-19 02:27:29.16	273.27	13.62	
2025-01-19 02:27:30.38	273.08	13.53	
2025-01-19 02:27:31.59	272.91	13.45	
2025-01-19 02:27:32.81	272.73	13.37	
2025-01-19 02:27:34.03	272.55	13.28	
2025-01-19 02:27:35.25	272.37	13.20	
2025-01-19 02:27:36.47	272.19	13.12	
2025-01-19 02:27:37.69	272.02	13.03	
2025-01-19 02:27:38.91	271.85	12.95	
2025-01-19 02:27:40.13	271.67	12.87	
2025-01-19 02:27:41.35	271.50	12.78	
2025-01-19 02:27:42.57	271.33	12.70	
2025-01-19 02:27:43.79	271.16	12.62	
2025-01-19 02:27:45.01	270.99	12.53	
2025-01-19 02:27:46.23	270.82	12.45	
2025-01-19 02:27:47.45	270.65	12.37	
2025-01-19 02:27:48.66	270.49	12.29	
2025-01-19 02:27:49.88	270.32	12.20	
2025-01-19 02:27:51.10	270.16	12.12	
2025-01-19 02:27:52.32	269.99	12.04	
2025-01-19 02:27:53.54	269.83	11.95	
2025-01-19 02:27:54.76	269.67	11.87	
2025-01-19 02:27:55.98	269.51	11.79	
2025-01-19 02:27:57.20	269.35	11.71	
2025-01-19 02:27:58.42	269.19	11.62	
2025-01-19 02:27:59.64	269.03	11.54	
2025-01-19 02:28:00.86	268.87	11.46	
2025-01-19 02:28:02.08	268.72	11.37	
2025-01-19 02:28:03.30	268.56	11.29	
2025-01-19 02:28:04.52	268.41	11.21	
2025-01-19 02:28:05.73	268.26	11.13	
2025-01-19 02:28:06.95	268.10	11.05	
2025-01-19 02:28:08.17	267.95	10.96	
2025-01-19 02:28:09.39	267.80	10.88	
2025-01-19 02:28:10.61	267.65	10.80	
2025-01-19 02:28:11.83	267.50	10.72	
2025-01-19 02:28:13.05	267.35	10.64	
2025-01-19 02:28:14.27	267.20	10.56	
2025-01-19 02:28:15.49	267.06	10.47	
2025-01-19 02:28:16.71	266.91	10.39	
2025-01-19 02:28:17.93	266.77	10.31	
2025-01-19 02:28:19.15	266.62	10.23	
2025-01-19 02:28:20.37	266.48	10.15	
2025-01-19 02:28:21.58	266.34	10.07	
2025-01-19 02:28:22.80	266.20	9.99	
2025-01-19 02:28:24.02	266.05	9.91	
2025-01-19 02:28:25.24	265.91	9.82	
2025-01-19 02:28:26.46	265.77	9.74	
2025-01-19 02:28:27.68	265.64	9.66	
2025-01-19 02:28:28.90	265.50	9.58	
2025-01-19 02:28:30.12	265.36	9.50	
2025-01-19 02:28:31.34	265.22	9.42	
2025-01-19 02:28:32.56	265.09	9.34	
2025-01-19 02:28:33.78	264.95	9.26	
2025-01-19 02:28:35.00	264.82	9.18	
2025-01-19 02:28:36.22	264.69	9.10	
2025-01-19 02:28:37.44	264.55	9.02	
2025-01-19 02:28:38.65	264.42	8.94	
2025-01-19 02:28:39.87	264.29	8.86	
2025-01-19 02:28:41.09	264.16	8.78	
2025-01-19 02:28:42.31	264.03	8.70	
2025-01-19 02:28:43.53	263.90	8.63	
2025-01-19 02:28:44.75	263.77	8.55	
2025-01-19 02:28:45.97	263.65	8.47	
2025-01-19 02:28:47.19	263.52	8.39	
2025-01-19 02:28:48.41	263.39	8.31	
2025-01-19 02:28:49.63	263.27	8.23	
2025-01-19 02:28:50.85	263.14	8.15	
2025-01-19 02:28:52.07	263.02	8.07	
2025-01-19 02:28:53.29	262.90	7.99	
2025-01-19 02:28:54.51	262.77	7.92	
2025-01-19 02:28:55.72	262.65	7.84	
2025-01-19 02:28:56.94	262.53	7.76	
2025-01-19 02:28:58.16	262.41	7.68	
2025-01-19 02:28:59.38	262.29	7.61	
2025-01-19 02:29:00.60	262.17	7.53	
2025-01-19 02:29:01.82	262.05	7.45	
2025-01-19 02:29:03.04	261.93	7.37	
2025-01-19 02:29:04.26	261.82	7.30	
2025-01-19 02:29:05.48	261.70	7.22	
2025-01-19 02:29:06.70	261.58	7.14	
2025-01-19 02:29:07.92	261.47	7.06	
2025-01-19 02:29:09.14	261.35	6.99	
2025-01-19 02:29:10.36	261.24	6.91	
2025-01-19 02:29:11.58	261.12	6.83	
2025-01-19 02:29:12.79	261.01	6.76	
2025-01-19 02:29:14.01	260.90	6.68	
2025-01-19 02:29:15.23	260.79	6.61	
2025-01-19 02:29:16.45	260.68	6.53	
2025-01-19 02:29:17.67	260.57	6.45	
2025-01-19 02:29:18.89	260.46	6.38	
2025-01-19 02:29:20.11	260.35	6.30	
2025-01-19 02:29:21.33	260.24	6.23	
2025-01-19 02:29:22.55	260.13	6.15	
2025-01-19 02:29:23.77	260.02	6.08	
2025-01-19 02:29:24.99	259.91	6.00	
2025-01-19 02:29:26.21	259.81	5.92	
2025-01-19 02:29:27.43	259.70	5.85	
2025-01-19 02:29:28.64	259.60	5.78	
2025-01-19 02:29:29.86	259.49	5.70	
2025-01-19 02:29:31.08	259.39	5.63	
2025-01-19 02:29:32.30	259.28	5.55	
2025-01-19 02:29:33.52	259.18	5.48	
2025-01-19 02:29:34.74	259.08	5.40	
2025-01-19 02:29:35.96	258.97	5.33	
2025-01-19 02:29:37.18	258.87	5.25	
2025-01-19 02:29:38.40	258.77	5.18	
2025-01-19 02:29:39.62	258.67	5.11	
2025-01-19 02:29:40.84	258.57	5.03	
2025-01-19 02:29:42.06	258.47	4.96	
2025-01-19 02:29:43.28	258.37	4.89	
2025-01-19 02:29:44.50	258.27	4.81	
2025-01-19 02:29:45.71	258.18	4.74	
2025-01-19 02:29:46.93	258.08	4.67	
2025-01-19 02:29:48.15	257.98	4.59	
2025-01-19 02:29:49.37	257.89	4.52	
2025-01-19 02:29:50.59	257.79	4.45	
2025-01-19 02:29:51.81	257.69	4.38	
2025-01-19 02:29:53.03	257.60	4.30	
2025-01-19 02:29:54.25	257.50	4.23	
2025-01-19 02:29:55.47	257.41	4.16	
2025-01-19 02:29:56.69	257.32	4.09	
2025-01-19 02:29:57.91	257.22	4.02	

#Closed at: 2025-01-19 02:29:58