passes_logs/2025/01/19/SPB_Silybum_02/SPB_Silybum_02__20250119_025613_AQUA_rec.log

#Pass ID: 20250119_025613_AQUA
#Satellite: AQUA
#Configuration: AQUA
#Start time: 2025-01-19 02:56:13

#Version: 2.0.20230423
#Station: SPB_Silybum_02
#Location: 30.233357 lon 59.946436 lat
#TLE: 1 27424U 02022A   25018.15645899  .00002321  00000+0  48623-3 0  9991
#TLE: 2 27424  98.3597 334.8489 0001860 108.2535 309.6560 14.60697098208087

#Time	Az	El	Level	Level2	SNR	BER	Gain	Gain2
2025-01-19 02:56:15.92	10.68	4.13	
2025-01-19 02:56:17.14	10.58	4.21	
2025-01-19 02:56:18.36	10.49	4.28	
2025-01-19 02:56:19.58	10.39	4.36	
2025-01-19 02:56:20.80	10.30	4.44	
2025-01-19 02:56:22.02	10.20	4.52	
2025-01-19 02:56:23.23	10.10	4.60	
2025-01-19 02:56:24.45	10.00	4.67	
2025-01-19 02:56:25.67	9.90	4.75	
2025-01-19 02:56:26.89	9.80	4.83	
2025-01-19 02:56:28.11	9.70	4.91	
2025-01-19 02:56:29.33	9.60	4.99	
2025-01-19 02:56:30.55	9.50	5.07	
2025-01-19 02:56:31.77	9.40	5.15	
2025-01-19 02:56:32.99	9.29	5.23	
2025-01-19 02:56:34.21	9.19	5.31	
2025-01-19 02:56:35.43	9.09	5.39	
2025-01-19 02:56:36.65	8.98	5.47	
2025-01-19 02:56:37.87	8.88	5.55	
2025-01-19 02:56:39.09	8.77	5.63	
2025-01-19 02:56:40.30	8.66	5.71	
2025-01-19 02:56:41.52	8.56	5.79	
2025-01-19 02:56:42.74	8.45	5.87	
2025-01-19 02:56:43.96	8.34	5.95	
2025-01-19 02:56:45.18	8.23	6.03	
2025-01-19 02:56:46.40	8.12	6.11	
2025-01-19 02:56:47.62	8.01	6.20	
2025-01-19 02:56:48.84	7.90	6.28	
2025-01-19 02:56:50.06	7.78	6.36	
2025-01-19 02:56:51.28	7.67	6.44	
2025-01-19 02:56:52.50	7.56	6.53	
2025-01-19 02:56:53.72	7.44	6.61	
2025-01-19 02:56:54.94	7.33	6.69	
2025-01-19 02:56:56.16	7.21	6.77	
2025-01-19 02:56:57.37	7.10	6.86	
2025-01-19 02:56:58.59	6.98	6.94	
2025-01-19 02:56:59.81	6.86	7.02	
2025-01-19 02:57:01.03	6.74	7.11	
2025-01-19 02:57:02.25	6.62	7.19	
2025-01-19 02:57:03.47	6.50	7.28	
2025-01-19 02:57:04.69	6.38	7.36	
2025-01-19 02:57:05.92	6.25	7.45	
2025-01-19 02:57:07.14	6.13	7.53	
2025-01-19 02:57:08.36	6.01	7.62	
2025-01-19 02:57:09.58	5.88	7.70	
2025-01-19 02:57:10.80	5.76	7.79	
2025-01-19 02:57:12.02	5.63	7.87	
2025-01-19 02:57:13.24	5.50	7.96	
2025-01-19 02:57:14.46	5.38	8.05	
2025-01-19 02:57:15.67	5.25	8.13	
2025-01-19 02:57:16.89	5.12	8.22	
2025-01-19 02:57:18.11	4.99	8.30	
2025-01-19 02:57:19.33	4.86	8.39	
2025-01-19 02:57:20.55	4.72	8.48	
2025-01-19 02:57:21.77	4.59	8.57	
2025-01-19 02:57:22.99	4.46	8.65	
2025-01-19 02:57:24.21	4.32	8.74	
2025-01-19 02:57:25.43	4.18	8.83	
2025-01-19 02:57:26.65	4.05	8.92	
2025-01-19 02:57:27.87	3.91	9.00	
2025-01-19 02:57:29.09	3.77	9.09	
2025-01-19 02:57:30.31	3.63	9.18	
2025-01-19 02:57:31.53	3.49	9.27	
2025-01-19 02:57:32.74	3.35	9.36	
2025-01-19 02:57:33.96	3.21	9.45	
2025-01-19 02:57:35.18	3.06	9.54	
2025-01-19 02:57:36.40	2.92	9.63	
2025-01-19 02:57:37.62	2.77	9.72	
2025-01-19 02:57:38.84	2.63	9.81	
2025-01-19 02:57:40.06	2.48	9.90	
2025-01-19 02:57:41.28	2.33	9.99	
2025-01-19 02:57:42.50	2.18	10.08	
2025-01-19 02:57:43.72	2.03	10.17	
2025-01-19 02:57:44.94	1.88	10.26	
2025-01-19 02:57:46.16	1.73	10.35	
2025-01-19 02:57:47.38	1.57	10.44	
2025-01-19 02:57:48.60	1.42	10.53	
2025-01-19 02:57:49.81	1.26	10.62	
2025-01-19 02:57:51.03	1.11	10.72	
2025-01-19 02:57:52.25	0.95	10.81	
2025-01-19 02:57:53.47	0.79	10.90	
2025-01-19 02:57:54.69	0.63	10.99	
2025-01-19 02:57:55.91	0.47	11.08	
2025-01-19 02:57:57.13	0.30	11.18	
2025-01-19 02:57:58.35	0.14	11.27	
2025-01-19 02:57:59.57	359.98	11.36	
2025-01-19 02:58:00.79	359.81	11.46	
2025-01-19 02:58:02.01	359.64	11.55	
2025-01-19 02:58:03.23	359.47	11.64	
2025-01-19 02:58:04.45	359.30	11.74	
2025-01-19 02:58:05.67	359.13	11.83	
2025-01-19 02:58:06.88	358.96	11.92	
2025-01-19 02:58:08.10	358.79	12.02	
2025-01-19 02:58:09.32	358.62	12.11	
2025-01-19 02:58:10.54	358.44	12.21	
2025-01-19 02:58:11.76	358.26	12.30	
2025-01-19 02:58:12.98	358.09	12.40	
2025-01-19 02:58:14.20	357.91	12.49	
2025-01-19 02:58:15.42	357.73	12.59	
2025-01-19 02:58:16.64	357.54	12.68	
2025-01-19 02:58:17.86	357.36	12.78	
2025-01-19 02:58:19.08	357.18	12.87	
2025-01-19 02:58:20.30	356.99	12.97	
2025-01-19 02:58:21.52	356.80	13.06	
2025-01-19 02:58:22.74	356.61	13.16	
2025-01-19 02:58:23.95	356.43	13.25	
2025-01-19 02:58:25.17	356.23	13.35	
2025-01-19 02:58:26.39	356.04	13.45	
2025-01-19 02:58:27.61	355.85	13.54	
2025-01-19 02:58:28.83	355.65	13.64	
2025-01-19 02:58:30.05	355.46	13.74	
2025-01-19 02:58:31.27	355.26	13.83	
2025-01-19 02:58:32.49	355.06	13.93	
2025-01-19 02:58:33.71	354.86	14.03	
2025-01-19 02:58:34.93	354.66	14.12	
2025-01-19 02:58:36.15	354.45	14.22	
2025-01-19 02:58:37.37	354.25	14.32	
2025-01-19 02:58:38.59	354.04	14.41	
2025-01-19 02:58:39.80	353.83	14.51	
2025-01-19 02:58:41.02	353.62	14.61	
2025-01-19 02:58:42.24	353.41	14.71	
2025-01-19 02:58:43.46	353.20	14.80	
2025-01-19 02:58:44.68	352.98	14.90	
2025-01-19 02:58:45.90	352.77	15.00	
2025-01-19 02:58:47.12	352.55	15.10	
2025-01-19 02:58:48.34	352.33	15.19	
2025-01-19 02:58:49.56	352.11	15.29	
2025-01-19 02:58:50.78	351.89	15.39	
2025-01-19 02:58:52.00	351.67	15.49	
2025-01-19 02:58:53.22	351.44	15.58	
2025-01-19 02:58:54.44	351.21	15.68	
2025-01-19 02:58:55.66	350.99	15.78	
2025-01-19 02:58:56.87	350.76	15.88	
2025-01-19 02:58:58.09	350.53	15.97	
2025-01-19 02:58:59.31	350.29	16.07	
2025-01-19 02:59:00.55	350.05	16.17	
2025-01-19 02:59:01.78	349.82	16.27	
2025-01-19 02:59:02.99	349.58	16.37	
2025-01-19 02:59:04.21	349.34	16.46	
2025-01-19 02:59:05.43	349.10	16.56	
2025-01-19 02:59:06.65	348.85	16.66	
2025-01-19 02:59:07.87	348.61	16.75	
2025-01-19 02:59:09.09	348.36	16.85	
2025-01-19 02:59:10.31	348.11	16.95	
2025-01-19 02:59:11.53	347.86	17.05	
2025-01-19 02:59:12.75	347.61	17.14	
2025-01-19 02:59:13.97	347.36	17.24	
2025-01-19 02:59:15.19	347.10	17.34	
2025-01-19 02:59:16.41	346.85	17.43	
2025-01-19 02:59:17.63	346.59	17.53	
2025-01-19 02:59:18.85	346.33	17.62	
2025-01-19 02:59:20.06	346.07	17.72	
2025-01-19 02:59:21.28	345.80	17.81	
2025-01-19 02:59:22.50	345.54	17.91	
2025-01-19 02:59:23.72	345.27	18.01	
2025-01-19 02:59:24.94	345.00	18.10	
2025-01-19 02:59:26.16	344.73	18.20	
2025-01-19 02:59:27.38	344.45	18.29	
2025-01-19 02:59:28.60	344.18	18.38	
2025-01-19 02:59:29.82	343.90	18.48	
2025-01-19 02:59:31.04	343.62	18.57	
2025-01-19 02:59:32.26	343.34	18.67	
2025-01-19 02:59:33.48	343.06	18.76	
2025-01-19 02:59:34.70	342.77	18.85	
2025-01-19 02:59:35.91	342.49	18.94	
2025-01-19 02:59:37.13	342.20	19.04	
2025-01-19 02:59:38.35	341.91	19.13	
2025-01-19 02:59:39.57	341.62	19.22	
2025-01-19 02:59:40.79	341.33	19.31	
2025-01-19 02:59:42.01	341.03	19.40	
2025-01-19 02:59:43.23	340.73	19.49	
2025-01-19 02:59:44.45	340.43	19.58	
2025-01-19 02:59:45.67	340.13	19.67	
2025-01-19 02:59:46.89	339.83	19.76	
2025-01-19 02:59:48.11	339.53	19.85	
2025-01-19 02:59:49.33	339.22	19.94	
2025-01-19 02:59:50.55	338.91	20.02	
2025-01-19 02:59:51.77	338.60	20.11	
2025-01-19 02:59:52.98	338.29	20.20	
2025-01-19 02:59:54.20	337.97	20.28	
2025-01-19 02:59:55.42	337.66	20.37	
2025-01-19 02:59:56.64	337.34	20.45	
2025-01-19 02:59:57.86	337.02	20.54	
2025-01-19 02:59:59.08	336.70	20.62	
2025-01-19 03:00:00.30	336.37	20.70	
2025-01-19 03:00:01.52	336.05	20.79	
2025-01-19 03:00:02.74	335.72	20.87	
2025-01-19 03:00:03.96	335.39	20.95	
2025-01-19 03:00:05.18	335.06	21.03	
2025-01-19 03:00:06.40	334.73	21.11	
2025-01-19 03:00:07.62	334.39	21.19	
2025-01-19 03:00:08.84	334.06	21.27	
2025-01-19 03:00:10.05	333.72	21.34	
2025-01-19 03:00:11.27	333.38	21.42	
2025-01-19 03:00:12.49	333.04	21.50	
2025-01-19 03:00:13.71	332.69	21.57	
2025-01-19 03:00:14.93	332.35	21.64	
2025-01-19 03:00:16.15	332.00	21.72	
2025-01-19 03:00:17.37	331.65	21.79	
2025-01-19 03:00:18.59	331.30	21.86	
2025-01-19 03:00:19.81	330.95	21.93	
2025-01-19 03:00:21.03	330.59	22.00	
2025-01-19 03:00:22.25	330.24	22.07	
2025-01-19 03:00:23.47	329.88	22.14	
2025-01-19 03:00:24.69	329.52	22.21	
2025-01-19 03:00:25.91	329.16	22.27	
2025-01-19 03:00:27.12	328.80	22.34	
2025-01-19 03:00:28.34	328.44	22.40	
2025-01-19 03:00:29.56	328.07	22.47	
2025-01-19 03:00:30.78	327.70	22.53	
2025-01-19 03:00:32.00	327.34	22.59	
2025-01-19 03:00:33.22	326.97	22.65	
2025-01-19 03:00:34.44	326.59	22.71	
2025-01-19 03:00:35.66	326.22	22.77	
2025-01-19 03:00:36.88	325.85	22.82	
2025-01-19 03:00:38.10	325.47	22.88	
2025-01-19 03:00:39.32	325.09	22.93	
2025-01-19 03:00:40.54	324.71	22.99	
2025-01-19 03:00:41.76	324.33	23.04	
2025-01-19 03:00:42.98	323.95	23.09	
2025-01-19 03:00:44.19	323.57	23.14	
2025-01-19 03:00:45.41	323.19	23.19	
2025-01-19 03:00:46.63	322.80	23.23	
2025-01-19 03:00:47.85	322.41	23.28	
2025-01-19 03:00:49.07	322.03	23.32	
2025-01-19 03:00:50.29	321.64	23.37	
2025-01-19 03:00:51.51	321.25	23.41	
2025-01-19 03:00:52.73	320.86	23.45	
2025-01-19 03:00:53.95	320.46	23.49	
2025-01-19 03:00:55.17	320.07	23.53	
2025-01-19 03:00:56.39	319.68	23.56	
2025-01-19 03:00:57.61	319.28	23.60	
2025-01-19 03:00:58.83	318.88	23.63	
2025-01-19 03:01:00.04	318.49	23.67	
2025-01-19 03:01:01.26	318.09	23.70	
2025-01-19 03:01:02.48	317.69	23.73	
2025-01-19 03:01:03.70	317.29	23.76	
2025-01-19 03:01:04.92	316.89	23.78	
2025-01-19 03:01:06.14	316.49	23.81	
2025-01-19 03:01:07.36	316.09	23.83	
2025-01-19 03:01:08.58	315.69	23.85	
2025-01-19 03:01:09.80	315.28	23.88	
2025-01-19 03:01:11.02	314.88	23.90	
2025-01-19 03:01:12.24	314.48	23.91	
2025-01-19 03:01:13.46	314.07	23.93	
2025-01-19 03:01:14.69	313.66	23.95	
2025-01-19 03:01:15.91	313.26	23.96	
2025-01-19 03:01:17.13	312.85	23.97	
2025-01-19 03:01:18.35	312.44	23.98	
2025-01-19 03:01:19.57	312.04	23.99	
2025-01-19 03:01:20.78	311.64	24.00	
2025-01-19 03:01:22.00	311.23	24.01	
2025-01-19 03:01:23.22	310.82	24.01	
2025-01-19 03:01:24.44	310.41	24.01	
2025-01-19 03:01:25.66	310.01	24.02	
2025-01-19 03:01:26.88	309.60	24.02	
2025-01-19 03:01:28.10	309.19	24.02	
2025-01-19 03:01:29.32	308.78	24.01	
2025-01-19 03:01:30.54	308.38	24.01	
2025-01-19 03:01:31.76	307.97	24.00	
2025-01-19 03:01:32.98	307.56	24.00	
2025-01-19 03:01:34.20	307.16	23.99	
2025-01-19 03:01:35.42	306.75	23.98	
2025-01-19 03:01:36.63	306.35	23.96	
2025-01-19 03:01:37.85	305.94	23.95	
2025-01-19 03:01:39.07	305.54	23.94	
2025-01-19 03:01:40.29	305.13	23.92	
2025-01-19 03:01:41.51	304.73	23.90	
2025-01-19 03:01:42.73	304.32	23.88	
2025-01-19 03:01:43.95	303.92	23.86	
2025-01-19 03:01:45.17	303.51	23.84	
2025-01-19 03:01:46.39	303.11	23.82	
2025-01-19 03:01:47.61	302.71	23.79	
2025-01-19 03:01:48.83	302.31	23.77	
2025-01-19 03:01:50.05	301.91	23.74	
2025-01-19 03:01:51.27	301.51	23.71	
2025-01-19 03:01:52.49	301.11	23.68	
2025-01-19 03:01:53.70	300.72	23.65	
2025-01-19 03:01:54.92	300.32	23.61	
2025-01-19 03:01:56.14	299.92	23.58	
2025-01-19 03:01:57.36	299.53	23.54	
2025-01-19 03:01:58.58	299.13	23.50	
2025-01-19 03:01:59.80	298.74	23.46	
2025-01-19 03:02:01.02	298.35	23.42	
2025-01-19 03:02:02.24	297.96	23.38	
2025-01-19 03:02:03.46	297.56	23.34	
2025-01-19 03:02:04.68	297.18	23.30	
2025-01-19 03:02:05.90	296.79	23.25	
2025-01-19 03:02:07.13	296.40	23.20	
2025-01-19 03:02:08.35	296.01	23.15	
2025-01-19 03:02:09.57	295.63	23.11	
2025-01-19 03:02:10.79	295.25	23.06	
2025-01-19 03:02:12.01	294.86	23.00	
2025-01-19 03:02:13.23	294.48	22.95	
2025-01-19 03:02:14.45	294.10	22.90	
2025-01-19 03:02:15.67	293.73	22.84	
2025-01-19 03:02:16.88	293.35	22.79	
2025-01-19 03:02:18.10	292.98	22.73	
2025-01-19 03:02:19.32	292.61	22.67	
2025-01-19 03:02:20.54	292.23	22.61	
2025-01-19 03:02:21.76	291.86	22.55	
2025-01-19 03:02:22.98	291.49	22.49	
2025-01-19 03:02:24.20	291.13	22.42	
2025-01-19 03:02:25.42	290.76	22.36	
2025-01-19 03:02:26.64	290.40	22.29	
2025-01-19 03:02:27.86	290.03	22.23	
2025-01-19 03:02:29.08	289.67	22.16	
2025-01-19 03:02:30.30	289.31	22.09	
2025-01-19 03:02:31.52	288.96	22.02	
2025-01-19 03:02:32.73	288.60	21.96	
2025-01-19 03:02:33.95	288.25	21.88	
2025-01-19 03:02:35.17	287.90	21.81	
2025-01-19 03:02:36.39	287.55	21.74	
2025-01-19 03:02:37.61	287.20	21.67	
2025-01-19 03:02:38.83	286.85	21.59	
2025-01-19 03:02:40.05	286.50	21.52	
2025-01-19 03:02:41.27	286.16	21.44	
2025-01-19 03:02:42.49	285.82	21.37	
2025-01-19 03:02:43.71	285.48	21.29	
2025-01-19 03:02:44.93	285.14	21.21	
2025-01-19 03:02:46.15	284.80	21.13	
2025-01-19 03:02:47.37	284.47	21.05	
2025-01-19 03:02:48.59	284.14	20.97	
2025-01-19 03:02:49.80	283.81	20.89	
2025-01-19 03:02:51.02	283.48	20.81	
2025-01-19 03:02:52.24	283.15	20.73	
2025-01-19 03:02:53.46	282.82	20.64	
2025-01-19 03:02:54.68	282.50	20.56	
2025-01-19 03:02:55.90	282.18	20.47	
2025-01-19 03:02:57.12	281.86	20.39	
2025-01-19 03:02:58.34	281.54	20.30	
2025-01-19 03:02:59.56	281.22	20.22	
2025-01-19 03:03:00.78	280.91	20.13	
2025-01-19 03:03:02.00	280.60	20.04	
2025-01-19 03:03:03.22	280.29	19.96	
2025-01-19 03:03:04.44	279.98	19.87	
2025-01-19 03:03:05.66	279.67	19.78	
2025-01-19 03:03:06.87	279.37	19.69	
2025-01-19 03:03:08.09	279.06	19.60	
2025-01-19 03:03:09.31	278.76	19.51	
2025-01-19 03:03:10.53	278.46	19.42	
2025-01-19 03:03:11.75	278.17	19.33	
2025-01-19 03:03:12.97	277.87	19.24	
2025-01-19 03:03:14.19	277.58	19.15	
2025-01-19 03:03:15.41	277.29	19.05	
2025-01-19 03:03:16.63	276.99	18.96	
2025-01-19 03:03:17.85	276.71	18.87	
2025-01-19 03:03:19.07	276.42	18.78	
2025-01-19 03:03:20.29	276.14	18.68	
2025-01-19 03:03:21.51	275.85	18.59	
2025-01-19 03:03:22.73	275.57	18.49	
2025-01-19 03:03:23.94	275.30	18.40	
2025-01-19 03:03:25.16	275.02	18.31	
2025-01-19 03:03:26.38	274.74	18.21	
2025-01-19 03:03:27.60	274.47	18.12	
2025-01-19 03:03:28.82	274.20	18.02	
2025-01-19 03:03:30.04	273.93	17.93	
2025-01-19 03:03:31.26	273.66	17.83	
2025-01-19 03:03:32.48	273.39	17.73	
2025-01-19 03:03:33.70	273.13	17.64	
2025-01-19 03:03:34.92	272.87	17.54	
2025-01-19 03:03:36.14	272.61	17.44	
2025-01-19 03:03:37.36	272.35	17.35	
2025-01-19 03:03:38.58	272.09	17.25	
2025-01-19 03:03:39.79	271.84	17.15	
2025-01-19 03:03:41.01	271.58	17.06	
2025-01-19 03:03:42.23	271.33	16.96	
2025-01-19 03:03:43.45	271.08	16.86	
2025-01-19 03:03:44.67	270.83	16.77	
2025-01-19 03:03:45.89	270.58	16.67	
2025-01-19 03:03:47.11	270.34	16.57	
2025-01-19 03:03:48.33	270.10	16.47	
2025-01-19 03:03:49.55	269.85	16.37	
2025-01-19 03:03:50.77	269.61	16.28	
2025-01-19 03:03:51.99	269.38	16.18	
2025-01-19 03:03:53.21	269.14	16.08	
2025-01-19 03:03:54.43	268.90	15.98	
2025-01-19 03:03:55.65	268.67	15.88	
2025-01-19 03:03:56.86	268.44	15.79	
2025-01-19 03:03:58.08	268.21	15.69	
2025-01-19 03:03:59.30	267.98	15.59	
2025-01-19 03:04:00.52	267.75	15.49	
2025-01-19 03:04:01.74	267.53	15.40	
2025-01-19 03:04:02.96	267.30	15.30	
2025-01-19 03:04:04.18	267.08	15.20	
2025-01-19 03:04:05.40	266.86	15.10	
2025-01-19 03:04:06.62	266.64	15.00	
2025-01-19 03:04:07.84	266.42	14.90	
2025-01-19 03:04:09.06	266.21	14.81	
2025-01-19 03:04:10.28	265.99	14.71	
2025-01-19 03:04:11.50	265.78	14.61	
2025-01-19 03:04:12.72	265.57	14.51	
2025-01-19 03:04:13.93	265.36	14.42	
2025-01-19 03:04:15.15	265.15	14.32	
2025-01-19 03:04:16.37	264.95	14.22	
2025-01-19 03:04:17.59	264.74	14.12	
2025-01-19 03:04:18.81	264.54	14.03	
2025-01-19 03:04:20.03	264.33	13.93	
2025-01-19 03:04:21.25	264.13	13.83	
2025-01-19 03:04:22.47	263.93	13.73	
2025-01-19 03:04:23.69	263.73	13.64	
2025-01-19 03:04:24.91	263.54	13.54	
2025-01-19 03:04:26.13	263.34	13.44	
2025-01-19 03:04:27.35	263.15	13.35	
2025-01-19 03:04:28.57	262.95	13.25	
2025-01-19 03:04:29.79	262.76	13.15	
2025-01-19 03:04:31.00	262.57	13.06	
2025-01-19 03:04:32.22	262.38	12.96	
2025-01-19 03:04:33.44	262.20	12.87	
2025-01-19 03:04:34.66	262.01	12.77	
2025-01-19 03:04:35.88	261.82	12.67	
2025-01-19 03:04:37.10	261.64	12.58	
2025-01-19 03:04:38.32	261.46	12.48	
2025-01-19 03:04:39.54	261.28	12.39	
2025-01-19 03:04:40.76	261.10	12.29	
2025-01-19 03:04:41.98	260.92	12.20	
2025-01-19 03:04:43.20	260.74	12.10	
2025-01-19 03:04:44.42	260.57	12.01	
2025-01-19 03:04:45.64	260.39	11.91	
2025-01-19 03:04:46.86	260.22	11.82	
2025-01-19 03:04:48.07	260.05	11.73	
2025-01-19 03:04:49.29	259.88	11.63	
2025-01-19 03:04:50.51	259.71	11.54	
2025-01-19 03:04:51.73	259.54	11.44	
2025-01-19 03:04:52.95	259.37	11.35	
2025-01-19 03:04:54.17	259.20	11.26	
2025-01-19 03:04:55.39	259.04	11.16	
2025-01-19 03:04:56.61	258.87	11.07	
2025-01-19 03:04:57.83	258.71	10.98	
2025-01-19 03:04:59.05	258.55	10.88	
2025-01-19 03:05:00.27	258.39	10.79	
2025-01-19 03:05:01.49	258.23	10.70	
2025-01-19 03:05:02.71	258.07	10.61	
2025-01-19 03:05:03.92	257.91	10.52	
2025-01-19 03:05:05.14	257.76	10.42	
2025-01-19 03:05:06.36	257.60	10.33	
2025-01-19 03:05:07.58	257.45	10.24	
2025-01-19 03:05:08.80	257.29	10.15	
2025-01-19 03:05:10.02	257.14	10.06	
2025-01-19 03:05:11.24	256.99	9.97	
2025-01-19 03:05:12.46	256.84	9.88	
2025-01-19 03:05:13.68	256.69	9.79	
2025-01-19 03:05:14.90	256.54	9.70	
2025-01-19 03:05:16.12	256.40	9.61	
2025-01-19 03:05:17.34	256.25	9.52	
2025-01-19 03:05:18.56	256.10	9.43	
2025-01-19 03:05:19.78	255.96	9.34	
2025-01-19 03:05:20.99	255.82	9.25	
2025-01-19 03:05:22.21	255.68	9.16	
2025-01-19 03:05:23.43	255.53	9.07	
2025-01-19 03:05:24.65	255.39	8.98	
2025-01-19 03:05:25.87	255.26	8.89	
2025-01-19 03:05:27.09	255.12	8.80	
2025-01-19 03:05:28.31	254.98	8.71	
2025-01-19 03:05:29.53	254.84	8.63	
2025-01-19 03:05:30.75	254.71	8.54	
2025-01-19 03:05:31.97	254.57	8.45	
2025-01-19 03:05:33.19	254.44	8.36	
2025-01-19 03:05:34.41	254.31	8.28	
2025-01-19 03:05:35.63	254.17	8.19	
2025-01-19 03:05:36.85	254.04	8.10	
2025-01-19 03:05:38.06	253.91	8.02	
2025-01-19 03:05:39.28	253.78	7.93	
2025-01-19 03:05:40.50	253.65	7.84	
2025-01-19 03:05:41.72	253.53	7.76	
2025-01-19 03:05:42.94	253.40	7.67	
2025-01-19 03:05:44.16	253.27	7.59	
2025-01-19 03:05:45.38	253.15	7.50	
2025-01-19 03:05:46.60	253.02	7.42	
2025-01-19 03:05:47.82	252.90	7.33	
2025-01-19 03:05:49.04	252.78	7.25	
2025-01-19 03:05:50.26	252.65	7.16	
2025-01-19 03:05:51.48	252.53	7.08	
2025-01-19 03:05:52.70	252.41	6.99	
2025-01-19 03:05:53.92	252.29	6.91	
2025-01-19 03:05:55.13	252.17	6.82	
2025-01-19 03:05:56.35	252.06	6.74	
2025-01-19 03:05:57.57	251.94	6.66	
2025-01-19 03:05:58.79	251.82	6.57	
2025-01-19 03:06:00.01	251.71	6.49	
2025-01-19 03:06:01.23	251.59	6.41	
2025-01-19 03:06:02.45	251.48	6.33	
2025-01-19 03:06:03.67	251.36	6.24	
2025-01-19 03:06:04.89	251.25	6.16	
2025-01-19 03:06:06.11	251.14	6.08	
2025-01-19 03:06:07.33	251.02	6.00	
2025-01-19 03:06:08.55	250.91	5.91	
2025-01-19 03:06:09.77	250.80	5.83	
2025-01-19 03:06:10.99	250.69	5.75	
2025-01-19 03:06:12.20	250.59	5.67	
2025-01-19 03:06:13.42	250.48	5.59	
2025-01-19 03:06:14.64	250.37	5.51	
2025-01-19 03:06:15.86	250.26	5.43	
2025-01-19 03:06:17.08	250.16	5.35	
2025-01-19 03:06:18.30	250.05	5.27	
2025-01-19 03:06:19.52	249.95	5.19	
2025-01-19 03:06:20.74	249.84	5.11	
2025-01-19 03:06:21.96	249.74	5.03	
2025-01-19 03:06:23.18	249.63	4.95	
2025-01-19 03:06:24.40	249.53	4.87	
2025-01-19 03:06:25.62	249.43	4.79	
2025-01-19 03:06:26.84	249.33	4.71	
2025-01-19 03:06:28.05	249.23	4.63	
2025-01-19 03:06:29.27	249.13	4.55	
2025-01-19 03:06:30.49	249.03	4.47	
2025-01-19 03:06:31.71	248.93	4.40	
2025-01-19 03:06:32.93	248.83	4.32	
2025-01-19 03:06:34.15	248.73	4.24	
2025-01-19 03:06:35.37	248.64	4.16	
2025-01-19 03:06:36.59	248.54	4.08	
2025-01-19 03:06:37.81	248.45	4.01	

#Closed at: 2025-01-19 03:06:38