passes_logs/2025/01/19/SPB_Silybum_02/SPB_Silybum_02__20250119_085956_TERRA_rec.log

#Pass ID: 20250119_085956_TERRA
#Satellite: TERRA
#Configuration: TERRA
#Start time: 2025-01-19 09:03:54

#Version: 2.0.20230423
#Station: SPB_Silybum_02
#Location: 30.233357 lon 59.946436 lat
#TLE: 1 25994U 99068A   25018.76132064  .00000971  00000+0  20987-3 0  9991
#TLE: 2 25994  98.0209  81.6719 0003338  64.8500  46.9329 14.60403262334620

#Time	Az	El	Level	Level2	SNR	BER	Gain	Gain2
2025-01-19 09:03:56.69	352.81	32.25	
2025-01-19 09:03:57.50	352.62	32.41	
2025-01-19 09:03:58.31	352.43	32.57	
2025-01-19 09:03:59.12	352.23	32.74	
2025-01-19 09:03:59.93	352.03	32.90	
2025-01-19 09:04:00.75	351.83	33.07	
2025-01-19 09:04:01.56	351.63	33.23	
2025-01-19 09:04:02.37	351.43	33.40	
2025-01-19 09:04:03.18	351.22	33.56	
2025-01-19 09:04:04.00	351.01	33.73	
2025-01-19 09:04:04.81	350.80	33.90	
2025-01-19 09:04:05.62	350.59	34.07	
2025-01-19 09:04:06.43	350.37	34.24	
2025-01-19 09:04:07.25	350.15	34.41	
2025-01-19 09:04:08.06	349.93	34.58	
2025-01-19 09:04:08.87	349.71	34.75	
2025-01-19 09:04:09.68	349.49	34.92	
2025-01-19 09:04:10.49	349.26	35.09	
2025-01-19 09:04:11.31	349.03	35.26	
2025-01-19 09:04:12.12	348.80	35.43	
2025-01-19 09:04:12.93	348.56	35.61	
2025-01-19 09:04:13.74	348.32	35.78	
2025-01-19 09:04:14.56	348.08	35.95	
2025-01-19 09:04:15.37	347.84	36.13	
2025-01-19 09:04:16.18	347.59	36.30	
2025-01-19 09:04:16.99	347.35	36.48	
2025-01-19 09:04:17.81	347.09	36.65	
2025-01-19 09:04:18.62	346.84	36.83	
2025-01-19 09:04:19.43	346.58	37.00	
2025-01-19 09:04:20.24	346.32	37.18	
2025-01-19 09:04:21.05	346.06	37.36	
2025-01-19 09:04:21.87	345.79	37.53	
2025-01-19 09:04:22.68	345.53	37.71	
2025-01-19 09:04:23.49	345.26	37.89	
2025-01-19 09:04:24.30	344.98	38.07	
2025-01-19 09:04:25.12	344.70	38.25	
2025-01-19 09:04:25.93	344.42	38.42	
2025-01-19 09:04:26.74	344.14	38.60	
2025-01-19 09:04:27.55	343.85	38.78	
2025-01-19 09:04:28.37	343.56	38.96	
2025-01-19 09:04:29.18	343.27	39.14	
2025-01-19 09:04:29.99	342.97	39.32	
2025-01-19 09:04:30.80	342.67	39.50	
2025-01-19 09:04:31.62	342.36	39.68	
2025-01-19 09:04:32.43	342.06	39.86	
2025-01-19 09:04:33.24	341.74	40.04	
2025-01-19 09:04:34.05	341.43	40.21	
2025-01-19 09:04:34.86	341.11	40.39	
2025-01-19 09:04:35.68	340.79	40.57	
2025-01-19 09:04:36.49	340.46	40.75	
2025-01-19 09:04:37.30	340.14	40.93	
2025-01-19 09:04:38.11	339.80	41.11	
2025-01-19 09:04:38.93	339.46	41.29	
2025-01-19 09:04:39.74	339.12	41.47	
2025-01-19 09:04:40.55	338.78	41.65	
2025-01-19 09:04:41.36	338.43	41.83	
2025-01-19 09:04:42.18	338.08	42.01	
2025-01-19 09:04:42.99	337.72	42.18	
2025-01-19 09:04:43.80	337.36	42.36	
2025-01-19 09:04:44.61	337.00	42.54	
2025-01-19 09:04:45.42	336.63	42.71	
2025-01-19 09:04:46.24	336.25	42.89	
2025-01-19 09:04:47.05	335.88	43.06	
2025-01-19 09:04:47.86	335.50	43.24	
2025-01-19 09:04:48.67	335.11	43.41	
2025-01-19 09:04:49.49	334.72	43.59	
2025-01-19 09:04:50.30	334.33	43.76	
2025-01-19 09:04:51.11	333.93	43.93	
2025-01-19 09:04:51.92	333.53	44.10	
2025-01-19 09:04:52.74	333.12	44.28	
2025-01-19 09:04:53.55	332.70	44.45	
2025-01-19 09:04:54.36	332.29	44.61	
2025-01-19 09:04:55.17	331.87	44.78	
2025-01-19 09:04:55.98	331.44	44.95	
2025-01-19 09:04:56.80	331.01	45.12	
2025-01-19 09:04:57.61	330.58	45.28	
2025-01-19 09:04:58.42	330.14	45.45	
2025-01-19 09:04:59.23	329.70	45.61	
2025-01-19 09:05:00.05	329.24	45.77	
2025-01-19 09:05:00.86	328.79	45.93	
2025-01-19 09:05:01.67	328.33	46.09	
2025-01-19 09:05:02.48	327.87	46.25	
2025-01-19 09:05:03.30	327.40	46.40	
2025-01-19 09:05:04.11	326.93	46.56	
2025-01-19 09:05:04.92	326.45	46.71	
2025-01-19 09:05:05.73	325.97	46.86	
2025-01-19 09:05:06.54	325.49	47.01	
2025-01-19 09:05:07.36	324.99	47.16	
2025-01-19 09:05:08.17	324.50	47.31	
2025-01-19 09:05:08.98	324.00	47.45	
2025-01-19 09:05:09.79	323.49	47.60	
2025-01-19 09:05:10.61	322.98	47.74	
2025-01-19 09:05:11.42	322.46	47.88	
2025-01-19 09:05:12.23	321.94	48.01	
2025-01-19 09:05:13.04	321.42	48.15	
2025-01-19 09:05:13.86	320.89	48.28	
2025-01-19 09:05:14.67	320.36	48.41	
2025-01-19 09:05:15.48	319.82	48.54	
2025-01-19 09:05:16.29	319.28	48.66	
2025-01-19 09:05:17.10	318.73	48.79	
2025-01-19 09:05:17.92	318.18	48.91	
2025-01-19 09:05:18.73	317.62	49.03	
2025-01-19 09:05:19.54	317.06	49.14	
2025-01-19 09:05:20.35	316.50	49.25	
2025-01-19 09:05:21.17	315.92	49.37	
2025-01-19 09:05:21.98	315.35	49.47	
2025-01-19 09:05:22.79	314.78	49.58	
2025-01-19 09:05:23.60	314.20	49.68	
2025-01-19 09:05:24.42	313.61	49.78	
2025-01-19 09:05:25.23	313.02	49.88	
2025-01-19 09:05:26.04	312.43	49.97	
2025-01-19 09:05:26.85	311.84	50.06	
2025-01-19 09:05:27.66	311.24	50.15	
2025-01-19 09:05:28.48	310.63	50.23	
2025-01-19 09:05:29.29	310.02	50.31	
2025-01-19 09:05:30.10	309.42	50.39	
2025-01-19 09:05:30.91	308.80	50.46	
2025-01-19 09:05:31.73	308.18	50.53	
2025-01-19 09:05:32.54	307.57	50.60	
2025-01-19 09:05:33.35	306.95	50.66	
2025-01-19 09:05:34.16	306.32	50.72	
2025-01-19 09:05:34.98	305.69	50.78	
2025-01-19 09:05:35.79	305.06	50.83	
2025-01-19 09:05:36.60	304.43	50.88	
2025-01-19 09:05:37.41	303.80	50.93	
2025-01-19 09:05:38.22	303.17	50.97	
2025-01-19 09:05:39.04	302.53	51.01	
2025-01-19 09:05:39.85	301.89	51.05	
2025-01-19 09:05:40.66	301.25	51.08	
2025-01-19 09:05:41.47	300.61	51.11	
2025-01-19 09:05:42.29	299.96	51.13	
2025-01-19 09:05:43.10	299.32	51.15	
2025-01-19 09:05:43.91	298.68	51.17	
2025-01-19 09:05:44.72	298.04	51.18	
2025-01-19 09:05:45.54	297.39	51.19	
2025-01-19 09:05:46.35	296.74	51.20	
2025-01-19 09:05:47.16	296.10	51.20	
2025-01-19 09:05:47.97	295.45	51.20	
2025-01-19 09:05:48.78	294.81	51.19	
2025-01-19 09:05:49.60	294.16	51.18	
2025-01-19 09:05:50.41	293.51	51.17	
2025-01-19 09:05:51.22	292.87	51.15	
2025-01-19 09:05:52.03	292.23	51.13	
2025-01-19 09:05:52.85	291.58	51.10	
2025-01-19 09:05:53.66	290.94	51.08	
2025-01-19 09:05:54.47	290.30	51.04	
2025-01-19 09:05:55.28	289.67	51.01	
2025-01-19 09:05:56.10	289.02	50.97	
2025-01-19 09:05:56.91	288.39	50.92	
2025-01-19 09:05:57.72	287.76	50.88	
2025-01-19 09:05:58.53	287.13	50.83	
2025-01-19 09:05:59.34	286.50	50.77	
2025-01-19 09:06:00.16	285.87	50.71	
2025-01-19 09:06:00.97	285.25	50.65	
2025-01-19 09:06:01.78	284.63	50.59	
2025-01-19 09:06:02.59	284.01	50.52	
2025-01-19 09:06:03.41	283.39	50.45	
2025-01-19 09:06:04.22	282.78	50.38	
2025-01-19 09:06:05.03	282.17	50.30	
2025-01-19 09:06:05.84	281.57	50.22	
2025-01-19 09:06:06.66	280.96	50.13	
2025-01-19 09:06:07.47	280.36	50.04	
2025-01-19 09:06:08.28	279.76	49.95	
2025-01-19 09:06:09.09	279.17	49.86	
2025-01-19 09:06:09.91	278.58	49.76	
2025-01-19 09:06:10.72	278.00	49.66	
2025-01-19 09:06:11.53	277.42	49.56	
2025-01-19 09:06:12.34	276.84	49.46	
2025-01-19 09:06:13.15	276.27	49.35	
2025-01-19 09:06:13.97	275.69	49.24	
2025-01-19 09:06:14.78	275.13	49.12	
2025-01-19 09:06:15.59	274.57	49.01	
2025-01-19 09:06:16.40	274.02	48.89	
2025-01-19 09:06:17.22	273.46	48.76	
2025-01-19 09:06:18.03	272.91	48.64	
2025-01-19 09:06:18.84	272.37	48.52	
2025-01-19 09:06:19.65	271.84	48.39	
2025-01-19 09:06:20.47	271.30	48.25	
2025-01-19 09:06:21.28	270.77	48.12	
2025-01-19 09:06:22.09	270.25	47.99	
2025-01-19 09:06:22.90	269.73	47.85	
2025-01-19 09:06:23.71	269.21	47.71	
2025-01-19 09:06:24.53	268.70	47.57	
2025-01-19 09:06:25.34	268.20	47.42	
2025-01-19 09:06:26.15	267.70	47.28	
2025-01-19 09:06:26.96	267.20	47.13	
2025-01-19 09:06:27.78	266.70	46.98	
2025-01-19 09:06:28.59	266.22	46.83	
2025-01-19 09:06:29.40	265.74	46.68	
2025-01-19 09:06:30.21	265.26	46.53	
2025-01-19 09:06:31.03	264.79	46.37	
2025-01-19 09:06:31.84	264.32	46.21	
2025-01-19 09:06:32.65	263.86	46.06	
2025-01-19 09:06:33.46	263.40	45.90	
2025-01-19 09:06:34.27	262.95	45.74	
2025-01-19 09:06:35.09	262.49	45.57	
2025-01-19 09:06:35.90	262.05	45.41	
2025-01-19 09:06:36.71	261.61	45.24	
2025-01-19 09:06:37.52	261.18	45.08	
2025-01-19 09:06:38.34	260.74	44.91	
2025-01-19 09:06:39.15	260.32	44.74	
2025-01-19 09:06:39.96	259.90	44.58	
2025-01-19 09:06:40.77	259.48	44.41	
2025-01-19 09:06:41.59	259.07	44.23	
2025-01-19 09:06:42.40	258.66	44.06	
2025-01-19 09:06:43.21	258.26	43.89	
2025-01-19 09:06:44.02	257.86	43.72	
2025-01-19 09:06:44.83	257.47	43.54	
2025-01-19 09:06:45.65	257.07	43.37	
2025-01-19 09:06:46.46	256.69	43.19	
2025-01-19 09:06:47.27	256.31	43.02	
2025-01-19 09:06:48.08	255.93	42.84	
2025-01-19 09:06:48.90	255.56	42.66	
2025-01-19 09:06:49.71	255.19	42.49	
2025-01-19 09:06:50.52	254.82	42.31	
2025-01-19 09:06:51.33	254.46	42.13	
2025-01-19 09:06:52.15	254.10	41.95	
2025-01-19 09:06:52.96	253.75	41.78	
2025-01-19 09:06:53.77	253.41	41.60	
2025-01-19 09:06:54.58	253.06	41.42	
2025-01-19 09:06:55.39	252.72	41.24	
2025-01-19 09:06:56.21	252.38	41.06	
2025-01-19 09:06:57.02	252.05	40.88	
2025-01-19 09:06:57.83	251.72	40.70	
2025-01-19 09:06:58.64	251.40	40.52	
2025-01-19 09:06:59.46	251.07	40.34	
2025-01-19 09:07:00.27	250.75	40.16	
2025-01-19 09:07:01.08	250.44	39.98	
2025-01-19 09:07:01.89	250.13	39.80	
2025-01-19 09:07:02.71	249.82	39.62	
2025-01-19 09:07:03.52	249.51	39.44	
2025-01-19 09:07:04.33	249.21	39.26	
2025-01-19 09:07:05.14	248.92	39.08	
2025-01-19 09:07:05.95	248.62	38.90	
2025-01-19 09:07:06.77	248.33	38.72	
2025-01-19 09:07:07.58	248.04	38.54	
2025-01-19 09:07:08.39	247.76	38.36	
2025-01-19 09:07:09.20	247.48	38.18	
2025-01-19 09:07:10.02	247.20	38.00	
2025-01-19 09:07:10.83	246.93	37.82	
2025-01-19 09:07:11.64	246.65	37.65	
2025-01-19 09:07:12.45	246.39	37.47	
2025-01-19 09:07:13.27	246.12	37.29	
2025-01-19 09:07:14.08	245.86	37.11	
2025-01-19 09:07:14.89	245.60	36.94	
2025-01-19 09:07:15.70	245.34	36.76	
2025-01-19 09:07:16.51	245.09	36.58	
2025-01-19 09:07:17.33	244.83	36.41	
2025-01-19 09:07:18.14	244.58	36.23	
2025-01-19 09:07:18.95	244.34	36.06	
2025-01-19 09:07:19.76	244.10	35.88	
2025-01-19 09:07:20.58	243.85	35.71	
2025-01-19 09:07:21.39	243.62	35.53	
2025-01-19 09:07:22.20	243.38	35.36	
2025-01-19 09:07:23.01	243.15	35.19	
2025-01-19 09:07:23.83	242.92	35.01	
2025-01-19 09:07:24.64	242.69	34.84	
2025-01-19 09:07:25.46	242.46	34.67	
2025-01-19 09:07:26.27	242.24	34.50	
2025-01-19 09:07:27.09	242.02	34.33	
2025-01-19 09:07:27.90	241.80	34.16	
2025-01-19 09:07:28.71	241.59	33.99	
2025-01-19 09:07:29.52	241.37	33.82	
2025-01-19 09:07:30.34	241.16	33.65	
2025-01-19 09:07:31.15	240.95	33.48	
2025-01-19 09:07:31.96	240.75	33.32	
2025-01-19 09:07:32.77	240.54	33.15	
2025-01-19 09:07:33.59	240.34	32.98	
2025-01-19 09:07:34.40	240.14	32.82	
2025-01-19 09:07:35.21	239.94	32.65	
2025-01-19 09:07:36.02	239.75	32.49	
2025-01-19 09:07:36.83	239.55	32.33	
2025-01-19 09:07:37.65	239.36	32.16	
2025-01-19 09:07:38.46	239.17	32.00	
2025-01-19 09:07:39.27	238.98	31.84	
2025-01-19 09:07:40.08	238.80	31.68	
2025-01-19 09:07:40.90	238.61	31.51	
2025-01-19 09:07:41.71	238.43	31.36	
2025-01-19 09:07:42.52	238.25	31.20	
2025-01-19 09:07:43.33	238.07	31.04	
2025-01-19 09:07:44.15	237.89	30.88	
2025-01-19 09:07:44.96	237.72	30.72	
2025-01-19 09:07:45.77	237.54	30.56	
2025-01-19 09:07:46.58	237.37	30.41	
2025-01-19 09:07:47.39	237.20	30.25	
2025-01-19 09:07:48.21	237.03	30.10	
2025-01-19 09:07:49.02	236.87	29.94	
2025-01-19 09:07:49.83	236.70	29.79	
2025-01-19 09:07:50.64	236.54	29.63	
2025-01-19 09:07:51.46	236.38	29.48	
2025-01-19 09:07:52.27	236.22	29.33	
2025-01-19 09:07:53.08	236.06	29.18	
2025-01-19 09:07:53.89	235.90	29.03	
2025-01-19 09:07:54.71	235.75	28.88	
2025-01-19 09:07:55.52	235.59	28.73	
2025-01-19 09:07:56.33	235.44	28.58	
2025-01-19 09:07:57.14	235.29	28.43	
2025-01-19 09:07:57.95	235.14	28.28	
2025-01-19 09:07:58.77	234.99	28.13	
2025-01-19 09:07:59.58	234.85	27.99	
2025-01-19 09:08:00.39	234.70	27.84	
2025-01-19 09:08:01.20	234.56	27.70	
2025-01-19 09:08:02.02	234.42	27.55	
2025-01-19 09:08:02.83	234.28	27.41	
2025-01-19 09:08:03.64	234.14	27.27	
2025-01-19 09:08:04.45	234.00	27.12	
2025-01-19 09:08:05.27	233.86	26.98	
2025-01-19 09:08:06.08	233.72	26.84	
2025-01-19 09:08:06.89	233.59	26.70	
2025-01-19 09:08:07.70	233.46	26.56	
2025-01-19 09:08:08.51	233.33	26.42	
2025-01-19 09:08:09.33	233.19	26.28	
2025-01-19 09:08:10.14	233.06	26.14	
2025-01-19 09:08:10.95	232.94	26.00	
2025-01-19 09:08:11.76	232.81	25.87	
2025-01-19 09:08:12.58	232.68	25.73	
2025-01-19 09:08:13.39	232.56	25.59	
2025-01-19 09:08:14.20	232.43	25.46	
2025-01-19 09:08:15.01	232.31	25.32	
2025-01-19 09:08:15.83	232.19	25.19	
2025-01-19 09:08:16.64	232.07	25.05	
2025-01-19 09:08:17.45	231.95	24.92	
2025-01-19 09:08:18.26	231.83	24.79	
2025-01-19 09:08:19.07	231.71	24.66	
2025-01-19 09:08:19.89	231.60	24.53	
2025-01-19 09:08:20.70	231.48	24.40	
2025-01-19 09:08:21.51	231.37	24.27	
2025-01-19 09:08:22.32	231.25	24.14	
2025-01-19 09:08:23.14	231.14	24.01	
2025-01-19 09:08:23.95	231.03	23.88	
2025-01-19 09:08:24.76	230.92	23.75	
2025-01-19 09:08:25.57	230.81	23.62	
2025-01-19 09:08:26.39	230.70	23.50	
2025-01-19 09:08:27.20	230.59	23.37	
2025-01-19 09:08:28.01	230.49	23.25	
2025-01-19 09:08:28.82	230.38	23.12	
2025-01-19 09:08:29.63	230.28	23.00	
2025-01-19 09:08:30.45	230.17	22.87	
2025-01-19 09:08:31.26	230.07	22.75	
2025-01-19 09:08:32.07	229.97	22.63	
2025-01-19 09:08:32.88	229.87	22.50	
2025-01-19 09:08:33.70	229.76	22.38	
2025-01-19 09:08:34.51	229.66	22.26	
2025-01-19 09:08:35.32	229.57	22.14	
2025-01-19 09:08:36.13	229.47	22.02	
2025-01-19 09:08:36.95	229.37	21.90	
2025-01-19 09:08:37.76	229.27	21.78	
2025-01-19 09:08:38.57	229.18	21.66	
2025-01-19 09:08:39.38	229.08	21.54	
2025-01-19 09:08:40.19	228.99	21.43	
2025-01-19 09:08:41.01	228.90	21.31	
2025-01-19 09:08:41.82	228.80	21.19	
2025-01-19 09:08:42.63	228.71	21.08	
2025-01-19 09:08:43.44	228.62	20.96	
2025-01-19 09:08:44.26	228.53	20.85	
2025-01-19 09:08:45.07	228.44	20.73	
2025-01-19 09:08:45.88	228.35	20.62	
2025-01-19 09:08:46.69	228.26	20.50	
2025-01-19 09:08:47.51	228.17	20.39	
2025-01-19 09:08:48.32	228.09	20.28	
2025-01-19 09:08:49.13	228.00	20.17	
2025-01-19 09:08:49.94	227.92	20.06	
2025-01-19 09:08:50.75	227.83	19.94	
2025-01-19 09:08:51.57	227.75	19.83	
2025-01-19 09:08:52.38	227.66	19.72	
2025-01-19 09:08:53.19	227.58	19.61	
2025-01-19 09:08:54.00	227.50	19.50	
2025-01-19 09:08:54.82	227.42	19.39	
2025-01-19 09:08:55.63	227.34	19.29	
2025-01-19 09:08:56.44	227.26	19.18	
2025-01-19 09:08:57.25	227.18	19.07	
2025-01-19 09:08:58.07	227.10	18.96	
2025-01-19 09:08:58.88	227.02	18.86	
2025-01-19 09:08:59.69	226.94	18.75	
2025-01-19 09:09:00.50	226.86	18.65	
2025-01-19 09:09:01.32	226.78	18.54	
2025-01-19 09:09:02.13	226.71	18.44	
2025-01-19 09:09:02.94	226.63	18.33	
2025-01-19 09:09:03.75	226.56	18.23	
2025-01-19 09:09:04.56	226.48	18.12	
2025-01-19 09:09:05.38	226.41	18.02	
2025-01-19 09:09:06.19	226.34	17.92	
2025-01-19 09:09:07.00	226.26	17.82	
2025-01-19 09:09:07.81	226.19	17.72	
2025-01-19 09:09:08.63	226.12	17.61	
2025-01-19 09:09:09.44	226.05	17.51	
2025-01-19 09:09:10.25	225.98	17.41	
2025-01-19 09:09:11.06	225.91	17.31	
2025-01-19 09:09:11.88	225.84	17.21	
2025-01-19 09:09:12.69	225.77	17.11	
2025-01-19 09:09:13.50	225.70	17.01	
2025-01-19 09:09:14.31	225.63	16.92	
2025-01-19 09:09:15.12	225.56	16.82	
2025-01-19 09:09:15.94	225.49	16.72	
2025-01-19 09:09:16.75	225.43	16.62	
2025-01-19 09:09:17.56	225.36	16.52	
2025-01-19 09:09:18.37	225.30	16.43	
2025-01-19 09:09:19.19	225.23	16.33	
2025-01-19 09:09:20.00	225.16	16.24	
2025-01-19 09:09:20.81	225.10	16.14	
2025-01-19 09:09:21.62	225.04	16.05	
2025-01-19 09:09:22.44	224.97	15.95	
2025-01-19 09:09:23.25	224.91	15.86	
2025-01-19 09:09:24.06	224.85	15.76	
2025-01-19 09:09:24.87	224.78	15.67	
2025-01-19 09:09:25.68	224.72	15.58	
2025-01-19 09:09:26.50	224.66	15.48	
2025-01-19 09:09:27.31	224.60	15.39	
2025-01-19 09:09:28.12	224.54	15.30	
2025-01-19 09:09:28.93	224.48	15.21	
2025-01-19 09:09:29.75	224.42	15.11	
2025-01-19 09:09:30.56	224.36	15.02	
2025-01-19 09:09:31.37	224.30	14.93	
2025-01-19 09:09:32.18	224.24	14.84	
2025-01-19 09:09:33.00	224.18	14.75	
2025-01-19 09:09:33.81	224.12	14.66	
2025-01-19 09:09:34.62	224.07	14.57	
2025-01-19 09:09:35.43	224.01	14.48	
2025-01-19 09:09:36.24	223.95	14.40	
2025-01-19 09:09:37.06	223.90	14.31	
2025-01-19 09:09:37.87	223.84	14.22	
2025-01-19 09:09:38.68	223.78	14.13	
2025-01-19 09:09:39.49	223.73	14.04	
2025-01-19 09:09:40.31	223.67	13.96	
2025-01-19 09:09:41.12	223.62	13.87	
2025-01-19 09:09:41.93	223.57	13.78	
2025-01-19 09:09:42.74	223.51	13.70	
2025-01-19 09:09:43.56	223.46	13.61	
2025-01-19 09:09:44.37	223.40	13.52	
2025-01-19 09:09:45.18	223.35	13.44	
2025-01-19 09:09:45.99	223.30	13.35	
2025-01-19 09:09:46.80	223.25	13.27	
2025-01-19 09:09:47.62	223.20	13.19	
2025-01-19 09:09:48.43	223.14	13.10	
2025-01-19 09:09:49.24	223.09	13.02	
2025-01-19 09:09:50.05	223.04	12.93	
2025-01-19 09:09:50.87	222.99	12.85	
2025-01-19 09:09:51.68	222.94	12.77	
2025-01-19 09:09:52.49	222.89	12.69	
2025-01-19 09:09:53.30	222.84	12.60	
2025-01-19 09:09:54.12	222.79	12.52	
2025-01-19 09:09:54.93	222.74	12.44	
2025-01-19 09:09:55.74	222.69	12.36	
2025-01-19 09:09:56.55	222.65	12.28	
2025-01-19 09:09:57.36	222.60	12.20	
2025-01-19 09:09:58.18	222.55	12.11	
2025-01-19 09:09:58.99	222.50	12.03	
2025-01-19 09:09:59.80	222.46	11.95	
2025-01-19 09:10:00.61	222.41	11.88	
2025-01-19 09:10:01.43	222.36	11.79	
2025-01-19 09:10:02.24	222.32	11.72	
2025-01-19 09:10:03.05	222.27	11.64	
2025-01-19 09:10:03.86	222.22	11.56	
2025-01-19 09:10:04.68	222.18	11.48	
2025-01-19 09:10:05.49	222.13	11.40	
2025-01-19 09:10:06.30	222.09	11.32	
2025-01-19 09:10:07.11	222.04	11.25	
2025-01-19 09:10:07.92	222.00	11.17	
2025-01-19 09:10:08.74	221.95	11.09	
2025-01-19 09:10:09.55	221.91	11.01	
2025-01-19 09:10:10.36	221.87	10.94	
2025-01-19 09:10:11.17	221.82	10.86	
2025-01-19 09:10:11.99	221.78	10.78	
2025-01-19 09:10:12.80	221.74	10.71	
2025-01-19 09:10:13.61	221.69	10.63	
2025-01-19 09:10:14.42	221.65	10.56	
2025-01-19 09:10:15.24	221.61	10.48	
2025-01-19 09:10:16.05	221.57	10.41	
2025-01-19 09:10:16.86	221.53	10.33	
2025-01-19 09:10:17.67	221.48	10.26	
2025-01-19 09:10:18.48	221.44	10.18	
2025-01-19 09:10:19.30	221.40	10.11	
2025-01-19 09:10:20.11	221.36	10.04	
2025-01-19 09:10:20.92	221.32	9.96	
2025-01-19 09:10:21.73	221.28	9.89	
2025-01-19 09:10:22.55	221.24	9.82	
2025-01-19 09:10:23.36	221.20	9.74	
2025-01-19 09:10:24.17	221.16	9.67	
2025-01-19 09:10:24.98	221.12	9.60	
2025-01-19 09:10:25.80	221.08	9.53	
2025-01-19 09:10:26.61	221.04	9.45	
2025-01-19 09:10:27.42	221.01	9.38	
2025-01-19 09:10:28.23	220.97	9.31	
2025-01-19 09:10:29.05	220.93	9.24	
2025-01-19 09:10:29.86	220.89	9.17	
2025-01-19 09:10:30.67	220.85	9.10	
2025-01-19 09:10:31.48	220.82	9.03	
2025-01-19 09:10:32.29	220.78	8.96	
2025-01-19 09:10:33.11	220.74	8.89	
2025-01-19 09:10:33.92	220.70	8.82	
2025-01-19 09:10:34.73	220.67	8.75	
2025-01-19 09:10:35.54	220.63	8.68	
2025-01-19 09:10:36.36	220.59	8.61	
2025-01-19 09:10:37.17	220.56	8.54	
2025-01-19 09:10:37.98	220.52	8.47	
2025-01-19 09:10:38.79	220.49	8.40	
2025-01-19 09:10:39.61	220.45	8.33	
2025-01-19 09:10:40.42	220.41	8.26	
2025-01-19 09:10:41.23	220.38	8.19	
2025-01-19 09:10:42.04	220.34	8.13	
2025-01-19 09:10:42.85	220.31	8.06	
2025-01-19 09:10:43.67	220.27	7.99	
2025-01-19 09:10:44.48	220.24	7.92	
2025-01-19 09:10:45.29	220.21	7.86	
2025-01-19 09:10:46.10	220.17	7.79	
2025-01-19 09:10:46.92	220.14	7.72	
2025-01-19 09:10:47.73	220.10	7.65	
2025-01-19 09:10:48.54	220.07	7.59	
2025-01-19 09:10:49.35	220.04	7.52	
2025-01-19 09:10:50.17	220.00	7.45	
2025-01-19 09:10:50.98	219.97	7.39	
2025-01-19 09:10:51.79	219.94	7.32	
2025-01-19 09:10:52.60	219.91	7.26	
2025-01-19 09:10:53.41	219.87	7.19	
2025-01-19 09:10:54.23	219.84	7.13	
2025-01-19 09:10:55.04	219.81	7.06	
2025-01-19 09:10:55.85	219.78	7.00	
2025-01-19 09:10:56.66	219.74	6.93	
2025-01-19 09:10:57.48	219.71	6.87	
2025-01-19 09:10:58.29	219.68	6.80	
2025-01-19 09:10:59.10	219.65	6.74	
2025-01-19 09:10:59.91	219.62	6.67	
2025-01-19 09:11:00.73	219.59	6.61	
2025-01-19 09:11:01.54	219.56	6.55	
2025-01-19 09:11:02.35	219.53	6.48	
2025-01-19 09:11:03.16	219.49	6.42	
2025-01-19 09:11:03.97	219.46	6.36	
2025-01-19 09:11:04.79	219.43	6.29	
2025-01-19 09:11:05.60	219.40	6.23	
2025-01-19 09:11:06.41	219.37	6.17	
2025-01-19 09:11:07.22	219.34	6.11	
2025-01-19 09:11:08.04	219.31	6.04	
2025-01-19 09:11:08.85	219.28	5.98	
2025-01-19 09:11:09.66	219.26	5.92	
2025-01-19 09:11:10.47	219.23	5.86	
2025-01-19 09:11:11.29	219.20	5.79	
2025-01-19 09:11:12.10	219.17	5.73	
2025-01-19 09:11:12.91	219.14	5.67	
2025-01-19 09:11:13.72	219.11	5.61	
2025-01-19 09:11:14.53	219.08	5.55	
2025-01-19 09:11:15.35	219.05	5.49	
2025-01-19 09:11:16.16	219.03	5.43	
2025-01-19 09:11:16.97	219.00	5.37	
2025-01-19 09:11:17.78	218.97	5.31	
2025-01-19 09:11:18.60	218.94	5.24	
2025-01-19 09:11:19.41	218.91	5.18	
2025-01-19 09:11:20.22	218.89	5.12	
2025-01-19 09:11:21.03	218.86	5.06	
2025-01-19 09:11:21.85	218.83	5.00	
2025-01-19 09:11:22.66	218.80	4.94	
2025-01-19 09:11:23.47	218.78	4.89	
2025-01-19 09:11:24.28	218.75	4.83	
2025-01-19 09:11:25.09	218.72	4.77	
2025-01-19 09:11:25.91	218.70	4.71	
2025-01-19 09:11:26.72	218.67	4.65	
2025-01-19 09:11:27.53	218.64	4.59	
2025-01-19 09:11:28.34	218.62	4.53	
2025-01-19 09:11:29.16	218.59	4.47	
2025-01-19 09:11:29.97	218.57	4.41	
2025-01-19 09:11:30.78	218.54	4.36	
2025-01-19 09:11:31.59	218.51	4.30	
2025-01-19 09:11:32.41	218.49	4.24	
2025-01-19 09:11:33.22	218.46	4.18	
2025-01-19 09:11:34.03	218.44	4.12	
2025-01-19 09:11:34.84	218.41	4.07	
2025-01-19 09:11:35.65	218.39	4.01	

#Closed at: 2025-01-19 09:11:35