passes_logs/2026/01/13/R2.0S_Moscow/R2.0S_Moscow__20260113_121832_AQUA_rec.log

#Pass ID: 20260113_121832_AQUA
#Satellite: AQUA
#Configuration: AQUA
#almurnet v.1.7.20251203
#Start time: 2026-01-13 12:18:32

#Version: 2.2.20231116
#Station: R2.0S_Moscow
#Location: 37.707566 lon 55.798166 lat
#TLE: 1 27424U 02022A   26012.29577270  .00001027  00000+0  21555-3 0  9995
#TLE: 2 27424  98.4078 338.6778 0002034  81.5885  29.6294 14.61817302260499

#Time	Az	El	Level	Level2	SNR	BER	BlckErr	Temp	State	Recorded	gain1	gain2
2026-01-13 12:18:32.73	181.54	2.00	-44.8	-63.5	3.8	7.45e-01	0	50	0	0	61	30630
2026-01-13 12:18:35.77	181.66	2.20	-44.8	-63.5	3.8	7.46e-01	0	50	104	0	60	32422
2026-01-13 12:18:38.80	181.77	2.39	-44.8	-63.5	3.8	7.46e-01	0	50	104	0	60	32479
2026-01-13 12:18:41.83	181.89	2.59	-44.8	-63.5	3.8	7.46e-01	0	51	104	0	60	32478
2026-01-13 12:18:44.86	182.01	2.79	-44.8	-63.5	3.8	7.41e-01	0	51	104	0	60	32408
2026-01-13 12:18:47.90	182.13	3.00	-44.8	-63.5	3.8	7.44e-01	0	51	104	0	60	32395
2026-01-13 12:18:50.93	182.26	3.20	-44.8	-63.5	3.8	7.44e-01	0	51	104	0	60	32410
2026-01-13 12:18:53.96	182.38	3.41	-44.8	-63.5	3.8	7.47e-01	0	52	104	0	60	32393
2026-01-13 12:18:56.99	182.51	3.62	-44.8	-63.5	3.8	7.45e-01	0	52	104	0	60	32348
2026-01-13 12:19:00.02	182.64	3.83	-44.8	-63.5	3.8	7.43e-01	0	52	104	0	60	32219
2026-01-13 12:19:03.05	182.77	4.04	-44.8	-63.4	3.8	7.46e-01	0	52	104	0	60	32089
2026-01-13 12:19:06.08	182.90	4.25	-44.8	-63.2	3.8	7.44e-01	0	52	104	0	60	31138
2026-01-13 12:19:09.11	183.04	4.46	-44.8	-62.4	3.8	7.44e-01	0	53	104	0	60	28549
2026-01-13 12:19:12.15	183.17	4.68	-44.8	-61.9	3.8	7.43e-01	0	53	104	0	60	27001
2026-01-13 12:19:15.18	183.31	4.90	-44.8	-61.3	3.9	7.39e-01	0	53	104	0	60	25083
2026-01-13 12:19:18.21	183.45	5.12	-44.7	-59.2	4.4	7.25e-01	0	53	104	0	60	19794
2026-01-13 12:19:21.24	183.60	5.34	-44.7	-58.6	4.8	7.17e-01	0	53	104	0	60	18430
2026-01-13 12:19:24.27	183.74	5.56	-44.5	-56.5	6.0	6.82e-01	75	53	0	1048576	60	14393
2026-01-13 12:19:27.31	183.89	5.79	-44.4	-55.1	7.0	6.62e-01	92	53	0	6291456	60	12341
2026-01-13 12:19:30.34	184.04	6.02	-44.2	-53.1	9.1	6.30e-01	0	54	0	12058624	60	9720
2026-01-13 12:19:33.37	184.19	6.25	-44.1	-51.9	10.7	6.21e-01	0	54	0	17825792	59	9057
2026-01-13 12:19:36.40	184.35	6.48	-44.1	-51.5	11.2	6.19e-01	0	54	0	23592960	59	8595
2026-01-13 12:19:39.44	184.51	6.72	-44.0	-51.2	11.5	6.17e-01	0	54	0	29360128	59	8288
2026-01-13 12:19:42.47	184.67	6.95	-43.8	-50.5	12.1	6.12e-01	0	54	0	34603008	59	7700
2026-01-13 12:19:45.50	184.83	7.19	-43.4	-49.1	13.7	6.09e-01	0	54	0	40370176	58	6893
2026-01-13 12:19:48.52	185.00	7.43	-42.8	-47.6	15.3	6.08e-01	0	55	0	46137344	57	6136
2026-01-13 12:19:51.56	185.16	7.68	-42.6	-47.1	15.8	6.08e-01	0	55	0	51904512	56	6161
2026-01-13 12:19:54.59	185.34	7.92	-42.7	-47.3	15.5	6.05e-01	0	55	0	57671680	56	6327
2026-01-13 12:19:57.62	185.51	8.17	-43.1	-48.2	14.8	6.07e-01	0	55	0	63438848	56	6981
2026-01-13 12:20:00.64	185.69	8.42	-42.2	-46.2	16.7	6.08e-01	0	55	0	67108864	56	5536
2026-01-13 12:20:03.67	185.87	8.68	-42.2	-46.0	17.0	6.06e-01	0	55	0	72876032	56	5459
2026-01-13 12:20:06.70	186.05	8.93	-42.1	-46.0	17.1	6.06e-01	0	55	0	78643200	56	5422
2026-01-13 12:20:09.73	186.24	9.19	-42.1	-45.9	17.2	6.06e-01	0	55	0	84410368	56	5372
2026-01-13 12:20:12.76	186.43	9.45	-42.1	-45.9	17.1	6.08e-01	0	55	0	89653248	56	5397
2026-01-13 12:20:15.79	186.63	9.72	-42.1	-45.8	17.4	6.06e-01	0	55	0	95420416	56	5299
2026-01-13 12:20:18.81	186.83	9.99	-42.0	-45.7	17.3	6.09e-01	0	56	0	101187584	55	5588
2026-01-13 12:20:21.84	187.03	10.26	-42.1	-46.0	17.0	6.09e-01	0	56	0	106954752	55	5727
2026-01-13 12:20:24.87	187.23	10.53	-41.9	-45.5	17.6	6.07e-01	0	56	0	112721920	55	5441
2026-01-13 12:20:27.90	187.44	10.81	-41.8	-45.3	17.8	6.07e-01	0	56	0	118489088	55	5339
2026-01-13 12:20:30.93	187.66	11.09	-41.8	-45.3	17.9	6.07e-01	0	56	0	123731968	55	5319
2026-01-13 12:20:33.96	187.88	11.37	-41.9	-45.4	17.8	6.07e-01	0	56	0	129499136	55	5361
2026-01-13 12:20:36.99	188.10	11.66	-41.9	-45.4	17.9	6.06e-01	0	56	0	135266304	55	5356
2026-01-13 12:20:40.02	188.33	11.95	-42.0	-45.5	17.8	6.07e-01	0	56	0	141033472	55	5422
2026-01-13 12:20:43.05	188.56	12.24	-41.9	-45.3	18.0	6.06e-01	0	56	0	146800640	55	5316
2026-01-13 12:20:46.08	188.80	12.54	-41.7	-45.0	18.3	6.05e-01	0	56	0	152567808	55	5144
2026-01-13 12:20:49.10	189.04	12.84	-41.6	-44.8	18.5	6.06e-01	0	56	0	157810688	55	5018
2026-01-13 12:20:52.13	189.29	13.15	-41.6	-44.7	18.6	6.07e-01	0	56	0	163577856	55	4976
2026-01-13 12:20:55.16	189.54	13.46	-41.5	-44.7	18.7	6.06e-01	0	57	0	169345024	55	4953
2026-01-13 12:20:58.19	189.80	13.77	-41.5	-44.7	18.7	6.06e-01	0	57	0	175112192	55	4944
2026-01-13 12:21:01.22	190.06	14.08	-41.5	-44.6	18.8	6.08e-01	0	57	0	180879360	55	4915
2026-01-13 12:21:04.25	190.33	14.41	-41.6	-44.7	18.8	6.07e-01	0	56	0	186646528	55	4945
2026-01-13 12:21:07.28	190.61	14.73	-41.6	-44.7	18.7	6.07e-01	0	57	0	191889408	55	4967
2026-01-13 12:21:10.31	190.89	15.06	-41.5	-44.7	18.8	6.05e-01	0	57	0	197656576	54	5222
2026-01-13 12:21:13.34	191.18	15.39	-41.5	-44.5	18.9	6.07e-01	0	57	0	203423744	54	5155
2026-01-13 12:21:16.36	191.47	15.73	-41.5	-44.5	19.0	6.06e-01	0	57	0	209190912	54	5145
2026-01-13 12:21:19.39	191.77	16.07	-41.5	-44.5	19.1	6.06e-01	0	57	0	214958080	54	5110
2026-01-13 12:21:22.42	192.08	16.42	-41.4	-44.3	19.3	6.07e-01	0	57	0	220725248	54	5012
2026-01-13 12:21:25.44	192.40	16.77	-41.4	-44.4	19.2	6.07e-01	0	57	0	225968128	54	5078
2026-01-13 12:21:28.47	192.73	17.13	-41.4	-44.3	19.3	6.06e-01	0	57	0	231735296	54	5007
2026-01-13 12:21:31.50	193.06	17.49	-41.4	-44.3	19.3	6.05e-01	0	57	0	237502464	54	5018
2026-01-13 12:21:34.53	193.40	17.86	-41.5	-44.5	19.1	6.06e-01	0	57	0	243269632	54	5102
2026-01-13 12:21:37.56	193.75	18.23	-41.4	-44.3	19.3	6.06e-01	0	57	0	249036800	54	5026
2026-01-13 12:21:40.59	194.11	18.61	-41.4	-44.3	19.3	6.07e-01	0	57	0	254803968	54	5025
2026-01-13 12:21:43.61	194.48	18.99	-41.5	-44.5	19.2	6.07e-01	0	57	0	260046848	54	5108
2026-01-13 12:21:46.64	194.85	19.38	-41.4	-44.3	19.3	6.06e-01	0	57	0	265814016	54	5015
2026-01-13 12:21:49.67	195.24	19.77	-41.4	-44.4	19.3	6.08e-01	0	57	0	271581184	54	5046
2026-01-13 12:21:52.70	195.64	20.17	-41.5	-44.4	19.3	6.05e-01	0	58	0	277348352	54	5067
2026-01-13 12:21:55.73	196.05	20.58	-41.4	-44.3	19.4	6.07e-01	0	58	0	283115520	54	5037
2026-01-13 12:21:58.76	196.47	20.99	-41.6	-44.7	19.0	6.06e-01	0	58	0	288882688	54	5238
2026-01-13 12:22:01.79	196.90	21.41	-41.5	-44.4	19.3	6.06e-01	0	57	0	294125568	54	5092
2026-01-13 12:22:04.82	197.34	21.83	-41.6	-44.6	19.1	6.05e-01	0	58	0	299892736	54	5201
2026-01-13 12:22:07.85	197.80	22.26	-41.7	-44.8	19.0	6.06e-01	0	58	0	305659904	54	5282
2026-01-13 12:22:10.88	198.27	22.70	-41.6	-44.7	19.1	6.05e-01	0	58	0	311427072	54	5231
2026-01-13 12:22:13.91	198.76	23.14	-41.7	-44.8	19.0	6.06e-01	0	58	0	317194240	54	5301
2026-01-13 12:22:16.94	199.25	23.59	-41.6	-44.6	19.2	6.07e-01	0	58	0	322961408	54	5195
2026-01-13 12:22:19.97	199.77	24.04	-41.8	-44.9	18.9	6.06e-01	0	58	0	328204288	54	5363
2026-01-13 12:22:23.00	200.29	24.50	-41.7	-44.7	19.2	6.07e-01	0	58	0	333971456	54	5221
2026-01-13 12:22:26.02	200.84	24.97	-41.6	-44.6	19.2	6.05e-01	0	58	0	339738624	54	5194
2026-01-13 12:22:29.05	201.40	25.44	-41.6	-44.6	19.3	6.08e-01	0	58	0	345505792	54	5173
2026-01-13 12:22:32.08	201.98	25.92	-41.6	-44.6	19.2	6.08e-01	0	58	0	351272960	54	5195
2026-01-13 12:22:35.11	202.57	26.41	-41.6	-44.5	19.4	6.07e-01	0	58	0	357040128	54	5115
2026-01-13 12:22:38.14	203.19	26.90	-41.6	-44.5	19.4	6.05e-01	0	58	0	362283008	54	5106
2026-01-13 12:22:41.17	203.83	27.40	-41.6	-44.4	19.5	6.10e-01	0	58	0	368050176	54	5083
2026-01-13 12:22:44.19	204.48	27.91	-41.6	-44.6	19.4	6.07e-01	0	58	0	373817344	54	5169
2026-01-13 12:22:47.22	205.16	28.42	-41.5	-44.3	19.6	6.06e-01	0	58	0	379584512	54	4999
2026-01-13 12:22:50.25	205.86	28.94	-41.6	-44.5	19.5	6.07e-01	0	58	0	385351680	54	5107
2026-01-13 12:22:53.27	206.58	29.46	-41.6	-44.5	19.5	6.05e-01	0	58	0	390594560	54	5103
2026-01-13 12:22:56.31	207.33	29.99	-41.6	-44.5	19.4	6.09e-01	0	58	0	396361728	54	5144
2026-01-13 12:22:59.33	208.10	30.52	-41.5	-44.3	19.7	6.07e-01	0	58	0	402128896	54	5015
2026-01-13 12:23:02.37	208.90	31.06	-41.8	-44.7	19.3	6.06e-01	0	58	0	407896064	54	5253
2026-01-13 12:23:05.39	209.73	31.61	-41.8	-44.7	19.3	6.06e-01	0	58	0	413663232	54	5270
2026-01-13 12:23:08.42	210.58	32.16	-41.7	-44.6	19.4	6.07e-01	0	58	0	419430400	54	5161
2026-01-13 12:23:11.45	211.47	32.71	-41.9	-44.8	19.2	6.05e-01	0	58	0	425197568	54	5331
2026-01-13 12:23:14.48	212.39	33.26	-42.1	-45.2	18.8	6.07e-01	0	58	0	430440448	54	5555
2026-01-13 12:23:17.51	213.34	33.82	-42.1	-45.3	18.8	6.07e-01	0	58	0	436207616	54	5612
2026-01-13 12:23:20.54	214.32	34.38	-42.2	-45.4	18.7	6.09e-01	0	58	0	441974784	54	5678
2026-01-13 12:23:23.57	215.34	34.94	-41.9	-45.2	18.6	6.05e-01	0	58	0	447741952	55	5267
2026-01-13 12:23:26.60	216.39	35.51	-42.3	-45.6	18.4	6.05e-01	0	58	0	453509120	55	5508
2026-01-13 12:23:29.63	217.48	36.07	-42.3	-45.8	18.2	6.06e-01	0	58	0	459276288	55	5594
2026-01-13 12:23:32.66	218.61	36.63	-42.4	-45.8	18.1	6.07e-01	0	58	0	464519168	55	5647
2026-01-13 12:23:35.69	219.78	37.19	-42.2	-45.5	18.5	6.07e-01	0	58	0	470286336	55	5446
2026-01-13 12:23:38.72	220.99	37.74	-42.4	-45.7	18.3	6.07e-01	0	59	0	476053504	55	5545
2026-01-13 12:23:41.75	222.24	38.29	-42.3	-45.7	18.1	6.06e-01	0	59	0	481820672	55	5555
2026-01-13 12:23:44.78	223.54	38.84	-42.1	-45.3	18.7	6.06e-01	0	59	0	487587840	55	5308
2026-01-13 12:23:47.81	224.88	39.38	-42.2	-45.4	18.7	6.07e-01	0	59	0	493355008	55	5348
2026-01-13 12:23:50.84	226.27	39.90	-42.0	-45.1	19.0	6.06e-01	0	59	0	498597888	55	5168
2026-01-13 12:23:53.87	227.70	40.42	-42.0	-45.1	19.0	6.06e-01	0	59	0	504365056	55	5187
2026-01-13 12:23:56.90	229.17	40.93	-41.9	-44.9	19.1	6.07e-01	0	58	0	510132224	55	5079
2026-01-13 12:23:59.93	230.70	41.42	-41.7	-44.6	19.4	6.07e-01	0	58	0	515899392	55	4916
2026-01-13 12:24:02.96	232.26	41.89	-41.7	-44.6	19.4	6.05e-01	0	59	0	521666560	55	4901
2026-01-13 12:24:05.98	233.88	42.35	-41.6	-44.5	19.6	6.06e-01	0	59	0	527433728	55	4819
2026-01-13 12:24:09.01	235.54	42.79	-41.3	-44.0	20.0	6.05e-01	0	58	0	532676608	53	5150
2026-01-13 12:24:12.04	237.24	43.20	-41.3	-44.0	20.0	6.06e-01	0	59	0	538443776	53	5141
2026-01-13 12:24:15.06	238.99	43.59	-41.4	-44.2	19.9	6.06e-01	0	59	0	544210944	53	5231
2026-01-13 12:24:18.10	240.78	43.96	-41.4	-44.2	19.9	6.06e-01	0	59	0	549978112	53	5219
2026-01-13 12:24:21.13	242.62	44.30	-41.4	-44.1	20.0	6.07e-01	0	59	0	555745280	53	5206
2026-01-13 12:24:24.16	244.49	44.61	-41.4	-44.2	19.9	6.09e-01	0	59	0	561512448	53	5241
2026-01-13 12:24:27.19	246.39	44.89	-41.5	-44.2	19.8	6.06e-01	0	59	0	566755328	53	5270
2026-01-13 12:24:30.21	248.32	45.13	-41.3	-44.0	20.1	6.07e-01	0	58	0	572522496	53	5127
2026-01-13 12:24:33.24	250.29	45.35	-41.6	-44.4	19.7	6.06e-01	0	59	0	578289664	53	5345
2026-01-13 12:24:36.27	252.28	45.52	-41.5	-44.2	19.9	6.07e-01	0	59	0	584056832	53	5255
2026-01-13 12:24:39.30	254.29	45.66	-41.6	-44.4	19.7	6.05e-01	0	59	0	589824000	53	5346
2026-01-13 12:24:42.33	256.31	45.76	-41.6	-44.4	19.7	6.08e-01	0	59	0	595066880	54	5042
2026-01-13 12:24:45.35	258.34	45.83	-41.8	-44.7	19.4	6.08e-01	0	59	0	600834048	54	5231
2026-01-13 12:24:48.38	260.38	45.85	-41.6	-44.4	19.6	6.07e-01	0	59	0	606601216	54	5095
2026-01-13 12:24:51.41	262.42	45.84	-41.7	-44.5	19.6	6.06e-01	0	59	0	612368384	54	5126
2026-01-13 12:24:54.44	264.45	45.78	-41.9	-44.8	19.3	6.07e-01	0	59	0	618135552	54	5340
2026-01-13 12:24:57.47	266.48	45.69	-41.9	-44.8	19.3	6.05e-01	0	59	0	623902720	54	5339
2026-01-13 12:25:00.50	268.49	45.56	-41.9	-45.0	19.2	6.09e-01	0	59	0	629669888	54	5403
2026-01-13 12:25:03.53	270.49	45.40	-41.7	-44.6	19.4	6.05e-01	0	59	0	634912768	54	5208
2026-01-13 12:25:06.56	272.46	45.20	-41.9	-44.8	19.2	6.05e-01	0	59	0	640679936	54	5337
2026-01-13 12:25:09.59	274.40	44.96	-41.8	-44.8	19.4	6.08e-01	0	59	0	646447104	54	5281
2026-01-13 12:25:12.63	276.32	44.69	-41.9	-44.9	19.2	6.05e-01	0	59	0	652214272	54	5372
2026-01-13 12:25:15.66	278.19	44.39	-41.9	-44.9	19.1	6.06e-01	0	59	0	657981440	54	5391
2026-01-13 12:25:18.69	280.03	44.06	-41.8	-44.7	19.4	6.07e-01	0	59	0	663748608	54	5229
2026-01-13 12:25:21.72	281.83	43.70	-41.9	-44.9	19.2	6.05e-01	0	59	0	668991488	54	5343
2026-01-13 12:25:24.75	283.59	43.32	-41.8	-44.7	19.4	6.07e-01	0	59	0	674758656	54	5254
2026-01-13 12:25:27.77	285.30	42.91	-41.8	-44.7	19.3	6.05e-01	0	59	0	680525824	54	5279
2026-01-13 12:25:30.80	286.97	42.48	-41.9	-44.9	19.2	6.06e-01	0	59	0	686292992	54	5373
2026-01-13 12:25:33.83	288.59	42.03	-42.1	-45.2	18.8	6.07e-01	0	59	0	692060160	54	5586
2026-01-13 12:25:36.85	290.17	41.56	-42.1	-45.2	18.9	6.05e-01	0	59	0	697827328	54	5537
2026-01-13 12:25:39.88	291.70	41.08	-42.0	-45.1	18.9	6.05e-01	0	59	0	703070208	54	5500
2026-01-13 12:25:42.91	293.18	40.58	-42.2	-45.4	18.7	6.06e-01	0	59	0	708837376	54	5681
2026-01-13 12:25:45.94	294.62	40.07	-42.2	-45.4	18.7	6.06e-01	0	59	0	714604544	54	5679
2026-01-13 12:25:48.97	296.02	39.55	-42.3	-45.6	18.5	6.06e-01	0	59	0	720371712	55	5490
2026-01-13 12:25:52.00	297.37	39.01	-42.3	-45.5	18.6	6.06e-01	0	59	0	726138880	55	5424
2026-01-13 12:25:55.02	298.67	38.48	-42.1	-45.2	18.9	6.05e-01	0	59	0	731381760	55	5223
2026-01-13 12:25:58.05	299.93	37.93	-42.0	-45.1	19.0	6.06e-01	0	59	0	737148928	55	5161
2026-01-13 12:26:01.09	301.15	37.38	-41.9	-44.9	19.2	6.07e-01	0	59	0	742916096	55	5043
2026-01-13 12:26:04.12	302.33	36.82	-41.7	-44.6	19.5	6.05e-01	0	59	0	748683264	55	4878
2026-01-13 12:26:07.15	303.47	36.27	-41.8	-44.7	19.3	6.06e-01	0	59	0	754450432	55	4976
2026-01-13 12:26:10.18	304.57	35.71	-41.5	-44.3	19.7	6.06e-01	0	59	0	760217600	54	5029
2026-01-13 12:26:13.21	305.63	35.15	-41.3	-43.9	20.1	6.07e-01	0	59	0	765984768	54	4805
2026-01-13 12:26:16.24	306.65	34.59	-41.4	-44.1	20.0	6.06e-01	0	59	0	771227648	54	4884
2026-01-13 12:26:19.27	307.64	34.03	-41.1	-43.7	20.3	6.06e-01	0	59	0	776994816	54	4674
2026-01-13 12:26:22.29	308.60	33.48	-41.1	-43.7	20.3	6.07e-01	0	59	0	782761984	54	4661
2026-01-13 12:26:25.32	309.52	32.93	-41.1	-43.7	20.3	6.04e-01	0	59	0	788529152	54	4656
2026-01-13 12:26:28.35	310.41	32.38	-40.7	-43.2	20.7	6.08e-01	0	59	0	794296320	53	4674
2026-01-13 12:26:31.38	311.27	31.83	-41.0	-43.6	20.4	6.07e-01	0	59	0	799539200	53	4876
2026-01-13 12:26:34.40	312.11	31.29	-41.0	-43.6	20.3	6.06e-01	0	59	0	805306368	53	4917
2026-01-13 12:26:37.43	312.91	30.75	-40.9	-43.4	20.5	6.05e-01	0	59	0	811073536	53	4790
2026-01-13 12:26:40.46	313.69	30.22	-41.0	-43.6	20.3	6.07e-01	0	59	0	816840704	53	4912
2026-01-13 12:26:43.49	314.44	29.69	-41.2	-43.8	20.1	6.09e-01	0	59	0	822607872	53	5032
2026-01-13 12:26:46.52	315.17	29.17	-41.1	-43.7	20.2	6.06e-01	0	59	0	828375040	53	4966
2026-01-13 12:26:49.55	315.88	28.65	-41.2	-43.9	20.0	6.08e-01	0	59	0	834142208	53	5043
2026-01-13 12:26:52.58	316.56	28.14	-41.3	-44.1	19.8	6.06e-01	0	59	0	839385088	53	5188
2026-01-13 12:26:55.61	317.22	27.64	-41.3	-44.1	19.8	6.07e-01	0	59	0	845152256	53	5166
2026-01-13 12:26:58.64	317.87	27.14	-41.3	-44.0	19.9	6.07e-01	0	59	0	850919424	53	5122
2026-01-13 12:27:01.66	318.48	26.65	-41.4	-44.3	19.6	6.09e-01	0	59	0	856686592	53	5282
2026-01-13 12:27:04.69	319.09	26.16	-41.8	-44.8	19.1	6.08e-01	0	59	0	862453760	54	5298
2026-01-13 12:27:07.72	319.67	25.68	-41.9	-45.0	18.8	6.05e-01	0	59	0	867696640	54	5449
2026-01-13 12:27:10.75	320.23	25.21	-41.5	-44.4	19.5	6.07e-01	0	59	0	873463808	54	5046
2026-01-13 12:27:13.78	320.78	24.74	-41.6	-44.5	19.3	6.07e-01	0	59	0	879230976	54	5131
2026-01-13 12:27:16.81	321.32	24.28	-41.7	-44.6	19.1	6.07e-01	0	59	0	884998144	54	5215
2026-01-13 12:27:19.83	321.83	23.83	-41.7	-44.7	19.1	6.07e-01	0	59	0	890765312	54	5235
2026-01-13 12:27:22.86	322.33	23.38	-41.8	-44.9	18.9	6.07e-01	0	59	0	896532480	54	5346
2026-01-13 12:27:25.89	322.82	22.94	-41.7	-44.7	19.0	6.05e-01	0	59	0	902299648	54	5275
2026-01-13 12:27:28.92	323.30	22.51	-41.6	-44.6	19.2	6.06e-01	0	59	0	907542528	54	5174
2026-01-13 12:27:31.95	323.76	22.08	-41.7	-44.8	18.9	6.06e-01	0	59	0	913309696	54	5294
2026-01-13 12:27:34.98	324.20	21.66	-41.5	-44.4	19.3	6.06e-01	0	59	0	919076864	54	5090
2026-01-13 12:27:38.01	324.64	21.24	-41.5	-44.5	19.2	6.07e-01	0	59	0	924844032	54	5112
2026-01-13 12:27:41.04	325.06	20.83	-41.5	-44.5	19.1	6.07e-01	0	59	0	930611200	54	5147
2026-01-13 12:27:44.06	325.48	20.42	-41.5	-44.4	19.2	6.05e-01	0	59	0	935854080	54	5094
2026-01-13 12:27:47.10	325.88	20.02	-41.4	-44.4	19.3	6.05e-01	0	59	0	941621248	54	5056
2026-01-13 12:27:50.12	326.27	19.63	-41.4	-44.3	19.3	6.06e-01	0	59	0	947388416	54	5008
2026-01-13 12:27:53.15	326.65	19.24	-41.4	-44.3	19.3	6.07e-01	0	59	0	953155584	54	5034
2026-01-13 12:27:56.18	327.02	18.86	-41.3	-44.1	19.4	6.05e-01	0	59	0	958922752	54	4925
2026-01-13 12:27:59.21	327.39	18.48	-41.4	-44.4	19.1	6.04e-01	0	59	0	964689920	54	5060
2026-01-13 12:28:02.23	327.74	18.11	-41.2	-44.1	19.4	6.07e-01	0	59	0	970457088	54	4920
2026-01-13 12:28:05.26	328.08	17.75	-41.3	-44.2	19.4	6.06e-01	0	59	0	975699968	54	4937
2026-01-13 12:28:08.29	328.42	17.39	-41.2	-44.0	19.4	6.08e-01	0	59	0	981467136	54	4861
2026-01-13 12:28:11.32	328.75	17.03	-41.2	-44.2	19.3	6.07e-01	0	59	0	987234304	54	4931
2026-01-13 12:28:14.35	329.07	16.68	-41.1	-44.0	19.5	6.07e-01	0	59	0	993001472	54	4817
2026-01-13 12:28:17.38	329.38	16.33	-41.2	-44.1	19.3	6.06e-01	0	59	0	998768640	54	4891
2026-01-13 12:28:20.40	329.69	15.99	-41.1	-44.0	19.3	6.05e-01	0	59	0	1004011520	54	4848
2026-01-13 12:28:23.43	329.99	15.65	-41.3	-44.4	18.9	6.04e-01	0	59	0	1009778688	54	5067
2026-01-13 12:28:26.46	330.28	15.32	-41.2	-44.2	19.2	6.04e-01	0	59	0	1015545856	54	4928
2026-01-13 12:28:29.49	330.56	14.99	-41.2	-44.3	19.0	6.04e-01	0	59	0	1021313024	54	4987
2026-01-13 12:28:32.52	330.84	14.66	-41.3	-44.3	18.9	6.03e-01	0	59	0	1027080192	54	5026
2026-01-13 12:28:35.55	331.12	14.34	-41.2	-44.2	19.0	6.05e-01	0	59	0	1032847360	54	4972
2026-01-13 12:28:38.58	331.38	14.03	-41.2	-44.3	18.8	6.03e-01	0	59	0	1038090240	54	5041
2026-01-13 12:28:41.61	331.64	13.71	-41.3	-44.5	18.6	6.04e-01	0	59	0	1043857408	54	5119
2026-01-13 12:28:44.63	331.90	13.41	-41.3	-44.4	18.6	6.04e-01	0	59	0	1049624576	54	5093
2026-01-13 12:28:47.66	332.15	13.10	-41.3	-44.5	18.5	6.03e-01	0	59	0	1055391744	54	5146
2026-01-13 12:28:50.69	332.40	12.80	-41.4	-44.6	18.4	6.05e-01	0	59	0	1061158912	54	5196
2026-01-13 12:28:53.72	332.64	12.50	-41.3	-44.6	18.4	6.03e-01	0	59	0	1066926080	54	5166
2026-01-13 12:28:56.74	332.87	12.21	-41.3	-44.6	18.3	6.03e-01	0	60	0	1072168960	54	5217
2026-01-13 12:28:59.77	333.10	11.92	-41.4	-44.8	18.1	6.01e-01	0	59	0	1077936128	54	5302
2026-01-13 12:29:02.80	333.33	11.64	-41.4	-44.8	18.0	6.01e-01	0	59	0	1083703296	54	5317
2026-01-13 12:29:05.82	333.55	11.35	-41.5	-44.9	17.9	6.04e-01	0	59	0	1089470464	54	5385
2026-01-13 12:29:08.85	333.77	11.07	-41.5	-45.0	17.7	6.04e-01	0	59	0	1095237632	54	5456
2026-01-13 12:29:11.88	333.98	10.80	-41.6	-45.1	17.6	6.03e-01	0	59	0	1100480512	54	5518
2026-01-13 12:29:14.91	334.19	10.52	-41.5	-45.0	17.6	6.05e-01	0	59	0	1106247680	54	5459
2026-01-13 12:29:17.94	334.40	10.25	-41.6	-45.3	17.4	6.02e-01	0	59	0	1112014848	54	5623
2026-01-13 12:29:20.96	334.60	9.99	-41.6	-45.3	17.3	6.03e-01	0	59	0	1117782016	54	5627
2026-01-13 12:29:23.99	334.80	9.72	-41.5	-45.3	17.2	6.03e-01	0	59	0	1123549184	54	5629
2026-01-13 12:29:27.02	334.99	9.46	-41.6	-45.4	17.1	6.01e-01	0	59	0	1129316352	54	5688
2026-01-13 12:29:30.05	335.18	9.20	-41.7	-45.7	16.7	6.04e-01	0	59	0	1135083520	54	5915
2026-01-13 12:29:33.08	335.37	8.94	-41.7	-45.8	16.6	6.05e-01	0	60	0	1140326400	54	5937
2026-01-13 12:29:36.11	335.55	8.69	-41.7	-45.9	16.4	6.04e-01	0	59	0	1146093568	54	6040
2026-01-13 12:29:39.14	335.74	8.44	-41.6	-45.6	16.6	6.02e-01	0	59	0	1151860736	54	5849
2026-01-13 12:29:42.17	335.91	8.19	-41.7	-46.0	16.2	6.03e-01	0	59	0	1157627904	54	6086
2026-01-13 12:29:45.20	336.09	7.95	-44.9	-62.6	3.8	7.45e-01	0	60	104	1162346496	60	29141
2026-01-13 12:29:48.22	336.26	7.70	-45.9	-64.6	3.8	7.45e-01	0	59	104	1162346496	62	32617
2026-01-13 12:29:51.25	336.43	7.46	-46.2	-64.9	3.8	7.43e-01	0	59	104	1162346496	62	33901
2026-01-13 12:29:54.28	336.60	7.22	-45.4	-64.9	3.8	7.44e-01	0	59	104	1162346496	63	32038
2026-01-13 12:29:57.31	336.76	6.99	-46.2	-65.0	3.8	7.46e-01	0	60	104	1162346496	63	32214
2026-01-13 12:30:00.34	336.92	6.75	-46.1	-64.9	3.8	7.45e-01	0	59	104	1162346496	62	34008
2026-01-13 12:30:03.37	337.08	6.52	-46.1	-64.9	3.8	7.44e-01	0	59	104	1162346496	62	33976
2026-01-13 12:30:06.40	337.24	6.29	-46.1	-64.9	3.8	7.43e-01	0	59	104	1162346496	62	33952
2026-01-13 12:30:09.43	337.39	6.06	-46.1	-64.9	3.8	7.45e-01	0	59	104	1162346496	62	33908
2026-01-13 12:30:12.46	337.54	5.84	-46.1	-64.9	3.8	7.45e-01	0	59	104	1162346496	62	33786
2026-01-13 12:30:15.49	337.69	5.61	-46.1	-64.9	3.8	7.46e-01	0	59	104	1162346496	62	33842
2026-01-13 12:30:18.52	337.84	5.39	-46.1	-64.9	3.8	7.44e-01	0	60	104	1162346496	62	33749
2026-01-13 12:30:21.55	337.99	5.17	-46.1	-64.9	3.8	7.45e-01	0	60	104	1162346496	62	33783
2026-01-13 12:30:24.58	338.13	4.96	-46.1	-64.9	3.8	7.45e-01	0	60	104	1162346496	62	33805
2026-01-13 12:30:27.61	338.27	4.74	-46.1	-64.9	3.8	7.46e-01	0	60	104	1162346496	62	33776
2026-01-13 12:30:30.65	338.41	4.52	-46.0	-64.9	3.8	7.45e-01	0	60	104	1162346496	62	33760
2026-01-13 12:30:33.68	338.54	4.31	-46.1	-64.9	3.8	7.45e-01	0	60	104	1162346496	62	33788
2026-01-13 12:30:36.71	338.68	4.10	-46.1	-64.9	3.8	7.44e-01	0	60	104	1162346496	62	33780
2026-01-13 12:30:39.74	338.81	3.89	-46.1	-64.9	3.8	7.45e-01	0	60	104	1162346496	62	33762
2026-01-13 12:30:42.77	338.94	3.69	-46.1	-64.8	3.8	7.47e-01	0	60	104	1162346496	62	33657
2026-01-13 12:30:45.81	339.07	3.48	-46.1	-64.9	3.8	7.46e-01	0	60	104	1162346496	62	33729
2026-01-13 12:30:48.83	339.20	3.28	-46.1	-64.9	3.8	7.45e-01	0	60	104	1162346496	62	33747
2026-01-13 12:30:51.87	339.33	3.07	-46.1	-64.9	3.8	7.45e-01	0	60	104	1162346496	62	33751
2026-01-13 12:30:54.90	339.45	2.87	-46.1	-64.9	3.8	7.46e-01	0	60	104	1162346496	62	33740
2026-01-13 12:30:57.93	339.57	2.67	-46.1	-64.9	3.8	7.43e-01	0	60	104	1162346496	62	33719
2026-01-13 12:31:00.96	339.69	2.48	-46.1	-64.8	3.8	7.46e-01	0	60	104	1162346496	62	33673
2026-01-13 12:31:04.00	339.81	2.28	-46.1	-64.9	3.8	7.47e-01	0	60	104	1162346496	62	33720
2026-01-13 12:31:07.02	339.93	2.08	-46.1	-64.8	3.8	7.43e-01	0	60	104	1162346496	62	33640

#Closed at: 2026-01-13 12:31:08
#Recorded file [1162 MB]: D:/lorett/data/31039_260113_151832.dat