passes_logs/2026/01/13/R2.0S_Moscow/R2.0S_Moscow__20260113_110223_FENGYUN_3D_rec.log

#Pass ID: 20260113_110223_FENGYUN 3D
#Satellite: FENGYUN 3D
#Configuration: FENGYUN 3D
#almurnet v.1.7.20251203
#Start time: 2026-01-13 11:02:23

#Version: 2.2.20231116
#Station: R2.0S_Moscow
#Location: 37.707566 lon 55.798166 lat
#TLE: 1 43010U 17072A   26012.32543542  .00000598  00000+0  30457-3 0  9997
#TLE: 2 43010  98.9935 344.1005 0002233 112.6136 247.5276 14.19696644422876

#Time	Az	El	Level	Level2	SNR	BER	BlckErr	Temp	State	Recorded	gain1	gain2
2026-01-13 11:02:23.99	133.63	2.02	-15.8	-27.4	3.8	8.40e-01	0	49	0	0	2	14296
2026-01-13 11:02:28.02	133.48	2.27	-14.6	-23.6	3.7	8.34e-01	0	50	104	0	0	10334
2026-01-13 11:02:32.06	133.33	2.52	-13.6	-23.3	3.7	8.39e-01	0	50	104	0	0	9989
2026-01-13 11:02:36.11	133.17	2.78	-14.7	-24.8	3.7	8.42e-01	0	51	104	0	0	11879
2026-01-13 11:02:40.15	133.01	3.03	-13.3	-23.6	3.8	8.33e-01	0	51	104	0	0	10381
2026-01-13 11:02:44.19	132.85	3.29	-16.0	-26.8	3.7	8.39e-01	0	51	104	0	0	14913
2026-01-13 11:02:48.23	132.68	3.56	-13.2	-24.0	3.6	8.40e-01	0	51	104	0	0	10888
2026-01-13 11:02:52.28	132.51	3.82	-21.1	-30.6	3.5	8.42e-01	0	52	104	0	3	19592
2026-01-13 11:02:56.32	132.34	4.09	-12.3	-20.6	3.7	8.39e-01	0	52	104	0	0	7300
2026-01-13 11:03:00.36	132.16	4.36	-12.3	-22.4	3.8	8.41e-01	0	52	104	0	0	8978
2026-01-13 11:03:04.40	131.99	4.63	-13.3	-22.3	3.8	8.42e-01	0	52	104	0	0	8912
2026-01-13 11:03:08.45	131.80	4.90	-15.4	-27.3	3.8	8.38e-01	0	53	104	0	0	15860
2026-01-13 11:03:12.49	131.62	5.18	-12.7	-24.0	3.7	8.35e-01	0	53	104	0	0	10869
2026-01-13 11:03:16.53	131.43	5.46	-13.3	-21.2	3.6	8.39e-01	0	53	104	0	0	7852
2026-01-13 11:03:20.57	131.23	5.74	-13.5	-24.4	3.6	8.33e-01	0	53	104	0	1	10725
2026-01-13 11:03:24.62	131.03	6.03	-12.9	-23.1	3.7	8.34e-01	0	53	104	0	0	9745
2026-01-13 11:03:28.66	130.83	6.32	-11.2	-19.9	3.7	8.43e-01	0	54	104	0	0	6725
2026-01-13 11:03:32.70	130.63	6.61	-12.8	-23.0	3.8	8.41e-01	0	54	104	0	2	8616
2026-01-13 11:03:36.74	130.42	6.90	-14.5	-24.4	3.8	8.38e-01	0	54	104	0	1	10725
2026-01-13 11:03:40.78	130.20	7.20	-13.2	-24.6	3.9	8.30e-01	0	54	0	0	0	11579
2026-01-13 11:03:44.82	129.98	7.50	-16.2	-24.5	3.7	8.32e-01	0	55	104	0	0	11486
2026-01-13 11:03:48.87	129.76	7.80	-14.8	-25.2	3.7	8.36e-01	0	55	104	0	0	12381
2026-01-13 11:03:52.91	129.53	8.10	-20.8	-34.2	3.6	8.23e-01	0	54	0	0	15	14724
2026-01-13 11:03:56.95	129.29	8.41	-14.2	-23.3	3.8	8.38e-01	0	55	104	0	0	10045
2026-01-13 11:04:00.99	129.05	8.73	-12.2	-24.1	3.8	8.32e-01	0	55	104	0	0	11001
2026-01-13 11:04:05.02	128.81	9.04	-13.9	-26.6	3.6	8.31e-01	0	55	104	0	1	13846
2026-01-13 11:04:09.06	128.56	9.36	-18.0	-27.9	3.7	8.10e-01	0	55	104	0	5	12744
2026-01-13 11:04:13.10	128.30	9.69	-12.3	-19.8	3.6	8.42e-01	0	55	104	0	0	6698
2026-01-13 11:04:17.14	128.04	10.01	-15.2	-26.0	3.6	8.43e-01	0	56	104	0	0	13652
2026-01-13 11:04:21.19	127.77	10.34	-14.6	-24.2	3.9	8.34e-01	0	56	104	0	1	10510
2026-01-13 11:04:25.23	127.49	10.68	-12.9	-22.3	3.7	8.43e-01	0	56	104	0	0	8873
2026-01-13 11:04:29.27	127.21	11.02	-18.4	-27.1	3.7	8.42e-01	0	56	104	0	5	11553
2026-01-13 11:04:33.30	126.92	11.36	-14.8	-27.5	4.0	8.32e-01	0	56	104	0	3	13719
2026-01-13 11:04:37.34	126.63	11.70	-22.4	-32.1	3.9	8.34e-01	0	56	104	0	9	16481
2026-01-13 11:04:41.38	126.32	12.06	-20.3	-31.6	3.8	8.36e-01	0	56	104	0	11	13833
2026-01-13 11:04:45.43	126.01	12.41	-19.6	-31.8	3.8	8.45e-01	0	56	104	0	10	14981
2026-01-13 11:04:49.47	125.69	12.77	-24.9	-36.5	4.1	8.37e-01	0	56	104	0	14	20412
2026-01-13 11:04:53.50	125.37	13.13	-21.1	-33.6	4.3	8.38e-01	0	56	104	0	16	12989
2026-01-13 11:04:57.54	125.03	13.50	-27.9	-38.3	4.8	8.28e-01	0	57	104	0	27	11948
2026-01-13 11:05:01.58	124.69	13.88	-32.3	-39.7	5.7	4.17e-01	0	56	0	4194304	28	13194
2026-01-13 11:05:05.62	124.33	14.25	-25.4	-37.4	4.5	6.99e-01	0	57	0	11534336	22	14318
2026-01-13 11:05:09.66	123.97	14.64	-32.5	-41.4	9.8	1.20e-01	0	57	0	28311552	41	7623
2026-01-13 11:05:13.70	123.60	15.02	-35.9	-41.3	10.1	4.56e-02	0	57	0	49283072	42	7041
2026-01-13 11:05:17.74	123.22	15.42	-38.6	-41.2	12.7	2.66e-02	0	57	0	72351744	47	5228
2026-01-13 11:05:21.78	122.82	15.81	-36.4	-40.9	12.7	2.89e-03	0	57	0	94371840	45	5667
2026-01-13 11:05:25.82	122.42	16.22	-38.5	-40.9	13.2	1.58e-03	0	57	0	117440512	47	5089
2026-01-13 11:05:29.86	122.01	16.63	-37.9	-40.7	13.6	8.37e-03	0	57	0	140509184	47	4935
2026-01-13 11:05:33.90	121.58	17.04	-38.4	-40.7	13.6	9.72e-04	0	57	0	163577856	47	4966
2026-01-13 11:05:37.94	121.14	17.46	-38.4	-40.6	12.4	2.23e-03	0	57	0	185597952	47	4921
2026-01-13 11:05:41.98	120.69	17.88	-37.7	-40.2	12.4	5.29e-02	0	57	0	208666624	45	5240
2026-01-13 11:05:46.01	120.23	18.31	-38.1	-40.8	12.5	5.87e-03	0	57	0	230686720	46	5289
2026-01-13 11:05:50.05	119.75	18.75	-38.1	-40.4	14.1	2.93e-03	0	58	0	253755392	46	5086
2026-01-13 11:05:54.09	119.25	19.19	-37.9	-40.0	14.6	6.80e-06	0	57	0	276824064	46	4842
2026-01-13 11:05:58.13	118.75	19.63	-37.6	-39.6	15.1	0.00e+00	0	57	0	298844160	46	4626
2026-01-13 11:06:02.18	118.22	20.09	-37.7	-39.7	14.9	5.70e-06	0	58	0	321912832	46	4681
2026-01-13 11:06:06.21	117.69	20.54	-37.8	-39.8	14.9	1.10e-06	0	58	0	344981504	46	4750
2026-01-13 11:06:10.25	117.13	21.01	-37.7	-39.7	15.0	0.00e+00	0	57	0	367001600	46	4673
2026-01-13 11:06:14.29	116.56	21.48	-37.3	-39.3	15.4	4.50e-06	0	58	0	390070272	46	4458
2026-01-13 11:06:18.33	115.97	21.95	-37.2	-39.1	15.6	0.00e+00	0	58	0	413138944	46	4355
2026-01-13 11:06:22.37	115.36	22.43	-37.2	-39.1	15.7	0.00e+00	0	58	0	435159040	46	4365
2026-01-13 11:06:26.41	114.73	22.92	-37.1	-38.9	15.9	0.00e+00	0	58	0	458227712	46	4272
2026-01-13 11:06:30.44	114.08	23.41	-37.2	-39.0	15.8	0.00e+00	0	58	0	481296384	46	4333
2026-01-13 11:06:34.48	113.41	23.90	-37.1	-39.0	15.9	0.00e+00	0	58	0	503316480	46	4302
2026-01-13 11:06:38.52	112.72	24.41	-37.1	-38.9	15.9	0.00e+00	0	58	0	526385152	46	4283
2026-01-13 11:06:42.57	112.00	24.91	-36.9	-38.8	16.1	0.00e+00	0	58	0	549453824	45	4454
2026-01-13 11:06:46.61	111.26	25.42	-36.9	-38.8	16.1	0.00e+00	0	58	0	571473920	45	4446
2026-01-13 11:06:50.65	110.50	25.94	-36.8	-38.6	16.3	0.00e+00	0	58	0	594542592	45	4342
2026-01-13 11:06:54.69	109.71	26.46	-36.8	-38.6	16.2	0.00e+00	0	58	0	617611264	45	4380
2026-01-13 11:06:58.73	108.90	26.99	-37.0	-38.8	16.1	0.00e+00	0	58	0	639631360	45	4454
2026-01-13 11:07:02.78	108.05	27.51	-36.8	-38.5	16.3	0.00e+00	0	58	0	662700032	45	4326
2026-01-13 11:07:06.81	107.18	28.04	-36.8	-38.5	16.4	0.00e+00	0	58	0	685768704	45	4323
2026-01-13 11:07:10.85	106.28	28.58	-36.9	-38.7	16.2	0.00e+00	0	58	0	708837376	45	4402
2026-01-13 11:07:14.89	105.35	29.11	-36.6	-38.4	16.5	0.00e+00	0	58	0	730857472	45	4258
2026-01-13 11:07:18.93	104.38	29.65	-36.5	-38.2	16.7	0.00e+00	0	58	0	753926144	45	4188
2026-01-13 11:07:22.97	103.39	30.19	-36.7	-38.4	16.5	0.00e+00	0	58	0	775946240	45	4263
2026-01-13 11:07:27.00	102.36	30.72	-36.5	-38.1	16.8	0.00e+00	0	58	0	799014912	44	4387
2026-01-13 11:07:31.04	101.29	31.26	-36.5	-38.3	16.7	0.00e+00	0	58	0	822083584	44	4442
2026-01-13 11:07:35.08	100.19	31.79	-36.5	-38.2	16.8	0.00e+00	0	58	0	844103680	44	4394
2026-01-13 11:07:39.11	99.06	32.32	-36.5	-38.2	16.7	0.00e+00	0	58	0	867172352	44	4432
2026-01-13 11:07:43.15	97.88	32.85	-36.3	-37.9	17.0	0.00e+00	0	58	0	890241024	44	4283
2026-01-13 11:07:47.19	96.66	33.38	-36.2	-37.9	17.1	0.00e+00	0	58	0	913309696	44	4252
2026-01-13 11:07:51.23	95.41	33.89	-36.2	-37.8	17.1	0.00e+00	0	59	0	935329792	44	4231
2026-01-13 11:07:55.26	94.12	34.40	-36.1	-37.8	17.2	0.00e+00	0	59	0	958398464	44	4200
2026-01-13 11:07:59.30	92.78	34.90	-36.3	-37.9	17.1	0.00e+00	0	59	0	980418560	44	4278
2026-01-13 11:08:03.34	91.40	35.39	-36.6	-38.3	16.6	0.00e+00	0	58	0	1003487232	44	4487
2026-01-13 11:08:07.38	89.98	35.87	-36.3	-38.0	17.0	0.00e+00	0	58	0	1026555904	44	4315
2026-01-13 11:08:11.40	88.53	36.33	-36.2	-37.8	17.2	0.00e+00	0	59	0	1048576000	44	4217
2026-01-13 11:08:15.45	87.02	36.78	-36.4	-38.1	17.0	0.00e+00	0	59	0	1071644672	44	4345
2026-01-13 11:08:19.49	85.48	37.21	-36.3	-38.0	17.0	0.00e+00	0	59	0	1094713344	44	4302
2026-01-13 11:08:23.53	83.90	37.62	-36.5	-38.2	16.9	0.00e+00	0	59	0	1116733440	44	4407
2026-01-13 11:08:27.56	82.28	38.01	-36.2	-37.8	17.2	0.00e+00	0	59	0	1139802112	44	4228
2026-01-13 11:08:31.60	80.62	38.38	-36.3	-37.9	17.2	0.00e+00	0	59	0	1162870784	44	4267
2026-01-13 11:08:35.64	78.92	38.72	-36.4	-38.0	17.0	0.00e+00	0	59	0	1184890880	44	4337
2026-01-13 11:08:39.68	77.18	39.04	-36.4	-38.1	17.1	0.00e+00	0	59	0	1207959552	44	4345
2026-01-13 11:08:43.72	75.42	39.33	-36.5	-38.1	17.0	0.00e+00	0	59	0	1231028224	44	4387
2026-01-13 11:08:47.75	73.63	39.59	-36.3	-37.9	17.3	0.00e+00	0	59	0	1253048320	44	4245
2026-01-13 11:08:51.79	71.80	39.82	-35.9	-37.5	17.4	0.00e+00	0	59	0	1276116992	43	4317
2026-01-13 11:08:55.83	69.95	40.02	-36.3	-37.9	17.1	0.00e+00	0	59	0	1299185664	43	4515
2026-01-13 11:08:59.86	68.09	40.19	-36.2	-37.8	17.2	0.00e+00	0	59	0	1321205760	43	4442
2026-01-13 11:09:03.90	66.20	40.32	-36.3	-37.9	17.0	0.00e+00	0	59	0	1344274432	43	4537
2026-01-13 11:09:07.94	64.30	40.42	-36.3	-38.0	17.0	0.00e+00	0	59	0	1367343104	43	4548
2026-01-13 11:09:11.97	62.40	40.48	-36.0	-37.6	17.4	0.00e+00	0	59	0	1389363200	43	4363
2026-01-13 11:09:16.01	60.49	40.50	-36.2	-37.9	17.2	0.00e+00	0	59	0	1412431872	43	4496
2026-01-13 11:09:20.04	58.58	40.49	-36.2	-37.8	17.2	0.00e+00	0	59	0	1435500544	43	4459
2026-01-13 11:09:24.08	56.67	40.44	-36.2	-37.8	17.2	0.00e+00	0	59	0	1457520640	43	4443
2026-01-13 11:09:28.11	54.77	40.36	-36.1	-37.7	17.3	0.00e+00	0	59	0	1480589312	43	4393
2026-01-13 11:09:32.15	52.88	40.24	-35.8	-37.3	17.7	0.00e+00	0	59	0	1503657984	43	4205
2026-01-13 11:09:36.18	51.01	40.08	-35.9	-37.5	17.5	0.00e+00	0	59	0	1525678080	43	4316
2026-01-13 11:09:40.22	49.16	39.90	-36.3	-37.9	17.1	0.00e+00	0	59	0	1548746752	43	4536
2026-01-13 11:09:44.26	47.33	39.68	-35.9	-37.4	17.6	0.00e+00	0	59	0	1570766848	43	4276
2026-01-13 11:09:48.30	45.53	39.43	-35.6	-37.1	17.8	0.00e+00	0	59	0	1593835520	43	4117
2026-01-13 11:09:52.34	43.75	39.15	-36.1	-37.6	17.3	0.00e+00	0	59	0	1616904192	43	4389
2026-01-13 11:09:56.37	42.01	38.84	-35.9	-37.5	17.4	0.00e+00	0	59	0	1638924288	43	4317
2026-01-13 11:10:00.41	40.31	38.50	-35.7	-37.3	17.6	0.00e+00	0	59	0	1661992960	43	4210
2026-01-13 11:10:04.45	38.64	38.14	-35.7	-37.3	17.7	0.00e+00	0	59	0	1685061632	43	4202
2026-01-13 11:10:08.49	37.00	37.76	-36.0	-37.6	17.4	0.00e+00	0	59	0	1708130304	43	4342
2026-01-13 11:10:12.53	35.41	37.36	-35.7	-37.3	17.6	0.00e+00	0	59	0	1730150400	43	4198
2026-01-13 11:10:16.57	33.85	36.93	-35.8	-37.4	17.5	0.00e+00	0	59	0	1753219072	43	4266
2026-01-13 11:10:20.61	32.34	36.49	-36.1	-37.5	17.6	0.00e+00	0	59	0	1775239168	43	4339
2026-01-13 11:10:24.65	30.87	36.04	-36.1	-37.5	17.6	0.00e+00	0	59	0	1798307840	43	4333
2026-01-13 11:10:28.69	29.44	35.57	-36.2	-37.7	17.5	0.00e+00	0	59	0	1821376512	43	4418
2026-01-13 11:10:32.73	28.05	35.08	-36.1	-37.5	17.7	0.00e+00	0	59	0	1844445184	43	4316
2026-01-13 11:10:36.77	26.71	34.59	-36.1	-37.6	17.6	0.00e+00	0	59	0	1866465280	43	4347
2026-01-13 11:10:40.81	25.40	34.08	-35.9	-37.4	17.8	0.00e+00	0	59	0	1889533952	43	4247
2026-01-13 11:10:44.85	24.14	33.57	-35.9	-37.4	17.8	0.00e+00	0	59	0	1912602624	43	4251
2026-01-13 11:10:48.89	22.91	33.05	-36.0	-37.5	17.7	0.00e+00	0	59	0	1934622720	43	4309
2026-01-13 11:10:52.93	21.73	32.53	-36.3	-37.8	17.3	0.00e+00	0	59	0	1957691392	43	4473
2026-01-13 11:10:56.97	20.58	32.00	-36.1	-37.6	17.6	0.00e+00	0	59	0	1979711488	43	4354
2026-01-13 11:11:01.00	19.47	31.47	-36.4	-37.9	17.2	0.00e+00	0	59	0	2002780160	43	4498
2026-01-13 11:11:05.04	18.40	30.93	-36.6	-38.1	17.0	0.00e+00	0	59	0	2025848832	43	4645
2026-01-13 11:11:09.08	17.36	30.40	-36.7	-38.2	16.9	0.00e+00	0	59	0	2048917504	43	4693
2026-01-13 11:11:13.12	16.36	29.86	-36.7	-38.2	16.9	0.00e+00	0	59	0	2070937600	43	4683
2026-01-13 11:11:17.16	15.39	29.33	-36.5	-38.0	17.1	0.00e+00	0	59	0	2094006272	43	4593
2026-01-13 11:11:21.19	14.45	28.80	-36.5	-38.1	17.0	0.00e+00	0	59	0	2117074944	43	4607
2026-01-13 11:11:25.23	13.54	28.26	-37.0	-38.7	16.6	0.00e+00	0	59	0	2139095040	44	4654
2026-01-13 11:11:29.27	12.66	27.73	-36.9	-38.5	16.8	0.00e+00	0	59	0	2162163712	44	4550
2026-01-13 11:11:33.31	11.81	27.21	-37.0	-38.5	16.7	0.00e+00	0	59	0	2184183808	44	4591
2026-01-13 11:11:37.35	10.99	26.68	-37.2	-38.8	16.4	0.00e+00	0	59	0	2207252480	44	4742
2026-01-13 11:11:41.39	10.20	26.17	-37.2	-38.8	16.4	0.00e+00	0	59	0	2230321152	44	4719
2026-01-13 11:11:45.43	9.43	25.65	-37.3	-38.9	16.2	0.00e+00	0	59	0	2253389824	45	4526
2026-01-13 11:11:49.47	8.69	25.14	-37.2	-38.9	16.2	0.00e+00	0	59	0	2275409920	45	4512
2026-01-13 11:11:53.51	7.97	24.63	-37.2	-38.8	16.3	0.00e+00	0	59	0	2298478592	45	4479
2026-01-13 11:11:57.55	7.27	24.13	-37.1	-38.8	16.3	0.00e+00	0	59	0	2321547264	45	4449
2026-01-13 11:12:01.58	6.60	23.64	-37.2	-38.8	16.2	0.00e+00	0	59	0	2343567360	45	4489
2026-01-13 11:12:05.62	5.95	23.14	-37.3	-38.9	16.1	0.00e+00	0	59	0	2366636032	45	4542
2026-01-13 11:12:09.65	5.32	22.66	-37.3	-38.9	16.0	0.00e+00	0	59	0	2388656128	45	4531
2026-01-13 11:12:13.70	4.70	22.18	-37.3	-39.0	15.9	0.00e+00	0	59	0	2411724800	45	4575
2026-01-13 11:12:17.73	4.11	21.70	-37.5	-39.3	15.7	0.00e+00	0	59	0	2434793472	45	4706
2026-01-13 11:12:21.77	3.54	21.24	-37.6	-39.4	15.4	0.00e+00	0	60	0	2456813568	45	4801
2026-01-13 11:12:25.81	2.98	20.77	-37.6	-39.5	15.4	0.00e+00	0	59	0	2479882240	45	4819
2026-01-13 11:12:29.84	2.44	20.31	-37.5	-39.2	15.5	0.00e+00	0	59	0	2502950912	45	4693
2026-01-13 11:12:33.88	1.91	19.86	-37.6	-39.4	15.3	1.10e-06	0	59	0	2526019584	45	4786
2026-01-13 11:12:37.92	1.40	19.42	-38.0	-40.0	14.7	1.10e-06	0	59	0	2548039680	46	4824
2026-01-13 11:12:41.95	0.91	18.98	-38.1	-40.1	14.5	0.00e+00	0	59	0	2571108352	46	4898
2026-01-13 11:12:45.99	0.43	18.54	-38.1	-40.1	14.5	0.00e+00	0	59	0	2593128448	46	4874
2026-01-13 11:12:50.03	359.97	18.11	-38.1	-40.2	14.3	2.20e-06	0	59	0	2616197120	47	4662
2026-01-13 11:12:54.07	359.51	17.69	-38.3	-40.4	13.9	4.50e-06	0	59	0	2639265792	47	4782
2026-01-13 11:12:58.11	359.07	17.27	-38.4	-40.7	13.5	1.14e-05	0	59	0	2661285888	47	4943
2026-01-13 11:13:02.15	358.65	16.85	-38.1	-40.3	13.7	1.48e-05	0	59	0	2684354560	47	4732
2026-01-13 11:13:06.18	358.23	16.44	-38.2	-40.4	13.4	4.00e-05	0	59	0	2707423232	47	4805
2026-01-13 11:13:10.22	357.83	16.04	-38.9	-41.5	12.1	3.78e-04	0	59	0	2729443328	48	5120
2026-01-13 11:13:14.26	357.43	15.64	-38.2	-40.5	12.9	5.37e-05	0	59	0	2752512000	48	4594
2026-01-13 11:13:18.30	357.05	15.25	-38.4	-41.1	12.1	4.27e-04	0	59	0	2775580672	48	4888
2026-01-13 11:13:22.34	356.68	14.86	-38.6	-41.5	11.4	1.34e-03	0	59	0	2797600768	48	5143
2026-01-13 11:13:26.37	356.32	14.48	-39.3	-42.9	9.6	1.21e-02	0	59	0	2820669440	49	5702
2026-01-13 11:13:30.41	355.97	14.10	-40.2	-45.4	6.9	1.73e-01	0	59	0	2843738112	50	7151
2026-01-13 11:13:34.45	355.62	13.73	-40.7	-48.6	4.5	8.21e-01	0	60	0	2853175296	52	9278
2026-01-13 11:13:38.49	355.29	13.36	-40.8	-51.5	3.8	8.47e-01	0	59	104	2853175296	52	12856
2026-01-13 11:13:42.52	354.96	13.00	-40.6	-52.1	3.8	8.47e-01	0	59	104	2853175296	52	13859
2026-01-13 11:13:46.55	354.65	12.64	-40.6	-52.4	3.8	8.46e-01	0	59	104	2853175296	52	14275
2026-01-13 11:13:50.59	354.34	12.28	-40.5	-52.4	3.8	8.46e-01	0	60	104	2853175296	52	14237
2026-01-13 11:13:54.62	354.03	11.93	-40.5	-52.3	3.8	8.46e-01	0	60	104	2853175296	52	14053
2026-01-13 11:13:58.66	353.74	11.58	-40.4	-52.1	3.8	8.46e-01	0	60	104	2853175296	52	13884
2026-01-13 11:14:02.68	353.45	11.24	-40.2	-52.0	3.8	8.45e-01	0	59	104	2853175296	52	13669
2026-01-13 11:14:06.72	353.17	10.90	-40.1	-52.0	3.8	8.47e-01	0	59	104	2853175296	52	13686
2026-01-13 11:14:10.74	352.90	10.57	-40.2	-52.0	3.8	8.45e-01	0	60	104	2853175296	52	13684
2026-01-13 11:14:14.77	352.63	10.24	-40.3	-52.1	3.8	8.46e-01	0	60	104	2853175296	52	13742
2026-01-13 11:14:18.81	352.37	9.91	-40.3	-52.1	3.8	8.45e-01	0	59	104	2853175296	52	13832
2026-01-13 11:14:22.84	352.12	9.59	-40.2	-52.2	3.8	8.47e-01	0	60	104	2853175296	52	13909
2026-01-13 11:14:26.88	351.87	9.27	-40.4	-52.1	3.8	8.47e-01	0	60	104	2853175296	52	13819
2026-01-13 11:14:30.92	351.63	8.95	-40.3	-52.2	3.8	8.45e-01	0	60	104	2853175296	52	13931
2026-01-13 11:14:34.95	351.39	8.64	-40.4	-52.1	3.8	8.46e-01	0	60	104	2853175296	52	13802
2026-01-13 11:14:38.99	351.16	8.33	-40.4	-52.2	3.8	8.46e-01	0	60	104	2853175296	52	13901
2026-01-13 11:14:43.02	350.93	8.02	-40.5	-52.2	3.8	8.46e-01	0	59	104	2853175296	52	13898
2026-01-13 11:14:47.06	350.71	7.72	-44.5	-56.0	3.8	8.47e-01	0	60	104	2853175296	59	14430
2026-01-13 11:14:51.10	350.49	7.42	-45.2	-56.8	3.8	8.47e-01	0	60	104	2853175296	60	15017
2026-01-13 11:14:55.15	350.28	7.12	-45.3	-56.9	3.8	8.46e-01	0	60	104	2853175296	61	14220
2026-01-13 11:14:59.19	350.07	6.83	-45.2	-56.8	3.8	8.46e-01	0	60	104	2853175296	61	14083
2026-01-13 11:15:03.23	349.87	6.54	-45.1	-56.7	3.8	8.45e-01	0	60	104	2853175296	61	13990
2026-01-13 11:15:07.27	349.67	6.25	-45.1	-56.7	3.8	8.47e-01	0	60	104	2853175296	60	14741
2026-01-13 11:15:11.31	349.47	5.96	-44.9	-56.6	3.8	8.46e-01	0	60	104	2853175296	60	14705
2026-01-13 11:15:15.34	349.28	5.68	-45.1	-56.7	3.8	8.45e-01	0	60	104	2853175296	60	14767
2026-01-13 11:15:19.38	349.09	5.40	-44.9	-56.6	3.8	8.46e-01	0	59	104	2853175296	60	14665
2026-01-13 11:15:23.42	348.91	5.13	-45.1	-56.6	3.8	8.47e-01	0	60	104	2853175296	60	14684
2026-01-13 11:15:27.47	348.73	4.85	-45.1	-56.6	3.8	8.46e-01	0	60	104	2853175296	60	14681
2026-01-13 11:15:31.50	348.56	4.58	-45.1	-56.6	3.8	8.45e-01	0	60	104	2853175296	60	14692
2026-01-13 11:15:35.54	348.38	4.31	-45.1	-56.6	3.8	8.46e-01	0	60	104	2853175296	60	14684
2026-01-13 11:15:39.58	348.22	4.04	-45.1	-56.6	3.8	8.45e-01	0	60	104	2853175296	60	14609
2026-01-13 11:15:43.62	348.05	3.78	-45.0	-56.6	3.8	8.45e-01	0	60	104	2853175296	60	14703
2026-01-13 11:15:47.66	347.89	3.51	-45.1	-56.6	3.8	8.45e-01	0	60	104	2853175296	60	14621
2026-01-13 11:15:51.70	347.73	3.25	-45.1	-56.6	3.8	8.45e-01	0	60	104	2853175296	60	14653
2026-01-13 11:15:55.74	347.57	3.00	-45.0	-56.6	3.8	8.46e-01	0	60	104	2853175296	60	14687
2026-01-13 11:15:59.78	347.42	2.74	-45.1	-56.6	3.8	8.46e-01	0	60	104	2853175296	60	14648
2026-01-13 11:16:03.82	347.27	2.49	-45.1	-56.6	3.8	8.47e-01	0	60	104	2853175296	60	14669
2026-01-13 11:16:07.86	347.12	2.23	-45.1	-56.6	3.8	8.45e-01	0	60	104	2853175296	60	14628

#Closed at: 2026-01-13 11:16:11
#Recorded file [2853 MB]: D:/lorett/data/31039_260113_140223.dat