passes_logs/2026/01/13/R2.0S_Moscow/R2.0S_Moscow__20260113_221304_SUOMI_NPP_rec.log

#Pass ID: 20260113_221304_SUOMI NPP
#Satellite: SUOMI NPP
#Configuration: NPP
#almurnet v.1.7.20251203
#Start time: 2026-01-13 22:13:07

#Version: 2.2.20231116
#Station: R2.0S_Moscow
#Location: 37.707566 lon 55.798166 lat
#TLE: 1 37849U 11061A   26013.27136842  .00000065  00000+0  51889-4 0  9990
#TLE: 2 37849  98.7808 315.3349 0002489  66.6776 293.4661 14.19524902736466

#Time	Az	El	Level	Level2	SNR	BER	BlckErr	Temp	State	Recorded	gain1	gain2
2026-01-13 22:13:07.24	25.70	2.13	-42.1	-57.1	3.8	1.49e+00	0	51	0	0	56	19460
2026-01-13 22:13:10.26	25.92	2.29	-41.9	-56.9	3.8	1.49e+00	0	51	104	0	54	21342
2026-01-13 22:13:13.29	26.15	2.46	-41.9	-56.9	3.8	1.49e+00	0	51	104	0	54	21440
2026-01-13 22:13:16.33	26.37	2.62	-41.9	-56.9	3.8	1.49e+00	0	52	104	0	54	21368
2026-01-13 22:13:19.36	26.60	2.79	-41.9	-56.9	3.8	1.49e+00	0	52	104	0	54	21335
2026-01-13 22:13:22.39	26.84	2.96	-41.9	-56.9	3.8	1.49e+00	0	52	104	0	54	21343
2026-01-13 22:13:25.42	27.07	3.12	-41.9	-56.9	3.8	1.49e+00	0	52	104	0	54	21358
2026-01-13 22:13:28.45	27.31	3.29	-41.9	-56.9	3.8	1.49e+00	0	52	104	0	54	21364
2026-01-13 22:13:31.49	27.55	3.46	-41.9	-56.9	3.8	1.49e+00	0	53	104	0	54	21380
2026-01-13 22:13:34.52	27.79	3.63	-41.9	-56.9	3.8	1.49e+00	0	53	104	0	54	21364
2026-01-13 22:13:37.55	28.03	3.80	-41.9	-56.9	3.8	1.49e+00	0	53	104	0	54	21330
2026-01-13 22:13:40.58	28.28	3.97	-41.9	-56.9	3.8	1.49e+00	0	53	104	0	54	21353
2026-01-13 22:13:43.62	28.53	4.15	-41.9	-56.9	3.8	1.49e+00	0	54	104	0	54	21376
2026-01-13 22:13:46.65	28.78	4.32	-41.9	-56.9	3.8	1.49e+00	0	54	104	0	54	21293
2026-01-13 22:13:49.68	29.04	4.49	-41.9	-56.9	3.8	1.49e+00	0	54	104	0	54	21328
2026-01-13 22:13:52.71	29.30	4.66	-41.9	-56.9	3.8	1.49e+00	0	54	104	0	54	21325
2026-01-13 22:13:55.75	29.56	4.84	-41.9	-56.9	3.8	1.49e+00	0	54	104	0	54	21338
2026-01-13 22:13:58.78	29.82	5.01	-41.9	-56.9	3.8	1.49e+00	0	54	104	0	54	21373
2026-01-13 22:14:01.79	30.09	5.19	-41.9	-56.9	3.8	1.49e+00	0	54	104	0	54	21323
2026-01-13 22:14:04.82	30.36	5.37	-41.9	-56.9	3.8	1.49e+00	0	55	104	0	54	21312
2026-01-13 22:14:07.85	30.63	5.54	-41.9	-56.9	3.8	1.49e+00	0	55	104	0	54	21298
2026-01-13 22:14:10.88	30.91	5.72	-41.9	-56.9	3.8	1.49e+00	0	55	104	0	54	21387
2026-01-13 22:14:13.91	31.19	5.90	-41.8	-56.9	3.8	1.49e+00	0	55	104	0	54	21311
2026-01-13 22:14:16.95	31.47	6.08	-41.9	-56.9	3.8	1.49e+00	0	55	104	0	54	21380
2026-01-13 22:14:19.98	31.76	6.26	-41.8	-56.9	3.8	1.49e+00	0	55	104	0	54	21298
2026-01-13 22:14:23.01	32.05	6.44	-41.9	-56.9	3.8	1.49e+00	0	55	104	0	54	21314
2026-01-13 22:14:26.04	32.34	6.62	-41.9	-56.8	3.8	1.49e+00	0	56	104	0	54	21197
2026-01-13 22:14:29.08	32.64	6.80	-41.9	-56.9	3.8	1.49e+00	0	55	104	0	54	21303
2026-01-13 22:14:32.11	32.94	6.99	-41.9	-56.6	3.8	1.49e+00	0	56	104	0	54	20648
2026-01-13 22:14:35.14	33.25	7.17	-41.8	-55.7	3.8	1.49e+00	0	56	104	0	54	18590
2026-01-13 22:14:38.17	33.55	7.35	-41.9	-56.7	3.8	1.49e+00	0	56	104	0	54	20818
2026-01-13 22:14:41.21	33.87	7.54	-41.8	-55.1	3.8	1.49e+00	0	56	104	0	54	17337
2026-01-13 22:14:44.24	34.18	7.72	-41.5	-51.5	4.9	9.32e-01	0	56	0	2097152	54	11429
2026-01-13 22:14:47.27	34.50	7.91	-41.1	-48.8	6.7	3.26e-01	0	56	0	7340032	54	8437
2026-01-13 22:14:50.30	34.82	8.09	-41.1	-47.6	8.3	3.28e-02	0	56	0	13631488	53	7732
2026-01-13 22:14:53.33	35.15	8.28	-41.0	-52.9	3.9	1.49e+00	0	57	104	17825792	53	14373
2026-01-13 22:14:56.36	35.48	8.47	-41.1	-47.5	8.5	3.89e-02	0	57	0	22020096	54	7228
2026-01-13 22:14:59.39	35.82	8.66	-41.3	-47.6	8.5	4.75e-02	0	57	0	28311552	54	7370
2026-01-13 22:15:02.41	36.16	8.85	-41.5	-47.8	8.4	5.55e-02	0	57	0	33554432	54	7524
2026-01-13 22:15:05.44	36.50	9.03	-41.6	-48.1	8.1	5.71e-02	0	57	0	38797312	54	7730
2026-01-13 22:15:08.47	36.85	9.22	-41.7	-47.9	8.4	5.41e-02	0	57	0	45088768	54	7595
2026-01-13 22:15:11.50	37.20	9.42	-41.8	-47.8	8.6	3.09e-02	0	57	0	50331648	54	7475
2026-01-13 22:15:14.53	37.56	9.61	-41.8	-47.5	9.1	3.75e-02	0	57	0	56623104	54	7245
2026-01-13 22:15:17.56	37.92	9.80	-41.9	-47.6	9.1	2.10e-02	0	57	0	61865984	54	7299
2026-01-13 22:15:20.59	38.28	9.99	-42.0	-47.5	9.2	2.14e-02	0	57	0	68157440	54	7259
2026-01-13 22:15:23.62	38.65	10.18	-42.0	-47.3	9.4	1.90e-02	0	57	0	73400320	54	7080
2026-01-13 22:15:26.64	39.03	10.38	-42.0	-47.4	9.4	1.47e-02	0	57	0	78643200	54	7156
2026-01-13 22:15:29.67	39.41	10.57	-41.9	-47.1	9.8	1.11e-02	0	57	0	84934656	54	6898
2026-01-13 22:15:32.70	39.79	10.76	-41.9	-47.0	9.9	8.09e-03	0	57	0	90177536	54	6817
2026-01-13 22:15:35.73	40.18	10.96	-41.9	-46.9	10.0	6.44e-03	0	58	0	96468992	54	6793
2026-01-13 22:15:38.76	40.58	11.15	-42.0	-47.0	10.0	6.36e-03	0	58	0	101711872	54	6851
2026-01-13 22:15:41.79	40.98	11.35	-42.1	-47.2	9.8	8.20e-03	0	58	0	106954752	54	6999
2026-01-13 22:15:44.82	41.38	11.54	-42.2	-47.4	9.6	1.11e-02	0	58	0	113246208	54	7180
2026-01-13 22:15:47.84	41.79	11.74	-42.2	-47.6	9.5	1.26e-02	0	58	0	118489088	55	6892
2026-01-13 22:15:50.88	42.21	11.93	-42.3	-47.6	9.6	1.25e-02	0	58	0	124780544	55	6891
2026-01-13 22:15:53.91	42.63	12.13	-42.0	-46.9	10.2	7.18e-03	0	58	0	130023424	55	6393
2026-01-13 22:15:56.94	43.06	12.33	-42.2	-47.3	9.9	9.41e-03	0	58	0	135266304	55	6691
2026-01-13 22:15:59.96	43.49	12.52	-42.2	-47.4	9.8	1.04e-02	0	58	0	141557760	55	6775
2026-01-13 22:16:02.98	43.93	12.72	-42.1	-46.9	10.3	5.51e-03	0	58	0	146800640	55	6412
2026-01-13 22:16:06.01	44.37	12.92	-41.9	-46.4	10.9	3.26e-03	0	58	0	153092096	55	6040
2026-01-13 22:16:09.04	44.82	13.11	-41.9	-46.5	10.8	2.02e-03	0	58	0	158334976	55	6076
2026-01-13 22:16:12.07	45.27	13.31	-41.9	-46.3	11.0	2.34e-03	0	58	0	164626432	55	5969
2026-01-13 22:16:15.10	45.73	13.51	-41.9	-46.5	10.8	2.23e-03	0	58	0	169869312	55	6067
2026-01-13 22:16:18.13	46.20	13.70	-42.0	-46.6	10.7	2.41e-03	0	59	0	175112192	55	6164
2026-01-13 22:16:21.16	46.67	13.90	-42.0	-46.7	10.6	3.42e-03	0	58	0	181403648	55	6246
2026-01-13 22:16:24.19	47.15	14.10	-42.0	-46.7	10.7	3.08e-03	0	58	0	186646528	55	6224
2026-01-13 22:16:27.21	47.64	14.29	-42.1	-46.9	10.5	4.47e-03	0	59	0	192937984	55	6353
2026-01-13 22:16:30.24	48.13	14.49	-42.2	-47.2	10.1	7.80e-03	0	58	0	198180864	55	6623
2026-01-13 22:16:33.27	48.63	14.68	-42.1	-47.0	10.4	5.39e-03	0	59	0	203423744	55	6468
2026-01-13 22:16:36.30	49.13	14.88	-41.9	-46.4	11.0	1.61e-03	0	58	0	209715200	55	6024
2026-01-13 22:16:39.33	49.64	15.07	-41.9	-46.4	11.0	1.80e-03	0	59	0	214958080	55	6029
2026-01-13 22:16:42.36	50.16	15.27	-42.0	-46.7	10.7	2.94e-03	0	59	0	221249536	55	6210
2026-01-13 22:16:45.38	50.68	15.46	-41.9	-46.4	11.1	2.28e-03	0	59	0	226492416	55	5994
2026-01-13 22:16:48.41	51.21	15.65	-41.8	-46.2	11.3	1.13e-03	0	59	0	232783872	55	5857
2026-01-13 22:16:51.44	51.75	15.84	-41.6	-45.9	11.6	8.69e-04	0	59	0	238026752	55	5669
2026-01-13 22:16:54.47	52.30	16.03	-41.6	-45.8	11.7	6.77e-04	0	59	0	243269632	55	5633
2026-01-13 22:16:57.50	52.85	16.22	-41.6	-45.9	11.6	5.73e-04	0	59	0	249561088	55	5696
2026-01-13 22:17:00.53	53.40	16.41	-41.7	-46.0	11.5	7.44e-04	0	59	0	254803968	55	5747
2026-01-13 22:17:03.56	53.97	16.60	-41.7	-46.0	11.4	7.30e-04	0	59	0	261095424	55	5780
2026-01-13 22:17:06.58	54.54	16.79	-41.7	-45.9	11.6	5.90e-04	0	59	0	266338304	55	5711
2026-01-13 22:17:09.61	55.12	16.97	-41.6	-45.8	11.7	4.96e-04	0	59	0	271581184	55	5608
2026-01-13 22:17:12.64	55.70	17.16	-41.8	-46.2	11.3	9.88e-04	0	59	0	277872640	55	5900
2026-01-13 22:17:15.67	56.30	17.34	-41.9	-46.3	11.2	1.49e-03	0	59	0	283115520	55	5986
2026-01-13 22:17:18.70	56.89	17.52	-41.7	-46.0	11.5	7.90e-04	0	59	0	289406976	55	5760
2026-01-13 22:17:21.73	57.50	17.70	-41.9	-46.4	11.1	1.37e-03	0	59	0	294649856	55	6044
2026-01-13 22:17:24.76	58.12	17.88	-42.1	-46.8	10.7	3.75e-03	0	59	0	300941312	55	6317
2026-01-13 22:17:27.79	58.74	18.05	-42.1	-46.7	10.8	2.47e-03	0	59	0	306184192	55	6259
2026-01-13 22:17:30.82	59.36	18.23	-42.3	-47.2	10.3	4.11e-03	0	59	0	311427072	55	6573
2026-01-13 22:17:33.84	60.00	18.40	-42.4	-47.6	9.9	7.95e-03	0	59	0	317718528	55	6913
2026-01-13 22:17:36.87	60.64	18.57	-42.6	-47.9	9.6	1.21e-02	0	59	0	322961408	55	7190
2026-01-13 22:17:39.90	61.29	18.73	-42.9	-48.6	9.0	2.16e-02	0	59	0	329252864	56	7297
2026-01-13 22:17:42.93	61.94	18.90	-42.8	-48.3	9.4	1.58e-02	0	59	0	334495744	56	7041
2026-01-13 22:17:45.95	62.60	19.06	-42.9	-48.6	9.0	2.04e-02	0	59	0	339738624	56	7352
2026-01-13 22:17:48.98	63.27	19.22	-42.8	-48.3	9.3	1.93e-02	0	59	0	346030080	56	7055
2026-01-13 22:17:52.01	63.95	19.37	-42.7	-48.0	9.6	1.23e-02	0	59	0	351272960	56	6805
2026-01-13 22:17:55.04	64.63	19.53	-42.7	-48.1	9.5	1.28e-02	0	59	0	357564416	56	6891
2026-01-13 22:17:58.07	65.32	19.68	-42.3	-47.0	10.6	4.15e-03	0	59	0	362807296	56	6106
2026-01-13 22:18:01.10	66.02	19.82	-42.2	-46.9	10.7	2.87e-03	0	60	0	369098752	56	6010
2026-01-13 22:18:04.13	66.72	19.97	-42.3	-47.2	10.3	6.04e-03	0	60	0	374341632	56	6261
2026-01-13 22:18:07.16	67.43	20.11	-42.2	-46.9	10.6	3.41e-03	0	59	0	379584512	56	6026
2026-01-13 22:18:10.19	68.15	20.24	-42.3	-47.4	9.9	8.05e-03	0	60	0	385875968	56	6383
2026-01-13 22:18:13.22	68.87	20.38	-42.2	-47.3	9.9	8.69e-03	0	59	0	391118848	56	6347
2026-01-13 22:18:16.25	69.60	20.51	-41.7	-46.2	10.8	2.15e-03	0	60	0	397410304	55	5915
2026-01-13 22:18:19.28	70.33	20.63	-41.8	-46.6	10.4	3.39e-03	0	60	0	402653184	55	6163
2026-01-13 22:18:22.31	71.07	20.75	-41.9	-47.2	9.7	8.65e-03	0	60	0	407896064	55	6582
2026-01-13 22:18:25.34	71.82	20.87	-42.0	-47.7	9.0	2.07e-02	0	59	0	414187520	55	7020
2026-01-13 22:18:28.37	72.57	20.98	-41.8	-47.1	9.6	1.38e-02	0	60	0	419430400	55	6537
2026-01-13 22:18:31.40	73.32	21.09	-41.7	-46.4	10.5	3.77e-03	0	60	0	425721856	55	6011
2026-01-13 22:18:34.42	74.08	21.19	-41.6	-46.3	10.5	3.75e-03	0	60	0	430964736	55	5990
2026-01-13 22:18:37.45	74.85	21.29	-41.5	-46.1	10.8	1.91e-03	0	60	0	437256192	54	6175
2026-01-13 22:18:40.48	75.62	21.38	-41.9	-46.9	10.0	7.12e-03	0	60	0	442499072	54	6768
2026-01-13 22:18:43.51	76.40	21.47	-41.7	-46.3	10.7	2.95e-03	0	60	0	447741952	54	6332
2026-01-13 22:18:46.54	77.18	21.56	-41.8	-46.8	10.2	5.17e-03	0	60	0	454033408	54	6664
2026-01-13 22:18:49.57	77.96	21.64	-41.9	-46.9	10.0	8.42e-03	0	60	0	459276288	54	6770
2026-01-13 22:18:52.60	78.75	21.71	-41.7	-46.3	10.8	2.61e-03	0	60	0	465567744	54	6302
2026-01-13 22:18:55.63	79.54	21.78	-42.0	-47.0	10.0	7.88e-03	0	60	0	470810624	54	6864
2026-01-13 22:18:58.66	80.34	21.84	-41.7	-46.4	10.7	4.53e-03	0	60	0	476053504	54	6389
2026-01-13 22:19:01.69	81.13	21.90	-41.8	-46.5	10.5	3.32e-03	0	60	0	482344960	54	6478
2026-01-13 22:19:04.72	81.94	21.95	-41.8	-46.1	11.0	2.22e-03	0	60	0	487587840	54	6176
2026-01-13 22:19:07.75	82.74	22.00	-41.9	-46.3	10.8	1.74e-03	0	60	0	493879296	54	6322
2026-01-13 22:19:10.78	83.54	22.04	-42.0	-46.6	10.5	4.24e-03	0	60	0	499122176	54	6563
2026-01-13 22:19:13.80	84.35	22.07	-42.0	-46.9	10.2	4.04e-03	0	60	0	505413632	54	6730
2026-01-13 22:19:16.83	85.16	22.10	-42.5	-48.1	8.9	2.36e-02	0	60	0	510656512	55	7321
2026-01-13 22:19:19.86	85.97	22.13	-42.5	-48.1	8.9	3.13e-02	0	60	0	515899392	55	7356
2026-01-13 22:19:22.88	86.78	22.15	-42.2	-47.5	9.6	1.21e-02	0	60	0	522190848	55	6820
2026-01-13 22:19:25.91	87.59	22.16	-42.0	-46.8	10.3	4.99e-03	0	60	0	527433728	55	6334
2026-01-13 22:19:28.94	88.41	22.16	-42.1	-46.9	10.3	6.37e-03	0	60	0	533725184	55	6387
2026-01-13 22:19:31.97	89.22	22.16	-42.1	-46.9	10.3	5.39e-03	0	60	0	538968064	55	6398
2026-01-13 22:19:35.00	90.03	22.16	-41.9	-46.4	10.9	2.60e-03	0	60	0	544210944	55	6002
2026-01-13 22:19:38.03	90.85	22.15	-41.8	-45.9	11.4	9.83e-04	0	60	0	550502400	55	5700
2026-01-13 22:19:41.05	91.66	22.13	-41.7	-45.8	11.6	6.10e-04	0	60	0	555745280	55	5593
2026-01-13 22:19:44.08	92.47	22.11	-41.8	-45.9	11.6	6.61e-04	0	60	0	562036736	55	5688
2026-01-13 22:19:47.12	93.28	22.08	-41.9	-46.0	11.5	7.51e-04	0	60	0	567279616	55	5732
2026-01-13 22:19:50.14	94.09	22.05	-41.9	-45.9	11.7	5.02e-04	0	60	0	573571072	55	5672
2026-01-13 22:19:53.17	94.89	22.01	-42.1	-46.3	11.3	1.07e-03	0	60	0	578813952	55	5962
2026-01-13 22:19:56.20	95.70	21.96	-41.9	-45.9	11.7	6.57e-04	0	60	0	584056832	55	5675
2026-01-13 22:19:59.23	96.50	21.91	-42.2	-46.5	11.2	1.06e-03	0	60	0	590348288	55	6068
2026-01-13 22:20:02.26	97.30	21.85	-42.2	-46.6	11.0	1.77e-03	0	60	0	595591168	55	6191
2026-01-13 22:20:05.28	98.10	21.79	-41.7	-45.4	12.3	2.36e-04	0	60	0	601882624	55	5389
2026-01-13 22:20:08.31	98.89	21.72	-41.8	-45.7	12.0	2.58e-04	0	60	0	607125504	55	5536
2026-01-13 22:20:11.34	99.68	21.65	-41.7	-45.4	12.3	2.04e-04	0	60	0	612368384	55	5385
2026-01-13 22:20:14.37	100.47	21.57	-41.6	-45.2	12.6	1.04e-04	0	60	0	618659840	55	5221
2026-01-13 22:20:17.40	101.25	21.49	-41.7	-45.4	12.3	1.69e-04	0	60	0	623902720	55	5365
2026-01-13 22:20:20.43	102.03	21.40	-41.6	-45.3	12.4	1.77e-04	0	60	0	630194176	55	5327
2026-01-13 22:20:23.45	102.80	21.31	-41.7	-45.3	12.4	1.38e-04	0	60	0	635437056	55	5340
2026-01-13 22:20:26.48	103.57	21.21	-41.9	-45.8	11.9	3.49e-04	0	60	0	640679936	55	5649
2026-01-13 22:20:29.51	104.33	21.11	-41.7	-45.4	12.3	2.14e-04	0	60	0	646971392	55	5387
2026-01-13 22:20:32.54	105.09	21.00	-41.5	-45.2	12.6	1.14e-04	0	60	0	652214272	55	5226
2026-01-13 22:20:35.57	105.85	20.89	-41.5	-45.0	12.8	8.77e-05	0	60	0	658505728	54	5435
2026-01-13 22:20:38.60	106.60	20.77	-41.5	-45.1	12.6	9.99e-05	0	60	0	663748608	54	5516
2026-01-13 22:20:41.63	107.34	20.65	-41.7	-45.4	12.3	2.17e-04	0	60	0	670040064	54	5720
2026-01-13 22:20:44.65	108.07	20.53	-41.7	-45.3	12.4	1.53e-04	0	60	0	675282944	54	5655
2026-01-13 22:20:47.68	108.81	20.40	-41.8	-45.6	12.1	2.14e-04	0	60	0	680525824	54	5824
2026-01-13 22:20:50.71	109.53	20.27	-42.0	-46.0	11.7	7.23e-04	0	60	0	686817280	54	6106
2026-01-13 22:20:53.74	110.25	20.13	-41.7	-45.5	12.2	1.82e-04	0	60	0	692060160	54	5766
2026-01-13 22:20:56.77	110.96	19.99	-41.4	-45.0	12.8	8.23e-05	0	60	0	698351616	54	5417
2026-01-13 22:20:59.80	111.67	19.85	-41.8	-45.6	12.2	1.80e-04	0	60	0	703594496	54	5838
2026-01-13 22:21:02.82	112.37	19.70	-42.5	-47.1	10.5	3.18e-03	0	60	0	708837376	55	6537
2026-01-13 22:21:05.85	113.06	19.55	-42.5	-47.3	10.3	5.10e-03	0	60	0	715128832	55	6667
2026-01-13 22:21:08.88	113.75	19.40	-42.4	-46.9	10.7	2.61e-03	0	60	0	720371712	55	6407
2026-01-13 22:21:11.91	114.43	19.24	-42.3	-46.7	10.9	2.13e-03	0	60	0	726663168	55	6261
2026-01-13 22:21:14.94	115.11	19.08	-42.2	-46.5	11.1	1.29e-03	0	60	0	731906048	55	6117
2026-01-13 22:21:17.97	115.77	18.92	-42.3	-46.8	10.8	2.04e-03	0	60	0	738197504	55	6309
2026-01-13 22:21:21.00	116.43	18.75	-42.1	-46.3	11.3	1.40e-03	0	61	0	743440384	55	5991
2026-01-13 22:21:24.03	117.08	18.59	-42.4	-47.1	10.5	2.75e-03	0	60	0	748683264	55	6496
2026-01-13 22:21:27.05	117.73	18.42	-43.0	-48.5	9.3	1.68e-02	0	60	0	754974720	56	7209
2026-01-13 22:21:30.08	118.37	18.24	-41.4	-47.4	9.3	8.43e-03	0	60	0	760217600	54	7136
2026-01-13 22:21:33.11	119.00	18.07	-42.2	-46.7	10.8	2.97e-03	0	60	0	766509056	55	6252
2026-01-13 22:21:36.14	119.62	17.89	-42.5	-47.4	10.1	8.76e-03	0	60	0	771751936	55	6747
2026-01-13 22:21:39.18	120.24	17.71	-42.4	-47.0	10.6	4.65e-03	0	60	0	776994816	55	6426
2026-01-13 22:21:42.20	120.85	17.54	-42.2	-46.7	10.8	1.98e-02	0	60	0	783286272	55	6221
2026-01-13 22:21:45.23	121.45	17.35	-42.3	-46.9	10.6	3.02e-03	0	60	0	788529152	55	6385
2026-01-13 22:21:48.26	122.05	17.17	-42.1	-46.4	11.1	1.86e-03	0	60	0	794820608	55	6045
2026-01-13 22:21:51.29	122.64	16.98	-42.1	-46.4	11.2	1.43e-03	0	60	0	800063488	55	5999
2026-01-13 22:21:54.31	123.22	16.80	-42.3	-47.0	10.5	4.15e-03	0	60	0	806354944	55	6443
2026-01-13 22:21:57.35	123.80	16.61	-41.9	-46.1	11.4	1.77e-03	0	60	0	811597824	55	5833
2026-01-13 22:22:00.37	124.36	16.42	-41.7	-45.6	11.8	4.42e-04	0	60	0	816840704	54	5847
2026-01-13 22:22:03.40	124.93	16.23	-42.0	-46.3	11.1	1.17e-03	0	60	0	823132160	54	6345
2026-01-13 22:22:06.43	125.48	16.04	-42.2	-46.7	10.7	5.16e-03	0	60	0	828375040	54	6618
2026-01-13 22:22:09.46	126.03	15.85	-41.5	-46.9	10.5	4.13e-03	0	60	0	834666496	53	7164
2026-01-13 22:22:12.49	126.57	15.65	-42.3	-47.5	9.8	9.69e-03	0	60	0	839909376	55	6868
2026-01-13 22:22:15.51	127.10	15.46	-42.1	-47.1	10.2	7.93e-03	0	60	0	845152256	55	6511
2026-01-13 22:22:18.54	127.63	15.26	-36.9	-46.0	10.8	9.15e-02	0	61	0	851443712	44	10837
2026-01-13 22:22:21.57	128.15	15.07	-41.6	-45.9	11.0	1.14e-02	0	60	0	856686592	53	6383
2026-01-13 22:22:24.60	128.66	14.87	-40.8	-46.8	9.2	6.94e-02	0	61	0	861929472	51	7963
2026-01-13 22:22:27.64	129.17	14.68	-40.8	-45.7	10.0	5.94e-02	0	60	0	868220928	52	6643
2026-01-13 22:22:30.67	129.67	14.48	-40.1	-45.3	10.2	2.89e-01	0	60	0	870318080	50	7112
2026-01-13 22:22:33.70	130.17	14.28	-39.1	-45.4	8.9	1.65e-01	0	60	0	873463808	45	9516
2026-01-13 22:22:36.73	130.66	14.08	-39.1	-46.0	8.6	4.07e-01	0	61	0	876609536	48	8650
2026-01-13 22:22:39.76	131.14	13.88	-31.7	-43.6	7.3	2.93e-01	0	60	0	879755264	40	10398
2026-01-13 22:22:42.79	131.61	13.69	-37.8	-46.5	7.1	8.48e-01	0	61	104	882900992	45	10886
2026-01-13 22:22:45.82	132.08	13.49	-33.9	-46.3	5.2	1.29e+00	0	60	104	884998144	44	11214
2026-01-13 22:22:48.84	132.54	13.29	-38.3	-46.6	7.3	6.76e-01	0	61	0	884998144	46	10344
2026-01-13 22:22:51.88	133.00	13.09	-36.3	-45.4	7.8	3.77e-01	0	60	0	889192448	41	12037
2026-01-13 22:22:54.90	133.45	12.89	-38.5	-46.2	4.0	3.66e-01	0	61	104	893386752	41	13169
2026-01-13 22:22:57.93	133.90	12.69	-37.7	-46.3	7.5	3.79e-01	0	60	0	896532480	43	11901
2026-01-13 22:23:00.96	134.34	12.49	-40.1	-47.1	8.1	4.09e-01	0	61	0	900726784	49	9268
2026-01-13 22:23:03.99	134.77	12.30	-40.4	-47.0	8.0	2.00e-01	0	60	0	907018240	46	10780
2026-01-13 22:23:07.02	135.20	12.10	-40.6	-47.1	8.2	1.16e-01	0	60	0	910163968	51	8220
2026-01-13 22:23:10.05	135.63	11.90	-40.8	-47.3	8.7	2.88e-01	0	60	0	916455424	53	7466
2026-01-13 22:23:13.08	136.04	11.70	-40.5	-46.6	9.1	8.29e-02	0	60	0	921698304	51	7767
2026-01-13 22:23:16.11	136.46	11.50	-41.0	-46.3	9.8	4.68e-02	0	61	0	927989760	51	7465
2026-01-13 22:23:19.14	136.86	11.31	-41.6	-46.8	9.2	4.45e-02	0	61	0	933232640	52	7529
2026-01-13 22:23:22.17	137.26	11.11	-40.7	-46.9	9.2	4.21e-02	0	60	0	938475520	53	7164
2026-01-13 22:23:25.20	137.66	10.91	-40.4	-46.5	9.5	5.04e-02	0	60	0	943718400	51	7676
2026-01-13 22:23:28.22	138.05	10.72	-31.8	-48.4	8.0	3.40e-02	0	61	0	950009856	51	9600
2026-01-13 22:23:31.25	138.44	10.52	-42.2	-51.4	4.5	2.54e-01	0	60	104	954204160	46	17924
2026-01-13 22:23:34.28	138.82	10.33	-42.7	-52.9	4.6	8.10e-01	0	61	0	956301312	55	12691
2026-01-13 22:23:37.31	139.19	10.13	-42.6	-51.2	5.5	5.50e-01	0	61	0	960495616	55	10495
2026-01-13 22:23:40.33	139.56	9.94	-41.3	-46.5	7.8	1.86e-02	0	61	0	965738496	44	11448
2026-01-13 22:23:43.36	139.93	9.74	-41.7	-47.1	9.2	3.95e-02	0	60	0	972029952	54	6908
2026-01-13 22:23:46.39	140.29	9.55	-41.7	-47.1	9.4	1.82e-02	0	60	0	977272832	54	6916
2026-01-13 22:23:49.42	140.65	9.36	-41.9	-47.4	9.0	1.98e-02	0	61	0	982515712	54	7147
2026-01-13 22:23:52.45	141.00	9.16	-41.9	-47.3	9.2	3.43e-02	0	61	0	988807168	54	7097
2026-01-13 22:23:55.47	141.35	8.97	-42.2	-47.9	8.6	3.25e-02	0	60	0	994050048	54	7624
2026-01-13 22:23:58.50	141.69	8.78	-42.2	-48.0	8.5	4.10e-02	0	60	0	1000341504	55	7262
2026-01-13 22:24:01.53	142.03	8.59	-42.1	-47.8	8.7	3.44e-02	0	61	0	1005584384	55	7085
2026-01-13 22:24:04.56	142.37	8.40	-42.1	-48.0	8.5	4.25e-02	0	61	0	1011875840	55	7216
2026-01-13 22:24:07.59	142.70	8.21	-42.0	-47.5	9.0	2.72e-02	0	61	0	1017118720	54	7271
2026-01-13 22:24:10.62	143.03	8.02	-43.5	-54.2	4.7	2.91e-02	0	61	0	1022361600	57	13131
2026-01-13 22:24:13.65	143.35	7.83	-45.0	-59.6	3.8	1.49e+00	0	61	104	1022361600	60	20623
2026-01-13 22:24:16.68	143.67	7.64	-45.4	-60.0	3.8	1.49e+00	0	60	104	1022361600	61	20446
2026-01-13 22:24:19.71	143.99	7.46	-45.5	-60.1	3.8	1.49e+00	0	61	104	1022361600	61	20682
2026-01-13 22:24:22.74	144.30	7.27	-45.3	-59.9	3.8	1.49e+00	0	61	104	1022361600	61	20228
2026-01-13 22:24:25.78	144.61	7.09	-45.2	-59.7	3.8	1.49e+00	0	61	104	1022361600	61	19820
2026-01-13 22:24:28.81	144.91	6.90	-45.2	-59.7	3.8	1.49e+00	0	60	104	1022361600	61	19813
2026-01-13 22:24:31.84	145.21	6.72	-45.2	-59.7	3.8	1.49e+00	0	61	104	1022361600	61	19757
2026-01-13 22:24:34.87	145.51	6.53	-45.2	-59.7	3.8	1.49e+00	0	61	104	1022361600	61	19729
2026-01-13 22:24:37.91	145.80	6.35	-45.2	-59.7	3.8	1.49e+00	0	60	104	1022361600	61	19745
2026-01-13 22:24:40.94	146.09	6.17	-45.2	-59.7	3.8	1.49e+00	0	61	104	1022361600	61	19717
2026-01-13 22:24:43.97	146.37	5.98	-45.2	-59.7	3.8	1.49e+00	0	61	104	1022361600	61	19684
2026-01-13 22:24:47.00	146.66	5.80	-45.2	-59.7	3.8	1.49e+00	0	61	104	1022361600	61	19716
2026-01-13 22:24:50.03	146.94	5.62	-45.2	-59.7	3.8	1.49e+00	0	61	104	1022361600	61	19660
2026-01-13 22:24:53.07	147.21	5.44	-45.2	-59.7	3.8	1.49e+00	0	61	104	1022361600	61	19646
2026-01-13 22:24:56.10	147.49	5.26	-45.2	-59.7	3.8	1.49e+00	0	61	104	1022361600	61	19650
2026-01-13 22:24:59.14	147.76	5.08	-45.2	-59.7	3.8	1.49e+00	0	61	104	1022361600	61	19632
2026-01-13 22:25:02.17	148.02	4.91	-45.2	-59.7	3.8	1.49e+00	0	61	104	1022361600	61	19661
2026-01-13 22:25:05.20	148.29	4.73	-45.2	-59.7	3.8	1.49e+00	0	61	104	1022361600	61	19619
2026-01-13 22:25:08.23	148.55	4.55	-45.2	-59.7	3.8	1.49e+00	0	61	104	1022361600	61	19646
2026-01-13 22:25:11.26	148.80	4.38	-45.2	-59.7	3.8	1.49e+00	0	61	104	1022361600	61	19697
2026-01-13 22:25:14.30	149.06	4.20	-45.2	-59.6	3.8	1.49e+00	0	61	104	1022361600	61	19605
2026-01-13 22:25:17.33	149.31	4.03	-45.1	-59.6	3.8	1.49e+00	0	61	104	1022361600	61	19588
2026-01-13 22:25:20.36	149.56	3.86	-45.2	-59.6	3.8	1.49e+00	0	61	104	1022361600	61	19589
2026-01-13 22:25:23.40	149.80	3.68	-45.1	-59.6	3.8	1.49e+00	0	61	104	1022361600	61	19599
2026-01-13 22:25:26.43	150.05	3.51	-45.2	-59.7	3.8	1.49e+00	0	61	104	1022361600	61	19624
2026-01-13 22:25:29.46	150.29	3.34	-45.1	-59.6	3.8	1.49e+00	0	60	104	1022361600	61	19573
2026-01-13 22:25:32.49	150.52	3.17	-45.1	-59.6	3.8	1.49e+00	0	61	104	1022361600	61	19536
2026-01-13 22:25:35.53	150.76	3.00	-45.1	-59.6	3.8	1.49e+00	0	61	104	1022361600	61	19559
2026-01-13 22:25:38.56	150.99	2.83	-45.1	-59.6	3.8	1.49e+00	0	60	104	1022361600	61	19605
2026-01-13 22:25:41.59	151.22	2.66	-45.1	-59.6	3.8	1.49e+00	0	61	104	1022361600	61	19579
2026-01-13 22:25:44.62	151.45	2.49	-45.1	-59.6	3.8	1.49e+00	0	60	104	1022361600	61	19570
2026-01-13 22:25:47.66	151.67	2.32	-45.1	-59.6	3.8	1.49e+00	0	61	104	1022361600	61	19555
2026-01-13 22:25:50.69	151.90	2.16	-45.1	-59.6	3.8	1.49e+00	0	61	104	1022361600	61	19538
2026-01-13 22:25:53.72	152.12	1.99	-45.1	-59.6	3.8	1.49e+00	0	61	104	1022361600	61	19496

#Closed at: 2026-01-13 22:25:54
#Recorded file [1022 MB]: D:/lorett/data/31039_260114_011307.dat