passes_logs/2026/01/13/R2.0S_Moscow/R2.0S_Moscow__20260113_142720_FENGYUN_3E_rec.log

#Pass ID: 20260113_142720_FENGYUN 3E
#Satellite: FENGYUN 3E
#Configuration: FENGYUN 3E
#almurnet v.1.7.20251203
#Start time: 2026-01-13 14:27:20

#Version: 2.2.20231116
#Station: R2.0S_Moscow
#Location: 37.707566 lon 55.798166 lat
#TLE: 1 49008U 21062A   26012.89166517 -.00000229  00000+0 -86979-4 0  9993
#TLE: 2 49008  98.7492  18.0449 0001954 141.1957 218.9360 14.19884302234542

#Time	Az	El	Level	Level2	SNR	BER	BlckErr	Temp	State	Recorded	gain1	gain2
2026-01-13 14:27:20.81	168.05	2.04	-44.2	-55.2	3.8	8.48e-01	0	50	0	0	59	12387
2026-01-13 14:27:24.84	168.11	2.30	-44.2	-55.2	3.8	8.47e-01	0	51	104	0	59	12394
2026-01-13 14:27:28.88	168.16	2.56	-44.2	-55.1	3.8	8.46e-01	0	51	104	0	59	12330
2026-01-13 14:27:32.93	168.22	2.82	-44.2	-55.2	3.8	8.46e-01	0	51	104	0	59	12384
2026-01-13 14:27:36.97	168.28	3.09	-44.2	-55.2	3.8	8.45e-01	0	52	104	0	59	12396
2026-01-13 14:27:41.01	168.34	3.36	-44.2	-55.2	3.8	8.46e-01	0	52	104	0	59	12419
2026-01-13 14:27:45.05	168.40	3.63	-44.2	-55.1	3.8	8.45e-01	0	52	104	0	59	12334
2026-01-13 14:27:49.09	168.46	3.91	-44.2	-55.1	3.8	8.45e-01	0	53	104	0	59	12336
2026-01-13 14:27:53.13	168.52	4.19	-44.2	-55.0	3.8	8.45e-01	0	53	104	0	59	12118
2026-01-13 14:27:57.17	168.59	4.47	-44.1	-54.3	3.8	8.47e-01	0	53	104	0	59	11267
2026-01-13 14:28:01.21	168.65	4.75	-43.8	-52.7	3.8	8.44e-01	0	53	104	0	58	9902
2026-01-13 14:28:05.26	168.72	5.04	-43.4	-50.6	4.5	8.18e-01	0	54	0	0	57	8249
2026-01-13 14:28:09.30	168.79	5.33	-43.0	-49.1	5.3	7.45e-01	0	54	0	0	57	6951
2026-01-13 14:28:13.34	168.85	5.63	-42.8	-48.6	5.6	6.24e-01	0	54	0	10485760	56	6894
2026-01-13 14:28:17.38	168.92	5.92	-42.6	-48.3	5.8	4.96e-01	0	54	0	36700160	55	7042
2026-01-13 14:28:21.43	168.99	6.22	-42.8	-49.1	5.2	7.20e-01	0	55	0	56623104	55	7725
2026-01-13 14:28:25.47	169.07	6.53	-43.2	-50.6	4.5	8.16e-01	0	55	0	58720256	55	9199
2026-01-13 14:28:29.51	169.14	6.84	-43.7	-52.5	3.9	8.43e-01	0	55	104	58720256	56	10845
2026-01-13 14:28:33.55	169.21	7.15	-43.1	-49.6	5.0	7.91e-01	0	55	0	58720256	57	7309
2026-01-13 14:28:37.60	169.29	7.46	-41.2	-45.2	8.5	5.50e-02	0	55	0	79691776	53	5550
2026-01-13 14:28:41.64	169.37	7.78	-39.8	-42.9	10.9	2.81e-03	0	55	0	108003328	50	5063
2026-01-13 14:28:45.68	169.45	8.11	-41.8	-46.2	7.5	3.68e-03	0	56	0	137363456	53	6272
2026-01-13 14:28:49.72	169.53	8.43	-38.8	-41.4	12.7	2.23e-02	0	56	0	156237824	48	4804
2026-01-13 14:28:53.76	169.61	8.76	-38.4	-41.0	13.1	5.60e-05	0	56	0	185597952	48	4552
2026-01-13 14:28:57.80	169.69	9.10	-38.7	-41.4	12.5	4.69e-05	0	56	0	214958080	47	5053
2026-01-13 14:29:01.84	169.78	9.44	-38.4	-41.0	12.9	2.86e-05	0	56	0	244318208	47	4832
2026-01-13 14:29:05.88	169.86	9.79	-38.4	-41.0	13.0	3.08e-05	0	56	0	272629760	47	4818
2026-01-13 14:29:09.92	169.95	10.14	-38.4	-40.9	13.1	2.74e-05	0	56	0	301989888	47	4803
2026-01-13 14:29:13.96	170.04	10.49	-38.5	-41.0	13.0	2.17e-05	0	56	0	331350016	47	4854
2026-01-13 14:29:18.00	170.13	10.85	-38.1	-40.5	13.6	3.40e-06	0	57	0	360710144	47	4574
2026-01-13 14:29:22.04	170.23	11.22	-38.2	-40.5	13.6	8.00e-06	0	57	0	390070272	47	4582
2026-01-13 14:29:26.08	170.33	11.59	-38.1	-40.5	13.7	6.80e-06	0	57	0	418381824	46	4818
2026-01-13 14:29:30.12	170.42	11.96	-38.0	-40.2	14.0	8.00e-06	0	57	0	447741952	46	4703
2026-01-13 14:29:34.16	170.53	12.35	-37.8	-40.0	14.2	1.10e-06	0	57	0	477102080	46	4572
2026-01-13 14:29:38.20	170.63	12.73	-37.9	-40.1	14.2	1.10e-06	0	57	0	506462208	46	4614
2026-01-13 14:29:42.24	170.74	13.13	-37.7	-39.9	14.4	1.10e-06	0	57	0	535822336	46	4520
2026-01-13 14:29:46.29	170.84	13.53	-37.8	-40.0	14.3	2.20e-06	0	57	0	565182464	46	4596
2026-01-13 14:29:50.32	170.95	13.94	-37.7	-39.8	14.5	0.00e+00	0	58	0	593494016	46	4488
2026-01-13 14:29:54.37	171.07	14.35	-37.5	-39.6	14.7	1.10e-06	0	57	0	622854144	46	4382
2026-01-13 14:29:58.40	171.19	14.78	-37.5	-39.6	14.8	0.00e+00	0	58	0	652214272	45	4615
2026-01-13 14:30:02.44	171.31	15.20	-37.5	-39.6	14.8	1.10e-06	0	58	0	681574400	45	4622
2026-01-13 14:30:06.48	171.43	15.64	-37.5	-39.6	14.8	0.00e+00	0	58	0	710934528	45	4623
2026-01-13 14:30:10.52	171.56	16.09	-37.3	-39.3	15.1	0.00e+00	0	58	0	739246080	45	4461
2026-01-13 14:30:14.56	171.69	16.54	-37.2	-39.2	15.2	0.00e+00	0	58	0	768606208	45	4437
2026-01-13 14:30:18.60	171.82	17.00	-37.0	-39.0	15.4	0.00e+00	0	58	0	797966336	44	4576
2026-01-13 14:30:22.63	171.96	17.47	-36.9	-38.8	15.6	0.00e+00	0	58	0	827326464	44	4472
2026-01-13 14:30:26.68	172.10	17.95	-36.8	-38.8	15.6	0.00e+00	0	58	0	856686592	44	4477
2026-01-13 14:30:30.71	172.24	18.44	-36.6	-38.6	15.8	0.00e+00	0	58	0	886046720	44	4366
2026-01-13 14:30:34.75	172.39	18.94	-36.7	-38.6	15.8	0.00e+00	0	58	0	914358272	44	4379
2026-01-13 14:30:38.79	172.55	19.44	-36.4	-38.3	15.9	0.00e+00	0	58	0	943718400	43	4489
2026-01-13 14:30:42.83	172.71	19.96	-36.1	-38.0	16.2	0.00e+00	0	59	0	973078528	43	4312
2026-01-13 14:30:46.87	172.87	20.49	-35.9	-37.8	16.4	0.00e+00	0	58	0	1002438656	42	4491
2026-01-13 14:30:50.91	173.04	21.03	-35.9	-37.9	16.4	0.00e+00	0	58	0	1031798784	42	4501
2026-01-13 14:30:54.95	173.22	21.59	-35.9	-37.9	16.4	0.00e+00	0	58	0	1060110336	42	4516
2026-01-13 14:30:59.00	173.40	22.15	-35.8	-37.8	16.5	0.00e+00	0	59	0	1089470464	42	4453
2026-01-13 14:31:03.03	173.59	22.73	-35.9	-37.9	16.4	0.00e+00	0	59	0	1118830592	42	4517
2026-01-13 14:31:07.07	173.78	23.32	-35.8	-37.8	16.4	0.00e+00	0	59	0	1148190720	42	4493
2026-01-13 14:31:11.11	173.98	23.92	-35.8	-37.8	16.5	0.00e+00	0	59	0	1177550848	42	4462
2026-01-13 14:31:15.15	174.19	24.54	-35.7	-37.7	16.6	0.00e+00	0	59	0	1205862400	42	4421
2026-01-13 14:31:19.19	174.41	25.17	-35.9	-37.9	16.5	0.00e+00	0	59	0	1235222528	42	4528
2026-01-13 14:31:23.23	174.63	25.82	-35.7	-37.6	16.8	0.00e+00	0	59	0	1264582656	42	4357
2026-01-13 14:31:27.26	174.87	26.48	-35.5	-37.3	17.0	0.00e+00	0	59	0	1293942784	42	4241
2026-01-13 14:31:31.30	175.11	27.16	-35.3	-37.1	17.3	0.00e+00	0	59	0	1322254336	41	4342
2026-01-13 14:31:35.34	175.37	27.86	-35.4	-37.1	17.2	0.00e+00	0	59	0	1351614464	41	4386
2026-01-13 14:31:39.39	175.63	28.57	-35.3	-37.1	17.2	0.00e+00	0	59	0	1380974592	41	4384
2026-01-13 14:31:43.42	175.91	29.30	-35.3	-37.2	17.1	0.00e+00	0	59	0	1410334720	41	4403
2026-01-13 14:31:47.46	176.20	30.05	-35.2	-37.0	17.3	0.00e+00	0	59	0	1439694848	41	4313
2026-01-13 14:31:51.50	176.50	30.82	-35.1	-37.0	17.2	0.00e+00	0	59	0	1468006400	41	4313
2026-01-13 14:31:55.54	176.81	31.61	-35.3	-37.3	17.0	0.00e+00	0	59	0	1497366528	41	4461
2026-01-13 14:31:59.58	177.14	32.42	-35.5	-37.6	16.7	0.00e+00	0	59	0	1526726656	41	4607
2026-01-13 14:32:03.62	177.49	33.26	-35.4	-37.3	17.0	0.00e+00	0	59	0	1556086784	41	4486
2026-01-13 14:32:07.67	177.86	34.11	-35.4	-37.2	17.2	0.00e+00	0	59	0	1585446912	41	4409
2026-01-13 14:32:11.71	178.24	34.99	-35.3	-37.1	17.3	0.00e+00	0	59	0	1614807040	41	4368
2026-01-13 14:32:15.75	178.65	35.89	-35.1	-36.9	17.4	0.00e+00	0	60	0	1643118592	41	4265
2026-01-13 14:32:19.79	179.08	36.82	-35.3	-37.2	17.2	0.00e+00	0	59	0	1672478720	40	4654
2026-01-13 14:32:23.83	179.53	37.77	-35.6	-37.7	16.7	0.00e+00	0	60	0	1701838848	41	4660
2026-01-13 14:32:27.88	180.01	38.75	-35.5	-37.5	16.9	0.00e+00	0	59	0	1731198976	41	4555
2026-01-13 14:32:31.92	180.52	39.75	-35.8	-37.7	16.8	0.00e+00	0	59	0	1760559104	41	4697
2026-01-13 14:32:35.96	181.06	40.78	-35.8	-37.6	16.9	0.00e+00	0	59	0	1789919232	41	4625
2026-01-13 14:32:40.01	181.64	41.84	-35.5	-37.4	17.1	0.00e+00	0	59	0	1818230784	41	4495
2026-01-13 14:32:44.05	182.25	42.93	-35.7	-37.6	16.8	0.00e+00	0	60	0	1847590912	41	4648
2026-01-13 14:32:48.09	182.91	44.04	-35.8	-37.7	16.8	0.00e+00	0	60	0	1876951040	41	4673
2026-01-13 14:32:52.13	183.61	45.18	-36.5	-37.8	17.1	0.00e+00	0	60	0	1906311168	42	4492
2026-01-13 14:32:56.17	184.37	46.35	-36.7	-38.0	16.9	0.00e+00	0	59	0	1935671296	43	4328
2026-01-13 14:33:00.21	185.18	47.55	-37.4	-38.8	16.3	0.00e+00	0	60	0	1965031424	45	4225
2026-01-13 14:33:04.24	186.06	48.77	-37.9	-39.4	15.7	0.00e+00	0	60	0	1993342976	45	4537
2026-01-13 14:33:08.28	187.01	50.03	-37.2	-38.5	16.6	0.00e+00	0	59	0	2022703104	45	4097
2026-01-13 14:33:12.32	188.04	51.31	-37.7	-39.2	15.9	0.00e+00	0	60	0	2052063232	45	4430
2026-01-13 14:33:16.37	189.16	52.62	-37.7	-39.1	15.9	0.00e+00	0	60	0	2081423360	45	4386
2026-01-13 14:33:20.40	190.39	53.94	-38.0	-39.5	15.6	0.00e+00	0	60	0	2109734912	45	4596
2026-01-13 14:33:24.44	191.73	55.29	-37.6	-39.0	16.2	0.00e+00	0	60	0	2139095040	45	4328
2026-01-13 14:33:28.48	193.21	56.66	-37.9	-39.5	15.7	0.00e+00	0	60	0	2168455168	45	4546
2026-01-13 14:33:32.53	194.85	58.04	-37.7	-39.2	16.0	0.00e+00	0	60	0	2197815296	45	4426
2026-01-13 14:33:36.57	196.66	59.43	-36.7	-38.0	17.2	1.10e-06	0	60	0	2227175424	44	4074
2026-01-13 14:33:40.61	198.67	60.83	-37.4	-38.8	16.4	0.00e+00	0	60	0	2256535552	45	4212
2026-01-13 14:33:44.65	200.91	62.21	-37.2	-38.6	16.6	0.00e+00	0	60	0	2284847104	44	4378
2026-01-13 14:33:48.69	203.42	63.59	-36.9	-38.2	17.0	0.00e+00	0	60	0	2314207232	44	4162
2026-01-13 14:33:52.72	206.24	64.94	-36.3	-37.6	17.4	0.00e+00	0	60	0	2343567360	43	4114
2026-01-13 14:33:56.76	209.41	66.25	-36.1	-37.4	17.6	0.00e+00	0	60	0	2372927488	43	4014
2026-01-13 14:34:00.81	212.99	67.51	-36.0	-37.3	17.7	0.00e+00	0	60	0	2402287616	42	4194
2026-01-13 14:34:04.85	217.00	68.70	-36.4	-37.7	17.3	0.00e+00	0	60	0	2430599168	42	4411
2026-01-13 14:34:08.89	221.51	69.79	-36.1	-37.3	17.6	0.00e+00	0	60	0	2459959296	42	4238
2026-01-13 14:34:12.93	226.55	70.77	-36.3	-37.5	17.4	0.00e+00	0	60	0	2489319424	42	4338
2026-01-13 14:34:16.97	232.10	71.60	-36.2	-37.5	17.5	0.00e+00	0	60	0	2518679552	42	4312
2026-01-13 14:34:21.01	238.16	72.26	-36.4	-37.7	17.3	0.00e+00	0	60	0	2548039680	43	4155
2026-01-13 14:34:25.04	244.61	72.72	-36.0	-37.2	17.8	0.00e+00	0	60	0	2577399808	42	4170
2026-01-13 14:34:29.09	251.37	72.96	-36.2	-37.5	17.4	0.00e+00	0	60	0	2605711360	42	4310
2026-01-13 14:34:33.13	258.22	72.97	-36.3	-37.6	17.4	1.10e-06	0	60	0	2635071488	42	4369
2026-01-13 14:34:37.17	264.99	72.76	-36.4	-37.7	17.3	0.00e+00	0	60	0	2664431616	42	4409
2026-01-13 14:34:41.21	271.50	72.33	-36.1	-37.4	17.6	0.00e+00	0	60	0	2693791744	42	4259
2026-01-13 14:34:45.25	277.60	71.69	-36.5	-37.8	17.2	0.00e+00	0	60	0	2723151872	42	4451
2026-01-13 14:34:49.29	283.22	70.88	-36.2	-37.4	17.5	0.00e+00	0	60	0	2751463424	42	4277
2026-01-13 14:34:53.32	288.30	69.93	-36.5	-37.8	17.1	0.00e+00	0	60	0	2780823552	43	4228
2026-01-13 14:34:57.36	292.87	68.85	-36.2	-37.4	17.5	2.20e-06	0	60	0	2810183680	43	4045
2026-01-13 14:35:01.40	296.95	67.68	-36.0	-37.2	17.8	0.00e+00	0	60	0	2839543808	42	4172
2026-01-13 14:35:05.44	300.57	66.43	-36.3	-37.5	17.5	0.00e+00	0	60	0	2868903936	42	4335
2026-01-13 14:35:09.48	303.79	65.12	-36.3	-37.6	17.4	0.00e+00	0	60	0	2898264064	42	4348
2026-01-13 14:35:13.53	306.65	63.78	-36.5	-37.8	17.3	0.00e+00	0	60	0	2926575616	42	4458
2026-01-13 14:35:17.57	309.20	62.41	-36.7	-38.0	17.0	0.00e+00	0	60	0	2955935744	43	4338
2026-01-13 14:35:21.61	311.47	61.02	-37.1	-38.4	16.5	0.00e+00	0	60	0	2985295872	43	4537
2026-01-13 14:35:25.65	313.51	59.63	-37.6	-39.0	16.2	0.00e+00	0	60	0	3014656000	44	4553
2026-01-13 14:35:29.69	315.34	58.25	-37.8	-39.3	15.9	0.00e+00	0	60	0	3044016128	45	4457
2026-01-13 14:35:33.73	316.99	56.87	-38.0	-39.6	15.6	0.00e+00	0	60	0	3072327680	45	4608
2026-01-13 14:35:37.77	318.49	55.51	-37.4	-38.7	16.4	0.00e+00	0	60	0	3101687808	45	4182
2026-01-13 14:35:41.81	319.85	54.16	-37.2	-38.6	16.6	0.00e+00	0	60	0	3131047936	45	4108
2026-01-13 14:35:45.85	321.09	52.83	-37.3	-38.6	16.5	0.00e+00	0	60	0	3160408064	45	4125
2026-01-13 14:35:49.90	322.23	51.52	-37.6	-39.0	16.2	0.00e+00	0	60	0	3189768192	45	4302
2026-01-13 14:35:53.94	323.27	50.25	-37.4	-38.7	16.4	0.00e+00	0	60	0	3219128320	45	4190
2026-01-13 14:35:57.98	324.24	48.99	-37.7	-39.2	15.9	0.00e+00	0	60	0	3247439872	45	4425
2026-01-13 14:36:02.01	325.12	47.77	-37.1	-38.5	16.7	0.00e+00	0	60	0	3276800000	45	4064
2026-01-13 14:36:06.05	325.94	46.57	-37.2	-38.6	16.6	0.00e+00	0	60	0	3306160128	44	4345
2026-01-13 14:36:10.10	326.71	45.40	-36.7	-38.0	17.2	0.00e+00	0	60	0	3335520256	44	4089
2026-01-13 14:36:14.14	327.42	44.26	-36.2	-37.4	17.3	0.00e+00	0	60	0	3364880384	42	4255
2026-01-13 14:36:18.17	328.08	43.15	-36.3	-37.6	17.4	0.00e+00	0	60	0	3393191936	42	4361
2026-01-13 14:36:22.21	328.70	42.06	-36.1	-37.3	17.7	0.00e+00	0	60	0	3422552064	42	4241
2026-01-13 14:36:26.25	329.28	41.01	-35.9	-37.1	17.9	0.00e+00	0	60	0	3451912192	42	4102
2026-01-13 14:36:30.30	329.83	39.97	-36.0	-37.2	17.8	0.00e+00	0	60	0	3481272320	42	4176
2026-01-13 14:36:34.33	330.34	38.97	-35.9	-37.1	17.7	0.00e+00	0	60	0	3510632448	42	4125
2026-01-13 14:36:38.38	330.82	38.00	-36.2	-37.4	17.5	0.00e+00	0	60	0	3539992576	42	4275
2026-01-13 14:36:42.42	331.28	37.05	-36.3	-37.5	17.4	0.00e+00	0	60	0	3568304128	42	4314
2026-01-13 14:36:46.46	331.71	36.12	-36.0	-37.2	17.7	0.00e+00	0	60	0	3597664256	42	4160
2026-01-13 14:36:50.50	332.12	35.22	-35.6	-36.8	18.2	0.00e+00	0	60	0	3627024384	42	3962
2026-01-13 14:36:54.54	332.51	34.34	-35.6	-36.8	18.1	0.00e+00	0	60	0	3656384512	42	3999
2026-01-13 14:36:58.58	332.88	33.49	-35.7	-37.0	17.9	0.00e+00	0	60	0	3685744640	42	4056
2026-01-13 14:37:02.62	333.23	32.66	-35.7	-36.9	18.0	0.00e+00	0	60	0	3714056192	42	4010
2026-01-13 14:37:06.66	333.57	31.84	-35.6	-36.8	18.0	0.00e+00	0	60	0	3743416320	42	4002
2026-01-13 14:37:10.70	333.89	31.05	-35.8	-37.0	17.8	0.00e+00	0	60	0	3772776448	42	4076
2026-01-13 14:37:14.74	334.20	30.29	-35.9	-37.2	17.6	0.00e+00	0	60	0	3802136576	42	4163
2026-01-13 14:37:18.78	334.49	29.53	-36.0	-37.3	17.5	0.00e+00	0	60	0	3831496704	42	4217
2026-01-13 14:37:22.82	334.77	28.80	-36.1	-37.4	17.4	0.00e+00	0	60	0	3860856832	42	4252
2026-01-13 14:37:26.86	335.04	28.09	-36.3	-37.6	17.2	0.00e+00	0	60	0	3889168384	42	4353
2026-01-13 14:37:30.90	335.29	27.39	-36.4	-37.7	17.0	0.00e+00	0	60	0	3918528512	42	4429
2026-01-13 14:37:34.94	335.54	26.71	-36.5	-37.8	16.9	0.00e+00	0	60	0	3947888640	42	4466
2026-01-13 14:37:38.98	335.78	26.05	-36.3	-37.6	17.0	0.00e+00	0	60	0	3977248768	42	4379
2026-01-13 14:37:43.02	336.01	25.40	-36.1	-37.4	17.2	0.00e+00	0	60	0	4006608896	42	4270
2026-01-13 14:37:47.05	336.23	24.77	-35.9	-37.2	17.4	0.00e+00	0	60	0	4034920448	42	4164
2026-01-13 14:37:51.09	336.44	24.16	-35.9	-37.1	17.4	0.00e+00	0	60	0	4064280576	42	4130
2026-01-13 14:37:55.13	336.65	23.55	-36.0	-37.3	17.2	0.00e+00	0	60	0	4093640704	42	4221
2026-01-13 14:37:59.18	336.84	22.96	-36.2	-37.5	16.9	0.00e+00	0	60	0	4123000832	42	4321
2026-01-13 14:38:03.21	337.03	22.38	-36.4	-37.7	16.6	0.00e+00	0	61	0	4152360960	42	4436
2026-01-13 14:38:07.25	337.22	21.82	-36.5	-37.9	16.3	0.00e+00	0	60	0	4180672512	42	4537
2026-01-13 14:38:11.28	337.40	21.27	-36.6	-38.1	15.9	0.00e+00	0	60	0	4210032640	43	4372
2026-01-13 14:38:15.32	337.57	20.73	-36.8	-38.3	15.6	0.00e+00	0	60	0	4239392768	43	4459
2026-01-13 14:38:19.35	337.74	20.20	-36.8	-38.4	15.2	0.00e+00	0	61	0	4268752896	43	4506
2026-01-13 14:38:23.39	337.90	19.68	-36.4	-38.0	15.3	0.00e+00	0	60	0	4297064448	43	4307
2026-01-13 14:38:27.42	338.06	19.17	-35.9	-37.4	15.9	0.00e+00	0	60	0	4326424576	42	4252
2026-01-13 14:38:31.46	338.21	18.68	-35.9	-37.4	15.7	0.00e+00	0	61	0	4355784704	42	4254
2026-01-13 14:38:35.51	338.36	18.19	-36.2	-37.7	15.2	0.00e+00	0	60	0	4385144832	42	4427
2026-01-13 14:38:39.55	338.51	17.71	-36.5	-38.2	14.6	0.00e+00	0	61	0	4414504960	42	4682
2026-01-13 14:38:43.59	338.65	17.24	-37.0	-38.8	13.9	5.70e-06	0	60	0	4442816512	43	4747
2026-01-13 14:38:47.63	338.79	16.78	-37.7	-39.8	12.8	4.80e-05	0	60	0	4472176640	45	4733
2026-01-13 14:38:51.67	338.92	16.32	-38.4	-40.8	11.5	6.49e-04	0	60	0	4501536768	46	5034
2026-01-13 14:38:55.71	339.05	15.88	-39.2	-42.1	10.0	6.63e-03	0	60	0	4530896896	47	5518
2026-01-13 14:38:59.75	339.18	15.44	-39.9	-43.6	8.5	3.63e-02	0	61	0	4560257024	49	5821
2026-01-13 14:39:03.79	339.30	15.01	-40.3	-44.8	7.0	1.38e-01	0	60	0	4588568576	50	6303
2026-01-13 14:39:07.82	339.42	14.59	-40.6	-45.9	6.1	3.10e-01	0	60	0	4617928704	50	7128
2026-01-13 14:39:11.86	339.54	14.18	-41.0	-47.0	5.3	7.36e-01	0	61	0	4637851648	51	7642
2026-01-13 14:39:15.90	339.65	13.77	-41.2	-48.0	4.6	8.08e-01	0	61	0	4639948800	52	8119
2026-01-13 14:39:19.94	339.77	13.37	-41.2	-48.8	4.3	8.34e-01	0	60	0	4639948800	52	8874
2026-01-13 14:39:23.98	339.88	12.97	-41.2	-50.0	3.9	8.44e-01	0	61	104	4639948800	52	10253
2026-01-13 14:39:28.03	339.99	12.58	-41.2	-50.3	3.8	8.44e-01	0	61	104	4639948800	52	10570
2026-01-13 14:39:32.06	340.09	12.20	-41.3	-50.7	3.8	8.45e-01	0	61	104	4639948800	52	11153
2026-01-13 14:39:36.10	340.19	11.83	-41.4	-51.3	3.8	8.47e-01	0	61	104	4639948800	52	11849
2026-01-13 14:39:40.13	340.29	11.46	-41.4	-51.7	3.8	8.46e-01	0	61	104	4639948800	52	12508
2026-01-13 14:39:44.18	340.39	11.09	-41.1	-51.9	3.8	8.47e-01	0	61	104	4639948800	52	12725
2026-01-13 14:39:48.21	340.49	10.73	-41.4	-52.0	3.8	8.46e-01	0	61	104	4639948800	52	12824
2026-01-13 14:39:52.25	340.58	10.38	-41.0	-51.9	3.8	8.46e-01	0	61	104	4639948800	52	12674
2026-01-13 14:39:56.29	340.68	10.03	-41.2	-52.0	3.8	8.47e-01	0	61	104	4639948800	52	12880
2026-01-13 14:40:00.32	340.77	9.68	-41.0	-51.8	3.8	8.46e-01	0	61	104	4639948800	52	12619
2026-01-13 14:40:04.36	340.86	9.34	-41.1	-51.9	3.8	8.45e-01	0	61	104	4639948800	52	12800
2026-01-13 14:40:08.40	340.95	9.01	-41.0	-51.9	3.8	8.47e-01	0	61	104	4639948800	52	12678
2026-01-13 14:40:12.44	341.03	8.68	-41.1	-51.9	3.8	8.46e-01	0	61	104	4639948800	52	12801
2026-01-13 14:40:16.48	341.12	8.35	-40.7	-51.5	3.8	8.45e-01	0	61	104	4639948800	52	12169
2026-01-13 14:40:20.52	341.20	8.03	-41.4	-52.2	3.8	8.46e-01	0	61	104	4639948800	52	13137
2026-01-13 14:40:24.56	341.28	7.71	-45.3	-56.5	3.8	8.47e-01	0	61	104	4639948800	60	13654
2026-01-13 14:40:28.61	341.36	7.39	-45.7	-56.8	3.8	8.46e-01	0	61	104	4639948800	60	14160
2026-01-13 14:40:32.64	341.44	7.08	-45.6	-56.8	3.8	8.46e-01	0	61	104	4639948800	60	14081
2026-01-13 14:40:36.69	341.52	6.77	-45.5	-56.7	3.8	8.47e-01	0	61	104	4639948800	60	13902
2026-01-13 14:40:40.73	341.60	6.47	-45.1	-56.2	3.9	8.46e-01	0	61	104	4639948800	60	13175
2026-01-13 14:40:44.76	341.67	6.17	-45.5	-56.6	3.8	8.46e-01	0	61	104	4639948800	60	13846
2026-01-13 14:40:48.80	341.75	5.87	-45.5	-56.7	3.8	8.47e-01	0	61	104	4639948800	60	13940
2026-01-13 14:40:52.84	341.82	5.58	-45.5	-56.6	3.8	8.46e-01	0	61	104	4639948800	60	13836
2026-01-13 14:40:56.89	341.89	5.29	-45.5	-56.6	3.8	8.47e-01	0	61	104	4639948800	60	13866
2026-01-13 14:41:00.93	341.96	5.00	-45.5	-56.6	3.8	8.45e-01	0	61	104	4639948800	60	13875
2026-01-13 14:41:04.97	342.03	4.72	-45.5	-56.6	3.8	8.47e-01	0	61	104	4639948800	60	13858
2026-01-13 14:41:09.01	342.10	4.44	-45.5	-56.6	3.8	8.46e-01	0	61	104	4639948800	60	13855
2026-01-13 14:41:13.05	342.17	4.16	-45.4	-56.5	3.9	8.46e-01	0	61	104	4639948800	60	13662
2026-01-13 14:41:17.09	342.24	3.88	-45.5	-56.6	3.8	8.46e-01	0	61	104	4639948800	60	13831
2026-01-13 14:41:21.14	342.30	3.61	-44.8	-56.4	3.8	8.46e-01	0	61	104	4639948800	60	13457
2026-01-13 14:41:25.17	342.37	3.34	-45.5	-56.6	3.8	8.45e-01	0	61	104	4639948800	60	13814
2026-01-13 14:41:29.21	342.43	3.07	-45.5	-56.6	3.8	8.46e-01	0	61	104	4639948800	60	13824
2026-01-13 14:41:33.26	342.50	2.81	-45.5	-56.6	3.8	8.46e-01	0	61	104	4639948800	60	13824
2026-01-13 14:41:37.30	342.56	2.55	-45.5	-56.6	3.8	8.45e-01	0	61	104	4639948800	60	13838
2026-01-13 14:41:41.34	342.62	2.29	-45.5	-56.6	3.8	8.45e-01	0	61	104	4639948800	60	13841
2026-01-13 14:41:45.38	342.68	2.03	-45.5	-56.7	3.8	8.47e-01	0	61	104	4639948800	60	13889

#Closed at: 2026-01-13 14:41:47
#Recorded file [4639 MB]: D:/lorett/data/31039_260113_172720.dat