passes_logs/2026/01/13/R2.0S_Moscow/R2.0S_Moscow__20260113_015235_SUOMI_NPP_rec.log

#Pass ID: 20260113_015235_SUOMI NPP
#Satellite: SUOMI NPP
#Configuration: NPP
#almurnet v.1.7.20251203
#Start time: 2026-01-13 01:52:36

#Version: 2.2.20231116
#Station: R2.0S_Moscow
#Location: 37.707566 lon 55.798166 lat
#TLE: 1 37849U 11061A   26012.28456845  .00000093  00000+0  65163-4 0  9999
#TLE: 2 37849  98.7807 314.3566 0002508  68.3553 291.7890 14.19524725736322

#Time	Az	El	Level	Level2	SNR	BER	BlckErr	Temp	State	Recorded	gain1	gain2
2026-01-13 01:52:36.56	8.95	2.06	-39.3	-54.7	3.8	1.49e+00	0	54	0	0	50	20898
2026-01-13 01:52:39.58	8.70	2.21	-39.3	-54.7	3.8	1.49e+00	0	54	104	0	49	22069
2026-01-13 01:52:42.61	8.46	2.37	-39.3	-54.7	3.8	1.49e+00	0	54	104	0	49	22108
2026-01-13 01:52:45.64	8.21	2.53	-39.3	-54.7	3.8	1.49e+00	0	54	104	0	49	22039
2026-01-13 01:52:48.67	7.95	2.68	-39.3	-54.7	3.8	1.49e+00	0	54	104	0	49	22032
2026-01-13 01:52:51.70	7.70	2.84	-39.3	-54.7	3.8	1.49e+00	0	55	104	0	49	22070
2026-01-13 01:52:54.73	7.44	3.00	-39.3	-54.6	3.8	1.49e+00	0	55	104	0	49	22002
2026-01-13 01:52:57.76	7.18	3.16	-39.3	-54.7	3.8	1.49e+00	0	55	104	0	49	22019
2026-01-13 01:53:00.78	6.91	3.32	-39.3	-54.7	3.8	1.49e+00	0	55	104	0	49	22017
2026-01-13 01:53:03.81	6.65	3.48	-39.3	-54.6	3.8	1.49e+00	0	55	104	0	49	22004
2026-01-13 01:53:06.84	6.38	3.64	-39.3	-54.6	3.8	1.49e+00	0	55	104	0	49	21993
2026-01-13 01:53:09.87	6.10	3.80	-39.3	-54.7	3.8	1.49e+00	0	56	104	0	49	22016
2026-01-13 01:53:12.90	5.82	3.96	-39.3	-54.6	3.8	1.49e+00	0	56	104	0	49	21984
2026-01-13 01:53:15.93	5.54	4.12	-39.3	-54.7	3.8	1.49e+00	0	55	104	0	49	22058
2026-01-13 01:53:18.96	5.26	4.28	-39.3	-54.7	3.8	1.49e+00	0	56	104	0	49	22014
2026-01-13 01:53:21.99	4.97	4.44	-39.3	-54.6	3.8	1.49e+00	0	56	104	0	49	21998
2026-01-13 01:53:25.02	4.68	4.60	-39.3	-54.6	3.8	1.49e+00	0	56	104	0	49	21957
2026-01-13 01:53:28.06	4.39	4.77	-39.2	-54.6	3.8	1.49e+00	0	56	104	0	49	21943
2026-01-13 01:53:31.09	4.09	4.93	-39.3	-54.6	3.8	1.49e+00	0	56	104	0	49	21989
2026-01-13 01:53:34.12	3.79	5.09	-39.3	-54.6	3.8	1.49e+00	0	56	104	0	49	21974
2026-01-13 01:53:37.15	3.49	5.26	-39.3	-54.6	3.8	1.49e+00	0	56	104	0	49	21979
2026-01-13 01:53:40.18	3.18	5.42	-39.3	-54.6	3.8	1.49e+00	0	57	104	0	49	21971
2026-01-13 01:53:43.21	2.87	5.58	-39.2	-54.6	3.8	1.49e+00	0	57	104	0	49	21940
2026-01-13 01:53:46.24	2.56	5.75	-39.2	-54.6	3.8	1.49e+00	0	57	104	0	49	21992
2026-01-13 01:53:49.27	2.24	5.91	-39.2	-54.6	3.8	1.49e+00	0	57	104	0	49	21958
2026-01-13 01:53:52.30	1.92	6.07	-39.2	-54.7	3.8	1.49e+00	0	57	104	0	49	22023
2026-01-13 01:53:55.33	1.59	6.24	-39.2	-54.6	3.8	1.49e+00	0	57	104	0	49	21961
2026-01-13 01:53:58.36	1.26	6.40	-39.2	-54.7	3.8	1.49e+00	0	57	104	0	49	22029
2026-01-13 01:54:01.39	0.93	6.57	-39.3	-54.6	3.8	1.49e+00	0	57	104	0	49	22001
2026-01-13 01:54:04.42	0.59	6.73	-39.2	-54.6	3.8	1.49e+00	0	57	104	0	49	21986
2026-01-13 01:54:07.45	0.25	6.89	-39.2	-54.6	3.8	1.49e+00	0	57	104	0	49	21918
2026-01-13 01:54:10.48	359.90	7.06	-39.2	-54.6	3.8	1.49e+00	0	57	104	0	49	21974
2026-01-13 01:54:13.51	359.55	7.22	-39.2	-54.6	3.8	1.49e+00	0	57	104	0	49	21934
2026-01-13 01:54:16.54	359.20	7.39	-39.2	-54.6	3.8	1.49e+00	0	57	104	0	49	21965
2026-01-13 01:54:19.57	358.84	7.55	-39.2	-54.6	3.8	1.49e+00	0	58	104	0	49	21966
2026-01-13 01:54:22.60	358.48	7.72	-39.2	-54.6	3.8	1.49e+00	0	58	104	0	49	21986
2026-01-13 01:54:25.63	358.12	7.88	-39.2	-54.6	3.8	1.49e+00	0	58	104	0	49	21965
2026-01-13 01:54:28.66	357.74	8.05	-39.2	-54.6	3.8	1.49e+00	0	58	104	0	49	21966
2026-01-13 01:54:31.69	357.37	8.21	-39.9	-54.8	3.8	1.49e+00	0	58	104	0	50	21060
2026-01-13 01:54:34.72	356.99	8.38	-39.7	-54.7	3.8	1.49e+00	0	58	104	0	50	20983
2026-01-13 01:54:37.75	356.61	8.54	-39.7	-54.8	3.8	1.49e+00	0	58	104	0	50	21019
2026-01-13 01:54:40.77	356.22	8.70	-39.8	-54.7	3.8	1.49e+00	0	58	104	0	50	20933
2026-01-13 01:54:43.81	355.83	8.87	-39.9	-54.8	3.8	1.49e+00	0	58	104	0	50	21238
2026-01-13 01:54:46.83	355.43	9.03	-39.8	-54.8	3.8	1.49e+00	0	58	104	0	50	21173
2026-01-13 01:54:49.86	355.03	9.20	-40.2	-55.0	3.8	1.49e+00	0	58	104	0	50	21530
2026-01-13 01:54:52.89	354.62	9.36	-40.1	-54.9	3.8	1.49e+00	0	58	104	0	50	21419
2026-01-13 01:54:55.92	354.21	9.52	-40.4	-55.1	3.8	1.49e+00	0	58	104	0	51	20562
2026-01-13 01:54:58.95	353.80	9.68	-40.2	-55.0	3.8	1.49e+00	0	58	104	0	51	20314
2026-01-13 01:55:01.98	353.38	9.85	-40.2	-55.1	3.8	1.49e+00	0	58	104	0	51	20545
2026-01-13 01:55:05.00	352.95	10.01	-40.4	-55.0	3.8	1.49e+00	0	58	104	0	51	20528
2026-01-13 01:55:08.03	352.52	10.17	-40.5	-55.3	3.8	1.49e+00	0	58	104	0	51	21100
2026-01-13 01:55:11.06	352.09	10.33	-40.4	-55.2	3.8	1.49e+00	0	58	104	0	51	20929
2026-01-13 01:55:14.09	351.65	10.49	-40.7	-55.4	3.8	1.49e+00	0	59	104	0	52	20087
2026-01-13 01:55:17.12	351.20	10.65	-40.6	-55.3	3.8	1.49e+00	0	58	104	0	52	19949
2026-01-13 01:55:20.15	350.76	10.81	-40.7	-55.4	3.8	1.49e+00	0	59	104	0	52	20285
2026-01-13 01:55:23.18	350.30	10.96	-40.6	-55.3	3.8	1.49e+00	0	59	104	0	52	20035
2026-01-13 01:55:26.21	349.84	11.12	-40.7	-55.3	3.8	1.49e+00	0	59	104	0	52	20065
2026-01-13 01:55:29.24	349.38	11.28	-40.7	-55.4	3.8	1.49e+00	0	59	104	0	52	20293
2026-01-13 01:55:32.26	348.91	11.43	-41.0	-55.7	3.8	1.49e+00	0	59	104	0	52	20795
2026-01-13 01:55:35.29	348.43	11.59	-40.9	-55.6	3.8	1.49e+00	0	59	104	0	52	20635
2026-01-13 01:55:38.32	347.95	11.74	-41.0	-55.7	3.8	1.49e+00	0	59	104	0	52	21007
2026-01-13 01:55:41.35	347.47	11.89	-41.1	-55.7	3.8	1.49e+00	0	59	104	0	52	20960
2026-01-13 01:55:44.38	346.98	12.05	-41.1	-55.7	3.8	1.49e+00	0	59	104	0	52	20910
2026-01-13 01:55:47.41	346.48	12.20	-41.1	-55.8	3.8	1.49e+00	0	59	104	0	52	21162
2026-01-13 01:55:50.44	345.98	12.34	-40.8	-55.5	3.8	1.49e+00	0	59	104	0	52	20480
2026-01-13 01:55:53.47	345.48	12.49	-40.6	-55.4	3.8	1.49e+00	0	59	104	0	52	20161
2026-01-13 01:55:56.51	344.96	12.64	-40.7	-55.5	3.8	1.49e+00	0	59	104	0	52	20445
2026-01-13 01:55:59.53	344.45	12.78	-40.5	-55.2	3.8	1.49e+00	0	59	104	0	52	19833
2026-01-13 01:56:02.56	343.93	12.93	-40.6	-55.4	3.8	1.49e+00	0	59	104	0	52	20104
2026-01-13 01:56:05.59	343.40	13.07	-40.7	-55.4	3.8	1.49e+00	0	59	104	0	52	20110
2026-01-13 01:56:08.62	342.87	13.21	-40.8	-55.4	3.8	1.49e+00	0	59	104	0	52	20142
2026-01-13 01:56:11.65	342.33	13.35	-40.8	-55.4	3.8	1.49e+00	0	59	104	0	52	20172
2026-01-13 01:56:14.68	341.79	13.49	-40.3	-55.2	3.8	1.49e+00	0	59	104	0	52	19814
2026-01-13 01:56:17.71	341.24	13.62	-40.8	-55.6	3.8	1.49e+00	0	59	104	0	52	20623
2026-01-13 01:56:20.74	340.69	13.76	-40.8	-55.6	3.8	1.49e+00	0	59	104	0	52	20600
2026-01-13 01:56:23.77	340.13	13.89	-41.8	-55.3	3.8	1.49e+00	0	59	104	0	54	17783
2026-01-13 01:56:26.79	339.57	14.02	-41.6	-52.3	4.5	1.36e+00	0	59	0	0	53	13280
2026-01-13 01:56:29.82	339.01	14.14	-41.2	-48.1	7.5	1.64e-01	0	59	0	5242880	53	8203
2026-01-13 01:56:32.85	338.43	14.27	-40.8	-46.2	9.7	1.19e-02	0	59	0	11534336	53	6597
2026-01-13 01:56:35.88	337.86	14.39	-41.2	-46.7	9.3	1.63e-02	0	59	0	16777216	53	7038
2026-01-13 01:56:38.91	337.28	14.51	-41.2	-46.0	10.5	6.60e-03	0	59	0	23068672	53	6480
2026-01-13 01:56:41.94	336.69	14.63	-41.6	-46.5	10.2	5.28e-03	0	59	0	28311552	53	6867
2026-01-13 01:56:44.96	336.10	14.75	-42.0	-47.3	9.4	1.38e-02	0	59	0	34603008	54	7111
2026-01-13 01:56:47.99	335.50	14.86	-41.7	-46.6	10.3	6.13e-03	0	59	0	39845888	54	6496
2026-01-13 01:56:51.02	334.90	14.97	-41.8	-46.6	10.3	5.22e-03	0	59	0	45088768	54	6566
2026-01-13 01:56:54.04	334.30	15.08	-41.9	-46.8	10.2	7.07e-03	0	60	0	51380224	54	6700
2026-01-13 01:56:57.07	333.69	15.18	-41.8	-46.5	10.6	4.44e-03	0	59	0	56623104	54	6449
2026-01-13 01:57:00.10	333.08	15.29	-41.8	-46.5	10.7	2.57e-03	0	59	0	62914560	54	6442
2026-01-13 01:57:03.13	332.46	15.38	-42.0	-46.9	10.2	4.80e-03	0	60	0	68157440	54	6763
2026-01-13 01:57:06.16	331.84	15.48	-42.0	-46.8	10.5	5.42e-03	0	59	0	73400320	54	6660
2026-01-13 01:57:09.19	331.21	15.57	-41.7	-45.9	11.3	1.19e-03	0	60	0	79691776	54	6056
2026-01-13 01:57:12.21	330.58	15.66	-41.6	-45.7	11.7	7.22e-04	0	60	0	84934656	54	5880
2026-01-13 01:57:15.24	329.95	15.75	-41.7	-45.8	11.6	6.59e-04	0	59	0	91226112	54	5931
2026-01-13 01:57:18.27	329.31	15.84	-41.7	-45.8	11.6	7.16e-04	0	59	0	96468992	54	5970
2026-01-13 01:57:21.30	328.67	15.92	-41.8	-46.0	11.4	6.79e-04	0	60	0	101711872	54	6091
2026-01-13 01:57:24.33	328.02	15.99	-42.0	-46.6	10.8	2.25e-03	0	60	0	108003328	54	6518
2026-01-13 01:57:27.36	327.37	16.07	-42.0	-46.4	11.1	2.00e-03	0	59	0	113246208	54	6363
2026-01-13 01:57:30.38	326.73	16.14	-42.0	-46.6	10.8	2.76e-03	0	59	0	119537664	54	6500
2026-01-13 01:57:33.41	326.07	16.20	-42.0	-46.6	10.8	2.41e-03	0	60	0	124780544	54	6519
2026-01-13 01:57:36.44	325.41	16.27	-42.2	-47.0	10.4	3.54e-03	0	59	0	131072000	55	6470
2026-01-13 01:57:39.46	324.76	16.33	-42.2	-46.9	10.5	4.76e-03	0	60	0	136314880	55	6419
2026-01-13 01:57:42.49	324.09	16.38	-41.9	-46.1	11.3	1.33e-03	0	60	0	141557760	55	5855
2026-01-13 01:57:45.52	323.43	16.43	-41.9	-46.2	11.2	1.19e-03	0	60	0	147849216	55	5914
2026-01-13 01:57:48.55	322.76	16.48	-42.0	-46.5	10.9	2.12e-03	0	60	0	153092096	55	6110
2026-01-13 01:57:51.58	322.09	16.52	-41.8	-46.0	11.5	9.43e-04	0	60	0	159383552	55	5725
2026-01-13 01:57:54.61	321.42	16.57	-41.8	-46.1	11.4	8.82e-04	0	60	0	164626432	55	5797
2026-01-13 01:57:57.63	320.75	16.60	-42.0	-46.5	10.9	2.68e-03	0	60	0	169869312	55	6105
2026-01-13 01:58:00.66	320.08	16.63	-42.4	-47.5	9.9	6.14e-03	0	60	0	176160768	55	6805
2026-01-13 01:58:03.69	319.40	16.66	-42.4	-47.7	9.7	1.05e-02	0	60	0	181403648	55	6964
2026-01-13 01:58:06.72	318.72	16.69	-42.3	-47.5	9.9	9.36e-03	0	60	0	187695104	55	6821
2026-01-13 01:58:09.75	318.04	16.71	-42.2	-47.2	10.2	5.77e-03	0	60	0	192937984	55	6615
2026-01-13 01:58:12.77	317.37	16.72	-42.3	-47.3	10.1	6.73e-03	0	60	0	199229440	55	6711
2026-01-13 01:58:15.80	316.69	16.73	-42.3	-47.3	10.0	6.60e-03	0	60	0	204472320	55	6717
2026-01-13 01:58:18.83	316.01	16.74	-41.9	-46.4	11.0	1.86e-03	0	60	0	209715200	55	6021
2026-01-13 01:58:21.87	315.32	16.75	-41.8	-46.0	11.5	9.80e-04	0	60	0	216006656	55	5757
2026-01-13 01:58:24.90	314.64	16.75	-42.1	-46.7	10.8	2.20e-03	0	60	0	221249536	55	6232
2026-01-13 01:58:27.92	313.96	16.74	-42.3	-47.2	10.2	5.57e-03	0	60	0	227540992	55	6579
2026-01-13 01:58:30.95	313.28	16.73	-42.4	-47.5	9.9	7.38e-03	0	60	0	232783872	55	6804
2026-01-13 01:58:33.99	312.60	16.72	-42.0	-46.5	10.9	2.87e-03	0	60	0	238026752	55	6100
2026-01-13 01:58:37.02	311.92	16.70	-41.9	-46.3	11.2	1.28e-03	0	60	0	244318208	55	5924
2026-01-13 01:58:40.04	311.25	16.68	-42.1	-46.8	10.6	2.89e-03	0	60	0	249561088	55	6332
2026-01-13 01:58:43.07	310.57	16.66	-42.5	-47.7	9.7	8.49e-03	0	60	0	255852544	55	7012
2026-01-13 01:58:46.10	309.89	16.63	-42.6	-48.3	9.0	2.20e-02	0	60	0	261095424	55	7523
2026-01-13 01:58:49.13	309.22	16.60	-42.6	-48.1	9.2	2.27e-02	0	60	0	267386880	55	7336
2026-01-13 01:58:52.16	308.55	16.56	-42.3	-47.2	10.2	6.22e-03	0	60	0	272629760	55	6615
2026-01-13 01:58:55.18	307.88	16.52	-42.1	-46.8	10.6	3.83e-03	0	60	0	277872640	55	6340
2026-01-13 01:58:58.21	307.21	16.47	-42.0	-46.5	10.9	2.65e-03	0	60	0	284164096	55	6113
2026-01-13 01:59:01.24	306.54	16.42	-42.1	-46.8	10.6	2.53e-03	0	60	0	289406976	55	6279
2026-01-13 01:59:04.27	305.87	16.37	-42.1	-46.8	10.6	4.08e-03	0	60	0	295698432	55	6303
2026-01-13 01:59:07.30	305.21	16.32	-41.9	-46.2	11.2	1.33e-03	0	60	0	300941312	55	5871
2026-01-13 01:59:10.33	304.55	16.26	-41.6	-45.7	11.7	5.97e-04	0	60	0	306184192	55	5535
2026-01-13 01:59:13.35	303.89	16.19	-41.9	-46.2	11.3	8.95e-04	0	60	0	312475648	55	5858
2026-01-13 01:59:16.38	303.24	16.12	-41.9	-46.1	11.3	1.10e-03	0	60	0	317718528	55	5842
2026-01-13 01:59:19.41	302.59	16.05	-41.9	-46.2	11.2	1.64e-03	0	60	0	324009984	55	5903
2026-01-13 01:59:22.44	301.94	15.98	-42.1	-46.7	10.7	1.91e-03	0	60	0	329252864	55	6222
2026-01-13 01:59:25.47	301.29	15.90	-42.0	-46.6	10.8	2.97e-03	0	60	0	335544320	55	6185
2026-01-13 01:59:28.49	300.65	15.82	-42.0	-46.5	10.9	2.38e-03	0	60	0	340787200	55	6103
2026-01-13 01:59:31.52	300.01	15.74	-41.8	-46.1	11.3	1.06e-03	0	60	0	346030080	55	5790
2026-01-13 01:59:34.55	299.38	15.65	-41.7	-45.9	11.4	9.54e-04	0	60	0	352321536	55	5693
2026-01-13 01:59:37.58	298.75	15.56	-41.7	-45.9	11.4	9.43e-04	0	60	0	357564416	55	5671
2026-01-13 01:59:40.61	298.12	15.46	-41.8	-46.2	11.1	1.24e-03	0	60	0	363855872	55	5866
2026-01-13 01:59:43.64	297.50	15.37	-42.0	-46.6	10.7	2.91e-03	0	60	0	369098752	55	6139
2026-01-13 01:59:46.66	296.88	15.27	-42.1	-46.9	10.3	4.35e-03	0	60	0	374341632	55	6354
2026-01-13 01:59:49.69	296.27	15.16	-42.2	-47.1	10.1	6.74e-03	0	60	0	380633088	55	6559
2026-01-13 01:59:52.72	295.66	15.06	-42.4	-47.5	9.7	8.55e-03	0	60	0	385875968	55	6859
2026-01-13 01:59:55.75	295.05	14.95	-42.2	-47.3	9.9	1.03e-02	0	60	0	392167424	55	6665
2026-01-13 01:59:58.78	294.45	14.84	-42.3	-47.4	9.7	1.19e-02	0	60	0	397410304	55	6782
2026-01-13 02:00:01.81	293.85	14.72	-42.1	-47.0	10.1	9.14e-03	0	60	0	402653184	55	6458
2026-01-13 02:00:04.84	293.26	14.61	-42.0	-46.9	10.2	7.49e-03	0	60	0	408944640	55	6349
2026-01-13 02:00:07.87	292.67	14.49	-41.8	-46.4	10.7	3.64e-03	0	60	0	414187520	55	6017
2026-01-13 02:00:10.90	292.09	14.37	-41.5	-45.9	11.0	1.52e-03	0	60	0	420478976	55	5703
2026-01-13 02:00:13.93	291.51	14.24	-41.6	-46.2	10.7	2.34e-03	0	60	0	425721856	54	6258
2026-01-13 02:00:16.96	290.94	14.12	-41.8	-46.5	10.4	4.13e-03	0	60	0	432013312	54	6468
2026-01-13 02:00:19.99	290.37	13.99	-41.9	-47.0	9.8	7.54e-03	0	60	0	437256192	54	6812
2026-01-13 02:00:23.01	289.81	13.86	-42.0	-47.5	9.1	2.04e-02	0	60	0	442499072	54	7283
2026-01-13 02:00:26.04	289.25	13.73	-42.0	-47.7	8.9	2.89e-02	0	60	0	448790528	54	7388
2026-01-13 02:00:29.07	288.70	13.59	-41.9	-47.5	8.9	2.99e-02	0	60	0	454033408	54	7279
2026-01-13 02:00:32.10	288.15	13.46	-41.8	-47.6	8.7	3.44e-02	0	60	0	460324864	54	7366
2026-01-13 02:00:35.13	287.60	13.32	-41.9	-47.8	8.5	4.84e-02	0	60	0	465567744	54	7528
2026-01-13 02:00:38.16	287.07	13.18	-41.8	-47.7	8.5	4.37e-02	0	60	0	471859200	54	7431
2026-01-13 02:00:41.19	286.53	13.04	-41.8	-47.8	8.3	4.76e-02	0	60	0	477102080	54	7539
2026-01-13 02:00:44.22	286.01	12.90	-41.8	-47.9	8.2	6.33e-02	0	60	0	482344960	54	7594
2026-01-13 02:00:47.25	285.48	12.75	-41.6	-47.2	8.9	2.93e-02	0	60	0	488636416	54	7002
2026-01-13 02:00:50.28	284.97	12.61	-41.6	-47.5	8.5	3.37e-02	0	60	0	493879296	54	7240
2026-01-13 02:00:53.30	284.45	12.46	-41.7	-48.1	8.0	6.75e-02	0	60	0	500170752	54	7726
2026-01-13 02:00:56.33	283.95	12.31	-41.9	-48.9	7.1	1.16e-01	0	60	0	505413632	54	8521
2026-01-13 02:00:59.37	283.44	12.16	-41.9	-48.2	7.9	8.40e-02	0	60	0	510656512	54	7882
2026-01-13 02:01:02.39	282.95	12.01	-41.8	-48.0	8.2	5.46e-02	0	60	0	516947968	54	7636
2026-01-13 02:01:05.42	282.46	11.86	-41.8	-47.5	8.6	3.59e-02	0	60	0	522190848	54	7283
2026-01-13 02:01:08.45	281.97	11.71	-42.2	-49.1	7.3	1.05e-01	0	60	0	528482304	55	8177
2026-01-13 02:01:11.48	281.49	11.55	-42.5	-50.3	6.1	3.02e-01	0	60	0	533725184	55	9464
2026-01-13 02:01:14.51	281.01	11.40	-42.5	-50.3	6.3	2.62e-01	0	60	0	538968064	55	9414
2026-01-13 02:01:17.54	280.54	11.24	-42.3	-49.4	7.0	1.64e-01	0	60	0	545259520	55	8472
2026-01-13 02:01:20.56	280.08	11.08	-42.3	-49.2	7.1	1.49e-01	0	60	0	550502400	55	8330
2026-01-13 02:01:23.59	279.61	10.93	-42.1	-48.9	7.3	1.23e-01	0	60	0	556793856	55	8030
2026-01-13 02:01:26.62	279.16	10.77	-41.9	-48.6	7.5	9.19e-02	0	60	0	562036736	55	7738
2026-01-13 02:01:29.64	278.71	10.61	-42.0	-49.0	7.1	1.41e-01	0	60	0	568328192	55	8123
2026-01-13 02:01:32.67	278.26	10.45	-42.0	-49.2	6.8	1.76e-01	0	60	0	573571072	55	8332
2026-01-13 02:01:35.70	277.82	10.29	-41.8	-48.8	7.1	1.53e-01	0	60	0	578813952	55	7957
2026-01-13 02:01:38.73	277.38	10.13	-41.7	-49.2	6.5	1.93e-01	0	60	0	585105408	55	8332
2026-01-13 02:01:41.76	276.95	9.97	-41.6	-49.6	6.0	3.03e-01	0	61	0	590348288	55	8742
2026-01-13 02:01:44.79	276.53	9.80	-41.6	-50.4	5.4	4.55e-01	0	60	0	596639744	55	9534
2026-01-13 02:01:47.81	276.11	9.64	-41.6	-51.4	4.7	8.02e-01	0	60	0	601882624	55	10683
2026-01-13 02:01:50.85	275.69	9.48	-41.5	-52.3	4.3	1.31e+00	0	60	0	607125504	55	11923
2026-01-13 02:01:53.88	275.27	9.32	-41.5	-53.2	3.9	1.46e+00	0	60	104	607125504	54	13970
2026-01-13 02:01:56.91	274.87	9.15	-41.4	-53.7	3.8	1.48e+00	0	60	104	607125504	54	14855
2026-01-13 02:01:59.93	274.46	8.99	-41.1	-53.9	3.8	1.49e+00	0	60	104	607125504	54	15204
2026-01-13 02:02:02.96	274.07	8.82	-41.0	-54.1	3.8	1.49e+00	0	60	104	607125504	54	15573
2026-01-13 02:02:05.99	273.67	8.66	-40.9	-54.4	3.8	1.49e+00	0	60	104	607125504	53	16961
2026-01-13 02:02:09.02	273.28	8.50	-40.7	-54.6	3.8	1.49e+00	0	60	104	607125504	53	17320
2026-01-13 02:02:12.04	272.90	8.33	-40.4	-54.6	3.8	1.49e+00	0	60	104	607125504	52	18457
2026-01-13 02:02:15.08	272.52	8.17	-41.1	-54.9	3.8	1.49e+00	0	60	104	607125504	52	19102
2026-01-13 02:02:18.10	272.14	8.00	-40.5	-55.0	3.8	1.49e+00	0	60	104	607125504	52	19386
2026-01-13 02:02:21.13	271.77	7.84	-44.8	-59.2	3.8	1.49e+00	0	60	104	607125504	60	19813
2026-01-13 02:02:24.16	271.40	7.67	-45.1	-59.5	3.8	1.49e+00	0	60	104	607125504	60	20426
2026-01-13 02:02:27.19	271.04	7.51	-45.2	-59.7	3.8	1.49e+00	0	60	104	607125504	61	19668
2026-01-13 02:02:30.21	270.68	7.34	-45.2	-59.6	3.8	1.49e+00	0	60	104	607125504	61	19495
2026-01-13 02:02:33.25	270.32	7.18	-45.2	-59.6	3.8	1.49e+00	0	61	104	607125504	61	19573
2026-01-13 02:02:36.28	269.97	7.01	-45.1	-59.6	3.8	1.49e+00	0	61	104	607125504	61	19546
2026-01-13 02:02:39.31	269.62	6.85	-45.1	-59.6	3.8	1.49e+00	0	60	104	607125504	61	19501
2026-01-13 02:02:42.34	269.28	6.68	-45.1	-59.6	3.8	1.49e+00	0	60	104	607125504	61	19455
2026-01-13 02:02:45.37	268.94	6.52	-45.1	-59.6	3.8	1.49e+00	0	60	104	607125504	61	19433
2026-01-13 02:02:48.40	268.60	6.35	-45.1	-59.6	3.8	1.49e+00	0	60	104	607125504	61	19446
2026-01-13 02:02:51.43	268.27	6.19	-45.1	-59.5	3.8	1.49e+00	0	60	104	607125504	61	19386
2026-01-13 02:02:54.46	267.95	6.02	-45.1	-59.6	3.8	1.49e+00	0	61	104	607125504	61	19404
2026-01-13 02:02:57.49	267.62	5.86	-45.1	-59.6	3.8	1.49e+00	0	61	104	607125504	61	19391
2026-01-13 02:03:00.52	267.30	5.69	-45.1	-59.6	3.8	1.49e+00	0	60	104	607125504	61	19455
2026-01-13 02:03:03.55	266.98	5.53	-45.1	-59.6	3.8	1.49e+00	0	60	104	607125504	61	19421
2026-01-13 02:03:06.58	266.67	5.37	-45.1	-59.5	3.8	1.49e+00	0	61	104	607125504	61	19375
2026-01-13 02:03:09.61	266.36	5.20	-45.1	-59.6	3.8	1.49e+00	0	60	104	607125504	61	19394
2026-01-13 02:03:12.64	266.06	5.04	-45.1	-59.5	3.8	1.49e+00	0	60	104	607125504	61	19373
2026-01-13 02:03:15.66	265.75	4.88	-45.1	-59.6	3.8	1.49e+00	0	61	104	607125504	61	19429
2026-01-13 02:03:18.69	265.45	4.72	-45.1	-59.6	3.8	1.49e+00	0	61	104	607125504	61	19451
2026-01-13 02:03:21.72	265.16	4.55	-45.1	-59.5	3.8	1.49e+00	0	60	104	607125504	61	19362
2026-01-13 02:03:24.75	264.87	4.39	-45.1	-59.5	3.8	1.49e+00	0	60	104	607125504	61	19353
2026-01-13 02:03:27.78	264.58	4.23	-45.1	-59.5	3.8	1.49e+00	0	61	104	607125504	61	19385
2026-01-13 02:03:30.81	264.29	4.07	-45.1	-59.6	3.8	1.49e+00	0	61	104	607125504	61	19428
2026-01-13 02:03:33.83	264.01	3.91	-45.1	-59.5	3.8	1.49e+00	0	60	104	607125504	61	19357
2026-01-13 02:03:36.86	263.73	3.75	-45.1	-59.5	3.8	1.49e+00	0	60	104	607125504	61	19337
2026-01-13 02:03:39.89	263.45	3.59	-45.1	-59.5	3.8	1.49e+00	0	61	104	607125504	61	19350
2026-01-13 02:03:42.92	263.18	3.43	-45.1	-59.5	3.8	1.49e+00	0	61	104	607125504	61	19381
2026-01-13 02:03:45.96	262.91	3.27	-45.1	-59.5	3.8	1.49e+00	0	60	104	607125504	61	19321
2026-01-13 02:03:48.99	262.64	3.11	-45.1	-59.5	3.8	1.49e+00	0	60	104	607125504	61	19319
2026-01-13 02:03:52.02	262.38	2.95	-45.1	-59.5	3.8	1.49e+00	0	60	104	607125504	61	19324
2026-01-13 02:03:55.05	262.12	2.79	-45.1	-59.5	3.8	1.49e+00	0	60	104	607125504	61	19344
2026-01-13 02:03:58.08	261.86	2.63	-45.1	-59.5	3.8	1.49e+00	0	60	104	607125504	61	19303
2026-01-13 02:04:01.11	261.60	2.47	-45.1	-59.5	3.8	1.49e+00	0	60	104	607125504	61	19357
2026-01-13 02:04:04.14	261.35	2.31	-45.1	-59.5	3.8	1.49e+00	0	61	104	607125504	61	19324
2026-01-13 02:04:07.17	261.10	2.16	-45.1	-59.5	3.8	1.49e+00	0	60	104	607125504	61	19283
2026-01-13 02:04:10.20	260.85	2.00	-45.1	-59.5	3.8	1.49e+00	0	60	104	607125504	61	19294

#Closed at: 2026-01-13 02:04:11
#Recorded file [607 MB]: D:/lorett/data/31039_260113_045236.dat