passes_logs/2026/01/13/R2.0S_Moscow/R2.0S_Moscow__20260113_001157_SUOMI_NPP_rec.log

#Pass ID: 20260113_001157_SUOMI NPP
#Satellite: SUOMI NPP
#Configuration: NPP
#almurnet v.1.7.20251203
#Start time: 2026-01-13 00:14:00

#Version: 2.2.20231116
#Station: R2.0S_Moscow
#Location: 37.707566 lon 55.798166 lat
#TLE: 1 37849U 11061A   26012.28456845  .00000093  00000+0  65163-4 0  9999
#TLE: 2 37849  98.7807 314.3566 0002508  68.3553 291.7890 14.19524725736322

#Time	Az	El	Level	Level2	SNR	BER	BlckErr	Temp	State	Recorded	gain1	gain2
2026-01-13 00:14:00.43	11.47	11.20	-45.1	-63.4	3.8	8.47e-01	0	59	0	0	61	30114
2026-01-13 00:14:03.46	11.37	11.47	-45.3	-59.9	3.8	1.49e+00	0	60	104	0	62	19026
2026-01-13 00:14:06.49	11.26	11.75	-45.0	-59.5	3.8	1.49e+00	0	60	104	0	62	18305
2026-01-13 00:14:09.52	11.16	12.03	-44.3	-58.6	3.8	1.49e+00	0	60	104	0	60	18308
2026-01-13 00:14:12.55	11.05	12.31	-44.3	-57.8	3.8	1.49e+00	0	59	104	0	60	16743
2026-01-13 00:14:15.57	10.94	12.59	-44.3	-57.7	3.8	1.49e+00	0	60	104	0	60	16607
2026-01-13 00:14:18.60	10.83	12.88	-44.3	-58.3	3.8	1.49e+00	0	59	104	0	60	17696
2026-01-13 00:14:21.63	10.71	13.17	-44.3	-58.7	3.8	1.49e+00	0	59	104	0	60	18547
2026-01-13 00:14:24.66	10.59	13.47	-44.3	-58.9	3.8	1.49e+00	0	60	104	0	60	18957
2026-01-13 00:14:27.69	10.47	13.76	-44.3	-58.4	3.8	1.49e+00	0	60	104	0	60	17892
2026-01-13 00:14:30.72	10.35	14.07	-44.2	-56.6	3.8	1.49e+00	0	60	104	0	60	14629
2026-01-13 00:14:33.75	10.22	14.37	-44.0	-54.1	4.5	1.26e+00	0	60	0	1048576	59	11658
2026-01-13 00:14:36.78	10.09	14.68	-43.9	-53.0	5.1	6.92e-01	0	60	0	7340032	59	10245
2026-01-13 00:14:39.82	9.96	15.00	-44.0	-54.1	4.6	8.95e-01	0	60	0	12582912	59	11656
2026-01-13 00:14:42.85	9.82	15.31	-44.1	-54.6	4.4	1.36e+00	0	60	0	14680064	59	12309
2026-01-13 00:14:45.88	9.69	15.63	-43.4	-50.4	7.0	2.43e-01	0	60	0	19922944	58	8019
2026-01-13 00:14:48.91	9.54	15.96	-42.2	-46.8	10.7	5.23e-03	0	60	0	26214400	56	5937
2026-01-13 00:14:51.94	9.40	16.29	-41.4	-45.3	12.1	3.25e-04	0	60	0	31457280	54	5594
2026-01-13 00:14:54.97	9.25	16.62	-42.0	-46.4	11.0	6.14e-04	0	60	0	37748736	54	6419
2026-01-13 00:14:58.01	9.10	16.96	-43.9	-52.4	5.4	1.41e-01	0	60	0	40894464	58	10062
2026-01-13 00:15:01.04	8.94	17.30	-41.5	-45.5	12.0	3.68e-04	0	60	0	47185920	55	5405
2026-01-13 00:15:04.07	8.78	17.65	-41.6	-45.4	12.1	2.08e-04	0	60	0	52428800	54	5717
2026-01-13 00:15:07.09	8.62	18.00	-41.6	-45.4	12.1	2.83e-04	0	60	0	57671680	54	5712
2026-01-13 00:15:10.12	8.45	18.36	-41.6	-45.4	12.1	2.49e-04	0	60	0	63963136	54	5719
2026-01-13 00:15:13.15	8.28	18.72	-41.8	-45.8	11.8	3.98e-04	0	60	0	69206016	54	5932
2026-01-13 00:15:16.18	8.10	19.09	-41.7	-45.7	11.9	4.58e-04	0	60	0	75497472	54	5905
2026-01-13 00:15:19.21	7.92	19.46	-41.8	-45.8	11.8	4.41e-04	0	60	0	80740352	54	5936
2026-01-13 00:15:22.23	7.73	19.83	-41.7	-45.6	12.0	4.67e-04	0	60	0	87031808	54	5804
2026-01-13 00:15:25.26	7.54	20.22	-41.7	-45.6	12.0	4.10e-04	0	60	0	92274688	54	5844
2026-01-13 00:15:28.29	7.35	20.61	-41.7	-45.6	12.0	1.58e-04	0	60	0	97517568	54	5849
2026-01-13 00:15:31.32	7.15	21.00	-41.7	-45.4	12.2	1.56e-04	0	60	0	103809024	54	5717
2026-01-13 00:15:34.35	6.94	21.40	-41.7	-45.4	12.3	1.86e-04	0	60	0	109051904	54	5706
2026-01-13 00:15:37.37	6.73	21.80	-41.8	-45.7	12.0	2.73e-04	0	60	0	115343360	54	5869
2026-01-13 00:15:40.40	6.51	22.22	-41.9	-45.8	11.9	3.97e-04	0	60	0	120586240	54	5978
2026-01-13 00:15:43.43	6.28	22.63	-41.9	-45.8	11.9	4.33e-04	0	60	0	125829120	54	5991
2026-01-13 00:15:46.46	6.05	23.06	-41.7	-45.5	12.2	3.39e-04	0	60	0	132120576	54	5772
2026-01-13 00:15:49.49	5.81	23.49	-41.7	-45.4	12.4	1.31e-04	0	60	0	137363456	54	5716
2026-01-13 00:15:52.52	5.57	23.93	-42.0	-46.0	11.7	3.84e-04	0	60	0	143654912	54	6103
2026-01-13 00:15:55.55	5.31	24.37	-42.2	-46.4	11.4	1.13e-03	0	60	0	148897792	55	5995
2026-01-13 00:15:58.59	5.05	24.83	-42.4	-46.9	10.9	2.29e-03	0	60	0	155189248	55	6385
2026-01-13 00:16:01.61	4.79	25.29	-42.4	-46.9	10.9	2.69e-03	0	60	0	160432128	55	6404
2026-01-13 00:16:04.64	4.51	25.75	-42.4	-46.8	11.0	2.09e-03	0	60	0	165675008	55	6333
2026-01-13 00:16:07.67	4.22	26.23	-42.3	-46.7	11.1	2.33e-03	0	60	0	171966464	55	6207
2026-01-13 00:16:10.70	3.93	26.71	-42.4	-46.8	11.1	2.78e-03	0	60	0	177209344	55	6277
2026-01-13 00:16:13.73	3.63	27.20	-42.6	-47.2	10.6	2.36e-03	0	60	0	183500800	55	6626
2026-01-13 00:16:16.76	3.31	27.70	-42.5	-47.1	10.8	2.38e-03	0	60	0	188743680	55	6504
2026-01-13 00:16:19.79	2.99	28.20	-42.3	-46.5	11.4	1.16e-03	0	60	0	193986560	55	6064
2026-01-13 00:16:22.82	2.65	28.72	-42.2	-46.1	11.8	6.73e-04	0	60	0	200278016	55	5844
2026-01-13 00:16:25.84	2.31	29.24	-42.4	-46.6	11.2	1.07e-03	0	60	0	205520896	55	6180
2026-01-13 00:16:28.87	1.95	29.77	-43.0	-47.9	10.2	4.69e-03	0	60	0	211812352	56	6730
2026-01-13 00:16:31.90	1.58	30.31	-43.2	-48.4	9.6	1.84e-02	0	60	0	217055232	57	6793
2026-01-13 00:16:34.93	1.20	30.86	-43.4	-49.2	8.9	2.38e-02	0	60	0	222298112	57	7379
2026-01-13 00:16:37.96	0.80	31.42	-43.5	-49.2	8.8	3.13e-02	0	60	0	228589568	57	7384
2026-01-13 00:16:40.98	0.39	31.98	-43.6	-49.7	8.4	5.70e-02	0	60	0	233832448	57	7846
2026-01-13 00:16:44.01	359.96	32.56	-43.6	-49.4	8.6	4.02e-02	0	60	0	240123904	58	7181
2026-01-13 00:16:47.04	359.52	33.14	-43.6	-49.5	8.6	4.02e-02	0	60	0	245366784	58	7280
2026-01-13 00:16:50.07	359.06	33.74	-43.8	-50.0	7.9	5.91e-02	0	60	0	251658240	58	7674
2026-01-13 00:16:53.10	358.58	34.34	-43.9	-50.3	7.7	1.34e-01	0	60	0	256901120	58	7952
2026-01-13 00:16:56.13	358.09	34.96	-44.0	-50.9	7.2	1.12e-01	0	60	0	262144000	58	8491
2026-01-13 00:16:59.16	357.57	35.58	-44.2	-51.8	6.5	1.50e-01	0	60	0	268435456	59	8946
2026-01-13 00:17:02.19	357.04	36.22	-44.1	-51.4	6.7	2.16e-01	0	60	0	273678336	59	8523
2026-01-13 00:17:05.22	356.48	36.86	-43.6	-49.3	8.9	4.43e-02	0	60	0	279969792	59	6647
2026-01-13 00:17:08.25	355.90	37.51	-43.4	-48.8	9.4	1.74e-02	0	60	0	285212672	58	6661
2026-01-13 00:17:11.28	355.29	38.18	-43.5	-48.9	9.3	2.30e-02	0	60	0	290455552	58	6775
2026-01-13 00:17:14.31	354.66	38.85	-43.3	-48.3	9.8	1.24e-02	0	60	0	296747008	58	6347
2026-01-13 00:17:17.34	354.01	39.53	-43.0	-47.7	10.6	4.91e-03	0	60	0	301989888	58	5865
2026-01-13 00:17:20.37	353.32	40.22	-43.3	-48.5	9.7	7.88e-03	0	60	0	308281344	58	6435
2026-01-13 00:17:23.40	352.60	40.92	-43.5	-49.0	9.2	2.07e-02	0	60	0	313524224	58	6825
2026-01-13 00:17:26.42	351.85	41.62	-43.3	-48.3	9.9	8.88e-03	0	60	0	319815680	58	6301
2026-01-13 00:17:29.45	351.07	42.34	-43.1	-47.8	10.4	5.53e-03	0	60	0	325058560	58	5988
2026-01-13 00:17:32.48	350.25	43.06	-43.7	-49.5	8.7	2.68e-02	0	60	0	330301440	58	7249
2026-01-13 00:17:35.51	349.39	43.79	-43.5	-48.8	9.5	2.90e-02	0	60	0	336592896	58	6673
2026-01-13 00:17:38.54	348.49	44.53	-43.3	-48.3	10.0	1.59e-02	0	60	0	341835776	58	6346
2026-01-13 00:17:41.57	347.55	45.27	-43.4	-48.5	9.8	1.11e-02	0	60	0	348127232	58	6474
2026-01-13 00:17:44.60	346.56	46.02	-43.4	-48.6	9.5	1.11e-02	0	60	0	353370112	58	6533
2026-01-13 00:17:47.63	345.52	46.77	-43.2	-47.9	10.4	9.76e-03	0	60	0	358612992	58	6050
2026-01-13 00:17:50.66	344.44	47.52	-42.9	-47.4	11.0	2.24e-03	0	60	0	364904448	57	5994
2026-01-13 00:17:53.68	343.30	48.28	-42.8	-47.1	11.3	1.77e-03	0	60	0	370147328	57	5849
2026-01-13 00:17:56.71	342.10	49.03	-42.9	-47.3	11.0	1.15e-03	0	60	0	376438784	57	5972
2026-01-13 00:17:59.74	340.83	49.78	-43.4	-48.6	9.6	1.20e-02	0	60	0	381681664	57	6920
2026-01-13 00:18:02.77	339.51	50.53	-43.1	-47.7	10.6	4.58e-03	0	60	0	387973120	57	6264
2026-01-13 00:18:05.80	338.11	51.28	-42.6	-46.6	11.8	5.83e-04	0	60	0	393216000	57	5484
2026-01-13 00:18:08.82	336.65	52.02	-41.3	-44.2	13.9	3.00e-06	0	60	0	398458880	54	4972
2026-01-13 00:18:11.85	335.11	52.74	-42.1	-45.8	12.4	9.76e-05	0	60	0	404750336	54	5991
2026-01-13 00:18:14.88	333.49	53.46	-42.6	-46.9	11.3	6.70e-04	0	60	0	409993216	55	6404
2026-01-13 00:18:17.91	331.79	54.16	-43.4	-48.6	9.7	1.30e-02	0	60	0	416284672	57	6934
2026-01-13 00:18:20.94	330.01	54.85	-42.0	-45.5	12.8	2.30e-04	0	60	0	421527552	56	5155
2026-01-13 00:18:23.97	328.14	55.51	-42.9	-47.2	11.1	4.03e-04	0	61	0	426770432	56	6263
2026-01-13 00:18:27.00	326.18	56.16	-42.6	-46.7	11.5	1.08e-03	0	60	0	433061888	56	5912
2026-01-13 00:18:30.03	324.12	56.77	-42.6	-46.7	11.6	5.74e-04	0	60	0	438304768	56	5886
2026-01-13 00:18:33.06	321.98	57.35	-42.8	-47.1	11.2	1.17e-03	0	60	0	444596224	56	6139
2026-01-13 00:18:36.08	319.75	57.90	-42.5	-46.4	11.9	4.49e-04	0	60	0	449839104	56	5687
2026-01-13 00:18:39.11	317.42	58.41	-42.2	-45.9	12.4	1.04e-04	0	60	0	456130560	56	5382
2026-01-13 00:18:42.14	315.01	58.88	-42.8	-47.3	11.1	1.90e-03	0	60	0	461373440	56	6291
2026-01-13 00:18:45.17	312.51	59.31	-42.9	-47.4	10.9	1.84e-03	0	60	0	466616320	56	6392
2026-01-13 00:18:48.20	309.93	59.68	-42.5	-46.3	12.0	2.64e-04	0	60	0	472907776	56	5643
2026-01-13 00:18:51.22	307.30	60.00	-43.0	-47.6	10.6	5.98e-03	0	60	0	478150656	57	6132
2026-01-13 00:18:54.25	304.59	60.27	-43.4	-48.7	9.5	8.13e-03	0	60	0	484442112	57	7011
2026-01-13 00:18:57.28	301.83	60.48	-43.1	-47.7	10.5	4.27e-03	0	60	0	489684992	57	6237
2026-01-13 00:19:00.31	299.03	60.63	-43.2	-48.2	10.0	8.42e-03	0	60	0	494927872	57	6571
2026-01-13 00:19:03.34	296.20	60.72	-42.2	-46.0	12.3	1.48e-04	0	60	0	501219328	56	5437
2026-01-13 00:19:06.36	293.37	60.75	-40.9	-43.7	14.4	7.00e-07	0	60	0	506462208	53	4934
2026-01-13 00:19:09.39	290.53	60.71	-40.8	-43.6	14.6	0.00e+00	0	60	0	512753664	53	4874
2026-01-13 00:19:12.42	287.71	60.62	-41.4	-44.6	13.5	3.00e-06	0	60	0	517996544	53	5484
2026-01-13 00:19:15.45	284.91	60.46	-40.8	-43.7	14.4	0.00e+00	0	60	0	524288000	53	4927
2026-01-13 00:19:18.47	282.16	60.24	-42.0	-45.8	12.2	1.04e-04	0	60	0	529530880	54	5950
2026-01-13 00:19:21.50	279.46	59.97	-41.0	-43.8	14.2	1.50e-06	0	60	0	534773760	53	5041
2026-01-13 00:19:24.53	276.82	59.64	-42.5	-46.7	11.4	4.74e-04	0	60	0	541065216	55	6215
2026-01-13 00:19:27.56	274.25	59.26	-42.6	-46.8	11.4	8.21e-04	0	60	0	546308096	56	5958
2026-01-13 00:19:30.59	271.76	58.83	-43.2	-48.2	10.0	1.28e-02	0	60	0	552599552	57	6580
2026-01-13 00:19:33.62	269.35	58.35	-42.4	-46.3	11.9	7.99e-04	0	60	0	557842432	56	5625
2026-01-13 00:19:36.64	267.04	57.84	-42.2	-45.9	12.2	2.10e-04	0	60	0	563085312	56	5385
2026-01-13 00:19:39.67	264.81	57.28	-42.0	-45.6	12.4	1.55e-04	0	60	0	569376768	55	5490
2026-01-13 00:19:42.70	262.67	56.69	-41.5	-44.7	13.3	3.58e-05	0	60	0	574619648	55	4973
2026-01-13 00:19:45.73	260.63	56.08	-41.4	-44.6	13.4	1.67e-05	0	60	0	580911104	53	5507
2026-01-13 00:19:48.76	258.67	55.43	-41.9	-45.4	12.6	8.85e-05	0	61	0	586153984	54	5700
2026-01-13 00:19:51.79	256.81	54.76	-42.3	-46.3	11.6	5.06e-04	0	60	0	592445440	55	5986
2026-01-13 00:19:54.82	255.03	54.07	-42.3	-46.3	11.7	1.23e-03	0	60	0	597688320	55	5958
2026-01-13 00:19:57.85	253.34	53.37	-43.1	-47.8	10.3	4.83e-03	0	60	0	602931200	56	6698
2026-01-13 00:20:00.87	251.73	52.65	-42.9	-47.4	10.7	6.07e-03	0	61	0	609222656	56	6415
2026-01-13 00:20:03.90	250.19	51.91	-42.2	-45.8	12.4	1.62e-04	0	60	0	614465536	56	5291
2026-01-13 00:20:06.93	248.73	51.17	-42.9	-47.5	10.6	4.54e-03	0	61	0	620756992	56	6482
2026-01-13 00:20:09.96	247.35	50.42	-42.1	-45.7	12.3	7.09e-05	0	60	0	625999872	55	5581
2026-01-13 00:20:12.99	246.02	49.67	-43.4	-48.7	9.3	2.33e-02	0	60	0	631242752	57	6997
2026-01-13 00:20:16.02	244.77	48.91	-43.4	-48.7	9.4	1.55e-02	0	60	0	637534208	57	7004
2026-01-13 00:20:19.04	243.57	48.16	-43.7	-49.6	8.5	2.67e-02	0	60	0	642777088	57	7776
2026-01-13 00:20:22.07	242.44	47.40	-44.2	-51.5	6.6	3.08e-01	0	60	0	649068544	59	8583
2026-01-13 00:20:25.10	241.35	46.65	-43.3	-48.4	9.6	1.63e-02	0	60	0	654311424	58	6365
2026-01-13 00:20:28.13	240.32	45.89	-43.3	-48.5	9.4	1.81e-02	0	60	0	660602880	58	6470
2026-01-13 00:20:31.16	239.33	45.14	-42.7	-47.0	11.1	2.60e-03	0	60	0	665845760	57	5753
2026-01-13 00:20:34.19	238.39	44.40	-43.3	-48.3	9.7	8.15e-03	0	60	0	671088640	57	6715
2026-01-13 00:20:37.21	237.50	43.66	-43.5	-48.9	9.0	1.91e-02	0	60	0	677380096	57	7196
2026-01-13 00:20:40.24	236.64	42.93	-43.2	-48.2	9.8	1.07e-02	0	60	0	682622976	57	6622
2026-01-13 00:20:43.27	235.83	42.21	-43.6	-49.2	8.7	2.65e-02	0	60	0	688914432	57	7446
2026-01-13 00:20:46.29	235.05	41.49	-43.1	-48.0	9.9	6.75e-03	0	60	0	694157312	57	6482
2026-01-13 00:20:49.33	234.30	40.78	-43.5	-49.0	9.0	2.15e-02	0	60	0	699400192	57	7241
2026-01-13 00:20:52.36	233.58	40.08	-43.6	-49.4	8.5	3.17e-02	0	60	0	705691648	57	7630
2026-01-13 00:20:55.39	232.89	39.39	-43.7	-49.6	8.4	5.84e-02	0	61	0	710934528	58	7364
2026-01-13 00:20:58.42	232.24	38.71	-43.4	-48.7	9.2	3.26e-02	0	60	0	717225984	58	6646
2026-01-13 00:21:01.44	231.61	38.04	-43.8	-49.8	8.1	6.23e-02	0	60	0	722468864	58	7526
2026-01-13 00:21:04.48	231.00	37.37	-43.8	-49.8	8.1	6.23e-02	0	60	0	727711744	58	7510
2026-01-13 00:21:07.50	230.43	36.72	-43.1	-48.0	10.0	1.41e-02	0	60	0	734003200	58	6088
2026-01-13 00:21:10.53	229.87	36.07	-43.5	-49.0	9.0	1.87e-02	0	60	0	739246080	58	6845
2026-01-13 00:21:13.57	229.33	35.44	-43.5	-49.0	8.9	3.51e-02	0	60	0	745537536	58	6817
2026-01-13 00:21:16.60	228.82	34.81	-43.6	-49.3	8.6	3.26e-02	0	60	0	750780416	58	7118
2026-01-13 00:21:19.63	228.32	34.19	-43.0	-47.7	10.3	1.51e-02	0	60	0	757071872	58	5909
2026-01-13 00:21:22.66	227.85	33.59	-43.3	-48.5	9.5	8.08e-03	0	60	0	762314752	57	6875
2026-01-13 00:21:25.69	227.39	32.99	-43.2	-48.3	9.6	3.43e-02	0	60	0	767557632	57	6676
2026-01-13 00:21:28.71	226.95	32.41	-43.2	-48.2	9.8	4.38e-03	0	60	0	773849088	57	6591
2026-01-13 00:21:31.74	226.52	31.83	-43.8	-50.1	7.8	9.73e-02	0	60	0	779091968	58	7760
2026-01-13 00:21:34.77	226.11	31.26	-43.0	-47.8	10.1	1.04e-02	0	60	0	785383424	58	5966
2026-01-13 00:21:37.80	225.71	30.70	-43.2	-48.3	9.7	1.03e-02	0	60	0	790626304	57	6649
2026-01-13 00:21:40.83	225.33	30.15	-43.0	-47.8	10.1	9.19e-03	0	60	0	795869184	57	6331
2026-01-13 00:21:43.85	224.96	29.61	-42.7	-47.1	10.8	1.79e-03	0	60	0	802160640	57	5830
2026-01-13 00:21:46.88	224.60	29.08	-43.6	-49.5	8.4	2.80e-02	0	60	0	807403520	57	7665
2026-01-13 00:21:49.91	224.25	28.56	-43.3	-48.7	9.2	3.30e-02	0	60	0	813694976	57	7001
2026-01-13 00:21:52.94	223.92	28.04	-43.2	-48.4	9.5	1.30e-02	0	60	0	818937856	57	6740
2026-01-13 00:21:55.97	223.59	27.54	-43.1	-48.2	9.6	1.26e-02	0	60	0	825229312	57	6628
2026-01-13 00:21:59.00	223.28	27.04	-42.7	-47.1	10.8	2.53e-03	0	61	0	830472192	57	5817
2026-01-13 00:22:02.02	222.97	26.55	-42.6	-46.9	11.0	1.97e-03	0	60	0	835715072	56	6061
2026-01-13 00:22:05.05	222.68	26.07	-43.2	-48.6	9.2	1.23e-02	0	60	0	842006528	57	6907
2026-01-13 00:22:08.08	222.39	25.59	-43.5	-49.2	8.6	3.03e-02	0	61	0	847249408	57	7417
2026-01-13 00:22:11.11	222.12	25.12	-43.3	-48.8	9.1	2.14e-02	0	60	0	853540864	57	7051
2026-01-13 00:22:14.14	221.85	24.66	-43.2	-48.6	9.1	2.11e-02	0	60	0	858783744	57	6928
2026-01-13 00:22:17.17	221.59	24.21	-43.2	-48.5	9.3	1.91e-02	0	60	0	864026624	57	6879
2026-01-13 00:22:20.20	221.33	23.76	-42.9	-47.6	10.2	7.63e-03	0	60	0	870318080	57	6182
2026-01-13 00:22:23.23	221.09	23.33	-42.9	-47.6	10.2	5.71e-03	0	60	0	875560960	57	6167
2026-01-13 00:22:26.25	220.85	22.90	-42.8	-47.4	10.5	5.01e-03	0	60	0	881852416	57	6015
2026-01-13 00:22:29.29	220.61	22.47	-42.7	-47.2	10.6	3.16e-03	0	60	0	887095296	57	5917
2026-01-13 00:22:32.31	220.39	22.05	-42.5	-46.7	11.1	1.48e-03	0	60	0	893386752	56	5908
2026-01-13 00:22:35.34	220.17	21.64	-42.3	-46.5	11.3	1.16e-03	0	60	0	898629632	56	5736
2026-01-13 00:22:38.37	219.95	21.23	-42.6	-47.1	10.6	3.32e-03	0	60	0	903872512	56	6186
2026-01-13 00:22:41.40	219.74	20.83	-43.1	-48.3	9.4	1.44e-02	0	61	0	910163968	56	7093
2026-01-13 00:22:44.42	219.54	20.44	-43.4	-49.3	8.4	3.47e-02	0	60	0	915406848	57	7520
2026-01-13 00:22:47.45	219.34	20.05	-43.4	-49.4	8.3	5.08e-02	0	61	0	921698304	57	7580
2026-01-13 00:22:50.48	219.15	19.67	-43.3	-49.0	8.6	3.06e-02	0	60	0	926941184	57	7238
2026-01-13 00:22:53.51	218.96	19.29	-43.0	-48.2	9.4	2.05e-02	0	61	0	932184064	57	6635
2026-01-13 00:22:56.54	218.78	18.92	-42.7	-47.5	10.2	7.90e-03	0	60	0	938475520	57	6117
2026-01-13 00:22:59.56	218.60	18.55	-42.5	-46.9	10.8	2.31e-03	0	60	0	943718400	56	6020
2026-01-13 00:23:02.59	218.43	18.19	-42.2	-46.4	11.3	1.17e-03	0	61	0	950009856	56	5684
2026-01-13 00:23:05.62	218.26	17.83	-42.2	-46.3	11.4	9.98e-04	0	61	0	955252736	56	5614
2026-01-13 00:23:08.65	218.09	17.48	-42.3	-46.6	11.0	1.47e-03	0	60	0	961544192	56	5852
2026-01-13 00:23:11.68	217.93	17.13	-42.4	-46.9	10.8	2.98e-03	0	60	0	966787072	56	6003
2026-01-13 00:23:14.71	217.77	16.79	-42.7	-47.6	10.1	4.90e-03	0	60	0	972029952	56	6517
2026-01-13 00:23:17.73	217.62	16.45	-42.8	-47.7	9.9	8.60e-03	0	60	0	978321408	56	6620
2026-01-13 00:23:20.76	217.47	16.12	-42.7	-47.6	10.0	9.23e-03	0	60	0	983564288	56	6495
2026-01-13 00:23:23.79	217.32	15.79	-42.7	-47.5	10.1	7.68e-03	0	60	0	989855744	56	6467
2026-01-13 00:23:26.82	217.18	15.46	-42.7	-47.6	10.0	8.71e-03	0	60	0	995098624	56	6518
2026-01-13 00:23:29.85	217.04	15.14	-42.7	-47.7	9.8	9.80e-03	0	61	0	1000341504	56	6636
2026-01-13 00:23:32.88	216.90	14.82	-42.8	-48.1	9.2	1.55e-02	0	61	0	1006632960	56	6911
2026-01-13 00:23:35.91	216.77	14.51	-43.0	-48.5	8.9	2.63e-02	0	60	0	1011875840	56	7258
2026-01-13 00:23:38.94	216.63	14.20	-43.1	-48.9	8.6	4.27e-02	0	60	0	1018167296	56	7557
2026-01-13 00:23:41.97	216.51	13.89	-43.2	-49.1	8.2	4.84e-02	0	60	0	1023410176	57	7365
2026-01-13 00:23:44.99	216.38	13.59	-43.0	-48.8	8.6	4.13e-02	0	60	0	1029701632	57	7062
2026-01-13 00:23:48.02	216.26	13.29	-42.9	-48.5	8.9	2.62e-02	0	60	0	1034944512	57	6805
2026-01-13 00:23:51.05	216.14	13.00	-42.7	-47.9	9.5	1.51e-02	0	60	0	1040187392	57	6402
2026-01-13 00:23:54.08	216.02	12.71	-42.5	-47.4	10.0	7.68e-03	0	61	0	1046478848	56	6366
2026-01-13 00:23:57.11	215.90	12.42	-42.5	-47.3	10.1	5.52e-03	0	60	0	1051721728	56	6297
2026-01-13 00:24:00.14	215.79	12.13	-42.4	-47.1	10.2	5.92e-03	0	60	0	1058013184	56	6166
2026-01-13 00:24:03.17	215.68	11.85	-42.4	-47.1	10.2	6.51e-03	0	60	0	1063256064	56	6173
2026-01-13 00:24:06.20	215.57	11.57	-42.4	-47.2	10.2	5.72e-03	0	60	0	1068498944	56	6209
2026-01-13 00:24:09.22	215.46	11.30	-42.4	-47.4	9.9	8.67e-03	0	60	0	1074790400	56	6396
2026-01-13 00:24:12.25	215.36	11.03	-42.5	-47.7	9.5	1.22e-02	0	60	0	1080033280	56	6644
2026-01-13 00:24:15.28	215.26	10.76	-42.6	-48.1	9.2	1.82e-02	0	60	0	1086324736	56	6896
2026-01-13 00:24:18.31	215.16	10.49	-42.6	-47.9	9.3	2.64e-02	0	60	0	1091567616	56	6796
2026-01-13 00:24:21.34	215.06	10.22	-42.7	-48.4	8.8	3.17e-02	0	60	0	1097859072	56	7145
2026-01-13 00:24:24.37	214.96	9.96	-42.7	-48.4	8.7	3.17e-02	0	60	0	1103101952	56	7127
2026-01-13 00:24:27.40	214.87	9.70	-42.7	-48.4	8.6	3.40e-02	0	61	0	1108344832	56	7194
2026-01-13 00:24:30.43	214.77	9.45	-42.7	-48.6	8.5	4.14e-02	0	61	0	1114636288	56	7302
2026-01-13 00:24:33.46	214.68	9.19	-42.7	-48.6	8.4	4.98e-02	0	61	0	1119879168	56	7356
2026-01-13 00:24:36.49	214.59	8.94	-42.8	-48.9	8.1	5.56e-02	0	61	0	1126170624	56	7566
2026-01-13 00:24:39.51	214.51	8.70	-42.8	-49.0	7.9	7.25e-02	0	61	0	1131413504	56	7696
2026-01-13 00:24:42.54	214.42	8.45	-42.8	-49.2	7.7	9.98e-02	0	60	0	1136656384	56	7843
2026-01-13 00:24:45.57	214.33	8.20	-42.8	-49.5	7.4	1.19e-01	0	61	0	1142947840	56	8100
2026-01-13 00:24:48.60	214.25	7.96	-43.9	-55.4	4.1	2.91e-01	0	60	0	1148190720	58	14274
2026-01-13 00:24:51.63	214.17	7.72	-44.9	-59.3	3.8	1.49e+00	0	61	104	1148190720	60	19989
2026-01-13 00:24:54.66	214.09	7.49	-45.2	-59.6	3.8	1.49e+00	0	61	104	1148190720	60	20645
2026-01-13 00:24:57.69	214.01	7.25	-45.2	-59.6	3.8	1.49e+00	0	61	104	1148190720	61	19480
2026-01-13 00:25:00.71	213.93	7.02	-45.1	-59.5	3.8	1.49e+00	0	60	104	1148190720	61	19338
2026-01-13 00:25:03.74	213.86	6.79	-45.1	-59.6	3.8	1.49e+00	0	60	104	1148190720	61	19424
2026-01-13 00:25:06.77	213.78	6.56	-45.1	-59.5	3.8	1.49e+00	0	60	104	1148190720	61	19341
2026-01-13 00:25:09.80	213.71	6.33	-45.1	-59.5	3.8	1.49e+00	0	60	104	1148190720	61	19337
2026-01-13 00:25:12.83	213.64	6.11	-45.1	-59.5	3.8	1.49e+00	0	60	104	1148190720	61	19337
2026-01-13 00:25:15.85	213.57	5.88	-45.1	-59.5	3.8	1.49e+00	0	61	104	1148190720	61	19293
2026-01-13 00:25:18.88	213.50	5.66	-45.1	-59.5	3.8	1.49e+00	0	60	104	1148190720	61	19289
2026-01-13 00:25:21.91	213.43	5.44	-45.1	-59.5	3.8	1.49e+00	0	60	104	1148190720	61	19322
2026-01-13 00:25:24.94	213.36	5.22	-45.1	-59.5	3.8	1.49e+00	0	61	104	1148190720	61	19273
2026-01-13 00:25:27.97	213.29	5.01	-45.0	-59.5	3.8	1.49e+00	0	60	104	1148190720	61	19245
2026-01-13 00:25:31.00	213.23	4.79	-45.0	-59.5	3.8	1.49e+00	0	60	104	1148190720	61	19196
2026-01-13 00:25:34.02	213.16	4.58	-45.0	-59.5	3.8	1.49e+00	0	60	104	1148190720	61	19177
2026-01-13 00:25:37.05	213.10	4.37	-45.0	-59.4	3.8	1.49e+00	0	60	104	1148190720	61	19141
2026-01-13 00:25:40.08	213.04	4.16	-45.0	-59.5	3.8	1.49e+00	0	60	104	1148190720	61	19223
2026-01-13 00:25:43.11	212.98	3.95	-45.0	-59.5	3.8	1.49e+00	0	60	104	1148190720	61	19186
2026-01-13 00:25:46.14	212.92	3.75	-45.0	-59.5	3.8	1.49e+00	0	61	104	1148190720	61	19239
2026-01-13 00:25:49.17	212.86	3.54	-45.0	-59.5	3.8	1.49e+00	0	60	104	1148190720	61	19193
2026-01-13 00:25:52.20	212.80	3.34	-45.0	-59.5	3.8	1.49e+00	0	60	104	1148190720	61	19216
2026-01-13 00:25:55.23	212.74	3.14	-45.0	-59.4	3.8	1.49e+00	0	60	104	1148190720	61	19152
2026-01-13 00:25:58.26	212.68	2.94	-45.0	-59.5	3.8	1.49e+00	0	60	104	1148190720	61	19176
2026-01-13 00:26:01.29	212.63	2.74	-45.0	-59.5	3.8	1.49e+00	0	61	104	1148190720	61	19174
2026-01-13 00:26:04.32	212.57	2.54	-45.0	-59.5	3.8	1.49e+00	0	60	104	1148190720	61	19193
2026-01-13 00:26:07.35	212.52	2.34	-45.0	-59.4	3.8	1.49e+00	0	61	104	1148190720	61	19126
2026-01-13 00:26:10.38	212.47	2.15	-45.0	-59.4	3.8	1.49e+00	0	60	104	1148190720	61	19160

#Closed at: 2026-01-13 00:26:12
#Recorded file [1148 MB]: D:/lorett/data/31039_260113_031400.dat