passes_logs/2026/01/13/R2.0S_Moscow/R2.0S_Moscow__20260113_093257_NOAA_21_JPSS-2_rec.log

#Pass ID: 20260113_093257_NOAA 21 (JPSS-2)
#Satellite: NOAA 21 (JPSS-2)
#Configuration: NOAA-21
#almurnet v.1.7.20251203
#Start time: 2026-01-13 09:32:59

#Version: 2.2.20231116
#Station: R2.0S_Moscow
#Location: 37.707566 lon 55.798166 lat
#TLE: 1 54234U 22150A   26012.26378519  .00000063  00000+0  50547-4 0  9993
#TLE: 2 54234  98.7495 313.1967 0000726 309.1075  51.0036 14.19534275164425

#Time	Az	El	Level	Level2	SNR	BER	BlckErr	Temp	State	Recorded	gain1	gain2
2026-01-13 09:32:59.89	149.82	2.14	-43.7	-55.8	3.8	1.49e+00	0	49	0	0	58	15033
2026-01-13 09:33:03.94	149.76	2.41	-43.7	-55.9	3.8	1.49e+00	0	49	104	0	57	15963
2026-01-13 09:33:07.98	149.70	2.67	-43.6	-55.8	3.8	1.49e+00	0	49	104	0	57	15873
2026-01-13 09:33:12.02	149.64	2.93	-43.7	-55.8	3.8	1.49e+00	0	49	104	0	57	15800
2026-01-13 09:33:16.06	149.58	3.20	-43.7	-55.8	3.8	1.49e+00	0	50	104	0	57	15922
2026-01-13 09:33:20.10	149.52	3.47	-43.7	-55.8	3.8	1.49e+00	0	50	104	0	57	15841
2026-01-13 09:33:24.14	149.45	3.75	-43.7	-55.8	3.8	1.49e+00	0	50	104	0	57	15881
2026-01-13 09:33:28.18	149.39	4.02	-43.6	-55.8	3.8	1.49e+00	0	51	104	0	57	15863
2026-01-13 09:33:32.22	149.32	4.30	-43.7	-55.8	3.8	1.49e+00	0	51	104	0	57	15852
2026-01-13 09:33:36.26	149.25	4.59	-43.6	-55.8	3.8	1.49e+00	0	51	104	0	57	15905
2026-01-13 09:33:40.30	149.18	4.87	-43.7	-55.8	3.8	1.49e+00	0	51	104	0	57	15904
2026-01-13 09:33:44.34	149.11	5.16	-43.7	-55.8	3.8	1.49e+00	0	51	104	0	57	15880
2026-01-13 09:33:48.38	149.04	5.45	-43.6	-55.7	3.8	1.49e+00	0	52	104	0	57	15720
2026-01-13 09:33:52.42	148.97	5.75	-43.6	-55.5	3.8	1.49e+00	0	52	104	0	57	15252
2026-01-13 09:33:56.46	148.89	6.04	-43.6	-54.8	3.8	1.49e+00	0	52	104	0	57	14077
2026-01-13 09:34:00.50	148.81	6.35	-43.4	-53.7	3.8	1.48e+00	0	52	104	0	57	12465
2026-01-13 09:34:04.54	148.73	6.65	-43.3	-52.8	4.1	1.48e+00	0	53	104	0	57	11265
2026-01-13 09:34:08.58	148.65	6.96	-43.2	-54.5	3.8	1.49e+00	0	53	104	0	57	13616
2026-01-13 09:34:12.62	148.56	7.27	-43.6	-55.6	3.8	1.49e+00	0	53	104	0	57	15411
2026-01-13 09:34:16.66	148.48	7.59	-43.1	-51.7	4.0	1.21e+00	0	53	104	0	57	9932
2026-01-13 09:34:20.70	148.39	7.91	-42.0	-47.1	7.4	1.38e-01	0	53	0	9437184	56	6165
2026-01-13 09:34:24.74	148.30	8.23	-41.6	-46.4	5.0	1.41e+00	0	53	104	14680064	54	6348
2026-01-13 09:34:28.78	148.21	8.56	-40.9	-44.7	9.5	1.33e-02	0	53	0	20971520	53	5576
2026-01-13 09:34:32.82	148.11	8.89	-40.8	-44.4	10.1	8.35e-03	0	54	0	33554432	52	5676
2026-01-13 09:34:36.85	148.02	9.23	-40.7	-44.1	10.4	4.54e-03	0	54	0	46137344	52	5522
2026-01-13 09:34:40.89	147.92	9.57	-40.5	-43.9	10.7	2.90e-03	0	54	0	58720256	51	5698
2026-01-13 09:34:44.93	147.81	9.91	-40.5	-43.8	10.9	2.30e-03	0	54	0	71303168	51	5632
2026-01-13 09:34:48.97	147.71	10.26	-40.6	-43.7	11.0	2.12e-03	0	54	0	83886080	51	5586
2026-01-13 09:34:53.01	147.60	10.62	-40.3	-43.5	11.1	3.01e-03	0	54	0	96468992	51	5419
2026-01-13 09:34:57.05	147.49	10.98	-40.3	-43.3	11.6	7.36e-04	0	54	0	109051904	51	5315
2026-01-13 09:35:01.08	147.38	11.34	-40.4	-43.4	11.6	7.41e-04	0	55	0	121634816	51	5354
2026-01-13 09:35:05.13	147.26	11.72	-40.3	-43.2	11.8	2.05e-03	0	55	0	134217728	51	5246
2026-01-13 09:35:09.17	147.14	12.09	-40.3	-43.1	11.9	4.40e-04	0	54	0	146800640	51	5216
2026-01-13 09:35:13.21	147.01	12.48	-40.3	-43.2	11.9	3.72e-04	0	55	0	159383552	51	5225
2026-01-13 09:35:17.24	146.89	12.86	-40.2	-43.0	12.1	1.11e-03	0	55	0	171966464	51	5131
2026-01-13 09:35:21.28	146.76	13.26	-40.1	-42.8	12.4	1.69e-04	0	55	0	184549376	51	5024
2026-01-13 09:35:25.32	146.62	13.66	-40.1	-42.8	12.3	8.22e-04	0	55	0	197132288	51	5035
2026-01-13 09:35:29.37	146.48	14.07	-39.7	-42.7	12.1	7.93e-04	0	55	0	209715200	50	5259
2026-01-13 09:35:33.40	146.34	14.48	-40.0	-42.8	12.5	2.98e-04	0	55	0	222298112	51	4993
2026-01-13 09:35:37.45	146.19	14.91	-39.9	-42.6	12.4	6.46e-04	0	55	0	234881024	50	5202
2026-01-13 09:35:41.48	146.04	15.33	-40.2	-42.8	12.6	1.55e-03	0	55	0	247463936	50	5282
2026-01-13 09:35:45.53	145.88	15.77	-40.2	-42.8	12.5	1.89e-03	0	55	0	260046848	51	5029
2026-01-13 09:35:49.57	145.72	16.21	-40.3	-42.9	12.5	3.17e-04	0	55	0	273678336	51	5093
2026-01-13 09:35:53.60	145.55	16.66	-40.2	-42.7	12.7	1.51e-04	0	55	0	286261248	51	4958
2026-01-13 09:35:57.64	145.38	17.12	-40.3	-42.8	12.7	8.39e-05	0	55	0	298844160	51	5035
2026-01-13 09:36:01.68	145.20	17.59	-40.3	-42.9	12.6	8.31e-05	0	56	0	311427072	51	5065
2026-01-13 09:36:05.72	145.02	18.07	-40.4	-43.0	12.5	9.38e-05	0	56	0	324009984	51	5129
2026-01-13 09:36:09.76	144.83	18.56	-40.4	-43.1	12.5	1.19e-04	0	55	0	336592896	51	5169
2026-01-13 09:36:13.80	144.63	19.05	-40.4	-43.1	12.5	1.20e-04	0	56	0	349175808	51	5177
2026-01-13 09:36:17.84	144.43	19.56	-40.2	-43.0	12.4	9.91e-05	0	56	0	361758720	51	5108
2026-01-13 09:36:21.87	144.21	20.07	-40.3	-42.8	12.9	4.65e-05	0	56	0	374341632	51	5022
2026-01-13 09:36:25.91	144.00	20.60	-40.1	-42.5	13.1	3.28e-05	0	56	0	386924544	51	4860
2026-01-13 09:36:29.96	143.77	21.14	-40.0	-42.4	13.3	1.83e-05	0	56	0	399507456	51	4769
2026-01-13 09:36:33.99	143.53	21.68	-39.7	-41.9	13.8	5.30e-06	0	56	0	412090368	51	4517
2026-01-13 09:36:38.03	143.29	22.24	-39.6	-41.8	13.9	2.20e-06	0	56	0	424673280	51	4466
2026-01-13 09:36:42.07	143.03	22.82	-39.5	-41.6	14.2	0.00e+00	0	56	0	437256192	50	4624
2026-01-13 09:36:46.11	142.77	23.40	-39.4	-41.6	14.2	3.00e-06	0	56	0	449839104	50	4600
2026-01-13 09:36:50.15	142.50	24.00	-39.4	-41.5	14.3	2.20e-06	0	56	0	462422016	50	4583
2026-01-13 09:36:54.19	142.21	24.61	-39.5	-41.6	14.2	2.20e-06	0	56	0	475004928	50	4647
2026-01-13 09:36:58.23	141.91	25.23	-39.8	-42.1	13.8	3.80e-06	0	56	0	487587840	50	4872
2026-01-13 09:37:02.27	141.60	25.87	-40.0	-42.3	13.5	8.30e-06	0	56	0	500170752	50	5038
2026-01-13 09:37:06.32	141.28	26.52	-40.2	-42.6	13.2	1.75e-05	0	56	0	512753664	51	4914
2026-01-13 09:37:10.36	140.94	27.19	-40.4	-42.9	13.0	3.20e-05	0	57	0	525336576	51	5045
2026-01-13 09:37:14.40	140.59	27.87	-40.6	-43.2	12.7	9.15e-05	0	57	0	537919488	51	5258
2026-01-13 09:37:18.44	140.22	28.57	-40.6	-43.1	12.7	6.63e-05	0	57	0	550502400	51	5199
2026-01-13 09:37:22.48	139.84	29.28	-40.5	-43.0	12.9	4.11e-05	0	57	0	563085312	51	5138
2026-01-13 09:37:26.51	139.44	30.01	-40.2	-42.6	13.3	1.98e-05	0	56	0	575668224	51	4889
2026-01-13 09:37:30.55	139.01	30.76	-40.0	-42.3	13.7	9.10e-06	0	57	0	589299712	51	4758
2026-01-13 09:37:34.59	138.57	31.53	-40.1	-42.4	13.5	1.22e-05	0	57	0	601882624	51	4802
2026-01-13 09:37:38.63	138.10	32.31	-40.4	-42.9	13.1	2.74e-05	0	57	0	614465536	51	5058
2026-01-13 09:37:42.66	137.62	33.12	-40.4	-42.8	13.1	3.20e-05	0	57	0	627048448	51	5019
2026-01-13 09:37:46.70	137.10	33.94	-40.6	-43.1	12.9	2.97e-05	0	57	0	639631360	51	5193
2026-01-13 09:37:50.75	136.56	34.79	-40.9	-43.6	12.3	1.81e-04	0	57	0	652214272	52	5190
2026-01-13 09:37:54.79	135.98	35.65	-41.3	-44.3	11.5	7.18e-04	0	57	0	664797184	53	5318
2026-01-13 09:37:58.82	135.38	36.53	-41.6	-44.8	11.1	1.66e-03	0	57	0	677380096	53	5638
2026-01-13 09:38:02.86	134.74	37.43	-41.8	-45.2	10.7	2.88e-03	0	57	0	689963008	54	5580
2026-01-13 09:38:06.90	134.07	38.36	-41.9	-45.4	10.5	4.06e-03	0	57	0	702545920	54	5677
2026-01-13 09:38:10.93	133.35	39.30	-41.9	-45.2	10.7	2.93e-03	0	57	0	715128832	54	5568
2026-01-13 09:38:14.97	132.59	40.27	-42.1	-45.7	10.1	5.69e-03	0	57	0	727711744	54	5916
2026-01-13 09:38:19.00	131.78	41.25	-42.3	-46.0	9.9	9.18e-03	0	57	0	740294656	55	5759
2026-01-13 09:38:23.04	130.92	42.26	-41.8	-45.0	10.9	2.05e-03	0	57	0	752877568	55	5144
2026-01-13 09:38:27.08	130.01	43.29	-41.9	-45.3	10.6	3.15e-03	0	57	0	765460480	55	5303
2026-01-13 09:38:31.12	129.03	44.33	-42.2	-45.9	10.0	8.39e-03	0	57	0	778043392	55	5674
2026-01-13 09:38:35.17	127.98	45.40	-41.6	-44.6	11.3	1.21e-03	0	57	0	790626304	55	4904
2026-01-13 09:38:39.21	126.86	46.48	-41.9	-45.2	10.8	2.43e-03	0	57	0	803209216	54	5564
2026-01-13 09:38:43.24	125.66	47.58	-41.8	-45.0	10.9	2.12e-03	0	57	0	815792128	54	5443
2026-01-13 09:38:47.29	124.37	48.69	-41.7	-44.9	11.1	1.50e-03	0	57	0	828375040	54	5347
2026-01-13 09:38:51.33	122.98	49.82	-41.6	-44.7	11.3	1.15e-03	0	57	0	840957952	54	5247
2026-01-13 09:38:55.37	121.48	50.95	-41.4	-44.3	11.6	1.10e-03	0	57	0	853540864	54	5029
2026-01-13 09:38:59.40	119.87	52.08	-41.4	-44.4	11.6	7.16e-04	0	57	0	866123776	54	5087
2026-01-13 09:39:03.44	118.13	53.22	-40.9	-43.6	12.4	1.59e-04	0	57	0	878706688	53	4877
2026-01-13 09:39:07.48	116.24	54.35	-40.4	-42.8	13.2	1.98e-05	0	57	0	891289600	52	4706
2026-01-13 09:39:11.52	114.20	55.47	-40.2	-42.5	13.6	1.06e-05	0	57	0	903872512	52	4557
2026-01-13 09:39:15.56	111.99	56.58	-40.4	-42.9	13.2	1.75e-05	0	57	0	916455424	52	4783
2026-01-13 09:39:19.60	109.60	57.66	-40.4	-42.9	13.2	2.36e-05	0	57	0	930086912	52	4783
2026-01-13 09:39:23.64	107.01	58.72	-39.8	-41.9	14.2	1.50e-06	0	57	0	942669824	51	4503
2026-01-13 09:39:27.69	104.20	59.73	-39.9	-42.0	14.1	3.80e-06	0	57	0	955252736	51	4588
2026-01-13 09:39:31.73	101.18	60.69	-39.7	-41.8	14.3	0.00e+00	0	57	0	967835648	50	4751
2026-01-13 09:39:35.77	97.93	61.59	-39.6	-41.7	14.4	7.00e-07	0	57	0	980418560	50	4683
2026-01-13 09:39:39.81	94.44	62.41	-40.2	-42.5	13.7	6.10e-06	0	57	0	993001472	50	5110
2026-01-13 09:39:43.85	90.72	63.14	-39.2	-41.2	15.0	7.00e-07	0	57	0	1005584384	50	4394
2026-01-13 09:39:47.90	86.77	63.78	-39.2	-41.2	14.9	0.00e+00	0	57	0	1018167296	50	4403
2026-01-13 09:39:51.94	82.63	64.30	-39.7	-41.9	14.2	1.50e-06	0	57	0	1030750208	50	4774
2026-01-13 09:39:55.98	78.32	64.69	-39.1	-41.0	15.1	0.00e+00	0	57	0	1043333120	50	4308
2026-01-13 09:40:00.02	73.88	64.96	-39.3	-41.2	14.8	0.00e+00	0	57	0	1055916032	50	4431
2026-01-13 09:40:04.06	69.37	65.09	-39.6	-41.7	14.4	0.00e+00	0	57	0	1068498944	50	4702
2026-01-13 09:40:08.10	64.83	65.08	-39.5	-41.6	14.5	0.00e+00	0	57	0	1081081856	50	4606
2026-01-13 09:40:12.15	60.31	64.93	-39.4	-41.4	14.6	0.00e+00	0	58	0	1093664768	50	4525
2026-01-13 09:40:16.19	55.90	64.64	-39.8	-42.0	14.1	0.00e+00	0	57	0	1106247680	50	4835
2026-01-13 09:40:20.23	51.62	64.22	-39.2	-41.1	15.0	7.00e-07	0	57	0	1118830592	50	4358
2026-01-13 09:40:24.26	47.52	63.68	-39.5	-41.5	14.6	7.00e-07	0	57	0	1131413504	50	4570
2026-01-13 09:40:28.30	43.62	63.03	-39.7	-41.9	14.3	1.50e-06	0	58	0	1143996416	50	4763
2026-01-13 09:40:32.35	39.94	62.28	-40.1	-42.3	13.8	5.30e-06	0	57	0	1156579328	50	5027
2026-01-13 09:40:36.39	36.49	61.45	-40.2	-42.5	13.5	9.10e-06	0	58	0	1169162240	51	4845
2026-01-13 09:40:40.42	33.29	60.54	-39.8	-41.9	14.1	7.00e-07	0	57	0	1181745152	51	4527
2026-01-13 09:40:44.46	30.31	59.58	-39.5	-41.5	14.6	0.00e+00	0	57	0	1194328064	50	4555
2026-01-13 09:40:48.50	27.55	58.56	-40.3	-42.6	13.5	9.90e-06	0	58	0	1206910976	51	4883
2026-01-13 09:40:52.54	25.00	57.51	-40.2	-42.5	13.6	5.30e-06	0	57	0	1220542464	51	4835
2026-01-13 09:40:56.58	22.64	56.42	-40.0	-42.2	13.9	8.30e-06	0	57	0	1233125376	51	4679
2026-01-13 09:41:00.62	20.46	55.31	-40.4	-42.7	13.4	1.37e-05	0	58	0	1245708288	51	4951
2026-01-13 09:41:04.66	18.45	54.19	-40.9	-43.5	12.4	2.54e-04	0	58	0	1258291200	53	4854
2026-01-13 09:41:08.70	16.59	53.06	-41.0	-43.8	12.3	1.35e-04	0	58	0	1270874112	52	5293
2026-01-13 09:41:12.74	14.88	51.93	-41.6	-44.7	11.2	1.52e-03	0	58	0	1283457024	54	5268
2026-01-13 09:41:16.77	13.29	50.80	-40.3	-42.7	13.3	8.30e-06	0	58	0	1296039936	52	4683
2026-01-13 09:41:20.81	11.81	49.68	-41.4	-44.5	11.4	1.05e-03	0	58	0	1308622848	53	5405
2026-01-13 09:41:24.86	10.44	48.56	-41.6	-44.8	11.1	1.29e-03	0	58	0	1321205760	53	5593
2026-01-13 09:41:28.90	9.17	47.45	-42.0	-45.6	10.1	4.78e-03	0	58	0	1333788672	54	5821
2026-01-13 09:41:32.94	7.98	46.36	-41.8	-45.1	10.7	5.65e-03	0	58	0	1346371584	55	5205
2026-01-13 09:41:36.98	6.88	45.29	-41.5	-44.7	11.1	1.30e-03	0	58	0	1358954496	53	5542
2026-01-13 09:41:41.03	5.84	44.23	-41.6	-44.8	11.1	1.44e-03	0	58	0	1371537408	53	5599
2026-01-13 09:41:45.07	4.88	43.19	-42.3	-46.1	9.7	1.14e-02	0	58	0	1384120320	55	5804
2026-01-13 09:41:49.11	3.97	42.17	-41.7	-44.9	10.9	2.15e-03	0	58	0	1396703232	55	5094
2026-01-13 09:41:53.15	3.12	41.17	-41.6	-44.8	11.0	2.49e-03	0	58	0	1409286144	55	5010
2026-01-13 09:41:57.19	2.33	40.19	-41.6	-44.7	11.2	1.40e-03	0	58	0	1421869056	54	5243
2026-01-13 09:42:01.23	1.57	39.23	-41.9	-45.3	10.6	3.74e-03	0	58	0	1434451968	54	5617
2026-01-13 09:42:05.26	0.87	38.29	-41.6	-44.7	11.1	1.56e-03	0	58	0	1447034880	54	5261
2026-01-13 09:42:09.31	0.20	37.37	-41.8	-45.1	10.7	3.07e-03	0	58	0	1459617792	54	5502
2026-01-13 09:42:13.35	359.57	36.48	-41.5	-44.5	11.3	1.49e-03	0	58	0	1472200704	54	5159
2026-01-13 09:42:17.39	358.97	35.60	-40.8	-43.5	12.4	1.59e-04	0	58	0	1484783616	53	4842
2026-01-13 09:42:21.42	358.41	34.75	-41.2	-44.2	11.6	6.44e-04	0	58	0	1497366528	53	5273
2026-01-13 09:42:25.46	357.87	33.91	-41.1	-44.0	11.7	4.71e-04	0	58	0	1509949440	53	5159
2026-01-13 09:42:29.50	357.37	33.09	-40.6	-43.2	12.5	1.20e-04	0	58	0	1522532352	53	4703
2026-01-13 09:42:33.54	356.88	32.30	-40.1	-42.5	13.3	1.90e-05	0	58	0	1536163840	52	4596
2026-01-13 09:42:37.58	356.42	31.52	-40.0	-42.4	13.4	1.98e-05	0	58	0	1548746752	52	4517
2026-01-13 09:42:41.62	355.99	30.76	-39.9	-42.2	13.6	6.80e-06	0	58	0	1561329664	51	4681
2026-01-13 09:42:45.66	355.57	30.01	-40.4	-43.0	12.8	6.33e-05	0	58	0	1573912576	51	5119
2026-01-13 09:42:49.70	355.17	29.29	-40.9	-43.8	11.8	5.12e-04	0	58	0	1586495488	52	5285
2026-01-13 09:42:53.74	354.79	28.58	-40.5	-43.2	12.3	1.69e-04	0	58	0	1599078400	52	4978
2026-01-13 09:42:57.78	354.43	27.88	-40.3	-42.8	12.7	7.01e-05	0	58	0	1611661312	52	4750
2026-01-13 09:43:01.82	354.08	27.21	-39.9	-42.4	13.3	1.98e-05	0	58	0	1624244224	51	4761
2026-01-13 09:43:05.86	353.75	26.54	-39.7	-42.0	13.6	3.80e-06	0	58	0	1636827136	51	4548
2026-01-13 09:43:09.90	353.43	25.90	-39.8	-42.2	13.2	1.98e-05	0	58	0	1649410048	51	4686
2026-01-13 09:43:13.94	353.13	25.26	-39.9	-42.4	13.0	4.42e-05	0	58	0	1661992960	51	4799
2026-01-13 09:43:17.98	352.83	24.65	-39.8	-42.3	12.9	3.96e-05	0	58	0	1674575872	51	4759
2026-01-13 09:43:22.02	352.55	24.04	-39.9	-42.5	12.6	8.16e-05	0	58	0	1687158784	51	4863
2026-01-13 09:43:26.05	352.28	23.45	-40.1	-42.9	12.2	1.64e-04	0	58	0	1699741696	51	5047
2026-01-13 09:43:30.09	352.02	22.87	-39.9	-42.8	11.9	3.01e-04	0	58	0	1712324608	51	5014
2026-01-13 09:43:34.13	351.77	22.30	-39.3	-42.3	11.7	5.89e-04	0	58	0	1724907520	50	5024
2026-01-13 09:43:38.17	351.53	21.75	-39.0	-42.1	11.8	4.12e-04	0	58	0	1737490432	50	4899
2026-01-13 09:43:42.20	351.30	21.20	-40.5	-45.4	8.0	4.33e-02	0	58	0	1750073344	51	6793
2026-01-13 09:43:46.24	351.08	20.67	-41.2	-51.0	4.1	1.47e+00	0	58	104	1758461952	53	11470
2026-01-13 09:43:50.28	350.87	20.15	-41.9	-53.0	3.8	1.49e+00	0	58	104	1758461952	54	13717
2026-01-13 09:43:54.31	350.66	19.64	-41.3	-53.5	3.8	1.49e+00	0	58	104	1758461952	54	14451
2026-01-13 09:43:58.35	350.46	19.13	-40.8	-53.1	3.8	1.49e+00	0	58	104	1758461952	53	14656
2026-01-13 09:44:02.39	350.27	18.64	-40.7	-53.2	3.8	1.49e+00	0	58	104	1758461952	53	14811
2026-01-13 09:44:06.43	350.08	18.16	-40.8	-53.2	3.8	1.49e+00	0	58	104	1758461952	53	14871
2026-01-13 09:44:10.46	349.90	17.68	-40.8	-53.3	3.8	1.49e+00	0	58	104	1758461952	53	14900
2026-01-13 09:44:14.49	349.73	17.22	-40.6	-53.2	3.8	1.49e+00	0	58	104	1758461952	51	16675
2026-01-13 09:44:18.53	349.56	16.76	-41.0	-53.4	3.8	1.49e+00	0	58	104	1758461952	52	15965
2026-01-13 09:44:22.57	349.39	16.31	-40.6	-53.4	3.8	1.49e+00	0	58	104	1758461952	53	15093
2026-01-13 09:44:26.61	349.24	15.87	-41.2	-53.6	3.8	1.49e+00	0	58	104	1758461952	53	15429
2026-01-13 09:44:30.65	349.08	15.44	-41.0	-53.6	3.8	1.49e+00	0	58	104	1758461952	52	16320
2026-01-13 09:44:34.68	348.94	15.01	-41.2	-53.6	3.8	1.49e+00	0	58	104	1758461952	52	16331
2026-01-13 09:44:38.72	348.79	14.59	-41.0	-53.5	3.8	1.49e+00	0	58	104	1758461952	53	15267
2026-01-13 09:44:42.76	348.65	14.18	-41.2	-53.7	3.8	1.49e+00	0	58	104	1758461952	53	15588
2026-01-13 09:44:46.80	348.52	13.77	-41.0	-53.5	3.8	1.49e+00	0	58	104	1758461952	53	15263
2026-01-13 09:44:50.84	348.39	13.38	-40.9	-53.5	3.8	1.49e+00	0	58	104	1758461952	53	15398
2026-01-13 09:44:54.88	348.26	12.98	-40.8	-53.4	3.8	1.49e+00	0	58	104	1758461952	53	15052
2026-01-13 09:44:58.91	348.14	12.60	-40.9	-53.5	3.8	1.49e+00	0	58	104	1758461952	53	15300
2026-01-13 09:45:02.94	348.02	12.22	-40.8	-53.3	3.8	1.49e+00	0	58	104	1758461952	53	14951
2026-01-13 09:45:06.98	347.90	11.84	-40.9	-53.4	3.8	1.49e+00	0	58	104	1758461952	53	15110
2026-01-13 09:45:11.02	347.79	11.47	-40.9	-53.2	3.8	1.49e+00	0	58	104	1758461952	53	14871
2026-01-13 09:45:15.05	347.68	11.11	-41.0	-53.4	3.8	1.49e+00	0	58	104	1758461952	53	15094
2026-01-13 09:45:19.09	347.57	10.75	-40.9	-53.3	3.8	1.49e+00	0	58	104	1758461952	53	14915
2026-01-13 09:45:23.13	347.47	10.40	-40.9	-53.3	3.8	1.49e+00	0	58	104	1758461952	53	14905
2026-01-13 09:45:27.16	347.37	10.05	-40.9	-53.3	3.8	1.49e+00	0	58	104	1758461952	53	14954
2026-01-13 09:45:31.20	347.27	9.70	-40.8	-53.2	3.8	1.49e+00	0	58	104	1758461952	53	14812
2026-01-13 09:45:35.24	347.18	9.36	-40.8	-53.2	3.8	1.49e+00	0	58	104	1758461952	53	14818
2026-01-13 09:45:39.28	347.08	9.03	-40.8	-53.2	3.8	1.49e+00	0	58	104	1758461952	53	14815
2026-01-13 09:45:43.31	346.99	8.70	-40.8	-53.1	3.8	1.49e+00	0	58	104	1758461952	53	14683
2026-01-13 09:45:47.35	346.90	8.37	-40.7	-53.1	3.8	1.49e+00	0	58	104	1758461952	53	14657
2026-01-13 09:45:51.39	346.82	8.05	-40.8	-53.2	3.8	1.49e+00	0	58	104	1758461952	53	14717
2026-01-13 09:45:55.43	346.74	7.73	-44.2	-56.3	3.8	1.49e+00	0	58	104	1758461952	58	15934
2026-01-13 09:45:59.47	346.65	7.42	-45.0	-57.4	3.8	1.49e+00	0	58	104	1758461952	60	15991
2026-01-13 09:46:03.51	346.58	7.11	-45.0	-57.4	3.8	1.49e+00	0	58	104	1758461952	60	16078
2026-01-13 09:46:07.55	346.50	6.80	-45.0	-57.3	3.8	1.49e+00	0	58	104	1758461952	60	15934
2026-01-13 09:46:11.58	346.42	6.50	-45.0	-57.3	3.8	1.49e+00	0	58	104	1758461952	60	15801
2026-01-13 09:46:15.62	346.35	6.20	-45.0	-57.3	3.8	1.49e+00	0	58	104	1758461952	60	15801
2026-01-13 09:46:19.66	346.28	5.90	-44.9	-57.2	3.8	1.49e+00	0	58	104	1758461952	60	15744
2026-01-13 09:46:23.70	346.21	5.61	-44.9	-57.2	3.8	1.49e+00	0	58	104	1758461952	60	15756
2026-01-13 09:46:27.75	346.14	5.31	-44.9	-57.3	3.8	1.49e+00	0	58	104	1758461952	60	15770
2026-01-13 09:46:31.79	346.07	5.03	-44.9	-57.2	3.8	1.49e+00	0	58	104	1758461952	60	15665
2026-01-13 09:46:35.83	346.01	4.74	-44.9	-57.2	3.8	1.49e+00	0	58	104	1758461952	60	15693
2026-01-13 09:46:39.87	345.95	4.46	-44.1	-57.0	3.8	1.49e+00	0	58	104	1758461952	59	16217
2026-01-13 09:46:43.91	345.88	4.18	-44.9	-57.2	3.8	1.49e+00	0	58	104	1758461952	60	15614
2026-01-13 09:46:47.95	345.82	3.91	-44.9	-57.2	3.8	1.49e+00	0	58	104	1758461952	60	15634
2026-01-13 09:46:51.99	345.76	3.63	-44.9	-57.2	3.8	1.49e+00	0	58	104	1758461952	60	15655
2026-01-13 09:46:56.03	345.71	3.36	-44.9	-57.2	3.8	1.49e+00	0	58	104	1758461952	60	15616
2026-01-13 09:47:00.07	345.65	3.10	-44.9	-57.2	3.8	1.49e+00	0	58	104	1758461952	60	15615
2026-01-13 09:47:04.11	345.60	2.83	-44.9	-57.2	3.8	1.49e+00	0	58	104	1758461952	60	15684
2026-01-13 09:47:08.15	345.54	2.57	-44.9	-57.2	3.8	1.49e+00	0	58	104	1758461952	60	15672
2026-01-13 09:47:12.19	345.49	2.31	-44.9	-57.2	3.8	1.49e+00	0	58	104	1758461952	60	15648
2026-01-13 09:47:16.23	345.44	2.05	-44.8	-57.2	3.8	1.49e+00	0	58	104	1758461952	60	15610

#Closed at: 2026-01-13 09:47:17
#Recorded file [1758 MB]: D:/lorett/data/31039_260113_123259.dat