passes_logs/2026/01/13/R2.0S_Moscow/R2.0S_Moscow__20260113_000438_FENGYUN_3G_rec.log

#Pass ID: 20260113_000438_FENGYUN 3G
#Satellite: FENGYUN 3G
#Configuration: FENGYUN 3G
#almurnet v.1.7.20251203
#Start time: 2026-01-13 00:04:39

#Version: 2.2.20231116
#Station: R2.0S_Moscow
#Location: 37.707566 lon 55.798166 lat
#TLE: 1 56232U 23055A   26012.28315646  .00028343  00000+0  44482-3 0  9993
#TLE: 2 56232  49.9940  69.9476 0004238  14.1066 346.0019 15.53388001155773

#Time	Az	El	Level	Level2	SNR	BER	BlckErr	Temp	State	Recorded	gain1	gain2
2026-01-13 00:04:39.64	248.32	2.08	-44.0	-62.2	3.8	8.47e-01	0	51	0	0	60	27836
2026-01-13 00:04:42.66	248.13	2.28	-44.0	-62.2	3.8	8.47e-01	0	51	104	0	60	27829
2026-01-13 00:04:45.69	247.94	2.48	-44.0	-62.2	3.8	8.45e-01	0	52	104	0	60	27888
2026-01-13 00:04:48.72	247.75	2.69	-44.0	-62.2	3.8	8.47e-01	0	52	104	0	60	27730
2026-01-13 00:04:51.75	247.55	2.89	-44.0	-62.1	3.8	8.45e-01	0	52	104	0	60	27455
2026-01-13 00:04:54.78	247.34	3.10	-44.0	-62.1	3.8	8.47e-01	0	52	104	0	60	27532
2026-01-13 00:04:57.81	247.13	3.31	-44.0	-62.1	3.8	8.47e-01	0	52	104	0	60	27401
2026-01-13 00:05:00.84	246.92	3.52	-44.0	-62.0	3.8	8.46e-01	0	53	104	0	60	27371
2026-01-13 00:05:03.87	246.70	3.74	-44.0	-62.0	3.8	8.46e-01	0	53	104	0	60	27163
2026-01-13 00:05:06.90	246.48	3.96	-44.0	-61.9	3.8	8.47e-01	0	53	104	0	60	26976
2026-01-13 00:05:09.93	246.25	4.18	-44.1	-61.6	3.8	8.45e-01	0	53	104	0	59	27444
2026-01-13 00:05:12.96	246.02	4.40	-44.1	-61.4	3.8	8.45e-01	0	53	104	0	59	27066
2026-01-13 00:05:15.99	245.78	4.62	-44.1	-61.7	3.8	8.46e-01	0	53	104	0	59	27919
2026-01-13 00:05:19.02	245.54	4.85	-44.1	-61.6	3.8	8.46e-01	0	53	104	0	59	27409
2026-01-13 00:05:22.05	245.29	5.08	-44.0	-61.2	3.8	8.45e-01	0	54	104	0	59	26308
2026-01-13 00:05:25.08	245.04	5.31	-44.0	-60.0	3.9	8.45e-01	0	54	104	0	59	22972
2026-01-13 00:05:28.12	244.78	5.54	-44.0	-59.5	3.8	8.45e-01	0	54	104	0	59	21639
2026-01-13 00:05:31.15	244.51	5.78	-44.0	-58.7	4.2	8.42e-01	0	54	0	0	59	19670
2026-01-13 00:05:34.18	244.24	6.02	-43.9	-57.2	4.6	8.30e-01	0	54	0	0	59	16569
2026-01-13 00:05:37.21	243.96	6.26	-43.6	-54.0	6.9	4.99e-01	0	54	0	1572864	59	11525
2026-01-13 00:05:40.24	243.67	6.51	-43.4	-52.1	8.8	1.00e-01	0	55	0	4718592	58	9759
2026-01-13 00:05:43.27	243.38	6.76	-43.2	-51.4	9.5	1.39e-02	0	55	0	8388608	58	9031
2026-01-13 00:05:46.30	243.08	7.01	-43.6	-53.8	7.1	3.55e-02	0	55	0	11534336	58	11908
2026-01-13 00:05:49.34	242.77	7.26	-44.0	-59.0	4.1	6.42e-01	0	55	0	12582912	58	21628
2026-01-13 00:05:52.37	242.46	7.52	-43.1	-50.6	10.3	5.94e-01	0	55	0	15204352	58	8221
2026-01-13 00:05:55.40	242.13	7.79	-42.0	-47.2	13.9	7.56e-04	0	55	0	18350080	56	6216
2026-01-13 00:05:58.43	241.80	8.05	-41.5	-46.2	14.8	0.00e+00	0	55	0	22020096	55	5881
2026-01-13 00:06:01.46	241.46	8.32	-43.3	-51.8	7.8	1.10e-01	0	55	0	25165824	57	9990
2026-01-13 00:06:04.48	241.11	8.59	-41.0	-45.0	16.1	1.34e-02	0	56	0	28835840	53	5780
2026-01-13 00:06:07.51	240.75	8.87	-40.5	-44.0	17.1	0.00e+00	0	56	0	31981568	52	5412
2026-01-13 00:06:10.54	240.39	9.15	-40.1	-43.2	17.9	0.00e+00	0	56	0	35651584	52	4983
2026-01-13 00:06:13.57	240.01	9.43	-40.1	-43.2	18.1	0.00e+00	0	56	0	38797312	51	5267
2026-01-13 00:06:16.60	239.62	9.72	-40.0	-43.0	18.3	0.00e+00	0	56	0	42467328	51	5153
2026-01-13 00:06:19.63	239.22	10.01	-40.1	-43.3	18.0	0.00e+00	0	56	0	45613056	51	5314
2026-01-13 00:06:22.66	238.81	10.31	-40.1	-43.2	18.1	0.00e+00	0	56	0	49283072	51	5263
2026-01-13 00:06:25.69	238.39	10.61	-39.8	-42.8	18.6	0.00e+00	0	56	0	52428800	51	5003
2026-01-13 00:06:28.72	237.96	10.91	-39.9	-42.9	18.5	0.00e+00	0	56	0	56098816	51	5077
2026-01-13 00:06:31.74	237.51	11.22	-39.9	-42.8	18.6	0.00e+00	0	56	0	59244544	51	5002
2026-01-13 00:06:34.77	237.05	11.53	-39.9	-42.9	18.6	0.00e+00	0	56	0	62914560	51	5048
2026-01-13 00:06:37.81	236.58	11.85	-39.6	-42.4	19.1	0.00e+00	0	56	0	66060288	51	4773
2026-01-13 00:06:40.84	236.09	12.18	-39.4	-42.1	19.4	0.00e+00	0	56	0	69730304	50	4903
2026-01-13 00:06:43.86	235.59	12.50	-39.3	-41.9	19.6	0.00e+00	0	56	0	72876032	50	4790
2026-01-13 00:06:46.89	235.08	12.84	-39.4	-42.1	19.5	0.00e+00	0	56	0	76546048	50	4872
2026-01-13 00:06:49.92	234.54	13.17	-39.5	-42.2	19.4	0.00e+00	0	56	0	79691776	50	4936
2026-01-13 00:06:52.95	234.00	13.52	-39.2	-41.7	19.9	0.00e+00	0	56	0	83361792	50	4675
2026-01-13 00:06:55.98	233.43	13.86	-39.0	-41.5	20.1	0.00e+00	0	57	0	86507520	50	4559
2026-01-13 00:06:59.00	232.85	14.21	-39.0	-41.5	20.1	0.00e+00	0	57	0	90177536	49	4821
2026-01-13 00:07:02.03	232.25	14.57	-39.1	-41.6	20.0	0.00e+00	0	57	0	93323264	49	4919
2026-01-13 00:07:05.06	231.63	14.93	-39.1	-41.5	20.1	0.00e+00	0	57	0	96993280	49	4865
2026-01-13 00:07:08.09	230.99	15.30	-38.6	-40.9	20.7	0.00e+00	0	57	0	100139008	49	4538
2026-01-13 00:07:11.12	230.33	15.67	-38.6	-40.9	20.8	0.00e+00	0	57	0	103809024	49	4513
2026-01-13 00:07:14.14	229.66	16.05	-38.6	-40.8	20.9	0.00e+00	0	57	0	106954752	49	4480
2026-01-13 00:07:17.17	228.95	16.43	-38.5	-40.7	21.0	0.00e+00	0	57	0	110624768	49	4437
2026-01-13 00:07:20.20	228.23	16.82	-38.0	-40.1	21.6	0.00e+00	0	57	0	113770496	48	4360
2026-01-13 00:07:23.23	227.48	17.21	-38.4	-40.7	21.1	0.00e+00	0	57	0	117440512	48	4652
2026-01-13 00:07:26.26	226.70	17.61	-38.2	-40.4	21.4	0.00e+00	0	57	0	120586240	48	4502
2026-01-13 00:07:29.29	225.90	18.01	-38.2	-40.3	21.4	0.00e+00	0	57	0	124256256	48	4492
2026-01-13 00:07:32.32	225.07	18.42	-38.1	-40.1	21.6	0.00e+00	0	57	0	127401984	48	4381
2026-01-13 00:07:35.34	224.22	18.82	-37.9	-40.0	21.8	0.00e+00	0	57	0	131072000	47	4558
2026-01-13 00:07:38.37	223.34	19.24	-38.0	-40.1	21.7	0.00e+00	0	57	0	134217728	47	4612
2026-01-13 00:07:41.40	222.42	19.66	-37.7	-39.7	22.1	0.00e+00	0	57	0	137887744	47	4419
2026-01-13 00:07:44.43	221.48	20.08	-37.6	-39.6	22.2	0.00e+00	0	57	0	141033472	47	4361
2026-01-13 00:07:47.45	220.50	20.50	-37.3	-39.2	22.7	0.00e+00	0	58	0	144703488	46	4397
2026-01-13 00:07:50.48	219.49	20.92	-37.6	-39.6	22.2	0.00e+00	0	58	0	147849216	46	4614
2026-01-13 00:07:53.51	218.45	21.35	-37.3	-39.2	22.6	0.00e+00	0	58	0	151519232	46	4398
2026-01-13 00:07:56.54	217.37	21.77	-37.1	-39.0	22.8	0.00e+00	0	58	0	154664960	46	4297
2026-01-13 00:07:59.57	216.26	22.20	-37.0	-38.9	22.9	0.00e+00	0	58	0	158334976	46	4254
2026-01-13 00:08:02.61	215.10	22.63	-37.5	-39.4	22.5	0.00e+00	0	58	0	161480704	46	4532
2026-01-13 00:08:05.64	213.91	23.05	-37.0	-38.9	23.0	0.00e+00	0	58	0	165150720	46	4252
2026-01-13 00:08:08.67	212.68	23.47	-36.8	-38.6	23.2	0.00e+00	0	58	0	168296448	45	4359
2026-01-13 00:08:11.69	211.42	23.89	-36.8	-38.6	23.3	0.00e+00	0	58	0	171966464	45	4351
2026-01-13 00:08:14.71	210.12	24.30	-36.9	-38.7	23.2	0.00e+00	0	58	0	175112192	45	4402
2026-01-13 00:08:17.74	208.77	24.71	-36.9	-38.7	23.2	0.00e+00	0	58	0	178782208	45	4418
2026-01-13 00:08:20.77	207.38	25.11	-36.6	-38.4	23.5	0.00e+00	0	58	0	181927936	45	4255
2026-01-13 00:08:23.80	205.95	25.50	-36.8	-38.6	23.3	0.00e+00	0	58	0	185597952	44	4606
2026-01-13 00:08:26.83	204.48	25.88	-36.7	-38.4	23.3	0.00e+00	0	58	0	188743680	44	4543
2026-01-13 00:08:29.85	202.98	26.25	-36.3	-38.0	23.8	0.00e+00	0	58	0	192413696	44	4332
2026-01-13 00:08:32.88	201.43	26.61	-36.6	-38.4	23.5	0.00e+00	0	58	0	195559424	44	4506
2026-01-13 00:08:35.91	199.84	26.95	-36.2	-37.9	23.9	0.00e+00	0	58	0	199229440	44	4280
2026-01-13 00:08:38.94	198.21	27.27	-36.4	-38.1	23.7	0.00e+00	0	58	0	202375168	44	4358
2026-01-13 00:08:41.97	196.55	27.58	-36.3	-38.0	23.8	0.00e+00	0	58	0	206045184	44	4307
2026-01-13 00:08:45.00	194.85	27.86	-36.4	-38.1	23.7	0.00e+00	0	58	0	209190912	44	4380
2026-01-13 00:08:48.02	193.12	28.12	-36.3	-38.0	23.8	0.00e+00	0	58	0	212860928	44	4329
2026-01-13 00:08:51.05	191.36	28.36	-36.5	-38.3	23.4	0.00e+00	0	58	0	216006656	44	4469
2026-01-13 00:08:54.08	189.57	28.57	-36.2	-37.9	23.8	0.00e+00	0	58	0	219676672	44	4288
2026-01-13 00:08:57.11	187.75	28.76	-36.5	-38.2	23.6	0.00e+00	0	58	0	222822400	44	4430
2026-01-13 00:09:00.14	185.91	28.92	-37.0	-38.9	23.0	0.00e+00	0	58	0	226492416	44	4765
2026-01-13 00:09:03.16	184.06	29.05	-36.9	-38.7	23.1	0.00e+00	0	58	0	229638144	44	4681
2026-01-13 00:09:06.19	182.19	29.15	-36.4	-38.1	23.7	0.00e+00	0	58	0	233308160	44	4380
2026-01-13 00:09:09.22	180.30	29.22	-36.6	-38.3	23.5	0.00e+00	0	58	0	236453888	44	4484
2026-01-13 00:09:12.25	178.41	29.26	-36.5	-38.2	23.6	0.00e+00	0	58	0	240123904	44	4438
2026-01-13 00:09:15.28	176.52	29.27	-36.4	-38.1	23.7	0.00e+00	0	58	0	243269632	44	4374
2026-01-13 00:09:18.31	174.63	29.25	-36.8	-38.6	23.4	0.00e+00	0	58	0	246939648	44	4599
2026-01-13 00:09:21.33	172.75	29.19	-36.8	-38.6	23.4	0.00e+00	0	58	0	250085376	44	4617
2026-01-13 00:09:24.36	170.87	29.10	-36.7	-38.5	23.4	0.00e+00	0	58	0	253755392	44	4554
2026-01-13 00:09:27.39	169.00	28.99	-36.5	-38.2	23.5	0.00e+00	0	58	0	256901120	43	4699
2026-01-13 00:09:30.42	167.15	28.84	-36.3	-38.1	23.7	0.00e+00	0	58	0	260571136	43	4615
2026-01-13 00:09:33.45	165.33	28.67	-37.0	-38.8	23.2	0.00e+00	0	59	0	263716864	44	4723
2026-01-13 00:09:36.48	163.52	28.47	-36.5	-38.2	23.7	0.00e+00	0	59	0	267386880	44	4432
2026-01-13 00:09:39.51	161.75	28.24	-36.6	-38.4	23.5	0.00e+00	0	58	0	270532608	44	4514
2026-01-13 00:09:42.53	160.01	27.99	-36.4	-38.1	23.9	0.00e+00	0	58	0	274202624	44	4364
2026-01-13 00:09:45.56	158.29	27.72	-36.1	-37.8	24.1	0.00e+00	0	59	0	277348352	44	4236
2026-01-13 00:09:48.59	156.61	27.42	-35.9	-37.6	24.2	0.00e+00	0	58	0	281018368	43	4379
2026-01-13 00:09:51.62	154.97	27.11	-37.0	-38.8	23.2	0.00e+00	0	59	0	284164096	44	4753
2026-01-13 00:09:54.65	153.36	26.78	-36.3	-38.1	23.9	0.00e+00	0	59	0	287834112	44	4348
2026-01-13 00:09:57.68	151.80	26.43	-36.5	-38.2	23.8	0.00e+00	0	59	0	290979840	44	4422
2026-01-13 00:10:00.71	150.27	26.07	-37.2	-39.1	23.0	0.00e+00	0	59	0	294649856	44	4877
2026-01-13 00:10:03.73	148.79	25.70	-36.9	-38.7	23.3	0.00e+00	0	59	0	297795584	45	4424
2026-01-13 00:10:06.76	147.34	25.31	-36.7	-38.5	23.4	0.00e+00	0	59	0	301465600	45	4335
2026-01-13 00:10:09.79	145.93	24.92	-36.9	-38.7	23.2	0.00e+00	0	59	0	304611328	45	4438
2026-01-13 00:10:12.81	144.57	24.51	-36.6	-38.3	23.6	0.00e+00	0	59	0	308281344	45	4231
2026-01-13 00:10:15.84	143.25	24.10	-36.9	-38.7	23.3	0.00e+00	0	59	0	311427072	44	4667
2026-01-13 00:10:18.87	141.96	23.69	-37.1	-38.9	23.0	0.00e+00	0	59	0	314572800	44	4803
2026-01-13 00:10:21.90	140.72	23.27	-36.7	-38.5	23.4	0.00e+00	0	59	0	318242816	44	4578
2026-01-13 00:10:24.93	139.51	22.85	-37.0	-38.9	22.9	0.00e+00	0	59	0	321388544	44	4798
2026-01-13 00:10:27.96	138.34	22.42	-37.1	-39.0	22.8	0.00e+00	0	59	0	325058560	44	4837
2026-01-13 00:10:30.99	137.21	22.00	-37.1	-39.0	22.8	0.00e+00	0	59	0	328728576	44	4831
2026-01-13 00:10:34.02	136.12	21.57	-37.4	-39.3	22.4	0.00e+00	0	59	0	331874304	45	4740
2026-01-13 00:10:37.05	135.06	21.14	-37.5	-39.5	22.2	0.00e+00	0	59	0	335544320	45	4851
2026-01-13 00:10:40.07	134.04	20.72	-37.4	-39.4	22.4	0.00e+00	0	59	0	338690048	45	4766
2026-01-13 00:10:43.10	133.04	20.30	-37.4	-39.4	22.3	0.00e+00	0	59	0	342360064	45	4794
2026-01-13 00:10:46.13	132.09	19.88	-37.7	-39.7	22.0	0.00e+00	0	59	0	345505792	45	4966
2026-01-13 00:10:49.16	131.16	19.46	-37.9	-40.0	21.7	0.00e+00	0	59	0	349175808	46	4831
2026-01-13 00:10:52.19	130.26	19.05	-37.7	-39.8	21.8	0.00e+00	0	59	0	352321536	46	4733
2026-01-13 00:10:55.22	129.39	18.64	-37.8	-40.0	21.6	0.00e+00	0	59	0	355467264	46	4839
2026-01-13 00:10:58.24	128.56	18.23	-37.8	-39.9	21.6	0.00e+00	0	59	0	359137280	46	4807
2026-01-13 00:11:01.27	127.74	17.83	-38.2	-40.4	21.1	0.00e+00	0	59	0	362283008	46	5078
2026-01-13 00:11:04.30	126.96	17.43	-37.9	-40.1	21.4	0.00e+00	0	59	0	365953024	46	4897
2026-01-13 00:11:07.33	126.20	17.04	-38.3	-40.6	20.8	0.00e+00	0	59	0	369098752	47	4923
2026-01-13 00:11:10.36	125.46	16.65	-38.3	-40.6	20.8	0.00e+00	0	59	0	372768768	47	4876
2026-01-13 00:11:13.38	124.75	16.26	-38.2	-40.5	20.8	0.00e+00	0	59	0	375914496	47	4852
2026-01-13 00:11:16.41	124.06	15.89	-38.4	-40.8	20.5	0.00e+00	0	59	0	379584512	47	5018
2026-01-13 00:11:19.44	123.39	15.51	-38.9	-41.3	20.0	0.00e+00	0	59	0	383254528	48	5039
2026-01-13 00:11:22.47	122.74	15.14	-39.1	-41.7	19.4	0.00e+00	0	59	0	386400256	48	5273
2026-01-13 00:11:25.50	122.11	14.78	-38.6	-41.3	19.9	1.48e-05	0	59	0	390070272	48	4997
2026-01-13 00:11:28.53	121.50	14.42	-39.0	-41.7	19.2	9.10e-06	0	59	0	393216000	48	5220
2026-01-13 00:11:31.56	120.91	14.06	-39.3	-42.0	18.9	8.01e-05	0	59	0	396361728	49	5153
2026-01-13 00:11:34.59	120.34	13.72	-38.9	-41.8	19.2	1.34e-04	0	59	0	400031744	48	5285
2026-01-13 00:11:37.62	119.79	13.37	-39.0	-42.0	19.0	4.92e-05	0	59	0	403177472	48	5435
2026-01-13 00:11:40.64	119.25	13.03	-39.2	-42.3	18.7	3.66e-05	0	59	0	406847488	49	5287
2026-01-13 00:11:43.67	118.73	12.70	-39.1	-42.3	18.5	2.86e-05	0	59	0	409993216	49	5338
2026-01-13 00:11:46.70	118.22	12.37	-38.7	-42.4	18.4	4.50e-06	0	59	0	413663232	49	5375
2026-01-13 00:11:49.73	117.73	12.04	-39.1	-42.6	17.8	5.55e-04	0	59	0	416808960	49	5508
2026-01-13 00:11:52.76	117.25	11.73	-38.7	-42.7	17.5	2.74e-05	0	59	0	420478976	48	5894
2026-01-13 00:11:55.79	116.78	11.41	-38.0	-43.0	16.4	3.08e-04	0	59	0	424148992	47	6478
2026-01-13 00:11:58.82	116.33	11.10	-37.3	-43.3	15.1	4.93e-04	0	59	0	427294720	45	7524
2026-01-13 00:12:01.85	115.89	10.79	-37.4	-43.1	14.2	1.21e-03	0	59	0	430964736	42	8679
2026-01-13 00:12:04.88	115.47	10.49	-35.2	-42.4	14.0	6.61e-04	0	59	0	434110464	41	8474
2026-01-13 00:12:07.91	115.05	10.19	-34.9	-43.2	12.6	1.20e-03	0	59	0	437256192	41	9295
2026-01-13 00:12:10.94	114.65	9.90	-35.8	-46.3	9.8	1.42e-03	0	59	0	440926208	42	12599
2026-01-13 00:12:13.97	114.25	9.61	-36.4	-46.2	9.5	4.69e-02	0	59	0	444071936	39	14823
2026-01-13 00:12:17.00	113.87	9.32	-35.9	-49.6	7.0	2.48e-01	0	59	0	446693376	43	17376
2026-01-13 00:12:20.02	113.50	9.04	-35.9	-47.9	7.5	1.83e-01	0	59	0	450363392	38	18950
2026-01-13 00:12:23.05	113.14	8.77	-36.2	-43.8	12.0	2.13e-03	0	59	0	453509120	41	9991
2026-01-13 00:12:26.08	112.78	8.49	-36.3	-44.3	11.5	2.04e-03	0	59	0	457179136	39	11917
2026-01-13 00:12:29.11	112.44	8.22	-35.7	-44.0	12.2	2.43e-03	0	60	0	460324864	41	10267
2026-01-13 00:12:32.14	112.10	7.96	-44.1	-61.1	3.9	2.10e-02	0	59	104	463470592	58	27405
2026-01-13 00:12:35.17	111.78	7.69	-45.0	-63.1	3.8	8.46e-01	0	60	104	463470592	60	30795
2026-01-13 00:12:38.19	111.46	7.43	-45.4	-63.5	3.8	8.47e-01	0	59	104	463470592	61	30668
2026-01-13 00:12:41.22	111.15	7.18	-45.6	-63.7	3.8	8.46e-01	0	60	104	463470592	61	31399
2026-01-13 00:12:44.25	110.85	6.92	-45.4	-63.6	3.8	8.47e-01	0	59	104	463470592	61	31004
2026-01-13 00:12:47.28	110.55	6.67	-45.3	-63.6	3.8	8.47e-01	0	59	104	463470592	61	30957
2026-01-13 00:12:50.31	110.26	6.43	-45.2	-63.5	3.8	8.46e-01	0	59	104	463470592	61	30503
2026-01-13 00:12:53.34	109.98	6.18	-45.2	-63.5	3.8	8.46e-01	0	59	104	463470592	61	30443
2026-01-13 00:12:56.37	109.70	5.94	-45.2	-63.5	3.8	8.46e-01	0	59	104	463470592	61	30410
2026-01-13 00:12:59.40	109.43	5.70	-45.2	-63.5	3.8	8.47e-01	0	60	104	463470592	61	30460
2026-01-13 00:13:02.43	109.17	5.47	-45.1	-63.4	3.8	8.46e-01	0	59	104	463470592	61	30348
2026-01-13 00:13:05.46	108.91	5.24	-45.1	-63.4	3.8	8.46e-01	0	59	104	463470592	61	30306
2026-01-13 00:13:08.49	108.66	5.01	-45.1	-63.4	3.8	8.46e-01	0	59	104	463470592	61	30193
2026-01-13 00:13:11.52	108.42	4.78	-45.1	-63.4	3.8	8.48e-01	0	59	104	463470592	61	30260
2026-01-13 00:13:14.55	108.18	4.55	-45.1	-63.4	3.8	8.47e-01	0	60	104	463470592	61	30271
2026-01-13 00:13:17.58	107.94	4.33	-45.1	-63.4	3.8	8.46e-01	0	60	104	463470592	61	30280
2026-01-13 00:13:20.61	107.71	4.11	-45.1	-63.4	3.8	8.45e-01	0	59	104	463470592	61	30206
2026-01-13 00:13:23.64	107.49	3.89	-45.1	-63.4	3.8	8.48e-01	0	60	104	463470592	61	30160
2026-01-13 00:13:26.66	107.27	3.68	-45.1	-63.4	3.8	8.47e-01	0	59	104	463470592	61	30161
2026-01-13 00:13:29.69	107.06	3.47	-45.1	-63.4	3.8	8.47e-01	0	59	104	463470592	61	30121
2026-01-13 00:13:32.72	106.85	3.26	-45.1	-63.4	3.8	8.46e-01	0	59	104	463470592	61	30141
2026-01-13 00:13:35.75	106.64	3.05	-45.1	-63.4	3.8	8.45e-01	0	60	104	463470592	61	30126
2026-01-13 00:13:38.79	106.44	2.84	-45.1	-63.4	3.8	8.46e-01	0	60	104	463470592	61	30109
2026-01-13 00:13:41.81	106.24	2.63	-45.1	-63.4	3.8	8.45e-01	0	59	104	463470592	61	30098
2026-01-13 00:13:44.84	106.05	2.43	-45.1	-63.4	3.8	8.46e-01	0	60	104	463470592	61	30110
2026-01-13 00:13:47.87	105.86	2.23	-45.1	-63.4	3.8	8.45e-01	0	60	104	463470592	61	30040
2026-01-13 00:13:50.91	105.67	2.03	-45.1	-63.3	3.8	8.46e-01	0	60	104	463470592	61	30007

#Closed at: 2026-01-13 00:13:53
#Recorded file [463 MB]: D:/lorett/data/31039_260113_030439.dat