passes_logs/2026/01/13/R2.0S_Moscow/R2.0S_Moscow__20260113_025640_FENGYUN_3E_rec.log

#Pass ID: 20260113_025640_FENGYUN 3E
#Satellite: FENGYUN 3E
#Configuration: FENGYUN 3E
#almurnet v.1.7.20251203
#Start time: 2026-01-13 03:05:27

#Version: 2.2.20231116
#Station: R2.0S_Moscow
#Location: 37.707566 lon 55.798166 lat
#TLE: 1 49008U 21062A   26012.25745337  .00000274  00000+0  14981-3 0  9997
#TLE: 2 49008  98.7491  17.4183 0001913 142.8235 217.3074 14.19885845234459

#Time	Az	El	Level	Level2	SNR	BER	BlckErr	Temp	State	Recorded	gain1	gain2
2026-01-13 03:05:27.85	134.23	28.09	-45.0	-56.5	3.8	8.46e-01	0	60	0	0	60	14537
2026-01-13 03:05:29.86	134.74	27.87	-45.8	-56.9	3.8	8.46e-01	0	60	104	0	62	12793
2026-01-13 03:05:31.88	135.25	27.65	-45.6	-56.0	3.8	8.46e-01	0	60	104	0	62	11446
2026-01-13 03:05:33.90	135.76	27.43	-45.4	-55.7	3.8	8.37e-01	0	60	104	1048576	60	12490
2026-01-13 03:05:35.92	136.25	27.20	-45.4	-56.4	3.8	8.45e-01	0	61	104	1048576	60	13493
2026-01-13 03:05:37.94	136.74	26.98	-45.3	-56.2	3.8	8.47e-01	0	61	104	1048576	60	13127
2026-01-13 03:05:39.96	137.23	26.76	-45.3	-55.9	3.8	8.46e-01	0	61	104	1048576	60	12729
2026-01-13 03:05:41.98	137.70	26.53	-45.2	-55.5	3.8	8.46e-01	0	61	104	1048576	60	12160
2026-01-13 03:05:44.01	138.17	26.31	-45.2	-55.5	3.8	8.46e-01	0	60	104	1048576	60	12224
2026-01-13 03:05:46.03	138.64	26.08	-45.3	-56.1	3.8	8.45e-01	0	61	104	1048576	60	13024
2026-01-13 03:05:48.05	139.10	25.86	-45.3	-55.9	3.8	8.47e-01	0	61	104	1048576	60	12757
2026-01-13 03:05:50.07	139.55	25.63	-45.2	-55.3	3.8	8.45e-01	0	60	104	1048576	60	11928
2026-01-13 03:05:52.09	139.99	25.41	-45.2	-55.3	3.8	8.46e-01	0	61	104	1048576	60	11884
2026-01-13 03:05:54.11	140.43	25.18	-45.2	-55.2	3.8	8.46e-01	0	61	104	1048576	60	11784
2026-01-13 03:05:56.14	140.86	24.96	-45.0	-54.0	4.0	8.46e-01	0	61	104	1048576	60	10273
2026-01-13 03:05:58.16	141.29	24.74	-44.9	-53.4	4.1	8.41e-01	0	61	0	1048576	60	9552
2026-01-13 03:06:00.18	141.71	24.51	-45.0	-53.8	3.9	8.43e-01	0	61	104	1048576	60	10043
2026-01-13 03:06:02.20	142.13	24.29	-45.0	-53.8	3.9	8.42e-01	0	61	104	1048576	60	9990
2026-01-13 03:06:04.23	142.54	24.06	-45.0	-53.8	3.9	8.43e-01	0	61	104	1048576	60	10010
2026-01-13 03:06:06.25	142.94	23.84	-45.2	-55.6	3.8	8.46e-01	0	61	104	1048576	60	12370
2026-01-13 03:06:08.27	143.34	23.62	-45.0	-53.7	4.0	8.44e-01	0	61	104	1048576	60	9874
2026-01-13 03:06:10.29	143.73	23.40	-43.2	-47.3	7.7	1.77e-01	0	61	0	6291456	57	5600
2026-01-13 03:06:12.31	144.12	23.18	-41.5	-44.2	10.8	4.35e-03	0	61	0	20971520	53	4936
2026-01-13 03:06:14.33	144.50	22.96	-41.7	-44.5	10.4	3.36e-03	0	61	0	35651584	53	5109
2026-01-13 03:06:16.35	144.88	22.74	-43.8	-48.6	6.5	1.66e-01	0	61	0	50331648	57	6517
2026-01-13 03:06:18.37	145.25	22.52	-43.3	-47.4	7.5	1.93e-01	0	61	0	60817408	57	5685
2026-01-13 03:06:20.40	145.62	22.30	-40.1	-42.1	13.0	1.21e-04	0	61	0	75497472	51	4354
2026-01-13 03:06:22.42	145.98	22.08	-39.7	-41.6	13.6	0.00e+00	0	61	0	90177536	48	4914
2026-01-13 03:06:24.44	146.34	21.86	-39.4	-41.8	13.1	2.36e-02	0	61	0	104857600	50	4453
2026-01-13 03:06:26.46	146.69	21.65	-37.1	-38.5	16.5	0.00e+00	0	61	0	119537664	44	4327
2026-01-13 03:06:28.48	147.04	21.43	-36.8	-38.2	16.7	0.00e+00	0	61	0	128974848	44	4148
2026-01-13 03:06:30.50	147.38	21.22	-36.9	-38.2	16.6	0.00e+00	0	61	0	143654912	44	4177
2026-01-13 03:06:32.52	147.72	21.00	-37.1	-38.5	16.3	0.00e+00	0	61	0	158334976	44	4317
2026-01-13 03:06:34.54	148.05	20.79	-37.3	-38.8	16.1	0.00e+00	0	61	0	173015040	44	4448
2026-01-13 03:06:36.56	148.38	20.58	-37.4	-38.8	16.0	0.00e+00	0	61	0	187695104	44	4489
2026-01-13 03:06:38.58	148.70	20.37	-37.3	-38.7	16.2	0.00e+00	0	61	0	202375168	44	4407
2026-01-13 03:06:40.60	149.02	20.16	-37.1	-38.5	16.3	0.00e+00	0	61	0	217055232	44	4335
2026-01-13 03:06:42.62	149.34	19.95	-37.1	-38.5	16.3	0.00e+00	0	61	0	231735296	44	4339
2026-01-13 03:06:44.64	149.65	19.74	-37.2	-38.7	16.2	0.00e+00	0	61	0	246415360	44	4395
2026-01-13 03:06:46.65	149.96	19.53	-37.2	-38.7	16.1	0.00e+00	0	61	0	261095424	44	4402
2026-01-13 03:06:48.68	150.26	19.32	-37.4	-38.9	15.9	0.00e+00	0	61	0	275775488	44	4504
2026-01-13 03:06:50.69	150.56	19.12	-37.4	-38.8	15.9	0.00e+00	0	61	0	289406976	44	4493
2026-01-13 03:06:52.72	150.86	18.91	-37.4	-38.8	16.0	0.00e+00	0	61	0	304087040	44	4486
2026-01-13 03:06:54.73	151.15	18.71	-37.4	-38.9	15.9	0.00e+00	0	61	0	318767104	44	4524
2026-01-13 03:06:56.76	151.44	18.51	-37.4	-38.9	15.9	0.00e+00	0	61	0	333447168	44	4529
2026-01-13 03:06:58.77	151.72	18.31	-37.5	-39.0	15.8	0.00e+00	0	61	0	348127232	44	4563
2026-01-13 03:07:00.79	152.00	18.11	-37.4	-38.9	15.9	0.00e+00	0	61	0	362807296	44	4508
2026-01-13 03:07:02.81	152.28	17.91	-37.3	-38.7	16.0	0.00e+00	0	61	0	377487360	44	4432
2026-01-13 03:07:04.84	152.55	17.71	-37.4	-38.8	15.9	0.00e+00	0	61	0	392167424	44	4481
2026-01-13 03:07:06.86	152.82	17.51	-37.4	-38.8	15.9	0.00e+00	0	61	0	406847488	44	4470
2026-01-13 03:07:08.88	153.09	17.31	-37.6	-39.1	15.6	0.00e+00	0	61	0	421527552	44	4637
2026-01-13 03:07:10.90	153.35	17.12	-37.8	-39.3	15.4	0.00e+00	0	61	0	435159040	45	4474
2026-01-13 03:07:12.92	153.61	16.92	-37.8	-39.4	15.2	0.00e+00	0	61	0	449839104	45	4524
2026-01-13 03:07:14.94	153.87	16.73	-37.9	-39.5	15.2	0.00e+00	0	61	0	464519168	45	4575
2026-01-13 03:07:16.96	154.12	16.53	-38.0	-39.6	15.0	0.00e+00	0	61	0	479199232	45	4633
2026-01-13 03:07:18.98	154.38	16.34	-38.0	-39.5	15.1	0.00e+00	0	61	0	493879296	45	4592
2026-01-13 03:07:20.99	154.62	16.15	-37.8	-39.4	15.2	0.00e+00	0	61	0	508559360	45	4506
2026-01-13 03:07:23.01	154.87	15.96	-37.9	-39.4	15.1	0.00e+00	0	61	0	523239424	45	4545
2026-01-13 03:07:25.03	155.11	15.77	-37.8	-39.4	15.2	0.00e+00	0	61	0	537919488	45	4530
2026-01-13 03:07:27.05	155.35	15.58	-37.9	-39.5	15.1	0.00e+00	0	61	0	552599552	45	4580
2026-01-13 03:07:29.07	155.58	15.40	-37.9	-39.6	15.0	0.00e+00	0	61	0	567279616	45	4606
2026-01-13 03:07:31.09	155.82	15.21	-38.0	-39.6	14.9	0.00e+00	0	61	0	580911104	45	4641
2026-01-13 03:07:33.10	156.04	15.03	-37.9	-39.5	15.0	0.00e+00	0	61	0	596639744	45	4588
2026-01-13 03:07:35.13	156.27	14.84	-38.1	-39.7	14.9	0.00e+00	0	61	0	610271232	45	4661
2026-01-13 03:07:37.14	156.50	14.66	-38.0	-39.6	14.9	0.00e+00	0	61	0	624951296	45	4618
2026-01-13 03:07:39.16	156.72	14.48	-37.9	-39.5	15.0	0.00e+00	0	61	0	639631360	45	4585
2026-01-13 03:07:41.18	156.94	14.30	-38.1	-39.7	14.8	0.00e+00	0	61	0	654311424	45	4704
2026-01-13 03:07:43.20	157.16	14.12	-38.2	-39.9	14.6	0.00e+00	0	61	0	668991488	46	4524
2026-01-13 03:07:45.22	157.37	13.94	-38.2	-39.9	14.5	0.00e+00	0	61	0	683671552	46	4538
2026-01-13 03:07:47.24	157.58	13.76	-38.4	-40.1	14.4	0.00e+00	0	61	0	698351616	46	4636
2026-01-13 03:07:49.26	157.79	13.58	-38.3	-40.1	14.4	1.10e-06	0	61	0	713031680	46	4600
2026-01-13 03:07:51.28	158.00	13.41	-38.4	-40.1	14.4	0.00e+00	0	61	0	726663168	46	4612
2026-01-13 03:07:53.30	158.20	13.23	-38.5	-40.3	14.1	3.40e-06	0	61	0	741343232	46	4730
2026-01-13 03:07:55.32	158.41	13.06	-38.5	-40.2	14.2	1.10e-06	0	61	0	756023296	46	4689
2026-01-13 03:07:57.34	158.61	12.88	-38.5	-40.2	14.2	0.00e+00	0	61	0	770703360	46	4682
2026-01-13 03:07:59.36	158.80	12.71	-38.5	-40.3	14.1	2.20e-06	0	61	0	785383424	46	4708
2026-01-13 03:08:01.38	159.00	12.54	-38.6	-40.4	13.9	4.50e-06	0	61	0	800063488	46	4804
2026-01-13 03:08:03.40	159.19	12.37	-38.6	-40.5	13.9	1.10e-06	0	61	0	814743552	46	4828
2026-01-13 03:08:05.42	159.38	12.20	-38.7	-40.5	13.8	3.40e-06	0	61	0	829423616	47	4572
2026-01-13 03:08:07.44	159.57	12.03	-38.7	-40.6	13.7	3.40e-06	0	61	0	844103680	47	4626
2026-01-13 03:08:09.46	159.76	11.86	-38.8	-40.8	13.5	9.10e-06	0	61	0	858783744	47	4715
2026-01-13 03:08:11.46	159.94	11.70	-38.8	-40.7	13.5	1.37e-05	0	61	0	872415232	47	4701
2026-01-13 03:08:13.48	160.13	11.53	-39.0	-41.0	13.3	2.28e-05	0	61	0	887095296	47	4832
2026-01-13 03:08:15.51	160.31	11.36	-39.0	-41.0	13.3	2.28e-05	0	61	0	901775360	47	4815
2026-01-13 03:08:17.53	160.49	11.20	-38.9	-40.9	13.3	1.60e-05	0	61	0	916455424	47	4784
2026-01-13 03:08:19.55	160.67	11.04	-38.9	-40.8	13.3	2.40e-05	0	61	0	931135488	47	4755
2026-01-13 03:08:21.57	160.84	10.87	-39.0	-41.0	13.2	3.43e-05	0	61	0	945815552	47	4815
2026-01-13 03:08:23.58	161.01	10.71	-38.8	-40.8	13.4	2.40e-05	0	61	0	960495616	47	4731
2026-01-13 03:08:25.61	161.19	10.55	-38.8	-40.8	13.3	2.28e-05	0	61	0	975175680	47	4727
2026-01-13 03:08:27.63	161.36	10.39	-38.9	-40.9	13.2	2.63e-05	0	61	0	989855744	47	4789
2026-01-13 03:08:29.65	161.52	10.23	-38.8	-40.8	13.3	1.71e-05	0	61	0	1004535808	47	4731
2026-01-13 03:08:31.66	161.69	10.07	-38.8	-40.7	13.4	3.08e-05	0	61	0	1019215872	47	4695
2026-01-13 03:08:33.68	161.85	9.92	-39.0	-41.0	13.1	3.89e-05	0	61	0	1032847360	47	4838
2026-01-13 03:08:35.70	162.02	9.76	-39.1	-41.2	12.8	4.57e-05	0	61	0	1047527424	47	4952
2026-01-13 03:08:37.72	162.18	9.60	-38.9	-40.9	13.1	4.00e-05	0	61	0	1062207488	47	4794
2026-01-13 03:08:39.74	162.34	9.45	-39.0	-41.0	13.0	5.72e-05	0	61	0	1076887552	47	4848
2026-01-13 03:08:41.76	162.50	9.29	-39.1	-41.2	12.8	5.95e-05	0	61	0	1091567616	47	4955
2026-01-13 03:08:43.78	162.65	9.14	-39.3	-41.5	12.7	1.01e-04	0	61	0	1106247680	48	4827
2026-01-13 03:08:45.80	162.81	8.99	-39.5	-41.7	12.3	1.91e-04	0	61	0	1120927744	48	4980
2026-01-13 03:08:47.82	162.96	8.83	-39.4	-41.7	12.4	1.53e-04	0	61	0	1135607808	48	4932
2026-01-13 03:08:49.83	163.11	8.68	-39.4	-41.6	12.4	1.42e-04	0	61	0	1150287872	48	4909
2026-01-13 03:08:51.85	163.26	8.53	-39.5	-41.8	12.2	2.29e-04	0	61	0	1164967936	48	4996
2026-01-13 03:08:53.87	163.41	8.38	-39.5	-41.8	12.2	2.47e-04	0	61	0	1178599424	48	4990
2026-01-13 03:08:55.89	163.56	8.23	-39.5	-41.7	12.2	2.71e-04	0	61	0	1194328064	48	4978
2026-01-13 03:08:57.91	163.71	8.08	-39.4	-41.7	12.2	3.01e-04	0	61	0	1207959552	48	4958
2026-01-13 03:08:59.93	163.85	7.94	-42.7	-47.4	6.8	2.50e-01	0	61	0	1222639616	55	6361
2026-01-13 03:09:01.95	163.99	7.79	-45.3	-56.4	3.8	8.47e-01	0	61	104	1223688192	60	13552
2026-01-13 03:09:03.98	164.14	7.64	-45.6	-56.7	3.8	8.45e-01	0	61	104	1223688192	60	14006
2026-01-13 03:09:06.00	164.28	7.50	-45.7	-56.9	3.8	8.46e-01	0	61	104	1223688192	60	14221
2026-01-13 03:09:08.02	164.42	7.35	-45.7	-56.9	3.8	8.46e-01	0	61	104	1223688192	60	14310
2026-01-13 03:09:10.04	164.55	7.21	-45.7	-56.9	3.8	8.46e-01	0	61	104	1223688192	61	13465
2026-01-13 03:09:12.07	164.69	7.06	-45.7	-56.8	3.8	8.47e-01	0	61	104	1223688192	61	13378
2026-01-13 03:09:14.09	164.83	6.92	-45.7	-56.8	3.8	8.46e-01	0	61	104	1223688192	61	13311
2026-01-13 03:09:16.11	164.96	6.78	-45.6	-56.8	3.8	8.45e-01	0	61	104	1223688192	61	13303
2026-01-13 03:09:18.13	165.09	6.63	-45.6	-56.7	3.8	8.44e-01	0	61	104	1223688192	61	13246
2026-01-13 03:09:20.15	165.22	6.49	-45.6	-56.7	3.8	8.46e-01	0	61	104	1223688192	61	13241
2026-01-13 03:09:22.17	165.35	6.35	-45.6	-56.7	3.8	8.46e-01	0	61	104	1223688192	61	13182
2026-01-13 03:09:24.19	165.48	6.21	-45.5	-56.7	3.8	8.47e-01	0	61	104	1223688192	61	13200
2026-01-13 03:09:26.22	165.61	6.07	-45.5	-56.7	3.8	8.46e-01	0	61	104	1223688192	61	13247
2026-01-13 03:09:28.24	165.74	5.94	-45.5	-56.7	3.8	8.46e-01	0	61	104	1223688192	61	13158
2026-01-13 03:09:30.26	165.86	5.80	-45.5	-56.7	3.8	8.46e-01	0	61	104	1223688192	61	13137
2026-01-13 03:09:32.28	165.99	5.66	-45.5	-56.7	3.8	8.47e-01	0	61	104	1223688192	61	13196
2026-01-13 03:09:34.30	166.11	5.52	-45.5	-56.6	3.8	8.46e-01	0	61	104	1223688192	61	13102
2026-01-13 03:09:36.32	166.23	5.39	-45.5	-56.7	3.8	8.46e-01	0	61	104	1223688192	61	13161
2026-01-13 03:09:38.34	166.36	5.25	-45.5	-56.7	3.8	8.46e-01	0	61	104	1223688192	61	13124
2026-01-13 03:09:40.37	166.48	5.12	-45.5	-56.6	3.8	8.47e-01	0	61	104	1223688192	61	13064
2026-01-13 03:09:42.39	166.60	4.98	-45.5	-56.6	3.8	8.46e-01	0	61	104	1223688192	61	13083
2026-01-13 03:09:44.41	166.71	4.85	-45.5	-56.7	3.8	8.47e-01	0	61	104	1223688192	61	13148
2026-01-13 03:09:46.42	166.83	4.72	-45.5	-56.7	3.8	8.47e-01	0	61	104	1223688192	61	13117
2026-01-13 03:09:48.45	166.95	4.58	-45.5	-56.7	3.8	8.46e-01	0	61	104	1223688192	61	13126
2026-01-13 03:09:50.46	167.06	4.45	-45.5	-56.7	3.8	8.46e-01	0	61	104	1223688192	61	13145
2026-01-13 03:09:52.48	167.18	4.32	-45.5	-56.6	3.8	8.47e-01	0	62	104	1223688192	61	13098
2026-01-13 03:09:54.50	167.29	4.19	-45.5	-56.6	3.8	8.46e-01	0	62	104	1223688192	61	13079
2026-01-13 03:09:56.53	167.40	4.06	-45.5	-56.6	3.8	8.46e-01	0	61	104	1223688192	61	13109
2026-01-13 03:09:58.55	167.51	3.93	-45.5	-56.6	3.8	8.46e-01	0	61	104	1223688192	61	13024
2026-01-13 03:10:00.57	167.62	3.80	-45.5	-56.6	3.8	8.47e-01	0	62	104	1223688192	61	13010
2026-01-13 03:10:02.59	167.73	3.67	-45.5	-56.7	3.8	8.47e-01	0	61	104	1223688192	61	13116
2026-01-13 03:10:04.61	167.84	3.54	-45.5	-56.6	3.8	8.46e-01	0	61	104	1223688192	61	13015
2026-01-13 03:10:06.63	167.95	3.42	-45.4	-56.6	3.8	8.46e-01	0	61	104	1223688192	61	13076
2026-01-13 03:10:08.66	168.06	3.29	-45.5	-56.6	3.8	8.47e-01	0	61	104	1223688192	61	13069
2026-01-13 03:10:10.68	168.16	3.16	-45.5	-56.6	3.8	8.47e-01	0	61	104	1223688192	61	13025
2026-01-13 03:10:12.70	168.27	3.03	-45.5	-56.6	3.8	8.46e-01	0	62	104	1223688192	61	13035
2026-01-13 03:10:14.72	168.37	2.91	-45.5	-56.6	3.8	8.46e-01	0	61	104	1223688192	61	13032
2026-01-13 03:10:16.74	168.47	2.78	-45.5	-56.6	3.8	8.45e-01	0	61	104	1223688192	61	12995
2026-01-13 03:10:18.76	168.58	2.66	-45.5	-56.6	3.8	8.46e-01	0	62	104	1223688192	61	13028
2026-01-13 03:10:20.78	168.68	2.54	-45.5	-56.6	3.8	8.46e-01	0	61	104	1223688192	61	13078
2026-01-13 03:10:22.80	168.78	2.41	-45.5	-56.6	3.8	8.45e-01	0	62	104	1223688192	61	13030
2026-01-13 03:10:24.83	168.88	2.29	-45.5	-56.6	3.8	8.46e-01	0	62	104	1223688192	61	13082
2026-01-13 03:10:26.85	168.98	2.17	-45.5	-56.6	3.8	8.47e-01	0	61	104	1223688192	61	13074
2026-01-13 03:10:28.87	169.08	2.04	-45.5	-56.6	3.8	8.46e-01	0	62	104	1223688192	61	13049
2026-01-13 03:10:30.89	169.17	1.92	-45.5	-56.6	3.8	8.47e-01	0	62	104	1223688192	61	13082

#Closed at: 2026-01-13 03:10:31
#Recorded file [1223 MB]: D:/lorett/data/31039_260113_060527.dat