passes_logs/2026/01/13/R2.0S_Moscow/R2.0S_Moscow__20260113_232328_NOAA_21_JPSS-2_rec.log

#Pass ID: 20260113_232328_NOAA 21 (JPSS-2)
#Satellite: NOAA 21 (JPSS-2)
#Configuration: NOAA-21
#almurnet v.1.7.20251203
#Start time: 2026-01-13 23:23:28

#Version: 2.2.20231116
#Station: R2.0S_Moscow
#Location: 37.707566 lon 55.798166 lat
#TLE: 1 54234U 22150A   26013.18009385  .00000056  00000+0  47387-4 0  9997
#TLE: 2 54234  98.7496 314.1019 0000691 303.8246  56.2864 14.19534466164559

#Time	Az	El	Level	Level2	SNR	BER	BlckErr	Temp	State	Recorded	gain1	gain2
2026-01-13 23:23:28.62	17.42	1.98	-41.7	-54.7	3.8	1.49e+00	0	58	0	0	55	15593
2026-01-13 23:23:32.67	17.48	2.24	-41.6	-54.6	3.8	1.49e+00	0	58	104	0	53	17383
2026-01-13 23:23:36.71	17.55	2.50	-41.6	-54.6	3.8	1.49e+00	0	58	104	0	53	17397
2026-01-13 23:23:40.76	17.62	2.76	-41.6	-54.6	3.8	1.49e+00	0	58	104	0	53	17408
2026-01-13 23:23:44.80	17.69	3.02	-41.6	-54.6	3.8	1.49e+00	0	58	104	0	53	17395
2026-01-13 23:23:48.84	17.75	3.29	-41.6	-54.6	3.8	1.49e+00	0	58	104	0	53	17394
2026-01-13 23:23:52.88	17.82	3.56	-41.6	-54.6	3.8	1.49e+00	0	58	104	0	53	17355
2026-01-13 23:23:56.92	17.90	3.83	-41.6	-54.6	3.8	1.49e+00	0	58	104	0	53	17360
2026-01-13 23:24:00.97	17.97	4.11	-41.6	-54.6	3.8	1.49e+00	0	59	104	0	53	17292
2026-01-13 23:24:05.01	18.04	4.38	-41.6	-54.6	3.8	1.49e+00	0	59	104	0	53	17319
2026-01-13 23:24:09.06	18.11	4.66	-41.6	-54.6	3.8	1.49e+00	0	58	104	0	53	17353
2026-01-13 23:24:13.10	18.19	4.95	-41.6	-54.6	3.8	1.49e+00	0	59	104	0	53	17326
2026-01-13 23:24:17.14	18.27	5.23	-41.6	-54.6	3.8	1.49e+00	0	59	104	0	53	17314
2026-01-13 23:24:21.18	18.34	5.52	-41.6	-54.6	3.8	1.49e+00	0	59	104	0	53	17304
2026-01-13 23:24:25.23	18.42	5.81	-41.6	-54.6	3.8	1.49e+00	0	59	104	0	53	17290
2026-01-13 23:24:29.27	18.50	6.11	-41.6	-54.6	3.8	1.49e+00	0	59	104	0	53	17294
2026-01-13 23:24:33.31	18.58	6.41	-41.6	-54.6	3.8	1.49e+00	0	59	104	0	53	17297
2026-01-13 23:24:37.35	18.66	6.71	-41.6	-54.6	3.8	1.49e+00	0	59	104	0	53	17318
2026-01-13 23:24:41.40	18.75	7.02	-41.6	-54.5	3.8	1.49e+00	0	59	104	0	53	17100
2026-01-13 23:24:45.44	18.83	7.33	-41.6	-54.2	3.8	1.49e+00	0	59	104	0	53	16682
2026-01-13 23:24:49.48	18.92	7.64	-41.5	-53.5	3.8	1.49e+00	0	59	104	0	53	15252
2026-01-13 23:24:53.53	19.01	7.96	-41.3	-51.7	3.9	1.47e+00	0	59	104	0	53	12388
2026-01-13 23:24:57.57	19.10	8.28	-40.6	-47.2	4.4	1.49e+00	0	59	104	3145728	53	7387
2026-01-13 23:25:01.61	19.19	8.60	-40.1	-44.7	9.1	2.09e-02	0	60	0	8388608	52	5880
2026-01-13 23:25:05.65	19.28	8.93	-40.6	-45.2	8.9	3.50e-02	0	60	0	22020096	52	6227
2026-01-13 23:25:09.68	19.38	9.27	-40.6	-44.6	9.7	1.33e-02	0	60	0	34603008	52	5815
2026-01-13 23:25:13.72	19.47	9.60	-40.8	-44.6	9.7	1.06e-02	0	60	0	47185920	52	5853
2026-01-13 23:25:17.76	19.57	9.95	-40.8	-44.5	10.0	8.25e-03	0	60	0	59768832	52	5760
2026-01-13 23:25:21.80	19.67	10.29	-40.7	-44.3	10.4	5.78e-03	0	60	0	72351744	52	5602
2026-01-13 23:25:25.84	19.77	10.65	-40.7	-44.2	10.6	4.61e-03	0	60	0	84934656	52	5543
2026-01-13 23:25:29.88	19.88	11.00	-40.7	-44.0	10.8	2.54e-03	0	60	0	97517568	52	5434
2026-01-13 23:25:33.92	19.98	11.37	-40.6	-43.7	11.2	1.56e-03	0	60	0	110100480	52	5271
2026-01-13 23:25:37.97	20.09	11.74	-40.5	-43.6	11.4	1.08e-03	0	60	0	122683392	52	5194
2026-01-13 23:25:42.01	20.20	12.11	-40.5	-43.5	11.6	7.65e-04	0	60	0	135266304	52	5112
2026-01-13 23:25:46.05	20.32	12.49	-40.5	-43.4	11.7	6.02e-04	0	60	0	147849216	52	5098
2026-01-13 23:25:50.09	20.43	12.88	-40.4	-43.3	11.9	4.31e-04	0	60	0	160432128	52	5004
2026-01-13 23:25:54.13	20.55	13.27	-40.4	-43.2	12.0	3.42e-04	0	60	0	173015040	52	4982
2026-01-13 23:25:58.16	20.67	13.66	-40.4	-43.3	12.0	3.31e-04	0	60	0	185597952	52	4986
2026-01-13 23:26:02.20	20.80	14.07	-40.4	-43.2	12.0	3.24e-04	0	60	0	198180864	52	4978
2026-01-13 23:26:06.24	20.92	14.48	-40.5	-43.3	12.0	2.84e-04	0	60	0	210763776	52	5007
2026-01-13 23:26:10.28	21.05	14.90	-40.5	-43.3	12.0	2.86e-04	0	60	0	223346688	52	5003
2026-01-13 23:26:14.32	21.19	15.32	-40.5	-43.4	12.0	3.11e-04	0	60	0	235929600	52	5047
2026-01-13 23:26:18.36	21.32	15.76	-40.6	-43.5	11.9	3.46e-04	0	60	0	248512512	52	5113
2026-01-13 23:26:22.40	21.46	16.20	-40.7	-43.6	11.9	3.61e-04	0	60	0	261095424	52	5164
2026-01-13 23:26:26.44	21.61	16.65	-40.7	-43.6	11.9	3.86e-04	0	60	0	273678336	52	5170
2026-01-13 23:26:30.48	21.76	17.10	-40.7	-43.4	12.1	2.52e-04	0	60	0	286261248	52	5093
2026-01-13 23:26:34.52	21.91	17.57	-40.6	-43.4	12.2	2.29e-04	0	60	0	298844160	52	5052
2026-01-13 23:26:38.57	22.07	18.04	-40.6	-43.3	12.3	1.81e-04	0	60	0	311427072	52	5028
2026-01-13 23:26:42.61	22.23	18.53	-40.5	-43.2	12.4	1.51e-04	0	60	0	324009984	52	4975
2026-01-13 23:26:46.65	22.39	19.02	-40.4	-43.0	12.6	9.76e-05	0	60	0	337641472	52	4864
2026-01-13 23:26:50.69	22.56	19.52	-40.4	-42.9	12.8	6.63e-05	0	60	0	350224384	52	4792
2026-01-13 23:26:54.73	22.74	20.04	-40.3	-42.8	12.9	4.50e-05	0	60	0	362807296	52	4741
2026-01-13 23:26:58.77	22.92	20.56	-40.2	-42.6	13.2	3.12e-05	0	60	0	375390208	52	4625
2026-01-13 23:27:02.81	23.11	21.10	-40.1	-42.5	13.3	1.83e-05	0	60	0	387973120	52	4550
2026-01-13 23:27:06.85	23.30	21.64	-40.0	-42.3	13.6	1.22e-05	0	61	0	400556032	51	4741
2026-01-13 23:27:10.89	23.50	22.20	-39.9	-42.1	13.8	3.00e-06	0	60	0	413138944	51	4621
2026-01-13 23:27:14.93	23.70	22.77	-39.7	-41.9	14.0	1.50e-06	0	61	0	425721856	51	4508
2026-01-13 23:27:18.97	23.92	23.35	-39.6	-41.7	14.3	0.00e+00	0	60	0	438304768	51	4396
2026-01-13 23:27:23.01	24.14	23.95	-39.6	-41.7	14.3	1.50e-06	0	60	0	450887680	51	4393
2026-01-13 23:27:27.05	24.37	24.56	-39.5	-41.6	14.4	0.00e+00	0	60	0	463470592	50	4604
2026-01-13 23:27:31.10	24.60	25.18	-39.7	-41.9	14.1	7.00e-07	0	60	0	476053504	50	4772
2026-01-13 23:27:35.14	24.85	25.82	-40.0	-42.3	13.7	5.30e-06	0	60	0	488636416	50	4992
2026-01-13 23:27:39.18	25.11	26.48	-40.3	-42.7	13.3	1.75e-05	0	60	0	501219328	51	4963
2026-01-13 23:27:43.22	25.37	27.15	-40.4	-42.8	13.2	2.13e-05	0	61	0	513802240	51	5034
2026-01-13 23:27:47.26	25.65	27.83	-40.7	-43.2	12.7	6.63e-05	0	61	0	526385152	52	4964
2026-01-13 23:27:51.29	25.94	28.53	-40.9	-43.6	12.4	1.59e-04	0	61	0	538968064	52	5172
2026-01-13 23:27:55.33	26.24	29.25	-41.0	-43.8	12.2	1.98e-04	0	61	0	551550976	52	5307
2026-01-13 23:27:59.37	26.55	29.99	-40.7	-43.3	12.7	8.69e-05	0	61	0	564133888	52	5027
2026-01-13 23:28:03.42	26.88	30.75	-40.2	-42.6	13.5	1.52e-05	0	61	0	576716800	52	4621
2026-01-13 23:28:07.45	27.22	31.52	-40.1	-42.4	13.6	4.50e-06	0	60	0	589299712	52	4505
2026-01-13 23:28:11.49	27.58	32.32	-40.2	-42.6	13.4	1.29e-05	0	60	0	601882624	52	4614
2026-01-13 23:28:15.54	27.96	33.14	-40.6	-43.1	12.9	4.57e-05	0	61	0	614465536	52	4902
2026-01-13 23:28:19.58	28.36	33.98	-40.7	-43.2	12.8	6.25e-05	0	61	0	628097024	52	4976
2026-01-13 23:28:23.62	28.77	34.84	-41.2	-44.0	12.1	2.32e-04	0	61	0	639631360	52	5412
2026-01-13 23:28:27.66	29.21	35.72	-41.3	-44.1	11.9	4.60e-04	0	61	0	653262848	53	5214
2026-01-13 23:28:31.70	29.67	36.62	-41.5	-44.5	11.6	7.15e-04	0	60	0	665845760	53	5413
2026-01-13 23:28:35.74	30.16	37.55	-41.3	-44.1	12.0	3.53e-04	0	61	0	678428672	53	5171
2026-01-13 23:28:39.78	30.67	38.51	-41.2	-44.0	12.0	3.81e-04	0	60	0	691011584	53	5138
2026-01-13 23:28:43.83	31.22	39.49	-41.3	-44.1	12.0	3.40e-04	0	61	0	703594496	53	5174
2026-01-13 23:28:47.86	31.80	40.49	-41.5	-44.5	11.7	6.87e-04	0	61	0	716177408	53	5407
2026-01-13 23:28:51.90	32.42	41.52	-42.2	-45.7	10.4	3.95e-03	0	60	0	728760320	54	5858
2026-01-13 23:28:55.94	33.07	42.58	-42.3	-45.9	10.1	6.91e-03	0	61	0	741343232	55	5714
2026-01-13 23:28:59.98	33.77	43.66	-42.6	-46.4	9.6	1.05e-02	0	61	0	753926144	55	6044
2026-01-13 23:29:04.02	34.52	44.77	-42.4	-46.1	9.9	8.91e-03	0	61	0	766509056	55	5799
2026-01-13 23:29:08.06	35.32	45.91	-42.5	-46.2	9.9	9.98e-03	0	61	0	779091968	55	5887
2026-01-13 23:29:12.10	36.19	47.07	-41.6	-44.7	11.5	1.05e-03	0	61	0	791674880	55	4927
2026-01-13 23:29:16.13	37.11	48.26	-41.5	-44.3	11.9	4.57e-04	0	61	0	804257792	54	5026
2026-01-13 23:29:20.17	38.12	49.47	-41.5	-44.4	11.8	3.55e-04	0	61	0	816840704	54	5062
2026-01-13 23:29:24.21	39.20	50.71	-41.8	-45.0	11.1	1.39e-03	0	61	0	829423616	54	5428
2026-01-13 23:29:28.25	40.38	51.97	-42.0	-45.2	11.0	2.14e-03	0	60	0	842006528	54	5580
2026-01-13 23:29:32.29	41.66	53.25	-41.3	-44.1	12.2	2.90e-04	0	61	0	854589440	54	4888
2026-01-13 23:29:36.33	43.06	54.55	-41.5	-44.4	11.8	5.16e-04	0	60	0	867172352	54	5086
2026-01-13 23:29:40.36	44.58	55.86	-40.9	-43.5	12.7	8.46e-05	0	61	0	879755264	53	4836
2026-01-13 23:29:44.40	46.26	57.18	-40.8	-43.3	12.9	4.11e-05	0	61	0	892338176	53	4758
2026-01-13 23:29:48.45	48.12	58.51	-40.4	-42.8	13.4	1.52e-05	0	61	0	904921088	52	4741
2026-01-13 23:29:52.49	50.16	59.84	-40.0	-42.2	14.1	2.20e-06	0	61	0	917504000	51	4654
2026-01-13 23:29:56.53	52.42	61.16	-39.7	-41.7	14.6	0.00e+00	0	61	0	930086912	51	4394
2026-01-13 23:30:00.57	54.94	62.47	-39.5	-41.5	14.8	7.00e-07	0	60	0	942669824	51	4294
2026-01-13 23:30:04.61	57.73	63.75	-39.3	-41.2	15.1	0.00e+00	0	61	0	955252736	50	4395
2026-01-13 23:30:08.65	60.84	64.98	-39.2	-41.0	15.3	0.00e+00	0	61	0	968884224	50	4321
2026-01-13 23:30:12.69	64.31	66.17	-39.4	-41.4	15.0	0.00e+00	0	61	0	981467136	49	4763
2026-01-13 23:30:16.74	68.17	67.29	-39.5	-41.5	14.8	0.00e+00	0	60	0	994050048	49	4850
2026-01-13 23:30:20.78	72.44	68.31	-39.1	-41.0	15.3	0.00e+00	0	61	0	1006632960	49	4547
2026-01-13 23:30:24.82	77.14	69.23	-39.4	-41.3	14.9	0.00e+00	0	61	0	1019215872	49	4736
2026-01-13 23:30:28.86	82.28	70.01	-39.6	-41.6	14.6	0.00e+00	0	60	0	1031798784	49	4919
2026-01-13 23:30:32.89	87.79	70.63	-38.7	-40.5	15.7	0.00e+00	0	61	0	1044381696	49	4301
2026-01-13 23:30:36.94	93.68	71.08	-39.2	-41.1	15.1	0.00e+00	0	60	0	1056964608	49	4640
2026-01-13 23:30:40.98	99.78	71.33	-39.6	-41.6	14.6	7.00e-07	0	61	0	1069547520	49	4902
2026-01-13 23:30:45.02	106.00	71.39	-39.0	-40.8	15.4	0.00e+00	0	61	0	1082130432	49	4491
2026-01-13 23:30:49.06	112.18	71.23	-39.7	-41.7	14.5	7.00e-07	0	61	0	1094713344	50	4694
2026-01-13 23:30:53.09	118.17	70.88	-39.6	-41.7	14.5	0.00e+00	0	61	0	1107296256	50	4683
2026-01-13 23:30:57.13	123.89	70.35	-39.9	-42.1	14.1	1.50e-06	0	61	0	1119879168	50	4919
2026-01-13 23:31:01.17	129.24	69.64	-39.2	-41.1	15.0	0.00e+00	0	61	0	1132462080	50	4360
2026-01-13 23:31:05.21	134.17	68.79	-39.8	-41.9	14.2	7.00e-07	0	61	0	1145044992	50	4783
2026-01-13 23:31:09.25	138.66	67.82	-38.9	-40.7	15.3	0.00e+00	0	61	0	1157627904	49	4439
2026-01-13 23:31:13.29	142.73	66.75	-39.4	-41.4	14.8	7.00e-07	0	61	0	1170210816	50	4497
2026-01-13 23:31:17.33	146.39	65.59	-40.4	-42.8	13.4	5.30e-06	0	61	0	1182793728	51	4988
2026-01-13 23:31:21.37	149.69	64.37	-39.8	-41.9	14.3	7.00e-07	0	61	0	1195376640	51	4508
2026-01-13 23:31:25.41	152.64	63.11	-42.1	-45.6	10.4	4.66e-03	0	61	0	1207959552	54	5790
2026-01-13 23:31:29.45	155.30	61.81	-39.4	-41.3	14.8	0.00e+00	0	61	0	1220542464	50	4482
2026-01-13 23:31:33.49	157.69	60.50	-40.5	-43.0	13.0	5.41e-05	0	61	0	1233125376	52	4824
2026-01-13 23:31:37.53	159.84	59.17	-40.6	-43.0	13.0	1.14e-05	0	61	0	1245708288	51	5121
2026-01-13 23:31:41.57	161.79	57.83	-40.6	-43.1	12.8	9.91e-05	0	61	0	1258291200	53	4633
2026-01-13 23:31:45.61	163.56	56.50	-40.1	-42.3	13.7	4.50e-06	0	61	0	1270874112	51	4751
2026-01-13 23:31:49.65	165.16	55.18	-41.2	-43.9	12.0	6.42e-04	0	61	0	1284505600	54	4813
2026-01-13 23:31:53.69	166.63	53.87	-40.4	-42.7	13.3	1.75e-05	0	61	0	1297088512	52	4676
2026-01-13 23:31:57.73	167.97	52.57	-41.9	-45.1	10.7	2.96e-03	0	61	0	1309671424	54	5524
2026-01-13 23:32:01.77	169.20	51.30	-41.1	-43.8	12.1	3.65e-04	0	61	0	1322254336	54	4746
2026-01-13 23:32:05.82	170.33	50.04	-42.3	-45.8	10.1	5.29e-03	0	61	0	1334837248	55	5613
2026-01-13 23:32:09.85	171.37	48.81	-42.3	-46.0	9.9	1.08e-02	0	61	0	1347420160	55	5746
2026-01-13 23:32:13.89	172.34	47.60	-42.0	-45.3	10.6	2.90e-03	0	61	0	1360003072	55	5285
2026-01-13 23:32:17.93	173.23	46.42	-42.1	-45.5	10.3	4.80e-03	0	61	0	1372585984	55	5416
2026-01-13 23:32:21.97	174.06	45.27	-42.1	-45.4	10.4	4.71e-03	0	61	0	1385168896	55	5400
2026-01-13 23:32:26.01	174.84	44.14	-42.7	-46.6	9.3	1.93e-02	0	61	0	1397751808	56	5827
2026-01-13 23:32:30.05	175.56	43.04	-42.3	-45.8	10.1	6.70e-03	0	61	0	1410334720	56	5336
2026-01-13 23:32:34.09	176.24	41.96	-42.0	-45.3	10.7	2.94e-03	0	61	0	1422917632	56	4993
2026-01-13 23:32:38.13	176.87	40.91	-41.6	-44.6	11.2	1.42e-03	0	61	0	1435500544	55	4904
2026-01-13 23:32:42.17	177.47	39.89	-42.2	-45.8	9.9	8.42e-03	0	61	0	1448083456	55	5647
2026-01-13 23:32:46.21	178.03	38.90	-41.7	-44.9	10.9	2.50e-03	0	61	0	1460666368	55	5068
2026-01-13 23:32:50.25	178.56	37.92	-41.4	-44.3	11.5	8.79e-04	0	61	0	1473249280	54	4995
2026-01-13 23:32:54.29	179.06	36.98	-41.3	-44.2	11.6	8.06e-04	0	61	0	1485832192	54	4964
2026-01-13 23:32:58.33	179.54	36.06	-41.1	-43.9	11.9	4.57e-04	0	61	0	1498415104	54	4800
2026-01-13 23:33:02.37	179.98	35.16	-41.0	-43.7	12.0	2.75e-04	0	61	0	1510998016	53	4980
2026-01-13 23:33:06.40	180.41	34.28	-41.7	-45.0	10.8	2.55e-03	0	61	0	1523580928	53	5739
2026-01-13 23:33:10.44	180.81	33.43	-41.3	-44.3	11.5	8.64e-04	0	61	0	1536163840	54	4985
2026-01-13 23:33:14.48	181.20	32.60	-40.6	-43.2	12.5	1.10e-04	0	61	0	1548746752	53	4682
2026-01-13 23:33:18.53	181.57	31.79	-40.5	-43.0	12.7	6.48e-05	0	61	0	1561329664	53	4571
2026-01-13 23:33:22.57	181.92	31.00	-40.4	-42.9	12.8	4.57e-05	0	61	0	1573912576	52	4807
2026-01-13 23:33:26.61	182.25	30.23	-40.1	-42.4	13.4	2.36e-05	0	61	0	1586495488	52	4517
2026-01-13 23:33:30.65	182.57	29.48	-40.2	-42.6	13.1	3.58e-05	0	61	0	1600126976	52	4623
2026-01-13 23:33:34.69	182.87	28.75	-40.3	-42.7	13.0	4.27e-05	0	61	0	1612709888	52	4679
2026-01-13 23:33:38.73	183.17	28.03	-40.2	-42.6	13.1	3.50e-05	0	61	0	1625292800	52	4642
2026-01-13 23:33:42.77	183.45	27.34	-40.4	-43.0	12.7	7.40e-05	0	61	0	1637875712	52	4821
2026-01-13 23:33:46.81	183.72	26.66	-40.3	-42.8	12.8	5.34e-05	0	61	0	1650458624	52	4750
2026-01-13 23:33:50.85	183.97	25.99	-40.3	-42.7	12.9	4.42e-05	0	61	0	1663041536	52	4688
2026-01-13 23:33:54.90	184.22	25.34	-40.2	-42.6	13.0	3.96e-05	0	61	0	1675624448	52	4624
2026-01-13 23:33:58.94	184.46	24.71	-40.1	-42.6	13.1	3.96e-05	0	61	0	1688207360	52	4599
2026-01-13 23:34:02.98	184.69	24.09	-40.3	-42.8	12.8	5.56e-05	0	61	0	1700790272	52	4745
2026-01-13 23:34:07.02	184.92	23.48	-40.2	-42.7	12.9	4.50e-05	0	61	0	1713373184	52	4683
2026-01-13 23:34:11.06	185.13	22.89	-40.1	-42.5	13.1	3.73e-05	0	61	0	1725956096	52	4570
2026-01-13 23:34:15.11	185.34	22.31	-40.0	-42.4	13.3	1.44e-05	0	61	0	1738539008	51	4771
2026-01-13 23:34:19.15	185.54	21.75	-40.0	-42.3	13.3	1.67e-05	0	61	0	1751121920	51	4756
2026-01-13 23:34:23.19	185.73	21.19	-40.1	-42.5	13.2	1.90e-05	0	61	0	1763704832	51	4840
2026-01-13 23:34:27.23	185.92	20.65	-40.1	-42.5	13.2	2.05e-05	0	61	0	1776287744	51	4824
2026-01-13 23:34:31.27	186.10	20.12	-40.0	-42.4	13.3	1.29e-05	0	61	0	1788870656	51	4769
2026-01-13 23:34:35.31	186.28	19.60	-40.2	-42.7	13.0	3.43e-05	0	61	0	1801453568	51	4929
2026-01-13 23:34:39.35	186.45	19.09	-40.5	-43.1	12.5	1.12e-04	0	61	0	1814036480	51	5185
2026-01-13 23:34:43.39	186.61	18.59	-40.7	-43.4	12.2	2.14e-04	0	61	0	1826619392	51	5342
2026-01-13 23:34:47.43	186.77	18.10	-40.7	-43.4	12.0	2.84e-04	0	61	0	1839202304	52	5094
2026-01-13 23:34:51.46	186.93	17.62	-40.7	-43.4	12.0	3.13e-04	0	61	0	1851785216	52	5080
2026-01-13 23:34:55.50	187.08	17.15	-40.7	-43.5	12.0	3.46e-04	0	61	0	1864368128	52	5130
2026-01-13 23:34:59.54	187.22	16.68	-40.8	-43.6	11.9	4.52e-04	0	61	0	1876951040	52	5170
2026-01-13 23:35:03.58	187.37	16.23	-40.8	-43.6	11.9	4.32e-04	0	61	0	1890582528	52	5183
2026-01-13 23:35:07.62	187.51	15.78	-40.8	-43.6	11.8	4.64e-04	0	61	0	1902116864	52	5192
2026-01-13 23:35:11.66	187.64	15.35	-40.8	-43.6	11.8	4.32e-04	0	61	0	1915748352	52	5179
2026-01-13 23:35:15.70	187.77	14.91	-40.8	-43.7	11.8	4.65e-04	0	61	0	1928331264	52	5226
2026-01-13 23:35:19.74	187.90	14.49	-40.8	-43.7	11.7	5.69e-04	0	61	0	1940914176	52	5237
2026-01-13 23:35:23.78	188.03	14.08	-40.8	-43.7	11.6	5.23e-04	0	61	0	1953497088	52	5278
2026-01-13 23:35:27.82	188.15	13.67	-40.8	-43.7	11.6	6.90e-04	0	61	0	1966080000	52	5250
2026-01-13 23:35:31.86	188.27	13.26	-40.9	-43.8	11.5	7.29e-04	0	61	0	1978662912	52	5339
2026-01-13 23:35:35.90	188.38	12.87	-40.9	-43.8	11.5	8.33e-04	0	61	0	1991245824	52	5314
2026-01-13 23:35:39.94	188.50	12.48	-40.9	-43.9	11.4	9.02e-04	0	61	0	2003828736	52	5384
2026-01-13 23:35:43.98	188.61	12.09	-40.9	-43.9	11.4	1.03e-03	0	61	0	2016411648	52	5357
2026-01-13 23:35:48.02	188.72	11.72	-40.9	-44.0	11.3	1.10e-03	0	61	0	2028994560	52	5406
2026-01-13 23:35:52.06	188.82	11.34	-41.0	-44.1	11.2	1.23e-03	0	61	0	2041577472	52	5476
2026-01-13 23:35:56.10	188.93	10.98	-41.0	-44.2	11.1	1.65e-03	0	61	0	2054160384	52	5529
2026-01-13 23:36:00.14	189.03	10.62	-41.0	-44.1	11.1	1.60e-03	0	61	0	2066743296	52	5499
2026-01-13 23:36:04.18	189.13	10.26	-41.0	-44.1	11.0	1.84e-03	0	61	0	2079326208	52	5525
2026-01-13 23:36:08.22	189.22	9.91	-41.0	-44.3	10.8	2.38e-03	0	61	0	2091909120	52	5594
2026-01-13 23:36:12.26	189.32	9.56	-41.0	-44.2	10.8	2.67e-03	0	61	0	2104492032	52	5581
2026-01-13 23:36:16.31	189.41	9.22	-41.1	-44.4	10.7	3.16e-03	0	61	0	2117074944	52	5689
2026-01-13 23:36:20.35	189.50	8.88	-41.2	-44.6	10.4	4.38e-03	0	61	0	2129657856	52	5804
2026-01-13 23:36:24.39	189.59	8.55	-41.2	-44.7	10.2	5.75e-03	0	61	0	2142240768	53	5556
2026-01-13 23:36:28.43	189.68	8.22	-41.3	-44.9	10.0	7.72e-03	0	61	0	2154823680	53	5668
2026-01-13 23:36:32.47	189.77	7.90	-44.7	-56.6	3.8	1.49e+00	0	61	104	2166358016	59	15410
2026-01-13 23:36:36.52	189.85	7.58	-45.2	-57.4	3.8	1.49e+00	0	61	104	2166358016	60	16109
2026-01-13 23:36:40.56	189.93	7.26	-45.4	-57.6	3.8	1.49e+00	0	61	104	2166358016	61	15464
2026-01-13 23:36:44.60	190.01	6.95	-45.4	-57.6	3.8	1.49e+00	0	61	104	2166358016	61	15449
2026-01-13 23:36:48.64	190.09	6.64	-45.3	-57.5	3.8	1.49e+00	0	61	104	2166358016	61	15356
2026-01-13 23:36:52.68	190.17	6.34	-45.3	-57.5	3.8	1.49e+00	0	61	104	2166358016	61	15273
2026-01-13 23:36:56.72	190.25	6.03	-45.3	-57.5	3.8	1.49e+00	0	61	104	2166358016	61	15267
2026-01-13 23:37:00.77	190.32	5.74	-45.3	-57.5	3.8	1.49e+00	0	61	104	2166358016	61	15273
2026-01-13 23:37:04.81	190.40	5.44	-45.2	-57.5	3.8	1.49e+00	0	61	104	2166358016	61	15237
2026-01-13 23:37:08.85	190.47	5.15	-45.2	-57.4	3.8	1.49e+00	0	61	104	2166358016	61	15191
2026-01-13 23:37:12.89	190.54	4.86	-45.2	-57.4	3.8	1.49e+00	0	61	104	2166358016	61	15202
2026-01-13 23:37:16.94	190.61	4.58	-45.2	-57.4	3.8	1.49e+00	0	61	104	2166358016	61	15171
2026-01-13 23:37:20.98	190.68	4.29	-45.2	-57.4	3.8	1.49e+00	0	61	104	2166358016	61	15165
2026-01-13 23:37:25.03	190.75	4.01	-45.2	-57.4	3.8	1.49e+00	0	61	104	2166358016	61	15217
2026-01-13 23:37:29.07	190.82	3.74	-45.2	-57.4	3.8	1.49e+00	0	61	104	2166358016	61	15174
2026-01-13 23:37:33.11	190.89	3.46	-45.2	-57.4	3.8	1.49e+00	0	61	104	2166358016	61	15154
2026-01-13 23:37:37.16	190.95	3.19	-45.2	-57.4	3.8	1.49e+00	0	61	104	2166358016	61	15164
2026-01-13 23:37:41.20	191.01	2.92	-45.2	-57.4	3.8	1.49e+00	0	61	104	2166358016	61	15142
2026-01-13 23:37:45.25	191.08	2.66	-45.2	-57.4	3.8	1.49e+00	0	61	104	2166358016	61	15156
2026-01-13 23:37:49.29	191.14	2.39	-45.2	-57.4	3.8	1.49e+00	0	61	104	2166358016	61	15133
2026-01-13 23:37:53.34	191.20	2.13	-45.2	-57.4	3.8	1.49e+00	0	61	104	2166358016	61	15136
2026-01-13 23:37:57.38	191.26	1.87	-45.2	-57.4	3.8	1.49e+00	0	61	104	2166358016	61	15137

#Closed at: 2026-01-13 23:37:57
#Recorded file [2166 MB]: D:/lorett/data/31039_260114_022328.dat