passes_logs/2026/01/13/R2.0S_Moscow/R2.0S_Moscow__20260113_124224_FENGYUN_3D_rec.log

#Pass ID: 20260113_124224_FENGYUN 3D
#Satellite: FENGYUN 3D
#Configuration: FENGYUN 3D
#almurnet v.1.7.20251203
#Start time: 2026-01-13 12:42:27

#Version: 2.2.20231116
#Station: R2.0S_Moscow
#Location: 37.707566 lon 55.798166 lat
#TLE: 1 43010U 17072A   26012.32543542  .00000598  00000+0  30457-3 0  9997
#TLE: 2 43010  98.9935 344.1005 0002233 112.6136 247.5276 14.19696644422876

#Time	Az	El	Level	Level2	SNR	BER	BlckErr	Temp	State	Recorded	gain1	gain2
2026-01-13 12:42:27.03	182.48	2.14	-44.0	-55.3	3.8	8.46e-01	0	50	0	0	59	13410
2026-01-13 12:42:31.07	182.63	2.39	-44.0	-55.3	3.8	8.46e-01	0	51	104	0	59	13341
2026-01-13 12:42:35.11	182.78	2.65	-44.0	-55.3	3.8	8.46e-01	0	51	104	0	59	13331
2026-01-13 12:42:39.15	182.93	2.91	-44.0	-55.3	3.8	8.47e-01	0	52	104	0	59	13322
2026-01-13 12:42:43.20	183.09	3.17	-44.0	-55.3	3.8	8.46e-01	0	52	104	0	59	13357
2026-01-13 12:42:47.23	183.25	3.43	-44.0	-55.3	3.8	8.47e-01	0	52	104	0	59	13383
2026-01-13 12:42:51.27	183.41	3.69	-44.0	-55.3	3.8	8.46e-01	0	53	104	0	59	13411
2026-01-13 12:42:55.32	183.58	3.96	-44.0	-55.3	3.8	8.45e-01	0	53	104	0	59	13288
2026-01-13 12:42:59.36	183.75	4.23	-44.0	-55.2	3.8	8.46e-01	0	53	104	0	59	13217
2026-01-13 12:43:03.40	183.92	4.50	-43.9	-54.6	3.8	8.47e-01	0	53	104	0	59	12261
2026-01-13 12:43:07.44	184.09	4.77	-43.9	-54.2	3.8	8.47e-01	0	53	104	0	59	11740
2026-01-13 12:43:11.49	184.27	5.05	-43.8	-54.0	3.8	8.46e-01	0	53	104	0	59	11462
2026-01-13 12:43:15.53	184.45	5.33	-43.7	-53.1	3.8	8.45e-01	0	54	104	0	59	10296
2026-01-13 12:43:19.57	184.63	5.61	-43.6	-52.5	4.0	8.42e-01	0	54	0	0	59	9621
2026-01-13 12:43:23.61	184.82	5.90	-43.2	-50.4	4.6	8.15e-01	0	54	0	0	58	8066
2026-01-13 12:43:27.65	185.01	6.19	-42.8	-48.9	5.5	7.02e-01	0	55	0	0	57	7145
2026-01-13 12:43:31.69	185.20	6.48	-42.7	-48.6	5.8	4.02e-01	0	55	0	15728640	57	6889
2026-01-13 12:43:35.73	185.40	6.77	-42.5	-48.0	6.1	3.59e-01	0	55	0	38797312	57	6484
2026-01-13 12:43:39.77	185.60	7.07	-42.0	-46.6	7.4	1.42e-01	0	55	0	60817408	56	5847
2026-01-13 12:43:43.81	185.81	7.37	-40.8	-44.4	9.4	1.89e-02	0	55	0	83886080	53	5394
2026-01-13 12:43:47.85	186.02	7.68	-40.1	-43.2	10.7	3.86e-03	0	55	0	106954752	52	4953
2026-01-13 12:43:51.88	186.23	7.98	-40.3	-43.5	10.5	4.59e-03	0	55	0	128974848	51	5455
2026-01-13 12:43:55.92	186.45	8.29	-43.3	-51.1	4.4	6.08e-01	0	56	0	150994944	57	9193
2026-01-13 12:43:59.96	186.67	8.61	-39.5	-42.1	12.0	6.12e-04	0	56	0	162529280	51	4642
2026-01-13 12:44:04.00	186.90	8.93	-39.6	-42.3	11.9	5.23e-04	0	56	0	185597952	51	4717
2026-01-13 12:44:08.04	187.13	9.25	-39.5	-42.1	12.1	3.98e-04	0	56	0	207618048	50	4918
2026-01-13 12:44:12.08	187.36	9.57	-39.5	-42.1	12.2	3.36e-04	0	56	0	230686720	50	4916
2026-01-13 12:44:16.12	187.61	9.90	-39.4	-42.0	12.3	2.35e-04	0	56	0	253755392	50	4847
2026-01-13 12:44:20.15	187.85	10.24	-39.4	-42.0	12.4	2.33e-04	0	56	0	275775488	50	4838
2026-01-13 12:44:24.19	188.10	10.57	-39.4	-41.9	12.5	2.15e-04	0	56	0	298844160	50	4799
2026-01-13 12:44:28.23	188.36	10.92	-39.4	-41.9	12.5	1.75e-04	0	57	0	321912832	50	4802
2026-01-13 12:44:32.27	188.63	11.26	-39.3	-41.8	12.6	1.33e-04	0	57	0	344981504	50	4747
2026-01-13 12:44:36.31	188.90	11.61	-39.2	-41.6	12.8	8.69e-05	0	57	0	367001600	50	4639
2026-01-13 12:44:40.34	189.17	11.97	-39.2	-41.6	12.9	6.17e-05	0	57	0	390070272	50	4622
2026-01-13 12:44:44.39	189.46	12.33	-39.1	-41.5	13.1	5.60e-05	0	57	0	412090368	50	4549
2026-01-13 12:44:48.43	189.74	12.69	-39.0	-41.4	13.2	4.80e-05	0	57	0	435159040	50	4500
2026-01-13 12:44:52.47	190.04	13.06	-39.0	-41.3	13.2	3.77e-05	0	57	0	458227712	50	4492
2026-01-13 12:44:56.51	190.34	13.44	-39.0	-41.3	13.3	2.28e-05	0	57	0	480247808	49	4716
2026-01-13 12:45:00.55	190.66	13.82	-38.9	-41.2	13.5	2.05e-05	0	57	0	503316480	49	4661
2026-01-13 12:45:04.59	190.97	14.20	-38.9	-41.2	13.5	2.51e-05	0	57	0	526385152	49	4679
2026-01-13 12:45:08.62	191.30	14.59	-38.9	-41.1	13.5	1.60e-05	0	57	0	549453824	49	4632
2026-01-13 12:45:12.66	191.64	14.99	-38.6	-40.7	14.0	3.40e-06	0	58	0	571473920	49	4434
2026-01-13 12:45:16.70	191.98	15.39	-38.3	-40.4	14.4	1.10e-06	0	57	0	594542592	48	4508
2026-01-13 12:45:20.74	192.33	15.79	-38.3	-40.3	14.4	2.20e-06	0	58	0	616562688	48	4478
2026-01-13 12:45:24.78	192.69	16.21	-38.3	-40.3	14.4	0.00e+00	0	58	0	639631360	48	4493
2026-01-13 12:45:28.82	193.07	16.63	-38.3	-40.3	14.4	0.00e+00	0	58	0	662700032	48	4471
2026-01-13 12:45:32.85	193.45	17.05	-38.0	-39.9	14.8	1.10e-06	0	58	0	684720128	48	4289
2026-01-13 12:45:36.89	193.84	17.48	-38.1	-40.1	14.7	1.10e-06	0	58	0	707788800	48	4387
2026-01-13 12:45:40.93	194.25	17.92	-37.9	-39.8	14.8	1.10e-06	0	58	0	730857472	47	4493
2026-01-13 12:45:44.97	194.66	18.37	-37.7	-39.6	15.1	0.00e+00	0	58	0	753926144	47	4386
2026-01-13 12:45:49.01	195.09	18.82	-37.7	-39.7	15.0	0.00e+00	0	58	0	775946240	47	4408
2026-01-13 12:45:53.05	195.53	19.28	-37.7	-39.7	15.0	0.00e+00	0	58	0	799014912	47	4418
2026-01-13 12:45:57.09	195.98	19.74	-37.6	-39.5	15.2	0.00e+00	0	58	0	821035008	47	4319
2026-01-13 12:46:01.13	196.45	20.21	-37.5	-39.4	15.4	0.00e+00	0	58	0	844103680	46	4495
2026-01-13 12:46:05.17	196.93	20.69	-37.5	-39.4	15.3	0.00e+00	0	58	0	867172352	46	4538
2026-01-13 12:46:09.21	197.42	21.18	-37.4	-39.3	15.5	0.00e+00	0	58	0	889192448	46	4472
2026-01-13 12:46:13.25	197.94	21.67	-37.2	-39.0	15.8	0.00e+00	0	58	0	912261120	46	4319
2026-01-13 12:46:17.29	198.46	22.18	-37.2	-39.0	15.7	0.00e+00	0	59	0	935329792	46	4335
2026-01-13 12:46:21.33	199.01	22.68	-37.2	-39.0	15.8	0.00e+00	0	58	0	958398464	46	4311
2026-01-13 12:46:25.37	199.57	23.20	-37.1	-38.9	16.0	0.00e+00	0	59	0	980418560	46	4251
2026-01-13 12:46:29.40	200.15	23.72	-37.0	-38.8	16.1	0.00e+00	0	59	0	1003487232	46	4196
2026-01-13 12:46:33.44	200.75	24.26	-36.8	-38.5	16.3	0.00e+00	0	58	0	1025507328	45	4326
2026-01-13 12:46:37.48	201.37	24.80	-36.9	-38.6	16.3	0.00e+00	0	59	0	1048576000	45	4356
2026-01-13 12:46:41.52	202.01	25.34	-36.9	-38.6	16.3	0.00e+00	0	59	0	1071644672	45	4356
2026-01-13 12:46:45.56	202.67	25.90	-36.7	-38.3	16.5	0.00e+00	0	59	0	1093664768	45	4231
2026-01-13 12:46:49.60	203.36	26.46	-36.6	-38.3	16.5	0.00e+00	0	59	0	1116733440	45	4233
2026-01-13 12:46:53.64	204.07	27.03	-36.7	-38.4	16.5	0.00e+00	0	59	0	1139802112	45	4251
2026-01-13 12:46:57.67	204.80	27.61	-36.7	-38.4	16.4	0.00e+00	0	59	0	1162870784	45	4290
2026-01-13 12:47:01.71	205.57	28.19	-36.6	-38.3	16.6	0.00e+00	0	59	0	1184890880	45	4233
2026-01-13 12:47:05.75	206.36	28.78	-36.6	-38.3	16.5	0.00e+00	0	59	0	1207959552	45	4239
2026-01-13 12:47:09.79	207.18	29.38	-36.6	-38.3	16.6	0.00e+00	0	59	0	1229979648	45	4227
2026-01-13 12:47:13.83	208.03	29.99	-36.7	-38.4	16.5	0.00e+00	0	59	0	1253048320	45	4278
2026-01-13 12:47:17.87	208.91	30.60	-36.6	-38.3	16.6	0.00e+00	0	59	0	1276116992	45	4225
2026-01-13 12:47:21.91	209.83	31.21	-36.5	-38.1	16.8	0.00e+00	0	59	0	1298137088	45	4144
2026-01-13 12:47:25.95	210.78	31.83	-36.3	-37.9	17.0	0.00e+00	0	59	0	1321205760	44	4282
2026-01-13 12:47:29.99	211.76	32.46	-36.6	-38.3	16.7	0.00e+00	0	59	0	1344274432	44	4444
2026-01-13 12:47:34.03	212.79	33.09	-36.4	-38.0	16.9	0.00e+00	0	59	0	1367343104	44	4321
2026-01-13 12:47:38.06	213.85	33.72	-36.3	-37.9	17.0	0.00e+00	0	59	0	1389363200	44	4274
2026-01-13 12:47:42.11	214.96	34.35	-36.5	-38.1	16.8	0.00e+00	0	59	0	1412431872	44	4379
2026-01-13 12:47:46.14	216.11	34.99	-36.4	-38.0	16.9	0.00e+00	0	59	0	1434451968	44	4309
2026-01-13 12:47:50.18	217.30	35.62	-36.5	-38.2	16.8	0.00e+00	0	59	0	1457520640	44	4392
2026-01-13 12:47:54.22	218.54	36.25	-36.2	-37.9	17.1	0.00e+00	0	59	0	1480589312	44	4245
2026-01-13 12:47:58.26	219.83	36.88	-36.2	-37.8	17.1	0.00e+00	0	59	0	1502609408	44	4218
2026-01-13 12:48:02.30	221.17	37.51	-36.3	-38.0	17.0	0.00e+00	0	59	0	1525678080	44	4304
2026-01-13 12:48:06.34	222.56	38.13	-36.3	-37.9	17.0	0.00e+00	0	59	0	1548746752	44	4278
2026-01-13 12:48:10.38	224.00	38.74	-36.4	-38.0	16.9	0.00e+00	0	59	0	1571815424	44	4325
2026-01-13 12:48:14.43	225.50	39.34	-36.4	-38.1	16.9	0.00e+00	0	59	0	1593835520	44	4358
2026-01-13 12:48:18.46	227.05	39.92	-36.3	-38.0	17.0	0.00e+00	0	59	0	1616904192	44	4300
2026-01-13 12:48:22.50	228.66	40.50	-36.4	-38.0	17.0	0.00e+00	0	59	0	1638924288	44	4313
2026-01-13 12:48:26.54	230.32	41.06	-36.2	-37.8	17.1	0.00e+00	0	59	0	1661992960	44	4221
2026-01-13 12:48:30.58	232.04	41.59	-36.4	-38.1	16.9	0.00e+00	0	59	0	1685061632	44	4345
2026-01-13 12:48:34.61	233.81	42.11	-36.3	-37.9	17.0	0.00e+00	0	59	0	1707081728	44	4277
2026-01-13 12:48:38.65	235.64	42.60	-36.5	-38.2	16.8	0.00e+00	0	59	0	1730150400	44	4413
2026-01-13 12:48:42.70	237.53	43.07	-36.3	-38.0	17.0	0.00e+00	0	60	0	1753219072	44	4293
2026-01-13 12:48:46.74	239.47	43.50	-36.7	-38.4	16.6	0.00e+00	0	59	0	1776287744	44	4504
2026-01-13 12:48:50.78	241.46	43.91	-36.4	-38.0	17.0	0.00e+00	0	60	0	1798307840	44	4298
2026-01-13 12:48:54.82	243.50	44.28	-36.7	-38.4	16.6	0.00e+00	0	60	0	1821376512	44	4499
2026-01-13 12:48:58.86	245.58	44.61	-36.6	-38.2	16.8	0.00e+00	0	60	0	1843396608	44	4424
2026-01-13 12:49:02.90	247.71	44.90	-36.6	-38.3	16.6	0.00e+00	0	59	0	1866465280	44	4486
2026-01-13 12:49:06.93	249.86	45.15	-36.5	-38.2	16.8	0.00e+00	0	59	0	1889533952	44	4407
2026-01-13 12:49:10.98	252.06	45.36	-36.9	-38.6	16.4	0.00e+00	0	59	0	1912602624	44	4638
2026-01-13 12:49:15.01	254.27	45.52	-36.9	-38.7	16.3	0.00e+00	0	60	0	1934622720	44	4654
2026-01-13 12:49:19.05	256.50	45.64	-36.8	-38.5	16.5	0.00e+00	0	60	0	1957691392	44	4568
2026-01-13 12:49:23.09	258.75	45.71	-36.6	-38.3	16.6	0.00e+00	0	59	0	1980760064	44	4479
2026-01-13 12:49:27.13	261.00	45.73	-36.5	-38.2	16.8	0.00e+00	0	59	0	2002780160	44	4395
2026-01-13 12:49:31.17	263.26	45.70	-36.5	-38.1	16.9	0.00e+00	0	60	0	2025848832	44	4372
2026-01-13 12:49:35.21	265.50	45.63	-36.9	-38.6	16.3	0.00e+00	0	59	0	2047868928	44	4641
2026-01-13 12:49:39.24	267.73	45.51	-36.8	-38.5	16.5	0.00e+00	0	60	0	2070937600	44	4555
2026-01-13 12:49:43.29	269.94	45.34	-37.0	-38.8	16.2	0.00e+00	0	60	0	2094006272	44	4746
2026-01-13 12:49:47.33	272.13	45.13	-36.8	-38.5	16.5	0.00e+00	0	59	0	2117074944	44	4556
2026-01-13 12:49:51.37	274.28	44.87	-36.4	-38.0	16.9	0.00e+00	0	60	0	2139095040	44	4340
2026-01-13 12:49:55.41	276.40	44.58	-36.6	-38.3	16.6	0.00e+00	0	60	0	2162163712	44	4462
2026-01-13 12:49:59.45	278.48	44.24	-36.6	-38.1	17.1	0.00e+00	0	60	0	2185232384	44	4352
2026-01-13 12:50:03.49	280.51	43.87	-36.5	-38.0	17.2	0.00e+00	0	60	0	2207252480	44	4315
2026-01-13 12:50:07.53	282.49	43.47	-36.6	-38.1	17.1	0.00e+00	0	60	0	2230321152	44	4371
2026-01-13 12:50:11.57	284.42	43.03	-36.9	-38.5	16.7	0.00e+00	0	60	0	2253389824	44	4561
2026-01-13 12:50:15.61	286.29	42.56	-36.8	-38.4	16.8	0.00e+00	0	60	0	2275409920	44	4518
2026-01-13 12:50:19.65	288.11	42.07	-36.9	-38.4	16.8	0.00e+00	0	59	0	2298478592	44	4527
2026-01-13 12:50:23.69	289.88	41.55	-36.6	-38.1	17.1	0.00e+00	0	60	0	2321547264	44	4343
2026-01-13 12:50:27.73	291.59	41.01	-36.5	-38.0	17.2	0.00e+00	0	60	0	2343567360	44	4327
2026-01-13 12:50:31.77	293.24	40.46	-36.2	-37.6	17.6	0.00e+00	0	60	0	2366636032	44	4116
2026-01-13 12:50:35.81	294.84	39.88	-36.7	-38.2	17.0	0.00e+00	0	60	0	2389704704	44	4399
2026-01-13 12:50:39.85	296.38	39.30	-36.2	-37.6	17.6	0.00e+00	0	60	0	2411724800	44	4122
2026-01-13 12:50:43.88	297.87	38.70	-36.3	-37.8	17.4	0.00e+00	0	60	0	2434793472	44	4197
2026-01-13 12:50:47.92	299.30	38.09	-36.3	-37.8	17.4	0.00e+00	0	60	0	2457862144	44	4196
2026-01-13 12:50:51.97	300.68	37.47	-36.3	-37.8	17.4	0.00e+00	0	60	0	2479882240	44	4209
2026-01-13 12:50:56.00	302.01	36.85	-36.2	-37.6	17.5	0.00e+00	0	60	0	2502950912	44	4132
2026-01-13 12:51:00.04	303.29	36.23	-36.3	-37.8	17.3	0.00e+00	0	60	0	2526019584	44	4223
2026-01-13 12:51:04.08	304.53	35.60	-36.6	-38.2	17.0	0.00e+00	0	60	0	2548039680	44	4397
2026-01-13 12:51:08.11	305.71	34.97	-36.6	-38.1	17.1	0.00e+00	0	60	0	2571108352	44	4358
2026-01-13 12:51:12.15	306.85	34.34	-36.5	-37.9	17.2	0.00e+00	0	60	0	2594177024	44	4287
2026-01-13 12:51:16.19	307.95	33.71	-36.3	-37.8	17.3	0.00e+00	0	60	0	2616197120	44	4212
2026-01-13 12:51:20.23	309.01	33.08	-36.6	-38.1	17.0	0.00e+00	0	60	0	2639265792	44	4366
2026-01-13 12:51:24.27	310.03	32.46	-36.5	-38.0	17.2	0.00e+00	0	60	0	2661285888	44	4293
2026-01-13 12:51:28.30	311.01	31.84	-36.5	-38.0	17.1	0.00e+00	0	60	0	2684354560	44	4327
2026-01-13 12:51:32.34	311.96	31.22	-36.8	-38.4	16.7	0.00e+00	0	60	0	2707423232	44	4514
2026-01-13 12:51:36.39	312.87	30.61	-36.7	-38.2	16.9	0.00e+00	0	60	0	2730491904	44	4402
2026-01-13 12:51:40.42	313.75	30.00	-36.8	-38.4	16.7	0.00e+00	0	60	0	2752512000	44	4511
2026-01-13 12:51:44.46	314.59	29.40	-36.8	-38.4	16.7	0.00e+00	0	60	0	2775580672	44	4510
2026-01-13 12:51:48.50	315.41	28.81	-36.5	-38.0	17.1	0.00e+00	0	60	0	2798649344	44	4311
2026-01-13 12:51:52.54	316.19	28.22	-36.5	-38.1	17.0	0.00e+00	0	60	0	2820669440	44	4342
2026-01-13 12:51:56.59	316.96	27.64	-36.8	-38.4	16.6	0.00e+00	0	60	0	2843738112	44	4527
2026-01-13 12:52:00.63	317.69	27.07	-36.9	-38.5	16.6	0.00e+00	0	60	0	2866806784	44	4560
2026-01-13 12:52:04.66	318.40	26.50	-36.9	-38.5	16.6	0.00e+00	0	60	0	2888826880	44	4552
2026-01-13 12:52:08.71	319.08	25.94	-37.0	-38.6	16.4	0.00e+00	0	60	0	2911895552	44	4607
2026-01-13 12:52:12.75	319.74	25.39	-37.0	-38.7	16.3	0.00e+00	0	60	0	2934964224	44	4653
2026-01-13 12:52:16.79	320.38	24.85	-36.9	-38.5	16.5	0.00e+00	0	60	0	2956984320	44	4585
2026-01-13 12:52:20.82	321.00	24.31	-37.1	-38.8	16.1	0.00e+00	0	60	0	2980052992	44	4730
2026-01-13 12:52:24.86	321.60	23.78	-37.4	-39.1	15.8	0.00e+00	0	60	0	3003121664	45	4648
2026-01-13 12:52:28.90	322.18	23.26	-37.3	-39.0	15.9	0.00e+00	0	60	0	3025141760	45	4566
2026-01-13 12:52:32.94	322.74	22.75	-37.2	-38.8	16.1	0.00e+00	0	60	0	3048210432	45	4466
2026-01-13 12:52:36.98	323.28	22.24	-37.4	-39.1	15.8	0.00e+00	0	60	0	3071279104	45	4622
2026-01-13 12:52:41.02	323.81	21.75	-37.8	-39.6	15.3	0.00e+00	0	60	0	3093299200	46	4618
2026-01-13 12:52:45.06	324.32	21.26	-37.8	-39.6	15.2	0.00e+00	0	60	0	3116367872	46	4625
2026-01-13 12:52:49.10	324.82	20.77	-37.7	-39.5	15.4	0.00e+00	0	60	0	3139436544	46	4550
2026-01-13 12:52:53.14	325.30	20.30	-37.9	-39.7	15.2	0.00e+00	0	60	0	3161456640	46	4667
2026-01-13 12:52:57.18	325.76	19.83	-38.0	-39.8	15.0	0.00e+00	0	60	0	3184525312	46	4751
2026-01-13 12:53:01.23	326.22	19.36	-38.0	-39.9	14.9	1.10e-06	0	60	0	3207593984	46	4763
2026-01-13 12:53:05.26	326.66	18.91	-37.9	-39.8	15.0	0.00e+00	0	60	0	3229614080	46	4728
2026-01-13 12:53:09.31	327.09	18.46	-38.1	-40.0	14.8	0.00e+00	0	60	0	3252682752	46	4820
2026-01-13 12:53:13.35	327.50	18.02	-38.3	-40.2	14.4	1.10e-06	0	60	0	3275751424	47	4704
2026-01-13 12:53:17.39	327.91	17.58	-38.4	-40.5	14.2	0.00e+00	0	60	0	3297771520	47	4817
2026-01-13 12:53:21.42	328.30	17.16	-38.4	-40.5	14.2	3.40e-06	0	60	0	3320840192	47	4828
2026-01-13 12:53:25.46	328.68	16.73	-38.5	-40.5	14.1	4.50e-06	0	60	0	3343908864	47	4834
2026-01-13 12:53:29.51	329.06	16.32	-38.5	-40.5	14.1	2.20e-06	0	60	0	3365928960	47	4840
2026-01-13 12:53:33.55	329.42	15.91	-38.6	-40.7	13.8	6.80e-06	0	60	0	3388997632	47	4973
2026-01-13 12:53:37.59	329.78	15.50	-38.9	-41.1	13.6	1.02e-05	0	60	0	3412066304	48	4876
2026-01-13 12:53:41.63	330.12	15.10	-38.8	-41.0	13.6	1.48e-05	0	60	0	3434086400	48	4829
2026-01-13 12:53:45.67	330.46	14.71	-38.9	-41.0	13.5	1.02e-05	0	60	0	3457155072	48	4838
2026-01-13 12:53:49.72	330.79	14.32	-38.8	-40.9	13.6	2.28e-05	0	60	0	3480223744	48	4814
2026-01-13 12:53:53.76	331.11	13.94	-39.0	-41.2	13.2	3.77e-05	0	60	0	3502243840	48	4974
2026-01-13 12:53:57.80	331.42	13.56	-39.2	-41.5	12.9	6.75e-05	0	60	0	3525312512	48	5141
2026-01-13 12:54:01.84	331.73	13.19	-39.3	-41.6	12.7	1.23e-04	0	60	0	3548381184	49	4922
2026-01-13 12:54:05.88	332.03	12.82	-39.4	-41.9	12.5	2.00e-04	0	60	0	3571449856	49	5043
2026-01-13 12:54:09.92	332.32	12.46	-39.4	-41.9	12.4	2.54e-04	0	60	0	3593469952	49	5073
2026-01-13 12:54:13.96	332.60	12.10	-39.4	-41.8	12.4	2.20e-04	0	60	0	3616538624	49	5037
2026-01-13 12:54:18.00	332.88	11.75	-39.4	-42.0	12.2	2.73e-04	0	60	0	3638558720	49	5107
2026-01-13 12:54:22.04	333.15	11.40	-39.5	-42.1	12.0	3.87e-04	0	60	0	3661627392	49	5194
2026-01-13 12:54:26.08	333.42	11.06	-39.5	-42.1	12.0	5.24e-04	0	60	0	3684696064	49	5181
2026-01-13 12:54:30.12	333.68	10.72	-39.6	-42.2	11.8	6.28e-04	0	60	0	3706716160	49	5238
2026-01-13 12:54:34.16	333.94	10.38	-39.6	-42.3	11.7	8.59e-04	0	60	0	3729784832	49	5301
2026-01-13 12:54:38.21	334.19	10.05	-39.6	-42.3	11.6	1.07e-03	0	60	0	3752853504	49	5338
2026-01-13 12:54:42.25	334.43	9.72	-39.6	-42.3	11.5	1.10e-03	0	60	0	3775922176	49	5326
2026-01-13 12:54:46.29	334.67	9.40	-39.6	-42.4	11.3	1.47e-03	0	60	0	3797942272	49	5390
2026-01-13 12:54:50.32	334.91	9.08	-39.7	-42.5	11.1	2.02e-03	0	60	0	3821010944	50	5154
2026-01-13 12:54:54.36	335.14	8.76	-39.9	-43.0	10.6	3.48e-03	0	60	0	3843031040	50	5410
2026-01-13 12:54:58.40	335.36	8.45	-39.7	-42.7	10.8	3.30e-03	0	60	0	3866099712	50	5238
2026-01-13 12:55:02.43	335.58	8.14	-39.8	-42.9	10.5	6.13e-03	0	60	0	3889168384	50	5365
2026-01-13 12:55:06.47	335.80	7.84	-44.6	-55.9	3.8	8.46e-01	0	60	104	3900702720	59	14281
2026-01-13 12:55:10.51	336.01	7.53	-45.1	-56.6	3.8	8.46e-01	0	60	104	3900702720	60	14683
2026-01-13 12:55:14.55	336.22	7.23	-45.0	-56.8	3.8	8.46e-01	0	60	104	3900702720	61	14048
2026-01-13 12:55:18.59	336.43	6.94	-45.1	-56.7	3.8	8.46e-01	0	60	104	3900702720	61	13961
2026-01-13 12:55:22.63	336.63	6.65	-45.1	-56.7	3.8	8.45e-01	0	60	104	3900702720	61	13900
2026-01-13 12:55:26.67	336.83	6.36	-45.1	-56.7	3.8	8.45e-01	0	60	104	3900702720	61	13890
2026-01-13 12:55:30.71	337.02	6.07	-45.1	-56.6	3.8	8.46e-01	0	60	104	3900702720	61	13859
2026-01-13 12:55:34.75	337.21	5.79	-45.1	-56.6	3.8	8.45e-01	0	60	104	3900702720	60	14697
2026-01-13 12:55:38.79	337.40	5.50	-45.1	-56.6	3.8	8.46e-01	0	60	104	3900702720	60	14656
2026-01-13 12:55:42.83	337.58	5.23	-45.1	-56.6	3.8	8.46e-01	0	60	104	3900702720	60	14701
2026-01-13 12:55:46.86	337.77	4.95	-45.1	-56.6	3.8	8.46e-01	0	60	104	3900702720	60	14647
2026-01-13 12:55:50.91	337.94	4.68	-45.1	-56.6	3.8	8.46e-01	0	60	104	3900702720	60	14662
2026-01-13 12:55:54.95	338.12	4.41	-45.1	-56.6	3.8	8.46e-01	0	60	104	3900702720	60	14656
2026-01-13 12:55:58.99	338.29	4.14	-45.1	-56.6	3.8	8.48e-01	0	60	104	3900702720	60	14599
2026-01-13 12:56:03.03	338.46	3.88	-45.0	-56.6	3.8	8.46e-01	0	60	104	3900702720	60	14561
2026-01-13 12:56:07.07	338.63	3.61	-45.1	-56.6	3.8	8.46e-01	0	60	104	3900702720	60	14655
2026-01-13 12:56:11.11	338.79	3.35	-44.8	-56.6	3.8	8.47e-01	0	60	104	3900702720	60	14563
2026-01-13 12:56:15.16	338.96	3.09	-45.1	-56.6	3.8	8.47e-01	0	60	104	3900702720	60	14589
2026-01-13 12:56:19.19	339.11	2.84	-45.1	-56.6	3.8	8.46e-01	0	60	104	3900702720	60	14580
2026-01-13 12:56:23.24	339.27	2.58	-45.0	-56.6	3.8	8.46e-01	0	60	104	3900702720	60	14603
2026-01-13 12:56:27.28	339.43	2.33	-45.1	-56.6	3.8	8.46e-01	0	61	104	3900702720	60	14616
2026-01-13 12:56:31.32	339.58	2.08	-45.0	-56.6	3.8	8.47e-01	0	61	104	3900702720	60	14589

#Closed at: 2026-01-13 12:56:33
#Recorded file [3900 MB]: D:/lorett/data/31039_260113_154226.dat