passes_logs/2026/01/13/R2.0S_Moscow/R2.0S_Moscow__20260113_014055_FENGYUN_3G_rec.log

#Pass ID: 20260113_014055_FENGYUN 3G
#Satellite: FENGYUN 3G
#Configuration: FENGYUN 3G
#almurnet v.1.7.20251203
#Start time: 2026-01-13 01:40:56

#Version: 2.2.20231116
#Station: R2.0S_Moscow
#Location: 37.707566 lon 55.798166 lat
#TLE: 1 56232U 23055A   26012.28315646  .00028343  00000+0  44482-3 0  9993
#TLE: 2 56232  49.9940  69.9476 0004238  14.1066 346.0019 15.53388001155773

#Time	Az	El	Level	Level2	SNR	BER	BlckErr	Temp	State	Recorded	gain1	gain2
2026-01-13 01:40:56.86	262.62	2.10	-44.0	-62.2	3.8	8.46e-01	0	51	0	0	60	27915
2026-01-13 01:40:59.88	262.38	2.30	-44.0	-62.2	3.8	8.46e-01	0	52	104	0	60	27863
2026-01-13 01:41:02.91	262.13	2.49	-44.1	-62.2	3.8	8.46e-01	0	52	104	0	59	29374
2026-01-13 01:41:05.95	261.88	2.69	-44.1	-62.1	3.8	8.47e-01	0	52	104	0	59	29263
2026-01-13 01:41:08.98	261.63	2.89	-44.1	-62.1	3.8	8.47e-01	0	52	104	0	59	29032
2026-01-13 01:41:12.01	261.37	3.08	-44.1	-62.1	3.8	8.46e-01	0	53	104	0	59	29014
2026-01-13 01:41:15.04	261.10	3.29	-44.1	-62.1	3.8	8.46e-01	0	53	104	0	59	29107
2026-01-13 01:41:18.08	260.83	3.49	-44.1	-62.0	3.8	8.46e-01	0	53	104	0	59	28905
2026-01-13 01:41:21.10	260.55	3.69	-44.1	-61.7	3.8	8.46e-01	0	53	104	0	59	27991
2026-01-13 01:41:24.13	260.27	3.90	-44.0	-61.3	3.8	8.44e-01	0	54	104	0	59	26657
2026-01-13 01:41:27.16	259.98	4.11	-44.0	-61.3	3.8	8.45e-01	0	54	104	0	59	26536
2026-01-13 01:41:30.19	259.68	4.32	-44.0	-61.8	3.8	8.44e-01	0	54	104	0	59	28100
2026-01-13 01:41:33.22	259.38	4.53	-44.0	-61.7	3.8	8.47e-01	0	54	104	0	59	27879
2026-01-13 01:41:36.26	259.07	4.75	-44.1	-61.8	3.8	8.46e-01	0	54	104	0	59	28289
2026-01-13 01:41:39.29	258.76	4.96	-44.0	-61.5	3.8	8.46e-01	0	54	104	0	59	27113
2026-01-13 01:41:42.32	258.44	5.18	-44.0	-61.4	3.8	8.46e-01	0	54	104	0	59	27020
2026-01-13 01:41:45.35	258.11	5.40	-44.0	-61.6	3.8	8.45e-01	0	54	104	0	59	27593
2026-01-13 01:41:48.37	257.77	5.62	-44.0	-61.4	3.8	8.47e-01	0	55	104	0	59	26957
2026-01-13 01:41:51.40	257.43	5.85	-44.0	-60.4	3.8	8.46e-01	0	55	104	0	59	23990
2026-01-13 01:41:54.43	257.08	6.08	-44.0	-60.0	3.8	8.44e-01	0	55	104	0	59	22798
2026-01-13 01:41:57.46	256.72	6.31	-44.0	-58.7	4.2	8.44e-01	0	55	0	0	59	19773
2026-01-13 01:42:00.50	256.35	6.54	-43.8	-55.7	5.5	8.14e-01	0	55	0	0	59	13989
2026-01-13 01:42:03.53	255.98	6.77	-43.5	-52.8	8.0	2.47e-01	0	55	0	3145728	58	10559
2026-01-13 01:42:06.56	255.60	7.01	-43.3	-51.7	9.3	2.89e-02	0	56	0	6291456	58	9302
2026-01-13 01:42:09.60	255.20	7.25	-43.8	-55.3	5.9	5.63e-02	0	55	0	9961472	58	14184
2026-01-13 01:42:12.63	254.80	7.49	-43.9	-57.4	4.6	8.07e-01	0	56	104	9961472	58	18022
2026-01-13 01:42:15.66	254.39	7.73	-42.6	-49.0	12.0	9.35e-03	0	56	0	12582912	57	7221
2026-01-13 01:42:18.69	253.97	7.98	-41.8	-46.8	14.1	9.10e-06	0	56	0	16252928	55	6311
2026-01-13 01:42:21.72	253.54	8.23	-43.6	-54.3	7.8	1.32e-04	0	56	0	19398656	57	13319
2026-01-13 01:42:24.75	253.09	8.48	-41.8	-46.7	14.0	2.69e-03	0	56	0	22544384	55	6225
2026-01-13 01:42:27.78	252.64	8.73	-40.7	-44.5	16.5	0.00e+00	0	56	0	26214400	53	5430
2026-01-13 01:42:30.81	252.18	8.99	-40.4	-43.9	17.3	0.00e+00	0	56	0	29360128	52	5379
2026-01-13 01:42:33.84	251.70	9.25	-40.8	-44.6	16.6	0.00e+00	0	56	0	33030144	52	5809
2026-01-13 01:42:36.86	251.22	9.51	-40.5	-43.9	17.3	0.00e+00	0	56	0	36175872	52	5379
2026-01-13 01:42:39.89	250.72	9.77	-40.4	-43.8	17.5	0.00e+00	0	56	0	39845888	52	5291
2026-01-13 01:42:42.92	250.21	10.04	-40.4	-43.7	17.6	0.00e+00	0	56	0	42991616	52	5245
2026-01-13 01:42:45.95	249.69	10.31	-40.2	-43.4	17.9	0.00e+00	0	56	0	46661632	52	5081
2026-01-13 01:42:48.97	249.15	10.58	-40.2	-43.3	18.1	0.00e+00	0	57	0	49807360	51	5320
2026-01-13 01:42:52.00	248.60	10.85	-40.2	-43.3	18.1	0.00e+00	0	57	0	53477376	51	5303
2026-01-13 01:42:55.03	248.04	11.13	-40.1	-43.2	18.3	0.00e+00	0	57	0	56623104	51	5241
2026-01-13 01:42:58.06	247.46	11.41	-40.0	-43.0	18.5	0.00e+00	0	57	0	60293120	51	5136
2026-01-13 01:43:01.09	246.86	11.69	-39.8	-42.6	18.9	0.00e+00	0	57	0	63438848	51	4909
2026-01-13 01:43:04.12	246.25	11.97	-39.8	-42.6	18.9	0.00e+00	0	57	0	67108864	51	4914
2026-01-13 01:43:07.15	245.63	12.26	-39.7	-42.5	19.0	0.00e+00	0	57	0	70254592	51	4848
2026-01-13 01:43:10.17	244.99	12.55	-39.5	-42.2	19.3	0.00e+00	0	57	0	73924608	51	4687
2026-01-13 01:43:13.20	244.33	12.84	-39.5	-42.3	19.3	0.00e+00	0	57	0	77070336	50	4985
2026-01-13 01:43:16.23	243.65	13.13	-39.6	-42.3	19.3	0.00e+00	0	57	0	80740352	50	5036
2026-01-13 01:43:19.26	242.96	13.42	-39.5	-42.2	19.3	0.00e+00	0	57	0	83886080	50	4941
2026-01-13 01:43:22.29	242.25	13.72	-39.2	-41.7	19.9	0.00e+00	0	57	0	87556096	50	4656
2026-01-13 01:43:25.32	241.52	14.02	-38.9	-41.4	20.2	0.00e+00	0	57	0	90701824	49	4766
2026-01-13 01:43:28.35	240.77	14.32	-39.4	-42.0	19.6	0.00e+00	0	57	0	94371840	49	5142
2026-01-13 01:43:31.38	240.00	14.62	-38.7	-41.0	20.6	0.00e+00	0	57	0	97517568	49	4589
2026-01-13 01:43:34.41	239.20	14.92	-38.7	-41.0	20.7	0.00e+00	0	57	0	101187584	49	4549
2026-01-13 01:43:37.43	238.40	15.22	-38.7	-41.0	20.6	0.00e+00	0	57	0	104333312	49	4581
2026-01-13 01:43:40.46	237.56	15.53	-38.8	-41.2	20.5	0.00e+00	0	57	0	108003328	49	4664
2026-01-13 01:43:43.49	236.71	15.83	-38.7	-41.1	20.6	0.00e+00	0	57	0	111149056	49	4618
2026-01-13 01:43:46.52	235.83	16.13	-38.4	-40.6	21.1	0.00e+00	0	57	0	114819072	48	4609
2026-01-13 01:43:49.54	234.94	16.44	-38.5	-40.7	21.0	0.00e+00	0	58	0	117964800	48	4691
2026-01-13 01:43:52.57	234.02	16.74	-38.6	-40.9	20.8	0.00e+00	0	58	0	121634816	48	4800
2026-01-13 01:43:55.60	233.07	17.04	-38.4	-40.6	21.1	0.00e+00	0	58	0	124780544	48	4648
2026-01-13 01:43:58.63	232.10	17.34	-38.0	-40.1	21.7	0.00e+00	0	58	0	128450560	48	4349
2026-01-13 01:44:01.66	231.11	17.64	-37.9	-39.9	21.8	0.00e+00	0	58	0	131596288	47	4539
2026-01-13 01:44:04.69	230.09	17.94	-38.4	-40.6	21.2	0.00e+00	0	58	0	135266304	47	4898
2026-01-13 01:44:07.71	229.05	18.23	-38.5	-40.8	21.0	0.00e+00	0	58	0	138412032	47	4995
2026-01-13 01:44:10.74	227.98	18.52	-37.8	-39.8	21.9	0.00e+00	0	58	0	142082048	47	4482
2026-01-13 01:44:13.77	226.89	18.80	-37.6	-39.6	22.2	0.00e+00	0	58	0	145227776	46	4611
2026-01-13 01:44:16.80	225.77	19.08	-37.8	-39.8	22.0	0.00e+00	0	58	0	148897792	46	4746
2026-01-13 01:44:19.83	224.63	19.36	-38.0	-40.1	21.7	0.00e+00	0	58	0	152043520	46	4893
2026-01-13 01:44:22.86	223.46	19.63	-38.2	-40.3	21.5	0.00e+00	0	58	0	155713536	46	5023
2026-01-13 01:44:25.89	222.27	19.89	-38.1	-40.2	21.6	0.00e+00	0	58	0	158859264	46	4976
2026-01-13 01:44:28.92	221.05	20.14	-37.7	-39.7	22.1	0.00e+00	0	58	0	162529280	46	4688
2026-01-13 01:44:31.95	219.81	20.39	-37.2	-39.1	22.8	0.00e+00	0	58	0	165675008	46	4344
2026-01-13 01:44:34.98	218.54	20.63	-37.5	-39.4	22.5	0.00e+00	0	58	0	169345024	46	4522
2026-01-13 01:44:38.01	217.25	20.85	-37.4	-39.4	22.5	0.00e+00	0	58	0	172490752	46	4508
2026-01-13 01:44:41.04	215.94	21.07	-37.3	-39.2	22.6	0.00e+00	0	58	0	176160768	46	4440
2026-01-13 01:44:44.06	214.61	21.27	-37.1	-39.0	22.9	0.00e+00	0	58	0	179306496	46	4300
2026-01-13 01:44:47.09	213.26	21.47	-37.4	-39.3	22.5	0.00e+00	0	58	0	182976512	46	4474
2026-01-13 01:44:50.12	211.88	21.65	-37.5	-39.4	22.4	0.00e+00	0	58	0	186122240	46	4537
2026-01-13 01:44:53.15	210.49	21.81	-37.3	-39.2	22.6	0.00e+00	0	58	0	189792256	46	4431
2026-01-13 01:44:56.18	209.08	21.97	-37.1	-38.9	22.9	0.00e+00	0	58	0	192937984	46	4279
2026-01-13 01:44:59.21	207.66	22.10	-37.1	-39.0	22.8	0.00e+00	0	58	0	196608000	46	4327
2026-01-13 01:45:02.23	206.22	22.22	-36.8	-38.6	23.2	0.00e+00	0	59	0	199753728	45	4371
2026-01-13 01:45:05.26	204.77	22.33	-36.9	-38.7	23.1	0.00e+00	0	58	0	203423744	45	4411
2026-01-13 01:45:08.29	203.31	22.42	-36.9	-38.7	23.1	0.00e+00	0	58	0	206569472	45	4420
2026-01-13 01:45:11.32	201.84	22.49	-36.7	-38.5	23.3	0.00e+00	0	58	0	210239488	45	4324
2026-01-13 01:45:14.35	200.36	22.55	-36.8	-38.6	23.2	0.00e+00	0	59	0	213385216	45	4374
2026-01-13 01:45:17.38	198.88	22.58	-37.3	-39.2	22.7	0.00e+00	0	58	0	217055232	45	4665
2026-01-13 01:45:20.40	197.40	22.60	-37.3	-39.2	22.6	0.00e+00	0	59	0	220200960	45	4679
2026-01-13 01:45:23.43	195.91	22.61	-36.9	-38.8	23.0	0.00e+00	0	58	0	223870976	45	4456
2026-01-13 01:45:26.46	194.42	22.59	-36.8	-38.7	23.1	0.00e+00	0	58	0	227016704	45	4393
2026-01-13 01:45:29.48	192.94	22.56	-37.0	-38.9	22.9	0.00e+00	0	59	0	230686720	45	4520
2026-01-13 01:45:32.51	191.46	22.51	-37.6	-39.6	22.2	0.00e+00	0	59	0	233832448	45	4894
2026-01-13 01:45:35.54	189.99	22.44	-37.3	-39.2	22.6	0.00e+00	0	59	0	237502464	45	4684
2026-01-13 01:45:38.57	188.52	22.35	-36.6	-38.4	23.3	0.00e+00	0	58	0	240648192	45	4265
2026-01-13 01:45:41.60	187.07	22.25	-36.3	-38.0	23.7	0.00e+00	0	58	0	244318208	44	4322
2026-01-13 01:45:44.63	185.63	22.13	-37.0	-38.8	22.9	0.00e+00	0	59	0	247463936	44	4743
2026-01-13 01:45:47.65	184.20	22.00	-36.4	-38.1	23.6	0.00e+00	0	59	0	251133952	44	4384
2026-01-13 01:45:50.68	182.79	21.85	-36.9	-38.7	23.0	0.00e+00	0	59	0	254279680	44	4686
2026-01-13 01:45:53.71	181.40	21.69	-37.5	-39.5	22.2	0.00e+00	0	59	0	257949696	45	4844
2026-01-13 01:45:56.74	180.02	21.51	-37.1	-39.0	22.7	0.00e+00	0	59	0	261095424	45	4548
2026-01-13 01:45:59.77	178.66	21.32	-37.2	-39.1	22.7	0.00e+00	0	59	0	264765440	45	4605
2026-01-13 01:46:02.80	177.32	21.12	-37.9	-40.0	21.8	0.00e+00	0	59	0	267911168	46	4817
2026-01-13 01:46:05.83	176.01	20.90	-37.2	-39.1	22.6	0.00e+00	0	59	0	271581184	46	4361
2026-01-13 01:46:08.86	174.71	20.68	-37.5	-39.4	22.3	0.00e+00	0	59	0	274726912	46	4536
2026-01-13 01:46:11.89	173.44	20.44	-37.5	-39.4	22.4	0.00e+00	0	58	0	278396928	46	4540
2026-01-13 01:46:14.91	172.20	20.20	-37.8	-39.9	21.9	0.00e+00	0	59	0	281542656	46	4784
2026-01-13 01:46:17.94	170.97	19.95	-37.9	-40.0	21.8	0.00e+00	0	59	0	285212672	46	4818
2026-01-13 01:46:20.97	169.77	19.69	-38.4	-40.6	21.1	0.00e+00	0	59	0	288358400	47	4925
2026-01-13 01:46:24.00	168.60	19.42	-38.1	-40.2	21.6	0.00e+00	0	59	0	292028416	47	4677
2026-01-13 01:46:27.03	167.45	19.14	-37.7	-39.7	22.2	0.00e+00	0	59	0	295174144	47	4408
2026-01-13 01:46:30.05	166.33	18.87	-38.5	-40.7	21.2	0.00e+00	0	59	0	298844160	47	4968
2026-01-13 01:46:33.08	165.23	18.58	-38.1	-40.2	21.6	0.00e+00	0	59	0	301989888	47	4705
2026-01-13 01:46:36.11	164.16	18.29	-37.9	-40.0	21.9	0.00e+00	0	59	0	305659904	47	4547
2026-01-13 01:46:39.14	163.11	18.00	-38.0	-40.1	21.7	0.00e+00	0	59	0	308805632	47	4645
2026-01-13 01:46:42.17	162.08	17.71	-38.2	-40.3	21.6	0.00e+00	0	59	0	312475648	47	4734
2026-01-13 01:46:45.20	161.08	17.41	-38.2	-40.4	21.5	0.00e+00	0	59	0	315621376	47	4783
2026-01-13 01:46:48.22	160.11	17.11	-38.5	-40.7	21.2	0.00e+00	0	59	0	319291392	47	4968
2026-01-13 01:46:51.25	159.16	16.81	-38.6	-40.8	21.0	0.00e+00	0	59	0	322437120	47	5028
2026-01-13 01:46:54.28	158.23	16.50	-38.6	-40.9	21.0	0.00e+00	0	59	0	326107136	47	5079
2026-01-13 01:46:57.31	157.33	16.20	-38.7	-41.0	20.9	0.00e+00	0	59	0	329252864	48	4847
2026-01-13 01:47:00.34	156.44	15.90	-38.8	-41.1	20.8	0.00e+00	0	59	0	332922880	48	4878
2026-01-13 01:47:03.37	155.59	15.59	-38.9	-41.2	20.6	0.00e+00	0	59	0	336068608	48	4983
2026-01-13 01:47:06.40	154.75	15.29	-38.8	-41.2	20.7	0.00e+00	0	59	0	339738624	48	4931
2026-01-13 01:47:09.43	153.93	14.99	-39.1	-41.5	20.2	0.00e+00	0	59	0	342884352	48	5145
2026-01-13 01:47:12.46	153.14	14.68	-38.9	-41.3	20.4	0.00e+00	0	59	0	346554368	48	5037
2026-01-13 01:47:15.49	152.36	14.38	-38.9	-41.3	20.4	0.00e+00	0	59	0	349700096	48	5017
2026-01-13 01:47:18.52	151.61	14.08	-39.3	-41.9	19.8	0.00e+00	0	59	0	353370112	49	5051
2026-01-13 01:47:21.55	150.87	13.78	-39.2	-41.8	19.8	0.00e+00	0	59	0	356515840	49	5004
2026-01-13 01:47:24.58	150.15	13.49	-39.5	-42.2	19.4	0.00e+00	0	59	0	360185856	49	5257
2026-01-13 01:47:27.60	149.46	13.19	-39.4	-42.0	19.5	0.00e+00	0	59	0	363331584	49	5140
2026-01-13 01:47:30.63	148.78	12.90	-39.4	-42.1	19.5	0.00e+00	0	59	0	367001600	49	5174
2026-01-13 01:47:33.66	148.11	12.61	-39.7	-42.5	19.0	0.00e+00	0	59	0	370147328	49	5427
2026-01-13 01:47:36.69	147.47	12.32	-39.8	-42.6	18.8	0.00e+00	0	59	0	373817344	50	5199
2026-01-13 01:47:39.72	146.84	12.03	-40.0	-43.0	18.5	0.00e+00	0	59	0	376963072	50	5406
2026-01-13 01:47:42.74	146.23	11.75	-40.0	-43.0	18.4	0.00e+00	0	59	0	380633088	50	5417
2026-01-13 01:47:45.77	145.63	11.47	-39.8	-42.7	18.6	0.00e+00	0	59	0	383778816	50	5256
2026-01-13 01:47:48.80	145.04	11.19	-40.0	-43.1	18.1	0.00e+00	0	59	0	387448832	50	5524
2026-01-13 01:47:51.83	144.48	10.91	-39.9	-43.0	18.2	0.00e+00	0	59	0	390594560	50	5424
2026-01-13 01:47:54.86	143.92	10.63	-39.9	-42.9	18.2	0.00e+00	0	59	0	394264576	50	5395
2026-01-13 01:47:57.89	143.38	10.36	-40.1	-43.3	17.8	0.00e+00	0	59	0	397410304	50	5602
2026-01-13 01:48:00.91	142.86	10.09	-40.1	-43.4	17.6	0.00e+00	0	59	0	401080320	50	5680
2026-01-13 01:48:03.94	142.34	9.83	-40.2	-43.6	17.3	0.00e+00	0	59	0	404226048	50	5842
2026-01-13 01:48:06.97	141.84	9.56	-40.4	-44.1	16.7	0.00e+00	0	59	0	407896064	51	5811
2026-01-13 01:48:10.00	141.35	9.30	-40.2	-43.8	17.0	0.00e+00	0	59	0	411041792	51	5627
2026-01-13 01:48:13.03	140.87	9.04	-40.3	-44.0	16.6	0.00e+00	0	59	0	414711808	51	5783
2026-01-13 01:48:16.06	140.40	8.78	-40.4	-44.6	15.6	0.00e+00	0	59	0	417857536	51	6193
2026-01-13 01:48:19.08	139.95	8.53	-39.7	-43.6	16.7	1.10e-06	0	59	0	421527552	51	5498
2026-01-13 01:48:22.11	139.51	8.28	-38.6	-43.2	16.8	4.77e-04	0	59	0	424673280	49	5858
2026-01-13 01:48:25.14	139.07	8.03	-42.1	-51.8	7.8	2.32e-04	0	59	0	428343296	54	11932
2026-01-13 01:48:28.17	138.65	7.78	-45.0	-63.0	3.8	8.45e-01	0	59	104	428343296	60	30611
2026-01-13 01:48:31.20	138.23	7.54	-45.4	-63.5	3.8	8.45e-01	0	59	104	428343296	61	30543
2026-01-13 01:48:34.23	137.83	7.30	-45.6	-63.7	3.8	8.46e-01	0	59	104	428343296	61	31430
2026-01-13 01:48:37.26	137.43	7.06	-45.4	-63.7	3.8	8.45e-01	0	59	104	428343296	61	31188
2026-01-13 01:48:40.29	137.05	6.82	-45.4	-63.6	3.8	8.46e-01	0	59	104	428343296	61	31049
2026-01-13 01:48:43.32	136.67	6.59	-45.3	-63.6	3.8	8.46e-01	0	59	104	428343296	61	30787
2026-01-13 01:48:46.35	136.30	6.35	-45.3	-63.6	3.8	8.46e-01	0	60	104	428343296	61	30769
2026-01-13 01:48:49.38	135.94	6.12	-45.3	-63.6	3.8	8.46e-01	0	59	104	428343296	61	30804
2026-01-13 01:48:52.41	135.59	5.90	-45.3	-63.6	3.8	8.47e-01	0	59	104	428343296	61	30764
2026-01-13 01:48:55.44	135.24	5.67	-45.3	-63.5	3.8	8.46e-01	0	59	104	428343296	61	30720
2026-01-13 01:48:58.47	134.90	5.45	-45.2	-63.5	3.8	8.46e-01	0	59	104	428343296	61	30647
2026-01-13 01:49:01.51	134.57	5.23	-45.2	-63.5	3.8	8.48e-01	0	59	104	428343296	61	30683
2026-01-13 01:49:04.54	134.25	5.01	-45.2	-63.5	3.8	8.44e-01	0	59	104	428343296	61	30662
2026-01-13 01:49:07.57	133.93	4.79	-45.2	-63.5	3.8	8.45e-01	0	59	104	428343296	61	30550
2026-01-13 01:49:10.60	133.62	4.58	-45.2	-63.5	3.8	8.46e-01	0	59	104	428343296	61	30531
2026-01-13 01:49:13.64	133.32	4.36	-45.2	-63.5	3.8	8.46e-01	0	59	104	428343296	61	30509
2026-01-13 01:49:16.66	133.02	4.15	-45.2	-63.5	3.8	8.46e-01	0	59	104	428343296	61	30584
2026-01-13 01:49:19.69	132.73	3.94	-45.2	-63.5	3.8	8.45e-01	0	59	104	428343296	61	30559
2026-01-13 01:49:22.73	132.44	3.74	-45.2	-63.5	3.8	8.45e-01	0	59	104	428343296	61	30513
2026-01-13 01:49:25.76	132.16	3.53	-45.2	-63.5	3.8	8.46e-01	0	60	104	428343296	61	30593
2026-01-13 01:49:28.79	131.89	3.33	-45.2	-63.5	3.8	8.46e-01	0	59	104	428343296	61	30504
2026-01-13 01:49:31.82	131.62	3.13	-45.2	-63.5	3.8	8.46e-01	0	59	104	428343296	61	30556
2026-01-13 01:49:34.85	131.36	2.93	-45.2	-63.5	3.8	8.47e-01	0	59	104	428343296	61	30488
2026-01-13 01:49:37.88	131.10	2.73	-45.2	-63.5	3.8	8.46e-01	0	59	104	428343296	61	30534
2026-01-13 01:49:40.91	130.85	2.53	-45.2	-63.5	3.8	8.46e-01	0	60	104	428343296	61	30526
2026-01-13 01:49:43.94	130.60	2.34	-45.2	-63.5	3.8	8.46e-01	0	59	104	428343296	61	30517
2026-01-13 01:49:46.96	130.36	2.14	-45.2	-63.5	3.8	8.47e-01	0	59	104	428343296	61	30475

#Closed at: 2026-01-13 01:49:49
#Recorded file [428 MB]: D:/lorett/data/31039_260113_044056.dat