passes_logs/2026/01/13/R2.0S_Moscow/R2.0S_Moscow__20260113_231304_FENGYUN_3G_rec.log

#Pass ID: 20260113_231304_FENGYUN 3G
#Satellite: FENGYUN 3G
#Configuration: FENGYUN 3G
#almurnet v.1.7.20251203
#Start time: 2026-01-13 23:13:04

#Version: 2.2.20231116
#Station: R2.0S_Moscow
#Location: 37.707566 lon 55.798166 lat
#TLE: 1 56232U 23055A   26013.24803668  .00022566  00000+0  35531-3 0  9992
#TLE: 2 56232  49.9941  64.9712 0004217  19.4523 340.6605 15.53433909155921

#Time	Az	El	Level	Level2	SNR	BER	BlckErr	Temp	State	Recorded	gain1	gain2
2026-01-13 23:13:04.56	241.59	2.01	-44.3	-62.3	3.8	8.46e-01	0	51	0	0	60	28225
2026-01-13 23:13:07.59	241.39	2.21	-44.3	-62.4	3.8	8.45e-01	0	51	104	0	60	28577
2026-01-13 23:13:10.62	241.18	2.41	-44.3	-62.4	3.8	8.45e-01	0	51	104	0	60	28643
2026-01-13 23:13:13.66	240.98	2.61	-44.3	-62.5	3.8	8.46e-01	0	51	104	0	60	28696
2026-01-13 23:13:16.69	240.76	2.81	-44.3	-62.5	3.8	8.46e-01	0	52	104	0	60	28830
2026-01-13 23:13:19.72	240.55	3.02	-44.3	-62.4	3.8	8.46e-01	0	52	104	0	60	28507
2026-01-13 23:13:22.76	240.32	3.23	-44.3	-62.4	3.8	8.46e-01	0	52	104	0	60	28385
2026-01-13 23:13:25.79	240.10	3.43	-44.3	-62.2	3.8	8.46e-01	0	52	104	0	60	27814
2026-01-13 23:13:28.82	239.87	3.65	-44.3	-62.4	3.8	8.47e-01	0	53	104	0	60	28359
2026-01-13 23:13:31.85	239.63	3.86	-44.3	-62.4	3.8	8.47e-01	0	53	104	0	60	28487
2026-01-13 23:13:34.89	239.39	4.08	-44.3	-62.3	3.8	8.46e-01	0	53	104	0	60	28220
2026-01-13 23:13:37.92	239.14	4.30	-44.3	-61.9	3.8	8.45e-01	0	53	104	0	60	27016
2026-01-13 23:13:40.95	238.89	4.52	-44.3	-61.6	3.8	8.45e-01	0	53	104	0	60	25944
2026-01-13 23:13:43.99	238.63	4.74	-44.3	-61.9	3.8	8.44e-01	0	53	104	0	60	26945
2026-01-13 23:13:47.02	238.37	4.97	-44.3	-62.0	3.8	8.46e-01	0	54	104	0	60	27183
2026-01-13 23:13:50.05	238.10	5.19	-44.2	-61.5	3.8	8.46e-01	0	54	104	0	60	25649
2026-01-13 23:13:53.08	237.82	5.42	-44.2	-60.2	3.9	8.46e-01	0	54	104	0	60	22017
2026-01-13 23:13:56.12	237.54	5.66	-44.2	-58.9	4.2	8.41e-01	0	54	0	0	60	19021
2026-01-13 23:13:59.15	237.25	5.89	-44.2	-58.7	4.3	8.33e-01	0	54	0	0	60	18587
2026-01-13 23:14:02.17	236.95	6.13	-44.1	-57.8	4.6	8.31e-01	0	54	0	0	60	16776
2026-01-13 23:14:05.20	236.65	6.37	-44.0	-54.8	6.4	6.17e-01	0	54	0	1572864	59	12651
2026-01-13 23:14:08.23	236.34	6.62	-43.6	-52.0	9.1	1.12e-01	0	55	0	4718592	59	9156
2026-01-13 23:14:11.25	236.02	6.86	-43.5	-51.4	9.8	1.15e-02	0	55	0	7864320	58	9059
2026-01-13 23:14:14.28	235.70	7.11	-43.9	-54.1	7.2	2.34e-02	0	55	0	11534336	58	12295
2026-01-13 23:14:17.31	235.37	7.37	-44.2	-58.3	4.3	6.46e-01	0	55	0	12582912	59	18829
2026-01-13 23:14:20.34	235.02	7.62	-43.0	-49.5	11.7	4.16e-01	0	55	0	15204352	58	7264
2026-01-13 23:14:23.37	234.67	7.88	-42.0	-46.7	14.7	0.00e+00	0	55	0	18350080	56	5887
2026-01-13 23:14:26.40	234.32	8.15	-41.6	-46.0	15.5	0.00e+00	0	55	0	22020096	54	6077
2026-01-13 23:14:29.43	233.95	8.41	-40.7	-44.2	17.4	1.62e-01	0	55	0	25165824	53	5219
2026-01-13 23:14:32.46	233.57	8.68	-40.4	-43.7	17.7	2.74e-05	0	55	0	28311552	52	5277
2026-01-13 23:14:35.48	233.18	8.95	-40.3	-43.5	17.9	0.00e+00	0	56	0	31981568	52	5108
2026-01-13 23:14:38.51	232.79	9.23	-40.4	-43.6	17.8	0.00e+00	0	56	0	35127296	52	5210
2026-01-13 23:14:41.54	232.38	9.51	-40.4	-43.6	17.9	0.00e+00	0	56	0	38797312	52	5177
2026-01-13 23:14:44.57	231.96	9.79	-40.4	-43.6	17.9	0.00e+00	0	56	0	41943040	52	5163
2026-01-13 23:14:47.60	231.53	10.08	-40.2	-43.2	18.3	0.00e+00	0	56	0	45613056	52	4978
2026-01-13 23:14:50.63	231.09	10.37	-40.1	-43.1	18.4	0.00e+00	0	56	0	48758784	52	4882
2026-01-13 23:14:53.65	230.63	10.67	-40.1	-43.1	18.4	0.00e+00	0	56	0	52428800	52	4923
2026-01-13 23:14:56.68	230.17	10.97	-40.1	-43.1	18.6	0.00e+00	0	56	0	55574528	51	5173
2026-01-13 23:14:59.71	229.69	11.27	-40.1	-43.0	18.7	0.00e+00	0	56	0	59244544	51	5104
2026-01-13 23:15:02.74	229.19	11.58	-39.8	-42.6	19.1	0.00e+00	0	57	0	62390272	51	4899
2026-01-13 23:15:05.77	228.68	11.89	-39.9	-42.7	19.0	0.00e+00	0	57	0	66060288	51	4946
2026-01-13 23:15:08.80	228.16	12.21	-39.9	-42.7	19.0	0.00e+00	0	57	0	69206016	51	4963
2026-01-13 23:15:11.82	227.63	12.53	-40.0	-42.9	18.9	0.00e+00	0	57	0	72876032	51	5051
2026-01-13 23:15:14.85	227.07	12.85	-39.6	-42.3	19.4	0.00e+00	0	57	0	76021760	51	4725
2026-01-13 23:15:17.88	226.50	13.18	-39.4	-41.9	19.9	0.00e+00	0	57	0	79691776	50	4771
2026-01-13 23:15:20.91	225.92	13.51	-39.2	-41.6	20.1	0.00e+00	0	57	0	82837504	50	4646
2026-01-13 23:15:23.94	225.31	13.85	-39.4	-41.9	20.0	0.00e+00	0	57	0	86507520	50	4760
2026-01-13 23:15:26.97	224.69	14.19	-39.2	-41.7	20.1	0.00e+00	0	57	0	89653248	50	4677
2026-01-13 23:15:30.00	224.05	14.54	-39.0	-41.4	20.4	0.00e+00	0	57	0	93323264	50	4515
2026-01-13 23:15:33.03	223.39	14.89	-38.9	-41.3	20.6	0.00e+00	0	57	0	96468992	49	4712
2026-01-13 23:15:36.05	222.71	15.24	-39.1	-41.5	20.4	0.00e+00	0	57	0	100139008	49	4829
2026-01-13 23:15:39.08	222.01	15.60	-38.8	-41.0	20.9	0.00e+00	0	57	0	103284736	49	4593
2026-01-13 23:15:42.11	221.28	15.96	-38.6	-40.8	21.1	0.00e+00	0	57	0	106954752	49	4484
2026-01-13 23:15:45.14	220.54	16.32	-38.6	-40.9	21.1	0.00e+00	0	57	0	110100480	49	4502
2026-01-13 23:15:48.17	219.77	16.69	-38.5	-40.7	21.3	0.00e+00	0	57	0	113770496	49	4402
2026-01-13 23:15:51.20	218.97	17.07	-38.1	-40.2	21.7	0.00e+00	0	57	0	116916224	48	4395
2026-01-13 23:15:54.23	218.15	17.44	-38.3	-40.4	21.6	0.00e+00	0	57	0	120586240	48	4507
2026-01-13 23:15:57.26	217.31	17.82	-38.1	-40.2	21.8	0.00e+00	0	57	0	123731968	47	4668
2026-01-13 23:16:00.28	216.44	18.20	-38.4	-40.6	21.3	0.00e+00	0	57	0	127401984	47	4884
2026-01-13 23:16:03.31	215.54	18.59	-38.4	-40.6	21.4	0.00e+00	0	58	0	130547712	47	4892
2026-01-13 23:16:06.34	214.61	18.97	-38.0	-40.0	21.9	0.00e+00	0	58	0	134217728	47	4595
2026-01-13 23:16:09.37	213.65	19.36	-37.8	-39.8	22.2	0.00e+00	0	58	0	137363456	47	4451
2026-01-13 23:16:12.40	212.67	19.75	-38.1	-40.2	21.7	0.00e+00	0	58	0	141033472	47	4685
2026-01-13 23:16:15.43	211.65	20.14	-37.9	-39.9	22.0	0.00e+00	0	58	0	144179200	47	4543
2026-01-13 23:16:18.45	210.60	20.53	-37.6	-39.6	22.4	0.00e+00	0	58	0	147849216	47	4348
2026-01-13 23:16:21.48	209.52	20.92	-37.3	-39.2	22.8	0.00e+00	0	58	0	150994944	46	4414
2026-01-13 23:16:24.52	208.40	21.31	-37.8	-39.9	22.1	0.00e+00	0	58	0	154664960	46	4760
2026-01-13 23:16:27.54	207.26	21.70	-37.7	-39.6	22.4	0.00e+00	0	58	0	157810688	46	4651
2026-01-13 23:16:30.57	206.07	22.08	-37.0	-38.8	23.2	0.00e+00	0	58	0	161480704	46	4232
2026-01-13 23:16:33.60	204.85	22.46	-37.2	-39.1	22.9	0.00e+00	0	58	0	164626432	45	4606
2026-01-13 23:16:36.63	203.60	22.83	-37.3	-39.2	22.8	0.00e+00	0	58	0	168296448	45	4671
2026-01-13 23:16:39.66	202.31	23.20	-37.6	-39.6	22.5	0.00e+00	0	58	0	171442176	45	4873
2026-01-13 23:16:42.69	200.98	23.56	-37.0	-38.9	23.1	0.00e+00	0	58	0	175112192	45	4496
2026-01-13 23:16:45.72	199.62	23.92	-36.9	-38.6	23.3	0.00e+00	0	58	0	178257920	45	4389
2026-01-13 23:16:48.74	198.23	24.26	-36.7	-38.4	23.5	0.00e+00	0	58	0	181927936	45	4266
2026-01-13 23:16:51.77	196.80	24.59	-36.7	-38.4	23.5	0.00e+00	0	58	0	185073664	45	4289
2026-01-13 23:16:54.80	195.33	24.91	-36.9	-38.6	23.4	0.00e+00	0	58	0	188743680	45	4387
2026-01-13 23:16:57.83	193.83	25.22	-36.7	-38.5	23.5	0.00e+00	0	58	0	191889408	45	4306
2026-01-13 23:17:00.85	192.30	25.51	-37.0	-38.8	23.2	0.00e+00	0	58	0	195559424	45	4459
2026-01-13 23:17:03.88	190.73	25.79	-36.9	-38.7	23.3	0.00e+00	0	58	0	198705152	45	4395
2026-01-13 23:17:06.91	189.13	26.05	-36.6	-38.4	23.5	0.00e+00	0	59	0	202375168	45	4244
2026-01-13 23:17:09.94	187.50	26.29	-36.6	-38.4	23.5	0.00e+00	0	58	0	205520896	45	4250
2026-01-13 23:17:12.97	185.85	26.51	-36.6	-38.3	23.5	0.00e+00	0	58	0	209190912	44	4482
2026-01-13 23:17:16.00	184.17	26.70	-36.5	-38.2	23.7	0.00e+00	0	58	0	212336640	44	4411
2026-01-13 23:17:19.02	182.48	26.88	-36.3	-38.0	23.8	0.00e+00	0	59	0	216006656	44	4325
2026-01-13 23:17:22.05	180.75	27.03	-36.3	-38.0	23.9	0.00e+00	0	59	0	219152384	44	4319
2026-01-13 23:17:25.08	179.02	27.16	-36.2	-37.8	24.1	0.00e+00	0	59	0	222822400	44	4231
2026-01-13 23:17:28.10	177.27	27.26	-36.4	-38.1	23.8	0.00e+00	0	59	0	225968128	44	4360
2026-01-13 23:17:31.13	175.50	27.33	-36.4	-38.1	24.0	0.00e+00	0	59	0	229638144	44	4382
2026-01-13 23:17:34.16	173.73	27.38	-36.4	-38.1	23.9	0.00e+00	0	59	0	232783872	44	4371
2026-01-13 23:17:37.19	171.96	27.40	-36.6	-38.3	23.7	0.00e+00	0	59	0	236453888	44	4475
2026-01-13 23:17:40.22	170.18	27.40	-36.6	-38.3	23.7	0.00e+00	0	59	0	239599616	44	4458
2026-01-13 23:17:43.25	168.41	27.37	-36.4	-38.1	23.9	0.00e+00	0	59	0	243269632	44	4390
2026-01-13 23:17:46.27	166.64	27.31	-36.2	-37.9	24.2	0.00e+00	0	59	0	246415360	44	4252
2026-01-13 23:17:49.30	164.89	27.22	-36.2	-37.9	24.0	0.00e+00	0	59	0	250085376	43	4524
2026-01-13 23:17:52.33	163.14	27.11	-36.4	-38.1	23.7	0.00e+00	0	59	0	253231104	43	4646
2026-01-13 23:17:55.36	161.41	26.97	-35.7	-37.3	24.6	0.00e+00	0	59	0	256901120	42	4468
2026-01-13 23:17:58.39	159.70	26.81	-36.3	-38.1	23.9	0.00e+00	0	59	0	260046848	43	4599
2026-01-13 23:18:01.41	158.01	26.63	-35.7	-37.3	24.6	0.00e+00	0	59	0	263716864	43	4215
2026-01-13 23:18:04.44	156.34	26.42	-36.1	-37.8	24.1	0.00e+00	0	59	0	266862592	43	4447
2026-01-13 23:18:07.47	154.70	26.20	-36.4	-38.1	23.8	0.00e+00	0	59	0	270532608	43	4634
2026-01-13 23:18:10.50	153.09	25.95	-37.0	-38.9	23.3	0.00e+00	0	59	0	273678336	44	4767
2026-01-13 23:18:13.53	151.50	25.68	-36.8	-38.5	23.6	0.00e+00	0	59	0	277348352	44	4583
2026-01-13 23:18:16.56	149.95	25.40	-36.4	-38.1	24.0	0.00e+00	0	59	0	280494080	44	4384
2026-01-13 23:18:19.59	148.43	25.10	-37.1	-39.0	23.2	0.00e+00	0	59	0	284164096	44	4825
2026-01-13 23:18:22.62	146.94	24.79	-37.0	-38.9	23.3	0.00e+00	0	59	0	287309824	45	4500
2026-01-13 23:18:25.65	145.49	24.47	-37.3	-39.2	22.9	0.00e+00	0	59	0	290979840	45	4686
2026-01-13 23:18:28.68	144.08	24.13	-37.0	-38.8	23.2	0.00e+00	0	59	0	294125568	45	4476
2026-01-13 23:18:31.71	142.70	23.78	-36.5	-38.3	23.8	0.00e+00	0	59	0	297795584	45	4209
2026-01-13 23:18:34.74	141.35	23.43	-37.1	-38.9	23.1	0.00e+00	0	59	0	300941312	45	4521
2026-01-13 23:18:37.76	140.05	23.06	-37.0	-38.8	23.2	0.00e+00	0	59	0	304611328	45	4477
2026-01-13 23:18:40.79	138.77	22.69	-36.8	-38.7	23.3	0.00e+00	0	59	0	307757056	45	4393
2026-01-13 23:18:43.82	137.54	22.32	-36.8	-38.6	23.3	0.00e+00	0	59	0	311427072	45	4360
2026-01-13 23:18:46.85	136.33	21.94	-37.3	-39.2	22.7	0.00e+00	0	59	0	314572800	45	4699
2026-01-13 23:18:49.88	135.17	21.55	-37.1	-38.9	22.9	0.00e+00	0	59	0	318242816	45	4536
2026-01-13 23:18:52.91	134.03	21.17	-37.4	-39.4	22.4	0.00e+00	0	59	0	321388544	45	4771
2026-01-13 23:18:55.94	132.93	20.78	-37.4	-39.3	22.6	0.00e+00	0	59	0	325058560	45	4736
2026-01-13 23:18:58.97	131.87	20.39	-37.8	-39.8	22.1	0.00e+00	0	59	0	328204288	46	4720
2026-01-13 23:19:02.00	130.83	20.00	-37.6	-39.5	22.3	0.00e+00	0	59	0	331874304	46	4594
2026-01-13 23:19:05.02	129.83	19.62	-37.7	-39.9	22.0	0.00e+00	0	59	0	335020032	46	4783
2026-01-13 23:19:08.05	128.86	19.23	-37.0	-39.8	21.8	0.00e+00	0	59	0	338690048	45	5018
2026-01-13 23:19:11.08	127.92	18.84	-37.8	-39.8	21.9	0.00e+00	0	59	0	341835776	46	4749
2026-01-13 23:19:14.11	127.00	18.46	-37.8	-39.8	21.9	0.00e+00	0	59	0	345505792	46	4752
2026-01-13 23:19:17.13	126.12	18.07	-37.5	-39.9	21.8	0.00e+00	0	59	0	348651520	46	4789
2026-01-13 23:19:20.16	125.26	17.69	-33.1	-40.3	20.2	0.00e+00	0	59	0	352321536	37	8396
2026-01-13 23:19:23.19	124.43	17.32	-38.0	-40.1	21.5	0.00e+00	0	59	0	355467264	46	4906
2026-01-13 23:19:26.22	123.62	16.94	-38.2	-40.4	21.2	0.00e+00	0	60	0	359137280	46	5081
2026-01-13 23:19:29.25	122.84	16.57	-38.5	-40.8	20.8	5.70e-06	0	59	0	362283008	47	5021
2026-01-13 23:19:32.28	122.08	16.21	-31.8	-40.7	18.6	1.37e-05	0	59	0	365953024	35	9902
2026-01-13 23:19:35.31	121.34	15.84	-35.3	-40.8	18.9	4.34e-05	0	60	0	369098752	37	8900
2026-01-13 23:19:38.33	120.63	15.48	-38.4	-40.8	20.6	0.00e+00	0	59	0	372768768	47	5032
2026-01-13 23:19:41.36	119.94	15.13	-39.0	-41.5	19.9	1.10e-06	0	59	0	375914496	48	5109
2026-01-13 23:19:44.39	119.27	14.78	-38.9	-41.4	20.0	1.43e-04	0	59	0	379584512	48	5083
2026-01-13 23:19:47.42	118.62	14.43	-38.8	-41.5	19.9	0.00e+00	0	59	0	382730240	48	5137
2026-01-13 23:19:50.45	117.98	14.09	-39.0	-41.9	19.5	8.58e-05	0	59	0	386400256	49	5046
2026-01-13 23:19:53.48	117.37	13.75	-39.4	-42.2	19.2	0.00e+00	0	59	0	389545984	49	5224
2026-01-13 23:19:56.51	116.77	13.41	-39.1	-41.8	19.6	2.20e-06	0	59	0	393216000	49	5029
2026-01-13 23:19:59.53	116.20	13.09	-39.2	-42.0	19.4	0.00e+00	0	59	0	396361728	49	5103
2026-01-13 23:20:02.56	115.64	12.76	-39.5	-42.3	19.0	0.00e+00	0	59	0	400031744	49	5338
2026-01-13 23:20:05.59	115.09	12.44	-39.6	-42.5	18.8	0.00e+00	0	60	0	403177472	50	5128
2026-01-13 23:20:08.62	114.56	12.12	-39.3	-42.6	18.6	0.00e+00	0	59	0	406847488	49	5484
2026-01-13 23:20:11.65	114.04	11.81	-39.3	-43.1	18.0	1.10e-06	0	59	0	409993216	50	5504
2026-01-13 23:20:14.68	113.54	11.50	-39.3	-43.1	17.8	3.40e-06	0	59	0	413663232	50	5515
2026-01-13 23:20:17.71	113.06	11.19	-39.5	-43.1	17.8	2.05e-05	0	60	0	416808960	50	5507
2026-01-13 23:20:20.73	112.58	10.89	-38.8	-43.2	17.2	1.62e-04	0	60	0	420478976	49	5887
2026-01-13 23:20:23.76	112.12	10.60	-39.4	-43.3	16.9	8.23e-05	0	59	0	423624704	49	5941
2026-01-13 23:20:26.79	111.67	10.30	-39.5	-43.4	16.6	7.43e-05	0	60	0	427294720	49	6045
2026-01-13 23:20:29.82	111.24	10.01	-39.3	-43.9	16.5	3.77e-05	0	60	0	430440448	50	6017
2026-01-13 23:20:32.85	110.81	9.73	-40.4	-44.4	16.2	2.63e-05	0	60	0	434110464	51	6055
2026-01-13 23:20:35.88	110.40	9.45	-40.1	-43.9	16.8	1.25e-05	0	60	0	437256192	50	6029
2026-01-13 23:20:38.91	110.00	9.17	-39.5	-43.5	16.9	2.20e-06	0	60	0	440926208	50	5746
2026-01-13 23:20:41.94	109.60	8.89	-40.0	-43.8	16.7	0.00e+00	0	60	0	444071936	50	5981
2026-01-13 23:20:44.97	109.22	8.62	-40.1	-44.2	16.2	0.00e+00	0	59	0	447741952	50	6249
2026-01-13 23:20:48.00	108.85	8.35	-40.2	-44.9	15.2	1.10e-06	0	60	0	450887680	51	6408
2026-01-13 23:20:51.02	108.49	8.09	-39.7	-44.6	15.4	0.00e+00	0	60	0	454557696	51	6164
2026-01-13 23:20:54.05	108.13	7.83	-44.7	-62.6	3.8	5.32e-01	0	59	104	456130560	59	30916
2026-01-13 23:20:57.09	107.78	7.57	-45.3	-63.5	3.8	8.47e-01	0	60	104	456130560	61	30446
2026-01-13 23:21:00.12	107.45	7.32	-45.7	-63.8	3.8	8.45e-01	0	60	104	456130560	61	31628
2026-01-13 23:21:03.15	107.12	7.06	-45.7	-63.9	3.8	8.45e-01	0	60	104	456130560	62	30293
2026-01-13 23:21:06.18	106.80	6.82	-45.6	-63.8	3.8	8.46e-01	0	60	104	456130560	62	29992
2026-01-13 23:21:09.21	106.48	6.57	-45.4	-63.8	3.8	8.46e-01	0	60	104	456130560	62	29708
2026-01-13 23:21:12.25	106.18	6.33	-45.4	-63.7	3.8	8.46e-01	0	60	104	456130560	62	29606
2026-01-13 23:21:15.28	105.88	6.09	-45.4	-63.7	3.8	8.46e-01	0	60	104	456130560	62	29545
2026-01-13 23:21:18.31	105.59	5.85	-45.4	-63.7	3.8	8.45e-01	0	60	104	456130560	62	29584
2026-01-13 23:21:21.35	105.30	5.62	-45.4	-63.7	3.8	8.47e-01	0	60	104	456130560	62	29469
2026-01-13 23:21:24.38	105.02	5.38	-45.4	-63.7	3.8	8.47e-01	0	60	104	456130560	62	29433
2026-01-13 23:21:27.41	104.75	5.15	-45.4	-63.7	3.8	8.47e-01	0	60	104	456130560	62	29417
2026-01-13 23:21:30.45	104.48	4.93	-45.4	-63.7	3.8	8.46e-01	0	60	104	456130560	62	29417
2026-01-13 23:21:33.48	104.22	4.70	-45.4	-63.7	3.8	8.46e-01	0	60	104	456130560	62	29361
2026-01-13 23:21:36.51	103.97	4.48	-45.4	-63.7	3.8	8.47e-01	0	60	104	456130560	62	29449
2026-01-13 23:21:39.55	103.72	4.26	-45.4	-63.7	3.8	8.46e-01	0	60	104	456130560	62	29425
2026-01-13 23:21:42.58	103.47	4.04	-45.4	-63.7	3.8	8.47e-01	0	60	104	456130560	62	29411
2026-01-13 23:21:45.61	103.23	3.83	-45.4	-63.7	3.8	8.46e-01	0	60	104	456130560	62	29365
2026-01-13 23:21:48.65	103.00	3.62	-45.4	-63.7	3.8	8.46e-01	0	60	104	456130560	62	29372
2026-01-13 23:21:51.68	102.77	3.41	-45.4	-63.7	3.8	8.47e-01	0	60	104	456130560	62	29388
2026-01-13 23:21:54.71	102.55	3.20	-45.3	-63.7	3.8	8.46e-01	0	60	104	456130560	62	29354
2026-01-13 23:21:57.74	102.33	2.99	-45.3	-63.7	3.8	8.47e-01	0	60	104	456130560	62	29386
2026-01-13 23:22:00.77	102.11	2.79	-45.3	-63.6	3.8	8.45e-01	0	60	104	456130560	62	29262
2026-01-13 23:22:03.81	101.90	2.58	-45.3	-63.7	3.8	8.47e-01	0	60	104	456130560	62	29443
2026-01-13 23:22:06.84	101.70	2.38	-45.3	-63.6	3.8	8.46e-01	0	60	104	456130560	62	29324
2026-01-13 23:22:09.87	101.49	2.18	-45.3	-63.6	3.8	8.46e-01	0	60	104	456130560	62	29340
2026-01-13 23:22:12.91	101.30	1.99	-45.3	-63.6	3.8	8.46e-01	0	60	104	456130560	62	29308

#Closed at: 2026-01-13 23:22:15
#Recorded file [456 MB]: D:/lorett/data/31039_260114_021304.dat