passes_logs/2026/01/13/R2.0S_Moscow/R2.0S_Moscow__20260113_025146_FENGYUN_3D_rec.log

#Pass ID: 20260113_025146_FENGYUN 3D
#Satellite: FENGYUN 3D
#Configuration: FENGYUN 3D
#almurnet v.1.7.20251203
#Start time: 2026-01-13 02:56:25

#Version: 2.2.20231116
#Station: R2.0S_Moscow
#Location: 37.707566 lon 55.798166 lat
#TLE: 1 43010U 17072A   26012.32543542  .00000598  00000+0  30457-3 0  9997
#TLE: 2 43010  98.9935 344.1005 0002233 112.6136 247.5276 14.19696644422876

#Time	Az	El	Level	Level2	SNR	BER	BlckErr	Temp	State	Recorded	gain1	gain2
2026-01-13 02:56:25.10	343.95	25.47	-45.9	-64.7	3.8	7.49e-01	0	59	0	0	62	33158
2026-01-13 02:56:28.14	343.27	25.80	-45.2	-56.7	3.8	8.46e-01	0	60	104	0	62	13177
2026-01-13 02:56:31.17	342.58	26.13	-45.1	-56.6	3.8	8.46e-01	0	60	104	0	62	13038
2026-01-13 02:56:34.20	341.88	26.46	-45.0	-56.4	3.8	8.46e-01	0	60	104	0	61	13532
2026-01-13 02:56:37.23	341.16	26.78	-44.9	-56.4	3.8	8.46e-01	0	60	104	0	61	13449
2026-01-13 02:56:40.27	340.42	27.11	-44.9	-55.5	3.8	8.45e-01	0	60	104	0	61	12178
2026-01-13 02:56:43.30	339.67	27.43	-44.9	-55.8	3.8	8.46e-01	0	60	104	0	61	12594
2026-01-13 02:56:46.33	338.90	27.76	-44.9	-56.0	3.8	8.46e-01	0	60	104	0	61	12932
2026-01-13 02:56:49.37	338.12	28.08	-44.8	-55.1	3.8	8.46e-01	0	60	104	0	61	11601
2026-01-13 02:56:52.40	337.32	28.40	-44.9	-55.7	3.8	8.47e-01	0	60	104	0	61	12459
2026-01-13 02:56:55.43	336.51	28.71	-44.7	-54.9	3.8	8.45e-01	0	60	104	0	61	11301
2026-01-13 02:56:58.47	335.68	29.02	-44.4	-52.6	4.3	8.32e-01	0	60	0	0	60	9278
2026-01-13 02:57:01.50	334.83	29.33	-44.9	-55.6	3.8	8.46e-01	0	60	104	0	60	13101
2026-01-13 02:57:04.53	333.97	29.64	-43.6	-49.0	6.2	3.35e-01	0	60	0	4194304	59	6458
2026-01-13 02:57:07.57	333.09	29.94	-44.4	-52.1	4.4	7.94e-01	0	60	0	16777216	59	9269
2026-01-13 02:57:10.60	332.19	30.24	-42.9	-47.2	7.8	3.20e-01	0	60	0	19922944	57	5863
2026-01-13 02:57:13.63	331.28	30.53	-41.3	-44.3	10.6	2.41e-03	0	60	0	36700160	53	5339
2026-01-13 02:57:16.66	330.35	30.81	-40.1	-42.6	12.5	3.02e-03	0	60	0	53477376	52	4620
2026-01-13 02:57:19.69	329.40	31.09	-40.4	-42.9	12.4	0.00e+00	0	60	0	70254592	51	5082
2026-01-13 02:57:22.72	328.44	31.37	-39.6	-41.8	13.6	0.00e+00	0	60	0	88080384	49	5011
2026-01-13 02:57:25.76	327.46	31.63	-36.3	-37.8	17.4	0.00e+00	0	60	0	102760448	44	4197
2026-01-13 02:57:28.79	326.46	31.89	-36.3	-37.9	17.3	0.00e+00	0	60	0	119537664	44	4247
2026-01-13 02:57:31.82	325.45	32.15	-35.6	-37.7	17.3	0.00e+00	0	60	0	136314880	43	4398
2026-01-13 02:57:34.85	324.43	32.39	-36.0	-37.6	17.4	0.00e+00	0	60	0	153092096	43	4346
2026-01-13 02:57:37.88	323.38	32.62	-35.9	-37.4	17.6	0.00e+00	0	60	0	170917888	43	4276
2026-01-13 02:57:40.91	322.33	32.85	-36.0	-37.6	17.4	0.00e+00	0	60	0	187695104	43	4341
2026-01-13 02:57:43.95	321.25	33.07	-35.9	-37.5	17.4	0.00e+00	0	60	0	204472320	43	4339
2026-01-13 02:57:46.98	320.17	33.27	-36.2	-37.7	17.3	0.00e+00	0	60	0	222298112	43	4407
2026-01-13 02:57:50.00	319.07	33.47	-36.3	-37.8	17.2	0.00e+00	0	60	0	239075328	43	4450
2026-01-13 02:57:53.03	317.96	33.65	-36.3	-37.9	17.1	0.00e+00	0	60	0	255852544	43	4502
2026-01-13 02:57:56.06	316.83	33.83	-36.2	-37.7	17.3	0.00e+00	0	60	0	272629760	43	4396
2026-01-13 02:57:59.09	315.70	33.99	-36.1	-37.6	17.4	0.00e+00	0	60	0	290455552	43	4367
2026-01-13 02:58:02.11	314.55	34.14	-36.1	-37.6	17.4	0.00e+00	0	60	0	307232768	43	4352
2026-01-13 02:58:05.14	313.39	34.28	-36.2	-37.6	17.3	0.00e+00	0	60	0	324009984	43	4391
2026-01-13 02:58:08.18	312.22	34.40	-36.2	-37.7	17.3	0.00e+00	0	60	0	340787200	43	4407
2026-01-13 02:58:11.21	311.04	34.51	-36.4	-38.0	17.0	0.00e+00	0	60	0	358612992	43	4561
2026-01-13 02:58:14.23	309.86	34.61	-36.0	-37.5	17.5	0.00e+00	0	60	0	375390208	43	4317
2026-01-13 02:58:17.26	308.67	34.69	-35.8	-37.2	17.8	0.00e+00	0	60	0	392167424	43	4162
2026-01-13 02:58:20.29	307.48	34.76	-36.1	-37.6	17.4	0.00e+00	0	61	0	408944640	43	4355
2026-01-13 02:58:23.32	306.28	34.82	-35.9	-37.4	17.6	0.00e+00	0	60	0	426770432	43	4250
2026-01-13 02:58:26.36	305.07	34.86	-35.8	-37.3	17.7	0.00e+00	0	60	0	443547648	43	4212
2026-01-13 02:58:29.39	303.86	34.89	-35.8	-37.2	17.7	0.00e+00	0	60	0	460324864	43	4189
2026-01-13 02:58:32.42	302.65	34.90	-36.1	-37.5	17.4	0.00e+00	0	60	0	477102080	43	4329
2026-01-13 02:58:35.45	301.44	34.90	-35.9	-37.3	17.7	0.00e+00	0	60	0	494927872	43	4217
2026-01-13 02:58:38.47	300.23	34.88	-36.2	-37.7	17.3	0.00e+00	0	60	0	511705088	43	4407
2026-01-13 02:58:41.51	299.02	34.85	-35.8	-37.3	17.7	0.00e+00	0	60	0	528482304	43	4201
2026-01-13 02:58:44.53	297.82	34.81	-36.1	-37.5	17.4	0.00e+00	0	60	0	545259520	43	4333
2026-01-13 02:58:47.57	296.62	34.75	-36.0	-37.5	17.5	0.00e+00	0	60	0	563085312	43	4300
2026-01-13 02:58:50.60	295.42	34.67	-36.0	-37.4	17.5	0.00e+00	0	60	0	579862528	43	4289
2026-01-13 02:58:53.62	294.23	34.58	-36.1	-37.5	17.4	0.00e+00	0	60	0	596639744	43	4338
2026-01-13 02:58:56.65	293.05	34.48	-36.1	-37.6	17.4	0.00e+00	0	60	0	613416960	43	4346
2026-01-13 02:58:59.68	291.88	34.37	-36.1	-37.6	17.3	0.00e+00	0	60	0	631242752	43	4367
2026-01-13 02:59:02.71	290.71	34.24	-35.9	-37.4	17.5	0.00e+00	0	61	0	648019968	43	4261
2026-01-13 02:59:05.74	289.55	34.10	-36.3	-37.8	17.2	0.00e+00	0	60	0	664797184	43	4448
2026-01-13 02:59:08.77	288.40	33.95	-36.2	-37.6	17.3	0.00e+00	0	60	0	681574400	43	4378
2026-01-13 02:59:11.80	287.27	33.78	-35.9	-37.4	17.6	0.00e+00	0	60	0	698351616	43	4258
2026-01-13 02:59:14.83	286.14	33.60	-36.1	-37.6	17.4	0.00e+00	0	60	0	716177408	43	4359
2026-01-13 02:59:17.86	285.03	33.42	-36.1	-37.5	17.4	0.00e+00	0	60	0	732954624	43	4334
2026-01-13 02:59:20.89	283.93	33.22	-35.9	-37.4	17.5	0.00e+00	0	60	0	749731840	43	4265
2026-01-13 02:59:23.93	282.85	33.01	-36.0	-37.5	17.4	0.00e+00	0	61	0	767557632	43	4305
2026-01-13 02:59:26.96	281.78	32.79	-36.5	-38.0	16.9	0.00e+00	0	61	0	784334848	43	4574
2026-01-13 02:59:29.99	280.72	32.56	-36.3	-37.8	17.1	0.00e+00	0	60	0	801112064	43	4463
2026-01-13 02:59:33.01	279.68	32.32	-36.1	-37.5	17.4	0.00e+00	0	60	0	817889280	43	4330
2026-01-13 02:59:36.04	278.66	32.08	-35.9	-37.3	17.6	0.00e+00	0	60	0	835715072	43	4238
2026-01-13 02:59:39.07	277.65	31.82	-36.0	-37.5	17.4	0.00e+00	0	60	0	852492288	43	4313
2026-01-13 02:59:42.10	276.65	31.56	-36.0	-37.5	17.4	0.00e+00	0	60	0	869269504	43	4304
2026-01-13 02:59:45.13	275.68	31.29	-36.4	-38.0	16.9	0.00e+00	0	60	0	886046720	43	4550
2026-01-13 02:59:48.15	274.72	31.01	-36.2	-37.6	17.2	0.00e+00	0	60	0	903872512	43	4385
2026-01-13 02:59:51.18	273.77	30.73	-36.1	-37.6	17.3	0.00e+00	0	60	0	920649728	43	4351
2026-01-13 02:59:54.21	272.85	30.44	-36.1	-37.6	17.3	0.00e+00	0	61	0	937426944	43	4350
2026-01-13 02:59:57.24	271.93	30.15	-36.2	-37.7	17.2	0.00e+00	0	61	0	954204160	43	4409
2026-01-13 03:00:00.26	271.04	29.85	-36.2	-37.7	17.2	0.00e+00	0	60	0	972029952	43	4393
2026-01-13 03:00:03.29	270.16	29.55	-36.2	-37.7	17.2	0.00e+00	0	60	0	988807168	43	4414
2026-01-13 03:00:06.32	269.30	29.24	-36.1	-37.5	17.3	0.00e+00	0	60	0	1005584384	43	4332
2026-01-13 03:00:09.36	268.45	28.93	-36.1	-37.6	17.2	0.00e+00	0	60	0	1022361600	43	4368
2026-01-13 03:00:12.39	267.63	28.61	-36.1	-37.6	17.3	0.00e+00	0	60	0	1040187392	43	4348
2026-01-13 03:00:15.41	266.82	28.30	-36.2	-37.7	17.2	0.00e+00	0	60	0	1056964608	43	4392
2026-01-13 03:00:18.44	266.02	27.98	-36.4	-38.0	16.8	0.00e+00	0	60	0	1073741824	43	4559
2026-01-13 03:00:21.47	265.24	27.66	-36.4	-38.0	16.8	0.00e+00	0	60	0	1090519040	43	4558
2026-01-13 03:00:24.50	264.47	27.33	-36.4	-37.8	17.0	0.00e+00	0	60	0	1107296256	43	4492
2026-01-13 03:00:27.53	263.72	27.01	-36.5	-38.0	16.8	0.00e+00	0	60	0	1125122048	43	4579
2026-01-13 03:00:30.56	262.99	26.68	-36.4	-37.9	16.9	0.00e+00	0	60	0	1141899264	43	4542
2026-01-13 03:00:33.59	262.27	26.35	-36.9	-38.5	16.4	0.00e+00	0	60	0	1158676480	44	4594
2026-01-13 03:00:36.62	261.57	26.02	-37.0	-38.6	16.4	0.00e+00	0	60	0	1176502272	44	4627
2026-01-13 03:00:39.65	260.88	25.69	-36.9	-38.5	16.4	0.00e+00	0	60	0	1193279488	44	4587
2026-01-13 03:00:42.68	260.20	25.36	-36.9	-38.4	16.5	0.00e+00	0	60	0	1210056704	44	4545
2026-01-13 03:00:45.71	259.54	25.03	-37.2	-38.8	16.1	0.00e+00	0	61	0	1226833920	44	4751
2026-01-13 03:00:48.74	258.89	24.70	-37.0	-38.7	16.2	0.00e+00	0	60	0	1244659712	44	4666
2026-01-13 03:00:51.77	258.26	24.37	-37.1	-38.7	16.3	0.00e+00	0	60	0	1261436928	44	4658
2026-01-13 03:00:54.80	257.64	24.04	-37.0	-38.6	16.4	0.00e+00	0	60	0	1278214144	44	4612
2026-01-13 03:00:57.83	257.03	23.71	-37.2	-38.9	16.0	0.00e+00	0	60	0	1294991360	45	4527
2026-01-13 03:01:00.86	256.43	23.38	-37.2	-38.9	16.0	0.00e+00	0	60	0	1312817152	45	4511
2026-01-13 03:01:03.89	255.85	23.05	-37.2	-38.9	16.0	0.00e+00	0	60	0	1329594368	45	4496
2026-01-13 03:01:06.92	255.28	22.73	-37.3	-39.0	15.9	0.00e+00	0	61	0	1346371584	45	4577
2026-01-13 03:01:09.95	254.72	22.40	-37.3	-38.9	15.9	0.00e+00	0	60	0	1363148800	45	4531
2026-01-13 03:01:12.98	254.18	22.08	-37.2	-38.9	16.0	0.00e+00	0	60	0	1380974592	45	4518
2026-01-13 03:01:16.01	253.64	21.75	-37.3	-38.9	15.9	0.00e+00	0	60	0	1397751808	45	4530
2026-01-13 03:01:19.04	253.12	21.43	-37.1	-38.8	16.1	0.00e+00	0	60	0	1414529024	45	4471
2026-01-13 03:01:22.07	252.60	21.11	-37.1	-38.8	16.0	0.00e+00	0	60	0	1431306240	45	4465
2026-01-13 03:01:25.10	252.10	20.80	-37.2	-38.9	16.0	0.00e+00	0	60	0	1449132032	45	4501
2026-01-13 03:01:28.13	251.61	20.48	-37.3	-39.0	15.8	0.00e+00	0	61	0	1465909248	45	4557
2026-01-13 03:01:31.16	251.13	20.16	-37.4	-39.1	15.7	0.00e+00	0	60	0	1482686464	45	4650
2026-01-13 03:01:34.19	250.65	19.85	-37.5	-39.2	15.5	0.00e+00	0	61	0	1499463680	45	4704
2026-01-13 03:01:37.22	250.19	19.54	-37.6	-39.3	15.4	0.00e+00	0	60	0	1517289472	45	4757
2026-01-13 03:01:40.25	249.74	19.23	-37.6	-39.3	15.4	0.00e+00	0	61	0	1534066688	45	4758
2026-01-13 03:01:43.28	249.29	18.92	-37.7	-39.5	15.3	0.00e+00	0	60	0	1550843904	45	4820
2026-01-13 03:01:46.31	248.86	18.62	-37.7	-39.5	15.3	0.00e+00	0	60	0	1568669696	45	4850
2026-01-13 03:01:49.34	248.43	18.32	-38.0	-39.9	14.9	0.00e+00	0	60	0	1585446912	46	4800
2026-01-13 03:01:52.37	248.01	18.02	-37.9	-39.8	15.0	0.00e+00	0	61	0	1602224128	46	4721
2026-01-13 03:01:55.40	247.60	17.72	-38.0	-39.9	14.9	0.00e+00	0	61	0	1619001344	46	4776
2026-01-13 03:01:58.43	247.20	17.42	-38.1	-40.0	14.7	0.00e+00	0	60	0	1635778560	46	4869
2026-01-13 03:02:01.46	246.81	17.13	-38.2	-40.1	14.6	1.10e-06	0	60	0	1653604352	47	4650
2026-01-13 03:02:04.49	246.42	16.83	-38.1	-40.0	14.7	0.00e+00	0	61	0	1670381568	47	4562
2026-01-13 03:02:07.53	246.04	16.54	-38.1	-39.9	14.7	1.10e-06	0	60	0	1687158784	47	4541
2026-01-13 03:02:10.55	245.67	16.26	-38.3	-40.2	14.4	1.10e-06	0	60	0	1704984576	47	4699
2026-01-13 03:02:13.58	245.31	15.97	-38.6	-40.6	14.1	4.50e-06	0	60	0	1721761792	47	4900
2026-01-13 03:02:16.61	244.95	15.69	-38.5	-40.5	14.2	2.20e-06	0	61	0	1738539008	47	4857
2026-01-13 03:02:19.64	244.60	15.40	-38.6	-40.7	13.9	2.20e-06	0	60	0	1755316224	47	4960
2026-01-13 03:02:22.66	244.26	15.13	-38.9	-41.0	13.7	8.00e-06	0	60	0	1773142016	48	4870
2026-01-13 03:02:25.70	243.92	14.85	-39.0	-41.1	13.6	6.80e-06	0	60	0	1789919232	48	4901
2026-01-13 03:02:28.72	243.59	14.57	-38.8	-40.9	13.8	5.70e-06	0	61	0	1806696448	48	4803
2026-01-13 03:02:31.76	243.26	14.30	-38.9	-41.0	13.7	3.40e-06	0	61	0	1823473664	48	4844
2026-01-13 03:02:34.78	242.95	14.03	-39.0	-41.2	13.5	8.00e-06	0	60	0	1840250880	48	4957
2026-01-13 03:02:37.82	242.63	13.76	-39.0	-41.2	13.5	1.83e-05	0	60	0	1858076672	48	4949
2026-01-13 03:02:40.84	242.33	13.49	-39.0	-41.2	13.5	1.94e-05	0	61	0	1874853888	48	4959
2026-01-13 03:02:43.87	242.03	13.23	-39.1	-41.2	13.4	2.40e-05	0	60	0	1891631104	48	4978
2026-01-13 03:02:46.90	241.73	12.97	-39.1	-41.3	13.3	1.94e-05	0	60	0	1908408320	48	5024
2026-01-13 03:02:49.93	241.44	12.71	-39.0	-41.2	13.4	2.05e-05	0	61	0	1926234112	49	4692
2026-01-13 03:02:52.96	241.15	12.45	-39.1	-41.4	13.2	2.40e-05	0	60	0	1943011328	49	4768
2026-01-13 03:02:55.99	240.87	12.19	-39.3	-41.6	13.0	6.86e-05	0	60	0	1959788544	49	4875
2026-01-13 03:02:59.02	240.60	11.94	-39.3	-41.6	13.0	4.80e-05	0	61	0	1977614336	49	4873
2026-01-13 03:03:02.04	240.33	11.69	-39.4	-41.8	12.7	1.22e-04	0	60	0	1994391552	49	5010
2026-01-13 03:03:05.07	240.06	11.44	-39.7	-42.2	12.3	2.56e-04	0	60	0	2011168768	49	5240
2026-01-13 03:03:08.10	239.80	11.19	-39.8	-42.3	12.2	2.21e-04	0	60	0	2027945984	50	4994
2026-01-13 03:03:11.14	239.54	10.94	-39.9	-42.5	12.0	4.55e-04	0	60	0	2044723200	50	5115
2026-01-13 03:03:14.17	239.29	10.70	-39.7	-42.2	12.2	3.27e-04	0	60	0	2062548992	50	4958
2026-01-13 03:03:17.20	239.04	10.45	-39.6	-42.0	12.4	2.61e-04	0	60	0	2079326208	50	4863
2026-01-13 03:03:20.23	238.80	10.21	-39.8	-42.3	12.1	3.89e-04	0	60	0	2096103424	50	5026
2026-01-13 03:03:23.27	238.56	9.97	-39.8	-42.4	11.9	4.99e-04	0	60	0	2113929216	50	5086
2026-01-13 03:03:26.30	238.32	9.74	-39.8	-42.4	12.0	4.26e-04	0	60	0	2130706432	50	5046
2026-01-13 03:03:29.33	238.09	9.50	-39.8	-42.4	11.9	6.40e-04	0	61	0	2147483648	50	5066
2026-01-13 03:03:32.36	237.86	9.27	-39.9	-42.6	11.7	6.48e-04	0	61	0	2164260864	50	5173
2026-01-13 03:03:35.39	237.64	9.03	-39.9	-42.6	11.6	1.01e-03	0	60	0	2182086656	50	5192
2026-01-13 03:03:38.42	237.41	8.80	-39.9	-42.6	11.7	8.46e-04	0	60	0	2198863872	50	5181
2026-01-13 03:03:41.45	237.20	8.58	-40.0	-42.7	11.5	1.15e-03	0	60	0	2215641088	50	5278
2026-01-13 03:03:44.48	236.98	8.35	-40.0	-42.7	11.5	1.20e-03	0	61	0	2232418304	50	5277
2026-01-13 03:03:47.51	236.77	8.12	-39.9	-42.7	11.5	1.33e-03	0	61	0	2250244096	50	5253
2026-01-13 03:03:50.54	236.57	7.90	-44.5	-55.7	3.8	8.46e-01	0	60	104	2261778432	59	13923
2026-01-13 03:03:53.58	236.36	7.68	-45.0	-56.5	3.8	8.45e-01	0	60	104	2261778432	60	14473
2026-01-13 03:03:56.61	236.16	7.46	-45.2	-56.7	3.8	8.47e-01	0	60	104	2261778432	60	14827
2026-01-13 03:03:59.64	235.96	7.24	-45.2	-56.7	3.8	8.46e-01	0	60	104	2261778432	60	14762
2026-01-13 03:04:02.67	235.77	7.02	-45.1	-56.6	3.8	8.46e-01	0	61	104	2261778432	60	14680
2026-01-13 03:04:05.70	235.58	6.81	-45.1	-56.6	3.8	8.46e-01	0	61	104	2261778432	60	14693
2026-01-13 03:04:08.73	235.39	6.59	-45.1	-56.6	3.8	8.46e-01	0	60	104	2261778432	60	14654
2026-01-13 03:04:11.76	235.20	6.38	-45.1	-56.6	3.8	8.45e-01	0	60	104	2261778432	60	14587
2026-01-13 03:04:14.78	235.02	6.17	-45.1	-56.6	3.8	8.45e-01	0	61	104	2261778432	60	14567
2026-01-13 03:04:17.81	234.84	5.96	-45.1	-56.6	3.8	8.47e-01	0	61	104	2261778432	60	14567
2026-01-13 03:04:20.84	234.66	5.75	-45.1	-56.6	3.8	8.47e-01	0	60	104	2261778432	60	14561
2026-01-13 03:04:23.87	234.49	5.54	-45.1	-56.6	3.8	8.45e-01	0	60	104	2261778432	60	14601
2026-01-13 03:04:26.90	234.31	5.34	-45.1	-56.6	3.8	8.46e-01	0	61	104	2261778432	60	14611
2026-01-13 03:04:29.93	234.14	5.13	-45.1	-56.5	3.8	8.46e-01	0	60	104	2261778432	60	14516
2026-01-13 03:04:32.96	233.98	4.93	-45.1	-56.6	3.8	8.46e-01	0	60	104	2261778432	60	14638
2026-01-13 03:04:35.99	233.81	4.73	-45.0	-56.6	3.8	8.47e-01	0	61	104	2261778432	60	14542
2026-01-13 03:04:39.02	233.65	4.53	-45.0	-56.6	3.8	8.46e-01	0	61	104	2261778432	60	14547
2026-01-13 03:04:42.04	233.49	4.33	-45.0	-56.5	3.8	8.46e-01	0	61	104	2261778432	60	14492
2026-01-13 03:04:45.07	233.33	4.13	-45.0	-56.5	3.8	8.46e-01	0	61	104	2261778432	60	14537
2026-01-13 03:04:48.11	233.17	3.93	-45.0	-56.5	3.8	8.45e-01	0	61	104	2261778432	60	14532
2026-01-13 03:04:51.14	233.02	3.74	-45.0	-56.5	3.8	8.47e-01	0	61	104	2261778432	60	14465
2026-01-13 03:04:54.17	232.87	3.55	-45.0	-56.5	3.8	8.46e-01	0	61	104	2261778432	60	14513
2026-01-13 03:04:57.20	232.72	3.35	-45.0	-56.5	3.8	8.47e-01	0	61	104	2261778432	60	14513
2026-01-13 03:05:00.23	232.57	3.16	-45.0	-56.6	3.8	8.47e-01	0	61	104	2261778432	60	14565
2026-01-13 03:05:03.26	232.43	2.97	-45.0	-56.5	3.8	8.47e-01	0	61	104	2261778432	60	14534
2026-01-13 03:05:06.29	232.28	2.78	-45.0	-56.5	3.8	8.48e-01	0	61	104	2261778432	60	14480
2026-01-13 03:05:09.32	232.14	2.59	-45.0	-56.5	3.8	8.45e-01	0	61	104	2261778432	60	14470
2026-01-13 03:05:12.35	232.00	2.40	-45.0	-56.5	3.8	8.46e-01	0	61	104	2261778432	60	14521
2026-01-13 03:05:15.38	231.86	2.22	-45.0	-56.5	3.8	8.46e-01	0	60	104	2261778432	60	14529
2026-01-13 03:05:18.41	231.73	2.03	-45.0	-56.5	3.8	8.47e-01	0	60	104	2261778432	60	14474

#Closed at: 2026-01-13 03:05:20
#Recorded file [2261 MB]: D:/lorett/data/31039_260113_055624.dat