passes_logs/2026/01/13/R2.0S_Moscow/R2.0S_Moscow__20260113_084344_NOAA_20_JPSS-1_rec.log

#Pass ID: 20260113_084344_NOAA 20 (JPSS-1)
#Satellite: NOAA 20 (JPSS-1)
#Configuration: NOAA 20
#almurnet v.1.7.20251203
#Start time: 2026-01-13 08:43:45

#Version: 2.2.20231116
#Station: R2.0S_Moscow
#Location: 37.707566 lon 55.798166 lat
#TLE: 1 43013U 17073A   26012.29914746  .00000087  00000+0  62270-4 0  9997
#TLE: 2 43013  98.7632 313.2670 0001616  43.2193 316.9110 14.19535514422351

#Time	Az	El	Level	Level2	SNR	BER	BlckErr	Temp	State	Recorded	gain1	gain2
2026-01-13 08:43:45.13	125.80	2.02	-16.3	-32.8	3.7	1.50e+00	0	49	0	0	2	26505
2026-01-13 08:43:49.16	125.60	2.27	-10.5	-34.5	3.5	1.49e+00	0	50	104	0	4	28833
2026-01-13 08:43:53.20	125.40	2.51	-9.1	-31.8	3.5	1.49e+00	0	50	104	0	0	26709
2026-01-13 08:43:57.24	125.19	2.76	-10.8	-31.5	3.2	1.50e+00	0	50	104	0	0	25823
2026-01-13 08:44:01.28	124.99	3.01	-24.1	-44.9	3.3	1.49e+00	0	50	104	0	17	44986
2026-01-13 08:44:05.33	124.77	3.26	-11.0	-32.6	3.3	1.50e+00	0	51	104	0	8	18503
2026-01-13 08:44:09.37	124.56	3.52	-23.2	-45.1	3.9	1.49e+00	0	51	104	0	19	41409
2026-01-13 08:44:13.41	124.34	3.77	-21.4	-44.5	3.8	1.50e+00	0	51	104	0	17	43347
2026-01-13 08:44:17.45	124.11	4.03	-17.0	-34.4	3.6	1.50e+00	0	52	104	0	9	21385
2026-01-13 08:44:21.49	123.88	4.29	-21.5	-41.9	3.6	1.50e+00	0	52	104	0	18	30209
2026-01-13 08:44:25.54	123.65	4.55	-10.9	-34.4	3.5	1.50e+00	0	52	104	0	0	35865
2026-01-13 08:44:29.58	123.41	4.82	-11.1	-32.5	4.0	1.50e+00	0	52	104	0	2	25618
2026-01-13 08:44:33.62	123.17	5.08	-20.9	-32.2	3.3	1.49e+00	0	52	104	0	0	27847
2026-01-13 08:44:37.66	122.93	5.35	-22.1	-43.5	3.4	1.50e+00	0	53	104	0	14	45741
2026-01-13 08:44:41.70	122.67	5.62	-17.2	-33.3	3.8	1.50e+00	0	53	104	0	6	22461
2026-01-13 08:44:45.74	122.42	5.89	-23.2	-41.6	3.9	1.50e+00	0	53	104	0	16	32706
2026-01-13 08:44:49.79	122.16	6.17	-18.3	-38.3	3.4	1.50e+00	0	53	104	0	9	33682
2026-01-13 08:44:53.82	121.89	6.45	-14.9	-34.8	3.4	1.50e+00	0	53	104	0	5	28224
2026-01-13 08:44:57.87	121.62	6.73	-13.1	-38.9	3.2	1.50e+00	0	53	104	0	5	45173
2026-01-13 08:45:01.91	121.34	7.01	-14.5	-34.2	3.4	1.50e+00	0	54	104	0	3	29470
2026-01-13 08:45:05.95	121.06	7.29	-20.8	-40.3	3.7	1.50e+00	0	54	104	0	15	29735
2026-01-13 08:45:09.99	120.77	7.58	-23.3	-41.3	3.5	1.50e+00	0	54	104	0	8	49931
2026-01-13 08:45:14.03	120.48	7.87	-20.1	-39.4	4.0	1.50e+00	0	54	104	0	11	33970
2026-01-13 08:45:18.07	120.18	8.16	-10.3	-32.1	3.4	1.50e+00	0	54	104	0	0	27619
2026-01-13 08:45:22.11	119.87	8.46	-21.9	-38.5	3.7	1.49e+00	0	54	104	0	10	32440
2026-01-13 08:45:26.15	119.56	8.76	-20.1	-35.4	3.9	1.50e+00	0	55	104	0	4	32164
2026-01-13 08:45:30.18	119.24	9.06	-27.2	-43.7	4.2	1.50e+00	0	55	104	0	20	32992
2026-01-13 08:45:34.22	118.91	9.36	-24.2	-41.3	3.8	1.50e+00	0	55	104	0	18	28316
2026-01-13 08:45:38.27	118.58	9.67	-14.2	-32.0	3.8	1.50e+00	0	55	104	0	1	25704
2026-01-13 08:45:42.30	118.24	9.97	-11.3	-29.7	3.7	1.49e+00	0	55	104	0	0	20792
2026-01-13 08:45:46.34	117.89	10.29	-8.3	-29.8	3.7	1.50e+00	0	55	104	0	0	21082
2026-01-13 08:45:50.38	117.53	10.60	-27.7	-39.4	3.7	1.50e+00	0	55	104	0	13	30377
2026-01-13 08:45:54.42	117.17	10.92	-19.7	-34.7	3.6	1.50e+00	0	55	104	0	13	17533
2026-01-13 08:45:58.46	116.79	11.24	-27.8	-42.6	3.9	1.50e+00	0	55	104	0	22	25958
2026-01-13 08:46:02.49	116.41	11.56	-24.0	-40.6	4.2	1.50e+00	0	55	104	0	21	21817
2026-01-13 08:46:06.53	116.02	11.89	-29.9	-45.3	4.2	1.47e+00	0	56	104	0	31	21090
2026-01-13 08:46:10.57	115.63	12.22	-38.2	-51.0	4.2	1.47e+00	0	56	104	0	43	20402
2026-01-13 08:46:14.61	115.22	12.55	-29.5	-50.5	4.2	1.46e+00	0	56	104	0	45	17118
2026-01-13 08:46:18.65	114.80	12.89	-29.6	-49.7	4.0	1.37e+00	0	56	104	1048576	41	19780
2026-01-13 08:46:22.69	114.37	13.23	-43.4	-51.9	5.6	5.69e-01	0	56	0	7340032	57	10146
2026-01-13 08:46:26.73	113.94	13.57	-43.0	-49.5	7.6	1.18e-01	0	56	0	14680064	56	8133
2026-01-13 08:46:30.77	113.49	13.91	-42.5	-47.9	9.1	2.65e-02	0	56	0	22020096	55	7204
2026-01-13 08:46:34.81	113.03	14.26	-42.1	-48.0	9.1	2.81e-02	0	56	0	29360128	55	7250
2026-01-13 08:46:38.84	112.56	14.61	-42.1	-47.7	9.0	2.21e-02	0	56	0	37748736	53	7833
2026-01-13 08:46:42.88	112.08	14.97	-42.1	-47.6	9.4	3.07e-02	0	56	0	45088768	54	7314
2026-01-13 08:46:46.92	111.58	15.33	-42.4	-47.7	9.3	1.96e-02	0	56	0	52428800	55	7038
2026-01-13 08:46:50.97	111.08	15.69	-41.6	-47.2	10.1	8.06e-03	0	56	0	59768832	55	6615
2026-01-13 08:46:55.01	110.56	16.05	-42.4	-47.5	9.8	9.63e-03	0	56	0	68157440	55	6815
2026-01-13 08:46:59.05	110.03	16.42	-42.5	-47.7	9.6	1.46e-02	0	56	0	75497472	55	7033
2026-01-13 08:47:03.08	109.48	16.79	-42.3	-47.1	10.2	5.92e-03	0	56	0	82837504	55	6555
2026-01-13 08:47:07.13	108.93	17.16	-42.2	-46.8	10.5	6.05e-03	0	57	0	90177536	54	6719
2026-01-13 08:47:11.17	108.35	17.54	-39.2	-46.5	10.0	4.40e-03	0	57	0	97517568	53	6869
2026-01-13 08:47:15.21	107.77	17.92	-42.0	-46.6	10.7	2.90e-03	0	57	0	105906176	54	6560
2026-01-13 08:47:19.25	107.16	18.30	-42.1	-46.8	10.7	3.06e-03	0	57	0	113246208	54	6665
2026-01-13 08:47:23.29	106.54	18.68	-42.1	-46.8	10.7	2.59e-03	0	57	0	120586240	54	6683
2026-01-13 08:47:27.32	105.91	19.07	-42.2	-46.7	10.8	2.49e-03	0	57	0	127926272	55	6214
2026-01-13 08:47:31.36	105.26	19.46	-42.2	-46.9	10.6	3.01e-03	0	57	0	136314880	55	6363
2026-01-13 08:47:35.40	104.59	19.85	-42.3	-47.0	10.5	3.67e-03	0	57	0	143654912	55	6460
2026-01-13 08:47:39.43	103.91	20.24	-42.4	-47.1	10.4	4.21e-03	0	57	0	150994944	55	6557
2026-01-13 08:47:43.47	103.21	20.63	-42.4	-47.1	10.4	5.00e-03	0	57	0	158334976	55	6541
2026-01-13 08:47:47.51	102.49	21.03	-42.5	-47.4	10.1	7.10e-03	0	57	0	165675008	55	6782
2026-01-13 08:47:51.55	101.75	21.43	-42.4	-47.2	10.3	4.63e-03	0	57	0	174063616	55	6617
2026-01-13 08:47:55.59	100.99	21.82	-42.4	-47.2	10.4	4.69e-03	0	57	0	181403648	55	6579
2026-01-13 08:47:59.63	100.21	22.22	-42.3	-46.9	10.7	3.25e-03	0	58	0	188743680	55	6382
2026-01-13 08:48:03.67	99.41	22.62	-42.2	-46.6	11.1	1.69e-03	0	57	0	196083712	55	6145
2026-01-13 08:48:07.71	98.59	23.02	-42.1	-46.2	11.4	1.12e-03	0	57	0	204472320	55	5918
2026-01-13 08:48:11.75	97.74	23.42	-42.0	-46.2	11.5	1.14e-03	0	57	0	211812352	55	5876
2026-01-13 08:48:15.79	96.88	23.82	-41.8	-45.8	11.9	4.13e-04	0	57	0	219152384	55	5605
2026-01-13 08:48:19.82	96.00	24.22	-41.9	-46.0	11.7	6.39e-04	0	57	0	226492416	55	5742
2026-01-13 08:48:23.86	95.09	24.61	-42.0	-46.2	11.5	7.81e-04	0	57	0	233832448	55	5879
2026-01-13 08:48:27.90	94.15	25.00	-41.9	-46.0	11.7	6.77e-04	0	57	0	242221056	55	5740
2026-01-13 08:48:31.95	93.19	25.40	-41.8	-45.7	12.0	3.14e-04	0	57	0	249561088	55	5565
2026-01-13 08:48:35.99	92.21	25.78	-41.8	-45.7	12.0	2.88e-04	0	57	0	256901120	55	5562
2026-01-13 08:48:40.03	91.21	26.17	-42.1	-46.2	11.6	6.12e-04	0	58	0	264241152	55	5885
2026-01-13 08:48:44.07	90.18	26.55	-42.3	-46.7	11.0	2.00e-03	0	57	0	272629760	55	6271
2026-01-13 08:48:48.10	89.13	26.92	-42.4	-46.8	10.9	2.18e-03	0	58	0	279969792	55	6310
2026-01-13 08:48:52.14	88.05	27.29	-42.6	-47.3	10.5	4.30e-03	0	58	0	287309824	55	6665
2026-01-13 08:48:56.18	86.95	27.65	-42.7	-47.4	10.3	5.40e-03	0	58	0	294649856	55	6797
2026-01-13 08:49:00.22	85.82	28.00	-42.9	-47.8	10.2	6.71e-03	0	58	0	301989888	56	6650
2026-01-13 08:49:04.26	84.67	28.35	-43.1	-48.4	9.5	1.23e-02	0	58	0	310378496	56	7160
2026-01-13 08:49:08.30	83.49	28.68	-43.0	-48.0	10.0	8.90e-03	0	58	0	317718528	56	6838
2026-01-13 08:49:12.34	82.28	29.01	-42.9	-47.9	10.0	8.19e-03	0	57	0	325058560	56	6764
2026-01-13 08:49:16.37	81.06	29.33	-42.9	-47.7	10.2	6.19e-03	0	58	0	332398592	56	6624
2026-01-13 08:49:20.41	79.81	29.63	-43.1	-48.1	9.8	1.02e-02	0	58	0	340787200	56	6948
2026-01-13 08:49:24.45	78.53	29.92	-42.9	-47.7	10.3	5.77e-03	0	58	0	348127232	56	6646
2026-01-13 08:49:28.49	77.24	30.20	-43.0	-48.1	9.9	8.03e-03	0	58	0	355467264	56	6899
2026-01-13 08:49:32.53	75.92	30.47	-43.2	-48.4	9.6	1.06e-02	0	58	0	362807296	56	7131
2026-01-13 08:49:36.57	74.58	30.72	-43.4	-49.0	9.1	2.06e-02	0	58	0	370147328	57	7221
2026-01-13 08:49:40.60	73.22	30.95	-43.2	-48.6	9.4	1.67e-02	0	57	0	378535936	57	6894
2026-01-13 08:49:44.64	71.84	31.16	-43.1	-48.2	9.8	1.01e-02	0	58	0	385875968	57	6600
2026-01-13 08:49:48.68	70.44	31.36	-43.1	-48.3	9.8	9.66e-03	0	58	0	393216000	57	6652
2026-01-13 08:49:52.72	69.03	31.54	-42.9	-47.6	10.4	4.08e-03	0	58	0	400556032	57	6190
2026-01-13 08:49:56.76	67.60	31.71	-42.9	-47.7	10.4	4.59e-03	0	58	0	408944640	57	6238
2026-01-13 08:50:00.79	66.16	31.85	-43.2	-48.3	9.8	9.63e-03	0	58	0	416284672	57	6650
2026-01-13 08:50:04.83	64.70	31.97	-43.2	-48.5	9.6	1.19e-02	0	58	0	423624704	57	6805
2026-01-13 08:50:08.87	63.24	32.07	-43.4	-48.9	9.2	1.74e-02	0	58	0	430964736	57	7174
2026-01-13 08:50:12.91	61.77	32.15	-43.5	-49.1	8.9	2.48e-02	0	58	0	438304768	57	7303
2026-01-13 08:50:16.95	60.29	32.21	-43.4	-48.8	9.2	2.02e-02	0	58	0	446693376	57	7110
2026-01-13 08:50:20.99	58.81	32.25	-43.4	-48.9	9.1	2.00e-02	0	58	0	454033408	57	7160
2026-01-13 08:50:25.02	57.33	32.27	-43.2	-48.4	9.7	1.09e-02	0	58	0	461373440	57	6743
2026-01-13 08:50:29.06	55.84	32.26	-43.3	-48.6	9.4	1.43e-02	0	58	0	468713472	57	6930
2026-01-13 08:50:33.10	54.36	32.24	-43.6	-49.4	8.6	3.66e-02	0	58	0	477102080	57	7599
2026-01-13 08:50:37.14	52.88	32.19	-43.3	-48.6	9.4	1.76e-02	0	58	0	484442112	57	6939
2026-01-13 08:50:41.18	51.40	32.12	-43.4	-48.9	9.2	2.06e-02	0	58	0	491782144	57	7157
2026-01-13 08:50:45.22	49.93	32.03	-43.2	-48.2	9.9	9.01e-03	0	58	0	499122176	57	6579
2026-01-13 08:50:49.26	48.48	31.91	-43.3	-48.5	9.5	1.31e-02	0	58	0	506462208	57	6871
2026-01-13 08:50:53.30	47.03	31.78	-43.3	-48.6	9.5	1.61e-02	0	58	0	514850816	57	6910
2026-01-13 08:50:57.33	45.60	31.63	-43.4	-48.7	9.4	1.77e-02	0	58	0	522190848	57	6999
2026-01-13 08:51:01.37	44.18	31.46	-43.6	-49.4	8.6	3.89e-02	0	58	0	529530880	57	7610
2026-01-13 08:51:05.41	42.78	31.27	-43.5	-49.0	9.1	2.39e-02	0	58	0	536870912	57	7252
2026-01-13 08:51:09.45	41.39	31.06	-43.3	-48.6	9.4	1.41e-02	0	58	0	545259520	57	6941
2026-01-13 08:51:13.49	40.02	30.84	-43.6	-49.5	8.5	4.39e-02	0	58	0	552599552	57	7710
2026-01-13 08:51:17.53	38.67	30.60	-43.6	-49.3	8.7	3.21e-02	0	58	0	559939584	57	7504
2026-01-13 08:51:21.57	37.35	30.34	-43.6	-49.3	8.7	4.00e-02	0	58	0	567279616	57	7512
2026-01-13 08:51:25.61	36.04	30.07	-43.5	-49.0	9.0	2.89e-02	0	58	0	574619648	57	7274
2026-01-13 08:51:29.65	34.76	29.79	-43.4	-49.0	9.1	2.50e-02	0	58	0	583008256	57	7205
2026-01-13 08:51:33.68	33.50	29.49	-43.3	-48.6	9.3	1.82e-02	0	58	0	590348288	57	6958
2026-01-13 08:51:37.72	32.27	29.18	-43.3	-48.7	9.3	1.85e-02	0	58	0	597688320	57	7010
2026-01-13 08:51:41.76	31.06	28.86	-43.3	-48.6	9.4	1.57e-02	0	58	0	605028352	57	6915
2026-01-13 08:51:45.80	29.87	28.53	-43.2	-48.4	9.6	1.47e-02	0	58	0	613416960	57	6780
2026-01-13 08:51:49.85	28.70	28.19	-43.2	-48.4	9.7	1.03e-02	0	58	0	620756992	57	6724
2026-01-13 08:51:53.89	27.57	27.84	-43.2	-48.3	9.7	8.82e-03	0	58	0	628097024	57	6699
2026-01-13 08:51:57.92	26.46	27.49	-43.1	-48.1	9.9	7.72e-03	0	58	0	635437056	57	6567
2026-01-13 08:52:01.96	25.37	27.12	-43.0	-47.9	10.2	7.32e-03	0	58	0	642777088	57	6380
2026-01-13 08:52:06.00	24.31	26.75	-42.7	-47.2	10.9	2.45e-03	0	58	0	651165696	57	5904
2026-01-13 08:52:10.04	23.27	26.38	-42.6	-46.9	11.2	1.22e-03	0	58	0	658505728	56	6025
2026-01-13 08:52:14.08	22.26	26.00	-42.2	-46.1	12.0	4.58e-04	0	58	0	665845760	56	5518
2026-01-13 08:52:18.11	21.27	25.62	-42.1	-45.8	12.3	1.80e-04	0	58	0	673185792	56	5339
2026-01-13 08:52:22.15	20.31	25.23	-41.7	-45.3	12.7	7.70e-05	0	58	0	681574400	55	5303
2026-01-13 08:52:26.19	19.37	24.84	-41.6	-45.0	13.0	3.35e-05	0	58	0	688914432	55	5142
2026-01-13 08:52:30.23	18.45	24.45	-41.4	-44.8	13.2	3.12e-05	0	58	0	696254464	54	5312
2026-01-13 08:52:34.27	17.56	24.05	-41.2	-44.4	13.6	1.06e-05	0	58	0	703594496	54	5065
2026-01-13 08:52:38.31	16.69	23.66	-41.2	-44.4	13.6	6.80e-06	0	58	0	710934528	54	5087
2026-01-13 08:52:42.35	15.84	23.26	-41.4	-44.9	13.1	3.12e-05	0	58	0	719323136	54	5349
2026-01-13 08:52:46.38	15.01	22.86	-41.6	-45.2	12.7	6.63e-05	0	58	0	726663168	54	5537
2026-01-13 08:52:50.42	14.21	22.47	-41.6	-45.2	12.7	9.07e-05	0	58	0	734003200	54	5573
2026-01-13 08:52:54.46	13.42	22.07	-41.6	-45.3	12.6	8.01e-05	0	58	0	741343232	54	5596
2026-01-13 08:52:58.50	12.66	21.67	-41.8	-45.6	12.2	2.28e-04	0	58	0	749731840	54	5840
2026-01-13 08:53:02.54	11.91	21.28	-41.8	-45.6	12.2	2.31e-04	0	58	0	757071872	54	5812
2026-01-13 08:53:06.58	11.18	20.88	-41.8	-45.7	12.1	2.89e-04	0	58	0	764411904	54	5878
2026-01-13 08:53:10.62	10.48	20.49	-41.9	-45.8	12.0	3.08e-04	0	58	0	771751936	54	5949
2026-01-13 08:53:14.66	9.79	20.10	-41.9	-45.9	11.8	4.86e-04	0	58	0	779091968	54	6006
2026-01-13 08:53:18.70	9.11	19.71	-42.1	-46.4	11.2	1.30e-03	0	58	0	787480576	54	6394
2026-01-13 08:53:22.74	8.46	19.32	-42.3	-46.8	10.8	2.57e-03	0	58	0	794820608	55	6319
2026-01-13 08:53:26.77	7.82	18.93	-42.3	-47.0	10.5	4.28e-03	0	58	0	802160640	55	6491
2026-01-13 08:53:30.81	7.20	18.55	-42.3	-47.2	10.3	4.52e-03	0	58	0	809500672	55	6571
2026-01-13 08:53:34.85	6.60	18.17	-42.3	-47.1	10.3	5.83e-03	0	58	0	817889280	55	6544
2026-01-13 08:53:38.88	6.01	17.79	-42.3	-47.2	10.1	7.56e-03	0	58	0	825229312	55	6637
2026-01-13 08:53:42.92	5.43	17.42	-42.2	-47.2	10.0	8.68e-03	0	58	0	832569344	55	6611
2026-01-13 08:53:46.96	4.87	17.04	-42.2	-47.2	9.9	8.96e-03	0	58	0	839909376	55	6600
2026-01-13 08:53:51.00	4.32	16.67	-42.2	-47.7	9.2	1.67e-02	0	58	0	847249408	55	6974
2026-01-13 08:53:55.04	3.79	16.31	-42.1	-47.6	9.3	1.85e-02	0	59	0	855638016	55	6884
2026-01-13 08:53:59.07	3.27	15.94	-42.1	-47.5	9.3	1.57e-02	0	58	0	862978048	55	6819
2026-01-13 08:54:03.11	2.76	15.58	-42.1	-47.7	9.0	2.41e-02	0	58	0	870318080	55	7020
2026-01-13 08:54:07.15	2.26	15.22	-41.9	-47.4	9.1	2.55e-02	0	58	0	877658112	55	6796
2026-01-13 08:54:11.19	1.78	14.87	-41.7	-47.7	8.4	4.88e-02	0	58	0	886046720	55	7027
2026-01-13 08:54:15.24	1.31	14.52	-41.6	-48.3	7.6	7.75e-02	0	58	0	893386752	55	7498
2026-01-13 08:54:19.27	0.85	14.17	-41.4	-48.0	7.9	7.22e-02	0	59	0	900726784	54	7683
2026-01-13 08:54:23.31	0.40	13.82	-41.1	-47.4	8.3	5.30e-02	0	58	0	908066816	54	7149
2026-01-13 08:54:27.35	359.96	13.48	-41.3	-49.5	6.1	2.46e-01	0	58	0	915406848	54	9108
2026-01-13 08:54:31.39	359.53	13.14	-41.4	-52.7	4.2	1.30e+00	0	58	0	922746880	54	13216
2026-01-13 08:54:35.42	359.11	12.81	-41.3	-54.4	3.8	1.49e+00	0	58	104	922746880	54	16120
2026-01-13 08:54:39.46	358.71	12.47	-41.0	-55.4	3.8	1.49e+00	0	58	104	922746880	54	17927
2026-01-13 08:54:43.50	358.31	12.14	-40.5	-55.1	3.8	1.49e+00	0	58	104	922746880	53	18428
2026-01-13 08:54:47.54	357.92	11.82	-40.0	-55.0	3.8	1.49e+00	0	58	104	922746880	52	19313
2026-01-13 08:54:51.57	357.54	11.49	-39.5	-54.7	3.8	1.49e+00	0	58	104	922746880	51	19681
2026-01-13 08:54:55.61	357.16	11.17	-39.8	-54.8	3.8	1.49e+00	0	58	104	922746880	51	20000
2026-01-13 08:54:59.64	356.80	10.86	-39.5	-54.7	3.8	1.49e+00	0	59	104	922746880	51	19629
2026-01-13 08:55:03.69	356.44	10.54	-39.7	-54.8	3.8	1.49e+00	0	58	104	922746880	51	19885
2026-01-13 08:55:07.72	356.09	10.23	-39.5	-54.6	3.8	1.49e+00	0	58	104	922746880	51	19599
2026-01-13 08:55:11.76	355.75	9.92	-39.6	-54.7	3.8	1.49e+00	0	58	104	922746880	51	19692
2026-01-13 08:55:15.80	355.42	9.61	-39.9	-54.8	3.8	1.49e+00	0	59	104	922746880	51	19965
2026-01-13 08:55:19.84	355.09	9.31	-39.6	-54.7	3.8	1.49e+00	0	58	104	922746880	51	19760
2026-01-13 08:55:23.87	354.78	9.01	-39.9	-54.7	3.8	1.49e+00	0	58	104	922746880	51	19840
2026-01-13 08:55:27.91	354.46	8.71	-39.9	-54.8	3.8	1.49e+00	0	58	104	922746880	51	19876
2026-01-13 08:55:31.95	354.16	8.42	-39.9	-54.7	3.8	1.49e+00	0	59	104	922746880	51	19804
2026-01-13 08:55:35.98	353.86	8.12	-40.0	-54.7	3.8	1.49e+00	0	58	104	922746880	51	19791
2026-01-13 08:55:40.03	353.56	7.83	-43.4	-57.9	3.8	1.49e+00	0	59	104	922746880	57	20271
2026-01-13 08:55:44.06	353.28	7.55	-45.2	-59.8	3.8	1.49e+00	0	59	104	922746880	60	21019
2026-01-13 08:55:48.10	353.00	7.26	-44.9	-59.7	3.8	1.49e+00	0	59	104	922746880	60	20920
2026-01-13 08:55:52.14	352.72	6.98	-45.2	-59.7	3.8	1.49e+00	0	58	104	922746880	60	20959
2026-01-13 08:55:56.18	352.45	6.70	-45.1	-59.6	3.8	1.49e+00	0	59	104	922746880	60	20730
2026-01-13 08:56:00.22	352.19	6.42	-44.8	-59.6	3.8	1.49e+00	0	58	104	922746880	60	20654
2026-01-13 08:56:04.26	351.93	6.14	-45.1	-59.6	3.8	1.49e+00	0	58	104	922746880	60	20674
2026-01-13 08:56:08.30	351.67	5.87	-45.1	-59.6	3.8	1.49e+00	0	59	104	922746880	60	20667
2026-01-13 08:56:12.34	351.43	5.60	-45.1	-59.6	3.8	1.49e+00	0	59	104	922746880	60	20627
2026-01-13 08:56:16.38	351.18	5.33	-45.1	-59.6	3.8	1.49e+00	0	59	104	922746880	60	20615
2026-01-13 08:56:20.43	350.94	5.06	-45.1	-59.5	3.8	1.49e+00	0	58	104	922746880	60	20538
2026-01-13 08:56:24.47	350.71	4.80	-45.0	-59.6	3.8	1.49e+00	0	59	104	922746880	60	20553
2026-01-13 08:56:28.50	350.48	4.54	-45.1	-59.6	3.8	1.49e+00	0	59	104	922746880	60	20574
2026-01-13 08:56:32.54	350.25	4.28	-45.1	-59.6	3.8	1.49e+00	0	58	104	922746880	60	20571
2026-01-13 08:56:36.58	350.03	4.02	-45.0	-59.6	3.8	1.49e+00	0	59	104	922746880	60	20549
2026-01-13 08:56:40.61	349.81	3.77	-45.1	-59.5	3.8	1.49e+00	0	59	104	922746880	60	20534
2026-01-13 08:56:44.66	349.60	3.51	-45.0	-59.5	3.8	1.49e+00	0	59	104	922746880	60	20497
2026-01-13 08:56:48.70	349.39	3.26	-45.1	-59.5	3.8	1.49e+00	0	59	104	922746880	60	20498
2026-01-13 08:56:52.74	349.18	3.01	-45.0	-59.5	3.8	1.49e+00	0	59	104	922746880	60	20481
2026-01-13 08:56:56.77	348.98	2.76	-45.0	-59.5	3.8	1.49e+00	0	59	104	922746880	60	20506
2026-01-13 08:57:00.81	348.78	2.51	-45.0	-59.5	3.8	1.49e+00	0	59	104	922746880	60	20463
2026-01-13 08:57:04.85	348.59	2.27	-45.0	-59.5	3.8	1.49e+00	0	59	104	922746880	60	20477
2026-01-13 08:57:08.89	348.40	2.03	-45.0	-59.5	3.8	1.49e+00	0	59	104	922746880	60	20444

#Closed at: 2026-01-13 08:57:12
#Recorded file [922 MB]: D:/lorett/data/31039_260113_114344.dat