passes_logs/2026/01/13/R2.0S_Moscow/R2.0S_Moscow__20260113_010709_AQUA_rec.log

#Pass ID: 20260113_010709_AQUA
#Satellite: AQUA
#Configuration: AQUA
#almurnet v.1.7.20251203
#Start time: 2026-01-13 01:07:10

#Version: 2.2.20231116
#Station: R2.0S_Moscow
#Location: 37.707566 lon 55.798166 lat
#TLE: 1 27424U 02022A   26012.29577270  .00001027  00000+0  21555-3 0  9995
#TLE: 2 27424  98.4078 338.6778 0002034  81.5885  29.6294 14.61817302260499

#Time	Az	El	Level	Level2	SNR	BER	BlckErr	Temp	State	Recorded	gain1	gain2
2026-01-13 01:07:10.68	17.12	2.07	-41.6	-62.0	3.8	7.46e-01	0	51	0	0	55	36424
2026-01-13 01:07:14.72	17.18	2.33	-41.6	-62.0	3.8	7.46e-01	0	51	104	0	54	38514
2026-01-13 01:07:18.77	17.25	2.61	-41.6	-62.0	3.8	7.44e-01	0	51	104	0	54	38556
2026-01-13 01:07:22.81	17.32	2.88	-41.6	-62.0	3.8	7.44e-01	0	52	104	0	54	38500
2026-01-13 01:07:26.85	17.38	3.16	-41.6	-62.0	3.8	7.44e-01	0	52	104	0	54	38474
2026-01-13 01:07:30.89	17.45	3.43	-41.7	-62.0	3.8	7.45e-01	0	52	104	0	54	38388
2026-01-13 01:07:34.93	17.52	3.72	-41.6	-62.0	3.8	7.45e-01	0	52	104	0	54	38463
2026-01-13 01:07:38.97	17.59	4.00	-41.6	-62.0	3.8	7.42e-01	0	53	104	0	54	38366
2026-01-13 01:07:43.02	17.67	4.29	-41.6	-62.0	3.8	7.47e-01	0	53	104	0	54	38291
2026-01-13 01:07:47.06	17.74	4.58	-41.6	-62.0	3.8	7.43e-01	0	53	104	0	54	38404
2026-01-13 01:07:51.11	17.82	4.88	-41.6	-62.0	3.8	7.42e-01	0	53	104	0	54	38257
2026-01-13 01:07:55.14	17.89	5.18	-41.6	-61.5	3.8	7.44e-01	0	54	104	0	54	36336
2026-01-13 01:07:59.18	17.97	5.48	-41.6	-61.7	3.8	7.47e-01	0	54	104	0	54	37227
2026-01-13 01:08:03.22	18.05	5.79	-41.6	-61.8	3.8	7.48e-01	0	54	104	0	54	37606
2026-01-13 01:08:07.26	18.13	6.10	-41.6	-61.8	3.8	7.48e-01	0	54	104	0	54	37709
2026-01-13 01:08:11.29	18.21	6.42	-41.6	-61.8	3.8	7.43e-01	0	54	104	0	54	37453
2026-01-13 01:08:15.33	18.29	6.74	-41.6	-61.9	3.8	7.44e-01	0	55	104	0	54	38134
2026-01-13 01:08:19.37	18.38	7.06	-41.6	-61.7	3.8	7.47e-01	0	55	104	0	54	37122
2026-01-13 01:08:23.42	18.47	7.39	-41.6	-60.2	3.8	7.44e-01	0	55	104	0	54	31401
2026-01-13 01:08:27.46	18.55	7.73	-41.5	-55.3	5.7	6.91e-01	81	55	0	0	54	17811
2026-01-13 01:08:31.51	18.64	8.07	-41.3	-49.7	11.5	6.10e-01	0	55	0	7340032	54	9283
2026-01-13 01:08:35.54	18.74	8.41	-40.7	-46.2	15.2	6.03e-01	0	55	0	13631488	53	6639
2026-01-13 01:08:39.58	18.83	8.76	-41.1	-46.8	15.0	6.05e-01	0	55	0	20971520	53	7076
2026-01-13 01:08:43.62	18.93	9.12	-41.3	-46.2	15.7	6.02e-01	0	56	0	28835840	53	6641
2026-01-13 01:08:47.66	19.02	9.48	-41.8	-46.7	15.6	6.04e-01	0	56	0	36175872	54	6597
2026-01-13 01:08:51.70	19.12	9.84	-41.5	-45.8	16.5	6.03e-01	0	56	0	44040192	54	5956
2026-01-13 01:08:55.74	19.23	10.21	-41.5	-45.7	16.7	6.03e-01	0	56	0	51380224	54	5897
2026-01-13 01:08:59.78	19.33	10.59	-41.5	-45.5	16.9	6.03e-01	0	56	0	59244544	54	5765
2026-01-13 01:09:03.81	19.44	10.98	-41.5	-45.4	17.1	6.01e-01	0	56	0	66584576	54	5704
2026-01-13 01:09:07.85	19.55	11.37	-41.5	-45.2	17.1	6.04e-01	0	56	0	73924608	54	5579
2026-01-13 01:09:11.89	19.66	11.77	-41.4	-45.0	17.6	6.05e-01	0	57	0	81788928	54	5455
2026-01-13 01:09:15.93	19.78	12.18	-41.5	-45.0	17.8	6.03e-01	0	57	0	89128960	54	5437
2026-01-13 01:09:19.96	19.90	12.59	-41.5	-45.0	17.8	6.02e-01	0	57	0	96993280	54	5463
2026-01-13 01:09:24.00	20.02	13.01	-41.7	-45.3	17.7	6.04e-01	0	57	0	104333312	54	5604
2026-01-13 01:09:28.04	20.15	13.44	-41.6	-45.2	17.8	6.04e-01	0	57	0	112197632	54	5546
2026-01-13 01:09:32.08	20.27	13.88	-41.4	-44.8	18.1	6.03e-01	0	57	0	119537664	54	5322
2026-01-13 01:09:36.12	20.41	14.33	-41.4	-44.7	18.3	6.03e-01	0	57	0	127401984	54	5276
2026-01-13 01:09:40.16	20.54	14.79	-41.4	-44.6	18.4	6.05e-01	0	57	0	134742016	54	5217
2026-01-13 01:09:44.20	20.68	15.25	-41.4	-44.6	18.5	6.01e-01	0	57	0	142082048	54	5215
2026-01-13 01:09:48.23	20.83	15.73	-41.4	-44.7	18.5	6.05e-01	0	57	0	149946368	54	5247
2026-01-13 01:09:52.27	20.98	16.22	-41.4	-44.6	18.6	6.03e-01	0	58	0	157286400	54	5214
2026-01-13 01:09:56.31	21.13	16.71	-41.4	-44.5	18.7	6.04e-01	0	57	0	165150720	54	5134
2026-01-13 01:10:00.35	21.29	17.22	-41.3	-44.4	18.9	5.99e-01	0	58	0	172490752	54	5088
2026-01-13 01:10:04.38	21.45	17.74	-41.3	-44.4	18.9	6.04e-01	0	58	0	180355072	54	5098
2026-01-13 01:10:08.42	21.62	18.28	-41.4	-44.5	18.8	6.02e-01	0	58	0	187695104	54	5140
2026-01-13 01:10:12.46	21.80	18.82	-41.4	-44.4	19.0	6.03e-01	0	58	0	195559424	54	5081
2026-01-13 01:10:16.50	21.98	19.38	-41.4	-44.4	19.1	6.03e-01	0	58	0	202899456	54	5069
2026-01-13 01:10:20.54	22.17	19.96	-41.5	-44.6	18.9	6.02e-01	0	58	0	210239488	54	5180
2026-01-13 01:10:24.58	22.36	20.55	-41.4	-44.4	19.1	6.04e-01	0	58	0	218103808	54	5070
2026-01-13 01:10:28.61	22.57	21.15	-41.3	-44.2	19.3	6.05e-01	0	58	0	225443840	54	4968
2026-01-13 01:10:32.65	22.78	21.77	-41.4	-44.4	19.2	6.04e-01	0	58	0	233308160	54	5071
2026-01-13 01:10:36.69	23.00	22.40	-41.5	-44.6	19.0	6.02e-01	0	58	0	240648192	54	5162
2026-01-13 01:10:40.73	23.23	23.06	-41.6	-44.6	19.0	6.03e-01	0	58	0	248512512	54	5216
2026-01-13 01:10:44.77	23.46	23.73	-41.6	-44.5	19.1	6.03e-01	0	58	0	255852544	54	5159
2026-01-13 01:10:48.80	23.71	24.42	-41.8	-45.0	18.7	6.04e-01	0	58	0	263716864	54	5423
2026-01-13 01:10:52.84	23.97	25.13	-41.6	-44.7	19.0	6.01e-01	0	58	0	271056896	54	5220
2026-01-13 01:10:56.87	24.24	25.86	-41.5	-44.4	19.3	6.03e-01	0	58	0	278396928	54	5090
2026-01-13 01:11:00.91	24.52	26.61	-41.7	-44.7	19.1	6.01e-01	0	58	0	286261248	54	5221
2026-01-13 01:11:04.96	24.82	27.39	-41.4	-44.2	19.6	6.06e-01	0	58	0	293601280	54	4946
2026-01-13 01:11:08.99	25.13	28.19	-41.6	-44.5	19.3	6.04e-01	0	58	0	301465600	54	5118
2026-01-13 01:11:13.03	25.46	29.01	-41.1	-43.7	20.0	6.02e-01	0	58	0	308805632	54	4695
2026-01-13 01:11:17.07	25.81	29.86	-41.2	-44.0	19.9	6.04e-01	0	58	0	316669952	54	4818
2026-01-13 01:11:21.11	26.17	30.74	-41.2	-43.9	19.9	6.06e-01	0	58	0	324009984	54	4781
2026-01-13 01:11:25.15	26.56	31.65	-41.5	-44.3	19.6	6.03e-01	0	59	0	331874304	54	5016
2026-01-13 01:11:29.19	26.96	32.58	-41.3	-44.1	19.8	6.01e-01	0	58	0	339214336	54	4872
2026-01-13 01:11:33.23	27.39	33.55	-41.7	-44.6	19.3	6.03e-01	0	59	0	346554368	54	5208
2026-01-13 01:11:37.26	27.85	34.55	-41.9	-45.0	18.9	6.03e-01	0	59	0	354418688	54	5437
2026-01-13 01:11:41.30	28.34	35.58	-42.3	-45.6	18.3	6.04e-01	0	59	0	361758720	55	5506
2026-01-13 01:11:45.34	28.86	36.64	-42.4	-45.8	18.2	6.04e-01	0	59	0	369623040	55	5607
2026-01-13 01:11:49.38	29.41	37.74	-42.7	-46.2	17.9	6.03e-01	0	59	0	376963072	56	5529
2026-01-13 01:11:53.41	30.00	38.88	-42.9	-46.6	17.4	6.03e-01	0	59	0	384827392	56	5827
2026-01-13 01:11:57.45	30.64	40.06	-42.9	-46.4	17.6	6.02e-01	0	59	0	392167424	56	5712
2026-01-13 01:12:01.49	31.32	41.27	-42.4	-45.7	18.4	6.03e-01	0	59	0	400031744	56	5230
2026-01-13 01:12:05.53	32.06	42.53	-41.8	-44.7	19.3	6.06e-01	0	59	0	407371776	55	4968
2026-01-13 01:12:09.57	32.86	43.82	-41.5	-44.3	19.7	6.03e-01	0	59	0	414711808	55	4750
2026-01-13 01:12:13.60	33.73	45.16	-41.3	-44.0	19.9	6.03e-01	0	59	0	422576128	54	4864
2026-01-13 01:12:17.64	34.68	46.53	-41.3	-44.0	20.0	6.02e-01	0	59	0	429916160	54	4857
2026-01-13 01:12:21.68	35.71	47.95	-41.3	-43.9	20.1	6.03e-01	0	59	0	437780480	54	4792
2026-01-13 01:12:25.72	36.85	49.41	-41.4	-44.1	20.0	6.03e-01	0	59	0	445120512	54	4881
2026-01-13 01:12:29.76	38.10	50.91	-41.0	-43.5	20.5	6.05e-01	0	59	0	452984832	54	4583
2026-01-13 01:12:33.79	39.47	52.44	-41.0	-43.5	20.5	6.05e-01	0	59	0	460324864	53	4866
2026-01-13 01:12:37.83	41.01	54.00	-41.1	-43.7	20.3	6.03e-01	0	59	0	468189184	53	4950
2026-01-13 01:12:41.87	42.72	55.60	-41.4	-44.2	19.9	6.04e-01	0	59	0	475529216	53	5228
2026-01-13 01:12:45.91	44.64	57.21	-42.0	-45.0	19.0	6.03e-01	0	59	0	482869248	54	5464
2026-01-13 01:12:49.94	46.80	58.84	-42.4	-45.6	18.4	6.04e-01	0	59	0	490733568	55	5502
2026-01-13 01:12:53.99	49.25	60.48	-43.1	-46.8	17.3	6.01e-01	0	59	0	498073600	56	5983
2026-01-13 01:12:58.02	52.03	62.10	-43.5	-47.7	16.5	6.04e-01	0	59	0	505937920	57	6207
2026-01-13 01:13:02.06	55.20	63.70	-43.7	-47.9	16.3	6.04e-01	0	59	0	513277952	58	6045
2026-01-13 01:13:06.10	58.84	65.26	-44.1	-49.0	15.2	6.04e-01	0	59	0	521142272	58	6831
2026-01-13 01:13:10.14	63.01	66.75	-44.5	-50.1	14.0	6.06e-01	0	59	0	528482304	59	7308
2026-01-13 01:13:14.17	67.78	68.13	-44.4	-49.7	14.4	6.03e-01	0	59	0	536346624	59	6974
2026-01-13 01:13:18.21	73.22	69.38	-44.3	-49.5	14.6	6.01e-01	0	59	0	543686656	59	6816
2026-01-13 01:13:22.25	79.36	70.44	-44.3	-49.5	14.5	6.05e-01	0	59	0	551026688	59	6876
2026-01-13 01:13:26.29	86.18	71.29	-43.7	-48.1	16.1	6.04e-01	0	59	0	558891008	59	5801
2026-01-13 01:13:30.32	93.55	71.87	-43.3	-47.2	16.9	6.03e-01	0	59	0	566231040	58	5582
2026-01-13 01:13:34.36	101.32	72.15	-43.7	-48.2	15.9	6.02e-01	0	59	0	574095360	58	6253
2026-01-13 01:13:38.40	109.21	72.12	-43.6	-48.0	16.1	6.04e-01	0	59	0	581435392	58	6082
2026-01-13 01:13:42.43	116.90	71.77	-43.3	-47.2	16.9	6.04e-01	0	59	0	589299712	58	5580
2026-01-13 01:13:46.47	124.19	71.13	-43.2	-47.2	16.9	6.03e-01	0	59	0	596639744	58	5544
2026-01-13 01:13:50.51	130.87	70.23	-43.6	-47.9	16.3	6.02e-01	0	60	0	603979776	58	6014
2026-01-13 01:13:54.55	136.87	69.12	-43.7	-48.2	15.9	6.04e-01	0	59	0	611844096	58	6265
2026-01-13 01:13:58.59	142.17	67.84	-43.7	-48.2	16.0	6.04e-01	0	59	0	619184128	58	6206
2026-01-13 01:14:02.60	146.78	66.43	-43.7	-48.1	16.0	6.02e-01	0	59	0	627048448	58	6158
2026-01-13 01:14:06.64	150.84	64.93	-43.6	-47.8	16.4	6.02e-01	0	59	0	634388480	58	5960
2026-01-13 01:14:10.68	154.37	63.35	-42.9	-46.6	17.6	6.04e-01	0	59	0	642252800	57	5473
2026-01-13 01:14:14.72	157.47	61.74	-42.5	-45.9	18.3	6.04e-01	0	59	0	649592832	56	5359
2026-01-13 01:14:18.76	160.18	60.11	-42.5	-45.7	18.4	6.04e-01	0	59	0	656932864	56	5263
2026-01-13 01:14:22.80	162.56	58.47	-42.6	-45.9	18.3	6.05e-01	0	60	0	664797184	56	5377
2026-01-13 01:14:26.83	164.67	56.83	-41.8	-44.7	19.4	6.03e-01	0	59	0	672137216	55	4932
2026-01-13 01:14:30.88	166.55	55.21	-41.3	-44.0	20.1	6.02e-01	0	59	0	680001536	54	4852
2026-01-13 01:14:34.91	168.22	53.62	-41.2	-43.9	20.2	6.04e-01	0	59	0	687341568	54	4769
2026-01-13 01:14:38.95	169.72	52.06	-41.4	-44.1	20.0	6.03e-01	0	59	0	695205888	54	4907
2026-01-13 01:14:42.99	171.07	50.53	-41.6	-44.4	19.7	6.04e-01	0	60	0	702545920	54	5072
2026-01-13 01:14:47.02	172.29	49.04	-42.1	-45.2	18.9	6.04e-01	0	59	0	710410240	54	5574
2026-01-13 01:14:51.06	173.40	47.58	-41.9	-44.9	19.2	6.03e-01	0	60	0	717750272	54	5366
2026-01-13 01:14:55.09	174.41	46.17	-41.7	-44.6	19.4	6.05e-01	0	60	0	725090304	54	5199
2026-01-13 01:14:59.13	175.34	44.80	-41.9	-45.0	19.1	6.03e-01	0	60	0	732954624	54	5417
2026-01-13 01:15:03.17	176.20	43.46	-41.6	-44.5	19.5	6.03e-01	0	60	0	740294656	54	5130
2026-01-13 01:15:07.21	176.98	42.17	-42.1	-45.2	18.8	6.01e-01	0	60	0	748158976	54	5570
2026-01-13 01:15:11.25	177.71	40.92	-42.4	-45.8	18.2	6.03e-01	0	60	0	755499008	55	5604
2026-01-13 01:15:15.28	178.38	39.71	-42.3	-45.6	18.4	6.03e-01	0	59	0	763363328	55	5501
2026-01-13 01:15:19.32	179.01	38.54	-42.3	-45.6	18.3	6.05e-01	0	59	0	770703360	55	5518
2026-01-13 01:15:23.36	179.59	37.40	-42.2	-45.5	18.4	6.01e-01	0	60	0	778043392	55	5420
2026-01-13 01:15:27.40	180.14	36.30	-42.0	-45.2	18.7	6.03e-01	0	60	0	785907712	55	5259
2026-01-13 01:15:31.43	180.65	35.24	-41.5	-44.3	19.5	6.05e-01	0	59	0	793247744	55	4758
2026-01-13 01:15:35.47	181.13	34.21	-41.2	-44.0	19.9	6.04e-01	0	60	0	801112064	54	4841
2026-01-13 01:15:39.51	181.58	33.22	-41.1	-43.7	20.1	6.02e-01	0	60	0	808452096	54	4698
2026-01-13 01:15:43.55	182.00	32.26	-40.9	-43.5	20.3	6.04e-01	0	59	0	816316416	53	4862
2026-01-13 01:15:47.59	182.40	31.32	-40.8	-43.3	20.5	6.02e-01	0	60	0	823656448	53	4726
2026-01-13 01:15:51.63	182.78	30.42	-40.7	-43.2	20.6	6.01e-01	0	60	0	831520768	53	4680
2026-01-13 01:15:55.67	183.14	29.55	-40.9	-43.5	20.3	6.02e-01	0	60	0	838860800	53	4828
2026-01-13 01:15:59.71	183.48	28.70	-41.0	-43.7	20.0	6.04e-01	0	60	0	846200832	53	4964
2026-01-13 01:16:03.74	183.80	27.88	-41.1	-43.8	20.0	6.03e-01	0	60	0	854065152	53	4999
2026-01-13 01:16:07.77	184.11	27.08	-41.2	-44.0	19.7	6.02e-01	0	60	0	861405184	53	5123
2026-01-13 01:16:11.81	184.40	26.31	-41.4	-44.3	19.4	6.01e-01	0	60	0	869269504	53	5282
2026-01-13 01:16:15.85	184.68	25.56	-41.4	-44.4	19.3	6.03e-01	0	60	0	876609536	53	5365
2026-01-13 01:16:19.89	184.95	24.83	-41.4	-44.4	19.3	6.01e-01	0	59	0	884473856	53	5342
2026-01-13 01:16:23.93	185.20	24.12	-41.5	-44.4	19.2	5.99e-01	0	60	0	891813888	53	5382
2026-01-13 01:16:27.97	185.44	23.43	-41.6	-44.7	19.0	6.03e-01	0	60	0	899678208	53	5529
2026-01-13 01:16:32.01	185.68	22.76	-41.6	-44.7	18.9	6.02e-01	0	59	0	907018240	53	5531
2026-01-13 01:16:36.05	185.90	22.11	-41.6	-44.6	18.9	6.02e-01	0	60	0	914358272	53	5517
2026-01-13 01:16:40.09	186.12	21.47	-41.5	-44.5	19.1	6.03e-01	0	60	0	922222592	53	5414
2026-01-13 01:16:44.12	186.32	20.86	-41.4	-44.4	19.1	6.03e-01	0	60	0	929562624	53	5370
2026-01-13 01:16:48.16	186.52	20.25	-41.4	-44.4	19.1	6.00e-01	0	60	0	937426944	53	5359
2026-01-13 01:16:52.20	186.71	19.67	-41.4	-44.3	19.2	6.01e-01	0	60	0	944766976	53	5332
2026-01-13 01:16:56.23	186.90	19.09	-41.3	-44.3	19.2	6.03e-01	0	60	0	952631296	53	5300
2026-01-13 01:17:00.28	187.08	18.53	-41.3	-44.2	19.3	6.02e-01	0	60	0	959971328	53	5242
2026-01-13 01:17:04.32	187.25	17.99	-41.2	-44.1	19.4	6.03e-01	0	60	0	967835648	53	5182
2026-01-13 01:17:08.36	187.41	17.46	-41.2	-44.0	19.4	6.02e-01	0	60	0	975175680	53	5154
2026-01-13 01:17:12.39	187.57	16.94	-41.2	-44.2	19.3	6.01e-01	0	60	0	982515712	53	5232
2026-01-13 01:17:16.44	187.73	16.43	-41.3	-44.3	19.1	6.04e-01	0	60	0	990380032	53	5319
2026-01-13 01:17:20.48	187.88	15.93	-41.4	-44.5	19.0	6.02e-01	0	60	0	997720064	53	5406
2026-01-13 01:17:24.52	188.02	15.45	-41.4	-44.4	19.0	6.01e-01	0	60	0	1005584384	53	5371
2026-01-13 01:17:28.56	188.16	14.97	-41.4	-44.4	19.0	6.03e-01	0	60	0	1012924416	53	5370
2026-01-13 01:17:32.60	188.30	14.50	-41.3	-44.4	19.0	6.01e-01	0	60	0	1020788736	53	5365
2026-01-13 01:17:36.64	188.43	14.05	-41.3	-44.3	19.0	6.05e-01	0	60	0	1028128768	53	5290
2026-01-13 01:17:40.68	188.56	13.60	-41.3	-44.3	19.0	6.02e-01	0	60	0	1035993088	53	5312
2026-01-13 01:17:44.72	188.69	13.16	-41.3	-44.4	18.9	6.04e-01	0	60	0	1043333120	53	5345
2026-01-13 01:17:48.76	188.81	12.73	-41.4	-44.5	18.8	6.03e-01	0	60	0	1050673152	53	5408
2026-01-13 01:17:52.79	188.93	12.31	-41.4	-44.6	18.7	6.02e-01	0	60	0	1058537472	53	5495
2026-01-13 01:17:56.83	189.04	11.90	-41.4	-44.6	18.6	6.02e-01	0	60	0	1065877504	53	5516
2026-01-13 01:18:00.87	189.15	11.49	-41.5	-44.7	18.5	6.02e-01	0	60	0	1073741824	53	5575
2026-01-13 01:18:04.91	189.26	11.09	-41.5	-44.8	18.4	6.05e-01	0	60	0	1081081856	53	5618
2026-01-13 01:18:08.94	189.37	10.70	-41.5	-44.9	18.2	6.01e-01	0	59	0	1088946176	53	5682
2026-01-13 01:18:12.98	189.47	10.32	-41.6	-45.1	18.0	6.04e-01	0	60	0	1096286208	53	5793
2026-01-13 01:18:17.02	189.57	9.94	-41.7	-45.3	17.8	6.04e-01	0	60	0	1104150528	54	5607
2026-01-13 01:18:21.05	189.67	9.57	-42.0	-45.8	17.1	6.05e-01	0	60	0	1111490560	54	5992
2026-01-13 01:18:25.09	189.77	9.20	-41.7	-45.3	17.7	6.02e-01	0	60	0	1118830592	54	5620
2026-01-13 01:18:29.13	189.86	8.84	-41.8	-45.4	17.5	6.02e-01	0	60	0	1126694912	54	5684
2026-01-13 01:18:33.17	189.95	8.49	-41.9	-45.6	17.3	6.03e-01	0	60	0	1134034944	54	5820
2026-01-13 01:18:37.20	190.04	8.14	-41.8	-45.6	17.2	6.02e-01	0	60	0	1141899264	54	5820
2026-01-13 01:18:41.24	190.13	7.79	-45.8	-64.4	3.8	7.46e-01	0	60	104	1145044992	62	31986
2026-01-13 01:18:45.28	190.22	7.46	-46.1	-64.8	3.8	7.44e-01	0	60	104	1145044992	62	33621
2026-01-13 01:18:49.32	190.30	7.12	-46.2	-64.9	3.8	7.49e-01	0	60	104	1145044992	63	31928
2026-01-13 01:18:53.36	190.38	6.79	-46.1	-64.8	3.8	7.47e-01	0	60	104	1145044992	63	31793
2026-01-13 01:18:57.39	190.46	6.47	-46.1	-64.8	3.8	7.44e-01	0	60	104	1145044992	63	31747
2026-01-13 01:19:01.43	190.54	6.15	-46.1	-64.8	3.8	7.46e-01	0	60	104	1145044992	63	31603
2026-01-13 01:19:05.47	190.62	5.83	-46.1	-64.8	3.8	7.44e-01	0	60	104	1145044992	63	31630
2026-01-13 01:19:09.52	190.69	5.52	-46.0	-64.8	3.8	7.42e-01	0	60	104	1145044992	63	31547
2026-01-13 01:19:13.56	190.77	5.21	-46.0	-64.8	3.8	7.47e-01	0	60	104	1145044992	63	31536
2026-01-13 01:19:17.60	190.84	4.91	-46.0	-64.8	3.8	7.43e-01	0	60	104	1145044992	63	31498
2026-01-13 01:19:21.64	190.91	4.61	-46.0	-64.8	3.8	7.43e-01	0	60	104	1145044992	63	31547
2026-01-13 01:19:25.68	190.98	4.31	-46.0	-64.7	3.8	7.42e-01	0	60	104	1145044992	63	31420
2026-01-13 01:19:29.72	191.05	4.02	-46.0	-64.7	3.8	7.43e-01	0	60	104	1145044992	63	31420
2026-01-13 01:19:33.76	191.12	3.73	-46.0	-64.8	3.8	7.43e-01	0	60	104	1145044992	63	31504
2026-01-13 01:19:37.80	191.18	3.45	-46.0	-64.8	3.8	7.45e-01	0	60	104	1145044992	63	31461
2026-01-13 01:19:41.83	191.25	3.16	-46.0	-64.8	3.8	7.41e-01	0	60	104	1145044992	63	31448
2026-01-13 01:19:45.87	191.31	2.89	-46.0	-64.7	3.8	7.45e-01	0	60	104	1145044992	63	31436
2026-01-13 01:19:49.92	191.38	2.61	-46.0	-64.7	3.8	7.43e-01	0	60	104	1145044992	63	31407
2026-01-13 01:19:53.96	191.44	2.34	-46.0	-64.7	3.8	7.45e-01	0	60	104	1145044992	63	31315
2026-01-13 01:19:58.00	191.50	2.07	-46.0	-64.7	3.8	7.43e-01	0	60	104	1145044992	63	31356

#Closed at: 2026-01-13 01:20:01
#Recorded file [1145 MB]: D:/lorett/data/31039_260113_040710.dat