passes_logs/2026/01/13/R2.0S_Moscow/R2.0S_Moscow__20260113_003242_NOAA_20_JPSS-1_rec.log

#Pass ID: 20260113_003242_NOAA 20 (JPSS-1)
#Satellite: NOAA 20 (JPSS-1)
#Configuration: NOAA 20
#almurnet v.1.7.20251203
#Start time: 2026-01-13 00:32:42

#Version: 2.2.20231116
#Station: R2.0S_Moscow
#Location: 37.707566 lon 55.798166 lat
#TLE: 1 43013U 17073A   26012.29914746  .00000087  00000+0  62270-4 0  9997
#TLE: 2 43013  98.7632 313.2670 0001616  43.2193 316.9110 14.19535514422351

#Time	Az	El	Level	Level2	SNR	BER	BlckErr	Temp	State	Recorded	gain1	gain2
2026-01-13 00:32:42.29	12.74	2.01	-40.3	-55.1	3.8	1.49e+00	0	51	0	0	52	19466
2026-01-13 00:32:46.33	12.60	2.26	-40.3	-55.1	3.8	1.49e+00	0	52	104	0	52	19428
2026-01-13 00:32:50.37	12.46	2.52	-40.3	-55.1	3.8	1.49e+00	0	52	104	0	52	19460
2026-01-13 00:32:54.41	12.32	2.77	-40.3	-55.1	3.8	1.49e+00	0	52	104	0	52	19418
2026-01-13 00:32:58.45	12.18	3.03	-40.3	-55.1	3.8	1.49e+00	0	52	104	0	52	19480
2026-01-13 00:33:02.49	12.03	3.29	-40.3	-55.1	3.8	1.49e+00	0	53	104	0	52	19406
2026-01-13 00:33:06.53	11.88	3.55	-40.3	-55.0	3.8	1.49e+00	0	53	104	0	52	19373
2026-01-13 00:33:10.58	11.73	3.81	-40.3	-54.9	3.8	1.49e+00	0	53	104	0	52	19075
2026-01-13 00:33:14.62	11.57	4.08	-40.3	-54.7	3.8	1.49e+00	0	54	104	0	52	18668
2026-01-13 00:33:18.66	11.41	4.35	-40.3	-54.7	3.8	1.49e+00	0	54	104	0	52	18705
2026-01-13 00:33:22.71	11.25	4.62	-40.3	-54.8	3.8	1.49e+00	0	54	104	0	52	18925
2026-01-13 00:33:26.75	11.08	4.90	-40.3	-54.9	3.8	1.49e+00	0	54	104	0	52	19158
2026-01-13 00:33:30.79	10.91	5.17	-40.3	-55.0	3.8	1.49e+00	0	54	104	0	52	19376
2026-01-13 00:33:34.83	10.74	5.45	-40.3	-55.0	3.8	1.49e+00	0	55	104	0	52	19381
2026-01-13 00:33:38.87	10.56	5.73	-40.2	-55.0	3.8	1.49e+00	0	55	104	0	52	19314
2026-01-13 00:33:42.91	10.38	6.02	-40.3	-55.0	3.8	1.49e+00	0	55	104	0	52	19300
2026-01-13 00:33:46.96	10.20	6.30	-40.3	-55.0	3.8	1.49e+00	0	55	104	0	52	19250
2026-01-13 00:33:51.00	10.01	6.60	-40.2	-55.0	3.8	1.49e+00	0	55	104	0	52	19310
2026-01-13 00:33:55.04	9.82	6.89	-40.3	-55.0	3.8	1.49e+00	0	55	104	0	52	19312
2026-01-13 00:33:59.09	9.62	7.19	-40.2	-55.0	3.8	1.49e+00	0	56	104	0	52	19282
2026-01-13 00:34:03.13	9.42	7.48	-40.3	-55.0	3.8	1.49e+00	0	56	104	0	52	19363
2026-01-13 00:34:07.16	9.21	7.79	-40.2	-55.0	3.8	1.49e+00	0	56	104	0	52	19305
2026-01-13 00:34:11.21	9.00	8.09	-40.2	-54.9	3.8	1.49e+00	0	56	104	0	52	19004
2026-01-13 00:34:15.25	8.79	8.40	-40.3	-55.1	3.8	1.49e+00	0	56	104	0	52	19423
2026-01-13 00:34:19.29	8.57	8.71	-40.0	-54.7	3.8	1.49e+00	0	56	104	0	52	18565
2026-01-13 00:34:23.33	8.34	9.03	-40.0	-54.6	3.8	1.49e+00	0	56	104	0	52	18455
2026-01-13 00:34:27.37	8.11	9.35	-40.1	-54.7	3.8	1.49e+00	0	56	104	0	51	19819
2026-01-13 00:34:31.41	7.87	9.67	-40.1	-54.7	3.8	1.49e+00	0	57	104	0	51	19761
2026-01-13 00:34:35.44	7.63	10.00	-40.0	-54.6	3.8	1.49e+00	0	57	104	0	52	18464
2026-01-13 00:34:39.49	7.38	10.33	-40.1	-54.8	3.8	1.49e+00	0	57	104	0	52	18819
2026-01-13 00:34:43.52	7.13	10.66	-40.0	-54.7	3.8	1.49e+00	0	57	104	0	52	18626
2026-01-13 00:34:47.56	6.87	11.00	-40.2	-54.8	3.8	1.49e+00	0	57	104	0	52	18895
2026-01-13 00:34:51.59	6.60	11.35	-40.9	-55.2	3.8	1.49e+00	0	57	104	0	53	18659
2026-01-13 00:34:55.63	6.33	11.69	-41.1	-53.9	3.8	1.49e+00	0	57	104	0	53	16117
2026-01-13 00:34:59.67	6.05	12.04	-42.2	-53.5	4.2	1.36e+00	0	58	0	0	55	13573
2026-01-13 00:35:03.71	5.76	12.40	-41.3	-48.4	7.2	1.59e-01	0	58	0	3145728	54	8001
2026-01-13 00:35:07.75	5.47	12.76	-41.1	-47.3	8.3	4.54e-02	0	58	0	10485760	54	7105
2026-01-13 00:35:11.79	5.17	13.12	-41.2	-47.3	8.4	4.10e-02	0	58	0	17825792	54	7060
2026-01-13 00:35:15.83	4.86	13.49	-41.3	-47.1	8.8	3.18e-02	0	58	0	26214400	54	6946
2026-01-13 00:35:19.87	4.54	13.87	-41.2	-46.7	9.3	1.79e-02	0	58	0	33554432	54	6616
2026-01-13 00:35:23.90	4.21	14.25	-41.4	-47.0	9.2	1.84e-02	0	58	0	40894464	54	6833
2026-01-13 00:35:27.94	3.87	14.63	-41.1	-46.2	10.1	7.47e-03	0	58	0	48234496	54	6206
2026-01-13 00:35:31.98	3.53	15.02	-41.3	-46.2	10.1	8.68e-03	0	58	0	55574528	54	6249
2026-01-13 00:35:36.01	3.17	15.41	-41.5	-46.2	10.4	6.14e-03	0	58	0	63963136	54	6262
2026-01-13 00:35:40.05	2.81	15.81	-41.6	-46.4	10.3	4.79e-03	0	58	0	71303168	54	6415
2026-01-13 00:35:44.09	2.43	16.22	-41.8	-46.8	10.0	7.23e-03	0	59	0	78643200	54	6681
2026-01-13 00:35:48.13	2.05	16.63	-41.8	-46.6	10.2	6.53e-03	0	58	0	85983232	54	6546
2026-01-13 00:35:52.16	1.65	17.04	-41.9	-46.7	10.2	5.50e-03	0	59	0	94371840	54	6628
2026-01-13 00:35:56.20	1.24	17.47	-42.0	-47.0	10.0	6.92e-03	0	59	0	101711872	54	6879
2026-01-13 00:36:00.24	0.82	17.89	-42.2	-47.3	9.7	9.35e-03	0	58	0	109051904	54	7120
2026-01-13 00:36:04.28	0.39	18.33	-42.2	-47.2	9.9	7.97e-03	0	58	0	116391936	54	7000
2026-01-13 00:36:08.31	359.94	18.77	-42.1	-47.0	10.1	6.51e-03	0	59	0	123731968	54	6857
2026-01-13 00:36:12.35	359.48	19.21	-42.2	-47.2	10.0	6.90e-03	0	59	0	132120576	54	6984
2026-01-13 00:36:16.39	359.01	19.66	-42.2	-47.1	10.1	6.75e-03	0	59	0	139460608	54	6921
2026-01-13 00:36:20.43	358.52	20.12	-42.2	-47.2	9.9	8.33e-03	0	59	0	146800640	54	6999
2026-01-13 00:36:24.47	358.01	20.59	-42.1	-47.3	9.7	1.02e-02	0	59	0	154140672	54	7087
2026-01-13 00:36:28.50	357.49	21.05	-42.1	-47.4	9.6	1.16e-02	0	59	0	162529280	54	7141
2026-01-13 00:36:32.54	356.96	21.53	-42.0	-47.3	9.6	1.09e-02	0	59	0	169869312	54	7049
2026-01-13 00:36:36.58	356.40	22.01	-42.0	-47.1	10.0	8.61e-03	0	59	0	177209344	54	6901
2026-01-13 00:36:40.62	355.83	22.50	-42.2	-47.4	9.7	9.51e-03	0	59	0	184549376	55	6760
2026-01-13 00:36:44.65	355.24	23.00	-42.3	-47.3	10.0	6.98e-03	0	59	0	191889408	55	6671
2026-01-13 00:36:48.69	354.63	23.50	-42.2	-47.0	10.3	4.80e-03	0	59	0	200278016	55	6460
2026-01-13 00:36:52.73	354.00	24.01	-42.3	-47.3	10.1	6.31e-03	0	59	0	207618048	55	6648
2026-01-13 00:36:56.77	353.34	24.52	-42.3	-47.3	10.1	7.06e-03	0	59	0	214958080	55	6672
2026-01-13 00:37:00.81	352.67	25.04	-42.4	-47.3	10.1	7.93e-03	0	59	0	222298112	55	6694
2026-01-13 00:37:04.85	351.97	25.56	-42.3	-47.0	10.5	4.49e-03	0	59	0	230686720	55	6448
2026-01-13 00:37:08.89	351.25	26.10	-42.4	-47.1	10.4	4.85e-03	0	59	0	238026752	55	6555
2026-01-13 00:37:12.93	350.50	26.63	-42.4	-47.2	10.4	4.74e-03	0	59	0	245366784	55	6584
2026-01-13 00:37:16.97	349.73	27.17	-42.5	-47.4	10.3	5.11e-03	0	59	0	252706816	55	6732
2026-01-13 00:37:21.01	348.93	27.72	-42.6	-47.5	10.2	6.15e-03	0	59	0	260046848	55	6856
2026-01-13 00:37:25.05	348.10	28.27	-43.0	-48.2	9.7	1.11e-02	0	60	0	268435456	56	6971
2026-01-13 00:37:29.08	347.24	28.83	-43.3	-48.9	9.0	2.49e-02	0	60	0	275775488	57	7126
2026-01-13 00:37:33.12	346.35	29.38	-43.5	-49.4	8.5	3.94e-02	0	60	0	283115520	57	7625
2026-01-13 00:37:37.16	345.43	29.95	-43.8	-50.6	7.3	1.16e-01	0	60	0	290455552	58	8216
2026-01-13 00:37:41.20	344.48	30.51	-44.0	-51.2	6.8	1.66e-01	0	60	0	298844160	58	8801
2026-01-13 00:37:45.24	343.49	31.08	-43.9	-50.7	7.3	1.29e-01	0	59	0	306184192	58	8342
2026-01-13 00:37:49.28	342.46	31.64	-43.8	-50.4	7.6	9.65e-02	0	60	0	313524224	58	8019
2026-01-13 00:37:53.32	341.40	32.21	-43.8	-50.3	7.7	8.19e-02	0	60	0	320864256	58	7933
2026-01-13 00:37:57.36	340.30	32.78	-43.9	-50.7	7.4	1.19e-01	0	60	0	328204288	58	8280
2026-01-13 00:38:01.40	339.16	33.34	-43.8	-50.2	7.9	7.93e-02	0	60	0	336592896	58	7863
2026-01-13 00:38:05.44	337.98	33.90	-43.6	-49.4	8.7	3.80e-02	0	60	0	343932928	58	7204
2026-01-13 00:38:09.48	336.76	34.46	-43.5	-49.0	9.2	2.31e-02	0	60	0	351272960	58	6804
2026-01-13 00:38:13.51	335.50	35.01	-43.2	-48.2	10.0	1.02e-02	0	60	0	358612992	58	6240
2026-01-13 00:38:17.55	334.19	35.55	-43.3	-48.5	9.7	1.19e-02	0	60	0	367001600	58	6466
2026-01-13 00:38:21.60	332.83	36.09	-43.4	-48.8	9.3	1.75e-02	0	60	0	374341632	58	6695
2026-01-13 00:38:25.64	331.43	36.62	-43.5	-49.0	9.1	2.07e-02	0	60	0	381681664	58	6872
2026-01-13 00:38:29.67	329.99	37.13	-43.4	-48.8	9.3	1.95e-02	0	60	0	389021696	58	6696
2026-01-13 00:38:33.71	328.50	37.63	-43.7	-49.4	8.7	3.36e-02	0	60	0	396361728	58	7182
2026-01-13 00:38:37.75	326.97	38.12	-43.7	-49.5	8.6	3.82e-02	0	60	0	404750336	58	7266
2026-01-13 00:38:41.79	325.39	38.59	-43.7	-49.7	8.4	4.54e-02	0	60	0	412090368	58	7379
2026-01-13 00:38:45.83	323.76	39.04	-43.5	-49.0	9.1	2.32e-02	0	60	0	419430400	58	6855
2026-01-13 00:38:49.87	322.09	39.46	-43.1	-47.9	10.3	8.15e-03	0	60	0	426770432	58	6059
2026-01-13 00:38:53.91	320.37	39.87	-42.9	-47.3	10.9	2.45e-03	0	60	0	435159040	57	5967
2026-01-13 00:38:57.95	318.61	40.25	-43.0	-47.6	10.6	2.94e-03	0	60	0	442499072	57	6191
2026-01-13 00:39:01.98	316.82	40.60	-43.2	-48.1	10.1	5.71e-03	0	60	0	449839104	57	6500
2026-01-13 00:39:06.02	314.98	40.92	-42.9	-47.3	10.9	2.50e-03	0	60	0	457179136	57	5958
2026-01-13 00:39:10.06	313.11	41.21	-42.7	-46.8	11.5	1.09e-03	0	60	0	464519168	57	5632
2026-01-13 00:39:14.10	311.20	41.46	-42.6	-46.8	11.5	8.00e-04	0	60	0	472907776	57	5611
2026-01-13 00:39:18.14	309.27	41.68	-42.4	-46.2	12.1	3.58e-04	0	60	0	480247808	56	5556
2026-01-13 00:39:22.17	307.32	41.87	-42.3	-46.1	12.2	1.98e-04	0	60	0	487587840	56	5486
2026-01-13 00:39:26.21	305.34	42.02	-42.5	-46.5	11.8	6.36e-04	0	60	0	494927872	56	5746
2026-01-13 00:39:30.25	303.34	42.13	-42.5	-46.5	11.7	4.42e-04	0	60	0	503316480	56	5736
2026-01-13 00:39:34.29	301.33	42.20	-42.7	-47.0	11.3	1.25e-03	0	60	0	510656512	56	6064
2026-01-13 00:39:38.32	299.33	42.23	-42.8	-47.2	11.0	1.65e-03	0	60	0	517996544	56	6230
2026-01-13 00:39:42.36	297.31	42.22	-43.2	-48.1	10.1	6.81e-03	0	60	0	525336576	56	6886
2026-01-13 00:39:46.40	295.30	42.17	-43.3	-48.3	9.8	1.03e-02	0	60	0	532676608	57	6689
2026-01-13 00:39:50.43	293.30	42.08	-43.4	-48.8	9.3	1.54e-02	0	60	0	541065216	57	7087
2026-01-13 00:39:54.47	291.31	41.96	-43.6	-49.2	8.8	3.13e-02	0	60	0	548405248	57	7454
2026-01-13 00:39:58.51	289.34	41.79	-43.8	-49.9	8.1	5.77e-02	0	60	0	555745280	58	7607
2026-01-13 00:40:02.55	287.39	41.59	-44.1	-51.1	7.0	1.55e-01	0	60	0	563085312	58	8710
2026-01-13 00:40:06.58	285.47	41.35	-44.1	-51.2	6.9	1.40e-01	0	60	0	571473920	58	8804
2026-01-13 00:40:10.62	283.58	41.08	-43.9	-50.2	7.9	9.93e-02	0	60	0	578813952	58	7819
2026-01-13 00:40:14.66	281.72	40.78	-43.3	-48.4	9.7	1.30e-02	0	60	0	586153984	58	6377
2026-01-13 00:40:18.70	279.90	40.44	-43.3	-48.4	9.7	1.10e-02	0	60	0	593494016	58	6359
2026-01-13 00:40:22.73	278.12	40.08	-42.7	-47.0	11.1	2.03e-03	0	60	0	600834048	57	5753
2026-01-13 00:40:26.77	276.37	39.69	-42.9	-47.3	10.6	2.12e-03	0	60	0	609222656	57	5991
2026-01-13 00:40:30.81	274.67	39.27	-42.0	-45.6	12.5	1.47e-04	0	60	0	616562688	56	5203
2026-01-13 00:40:34.85	273.01	38.83	-41.7	-45.2	12.9	4.19e-05	0	60	0	623902720	54	5540
2026-01-13 00:40:38.89	271.40	38.37	-42.0	-45.7	12.3	2.17e-04	0	60	0	631242752	54	5865
2026-01-13 00:40:42.93	269.84	37.90	-41.7	-45.2	12.9	5.03e-05	0	60	0	638582784	54	5533
2026-01-13 00:40:46.96	268.32	37.40	-42.2	-46.2	11.8	2.84e-04	0	60	0	646971392	55	5866
2026-01-13 00:40:51.00	266.85	36.89	-42.1	-46.0	11.9	4.07e-04	0	60	0	654311424	55	5753
2026-01-13 00:40:55.04	265.42	36.37	-42.1	-45.9	12.0	2.68e-04	0	60	0	661651456	55	5702
2026-01-13 00:40:59.08	264.04	35.84	-42.4	-46.5	11.3	1.19e-03	0	60	0	668991488	55	6123
2026-01-13 00:41:03.12	262.70	35.30	-42.2	-46.1	11.9	3.72e-04	0	60	0	677380096	55	5806
2026-01-13 00:41:07.16	261.41	34.75	-42.9	-47.5	10.5	3.48e-03	0	60	0	684720128	56	6434
2026-01-13 00:41:11.20	260.16	34.19	-43.1	-48.1	9.9	7.57e-03	0	60	0	692060160	56	6887
2026-01-13 00:41:15.24	258.95	33.63	-43.3	-48.7	9.3	1.60e-02	0	60	0	699400192	57	6972
2026-01-13 00:41:19.28	257.79	33.06	-43.5	-49.2	8.7	3.35e-02	0	60	0	707788800	57	7422
2026-01-13 00:41:23.32	256.66	32.49	-43.6	-49.4	8.4	3.86e-02	0	60	0	715128832	57	7616
2026-01-13 00:41:27.36	255.57	31.93	-43.8	-50.1	7.8	9.40e-02	0	60	0	722468864	58	7789
2026-01-13 00:41:31.39	254.53	31.36	-43.5	-49.3	8.6	3.63e-02	0	60	0	729808896	58	7054
2026-01-13 00:41:35.43	253.51	30.79	-43.7	-49.9	8.0	7.46e-02	0	60	0	737148928	58	7596
2026-01-13 00:41:39.47	252.54	30.22	-43.5	-49.1	8.8	3.76e-02	0	60	0	745537536	58	6936
2026-01-13 00:41:43.51	251.59	29.66	-43.5	-49.3	8.5	3.77e-02	0	60	0	752877568	58	7102
2026-01-13 00:41:47.55	250.68	29.09	-43.2	-48.5	9.4	1.69e-02	0	60	0	760217600	58	6451
2026-01-13 00:41:51.58	249.80	28.53	-43.0	-47.9	10.0	7.59e-03	0	60	0	767557632	58	6031
2026-01-13 00:41:55.62	248.96	27.98	-43.0	-47.9	10.0	7.72e-03	0	60	0	774897664	58	6030
2026-01-13 00:41:59.66	248.14	27.43	-42.9	-47.8	10.1	6.75e-03	0	60	0	783286272	57	6286
2026-01-13 00:42:03.70	247.34	26.88	-42.8	-47.4	10.4	4.68e-03	0	60	0	790626304	57	6052
2026-01-13 00:42:07.73	246.58	26.34	-42.8	-47.4	10.5	3.76e-03	0	60	0	797966336	57	6030
2026-01-13 00:42:11.77	245.84	25.80	-42.8	-47.5	10.4	4.45e-03	0	60	0	805306368	57	6090
2026-01-13 00:42:15.81	245.12	25.27	-42.9	-47.7	10.2	5.88e-03	0	60	0	813694976	57	6210
2026-01-13 00:42:19.85	244.43	24.75	-42.8	-47.5	10.3	4.46e-03	0	60	0	821035008	57	6119
2026-01-13 00:42:23.89	243.76	24.23	-42.8	-47.5	10.3	5.42e-03	0	60	0	828375040	57	6122
2026-01-13 00:42:27.93	243.12	23.72	-42.8	-47.5	10.4	4.48e-03	0	60	0	835715072	57	6068
2026-01-13 00:42:31.97	242.49	23.21	-42.9	-47.7	10.1	6.23e-03	0	60	0	843055104	57	6210
2026-01-13 00:42:36.00	241.89	22.71	-43.0	-47.9	9.9	9.43e-03	0	60	0	851443712	57	6390
2026-01-13 00:42:40.05	241.30	22.21	-42.9	-47.6	10.2	7.03e-03	0	60	0	858783744	57	6200
2026-01-13 00:42:44.08	240.73	21.73	-42.8	-47.5	10.3	5.10e-03	0	60	0	866123776	57	6108
2026-01-13 00:42:48.12	240.18	21.24	-42.8	-47.6	10.1	6.42e-03	0	60	0	873463808	57	6192
2026-01-13 00:42:52.16	239.65	20.77	-42.9	-48.0	9.8	9.72e-03	0	60	0	881852416	57	6425
2026-01-13 00:42:56.20	239.13	20.30	-42.9	-47.8	9.9	1.11e-02	0	60	0	889192448	57	6335
2026-01-13 00:43:00.24	238.63	19.84	-42.9	-47.9	9.8	9.78e-03	0	60	0	896532480	57	6403
2026-01-13 00:43:04.28	238.15	19.38	-42.9	-47.8	9.9	8.60e-03	0	60	0	903872512	57	6343
2026-01-13 00:43:08.31	237.68	18.93	-42.8	-47.6	10.1	5.74e-03	0	60	0	911212544	57	6174
2026-01-13 00:43:12.35	237.22	18.49	-42.9	-47.9	9.8	9.09e-03	0	60	0	919601152	57	6357
2026-01-13 00:43:16.39	236.78	18.05	-43.0	-48.1	9.5	1.46e-02	0	60	0	926941184	57	6561
2026-01-13 00:43:20.43	236.34	17.62	-42.8	-47.8	9.9	8.88e-03	0	60	0	934281216	57	6288
2026-01-13 00:43:24.47	235.93	17.19	-42.8	-47.7	10.0	7.26e-03	0	60	0	941621248	57	6214
2026-01-13 00:43:28.51	235.52	16.77	-42.8	-47.7	9.9	9.10e-03	0	60	0	950009856	57	6218
2026-01-13 00:43:32.54	235.12	16.35	-42.7	-47.5	10.1	6.39e-03	0	60	0	957349888	57	6115
2026-01-13 00:43:36.58	234.74	15.94	-42.7	-47.7	9.9	7.63e-03	0	60	0	964689920	57	6228
2026-01-13 00:43:40.62	234.36	15.54	-42.8	-47.7	9.9	8.63e-03	0	60	0	972029952	57	6251
2026-01-13 00:43:44.66	234.00	15.14	-42.9	-48.1	9.4	1.62e-02	0	60	0	979369984	57	6566
2026-01-13 00:43:48.70	233.64	14.75	-42.9	-48.2	9.3	1.79e-02	0	61	0	987758592	57	6645
2026-01-13 00:43:52.74	233.30	14.36	-42.8	-48.0	9.5	1.50e-02	0	60	0	995098624	57	6477
2026-01-13 00:43:56.78	232.96	13.98	-42.8	-47.9	9.6	1.43e-02	0	60	0	1002438656	57	6392
2026-01-13 00:44:00.82	232.64	13.60	-42.8	-48.1	9.4	1.68e-02	0	60	0	1009778688	57	6538
2026-01-13 00:44:04.86	232.32	13.22	-43.0	-48.6	8.8	3.05e-02	0	61	0	1018167296	57	6954
2026-01-13 00:44:08.90	232.01	12.86	-43.1	-49.0	8.4	4.62e-02	0	60	0	1025507328	57	7248
2026-01-13 00:44:12.94	231.70	12.49	-43.1	-49.2	8.2	5.27e-02	0	60	0	1032847360	57	7387
2026-01-13 00:44:16.98	231.41	12.13	-43.1	-49.2	8.2	6.19e-02	0	61	0	1040187392	57	7374
2026-01-13 00:44:21.02	231.12	11.78	-43.2	-49.7	7.6	7.78e-02	0	60	0	1047527424	57	7815
2026-01-13 00:44:25.06	230.84	11.43	-43.2	-49.4	7.9	7.14e-02	0	60	0	1055916032	57	7626
2026-01-13 00:44:29.10	230.57	11.08	-43.3	-50.0	7.3	1.19e-01	0	61	0	1063256064	57	8085
2026-01-13 00:44:33.14	230.30	10.74	-43.1	-49.7	7.5	1.05e-01	0	60	0	1070596096	57	7887
2026-01-13 00:44:37.18	230.04	10.40	-43.1	-49.6	7.6	9.63e-02	0	60	0	1077936128	57	7788
2026-01-13 00:44:41.22	229.78	10.07	-43.0	-49.5	7.7	8.66e-02	0	61	0	1086324736	57	7657
2026-01-13 00:44:45.26	229.53	9.74	-43.0	-49.4	7.8	7.78e-02	0	60	0	1093664768	57	7601
2026-01-13 00:44:49.29	229.29	9.41	-43.1	-49.7	7.4	1.06e-01	0	60	0	1101004800	57	7891
2026-01-13 00:44:53.33	229.05	9.09	-43.1	-49.8	7.3	1.27e-01	0	61	0	1108344832	57	7947
2026-01-13 00:44:57.37	228.82	8.77	-43.1	-50.1	7.0	1.63e-01	0	61	0	1115684864	57	8246
2026-01-13 00:45:01.41	228.59	8.46	-43.1	-50.2	6.9	1.73e-01	0	60	0	1124073472	57	8347
2026-01-13 00:45:05.45	228.37	8.15	-43.1	-50.0	7.0	1.45e-01	0	60	0	1131413504	57	8173
2026-01-13 00:45:09.49	228.15	7.84	-44.7	-59.1	3.8	1.49e+00	0	60	104	1135607808	60	19545
2026-01-13 00:45:13.52	227.94	7.53	-45.2	-59.6	3.8	1.49e+00	0	61	104	1135607808	60	20647
2026-01-13 00:45:17.56	227.73	7.23	-45.2	-59.6	3.8	1.49e+00	0	61	104	1135607808	61	19577
2026-01-13 00:45:21.60	227.53	6.93	-45.1	-59.6	3.8	1.49e+00	0	61	104	1135607808	61	19430
2026-01-13 00:45:25.64	227.33	6.64	-45.1	-59.6	3.8	1.49e+00	0	60	104	1135607808	61	19483
2026-01-13 00:45:29.68	227.14	6.34	-45.1	-59.5	3.8	1.49e+00	0	60	104	1135607808	61	19375
2026-01-13 00:45:33.71	226.94	6.06	-45.1	-59.5	3.8	1.49e+00	0	61	104	1135607808	61	19341
2026-01-13 00:45:37.75	226.76	5.77	-45.1	-59.5	3.8	1.49e+00	0	60	104	1135607808	61	19330
2026-01-13 00:45:41.79	226.57	5.49	-45.1	-59.5	3.8	1.49e+00	0	61	104	1135607808	61	19365
2026-01-13 00:45:45.83	226.39	5.20	-45.1	-59.5	3.8	1.49e+00	0	60	104	1135607808	61	19316
2026-01-13 00:45:49.87	226.22	4.93	-45.1	-59.5	3.8	1.49e+00	0	61	104	1135607808	61	19310
2026-01-13 00:45:53.90	226.05	4.65	-45.1	-59.5	3.8	1.49e+00	0	61	104	1135607808	61	19293
2026-01-13 00:45:57.94	225.88	4.38	-45.1	-59.5	3.8	1.49e+00	0	61	104	1135607808	61	19325
2026-01-13 00:46:01.98	225.71	4.11	-45.1	-59.5	3.8	1.49e+00	0	60	104	1135607808	61	19319
2026-01-13 00:46:06.01	225.55	3.84	-45.1	-59.5	3.8	1.49e+00	0	61	104	1135607808	61	19265
2026-01-13 00:46:10.06	225.39	3.57	-45.1	-59.5	3.8	1.49e+00	0	61	104	1135607808	61	19243
2026-01-13 00:46:14.10	225.23	3.31	-45.0	-59.5	3.8	1.49e+00	0	61	104	1135607808	61	19274
2026-01-13 00:46:18.14	225.08	3.05	-45.0	-59.5	3.8	1.49e+00	0	61	104	1135607808	61	19229
2026-01-13 00:46:22.18	224.93	2.79	-45.0	-59.5	3.8	1.49e+00	0	61	104	1135607808	61	19222
2026-01-13 00:46:26.21	224.78	2.53	-45.1	-59.5	3.8	1.49e+00	0	61	104	1135607808	61	19236
2026-01-13 00:46:30.25	224.63	2.28	-45.0	-59.5	3.8	1.49e+00	0	61	104	1135607808	61	19254
2026-01-13 00:46:34.29	224.49	2.03	-45.0	-59.5	3.8	1.49e+00	0	61	104	1135607808	61	19195

#Closed at: 2026-01-13 00:46:36
#Recorded file [1135 MB]: D:/lorett/data/31039_260113_033242.dat