passes_logs/2026/01/13/R2.0S_Moscow/R2.0S_Moscow__20260113_114435_SUOMI_NPP_rec.log

#Pass ID: 20260113_114435_SUOMI NPP
#Satellite: SUOMI NPP
#Configuration: NPP
#almurnet v.1.7.20251203
#Start time: 2026-01-13 11:44:35

#Version: 2.2.20231116
#Station: R2.0S_Moscow
#Location: 37.707566 lon 55.798166 lat
#TLE: 1 37849U 11061A   26012.28456845  .00000093  00000+0  65163-4 0  9999
#TLE: 2 37849  98.7807 314.3566 0002508  68.3553 291.7890 14.19524725736322

#Time	Az	El	Level	Level2	SNR	BER	BlckErr	Temp	State	Recorded	gain1	gain2
2026-01-13 11:44:35.41	214.31	2.02	-44.1	-58.4	3.8	1.49e+00	0	50	0	0	59	19059
2026-01-13 11:44:38.42	214.55	2.17	-44.1	-58.4	3.8	1.49e+00	0	51	104	0	59	19037
2026-01-13 11:44:41.46	214.80	2.33	-44.1	-58.4	3.8	1.49e+00	0	51	104	0	59	19027
2026-01-13 11:44:44.49	215.05	2.49	-44.1	-58.4	3.8	1.49e+00	0	51	104	0	59	19064
2026-01-13 11:44:47.52	215.31	2.65	-44.1	-58.4	3.8	1.49e+00	0	51	104	0	59	18994
2026-01-13 11:44:50.55	215.56	2.81	-44.1	-58.4	3.8	1.49e+00	0	51	104	0	59	19059
2026-01-13 11:44:53.58	215.82	2.97	-44.1	-58.4	3.8	1.49e+00	0	51	104	0	59	18964
2026-01-13 11:44:56.61	216.08	3.13	-44.1	-58.4	3.8	1.49e+00	0	52	104	0	59	18992
2026-01-13 11:44:59.64	216.35	3.30	-44.1	-58.3	3.8	1.49e+00	0	52	104	0	59	18925
2026-01-13 11:45:02.67	216.62	3.46	-44.1	-58.4	3.8	1.49e+00	0	52	104	0	59	18995
2026-01-13 11:45:05.71	216.89	3.62	-44.1	-58.4	3.8	1.49e+00	0	52	104	0	59	19011
2026-01-13 11:45:08.74	217.16	3.78	-44.1	-58.4	3.8	1.49e+00	0	52	104	0	59	19005
2026-01-13 11:45:11.77	217.44	3.95	-44.1	-58.4	3.8	1.49e+00	0	52	104	0	59	19023
2026-01-13 11:45:14.80	217.71	4.11	-44.1	-58.4	3.8	1.49e+00	0	53	104	0	59	18960
2026-01-13 11:45:17.84	218.00	4.28	-44.1	-58.4	3.8	1.49e+00	0	53	104	0	59	18973
2026-01-13 11:45:20.87	218.28	4.44	-44.1	-58.4	3.8	1.49e+00	0	53	104	0	59	19032
2026-01-13 11:45:23.89	218.57	4.61	-44.1	-58.4	3.8	1.49e+00	0	53	104	0	59	19021
2026-01-13 11:45:26.93	218.86	4.77	-44.1	-58.4	3.8	1.49e+00	0	54	104	0	59	18968
2026-01-13 11:45:29.96	219.16	4.94	-44.1	-58.4	3.8	1.49e+00	0	54	104	0	59	18954
2026-01-13 11:45:32.99	219.45	5.11	-44.1	-58.3	3.8	1.49e+00	0	54	104	0	59	18937
2026-01-13 11:45:36.02	219.76	5.27	-44.0	-58.2	3.8	1.49e+00	0	54	104	0	59	18717
2026-01-13 11:45:39.05	220.06	5.44	-44.1	-58.3	3.8	1.49e+00	0	54	104	0	59	18807
2026-01-13 11:45:42.08	220.37	5.61	-44.1	-58.3	3.8	1.49e+00	0	54	104	0	59	18798
2026-01-13 11:45:45.11	220.68	5.78	-44.1	-58.1	3.8	1.49e+00	0	54	104	0	59	18494
2026-01-13 11:45:48.14	220.99	5.94	-44.1	-58.0	3.8	1.49e+00	0	54	104	0	59	18199
2026-01-13 11:45:51.17	221.31	6.11	-44.0	-57.8	3.8	1.49e+00	0	55	104	0	59	17858
2026-01-13 11:45:54.20	221.63	6.28	-44.0	-57.0	3.8	1.49e+00	0	55	104	0	59	16260
2026-01-13 11:45:57.23	221.96	6.45	-43.9	-56.0	4.0	1.49e+00	0	55	104	0	59	14530
2026-01-13 11:46:00.26	222.29	6.62	-43.8	-54.9	4.2	1.45e+00	0	55	0	0	59	12734
2026-01-13 11:46:03.29	222.62	6.79	-43.7	-53.8	4.5	1.05e+00	0	55	0	3145728	59	11245
2026-01-13 11:46:06.32	222.96	6.96	-43.6	-52.6	5.1	6.38e-01	0	55	0	8388608	59	9760
2026-01-13 11:46:09.35	223.30	7.13	-43.5	-52.4	5.2	5.90e-01	0	55	0	14680064	59	9530
2026-01-13 11:46:12.39	223.64	7.30	-43.6	-52.8	5.0	6.72e-01	0	55	0	19922944	58	10543
2026-01-13 11:46:15.41	223.99	7.48	-43.6	-52.8	5.0	7.27e-01	0	55	0	26214400	58	10585
2026-01-13 11:46:18.45	224.34	7.65	-43.3	-51.1	6.1	3.48e-01	0	56	0	31457280	58	8744
2026-01-13 11:46:21.48	224.70	7.82	-43.1	-50.1	6.9	1.56e-01	0	56	0	36700160	58	7802
2026-01-13 11:46:24.51	225.06	7.99	-43.2	-50.7	6.5	2.07e-01	0	56	0	42991616	58	8316
2026-01-13 11:46:27.54	225.43	8.16	-43.4	-51.4	4.4	1.49e+00	0	56	104	46137344	58	8987
2026-01-13 11:46:30.56	225.79	8.34	-43.4	-51.4	5.8	1.37e+00	0	56	104	49283072	58	8994
2026-01-13 11:46:33.59	226.17	8.51	-42.7	-48.4	8.8	3.11e-02	0	56	0	54525952	57	6740
2026-01-13 11:46:36.62	226.54	8.68	-42.6	-48.0	9.3	1.90e-02	0	56	0	59768832	57	6421
2026-01-13 11:46:39.65	226.93	8.85	-42.5	-47.7	9.5	1.35e-02	0	56	0	66060288	56	6610
2026-01-13 11:46:42.67	227.31	9.03	-42.5	-47.7	9.5	1.39e-02	0	56	0	71303168	56	6627
2026-01-13 11:46:45.70	227.70	9.20	-42.7	-48.0	9.2	1.57e-02	0	56	0	76546048	56	6871
2026-01-13 11:46:48.73	228.10	9.37	-42.6	-47.7	9.5	1.79e-02	0	57	0	82837504	56	6644
2026-01-13 11:46:51.76	228.50	9.55	-42.5	-47.6	9.7	1.27e-02	0	57	0	88080384	56	6530
2026-01-13 11:46:54.78	228.90	9.72	-42.6	-47.7	9.6	1.25e-02	0	57	0	94371840	56	6637
2026-01-13 11:46:57.81	229.31	9.89	-42.5	-47.6	9.7	1.19e-02	0	57	0	99614720	56	6559
2026-01-13 11:47:00.84	229.72	10.06	-42.6	-47.9	9.5	1.52e-02	0	57	0	105906176	56	6732
2026-01-13 11:47:03.87	230.14	10.24	-42.7	-48.1	9.3	1.87e-02	0	57	0	111149056	56	6905
2026-01-13 11:47:06.90	230.56	10.41	-42.6	-47.9	9.4	1.84e-02	0	57	0	116391936	56	6795
2026-01-13 11:47:09.93	230.99	10.58	-42.6	-47.6	9.7	1.20e-02	0	57	0	122683392	56	6567
2026-01-13 11:47:12.96	231.42	10.76	-42.6	-47.8	9.6	1.21e-02	0	57	0	127926272	56	6656
2026-01-13 11:47:15.99	231.86	10.93	-42.6	-47.6	9.8	1.10e-02	0	57	0	134217728	56	6552
2026-01-13 11:47:19.01	232.30	11.10	-42.6	-47.5	9.9	1.01e-02	0	57	0	139460608	56	6485
2026-01-13 11:47:22.04	232.75	11.27	-42.5	-47.3	10.1	8.26e-03	0	57	0	144703488	56	6347
2026-01-13 11:47:25.07	233.20	11.44	-42.5	-47.3	10.2	6.48e-03	0	57	0	150994944	56	6283
2026-01-13 11:47:28.10	233.66	11.61	-42.5	-47.2	10.3	5.32e-03	0	57	0	156237824	56	6238
2026-01-13 11:47:31.12	234.12	11.78	-42.6	-47.5	10.0	6.58e-03	0	57	0	162529280	56	6455
2026-01-13 11:47:34.16	234.59	11.95	-42.6	-47.5	10.0	7.38e-03	0	57	0	167772160	56	6493
2026-01-13 11:47:37.19	235.07	12.12	-42.7	-47.7	9.8	1.04e-02	0	57	0	174063616	56	6620
2026-01-13 11:47:40.22	235.55	12.29	-42.7	-47.6	9.9	7.91e-03	0	57	0	179306496	56	6533
2026-01-13 11:47:43.25	236.03	12.46	-42.6	-47.5	10.1	7.11e-03	0	57	0	184549376	56	6430
2026-01-13 11:47:46.27	236.52	12.62	-42.5	-47.1	10.4	5.98e-03	0	57	0	190840832	56	6197
2026-01-13 11:47:49.30	237.01	12.79	-42.5	-47.1	10.4	5.62e-03	0	58	0	196083712	56	6202
2026-01-13 11:47:52.33	237.51	12.96	-42.3	-46.7	10.9	1.94e-03	0	58	0	202375168	56	5861
2026-01-13 11:47:55.36	238.02	13.12	-42.1	-46.3	11.3	1.18e-03	0	58	0	207618048	56	5635
2026-01-13 11:47:58.39	238.53	13.28	-42.3	-46.7	11.0	1.66e-03	0	58	0	212860928	56	5857
2026-01-13 11:48:01.42	239.05	13.45	-42.5	-47.0	10.6	2.77e-03	0	58	0	219152384	56	6093
2026-01-13 11:48:04.45	239.57	13.61	-42.4	-46.8	10.9	2.20e-03	0	58	0	224395264	56	5948
2026-01-13 11:48:07.48	240.10	13.77	-42.2	-46.5	11.2	1.29e-03	0	58	0	230686720	56	5736
2026-01-13 11:48:10.51	240.63	13.93	-42.2	-46.4	11.3	1.35e-03	0	58	0	235929600	56	5693
2026-01-13 11:48:13.53	241.17	14.09	-42.2	-46.5	11.2	1.12e-03	0	58	0	242221056	56	5723
2026-01-13 11:48:16.56	241.72	14.24	-42.4	-46.7	11.0	1.57e-03	0	58	0	247463936	56	5892
2026-01-13 11:48:19.59	242.27	14.40	-42.4	-46.9	10.8	2.15e-03	0	58	0	252706816	56	6000
2026-01-13 11:48:22.62	242.82	14.55	-42.4	-46.7	10.9	2.40e-03	0	58	0	258998272	56	5915
2026-01-13 11:48:25.64	243.38	14.70	-42.3	-46.6	11.1	1.71e-03	0	58	0	264241152	56	5822
2026-01-13 11:48:28.67	243.95	14.85	-42.4	-46.9	10.8	2.01e-03	0	58	0	270532608	56	6008
2026-01-13 11:48:31.70	244.52	15.00	-42.5	-47.1	10.6	4.00e-03	0	58	0	275775488	56	6167
2026-01-13 11:48:34.73	245.10	15.15	-42.5	-47.1	10.6	3.81e-03	0	58	0	281018368	56	6152
2026-01-13 11:48:37.76	245.68	15.29	-42.6	-47.2	10.5	5.38e-03	0	58	0	287309824	56	6235
2026-01-13 11:48:40.79	246.27	15.44	-42.8	-47.7	9.9	9.55e-03	0	59	0	292552704	56	6632
2026-01-13 11:48:43.81	246.87	15.58	-42.8	-47.7	10.0	8.78e-03	0	58	0	298844160	56	6611
2026-01-13 11:48:46.84	247.47	15.72	-42.7	-47.5	10.1	6.53e-03	0	58	0	304087040	56	6477
2026-01-13 11:48:49.87	248.07	15.85	-42.7	-47.6	10.1	6.81e-03	0	58	0	310378496	56	6497
2026-01-13 11:48:52.90	248.68	15.99	-42.8	-47.7	10.1	5.50e-03	0	58	0	315621376	56	6571
2026-01-13 11:48:55.93	249.30	16.12	-42.9	-47.9	9.8	1.03e-02	0	58	0	320864256	56	6795
2026-01-13 11:48:58.96	249.92	16.25	-42.8	-47.8	9.8	9.53e-03	0	58	0	327155712	56	6715
2026-01-13 11:49:01.99	250.55	16.38	-42.7	-47.6	10.1	6.89e-03	0	58	0	332398592	56	6519
2026-01-13 11:49:05.01	251.18	16.50	-43.0	-48.1	9.5	1.35e-02	0	58	0	338690048	56	6946
2026-01-13 11:49:08.04	251.81	16.62	-42.9	-47.9	9.7	1.28e-02	0	59	0	343932928	56	6787
2026-01-13 11:49:11.07	252.46	16.74	-42.8	-47.8	10.0	9.42e-03	0	58	0	349175808	56	6662
2026-01-13 11:49:14.10	253.10	16.86	-42.8	-47.6	10.0	1.00e-02	0	59	0	355467264	56	6546
2026-01-13 11:49:17.13	253.75	16.97	-42.6	-47.2	10.5	4.31e-03	0	59	0	360710144	56	6224
2026-01-13 11:49:20.16	254.41	17.08	-42.7	-47.4	10.3	5.02e-03	0	59	0	367001600	56	6389
2026-01-13 11:49:23.19	255.07	17.19	-42.9	-47.8	9.8	9.18e-03	0	59	0	372244480	56	6718
2026-01-13 11:49:26.21	255.73	17.29	-42.6	-47.2	10.5	3.88e-03	0	58	0	378535936	56	6226
2026-01-13 11:49:29.24	256.40	17.39	-42.5	-46.9	10.9	2.16e-03	0	59	0	383778816	56	5999
2026-01-13 11:49:32.27	257.08	17.49	-42.6	-47.3	10.5	4.46e-03	0	59	0	389021696	56	6288
2026-01-13 11:49:35.30	257.75	17.58	-42.6	-47.1	10.6	3.78e-03	0	59	0	395313152	56	6165
2026-01-13 11:49:38.33	258.44	17.67	-42.5	-47.0	10.7	3.14e-03	0	59	0	400556032	56	6112
2026-01-13 11:49:41.36	259.12	17.76	-42.3	-46.6	11.2	1.79e-03	0	59	0	406847488	56	5792
2026-01-13 11:49:44.38	259.81	17.84	-42.2	-46.3	11.5	7.07e-04	0	59	0	412090368	56	5618
2026-01-13 11:49:47.41	260.50	17.92	-42.5	-47.1	10.6	2.82e-03	0	59	0	417333248	56	6154
2026-01-13 11:49:50.44	261.20	18.00	-42.4	-46.8	11.0	2.20e-03	0	59	0	423624704	56	5941
2026-01-13 11:49:53.47	261.90	18.07	-42.4	-46.8	11.0	1.76e-03	0	59	0	428867584	56	5926
2026-01-13 11:49:56.50	262.60	18.14	-42.2	-46.4	11.5	1.20e-03	0	59	0	435159040	56	5660
2026-01-13 11:49:59.53	263.31	18.20	-42.1	-46.1	11.6	4.68e-04	0	59	0	440401920	56	5505
2026-01-13 11:50:02.55	264.01	18.26	-42.4	-46.6	11.1	1.63e-03	0	59	0	445644800	56	5838
2026-01-13 11:50:05.58	264.72	18.31	-42.1	-46.1	11.7	5.97e-04	0	59	0	451936256	56	5504
2026-01-13 11:50:08.61	265.44	18.36	-42.5	-46.9	10.9	2.12e-03	0	59	0	457179136	56	6037
2026-01-13 11:50:11.64	266.15	18.41	-42.6	-47.2	10.5	3.71e-03	0	59	0	463470592	56	6239
2026-01-13 11:50:14.67	266.87	18.45	-42.6	-47.0	10.7	2.56e-03	0	59	0	468713472	56	6128
2026-01-13 11:50:17.70	267.59	18.49	-42.8	-47.5	10.3	5.26e-03	0	59	0	475004928	56	6462
2026-01-13 11:50:20.73	268.31	18.52	-42.6	-47.1	10.7	2.93e-03	0	59	0	480247808	56	6166
2026-01-13 11:50:23.76	269.03	18.55	-42.8	-47.7	10.0	6.15e-03	0	59	0	485490688	56	6609
2026-01-13 11:50:26.79	269.76	18.58	-42.9	-47.9	9.8	1.12e-02	0	59	0	491782144	56	6777
2026-01-13 11:50:29.82	270.48	18.60	-42.8	-47.7	10.0	8.26e-03	0	59	0	497025024	56	6622
2026-01-13 11:50:32.85	271.21	18.62	-42.9	-47.8	9.9	9.54e-03	0	59	0	503316480	56	6658
2026-01-13 11:50:35.87	271.93	18.63	-42.6	-47.2	10.6	3.55e-03	0	59	0	508559360	56	6221
2026-01-13 11:50:38.90	272.66	18.63	-42.7	-47.4	10.4	4.49e-03	0	59	0	513802240	56	6358
2026-01-13 11:50:41.93	273.38	18.64	-42.6	-47.1	10.6	3.43e-03	0	59	0	520093696	56	6192
2026-01-13 11:50:44.96	274.11	18.64	-42.6	-47.2	10.5	4.03e-03	0	59	0	525336576	56	6217
2026-01-13 11:50:47.99	274.84	18.63	-42.7	-47.5	10.2	6.56e-03	0	59	0	531628032	56	6464
2026-01-13 11:50:51.02	275.56	18.62	-42.8	-47.7	10.0	7.20e-03	0	59	0	536870912	56	6646
2026-01-13 11:50:54.04	276.29	18.60	-42.9	-47.9	9.8	1.06e-02	0	59	0	543162368	56	6738
2026-01-13 11:50:57.07	277.01	18.58	-42.7	-47.3	10.3	5.44e-03	0	59	0	548405248	56	6341
2026-01-13 11:51:00.10	277.73	18.56	-42.4	-46.8	10.9	2.33e-03	0	59	0	553648128	56	5960
2026-01-13 11:51:03.13	278.45	18.53	-42.7	-47.4	10.3	4.55e-03	0	59	0	559939584	56	6399
2026-01-13 11:51:06.16	279.18	18.50	-42.8	-47.7	10.0	6.51e-03	0	59	0	565182464	56	6603
2026-01-13 11:51:09.19	279.89	18.46	-42.9	-48.1	9.5	1.10e-02	0	59	0	571473920	56	6915
2026-01-13 11:51:12.21	280.61	18.42	-43.1	-48.5	9.2	2.08e-02	0	59	0	576716800	56	7213
2026-01-13 11:51:15.24	281.32	18.37	-42.9	-48.2	9.5	1.70e-02	0	59	0	581959680	56	6976
2026-01-13 11:51:18.27	282.04	18.32	-42.8	-47.7	9.9	1.14e-02	0	59	0	588251136	56	6646
2026-01-13 11:51:21.30	282.75	18.27	-42.5	-47.1	10.6	4.47e-03	0	59	0	593494016	56	6174
2026-01-13 11:51:24.32	283.45	18.21	-42.2	-46.4	11.2	1.78e-03	0	59	0	599785472	56	5698
2026-01-13 11:51:27.35	284.16	18.15	-42.1	-46.2	11.5	7.39e-04	0	59	0	605028352	56	5554
2026-01-13 11:51:30.38	284.86	18.08	-42.5	-47.1	10.6	3.22e-03	0	59	0	611319808	56	6143
2026-01-13 11:51:33.41	285.56	18.01	-42.8	-47.7	9.9	7.14e-03	0	59	0	616562688	56	6575
2026-01-13 11:51:36.44	286.25	17.94	-42.8	-47.8	9.8	8.67e-03	0	59	0	621805568	56	6700
2026-01-13 11:51:39.46	286.94	17.86	-42.7	-47.4	10.3	7.22e-03	0	59	0	628097024	56	6379
2026-01-13 11:51:42.49	287.63	17.78	-42.5	-46.9	10.7	2.94e-03	0	59	0	633339904	56	6053
2026-01-13 11:51:45.52	288.32	17.70	-42.7	-47.4	10.2	5.72e-03	0	59	0	639631360	56	6374
2026-01-13 11:51:48.55	289.00	17.61	-42.7	-47.5	10.2	6.39e-03	0	59	0	644874240	56	6424
2026-01-13 11:51:51.58	289.67	17.51	-42.4	-46.9	10.8	3.75e-03	0	59	0	650117120	56	6015
2026-01-13 11:51:54.61	290.35	17.42	-42.3	-46.5	11.1	1.60e-03	0	59	0	656408576	56	5781
2026-01-13 11:51:57.64	291.01	17.32	-42.3	-46.6	11.1	1.90e-03	0	59	0	661651456	56	5808
2026-01-13 11:52:00.67	291.68	17.22	-42.2	-46.4	11.2	1.19e-03	0	59	0	667942912	56	5715
2026-01-13 11:52:03.70	292.34	17.11	-42.2	-46.5	11.2	1.67e-03	0	59	0	673185792	56	5727
2026-01-13 11:52:06.73	292.99	17.00	-42.3	-46.5	11.2	1.06e-03	0	59	0	679477248	56	5765
2026-01-13 11:52:09.76	293.64	16.89	-42.1	-46.2	11.5	1.02e-03	0	59	0	684720128	56	5559
2026-01-13 11:52:12.79	294.29	16.78	-42.2	-46.3	11.3	1.16e-03	0	59	0	689963008	56	5638
2026-01-13 11:52:15.82	294.93	16.66	-42.2	-46.4	11.2	1.20e-03	0	59	0	696254464	56	5689
2026-01-13 11:52:18.84	295.56	16.54	-42.1	-46.3	11.4	1.14e-03	0	59	0	701497344	56	5595
2026-01-13 11:52:21.87	296.19	16.42	-42.2	-46.5	11.1	1.51e-03	0	59	0	707788800	56	5750
2026-01-13 11:52:24.90	296.82	16.29	-42.2	-46.5	11.1	1.63e-03	0	60	0	713031680	56	5770
2026-01-13 11:52:27.93	297.44	16.16	-42.0	-46.0	11.6	7.02e-04	0	60	0	718274560	56	5426
2026-01-13 11:52:30.96	298.05	16.03	-42.0	-46.2	11.2	1.01e-03	0	60	0	724566016	55	5885
2026-01-13 11:52:33.99	298.66	15.90	-42.1	-46.5	10.9	2.09e-03	0	59	0	729808896	55	6100
2026-01-13 11:52:37.02	299.26	15.76	-42.1	-46.4	11.1	1.58e-03	0	59	0	736100352	55	6015
2026-01-13 11:52:40.04	299.86	15.63	-42.3	-46.8	10.6	2.84e-03	0	59	0	741343232	55	6310
2026-01-13 11:52:43.07	300.45	15.49	-42.9	-48.2	9.3	1.19e-02	0	59	0	747634688	56	7000
2026-01-13 11:52:46.10	301.04	15.35	-42.8	-47.9	9.6	1.50e-02	0	59	0	752877568	56	6761
2026-01-13 11:52:49.13	301.62	15.20	-42.5	-47.1	10.4	3.63e-03	0	60	0	758120448	56	6165
2026-01-13 11:52:52.16	302.20	15.06	-42.3	-46.7	10.9	2.17e-03	0	59	0	764411904	56	5876
2026-01-13 11:52:55.19	302.77	14.91	-42.4	-46.9	10.7	2.95e-03	0	60	0	769654784	56	6015
2026-01-13 11:52:58.22	303.34	14.76	-42.6	-47.3	10.2	4.26e-03	0	60	0	775946240	56	6339
2026-01-13 11:53:01.24	303.90	14.61	-42.8	-48.0	9.5	1.26e-02	0	60	0	781189120	56	6846
2026-01-13 11:53:04.27	304.45	14.46	-43.0	-48.7	8.8	2.99e-02	0	59	0	786432000	56	7379
2026-01-13 11:53:07.30	305.00	14.31	-42.9	-48.4	9.1	2.44e-02	0	60	0	792723456	56	7129
2026-01-13 11:53:10.33	305.55	14.15	-42.8	-48.0	9.4	1.54e-02	0	60	0	797966336	56	6857
2026-01-13 11:53:13.36	306.08	13.99	-42.8	-48.1	9.3	1.64e-02	0	60	0	804257792	56	6941
2026-01-13 11:53:16.39	306.62	13.84	-42.7	-47.8	9.6	1.17e-02	0	59	0	809500672	56	6676
2026-01-13 11:53:19.41	307.14	13.68	-42.6	-47.4	10.0	6.93e-03	0	59	0	815792128	56	6413
2026-01-13 11:53:22.44	307.66	13.52	-42.7	-47.8	9.7	8.68e-03	0	60	0	821035008	56	6659
2026-01-13 11:53:25.47	308.18	13.36	-42.8	-48.0	9.5	1.33e-02	0	60	0	826277888	56	6833
2026-01-13 11:53:28.50	308.69	13.20	-42.8	-48.0	9.4	1.64e-02	0	60	0	832569344	56	6824
2026-01-13 11:53:31.53	309.20	13.03	-42.9	-48.3	9.2	2.04e-02	0	60	0	837812224	56	7046
2026-01-13 11:53:34.55	309.69	12.87	-42.7	-47.9	9.5	1.46e-02	0	60	0	844103680	56	6763
2026-01-13 11:53:37.58	310.19	12.71	-42.8	-48.0	9.5	1.47e-02	0	59	0	849346560	56	6817
2026-01-13 11:53:40.61	310.68	12.54	-42.9	-48.3	9.2	1.80e-02	0	60	0	854589440	56	7067
2026-01-13 11:53:43.64	311.16	12.38	-42.9	-48.3	9.1	2.67e-02	0	60	0	860880896	56	7054
2026-01-13 11:53:46.67	311.64	12.21	-42.7	-47.8	9.6	1.46e-02	0	60	0	866123776	56	6708
2026-01-13 11:53:49.70	312.11	12.04	-42.6	-47.5	9.9	8.78e-03	0	60	0	872415232	56	6464
2026-01-13 11:53:52.73	312.58	11.87	-42.6	-47.5	9.9	7.37e-03	0	60	0	877658112	56	6446
2026-01-13 11:53:55.76	313.04	11.71	-42.5	-47.3	10.1	8.64e-03	0	60	0	883949568	56	6309
2026-01-13 11:53:58.79	313.50	11.54	-42.3	-47.0	10.4	5.11e-03	0	60	0	889192448	56	6085
2026-01-13 11:54:01.82	313.95	11.37	-42.4	-47.1	10.3	4.84e-03	0	60	0	894435328	56	6141
2026-01-13 11:54:04.85	314.40	11.20	-42.6	-47.6	9.8	8.26e-03	0	60	0	900726784	56	6526
2026-01-13 11:54:07.88	314.84	11.03	-42.6	-47.6	9.7	1.28e-02	0	60	0	905969664	56	6558
2026-01-13 11:54:10.90	315.28	10.86	-42.3	-46.9	10.4	5.98e-03	0	60	0	912261120	56	6051
2026-01-13 11:54:13.93	315.71	10.69	-42.1	-46.4	11.0	2.28e-03	0	60	0	917504000	56	5696
2026-01-13 11:54:16.96	316.14	10.52	-41.9	-46.3	10.9	1.99e-03	0	60	0	922746880	55	5973
2026-01-13 11:54:19.99	316.56	10.35	-42.0	-46.6	10.6	2.94e-03	0	60	0	929038336	55	6165
2026-01-13 11:54:23.02	316.98	10.18	-42.1	-46.8	10.3	4.00e-03	0	59	0	934281216	55	6315
2026-01-13 11:54:26.05	317.40	10.00	-42.2	-47.0	10.1	5.53e-03	0	60	0	940572672	55	6484
2026-01-13 11:54:29.08	317.80	9.83	-42.3	-47.5	9.6	1.14e-02	0	60	0	945815552	55	6814
2026-01-13 11:54:32.10	318.21	9.66	-42.4	-47.6	9.4	1.82e-02	0	60	0	951058432	55	6927
2026-01-13 11:54:35.13	318.61	9.49	-42.3	-47.3	9.7	1.08e-02	0	60	0	957349888	55	6669
2026-01-13 11:54:38.16	319.00	9.32	-42.1	-46.8	10.2	5.93e-03	0	60	0	962592768	55	6324
2026-01-13 11:54:41.19	319.39	9.15	-42.1	-46.8	10.2	6.42e-03	0	60	0	968884224	55	6347
2026-01-13 11:54:44.22	319.78	8.98	-42.2	-47.3	9.7	1.13e-02	0	60	0	974127104	55	6685
2026-01-13 11:54:47.24	320.16	8.81	-42.4	-47.8	9.1	2.41e-02	0	60	0	980418560	55	7118
2026-01-13 11:54:50.27	320.54	8.64	-42.6	-48.4	8.5	4.05e-02	0	60	0	985661440	55	7564
2026-01-13 11:54:53.30	320.91	8.47	-42.4	-48.0	8.8	3.26e-02	0	60	0	990904320	55	7255
2026-01-13 11:54:56.33	321.28	8.30	-42.4	-48.0	8.9	2.60e-02	0	60	0	997195776	55	7226
2026-01-13 11:54:59.36	321.65	8.12	-42.5	-48.1	8.7	3.14e-02	0	60	0	1002438656	55	7365
2026-01-13 11:55:02.39	322.01	7.95	-44.5	-58.5	3.8	1.47e+00	0	60	104	1006632960	59	19233
2026-01-13 11:55:05.42	322.36	7.78	-45.0	-59.5	3.8	1.49e+00	0	60	104	1006632960	60	20333
2026-01-13 11:55:08.45	322.72	7.61	-45.3	-59.7	3.8	1.49e+00	0	60	104	1006632960	61	19728
2026-01-13 11:55:11.48	323.07	7.45	-45.3	-59.7	3.8	1.49e+00	0	60	104	1006632960	61	19762
2026-01-13 11:55:14.51	323.41	7.28	-45.2	-59.7	3.8	1.49e+00	0	60	104	1006632960	61	19764
2026-01-13 11:55:17.54	323.75	7.11	-45.2	-59.6	3.8	1.49e+00	0	60	104	1006632960	61	19612
2026-01-13 11:55:20.57	324.09	6.94	-45.1	-59.6	3.8	1.49e+00	0	60	104	1006632960	61	19581
2026-01-13 11:55:23.60	324.42	6.77	-45.2	-59.7	3.8	1.49e+00	0	60	104	1006632960	61	19662
2026-01-13 11:55:26.63	324.75	6.60	-45.2	-59.6	3.8	1.49e+00	0	60	104	1006632960	61	19602
2026-01-13 11:55:29.66	325.08	6.43	-45.2	-59.7	3.8	1.49e+00	0	60	104	1006632960	61	19625
2026-01-13 11:55:32.69	325.40	6.27	-45.1	-59.6	3.8	1.49e+00	0	60	104	1006632960	61	19548
2026-01-13 11:55:35.72	325.72	6.10	-45.1	-59.6	3.8	1.49e+00	0	60	104	1006632960	60	20701
2026-01-13 11:55:38.76	326.04	5.93	-45.1	-59.6	3.8	1.49e+00	0	60	104	1006632960	60	20722
2026-01-13 11:55:41.79	326.35	5.77	-45.1	-59.6	3.8	1.49e+00	0	60	104	1006632960	60	20648
2026-01-13 11:55:44.82	326.66	5.60	-44.5	-59.6	3.8	1.49e+00	0	60	104	1006632960	60	20620
2026-01-13 11:55:47.85	326.97	5.43	-45.0	-59.6	3.8	1.49e+00	0	60	104	1006632960	60	20661
2026-01-13 11:55:50.88	327.27	5.27	-45.1	-59.6	3.8	1.49e+00	0	60	104	1006632960	60	20671
2026-01-13 11:55:53.91	327.57	5.10	-45.1	-59.6	3.8	1.49e+00	0	60	104	1006632960	60	20679
2026-01-13 11:55:56.94	327.87	4.94	-45.1	-59.6	3.8	1.49e+00	0	60	104	1006632960	60	20684
2026-01-13 11:55:59.97	328.16	4.78	-45.1	-59.6	3.8	1.49e+00	0	60	104	1006632960	60	20666
2026-01-13 11:56:02.99	328.45	4.61	-45.1	-59.6	3.8	1.49e+00	0	60	104	1006632960	60	20660
2026-01-13 11:56:06.03	328.74	4.45	-45.1	-59.6	3.8	1.49e+00	0	60	104	1006632960	60	20664
2026-01-13 11:56:09.06	329.02	4.29	-45.1	-59.6	3.8	1.49e+00	0	60	104	1006632960	60	20663
2026-01-13 11:56:12.09	329.30	4.13	-45.1	-59.6	3.8	1.49e+00	0	60	104	1006632960	60	20659
2026-01-13 11:56:15.12	329.58	3.96	-45.1	-59.6	3.8	1.49e+00	0	60	104	1006632960	60	20630
2026-01-13 11:56:18.15	329.85	3.80	-45.1	-59.6	3.8	1.49e+00	0	60	104	1006632960	60	20685
2026-01-13 11:56:21.18	330.13	3.64	-45.1	-59.6	3.8	1.49e+00	0	60	104	1006632960	60	20654
2026-01-13 11:56:24.21	330.40	3.48	-45.1	-59.6	3.8	1.49e+00	0	60	104	1006632960	60	20618
2026-01-13 11:56:27.24	330.66	3.32	-45.1	-59.6	3.8	1.49e+00	0	60	104	1006632960	60	20705
2026-01-13 11:56:30.27	330.93	3.16	-45.1	-59.6	3.8	1.49e+00	0	60	104	1006632960	60	20670
2026-01-13 11:56:33.30	331.19	3.00	-45.1	-59.6	3.8	1.49e+00	0	60	104	1006632960	60	20645
2026-01-13 11:56:36.33	331.45	2.84	-45.1	-59.6	3.8	1.49e+00	0	60	104	1006632960	60	20589
2026-01-13 11:56:39.36	331.70	2.69	-45.1	-59.6	3.8	1.49e+00	0	60	104	1006632960	60	20633
2026-01-13 11:56:42.39	331.96	2.53	-45.1	-59.6	3.8	1.49e+00	0	60	104	1006632960	60	20605
2026-01-13 11:56:45.42	332.21	2.37	-45.1	-59.6	3.8	1.49e+00	0	60	104	1006632960	60	20566
2026-01-13 11:56:48.45	332.45	2.21	-45.1	-59.6	3.8	1.49e+00	0	60	104	1006632960	60	20613
2026-01-13 11:56:51.48	332.70	2.06	-45.1	-59.6	3.8	1.49e+00	0	60	104	1006632960	60	20601

#Closed at: 2026-01-13 11:56:53
#Recorded file [1006 MB]: D:/lorett/data/31039_260113_144435.dat