passes_logs/2026/01/13/R2.0S_Moscow/R2.0S_Moscow__20260113_082342_SUOMI_NPP_rec.log

#Pass ID: 20260113_082342_SUOMI NPP
#Satellite: SUOMI NPP
#Configuration: NPP
#almurnet v.1.7.20251203
#Start time: 2026-01-13 08:23:43

#Version: 2.2.20231116
#Station: R2.0S_Moscow
#Location: 37.707566 lon 55.798166 lat
#TLE: 1 37849U 11061A   26012.28456845  .00000093  00000+0  65163-4 0  9999
#TLE: 2 37849  98.7807 314.3566 0002508  68.3553 291.7890 14.19524725736322

#Time	Az	El	Level	Level2	SNR	BER	BlckErr	Temp	State	Recorded	gain1	gain2
2026-01-13 08:23:43.11	113.67	2.04	-34.4	-51.6	4.0	1.50e+00	0	49	0	0	39	27624
2026-01-13 08:23:46.15	113.47	2.22	-39.0	-54.8	3.9	1.49e+00	0	49	104	0	47	25042
2026-01-13 08:23:49.18	113.27	2.39	-38.7	-54.6	3.6	1.50e+00	0	49	104	0	44	29065
2026-01-13 08:23:52.20	113.07	2.56	-35.5	-54.2	3.7	1.50e+00	0	50	104	0	39	37100
2026-01-13 08:23:55.24	112.87	2.74	-40.0	-55.9	3.9	1.50e+00	0	50	104	0	44	34044
2026-01-13 08:23:58.27	112.66	2.91	-35.1	-52.1	3.9	1.50e+00	0	50	104	0	39	29294
2026-01-13 08:24:01.30	112.45	3.09	-39.5	-54.6	4.1	1.49e+00	0	50	104	0	43	31043
2026-01-13 08:24:04.33	112.24	3.27	-35.0	-51.8	4.2	1.50e+00	0	50	104	0	38	29854
2026-01-13 08:24:07.36	112.03	3.45	-34.0	-52.0	4.0	1.50e+00	0	51	104	0	38	30575
2026-01-13 08:24:10.39	111.81	3.63	-32.4	-51.6	3.9	1.50e+00	0	51	104	0	38	29138
2026-01-13 08:24:13.43	111.59	3.81	-32.5	-49.8	4.1	1.50e+00	0	51	104	0	35	28064
2026-01-13 08:24:16.46	111.37	3.99	-38.7	-53.8	4.0	1.50e+00	0	51	104	0	39	35618
2026-01-13 08:24:19.49	111.14	4.17	-38.1	-54.4	3.9	1.49e+00	0	51	104	0	50	20275
2026-01-13 08:24:22.52	110.91	4.35	-36.0	-53.7	3.6	1.50e+00	0	51	104	0	46	23476
2026-01-13 08:24:25.55	110.68	4.53	-39.7	-55.9	4.0	1.49e+00	0	52	104	0	52	21363
2026-01-13 08:24:28.58	110.45	4.72	-33.3	-51.3	3.9	1.50e+00	0	52	104	0	38	28308
2026-01-13 08:24:31.62	110.21	4.90	-33.0	-50.5	4.0	1.50e+00	0	52	104	0	35	30510
2026-01-13 08:24:34.65	109.97	5.09	-35.8	-54.3	4.3	1.50e+00	0	52	104	0	43	29789
2026-01-13 08:24:37.68	109.73	5.27	-31.9	-50.1	3.9	1.50e+00	0	52	104	0	38	24616
2026-01-13 08:24:40.71	109.48	5.46	-40.3	-55.7	4.0	1.50e+00	0	53	104	0	49	24758
2026-01-13 08:24:43.74	109.23	5.65	-34.7	-52.2	3.8	1.50e+00	0	52	104	0	39	29527
2026-01-13 08:24:46.77	108.98	5.84	-32.8	-52.1	4.3	1.50e+00	0	53	104	0	38	30954
2026-01-13 08:24:49.80	108.72	6.03	-34.6	-51.6	3.9	1.50e+00	0	53	104	0	38	29193
2026-01-13 08:24:52.82	108.46	6.22	-36.7	-53.2	3.7	1.49e+00	0	53	104	0	42	27747
2026-01-13 08:24:55.86	108.20	6.41	-36.5	-53.9	3.9	1.50e+00	0	53	104	0	45	25378
2026-01-13 08:24:58.89	107.93	6.60	-36.7	-53.4	4.2	1.50e+00	0	53	104	0	44	25293
2026-01-13 08:25:01.92	107.66	6.79	-30.8	-50.4	4.0	1.50e+00	0	53	104	0	34	31931
2026-01-13 08:25:04.95	107.39	6.99	-38.1	-54.2	4.0	1.50e+00	0	53	104	0	47	23495
2026-01-13 08:25:07.98	107.11	7.18	-31.8	-50.0	3.7	1.50e+00	0	53	104	0	39	22907
2026-01-13 08:25:11.01	106.82	7.38	-33.2	-52.0	3.8	1.50e+00	0	53	104	0	39	28881
2026-01-13 08:25:14.04	106.54	7.57	-40.1	-54.0	4.3	1.49e+00	0	54	104	0	45	25672
2026-01-13 08:25:17.07	106.25	7.77	-37.4	-51.1	3.8	1.48e+00	0	54	104	0	47	16347
2026-01-13 08:25:20.10	105.95	7.97	-33.9	-48.1	4.4	1.47e+00	0	54	104	1048576	38	19601
2026-01-13 08:25:23.13	105.66	8.17	-37.7	-54.3	3.8	1.49e+00	0	54	104	1048576	45	26745
2026-01-13 08:25:26.16	105.35	8.37	-32.2	-49.9	4.2	1.49e+00	0	54	104	1048576	38	24114
2026-01-13 08:25:29.19	105.05	8.57	-24.7	-44.9	4.3	1.47e+00	0	54	0	1048576	21	35760
2026-01-13 08:25:32.22	104.74	8.77	-24.4	-42.9	4.2	1.50e+00	0	54	104	1048576	18	33740
2026-01-13 08:25:35.25	104.42	8.97	-26.7	-42.3	4.0	1.49e+00	0	54	104	1048576	24	22333
2026-01-13 08:25:38.28	104.10	9.17	-30.7	-44.3	4.3	1.49e+00	0	54	104	1048576	29	21193
2026-01-13 08:25:41.30	103.78	9.38	-27.8	-43.4	4.1	1.49e+00	0	55	104	1048576	25	24087
2026-01-13 08:25:44.33	103.45	9.58	-28.4	-45.4	4.1	1.49e+00	0	55	104	1048576	28	25282
2026-01-13 08:25:47.36	103.11	9.79	-28.5	-44.5	4.1	1.49e+00	0	55	104	1048576	30	20448
2026-01-13 08:25:50.39	102.78	9.99	-25.8	-41.4	4.0	1.49e+00	0	54	104	1048576	24	20282
2026-01-13 08:25:53.41	102.43	10.20	-27.7	-42.1	3.9	1.50e+00	0	55	104	1048576	23	23056
2026-01-13 08:25:56.44	102.08	10.40	-30.8	-41.3	4.0	1.50e+00	0	55	104	1048576	20	25241
2026-01-13 08:25:59.47	101.73	10.61	-23.6	-38.9	3.6	1.50e+00	0	55	104	1048576	19	20266
2026-01-13 08:26:02.50	101.37	10.82	-25.4	-40.3	3.9	1.50e+00	0	55	104	1048576	17	26574
2026-01-13 08:26:05.52	101.01	11.03	-25.6	-41.8	4.1	1.50e+00	0	55	104	1048576	20	26705
2026-01-13 08:26:08.54	100.64	11.24	-21.0	-40.1	4.0	1.50e+00	0	55	104	1048576	18	24666
2026-01-13 08:26:11.57	100.27	11.45	-22.6	-41.2	4.0	1.50e+00	0	55	104	1048576	22	22197
2026-01-13 08:26:14.60	99.89	11.66	-21.4	-38.1	3.8	1.50e+00	0	55	104	1048576	17	20663
2026-01-13 08:26:17.63	99.50	11.87	-23.5	-40.5	3.7	1.50e+00	0	56	104	1048576	17	27076
2026-01-13 08:26:20.66	99.11	12.09	-26.9	-45.0	4.2	1.48e+00	0	55	104	1048576	32	19271
2026-01-13 08:26:23.69	98.71	12.30	-22.7	-39.6	3.9	1.49e+00	0	55	104	1048576	17	24666
2026-01-13 08:26:26.71	98.31	12.51	-25.3	-43.5	4.1	1.50e+00	0	56	104	1048576	30	18223
2026-01-13 08:26:29.74	97.90	12.73	-25.5	-43.0	4.1	1.50e+00	0	56	104	1048576	28	19223
2026-01-13 08:26:32.77	97.48	12.94	-36.5	-52.4	3.9	1.49e+00	0	56	104	1048576	49	17028
2026-01-13 08:26:35.80	97.06	13.15	-42.0	-52.8	3.9	1.48e+00	0	56	104	1048576	53	14125
2026-01-13 08:26:38.83	96.63	13.37	-37.0	-52.6	4.3	1.47e+00	0	56	104	1048576	50	16478
2026-01-13 08:26:41.86	96.20	13.58	-40.6	-53.0	4.3	1.47e+00	0	56	104	1048576	50	17131
2026-01-13 08:26:44.89	95.76	13.80	-40.4	-52.3	4.7	1.15e+00	0	56	0	4194304	53	13308
2026-01-13 08:26:47.92	95.31	14.02	-43.1	-51.3	5.7	4.75e-01	0	56	0	9437184	56	10041
2026-01-13 08:26:50.95	94.86	14.23	-42.8	-49.6	7.3	1.83e-01	0	56	0	15728640	56	8180
2026-01-13 08:26:53.98	94.40	14.45	-42.8	-49.5	7.4	9.84e-02	0	56	0	20971520	56	8126
2026-01-13 08:26:57.00	93.93	14.66	-42.6	-48.6	8.2	6.32e-02	0	56	0	26214400	56	7329
2026-01-13 08:27:00.03	93.46	14.88	-42.5	-48.5	8.3	6.38e-02	0	56	0	32505856	56	7274
2026-01-13 08:27:03.06	92.98	15.10	-42.2	-47.5	9.3	1.77e-02	0	56	0	37748736	56	6474
2026-01-13 08:27:06.08	92.49	15.31	-42.3	-48.0	8.8	3.01e-02	0	56	0	44040192	56	6836
2026-01-13 08:27:09.11	91.99	15.53	-42.3	-47.8	9.0	2.93e-02	0	56	0	49283072	56	6684
2026-01-13 08:27:12.15	91.49	15.74	-42.4	-48.2	8.6	3.48e-02	0	56	0	55574528	56	7002
2026-01-13 08:27:15.18	90.98	15.96	-42.2	-47.8	8.9	3.10e-02	0	56	0	60817408	56	6686
2026-01-13 08:27:18.20	90.46	16.17	-41.9	-47.5	8.9	2.62e-02	0	56	0	66060288	55	6872
2026-01-13 08:27:21.23	89.94	16.38	-41.9	-48.1	8.2	4.41e-02	0	56	0	72351744	55	7294
2026-01-13 08:27:24.26	89.40	16.60	-41.9	-48.1	8.1	5.88e-02	0	57	0	77594624	55	7310
2026-01-13 08:27:27.29	88.86	16.81	-42.1	-48.6	7.6	8.49e-02	0	57	0	83886080	55	7762
2026-01-13 08:27:30.32	88.32	17.02	-41.9	-48.6	7.5	1.05e-01	0	57	0	89128960	55	7731
2026-01-13 08:27:33.35	87.76	17.23	-41.7	-48.5	7.4	1.21e-01	0	56	0	94371840	55	7670
2026-01-13 08:27:36.39	87.19	17.44	-41.7	-48.6	7.2	1.14e-01	0	57	0	100663296	55	7753
2026-01-13 08:27:39.41	86.62	17.65	-41.6	-48.0	7.9	9.02e-02	0	57	0	105906176	55	7265
2026-01-13 08:27:42.44	86.05	17.86	-41.8	-48.4	7.5	9.89e-02	0	57	0	112197632	55	7630
2026-01-13 08:27:45.47	85.46	18.07	-41.5	-47.8	8.0	6.94e-02	0	57	0	117440512	55	7089
2026-01-13 08:27:48.50	84.86	18.27	-41.4	-47.7	8.1	5.97e-02	0	57	0	122683392	54	7382
2026-01-13 08:27:51.53	84.26	18.47	-41.4	-47.0	8.9	3.38e-02	0	57	0	128974848	54	6862
2026-01-13 08:27:54.56	83.65	18.68	-41.3	-46.6	9.4	1.61e-02	0	57	0	134217728	54	6556
2026-01-13 08:27:57.59	83.03	18.88	-41.1	-46.2	9.8	1.05e-02	0	57	0	140509184	54	6237
2026-01-13 08:28:00.62	82.40	19.07	-40.9	-45.6	10.5	4.02e-03	0	57	0	145752064	53	6182
2026-01-13 08:28:03.64	81.76	19.27	-41.2	-46.2	9.9	7.76e-03	0	57	0	152043520	53	6643
2026-01-13 08:28:06.67	81.12	19.46	-41.4	-46.8	9.4	1.28e-02	0	57	0	157286400	53	7078
2026-01-13 08:28:09.70	80.46	19.65	-41.5	-47.5	8.6	3.86e-02	0	57	0	162529280	53	7682
2026-01-13 08:28:12.73	79.80	19.84	-41.4	-47.0	9.1	2.19e-02	0	57	0	168820736	53	7229
2026-01-13 08:28:15.76	79.13	20.03	-41.4	-46.7	9.5	1.52e-02	0	57	0	174063616	53	6995
2026-01-13 08:28:18.79	78.46	20.21	-41.2	-46.3	10.0	6.64e-03	0	57	0	180355072	53	6676
2026-01-13 08:28:21.81	77.77	20.39	-41.1	-45.8	10.6	4.50e-03	0	57	0	185597952	53	6326
2026-01-13 08:28:24.84	77.08	20.57	-40.9	-45.3	11.1	1.46e-03	0	57	0	190840832	53	5963
2026-01-13 08:28:27.87	76.38	20.74	-41.0	-45.6	10.8	2.62e-03	0	57	0	197132288	53	6183
2026-01-13 08:28:30.90	75.67	20.91	-41.1	-45.6	11.0	1.63e-03	0	57	0	202375168	53	6165
2026-01-13 08:28:33.92	74.95	21.08	-41.0	-45.4	11.2	1.14e-03	0	57	0	208666624	53	6003
2026-01-13 08:28:36.95	74.23	21.24	-41.2	-45.6	11.1	1.59e-03	0	57	0	213909504	53	6188
2026-01-13 08:28:39.98	73.49	21.40	-41.4	-45.8	11.1	2.20e-03	0	57	0	220200960	53	6311
2026-01-13 08:28:43.01	72.75	21.56	-41.1	-45.3	11.7	6.87e-04	0	57	0	225443840	53	5943
2026-01-13 08:28:46.04	72.00	21.71	-41.2	-45.5	11.4	2.25e-03	0	57	0	230686720	53	6090
2026-01-13 08:28:49.07	71.25	21.86	-41.0	-45.1	11.8	2.97e-03	0	57	0	236978176	53	5809
2026-01-13 08:28:52.09	70.49	22.00	-40.8	-44.6	12.5	2.09e-03	0	57	0	242221056	53	5498
2026-01-13 08:28:55.12	69.72	22.14	-40.7	-44.7	12.2	1.18e-02	0	57	0	248512512	53	5569
2026-01-13 08:28:58.15	68.94	22.27	-40.6	-44.5	12.5	1.27e-02	0	57	0	253755392	53	5423
2026-01-13 08:29:01.18	68.16	22.40	-40.9	-45.3	11.8	1.06e-02	0	57	0	258998272	53	5955
2026-01-13 08:29:04.20	67.38	22.52	-41.7	-45.9	11.5	8.51e-04	0	57	0	265289728	54	6057
2026-01-13 08:29:07.23	66.58	22.64	-42.1	-46.7	10.8	2.36e-03	0	57	0	270532608	54	6583
2026-01-13 08:29:10.26	65.78	22.75	-42.2	-47.0	10.4	7.06e-03	0	57	0	276824064	55	6492
2026-01-13 08:29:13.29	64.97	22.86	-42.2	-46.8	10.7	2.71e-03	0	57	0	282066944	55	6327
2026-01-13 08:29:16.32	64.16	22.96	-40.7	-45.9	11.4	8.91e-03	0	57	0	288358400	52	6800
2026-01-13 08:29:19.35	63.35	23.05	-41.5	-46.1	11.3	8.51e-03	0	57	0	293601280	53	6505
2026-01-13 08:29:22.38	62.52	23.14	-41.9	-46.3	11.2	7.67e-03	0	58	0	298844160	54	6290
2026-01-13 08:29:25.41	61.70	23.22	-42.0	-46.7	10.7	9.63e-03	0	57	0	305135616	54	6643
2026-01-13 08:29:28.44	60.87	23.30	-42.1	-46.6	10.9	5.08e-03	0	57	0	310378496	54	6534
2026-01-13 08:29:31.46	60.04	23.37	-42.3	-47.1	10.4	2.97e-03	0	57	0	316669952	55	6541
2026-01-13 08:29:34.49	59.20	23.43	-42.3	-47.1	10.4	5.13e-03	0	57	0	321912832	55	6545
2026-01-13 08:29:37.52	58.36	23.49	-42.2	-47.0	10.5	3.01e-03	0	57	0	327155712	55	6486
2026-01-13 08:29:40.55	57.51	23.54	-42.5	-47.6	10.0	5.91e-03	0	58	0	333447168	55	6897
2026-01-13 08:29:43.58	56.67	23.59	-42.6	-48.1	9.5	1.47e-02	0	58	0	338690048	55	7291
2026-01-13 08:29:46.61	55.82	23.62	-42.6	-47.8	9.7	1.01e-02	0	58	0	344981504	55	7120
2026-01-13 08:29:49.63	54.97	23.66	-42.1	-46.6	11.0	1.99e-03	0	57	0	350224384	55	6150
2026-01-13 08:29:52.66	54.12	23.68	-41.8	-45.9	11.7	5.83e-04	0	58	0	355467264	55	5706
2026-01-13 08:29:55.69	53.27	23.70	-42.0	-46.6	11.0	1.73e-03	0	57	0	361758720	55	6161
2026-01-13 08:29:58.72	52.41	23.71	-42.0	-46.5	11.1	1.45e-03	0	58	0	367001600	55	6090
2026-01-13 08:30:01.74	51.56	23.71	-42.1	-46.6	11.0	1.68e-03	0	58	0	373293056	55	6170
2026-01-13 08:30:04.78	50.70	23.71	-41.9	-46.0	11.5	8.83e-04	0	57	0	378535936	55	5785
2026-01-13 08:30:07.80	49.85	23.70	-42.0	-46.4	11.3	8.10e-04	0	57	0	384827392	55	6026
2026-01-13 08:30:10.83	49.00	23.68	-41.6	-45.5	12.2	2.49e-04	0	57	0	390070272	55	5419
2026-01-13 08:30:13.86	48.15	23.66	-41.9	-46.1	11.6	4.16e-04	0	58	0	395313152	55	5789
2026-01-13 08:30:16.89	47.30	23.63	-41.5	-45.1	12.6	1.70e-04	0	58	0	401604608	54	5519
2026-01-13 08:30:19.93	46.45	23.59	-41.3	-44.8	12.9	4.42e-05	0	57	0	406847488	54	5325
2026-01-13 08:30:22.96	45.60	23.55	-41.1	-44.4	13.3	1.98e-05	0	57	0	413138944	54	5076
2026-01-13 08:30:25.98	44.76	23.50	-40.9	-44.0	13.7	7.60e-06	0	58	0	418381824	53	5146
2026-01-13 08:30:29.01	43.92	23.44	-41.0	-44.3	13.4	1.44e-05	0	58	0	424673280	53	5309
2026-01-13 08:30:32.04	43.09	23.37	-41.3	-44.8	12.9	2.82e-05	0	57	0	429916160	53	5622
2026-01-13 08:30:35.07	42.25	23.30	-41.4	-45.0	12.7	8.31e-05	0	58	0	435159040	53	5727
2026-01-13 08:30:38.10	41.42	23.23	-41.4	-45.0	12.7	5.64e-05	0	57	0	441450496	53	5774
2026-01-13 08:30:41.13	40.60	23.15	-41.5	-45.1	12.7	6.86e-05	0	58	0	446693376	53	5789
2026-01-13 08:30:44.16	39.78	23.06	-42.0	-46.2	11.5	6.95e-04	0	57	0	452984832	54	6234
2026-01-13 08:30:47.18	38.96	22.96	-41.6	-45.4	12.3	1.89e-04	0	58	0	458227712	54	5690
2026-01-13 08:30:50.21	38.15	22.86	-41.8	-45.7	12.0	2.62e-04	0	58	0	463470592	54	5898
2026-01-13 08:30:53.24	37.35	22.76	-42.2	-46.5	11.2	1.26e-03	0	58	0	469762048	54	6475
2026-01-13 08:30:56.27	36.55	22.65	-42.3	-46.8	10.9	1.73e-03	0	58	0	475004928	55	6314
2026-01-13 08:30:59.30	35.76	22.53	-42.5	-47.5	10.1	6.71e-03	0	58	0	481296384	55	6842
2026-01-13 08:31:02.32	34.97	22.41	-42.4	-47.2	10.4	4.45e-03	0	58	0	486539264	55	6615
2026-01-13 08:31:05.35	34.19	22.28	-42.3	-46.9	10.8	2.52e-03	0	58	0	491782144	55	6348
2026-01-13 08:31:08.38	33.42	22.15	-42.4	-47.2	10.4	3.92e-03	0	58	0	498073600	55	6627
2026-01-13 08:31:11.41	32.65	22.01	-42.5	-47.4	10.2	6.18e-03	0	58	0	503316480	55	6794
2026-01-13 08:31:14.44	31.89	21.87	-42.2	-46.8	10.9	2.93e-03	0	58	0	509607936	55	6339
2026-01-13 08:31:17.46	31.14	21.72	-42.3	-47.0	10.6	3.08e-03	0	58	0	514850816	55	6492
2026-01-13 08:31:20.49	30.39	21.57	-42.1	-46.7	11.0	1.71e-03	0	58	0	521142272	55	6224
2026-01-13 08:31:23.52	29.65	21.42	-42.6	-47.8	9.8	8.83e-03	0	58	0	526385152	55	7091
2026-01-13 08:31:26.55	28.92	21.26	-42.4	-47.2	10.4	4.98e-03	0	58	0	531628032	55	6623
2026-01-13 08:31:29.58	28.20	21.10	-42.3	-47.0	10.7	3.35e-03	0	58	0	537919488	55	6438
2026-01-13 08:31:32.61	27.49	20.93	-42.7	-48.1	9.4	1.37e-02	0	58	0	543162368	55	7350
2026-01-13 08:31:35.64	26.78	20.76	-42.7	-47.9	9.8	2.21e-02	0	58	0	549453824	56	6790
2026-01-13 08:31:38.67	26.08	20.59	-42.2	-46.8	11.0	1.75e-03	0	58	0	554696704	56	5963
2026-01-13 08:31:41.69	25.39	20.41	-41.8	-46.0	11.7	7.06e-04	0	58	0	559939584	55	5777
2026-01-13 08:31:44.73	24.70	20.23	-41.9	-46.2	11.5	7.22e-04	0	58	0	566231040	55	5878
2026-01-13 08:31:47.75	24.03	20.05	-41.8	-45.8	11.8	5.11e-04	0	58	0	571473920	55	5651
2026-01-13 08:31:50.78	23.36	19.86	-41.4	-45.0	12.7	1.10e-04	0	58	0	577765376	54	5450
2026-01-13 08:31:53.81	22.70	19.67	-41.1	-44.5	13.2	1.90e-05	0	58	0	583008256	54	5157
2026-01-13 08:31:56.83	22.05	19.49	-41.6	-45.6	12.1	2.18e-04	0	58	0	589299712	54	5810
2026-01-13 08:31:59.86	21.41	19.29	-42.1	-46.6	11.0	1.75e-03	0	58	0	594542592	54	6547
2026-01-13 08:32:02.89	20.78	19.10	-42.2	-47.0	10.5	3.79e-03	0	58	0	599785472	55	6479
2026-01-13 08:32:05.92	20.15	18.90	-42.0	-46.5	11.2	1.34e-03	0	58	0	606076928	55	6067
2026-01-13 08:32:08.95	19.53	18.70	-41.8	-46.1	11.5	8.96e-04	0	58	0	611319808	55	5817
2026-01-13 08:32:11.98	18.92	18.50	-41.4	-45.3	12.3	2.34e-04	0	58	0	617611264	54	5644
2026-01-13 08:32:15.00	18.32	18.30	-41.5	-45.4	12.2	1.71e-04	0	58	0	622854144	54	5668
2026-01-13 08:32:18.03	17.73	18.09	-41.9	-46.4	11.1	1.17e-03	0	58	0	628097024	54	6407
2026-01-13 08:32:21.06	17.15	17.89	-41.7	-45.9	11.6	9.33e-04	0	58	0	634388480	54	6031
2026-01-13 08:32:24.10	16.57	17.68	-41.9	-46.3	11.2	1.23e-03	0	58	0	639631360	54	6344
2026-01-13 08:32:27.12	16.00	17.47	-42.0	-46.5	11.0	2.48e-03	0	58	0	645922816	54	6460
2026-01-13 08:32:30.15	15.44	17.27	-41.7	-46.0	11.5	9.27e-04	0	58	0	651165696	54	6109
2026-01-13 08:32:33.18	14.89	17.06	-41.6	-45.7	11.8	6.13e-04	0	58	0	657457152	54	5893
2026-01-13 08:32:36.21	14.34	16.84	-41.4	-45.4	12.1	3.12e-04	0	58	0	662700032	54	5689
2026-01-13 08:32:39.24	13.80	16.63	-41.8	-46.1	11.3	8.45e-04	0	58	0	667942912	54	6146
2026-01-13 08:32:42.27	13.27	16.42	-41.7	-45.9	11.4	1.27e-03	0	58	0	674234368	54	6042
2026-01-13 08:32:45.30	12.75	16.21	-41.3	-45.1	12.2	1.88e-04	0	58	0	679477248	54	5481
2026-01-13 08:32:48.33	12.23	15.99	-41.2	-44.9	12.4	1.29e-04	0	58	0	685768704	54	5382
2026-01-13 08:32:51.35	11.73	15.78	-41.3	-45.2	12.1	1.92e-04	0	58	0	691011584	54	5546
2026-01-13 08:32:54.38	11.23	15.57	-41.4	-45.6	11.6	6.48e-04	0	58	0	696254464	54	5791
2026-01-13 08:32:57.41	10.74	15.35	-41.5	-45.6	11.5	8.02e-04	0	58	0	702545920	54	5854
2026-01-13 08:33:00.44	10.25	15.14	-41.2	-45.1	11.9	3.94e-04	0	58	0	707788800	54	5489
2026-01-13 08:33:03.47	9.77	14.92	-41.3	-45.6	11.3	6.74e-04	0	58	0	714080256	54	5792
2026-01-13 08:33:06.50	9.30	14.71	-41.6	-46.2	10.7	4.33e-03	0	58	0	719323136	54	6229
2026-01-13 08:33:09.53	8.83	14.49	-41.7	-46.7	10.0	7.07e-03	0	58	0	725614592	54	6641
2026-01-13 08:33:12.56	8.38	14.28	-41.5	-46.2	10.5	4.26e-03	0	58	0	730857472	54	6243
2026-01-13 08:33:15.58	7.93	14.06	-41.4	-46.0	10.6	5.39e-03	0	58	0	736100352	54	6092
2026-01-13 08:33:18.61	7.48	13.85	-41.0	-45.4	11.1	1.58e-03	0	58	0	742391808	54	5675
2026-01-13 08:33:21.64	7.04	13.63	-41.2	-46.0	10.3	5.94e-03	0	58	0	747634688	53	6479
2026-01-13 08:33:24.66	6.61	13.42	-41.1	-46.2	9.9	7.19e-03	0	58	0	753926144	53	6632
2026-01-13 08:33:27.69	6.19	13.20	-41.3	-47.7	8.1	5.20e-02	0	58	0	759169024	53	7865
2026-01-13 08:33:30.72	5.77	12.99	-40.8	-46.7	8.8	3.84e-02	0	58	0	764411904	53	6992
2026-01-13 08:33:33.75	5.36	12.78	-40.3	-45.3	10.3	5.41e-03	0	58	0	770703360	52	6292
2026-01-13 08:33:36.78	4.95	12.56	-40.4	-45.8	9.5	9.09e-03	0	58	0	775946240	52	6710
2026-01-13 08:33:39.81	4.55	12.35	-41.3	-51.0	4.9	5.42e-01	0	58	0	782237696	53	11471
2026-01-13 08:33:42.84	4.16	12.14	-41.2	-55.3	3.8	1.49e+00	0	58	104	783286272	53	18844
2026-01-13 08:33:45.86	3.77	11.93	-40.9	-55.8	3.8	1.49e+00	0	58	104	783286272	53	19875
2026-01-13 08:33:48.89	3.39	11.72	-40.1	-54.9	3.8	1.49e+00	0	58	104	783286272	52	18972
2026-01-13 08:33:51.92	3.01	11.51	-40.2	-55.0	3.8	1.49e+00	0	58	104	783286272	52	19196
2026-01-13 08:33:54.95	2.64	11.30	-40.1	-54.9	3.8	1.49e+00	0	58	104	783286272	52	19029
2026-01-13 08:33:57.98	2.27	11.09	-40.0	-54.8	3.8	1.49e+00	0	58	104	783286272	51	19875
2026-01-13 08:34:01.01	1.91	10.88	-40.0	-54.8	3.8	1.49e+00	0	58	104	783286272	51	19948
2026-01-13 08:34:04.04	1.55	10.67	-40.3	-55.1	3.8	1.49e+00	0	58	104	783286272	51	20584
2026-01-13 08:34:07.06	1.20	10.46	-40.3	-55.1	3.8	1.49e+00	0	58	104	783286272	51	20740
2026-01-13 08:34:10.09	0.86	10.26	-40.0	-54.9	3.8	1.49e+00	0	58	104	783286272	51	20093
2026-01-13 08:34:13.12	0.51	10.05	-40.1	-54.9	3.8	1.49e+00	0	58	104	783286272	51	20228
2026-01-13 08:34:16.15	0.18	9.85	-39.8	-54.6	3.8	1.49e+00	0	58	104	783286272	51	19553
2026-01-13 08:34:19.17	359.85	9.64	-39.3	-54.6	3.8	1.49e+00	0	58	104	783286272	50	20650
2026-01-13 08:34:22.20	359.52	9.44	-39.5	-54.7	3.8	1.49e+00	0	58	104	783286272	50	20800
2026-01-13 08:34:25.23	359.20	9.24	-39.5	-54.6	3.8	1.49e+00	0	58	104	783286272	50	20654
2026-01-13 08:34:28.26	358.88	9.03	-39.2	-54.6	3.8	1.49e+00	0	58	104	783286272	50	20657
2026-01-13 08:34:31.29	358.57	8.83	-39.7	-54.6	3.8	1.49e+00	0	58	104	783286272	50	20747
2026-01-13 08:34:34.32	358.26	8.63	-39.5	-54.6	3.8	1.49e+00	0	58	104	783286272	50	20543
2026-01-13 08:34:37.35	357.96	8.43	-39.6	-54.6	3.8	1.49e+00	0	59	104	783286272	50	20643
2026-01-13 08:34:40.38	357.66	8.23	-39.0	-54.5	3.8	1.49e+00	0	58	104	783286272	49	21745
2026-01-13 08:34:43.41	357.36	8.04	-39.5	-54.5	3.8	1.49e+00	0	58	104	783286272	49	21634
2026-01-13 08:34:46.44	357.07	7.84	-44.7	-59.2	3.8	1.49e+00	0	58	104	783286272	60	19802
2026-01-13 08:34:49.47	356.79	7.64	-45.2	-59.9	3.8	1.49e+00	0	58	104	783286272	61	20116
2026-01-13 08:34:52.50	356.50	7.45	-45.3	-59.9	3.8	1.49e+00	0	58	104	783286272	61	20156
2026-01-13 08:34:55.53	356.22	7.25	-45.3	-59.9	3.8	1.49e+00	0	58	104	783286272	60	21301
2026-01-13 08:34:58.56	355.95	7.06	-45.2	-59.8	3.8	1.49e+00	0	58	104	783286272	61	19979
2026-01-13 08:35:01.58	355.68	6.86	-45.1	-59.7	3.8	1.49e+00	0	58	104	783286272	61	19691
2026-01-13 08:35:04.61	355.41	6.67	-44.3	-59.5	3.8	1.49e+00	0	58	104	783286272	59	21644
2026-01-13 08:35:07.64	355.15	6.48	-45.1	-59.7	3.8	1.49e+00	0	58	104	783286272	60	20789
2026-01-13 08:35:10.67	354.89	6.29	-45.1	-59.6	3.8	1.49e+00	0	58	104	783286272	60	20738
2026-01-13 08:35:13.70	354.63	6.10	-45.1	-59.6	3.8	1.49e+00	0	58	104	783286272	60	20775
2026-01-13 08:35:16.72	354.38	5.91	-45.1	-59.6	3.8	1.49e+00	0	58	104	783286272	60	20763
2026-01-13 08:35:19.76	354.13	5.72	-45.1	-59.6	3.8	1.49e+00	0	58	104	783286272	60	20761
2026-01-13 08:35:22.78	353.88	5.54	-45.0	-59.6	3.8	1.49e+00	0	58	104	783286272	60	20681
2026-01-13 08:35:25.81	353.64	5.35	-45.1	-59.6	3.8	1.49e+00	0	58	104	783286272	60	20702
2026-01-13 08:35:28.84	353.40	5.16	-45.1	-59.6	3.8	1.49e+00	0	58	104	783286272	60	20675
2026-01-13 08:35:31.87	353.16	4.98	-45.1	-59.6	3.8	1.49e+00	0	58	104	783286272	60	20657
2026-01-13 08:35:34.90	352.92	4.79	-45.0	-59.6	3.8	1.49e+00	0	58	104	783286272	60	20623
2026-01-13 08:35:37.93	352.69	4.61	-45.1	-59.6	3.8	1.49e+00	0	58	104	783286272	60	20646
2026-01-13 08:35:40.96	352.47	4.43	-45.1	-59.6	3.8	1.49e+00	0	58	104	783286272	60	20700
2026-01-13 08:35:43.99	352.24	4.25	-45.1	-59.6	3.8	1.49e+00	0	58	104	783286272	60	20648
2026-01-13 08:35:47.02	352.02	4.07	-45.0	-59.6	3.8	1.49e+00	0	58	104	783286272	60	20611
2026-01-13 08:35:50.05	351.80	3.89	-45.1	-59.6	3.8	1.49e+00	0	58	104	783286272	60	20657
2026-01-13 08:35:53.08	351.58	3.71	-45.1	-59.6	3.8	1.49e+00	0	58	104	783286272	60	20652
2026-01-13 08:35:56.11	351.37	3.53	-45.0	-59.6	3.8	1.49e+00	0	58	104	783286272	60	20598
2026-01-13 08:35:59.14	351.16	3.35	-43.8	-59.5	3.8	1.49e+00	0	58	104	783286272	60	20501
2026-01-13 08:36:02.17	350.95	3.17	-45.1	-59.6	3.8	1.49e+00	0	58	104	783286272	60	20582
2026-01-13 08:36:05.20	350.75	3.00	-45.1	-59.6	3.8	1.49e+00	0	58	104	783286272	60	20566
2026-01-13 08:36:08.23	350.54	2.82	-45.0	-59.6	3.8	1.49e+00	0	58	104	783286272	60	20587
2026-01-13 08:36:11.26	350.34	2.65	-45.0	-59.6	3.8	1.49e+00	0	58	104	783286272	60	20621
2026-01-13 08:36:14.29	350.14	2.47	-45.0	-59.6	3.8	1.49e+00	0	58	104	783286272	60	20591
2026-01-13 08:36:17.33	349.95	2.30	-45.1	-59.6	3.8	1.49e+00	0	58	104	783286272	60	20540
2026-01-13 08:36:20.36	349.76	2.13	-45.0	-59.6	3.8	1.49e+00	0	58	104	783286272	60	20604
2026-01-13 08:36:23.38	349.57	1.96	-45.0	-59.6	3.8	1.49e+00	0	58	104	783286272	60	20560

#Closed at: 2026-01-13 08:36:24
#Recorded file [783 MB]: D:/lorett/data/31039_260113_112342.dat