passes_logs/2026/01/13/R2.0S_Moscow/R2.0S_Moscow__20260113_160954_FENGYUN_3E_rec.log

#Pass ID: 20260113_160954_FENGYUN 3E
#Satellite: FENGYUN 3E
#Configuration: FENGYUN 3E
#almurnet v.1.7.20251203
#Start time: 2026-01-13 16:09:55

#Version: 2.2.20231116
#Station: R2.0S_Moscow
#Location: 37.707566 lon 55.798166 lat
#TLE: 1 49008U 21062A   26012.89166517 -.00000229  00000+0 -86979-4 0  9993
#TLE: 2 49008  98.7492  18.0449 0001954 141.1957 218.9360 14.19884302234542

#Time	Az	El	Level	Level2	SNR	BER	BlckErr	Temp	State	Recorded	gain1	gain2
2026-01-13 16:09:55.00	221.73	2.03	-44.5	-55.4	3.8	8.45e-01	0	51	0	0	59	12770
2026-01-13 16:09:58.03	222.01	2.18	-44.5	-55.4	3.8	8.45e-01	0	51	104	0	59	12800
2026-01-13 16:10:01.06	222.28	2.33	-44.5	-55.4	3.8	8.45e-01	0	51	104	0	59	12754
2026-01-13 16:10:04.09	222.56	2.48	-44.5	-55.4	3.8	8.47e-01	0	52	104	0	59	12799
2026-01-13 16:10:07.12	222.84	2.62	-44.5	-55.4	3.8	8.46e-01	0	52	104	0	59	12792
2026-01-13 16:10:10.16	223.13	2.77	-44.5	-55.4	3.8	8.47e-01	0	52	104	0	59	12786
2026-01-13 16:10:13.19	223.41	2.92	-44.5	-55.5	3.8	8.46e-01	0	52	104	0	59	12829
2026-01-13 16:10:16.22	223.70	3.07	-44.5	-55.4	3.8	8.46e-01	0	52	104	0	59	12772
2026-01-13 16:10:19.25	224.00	3.22	-44.5	-55.4	3.8	8.46e-01	0	53	104	0	59	12776
2026-01-13 16:10:22.28	224.29	3.37	-44.5	-55.4	3.8	8.46e-01	0	53	104	0	59	12759
2026-01-13 16:10:25.30	224.59	3.52	-44.5	-55.4	3.8	8.45e-01	0	53	104	0	59	12775
2026-01-13 16:10:28.33	224.89	3.67	-44.5	-55.4	3.8	8.46e-01	0	53	104	0	59	12751
2026-01-13 16:10:31.37	225.19	3.82	-44.5	-55.5	3.8	8.46e-01	0	53	104	0	59	12813
2026-01-13 16:10:34.40	225.50	3.97	-44.5	-55.4	3.8	8.47e-01	0	54	104	0	59	12748
2026-01-13 16:10:37.43	225.81	4.13	-44.5	-55.4	3.8	8.47e-01	0	54	104	0	59	12744
2026-01-13 16:10:40.46	226.12	4.28	-44.5	-55.4	3.8	8.46e-01	0	54	104	0	59	12729
2026-01-13 16:10:43.49	226.44	4.43	-44.5	-55.4	3.8	8.46e-01	0	54	104	0	59	12723
2026-01-13 16:10:46.52	226.76	4.58	-44.5	-55.4	3.8	8.46e-01	0	54	104	0	59	12737
2026-01-13 16:10:49.55	227.08	4.73	-44.5	-55.4	3.8	8.47e-01	0	55	104	0	59	12730
2026-01-13 16:10:52.58	227.41	4.88	-44.5	-55.4	3.8	8.46e-01	0	55	104	0	59	12742
2026-01-13 16:10:55.61	227.74	5.03	-44.5	-55.4	3.8	8.46e-01	0	55	104	0	59	12773
2026-01-13 16:10:58.63	228.07	5.19	-44.5	-55.4	3.8	8.47e-01	0	55	104	0	59	12704
2026-01-13 16:11:01.66	228.41	5.34	-44.5	-55.4	3.8	8.46e-01	0	55	104	0	59	12712
2026-01-13 16:11:04.70	228.75	5.49	-44.5	-55.4	3.8	8.46e-01	0	55	104	0	59	12745
2026-01-13 16:11:07.73	229.09	5.64	-44.5	-55.4	3.8	8.46e-01	0	56	104	0	59	12697
2026-01-13 16:11:10.76	229.44	5.79	-44.5	-55.3	3.8	8.47e-01	0	56	104	0	59	12624
2026-01-13 16:11:13.79	229.79	5.95	-44.5	-55.3	3.8	8.46e-01	0	56	104	0	59	12564
2026-01-13 16:11:16.82	230.14	6.10	-44.4	-55.2	3.8	8.46e-01	0	56	104	0	59	12386
2026-01-13 16:11:19.85	230.50	6.25	-44.4	-55.0	3.8	8.45e-01	0	56	104	0	59	12211
2026-01-13 16:11:22.89	230.86	6.40	-44.4	-55.0	3.8	8.44e-01	0	56	104	0	59	12157
2026-01-13 16:11:25.92	231.22	6.55	-44.3	-54.3	3.8	8.46e-01	0	56	104	0	59	11230
2026-01-13 16:11:28.95	231.59	6.70	-44.0	-52.1	4.1	8.39e-01	0	56	0	0	59	8710
2026-01-13 16:11:31.98	231.96	6.86	-43.6	-49.9	5.0	7.87e-01	0	57	0	0	58	7186
2026-01-13 16:11:35.02	232.34	7.01	-43.1	-48.3	6.0	3.57e-01	0	56	0	9437184	57	6312
2026-01-13 16:11:38.05	232.72	7.16	-42.6	-47.1	7.1	1.49e-01	0	57	0	31457280	56	5809
2026-01-13 16:11:41.08	233.10	7.31	-42.6	-47.2	6.9	1.67e-01	0	56	0	53477376	56	5912
2026-01-13 16:11:44.11	233.49	7.46	-43.0	-48.3	6.0	3.33e-01	0	57	0	75497472	56	6710
2026-01-13 16:11:47.14	233.88	7.61	-42.6	-47.1	7.1	1.84e-01	0	57	0	97517568	56	5796
2026-01-13 16:11:50.18	234.28	7.76	-41.0	-44.0	9.9	1.16e-02	0	57	0	119537664	53	4870
2026-01-13 16:11:53.21	234.67	7.91	-40.5	-43.1	11.0	2.10e-03	0	57	0	141557760	51	4917
2026-01-13 16:11:56.24	235.08	8.06	-44.1	-51.3	4.5	8.42e-01	0	57	0	157286400	58	8373
2026-01-13 16:11:59.27	235.48	8.21	-43.9	-51.6	4.2	8.35e-01	0	57	0	164626432	57	9278
2026-01-13 16:12:02.30	235.89	8.36	-39.5	-41.7	12.6	8.46e-05	0	57	0	185597952	49	4672
2026-01-13 16:12:05.33	236.31	8.51	-39.2	-41.3	13.0	2.97e-05	0	57	0	207618048	49	4454
2026-01-13 16:12:08.36	236.73	8.66	-39.5	-41.7	12.6	1.52e-04	0	57	0	229638144	49	4674
2026-01-13 16:12:11.39	237.15	8.81	-39.5	-41.7	12.7	1.04e-04	0	58	0	251658240	49	4657
2026-01-13 16:12:14.42	237.58	8.95	-39.4	-41.5	12.9	6.17e-05	0	58	0	273678336	49	4571
2026-01-13 16:12:17.45	238.01	9.10	-39.2	-41.3	13.1	3.89e-05	0	58	0	294649856	49	4446
2026-01-13 16:12:20.48	238.45	9.25	-39.4	-41.5	12.9	7.89e-05	0	58	0	316669952	49	4573
2026-01-13 16:12:23.51	238.89	9.39	-39.2	-41.2	13.2	2.28e-05	0	58	0	338690048	49	4407
2026-01-13 16:12:26.54	239.33	9.54	-39.1	-41.1	13.3	1.60e-05	0	58	0	360710144	49	4347
2026-01-13 16:12:29.57	239.78	9.68	-39.1	-41.1	13.3	2.05e-05	0	58	0	382730240	49	4357
2026-01-13 16:12:32.60	240.23	9.83	-39.0	-40.9	13.6	1.48e-05	0	58	0	404750336	48	4510
2026-01-13 16:12:35.63	240.69	9.97	-39.1	-41.1	13.4	9.10e-06	0	58	0	426770432	48	4618
2026-01-13 16:12:38.67	241.15	10.11	-39.2	-41.2	13.2	2.97e-05	0	58	0	448790528	48	4701
2026-01-13 16:12:41.69	241.62	10.25	-39.2	-41.1	13.3	1.48e-05	0	58	0	469762048	48	4650
2026-01-13 16:12:44.73	242.09	10.39	-39.1	-41.0	13.5	8.00e-06	0	59	0	491782144	48	4593
2026-01-13 16:12:47.76	242.56	10.53	-39.1	-41.0	13.5	2.17e-05	0	58	0	513802240	48	4583
2026-01-13 16:12:50.79	243.04	10.67	-39.0	-40.9	13.6	9.10e-06	0	58	0	535822336	48	4530
2026-01-13 16:12:53.81	243.52	10.81	-39.0	-40.9	13.6	5.70e-06	0	59	0	557842432	48	4531
2026-01-13 16:12:56.84	244.01	10.95	-38.8	-40.7	13.9	9.10e-06	0	58	0	579862528	48	4396
2026-01-13 16:12:59.87	244.50	11.08	-38.7	-40.5	14.0	0.00e+00	0	58	0	601882624	48	4326
2026-01-13 16:13:02.90	245.00	11.22	-38.7	-40.5	14.1	2.20e-06	0	59	0	622854144	48	4295
2026-01-13 16:13:05.93	245.50	11.35	-38.7	-40.5	14.0	2.20e-06	0	59	0	644874240	48	4339
2026-01-13 16:13:08.96	246.00	11.48	-38.7	-40.5	14.1	2.20e-06	0	59	0	666894336	48	4292
2026-01-13 16:13:11.99	246.51	11.61	-38.5	-40.3	14.3	0.00e+00	0	59	0	688914432	48	4208
2026-01-13 16:13:15.02	247.03	11.74	-38.4	-40.2	14.2	3.40e-06	0	59	0	710934528	47	4433
2026-01-13 16:13:18.05	247.55	11.87	-38.6	-40.4	14.0	2.20e-06	0	59	0	731906048	47	4506
2026-01-13 16:13:21.08	248.07	11.99	-38.5	-40.2	14.2	1.10e-06	0	59	0	753926144	47	4441
2026-01-13 16:13:24.11	248.60	12.12	-38.4	-40.1	14.3	0.00e+00	0	59	0	775946240	47	4385
2026-01-13 16:13:27.14	249.13	12.24	-38.2	-39.9	14.5	1.10e-06	0	59	0	797966336	47	4278
2026-01-13 16:13:30.17	249.66	12.36	-38.3	-40.0	14.4	0.00e+00	0	59	0	819986432	47	4325
2026-01-13 16:13:33.20	250.20	12.48	-38.1	-39.8	14.7	0.00e+00	0	59	0	842006528	47	4215
2026-01-13 16:13:36.23	250.75	12.60	-38.1	-39.8	14.6	0.00e+00	0	59	0	864026624	47	4235
2026-01-13 16:13:39.26	251.30	12.72	-38.2	-39.8	14.6	0.00e+00	0	59	0	886046720	47	4234
2026-01-13 16:13:42.28	251.85	12.83	-38.2	-39.9	14.6	0.00e+00	0	59	0	907018240	47	4265
2026-01-13 16:13:45.31	252.40	12.94	-38.1	-39.7	14.7	2.20e-06	0	59	0	929038336	47	4187
2026-01-13 16:13:48.34	252.96	13.06	-38.0	-39.7	14.8	0.00e+00	0	59	0	951058432	47	4157
2026-01-13 16:13:51.37	253.53	13.16	-38.1	-39.9	14.6	0.00e+00	0	59	0	973078528	47	4246
2026-01-13 16:13:54.40	254.10	13.27	-38.1	-39.8	14.6	0.00e+00	0	59	0	995098624	47	4242
2026-01-13 16:13:57.43	254.67	13.37	-38.1	-39.8	14.7	0.00e+00	0	59	0	1017118720	47	4209
2026-01-13 16:14:00.44	255.24	13.48	-38.2	-39.9	14.6	1.10e-06	0	59	0	1038090240	47	4252
2026-01-13 16:14:03.47	255.82	13.58	-38.0	-39.7	14.8	0.00e+00	0	59	0	1060110336	46	4421
2026-01-13 16:14:06.50	256.41	13.67	-37.8	-39.5	15.0	0.00e+00	0	59	0	1082130432	46	4300
2026-01-13 16:14:09.53	257.00	13.77	-38.0	-39.6	14.9	0.00e+00	0	59	0	1104150528	46	4376
2026-01-13 16:14:12.56	257.59	13.86	-38.0	-39.6	14.9	1.10e-06	0	59	0	1126170624	46	4383
2026-01-13 16:14:15.59	258.18	13.95	-38.1	-39.8	14.8	0.00e+00	0	59	0	1148190720	46	4442
2026-01-13 16:14:18.61	258.78	14.04	-38.0	-39.7	14.8	0.00e+00	0	59	0	1170210816	46	4417
2026-01-13 16:14:21.64	259.38	14.12	-38.0	-39.7	14.8	0.00e+00	0	59	0	1191182336	46	4420
2026-01-13 16:14:24.67	259.99	14.21	-38.0	-39.7	14.8	0.00e+00	0	59	0	1213202432	46	4417
2026-01-13 16:14:27.70	260.59	14.29	-38.1	-39.7	14.8	1.10e-06	0	59	0	1235222528	46	4441
2026-01-13 16:14:30.73	261.21	14.36	-37.9	-39.5	15.0	0.00e+00	0	59	0	1257242624	46	4332
2026-01-13 16:14:33.76	261.82	14.44	-38.0	-39.6	14.9	1.10e-06	0	60	0	1279262720	46	4370
2026-01-13 16:14:36.80	262.44	14.51	-37.9	-39.5	15.0	0.00e+00	0	59	0	1301282816	46	4309
2026-01-13 16:14:39.83	263.06	14.58	-37.9	-39.5	15.0	0.00e+00	0	60	0	1323302912	46	4339
2026-01-13 16:14:42.85	263.68	14.64	-38.0	-39.6	14.9	1.10e-06	0	60	0	1345323008	46	4377
2026-01-13 16:14:45.88	264.31	14.71	-37.6	-39.2	15.4	0.00e+00	0	60	0	1366294528	46	4154
2026-01-13 16:14:48.91	264.93	14.76	-37.7	-39.2	15.3	0.00e+00	0	60	0	1388314624	46	4187
2026-01-13 16:14:51.94	265.56	14.82	-37.7	-39.3	15.2	0.00e+00	0	60	0	1410334720	46	4221
2026-01-13 16:14:54.97	266.20	14.87	-37.7	-39.3	15.3	0.00e+00	0	60	0	1432354816	46	4210
2026-01-13 16:14:58.00	266.83	14.92	-37.7	-39.3	15.3	0.00e+00	0	60	0	1454374912	46	4214
2026-01-13 16:15:01.03	267.47	14.97	-37.6	-39.2	15.4	0.00e+00	0	59	0	1476395008	46	4158
2026-01-13 16:15:04.06	268.11	15.02	-37.7	-39.3	15.2	0.00e+00	0	60	0	1498415104	46	4235
2026-01-13 16:15:07.09	268.75	15.06	-37.7	-39.3	15.3	0.00e+00	0	60	0	1519386624	46	4200
2026-01-13 16:15:10.12	269.39	15.09	-37.7	-39.3	15.3	0.00e+00	0	60	0	1541406720	46	4205
2026-01-13 16:15:13.15	270.03	15.13	-37.9	-39.5	15.1	0.00e+00	0	60	0	1563426816	46	4317
2026-01-13 16:15:16.18	270.68	15.16	-37.9	-39.5	15.0	0.00e+00	0	60	0	1585446912	46	4338
2026-01-13 16:15:19.21	271.32	15.18	-37.8	-39.3	15.2	0.00e+00	0	60	0	1607467008	46	4242
2026-01-13 16:15:22.24	271.97	15.21	-37.6	-39.2	15.3	0.00e+00	0	60	0	1628438528	46	4172
2026-01-13 16:15:25.27	272.62	15.23	-37.7	-39.3	15.3	0.00e+00	0	60	0	1650458624	46	4200
2026-01-13 16:15:28.30	273.26	15.25	-37.8	-39.3	15.2	0.00e+00	0	60	0	1672478720	46	4240
2026-01-13 16:15:31.33	273.91	15.26	-37.8	-39.4	15.2	0.00e+00	0	60	0	1694498816	46	4247
2026-01-13 16:15:34.36	274.56	15.27	-37.8	-39.3	15.1	0.00e+00	0	60	0	1716518912	46	4241
2026-01-13 16:15:37.39	275.21	15.28	-37.7	-39.2	15.3	0.00e+00	0	60	0	1738539008	46	4184
2026-01-13 16:15:40.43	275.86	15.28	-37.7	-39.3	15.2	0.00e+00	0	60	0	1760559104	46	4221
2026-01-13 16:15:43.45	276.51	15.28	-37.9	-39.5	15.0	1.10e-06	0	60	0	1782579200	46	4314
2026-01-13 16:15:46.49	277.16	15.28	-37.7	-39.3	15.2	0.00e+00	0	60	0	1803550720	46	4234
2026-01-13 16:15:49.52	277.81	15.27	-37.7	-39.2	15.3	0.00e+00	0	60	0	1825570816	46	4189
2026-01-13 16:15:52.55	278.46	15.26	-37.7	-39.2	15.3	0.00e+00	0	60	0	1847590912	46	4190
2026-01-13 16:15:55.58	279.11	15.24	-37.6	-39.2	15.3	0.00e+00	0	60	0	1869611008	46	4160
2026-01-13 16:15:58.61	279.76	15.23	-37.7	-39.3	15.2	0.00e+00	0	60	0	1891631104	46	4203
2026-01-13 16:16:01.63	280.40	15.21	-37.8	-39.4	15.1	0.00e+00	0	60	0	1913651200	46	4284
2026-01-13 16:16:04.66	281.05	15.18	-37.8	-39.4	15.1	0.00e+00	0	60	0	1935671296	46	4276
2026-01-13 16:16:07.69	281.70	15.15	-37.8	-39.4	15.1	0.00e+00	0	60	0	1956642816	46	4266
2026-01-13 16:16:10.72	282.34	15.12	-37.9	-39.6	14.9	0.00e+00	0	60	0	1978662912	46	4347
2026-01-13 16:16:13.75	282.98	15.09	-37.8	-39.4	15.1	1.10e-06	0	60	0	2000683008	46	4264
2026-01-13 16:16:16.78	283.62	15.05	-37.7	-39.3	15.1	0.00e+00	0	60	0	2022703104	46	4214
2026-01-13 16:16:19.81	284.26	15.01	-37.8	-39.4	15.0	0.00e+00	0	60	0	2044723200	46	4276
2026-01-13 16:16:22.84	284.90	14.97	-37.7	-39.3	15.1	0.00e+00	0	60	0	2066743296	46	4231
2026-01-13 16:16:25.87	285.53	14.92	-37.7	-39.3	15.1	0.00e+00	0	60	0	2088763392	46	4226
2026-01-13 16:16:28.90	286.17	14.87	-37.8	-39.5	14.9	0.00e+00	0	60	0	2109734912	46	4309
2026-01-13 16:16:31.93	286.80	14.81	-37.9	-39.6	14.7	1.10e-06	0	60	0	2131755008	46	4370
2026-01-13 16:16:34.95	287.42	14.76	-37.8	-39.5	14.8	0.00e+00	0	60	0	2153775104	46	4296
2026-01-13 16:16:37.98	288.05	14.70	-38.0	-39.7	14.6	1.10e-06	0	60	0	2175795200	46	4416
2026-01-13 16:16:41.01	288.67	14.64	-38.0	-39.8	14.6	0.00e+00	0	60	0	2197815296	46	4459
2026-01-13 16:16:44.04	289.29	14.57	-38.0	-39.8	14.5	0.00e+00	0	60	0	2219835392	46	4449
2026-01-13 16:16:47.07	289.91	14.50	-38.0	-39.7	14.6	0.00e+00	0	60	0	2241855488	46	4420
2026-01-13 16:16:50.11	290.53	14.43	-38.0	-39.7	14.6	2.20e-06	0	60	0	2263875584	46	4392
2026-01-13 16:16:53.13	291.14	14.36	-37.8	-39.5	14.8	0.00e+00	0	61	0	2284847104	46	4322
2026-01-13 16:16:56.16	291.75	14.28	-37.7	-39.4	14.8	0.00e+00	0	60	0	2306867200	46	4247
2026-01-13 16:16:59.19	292.35	14.20	-37.6	-39.3	14.8	0.00e+00	0	60	0	2328887296	46	4220
2026-01-13 16:17:02.22	292.96	14.12	-37.7	-39.4	14.7	0.00e+00	0	60	0	2350907392	46	4254
2026-01-13 16:17:05.25	293.56	14.03	-37.6	-39.3	14.8	0.00e+00	0	60	0	2372927488	46	4197
2026-01-13 16:17:08.28	294.15	13.94	-37.7	-39.4	14.6	1.10e-06	0	60	0	2394947584	46	4265
2026-01-13 16:17:11.31	294.75	13.85	-37.8	-39.5	14.5	0.00e+00	0	60	0	2416967680	46	4308
2026-01-13 16:17:14.34	295.33	13.76	-37.7	-39.4	14.5	0.00e+00	0	60	0	2437939200	46	4280
2026-01-13 16:17:17.37	295.92	13.67	-37.6	-39.3	14.8	0.00e+00	0	60	0	2459959296	46	4194
2026-01-13 16:17:20.40	296.50	13.57	-37.7	-39.4	14.8	0.00e+00	0	60	0	2481979392	46	4247
2026-01-13 16:17:23.43	297.08	13.47	-37.7	-39.4	14.8	0.00e+00	0	60	0	2503999488	46	4255
2026-01-13 16:17:26.45	297.65	13.37	-38.0	-39.7	14.6	0.00e+00	0	60	0	2526019584	46	4412
2026-01-13 16:17:29.49	298.22	13.26	-38.2	-39.9	14.3	2.20e-06	0	60	0	2548039680	46	4545
2026-01-13 16:17:32.52	298.79	13.16	-38.3	-40.1	14.3	4.50e-06	0	60	0	2569011200	46	4612
2026-01-13 16:17:35.55	299.35	13.05	-38.3	-40.1	14.2	2.20e-06	0	61	0	2591031296	46	4645
2026-01-13 16:17:38.58	299.91	12.94	-38.3	-40.1	14.3	1.10e-06	0	60	0	2613051392	46	4599
2026-01-13 16:17:41.61	300.46	12.83	-38.4	-40.3	14.1	4.50e-06	0	60	0	2635071488	46	4713
2026-01-13 16:17:44.64	301.01	12.72	-38.4	-40.2	14.1	2.20e-06	0	61	0	2657091584	46	4676
2026-01-13 16:17:47.67	301.56	12.60	-38.5	-40.4	13.9	4.50e-06	0	60	0	2679111680	46	4770
2026-01-13 16:17:50.70	302.10	12.48	-38.4	-40.3	14.1	2.20e-06	0	60	0	2700083200	46	4710
2026-01-13 16:17:53.73	302.64	12.36	-38.4	-40.2	14.1	1.10e-06	0	60	0	2722103296	46	4658
2026-01-13 16:17:56.76	303.17	12.24	-38.3	-40.1	14.2	4.50e-06	0	60	0	2744123392	46	4608
2026-01-13 16:17:59.79	303.70	12.12	-38.5	-40.4	13.9	6.80e-06	0	60	0	2766143488	46	4784
2026-01-13 16:18:02.82	304.22	12.00	-38.4	-40.2	14.1	4.50e-06	0	60	0	2788163584	46	4702
2026-01-13 16:18:05.85	304.74	11.87	-38.3	-40.1	14.2	3.40e-06	0	60	0	2810183680	46	4616
2026-01-13 16:18:08.88	305.26	11.74	-38.5	-40.3	14.0	0.00e+00	0	60	0	2832203776	46	4745
2026-01-13 16:18:11.91	305.77	11.62	-38.8	-40.8	13.4	1.37e-05	0	60	0	2854223872	47	4736
2026-01-13 16:18:14.94	306.28	11.49	-38.8	-40.8	13.5	1.37e-05	0	61	0	2875195392	47	4717
2026-01-13 16:18:17.97	306.78	11.36	-38.8	-40.8	13.5	1.14e-05	0	60	0	2897215488	47	4735
2026-01-13 16:18:21.00	307.28	11.22	-38.7	-40.7	13.6	1.14e-05	0	60	0	2919235584	47	4671
2026-01-13 16:18:24.03	307.77	11.09	-38.8	-40.7	13.5	6.80e-06	0	60	0	2941255680	47	4689
2026-01-13 16:18:27.06	308.26	10.96	-38.6	-40.4	13.8	2.20e-06	0	61	0	2963275776	47	4533
2026-01-13 16:18:30.09	308.75	10.82	-38.7	-40.6	13.6	6.80e-06	0	61	0	2985295872	47	4630
2026-01-13 16:18:33.12	309.23	10.68	-39.0	-41.0	13.2	2.40e-05	0	61	0	3007315968	47	4821
2026-01-13 16:18:36.15	309.70	10.55	-38.9	-40.9	13.3	2.86e-05	0	61	0	3028287488	47	4779
2026-01-13 16:18:39.18	310.18	10.41	-39.0	-41.0	13.1	3.66e-05	0	60	0	3050307584	47	4866
2026-01-13 16:18:42.21	310.64	10.27	-39.0	-41.0	13.2	2.86e-05	0	61	0	3072327680	47	4854
2026-01-13 16:18:45.24	311.11	10.13	-39.1	-41.1	13.1	3.77e-05	0	60	0	3094347776	47	4910
2026-01-13 16:18:48.27	311.57	9.99	-39.1	-41.1	13.1	4.00e-05	0	61	0	3116367872	47	4911
2026-01-13 16:18:51.31	312.02	9.85	-39.1	-41.2	13.0	4.00e-05	0	61	0	3138387968	47	4930
2026-01-13 16:18:54.34	312.47	9.70	-39.3	-41.4	12.9	4.23e-05	0	61	0	3160408064	48	4760
2026-01-13 16:18:57.37	312.92	9.56	-39.1	-41.1	13.2	2.63e-05	0	61	0	3182428160	48	4614
2026-01-13 16:19:00.40	313.36	9.42	-39.0	-41.0	13.2	4.11e-05	0	61	0	3204448256	48	4591
2026-01-13 16:19:03.43	313.80	9.27	-39.0	-41.0	13.3	3.43e-05	0	61	0	3225419776	48	4553
2026-01-13 16:19:06.46	314.23	9.13	-39.4	-41.5	12.7	7.20e-05	0	61	0	3247439872	48	4866
2026-01-13 16:19:09.49	314.66	8.98	-39.5	-41.7	12.5	1.26e-04	0	61	0	3269459968	48	4970
2026-01-13 16:19:12.52	315.09	8.84	-39.7	-41.9	12.3	2.25e-04	0	61	0	3291480064	49	4808
2026-01-13 16:19:15.55	315.51	8.69	-39.6	-41.8	12.4	1.84e-04	0	61	0	3313500160	49	4744
2026-01-13 16:19:18.58	315.93	8.54	-39.7	-42.0	12.2	2.36e-04	0	60	0	3335520256	49	4819
2026-01-13 16:19:21.61	316.34	8.40	-39.7	-42.0	12.2	3.38e-04	0	60	0	3357540352	49	4827
2026-01-13 16:19:24.64	316.75	8.25	-39.3	-41.5	12.7	8.46e-05	0	61	0	3378511872	49	4552
2026-01-13 16:19:27.67	317.15	8.10	-39.1	-41.1	13.0	3.20e-05	0	61	0	3400531968	49	4386
2026-01-13 16:19:30.70	317.55	7.95	-44.9	-55.7	3.8	8.47e-01	0	61	104	3414163456	59	13215
2026-01-13 16:19:33.72	317.95	7.81	-45.4	-56.6	3.8	8.46e-01	0	61	104	3414163456	60	13729
2026-01-13 16:19:36.76	318.35	7.66	-45.6	-56.8	3.8	8.45e-01	0	61	104	3414163456	60	14064
2026-01-13 16:19:39.79	318.73	7.51	-45.5	-56.7	3.8	8.46e-01	0	61	104	3414163456	60	13958
2026-01-13 16:19:42.81	319.12	7.36	-45.5	-56.7	3.8	8.46e-01	0	61	104	3414163456	60	13919
2026-01-13 16:19:45.84	319.50	7.21	-45.5	-56.6	3.8	8.47e-01	0	61	104	3414163456	60	13851
2026-01-13 16:19:48.87	319.88	7.06	-45.5	-56.6	3.8	8.45e-01	0	61	104	3414163456	60	13867
2026-01-13 16:19:51.90	320.25	6.91	-45.4	-56.6	3.8	8.45e-01	0	61	104	3414163456	60	13840
2026-01-13 16:19:54.92	320.62	6.76	-45.5	-56.6	3.8	8.46e-01	0	61	104	3414163456	60	13827
2026-01-13 16:19:57.95	320.99	6.61	-45.4	-56.6	3.8	8.46e-01	0	61	104	3414163456	60	13787
2026-01-13 16:20:00.98	321.35	6.46	-45.4	-56.6	3.8	8.46e-01	0	61	104	3414163456	60	13767
2026-01-13 16:20:04.01	321.71	6.31	-45.4	-56.6	3.8	8.45e-01	0	61	104	3414163456	60	13802
2026-01-13 16:20:07.04	322.07	6.16	-45.4	-56.6	3.8	8.46e-01	0	61	104	3414163456	60	13805
2026-01-13 16:20:10.07	322.42	6.01	-45.4	-56.6	3.8	8.46e-01	0	61	104	3414163456	60	13784
2026-01-13 16:20:13.09	322.77	5.86	-45.4	-56.6	3.8	8.46e-01	0	61	104	3414163456	60	13767
2026-01-13 16:20:16.12	323.12	5.71	-45.4	-56.6	3.8	8.46e-01	0	61	104	3414163456	60	13759
2026-01-13 16:20:19.15	323.46	5.56	-45.4	-56.6	3.8	8.45e-01	0	61	104	3414163456	60	13806
2026-01-13 16:20:22.18	323.80	5.41	-45.4	-56.6	3.8	8.46e-01	0	61	104	3414163456	60	13737
2026-01-13 16:20:25.21	324.13	5.26	-45.4	-56.6	3.8	8.46e-01	0	61	104	3414163456	60	13835
2026-01-13 16:20:28.24	324.47	5.11	-45.3	-56.5	3.8	8.46e-01	0	61	104	3414163456	60	13714
2026-01-13 16:20:31.26	324.79	4.96	-45.4	-56.6	3.8	8.47e-01	0	61	104	3414163456	60	13775
2026-01-13 16:20:34.29	325.12	4.81	-45.4	-56.6	3.8	8.45e-01	0	61	104	3414163456	60	13749
2026-01-13 16:20:37.32	325.44	4.66	-45.4	-56.6	3.8	8.45e-01	0	61	104	3414163456	60	13759
2026-01-13 16:20:40.35	325.76	4.51	-45.4	-56.6	3.8	8.45e-01	0	61	104	3414163456	60	13818
2026-01-13 16:20:43.38	326.08	4.36	-45.4	-56.5	3.8	8.46e-01	0	61	104	3414163456	60	13723
2026-01-13 16:20:46.41	326.39	4.21	-45.4	-56.6	3.8	8.46e-01	0	61	104	3414163456	60	13746
2026-01-13 16:20:49.44	326.70	4.06	-45.4	-56.6	3.8	8.46e-01	0	61	104	3414163456	60	13735
2026-01-13 16:20:52.47	327.01	3.91	-45.4	-56.6	3.8	8.46e-01	0	61	104	3414163456	60	13758
2026-01-13 16:20:55.50	327.31	3.76	-45.4	-56.5	3.8	8.46e-01	0	61	104	3414163456	60	13705
2026-01-13 16:20:58.53	327.62	3.62	-45.3	-56.6	3.8	8.45e-01	0	61	104	3414163456	60	13779
2026-01-13 16:21:01.56	327.92	3.47	-45.4	-56.5	3.8	8.46e-01	0	61	104	3414163456	60	13725
2026-01-13 16:21:04.59	328.21	3.32	-45.4	-56.6	3.8	8.46e-01	0	61	104	3414163456	60	13738
2026-01-13 16:21:07.62	328.50	3.17	-45.4	-56.6	3.8	8.46e-01	0	61	104	3414163456	60	13786
2026-01-13 16:21:10.65	328.79	3.02	-45.4	-56.6	3.8	8.46e-01	0	61	104	3414163456	60	13746
2026-01-13 16:21:13.68	329.08	2.88	-45.4	-56.5	3.8	8.46e-01	0	61	104	3414163456	60	13723
2026-01-13 16:21:16.71	329.37	2.73	-45.4	-56.5	3.8	8.46e-01	0	61	104	3414163456	60	13721
2026-01-13 16:21:19.74	329.65	2.58	-45.3	-56.6	3.8	8.46e-01	0	61	104	3414163456	60	13733
2026-01-13 16:21:22.77	329.93	2.43	-45.4	-56.6	3.8	8.47e-01	0	61	104	3414163456	60	13743
2026-01-13 16:21:25.80	330.20	2.29	-45.4	-56.5	3.8	8.46e-01	0	61	104	3414163456	60	13723
2026-01-13 16:21:28.82	330.48	2.14	-45.4	-56.6	3.8	8.47e-01	0	61	104	3414163456	60	13787
2026-01-13 16:21:31.85	330.75	2.00	-45.4	-56.5	3.8	8.46e-01	0	61	104	3414163456	60	13723

#Closed at: 2026-01-13 16:21:33
#Recorded file [3414 MB]: D:/lorett/data/31039_260113_190954.dat