passes_logs/2026/01/13/R2.0S_Moscow/R2.0S_Moscow__20260113_223335_NOAA_20_JPSS-1_rec.log

#Pass ID: 20260113_223335_NOAA 20 (JPSS-1)
#Satellite: NOAA 20 (JPSS-1)
#Configuration: NOAA 20
#almurnet v.1.7.20251203
#Start time: 2026-01-13 22:33:35

#Version: 2.2.20231116
#Station: R2.0S_Moscow
#Location: 37.707566 lon 55.798166 lat
#TLE: 1 43013U 17073A   26013.21545503  .00000073  00000+0  55630-4 0  9998
#TLE: 2 43013  98.7633 314.1737 0001580  41.9966 318.1331 14.19535680422486

#Time	Az	El	Level	Level2	SNR	BER	BlckErr	Temp	State	Recorded	gain1	gain2
2026-01-13 22:33:35.37	22.24	1.97	-42.6	-57.4	3.8	1.49e+00	0	52	0	0	57	19126
2026-01-13 22:33:39.41	22.46	2.20	-42.4	-57.2	3.8	1.49e+00	0	52	104	0	55	20981
2026-01-13 22:33:43.45	22.68	2.44	-42.4	-57.2	3.8	1.49e+00	0	52	104	0	55	20965
2026-01-13 22:33:47.49	22.91	2.68	-42.4	-57.2	3.8	1.49e+00	0	52	104	0	55	20962
2026-01-13 22:33:51.53	23.13	2.93	-42.4	-57.2	3.8	1.49e+00	0	53	104	0	55	20911
2026-01-13 22:33:55.58	23.36	3.17	-42.4	-57.2	3.8	1.49e+00	0	53	104	0	55	20917
2026-01-13 22:33:59.62	23.60	3.42	-42.4	-57.2	3.8	1.49e+00	0	53	104	0	55	20929
2026-01-13 22:34:03.66	23.84	3.67	-42.4	-57.2	3.8	1.49e+00	0	53	104	0	55	20919
2026-01-13 22:34:07.71	24.08	3.92	-42.4	-57.2	3.8	1.49e+00	0	54	104	0	55	20964
2026-01-13 22:34:11.75	24.33	4.17	-42.4	-57.2	3.8	1.49e+00	0	54	104	0	55	20924
2026-01-13 22:34:15.79	24.58	4.42	-42.4	-57.2	3.8	1.49e+00	0	54	104	0	55	20963
2026-01-13 22:34:19.84	24.83	4.68	-42.4	-57.2	3.8	1.49e+00	0	54	104	0	55	20943
2026-01-13 22:34:23.88	25.09	4.94	-42.4	-57.2	3.8	1.49e+00	0	55	104	0	55	20968
2026-01-13 22:34:27.93	25.35	5.20	-42.4	-57.2	3.8	1.49e+00	0	55	104	0	55	20902
2026-01-13 22:34:31.97	25.62	5.46	-42.4	-57.2	3.8	1.49e+00	0	55	104	0	55	20879
2026-01-13 22:34:36.02	25.89	5.72	-42.4	-57.2	3.8	1.49e+00	0	55	104	0	55	20899
2026-01-13 22:34:40.06	26.17	5.99	-42.4	-57.2	3.8	1.49e+00	0	55	104	0	55	20845
2026-01-13 22:34:44.10	26.45	6.26	-42.4	-57.2	3.8	1.49e+00	0	56	104	0	55	20796
2026-01-13 22:34:48.15	26.74	6.53	-42.4	-57.2	3.8	1.49e+00	0	56	104	0	55	20841
2026-01-13 22:34:52.19	27.03	6.80	-42.4	-57.0	3.8	1.49e+00	0	56	104	0	55	20517
2026-01-13 22:34:56.24	27.32	7.08	-42.4	-56.6	3.8	1.49e+00	0	56	104	0	55	19402
2026-01-13 22:35:00.28	27.63	7.36	-42.2	-54.2	3.9	1.48e+00	0	56	104	0	55	14874
2026-01-13 22:35:04.32	27.93	7.64	-41.8	-50.3	5.8	4.40e-01	0	56	0	5242880	55	9464
2026-01-13 22:35:08.36	28.24	7.92	-41.2	-47.7	8.2	8.11e-02	0	57	0	12582912	54	7421
2026-01-13 22:35:12.41	28.56	8.21	-41.8	-48.7	7.3	5.34e-01	0	57	0	20971520	55	7887
2026-01-13 22:35:16.44	28.89	8.49	-41.5	-47.3	9.0	3.22e-02	0	57	0	26214400	55	6677
2026-01-13 22:35:20.48	29.22	8.78	-41.7	-47.3	9.2	1.95e-02	0	57	0	33554432	54	7044
2026-01-13 22:35:24.52	29.55	9.08	-41.7	-47.4	9.2	1.92e-02	0	57	0	40894464	54	7134
2026-01-13 22:35:28.56	29.90	9.37	-41.8	-47.4	9.3	1.92e-02	0	57	0	48234496	54	7124
2026-01-13 22:35:32.59	30.25	9.67	-41.7	-46.9	9.8	1.24e-02	0	57	0	55574528	54	6787
2026-01-13 22:35:36.63	30.60	9.97	-41.9	-47.1	9.7	1.03e-02	0	57	0	63963136	54	6899
2026-01-13 22:35:40.67	30.97	10.28	-41.8	-46.8	10.0	8.72e-03	0	58	0	71303168	54	6696
2026-01-13 22:35:44.71	31.34	10.58	-41.9	-46.8	10.1	6.73e-03	0	58	0	78643200	54	6704
2026-01-13 22:35:48.74	31.71	10.89	-41.9	-46.7	10.4	6.21e-03	0	58	0	85983232	54	6580
2026-01-13 22:35:52.78	32.10	11.20	-41.9	-46.7	10.4	4.75e-03	0	58	0	94371840	54	6596
2026-01-13 22:35:56.82	32.49	11.52	-41.9	-46.5	10.7	2.94e-03	0	58	0	101711872	54	6427
2026-01-13 22:36:00.86	32.90	11.84	-41.8	-46.3	10.9	2.16e-03	0	58	0	109051904	54	6311
2026-01-13 22:36:04.89	33.31	12.16	-41.8	-46.3	11.0	1.99e-03	0	58	0	116391936	54	6321
2026-01-13 22:36:08.93	33.73	12.48	-41.9	-46.4	10.8	2.18e-03	0	58	0	123731968	54	6413
2026-01-13 22:36:12.97	34.15	12.81	-42.0	-46.6	10.7	3.14e-03	0	59	0	132120576	54	6554
2026-01-13 22:36:17.01	34.59	13.14	-42.1	-46.8	10.5	3.47e-03	0	58	0	139460608	54	6700
2026-01-13 22:36:21.05	35.04	13.47	-42.1	-46.8	10.6	3.14e-03	0	58	0	146800640	54	6659
2026-01-13 22:36:25.08	35.50	13.81	-42.0	-46.4	11.0	2.20e-03	0	59	0	154140672	54	6416
2026-01-13 22:36:29.12	35.96	14.15	-42.0	-46.5	10.9	3.98e-03	0	59	0	162529280	54	6464
2026-01-13 22:36:33.16	36.44	14.49	-42.1	-46.5	10.9	2.60e-03	0	59	0	169869312	54	6492
2026-01-13 22:36:37.20	36.93	14.84	-42.1	-46.6	10.9	2.76e-03	0	59	0	177209344	55	6188
2026-01-13 22:36:41.23	37.43	15.18	-42.2	-46.7	10.8	2.58e-03	0	59	0	184549376	55	6241
2026-01-13 22:36:45.27	37.94	15.53	-42.2	-46.6	11.0	1.83e-03	0	59	0	191889408	55	6172
2026-01-13 22:36:49.31	38.46	15.89	-42.3	-47.0	10.6	3.41e-03	0	59	0	200278016	55	6457
2026-01-13 22:36:53.35	38.99	16.25	-42.2	-46.7	10.9	2.37e-03	0	59	0	207618048	55	6227
2026-01-13 22:36:57.39	39.54	16.61	-42.1	-46.5	11.1	1.57e-03	0	59	0	214958080	55	6112
2026-01-13 22:37:01.43	40.10	16.97	-42.1	-46.4	11.3	1.10e-03	0	59	0	222298112	55	6004
2026-01-13 22:37:05.47	40.67	17.34	-42.2	-46.6	11.1	1.47e-03	0	59	0	230686720	55	6136
2026-01-13 22:37:09.50	41.26	17.71	-42.1	-46.4	11.4	1.13e-03	0	59	0	238026752	55	6018
2026-01-13 22:37:13.54	41.86	18.08	-42.1	-46.2	11.5	7.84e-04	0	59	0	245366784	55	5916
2026-01-13 22:37:17.58	42.48	18.45	-42.1	-46.2	11.6	7.63e-04	0	59	0	252706816	55	5861
2026-01-13 22:37:21.62	43.11	18.83	-41.9	-45.8	12.0	4.07e-04	0	59	0	260046848	55	5634
2026-01-13 22:37:25.66	43.75	19.21	-41.8	-45.6	12.3	1.96e-04	0	59	0	268435456	55	5467
2026-01-13 22:37:29.70	44.42	19.59	-41.7	-45.4	12.4	1.31e-04	0	59	0	275775488	55	5386
2026-01-13 22:37:33.74	45.09	19.97	-41.8	-45.5	12.4	1.43e-04	0	59	0	283115520	55	5432
2026-01-13 22:37:37.78	45.79	20.36	-41.8	-45.5	12.3	1.49e-04	0	59	0	290455552	55	5450
2026-01-13 22:37:41.81	46.50	20.75	-41.8	-45.5	12.3	1.98e-04	0	60	0	298844160	55	5453
2026-01-13 22:37:45.85	47.23	21.14	-41.7	-45.4	12.5	1.49e-04	0	59	0	306184192	55	5353
2026-01-13 22:37:49.89	47.98	21.53	-41.6	-45.2	12.7	7.01e-05	0	59	0	313524224	55	5257
2026-01-13 22:37:53.93	48.74	21.92	-41.7	-45.3	12.6	8.69e-05	0	60	0	320864256	55	5316
2026-01-13 22:37:57.96	49.53	22.31	-41.6	-45.1	12.8	6.17e-05	0	60	0	328204288	55	5201
2026-01-13 22:38:02.00	50.33	22.70	-41.5	-45.0	13.0	3.58e-05	0	60	0	336592896	54	5403
2026-01-13 22:38:06.04	51.16	23.10	-41.5	-44.9	13.1	3.20e-05	0	60	0	343932928	54	5382
2026-01-13 22:38:10.08	52.01	23.49	-41.6	-45.1	12.9	4.88e-05	0	60	0	351272960	54	5509
2026-01-13 22:38:14.11	52.87	23.88	-41.7	-45.2	12.8	6.17e-05	0	60	0	358612992	54	5556
2026-01-13 22:38:18.14	53.76	24.27	-41.6	-45.1	12.9	4.88e-05	0	60	0	367001600	54	5528
2026-01-13 22:38:22.18	54.67	24.66	-41.7	-45.2	12.8	6.86e-05	0	60	0	374341632	54	5588
2026-01-13 22:38:26.22	55.60	25.05	-41.9	-45.6	12.4	1.40e-04	0	60	0	381681664	54	5831
2026-01-13 22:38:30.26	56.56	25.44	-42.1	-46.0	12.0	2.82e-04	0	60	0	389021696	54	6125
2026-01-13 22:38:34.30	57.54	25.82	-42.1	-46.1	11.9	4.59e-04	0	60	0	396361728	54	6160
2026-01-13 22:38:38.34	58.54	26.20	-42.3	-46.5	11.5	7.77e-04	0	60	0	404750336	55	6111
2026-01-13 22:38:42.37	59.57	26.58	-42.4	-46.6	11.4	9.91e-04	0	60	0	412090368	55	6190
2026-01-13 22:38:46.41	60.62	26.95	-42.5	-46.8	11.2	1.20e-03	0	60	0	419430400	55	6313
2026-01-13 22:38:50.45	61.69	27.32	-43.1	-48.1	10.0	5.37e-03	0	60	0	426770432	56	6890
2026-01-13 22:38:54.49	62.79	27.68	-43.3	-48.5	9.6	1.33e-02	0	60	0	435159040	57	6832
2026-01-13 22:38:58.53	63.91	28.03	-43.2	-48.3	9.9	8.98e-03	0	60	0	442499072	57	6672
2026-01-13 22:39:02.57	65.06	28.38	-43.2	-48.1	10.0	6.81e-03	0	60	0	449839104	57	6545
2026-01-13 22:39:06.61	66.24	28.72	-43.3	-48.4	9.7	1.06e-02	0	60	0	457179136	57	6789
2026-01-13 22:39:10.65	67.43	29.05	-43.1	-48.0	10.2	5.73e-03	0	60	0	464519168	57	6447
2026-01-13 22:39:14.69	68.65	29.37	-43.2	-48.1	10.1	5.79e-03	0	60	0	472907776	57	6532
2026-01-13 22:39:18.73	69.90	29.67	-43.1	-48.0	10.1	6.45e-03	0	60	0	480247808	57	6494
2026-01-13 22:39:22.77	71.17	29.97	-43.2	-48.1	10.0	6.10e-03	0	60	0	487587840	57	6567
2026-01-13 22:39:26.81	72.46	30.26	-43.8	-49.9	8.2	3.74e-02	0	60	0	494927872	58	7617
2026-01-13 22:39:30.84	73.77	30.53	-44.0	-50.6	7.6	9.87e-02	0	60	0	503316480	58	8205
2026-01-13 22:39:34.88	75.11	30.78	-43.9	-50.2	7.9	7.18e-02	0	60	0	510656512	58	7879
2026-01-13 22:39:38.92	76.46	31.03	-44.0	-50.8	7.3	1.17e-01	0	60	0	517996544	58	8421
2026-01-13 22:39:42.96	77.84	31.26	-43.8	-49.9	8.2	7.90e-02	0	60	0	525336576	58	7607
2026-01-13 22:39:46.99	79.23	31.47	-43.7	-49.6	8.6	4.07e-02	0	60	0	532676608	58	7368
2026-01-13 22:39:51.03	80.64	31.66	-43.8	-49.8	8.3	5.95e-02	0	60	0	541065216	58	7541
2026-01-13 22:39:55.07	82.07	31.83	-43.6	-49.1	9.1	2.21e-02	0	60	0	548405248	58	6892
2026-01-13 22:39:59.11	83.51	31.99	-43.6	-49.1	9.1	2.18e-02	0	60	0	555745280	58	6959
2026-01-13 22:40:03.15	84.96	32.13	-43.5	-48.8	9.4	1.84e-02	0	60	0	563085312	58	6682
2026-01-13 22:40:07.19	86.43	32.25	-43.8	-49.9	8.2	4.19e-02	0	60	0	571473920	58	7626
2026-01-13 22:40:11.23	87.91	32.35	-43.8	-49.6	8.5	5.00e-02	0	60	0	578813952	58	7362
2026-01-13 22:40:15.26	89.39	32.42	-43.4	-48.5	9.7	9.75e-03	0	60	0	586153984	58	6466
2026-01-13 22:40:19.30	90.88	32.48	-43.4	-48.7	9.6	1.26e-02	0	60	0	593494016	58	6575
2026-01-13 22:40:23.34	92.37	32.52	-43.5	-48.9	9.3	1.87e-02	0	60	0	600834048	58	6764
2026-01-13 22:40:27.38	93.87	32.53	-43.8	-49.7	8.4	4.33e-02	0	60	0	609222656	58	7455
2026-01-13 22:40:31.41	95.37	32.53	-43.4	-48.6	9.6	1.81e-02	0	60	0	616562688	58	6550
2026-01-13 22:40:35.46	96.87	32.50	-43.4	-48.7	9.6	1.10e-02	0	61	0	623902720	58	6574
2026-01-13 22:40:39.50	98.36	32.45	-43.8	-49.7	8.5	4.07e-02	0	60	0	631242752	58	7375
2026-01-13 22:40:43.53	99.85	32.38	-43.9	-50.1	8.1	6.14e-02	0	60	0	639631360	58	7779
2026-01-13 22:40:47.57	101.33	32.29	-44.1	-50.7	7.5	1.12e-01	0	60	0	646971392	58	8312
2026-01-13 22:40:51.61	102.80	32.18	-44.0	-50.5	7.7	9.22e-02	0	60	0	654311424	58	8114
2026-01-13 22:40:55.65	104.26	32.04	-44.0	-50.4	7.8	8.72e-02	0	60	0	661651456	58	8057
2026-01-13 22:40:59.68	105.71	31.89	-44.0	-50.4	7.8	8.70e-02	0	60	0	668991488	58	8068
2026-01-13 22:41:03.72	107.14	31.72	-43.6	-49.0	9.2	2.48e-02	0	60	0	677380096	58	6838
2026-01-13 22:41:07.76	108.56	31.54	-43.5	-48.9	9.3	1.56e-02	0	61	0	684720128	58	6800
2026-01-13 22:41:11.79	109.96	31.33	-43.7	-49.4	8.9	2.55e-02	0	60	0	692060160	58	7127
2026-01-13 22:41:15.83	111.35	31.11	-43.6	-49.0	9.3	2.27e-02	0	60	0	699400192	58	6822
2026-01-13 22:41:19.87	112.71	30.87	-43.4	-48.5	9.8	1.20e-02	0	60	0	707788800	58	6467
2026-01-13 22:41:23.91	114.06	30.62	-43.6	-48.9	9.3	1.82e-02	0	61	0	715128832	58	6799
2026-01-13 22:41:27.95	115.38	30.35	-44.0	-50.2	8.1	6.19e-02	0	61	0	722468864	58	7859
2026-01-13 22:41:31.99	116.69	30.07	-43.6	-49.1	9.2	2.11e-02	0	61	0	729808896	58	6888
2026-01-13 22:41:36.03	117.97	29.77	-43.7	-49.4	8.8	3.01e-02	0	61	0	737148928	58	7197
2026-01-13 22:41:40.07	119.23	29.47	-43.9	-50.2	8.0	6.83e-02	0	61	0	745537536	58	7842
2026-01-13 22:41:44.10	120.46	29.15	-43.9	-50.0	8.2	5.77e-02	0	61	0	752877568	58	7714
2026-01-13 22:41:48.14	121.67	28.82	-43.6	-49.2	9.1	3.21e-02	0	61	0	760217600	58	6963
2026-01-13 22:41:52.18	122.85	28.49	-43.2	-48.1	10.2	5.36e-03	0	61	0	767557632	58	6138
2026-01-13 22:41:56.21	124.01	28.14	-43.4	-48.6	9.7	1.13e-02	0	61	0	775946240	58	6511
2026-01-13 22:42:00.25	125.15	27.79	-43.8	-49.7	8.5	4.15e-02	0	60	0	783286272	58	7426
2026-01-13 22:42:04.29	126.26	27.43	-43.1	-47.8	10.4	6.05e-03	0	61	0	790626304	58	5964
2026-01-13 22:42:08.33	127.35	27.06	-43.2	-48.1	10.2	7.24e-03	0	61	0	797966336	58	6132
2026-01-13 22:42:12.37	128.41	26.69	-42.9	-47.4	10.9	1.74e-03	0	61	0	805306368	57	6005
2026-01-13 22:42:16.41	129.45	26.31	-43.8	-49.8	8.3	5.87e-02	0	61	0	813694976	58	7541
2026-01-13 22:42:20.45	130.46	25.93	-43.3	-48.5	9.8	9.71e-03	0	61	0	821035008	58	6431
2026-01-13 22:42:24.49	131.46	25.54	-43.3	-48.2	10.0	1.10e-02	0	61	0	828375040	58	6240
2026-01-13 22:42:28.52	132.42	25.16	-43.3	-48.3	9.9	5.08e-03	0	61	0	835715072	57	6709
2026-01-13 22:42:32.57	133.37	24.77	-42.8	-47.1	11.2	2.00e-03	0	60	0	844103680	57	5808
2026-01-13 22:42:36.60	134.29	24.37	-42.9	-47.5	10.7	2.37e-03	0	61	0	851443712	57	6127
2026-01-13 22:42:40.64	135.19	23.98	-42.9	-47.5	10.7	3.16e-03	0	61	0	858783744	57	6100
2026-01-13 22:42:44.68	136.07	23.58	-42.8	-47.3	10.9	1.39e-03	0	61	0	866123776	57	5984
2026-01-13 22:42:48.71	136.92	23.19	-42.8	-47.1	11.1	1.71e-03	0	61	0	873463808	57	5839
2026-01-13 22:42:52.75	137.76	22.79	-42.3	-46.2	12.1	2.67e-04	0	61	0	881852416	56	5554
2026-01-13 22:42:56.78	138.57	22.40	-42.2	-45.9	12.3	2.06e-04	0	61	0	889192448	56	5384
2026-01-13 22:43:00.82	139.36	22.00	-41.8	-45.4	12.8	4.50e-05	0	61	0	896532480	55	5352
2026-01-13 22:43:04.85	140.14	21.61	-41.8	-45.3	12.8	5.18e-05	0	61	0	903872512	55	5297
2026-01-13 22:43:08.89	140.89	21.21	-41.6	-45.1	13.0	4.27e-05	0	61	0	911212544	55	5173
2026-01-13 22:43:12.93	141.63	20.82	-41.7	-45.2	12.9	4.73e-05	0	61	0	919601152	55	5224
2026-01-13 22:43:16.97	142.35	20.43	-41.6	-45.1	13.0	3.35e-05	0	61	0	926941184	55	5164
2026-01-13 22:43:21.01	143.05	20.04	-41.5	-44.8	13.3	1.60e-05	0	61	0	934281216	54	5286
2026-01-13 22:43:25.05	143.74	19.65	-41.9	-45.8	12.3	1.43e-04	0	61	0	941621248	54	5937
2026-01-13 22:43:29.09	144.41	19.26	-42.0	-45.9	12.1	2.88e-04	0	61	0	950009856	54	6017
2026-01-13 22:43:33.13	145.06	18.88	-41.9	-45.7	12.3	2.04e-04	0	61	0	957349888	54	5881
2026-01-13 22:43:37.17	145.70	18.50	-42.0	-45.9	12.1	3.18e-04	0	60	0	964689920	54	6032
2026-01-13 22:43:41.21	146.32	18.12	-42.0	-45.9	12.1	3.06e-04	0	61	0	972029952	54	6006
2026-01-13 22:43:45.25	146.93	17.75	-42.0	-45.9	12.0	3.26e-04	0	61	0	979369984	54	6040
2026-01-13 22:43:49.29	147.52	17.37	-42.3	-46.5	11.4	8.22e-04	0	61	0	987758592	55	6073
2026-01-13 22:43:53.33	148.10	17.00	-42.3	-46.7	11.1	1.39e-03	0	61	0	995098624	55	6232
2026-01-13 22:43:57.36	148.66	16.64	-42.9	-47.9	10.0	7.39e-03	0	61	0	1002438656	56	6785
2026-01-13 22:44:01.40	149.21	16.27	-42.8	-47.6	10.3	5.66e-03	0	61	0	1009778688	56	6515
2026-01-13 22:44:05.43	149.75	15.91	-42.5	-46.8	11.1	1.74e-03	0	61	0	1018167296	56	5981
2026-01-13 22:44:09.47	150.28	15.55	-42.7	-47.5	10.4	4.33e-03	0	61	0	1025507328	56	6453
2026-01-13 22:44:13.51	150.79	15.20	-42.9	-48.0	9.9	9.08e-03	0	61	0	1032847360	56	6824
2026-01-13 22:44:17.55	151.29	14.84	-42.7	-47.6	10.3	4.75e-03	0	61	0	1040187392	56	6495
2026-01-13 22:44:21.59	151.78	14.50	-42.5	-47.0	10.8	2.22e-03	0	61	0	1047527424	56	6106
2026-01-13 22:44:25.62	152.26	14.15	-42.7	-47.7	10.1	6.49e-03	0	61	0	1055916032	56	6596
2026-01-13 22:44:29.66	152.73	13.81	-42.7	-47.6	10.1	6.81e-03	0	61	0	1063256064	56	6567
2026-01-13 22:44:33.70	153.19	13.47	-42.4	-46.9	10.9	2.48e-03	0	61	0	1070596096	56	6004
2026-01-13 22:44:37.74	153.64	13.13	-42.2	-46.5	11.3	1.12e-03	0	61	0	1077936128	56	5748
2026-01-13 22:44:41.78	154.08	12.80	-42.4	-47.0	10.6	2.83e-03	0	61	0	1086324736	56	6110
2026-01-13 22:44:45.82	154.51	12.47	-42.6	-47.4	10.2	5.67e-03	0	61	0	1093664768	56	6406
2026-01-13 22:44:49.86	154.93	12.14	-42.5	-47.4	10.2	6.18e-03	0	61	0	1101004800	56	6372
2026-01-13 22:44:53.90	155.35	11.81	-42.4	-47.1	10.5	3.86e-03	0	61	0	1108344832	56	6152
2026-01-13 22:44:57.94	155.75	11.49	-42.3	-46.9	10.6	4.02e-03	0	61	0	1115684864	56	6029
2026-01-13 22:45:01.98	156.14	11.17	-42.3	-47.0	10.5	3.80e-03	0	60	0	1124073472	56	6099
2026-01-13 22:45:06.02	156.53	10.86	-42.3	-47.1	10.3	5.38e-03	0	61	0	1131413504	56	6174
2026-01-13 22:45:10.06	156.91	10.54	-42.5	-47.4	10.0	6.36e-03	0	61	0	1138753536	56	6389
2026-01-13 22:45:14.10	157.28	10.23	-42.4	-47.3	10.1	7.40e-03	0	61	0	1146093568	56	6294
2026-01-13 22:45:18.14	157.65	9.93	-42.4	-47.3	10.0	8.59e-03	0	61	0	1154482176	56	6329
2026-01-13 22:45:22.17	158.00	9.62	-42.4	-47.6	9.7	1.13e-02	0	61	0	1161822208	56	6531
2026-01-13 22:45:26.21	158.35	9.32	-42.5	-47.8	9.4	1.48e-02	0	61	0	1169162240	56	6668
2026-01-13 22:45:30.24	158.69	9.02	-42.5	-47.8	9.2	1.81e-02	0	61	0	1176502272	56	6714
2026-01-13 22:45:34.28	159.03	8.73	-42.5	-48.0	9.0	2.64e-02	0	61	0	1183842304	56	6869
2026-01-13 22:45:38.33	159.36	8.43	-42.5	-48.2	8.8	2.98e-02	0	61	0	1192230912	56	7017
2026-01-13 22:45:42.37	159.68	8.14	-42.5	-48.4	8.6	3.50e-02	0	61	0	1199570944	56	7153
2026-01-13 22:45:46.41	160.00	7.85	-44.9	-59.4	3.8	1.49e+00	0	61	104	1204813824	60	20163
2026-01-13 22:45:50.45	160.31	7.57	-45.4	-60.0	3.8	1.49e+00	0	61	104	1204813824	61	20311
2026-01-13 22:45:54.49	160.62	7.29	-45.4	-59.9	3.8	1.49e+00	0	61	104	1204813824	61	20287
2026-01-13 22:45:58.54	160.92	7.00	-45.3	-59.7	3.8	1.49e+00	0	61	104	1204813824	61	19820
2026-01-13 22:46:02.58	161.21	6.73	-45.3	-59.7	3.8	1.49e+00	0	61	104	1204813824	61	19749
2026-01-13 22:46:06.62	161.50	6.45	-45.3	-59.7	3.8	1.49e+00	0	61	104	1204813824	61	19761
2026-01-13 22:46:10.67	161.79	6.18	-45.3	-59.7	3.8	1.49e+00	0	61	104	1204813824	61	19715
2026-01-13 22:46:14.71	162.07	5.90	-45.2	-59.7	3.8	1.49e+00	0	61	104	1204813824	61	19684
2026-01-13 22:46:18.75	162.34	5.64	-45.2	-59.7	3.8	1.49e+00	0	61	104	1204813824	61	19668
2026-01-13 22:46:22.80	162.61	5.37	-45.2	-59.7	3.8	1.49e+00	0	61	104	1204813824	61	19659
2026-01-13 22:46:26.84	162.87	5.10	-45.2	-59.7	3.8	1.49e+00	0	61	104	1204813824	61	19684
2026-01-13 22:46:30.88	163.14	4.84	-45.2	-59.7	3.8	1.49e+00	0	61	104	1204813824	61	19662
2026-01-13 22:46:34.93	163.39	4.58	-45.2	-59.7	3.8	1.49e+00	0	61	104	1204813824	61	19633
2026-01-13 22:46:38.98	163.64	4.32	-45.2	-59.7	3.8	1.49e+00	0	61	104	1204813824	61	19641
2026-01-13 22:46:43.02	163.89	4.06	-45.2	-59.7	3.8	1.49e+00	0	61	104	1204813824	61	19640
2026-01-13 22:46:47.06	164.13	3.81	-45.2	-59.6	3.8	1.49e+00	0	61	104	1204813824	61	19589
2026-01-13 22:46:51.10	164.37	3.56	-45.2	-59.7	3.8	1.49e+00	0	61	104	1204813824	61	19661
2026-01-13 22:46:55.15	164.61	3.31	-45.2	-59.6	3.8	1.49e+00	0	61	104	1204813824	61	19609
2026-01-13 22:46:59.19	164.84	3.06	-45.2	-59.7	3.8	1.49e+00	0	61	104	1204813824	61	19635
2026-01-13 22:47:03.24	165.07	2.81	-45.2	-59.7	3.8	1.49e+00	0	61	104	1204813824	61	19618
2026-01-13 22:47:07.28	165.29	2.57	-45.2	-59.6	3.8	1.49e+00	0	61	104	1204813824	61	19563
2026-01-13 22:47:11.33	165.52	2.32	-45.2	-59.6	3.8	1.49e+00	0	61	104	1204813824	61	19609
2026-01-13 22:47:15.37	165.73	2.08	-45.2	-59.7	3.8	1.49e+00	0	61	104	1204813824	61	19656

#Closed at: 2026-01-13 22:47:16
#Recorded file [1204 MB]: D:/lorett/data/31039_260114_013335.dat