passes_logs/2026/01/13/R2.0S_Moscow/R2.0S_Moscow__20260113_111406_NOAA_21_JPSS-2_rec.log

#Pass ID: 20260113_111406_NOAA 21 (JPSS-2)
#Satellite: NOAA 21 (JPSS-2)
#Configuration: NOAA-21
#almurnet v.1.7.20251203
#Start time: 2026-01-13 11:16:18

#Version: 2.2.20231116
#Station: R2.0S_Moscow
#Location: 37.707566 lon 55.798166 lat
#TLE: 1 54234U 22150A   26012.26378519  .00000063  00000+0  50547-4 0  9993
#TLE: 2 54234  98.7495 313.1967 0000726 309.1075  51.0036 14.19534275164425

#Time	Az	El	Level	Level2	SNR	BER	BlckErr	Temp	State	Recorded	gain1	gain2
2026-01-13 11:16:18.74	210.90	10.52	-45.1	-56.6	3.8	8.46e-01	0	59	0	0	60	14665
2026-01-13 11:16:21.77	211.22	10.74	-45.3	-57.5	3.8	1.49e+00	0	59	104	0	62	14450
2026-01-13 11:16:24.80	211.56	10.97	-45.2	-57.4	3.8	1.49e+00	0	60	104	0	62	14248
2026-01-13 11:16:27.83	211.90	11.19	-44.9	-57.0	3.8	1.49e+00	0	59	104	0	61	14505
2026-01-13 11:16:30.86	212.24	11.41	-44.7	-56.7	3.8	1.49e+00	0	59	104	0	61	13950
2026-01-13 11:16:33.89	212.59	11.63	-44.6	-56.5	3.8	1.49e+00	0	59	104	0	60	14526
2026-01-13 11:16:36.92	212.94	11.86	-44.6	-56.5	3.8	1.49e+00	0	60	104	0	60	14540
2026-01-13 11:16:39.95	213.30	12.09	-44.6	-56.1	3.8	1.49e+00	0	60	104	0	59	14623
2026-01-13 11:16:42.98	213.66	12.31	-44.6	-55.6	3.8	1.49e+00	0	59	104	0	59	13852
2026-01-13 11:16:46.02	214.04	12.54	-44.5	-54.8	3.8	1.49e+00	0	59	104	0	59	12610
2026-01-13 11:16:49.05	214.41	12.77	-44.2	-53.0	4.0	1.40e+00	0	59	104	0	59	10185
2026-01-13 11:16:52.08	214.79	13.00	-43.8	-50.5	5.4	5.35e-01	0	59	0	4194304	59	7655
2026-01-13 11:16:55.11	215.18	13.24	-43.4	-48.9	6.7	2.16e-01	0	59	0	13631488	58	6740
2026-01-13 11:16:58.14	215.57	13.47	-43.0	-47.8	7.6	9.19e-02	0	60	0	23068672	57	6322
2026-01-13 11:17:01.17	215.97	13.70	-43.1	-48.1	7.4	1.11e-01	0	59	0	32505856	57	6539
2026-01-13 11:17:04.20	216.38	13.94	-43.3	-48.7	6.8	1.86e-01	0	59	0	41943040	57	7005
2026-01-13 11:17:07.23	216.79	14.17	-42.6	-47.0	8.5	5.53e-02	0	59	0	51380224	57	5733
2026-01-13 11:17:10.26	217.20	14.41	-41.6	-45.0	10.4	5.21e-03	0	60	0	60817408	55	5142
2026-01-13 11:17:13.29	217.63	14.65	-40.9	-43.9	11.6	1.00e-02	0	59	0	70254592	53	5065
2026-01-13 11:17:16.33	218.06	14.89	-44.2	-52.4	4.4	1.48e+00	0	60	104	73400320	59	9513
2026-01-13 11:17:19.35	218.50	15.13	-41.1	-44.2	11.3	1.95e-03	0	59	0	78643200	54	4955
2026-01-13 11:17:22.38	218.94	15.37	-40.9	-43.9	11.6	8.17e-04	0	60	0	87031808	53	5051
2026-01-13 11:17:25.41	219.39	15.61	-40.9	-43.8	11.7	6.33e-04	0	59	0	97517568	53	4994
2026-01-13 11:17:28.44	219.85	15.85	-40.9	-43.7	11.7	5.29e-04	0	59	0	106954752	53	4975
2026-01-13 11:17:31.47	220.32	16.09	-40.8	-43.6	11.9	4.79e-04	0	59	0	116391936	53	4921
2026-01-13 11:17:34.49	220.79	16.33	-40.8	-43.6	11.9	3.75e-04	0	59	0	125829120	53	4910
2026-01-13 11:17:37.53	221.27	16.58	-40.7	-43.5	12.0	3.09e-04	0	59	0	135266304	53	4842
2026-01-13 11:17:40.56	221.76	16.82	-40.8	-43.6	11.9	4.52e-04	0	60	0	144703488	53	4920
2026-01-13 11:17:43.58	222.25	17.06	-40.9	-43.8	11.7	5.01e-04	0	59	0	154140672	53	5024
2026-01-13 11:17:46.61	222.76	17.31	-40.9	-43.8	11.7	5.29e-04	0	59	0	163577856	53	5026
2026-01-13 11:17:49.64	223.27	17.55	-41.0	-43.9	11.7	5.68e-04	0	59	0	173015040	53	5046
2026-01-13 11:17:52.67	223.79	17.80	-41.1	-44.0	11.5	7.88e-04	0	60	0	182452224	53	5149
2026-01-13 11:17:55.70	224.32	18.04	-41.0	-43.9	11.6	7.61e-04	0	60	0	191889408	53	5093
2026-01-13 11:17:58.73	224.85	18.29	-40.9	-43.8	11.8	5.29e-04	0	60	0	201326592	53	5015
2026-01-13 11:18:01.76	225.40	18.53	-40.8	-43.6	12.0	3.92e-04	0	60	0	210763776	53	4898
2026-01-13 11:18:04.80	225.96	18.78	-40.7	-43.4	12.2	2.59e-04	0	60	0	220200960	53	4776
2026-01-13 11:18:07.82	226.52	19.02	-40.6	-43.2	12.3	1.56e-04	0	59	0	229638144	53	4705
2026-01-13 11:18:10.85	227.09	19.27	-40.6	-43.2	12.4	1.58e-04	0	60	0	239075328	53	4670
2026-01-13 11:18:13.88	227.67	19.51	-40.4	-42.9	12.7	7.32e-05	0	60	0	248512512	52	4808
2026-01-13 11:18:16.91	228.26	19.76	-40.2	-42.7	13.0	4.73e-05	0	60	0	257949696	52	4675
2026-01-13 11:18:19.94	228.86	20.00	-40.3	-42.7	12.9	5.34e-05	0	60	0	267386880	52	4692
2026-01-13 11:18:22.97	229.46	20.24	-40.2	-42.7	13.0	3.96e-05	0	60	0	276824064	52	4663
2026-01-13 11:18:26.00	230.08	20.48	-40.2	-42.7	13.0	3.66e-05	0	60	0	286261248	52	4673
2026-01-13 11:18:29.03	230.71	20.72	-40.2	-42.6	13.0	4.34e-05	0	60	0	295698432	52	4640
2026-01-13 11:18:32.06	231.34	20.96	-40.0	-42.3	13.3	1.67e-05	0	60	0	305135616	52	4483
2026-01-13 11:18:35.09	231.99	21.20	-39.9	-42.1	13.7	4.50e-06	0	59	0	314572800	51	4632
2026-01-13 11:18:38.12	232.65	21.44	-39.7	-41.9	13.8	4.50e-06	0	60	0	324009984	51	4528
2026-01-13 11:18:41.15	233.31	21.67	-39.7	-41.8	14.0	3.00e-06	0	60	0	333447168	51	4471
2026-01-13 11:18:44.19	233.99	21.91	-39.6	-41.7	14.0	2.20e-06	0	60	0	342884352	51	4439
2026-01-13 11:18:47.21	234.67	22.14	-39.6	-41.7	14.0	1.50e-06	0	60	0	352321536	51	4438
2026-01-13 11:18:50.24	235.37	22.37	-39.6	-41.7	14.0	3.00e-06	0	60	0	361758720	51	4430
2026-01-13 11:18:53.27	236.07	22.59	-39.6	-41.7	14.1	7.00e-07	0	59	0	371195904	51	4414
2026-01-13 11:18:56.30	236.79	22.82	-39.7	-41.9	13.9	6.80e-06	0	60	0	380633088	51	4504
2026-01-13 11:18:59.32	237.51	23.04	-39.8	-42.0	13.8	2.20e-06	0	59	0	390070272	51	4565
2026-01-13 11:19:02.35	238.25	23.26	-39.8	-42.0	13.8	3.80e-06	0	60	0	400556032	51	4578
2026-01-13 11:19:05.38	238.99	23.47	-39.8	-42.1	13.7	7.60e-06	0	60	0	408944640	51	4616
2026-01-13 11:19:08.41	239.75	23.68	-39.9	-42.1	13.7	4.50e-06	0	60	0	419430400	51	4637
2026-01-13 11:19:11.44	240.51	23.89	-39.9	-42.2	13.6	9.90e-06	0	60	0	427819008	51	4674
2026-01-13 11:19:14.47	241.29	24.10	-39.9	-42.1	13.7	5.30e-06	0	60	0	438304768	51	4618
2026-01-13 11:19:17.50	242.07	24.30	-40.1	-42.3	13.4	1.14e-05	0	60	0	447741952	51	4758
2026-01-13 11:19:20.53	242.87	24.50	-40.3	-42.7	13.1	3.12e-05	0	60	0	457179136	51	4939
2026-01-13 11:19:23.55	243.67	24.69	-40.1	-42.4	13.4	1.44e-05	0	60	0	466616320	51	4808
2026-01-13 11:19:26.58	244.49	24.88	-40.1	-42.4	13.4	9.10e-06	0	60	0	476053504	51	4784
2026-01-13 11:19:29.62	245.31	25.06	-40.1	-42.5	13.4	1.75e-05	0	60	0	485490688	51	4836
2026-01-13 11:19:32.65	246.14	25.24	-40.2	-42.6	13.2	2.05e-05	0	59	0	494927872	51	4895
2026-01-13 11:19:35.68	246.99	25.41	-40.1	-42.4	13.4	1.52e-05	0	60	0	504365056	51	4804
2026-01-13 11:19:38.71	247.84	25.58	-40.2	-42.6	13.2	1.98e-05	0	60	0	513802240	51	4884
2026-01-13 11:19:41.73	248.69	25.74	-40.2	-42.6	13.2	1.60e-05	0	60	0	523239424	51	4894
2026-01-13 11:19:44.77	249.56	25.90	-40.1	-42.4	13.4	7.60e-06	0	60	0	532676608	51	4768
2026-01-13 11:19:47.80	250.44	26.05	-40.2	-42.5	13.3	1.98e-05	0	60	0	542113792	51	4865
2026-01-13 11:19:50.82	251.32	26.19	-40.0	-42.3	13.6	1.22e-05	0	60	0	551550976	51	4723
2026-01-13 11:19:53.85	252.21	26.33	-40.1	-42.4	13.4	1.44e-05	0	60	0	560988160	51	4773
2026-01-13 11:19:56.88	253.11	26.46	-40.3	-42.7	13.1	2.36e-05	0	60	0	570425344	51	4947
2026-01-13 11:19:59.91	254.02	26.59	-40.1	-42.4	13.4	1.29e-05	0	60	0	579862528	51	4772
2026-01-13 11:20:02.94	254.93	26.70	-40.0	-42.3	13.5	1.14e-05	0	60	0	589299712	51	4721
2026-01-13 11:20:05.97	255.85	26.81	-40.2	-42.5	13.3	9.90e-06	0	60	0	598736896	51	4851
2026-01-13 11:20:08.99	256.77	26.92	-40.2	-42.5	13.3	1.60e-05	0	60	0	608174080	51	4867
2026-01-13 11:20:12.02	257.71	27.01	-40.0	-42.3	13.5	4.50e-06	0	60	0	617611264	51	4733
2026-01-13 11:20:15.05	258.64	27.10	-40.0	-42.2	13.6	1.83e-05	0	60	0	627048448	51	4687
2026-01-13 11:20:18.08	259.58	27.18	-39.9	-42.2	13.7	5.30e-06	0	60	0	636485632	51	4656
2026-01-13 11:20:21.11	260.53	27.25	-39.9	-42.1	13.7	9.10e-06	0	60	0	645922816	51	4620
2026-01-13 11:20:24.14	261.48	27.31	-40.0	-42.3	13.6	7.60e-06	0	60	0	655360000	51	4711
2026-01-13 11:20:27.17	262.43	27.37	-39.9	-42.2	13.6	3.00e-06	0	60	0	664797184	51	4655
2026-01-13 11:20:30.20	263.38	27.41	-40.1	-42.4	13.5	1.22e-05	0	60	0	674234368	51	4761
2026-01-13 11:20:33.23	264.34	27.45	-40.1	-42.3	13.5	1.52e-05	0	60	0	683671552	51	4753
2026-01-13 11:20:36.26	265.30	27.48	-40.1	-42.4	13.4	1.90e-05	0	60	0	693108736	51	4782
2026-01-13 11:20:39.29	266.26	27.50	-40.1	-42.4	13.5	1.67e-05	0	60	0	702545920	51	4767
2026-01-13 11:20:42.32	267.22	27.52	-40.0	-42.2	13.6	6.10e-06	0	60	0	711983104	51	4697
2026-01-13 11:20:45.35	268.19	27.52	-40.1	-42.4	13.4	5.30e-06	0	60	0	721420288	51	4807
2026-01-13 11:20:48.38	269.15	27.52	-40.0	-42.3	13.5	9.90e-06	0	60	0	730857472	51	4733
2026-01-13 11:20:51.41	270.11	27.50	-40.2	-42.5	13.3	1.44e-05	0	60	0	741343232	51	4853
2026-01-13 11:20:54.44	271.07	27.48	-40.1	-42.4	13.4	8.30e-06	0	60	0	749731840	51	4762
2026-01-13 11:20:57.47	272.03	27.45	-39.9	-42.1	13.7	6.80e-06	0	60	0	760217600	51	4637
2026-01-13 11:21:00.50	272.99	27.42	-39.8	-42.0	13.8	4.50e-06	0	60	0	769654784	51	4563
2026-01-13 11:21:03.53	273.94	27.37	-39.9	-42.2	13.6	5.30e-06	0	60	0	779091968	51	4670
2026-01-13 11:21:06.56	274.89	27.31	-39.8	-42.0	13.8	3.00e-06	0	60	0	788529152	51	4588
2026-01-13 11:21:09.59	275.84	27.25	-39.9	-42.1	13.7	3.80e-06	0	60	0	797966336	51	4618
2026-01-13 11:21:12.62	276.78	27.18	-40.0	-42.3	13.4	1.83e-05	0	60	0	807403520	51	4753
2026-01-13 11:21:15.64	277.72	27.10	-39.8	-42.0	13.8	4.50e-06	0	60	0	816840704	51	4574
2026-01-13 11:21:18.67	278.66	27.01	-39.8	-42.0	13.8	2.20e-06	0	60	0	826277888	51	4552
2026-01-13 11:21:21.70	279.58	26.92	-39.9	-42.1	13.7	5.30e-06	0	60	0	835715072	51	4608
2026-01-13 11:21:24.73	280.51	26.82	-39.9	-42.2	13.6	1.06e-05	0	60	0	845152256	51	4672
2026-01-13 11:21:27.76	281.43	26.71	-39.9	-42.1	13.7	6.80e-06	0	60	0	854589440	51	4612
2026-01-13 11:21:30.79	282.34	26.59	-39.8	-42.0	13.8	5.30e-06	0	60	0	864026624	51	4550
2026-01-13 11:21:33.82	283.24	26.47	-39.8	-42.0	13.8	2.20e-06	0	60	0	873463808	51	4591
2026-01-13 11:21:36.85	284.14	26.34	-39.9	-42.1	13.6	4.50e-06	0	60	0	882900992	51	4639
2026-01-13 11:21:39.88	285.03	26.20	-40.0	-42.3	13.5	1.44e-05	0	60	0	892338176	51	4709
2026-01-13 11:21:42.91	285.91	26.06	-40.1	-42.4	13.4	1.06e-05	0	60	0	901775360	51	4784
2026-01-13 11:21:45.94	286.78	25.91	-40.2	-42.6	13.2	2.28e-05	0	60	0	911212544	51	4901
2026-01-13 11:21:48.97	287.65	25.75	-40.2	-42.6	13.2	1.60e-05	0	60	0	920649728	51	4892
2026-01-13 11:21:52.00	288.51	25.59	-40.2	-42.7	13.1	2.97e-05	0	60	0	930086912	51	4929
2026-01-13 11:21:55.02	289.35	25.43	-40.1	-42.5	13.2	2.67e-05	0	60	0	939524096	51	4849
2026-01-13 11:21:58.05	290.19	25.25	-40.0	-42.3	13.4	1.90e-05	0	60	0	948961280	51	4742
2026-01-13 11:22:01.08	291.02	25.08	-39.9	-42.1	13.6	8.30e-06	0	60	0	958398464	51	4651
2026-01-13 11:22:04.11	291.84	24.89	-39.9	-42.1	13.6	1.14e-05	0	60	0	967835648	51	4643
2026-01-13 11:22:07.14	292.65	24.71	-39.9	-42.2	13.5	1.06e-05	0	60	0	977272832	51	4682
2026-01-13 11:22:10.17	293.45	24.51	-39.9	-42.2	13.6	7.60e-06	0	60	0	986710016	51	4659
2026-01-13 11:22:13.20	294.25	24.32	-39.8	-42.0	13.7	6.10e-06	0	60	0	996147200	51	4596
2026-01-13 11:22:16.23	295.03	24.12	-39.8	-42.1	13.6	5.30e-06	0	60	0	1005584384	51	4614
2026-01-13 11:22:19.25	295.80	23.92	-39.6	-41.8	13.9	4.50e-06	0	60	0	1015021568	51	4455
2026-01-13 11:22:22.29	296.56	23.71	-39.7	-41.9	13.8	7.00e-07	0	60	0	1024458752	51	4521
2026-01-13 11:22:25.31	297.31	23.50	-40.0	-42.4	13.3	5.30e-06	0	60	0	1033895936	51	4768
2026-01-13 11:22:28.34	298.06	23.28	-40.1	-42.4	13.3	2.13e-05	0	60	0	1043333120	51	4789
2026-01-13 11:22:31.37	298.79	23.07	-39.9	-42.2	13.4	8.30e-06	0	60	0	1052770304	51	4688
2026-01-13 11:22:34.40	299.51	22.85	-40.0	-42.3	13.4	9.10e-06	0	60	0	1062207488	51	4730
2026-01-13 11:22:37.42	300.22	22.63	-40.0	-42.4	13.3	1.83e-05	0	60	0	1071644672	51	4775
2026-01-13 11:22:40.45	300.92	22.40	-40.2	-42.6	13.1	2.36e-05	0	60	0	1081081856	51	4889
2026-01-13 11:22:43.48	301.62	22.17	-40.1	-42.5	13.2	2.51e-05	0	60	0	1090519040	51	4839
2026-01-13 11:22:46.51	302.30	21.95	-40.0	-42.4	13.2	2.13e-05	0	60	0	1101004800	51	4794
2026-01-13 11:22:49.54	302.97	21.71	-40.0	-42.3	13.3	1.67e-05	0	60	0	1110441984	51	4738
2026-01-13 11:22:52.58	303.64	21.48	-40.1	-42.4	13.2	2.28e-05	0	60	0	1119879168	51	4806
2026-01-13 11:22:55.60	304.29	21.25	-40.1	-42.5	13.2	1.60e-05	0	60	0	1129316352	51	4821
2026-01-13 11:22:58.63	304.93	21.01	-40.1	-42.5	13.2	2.74e-05	0	60	0	1138753536	51	4816
2026-01-13 11:23:01.66	305.57	20.77	-40.0	-42.4	13.2	2.97e-05	0	60	0	1148190720	51	4784
2026-01-13 11:23:04.69	306.19	20.54	-40.1	-42.5	13.0	3.43e-05	0	60	0	1157627904	51	4870
2026-01-13 11:23:07.72	306.81	20.30	-40.1	-42.6	13.0	3.58e-05	0	60	0	1167065088	51	4881
2026-01-13 11:23:10.75	307.41	20.06	-39.9	-42.2	13.3	1.90e-05	0	60	0	1176502272	51	4688
2026-01-13 11:23:13.78	308.01	19.82	-39.9	-42.3	13.3	2.05e-05	0	60	0	1185939456	51	4718
2026-01-13 11:23:16.81	308.60	19.57	-40.0	-42.4	13.1	2.59e-05	0	60	0	1195376640	51	4796
2026-01-13 11:23:19.84	309.18	19.33	-40.0	-42.4	13.1	3.05e-05	0	60	0	1204813824	51	4810
2026-01-13 11:23:22.87	309.74	19.09	-40.0	-42.4	13.1	3.20e-05	0	60	0	1214251008	51	4812
2026-01-13 11:23:25.90	310.31	18.85	-40.1	-42.5	13.1	3.50e-05	0	60	0	1223688192	51	4851
2026-01-13 11:23:28.93	310.86	18.60	-40.1	-42.6	13.0	3.73e-05	0	60	0	1233125376	51	4887
2026-01-13 11:23:31.96	311.40	18.36	-40.2	-42.7	12.9	4.95e-05	0	60	0	1242562560	51	4942
2026-01-13 11:23:34.99	311.94	18.12	-40.3	-42.8	12.7	6.63e-05	0	60	0	1251999744	51	5008
2026-01-13 11:23:38.02	312.46	17.88	-40.3	-42.8	12.7	7.47e-05	0	60	0	1261436928	51	5018
2026-01-13 11:23:41.05	312.98	17.63	-40.4	-42.9	12.6	8.77e-05	0	60	0	1270874112	51	5088
2026-01-13 11:23:44.08	313.49	17.39	-40.5	-43.2	12.3	1.83e-04	0	60	0	1280311296	51	5234
2026-01-13 11:23:47.10	313.99	17.15	-40.4	-43.1	12.4	1.35e-04	0	60	0	1289748480	51	5167
2026-01-13 11:23:50.13	314.49	16.91	-40.4	-43.0	12.5	1.17e-04	0	60	0	1299185664	51	5133
2026-01-13 11:23:53.17	314.98	16.66	-40.5	-43.1	12.3	1.69e-04	0	60	0	1308622848	51	5208
2026-01-13 11:23:56.19	315.46	16.42	-40.4	-43.0	12.4	1.40e-04	0	60	0	1318060032	51	5147
2026-01-13 11:23:59.22	315.93	16.18	-40.5	-43.1	12.3	1.87e-04	0	60	0	1327497216	51	5215
2026-01-13 11:24:02.25	316.39	15.94	-40.5	-43.2	12.3	1.87e-04	0	60	0	1336934400	51	5246
2026-01-13 11:24:05.28	316.85	15.70	-40.5	-43.2	12.3	1.74e-04	0	60	0	1346371584	51	5255
2026-01-13 11:24:08.31	317.30	15.47	-40.6	-43.3	12.1	2.59e-04	0	60	0	1355808768	51	5314
2026-01-13 11:24:11.34	317.75	15.23	-40.7	-43.5	11.8	4.89e-04	0	60	0	1365245952	52	5149
2026-01-13 11:24:14.37	318.18	14.99	-40.7	-43.6	11.7	5.74e-04	0	60	0	1374683136	52	5199
2026-01-13 11:24:17.40	318.61	14.76	-40.6	-43.4	11.9	4.07e-04	0	60	0	1384120320	52	5094
2026-01-13 11:24:20.43	319.04	14.52	-40.6	-43.3	12.0	3.19e-04	0	60	0	1393557504	52	5040
2026-01-13 11:24:23.46	319.45	14.29	-40.5	-43.3	12.0	3.37e-04	0	60	0	1402994688	52	5009
2026-01-13 11:24:26.49	319.86	14.05	-40.5	-43.3	12.0	3.07e-04	0	60	0	1412431872	52	4991
2026-01-13 11:24:29.52	320.27	13.82	-40.6	-43.5	11.8	4.38e-04	0	60	0	1421869056	52	5112
2026-01-13 11:24:32.55	320.67	13.59	-40.8	-43.8	11.4	9.35e-04	0	60	0	1432354816	52	5334
2026-01-13 11:24:35.58	321.06	13.36	-40.8	-43.8	11.4	1.05e-03	0	60	0	1441792000	52	5322
2026-01-13 11:24:38.61	321.45	13.13	-40.9	-43.9	11.3	1.16e-03	0	60	0	1451229184	52	5385
2026-01-13 11:24:41.64	321.83	12.90	-40.9	-43.9	11.2	1.34e-03	0	60	0	1460666368	52	5383
2026-01-13 11:24:44.67	322.21	12.67	-40.7	-43.7	11.4	9.54e-04	0	60	0	1470103552	52	5263
2026-01-13 11:24:47.70	322.58	12.44	-40.7	-43.8	11.4	1.06e-03	0	60	0	1479540736	52	5289
2026-01-13 11:24:50.73	322.94	12.22	-40.8	-43.8	11.3	1.10e-03	0	60	0	1488977920	52	5327
2026-01-13 11:24:53.76	323.30	11.99	-40.9	-44.1	11.1	1.57e-03	0	60	0	1498415104	52	5468
2026-01-13 11:24:56.79	323.65	11.77	-41.0	-44.1	10.9	2.21e-03	0	60	0	1507852288	52	5520
2026-01-13 11:24:59.82	324.00	11.55	-40.9	-44.1	11.0	1.94e-03	0	60	0	1517289472	52	5490
2026-01-13 11:25:02.84	324.35	11.33	-41.0	-44.2	10.8	2.66e-03	0	60	0	1526726656	52	5561
2026-01-13 11:25:05.87	324.68	11.11	-41.1	-44.4	10.5	3.37e-03	0	60	0	1536163840	52	5709
2026-01-13 11:25:08.90	325.02	10.89	-41.1	-44.4	10.5	3.93e-03	0	60	0	1545601024	52	5710
2026-01-13 11:25:11.93	325.35	10.67	-40.8	-44.0	10.9	2.02e-03	0	60	0	1555038208	52	5441
2026-01-13 11:25:14.96	325.67	10.46	-40.8	-44.0	10.9	2.12e-03	0	60	0	1564475392	52	5449
2026-01-13 11:25:17.99	325.99	10.24	-40.8	-44.0	10.9	2.30e-03	0	60	0	1573912576	52	5457
2026-01-13 11:25:21.01	326.31	10.03	-41.0	-44.4	10.5	4.08e-03	0	60	0	1583349760	52	5678
2026-01-13 11:25:24.04	326.62	9.81	-41.2	-44.7	10.1	6.46e-03	0	60	0	1592786944	52	5912
2026-01-13 11:25:27.07	326.93	9.60	-41.1	-44.6	10.2	5.97e-03	0	60	0	1602224128	52	5815
2026-01-13 11:25:30.10	327.23	9.39	-41.0	-44.3	10.5	4.37e-03	0	60	0	1611661312	52	5655
2026-01-13 11:25:33.13	327.53	9.18	-41.1	-44.6	10.2	6.07e-03	0	60	0	1621098496	52	5801
2026-01-13 11:25:36.16	327.82	8.97	-41.1	-44.8	10.0	7.64e-03	0	60	0	1630535680	52	5924
2026-01-13 11:25:39.19	328.11	8.76	-41.3	-45.0	9.7	1.08e-02	0	60	0	1639972864	53	5738
2026-01-13 11:25:42.22	328.40	8.56	-41.1	-44.7	9.9	8.64e-03	0	60	0	1649410048	53	5566
2026-01-13 11:25:45.25	328.68	8.35	-41.4	-45.3	9.4	1.60e-02	0	60	0	1658847232	53	5925
2026-01-13 11:25:48.28	328.96	8.15	-41.2	-45.0	9.6	1.27e-02	0	60	0	1668284416	53	5753
2026-01-13 11:25:51.31	329.24	7.94	-44.4	-56.1	3.8	1.47e+00	0	60	104	1675624448	59	14697
2026-01-13 11:25:54.34	329.51	7.74	-45.0	-57.2	3.8	1.49e+00	0	60	104	1675624448	60	15702
2026-01-13 11:25:57.36	329.78	7.54	-45.2	-57.5	3.8	1.49e+00	0	60	104	1675624448	61	15314
2026-01-13 11:26:00.39	330.04	7.34	-45.2	-57.5	3.8	1.49e+00	0	60	104	1675624448	61	15308
2026-01-13 11:26:03.42	330.30	7.14	-45.1	-57.5	3.8	1.49e+00	0	60	104	1675624448	61	15307
2026-01-13 11:26:06.45	330.56	6.95	-45.2	-57.4	3.8	1.49e+00	0	60	104	1675624448	61	15191
2026-01-13 11:26:09.48	330.82	6.75	-45.2	-57.4	3.8	1.49e+00	0	60	104	1675624448	61	15193
2026-01-13 11:26:12.51	331.07	6.55	-45.2	-57.5	3.8	1.49e+00	0	60	104	1675624448	60	16133
2026-01-13 11:26:15.54	331.32	6.36	-45.1	-57.4	3.8	1.49e+00	0	60	104	1675624448	60	16110
2026-01-13 11:26:18.57	331.56	6.17	-45.1	-57.4	3.8	1.49e+00	0	60	104	1675624448	60	16087
2026-01-13 11:26:21.60	331.81	5.97	-45.1	-57.4	3.8	1.49e+00	0	60	104	1675624448	60	16034
2026-01-13 11:26:24.63	332.05	5.78	-45.2	-57.4	3.8	1.49e+00	0	60	104	1675624448	60	16032
2026-01-13 11:26:27.66	332.28	5.59	-45.1	-57.4	3.8	1.49e+00	0	60	104	1675624448	60	16047
2026-01-13 11:26:30.69	332.52	5.40	-45.1	-57.4	3.8	1.49e+00	0	60	104	1675624448	60	15998
2026-01-13 11:26:33.72	332.75	5.21	-45.1	-57.4	3.8	1.49e+00	0	60	104	1675624448	60	16024
2026-01-13 11:26:36.75	332.97	5.03	-45.1	-57.4	3.8	1.49e+00	0	60	104	1675624448	60	16049
2026-01-13 11:26:39.77	333.20	4.84	-45.1	-57.4	3.8	1.49e+00	0	60	104	1675624448	60	16000
2026-01-13 11:26:42.80	333.42	4.65	-45.1	-57.4	3.8	1.49e+00	0	60	104	1675624448	60	15971
2026-01-13 11:26:45.83	333.64	4.47	-45.1	-57.4	3.8	1.49e+00	0	60	104	1675624448	60	15993
2026-01-13 11:26:48.86	333.86	4.29	-45.1	-57.4	3.8	1.49e+00	0	60	104	1675624448	60	15997
2026-01-13 11:26:51.88	334.07	4.10	-44.3	-57.3	3.8	1.49e+00	0	60	104	1675624448	60	15933
2026-01-13 11:26:54.91	334.29	3.92	-45.1	-57.4	3.8	1.49e+00	0	60	104	1675624448	60	15985
2026-01-13 11:26:57.94	334.50	3.74	-45.1	-57.4	3.8	1.49e+00	0	60	104	1675624448	60	15982
2026-01-13 11:27:00.97	334.70	3.56	-45.1	-57.4	3.8	1.49e+00	0	60	104	1675624448	60	15989
2026-01-13 11:27:03.99	334.91	3.38	-45.0	-57.4	3.8	1.49e+00	0	60	104	1675624448	60	15988
2026-01-13 11:27:07.03	335.11	3.20	-45.1	-57.4	3.8	1.49e+00	0	60	104	1675624448	60	15992
2026-01-13 11:27:10.05	335.31	3.03	-45.0	-57.3	3.8	1.49e+00	0	60	104	1675624448	60	15924
2026-01-13 11:27:13.08	335.51	2.85	-45.1	-57.4	3.8	1.49e+00	0	60	104	1675624448	60	15963
2026-01-13 11:27:16.11	335.71	2.67	-45.1	-57.3	3.8	1.49e+00	0	60	104	1675624448	60	15926
2026-01-13 11:27:19.14	335.90	2.50	-45.1	-57.4	3.8	1.49e+00	0	60	104	1675624448	60	15959
2026-01-13 11:27:22.17	336.09	2.33	-45.1	-57.3	3.8	1.49e+00	0	60	104	1675624448	60	15942
2026-01-13 11:27:25.20	336.28	2.15	-45.1	-57.3	3.8	1.49e+00	0	60	104	1675624448	60	15936
2026-01-13 11:27:28.23	336.47	1.98	-45.1	-57.4	3.8	1.49e+00	0	60	104	1675624448	60	15961

#Closed at: 2026-01-13 11:27:30
#Recorded file [1675 MB]: D:/lorett/data/31039_260113_141618.dat