passes_logs/2026/01/13/R2.0S_Moscow/R2.0S_Moscow__20260113_235308_SUOMI_NPP_rec.log

#Pass ID: 20260113_235308_SUOMI NPP
#Satellite: SUOMI NPP
#Configuration: NPP
#almurnet v.1.7.20251203
#Start time: 2026-01-13 23:53:09

#Version: 2.2.20231116
#Station: R2.0S_Moscow
#Location: 37.707566 lon 55.798166 lat
#TLE: 1 37849U 11061A   26013.27136842  .00000065  00000+0  51889-4 0  9990
#TLE: 2 37849  98.7808 315.3349 0002489  66.6776 293.4661 14.19524902736466

#Time	Az	El	Level	Level2	SNR	BER	BlckErr	Temp	State	Recorded	gain1	gain2
2026-01-13 23:53:09.01	15.59	2.05	-42.9	-57.5	3.8	1.49e+00	0	51	0	0	57	19208
2026-01-13 23:53:13.05	15.58	2.31	-42.9	-57.5	3.8	1.49e+00	0	52	104	0	57	19198
2026-01-13 23:53:17.09	15.57	2.57	-42.9	-57.5	3.8	1.49e+00	0	52	104	0	57	19177
2026-01-13 23:53:21.14	15.56	2.84	-42.9	-57.5	3.8	1.49e+00	0	52	104	0	57	19213
2026-01-13 23:53:25.18	15.55	3.10	-42.9	-57.5	3.8	1.49e+00	0	53	104	0	57	19196
2026-01-13 23:53:29.22	15.54	3.37	-42.9	-57.5	3.8	1.49e+00	0	53	104	0	57	19199
2026-01-13 23:53:33.27	15.53	3.64	-42.9	-57.5	3.8	1.49e+00	0	53	104	0	57	19240
2026-01-13 23:53:37.31	15.52	3.92	-42.9	-57.5	3.8	1.49e+00	0	53	104	0	57	19194
2026-01-13 23:53:41.36	15.51	4.20	-42.9	-57.5	3.8	1.49e+00	0	54	104	0	57	19204
2026-01-13 23:53:45.40	15.49	4.48	-42.9	-57.5	3.8	1.49e+00	0	54	104	0	57	19191
2026-01-13 23:53:49.45	15.48	4.76	-42.9	-57.5	3.8	1.49e+00	0	54	104	0	57	19189
2026-01-13 23:53:53.49	15.46	5.05	-42.9	-57.5	3.8	1.49e+00	0	54	104	0	57	19232
2026-01-13 23:53:57.53	15.45	5.34	-42.9	-57.5	3.8	1.49e+00	0	55	104	0	57	19188
2026-01-13 23:54:01.58	15.43	5.63	-42.9	-57.4	3.8	1.49e+00	0	55	104	0	57	19135
2026-01-13 23:54:05.62	15.42	5.93	-42.9	-57.5	3.8	1.49e+00	0	55	104	0	57	19183
2026-01-13 23:54:09.66	15.40	6.23	-42.9	-57.4	3.8	1.49e+00	0	55	104	0	57	19070
2026-01-13 23:54:13.71	15.38	6.53	-42.9	-57.3	3.8	1.49e+00	0	55	104	0	57	18866
2026-01-13 23:54:17.75	15.36	6.84	-42.9	-57.0	3.8	1.49e+00	0	56	104	0	57	18108
2026-01-13 23:54:21.80	15.34	7.15	-42.8	-54.8	3.9	1.48e+00	0	56	104	0	57	14050
2026-01-13 23:54:25.84	15.32	7.46	-42.3	-51.0	5.5	5.48e-01	0	56	0	4194304	56	9633
2026-01-13 23:54:29.88	15.30	7.78	-42.2	-50.4	6.0	2.56e-01	0	56	0	12582912	56	8978
2026-01-13 23:54:33.92	15.28	8.10	-42.5	-50.9	5.8	3.52e-01	0	56	0	19922944	56	9527
2026-01-13 23:54:37.96	15.26	8.43	-42.3	-56.4	3.8	8.30e-01	0	57	104	23068672	56	18027
2026-01-13 23:54:42.00	15.23	8.76	-42.6	-50.3	6.3	2.52e-01	0	57	0	28311552	56	8868
2026-01-13 23:54:46.04	15.21	9.09	-42.7	-49.9	6.8	1.84e-01	0	57	0	35651584	56	8538
2026-01-13 23:54:50.07	15.18	9.43	-42.7	-49.7	7.1	1.36e-01	0	57	0	44040192	56	8296
2026-01-13 23:54:54.11	15.16	9.77	-42.7	-49.6	7.2	1.30e-01	0	57	0	51380224	56	8217
2026-01-13 23:54:58.15	15.13	10.12	-42.7	-49.5	7.3	1.26e-01	0	57	0	58720256	56	8171
2026-01-13 23:55:02.19	15.10	10.48	-42.7	-49.4	7.5	9.82e-02	0	57	0	66060288	56	8069
2026-01-13 23:55:06.23	15.07	10.83	-42.7	-49.1	7.8	9.00e-02	0	57	0	74448896	56	7765
2026-01-13 23:55:10.27	15.04	11.20	-42.7	-49.0	8.0	6.53e-02	0	57	0	81788928	56	7688
2026-01-13 23:55:14.30	15.01	11.57	-42.7	-48.8	8.3	5.18e-02	0	57	0	89128960	56	7516
2026-01-13 23:55:18.34	14.97	11.94	-42.7	-48.7	8.4	4.57e-02	0	57	0	96468992	56	7397
2026-01-13 23:55:22.38	14.94	12.32	-42.6	-48.4	8.7	3.75e-02	0	58	0	103809024	56	7150
2026-01-13 23:55:26.42	14.90	12.71	-42.6	-48.4	8.8	3.03e-02	0	58	0	112197632	56	7154
2026-01-13 23:55:30.46	14.86	13.10	-42.6	-48.1	9.1	2.84e-02	0	58	0	119537664	56	6949
2026-01-13 23:55:34.49	14.82	13.50	-42.7	-48.2	9.1	2.20e-02	0	58	0	126877696	56	7026
2026-01-13 23:55:38.53	14.78	13.91	-42.6	-48.0	9.4	1.92e-02	0	58	0	134217728	56	6819
2026-01-13 23:55:42.57	14.74	14.32	-42.6	-47.8	9.6	1.26e-02	0	58	0	142606336	56	6692
2026-01-13 23:55:46.61	14.70	14.74	-42.5	-47.5	10.0	8.90e-03	0	58	0	149946368	56	6448
2026-01-13 23:55:50.65	14.65	15.17	-42.6	-47.7	9.8	9.33e-03	0	59	0	157286400	56	6628
2026-01-13 23:55:54.68	14.60	15.61	-42.4	-47.2	10.4	6.36e-03	0	58	0	164626432	56	6225
2026-01-13 23:55:58.72	14.55	16.05	-42.5	-47.3	10.3	5.18e-03	0	59	0	171966464	56	6314
2026-01-13 23:56:02.76	14.50	16.50	-42.4	-47.1	10.6	3.40e-03	0	59	0	180355072	56	6145
2026-01-13 23:56:06.79	14.45	16.96	-42.5	-47.2	10.5	3.99e-03	0	59	0	187695104	56	6249
2026-01-13 23:56:10.83	14.39	17.43	-42.5	-47.0	10.8	2.65e-03	0	59	0	195035136	56	6123
2026-01-13 23:56:14.87	14.34	17.91	-42.4	-46.8	11.0	2.29e-03	0	59	0	202375168	56	5976
2026-01-13 23:56:18.91	14.27	18.40	-42.4	-46.7	11.2	1.16e-03	0	59	0	210763776	56	5884
2026-01-13 23:56:22.95	14.21	18.90	-42.3	-46.5	11.4	7.89e-04	0	59	0	218103808	56	5745
2026-01-13 23:56:26.99	14.15	19.40	-42.3	-46.4	11.6	6.20e-04	0	59	0	225443840	56	5675
2026-01-13 23:56:31.02	14.08	19.92	-42.3	-46.4	11.6	7.48e-04	0	59	0	232783872	56	5681
2026-01-13 23:56:35.06	14.01	20.45	-42.4	-46.5	11.5	6.11e-04	0	59	0	240123904	56	5782
2026-01-13 23:56:39.10	13.93	20.99	-42.3	-46.4	11.6	5.99e-04	0	59	0	248512512	56	5701
2026-01-13 23:56:43.14	13.86	21.54	-42.4	-46.5	11.5	4.41e-04	0	59	0	255852544	56	5750
2026-01-13 23:56:47.17	13.77	22.11	-42.4	-46.4	11.6	7.19e-04	0	59	0	263192576	56	5717
2026-01-13 23:56:51.21	13.69	22.69	-42.4	-46.4	11.6	5.19e-04	0	59	0	270532608	56	5715
2026-01-13 23:56:55.25	13.60	23.28	-42.3	-46.3	11.8	4.29e-04	0	60	0	277872640	56	5619
2026-01-13 23:56:59.29	13.51	23.88	-42.2	-46.0	12.1	2.49e-04	0	59	0	286261248	56	5437
2026-01-13 23:57:03.33	13.41	24.50	-42.3	-46.3	11.9	2.74e-04	0	59	0	293601280	56	5603
2026-01-13 23:57:07.37	13.31	25.14	-42.3	-46.3	11.9	4.93e-04	0	59	0	300941312	56	5605
2026-01-13 23:57:11.41	13.20	25.79	-42.3	-46.2	12.1	1.76e-04	0	59	0	308281344	56	5554
2026-01-13 23:57:15.45	13.09	26.45	-42.3	-46.2	12.1	1.53e-04	0	59	0	316669952	56	5535
2026-01-13 23:57:19.49	12.98	27.13	-42.7	-47.1	11.1	9.17e-04	0	59	0	324009984	56	6141
2026-01-13 23:57:23.54	12.85	27.84	-42.9	-47.4	10.8	2.00e-03	0	59	0	331350016	56	6389
2026-01-13 23:57:27.58	12.72	28.55	-42.9	-47.4	10.8	2.06e-03	0	60	0	338690048	56	6366
2026-01-13 23:57:31.61	12.59	29.29	-43.2	-48.2	10.0	5.64e-03	0	59	0	347078656	57	6608
2026-01-13 23:57:35.65	12.45	30.05	-43.4	-48.7	9.5	1.12e-02	0	60	0	354418688	57	7037
2026-01-13 23:57:39.69	12.30	30.82	-43.3	-48.4	9.9	1.18e-02	0	60	0	361758720	57	6748
2026-01-13 23:57:43.73	12.14	31.62	-43.9	-50.2	8.0	5.49e-02	0	60	0	369098752	58	7892
2026-01-13 23:57:47.76	11.97	32.44	-44.3	-51.8	6.6	1.91e-01	0	60	0	376438784	59	8884
2026-01-13 23:57:51.80	11.79	33.28	-44.1	-50.8	7.5	1.23e-01	0	60	0	384827392	59	7954
2026-01-13 23:57:55.84	11.60	34.15	-43.9	-49.9	8.2	6.68e-02	0	60	0	392167424	59	7204
2026-01-13 23:57:59.88	11.41	35.04	-43.2	-47.9	10.5	4.17e-03	0	60	0	399507456	58	6004
2026-01-13 23:58:03.92	11.19	35.96	-42.6	-46.8	11.6	4.59e-04	0	60	0	406847488	57	5599
2026-01-13 23:58:07.95	10.97	36.90	-42.5	-46.4	12.2	1.94e-04	0	60	0	414187520	56	5709
2026-01-13 23:58:12.00	10.73	37.87	-41.9	-45.3	13.0	3.05e-05	0	60	0	422576128	55	5325
2026-01-13 23:58:16.04	10.48	38.87	-42.3	-46.1	12.2	1.41e-04	0	60	0	429916160	55	5799
2026-01-13 23:58:20.08	10.21	39.90	-42.0	-45.6	12.7	5.34e-05	0	60	0	437256192	55	5504
2026-01-13 23:58:24.12	9.91	40.96	-42.1	-45.7	12.6	1.29e-04	0	60	0	444596224	55	5555
2026-01-13 23:58:28.15	9.60	42.05	-42.9	-47.3	11.1	1.71e-03	0	60	0	452984832	56	6314
2026-01-13 23:58:32.19	9.27	43.17	-43.2	-47.9	10.6	3.75e-03	0	60	0	460324864	57	6361
2026-01-13 23:58:36.23	8.91	44.33	-43.5	-48.7	9.6	1.17e-02	0	60	0	467664896	57	7007
2026-01-13 23:58:40.27	8.52	45.52	-42.9	-47.1	11.4	1.36e-03	0	60	0	475004928	57	5815
2026-01-13 23:58:44.31	8.10	46.74	-43.6	-48.9	9.5	1.23e-02	0	60	0	483393536	57	7128
2026-01-13 23:58:48.35	7.64	48.00	-43.3	-48.1	10.3	1.03e-02	0	60	0	490733568	58	6163
2026-01-13 23:58:52.39	7.14	49.30	-43.7	-49.1	9.2	2.88e-02	0	60	0	498073600	58	6953
2026-01-13 23:58:56.42	6.60	50.62	-42.9	-47.2	11.3	9.83e-04	0	60	0	505413632	57	5897
2026-01-13 23:59:00.47	6.00	52.00	-42.5	-46.2	12.3	2.27e-04	0	60	0	512753664	56	5586
2026-01-13 23:59:04.50	5.35	53.40	-43.1	-47.6	11.0	4.00e-03	0	60	0	521142272	57	6159
2026-01-13 23:59:08.54	4.62	54.84	-42.4	-46.0	12.5	7.01e-05	0	60	0	528482304	56	5456
2026-01-13 23:59:12.58	3.82	56.31	-42.5	-46.2	12.3	1.07e-04	0	60	0	535822336	56	5562
2026-01-13 23:59:16.61	2.92	57.82	-43.1	-47.4	11.0	1.61e-03	0	60	0	543162368	56	6414
2026-01-13 23:59:20.65	1.92	59.36	-43.6	-48.9	9.5	2.29e-02	0	60	0	550502400	58	6799
2026-01-13 23:59:24.70	0.78	60.93	-43.1	-47.6	10.9	7.48e-04	0	60	0	558891008	56	6548
2026-01-13 23:59:28.73	359.49	62.53	-42.0	-45.4	13.1	1.04e-04	0	60	0	566231040	56	5045
2026-01-13 23:59:32.77	358.01	64.15	-42.0	-45.4	13.0	2.89e-05	0	60	0	573571072	55	5389
2026-01-13 23:59:36.81	356.31	65.79	-42.4	-46.2	12.1	1.07e-04	0	60	0	580911104	55	5918
2026-01-13 23:59:40.84	354.33	67.44	-43.1	-47.7	10.8	1.72e-03	0	60	0	589299712	56	6611
2026-01-13 23:59:44.88	352.00	69.10	-43.2	-48.0	10.4	7.86e-03	0	60	0	596639744	57	6440
2026-01-13 23:59:48.92	349.23	70.74	-42.5	-46.3	12.2	3.81e-04	0	61	0	603979776	56	5647
2026-01-13 23:59:52.96	345.91	72.37	-41.3	-44.3	14.0	6.80e-06	0	60	0	611319808	54	5020
2026-01-13 23:59:57.00	341.88	73.94	-42.4	-46.3	12.0	1.62e-04	0	61	0	618659840	55	5965
2026-01-14 00:00:01.03	336.97	75.44	-43.7	-49.3	9.0	1.16e-02	0	60	0	627048448	57	7522
2026-01-14 00:00:05.07	330.92	76.84	-43.9	-49.9	8.5	1.67e-02	0	60	0	634388480	58	7545
2026-01-14 00:00:09.11	323.48	78.06	-43.0	-47.5	10.8	3.20e-03	0	61	0	641728512	57	6117
2026-01-14 00:00:13.15	314.47	79.05	-43.8	-49.5	8.7	1.30e-02	0	60	0	649068544	58	7249
2026-01-14 00:00:17.19	303.95	79.74	-44.2	-50.8	7.4	1.99e-01	0	61	0	657457152	59	7988
2026-01-14 00:00:21.23	292.34	80.04	-44.2	-51.2	7.1	2.47e-01	0	61	0	664797184	60	7891
2026-01-14 00:00:25.26	280.54	79.93	-44.2	-51.4	6.9	2.89e-01	0	60	0	672137216	60	8077
2026-01-14 00:00:29.30	269.43	79.41	-43.8	-49.8	8.4	5.29e-02	0	61	0	679477248	59	7102
2026-01-14 00:00:33.34	259.71	78.55	-43.8	-49.4	8.7	1.63e-02	0	61	0	686817280	58	7173
2026-01-14 00:00:37.38	251.56	77.42	-44.1	-50.8	7.5	9.80e-02	0	61	0	695205888	59	7912
2026-01-14 00:00:41.42	244.90	76.09	-44.6	-53.3	5.3	4.82e-01	0	61	0	702545920	59	10578
2026-01-14 00:00:45.46	239.49	74.63	-43.2	-48.0	10.2	1.31e-02	0	61	0	709885952	58	6071
2026-01-14 00:00:49.50	235.08	73.08	-42.5	-46.4	11.8	2.06e-03	0	61	0	717225984	57	5390
2026-01-14 00:00:53.54	231.46	71.47	-42.8	-47.1	11.1	3.29e-03	0	61	0	725614592	57	5815
2026-01-14 00:00:57.58	228.46	69.83	-43.2	-48.1	10.2	2.23e-03	0	61	0	732954624	56	6896
2026-01-14 00:01:01.62	225.94	68.18	-43.2	-48.1	9.9	6.06e-03	0	61	0	740294656	57	6554
2026-01-14 00:01:05.65	223.81	66.52	-41.6	-44.9	13.2	3.20e-05	0	61	0	747634688	55	5075
2026-01-14 00:01:09.69	221.99	64.87	-42.5	-46.5	11.6	7.53e-04	0	61	0	754974720	55	6073
2026-01-14 00:01:13.73	220.41	63.23	-43.6	-49.2	9.0	1.08e-02	0	61	0	763363328	57	7402
2026-01-14 00:01:17.76	219.04	61.62	-44.2	-51.2	7.0	2.13e-01	0	61	0	770703360	59	8349
2026-01-14 00:01:21.80	217.84	60.03	-41.8	-45.1	13.0	9.61e-05	0	61	0	778043392	55	5201
2026-01-14 00:01:25.84	216.77	58.47	-42.1	-45.7	12.4	2.89e-05	0	61	0	785383424	54	5891
2026-01-14 00:01:29.88	215.83	56.95	-42.3	-46.2	11.9	4.33e-04	0	61	0	793772032	55	5866
2026-01-14 00:01:33.92	214.98	55.45	-43.5	-48.7	9.4	1.48e-02	0	61	0	801112064	57	6971
2026-01-14 00:01:37.96	214.22	53.99	-43.2	-47.9	10.3	5.01e-03	0	61	0	808452096	58	6032
2026-01-14 00:01:41.99	213.53	52.57	-43.2	-48.0	10.2	5.19e-03	0	61	0	815792128	57	6428
2026-01-14 00:01:46.03	212.91	51.18	-43.2	-47.9	10.4	4.96e-03	0	61	0	823132160	57	6353
2026-01-14 00:01:50.07	212.34	49.83	-43.8	-49.6	8.7	2.45e-02	0	61	0	831520768	58	7312
2026-01-14 00:01:54.10	211.82	48.52	-43.8	-49.7	8.5	3.17e-02	0	61	0	838860800	58	7381
2026-01-14 00:01:58.14	211.35	47.24	-44.1	-50.9	7.3	2.00e-01	0	61	0	846200832	59	8013
2026-01-14 00:02:02.18	210.91	45.99	-43.6	-49.1	9.1	5.16e-02	0	61	0	853540864	59	6527
2026-01-14 00:02:06.22	210.50	44.79	-43.5	-48.7	9.4	2.17e-02	0	61	0	861929472	57	7000
2026-01-14 00:02:10.26	210.13	43.61	-43.5	-48.8	9.5	2.75e-02	0	61	0	869269504	58	6656
2026-01-14 00:02:14.29	209.78	42.47	-43.9	-50.2	7.9	4.10e-02	0	61	0	876609536	58	7899
2026-01-14 00:02:18.33	209.46	41.36	-43.8	-49.7	8.5	7.02e-02	0	61	0	883949568	59	6977
2026-01-14 00:02:22.37	209.16	40.29	-43.7	-49.5	8.7	2.55e-02	0	61	0	891289600	58	7219
2026-01-14 00:02:26.41	208.88	39.24	-44.0	-50.3	7.8	4.89e-02	0	61	0	899678208	58	7963
2026-01-14 00:02:30.45	208.61	38.22	-42.9	-47.4	10.7	4.48e-03	0	61	0	907018240	57	6034
2026-01-14 00:02:34.48	208.36	37.24	-43.1	-47.6	10.5	5.17e-03	0	61	0	914358272	57	6188
2026-01-14 00:02:38.52	208.13	36.28	-43.5	-48.7	9.5	1.57e-02	0	61	0	921698304	57	7013
2026-01-14 00:02:42.56	207.91	35.35	-44.0	-50.2	7.9	4.67e-02	0	61	0	930086912	58	7850
2026-01-14 00:02:46.60	207.71	34.44	-43.4	-48.4	9.6	1.28e-02	0	61	0	937426944	58	6400
2026-01-14 00:02:50.64	207.51	33.56	-43.0	-47.5	10.6	4.71e-03	0	61	0	944766976	57	6079
2026-01-14 00:02:54.68	207.33	32.71	-43.2	-47.9	10.2	6.09e-03	0	61	0	952107008	57	6417
2026-01-14 00:02:58.72	207.16	31.87	-43.5	-49.0	9.1	1.66e-02	0	61	0	959447040	57	7228
2026-01-14 00:03:02.76	206.99	31.06	-43.3	-48.2	9.9	8.58e-03	0	61	0	967835648	57	6626
2026-01-14 00:03:06.80	206.83	30.27	-43.2	-48.0	10.1	5.87e-03	0	61	0	975175680	57	6465
2026-01-14 00:03:10.84	206.69	29.50	-43.2	-48.1	10.0	9.06e-03	0	61	0	982515712	57	6534
2026-01-14 00:03:14.87	206.55	28.76	-43.1	-47.9	10.2	8.40e-03	0	61	0	989855744	57	6399
2026-01-14 00:03:18.91	206.41	28.03	-42.6	-46.7	11.5	9.50e-04	0	61	0	998244352	57	5542
2026-01-14 00:03:22.95	206.28	27.32	-42.7	-47.0	11.0	2.22e-03	0	61	0	1005584384	56	6125
2026-01-14 00:03:26.99	206.16	26.63	-42.5	-46.5	11.6	7.45e-04	0	61	0	1012924416	56	5728
2026-01-14 00:03:31.02	206.05	25.95	-42.2	-45.9	12.2	2.88e-04	0	61	0	1020264448	56	5399
2026-01-14 00:03:35.06	205.93	25.29	-42.5	-46.4	11.7	4.76e-04	0	61	0	1027604480	56	5722
2026-01-14 00:03:39.10	205.83	24.65	-42.6	-46.7	11.4	1.21e-03	0	61	0	1035993088	56	5868
2026-01-14 00:03:43.14	205.73	24.02	-42.7	-47.0	11.0	1.49e-03	0	61	0	1043333120	56	6096
2026-01-14 00:03:47.18	205.63	23.41	-43.0	-47.8	10.2	4.49e-03	0	61	0	1050673152	56	6679
2026-01-14 00:03:51.21	205.54	22.81	-43.0	-47.7	10.3	6.69e-03	0	61	0	1058013184	56	6613
2026-01-14 00:03:55.25	205.45	22.23	-43.1	-48.0	10.0	1.01e-02	0	61	0	1065353216	56	6813
2026-01-14 00:03:59.29	205.36	21.65	-42.8	-47.4	10.5	3.73e-03	0	61	0	1073741824	56	6410
2026-01-14 00:04:03.32	205.28	21.10	-43.0	-47.8	10.3	5.75e-03	0	61	0	1081081856	56	6651
2026-01-14 00:04:07.36	205.20	20.55	-43.1	-48.1	9.8	9.73e-03	0	61	0	1088421888	56	6946
2026-01-14 00:04:11.40	205.13	20.01	-43.0	-47.9	10.0	5.36e-03	0	61	0	1095761920	56	6751
2026-01-14 00:04:15.44	205.06	19.49	-42.7	-47.1	10.9	2.80e-03	0	61	0	1104150528	56	6143
2026-01-14 00:04:19.48	204.99	18.97	-42.6	-46.9	11.1	1.70e-03	0	61	0	1111490560	56	5994
2026-01-14 00:04:23.52	204.92	18.47	-42.7	-47.3	10.7	2.87e-03	0	61	0	1118830592	56	6279
2026-01-14 00:04:27.55	204.85	17.98	-43.0	-47.8	10.0	7.30e-03	0	61	0	1126170624	56	6692
2026-01-14 00:04:31.59	204.79	17.49	-43.3	-48.8	9.0	1.63e-02	0	61	0	1133510656	57	7066
2026-01-14 00:04:35.63	204.73	17.02	-43.3	-48.9	8.8	3.55e-02	0	61	0	1141899264	57	7185
2026-01-14 00:04:39.67	204.67	16.55	-43.3	-48.9	8.9	3.34e-02	0	61	0	1149239296	57	7122
2026-01-14 00:04:43.71	204.62	16.10	-43.3	-49.0	8.7	2.58e-02	0	61	0	1156579328	57	7254
2026-01-14 00:04:47.75	204.56	15.65	-43.3	-49.1	8.6	4.34e-02	0	61	0	1163919360	57	7302
2026-01-14 00:04:51.79	204.51	15.21	-43.4	-49.4	8.3	4.50e-02	0	61	0	1172307968	57	7599
2026-01-14 00:04:55.82	204.46	14.78	-43.4	-49.4	8.3	6.06e-02	0	61	0	1179648000	57	7553
2026-01-14 00:04:59.86	204.42	14.35	-43.6	-50.0	7.6	7.31e-02	0	61	0	1186988032	57	8174
2026-01-14 00:05:03.90	204.37	13.93	-43.5	-49.7	7.9	8.61e-02	0	61	0	1194328064	57	7849
2026-01-14 00:05:07.94	204.32	13.52	-43.4	-49.7	7.8	7.83e-02	0	61	0	1201668096	57	7879
2026-01-14 00:05:11.98	204.28	13.12	-43.3	-49.4	8.1	6.11e-02	0	61	0	1210056704	57	7595
2026-01-14 00:05:16.01	204.24	12.72	-43.3	-49.4	8.1	5.30e-02	0	61	0	1217396736	57	7590
2026-01-14 00:05:20.05	204.20	12.33	-43.4	-49.7	7.8	7.18e-02	0	61	0	1224736768	57	7869
2026-01-14 00:05:24.08	204.16	11.95	-43.3	-49.6	7.8	8.46e-02	0	61	0	1232076800	57	7808
2026-01-14 00:05:28.12	204.12	11.57	-43.3	-49.7	7.8	8.23e-02	0	61	0	1240465408	57	7812
2026-01-14 00:05:32.16	204.08	11.20	-43.3	-49.7	7.7	8.23e-02	0	61	0	1247805440	57	7829
2026-01-14 00:05:36.20	204.05	10.83	-43.3	-49.9	7.5	8.80e-02	0	61	0	1255145472	57	8013
2026-01-14 00:05:40.24	204.01	10.47	-43.2	-49.5	7.8	8.13e-02	0	61	0	1262485504	57	7679
2026-01-14 00:05:44.28	203.98	10.11	-43.3	-49.8	7.5	9.11e-02	0	61	0	1269825536	57	7973
2026-01-14 00:05:48.32	203.95	9.76	-43.1	-49.4	7.9	8.10e-02	0	61	0	1278214144	57	7582
2026-01-14 00:05:52.36	203.92	9.41	-43.1	-49.3	7.9	6.98e-02	0	61	0	1285554176	57	7497
2026-01-14 00:05:56.39	203.89	9.07	-43.1	-49.3	7.9	8.26e-02	0	61	0	1292894208	57	7503
2026-01-14 00:06:00.43	203.86	8.73	-43.0	-49.4	7.7	7.75e-02	0	61	0	1300234240	57	7583
2026-01-14 00:06:04.47	203.83	8.40	-43.0	-49.3	7.8	8.99e-02	0	61	0	1308622848	57	7534
2026-01-14 00:06:08.51	203.80	8.07	-42.9	-49.4	7.6	9.45e-02	0	61	0	1315962880	57	7571
2026-01-14 00:06:12.56	203.77	7.75	-45.0	-59.5	3.8	1.49e+00	0	61	104	1318060032	60	20382
2026-01-14 00:06:16.60	203.75	7.43	-45.4	-59.8	3.8	1.49e+00	0	61	104	1318060032	61	19842
2026-01-14 00:06:20.64	203.72	7.11	-45.3	-59.7	3.8	1.49e+00	0	61	104	1318060032	61	19695
2026-01-14 00:06:24.68	203.70	6.80	-45.3	-59.8	3.8	1.49e+00	0	61	104	1318060032	61	19845
2026-01-14 00:06:28.72	203.67	6.49	-45.3	-59.7	3.8	1.49e+00	0	61	104	1318060032	61	19692
2026-01-14 00:06:32.76	203.65	6.18	-45.2	-59.7	3.8	1.49e+00	0	61	104	1318060032	61	19646
2026-01-14 00:06:36.81	203.63	5.88	-45.2	-59.7	3.8	1.49e+00	0	61	104	1318060032	61	19637
2026-01-14 00:06:40.85	203.61	5.58	-45.3	-59.6	3.8	1.49e+00	0	61	104	1318060032	61	19600
2026-01-14 00:06:44.90	203.59	5.29	-45.2	-59.7	3.8	1.49e+00	0	61	104	1318060032	61	19637
2026-01-14 00:06:48.94	203.57	5.00	-45.2	-59.6	3.8	1.49e+00	0	61	104	1318060032	61	19588
2026-01-14 00:06:52.99	203.55	4.71	-45.2	-59.6	3.8	1.49e+00	0	61	104	1318060032	61	19578
2026-01-14 00:06:57.03	203.53	4.42	-45.2	-59.6	3.8	1.49e+00	0	61	104	1318060032	61	19564
2026-01-14 00:07:01.07	203.51	4.14	-45.2	-59.6	3.8	1.49e+00	0	61	104	1318060032	61	19547
2026-01-14 00:07:05.12	203.49	3.86	-45.2	-59.6	3.8	1.49e+00	0	61	104	1318060032	61	19560
2026-01-14 00:07:09.16	203.47	3.58	-45.2	-59.6	3.8	1.49e+00	0	61	104	1318060032	61	19478
2026-01-14 00:07:13.21	203.46	3.31	-45.2	-59.6	3.8	1.49e+00	0	61	104	1318060032	61	19541
2026-01-14 00:07:17.25	203.44	3.04	-45.2	-59.6	3.8	1.49e+00	0	61	104	1318060032	61	19516
2026-01-14 00:07:21.29	203.42	2.77	-45.2	-59.6	3.8	1.49e+00	0	61	104	1318060032	61	19462
2026-01-14 00:07:25.34	203.41	2.50	-45.2	-59.6	3.8	1.49e+00	0	61	104	1318060032	61	19491
2026-01-14 00:07:29.38	203.39	2.24	-45.2	-59.6	3.8	1.49e+00	0	61	104	1318060032	61	19518
2026-01-14 00:07:33.43	203.38	1.98	-45.2	-59.6	3.8	1.49e+00	0	61	104	1318060032	61	19477

#Closed at: 2026-01-14 00:07:35
#Recorded file [1318 MB]: D:/lorett/data/31039_260114_025308.dat