passes_logs/2026/01/13/R2.0S_Moscow/R2.0S_Moscow__20260113_011122_FENGYUN_3D_rec.log

#Pass ID: 20260113_011122_FENGYUN 3D
#Satellite: FENGYUN 3D
#Configuration: FENGYUN 3D
#almurnet v.1.7.20251203
#Start time: 2026-01-13 01:20:08

#Version: 2.2.20231116
#Station: R2.0S_Moscow
#Location: 37.707566 lon 55.798166 lat
#TLE: 1 43010U 17072A   26012.32543542  .00000598  00000+0  30457-3 0  9997
#TLE: 2 43010  98.9935 344.1005 0002233 112.6136 247.5276 14.19696644422876

#Time	Az	El	Level	Level2	SNR	BER	BlckErr	Temp	State	Recorded	gain1	gain2
2026-01-13 01:20:08.77	153.31	39.96	-46.0	-64.7	3.8	7.45e-01	0	60	0	0	63	31417
2026-01-13 01:20:10.80	153.90	39.55	-45.3	-56.8	3.8	8.46e-01	0	60	104	0	62	13321
2026-01-13 01:20:12.82	154.47	39.13	-45.3	-56.8	3.8	8.46e-01	0	60	104	0	62	13277
2026-01-13 01:20:14.84	155.03	38.72	-45.0	-55.2	3.8	8.45e-01	0	60	104	0	62	11040
2026-01-13 01:20:16.86	155.58	38.32	-45.1	-56.4	3.8	8.45e-01	0	60	104	0	62	12730
2026-01-13 01:20:18.89	156.11	37.91	-45.0	-56.5	3.8	8.47e-01	0	60	104	0	62	12863
2026-01-13 01:20:20.91	156.63	37.50	-45.0	-56.3	3.8	8.46e-01	0	60	104	0	62	12592
2026-01-13 01:20:22.93	157.14	37.10	-44.9	-55.6	3.8	8.46e-01	0	60	104	0	61	12290
2026-01-13 01:20:24.95	157.63	36.70	-44.9	-55.7	3.8	8.46e-01	0	60	104	0	61	12462
2026-01-13 01:20:26.97	158.11	36.31	-45.0	-56.1	3.8	8.46e-01	0	60	104	0	61	13026
2026-01-13 01:20:28.99	158.58	35.91	-45.0	-56.1	3.8	8.46e-01	0	60	104	0	61	13059
2026-01-13 01:20:31.01	159.04	35.52	-44.9	-55.8	3.8	8.45e-01	0	60	104	0	61	12587
2026-01-13 01:20:33.03	159.49	35.14	-44.9	-55.6	3.8	8.47e-01	0	60	104	0	61	12346
2026-01-13 01:20:35.06	159.94	34.75	-44.9	-55.5	3.8	8.45e-01	0	60	104	0	61	12179
2026-01-13 01:20:37.08	160.36	34.37	-44.8	-55.0	3.8	8.45e-01	0	60	104	0	61	11457
2026-01-13 01:20:39.10	160.78	33.99	-44.4	-52.3	4.4	8.34e-01	0	60	0	0	60	8910
2026-01-13 01:20:41.12	161.19	33.61	-44.6	-53.3	4.1	8.33e-01	0	60	0	0	60	10034
2026-01-13 01:20:43.15	161.60	33.23	-45.0	-56.3	3.8	8.46e-01	0	60	104	0	60	14068
2026-01-13 01:20:45.17	161.99	32.86	-44.2	-51.1	4.9	8.15e-01	0	60	0	0	60	7797
2026-01-13 01:20:47.19	162.37	32.50	-43.7	-49.2	6.1	3.59e-01	0	60	0	6291456	59	6588
2026-01-13 01:20:49.21	162.75	32.13	-44.1	-50.6	5.1	7.16e-01	0	60	0	15728640	59	7749
2026-01-13 01:20:51.23	163.11	31.77	-44.9	-55.8	3.8	8.45e-01	0	60	104	15728640	60	13366
2026-01-13 01:20:53.25	163.47	31.41	-43.5	-48.7	6.4	6.20e-01	0	60	0	16777216	59	6274
2026-01-13 01:20:55.27	163.83	31.06	-41.1	-44.1	10.9	4.34e-03	0	60	0	27262976	54	4877
2026-01-13 01:20:57.29	164.17	30.71	-41.4	-44.6	10.3	4.23e-03	0	60	0	38797312	53	5501
2026-01-13 01:20:59.31	164.51	30.36	-43.1	-47.8	7.2	1.37e-01	0	60	0	50331648	56	6695
2026-01-13 01:21:01.34	164.84	30.01	-40.7	-43.6	11.3	4.01e-03	0	60	0	61865984	53	4918
2026-01-13 01:21:03.36	165.16	29.67	-38.9	-41.1	14.0	3.40e-06	0	60	0	73400320	49	4609
2026-01-13 01:21:05.38	165.48	29.33	-38.1	-40.0	14.9	2.67e-03	0	60	0	84934656	48	4338
2026-01-13 01:21:07.40	165.79	29.00	-41.2	-44.3	10.2	1.23e-01	0	60	0	89128960	54	5024
2026-01-13 01:21:09.42	166.09	28.66	-37.4	-39.3	15.7	0.00e+00	0	60	0	100663296	46	4446
2026-01-13 01:21:11.44	166.39	28.33	-37.1	-38.8	16.0	0.00e+00	0	60	0	112197632	46	4230
2026-01-13 01:21:13.46	166.68	28.01	-36.7	-38.5	16.4	0.00e+00	0	60	0	123731968	45	4299
2026-01-13 01:21:15.48	166.97	27.68	-36.7	-38.4	16.4	0.00e+00	0	60	0	135266304	45	4266
2026-01-13 01:21:17.50	167.25	27.36	-36.6	-38.3	16.5	0.00e+00	0	60	0	145752064	45	4209
2026-01-13 01:21:19.52	167.52	27.05	-36.6	-38.3	16.5	0.00e+00	0	60	0	157286400	45	4223
2026-01-13 01:21:21.54	167.79	26.73	-36.6	-38.3	16.5	0.00e+00	0	60	0	168820736	45	4220
2026-01-13 01:21:23.56	168.06	26.42	-36.6	-38.3	16.5	0.00e+00	0	60	0	180355072	45	4219
2026-01-13 01:21:25.58	168.32	26.11	-36.7	-38.4	16.4	0.00e+00	0	60	0	191889408	45	4288
2026-01-13 01:21:27.60	168.58	25.81	-36.8	-38.5	16.3	0.00e+00	0	60	0	202375168	45	4328
2026-01-13 01:21:29.62	168.83	25.50	-36.8	-38.6	16.2	0.00e+00	0	60	0	213909504	45	4365
2026-01-13 01:21:31.64	169.07	25.21	-36.9	-38.6	16.1	0.00e+00	0	60	0	225443840	45	4379
2026-01-13 01:21:33.66	169.31	24.91	-36.8	-38.5	16.2	0.00e+00	0	60	0	236978176	45	4331
2026-01-13 01:21:35.68	169.55	24.61	-36.8	-38.5	16.2	0.00e+00	0	60	0	248512512	45	4329
2026-01-13 01:21:37.70	169.78	24.32	-36.8	-38.6	16.2	0.00e+00	0	60	0	260046848	45	4345
2026-01-13 01:21:39.72	170.01	24.03	-36.9	-38.6	16.1	0.00e+00	0	60	0	270532608	45	4375
2026-01-13 01:21:41.73	170.24	23.75	-37.0	-38.8	15.9	0.00e+00	0	60	0	282066944	45	4486
2026-01-13 01:21:43.75	170.46	23.47	-37.1	-38.9	15.7	0.00e+00	0	60	0	293601280	45	4537
2026-01-13 01:21:45.78	170.68	23.18	-37.2	-39.1	15.6	0.00e+00	0	60	0	305135616	45	4601
2026-01-13 01:21:47.79	170.89	22.91	-37.4	-39.3	15.4	0.00e+00	0	60	0	316669952	45	4747
2026-01-13 01:21:49.81	171.10	22.63	-37.3	-39.2	15.4	0.00e+00	0	60	0	328204288	45	4686
2026-01-13 01:21:51.83	171.30	22.36	-37.3	-39.1	15.5	0.00e+00	0	60	0	339738624	45	4650
2026-01-13 01:21:53.85	171.51	22.09	-37.3	-39.1	15.5	0.00e+00	0	60	0	350224384	45	4644
2026-01-13 01:21:55.87	171.71	21.82	-37.3	-39.2	15.5	0.00e+00	0	60	0	361758720	45	4662
2026-01-13 01:21:57.89	171.90	21.56	-37.2	-39.1	15.5	0.00e+00	0	60	0	373293056	45	4630
2026-01-13 01:21:59.91	172.09	21.29	-37.3	-39.2	15.5	0.00e+00	0	60	0	384827392	45	4656
2026-01-13 01:22:01.93	172.28	21.03	-37.4	-39.3	15.3	0.00e+00	0	60	0	396361728	45	4748
2026-01-13 01:22:03.95	172.47	20.78	-37.5	-39.4	15.2	0.00e+00	0	60	0	406847488	45	4804
2026-01-13 01:22:05.97	172.66	20.52	-37.6	-39.5	15.1	0.00e+00	0	60	0	418381824	45	4848
2026-01-13 01:22:07.99	172.84	20.27	-37.7	-39.6	14.9	0.00e+00	0	60	0	429916160	45	4925
2026-01-13 01:22:10.01	173.01	20.02	-37.8	-39.9	14.8	0.00e+00	0	60	0	441450496	46	4762
2026-01-13 01:22:12.03	173.19	19.77	-37.6	-39.6	15.0	0.00e+00	0	60	0	452984832	46	4631
2026-01-13 01:22:14.05	173.36	19.52	-37.7	-39.7	14.9	0.00e+00	0	61	0	464519168	46	4664
2026-01-13 01:22:16.07	173.53	19.28	-37.9	-39.9	14.7	0.00e+00	0	60	0	476053504	46	4798
2026-01-13 01:22:18.09	173.70	19.03	-37.9	-39.9	14.7	0.00e+00	0	60	0	486539264	46	4773
2026-01-13 01:22:20.11	173.87	18.79	-37.9	-39.9	14.7	1.10e-06	0	60	0	498073600	46	4785
2026-01-13 01:22:22.13	174.03	18.56	-38.0	-40.0	14.5	1.10e-06	0	60	0	509607936	46	4842
2026-01-13 01:22:24.15	174.19	18.32	-38.2	-40.3	14.3	1.10e-06	0	60	0	521142272	46	4997
2026-01-13 01:22:26.17	174.35	18.09	-38.2	-40.3	14.3	1.10e-06	0	61	0	532676608	47	4712
2026-01-13 01:22:28.19	174.50	17.85	-38.2	-40.3	14.2	4.50e-06	0	60	0	544210944	47	4745
2026-01-13 01:22:30.21	174.65	17.62	-38.3	-40.5	14.0	8.00e-06	0	60	0	554696704	47	4847
2026-01-13 01:22:32.24	174.81	17.40	-38.5	-40.7	13.8	1.02e-05	0	60	0	566231040	47	4965
2026-01-13 01:22:34.25	174.95	17.17	-38.3	-40.5	14.0	6.80e-06	0	60	0	577765376	47	4851
2026-01-13 01:22:36.28	175.10	16.95	-38.4	-40.6	13.9	8.00e-06	0	60	0	589299712	47	4913
2026-01-13 01:22:38.30	175.25	16.72	-38.5	-40.7	13.8	9.10e-06	0	60	0	600834048	47	4940
2026-01-13 01:22:40.32	175.39	16.50	-38.4	-40.6	13.8	9.10e-06	0	60	0	611319808	47	4915
2026-01-13 01:22:42.34	175.53	16.28	-38.3	-40.5	14.0	5.70e-06	0	60	0	622854144	47	4833
2026-01-13 01:22:44.35	175.67	16.07	-38.4	-40.6	13.9	8.00e-06	0	60	0	634388480	47	4879
2026-01-13 01:22:46.37	175.80	15.85	-38.4	-40.7	13.7	8.00e-06	0	60	0	645922816	47	4935
2026-01-13 01:22:48.39	175.94	15.64	-38.4	-40.6	13.8	8.00e-06	0	60	0	657457152	47	4897
2026-01-13 01:22:50.41	176.07	15.43	-38.4	-40.7	13.7	6.80e-06	0	61	0	668991488	47	4929
2026-01-13 01:22:52.43	176.20	15.22	-38.5	-40.7	13.7	1.25e-05	0	60	0	680525824	47	4950
2026-01-13 01:22:54.46	176.33	15.01	-38.5	-40.8	13.6	2.86e-05	0	60	0	691011584	47	4999
2026-01-13 01:22:56.48	176.46	14.80	-38.7	-41.0	13.4	1.71e-05	0	61	0	702545920	47	5134
2026-01-13 01:22:58.50	176.59	14.60	-38.8	-41.2	13.3	2.51e-05	0	61	0	714080256	48	4929
2026-01-13 01:23:00.52	176.71	14.40	-38.8	-41.1	13.3	2.63e-05	0	60	0	725614592	48	4915
2026-01-13 01:23:02.54	176.84	14.19	-38.9	-41.3	13.2	5.37e-05	0	61	0	737148928	48	4989
2026-01-13 01:23:04.56	176.96	13.99	-39.0	-41.4	13.1	3.66e-05	0	60	0	748683264	48	5074
2026-01-13 01:23:06.58	177.08	13.80	-39.0	-41.4	13.1	5.83e-05	0	60	0	760217600	48	5056
2026-01-13 01:23:08.61	177.20	13.60	-39.0	-41.4	13.0	5.14e-05	0	60	0	770703360	48	5090
2026-01-13 01:23:10.63	177.31	13.40	-39.0	-41.4	13.0	7.32e-05	0	61	0	782237696	48	5098
2026-01-13 01:23:12.64	177.43	13.21	-39.1	-41.5	12.9	8.81e-05	0	60	0	793772032	48	5151
2026-01-13 01:23:14.66	177.54	13.02	-39.2	-41.6	12.8	9.38e-05	0	60	0	805306368	48	5207
2026-01-13 01:23:16.69	177.66	12.82	-39.1	-41.6	12.8	1.07e-04	0	61	0	816840704	48	5188
2026-01-13 01:23:18.71	177.77	12.63	-39.2	-41.7	12.6	1.17e-04	0	60	0	827326464	49	4961
2026-01-13 01:23:20.72	177.88	12.45	-39.3	-41.9	12.4	1.90e-04	0	60	0	838860800	49	5070
2026-01-13 01:23:22.75	177.99	12.26	-39.3	-41.9	12.4	2.25e-04	0	61	0	850395136	49	5062
2026-01-13 01:23:24.76	178.09	12.07	-39.5	-42.1	12.1	3.84e-04	0	60	0	861929472	49	5217
2026-01-13 01:23:26.79	178.20	11.89	-39.4	-42.0	12.3	2.47e-04	0	61	0	873463808	49	5125
2026-01-13 01:23:28.80	178.30	11.71	-39.4	-42.0	12.2	3.49e-04	0	61	0	884998144	49	5128
2026-01-13 01:23:30.82	178.41	11.52	-39.5	-42.1	12.1	2.89e-04	0	60	0	896532480	49	5215
2026-01-13 01:23:32.84	178.51	11.34	-39.5	-42.1	12.2	3.24e-04	0	61	0	907018240	49	5191
2026-01-13 01:23:34.86	178.61	11.16	-39.4	-42.0	12.3	3.12e-04	0	60	0	918552576	49	5111
2026-01-13 01:23:36.88	178.71	10.99	-39.4	-42.1	12.2	3.70e-04	0	61	0	930086912	49	5177
2026-01-13 01:23:38.90	178.81	10.81	-39.5	-42.1	12.1	3.90e-04	0	61	0	941621248	49	5198
2026-01-13 01:23:40.92	178.91	10.63	-39.4	-42.1	12.1	3.35e-04	0	60	0	953155584	49	5186
2026-01-13 01:23:42.94	179.01	10.46	-39.5	-42.1	12.1	4.21e-04	0	60	0	964689920	49	5205
2026-01-13 01:23:44.96	179.10	10.28	-39.6	-42.4	11.8	4.84e-04	0	61	0	975175680	49	5347
2026-01-13 01:23:46.98	179.20	10.11	-39.8	-42.6	11.6	9.54e-04	0	61	0	986710016	50	5189
2026-01-13 01:23:49.00	179.29	9.94	-39.9	-42.8	11.4	1.27e-03	0	60	0	998244352	50	5292
2026-01-13 01:23:51.02	179.38	9.77	-39.7	-42.6	11.5	1.31e-03	0	60	0	1009778688	50	5161
2026-01-13 01:23:53.04	179.47	9.60	-39.8	-42.7	11.4	1.07e-03	0	60	0	1021313024	50	5241
2026-01-13 01:23:55.06	179.56	9.43	-39.7	-42.5	11.6	1.06e-03	0	61	0	1031798784	50	5140
2026-01-13 01:23:57.09	179.66	9.27	-39.7	-42.5	11.6	9.78e-04	0	60	0	1043333120	50	5132
2026-01-13 01:23:59.10	179.74	9.10	-39.7	-42.6	11.4	1.28e-03	0	61	0	1054867456	50	5174
2026-01-13 01:24:01.12	179.83	8.94	-39.7	-42.6	11.4	1.37e-03	0	60	0	1066401792	50	5188
2026-01-13 01:24:03.14	179.92	8.77	-39.9	-42.8	11.2	1.88e-03	0	61	0	1077936128	50	5315
2026-01-13 01:24:05.16	180.00	8.61	-39.8	-42.7	11.3	1.37e-03	0	61	0	1089470464	50	5224
2026-01-13 01:24:07.19	180.09	8.45	-39.9	-42.9	11.0	2.45e-03	0	61	0	1101004800	50	5370
2026-01-13 01:24:09.21	180.17	8.29	-39.8	-42.7	11.2	2.10e-03	0	61	0	1111490560	50	5256
2026-01-13 01:24:11.23	180.26	8.13	-40.0	-43.1	10.7	3.29e-03	0	61	0	1123024896	50	5507
2026-01-13 01:24:13.25	180.34	7.97	-44.2	-54.7	3.8	7.94e-01	0	61	104	1132462080	59	12391
2026-01-13 01:24:15.27	180.42	7.81	-44.7	-56.3	3.8	8.46e-01	0	61	104	1132462080	60	14090
2026-01-13 01:24:17.29	180.50	7.66	-45.0	-56.5	3.8	8.45e-01	0	61	104	1132462080	60	14486
2026-01-13 01:24:19.31	180.58	7.50	-45.1	-56.7	3.8	8.48e-01	0	61	104	1132462080	60	14752
2026-01-13 01:24:21.33	180.66	7.35	-45.2	-56.7	3.8	8.45e-01	0	61	104	1132462080	60	14775
2026-01-13 01:24:23.35	180.74	7.19	-45.2	-56.7	3.8	8.46e-01	0	60	104	1132462080	61	13920
2026-01-13 01:24:25.38	180.82	7.04	-45.1	-56.7	3.8	8.46e-01	0	61	104	1132462080	61	13893
2026-01-13 01:24:27.39	180.90	6.89	-45.1	-56.6	3.8	8.46e-01	0	61	104	1132462080	61	13883
2026-01-13 01:24:29.41	180.97	6.73	-45.1	-56.6	3.8	8.47e-01	0	61	104	1132462080	61	13831
2026-01-13 01:24:31.43	181.05	6.58	-45.1	-56.6	3.8	8.47e-01	0	61	104	1132462080	61	13778
2026-01-13 01:24:33.45	181.12	6.43	-45.1	-56.6	3.8	8.46e-01	0	61	104	1132462080	61	13774
2026-01-13 01:24:35.46	181.20	6.29	-45.1	-56.6	3.8	8.46e-01	0	61	104	1132462080	61	13766
2026-01-13 01:24:37.48	181.27	6.14	-45.1	-56.6	3.8	8.46e-01	0	61	104	1132462080	61	13754
2026-01-13 01:24:39.50	181.34	5.99	-45.1	-56.6	3.8	8.45e-01	0	61	104	1132462080	61	13804
2026-01-13 01:24:41.52	181.41	5.84	-45.1	-56.6	3.8	8.47e-01	0	60	104	1132462080	61	13733
2026-01-13 01:24:43.54	181.49	5.70	-45.1	-56.5	3.8	8.46e-01	0	61	104	1132462080	61	13726
2026-01-13 01:24:45.56	181.56	5.55	-45.0	-56.5	3.8	8.47e-01	0	61	104	1132462080	61	13701
2026-01-13 01:24:47.58	181.63	5.41	-45.1	-56.5	3.8	8.47e-01	0	61	104	1132462080	61	13725
2026-01-13 01:24:49.60	181.70	5.27	-45.1	-56.5	3.8	8.46e-01	0	61	104	1132462080	61	13693
2026-01-13 01:24:51.62	181.76	5.12	-45.0	-56.5	3.8	8.46e-01	0	61	104	1132462080	61	13663
2026-01-13 01:24:53.64	181.83	4.98	-45.0	-56.5	3.8	8.46e-01	0	61	104	1132462080	61	13694
2026-01-13 01:24:55.66	181.90	4.84	-45.0	-56.5	3.8	8.47e-01	0	61	104	1132462080	61	13692
2026-01-13 01:24:57.69	181.97	4.70	-45.0	-56.5	3.8	8.46e-01	0	61	104	1132462080	61	13666
2026-01-13 01:24:59.71	182.03	4.56	-45.0	-56.5	3.8	8.47e-01	0	61	104	1132462080	61	13637
2026-01-13 01:25:01.73	182.10	4.42	-45.0	-56.5	3.8	8.46e-01	0	61	104	1132462080	61	13680
2026-01-13 01:25:03.75	182.17	4.28	-45.0	-56.5	3.8	8.45e-01	0	61	104	1132462080	61	13683
2026-01-13 01:25:05.77	182.23	4.14	-45.0	-56.5	3.8	8.46e-01	0	61	104	1132462080	61	13657
2026-01-13 01:25:07.79	182.29	4.01	-45.0	-56.5	3.8	8.46e-01	0	61	104	1132462080	61	13692
2026-01-13 01:25:09.81	182.36	3.87	-45.0	-56.5	3.8	8.46e-01	0	61	104	1132462080	61	13640
2026-01-13 01:25:11.83	182.42	3.74	-45.0	-56.5	3.8	8.47e-01	0	61	104	1132462080	61	13623
2026-01-13 01:25:13.84	182.48	3.60	-45.0	-56.5	3.8	8.47e-01	0	61	104	1132462080	61	13627
2026-01-13 01:25:15.86	182.55	3.47	-45.0	-56.5	3.8	8.47e-01	0	61	104	1132462080	61	13648
2026-01-13 01:25:17.88	182.61	3.33	-45.0	-56.5	3.8	8.46e-01	0	61	104	1132462080	61	13623
2026-01-13 01:25:19.90	182.67	3.20	-45.0	-56.5	3.8	8.46e-01	0	61	104	1132462080	61	13601
2026-01-13 01:25:21.92	182.73	3.07	-45.0	-56.5	3.8	8.45e-01	0	61	104	1132462080	61	13706
2026-01-13 01:25:23.94	182.79	2.94	-45.0	-56.5	3.8	8.45e-01	0	61	104	1132462080	61	13658
2026-01-13 01:25:25.96	182.85	2.80	-45.0	-56.5	3.8	8.46e-01	0	61	104	1132462080	61	13691
2026-01-13 01:25:27.98	182.91	2.67	-45.0	-56.5	3.8	8.46e-01	0	61	104	1132462080	61	13635
2026-01-13 01:25:30.00	182.97	2.54	-45.0	-56.5	3.8	8.47e-01	0	60	104	1132462080	61	13672
2026-01-13 01:25:32.02	183.02	2.41	-45.0	-56.5	3.8	8.45e-01	0	61	104	1132462080	61	13619
2026-01-13 01:25:34.04	183.08	2.29	-45.0	-56.5	3.8	8.46e-01	0	61	104	1132462080	61	13655
2026-01-13 01:25:36.06	183.14	2.16	-45.0	-56.5	3.8	8.47e-01	0	61	104	1132462080	61	13661
2026-01-13 01:25:38.09	183.20	2.03	-45.0	-56.5	3.8	8.46e-01	0	61	104	1132462080	61	13611

#Closed at: 2026-01-13 01:25:39
#Recorded file [1132 MB]: D:/lorett/data/31039_260113_042008.dat