passes_logs/2026/01/13/R2.0S_Moscow/R2.0S_Moscow__20260113_043657_FENGYUN_3E_rec.log

#Pass ID: 20260113_043657_FENGYUN 3E
#Satellite: FENGYUN 3E
#Configuration: FENGYUN 3E
#almurnet v.1.7.20251203
#Start time: 2026-01-13 04:36:58

#Version: 2.2.20231116
#Station: R2.0S_Moscow
#Location: 37.707566 lon 55.798166 lat
#TLE: 1 49008U 21062A   26012.25745337  .00000274  00000+0  14981-3 0  9997
#TLE: 2 49008  98.7491  17.4183 0001913 142.8235 217.3074 14.19885845234459

#Time	Az	El	Level	Level2	SNR	BER	BlckErr	Temp	State	Recorded	gain1	gain2
2026-01-13 04:36:58.00	13.43	2.04	-41.4	-52.2	3.8	8.46e-01	0	50	0	0	53	12489
2026-01-13 04:37:02.03	13.33	2.29	-41.4	-52.2	3.8	8.45e-01	0	51	104	0	53	12493
2026-01-13 04:37:06.07	13.23	2.55	-41.4	-52.2	3.8	8.46e-01	0	52	104	0	53	12516
2026-01-13 04:37:10.11	13.12	2.81	-41.4	-52.2	3.8	8.46e-01	0	52	104	0	53	12476
2026-01-13 04:37:14.16	13.01	3.07	-41.4	-52.2	3.8	8.45e-01	0	52	104	0	53	12500
2026-01-13 04:37:18.20	12.90	3.33	-41.4	-52.2	3.8	8.46e-01	0	52	104	0	53	12438
2026-01-13 04:37:22.24	12.79	3.60	-41.4	-52.2	3.8	8.46e-01	0	53	104	0	53	12378
2026-01-13 04:37:26.28	12.67	3.87	-41.3	-52.1	3.8	8.47e-01	0	53	104	0	53	12287
2026-01-13 04:37:30.32	12.56	4.14	-41.3	-52.0	3.8	8.46e-01	0	53	104	0	53	12120
2026-01-13 04:37:34.36	12.44	4.41	-41.3	-52.0	3.8	8.46e-01	0	54	104	0	53	12232
2026-01-13 04:37:38.39	12.31	4.69	-41.3	-52.0	3.8	8.47e-01	0	54	104	0	53	12199
2026-01-13 04:37:42.44	12.19	4.97	-41.3	-52.2	3.8	8.46e-01	0	54	104	0	53	12433
2026-01-13 04:37:46.48	12.06	5.25	-41.3	-51.9	3.8	8.45e-01	0	54	104	0	53	12025
2026-01-13 04:37:50.52	11.93	5.54	-41.2	-50.8	3.8	8.45e-01	0	54	104	0	53	10640
2026-01-13 04:37:54.56	11.80	5.82	-41.0	-49.6	4.0	8.44e-01	0	55	104	0	53	9179
2026-01-13 04:37:58.61	11.66	6.11	-40.9	-49.1	4.1	8.41e-01	0	55	0	0	52	9242
2026-01-13 04:38:02.65	11.52	6.41	-41.1	-50.2	3.8	8.46e-01	0	55	104	0	52	10417
2026-01-13 04:38:06.69	11.37	6.71	-41.2	-51.0	3.8	8.47e-01	0	55	104	0	52	11514
2026-01-13 04:38:10.72	11.23	7.01	-41.1	-50.1	3.8	8.45e-01	0	56	104	0	52	10373
2026-01-13 04:38:14.77	11.08	7.31	-40.9	-48.9	4.1	8.39e-01	0	55	0	0	52	9050
2026-01-13 04:38:18.81	10.92	7.62	-40.8	-48.5	4.2	8.35e-01	0	56	0	0	52	8595
2026-01-13 04:38:22.86	10.77	7.93	-41.0	-49.9	3.8	8.45e-01	0	56	104	0	52	10113
2026-01-13 04:38:26.89	10.61	8.24	-41.6	-52.0	3.8	8.46e-01	0	56	104	0	52	12906
2026-01-13 04:38:30.93	10.44	8.56	-41.4	-50.2	4.0	8.44e-01	0	56	104	0	52	10462
2026-01-13 04:38:34.97	10.27	8.88	-41.4	-50.7	3.8	8.46e-01	0	56	104	0	52	11106
2026-01-13 04:38:39.02	10.10	9.21	-41.4	-51.4	3.8	8.46e-01	0	57	104	0	52	11980
2026-01-13 04:38:43.06	9.92	9.54	-41.7	-52.4	3.8	8.47e-01	0	57	104	0	52	13425
2026-01-13 04:38:47.10	9.74	9.88	-40.9	-51.8	3.8	8.47e-01	0	57	104	0	52	12641
2026-01-13 04:38:51.14	9.55	10.21	-41.1	-51.6	3.8	8.47e-01	0	57	104	0	52	12318
2026-01-13 04:38:55.18	9.36	10.56	-41.9	-50.1	4.1	8.44e-01	0	57	104	0	53	9811
2026-01-13 04:38:59.22	9.17	10.90	-42.1	-50.0	4.1	8.41e-01	0	57	0	0	53	9694
2026-01-13 04:39:03.26	8.96	11.26	-41.2	-46.6	5.8	6.18e-01	0	57	0	1048576	53	6535
2026-01-13 04:39:07.30	8.76	11.61	-40.3	-44.1	8.1	7.97e-02	0	57	0	30408704	51	5499
2026-01-13 04:39:11.34	8.55	11.97	-39.3	-42.1	10.3	7.44e-03	0	58	0	58720256	49	4920
2026-01-13 04:39:15.38	8.33	12.34	-38.9	-41.4	11.5	7.88e-04	0	58	0	88080384	48	4761
2026-01-13 04:39:19.42	8.10	12.71	-38.3	-40.5	12.3	2.06e-04	0	58	0	117440512	47	4582
2026-01-13 04:39:23.46	7.87	13.09	-38.5	-40.8	12.3	3.09e-04	0	58	0	146800640	47	4724
2026-01-13 04:39:27.50	7.64	13.47	-38.1	-40.1	13.2	2.17e-05	0	58	0	176160768	46	4641
2026-01-13 04:39:31.54	7.40	13.86	-37.9	-39.8	13.8	5.70e-06	0	58	0	205520896	46	4460
2026-01-13 04:39:35.59	7.14	14.26	-37.9	-39.7	14.0	0.00e+00	0	58	0	233832448	46	4402
2026-01-13 04:39:39.63	6.89	14.66	-37.8	-39.6	14.2	2.20e-06	0	58	0	263192576	46	4361
2026-01-13 04:39:43.67	6.62	15.06	-37.7	-39.5	14.4	1.10e-06	0	59	0	292552704	46	4299
2026-01-13 04:39:47.71	6.35	15.47	-37.8	-39.5	14.4	3.40e-06	0	58	0	321912832	46	4312
2026-01-13 04:39:51.75	6.07	15.89	-37.7	-39.4	14.6	0.00e+00	0	59	0	351272960	45	4515
2026-01-13 04:39:55.79	5.78	16.32	-37.6	-39.3	14.8	0.00e+00	0	58	0	379584512	45	4451
2026-01-13 04:39:59.82	5.48	16.75	-37.6	-39.3	14.9	0.00e+00	0	59	0	408944640	45	4471
2026-01-13 04:40:03.86	5.18	17.19	-37.5	-39.1	15.1	0.00e+00	0	59	0	438304768	45	4366
2026-01-13 04:40:07.90	4.86	17.63	-37.2	-38.7	15.5	0.00e+00	0	59	0	467664896	45	4192
2026-01-13 04:40:11.94	4.53	18.09	-37.0	-38.5	15.8	0.00e+00	0	59	0	497025024	45	4085
2026-01-13 04:40:15.99	4.20	18.55	-37.0	-38.5	15.9	0.00e+00	0	59	0	525336576	45	4070
2026-01-13 04:40:20.02	3.85	19.02	-36.9	-38.3	16.1	0.00e+00	0	59	0	554696704	44	4229
2026-01-13 04:40:24.06	3.49	19.49	-36.9	-38.4	16.1	0.00e+00	0	59	0	584056832	44	4250
2026-01-13 04:40:28.10	3.12	19.98	-37.1	-38.5	16.0	0.00e+00	0	59	0	613416960	44	4335
2026-01-13 04:40:32.14	2.73	20.47	-36.9	-38.4	16.1	0.00e+00	0	59	0	642777088	44	4265
2026-01-13 04:40:36.18	2.34	20.97	-37.1	-38.5	16.0	0.00e+00	0	59	0	671088640	44	4333
2026-01-13 04:40:40.22	1.93	21.48	-37.0	-38.4	16.1	0.00e+00	0	59	0	700448768	44	4271
2026-01-13 04:40:44.26	1.50	22.00	-37.0	-38.5	16.1	0.00e+00	0	59	0	729808896	44	4300
2026-01-13 04:40:48.30	1.06	22.52	-36.8	-38.2	16.4	0.00e+00	0	59	0	759169024	44	4183
2026-01-13 04:40:52.34	0.61	23.06	-36.7	-38.1	16.5	0.00e+00	0	59	0	788529152	44	4131
2026-01-13 04:40:56.38	0.13	23.61	-36.8	-38.2	16.4	0.00e+00	0	59	0	816840704	44	4156
2026-01-13 04:41:00.42	359.64	24.16	-36.7	-38.1	16.6	0.00e+00	0	59	0	846200832	44	4100
2026-01-13 04:41:04.46	359.14	24.73	-36.6	-37.9	16.7	0.00e+00	0	59	0	875560960	44	4051
2026-01-13 04:41:08.50	358.61	25.30	-36.7	-38.0	16.6	0.00e+00	0	59	0	904921088	44	4095
2026-01-13 04:41:12.55	358.06	25.89	-36.4	-37.7	16.8	0.00e+00	0	60	0	934281216	43	4179
2026-01-13 04:41:16.59	357.49	26.48	-36.3	-37.6	16.9	0.00e+00	0	60	0	962592768	43	4136
2026-01-13 04:41:20.62	356.90	27.09	-36.4	-37.7	16.9	0.00e+00	0	59	0	991952896	42	4411
2026-01-13 04:41:24.66	356.29	27.70	-35.7	-36.9	17.7	0.00e+00	0	59	0	1021313024	42	4017
2026-01-13 04:41:28.70	355.65	28.33	-35.4	-36.6	18.0	0.00e+00	0	60	0	1050673152	41	4127
2026-01-13 04:41:32.74	354.98	28.96	-35.7	-36.9	17.7	0.00e+00	0	60	0	1080033280	41	4274
2026-01-13 04:41:36.78	354.29	29.61	-36.0	-37.2	17.4	0.00e+00	0	60	0	1109393408	41	4432
2026-01-13 04:41:40.82	353.56	30.26	-36.4	-37.8	17.0	0.00e+00	0	60	0	1137704960	42	4444
2026-01-13 04:41:44.85	352.81	30.92	-36.4	-37.8	17.0	0.00e+00	0	60	0	1167065088	43	4201
2026-01-13 04:41:48.89	352.03	31.60	-36.5	-37.9	16.9	0.00e+00	0	60	0	1196425216	43	4244
2026-01-13 04:41:52.93	351.21	32.28	-36.1	-37.4	17.4	0.00e+00	0	60	0	1225785344	42	4247
2026-01-13 04:41:56.97	350.35	32.98	-35.7	-36.9	17.9	0.00e+00	0	60	0	1255145472	42	4028
2026-01-13 04:42:01.01	349.46	33.68	-35.9	-37.2	17.6	0.00e+00	0	60	0	1283457024	42	4169
2026-01-13 04:42:05.05	348.52	34.39	-35.8	-37.0	17.8	0.00e+00	0	60	0	1312817152	42	4083
2026-01-13 04:42:09.09	347.54	35.10	-35.9	-37.1	17.7	0.00e+00	0	60	0	1342177280	41	4363
2026-01-13 04:42:13.13	346.52	35.82	-36.2	-37.5	17.3	0.00e+00	0	60	0	1371537408	42	4324
2026-01-13 04:42:17.17	345.45	36.55	-36.4	-37.7	17.2	0.00e+00	0	60	0	1400897536	42	4425
2026-01-13 04:42:21.21	344.34	37.29	-36.2	-37.4	17.4	0.00e+00	0	60	0	1430257664	42	4290
2026-01-13 04:42:25.25	343.16	38.02	-36.1	-37.4	17.5	0.00e+00	0	60	0	1458569216	42	4261
2026-01-13 04:42:29.29	341.94	38.76	-36.1	-37.4	17.5	0.00e+00	0	60	0	1487929344	42	4248
2026-01-13 04:42:33.34	340.65	39.50	-36.3	-37.6	17.3	0.00e+00	0	60	0	1517289472	42	4346
2026-01-13 04:42:37.38	339.31	40.24	-36.2	-37.5	17.4	0.00e+00	0	60	0	1546649600	42	4294
2026-01-13 04:42:41.41	337.91	40.97	-36.6	-37.9	17.0	0.00e+00	0	60	0	1576009728	43	4274
2026-01-13 04:42:45.45	336.43	41.70	-36.3	-37.6	17.4	0.00e+00	0	60	0	1605369856	43	4104
2026-01-13 04:42:49.49	334.89	42.42	-36.3	-37.5	17.4	0.00e+00	0	60	0	1633681408	42	4339
2026-01-13 04:42:53.53	333.28	43.13	-36.2	-37.4	17.5	0.00e+00	0	60	0	1663041536	42	4272
2026-01-13 04:42:57.57	331.60	43.82	-36.7	-38.0	17.0	0.00e+00	0	60	0	1692401664	42	4583
2026-01-13 04:43:01.61	329.84	44.50	-36.8	-38.2	16.8	0.00e+00	0	60	0	1721761792	43	4418
2026-01-13 04:43:05.65	328.01	45.16	-36.2	-37.5	17.5	0.00e+00	0	60	0	1751121920	43	4055
2026-01-13 04:43:09.69	326.09	45.80	-36.0	-37.2	17.8	0.00e+00	0	60	0	1779433472	42	4174
2026-01-13 04:43:13.73	324.11	46.40	-36.6	-37.9	17.0	0.00e+00	0	60	0	1808793600	43	4291
2026-01-13 04:43:17.77	322.04	46.98	-36.7	-38.0	17.0	0.00e+00	0	60	0	1838153728	43	4319
2026-01-13 04:43:21.81	319.90	47.52	-36.7	-38.0	16.9	0.00e+00	0	60	0	1867513856	43	4321
2026-01-13 04:43:25.85	317.68	48.03	-36.9	-38.3	16.7	0.00e+00	0	60	0	1896873984	43	4447
2026-01-13 04:43:29.89	315.39	48.49	-36.7	-38.0	17.0	0.00e+00	0	60	0	1926234112	43	4294
2026-01-13 04:43:33.93	313.04	48.90	-37.3	-38.7	16.4	0.00e+00	0	60	0	1954545664	44	4406
2026-01-13 04:43:37.97	310.63	49.27	-37.3	-38.7	16.4	0.00e+00	0	60	0	1983905792	44	4400
2026-01-13 04:43:42.01	308.16	49.58	-36.8	-38.1	17.0	0.00e+00	0	60	0	2013265920	44	4141
2026-01-13 04:43:46.05	305.64	49.83	-37.2	-38.6	16.5	0.00e+00	0	60	0	2042626048	44	4367
2026-01-13 04:43:50.09	303.09	50.03	-37.1	-38.4	16.7	0.00e+00	0	60	0	2070937600	44	4261
2026-01-13 04:43:54.13	300.51	50.17	-37.1	-38.4	16.7	0.00e+00	0	61	0	2100297728	44	4257
2026-01-13 04:43:58.17	297.91	50.24	-36.6	-37.9	17.2	0.00e+00	0	60	0	2129657856	44	4033
2026-01-13 04:44:02.21	295.30	50.25	-37.1	-38.5	16.7	0.00e+00	0	60	0	2159017984	44	4296
2026-01-13 04:44:06.25	292.70	50.20	-37.1	-38.5	16.6	0.00e+00	0	60	0	2188378112	44	4299
2026-01-13 04:44:10.29	290.11	50.08	-36.8	-38.1	17.0	0.00e+00	0	60	0	2217738240	44	4120
2026-01-13 04:44:14.34	287.53	49.91	-36.6	-37.9	17.2	0.00e+00	0	60	0	2246049792	44	4031
2026-01-13 04:44:18.38	285.00	49.67	-36.9	-38.2	16.9	0.00e+00	0	60	0	2275409920	44	4185
2026-01-13 04:44:22.41	282.52	49.38	-36.8	-38.1	17.0	0.00e+00	0	60	0	2304770048	44	4111
2026-01-13 04:44:26.45	280.08	49.03	-37.1	-38.4	16.7	0.00e+00	0	61	0	2334130176	44	4269
2026-01-13 04:44:30.49	277.70	48.64	-36.7	-38.0	17.1	0.00e+00	0	60	0	2362441728	44	4077
2026-01-13 04:44:34.53	275.39	48.19	-36.9	-38.2	16.9	0.00e+00	0	61	0	2391801856	44	4174
2026-01-13 04:44:38.58	273.14	47.70	-36.6	-37.9	17.2	0.00e+00	0	61	0	2421161984	44	4014
2026-01-13 04:44:42.62	270.97	47.17	-36.7	-38.0	17.1	0.00e+00	0	60	0	2450522112	44	4062
2026-01-13 04:44:46.65	268.87	46.60	-36.6	-37.9	17.0	0.00e+00	0	60	0	2479882240	43	4284
2026-01-13 04:44:50.70	266.85	46.00	-36.4	-37.7	17.3	0.00e+00	0	61	0	2509242368	43	4159
2026-01-13 04:44:54.74	264.90	45.37	-36.4	-37.7	17.2	0.00e+00	0	61	0	2537553920	43	4178
2026-01-13 04:44:58.78	263.04	44.72	-36.2	-37.4	17.5	0.00e+00	0	60	0	2566914048	43	4046
2026-01-13 04:45:02.81	261.25	44.04	-35.6	-36.8	18.2	0.00e+00	0	60	0	2596274176	42	3961
2026-01-13 04:45:06.86	259.54	43.35	-36.0	-37.3	17.7	0.00e+00	0	61	0	2625634304	42	4196
2026-01-13 04:45:10.90	257.90	42.64	-35.7	-36.9	18.1	0.00e+00	0	60	0	2654994432	42	4033
2026-01-13 04:45:14.94	256.33	41.92	-35.9	-37.1	17.8	0.00e+00	0	60	0	2683305984	42	4134
2026-01-13 04:45:18.98	254.83	41.19	-35.6	-36.8	18.1	0.00e+00	0	61	0	2712666112	42	3974
2026-01-13 04:45:23.02	253.39	40.46	-35.9	-37.1	17.8	0.00e+00	0	60	0	2742026240	41	4384
2026-01-13 04:45:27.06	252.02	39.72	-35.8	-37.1	17.9	0.00e+00	0	61	0	2771386368	41	4343
2026-01-13 04:45:31.10	250.72	38.98	-35.9	-37.1	17.9	0.00e+00	0	60	0	2800746496	41	4352
2026-01-13 04:45:35.14	249.47	38.24	-36.1	-37.4	17.5	0.00e+00	0	61	0	2830106624	41	4506
2026-01-13 04:45:39.18	248.27	37.50	-35.7	-36.9	17.9	0.00e+00	0	61	0	2858418176	41	4283
2026-01-13 04:45:43.22	247.13	36.76	-35.5	-36.7	18.2	0.00e+00	0	60	0	2887778304	41	4161
2026-01-13 04:45:47.25	246.05	36.03	-35.2	-36.3	18.5	0.00e+00	0	61	0	2917138432	41	3987
2026-01-13 04:45:51.30	245.00	35.30	-35.7	-37.0	18.0	0.00e+00	0	61	0	2946498560	41	4296
2026-01-13 04:45:55.34	244.01	34.57	-35.5	-36.7	18.2	0.00e+00	0	61	0	2974810112	41	4179
2026-01-13 04:45:59.37	243.06	33.86	-35.3	-36.5	18.3	0.00e+00	0	61	0	3004170240	41	4068
2026-01-13 04:46:03.41	242.14	33.15	-35.8	-37.0	17.9	0.00e+00	0	61	0	3033530368	41	4330
2026-01-13 04:46:07.45	241.27	32.45	-35.3	-36.5	18.4	0.00e+00	0	61	0	3062890496	41	4054
2026-01-13 04:46:11.49	240.44	31.76	-35.6	-36.8	18.0	0.00e+00	0	61	0	3092250624	41	4232
2026-01-13 04:46:15.53	239.64	31.08	-35.5	-36.7	18.1	0.00e+00	0	60	0	3121610752	41	4178
2026-01-13 04:46:19.57	238.87	30.41	-35.7	-36.9	18.0	0.00e+00	0	61	0	3149922304	41	4254
2026-01-13 04:46:23.61	238.13	29.75	-35.9	-37.1	17.7	0.00e+00	0	61	0	3179282432	41	4375
2026-01-13 04:46:27.65	237.42	29.10	-36.0	-37.3	17.5	0.00e+00	0	61	0	3208642560	41	4450
2026-01-13 04:46:31.69	236.75	28.46	-35.5	-36.7	18.1	0.00e+00	0	61	0	3238002688	41	4169
2026-01-13 04:46:35.72	236.10	27.83	-35.8	-37.0	17.8	0.00e+00	0	61	0	3267362816	41	4321
2026-01-13 04:46:39.76	235.47	27.21	-35.9	-37.2	17.6	0.00e+00	0	61	0	3295674368	41	4407
2026-01-13 04:46:43.80	234.87	26.59	-35.8	-37.0	17.8	0.00e+00	0	61	0	3325034496	41	4307
2026-01-13 04:46:47.83	234.29	26.00	-35.8	-37.0	17.8	0.00e+00	0	61	0	3354394624	41	4310
2026-01-13 04:46:51.87	233.73	25.40	-35.8	-37.0	17.7	0.00e+00	0	60	0	3383754752	41	4330
2026-01-13 04:46:55.91	233.19	24.82	-36.0	-37.2	17.5	0.00e+00	0	61	0	3413114880	41	4438
2026-01-13 04:46:59.95	232.67	24.25	-36.1	-37.4	17.4	0.00e+00	0	61	0	3442475008	41	4510
2026-01-13 04:47:03.99	232.18	23.69	-36.2	-37.5	17.3	0.00e+00	0	61	0	3470786560	41	4556
2026-01-13 04:47:08.03	231.69	23.14	-36.1	-37.4	17.3	0.00e+00	0	61	0	3500146688	41	4514
2026-01-13 04:47:12.06	231.23	22.60	-36.1	-37.3	17.4	0.00e+00	0	61	0	3529506816	41	4490
2026-01-13 04:47:16.10	230.78	22.07	-36.2	-37.4	17.3	0.00e+00	0	61	0	3558866944	42	4286
2026-01-13 04:47:20.14	230.35	21.54	-36.4	-37.7	17.0	0.00e+00	0	61	0	3587178496	42	4439
2026-01-13 04:47:24.18	229.93	21.03	-36.6	-37.9	16.8	0.00e+00	0	61	0	3616538624	42	4518
2026-01-13 04:47:28.22	229.53	20.52	-36.8	-38.2	16.5	0.00e+00	0	60	0	3645898752	43	4396
2026-01-13 04:47:32.27	229.13	20.02	-37.0	-38.4	16.2	0.00e+00	0	61	0	3675258880	43	4545
2026-01-13 04:47:36.31	228.75	19.54	-37.0	-38.4	16.2	0.00e+00	0	61	0	3704619008	43	4522
2026-01-13 04:47:40.35	228.39	19.05	-36.9	-38.3	16.4	0.00e+00	0	61	0	3733979136	43	4460
2026-01-13 04:47:44.39	228.03	18.58	-36.8	-38.2	16.4	0.00e+00	0	61	0	3762290688	43	4417
2026-01-13 04:47:48.43	227.69	18.12	-37.0	-38.4	16.2	0.00e+00	0	61	0	3791650816	43	4537
2026-01-13 04:47:52.47	227.35	17.66	-37.5	-39.0	15.8	0.00e+00	0	61	0	3821010944	44	4548
2026-01-13 04:47:56.51	227.03	17.21	-37.6	-39.1	15.6	0.00e+00	0	61	0	3850371072	44	4621
2026-01-13 04:48:00.55	226.72	16.77	-37.6	-39.2	15.5	0.00e+00	0	61	0	3879731200	45	4401
2026-01-13 04:48:04.59	226.41	16.33	-37.7	-39.2	15.4	0.00e+00	0	61	0	3908042752	45	4437
2026-01-13 04:48:08.63	226.12	15.90	-37.7	-39.3	15.4	0.00e+00	0	61	0	3937402880	45	4444
2026-01-13 04:48:12.67	225.83	15.48	-37.9	-39.5	15.2	0.00e+00	0	61	0	3966763008	45	4562
2026-01-13 04:48:16.71	225.55	15.06	-37.9	-39.4	15.2	0.00e+00	0	61	0	3996123136	45	4544
2026-01-13 04:48:20.75	225.28	14.65	-37.8	-39.5	15.1	0.00e+00	0	61	0	4025483264	45	4548
2026-01-13 04:48:24.80	225.02	14.25	-38.0	-39.6	15.0	1.10e-06	0	61	0	4054843392	45	4622
2026-01-13 04:48:28.83	224.76	13.85	-38.0	-39.7	14.9	0.00e+00	0	61	0	4083154944	45	4662
2026-01-13 04:48:32.87	224.51	13.46	-38.1	-39.7	14.8	0.00e+00	0	61	0	4112515072	45	4698
2026-01-13 04:48:36.91	224.27	13.08	-38.4	-40.2	14.3	0.00e+00	0	61	0	4141875200	46	4656
2026-01-13 04:48:40.95	224.04	12.70	-38.5	-40.3	14.2	2.20e-06	0	61	0	4171235328	46	4719
2026-01-13 04:48:44.99	223.81	12.32	-38.8	-40.7	13.8	5.70e-06	0	61	0	4199546880	47	4663
2026-01-13 04:48:49.02	223.58	11.95	-38.8	-40.7	13.7	8.00e-06	0	61	0	4228907008	47	4679
2026-01-13 04:48:53.06	223.37	11.59	-39.0	-41.0	13.4	1.37e-05	0	61	0	4258267136	47	4842
2026-01-13 04:48:57.10	223.15	11.23	-38.9	-40.9	13.5	6.80e-06	0	61	0	4287627264	47	4767
2026-01-13 04:49:01.13	222.95	10.88	-39.0	-41.0	13.3	1.37e-05	0	61	0	4316987392	47	4861
2026-01-13 04:49:05.17	222.74	10.53	-39.1	-41.2	13.1	3.31e-05	0	61	0	4345298944	47	4927
2026-01-13 04:49:09.21	222.55	10.18	-39.2	-41.2	13.0	3.20e-05	0	61	0	4374659072	47	4980
2026-01-13 04:49:13.25	222.36	9.84	-39.3	-41.4	13.1	6.29e-05	0	61	0	4404019200	48	4766
2026-01-13 04:49:17.29	222.17	9.50	-39.4	-41.5	12.8	5.14e-05	0	61	0	4433379328	48	4858
2026-01-13 04:49:21.33	221.99	9.17	-39.6	-41.8	12.5	1.65e-04	0	61	0	4462739456	48	5034
2026-01-13 04:49:25.37	221.81	8.84	-39.5	-41.7	12.5	1.28e-04	0	61	0	4491051008	49	4701
2026-01-13 04:49:29.41	221.63	8.52	-39.6	-41.8	12.4	1.50e-04	0	61	0	4520411136	49	4747
2026-01-13 04:49:33.45	221.46	8.20	-39.5	-41.9	12.3	2.53e-04	0	61	0	4549771264	49	4766
2026-01-13 04:49:37.49	221.30	7.88	-45.1	-56.4	3.8	8.45e-01	0	61	104	4565499904	60	13432
2026-01-13 04:49:41.53	221.13	7.57	-45.6	-56.8	3.8	8.46e-01	0	61	104	4565499904	60	14115
2026-01-13 04:49:45.57	220.97	7.26	-45.6	-56.8	3.8	8.46e-01	0	61	104	4565499904	60	14103
2026-01-13 04:49:49.61	220.82	6.95	-45.6	-56.7	3.8	8.46e-01	0	61	104	4565499904	60	13972
2026-01-13 04:49:53.65	220.67	6.65	-45.5	-56.7	3.8	8.45e-01	0	61	104	4565499904	60	13970
2026-01-13 04:49:57.68	220.52	6.35	-45.5	-56.6	3.8	8.47e-01	0	61	104	4565499904	60	13847
2026-01-13 04:50:01.72	220.37	6.05	-45.5	-56.7	3.8	8.46e-01	0	61	104	4565499904	60	13901
2026-01-13 04:50:05.76	220.23	5.76	-45.5	-56.7	3.8	8.46e-01	0	61	104	4565499904	60	13901
2026-01-13 04:50:09.80	220.09	5.47	-45.5	-56.6	3.8	8.47e-01	0	61	104	4565499904	60	13832
2026-01-13 04:50:13.84	219.95	5.19	-45.5	-56.6	3.8	8.46e-01	0	61	104	4565499904	60	13856
2026-01-13 04:50:17.88	219.82	4.90	-45.5	-56.7	3.8	8.46e-01	0	61	104	4565499904	60	13902
2026-01-13 04:50:21.92	219.69	4.62	-45.5	-56.6	3.8	8.46e-01	0	61	104	4565499904	60	13859
2026-01-13 04:50:25.96	219.56	4.34	-45.5	-56.6	3.8	8.47e-01	0	61	104	4565499904	60	13797
2026-01-13 04:50:30.01	219.43	4.07	-45.5	-56.6	3.8	8.46e-01	0	61	104	4565499904	60	13791
2026-01-13 04:50:34.05	219.31	3.79	-45.4	-56.6	3.8	8.46e-01	0	61	104	4565499904	60	13821
2026-01-13 04:50:38.08	219.19	3.52	-45.4	-56.6	3.8	8.45e-01	0	61	104	4565499904	60	13769
2026-01-13 04:50:42.12	219.07	3.26	-45.4	-56.6	3.8	8.46e-01	0	61	104	4565499904	60	13793
2026-01-13 04:50:46.16	218.95	2.99	-45.4	-56.6	3.8	8.47e-01	0	61	104	4565499904	60	13797
2026-01-13 04:50:50.20	218.84	2.73	-45.4	-56.6	3.8	8.45e-01	0	61	104	4565499904	60	13742
2026-01-13 04:50:54.24	218.73	2.47	-45.4	-56.6	3.8	8.47e-01	0	61	104	4565499904	60	13767
2026-01-13 04:50:58.28	218.62	2.21	-45.4	-56.6	3.8	8.46e-01	0	61	104	4565499904	60	13807
2026-01-13 04:51:02.31	218.51	1.95	-45.4	-56.6	3.8	8.46e-01	0	61	104	4565499904	60	13762

#Closed at: 2026-01-13 04:51:03
#Recorded file [4565 MB]: D:/lorett/data/31039_260113_073657.dat