passes_logs/2026/01/13/R2.0S_Moscow/R2.0S_Moscow__20260113_012251_NOAA_21_JPSS-2_rec.log

#Pass ID: 20260113_012251_NOAA 21 (JPSS-2)
#Satellite: NOAA 21 (JPSS-2)
#Configuration: NOAA-21
#almurnet v.1.7.20251203
#Start time: 2026-01-13 01:25:46

#Version: 2.2.20231116
#Station: R2.0S_Moscow
#Location: 37.707566 lon 55.798166 lat
#TLE: 1 54234U 22150A   26012.26378519  .00000063  00000+0  50547-4 0  9993
#TLE: 2 54234  98.7495 313.1967 0000726 309.1075  51.0036 14.19534275164425

#Time	Az	El	Level	Level2	SNR	BER	BlckErr	Temp	State	Recorded	gain1	gain2
2026-01-13 01:25:46.95	352.91	12.93	-45.0	-56.5	3.8	8.47e-01	0	60	0	0	61	13631
2026-01-13 01:25:49.97	352.48	13.13	-45.3	-57.5	3.8	1.49e+00	0	61	104	0	62	14505
2026-01-13 01:25:53.00	352.04	13.33	-45.2	-57.5	3.8	1.49e+00	0	61	104	0	62	14421
2026-01-13 01:25:56.03	351.59	13.54	-44.5	-56.9	3.8	1.49e+00	0	60	104	0	61	14277
2026-01-13 01:25:59.06	351.14	13.74	-40.4	-53.2	3.8	1.49e+00	0	60	104	0	52	15715
2026-01-13 01:26:02.09	350.68	13.95	-40.3	-53.2	3.8	1.49e+00	0	60	104	0	52	15671
2026-01-13 01:26:05.12	350.21	14.15	-40.3	-53.2	3.8	1.49e+00	0	60	104	0	52	15687
2026-01-13 01:26:08.15	349.74	14.35	-40.3	-53.2	3.8	1.49e+00	0	61	104	0	52	15597
2026-01-13 01:26:11.18	349.26	14.56	-40.3	-53.2	3.8	1.49e+00	0	61	104	0	52	15672
2026-01-13 01:26:14.21	348.77	14.76	-40.3	-53.2	3.8	1.49e+00	0	60	104	0	52	15684
2026-01-13 01:26:17.25	348.28	14.96	-40.3	-53.2	3.8	1.49e+00	0	61	104	0	52	15676
2026-01-13 01:26:20.28	347.78	15.16	-40.3	-53.2	3.8	1.49e+00	0	60	104	0	52	15657
2026-01-13 01:26:23.31	347.27	15.37	-40.3	-53.2	3.8	1.49e+00	0	60	104	0	52	15617
2026-01-13 01:26:26.34	346.76	15.57	-40.3	-53.2	3.8	1.49e+00	0	61	104	0	52	15659
2026-01-13 01:26:29.37	346.23	15.77	-40.3	-53.1	3.8	1.49e+00	0	60	104	0	52	15568
2026-01-13 01:26:32.40	345.71	15.97	-40.3	-53.2	3.8	1.49e+00	0	60	104	0	52	15684
2026-01-13 01:26:35.44	345.17	16.16	-40.3	-53.2	3.8	1.49e+00	0	60	104	0	52	15623
2026-01-13 01:26:38.47	344.63	16.36	-40.3	-53.2	3.8	1.49e+00	0	60	104	0	52	15616
2026-01-13 01:26:41.50	344.08	16.56	-40.2	-53.2	3.8	1.49e+00	0	60	104	0	52	15597
2026-01-13 01:26:44.53	343.52	16.75	-40.6	-53.2	3.8	1.49e+00	0	60	104	0	52	15702
2026-01-13 01:26:47.56	342.95	16.95	-40.4	-53.2	3.8	1.49e+00	0	60	104	0	52	15751
2026-01-13 01:26:50.59	342.38	17.14	-40.6	-53.2	3.8	1.49e+00	0	60	104	0	52	15675
2026-01-13 01:26:53.62	341.80	17.33	-40.5	-53.2	3.8	1.49e+00	0	60	104	0	52	15637
2026-01-13 01:26:56.65	341.21	17.52	-40.7	-53.3	3.8	1.49e+00	0	60	104	0	52	15929
2026-01-13 01:26:59.68	340.62	17.71	-40.8	-53.2	3.8	1.49e+00	0	60	104	0	52	15757
2026-01-13 01:27:02.71	340.02	17.89	-41.2	-53.6	3.8	1.49e+00	0	61	104	0	53	15458
2026-01-13 01:27:05.74	339.41	18.08	-42.6	-52.7	3.9	1.10e+00	0	60	104	0	55	12412
2026-01-13 01:27:08.78	338.79	18.26	-42.2	-48.6	6.0	4.40e-01	0	60	0	5242880	56	7300
2026-01-13 01:27:11.80	338.17	18.44	-40.8	-44.8	9.5	2.04e-02	0	60	0	14680064	53	5641
2026-01-13 01:27:14.83	337.53	18.62	-41.3	-45.2	9.4	1.52e-02	0	60	0	24117248	53	5917
2026-01-13 01:27:17.86	336.89	18.79	-40.6	-43.6	11.2	1.35e-03	0	61	0	33554432	53	4919
2026-01-13 01:27:20.89	336.25	18.96	-40.4	-43.4	11.6	6.18e-04	0	60	0	42991616	52	5064
2026-01-13 01:27:23.92	335.59	19.13	-40.3	-43.2	11.9	4.36e-04	0	60	0	52428800	52	4956
2026-01-13 01:27:26.95	334.93	19.30	-40.2	-43.0	12.2	1.95e-04	0	60	0	62914560	52	4827
2026-01-13 01:27:29.98	334.26	19.46	-40.3	-43.0	12.2	1.92e-04	0	61	0	71303168	52	4859
2026-01-13 01:27:33.01	333.58	19.62	-40.2	-42.8	12.5	1.04e-04	0	61	0	81788928	52	4742
2026-01-13 01:27:36.05	332.90	19.78	-40.2	-42.9	12.5	1.04e-04	0	61	0	91226112	52	4763
2026-01-13 01:27:39.08	332.21	19.94	-40.2	-42.7	12.7	8.62e-05	0	60	0	100663296	52	4697
2026-01-13 01:27:42.11	331.51	20.09	-40.1	-42.6	12.8	5.95e-05	0	60	0	110100480	52	4636
2026-01-13 01:27:45.14	330.80	20.24	-40.1	-42.6	12.9	4.11e-05	0	60	0	119537664	52	4625
2026-01-13 01:27:48.18	330.09	20.38	-40.0	-42.5	13.0	3.89e-05	0	60	0	128974848	52	4556
2026-01-13 01:27:51.21	329.37	20.52	-40.0	-42.4	13.2	2.51e-05	0	60	0	138412032	51	4770
2026-01-13 01:27:54.23	328.65	20.65	-40.1	-42.6	13.0	3.50e-05	0	61	0	147849216	51	4883
2026-01-13 01:27:57.26	327.92	20.79	-40.0	-42.4	13.2	2.05e-05	0	60	0	157286400	51	4771
2026-01-13 01:28:00.29	327.18	20.91	-39.8	-42.1	13.5	1.60e-05	0	60	0	166723584	51	4648
2026-01-13 01:28:03.32	326.44	21.04	-39.7	-42.0	13.6	6.10e-06	0	60	0	176160768	51	4582
2026-01-13 01:28:06.36	325.68	21.15	-39.9	-42.2	13.4	1.37e-05	0	60	0	185597952	51	4683
2026-01-13 01:28:09.39	324.93	21.27	-40.0	-42.4	13.2	1.90e-05	0	60	0	195035136	51	4801
2026-01-13 01:28:12.41	324.17	21.38	-39.9	-42.2	13.4	1.29e-05	0	60	0	204472320	51	4691
2026-01-13 01:28:15.44	323.40	21.48	-40.0	-42.3	13.3	1.98e-05	0	60	0	213909504	51	4733
2026-01-13 01:28:18.47	322.63	21.58	-40.0	-42.4	13.3	1.75e-05	0	60	0	223346688	51	4774
2026-01-13 01:28:21.50	321.86	21.67	-40.0	-42.4	13.2	2.44e-05	0	60	0	232783872	51	4809
2026-01-13 01:28:24.53	321.08	21.76	-40.0	-42.3	13.3	1.75e-05	0	60	0	242221056	51	4752
2026-01-13 01:28:27.56	320.29	21.84	-39.9	-42.3	13.3	1.75e-05	0	60	0	251658240	51	4723
2026-01-13 01:28:30.59	319.50	21.92	-40.1	-42.5	13.1	2.51e-05	0	60	0	261095424	51	4839
2026-01-13 01:28:33.62	318.71	21.99	-40.2	-42.7	13.0	4.27e-05	0	60	0	270532608	51	4927
2026-01-13 01:28:36.64	317.91	22.06	-40.0	-42.4	13.3	2.13e-05	0	60	0	279969792	51	4764
2026-01-13 01:28:39.67	317.11	22.12	-40.0	-42.4	13.2	2.51e-05	0	60	0	289406976	51	4785
2026-01-13 01:28:42.70	316.31	22.17	-40.0	-42.3	13.3	1.52e-05	0	60	0	298844160	51	4758
2026-01-13 01:28:45.73	315.50	22.22	-40.0	-42.4	13.3	2.13e-05	0	60	0	308281344	51	4764
2026-01-13 01:28:48.76	314.70	22.26	-40.1	-42.6	13.1	4.04e-05	0	60	0	317718528	51	4876
2026-01-13 01:28:51.79	313.88	22.30	-40.1	-42.5	13.1	2.74e-05	0	60	0	327155712	51	4831
2026-01-13 01:28:54.81	313.08	22.33	-40.2	-42.6	13.0	3.73e-05	0	60	0	336592896	51	4906
2026-01-13 01:28:57.84	312.26	22.35	-40.0	-42.4	13.2	2.05e-05	0	60	0	346030080	51	4791
2026-01-13 01:29:00.87	311.45	22.37	-39.9	-42.2	13.4	1.22e-05	0	60	0	355467264	51	4681
2026-01-13 01:29:03.90	310.63	22.38	-39.8	-42.1	13.5	6.80e-06	0	60	0	364904448	51	4620
2026-01-13 01:29:06.93	309.81	22.39	-40.1	-42.4	13.2	2.89e-05	0	60	0	374341632	51	4813
2026-01-13 01:29:09.97	309.00	22.38	-40.2	-42.8	12.9	5.34e-05	0	60	0	383778816	51	4984
2026-01-13 01:29:12.99	308.18	22.38	-40.1	-42.5	13.1	2.82e-05	0	60	0	393216000	51	4846
2026-01-13 01:29:16.02	307.37	22.36	-40.0	-42.4	13.2	1.60e-05	0	60	0	403701760	51	4765
2026-01-13 01:29:19.05	306.55	22.35	-39.8	-42.1	13.5	4.50e-06	0	60	0	413138944	51	4638
2026-01-13 01:29:22.08	305.74	22.32	-40.0	-42.4	13.2	2.89e-05	0	60	0	422576128	51	4789
2026-01-13 01:29:25.11	304.92	22.29	-40.0	-42.4	13.3	1.98e-05	0	60	0	432013312	51	4774
2026-01-13 01:29:28.14	304.11	22.25	-40.1	-42.5	13.1	2.44e-05	0	60	0	441450496	51	4845
2026-01-13 01:29:31.17	303.31	22.21	-40.3	-42.9	12.7	7.32e-05	0	60	0	450887680	51	5051
2026-01-13 01:29:34.20	302.50	22.16	-40.2	-42.7	12.9	4.34e-05	0	60	0	460324864	51	4943
2026-01-13 01:29:37.23	301.70	22.10	-40.1	-42.5	13.1	2.89e-05	0	60	0	469762048	51	4828
2026-01-13 01:29:40.26	300.90	22.04	-39.8	-42.2	13.5	8.30e-06	0	60	0	479199232	51	4656
2026-01-13 01:29:43.28	300.10	21.97	-39.9	-42.3	13.3	1.37e-05	0	60	0	488636416	51	4728
2026-01-13 01:29:46.31	299.31	21.90	-40.2	-42.7	12.9	3.58e-05	0	60	0	498073600	51	4928
2026-01-13 01:29:49.34	298.52	21.82	-40.3	-42.8	12.8	6.79e-05	0	60	0	507510784	51	5015
2026-01-13 01:29:52.37	297.73	21.74	-40.0	-42.4	13.2	1.67e-05	0	60	0	516947968	51	4766
2026-01-13 01:29:55.40	296.95	21.65	-40.0	-42.3	13.3	2.36e-05	0	60	0	526385152	51	4740
2026-01-13 01:29:58.43	296.17	21.55	-39.8	-42.1	13.6	8.30e-06	0	60	0	535822336	51	4611
2026-01-13 01:30:01.46	295.40	21.45	-39.9	-42.3	13.3	1.44e-05	0	60	0	545259520	51	4732
2026-01-13 01:30:04.49	294.64	21.35	-40.1	-42.5	13.1	1.90e-05	0	60	0	554696704	51	4830
2026-01-13 01:30:07.52	293.87	21.24	-40.1	-42.5	13.1	2.28e-05	0	60	0	564133888	51	4842
2026-01-13 01:30:10.55	293.12	21.12	-40.1	-42.6	13.0	3.05e-05	0	60	0	573571072	51	4882
2026-01-13 01:30:13.58	292.37	21.00	-40.3	-42.8	12.8	6.17e-05	0	60	0	583008256	51	5000
2026-01-13 01:30:16.61	291.62	20.88	-40.1	-42.5	13.1	2.82e-05	0	60	0	592445440	51	4827
2026-01-13 01:30:19.64	290.89	20.75	-40.1	-42.5	13.1	3.43e-05	0	60	0	601882624	51	4827
2026-01-13 01:30:22.66	290.16	20.62	-40.1	-42.6	12.9	4.04e-05	0	60	0	611319808	51	4896
2026-01-13 01:30:25.70	289.43	20.48	-40.2	-42.7	12.8	7.85e-05	0	60	0	620756992	51	4979
2026-01-13 01:30:28.73	288.71	20.34	-40.1	-42.6	12.9	4.57e-05	0	60	0	630194176	51	4899
2026-01-13 01:30:31.76	288.00	20.19	-39.9	-42.3	13.2	1.98e-05	0	60	0	639631360	51	4732
2026-01-13 01:30:34.79	287.29	20.05	-39.8	-42.2	13.3	2.28e-05	0	60	0	649068544	51	4670
2026-01-13 01:30:37.82	286.59	19.89	-39.6	-41.9	13.7	5.30e-06	0	60	0	658505728	51	4505
2026-01-13 01:30:40.84	285.90	19.74	-39.7	-42.0	13.5	6.80e-06	0	60	0	667942912	51	4565
2026-01-13 01:30:43.87	285.22	19.58	-39.9	-42.4	13.1	2.36e-05	0	60	0	677380096	51	4765
2026-01-13 01:30:46.90	284.54	19.42	-40.3	-43.0	12.5	9.99e-05	0	60	0	686817280	51	5102
2026-01-13 01:30:49.93	283.87	19.25	-40.5	-43.2	12.2	1.82e-04	0	60	0	696254464	51	5244
2026-01-13 01:30:52.96	283.21	19.08	-40.5	-43.3	12.2	2.30e-04	0	60	0	705691648	51	5286
2026-01-13 01:30:56.00	282.55	18.91	-40.4	-43.0	12.4	1.40e-04	0	60	0	715128832	51	5134
2026-01-13 01:30:59.02	281.90	18.74	-40.2	-42.8	12.7	7.62e-05	0	60	0	724566016	51	4993
2026-01-13 01:31:02.05	281.26	18.56	-40.5	-43.2	12.2	2.39e-04	0	60	0	735051776	51	5277
2026-01-13 01:31:05.08	280.63	18.38	-40.4	-43.1	12.2	2.28e-04	0	60	0	744488960	51	5216
2026-01-13 01:31:08.12	280.00	18.20	-40.2	-42.8	12.6	1.20e-04	0	60	0	753926144	51	5015
2026-01-13 01:31:11.15	279.38	18.02	-40.1	-42.6	12.8	7.24e-05	0	60	0	763363328	51	4885
2026-01-13 01:31:14.17	278.78	17.84	-40.1	-42.6	12.8	6.63e-05	0	60	0	772800512	51	4881
2026-01-13 01:31:17.20	278.17	17.65	-40.1	-42.6	12.7	8.85e-05	0	60	0	782237696	51	4922
2026-01-13 01:31:20.23	277.58	17.46	-40.2	-42.7	12.7	8.54e-05	0	60	0	791674880	51	4961
2026-01-13 01:31:23.26	276.99	17.27	-40.3	-42.9	12.5	8.23e-05	0	60	0	801112064	51	5048
2026-01-13 01:31:26.29	276.41	17.08	-40.5	-43.3	12.0	2.64e-04	0	60	0	810549248	51	5309
2026-01-13 01:31:29.32	275.83	16.88	-40.4	-43.0	12.3	1.87e-04	0	60	0	819986432	51	5149
2026-01-13 01:31:32.36	275.27	16.69	-40.2	-42.8	12.5	1.26e-04	0	60	0	829423616	51	5033
2026-01-13 01:31:35.38	274.71	16.49	-40.2	-42.9	12.4	1.40e-04	0	60	0	838860800	51	5051
2026-01-13 01:31:38.41	274.16	16.30	-40.6	-43.4	11.9	4.57e-04	0	60	0	848297984	51	5382
2026-01-13 01:31:41.44	273.61	16.10	-40.6	-43.6	11.6	6.31e-04	0	60	0	857735168	52	5167
2026-01-13 01:31:44.47	273.08	15.90	-40.7	-43.6	11.6	7.54e-04	0	60	0	867172352	52	5203
2026-01-13 01:31:47.51	272.55	15.70	-40.3	-43.0	12.2	2.30e-04	0	60	0	876609536	52	4819
2026-01-13 01:31:50.54	272.02	15.50	-40.2	-42.8	12.3	1.74e-04	0	60	0	886046720	52	4742
2026-01-13 01:31:53.57	271.51	15.29	-40.0	-42.6	12.5	9.84e-05	0	60	0	895483904	52	4638
2026-01-13 01:31:56.60	271.00	15.09	-40.2	-42.8	12.3	1.52e-04	0	60	0	904921088	52	4751
2026-01-13 01:31:59.63	270.50	14.89	-40.5	-43.4	11.7	5.06e-04	0	60	0	914358272	52	5075
2026-01-13 01:32:02.66	270.00	14.69	-40.7	-43.7	11.4	1.02e-03	0	60	0	923795456	52	5250
2026-01-13 01:32:05.69	269.52	14.48	-40.5	-43.3	11.8	5.12e-04	0	60	0	933232640	52	5011
2026-01-13 01:32:08.72	269.03	14.28	-40.1	-42.8	12.3	1.76e-04	0	60	0	942669824	52	4734
2026-01-13 01:32:11.75	268.56	14.07	-40.5	-43.4	11.7	4.24e-04	0	60	0	952107008	52	5047
2026-01-13 01:32:14.78	268.09	13.87	-40.8	-43.9	11.2	1.40e-03	0	60	0	961544192	52	5365
2026-01-13 01:32:17.81	267.63	13.67	-40.8	-44.0	11.1	1.78e-03	0	60	0	970981376	52	5414
2026-01-13 01:32:20.83	267.18	13.46	-40.6	-43.6	11.4	1.25e-03	0	60	0	980418560	52	5213
2026-01-13 01:32:23.86	266.73	13.26	-40.3	-43.1	11.9	3.83e-04	0	61	0	989855744	52	4913
2026-01-13 01:32:26.89	266.28	13.05	-40.4	-43.3	11.7	5.37e-04	0	61	0	999292928	52	4999
2026-01-13 01:32:29.92	265.85	12.85	-40.6	-43.6	11.3	1.06e-03	0	60	0	1008730112	52	5204
2026-01-13 01:32:32.96	265.42	12.64	-40.9	-44.2	10.8	2.35e-03	0	60	0	1018167296	52	5544
2026-01-13 01:32:35.98	264.99	12.44	-40.9	-44.2	10.7	2.66e-03	0	60	0	1027604480	52	5538
2026-01-13 01:32:39.01	264.58	12.23	-40.8	-43.9	11.0	1.70e-03	0	60	0	1038090240	52	5384
2026-01-13 01:32:42.04	264.16	12.03	-40.6	-43.6	11.3	1.22e-03	0	60	0	1046478848	52	5206
2026-01-13 01:32:45.06	263.76	11.83	-40.7	-43.8	11.1	1.36e-03	0	60	0	1056964608	52	5292
2026-01-13 01:32:48.09	263.36	11.62	-40.6	-43.7	11.2	1.35e-03	0	60	0	1065353216	52	5241
2026-01-13 01:32:51.12	262.96	11.42	-40.9	-44.1	10.8	2.51e-03	0	60	0	1075838976	52	5509
2026-01-13 01:32:54.15	262.57	11.22	-41.1	-44.6	10.2	6.56e-03	0	60	0	1085276160	52	5814
2026-01-13 01:32:57.18	262.19	11.01	-41.1	-44.7	10.1	6.91e-03	0	60	0	1094713344	52	5888
2026-01-13 01:33:00.21	261.81	10.81	-41.1	-44.6	10.1	6.24e-03	0	60	0	1104150528	53	5527
2026-01-13 01:33:03.24	261.43	10.61	-40.9	-44.4	10.4	4.34e-03	0	60	0	1113587712	53	5346
2026-01-13 01:33:06.27	261.06	10.41	-41.1	-44.6	10.1	6.00e-03	0	60	0	1123024896	53	5496
2026-01-13 01:33:09.30	260.70	10.21	-41.2	-44.8	9.9	8.58e-03	0	60	0	1132462080	53	5649
2026-01-13 01:33:12.32	260.34	10.01	-41.4	-45.3	9.4	1.54e-02	0	60	0	1141899264	53	5942
2026-01-13 01:33:15.35	259.99	9.81	-41.4	-45.4	9.3	1.79e-02	0	60	0	1151336448	53	5999
2026-01-13 01:33:18.38	259.64	9.61	-41.2	-44.8	9.9	1.12e-02	0	60	0	1160773632	53	5631
2026-01-13 01:33:21.41	259.30	9.41	-41.1	-44.7	10.0	7.93e-03	0	60	0	1170210816	53	5539
2026-01-13 01:33:24.44	258.96	9.21	-41.0	-44.6	10.0	6.92e-03	0	60	0	1179648000	53	5500
2026-01-13 01:33:27.47	258.62	9.02	-41.1	-44.7	9.9	8.45e-03	0	60	0	1189085184	53	5557
2026-01-13 01:33:30.50	258.29	8.82	-41.2	-45.0	9.6	1.23e-02	0	60	0	1198522368	53	5769
2026-01-13 01:33:33.52	257.97	8.62	-41.3	-45.1	9.5	1.53e-02	0	60	0	1207959552	53	5838
2026-01-13 01:33:36.55	257.65	8.43	-41.4	-45.4	9.2	1.98e-02	0	60	0	1217396736	53	6016
2026-01-13 01:33:39.58	257.33	8.23	-41.2	-45.0	9.6	1.41e-02	0	60	0	1226833920	53	5774
2026-01-13 01:33:42.61	257.02	8.04	-41.2	-45.1	9.5	1.43e-02	0	60	0	1236271104	53	5796
2026-01-13 01:33:45.64	256.71	7.85	-44.7	-56.9	3.8	1.49e+00	0	60	104	1239416832	60	15073
2026-01-13 01:33:48.67	256.40	7.65	-45.0	-57.3	3.8	1.49e+00	0	60	104	1239416832	60	15792
2026-01-13 01:33:51.70	256.10	7.46	-45.2	-57.4	3.8	1.49e+00	0	60	104	1239416832	60	16126
2026-01-13 01:33:54.73	255.81	7.27	-45.2	-57.4	3.8	1.49e+00	0	60	104	1239416832	61	15102
2026-01-13 01:33:57.76	255.52	7.08	-45.2	-57.4	3.8	1.49e+00	0	60	104	1239416832	61	15091
2026-01-13 01:34:00.79	255.23	6.89	-45.1	-57.4	3.8	1.49e+00	0	60	104	1239416832	61	15054
2026-01-13 01:34:03.82	254.94	6.70	-45.1	-57.4	3.8	1.49e+00	0	60	104	1239416832	61	15064
2026-01-13 01:34:06.85	254.66	6.51	-45.1	-57.3	3.8	1.49e+00	0	60	104	1239416832	61	15048
2026-01-13 01:34:09.88	254.38	6.33	-45.1	-57.3	3.8	1.49e+00	0	60	104	1239416832	61	15034
2026-01-13 01:34:12.92	254.11	6.14	-45.1	-57.4	3.8	1.49e+00	0	60	104	1239416832	61	15058
2026-01-13 01:34:15.95	253.84	5.95	-45.1	-57.3	3.8	1.49e+00	0	61	104	1239416832	61	15048
2026-01-13 01:34:18.98	253.57	5.77	-45.1	-57.3	3.8	1.49e+00	0	60	104	1239416832	61	14989
2026-01-13 01:34:22.01	253.31	5.58	-45.1	-57.3	3.8	1.49e+00	0	60	104	1239416832	61	15025
2026-01-13 01:34:25.04	253.05	5.40	-45.1	-57.3	3.8	1.49e+00	0	60	104	1239416832	61	15032
2026-01-13 01:34:28.07	252.80	5.22	-45.1	-57.3	3.8	1.49e+00	0	60	104	1239416832	61	15007
2026-01-13 01:34:31.10	252.54	5.03	-45.1	-57.3	3.8	1.49e+00	0	60	104	1239416832	61	15009
2026-01-13 01:34:34.13	252.29	4.85	-45.1	-57.3	3.8	1.49e+00	0	60	104	1239416832	61	15026
2026-01-13 01:34:37.17	252.04	4.67	-45.1	-57.3	3.8	1.49e+00	0	60	104	1239416832	61	14970
2026-01-13 01:34:40.20	251.80	4.49	-45.1	-57.3	3.8	1.49e+00	0	60	104	1239416832	61	15022
2026-01-13 01:34:43.23	251.56	4.31	-45.1	-57.3	3.8	1.49e+00	0	60	104	1239416832	61	14998
2026-01-13 01:34:46.26	251.32	4.13	-45.1	-57.3	3.8	1.49e+00	0	60	104	1239416832	61	14955
2026-01-13 01:34:49.30	251.09	3.95	-45.1	-57.3	3.8	1.49e+00	0	61	104	1239416832	61	14979
2026-01-13 01:34:52.33	250.86	3.77	-45.1	-57.3	3.8	1.49e+00	0	61	104	1239416832	61	15007
2026-01-13 01:34:55.35	250.63	3.60	-45.1	-57.3	3.8	1.49e+00	0	61	104	1239416832	61	14963
2026-01-13 01:34:58.38	250.40	3.42	-45.1	-57.3	3.8	1.49e+00	0	60	104	1239416832	61	14994
2026-01-13 01:35:01.42	250.18	3.25	-45.1	-57.3	3.8	1.49e+00	0	61	104	1239416832	61	14959
2026-01-13 01:35:04.45	249.96	3.07	-45.1	-57.3	3.8	1.49e+00	0	60	104	1239416832	61	14968
2026-01-13 01:35:07.47	249.74	2.90	-45.1	-57.3	3.8	1.49e+00	0	61	104	1239416832	61	14986
2026-01-13 01:35:10.51	249.53	2.73	-45.1	-57.3	3.8	1.49e+00	0	61	104	1239416832	61	14958
2026-01-13 01:35:13.54	249.31	2.55	-45.1	-57.3	3.8	1.49e+00	0	60	104	1239416832	61	14945
2026-01-13 01:35:16.57	249.10	2.38	-45.1	-57.3	3.8	1.49e+00	0	61	104	1239416832	61	14983
2026-01-13 01:35:19.60	248.90	2.21	-45.1	-57.3	3.8	1.49e+00	0	61	104	1239416832	61	14978
2026-01-13 01:35:22.63	248.69	2.04	-45.1	-57.3	3.8	1.49e+00	0	61	104	1239416832	61	14940

#Closed at: 2026-01-13 01:35:24
#Recorded file [1239 MB]: D:/lorett/data/31039_260113_042546.dat