passes_logs/2026/01/13/R2.0S_Moscow/R2.0S_Moscow__20260113_104128_AQUA_rec.log

#Pass ID: 20260113_104128_AQUA
#Satellite: AQUA
#Configuration: AQUA
#almurnet v.1.7.20251203
#Start time: 2026-01-13 10:41:30

#Version: 2.2.20231116
#Station: R2.0S_Moscow
#Location: 37.707566 lon 55.798166 lat
#TLE: 1 27424U 02022A   26012.29577270  .00001027  00000+0  21555-3 0  9995
#TLE: 2 27424  98.4078 338.6778 0002034  81.5885  29.6294 14.61817302260499

#Time	Az	El	Level	Level2	SNR	BER	BlckErr	Temp	State	Recorded	gain1	gain2
2026-01-13 10:41:30.23	131.01	2.13	-15.3	-40.0	3.7	7.63e-01	0	51	0	0	1	64551
2026-01-13 10:41:33.25	130.86	2.32	-13.5	-38.4	3.3	7.65e-01	0	52	104	0	0	56653
2026-01-13 10:41:36.28	130.71	2.52	-12.7	-38.0	3.7	7.59e-01	0	51	104	0	0	54529
2026-01-13 10:41:39.31	130.55	2.71	-14.8	-39.2	3.5	7.54e-01	0	52	104	0	0	62045
2026-01-13 10:41:42.35	130.39	2.91	-12.7	-39.7	3.2	7.43e-01	0	52	104	0	2	59147
2026-01-13 10:41:45.38	130.23	3.11	-19.7	-40.1	3.6	7.64e-01	0	52	104	0	1	65535
2026-01-13 10:41:48.41	130.07	3.31	-11.0	-37.8	3.4	7.45e-01	0	52	104	0	0	53198
2026-01-13 10:41:51.43	129.90	3.51	-9.6	-36.2	3.8	7.53e-01	0	52	104	0	0	43915
2026-01-13 10:41:54.46	129.73	3.71	-8.7	-36.1	4.1	7.51e-01	0	53	104	0	0	43873
2026-01-13 10:41:57.49	129.56	3.91	-13.3	-38.6	3.6	7.55e-01	0	53	104	0	0	57961
2026-01-13 10:42:00.52	129.39	4.12	-13.0	-37.2	3.9	7.43e-01	0	53	104	0	1	46771
2026-01-13 10:42:03.55	129.21	4.33	-15.6	-39.3	3.9	7.58e-01	0	53	104	0	1	59465
2026-01-13 10:42:06.58	129.03	4.53	-17.3	-38.6	4.0	7.56e-01	0	53	104	0	2	51695
2026-01-13 10:42:09.61	128.85	4.74	-12.1	-36.9	3.8	7.55e-01	0	53	104	0	0	48039
2026-01-13 10:42:12.63	128.66	4.95	-14.3	-37.1	3.8	7.51e-01	0	53	104	0	0	49173
2026-01-13 10:42:15.67	128.47	5.17	-17.3	-40.6	3.4	7.62e-01	0	53	104	0	2	65102
2026-01-13 10:42:18.69	128.28	5.38	-12.5	-41.1	3.6	7.60e-01	0	54	104	0	3	65535
2026-01-13 10:42:21.72	128.08	5.60	-13.8	-37.1	3.9	7.62e-01	0	54	104	0	1	46259
2026-01-13 10:42:24.75	127.88	5.82	-13.3	-37.4	3.8	7.51e-01	0	54	104	0	0	50864
2026-01-13 10:42:27.78	127.68	6.04	-10.0	-36.9	3.7	7.59e-01	0	54	104	0	0	47642
2026-01-13 10:42:30.81	127.48	6.26	-17.2	-39.6	3.9	7.63e-01	0	54	104	0	4	51753
2026-01-13 10:42:33.84	127.27	6.48	-15.2	-37.9	3.8	7.47e-01	0	54	104	0	1	50481
2026-01-13 10:42:36.87	127.05	6.71	-14.1	-37.8	3.8	7.48e-01	0	54	104	0	2	47502
2026-01-13 10:42:39.90	126.84	6.94	-16.0	-40.4	3.7	7.45e-01	0	54	104	0	6	50511
2026-01-13 10:42:42.94	126.62	7.17	-15.8	-38.7	3.4	7.56e-01	0	55	104	0	4	46549
2026-01-13 10:42:45.97	126.39	7.40	-11.6	-37.6	3.8	7.42e-01	0	55	104	0	0	51738
2026-01-13 10:42:49.00	126.16	7.63	-17.6	-39.2	3.6	7.52e-01	0	55	104	0	4	49649
2026-01-13 10:42:52.03	125.93	7.86	-20.0	-43.1	3.6	7.55e-01	0	55	104	0	7	65196
2026-01-13 10:42:55.06	125.69	8.10	-18.2	-43.0	3.8	7.61e-01	0	55	104	0	9	57538
2026-01-13 10:42:58.09	125.45	8.34	-12.6	-39.6	3.3	7.63e-01	0	55	104	0	0	65256
2026-01-13 10:43:01.12	125.20	8.58	-10.9	-35.0	3.8	7.58e-01	0	55	104	0	0	38281
2026-01-13 10:43:04.15	124.95	8.82	-14.7	-39.8	3.7	7.22e-01	0	55	104	0	7	44467
2026-01-13 10:43:07.18	124.70	9.07	-14.8	-39.6	3.7	7.54e-01	0	55	104	0	3	54847
2026-01-13 10:43:10.20	124.44	9.32	-18.2	-43.5	3.8	7.54e-01	0	56	104	0	12	51031
2026-01-13 10:43:13.23	124.17	9.57	-19.4	-43.2	3.3	7.72e-01	0	55	104	0	8	62651
2026-01-13 10:43:16.26	123.90	9.82	-28.9	-44.0	8.0	6.49e-01	86	56	0	0	31	18127
2026-01-13 10:43:19.28	123.63	10.07	-29.9	-43.2	4.5	7.36e-01	0	55	104	1048576	14	44021
2026-01-13 10:43:22.31	123.35	10.33	-27.0	-43.2	6.4	6.63e-01	92	56	0	1048576	28	19813
2026-01-13 10:43:25.34	123.06	10.59	-17.6	-41.0	4.0	7.47e-01	0	56	104	1572864	10	43192
2026-01-13 10:43:28.37	122.77	10.85	-28.6	-43.9	7.4	6.55e-01	92	56	0	2097152	32	17021
2026-01-13 10:43:31.40	122.47	11.11	-30.5	-43.8	4.6	7.23e-01	0	56	104	4194304	25	24992
2026-01-13 10:43:34.43	122.17	11.38	-28.2	-43.5	4.7	7.24e-01	0	56	104	4194304	28	20416
2026-01-13 10:43:37.46	121.86	11.65	-23.6	-40.4	3.9	7.36e-01	0	56	104	5242880	13	33956
2026-01-13 10:43:40.49	121.54	11.92	-24.5	-43.0	6.1	6.74e-01	0	56	0	5242880	25	23024
2026-01-13 10:43:43.51	121.22	12.19	-27.0	-42.1	6.7	6.44e-01	46	56	0	6291456	29	16444
2026-01-13 10:43:46.54	120.89	12.47	-21.2	-40.8	4.6	7.23e-01	0	56	104	7340032	21	22351
2026-01-13 10:43:49.57	120.55	12.75	-28.1	-43.6	8.8	6.26e-01	53	56	0	7340032	32	16378
2026-01-13 10:43:52.60	120.21	13.03	-28.2	-42.7	8.1	6.29e-01	80	56	0	9437184	31	15625
2026-01-13 10:43:55.62	119.86	13.31	-20.8	-38.2	3.6	7.09e-01	0	56	104	12582912	14	24921
2026-01-13 10:43:58.65	119.50	13.60	-31.9	-44.4	10.4	6.21e-01	38	56	0	15204352	38	12776
2026-01-13 10:44:01.68	119.14	13.89	-37.0	-44.5	12.0	6.15e-01	20	56	0	20971520	45	8598
2026-01-13 10:44:04.71	118.76	14.18	-25.9	-42.2	8.3	6.49e-01	80	56	0	26214400	29	16667
2026-01-13 10:44:07.74	118.38	14.48	-38.5	-44.5	13.5	6.12e-01	1	56	0	30932992	47	7665
2026-01-13 10:44:10.77	117.99	14.78	-27.7	-42.2	7.3	6.57e-01	41	56	0	35651584	31	14840
2026-01-13 10:44:13.80	117.59	15.08	-34.5	-44.5	10.6	6.27e-01	44	57	0	40894464	38	12932
2026-01-13 10:44:16.83	117.18	15.38	-34.5	-44.1	10.9	6.29e-01	34	57	0	46661632	40	10959
2026-01-13 10:44:19.86	116.77	15.69	-33.8	-44.5	11.7	6.17e-01	20	57	0	52428800	47	7635
2026-01-13 10:44:22.88	116.34	15.99	-32.1	-43.9	9.6	6.36e-01	54	57	0	57671680	37	12726
2026-01-13 10:44:25.91	115.90	16.31	-36.9	-44.5	14.3	6.11e-01	7	57	0	63438848	44	9085
2026-01-13 10:44:28.94	115.46	16.62	-40.9	-44.4	15.7	6.10e-01	2	57	0	69206016	51	6020
2026-01-13 10:44:31.97	115.00	16.94	-40.4	-44.6	16.3	6.06e-01	2	57	0	74973184	52	5816
2026-01-13 10:44:35.00	114.54	17.26	-41.0	-44.7	18.1	6.07e-01	0	57	0	80216064	53	5574
2026-01-13 10:44:38.03	114.06	17.58	-41.1	-44.7	18.4	6.08e-01	0	57	0	85983232	53	5540
2026-01-13 10:44:41.05	113.57	17.91	-41.4	-44.7	18.0	6.04e-01	0	57	0	91750400	53	5590
2026-01-13 10:44:44.08	113.07	18.23	-41.2	-44.6	18.0	6.05e-01	0	57	0	97517568	53	5497
2026-01-13 10:44:47.11	112.56	18.57	-40.9	-44.7	18.5	6.06e-01	0	57	0	103284736	53	5539
2026-01-13 10:44:50.14	112.04	18.90	-41.3	-44.6	18.7	6.06e-01	0	57	0	109051904	53	5466
2026-01-13 10:44:53.17	111.50	19.24	-41.0	-44.7	18.5	6.06e-01	0	57	0	114294784	53	5584
2026-01-13 10:44:56.19	110.95	19.57	-41.5	-44.7	18.5	6.06e-01	0	57	0	120061952	53	5584
2026-01-13 10:44:59.22	110.39	19.91	-41.5	-44.7	18.6	6.04e-01	0	57	0	125829120	53	5550
2026-01-13 10:45:02.25	109.82	20.26	-41.5	-44.7	18.6	6.04e-01	0	57	0	131596288	53	5565
2026-01-13 10:45:05.28	109.23	20.60	-41.7	-45.1	18.3	6.08e-01	0	57	0	137363456	54	5476
2026-01-13 10:45:08.31	108.62	20.95	-41.7	-44.9	18.4	6.07e-01	0	57	0	143130624	54	5380
2026-01-13 10:45:11.34	108.00	21.30	-41.6	-44.7	18.6	6.09e-01	0	57	0	148373504	54	5273
2026-01-13 10:45:14.37	107.37	21.65	-41.6	-44.9	18.5	6.08e-01	0	57	0	154140672	54	5343
2026-01-13 10:45:17.40	106.72	22.00	-41.9	-45.2	18.2	6.05e-01	0	57	0	159907840	54	5559
2026-01-13 10:45:20.43	106.06	22.36	-41.9	-45.2	18.1	6.05e-01	0	57	0	165675008	54	5581
2026-01-13 10:45:23.45	105.38	22.71	-41.7	-44.9	18.5	6.07e-01	0	57	0	171442176	54	5382
2026-01-13 10:45:26.48	104.68	23.07	-41.7	-45.0	18.4	6.07e-01	0	57	0	177209344	54	5432
2026-01-13 10:45:29.51	103.97	23.43	-41.6	-44.8	18.7	6.08e-01	0	57	0	182452224	54	5294
2026-01-13 10:45:32.54	103.24	23.78	-41.5	-44.5	18.9	6.03e-01	0	57	0	188219392	54	5139
2026-01-13 10:45:35.57	102.49	24.14	-41.7	-44.9	18.5	6.06e-01	0	57	0	193986560	54	5387
2026-01-13 10:45:38.60	101.72	24.50	-42.0	-45.4	18.1	6.06e-01	0	57	0	199753728	54	5664
2026-01-13 10:45:41.62	100.93	24.86	-41.6	-44.7	18.8	6.06e-01	0	57	0	205520896	54	5228
2026-01-13 10:45:44.65	100.13	25.22	-41.7	-44.9	18.6	6.06e-01	0	58	0	211288064	54	5345
2026-01-13 10:45:47.68	99.31	25.57	-41.7	-44.8	18.7	6.05e-01	0	57	0	216530944	54	5334
2026-01-13 10:45:50.71	98.46	25.93	-41.6	-44.8	18.7	6.02e-01	0	57	0	222298112	54	5288
2026-01-13 10:45:53.74	97.60	26.28	-41.6	-44.6	18.9	6.07e-01	0	58	0	228065280	54	5207
2026-01-13 10:45:56.77	96.71	26.63	-41.4	-44.3	19.2	6.05e-01	0	57	0	233832448	54	5014
2026-01-13 10:45:59.80	95.81	26.98	-41.6	-44.6	18.9	6.05e-01	0	57	0	239599616	54	5210
2026-01-13 10:46:02.83	94.88	27.33	-41.3	-44.2	19.3	6.04e-01	0	58	0	244842496	54	4953
2026-01-13 10:46:05.85	93.94	27.67	-41.3	-44.1	19.5	6.06e-01	0	57	0	250609664	54	4902
2026-01-13 10:46:08.88	92.97	28.01	-41.3	-44.2	19.4	6.06e-01	0	57	0	256376832	54	4945
2026-01-13 10:46:11.91	91.98	28.34	-41.2	-44.0	19.6	6.06e-01	0	57	0	262144000	54	4845
2026-01-13 10:46:14.94	90.97	28.67	-41.2	-44.1	19.5	6.04e-01	0	57	0	267911168	54	4874
2026-01-13 10:46:17.97	89.94	29.00	-41.3	-44.1	19.5	6.08e-01	0	57	0	273678336	54	4898
2026-01-13 10:46:21.00	88.89	29.31	-41.2	-44.0	19.6	6.08e-01	0	58	0	279445504	54	4825
2026-01-13 10:46:24.02	87.81	29.62	-41.1	-43.9	19.7	6.06e-01	0	58	0	284688384	54	4774
2026-01-13 10:46:27.05	86.72	29.92	-41.1	-43.8	19.8	6.05e-01	0	58	0	290455552	54	4743
2026-01-13 10:46:30.08	85.60	30.22	-41.0	-43.7	19.9	6.06e-01	0	58	0	296222720	54	4686
2026-01-13 10:46:33.11	84.46	30.50	-41.1	-43.8	19.8	6.07e-01	0	58	0	301989888	53	5015
2026-01-13 10:46:36.14	83.30	30.78	-41.1	-43.8	19.8	6.07e-01	0	57	0	307757056	53	5003
2026-01-13 10:46:39.17	82.12	31.04	-40.9	-43.6	20.1	6.07e-01	0	58	0	312999936	53	4887
2026-01-13 10:46:42.19	80.93	31.29	-41.0	-43.8	19.8	6.04e-01	0	58	0	318767104	53	4999
2026-01-13 10:46:45.22	79.71	31.54	-41.1	-43.8	19.9	6.08e-01	0	58	0	324534272	53	5023
2026-01-13 10:46:48.25	78.48	31.76	-41.1	-43.9	19.8	6.08e-01	0	58	0	330301440	53	5074
2026-01-13 10:46:51.28	77.22	31.98	-41.1	-43.9	19.8	6.06e-01	0	58	0	336068608	53	5057
2026-01-13 10:46:54.30	75.96	32.18	-41.3	-44.1	19.6	6.06e-01	0	58	0	341835776	53	5161
2026-01-13 10:46:57.33	74.67	32.37	-41.3	-44.1	19.6	6.07e-01	0	58	0	347602944	53	5190
2026-01-13 10:47:00.36	73.37	32.54	-41.1	-43.9	19.8	6.05e-01	0	58	0	352845824	53	5073
2026-01-13 10:47:03.39	72.06	32.70	-41.4	-44.2	19.5	6.07e-01	0	58	0	358612992	53	5260
2026-01-13 10:47:06.42	70.73	32.84	-41.2	-44.0	19.7	6.07e-01	0	58	0	364380160	53	5133
2026-01-13 10:47:09.44	69.40	32.97	-41.2	-43.9	19.8	6.07e-01	0	58	0	370147328	53	5095
2026-01-13 10:47:12.47	68.05	33.08	-41.2	-43.9	19.8	6.06e-01	0	58	0	375914496	53	5099
2026-01-13 10:47:15.50	66.69	33.17	-41.4	-44.3	19.5	6.07e-01	0	58	0	381157376	53	5293
2026-01-13 10:47:18.53	65.33	33.24	-41.2	-44.0	19.8	6.06e-01	0	58	0	386924544	53	5111
2026-01-13 10:47:21.55	63.96	33.30	-41.5	-44.3	19.5	6.05e-01	0	58	0	392691712	53	5320
2026-01-13 10:47:24.59	62.59	33.34	-41.8	-44.8	19.0	6.06e-01	0	58	0	398458880	54	5338
2026-01-13 10:47:27.61	61.22	33.36	-41.3	-44.2	19.6	6.05e-01	0	58	0	404226048	54	4936
2026-01-13 10:47:30.64	59.84	33.36	-41.5	-44.3	19.5	6.07e-01	0	58	0	409993216	54	5031
2026-01-13 10:47:33.67	58.47	33.34	-41.5	-44.4	19.4	6.06e-01	0	58	0	415236096	54	5083
2026-01-13 10:47:36.70	57.09	33.30	-41.6	-44.5	19.3	6.07e-01	0	58	0	421003264	54	5127
2026-01-13 10:47:39.73	55.72	33.25	-41.7	-44.7	19.1	6.05e-01	0	58	0	426770432	54	5245
2026-01-13 10:47:42.75	54.37	33.18	-41.8	-44.9	18.9	6.08e-01	0	58	0	432537600	54	5358
2026-01-13 10:47:45.78	53.01	33.09	-41.6	-44.5	19.4	6.05e-01	0	58	0	438304768	54	5109
2026-01-13 10:47:48.81	51.66	32.99	-41.7	-44.6	19.2	6.04e-01	0	58	0	444071936	54	5198
2026-01-13 10:47:51.84	50.32	32.86	-41.6	-44.6	19.3	6.06e-01	0	58	0	449314816	54	5160
2026-01-13 10:47:54.87	49.00	32.72	-41.6	-44.5	19.3	6.06e-01	0	58	0	455081984	54	5117
2026-01-13 10:47:57.90	47.68	32.57	-41.8	-44.8	19.1	6.04e-01	0	58	0	460849152	54	5295
2026-01-13 10:48:00.93	46.38	32.40	-41.7	-44.6	19.2	6.05e-01	0	58	0	466616320	54	5211
2026-01-13 10:48:03.95	45.10	32.21	-41.6	-44.6	19.3	6.07e-01	0	58	0	472383488	54	5171
2026-01-13 10:48:06.98	43.83	32.01	-41.6	-44.5	19.3	6.07e-01	0	58	0	478150656	54	5140
2026-01-13 10:48:10.01	42.58	31.80	-42.0	-54.4	3.8	7.47e-01	0	58	104	481820672	54	16115
2026-01-13 10:48:13.04	41.34	31.57	-41.9	-54.1	3.8	7.45e-01	0	58	104	481820672	54	15552
2026-01-13 10:48:16.07	40.13	31.33	-45.6	-63.1	3.8	7.44e-01	0	58	104	481820672	61	29185
2026-01-13 10:48:19.09	38.93	31.08	-42.5	-55.2	3.8	7.44e-01	0	58	104	481820672	56	15591
2026-01-13 10:48:22.12	37.75	30.82	-44.9	-60.8	3.8	7.45e-01	0	58	104	481820672	60	23591
2026-01-13 10:48:25.15	36.60	30.55	-45.2	-61.4	3.8	7.45e-01	0	58	104	481820672	61	24092
2026-01-13 10:48:28.18	35.46	30.26	-42.7	-55.6	3.8	7.43e-01	0	58	104	481820672	57	15527
2026-01-13 10:48:31.20	34.35	29.97	-45.0	-60.7	3.9	7.46e-01	0	58	104	481820672	61	22086
2026-01-13 10:48:34.24	33.25	29.67	-42.6	-55.4	3.8	7.44e-01	0	58	104	481820672	57	15152
2026-01-13 10:48:37.26	32.18	29.37	-42.4	-55.0	3.8	7.42e-01	0	58	104	481820672	56	15248
2026-01-13 10:48:40.29	31.12	29.05	-44.1	-58.7	3.9	7.43e-01	0	58	104	481820672	60	18699
2026-01-13 10:48:43.32	30.09	28.73	-42.6	-55.4	3.8	7.47e-01	0	58	104	481820672	56	15997
2026-01-13 10:48:46.34	29.09	28.41	-43.5	-57.1	3.8	7.45e-01	0	58	104	481820672	59	16501
2026-01-13 10:48:49.37	28.10	28.07	-44.7	-60.1	3.8	7.45e-01	0	58	104	481820672	60	21903
2026-01-13 10:48:52.41	27.13	27.74	-42.2	-54.7	3.8	7.43e-01	0	58	104	481820672	56	14769
2026-01-13 10:48:55.43	26.18	27.40	-44.4	-59.4	3.9	7.43e-01	0	58	104	481820672	61	19058
2026-01-13 10:48:58.46	25.26	27.05	-42.7	-55.5	3.8	7.44e-01	0	58	104	481820672	57	15362
2026-01-13 10:49:01.49	24.36	26.71	-43.3	-56.8	3.8	7.45e-01	0	58	104	481820672	57	17831
2026-01-13 10:49:04.52	23.47	26.36	-41.9	-54.6	3.8	7.43e-01	0	58	104	481820672	56	14623
2026-01-13 10:49:07.55	22.61	26.00	-42.6	-55.4	3.8	7.48e-01	0	58	104	481820672	57	15161
2026-01-13 10:49:10.57	21.77	25.65	-42.3	-54.8	3.8	7.45e-01	0	58	104	481820672	56	14956
2026-01-13 10:49:13.59	20.95	25.30	-44.1	-58.4	3.9	7.44e-01	0	58	104	481820672	59	18959
2026-01-13 10:49:16.62	20.14	24.94	-42.3	-55.0	3.8	7.44e-01	0	58	104	481820672	56	15266
2026-01-13 10:49:19.65	19.36	24.59	-44.4	-58.9	3.8	7.45e-01	0	58	104	481820672	59	20153
2026-01-13 10:49:22.67	18.60	24.23	-42.6	-55.4	3.8	7.45e-01	0	58	104	481820672	57	15133
2026-01-13 10:49:25.70	17.85	23.87	-43.6	-57.3	3.8	7.47e-01	0	58	104	481820672	57	18801
2026-01-13 10:49:28.73	17.12	23.52	-44.3	-57.8	3.7	7.45e-01	0	58	104	481820672	58	18933
2026-01-13 10:49:31.75	16.41	23.16	-42.8	-55.8	3.8	7.43e-01	0	58	104	481820672	57	15900
2026-01-13 10:49:34.78	15.71	22.81	-43.4	-56.8	3.8	7.45e-01	0	58	104	481820672	57	17810
2026-01-13 10:49:37.81	15.03	22.45	-43.3	-56.6	3.8	7.42e-01	0	58	104	481820672	58	16400
2026-01-13 10:49:40.84	14.37	22.10	-42.3	-55.0	3.8	7.44e-01	0	58	104	481820672	56	15364
2026-01-13 10:49:43.86	13.72	21.75	-44.0	-57.9	3.8	7.44e-01	0	58	104	481820672	59	18083
2026-01-13 10:49:46.89	13.09	21.40	-42.4	-55.1	3.8	7.43e-01	0	58	104	481820672	56	15534
2026-01-13 10:49:49.92	12.47	21.05	-44.7	-59.9	3.8	7.48e-01	0	59	104	481820672	59	22626
2026-01-13 10:49:52.94	11.87	20.71	-45.1	-61.9	3.7	7.43e-01	0	58	104	481820672	60	26808
2026-01-13 10:49:55.97	11.28	20.36	-42.2	-54.8	3.8	7.43e-01	0	58	104	481820672	56	14999
2026-01-13 10:49:58.99	10.71	20.02	-45.1	-62.4	3.8	7.48e-01	0	58	104	481820672	60	28617
2026-01-13 10:50:02.02	10.15	19.68	-42.7	-55.8	3.8	7.47e-01	0	58	104	481820672	57	15781
2026-01-13 10:50:05.05	9.60	19.35	-42.0	-54.8	3.8	7.44e-01	0	58	104	481820672	55	15885
2026-01-13 10:50:08.07	9.07	19.01	-44.5	-59.8	3.8	7.45e-01	0	59	104	481820672	59	22273
2026-01-13 10:50:11.10	8.55	18.68	-42.0	-54.8	3.8	7.47e-01	0	58	104	481820672	55	15832
2026-01-13 10:50:14.13	8.04	18.35	-43.6	-57.6	3.8	7.41e-01	0	58	104	481820672	59	17327
2026-01-13 10:50:17.15	7.54	18.03	-44.8	-62.6	3.8	7.43e-01	0	58	104	481820672	60	29053
2026-01-13 10:50:20.18	7.05	17.70	-42.0	-54.6	3.8	7.42e-01	0	58	104	481820672	56	14571
2026-01-13 10:50:23.21	6.58	17.38	-44.6	-61.9	3.9	7.43e-01	0	58	104	481820672	60	26934
2026-01-13 10:50:26.24	6.11	17.06	-42.0	-55.0	3.8	7.46e-01	0	58	104	481820672	56	15259
2026-01-13 10:50:29.27	5.66	16.74	-41.6	-54.3	3.8	7.45e-01	0	58	104	481820672	55	14989
2026-01-13 10:50:32.29	5.21	16.43	-42.5	-56.4	3.8	7.43e-01	0	58	104	481820672	57	16938
2026-01-13 10:50:35.32	4.78	16.12	-42.0	-55.2	3.8	7.47e-01	0	58	104	481820672	55	16650
2026-01-13 10:50:38.35	4.35	15.81	-42.0	-55.2	3.9	7.38e-01	0	59	104	481820672	56	15738
2026-01-13 10:50:41.37	3.94	15.51	-43.7	-59.0	3.8	7.44e-01	0	58	104	481820672	58	21653
2026-01-13 10:50:44.40	3.53	15.21	-41.8	-55.2	3.8	7.46e-01	0	58	104	481820672	55	16596
2026-01-13 10:50:47.43	3.14	14.91	-42.3	-57.0	3.8	7.43e-01	0	58	104	481820672	55	20459
2026-01-13 10:50:50.46	2.75	14.61	-41.1	-54.4	3.8	7.47e-01	0	58	104	481820672	54	16006
2026-01-13 10:50:53.49	2.37	14.31	-43.0	-58.6	3.8	7.43e-01	0	58	104	481820672	57	21858
2026-01-13 10:50:56.52	2.00	14.02	-40.5	-54.1	3.8	7.46e-01	0	58	104	481820672	53	16475
2026-01-13 10:50:59.54	1.63	13.73	-41.0	-55.1	3.8	7.44e-01	0	58	104	481820672	53	18467
2026-01-13 10:51:02.57	1.28	13.45	-41.3	-56.9	3.8	7.44e-01	0	58	104	481820672	54	21274
2026-01-13 10:51:05.60	0.93	13.16	-42.2	-60.2	3.8	7.43e-01	0	59	104	481820672	55	29395
2026-01-13 10:51:08.63	0.59	12.88	-41.7	-59.8	3.8	7.51e-01	0	59	104	481820672	55	28041
2026-01-13 10:51:11.66	0.25	12.61	-41.9	-60.9	3.8	7.49e-01	0	59	104	481820672	54	33714
2026-01-13 10:51:14.68	359.92	12.33	-40.9	-60.2	3.8	7.46e-01	0	59	104	481820672	53	32950
2026-01-13 10:51:17.71	359.60	12.06	-41.4	-60.6	3.8	7.48e-01	0	59	104	481820672	53	34568
2026-01-13 10:51:20.74	359.29	11.79	-40.0	-60.0	3.8	7.48e-01	0	59	104	481820672	52	34094
2026-01-13 10:51:23.77	358.98	11.52	-39.9	-59.8	3.8	7.44e-01	0	58	104	481820672	51	35690
2026-01-13 10:51:26.79	358.68	11.25	-40.5	-60.3	3.8	7.43e-01	0	58	104	481820672	51	37403
2026-01-13 10:51:29.82	358.38	10.99	-39.9	-59.8	3.8	7.46e-01	0	58	104	481820672	51	35677
2026-01-13 10:51:32.85	358.09	10.73	-40.2	-59.8	3.8	7.44e-01	0	58	104	481820672	51	35284
2026-01-13 10:51:35.88	357.81	10.47	-39.9	-59.8	3.8	7.49e-01	0	58	104	481820672	51	35627
2026-01-13 10:51:38.90	357.53	10.22	-40.3	-60.0	3.8	7.46e-01	0	59	104	481820672	51	36126
2026-01-13 10:51:41.93	357.26	9.96	-40.8	-60.0	3.9	7.45e-01	0	59	104	481820672	52	34125
2026-01-13 10:51:44.96	356.99	9.71	-40.1	-59.9	3.8	7.41e-01	0	58	104	481820672	51	35728
2026-01-13 10:51:47.99	356.73	9.46	-40.4	-59.9	3.8	7.47e-01	0	58	104	481820672	51	36021
2026-01-13 10:51:51.02	356.47	9.21	-40.2	-59.7	3.8	7.44e-01	0	58	104	481820672	51	35197
2026-01-13 10:51:54.04	356.22	8.97	-39.7	-59.8	3.8	7.46e-01	0	58	104	481820672	51	35448
2026-01-13 10:51:57.07	355.97	8.73	-39.8	-59.7	3.8	7.45e-01	0	59	104	481820672	51	35133
2026-01-13 10:52:00.10	355.72	8.49	-40.2	-59.9	3.8	7.47e-01	0	58	104	481820672	51	35931
2026-01-13 10:52:03.13	355.49	8.25	-39.7	-59.7	3.8	7.43e-01	0	59	104	481820672	51	35090
2026-01-13 10:52:06.16	355.25	8.01	-40.4	-59.9	3.8	7.47e-01	0	59	104	481820672	51	35896
2026-01-13 10:52:09.19	355.02	7.78	-45.3	-64.1	3.8	7.40e-01	0	58	104	481820672	61	32610
2026-01-13 10:52:12.23	354.79	7.54	-46.1	-64.8	3.8	7.45e-01	0	58	104	481820672	62	33437
2026-01-13 10:52:15.26	354.57	7.31	-46.2	-64.9	3.8	7.45e-01	0	59	104	481820672	63	32137
2026-01-13 10:52:18.29	354.35	7.08	-46.2	-64.9	3.8	7.45e-01	0	59	104	481820672	62	33960
2026-01-13 10:52:21.32	354.14	6.86	-46.1	-64.9	3.8	7.46e-01	0	59	104	481820672	62	33982
2026-01-13 10:52:24.35	353.93	6.63	-46.1	-64.9	3.8	7.44e-01	0	59	104	481820672	62	33696
2026-01-13 10:52:27.38	353.72	6.41	-46.1	-64.8	3.8	7.46e-01	0	58	104	481820672	62	33653
2026-01-13 10:52:30.41	353.52	6.19	-46.1	-64.8	3.8	7.46e-01	0	58	104	481820672	62	33621
2026-01-13 10:52:33.44	353.32	5.97	-46.0	-64.8	3.8	7.48e-01	0	59	104	481820672	62	33641
2026-01-13 10:52:36.47	353.12	5.75	-46.0	-64.8	3.8	7.44e-01	0	59	104	481820672	62	33633
2026-01-13 10:52:39.50	352.93	5.54	-46.0	-64.8	3.8	7.45e-01	0	59	104	481820672	62	33593
2026-01-13 10:52:42.54	352.74	5.32	-46.0	-64.8	3.8	7.43e-01	0	59	104	481820672	62	33567
2026-01-13 10:52:45.57	352.55	5.11	-46.0	-64.8	3.8	7.46e-01	0	59	104	481820672	62	33522
2026-01-13 10:52:48.60	352.37	4.90	-46.0	-64.8	3.8	7.46e-01	0	59	104	481820672	62	33516
2026-01-13 10:52:51.63	352.19	4.69	-46.0	-64.8	3.8	7.45e-01	0	59	104	481820672	62	33547
2026-01-13 10:52:54.66	352.01	4.48	-46.0	-64.8	3.8	7.45e-01	0	59	104	481820672	62	33494
2026-01-13 10:52:57.69	351.84	4.27	-45.8	-64.4	3.8	7.44e-01	0	59	104	481820672	61	34074
2026-01-13 10:53:00.72	351.67	4.07	-46.0	-64.8	3.8	7.46e-01	0	59	104	481820672	62	33444
2026-01-13 10:53:03.75	351.50	3.86	-45.9	-64.8	3.8	7.42e-01	0	59	104	481820672	62	33438
2026-01-13 10:53:06.79	351.33	3.66	-46.0	-64.8	3.8	7.47e-01	0	59	104	481820672	62	33476
2026-01-13 10:53:09.82	351.17	3.46	-46.0	-64.8	3.8	7.45e-01	0	59	104	481820672	62	33411
2026-01-13 10:53:12.85	351.01	3.26	-46.0	-64.8	3.8	7.46e-01	0	59	104	481820672	62	33433
2026-01-13 10:53:15.88	350.85	3.06	-46.0	-64.8	3.8	7.45e-01	0	59	104	481820672	62	33466
2026-01-13 10:53:18.92	350.69	2.86	-46.0	-64.8	3.8	7.46e-01	0	58	104	481820672	62	33480
2026-01-13 10:53:21.95	350.54	2.67	-46.0	-64.8	3.8	7.44e-01	0	59	104	481820672	62	33479
2026-01-13 10:53:24.98	350.39	2.48	-46.0	-64.7	3.8	7.44e-01	0	59	104	481820672	62	33219
2026-01-13 10:53:28.01	350.24	2.28	-46.0	-64.8	3.8	7.46e-01	0	59	104	481820672	62	33363
2026-01-13 10:53:31.04	350.09	2.09	-45.9	-64.8	3.8	7.47e-01	0	59	104	481820672	62	33441

#Closed at: 2026-01-13 10:53:33
#Recorded file [481 MB]: D:/lorett/data/31039_260113_134130.dat