passes_logs/2026/01/13/R2.0S_Moscow/R2.0S_Moscow__20260113_075452_NOAA_21_JPSS-2_rec.log

#Pass ID: 20260113_075452_NOAA 21 (JPSS-2)
#Satellite: NOAA 21 (JPSS-2)
#Configuration: NOAA-21
#almurnet v.1.7.20251203
#Start time: 2026-01-13 07:54:51

#Version: 2.2.20231116
#Station: R2.0S_Moscow
#Location: 37.707566 lon 55.798166 lat
#TLE: 1 54234U 22150A   26012.26378519  .00000063  00000+0  50547-4 0  9993
#TLE: 2 54234  98.7495 313.1967 0000726 309.1075  51.0036 14.19534275164425

#Time	Az	El	Level	Level2	SNR	BER	BlckErr	Temp	State	Recorded	gain1	gain2
2026-01-13 07:54:51.99	101.50	1.98	-40.1	-52.6	3.8	1.49e+00	0	49	0	0	51	15439
2026-01-13 07:54:55.02	101.27	2.14	-40.1	-52.6	3.8	1.49e+00	0	49	104	0	51	15479
2026-01-13 07:54:58.05	101.02	2.30	-40.2	-52.6	3.8	1.49e+00	0	49	104	0	51	15410
2026-01-13 07:55:01.09	100.78	2.46	-40.2	-52.6	3.8	1.49e+00	0	50	104	0	51	15446
2026-01-13 07:55:04.12	100.53	2.62	-40.1	-52.6	3.8	1.49e+00	0	50	104	0	51	15445
2026-01-13 07:55:07.15	100.28	2.78	-40.2	-52.6	3.8	1.49e+00	0	50	104	0	51	15465
2026-01-13 07:55:10.18	100.03	2.94	-40.2	-52.6	3.8	1.49e+00	0	50	104	0	51	15433
2026-01-13 07:55:13.21	99.77	3.10	-40.2	-52.6	3.8	1.49e+00	0	50	104	0	51	15420
2026-01-13 07:55:16.25	99.51	3.27	-40.1	-52.6	3.8	1.49e+00	0	51	104	0	51	15509
2026-01-13 07:55:19.28	99.25	3.43	-40.2	-52.6	3.8	1.49e+00	0	51	104	0	51	15466
2026-01-13 07:55:22.31	98.99	3.59	-40.2	-52.6	3.8	1.49e+00	0	51	104	0	51	15424
2026-01-13 07:55:25.34	98.72	3.76	-40.2	-52.6	3.8	1.49e+00	0	51	104	0	51	15439
2026-01-13 07:55:28.37	98.45	3.92	-40.2	-52.6	3.8	1.49e+00	0	51	104	0	51	15498
2026-01-13 07:55:31.40	98.17	4.09	-40.2	-52.6	3.8	1.49e+00	0	52	104	0	51	15449
2026-01-13 07:55:34.43	97.89	4.25	-40.2	-52.6	3.8	1.49e+00	0	52	104	0	51	15425
2026-01-13 07:55:37.46	97.61	4.42	-40.1	-52.5	3.8	1.49e+00	0	52	104	0	51	15384
2026-01-13 07:55:40.49	97.33	4.58	-40.1	-52.6	3.8	1.49e+00	0	52	104	0	51	15446
2026-01-13 07:55:43.52	97.04	4.75	-40.1	-52.5	3.8	1.49e+00	0	52	104	0	51	15390
2026-01-13 07:55:46.56	96.75	4.92	-40.1	-52.5	3.8	1.49e+00	0	52	104	0	51	15379
2026-01-13 07:55:49.58	96.46	5.08	-40.1	-52.6	3.8	1.49e+00	0	53	104	0	51	15405
2026-01-13 07:55:52.62	96.16	5.25	-40.1	-52.6	3.8	1.49e+00	0	53	104	0	51	15405
2026-01-13 07:55:55.65	95.86	5.42	-40.1	-52.6	3.8	1.49e+00	0	53	104	0	51	15425
2026-01-13 07:55:58.68	95.56	5.59	-40.2	-52.5	3.8	1.49e+00	0	53	104	0	51	15396
2026-01-13 07:56:01.71	95.25	5.75	-40.1	-52.6	3.8	1.49e+00	0	53	104	0	51	15469
2026-01-13 07:56:04.75	94.94	5.92	-40.1	-52.5	3.8	1.49e+00	0	53	104	0	51	15396
2026-01-13 07:56:07.78	94.62	6.09	-40.1	-52.5	3.8	1.49e+00	0	54	104	0	51	15390
2026-01-13 07:56:10.81	94.30	6.26	-40.1	-52.5	3.8	1.49e+00	0	54	104	0	51	15358
2026-01-13 07:56:13.84	93.98	6.43	-40.1	-52.6	3.8	1.49e+00	0	54	104	0	51	15446
2026-01-13 07:56:16.87	93.65	6.60	-40.1	-52.6	3.8	1.49e+00	0	54	104	0	51	15427
2026-01-13 07:56:19.90	93.32	6.77	-40.1	-52.5	3.8	1.49e+00	0	54	104	0	51	15391
2026-01-13 07:56:22.94	92.99	6.94	-40.2	-52.6	3.8	1.49e+00	0	54	104	0	51	15414
2026-01-13 07:56:25.97	92.65	7.11	-40.1	-52.6	3.8	1.49e+00	0	54	104	0	51	15422
2026-01-13 07:56:29.00	92.30	7.28	-40.1	-52.5	3.8	1.49e+00	0	54	104	0	51	15329
2026-01-13 07:56:32.03	91.96	7.45	-40.2	-52.6	3.8	1.49e+00	0	54	104	0	51	15441
2026-01-13 07:56:35.07	91.60	7.62	-40.1	-52.6	3.8	1.49e+00	0	55	104	0	51	15411
2026-01-13 07:56:38.10	91.25	7.79	-40.1	-52.6	3.8	1.49e+00	0	55	104	0	51	15444
2026-01-13 07:56:41.13	90.89	7.96	-40.1	-52.0	3.8	1.49e+00	0	55	104	0	51	14381
2026-01-13 07:56:44.15	90.53	8.13	-40.3	-52.7	3.8	1.49e+00	0	55	104	0	51	15634
2026-01-13 07:56:47.18	90.16	8.30	-40.1	-52.4	3.8	1.49e+00	0	55	104	0	51	15113
2026-01-13 07:56:50.21	89.79	8.48	-40.2	-52.5	3.8	1.49e+00	0	55	104	0	51	15327
2026-01-13 07:56:53.24	89.41	8.65	-40.2	-52.8	3.8	1.49e+00	0	55	104	0	51	15846
2026-01-13 07:56:56.26	89.03	8.82	-39.8	-52.6	3.8	1.49e+00	0	55	104	0	51	15578
2026-01-13 07:56:59.29	88.64	8.99	-40.2	-52.8	3.8	1.49e+00	0	55	104	0	50	16701
2026-01-13 07:57:02.32	88.25	9.16	-38.6	-52.1	3.8	1.49e+00	0	55	104	0	49	16421
2026-01-13 07:57:05.35	87.86	9.33	-40.3	-52.7	3.8	1.49e+00	0	56	104	0	51	15697
2026-01-13 07:57:08.38	87.46	9.50	-40.4	-52.8	3.8	1.49e+00	0	56	104	0	51	15885
2026-01-13 07:57:11.42	87.05	9.67	-39.8	-52.6	3.9	1.49e+00	0	56	104	0	50	16459
2026-01-13 07:57:14.45	86.64	9.84	-39.9	-52.8	3.8	1.49e+00	0	56	104	0	51	15800
2026-01-13 07:57:17.47	86.23	10.01	-40.3	-52.8	3.8	1.49e+00	0	56	104	0	51	15911
2026-01-13 07:57:20.50	85.81	10.18	-40.4	-52.8	3.8	1.49e+00	0	56	104	0	51	15895
2026-01-13 07:57:23.53	85.39	10.35	-40.1	-52.7	3.8	1.49e+00	0	56	104	0	51	15664
2026-01-13 07:57:26.56	84.96	10.52	-40.2	-52.7	3.8	1.49e+00	0	56	104	0	51	15673
2026-01-13 07:57:29.59	84.52	10.69	-40.2	-52.6	3.8	1.49e+00	0	56	104	0	51	15512
2026-01-13 07:57:32.62	84.08	10.85	-40.3	-52.6	3.8	1.49e+00	0	56	104	0	51	15549
2026-01-13 07:57:35.64	83.64	11.02	-40.4	-52.8	3.8	1.49e+00	0	56	104	0	51	15768
2026-01-13 07:57:38.67	83.19	11.19	-40.4	-52.7	3.8	1.49e+00	0	56	104	0	51	15689
2026-01-13 07:57:41.70	82.74	11.35	-40.4	-52.8	3.8	1.49e+00	0	56	104	0	51	15943
2026-01-13 07:57:44.73	82.28	11.52	-40.2	-52.6	3.8	1.49e+00	0	56	104	0	51	15579
2026-01-13 07:57:47.76	81.81	11.69	-40.4	-52.8	3.8	1.49e+00	0	56	104	0	51	15869
2026-01-13 07:57:50.79	81.34	11.85	-40.3	-52.7	3.8	1.49e+00	0	56	104	0	51	15669
2026-01-13 07:57:53.81	80.87	12.01	-40.5	-52.9	3.8	1.49e+00	0	57	104	0	51	16092
2026-01-13 07:57:56.84	80.38	12.18	-40.4	-52.8	3.8	1.49e+00	0	56	104	0	51	15831
2026-01-13 07:57:59.87	79.90	12.34	-40.7	-53.1	3.8	1.49e+00	0	57	104	0	51	16458
2026-01-13 07:58:02.90	79.41	12.50	-40.5	-53.0	3.8	1.49e+00	0	57	104	0	51	16178
2026-01-13 07:58:05.92	78.91	12.66	-40.7	-53.2	3.8	1.49e+00	0	56	104	0	52	15601
2026-01-13 07:58:08.95	78.41	12.82	-40.5	-53.0	3.8	1.49e+00	0	57	104	0	52	15273
2026-01-13 07:58:11.98	77.90	12.97	-40.7	-53.2	3.8	1.49e+00	0	57	104	0	52	15615
2026-01-13 07:58:15.01	77.38	13.13	-40.7	-53.1	3.8	1.49e+00	0	57	104	0	52	15424
2026-01-13 07:58:18.04	76.86	13.28	-41.0	-53.2	3.8	1.49e+00	0	57	104	0	52	15617
2026-01-13 07:58:21.06	76.34	13.44	-40.8	-53.2	3.8	1.49e+00	0	57	104	0	52	15618
2026-01-13 07:58:24.09	75.81	13.59	-41.0	-53.1	3.8	1.49e+00	0	57	104	0	53	14656
2026-01-13 07:58:27.12	75.28	13.74	-41.0	-52.6	3.8	1.49e+00	0	57	104	0	53	13824
2026-01-13 07:58:30.15	74.73	13.89	-41.2	-53.5	3.8	1.49e+00	0	57	104	0	53	15293
2026-01-13 07:58:33.18	74.19	14.03	-40.9	-51.4	3.8	1.48e+00	0	57	104	0	53	11961
2026-01-13 07:58:36.21	73.64	14.18	-40.9	-51.5	3.9	1.49e+00	0	57	104	0	53	12122
2026-01-13 07:58:39.24	73.08	14.32	-40.9	-52.7	3.8	1.49e+00	0	57	104	0	53	13923
2026-01-13 07:58:42.27	72.51	14.47	-40.5	-48.5	4.7	9.58e-01	0	57	104	0	53	8568
2026-01-13 07:58:45.30	71.95	14.61	-41.2	-53.0	3.8	1.49e+00	0	57	104	0	53	14444
2026-01-13 07:58:48.33	71.37	14.74	-40.7	-48.9	4.6	1.33e+00	0	57	104	0	53	8976
2026-01-13 07:58:51.36	70.79	14.88	-40.4	-46.7	6.1	4.83e-01	0	57	0	2097152	52	7377
2026-01-13 07:58:54.39	70.21	15.01	-40.8	-47.1	5.9	1.27e+00	2	57	104	4194304	53	7338
2026-01-13 07:58:57.42	69.62	15.14	-40.6	-46.5	6.5	2.44e-01	0	57	0	8388608	53	6844
2026-01-13 07:59:00.45	69.02	15.27	-40.6	-45.9	7.2	1.52e-01	0	57	0	17825792	53	6358
2026-01-13 07:59:03.47	68.43	15.40	-40.3	-44.9	8.3	5.10e-02	0	58	0	27262976	52	6032
2026-01-13 07:59:06.50	67.82	15.52	-40.3	-44.3	9.2	2.20e-02	0	57	0	36700160	52	5650
2026-01-13 07:59:09.54	67.21	15.64	-40.0	-43.6	10.2	6.18e-03	0	57	0	46137344	52	5215
2026-01-13 07:59:12.57	66.59	15.76	-40.0	-43.2	11.0	1.63e-03	0	57	0	55574528	51	5238
2026-01-13 07:59:15.60	65.98	15.88	-40.2	-43.3	11.1	1.73e-03	0	57	0	65011712	51	5318
2026-01-13 07:59:18.63	65.35	15.99	-40.3	-43.4	11.2	1.31e-03	0	57	0	74448896	51	5377
2026-01-13 07:59:21.66	64.72	16.10	-40.1	-43.0	11.8	4.17e-04	0	58	0	83886080	51	5103
2026-01-13 07:59:24.69	64.09	16.21	-40.1	-42.9	12.0	4.16e-04	0	58	0	93323264	51	5048
2026-01-13 07:59:27.72	63.45	16.31	-40.0	-42.8	12.1	2.08e-04	0	58	0	102760448	51	5018
2026-01-13 07:59:30.75	62.81	16.41	-40.0	-42.7	12.3	1.83e-04	0	58	0	112197632	51	4967
2026-01-13 07:59:33.78	62.16	16.51	-40.2	-43.1	12.0	3.25e-04	0	58	0	121634816	51	5168
2026-01-13 07:59:36.81	61.51	16.60	-40.2	-42.9	12.1	2.33e-04	0	58	0	132120576	51	5090
2026-01-13 07:59:39.84	60.85	16.69	-40.2	-43.0	12.2	2.30e-04	0	58	0	140509184	51	5101
2026-01-13 07:59:42.87	60.20	16.78	-40.1	-42.8	12.4	1.52e-04	0	58	0	150994944	51	5004
2026-01-13 07:59:45.90	59.53	16.86	-40.2	-42.9	12.2	2.41e-04	0	58	0	160432128	51	5083
2026-01-13 07:59:48.93	58.87	16.94	-40.1	-42.8	12.4	1.59e-04	0	58	0	169869312	51	4987
2026-01-13 07:59:51.96	58.20	17.02	-40.0	-42.7	12.6	1.01e-04	0	58	0	179306496	51	4933
2026-01-13 07:59:54.99	57.53	17.09	-40.1	-42.7	12.5	1.39e-04	0	58	0	188743680	51	4950
2026-01-13 07:59:58.02	56.85	17.16	-40.1	-42.7	12.5	1.11e-04	0	58	0	198180864	51	4966
2026-01-13 08:00:01.05	56.17	17.22	-40.2	-42.9	12.3	1.62e-04	0	58	0	207618048	51	5083
2026-01-13 08:00:04.08	55.49	17.28	-40.4	-43.1	12.1	2.55e-04	0	58	0	217055232	51	5207
2026-01-13 08:00:07.11	54.80	17.34	-40.2	-42.9	12.3	1.93e-04	0	58	0	226492416	51	5087
2026-01-13 08:00:10.14	54.12	17.39	-40.2	-42.8	12.4	1.28e-04	0	58	0	235929600	51	5028
2026-01-13 08:00:13.17	53.43	17.44	-40.0	-42.6	12.6	8.46e-05	0	58	0	245366784	51	4926
2026-01-13 08:00:16.20	52.74	17.48	-40.1	-42.7	12.6	6.48e-05	0	58	0	254803968	51	4936
2026-01-13 08:00:19.22	52.05	17.52	-40.2	-42.8	12.5	1.23e-04	0	58	0	264241152	51	5007
2026-01-13 08:00:22.25	51.35	17.56	-40.3	-43.0	12.3	1.46e-04	0	58	0	273678336	51	5132
2026-01-13 08:00:25.28	50.66	17.59	-40.2	-42.9	12.4	1.52e-04	0	58	0	283115520	51	5049
2026-01-13 08:00:28.31	49.96	17.61	-40.3	-43.1	12.2	2.06e-04	0	58	0	292552704	51	5170
2026-01-13 08:00:31.34	49.26	17.64	-40.4	-43.1	12.2	2.43e-04	0	58	0	301989888	51	5200
2026-01-13 08:00:34.36	48.56	17.65	-40.3	-42.9	12.4	1.79e-04	0	58	0	311427072	51	5090
2026-01-13 08:00:37.39	47.86	17.67	-40.0	-42.6	12.8	5.11e-05	0	58	0	320864256	51	4875
2026-01-13 08:00:40.42	47.16	17.68	-40.0	-42.6	12.8	4.42e-05	0	58	0	330301440	51	4894
2026-01-13 08:00:43.45	46.46	17.68	-40.1	-42.6	12.7	7.78e-05	0	58	0	339738624	51	4896
2026-01-13 08:00:46.48	45.76	17.68	-40.0	-42.6	12.8	8.46e-05	0	58	0	349175808	51	4892
2026-01-13 08:00:49.51	45.06	17.68	-40.1	-42.8	12.6	8.54e-05	0	58	0	358612992	51	4989
2026-01-13 08:00:52.54	44.36	17.67	-40.1	-42.7	12.6	9.53e-05	0	58	0	368050176	51	4965
2026-01-13 08:00:55.58	43.66	17.66	-40.1	-42.6	12.7	6.86e-05	0	58	0	377487360	51	4920
2026-01-13 08:00:58.61	42.96	17.64	-40.1	-42.7	12.7	6.63e-05	0	58	0	386924544	51	4928
2026-01-13 08:01:01.64	42.26	17.62	-40.1	-42.7	12.6	9.53e-05	0	58	0	396361728	51	4954
2026-01-13 08:01:04.67	41.56	17.59	-40.2	-42.8	12.6	7.62e-05	0	58	0	405798912	51	4993
2026-01-13 08:01:07.70	40.87	17.56	-40.2	-42.8	12.6	8.39e-05	0	58	0	415236096	51	5012
2026-01-13 08:01:10.73	40.17	17.53	-40.3	-42.9	12.4	1.46e-04	0	58	0	424673280	51	5086
2026-01-13 08:01:13.76	39.48	17.49	-40.2	-42.9	12.4	1.62e-04	0	58	0	434110464	51	5091
2026-01-13 08:01:16.79	38.79	17.45	-40.4	-43.2	12.1	2.66e-04	0	58	0	444596224	51	5251
2026-01-13 08:01:19.82	38.10	17.40	-40.1	-42.8	12.6	1.01e-04	0	58	0	452984832	51	5011
2026-01-13 08:01:22.85	37.41	17.35	-40.1	-42.8	12.6	7.01e-05	0	58	0	463470592	51	4987
2026-01-13 08:01:25.88	36.73	17.29	-40.2	-42.8	12.5	9.99e-05	0	59	0	472907776	51	5034
2026-01-13 08:01:28.91	36.05	17.23	-40.1	-42.8	12.6	1.27e-04	0	58	0	482344960	51	4996
2026-01-13 08:01:31.94	35.37	17.17	-40.1	-42.6	12.7	7.17e-05	0	58	0	491782144	51	4922
2026-01-13 08:01:34.97	34.70	17.10	-40.0	-42.6	12.7	7.32e-05	0	58	0	501219328	51	4891
2026-01-13 08:01:38.00	34.02	17.03	-40.0	-42.6	12.8	6.56e-05	0	58	0	510656512	51	4892
2026-01-13 08:01:41.03	33.35	16.96	-40.1	-42.7	12.7	7.32e-05	0	58	0	520093696	51	4952
2026-01-13 08:01:44.06	32.69	16.88	-40.1	-42.7	12.6	8.69e-05	0	58	0	529530880	51	4953
2026-01-13 08:01:47.09	32.03	16.80	-40.1	-42.7	12.7	8.08e-05	0	58	0	538968064	51	4944
2026-01-13 08:01:50.12	31.37	16.71	-40.0	-42.6	12.7	6.94e-05	0	58	0	548405248	51	4912
2026-01-13 08:01:53.15	30.72	16.62	-40.1	-42.7	12.6	6.86e-05	0	58	0	557842432	51	4952
2026-01-13 08:01:56.17	30.07	16.53	-40.0	-42.7	12.6	8.77e-05	0	58	0	567279616	51	4937
2026-01-13 08:01:59.20	29.42	16.44	-40.1	-42.7	12.6	9.99e-05	0	58	0	576716800	51	4946
2026-01-13 08:02:02.23	28.78	16.34	-40.1	-42.8	12.5	1.30e-04	0	58	0	586153984	51	4993
2026-01-13 08:02:05.26	28.14	16.23	-40.3	-43.0	12.3	1.58e-04	0	58	0	595591168	51	5129
2026-01-13 08:02:08.28	27.51	16.13	-40.3	-43.0	12.2	1.90e-04	0	58	0	605028352	51	5141
2026-01-13 08:02:11.31	26.88	16.02	-40.1	-42.7	12.6	1.04e-04	0	58	0	614465536	51	4961
2026-01-13 08:02:14.34	26.26	15.91	-40.0	-42.6	12.7	9.53e-05	0	58	0	623902720	51	4892
2026-01-13 08:02:17.37	25.64	15.79	-40.1	-42.8	12.4	1.12e-04	0	58	0	633339904	51	5031
2026-01-13 08:02:20.41	25.03	15.68	-40.2	-43.0	12.2	2.10e-04	0	58	0	642777088	51	5148
2026-01-13 08:02:23.44	24.42	15.56	-40.2	-42.9	12.3	1.67e-04	0	58	0	652214272	51	5089
2026-01-13 08:02:26.47	23.81	15.43	-40.1	-42.8	12.4	1.43e-04	0	58	0	661651456	51	5022
2026-01-13 08:02:29.50	23.21	15.31	-40.2	-43.0	12.2	1.62e-04	0	58	0	671088640	51	5104
2026-01-13 08:02:32.53	22.62	15.18	-40.4	-43.2	11.9	3.42e-04	0	58	0	680525824	51	5273
2026-01-13 08:02:35.56	22.03	15.05	-40.4	-43.3	11.9	4.42e-04	0	59	0	689963008	51	5295
2026-01-13 08:02:38.59	21.45	14.92	-40.4	-43.3	11.8	4.56e-04	0	58	0	699400192	51	5323
2026-01-13 08:02:41.62	20.87	14.78	-40.4	-43.3	11.7	5.48e-04	0	58	0	708837376	51	5335
2026-01-13 08:02:44.64	20.30	14.65	-40.4	-43.3	11.8	4.86e-04	0	58	0	718274560	51	5333
2026-01-13 08:02:47.67	19.73	14.51	-40.4	-43.3	11.8	4.39e-04	0	58	0	727711744	51	5309
2026-01-13 08:02:50.70	19.17	14.37	-40.3	-43.2	11.9	4.32e-04	0	58	0	737148928	51	5223
2026-01-13 08:02:53.73	18.61	14.22	-40.4	-43.3	11.8	5.16e-04	0	58	0	746586112	51	5284
2026-01-13 08:02:56.76	18.06	14.08	-40.5	-43.6	11.5	8.06e-04	0	58	0	756023296	51	5476
2026-01-13 08:02:59.79	17.52	13.93	-40.6	-43.7	11.3	1.16e-03	0	58	0	765460480	51	5557
2026-01-13 08:03:02.81	16.98	13.79	-40.5	-43.6	11.4	9.18e-04	0	58	0	774897664	51	5474
2026-01-13 08:03:05.84	16.44	13.64	-40.4	-43.5	11.5	9.04e-04	0	58	0	784334848	51	5418
2026-01-13 08:03:08.87	15.92	13.48	-40.4	-43.5	11.5	8.67e-04	0	59	0	793772032	51	5403
2026-01-13 08:03:11.90	15.39	13.33	-40.4	-43.5	11.4	9.34e-04	0	58	0	804257792	51	5415
2026-01-13 08:03:14.93	14.87	13.18	-40.3	-43.3	11.6	6.68e-04	0	58	0	813694976	51	5283
2026-01-13 08:03:17.96	14.36	13.02	-40.2	-43.2	11.6	6.77e-04	0	58	0	823132160	51	5242
2026-01-13 08:03:20.99	13.86	12.87	-40.2	-43.3	11.5	8.29e-04	0	58	0	832569344	51	5293
2026-01-13 08:03:24.01	13.36	12.71	-40.3	-43.4	11.3	1.08e-03	0	58	0	842006528	51	5368
2026-01-13 08:03:27.04	12.86	12.55	-40.4	-43.6	11.0	1.83e-03	0	58	0	851443712	51	5504
2026-01-13 08:03:30.07	12.37	12.39	-40.3	-43.7	10.7	2.57e-03	0	59	0	860880896	51	5567
2026-01-13 08:03:33.11	11.88	12.23	-40.4	-44.0	10.2	5.42e-03	0	58	0	870318080	51	5752
2026-01-13 08:03:36.14	11.40	12.07	-40.3	-44.0	9.9	8.08e-03	0	58	0	879755264	51	5763
2026-01-13 08:03:39.17	10.93	11.91	-40.0	-43.8	10.0	7.69e-03	0	58	0	889192448	51	5600
2026-01-13 08:03:42.20	10.46	11.74	-40.4	-44.8	8.6	3.23e-02	0	59	0	898629632	51	6322
2026-01-13 08:03:45.23	9.99	11.58	-40.7	-46.0	7.3	1.09e-01	0	58	0	908066816	51	7243
2026-01-13 08:03:48.27	9.54	11.41	-40.8	-47.2	5.9	3.31e-01	0	58	0	917504000	52	7876
2026-01-13 08:03:51.30	9.08	11.25	-40.9	-49.0	4.7	9.26e-01	0	58	104	924844032	52	9694
2026-01-13 08:03:54.32	8.64	11.08	-40.9	-51.2	4.0	1.47e+00	0	58	104	924844032	52	12503
2026-01-13 08:03:57.35	8.19	10.91	-41.4	-52.1	3.9	1.48e+00	0	58	104	924844032	54	12315
2026-01-13 08:04:00.38	7.76	10.75	-41.2	-52.3	3.8	1.49e+00	0	58	104	924844032	53	13407
2026-01-13 08:04:03.41	7.32	10.58	-40.8	-53.2	3.8	1.49e+00	0	58	104	924844032	53	14734
2026-01-13 08:04:06.44	6.89	10.41	-40.3	-52.7	3.8	1.49e+00	0	59	104	924844032	51	15708
2026-01-13 08:04:09.46	6.47	10.24	-40.0	-52.4	3.8	1.49e+00	0	59	104	924844032	51	15174
2026-01-13 08:04:12.49	6.06	10.07	-40.7	-53.2	3.8	1.49e+00	0	59	104	924844032	51	16555
2026-01-13 08:04:15.52	5.64	9.90	-39.9	-52.4	3.8	1.49e+00	0	59	104	924844032	51	15109
2026-01-13 08:04:18.55	5.24	9.73	-39.9	-52.3	3.8	1.49e+00	0	59	104	924844032	51	15015
2026-01-13 08:04:21.58	4.83	9.57	-39.9	-52.3	3.8	1.49e+00	0	59	104	924844032	51	15019
2026-01-13 08:04:24.60	4.44	9.40	-39.9	-52.3	3.8	1.49e+00	0	59	104	924844032	51	15000
2026-01-13 08:04:27.63	4.04	9.23	-40.0	-52.4	3.8	1.49e+00	0	59	104	924844032	51	15217
2026-01-13 08:04:30.66	3.65	9.06	-40.0	-52.5	3.8	1.49e+00	0	59	104	924844032	51	15311
2026-01-13 08:04:33.69	3.27	8.89	-39.9	-52.4	3.8	1.49e+00	0	58	104	924844032	51	15150
2026-01-13 08:04:36.71	2.89	8.72	-39.9	-52.5	3.8	1.49e+00	0	59	104	924844032	51	15272
2026-01-13 08:04:39.74	2.52	8.54	-39.9	-52.3	3.8	1.49e+00	0	59	104	924844032	51	14997
2026-01-13 08:04:42.77	2.15	8.37	-39.8	-52.4	3.8	1.49e+00	0	59	104	924844032	51	15075
2026-01-13 08:04:45.80	1.78	8.20	-39.8	-52.4	3.8	1.49e+00	0	59	104	924844032	51	15077
2026-01-13 08:04:48.83	1.42	8.03	-39.7	-52.3	3.8	1.49e+00	0	59	104	924844032	51	14995
2026-01-13 08:04:51.86	1.06	7.86	-44.6	-56.7	3.8	1.49e+00	0	58	104	924844032	59	15723
2026-01-13 08:04:54.89	0.71	7.69	-45.2	-57.6	3.8	1.49e+00	0	59	104	924844032	60	16350
2026-01-13 08:04:57.92	0.36	7.52	-45.2	-57.6	3.8	1.49e+00	0	59	104	924844032	61	15573
2026-01-13 08:05:00.95	0.01	7.35	-45.3	-57.6	3.8	1.49e+00	0	59	104	924844032	61	15507
2026-01-13 08:05:03.97	359.68	7.18	-45.2	-57.6	3.8	1.49e+00	0	59	104	924844032	61	15404
2026-01-13 08:05:07.01	359.34	7.01	-45.2	-57.5	3.8	1.49e+00	0	59	104	924844032	61	15238
2026-01-13 08:05:10.04	359.01	6.84	-45.2	-57.5	3.8	1.49e+00	0	59	104	924844032	61	15257
2026-01-13 08:05:13.07	358.68	6.67	-45.2	-57.4	3.8	1.49e+00	0	59	104	924844032	60	16116
2026-01-13 08:05:16.09	358.35	6.51	-45.1	-57.4	3.8	1.49e+00	0	59	104	924844032	60	16122
2026-01-13 08:05:19.12	358.03	6.34	-45.1	-57.4	3.8	1.49e+00	0	59	104	924844032	60	16122
2026-01-13 08:05:22.15	357.72	6.17	-45.1	-57.4	3.8	1.49e+00	0	59	104	924844032	60	16059
2026-01-13 08:05:25.18	357.40	6.00	-45.1	-57.4	3.8	1.49e+00	0	59	104	924844032	60	16123
2026-01-13 08:05:28.21	357.09	5.83	-45.1	-57.4	3.8	1.49e+00	0	59	104	924844032	60	16077
2026-01-13 08:05:31.24	356.79	5.66	-45.1	-57.4	3.8	1.49e+00	0	59	104	924844032	60	16074
2026-01-13 08:05:34.27	356.49	5.50	-45.1	-57.4	3.8	1.49e+00	0	59	104	924844032	60	16036
2026-01-13 08:05:37.30	356.19	5.33	-44.9	-57.4	3.8	1.49e+00	0	59	104	924844032	60	16104
2026-01-13 08:05:40.33	355.89	5.16	-45.0	-57.4	3.8	1.49e+00	0	59	104	924844032	60	15988
2026-01-13 08:05:43.36	355.60	5.00	-45.1	-57.4	3.8	1.49e+00	0	59	104	924844032	60	16047
2026-01-13 08:05:46.39	355.31	4.83	-45.1	-57.4	3.8	1.49e+00	0	59	104	924844032	60	15992
2026-01-13 08:05:49.41	355.03	4.67	-45.1	-57.4	3.8	1.49e+00	0	59	104	924844032	60	16076
2026-01-13 08:05:52.44	354.75	4.50	-45.1	-57.4	3.8	1.49e+00	0	59	104	924844032	60	16102
2026-01-13 08:05:55.47	354.47	4.34	-45.1	-57.4	3.8	1.49e+00	0	59	104	924844032	60	16022
2026-01-13 08:05:58.50	354.19	4.17	-45.1	-57.4	3.8	1.49e+00	0	59	104	924844032	60	16044
2026-01-13 08:06:01.52	353.92	4.01	-45.1	-57.4	3.8	1.49e+00	0	59	104	924844032	60	16028
2026-01-13 08:06:04.55	353.66	3.84	-45.1	-57.4	3.8	1.49e+00	0	59	104	924844032	60	16013
2026-01-13 08:06:07.59	353.39	3.68	-45.1	-57.4	3.8	1.49e+00	0	59	104	924844032	60	15992
2026-01-13 08:06:10.61	353.13	3.52	-45.1	-57.4	3.8	1.49e+00	0	59	104	924844032	60	16008
2026-01-13 08:06:13.64	352.87	3.35	-45.1	-57.4	3.8	1.49e+00	0	59	104	924844032	60	16034
2026-01-13 08:06:16.67	352.61	3.19	-45.1	-57.4	3.8	1.49e+00	0	59	104	924844032	60	15992
2026-01-13 08:06:19.71	352.36	3.03	-45.1	-57.4	3.8	1.49e+00	0	59	104	924844032	60	15998
2026-01-13 08:06:22.74	352.11	2.87	-45.1	-57.4	3.8	1.49e+00	0	59	104	924844032	60	15963
2026-01-13 08:06:25.77	351.86	2.71	-45.1	-57.4	3.8	1.49e+00	0	59	104	924844032	60	16011
2026-01-13 08:06:28.80	351.61	2.55	-45.1	-57.4	3.8	1.49e+00	0	59	104	924844032	60	15961
2026-01-13 08:06:31.83	351.37	2.39	-45.1	-57.4	3.8	1.49e+00	0	59	104	924844032	60	15968
2026-01-13 08:06:34.86	351.13	2.23	-45.1	-57.4	3.8	1.49e+00	0	59	104	924844032	60	15964
2026-01-13 08:06:37.89	350.90	2.07	-45.1	-57.4	3.8	1.49e+00	0	59	104	924844032	60	15988

#Closed at: 2026-01-13 08:06:39
#Recorded file [924 MB]: D:/lorett/data/31039_260113_105451.dat