passes_logs/2026/01/13/R2.0S_Moscow/R2.0S_Moscow__20260113_024454_AQUA_rec.log

#Pass ID: 20260113_024454_AQUA
#Satellite: AQUA
#Configuration: AQUA
#almurnet v.1.7.20251203
#Start time: 2026-01-13 02:44:54

#Version: 2.2.20231116
#Station: R2.0S_Moscow
#Location: 37.707566 lon 55.798166 lat
#TLE: 1 27424U 02022A   26012.29577270  .00001027  00000+0  21555-3 0  9995
#TLE: 2 27424  98.4078 338.6778 0002034  81.5885  29.6294 14.61817302260499

#Time	Az	El	Level	Level2	SNR	BER	BlckErr	Temp	State	Recorded	gain1	gain2
2026-01-13 02:44:54.81	7.78	2.02	-39.8	-59.8	3.8	7.43e-01	0	50	0	0	51	35520
2026-01-13 02:44:57.84	7.57	2.20	-39.8	-59.8	3.8	7.44e-01	0	51	104	0	50	37593
2026-01-13 02:45:00.87	7.36	2.38	-39.8	-59.8	3.8	7.42e-01	0	51	104	0	50	37558
2026-01-13 02:45:03.90	7.15	2.56	-39.9	-59.8	3.8	7.46e-01	0	51	104	0	50	37558
2026-01-13 02:45:06.93	6.94	2.75	-39.8	-59.8	3.8	7.45e-01	0	51	104	0	50	37597
2026-01-13 02:45:09.96	6.72	2.93	-39.8	-59.8	3.8	7.46e-01	0	51	104	0	50	37569
2026-01-13 02:45:13.00	6.50	3.12	-39.8	-59.8	3.8	7.45e-01	0	52	104	0	50	37576
2026-01-13 02:45:16.03	6.27	3.30	-39.8	-59.8	3.8	7.44e-01	0	52	104	0	50	37524
2026-01-13 02:45:19.06	6.04	3.49	-39.8	-59.8	3.8	7.47e-01	0	52	104	0	50	37628
2026-01-13 02:45:22.09	5.81	3.68	-39.8	-59.8	3.8	7.47e-01	0	52	104	0	50	37514
2026-01-13 02:45:25.12	5.58	3.87	-39.8	-59.8	3.8	7.48e-01	0	53	104	0	50	37560
2026-01-13 02:45:28.16	5.34	4.06	-39.8	-59.8	3.8	7.45e-01	0	53	104	0	50	37534
2026-01-13 02:45:31.19	5.10	4.25	-39.8	-59.8	3.8	7.47e-01	0	53	104	0	50	37547
2026-01-13 02:45:34.22	4.85	4.44	-39.9	-59.8	3.8	7.43e-01	0	53	104	0	50	37553
2026-01-13 02:45:37.25	4.60	4.63	-39.8	-59.8	3.8	7.46e-01	0	53	104	0	50	37540
2026-01-13 02:45:40.28	4.35	4.83	-39.9	-59.8	3.8	7.48e-01	0	53	104	0	50	37522
2026-01-13 02:45:43.31	4.09	5.02	-39.9	-59.8	3.8	7.47e-01	0	54	104	0	50	37507
2026-01-13 02:45:46.34	3.83	5.22	-39.8	-59.8	3.8	7.43e-01	0	54	104	0	50	37519
2026-01-13 02:45:49.37	3.57	5.42	-39.9	-59.8	3.8	7.47e-01	0	54	104	0	50	37576
2026-01-13 02:45:52.40	3.30	5.61	-39.8	-59.8	3.8	7.46e-01	0	54	104	0	50	37547
2026-01-13 02:45:55.43	3.03	5.81	-39.9	-59.8	3.8	7.44e-01	0	54	104	0	50	37525
2026-01-13 02:45:58.47	2.75	6.02	-39.9	-59.8	3.8	7.49e-01	0	54	104	0	50	37524
2026-01-13 02:46:01.50	2.47	6.22	-39.9	-59.8	3.8	7.44e-01	0	54	104	0	50	37534
2026-01-13 02:46:04.53	2.18	6.42	-39.8	-59.8	3.8	7.44e-01	0	55	104	0	50	37535
2026-01-13 02:46:07.56	1.89	6.62	-39.9	-59.8	3.8	7.42e-01	0	55	104	0	50	37540
2026-01-13 02:46:10.59	1.60	6.83	-39.8	-59.8	3.8	7.45e-01	0	55	104	0	50	37502
2026-01-13 02:46:13.62	1.30	7.04	-39.9	-59.8	3.8	7.44e-01	0	55	104	0	50	37532
2026-01-13 02:46:16.66	0.99	7.24	-39.9	-59.8	3.8	7.45e-01	0	55	104	0	50	37524
2026-01-13 02:46:19.69	0.68	7.45	-39.8	-59.8	3.8	7.42e-01	0	55	104	0	50	37503
2026-01-13 02:46:22.72	0.36	7.66	-39.9	-59.8	3.8	7.44e-01	0	55	104	0	50	37573
2026-01-13 02:46:25.75	0.04	7.87	-39.8	-59.8	3.8	7.44e-01	0	55	104	0	50	37528
2026-01-13 02:46:28.79	359.72	8.09	-39.4	-59.8	3.8	7.42e-01	0	55	104	0	50	37390
2026-01-13 02:46:31.81	359.39	8.30	-39.8	-59.8	3.8	7.44e-01	0	56	104	0	50	37795
2026-01-13 02:46:34.84	359.05	8.51	-39.7	-59.9	3.8	7.44e-01	0	56	104	0	50	37964
2026-01-13 02:46:37.87	358.71	8.73	-39.7	-59.8	3.8	7.43e-01	0	56	104	0	50	37656
2026-01-13 02:46:40.90	358.36	8.95	-39.7	-59.8	3.8	7.48e-01	0	56	104	0	51	35671
2026-01-13 02:46:43.92	358.01	9.16	-40.4	-59.9	3.8	7.44e-01	0	56	104	0	51	35717
2026-01-13 02:46:46.95	357.65	9.38	-40.2	-59.8	3.8	7.48e-01	0	56	104	0	51	35389
2026-01-13 02:46:49.98	357.28	9.60	-40.2	-59.9	3.8	7.44e-01	0	56	104	0	51	35811
2026-01-13 02:46:53.01	356.91	9.82	-40.1	-59.7	3.8	7.43e-01	0	56	104	0	51	35264
2026-01-13 02:46:56.04	356.53	10.05	-40.4	-60.1	3.8	7.47e-01	0	56	104	0	51	36597
2026-01-13 02:46:59.06	356.15	10.27	-40.0	-59.8	3.8	7.46e-01	0	56	104	0	51	35583
2026-01-13 02:47:02.09	355.76	10.49	-40.5	-60.2	3.8	7.43e-01	0	57	104	0	52	35200
2026-01-13 02:47:05.12	355.36	10.72	-40.3	-59.9	3.8	7.44e-01	0	57	104	0	52	34083
2026-01-13 02:47:08.15	354.96	10.94	-41.1	-60.5	3.8	7.45e-01	0	57	104	0	52	36203
2026-01-13 02:47:11.18	354.55	11.17	-40.9	-60.0	3.8	7.45e-01	0	57	104	0	53	32508
2026-01-13 02:47:14.21	354.13	11.40	-40.7	-60.2	3.8	7.43e-01	0	57	104	0	53	33020
2026-01-13 02:47:17.24	353.70	11.63	-40.7	-60.0	3.8	7.43e-01	0	57	104	0	53	32478
2026-01-13 02:47:20.27	353.27	11.86	-41.3	-60.4	3.8	7.46e-01	0	57	104	0	53	33877
2026-01-13 02:47:23.30	352.83	12.09	-40.8	-60.2	3.8	7.46e-01	0	57	104	0	53	33036
2026-01-13 02:47:26.33	352.38	12.32	-41.2	-60.5	3.8	7.46e-01	0	57	104	0	53	34124
2026-01-13 02:47:29.36	351.92	12.55	-41.4	-60.4	3.8	7.47e-01	0	57	104	0	53	34003
2026-01-13 02:47:32.39	351.46	12.79	-41.3	-60.5	3.8	7.45e-01	0	57	104	0	53	34336
2026-01-13 02:47:35.42	350.98	13.02	-41.6	-60.5	3.8	7.46e-01	0	57	104	0	53	34264
2026-01-13 02:47:38.45	350.50	13.26	-41.9	-60.7	3.8	7.44e-01	0	57	104	0	54	33255
2026-01-13 02:47:41.47	350.02	13.49	-41.7	-60.6	3.8	7.48e-01	0	57	104	0	54	32878
2026-01-13 02:47:44.51	349.52	13.73	-41.8	-60.8	3.8	7.45e-01	0	57	104	0	54	33399
2026-01-13 02:47:47.54	349.01	13.96	-41.4	-60.7	3.8	7.44e-01	0	57	104	0	54	33236
2026-01-13 02:47:50.56	348.49	14.20	-41.9	-61.0	3.8	7.45e-01	0	57	104	0	54	34422
2026-01-13 02:47:53.59	347.97	14.44	-41.8	-61.1	3.8	7.46e-01	0	58	104	0	54	34867
2026-01-13 02:47:56.62	347.44	14.67	-41.7	-61.3	3.8	7.48e-01	0	58	104	0	55	33357
2026-01-13 02:47:59.65	346.89	14.91	-42.0	-61.1	3.8	7.49e-01	0	58	104	0	55	32555
2026-01-13 02:48:02.68	346.34	15.15	-42.1	-61.3	3.8	7.43e-01	0	58	104	0	54	35389
2026-01-13 02:48:05.71	345.78	15.39	-41.6	-60.8	3.8	7.48e-01	0	58	104	0	54	33444
2026-01-13 02:48:08.74	345.20	15.62	-41.4	-60.9	3.8	7.49e-01	0	58	104	0	54	33723
2026-01-13 02:48:11.77	344.62	15.86	-41.7	-60.7	3.8	7.45e-01	0	58	104	0	54	33068
2026-01-13 02:48:14.80	344.03	16.10	-41.6	-60.6	3.8	7.45e-01	0	58	104	0	53	34755
2026-01-13 02:48:17.83	343.43	16.33	-41.2	-60.6	3.8	7.43e-01	0	58	104	0	53	34587
2026-01-13 02:48:20.86	342.81	16.57	-41.6	-60.6	3.8	7.47e-01	0	58	104	0	53	34734
2026-01-13 02:48:23.88	342.19	16.80	-41.1	-60.4	3.8	7.44e-01	0	58	104	0	53	34033
2026-01-13 02:48:26.91	341.56	17.04	-41.2	-60.4	3.8	7.44e-01	0	58	104	0	53	33873
2026-01-13 02:48:29.94	340.92	17.27	-42.1	-60.9	3.8	7.43e-01	0	58	104	0	54	34066
2026-01-13 02:48:32.97	340.26	17.50	-41.2	-59.7	3.8	7.46e-01	0	58	104	0	54	29520
2026-01-13 02:48:35.99	339.60	17.73	-41.5	-56.7	3.9	7.39e-01	0	59	104	0	54	20795
2026-01-13 02:48:39.02	338.92	17.96	-43.6	-53.6	8.2	6.43e-01	52	58	0	3670016	57	12238
2026-01-13 02:48:42.05	338.23	18.19	-40.3	-43.8	18.1	6.03e-01	0	58	0	7864320	52	5280
2026-01-13 02:48:45.08	337.53	18.41	-41.4	-45.2	17.4	6.03e-01	0	59	0	13631488	53	5861
2026-01-13 02:48:48.11	336.82	18.64	-41.3	-44.6	18.3	6.03e-01	0	58	0	18874368	53	5494
2026-01-13 02:48:51.14	336.10	18.86	-41.2	-44.4	18.5	6.02e-01	0	58	0	24641536	53	5388
2026-01-13 02:48:54.17	335.37	19.07	-41.2	-44.4	18.7	6.02e-01	0	59	0	30408704	53	5361
2026-01-13 02:48:57.20	334.62	19.29	-41.4	-44.6	18.5	6.03e-01	0	59	0	36175872	53	5506
2026-01-13 02:49:00.23	333.87	19.50	-41.4	-44.5	18.8	6.02e-01	0	58	0	41943040	53	5430
2026-01-13 02:49:03.26	333.10	19.71	-41.4	-44.6	18.8	6.02e-01	0	58	0	47185920	53	5469
2026-01-13 02:49:06.29	332.32	19.92	-41.5	-44.6	18.8	6.02e-01	0	59	0	52953088	53	5475
2026-01-13 02:49:09.32	331.53	20.12	-41.5	-44.5	18.9	6.03e-01	0	59	0	58720256	53	5447
2026-01-13 02:49:12.35	330.73	20.32	-41.5	-44.6	18.8	6.03e-01	0	58	0	64487424	53	5528
2026-01-13 02:49:15.37	329.92	20.52	-41.6	-44.7	18.8	6.06e-01	0	59	0	70254592	53	5551
2026-01-13 02:49:18.40	329.10	20.71	-41.7	-44.8	18.7	6.04e-01	0	59	0	76021760	54	5319
2026-01-13 02:49:21.43	328.27	20.90	-41.6	-44.6	18.9	6.03e-01	0	59	0	81788928	54	5214
2026-01-13 02:49:24.45	327.43	21.08	-41.7	-44.9	18.7	6.02e-01	0	59	0	87031808	54	5351
2026-01-13 02:49:27.48	326.57	21.25	-41.7	-44.8	18.8	6.02e-01	0	59	0	92798976	54	5308
2026-01-13 02:49:30.51	325.71	21.43	-41.7	-44.8	18.8	6.03e-01	0	59	0	98566144	54	5286
2026-01-13 02:49:33.54	324.83	21.59	-41.6	-44.6	19.0	6.02e-01	0	59	0	104333312	54	5211
2026-01-13 02:49:36.57	323.95	21.75	-41.8	-45.0	18.6	6.06e-01	0	59	0	110100480	54	5423
2026-01-13 02:49:39.60	323.05	21.91	-41.7	-44.9	18.7	6.01e-01	0	59	0	115343360	54	5351
2026-01-13 02:49:42.62	322.15	22.05	-41.8	-45.0	18.6	6.03e-01	0	59	0	121110528	54	5443
2026-01-13 02:49:45.65	321.24	22.20	-41.8	-45.0	18.6	6.03e-01	0	59	0	126877696	54	5412
2026-01-13 02:49:48.68	320.32	22.33	-41.8	-45.0	18.6	6.04e-01	0	59	0	132644864	54	5456
2026-01-13 02:49:51.70	319.39	22.46	-41.8	-45.0	18.6	6.02e-01	0	59	0	138412032	54	5432
2026-01-13 02:49:54.73	318.45	22.58	-41.8	-45.0	18.7	6.04e-01	0	59	0	144179200	54	5420
2026-01-13 02:49:57.76	317.51	22.69	-41.8	-44.9	18.7	6.04e-01	0	59	0	149422080	54	5394
2026-01-13 02:50:00.79	316.56	22.80	-41.8	-44.9	18.7	6.06e-01	0	59	0	155189248	54	5376
2026-01-13 02:50:03.82	315.60	22.90	-41.9	-45.1	18.6	6.04e-01	0	59	0	160956416	54	5483
2026-01-13 02:50:06.85	314.63	22.99	-41.7	-44.9	18.7	6.04e-01	0	59	0	166723584	54	5358
2026-01-13 02:50:09.88	313.66	23.07	-41.9	-45.1	18.5	6.04e-01	0	59	0	172490752	54	5518
2026-01-13 02:50:12.90	312.69	23.14	-42.2	-45.7	18.0	6.02e-01	0	59	0	178257920	54	5876
2026-01-13 02:50:15.93	311.71	23.21	-41.9	-45.1	18.6	6.03e-01	0	59	0	183500800	54	5488
2026-01-13 02:50:18.96	310.72	23.27	-41.7	-44.8	18.9	6.03e-01	0	59	0	189267968	54	5304
2026-01-13 02:50:21.99	309.73	23.32	-41.7	-44.8	18.8	6.03e-01	0	59	0	195035136	54	5282
2026-01-13 02:50:25.02	308.74	23.36	-41.9	-45.1	18.4	6.01e-01	0	59	0	200802304	55	5212
2026-01-13 02:50:28.04	307.75	23.39	-42.3	-45.8	17.9	6.03e-01	0	59	0	206569472	55	5628
2026-01-13 02:50:31.07	306.75	23.41	-42.0	-45.3	18.3	6.02e-01	0	59	0	212336640	55	5321
2026-01-13 02:50:34.10	305.76	23.42	-42.3	-45.8	17.9	6.01e-01	0	59	0	217579520	55	5599
2026-01-13 02:50:37.13	304.76	23.42	-42.4	-46.0	17.7	6.03e-01	0	59	0	223346688	55	5735
2026-01-13 02:50:40.16	303.76	23.42	-41.8	-45.0	18.6	6.00e-01	0	59	0	229113856	55	5103
2026-01-13 02:50:43.19	302.76	23.41	-42.6	-46.4	17.1	6.03e-01	0	59	0	234881024	55	6059
2026-01-13 02:50:46.22	301.77	23.38	-41.5	-44.5	19.2	6.02e-01	0	59	0	240648192	54	5132
2026-01-13 02:50:49.25	300.77	23.35	-42.4	-46.2	17.5	6.03e-01	0	59	0	246415360	55	5864
2026-01-13 02:50:52.28	299.78	23.31	-41.7	-44.7	19.0	6.03e-01	0	59	0	251658240	54	5261
2026-01-13 02:50:55.30	298.80	23.26	-42.2	-45.7	17.9	6.04e-01	0	59	0	257425408	55	5558
2026-01-13 02:50:58.33	297.81	23.20	-41.4	-44.4	19.3	6.03e-01	0	59	0	263192576	54	5043
2026-01-13 02:51:01.36	296.83	23.13	-42.6	-46.4	17.2	6.03e-01	0	59	0	268959744	55	6028
2026-01-13 02:51:04.39	295.85	23.06	-42.2	-45.6	18.0	6.04e-01	0	59	0	274726912	55	5512
2026-01-13 02:51:07.42	294.88	22.98	-42.2	-45.6	18.0	6.03e-01	0	59	0	280494080	55	5496
2026-01-13 02:51:10.45	293.91	22.88	-41.8	-44.9	18.8	6.03e-01	0	59	0	285736960	55	5064
2026-01-13 02:51:13.48	292.95	22.78	-42.2	-45.6	18.0	6.04e-01	0	59	0	291504128	55	5515
2026-01-13 02:51:16.51	292.00	22.68	-41.8	-45.0	18.7	6.05e-01	0	59	0	297271296	55	5106
2026-01-13 02:51:19.54	291.06	22.56	-42.0	-45.3	18.4	6.04e-01	0	59	0	303038464	55	5293
2026-01-13 02:51:22.57	290.12	22.44	-41.9	-45.1	18.5	6.03e-01	0	59	0	308805632	55	5210
2026-01-13 02:51:25.60	289.19	22.31	-42.2	-45.7	17.9	6.02e-01	0	59	0	314572800	55	5583
2026-01-13 02:51:28.63	288.26	22.17	-42.2	-45.6	18.0	6.02e-01	0	60	0	319815680	55	5503
2026-01-13 02:51:31.66	287.35	22.03	-42.0	-45.3	18.2	6.04e-01	0	59	0	325582848	55	5337
2026-01-13 02:51:34.68	286.45	21.88	-42.1	-45.4	18.2	6.02e-01	0	59	0	331350016	55	5385
2026-01-13 02:51:37.71	285.55	21.73	-42.2	-45.6	18.0	6.02e-01	0	59	0	337117184	55	5484
2026-01-13 02:51:40.74	284.67	21.56	-42.0	-45.4	18.3	6.01e-01	0	60	0	342884352	55	5341
2026-01-13 02:51:43.77	283.79	21.40	-42.1	-45.5	18.1	6.04e-01	0	59	0	348651520	55	5439
2026-01-13 02:51:46.80	282.92	21.22	-42.0	-45.4	18.2	6.03e-01	0	59	0	353894400	55	5393
2026-01-13 02:51:49.83	282.07	21.04	-42.0	-45.4	18.2	6.04e-01	0	59	0	359661568	55	5345
2026-01-13 02:51:52.86	281.22	20.86	-42.3	-45.9	17.7	6.02e-01	0	59	0	365428736	55	5666
2026-01-13 02:51:55.89	280.39	20.67	-41.9	-45.1	18.5	6.04e-01	0	59	0	371195904	55	5203
2026-01-13 02:51:58.91	279.57	20.48	-41.7	-44.9	18.7	6.02e-01	0	59	0	376963072	55	5072
2026-01-13 02:52:01.95	278.75	20.28	-42.0	-45.3	18.2	6.06e-01	0	60	0	382730240	55	5325
2026-01-13 02:52:04.98	277.95	20.08	-42.2	-45.7	17.8	6.03e-01	0	59	0	387973120	55	5585
2026-01-13 02:52:08.01	277.16	19.88	-42.1	-45.5	18.0	6.02e-01	0	60	0	393740288	55	5449
2026-01-13 02:52:11.03	276.38	19.67	-41.9	-45.2	18.3	6.04e-01	0	59	0	399507456	55	5257
2026-01-13 02:52:14.06	275.61	19.46	-41.9	-45.2	18.3	6.03e-01	0	59	0	405274624	55	5243
2026-01-13 02:52:17.09	274.86	19.25	-41.8	-45.1	18.5	6.03e-01	0	60	0	411041792	55	5177
2026-01-13 02:52:20.12	274.11	19.03	-41.7	-44.9	18.6	6.02e-01	0	60	0	416808960	55	5089
2026-01-13 02:52:23.15	273.38	18.81	-41.7	-44.9	18.6	6.04e-01	0	59	0	422051840	55	5079
2026-01-13 02:52:26.17	272.65	18.59	-41.7	-45.0	18.6	6.03e-01	0	59	0	427819008	55	5102
2026-01-13 02:52:29.20	271.94	18.36	-41.7	-44.9	18.6	6.05e-01	0	59	0	433586176	55	5059
2026-01-13 02:52:32.23	271.24	18.14	-41.8	-45.1	18.4	6.06e-01	0	59	0	439353344	55	5182
2026-01-13 02:52:35.26	270.55	17.91	-41.6	-44.8	18.7	6.02e-01	0	59	0	445120512	55	5011
2026-01-13 02:52:38.29	269.87	17.68	-41.7	-45.0	18.5	6.00e-01	0	60	0	450887680	55	5105
2026-01-13 02:52:41.32	269.20	17.45	-41.7	-44.9	18.6	6.02e-01	0	59	0	456130560	55	5073
2026-01-13 02:52:44.35	268.55	17.21	-41.8	-45.0	18.4	6.04e-01	0	60	0	461897728	55	5159
2026-01-13 02:52:47.38	267.90	16.98	-41.7	-45.0	18.5	6.03e-01	0	59	0	467664896	55	5104
2026-01-13 02:52:50.41	267.26	16.74	-41.6	-44.8	18.7	6.03e-01	0	60	0	473432064	55	4985
2026-01-13 02:52:53.44	266.64	16.51	-41.7	-45.0	18.4	6.03e-01	0	59	0	479199232	55	5114
2026-01-13 02:52:56.47	266.03	16.27	-41.6	-44.9	18.5	6.02e-01	0	60	0	484966400	55	5061
2026-01-13 02:52:59.50	265.42	16.03	-41.8	-45.1	18.3	6.01e-01	0	60	0	490209280	55	5168
2026-01-13 02:53:02.53	264.83	15.80	-41.6	-44.9	18.5	6.02e-01	0	60	0	495976448	55	5062
2026-01-13 02:53:05.56	264.24	15.56	-41.7	-45.0	18.4	6.02e-01	0	60	0	501743616	55	5123
2026-01-13 02:53:08.59	263.67	15.32	-41.6	-44.9	18.5	6.04e-01	0	60	0	507510784	55	5070
2026-01-13 02:53:11.62	263.10	15.08	-41.7	-45.0	18.4	6.02e-01	0	60	0	513277952	55	5111
2026-01-13 02:53:14.64	262.55	14.84	-41.7	-45.0	18.4	6.02e-01	0	60	0	519045120	55	5103
2026-01-13 02:53:17.67	262.01	14.61	-41.8	-45.1	18.2	6.03e-01	0	60	0	524288000	55	5197
2026-01-13 02:53:20.70	261.47	14.37	-41.6	-44.9	18.4	6.04e-01	0	60	0	530055168	55	5073
2026-01-13 02:53:23.73	260.94	14.13	-41.8	-45.2	18.1	6.01e-01	0	60	0	535822336	55	5262
2026-01-13 02:53:26.76	260.42	13.89	-41.7	-45.0	18.2	6.03e-01	0	60	0	541589504	55	5151
2026-01-13 02:53:29.79	259.92	13.65	-41.7	-45.1	18.2	6.02e-01	0	60	0	547356672	55	5172
2026-01-13 02:53:32.81	259.42	13.42	-41.8	-45.2	18.1	6.05e-01	0	60	0	552599552	55	5235
2026-01-13 02:53:35.84	258.93	13.18	-41.8	-45.2	18.1	6.03e-01	0	60	0	558366720	55	5230
2026-01-13 02:53:38.87	258.44	12.95	-41.8	-45.3	17.9	6.03e-01	0	60	0	564133888	55	5313
2026-01-13 02:53:41.90	257.97	12.71	-41.9	-45.4	17.8	6.05e-01	0	60	0	569901056	55	5386
2026-01-13 02:53:44.93	257.50	12.48	-41.8	-45.2	17.9	6.03e-01	0	60	0	575668224	55	5275
2026-01-13 02:53:47.96	257.04	12.24	-41.9	-45.5	17.7	6.03e-01	0	60	0	581435392	55	5405
2026-01-13 02:53:50.99	256.59	12.01	-41.8	-45.4	17.7	6.03e-01	0	60	0	586678272	55	5371
2026-01-13 02:53:54.02	256.15	11.78	-41.8	-45.4	17.8	6.00e-01	0	60	0	592445440	55	5341
2026-01-13 02:53:57.04	255.71	11.55	-41.9	-45.5	17.7	6.04e-01	0	60	0	598212608	55	5427
2026-01-13 02:54:00.07	255.28	11.32	-41.9	-45.5	17.7	6.05e-01	0	60	0	603979776	55	5408
2026-01-13 02:54:03.10	254.86	11.09	-41.9	-45.5	17.6	6.02e-01	0	60	0	609746944	55	5462
2026-01-13 02:54:06.13	254.45	10.86	-42.0	-45.7	17.4	6.02e-01	0	60	0	615514112	55	5574
2026-01-13 02:54:09.16	254.04	10.63	-42.0	-45.8	17.3	6.04e-01	0	60	0	620756992	55	5605
2026-01-13 02:54:12.19	253.64	10.41	-42.0	-45.7	17.3	6.05e-01	0	60	0	626524160	55	5576
2026-01-13 02:54:15.22	253.25	10.18	-42.1	-45.9	17.2	6.03e-01	0	60	0	632291328	55	5682
2026-01-13 02:54:18.25	252.86	9.96	-42.1	-46.0	17.1	6.04e-01	0	60	0	638058496	55	5754
2026-01-13 02:54:21.27	252.48	9.74	-42.0	-45.8	17.1	6.04e-01	0	60	0	643825664	55	5655
2026-01-13 02:54:24.31	252.11	9.51	-42.1	-46.0	17.0	6.03e-01	0	60	0	649592832	55	5777
2026-01-13 02:54:27.34	251.74	9.29	-42.1	-46.1	16.9	6.01e-01	0	60	0	654835712	55	5813
2026-01-13 02:54:30.37	251.38	9.07	-42.1	-46.1	16.8	6.01e-01	0	60	0	660602880	55	5839
2026-01-13 02:54:33.39	251.02	8.86	-42.1	-46.0	16.9	6.02e-01	0	60	0	666370048	55	5774
2026-01-13 02:54:36.42	250.67	8.64	-42.2	-46.2	16.7	6.04e-01	0	60	0	672137216	55	5872
2026-01-13 02:54:39.45	250.33	8.42	-42.2	-46.4	16.5	6.02e-01	0	60	0	677904384	55	6013
2026-01-13 02:54:42.48	249.99	8.21	-42.3	-46.5	16.4	6.03e-01	0	60	0	683671552	55	6063
2026-01-13 02:54:45.51	249.66	7.99	-42.8	-47.5	16.0	6.02e-01	0	60	0	688914432	55	6844
2026-01-13 02:54:48.54	249.33	7.78	-45.8	-64.4	3.8	7.45e-01	0	60	104	689963008	62	31902
2026-01-13 02:54:51.57	249.01	7.57	-46.1	-64.8	3.8	7.48e-01	0	60	104	689963008	62	33616
2026-01-13 02:54:54.60	248.69	7.36	-46.2	-65.0	3.8	7.46e-01	0	60	104	689963008	62	34091
2026-01-13 02:54:57.62	248.38	7.15	-46.1	-64.9	3.8	7.43e-01	0	60	104	689963008	62	33763
2026-01-13 02:55:00.65	248.07	6.94	-46.1	-64.9	3.8	7.45e-01	0	60	104	689963008	62	33701
2026-01-13 02:55:03.68	247.77	6.73	-46.1	-64.8	3.8	7.43e-01	0	60	104	689963008	62	33538
2026-01-13 02:55:06.71	247.47	6.53	-46.0	-64.8	3.8	7.44e-01	0	60	104	689963008	62	33469
2026-01-13 02:55:09.74	247.18	6.32	-46.0	-64.8	3.8	7.46e-01	0	60	104	689963008	62	33533
2026-01-13 02:55:12.77	246.89	6.12	-46.0	-64.8	3.8	7.47e-01	0	60	104	689963008	62	33435
2026-01-13 02:55:15.80	246.60	5.92	-46.0	-64.8	3.8	7.47e-01	0	60	104	689963008	62	33393
2026-01-13 02:55:18.83	246.32	5.72	-46.0	-64.7	3.8	7.48e-01	0	60	104	689963008	62	33308
2026-01-13 02:55:21.87	246.05	5.52	-46.0	-64.8	3.8	7.45e-01	0	60	104	689963008	62	33357
2026-01-13 02:55:24.90	245.78	5.32	-46.0	-64.8	3.8	7.45e-01	0	60	104	689963008	62	33354
2026-01-13 02:55:27.93	245.51	5.12	-46.0	-64.8	3.8	7.45e-01	0	60	104	689963008	62	33324
2026-01-13 02:55:30.96	245.24	4.92	-46.0	-64.8	3.8	7.46e-01	0	60	104	689963008	62	33316
2026-01-13 02:55:33.99	244.99	4.73	-46.0	-64.7	3.8	7.46e-01	0	60	104	689963008	62	33283
2026-01-13 02:55:37.02	244.73	4.53	-46.0	-64.7	3.8	7.47e-01	0	60	104	689963008	62	33289
2026-01-13 02:55:40.05	244.48	4.34	-46.0	-64.8	3.8	7.45e-01	0	60	104	689963008	62	33325
2026-01-13 02:55:43.08	244.23	4.15	-46.0	-64.8	3.8	7.44e-01	0	60	104	689963008	62	33339
2026-01-13 02:55:46.11	243.99	3.95	-46.0	-64.7	3.8	7.45e-01	0	60	104	689963008	62	33201
2026-01-13 02:55:49.15	243.74	3.76	-46.0	-64.7	3.8	7.45e-01	0	60	104	689963008	62	33224
2026-01-13 02:55:52.17	243.51	3.57	-46.0	-64.7	3.8	7.47e-01	0	60	104	689963008	62	33240
2026-01-13 02:55:55.20	243.27	3.39	-46.0	-64.7	3.8	7.45e-01	0	60	104	689963008	62	33085
2026-01-13 02:55:58.24	243.04	3.20	-46.0	-64.7	3.8	7.46e-01	0	60	104	689963008	62	33160
2026-01-13 02:56:01.27	242.81	3.01	-46.0	-64.7	3.8	7.43e-01	0	60	104	689963008	62	33224
2026-01-13 02:56:04.30	242.59	2.83	-46.0	-64.7	3.8	7.44e-01	0	60	104	689963008	62	33219
2026-01-13 02:56:07.33	242.37	2.64	-46.0	-64.7	3.8	7.47e-01	0	60	104	689963008	62	33162
2026-01-13 02:56:10.36	242.15	2.46	-46.0	-64.7	3.8	7.42e-01	0	60	104	689963008	62	33209
2026-01-13 02:56:13.39	241.94	2.28	-46.0	-64.7	3.8	7.45e-01	0	60	104	689963008	62	33141
2026-01-13 02:56:16.42	241.72	2.10	-46.0	-64.7	3.8	7.47e-01	0	60	104	689963008	62	33178

#Closed at: 2026-01-13 02:56:18
#Recorded file [689 MB]: D:/lorett/data/31039_260113_054454.dat