passes_logs/2026/01/13/R2.0S_Moscow/R2.0S_Moscow__20260113_124812_FENGYUN_3E_rec.log

#Pass ID: 20260113_124812_FENGYUN 3E
#Satellite: FENGYUN 3E
#Configuration: FENGYUN 3E
#almurnet v.1.7.20251203
#Start time: 2026-01-13 12:56:40

#Version: 2.2.20231116
#Station: R2.0S_Moscow
#Location: 37.707566 lon 55.798166 lat
#TLE: 1 49008U 21062A   26012.89166517 -.00000229  00000+0 -86979-4 0  9993
#TLE: 2 49008  98.7492  18.0449 0001954 141.1957 218.9360 14.19884302234542

#Time	Az	El	Level	Level2	SNR	BER	BlckErr	Temp	State	Recorded	gain1	gain2
2026-01-13 12:56:40.74	21.32	22.03	-45.0	-56.6	3.8	8.46e-01	0	60	0	0	60	14585
2026-01-13 12:56:42.76	20.87	21.88	-45.7	-56.8	3.8	8.45e-01	0	60	104	0	62	12655
2026-01-13 12:56:44.78	20.43	21.72	-45.6	-56.7	3.8	8.45e-01	0	60	104	0	62	12414
2026-01-13 12:56:46.80	19.99	21.56	-43.1	-47.0	7.8	7.85e-01	0	60	104	0	55	6129
2026-01-13 12:56:48.82	19.55	21.40	-44.9	-56.0	3.8	8.46e-01	0	60	104	3145728	60	12815
2026-01-13 12:56:50.84	19.12	21.24	-44.9	-56.0	3.8	8.46e-01	0	60	104	3145728	60	12821
2026-01-13 12:56:52.86	18.70	21.08	-44.9	-56.1	3.8	8.47e-01	0	60	104	3145728	60	12986
2026-01-13 12:56:54.88	18.28	20.92	-44.9	-56.0	3.8	8.46e-01	0	60	104	3145728	60	12954
2026-01-13 12:56:56.90	17.86	20.76	-44.8	-55.9	3.8	8.46e-01	0	60	104	3145728	60	12726
2026-01-13 12:56:58.92	17.45	20.59	-44.8	-55.8	3.8	8.46e-01	0	61	104	3145728	60	12586
2026-01-13 12:57:00.94	17.04	20.43	-44.8	-55.7	3.8	8.46e-01	0	60	104	3145728	60	12476
2026-01-13 12:57:02.96	16.64	20.27	-44.8	-55.4	3.8	8.45e-01	0	61	104	3145728	60	12023
2026-01-13 12:57:04.99	16.24	20.10	-44.8	-55.4	3.8	8.45e-01	0	60	104	3145728	60	12010
2026-01-13 12:57:07.01	15.84	19.94	-44.8	-55.7	3.8	8.46e-01	0	60	104	3145728	60	12426
2026-01-13 12:57:09.03	15.45	19.77	-44.8	-55.3	3.8	8.47e-01	0	60	104	3145728	60	11868
2026-01-13 12:57:11.05	15.06	19.61	-44.7	-54.8	3.8	8.45e-01	0	60	104	3145728	60	11183
2026-01-13 12:57:13.07	14.68	19.44	-44.7	-54.5	3.8	8.46e-01	0	60	104	3145728	60	10897
2026-01-13 12:57:15.09	14.30	19.28	-44.5	-53.2	4.1	8.42e-01	0	60	0	3145728	60	9305
2026-01-13 12:57:17.11	13.93	19.11	-43.9	-50.1	5.1	7.75e-01	0	61	0	3145728	58	7294
2026-01-13 12:57:19.14	13.56	18.94	-42.9	-47.3	7.4	1.35e-01	0	60	0	13631488	56	5926
2026-01-13 12:57:21.16	13.19	18.78	-41.7	-44.9	9.5	1.80e-02	0	61	0	28311552	54	5100
2026-01-13 12:57:23.18	12.83	18.61	-41.3	-44.2	10.3	6.02e-03	0	61	0	41943040	53	4948
2026-01-13 12:57:25.20	12.48	18.45	-41.4	-44.4	10.0	6.84e-03	0	61	0	57671680	53	5100
2026-01-13 12:57:27.22	12.12	18.28	-42.1	-45.7	8.7	2.88e-02	0	60	0	71303168	53	5874
2026-01-13 12:57:29.24	11.77	18.11	-42.2	-45.9	8.6	5.11e-02	0	60	0	85983232	54	5657
2026-01-13 12:57:31.26	11.43	17.95	-40.6	-43.1	11.4	2.02e-03	0	60	0	100663296	52	4621
2026-01-13 12:57:33.28	11.09	17.78	-38.8	-40.6	14.1	1.10e-06	0	60	0	115343360	48	4374
2026-01-13 12:57:35.30	10.75	17.62	-37.8	-39.4	15.2	0.00e+00	0	60	0	130023424	46	4259
2026-01-13 12:57:37.32	10.41	17.45	-39.6	-41.6	12.9	2.76e-03	0	60	0	144703488	50	4387
2026-01-13 12:57:39.34	10.08	17.28	-38.9	-40.7	14.0	2.03e-03	0	61	0	159383552	48	4400
2026-01-13 12:57:41.37	9.75	17.12	-38.1	-39.7	14.8	0.00e+00	0	60	0	171966464	47	4182
2026-01-13 12:57:43.39	9.43	16.95	-38.2	-39.9	14.6	1.10e-06	0	61	0	185597952	47	4266
2026-01-13 12:57:45.41	9.11	16.79	-38.3	-40.0	14.4	0.00e+00	0	60	0	201326592	47	4307
2026-01-13 12:57:47.42	8.80	16.62	-38.0	-39.8	14.6	3.40e-06	0	61	0	214958080	47	4194
2026-01-13 12:57:49.44	8.48	16.46	-38.0	-39.6	14.7	0.00e+00	0	61	0	229638144	46	4382
2026-01-13 12:57:51.46	8.18	16.29	-38.0	-39.7	14.6	1.10e-06	0	61	0	244318208	46	4397
2026-01-13 12:57:53.48	7.87	16.13	-38.0	-39.7	14.5	1.10e-06	0	61	0	258998272	46	4435
2026-01-13 12:57:55.50	7.57	15.97	-38.0	-39.8	14.4	0.00e+00	0	60	0	273678336	46	4464
2026-01-13 12:57:57.52	7.27	15.80	-38.1	-39.9	14.2	2.20e-06	0	60	0	288358400	46	4529
2026-01-13 12:57:59.54	6.97	15.64	-38.2	-40.0	14.0	2.20e-06	0	60	0	303038464	46	4574
2026-01-13 12:58:01.56	6.68	15.48	-38.1	-39.9	14.1	2.20e-06	0	60	0	317718528	46	4530
2026-01-13 12:58:03.59	6.39	15.31	-38.2	-40.0	14.0	6.80e-06	0	60	0	331350016	46	4577
2026-01-13 12:58:05.60	6.11	15.15	-38.0	-39.8	14.0	1.10e-06	0	60	0	347078656	46	4485
2026-01-13 12:58:07.63	5.82	14.99	-38.1	-39.9	13.9	6.80e-06	0	60	0	360710144	46	4535
2026-01-13 12:58:09.64	5.54	14.83	-38.3	-40.2	13.5	1.14e-05	0	60	0	375390208	46	4698
2026-01-13 12:58:11.66	5.27	14.67	-38.4	-40.4	13.2	2.05e-05	0	60	0	390070272	46	4788
2026-01-13 12:58:13.68	5.00	14.50	-38.4	-40.5	13.0	4.92e-05	0	60	0	404750336	46	4818
2026-01-13 12:58:15.70	4.73	14.34	-38.4	-40.6	12.6	8.69e-05	0	60	0	419430400	46	4903
2026-01-13 12:58:17.72	4.46	14.18	-38.5	-40.8	12.1	3.10e-04	0	61	0	434110464	46	5023
2026-01-13 12:58:19.74	4.19	14.02	-38.1	-40.3	12.5	1.46e-04	0	60	0	448790528	46	4754
2026-01-13 12:58:21.76	3.93	13.87	-37.6	-39.7	12.9	7.32e-05	0	60	0	463470592	46	4403
2026-01-13 12:58:23.78	3.67	13.71	-37.6	-39.8	12.4	1.29e-04	0	61	0	478150656	45	4725
2026-01-13 12:58:25.80	3.42	13.55	-38.1	-40.7	11.2	8.80e-04	0	60	0	492830720	45	5277
2026-01-13 12:58:27.82	3.16	13.39	-39.1	-42.6	9.0	1.90e-02	0	61	0	506462208	47	5797
2026-01-13 12:58:29.84	2.91	13.23	-40.2	-45.1	6.5	1.74e-01	0	60	0	522190848	49	6927
2026-01-13 12:58:31.86	2.67	13.08	-40.9	-47.7	4.7	7.78e-01	0	61	0	529530880	51	8344
2026-01-13 12:58:33.87	2.42	12.92	-41.1	-49.7	4.0	8.43e-01	0	60	104	529530880	51	10522
2026-01-13 12:58:35.90	2.18	12.76	-41.2	-51.5	3.8	8.47e-01	0	61	104	529530880	52	12153
2026-01-13 12:58:37.91	1.94	12.61	-41.2	-51.7	3.8	8.46e-01	0	61	104	529530880	52	12478
2026-01-13 12:58:39.94	1.70	12.45	-41.8	-51.7	3.9	8.45e-01	0	61	104	529530880	53	11698
2026-01-13 12:58:41.96	1.47	12.30	-41.5	-52.3	3.8	8.46e-01	0	61	104	529530880	52	13383
2026-01-13 12:58:43.97	1.24	12.15	-41.3	-52.2	3.8	8.46e-01	0	61	104	529530880	52	13223
2026-01-13 12:58:45.99	1.01	11.99	-40.5	-51.5	3.8	8.46e-01	0	61	104	529530880	52	12120
2026-01-13 12:58:48.01	0.78	11.84	-40.4	-51.5	3.8	8.45e-01	0	61	104	529530880	51	12821
2026-01-13 12:58:50.02	0.56	11.69	-40.4	-51.4	3.8	8.46e-01	0	61	104	529530880	51	12693
2026-01-13 12:58:52.04	0.34	11.54	-41.2	-52.1	3.8	8.46e-01	0	61	104	529530880	52	13080
2026-01-13 12:58:54.06	0.12	11.39	-40.5	-51.5	3.8	8.47e-01	0	61	104	529530880	51	12879
2026-01-13 12:58:56.08	359.90	11.23	-40.3	-51.4	3.8	8.47e-01	0	61	104	529530880	51	12672
2026-01-13 12:58:58.10	359.68	11.08	-39.8	-51.3	3.8	8.46e-01	0	61	104	529530880	50	13275
2026-01-13 12:59:00.12	359.47	10.93	-40.1	-51.4	3.8	8.45e-01	0	61	104	529530880	50	13463
2026-01-13 12:59:02.14	359.26	10.79	-39.8	-51.3	3.8	8.46e-01	0	61	104	529530880	50	13284
2026-01-13 12:59:04.16	359.05	10.64	-39.7	-51.3	3.8	8.46e-01	0	61	104	529530880	50	13309
2026-01-13 12:59:06.19	358.84	10.49	-40.2	-51.5	3.8	8.45e-01	0	61	104	529530880	50	13594
2026-01-13 12:59:08.21	358.64	10.34	-40.1	-51.4	3.8	8.46e-01	0	61	104	529530880	50	13453
2026-01-13 12:59:10.22	358.44	10.19	-40.0	-51.2	3.8	8.46e-01	0	61	104	529530880	50	13221
2026-01-13 12:59:12.24	358.24	10.05	-40.0	-51.2	3.8	8.46e-01	0	61	104	529530880	50	13191
2026-01-13 12:59:14.26	358.04	9.90	-40.1	-51.3	3.8	8.46e-01	0	61	104	529530880	50	13302
2026-01-13 12:59:16.28	357.85	9.75	-40.1	-51.3	3.8	8.47e-01	0	61	104	529530880	50	13332
2026-01-13 12:59:18.31	357.65	9.61	-40.0	-51.2	3.8	8.47e-01	0	61	104	529530880	50	13191
2026-01-13 12:59:20.33	357.46	9.46	-40.0	-51.2	3.8	8.45e-01	0	61	104	529530880	50	13258
2026-01-13 12:59:22.35	357.27	9.32	-39.7	-51.2	3.8	8.46e-01	0	61	104	529530880	50	13176
2026-01-13 12:59:24.37	357.08	9.18	-39.8	-51.2	3.8	8.46e-01	0	61	104	529530880	50	13212
2026-01-13 12:59:26.39	356.89	9.03	-40.1	-51.2	3.8	8.45e-01	0	61	104	529530880	50	13173
2026-01-13 12:59:28.41	356.71	8.89	-39.9	-51.2	3.8	8.45e-01	0	61	104	529530880	50	13161
2026-01-13 12:59:30.43	356.53	8.75	-39.9	-51.2	3.8	8.46e-01	0	61	104	529530880	50	13126
2026-01-13 12:59:32.44	356.35	8.61	-39.8	-51.2	3.8	8.47e-01	0	61	104	529530880	50	13131
2026-01-13 12:59:34.46	356.17	8.47	-39.8	-51.2	3.8	8.46e-01	0	61	104	529530880	50	13154
2026-01-13 12:59:36.48	355.99	8.33	-39.9	-51.2	3.8	8.45e-01	0	61	104	529530880	50	13254
2026-01-13 12:59:38.50	355.82	8.19	-39.8	-51.2	3.8	8.45e-01	0	61	104	529530880	50	13206
2026-01-13 12:59:40.52	355.65	8.05	-39.8	-51.2	3.8	8.45e-01	0	61	104	529530880	50	13257
2026-01-13 12:59:42.55	355.47	7.91	-42.5	-53.5	3.8	8.46e-01	0	61	104	529530880	54	13626
2026-01-13 12:59:44.57	355.30	7.77	-45.2	-56.0	3.8	8.46e-01	0	61	104	529530880	59	13694
2026-01-13 12:59:46.59	355.13	7.63	-45.5	-56.7	3.8	8.46e-01	0	61	104	529530880	60	13889
2026-01-13 12:59:48.61	354.97	7.49	-45.7	-56.8	3.8	8.47e-01	0	61	104	529530880	60	14158
2026-01-13 12:59:50.63	354.80	7.36	-45.7	-56.8	3.8	8.46e-01	0	61	104	529530880	60	14146
2026-01-13 12:59:52.65	354.64	7.22	-45.6	-56.8	3.8	8.47e-01	0	61	104	529530880	60	14200
2026-01-13 12:59:54.67	354.48	7.09	-45.6	-56.7	3.8	8.46e-01	0	61	104	529530880	60	13971
2026-01-13 12:59:56.70	354.32	6.95	-45.6	-56.7	3.8	8.47e-01	0	61	104	529530880	60	14001
2026-01-13 12:59:58.72	354.16	6.81	-45.6	-56.7	3.8	8.46e-01	0	61	104	529530880	60	13899
2026-01-13 13:00:00.74	354.00	6.68	-45.6	-56.6	3.8	8.45e-01	0	61	104	529530880	60	13885
2026-01-13 13:00:02.76	353.85	6.55	-45.6	-56.7	3.8	8.46e-01	0	61	104	529530880	60	13925
2026-01-13 13:00:04.78	353.69	6.41	-45.5	-56.6	3.8	8.46e-01	0	61	104	529530880	60	13878
2026-01-13 13:00:06.80	353.54	6.28	-45.5	-56.7	3.8	8.46e-01	0	61	104	529530880	60	13910
2026-01-13 13:00:08.83	353.39	6.15	-45.5	-56.7	3.8	8.46e-01	0	61	104	529530880	60	13894
2026-01-13 13:00:10.85	353.24	6.02	-45.5	-56.6	3.8	8.46e-01	0	61	104	529530880	60	13858
2026-01-13 13:00:12.87	353.09	5.88	-45.5	-56.6	3.8	8.45e-01	0	61	104	529530880	60	13813
2026-01-13 13:00:14.89	352.94	5.75	-45.5	-56.7	3.8	8.45e-01	0	61	104	529530880	60	13908
2026-01-13 13:00:16.91	352.80	5.62	-45.5	-56.7	3.8	8.45e-01	0	61	104	529530880	60	13917
2026-01-13 13:00:18.93	352.65	5.49	-45.5	-56.6	3.8	8.46e-01	0	61	104	529530880	60	13870
2026-01-13 13:00:20.95	352.51	5.36	-45.5	-56.6	3.8	8.46e-01	0	61	104	529530880	60	13858
2026-01-13 13:00:22.97	352.37	5.23	-45.5	-56.6	3.8	8.45e-01	0	61	104	529530880	60	13834
2026-01-13 13:00:24.99	352.23	5.11	-45.5	-56.6	3.8	8.47e-01	0	61	104	529530880	60	13826
2026-01-13 13:00:27.01	352.09	4.98	-45.5	-56.6	3.8	8.46e-01	0	61	104	529530880	60	13835
2026-01-13 13:00:29.03	351.95	4.85	-45.5	-56.6	3.8	8.46e-01	0	61	104	529530880	60	13879
2026-01-13 13:00:31.05	351.82	4.72	-45.5	-56.6	3.8	8.46e-01	0	61	104	529530880	60	13818
2026-01-13 13:00:33.07	351.68	4.60	-45.5	-56.6	3.8	8.47e-01	0	61	104	529530880	60	13825
2026-01-13 13:00:35.09	351.55	4.47	-45.5	-56.6	3.8	8.47e-01	0	61	104	529530880	60	13822
2026-01-13 13:00:37.11	351.41	4.34	-45.5	-56.6	3.8	8.47e-01	0	61	104	529530880	60	13853
2026-01-13 13:00:39.13	351.28	4.22	-45.5	-56.6	3.8	8.46e-01	0	61	104	529530880	60	13822
2026-01-13 13:00:41.16	351.15	4.09	-45.5	-56.6	3.8	8.46e-01	0	61	104	529530880	60	13761
2026-01-13 13:00:43.18	351.02	3.97	-45.5	-56.6	3.8	8.44e-01	0	61	104	529530880	60	13868
2026-01-13 13:00:45.20	350.90	3.84	-45.5	-56.6	3.8	8.46e-01	0	61	104	529530880	60	13792
2026-01-13 13:00:47.22	350.77	3.72	-45.5	-56.6	3.8	8.47e-01	0	61	104	529530880	60	13879
2026-01-13 13:00:49.24	350.64	3.60	-45.5	-56.6	3.8	8.47e-01	0	61	104	529530880	60	13766
2026-01-13 13:00:51.26	350.52	3.47	-45.5	-56.6	3.8	8.47e-01	0	61	104	529530880	60	13848
2026-01-13 13:00:53.28	350.39	3.35	-45.4	-56.5	3.8	8.46e-01	0	61	104	529530880	60	13717
2026-01-13 13:00:55.30	350.27	3.23	-45.4	-56.5	3.8	8.45e-01	0	61	104	529530880	60	13597
2026-01-13 13:00:57.32	350.15	3.11	-45.5	-56.6	3.8	8.47e-01	0	61	104	529530880	60	13801
2026-01-13 13:00:59.35	350.03	2.98	-45.5	-56.6	3.8	8.46e-01	0	61	104	529530880	60	13753
2026-01-13 13:01:01.37	349.91	2.86	-45.5	-56.6	3.8	8.47e-01	0	61	104	529530880	60	13861
2026-01-13 13:01:03.39	349.79	2.74	-45.5	-56.6	3.8	8.47e-01	0	61	104	529530880	60	13883
2026-01-13 13:01:05.41	349.68	2.62	-45.5	-56.6	3.8	8.46e-01	0	61	104	529530880	60	13840
2026-01-13 13:01:07.44	349.56	2.50	-45.5	-56.6	3.8	8.46e-01	0	61	104	529530880	60	13820
2026-01-13 13:01:09.46	349.45	2.38	-45.5	-56.6	3.8	8.46e-01	0	61	104	529530880	60	13768
2026-01-13 13:01:11.48	349.33	2.26	-45.5	-56.5	3.8	8.46e-01	0	61	104	529530880	60	13721
2026-01-13 13:01:13.50	349.22	2.15	-45.5	-56.7	3.8	8.46e-01	0	61	104	529530880	60	13888
2026-01-13 13:01:15.52	349.11	2.03	-45.5	-56.6	3.8	8.46e-01	0	61	104	529530880	60	13840
2026-01-13 13:01:17.54	349.00	1.91	-45.5	-56.6	3.8	8.45e-01	0	61	104	529530880	60	13748

#Closed at: 2026-01-13 13:01:18
#Recorded file [529 MB]: D:/lorett/data/31039_260113_155640.dat