passes_logs/2026/01/13/R2.0S_Moscow/R2.0S_Moscow__20260113_102316_NOAA_20_JPSS-1_rec.log

#Pass ID: 20260113_102316_NOAA 20 (JPSS-1)
#Satellite: NOAA 20 (JPSS-1)
#Configuration: NOAA 20
#almurnet v.1.7.20251203
#Start time: 2026-01-13 10:23:18

#Version: 2.2.20231116
#Station: R2.0S_Moscow
#Location: 37.707566 lon 55.798166 lat
#TLE: 1 43013U 17073A   26012.29914746  .00000087  00000+0  62270-4 0  9997
#TLE: 2 43013  98.7632 313.2670 0001616  43.2193 316.9110 14.19535514422351

#Time	Az	El	Level	Level2	SNR	BER	BlckErr	Temp	State	Recorded	gain1	gain2
2026-01-13 10:23:18.85	174.35	2.15	-42.9	-57.1	3.8	1.49e+00	0	50	0	0	57	18471
2026-01-13 10:23:22.89	174.44	2.41	-42.9	-57.1	3.8	1.49e+00	0	51	104	0	57	18453
2026-01-13 10:23:26.93	174.54	2.67	-42.9	-57.1	3.8	1.49e+00	0	51	104	0	57	18458
2026-01-13 10:23:30.96	174.64	2.93	-42.9	-57.1	3.8	1.49e+00	0	51	104	0	57	18417
2026-01-13 10:23:35.00	174.74	3.20	-42.9	-57.1	3.8	1.49e+00	0	52	104	0	57	18452
2026-01-13 10:23:39.04	174.85	3.47	-42.9	-57.1	3.8	1.49e+00	0	52	104	0	57	18440
2026-01-13 10:23:43.08	174.95	3.74	-42.9	-57.1	3.8	1.49e+00	0	52	104	0	57	18426
2026-01-13 10:23:47.12	175.06	4.01	-42.9	-57.1	3.8	1.49e+00	0	52	104	0	57	18441
2026-01-13 10:23:51.16	175.17	4.29	-42.9	-57.1	3.8	1.49e+00	0	52	104	0	57	18473
2026-01-13 10:23:55.20	175.28	4.57	-42.9	-57.1	3.8	1.49e+00	0	53	104	0	57	18306
2026-01-13 10:23:59.25	175.39	4.85	-42.9	-57.0	3.8	1.49e+00	0	53	104	0	57	18144
2026-01-13 10:24:03.28	175.50	5.14	-42.9	-56.7	3.8	1.49e+00	0	53	104	0	57	17657
2026-01-13 10:24:07.32	175.62	5.42	-42.8	-56.2	3.8	1.49e+00	0	53	104	0	57	16630
2026-01-13 10:24:11.37	175.74	5.72	-42.8	-55.9	3.8	1.49e+00	0	54	104	0	57	15985
2026-01-13 10:24:15.40	175.86	6.01	-42.7	-54.4	4.0	1.48e+00	0	54	104	0	57	13488
2026-01-13 10:24:19.45	175.98	6.31	-42.6	-53.5	4.2	1.38e+00	0	54	0	0	57	12226
2026-01-13 10:24:23.49	176.10	6.61	-42.7	-53.8	4.1	1.43e+00	0	54	0	0	57	12664
2026-01-13 10:24:27.53	176.23	6.91	-42.5	-52.4	4.6	1.08e+00	0	54	0	2097152	57	10681
2026-01-13 10:24:31.58	176.36	7.22	-42.1	-49.8	6.2	3.08e-01	0	54	0	9437184	56	8423
2026-01-13 10:24:35.62	176.49	7.54	-41.8	-49.0	6.8	1.71e-01	0	54	0	16777216	55	8089
2026-01-13 10:24:39.66	176.63	7.85	-41.8	-48.7	7.0	1.61e-01	0	55	0	24117248	55	7861
2026-01-13 10:24:43.70	176.76	8.17	-42.6	-52.9	4.5	3.25e-01	19	55	0	31457280	56	12084
2026-01-13 10:24:47.74	176.90	8.49	-42.0	-48.9	6.8	1.22e+00	0	55	104	36700160	55	8046
2026-01-13 10:24:51.78	177.05	8.82	-41.7	-47.2	8.9	2.81e-02	0	55	0	42991616	55	6629
2026-01-13 10:24:55.82	177.19	9.15	-41.7	-47.1	9.2	1.93e-02	0	55	0	51380224	55	6529
2026-01-13 10:24:59.86	177.34	9.49	-41.7	-46.8	9.7	1.42e-02	0	55	0	58720256	55	6291
2026-01-13 10:25:03.90	177.50	9.83	-41.8	-46.7	9.9	7.82e-03	0	55	0	66060288	55	6244
2026-01-13 10:25:07.93	177.65	10.18	-41.8	-46.7	10.1	7.35e-03	0	55	0	73400320	55	6218
2026-01-13 10:25:11.97	177.81	10.53	-41.8	-46.5	10.3	6.48e-03	0	55	0	81788928	55	6126
2026-01-13 10:25:16.01	177.97	10.88	-41.9	-46.6	10.3	4.51e-03	0	55	0	89128960	55	6145
2026-01-13 10:25:20.04	178.14	11.24	-41.9	-46.5	10.4	4.53e-03	0	56	0	96468992	55	6099
2026-01-13 10:25:24.08	178.31	11.60	-41.8	-46.5	10.5	4.18e-03	0	56	0	103809024	55	6066
2026-01-13 10:25:28.13	178.49	11.98	-41.9	-46.4	10.6	3.47e-03	0	56	0	111149056	55	6059
2026-01-13 10:25:32.16	178.67	12.35	-41.9	-46.4	10.6	3.61e-03	0	56	0	119537664	55	6033
2026-01-13 10:25:36.20	178.85	12.73	-41.8	-46.2	10.9	2.08e-03	0	56	0	126877696	55	5882
2026-01-13 10:25:40.23	179.04	13.12	-41.9	-46.5	10.6	2.98e-03	0	56	0	134217728	55	6069
2026-01-13 10:25:44.27	179.23	13.51	-41.9	-46.4	10.8	2.44e-03	0	56	0	141557760	55	5995
2026-01-13 10:25:48.31	179.43	13.91	-42.0	-46.5	10.7	2.99e-03	0	56	0	149946368	55	6074
2026-01-13 10:25:52.35	179.63	14.32	-42.0	-46.6	10.6	3.48e-03	0	56	0	157286400	55	6134
2026-01-13 10:25:56.38	179.83	14.73	-42.0	-46.5	10.7	2.75e-03	0	56	0	164626432	55	6119
2026-01-13 10:26:00.42	180.05	15.15	-42.0	-46.4	10.9	2.05e-03	0	57	0	171966464	55	6015
2026-01-13 10:26:04.46	180.27	15.58	-42.0	-46.5	10.8	2.54e-03	0	57	0	179306496	55	6078
2026-01-13 10:26:08.50	180.49	16.01	-42.0	-46.4	10.9	2.14e-03	0	57	0	187695104	55	6041
2026-01-13 10:26:12.55	180.72	16.45	-42.0	-46.5	10.9	2.15e-03	0	57	0	195035136	55	6073
2026-01-13 10:26:16.59	180.96	16.90	-42.1	-46.5	10.9	2.42e-03	0	57	0	202375168	55	6092
2026-01-13 10:26:20.62	181.21	17.36	-42.1	-46.4	10.9	1.82e-03	0	57	0	209715200	55	6042
2026-01-13 10:26:24.66	181.46	17.82	-42.1	-46.4	11.0	1.80e-03	0	57	0	218103808	55	6009
2026-01-13 10:26:28.70	181.72	18.29	-42.1	-46.5	10.9	2.21e-03	0	57	0	225443840	55	6087
2026-01-13 10:26:32.74	181.98	18.78	-42.1	-46.5	10.9	2.24e-03	0	57	0	232783872	55	6130
2026-01-13 10:26:36.77	182.26	19.27	-42.1	-46.5	10.9	1.82e-03	0	57	0	240123904	55	6100
2026-01-13 10:26:40.81	182.54	19.77	-42.2	-46.6	10.9	2.20e-03	0	57	0	247463936	55	6165
2026-01-13 10:26:44.85	182.83	20.28	-42.3	-46.8	10.7	3.22e-03	0	57	0	255852544	55	6292
2026-01-13 10:26:48.89	183.14	20.80	-42.3	-46.9	10.6	3.04e-03	0	57	0	263192576	55	6360
2026-01-13 10:26:52.92	183.45	21.33	-42.2	-46.6	10.9	2.34e-03	0	57	0	270532608	55	6194
2026-01-13 10:26:56.96	183.77	21.87	-42.1	-46.3	11.2	1.51e-03	0	57	0	277872640	55	5975
2026-01-13 10:27:01.00	184.11	22.42	-42.0	-46.1	11.5	9.22e-04	0	57	0	286261248	55	5819
2026-01-13 10:27:05.04	184.45	22.98	-41.9	-45.9	11.7	5.47e-04	0	57	0	293601280	55	5671
2026-01-13 10:27:09.08	184.81	23.55	-41.8	-45.7	11.9	4.19e-04	0	57	0	300941312	55	5573
2026-01-13 10:27:13.12	185.18	24.14	-41.8	-45.6	12.0	3.33e-04	0	57	0	308281344	55	5521
2026-01-13 10:27:17.16	185.57	24.74	-41.7	-45.4	12.2	1.87e-04	0	57	0	315621376	55	5393
2026-01-13 10:27:21.19	185.96	25.35	-41.6	-45.3	12.4	1.75e-04	0	57	0	324009984	55	5329
2026-01-13 10:27:25.23	186.38	25.97	-41.5	-45.0	12.7	6.40e-05	0	58	0	331350016	54	5452
2026-01-13 10:27:29.26	186.81	26.61	-41.5	-45.0	12.8	8.69e-05	0	57	0	338690048	54	5409
2026-01-13 10:27:33.31	187.26	27.26	-41.7	-45.3	12.4	1.17e-04	0	57	0	346030080	54	5628
2026-01-13 10:27:37.35	187.72	27.92	-42.0	-45.8	11.9	4.29e-04	0	57	0	354418688	54	5975
2026-01-13 10:27:41.39	188.21	28.60	-42.2	-46.3	11.4	9.08e-04	0	58	0	361758720	54	6326
2026-01-13 10:27:45.42	188.71	29.30	-42.3	-46.5	11.3	1.14e-03	0	58	0	369098752	55	6069
2026-01-13 10:27:49.46	189.24	30.00	-42.5	-47.0	10.8	2.49e-03	0	58	0	376438784	55	6431
2026-01-13 10:27:53.50	189.79	30.73	-42.9	-47.8	10.0	6.63e-03	0	58	0	383778816	56	6712
2026-01-13 10:27:57.54	190.37	31.47	-43.2	-48.6	9.3	1.70e-02	0	58	0	392167424	57	6919
2026-01-13 10:28:01.57	190.97	32.22	-43.4	-49.1	8.8	3.23e-02	0	58	0	399507456	57	7296
2026-01-13 10:28:05.61	191.60	32.99	-43.4	-49.1	8.7	3.35e-02	0	58	0	406847488	57	7318
2026-01-13 10:28:09.65	192.26	33.78	-43.5	-49.3	8.5	3.96e-02	0	58	0	414187520	57	7528
2026-01-13 10:28:13.69	192.95	34.58	-43.4	-49.0	8.9	2.79e-02	0	58	0	422576128	57	7222
2026-01-13 10:28:17.73	193.68	35.40	-43.4	-49.1	8.8	3.21e-02	0	58	0	429916160	57	7317
2026-01-13 10:28:21.77	194.44	36.24	-43.5	-49.1	8.8	3.74e-02	0	58	0	437256192	57	7352
2026-01-13 10:28:25.80	195.24	37.09	-43.5	-49.2	8.6	3.61e-02	0	58	0	444596224	57	7450
2026-01-13 10:28:29.84	196.09	37.96	-43.4	-48.8	9.1	2.96e-02	0	58	0	451936256	57	7092
2026-01-13 10:28:33.88	196.98	38.84	-43.4	-48.8	9.1	2.24e-02	0	58	0	460324864	57	7105
2026-01-13 10:28:37.92	197.92	39.74	-43.3	-48.5	9.4	2.06e-02	0	58	0	467664896	57	6856
2026-01-13 10:28:41.96	198.92	40.65	-43.0	-47.7	10.2	6.12e-03	0	58	0	475004928	57	6247
2026-01-13 10:28:45.99	199.97	41.58	-42.6	-46.8	11.3	1.40e-03	0	58	0	482344960	57	5596
2026-01-13 10:28:50.03	201.08	42.52	-42.9	-47.6	10.5	4.10e-03	0	58	0	489684992	57	6164
2026-01-13 10:28:54.07	202.26	43.47	-42.7	-47.0	11.1	1.55e-03	0	58	0	498073600	57	5747
2026-01-13 10:28:58.11	203.51	44.43	-43.2	-48.4	9.7	1.15e-02	0	58	0	505413632	57	6745
2026-01-13 10:29:02.15	204.84	45.40	-43.3	-48.6	9.4	1.48e-02	0	58	0	512753664	57	6955
2026-01-13 10:29:06.18	206.25	46.38	-43.3	-48.5	9.5	1.48e-02	0	58	0	520093696	57	6834
2026-01-13 10:29:10.22	207.75	47.36	-43.6	-49.4	8.6	4.72e-02	0	58	0	528482304	58	7183
2026-01-13 10:29:14.25	209.34	48.33	-43.4	-48.8	9.2	1.72e-02	0	58	0	535822336	58	6703
2026-01-13 10:29:18.29	211.04	49.31	-43.8	-49.7	8.2	5.56e-02	0	58	0	543162368	58	7451
2026-01-13 10:29:22.33	212.85	50.28	-43.4	-48.6	9.5	1.80e-02	0	58	0	550502400	58	6517
2026-01-13 10:29:26.37	214.77	51.24	-42.9	-47.5	10.6	4.50e-03	0	58	0	557842432	57	6088
2026-01-13 10:29:30.41	216.82	52.18	-42.7	-46.9	11.2	1.31e-03	0	58	0	566231040	57	5690
2026-01-13 10:29:34.45	219.01	53.10	-42.1	-45.8	12.4	1.61e-04	0	58	0	573571072	56	5301
2026-01-13 10:29:38.49	221.33	53.99	-42.2	-46.0	11.9	4.45e-04	0	58	0	580911104	55	5783
2026-01-13 10:29:42.53	223.80	54.85	-41.8	-45.4	12.6	5.95e-05	0	58	0	588251136	54	5696
2026-01-13 10:29:46.56	226.40	55.66	-42.1	-45.9	12.1	2.84e-04	0	58	0	596639744	55	5719
2026-01-13 10:29:50.60	229.17	56.43	-42.5	-46.8	11.0	1.55e-03	0	58	0	603979776	55	6339
2026-01-13 10:29:54.64	232.08	57.14	-42.6	-47.0	11.0	1.72e-03	0	58	0	611319808	55	6424
2026-01-13 10:29:58.68	235.14	57.78	-42.8	-47.2	10.9	2.77e-03	0	58	0	618659840	56	6234
2026-01-13 10:30:02.72	238.34	58.35	-42.5	-47.4	10.7	3.11e-03	0	58	0	625999872	56	6375
2026-01-13 10:30:06.76	241.67	58.84	-42.5	-46.9	11.0	1.80e-03	0	58	0	634388480	55	6416
2026-01-13 10:30:10.80	245.12	59.24	-42.4	-46.9	11.0	1.07e-03	0	58	0	641728512	55	6355
2026-01-13 10:30:14.84	248.65	59.55	-42.8	-47.2	10.8	2.39e-03	0	58	0	649068544	56	6216
2026-01-13 10:30:18.88	252.26	59.76	-43.5	-49.1	8.9	3.35e-02	0	58	0	656408576	57	7329
2026-01-13 10:30:22.92	255.91	59.86	-43.5	-49.2	8.7	3.67e-02	0	58	0	664797184	57	7439
2026-01-13 10:30:26.96	259.57	59.87	-43.1	-48.0	10.0	4.75e-03	0	58	0	672137216	57	6485
2026-01-13 10:30:31.00	263.22	59.76	-42.5	-46.7	11.4	9.02e-04	0	58	0	679477248	56	5907
2026-01-13 10:30:35.03	266.82	59.56	-42.5	-46.6	11.5	9.06e-04	0	58	0	686817280	56	5844
2026-01-13 10:30:39.08	270.37	59.26	-43.4	-48.7	9.3	1.49e-02	0	58	0	694157312	57	6999
2026-01-13 10:30:43.12	273.81	58.86	-43.5	-49.1	8.9	3.29e-02	0	58	0	702545920	57	7297
2026-01-13 10:30:47.16	277.14	58.37	-44.2	-51.4	6.6	1.99e-01	0	58	0	709885952	58	9060
2026-01-13 10:30:51.20	280.34	57.81	-44.1	-51.0	7.0	1.64e-01	0	58	0	717225984	58	8634
2026-01-13 10:30:55.24	283.40	57.17	-43.5	-48.9	9.0	3.07e-02	0	58	0	724566016	58	6775
2026-01-13 10:30:59.28	286.32	56.47	-43.0	-47.6	10.5	3.33e-03	0	58	0	732954624	57	6161
2026-01-13 10:31:03.31	289.08	55.71	-42.3	-46.1	12.0	6.10e-04	0	58	0	740294656	56	5523
2026-01-13 10:31:07.35	291.69	54.89	-41.2	-44.3	13.8	6.10e-06	0	58	0	747634688	54	5003
2026-01-13 10:31:11.39	294.16	54.04	-41.2	-44.3	13.7	9.10e-06	0	59	0	754974720	53	5323
2026-01-13 10:31:15.43	296.49	53.15	-42.0	-45.6	12.4	6.86e-05	0	59	0	762314752	54	5827
2026-01-13 10:31:19.47	298.67	52.24	-41.2	-44.2	13.9	5.30e-06	0	58	0	770703360	54	4940
2026-01-13 10:31:23.51	300.72	51.30	-42.1	-46.0	12.0	9.31e-04	0	59	0	778043392	55	5750
2026-01-13 10:31:27.55	302.65	50.35	-43.2	-48.1	10.0	5.97e-03	0	59	0	785383424	56	6890
2026-01-13 10:31:31.59	304.46	49.38	-43.1	-47.9	10.2	3.53e-03	0	58	0	792723456	56	6732
2026-01-13 10:31:35.63	306.16	48.41	-43.5	-48.9	9.0	7.19e-02	0	59	0	801112064	59	6405
2026-01-13 10:31:39.66	307.76	47.44	-43.8	-50.0	8.0	6.13e-02	0	58	0	808452096	58	7698
2026-01-13 10:31:43.70	309.26	46.47	-43.7	-49.6	8.3	7.59e-02	0	58	0	815792128	58	7371
2026-01-13 10:31:47.74	310.67	45.49	-44.1	-50.9	7.1	9.43e-02	0	58	0	823132160	58	8525
2026-01-13 10:31:51.78	312.00	44.53	-43.5	-49.0	9.0	2.74e-02	0	58	0	830472192	58	6847
2026-01-13 10:31:55.82	313.25	43.57	-43.9	-50.4	7.6	3.99e-02	0	58	0	838860800	58	8046
2026-01-13 10:31:59.85	314.43	42.63	-42.8	-47.3	10.8	3.51e-03	0	59	0	846200832	57	5941
2026-01-13 10:32:03.89	315.54	41.69	-43.6	-49.4	8.6	3.54e-02	0	59	0	853540864	57	7613
2026-01-13 10:32:07.93	316.60	40.77	-43.1	-48.0	10.0	1.05e-02	0	59	0	860880896	57	6472
2026-01-13 10:32:11.97	317.59	39.86	-43.6	-49.4	8.6	1.76e-02	0	59	0	869269504	57	7564
2026-01-13 10:32:16.01	318.54	38.96	-42.5	-46.6	11.5	9.61e-04	0	59	0	876609536	57	5497
2026-01-13 10:32:20.04	319.43	38.08	-43.8	-50.1	7.9	4.70e-02	0	59	0	883949568	58	7757
2026-01-13 10:32:24.08	320.28	37.22	-42.8	-47.3	10.8	4.35e-03	0	58	0	891289600	57	5928
2026-01-13 10:32:28.12	321.08	36.37	-42.7	-47.1	10.9	1.74e-03	0	59	0	898629632	57	5838
2026-01-13 10:32:32.16	321.85	35.54	-43.1	-48.1	9.9	8.85e-03	0	59	0	907018240	57	6560
2026-01-13 10:32:36.20	322.58	34.72	-42.8	-47.2	10.8	3.13e-03	0	59	0	914358272	57	5919
2026-01-13 10:32:40.24	323.27	33.92	-43.0	-47.9	10.1	5.32e-03	0	59	0	921698304	57	6378
2026-01-13 10:32:44.28	323.93	33.14	-43.6	-49.5	8.4	3.79e-02	0	59	0	929038336	57	7708
2026-01-13 10:32:48.31	324.56	32.37	-43.4	-48.9	9.0	2.37e-02	0	59	0	937426944	57	7177
2026-01-13 10:32:52.35	325.17	31.62	-43.1	-48.1	9.9	9.51e-03	0	59	0	944766976	57	6516
2026-01-13 10:32:56.39	325.74	30.88	-43.3	-48.6	9.3	1.96e-02	0	59	0	952107008	57	6925
2026-01-13 10:33:00.42	326.30	30.17	-43.7	-50.0	7.9	6.14e-02	0	59	0	959447040	57	8123
2026-01-13 10:33:04.46	326.83	29.46	-43.4	-49.2	8.7	3.72e-02	0	59	0	966787072	57	7375
2026-01-13 10:33:08.50	327.33	28.77	-43.2	-48.5	9.4	1.80e-02	0	59	0	975175680	57	6863
2026-01-13 10:33:12.54	327.82	28.09	-43.3	-48.9	9.0	2.06e-02	0	59	0	982515712	57	7143
2026-01-13 10:33:16.58	328.29	27.43	-43.2	-48.7	9.2	2.74e-02	0	59	0	989855744	57	6984
2026-01-13 10:33:20.62	328.74	26.78	-43.3	-48.9	9.0	2.38e-02	0	59	0	997195776	57	7133
2026-01-13 10:33:24.66	329.17	26.15	-43.1	-48.3	9.6	1.55e-02	0	59	0	1005584384	57	6658
2026-01-13 10:33:28.69	329.59	25.53	-42.6	-47.2	10.7	3.59e-03	0	59	0	1012924416	57	5866
2026-01-13 10:33:32.73	329.99	24.92	-42.5	-46.9	10.9	1.91e-03	0	59	0	1020264448	56	6047
2026-01-13 10:33:36.77	330.38	24.32	-42.7	-47.4	10.4	3.92e-03	0	59	0	1027604480	56	6384
2026-01-13 10:33:40.81	330.75	23.74	-42.9	-48.0	9.7	1.03e-02	0	59	0	1034944512	56	6865
2026-01-13 10:33:44.85	331.11	23.17	-42.7	-47.6	10.1	7.42e-03	0	59	0	1043333120	56	6539
2026-01-13 10:33:48.89	331.46	22.61	-42.4	-46.8	11.0	2.49e-03	0	59	0	1050673152	56	5933
2026-01-13 10:33:52.92	331.80	22.06	-42.2	-46.5	11.2	1.28e-03	0	59	0	1058013184	56	5744
2026-01-13 10:33:56.96	332.12	21.52	-42.2	-46.5	11.1	1.54e-03	0	59	0	1065353216	56	5781
2026-01-13 10:34:01.00	332.44	20.99	-42.3	-46.8	10.8	2.55e-03	0	59	0	1073741824	56	5961
2026-01-13 10:34:05.04	332.74	20.47	-42.2	-46.6	11.0	1.99e-03	0	58	0	1081081856	56	5836
2026-01-13 10:34:09.08	333.04	19.97	-42.1	-46.3	11.2	1.37e-03	0	59	0	1088421888	56	5656
2026-01-13 10:34:13.12	333.33	19.47	-41.8	-45.9	11.5	8.65e-04	0	59	0	1095761920	55	5693
2026-01-13 10:34:17.15	333.60	18.98	-41.7	-45.6	11.7	6.62e-04	0	58	0	1103101952	55	5525
2026-01-13 10:34:21.19	333.87	18.50	-41.7	-45.8	11.5	8.73e-04	0	59	0	1111490560	55	5606
2026-01-13 10:34:25.22	334.13	18.03	-41.7	-45.9	11.3	1.21e-03	0	59	0	1118830592	55	5667
2026-01-13 10:34:29.26	334.39	17.56	-41.9	-46.3	10.8	2.56e-03	0	59	0	1126170624	55	5980
2026-01-13 10:34:33.30	334.64	17.11	-41.9	-46.6	10.5	4.05e-03	0	59	0	1133510656	55	6138
2026-01-13 10:34:37.34	334.88	16.66	-41.9	-46.6	10.4	3.94e-03	0	59	0	1141899264	55	6167
2026-01-13 10:34:41.38	335.11	16.22	-41.8	-46.4	10.6	3.51e-03	0	58	0	1149239296	55	6006
2026-01-13 10:34:45.41	335.34	15.79	-41.8	-46.3	10.6	3.92e-03	0	59	0	1156579328	55	5967
2026-01-13 10:34:49.45	335.56	15.37	-41.5	-45.9	11.0	1.90e-03	0	59	0	1163919360	55	5668
2026-01-13 10:34:53.49	335.78	14.95	-41.6	-46.2	10.6	2.86e-03	0	59	0	1171259392	55	5867
2026-01-13 10:34:57.53	335.99	14.54	-41.5	-46.1	10.6	3.49e-03	0	58	0	1179648000	55	5809
2026-01-13 10:35:01.57	336.20	14.13	-41.7	-46.4	10.2	5.57e-03	0	58	0	1186988032	55	6061
2026-01-13 10:35:05.61	336.40	13.73	-41.8	-46.7	9.9	8.91e-03	0	59	0	1194328064	55	6261
2026-01-13 10:35:09.64	336.59	13.34	-41.6	-46.5	10.0	8.08e-03	0	59	0	1201668096	55	6126
2026-01-13 10:35:13.68	336.78	12.96	-41.8	-47.0	9.5	1.47e-02	0	59	0	1210056704	55	6490
2026-01-13 10:35:17.72	336.97	12.58	-41.9	-47.5	8.9	2.72e-02	0	59	0	1217396736	55	6816
2026-01-13 10:35:21.76	337.15	12.20	-41.6	-46.9	9.5	1.44e-02	0	59	0	1224736768	55	6354
2026-01-13 10:35:25.79	337.33	11.83	-41.5	-47.0	9.2	2.22e-02	0	59	0	1232076800	55	6480
2026-01-13 10:35:29.83	337.51	11.47	-41.6	-47.5	8.5	4.00e-02	0	59	0	1239416832	55	6837
2026-01-13 10:35:33.87	337.68	11.11	-41.5	-47.6	8.3	5.29e-02	0	59	0	1247805440	54	7332
2026-01-13 10:35:37.90	337.84	10.76	-41.2	-47.2	8.6	3.78e-02	0	59	0	1255145472	54	6966
2026-01-13 10:35:41.94	338.01	10.41	-41.0	-46.7	9.0	2.87e-02	0	59	0	1262485504	54	6606
2026-01-13 10:35:45.98	338.17	10.06	-40.9	-46.5	9.1	2.35e-02	0	59	0	1269825536	53	6857
2026-01-13 10:35:50.02	338.33	9.72	-40.9	-46.6	8.9	2.53e-02	0	59	0	1278214144	53	6907
2026-01-13 10:35:54.06	338.48	9.39	-40.9	-47.0	8.4	4.46e-02	0	59	0	1285554176	53	7254
2026-01-13 10:35:58.10	338.63	9.06	-40.9	-47.3	8.0	6.44e-02	0	59	0	1292894208	53	7518
2026-01-13 10:36:02.13	338.78	8.73	-41.0	-48.0	7.2	1.27e-01	0	59	0	1300234240	53	8148
2026-01-13 10:36:06.17	338.92	8.41	-41.1	-48.9	6.3	2.47e-01	0	59	0	1307574272	53	8976
2026-01-13 10:36:10.21	339.06	8.09	-41.2	-50.5	5.1	5.78e-01	0	59	0	1315962880	53	10782
2026-01-13 10:36:14.25	339.20	7.78	-44.6	-58.9	3.8	1.49e+00	0	59	104	1318060032	59	20138
2026-01-13 10:36:18.29	339.34	7.47	-45.1	-59.6	3.8	1.49e+00	0	59	104	1318060032	60	20742
2026-01-13 10:36:22.32	339.47	7.16	-45.2	-59.8	3.7	1.49e+00	0	59	104	1318060032	60	21061
2026-01-13 10:36:26.36	339.61	6.86	-45.1	-59.6	3.8	1.49e+00	0	59	104	1318060032	60	20661
2026-01-13 10:36:30.40	339.74	6.56	-44.6	-59.5	3.8	1.49e+00	0	59	104	1318060032	60	20497
2026-01-13 10:36:34.43	339.86	6.26	-45.0	-59.5	3.8	1.49e+00	0	59	104	1318060032	60	20478
2026-01-13 10:36:38.47	339.99	5.97	-45.0	-59.5	3.8	1.49e+00	0	59	104	1318060032	60	20536
2026-01-13 10:36:42.51	340.11	5.67	-45.0	-59.5	3.8	1.49e+00	0	59	104	1318060032	60	20518
2026-01-13 10:36:46.55	340.23	5.39	-45.0	-59.5	3.8	1.49e+00	0	59	104	1318060032	60	20471
2026-01-13 10:36:50.59	340.35	5.10	-45.0	-59.5	3.8	1.49e+00	0	59	104	1318060032	60	20430
2026-01-13 10:36:54.63	340.47	4.82	-44.9	-59.5	3.8	1.49e+00	0	59	104	1318060032	60	20463
2026-01-13 10:36:58.67	340.58	4.54	-45.0	-59.5	3.8	1.49e+00	0	59	104	1318060032	60	20476
2026-01-13 10:37:02.71	340.70	4.27	-44.9	-59.5	3.8	1.49e+00	0	59	104	1318060032	60	20455
2026-01-13 10:37:06.75	340.81	3.99	-45.0	-59.5	3.8	1.49e+00	0	59	104	1318060032	60	20393
2026-01-13 10:37:10.79	340.92	3.72	-45.0	-59.5	3.8	1.49e+00	0	59	104	1318060032	60	20453
2026-01-13 10:37:14.83	341.03	3.46	-45.0	-59.5	3.8	1.49e+00	0	59	104	1318060032	60	20399
2026-01-13 10:37:18.87	341.13	3.19	-45.0	-59.5	3.8	1.49e+00	0	59	104	1318060032	60	20407
2026-01-13 10:37:22.91	341.24	2.93	-44.9	-59.5	3.8	1.49e+00	0	59	104	1318060032	60	20416
2026-01-13 10:37:26.95	341.34	2.67	-45.0	-59.5	3.8	1.49e+00	0	59	104	1318060032	60	20389
2026-01-13 10:37:30.98	341.44	2.41	-44.9	-59.5	3.8	1.49e+00	0	59	104	1318060032	60	20411
2026-01-13 10:37:35.02	341.54	2.16	-45.0	-59.5	3.8	1.49e+00	0	59	104	1318060032	60	20412
2026-01-13 10:37:39.06	341.64	1.90	-44.9	-59.5	3.8	1.49e+00	0	59	104	1318060032	60	20373

#Closed at: 2026-01-13 10:37:40
#Recorded file [1318 MB]: D:/lorett/data/31039_260113_132318.dat