passes_logs/2026/01/13/R2.0S_Moscow/R2.0S_Moscow__20260113_100229_SUOMI_NPP_rec.log

#Pass ID: 20260113_100229_SUOMI NPP
#Satellite: SUOMI NPP
#Configuration: NPP
#almurnet v.1.7.20251203
#Start time: 2026-01-13 10:02:32

#Version: 2.2.20231116
#Station: R2.0S_Moscow
#Location: 37.707566 lon 55.798166 lat
#TLE: 1 37849U 11061A   26012.28456845  .00000093  00000+0  65163-4 0  9999
#TLE: 2 37849  98.7807 314.3566 0002508  68.3553 291.7890 14.19524725736322

#Time	Az	El	Level	Level2	SNR	BER	BlckErr	Temp	State	Recorded	gain1	gain2
2026-01-13 10:02:32.17	162.00	2.15	-43.8	-58.2	3.8	1.49e+00	0	48	0	0	59	18586
2026-01-13 10:02:36.20	162.02	2.41	-43.8	-58.2	3.8	1.49e+00	0	49	104	0	59	18568
2026-01-13 10:02:40.24	162.04	2.67	-43.8	-58.2	3.8	1.49e+00	0	49	104	0	59	18545
2026-01-13 10:02:44.28	162.06	2.94	-43.8	-58.2	3.8	1.49e+00	0	49	104	0	59	18586
2026-01-13 10:02:48.32	162.07	3.21	-43.8	-58.2	3.8	1.49e+00	0	49	104	0	59	18553
2026-01-13 10:02:52.36	162.09	3.48	-43.8	-58.1	3.8	1.49e+00	0	50	104	0	59	18471
2026-01-13 10:02:56.41	162.11	3.76	-43.8	-58.0	3.8	1.49e+00	0	50	104	0	59	18176
2026-01-13 10:03:00.45	162.13	4.04	-43.8	-58.1	3.8	1.49e+00	0	50	104	0	59	18371
2026-01-13 10:03:04.49	162.15	4.32	-43.8	-58.1	3.8	1.49e+00	0	50	104	0	59	18361
2026-01-13 10:03:08.53	162.17	4.60	-43.8	-58.1	3.8	1.49e+00	0	51	104	0	59	18491
2026-01-13 10:03:12.58	162.19	4.89	-43.8	-58.2	3.8	1.49e+00	0	51	104	0	59	18518
2026-01-13 10:03:16.62	162.21	5.18	-43.8	-58.0	3.8	1.49e+00	0	51	104	0	59	18228
2026-01-13 10:03:20.66	162.24	5.47	-43.8	-57.7	3.8	1.49e+00	0	51	104	0	59	17618
2026-01-13 10:03:24.70	162.26	5.77	-43.8	-57.4	3.8	1.49e+00	0	51	104	0	59	17053
2026-01-13 10:03:28.74	162.28	6.07	-43.7	-56.8	3.8	1.49e+00	0	51	104	0	58	16853
2026-01-13 10:03:32.78	162.30	6.38	-43.7	-56.6	3.8	1.49e+00	0	52	104	0	58	16421
2026-01-13 10:03:36.82	162.32	6.68	-43.7	-57.0	3.8	1.49e+00	0	52	104	0	58	17210
2026-01-13 10:03:40.86	162.34	7.00	-43.8	-58.1	3.8	1.49e+00	0	52	104	0	58	19499
2026-01-13 10:03:44.91	162.36	7.31	-43.8	-57.3	3.8	1.49e+00	0	52	104	0	58	17796
2026-01-13 10:03:48.95	162.39	7.63	-43.5	-54.0	4.4	1.34e+00	0	53	0	0	58	12198
2026-01-13 10:03:52.99	162.41	7.95	-43.2	-51.8	5.5	4.95e-01	0	53	0	7340032	57	9994
2026-01-13 10:03:57.03	162.43	8.28	-43.0	-50.1	6.9	1.03e+00	0	53	0	10485760	57	8225
2026-01-13 10:04:01.07	162.46	8.61	-42.9	-49.9	7.1	1.44e-01	0	53	0	14680064	57	7992
2026-01-13 10:04:05.11	162.48	8.95	-42.8	-49.6	7.4	1.11e-01	0	53	0	22020096	57	7769
2026-01-13 10:04:09.14	162.50	9.29	-42.9	-49.4	7.7	1.06e-01	0	54	0	30408704	57	7596
2026-01-13 10:04:13.18	162.53	9.63	-42.8	-49.2	7.9	8.43e-02	0	54	0	37748736	56	7868
2026-01-13 10:04:17.22	162.55	9.98	-42.9	-49.4	7.8	8.13e-02	0	54	0	45088768	56	8043
2026-01-13 10:04:21.26	162.58	10.34	-42.9	-49.3	8.0	8.06e-02	0	54	0	52428800	56	7900
2026-01-13 10:04:25.30	162.60	10.70	-42.9	-49.3	7.9	7.35e-02	0	54	0	59768832	56	7988
2026-01-13 10:04:29.34	162.63	11.07	-42.9	-49.0	8.3	5.77e-02	0	54	0	68157440	56	7686
2026-01-13 10:04:33.38	162.65	11.44	-42.9	-48.8	8.5	4.22e-02	0	54	0	75497472	56	7516
2026-01-13 10:04:37.42	162.68	11.82	-42.8	-48.5	8.9	2.84e-02	0	54	0	82837504	56	7274
2026-01-13 10:04:41.46	162.71	12.20	-42.8	-48.4	9.0	2.28e-02	0	54	0	90177536	56	7161
2026-01-13 10:04:45.49	162.73	12.59	-42.6	-47.9	9.6	1.64e-02	0	55	0	98566144	56	6744
2026-01-13 10:04:49.53	162.76	12.98	-42.6	-47.9	9.6	1.35e-02	0	55	0	105906176	56	6762
2026-01-13 10:04:53.57	162.79	13.39	-42.7	-47.9	9.7	1.10e-02	0	55	0	113246208	56	6748
2026-01-13 10:04:57.61	162.82	13.80	-42.7	-48.0	9.5	1.46e-02	0	55	0	120586240	56	6859
2026-01-13 10:05:01.65	162.85	14.21	-42.7	-48.0	9.5	1.22e-02	0	55	0	127926272	56	6850
2026-01-13 10:05:05.69	162.88	14.64	-42.5	-47.3	10.3	5.43e-03	0	55	0	136314880	56	6346
2026-01-13 10:05:09.72	162.91	15.07	-42.4	-47.0	10.7	2.85e-03	0	55	0	143654912	56	6075
2026-01-13 10:05:13.76	162.94	15.50	-42.3	-46.9	10.9	1.74e-03	0	55	0	150994944	56	6002
2026-01-13 10:05:17.80	162.97	15.95	-42.4	-46.9	10.8	2.90e-03	0	55	0	158334976	56	6042
2026-01-13 10:05:21.83	163.00	16.40	-42.4	-46.9	10.8	2.64e-03	0	55	0	166723584	56	6047
2026-01-13 10:05:25.87	163.03	16.87	-42.3	-46.6	11.2	1.53e-03	0	55	0	174063616	56	5816
2026-01-13 10:05:29.91	163.06	17.34	-42.1	-46.2	11.6	7.14e-04	0	56	0	181403648	56	5551
2026-01-13 10:05:33.95	163.10	17.82	-41.8	-45.8	11.8	5.81e-04	0	56	0	188743680	55	5606
2026-01-13 10:05:37.98	163.13	18.31	-41.8	-45.8	11.8	4.95e-04	0	56	0	196083712	55	5642
2026-01-13 10:05:42.02	163.17	18.82	-41.9	-45.9	11.8	5.27e-04	0	56	0	204472320	55	5657
2026-01-13 10:05:46.06	163.20	19.33	-41.9	-45.9	11.7	4.72e-04	0	56	0	211812352	55	5709
2026-01-13 10:05:50.10	163.24	19.85	-41.8	-45.7	11.9	4.80e-04	0	56	0	219152384	55	5574
2026-01-13 10:05:54.14	163.28	20.39	-41.9	-45.9	11.8	4.20e-04	0	56	0	226492416	55	5660
2026-01-13 10:05:58.18	163.32	20.93	-41.9	-45.9	11.8	4.55e-04	0	56	0	234881024	55	5666
2026-01-13 10:06:02.22	163.36	21.49	-41.9	-46.0	11.7	5.29e-04	0	56	0	242221056	55	5737
2026-01-13 10:06:06.25	163.40	22.06	-42.1	-46.3	11.5	1.08e-03	0	56	0	249561088	55	5927
2026-01-13 10:06:10.29	163.44	22.64	-42.3	-46.7	11.0	1.57e-03	0	56	0	256901120	55	6236
2026-01-13 10:06:14.33	163.48	23.24	-42.3	-46.6	11.1	2.08e-03	0	56	0	264241152	55	6191
2026-01-13 10:06:18.37	163.52	23.85	-42.4	-46.8	10.9	1.92e-03	0	56	0	272629760	55	6321
2026-01-13 10:06:22.41	163.57	24.48	-42.5	-47.2	10.5	3.94e-03	0	56	0	279969792	55	6594
2026-01-13 10:06:26.45	163.62	25.12	-41.8	-47.0	10.5	1.31e-02	0	56	0	287309824	55	6455
2026-01-13 10:06:30.48	163.66	25.78	-41.9	-47.1	10.5	1.14e-02	0	56	0	294649856	55	6550
2026-01-13 10:06:34.52	163.71	26.45	-42.2	-47.0	10.5	1.31e-02	0	57	0	303038464	55	6467
2026-01-13 10:06:38.56	163.76	27.14	-42.3	-47.2	10.4	1.22e-02	0	56	0	310378496	55	6605
2026-01-13 10:06:42.60	163.82	27.85	-42.3	-46.9	10.8	1.12e-02	0	56	0	317718528	55	6356
2026-01-13 10:06:46.64	163.87	28.58	-42.5	-47.5	10.2	1.35e-02	0	56	0	325058560	55	6842
2026-01-13 10:06:50.68	163.93	29.33	-43.0	-48.0	9.9	1.30e-02	0	57	0	332398592	57	6458
2026-01-13 10:06:54.72	163.99	30.10	-42.8	-47.5	10.5	5.10e-03	0	57	0	340787200	57	6072
2026-01-13 10:06:58.76	164.05	30.89	-43.2	-48.5	9.4	7.28e-03	0	56	0	348127232	57	6819
2026-01-13 10:07:02.79	164.11	31.70	-43.2	-48.5	9.4	1.75e-02	0	56	0	355467264	57	6879
2026-01-13 10:07:06.83	164.18	32.53	-43.1	-48.3	9.7	8.25e-03	0	57	0	362807296	57	6678
2026-01-13 10:07:10.87	164.25	33.39	-43.2	-48.4	9.5	1.94e-02	0	57	0	371195904	57	6800
2026-01-13 10:07:14.91	164.32	34.27	-43.0	-47.9	10.1	9.18e-03	0	57	0	378535936	57	6349
2026-01-13 10:07:18.95	164.40	35.18	-42.6	-46.9	11.2	1.30e-03	0	57	0	385875968	57	5661
2026-01-13 10:07:22.99	164.47	36.12	-42.2	-46.0	12.1	2.78e-04	0	57	0	393216000	56	5447
2026-01-13 10:07:27.03	164.56	37.08	-41.7	-45.2	12.7	7.62e-05	0	57	0	400556032	55	5279
2026-01-13 10:07:31.06	164.65	38.07	-41.7	-45.2	12.8	4.95e-05	0	57	0	408944640	55	5225
2026-01-13 10:07:35.10	164.74	39.09	-41.4	-44.6	13.4	9.90e-06	0	57	0	416284672	54	5196
2026-01-13 10:07:39.14	164.83	40.15	-41.8	-45.5	12.5	1.83e-04	0	57	0	423624704	54	5748
2026-01-13 10:07:43.18	164.94	41.23	-41.9	-45.7	12.2	1.41e-04	0	57	0	430964736	54	5882
2026-01-13 10:07:47.21	165.05	42.35	-42.1	-46.0	11.9	2.27e-04	0	57	0	438304768	54	6101
2026-01-13 10:07:51.25	165.16	43.50	-42.2	-46.2	11.7	5.16e-04	0	57	0	446693376	55	5866
2026-01-13 10:07:55.29	165.29	44.69	-42.3	-46.4	11.5	5.48e-04	0	57	0	454033408	55	6023
2026-01-13 10:07:59.33	165.42	45.92	-43.0	-47.8	10.2	6.61e-03	0	57	0	461373440	56	6715
2026-01-13 10:08:03.36	165.56	47.18	-43.1	-48.1	9.9	9.49e-03	0	57	0	468713472	56	6919
2026-01-13 10:08:07.40	165.72	48.48	-43.5	-49.2	8.8	3.55e-02	0	57	0	477102080	57	7407
2026-01-13 10:08:11.43	165.88	49.82	-43.1	-48.1	10.0	6.45e-03	0	57	0	484442112	57	6510
2026-01-13 10:08:15.47	166.07	51.21	-42.5	-46.7	11.2	1.82e-03	0	57	0	491782144	56	5894
2026-01-13 10:08:19.50	166.26	52.63	-41.8	-45.3	12.7	2.36e-05	0	57	0	499122176	55	5321
2026-01-13 10:08:23.54	166.48	54.09	-42.3	-46.4	11.5	9.83e-04	0	57	0	506462208	55	6022
2026-01-13 10:08:27.58	166.72	55.60	-42.0	-45.7	12.3	2.41e-04	0	57	0	514850816	55	5545
2026-01-13 10:08:31.62	166.98	57.16	-41.3	-44.5	13.6	7.60e-06	0	57	0	522190848	54	5147
2026-01-13 10:08:35.66	167.28	58.75	-42.0	-45.8	12.1	3.42e-04	0	57	0	529530880	54	5991
2026-01-13 10:08:39.70	167.61	60.39	-41.2	-44.3	13.7	1.14e-05	0	57	0	536870912	54	5019
2026-01-13 10:08:43.73	167.98	62.06	-40.8	-43.6	14.5	7.00e-07	0	57	0	545259520	53	4875
2026-01-13 10:08:47.77	168.41	63.78	-40.9	-43.8	14.2	1.50e-06	0	57	0	552599552	52	5285
2026-01-13 10:08:51.81	168.91	65.55	-40.9	-43.8	14.1	7.00e-07	0	57	0	559939584	52	5315
2026-01-13 10:08:55.85	169.49	67.34	-41.5	-44.8	13.0	1.44e-05	0	57	0	567279616	53	5653
2026-01-13 10:08:59.89	170.18	69.18	-44.1	-51.3	6.8	2.10e-01	0	57	0	574619648	58	8925
2026-01-13 10:09:03.93	171.02	71.05	-43.7	-49.8	8.1	4.56e-02	0	57	0	583008256	58	7495
2026-01-13 10:09:07.97	172.05	72.95	-42.4	-46.4	11.6	3.05e-03	0	57	0	590348288	56	5657
2026-01-13 10:09:12.00	173.34	74.87	-42.5	-46.9	10.8	1.38e-03	0	57	0	597688320	55	6419
2026-01-13 10:09:16.04	175.03	76.81	-42.8	-47.3	10.7	6.35e-03	0	57	0	605028352	57	5928
2026-01-13 10:09:20.08	177.33	78.77	-43.5	-49.1	8.7	4.52e-02	0	58	0	613416960	57	7366
2026-01-13 10:09:24.12	180.61	80.72	-42.7	-47.1	10.7	2.42e-03	0	57	0	620756992	57	5835
2026-01-13 10:09:28.16	185.64	82.64	-44.1	-51.5	6.4	2.26e-01	0	57	0	628097024	58	9119
2026-01-13 10:09:32.19	194.13	84.48	-42.9	-47.6	10.5	5.72e-03	0	57	0	635437056	57	6144
2026-01-13 10:09:36.23	210.36	86.10	-43.2	-48.4	9.6	7.91e-03	0	58	0	642777088	57	6784
2026-01-13 10:09:40.27	242.04	87.06	-43.5	-49.4	8.6	2.63e-02	0	57	0	651165696	57	7569
2026-01-13 10:09:44.31	280.78	86.72	-41.7	-45.1	12.8	1.43e-04	0	58	0	658505728	55	5203
2026-01-13 10:09:48.35	304.14	85.36	-42.9	-47.4	10.5	4.70e-03	0	58	0	665845760	57	6053
2026-01-13 10:09:52.39	315.86	83.61	-42.6	-46.7	11.3	2.31e-03	0	58	0	673185792	56	5921
2026-01-13 10:09:56.42	322.35	81.73	-43.6	-49.5	8.6	1.88e-02	0	58	0	681574400	57	7648
2026-01-13 10:10:00.46	326.40	79.79	-42.5	-46.6	11.5	6.61e-04	0	57	0	688914432	56	5804
2026-01-13 10:10:04.50	329.14	77.84	-43.5	-49.3	8.5	6.17e-02	0	58	0	696254464	58	7109
2026-01-13 10:10:08.54	331.11	75.89	-43.1	-48.8	9.3	2.22e-02	0	58	0	703594496	57	7069
2026-01-13 10:10:12.57	332.59	73.96	-43.7	-50.9	7.1	3.23e-01	0	58	0	710934528	58	8494
2026-01-13 10:10:16.61	333.75	72.05	-44.3	-52.8	5.5	7.78e-01	0	58	0	719323136	59	10047
2026-01-13 10:10:20.65	334.68	70.17	-44.5	-53.2	5.4	4.57e-01	0	58	0	726663168	59	10444
2026-01-13 10:10:24.69	335.44	68.32	-43.4	-48.7	9.4	1.64e-02	0	58	0	734003200	57	7003
2026-01-13 10:10:28.72	336.07	66.51	-43.3	-48.4	9.7	3.67e-02	0	58	0	741343232	57	6791
2026-01-13 10:10:32.76	336.61	64.73	-41.3	-44.5	13.6	5.11e-05	0	58	0	749731840	54	5110
2026-01-13 10:10:36.80	337.07	62.99	-42.0	-45.5	12.6	5.35e-04	0	58	0	757071872	56	5132
2026-01-13 10:10:40.83	337.48	61.30	-42.4	-46.4	11.6	3.49e-04	0	58	0	764411904	55	6030
2026-01-13 10:10:44.87	337.83	59.65	-42.8	-47.2	10.8	3.90e-03	0	58	0	771751936	57	5911
2026-01-13 10:10:48.92	338.15	58.03	-43.1	-47.9	10.3	2.60e-03	0	58	0	779091968	56	6762
2026-01-13 10:10:52.95	338.42	56.47	-41.3	-44.4	13.8	3.00e-06	0	57	0	787480576	54	5050
2026-01-13 10:10:56.99	338.68	54.94	-41.7	-45.1	13.0	3.81e-05	0	58	0	794820608	55	5178
2026-01-13 10:11:01.03	338.91	53.46	-42.2	-46.0	12.0	5.19e-04	0	58	0	802160640	55	5765
2026-01-13 10:11:05.06	339.11	52.02	-43.4	-49.0	9.2	1.03e-02	0	58	0	809500672	57	7216
2026-01-13 10:11:09.11	339.30	50.61	-43.2	-48.2	10.0	2.63e-02	0	58	0	817889280	58	6220
2026-01-13 10:11:13.15	339.48	49.25	-42.5	-46.4	11.8	5.11e-04	0	58	0	825229312	56	5693
2026-01-13 10:11:17.19	339.64	47.94	-43.7	-49.8	8.3	1.87e-01	0	58	0	832569344	59	7052
2026-01-13 10:11:21.22	339.79	46.66	-42.6	-46.7	11.6	6.37e-04	0	58	0	839909376	56	5888
2026-01-13 10:11:25.26	339.93	45.42	-43.3	-48.5	9.7	4.56e-03	0	58	0	847249408	57	6844
2026-01-13 10:11:29.29	340.06	44.22	-43.3	-48.4	9.8	1.03e-02	0	58	0	855638016	57	6755
2026-01-13 10:11:33.33	340.18	43.05	-41.5	-44.7	13.3	3.80e-06	0	58	0	862978048	54	5247
2026-01-13 10:11:37.37	340.30	41.91	-43.4	-49.0	9.2	1.91e-02	0	58	0	870318080	57	7254
2026-01-13 10:11:41.41	340.40	40.82	-42.9	-47.4	10.6	9.32e-03	0	58	0	877658112	57	6059
2026-01-13 10:11:45.45	340.51	39.75	-42.0	-45.5	12.6	2.24e-04	0	58	0	886046720	56	5158
2026-01-13 10:11:49.49	340.60	38.71	-44.0	-50.8	7.2	7.09e-02	0	58	0	893386752	58	8453
2026-01-13 10:11:53.52	340.69	37.71	-44.5	-53.9	4.8	9.13e-01	0	58	0	900726784	59	11405
2026-01-13 10:11:57.56	340.78	36.74	-44.2	-52.2	6.1	4.49e-01	0	58	0	908066816	59	9314
2026-01-13 10:12:01.60	340.86	35.79	-43.2	-48.5	9.5	3.00e-02	0	58	0	915406848	58	6434
2026-01-13 10:12:05.63	340.94	34.87	-44.1	-51.7	6.4	1.75e-01	0	58	0	923795456	58	9313
2026-01-13 10:12:09.67	341.02	33.98	-44.6	-55.1	4.4	1.32e+00	0	58	0	930086912	59	13097
2026-01-13 10:12:13.71	341.09	33.11	-44.4	-53.6	5.0	5.58e-01	0	58	0	938475520	59	10976
2026-01-13 10:12:17.75	341.16	32.27	-43.7	-50.2	7.7	1.32e-01	0	58	0	945815552	59	7385
2026-01-13 10:12:21.79	341.23	31.45	-43.2	-48.5	9.3	1.61e-02	0	58	0	953155584	58	6447
2026-01-13 10:12:25.82	341.29	30.65	-43.6	-49.9	8.0	6.23e-02	0	58	0	960495616	58	7551
2026-01-13 10:12:29.86	341.35	29.88	-43.7	-50.6	7.3	1.77e-01	0	58	0	968884224	58	8184
2026-01-13 10:12:33.90	341.41	29.12	-43.3	-49.0	8.8	4.24e-02	0	58	0	976224256	58	6838
2026-01-13 10:12:37.94	341.47	28.38	-43.1	-48.4	9.3	1.47e-02	0	58	0	983564288	57	6793
2026-01-13 10:12:41.98	341.53	27.67	-42.9	-48.1	9.7	9.62e-03	0	58	0	990904320	57	6502
2026-01-13 10:12:46.02	341.58	26.97	-42.3	-46.6	11.1	2.15e-03	0	58	0	998244352	56	5854
2026-01-13 10:12:50.05	341.63	26.29	-41.8	-45.8	11.7	8.03e-04	0	58	0	1006632960	55	5641
2026-01-13 10:12:54.09	341.69	25.62	-41.6	-45.5	11.9	4.30e-04	0	58	0	1013972992	55	5460
2026-01-13 10:12:58.13	341.74	24.98	-41.8	-46.1	11.3	1.21e-03	0	58	0	1021313024	55	5808
2026-01-13 10:13:02.17	341.78	24.34	-41.8	-46.2	11.1	1.76e-03	0	58	0	1028653056	55	5882
2026-01-13 10:13:06.21	341.83	23.73	-41.2	-45.0	12.1	4.63e-04	0	58	0	1035993088	54	5412
2026-01-13 10:13:10.24	341.88	23.12	-40.7	-44.2	12.7	7.62e-05	0	58	0	1044381696	53	5275
2026-01-13 10:13:14.28	341.92	22.54	-40.5	-44.4	12.1	3.46e-04	0	58	0	1051721728	53	5354
2026-01-13 10:13:18.32	341.97	21.96	-40.7	-45.1	11.0	1.39e-03	0	58	0	1059061760	52	6192
2026-01-13 10:13:22.36	342.01	21.40	-40.7	-46.0	9.8	8.20e-03	0	58	0	1066401792	52	6825
2026-01-13 10:13:26.40	342.05	20.85	-41.3	-50.2	5.6	4.15e-01	0	58	0	1074790400	53	10447
2026-01-13 10:13:30.44	342.09	20.31	-41.3	-54.3	3.8	1.49e+00	0	58	104	1077936128	53	16787
2026-01-13 10:13:34.48	342.13	19.78	-41.0	-56.0	3.8	1.49e+00	0	58	104	1077936128	53	20358
2026-01-13 10:13:38.52	342.17	19.26	-40.7	-55.4	3.8	1.49e+00	0	58	104	1077936128	53	18983
2026-01-13 10:13:42.56	342.21	18.76	-40.7	-55.7	3.8	1.49e+00	0	58	104	1077936128	52	20909
2026-01-13 10:13:46.60	342.25	18.26	-40.7	-55.5	3.8	1.49e+00	0	58	104	1077936128	52	20523
2026-01-13 10:13:50.63	342.28	17.78	-40.6	-55.4	3.8	1.49e+00	0	58	104	1077936128	52	20245
2026-01-13 10:13:54.67	342.32	17.30	-40.5	-55.4	3.8	1.49e+00	0	58	104	1077936128	52	20155
2026-01-13 10:13:58.71	342.36	16.83	-40.4	-55.3	3.8	1.49e+00	0	58	104	1077936128	52	19990
2026-01-13 10:14:02.73	342.39	16.38	-40.4	-55.3	3.8	1.49e+00	0	58	104	1077936128	52	19884
2026-01-13 10:14:06.77	342.43	15.93	-40.6	-55.4	3.8	1.49e+00	0	58	104	1077936128	52	20085
2026-01-13 10:14:10.80	342.46	15.49	-40.6	-55.2	3.8	1.49e+00	0	58	104	1077936128	52	19827
2026-01-13 10:14:14.84	342.49	15.05	-40.6	-55.3	3.8	1.49e+00	0	58	104	1077936128	52	20069
2026-01-13 10:14:18.88	342.53	14.63	-40.6	-55.3	3.8	1.49e+00	0	58	104	1077936128	52	19899
2026-01-13 10:14:22.91	342.56	14.21	-40.3	-55.2	3.8	1.49e+00	0	58	104	1077936128	52	19827
2026-01-13 10:14:26.95	342.59	13.80	-40.5	-55.2	3.8	1.49e+00	0	58	104	1077936128	52	19666
2026-01-13 10:14:30.99	342.62	13.39	-40.6	-55.2	3.8	1.49e+00	0	58	104	1077936128	52	19839
2026-01-13 10:14:35.03	342.66	12.99	-40.6	-55.2	3.8	1.49e+00	0	58	104	1077936128	52	19758
2026-01-13 10:14:39.07	342.69	12.60	-40.4	-55.1	3.8	1.49e+00	0	58	104	1077936128	52	19576
2026-01-13 10:14:43.10	342.72	12.22	-40.4	-55.2	3.8	1.49e+00	0	58	104	1077936128	52	19646
2026-01-13 10:14:47.14	342.75	11.84	-40.4	-55.1	3.8	1.49e+00	0	58	104	1077936128	52	19513
2026-01-13 10:14:51.18	342.78	11.46	-40.2	-55.1	3.8	1.49e+00	0	58	104	1077936128	52	19459
2026-01-13 10:14:55.22	342.81	11.09	-40.4	-55.1	3.8	1.49e+00	0	58	104	1077936128	52	19525
2026-01-13 10:14:59.26	342.84	10.73	-40.4	-55.1	3.8	1.49e+00	0	58	104	1077936128	52	19552
2026-01-13 10:15:03.30	342.87	10.37	-40.2	-54.9	3.8	1.49e+00	0	58	104	1077936128	52	19105
2026-01-13 10:15:07.34	342.89	10.02	-40.3	-55.0	3.8	1.49e+00	0	58	104	1077936128	52	19223
2026-01-13 10:15:11.37	342.92	9.68	-40.4	-55.1	3.8	1.49e+00	0	58	104	1077936128	52	19403
2026-01-13 10:15:15.41	342.95	9.33	-40.3	-55.0	3.8	1.49e+00	0	58	104	1077936128	52	19185
2026-01-13 10:15:19.44	342.98	9.00	-40.3	-54.9	3.8	1.49e+00	0	58	104	1077936128	52	19137
2026-01-13 10:15:23.48	343.01	8.66	-40.4	-55.0	3.8	1.49e+00	0	58	104	1077936128	52	19253
2026-01-13 10:15:27.52	343.03	8.33	-40.3	-55.0	3.8	1.49e+00	0	58	104	1077936128	52	19172
2026-01-13 10:15:31.55	343.06	8.01	-40.4	-55.0	3.8	1.49e+00	0	58	104	1077936128	52	19370
2026-01-13 10:15:35.59	343.09	7.69	-44.8	-59.4	3.8	1.49e+00	0	58	104	1077936128	60	20098
2026-01-13 10:15:39.63	343.12	7.37	-45.1	-59.7	3.8	1.49e+00	0	58	104	1077936128	60	20885
2026-01-13 10:15:43.67	343.14	7.06	-44.9	-59.6	3.8	1.49e+00	0	58	104	1077936128	60	20681
2026-01-13 10:15:47.71	343.17	6.75	-45.0	-59.5	3.8	1.49e+00	0	58	104	1077936128	60	20484
2026-01-13 10:15:51.75	343.19	6.45	-45.0	-59.5	3.8	1.49e+00	0	58	104	1077936128	60	20441
2026-01-13 10:15:55.79	343.22	6.15	-45.0	-59.5	3.8	1.49e+00	0	58	104	1077936128	60	20447
2026-01-13 10:15:59.84	343.25	5.85	-45.0	-59.5	3.8	1.49e+00	0	58	104	1077936128	60	20432
2026-01-13 10:16:03.87	343.27	5.55	-45.0	-59.5	3.8	1.49e+00	0	58	104	1077936128	60	20424
2026-01-13 10:16:07.91	343.30	5.26	-45.0	-59.5	3.8	1.49e+00	0	58	104	1077936128	60	20372
2026-01-13 10:16:11.96	343.32	4.97	-44.9	-59.5	3.8	1.49e+00	0	58	104	1077936128	60	20374
2026-01-13 10:16:16.00	343.35	4.69	-44.9	-59.5	3.9	1.49e+00	0	58	104	1077936128	60	20340
2026-01-13 10:16:20.04	343.37	4.40	-45.0	-59.5	3.8	1.49e+00	0	58	104	1077936128	60	20339
2026-01-13 10:16:24.08	343.40	4.12	-45.0	-59.4	3.8	1.49e+00	0	59	104	1077936128	60	20289
2026-01-13 10:16:28.13	343.42	3.85	-44.9	-59.4	3.8	1.49e+00	0	59	104	1077936128	60	20282
2026-01-13 10:16:32.17	343.45	3.57	-44.9	-59.4	3.8	1.49e+00	0	58	104	1077936128	60	20254
2026-01-13 10:16:36.21	343.47	3.30	-45.0	-59.4	3.8	1.49e+00	0	58	104	1077936128	60	20275
2026-01-13 10:16:40.26	343.50	3.03	-44.9	-59.4	3.8	1.49e+00	0	58	104	1077936128	60	20268
2026-01-13 10:16:44.30	343.52	2.77	-44.9	-59.4	3.8	1.49e+00	0	58	104	1077936128	60	20249
2026-01-13 10:16:48.34	343.55	2.51	-44.7	-59.4	3.8	1.49e+00	0	58	104	1077936128	60	20225
2026-01-13 10:16:52.38	343.57	2.24	-44.9	-59.4	3.8	1.49e+00	0	58	104	1077936128	60	20167
2026-01-13 10:16:56.43	343.60	1.99	-44.8	-59.4	3.8	1.49e+00	0	58	104	1077936128	60	20238

#Closed at: 2026-01-13 10:16:59
#Recorded file [1077 MB]: D:/lorett/data/31039_260113_130231.dat