passes_logs/2025/01/30/X_MFTI_02/X_MFTI_02__20250130_180608_TERRA_rec.log

#Pass ID: 20250130_180608_TERRA
#Satellite: TERRA
#Configuration: TERRA
#Start time: 2025-01-30 18:06:04

#Version: 1.5.20200625
#Station: X_MFTI_02
#Location: 37.5186 lon 55.9291 lat
#TLE: 1 25994U 99068A   23362.45014226  .00000817  00000+0  18168-3 0  9993
#TLE: 2 25994  98.0729  65.8244 0002317 146.5078 343.6211 14.59509299278111

#Time	Az	El	Level	Level2	SNR	BER	Gain	Gain2
2025-01-30 18:06:06.94	107.13	69.71	
2025-01-30 18:06:07.14	106.86	69.77	
2025-01-30 18:06:07.34	106.58	69.84	
2025-01-30 18:06:07.55	106.29	69.91	
2025-01-30 18:06:07.75	106.01	69.97	
2025-01-30 18:06:07.95	105.73	70.04	
2025-01-30 18:06:08.15	105.45	70.10	
2025-01-30 18:06:08.36	105.15	70.17	
2025-01-30 18:06:08.56	104.86	70.23	
2025-01-30 18:06:08.76	104.58	70.29	
2025-01-30 18:06:08.97	104.27	70.36	
2025-01-30 18:06:09.17	103.98	70.42	
2025-01-30 18:06:09.38	103.67	70.48	
2025-01-30 18:06:09.60	103.34	70.55	
2025-01-30 18:06:09.80	103.04	70.61	
2025-01-30 18:06:10.00	102.74	70.67	
2025-01-30 18:06:10.20	102.44	70.73	
2025-01-30 18:06:10.41	102.12	70.79	
2025-01-30 18:06:10.63	101.78	70.86	
2025-01-30 18:06:10.83	101.47	70.91	
2025-01-30 18:06:11.03	101.16	70.97	
2025-01-30 18:06:11.24	100.84	71.03	
2025-01-30 18:06:11.44	100.52	71.09	
2025-01-30 18:06:11.64	100.20	71.14	
2025-01-30 18:06:11.85	99.87	71.20	
2025-01-30 18:06:12.05	99.55	71.26	
2025-01-30 18:06:12.25	99.22	71.31	
2025-01-30 18:06:12.45	98.90	71.36	
2025-01-30 18:06:12.66	98.56	71.42	
2025-01-30 18:06:12.86	98.23	71.47	
2025-01-30 18:06:13.07	97.88	71.53	
2025-01-30 18:06:13.27	97.55	71.58	
2025-01-30 18:06:13.47	97.21	71.63	
2025-01-30 18:06:13.68	96.86	71.68	
2025-01-30 18:06:13.88	96.52	71.73	
2025-01-30 18:06:14.08	96.18	71.78	
2025-01-30 18:06:14.29	95.82	71.83	
2025-01-30 18:06:14.50	95.45	71.88	
2025-01-30 18:06:14.71	95.09	71.93	
2025-01-30 18:06:14.91	94.74	71.98	
2025-01-30 18:06:15.11	94.39	72.02	
2025-01-30 18:06:15.32	94.02	72.07	
2025-01-30 18:06:15.53	93.65	72.12	
2025-01-30 18:06:15.73	93.29	72.16	
2025-01-30 18:06:15.95	92.89	72.21	
2025-01-30 18:06:16.15	92.53	72.25	
2025-01-30 18:06:16.36	92.15	72.30	
2025-01-30 18:06:16.58	91.75	72.34	
2025-01-30 18:06:16.78	91.38	72.38	
2025-01-30 18:06:16.99	91.00	72.42	
2025-01-30 18:06:17.19	90.63	72.46	
2025-01-30 18:06:17.40	90.24	72.50	
2025-01-30 18:06:17.61	89.85	72.54	
2025-01-30 18:06:17.81	89.47	72.58	
2025-01-30 18:06:18.01	89.09	72.62	
2025-01-30 18:06:18.22	88.70	72.65	
2025-01-30 18:06:18.42	88.32	72.69	
2025-01-30 18:06:18.63	87.91	72.72	
2025-01-30 18:06:18.84	87.51	72.76	
2025-01-30 18:06:19.05	87.11	72.79	
2025-01-30 18:06:19.25	86.72	72.83	
2025-01-30 18:06:19.45	86.33	72.86	
2025-01-30 18:06:19.66	85.92	72.89	
2025-01-30 18:06:19.86	85.53	72.92	
2025-01-30 18:06:20.07	85.12	72.95	
2025-01-30 18:06:20.27	84.72	72.98	
2025-01-30 18:06:20.47	84.33	73.00	
2025-01-30 18:06:20.68	83.91	73.03	
2025-01-30 18:06:20.88	83.51	73.06	
2025-01-30 18:06:21.09	83.09	73.08	
2025-01-30 18:06:21.31	82.65	73.11	
2025-01-30 18:06:21.51	82.25	73.13	
2025-01-30 18:06:21.71	81.85	73.16	
2025-01-30 18:06:21.92	81.42	73.18	
2025-01-30 18:06:22.12	81.02	73.20	
2025-01-30 18:06:22.33	80.59	73.22	
2025-01-30 18:06:22.53	80.18	73.24	
2025-01-30 18:06:22.74	79.76	73.26	
2025-01-30 18:06:22.94	79.35	73.28	
2025-01-30 18:06:23.15	78.92	73.29	
2025-01-30 18:06:23.35	78.50	73.31	
2025-01-30 18:06:23.56	78.07	73.33	
2025-01-30 18:06:23.76	77.66	73.34	
2025-01-30 18:06:23.97	77.23	73.35	
2025-01-30 18:06:24.17	76.81	73.37	
2025-01-30 18:06:24.38	76.38	73.38	
2025-01-30 18:06:24.58	75.96	73.39	
2025-01-30 18:06:24.78	75.54	73.40	
2025-01-30 18:06:25.00	75.09	73.41	
2025-01-30 18:06:25.20	74.67	73.42	
2025-01-30 18:06:25.41	74.23	73.42	
2025-01-30 18:06:25.61	73.81	73.43	
2025-01-30 18:06:25.82	73.37	73.44	
2025-01-30 18:06:26.03	72.94	73.44	
2025-01-30 18:06:26.23	72.52	73.45	
2025-01-30 18:06:26.43	72.10	73.45	
2025-01-30 18:06:26.64	71.66	73.45	
2025-01-30 18:06:26.84	71.24	73.45	
2025-01-30 18:06:27.05	70.80	73.45	
2025-01-30 18:06:27.25	70.38	73.45	
2025-01-30 18:06:27.46	69.94	73.45	
2025-01-30 18:06:27.67	69.50	73.45	
2025-01-30 18:06:27.88	69.06	73.44	
2025-01-30 18:06:28.08	68.64	73.44	
2025-01-30 18:06:28.30	68.18	73.43	
2025-01-30 18:06:28.50	67.77	73.43	
2025-01-30 18:06:28.70	67.35	73.42	
2025-01-30 18:06:28.91	66.91	73.41	
2025-01-30 18:06:29.11	66.49	73.41	
2025-01-30 18:06:29.33	66.04	73.40	
2025-01-30 18:06:29.53	65.62	73.39	
2025-01-30 18:06:29.74	65.18	73.37	
2025-01-30 18:06:29.95	64.75	73.36	
2025-01-30 18:06:30.16	64.31	73.35	
2025-01-30 18:06:30.36	63.90	73.34	
2025-01-30 18:06:30.57	63.47	73.32	
2025-01-30 18:06:30.77	63.06	73.30	
2025-01-30 18:06:30.97	62.65	73.29	
2025-01-30 18:06:31.17	62.24	73.27	
2025-01-30 18:06:31.38	61.81	73.25	
2025-01-30 18:06:31.58	61.40	73.23	
2025-01-30 18:06:31.78	60.99	73.22	
2025-01-30 18:06:31.99	60.56	73.19	
2025-01-30 18:06:32.20	60.14	73.17	
2025-01-30 18:06:32.41	59.72	73.15	
2025-01-30 18:06:32.61	59.31	73.13	
2025-01-30 18:06:32.82	58.89	73.10	
2025-01-30 18:06:33.02	58.49	73.08	
2025-01-30 18:06:33.23	58.07	73.05	
2025-01-30 18:06:33.43	57.67	73.03	
2025-01-30 18:06:33.65	57.24	73.00	
2025-01-30 18:06:33.85	56.84	72.97	
2025-01-30 18:06:34.06	56.43	72.94	
2025-01-30 18:06:34.27	56.02	72.91	
2025-01-30 18:06:34.47	55.63	72.88	
2025-01-30 18:06:34.67	55.24	72.85	
2025-01-30 18:06:34.88	54.83	72.82	
2025-01-30 18:06:35.08	54.45	72.78	
2025-01-30 18:06:35.29	54.04	72.75	
2025-01-30 18:06:35.51	53.62	72.71	
2025-01-30 18:06:35.71	53.24	72.68	
2025-01-30 18:06:35.92	52.84	72.64	
2025-01-30 18:06:36.13	52.44	72.60	
2025-01-30 18:06:36.33	52.07	72.57	
2025-01-30 18:06:36.54	51.68	72.53	
2025-01-30 18:06:36.74	51.30	72.49	
2025-01-30 18:06:36.95	50.91	72.45	
2025-01-30 18:06:37.15	50.54	72.41	
2025-01-30 18:06:37.36	50.16	72.37	
2025-01-30 18:06:37.57	49.78	72.32	
2025-01-30 18:06:37.77	49.41	72.28	
2025-01-30 18:06:37.97	49.05	72.24	
2025-01-30 18:06:38.18	48.67	72.20	
2025-01-30 18:06:38.39	48.30	72.15	
2025-01-30 18:06:38.60	47.92	72.10	
2025-01-30 18:06:38.80	47.57	72.06	
2025-01-30 18:06:39.00	47.22	72.01	
2025-01-30 18:06:39.22	46.83	71.96	
2025-01-30 18:06:39.42	46.48	71.92	
2025-01-30 18:06:39.62	46.14	71.87	
2025-01-30 18:06:39.82	45.79	71.82	
2025-01-30 18:06:40.03	45.43	71.77	
2025-01-30 18:06:40.24	45.08	71.72	
2025-01-30 18:06:40.45	44.72	71.67	
2025-01-30 18:06:40.65	44.38	71.62	
2025-01-30 18:06:40.86	44.03	71.56	
2025-01-30 18:06:41.07	43.68	71.51	
2025-01-30 18:06:41.27	43.35	71.46	
2025-01-30 18:06:41.47	43.03	71.40	
2025-01-30 18:06:41.68	42.68	71.35	
2025-01-30 18:06:41.89	42.34	71.29	
2025-01-30 18:06:42.10	42.01	71.23	
2025-01-30 18:06:42.30	41.69	71.18	
2025-01-30 18:06:42.51	41.35	71.12	
2025-01-30 18:06:42.72	41.02	71.06	
2025-01-30 18:06:42.92	40.71	71.01	
2025-01-30 18:06:43.12	40.39	70.95	
2025-01-30 18:06:43.32	40.09	70.89	
2025-01-30 18:06:43.52	39.78	70.83	
2025-01-30 18:06:43.73	39.46	70.77	
2025-01-30 18:06:43.93	39.15	70.71	
2025-01-30 18:06:44.14	38.84	70.65	
2025-01-30 18:06:44.35	38.52	70.59	
2025-01-30 18:06:44.55	38.22	70.53	
2025-01-30 18:06:44.76	37.91	70.46	
2025-01-30 18:06:44.96	37.62	70.40	
2025-01-30 18:06:45.17	37.31	70.34	
2025-01-30 18:06:45.38	37.01	70.27	
2025-01-30 18:06:45.58	36.72	70.21	
2025-01-30 18:06:45.78	36.44	70.15	
2025-01-30 18:06:45.98	36.15	70.08	
2025-01-30 18:06:46.19	35.86	70.02	

#Closed at: 2025-01-30 18:06:46