passes_logs/2026/01/30/T1/T1__20260130_015538_NOAA_20_JPSS-1_rec.log

#Pass ID: 20260130_015538_NOAA 20 (JPSS-1)
#Satellite: NOAA 20 (JPSS-1)
#Configuration: NOAA 20
#almurnet v.1.7.20251203
#Start time: 2026-01-30 01:55:40

#Version: 2.0.20230620
#Station: T1
#Location: 37.570604 lon 55.790049 lat
#TLE: 1 43013U 17073A   26028.86313978  .00000144  00000+0  89200-4 0  9993
#TLE: 2 43013  98.7648 329.6571 0000891  20.0014 340.1197 14.19541559424709

#Time	Az	El	Level	Level2	SNR	BER	BlckErr	Temp	State	Recorded	gain1	gain2
2026-01-30 01:55:40.45	3.20	5.09	-49.5	-63.8	3.8	1.49e+00	0	41	104	0	70	18745
2026-01-30 01:55:43.46	2.89	5.24	-49.6	-63.8	3.8	1.49e+00	0	41	104	0	70	18783
2026-01-30 01:55:46.47	2.57	5.40	-49.7	-63.8	3.8	1.49e+00	0	41	104	0	70	18772
2026-01-30 01:55:49.48	2.25	5.56	-49.4	-63.7	3.8	1.49e+00	0	41	104	0	70	18716
2026-01-30 01:55:52.50	1.93	5.71	-48.9	-63.8	3.8	1.49e+00	0	41	104	0	69	19857
2026-01-30 01:55:55.51	1.60	5.87	-49.2	-63.8	3.8	1.49e+00	0	41	104	0	69	19903
2026-01-30 01:55:58.52	1.27	6.03	-49.1	-63.7	3.8	1.49e+00	0	41	104	0	69	19685
2026-01-30 01:56:01.53	0.93	6.19	-49.2	-63.6	3.8	1.49e+00	0	42	104	0	69	19452
2026-01-30 01:56:04.54	0.60	6.34	-47.5	-63.2	3.8	1.49e+00	0	42	104	0	66	22190
2026-01-30 01:56:07.56	0.25	6.50	-45.7	-63.2	3.8	1.49e+00	0	42	104	0	63	26278
2026-01-30 01:56:10.57	359.91	6.66	-45.7	-63.1	3.8	1.49e+00	0	42	104	0	63	26138
2026-01-30 01:56:13.58	359.56	6.81	-45.7	-63.1	3.8	1.49e+00	0	42	104	0	63	26156
2026-01-30 01:56:16.60	359.20	6.97	-45.7	-63.1	3.8	1.49e+00	0	42	104	0	63	26121
2026-01-30 01:56:19.61	358.85	7.13	-45.7	-63.2	3.8	1.49e+00	0	42	104	0	63	26294
2026-01-30 01:56:22.62	358.48	7.29	-45.7	-63.1	3.8	1.49e+00	0	42	104	0	63	26130
2026-01-30 01:56:25.63	358.12	7.44	-45.7	-63.2	3.8	1.49e+00	0	42	104	0	63	26187
2026-01-30 01:56:28.65	357.75	7.60	-45.8	-63.2	3.8	1.49e+00	0	42	104	0	63	26193
2026-01-30 01:56:31.66	357.37	7.76	-45.9	-63.2	3.8	1.49e+00	0	42	104	0	63	26205
2026-01-30 01:56:34.67	357.00	7.91	-45.8	-63.1	3.8	1.49e+00	0	42	104	0	63	26044
2026-01-30 01:56:37.69	356.61	8.07	-45.9	-63.1	3.8	1.49e+00	0	42	104	0	63	25891
2026-01-30 01:56:40.70	356.23	8.22	-45.9	-62.9	3.8	1.49e+00	0	42	104	0	63	25338
2026-01-30 01:56:43.71	355.84	8.38	-45.9	-61.6	3.8	1.49e+00	0	43	104	0	63	21810
2026-01-30 01:56:46.73	355.44	8.54	-45.9	-60.1	4.1	1.46e+00	0	42	0	0	63	18322
2026-01-30 01:56:49.74	355.04	8.69	-45.7	-59.3	4.3	1.39e+00	0	43	0	0	63	16720
2026-01-30 01:56:52.75	354.64	8.84	-45.6	-56.7	5.5	6.11e-01	0	43	0	4194304	63	12512
2026-01-30 01:56:55.76	354.23	9.00	-44.8	-52.1	9.7	2.75e-02	0	43	0	10485760	61	8192
2026-01-30 01:56:58.81	353.81	9.15	-44.0	-49.2	12.6	5.79e-01	0	43	0	13631488	59	6604
2026-01-30 01:57:01.87	353.39	9.31	-43.0	-46.9	15.1	0.00e+00	0	43	0	19922944	57	5662
2026-01-30 01:57:04.97	352.95	9.47	-43.0	-46.8	15.1	7.00e-07	0	43	0	25165824	57	5655
2026-01-30 01:57:07.85	352.55	9.61	-43.2	-46.9	15.1	0.00e+00	0	43	0	30408704	57	5661
2026-01-30 01:57:11.00	352.10	9.77	-43.6	-46.6	15.3	0.00e+00	0	43	0	36700160	57	5523
2026-01-30 01:57:13.86	351.68	9.91	-43.9	-46.9	15.1	0.00e+00	0	43	0	41943040	58	5345
2026-01-30 01:57:17.01	351.22	10.07	-43.5	-46.6	15.4	0.00e+00	0	43	0	48234496	58	5164
2026-01-30 01:57:19.88	350.80	10.21	-43.2	-46.6	15.4	0.00e+00	0	43	0	53477376	58	5191
2026-01-30 01:57:23.03	350.33	10.37	-42.7	-46.8	15.2	0.00e+00	0	43	0	58720256	57	5634
2026-01-30 01:57:26.13	349.86	10.52	-42.7	-46.8	15.2	0.00e+00	0	43	0	65011712	57	5620
2026-01-30 01:57:29.01	349.42	10.66	-42.9	-46.7	15.3	0.00e+00	0	43	0	70254592	57	5570
2026-01-30 01:57:32.16	348.94	10.81	-43.4	-46.5	15.5	0.00e+00	0	43	0	76546048	57	5417
2026-01-30 01:57:35.02	348.50	10.95	-43.5	-46.4	15.6	0.00e+00	0	43	0	81788928	57	5396
2026-01-30 01:57:38.17	348.00	11.10	-43.4	-46.3	15.6	0.00e+00	0	43	0	87031808	57	5338
2026-01-30 01:57:41.15	347.53	11.24	-43.1	-45.9	16.1	0.00e+00	0	43	0	93323264	57	5073
2026-01-30 01:57:44.30	347.02	11.39	-43.0	-45.7	16.3	0.00e+00	0	43	0	98566144	57	4968
2026-01-30 01:57:47.37	346.53	11.53	-42.6	-45.3	16.7	0.00e+00	0	43	0	104857600	57	4739
2026-01-30 01:57:50.25	346.06	11.66	-42.4	-45.2	16.9	0.00e+00	0	43	0	110100480	56	4936
2026-01-30 01:57:53.40	345.54	11.80	-42.6	-45.1	16.9	0.00e+00	0	43	0	116391936	56	4921
2026-01-30 01:57:56.33	345.05	11.94	-42.8	-45.1	17.0	0.00e+00	0	43	0	121634816	56	4884
2026-01-30 01:57:59.55	344.51	12.08	-42.5	-44.8	17.2	0.00e+00	0	43	0	127926272	56	4756
2026-01-30 01:58:02.40	344.02	12.21	-42.5	-45.0	17.1	0.00e+00	0	43	0	133169152	56	4865
2026-01-30 01:58:05.70	343.46	12.35	-42.4	-44.8	17.3	0.00e+00	0	43	0	139460608	56	4721
2026-01-30 01:58:08.42	342.99	12.47	-42.3	-44.4	17.7	0.00e+00	0	43	0	144703488	56	4513
2026-01-30 01:58:11.72	342.41	12.61	-42.3	-44.5	17.6	0.00e+00	0	43	0	149946368	56	4568
2026-01-30 01:58:14.49	341.92	12.73	-42.1	-44.2	17.9	0.00e+00	0	43	0	155189248	56	4415
2026-01-30 01:58:17.79	341.34	12.86	-42.1	-43.9	18.1	0.00e+00	0	43	0	161480704	56	4272
2026-01-30 01:58:20.51	340.85	12.97	-42.1	-44.1	18.0	0.00e+00	0	43	0	166723584	56	4363
2026-01-30 01:58:23.80	340.26	13.11	-42.1	-44.1	17.9	0.00e+00	0	43	0	173015040	55	4612
2026-01-30 01:58:26.62	339.74	13.22	-42.3	-44.1	17.8	0.00e+00	0	43	0	178257920	55	4639
2026-01-30 01:58:29.77	339.17	13.34	-42.7	-44.5	17.4	0.00e+00	0	43	0	184549376	55	4867
2026-01-30 01:58:32.63	338.64	13.45	-42.6	-44.7	17.4	0.00e+00	0	43	0	189792256	56	4659
2026-01-30 01:58:35.78	338.05	13.57	-42.4	-44.2	17.8	0.00e+00	0	43	0	195035136	56	4440
2026-01-30 01:58:38.78	337.49	13.68	-42.7	-44.5	17.6	0.00e+00	0	43	0	201326592	56	4571
2026-01-30 01:58:41.90	336.89	13.79	-42.6	-44.3	17.7	0.00e+00	0	43	0	206569472	56	4492
2026-01-30 01:58:44.77	336.35	13.89	-42.5	-44.1	17.9	0.00e+00	0	43	0	212860928	56	4379
2026-01-30 01:58:47.92	335.74	14.00	-42.5	-44.1	18.0	0.00e+00	0	43	0	218103808	56	4367
2026-01-30 01:58:50.80	335.18	14.09	-42.3	-43.9	18.1	0.00e+00	0	43	0	223346688	56	4282
2026-01-30 01:58:54.10	334.54	14.20	-42.3	-43.9	18.1	0.00e+00	0	43	0	229638144	56	4271
2026-01-30 01:58:56.84	334.00	14.29	-42.1	-43.6	18.5	0.00e+00	0	43	0	234881024	56	4144
2026-01-30 01:59:00.77	333.23	14.41	-42.0	-43.5	18.5	0.00e+00	0	43	0	242221056	56	4083
2026-01-30 01:59:03.51	332.68	14.49	-41.8	-43.2	18.7	0.00e+00	0	43	0	247463936	55	4183
2026-01-30 01:59:07.27	331.93	14.60	-41.8	-43.2	18.7	0.00e+00	0	43	0	254803968	55	4179
2026-01-30 01:59:10.01	331.38	14.67	-41.8	-43.2	18.7	0.00e+00	0	43	0	260046848	55	4183
2026-01-30 01:59:13.30	330.71	14.76	-41.8	-43.3	18.6	0.00e+00	0	43	0	266338304	55	4216
2026-01-30 01:59:16.03	330.15	14.83	-42.0	-43.6	18.4	0.00e+00	0	43	0	270532608	55	4348
2026-01-30 01:59:19.55	329.43	14.92	-41.8	-43.3	18.6	0.00e+00	0	43	0	277872640	55	4230
2026-01-30 01:59:22.27	328.87	14.98	-42.0	-43.5	18.5	0.00e+00	0	43	0	283115520	55	4296
2026-01-30 01:59:25.57	328.19	15.06	-42.2	-43.8	18.2	0.00e+00	0	43	0	289406976	55	4453
2026-01-30 01:59:28.29	327.62	15.11	-42.2	-43.8	18.1	0.00e+00	0	43	0	293601280	55	4463
2026-01-30 01:59:31.59	326.94	15.18	-42.0	-43.7	18.2	0.00e+00	0	43	0	299892736	55	4440
2026-01-30 01:59:34.49	326.33	15.24	-42.2	-44.0	17.9	0.00e+00	0	43	0	306184192	55	4594
2026-01-30 01:59:37.52	325.69	15.29	-42.4	-44.2	17.7	0.00e+00	0	43	0	311427072	55	4690
2026-01-30 01:59:40.53	325.05	15.34	-42.2	-44.3	17.6	0.00e+00	0	43	0	316669952	55	4745
2026-01-30 01:59:43.53	324.42	15.39	-42.2	-44.1	17.8	0.00e+00	0	43	0	322961408	55	4627
2026-01-30 01:59:46.54	323.78	15.43	-42.4	-44.0	17.9	0.00e+00	0	43	0	328204288	55	4573
2026-01-30 01:59:49.55	323.14	15.47	-42.1	-43.6	18.3	0.00e+00	0	43	0	333447168	55	4367
2026-01-30 01:59:52.56	322.49	15.51	-42.0	-43.5	18.4	0.00e+00	0	43	0	339738624	55	4321
2026-01-30 01:59:55.57	321.85	15.54	-42.0	-43.7	18.3	0.00e+00	0	43	0	344981504	55	4395
2026-01-30 01:59:58.59	321.20	15.57	-42.3	-44.0	17.9	0.00e+00	0	43	0	351272960	55	4573
2026-01-30 02:00:01.75	320.52	15.60	-42.4	-44.0	17.9	0.00e+00	0	43	0	356515840	55	4587
2026-01-30 02:00:04.72	319.88	15.62	-42.5	-44.1	17.9	0.00e+00	0	43	0	362807296	55	4623
2026-01-30 02:00:08.05	319.16	15.64	-42.8	-44.5	17.6	0.00e+00	0	43	0	369098752	56	4586
2026-01-30 02:00:10.77	318.57	15.66	-42.7	-44.3	17.8	0.00e+00	0	43	0	373293056	56	4487
2026-01-30 02:00:14.06	317.86	15.67	-42.6	-44.2	17.9	0.00e+00	0	43	0	379584512	56	4426
2026-01-30 02:00:16.78	317.27	15.68	-42.5	-44.3	17.9	0.00e+00	0	43	0	384827392	56	4447
2026-01-30 02:00:20.24	316.53	15.68	-42.4	-44.2	17.9	0.00e+00	0	43	0	391118848	56	4405
2026-01-30 02:00:23.25	315.87	15.68	-42.5	-44.2	17.9	0.00e+00	0	43	0	397410304	56	4418
2026-01-30 02:00:26.29	315.22	15.67	-42.6	-44.1	18.0	0.00e+00	0	43	0	402653184	56	4388
2026-01-30 02:00:29.25	314.57	15.67	-42.8	-44.4	17.7	0.00e+00	0	43	0	407896064	56	4538
2026-01-30 02:00:32.40	313.89	15.65	-42.9	-44.5	17.5	0.00e+00	0	43	0	414187520	56	4596
2026-01-30 02:00:35.27	313.27	15.64	-42.7	-44.3	17.8	0.00e+00	0	43	0	419430400	56	4485
2026-01-30 02:00:38.42	312.59	15.62	-42.6	-44.3	17.8	0.00e+00	0	43	0	425721856	56	4469
2026-01-30 02:00:41.31	311.97	15.60	-42.7	-44.4	17.7	0.00e+00	0	43	0	430964736	56	4506
2026-01-30 02:00:44.46	311.29	15.57	-42.7	-44.4	17.7	0.00e+00	0	43	0	437256192	56	4510
2026-01-30 02:00:47.36	310.67	15.54	-42.8	-44.4	17.6	0.00e+00	0	43	0	442499072	56	4533
2026-01-30 02:00:50.65	309.96	15.50	-42.8	-44.5	17.6	0.00e+00	0	43	0	448790528	56	4567
2026-01-30 02:00:53.46	309.36	15.47	-42.7	-44.3	17.7	0.00e+00	0	43	0	454033408	56	4491
2026-01-30 02:00:56.62	308.69	15.42	-42.8	-44.5	17.6	0.00e+00	0	43	0	459276288	56	4548
2026-01-30 02:00:59.48	308.08	15.38	-42.9	-44.6	17.5	0.00e+00	0	43	0	464519168	56	4613
2026-01-30 02:01:02.64	307.41	15.33	-43.0	-44.6	17.5	0.00e+00	0	43	0	470810624	56	4646
2026-01-30 02:01:05.51	306.80	15.28	-42.6	-44.2	17.8	0.00e+00	0	43	0	476053504	56	4430
2026-01-30 02:01:08.66	306.14	15.22	-42.5	-44.0	18.0	0.00e+00	0	43	0	482344960	56	4338
2026-01-30 02:01:11.52	305.54	15.17	-42.6	-44.2	17.9	0.00e+00	0	43	0	487587840	56	4393
2026-01-30 02:01:14.67	304.88	15.10	-42.7	-44.3	17.8	0.00e+00	0	43	0	493879296	56	4473
2026-01-30 02:01:17.56	304.28	15.04	-42.5	-44.1	18.0	0.00e+00	0	43	0	499122176	56	4350
2026-01-30 02:01:20.71	303.63	14.97	-42.6	-44.2	17.9	0.00e+00	0	43	0	504365056	56	4397
2026-01-30 02:01:23.58	303.04	14.90	-42.7	-44.3	17.7	0.00e+00	0	43	0	510656512	56	4469
2026-01-30 02:01:27.10	302.32	14.81	-42.6	-44.1	17.9	0.00e+00	0	43	0	516947968	56	4385
2026-01-30 02:01:30.06	301.71	14.74	-42.6	-44.2	17.8	0.00e+00	0	43	0	522190848	56	4410
2026-01-30 02:01:33.55	301.01	14.64	-43.0	-44.7	17.3	0.00e+00	0	43	0	528482304	56	4679
2026-01-30 02:01:36.27	300.46	14.56	-43.0	-44.6	17.4	0.00e+00	0	43	0	533725184	56	4635
2026-01-30 02:01:39.57	299.80	14.47	-42.8	-44.5	17.5	0.00e+00	0	44	0	540016640	56	4551
2026-01-30 02:01:42.29	299.25	14.39	-43.0	-44.7	17.3	0.00e+00	0	43	0	545259520	56	4705
2026-01-30 02:01:46.00	298.52	14.27	-43.0	-44.7	17.2	0.00e+00	0	43	0	552599552	56	4686
2026-01-30 02:01:48.72	297.99	14.19	-42.8	-44.7	16.4	0.00e+00	0	43	0	556793856	56	4701
2026-01-30 02:01:52.02	297.34	14.08	-43.0	-45.0	16.3	0.00e+00	0	43	0	563085312	56	4861
2026-01-30 02:01:54.74	296.81	13.99	-43.1	-44.8	17.1	0.00e+00	0	44	0	568328192	56	4759
2026-01-30 02:01:58.16	296.15	13.87	-42.8	-44.5	17.5	0.00e+00	0	43	0	574619648	56	4568
2026-01-30 02:02:00.89	295.63	13.77	-42.6	-44.3	17.7	0.00e+00	0	44	0	579862528	56	4443
2026-01-30 02:02:04.18	295.01	13.65	-42.8	-44.5	17.5	0.00e+00	0	43	0	586153984	56	4555
2026-01-30 02:02:06.90	294.50	13.55	-42.9	-44.6	17.4	0.00e+00	0	44	0	591396864	56	4632
2026-01-30 02:02:10.20	293.88	13.43	-42.6	-44.2	17.8	0.00e+00	0	43	0	597688320	56	4416
2026-01-30 02:02:12.92	293.37	13.33	-42.5	-44.0	17.9	0.00e+00	0	43	0	602931200	56	4331
2026-01-30 02:02:16.21	292.77	13.20	-42.5	-44.0	17.9	0.00e+00	0	43	0	609222656	56	4333
2026-01-30 02:02:18.93	292.27	13.09	-42.6	-44.2	17.7	0.00e+00	0	43	0	613416960	56	4418
2026-01-30 02:02:22.23	291.67	12.96	-42.7	-44.3	17.7	0.00e+00	0	43	0	619708416	56	4457
2026-01-30 02:02:24.95	291.19	12.84	-42.6	-44.2	17.7	0.00e+00	0	44	0	624951296	56	4426
2026-01-30 02:02:28.50	290.55	12.70	-42.5	-44.0	17.9	0.00e+00	0	43	0	632291328	56	4306
2026-01-30 02:02:31.45	290.03	12.57	-42.5	-44.1	17.8	0.00e+00	0	43	0	637534208	56	4357
2026-01-30 02:02:35.20	289.38	12.41	-42.8	-44.4	17.5	0.00e+00	0	43	0	644874240	56	4543
2026-01-30 02:02:37.98	288.90	12.29	-43.1	-44.8	17.1	0.00e+00	0	43	0	650117120	56	4731
2026-01-30 02:02:42.06	288.20	12.11	-43.1	-44.9	17.0	0.00e+00	0	44	0	657457152	56	4780
2026-01-30 02:02:44.80	287.74	11.99	-43.3	-45.1	16.8	0.00e+00	0	43	0	662700032	57	4607
2026-01-30 02:02:48.54	287.11	11.82	-43.7	-45.6	16.3	0.00e+00	0	43	0	670040064	57	4902
2026-01-30 02:02:51.44	286.63	11.69	-43.8	-45.8	16.1	0.00e+00	0	43	0	675282944	58	4719
2026-01-30 02:02:55.18	286.01	11.51	-43.8	-45.9	16.1	0.00e+00	0	43	0	681574400	58	4773
2026-01-30 02:02:58.17	285.53	11.37	-44.0	-46.1	15.8	0.00e+00	0	43	0	687865856	58	4922
2026-01-30 02:03:01.18	285.04	11.23	-44.2	-46.4	15.6	0.00e+00	0	43	0	693108736	58	5050
2026-01-30 02:03:04.19	284.56	11.09	-44.4	-46.6	15.3	0.00e+00	0	43	0	698351616	59	4902
2026-01-30 02:03:07.37	284.06	10.94	-44.3	-46.6	15.3	0.00e+00	0	43	0	704643072	59	4908
2026-01-30 02:03:10.38	283.59	10.79	-44.3	-46.5	15.4	0.00e+00	0	43	0	709885952	59	4868
2026-01-30 02:03:13.68	283.08	10.63	-44.6	-47.1	14.8	0.00e+00	0	43	0	716177408	59	5171
2026-01-30 02:03:16.40	282.66	10.50	-44.7	-47.2	14.7	0.00e+00	0	43	0	721420288	60	4965
2026-01-30 02:03:19.71	282.16	10.34	-44.8	-47.3	14.6	0.00e+00	0	43	0	727711744	60	5024
2026-01-30 02:03:22.85	281.69	10.18	-44.7	-47.2	14.7	0.00e+00	0	43	0	734003200	60	4967
2026-01-30 02:03:25.72	281.27	10.04	-44.5	-47.0	14.9	0.00e+00	0	43	0	739246080	60	4854
2026-01-30 02:03:28.87	280.81	9.88	-44.6	-47.1	14.8	0.00e+00	0	43	0	745537536	60	4904
2026-01-30 02:03:31.73	280.39	9.74	-44.7	-47.3	14.5	0.00e+00	0	43	0	750780416	60	5017
2026-01-30 02:03:35.20	279.89	9.57	-44.6	-47.2	14.7	7.00e-07	0	43	0	757071872	60	4972
2026-01-30 02:03:38.17	279.47	9.42	-44.6	-47.2	14.6	0.00e+00	0	43	0	762314752	60	4972
2026-01-30 02:03:41.18	279.05	9.26	-44.6	-47.1	14.8	0.00e+00	0	44	0	768606208	60	4901
2026-01-30 02:03:44.15	278.63	9.11	-44.5	-46.9	14.9	0.00e+00	0	43	0	773849088	60	4804
2026-01-30 02:03:47.30	278.20	8.95	-48.6	-62.9	3.8	8.48e-02	0	43	104	779091968	67	20103
2026-01-30 02:03:50.17	277.81	8.80	-48.7	-63.0	3.8	1.49e+00	0	43	104	779091968	68	19294
2026-01-30 02:03:53.33	277.38	8.64	-48.7	-63.0	3.8	1.49e+00	0	43	104	779091968	68	19289
2026-01-30 02:03:56.20	277.00	8.49	-48.7	-63.0	3.8	1.49e+00	0	43	104	779091968	68	19287
2026-01-30 02:03:59.36	276.59	8.33	-48.7	-63.0	3.8	1.49e+00	0	43	104	779091968	68	19333
2026-01-30 02:04:02.23	276.21	8.18	-48.7	-63.0	3.8	1.49e+00	0	43	104	779091968	68	19240
2026-01-30 02:04:05.38	275.81	8.02	-48.7	-63.0	3.8	1.49e+00	0	43	104	779091968	68	19278
2026-01-30 02:04:08.25	275.44	7.87	-48.7	-63.0	3.8	1.49e+00	0	44	104	779091968	68	19308
2026-01-30 02:04:11.41	275.04	7.70	-48.7	-63.0	3.8	1.49e+00	0	43	104	779091968	68	19267
2026-01-30 02:04:14.28	274.68	7.55	-48.7	-63.0	3.8	1.49e+00	0	43	104	779091968	68	19298
2026-01-30 02:04:17.44	274.29	7.39	-48.7	-63.0	3.8	1.49e+00	0	44	104	779091968	68	19283
2026-01-30 02:04:20.31	273.94	7.24	-48.7	-63.0	3.8	1.49e+00	0	44	104	779091968	68	19291
2026-01-30 02:04:23.47	273.56	7.07	-48.7	-63.0	3.8	1.49e+00	0	43	104	779091968	68	19326
2026-01-30 02:04:26.34	273.22	6.92	-48.7	-63.0	3.8	1.49e+00	0	44	104	779091968	68	19385
2026-01-30 02:04:29.49	272.85	6.76	-48.7	-63.0	3.8	1.49e+00	0	43	104	779091968	68	19298
2026-01-30 02:04:32.36	272.51	6.61	-48.7	-63.0	3.8	1.49e+00	0	43	104	779091968	68	19333
2026-01-30 02:04:35.52	272.15	6.44	-48.7	-63.0	3.8	1.49e+00	0	43	104	779091968	68	19231
2026-01-30 02:04:38.39	271.82	6.29	-48.7	-63.0	3.8	1.49e+00	0	43	104	779091968	68	19245
2026-01-30 02:04:41.54	271.46	6.13	-48.7	-63.0	3.8	1.49e+00	0	43	104	779091968	68	19266
2026-01-30 02:04:44.41	271.14	5.98	-48.7	-63.0	3.8	1.49e+00	0	44	104	779091968	68	19245
2026-01-30 02:04:47.57	270.79	5.81	-48.7	-63.0	3.8	1.49e+00	0	43	104	779091968	68	19342
2026-01-30 02:04:50.44	270.48	5.66	-48.7	-63.0	3.8	1.49e+00	0	44	104	779091968	68	19331
2026-01-30 02:04:53.60	270.14	5.50	-48.7	-63.0	3.8	1.49e+00	0	44	104	779091968	68	19258
2026-01-30 02:04:56.47	269.83	5.35	-48.7	-63.0	3.8	1.49e+00	0	43	104	779091968	68	19315
2026-01-30 02:04:59.62	269.50	5.18	-48.7	-62.9	3.8	1.49e+00	0	43	104	779091968	68	19161
2026-01-30 02:05:02.49	269.20	5.03	-48.7	-63.0	3.8	1.49e+00	0	44	104	779091968	68	19215

#Closed at: 2026-01-30 02:05:04
#Recorded file [779 MB]: D:/Data/31040_260130_045540.dat