passes_logs/2026/01/30/T1/T1__20260130_001446_NOAA_20_JPSS-1_rec.log

#Pass ID: 20260130_001446_NOAA 20 (JPSS-1)
#Satellite: NOAA 20 (JPSS-1)
#Configuration: NOAA 20
#almurnet v.1.7.20251203
#Start time: 2026-01-30 00:14:45

#Version: 2.0.20230620
#Station: T1
#Location: 37.570604 lon 55.790049 lat
#TLE: 1 43013U 17073A   26028.86313978  .00000144  00000+0  89200-4 0  9993
#TLE: 2 43013  98.7648 329.6571 0000891  20.0014 340.1197 14.19541559424709

#Time	Az	El	Level	Level2	SNR	BER	BlckErr	Temp	State	Recorded	gain1	gain2
2026-01-30 00:14:45.85	12.92	4.96	-49.3	-63.8	3.8	1.49e+00	0	38	0	0	70	18861
2026-01-30 00:14:48.86	12.84	5.17	-49.8	-63.9	3.8	1.49e+00	0	38	104	0	71	18000
2026-01-30 00:14:51.87	12.77	5.38	-49.8	-63.9	3.8	1.49e+00	0	38	104	0	71	17987
2026-01-30 00:14:54.88	12.69	5.60	-49.7	-63.8	3.8	1.49e+00	0	38	104	0	70	18919
2026-01-30 00:14:57.89	12.61	5.81	-49.6	-63.8	3.8	1.49e+00	0	39	104	0	70	18783
2026-01-30 00:15:00.91	12.52	6.03	-49.3	-63.7	3.8	1.49e+00	0	38	104	0	70	18535
2026-01-30 00:15:03.92	12.44	6.25	-49.0	-63.6	3.8	1.49e+00	0	39	104	0	68	20712
2026-01-30 00:15:06.93	12.36	6.48	-49.2	-63.5	3.8	1.49e+00	0	39	104	0	68	20373
2026-01-30 00:15:09.95	12.27	6.70	-48.0	-62.5	3.8	1.49e+00	0	39	104	0	67	19179
2026-01-30 00:15:12.96	12.18	6.93	-47.9	-61.8	3.8	1.49e+00	0	39	104	0	67	17688
2026-01-30 00:15:15.97	12.09	7.15	-47.9	-61.3	3.8	1.49e+00	0	39	104	0	67	16710
2026-01-30 00:15:18.99	12.00	7.38	-47.9	-61.0	3.9	1.49e+00	0	39	104	0	67	16303
2026-01-30 00:15:22.00	11.91	7.61	-47.9	-60.8	3.8	1.48e+00	0	39	104	0	67	15864
2026-01-30 00:15:25.01	11.81	7.85	-47.8	-59.7	4.1	1.41e+00	0	39	0	0	67	13983
2026-01-30 00:15:28.03	11.72	8.08	-47.5	-56.8	5.5	5.49e-01	0	40	0	4194304	67	9980
2026-01-30 00:15:31.04	11.62	8.32	-46.9	-53.4	8.4	5.80e-02	0	39	0	9437184	65	7552
2026-01-30 00:15:34.05	11.52	8.56	-46.2	-51.2	10.8	3.66e-03	0	40	0	14680064	64	6206
2026-01-30 00:15:37.07	11.42	8.80	-45.9	-50.2	11.8	5.84e-04	0	40	0	20971520	63	5894
2026-01-30 00:15:40.08	11.31	9.05	-46.2	-51.1	10.9	1.93e-03	0	40	0	26214400	63	6495
2026-01-30 00:15:43.09	11.21	9.30	-47.4	-56.1	6.0	5.36e-03	0	40	0	31457280	65	10310
2026-01-30 00:15:46.16	11.10	9.55	-42.9	-45.1	17.0	0.00e+00	0	40	0	37748736	57	4607
2026-01-30 00:15:49.03	11.00	9.79	-42.6	-44.7	17.4	0.00e+00	0	40	0	42991616	57	4392
2026-01-30 00:15:52.08	10.88	10.05	-42.3	-44.1	17.9	0.00e+00	0	40	0	49283072	56	4383
2026-01-30 00:15:55.23	10.76	10.31	-41.7	-43.5	18.4	0.00e+00	0	40	0	54525952	55	4317
2026-01-30 00:15:58.15	10.65	10.57	-41.7	-43.5	18.4	0.00e+00	0	40	0	59768832	55	4297
2026-01-30 00:16:01.43	10.52	10.85	-41.6	-43.3	18.6	0.00e+00	0	40	0	66060288	55	4235
2026-01-30 00:16:04.15	10.41	11.09	-41.5	-43.1	18.9	0.00e+00	0	40	0	71303168	54	4353
2026-01-30 00:16:08.16	10.25	11.45	-41.6	-43.2	18.7	0.00e+00	0	40	0	78643200	54	4440
2026-01-30 00:16:10.92	10.13	11.69	-41.6	-43.2	18.8	0.00e+00	0	40	0	83886080	54	4416
2026-01-30 00:16:14.99	9.96	12.06	-41.8	-43.4	18.6	0.00e+00	0	40	0	92274688	54	4534
2026-01-30 00:16:17.73	9.84	12.32	-41.4	-43.0	19.0	0.00e+00	0	40	0	96468992	54	4300
2026-01-30 00:16:21.49	9.67	12.67	-41.4	-42.8	19.2	0.00e+00	0	40	0	103809024	54	4233
2026-01-30 00:16:24.26	9.54	12.93	-41.6	-43.1	18.8	0.00e+00	0	40	0	109051904	54	4372
2026-01-30 00:16:28.00	9.36	13.29	-41.5	-42.9	19.1	0.00e+00	0	40	0	116391936	54	4277
2026-01-30 00:16:30.80	9.23	13.56	-41.3	-42.8	19.2	0.00e+00	0	40	0	121634816	54	4195
2026-01-30 00:16:34.56	9.04	13.92	-41.3	-42.8	19.2	0.00e+00	0	40	0	128974848	54	4195
2026-01-30 00:16:37.31	8.91	14.20	-41.3	-42.7	19.3	0.00e+00	0	41	0	133169152	54	4184
2026-01-30 00:16:41.05	8.71	14.57	-41.4	-42.8	19.2	0.00e+00	0	40	0	140509184	54	4222
2026-01-30 00:16:44.11	8.55	14.88	-41.4	-42.8	19.2	0.00e+00	0	40	0	146800640	54	4221
2026-01-30 00:16:47.28	8.38	15.21	-41.6	-43.0	19.1	0.00e+00	0	40	0	152043520	54	4322
2026-01-30 00:16:50.58	8.20	15.55	-41.4	-42.8	19.2	0.00e+00	0	40	0	158334976	54	4234
2026-01-30 00:16:53.30	8.04	15.84	-41.4	-42.8	19.2	0.00e+00	0	41	0	163577856	54	4229
2026-01-30 00:16:56.60	7.85	16.19	-41.5	-42.9	19.2	0.00e+00	0	41	0	169869312	54	4254
2026-01-30 00:16:59.71	7.66	16.53	-41.4	-42.8	19.3	0.00e+00	0	40	0	176160768	54	4212
2026-01-30 00:17:02.86	7.47	16.87	-41.3	-42.6	19.4	0.00e+00	0	41	0	181403648	54	4136
2026-01-30 00:17:05.75	7.29	17.19	-41.4	-42.8	19.3	0.00e+00	0	41	0	186646528	54	4195
2026-01-30 00:17:09.03	7.08	17.56	-41.4	-42.8	19.3	0.00e+00	0	41	0	192937984	54	4213
2026-01-30 00:17:11.76	6.90	17.87	-41.4	-42.7	19.4	0.00e+00	0	40	0	198180864	54	4178
2026-01-30 00:17:15.05	6.68	18.25	-41.6	-42.9	19.2	0.00e+00	0	40	0	204472320	54	4271
2026-01-30 00:17:17.89	6.49	18.58	-41.5	-42.8	19.3	0.00e+00	0	40	0	209715200	54	4211
2026-01-30 00:17:21.34	6.25	18.99	-41.6	-42.9	19.2	0.00e+00	0	40	0	216006656	54	4276
2026-01-30 00:17:24.06	6.05	19.32	-41.3	-42.7	19.4	0.00e+00	0	41	0	221249536	54	4158
2026-01-30 00:17:27.35	5.81	19.72	-41.4	-42.7	19.4	0.00e+00	0	41	0	227540992	54	4189
2026-01-30 00:17:30.07	5.60	20.06	-41.3	-42.7	19.4	0.00e+00	0	41	0	232783872	54	4182
2026-01-30 00:17:33.47	5.33	20.48	-41.3	-42.8	19.4	0.00e+00	0	41	0	239075328	54	4196
2026-01-30 00:17:36.47	5.09	20.86	-41.2	-42.6	19.6	0.00e+00	0	41	0	244318208	54	4102
2026-01-30 00:17:39.50	4.84	21.25	-41.1	-42.4	19.7	0.00e+00	0	41	0	250609664	54	4028
2026-01-30 00:17:42.51	4.59	21.65	-41.1	-42.4	19.7	0.00e+00	0	41	0	255852544	54	4026
2026-01-30 00:17:45.75	4.31	22.08	-41.2	-42.5	19.7	0.00e+00	0	41	0	262144000	54	4075
2026-01-30 00:17:48.64	4.05	22.47	-41.4	-42.7	19.6	0.00e+00	0	41	0	267386880	54	4146
2026-01-30 00:17:51.80	3.76	22.90	-41.5	-42.8	19.4	0.00e+00	0	41	0	273678336	54	4221
2026-01-30 00:17:54.66	3.49	23.29	-41.6	-42.9	19.2	0.00e+00	0	41	0	278921216	54	4291
2026-01-30 00:17:57.81	3.18	23.73	-41.7	-43.0	19.2	0.00e+00	0	41	0	284164096	54	4334
2026-01-30 00:18:00.68	2.90	24.14	-41.8	-43.1	19.1	0.00e+00	0	41	0	290455552	54	4377
2026-01-30 00:18:04.02	2.56	24.63	-41.9	-43.3	18.9	0.00e+00	0	41	0	296747008	54	4475
2026-01-30 00:18:06.95	2.24	25.06	-42.2	-43.7	18.6	0.00e+00	0	41	0	301989888	55	4399
2026-01-30 00:18:10.24	1.89	25.55	-42.6	-44.2	18.1	0.00e+00	0	41	0	308281344	55	4655
2026-01-30 00:18:12.96	1.58	25.96	-43.1	-44.7	17.7	0.00e+00	0	41	0	313524224	56	4704
2026-01-30 00:18:16.29	1.20	26.47	-43.4	-45.1	17.4	0.00e+00	0	41	0	318767104	57	4607
2026-01-30 00:18:19.02	0.87	26.89	-43.5	-45.3	17.2	0.00e+00	0	41	0	324009984	57	4727
2026-01-30 00:18:22.39	0.45	27.42	-43.7	-45.5	16.9	0.00e+00	0	41	0	330301440	58	4594
2026-01-30 00:18:25.12	0.11	27.86	-43.9	-45.8	16.7	0.00e+00	0	41	0	335544320	58	4728
2026-01-30 00:18:28.65	359.65	28.44	-44.2	-46.1	16.3	0.00e+00	0	41	0	342884352	59	4644
2026-01-30 00:18:31.47	359.26	28.90	-44.5	-46.6	15.9	0.00e+00	0	41	0	348127232	59	4900
2026-01-30 00:18:34.77	358.80	29.46	-44.4	-46.6	15.9	0.00e+00	0	41	0	353370112	59	4891
2026-01-30 00:18:37.50	358.41	29.92	-44.3	-46.4	16.1	0.00e+00	0	41	0	358612992	59	4784
2026-01-30 00:18:40.79	357.91	30.49	-44.3	-46.4	16.2	0.00e+00	0	41	0	364904448	59	4775
2026-01-30 00:18:43.60	357.48	30.98	-44.3	-46.4	16.2	0.00e+00	0	41	0	370147328	59	4771
2026-01-30 00:18:46.76	356.97	31.54	-44.0	-45.9	16.6	0.00e+00	0	41	0	376438784	59	4510
2026-01-30 00:18:49.66	356.49	32.06	-44.0	-45.8	16.7	0.00e+00	0	41	0	381681664	59	4482
2026-01-30 00:18:52.81	355.96	32.64	-44.0	-45.9	16.7	0.00e+00	0	41	0	387973120	59	4497
2026-01-30 00:18:55.73	355.44	33.18	-44.0	-46.1	16.5	0.00e+00	0	41	0	393216000	59	4614
2026-01-30 00:18:59.18	354.80	33.83	-43.7	-45.8	16.7	0.00e+00	0	41	0	399507456	59	4464
2026-01-30 00:19:01.90	354.28	34.34	-43.8	-45.7	16.9	0.00e+00	0	41	0	404750336	59	4414
2026-01-30 00:19:05.19	353.63	34.98	-44.2	-46.2	16.4	0.00e+00	0	41	0	411041792	59	4677
2026-01-30 00:19:08.00	353.06	35.53	-44.7	-46.8	15.8	0.00e+00	0	41	0	416284672	59	5041
2026-01-30 00:19:11.15	352.39	36.15	-45.1	-47.6	15.0	0.00e+00	0	41	0	422576128	60	5173
2026-01-30 00:19:14.07	351.74	36.73	-45.1	-47.6	15.0	7.00e-07	0	41	0	427819008	60	5166
2026-01-30 00:19:17.40	350.98	37.40	-45.1	-47.8	14.8	0.00e+00	0	41	0	434110464	61	5007
2026-01-30 00:19:20.33	350.28	38.00	-44.7	-47.3	15.2	0.00e+00	0	41	0	439353344	61	4756
2026-01-30 00:19:23.75	349.42	38.70	-44.8	-47.4	15.2	0.00e+00	0	41	0	445644800	60	5049
2026-01-30 00:19:26.47	348.72	39.27	-45.3	-47.8	14.7	0.00e+00	0	41	0	450887680	61	4999
2026-01-30 00:19:29.77	347.83	39.96	-45.4	-47.8	14.8	0.00e+00	0	41	0	457179136	61	5027
2026-01-30 00:19:32.55	347.05	40.55	-45.6	-48.2	14.4	0.00e+00	0	41	0	462422016	61	5262
2026-01-30 00:19:36.09	346.02	41.30	-45.3	-48.1	14.5	0.00e+00	0	41	0	468713472	62	4888
2026-01-30 00:19:38.81	345.19	41.88	-44.8	-47.3	15.3	0.00e+00	0	41	0	473956352	61	4719
2026-01-30 00:19:42.07	344.16	42.58	-44.3	-46.3	16.3	0.00e+00	0	41	0	480247808	60	4488
2026-01-30 00:19:45.18	343.13	43.25	-44.1	-46.0	16.5	0.00e+00	0	41	0	485490688	60	4338
2026-01-30 00:19:48.22	342.08	43.91	-43.8	-45.7	16.8	0.00e+00	0	41	0	491782144	59	4424
2026-01-30 00:19:51.45	340.91	44.61	-43.8	-45.8	16.8	0.00e+00	0	41	0	498073600	59	4465
2026-01-30 00:19:54.31	339.84	45.22	-44.2	-46.3	16.2	0.00e+00	0	41	0	503316480	59	4729
2026-01-30 00:19:57.47	338.60	45.90	-44.6	-46.7	15.8	0.00e+00	0	41	0	508559360	59	4976
2026-01-30 00:20:00.33	337.44	46.51	-44.7	-46.8	15.7	0.00e+00	0	41	0	514850816	60	4758
2026-01-30 00:20:03.48	336.10	47.17	-44.6	-46.7	15.9	0.00e+00	0	41	0	520093696	60	4683
2026-01-30 00:20:06.37	334.82	47.78	-44.9	-47.2	15.4	0.00e+00	0	41	0	525336576	60	4960
2026-01-30 00:20:09.67	333.29	48.46	-45.2	-47.7	14.9	0.00e+00	0	41	0	531628032	61	4937
2026-01-30 00:20:12.61	331.88	49.05	-44.7	-47.1	15.6	0.00e+00	0	41	0	536870912	61	4615
2026-01-30 00:20:16.14	330.11	49.75	-43.9	-45.8	16.7	0.00e+00	0	41	0	544210944	59	4470
2026-01-30 00:20:19.35	328.42	50.37	-43.7	-45.4	17.2	0.00e+00	0	41	0	550502400	59	4265
2026-01-30 00:20:22.56	326.67	50.97	-42.8	-44.3	18.2	0.00e+00	0	41	0	555745280	57	4237
2026-01-30 00:20:25.43	325.04	51.49	-41.6	-42.9	19.4	0.00e+00	0	41	0	560988160	55	4045
2026-01-30 00:20:28.58	323.19	52.03	-41.5	-42.8	19.5	0.00e+00	0	41	0	567279616	54	4209
2026-01-30 00:20:31.73	321.27	52.55	-41.5	-42.7	19.6	0.00e+00	0	41	0	573571072	54	4190
2026-01-30 00:20:34.59	319.47	53.00	-41.1	-42.2	20.0	0.00e+00	0	41	0	578813952	54	3958
2026-01-30 00:20:37.74	317.43	53.46	-41.7	-43.0	19.4	0.00e+00	0	41	0	584056832	53	4546
2026-01-30 00:20:40.61	315.51	53.85	-42.4	-43.8	18.5	0.00e+00	0	41	0	590348288	55	4476
2026-01-30 00:20:43.75	313.35	54.24	-42.9	-44.5	18.1	0.00e+00	0	41	0	595591168	56	4546
2026-01-30 00:20:46.62	311.33	54.56	-42.4	-43.8	18.7	0.00e+00	0	41	0	600834048	56	4216
2026-01-30 00:20:49.79	309.04	54.88	-41.1	-42.3	20.0	0.00e+00	0	41	0	607125504	54	3981
2026-01-30 00:20:52.65	306.94	55.13	-41.6	-42.8	19.6	0.00e+00	0	41	0	612368384	54	4230
2026-01-30 00:20:56.14	304.32	55.38	-40.9	-42.1	20.2	0.00e+00	0	41	0	618659840	53	4125
2026-01-30 00:20:58.86	302.26	55.53	-40.7	-41.8	20.5	0.00e+00	0	41	0	623902720	53	3992
2026-01-30 00:21:02.15	299.73	55.67	-40.3	-41.3	20.9	0.00e+00	0	41	0	630194176	52	3988
2026-01-30 00:21:04.87	297.63	55.74	-40.3	-41.4	20.9	0.00e+00	0	41	0	635437056	52	4017
2026-01-30 00:21:08.17	295.07	55.77	-40.1	-41.1	21.2	0.00e+00	0	41	0	641728512	51	4137
2026-01-30 00:21:10.89	292.95	55.76	-40.2	-41.2	21.0	0.00e+00	0	41	0	646971392	51	4160
2026-01-30 00:21:14.19	290.39	55.70	-40.5	-41.6	20.7	0.00e+00	0	41	0	653262848	51	4380
2026-01-30 00:21:17.15	288.11	55.59	-41.0	-42.2	20.1	0.00e+00	0	41	0	658505728	52	4418
2026-01-30 00:21:20.52	285.54	55.41	-40.3	-41.4	20.9	0.00e+00	0	41	0	664797184	52	4009
2026-01-30 00:21:23.27	283.47	55.23	-39.8	-40.7	21.5	0.00e+00	0	41	0	670040064	51	3951
2026-01-30 00:21:26.69	280.94	54.95	-39.0	-39.9	22.2	0.00e+00	0	41	0	676331520	49	4039
2026-01-30 00:21:29.46	278.93	54.68	-39.1	-39.9	22.2	0.00e+00	0	41	0	681574400	49	4050
2026-01-30 00:21:32.76	276.58	54.33	-38.8	-39.7	22.4	0.00e+00	0	41	0	687865856	49	3932
2026-01-30 00:21:35.48	274.69	54.00	-39.6	-40.6	21.7	0.00e+00	0	41	0	693108736	49	4350
2026-01-30 00:21:38.78	272.46	53.56	-40.3	-41.4	20.9	0.00e+00	0	41	0	699400192	51	4246
2026-01-30 00:21:41.60	270.61	53.15	-40.7	-41.8	20.4	0.00e+00	0	41	0	704643072	52	4234
2026-01-30 00:21:44.75	268.60	52.67	-41.6	-42.9	19.4	0.00e+00	0	41	0	709885952	54	4251
2026-01-30 00:21:47.62	266.83	52.21	-41.3	-42.6	19.7	0.00e+00	0	41	0	715128832	54	4109
2026-01-30 00:21:50.77	264.96	51.67	-41.9	-43.2	19.2	0.00e+00	0	41	0	721420288	54	4392
2026-01-30 00:21:53.63	263.31	51.16	-41.7	-43.0	19.3	0.00e+00	0	41	0	726663168	54	4315
2026-01-30 00:21:57.15	261.36	50.50	-42.0	-43.4	19.0	0.00e+00	0	41	0	732954624	54	4510
2026-01-30 00:21:59.88	259.91	49.98	-43.4	-45.1	17.4	0.00e+00	0	42	0	738197504	57	4642
2026-01-30 00:22:03.18	258.22	49.33	-43.3	-44.9	17.6	0.00e+00	0	41	0	744488960	57	4536
2026-01-30 00:22:05.90	256.88	48.79	-43.8	-45.6	16.9	0.00e+00	0	41	0	749731840	58	4643
2026-01-30 00:22:09.19	255.32	48.11	-45.3	-47.8	14.8	0.00e+00	0	41	0	756023296	61	4997
2026-01-30 00:22:11.91	254.09	47.54	-45.6	-48.4	14.2	0.00e+00	0	41	0	761266176	62	5071
2026-01-30 00:22:15.21	252.65	46.85	-45.6	-48.2	14.3	1.50e-06	0	41	0	767557632	62	4978
2026-01-30 00:22:18.00	251.48	46.26	-46.0	-49.0	13.6	7.60e-06	0	41	0	772800512	62	5407
2026-01-30 00:22:21.62	250.03	45.48	-45.2	-47.7	14.9	7.00e-07	0	41	0	779091968	62	4666
2026-01-30 00:22:24.35	248.98	44.89	-45.0	-47.3	15.4	0.00e+00	0	41	0	784334848	61	4712
2026-01-30 00:22:27.64	247.77	44.18	-44.4	-46.5	16.1	0.00e+00	0	41	0	790626304	60	4550
2026-01-30 00:22:30.37	246.80	43.59	-44.0	-45.9	16.7	0.00e+00	0	41	0	795869184	60	4263
2026-01-30 00:22:33.66	245.69	42.88	-44.4	-46.4	16.2	0.00e+00	0	41	0	802160640	60	4543
2026-01-30 00:22:36.38	244.80	42.29	-44.3	-46.3	16.3	0.00e+00	0	41	0	807403520	60	4451
2026-01-30 00:22:39.72	243.75	41.57	-44.7	-46.9	15.7	0.00e+00	0	41	0	813694976	60	4798
2026-01-30 00:22:42.74	242.85	40.92	-45.2	-47.7	14.8	7.00e-07	0	41	0	818937856	61	4976
2026-01-30 00:22:45.75	241.98	40.28	-45.7	-48.6	13.9	7.00e-07	0	41	0	824180736	62	5179
2026-01-30 00:22:48.76	241.15	39.65	-45.3	-47.8	14.8	7.00e-07	0	41	0	830472192	62	4718
2026-01-30 00:22:51.76	240.35	39.02	-45.1	-47.5	15.0	0.00e+00	0	41	0	835715072	61	4830
2026-01-30 00:22:54.77	239.58	38.39	-45.5	-48.2	14.4	0.00e+00	0	41	0	840957952	61	5232
2026-01-30 00:22:57.78	238.84	37.77	-45.0	-47.3	15.1	0.00e+00	0	41	0	847249408	61	4749
2026-01-30 00:23:00.75	238.13	37.16	-44.7	-46.9	15.7	0.00e+00	0	41	0	852492288	61	4505
2026-01-30 00:23:03.85	237.43	36.54	-44.5	-46.6	16.0	0.00e+00	0	41	0	858783744	60	4608
2026-01-30 00:23:07.00	236.74	35.91	-44.8	-47.1	15.4	0.00e+00	0	41	0	864026624	60	4884
2026-01-30 00:23:09.86	236.13	35.34	-44.3	-46.3	16.1	0.00e+00	0	41	0	869269504	60	4487
2026-01-30 00:23:13.02	235.49	34.72	-44.1	-46.1	16.3	0.00e+00	0	41	0	875560960	60	4364
2026-01-30 00:23:15.88	234.92	34.17	-44.6	-47.0	15.5	0.00e+00	0	41	0	880803840	60	4819
2026-01-30 00:23:19.19	234.29	33.54	-44.8	-47.2	15.3	0.00e+00	0	41	0	887095296	60	4958
2026-01-30 00:23:21.91	233.80	33.03	-44.8	-47.3	15.1	0.00e+00	0	41	0	892338176	60	5034
2026-01-30 00:23:25.24	233.21	32.42	-44.6	-47.0	15.5	0.00e+00	0	41	0	898629632	60	4826
2026-01-30 00:23:28.15	232.71	31.88	-44.0	-46.2	16.3	0.00e+00	0	41	0	903872512	60	4396
2026-01-30 00:23:31.81	232.11	31.22	-44.1	-46.3	16.1	0.00e+00	0	42	0	911212544	59	4710
2026-01-30 00:23:34.59	231.67	30.73	-44.4	-46.6	15.8	0.00e+00	0	42	0	916455424	59	4907
2026-01-30 00:23:38.18	231.12	30.10	-44.1	-46.1	16.3	0.00e+00	0	41	0	922746880	59	4641
2026-01-30 00:23:41.16	230.68	29.59	-44.0	-46.0	16.4	0.00e+00	0	42	0	927989760	59	4567
2026-01-30 00:23:44.45	230.21	29.03	-43.9	-45.8	16.6	0.00e+00	0	42	0	934281216	59	4462
2026-01-30 00:23:47.45	229.80	28.53	-43.5	-45.2	17.2	0.00e+00	0	41	0	940572672	58	4407
2026-01-30 00:23:50.46	229.39	28.04	-43.5	-45.2	17.1	0.00e+00	0	42	0	945815552	58	4433
2026-01-30 00:23:53.47	229.00	27.55	-43.2	-44.9	17.5	0.00e+00	0	41	0	951058432	58	4256
2026-01-30 00:23:56.48	228.62	27.07	-43.4	-45.1	17.2	0.00e+00	0	42	0	957349888	58	4386
2026-01-30 00:23:59.49	228.26	26.59	-43.4	-45.2	17.2	0.00e+00	0	42	0	962592768	58	4394
2026-01-30 00:24:02.50	227.90	26.13	-43.3	-45.0	17.3	0.00e+00	0	42	0	968884224	58	4318
2026-01-30 00:24:05.51	227.56	25.67	-43.3	-45.0	17.1	0.00e+00	0	42	0	974127104	58	4326
2026-01-30 00:24:08.54	227.22	25.21	-43.4	-45.2	17.2	0.00e+00	0	42	0	979369984	58	4404
2026-01-30 00:24:11.55	226.89	24.76	-43.5	-45.2	17.1	0.00e+00	0	42	0	985661440	58	4431
2026-01-30 00:24:14.95	226.53	24.27	-43.3	-45.0	17.3	0.00e+00	0	42	0	991952896	58	4336
2026-01-30 00:24:17.90	226.23	23.84	-43.0	-44.7	17.6	0.00e+00	0	42	0	997195776	58	4169
2026-01-30 00:24:21.19	225.91	23.38	-42.7	-44.2	18.1	0.00e+00	0	42	0	1003487232	57	4173
2026-01-30 00:24:23.92	225.65	22.99	-42.8	-44.3	17.9	0.00e+00	0	41	0	1008730112	57	4235
2026-01-30 00:24:27.21	225.34	22.54	-43.1	-44.8	17.5	0.00e+00	0	41	0	1015021568	57	4454
2026-01-30 00:24:30.00	225.08	22.16	-43.1	-44.8	17.5	0.00e+00	0	41	0	1020264448	57	4451
2026-01-30 00:24:33.29	224.79	21.72	-43.0	-44.6	17.7	0.00e+00	0	42	0	1026555904	57	4353
2026-01-30 00:24:36.09	224.55	21.35	-42.8	-44.4	17.8	0.00e+00	0	42	0	1031798784	57	4270
2026-01-30 00:24:39.54	224.26	20.90	-43.0	-44.6	17.7	0.00e+00	0	41	0	1038090240	57	4346
2026-01-30 00:24:42.26	224.04	20.55	-43.2	-44.9	17.4	0.00e+00	0	41	0	1043333120	57	4499
2026-01-30 00:24:45.77	223.76	20.11	-43.4	-45.2	17.1	0.00e+00	0	41	0	1049624576	57	4653
2026-01-30 00:24:48.50	223.54	19.77	-43.4	-45.1	17.1	0.00e+00	0	41	0	1054867456	57	4641
2026-01-30 00:24:51.79	223.29	19.36	-43.1	-44.8	17.4	0.00e+00	0	41	0	1061158912	57	4473
2026-01-30 00:24:54.55	223.09	19.03	-42.6	-44.2	18.0	0.00e+00	0	42	0	1066401792	57	4166
2026-01-30 00:24:57.84	222.85	18.64	-42.4	-43.9	18.3	0.00e+00	0	41	0	1072693248	56	4245
2026-01-30 00:25:00.70	222.65	18.30	-42.5	-44.0	18.2	0.00e+00	0	42	0	1077936128	56	4331
2026-01-30 00:25:03.85	222.44	17.93	-42.8	-44.4	17.8	0.00e+00	0	41	0	1083179008	56	4500
2026-01-30 00:25:06.72	222.24	17.60	-43.0	-44.7	17.5	0.00e+00	0	41	0	1088421888	56	4684
2026-01-30 00:25:10.02	222.03	17.23	-43.1	-44.8	17.3	0.00e+00	0	42	0	1094713344	57	4482
2026-01-30 00:25:12.95	221.84	16.90	-43.1	-44.8	17.4	0.00e+00	0	41	0	1101004800	57	4467
2026-01-30 00:25:16.24	221.64	16.53	-43.2	-44.9	17.3	0.00e+00	0	41	0	1106247680	57	4511
2026-01-30 00:25:18.96	221.47	16.24	-43.2	-45.0	17.2	0.00e+00	0	42	0	1111490560	57	4570
2026-01-30 00:25:22.47	221.26	15.86	-43.3	-45.2	17.0	0.00e+00	0	41	0	1118830592	57	4653
2026-01-30 00:25:25.27	221.10	15.56	-43.4	-45.3	16.9	0.00e+00	0	42	0	1124073472	57	4706
2026-01-30 00:25:28.56	220.91	15.22	-43.6	-45.5	16.6	0.00e+00	0	41	0	1129316352	57	4841
2026-01-30 00:25:31.29	220.76	14.93	-43.6	-45.5	16.6	0.00e+00	0	41	0	1134559232	57	4850
2026-01-30 00:25:34.58	220.58	14.59	-43.6	-45.6	16.5	0.00e+00	0	41	0	1140850688	57	4886
2026-01-30 00:25:37.31	220.43	14.32	-43.5	-45.5	16.7	0.00e+00	0	42	0	1146093568	58	4547
2026-01-30 00:25:40.60	220.26	13.99	-43.5	-45.4	16.7	0.00e+00	0	41	0	1152385024	58	4534
2026-01-30 00:25:43.69	220.11	13.68	-43.6	-45.4	16.7	0.00e+00	0	42	0	1158676480	58	4545
2026-01-30 00:25:46.56	219.96	13.40	-43.5	-45.4	16.7	0.00e+00	0	41	0	1163919360	58	4528
2026-01-30 00:25:49.71	219.81	13.10	-43.6	-45.5	16.5	0.00e+00	0	41	0	1169162240	58	4595
2026-01-30 00:25:52.65	219.67	12.82	-43.6	-45.5	16.6	0.00e+00	0	41	0	1175453696	58	4558
2026-01-30 00:25:55.66	219.53	12.53	-43.7	-45.7	16.3	0.00e+00	0	42	0	1180696576	58	4677
2026-01-30 00:25:58.67	219.39	12.25	-43.7	-45.6	16.4	0.00e+00	0	42	0	1185939456	58	4636
2026-01-30 00:26:01.68	219.25	11.97	-43.7	-45.7	16.4	0.00e+00	0	42	0	1192230912	58	4670
2026-01-30 00:26:04.65	219.12	11.70	-43.6	-45.6	16.5	0.00e+00	0	41	0	1197473792	58	4603
2026-01-30 00:26:07.80	218.98	11.41	-43.7	-45.7	16.3	0.00e+00	0	42	0	1203765248	58	4677
2026-01-30 00:26:10.83	218.85	11.14	-43.8	-45.7	16.2	0.00e+00	0	42	0	1209008128	58	4700
2026-01-30 00:26:13.98	218.72	10.86	-43.8	-45.9	16.1	0.00e+00	0	41	0	1215299584	58	4776
2026-01-30 00:26:16.85	218.61	10.61	-43.9	-46.0	15.9	0.00e+00	0	41	0	1220542464	58	4869
2026-01-30 00:26:20.00	218.48	10.34	-43.9	-46.2	15.8	0.00e+00	0	42	0	1225785344	58	4930
2026-01-30 00:26:22.86	218.37	10.09	-44.0	-46.3	15.6	0.00e+00	0	42	0	1232076800	58	5036
2026-01-30 00:26:26.01	218.25	9.82	-44.0	-46.5	15.4	0.00e+00	0	42	0	1237319680	58	5114
2026-01-30 00:26:28.87	218.14	9.58	-44.1	-46.5	15.4	0.00e+00	0	41	0	1242562560	58	5154
2026-01-30 00:26:32.03	218.02	9.32	-44.1	-46.6	15.3	7.00e-07	0	41	0	1248854016	59	4877
2026-01-30 00:26:34.94	217.91	9.08	-44.1	-46.6	15.3	0.00e+00	0	42	0	1254096896	59	4875
2026-01-30 00:26:38.10	217.80	8.82	-46.9	-62.5	3.8	1.49e+00	0	42	104	1256194048	64	22857
2026-01-30 00:26:40.97	217.70	8.59	-48.3	-62.9	3.8	1.49e+00	0	41	104	1256194048	67	20235
2026-01-30 00:26:44.12	217.59	8.33	-48.6	-63.2	3.8	1.49e+00	0	42	104	1256194048	68	19655
2026-01-30 00:26:46.99	217.49	8.10	-48.4	-63.0	3.8	1.49e+00	0	42	104	1256194048	67	20502
2026-01-30 00:26:50.15	217.39	7.85	-48.6	-63.3	3.8	1.49e+00	0	42	104	1256194048	68	19897
2026-01-30 00:26:53.02	217.29	7.63	-48.7	-63.2	3.8	1.49e+00	0	42	104	1256194048	68	19760
2026-01-30 00:26:56.17	217.19	7.39	-48.9	-63.2	3.8	1.49e+00	0	42	104	1256194048	68	19790
2026-01-30 00:26:59.04	217.10	7.16	-48.9	-63.2	3.8	1.49e+00	0	42	104	1256194048	68	19676
2026-01-30 00:27:02.18	217.00	6.93	-48.8	-63.1	3.8	1.49e+00	0	42	104	1256194048	68	19540
2026-01-30 00:27:05.04	216.91	6.71	-48.8	-63.1	3.8	1.49e+00	0	42	104	1256194048	68	19532
2026-01-30 00:27:08.20	216.82	6.47	-48.8	-63.1	3.8	1.49e+00	0	42	104	1256194048	68	19520
2026-01-30 00:27:11.07	216.73	6.26	-48.8	-63.1	3.8	1.49e+00	0	42	104	1256194048	68	19576
2026-01-30 00:27:14.22	216.64	6.03	-48.8	-63.1	3.8	1.49e+00	0	42	104	1256194048	68	19587
2026-01-30 00:27:17.09	216.56	5.82	-48.8	-63.1	3.8	1.49e+00	0	42	104	1256194048	68	19586
2026-01-30 00:27:20.25	216.47	5.59	-48.8	-63.1	3.8	1.49e+00	0	42	104	1256194048	68	19534
2026-01-30 00:27:23.12	216.39	5.38	-48.8	-63.1	3.8	1.49e+00	0	42	104	1256194048	68	19552
2026-01-30 00:27:26.28	216.30	5.16	-48.8	-63.1	3.8	1.49e+00	0	42	104	1256194048	68	19522
2026-01-30 00:27:29.15	216.23	4.95	-48.8	-63.1	3.8	1.49e+00	0	42	104	1256194048	68	19594

#Closed at: 2026-01-30 00:27:30
#Recorded file [1256 MB]: D:/Data/31040_260130_031445.dat