passes_logs/2026/01/30/T1/T1__20260130_100516_NOAA_20_JPSS-1_rec.log

#Pass ID: 20260130_100516_NOAA 20 (JPSS-1)
#Satellite: NOAA 20 (JPSS-1)
#Configuration: NOAA 20
#almurnet v.1.7.20251203
#Start time: 2026-01-30 10:05:19

#Version: 2.0.20230620
#Station: T1
#Location: 37.570604 lon 55.790049 lat
#TLE: 1 43013U 17073A   26029.42702672  .00000137  00000+0  85918-4 0  9993
#TLE: 2 43013  98.7646 330.2153 0000804  19.9045 340.2162 14.19525092424781

#Time	Az	El	Level	Level2	SNR	BER	BlckErr	Temp	State	Recorded	gain1	gain2
2026-01-30 10:05:19.17	165.16	5.05	-50.7	-64.8	3.8	1.49e+00	0	40	0	0	73	17875
2026-01-30 10:05:23.18	165.20	5.34	-50.6	-64.8	3.8	1.49e+00	0	40	104	0	72	18881
2026-01-30 10:05:27.20	165.24	5.63	-50.5	-64.7	3.8	1.49e+00	0	40	104	0	72	18721
2026-01-30 10:05:31.21	165.28	5.93	-50.0	-64.7	3.8	1.49e+00	0	40	104	0	71	19734
2026-01-30 10:05:35.23	165.33	6.23	-50.3	-64.6	3.8	1.49e+00	0	40	104	0	71	19518
2026-01-30 10:05:39.25	165.37	6.53	-49.6	-64.4	3.8	1.49e+00	0	41	104	0	71	19026
2026-01-30 10:05:43.26	165.41	6.84	-48.6	-63.7	3.8	1.49e+00	0	41	104	0	68	20833
2026-01-30 10:05:47.27	165.46	7.15	-48.7	-64.0	3.8	1.49e+00	0	41	104	0	68	21708
2026-01-30 10:05:51.29	165.51	7.46	-48.7	-63.5	3.8	1.49e+00	0	41	104	0	68	20360
2026-01-30 10:05:55.31	165.55	7.78	-48.6	-59.8	4.5	1.30e+00	0	41	0	1048576	68	13262
2026-01-30 10:05:59.31	165.60	8.10	-47.7	-55.4	7.3	1.31e-01	0	41	0	8388608	67	8534
2026-01-30 10:06:03.33	165.65	8.43	-47.5	-54.5	8.2	5.24e-02	0	41	0	15728640	67	7640
2026-01-30 10:06:07.35	165.70	8.76	-47.9	-56.8	6.1	2.67e-01	0	41	0	23068672	67	9998
2026-01-30 10:06:11.36	165.75	9.10	-48.1	-60.3	4.2	1.48e+00	0	41	104	27262976	67	15004
2026-01-30 10:06:15.34	165.80	9.43	-47.8	-61.0	4.1	7.08e-01	0	41	0	30408704	66	17129
2026-01-30 10:06:19.35	165.85	9.78	-46.8	-59.0	4.7	8.87e-01	0	42	0	34603008	65	14456
2026-01-30 10:06:23.37	165.91	10.13	-47.3	-63.7	3.8	1.49e+00	0	42	104	39845888	65	24711
2026-01-30 10:06:27.38	165.96	10.48	-45.5	-49.8	13.2	6.25e-05	0	42	0	45088768	62	5962
2026-01-30 10:06:31.37	166.01	10.84	-45.3	-48.1	15.0	7.00e-07	0	41	0	52428800	62	4908
2026-01-30 10:06:35.39	166.07	11.20	-45.4	-47.7	15.9	0.00e+00	0	42	0	59768832	61	4966
2026-01-30 10:06:39.40	166.13	11.57	-44.9	-47.2	16.0	0.00e+00	0	42	0	67108864	61	4652
2026-01-30 10:06:43.50	166.19	11.96	-44.6	-46.8	16.4	0.00e+00	0	42	0	75497472	61	4445
2026-01-30 10:06:47.51	166.25	12.34	-44.5	-46.7	16.5	0.00e+00	0	42	0	82837504	61	4427
2026-01-30 10:06:51.51	166.31	12.73	-44.5	-46.6	16.7	0.00e+00	0	42	0	90177536	60	4632
2026-01-30 10:06:55.57	166.37	13.12	-44.8	-46.9	16.7	0.00e+00	0	42	0	97517568	60	4809
2026-01-30 10:06:59.69	166.44	13.54	-44.6	-46.6	16.7	0.00e+00	0	42	0	105906176	60	4637
2026-01-30 10:07:03.70	166.50	13.94	-44.5	-46.5	16.9	0.00e+00	0	42	0	113246208	60	4563
2026-01-30 10:07:07.65	166.57	14.35	-44.0	-45.9	17.4	2.20e-06	0	42	0	120586240	60	4249
2026-01-30 10:07:11.80	166.64	14.79	-43.9	-45.7	17.6	0.00e+00	0	42	0	127926272	59	4396
2026-01-30 10:07:15.81	166.71	15.22	-44.0	-45.7	17.5	0.00e+00	0	42	0	136314880	59	4427
2026-01-30 10:07:19.82	166.78	15.65	-44.0	-45.7	17.5	0.00e+00	0	42	0	143654912	59	4429
2026-01-30 10:07:23.87	166.86	16.10	-43.9	-45.6	17.6	0.00e+00	0	42	0	150994944	59	4378
2026-01-30 10:07:27.88	166.93	16.56	-43.7	-45.4	17.8	0.00e+00	0	42	0	158334976	59	4285
2026-01-30 10:07:31.89	167.01	17.02	-43.8	-45.6	17.7	0.00e+00	0	42	0	165675008	59	4345
2026-01-30 10:07:36.41	167.10	17.55	-43.7	-45.4	17.9	0.00e+00	0	42	0	174063616	59	4279
2026-01-30 10:07:40.42	167.18	18.03	-43.6	-45.2	18.1	0.00e+00	0	42	0	182452224	59	4159
2026-01-30 10:07:44.43	167.27	18.52	-43.5	-45.1	18.2	0.00e+00	0	42	0	189792256	59	4117
2026-01-30 10:07:48.77	167.36	19.06	-43.5	-45.0	18.3	0.00e+00	0	42	0	198180864	58	4324
2026-01-30 10:07:53.11	167.46	19.62	-43.4	-45.0	18.3	0.00e+00	0	42	0	205520896	58	4296
2026-01-30 10:07:57.43	167.56	20.18	-43.3	-44.8	18.5	0.00e+00	0	42	0	213909504	58	4233
2026-01-30 10:08:01.54	167.66	20.73	-43.3	-44.9	18.4	0.00e+00	0	42	0	221249536	58	4259
2026-01-30 10:08:05.56	167.76	21.28	-43.4	-45.0	18.3	0.00e+00	0	42	0	229638144	58	4301
2026-01-30 10:08:09.57	167.86	21.84	-43.4	-44.9	18.4	0.00e+00	0	42	0	236978176	58	4264
2026-01-30 10:08:13.58	167.96	22.41	-43.5	-45.1	18.2	0.00e+00	0	42	0	244318208	58	4343
2026-01-30 10:08:17.70	168.07	23.01	-43.6	-45.2	18.1	0.00e+00	0	42	0	251658240	58	4398
2026-01-30 10:08:21.72	168.19	23.61	-43.7	-45.2	18.1	0.00e+00	0	42	0	258998272	58	4431
2026-01-30 10:08:25.73	168.30	24.22	-43.8	-45.5	17.9	0.00e+00	0	42	0	267386880	58	4549
2026-01-30 10:08:30.20	168.44	24.92	-43.8	-45.5	17.8	0.00e+00	0	42	0	275775488	58	4550
2026-01-30 10:08:34.21	168.56	25.56	-44.1	-45.8	17.6	0.00e+00	0	42	0	283115520	58	4709
2026-01-30 10:08:38.24	168.69	26.23	-44.0	-45.6	17.7	0.00e+00	0	42	0	290455552	58	4633
2026-01-30 10:08:42.30	168.83	26.91	-44.1	-45.8	17.5	0.00e+00	0	42	0	297795584	58	4728
2026-01-30 10:08:46.46	168.98	27.63	-44.3	-46.1	17.2	0.00e+00	0	42	0	306184192	59	4610
2026-01-30 10:08:50.47	169.12	28.35	-44.8	-46.7	16.7	0.00e+00	0	42	0	313524224	60	4700
2026-01-30 10:08:54.59	169.28	29.10	-45.1	-47.2	16.2	0.00e+00	0	42	0	320864256	60	4945
2026-01-30 10:08:58.60	169.44	29.85	-45.4	-47.5	15.9	0.00e+00	0	42	0	328204288	61	4851
2026-01-30 10:09:02.61	169.61	30.62	-45.4	-47.6	15.8	0.00e+00	0	42	0	336592896	61	4899
2026-01-30 10:09:06.64	169.78	31.41	-45.3	-47.4	16.0	0.00e+00	0	42	0	343932928	61	4786
2026-01-30 10:09:10.81	169.97	32.26	-45.3	-47.4	16.0	0.00e+00	0	42	0	351272960	61	4793
2026-01-30 10:09:15.13	170.18	33.16	-45.4	-47.6	15.8	0.00e+00	0	42	0	359661568	61	4919
2026-01-30 10:09:19.51	170.40	34.11	-44.7	-46.6	16.8	0.00e+00	0	42	0	368050176	61	4370
2026-01-30 10:09:24.09	170.64	35.12	-43.8	-45.3	18.0	0.00e+00	0	42	0	376438784	59	4237
2026-01-30 10:09:28.91	170.92	36.23	-43.3	-44.8	18.6	0.00e+00	0	42	0	385875968	58	4209
2026-01-30 10:09:33.41	171.19	37.30	-43.0	-44.4	18.9	0.00e+00	0	42	0	394264576	58	4034
2026-01-30 10:09:37.45	171.45	38.29	-42.9	-44.2	19.1	0.00e+00	0	42	0	401604608	57	4167
2026-01-30 10:09:41.45	171.72	39.29	-43.0	-44.4	18.9	0.00e+00	0	42	0	408944640	57	4261
2026-01-30 10:09:45.47	172.01	40.33	-43.6	-45.1	18.2	0.00e+00	0	42	0	416284672	57	4626
2026-01-30 10:09:49.67	172.33	41.46	-43.8	-45.3	18.1	0.00e+00	0	42	0	424673280	58	4447
2026-01-30 10:09:53.72	172.66	42.57	-44.4	-46.0	17.3	0.00e+00	0	42	0	432013312	59	4598
2026-01-30 10:09:57.73	173.02	43.70	-44.1	-45.7	17.7	0.00e+00	0	42	0	439353344	59	4422
2026-01-30 10:10:01.74	173.39	44.87	-44.4	-46.0	17.4	0.00e+00	0	42	0	446693376	59	4584
2026-01-30 10:10:06.19	173.85	46.21	-45.4	-47.4	16.0	0.00e+00	0	42	0	455081984	61	4802
2026-01-30 10:10:10.60	174.33	47.58	-45.6	-47.7	15.7	0.00e+00	0	42	0	463470592	61	4965
2026-01-30 10:10:15.06	174.87	49.00	-45.2	-47.2	16.3	0.00e+00	0	42	0	471859200	62	4420
2026-01-30 10:10:19.69	175.48	50.53	-44.2	-45.9	17.5	0.00e+00	0	42	0	480247808	60	4265
2026-01-30 10:10:24.04	176.11	52.01	-42.5	-43.7	19.6	0.00e+00	0	42	0	488636416	57	3933
2026-01-30 10:10:28.07	176.76	53.42	-41.6	-42.7	20.4	0.00e+00	0	43	0	495976448	55	3929
2026-01-30 10:10:32.61	177.57	55.04	-41.0	-42.0	21.0	0.00e+00	0	42	0	505413632	53	4091
2026-01-30 10:10:37.38	178.52	56.81	-42.1	-43.3	19.9	0.00e+00	0	42	0	513802240	54	4445
2026-01-30 10:10:41.72	179.50	58.45	-41.8	-42.9	20.2	0.00e+00	0	42	0	522190848	55	4042
2026-01-30 10:10:46.20	180.64	60.19	-42.0	-43.1	20.0	0.00e+00	0	42	0	530579456	55	4144
2026-01-30 10:10:50.87	182.01	62.04	-41.1	-42.2	20.9	0.00e+00	0	43	0	538968064	54	3925
2026-01-30 10:10:55.49	183.58	63.90	-42.1	-43.3	19.9	0.00e+00	0	42	0	547356672	54	4492
2026-01-30 10:10:59.88	185.33	65.70	-43.6	-45.0	18.4	0.00e+00	0	42	0	555745280	58	4336
2026-01-30 10:11:04.04	187.27	67.42	-44.4	-46.2	17.3	0.00e+00	0	42	0	564133888	59	4662
2026-01-30 10:11:08.05	189.48	69.08	-43.4	-44.7	18.7	0.00e+00	0	43	0	571473920	58	4183
2026-01-30 10:11:12.23	192.21	70.82	-44.0	-45.5	18.0	0.00e+00	0	42	0	578813952	59	4307
2026-01-30 10:11:16.44	195.54	72.54	-44.6	-46.4	17.2	0.00e+00	0	42	0	587202560	60	4540
2026-01-30 10:11:20.56	199.54	74.19	-45.3	-47.5	16.1	0.00e+00	0	42	0	594542592	61	4819
2026-01-30 10:11:24.85	204.71	75.82	-45.4	-47.4	16.2	0.00e+00	0	42	0	602931200	61	4788
2026-01-30 10:11:28.86	210.74	77.25	-46.7	-49.5	14.0	5.30e-06	0	43	0	610271232	64	5101
2026-01-30 10:11:32.86	218.21	78.51	-44.6	-46.3	17.2	0.00e+00	0	42	0	617611264	61	4221
2026-01-30 10:11:36.87	227.40	79.54	-43.6	-45.0	18.4	0.00e+00	0	43	0	624951296	59	4098
2026-01-30 10:11:40.88	238.29	80.27	-44.3	-45.9	17.6	0.00e+00	0	43	0	633339904	59	4529
2026-01-30 10:11:44.89	250.45	80.60	-43.8	-45.3	18.2	0.00e+00	0	43	0	640679936	59	4218
2026-01-30 10:11:49.02	263.27	80.49	-43.9	-45.5	18.1	0.00e+00	0	42	0	648019968	59	4326
2026-01-30 10:11:53.04	274.92	79.95	-44.1	-45.8	17.8	0.00e+00	0	42	0	655360000	59	4454
2026-01-30 10:11:57.04	284.97	79.07	-43.1	-44.5	19.1	0.00e+00	0	42	0	662700032	57	4295
2026-01-30 10:12:01.05	293.29	77.91	-44.6	-46.3	17.3	0.00e+00	0	42	0	671088640	59	4750
2026-01-30 10:12:05.06	300.02	76.57	-45.9	-48.1	15.6	0.00e+00	0	42	0	678428672	62	4919
2026-01-30 10:12:09.04	305.41	75.10	-45.4	-47.5	16.1	0.00e+00	0	42	0	685768704	62	4555
2026-01-30 10:12:13.05	309.80	73.53	-44.8	-46.5	17.2	0.00e+00	0	42	0	693108736	61	4331
2026-01-30 10:12:17.06	313.38	71.92	-45.0	-46.9	16.8	0.00e+00	0	43	0	700448768	61	4498
2026-01-30 10:12:21.07	316.35	70.27	-44.9	-46.7	17.0	0.00e+00	0	42	0	707788800	60	4679
2026-01-30 10:12:25.08	318.83	68.61	-45.5	-47.5	16.1	0.00e+00	0	43	0	716177408	61	4868
2026-01-30 10:12:29.17	320.96	66.92	-44.7	-46.4	17.2	0.00e+00	0	42	0	723517440	61	4290
2026-01-30 10:12:33.18	322.75	65.27	-44.3	-45.9	17.7	0.00e+00	0	42	0	730857472	60	4264
2026-01-30 10:12:37.19	324.30	63.63	-41.6	-42.7	20.6	0.00e+00	0	42	0	738197504	54	4164
2026-01-30 10:12:41.20	325.64	62.02	-41.1	-42.1	21.1	0.00e+00	0	43	0	745537536	53	4142
2026-01-30 10:12:45.20	326.82	60.44	-44.1	-45.7	17.9	0.00e+00	0	42	0	753926144	58	4683
2026-01-30 10:12:49.53	327.95	58.76	-45.2	-47.1	16.6	0.00e+00	0	43	0	761266176	60	4890
2026-01-30 10:12:53.54	328.87	57.24	-44.5	-46.2	17.5	0.00e+00	0	43	0	769654784	60	4422
2026-01-30 10:12:57.58	329.71	55.75	-43.4	-44.9	18.7	0.00e+00	0	42	0	776994816	58	4272
2026-01-30 10:13:01.59	330.46	54.29	-41.6	-42.7	20.6	0.00e+00	0	42	0	784334848	54	4166
2026-01-30 10:13:05.77	331.16	52.82	-43.1	-44.5	19.1	0.00e+00	0	43	0	791674880	56	4567
2026-01-30 10:13:09.78	331.78	51.44	-45.3	-47.2	16.4	0.00e+00	0	42	0	800063488	61	4700
2026-01-30 10:13:13.78	332.34	50.10	-47.4	-50.9	12.6	2.02e-04	0	43	0	807403520	65	5721
2026-01-30 10:13:18.11	332.90	48.69	-46.9	-49.8	13.8	2.05e-05	0	42	0	815792128	65	5005
2026-01-30 10:13:22.12	333.37	47.42	-44.9	-46.7	17.0	0.00e+00	0	42	0	823132160	61	4437
2026-01-30 10:13:26.18	333.82	46.17	-45.3	-47.4	16.3	0.00e+00	0	42	0	830472192	62	4507
2026-01-30 10:13:30.09	334.21	45.01	-43.8	-45.2	18.3	0.00e+00	0	43	0	837812224	59	4193
2026-01-30 10:13:34.32	334.61	43.78	-43.9	-45.4	18.2	0.00e+00	0	43	0	845152256	58	4533
2026-01-30 10:13:38.47	334.98	42.61	-44.7	-46.7	17.0	0.00e+00	0	43	0	853540864	60	4660
2026-01-30 10:13:42.48	335.31	41.51	-42.5	-43.7	19.8	0.00e+00	0	43	0	860880896	56	4179
2026-01-30 10:13:46.49	335.62	40.45	-44.1	-45.7	17.9	0.00e+00	0	43	0	868220928	58	4669
2026-01-30 10:13:50.55	335.91	39.40	-44.7	-46.7	17.0	0.00e+00	0	43	0	875560960	60	4672
2026-01-30 10:13:54.56	336.19	38.39	-44.2	-45.9	17.8	0.00e+00	0	43	0	883949568	60	4247
2026-01-30 10:13:58.56	336.44	37.42	-45.1	-47.0	16.6	0.00e+00	0	43	0	891289600	60	4843
2026-01-30 10:14:02.57	336.69	36.47	-45.9	-48.2	15.5	0.00e+00	0	43	0	898629632	63	4705
2026-01-30 10:14:06.58	336.92	35.55	-44.9	-46.9	16.8	0.00e+00	0	43	0	905969664	61	4524
2026-01-30 10:14:10.59	337.14	34.65	-44.3	-46.1	17.6	0.00e+00	0	43	0	913309696	60	4382
2026-01-30 10:14:14.81	337.36	33.73	-45.4	-47.6	16.1	0.00e+00	0	43	0	921698304	61	4894
2026-01-30 10:14:18.85	337.56	32.88	-46.3	-48.9	14.9	0.00e+00	0	42	0	929038336	63	5074
2026-01-30 10:14:22.87	337.75	32.05	-46.0	-48.4	15.4	0.00e+00	0	43	0	936378368	63	4762
2026-01-30 10:14:26.89	337.93	31.25	-45.4	-48.2	15.4	0.00e+00	0	43	0	943718400	62	4969
2026-01-30 10:14:31.29	338.12	30.40	-45.0	-47.4	16.3	0.00e+00	0	43	0	952107008	62	4511
2026-01-30 10:14:35.35	338.29	29.63	-44.4	-46.2	17.6	0.00e+00	0	42	0	960495616	60	4393
2026-01-30 10:14:39.36	338.45	28.89	-44.3	-46.0	17.7	0.00e+00	0	43	0	967835648	60	4330
2026-01-30 10:14:43.48	338.60	28.15	-44.1	-45.7	17.9	0.00e+00	0	43	0	975175680	60	4189
2026-01-30 10:14:47.48	338.75	27.45	-43.8	-45.5	17.8	0.00e+00	0	43	0	982515712	59	4326
2026-01-30 10:14:51.50	338.89	26.77	-43.3	-45.0	18.6	0.00e+00	0	43	0	989855744	58	4301
2026-01-30 10:14:55.51	339.02	26.10	-43.4	-44.9	18.7	0.00e+00	0	43	0	998244352	58	4281
2026-01-30 10:14:59.70	339.16	25.42	-43.5	-44.9	18.7	0.00e+00	0	43	0	1005584384	58	4291
2026-01-30 10:15:03.70	339.29	24.79	-43.2	-44.7	18.9	0.00e+00	0	43	0	1012924416	58	4163
2026-01-30 10:15:07.98	339.41	24.13	-42.9	-44.5	19.1	0.00e+00	0	43	0	1021313024	57	4294
2026-01-30 10:15:12.44	339.54	23.45	-42.8	-44.2	19.3	0.00e+00	0	43	0	1029701632	57	4189
2026-01-30 10:15:16.53	339.66	22.85	-42.5	-43.9	19.7	0.00e+00	0	43	0	1037041664	57	4006
2026-01-30 10:15:20.53	339.77	22.28	-42.4	-43.8	19.7	0.00e+00	0	42	0	1044381696	56	4220
2026-01-30 10:15:24.55	339.87	21.72	-42.3	-43.8	19.8	0.00e+00	0	43	0	1052770304	56	4195
2026-01-30 10:15:28.55	339.98	21.17	-42.6	-44.0	19.5	0.00e+00	0	43	0	1060110336	56	4303
2026-01-30 10:15:32.57	340.08	20.63	-42.9	-44.3	19.3	0.00e+00	0	43	0	1067450368	56	4451
2026-01-30 10:15:36.59	340.17	20.10	-43.0	-44.5	19.0	0.00e+00	0	43	0	1074790400	56	4588
2026-01-30 10:15:40.85	340.27	19.55	-43.2	-44.7	18.8	0.00e+00	0	43	0	1083179008	56	4694
2026-01-30 10:15:44.85	340.37	19.04	-43.4	-44.9	18.7	0.00e+00	0	43	0	1090519040	57	4496
2026-01-30 10:15:48.87	340.45	18.55	-43.5	-45.0	18.6	0.00e+00	0	43	0	1097859072	57	4556
2026-01-30 10:15:52.87	340.54	18.06	-43.5	-45.1	18.5	0.00e+00	0	43	0	1105199104	57	4627
2026-01-30 10:15:56.87	340.63	17.59	-43.5	-45.2	18.3	0.00e+00	0	43	0	1112539136	57	4697
2026-01-30 10:16:00.88	340.71	17.12	-43.6	-45.3	18.2	0.00e+00	0	43	0	1120927744	57	4758
2026-01-30 10:16:05.51	340.80	16.59	-43.7	-45.5	18.1	0.00e+00	0	43	0	1129316352	58	4564
2026-01-30 10:16:09.93	340.89	16.10	-43.6	-45.6	18.0	0.00e+00	0	42	0	1137704960	58	4615
2026-01-30 10:16:14.11	340.97	15.64	-43.6	-45.6	18.0	0.00e+00	0	43	0	1145044992	58	4613
2026-01-30 10:16:18.13	341.04	15.21	-43.7	-45.6	18.0	0.00e+00	0	42	0	1152385024	58	4614
2026-01-30 10:16:22.14	341.11	14.78	-44.0	-45.8	17.9	0.00e+00	0	43	0	1160773632	58	4719
2026-01-30 10:16:26.09	341.18	14.37	-44.1	-46.0	17.8	0.00e+00	0	43	0	1168113664	58	4821
2026-01-30 10:16:30.11	341.25	13.96	-44.1	-46.0	17.7	0.00e+00	0	42	0	1175453696	58	4863
2026-01-30 10:16:34.12	341.32	13.56	-44.0	-46.1	17.7	0.00e+00	0	43	0	1182793728	58	4871
2026-01-30 10:16:38.16	341.39	13.16	-43.9	-46.0	17.7	0.00e+00	0	43	0	1190133760	58	4855
2026-01-30 10:16:42.30	341.46	12.76	-44.0	-46.0	17.8	0.00e+00	0	43	0	1198522368	58	4827
2026-01-30 10:16:46.31	341.52	12.37	-44.0	-45.9	17.8	0.00e+00	0	43	0	1205862400	59	4502
2026-01-30 10:16:50.47	341.59	11.98	-43.9	-45.8	17.8	0.00e+00	0	43	0	1213202432	59	4488
2026-01-30 10:16:54.70	341.65	11.59	-43.7	-45.8	17.7	0.00e+00	0	43	0	1221591040	59	4444
2026-01-30 10:16:58.63	341.71	11.23	-43.6	-45.7	17.7	0.00e+00	0	43	0	1228931072	58	4696
2026-01-30 10:17:02.64	341.77	10.87	-43.7	-45.9	17.5	0.00e+00	0	43	0	1236271104	58	4774
2026-01-30 10:17:06.70	341.83	10.51	-43.7	-45.9	17.5	0.00e+00	0	43	0	1243611136	58	4781
2026-01-30 10:17:10.82	341.89	10.15	-43.5	-45.8	17.5	0.00e+00	0	43	0	1251999744	58	4739
2026-01-30 10:17:14.86	341.95	9.80	-43.5	-46.1	17.3	0.00e+00	0	43	0	1259339776	58	4904
2026-01-30 10:17:18.87	342.00	9.46	-43.1	-45.8	17.5	0.00e+00	0	43	0	1266679808	58	4756
2026-01-30 10:17:22.87	342.06	9.12	-43.1	-45.9	17.3	0.00e+00	0	43	0	1274019840	58	4814
2026-01-30 10:17:26.92	342.11	8.79	-49.8	-64.6	3.8	1.49e+00	0	43	104	1278214144	70	20634
2026-01-30 10:17:30.94	342.17	8.46	-49.7	-64.3	3.8	1.49e+00	0	43	104	1278214144	69	21092
2026-01-30 10:17:34.95	342.22	8.14	-49.7	-64.4	3.8	1.49e+00	0	43	104	1278214144	70	20082
2026-01-30 10:17:38.97	342.27	7.82	-50.1	-64.3	3.8	1.49e+00	0	43	104	1278214144	70	20005
2026-01-30 10:17:42.98	342.32	7.50	-50.1	-64.2	3.8	1.49e+00	0	43	104	1278214144	71	18590
2026-01-30 10:17:47.21	342.38	7.18	-50.1	-64.5	3.8	1.49e+00	0	43	104	1278214144	71	19198
2026-01-30 10:17:51.22	342.42	6.87	-50.1	-64.4	3.8	1.49e+00	0	43	104	1278214144	71	19146
2026-01-30 10:17:55.24	342.47	6.57	-50.0	-64.2	3.8	1.49e+00	0	43	104	1278214144	71	18621
2026-01-30 10:17:59.25	342.52	6.27	-50.1	-64.4	3.8	1.49e+00	0	43	104	1278214144	71	19000
2026-01-30 10:18:03.27	342.57	5.97	-50.1	-64.2	3.8	1.49e+00	0	43	104	1278214144	71	18670
2026-01-30 10:18:07.28	342.62	5.67	-50.1	-64.3	3.8	1.49e+00	0	43	104	1278214144	71	18844
2026-01-30 10:18:11.30	342.66	5.38	-50.1	-64.4	3.8	1.49e+00	0	43	104	1278214144	71	18973
2026-01-30 10:18:15.32	342.71	5.10	-50.1	-64.4	3.8	1.49e+00	0	43	104	1278214144	71	18956

#Closed at: 2026-01-30 10:18:16
#Recorded file [1278 MB]: D:/Data/31040_260130_130519.dat