passes_logs/2026/01/30/T1/T1__20260130_105550_NOAA_21_JPSS-2_rec.log

#Pass ID: 20260130_105550_NOAA 21 (JPSS-2)
#Satellite: NOAA 21 (JPSS-2)
#Configuration: NOAA 21
#almurnet v.1.7.20251203
#Start time: 2026-01-30 10:55:50

#Version: 2.0.20230620
#Station: T1
#Location: 37.570604 lon 55.790049 lat
#TLE: 1 54234U 22150A   26029.46216196  .00000141  00000+0  87503-4 0  9994
#TLE: 2 54234  98.7512 330.1880 0000955 196.3413 163.7732 14.19540905166865

#Time	Az	El	Level	Level2	SNR	BER	BlckErr	Temp	State	Recorded	gain1	gain2
2026-01-30 10:55:50.82	192.34	5.02	-50.9	-63.3	3.8	1.49e+00	0	41	0	0	72	15796
2026-01-30 10:55:53.82	192.51	5.22	-51.0	-63.3	3.8	1.49e+00	0	42	104	0	73	15003
2026-01-30 10:55:56.83	192.69	5.43	-51.0	-63.3	3.8	1.49e+00	0	42	104	0	73	14971
2026-01-30 10:55:59.84	192.87	5.63	-51.0	-63.2	3.8	1.49e+00	0	42	104	0	73	14832
2026-01-30 10:56:02.84	193.05	5.84	-50.8	-63.1	3.8	1.49e+00	0	42	104	0	73	14679
2026-01-30 10:56:05.85	193.23	6.04	-51.2	-63.3	3.8	1.49e+00	0	42	104	0	73	15041
2026-01-30 10:56:08.86	193.41	6.25	-52.5	-65.4	3.9	1.49e+00	0	42	104	0	75	16966
2026-01-30 10:56:11.87	193.60	6.46	-53.1	-66.4	3.9	1.50e+00	0	42	104	0	76	18037
2026-01-30 10:56:14.87	193.79	6.67	-52.9	-66.5	3.9	1.50e+00	0	42	104	0	76	18188
2026-01-30 10:56:17.88	193.98	6.88	-51.9	-65.3	3.9	1.50e+00	0	42	104	0	75	16741
2026-01-30 10:56:20.89	194.17	7.10	-50.0	-60.7	3.9	1.48e+00	0	42	104	0	71	12511
2026-01-30 10:56:23.90	194.37	7.31	-52.1	-63.5	3.9	1.49e+00	0	42	104	0	74	14438
2026-01-30 10:56:26.90	194.57	7.53	-52.8	-67.5	4.0	1.50e+00	0	42	104	0	76	20417
2026-01-30 10:56:29.90	194.77	7.75	-51.6	-59.5	5.7	1.41e+00	0	43	104	0	74	9156
2026-01-30 10:56:32.91	194.98	7.97	-49.2	-52.8	6.2	1.24e+00	0	42	104	0	70	5324
2026-01-30 10:56:35.91	195.19	8.19	-46.8	-49.3	5.5	1.28e+00	0	43	104	0	65	4748
2026-01-30 10:56:38.92	195.40	8.41	-45.9	-48.4	5.4	1.29e+00	0	42	104	0	63	4761
2026-01-30 10:56:41.92	195.61	8.64	-45.6	-47.7	14.1	0.00e+00	0	43	0	0	61	4956
2026-01-30 10:56:44.93	195.83	8.86	-47.3	-51.3	9.8	5.61e-03	0	43	0	0	65	5980
2026-01-30 10:56:47.93	196.05	9.09	-45.5	-47.8	13.6	4.57e-05	0	43	0	0	63	4455
2026-01-30 10:56:50.93	196.28	9.32	-45.8	-48.3	13.1	2.36e-03	0	43	0	0	63	4709
2026-01-30 10:56:53.93	196.51	9.55	-44.5	-46.2	15.1	1.50e-06	0	43	0	0	61	4186
2026-01-30 10:56:56.94	196.74	9.79	-42.2	-43.3	18.0	0.00e+00	0	43	0	0	56	3961
2026-01-30 10:56:59.94	196.97	10.02	-42.1	-43.1	18.1	0.00e+00	0	43	0	0	56	3896
2026-01-30 10:57:02.95	197.21	10.26	-41.9	-42.9	18.1	1.65e-04	0	43	0	0	55	4048
2026-01-30 10:57:05.95	197.45	10.50	-41.6	-42.6	18.4	0.00e+00	0	43	0	0	54	4127
2026-01-30 10:57:08.96	197.70	10.74	-41.6	-42.5	18.5	0.00e+00	0	43	0	0	54	4090
2026-01-30 10:57:11.97	197.95	10.98	-41.5	-42.5	18.6	0.00e+00	0	43	0	0	54	4056
2026-01-30 10:57:14.97	198.20	11.23	-41.5	-42.4	18.6	0.00e+00	0	43	0	0	54	4049
2026-01-30 10:57:17.98	198.46	11.48	-41.4	-42.4	18.6	0.00e+00	0	43	0	0	54	4034
2026-01-30 10:57:20.98	198.73	11.72	-41.3	-42.2	18.7	0.00e+00	0	43	0	0	54	3948
2026-01-30 10:57:23.99	198.99	11.98	-41.2	-42.2	18.6	0.00e+00	0	43	0	0	54	3923
2026-01-30 10:57:26.99	199.26	12.23	-41.1	-42.1	18.6	0.00e+00	0	43	0	0	54	3873
2026-01-30 10:57:29.99	199.54	12.48	-41.0	-42.0	18.7	0.00e+00	0	43	0	0	53	4061
2026-01-30 10:57:33.00	199.82	12.74	-41.0	-41.9	18.8	0.00e+00	0	43	0	0	53	4046
2026-01-30 10:57:36.00	200.11	13.00	-41.1	-42.0	18.9	0.00e+00	0	43	0	0	53	4078
2026-01-30 10:57:39.00	200.40	13.26	-41.1	-42.0	18.7	0.00e+00	0	43	0	0	53	4072
2026-01-30 10:57:42.01	200.69	13.52	-40.9	-41.8	18.7	0.00e+00	0	43	0	0	53	3996
2026-01-30 10:57:45.01	200.99	13.79	-40.9	-41.8	18.9	0.00e+00	0	43	0	0	53	3982
2026-01-30 10:57:48.02	201.30	14.06	-40.9	-41.8	19.2	0.00e+00	0	43	0	0	53	3960
2026-01-30 10:57:51.02	201.61	14.33	-41.0	-41.9	19.1	0.00e+00	0	43	0	0	53	4006
2026-01-30 10:57:54.02	201.93	14.60	-41.0	-41.8	19.2	0.00e+00	0	43	0	0	53	3989
2026-01-30 10:57:57.03	202.25	14.88	-41.1	-42.0	19.1	0.00e+00	0	43	0	0	53	4052
2026-01-30 10:58:00.03	202.58	15.15	-41.0	-41.8	19.2	0.00e+00	0	43	0	0	53	3993
2026-01-30 10:58:03.03	202.91	15.43	-41.0	-41.9	19.1	0.00e+00	0	43	0	0	53	4014
2026-01-30 10:58:06.03	203.25	15.71	-40.9	-41.8	19.3	0.00e+00	0	43	0	0	53	3960
2026-01-30 10:58:09.03	203.60	16.00	-41.0	-41.8	19.3	0.00e+00	0	43	0	0	53	3998
2026-01-30 10:58:12.04	203.95	16.28	-41.0	-41.9	19.2	0.00e+00	0	43	0	0	53	4009
2026-01-30 10:58:15.04	204.31	16.57	-41.2	-42.1	18.9	0.00e+00	0	43	0	0	53	4113
2026-01-30 10:58:18.04	204.67	16.86	-41.2	-42.0	19.0	0.00e+00	0	43	0	0	53	4061
2026-01-30 10:58:21.04	205.05	17.15	-41.3	-42.1	19.0	0.00e+00	0	43	0	0	53	4113
2026-01-30 10:58:24.04	205.43	17.45	-41.2	-42.0	19.1	0.00e+00	0	43	0	0	53	4085
2026-01-30 10:58:27.05	205.81	17.75	-41.3	-42.2	19.0	0.00e+00	0	43	0	0	53	4155
2026-01-30 10:58:30.05	206.21	18.05	-41.4	-42.3	18.8	0.00e+00	0	43	0	0	53	4217
2026-01-30 10:58:33.05	206.61	18.35	-41.4	-42.3	18.8	0.00e+00	0	43	0	0	53	4203
2026-01-30 10:58:36.06	207.02	18.66	-41.6	-42.4	18.7	0.00e+00	0	43	0	0	53	4271
2026-01-30 10:58:39.06	207.44	18.96	-41.4	-42.3	18.9	0.00e+00	0	43	0	0	53	4202
2026-01-30 10:58:42.06	207.87	19.27	-41.4	-42.2	18.9	0.00e+00	0	43	0	0	53	4193
2026-01-30 10:58:45.07	208.30	19.59	-41.3	-42.1	19.0	0.00e+00	0	43	0	0	53	4145
2026-01-30 10:58:48.07	208.75	19.90	-41.2	-42.0	19.2	0.00e+00	0	43	0	0	53	4067
2026-01-30 10:58:51.07	209.20	20.22	-41.0	-41.7	19.4	0.00e+00	0	43	0	0	53	3958
2026-01-30 10:58:54.06	209.66	20.54	-40.9	-41.7	19.4	0.00e+00	0	43	0	0	53	3947
2026-01-30 10:58:57.07	210.13	20.86	-40.9	-41.7	19.4	0.00e+00	0	43	0	0	53	3928
2026-01-30 10:59:00.07	210.61	21.18	-40.7	-41.5	19.6	0.00e+00	0	43	0	0	53	3839
2026-01-30 10:59:03.08	211.10	21.51	-40.6	-41.4	19.7	0.00e+00	0	43	0	0	53	3793
2026-01-30 10:59:06.09	211.61	21.83	-40.6	-41.4	19.7	0.00e+00	0	43	0	0	53	3781
2026-01-30 10:59:09.09	212.12	22.16	-40.4	-41.1	19.9	0.00e+00	0	43	0	0	52	3890
2026-01-30 10:59:12.10	212.64	22.50	-40.3	-41.0	20.0	0.00e+00	0	43	0	0	52	3864
2026-01-30 10:59:15.10	213.18	22.83	-40.2	-40.9	20.1	0.00e+00	0	43	0	0	52	3819
2026-01-30 10:59:18.11	213.72	23.17	-40.1	-40.8	20.2	0.00e+00	0	43	0	0	52	3759
2026-01-30 10:59:21.11	214.28	23.50	-40.0	-40.7	20.4	0.00e+00	0	43	0	0	51	3946
2026-01-30 10:59:24.12	214.85	23.84	-40.2	-40.9	20.2	0.00e+00	0	43	0	0	51	4034
2026-01-30 10:59:27.11	215.43	24.18	-40.1	-40.9	20.2	0.00e+00	0	43	0	0	51	4016
2026-01-30 10:59:30.11	216.02	24.52	-40.1	-40.8	20.3	0.00e+00	0	43	0	0	51	3994
2026-01-30 10:59:33.12	216.62	24.87	-40.3	-41.0	20.1	0.00e+00	0	43	0	0	51	4089
2026-01-30 10:59:36.12	217.24	25.21	-40.4	-41.2	19.9	0.00e+00	0	43	0	0	51	4161
2026-01-30 10:59:39.13	217.88	25.55	-40.3	-41.1	20.1	0.00e+00	0	43	0	0	51	4104
2026-01-30 10:59:42.12	218.52	25.90	-40.4	-41.2	20.0	0.00e+00	0	43	0	0	51	4150
2026-01-30 10:59:45.13	219.18	26.24	-40.4	-41.2	19.9	0.00e+00	0	43	0	0	51	4165
2026-01-30 10:59:48.13	219.85	26.59	-40.5	-41.2	19.9	0.00e+00	0	43	0	0	51	4187
2026-01-30 10:59:51.13	220.54	26.94	-40.7	-41.5	19.7	7.00e-07	0	43	0	0	52	4063
2026-01-30 10:59:54.13	221.24	27.28	-40.8	-41.6	19.5	0.00e+00	0	43	0	0	52	4111
2026-01-30 10:59:57.13	221.96	27.63	-40.9	-41.7	19.4	0.00e+00	0	43	0	0	52	4172
2026-01-30 11:00:00.13	222.69	27.98	-40.8	-41.5	19.5	1.22e-05	0	43	0	0	52	4098
2026-01-30 11:00:03.13	223.44	28.32	-40.7	-41.4	19.6	0.00e+00	0	43	0	0	52	4033
2026-01-30 11:00:06.14	224.21	28.67	-40.7	-41.4	19.6	0.00e+00	0	43	0	0	52	4047
2026-01-30 11:00:09.15	224.99	29.01	-40.3	-41.0	19.9	0.00e+00	0	43	0	0	52	3861
2026-01-30 11:00:12.15	225.79	29.35	-40.4	-41.1	19.8	0.00e+00	0	43	0	0	52	3912
2026-01-30 11:00:15.16	226.60	29.69	-40.3	-41.0	19.9	0.00e+00	0	43	0	0	52	3860
2026-01-30 11:00:18.16	227.43	30.03	-40.2	-41.0	20.0	0.00e+00	0	43	0	0	52	3828
2026-01-30 11:00:21.16	228.28	30.36	-40.3	-41.0	19.9	0.00e+00	0	43	0	0	52	3864
2026-01-30 11:00:24.16	229.14	30.69	-40.4	-41.1	19.9	3.00e-06	0	43	0	0	52	3888
2026-01-30 11:00:27.17	230.03	31.02	-40.5	-41.3	19.6	0.00e+00	0	43	0	0	52	3982
2026-01-30 11:00:30.17	230.93	31.34	-40.7	-41.5	19.5	0.00e+00	0	43	0	0	52	4091
2026-01-30 11:00:33.18	231.85	31.66	-40.8	-41.6	19.4	4.19e-05	0	43	0	0	52	4137
2026-01-30 11:00:36.18	232.79	31.98	-40.9	-41.7	19.4	0.00e+00	0	43	0	0	52	4167
2026-01-30 11:00:39.18	233.74	32.29	-41.1	-42.0	19.2	0.00e+00	0	43	0	0	52	4294
2026-01-30 11:00:42.18	234.71	32.59	-41.4	-42.3	18.8	0.00e+00	0	43	0	0	53	4221
2026-01-30 11:00:45.19	235.70	32.89	-41.4	-42.3	18.9	0.00e+00	0	43	0	0	53	4200
2026-01-30 11:00:48.20	236.71	33.18	-41.7	-42.6	18.6	0.00e+00	0	43	0	0	54	4144
2026-01-30 11:00:51.20	237.74	33.47	-41.8	-42.7	18.6	0.00e+00	0	43	0	0	54	4155
2026-01-30 11:00:54.21	238.78	33.74	-41.8	-42.7	18.5	0.00e+00	0	44	0	0	54	4178
2026-01-30 11:00:57.21	239.84	34.01	-41.8	-42.7	18.5	3.80e-06	0	43	0	0	54	4178
2026-01-30 11:01:00.21	240.92	34.27	-41.8	-42.7	18.5	0.00e+00	0	43	0	0	54	4180
2026-01-30 11:01:03.22	242.01	34.52	-41.7	-42.6	18.5	0.00e+00	0	43	0	0	54	4118
2026-01-30 11:01:06.22	243.12	34.76	-41.5	-42.3	18.9	1.90e-05	0	43	0	0	54	3980
2026-01-30 11:01:09.23	244.25	34.99	-41.5	-42.4	18.7	0.00e+00	0	43	0	0	54	4006
2026-01-30 11:01:12.23	245.39	35.21	-41.6	-42.5	18.6	0.00e+00	0	43	0	0	54	4081
2026-01-30 11:01:15.24	246.55	35.42	-41.3	-42.1	19.0	0.00e+00	0	43	0	0	54	3893
2026-01-30 11:01:18.24	247.72	35.62	-42.0	-42.9	18.2	0.00e+00	0	43	0	0	54	4279
2026-01-30 11:01:21.25	248.90	35.80	-41.7	-42.6	18.6	0.00e+00	0	43	0	0	54	4106
2026-01-30 11:01:24.25	250.10	35.98	-41.6	-42.7	18.5	2.05e-05	0	43	0	0	54	4152
2026-01-30 11:01:27.25	251.31	36.14	-41.4	-42.3	19.0	0.00e+00	0	43	0	0	54	3962
2026-01-30 11:01:30.26	252.53	36.28	-41.8	-42.8	18.3	0.00e+00	0	43	0	0	54	4204
2026-01-30 11:01:33.26	253.76	36.41	-41.6	-42.4	18.8	0.00e+00	0	43	0	0	54	4028
2026-01-30 11:01:36.27	255.00	36.53	-42.2	-43.2	18.1	4.40e-04	0	43	0	0	55	4153
2026-01-30 11:01:39.27	256.25	36.63	-42.1	-43.1	18.1	0.00e+00	0	43	0	0	55	4121
2026-01-30 11:01:42.26	257.49	36.72	-42.0	-42.9	18.1	0.00e+00	0	44	0	0	55	4041
2026-01-30 11:01:45.26	258.75	36.80	-42.1	-43.1	18.2	0.00e+00	0	43	0	0	55	4106
2026-01-30 11:01:48.26	260.02	36.85	-42.0	-43.0	18.2	0.00e+00	0	43	0	0	55	4059
2026-01-30 11:01:51.27	261.29	36.90	-41.9	-42.9	18.2	0.00e+00	0	43	0	0	55	4026
2026-01-30 11:01:54.27	262.56	36.92	-41.7	-42.6	18.4	0.00e+00	0	43	0	0	55	3882
2026-01-30 11:01:57.28	263.84	36.94	-41.6	-42.5	18.6	0.00e+00	0	43	0	0	54	4094
2026-01-30 11:02:00.28	265.11	36.93	-41.7	-42.6	18.5	0.00e+00	0	43	0	0	54	4136
2026-01-30 11:02:03.29	266.38	36.91	-41.6	-42.5	18.7	0.00e+00	0	43	0	0	54	4085
2026-01-30 11:02:06.29	267.65	36.88	-41.6	-42.4	18.7	0.00e+00	0	43	0	0	54	4050
2026-01-30 11:02:09.29	268.92	36.83	-41.6	-42.5	18.7	0.00e+00	0	43	0	0	54	4072
2026-01-30 11:02:12.29	270.18	36.76	-42.1	-43.0	18.2	0.00e+00	0	44	0	0	54	4322
2026-01-30 11:02:15.30	271.44	36.68	-41.9	-42.9	18.3	0.00e+00	0	43	0	0	54	4255
2026-01-30 11:02:18.30	272.69	36.59	-42.2	-43.1	18.1	0.00e+00	0	43	0	0	55	4142
2026-01-30 11:02:21.30	273.93	36.48	-42.1	-43.0	18.3	0.00e+00	0	43	0	0	55	4071
2026-01-30 11:02:24.31	275.16	36.35	-42.1	-43.0	18.2	0.00e+00	0	43	0	0	55	4082
2026-01-30 11:02:27.32	276.39	36.21	-42.1	-43.0	18.1	0.00e+00	0	43	0	0	55	4091
2026-01-30 11:02:30.33	277.60	36.06	-42.3	-43.3	18.0	0.00e+00	0	43	0	0	55	4206
2026-01-30 11:02:33.34	278.81	35.90	-42.0	-42.9	18.4	0.00e+00	0	43	0	0	55	4012
2026-01-30 11:02:36.34	280.00	35.72	-42.0	-42.9	18.3	1.22e-05	0	43	0	0	55	4049
2026-01-30 11:02:39.34	281.17	35.53	-42.2	-43.1	18.1	0.00e+00	0	43	0	0	55	4136
2026-01-30 11:02:42.34	282.33	35.33	-42.3	-43.3	17.9	0.00e+00	0	43	0	0	55	4222
2026-01-30 11:02:45.34	283.47	35.11	-42.0	-42.9	18.3	0.00e+00	0	43	0	0	55	4032
2026-01-30 11:02:48.35	284.61	34.89	-42.0	-42.9	18.4	0.00e+00	0	43	0	0	55	4042
2026-01-30 11:02:51.35	285.72	34.65	-41.6	-42.4	18.7	0.00e+00	0	43	0	0	55	3818
2026-01-30 11:02:54.36	286.82	34.41	-41.4	-42.2	19.1	0.00e+00	0	43	0	0	54	3919
2026-01-30 11:02:57.36	287.90	34.16	-41.4	-42.3	18.9	0.00e+00	0	43	0	0	54	3967
2026-01-30 11:03:00.37	288.97	33.89	-41.8	-42.7	18.5	1.06e-05	0	43	0	0	54	4146
2026-01-30 11:03:03.38	290.02	33.62	-41.4	-42.3	18.8	0.00e+00	0	43	0	0	54	3964
2026-01-30 11:03:06.38	291.05	33.34	-41.4	-42.2	19.0	0.00e+00	0	43	0	0	54	3952
2026-01-30 11:03:09.39	292.07	33.06	-41.3	-42.2	19.1	2.05e-05	0	43	0	0	54	3927
2026-01-30 11:03:12.39	293.07	32.76	-40.9	-41.8	19.5	0.00e+00	0	43	0	0	53	3963
2026-01-30 11:03:15.40	294.05	32.46	-41.0	-41.8	19.4	0.00e+00	0	43	0	0	53	3965
2026-01-30 11:03:18.41	295.01	32.16	-41.2	-42.0	19.2	0.00e+00	0	43	0	0	53	4070
2026-01-30 11:03:21.40	295.95	31.85	-41.0	-41.8	19.5	0.00e+00	0	44	0	0	53	3973
2026-01-30 11:03:24.41	296.87	31.53	-40.9	-41.7	19.6	1.90e-05	0	43	0	0	53	3933
2026-01-30 11:03:27.42	297.78	31.21	-40.6	-41.4	19.8	0.00e+00	0	43	0	0	53	3788
2026-01-30 11:03:30.42	298.67	30.89	-41.0	-41.8	19.5	0.00e+00	0	43	0	0	53	3967
2026-01-30 11:03:33.43	299.54	30.56	-40.6	-41.4	19.8	7.00e-07	0	43	0	0	53	3805
2026-01-30 11:03:36.43	300.40	30.23	-40.6	-41.4	19.8	0.00e+00	0	43	0	0	53	3783
2026-01-30 11:03:39.43	301.23	29.90	-40.9	-41.8	19.5	0.00e+00	0	43	0	0	53	3970
2026-01-30 11:03:42.43	302.05	29.56	-40.9	-41.6	19.6	0.00e+00	0	43	0	0	53	3909
2026-01-30 11:03:45.44	302.86	29.22	-40.4	-41.1	19.9	0.00e+00	0	43	0	0	52	3913
2026-01-30 11:03:48.44	303.65	28.88	-40.3	-41.0	20.0	0.00e+00	0	43	0	0	52	3865
2026-01-30 11:03:51.45	304.42	28.54	-40.1	-40.8	20.3	0.00e+00	0	43	0	0	52	3752
2026-01-30 11:03:54.45	305.17	28.20	-40.2	-40.9	20.2	0.00e+00	0	43	0	0	52	3808
2026-01-30 11:03:57.46	305.91	27.86	-40.6	-41.3	19.7	0.00e+00	0	44	0	0	52	3991
2026-01-30 11:04:00.46	306.64	27.51	-40.4	-41.2	20.0	0.00e+00	0	43	0	0	52	3935
2026-01-30 11:04:03.46	307.34	27.17	-40.3	-41.0	20.0	0.00e+00	0	43	0	0	52	3867
2026-01-30 11:04:06.47	308.04	26.82	-40.3	-41.0	20.1	0.00e+00	0	43	0	0	52	3858
2026-01-30 11:04:09.47	308.72	26.48	-40.3	-41.1	20.1	0.00e+00	0	43	0	0	52	3871
2026-01-30 11:04:12.47	309.38	26.14	-40.4	-41.1	19.9	0.00e+00	0	43	0	0	52	3911
2026-01-30 11:04:15.47	310.03	25.79	-40.2	-40.9	20.2	0.00e+00	0	43	0	0	52	3808
2026-01-30 11:04:18.48	310.67	25.45	-40.3	-41.1	20.0	0.00e+00	0	43	0	0	52	3877
2026-01-30 11:04:21.48	311.29	25.11	-40.4	-41.2	20.0	0.00e+00	0	43	0	0	52	3928
2026-01-30 11:04:24.49	311.91	24.77	-40.4	-41.2	20.0	0.00e+00	0	43	0	0	52	3934
2026-01-30 11:04:27.50	312.50	24.43	-40.1	-40.8	20.2	0.00e+00	0	43	0	0	52	3778
2026-01-30 11:04:30.50	313.09	24.09	-40.1	-40.8	20.2	0.00e+00	0	44	0	0	52	3777
2026-01-30 11:04:33.50	313.66	23.75	-40.3	-41.0	20.1	0.00e+00	0	43	0	0	52	3841
2026-01-30 11:04:36.50	314.22	23.42	-40.3	-41.0	20.0	0.00e+00	0	43	0	0	52	3852
2026-01-30 11:04:39.51	314.77	23.08	-40.4	-41.1	19.9	0.00e+00	0	43	0	0	52	3911
2026-01-30 11:04:42.52	315.31	22.75	-40.5	-41.3	19.8	0.00e+00	0	43	0	0	52	3971
2026-01-30 11:04:45.52	315.84	22.42	-40.6	-41.4	19.7	0.00e+00	0	43	0	0	52	4027
2026-01-30 11:04:48.53	316.36	22.09	-40.5	-41.3	19.8	0.00e+00	0	43	0	0	52	3979
2026-01-30 11:04:51.53	316.86	21.77	-40.7	-41.6	19.6	0.00e+00	0	43	0	0	52	4104
2026-01-30 11:04:54.53	317.36	21.44	-40.7	-41.6	19.6	0.00e+00	0	43	0	0	52	4105
2026-01-30 11:04:57.52	317.84	21.12	-40.7	-41.6	19.6	0.00e+00	0	43	0	0	52	4100
2026-01-30 11:05:00.53	318.32	20.80	-40.6	-41.4	19.7	0.00e+00	0	43	0	0	52	4027
2026-01-30 11:05:03.53	318.79	20.48	-40.4	-41.2	19.8	0.00e+00	0	43	0	0	52	3953
2026-01-30 11:05:06.54	319.25	20.17	-40.3	-41.2	19.8	0.00e+00	0	43	0	0	52	3914
2026-01-30 11:05:09.55	319.70	19.85	-40.4	-41.3	19.6	0.00e+00	0	43	0	0	52	3963
2026-01-30 11:05:12.55	320.14	19.54	-40.3	-41.1	19.8	0.00e+00	0	43	0	0	52	3894
2026-01-30 11:05:15.55	320.57	19.23	-40.3	-41.1	19.8	0.00e+00	0	43	0	0	52	3890
2026-01-30 11:05:18.56	320.99	18.93	-40.4	-41.2	19.8	0.00e+00	0	44	0	0	52	3916
2026-01-30 11:05:21.56	321.40	18.62	-40.6	-41.4	19.5	0.00e+00	0	43	0	0	52	4034
2026-01-30 11:05:24.56	321.81	18.32	-40.5	-41.3	19.7	0.00e+00	0	43	0	0	52	3963
2026-01-30 11:05:27.57	322.21	18.02	-40.7	-41.5	19.5	0.00e+00	0	43	0	0	52	4072
2026-01-30 11:05:30.57	322.60	17.72	-40.6	-41.4	19.5	0.00e+00	0	44	0	0	52	4050
2026-01-30 11:05:33.57	322.99	17.43	-40.5	-41.3	19.7	0.00e+00	0	43	0	0	52	3960
2026-01-30 11:05:36.58	323.36	17.14	-40.4	-41.2	19.7	0.00e+00	0	43	0	0	52	3954
2026-01-30 11:05:39.58	323.73	16.85	-40.6	-41.4	19.5	0.00e+00	0	43	0	0	52	4013
2026-01-30 11:05:42.59	324.10	16.56	-41.0	-41.8	19.2	0.00e+00	0	43	0	0	52	4203
2026-01-30 11:05:45.59	324.45	16.27	-41.1	-41.9	19.0	0.00e+00	0	43	0	0	52	4289
2026-01-30 11:05:48.59	324.80	15.99	-41.2	-42.1	18.9	0.00e+00	0	43	0	0	52	4364
2026-01-30 11:05:51.60	325.15	15.71	-41.2	-42.1	18.8	0.00e+00	0	43	0	0	53	4145
2026-01-30 11:05:54.60	325.49	15.43	-41.3	-42.4	18.5	0.00e+00	0	44	0	0	53	4274
2026-01-30 11:05:57.61	325.82	15.15	-41.3	-42.4	18.6	0.00e+00	0	43	0	0	53	4243
2026-01-30 11:06:00.61	326.14	14.88	-41.2	-42.2	18.7	0.00e+00	0	44	0	0	53	4180
2026-01-30 11:06:03.62	326.47	14.61	-41.2	-42.2	18.7	0.00e+00	0	44	0	0	53	4191
2026-01-30 11:06:06.62	326.78	14.34	-41.2	-42.3	18.6	0.00e+00	0	43	0	0	53	4208
2026-01-30 11:06:09.62	327.09	14.07	-41.2	-42.3	18.6	0.00e+00	0	44	0	0	53	4230
2026-01-30 11:06:12.63	327.39	13.81	-41.4	-42.4	18.5	0.00e+00	0	43	0	0	53	4290
2026-01-30 11:06:15.63	327.69	13.54	-41.6	-42.6	18.3	0.00e+00	0	43	0	0	53	4389
2026-01-30 11:06:18.63	327.99	13.28	-41.6	-42.6	18.3	0.00e+00	0	43	0	0	53	4350
2026-01-30 11:06:21.64	328.28	13.03	-41.5	-42.5	18.4	0.00e+00	0	44	0	0	53	4301
2026-01-30 11:06:24.64	328.56	12.77	-41.5	-42.5	18.4	0.00e+00	0	44	0	0	53	4293
2026-01-30 11:06:27.65	328.84	12.51	-41.4	-42.4	18.4	0.00e+00	0	44	0	0	53	4264
2026-01-30 11:06:30.66	329.12	12.26	-41.5	-42.4	18.4	0.00e+00	0	43	0	0	53	4277
2026-01-30 11:06:33.66	329.39	12.01	-41.4	-42.4	18.5	0.00e+00	0	43	0	0	53	4243
2026-01-30 11:06:36.67	329.66	11.76	-41.4	-42.3	18.5	0.00e+00	0	43	0	0	53	4229
2026-01-30 11:06:39.66	329.92	11.52	-41.4	-42.3	18.5	0.00e+00	0	44	0	0	53	4234
2026-01-30 11:06:42.67	330.18	11.27	-41.3	-42.3	18.6	0.00e+00	0	43	0	0	53	4210
2026-01-30 11:06:45.67	330.43	11.03	-41.2	-42.1	18.7	0.00e+00	0	43	0	0	53	4133
2026-01-30 11:06:48.68	330.68	10.79	-41.3	-42.3	18.5	0.00e+00	0	44	0	0	53	4198
2026-01-30 11:06:51.68	330.93	10.55	-41.5	-42.4	18.2	0.00e+00	0	43	0	0	53	4287
2026-01-30 11:06:54.68	331.17	10.32	-41.8	-42.8	17.8	0.00e+00	0	44	0	0	54	4231
2026-01-30 11:06:57.69	331.41	10.08	-42.0	-43.1	17.6	0.00e+00	0	44	0	0	54	4367
2026-01-30 11:07:00.69	331.64	9.85	-41.9	-43.1	17.6	0.00e+00	0	44	0	0	54	4360
2026-01-30 11:07:03.70	331.88	9.62	-41.9	-43.1	17.6	0.00e+00	0	44	0	0	54	4372
2026-01-30 11:07:06.70	332.10	9.39	-42.0	-43.2	17.6	0.00e+00	0	43	0	0	54	4405
2026-01-30 11:07:09.71	332.33	9.16	-41.9	-43.0	17.7	0.00e+00	0	43	0	0	54	4318
2026-01-30 11:07:12.72	332.55	8.93	-49.6	-62.0	3.8	1.49e+00	0	43	104	0	69	16150
2026-01-30 11:07:15.72	332.77	8.71	-48.9	-62.1	3.8	1.49e+00	0	43	104	0	68	17293
2026-01-30 11:07:18.73	332.99	8.49	-49.7	-62.2	3.8	1.49e+00	0	43	104	0	70	15658
2026-01-30 11:07:21.74	333.20	8.26	-49.9	-62.2	3.8	1.49e+00	0	43	104	0	70	15633
2026-01-30 11:07:24.75	333.41	8.04	-50.1	-62.3	3.8	1.49e+00	0	43	104	0	70	15765
2026-01-30 11:07:27.76	333.62	7.83	-50.1	-62.3	3.8	1.49e+00	0	43	104	0	71	14980
2026-01-30 11:07:30.77	333.82	7.61	-50.1	-62.3	3.8	1.49e+00	0	43	104	0	71	15018
2026-01-30 11:07:33.78	334.02	7.39	-50.1	-62.3	3.8	1.49e+00	0	44	104	0	71	14909
2026-01-30 11:07:36.78	334.22	7.18	-50.1	-62.3	3.8	1.49e+00	0	44	104	0	71	14958
2026-01-30 11:07:39.79	334.42	6.97	-50.1	-62.3	3.8	1.49e+00	0	43	104	0	71	14969
2026-01-30 11:07:42.80	334.61	6.76	-50.1	-62.3	3.8	1.49e+00	0	43	104	0	71	14943
2026-01-30 11:07:45.81	334.80	6.55	-50.1	-62.3	3.8	1.49e+00	0	44	104	0	71	15001
2026-01-30 11:07:48.81	334.99	6.34	-50.1	-62.3	3.8	1.49e+00	0	43	104	0	71	14952
2026-01-30 11:07:51.82	335.18	6.14	-50.1	-62.2	3.8	1.49e+00	0	44	104	0	71	14842
2026-01-30 11:07:54.83	335.36	5.93	-50.1	-62.3	3.8	1.49e+00	0	44	104	0	71	14909
2026-01-30 11:07:57.84	335.54	5.73	-50.1	-62.2	3.8	1.49e+00	0	44	104	0	71	14853
2026-01-30 11:08:00.84	335.72	5.53	-50.1	-62.2	3.8	1.49e+00	0	44	104	0	71	14872
2026-01-30 11:08:03.85	335.89	5.33	-50.1	-62.3	3.8	1.49e+00	0	44	104	0	71	14907
2026-01-30 11:08:06.86	336.07	5.13	-50.1	-62.3	3.8	1.49e+00	0	43	104	0	71	14923

#Closed at: 2026-01-30 11:08:09
#Recorded file [0 MB]: D:/Data/31040_260130_135550.dat