passes_logs/2026/01/30/T1/T1__20260130_104216_FENGYUN_3D_rec.log

#Pass ID: 20260130_104216_FENGYUN 3D
#Satellite: FENGYUN 3D
#Configuration: FENGYUN 3D
#almurnet v.1.7.20251203
#Start time: 2026-01-30 10:42:17

#Version: 2.0.20230620
#Station: T1
#Location: 37.570604 lon 55.790049 lat
#TLE: 1 43010U 17072A   26029.52179110  .00000394  00000+0  20818-3 0  9997
#TLE: 2 43010  98.9957   1.5649 0002507  83.7772 276.3689 14.19703315425310

#Time	Az	El	Level	Level2	SNR	BER	BlckErr	Temp	State	Recorded	gain1	gain2
2026-01-30 10:42:17.72	119.21	5.06	-50.8	-62.2	3.8	8.46e-01	0	41	0	0	72	14022
2026-01-30 10:42:20.70	119.01	5.26	-51.1	-62.3	3.8	8.47e-01	0	41	104	0	73	13266
2026-01-30 10:42:23.70	118.81	5.45	-51.0	-62.2	3.8	8.47e-01	0	41	104	0	72	13982
2026-01-30 10:42:26.70	118.60	5.65	-50.8	-62.2	3.8	8.47e-01	0	41	104	0	72	13908
2026-01-30 10:42:29.69	118.40	5.85	-50.8	-62.1	3.8	8.47e-01	0	41	104	0	72	13755
2026-01-30 10:42:32.68	118.19	6.05	-50.8	-62.0	3.8	8.48e-01	0	41	104	0	72	13593
2026-01-30 10:42:35.68	117.98	6.25	-50.4	-61.6	3.8	8.46e-01	0	41	104	0	71	13729
2026-01-30 10:42:38.67	117.76	6.45	-50.4	-61.4	3.8	8.47e-01	0	41	104	0	71	13419
2026-01-30 10:42:41.66	117.54	6.65	-50.4	-61.2	3.8	8.46e-01	0	41	104	0	71	13156
2026-01-30 10:42:44.66	117.32	6.86	-50.4	-61.1	3.8	8.46e-01	0	42	104	0	71	13050
2026-01-30 10:42:47.65	117.10	7.06	-50.4	-61.1	3.8	8.47e-01	0	42	104	0	71	13042
2026-01-30 10:42:50.64	116.87	7.27	-50.3	-60.3	3.8	8.47e-01	0	42	104	0	71	11917
2026-01-30 10:42:53.63	116.64	7.48	-50.1	-59.2	3.8	8.45e-01	0	42	104	0	71	10522
2026-01-30 10:42:56.63	116.40	7.69	-50.1	-59.0	4.0	8.46e-01	0	42	104	0	71	10237
2026-01-30 10:42:59.62	116.16	7.90	-48.0	-51.9	8.3	9.34e-02	0	42	0	5242880	68	5347
2026-01-30 10:43:02.62	115.92	8.11	-43.9	-45.6	14.5	4.50e-06	0	42	0	23068672	59	4351
2026-01-30 10:43:05.63	115.67	8.32	-40.9	-42.4	16.6	0.00e+00	0	42	0	39845888	53	4256
2026-01-30 10:43:08.63	115.42	8.54	-41.1	-42.4	17.1	0.00e+00	0	42	0	56623104	53	4266
2026-01-30 10:43:11.64	115.17	8.76	-44.2	-45.4	15.0	0.00e+00	0	42	0	73400320	58	4494
2026-01-30 10:43:14.65	114.91	8.97	-47.6	-51.1	9.0	1.47e-02	0	42	0	90177536	65	5801
2026-01-30 10:43:17.65	114.65	9.19	-48.4	-53.0	7.2	8.54e-02	0	42	0	106954752	67	6432
2026-01-30 10:43:20.65	114.38	9.41	-46.5	-49.3	10.5	8.06e-01	0	42	104	116391936	65	4709
2026-01-30 10:43:23.65	114.11	9.64	-41.1	-42.2	17.8	0.00e+00	0	42	0	132120576	54	3944
2026-01-30 10:43:26.65	113.84	9.86	-40.5	-41.5	18.5	0.00e+00	0	43	0	148897792	53	3863
2026-01-30 10:43:29.66	113.56	10.08	-40.4	-41.4	18.6	0.00e+00	0	43	0	165675008	52	4030
2026-01-30 10:43:32.66	113.27	10.31	-40.1	-41.2	18.8	0.00e+00	0	42	0	182452224	52	3914
2026-01-30 10:43:35.66	112.99	10.54	-40.1	-41.1	19.0	0.00e+00	0	42	0	199229440	51	4122
2026-01-30 10:43:38.66	112.69	10.76	-39.9	-40.9	19.2	0.00e+00	0	42	0	216006656	51	4040
2026-01-30 10:43:41.67	112.40	10.99	-40.1	-41.0	19.1	0.00e+00	0	43	0	233832448	51	4094
2026-01-30 10:43:44.67	112.09	11.23	-40.0	-41.0	19.1	0.00e+00	0	43	0	250609664	51	4075
2026-01-30 10:43:47.68	111.79	11.46	-40.0	-41.0	19.1	0.00e+00	0	43	0	267386880	51	4073
2026-01-30 10:43:50.67	111.47	11.69	-40.0	-41.0	19.2	0.00e+00	0	43	0	284164096	51	4052
2026-01-30 10:43:53.68	111.16	11.93	-39.9	-40.9	19.3	0.00e+00	0	43	0	300941312	51	4021
2026-01-30 10:43:56.68	110.83	12.17	-39.9	-40.9	19.2	0.00e+00	0	43	0	317718528	51	4027
2026-01-30 10:43:59.68	110.51	12.40	-39.8	-40.8	19.3	0.00e+00	0	43	0	334495744	51	3993
2026-01-30 10:44:02.68	110.17	12.64	-39.8	-40.8	19.3	0.00e+00	0	43	0	351272960	51	3987
2026-01-30 10:44:05.69	109.83	12.89	-39.7	-40.6	19.5	0.00e+00	0	43	0	368050176	51	3905
2026-01-30 10:44:08.69	109.49	13.13	-39.4	-40.4	19.8	0.00e+00	0	43	0	384827392	50	4007
2026-01-30 10:44:11.70	109.14	13.37	-39.4	-40.4	19.8	0.00e+00	0	43	0	401604608	50	4012
2026-01-30 10:44:14.70	108.78	13.62	-39.5	-40.4	19.7	0.00e+00	0	43	0	419430400	50	4051
2026-01-30 10:44:17.70	108.42	13.86	-39.4	-40.3	19.9	0.00e+00	0	43	0	436207616	50	3981
2026-01-30 10:44:20.71	108.05	14.11	-39.2	-40.3	19.8	5.24e-04	0	43	0	452984832	50	3966
2026-01-30 10:44:23.71	107.68	14.36	-39.1	-40.0	20.2	0.00e+00	0	43	0	469762048	50	3837
2026-01-30 10:44:26.71	107.29	14.61	-39.1	-40.0	20.2	0.00e+00	0	43	0	486539264	49	4069
2026-01-30 10:44:29.71	106.91	14.86	-38.8	-39.7	20.4	0.00e+00	0	43	0	503316480	49	3943
2026-01-30 10:44:32.71	106.51	15.12	-38.6	-39.5	20.6	6.52e-05	0	43	0	520093696	49	3838
2026-01-30 10:44:35.72	106.11	15.37	-38.7	-39.6	20.6	0.00e+00	0	43	0	536870912	49	3882
2026-01-30 10:44:38.72	105.70	15.63	-38.7	-39.5	20.6	0.00e+00	0	43	0	554696704	49	3858
2026-01-30 10:44:41.73	105.28	15.89	-38.6	-39.5	20.6	0.00e+00	0	43	0	571473920	49	3864
2026-01-30 10:44:44.73	104.86	16.14	-38.5	-39.4	20.8	0.00e+00	0	43	0	588251136	48	4005
2026-01-30 10:44:47.74	104.43	16.40	-38.5	-39.3	20.8	0.00e+00	0	43	0	605028352	48	3997
2026-01-30 10:44:50.75	103.99	16.67	-38.4	-39.3	20.8	0.00e+00	0	43	0	621805568	48	3975
2026-01-30 10:44:53.75	103.54	16.93	-38.4	-39.3	20.8	0.00e+00	0	43	0	638582784	48	3975
2026-01-30 10:44:56.76	103.09	17.19	-38.3	-39.2	20.9	0.00e+00	0	43	0	655360000	48	3941
2026-01-30 10:44:59.76	102.63	17.45	-38.3	-39.2	20.9	0.00e+00	0	43	0	672137216	48	3919
2026-01-30 10:45:02.76	102.16	17.72	-38.2	-39.0	21.1	0.00e+00	0	43	0	688914432	48	3854
2026-01-30 10:45:05.76	101.68	17.98	-37.9	-38.7	21.1	0.00e+00	0	43	0	705691648	47	3947
2026-01-30 10:45:08.77	101.19	18.25	-37.9	-38.8	21.1	0.00e+00	0	43	0	723517440	47	3964
2026-01-30 10:45:11.78	100.69	18.52	-38.0	-38.8	21.0	0.00e+00	0	43	0	740294656	47	3992
2026-01-30 10:45:14.78	100.19	18.78	-37.9	-38.8	21.1	0.00e+00	0	43	0	757071872	47	3964
2026-01-30 10:45:17.79	99.67	19.05	-37.5	-38.3	21.5	0.00e+00	0	43	0	773849088	47	3760
2026-01-30 10:45:20.79	99.15	19.32	-37.6	-38.5	21.3	0.00e+00	0	43	0	790626304	47	3838
2026-01-30 10:45:23.80	98.62	19.59	-37.8	-38.7	21.2	0.00e+00	0	43	0	807403520	47	3933
2026-01-30 10:45:26.80	98.07	19.86	-37.8	-38.6	21.2	0.00e+00	0	43	0	824180736	47	3909
2026-01-30 10:45:29.81	97.52	20.13	-37.8	-38.6	21.2	0.00e+00	0	43	0	840957952	47	3912
2026-01-30 10:45:32.81	96.96	20.39	-37.7	-38.5	21.3	0.00e+00	0	43	0	858783744	47	3866
2026-01-30 10:45:35.82	96.39	20.66	-37.7	-38.6	21.3	0.00e+00	0	43	0	875560960	47	3869
2026-01-30 10:45:38.82	95.80	20.93	-37.6	-38.5	21.4	0.00e+00	0	43	0	892338176	47	3828
2026-01-30 10:45:41.82	95.21	21.20	-37.5	-38.3	21.4	0.00e+00	0	43	0	909115392	47	3779
2026-01-30 10:45:44.82	94.61	21.47	-37.4	-38.2	21.6	0.00e+00	0	43	0	925892608	46	3938
2026-01-30 10:45:47.83	94.00	21.74	-37.3	-38.1	21.7	0.00e+00	0	43	0	942669824	46	3879
2026-01-30 10:45:50.83	93.37	22.00	-37.2	-38.0	21.7	0.00e+00	0	43	0	959447040	46	3847
2026-01-30 10:45:53.84	92.74	22.27	-37.1	-37.9	21.8	0.00e+00	0	43	0	976224256	45	4013
2026-01-30 10:45:56.85	92.09	22.53	-37.0	-37.8	21.9	0.00e+00	0	43	0	994050048	45	3966
2026-01-30 10:45:59.85	91.43	22.80	-37.0	-37.8	21.9	0.00e+00	0	43	0	1010827264	45	3968
2026-01-30 10:46:02.86	90.76	23.06	-37.1	-37.9	21.8	0.00e+00	0	43	0	1027604480	45	4027
2026-01-30 10:46:05.86	90.08	23.32	-37.0	-37.8	21.9	0.00e+00	0	43	0	1044381696	45	3995
2026-01-30 10:46:08.86	89.39	23.58	-36.8	-37.6	22.0	0.00e+00	0	43	0	1061158912	45	3879
2026-01-30 10:46:11.87	88.69	23.84	-36.9	-37.7	21.9	0.00e+00	0	43	0	1077936128	45	3929
2026-01-30 10:46:14.87	87.97	24.09	-37.0	-37.9	21.8	0.00e+00	0	43	0	1094713344	45	4012
2026-01-30 10:46:17.87	87.25	24.34	-36.8	-37.6	22.0	0.00e+00	0	43	0	1111490560	45	3881
2026-01-30 10:46:20.87	86.51	24.59	-36.8	-37.6	22.0	0.00e+00	0	43	0	1129316352	45	3900
2026-01-30 10:46:23.88	85.76	24.84	-36.6	-37.4	22.2	0.00e+00	0	43	0	1146093568	45	3806
2026-01-30 10:46:26.88	85.00	25.08	-36.6	-37.4	22.1	0.00e+00	0	43	0	1162870784	45	3804
2026-01-30 10:46:29.89	84.22	25.32	-36.6	-37.4	22.2	0.00e+00	0	43	0	1179648000	45	3795
2026-01-30 10:46:32.89	83.44	25.55	-36.7	-37.5	22.1	0.00e+00	0	43	0	1196425216	45	3835
2026-01-30 10:46:35.90	82.64	25.79	-36.6	-37.4	22.2	0.00e+00	0	43	0	1213202432	45	3811
2026-01-30 10:46:38.90	81.83	26.01	-36.5	-37.3	22.3	0.00e+00	0	43	0	1229979648	44	3969
2026-01-30 10:46:41.91	81.01	26.24	-36.3	-37.1	22.4	0.00e+00	0	43	0	1246756864	44	3889
2026-01-30 10:46:44.91	80.18	26.46	-36.5	-37.3	22.2	0.00e+00	0	43	0	1263534080	44	3977
2026-01-30 10:46:47.91	79.34	26.67	-36.7	-37.5	22.0	0.00e+00	0	43	0	1280311296	44	4079
2026-01-30 10:46:50.91	78.49	26.88	-36.4	-37.2	22.3	0.00e+00	0	43	0	1298137088	44	3916
2026-01-30 10:46:53.91	77.62	27.08	-36.4	-37.1	22.4	0.00e+00	0	43	0	1314914304	44	3911
2026-01-30 10:46:56.92	76.74	27.28	-36.4	-37.2	22.3	0.00e+00	0	43	0	1331691520	44	3946
2026-01-30 10:46:59.92	75.86	27.47	-36.1	-36.8	22.7	0.00e+00	0	43	0	1348468736	44	3768
2026-01-30 10:47:02.93	74.96	27.65	-36.1	-36.9	22.6	0.00e+00	0	43	0	1365245952	44	3787
2026-01-30 10:47:05.94	74.05	27.83	-36.0	-36.8	22.7	0.00e+00	0	43	0	1382023168	44	3761
2026-01-30 10:47:08.95	73.13	28.00	-36.1	-36.9	22.6	0.00e+00	0	43	0	1398800384	44	3793
2026-01-30 10:47:11.95	72.20	28.17	-36.0	-36.8	22.7	0.00e+00	0	43	0	1415577600	44	3748
2026-01-30 10:47:14.96	71.27	28.32	-35.7	-36.5	22.8	0.00e+00	0	43	0	1433403392	43	3832
2026-01-30 10:47:17.96	70.32	28.47	-35.7	-36.5	22.8	0.00e+00	0	43	0	1450180608	43	3829
2026-01-30 10:47:20.96	69.37	28.61	-35.8	-36.6	22.8	0.00e+00	0	43	0	1466957824	43	3882
2026-01-30 10:47:23.97	68.40	28.74	-35.6	-36.4	22.9	0.00e+00	0	43	0	1483735040	43	3795
2026-01-30 10:47:26.98	67.43	28.87	-35.6	-36.4	23.0	0.00e+00	0	43	0	1500512256	43	3783
2026-01-30 10:47:29.98	66.46	28.98	-35.7	-36.4	22.9	0.00e+00	0	43	0	1517289472	43	3811
2026-01-30 10:47:32.99	65.47	29.09	-35.6	-36.3	23.0	0.00e+00	0	43	0	1534066688	43	3776
2026-01-30 10:47:36.00	64.48	29.18	-35.5	-36.2	23.1	0.00e+00	0	43	0	1550843904	42	3941
2026-01-30 10:47:39.01	63.48	29.27	-35.5	-36.3	23.0	0.00e+00	0	43	0	1568669696	42	3974
2026-01-30 10:47:42.01	62.48	29.35	-35.3	-36.0	23.3	0.00e+00	0	43	0	1585446912	42	3839
2026-01-30 10:47:45.02	61.47	29.42	-35.3	-36.1	23.2	0.00e+00	0	43	0	1602224128	42	3889
2026-01-30 10:47:48.02	60.46	29.48	-35.5	-36.3	22.9	0.00e+00	0	43	0	1619001344	42	3989
2026-01-30 10:47:51.01	59.46	29.52	-35.4	-36.1	23.2	0.00e+00	0	43	0	1635778560	42	3889
2026-01-30 10:47:54.02	58.44	29.56	-35.4	-36.1	23.2	0.00e+00	0	43	0	1652555776	42	3889
2026-01-30 10:47:57.01	57.43	29.59	-35.4	-36.1	23.2	0.00e+00	0	43	0	1669332992	42	3890
2026-01-30 10:48:00.01	56.41	29.61	-35.2	-36.0	23.3	0.00e+00	0	43	0	1686110208	42	3837
2026-01-30 10:48:03.01	55.39	29.62	-35.4	-36.1	23.1	0.00e+00	0	43	0	1702887424	42	3898
2026-01-30 10:48:06.01	54.37	29.62	-35.3	-36.1	23.2	0.00e+00	0	43	0	1719664640	42	3869
2026-01-30 10:48:09.02	53.35	29.60	-35.3	-36.1	23.2	0.00e+00	0	43	0	1737490432	42	3874
2026-01-30 10:48:12.03	52.33	29.58	-35.5	-36.2	23.1	0.00e+00	0	43	0	1754267648	42	3945
2026-01-30 10:48:15.03	51.32	29.55	-35.6	-36.3	23.0	0.00e+00	0	43	0	1771044864	42	3982
2026-01-30 10:48:18.04	50.30	29.51	-35.6	-36.3	23.0	0.00e+00	0	43	0	1787822080	42	3986
2026-01-30 10:48:21.05	49.29	29.46	-35.4	-36.2	23.1	0.00e+00	0	43	0	1804599296	42	3919
2026-01-30 10:48:24.05	48.28	29.39	-35.2	-36.0	23.3	0.00e+00	0	43	0	1821376512	42	3826
2026-01-30 10:48:27.06	47.28	29.32	-35.4	-36.2	23.1	0.00e+00	0	43	0	1838153728	42	3919
2026-01-30 10:48:30.06	46.28	29.24	-35.5	-36.3	23.0	0.00e+00	0	43	0	1854930944	42	3967
2026-01-30 10:48:33.07	45.29	29.15	-35.7	-36.4	22.9	0.00e+00	0	43	0	1871708160	42	4040
2026-01-30 10:48:36.06	44.30	29.05	-35.8	-36.5	23.5	0.00e+00	0	43	0	1889533952	42	4055
2026-01-30 10:48:39.07	43.32	28.94	-35.8	-36.5	23.5	0.00e+00	0	43	0	1906311168	42	4054
2026-01-30 10:48:42.07	42.35	28.83	-35.8	-36.4	23.5	0.00e+00	0	43	0	1923088384	42	4038
2026-01-30 10:48:45.07	41.38	28.70	-36.0	-36.6	23.3	0.00e+00	0	43	0	1939865600	42	4131
2026-01-30 10:48:48.07	40.43	28.56	-36.0	-36.7	23.3	0.00e+00	0	43	0	1956642816	42	4153
2026-01-30 10:48:51.08	39.48	28.42	-35.7	-36.4	23.6	0.00e+00	0	43	0	1973420032	42	4006
2026-01-30 10:48:54.09	38.53	28.27	-35.8	-36.5	23.5	0.00e+00	0	43	0	1990197248	42	4064
2026-01-30 10:48:57.07	37.61	28.11	-36.2	-36.8	23.2	0.00e+00	0	43	0	2006974464	42	4235
2026-01-30 10:49:00.08	36.69	27.95	-36.0	-36.7	23.4	0.00e+00	0	43	0	2024800256	43	3927
2026-01-30 10:49:03.09	35.77	27.78	-36.1	-36.8	23.3	0.00e+00	0	43	0	2041577472	43	3977
2026-01-30 10:49:06.10	34.87	27.60	-36.0	-36.6	23.4	0.00e+00	0	43	0	2058354688	43	3911
2026-01-30 10:49:09.10	33.98	27.41	-36.1	-36.7	23.4	0.00e+00	0	43	0	2075131904	43	3949
2026-01-30 10:49:12.10	33.10	27.22	-36.2	-36.9	23.2	0.00e+00	0	43	0	2091909120	43	4025
2026-01-30 10:49:15.10	32.23	27.02	-36.2	-36.8	23.3	0.00e+00	0	43	0	2108686336	43	4000
2026-01-30 10:49:18.11	31.37	26.81	-36.2	-36.9	23.3	0.00e+00	0	43	0	2125463552	43	4013
2026-01-30 10:49:21.12	30.52	26.60	-36.5	-37.2	22.9	0.00e+00	0	43	0	2143289344	43	4184
2026-01-30 10:49:24.13	29.68	26.39	-36.6	-37.3	22.9	0.00e+00	0	43	0	2160066560	43	4199
2026-01-30 10:49:27.13	28.86	26.17	-37.1	-37.8	22.6	0.00e+00	0	43	0	2176843776	44	4214
2026-01-30 10:49:30.13	28.04	25.95	-37.1	-37.8	22.4	0.00e+00	0	43	0	2193620992	44	4217
2026-01-30 10:49:33.13	27.24	25.72	-37.0	-37.6	22.5	0.00e+00	0	43	0	2210398208	45	3905
2026-01-30 10:49:36.14	26.45	25.49	-37.0	-37.7	22.6	0.00e+00	0	43	0	2227175424	45	3951
2026-01-30 10:49:39.14	25.67	25.25	-36.6	-37.3	22.9	0.00e+00	0	43	0	2243952640	45	3755
2026-01-30 10:49:42.15	24.91	25.01	-36.3	-36.9	23.2	0.00e+00	0	43	0	2260729856	44	3812
2026-01-30 10:49:45.16	24.15	24.76	-36.3	-37.0	23.2	0.00e+00	0	43	0	2278555648	44	3841
2026-01-30 10:49:48.16	23.41	24.52	-36.4	-37.1	23.0	0.00e+00	0	43	0	2295332864	44	3892
2026-01-30 10:49:51.17	22.68	24.27	-36.3	-37.0	23.2	0.00e+00	0	43	0	2312110080	44	3827
2026-01-30 10:49:54.17	21.96	24.02	-36.5	-37.2	23.0	0.00e+00	0	43	0	2328887296	44	3916
2026-01-30 10:49:57.18	21.25	23.76	-36.6	-37.3	22.9	0.00e+00	0	43	0	2345664512	44	3991
2026-01-30 10:50:00.19	20.55	23.51	-36.8	-37.5	22.7	0.00e+00	0	43	0	2362441728	44	4060
2026-01-30 10:50:03.19	19.87	23.25	-36.7	-37.4	22.8	0.00e+00	0	43	0	2379218944	44	4043
2026-01-30 10:50:06.19	19.20	22.99	-36.9	-37.7	22.6	0.00e+00	0	43	0	2395996160	44	4157
2026-01-30 10:50:09.18	18.54	22.73	-36.9	-37.6	22.6	0.00e+00	0	43	0	2412773376	44	4130
2026-01-30 10:50:12.19	17.89	22.47	-36.9	-37.6	22.6	0.00e+00	0	43	0	2429550592	44	4139
2026-01-30 10:50:15.19	17.25	22.20	-36.8	-37.5	22.7	0.00e+00	0	44	0	2446327808	44	4079
2026-01-30 10:50:18.20	16.62	21.94	-37.2	-37.9	22.4	0.00e+00	0	43	0	2464153600	45	4051
2026-01-30 10:50:21.21	16.00	21.67	-37.1	-37.8	22.5	0.00e+00	0	43	0	2480930816	45	4004
2026-01-30 10:50:24.21	15.39	21.40	-37.2	-37.9	22.5	0.00e+00	0	43	0	2497708032	45	4038
2026-01-30 10:50:27.22	14.79	21.14	-37.4	-38.1	22.3	0.00e+00	0	43	0	2514485248	45	4139
2026-01-30 10:50:30.22	14.21	20.87	-37.6	-38.3	22.1	0.00e+00	0	43	0	2531262464	45	4241
2026-01-30 10:50:33.23	13.63	20.60	-37.9	-38.6	21.9	0.00e+00	0	43	0	2548039680	46	4136
2026-01-30 10:50:36.24	13.07	20.33	-37.9	-38.7	21.8	0.00e+00	0	43	0	2564816896	46	4146
2026-01-30 10:50:39.25	12.51	20.06	-38.0	-38.7	21.7	0.00e+00	0	43	0	2581594112	46	4181
2026-01-30 10:50:42.25	11.96	19.80	-37.8	-38.6	21.8	0.00e+00	0	43	0	2599419904	46	4128
2026-01-30 10:50:45.26	11.43	19.53	-37.9	-38.7	21.7	3.44e-04	0	43	0	2616197120	46	4165
2026-01-30 10:50:48.26	10.90	19.26	-38.2	-39.1	21.3	0.00e+00	0	43	0	2632974336	47	4101
2026-01-30 10:50:51.26	10.38	19.00	-38.4	-39.2	21.3	0.00e+00	0	43	0	2649751552	47	4169
2026-01-30 10:50:54.27	9.87	18.73	-38.5	-39.4	21.2	0.00e+00	0	43	0	2666528768	47	4245
2026-01-30 10:50:57.27	9.38	18.46	-38.5	-39.3	21.2	1.90e-04	0	43	0	2683305984	47	4226
2026-01-30 10:51:00.28	8.88	18.20	-38.6	-39.5	21.1	1.17e-04	0	43	0	2700083200	47	4304
2026-01-30 10:51:03.28	8.40	17.93	-38.6	-39.5	21.0	0.00e+00	0	43	0	2716860416	47	4301
2026-01-30 10:51:06.29	7.93	17.67	-38.8	-39.6	21.1	0.00e+00	0	43	0	2734686208	48	4129
2026-01-30 10:51:09.29	7.47	17.41	-39.1	-39.9	20.9	0.00e+00	0	43	0	2751463424	48	4247
2026-01-30 10:51:12.30	7.01	17.14	-39.2	-40.0	20.8	1.06e-04	0	43	0	2768240640	48	4317
2026-01-30 10:51:15.30	6.56	16.88	-39.0	-39.8	20.9	0.00e+00	0	44	0	2785017856	49	3985
2026-01-30 10:51:18.30	6.12	16.62	-39.1	-39.9	20.9	0.00e+00	0	43	0	2801795072	49	4011
2026-01-30 10:51:21.30	5.69	16.36	-39.3	-40.2	20.6	0.00e+00	0	43	0	2818572288	49	4159
2026-01-30 10:51:24.31	5.26	16.10	-39.4	-40.3	20.5	0.00e+00	0	43	0	2835349504	49	4226
2026-01-30 10:51:27.32	4.84	15.85	-39.4	-40.2	20.6	0.00e+00	0	43	0	2852126720	49	4175
2026-01-30 10:51:30.32	4.43	15.59	-39.7	-40.7	20.2	0.00e+00	0	43	0	2869952512	50	4148
2026-01-30 10:51:33.32	4.03	15.34	-39.7	-40.6	20.3	0.00e+00	0	44	0	2886729728	50	4123
2026-01-30 10:51:36.33	3.63	15.08	-39.8	-40.6	20.2	0.00e+00	0	43	0	2903506944	50	4136
2026-01-30 10:51:39.34	3.24	14.83	-39.9	-40.7	20.2	0.00e+00	0	43	0	2920284160	50	4173
2026-01-30 10:51:42.35	2.86	14.58	-39.8	-40.7	20.1	0.00e+00	0	44	0	2937061376	50	4192
2026-01-30 10:51:45.36	2.48	14.33	-39.9	-40.8	20.0	0.00e+00	0	43	0	2953838592	50	4229
2026-01-30 10:51:48.35	2.11	14.08	-40.0	-40.8	20.0	0.00e+00	0	44	0	2970615808	50	4242
2026-01-30 10:51:51.35	1.75	13.84	-40.2	-41.1	19.8	1.10e-06	0	43	0	2987393024	51	4112
2026-01-30 10:51:54.36	1.39	13.59	-40.2	-41.1	19.8	0.00e+00	0	44	0	3005218816	51	4129
2026-01-30 10:51:57.36	1.04	13.35	-40.3	-41.3	19.6	0.00e+00	0	44	0	3021996032	51	4210
2026-01-30 10:52:00.37	0.69	13.10	-40.4	-41.3	19.5	0.00e+00	0	43	0	3038773248	52	3979
2026-01-30 10:52:03.37	0.35	12.86	-41.8	-42.9	8.1	0.00e+00	0	43	0	3055550464	54	4283
2026-01-30 10:52:06.37	0.02	12.62	-42.1	-43.4	8.2	0.00e+00	0	43	0	3072327680	54	4528
2026-01-30 10:52:09.38	359.69	12.38	-41.9	-43.1	8.1	0.00e+00	0	43	0	3089104896	54	4363
2026-01-30 10:52:12.39	359.37	12.15	-40.7	-41.7	19.2	0.00e+00	0	43	0	3105882112	52	4155
2026-01-30 10:52:15.40	359.05	11.91	-40.5	-41.4	19.5	0.00e+00	0	43	0	3122659328	52	4033
2026-01-30 10:52:18.40	358.74	11.68	-40.2	-41.2	19.7	0.00e+00	0	43	0	3140485120	52	3925
2026-01-30 10:52:21.41	358.43	11.44	-40.3	-41.4	19.5	0.00e+00	0	43	0	3157262336	51	4251
2026-01-30 10:52:24.41	358.13	11.21	-40.2	-41.2	19.6	0.00e+00	0	43	0	3174039552	51	4191
2026-01-30 10:52:27.41	357.83	10.98	-40.2	-41.3	19.5	0.00e+00	0	43	0	3190816768	51	4204
2026-01-30 10:52:30.42	357.54	10.75	-40.2	-41.2	19.5	0.00e+00	0	43	0	3207593984	51	4186
2026-01-30 10:52:33.42	357.25	10.53	-40.1	-41.2	19.5	0.00e+00	0	43	0	3224371200	51	4184
2026-01-30 10:52:36.42	356.96	10.30	-40.1	-41.3	19.3	0.00e+00	0	43	0	3241148416	51	4240
2026-01-30 10:52:39.43	356.68	10.07	-40.0	-41.4	19.3	0.00e+00	0	43	0	3257925632	51	4259
2026-01-30 10:52:42.43	356.41	9.85	-40.0	-41.4	19.0	9.04e-05	0	44	0	3274702848	51	4277
2026-01-30 10:52:45.44	356.14	9.63	-40.0	-41.5	19.1	1.64e-04	0	43	0	3291480064	51	4305
2026-01-30 10:52:48.45	355.87	9.41	-39.9	-41.4	19.1	0.00e+00	0	43	0	3309305856	51	4269
2026-01-30 10:52:51.46	355.61	9.19	-39.9	-41.4	19.1	0.00e+00	0	43	0	3326083072	51	4264
2026-01-30 10:52:54.46	355.35	8.97	-40.1	-41.6	18.9	6.32e-04	0	43	0	3342860288	51	4375
2026-01-30 10:52:57.47	355.10	8.75	-50.0	-62.2	3.8	8.47e-01	0	43	104	3346006016	70	15688
2026-01-30 10:53:00.47	354.85	8.54	-50.4	-62.3	3.8	8.47e-01	0	43	104	3346006016	71	15014
2026-01-30 10:53:03.48	354.60	8.32	-50.9	-62.3	3.8	8.47e-01	0	43	104	3346006016	72	14182
2026-01-30 10:53:06.49	354.36	8.11	-50.5	-62.4	3.8	8.48e-01	0	43	104	3346006016	71	15122
2026-01-30 10:53:09.50	354.12	7.90	-51.0	-62.3	3.8	8.47e-01	0	43	104	3346006016	72	14080
2026-01-30 10:53:12.50	353.89	7.69	-50.8	-62.0	3.8	8.46e-01	0	43	104	3346006016	72	13708
2026-01-30 10:53:15.51	353.65	7.48	-50.5	-61.7	3.8	8.47e-01	0	44	104	3346006016	72	13191
2026-01-30 10:53:18.52	353.43	7.27	-50.5	-61.7	3.8	8.47e-01	0	44	104	3346006016	71	13992
2026-01-30 10:53:21.53	353.20	7.07	-50.4	-61.7	3.8	8.47e-01	0	43	104	3346006016	71	13942
2026-01-30 10:53:24.53	352.98	6.86	-50.4	-61.7	3.8	8.48e-01	0	44	104	3346006016	71	13889
2026-01-30 10:53:27.54	352.76	6.66	-50.4	-61.6	3.8	8.46e-01	0	44	104	3346006016	71	13873
2026-01-30 10:53:30.55	352.55	6.45	-50.4	-61.6	3.8	8.48e-01	0	44	104	3346006016	71	13875
2026-01-30 10:53:33.55	352.34	6.25	-50.4	-61.6	3.8	8.49e-01	0	44	104	3346006016	71	13859
2026-01-30 10:53:36.56	352.13	6.05	-50.4	-61.6	3.8	8.48e-01	0	43	104	3346006016	71	13795
2026-01-30 10:53:39.57	351.92	5.85	-50.4	-61.6	3.8	8.47e-01	0	44	104	3346006016	71	13850
2026-01-30 10:53:42.58	351.72	5.65	-50.4	-61.6	3.8	8.46e-01	0	44	104	3346006016	71	13830
2026-01-30 10:53:45.59	351.52	5.46	-50.4	-61.6	3.8	8.46e-01	0	44	104	3346006016	71	13851
2026-01-30 10:53:48.59	351.32	5.26	-50.4	-61.6	3.8	8.47e-01	0	44	104	3346006016	71	13772
2026-01-30 10:53:51.60	351.13	5.07	-50.4	-61.6	3.8	8.47e-01	0	44	104	3346006016	71	13835

#Closed at: 2026-01-30 10:53:53
#Recorded file [3346 MB]: D:/Data/31040_260130_134217.dat