passes_logs/2026/01/30/T1/T1__20260130_094450_SUOMI_NPP_rec.log

#Pass ID: 20260130_094450_SUOMI NPP
#Satellite: SUOMI NPP
#Configuration: NPP
#almurnet v.1.7.20251203
#Start time: 2026-01-30 09:44:52

#Version: 2.0.20230620
#Station: T1
#Location: 37.570604 lon 55.790049 lat
#TLE: 1 37849U 11061A   26029.48304708  .00000140  00000+0  87283-4 0  9999
#TLE: 2 37849  98.7824 331.4079 0002024  38.4342 321.6978 14.19531488738761

#Time	Az	El	Level	Level2	SNR	BER	BlckErr	Temp	State	Recorded	gain1	gain2
2026-01-30 09:44:52.19	152.08	5.15	-51.1	-65.4	3.8	1.49e+00	0	39	104	0	73	19055
2026-01-30 09:44:55.20	152.05	5.37	-51.0	-65.4	3.8	1.49e+00	0	39	104	0	73	18976
2026-01-30 09:44:58.21	152.01	5.59	-51.1	-65.3	3.8	1.49e+00	0	39	104	0	73	18780
2026-01-30 09:45:01.23	151.97	5.81	-50.6	-64.8	3.8	1.49e+00	0	39	104	0	72	18889
2026-01-30 09:45:04.24	151.93	6.04	-49.4	-64.1	3.8	1.49e+00	0	40	104	0	70	19412
2026-01-30 09:45:07.25	151.88	6.26	-49.2	-63.8	3.8	1.49e+00	0	39	104	0	70	18806
2026-01-30 09:45:10.26	151.84	6.49	-49.2	-62.4	3.8	1.49e+00	0	40	104	0	69	16899
2026-01-30 09:45:13.27	151.80	6.72	-49.2	-63.3	3.8	1.49e+00	0	40	104	0	69	18757
2026-01-30 09:45:16.28	151.76	6.95	-49.2	-63.6	3.8	1.49e+00	0	40	104	0	69	19445
2026-01-30 09:45:19.29	151.71	7.18	-49.2	-63.1	3.8	1.49e+00	0	40	104	0	69	18471
2026-01-30 09:45:22.31	151.67	7.42	-49.0	-60.2	4.1	1.44e+00	0	40	0	0	69	13166
2026-01-30 09:45:25.31	151.62	7.65	-48.4	-55.7	6.6	3.57e-01	0	40	0	4194304	68	8279
2026-01-30 09:45:28.32	151.57	7.89	-47.3	-52.1	10.0	1.48e-02	0	40	0	10485760	66	6181
2026-01-30 09:45:31.33	151.53	8.14	-46.9	-50.7	11.9	5.55e-04	0	40	0	15728640	65	5550
2026-01-30 09:45:34.34	151.48	8.38	-46.7	-50.4	12.2	1.94e-04	0	40	0	20971520	65	5355
2026-01-30 09:45:37.35	151.43	8.63	-47.0	-51.2	11.0	1.05e-03	0	40	0	27262976	65	5884
2026-01-30 09:45:40.36	151.38	8.88	-48.0	-54.1	8.1	4.01e-02	0	40	0	32505856	66	7756
2026-01-30 09:45:43.51	151.32	9.14	-48.7	-58.1	4.9	3.13e-01	0	40	0	38797312	67	11609
2026-01-30 09:45:46.37	151.27	9.38	-46.1	-49.3	13.4	0.00e+00	0	41	0	42991616	62	5594
2026-01-30 09:45:49.52	151.21	9.65	-45.3	-47.9	14.5	0.00e+00	0	41	0	47185920	62	4812
2026-01-30 09:45:52.38	151.16	9.90	-44.5	-46.8	15.6	0.00e+00	0	41	0	52428800	61	4459
2026-01-30 09:45:55.53	151.10	10.17	-44.0	-46.0	16.3	0.00e+00	0	41	0	58720256	59	4575
2026-01-30 09:45:58.39	151.05	10.42	-43.5	-45.2	17.1	0.00e+00	0	41	0	63963136	58	4418
2026-01-30 09:46:01.54	150.99	10.70	-43.0	-44.6	17.7	0.00e+00	0	41	0	69206016	57	4377
2026-01-30 09:46:04.41	150.93	10.96	-42.8	-44.3	18.0	0.00e+00	0	41	0	74448896	57	4232
2026-01-30 09:46:07.55	150.87	11.25	-42.6	-44.2	18.1	0.00e+00	0	41	0	80740352	57	4172
2026-01-30 09:46:10.42	150.81	11.51	-42.7	-44.3	18.1	0.00e+00	0	41	0	85983232	57	4194
2026-01-30 09:46:13.63	150.74	11.81	-42.3	-43.8	18.5	0.00e+00	0	41	0	92274688	56	4228
2026-01-30 09:46:16.50	150.68	12.08	-42.2	-43.6	18.7	0.00e+00	0	41	0	97517568	56	4116
2026-01-30 09:46:19.59	150.61	12.37	-41.8	-43.2	18.9	0.00e+00	0	41	0	103809024	55	4165
2026-01-30 09:46:23.08	150.53	12.71	-41.7	-43.0	19.1	0.00e+00	0	41	0	110100480	55	4096
2026-01-30 09:46:25.85	150.47	12.98	-41.8	-43.1	19.1	0.00e+00	0	41	0	115343360	55	4139
2026-01-30 09:46:29.14	150.39	13.31	-41.8	-43.1	19.1	0.00e+00	0	41	0	121634816	55	4112
2026-01-30 09:46:31.86	150.32	13.58	-41.8	-43.0	19.1	0.00e+00	0	41	0	125829120	55	4096
2026-01-30 09:46:35.24	150.24	13.92	-41.8	-43.2	19.0	0.00e+00	0	41	0	133169152	55	4148
2026-01-30 09:46:37.95	150.17	14.20	-41.9	-43.3	18.9	0.00e+00	0	41	0	137363456	55	4237
2026-01-30 09:46:41.25	150.08	14.54	-42.0	-43.4	18.8	0.00e+00	0	41	0	143654912	55	4270
2026-01-30 09:46:44.10	150.01	14.84	-41.9	-43.3	18.9	0.00e+00	0	41	0	148897792	55	4216
2026-01-30 09:46:47.25	149.92	15.18	-41.8	-43.1	19.1	0.00e+00	0	41	0	155189248	55	4128
2026-01-30 09:46:50.42	149.83	15.52	-41.8	-43.1	19.1	0.00e+00	0	41	0	161480704	55	4131
2026-01-30 09:46:53.43	149.75	15.85	-41.7	-43.0	19.2	0.00e+00	0	41	0	166723584	55	4065
2026-01-30 09:46:56.44	149.66	16.18	-41.5	-42.8	19.4	0.00e+00	0	41	0	171966464	55	3975
2026-01-30 09:46:59.45	149.57	16.52	-42.0	-43.3	18.9	0.00e+00	0	41	0	178257920	55	4237
2026-01-30 09:47:02.48	149.48	16.87	-42.2	-43.7	18.5	0.00e+00	0	41	0	183500800	55	4433
2026-01-30 09:47:05.49	149.38	17.21	-42.4	-44.0	18.3	0.00e+00	0	41	0	189792256	55	4558
2026-01-30 09:47:08.49	149.28	17.57	-42.1	-43.6	18.7	0.00e+00	0	41	0	195035136	55	4377
2026-01-30 09:47:11.50	149.18	17.92	-41.7	-43.1	19.1	0.00e+00	0	41	0	200278016	55	4131
2026-01-30 09:47:14.51	149.08	18.29	-41.5	-42.8	19.4	0.00e+00	0	41	0	206569472	54	4204
2026-01-30 09:47:17.54	148.98	18.66	-41.5	-42.7	19.4	0.00e+00	0	42	0	211812352	54	4188
2026-01-30 09:47:20.55	148.87	19.03	-41.6	-42.8	19.4	0.00e+00	0	42	0	218103808	54	4236
2026-01-30 09:47:23.56	148.76	19.41	-41.7	-43.0	19.2	0.00e+00	0	41	0	223346688	54	4318
2026-01-30 09:47:26.56	148.64	19.80	-41.4	-42.6	19.6	0.00e+00	0	41	0	228589568	54	4137
2026-01-30 09:47:29.57	148.53	20.19	-41.1	-42.2	20.0	0.00e+00	0	41	0	234881024	54	3943
2026-01-30 09:47:32.58	148.41	20.59	-41.2	-42.3	19.8	0.00e+00	0	41	0	240123904	53	4239
2026-01-30 09:47:35.78	148.27	21.02	-41.6	-42.9	19.5	0.00e+00	0	41	0	246415360	53	4503
2026-01-30 09:47:38.74	148.15	21.42	-41.5	-42.8	19.5	0.00e+00	0	41	0	251658240	54	4217
2026-01-30 09:47:42.10	148.00	21.89	-41.3	-42.5	19.8	0.00e+00	0	41	0	257949696	54	4075
2026-01-30 09:47:44.88	147.88	22.28	-41.5	-42.8	19.6	0.00e+00	0	41	0	263192576	54	4201
2026-01-30 09:47:48.17	147.73	22.75	-42.0	-43.4	19.0	0.00e+00	0	41	0	269484032	54	4532
2026-01-30 09:47:50.89	147.60	23.15	-42.0	-43.4	19.1	0.00e+00	0	41	0	274726912	55	4252
2026-01-30 09:47:54.25	147.43	23.64	-41.8	-43.1	19.4	0.00e+00	0	41	0	281018368	55	4107
2026-01-30 09:47:56.97	147.29	24.05	-41.9	-43.2	19.4	0.00e+00	0	41	0	286261248	54	4407
2026-01-30 09:48:00.26	147.12	24.56	-42.9	-44.5	18.3	0.00e+00	0	41	0	291504128	56	4569
2026-01-30 09:48:02.98	146.98	24.98	-43.6	-45.3	17.6	0.00e+00	0	41	0	296747008	58	4451
2026-01-30 09:48:06.28	146.79	25.51	-43.4	-45.0	17.9	0.00e+00	0	42	0	303038464	58	4311
2026-01-30 09:48:09.33	146.62	26.00	-43.3	-44.8	18.2	0.00e+00	0	42	0	309329920	58	4207
2026-01-30 09:48:12.63	146.42	26.54	-43.7	-45.4	17.6	0.00e+00	0	41	0	315621376	58	4540
2026-01-30 09:48:15.35	146.26	27.00	-44.2	-46.2	17.0	0.00e+00	0	41	0	319815680	59	4653
2026-01-30 09:48:18.55	146.05	27.55	-44.3	-46.2	16.9	0.00e+00	0	42	0	326107136	59	4666
2026-01-30 09:48:21.56	145.85	28.07	-44.4	-46.3	16.7	0.00e+00	0	41	0	332398592	59	4738
2026-01-30 09:48:24.57	145.65	28.60	-44.2	-46.0	17.0	0.00e+00	0	42	0	337641472	59	4585
2026-01-30 09:48:27.58	145.44	29.15	-44.4	-46.3	16.8	0.00e+00	0	41	0	342884352	59	4711
2026-01-30 09:48:30.59	145.22	29.70	-44.8	-46.8	16.3	0.00e+00	0	42	0	349175808	60	4742
2026-01-30 09:48:33.80	144.98	30.30	-45.0	-47.2	16.0	0.00e+00	0	42	0	354418688	61	4666
2026-01-30 09:48:36.81	144.74	30.88	-45.0	-47.0	16.1	0.00e+00	0	42	0	360710144	61	4592
2026-01-30 09:48:39.99	144.48	31.50	-45.0	-47.1	15.9	0.00e+00	0	42	0	367001600	61	4616
2026-01-30 09:48:42.85	144.24	32.07	-45.5	-47.7	15.4	0.00e+00	0	42	0	372244480	62	4655
2026-01-30 09:48:46.00	143.96	32.70	-46.1	-48.6	14.5	7.00e-07	0	42	0	377487360	63	4913
2026-01-30 09:48:48.86	143.70	33.30	-45.8	-48.2	14.9	0.00e+00	0	42	0	382730240	63	4675
2026-01-30 09:48:52.01	143.40	33.96	-45.8	-48.2	15.0	0.00e+00	0	41	0	389021696	63	4677
2026-01-30 09:48:54.87	143.11	34.57	-46.0	-48.4	14.6	0.00e+00	0	42	0	394264576	63	4809
2026-01-30 09:48:58.00	142.79	35.26	-45.9	-48.3	14.8	0.00e+00	0	42	0	400556032	63	4733
2026-01-30 09:49:00.87	142.48	35.90	-45.9	-48.4	15.0	0.00e+00	0	42	0	405798912	62	5068
2026-01-30 09:49:04.02	142.13	36.61	-46.8	-50.1	13.1	8.23e-05	0	42	0	412090368	64	5473
2026-01-30 09:49:06.93	141.79	37.29	-46.6	-49.6	13.5	6.80e-06	0	42	0	417333248	64	5204
2026-01-30 09:49:10.23	141.38	38.07	-45.4	-47.6	15.5	0.00e+00	0	41	0	423624704	62	4640
2026-01-30 09:49:12.95	141.03	38.72	-45.6	-48.0	15.1	0.00e+00	0	42	0	428867584	62	4818
2026-01-30 09:49:16.24	140.59	39.53	-45.5	-47.8	15.3	0.00e+00	0	42	0	434110464	62	4758
2026-01-30 09:49:18.97	140.20	40.22	-46.0	-48.6	14.6	0.00e+00	0	42	0	439353344	63	4903
2026-01-30 09:49:22.27	139.72	41.06	-45.7	-48.0	15.3	0.00e+00	0	42	0	445644800	62	4847
2026-01-30 09:49:25.23	139.25	41.83	-45.2	-47.3	15.9	0.00e+00	0	42	0	450887680	61	4753
2026-01-30 09:49:29.20	138.60	42.89	-44.8	-46.7	16.5	0.00e+00	0	42	0	459276288	60	4661
2026-01-30 09:49:31.94	138.12	43.63	-44.6	-46.4	16.7	0.00e+00	0	41	0	463470592	60	4539
2026-01-30 09:49:35.68	137.43	44.67	-44.6	-46.4	16.9	0.00e+00	0	42	0	470810624	60	4542
2026-01-30 09:49:38.39	136.90	45.43	-44.0	-45.6	17.6	0.00e+00	0	42	0	476053504	59	4356
2026-01-30 09:49:41.96	136.16	46.46	-44.7	-46.7	16.7	0.00e+00	0	42	0	482344960	60	4664
2026-01-30 09:49:44.68	135.57	47.25	-43.8	-45.3	17.9	0.00e+00	0	42	0	487587840	58	4482
2026-01-30 09:49:47.97	134.80	48.23	-44.5	-46.3	17.0	0.00e+00	0	42	0	493879296	59	4721
2026-01-30 09:49:50.70	134.13	49.05	-43.6	-45.2	18.0	0.00e+00	0	42	0	499122176	58	4406
2026-01-30 09:49:54.25	133.20	50.14	-42.8	-44.0	19.1	0.00e+00	0	42	0	505413632	57	4093
2026-01-30 09:49:56.96	132.44	50.98	-42.6	-43.9	19.2	0.00e+00	0	42	0	510656512	56	4267
2026-01-30 09:50:00.26	131.45	52.01	-44.2	-46.0	17.0	0.00e+00	0	42	0	516947968	59	4592
2026-01-30 09:50:03.05	130.57	52.90	-43.0	-44.3	18.9	0.00e+00	0	42	0	522190848	57	4207
2026-01-30 09:50:07.03	129.20	54.18	-43.3	-44.9	18.3	0.00e+00	0	42	0	529530880	58	4245
2026-01-30 09:50:09.77	128.19	55.07	-42.6	-43.9	19.3	0.00e+00	0	42	0	534773760	57	4012
2026-01-30 09:50:13.52	126.69	56.29	-44.0	-45.6	17.8	0.00e+00	0	42	0	542113792	59	4361
2026-01-30 09:50:16.48	125.41	57.26	-44.8	-46.7	16.7	0.00e+00	0	42	0	547356672	60	4683
2026-01-30 09:50:20.55	123.50	58.60	-45.8	-48.1	15.3	0.00e+00	0	42	0	554696704	62	4903
2026-01-30 09:50:23.34	122.07	59.51	-44.1	-45.7	17.6	0.00e+00	0	42	0	559939584	60	4176
2026-01-30 09:50:27.09	119.99	60.74	-43.8	-45.3	18.0	0.00e+00	0	42	0	567279616	59	4232
2026-01-30 09:50:30.28	118.05	61.77	-43.8	-45.3	17.9	0.00e+00	0	42	0	573571072	58	4480
2026-01-30 09:50:33.32	116.04	62.73	-43.2	-44.6	18.6	0.00e+00	0	42	0	578813952	57	4357
2026-01-30 09:50:36.33	113.89	63.67	-43.2	-45.0	17.9	0.00e+00	0	42	0	585105408	58	4295
2026-01-30 09:50:39.34	111.56	64.59	-42.0	-43.4	19.3	0.00e+00	0	42	0	590348288	54	4514
2026-01-30 09:50:42.34	109.05	65.47	-42.0	-43.4	19.1	0.00e+00	0	42	0	595591168	55	4251
2026-01-30 09:50:45.38	106.30	66.32	-44.0	-46.0	17.0	0.00e+00	0	42	0	601882624	58	4825
2026-01-30 09:50:48.48	103.26	67.15	-42.8	-44.3	18.5	0.00e+00	0	42	0	607125504	57	4233
2026-01-30 09:50:51.34	100.25	67.86	-42.1	-43.4	19.3	0.00e+00	0	42	0	612368384	56	4050
2026-01-30 09:50:54.49	96.69	68.58	-44.2	-46.2	16.8	0.00e+00	0	42	0	618659840	59	4679
2026-01-30 09:50:57.35	93.23	69.17	-43.8	-45.7	17.3	0.00e+00	0	42	0	623902720	59	4396
2026-01-30 09:51:00.50	89.19	69.73	-45.0	-47.2	15.8	0.00e+00	0	42	0	630194176	60	4972
2026-01-30 09:51:03.45	85.20	70.17	-45.1	-47.4	15.9	0.00e+00	0	42	0	635437056	61	4782
2026-01-30 09:51:06.60	80.75	70.54	-46.4	-49.5	13.4	3.43e-05	0	42	0	641728512	64	5157
2026-01-30 09:51:09.60	76.37	70.78	-44.4	-46.3	16.8	0.00e+00	0	42	0	646971392	59	4739
2026-01-30 09:51:12.99	71.31	70.93	-44.2	-46.1	16.7	0.00e+00	0	42	0	653262848	59	4651
2026-01-30 09:51:15.90	66.93	70.94	-45.6	-48.3	14.9	0.00e+00	0	42	0	658505728	62	5016
2026-01-30 09:51:19.26	61.90	70.82	-45.4	-47.9	15.3	0.00e+00	0	42	0	664797184	61	5053
2026-01-30 09:51:22.27	57.48	70.60	-45.0	-47.2	16.1	0.00e+00	0	42	0	671088640	61	4662
2026-01-30 09:51:25.28	53.20	70.28	-44.9	-46.9	16.1	0.00e+00	0	42	0	676331520	61	4535
2026-01-30 09:51:28.26	49.12	69.86	-44.9	-47.1	16.0	0.00e+00	0	42	0	682622976	61	4604
2026-01-30 09:51:31.26	45.21	69.35	-45.3	-47.7	15.5	0.00e+00	0	42	0	687865856	61	4962
2026-01-30 09:51:34.27	41.52	68.75	-45.1	-47.2	15.9	0.00e+00	0	42	0	693108736	61	4687
2026-01-30 09:51:37.28	38.05	68.08	-44.0	-45.6	17.4	0.00e+00	0	42	0	699400192	59	4380
2026-01-30 09:51:40.32	34.78	67.34	-45.1	-47.3	15.9	0.00e+00	0	42	0	704643072	60	5027
2026-01-30 09:51:43.32	31.79	66.56	-43.5	-45.1	17.9	0.00e+00	0	42	0	709885952	59	4103
2026-01-30 09:51:46.57	28.80	65.66	-43.8	-45.6	17.5	0.00e+00	0	42	0	716177408	59	4362
2026-01-30 09:51:49.42	26.37	64.83	-43.5	-45.2	17.7	0.00e+00	0	42	0	721420288	57	4696
2026-01-30 09:51:52.77	23.74	63.82	-42.3	-43.7	19.2	0.00e+00	0	42	0	727711744	56	4180
2026-01-30 09:51:55.71	21.62	62.91	-42.3	-43.7	19.2	0.00e+00	0	42	0	734003200	56	4165
2026-01-30 09:51:59.01	19.42	61.87	-42.4	-43.9	19.0	0.00e+00	0	42	0	740294656	56	4253
2026-01-30 09:52:01.73	17.75	60.99	-43.0	-44.6	18.4	0.00e+00	0	42	0	744488960	56	4651
2026-01-30 09:52:05.02	15.88	59.92	-43.8	-45.7	17.3	0.00e+00	0	42	0	750780416	59	4406
2026-01-30 09:52:07.85	14.39	59.00	-45.0	-47.4	15.6	0.00e+00	0	42	0	756023296	60	5099
2026-01-30 09:52:11.15	12.78	57.92	-42.7	-44.3	18.6	0.00e+00	0	42	0	762314752	57	4214
2026-01-30 09:52:13.87	11.55	57.03	-43.4	-45.2	17.8	0.00e+00	0	42	0	767557632	57	4666
2026-01-30 09:52:17.19	10.15	55.95	-40.4	-41.5	20.9	0.00e+00	0	42	0	773849088	52	4089
2026-01-30 09:52:19.91	9.08	55.06	-41.8	-43.1	19.4	0.00e+00	0	42	0	779091968	54	4389
2026-01-30 09:52:23.48	7.78	53.91	-43.5	-45.4	17.6	0.00e+00	0	42	0	785383424	57	4767
2026-01-30 09:52:26.41	6.79	52.97	-44.3	-46.6	16.4	0.00e+00	0	42	0	790626304	60	4637
2026-01-30 09:52:30.18	5.60	51.78	-43.5	-45.4	17.5	0.00e+00	0	42	0	797966336	58	4529
2026-01-30 09:52:32.95	4.79	50.92	-42.9	-44.4	18.4	0.00e+00	0	42	0	803209216	57	4287
2026-01-30 09:52:37.05	3.67	49.66	-43.3	-45.1	17.9	0.00e+00	0	42	0	811597824	57	4607
2026-01-30 09:52:39.81	2.96	48.82	-43.4	-45.2	17.8	0.00e+00	0	42	0	815792128	58	4415
2026-01-30 09:52:43.58	2.06	47.70	-44.8	-47.1	16.0	0.00e+00	0	42	0	823132160	61	4617
2026-01-30 09:52:46.50	1.41	46.84	-47.0	-51.2	11.9	9.90e-06	0	42	0	828375040	64	6234
2026-01-30 09:52:50.09	0.65	45.81	-44.4	-46.5	16.8	0.00e+00	0	42	0	835715072	60	4592
2026-01-30 09:52:53.09	0.06	44.96	-44.4	-46.5	16.6	0.00e+00	0	42	0	840957952	60	4565
2026-01-30 09:52:56.24	359.46	44.09	-45.4	-48.1	15.1	0.00e+00	0	42	0	847249408	61	5215
2026-01-30 09:52:59.13	358.95	43.30	-44.6	-46.8	16.4	0.00e+00	0	42	0	852492288	61	4455
2026-01-30 09:53:02.50	358.38	42.40	-45.3	-47.9	15.4	0.00e+00	0	42	0	858783744	61	5096
2026-01-30 09:53:05.24	357.94	41.68	-45.4	-48.1	15.2	0.00e+00	0	42	0	864026624	61	5185
2026-01-30 09:53:08.54	357.44	40.83	-45.2	-47.6	15.7	0.00e+00	0	42	0	870318080	62	4617
2026-01-30 09:53:11.26	357.04	40.14	-46.1	-49.2	14.0	2.20e-06	0	42	0	875560960	62	5555
2026-01-30 09:53:14.65	356.58	39.30	-46.6	-50.1	13.1	7.67e-04	0	42	0	881852416	65	5180
2026-01-30 09:53:17.43	356.21	38.63	-44.6	-46.8	16.4	0.00e+00	0	42	0	887095296	61	4445
2026-01-30 09:53:20.72	355.79	37.84	-42.9	-44.5	18.5	0.00e+00	0	42	0	893386752	57	4340
2026-01-30 09:53:23.45	355.47	37.20	-43.6	-45.4	17.7	0.00e+00	0	42	0	898629632	57	4803
2026-01-30 09:53:26.74	355.09	36.45	-46.0	-49.0	14.3	2.20e-06	0	42	0	903872512	62	5462
2026-01-30 09:53:29.56	354.78	35.81	-45.7	-48.5	14.8	0.00e+00	0	42	0	909115392	63	4829
2026-01-30 09:53:32.69	354.45	35.12	-45.6	-48.4	14.9	0.00e+00	0	42	0	915406848	62	5090
2026-01-30 09:53:35.84	354.13	34.44	-45.8	-48.8	14.6	1.50e-06	0	42	0	921698304	63	5007
2026-01-30 09:53:38.71	353.85	33.83	-45.1	-47.9	15.4	0.00e+00	0	42	0	926941184	61	5086
2026-01-30 09:53:41.86	353.55	33.18	-44.5	-46.8	16.5	0.00e+00	0	42	0	932184064	60	4736
2026-01-30 09:53:44.79	353.29	32.58	-44.3	-46.4	16.9	0.00e+00	0	42	0	938475520	60	4526
2026-01-30 09:53:48.08	353.01	31.92	-45.1	-47.4	16.0	0.00e+00	0	42	0	943718400	60	5083
2026-01-30 09:53:50.88	352.78	31.37	-46.6	-50.1	13.1	6.80e-06	0	42	0	950009856	64	5497
2026-01-30 09:53:54.04	352.52	30.76	-46.9	-50.5	12.8	3.00e-04	0	42	0	955252736	65	5417
2026-01-30 09:53:56.90	352.30	30.22	-45.8	-48.6	14.8	0.00e+00	0	42	0	960495616	63	4911
2026-01-30 09:54:00.05	352.07	29.64	-45.4	-47.9	15.5	0.00e+00	0	42	0	966787072	61	5051
2026-01-30 09:54:02.92	351.87	29.11	-45.0	-47.2	16.1	0.00e+00	0	42	0	972029952	61	4699
2026-01-30 09:54:06.01	351.65	28.56	-44.6	-46.5	16.8	0.00e+00	0	42	0	978321408	61	4326
2026-01-30 09:54:09.16	351.44	28.01	-43.6	-45.2	18.1	0.00e+00	0	42	0	983564288	59	4164
2026-01-30 09:54:12.36	351.24	27.46	-44.0	-45.8	17.4	0.00e+00	0	42	0	989855744	58	4755
2026-01-30 09:54:15.22	351.06	26.98	-45.6	-48.1	15.4	0.00e+00	0	42	0	995098624	61	5186
2026-01-30 09:54:18.41	350.87	26.45	-46.0	-48.9	14.6	0.00e+00	0	42	0	1001390080	63	5063
2026-01-30 09:54:21.28	350.70	25.98	-44.7	-46.9	16.5	0.00e+00	0	42	0	1006632960	61	4501
2026-01-30 09:54:24.42	350.53	25.48	-44.1	-46.0	17.2	0.00e+00	0	42	0	1011875840	59	4590
2026-01-30 09:54:27.29	350.37	25.02	-43.4	-45.1	18.1	0.00e+00	0	42	0	1018167296	58	4366
2026-01-30 09:54:30.48	350.20	24.53	-43.7	-45.4	17.9	0.00e+00	0	42	0	1023410176	58	4517
2026-01-30 09:54:33.34	350.06	24.10	-43.6	-45.5	17.7	0.00e+00	0	42	0	1028653056	58	4581
2026-01-30 09:54:36.62	349.89	23.61	-43.5	-45.5	17.7	0.00e+00	0	42	0	1034944512	58	4576
2026-01-30 09:54:39.34	349.76	23.21	-43.8	-45.8	17.5	0.00e+00	0	42	0	1040187392	58	4751
2026-01-30 09:54:42.63	349.61	22.73	-44.2	-46.1	17.1	0.00e+00	0	42	0	1046478848	59	4637
2026-01-30 09:54:45.35	349.49	22.34	-44.4	-46.4	17.0	0.00e+00	0	42	0	1051721728	59	4765
2026-01-30 09:54:48.97	349.33	21.84	-44.2	-46.3	17.0	0.00e+00	0	42	0	1058013184	59	4729
2026-01-30 09:54:51.69	349.21	21.46	-44.4	-46.6	16.7	0.00e+00	0	42	0	1063256064	59	4871
2026-01-30 09:54:55.01	349.08	21.01	-44.7	-47.0	16.4	0.00e+00	0	42	0	1069547520	60	4823
2026-01-30 09:54:57.73	348.97	20.65	-44.9	-47.2	16.1	0.00e+00	0	42	0	1074790400	60	4983
2026-01-30 09:55:01.26	348.83	20.19	-44.8	-47.1	16.2	0.00e+00	0	42	0	1081081856	60	4894
2026-01-30 09:55:03.98	348.73	19.84	-44.3	-46.6	16.8	0.00e+00	0	42	0	1086324736	60	4614
2026-01-30 09:55:07.27	348.61	19.42	-43.8	-45.7	17.5	0.00e+00	0	42	0	1092616192	59	4426
2026-01-30 09:55:10.01	348.51	19.08	-43.7	-45.6	17.6	0.00e+00	0	42	0	1097859072	59	4344
2026-01-30 09:55:13.30	348.40	18.67	-43.4	-45.1	18.1	0.00e+00	0	42	0	1104150528	58	4385
2026-01-30 09:55:16.34	348.29	18.30	-43.7	-45.7	17.5	0.00e+00	0	42	0	1109393408	58	4660
2026-01-30 09:55:19.84	348.18	17.89	-44.0	-46.2	17.0	0.00e+00	0	42	0	1116733440	58	4964
2026-01-30 09:55:22.56	348.09	17.57	-44.7	-47.4	15.9	0.00e+00	0	42	0	1120927744	60	5100
2026-01-30 09:55:25.86	347.99	17.18	-45.1	-47.9	15.4	7.00e-07	0	42	0	1127219200	60	5384
2026-01-30 09:55:28.57	347.91	16.87	-45.3	-48.1	15.1	0.00e+00	0	42	0	1132462080	61	5203
2026-01-30 09:55:31.86	347.81	16.50	-45.5	-48.5	14.9	0.00e+00	0	42	0	1138753536	61	5412
2026-01-30 09:55:34.59	347.73	16.20	-45.5	-48.6	14.8	0.00e+00	0	42	0	1143996416	61	5466
2026-01-30 09:55:37.88	347.64	15.84	-45.1	-48.4	14.9	7.00e-07	0	42	0	1150287872	61	5346
2026-01-30 09:55:40.60	347.56	15.54	-45.2	-48.7	14.6	7.00e-07	0	42	0	1155530752	61	5558
2026-01-30 09:55:43.90	347.48	15.19	-45.2	-48.7	14.6	0.00e+00	0	42	0	1161822208	61	5542
2026-01-30 09:55:46.65	347.40	14.90	-45.6	-49.2	14.0	3.00e-06	0	42	0	1167065088	61	5915
2026-01-30 09:55:49.94	347.32	14.55	-45.8	-49.6	13.7	2.20e-06	0	42	0	1172307968	62	5790
2026-01-30 09:55:53.09	347.24	14.23	-45.7	-49.4	13.9	3.00e-06	0	42	0	1178599424	62	5681
2026-01-30 09:55:56.11	347.17	13.92	-45.2	-48.7	14.6	0.00e+00	0	42	0	1183842304	62	5238
2026-01-30 09:55:59.12	347.10	13.62	-44.8	-48.3	15.0	0.00e+00	0	42	0	1190133760	61	5286
2026-01-30 09:56:02.25	347.03	13.31	-44.9	-48.0	15.2	0.00e+00	0	42	0	1195376640	61	5138
2026-01-30 09:56:05.13	346.96	13.03	-44.8	-47.5	15.7	0.00e+00	0	42	0	1201668096	61	4867
2026-01-30 09:56:08.28	346.89	12.72	-44.6	-47.2	16.0	0.00e+00	0	42	0	1206910976	60	4950
2026-01-30 09:56:11.15	346.83	12.45	-44.4	-46.9	16.2	0.00e+00	0	42	0	1212153856	60	4802
2026-01-30 09:56:14.32	346.76	12.15	-44.1	-46.9	16.2	0.00e+00	0	42	0	1218445312	60	4798
2026-01-30 09:56:17.24	346.70	11.88	-43.9	-47.0	16.1	0.00e+00	0	42	0	1223688192	59	5118
2026-01-30 09:56:20.39	346.64	11.59	-43.8	-47.0	16.1	0.00e+00	0	42	0	1229979648	59	5127
2026-01-30 09:56:23.25	346.58	11.33	-43.9	-47.4	15.7	0.00e+00	0	42	0	1235222528	59	5370
2026-01-30 09:56:26.40	346.52	11.04	-43.8	-47.1	16.0	0.00e+00	0	42	0	1241513984	59	5173
2026-01-30 09:56:29.27	346.47	10.79	-43.8	-47.3	15.7	0.00e+00	0	42	0	1246756864	59	5320
2026-01-30 09:56:32.41	346.41	10.51	-43.6	-47.2	15.8	0.00e+00	0	42	0	1251999744	59	5236
2026-01-30 09:56:35.72	346.35	10.22	-43.6	-47.5	15.5	0.00e+00	0	42	0	1258291200	58	5763
2026-01-30 09:56:38.59	346.30	9.97	-43.5	-47.4	15.6	0.00e+00	0	42	0	1263534080	58	5713
2026-01-30 09:56:41.88	346.25	9.69	-43.5	-47.5	15.5	0.00e+00	0	42	0	1269825536	58	5736
2026-01-30 09:56:44.60	346.20	9.46	-43.4	-47.1	15.9	0.00e+00	0	42	0	1275068416	58	5513
2026-01-30 09:56:48.47	346.14	9.13	-43.4	-47.4	15.6	0.00e+00	0	42	0	1282408448	58	5666
2026-01-30 09:56:51.19	346.09	8.91	-46.4	-61.8	4.0	4.43e-01	0	42	0	1287651328	63	22428
2026-01-30 09:56:54.49	346.04	8.64	-49.8	-64.5	3.8	1.49e+00	0	42	104	1287651328	70	20533
2026-01-30 09:56:57.24	346.00	8.42	-48.5	-64.4	3.8	1.49e+00	0	42	104	1287651328	68	22749
2026-01-30 09:57:00.68	345.95	8.14	-49.2	-64.1	3.8	1.49e+00	0	42	104	1287651328	70	19575
2026-01-30 09:57:03.46	345.91	7.92	-49.2	-64.2	3.8	1.49e+00	0	42	104	1287651328	70	19627
2026-01-30 09:57:06.82	345.86	7.65	-49.9	-64.2	3.8	1.49e+00	0	42	104	1287651328	70	19703
2026-01-30 09:57:09.55	345.82	7.44	-50.0	-64.2	3.8	1.49e+00	0	42	104	1287651328	70	19826
2026-01-30 09:57:12.84	345.78	7.18	-49.9	-64.2	3.8	1.49e+00	0	42	104	1287651328	70	19841
2026-01-30 09:57:15.57	345.74	6.98	-49.9	-64.3	3.8	1.49e+00	0	42	104	1287651328	70	19872
2026-01-30 09:57:18.87	345.70	6.72	-49.9	-64.2	3.8	1.49e+00	0	42	104	1287651328	70	19828
2026-01-30 09:57:21.59	345.66	6.52	-49.9	-64.3	3.8	1.49e+00	0	42	104	1287651328	70	19872
2026-01-30 09:57:24.89	345.62	6.27	-49.9	-64.2	3.8	1.49e+00	0	42	104	1287651328	70	19767
2026-01-30 09:57:27.61	345.59	6.07	-49.9	-64.3	3.8	1.49e+00	0	42	104	1287651328	70	19913
2026-01-30 09:57:30.91	345.55	5.83	-49.9	-64.3	3.8	1.49e+00	0	42	104	1287651328	70	19862
2026-01-30 09:57:33.63	345.51	5.63	-49.9	-64.2	3.8	1.49e+00	0	42	104	1287651328	70	19781
2026-01-30 09:57:36.93	345.48	5.39	-49.9	-64.2	3.8	1.49e+00	0	42	104	1287651328	70	19834
2026-01-30 09:57:39.65	345.45	5.20	-49.9	-64.3	3.8	1.49e+00	0	42	104	1287651328	70	19863
2026-01-30 09:57:42.95	345.41	4.96	-49.9	-64.2	3.8	1.49e+00	0	42	104	1287651328	70	19800

#Closed at: 2026-01-30 09:57:43
#Recorded file [1287 MB]: D:/Data/31040_260130_124452.dat