passes_logs/2026/01/30/T1/T1__20260130_132238_AQUA_rec.log

#Pass ID: 20260130_132238_AQUA
#Satellite: AQUA
#Configuration: AQUA
#almurnet v.1.7.20251203
#Start time: 2026-01-30 13:22:38

#Version: 2.0.20230620
#Station: T1
#Location: 37.570604 lon 55.790049 lat
#TLE: 1 27424U 02022A   26029.54575153  .00001738  00000+0  35736-3 0  9994
#TLE: 2 27424  98.4104 356.2197 0001804  61.7823  56.0643 14.61874165263019

#Time	Az	El	Level	Level2	SNR	BER	BlckErr	Temp	State	Recorded	gain1	gain2
2026-01-30 13:22:38.54	221.05	4.98	-51.8	-71.7	3.8	7.47e-01	0	36	0	0	75	35020
2026-01-30 13:22:40.55	221.29	5.09	-52.9	-71.8	3.8	7.48e-01	0	36	104	0	76	33616
2026-01-30 13:22:42.55	221.52	5.21	-52.4	-71.8	3.8	7.46e-01	0	36	104	0	76	33617
2026-01-30 13:22:44.56	221.75	5.32	-52.1	-71.8	3.8	7.49e-01	0	37	104	0	76	33452
2026-01-30 13:22:46.57	221.99	5.43	-52.7	-71.8	3.8	7.43e-01	0	37	104	0	76	33391
2026-01-30 13:22:48.58	222.23	5.55	-52.5	-71.8	3.8	7.46e-01	0	37	104	0	76	33467
2026-01-30 13:22:50.58	222.47	5.66	-52.3	-71.7	3.8	7.45e-01	0	37	104	0	76	33007
2026-01-30 13:22:52.59	222.71	5.78	-52.3	-71.6	3.8	7.46e-01	0	37	104	0	76	32806
2026-01-30 13:22:54.60	222.95	5.89	-52.0	-71.5	3.8	7.45e-01	0	37	104	0	76	32391
2026-01-30 13:22:56.61	223.20	6.00	-51.9	-71.3	3.8	7.45e-01	0	37	104	0	75	33536
2026-01-30 13:22:58.62	223.45	6.12	-51.6	-71.0	3.8	7.46e-01	0	37	104	0	74	34370
2026-01-30 13:23:00.62	223.70	6.23	-51.7	-71.0	3.8	7.45e-01	0	37	104	0	74	34235
2026-01-30 13:23:02.63	223.95	6.35	-51.6	-71.0	3.8	7.45e-01	0	37	104	0	74	34205
2026-01-30 13:23:04.64	224.21	6.46	-51.6	-70.9	3.8	7.46e-01	0	37	104	0	74	33971
2026-01-30 13:23:06.65	224.47	6.58	-51.6	-70.7	3.8	7.46e-01	0	37	104	0	74	33227
2026-01-30 13:23:08.66	224.72	6.69	-51.6	-70.6	3.8	7.51e-01	0	38	104	0	74	32647
2026-01-30 13:23:10.66	224.99	6.81	-51.5	-70.5	3.8	7.46e-01	0	38	104	0	74	32254
2026-01-30 13:23:12.67	225.25	6.92	-51.5	-70.2	3.8	7.43e-01	0	38	104	0	74	31411
2026-01-30 13:23:14.68	225.51	7.04	-51.6	-70.1	3.8	7.48e-01	0	38	104	0	74	30829
2026-01-30 13:23:16.69	225.78	7.15	-51.6	-70.1	3.8	7.46e-01	0	38	104	0	74	30815
2026-01-30 13:23:18.70	226.05	7.27	-51.6	-70.9	3.8	7.45e-01	0	38	104	0	74	33711
2026-01-30 13:23:20.71	226.33	7.38	-51.6	-70.7	3.8	7.43e-01	0	38	104	0	74	32967
2026-01-30 13:23:22.71	226.60	7.50	-51.6	-70.1	3.8	7.48e-01	0	38	104	0	74	30822
2026-01-30 13:23:24.72	226.88	7.62	-51.6	-70.5	3.8	7.45e-01	0	38	104	0	74	32428
2026-01-30 13:23:26.73	227.16	7.73	-51.6	-70.8	3.8	7.46e-01	0	38	104	0	74	33577
2026-01-30 13:23:28.74	227.44	7.85	-51.6	-70.5	3.8	7.48e-01	0	38	104	0	74	32327
2026-01-30 13:23:30.75	227.72	7.96	-51.6	-70.8	3.8	7.47e-01	0	38	104	0	74	33406
2026-01-30 13:23:32.76	228.01	8.08	-51.5	-68.1	3.9	7.40e-01	0	38	104	0	74	24573
2026-01-30 13:23:34.77	228.30	8.19	-51.4	-64.3	5.7	6.93e-01	0	38	0	0	74	15886
2026-01-30 13:23:36.77	228.59	8.31	-51.5	-70.0	3.8	7.51e-01	0	38	104	524288	74	30512
2026-01-30 13:23:38.78	228.88	8.43	-50.5	-58.0	11.5	6.15e-01	0	38	0	1572864	73	8091
2026-01-30 13:23:40.79	229.18	8.54	-47.3	-50.2	19.5	6.08e-01	0	38	0	5242880	66	4938
2026-01-30 13:23:42.80	229.48	8.66	-45.8	-47.9	21.8	6.07e-01	0	38	0	9437184	63	4495
2026-01-30 13:23:44.81	229.78	8.77	-46.3	-48.6	21.2	6.07e-01	0	38	0	13107200	63	4900
2026-01-30 13:23:46.82	230.08	8.89	-48.2	-51.7	18.2	6.07e-01	0	38	0	16777216	66	5887
2026-01-30 13:23:48.82	230.39	9.00	-50.3	-57.0	13.0	6.11e-01	0	38	0	20447232	71	8089
2026-01-30 13:23:50.96	230.72	9.13	-48.0	-51.3	18.8	6.08e-01	0	38	0	22544384	66	5597
2026-01-30 13:23:53.00	231.04	9.24	-51.0	-60.0	9.7	6.29e-01	0	38	0	26214400	73	10208
2026-01-30 13:23:55.00	231.35	9.36	-48.0	-51.2	18.7	6.06e-01	0	38	0	29884416	67	5276
2026-01-30 13:23:57.01	231.67	9.47	-47.7	-50.8	19.1	6.06e-01	0	39	0	33554432	67	5032
2026-01-30 13:23:59.01	231.98	9.59	-47.4	-50.3	19.5	6.06e-01	0	38	0	37224448	66	5030
2026-01-30 13:24:01.02	232.31	9.70	-47.1	-49.8	20.0	6.05e-01	0	38	0	41418752	66	4759
2026-01-30 13:24:03.02	232.63	9.82	-47.0	-49.6	20.2	6.07e-01	0	38	0	45088768	65	4887
2026-01-30 13:24:05.03	232.96	9.93	-46.9	-49.5	20.2	6.08e-01	0	38	0	48758784	65	4853
2026-01-30 13:24:07.04	233.29	10.05	-46.0	-48.1	21.7	6.05e-01	0	38	0	52428800	63	4650
2026-01-30 13:24:09.05	233.62	10.16	-45.6	-47.6	22.3	6.06e-01	0	38	0	56098816	63	4343
2026-01-30 13:24:11.05	233.95	10.27	-45.3	-47.1	22.7	6.07e-01	0	38	0	60293120	62	4390
2026-01-30 13:24:13.06	234.29	10.39	-45.0	-46.8	22.9	6.09e-01	0	38	0	63963136	62	4240
2026-01-30 13:24:15.08	234.64	10.50	-44.9	-46.8	23.0	6.06e-01	0	38	0	67633152	61	4472
2026-01-30 13:24:17.09	234.98	10.62	-44.8	-46.7	23.1	6.10e-01	0	38	0	71303168	61	4392
2026-01-30 13:24:19.10	235.33	10.73	-44.8	-46.6	23.2	6.05e-01	0	38	0	74973184	61	4366
2026-01-30 13:24:21.10	235.68	10.84	-44.8	-46.6	23.3	6.06e-01	0	38	0	79167488	61	4345
2026-01-30 13:24:23.11	236.03	10.95	-44.9	-46.6	23.2	6.06e-01	0	39	0	82837504	61	4366
2026-01-30 13:24:25.12	236.38	11.06	-44.9	-46.6	23.2	6.05e-01	0	38	0	86507520	61	4383
2026-01-30 13:24:27.12	236.74	11.18	-44.8	-46.5	23.4	6.06e-01	0	39	0	90177536	61	4302
2026-01-30 13:24:29.13	237.10	11.29	-44.8	-46.5	23.3	6.07e-01	0	38	0	93847552	61	4312
2026-01-30 13:24:31.14	237.47	11.40	-44.7	-46.4	23.5	6.07e-01	0	39	0	97517568	61	4245
2026-01-30 13:24:33.14	237.83	11.51	-44.7	-46.4	23.5	6.08e-01	0	39	0	101187584	61	4252
2026-01-30 13:24:35.16	238.20	11.62	-44.8	-46.4	23.4	6.08e-01	0	39	0	105381888	61	4289
2026-01-30 13:24:37.29	238.60	11.73	-44.7	-46.4	23.3	6.07e-01	0	39	0	109051904	61	4244
2026-01-30 13:24:39.50	239.01	11.85	-44.8	-46.5	23.4	6.07e-01	0	39	0	113246208	61	4293
2026-01-30 13:24:41.51	239.39	11.96	-44.7	-46.4	23.5	6.07e-01	0	39	0	116916224	61	4249
2026-01-30 13:24:43.79	239.82	12.08	-44.7	-46.3	23.5	6.06e-01	0	39	0	121634816	61	4240
2026-01-30 13:24:45.85	240.22	12.19	-44.6	-46.2	23.6	6.06e-01	0	38	0	125304832	61	4187
2026-01-30 13:24:47.86	240.61	12.30	-44.6	-46.3	23.6	6.08e-01	0	39	0	128974848	61	4202
2026-01-30 13:24:49.86	241.00	12.40	-44.6	-46.2	23.6	6.06e-01	0	39	0	132644864	60	4435
2026-01-30 13:24:51.86	241.39	12.51	-44.4	-46.1	23.8	6.07e-01	0	39	0	136839168	60	4343
2026-01-30 13:24:54.17	241.84	12.63	-44.6	-46.3	23.6	6.04e-01	0	39	0	141033472	60	4448
2026-01-30 13:24:56.16	242.24	12.73	-44.5	-46.2	23.6	6.06e-01	0	39	0	144703488	60	4418
2026-01-30 13:24:58.17	242.64	12.83	-44.4	-46.1	23.8	6.09e-01	0	39	0	148373504	60	4345
2026-01-30 13:25:00.17	243.05	12.94	-44.6	-46.2	23.7	6.08e-01	0	38	0	152043520	60	4396
2026-01-30 13:25:02.18	243.46	13.04	-44.4	-45.9	23.9	6.04e-01	0	39	0	155713536	60	4283
2026-01-30 13:25:04.18	243.87	13.14	-44.3	-45.9	24.0	6.07e-01	0	39	0	159383552	60	4244
2026-01-30 13:25:06.19	244.28	13.24	-44.3	-45.9	24.0	6.07e-01	0	39	0	163577856	60	4250
2026-01-30 13:25:08.20	244.70	13.33	-44.3	-45.9	23.9	6.07e-01	0	39	0	167247872	60	4269
2026-01-30 13:25:10.20	245.12	13.43	-44.3	-45.9	23.9	6.09e-01	0	39	0	170917888	60	4270
2026-01-30 13:25:12.21	245.54	13.53	-44.2	-45.9	24.0	6.08e-01	0	39	0	174587904	60	4243
2026-01-30 13:25:14.22	245.97	13.63	-44.2	-45.9	24.0	6.06e-01	0	39	0	178257920	60	4250
2026-01-30 13:25:16.31	246.42	13.72	-44.3	-45.9	24.0	6.07e-01	0	39	0	182452224	60	4254
2026-01-30 13:25:18.32	246.85	13.82	-44.3	-45.9	24.0	6.06e-01	0	39	0	186122240	60	4247
2026-01-30 13:25:20.33	247.28	13.91	-44.3	-45.9	24.0	6.09e-01	0	39	0	189792256	60	4259
2026-01-30 13:25:22.52	247.76	14.01	-44.2	-45.8	24.0	6.07e-01	0	39	0	193986560	60	4211
2026-01-30 13:25:24.53	248.20	14.10	-44.3	-45.9	23.9	6.09e-01	0	39	0	197656576	60	4258
2026-01-30 13:25:26.53	248.64	14.19	-44.3	-45.9	23.8	6.06e-01	0	39	0	201326592	60	4259
2026-01-30 13:25:28.54	249.09	14.28	-44.3	-45.9	23.9	6.06e-01	0	38	0	205520896	60	4253
2026-01-30 13:25:30.54	249.54	14.37	-44.2	-45.8	24.0	6.06e-01	0	39	0	209190912	60	4229
2026-01-30 13:25:32.55	249.99	14.45	-44.1	-45.7	24.1	6.06e-01	0	39	0	212860928	60	4186
2026-01-30 13:25:34.55	250.44	14.54	-44.2	-45.8	24.0	6.06e-01	0	39	0	216530944	60	4236
2026-01-30 13:25:36.55	250.90	14.62	-44.2	-45.8	24.0	6.07e-01	0	39	0	220200960	60	4207
2026-01-30 13:25:38.56	251.36	14.70	-44.2	-45.8	24.1	6.08e-01	0	39	0	224395264	60	4220
2026-01-30 13:25:40.57	251.82	14.78	-44.2	-45.8	24.0	6.07e-01	0	39	0	228065280	60	4236
2026-01-30 13:25:42.57	252.28	14.86	-44.1	-45.6	24.2	6.06e-01	0	39	0	231735296	60	4130
2026-01-30 13:25:44.57	252.75	14.94	-44.1	-45.6	24.2	6.05e-01	0	39	0	235405312	60	4132
2026-01-30 13:25:46.58	253.22	15.01	-44.2	-45.8	24.1	6.08e-01	0	39	0	239075328	60	4213
2026-01-30 13:25:48.52	253.68	15.09	-44.1	-45.6	24.2	6.07e-01	0	39	0	242745344	60	4134
2026-01-30 13:25:50.53	254.15	15.16	-44.1	-45.7	24.1	6.08e-01	0	39	0	246415360	60	4186
2026-01-30 13:25:52.53	254.63	15.23	-44.2	-45.7	24.1	6.07e-01	0	39	0	250085376	59	4435
2026-01-30 13:25:54.54	255.11	15.30	-44.4	-46.0	24.0	6.05e-01	0	39	0	254279680	59	4549
2026-01-30 13:25:56.55	255.59	15.37	-44.4	-46.0	23.8	6.06e-01	0	39	0	257949696	59	4578
2026-01-30 13:25:58.56	256.07	15.44	-44.5	-46.0	23.8	6.06e-01	0	39	0	261619712	59	4587
2026-01-30 13:26:00.57	256.56	15.50	-44.5	-46.1	23.6	6.08e-01	0	39	0	265289728	59	4647
2026-01-30 13:26:02.57	257.05	15.57	-44.5	-46.1	23.6	6.06e-01	0	39	0	268959744	59	4628
2026-01-30 13:26:04.57	257.54	15.63	-44.6	-46.1	23.5	6.05e-01	0	39	0	272629760	59	4650
2026-01-30 13:26:06.58	258.03	15.69	-44.5	-46.1	23.5	6.04e-01	0	39	0	276824064	60	4366
2026-01-30 13:26:08.59	258.52	15.75	-44.4	-46.0	23.5	6.07e-01	0	39	0	280494080	60	4328
2026-01-30 13:26:10.59	259.02	15.81	-44.5	-46.1	23.4	6.08e-01	0	39	0	284164096	60	4380
2026-01-30 13:26:12.69	259.54	15.86	-44.4	-46.0	23.5	6.07e-01	0	39	0	288358400	60	4331
2026-01-30 13:26:14.70	260.04	15.92	-44.4	-46.1	23.4	6.04e-01	0	39	0	292028416	60	4351
2026-01-30 13:26:16.83	260.57	15.97	-44.4	-46.1	23.5	6.06e-01	0	39	0	295698432	60	4350
2026-01-30 13:26:19.05	261.13	16.02	-44.3	-46.0	23.5	6.08e-01	0	39	0	299892736	60	4305
2026-01-30 13:26:21.05	261.64	16.07	-44.5	-46.1	23.4	6.05e-01	0	39	0	304087040	60	4372
2026-01-30 13:26:23.06	262.14	16.12	-44.3	-45.8	23.7	6.10e-01	0	39	0	307757056	60	4230
2026-01-30 13:26:25.06	262.65	16.16	-44.4	-46.1	23.4	6.06e-01	0	39	0	311427072	60	4364
2026-01-30 13:26:27.07	263.16	16.20	-44.4	-46.0	23.5	6.07e-01	0	39	0	315097088	60	4336
2026-01-30 13:26:29.08	263.67	16.24	-44.5	-46.2	23.4	6.06e-01	0	39	0	318767104	60	4409
2026-01-30 13:26:31.20	264.22	16.28	-44.5	-46.1	23.4	6.06e-01	0	39	0	322961408	60	4388
2026-01-30 13:26:33.26	264.74	16.32	-44.5	-46.0	23.5	6.05e-01	0	39	0	326631424	60	4324
2026-01-30 13:26:35.27	265.26	16.35	-45.1	-46.8	23.4	6.06e-01	0	38	0	330301440	60	4711
2026-01-30 13:26:37.27	265.78	16.38	-44.6	-46.2	23.3	6.09e-01	0	39	0	333971456	61	4176
2026-01-30 13:26:39.28	266.29	16.41	-44.3	-45.9	23.6	6.07e-01	0	39	0	338165760	60	4249
2026-01-30 13:26:41.28	266.81	16.43	-44.5	-46.0	23.5	6.05e-01	0	39	0	341835776	60	4334
2026-01-30 13:26:43.59	267.41	16.46	-44.3	-45.9	23.6	6.06e-01	0	39	0	346030080	60	4252
2026-01-30 13:26:45.74	267.97	16.49	-44.5	-46.0	23.5	6.06e-01	0	39	0	350224384	60	4329
2026-01-30 13:26:47.75	268.49	16.51	-44.5	-46.1	23.4	6.06e-01	0	39	0	353894400	60	4352
2026-01-30 13:26:49.75	269.01	16.52	-44.4	-46.0	23.5	6.06e-01	0	39	0	357564416	60	4319
2026-01-30 13:26:51.75	269.53	16.54	-44.4	-45.9	23.6	6.08e-01	0	39	0	361234432	60	4276
2026-01-30 13:26:53.76	270.05	16.55	-44.4	-45.9	23.6	6.07e-01	0	39	0	364904448	60	4290
2026-01-30 13:26:55.76	270.58	16.56	-44.4	-46.0	23.5	6.05e-01	0	39	0	369098752	60	4316
2026-01-30 13:26:57.80	271.11	16.57	-44.6	-46.1	23.4	6.06e-01	0	39	0	372768768	60	4376
2026-01-30 13:27:00.08	271.70	16.58	-44.6	-46.2	23.3	6.04e-01	0	39	0	376963072	60	4423
2026-01-30 13:27:02.20	272.26	16.59	-44.4	-45.9	23.6	6.06e-01	0	39	0	381157376	60	4284
2026-01-30 13:27:04.20	272.78	16.59	-44.5	-46.2	23.3	6.09e-01	0	39	0	384827392	60	4406
2026-01-30 13:27:06.20	273.30	16.59	-44.5	-46.1	23.3	6.09e-01	0	39	0	388497408	60	4389
2026-01-30 13:27:08.23	273.83	16.58	-44.5	-46.2	23.3	6.08e-01	0	39	0	392167424	60	4395
2026-01-30 13:27:10.23	274.35	16.58	-44.5	-46.0	23.4	6.05e-01	0	39	0	395837440	60	4322
2026-01-30 13:27:12.59	274.97	16.57	-44.6	-46.2	23.2	6.07e-01	0	39	0	400556032	60	4438
2026-01-30 13:27:14.80	275.55	16.56	-44.4	-45.9	23.5	6.07e-01	0	39	0	404750336	60	4286
2026-01-30 13:27:16.80	276.07	16.55	-44.5	-46.1	23.3	6.06e-01	0	39	0	408420352	60	4355
2026-01-30 13:27:18.81	276.59	16.54	-44.6	-46.2	23.3	6.05e-01	0	39	0	412090368	60	4411
2026-01-30 13:27:20.82	277.11	16.52	-44.5	-46.0	23.4	6.08e-01	0	39	0	415760384	60	4336
2026-01-30 13:27:22.82	277.63	16.50	-44.5	-46.1	23.4	6.08e-01	0	39	0	419430400	60	4352
2026-01-30 13:27:24.83	278.15	16.48	-44.4	-46.1	23.3	6.06e-01	0	39	0	423100416	60	4350
2026-01-30 13:27:27.14	278.75	16.46	-44.5	-46.0	23.4	6.06e-01	0	39	0	427819008	60	4338
2026-01-30 13:27:29.14	279.27	16.43	-44.6	-46.2	23.3	6.05e-01	0	39	0	431489024	60	4416
2026-01-30 13:27:31.15	279.79	16.40	-44.6	-46.2	23.3	6.08e-01	0	39	0	435159040	60	4404
2026-01-30 13:27:33.17	280.31	16.37	-44.6	-46.3	23.2	6.06e-01	0	39	0	438829056	60	4442
2026-01-30 13:27:35.13	280.81	16.34	-44.6	-46.1	23.3	6.08e-01	0	39	0	442499072	60	4371
2026-01-30 13:27:37.26	281.36	16.31	-44.5	-46.1	23.4	6.07e-01	0	39	0	446693376	60	4354
2026-01-30 13:27:39.27	281.87	16.27	-44.5	-46.1	23.3	6.07e-01	0	39	0	450363392	60	4349
2026-01-30 13:27:41.27	282.38	16.24	-44.6	-46.1	23.3	6.07e-01	0	39	0	454033408	60	4370
2026-01-30 13:27:43.28	282.89	16.20	-44.6	-46.1	23.3	6.09e-01	0	39	0	457703424	60	4368
2026-01-30 13:27:45.28	283.40	16.16	-44.6	-46.2	23.3	6.07e-01	0	39	0	461897728	60	4406
2026-01-30 13:27:47.29	283.91	16.11	-44.7	-46.2	23.3	6.07e-01	0	39	0	465567744	60	4429
2026-01-30 13:27:49.30	284.41	16.07	-44.6	-46.2	23.1	6.06e-01	0	39	0	469237760	60	4434
2026-01-30 13:27:51.37	284.93	16.02	-44.5	-46.0	23.4	6.07e-01	0	39	0	472907776	60	4323
2026-01-30 13:27:53.40	285.44	15.97	-44.6	-46.1	23.3	6.08e-01	0	39	0	477102080	60	4379
2026-01-30 13:27:55.41	285.94	15.92	-44.6	-46.2	23.2	6.06e-01	0	39	0	480772096	60	4414
2026-01-30 13:27:57.56	286.48	15.86	-44.7	-46.3	23.1	6.04e-01	0	39	0	484966400	60	4477
2026-01-30 13:27:59.58	286.98	15.81	-44.6	-46.1	23.3	6.04e-01	0	39	0	488636416	60	4368
2026-01-30 13:28:01.59	287.47	15.75	-44.6	-46.1	23.3	6.07e-01	0	39	0	492306432	60	4380
2026-01-30 13:28:03.59	287.97	15.69	-44.6	-46.1	23.3	6.06e-01	0	39	0	495976448	60	4357
2026-01-30 13:28:05.60	288.46	15.63	-44.5	-46.1	23.3	6.08e-01	0	39	0	499646464	60	4390
2026-01-30 13:28:07.76	288.98	15.56	-44.4	-46.1	23.3	6.08e-01	0	39	0	503840768	60	4370
2026-01-30 13:28:09.77	289.47	15.50	-44.5	-46.1	23.3	6.06e-01	0	39	0	507510784	60	4372
2026-01-30 13:28:11.77	289.95	15.44	-44.7	-46.3	23.2	6.06e-01	0	39	0	511180800	60	4453
2026-01-30 13:28:13.77	290.43	15.37	-44.6	-46.2	23.2	6.07e-01	0	39	0	515375104	60	4419
2026-01-30 13:28:15.78	290.91	15.30	-44.6	-46.2	23.2	6.06e-01	0	39	0	519045120	60	4403
2026-01-30 13:28:17.78	291.39	15.23	-44.6	-46.2	23.2	6.07e-01	0	39	0	522715136	60	4414
2026-01-30 13:28:19.79	291.86	15.16	-44.6	-46.2	23.2	6.04e-01	0	39	0	526385152	60	4422
2026-01-30 13:28:21.80	292.34	15.09	-44.7	-46.3	23.2	6.06e-01	0	39	0	530055168	60	4459
2026-01-30 13:28:23.80	292.80	15.01	-45.6	-47.3	11.0	6.14e-01	0	39	0	533725184	61	4713
2026-01-30 13:28:25.81	293.27	14.94	-45.7	-47.4	10.5	6.13e-01	0	39	0	537919488	62	4523
2026-01-30 13:28:27.82	293.74	14.86	-45.7	-47.4	10.4	6.13e-01	0	39	0	541589504	62	4533
2026-01-30 13:28:29.82	294.20	14.78	-45.9	-47.6	10.7	6.12e-01	0	39	0	545259520	62	4617
2026-01-30 13:28:31.83	294.66	14.70	-45.9	-47.6	11.0	6.10e-01	0	39	0	548929536	62	4606
2026-01-30 13:28:33.87	295.12	14.62	-45.7	-47.4	11.5	6.12e-01	0	39	0	552599552	62	4516
2026-01-30 13:28:35.95	295.59	14.53	-45.6	-47.3	11.9	6.12e-01	0	39	0	556793856	62	4456
2026-01-30 13:28:38.00	296.06	14.45	-45.4	-47.0	12.1	6.14e-01	0	39	0	560463872	62	4323
2026-01-30 13:28:40.00	296.50	14.36	-45.3	-46.9	12.2	6.13e-01	0	39	0	564133888	62	4274
2026-01-30 13:28:42.01	296.95	14.27	-45.4	-47.0	12.2	6.13e-01	0	39	0	568328192	62	4307
2026-01-30 13:28:44.01	297.39	14.19	-45.3	-46.9	12.2	6.14e-01	0	39	0	571998208	62	4284
2026-01-30 13:28:46.02	297.83	14.10	-45.2	-46.8	12.2	6.13e-01	0	39	0	575668224	62	4234
2026-01-30 13:28:48.03	298.27	14.01	-45.9	-56.6	3.8	7.49e-01	0	39	104	577765376	62	13015
2026-01-30 13:28:50.04	298.71	13.92	-46.0	-56.8	3.8	7.45e-01	0	39	104	577765376	62	13324
2026-01-30 13:28:52.04	299.14	13.82	-47.5	-58.5	3.7	7.48e-01	0	39	104	577765376	65	13704
2026-01-30 13:28:54.05	299.57	13.73	-50.6	-63.0	3.8	7.43e-01	0	39	104	577765376	72	15323
2026-01-30 13:28:56.05	299.99	13.64	-47.8	-59.0	3.7	7.48e-01	0	39	104	577765376	67	12876
2026-01-30 13:28:58.06	300.42	13.54	-47.8	-59.0	3.8	7.49e-01	0	39	104	577765376	67	12827
2026-01-30 13:29:00.07	300.84	13.45	-47.1	-58.2	3.7	7.49e-01	0	39	104	577765376	66	12426
2026-01-30 13:29:02.07	301.25	13.35	-52.9	-69.1	3.8	7.50e-01	0	39	104	577765376	76	24610
2026-01-30 13:29:04.10	301.67	13.25	-49.2	-60.8	3.9	7.42e-01	0	39	104	577765376	69	14112
2026-01-30 13:29:06.01	302.07	13.16	-47.8	-58.8	3.5	7.59e-01	0	39	104	577765376	67	12586
2026-01-30 13:29:08.02	302.48	13.06	-47.2	-58.1	3.9	7.40e-01	0	39	104	577765376	66	12285
2026-01-30 13:29:10.02	302.88	12.96	-47.4	-58.6	3.8	7.47e-01	0	39	104	577765376	65	13795
2026-01-30 13:29:12.03	303.28	12.86	-52.1	-66.9	3.8	7.42e-01	0	39	104	577765376	76	18989
2026-01-30 13:29:14.04	303.69	12.75	-52.6	-68.5	3.8	7.48e-01	0	39	104	577765376	76	22916
2026-01-30 13:29:16.04	304.08	12.65	-52.3	-67.4	3.8	7.44e-01	0	39	104	577765376	76	20295
2026-01-30 13:29:18.05	304.48	12.55	-51.7	-66.0	3.8	7.46e-01	0	39	104	577765376	75	18243
2026-01-30 13:29:20.05	304.87	12.44	-47.7	-59.0	3.8	7.47e-01	0	39	104	577765376	67	12822
2026-01-30 13:29:22.06	305.26	12.34	-49.1	-60.8	3.8	7.46e-01	0	39	104	577765376	68	14882
2026-01-30 13:29:24.06	305.64	12.24	-47.9	-59.1	3.8	7.44e-01	0	39	104	577765376	67	13016
2026-01-30 13:29:26.07	306.03	12.13	-47.2	-58.2	3.8	7.47e-01	0	39	104	577765376	66	12416
2026-01-30 13:29:28.08	306.41	12.02	-47.8	-59.0	3.8	7.45e-01	0	39	104	577765376	66	13704
2026-01-30 13:29:30.08	306.78	11.92	-50.2	-63.0	3.8	7.47e-01	0	39	104	577765376	72	15226
2026-01-30 13:29:32.06	307.15	11.81	-47.7	-59.1	3.8	7.46e-01	0	39	104	577765376	67	12960
2026-01-30 13:29:34.06	307.52	11.70	-47.6	-58.7	3.8	7.47e-01	0	39	104	577765376	67	12512
2026-01-30 13:29:36.07	307.89	11.60	-47.7	-58.8	3.8	7.48e-01	0	39	104	577765376	66	13325
2026-01-30 13:29:38.31	308.30	11.47	-52.4	-68.1	3.8	7.43e-01	0	39	104	577765376	75	23227
2026-01-30 13:29:40.35	308.67	11.36	-49.3	-61.2	3.8	7.41e-01	0	39	104	577765376	69	14836
2026-01-30 13:29:42.42	309.04	11.25	-47.9	-59.4	3.8	7.45e-01	0	39	104	577765376	67	13508
2026-01-30 13:29:44.42	309.39	11.14	-47.7	-59.0	3.8	7.44e-01	0	39	104	577765376	67	12929
2026-01-30 13:29:46.43	309.75	11.03	-48.6	-60.3	3.8	7.45e-01	0	39	104	577765376	67	15046
2026-01-30 13:29:48.43	310.10	10.92	-48.2	-59.7	3.8	7.50e-01	0	39	104	577765376	68	13165
2026-01-30 13:29:50.44	310.45	10.81	-49.9	-62.5	3.8	7.45e-01	0	39	104	577765376	70	16140
2026-01-30 13:29:52.44	310.79	10.70	-49.0	-60.7	3.8	7.43e-01	0	39	104	577765376	69	14030
2026-01-30 13:29:54.45	311.14	10.58	-49.4	-61.4	3.8	7.45e-01	0	39	104	577765376	69	15166
2026-01-30 13:29:56.52	311.49	10.47	-51.1	-64.6	3.8	7.45e-01	0	39	104	577765376	72	18462
2026-01-30 13:29:58.60	311.84	10.35	-52.2	-67.5	3.9	7.44e-01	0	39	104	577765376	75	21545
2026-01-30 13:30:00.69	312.18	10.24	-52.6	-68.9	3.8	7.47e-01	0	39	104	577765376	75	25321
2026-01-30 13:30:02.69	312.52	10.12	-52.8	-69.5	3.8	7.48e-01	0	39	104	577765376	76	25809
2026-01-30 13:30:04.70	312.84	10.01	-52.8	-69.6	3.8	7.47e-01	0	39	104	577765376	76	26103
2026-01-30 13:30:06.71	313.17	9.90	-52.8	-69.6	3.8	7.46e-01	0	39	104	577765376	76	26042
2026-01-30 13:30:08.72	313.50	9.78	-52.6	-69.6	3.8	7.48e-01	0	39	104	577765376	76	26019
2026-01-30 13:30:10.73	313.82	9.67	-52.8	-69.6	3.8	7.47e-01	0	39	104	577765376	76	26118
2026-01-30 13:30:12.74	314.14	9.56	-52.8	-69.7	3.8	7.45e-01	0	39	104	577765376	76	26162
2026-01-30 13:30:14.75	314.45	9.44	-53.0	-70.0	3.8	7.46e-01	0	39	104	577765376	76	27353
2026-01-30 13:30:16.76	314.77	9.33	-53.0	-70.5	3.8	7.45e-01	0	39	104	577765376	76	28796
2026-01-30 13:30:18.77	315.08	9.21	-52.9	-70.7	3.8	7.42e-01	0	39	104	577765376	76	29639
2026-01-30 13:30:20.78	315.39	9.10	-52.5	-70.8	3.8	7.44e-01	0	39	104	577765376	76	29715
2026-01-30 13:30:22.78	315.69	8.99	-51.7	-71.1	3.8	7.47e-01	0	39	104	577765376	75	32582
2026-01-30 13:30:24.79	315.99	8.87	-51.5	-71.0	3.8	7.46e-01	0	39	104	577765376	75	32282
2026-01-30 13:30:26.80	316.30	8.76	-51.5	-70.9	3.8	7.47e-01	0	39	104	577765376	74	34083
2026-01-30 13:30:28.81	316.59	8.64	-51.5	-70.9	3.8	7.46e-01	0	39	104	577765376	74	34007
2026-01-30 13:30:30.82	316.89	8.53	-51.5	-70.9	3.8	7.47e-01	0	39	104	577765376	74	34043
2026-01-30 13:30:32.82	317.18	8.41	-51.5	-70.9	3.8	7.43e-01	0	39	104	577765376	74	33983
2026-01-30 13:30:34.83	317.47	8.30	-51.7	-71.0	3.8	7.47e-01	0	39	104	577765376	74	34310
2026-01-30 13:30:36.84	317.76	8.19	-48.8	-71.0	3.8	7.48e-01	0	39	104	577765376	69	45689
2026-01-30 13:30:38.85	318.05	8.07	-50.2	-71.1	3.8	7.46e-01	0	39	104	577765376	71	41025
2026-01-30 13:30:40.86	318.33	7.96	-48.5	-71.0	3.8	7.45e-01	0	39	104	577765376	69	45785
2026-01-30 13:30:42.87	318.61	7.84	-48.8	-71.0	3.8	7.47e-01	0	39	104	577765376	69	45609
2026-01-30 13:30:44.87	318.89	7.73	-48.9	-70.9	3.8	7.43e-01	0	39	104	577765376	69	45369
2026-01-30 13:30:46.88	319.17	7.61	-49.3	-70.9	3.8	7.47e-01	0	39	104	577765376	70	42668
2026-01-30 13:30:48.89	319.44	7.50	-49.4	-70.9	3.8	7.46e-01	0	39	104	577765376	69	45168
2026-01-30 13:30:50.90	319.72	7.38	-49.9	-70.9	3.8	7.46e-01	0	39	104	577765376	71	40258
2026-01-30 13:30:52.91	319.99	7.27	-51.4	-70.9	3.8	7.44e-01	0	39	104	577765376	73	35907
2026-01-30 13:30:54.92	320.26	7.16	-51.4	-70.9	3.8	7.49e-01	0	39	104	577765376	73	35780
2026-01-30 13:30:56.92	320.52	7.04	-51.4	-70.9	3.8	7.45e-01	0	39	104	577765376	73	35778
2026-01-30 13:30:58.93	320.78	6.93	-51.4	-70.9	3.8	7.45e-01	0	39	104	577765376	73	35859
2026-01-30 13:31:00.94	321.04	6.81	-51.4	-70.9	3.8	7.46e-01	0	39	104	577765376	73	35974
