passes_logs/2026/01/30/T1/T1__20260130_112618_SUOMI_NPP_rec.log

#Pass ID: 20260130_112618_SUOMI NPP
#Satellite: SUOMI NPP
#Configuration: NPP
#almurnet v.1.7.20251203
#Start time: 2026-01-30 11:26:18

#Version: 2.0.20230620
#Station: T1
#Location: 37.570604 lon 55.790049 lat
#TLE: 1 37849U 11061A   26029.48304708  .00000140  00000+0  87283-4 0  9999
#TLE: 2 37849  98.7824 331.4079 0002024  38.4342 321.6978 14.19531488738761

#Time	Az	El	Level	Level2	SNR	BER	BlckErr	Temp	State	Recorded	gain1	gain2
2026-01-30 11:26:18.64	207.05	5.03	-51.0	-65.6	3.8	1.49e+00	0	40	0	0	73	19439
2026-01-30 11:26:21.64	207.29	5.22	-51.1	-65.7	3.8	1.49e+00	0	41	104	0	74	18585
2026-01-30 11:26:24.65	207.54	5.40	-51.2	-65.7	3.8	1.49e+00	0	41	104	0	74	18698
2026-01-30 11:26:27.66	207.79	5.59	-51.2	-65.6	3.8	1.49e+00	0	41	104	0	74	18477
2026-01-30 11:26:30.67	208.04	5.77	-51.0	-65.6	3.8	1.49e+00	0	41	104	0	73	19404
2026-01-30 11:26:33.68	208.30	5.96	-51.0	-65.4	3.8	1.49e+00	0	41	104	0	73	19046
2026-01-30 11:26:36.70	208.56	6.15	-50.6	-64.9	3.8	1.49e+00	0	41	104	0	72	19083
2026-01-30 11:26:39.71	208.82	6.34	-50.6	-64.4	3.8	1.49e+00	0	42	104	0	72	18045
2026-01-30 11:26:42.72	209.09	6.53	-50.5	-63.9	3.8	1.49e+00	0	42	104	0	72	16940
2026-01-30 11:26:45.73	209.36	6.72	-50.6	-64.3	3.8	1.49e+00	0	41	104	0	72	17717
2026-01-30 11:26:48.75	209.63	6.92	-50.6	-64.6	3.8	1.49e+00	0	42	104	0	72	18499
2026-01-30 11:26:51.76	209.91	7.11	-50.6	-64.7	3.8	1.49e+00	0	42	104	0	72	18568
2026-01-30 11:26:54.77	210.19	7.30	-50.6	-64.8	3.8	1.49e+00	0	42	104	0	72	18786
2026-01-30 11:26:57.78	210.47	7.50	-50.5	-64.0	3.8	1.49e+00	0	42	104	0	72	17149
2026-01-30 11:27:00.76	210.76	7.69	-50.4	-61.7	4.1	1.43e+00	0	42	0	0	72	13201
2026-01-30 11:27:03.77	211.05	7.89	-50.5	-64.4	3.8	1.49e+00	0	42	104	0	72	17903
2026-01-30 11:27:06.79	211.34	8.09	-49.8	-57.1	6.6	4.08e-01	0	42	0	1048576	71	8236
2026-01-30 11:27:09.80	211.64	8.29	-46.7	-49.5	14.0	3.00e-06	0	42	0	6291456	65	4855
2026-01-30 11:27:12.81	211.94	8.49	-45.3	-47.3	16.4	0.00e+00	0	42	0	12582912	62	4449
2026-01-30 11:27:15.83	212.25	8.69	-46.1	-48.5	15.2	0.00e+00	0	42	0	17825792	62	5108
2026-01-30 11:27:18.84	212.56	8.89	-48.3	-52.7	10.9	3.26e-04	0	42	0	23068672	67	6205
2026-01-30 11:27:21.85	212.88	9.09	-46.2	-48.8	14.8	5.68e-02	0	42	0	29360128	64	4712
2026-01-30 11:27:24.86	213.20	9.29	-47.2	-50.5	13.1	9.98e-02	0	43	0	34603008	66	5156
2026-01-30 11:27:27.87	213.52	9.50	-47.1	-50.4	13.2	5.41e-05	0	42	0	39845888	66	5054
2026-01-30 11:27:30.87	213.85	9.70	-45.4	-47.6	16.1	0.00e+00	0	43	0	45088768	62	4644
2026-01-30 11:27:33.88	214.18	9.91	-45.7	-48.0	15.7	0.00e+00	0	43	0	51380224	62	4834
2026-01-30 11:27:36.89	214.52	10.12	-45.6	-47.7	16.0	0.00e+00	0	43	0	56623104	62	4693
2026-01-30 11:27:39.89	214.86	10.32	-45.8	-48.0	15.7	0.00e+00	0	43	0	62914560	62	4845
2026-01-30 11:27:42.88	215.20	10.53	-45.4	-47.5	16.3	0.00e+00	0	43	0	68157440	62	4548
2026-01-30 11:27:45.89	215.55	10.74	-45.2	-47.2	16.6	0.00e+00	0	43	0	73400320	62	4407
2026-01-30 11:27:48.89	215.91	10.95	-45.0	-47.0	16.7	0.00e+00	0	43	0	79691776	61	4563
2026-01-30 11:27:51.90	216.27	11.16	-44.9	-46.7	17.0	0.00e+00	0	43	0	84934656	61	4423
2026-01-30 11:27:54.97	216.64	11.38	-44.8	-46.5	17.2	0.00e+00	0	43	0	90177536	61	4329
2026-01-30 11:27:57.83	216.99	11.58	-44.7	-46.4	17.2	0.00e+00	0	43	0	96468992	61	4269
2026-01-30 11:28:00.98	217.39	11.80	-44.8	-46.6	17.2	0.00e+00	0	43	0	101711872	61	4345
2026-01-30 11:28:03.86	217.75	12.01	-44.8	-46.5	17.2	0.00e+00	0	43	0	106954752	61	4338
2026-01-30 11:28:07.09	218.17	12.24	-44.6	-46.3	17.5	0.00e+00	0	43	0	113246208	61	4207
2026-01-30 11:28:10.02	218.55	12.45	-44.6	-46.4	17.4	0.00e+00	0	43	0	118489088	61	4247
2026-01-30 11:28:13.03	218.95	12.66	-44.8	-46.6	17.2	0.00e+00	0	43	0	124780544	61	4362
2026-01-30 11:28:16.04	219.35	12.88	-45.0	-46.8	16.9	0.00e+00	0	43	0	130023424	61	4493
2026-01-30 11:28:19.05	219.76	13.10	-45.1	-46.9	16.9	0.00e+00	0	43	0	136314880	61	4537
2026-01-30 11:28:22.05	220.18	13.32	-45.0	-46.9	16.9	0.00e+00	0	43	0	141557760	61	4530
2026-01-30 11:28:25.09	220.60	13.54	-45.0	-46.8	17.0	0.00e+00	0	43	0	146800640	61	4487
2026-01-30 11:28:28.62	221.10	13.79	-44.6	-46.3	17.5	0.00e+00	0	43	0	154140672	61	4226
2026-01-30 11:28:31.55	221.53	14.01	-44.5	-46.2	17.5	0.00e+00	0	43	0	159383552	60	4406
2026-01-30 11:28:34.85	222.01	14.25	-44.1	-45.7	18.0	0.00e+00	0	43	0	165675008	60	4178
2026-01-30 11:28:37.56	222.42	14.45	-43.9	-45.3	18.3	0.00e+00	0	43	0	170917888	59	4237
2026-01-30 11:28:41.13	222.95	14.71	-43.9	-45.3	18.3	0.00e+00	0	43	0	177209344	59	4240
2026-01-30 11:28:43.85	223.37	14.91	-44.1	-45.6	18.1	0.00e+00	0	43	0	182452224	59	4364
2026-01-30 11:28:47.18	223.89	15.16	-44.4	-46.0	17.7	0.00e+00	0	43	0	188743680	59	4594
2026-01-30 11:28:49.92	224.32	15.36	-44.6	-46.2	17.5	0.00e+00	0	43	0	193986560	59	4693
2026-01-30 11:28:53.22	224.85	15.60	-44.6	-46.3	17.5	0.00e+00	0	43	0	200278016	60	4471
2026-01-30 11:28:55.94	225.29	15.80	-44.6	-46.3	17.5	0.00e+00	0	43	0	205520896	60	4465
2026-01-30 11:28:59.26	225.84	16.05	-44.0	-45.5	18.2	0.00e+00	0	43	0	210763776	60	4063
2026-01-30 11:29:02.25	226.34	16.27	-43.8	-45.3	18.4	0.00e+00	0	43	0	217055232	59	4212
2026-01-30 11:29:06.00	226.98	16.55	-43.5	-44.9	18.7	0.00e+00	0	43	0	223346688	58	4266
2026-01-30 11:29:08.78	227.46	16.75	-43.3	-44.6	19.0	0.00e+00	0	43	0	228589568	58	4128
2026-01-30 11:29:12.58	228.13	17.03	-43.2	-44.6	19.1	0.00e+00	0	43	0	235929600	58	4101
2026-01-30 11:29:15.36	228.62	17.24	-43.6	-45.0	18.6	0.00e+00	0	43	0	241172480	58	4326
2026-01-30 11:29:19.11	229.30	17.51	-43.9	-45.3	18.4	0.00e+00	0	43	0	248512512	58	4492
2026-01-30 11:29:21.92	229.82	17.72	-43.9	-45.4	18.3	0.00e+00	0	43	0	253755392	58	4496
2026-01-30 11:29:25.71	230.53	17.99	-44.0	-45.6	18.1	0.00e+00	0	43	0	261095424	59	4365
2026-01-30 11:29:28.44	231.05	18.19	-44.0	-45.5	18.2	0.00e+00	0	43	0	266338304	59	4330
2026-01-30 11:29:32.18	231.77	18.46	-43.3	-44.6	19.0	0.00e+00	0	43	0	272629760	58	4125
2026-01-30 11:29:35.06	232.33	18.67	-43.0	-44.3	19.3	0.00e+00	0	43	0	277872640	58	3974
2026-01-30 11:29:38.22	232.96	18.90	-42.6	-43.8	19.7	0.00e+00	0	43	0	284164096	57	3996
2026-01-30 11:29:41.09	233.53	19.10	-42.3	-43.5	20.0	0.00e+00	0	43	0	289406976	56	4067
2026-01-30 11:29:44.24	234.17	19.32	-42.5	-43.8	19.8	0.00e+00	0	43	0	295698432	56	4197
2026-01-30 11:29:47.10	234.77	19.52	-42.3	-43.4	20.0	0.00e+00	0	43	0	300941312	56	4040
2026-01-30 11:29:50.26	235.43	19.75	-42.2	-43.3	20.1	0.00e+00	0	43	0	307232768	56	4002
2026-01-30 11:29:53.13	236.04	19.94	-42.3	-43.5	19.9	0.00e+00	0	43	0	312475648	56	4080
2026-01-30 11:29:56.27	236.71	20.16	-42.6	-43.8	19.7	0.00e+00	0	43	0	317718528	56	4226
2026-01-30 11:29:59.14	237.34	20.35	-42.7	-44.0	19.5	0.00e+00	0	43	0	324009984	56	4310
2026-01-30 11:30:02.50	238.08	20.58	-42.6	-43.9	19.6	0.00e+00	0	43	0	330301440	56	4255
2026-01-30 11:30:05.44	238.74	20.78	-42.3	-43.5	19.9	0.00e+00	0	43	0	335544320	56	4094
2026-01-30 11:30:08.74	239.48	20.99	-42.9	-44.2	19.4	0.00e+00	0	43	0	341835776	56	4407
2026-01-30 11:30:11.46	240.11	21.17	-43.1	-44.4	19.1	0.00e+00	0	43	0	347078656	57	4264
2026-01-30 11:30:14.76	240.87	21.38	-43.1	-44.3	19.2	0.00e+00	0	43	0	352321536	57	4229
2026-01-30 11:30:17.56	241.53	21.56	-43.3	-44.6	18.9	0.00e+00	0	43	0	357564416	57	4381
2026-01-30 11:30:20.71	242.28	21.75	-42.9	-44.1	19.4	0.00e+00	0	43	0	363855872	57	4145
2026-01-30 11:30:23.57	242.97	21.93	-43.3	-44.6	18.9	0.00e+00	0	43	0	369098752	57	4382
2026-01-30 11:30:26.63	243.71	22.11	-44.1	-45.7	18.0	0.00e+00	0	43	0	375390208	58	4665
2026-01-30 11:30:29.64	244.46	22.29	-43.1	-44.4	19.2	5.30e-06	0	43	0	380633088	58	4026
2026-01-30 11:30:32.65	245.20	22.46	-43.2	-44.5	19.0	0.00e+00	0	43	0	385875968	57	4338
2026-01-30 11:30:35.65	245.96	22.63	-43.2	-44.5	19.0	0.00e+00	0	43	0	392167424	57	4307
2026-01-30 11:30:38.79	246.76	22.80	-43.4	-44.7	18.8	0.00e+00	0	43	0	397410304	57	4441
2026-01-30 11:30:41.65	247.49	22.95	-43.7	-45.1	18.4	0.00e+00	0	43	0	403701760	58	4377
2026-01-30 11:30:44.81	248.31	23.11	-43.3	-44.8	18.8	7.00e-07	0	43	0	408944640	58	4196
2026-01-30 11:30:47.67	249.06	23.26	-43.8	-45.4	18.3	0.00e+00	0	43	0	414187520	58	4496
2026-01-30 11:30:50.91	249.92	23.42	-44.6	-46.2	17.5	0.00e+00	0	43	0	420478976	59	4704
2026-01-30 11:30:53.77	250.68	23.55	-44.8	-46.6	17.1	0.00e+00	0	43	0	425721856	60	4632
2026-01-30 11:30:56.92	251.53	23.69	-43.9	-45.5	18.2	0.00e+00	0	43	0	432013312	59	4298
2026-01-30 11:30:59.79	252.31	23.82	-44.7	-46.5	17.3	0.00e+00	0	44	0	437256192	59	4828
2026-01-30 11:31:02.94	253.17	23.95	-45.4	-47.6	16.3	7.00e-07	0	43	0	443547648	61	4873
2026-01-30 11:31:05.80	253.96	24.07	-45.2	-47.3	16.5	0.00e+00	0	43	0	448790528	61	4719
2026-01-30 11:31:08.96	254.83	24.19	-45.3	-47.4	16.4	0.00e+00	0	43	0	454033408	61	4771
2026-01-30 11:31:11.87	255.65	24.29	-45.3	-47.3	16.6	0.00e+00	0	43	0	460324864	61	4710
2026-01-30 11:31:15.01	256.53	24.40	-47.2	-50.4	13.3	2.20e-06	0	43	0	465567744	64	5666
2026-01-30 11:31:17.88	257.34	24.49	-46.2	-48.7	15.1	1.67e-05	0	43	0	470810624	64	4655
2026-01-30 11:31:21.03	258.24	24.59	-46.4	-48.8	15.1	0.00e+00	0	43	0	477102080	63	4992
2026-01-30 11:31:23.96	259.08	24.67	-45.8	-48.1	15.7	0.00e+00	0	43	0	482344960	63	4610
2026-01-30 11:31:27.11	259.98	24.75	-45.4	-47.4	16.5	6.40e-05	0	43	0	488636416	62	4502
2026-01-30 11:31:30.07	260.84	24.82	-45.9	-48.1	15.7	0.00e+00	0	43	0	493879296	62	4916
2026-01-30 11:31:33.08	261.71	24.88	-46.2	-48.5	15.3	0.00e+00	0	43	0	499122176	63	4839
2026-01-30 11:31:36.38	262.68	24.95	-45.2	-47.2	16.7	9.53e-05	0	43	0	505413632	62	4396
2026-01-30 11:31:39.10	263.47	24.99	-44.3	-46.0	17.8	0.00e+00	0	44	0	510656512	60	4305
2026-01-30 11:31:42.39	264.43	25.04	-43.9	-45.4	18.3	0.00e+00	0	43	0	516947968	59	4283
2026-01-30 11:31:45.29	265.29	25.07	-45.3	-47.3	16.6	1.06e-05	0	44	0	522190848	61	4723
2026-01-30 11:31:48.59	266.26	25.10	-44.3	-46.0	17.8	0.00e+00	0	44	0	528482304	60	4294
2026-01-30 11:31:51.30	267.06	25.12	-44.9	-46.7	17.1	0.00e+00	0	43	0	533725184	60	4656
2026-01-30 11:31:54.60	268.03	25.14	-44.6	-46.3	17.5	0.00e+00	0	43	0	540016640	60	4450
2026-01-30 11:31:57.42	268.87	25.15	-44.5	-46.2	17.6	0.00e+00	0	43	0	545259520	60	4406
2026-01-30 11:32:00.57	269.80	25.15	-43.5	-44.9	18.8	0.00e+00	0	43	0	551550976	58	4255
2026-01-30 11:32:03.47	270.65	25.14	-43.3	-44.6	19.0	0.00e+00	0	43	0	556793856	57	4386
2026-01-30 11:32:06.61	271.58	25.13	-44.0	-45.6	18.2	0.00e+00	0	43	0	562036736	58	4601
2026-01-30 11:32:09.48	272.42	25.11	-43.6	-44.9	18.7	2.82e-05	0	43	0	568328192	58	4269
2026-01-30 11:32:12.63	273.35	25.08	-43.6	-45.0	18.7	0.00e+00	0	44	0	573571072	58	4300
2026-01-30 11:32:15.81	274.29	25.04	-44.0	-45.5	18.2	0.00e+00	0	44	0	579862528	58	4574
2026-01-30 11:32:18.85	275.18	25.00	-44.4	-46.0	17.7	3.00e-06	0	44	0	585105408	59	4571
2026-01-30 11:32:21.85	276.05	24.95	-43.9	-45.4	18.3	0.00e+00	0	44	0	591396864	59	4254
2026-01-30 11:32:24.87	276.93	24.89	-44.0	-45.4	18.3	0.00e+00	0	43	0	596639744	59	4290
2026-01-30 11:32:27.86	277.80	24.83	-43.8	-45.3	18.5	0.00e+00	0	44	0	601882624	59	4200
2026-01-30 11:32:30.87	278.67	24.76	-43.9	-45.3	18.4	0.00e+00	0	43	0	608174080	59	4228
2026-01-30 11:32:33.87	279.53	24.68	-43.7	-45.0	18.6	0.00e+00	0	44	0	613416960	59	4096
2026-01-30 11:32:36.88	280.39	24.60	-43.4	-44.7	19.0	0.00e+00	0	44	0	619708416	58	4183
2026-01-30 11:32:39.89	281.24	24.51	-43.0	-44.2	19.4	0.00e+00	0	43	0	624951296	57	4169
2026-01-30 11:32:42.90	282.10	24.41	-43.2	-44.5	19.2	3.00e-06	0	43	0	630194176	57	4296
2026-01-30 11:32:45.91	282.94	24.31	-43.2	-44.5	19.2	0.00e+00	0	43	0	636485632	57	4316
2026-01-30 11:32:48.92	283.78	24.20	-43.2	-44.5	19.2	0.00e+00	0	43	0	641728512	57	4313
2026-01-30 11:32:51.99	284.63	24.08	-42.8	-44.0	19.5	0.00e+00	0	44	0	648019968	57	4087
2026-01-30 11:32:55.00	285.46	23.97	-42.7	-43.9	19.7	0.00e+00	0	44	0	653262848	57	4050
2026-01-30 11:32:58.01	286.28	23.84	-43.2	-44.5	19.2	0.00e+00	0	44	0	658505728	57	4308
2026-01-30 11:33:01.02	287.10	23.71	-43.3	-44.7	19.0	0.00e+00	0	44	0	664797184	57	4416
2026-01-30 11:33:04.02	287.90	23.58	-42.7	-43.9	19.7	0.00e+00	0	43	0	670040064	57	4042
2026-01-30 11:33:07.03	288.70	23.44	-42.5	-43.7	19.9	0.00e+00	0	44	0	675282944	56	4161
2026-01-30 11:33:10.04	289.50	23.29	-42.1	-43.3	20.3	0.00e+00	0	43	0	681574400	56	3962
2026-01-30 11:33:13.04	290.28	23.14	-41.3	-42.3	20.9	0.00e+00	0	43	0	686817280	54	4000
2026-01-30 11:33:16.05	291.06	22.99	-42.3	-43.5	20.0	2.20e-06	0	44	0	693108736	55	4292
2026-01-30 11:33:19.06	291.83	22.83	-42.3	-43.5	20.0	0.00e+00	0	43	0	698351616	55	4307
2026-01-30 11:33:22.18	292.62	22.66	-41.6	-42.6	20.7	0.00e+00	0	43	0	704643072	55	3911
2026-01-30 11:33:25.14	293.36	22.49	-42.4	-43.6	19.9	7.00e-07	0	43	0	709885952	55	4351
2026-01-30 11:33:28.38	294.17	22.31	-42.7	-43.9	19.8	0.00e+00	0	43	0	716177408	56	4257
2026-01-30 11:33:31.31	294.89	22.14	-42.3	-43.4	20.2	0.00e+00	0	44	0	721420288	56	4039
2026-01-30 11:33:34.32	295.62	21.96	-42.8	-44.0	19.7	0.00e+00	0	43	0	726663168	56	4311
2026-01-30 11:33:37.33	296.34	21.78	-42.8	-44.0	19.7	0.00e+00	0	43	0	732954624	56	4307
2026-01-30 11:33:40.34	297.05	21.59	-42.8	-44.0	19.7	0.00e+00	0	43	0	738197504	56	4306
2026-01-30 11:33:43.34	297.75	21.41	-43.0	-44.2	19.5	0.00e+00	0	43	0	743440384	56	4436
2026-01-30 11:33:46.35	298.45	21.22	-43.8	-45.3	18.5	0.00e+00	0	43	0	749731840	58	4445
2026-01-30 11:33:49.36	299.14	21.02	-44.1	-45.6	18.2	0.00e+00	0	43	0	754974720	59	4361
2026-01-30 11:33:52.37	299.82	20.83	-43.3	-44.6	19.1	0.00e+00	0	44	0	761266176	58	4144
2026-01-30 11:33:55.38	300.49	20.63	-43.2	-44.4	19.3	0.00e+00	0	43	0	766509056	58	4049
2026-01-30 11:33:58.39	301.15	20.43	-43.9	-45.3	18.6	0.00e+00	0	44	0	771751936	58	4449
2026-01-30 11:34:01.39	301.81	20.23	-44.2	-45.7	18.1	0.00e+00	0	44	0	778043392	59	4432
2026-01-30 11:34:04.40	302.45	20.02	-44.3	-45.8	18.0	0.00e+00	0	43	0	783286272	59	4481
2026-01-30 11:34:07.41	303.09	19.82	-44.0	-45.5	18.3	0.00e+00	0	43	0	788529152	59	4317
2026-01-30 11:34:10.41	303.72	19.61	-44.0	-45.5	18.3	0.00e+00	0	43	0	794820608	59	4316
2026-01-30 11:34:13.42	304.34	19.40	-44.5	-46.1	17.8	0.00e+00	0	43	0	800063488	59	4632
2026-01-30 11:34:16.51	304.97	19.18	-44.5	-46.1	17.8	0.00e+00	0	43	0	806354944	60	4383
2026-01-30 11:34:19.43	305.55	18.98	-44.2	-45.8	18.1	0.00e+00	0	43	0	811597824	60	4219
2026-01-30 11:34:22.58	306.18	18.75	-44.9	-46.7	17.2	0.00e+00	0	43	0	817889280	60	4656
2026-01-30 11:34:25.45	306.74	18.55	-44.7	-46.5	17.4	0.00e+00	0	44	0	823132160	60	4549
2026-01-30 11:34:28.60	307.34	18.32	-44.4	-46.1	17.8	0.00e+00	0	43	0	828375040	60	4342
2026-01-30 11:34:31.85	307.96	18.09	-44.7	-46.4	17.5	0.00e+00	0	43	0	834666496	60	4539
2026-01-30 11:34:34.85	308.52	17.87	-44.1	-45.6	18.2	0.00e+00	0	43	0	840957952	60	4127
2026-01-30 11:34:37.87	309.08	17.65	-43.8	-45.3	18.5	0.00e+00	0	43	0	846200832	59	4208
2026-01-30 11:34:40.89	309.63	17.44	-44.2	-45.7	18.0	0.00e+00	0	43	0	851443712	59	4423
2026-01-30 11:34:43.86	310.16	17.22	-44.5	-46.1	17.6	0.00e+00	0	43	0	857735168	59	4647
2026-01-30 11:34:46.87	310.69	17.00	-44.4	-46.1	17.7	0.00e+00	0	44	0	862978048	59	4630
2026-01-30 11:34:49.88	311.22	16.78	-45.3	-47.3	16.7	0.00e+00	0	43	0	868220928	61	4747
2026-01-30 11:34:52.96	311.74	16.56	-45.6	-47.7	16.2	0.00e+00	0	43	0	874512384	62	4666
2026-01-30 11:34:56.29	312.31	16.31	-44.3	-46.0	17.9	0.00e+00	0	43	0	880803840	60	4294
2026-01-30 11:34:59.15	312.78	16.10	-43.9	-45.4	18.4	0.00e+00	0	44	0	886046720	59	4279
2026-01-30 11:35:02.43	313.32	15.86	-44.6	-46.3	17.5	0.00e+00	0	43	0	892338176	59	4719
2026-01-30 11:35:05.36	313.80	15.65	-44.4	-46.2	17.6	0.00e+00	0	44	0	897581056	60	4404
2026-01-30 11:35:08.65	314.32	15.41	-43.9	-45.4	18.3	0.00e+00	0	43	0	903872512	59	4270
2026-01-30 11:35:11.37	314.75	15.21	-44.2	-45.8	17.9	0.00e+00	0	44	0	909115392	59	4471
2026-01-30 11:35:14.67	315.26	14.97	-44.8	-46.6	17.3	0.00e+00	0	43	0	915406848	60	4605
2026-01-30 11:35:17.39	315.68	14.77	-44.5	-46.3	17.5	0.00e+00	0	44	0	920649728	60	4447
2026-01-30 11:35:20.78	316.19	14.52	-44.6	-46.3	17.5	0.00e+00	0	44	0	926941184	60	4482
2026-01-30 11:35:23.57	316.60	14.32	-45.1	-47.1	16.8	0.00e+00	0	43	0	932184064	60	4889
2026-01-30 11:35:26.87	317.08	14.08	-45.1	-47.2	16.7	0.00e+00	0	43	0	937426944	61	4657
2026-01-30 11:35:29.61	317.48	13.88	-44.7	-46.5	17.3	0.00e+00	0	44	0	942669824	61	4314
2026-01-30 11:35:32.90	317.95	13.65	-44.8	-46.5	17.3	0.00e+00	0	43	0	948961280	60	4590
2026-01-30 11:35:35.62	318.33	13.45	-44.9	-46.7	17.1	0.00e+00	0	44	0	954204160	60	4680
2026-01-30 11:35:38.92	318.78	13.21	-45.4	-47.5	16.4	0.00e+00	0	44	0	960495616	61	4832
2026-01-30 11:35:41.86	319.18	13.00	-45.0	-47.0	16.8	0.00e+00	0	43	0	965738496	61	4575
2026-01-30 11:35:45.16	319.63	12.77	-44.8	-46.9	16.9	0.00e+00	0	43	0	972029952	61	4511
2026-01-30 11:35:47.88	319.99	12.57	-45.1	-47.3	16.5	0.00e+00	0	43	0	977272832	61	4736
2026-01-30 11:35:51.13	320.41	12.34	-45.3	-47.3	16.5	0.00e+00	0	43	0	983564288	61	4755
2026-01-30 11:35:54.26	320.81	12.12	-44.9	-46.8	17.0	0.00e+00	0	44	0	988807168	61	4459
2026-01-30 11:35:57.26	321.19	11.91	-44.5	-46.4	17.4	0.00e+00	0	44	0	995098624	60	4540
2026-01-30 11:36:00.27	321.57	11.70	-44.2	-46.0	17.7	0.00e+00	0	43	0	1000341504	60	4339
2026-01-30 11:36:03.27	321.94	11.49	-44.4	-46.2	17.5	0.00e+00	0	43	0	1006632960	60	4438
2026-01-30 11:36:06.47	322.33	11.27	-44.8	-46.6	17.2	0.00e+00	0	43	0	1011875840	60	4632
2026-01-30 11:36:09.37	322.68	11.07	-44.7	-46.6	17.2	0.00e+00	0	43	0	1017118720	60	4605
2026-01-30 11:36:12.52	323.05	10.85	-44.5	-46.4	17.3	0.00e+00	0	44	0	1023410176	60	4539
2026-01-30 11:36:15.39	323.38	10.65	-44.4	-46.5	17.3	0.00e+00	0	44	0	1028653056	60	4554
2026-01-30 11:36:18.54	323.75	10.43	-44.8	-47.2	16.6	0.00e+00	0	44	0	1034944512	60	4949
2026-01-30 11:36:21.40	324.07	10.24	-44.9	-47.2	16.5	0.00e+00	0	44	0	1040187392	60	4976
2026-01-30 11:36:24.55	324.42	10.02	-44.9	-47.2	16.5	0.00e+00	0	44	0	1046478848	60	4979
2026-01-30 11:36:27.42	324.74	9.83	-44.6	-46.9	16.8	0.00e+00	0	44	0	1051721728	60	4784
2026-01-30 11:36:30.57	325.08	9.62	-44.7	-47.0	16.7	0.00e+00	0	44	0	1056964608	60	4851
2026-01-30 11:36:33.47	325.40	9.42	-44.7	-47.1	16.6	0.00e+00	0	44	0	1063256064	60	4902
2026-01-30 11:36:36.76	325.75	9.20	-44.9	-47.5	16.2	0.00e+00	0	44	0	1068498944	60	5136
2026-01-30 11:36:39.48	326.03	9.02	-45.2	-47.9	15.9	0.00e+00	0	43	0	1073741824	60	5356
2026-01-30 11:36:42.78	326.37	8.80	-50.2	-64.8	3.8	1.49e+00	0	44	104	1074790400	71	19888
2026-01-30 11:36:45.51	326.65	8.62	-50.3	-64.8	3.8	1.49e+00	0	44	104	1074790400	71	20054
2026-01-30 11:36:48.82	326.98	8.41	-50.6	-64.9	3.8	1.49e+00	0	43	104	1074790400	71	20137
2026-01-30 11:36:51.55	327.25	8.23	-50.6	-64.9	3.8	1.49e+00	0	44	104	1074790400	72	19103
2026-01-30 11:36:54.85	327.58	8.01	-50.6	-65.0	3.8	1.49e+00	0	44	104	1074790400	72	19207
2026-01-30 11:36:57.57	327.84	7.84	-50.5	-64.9	3.8	1.49e+00	0	44	104	1074790400	72	19156
2026-01-30 11:37:00.88	328.16	7.62	-50.5	-65.0	3.8	1.49e+00	0	44	104	1074790400	72	19186
2026-01-30 11:37:03.60	328.42	7.45	-50.5	-64.9	3.8	1.49e+00	0	43	104	1074790400	72	19154
2026-01-30 11:37:06.90	328.72	7.24	-50.6	-64.9	3.8	1.49e+00	0	43	104	1074790400	72	19095
2026-01-30 11:37:09.63	328.98	7.07	-50.5	-64.9	3.8	1.49e+00	0	44	104	1074790400	72	19086
2026-01-30 11:37:12.93	329.28	6.86	-50.5	-64.9	3.8	1.49e+00	0	44	104	1074790400	72	19086
2026-01-30 11:37:15.65	329.52	6.69	-50.5	-64.9	3.8	1.49e+00	0	43	104	1074790400	72	19128
2026-01-30 11:37:18.96	329.81	6.48	-50.5	-64.9	3.8	1.49e+00	0	44	104	1074790400	72	19120
2026-01-30 11:37:21.68	330.05	6.31	-50.5	-64.9	3.8	1.49e+00	0	44	104	1074790400	72	19153
2026-01-30 11:37:24.98	330.34	6.10	-50.5	-64.9	3.8	1.49e+00	0	44	104	1074790400	72	19133
2026-01-30 11:37:27.71	330.57	5.93	-50.5	-64.9	3.8	1.49e+00	0	44	104	1074790400	72	19132
2026-01-30 11:37:31.01	330.85	5.73	-50.5	-64.9	3.8	1.49e+00	0	43	104	1074790400	72	19098
2026-01-30 11:37:33.73	331.08	5.57	-50.5	-64.9	3.8	1.49e+00	0	44	104	1074790400	72	19086
2026-01-30 11:37:37.03	331.35	5.36	-50.5	-64.9	3.8	1.49e+00	0	44	104	1074790400	72	19157
2026-01-30 11:37:39.76	331.57	5.20	-50.5	-64.9	3.8	1.49e+00	0	44	104	1074790400	72	19166
2026-01-30 11:37:43.06	331.84	5.00	-50.5	-64.9	3.8	1.49e+00	0	44	104	1074790400	72	19127

#Closed at: 2026-01-30 11:37:43
#Recorded file [1074 MB]: D:/Data/31040_260130_142618.dat