passes_logs/2026/01/30/T1/T1__20260130_082625_NOAA_20_JPSS-1_rec.log

#Pass ID: 20260130_082625_NOAA 20 (JPSS-1)
#Satellite: NOAA 20 (JPSS-1)
#Configuration: NOAA 20
#almurnet v.1.7.20251203
#Start time: 2026-01-30 08:26:26

#Version: 2.0.20230620
#Station: T1
#Location: 37.570604 lon 55.790049 lat
#TLE: 1 43013U 17073A   26029.42702672  .00000137  00000+0  85918-4 0  9993
#TLE: 2 43013  98.7646 330.2153 0000804  19.9045 340.2162 14.19525092424781

#Time	Az	El	Level	Level2	SNR	BER	BlckErr	Temp	State	Recorded	gain1	gain2
2026-01-30 08:26:26.93	113.08	4.99	-49.3	-63.8	3.8	1.49e+00	0	37	0	0	69	19898
2026-01-30 08:26:29.94	112.85	5.18	-49.5	-63.8	3.8	1.49e+00	0	37	104	0	70	18871
2026-01-30 08:26:32.94	112.62	5.37	-49.5	-63.8	3.8	1.49e+00	0	37	104	0	70	18761
2026-01-30 08:26:35.95	112.39	5.56	-49.4	-63.7	3.8	1.49e+00	0	37	104	0	70	18692
2026-01-30 08:26:38.96	112.15	5.75	-49.3	-63.7	3.8	1.49e+00	0	37	104	0	70	18527
2026-01-30 08:26:41.96	111.91	5.94	-49.2	-63.5	3.8	1.49e+00	0	37	104	0	70	18131
2026-01-30 08:26:44.97	111.67	6.14	-48.8	-63.0	3.8	1.49e+00	0	37	104	0	69	18182
2026-01-30 08:26:47.97	111.42	6.33	-48.8	-63.0	3.8	1.49e+00	0	37	104	0	69	18245
2026-01-30 08:26:50.98	111.18	6.52	-48.8	-63.0	3.8	1.49e+00	0	37	104	0	69	18135
2026-01-30 08:26:53.98	110.92	6.72	-48.7	-62.7	3.8	1.49e+00	0	38	104	0	69	17593
2026-01-30 08:26:56.98	110.67	6.91	-48.7	-62.6	3.8	1.49e+00	0	38	104	0	69	17369
2026-01-30 08:26:59.99	110.41	7.11	-48.7	-62.6	3.8	1.49e+00	0	38	104	0	69	17300
2026-01-30 08:27:02.94	110.15	7.31	-48.7	-62.5	3.8	1.49e+00	0	38	104	0	69	17119
2026-01-30 08:27:05.94	109.88	7.51	-48.7	-62.1	3.8	1.49e+00	0	38	104	0	69	16470
2026-01-30 08:27:08.95	109.61	7.71	-48.7	-61.7	3.8	1.49e+00	0	38	104	0	69	15710
2026-01-30 08:27:11.95	109.34	7.91	-48.8	-62.4	3.8	1.49e+00	0	38	104	0	69	17061
2026-01-30 08:27:14.95	109.06	8.11	-48.1	-55.6	6.3	5.81e-01	0	38	0	2097152	68	8262
2026-01-30 08:27:17.96	108.77	8.31	-45.7	-49.0	12.8	3.20e-04	0	38	0	7340032	63	5123
2026-01-30 08:27:20.96	108.49	8.51	-44.5	-47.0	14.8	0.00e+00	0	38	0	12582912	60	4838
2026-01-30 08:27:23.97	108.20	8.72	-45.4	-48.5	13.3	1.37e-05	0	38	0	18874368	61	5433
2026-01-30 08:27:26.97	107.90	8.93	-47.0	-52.3	9.2	1.02e-02	0	38	0	24117248	64	7117
2026-01-30 08:27:29.97	107.60	9.13	-48.1	-56.2	5.8	4.35e-01	0	38	0	30408704	67	9318
2026-01-30 08:27:32.97	107.30	9.34	-46.8	-50.9	11.1	3.46e-02	0	38	0	33554432	65	5675
2026-01-30 08:27:35.97	106.99	9.55	-45.8	-48.9	13.1	4.11e-04	0	38	0	36700160	63	5075
2026-01-30 08:27:38.97	106.68	9.76	-44.7	-47.1	15.0	0.00e+00	0	38	0	41943040	61	4640
2026-01-30 08:27:41.97	106.36	9.97	-44.6	-47.0	15.1	0.00e+00	0	38	0	48234496	61	4585
2026-01-30 08:27:44.97	106.04	10.18	-44.8	-47.1	15.3	0.00e+00	0	38	0	53477376	61	4639
2026-01-30 08:27:47.97	105.71	10.39	-45.5	-47.9	15.0	0.00e+00	0	38	0	58720256	61	5065
2026-01-30 08:27:50.97	105.38	10.60	-45.5	-47.9	15.1	0.00e+00	0	38	0	65011712	61	5050
2026-01-30 08:27:53.97	105.05	10.82	-45.3	-47.5	15.5	0.00e+00	0	38	0	70254592	61	4828
2026-01-30 08:27:56.97	104.71	11.03	-45.3	-47.6	15.3	0.00e+00	0	38	0	75497472	61	4914
2026-01-30 08:27:59.98	104.36	11.25	-45.1	-47.3	15.6	0.00e+00	0	39	0	81788928	61	4759
2026-01-30 08:28:02.99	104.01	11.47	-45.1	-47.3	15.7	0.00e+00	0	39	0	87031808	61	4716
2026-01-30 08:28:06.00	103.65	11.68	-45.2	-47.4	15.9	0.00e+00	0	38	0	93323264	61	4764
2026-01-30 08:28:09.00	103.28	11.90	-45.6	-47.8	15.7	0.00e+00	0	39	0	98566144	61	5017
2026-01-30 08:28:12.01	102.92	12.12	-45.5	-47.6	16.0	0.00e+00	0	39	0	103809024	62	4622
2026-01-30 08:28:15.02	102.54	12.34	-45.6	-47.6	16.1	0.00e+00	0	39	0	110100480	62	4613
2026-01-30 08:28:18.02	102.16	12.56	-45.5	-47.5	16.2	0.00e+00	0	39	0	115343360	62	4559
2026-01-30 08:28:21.03	101.78	12.78	-45.5	-47.5	16.2	0.00e+00	0	39	0	120586240	62	4576
2026-01-30 08:28:24.03	101.38	13.01	-45.6	-47.7	16.0	0.00e+00	0	39	0	126877696	62	4666
2026-01-30 08:28:27.04	100.99	13.23	-45.1	-47.0	16.4	0.00e+00	0	39	0	132120576	62	4329
2026-01-30 08:28:30.05	100.58	13.45	-45.0	-47.0	16.4	0.00e+00	0	39	0	138412032	62	4308
2026-01-30 08:28:33.06	100.17	13.68	-44.2	-46.0	17.0	0.00e+00	0	39	0	143654912	60	4313
2026-01-30 08:28:36.16	99.74	13.91	-43.4	-45.1	17.1	0.00e+00	0	39	0	148897792	58	4377
2026-01-30 08:28:39.06	99.33	14.13	-43.3	-45.0	17.5	0.00e+00	0	38	0	155189248	58	4296
2026-01-30 08:28:42.21	98.88	14.37	-43.8	-45.6	17.1	0.00e+00	0	39	0	160432128	58	4627
2026-01-30 08:28:45.08	98.47	14.58	-43.7	-45.5	17.0	0.00e+00	0	39	0	165675008	58	4551
2026-01-30 08:28:48.23	98.00	14.82	-43.5	-45.2	17.1	0.00e+00	0	39	0	171966464	58	4440
2026-01-30 08:28:51.10	97.57	15.04	-43.5	-45.4	16.9	0.00e+00	0	39	0	177209344	58	4497
2026-01-30 08:28:54.60	97.04	15.30	-43.6	-45.4	16.8	0.00e+00	0	39	0	183500800	58	4525
2026-01-30 08:28:57.65	96.57	15.53	-43.6	-45.5	16.7	0.00e+00	0	39	0	189792256	58	4580
2026-01-30 08:29:01.01	96.04	15.79	-43.5	-45.3	16.8	0.00e+00	0	39	0	196083712	58	4478
2026-01-30 08:29:03.74	95.60	16.00	-43.8	-45.6	16.6	0.00e+00	0	39	0	201326592	58	4648
2026-01-30 08:29:07.15	95.05	16.26	-43.6	-45.5	16.7	0.00e+00	0	39	0	207618048	58	4558
2026-01-30 08:29:09.88	94.60	16.46	-43.8	-45.7	16.5	0.00e+00	0	39	0	212860928	58	4674
2026-01-30 08:29:13.30	94.02	16.72	-43.7	-45.6	16.6	0.00e+00	0	39	0	219152384	58	4615
2026-01-30 08:29:16.03	93.56	16.93	-44.0	-46.0	16.3	0.00e+00	0	39	0	224395264	58	4830
2026-01-30 08:29:19.32	92.99	17.18	-43.8	-45.8	16.5	0.00e+00	0	39	0	230686720	58	4706
2026-01-30 08:29:22.04	92.51	17.39	-43.8	-45.8	16.4	0.00e+00	0	39	0	235929600	58	4722
2026-01-30 08:29:25.34	91.92	17.63	-43.6	-45.4	16.8	0.00e+00	0	39	0	241172480	58	4541
2026-01-30 08:29:28.19	91.41	17.85	-43.8	-45.7	16.6	0.00e+00	0	39	0	247463936	58	4663
2026-01-30 08:29:31.55	90.79	18.10	-43.7	-45.6	16.7	0.00e+00	0	39	0	253755392	58	4599
2026-01-30 08:29:34.27	90.28	18.31	-43.5	-45.3	17.0	0.00e+00	0	39	0	257949696	58	4456
2026-01-30 08:29:37.56	89.66	18.55	-43.2	-45.0	17.2	0.00e+00	0	39	0	264241152	58	4315
2026-01-30 08:29:40.29	89.14	18.75	-43.0	-44.7	17.5	0.00e+00	0	39	0	269484032	58	4173
2026-01-30 08:29:43.58	88.49	19.00	-42.8	-44.5	17.7	0.00e+00	0	39	0	275775488	57	4302
2026-01-30 08:29:46.37	87.94	19.20	-42.4	-43.9	18.3	0.00e+00	0	39	0	281018368	56	4281
2026-01-30 08:29:49.78	87.26	19.45	-42.0	-43.5	18.7	0.00e+00	0	39	0	287309824	56	4077
2026-01-30 08:29:52.50	86.70	19.65	-41.6	-43.0	19.0	0.00e+00	0	39	0	292552704	55	4080
2026-01-30 08:29:55.80	86.02	19.89	-41.5	-42.9	19.1	0.00e+00	0	39	0	298844160	54	4256
2026-01-30 08:29:58.60	85.43	20.09	-41.5	-42.9	19.1	0.00e+00	0	39	0	304087040	54	4266
2026-01-30 08:30:01.75	84.76	20.31	-41.5	-42.9	19.2	0.00e+00	0	39	0	310378496	54	4255
2026-01-30 08:30:04.61	84.14	20.51	-41.3	-42.6	19.4	0.00e+00	0	39	0	315621376	54	4137
2026-01-30 08:30:07.76	83.45	20.73	-41.3	-42.6	19.4	0.00e+00	0	39	0	320864256	54	4133
2026-01-30 08:30:10.70	82.80	20.93	-41.1	-42.3	19.6	0.00e+00	0	39	0	327155712	54	4003
2026-01-30 08:30:13.89	82.08	21.15	-41.1	-42.4	19.6	0.00e+00	0	39	0	332398592	53	4259
2026-01-30 08:30:16.82	81.42	21.35	-41.2	-42.5	19.5	0.00e+00	0	39	0	337641472	53	4306
2026-01-30 08:30:19.82	80.72	21.54	-41.1	-42.4	19.7	0.00e+00	0	39	0	343932928	53	4249
2026-01-30 08:30:22.83	80.02	21.74	-41.4	-42.7	19.4	0.00e+00	0	39	0	349175808	53	4416
2026-01-30 08:30:26.08	79.25	21.95	-41.5	-42.8	19.4	0.00e+00	0	39	0	355467264	53	4467
2026-01-30 08:30:28.80	78.60	22.12	-41.7	-43.0	19.2	0.00e+00	0	39	0	360710144	53	4550
2026-01-30 08:30:32.16	77.78	22.33	-41.7	-43.0	19.3	0.00e+00	0	39	0	367001600	54	4306
2026-01-30 08:30:35.20	77.04	22.51	-41.6	-43.0	19.3	0.00e+00	0	39	0	372244480	54	4292
2026-01-30 08:30:38.27	76.27	22.69	-41.4	-42.6	19.6	0.00e+00	0	39	0	378535936	54	4135
2026-01-30 08:30:41.13	75.55	22.85	-41.5	-42.8	19.3	0.00e+00	0	39	0	383778816	54	4238
2026-01-30 08:30:44.30	74.75	23.03	-41.1	-42.3	19.8	0.00e+00	0	39	0	390070272	54	4001
2026-01-30 08:30:47.26	73.99	23.19	-40.9	-42.1	20.0	0.00e+00	0	39	0	395313152	53	4116
2026-01-30 08:30:50.41	73.17	23.36	-40.9	-42.0	20.0	0.00e+00	0	39	0	401604608	53	4087
2026-01-30 08:30:53.27	72.42	23.51	-40.8	-41.9	20.2	0.00e+00	0	39	0	406847488	53	4046
2026-01-30 08:30:56.68	71.51	23.68	-41.2	-42.4	19.7	0.00e+00	0	39	0	413138944	53	4256
2026-01-30 08:30:59.46	70.77	23.81	-41.6	-42.9	19.2	0.00e+00	0	39	0	418381824	53	4538
2026-01-30 08:31:02.75	69.88	23.96	-41.5	-42.8	19.4	0.00e+00	0	39	0	424673280	53	4452
2026-01-30 08:31:05.68	69.08	24.09	-41.6	-42.9	19.3	0.00e+00	0	39	0	429916160	53	4516
2026-01-30 08:31:08.69	68.25	24.22	-41.9	-43.2	19.0	0.00e+00	0	39	0	435159040	54	4421
2026-01-30 08:31:11.76	67.40	24.35	-42.1	-43.5	18.7	0.00e+00	0	39	0	441450496	54	4570
2026-01-30 08:31:14.59	66.61	24.45	-42.4	-43.8	18.4	0.00e+00	0	39	0	446693376	55	4483
2026-01-30 08:31:17.86	65.70	24.57	-42.6	-44.0	18.2	0.00e+00	0	39	0	452984832	55	4593
2026-01-30 08:31:20.88	64.84	24.68	-43.0	-44.6	17.8	0.00e+00	0	39	0	458227712	56	4630
2026-01-30 08:31:23.88	63.99	24.77	-42.9	-44.4	18.1	0.00e+00	0	39	0	463470592	56	4516
2026-01-30 08:31:26.89	63.12	24.86	-43.0	-44.6	17.8	0.00e+00	0	39	0	469762048	56	4636
2026-01-30 08:31:29.90	62.26	24.94	-43.1	-44.8	17.7	0.00e+00	0	39	0	475004928	56	4708
2026-01-30 08:31:32.90	61.39	25.02	-43.3	-45.0	17.4	0.00e+00	0	39	0	481296384	57	4584
2026-01-30 08:31:35.91	60.51	25.09	-43.3	-45.0	17.4	0.00e+00	0	39	0	486539264	57	4567
2026-01-30 08:31:38.92	59.63	25.15	-43.1	-44.7	17.7	0.00e+00	0	39	0	491782144	57	4413
2026-01-30 08:31:41.93	58.75	25.20	-43.1	-44.8	17.7	0.00e+00	0	39	0	498073600	57	4445
2026-01-30 08:31:44.94	57.87	25.25	-43.3	-45.0	17.5	0.00e+00	0	39	0	503316480	57	4568
2026-01-30 08:31:47.94	56.98	25.29	-43.4	-45.0	17.4	0.00e+00	0	39	0	508559360	57	4582
2026-01-30 08:31:50.95	56.09	25.32	-42.9	-44.5	18.0	0.00e+00	0	39	0	514850816	57	4299
2026-01-30 08:31:53.96	55.20	25.35	-42.8	-44.3	18.1	0.00e+00	0	39	0	520093696	57	4240
2026-01-30 08:31:57.04	54.29	25.36	-42.7	-44.2	18.2	0.00e+00	0	39	0	526385152	57	4169
2026-01-30 08:31:59.91	53.44	25.37	-42.5	-43.9	18.5	0.00e+00	0	39	0	531628032	56	4284
2026-01-30 08:32:03.06	52.50	25.37	-42.3	-43.6	18.8	0.00e+00	0	39	0	536870912	56	4143
2026-01-30 08:32:05.92	51.66	25.37	-42.2	-43.6	18.8	0.00e+00	0	39	0	543162368	56	4118
2026-01-30 08:32:09.07	50.72	25.35	-41.5	-42.7	19.5	0.00e+00	0	39	0	548405248	54	4180
2026-01-30 08:32:12.05	49.84	25.33	-41.5	-42.7	19.5	0.00e+00	0	39	0	554696704	54	4189
2026-01-30 08:32:15.05	48.95	25.30	-41.3	-42.5	19.8	0.00e+00	0	39	0	559939584	54	4053
2026-01-30 08:32:18.06	48.07	25.27	-41.1	-42.3	19.8	0.00e+00	0	39	0	565182464	53	4234
2026-01-30 08:32:21.07	47.18	25.23	-40.9	-42.1	20.1	0.00e+00	0	39	0	571473920	53	4107
2026-01-30 08:32:24.14	46.28	25.17	-41.1	-42.2	19.9	0.00e+00	0	39	0	576716800	53	4190
2026-01-30 08:32:27.12	45.41	25.12	-40.9	-42.1	20.1	0.00e+00	0	39	0	581959680	53	4106
2026-01-30 08:32:30.51	44.43	25.04	-41.2	-42.4	19.8	0.00e+00	0	39	0	589299712	53	4257
2026-01-30 08:32:33.23	43.64	24.98	-41.2	-42.4	19.8	0.00e+00	0	39	0	593494016	53	4286
2026-01-30 08:32:36.52	42.69	24.89	-41.3	-42.5	19.7	0.00e+00	0	39	0	599785472	53	4340
2026-01-30 08:32:39.24	41.91	24.81	-41.4	-42.7	19.6	0.00e+00	0	39	0	605028352	53	4399
2026-01-30 08:32:42.53	40.97	24.71	-41.8	-43.1	19.1	0.00e+00	0	39	0	611319808	54	4367
2026-01-30 08:32:45.65	40.09	24.60	-42.0	-43.4	18.9	0.00e+00	0	39	0	617611264	54	4508
2026-01-30 08:32:49.00	39.15	24.48	-41.9	-43.3	19.0	0.00e+00	0	39	0	623902720	54	4465
2026-01-30 08:32:51.72	38.39	24.38	-42.2	-43.6	18.7	0.00e+00	0	39	0	628097024	54	4601
2026-01-30 08:32:55.09	37.46	24.25	-42.5	-44.0	18.3	0.00e+00	0	39	0	634388480	55	4558
2026-01-30 08:32:58.11	36.63	24.12	-42.6	-44.0	18.3	0.00e+00	0	39	0	640679936	55	4595
2026-01-30 08:33:01.41	35.73	23.97	-42.9	-44.4	18.1	0.00e+00	0	39	0	646971392	56	4508
2026-01-30 08:33:04.14	34.99	23.85	-42.9	-44.4	18.1	0.00e+00	0	39	0	652214272	56	4506
2026-01-30 08:33:07.45	34.11	23.69	-43.2	-44.8	17.7	0.00e+00	0	39	0	658505728	56	4730
2026-01-30 08:33:10.22	33.37	23.56	-43.2	-44.8	17.8	0.00e+00	0	39	0	662700032	57	4450
2026-01-30 08:33:13.54	32.50	23.39	-43.0	-44.6	18.0	0.00e+00	0	39	0	668991488	57	4365
2026-01-30 08:33:16.41	31.76	23.23	-43.2	-44.8	18.0	0.00e+00	0	39	0	675282944	57	4462
2026-01-30 08:33:19.55	30.95	23.06	-43.8	-45.5	17.3	0.00e+00	0	39	0	680525824	58	4577
2026-01-30 08:33:22.39	30.23	22.91	-43.7	-45.3	17.5	0.00e+00	0	39	0	685768704	58	4483
2026-01-30 08:33:25.51	29.45	22.73	-43.4	-45.0	17.9	0.00e+00	0	39	0	692060160	58	4316
2026-01-30 08:33:28.35	28.74	22.56	-43.5	-45.1	17.8	0.00e+00	0	39	0	697303040	58	4367
2026-01-30 08:33:31.48	27.97	22.37	-43.6	-45.2	17.9	0.00e+00	0	39	0	703594496	58	4402
2026-01-30 08:33:34.32	27.29	22.20	-43.2	-44.6	18.4	0.00e+00	0	39	0	708837376	58	4139
2026-01-30 08:33:37.46	26.53	22.01	-43.2	-44.7	18.4	0.00e+00	0	39	0	714080256	58	4178
2026-01-30 08:33:40.31	25.86	21.83	-43.0	-44.5	18.5	0.00e+00	0	39	0	719323136	58	4093
2026-01-30 08:33:43.44	25.12	21.62	-42.7	-44.2	18.9	0.00e+00	0	39	0	725614592	57	4167
2026-01-30 08:33:46.29	24.47	21.44	-42.6	-44.2	18.6	0.00e+00	0	39	0	730857472	57	4149
2026-01-30 08:33:49.42	23.75	21.23	-42.3	-43.7	18.9	0.00e+00	0	39	0	737148928	56	4192
2026-01-30 08:33:52.28	23.11	21.04	-42.4	-43.8	18.8	0.00e+00	0	39	0	742391808	56	4231
2026-01-30 08:33:55.41	22.41	20.82	-42.3	-43.7	18.9	0.00e+00	0	39	0	747634688	56	4173
2026-01-30 08:33:58.26	21.79	20.63	-42.4	-43.8	18.8	0.00e+00	0	39	0	752877568	56	4221
2026-01-30 08:34:01.39	21.11	20.41	-42.4	-43.8	18.8	0.00e+00	0	39	0	759169024	56	4213
2026-01-30 08:34:04.24	20.51	20.21	-41.8	-43.2	19.0	0.00e+00	0	39	0	764411904	55	4177
2026-01-30 08:34:07.36	19.85	19.99	-41.5	-42.9	19.2	0.00e+00	0	39	0	770703360	55	4042
2026-01-30 08:34:10.21	19.26	19.78	-41.4	-42.8	19.3	0.00e+00	0	39	0	775946240	54	4233
2026-01-30 08:34:13.34	18.62	19.56	-41.4	-42.7	18.5	0.00e+00	0	39	0	781189120	54	4184
2026-01-30 08:34:16.18	18.05	19.35	-41.2	-42.5	19.6	0.00e+00	0	39	0	786432000	54	4086
2026-01-30 08:34:19.32	17.43	19.12	-41.4	-42.7	19.6	0.00e+00	0	39	0	792723456	54	4148
2026-01-30 08:34:22.17	16.87	18.91	-41.5	-42.7	19.7	0.00e+00	0	39	0	797966336	54	4192
2026-01-30 08:34:25.29	16.27	18.68	-41.4	-42.6	20.0	0.00e+00	0	39	0	804257792	54	4131
2026-01-30 08:34:28.13	15.73	18.47	-41.7	-42.9	19.7	0.00e+00	0	39	0	809500672	54	4281
2026-01-30 08:34:31.27	15.14	18.24	-41.7	-42.9	19.7	0.00e+00	0	39	0	814743552	54	4273
2026-01-30 08:34:34.11	14.62	18.03	-41.4	-42.6	20.0	0.00e+00	0	39	0	821035008	54	4121
2026-01-30 08:34:37.25	14.05	17.79	-41.3	-42.6	20.0	0.00e+00	0	39	0	826277888	54	4143
2026-01-30 08:34:40.10	13.54	17.58	-41.2	-42.6	19.8	0.00e+00	0	39	0	831520768	54	4142
2026-01-30 08:34:43.24	12.98	17.34	-41.1	-42.5	19.8	0.00e+00	0	39	0	837812224	54	4087
2026-01-30 08:34:46.10	12.49	17.13	-41.1	-42.5	19.8	0.00e+00	0	39	0	843055104	54	4052
2026-01-30 08:34:49.23	11.95	16.89	-41.2	-42.6	19.7	0.00e+00	0	39	0	849346560	54	4130
2026-01-30 08:34:52.08	11.47	16.68	-41.3	-42.8	19.5	0.00e+00	0	39	0	854589440	54	4201
2026-01-30 08:34:55.21	10.95	16.44	-41.4	-42.8	19.5	0.00e+00	0	39	0	859832320	54	4213
2026-01-30 08:34:58.06	10.49	16.22	-41.5	-43.0	19.3	0.00e+00	0	39	0	865075200	54	4305
2026-01-30 08:35:01.20	9.98	15.99	-41.8	-43.4	18.9	0.00e+00	0	39	0	871366656	54	4519
2026-01-30 08:35:04.05	9.53	15.77	-42.0	-43.6	18.7	0.00e+00	0	39	0	876609536	54	4612
2026-01-30 08:35:07.18	9.04	15.53	-42.0	-43.6	18.6	0.00e+00	0	39	0	882900992	54	4603
2026-01-30 08:35:10.03	8.61	15.32	-41.7	-43.3	18.8	0.00e+00	0	39	0	888143872	54	4476
2026-01-30 08:35:13.16	8.13	15.08	-42.0	-43.5	18.6	0.00e+00	0	39	0	893386752	54	4595
2026-01-30 08:35:16.02	7.71	14.87	-42.3	-43.9	18.4	0.00e+00	0	39	0	898629632	55	4506
2026-01-30 08:35:19.15	7.25	14.63	-42.2	-43.9	18.5	0.00e+00	0	39	0	904921088	55	4514
2026-01-30 08:35:22.00	6.84	14.42	-42.3	-44.0	18.4	0.00e+00	0	39	0	910163968	55	4558
2026-01-30 08:35:25.14	6.39	14.18	-42.5	-44.2	18.2	0.00e+00	0	39	0	916455424	55	4697
2026-01-30 08:35:27.99	5.99	13.97	-42.9	-44.9	17.9	0.00e+00	0	39	0	921698304	56	4793
2026-01-30 08:35:31.13	5.56	13.74	-43.2	-45.1	17.9	0.00e+00	0	39	0	926941184	57	4631
2026-01-30 08:35:33.97	5.18	13.52	-43.4	-45.1	17.9	0.00e+00	0	39	0	933232640	57	4644
2026-01-30 08:35:37.11	4.76	13.29	-43.7	-45.6	17.5	0.00e+00	0	39	0	938475520	57	4887
2026-01-30 08:35:39.96	4.38	13.08	-43.7	-45.8	17.4	0.00e+00	0	39	0	943718400	58	4722
2026-01-30 08:35:43.09	3.98	12.85	-43.8	-45.7	17.5	0.00e+00	0	39	0	950009856	58	4673
2026-01-30 08:35:45.94	3.61	12.64	-44.0	-45.8	17.5	0.00e+00	0	39	0	955252736	58	4707
2026-01-30 08:35:49.08	3.22	12.41	-44.1	-46.0	17.3	0.00e+00	0	39	0	961544192	58	4839
2026-01-30 08:35:51.93	2.87	12.20	-44.1	-46.2	17.0	0.00e+00	0	39	0	966787072	58	4948
2026-01-30 08:35:55.06	2.49	11.97	-44.0	-46.2	16.9	0.00e+00	0	39	0	972029952	58	4937
2026-01-30 08:35:57.91	2.15	11.77	-44.0	-46.1	16.8	0.00e+00	0	39	0	977272832	58	4909
2026-01-30 08:36:01.03	1.78	11.54	-44.0	-46.1	16.6	0.00e+00	0	39	0	983564288	59	4636
2026-01-30 08:36:03.88	1.44	11.34	-43.9	-46.3	16.3	0.00e+00	0	39	0	988807168	59	4712
2026-01-30 08:36:07.01	1.09	11.11	-44.2	-46.3	16.2	0.00e+00	0	39	0	995098624	59	4753
2026-01-30 08:36:09.85	0.77	10.91	-44.1	-46.3	16.2	0.00e+00	0	39	0	1000341504	59	4712
2026-01-30 08:36:13.00	0.41	10.69	-43.8	-46.0	16.3	0.00e+00	0	39	0	1005584384	59	4565
2026-01-30 08:36:15.85	0.10	10.49	-43.8	-45.9	16.3	0.00e+00	0	39	0	1010827264	59	4545
2026-01-30 08:36:18.98	359.76	10.26	-43.9	-46.2	16.2	0.00e+00	0	39	0	1017118720	59	4667
2026-01-30 08:36:21.83	359.46	10.06	-44.0	-46.4	16.1	0.00e+00	0	39	0	1022361600	59	4785
2026-01-30 08:36:24.97	359.13	9.85	-44.0	-46.4	16.1	0.00e+00	0	39	0	1028653056	59	4799
2026-01-30 08:36:27.82	358.84	9.65	-44.0	-46.5	16.1	0.00e+00	0	39	0	1033895936	59	4835
2026-01-30 08:36:30.96	358.52	9.43	-44.0	-46.7	16.1	0.00e+00	0	39	0	1039138816	59	4936
2026-01-30 08:36:33.80	358.23	9.23	-44.1	-47.1	15.7	0.00e+00	0	39	0	1045430272	59	5182
2026-01-30 08:36:36.94	357.92	9.02	-44.2	-47.6	15.4	0.00e+00	0	39	0	1050673152	59	5465
2026-01-30 08:36:39.78	357.65	8.82	-49.7	-64.7	3.8	1.49e+00	0	39	104	1052770304	70	20965
2026-01-30 08:36:42.92	357.35	8.61	-49.6	-65.0	3.8	1.49e+00	0	39	104	1052770304	71	20413
2026-01-30 08:36:45.78	357.08	8.42	-50.6	-65.1	3.8	1.49e+00	0	39	104	1052770304	72	19489
2026-01-30 08:36:48.91	356.78	8.21	-50.5	-65.2	3.8	1.49e+00	0	39	104	1052770304	71	20871
2026-01-30 08:36:51.77	356.52	8.02	-50.4	-65.4	3.8	1.49e+00	0	39	104	1052770304	71	21340
2026-01-30 08:36:54.92	356.23	7.81	-50.9	-65.4	3.8	1.49e+00	0	39	104	1052770304	72	20078
2026-01-30 08:36:57.78	355.98	7.62	-50.9	-65.2	3.8	1.49e+00	0	39	104	1052770304	72	19824
2026-01-30 08:37:00.92	355.70	7.41	-50.6	-64.9	3.8	1.49e+00	0	39	104	1052770304	72	19066
2026-01-30 08:37:03.78	355.45	7.22	-50.4	-64.7	3.8	1.49e+00	0	39	104	1052770304	72	18678
2026-01-30 08:37:06.92	355.19	7.01	-50.3	-64.7	3.8	1.49e+00	0	39	104	1052770304	72	18527
2026-01-30 08:37:09.79	354.94	6.83	-50.2	-64.6	3.8	1.49e+00	0	39	104	1052770304	72	18402
2026-01-30 08:37:12.94	354.68	6.62	-50.2	-64.6	3.8	1.49e+00	0	39	104	1052770304	72	18406
2026-01-30 08:37:15.79	354.45	6.44	-50.3	-64.6	3.8	1.49e+00	0	39	104	1052770304	72	18493
2026-01-30 08:37:18.94	354.19	6.24	-50.3	-64.7	3.8	1.49e+00	0	39	104	1052770304	72	18542
2026-01-30 08:37:21.79	353.96	6.06	-50.2	-64.6	3.8	1.49e+00	0	39	104	1052770304	72	18492
2026-01-30 08:37:24.93	353.72	5.86	-50.3	-64.7	3.8	1.49e+00	0	39	104	1052770304	72	18617
2026-01-30 08:37:27.78	353.50	5.68	-50.4	-64.8	3.8	1.49e+00	0	39	104	1052770304	72	18754
2026-01-30 08:37:30.93	353.25	5.48	-50.3	-64.7	3.8	1.49e+00	0	39	104	1052770304	72	18710
2026-01-30 08:37:33.78	353.04	5.30	-50.3	-64.7	3.8	1.49e+00	0	39	104	1052770304	72	18666
2026-01-30 08:37:36.92	352.81	5.10	-50.4	-64.7	3.8	1.49e+00	0	39	104	1052770304	72	18668

#Closed at: 2026-01-30 08:37:37
#Recorded file [1052 MB]: D:/Data/31040_260130_112626.dat