passes_logs/2026/01/30/T1/T1__20260130_114318_AQUA_rec.log

#Pass ID: 20260130_114318_AQUA
#Satellite: AQUA
#Configuration: AQUA
#almurnet v.1.7.20251203
#Start time: 2026-01-30 11:43:18

#Version: 2.0.20230620
#Station: T1
#Location: 37.570604 lon 55.790049 lat
#TLE: 1 27424U 02022A   26029.54575153  .00001738  00000+0  35736-3 0  9994
#TLE: 2 27424  98.4104 356.2197 0001804  61.7823  56.0643 14.61874165263019

#Time	Az	El	Level	Level2	SNR	BER	BlckErr	Temp	State	Recorded	gain1	gain2
2026-01-30 11:43:18.84	161.46	5.03	-52.4	-72.1	3.8	7.44e-01	0	41	0	0	76	34669
2026-01-30 11:43:21.85	161.47	5.25	-53.2	-72.2	3.8	7.47e-01	0	41	104	0	77	33190
2026-01-30 11:43:24.86	161.48	5.49	-53.0	-72.2	3.8	7.46e-01	0	41	104	0	76	35077
2026-01-30 11:43:27.87	161.48	5.72	-52.8	-72.1	3.8	7.46e-01	0	41	104	0	76	34768
2026-01-30 11:43:30.89	161.49	5.95	-52.5	-72.0	3.8	7.48e-01	0	41	104	0	76	34244
2026-01-30 11:43:33.90	161.50	6.19	-52.3	-71.9	3.8	7.46e-01	0	42	104	0	75	35808
2026-01-30 11:43:36.91	161.50	6.43	-51.1	-71.8	3.8	7.43e-01	0	42	104	0	74	37596
2026-01-30 11:43:39.92	161.51	6.67	-52.2	-71.6	3.9	7.48e-01	0	42	104	0	75	34617
2026-01-30 11:43:42.93	161.52	6.92	-51.8	-68.7	3.8	7.43e-01	0	42	104	0	75	24768
2026-01-30 11:43:45.94	161.52	7.17	-51.9	-70.8	3.8	7.46e-01	0	42	104	0	75	31595
2026-01-30 11:43:48.95	161.53	7.42	-51.8	-70.2	3.8	7.45e-01	0	42	104	0	75	29601
2026-01-30 11:43:51.97	161.54	7.67	-51.5	-62.4	7.7	6.53e-01	0	42	0	1572864	75	12038
2026-01-30 11:43:54.98	161.54	7.93	-50.5	-56.9	13.4	6.09e-01	0	42	0	6815744	73	7126
2026-01-30 11:43:58.00	161.55	8.19	-49.5	-54.0	16.4	6.07e-01	0	42	0	12582912	71	5766
2026-01-30 11:44:01.01	161.56	8.45	-49.3	-53.6	16.8	6.07e-01	0	42	0	18350080	70	5789
2026-01-30 11:44:04.02	161.56	8.71	-50.0	-55.4	11.0	6.10e-01	0	42	0	24117248	71	6725
2026-01-30 11:44:07.03	161.57	8.98	-51.1	-60.1	10.1	6.24e-01	0	42	0	29884416	73	10350
2026-01-30 11:44:10.08	161.58	9.26	-49.5	-54.0	16.6	6.07e-01	0	42	0	35127296	69	6428
2026-01-30 11:44:13.19	161.58	9.54	-46.9	-49.4	20.7	6.07e-01	0	42	0	38797312	65	4781
2026-01-30 11:44:16.14	161.59	9.81	-46.1	-48.2	22.0	6.08e-01	0	42	0	44564480	64	4393
2026-01-30 11:44:19.71	161.60	10.15	-46.3	-48.5	21.8	6.08e-01	0	42	0	50855936	64	4548
2026-01-30 11:44:22.43	161.60	10.41	-45.1	-47.0	23.2	6.07e-01	0	43	0	56098816	62	4310
2026-01-30 11:44:25.72	161.61	10.72	-44.7	-46.5	23.7	6.07e-01	0	43	0	62390272	61	4292
2026-01-30 11:44:28.54	161.61	11.00	-44.6	-46.3	23.7	6.06e-01	0	43	0	67633152	61	4241
2026-01-30 11:44:31.84	161.62	11.33	-44.7	-46.3	23.9	6.06e-01	0	43	0	73924608	61	4230
2026-01-30 11:44:34.84	161.63	11.63	-44.6	-46.2	24.0	6.06e-01	0	43	0	79167488	61	4159
2026-01-30 11:44:37.85	161.63	11.93	-44.4	-46.0	24.1	6.06e-01	0	43	0	84934656	60	4340
2026-01-30 11:44:40.85	161.64	12.24	-44.3	-45.9	24.2	6.06e-01	0	43	0	90701824	60	4289
2026-01-30 11:44:43.82	161.64	12.55	-44.2	-45.8	24.3	6.07e-01	0	43	0	96468992	60	4222
2026-01-30 11:44:46.99	161.65	12.89	-44.1	-45.7	24.4	6.06e-01	0	43	0	102236160	60	4170
2026-01-30 11:44:49.86	161.65	13.20	-44.1	-45.7	24.4	6.07e-01	0	43	0	107479040	60	4178
2026-01-30 11:44:53.01	161.66	13.55	-44.2	-45.8	24.4	6.04e-01	0	43	0	113770496	60	4205
2026-01-30 11:44:55.87	161.67	13.86	-44.0	-45.6	24.5	6.06e-01	0	43	0	119013376	60	4138
2026-01-30 11:44:59.02	161.67	14.22	-44.2	-45.8	24.4	6.07e-01	0	43	0	124780544	59	4489
2026-01-30 11:45:01.88	161.68	14.55	-44.3	-46.0	24.3	6.08e-01	0	43	0	130023424	59	4554
2026-01-30 11:45:05.03	161.68	14.91	-44.3	-45.9	24.4	6.07e-01	0	43	0	135790592	59	4523
2026-01-30 11:45:07.90	161.69	15.25	-44.3	-45.9	24.4	6.06e-01	0	43	0	141557760	59	4511
2026-01-30 11:45:11.05	161.69	15.63	-44.1	-45.7	24.5	6.08e-01	0	43	0	147324928	59	4417
2026-01-30 11:45:13.92	161.70	15.98	-44.0	-45.6	24.6	6.07e-01	0	43	0	152567808	59	4358
2026-01-30 11:45:17.01	161.70	16.37	-44.0	-45.5	24.8	6.09e-01	0	43	0	158334976	59	4307
2026-01-30 11:45:20.02	161.71	16.75	-44.0	-45.5	24.8	6.07e-01	0	43	0	164102144	59	4315
2026-01-30 11:45:23.03	161.71	17.14	-44.1	-45.6	24.7	6.06e-01	0	43	0	169869312	59	4361
2026-01-30 11:45:26.03	161.72	17.53	-44.2	-45.8	24.6	6.06e-01	0	43	0	175636480	59	4449
2026-01-30 11:45:29.04	161.72	17.93	-44.3	-45.9	24.4	6.07e-01	0	43	0	180879360	59	4511
2026-01-30 11:45:32.05	161.72	18.34	-44.3	-45.9	24.4	6.05e-01	0	43	0	186646528	59	4515
2026-01-30 11:45:35.05	161.73	18.76	-44.4	-45.9	24.4	6.06e-01	0	43	0	192413696	59	4543
2026-01-30 11:45:38.06	161.73	19.18	-44.3	-45.9	24.5	6.10e-01	0	43	0	198180864	59	4505
2026-01-30 11:45:41.15	161.74	19.62	-44.2	-45.8	24.5	6.07e-01	0	43	0	203948032	59	4451
2026-01-30 11:45:44.03	161.74	20.05	-44.4	-45.9	24.4	6.07e-01	0	43	0	209190912	59	4514
2026-01-30 11:45:47.19	161.74	20.52	-44.6	-46.1	24.2	6.06e-01	0	43	0	214958080	59	4647
2026-01-30 11:45:50.05	161.75	20.95	-44.4	-45.9	24.3	6.07e-01	0	43	0	220725248	60	4273
2026-01-30 11:45:53.21	161.75	21.45	-44.5	-46.0	24.2	6.07e-01	0	43	0	226492416	60	4339
2026-01-30 11:45:56.07	161.75	21.90	-44.5	-46.2	24.1	6.07e-01	0	43	0	231735296	60	4424
2026-01-30 11:45:59.32	161.76	22.43	-44.4	-46.1	24.2	6.07e-01	0	43	0	238026752	60	4342
2026-01-30 11:46:02.19	161.76	22.90	-44.4	-45.9	24.4	6.08e-01	0	43	0	243269632	60	4283
2026-01-30 11:46:05.53	161.76	23.47	-44.4	-46.0	24.3	6.08e-01	0	43	0	249561088	60	4305
2026-01-30 11:46:08.25	161.76	23.94	-44.4	-45.8	24.4	6.08e-01	0	43	0	254803968	60	4240
2026-01-30 11:46:11.55	161.77	24.52	-44.5	-46.1	24.2	6.07e-01	0	43	0	260571136	60	4342
2026-01-30 11:46:14.28	161.77	25.01	-44.4	-45.9	24.3	6.05e-01	0	43	0	265814016	60	4281
2026-01-30 11:46:17.64	161.77	25.64	-44.2	-45.6	24.6	6.05e-01	0	43	0	272105472	60	4140
2026-01-30 11:46:20.49	161.77	26.18	-44.1	-45.7	24.6	6.04e-01	0	43	0	277348352	60	4152
2026-01-30 11:46:23.79	161.77	26.82	-44.1	-45.6	24.7	6.06e-01	0	43	0	283639808	60	4130
2026-01-30 11:46:26.51	161.77	27.36	-44.1	-45.6	24.7	6.07e-01	0	43	0	288882688	60	4129
2026-01-30 11:46:29.81	161.77	28.03	-44.0	-45.4	23.5	6.07e-01	0	43	0	295174144	59	4289
2026-01-30 11:46:32.87	161.77	28.67	-43.9	-45.3	25.0	6.05e-01	0	43	0	300941312	59	4230
2026-01-30 11:46:36.45	161.77	29.43	-44.1	-45.6	24.3	6.05e-01	0	44	0	307232768	59	4355
2026-01-30 11:46:39.18	161.77	30.03	-44.0	-45.5	24.9	6.07e-01	0	43	0	312475648	59	4294
2026-01-30 11:46:42.67	161.77	30.82	-44.0	-45.4	24.9	6.08e-01	0	43	0	319291392	59	4283
2026-01-30 11:46:45.69	161.76	31.52	-44.1	-45.6	24.7	6.08e-01	0	43	0	324534272	59	4359
2026-01-30 11:46:48.99	161.76	32.31	-44.0	-45.4	25.0	6.07e-01	0	43	0	330825728	59	4291
2026-01-30 11:46:51.71	161.76	32.97	-44.1	-45.6	24.8	6.07e-01	0	44	0	336068608	59	4341
2026-01-30 11:46:55.07	161.75	33.82	-44.6	-46.1	24.4	6.06e-01	0	43	0	342360064	59	4616
2026-01-30 11:46:58.50	161.75	34.71	-44.7	-46.3	24.1	6.05e-01	0	43	0	348651520	60	4450
2026-01-30 11:47:01.21	161.74	35.43	-45.0	-46.8	23.6	6.07e-01	0	43	0	353894400	60	4725
2026-01-30 11:47:04.51	161.74	36.33	-45.1	-47.1	23.4	6.06e-01	0	43	0	360185856	60	4918
2026-01-30 11:47:07.23	161.73	37.09	-45.8	-47.6	23.0	6.07e-01	0	43	0	364904448	62	4621
2026-01-30 11:47:10.99	161.72	38.18	-45.9	-47.8	22.8	6.07e-01	0	43	0	372244480	62	4708
2026-01-30 11:47:13.71	161.71	38.99	-46.1	-48.0	22.5	6.09e-01	0	43	0	377487360	62	4866
2026-01-30 11:47:17.00	161.70	40.00	-45.7	-47.4	23.1	6.09e-01	0	43	0	383254528	62	4506
2026-01-30 11:47:19.80	161.69	40.88	-45.7	-47.4	23.1	6.07e-01	0	43	0	389021696	62	4541
2026-01-30 11:47:23.26	161.67	42.01	-44.9	-46.4	23.9	6.06e-01	0	43	0	395313152	61	4272
2026-01-30 11:47:25.99	161.66	42.92	-44.8	-46.4	24.0	6.06e-01	0	43	0	400556032	61	4268
2026-01-30 11:47:29.28	161.64	44.05	-44.4	-45.9	24.5	6.06e-01	0	43	0	406323200	60	4262
2026-01-30 11:47:32.01	161.63	45.02	-44.4	-45.9	24.5	6.09e-01	0	43	0	411566080	60	4254
2026-01-30 11:47:35.63	161.60	46.33	-44.2	-45.6	24.8	6.08e-01	0	44	0	418381824	60	4099
2026-01-30 11:47:38.56	161.58	47.44	-44.3	-45.7	24.6	6.07e-01	0	43	0	424148992	60	4188
2026-01-30 11:47:41.86	161.56	48.71	-44.5	-45.9	24.6	6.08e-01	0	43	0	429916160	59	4534
2026-01-30 11:47:44.58	161.53	49.80	-44.1	-45.5	24.9	6.07e-01	0	43	0	435159040	59	4316
2026-01-30 11:47:48.13	161.49	51.25	-44.2	-45.6	24.8	6.07e-01	0	43	0	441974784	59	4372
2026-01-30 11:47:51.26	161.46	52.57	-43.6	-44.9	25.4	6.05e-01	0	43	0	447741952	58	4252
2026-01-30 11:47:54.12	161.42	53.81	-43.5	-44.8	25.5	6.04e-01	0	43	0	452984832	58	4225
2026-01-30 11:47:57.43	161.37	55.29	-43.9	-45.2	25.2	6.06e-01	0	43	0	459276288	58	4425
2026-01-30 11:48:00.32	161.32	56.62	-44.5	-45.9	24.6	6.06e-01	0	43	0	464519168	59	4527
2026-01-30 11:48:04.07	161.25	58.39	-44.8	-46.3	24.2	6.07e-01	0	43	0	471859200	60	4459
2026-01-30 11:48:06.80	161.20	59.71	-45.3	-46.9	22.2	6.08e-01	0	43	0	477102080	61	4545
2026-01-30 11:48:10.54	161.10	61.57	-45.8	-47.7	22.8	6.04e-01	0	43	0	483917824	62	4669
2026-01-30 11:48:13.29	161.02	62.97	-46.3	-48.1	22.6	6.07e-01	0	43	0	489160704	63	4629
2026-01-30 11:48:17.23	160.89	65.04	-47.4	-49.8	20.8	6.07e-01	0	43	0	496500736	65	5038
2026-01-30 11:48:19.97	160.78	66.51	-48.1	-50.9	19.9	6.06e-01	0	43	0	501743616	66	5346
2026-01-30 11:48:23.83	160.59	68.62	-48.5	-51.3	19.4	6.09e-01	0	44	0	508559360	67	5283
2026-01-30 11:48:26.63	160.43	70.19	-48.5	-51.4	19.3	6.06e-01	0	44	0	513802240	67	5350
2026-01-30 11:48:30.73	160.13	72.53	-47.5	-49.7	20.9	6.06e-01	0	43	0	521666560	66	4677
2026-01-30 11:48:33.48	159.87	74.13	-47.3	-49.5	21.0	6.07e-01	0	43	0	526909440	66	4591
2026-01-30 11:48:37.43	159.38	76.47	-46.7	-48.8	21.8	6.05e-01	0	43	0	534249472	64	4721
2026-01-30 11:48:40.19	158.92	78.12	-46.0	-47.9	22.7	6.06e-01	0	43	0	539492352	64	4291
2026-01-30 11:48:44.13	157.96	80.51	-45.2	-46.8	23.7	6.06e-01	0	44	0	546832384	62	4221
2026-01-30 11:48:47.19	156.79	82.38	-44.7	-46.2	24.3	6.07e-01	0	43	0	552599552	61	4181
2026-01-30 11:48:50.17	154.90	84.21	-45.0	-46.6	23.9	6.07e-01	0	44	0	558366720	61	4365
2026-01-30 11:48:53.23	151.09	86.09	-44.5	-46.2	23.6	6.06e-01	0	43	0	564133888	60	4425
2026-01-30 11:48:56.60	138.11	88.11	-44.3	-45.8	24.6	6.07e-01	0	43	0	570425344	59	4443
2026-01-30 11:48:59.36	72.27	89.21	-43.7	-45.1	24.7	6.05e-01	0	43	0	575668224	59	4113
2026-01-30 11:49:02.65	3.65	87.79	-44.3	-45.9	24.2	6.08e-01	0	43	0	581435392	60	4245
2026-01-30 11:49:05.55	354.26	86.04	-45.4	-47.1	23.5	6.09e-01	0	43	0	587202560	61	4633
2026-01-30 11:49:08.70	350.45	84.11	-45.3	-47.0	23.5	6.08e-01	0	43	0	592969728	61	4583
2026-01-30 11:49:11.83	348.55	82.19	-44.6	-46.0	24.3	6.07e-01	0	44	0	598736896	61	4096
2026-01-30 11:49:14.69	347.50	80.44	-44.5	-45.9	24.0	6.08e-01	0	43	0	603979776	60	4260
2026-01-30 11:49:17.84	346.71	78.53	-45.8	-47.6	23.0	6.07e-01	0	44	0	610271232	62	4630
2026-01-30 11:49:20.71	346.20	76.81	-46.8	-48.7	21.9	6.07e-01	0	43	0	615514112	64	4693
2026-01-30 11:49:24.01	345.76	74.86	-47.3	-49.4	21.3	6.07e-01	0	43	0	621805568	65	4797
2026-01-30 11:49:26.73	345.48	73.27	-47.0	-49.1	21.5	6.05e-01	0	44	0	627048448	65	4619
2026-01-30 11:49:30.07	345.20	71.35	-47.7	-50.1	20.6	6.09e-01	0	43	0	632815616	66	4887
2026-01-30 11:49:33.07	345.00	69.65	-48.3	-51.1	19.8	6.07e-01	0	44	0	638582784	67	5160
2026-01-30 11:49:36.86	344.80	67.55	-47.8	-50.2	20.5	6.06e-01	0	43	0	645922816	66	4931
2026-01-30 11:49:39.59	344.68	66.07	-46.7	-48.8	21.7	6.06e-01	0	44	0	650641408	65	4474
2026-01-30 11:49:43.41	344.54	64.05	-46.0	-47.7	22.8	6.05e-01	0	44	0	657981440	64	4181
2026-01-30 11:49:46.41	344.44	62.50	-45.3	-47.1	23.5	6.05e-01	0	44	0	663748608	62	4390
2026-01-30 11:49:49.56	344.36	60.91	-45.0	-46.6	23.9	6.06e-01	0	44	0	669515776	62	4124
2026-01-30 11:49:52.42	344.29	59.51	-44.9	-46.6	23.9	6.07e-01	0	43	0	674758656	61	4353
2026-01-30 11:49:55.57	344.23	57.99	-44.4	-46.1	24.4	6.05e-01	0	44	0	681050112	60	4364
2026-01-30 11:49:58.64	344.17	56.56	-44.2	-45.7	24.8	6.05e-01	0	43	0	686817280	59	4413
2026-01-30 11:50:02.21	344.11	54.93	-43.5	-44.8	25.7	6.06e-01	0	44	0	693108736	58	4221
2026-01-30 11:50:04.93	344.08	53.73	-43.4	-44.7	25.6	6.07e-01	0	43	0	698351616	58	4176
2026-01-30 11:50:08.22	344.03	52.31	-43.8	-45.3	25.2	6.07e-01	0	43	0	704643072	58	4443
2026-01-30 11:50:10.94	344.00	51.18	-44.1	-45.5	25.0	6.07e-01	0	44	0	709885952	58	4589
2026-01-30 11:50:14.48	343.97	49.73	-44.4	-45.9	24.7	6.06e-01	0	44	0	716177408	59	4498
2026-01-30 11:50:17.20	343.95	48.66	-44.5	-46.0	24.6	6.05e-01	0	44	0	721420288	59	4561
2026-01-30 11:50:20.50	343.92	47.39	-44.7	-55.7	3.8	7.49e-01	0	43	104	727187456	60	13187
2026-01-30 11:50:23.22	343.90	46.37	-44.9	-55.6	3.9	7.41e-01	0	43	104	727187456	60	13105
2026-01-30 11:50:26.52	343.88	45.18	-52.7	-71.1	3.8	7.46e-01	0	43	104	727187456	76	31042
2026-01-30 11:50:29.24	343.86	44.22	-51.9	-70.3	3.8	7.50e-01	0	44	104	727187456	75	29721
2026-01-30 11:50:32.54	343.85	43.08	-51.6	-70.1	3.8	7.46e-01	0	43	104	727187456	74	31030
2026-01-30 11:50:35.26	343.83	42.18	-45.7	-56.5	4.0	7.48e-01	0	43	104	727187456	62	12915
2026-01-30 11:50:38.55	343.82	41.11	-46.9	-59.3	3.8	7.49e-01	0	43	104	727187456	64	15869
2026-01-30 11:50:41.28	343.81	40.25	-46.2	-57.5	3.8	7.46e-01	0	44	104	727187456	64	12882
2026-01-30 11:50:44.76	343.80	39.18	-48.8	-61.0	3.8	7.42e-01	0	44	104	727187456	69	14383
2026-01-30 11:50:47.49	343.79	38.37	-46.4	-57.9	3.8	7.44e-01	0	44	104	727187456	64	13519
2026-01-30 11:50:50.79	343.79	37.41	-46.1	-57.4	3.8	7.47e-01	0	44	104	727187456	63	13517
2026-01-30 11:50:53.66	343.78	36.61	-51.7	-70.8	3.8	7.46e-01	0	44	104	727187456	74	33457
2026-01-30 11:50:57.13	343.77	35.66	-50.8	-70.6	3.8	7.47e-01	0	43	104	727187456	73	34642
2026-01-30 11:50:59.85	343.77	34.93	-51.1	-69.1	3.8	7.43e-01	0	43	104	727187456	73	29067
2026-01-30 11:51:03.19	343.77	34.07	-46.9	-58.6	3.8	7.45e-01	0	43	104	727187456	65	13813
2026-01-30 11:51:06.01	343.76	33.36	-44.2	-55.1	3.8	7.44e-01	0	43	104	727187456	59	12975
2026-01-30 11:51:09.17	343.76	32.58	-43.9	-55.0	3.8	7.46e-01	0	43	104	727187456	59	12823
2026-01-30 11:51:12.42	343.76	31.81	-47.4	-60.8	3.8	7.44e-01	0	43	104	727187456	67	15923
2026-01-30 11:51:15.28	343.76	31.14	-48.1	-60.8	3.8	7.47e-01	0	43	104	727187456	67	15867
2026-01-30 11:51:18.43	343.76	30.43	-48.1	-60.6	3.8	7.44e-01	0	44	104	727187456	66	16459
2026-01-30 11:51:21.36	343.76	29.78	-45.5	-56.8	3.8	7.47e-01	0	43	104	727187456	61	14064
2026-01-30 11:51:24.52	343.76	29.10	-44.0	-55.1	3.8	7.42e-01	0	43	104	727187456	59	13027
2026-01-30 11:51:27.38	343.76	28.50	-45.9	-57.4	3.8	7.43e-01	0	43	104	727187456	63	13489
2026-01-30 11:51:30.54	343.76	27.85	-49.9	-67.8	3.8	7.44e-01	0	43	104	727187456	71	28207
2026-01-30 11:51:33.41	343.76	27.27	-50.2	-66.2	3.8	7.47e-01	0	44	104	727187456	71	23322
2026-01-30 11:51:36.59	343.76	26.65	-49.2	-61.7	3.8	7.45e-01	0	43	104	727187456	70	14756
2026-01-30 11:51:39.46	343.77	26.10	-46.8	-59.1	3.8	7.44e-01	0	43	104	727187456	64	15416
2026-01-30 11:51:42.52	343.77	25.53	-44.6	-55.9	3.8	7.46e-01	0	44	104	727187456	60	13448
2026-01-30 11:51:45.52	343.77	24.98	-44.6	-55.7	3.8	7.42e-01	0	43	104	727187456	60	13252
2026-01-30 11:51:48.53	343.77	24.44	-45.0	-56.4	3.9	7.43e-01	0	43	104	727187456	62	12730
2026-01-30 11:51:51.54	343.78	23.92	-44.4	-55.9	3.8	7.46e-01	0	43	104	727187456	60	13420
2026-01-30 11:51:54.55	343.78	23.40	-44.6	-56.0	3.8	7.45e-01	0	44	104	727187456	60	13723
2026-01-30 11:51:57.56	343.79	22.90	-45.1	-56.4	3.9	7.45e-01	0	43	104	727187456	62	12727
2026-01-30 11:52:00.57	343.79	22.41	-44.6	-55.8	3.8	7.41e-01	0	44	104	727187456	61	12573
2026-01-30 11:52:03.98	343.80	21.86	-44.6	-56.1	3.8	7.45e-01	0	43	104	727187456	60	13777
2026-01-30 11:52:06.70	343.80	21.43	-44.0	-55.0	3.8	7.43e-01	0	44	104	727187456	60	12218
2026-01-30 11:52:09.99	343.81	20.93	-44.3	-54.9	3.8	7.45e-01	0	43	104	727187456	60	12026
2026-01-30 11:52:12.78	343.81	20.51	-44.9	-55.8	3.8	7.44e-01	0	43	104	727187456	60	13271
2026-01-30 11:52:16.15	343.82	20.01	-44.1	-55.2	3.8	7.47e-01	0	43	104	727187456	60	12447
2026-01-30 11:52:19.23	343.82	19.56	-44.1	-55.2	3.8	7.45e-01	0	43	104	727187456	59	13226
2026-01-30 11:52:22.16	343.83	19.15	-45.0	-56.3	3.8	7.48e-01	0	43	104	727187456	60	14176
2026-01-30 11:52:25.32	343.84	18.71	-44.0	-54.9	3.8	7.48e-01	0	43	104	727187456	60	12055
2026-01-30 11:52:28.23	343.84	18.31	-43.9	-55.1	3.8	7.46e-01	0	43	104	727187456	59	13042
2026-01-30 11:52:31.53	343.85	17.87	-48.2	-61.2	3.8	7.50e-01	0	43	104	727187456	66	17582
2026-01-30 11:52:34.25	343.85	17.51	-43.8	-55.2	3.8	7.42e-01	0	43	104	727187456	59	13176
2026-01-30 11:52:37.54	343.86	17.08	-44.2	-55.3	3.8	7.48e-01	0	43	104	727187456	59	13322
2026-01-30 11:52:40.28	343.87	16.74	-45.4	-57.0	3.8	7.43e-01	0	43	104	727187456	61	14517
2026-01-30 11:52:43.65	343.88	16.31	-44.1	-55.4	3.8	7.42e-01	0	43	104	727187456	60	12760
2026-01-30 11:52:46.70	343.88	15.94	-43.9	-55.4	3.8	7.45e-01	0	43	104	727187456	59	13501
2026-01-30 11:52:50.46	343.89	15.49	-46.4	-59.4	3.9	7.44e-01	0	43	104	727187456	63	16908
2026-01-30 11:52:53.23	343.90	15.16	-48.7	-67.0	3.9	7.41e-01	0	43	104	727187456	69	29007
2026-01-30 11:52:56.97	343.91	14.72	-43.9	-54.8	3.8	7.46e-01	0	43	104	727187456	59	12641
2026-01-30 11:52:59.72	343.92	14.41	-47.7	-61.7	3.8	7.47e-01	0	43	104	727187456	65	19719
2026-01-30 11:53:03.72	343.93	13.96	-48.2	-62.0	3.8	7.42e-01	0	43	104	727187456	68	17092
2026-01-30 11:53:06.51	343.93	13.65	-46.8	-60.0	3.9	7.46e-01	0	43	104	727187456	65	16182
2026-01-30 11:53:10.13	343.94	13.26	-43.6	-54.9	3.8	7.44e-01	0	43	104	727187456	59	12751
2026-01-30 11:53:12.85	343.95	12.97	-43.6	-55.0	3.8	7.45e-01	0	43	104	727187456	59	12820
2026-01-30 11:53:16.15	343.96	12.62	-45.4	-58.7	3.8	7.42e-01	0	43	104	727187456	62	16514
2026-01-30 11:53:18.87	343.97	12.34	-44.0	-55.8	3.8	7.45e-01	0	43	104	727187456	60	13327
2026-01-30 11:53:22.17	343.98	12.00	-43.9	-55.7	3.8	7.43e-01	0	43	104	727187456	59	13923
2026-01-30 11:53:25.17	343.98	11.70	-43.8	-55.6	3.8	7.43e-01	0	43	104	727187456	59	13846
2026-01-30 11:53:28.17	343.99	11.40	-43.7	-55.6	3.8	7.48e-01	0	43	104	727187456	59	13727
2026-01-30 11:53:31.18	344.00	11.10	-43.6	-55.3	3.8	7.48e-01	0	43	104	727187456	59	13407
2026-01-30 11:53:34.19	344.01	10.81	-44.0	-57.2	3.8	7.41e-01	0	43	104	727187456	59	16569
2026-01-30 11:53:37.21	344.02	10.52	-46.1	-62.9	3.9	7.45e-01	0	43	104	727187456	64	24021
2026-01-30 11:53:40.22	344.03	10.24	-46.0	-62.1	3.8	7.50e-01	0	43	104	727187456	63	23185
2026-01-30 11:53:43.22	344.04	9.96	-44.3	-60.5	3.8	7.47e-01	0	43	104	727187456	60	22856
2026-01-30 11:53:46.28	344.05	9.68	-44.9	-62.3	3.9	7.45e-01	0	43	104	727187456	61	26684
2026-01-30 11:53:49.24	344.05	9.41	-42.5	-56.0	3.8	7.49e-01	0	43	104	727187456	57	16278
2026-01-30 11:53:52.48	344.06	9.12	-42.5	-55.8	3.8	7.45e-01	0	43	104	727187456	56	16878
2026-01-30 11:53:55.35	344.07	8.86	-50.4	-70.9	3.8	7.46e-01	0	43	104	727187456	72	37985
2026-01-30 11:53:58.50	344.08	8.59	-51.0	-70.9	3.8	7.44e-01	0	43	104	727187456	72	38146
2026-01-30 11:54:01.37	344.09	8.34	-49.1	-70.6	3.8	7.47e-01	0	43	104	727187456	69	43799
2026-01-30 11:54:04.53	344.10	8.07	-50.3	-70.6	3.8	7.45e-01	0	43	104	727187456	72	36926
2026-01-30 11:54:07.49	344.11	7.82	-51.0	-70.7	3.8	7.45e-01	0	43	104	727187456	73	34962
2026-01-30 11:54:10.71	344.12	7.55	-51.4	-70.8	3.8	7.49e-01	0	43	104	727187456	73	35316
2026-01-30 11:54:13.58	344.13	7.31	-50.8	-70.8	3.8	7.49e-01	0	43	104	727187456	73	35494
2026-01-30 11:54:16.73	344.14	7.05	-50.8	-70.8	3.8	7.47e-01	0	43	104	727187456	73	35388
2026-01-30 11:54:19.60	344.15	6.82	-50.8	-70.8	3.8	7.46e-01	0	43	104	727187456	73	35369
2026-01-30 11:54:22.76	344.16	6.57	-50.8	-70.8	3.8	7.47e-01	0	43	104	727187456	73	35288
2026-01-30 11:54:25.63	344.17	6.34	-50.8	-70.7	3.8	7.49e-01	0	43	104	727187456	73	35276
2026-01-30 11:54:28.79	344.18	6.09	-50.8	-70.8	3.8	7.45e-01	0	43	104	727187456	73	35314
2026-01-30 11:54:31.65	344.19	5.87	-50.8	-70.8	3.8	7.47e-01	0	43	104	727187456	73	35356
2026-01-30 11:54:34.81	344.20	5.63	-50.8	-70.7	3.8	7.43e-01	0	43	104	727187456	73	35145
2026-01-30 11:54:37.68	344.21	5.41	-50.8	-70.7	3.8	7.45e-01	0	43	104	727187456	73	35151
2026-01-30 11:54:40.83	344.22	5.17	-50.8	-70.7	3.8	7.46e-01	0	43	104	727187456	73	35078
2026-01-30 11:54:43.70	344.23	4.95	-50.8	-70.7	3.8	7.45e-01	0	43	104	727187456	73	35045

#Closed at: 2026-01-30 11:54:44
#Recorded file [727 MB]: D:/Data/31040_260130_144318.dat