passes_logs/2026/01/30/T1/T1__20260130_013455_SUOMI_NPP_rec.log

#Pass ID: 20260130_013455_SUOMI NPP
#Satellite: SUOMI NPP
#Configuration: NPP
#almurnet v.1.7.20251203
#Start time: 2026-01-30 01:34:56

#Version: 2.0.20230620
#Station: T1
#Location: 37.570604 lon 55.790049 lat
#TLE: 1 37849U 11061A   26028.91916408  .00000155  00000+0  94467-4 0  9990
#TLE: 2 37849  98.7824 330.8488 0002045  39.4457 320.6868 14.19531289738686

#Time	Az	El	Level	Level2	SNR	BER	BlckErr	Temp	State	Recorded	gain1	gain2
2026-01-30 01:34:56.89	5.75	5.06	-49.5	-63.7	3.8	1.49e+00	0	40	0	0	69	19792
2026-01-30 01:34:59.90	5.49	5.24	-49.6	-63.8	3.8	1.49e+00	0	40	104	0	70	18757
2026-01-30 01:35:02.91	5.23	5.42	-49.4	-63.8	3.8	1.49e+00	0	41	104	0	70	18746
2026-01-30 01:35:05.92	4.96	5.59	-49.5	-63.8	3.8	1.49e+00	0	41	104	0	70	18777
2026-01-30 01:35:08.93	4.69	5.77	-49.3	-63.7	3.8	1.49e+00	0	41	104	0	70	18683
2026-01-30 01:35:11.95	4.42	5.95	-49.3	-63.7	3.8	1.49e+00	0	41	104	0	69	19681
2026-01-30 01:35:14.96	4.14	6.13	-49.0	-63.6	3.8	1.49e+00	0	41	104	0	69	19510
2026-01-30 01:35:17.97	3.86	6.31	-48.0	-63.5	3.8	1.49e+00	0	41	104	0	68	20374
2026-01-30 01:35:20.99	3.58	6.50	-47.5	-63.0	3.8	1.49e+00	0	41	104	0	66	21695
2026-01-30 01:35:24.00	3.29	6.68	-47.4	-62.9	3.8	1.49e+00	0	41	104	0	66	21488
2026-01-30 01:35:27.01	3.00	6.86	-47.4	-62.8	3.8	1.49e+00	0	42	104	0	66	21046
2026-01-30 01:35:30.02	2.70	7.04	-47.5	-62.9	3.8	1.49e+00	0	41	104	0	66	21354
2026-01-30 01:35:33.04	2.40	7.23	-47.5	-63.0	3.8	1.49e+00	0	42	104	0	66	21622
2026-01-30 01:35:36.05	2.10	7.41	-47.6	-63.0	3.8	1.49e+00	0	42	104	0	66	21705
2026-01-30 01:35:39.06	1.79	7.59	-47.6	-63.0	3.8	1.49e+00	0	42	104	0	66	21593
2026-01-30 01:35:42.07	1.48	7.78	-47.6	-62.8	3.8	1.49e+00	0	42	104	0	66	21059
2026-01-30 01:35:45.09	1.16	7.97	-47.4	-62.0	3.8	1.49e+00	0	42	104	0	66	19304
2026-01-30 01:35:48.10	0.84	8.15	-47.4	-61.5	3.8	1.49e+00	0	42	104	0	66	18097
2026-01-30 01:35:51.11	0.52	8.34	-47.4	-61.4	3.8	1.49e+00	0	42	104	0	66	18008
2026-01-30 01:35:54.13	0.19	8.53	-47.2	-59.1	4.3	1.45e+00	0	42	0	0	66	13752
2026-01-30 01:35:57.14	359.86	8.71	-46.7	-54.5	7.0	2.12e-01	0	42	0	5242880	65	8596
2026-01-30 01:36:00.15	359.52	8.90	-46.0	-51.7	10.0	1.32e-02	0	42	0	10485760	63	7005
2026-01-30 01:36:03.16	359.18	9.09	-46.8	-57.7	4.9	3.12e-01	0	42	0	16777216	64	13189
2026-01-30 01:36:06.18	358.83	9.28	-44.5	-47.6	14.2	7.00e-07	0	42	0	18874368	60	5185
2026-01-30 01:36:09.11	358.49	9.46	-44.0	-46.6	15.1	0.00e+00	0	42	0	25165824	59	4918
2026-01-30 01:36:12.27	358.11	9.66	-43.8	-46.5	15.3	0.00e+00	0	42	0	30408704	59	4852
2026-01-30 01:36:15.13	357.77	9.84	-43.6	-46.5	15.3	0.00e+00	0	43	0	35651584	59	4832
2026-01-30 01:36:18.28	357.39	10.04	-43.9	-47.1	14.7	0.00e+00	0	42	0	41943040	59	5211
2026-01-30 01:36:21.14	357.04	10.23	-43.6	-46.8	15.0	0.00e+00	0	43	0	47185920	58	5312
2026-01-30 01:36:24.48	356.62	10.44	-43.2	-46.4	15.4	0.00e+00	0	43	0	53477376	58	5069
2026-01-30 01:36:27.20	356.28	10.61	-43.2	-46.4	15.5	0.00e+00	0	42	0	58720256	58	5066
2026-01-30 01:36:30.73	355.82	10.83	-43.1	-45.9	15.9	0.00e+00	0	43	0	65011712	58	4810
2026-01-30 01:36:33.74	355.43	11.03	-42.8	-45.7	16.1	0.00e+00	0	42	0	71303168	57	4934
2026-01-30 01:36:36.75	355.04	11.22	-43.3	-46.2	15.7	0.00e+00	0	43	0	76546048	57	5259
2026-01-30 01:36:39.76	354.63	11.41	-43.2	-46.0	15.9	0.00e+00	0	43	0	82837504	57	5101
2026-01-30 01:36:42.76	354.23	11.60	-43.4	-46.0	15.9	0.00e+00	0	43	0	88080384	57	5132
2026-01-30 01:36:45.77	353.81	11.79	-43.0	-45.4	16.5	0.00e+00	0	43	0	93323264	57	4766
2026-01-30 01:36:48.78	353.39	11.99	-43.2	-45.7	16.1	0.00e+00	0	43	0	99614720	57	4962
2026-01-30 01:36:51.89	352.96	12.18	-43.4	-46.1	15.8	0.00e+00	0	43	0	104857600	57	5196
2026-01-30 01:36:54.75	352.55	12.37	-43.3	-45.9	15.9	0.00e+00	0	43	0	110100480	57	5086
2026-01-30 01:36:57.89	352.09	12.57	-42.8	-45.2	16.6	0.00e+00	0	43	0	116391936	57	4702
2026-01-30 01:37:00.75	351.67	12.75	-43.0	-45.7	16.2	0.00e+00	0	43	0	121634816	57	4951
2026-01-30 01:37:03.91	351.20	12.95	-42.7	-45.1	16.7	0.00e+00	0	43	0	127926272	57	4650
2026-01-30 01:37:06.78	350.77	13.13	-42.9	-45.1	16.8	0.00e+00	0	43	0	133169152	57	4629
2026-01-30 01:37:10.24	350.24	13.35	-43.0	-45.1	16.8	0.00e+00	0	43	0	139460608	57	4643
2026-01-30 01:37:12.96	349.82	13.53	-43.3	-45.9	16.0	0.00e+00	0	43	0	144703488	57	5070
2026-01-30 01:37:16.26	349.30	13.73	-43.3	-46.1	15.8	0.00e+00	0	43	0	150994944	57	5182
2026-01-30 01:37:19.10	348.85	13.91	-42.8	-45.5	16.3	0.00e+00	0	43	0	156237824	57	4857
2026-01-30 01:37:22.20	348.35	14.11	-43.0	-45.9	16.1	0.00e+00	0	43	0	161480704	57	5094
2026-01-30 01:37:25.72	347.77	14.33	-43.3	-46.0	16.0	0.00e+00	0	43	0	168820736	57	5120
2026-01-30 01:37:28.43	347.33	14.50	-43.2	-45.6	16.3	0.00e+00	0	43	0	174063616	57	4913
2026-01-30 01:37:31.73	346.77	14.70	-43.2	-45.8	16.2	0.00e+00	0	43	0	179306496	57	4991
2026-01-30 01:37:34.78	346.25	14.89	-43.2	-46.0	15.9	0.00e+00	0	43	0	185597952	57	5138
2026-01-30 01:37:37.87	345.72	15.08	-42.8	-45.3	16.6	0.00e+00	0	43	0	190840832	57	4737
2026-01-30 01:37:40.87	345.20	15.27	-43.1	-45.4	16.5	0.00e+00	0	43	0	197132288	57	4791
2026-01-30 01:37:43.88	344.67	15.45	-43.9	-46.5	15.5	0.00e+00	0	43	0	202375168	58	5119
2026-01-30 01:37:46.89	344.13	15.63	-43.7	-46.4	15.6	0.00e+00	0	43	0	207618048	58	5057
2026-01-30 01:37:49.96	343.57	15.81	-43.3	-45.8	16.1	0.00e+00	0	43	0	213909504	58	4741
2026-01-30 01:37:52.86	343.04	15.99	-43.2	-45.5	16.4	0.00e+00	0	43	0	219152384	58	4579
2026-01-30 01:37:56.01	342.45	16.17	-43.0	-45.0	16.9	0.00e+00	0	43	0	225443840	57	4569
2026-01-30 01:37:59.21	341.85	16.36	-42.1	-44.1	17.8	0.00e+00	0	43	0	231735296	56	4341
2026-01-30 01:38:02.24	341.28	16.54	-42.4	-44.4	17.4	0.00e+00	0	43	0	236978176	56	4515
2026-01-30 01:38:05.25	340.70	16.71	-42.3	-44.1	17.7	0.00e+00	0	43	0	242221056	56	4391
2026-01-30 01:38:08.25	340.11	16.88	-41.8	-43.6	18.1	0.00e+00	0	43	0	248512512	55	4353
2026-01-30 01:38:11.26	339.52	17.05	-41.9	-43.7	18.0	0.00e+00	0	43	0	253755392	55	4415
2026-01-30 01:38:14.23	338.93	17.21	-41.7	-43.4	18.3	0.00e+00	0	43	0	258998272	55	4251
2026-01-30 01:38:17.35	338.30	17.39	-41.3	-42.9	18.8	0.00e+00	0	43	0	265289728	54	4261
2026-01-30 01:38:20.44	337.67	17.55	-41.2	-42.7	18.9	0.00e+00	0	43	0	270532608	54	4179
2026-01-30 01:38:23.59	337.02	17.72	-41.6	-43.2	18.4	0.00e+00	0	43	0	276824064	54	4416
2026-01-30 01:38:26.45	336.42	17.87	-41.2	-42.8	18.9	0.00e+00	0	43	0	282066944	54	4207
2026-01-30 01:38:29.60	335.76	18.03	-41.6	-43.3	18.4	0.00e+00	0	43	0	288358400	54	4477
2026-01-30 01:38:33.11	335.01	18.21	-41.8	-43.7	18.1	0.00e+00	0	43	0	294649856	54	4670
2026-01-30 01:38:35.83	334.42	18.35	-41.3	-43.0	18.7	0.00e+00	0	43	0	299892736	54	4316
2026-01-30 01:38:39.17	333.70	18.51	-41.4	-43.2	18.5	0.00e+00	0	43	0	306184192	54	4431
2026-01-30 01:38:41.92	333.09	18.64	-41.3	-42.9	18.7	0.00e+00	0	43	0	311427072	54	4288
2026-01-30 01:38:45.55	332.29	18.81	-40.6	-41.9	19.6	0.00e+00	0	43	0	317718528	53	4050
2026-01-30 01:38:48.27	331.68	18.93	-40.6	-42.0	19.6	0.00e+00	0	43	0	322961408	53	4074
2026-01-30 01:38:52.04	330.83	19.10	-40.6	-41.9	19.7	0.00e+00	0	43	0	330301440	53	4035
2026-01-30 01:38:54.83	330.19	19.22	-40.9	-42.4	19.3	0.00e+00	0	43	0	335544320	53	4252
2026-01-30 01:38:58.14	329.43	19.35	-41.2	-42.9	18.8	0.00e+00	0	43	0	341835776	53	4510
2026-01-30 01:39:00.86	328.80	19.46	-40.8	-42.4	19.3	0.00e+00	0	43	0	347078656	53	4261
2026-01-30 01:39:04.15	328.03	19.59	-40.9	-42.6	19.1	0.00e+00	0	43	0	353370112	53	4341
2026-01-30 01:39:06.87	327.38	19.69	-40.9	-42.5	19.1	0.00e+00	0	43	0	358612992	53	4337
2026-01-30 01:39:10.17	326.60	19.81	-40.6	-41.9	19.7	0.00e+00	0	43	0	363855872	53	4035
2026-01-30 01:39:12.89	325.95	19.91	-40.6	-41.9	19.8	0.00e+00	0	43	0	369098752	52	4253
2026-01-30 01:39:16.18	325.16	20.02	-41.2	-42.8	19.0	0.00e+00	0	43	0	375390208	53	4466
2026-01-30 01:39:18.91	324.50	20.10	-40.4	-41.8	19.9	0.00e+00	0	43	0	380633088	52	4203
2026-01-30 01:39:22.20	323.69	20.21	-40.6	-42.1	19.5	0.00e+00	0	43	0	386924544	52	4372
2026-01-30 01:39:25.02	323.00	20.29	-41.7	-43.4	18.4	0.00e+00	0	43	0	392167424	54	4524
2026-01-30 01:39:28.16	322.23	20.37	-41.6	-43.2	18.6	0.00e+00	0	43	0	398458880	54	4403
2026-01-30 01:39:31.03	321.51	20.45	-41.7	-43.3	18.5	0.00e+00	0	43	0	403701760	54	4460
2026-01-30 01:39:34.18	320.73	20.52	-42.5	-44.4	17.4	0.00e+00	0	43	0	408944640	55	4813
2026-01-30 01:39:37.22	319.97	20.59	-42.4	-44.3	17.6	0.00e+00	0	43	0	415236096	56	4458
2026-01-30 01:39:40.40	319.17	20.65	-41.4	-43.2	18.6	0.00e+00	0	43	0	421527552	54	4406
2026-01-30 01:39:43.41	318.41	20.71	-42.2	-44.1	17.6	0.00e+00	0	43	0	426770432	55	4651
2026-01-30 01:39:46.71	317.57	20.77	-43.4	-45.7	16.4	0.00e+00	0	43	0	433061888	57	4932
2026-01-30 01:39:49.43	316.88	20.81	-42.3	-44.1	17.8	0.00e+00	0	43	0	438304768	56	4373
2026-01-30 01:39:52.73	316.04	20.85	-42.7	-44.5	17.5	0.00e+00	0	43	0	444596224	56	4559
2026-01-30 01:39:55.46	315.34	20.89	-42.9	-44.9	17.0	0.00e+00	0	43	0	448790528	56	4791
2026-01-30 01:39:58.75	314.49	20.92	-42.1	-43.8	18.1	0.00e+00	0	43	0	455081984	56	4241
2026-01-30 01:40:01.47	313.79	20.94	-41.9	-43.6	18.1	0.00e+00	0	43	0	460324864	55	4379
2026-01-30 01:40:04.76	312.95	20.96	-43.0	-45.1	16.8	0.00e+00	0	43	0	466616320	56	4923
2026-01-30 01:40:07.70	312.19	20.97	-43.3	-45.5	16.5	0.00e+00	0	43	0	471859200	57	4818
2026-01-30 01:40:10.71	311.42	20.98	-42.7	-44.7	17.2	0.00e+00	0	43	0	478150656	57	4434
2026-01-30 01:40:13.77	310.63	20.98	-42.4	-44.3	17.7	0.00e+00	0	43	0	483393536	56	4461
2026-01-30 01:40:16.96	309.80	20.98	-42.0	-43.7	18.1	0.00e+00	0	43	0	489684992	56	4190
2026-01-30 01:40:19.78	309.08	20.97	-41.8	-43.4	18.2	0.00e+00	0	43	0	494927872	55	4289
2026-01-30 01:40:22.93	308.27	20.95	-41.5	-43.1	18.6	0.00e+00	0	43	0	501219328	55	4113
2026-01-30 01:40:26.06	307.46	20.93	-41.8	-43.5	18.3	0.00e+00	0	43	0	506462208	54	4552
2026-01-30 01:40:29.35	306.62	20.90	-42.5	-44.4	17.5	0.00e+00	0	43	0	512753664	55	4770
2026-01-30 01:40:32.07	305.92	20.88	-42.9	-44.9	17.1	0.00e+00	0	43	0	517996544	56	4780
2026-01-30 01:40:35.37	305.08	20.83	-41.7	-43.2	18.5	0.00e+00	0	43	0	524288000	55	4169
2026-01-30 01:40:38.09	304.38	20.80	-41.2	-42.5	19.2	0.00e+00	0	43	0	529530880	54	4090
2026-01-30 01:40:41.54	303.50	20.74	-41.0	-42.3	19.3	0.00e+00	0	43	0	535822336	53	4238
2026-01-30 01:40:44.39	302.78	20.69	-40.9	-42.2	19.4	0.00e+00	0	43	0	541065216	53	4177
2026-01-30 01:40:47.73	301.94	20.62	-41.5	-42.8	19.0	0.00e+00	0	43	0	547356672	53	4455
2026-01-30 01:40:50.45	301.25	20.57	-41.5	-42.8	18.9	0.00e+00	0	43	0	552599552	54	4233
2026-01-30 01:40:53.75	300.43	20.49	-40.8	-42.0	19.6	0.00e+00	0	43	0	558891008	53	4091
2026-01-30 01:40:56.49	299.75	20.42	-40.7	-41.8	19.8	0.00e+00	0	43	0	564133888	53	3997
2026-01-30 01:40:59.78	298.93	20.34	-40.9	-42.1	19.5	0.00e+00	0	43	0	569376768	53	4144
2026-01-30 01:41:02.50	298.26	20.26	-41.3	-42.6	19.1	0.00e+00	0	43	0	574619648	53	4369
2026-01-30 01:41:05.80	297.45	20.16	-41.1	-42.4	19.2	0.00e+00	0	43	0	580911104	53	4281
2026-01-30 01:41:08.52	296.78	20.08	-41.4	-42.7	19.0	0.00e+00	0	43	0	586153984	53	4413
2026-01-30 01:41:11.81	295.99	19.97	-41.5	-42.9	18.9	0.00e+00	0	43	0	592445440	53	4501
2026-01-30 01:41:14.68	295.30	19.87	-42.5	-44.2	17.7	0.00e+00	0	43	0	597688320	55	4667
2026-01-30 01:41:18.13	294.47	19.75	-42.6	-44.1	17.8	0.00e+00	0	43	0	603979776	56	4387
2026-01-30 01:41:20.90	293.81	19.65	-42.4	-43.9	18.1	0.00e+00	0	43	0	609222656	56	4282
2026-01-30 01:41:24.19	293.04	19.52	-42.4	-43.9	18.0	0.00e+00	0	43	0	615514112	56	4288
2026-01-30 01:41:26.91	292.40	19.42	-42.7	-44.3	17.7	0.00e+00	0	43	0	620756992	56	4471
2026-01-30 01:41:30.21	291.64	19.28	-42.9	-44.6	17.4	0.00e+00	0	43	0	627048448	56	4621
2026-01-30 01:41:32.93	291.01	19.17	-42.8	-44.4	17.5	0.00e+00	0	43	0	632291328	56	4528
2026-01-30 01:41:36.61	290.17	19.01	-42.3	-43.8	18.2	0.00e+00	0	43	0	638582784	56	4214
2026-01-30 01:41:39.80	289.45	18.86	-42.6	-44.1	17.9	0.00e+00	0	43	0	644874240	56	4363
2026-01-30 01:41:42.87	288.77	18.72	-42.4	-43.9	18.1	0.00e+00	0	43	0	650117120	56	4263
2026-01-30 01:41:46.02	288.07	18.57	-42.1	-43.5	18.4	0.00e+00	0	43	0	656408576	56	4073
2026-01-30 01:41:48.88	287.44	18.44	-41.4	-42.6	19.0	0.00e+00	0	43	0	661651456	54	4127
2026-01-30 01:41:52.04	286.76	18.28	-41.2	-42.5	19.2	0.00e+00	0	43	0	667942912	54	4059
2026-01-30 01:41:54.90	286.14	18.14	-41.2	-42.5	19.2	0.00e+00	0	43	0	673185792	54	4065
2026-01-30 01:41:58.05	285.47	17.98	-42.4	-44.0	17.9	0.00e+00	0	43	0	679477248	55	4554
2026-01-30 01:42:01.32	284.78	17.81	-43.5	-45.3	16.6	0.00e+00	0	43	0	684720128	57	4745
2026-01-30 01:42:04.30	284.16	17.65	-43.2	-44.9	17.0	0.00e+00	0	43	0	691011584	57	4532
2026-01-30 01:42:07.63	283.48	17.47	-44.0	-46.0	16.0	0.00e+00	0	43	0	697303040	58	4853
2026-01-30 01:42:10.35	282.92	17.32	-44.3	-46.5	15.7	0.00e+00	0	43	0	702545920	59	4818
2026-01-30 01:42:14.17	282.15	17.11	-43.3	-45.0	16.9	0.00e+00	0	43	0	708837376	58	4332
2026-01-30 01:42:16.96	281.60	16.95	-42.1	-43.5	18.3	0.00e+00	0	43	0	714080256	56	4098
2026-01-30 01:42:20.25	280.95	16.77	-41.6	-43.0	18.6	0.00e+00	0	43	0	720371712	55	4079
2026-01-30 01:42:22.97	280.42	16.61	-41.9	-43.3	18.4	0.00e+00	0	43	0	725614592	55	4217
2026-01-30 01:42:26.27	279.79	16.42	-42.7	-44.3	17.6	0.00e+00	0	43	0	731906048	56	4457
2026-01-30 01:42:28.99	279.27	16.26	-42.9	-44.6	17.4	0.00e+00	0	43	0	737148928	57	4341
2026-01-30 01:42:32.29	278.65	16.07	-41.8	-43.2	18.4	0.00e+00	0	43	0	743440384	55	4183
2026-01-30 01:42:35.28	278.10	15.89	-42.1	-43.7	18.0	0.00e+00	0	43	0	748683264	55	4392
2026-01-30 01:42:38.29	277.55	15.71	-43.4	-45.3	16.6	0.00e+00	0	43	0	754974720	57	4755
2026-01-30 01:42:41.30	277.00	15.52	-43.8	-45.8	16.2	0.00e+00	0	43	0	760217600	58	4710
2026-01-30 01:42:44.33	276.46	15.34	-43.6	-45.5	16.4	0.00e+00	0	43	0	765460480	58	4587
2026-01-30 01:42:47.29	275.94	15.16	-43.3	-45.0	16.9	0.00e+00	0	43	0	771751936	58	4332
2026-01-30 01:42:50.64	275.36	14.95	-43.2	-45.0	17.0	0.00e+00	0	43	0	778043392	58	4309
2026-01-30 01:42:53.36	274.89	14.78	-42.9	-44.7	17.2	0.00e+00	0	43	0	783286272	57	4393
2026-01-30 01:42:56.61	274.34	14.58	-43.0	-44.7	17.2	0.00e+00	0	43	0	788529152	57	4424
2026-01-30 01:42:59.81	273.80	14.38	-43.8	-45.8	16.1	0.00e+00	0	43	0	794820608	58	4739
2026-01-30 01:43:02.89	273.29	14.19	-43.6	-45.5	16.4	0.00e+00	0	43	0	801112064	58	4598
2026-01-30 01:43:05.75	272.82	14.01	-42.8	-44.5	17.4	0.00e+00	0	43	0	806354944	57	4316
2026-01-30 01:43:08.90	272.32	13.81	-42.8	-44.4	17.4	0.00e+00	0	43	0	811597824	57	4280
2026-01-30 01:43:11.77	271.86	13.63	-43.0	-44.7	17.1	0.00e+00	0	43	0	816840704	57	4425
2026-01-30 01:43:15.12	271.33	13.42	-43.3	-45.1	16.7	0.00e+00	0	43	0	823132160	57	4642
2026-01-30 01:43:17.91	270.90	13.24	-43.1	-44.9	16.9	0.00e+00	0	43	0	828375040	57	4543
2026-01-30 01:43:21.15	270.41	13.03	-42.5	-44.2	17.6	0.00e+00	0	43	0	834666496	57	4178
2026-01-30 01:43:24.45	269.91	12.82	-42.5	-44.1	17.7	0.00e+00	0	43	0	840957952	56	4370
2026-01-30 01:43:27.37	269.48	12.63	-42.1	-43.6	18.2	0.00e+00	0	43	0	846200832	56	4119
2026-01-30 01:43:30.38	269.03	12.44	-41.6	-43.0	18.6	0.00e+00	0	43	0	852492288	55	4058
2026-01-30 01:43:33.38	268.60	12.25	-41.4	-42.7	18.8	0.00e+00	0	43	0	857735168	54	4180
2026-01-30 01:43:36.39	268.17	12.06	-41.6	-43.0	18.5	0.00e+00	0	43	0	862978048	54	4319
2026-01-30 01:43:39.50	267.73	11.86	-42.2	-43.7	17.9	0.00e+00	0	43	0	869269504	54	4695
2026-01-30 01:43:42.37	267.33	11.67	-42.2	-43.8	17.8	0.00e+00	0	43	0	874512384	55	4480
2026-01-30 01:43:45.52	266.90	11.47	-42.1	-43.6	17.9	0.00e+00	0	43	0	880803840	55	4389
2026-01-30 01:43:48.38	266.51	11.29	-41.5	-42.9	18.6	0.00e+00	0	43	0	886046720	54	4288
2026-01-30 01:43:51.53	266.09	11.09	-41.5	-42.9	18.6	0.00e+00	0	43	0	892338176	54	4277
2026-01-30 01:43:54.40	265.71	10.90	-41.8	-43.3	18.2	0.00e+00	0	43	0	897581056	54	4455
2026-01-30 01:43:57.55	265.30	10.70	-42.1	-43.7	17.9	0.00e+00	0	43	0	902823936	54	4657
2026-01-30 01:44:00.42	264.94	10.52	-42.4	-44.1	17.5	0.00e+00	0	43	0	908066816	55	4627
2026-01-30 01:44:03.57	264.54	10.32	-43.0	-44.8	16.9	0.00e+00	0	43	0	914358272	56	4742
2026-01-30 01:44:06.43	264.18	10.14	-43.0	-44.9	16.8	0.00e+00	0	43	0	919601152	56	4806
2026-01-30 01:44:09.58	263.79	9.94	-42.4	-44.2	17.5	0.00e+00	0	43	0	925892608	56	4409
2026-01-30 01:44:12.49	263.44	9.75	-41.8	-43.4	18.0	0.00e+00	0	43	0	931135488	55	4287
2026-01-30 01:44:15.64	263.06	9.55	-41.7	-43.2	18.3	0.00e+00	0	43	0	937426944	55	4189
2026-01-30 01:44:18.51	262.72	9.37	-41.9	-43.5	18.0	0.00e+00	0	43	0	942669824	55	4292
2026-01-30 01:44:21.91	262.32	9.16	-43.0	-44.8	16.9	0.00e+00	0	43	0	948961280	56	4725
2026-01-30 01:44:24.63	262.01	8.99	-45.6	-49.1	13.1	0.00e+00	0	43	0	954204160	61	5794
2026-01-30 01:44:27.93	261.63	8.78	-48.1	-62.9	3.8	1.49e+00	0	43	104	954204160	67	20218
2026-01-30 01:44:30.66	261.32	8.61	-48.8	-63.1	3.8	1.49e+00	0	43	104	954204160	68	19524
2026-01-30 01:44:33.96	260.96	8.40	-48.7	-63.0	3.8	1.49e+00	0	43	104	954204160	68	19337
2026-01-30 01:44:36.68	260.66	8.23	-48.7	-63.1	3.8	1.49e+00	0	43	104	954204160	68	19415
2026-01-30 01:44:39.98	260.30	8.03	-48.7	-63.0	3.8	1.49e+00	0	43	104	954204160	68	19372
2026-01-30 01:44:42.70	260.01	7.86	-48.7	-63.0	3.8	1.49e+00	0	43	104	954204160	68	19323
2026-01-30 01:44:46.00	259.67	7.66	-48.7	-63.0	3.8	1.49e+00	0	43	104	954204160	68	19221
2026-01-30 01:44:48.73	259.38	7.49	-48.7	-63.0	3.8	1.49e+00	0	43	104	954204160	68	19303
2026-01-30 01:44:52.03	259.04	7.29	-48.7	-63.0	3.8	1.49e+00	0	43	104	954204160	68	19285
2026-01-30 01:44:54.75	258.77	7.12	-48.7	-63.0	3.8	1.49e+00	0	43	104	954204160	68	19203
2026-01-30 01:44:58.05	258.44	6.92	-48.7	-63.0	3.8	1.49e+00	0	43	104	954204160	68	19276
2026-01-30 01:45:00.78	258.17	6.75	-48.7	-63.0	3.8	1.49e+00	0	43	104	954204160	68	19296
2026-01-30 01:45:04.08	257.85	6.55	-48.7	-63.0	3.8	1.49e+00	0	43	104	954204160	68	19354
2026-01-30 01:45:06.81	257.59	6.39	-48.7	-63.0	3.8	1.49e+00	0	43	104	954204160	68	19300
2026-01-30 01:45:10.11	257.27	6.19	-48.7	-63.0	3.8	1.49e+00	0	43	104	954204160	68	19278
2026-01-30 01:45:12.83	257.02	6.03	-48.7	-63.0	3.8	1.49e+00	0	43	104	954204160	68	19341
2026-01-30 01:45:16.13	256.71	5.83	-48.7	-63.0	3.8	1.49e+00	0	43	104	954204160	68	19316
2026-01-30 01:45:18.86	256.46	5.67	-48.7	-63.0	3.8	1.49e+00	0	43	104	954204160	68	19310
2026-01-30 01:45:22.16	256.16	5.47	-48.7	-63.0	3.8	1.49e+00	0	43	104	954204160	68	19246
2026-01-30 01:45:24.88	255.92	5.31	-48.7	-63.0	3.8	1.49e+00	0	43	104	954204160	68	19262
2026-01-30 01:45:28.18	255.63	5.11	-48.7	-63.0	3.8	1.49e+00	0	43	104	954204160	68	19281

#Closed at: 2026-01-30 01:45:30
#Recorded file [954 MB]: D:/Data/31040_260130_043456.dat