passes_logs/2026/01/30/T1/T1__20260130_041306_FENGYUN_3E_rec.log

#Pass ID: 20260130_041306_FENGYUN 3E
#Satellite: FENGYUN 3E
#Configuration: FENGYUN 3E
#almurnet v.1.7.20251203
#Start time: 2026-01-30 04:13:07

#Version: 2.0.20230620
#Station: T1
#Location: 37.570604 lon 55.790049 lat
#TLE: 1 49008U 21062A   26029.52207456 -.00000035  00000+0  41692-5 0  9997
#TLE: 2 49008  98.7499  34.4814 0002557 110.8023 249.3427 14.19887743236900

#Time	Az	El	Level	Level2	SNR	BER	BlckErr	Temp	State	Recorded	gain1	gain2
2026-01-30 04:13:07.76	14.72	5.09	-51.3	-61.1	3.8	8.47e-01	0	38	0	0	72	11521
2026-01-30 04:13:11.74	14.68	5.37	-51.5	-61.2	3.8	8.47e-01	0	38	104	0	73	10932
2026-01-30 04:13:15.73	14.64	5.66	-51.2	-61.1	3.8	8.48e-01	0	38	104	0	73	10862
2026-01-30 04:13:19.72	14.60	5.95	-51.1	-60.9	3.8	8.46e-01	0	38	104	0	72	11225
2026-01-30 04:13:23.71	14.56	6.25	-50.3	-60.9	3.8	8.47e-01	0	38	104	0	70	12562
2026-01-30 04:13:27.69	14.51	6.55	-49.6	-60.7	3.8	8.47e-01	0	38	104	0	70	12258
2026-01-30 04:13:31.67	14.47	6.85	-49.6	-58.9	3.8	8.46e-01	0	39	104	0	69	10620
2026-01-30 04:13:35.66	14.42	7.16	-49.5	-57.6	4.1	8.43e-01	0	39	0	0	69	9136
2026-01-30 04:13:39.66	14.38	7.47	-49.2	-56.2	4.5	8.22e-01	0	39	0	0	69	7777
2026-01-30 04:13:43.64	14.33	7.78	-48.7	-53.8	5.9	5.23e-01	0	39	0	3145728	68	6261
2026-01-30 04:13:47.64	14.28	8.10	-47.5	-50.8	8.4	5.06e-02	0	39	0	31457280	65	5251
2026-01-30 04:13:51.63	14.23	8.42	-46.2	-48.2	11.2	2.16e-03	0	39	0	60817408	63	4349
2026-01-30 04:13:55.62	14.18	8.74	-45.6	-47.2	12.3	2.30e-04	0	40	0	89128960	61	4364
2026-01-30 04:13:59.61	14.12	9.07	-47.2	-49.9	9.5	1.92e-03	0	39	0	118489088	63	5306
2026-01-30 04:14:03.60	14.07	9.41	-45.0	-46.2	13.1	1.83e-01	0	40	0	142606336	61	3912
2026-01-30 04:14:07.59	14.01	9.75	-41.1	-41.4	17.9	0.00e+00	0	40	0	170917888	52	3749
2026-01-30 04:14:11.58	13.95	10.09	-40.6	-40.8	18.6	0.00e+00	0	40	0	200278016	51	3711
2026-01-30 04:14:15.56	13.89	10.44	-39.8	-39.9	19.4	0.00e+00	0	40	0	228589568	50	3549
2026-01-30 04:14:19.54	13.83	10.79	-39.5	-39.6	19.7	0.00e+00	0	40	0	256901120	49	3639
2026-01-30 04:14:23.53	13.76	11.15	-39.5	-39.6	19.8	0.00e+00	0	40	0	286261248	49	3620
2026-01-30 04:14:27.53	13.69	11.51	-39.4	-39.4	19.9	0.00e+00	0	40	0	314572800	49	3555
2026-01-30 04:14:31.51	13.62	11.88	-39.2	-39.2	20.1	0.00e+00	0	40	0	343932928	48	3677
2026-01-30 04:14:35.50	13.55	12.25	-39.0	-39.0	20.3	0.00e+00	0	40	0	372244480	48	3598
2026-01-30 04:14:39.49	13.48	12.63	-38.9	-38.9	20.4	0.00e+00	0	40	0	401604608	48	3557
2026-01-30 04:14:43.47	13.40	13.02	-38.9	-38.9	20.4	0.00e+00	0	40	0	429916160	48	3550
2026-01-30 04:14:47.45	13.33	13.41	-38.9	-38.8	20.5	0.00e+00	0	40	0	458227712	48	3524
2026-01-30 04:14:51.44	13.25	13.81	-38.8	-38.8	20.6	0.00e+00	0	40	0	487587840	48	3498
2026-01-30 04:14:55.44	13.16	14.21	-38.4	-38.4	20.7	0.00e+00	0	40	0	516947968	47	3542
2026-01-30 04:14:59.42	13.08	14.63	-38.4	-38.5	20.7	0.00e+00	0	40	0	545259520	47	3573
2026-01-30 04:15:03.41	12.99	15.05	-38.3	-38.3	20.8	0.00e+00	0	40	0	573571072	47	3524
2026-01-30 04:15:07.41	12.89	15.47	-38.3	-38.3	20.8	0.00e+00	0	40	0	602931200	47	3527
2026-01-30 04:15:11.40	12.80	15.91	-38.3	-38.3	20.9	0.00e+00	0	40	0	631242752	47	3501
2026-01-30 04:15:15.40	12.70	16.35	-38.0	-37.9	21.2	0.00e+00	0	40	0	660602880	46	3563
2026-01-30 04:15:19.39	12.60	16.80	-37.7	-37.6	21.5	0.00e+00	0	40	0	688914432	46	3445
2026-01-30 04:15:23.37	12.49	17.26	-37.5	-37.5	21.6	0.00e+00	0	40	0	718274560	45	3579
2026-01-30 04:15:27.36	12.38	17.72	-37.2	-37.2	21.9	0.00e+00	0	41	0	746586112	45	3459
2026-01-30 04:15:31.35	12.27	18.20	-37.3	-37.2	21.9	0.00e+00	0	40	0	775946240	45	3456
2026-01-30 04:15:35.34	12.15	18.69	-37.2	-37.1	22.0	0.00e+00	0	40	0	804257792	45	3417
2026-01-30 04:15:39.34	12.03	19.18	-37.2	-37.2	21.9	0.00e+00	0	40	0	833617920	44	3654
2026-01-30 04:15:43.34	11.90	19.69	-37.1	-37.1	22.0	0.00e+00	0	40	0	861929472	44	3617
2026-01-30 04:15:47.33	11.77	20.20	-37.3	-37.2	21.9	0.00e+00	0	40	0	891289600	44	3673
2026-01-30 04:15:51.32	11.64	20.73	-37.2	-37.1	22.0	0.00e+00	0	40	0	919601152	44	3641
2026-01-30 04:15:55.31	11.49	21.27	-37.1	-37.0	22.1	0.00e+00	0	40	0	948961280	44	3600
2026-01-30 04:15:59.30	11.35	21.81	-37.2	-37.1	22.0	0.00e+00	0	40	0	977272832	44	3613
2026-01-30 04:16:03.28	11.19	22.37	-37.1	-37.1	22.1	0.00e+00	0	40	0	1006632960	44	3614
2026-01-30 04:16:07.26	11.03	22.94	-37.2	-37.1	22.1	0.00e+00	0	40	0	1034944512	44	3623
2026-01-30 04:16:11.25	10.87	23.53	-37.0	-36.9	22.2	0.00e+00	0	41	0	1063256064	44	3563
2026-01-30 04:16:15.24	10.70	24.13	-36.6	-36.5	22.6	0.00e+00	0	41	0	1092616192	44	3397
2026-01-30 04:16:19.23	10.51	24.74	-36.3	-36.2	22.7	0.00e+00	0	40	0	1120927744	43	3451
2026-01-30 04:16:23.22	10.33	25.37	-36.1	-36.0	22.8	0.00e+00	0	41	0	1150287872	43	3386
2026-01-30 04:16:27.21	10.13	26.01	-36.0	-35.9	23.0	0.00e+00	0	40	0	1178599424	42	3531
2026-01-30 04:16:31.20	9.92	26.67	-36.0	-35.9	22.9	0.00e+00	0	41	0	1207959552	42	3546
2026-01-30 04:16:35.18	9.71	27.34	-36.2	-36.0	22.9	0.00e+00	0	40	0	1236271104	42	3600
2026-01-30 04:16:39.16	9.49	28.03	-36.1	-36.0	22.9	0.00e+00	0	41	0	1264582656	42	3589
2026-01-30 04:16:43.15	9.25	28.73	-36.1	-35.9	23.0	0.00e+00	0	41	0	1293942784	42	3564
2026-01-30 04:16:47.14	9.00	29.46	-36.1	-35.9	23.0	0.00e+00	0	40	0	1323302912	42	3561
2026-01-30 04:16:51.13	8.74	30.20	-35.6	-35.5	23.4	0.00e+00	0	41	0	1351614464	42	3382
2026-01-30 04:16:55.13	8.47	30.97	-35.7	-35.6	23.3	0.00e+00	0	41	0	1380974592	41	3625
2026-01-30 04:16:59.12	8.18	31.75	-35.8	-35.6	23.3	0.00e+00	0	41	0	1409286144	41	3644
2026-01-30 04:17:03.11	7.88	32.55	-35.8	-35.6	23.2	0.00e+00	0	41	0	1438646272	41	3645
2026-01-30 04:17:07.10	7.57	33.38	-36.0	-35.9	23.0	0.00e+00	0	41	0	1466957824	41	3747
2026-01-30 04:17:11.08	7.23	34.22	-35.9	-35.8	23.1	0.00e+00	0	41	0	1495269376	41	3699
2026-01-30 04:17:15.07	6.88	35.09	-35.7	-35.6	23.3	0.00e+00	0	41	0	1524629504	41	3632
2026-01-30 04:17:19.05	6.50	35.98	-35.7	-35.6	23.2	0.00e+00	0	40	0	1552941056	41	3621
2026-01-30 04:17:23.04	6.11	36.89	-36.2	-36.1	22.8	0.00e+00	0	40	0	1582301184	41	3856
2026-01-30 04:17:27.02	5.69	37.83	-36.1	-36.0	23.0	0.00e+00	0	41	0	1610612736	41	3787
2026-01-30 04:17:31.02	5.24	38.80	-35.9	-35.7	23.2	0.00e+00	0	41	0	1639972864	41	3691
2026-01-30 04:17:35.00	4.77	39.78	-35.8	-35.6	23.2	0.00e+00	0	41	0	1668284416	41	3646
2026-01-30 04:17:38.99	4.26	40.80	-36.4	-36.3	22.8	0.00e+00	0	41	0	1696595968	42	3704
2026-01-30 04:17:42.98	3.72	41.85	-36.6	-36.5	22.5	0.00e+00	0	41	0	1725956096	43	3604
2026-01-30 04:17:46.98	3.14	42.92	-36.2	-36.1	22.9	0.00e+00	0	41	0	1755316224	43	3411
2026-01-30 04:17:50.96	2.52	44.02	-36.4	-36.3	22.7	0.00e+00	0	41	0	1783627776	42	3706
2026-01-30 04:17:54.96	1.85	45.15	-36.9	-36.8	22.3	0.00e+00	0	41	0	1811939328	43	3710
2026-01-30 04:17:58.94	1.14	46.30	-37.4	-37.3	22.0	0.00e+00	0	41	0	1841299456	44	3700
2026-01-30 04:18:02.94	0.36	47.49	-37.2	-37.0	22.2	0.00e+00	0	41	0	1869611008	45	3406
2026-01-30 04:18:06.94	359.53	48.70	-37.4	-37.3	22.0	0.00e+00	0	41	0	1898971136	44	3721
2026-01-30 04:18:10.93	358.62	49.94	-37.6	-37.5	21.8	0.00e+00	0	41	0	1927282688	45	3593
2026-01-30 04:18:14.93	357.63	51.21	-37.5	-37.4	21.8	0.00e+00	0	41	0	1956642816	45	3564
2026-01-30 04:18:18.92	356.56	52.49	-38.2	-38.1	21.3	0.00e+00	0	41	0	1984954368	46	3638
2026-01-30 04:18:22.91	355.38	53.81	-37.5	-37.3	22.0	0.00e+00	0	41	0	2014314496	45	3528
2026-01-30 04:18:26.90	354.09	55.14	-38.0	-38.0	21.4	0.00e+00	0	41	0	2042626048	45	3782
2026-01-30 04:18:30.89	352.67	56.49	-38.3	-38.3	21.0	0.00e+00	0	41	0	2071986176	46	3721
2026-01-30 04:18:34.87	351.11	57.85	-37.9	-37.8	21.6	0.00e+00	0	41	0	2100297728	46	3501
2026-01-30 04:18:38.86	349.37	59.23	-37.7	-37.6	21.7	0.00e+00	0	41	0	2129657856	45	3641
2026-01-30 04:18:42.85	347.44	60.61	-37.2	-37.1	22.2	0.00e+00	0	41	0	2157969408	44	3611
2026-01-30 04:18:46.83	345.29	61.98	-37.8	-37.7	21.5	0.00e+00	0	41	0	2187329536	45	3690
2026-01-30 04:18:50.83	342.87	63.35	-36.1	-35.9	23.1	0.00e+00	0	41	0	2215641088	42	3549
2026-01-30 04:18:54.82	340.17	64.70	-36.9	-36.8	22.3	0.00e+00	0	41	0	2245001216	43	3700
2026-01-30 04:18:58.80	337.13	66.00	-36.1	-35.9	23.0	0.00e+00	0	41	0	2273312768	42	3564
2026-01-30 04:19:02.78	333.71	67.26	-36.0	-35.9	23.1	0.00e+00	0	41	0	2301624320	41	3738
2026-01-30 04:19:06.77	329.85	68.46	-35.9	-35.8	23.2	0.00e+00	0	41	0	2330984448	42	3494
2026-01-30 04:19:10.76	325.51	69.57	-36.4	-36.3	22.7	0.00e+00	0	41	0	2359296000	42	3707
2026-01-30 04:19:14.77	320.64	70.57	-35.8	-35.7	23.2	0.00e+00	0	41	0	2388656128	42	3456
2026-01-30 04:19:18.75	315.28	71.43	-36.2	-36.0	22.9	0.00e+00	0	41	0	2418016256	42	3609
2026-01-30 04:19:22.75	309.40	72.12	-36.1	-35.9	22.9	0.00e+00	0	41	0	2446327808	42	3561
2026-01-30 04:19:26.75	303.08	72.63	-36.3	-36.2	22.8	0.00e+00	0	41	0	2475687936	42	3653
2026-01-30 04:19:30.76	296.42	72.93	-36.2	-36.1	22.8	0.00e+00	0	41	0	2503999488	42	3628
2026-01-30 04:19:34.76	289.63	73.00	-35.9	-35.8	23.1	0.00e+00	0	41	0	2533359616	41	3712
2026-01-30 04:19:38.75	282.89	72.85	-35.8	-35.6	23.2	0.00e+00	0	41	0	2561671168	41	3639
2026-01-30 04:19:42.74	276.36	72.47	-35.8	-35.7	23.2	0.00e+00	0	41	0	2589982720	41	3674
2026-01-30 04:19:46.74	270.19	71.89	-36.5	-36.4	22.6	0.00e+00	0	41	0	2619342848	42	3744
2026-01-30 04:19:50.74	264.48	71.13	-35.7	-35.6	23.2	0.00e+00	0	41	0	2647654400	41	3626
2026-01-30 04:19:54.72	259.30	70.21	-36.1	-36.0	22.8	0.00e+00	0	41	0	2677014528	42	3593
2026-01-30 04:19:58.72	254.63	69.17	-35.9	-35.7	23.1	0.00e+00	0	41	0	2706374656	42	3480
2026-01-30 04:20:02.73	250.45	68.02	-35.5	-35.4	23.4	0.00e+00	0	41	0	2734686208	41	3546
2026-01-30 04:20:06.74	246.73	66.79	-36.0	-35.9	23.0	0.00e+00	0	41	0	2764046336	41	3738
2026-01-30 04:20:10.73	243.45	65.50	-35.6	-35.4	23.3	0.00e+00	0	41	0	2792357888	41	3557
2026-01-30 04:20:14.74	240.52	64.17	-36.3	-36.2	22.6	0.00e+00	0	41	0	2821718016	42	3678
2026-01-30 04:20:18.73	237.92	62.81	-36.0	-35.9	22.9	0.00e+00	0	41	0	2850029568	42	3543
2026-01-30 04:20:22.73	235.61	61.43	-36.4	-36.3	22.5	0.00e+00	0	41	0	2879389696	42	3712
2026-01-30 04:20:26.73	233.53	60.05	-36.9	-36.8	22.0	0.00e+00	0	41	0	2907701248	43	3732
2026-01-30 04:20:30.72	231.68	58.66	-37.1	-37.0	21.8	0.00e+00	0	41	0	2937061376	43	3783
2026-01-30 04:20:34.73	230.00	57.28	-37.4	-37.3	21.8	0.00e+00	0	41	0	2965372928	44	3710
2026-01-30 04:20:38.74	228.49	55.91	-37.1	-37.0	21.9	0.00e+00	0	41	0	2994733056	44	3602
2026-01-30 04:20:42.74	227.12	54.56	-37.5	-37.4	21.7	0.00e+00	0	41	0	3024093184	44	3749
2026-01-30 04:20:46.74	225.87	53.22	-37.1	-37.0	22.0	0.00e+00	0	41	0	3052404736	44	3600
2026-01-30 04:20:50.73	224.73	51.92	-36.8	-36.7	22.3	0.00e+00	0	41	0	3081764864	44	3462
2026-01-30 04:20:54.73	223.69	50.63	-36.9	-36.8	22.0	0.00e+00	0	41	0	3110076416	43	3729
2026-01-30 04:20:58.74	222.73	49.36	-37.0	-36.9	21.9	0.00e+00	0	41	0	3139436544	43	3758
2026-01-30 04:21:02.74	221.85	48.13	-37.2	-37.1	22.0	0.00e+00	0	41	0	3167748096	44	3612
2026-01-30 04:21:06.74	221.04	46.92	-36.1	-35.9	22.9	0.00e+00	0	41	0	3197108224	42	3555
2026-01-30 04:21:10.74	220.29	45.74	-36.2	-36.1	22.7	0.00e+00	0	41	0	3226468352	42	3614
2026-01-30 04:21:14.75	219.59	44.59	-35.7	-35.6	23.1	0.00e+00	0	41	0	3254779904	42	3427
2026-01-30 04:21:18.75	218.94	43.47	-35.6	-35.5	23.2	0.00e+00	0	41	0	3284140032	41	3576
2026-01-30 04:21:22.74	218.34	42.38	-35.8	-35.7	22.9	0.00e+00	0	41	0	3312451584	41	3666
2026-01-30 04:21:26.74	217.77	41.31	-35.6	-35.5	23.2	0.00e+00	0	41	0	3341811712	41	3582
2026-01-30 04:21:30.74	217.24	40.27	-35.8	-35.6	23.0	0.00e+00	0	41	0	3370123264	41	3638
2026-01-30 04:21:34.74	216.75	39.26	-35.9	-35.8	22.8	0.00e+00	0	41	0	3399483392	41	3714
2026-01-30 04:21:38.74	216.28	38.27	-36.0	-35.9	22.8	0.00e+00	0	41	0	3427794944	41	3738
2026-01-30 04:21:42.75	215.84	37.31	-35.8	-35.7	22.9	0.00e+00	0	41	0	3457155072	41	3672
2026-01-30 04:21:46.75	215.43	36.38	-35.8	-35.7	22.9	0.00e+00	0	41	0	3485466624	41	3681
2026-01-30 04:21:50.74	215.04	35.47	-35.7	-35.5	23.1	0.00e+00	0	41	0	3514826752	41	3605
2026-01-30 04:21:54.74	214.67	34.58	-35.5	-35.3	23.2	0.00e+00	0	41	0	3543138304	41	3521
2026-01-30 04:21:58.74	214.33	33.72	-35.2	-35.1	23.5	0.00e+00	0	41	0	3572498432	41	3423
2026-01-30 04:22:02.75	214.00	32.88	-35.2	-35.0	23.4	0.00e+00	0	41	0	3601858560	41	3402
2026-01-30 04:22:06.75	213.68	32.06	-35.1	-35.0	23.5	0.00e+00	0	41	0	3630170112	40	3581
2026-01-30 04:22:10.76	213.38	31.26	-35.4	-35.3	23.3	0.00e+00	0	41	0	3659530240	40	3713
2026-01-30 04:22:14.76	213.10	30.48	-35.2	-35.0	22.6	0.00e+00	0	41	0	3687841792	40	3603
2026-01-30 04:22:18.76	212.83	29.72	-35.2	-35.0	23.4	0.00e+00	0	41	0	3717201920	40	3594
2026-01-30 04:22:22.77	212.58	28.98	-35.4	-35.3	23.3	0.00e+00	0	41	0	3745513472	40	3695
2026-01-30 04:22:26.76	212.33	28.26	-35.7	-35.6	23.0	0.00e+00	0	41	0	3774873600	40	3829
2026-01-30 04:22:30.76	212.10	27.56	-35.9	-35.8	22.8	0.00e+00	0	42	0	3803185152	41	3714
2026-01-30 04:22:34.76	211.88	26.88	-35.9	-35.8	22.8	0.00e+00	0	41	0	3832545280	41	3704
2026-01-30 04:22:38.77	211.66	26.21	-35.8	-35.7	22.9	0.00e+00	0	41	0	3860856832	41	3654
2026-01-30 04:22:42.76	211.46	25.55	-35.6	-35.5	23.0	0.00e+00	0	41	0	3890216960	41	3588
2026-01-30 04:22:46.76	211.26	24.92	-35.8	-35.6	22.9	0.00e+00	0	41	0	3918528512	41	3636
2026-01-30 04:22:50.77	211.08	24.29	-35.9	-35.7	22.8	0.00e+00	0	41	0	3947888640	41	3690
2026-01-30 04:22:54.77	210.90	23.68	-35.9	-35.7	22.8	0.00e+00	0	41	0	3976200192	41	3694
2026-01-30 04:22:58.77	210.72	23.09	-35.9	-35.7	22.8	0.00e+00	0	41	0	4005560320	41	3694
2026-01-30 04:23:02.77	210.56	22.50	-35.9	-35.8	22.7	0.00e+00	0	41	0	4034920448	41	3712
2026-01-30 04:23:06.76	210.40	21.94	-35.9	-35.7	22.7	0.00e+00	0	41	0	4063232000	41	3689
2026-01-30 04:23:10.76	210.25	21.38	-36.0	-35.8	22.6	0.00e+00	0	41	0	4092592128	41	3735
2026-01-30 04:23:14.75	210.10	20.83	-36.1	-36.0	22.6	0.00e+00	0	41	0	4120903680	41	3795
2026-01-30 04:23:18.72	209.96	20.30	-36.4	-36.3	22.3	0.00e+00	0	41	0	4149215232	42	3717
2026-01-30 04:23:22.71	209.82	19.78	-36.6	-36.5	22.1	0.00e+00	0	42	0	4178575360	42	3785
2026-01-30 04:23:26.69	209.69	19.27	-36.7	-36.6	21.9	0.00e+00	0	42	0	4206886912	43	3647
2026-01-30 04:23:30.68	209.56	18.77	-36.8	-36.7	21.9	0.00e+00	0	41	0	4236247040	43	3681
2026-01-30 04:23:34.67	209.44	18.28	-36.9	-36.8	21.7	0.00e+00	0	41	0	4264558592	43	3728
2026-01-30 04:23:38.66	209.32	17.80	-36.9	-36.8	21.7	0.00e+00	0	41	0	4293918720	43	3734
2026-01-30 04:23:42.65	209.21	17.32	-37.0	-36.9	21.7	0.00e+00	0	41	0	4322230272	43	3749
2026-01-30 04:23:46.64	209.10	16.86	-37.1	-37.0	21.5	0.00e+00	0	42	0	4350541824	43	3810
2026-01-30 04:23:50.62	208.99	16.41	-37.0	-36.9	21.6	0.00e+00	0	41	0	4379901952	43	3770
2026-01-30 04:23:54.60	208.89	15.96	-37.0	-37.0	21.5	0.00e+00	0	41	0	4408213504	43	3790
2026-01-30 04:23:58.59	208.79	15.52	-37.4	-37.3	21.4	0.00e+00	0	41	0	4437573632	44	3729
2026-01-30 04:24:02.58	208.69	15.09	-37.5	-37.5	21.2	0.00e+00	0	42	0	4465885184	44	3787
2026-01-30 04:24:06.56	208.60	14.67	-37.7	-37.6	21.1	0.00e+00	0	41	0	4495245312	44	3866
2026-01-30 04:24:10.55	208.50	14.25	-37.8	-37.8	20.9	0.00e+00	0	42	0	4523556864	45	3707
2026-01-30 04:24:14.53	208.42	13.84	-38.0	-38.0	20.7	0.00e+00	0	41	0	4551868416	45	3782
2026-01-30 04:24:18.52	208.33	13.44	-38.1	-38.1	20.5	0.00e+00	0	42	0	4581228544	45	3848
2026-01-30 04:24:22.51	208.25	13.04	-38.2	-38.2	20.5	0.00e+00	0	42	0	4610588672	45	3881
2026-01-30 04:24:26.50	208.17	12.65	-38.4	-38.3	20.3	0.00e+00	0	42	0	4638900224	46	3737
2026-01-30 04:24:30.49	208.09	12.27	-38.5	-38.5	20.1	0.00e+00	0	42	0	4667211776	46	3810
2026-01-30 04:24:34.47	208.01	11.89	-38.6	-38.6	20.1	0.00e+00	0	42	0	4696571904	46	3836
2026-01-30 04:24:38.46	207.94	11.52	-38.6	-38.6	20.0	0.00e+00	0	42	0	4724883456	46	3858
2026-01-30 04:24:42.44	207.87	11.15	-38.6	-38.7	19.9	0.00e+00	0	41	0	4754243584	46	3871
2026-01-30 04:24:46.43	207.80	10.79	-38.7	-38.7	19.9	0.00e+00	0	41	0	4782555136	46	3907
2026-01-30 04:24:50.42	207.73	10.43	-38.8	-38.9	19.7	0.00e+00	0	41	0	4811915264	47	3749
2026-01-30 04:24:54.42	207.66	10.08	-38.9	-39.0	19.5	0.00e+00	0	41	0	4840226816	47	3812
2026-01-30 04:24:58.41	207.60	9.74	-38.9	-39.0	19.5	0.00e+00	0	41	0	4869586944	47	3792
2026-01-30 04:25:02.39	207.54	9.39	-39.1	-39.2	19.4	0.00e+00	0	42	0	4897898496	47	3874
2026-01-30 04:25:06.39	207.48	9.06	-39.2	-39.3	19.3	0.00e+00	0	41	0	4926210048	47	3929
2026-01-30 04:25:10.37	207.42	8.72	-50.5	-60.4	3.8	8.47e-01	0	42	104	4937744384	70	11903
2026-01-30 04:25:14.37	207.36	8.40	-50.7	-60.5	3.8	8.47e-01	0	42	104	4937744384	70	12086
2026-01-30 04:25:18.36	207.30	8.07	-50.7	-60.6	3.8	8.46e-01	0	42	104	4937744384	71	11432
2026-01-30 04:25:22.35	207.25	7.75	-50.5	-60.7	3.8	8.47e-01	0	42	104	4937744384	71	11589
2026-01-30 04:25:26.33	207.20	7.44	-50.7	-60.6	3.8	8.46e-01	0	42	104	4937744384	71	11533
2026-01-30 04:25:30.32	207.15	7.12	-50.8	-60.6	3.8	8.46e-01	0	42	104	4937744384	71	11483
2026-01-30 04:25:34.31	207.09	6.82	-50.9	-60.6	3.8	8.47e-01	0	42	104	4937744384	71	11502
2026-01-30 04:25:38.32	207.05	6.51	-50.7	-60.6	3.8	8.47e-01	0	42	104	4937744384	71	11537
2026-01-30 04:25:42.33	207.00	6.21	-50.6	-60.6	3.8	8.46e-01	0	42	104	4937744384	71	11439
2026-01-30 04:25:46.32	206.95	5.91	-50.6	-60.6	3.8	8.47e-01	0	42	104	4937744384	71	11427
2026-01-30 04:25:50.33	206.90	5.61	-50.6	-60.6	3.8	8.46e-01	0	42	104	4937744384	71	11456
2026-01-30 04:25:54.33	206.86	5.32	-50.6	-60.6	3.8	8.46e-01	0	42	104	4937744384	71	11426
2026-01-30 04:25:58.33	206.82	5.03	-50.7	-60.6	3.8	8.47e-01	0	42	104	4937744384	71	11493

#Closed at: 2026-01-30 04:26:00
#Recorded file [4937 MB]: D:/Data/31040_260130_071307.dat