passes_logs/2026/01/30/T1/T1__20260130_020946_AQUA_rec.log

#Pass ID: 20260130_020946_AQUA
#Satellite: AQUA
#Configuration: AQUA
#almurnet v.1.7.20251203
#Start time: 2026-01-30 02:09:47

#Version: 2.0.20230620
#Station: T1
#Location: 37.570604 lon 55.790049 lat
#TLE: 1 27424U 02022A   26028.91948147  .00001781  00000+0  36607-3 0  9997
#TLE: 2 27424  98.4103 355.5827 0001815  62.4290   1.4641 14.61871847262923

#Time	Az	El	Level	Level2	SNR	BER	BlckErr	Temp	State	Recorded	gain1	gain2
2026-01-30 02:09:47.00	9.36	5.07	-51.2	-70.6	3.8	7.47e-01	0	41	0	0	73	34832
2026-01-30 02:09:50.01	9.22	5.29	-51.4	-70.7	3.8	7.49e-01	0	41	104	0	73	35026
2026-01-30 02:09:53.02	9.08	5.51	-51.3	-70.6	3.8	7.46e-01	0	41	104	0	73	34820
2026-01-30 02:09:56.04	8.93	5.73	-50.8	-70.6	3.8	7.48e-01	0	41	104	0	73	34593
2026-01-30 02:09:59.05	8.78	5.95	-50.8	-70.5	3.8	7.46e-01	0	41	104	0	72	36376
2026-01-30 02:10:02.07	8.63	6.18	-50.6	-70.5	3.8	7.46e-01	0	41	104	0	71	38420
2026-01-30 02:10:05.08	8.48	6.40	-49.2	-70.2	3.8	7.51e-01	0	41	104	0	70	39573
2026-01-30 02:10:08.09	8.32	6.63	-47.1	-69.9	3.8	7.48e-01	0	42	104	0	64	53884
2026-01-30 02:10:11.10	8.16	6.86	-49.2	-69.6	3.8	7.41e-01	0	42	104	0	69	39069
2026-01-30 02:10:14.12	8.00	7.10	-49.1	-66.4	4.2	7.30e-01	0	42	104	0	69	26885
2026-01-30 02:10:17.13	7.83	7.33	-49.0	-63.3	5.8	6.89e-01	0	42	0	524288	69	18790
2026-01-30 02:10:20.14	7.66	7.57	-49.0	-63.0	6.0	6.84e-01	0	42	0	5767168	69	18161
2026-01-30 02:10:23.15	7.49	7.81	-49.0	-63.6	5.6	6.98e-01	0	42	0	9437184	69	19516
2026-01-30 02:10:26.16	7.31	8.05	-48.9	-61.0	7.7	6.51e-01	0	42	0	14155776	69	14404
2026-01-30 02:10:29.17	7.13	8.30	-48.2	-55.5	13.4	6.05e-01	0	42	0	19398656	68	8155
2026-01-30 02:10:32.19	6.95	8.55	-46.8	-51.4	17.4	6.02e-01	0	42	0	25165824	65	6019
2026-01-30 02:10:35.20	6.76	8.80	-46.5	-50.7	18.3	6.04e-01	0	42	0	30932992	64	5859
2026-01-30 02:10:38.21	6.57	9.05	-47.1	-52.3	16.7	6.05e-01	0	42	0	36700160	64	7067
2026-01-30 02:10:41.27	6.37	9.31	-48.5	-57.9	11.3	6.14e-01	0	43	0	42467328	67	11338
2026-01-30 02:10:44.21	6.18	9.56	-43.2	-45.9	23.0	6.04e-01	0	42	0	47710208	58	4761
2026-01-30 02:10:47.33	5.97	9.83	-42.5	-45.1	23.7	6.03e-01	0	42	0	53477376	56	4926
2026-01-30 02:10:50.49	5.75	10.11	-42.3	-44.9	24.0	6.02e-01	0	43	0	59768832	56	4768
2026-01-30 02:10:53.35	5.55	10.36	-42.2	-44.8	24.1	6.04e-01	0	43	0	65011712	56	4738
2026-01-30 02:10:56.51	5.33	10.64	-42.4	-44.8	24.1	6.05e-01	0	43	0	70778880	56	4719
2026-01-30 02:10:59.37	5.12	10.90	-42.6	-44.7	24.2	6.04e-01	0	42	0	76546048	56	4692
2026-01-30 02:11:02.65	4.87	11.20	-42.5	-44.5	24.4	6.05e-01	0	43	0	82313216	56	4554
2026-01-30 02:11:05.37	4.67	11.45	-42.6	-44.4	24.4	6.05e-01	0	43	0	87556096	56	4544
2026-01-30 02:11:08.62	4.41	11.75	-42.6	-44.3	24.7	6.05e-01	0	43	0	93847552	56	4446
2026-01-30 02:11:11.92	4.15	12.06	-42.6	-44.1	24.8	6.04e-01	0	43	0	99614720	56	4372
2026-01-30 02:11:14.81	3.91	12.34	-42.6	-44.1	24.8	6.05e-01	0	43	0	105381888	56	4355
2026-01-30 02:11:17.96	3.65	12.64	-42.6	-44.1	24.8	6.04e-01	0	43	0	111149056	56	4379
2026-01-30 02:11:21.06	3.39	12.94	-42.6	-44.0	24.9	6.04e-01	0	43	0	116916224	56	4327
2026-01-30 02:11:23.92	3.14	13.23	-42.4	-43.9	25.0	6.05e-01	0	43	0	122159104	56	4253
2026-01-30 02:11:27.08	2.85	13.54	-42.3	-43.8	25.0	6.05e-01	0	43	0	128450560	56	4201
2026-01-30 02:11:29.94	2.59	13.83	-42.2	-43.7	25.2	6.03e-01	0	43	0	133693440	56	4180
2026-01-30 02:11:33.10	2.30	14.15	-42.1	-43.7	25.2	6.03e-01	0	43	0	139460608	56	4171
2026-01-30 02:11:36.15	2.01	14.47	-42.1	-43.6	25.3	6.04e-01	0	43	0	145227776	56	4141
2026-01-30 02:11:39.51	1.68	14.82	-42.0	-43.7	25.3	6.05e-01	0	43	0	151519232	56	4157
2026-01-30 02:11:42.23	1.40	15.11	-41.9	-43.7	25.2	6.04e-01	0	43	0	156762112	55	4394
2026-01-30 02:11:46.02	1.01	15.52	-41.8	-43.6	25.2	6.02e-01	0	43	0	163577856	55	4389
2026-01-30 02:11:48.76	0.72	15.82	-41.7	-43.6	25.3	6.03e-01	0	43	0	168820736	55	4346
2026-01-30 02:11:52.53	0.31	16.23	-41.6	-43.4	25.5	6.02e-01	0	43	0	176160768	55	4269
2026-01-30 02:11:55.57	359.97	16.58	-41.8	-43.4	25.4	6.02e-01	0	43	0	181403648	55	4291
2026-01-30 02:11:58.72	359.61	16.93	-41.9	-43.4	25.5	6.02e-01	0	43	0	187695104	55	4243
2026-01-30 02:12:01.88	359.24	17.30	-42.0	-43.4	25.5	6.03e-01	0	43	0	193462272	55	4265
2026-01-30 02:12:04.75	358.89	17.63	-41.9	-43.4	25.6	6.02e-01	0	43	0	198705152	55	4243
2026-01-30 02:12:07.99	358.49	18.01	-41.9	-43.5	25.5	6.04e-01	0	43	0	204996608	55	4327
2026-01-30 02:12:10.86	358.13	18.36	-41.8	-43.5	25.5	6.04e-01	0	43	0	210239488	55	4295
2026-01-30 02:12:14.01	357.72	18.74	-41.9	-43.6	25.4	6.06e-01	0	43	0	216006656	55	4359
2026-01-30 02:12:17.05	357.31	19.11	-41.8	-43.5	25.5	6.04e-01	0	43	0	221773824	55	4316
2026-01-30 02:12:20.05	356.90	19.48	-42.1	-43.6	25.4	6.03e-01	0	43	0	227540992	55	4365
2026-01-30 02:12:23.06	356.47	19.86	-42.1	-43.5	25.2	6.05e-01	0	43	0	233308160	55	4315
2026-01-30 02:12:26.07	356.04	20.24	-42.1	-43.5	25.5	6.05e-01	0	43	0	239075328	55	4303
2026-01-30 02:12:29.11	355.58	20.63	-42.0	-43.4	25.5	6.03e-01	0	43	0	244318208	55	4278
2026-01-30 02:12:32.19	355.11	21.03	-42.0	-43.4	25.6	6.07e-01	0	43	0	250085376	55	4252
2026-01-30 02:12:35.31	354.62	21.45	-42.1	-43.4	25.5	6.05e-01	0	43	0	256376832	55	4290
2026-01-30 02:12:38.24	354.14	21.84	-42.1	-43.5	25.5	6.05e-01	0	43	0	261619712	55	4318
2026-01-30 02:12:41.53	353.60	22.28	-42.3	-43.8	25.3	6.02e-01	0	43	0	267911168	55	4452
2026-01-30 02:12:44.26	353.13	22.66	-42.5	-43.9	25.1	6.03e-01	0	43	0	273154048	55	4539
2026-01-30 02:12:47.55	352.55	23.11	-42.2	-43.8	25.3	6.03e-01	0	43	0	278921216	55	4446
2026-01-30 02:12:50.27	352.05	23.49	-41.9	-43.6	25.4	6.04e-01	0	43	0	284164096	55	4355
2026-01-30 02:12:53.56	351.44	23.96	-41.7	-43.4	25.6	6.06e-01	0	43	0	290455552	55	4263
2026-01-30 02:12:56.28	350.91	24.35	-42.2	-43.8	25.3	6.06e-01	0	43	0	295698432	55	4460
2026-01-30 02:12:59.58	350.26	24.82	-42.3	-43.7	25.3	6.04e-01	0	43	0	301465600	55	4436
2026-01-30 02:13:02.30	349.70	25.22	-42.3	-43.7	25.4	6.04e-01	0	43	0	306708480	55	4418
2026-01-30 02:13:05.71	348.99	25.72	-42.1	-43.6	25.4	6.05e-01	0	43	0	312999936	55	4384
2026-01-30 02:13:08.51	348.38	26.14	-42.0	-43.4	25.6	6.07e-01	0	43	0	318242816	55	4276
2026-01-30 02:13:11.81	347.64	26.64	-42.0	-43.3	25.7	6.03e-01	0	43	0	324534272	55	4238
2026-01-30 02:13:14.53	347.01	27.05	-41.9	-43.3	25.7	6.03e-01	0	43	0	329777152	55	4202
2026-01-30 02:13:17.83	346.23	27.56	-41.9	-43.4	25.7	6.04e-01	0	43	0	336068608	55	4265
2026-01-30 02:13:20.85	345.49	28.02	-41.9	-43.2	25.8	6.04e-01	0	43	0	341311488	55	4158
2026-01-30 02:13:24.15	344.65	28.53	-41.4	-42.8	26.1	6.06e-01	0	43	0	347602944	54	4230
2026-01-30 02:13:27.01	343.91	28.98	-41.4	-43.0	26.1	6.03e-01	0	43	0	353370112	54	4297
2026-01-30 02:13:30.25	343.03	29.49	-41.6	-43.0	26.0	6.03e-01	0	43	0	359137280	54	4339
2026-01-30 02:13:33.32	342.18	29.97	-41.6	-42.9	26.1	6.03e-01	0	43	0	364904448	54	4274
2026-01-30 02:13:36.69	341.21	30.51	-41.6	-42.9	26.2	6.03e-01	0	43	0	371195904	54	4251
2026-01-30 02:13:39.41	340.40	30.94	-41.3	-42.7	26.3	6.06e-01	0	43	0	376438784	54	4169
2026-01-30 02:13:42.64	339.41	31.45	-41.1	-42.8	26.2	6.04e-01	0	43	0	382205952	54	4198
2026-01-30 02:13:45.51	338.50	31.91	-41.5	-42.9	26.0	6.03e-01	0	43	0	387973120	54	4289
2026-01-30 02:13:48.66	337.48	32.41	-41.5	-42.8	26.2	6.04e-01	0	43	0	393740288	54	4215
2026-01-30 02:13:51.52	336.52	32.86	-41.7	-43.0	25.9	6.04e-01	0	43	0	398983168	54	4326
2026-01-30 02:13:54.79	335.39	33.37	-41.6	-43.2	25.9	6.04e-01	0	43	0	405274624	54	4407
2026-01-30 02:13:57.72	334.34	33.83	-41.7	-43.3	25.6	6.02e-01	0	43	0	410517504	54	4483
2026-01-30 02:14:01.01	333.13	34.34	-42.1	-43.5	25.6	6.03e-01	0	43	0	416808960	54	4573
2026-01-30 02:14:03.75	332.09	34.76	-42.3	-43.7	25.3	6.03e-01	0	43	0	422051840	55	4438
2026-01-30 02:14:07.04	330.80	35.26	-42.4	-44.0	25.1	6.04e-01	0	43	0	428343296	55	4546
2026-01-30 02:14:09.77	329.71	35.67	-42.5	-44.1	25.0	6.04e-01	0	43	0	433061888	55	4631
2026-01-30 02:14:13.27	328.26	36.18	-43.1	-44.7	24.6	6.06e-01	0	43	0	439877632	56	4694
2026-01-30 02:14:15.99	327.10	36.57	-43.0	-44.5	24.8	6.05e-01	0	43	0	445120512	56	4598
2026-01-30 02:14:19.29	325.66	37.03	-43.0	-44.7	24.5	6.06e-01	0	43	0	450887680	57	4441
2026-01-30 02:14:22.06	324.41	37.40	-42.8	-44.8	24.4	6.04e-01	0	43	0	456130560	57	4477
2026-01-30 02:14:25.64	322.76	37.87	-42.8	-44.7	24.5	6.04e-01	0	43	0	462946304	57	4393
2026-01-30 02:14:28.36	321.47	38.21	-43.4	-45.0	24.3	6.04e-01	0	43	0	468189184	57	4552
2026-01-30 02:14:31.66	319.88	38.61	-43.5	-45.0	24.3	6.01e-01	0	43	0	474480640	57	4570
2026-01-30 02:14:34.38	318.53	38.92	-43.5	-45.1	24.1	6.04e-01	0	43	0	479199232	57	4647
2026-01-30 02:14:37.69	316.85	39.28	-43.6	-45.3	23.9	6.05e-01	0	43	0	485490688	58	4481
2026-01-30 02:14:40.47	315.42	39.57	-43.3	-45.1	24.2	6.06e-01	0	43	0	490733568	58	4351
2026-01-30 02:14:43.77	313.68	39.88	-43.2	-44.8	24.5	6.08e-01	0	43	0	497025024	58	4194
2026-01-30 02:14:46.49	312.22	40.12	-43.4	-45.0	24.3	6.06e-01	0	43	0	502267904	58	4305
2026-01-30 02:14:49.79	310.43	40.38	-43.3	-44.9	23.7	6.04e-01	0	43	0	508035072	58	4281
2026-01-30 02:14:52.71	308.82	40.59	-43.1	-44.7	24.6	6.08e-01	0	43	0	513802240	58	4162
2026-01-30 02:14:55.71	307.14	40.77	-42.9	-44.4	24.8	6.04e-01	0	43	0	519569408	57	4283
2026-01-30 02:14:58.76	305.41	40.94	-43.2	-44.7	24.5	6.03e-01	0	44	0	525336576	57	4414
2026-01-30 02:15:01.74	303.71	41.07	-43.1	-44.8	24.5	6.02e-01	0	43	0	530579456	57	4442
2026-01-30 02:15:05.07	301.80	41.18	-43.4	-45.0	24.2	6.03e-01	0	43	0	536870912	57	4577
2026-01-30 02:15:07.80	300.22	41.25	-42.7	-44.3	24.9	6.04e-01	0	43	0	542113792	57	4196
2026-01-30 02:15:11.06	298.32	41.29	-43.4	-45.0	24.3	6.05e-01	0	43	0	548405248	57	4583
2026-01-30 02:15:13.93	296.65	41.31	-42.6	-44.1	25.2	6.04e-01	0	43	0	553648128	56	4353
2026-01-30 02:15:17.08	294.82	41.29	-43.3	-44.9	24.4	6.04e-01	0	43	0	559415296	57	4498
2026-01-30 02:15:19.95	293.15	41.25	-42.8	-44.3	24.9	6.03e-01	0	43	0	564658176	56	4447
2026-01-30 02:15:23.09	291.34	41.17	-44.4	-46.2	23.0	6.06e-01	0	43	0	570949632	59	4680
2026-01-30 02:15:25.96	289.68	41.07	-44.4	-46.1	23.2	6.03e-01	0	43	0	576192512	59	4642
2026-01-30 02:15:29.11	287.88	40.93	-44.0	-45.6	23.3	6.05e-01	0	43	0	581959680	59	4378
2026-01-30 02:15:32.39	286.03	40.75	-45.3	-47.3	22.0	6.04e-01	0	43	0	588251136	61	4748
2026-01-30 02:15:35.25	284.43	40.57	-44.2	-45.9	23.2	6.05e-01	0	43	0	593494016	59	4520
2026-01-30 02:15:38.40	282.69	40.35	-43.7	-45.3	23.9	6.04e-01	0	43	0	599261184	58	4487
2026-01-30 02:15:41.26	281.13	40.12	-44.0	-45.8	23.5	6.04e-01	0	43	0	605028352	58	4717
2026-01-30 02:15:44.42	279.44	39.84	-43.8	-45.5	23.6	6.04e-01	0	43	0	610795520	58	4551
2026-01-30 02:15:47.28	277.93	39.57	-44.1	-45.9	23.1	6.04e-01	0	43	0	616038400	59	4512
2026-01-30 02:15:50.43	276.30	39.24	-43.5	-45.2	23.9	6.03e-01	0	43	0	621805568	58	4392
2026-01-30 02:15:53.30	274.85	38.93	-44.1	-45.8	23.5	6.04e-01	0	43	0	627572736	58	4735
2026-01-30 02:15:56.45	273.29	38.57	-43.7	-45.4	23.7	6.06e-01	0	43	0	633339904	58	4521
2026-01-30 02:15:59.31	271.90	38.22	-42.3	-43.6	25.3	6.04e-01	0	43	0	638582784	56	4124
2026-01-30 02:16:02.78	270.26	37.78	-42.6	-44.0	24.7	6.03e-01	0	43	0	645398528	57	4064
2026-01-30 02:16:05.50	269.00	37.42	-42.9	-44.4	24.4	6.05e-01	0	43	0	650117120	56	4506
2026-01-30 02:16:08.79	267.52	36.97	-42.9	-44.3	24.0	6.04e-01	0	43	0	656408576	57	4242
2026-01-30 02:16:11.61	266.28	36.58	-42.8	-44.2	24.8	6.04e-01	0	43	0	661651456	57	4187
2026-01-30 02:16:14.86	264.90	36.11	-44.0	-45.9	23.2	6.04e-01	0	43	0	667942912	58	4778
2026-01-30 02:16:17.87	263.65	35.67	-43.5	-45.4	23.9	6.05e-01	0	43	0	673710080	57	4765
2026-01-30 02:16:20.87	262.44	35.22	-43.5	-45.3	23.8	6.05e-01	0	43	0	678952960	57	4738
2026-01-30 02:16:23.88	261.26	34.76	-43.4	-45.0	24.2	6.07e-01	0	43	0	684720128	57	4579
2026-01-30 02:16:26.90	260.11	34.30	-43.3	-45.0	24.2	6.05e-01	0	43	0	690487296	57	4579
2026-01-30 02:16:29.91	259.00	33.83	-42.8	-44.3	24.8	6.03e-01	0	43	0	696254464	57	4235
2026-01-30 02:16:32.91	257.92	33.36	-42.9	-44.4	24.7	6.05e-01	0	43	0	701497344	57	4263
2026-01-30 02:16:36.29	256.75	32.83	-42.9	-44.5	24.6	6.04e-01	0	43	0	707788800	57	4313
2026-01-30 02:16:39.02	255.83	32.39	-43.0	-44.5	24.6	6.05e-01	0	43	0	713031680	57	4308
2026-01-30 02:16:42.31	254.75	31.87	-43.3	-44.8	24.3	6.05e-01	0	43	0	719323136	57	4485
2026-01-30 02:16:45.03	253.89	31.43	-42.4	-43.7	25.3	6.05e-01	0	43	0	724566016	56	4179
2026-01-30 02:16:48.55	252.81	30.87	-43.0	-44.5	24.6	6.04e-01	0	43	0	730857472	57	4329
2026-01-30 02:16:51.27	252.00	30.44	-42.4	-43.8	25.3	6.04e-01	0	43	0	736100352	56	4213
2026-01-30 02:16:54.76	251.00	29.88	-42.7	-44.2	24.9	6.05e-01	0	43	0	742916096	56	4409
2026-01-30 02:16:57.49	250.23	29.45	-42.7	-44.1	25.1	6.03e-01	0	43	0	747634688	56	4343
2026-01-30 02:17:00.78	249.34	28.93	-43.0	-44.5	24.5	6.04e-01	0	43	0	753926144	56	4582
2026-01-30 02:17:03.58	248.61	28.49	-42.4	-43.8	25.3	6.04e-01	0	43	0	759169024	56	4224
2026-01-30 02:17:06.84	247.78	27.98	-42.4	-43.9	25.2	6.06e-01	0	43	0	765460480	56	4247
2026-01-30 02:17:09.86	247.03	27.52	-43.1	-44.7	24.4	6.05e-01	0	43	0	771227648	56	4675
2026-01-30 02:17:12.87	246.31	27.05	-42.8	-44.2	24.8	6.04e-01	0	43	0	776470528	56	4424
2026-01-30 02:17:15.87	245.62	26.60	-42.9	-44.4	24.7	6.04e-01	0	43	0	782237696	56	4514
2026-01-30 02:17:18.88	244.94	26.14	-43.1	-44.6	24.5	6.04e-01	0	43	0	788004864	56	4608
2026-01-30 02:17:22.00	244.26	25.67	-43.0	-44.5	24.5	6.02e-01	0	43	0	793772032	56	4557
2026-01-30 02:17:24.86	243.65	25.25	-43.0	-44.5	24.4	6.04e-01	0	43	0	799014912	56	4593
2026-01-30 02:17:28.01	243.00	24.79	-43.1	-44.5	24.5	6.07e-01	0	43	0	804782080	57	4336
2026-01-30 02:17:30.88	242.43	24.37	-43.1	-44.5	24.5	6.05e-01	0	43	0	810549248	57	4329
2026-01-30 02:17:34.03	241.82	23.91	-43.1	-44.7	24.3	6.05e-01	0	43	0	816316416	57	4411
2026-01-30 02:17:36.89	241.28	23.51	-42.8	-44.3	24.7	6.03e-01	0	43	0	821559296	57	4233
2026-01-30 02:17:40.05	240.70	23.06	-43.0	-44.5	24.5	6.03e-01	0	43	0	827326464	57	4307
2026-01-30 02:17:43.16	240.15	22.63	-43.1	-44.6	24.4	6.04e-01	0	43	0	833617920	57	4362
2026-01-30 02:17:46.29	239.61	22.20	-43.1	-44.6	24.4	6.02e-01	0	43	0	839385088	57	4378
2026-01-30 02:17:49.79	239.02	21.72	-43.2	-44.8	24.3	6.04e-01	0	43	0	845676544	57	4445
2026-01-30 02:17:52.51	238.58	21.36	-42.6	-44.1	24.8	6.05e-01	0	43	0	850919424	57	4143
2026-01-30 02:17:55.81	238.05	20.92	-42.9	-44.4	24.6	6.03e-01	0	43	0	857210880	57	4267
2026-01-30 02:17:58.61	237.62	20.56	-43.2	-44.8	24.3	6.06e-01	0	43	0	862453760	57	4462
2026-01-30 02:18:02.08	237.10	20.11	-43.2	-44.7	24.3	6.03e-01	0	43	0	868745216	57	4437
2026-01-30 02:18:04.80	236.71	19.76	-42.8	-44.3	24.6	6.02e-01	0	43	0	873988096	57	4230
2026-01-30 02:18:08.09	236.24	19.35	-42.7	-44.2	24.8	6.04e-01	0	43	0	880279552	57	4152
2026-01-30 02:18:11.07	235.83	18.98	-43.0	-44.5	24.5	6.03e-01	0	43	0	885522432	57	4320
2026-01-30 02:18:14.39	235.38	18.57	-42.8	-44.3	24.6	6.03e-01	0	43	0	891813888	57	4228
2026-01-30 02:18:17.11	235.03	18.24	-43.1	-44.6	24.3	6.05e-01	0	43	0	897056768	57	4377
2026-01-30 02:18:20.40	234.61	17.84	-42.9	-44.4	24.5	6.06e-01	0	43	0	903348224	57	4271
2026-01-30 02:18:23.20	234.26	17.51	-42.6	-44.1	24.8	6.06e-01	0	44	0	908591104	57	4130
2026-01-30 02:18:26.65	233.84	17.11	-43.0	-44.5	24.4	6.02e-01	0	43	0	914882560	57	4320
2026-01-30 02:18:29.37	233.52	16.80	-43.1	-44.6	24.3	6.05e-01	0	44	0	920125440	57	4382
2026-01-30 02:18:32.79	233.13	16.41	-42.7	-44.2	24.7	6.05e-01	0	43	0	926416896	57	4169
2026-01-30 02:18:35.51	232.83	16.10	-42.9	-44.4	24.5	6.03e-01	0	43	0	931659776	57	4279
2026-01-30 02:18:38.81	232.46	15.74	-43.3	-44.9	24.0	6.05e-01	0	43	0	937951232	57	4515
2026-01-30 02:18:41.76	232.15	15.42	-42.9	-44.4	24.5	6.03e-01	0	43	0	943194112	57	4277
2026-01-30 02:18:45.53	231.76	15.01	-42.9	-44.4	24.5	6.03e-01	0	43	0	950534144	57	4264
2026-01-30 02:18:48.31	231.48	14.71	-43.2	-44.7	24.1	6.06e-01	0	43	0	955777024	57	4433
2026-01-30 02:18:51.62	231.15	14.36	-43.2	-44.7	24.2	6.05e-01	0	43	0	961544192	57	4425
2026-01-30 02:18:54.75	230.85	14.04	-43.1	-44.7	24.2	6.05e-01	0	43	0	967311360	57	4399
2026-01-30 02:18:57.60	230.58	13.75	-43.0	-44.6	24.2	6.03e-01	0	43	0	973078528	57	4361
2026-01-30 02:19:00.75	230.29	13.43	-43.0	-44.5	24.3	6.03e-01	0	43	0	978845696	57	4340
2026-01-30 02:19:03.61	230.03	13.14	-43.1	-44.6	24.2	6.02e-01	0	43	0	984088576	57	4362
2026-01-30 02:19:06.89	229.74	12.81	-43.3	-44.9	23.9	6.04e-01	0	43	0	990380032	57	4504
2026-01-30 02:19:09.65	229.50	12.54	-43.3	-44.9	23.9	6.04e-01	0	43	0	995622912	57	4511
2026-01-30 02:19:13.42	229.18	12.18	-43.2	-44.8	24.0	6.03e-01	0	43	0	1002438656	57	4461
2026-01-30 02:19:16.16	228.96	11.92	-43.2	-44.8	24.0	6.05e-01	0	43	0	1007681536	57	4456
2026-01-30 02:19:19.92	228.66	11.56	-43.4	-45.0	23.8	6.04e-01	0	43	0	1015021568	57	4557
2026-01-30 02:19:22.69	228.44	11.30	-43.6	-45.2	23.6	6.05e-01	0	43	0	1020264448	57	4690
2026-01-30 02:19:26.46	228.15	10.96	-43.5	-45.2	23.6	6.03e-01	0	43	0	1027080192	57	4668
2026-01-30 02:19:29.27	227.94	10.70	-43.4	-45.1	23.6	6.05e-01	0	43	0	1032323072	57	4631
2026-01-30 02:19:32.72	227.69	10.39	-43.3	-44.9	23.8	6.04e-01	0	43	0	1038614528	57	4528
2026-01-30 02:19:35.46	227.49	10.14	-43.2	-44.9	23.8	6.04e-01	0	43	0	1043857408	57	4517
2026-01-30 02:19:38.73	227.26	9.86	-43.5	-45.2	23.5	6.05e-01	0	43	0	1050148864	57	4657
2026-01-30 02:19:41.83	227.04	9.59	-43.6	-45.4	23.3	6.05e-01	0	44	0	1055916032	57	4767
2026-01-30 02:19:44.84	226.84	9.33	-43.6	-45.3	23.4	6.02e-01	0	43	0	1061683200	58	4477
2026-01-30 02:19:47.90	226.64	9.07	-43.7	-45.5	23.2	6.04e-01	0	43	0	1067450368	58	4566
2026-01-30 02:19:51.20	226.42	8.79	-50.2	-69.5	3.8	7.46e-01	0	43	104	1069023232	71	34225
2026-01-30 02:19:53.93	226.25	8.56	-50.4	-69.8	3.8	7.47e-01	0	44	104	1069023232	72	33563
2026-01-30 02:19:57.22	226.05	8.29	-49.9	-69.9	3.8	7.45e-01	0	43	104	1069023232	71	36006
2026-01-30 02:19:59.95	225.88	8.06	-50.2	-69.8	3.8	7.45e-01	0	44	104	1069023232	71	35668
2026-01-30 02:20:03.25	225.68	7.80	-50.0	-68.5	3.8	7.47e-01	0	43	104	1069023232	71	30617
2026-01-30 02:20:05.97	225.52	7.58	-50.5	-69.9	3.8	7.47e-01	0	43	104	1069023232	71	35809
2026-01-30 02:20:09.27	225.33	7.31	-50.5	-69.9	3.8	7.48e-01	0	43	104	1069023232	71	35713
2026-01-30 02:20:12.00	225.17	7.10	-50.0	-69.8	3.8	7.49e-01	0	44	104	1069023232	71	35628
2026-01-30 02:20:15.30	224.99	6.84	-50.0	-69.9	3.8	7.45e-01	0	44	104	1069023232	71	35741
2026-01-30 02:20:18.03	224.84	6.63	-50.0	-69.8	3.8	7.44e-01	0	44	104	1069023232	71	35603
2026-01-30 02:20:21.33	224.66	6.38	-50.0	-69.9	3.8	7.45e-01	0	44	104	1069023232	71	35706
2026-01-30 02:20:24.05	224.52	6.17	-50.0	-69.8	3.8	7.46e-01	0	44	104	1069023232	71	35679
2026-01-30 02:20:27.35	224.35	5.92	-50.0	-69.8	3.8	7.47e-01	0	43	104	1069023232	71	35645
2026-01-30 02:20:30.08	224.21	5.72	-50.0	-69.8	3.8	7.46e-01	0	44	104	1069023232	71	35688
2026-01-30 02:20:33.38	224.05	5.47	-50.0	-69.8	3.8	7.47e-01	0	43	104	1069023232	71	35648
2026-01-30 02:20:36.10	223.91	5.27	-50.0	-69.8	3.8	7.47e-01	0	44	104	1069023232	71	35632
2026-01-30 02:20:39.40	223.75	5.03	-50.0	-69.8	3.8	7.44e-01	0	44	104	1069023232	71	35596

#Closed at: 2026-01-30 02:20:41
#Recorded file [1069 MB]: D:/Data/31040_260130_050946.dat