passes_logs/2026/01/30/T1/T1__20260130_055351_FENGYUN_3E_rec.log

#Pass ID: 20260130_055351_FENGYUN 3E
#Satellite: FENGYUN 3E
#Configuration: FENGYUN 3E
#almurnet v.1.7.20251203
#Start time: 2026-01-30 05:53:53

#Version: 2.0.20230620
#Station: T1
#Location: 37.570604 lon 55.790049 lat
#TLE: 1 49008U 21062A   26029.52207456 -.00000035  00000+0  41692-5 0  9997
#TLE: 2 49008  98.7499  34.4814 0002557 110.8023 249.3427 14.19887743236900

#Time	Az	El	Level	Level2	SNR	BER	BlckErr	Temp	State	Recorded	gain1	gain2
2026-01-30 05:53:53.32	4.87	5.11	-51.0	-60.7	3.8	8.46e-01	0	41	0	0	71	11682
2026-01-30 05:53:56.33	4.60	5.28	-50.7	-60.8	3.8	8.47e-01	0	41	104	0	72	11107
2026-01-30 05:53:59.34	4.31	5.45	-51.0	-60.7	3.8	8.46e-01	0	41	104	0	71	11666
2026-01-30 05:54:02.35	4.03	5.62	-50.5	-60.7	3.8	8.47e-01	0	41	104	0	71	11630
2026-01-30 05:54:05.37	3.74	5.80	-50.5	-60.6	3.8	8.47e-01	0	42	104	0	71	11505
2026-01-30 05:54:08.38	3.45	5.97	-50.0	-60.6	3.8	8.47e-01	0	42	104	0	70	12229
2026-01-30 05:54:11.39	3.16	6.14	-50.1	-60.5	3.8	8.46e-01	0	42	104	0	70	11959
2026-01-30 05:54:14.40	2.86	6.32	-48.7	-60.1	3.8	8.46e-01	0	42	104	0	68	12928
2026-01-30 05:54:17.42	2.56	6.49	-48.7	-60.2	3.8	8.47e-01	0	42	104	0	68	13045
2026-01-30 05:54:20.43	2.25	6.67	-48.6	-60.1	3.8	8.47e-01	0	42	104	0	68	12902
2026-01-30 05:54:23.44	1.94	6.84	-48.6	-60.1	3.8	8.46e-01	0	42	104	0	68	12836
2026-01-30 05:54:26.46	1.63	7.02	-48.7	-59.9	3.8	8.47e-01	0	42	104	0	68	12658
2026-01-30 05:54:29.47	1.31	7.20	-48.6	-59.9	3.8	8.46e-01	0	42	104	0	68	12606
2026-01-30 05:54:32.48	0.99	7.37	-48.7	-59.7	3.8	8.46e-01	0	42	104	0	67	13105
2026-01-30 05:54:35.49	0.66	7.55	-48.5	-59.9	3.8	8.46e-01	0	42	104	0	67	13309
2026-01-30 05:54:38.51	0.33	7.73	-48.5	-60.0	3.8	8.47e-01	0	42	104	0	67	13486
2026-01-30 05:54:41.52	360.00	7.91	-48.5	-59.5	3.8	8.48e-01	0	42	104	0	67	12805
2026-01-30 05:54:44.53	359.66	8.09	-48.3	-57.9	3.8	8.46e-01	0	43	104	0	67	10606
2026-01-30 05:54:47.55	359.32	8.27	-48.1	-56.9	4.1	8.41e-01	0	43	0	0	67	9444
2026-01-30 05:54:50.56	358.97	8.44	-48.0	-55.8	4.4	8.33e-01	0	43	0	0	66	8806
2026-01-30 05:54:53.57	358.62	8.62	-46.8	-51.1	7.6	1.65e-01	0	43	0	8388608	64	5779
2026-01-30 05:54:56.58	358.26	8.80	-44.9	-46.9	12.1	4.08e-04	0	43	0	30408704	60	4469
2026-01-30 05:54:59.59	357.90	8.98	-43.9	-45.2	13.8	6.80e-06	0	43	0	51380224	58	4100
2026-01-30 05:55:02.60	357.54	9.16	-44.1	-45.6	13.4	2.86e-05	0	43	0	73400320	58	4298
2026-01-30 05:55:05.61	357.17	9.34	-40.2	-40.6	18.3	0.00e+00	0	43	0	88080384	51	3624
2026-01-30 05:55:08.62	356.79	9.52	-40.1	-40.5	18.4	0.00e+00	0	43	0	109051904	50	3795
2026-01-30 05:55:11.63	356.41	9.70	-40.2	-40.7	18.3	0.00e+00	0	43	0	131072000	50	3882
2026-01-30 05:55:14.56	356.04	9.88	-40.1	-40.6	18.4	0.00e+00	0	43	0	152043520	50	3836
2026-01-30 05:55:17.66	355.64	10.06	-39.7	-40.1	18.8	0.00e+00	0	43	0	175112192	50	3650
2026-01-30 05:55:20.97	355.21	10.26	-39.6	-40.2	18.7	0.00e+00	0	43	0	198180864	49	3885
2026-01-30 05:55:23.72	354.84	10.43	-39.2	-39.7	19.2	0.00e+00	0	43	0	218103808	49	3656
2026-01-30 05:55:27.02	354.40	10.62	-38.9	-39.5	19.3	0.00e+00	0	43	0	242221056	48	3822
2026-01-30 05:55:29.74	354.03	10.79	-38.8	-39.5	19.5	0.00e+00	0	43	0	262144000	48	3788
2026-01-30 05:55:33.03	353.58	10.98	-39.2	-39.8	19.1	0.00e+00	0	43	0	286261248	48	3948
2026-01-30 05:55:35.75	353.20	11.14	-39.4	-39.9	19.1	0.00e+00	0	43	0	305135616	48	3985
2026-01-30 05:55:39.05	352.73	11.34	-39.5	-39.9	19.1	0.00e+00	0	43	0	329252864	48	3973
2026-01-30 05:55:41.77	352.34	11.50	-39.3	-39.5	19.4	0.00e+00	0	43	0	349175808	48	3819
2026-01-30 05:55:45.40	351.82	11.72	-39.1	-39.3	19.7	0.00e+00	0	43	0	375390208	48	3703
2026-01-30 05:55:48.32	351.39	11.89	-39.0	-39.1	19.9	0.00e+00	0	43	0	396361728	48	3627
2026-01-30 05:55:52.10	350.82	12.12	-38.6	-38.7	20.2	0.00e+00	0	43	0	423624704	48	3483
2026-01-30 05:55:54.88	350.41	12.28	-38.5	-38.6	20.1	0.00e+00	0	43	0	443547648	47	3644
2026-01-30 05:55:58.67	349.83	12.50	-38.6	-38.8	19.9	0.00e+00	0	44	0	470810624	47	3730
2026-01-30 05:56:01.62	349.37	12.68	-38.8	-39.0	19.8	0.00e+00	0	43	0	491782144	47	3786
2026-01-30 05:56:04.91	348.85	12.87	-39.0	-39.2	19.6	0.00e+00	0	43	0	515899392	47	3888
2026-01-30 05:56:07.63	348.42	13.03	-38.9	-39.0	19.7	0.00e+00	0	43	0	535822336	47	3810
2026-01-30 05:56:10.93	347.89	13.22	-38.7	-38.9	19.9	0.00e+00	0	43	0	559939584	47	3750
2026-01-30 05:56:13.86	347.41	13.39	-38.6	-38.8	19.9	0.00e+00	0	43	0	580911104	47	3707
2026-01-30 05:56:17.76	346.77	13.61	-38.6	-38.8	20.0	0.00e+00	0	44	0	608174080	47	3718
2026-01-30 05:56:20.50	346.31	13.77	-38.6	-38.7	20.0	0.00e+00	0	43	0	628097024	47	3674
2026-01-30 05:56:24.49	345.63	13.99	-38.6	-38.8	20.0	0.00e+00	0	43	0	657457152	47	3715
2026-01-30 05:56:27.66	345.09	14.17	-38.4	-38.5	20.2	0.00e+00	0	43	0	680525824	47	3605
2026-01-30 05:56:31.47	344.42	14.38	-38.2	-38.3	20.4	0.00e+00	0	44	0	707788800	47	3513
2026-01-30 05:56:34.28	343.93	14.54	-38.3	-38.3	20.4	0.00e+00	0	43	0	727711744	47	3525
2026-01-30 05:56:37.58	343.34	14.72	-38.2	-38.3	20.4	0.00e+00	0	43	0	751828992	47	3514
2026-01-30 05:56:40.30	342.84	14.87	-38.1	-38.2	20.6	0.00e+00	0	44	0	771751936	47	3464
2026-01-30 05:56:43.60	342.24	15.04	-38.0	-38.0	20.7	0.00e+00	0	44	0	794820608	46	3606
2026-01-30 05:56:46.32	341.74	15.19	-37.8	-37.7	21.0	0.00e+00	0	44	0	814743552	46	3479
2026-01-30 05:56:49.57	341.13	15.36	-37.8	-37.8	21.0	0.00e+00	0	43	0	837812224	46	3508
2026-01-30 05:56:52.57	340.57	15.52	-37.8	-37.8	21.0	0.00e+00	0	43	0	859832320	46	3502
2026-01-30 05:56:55.58	339.99	15.67	-37.7	-37.7	21.1	0.00e+00	0	43	0	881852416	46	3460
2026-01-30 05:56:58.59	339.41	15.82	-37.7	-37.6	21.1	0.00e+00	0	44	0	903872512	46	3438
2026-01-30 05:57:02.00	338.75	15.99	-37.6	-37.6	21.1	0.00e+00	0	44	0	927989760	46	3446
2026-01-30 05:57:04.72	338.21	16.13	-37.7	-37.7	21.1	0.00e+00	0	44	0	947912704	46	3449
2026-01-30 05:57:08.08	337.54	16.29	-37.6	-37.6	21.1	0.00e+00	0	44	0	972029952	46	3422
2026-01-30 05:57:10.87	336.98	16.43	-37.6	-37.5	21.2	0.00e+00	0	44	0	991952896	45	3609
2026-01-30 05:57:14.17	336.31	16.58	-37.6	-37.6	21.2	0.00e+00	0	44	0	1016070144	45	3612
2026-01-30 05:57:16.89	335.76	16.71	-37.6	-37.6	21.2	0.00e+00	0	43	0	1035993088	45	3628
2026-01-30 05:57:20.18	335.08	16.85	-37.6	-37.6	21.1	0.00e+00	0	44	0	1059061760	45	3629
2026-01-30 05:57:22.90	334.51	16.97	-37.6	-37.6	21.2	0.00e+00	0	43	0	1078984704	45	3617
2026-01-30 05:57:26.26	333.80	17.12	-37.5	-37.5	21.2	0.00e+00	0	43	0	1103101952	45	3583
2026-01-30 05:57:28.99	333.22	17.24	-37.5	-37.4	21.3	0.00e+00	0	44	0	1123024896	45	3565
2026-01-30 05:57:32.29	332.52	17.37	-37.3	-37.3	21.4	0.00e+00	0	44	0	1147142144	45	3515
2026-01-30 05:57:35.01	331.93	17.48	-37.1	-37.1	21.6	0.00e+00	0	44	0	1166016512	45	3427
2026-01-30 05:57:38.44	331.18	17.62	-37.0	-36.9	21.8	0.00e+00	0	44	0	1191182336	44	3557
2026-01-30 05:57:41.19	330.58	17.72	-37.1	-37.0	21.7	0.00e+00	0	44	0	1211105280	44	3606
2026-01-30 05:57:44.58	329.83	17.85	-37.1	-37.0	21.7	0.00e+00	0	43	0	1235222528	44	3584
2026-01-30 05:57:47.30	329.22	17.94	-37.1	-37.1	21.6	0.00e+00	0	43	0	1255145472	44	3635
2026-01-30 05:57:50.74	328.45	18.06	-37.1	-37.1	21.6	0.00e+00	0	44	0	1280311296	44	3633
2026-01-30 05:57:53.46	327.83	18.15	-37.0	-36.9	21.8	0.00e+00	0	44	0	1299185664	44	3561
2026-01-30 05:57:56.75	327.08	18.26	-36.8	-36.8	21.9	0.00e+00	0	44	0	1323302912	44	3508
2026-01-30 05:57:59.57	326.44	18.35	-36.9	-36.8	21.9	0.00e+00	0	44	0	1343225856	44	3520
2026-01-30 05:58:02.72	325.71	18.44	-37.0	-36.9	21.8	0.00e+00	0	43	0	1366294528	44	3555
2026-01-30 05:58:05.59	325.05	18.52	-37.1	-37.0	21.7	0.00e+00	0	44	0	1387266048	44	3590
2026-01-30 05:58:08.74	324.31	18.60	-37.1	-37.0	21.7	0.00e+00	0	44	0	1410334720	44	3601
2026-01-30 05:58:11.62	323.64	18.68	-37.0	-36.9	21.8	0.00e+00	0	44	0	1430257664	44	3558
2026-01-30 05:58:15.14	322.81	18.76	-36.8	-36.8	21.9	0.00e+00	0	44	0	1456472064	44	3492
2026-01-30 05:58:18.26	322.07	18.83	-36.7	-36.6	22.0	0.00e+00	0	44	0	1478492160	44	3443
2026-01-30 05:58:21.12	321.39	18.89	-36.7	-36.6	22.1	0.00e+00	0	43	0	1499463680	44	3412
2026-01-30 05:58:24.40	320.61	18.95	-36.7	-36.7	22.0	0.00e+00	0	44	0	1522532352	44	3451
2026-01-30 05:58:27.26	319.92	19.00	-36.8	-36.8	21.9	0.00e+00	0	43	0	1543503872	44	3502
2026-01-30 05:58:30.49	319.14	19.05	-36.7	-36.7	22.0	0.00e+00	0	44	0	1566572544	44	3454
2026-01-30 05:58:33.35	318.45	19.09	-36.7	-36.7	22.0	0.00e+00	0	43	0	1587544064	44	3478
2026-01-30 05:58:36.50	317.69	19.13	-36.7	-36.6	22.0	0.00e+00	0	44	0	1610612736	44	3442
2026-01-30 05:58:39.37	317.00	19.17	-36.7	-36.6	22.1	0.00e+00	0	44	0	1630535680	44	3417
2026-01-30 05:58:42.52	316.23	19.20	-36.7	-36.6	22.1	0.00e+00	0	43	0	1653604352	44	3411
2026-01-30 05:58:45.39	315.53	19.22	-36.4	-36.3	22.2	0.00e+00	0	44	0	1674575872	43	3522
2026-01-30 05:58:48.68	314.73	19.24	-36.4	-36.3	22.2	0.00e+00	0	44	0	1698693120	43	3514
2026-01-30 05:58:51.41	314.06	19.25	-36.4	-36.3	22.2	0.00e+00	0	44	0	1717567488	43	3491
2026-01-30 05:58:54.67	313.27	19.26	-36.4	-36.3	22.2	0.00e+00	0	44	0	1740636160	43	3510
2026-01-30 05:58:57.74	312.51	19.27	-36.5	-36.4	22.1	0.00e+00	0	44	0	1763704832	43	3560
2026-01-30 05:59:00.60	311.81	19.27	-36.4	-36.3	22.2	0.00e+00	0	44	0	1783627776	43	3508
2026-01-30 05:59:03.75	311.04	19.26	-36.4	-36.4	22.1	0.00e+00	0	44	0	1806696448	43	3530
2026-01-30 05:59:06.60	310.35	19.25	-36.5	-36.4	22.1	0.00e+00	0	44	0	1827667968	43	3566
2026-01-30 05:59:10.14	309.48	19.24	-36.5	-36.4	22.1	0.00e+00	0	44	0	1852833792	43	3556
2026-01-30 05:59:12.87	308.82	19.22	-36.5	-36.4	22.1	0.00e+00	0	44	0	1872756736	43	3542
2026-01-30 05:59:16.16	308.02	19.19	-36.6	-36.5	22.1	0.00e+00	0	44	0	1896873984	43	3581
2026-01-30 05:59:18.93	307.34	19.16	-36.5	-36.3	22.1	0.00e+00	0	44	0	1916796928	43	3527
2026-01-30 05:59:22.20	306.55	19.12	-36.3	-36.2	22.3	0.00e+00	0	44	0	1939865600	43	3460
2026-01-30 05:59:25.34	305.79	19.08	-36.5	-36.4	22.1	0.00e+00	0	44	0	1962934272	43	3543
2026-01-30 05:59:28.44	305.04	19.03	-36.5	-36.4	22.1	0.00e+00	0	44	0	1984954368	43	3554
2026-01-30 05:59:31.58	304.29	18.98	-36.5	-36.4	22.1	0.00e+00	0	43	0	2008023040	43	3549
2026-01-30 05:59:34.45	303.60	18.93	-36.3	-36.2	22.3	0.00e+00	0	44	0	2027945984	43	3473
2026-01-30 05:59:37.60	302.85	18.87	-36.6	-36.5	22.0	0.00e+00	0	44	0	2051014656	43	3576
2026-01-30 05:59:41.10	302.01	18.79	-36.5	-36.4	22.1	0.00e+00	0	43	0	2076180480	43	3568
2026-01-30 05:59:44.27	301.26	18.72	-36.4	-36.3	22.2	0.00e+00	0	44	0	2099249152	43	3495
2026-01-30 05:59:47.14	300.59	18.65	-36.5	-36.3	22.2	0.00e+00	0	44	0	2120220672	43	3525
2026-01-30 05:59:50.40	299.82	18.57	-36.6	-36.5	22.0	0.00e+00	0	44	0	2143289344	43	3597
2026-01-30 05:59:53.38	299.13	18.49	-36.6	-36.5	22.0	0.00e+00	0	44	0	2165309440	43	3579
2026-01-30 05:59:56.82	298.33	18.39	-36.6	-36.5	22.0	0.00e+00	0	43	0	2189426688	43	3580
2026-01-30 05:59:59.54	297.71	18.31	-36.5	-36.4	22.1	0.00e+00	0	44	0	2209349632	43	3544
2026-01-30 06:00:02.83	296.95	18.20	-36.7	-36.6	21.9	0.00e+00	0	44	0	2233466880	43	3631
2026-01-30 06:00:05.60	296.32	18.11	-36.6	-36.5	22.0	0.00e+00	0	44	0	2253389824	43	3588
2026-01-30 06:00:08.90	295.58	18.00	-36.7	-36.5	21.9	0.00e+00	0	44	0	2277507072	43	3610
2026-01-30 06:00:11.62	294.97	17.90	-36.9	-36.8	21.7	0.00e+00	0	44	0	2296381440	43	3714
2026-01-30 06:00:14.91	294.23	17.79	-37.1	-37.0	21.5	0.00e+00	0	44	0	2320498688	43	3811
2026-01-30 06:00:17.79	293.60	17.68	-37.1	-37.0	21.5	0.00e+00	0	44	0	2341470208	43	3821
2026-01-30 06:00:21.15	292.86	17.55	-36.9	-36.8	21.7	0.00e+00	0	44	0	2365587456	43	3728
2026-01-30 06:00:24.22	292.19	17.42	-37.2	-37.1	21.4	0.00e+00	0	44	0	2387607552	43	3841
2026-01-30 06:00:27.09	291.57	17.31	-37.5	-37.4	21.3	0.00e+00	0	44	0	2408579072	44	3754
2026-01-30 06:00:30.27	290.89	17.17	-37.4	-37.3	21.3	0.00e+00	0	44	0	2431647744	44	3726
2026-01-30 06:00:33.13	290.28	17.05	-37.3	-37.2	21.4	0.00e+00	0	44	0	2452619264	44	3669
2026-01-30 06:00:36.30	289.62	16.91	-37.2	-37.1	21.5	0.00e+00	0	44	0	2474639360	44	3652
2026-01-30 06:00:39.45	288.96	16.77	-37.3	-37.2	21.4	0.00e+00	0	44	0	2497708032	44	3689
2026-01-30 06:00:42.32	288.37	16.64	-37.4	-37.3	21.3	0.00e+00	0	44	0	2518679552	44	3729
2026-01-30 06:00:45.60	287.70	16.48	-37.4	-37.3	21.3	0.00e+00	0	44	0	2541748224	44	3727
2026-01-30 06:00:48.32	287.15	16.36	-37.3	-37.3	21.4	0.00e+00	0	43	0	2561671168	44	3695
2026-01-30 06:00:51.61	286.48	16.20	-37.3	-37.3	21.4	0.00e+00	0	44	0	2585788416	44	3696
2026-01-30 06:00:54.48	285.91	16.06	-37.4	-37.4	21.3	0.00e+00	0	44	0	2606759936	44	3742
2026-01-30 06:00:57.63	285.30	15.90	-37.4	-37.4	21.3	0.00e+00	0	44	0	2628780032	44	3739
2026-01-30 06:01:01.12	284.62	15.72	-37.4	-37.3	21.3	0.00e+00	0	44	0	2653945856	44	3711
2026-01-30 06:01:03.83	284.09	15.58	-37.3	-37.2	21.4	0.00e+00	0	44	0	2673868800	44	3694
2026-01-30 06:01:07.19	283.45	15.41	-37.4	-37.4	21.3	0.00e+00	0	44	0	2697986048	44	3743
2026-01-30 06:01:09.92	282.94	15.26	-37.6	-37.5	21.1	0.00e+00	0	43	0	2717908992	44	3817
2026-01-30 06:01:13.21	282.33	15.09	-37.8	-37.7	21.0	0.00e+00	0	44	0	2740977664	44	3897
2026-01-30 06:01:15.93	281.83	14.94	-37.7	-37.6	21.0	0.00e+00	0	44	0	2760900608	45	3630
2026-01-30 06:01:19.23	281.22	14.76	-37.7	-37.7	21.0	0.00e+00	0	44	0	2785017856	45	3655
2026-01-30 06:01:21.95	280.73	14.62	-37.8	-37.7	20.9	0.00e+00	0	44	0	2804940800	45	3693
2026-01-30 06:01:25.25	280.14	14.43	-38.0	-37.9	20.7	0.00e+00	0	44	0	2828009472	45	3779
2026-01-30 06:01:27.97	279.67	14.28	-38.1	-38.0	20.6	0.00e+00	0	44	0	2847932416	45	3821
2026-01-30 06:01:31.25	279.09	14.10	-38.1	-38.1	20.5	0.00e+00	0	44	0	2872049664	45	3858
2026-01-30 06:01:33.97	278.62	13.94	-38.1	-38.1	20.6	0.00e+00	0	44	0	2890924032	45	3834
2026-01-30 06:01:37.27	278.06	13.76	-37.9	-37.9	20.7	0.00e+00	0	44	0	2915041280	45	3761
2026-01-30 06:01:40.01	277.60	13.60	-37.9	-37.9	20.7	0.00e+00	0	44	0	2934964224	45	3754
2026-01-30 06:01:43.62	277.00	13.39	-38.0	-37.9	20.7	0.00e+00	0	44	0	2961178624	45	3778
2026-01-30 06:01:46.34	276.55	13.24	-38.0	-38.0	20.7	0.00e+00	0	44	0	2980052992	45	3805
2026-01-30 06:01:49.99	275.96	13.02	-38.1	-38.0	20.6	0.00e+00	0	44	0	3007315968	45	3816
2026-01-30 06:01:52.74	275.52	12.86	-38.1	-38.0	20.6	0.00e+00	0	44	0	3027238912	45	3821
2026-01-30 06:01:56.68	274.90	12.63	-38.2	-38.2	20.4	0.00e+00	0	44	0	3055550464	45	3892
2026-01-30 06:01:59.70	274.43	12.45	-38.2	-38.2	20.4	0.00e+00	0	44	0	3076521984	46	3673
2026-01-30 06:02:03.45	273.85	12.23	-38.4	-38.4	20.2	0.00e+00	0	44	0	3103784960	46	3770
2026-01-30 06:02:06.20	273.44	12.07	-38.5	-38.5	20.1	0.00e+00	0	44	0	3123707904	46	3811
2026-01-30 06:02:10.04	272.86	11.84	-38.7	-38.7	19.9	0.00e+00	0	44	0	3152019456	46	3887
2026-01-30 06:02:12.79	272.46	11.68	-38.8	-38.8	19.8	0.00e+00	0	44	0	3171942400	47	3736
2026-01-30 06:02:16.53	271.91	11.45	-38.5	-38.5	20.0	0.00e+00	0	44	0	3198156800	47	3591
2026-01-30 06:02:19.32	271.51	11.29	-38.2	-38.2	20.4	0.00e+00	0	44	0	3218079744	47	3458
2026-01-30 06:02:22.74	271.03	11.08	-38.3	-38.3	20.3	0.00e+00	0	44	0	3243245568	47	3509
2026-01-30 06:02:25.46	270.64	10.92	-38.6	-38.6	20.0	0.00e+00	0	44	0	3263168512	47	3623
2026-01-30 06:02:28.75	270.19	10.72	-38.8	-38.8	19.8	0.00e+00	0	44	0	3286237184	47	3728
2026-01-30 06:02:31.47	269.82	10.56	-38.9	-39.0	19.6	0.00e+00	0	44	0	3306160128	47	3794
2026-01-30 06:02:34.77	269.37	10.36	-38.8	-38.9	19.7	0.00e+00	0	44	0	3330277376	47	3738
2026-01-30 06:02:37.72	268.98	10.18	-38.8	-38.9	19.7	0.00e+00	0	44	0	3351248896	47	3746
2026-01-30 06:02:41.02	268.55	9.99	-39.0	-39.1	19.5	0.00e+00	0	44	0	3375366144	47	3827
2026-01-30 06:02:44.29	268.12	9.79	-38.8	-38.9	19.7	0.00e+00	0	44	0	3398434816	47	3750
2026-01-30 06:02:47.00	267.78	9.63	-38.8	-38.9	19.7	0.00e+00	0	44	0	3418357760	47	3746
2026-01-30 06:02:50.56	267.33	9.41	-38.8	-38.9	19.6	0.00e+00	0	44	0	3443523584	47	3746
2026-01-30 06:02:53.28	266.99	9.25	-39.0	-39.0	19.5	0.00e+00	0	44	0	3463446528	47	3816
2026-01-30 06:02:56.57	266.58	9.05	-39.2	-39.2	19.3	0.00e+00	0	44	0	3487563776	47	3911
2026-01-30 06:02:59.36	266.24	8.89	-49.6	-59.8	3.8	8.48e-01	0	44	104	3497000960	69	11784
2026-01-30 06:03:02.66	265.85	8.69	-50.4	-60.1	3.8	8.45e-01	0	44	104	3497000960	70	11482
2026-01-30 06:03:05.39	265.52	8.53	-50.2	-60.0	3.8	8.46e-01	0	44	104	3497000960	70	11353
2026-01-30 06:03:08.69	265.14	8.33	-50.2	-60.0	3.8	8.47e-01	0	44	104	3497000960	70	11393
2026-01-30 06:03:11.41	264.82	8.17	-50.2	-60.0	3.8	8.47e-01	0	44	104	3497000960	70	11401
2026-01-30 06:03:14.72	264.44	7.97	-50.2	-60.0	3.8	8.48e-01	0	44	104	3497000960	70	11393
2026-01-30 06:03:17.44	264.14	7.81	-50.2	-60.0	3.8	8.46e-01	0	44	104	3497000960	70	11396
2026-01-30 06:03:20.74	263.77	7.61	-50.2	-60.0	3.8	8.47e-01	0	44	104	3497000960	70	11324
2026-01-30 06:03:23.47	263.47	7.45	-50.2	-60.0	3.8	8.46e-01	0	44	104	3497000960	70	11376
2026-01-30 06:03:26.77	263.11	7.26	-50.2	-60.0	3.8	8.47e-01	0	44	104	3497000960	70	11380
2026-01-30 06:03:29.49	262.82	7.10	-50.2	-60.0	3.8	8.47e-01	0	44	104	3497000960	70	11374
2026-01-30 06:03:32.79	262.47	6.90	-50.2	-60.1	3.8	8.46e-01	0	44	104	3497000960	70	11454
2026-01-30 06:03:35.52	262.18	6.74	-50.2	-60.1	3.8	8.48e-01	0	44	104	3497000960	70	11505
2026-01-30 06:03:38.82	261.84	6.55	-50.2	-60.0	3.8	8.46e-01	0	44	104	3497000960	70	11382
2026-01-30 06:03:41.55	261.56	6.39	-50.2	-60.1	3.8	8.47e-01	0	44	104	3497000960	70	11462
2026-01-30 06:03:44.85	261.23	6.20	-50.2	-60.1	3.8	8.47e-01	0	44	104	3497000960	70	11432
2026-01-30 06:03:47.57	260.96	6.04	-50.2	-60.1	3.8	8.47e-01	0	44	104	3497000960	70	11443
2026-01-30 06:03:50.88	260.63	5.85	-50.2	-60.1	3.8	8.47e-01	0	44	104	3497000960	70	11459
2026-01-30 06:03:53.60	260.37	5.69	-50.2	-60.1	3.8	8.46e-01	0	44	104	3497000960	70	11437
2026-01-30 06:03:56.90	260.05	5.50	-50.2	-60.1	3.8	8.46e-01	0	44	104	3497000960	70	11461
2026-01-30 06:03:59.63	259.79	5.34	-50.2	-60.0	3.8	8.48e-01	0	44	104	3497000960	70	11384
2026-01-30 06:04:02.93	259.49	5.15	-50.3	-60.1	3.8	8.48e-01	0	44	104	3497000960	70	11473
2026-01-30 06:04:05.65	259.23	5.00	-50.3	-60.1	3.8	8.48e-01	0	44	104	3497000960	70	11478

#Closed at: 2026-01-30 06:04:06
#Recorded file [3497 MB]: D:/Data/31040_260130_085353.dat