passes_logs/2026/01/30/T1/T1__20260130_080645_SUOMI_NPP_rec.log

#Pass ID: 20260130_080645_SUOMI NPP
#Satellite: SUOMI NPP
#Configuration: NPP
#almurnet v.1.7.20251203
#Start time: 2026-01-30 08:06:46

#Version: 2.0.20230620
#Station: T1
#Location: 37.570604 lon 55.790049 lat
#TLE: 1 37849U 11061A   26029.48304708  .00000140  00000+0  87283-4 0  9999
#TLE: 2 37849  98.7824 331.4079 0002024  38.4342 321.6978 14.19531488738761

#Time	Az	El	Level	Level2	SNR	BER	BlckErr	Temp	State	Recorded	gain1	gain2
2026-01-30 08:06:46.40	99.60	5.06	-49.6	-64.0	3.8	1.49e+00	0	37	0	0	70	19275
2026-01-30 08:06:49.40	99.32	5.23	-49.9	-64.1	3.8	1.49e+00	0	37	104	0	71	18344
2026-01-30 08:06:52.41	99.03	5.40	-49.9	-64.1	3.8	1.49e+00	0	37	104	0	71	18492
2026-01-30 08:06:55.42	98.74	5.57	-49.9	-64.2	3.8	1.49e+00	0	37	104	0	71	18585
2026-01-30 08:06:58.43	98.45	5.74	-49.8	-64.2	3.8	1.49e+00	0	37	104	0	71	18524
2026-01-30 08:07:01.44	98.15	5.91	-49.9	-64.0	3.8	1.49e+00	0	37	104	0	71	18302
2026-01-30 08:07:04.45	97.85	6.09	-49.6	-63.8	3.8	1.49e+00	0	37	104	0	71	17808
2026-01-30 08:07:07.45	97.54	6.26	-49.7	-63.9	3.8	1.49e+00	0	38	104	0	71	17954
2026-01-30 08:07:10.46	97.24	6.43	-49.8	-63.8	3.8	1.49e+00	0	38	104	0	71	17862
2026-01-30 08:07:13.46	96.92	6.61	-49.8	-63.8	3.8	1.49e+00	0	38	104	0	71	17778
2026-01-30 08:07:16.47	96.61	6.78	-49.7	-63.7	3.8	1.49e+00	0	38	104	0	71	17566
2026-01-30 08:07:19.48	96.29	6.96	-49.4	-63.5	3.8	1.49e+00	0	38	104	0	70	18162
2026-01-30 08:07:22.48	95.97	7.13	-48.9	-62.8	3.8	1.49e+00	0	38	104	0	69	17724
2026-01-30 08:07:25.48	95.64	7.30	-48.7	-62.1	3.8	1.49e+00	0	38	104	0	69	16327
2026-01-30 08:07:28.49	95.31	7.48	-48.7	-61.8	3.8	1.49e+00	0	38	104	0	69	15884
2026-01-30 08:07:31.49	94.97	7.66	-48.7	-62.0	3.8	1.49e+00	0	38	104	0	69	16201
2026-01-30 08:07:34.50	94.63	7.83	-48.7	-61.4	3.8	1.49e+00	0	39	104	0	69	15152
2026-01-30 08:07:37.50	94.29	8.01	-48.6	-60.3	3.9	1.47e+00	0	38	104	0	69	13363
2026-01-30 08:07:40.51	93.94	8.19	-48.8	-62.9	3.8	1.49e+00	0	39	104	0	69	18074
2026-01-30 08:07:43.52	93.59	8.36	-47.8	-54.3	7.5	3.49e-01	0	39	0	2097152	67	7529
2026-01-30 08:07:46.53	93.23	8.54	-45.5	-48.4	13.7	1.14e-05	0	38	0	7340032	63	4769
2026-01-30 08:07:49.53	92.87	8.72	-45.6	-48.7	13.4	1.37e-05	0	39	0	12582912	62	5225
2026-01-30 08:07:52.54	92.50	8.89	-46.6	-50.9	10.8	1.15e-03	0	39	0	18874368	64	6049
2026-01-30 08:07:55.55	92.13	9.07	-47.8	-53.7	8.1	5.79e-01	0	39	0	24117248	67	7017
2026-01-30 08:07:58.56	91.76	9.25	-48.5	-55.6	6.2	1.31e+00	0	39	104	28311552	69	7733
2026-01-30 08:08:01.56	91.38	9.43	-47.0	-51.2	11.2	2.43e-03	0	39	0	33554432	66	5537
2026-01-30 08:08:04.56	91.00	9.60	-45.9	-48.9	13.6	2.13e-05	0	39	0	38797312	63	5042
2026-01-30 08:08:07.56	90.61	9.78	-45.5	-48.0	14.5	0.00e+00	0	39	0	44040192	62	4861
2026-01-30 08:08:10.56	90.21	9.96	-44.8	-47.1	15.4	0.00e+00	0	39	0	50331648	61	4633
2026-01-30 08:08:13.57	89.82	10.14	-44.7	-47.0	15.5	0.00e+00	0	39	0	55574528	61	4559
2026-01-30 08:08:16.57	89.41	10.32	-44.4	-46.9	15.1	0.00e+00	0	39	0	61865984	60	4773
2026-01-30 08:08:19.58	89.00	10.49	-43.4	-45.3	16.5	0.00e+00	0	39	0	67108864	58	4470
2026-01-30 08:08:22.58	88.59	10.67	-44.4	-46.8	15.0	0.00e+00	0	39	0	72351744	59	5031
2026-01-30 08:08:25.59	88.17	10.85	-43.6	-45.5	16.3	0.00e+00	0	39	0	78643200	59	4306
2026-01-30 08:08:28.59	87.75	11.02	-44.4	-46.7	15.1	0.00e+00	0	39	0	83886080	59	4968
2026-01-30 08:08:31.60	87.32	11.20	-44.1	-46.4	15.5	0.00e+00	0	39	0	89128960	59	4764
2026-01-30 08:08:34.61	86.88	11.38	-44.1	-46.3	15.6	0.00e+00	0	39	0	95420416	59	4731
2026-01-30 08:08:37.61	86.44	11.55	-44.5	-46.9	15.0	0.00e+00	0	39	0	100663296	59	5083
2026-01-30 08:08:40.61	86.00	11.73	-44.4	-46.9	15.0	0.00e+00	0	39	0	106954752	59	5045
2026-01-30 08:08:43.61	85.55	11.90	-44.5	-47.0	14.9	0.00e+00	0	39	0	112197632	59	5136
2026-01-30 08:08:46.61	85.09	12.08	-44.1	-46.4	15.6	0.00e+00	0	39	0	117440512	59	4770
2026-01-30 08:08:49.61	84.63	12.25	-44.4	-47.0	15.0	0.00e+00	0	39	0	123731968	59	5105
2026-01-30 08:08:52.61	84.17	12.43	-43.6	-45.7	16.2	0.00e+00	0	39	0	128974848	59	4406
2026-01-30 08:08:55.61	83.70	12.60	-44.0	-46.2	15.7	0.00e+00	0	39	0	134217728	58	4976
2026-01-30 08:08:58.62	83.22	12.77	-43.7	-45.7	16.2	0.00e+00	0	39	0	140509184	59	4425
2026-01-30 08:09:01.62	82.73	12.94	-43.6	-45.6	16.4	0.00e+00	0	39	0	145752064	58	4612
2026-01-30 08:09:04.63	82.24	13.11	-42.9	-44.6	17.2	0.00e+00	0	39	0	150994944	57	4388
2026-01-30 08:09:07.63	81.75	13.28	-42.7	-44.5	17.4	0.00e+00	0	39	0	157286400	57	4306
2026-01-30 08:09:10.63	81.25	13.45	-42.4	-44.0	17.8	0.00e+00	0	39	0	162529280	56	4317
2026-01-30 08:09:13.64	80.74	13.62	-42.6	-44.2	17.7	0.00e+00	0	39	0	168820736	56	4400
2026-01-30 08:09:16.64	80.23	13.78	-42.4	-43.9	17.9	0.00e+00	0	39	0	174063616	56	4271
2026-01-30 08:09:19.63	79.71	13.95	-42.4	-44.0	18.0	0.00e+00	0	39	0	179306496	56	4298
2026-01-30 08:09:22.63	79.19	14.11	-42.2	-43.7	18.2	0.00e+00	0	39	0	185597952	56	4158
2026-01-30 08:09:25.63	78.66	14.28	-42.4	-44.0	17.9	0.00e+00	0	39	0	190840832	56	4326
2026-01-30 08:09:28.63	78.13	14.44	-42.6	-44.2	17.7	0.00e+00	0	39	0	196083712	56	4394
2026-01-30 08:09:31.64	77.59	14.60	-43.2	-45.0	17.0	0.00e+00	0	39	0	202375168	56	4823
2026-01-30 08:09:34.63	77.04	14.76	-42.7	-44.4	17.6	0.00e+00	0	39	0	207618048	57	4246
2026-01-30 08:09:37.64	76.49	14.91	-42.5	-44.1	17.8	0.00e+00	0	39	0	213909504	57	4122
2026-01-30 08:09:40.64	75.93	15.07	-41.6	-43.0	18.7	0.00e+00	0	39	0	219152384	55	4073
2026-01-30 08:09:43.65	75.36	15.22	-41.7	-43.0	18.7	0.00e+00	0	39	0	224395264	55	4091
2026-01-30 08:09:46.65	74.79	15.37	-41.6	-43.0	18.8	0.00e+00	0	39	0	230686720	54	4294
2026-01-30 08:09:49.64	74.22	15.52	-42.0	-43.5	15.9	0.00e+00	0	39	0	235929600	54	4562
2026-01-30 08:09:52.64	73.64	15.67	-42.1	-43.6	18.2	0.00e+00	0	39	0	241172480	55	4371
2026-01-30 08:09:55.64	73.05	15.81	-41.8	-43.2	18.5	0.00e+00	0	39	0	247463936	55	4161
2026-01-30 08:09:58.64	72.46	15.96	-41.3	-42.7	18.8	0.00e+00	0	39	0	252706816	54	4193
2026-01-30 08:10:01.64	71.86	16.10	-41.6	-43.1	18.5	0.00e+00	0	39	0	257949696	54	4382
2026-01-30 08:10:04.64	71.25	16.23	-41.6	-43.2	18.4	0.00e+00	0	39	0	264241152	54	4427
2026-01-30 08:10:07.65	70.64	16.37	-41.6	-43.1	18.5	0.00e+00	0	39	0	269484032	54	4370
2026-01-30 08:10:10.66	70.02	16.50	-41.6	-43.1	18.5	0.00e+00	0	39	0	275775488	54	4380
2026-01-30 08:10:13.66	69.40	16.63	-42.0	-43.7	18.0	0.00e+00	0	39	0	281018368	54	4669
2026-01-30 08:10:16.66	68.78	16.76	-42.2	-43.9	17.8	0.00e+00	0	39	0	286261248	55	4510
2026-01-30 08:10:19.66	68.14	16.89	-41.7	-43.3	18.3	0.00e+00	0	39	0	292552704	55	4211
2026-01-30 08:10:22.66	67.51	17.01	-41.3	-42.7	18.9	0.00e+00	0	39	0	297795584	54	4160
2026-01-30 08:10:25.66	66.87	17.13	-40.8	-42.1	19.4	0.00e+00	0	39	0	303038464	53	4125
2026-01-30 08:10:28.66	66.22	17.24	-40.7	-42.0	19.5	0.00e+00	0	39	0	309329920	53	4092
2026-01-30 08:10:31.66	65.57	17.36	-41.0	-42.4	19.2	0.00e+00	0	40	0	314572800	53	4250
2026-01-30 08:10:34.66	64.91	17.46	-41.0	-42.4	19.2	0.00e+00	0	39	0	320864256	53	4270
2026-01-30 08:10:37.66	64.25	17.57	-41.5	-42.9	18.7	0.00e+00	0	39	0	326107136	53	4540
2026-01-30 08:10:40.66	63.58	17.67	-41.7	-43.3	18.5	0.00e+00	0	39	0	331350016	54	4442
2026-01-30 08:10:43.67	62.91	17.77	-41.7	-43.2	18.5	0.00e+00	0	39	0	337641472	54	4410
2026-01-30 08:10:46.68	62.23	17.87	-41.7	-43.2	18.5	0.00e+00	0	39	0	342884352	54	4434
2026-01-30 08:10:49.68	61.55	17.96	-42.0	-43.6	18.1	0.00e+00	0	39	0	348127232	54	4617
2026-01-30 08:10:52.67	60.87	18.04	-42.2	-43.9	17.8	0.00e+00	0	39	0	354418688	55	4504
2026-01-30 08:10:55.67	60.19	18.13	-42.1	-43.8	18.0	0.00e+00	0	39	0	359661568	55	4448
2026-01-30 08:10:58.67	59.50	18.21	-41.6	-43.1	18.6	0.00e+00	0	39	0	364904448	55	4128
2026-01-30 08:11:01.67	58.80	18.28	-42.0	-43.5	18.2	0.00e+00	0	39	0	371195904	55	4335
2026-01-30 08:11:04.66	58.11	18.35	-41.8	-43.4	18.3	0.00e+00	0	39	0	376438784	55	4264
2026-01-30 08:11:07.67	57.41	18.42	-41.9	-43.5	18.2	0.00e+00	0	39	0	382730240	55	4302
2026-01-30 08:11:10.67	56.70	18.48	-42.2	-43.9	17.8	0.00e+00	0	39	0	387973120	55	4497
2026-01-30 08:11:13.68	55.99	18.54	-43.1	-45.1	16.8	0.00e+00	0	39	0	393216000	56	4903
2026-01-30 08:11:16.67	55.29	18.60	-43.1	-45.3	16.6	0.00e+00	0	39	0	399507456	57	4715
2026-01-30 08:11:19.68	54.57	18.65	-42.6	-44.5	17.3	0.00e+00	0	40	0	404750336	57	4315
2026-01-30 08:11:22.68	53.86	18.69	-42.6	-44.5	17.2	0.00e+00	0	39	0	409993216	57	4339
2026-01-30 08:11:25.68	53.15	18.73	-42.4	-44.2	17.5	0.00e+00	0	39	0	416284672	56	4440
2026-01-30 08:11:28.69	52.43	18.77	-42.3	-44.1	17.8	0.00e+00	0	39	0	421527552	56	4352
2026-01-30 08:11:31.69	51.71	18.80	-41.8	-43.4	18.2	0.00e+00	0	39	0	426770432	55	4273
2026-01-30 08:11:34.69	50.99	18.83	-41.8	-43.4	18.2	0.00e+00	0	39	0	433061888	55	4273
2026-01-30 08:11:37.69	50.27	18.85	-42.2	-44.0	17.7	0.00e+00	0	39	0	438304768	55	4560
2026-01-30 08:11:40.68	49.55	18.86	-42.4	-44.1	17.6	0.00e+00	0	39	0	444596224	55	4629
2026-01-30 08:11:43.68	48.82	18.88	-42.1	-43.8	17.8	0.00e+00	0	39	0	449839104	55	4476
2026-01-30 08:11:46.69	48.10	18.88	-42.1	-43.8	17.9	0.00e+00	0	39	0	455081984	55	4476
2026-01-30 08:11:49.69	47.38	18.89	-42.2	-43.9	17.8	0.00e+00	0	39	0	461373440	55	4528
2026-01-30 08:11:52.69	46.65	18.89	-43.0	-45.0	16.9	0.00e+00	0	39	0	466616320	56	4862
2026-01-30 08:11:55.69	45.93	18.88	-43.4	-45.6	16.4	0.00e+00	0	39	0	471859200	57	4881
2026-01-30 08:11:58.69	45.21	18.87	-42.6	-44.3	17.5	0.00e+00	0	39	0	478150656	57	4237
2026-01-30 08:12:01.69	44.49	18.85	-41.8	-43.3	18.4	0.00e+00	0	40	0	483393536	55	4223
2026-01-30 08:12:04.69	43.76	18.83	-41.7	-43.2	18.5	0.00e+00	0	39	0	488636416	55	4185
2026-01-30 08:12:07.69	43.04	18.81	-41.3	-42.7	18.8	0.00e+00	0	40	0	494927872	54	4172
2026-01-30 08:12:10.69	42.33	18.78	-41.3	-42.7	18.9	0.00e+00	0	39	0	500170752	54	4190
2026-01-30 08:12:13.69	41.61	18.74	-41.4	-42.9	18.8	0.00e+00	0	40	0	506462208	54	4259
2026-01-30 08:12:16.69	40.89	18.70	-41.3	-42.7	19.1	0.00e+00	0	40	0	511705088	54	4154
2026-01-30 08:12:19.70	40.18	18.66	-41.0	-42.3	19.6	0.00e+00	0	40	0	516947968	53	4208
2026-01-30 08:12:22.70	39.47	18.61	-41.0	-42.2	19.6	0.00e+00	0	39	0	523239424	53	4188
2026-01-30 08:12:25.70	38.76	18.56	-41.2	-42.5	19.4	0.00e+00	0	39	0	528482304	53	4317
2026-01-30 08:12:28.71	38.05	18.50	-41.6	-43.0	19.0	0.00e+00	0	39	0	533725184	53	4593
2026-01-30 08:12:31.71	37.35	18.44	-41.8	-43.2	18.8	0.00e+00	0	39	0	540016640	54	4425
2026-01-30 08:12:34.71	36.65	18.38	-41.7	-43.2	18.8	0.00e+00	0	40	0	545259520	54	4425
2026-01-30 08:12:37.71	35.95	18.31	-42.1	-43.7	18.3	0.00e+00	0	39	0	551550976	55	4430
2026-01-30 08:12:40.71	35.26	18.23	-43.0	-44.8	17.5	0.00e+00	0	39	0	556793856	57	4444
2026-01-30 08:12:43.71	34.57	18.15	-43.2	-45.2	17.1	0.00e+00	0	39	0	562036736	57	4665
2026-01-30 08:12:46.71	33.88	18.07	-43.1	-45.1	17.2	0.00e+00	0	39	0	568328192	57	4601
2026-01-30 08:12:49.71	33.20	17.99	-43.1	-45.0	17.2	0.00e+00	0	40	0	573571072	57	4552
2026-01-30 08:12:52.71	32.52	17.90	-42.9	-44.7	17.6	0.00e+00	0	39	0	578813952	57	4407
2026-01-30 08:12:55.71	31.85	17.80	-43.1	-45.0	17.3	0.00e+00	0	39	0	585105408	57	4558
2026-01-30 08:12:58.70	31.18	17.71	-43.0	-44.8	17.4	0.00e+00	0	39	0	590348288	57	4478
2026-01-30 08:13:01.70	30.51	17.61	-42.7	-44.4	17.8	0.00e+00	0	39	0	595591168	57	4283
2026-01-30 08:13:04.71	29.85	17.50	-42.5	-44.1	18.1	0.00e+00	0	39	0	601882624	56	4372
2026-01-30 08:13:07.71	29.19	17.39	-42.5	-44.1	18.1	0.00e+00	0	39	0	607125504	56	4369
2026-01-30 08:13:10.72	28.54	17.28	-42.5	-44.2	18.0	0.00e+00	0	40	0	613416960	56	4407
2026-01-30 08:13:13.72	27.90	17.17	-41.7	-43.2	18.7	0.00e+00	0	39	0	618659840	55	4185
2026-01-30 08:13:16.72	27.25	17.05	-41.4	-43.0	19.0	0.00e+00	0	40	0	623902720	54	4300
2026-01-30 08:13:19.73	26.62	16.93	-41.4	-43.0	18.9	0.00e+00	0	40	0	630194176	54	4332
2026-01-30 08:13:22.73	25.98	16.81	-41.9	-43.7	18.4	0.00e+00	0	40	0	635437056	54	4658
2026-01-30 08:13:25.73	25.36	16.68	-43.4	-45.5	16.9	0.00e+00	0	39	0	640679936	57	4837
2026-01-30 08:13:28.73	24.74	16.55	-43.3	-45.2	17.2	0.00e+00	0	39	0	646971392	57	4654
2026-01-30 08:13:31.73	24.12	16.42	-43.2	-45.1	17.2	0.00e+00	0	39	0	652214272	57	4616
2026-01-30 08:13:34.73	23.52	16.28	-43.4	-45.4	16.9	0.00e+00	0	40	0	657457152	57	4798
2026-01-30 08:13:37.73	22.91	16.15	-43.6	-45.7	16.6	0.00e+00	0	40	0	663748608	57	4954
2026-01-30 08:13:40.73	22.31	16.01	-43.1	-45.0	17.3	0.00e+00	0	39	0	668991488	57	4560
2026-01-30 08:13:43.73	21.72	15.87	-42.7	-44.5	17.7	0.00e+00	0	40	0	675282944	57	4310
2026-01-30 08:13:46.73	21.13	15.72	-42.9	-44.7	17.6	0.00e+00	0	40	0	680525824	56	4680
2026-01-30 08:13:49.74	20.55	15.57	-42.7	-44.5	17.7	0.00e+00	0	39	0	685768704	56	4585
2026-01-30 08:13:52.74	19.98	15.43	-43.4	-45.6	16.7	0.00e+00	0	40	0	692060160	57	4898
2026-01-30 08:13:55.74	19.41	15.28	-42.9	-44.9	17.4	0.00e+00	0	39	0	697303040	57	4536
2026-01-30 08:13:58.74	18.84	15.12	-42.3	-44.1	18.2	0.00e+00	0	39	0	702545920	56	4357
2026-01-30 08:14:01.74	18.29	14.97	-42.9	-44.7	17.5	0.00e+00	0	40	0	708837376	56	4694
2026-01-30 08:14:04.74	17.74	14.82	-43.9	-46.1	16.2	0.00e+00	0	39	0	714080256	58	4887
2026-01-30 08:14:07.74	17.19	14.66	-44.0	-46.4	15.7	0.00e+00	0	40	0	719323136	59	4761
2026-01-30 08:14:10.75	16.65	14.50	-43.9	-46.4	15.6	0.00e+00	0	40	0	725614592	59	4765
2026-01-30 08:14:13.75	16.11	14.34	-43.3	-45.6	16.4	0.00e+00	0	40	0	730857472	58	4638
2026-01-30 08:14:16.76	15.58	14.18	-43.2	-45.8	16.2	0.00e+00	0	40	0	737148928	58	4733
2026-01-30 08:14:19.76	15.06	14.01	-42.8	-45.2	16.8	0.00e+00	0	40	0	742391808	57	4677
2026-01-30 08:14:22.76	14.55	13.85	-42.8	-45.3	16.7	0.00e+00	0	40	0	747634688	57	4712
2026-01-30 08:14:25.76	14.04	13.68	-43.1	-45.9	16.1	0.00e+00	0	40	0	753926144	57	5064
2026-01-30 08:14:28.75	13.53	13.52	-43.1	-45.7	16.2	0.00e+00	0	40	0	759169024	57	4970
2026-01-30 08:14:31.75	13.03	13.35	-42.6	-44.6	17.3	0.00e+00	0	40	0	764411904	56	4640
2026-01-30 08:14:34.75	12.54	13.18	-42.5	-44.5	17.5	0.00e+00	0	39	0	770703360	56	4553
2026-01-30 08:14:37.75	12.05	13.01	-42.8	-45.0	16.9	0.00e+00	0	40	0	775946240	56	4858
2026-01-30 08:14:40.75	11.57	12.84	-43.0	-45.2	16.7	0.00e+00	0	40	0	781189120	56	4965
2026-01-30 08:14:43.75	11.10	12.67	-42.8	-45.0	17.0	0.00e+00	0	40	0	787480576	56	4826
2026-01-30 08:14:46.75	10.63	12.50	-42.6	-44.9	17.1	0.00e+00	0	39	0	792723456	56	4770
2026-01-30 08:14:49.76	10.16	12.33	-42.3	-44.4	17.5	0.00e+00	0	39	0	799014912	56	4537
2026-01-30 08:14:52.77	9.70	12.15	-42.3	-44.2	17.7	0.00e+00	0	40	0	804257792	56	4423
2026-01-30 08:14:55.77	9.24	11.98	-41.4	-43.4	18.3	0.00e+00	0	40	0	809500672	54	4535
2026-01-30 08:14:58.77	8.80	11.81	-41.1	-43.0	18.6	0.00e+00	0	39	0	815792128	53	4598
2026-01-30 08:15:01.77	8.35	11.63	-41.2	-43.1	18.6	0.00e+00	0	39	0	821035008	53	4621
2026-01-30 08:15:04.77	7.92	11.46	-41.8	-43.8	17.9	0.00e+00	0	39	0	826277888	54	4733
2026-01-30 08:15:07.77	7.48	11.28	-41.7	-43.7	18.0	0.00e+00	0	40	0	832569344	54	4686
2026-01-30 08:15:10.77	7.06	11.11	-41.8	-43.7	18.0	0.00e+00	0	39	0	837812224	54	4667
2026-01-30 08:15:13.77	6.63	10.93	-41.5	-43.3	18.4	0.00e+00	0	40	0	844103680	54	4475
2026-01-30 08:15:16.77	6.22	10.75	-41.4	-43.2	18.5	0.00e+00	0	40	0	849346560	54	4427
2026-01-30 08:15:19.78	5.81	10.58	-41.5	-43.7	18.0	0.00e+00	0	39	0	854589440	54	4661
2026-01-30 08:15:22.78	5.40	10.40	-41.5	-43.7	17.9	0.00e+00	0	40	0	860880896	54	4689
2026-01-30 08:15:25.78	5.00	10.22	-42.1	-44.4	17.4	0.00e+00	0	39	0	866123776	54	5051
2026-01-30 08:15:28.79	4.60	10.05	-42.4	-44.8	16.9	0.00e+00	0	40	0	871366656	55	5017
2026-01-30 08:15:31.80	4.21	9.87	-42.4	-44.5	17.2	0.00e+00	0	40	0	877658112	55	4869
2026-01-30 08:15:34.80	3.82	9.69	-42.1	-43.7	17.9	0.00e+00	0	40	0	882900992	55	4435
2026-01-30 08:15:37.80	3.44	9.51	-41.6	-43.5	18.2	0.00e+00	0	40	0	889192448	55	4295
2026-01-30 08:15:40.81	3.06	9.34	-42.0	-43.9	17.7	0.00e+00	0	40	0	894435328	55	4505
2026-01-30 08:15:43.81	2.69	9.16	-42.7	-44.6	17.2	0.00e+00	0	39	0	899678208	56	4617
2026-01-30 08:15:46.82	2.32	8.98	-46.2	-50.8	11.7	7.00e-07	0	39	0	905969664	62	6680
2026-01-30 08:15:49.82	1.96	8.81	-48.8	-63.7	3.8	1.49e+00	0	39	104	905969664	68	20808
2026-01-30 08:15:52.83	1.60	8.63	-49.5	-63.8	3.8	1.49e+00	0	40	104	905969664	69	20021
2026-01-30 08:15:55.83	1.24	8.45	-49.0	-63.9	3.8	1.49e+00	0	39	104	905969664	69	20090
2026-01-30 08:15:58.83	0.89	8.28	-49.5	-63.9	3.8	1.49e+00	0	39	104	905969664	70	19067
2026-01-30 08:16:01.83	0.55	8.10	-49.1	-63.9	3.8	1.49e+00	0	40	104	905969664	70	19070
2026-01-30 08:16:04.84	0.20	7.93	-49.4	-63.9	3.8	1.49e+00	0	40	104	905969664	70	19046
2026-01-30 08:16:07.84	359.87	7.75	-49.5	-63.9	3.8	1.49e+00	0	39	104	905969664	70	19013
2026-01-30 08:16:10.84	359.53	7.58	-49.3	-63.8	3.8	1.49e+00	0	39	104	905969664	70	18858
2026-01-30 08:16:13.85	359.20	7.40	-49.3	-63.6	3.8	1.49e+00	0	40	104	905969664	70	18478
2026-01-30 08:16:16.85	358.88	7.23	-48.9	-63.2	3.8	1.49e+00	0	40	104	905969664	69	18685
2026-01-30 08:16:19.85	358.56	7.05	-48.8	-63.1	3.8	1.49e+00	0	39	104	905969664	69	18448
2026-01-30 08:16:22.85	358.24	6.88	-48.8	-63.2	3.8	1.49e+00	0	40	104	905969664	69	18541
2026-01-30 08:16:25.85	357.93	6.71	-48.8	-63.1	3.8	1.49e+00	0	40	104	905969664	69	18493
2026-01-30 08:16:28.85	357.62	6.53	-48.8	-63.1	3.8	1.49e+00	0	39	104	905969664	69	18435
2026-01-30 08:16:31.86	357.31	6.36	-48.8	-63.1	3.8	1.49e+00	0	40	104	905969664	69	18450
2026-01-30 08:16:34.86	357.01	6.19	-48.8	-63.1	3.8	1.49e+00	0	40	104	905969664	69	18499
2026-01-30 08:16:37.87	356.71	6.01	-48.8	-63.1	3.8	1.49e+00	0	40	104	905969664	69	18382
2026-01-30 08:16:40.87	356.42	5.84	-48.8	-63.1	3.8	1.49e+00	0	39	104	905969664	69	18378
2026-01-30 08:16:43.88	356.13	5.67	-48.8	-63.1	3.8	1.49e+00	0	40	104	905969664	69	18421
2026-01-30 08:16:46.88	355.84	5.50	-48.8	-63.1	3.8	1.49e+00	0	40	104	905969664	69	18434
2026-01-30 08:16:49.88	355.55	5.33	-48.8	-63.1	3.8	1.49e+00	0	39	104	905969664	69	18380
2026-01-30 08:16:52.89	355.27	5.16	-48.8	-63.1	3.8	1.49e+00	0	40	104	905969664	69	18333
2026-01-30 08:16:55.89	355.00	4.99	-48.7	-63.1	3.8	1.49e+00	0	40	104	905969664	69	18388

#Closed at: 2026-01-30 08:16:56
#Recorded file [905 MB]: D:/Data/31040_260130_110646.dat