passes_logs/2026/01/30/T1/T1__20260130_003217_AQUA_rec.log

#Pass ID: 20260130_003217_AQUA
#Satellite: AQUA
#Configuration: AQUA
#almurnet v.1.7.20251203
#Start time: 2026-01-30 00:32:19

#Version: 2.0.20230620
#Station: T1
#Location: 37.570604 lon 55.790049 lat
#TLE: 1 27424U 02022A   26028.91948147  .00001781  00000+0  36607-3 0  9997
#TLE: 2 27424  98.4103 355.5827 0001815  62.4290   1.4641 14.61871847262923

#Time	Az	El	Level	Level2	SNR	BER	BlckErr	Temp	State	Recorded	gain1	gain2
2026-01-30 00:32:19.62	24.52	5.13	-51.6	-70.7	3.8	7.50e-01	0	39	0	0	73	35251
2026-01-30 00:32:22.62	24.71	5.34	-51.5	-70.8	3.8	7.45e-01	0	40	104	0	74	33657
2026-01-30 00:32:25.63	24.91	5.56	-51.5	-70.8	3.8	7.47e-01	0	40	104	0	73	35448
2026-01-30 00:32:28.64	25.11	5.77	-51.4	-70.7	3.8	7.44e-01	0	39	104	0	73	35238
2026-01-30 00:32:31.66	25.31	5.99	-50.6	-70.5	3.8	7.47e-01	0	40	104	0	72	36325
2026-01-30 00:32:34.67	25.51	6.21	-49.5	-70.1	3.8	7.46e-01	0	40	104	0	70	38770
2026-01-30 00:32:37.68	25.72	6.42	-49.3	-69.8	3.8	7.47e-01	0	40	104	0	70	37807
2026-01-30 00:32:40.69	25.93	6.65	-49.2	-69.9	3.8	7.45e-01	0	40	104	0	70	38191
2026-01-30 00:32:43.70	26.14	6.87	-49.2	-69.7	3.8	7.46e-01	0	40	104	0	70	37033
2026-01-30 00:32:46.72	26.35	7.09	-49.2	-68.8	3.8	7.47e-01	0	40	104	0	70	33588
2026-01-30 00:32:49.73	26.57	7.32	-49.2	-68.9	3.8	7.47e-01	0	40	104	0	70	33873
2026-01-30 00:32:52.74	26.80	7.55	-49.2	-70.1	3.8	7.48e-01	0	40	104	0	70	38804
2026-01-30 00:32:55.75	27.02	7.78	-49.2	-68.2	3.9	7.47e-01	0	40	104	0	70	31116
2026-01-30 00:32:58.76	27.25	8.01	-49.1	-66.3	4.2	7.41e-01	0	40	104	0	70	25075
2026-01-30 00:33:01.77	27.49	8.25	-49.1	-66.4	3.9	7.42e-01	0	40	104	0	70	25505
2026-01-30 00:33:04.78	27.73	8.48	-49.2	-68.7	3.8	7.46e-01	0	41	104	0	70	33046
2026-01-30 00:33:07.79	27.97	8.72	-49.1	-67.9	3.9	7.42e-01	0	41	104	0	70	30181
2026-01-30 00:33:10.80	28.21	8.96	-48.8	-60.3	8.2	6.39e-01	0	41	0	1572864	69	13279
2026-01-30 00:33:13.80	28.46	9.21	-49.1	-65.9	4.4	7.43e-01	0	41	104	6815744	68	26789
2026-01-30 00:33:16.92	28.73	9.46	-44.8	-47.6	21.2	6.01e-01	0	41	0	11534336	61	4872
2026-01-30 00:33:19.86	28.98	9.70	-46.1	-49.6	19.4	6.03e-01	0	41	0	16777216	63	5514
2026-01-30 00:33:23.01	29.26	9.97	-44.9	-47.6	21.3	6.02e-01	0	41	0	22544384	61	4914
2026-01-30 00:33:26.13	29.54	10.23	-44.2	-46.4	22.5	6.05e-01	0	41	0	28835840	60	4542
2026-01-30 00:33:29.13	29.81	10.48	-44.1	-46.1	23.1	6.04e-01	0	41	0	34078720	59	4624
2026-01-30 00:33:32.48	30.12	10.77	-43.7	-45.5	23.5	6.03e-01	0	41	0	40370176	59	4327
2026-01-30 00:33:35.21	30.38	11.01	-43.6	-45.4	23.6	6.00e-01	0	41	0	45613056	59	4289
2026-01-30 00:33:38.56	30.70	11.30	-43.7	-45.5	23.5	6.01e-01	0	41	0	51904512	59	4325
2026-01-30 00:33:41.57	30.99	11.56	-43.7	-45.5	23.6	6.01e-01	0	41	0	57671680	59	4301
2026-01-30 00:33:44.58	31.29	11.83	-43.3	-45.1	24.0	6.04e-01	0	41	0	63438848	58	4353
2026-01-30 00:33:47.58	31.60	12.10	-43.1	-44.9	24.2	6.01e-01	0	41	0	68681728	58	4290
2026-01-30 00:33:50.58	31.91	12.37	-42.9	-44.7	24.3	6.03e-01	0	41	0	74448896	57	4441
2026-01-30 00:33:53.59	32.23	12.65	-43.1	-44.9	24.3	6.01e-01	0	41	0	80216064	57	4509
2026-01-30 00:33:56.59	32.55	12.93	-43.1	-44.8	24.3	6.02e-01	0	41	0	85983232	57	4463
2026-01-30 00:33:59.60	32.88	13.21	-43.2	-44.9	24.2	6.04e-01	0	41	0	91226112	57	4497
2026-01-30 00:34:02.60	33.22	13.49	-43.2	-44.7	24.4	6.05e-01	0	41	0	96993280	57	4439
2026-01-30 00:34:05.69	33.58	13.79	-43.0	-44.6	24.5	6.04e-01	0	41	0	102760448	57	4350
2026-01-30 00:34:08.65	33.92	14.08	-43.0	-44.6	24.5	6.03e-01	0	41	0	108527616	57	4349
2026-01-30 00:34:11.65	34.28	14.37	-42.9	-44.5	24.7	6.02e-01	0	41	0	113770496	57	4300
2026-01-30 00:34:14.65	34.64	14.66	-42.9	-44.4	24.7	6.04e-01	0	41	0	119537664	57	4288
2026-01-30 00:34:17.65	35.02	14.96	-42.8	-44.5	24.7	6.04e-01	0	41	0	125304832	57	4300
2026-01-30 00:34:20.65	35.40	15.26	-42.7	-44.5	24.6	6.01e-01	0	41	0	131072000	57	4331
2026-01-30 00:34:23.62	35.78	15.57	-42.7	-44.6	24.6	6.04e-01	0	41	0	136314880	57	4358
2026-01-30 00:34:27.15	36.25	15.93	-42.7	-44.3	24.8	6.05e-01	0	41	0	143130624	57	4218
2026-01-30 00:34:29.87	36.62	16.21	-42.7	-44.3	24.9	6.03e-01	0	41	0	148373504	57	4205
2026-01-30 00:34:33.15	37.07	16.56	-42.6	-44.2	25.0	6.05e-01	0	42	0	154140672	57	4175
2026-01-30 00:34:36.30	37.52	16.89	-42.8	-44.4	24.7	6.01e-01	0	42	0	160432128	57	4276
2026-01-30 00:34:39.16	37.93	17.20	-42.7	-44.3	24.9	6.04e-01	0	41	0	165675008	57	4220
2026-01-30 00:34:42.50	38.42	17.56	-42.7	-44.4	24.9	6.02e-01	0	41	0	171966464	57	4252
2026-01-30 00:34:45.22	38.84	17.85	-42.7	-44.3	24.9	6.03e-01	0	42	0	177209344	57	4226
2026-01-30 00:34:48.51	39.35	18.22	-42.8	-44.3	24.9	6.01e-01	0	41	0	182976512	57	4215
2026-01-30 00:34:51.23	39.78	18.52	-42.7	-44.2	25.0	6.01e-01	0	42	0	188219392	57	4180
2026-01-30 00:34:54.58	40.32	18.90	-42.7	-44.3	24.8	6.03e-01	0	41	0	194510848	57	4224
2026-01-30 00:34:57.61	40.82	19.24	-42.7	-44.2	24.9	6.05e-01	0	41	0	200278016	57	4191
2026-01-30 00:35:00.62	41.33	19.59	-42.7	-44.2	25.0	6.03e-01	0	41	0	206045184	57	4170
2026-01-30 00:35:03.64	41.86	19.93	-42.7	-44.2	25.0	6.01e-01	0	42	0	211288064	57	4163
2026-01-30 00:35:06.60	42.39	20.28	-42.8	-44.3	25.0	6.05e-01	0	42	0	217055232	57	4208
2026-01-30 00:35:10.12	43.03	20.69	-42.7	-44.1	25.1	6.02e-01	0	41	0	223870976	57	4123
2026-01-30 00:35:12.84	43.54	21.02	-42.9	-44.4	24.8	6.04e-01	0	42	0	228589568	57	4272
2026-01-30 00:35:16.13	44.17	21.41	-42.8	-44.3	25.0	6.03e-01	0	42	0	234881024	57	4208
2026-01-30 00:35:18.87	44.71	21.74	-42.9	-44.3	24.9	6.03e-01	0	42	0	240123904	57	4241
2026-01-30 00:35:22.16	45.37	22.14	-42.8	-44.3	24.9	6.02e-01	0	42	0	245891072	57	4216
2026-01-30 00:35:24.90	45.94	22.48	-43.0	-44.5	24.7	6.02e-01	0	42	0	251133952	57	4328
2026-01-30 00:35:28.19	46.63	22.88	-43.0	-44.4	24.8	6.04e-01	0	42	0	257425408	57	4287
2026-01-30 00:35:30.91	47.22	23.22	-42.9	-44.3	24.3	6.05e-01	0	42	0	262668288	57	4235
2026-01-30 00:35:34.20	47.95	23.63	-43.1	-44.6	24.6	6.03e-01	0	42	0	268959744	57	4386
2026-01-30 00:35:36.92	48.57	23.98	-43.1	-44.7	24.6	6.04e-01	0	42	0	273678336	57	4404
2026-01-30 00:35:40.22	49.34	24.39	-43.0	-44.5	24.8	6.05e-01	0	42	0	279969792	57	4302
2026-01-30 00:35:42.94	49.99	24.74	-43.2	-44.7	24.6	6.03e-01	0	42	0	285212672	57	4413
2026-01-30 00:35:46.24	50.80	25.16	-43.2	-44.7	24.6	6.04e-01	0	42	0	291504128	57	4394
2026-01-30 00:35:48.95	51.48	25.50	-43.1	-44.5	24.7	6.03e-01	0	42	0	296222720	57	4325
2026-01-30 00:35:52.25	52.33	25.93	-43.2	-44.7	24.6	6.03e-01	0	42	0	302514176	57	4402
2026-01-30 00:35:54.98	53.05	26.27	-43.2	-44.7	24.6	6.00e-01	0	42	0	307757056	57	4401
2026-01-30 00:35:58.27	53.94	26.70	-43.1	-44.5	24.8	6.02e-01	0	42	0	314048512	57	4337
2026-01-30 00:36:00.99	54.70	27.05	-43.1	-44.5	24.7	6.02e-01	0	42	0	318767104	57	4319
2026-01-30 00:36:04.28	55.63	27.47	-43.0	-44.5	24.8	6.04e-01	0	42	0	325058560	57	4306
2026-01-30 00:36:07.36	56.53	27.86	-43.1	-44.5	24.8	6.01e-01	0	42	0	330825728	57	4323
2026-01-30 00:36:10.84	57.58	28.30	-43.3	-44.7	24.5	6.02e-01	0	42	0	337641472	57	4436
2026-01-30 00:36:13.56	58.42	28.65	-42.9	-44.4	25.0	6.04e-01	0	42	0	342360064	57	4249
2026-01-30 00:36:16.85	59.45	29.06	-43.1	-44.6	24.8	6.03e-01	0	42	0	348651520	57	4341
2026-01-30 00:36:19.57	60.33	29.40	-43.0	-44.4	24.9	6.02e-01	0	42	0	353894400	57	4290
2026-01-30 00:36:22.87	61.42	29.81	-42.9	-44.3	25.0	6.02e-01	0	42	0	360185856	57	4242
2026-01-30 00:36:25.59	62.34	30.14	-43.1	-44.6	24.8	6.03e-01	0	42	0	364904448	57	4341
2026-01-30 00:36:28.89	63.49	30.54	-43.1	-44.5	24.8	6.05e-01	0	42	0	371195904	57	4324
2026-01-30 00:36:31.67	64.47	30.87	-42.9	-44.3	25.0	6.04e-01	0	42	0	376438784	57	4229
2026-01-30 00:36:35.46	65.85	31.32	-42.8	-44.2	25.1	6.04e-01	0	42	0	383778816	57	4193
2026-01-30 00:36:38.22	66.87	31.63	-43.0	-44.4	24.9	6.05e-01	0	42	0	389021696	57	4262
2026-01-30 00:36:41.96	68.30	32.05	-43.1	-44.6	24.8	6.00e-01	0	42	0	395837440	57	4353
2026-01-30 00:36:44.72	69.37	32.35	-42.9	-44.3	25.0	6.06e-01	0	42	0	401080320	57	4200
2026-01-30 00:36:48.49	70.87	32.75	-42.8	-44.2	25.1	6.01e-01	0	42	0	407896064	57	4192
2026-01-30 00:36:51.24	71.99	33.03	-42.8	-44.2	25.1	6.04e-01	0	42	0	413138944	57	4154
2026-01-30 00:36:55.01	73.56	33.40	-42.6	-43.9	25.3	6.05e-01	0	42	0	420478976	57	4048
2026-01-30 00:36:58.03	74.84	33.68	-42.5	-43.8	25.4	6.04e-01	0	42	0	425721856	56	4205
2026-01-30 00:37:01.67	76.41	34.00	-42.7	-44.1	25.2	6.01e-01	0	42	0	433061888	56	4361
2026-01-30 00:37:04.40	77.61	34.23	-42.5	-43.8	25.4	6.03e-01	0	42	0	437780480	56	4239
2026-01-30 00:37:07.69	79.07	34.49	-42.4	-43.8	25.4	6.02e-01	0	42	0	444071936	56	4218
2026-01-30 00:37:10.41	80.30	34.69	-42.7	-44.1	25.2	6.02e-01	0	42	0	449314816	56	4379
2026-01-30 00:37:13.80	81.86	34.92	-42.5	-43.8	25.4	6.03e-01	0	42	0	455606272	56	4241
2026-01-30 00:37:16.52	83.12	35.09	-42.5	-43.9	25.3	6.01e-01	0	42	0	460849152	56	4286
2026-01-30 00:37:19.81	84.67	35.28	-42.5	-43.9	25.3	6.06e-01	0	42	0	466616320	56	4276
2026-01-30 00:37:22.56	85.97	35.42	-42.4	-43.9	25.4	6.03e-01	0	42	0	471859200	56	4263
2026-01-30 00:37:25.84	87.54	35.56	-42.5	-43.9	25.3	6.05e-01	0	42	0	478150656	56	4288
2026-01-30 00:37:28.71	88.93	35.67	-42.6	-44.0	25.2	6.02e-01	0	42	0	483393536	56	4338
2026-01-30 00:37:31.86	90.46	35.77	-42.4	-43.8	25.4	6.03e-01	0	42	0	489160704	56	4226
2026-01-30 00:37:34.73	91.86	35.84	-42.5	-43.8	25.3	6.02e-01	0	42	0	494927872	56	4239
2026-01-30 00:37:38.10	93.51	35.90	-42.5	-43.9	25.4	6.03e-01	0	42	0	501219328	56	4270
2026-01-30 00:37:40.87	94.87	35.93	-42.3	-43.6	25.6	6.05e-01	0	42	0	506462208	56	4138
2026-01-30 00:37:44.17	96.50	35.94	-42.6	-43.9	25.3	6.00e-01	0	42	0	512753664	56	4273
2026-01-30 00:37:46.89	97.84	35.93	-42.6	-44.0	25.3	6.03e-01	0	42	0	517472256	56	4293
2026-01-30 00:37:50.19	99.46	35.90	-42.5	-43.8	25.4	6.04e-01	0	42	0	523763712	56	4231
2026-01-30 00:37:53.23	100.96	35.85	-42.2	-43.5	25.8	6.02e-01	0	42	0	529530880	56	4053
2026-01-30 00:37:56.57	102.59	35.77	-42.4	-43.8	25.5	6.05e-01	0	42	0	535822336	56	4217
2026-01-30 00:37:59.29	103.91	35.68	-42.3	-43.6	25.6	6.03e-01	0	42	0	541065216	56	4106
2026-01-30 00:38:02.65	105.54	35.56	-42.2	-43.5	25.7	6.05e-01	0	42	0	546832384	56	4092
2026-01-30 00:38:05.70	107.00	35.42	-42.4	-43.7	25.5	6.03e-01	0	42	0	552599552	56	4185
2026-01-30 00:38:08.99	108.56	35.25	-42.4	-43.8	25.4	6.05e-01	0	42	0	558891008	56	4209
2026-01-30 00:38:11.90	109.93	35.09	-42.0	-43.3	25.9	6.01e-01	0	42	0	564658176	56	3991
2026-01-30 00:38:14.91	111.33	34.90	-42.2	-43.5	25.6	6.02e-01	0	42	0	569901056	55	4315
2026-01-30 00:38:17.86	112.68	34.69	-41.9	-43.2	26.0	6.05e-01	0	42	0	575668224	55	4162
2026-01-30 00:38:21.00	114.10	34.46	-41.8	-43.2	26.0	6.04e-01	0	42	0	581435392	55	4147
2026-01-30 00:38:24.07	115.48	34.22	-41.9	-43.3	25.9	6.02e-01	0	42	0	587202560	55	4197
2026-01-30 00:38:26.94	116.74	33.97	-41.9	-43.1	26.0	6.06e-01	0	42	0	592445440	55	4145
2026-01-30 00:38:30.09	118.10	33.69	-41.7	-43.0	26.0	6.04e-01	0	42	0	598736896	55	4073
2026-01-30 00:38:33.00	119.34	33.42	-41.6	-42.9	26.1	6.03e-01	0	42	0	603979776	55	4008
2026-01-30 00:38:36.31	120.72	33.10	-41.5	-42.8	26.1	6.02e-01	0	42	0	610271232	54	4231
2026-01-30 00:38:39.03	121.84	32.83	-41.5	-42.8	26.1	6.02e-01	0	42	0	615514112	54	4240
2026-01-30 00:38:42.79	123.35	32.43	-41.6	-42.8	26.0	6.07e-01	0	42	0	622329856	54	4225
2026-01-30 00:38:45.65	124.47	32.12	-41.3	-42.5	26.4	6.02e-01	0	42	0	627572736	54	4064
2026-01-30 00:38:49.47	125.94	31.70	-41.5	-42.8	26.2	6.05e-01	0	42	0	634912768	54	4198
2026-01-30 00:38:52.37	127.02	31.36	-41.3	-42.6	26.4	6.05e-01	0	42	0	640155648	54	4104
2026-01-30 00:38:56.11	128.39	30.92	-41.4	-42.7	26.3	6.06e-01	0	42	0	647495680	54	4164
2026-01-30 00:38:59.04	129.44	30.57	-41.4	-42.6	26.3	6.04e-01	0	42	0	652738560	54	4143
2026-01-30 00:39:02.05	130.49	30.21	-41.4	-42.7	26.2	6.02e-01	0	42	0	658505728	54	4158
2026-01-30 00:39:05.06	131.52	29.84	-41.6	-42.9	26.0	6.02e-01	0	42	0	664272896	54	4289
2026-01-30 00:39:08.06	132.52	29.47	-41.6	-42.9	26.1	6.02e-01	0	42	0	669515776	54	4249
2026-01-30 00:39:11.48	133.63	29.04	-41.5	-42.8	26.2	6.03e-01	0	42	0	676331520	54	4211
2026-01-30 00:39:14.30	134.52	28.68	-41.8	-43.1	25.8	6.02e-01	0	42	0	681574400	54	4361
2026-01-30 00:39:17.45	135.50	28.28	-41.7	-43.0	25.9	6.02e-01	0	42	0	687341568	54	4330
2026-01-30 00:39:20.32	136.36	27.91	-41.7	-43.0	26.0	6.05e-01	0	42	0	692584448	54	4329
2026-01-30 00:39:23.64	137.34	27.48	-41.9	-43.3	25.8	6.02e-01	0	42	0	698875904	54	4447
2026-01-30 00:39:26.55	138.18	27.11	-41.8	-43.1	25.8	6.02e-01	0	42	0	704643072	54	4385
2026-01-30 00:39:29.85	139.10	26.68	-42.1	-43.4	25.6	6.03e-01	0	42	0	710410240	54	4523
2026-01-30 00:39:32.57	139.84	26.33	-42.3	-43.6	25.4	6.04e-01	0	42	0	715653120	55	4371
2026-01-30 00:39:35.86	140.72	25.91	-41.9	-43.3	25.7	6.07e-01	0	42	0	721944576	55	4204
2026-01-30 00:39:38.58	141.42	25.56	-42.0	-43.3	25.6	6.03e-01	0	42	0	727187456	55	4240
2026-01-30 00:39:41.87	142.26	25.13	-42.2	-43.6	25.5	6.04e-01	0	42	0	732954624	55	4348
2026-01-30 00:39:44.59	142.93	24.78	-42.0	-43.4	25.6	6.00e-01	0	42	0	738197504	55	4262
2026-01-30 00:39:48.08	143.77	24.34	-42.0	-43.5	25.5	6.03e-01	0	42	0	745013248	55	4333
2026-01-30 00:39:51.06	144.47	23.96	-42.2	-43.6	25.4	6.06e-01	0	42	0	750256128	55	4370
2026-01-30 00:39:54.07	145.15	23.58	-42.4	-43.7	25.3	6.04e-01	0	42	0	756023296	55	4437
2026-01-30 00:39:57.17	145.85	23.19	-42.3	-43.8	25.2	6.04e-01	0	42	0	761790464	55	4465
2026-01-30 00:40:00.06	146.47	22.83	-42.1	-43.6	25.4	6.05e-01	0	42	0	767033344	55	4344
2026-01-30 00:40:03.22	147.14	22.43	-41.9	-43.6	25.4	6.03e-01	0	42	0	773324800	55	4343
2026-01-30 00:40:06.08	147.74	22.08	-42.1	-43.5	25.4	6.02e-01	0	42	0	778567680	55	4339
2026-01-30 00:40:09.23	148.37	21.69	-42.1	-43.5	25.5	6.04e-01	0	42	0	784334848	55	4296
2026-01-30 00:40:12.11	148.94	21.34	-42.0	-43.4	25.6	6.05e-01	0	42	0	789577728	55	4246
2026-01-30 00:40:15.34	149.56	20.95	-42.1	-43.5	25.4	6.01e-01	0	42	0	795869184	55	4318
2026-01-30 00:40:18.21	150.10	20.61	-42.1	-43.5	25.5	6.05e-01	0	42	0	801112064	55	4310
2026-01-30 00:40:21.53	150.71	20.22	-42.2	-43.6	25.3	6.02e-01	0	42	0	807403520	55	4382
2026-01-30 00:40:24.39	151.22	19.88	-41.9	-43.3	25.6	6.04e-01	0	42	0	812646400	55	4230
2026-01-30 00:40:27.54	151.77	19.51	-42.1	-43.5	25.5	6.07e-01	0	42	0	818937856	55	4316
2026-01-30 00:40:30.40	152.26	19.18	-42.0	-43.4	25.4	6.02e-01	0	42	0	824180736	55	4263
2026-01-30 00:40:33.55	152.78	18.82	-42.0	-43.4	25.5	6.05e-01	0	42	0	829947904	55	4291
2026-01-30 00:40:36.41	153.25	18.50	-42.1	-43.5	25.4	6.04e-01	0	42	0	835190784	55	4326
2026-01-30 00:40:39.65	153.76	18.13	-42.1	-43.5	25.4	6.01e-01	0	42	0	841482240	55	4301
2026-01-30 00:40:42.51	154.21	17.81	-41.8	-43.2	25.7	6.02e-01	0	42	0	846725120	55	4160
2026-01-30 00:40:45.66	154.69	17.47	-41.7	-43.1	25.7	6.06e-01	0	42	0	852492288	55	4142
2026-01-30 00:40:48.61	155.12	17.15	-41.8	-43.2	25.6	6.03e-01	0	42	0	858259456	55	4181
2026-01-30 00:40:52.00	155.62	16.78	-42.0	-43.5	25.4	6.03e-01	0	42	0	864550912	55	4320
2026-01-30 00:40:54.72	156.00	16.49	-41.8	-43.4	25.5	6.06e-01	0	42	0	869793792	55	4261
2026-01-30 00:40:58.01	156.46	16.14	-41.9	-43.5	25.4	6.05e-01	0	42	0	876085248	55	4316
2026-01-30 00:41:00.73	156.83	15.86	-41.9	-43.4	25.5	6.03e-01	0	42	0	880803840	55	4265
2026-01-30 00:41:04.11	157.28	15.51	-41.8	-43.3	25.5	6.05e-01	0	42	0	887095296	55	4213
2026-01-30 00:41:06.88	157.64	15.22	-41.9	-43.4	25.4	6.06e-01	0	42	0	892338176	55	4256
2026-01-30 00:41:10.16	158.05	14.89	-41.9	-43.4	25.4	6.04e-01	0	42	0	898629632	55	4257
2026-01-30 00:41:13.29	158.44	14.58	-42.1	-43.6	25.3	6.03e-01	0	42	0	904396800	55	4348
2026-01-30 00:41:16.16	158.79	14.29	-42.1	-43.5	25.3	6.01e-01	0	42	0	909639680	55	4340
2026-01-30 00:41:19.30	159.17	13.98	-42.1	-43.5	25.3	6.01e-01	0	42	0	915931136	55	4319
2026-01-30 00:41:22.17	159.50	13.70	-42.2	-43.6	25.2	6.04e-01	0	42	0	921174016	55	4371
2026-01-30 00:41:25.62	159.90	13.37	-42.1	-43.6	25.2	6.02e-01	0	42	0	927465472	55	4373
2026-01-30 00:41:28.35	160.20	13.11	-42.1	-43.6	25.2	6.04e-01	0	42	0	932708352	55	4361
2026-01-30 00:41:31.65	160.56	12.80	-42.2	-43.7	25.1	6.02e-01	0	42	0	938999808	55	4419
2026-01-30 00:41:34.57	160.88	12.53	-42.3	-43.8	25.0	6.01e-01	0	42	0	944242688	55	4461
2026-01-30 00:41:37.58	161.20	12.25	-42.3	-43.8	25.0	6.00e-01	0	42	0	950009856	55	4452
2026-01-30 00:41:40.59	161.51	11.97	-42.3	-43.8	25.0	5.99e-01	0	42	0	955777024	55	4484
2026-01-30 00:41:43.58	161.81	11.70	-42.4	-43.9	24.9	6.04e-01	0	42	0	961544192	55	4496
2026-01-30 00:41:46.80	162.13	11.41	-42.4	-43.9	24.8	6.02e-01	0	42	0	967311360	55	4522
2026-01-30 00:41:49.68	162.41	11.16	-42.5	-44.0	24.7	6.04e-01	0	42	0	972554240	55	4597
2026-01-30 00:41:52.83	162.71	10.88	-42.5	-44.1	24.6	6.03e-01	0	42	0	978845696	55	4649
2026-01-30 00:41:55.69	162.98	10.63	-42.5	-44.2	24.5	6.04e-01	0	42	0	984088576	55	4665
2026-01-30 00:41:58.83	163.27	10.36	-42.6	-44.2	24.5	6.02e-01	0	42	0	989855744	55	4692
2026-01-30 00:42:01.75	163.54	10.11	-42.8	-44.4	24.4	6.03e-01	0	42	0	995622912	56	4513
2026-01-30 00:42:05.24	163.85	9.82	-43.0	-44.6	24.2	6.01e-01	0	42	0	1001914368	57	4378
2026-01-30 00:42:07.97	164.09	9.59	-43.0	-44.8	24.1	6.03e-01	0	42	0	1007157248	57	4450
2026-01-30 00:42:11.27	164.37	9.31	-42.7	-44.8	24.0	6.02e-01	0	42	0	1013448704	57	4450
2026-01-30 00:42:13.98	164.60	9.09	-42.4	-45.0	23.8	6.02e-01	0	42	0	1018167296	56	4839
2026-01-30 00:42:17.28	164.87	8.82	-50.2	-70.0	3.8	7.46e-01	0	42	104	1021837312	71	36175
2026-01-30 00:42:20.00	165.09	8.60	-50.6	-70.4	3.8	7.45e-01	0	42	104	1021837312	72	36028
2026-01-30 00:42:23.30	165.36	8.34	-50.5	-70.6	3.7	7.46e-01	0	42	104	1021837312	72	36870
2026-01-30 00:42:26.02	165.57	8.12	-51.5	-70.6	3.8	7.46e-01	0	42	104	1021837312	73	34861
2026-01-30 00:42:29.32	165.82	7.86	-51.4	-70.7	3.8	7.43e-01	0	42	104	1021837312	73	35140
2026-01-30 00:42:32.04	166.03	7.65	-51.0	-70.8	3.8	7.43e-01	0	42	104	1021837312	73	35372
2026-01-30 00:42:35.34	166.28	7.40	-51.5	-70.5	3.8	7.45e-01	0	42	104	1021837312	73	34333
2026-01-30 00:42:38.07	166.48	7.19	-51.1	-70.7	3.8	7.46e-01	0	42	104	1021837312	74	33199
2026-01-30 00:42:41.36	166.72	6.94	-51.3	-70.7	3.8	7.45e-01	0	42	104	1021837312	73	35031
2026-01-30 00:42:44.09	166.91	6.73	-51.1	-70.6	3.8	7.48e-01	0	42	104	1021837312	73	34660
2026-01-30 00:42:47.39	167.14	6.49	-51.1	-70.4	3.8	7.45e-01	0	42	104	1021837312	73	34075
2026-01-30 00:42:50.12	167.33	6.29	-50.6	-70.1	3.8	7.46e-01	0	42	104	1021837312	73	32744
2026-01-30 00:42:53.41	167.55	6.04	-50.1	-70.0	3.8	7.41e-01	0	42	104	1021837312	72	34132
2026-01-30 00:42:56.14	167.73	5.85	-50.1	-69.9	3.8	7.50e-01	0	42	104	1021837312	72	34040
2026-01-30 00:42:59.43	167.95	5.61	-50.0	-69.9	3.8	7.44e-01	0	42	104	1021837312	72	33989
2026-01-30 00:43:02.16	168.13	5.41	-50.1	-69.9	3.8	7.45e-01	0	42	104	1021837312	72	34073
2026-01-30 00:43:05.46	168.34	5.18	-50.0	-69.9	3.8	7.48e-01	0	42	104	1021837312	72	34003
2026-01-30 00:43:08.18	168.51	4.99	-50.0	-69.9	3.8	7.47e-01	0	42	104	1021837312	72	33974

#Closed at: 2026-01-30 00:43:09
#Recorded file [1021 MB]: D:/Data/31040_260130_033219.dat