passes_logs/2026/01/30/T1/T1__20260130_140332_FENGYUN_3E_rec.log

#Pass ID: 20260130_140332_FENGYUN 3E
#Satellite: FENGYUN 3E
#Configuration: FENGYUN 3E
#almurnet v.1.7.20251203
#Start time: 2026-01-30 14:03:34

#Version: 2.0.20230620
#Station: T1
#Location: 37.570604 lon 55.790049 lat
#TLE: 1 49008U 21062A   26030.15628484 -.00000231  00000+0 -88238-4 0  9991
#TLE: 2 49008  98.7496  35.1082 0002567 110.3408 249.8045 14.19886954236998

#Time	Az	El	Level	Level2	SNR	BER	BlckErr	Temp	State	Recorded	gain1	gain2
2026-01-30 14:03:34.30	155.48	5.14	-50.0	-60.0	3.8	8.47e-01	0	36	0	0	70	11321
2026-01-30 14:03:38.31	155.45	5.43	-49.5	-59.6	3.8	8.47e-01	0	37	104	0	69	11428
2026-01-30 14:03:42.32	155.42	5.72	-49.1	-59.2	3.8	8.46e-01	0	37	104	0	68	11576
2026-01-30 14:03:46.34	155.39	6.02	-48.9	-56.9	3.8	8.45e-01	0	37	104	0	68	8954
2026-01-30 14:03:50.35	155.36	6.32	-48.7	-55.8	4.2	8.39e-01	0	37	0	0	68	7866
2026-01-30 14:03:54.37	155.33	6.63	-48.9	-57.4	3.8	8.46e-01	0	37	104	0	68	9412
2026-01-30 14:03:58.38	155.30	6.93	-49.2	-59.1	3.8	8.47e-01	0	37	104	0	68	11455
2026-01-30 14:04:02.39	155.26	7.25	-49.1	-58.4	3.8	8.47e-01	0	37	104	0	68	10613
2026-01-30 14:04:06.41	155.23	7.56	-47.6	-52.2	5.9	5.48e-01	0	38	0	0	66	5810
2026-01-30 14:04:10.43	155.20	7.88	-44.9	-46.8	11.1	2.78e-03	0	38	0	29360128	60	4433
2026-01-30 14:04:14.44	155.16	8.21	-42.8	-44.0	14.0	1.10e-06	0	38	0	58720256	56	4017
2026-01-30 14:04:18.45	155.12	8.53	-42.8	-44.0	13.8	2.20e-06	0	38	0	87031808	55	4289
2026-01-30 14:04:22.47	155.09	8.87	-45.3	-47.5	10.4	3.20e-03	0	38	0	116391936	60	4805
2026-01-30 14:04:26.48	155.05	9.20	-47.2	-50.8	7.3	1.30e-02	0	38	0	144703488	63	5901
2026-01-30 14:04:30.49	155.01	9.55	-47.1	-51.4	4.7	8.38e-01	0	38	104	162529280	65	5618
2026-01-30 14:04:34.51	154.97	9.89	-39.4	-40.1	17.7	0.00e+00	0	38	0	188743680	49	3844
2026-01-30 14:04:38.52	154.92	10.24	-38.9	-39.5	18.3	0.00e+00	0	38	0	218103808	48	3792
2026-01-30 14:04:42.53	154.88	10.60	-37.8	-38.4	19.1	0.00e+00	0	38	0	246415360	46	3761
2026-01-30 14:04:46.54	154.83	10.96	-37.2	-37.7	19.7	0.00e+00	0	38	0	275775488	45	3676
2026-01-30 14:04:50.55	154.79	11.33	-37.1	-37.6	19.7	0.00e+00	0	38	0	305135616	44	3866
2026-01-30 14:04:54.56	154.74	11.70	-36.9	-37.5	19.8	0.00e+00	0	39	0	333447168	44	3802
2026-01-30 14:04:58.57	154.69	12.08	-37.1	-37.6	19.7	0.00e+00	0	39	0	362807296	44	3867
2026-01-30 14:05:02.58	154.64	12.46	-36.9	-37.5	19.8	0.00e+00	0	38	0	391118848	44	3792
2026-01-30 14:05:06.60	154.59	12.85	-36.9	-37.4	19.9	0.00e+00	0	39	0	420478976	44	3761
2026-01-30 14:05:10.55	154.53	13.24	-36.8	-37.3	20.0	0.00e+00	0	39	0	448790528	44	3708
2026-01-30 14:05:14.57	154.48	13.65	-36.7	-37.2	20.1	0.00e+00	0	39	0	478150656	44	3686
2026-01-30 14:05:18.58	154.42	14.06	-36.4	-36.9	20.3	0.00e+00	0	39	0	506462208	43	3765
2026-01-30 14:05:22.66	154.36	14.48	-36.4	-36.9	20.2	0.00e+00	0	38	0	536870912	43	3761
2026-01-30 14:05:26.66	154.29	14.90	-36.2	-36.6	20.5	0.00e+00	0	39	0	565182464	43	3648
2026-01-30 14:05:30.72	154.23	15.34	-36.1	-36.6	20.5	0.00e+00	0	39	0	594542592	43	3643
2026-01-30 14:05:34.74	154.16	15.78	-36.1	-36.5	20.7	0.00e+00	0	39	0	623902720	42	3802
2026-01-30 14:05:38.76	154.09	16.23	-36.0	-36.4	20.8	0.00e+00	0	39	0	653262848	42	3743
2026-01-30 14:05:42.87	154.02	16.70	-35.9	-36.3	20.9	0.00e+00	0	39	0	682622976	42	3699
2026-01-30 14:05:47.22	153.94	17.20	-35.5	-35.8	21.3	0.00e+00	0	39	0	714080256	41	3719
2026-01-30 14:05:51.35	153.86	17.69	-35.3	-35.7	21.4	0.00e+00	0	39	0	743440384	41	3656
2026-01-30 14:05:55.64	153.78	18.21	-35.2	-35.4	21.6	0.00e+00	0	39	0	774897664	41	3568
2026-01-30 14:05:59.69	153.69	18.71	-34.9	-35.1	21.9	0.00e+00	0	39	0	803209216	40	3648
2026-01-30 14:06:03.71	153.61	19.21	-34.8	-35.1	22.0	0.00e+00	0	39	0	832569344	40	3617
2026-01-30 14:06:07.70	153.52	19.73	-34.7	-34.9	22.0	0.00e+00	0	39	0	861929472	40	3564
2026-01-30 14:06:11.71	153.42	20.25	-34.9	-35.2	21.8	0.00e+00	0	39	0	890241024	40	3681
2026-01-30 14:06:15.72	153.33	20.79	-34.7	-35.0	22.0	0.00e+00	0	39	0	919601152	39	3809
2026-01-30 14:06:19.78	153.23	21.34	-34.8	-35.1	21.9	0.00e+00	0	39	0	948961280	39	3850
2026-01-30 14:06:24.26	153.11	21.97	-34.8	-35.2	21.7	0.00e+00	0	39	0	981467136	39	3870
2026-01-30 14:06:28.26	153.00	22.54	-34.9	-35.3	21.7	0.00e+00	0	39	0	1009778688	39	3929
2026-01-30 14:06:32.27	152.89	23.13	-35.0	-35.4	21.6	0.00e+00	0	39	0	1039138816	39	3997
2026-01-30 14:06:36.64	152.76	23.79	-35.0	-35.4	21.5	0.00e+00	0	39	0	1070596096	39	3991
2026-01-30 14:06:40.65	152.63	24.40	-34.7	-35.2	21.8	0.00e+00	0	39	0	1099956224	39	3880
2026-01-30 14:06:44.67	152.50	25.04	-34.6	-35.0	21.9	0.00e+00	0	39	0	1128267776	39	3795
2026-01-30 14:06:48.62	152.37	25.67	-34.3	-34.8	22.2	0.00e+00	0	39	0	1156579328	39	3698
2026-01-30 14:06:52.63	152.23	26.34	-34.1	-34.5	22.3	0.00e+00	0	39	0	1185939456	38	3818
2026-01-30 14:06:56.64	152.08	27.02	-34.0	-34.4	22.4	0.00e+00	0	39	0	1215299584	38	3769
2026-01-30 14:07:00.66	151.92	27.71	-34.0	-34.4	22.5	0.00e+00	0	39	0	1243611136	38	3765
2026-01-30 14:07:04.68	151.76	28.43	-33.9	-34.3	22.5	0.00e+00	0	39	0	1272971264	38	3700
2026-01-30 14:07:08.69	151.59	29.16	-33.8	-34.2	22.6	0.00e+00	0	39	0	1301282816	38	3666
2026-01-30 14:07:12.70	151.41	29.91	-33.7	-34.1	22.8	0.00e+00	0	39	0	1330642944	38	3616
2026-01-30 14:07:16.72	151.22	30.69	-33.9	-34.2	22.7	0.00e+00	0	39	0	1360003072	38	3684
2026-01-30 14:07:20.73	151.02	31.48	-33.9	-34.2	22.7	0.00e+00	0	39	0	1388314624	38	3670
2026-01-30 14:07:24.87	150.81	32.32	-33.8	-34.2	22.7	0.00e+00	0	39	0	1418723328	38	3654
2026-01-30 14:07:28.97	150.58	33.18	-34.0	-34.4	22.5	0.00e+00	0	39	0	1448083456	38	3746
2026-01-30 14:07:32.98	150.35	34.04	-33.9	-34.3	22.5	0.00e+00	0	39	0	1477443584	38	3698
2026-01-30 14:07:37.09	150.09	34.95	-33.9	-34.2	22.5	0.00e+00	0	39	0	1506803712	38	3691
2026-01-30 14:07:41.28	149.82	35.90	-33.8	-34.2	22.7	0.00e+00	0	39	0	1537212416	38	3657
2026-01-30 14:07:45.29	149.54	36.84	-34.1	-34.4	22.5	0.00e+00	0	39	0	1565523968	38	3771
2026-01-30 14:07:49.31	149.24	37.80	-34.2	-34.6	22.4	0.00e+00	0	39	0	1594884096	38	3832
2026-01-30 14:07:53.72	148.90	38.89	-33.9	-34.2	22.8	0.00e+00	0	39	0	1627389952	38	3661
2026-01-30 14:07:57.73	148.56	39.92	-33.9	-34.3	22.7	0.00e+00	0	39	0	1655701504	38	3696
2026-01-30 14:08:01.74	148.20	40.97	-34.5	-34.9	22.1	0.00e+00	0	39	0	1685061632	38	3976
2026-01-30 14:08:05.75	147.81	42.05	-35.0	-34.9	23.0	0.00e+00	0	39	0	1714421760	39	3752
2026-01-30 14:08:09.76	147.39	43.17	-34.6	-34.5	23.4	0.00e+00	0	39	0	1742733312	39	3591
2026-01-30 14:08:14.08	146.91	44.40	-34.9	-34.8	23.1	0.00e+00	0	39	0	1774190592	39	3723
2026-01-30 14:08:18.35	146.39	45.66	-35.2	-35.1	22.9	0.00e+00	0	39	0	1804599296	39	3833
2026-01-30 14:08:22.79	145.81	47.01	-35.3	-35.2	22.7	0.00e+00	0	39	0	1837105152	40	3685
2026-01-30 14:08:27.07	145.20	48.35	-35.4	-35.2	22.7	0.00e+00	0	39	0	1867513856	40	3692
2026-01-30 14:08:31.28	144.53	49.70	-35.8	-35.6	22.3	0.00e+00	0	39	0	1897922560	41	3652
2026-01-30 14:08:35.55	143.80	51.11	-35.7	-35.6	22.3	0.00e+00	0	39	0	1929379840	42	3438
2026-01-30 14:08:39.57	143.04	52.47	-35.3	-35.2	22.7	0.00e+00	0	39	0	1957691392	41	3467
2026-01-30 14:08:43.58	142.21	53.86	-36.6	-36.5	21.6	0.00e+00	0	39	0	1987051520	42	3807
2026-01-30 14:08:47.59	141.29	55.29	-36.1	-36.1	22.0	0.00e+00	0	39	0	2015363072	42	3615
2026-01-30 14:08:51.60	140.27	56.74	-36.4	-36.3	21.7	0.00e+00	0	39	0	2044723200	42	3733
2026-01-30 14:08:55.67	139.11	58.24	-35.9	-35.8	22.2	0.00e+00	0	39	0	2074083328	42	3508
2026-01-30 14:09:00.02	137.72	59.88	-35.8	-35.7	22.3	0.00e+00	0	39	0	2105540608	42	3479
2026-01-30 14:09:04.44	136.12	61.57	-35.7	-35.6	22.4	0.00e+00	0	39	0	2136997888	41	3644
2026-01-30 14:09:08.97	134.22	63.32	-34.2	-34.0	23.8	0.00e+00	0	39	0	2170552320	39	3397
2026-01-30 14:09:12.99	132.28	64.89	-34.5	-34.3	23.6	0.00e+00	0	39	0	2198863872	39	3511
2026-01-30 14:09:17.00	130.06	66.46	-34.4	-34.2	23.7	0.00e+00	0	39	0	2228224000	38	3666
2026-01-30 14:09:21.01	127.48	68.01	-34.4	-34.2	23.7	0.00e+00	0	39	0	2257584128	38	3683
2026-01-30 14:09:25.02	124.48	69.55	-34.8	-34.6	23.2	0.00e+00	0	39	0	2285895680	40	3441
2026-01-30 14:09:29.03	120.96	71.05	-35.1	-35.0	22.9	0.00e+00	0	39	0	2315255808	40	3593
2026-01-30 14:09:33.04	116.80	72.49	-34.5	-34.4	23.5	0.00e+00	0	39	0	2343567360	39	3558
2026-01-30 14:09:37.05	111.88	73.84	-34.1	-34.0	23.9	0.00e+00	0	40	0	2372927488	38	3581
2026-01-30 14:09:41.06	106.06	75.07	-34.0	-33.9	23.9	0.00e+00	0	39	0	2402287616	38	3532
2026-01-30 14:09:45.21	98.97	76.17	-33.6	-33.4	24.3	0.00e+00	0	39	0	2431647744	38	3340
2026-01-30 14:09:49.22	91.06	77.01	-33.4	-33.3	24.5	0.00e+00	0	39	0	2461007872	37	3511
2026-01-30 14:09:53.23	82.21	77.59	-32.9	-32.7	24.9	0.00e+00	0	39	0	2489319424	36	3486
2026-01-30 14:09:57.45	72.22	77.85	-33.1	-32.9	24.8	0.00e+00	0	39	0	2520776704	37	3348
2026-01-30 14:10:01.46	62.60	77.76	-33.1	-32.9	24.8	0.00e+00	0	40	0	2549088256	36	3560
2026-01-30 14:10:05.47	53.38	77.34	-32.9	-32.7	24.9	0.00e+00	0	39	0	2578448384	36	3470
2026-01-30 14:10:09.75	44.43	76.57	-33.2	-33.0	24.6	0.00e+00	0	39	0	2608857088	36	3597
2026-01-30 14:10:13.76	37.10	75.61	-33.8	-33.6	24.2	0.00e+00	0	39	0	2638217216	37	3649
2026-01-30 14:10:17.77	30.82	74.45	-33.7	-33.5	24.3	0.00e+00	0	39	0	2666528768	37	3582
2026-01-30 14:10:21.92	25.32	73.10	-34.5	-34.4	23.6	0.00e+00	0	39	0	2696937472	38	3748
2026-01-30 14:10:25.93	20.85	71.70	-35.1	-34.9	23.1	0.00e+00	0	39	0	2725249024	39	3771
2026-01-30 14:10:29.94	17.06	70.23	-34.8	-34.7	23.3	0.00e+00	0	39	0	2754609152	39	3682
2026-01-30 14:10:34.13	13.71	68.64	-34.9	-34.7	23.1	0.00e+00	0	39	0	2785017856	39	3678
2026-01-30 14:10:38.49	10.76	66.95	-34.7	-34.5	23.4	0.00e+00	0	39	0	2816475136	39	3598
2026-01-30 14:10:42.51	8.44	65.39	-34.5	-34.4	23.6	0.00e+00	0	39	0	2845835264	39	3538
2026-01-30 14:10:46.55	6.41	63.82	-34.8	-34.6	23.4	0.00e+00	0	39	0	2875195392	39	3638
2026-01-30 14:10:50.56	4.65	62.26	-35.5	-35.4	22.6	0.00e+00	0	39	0	2903506944	40	3773
2026-01-30 14:10:54.80	3.02	60.64	-36.2	-36.1	22.0	0.00e+00	0	39	0	2933915648	41	3860
2026-01-30 14:10:58.81	1.66	59.12	-35.6	-35.5	22.5	0.00e+00	0	40	0	2963275776	41	3607
2026-01-30 14:11:02.82	0.45	57.63	-35.4	-35.3	22.7	0.00e+00	0	39	0	2991587328	41	3517
2026-01-30 14:11:06.83	359.37	56.16	-35.9	-35.8	22.3	0.00e+00	0	40	0	3020947456	41	3723
2026-01-30 14:11:10.83	358.39	54.73	-36.0	-35.9	22.2	0.00e+00	0	40	0	3049259008	41	3776
2026-01-30 14:11:15.04	357.47	53.25	-36.1	-36.0	22.1	0.00e+00	0	39	0	3079667712	42	3580
2026-01-30 14:11:19.25	356.64	51.81	-36.2	-36.1	21.9	0.00e+00	0	40	0	3111124992	42	3637
2026-01-30 14:11:23.27	355.92	50.47	-36.1	-36.0	22.1	0.00e+00	0	39	0	3139436544	42	3607
2026-01-30 14:11:27.28	355.26	49.17	-36.1	-36.0	22.0	0.00e+00	0	40	0	3168796672	42	3589
2026-01-30 14:11:31.52	354.62	47.83	-35.5	-35.4	22.6	0.00e+00	0	40	0	3199205376	41	3561
2026-01-30 14:11:35.54	354.06	46.59	-35.0	-34.9	23.0	0.00e+00	0	40	0	3228565504	40	3540
2026-01-30 14:11:39.68	353.53	45.35	-34.8	-34.7	23.2	0.00e+00	0	39	0	3257925632	40	3463
2026-01-30 14:11:43.99	353.03	44.10	-34.5	-34.4	23.6	0.00e+00	0	40	0	3289382912	39	3538
2026-01-30 14:11:48.00	352.59	42.96	-34.7	-34.5	23.4	0.00e+00	0	40	0	3318743040	39	3610
2026-01-30 14:11:52.19	352.17	41.81	-34.4	-34.3	23.6	0.00e+00	0	40	0	3348103168	39	3493
2026-01-30 14:11:56.27	351.78	40.72	-34.4	-34.3	23.5	0.00e+00	0	40	0	3377463296	39	3491
2026-01-30 14:12:00.28	351.43	39.68	-34.7	-34.5	23.4	0.00e+00	0	40	0	3406823424	39	3604
2026-01-30 14:12:04.55	351.08	38.61	-34.7	-34.5	23.4	0.00e+00	0	40	0	3437232128	39	3608
2026-01-30 14:12:08.77	350.75	37.58	-34.3	-34.2	23.7	0.00e+00	0	40	0	3467640832	39	3460
2026-01-30 14:12:12.77	350.47	36.63	-34.5	-34.3	23.5	0.00e+00	0	40	0	3497000960	39	3527
2026-01-30 14:12:16.78	350.20	35.70	-34.6	-34.4	23.5	0.00e+00	0	39	0	3525312512	39	3565
2026-01-30 14:12:20.80	349.94	34.80	-34.0	-33.9	24.0	0.00e+00	0	40	0	3554672640	38	3545
2026-01-30 14:12:24.81	349.70	33.92	-33.8	-33.7	24.2	0.00e+00	0	40	0	3584032768	38	3455
2026-01-30 14:12:28.82	349.47	33.07	-34.1	-34.0	23.9	0.00e+00	0	40	0	3612344320	38	3595
2026-01-30 14:12:32.83	349.25	32.24	-34.3	-34.2	23.7	0.00e+00	0	40	0	3641704448	38	3662
2026-01-30 14:12:36.86	349.05	31.43	-34.3	-34.2	23.7	0.00e+00	0	40	0	3671064576	38	3655
2026-01-30 14:12:40.87	348.85	30.64	-34.5	-34.4	23.5	0.00e+00	0	40	0	3699376128	38	3760
2026-01-30 14:12:44.89	348.67	29.88	-34.6	-34.5	23.4	0.00e+00	0	40	0	3728736256	38	3811
2026-01-30 14:12:48.90	348.49	29.13	-34.7	-34.6	23.3	0.00e+00	0	40	0	3758096384	39	3611
2026-01-30 14:12:52.91	348.32	28.40	-34.7	-34.6	23.3	0.00e+00	0	40	0	3786407936	39	3630
2026-01-30 14:12:57.26	348.15	27.64	-34.7	-34.6	23.3	0.00e+00	0	40	0	3817865216	39	3632
2026-01-30 14:13:01.57	347.99	26.90	-34.8	-34.7	23.3	0.00e+00	0	39	0	3849322496	39	3665
2026-01-30 14:13:05.90	347.84	26.17	-34.9	-34.8	23.2	0.00e+00	0	40	0	3879731200	39	3714
2026-01-30 14:13:10.49	347.68	25.43	-35.2	-35.1	22.8	0.00e+00	0	40	0	3913285632	39	3841
2026-01-30 14:13:14.85	347.54	24.74	-35.1	-35.0	22.8	0.00e+00	0	40	0	3944742912	40	3583
2026-01-30 14:13:19.19	347.41	24.07	-35.0	-34.9	22.9	0.00e+00	0	40	0	3976200192	40	3561
2026-01-30 14:13:23.30	347.29	23.45	-34.9	-34.8	23.1	0.00e+00	0	40	0	4005560320	40	3501
2026-01-30 14:13:27.64	347.16	22.81	-34.9	-34.8	23.0	0.00e+00	0	40	0	4037017600	40	3519
2026-01-30 14:13:31.66	347.06	22.23	-35.0	-34.9	22.9	0.00e+00	0	40	0	4066377728	40	3545
2026-01-30 14:13:35.67	346.95	21.67	-35.1	-34.9	22.9	0.00e+00	0	40	0	4095737856	40	3568
2026-01-30 14:13:39.79	346.85	21.10	-35.1	-35.0	22.8	0.00e+00	0	40	0	4125097984	40	3600
2026-01-30 14:13:43.85	346.76	20.56	-35.2	-35.1	22.7	0.00e+00	0	40	0	4154458112	40	3638
2026-01-30 14:13:47.86	346.66	20.03	-35.3	-35.2	22.7	0.00e+00	0	40	0	4183818240	40	3663
2026-01-30 14:13:52.16	346.57	19.48	-35.4	-35.3	22.6	0.00e+00	0	40	0	4214226944	40	3712
2026-01-30 14:13:56.19	346.49	18.97	-35.4	-35.4	22.5	0.00e+00	0	40	0	4243587072	40	3740
2026-01-30 14:14:00.20	346.41	18.47	-35.5	-35.4	22.4	0.00e+00	0	40	0	4272947200	40	3774
2026-01-30 14:14:04.21	346.33	17.99	-35.7	-35.6	22.3	0.00e+00	0	40	0	4301258752	40	3843
2026-01-30 14:14:08.22	346.25	17.51	-35.7	-35.7	22.2	0.00e+00	0	40	0	4330618880	40	3869
2026-01-30 14:14:12.55	346.18	17.01	-35.8	-35.8	22.1	0.00e+00	0	40	0	4362076160	41	3710
2026-01-30 14:14:16.76	346.10	16.53	-36.0	-36.0	21.9	0.00e+00	0	40	0	4392484864	41	3785
2026-01-30 14:14:20.78	346.04	16.08	-36.2	-36.2	21.7	0.00e+00	0	40	0	4420796416	41	3880
2026-01-30 14:14:24.79	345.97	15.64	-36.4	-36.4	21.5	0.00e+00	0	40	0	4450156544	42	3758
2026-01-30 14:14:29.14	345.91	15.17	-36.4	-36.5	21.4	0.00e+00	0	40	0	4481613824	42	3791
2026-01-30 14:14:33.45	345.84	14.71	-36.6	-36.7	21.2	0.00e+00	0	40	0	4513071104	42	3893
2026-01-30 14:14:37.46	345.79	14.29	-36.7	-36.8	21.1	0.00e+00	0	40	0	4541382656	42	3933
2026-01-30 14:14:41.48	345.73	13.88	-36.9	-37.0	20.9	0.00e+00	0	40	0	4570742784	43	3784
2026-01-30 14:14:45.49	345.68	13.48	-37.0	-37.1	20.8	0.00e+00	0	40	0	4599054336	43	3840
2026-01-30 14:14:49.50	345.63	13.08	-37.1	-37.2	20.7	0.00e+00	0	40	0	4628414464	43	3891
2026-01-30 14:14:53.51	345.58	12.69	-37.2	-37.3	20.5	0.00e+00	0	40	0	4657774592	43	3939
2026-01-30 14:14:57.69	345.53	12.29	-37.3	-37.4	20.5	0.00e+00	0	40	0	4687134720	44	3780
2026-01-30 14:15:01.70	345.48	11.91	-37.5	-37.6	20.4	0.00e+00	0	40	0	4716494848	44	3832
2026-01-30 14:15:05.71	345.44	11.54	-37.3	-37.6	20.3	0.00e+00	0	40	0	4745854976	44	3836
2026-01-30 14:15:09.79	345.40	11.17	-37.3	-37.7	20.3	0.00e+00	0	40	0	4774166528	44	3891
2026-01-30 14:15:13.80	345.35	10.81	-37.2	-37.7	20.2	0.00e+00	0	40	0	4803526656	44	3912
2026-01-30 14:15:17.81	345.31	10.45	-37.3	-37.8	20.1	0.00e+00	0	40	0	4832886784	44	3954
2026-01-30 14:15:21.83	345.28	10.10	-37.4	-37.9	20.0	0.00e+00	0	40	0	4861198336	44	4002
2026-01-30 14:15:25.84	345.24	9.75	-37.4	-38.1	19.8	0.00e+00	0	40	0	4890558464	44	4055
2026-01-30 14:15:29.85	345.20	9.41	-37.4	-38.1	19.8	0.00e+00	0	40	0	4919918592	44	4081
2026-01-30 14:15:33.85	345.17	9.08	-37.4	-38.2	19.7	0.00e+00	0	40	0	4948230144	44	4122
2026-01-30 14:15:37.86	345.13	8.75	-49.0	-59.4	3.8	8.47e-01	0	40	104	4957667328	67	12540
2026-01-30 14:15:41.88	345.10	8.42	-48.9	-59.2	3.8	8.48e-01	0	40	104	4957667328	67	12260
2026-01-30 14:15:45.90	345.07	8.09	-48.5	-59.1	3.8	8.46e-01	0	40	104	4957667328	67	12147
2026-01-30 14:15:49.91	345.04	7.77	-49.4	-59.3	3.8	8.47e-01	0	40	104	4957667328	68	11725
2026-01-30 14:15:53.93	345.01	7.46	-49.4	-59.3	3.8	8.47e-01	0	40	104	4957667328	68	11782
2026-01-30 14:15:57.95	344.98	7.14	-49.4	-59.3	3.8	8.46e-01	0	40	104	4957667328	68	11729
2026-01-30 14:16:01.96	344.95	6.84	-49.3	-59.3	3.8	8.45e-01	0	40	104	4957667328	68	11799
2026-01-30 14:16:05.98	344.93	6.53	-49.3	-59.3	3.8	8.47e-01	0	40	104	4957667328	68	11807
2026-01-30 14:16:10.00	344.90	6.23	-49.3	-59.3	3.8	8.47e-01	0	40	104	4957667328	68	11741
2026-01-30 14:16:14.02	344.88	5.93	-49.3	-59.3	3.8	8.48e-01	0	40	104	4957667328	68	11752
2026-01-30 14:16:18.03	344.85	5.64	-49.3	-59.3	3.8	8.47e-01	0	40	104	4957667328	68	11764
2026-01-30 14:16:22.05	344.83	5.35	-49.4	-59.3	3.8	8.47e-01	0	40	104	4957667328	68	11721
2026-01-30 14:16:26.07	344.81	5.06	-49.3	-59.3	3.8	8.47e-01	0	40	104	4957667328	68	11739

#Closed at: 2026-01-30 14:16:28
#Recorded file [4957 MB]: D:/Data/31040_260130_170334.dat