passes_logs/2026/01/30/T1/T1__20260130_091518_NOAA_21_JPSS-2_rec.log

#Pass ID: 20260130_091518_NOAA 21 (JPSS-2)
#Satellite: NOAA 21 (JPSS-2)
#Configuration: NOAA 21
#almurnet v.1.7.20251203
#Start time: 2026-01-30 09:15:20

#Version: 2.0.20230620
#Station: T1
#Location: 37.570604 lon 55.790049 lat
#TLE: 1 54234U 22150A   26029.46216196  .00000141  00000+0  87503-4 0  9994
#TLE: 2 54234  98.7512 330.1880 0000955 196.3413 163.7732 14.19540905166865

#Time	Az	El	Level	Level2	SNR	BER	BlckErr	Temp	State	Recorded	gain1	gain2
2026-01-30 09:15:20.90	139.12	5.15	-49.6	-61.8	3.8	1.49e+00	0	36	0	0	70	14990
2026-01-30 09:15:23.91	139.01	5.36	-49.8	-61.8	3.8	1.49e+00	0	37	104	0	70	14907
2026-01-30 09:15:26.92	138.90	5.58	-49.7	-61.7	3.8	1.49e+00	0	37	104	0	70	14800
2026-01-30 09:15:29.93	138.80	5.79	-49.5	-61.6	3.8	1.49e+00	0	37	104	0	70	14613
2026-01-30 09:15:32.94	138.68	6.01	-49.3	-61.4	3.8	1.49e+00	0	37	104	0	69	15179
2026-01-30 09:15:35.96	138.57	6.23	-48.7	-59.4	3.8	1.49e+00	0	37	104	0	69	12034
2026-01-30 09:15:38.97	138.46	6.45	-48.8	-59.7	3.8	1.49e+00	0	37	104	0	69	12501
2026-01-30 09:15:41.98	138.34	6.67	-48.9	-60.7	3.8	1.49e+00	0	37	104	0	69	13891
2026-01-30 09:15:45.00	138.22	6.90	-48.9	-60.8	3.8	1.49e+00	0	38	104	0	69	14201
2026-01-30 09:15:48.01	138.10	7.12	-48.8	-59.8	3.8	1.49e+00	0	38	104	0	69	12606
2026-01-30 09:15:51.03	137.98	7.35	-48.6	-58.2	3.9	1.47e+00	0	38	104	0	69	10462
2026-01-30 09:15:54.04	137.86	7.58	-47.6	-53.2	6.4	3.18e-01	0	38	0	0	67	6613
2026-01-30 09:15:57.05	137.73	7.81	-45.6	-48.4	11.3	1.98e-03	0	38	0	0	63	4780
2026-01-30 09:16:00.06	137.60	8.05	-43.5	-45.2	14.5	7.00e-07	0	38	0	0	59	4154
2026-01-30 09:16:03.08	137.47	8.29	-42.7	-44.1	15.7	0.00e+00	0	38	0	0	57	4101
2026-01-30 09:16:06.09	137.34	8.52	-43.2	-44.7	15.3	0.00e+00	0	38	0	0	57	4409
2026-01-30 09:16:09.10	137.20	8.76	-45.1	-47.3	12.9	3.50e-05	0	38	0	0	60	5026
2026-01-30 09:16:12.12	137.06	9.01	-48.3	-52.8	8.2	3.49e-02	0	38	0	0	67	6277
2026-01-30 09:16:15.13	136.92	9.25	-45.7	-47.6	13.7	0.00e+00	0	38	0	0	61	4907
2026-01-30 09:16:18.36	136.77	9.52	-50.8	-62.5	3.8	1.49e+00	0	39	104	0	72	14514
2026-01-30 09:16:21.16	136.64	9.75	-50.9	-62.2	3.9	1.49e+00	0	39	104	0	73	13164
2026-01-30 09:16:24.32	136.48	10.01	-50.5	-61.6	3.8	1.49e+00	0	38	104	0	73	12301
2026-01-30 09:16:27.18	136.34	10.25	-46.6	-48.7	7.6	1.35e-02	0	38	0	0	64	4690
2026-01-30 09:16:30.40	136.17	10.53	-45.8	-47.4	7.5	1.28e-02	0	38	0	0	63	4271
2026-01-30 09:16:33.27	136.02	10.77	-46.6	-48.9	8.9	3.83e-02	0	38	0	0	64	4806
2026-01-30 09:16:36.64	135.85	11.07	-44.9	-46.5	14.9	2.20e-06	0	39	0	0	61	4328
2026-01-30 09:16:39.36	135.70	11.31	-44.6	-46.1	15.3	0.00e+00	0	39	0	0	61	4105
2026-01-30 09:16:42.65	135.52	11.60	-42.2	-43.2	17.6	0.00e+00	0	39	0	0	56	3936
2026-01-30 09:16:45.57	135.36	11.86	-41.3	-42.2	18.3	0.00e+00	0	39	0	0	53	4154
2026-01-30 09:16:48.58	135.18	12.13	-40.9	-41.8	18.7	0.00e+00	0	39	0	0	53	3988
2026-01-30 09:16:51.59	135.01	12.41	-40.7	-41.6	18.7	0.00e+00	0	39	0	0	53	3894
2026-01-30 09:16:54.60	134.83	12.68	-40.3	-41.2	19.0	0.00e+00	0	39	0	0	52	3920
2026-01-30 09:16:57.60	134.65	12.96	-40.1	-41.0	19.0	0.00e+00	0	39	0	0	52	3827
2026-01-30 09:17:00.98	134.44	13.28	-39.9	-40.8	19.1	0.00e+00	0	39	0	0	51	3963
2026-01-30 09:17:03.70	134.27	13.54	-39.8	-40.6	19.2	0.00e+00	0	39	0	0	51	3877
2026-01-30 09:17:07.00	134.06	13.86	-39.7	-40.5	19.4	0.00e+00	0	39	0	0	51	3834
2026-01-30 09:17:09.80	133.87	14.13	-39.6	-40.5	19.4	0.00e+00	0	39	0	0	51	3825
2026-01-30 09:17:13.24	133.64	14.47	-39.6	-40.4	19.5	0.00e+00	0	39	0	0	51	3793
2026-01-30 09:17:15.96	133.45	14.74	-39.5	-40.3	19.5	0.00e+00	0	39	0	0	51	3759
2026-01-30 09:17:19.26	133.22	15.08	-39.7	-40.4	19.4	0.00e+00	0	39	0	0	51	3823
2026-01-30 09:17:21.98	133.03	15.35	-39.7	-40.4	19.4	0.00e+00	0	39	0	0	51	3822
2026-01-30 09:17:25.28	132.79	15.69	-39.9	-40.7	19.2	0.00e+00	0	39	0	0	51	3931
2026-01-30 09:17:28.26	132.56	16.00	-39.9	-40.7	19.2	0.00e+00	0	39	0	0	51	3944
2026-01-30 09:17:31.27	132.34	16.32	-40.0	-40.8	19.2	0.00e+00	0	39	0	0	51	3977
2026-01-30 09:17:34.28	132.10	16.64	-39.9	-40.7	19.2	0.00e+00	0	39	0	0	51	3940
2026-01-30 09:17:37.28	131.86	16.97	-39.8	-40.6	19.3	0.00e+00	0	39	0	0	51	3911
2026-01-30 09:17:40.36	131.61	17.30	-39.6	-40.4	19.5	0.00e+00	0	39	0	0	51	3814
2026-01-30 09:17:43.37	131.36	17.64	-39.7	-40.5	19.4	0.00e+00	0	39	0	0	51	3831
2026-01-30 09:17:46.37	131.10	17.97	-39.7	-40.4	19.5	0.00e+00	0	39	0	0	51	3815
2026-01-30 09:17:49.38	130.84	18.31	-39.8	-40.6	19.3	0.00e+00	0	39	0	0	51	3897
2026-01-30 09:17:52.46	130.56	18.67	-39.9	-40.7	19.2	0.00e+00	0	39	0	0	51	3918
2026-01-30 09:17:55.42	130.29	19.01	-39.8	-40.6	19.3	0.00e+00	0	39	0	0	51	3904
2026-01-30 09:17:58.43	130.01	19.36	-39.8	-40.6	19.3	0.00e+00	0	39	0	0	51	3876
2026-01-30 09:18:01.44	129.72	19.72	-39.6	-40.4	19.5	0.00e+00	0	39	0	0	51	3797
2026-01-30 09:18:04.45	129.43	20.08	-39.7	-40.4	19.4	0.00e+00	0	39	0	0	51	3818
2026-01-30 09:18:07.50	129.12	20.46	-39.4	-40.1	19.8	0.00e+00	0	39	0	0	50	3893
2026-01-30 09:18:10.50	128.81	20.83	-39.2	-39.9	19.9	0.00e+00	0	39	0	0	50	3807
2026-01-30 09:18:13.51	128.49	21.20	-38.9	-39.6	20.1	0.00e+00	0	39	0	0	49	3900
2026-01-30 09:18:16.52	128.16	21.58	-38.8	-39.5	20.1	0.00e+00	0	39	0	0	49	3853
2026-01-30 09:18:19.52	127.83	21.97	-38.8	-39.5	20.1	0.00e+00	0	40	0	0	49	3868
2026-01-30 09:18:22.52	127.49	22.35	-38.7	-39.5	20.2	0.00e+00	0	39	0	0	49	3827
2026-01-30 09:18:25.56	127.13	22.75	-38.2	-38.9	20.7	0.00e+00	0	39	0	0	48	3807
2026-01-30 09:18:28.56	126.77	23.15	-38.2	-38.8	20.8	0.00e+00	0	39	0	0	48	3777
2026-01-30 09:18:31.57	126.40	23.56	-38.2	-38.8	20.8	0.00e+00	0	40	0	0	48	3771
2026-01-30 09:18:34.58	126.02	23.97	-38.1	-38.7	20.9	0.00e+00	0	39	0	0	48	3719
2026-01-30 09:18:37.72	125.61	24.40	-38.2	-38.9	20.8	0.00e+00	0	40	0	0	48	3786
2026-01-30 09:18:41.01	125.17	24.86	-38.3	-39.0	20.7	0.00e+00	0	40	0	0	48	3834
2026-01-30 09:18:43.73	124.79	25.24	-38.4	-39.1	20.5	0.00e+00	0	40	0	0	48	3904
2026-01-30 09:18:47.02	124.33	25.72	-38.7	-39.4	20.3	0.00e+00	0	40	0	0	48	4040
2026-01-30 09:18:49.76	123.93	26.11	-38.7	-39.4	20.4	0.00e+00	0	39	0	0	48	4026
2026-01-30 09:18:53.05	123.44	26.59	-38.8	-39.5	20.2	0.00e+00	0	39	0	0	48	4097
2026-01-30 09:18:55.77	123.02	27.00	-38.9	-39.6	20.2	0.00e+00	0	39	0	0	48	4106
2026-01-30 09:18:59.15	122.48	27.51	-38.9	-39.6	20.1	0.00e+00	0	39	0	0	48	4127
2026-01-30 09:19:02.25	121.97	27.98	-39.2	-40.0	19.7	0.00e+00	0	40	0	0	49	4063
2026-01-30 09:19:05.54	121.42	28.48	-39.2	-39.9	19.9	0.00e+00	0	40	0	0	49	4022
2026-01-30 09:19:08.26	120.95	28.91	-39.1	-39.9	19.9	0.00e+00	0	39	0	0	49	4006
2026-01-30 09:19:11.56	120.36	29.43	-39.0	-39.7	20.0	0.00e+00	0	39	0	0	49	3950
2026-01-30 09:19:14.63	119.79	29.91	-39.3	-40.1	19.5	0.00e+00	0	39	0	0	49	4113
2026-01-30 09:19:17.95	119.16	30.45	-39.4	-40.2	19.6	0.00e+00	0	40	0	0	49	4156
2026-01-30 09:19:20.67	118.62	30.89	-39.4	-40.1	19.7	0.00e+00	0	40	0	0	49	4144
2026-01-30 09:19:24.02	117.94	31.44	-39.4	-40.2	19.6	0.00e+00	0	40	0	0	49	4156
2026-01-30 09:19:26.74	117.38	31.89	-39.4	-40.2	19.6	0.00e+00	0	39	0	0	49	4146
2026-01-30 09:19:30.03	116.67	32.44	-39.6	-40.4	19.5	0.00e+00	0	39	0	0	49	4261
2026-01-30 09:19:32.75	116.06	32.90	-39.5	-40.3	19.6	0.00e+00	0	39	0	0	49	4216
2026-01-30 09:19:36.04	115.30	33.45	-39.7	-40.5	19.3	0.00e+00	0	40	0	0	50	4076
2026-01-30 09:19:38.90	114.63	33.94	-39.9	-40.7	19.2	0.00e+00	0	40	0	0	50	4181
2026-01-30 09:19:42.05	113.85	34.49	-40.2	-41.1	18.9	0.00e+00	0	40	0	0	51	4118
2026-01-30 09:19:44.92	113.13	34.98	-40.2	-41.0	18.8	0.00e+00	0	40	0	0	51	4091
2026-01-30 09:19:48.07	112.31	35.53	-40.6	-41.4	18.4	0.00e+00	0	40	0	0	51	4284
2026-01-30 09:19:51.06	111.50	36.05	-40.9	-41.8	18.1	0.00e+00	0	40	0	0	52	4219
2026-01-30 09:19:54.35	110.58	36.63	-40.7	-41.7	18.3	0.00e+00	0	40	0	0	52	4160
2026-01-30 09:19:57.29	109.73	37.14	-40.6	-41.5	18.5	0.00e+00	0	40	0	0	52	4075
2026-01-30 09:20:00.58	108.75	37.72	-40.6	-41.5	18.4	0.00e+00	0	40	0	0	52	4084
2026-01-30 09:20:03.35	107.89	38.21	-40.7	-41.6	18.4	0.00e+00	0	40	0	0	52	4120
2026-01-30 09:20:06.64	106.84	38.79	-40.7	-41.6	18.4	0.00e+00	0	40	0	0	52	4114
2026-01-30 09:20:09.65	105.85	39.32	-40.5	-41.4	18.5	0.00e+00	0	40	0	0	52	4040
2026-01-30 09:20:13.39	104.57	39.97	-40.8	-41.7	18.4	0.00e+00	0	40	0	0	52	4158
2026-01-30 09:20:16.25	103.56	40.46	-41.2	-42.2	17.8	0.00e+00	0	40	0	0	53	4192
2026-01-30 09:20:19.69	102.29	41.05	-41.7	-42.8	17.3	0.00e+00	0	39	0	0	54	4197
2026-01-30 09:20:22.50	101.23	41.53	-42.0	-43.2	16.9	0.00e+00	0	40	0	0	54	4394
2026-01-30 09:20:25.79	99.94	42.08	-42.0	-43.1	17.1	0.00e+00	0	40	0	0	54	4375
2026-01-30 09:20:28.96	98.66	42.61	-42.3	-43.5	16.7	0.00e+00	0	40	0	0	55	4298
2026-01-30 09:20:31.82	97.46	43.07	-41.9	-43.0	17.2	0.00e+00	0	40	0	0	55	4080
2026-01-30 09:20:34.97	96.11	43.57	-41.2	-42.2	17.8	0.00e+00	0	40	0	0	54	3942
2026-01-30 09:20:37.83	94.84	44.02	-41.7	-42.8	17.3	0.00e+00	0	40	0	0	54	4226
2026-01-30 09:20:41.11	93.34	44.51	-42.1	-43.2	16.8	0.00e+00	0	40	0	0	54	4441
2026-01-30 09:20:43.85	92.05	44.92	-41.6	-42.7	17.5	0.00e+00	0	40	0	0	54	4162
2026-01-30 09:20:47.14	90.47	45.38	-41.4	-42.4	17.6	0.00e+00	0	40	0	0	54	4039
2026-01-30 09:20:50.00	89.05	45.77	-41.0	-42.0	18.1	0.00e+00	0	40	0	0	54	3863
2026-01-30 09:20:53.14	87.45	46.18	-41.8	-43.0	17.0	0.00e+00	0	40	0	0	54	4303
2026-01-30 09:20:56.01	85.96	46.53	-41.7	-42.8	17.1	0.00e+00	0	40	0	0	54	4216
2026-01-30 09:20:59.16	84.28	46.90	-42.3	-43.5	16.7	0.00e+00	0	40	0	0	55	4338
2026-01-30 09:21:02.03	82.71	47.21	-41.9	-43.1	16.9	0.00e+00	0	40	0	0	55	4108
2026-01-30 09:21:05.17	80.97	47.53	-41.8	-42.9	17.4	0.00e+00	0	40	0	0	55	4016
2026-01-30 09:21:08.03	79.35	47.79	-41.4	-42.3	17.9	0.00e+00	0	40	0	0	54	4004
2026-01-30 09:21:11.18	77.53	48.06	-40.6	-41.5	18.7	0.00e+00	0	40	0	0	53	3834
2026-01-30 09:21:14.04	75.86	48.27	-41.1	-42.0	18.2	0.00e+00	0	40	0	0	53	4077
2026-01-30 09:21:17.62	73.73	48.50	-41.5	-42.6	17.6	0.00e+00	0	40	0	0	53	4346
2026-01-30 09:21:20.35	72.09	48.65	-41.8	-42.9	17.2	0.00e+00	0	40	0	0	54	4281
2026-01-30 09:21:23.77	70.02	48.80	-41.8	-42.9	17.2	0.00e+00	0	40	0	0	54	4268
2026-01-30 09:21:26.50	68.35	48.89	-41.5	-42.5	17.5	0.00e+00	0	40	0	0	54	4092
2026-01-30 09:21:29.80	66.32	48.96	-41.0	-41.9	18.0	0.00e+00	0	40	0	0	53	4028
2026-01-30 09:21:32.51	64.65	48.99	-41.6	-42.6	17.5	0.00e+00	0	40	0	0	53	4361
2026-01-30 09:21:36.09	62.44	49.00	-40.5	-41.3	18.7	0.00e+00	0	40	0	0	52	3994
2026-01-30 09:21:39.23	60.51	48.96	-40.7	-41.6	18.6	0.00e+00	0	40	0	0	52	4105
2026-01-30 09:21:42.09	58.75	48.90	-41.5	-42.6	17.6	0.00e+00	0	40	0	0	53	4345
2026-01-30 09:21:45.40	56.73	48.79	-41.7	-42.7	17.4	0.00e+00	0	40	0	0	53	4421
2026-01-30 09:21:48.30	54.97	48.66	-42.0	-43.1	17.2	0.00e+00	0	40	0	0	54	4345
2026-01-30 09:21:52.14	52.67	48.45	-41.1	-42.0	18.2	0.00e+00	0	40	0	0	54	3857
2026-01-30 09:21:54.89	51.04	48.27	-41.2	-42.1	18.1	0.00e+00	0	40	0	0	54	3900
2026-01-30 09:21:58.63	48.86	47.98	-41.7	-42.8	17.1	0.00e+00	0	40	0	0	54	4199
2026-01-30 09:22:01.81	47.04	47.71	-40.9	-41.8	18.3	0.00e+00	0	40	0	0	53	3982
2026-01-30 09:22:04.84	45.34	47.42	-41.3	-42.3	17.9	0.00e+00	0	40	0	0	53	4209
2026-01-30 09:22:07.84	43.68	47.11	-41.5	-42.6	17.3	0.00e+00	0	40	0	0	53	4353
2026-01-30 09:22:10.85	42.06	46.77	-41.9	-43.0	17.3	0.00e+00	0	40	0	0	54	4301
2026-01-30 09:22:13.85	40.47	46.42	-41.6	-42.6	17.5	0.00e+00	0	40	0	0	55	3904
2026-01-30 09:22:16.83	38.94	46.04	-41.3	-42.3	17.9	0.00e+00	0	40	0	0	53	4199
2026-01-30 09:22:19.98	37.35	45.63	-42.6	-43.8	16.3	0.00e+00	0	40	0	0	56	4227
2026-01-30 09:22:22.85	35.95	45.23	-40.9	-41.8	18.4	0.00e+00	0	40	0	0	53	3974
2026-01-30 09:22:26.01	34.44	44.78	-43.4	-44.9	15.4	0.00e+00	0	40	0	0	57	4517
2026-01-30 09:22:28.94	33.08	44.35	-40.9	-41.8	18.0	0.00e+00	0	40	0	0	53	3980
2026-01-30 09:22:32.09	31.66	43.87	-41.8	-42.9	17.5	0.00e+00	0	40	0	0	54	4249
2026-01-30 09:22:34.94	30.41	43.42	-43.1	-44.6	15.2	0.00e+00	0	40	0	0	58	4117
2026-01-30 09:22:38.10	29.07	42.92	-41.9	-43.0	17.1	0.00e+00	0	40	0	0	55	4083
2026-01-30 09:22:40.96	27.89	42.45	-42.3	-43.6	16.7	0.00e+00	0	40	0	0	55	4360
2026-01-30 09:22:44.11	26.63	41.93	-42.1	-43.2	16.9	0.00e+00	0	40	0	0	55	4176
2026-01-30 09:22:46.98	25.52	41.45	-41.9	-43.0	17.3	0.00e+00	0	40	0	0	54	4294
2026-01-30 09:22:50.13	24.34	40.92	-43.1	-44.5	15.6	0.00e+00	0	40	0	0	57	4332
2026-01-30 09:22:53.00	23.30	40.42	-41.4	-42.4	17.7	0.00e+00	0	40	0	0	54	4027
2026-01-30 09:22:56.19	22.18	39.87	-41.5	-42.6	17.7	0.00e+00	0	40	0	0	54	4115
2026-01-30 09:22:59.34	21.11	39.33	-43.0	-44.4	16.2	0.00e+00	0	40	0	0	56	4503
2026-01-30 09:23:02.21	20.16	38.82	-41.5	-42.6	17.6	0.00e+00	0	40	0	0	55	3874
2026-01-30 09:23:05.36	19.16	38.27	-41.1	-42.1	18.1	0.00e+00	0	40	0	0	53	4142
2026-01-30 09:23:08.21	18.28	37.77	-41.4	-42.5	17.7	0.00e+00	0	40	0	0	53	4301
2026-01-30 09:23:11.83	17.20	37.14	-41.3	-42.3	17.8	0.00e+00	0	40	0	0	53	4235
2026-01-30 09:23:14.60	16.41	36.66	-40.1	-40.9	19.2	0.00e+00	0	40	0	0	52	3803
2026-01-30 09:23:18.44	15.34	35.99	-40.4	-41.3	19.0	0.00e+00	0	40	0	0	51	4200
2026-01-30 09:23:21.45	14.54	35.46	-39.9	-40.7	19.4	0.00e+00	0	40	0	0	51	3926
2026-01-30 09:23:24.82	13.67	34.88	-39.9	-40.7	19.5	0.00e+00	0	40	0	0	51	3924
2026-01-30 09:23:27.83	12.92	34.36	-39.8	-40.5	19.4	0.00e+00	0	40	0	0	51	3862
2026-01-30 09:23:30.84	12.19	33.85	-40.1	-40.9	19.1	0.00e+00	0	40	0	0	51	4043
2026-01-30 09:23:33.85	11.49	33.34	-40.2	-41.1	18.7	0.00e+00	0	40	0	0	51	4134
2026-01-30 09:23:36.86	10.80	32.83	-39.9	-40.8	19.3	0.00e+00	0	40	0	0	51	3959
2026-01-30 09:23:39.87	10.14	32.33	-40.1	-41.0	19.2	0.00e+00	0	40	0	0	51	4075
2026-01-30 09:23:42.88	9.50	31.83	-40.1	-41.0	19.1	0.00e+00	0	40	0	0	51	4060
2026-01-30 09:23:45.88	8.88	31.33	-39.7	-40.5	19.6	0.00e+00	0	40	0	0	51	3835
2026-01-30 09:23:48.96	8.27	30.83	-39.7	-40.5	19.7	0.00e+00	0	40	0	0	51	3851
2026-01-30 09:23:51.85	7.71	30.37	-39.8	-40.7	19.5	0.00e+00	0	40	0	0	51	3925
2026-01-30 09:23:55.01	7.11	29.86	-39.7	-40.5	19.5	0.00e+00	0	40	0	0	51	3862
2026-01-30 09:23:57.87	6.59	29.41	-39.8	-40.7	19.4	0.00e+00	0	40	0	0	51	3914
2026-01-30 09:24:01.02	6.03	28.92	-39.9	-40.7	19.4	0.00e+00	0	40	0	0	51	3939
2026-01-30 09:24:03.89	5.54	28.47	-39.4	-40.2	19.9	0.00e+00	0	40	0	0	50	3927
2026-01-30 09:24:07.24	4.98	27.96	-39.3	-40.0	20.0	0.00e+00	0	40	0	0	50	3868
2026-01-30 09:24:10.30	4.48	27.50	-39.3	-40.1	20.0	0.00e+00	0	40	0	0	50	3877
2026-01-30 09:24:13.34	4.01	27.05	-39.1	-39.9	20.1	0.00e+00	0	40	0	0	50	3786
2026-01-30 09:24:16.70	3.49	26.55	-39.1	-39.8	20.1	0.00e+00	0	40	0	0	50	3762
2026-01-30 09:24:19.42	3.09	26.15	-38.9	-39.6	20.3	0.00e+00	0	40	0	0	49	3892
2026-01-30 09:24:22.69	2.62	25.68	-38.8	-39.5	20.4	0.00e+00	0	40	0	0	49	3853
2026-01-30 09:24:25.81	2.18	25.24	-39.0	-39.7	20.3	0.00e+00	0	40	0	0	49	3953
2026-01-30 09:24:28.67	1.79	24.84	-39.1	-39.8	20.2	0.00e+00	0	40	0	0	49	4004
2026-01-30 09:24:31.92	1.36	24.39	-39.3	-40.1	19.9	0.00e+00	0	40	0	0	49	4108
2026-01-30 09:24:34.87	0.98	23.98	-39.6	-40.4	19.6	0.00e+00	0	40	0	0	49	4264
2026-01-30 09:24:38.02	0.59	23.56	-39.7	-40.6	19.5	0.00e+00	0	40	0	0	50	4113
2026-01-30 09:24:40.89	0.24	23.17	-39.8	-40.7	19.3	0.00e+00	0	40	0	0	50	4164
2026-01-30 09:24:44.04	359.87	22.76	-39.5	-40.3	19.7	0.00e+00	0	40	0	0	50	3964
2026-01-30 09:24:46.90	359.53	22.38	-39.3	-40.1	19.9	0.00e+00	0	40	0	0	50	3888
2026-01-30 09:24:50.14	359.17	21.97	-39.2	-40.0	20.0	0.00e+00	0	40	0	0	50	3841
2026-01-30 09:24:53.45	358.81	21.55	-39.3	-40.1	20.0	0.00e+00	0	40	0	0	50	3904
2026-01-30 09:24:56.57	358.47	21.16	-39.3	-40.1	20.0	0.00e+00	0	40	0	0	50	3887
2026-01-30 09:24:59.89	358.13	20.74	-39.3	-40.1	19.9	0.00e+00	0	40	0	0	50	3872
2026-01-30 09:25:02.87	357.83	20.38	-39.2	-40.0	19.9	0.00e+00	0	40	0	0	50	3833
2026-01-30 09:25:06.64	357.46	19.93	-39.1	-39.8	20.0	0.00e+00	0	40	0	0	50	3772
2026-01-30 09:25:09.39	357.19	19.60	-39.1	-39.8	20.0	0.00e+00	0	40	0	0	50	3780
2026-01-30 09:25:13.13	356.84	19.16	-39.1	-39.9	19.9	0.00e+00	0	40	0	0	50	3801
2026-01-30 09:25:16.08	356.57	18.82	-38.9	-39.7	20.1	0.00e+00	0	40	0	0	49	3923
2026-01-30 09:25:19.15	356.30	18.47	-39.1	-39.9	20.1	0.00e+00	0	40	0	0	49	4016
2026-01-30 09:25:22.05	356.05	18.14	-39.4	-40.1	20.0	0.00e+00	0	40	0	0	49	4134
2026-01-30 09:25:25.68	355.74	17.74	-39.7	-40.5	19.8	0.00e+00	0	40	0	0	49	4318
2026-01-30 09:25:28.66	355.50	17.41	-39.5	-40.4	19.6	0.00e+00	0	40	0	0	50	4036
2026-01-30 09:25:31.67	355.25	17.08	-39.7	-40.6	19.5	0.00e+00	0	40	0	0	50	4115
2026-01-30 09:25:34.81	355.01	16.74	-40.0	-40.9	19.3	0.00e+00	0	40	0	0	50	4244
2026-01-30 09:25:37.91	354.77	16.41	-40.1	-41.0	19.1	0.00e+00	0	40	0	0	50	4312
2026-01-30 09:25:40.77	354.55	16.11	-40.2	-41.2	18.9	0.00e+00	0	41	0	0	51	4184
2026-01-30 09:25:43.78	354.33	15.80	-40.5	-41.5	18.8	0.00e+00	0	40	0	0	51	4311
2026-01-30 09:25:46.84	354.11	15.48	-40.6	-41.6	18.8	0.00e+00	0	40	0	0	51	4354
2026-01-30 09:25:49.78	353.90	15.19	-40.3	-41.2	19.0	0.00e+00	0	40	0	0	51	4174
2026-01-30 09:25:52.93	353.68	14.87	-40.0	-40.9	19.0	0.00e+00	0	40	0	0	51	4034
2026-01-30 09:25:55.80	353.49	14.58	-39.9	-40.9	19.0	0.00e+00	0	40	0	0	51	4010
2026-01-30 09:25:58.95	353.28	14.27	-39.9	-40.8	19.1	0.00e+00	0	40	0	0	51	3992
2026-01-30 09:26:01.81	353.09	14.00	-39.8	-40.8	19.1	0.00e+00	0	40	0	0	51	3975
2026-01-30 09:26:05.30	352.87	13.66	-39.8	-40.8	19.1	0.00e+00	0	40	0	0	51	3970
2026-01-30 09:26:08.02	352.70	13.40	-39.9	-40.9	19.0	0.00e+00	0	40	0	0	51	4019
2026-01-30 09:26:11.31	352.50	13.09	-39.8	-40.8	19.1	0.00e+00	0	40	0	0	51	3989
2026-01-30 09:26:14.02	352.34	12.84	-39.7	-40.9	19.0	0.00e+00	0	41	0	0	51	4026
2026-01-30 09:26:17.62	352.13	12.51	-39.9	-41.0	18.9	0.00e+00	0	40	0	0	51	4097
2026-01-30 09:26:20.34	351.98	12.26	-39.9	-41.1	18.8	0.00e+00	0	40	0	0	51	4121
2026-01-30 09:26:23.59	351.79	11.97	-40.0	-41.2	18.6	0.00e+00	0	40	0	0	51	4179
2026-01-30 09:26:26.65	351.62	11.70	-40.0	-41.2	18.6	0.00e+00	0	40	0	0	51	4193
2026-01-30 09:26:29.52	351.47	11.44	-39.9	-41.2	18.7	0.00e+00	0	40	0	0	51	4172
2026-01-30 09:26:32.67	351.30	11.17	-39.8	-41.4	18.6	0.00e+00	0	40	0	0	51	4273
2026-01-30 09:26:35.54	351.15	10.92	-39.4	-41.3	18.6	0.00e+00	0	40	0	0	50	4465
2026-01-30 09:26:38.69	350.99	10.65	-39.3	-41.4	18.5	0.00e+00	0	41	0	0	50	4513
2026-01-30 09:26:41.65	350.85	10.40	-39.3	-41.4	18.4	0.00e+00	0	40	0	0	50	4535
2026-01-30 09:26:44.66	350.70	10.14	-39.5	-41.4	18.4	0.00e+00	0	41	0	0	50	4541
2026-01-30 09:26:47.66	350.55	9.89	-40.0	-41.5	18.3	0.00e+00	0	40	0	0	50	4592
2026-01-30 09:26:50.67	350.41	9.64	-40.3	-41.5	18.3	0.00e+00	0	40	0	0	51	4334
2026-01-30 09:26:53.62	350.28	9.40	-40.5	-41.6	18.2	0.00e+00	0	40	0	0	51	4372
2026-01-30 09:26:56.99	350.12	9.13	-40.5	-41.7	18.1	0.00e+00	0	41	0	0	51	4441
2026-01-30 09:26:59.85	349.99	8.90	-46.2	-60.9	3.8	1.49e+00	0	41	104	0	63	20212
2026-01-30 09:27:03.60	349.83	8.60	-49.0	-61.6	3.8	1.49e+00	0	41	104	0	69	15480
2026-01-30 09:27:06.38	349.71	8.38	-48.1	-61.4	3.8	1.49e+00	0	40	104	0	67	16981
2026-01-30 09:27:10.12	349.55	8.09	-49.0	-61.2	3.8	1.49e+00	0	40	104	0	69	14875
2026-01-30 09:27:12.99	349.44	7.87	-48.9	-61.0	3.8	1.49e+00	0	41	104	0	68	15391
2026-01-30 09:27:16.61	349.29	7.59	-48.9	-61.1	3.8	1.49e+00	0	40	104	0	68	15534
2026-01-30 09:27:19.51	349.17	7.37	-49.0	-61.1	3.8	1.49e+00	0	41	104	0	68	15551
2026-01-30 09:27:22.83	349.04	7.12	-49.0	-61.2	3.8	1.49e+00	0	41	104	0	68	15618
2026-01-30 09:27:25.56	348.94	6.92	-49.0	-61.1	3.8	1.49e+00	0	41	104	0	68	15526
2026-01-30 09:27:28.86	348.81	6.68	-49.0	-61.1	3.8	1.49e+00	0	41	104	0	68	15524
2026-01-30 09:27:31.58	348.71	6.48	-49.0	-61.1	3.8	1.49e+00	0	41	104	0	68	15511
2026-01-30 09:27:34.88	348.59	6.24	-49.0	-61.1	3.8	1.49e+00	0	40	104	0	68	15495
2026-01-30 09:27:37.60	348.49	6.04	-49.0	-61.1	3.8	1.49e+00	0	41	104	0	68	15502
2026-01-30 09:27:40.90	348.38	5.80	-49.0	-61.1	3.8	1.49e+00	0	41	104	0	68	15469
2026-01-30 09:27:43.63	348.28	5.61	-49.0	-61.1	3.8	1.49e+00	0	41	104	0	68	15430
2026-01-30 09:27:46.93	348.17	5.37	-49.0	-61.1	3.8	1.49e+00	0	41	104	0	68	15506
2026-01-30 09:27:49.66	348.08	5.18	-49.0	-61.1	3.8	1.49e+00	0	41	104	0	68	15513
2026-01-30 09:27:52.96	347.97	4.95	-49.0	-61.1	3.8	1.49e+00	0	41	104	0	68	15485

#Closed at: 2026-01-30 09:27:53
#Recorded file [0 MB]: D:/Data/31040_260130_121520.dat