passes_logs/2026/01/30/T1/T1__20260130_122130_FENGYUN_3D_rec.log

#Pass ID: 20260130_122130_FENGYUN 3D
#Satellite: FENGYUN 3D
#Configuration: FENGYUN 3D
#almurnet v.1.7.20251203
#Start time: 2026-01-30 12:21:30

#Version: 2.0.20230620
#Station: T1
#Location: 37.570604 lon 55.790049 lat
#TLE: 1 43010U 17072A   26029.52179110  .00000394  00000+0  20818-3 0  9997
#TLE: 2 43010  98.9957   1.5649 0002507  83.7772 276.3689 14.19703315425310

#Time	Az	El	Level	Level2	SNR	BER	BlckErr	Temp	State	Recorded	gain1	gain2
2026-01-30 12:21:30.35	171.30	5.02	-50.8	-62.2	3.8	8.46e-01	0	38	104	0	73	13183
2026-01-30 12:21:34.36	171.38	5.31	-51.1	-62.2	3.8	8.47e-01	0	38	104	0	72	13966
2026-01-30 12:21:38.38	171.47	5.60	-51.0	-62.1	3.8	8.46e-01	0	38	104	0	72	13850
2026-01-30 12:21:42.40	171.56	5.89	-50.9	-62.1	3.8	8.47e-01	0	39	104	0	72	13808
2026-01-30 12:21:46.42	171.66	6.19	-50.5	-62.1	3.8	8.47e-01	0	38	104	0	72	13774
2026-01-30 12:21:50.43	171.75	6.49	-50.5	-62.0	3.8	8.48e-01	0	39	104	0	72	13645
2026-01-30 12:21:54.45	171.85	6.79	-49.7	-61.9	3.8	8.47e-01	0	39	104	0	71	14216
2026-01-30 12:21:58.47	171.95	7.10	-46.5	-60.0	3.8	8.47e-01	0	39	104	0	64	17190
2026-01-30 12:22:02.48	172.05	7.41	-46.2	-56.4	4.7	8.26e-01	0	39	0	0	64	11408
2026-01-30 12:22:06.50	172.15	7.73	-45.0	-50.4	9.7	2.76e-02	0	39	0	15728640	62	6368
2026-01-30 12:22:10.52	172.25	8.05	-43.7	-47.1	13.1	5.49e-05	0	39	0	38797312	59	5166
2026-01-30 12:22:14.53	172.36	8.37	-43.4	-46.6	13.6	9.10e-06	0	39	0	60817408	58	5163
2026-01-30 12:22:18.55	172.46	8.70	-44.8	-49.6	10.5	3.52e-03	0	39	0	83886080	60	6545
2026-01-30 12:22:22.56	172.57	9.03	-46.3	-57.2	4.4	8.00e-01	0	40	0	101711872	63	13151
2026-01-30 12:22:26.57	172.69	9.36	-43.3	-46.0	14.0	4.58e-02	0	39	0	103809024	58	4854
2026-01-30 12:22:30.59	172.80	9.70	-41.0	-42.6	17.4	0.00e+00	0	40	0	121634816	53	4355
2026-01-30 12:22:34.60	172.92	10.05	-40.3	-41.8	18.2	0.00e+00	0	40	0	143654912	52	4197
2026-01-30 12:22:38.66	173.04	10.40	-40.2	-41.7	18.4	0.00e+00	0	40	0	166723584	51	4409
2026-01-30 12:22:42.88	173.17	10.77	-39.7	-41.1	19.0	0.00e+00	0	40	0	190840832	51	4100
2026-01-30 12:22:46.89	173.29	11.13	-39.5	-40.9	19.1	6.80e-06	0	40	0	212860928	50	4276
2026-01-30 12:22:50.89	173.42	11.50	-39.5	-40.7	19.3	0.00e+00	0	40	0	235929600	50	4185
2026-01-30 12:22:54.90	173.55	11.87	-39.4	-40.5	19.5	0.00e+00	0	40	0	257949696	50	4093
2026-01-30 12:22:59.14	173.70	12.27	-39.5	-40.5	19.5	0.00e+00	0	40	0	282066944	50	4097
2026-01-30 12:23:03.15	173.83	12.65	-39.7	-40.7	19.3	0.00e+00	0	40	0	305135616	50	4162
2026-01-30 12:23:07.17	173.97	13.04	-39.3	-40.3	19.7	0.00e+00	0	40	0	327155712	50	3972
2026-01-30 12:23:11.18	174.12	13.43	-39.2	-40.2	19.8	0.00e+00	0	40	0	349175808	50	3917
2026-01-30 12:23:15.19	174.27	13.83	-38.9	-39.9	20.1	0.00e+00	0	40	0	372244480	49	4023
2026-01-30 12:23:19.20	174.42	14.24	-38.7	-39.7	20.2	0.00e+00	0	40	0	395313152	49	3943
2026-01-30 12:23:23.22	174.57	14.65	-38.6	-39.5	20.4	0.00e+00	0	40	0	417333248	49	3857
2026-01-30 12:23:27.33	174.74	15.09	-38.5	-39.5	20.5	0.00e+00	0	40	0	440401920	48	4054
2026-01-30 12:23:31.49	174.91	15.53	-38.2	-39.1	20.8	0.00e+00	0	40	0	463470592	48	3884
2026-01-30 12:23:35.51	175.08	15.97	-37.9	-38.9	20.8	0.00e+00	0	40	0	486539264	47	4005
2026-01-30 12:23:39.55	175.25	16.42	-37.8	-38.7	21.0	0.00e+00	0	40	0	509607936	47	3927
2026-01-30 12:23:43.56	175.43	16.87	-37.8	-38.7	21.0	0.00e+00	0	40	0	531628032	47	3919
2026-01-30 12:23:47.57	175.61	17.33	-37.7	-38.6	21.1	0.00e+00	0	40	0	554696704	47	3876
2026-01-30 12:23:51.58	175.80	17.80	-37.5	-38.3	21.3	0.00e+00	0	40	0	576716800	46	3987
2026-01-30 12:23:55.60	176.00	18.28	-37.5	-38.4	21.2	0.00e+00	0	40	0	599785472	46	4036
2026-01-30 12:23:59.59	176.20	18.76	-37.7	-38.5	21.1	0.00e+00	0	40	0	621805568	46	4089
2026-01-30 12:24:03.70	176.41	19.27	-37.5	-38.4	21.2	0.00e+00	0	40	0	644874240	46	4034
2026-01-30 12:24:07.71	176.62	19.78	-37.2	-38.0	21.5	0.00e+00	0	40	0	667942912	46	3854
2026-01-30 12:24:11.89	176.85	20.31	-37.1	-37.9	21.6	0.00e+00	0	40	0	691011584	46	3793
2026-01-30 12:24:15.97	177.08	20.85	-37.1	-37.9	21.6	0.00e+00	0	40	0	714080256	45	4032
2026-01-30 12:24:19.98	177.32	21.39	-37.1	-37.9	21.6	0.00e+00	0	40	0	737148928	45	4040
2026-01-30 12:24:24.26	177.57	21.98	-37.0	-37.9	21.6	0.00e+00	0	40	0	761266176	45	4009
2026-01-30 12:24:28.47	177.84	22.57	-36.8	-37.6	21.9	0.00e+00	0	40	0	784334848	45	3903
2026-01-30 12:24:32.47	178.10	23.14	-36.7	-37.5	22.0	0.00e+00	0	40	0	807403520	45	3848
2026-01-30 12:24:36.80	178.39	23.78	-36.4	-37.2	22.2	0.00e+00	0	40	0	831520768	44	3955
2026-01-30 12:24:40.84	178.68	24.38	-36.6	-37.4	22.1	0.00e+00	0	40	0	854589440	44	4015
2026-01-30 12:24:44.86	178.97	25.00	-36.4	-37.2	22.3	0.00e+00	0	40	0	876609536	44	3922
2026-01-30 12:24:48.82	179.27	25.62	-36.4	-37.2	22.3	0.00e+00	0	40	0	898629632	44	3915
2026-01-30 12:24:52.84	179.58	26.27	-36.3	-37.1	22.3	0.00e+00	0	40	0	921698304	44	3892
2026-01-30 12:24:56.85	179.91	26.93	-36.2	-36.9	22.4	0.00e+00	0	40	0	943718400	44	3820
2026-01-30 12:25:00.88	180.25	27.60	-35.9	-36.6	22.6	0.00e+00	0	40	0	966787072	43	3898
2026-01-30 12:25:04.90	180.61	28.29	-36.0	-36.8	22.4	0.00e+00	0	40	0	989855744	43	3990
2026-01-30 12:25:09.25	181.01	29.06	-36.2	-37.0	22.3	0.00e+00	0	40	0	1013972992	43	4078
2026-01-30 12:25:13.26	181.40	29.79	-35.9	-36.6	22.6	0.00e+00	0	40	0	1035993088	43	3910
2026-01-30 12:25:17.33	181.81	30.54	-35.9	-36.6	22.6	0.00e+00	0	40	0	1059061760	43	3902
2026-01-30 12:25:21.41	182.24	31.31	-35.7	-36.5	22.7	0.00e+00	0	40	0	1082130432	43	3844
2026-01-30 12:25:25.58	182.70	32.12	-36.1	-36.9	22.3	0.00e+00	0	40	0	1105199104	43	4042
2026-01-30 12:25:29.80	183.19	32.96	-35.6	-36.4	22.8	0.00e+00	0	40	0	1129316352	43	3797
2026-01-30 12:25:33.81	183.68	33.78	-35.8	-36.6	22.6	0.00e+00	0	40	0	1152385024	43	3899
2026-01-30 12:25:37.82	184.20	34.62	-35.7	-36.5	22.7	0.00e+00	0	40	0	1174405120	43	3832
2026-01-30 12:25:42.14	184.79	35.55	-35.6	-36.4	22.8	0.00e+00	0	40	0	1198522368	43	3785
2026-01-30 12:25:46.20	185.37	36.45	-35.2	-35.9	23.1	0.00e+00	0	40	0	1221591040	42	3821
2026-01-30 12:25:50.16	185.96	37.34	-35.5	-36.3	22.9	0.00e+00	0	40	0	1243611136	42	3967
2026-01-30 12:25:54.55	186.67	38.35	-35.7	-36.4	22.8	0.00e+00	0	40	0	1268776960	42	4042
2026-01-30 12:25:58.56	187.34	39.30	-35.7	-36.4	22.8	0.00e+00	0	40	0	1290797056	42	4020
2026-01-30 12:26:02.57	188.06	40.27	-35.9	-36.7	22.6	0.00e+00	0	40	0	1313865728	42	4155
2026-01-30 12:26:06.61	188.83	41.28	-35.7	-36.5	22.9	0.00e+00	0	40	0	1336934400	42	4054
2026-01-30 12:26:10.62	189.65	42.29	-35.8	-36.6	22.7	0.00e+00	0	40	0	1358954496	42	4110
2026-01-30 12:26:14.79	190.55	43.37	-36.3	-37.1	22.3	0.00e+00	0	40	0	1382023168	43	4118
2026-01-30 12:26:19.01	191.52	44.49	-36.5	-37.3	22.1	0.00e+00	0	40	0	1406140416	43	4234
2026-01-30 12:26:23.01	192.51	45.57	-36.0	-36.8	22.6	0.00e+00	0	40	0	1429209088	43	3973
2026-01-30 12:26:27.02	193.57	46.67	-36.3	-37.1	22.4	0.00e+00	0	40	0	1451229184	43	4119
2026-01-30 12:26:31.03	194.71	47.79	-36.0	-36.7	22.7	0.00e+00	0	40	0	1474297856	43	3955
2026-01-30 12:26:35.04	195.93	48.92	-36.2	-36.9	22.5	0.00e+00	0	40	0	1496317952	43	4046
2026-01-30 12:26:39.06	197.25	50.08	-36.3	-37.1	22.4	0.00e+00	0	40	0	1519386624	43	4134
2026-01-30 12:26:43.09	198.67	51.25	-36.6	-37.5	22.1	0.00e+00	0	40	0	1541406720	43	4295
2026-01-30 12:26:47.09	200.20	52.42	-37.0	-37.8	22.0	0.00e+00	0	40	0	1564475392	44	4205
2026-01-30 12:26:51.11	201.87	53.60	-37.3	-38.1	21.8	0.00e+00	0	40	0	1586495488	45	4099
2026-01-30 12:26:55.67	203.92	54.94	-36.9	-37.7	21.9	0.00e+00	0	40	0	1612709888	45	3944
2026-01-30 12:26:59.71	205.91	56.13	-37.0	-37.8	21.8	0.00e+00	0	40	0	1634729984	45	4004
2026-01-30 12:27:03.74	208.07	57.30	-36.9	-37.7	21.9	0.00e+00	0	40	0	1657798656	45	3953
2026-01-30 12:27:07.80	210.44	58.46	-36.6	-37.4	22.3	0.00e+00	0	40	0	1680867328	45	3792
2026-01-30 12:27:11.95	213.07	59.62	-36.3	-37.0	22.7	0.00e+00	0	40	0	1703936000	44	3844
2026-01-30 12:27:15.98	215.87	60.71	-36.2	-36.9	22.7	0.00e+00	0	40	0	1727004672	44	3824
2026-01-30 12:27:20.01	218.90	61.76	-35.3	-36.0	23.3	0.00e+00	0	40	0	1749024768	42	3838
2026-01-30 12:27:24.21	222.34	62.78	-35.4	-36.1	23.1	0.00e+00	0	40	0	1773142016	42	3895
2026-01-30 12:27:28.24	225.92	63.69	-35.5	-36.3	23.0	0.00e+00	0	40	0	1795162112	42	3982
2026-01-30 12:27:32.30	229.80	64.52	-35.3	-36.1	23.2	0.00e+00	0	40	0	1818230784	42	3876
2026-01-30 12:27:36.40	233.99	65.25	-35.1	-35.8	23.4	0.00e+00	0	40	0	1841299456	42	3766
2026-01-30 12:27:40.62	238.58	65.87	-35.1	-35.9	23.4	0.00e+00	0	40	0	1865416704	42	3788
2026-01-30 12:27:44.63	243.15	66.34	-35.1	-35.8	23.4	0.00e+00	0	40	0	1887436800	41	3973
2026-01-30 12:27:48.53	247.77	66.65	-35.3	-36.0	23.3	0.00e+00	0	40	0	1909456896	41	4098
2026-01-30 12:27:52.87	253.03	66.84	-34.6	-35.3	23.8	0.00e+00	0	40	0	1934622720	41	3774
2026-01-30 12:27:56.88	257.93	66.86	-35.0	-35.8	23.4	0.00e+00	0	40	0	1956642816	41	3966
2026-01-30 12:28:00.89	262.81	66.72	-35.1	-35.8	23.4	0.00e+00	0	40	0	1979711488	41	4000
2026-01-30 12:28:04.91	267.60	66.43	-35.0	-35.7	23.5	0.00e+00	0	41	0	2001731584	41	3933
2026-01-30 12:28:08.92	272.22	66.00	-35.5	-36.2	23.0	0.00e+00	0	40	0	2024800256	41	4191
2026-01-30 12:28:12.94	276.65	65.44	-35.4	-36.2	23.0	0.00e+00	0	40	0	2046820352	41	4168
2026-01-30 12:28:16.95	280.82	64.76	-35.5	-36.3	23.0	0.00e+00	0	40	0	2069889024	41	4203
2026-01-30 12:28:20.96	284.74	63.97	-35.4	-36.1	23.1	0.00e+00	0	40	0	2091909120	41	4131
2026-01-30 12:28:24.97	288.38	63.10	-35.3	-36.1	23.2	0.00e+00	0	40	0	2114977792	41	4108
2026-01-30 12:28:28.98	291.76	62.15	-35.5	-36.2	23.1	0.00e+00	0	40	0	2136997888	41	4164
2026-01-30 12:28:32.99	294.87	61.13	-35.4	-36.1	23.3	0.00e+00	0	41	0	2160066560	41	4116
2026-01-30 12:28:37.00	297.74	60.07	-36.1	-36.8	22.7	0.00e+00	0	40	0	2182086656	42	4233
2026-01-30 12:28:41.01	300.37	58.96	-36.3	-37.0	22.6	0.00e+00	0	40	0	2205155328	43	4092
2026-01-30 12:28:45.02	302.80	57.83	-36.4	-37.2	22.4	0.00e+00	0	40	0	2227175424	43	4148
2026-01-30 12:28:49.03	305.02	56.67	-36.8	-37.6	22.2	0.00e+00	0	40	0	2250244096	44	4123
2026-01-30 12:28:53.12	307.11	55.48	-37.0	-37.8	22.0	0.00e+00	0	40	0	2273312768	44	4200
2026-01-30 12:28:57.13	308.99	54.31	-37.1	-37.9	22.0	0.00e+00	0	40	0	2295332864	44	4248
2026-01-30 12:29:01.07	310.70	53.15	-36.8	-37.6	22.6	0.00e+00	0	40	0	2317352960	44	4105
2026-01-30 12:29:05.09	312.30	51.97	-36.4	-37.0	23.1	0.00e+00	0	40	0	2340421632	44	3864
2026-01-30 12:29:09.20	313.82	50.78	-36.4	-37.1	23.0	0.00e+00	0	40	0	2363490304	44	3896
2026-01-30 12:29:13.22	315.20	49.62	-36.3	-37.0	23.1	0.00e+00	0	40	0	2386558976	44	3856
2026-01-30 12:29:17.23	316.47	48.48	-36.2	-36.9	23.3	0.00e+00	0	40	0	2408579072	44	3791
2026-01-30 12:29:21.68	317.78	47.24	-36.2	-36.8	23.3	0.00e+00	0	40	0	2433744896	44	3776
2026-01-30 12:29:25.72	318.88	46.12	-36.2	-37.0	23.2	0.00e+00	0	40	0	2456813568	44	3828
2026-01-30 12:29:29.73	319.90	45.04	-36.1	-36.8	23.4	0.00e+00	0	40	0	2478833664	44	3740
2026-01-30 12:29:33.74	320.86	43.97	-36.5	-37.2	22.9	0.00e+00	0	40	0	2501902336	44	3943
2026-01-30 12:29:37.75	321.75	42.93	-35.6	-36.3	23.6	0.00e+00	0	40	0	2523922432	43	3744
2026-01-30 12:29:41.76	322.59	41.90	-35.6	-36.3	23.6	0.00e+00	0	40	0	2546991104	43	3771
2026-01-30 12:29:46.20	323.46	40.80	-35.4	-36.1	23.8	0.00e+00	0	40	0	2572156928	42	3896
2026-01-30 12:29:50.21	324.20	39.82	-35.6	-36.3	23.7	0.00e+00	0	40	0	2594177024	42	3964
2026-01-30 12:29:54.35	324.92	38.83	-35.6	-36.3	23.6	0.00e+00	0	40	0	2617245696	42	3970
2026-01-30 12:29:58.69	325.63	37.82	-35.3	-35.9	23.9	0.00e+00	0	40	0	2641362944	42	3818
2026-01-30 12:30:03.24	326.33	36.79	-35.2	-35.8	24.0	0.00e+00	0	40	0	2667577344	42	3759
2026-01-30 12:30:07.58	326.96	35.84	-35.5	-36.1	23.7	0.00e+00	0	40	0	2691694592	42	3910
2026-01-30 12:30:12.01	327.57	34.89	-35.4	-36.1	23.7	0.00e+00	0	40	0	2716860416	42	3898
2026-01-30 12:30:16.70	328.18	33.91	-35.8	-36.5	23.5	0.00e+00	0	41	0	2743074816	42	4054
2026-01-30 12:30:21.05	328.71	33.02	-35.9	-36.6	23.3	0.00e+00	0	40	0	2768240640	42	4133
2026-01-30 12:30:25.18	329.19	32.20	-35.8	-36.5	23.4	0.00e+00	0	40	0	2791309312	42	4071
2026-01-30 12:30:29.36	329.66	31.39	-35.7	-36.4	23.5	0.00e+00	0	40	0	2814377984	42	4007
2026-01-30 12:30:33.38	330.08	30.64	-35.9	-36.6	23.3	0.00e+00	0	40	0	2837446656	42	4122
2026-01-30 12:30:37.39	330.49	29.90	-35.9	-36.6	23.3	0.00e+00	0	40	0	2859466752	42	4119
2026-01-30 12:30:41.37	330.87	29.18	-35.6	-36.3	23.5	0.00e+00	0	40	0	2881486848	42	3990
2026-01-30 12:30:45.37	331.25	28.48	-35.7	-36.3	23.5	0.00e+00	0	40	0	2904555520	42	4001
2026-01-30 12:30:49.39	331.60	27.79	-35.9	-36.6	23.3	0.00e+00	0	40	0	2926575616	42	4132
2026-01-30 12:30:53.40	331.95	27.12	-35.9	-36.6	23.3	0.00e+00	0	40	0	2949644288	42	4128
2026-01-30 12:30:57.50	332.29	26.45	-35.6	-36.3	23.5	0.00e+00	0	40	0	2972712960	42	3982
2026-01-30 12:31:01.63	332.61	25.78	-35.6	-36.2	23.6	0.00e+00	0	40	0	2995781632	42	3958
2026-01-30 12:31:05.73	332.92	25.14	-35.8	-36.4	23.4	0.00e+00	0	40	0	3018850304	42	4036
2026-01-30 12:31:09.74	333.22	24.53	-36.0	-36.7	23.2	0.00e+00	0	40	0	3041918976	42	4163
2026-01-30 12:31:13.76	333.50	23.93	-36.2	-36.9	23.0	0.00e+00	0	40	0	3063939072	43	4036
2026-01-30 12:31:17.78	333.78	23.34	-36.4	-37.1	22.8	0.00e+00	0	40	0	3087007744	43	4134
2026-01-30 12:31:21.98	334.05	22.74	-36.4	-37.2	22.8	0.00e+00	0	40	0	3110076416	43	4155
2026-01-30 12:31:25.99	334.31	22.18	-36.6	-37.3	22.7	0.00e+00	0	40	0	3133145088	43	4219
2026-01-30 12:31:30.00	334.55	21.63	-36.9	-37.7	22.5	0.00e+00	0	40	0	3155165184	44	4158
2026-01-30 12:31:34.22	334.80	21.06	-37.1	-37.9	22.2	0.00e+00	0	40	0	3179282432	44	4280
2026-01-30 12:31:38.23	335.03	20.54	-37.3	-38.1	22.0	0.00e+00	0	40	0	3201302528	45	4133
2026-01-30 12:31:42.30	335.26	20.01	-37.4	-38.2	22.0	0.00e+00	0	40	0	3224371200	45	4176
2026-01-30 12:31:46.39	335.48	19.50	-37.3	-38.1	22.1	0.00e+00	0	40	0	3247439872	45	4117
2026-01-30 12:31:50.40	335.69	19.00	-37.3	-38.1	22.1	0.00e+00	0	40	0	3270508544	45	4113
2026-01-30 12:31:54.42	335.90	18.51	-37.4	-38.2	22.0	0.00e+00	0	40	0	3292528640	45	4155
2026-01-30 12:31:58.54	336.10	18.02	-37.6	-38.4	21.8	0.00e+00	0	40	0	3315597312	45	4263
2026-01-30 12:32:02.55	336.29	17.55	-37.7	-38.5	21.7	0.00e+00	0	40	0	3338665984	46	4060
2026-01-30 12:32:06.56	336.48	17.10	-37.9	-38.7	21.5	0.00e+00	0	40	0	3361734656	46	4167
2026-01-30 12:32:10.70	336.67	16.63	-38.1	-38.9	21.3	0.00e+00	0	40	0	3384803328	46	4264
2026-01-30 12:32:14.78	336.85	16.18	-38.2	-39.1	21.2	0.00e+00	0	40	0	3407872000	47	4100
2026-01-30 12:32:18.78	337.02	15.74	-38.4	-39.2	21.0	0.00e+00	0	40	0	3429892096	47	4159
2026-01-30 12:32:22.80	337.19	15.32	-38.5	-39.3	20.9	0.00e+00	0	40	0	3452960768	47	4228
2026-01-30 12:32:26.86	337.35	14.89	-38.4	-39.3	20.9	0.00e+00	0	40	0	3474980864	47	4209
2026-01-30 12:32:30.87	337.51	14.48	-38.5	-39.4	20.8	0.00e+00	0	40	0	3498049536	47	4256
2026-01-30 12:32:34.88	337.67	14.07	-38.5	-39.4	20.8	0.00e+00	0	40	0	3520069632	47	4246
2026-01-30 12:32:39.42	337.84	13.62	-38.5	-39.5	20.7	0.00e+00	0	40	0	3546284032	47	4303
2026-01-30 12:32:43.78	338.00	13.19	-38.8	-39.8	20.6	0.00e+00	0	40	0	3570401280	48	4229
2026-01-30 12:32:48.11	338.15	12.77	-38.8	-39.8	20.5	0.00e+00	0	40	0	3594518528	48	4240
2026-01-30 12:32:52.65	338.31	12.34	-39.0	-40.0	20.4	0.00e+00	0	40	0	3620732928	48	4326
2026-01-30 12:32:57.30	338.47	11.91	-39.3	-40.2	20.2	0.00e+00	0	40	0	3646947328	49	4190
2026-01-30 12:33:01.63	338.62	11.52	-39.4	-40.4	20.0	0.00e+00	0	40	0	3671064576	49	4246
2026-01-30 12:33:05.94	338.76	11.13	-39.5	-40.5	19.8	0.00e+00	0	40	0	3695181824	49	4326
2026-01-30 12:33:10.30	338.90	10.74	-39.6	-40.7	19.7	0.00e+00	0	40	0	3720347648	49	4397
2026-01-30 12:33:14.64	339.03	10.36	-39.8	-40.8	19.6	0.00e+00	0	40	0	3744464896	50	4199
2026-01-30 12:33:19.23	339.17	9.97	-40.0	-40.9	19.4	0.00e+00	0	40	0	3769630720	50	4289
2026-01-30 12:33:23.56	339.30	9.60	-39.9	-40.9	19.4	0.00e+00	0	40	0	3794796544	50	4273
2026-01-30 12:33:28.01	339.43	9.23	-40.0	-41.0	19.3	0.00e+00	0	40	0	3818913792	50	4318
2026-01-30 12:33:32.34	339.55	8.87	-50.1	-61.6	3.8	8.47e-01	0	40	104	3836739584	70	14708
2026-01-30 12:33:36.66	339.67	8.52	-48.6	-61.4	3.8	8.47e-01	0	40	104	3836739584	69	15099
2026-01-30 12:33:41.08	339.79	8.17	-50.2	-61.5	3.8	8.46e-01	0	40	104	3836739584	71	13639
2026-01-30 12:33:45.17	339.90	7.85	-50.2	-61.5	3.8	8.47e-01	0	40	104	3836739584	71	13717
2026-01-30 12:33:49.24	340.01	7.53	-50.3	-61.7	3.8	8.47e-01	0	40	104	3836739584	71	13919
2026-01-30 12:33:53.19	340.11	7.23	-50.3	-61.6	3.8	8.45e-01	0	40	104	3836739584	71	13868
2026-01-30 12:33:57.20	340.21	6.92	-50.3	-61.6	3.8	8.46e-01	0	40	104	3836739584	71	13834
2026-01-30 12:34:01.22	340.31	6.62	-50.3	-61.6	3.8	8.46e-01	0	40	104	3836739584	71	13781
2026-01-30 12:34:05.24	340.41	6.32	-50.3	-61.6	3.8	8.46e-01	0	40	104	3836739584	71	13831
2026-01-30 12:34:09.26	340.51	6.02	-50.3	-61.6	3.8	8.48e-01	0	40	104	3836739584	71	13793
2026-01-30 12:34:13.27	340.61	5.73	-50.3	-61.6	3.8	8.48e-01	0	40	104	3836739584	71	13778
2026-01-30 12:34:17.29	340.70	5.44	-50.3	-61.6	3.8	8.47e-01	0	40	104	3836739584	71	13734
2026-01-30 12:34:21.31	340.79	5.16	-50.3	-61.6	3.8	8.47e-01	0	40	104	3836739584	71	13762

#Closed at: 2026-01-30 12:34:25
#Recorded file [3836 MB]: D:/Data/31040_260130_152130.dat