passes_logs/2026/01/30/T1/T1__20260130_074222_KHAYYAM_rec.log

#Pass ID: 20260130_074222_KHAYYAM
#Satellite: KHAYYAM
#Configuration: KHAYYAM_480M
#almurnet v.1.7.20251203
#Start time: 2026-01-30 07:42:22

#Version: 2.0.20230620
#Station: T1
#Location: 37.570604 lon 55.790049 lat
#TLE: 1 53370U 22096A   26029.52643722  .00009049  00000+0  36723-3 0  9992
#TLE: 2 53370  97.3554 296.2755 0002205 105.6855 254.4626 15.24827760193451

#Time	Az	El	Level	Level2	SNR	BER	BlckErr	Temp	State	Recorded	gain1	gain2
2026-01-30 07:42:22.79	158.03	5.00	-53.1	-56.8	3.6	0.00e+00	0	43	0	0	78	21272
2026-01-30 07:42:24.79	158.00	5.16	-52.9	-56.9	3.7	0.00e+00	0	43	104	0	77	22800
2026-01-30 07:42:26.80	157.98	5.33	-53.9	-57.3	3.7	0.00e+00	0	43	104	0	78	22599
2026-01-30 07:42:28.81	157.95	5.49	-53.4	-57.1	3.7	0.00e+00	0	43	104	0	77	23326
2026-01-30 07:42:30.82	157.92	5.66	-53.4	-57.1	3.7	0.00e+00	0	44	104	0	78	22091
2026-01-30 07:42:32.82	157.89	5.83	-53.4	-57.0	3.7	0.00e+00	0	44	104	0	78	21696
2026-01-30 07:42:34.83	157.87	6.00	-53.4	-57.0	3.7	0.00e+00	0	44	104	0	77	22923
2026-01-30 07:42:36.84	157.84	6.18	-53.2	-56.7	3.7	0.00e+00	0	44	104	0	77	22348
2026-01-30 07:42:38.85	157.81	6.35	-52.1	-55.9	3.7	0.00e+00	0	44	104	0	76	21494
2026-01-30 07:42:40.86	157.78	6.53	-50.0	-54.2	3.7	0.00e+00	0	44	104	0	72	22145
2026-01-30 07:42:42.87	157.75	6.71	-51.0	-54.8	3.7	0.00e+00	0	44	104	0	73	22482
2026-01-30 07:42:44.88	157.72	6.89	-51.9	-55.6	3.7	0.00e+00	0	45	104	0	75	21982
2026-01-30 07:42:46.89	157.69	7.07	-51.5	-55.2	3.7	0.00e+00	0	45	104	0	75	20974
2026-01-30 07:42:48.89	157.65	7.25	-51.5	-55.2	3.7	0.00e+00	0	45	104	0	74	22156
2026-01-30 07:42:50.90	157.62	7.44	-51.5	-55.2	3.7	0.00e+00	0	45	104	0	74	22225
2026-01-30 07:42:52.91	157.59	7.62	-51.5	-55.2	3.7	0.00e+00	0	45	104	0	74	22172
2026-01-30 07:42:54.92	157.55	7.81	-51.7	-55.4	3.7	0.00e+00	0	45	104	0	74	22744
2026-01-30 07:42:56.93	157.52	8.00	-52.1	-55.8	3.7	0.00e+00	0	45	104	0	74	23698
2026-01-30 07:42:58.94	157.48	8.20	-52.3	-56.0	3.7	0.00e+00	0	46	104	0	75	22977
2026-01-30 07:43:00.95	157.45	8.39	-52.4	-56.0	3.6	0.00e+00	0	45	104	0	75	23139
2026-01-30 07:43:02.96	157.41	8.59	-52.4	-56.0	3.7	0.00e+00	0	46	104	0	75	23038
2026-01-30 07:43:04.97	157.37	8.79	-52.5	-56.1	3.7	0.00e+00	0	46	104	0	75	23280
2026-01-30 07:43:06.97	157.33	8.99	-52.7	-56.3	3.7	0.00e+00	0	46	104	0	75	23811
2026-01-30 07:43:08.98	157.30	9.19	-52.6	-56.3	3.7	0.00e+00	0	46	104	0	76	22489
2026-01-30 07:43:10.99	157.26	9.40	-53.1	-56.7	3.7	0.00e+00	0	46	104	0	76	23656
2026-01-30 07:43:13.00	157.22	9.60	-52.8	-56.4	3.7	0.00e+00	0	46	104	0	77	21575
2026-01-30 07:43:15.00	157.17	9.81	-53.0	-56.6	3.7	0.00e+00	0	46	104	0	77	22028
2026-01-30 07:43:17.01	157.13	10.03	-52.7	-56.3	3.7	0.00e+00	0	46	104	0	77	21348
2026-01-30 07:43:19.01	157.09	10.24	-52.8	-56.5	3.7	0.00e+00	0	46	104	0	77	21630
2026-01-30 07:43:21.02	157.05	10.46	-52.8	-56.3	3.7	0.00e+00	0	46	104	0	76	22623
2026-01-30 07:43:23.03	157.00	10.68	-52.4	-56.1	3.7	0.00e+00	0	46	104	0	76	21902
2026-01-30 07:43:25.03	156.95	10.90	-52.4	-56.0	3.7	0.00e+00	0	47	104	0	76	21841
2026-01-30 07:43:27.04	156.91	11.13	-52.5	-56.2	3.7	0.00e+00	0	47	104	0	76	22166
2026-01-30 07:43:29.04	156.86	11.35	-52.3	-56.1	3.7	0.00e+00	0	47	104	0	76	21965
2026-01-30 07:43:31.04	156.81	11.58	-53.2	-56.8	3.7	0.00e+00	0	47	104	0	77	22554
2026-01-30 07:43:33.05	156.76	11.82	-52.9	-56.6	3.7	0.00e+00	0	47	104	0	77	22097
2026-01-30 07:43:35.06	156.71	12.06	-53.5	-57.0	3.7	0.00e+00	0	47	104	0	77	22977
2026-01-30 07:43:37.20	156.65	12.31	-53.6	-57.1	3.7	0.00e+00	0	47	104	0	77	23340
2026-01-30 07:43:39.24	156.60	12.56	-53.6	-57.1	3.7	0.00e+00	0	47	104	0	77	23248
2026-01-30 07:43:41.29	156.54	12.81	-53.2	-56.8	3.7	0.00e+00	0	47	104	0	77	22479
2026-01-30 07:43:43.30	156.49	13.06	-53.5	-57.0	3.7	0.00e+00	0	47	104	0	77	23067
2026-01-30 07:43:45.31	156.43	13.32	-53.1	-56.7	3.7	0.00e+00	0	47	104	0	77	22275
2026-01-30 07:43:47.31	156.37	13.57	-52.8	-56.5	3.7	0.00e+00	0	47	104	0	77	21789
2026-01-30 07:43:49.32	156.31	13.83	-53.0	-56.7	3.7	0.00e+00	0	47	104	0	77	22178
2026-01-30 07:43:51.33	156.25	14.10	-52.8	-56.5	3.7	0.00e+00	0	47	104	0	77	21734
2026-01-30 07:43:53.36	156.19	14.37	-52.8	-56.6	3.7	0.00e+00	0	47	104	0	77	21907
2026-01-30 07:43:55.72	156.11	14.69	-52.7	-56.5	3.7	0.00e+00	0	47	104	0	76	23016
2026-01-30 07:43:57.73	156.05	14.97	-52.0	-55.9	3.7	0.00e+00	0	47	104	0	76	21424
2026-01-30 07:43:59.73	155.98	15.25	-51.2	-55.3	3.7	0.00e+00	0	47	104	0	74	22498
2026-01-30 07:44:01.74	155.91	15.53	-51.3	-55.2	3.7	0.00e+00	0	48	104	0	73	23436
2026-01-30 07:44:03.74	155.84	15.82	-51.1	-55.0	3.7	0.00e+00	0	47	104	0	73	23094
2026-01-30 07:44:05.75	155.77	16.12	-51.5	-55.3	3.7	0.00e+00	0	48	104	0	73	23770
2026-01-30 07:44:08.12	155.68	16.47	-52.0	-55.7	3.7	0.00e+00	0	48	104	0	74	23587
2026-01-30 07:44:10.13	155.60	16.78	-51.4	-55.2	3.7	0.00e+00	0	47	104	0	74	22329
2026-01-30 07:44:12.14	155.52	17.09	-51.6	-55.6	3.7	0.00e+00	0	47	104	0	74	23167
2026-01-30 07:44:14.19	155.44	17.41	-51.9	-55.6	3.7	0.00e+00	0	48	104	0	74	23408
2026-01-30 07:44:16.26	155.35	17.74	-51.8	-55.6	3.7	0.00e+00	0	48	104	0	74	23417
2026-01-30 07:44:18.26	155.27	18.07	-52.2	-56.0	3.7	0.00e+00	0	48	104	0	75	23011
2026-01-30 07:44:20.27	155.18	18.40	-52.3	-56.1	3.7	0.00e+00	0	48	104	0	75	23309
2026-01-30 07:44:22.31	155.09	18.74	-52.4	-56.2	3.7	0.00e+00	0	48	104	0	75	23470
2026-01-30 07:44:24.31	154.99	19.08	-52.3	-56.1	3.7	0.00e+00	0	48	104	0	75	23392
2026-01-30 07:44:26.32	154.90	19.43	-52.2	-55.9	3.7	0.00e+00	0	48	104	0	75	22771
2026-01-30 07:44:28.32	154.80	19.79	-52.0	-55.8	3.7	0.00e+00	0	48	104	0	75	22445
2026-01-30 07:44:30.42	154.69	20.17	-52.3	-56.0	3.6	0.00e+00	0	48	104	0	75	22993
2026-01-30 07:44:32.43	154.59	20.54	-52.6	-56.3	3.7	0.00e+00	0	48	104	0	75	23761
2026-01-30 07:44:34.46	154.48	20.92	-52.4	-56.2	3.7	0.00e+00	0	48	104	0	75	23549
2026-01-30 07:44:36.47	154.37	21.30	-52.0	-55.9	3.7	0.00e+00	0	48	104	0	75	22721
2026-01-30 07:44:38.48	154.26	21.69	-51.9	-55.8	3.7	0.00e+00	0	48	104	0	75	22516
2026-01-30 07:44:40.48	154.14	22.09	-52.7	-56.5	3.7	0.00e+00	0	48	104	0	76	23026
2026-01-30 07:44:42.49	154.02	22.50	-53.1	-56.8	3.7	0.00e+00	0	48	104	0	76	23937
2026-01-30 07:44:44.49	153.89	22.91	-53.1	-56.8	3.7	0.00e+00	0	48	104	0	76	23865
2026-01-30 07:44:46.50	153.76	23.33	-52.5	-56.5	3.7	0.00e+00	0	48	104	0	76	22931
2026-01-30 07:44:48.50	153.63	23.76	-52.3	-56.2	3.7	0.00e+00	0	48	104	0	76	22312
2026-01-30 07:44:50.68	153.48	24.24	-52.1	-55.8	3.7	0.00e+00	0	48	104	0	75	22473
2026-01-30 07:44:52.69	153.34	24.69	-52.1	-55.8	3.7	0.00e+00	0	48	104	0	75	22581
2026-01-30 07:44:54.69	153.19	25.15	-52.0	-55.8	3.7	0.00e+00	0	48	104	0	75	22539
2026-01-30 07:44:56.70	153.04	25.62	-51.9	-55.7	3.7	0.00e+00	0	48	104	0	75	22343
2026-01-30 07:44:58.77	152.88	26.12	-51.9	-55.9	3.7	0.00e+00	0	48	104	0	75	22789
2026-01-30 07:45:00.77	152.71	26.60	-52.2	-56.1	3.7	0.00e+00	0	48	104	0	75	23170
2026-01-30 07:45:03.11	152.52	27.19	-52.1	-56.0	3.7	0.00e+00	0	48	104	0	75	23040
2026-01-30 07:45:05.12	152.34	27.70	-52.5	-56.3	3.7	0.00e+00	0	48	104	0	75	23715
2026-01-30 07:45:07.12	152.16	28.23	-52.1	-56.2	3.7	0.00e+00	0	48	104	0	75	23503
2026-01-30 07:45:09.50	151.93	28.87	-52.2	-56.4	3.7	0.00e+00	0	48	104	0	75	24108
2026-01-30 07:45:11.85	151.69	29.51	-52.3	-55.8	3.7	0.00e+00	0	48	104	0	75	22425
2026-01-30 07:45:14.00	151.47	30.12	-52.6	-56.6	3.7	0.00e+00	0	48	104	0	75	24652
2026-01-30 07:45:16.17	151.23	30.75	-53.2	-56.7	3.7	0.00e+00	0	48	104	0	77	22235
2026-01-30 07:45:18.33	150.99	31.39	-53.3	-56.9	3.7	0.00e+00	0	48	104	0	77	22861
2026-01-30 07:45:20.50	150.73	32.06	-52.8	-56.5	3.7	0.00e+00	0	48	104	0	77	21712
2026-01-30 07:45:22.68	150.46	32.74	-52.8	-56.5	3.7	0.00e+00	0	48	104	0	77	21768
2026-01-30 07:45:24.83	150.18	33.43	-52.9	-56.1	3.7	0.00e+00	0	48	104	0	77	20835
2026-01-30 07:45:26.93	149.90	34.12	-52.9	-56.7	3.7	0.00e+00	0	48	104	0	77	22149
2026-01-30 07:45:29.29	149.56	34.92	-52.9	-56.7	3.7	0.00e+00	0	48	104	0	77	22316
2026-01-30 07:45:31.28	149.26	35.61	-53.3	-57.0	3.7	0.00e+00	0	48	104	0	77	23129
2026-01-30 07:45:33.32	148.94	36.34	-53.4	-57.1	3.7	0.00e+00	0	48	104	0	77	23295
2026-01-30 07:45:35.33	148.60	37.07	-53.8	-57.4	3.7	0.00e+00	0	48	104	0	78	22798
2026-01-30 07:45:37.33	148.26	37.82	-53.9	-57.5	3.7	0.00e+00	0	48	104	0	78	23001
2026-01-30 07:45:39.54	147.85	38.67	-53.9	-57.5	3.7	0.00e+00	0	48	104	0	78	22972
2026-01-30 07:45:41.55	147.46	39.46	-53.8	-57.4	3.7	0.00e+00	0	48	104	0	78	22791
2026-01-30 07:45:43.56	147.05	40.27	-53.5	-57.2	3.7	0.00e+00	0	48	104	0	78	22184
2026-01-30 07:45:45.56	146.62	41.10	-53.6	-57.3	3.7	0.00e+00	0	48	104	0	78	22423
2026-01-30 07:45:47.57	146.17	41.95	-54.0	-57.5	3.7	0.00e+00	0	48	104	0	78	23132
2026-01-30 07:45:49.58	145.68	42.82	-54.1	-57.6	3.7	0.00e+00	0	49	104	0	78	23180
2026-01-30 07:45:51.58	145.17	43.71	-54.0	-57.5	3.7	0.00e+00	0	48	104	0	78	23140
2026-01-30 07:45:53.69	144.60	44.67	-54.0	-57.5	3.7	0.00e+00	0	48	104	0	78	23106
2026-01-30 07:45:55.77	144.00	45.64	-53.8	-57.3	3.7	0.00e+00	0	48	104	0	78	22366
2026-01-30 07:45:57.85	143.37	46.63	-53.9	-57.4	3.7	0.00e+00	0	48	104	0	78	22699
2026-01-30 07:45:59.86	142.71	47.61	-54.0	-57.5	3.7	0.00e+00	0	48	104	0	78	22911
2026-01-30 07:46:01.86	142.00	48.61	-53.8	-57.4	3.7	0.00e+00	0	48	104	0	78	22783
2026-01-30 07:46:03.87	141.25	49.63	-54.0	-57.5	3.7	0.00e+00	0	48	104	0	78	23061
2026-01-30 07:46:05.88	140.44	50.68	-53.9	-57.4	3.7	0.00e+00	0	48	104	0	78	22815
2026-01-30 07:46:08.23	139.42	51.92	-53.9	-57.3	3.7	0.00e+00	0	48	104	0	78	22583
2026-01-30 07:46:10.41	138.39	53.10	-53.8	-57.3	3.7	0.00e+00	0	48	104	0	78	22403
2026-01-30 07:46:12.58	137.27	54.30	-53.8	-57.4	3.7	0.00e+00	0	48	104	0	78	22728
2026-01-30 07:46:14.74	136.06	55.50	-53.8	-57.2	3.7	0.00e+00	0	48	104	0	78	22171
2026-01-30 07:46:16.93	134.71	56.75	-53.8	-57.3	3.7	0.00e+00	0	48	104	0	78	22423
2026-01-30 07:46:19.09	133.26	57.98	-52.9	-57.0	3.7	0.00e+00	0	48	104	0	77	22920
2026-01-30 07:46:21.27	131.65	59.24	-53.6	-57.3	3.7	0.00e+00	0	48	104	0	77	23943
2026-01-30 07:46:23.45	129.87	60.51	-53.7	-57.5	3.7	0.00e+00	0	48	104	0	78	23029
2026-01-30 07:46:25.60	127.93	61.76	-54.1	-57.7	3.7	0.00e+00	0	48	104	0	78	23436
2026-01-30 07:46:27.63	125.91	62.93	-54.3	-57.7	3.7	0.00e+00	0	48	104	0	79	22218
2026-01-30 07:46:29.64	123.70	64.08	-54.2	-57.7	3.7	0.00e+00	0	48	104	0	79	22126
2026-01-30 07:46:31.64	121.27	65.21	-53.8	-57.5	3.7	0.00e+00	0	48	104	0	79	21609
2026-01-30 07:46:33.89	118.23	66.44	-53.6	-57.3	3.7	0.00e+00	0	48	104	0	79	21321
2026-01-30 07:46:36.25	114.65	67.69	-54.2	-57.7	3.7	0.00e+00	0	49	104	0	79	22209
2026-01-30 07:46:38.41	110.97	68.76	-54.2	-57.6	3.7	0.00e+00	0	48	104	0	79	22021
2026-01-30 07:46:40.67	106.68	69.80	-54.0	-57.5	3.7	0.00e+00	0	48	104	0	79	21850
2026-01-30 07:46:42.82	102.16	70.70	-53.5	-57.2	3.7	0.00e+00	0	48	104	0	78	22298
2026-01-30 07:46:44.97	97.20	71.47	-54.1	-57.6	3.7	0.00e+00	0	48	104	0	78	23220
2026-01-30 07:46:47.42	91.03	72.19	-53.8	-57.5	3.7	0.00e+00	0	48	104	0	78	23011
2026-01-30 07:46:49.57	85.23	72.65	-53.8	-57.5	3.7	0.00e+00	0	48	104	0	78	23083
2026-01-30 07:46:52.10	78.08	72.96	-54.1	-57.7	3.7	0.00e+00	0	48	104	0	78	23457
2026-01-30 07:46:54.26	71.83	73.02	-54.1	-57.6	3.7	0.00e+00	0	48	104	0	79	22044
2026-01-30 07:46:56.44	65.55	72.89	-54.3	-57.8	3.7	0.00e+00	0	48	104	0	79	22391
2026-01-30 07:46:58.59	59.53	72.58	-54.1	-57.7	3.7	0.00e+00	0	48	104	0	79	22198
2026-01-30 07:47:00.96	53.23	72.03	-54.3	-57.7	3.7	0.00e+00	0	48	104	0	79	22335
2026-01-30 07:47:03.12	47.88	71.37	-54.4	-57.8	3.7	0.00e+00	0	48	104	0	79	22589
2026-01-30 07:47:05.28	42.97	70.57	-54.0	-57.6	3.7	0.00e+00	0	48	104	0	79	21966
2026-01-30 07:47:07.45	38.48	69.65	-54.1	-57.7	3.7	0.00e+00	0	48	104	0	79	22206
2026-01-30 07:47:09.61	34.44	68.65	-54.3	-57.7	3.7	0.00e+00	0	48	104	0	79	22330
2026-01-30 07:47:11.78	30.79	67.56	-54.1	-57.7	3.7	0.00e+00	0	48	104	0	79	22195
2026-01-30 07:47:13.95	27.53	66.42	-54.3	-57.8	3.7	0.00e+00	0	48	104	0	79	22400
2026-01-30 07:47:16.13	24.59	65.22	-54.2	-57.7	3.7	0.00e+00	0	48	104	0	79	22259
2026-01-30 07:47:18.33	21.93	63.99	-54.1	-57.6	3.7	0.00e+00	0	48	104	0	79	22002
2026-01-30 07:47:20.51	19.57	62.74	-53.9	-57.6	3.7	0.00e+00	0	48	104	0	79	21906
2026-01-30 07:47:22.69	17.45	61.48	-53.9	-57.6	3.7	0.00e+00	0	48	104	0	79	21859
2026-01-30 07:47:24.85	15.55	60.23	-54.2	-57.7	3.7	0.00e+00	0	49	104	0	79	22214
2026-01-30 07:47:27.00	13.84	58.99	-54.2	-57.8	3.7	0.00e+00	0	48	104	0	79	22399
2026-01-30 07:47:29.18	12.27	57.73	-54.0	-57.6	3.7	0.00e+00	0	48	104	0	79	21896
2026-01-30 07:47:31.35	10.84	56.49	-53.3	-57.2	3.7	0.00e+00	0	48	104	0	78	22212
2026-01-30 07:47:33.50	9.55	55.28	-53.5	-57.4	3.7	0.00e+00	0	48	104	0	78	22713
2026-01-30 07:47:35.74	8.32	54.04	-54.1	-57.6	3.7	0.00e+00	0	48	104	0	78	23312
2026-01-30 07:47:37.89	7.24	52.86	-53.8	-57.4	3.7	0.00e+00	0	49	104	0	78	22802
2026-01-30 07:47:40.06	6.23	51.70	-53.6	-57.3	3.7	0.00e+00	0	48	104	0	78	22577
2026-01-30 07:47:42.21	5.31	50.57	-53.6	-57.4	3.7	0.00e+00	0	48	104	0	78	22649
2026-01-30 07:47:44.13	4.54	49.58	-53.5	-57.2	3.7	0.00e+00	0	48	104	0	78	22332
2026-01-30 07:47:46.28	3.75	48.49	-53.3	-57.1	3.7	0.00e+00	0	49	104	0	78	22071
2026-01-30 07:47:48.28	3.05	47.50	-54.0	-57.5	3.7	0.00e+00	0	48	104	0	78	23095
2026-01-30 07:47:50.29	2.40	46.53	-53.7	-57.3	3.7	0.00e+00	0	48	104	0	78	22615
2026-01-30 07:47:52.30	1.79	45.57	-53.3	-57.2	3.7	0.00e+00	0	48	104	0	78	22144
2026-01-30 07:47:54.35	1.21	44.62	-53.1	-57.1	3.7	0.00e+00	0	49	104	0	78	22055
2026-01-30 07:47:56.36	0.67	43.72	-53.8	-57.5	3.7	0.00e+00	0	48	104	0	78	23107
2026-01-30 07:47:58.49	0.13	42.78	-53.1	-57.1	3.7	0.00e+00	0	48	104	0	77	23172
2026-01-30 07:48:00.50	359.65	41.91	-53.5	-57.2	3.7	0.00e+00	0	49	104	0	77	23540
2026-01-30 07:48:02.50	359.20	41.07	-53.5	-57.2	3.7	0.00e+00	0	49	104	0	77	23581
2026-01-30 07:48:04.51	358.78	40.24	-53.7	-57.3	3.7	0.00e+00	0	48	104	0	78	22586
2026-01-30 07:48:06.57	358.36	39.42	-53.8	-57.4	3.7	0.00e+00	0	49	104	0	78	22863
2026-01-30 07:48:08.57	357.98	38.64	-54.1	-57.7	3.7	0.00e+00	0	48	104	0	78	23430
2026-01-30 07:48:10.71	357.59	37.82	-53.5	-57.3	3.7	0.00e+00	0	48	104	0	78	22560
2026-01-30 07:48:12.71	357.24	37.08	-52.8	-56.9	3.7	0.00e+00	0	48	104	0	76	24095
2026-01-30 07:48:14.72	356.91	36.35	-52.5	-56.8	3.7	0.00e+00	0	48	104	0	76	23902
2026-01-30 07:48:16.73	356.60	35.64	-53.1	-57.1	3.7	0.00e+00	0	48	104	0	77	23356
2026-01-30 07:48:18.74	356.30	34.95	-53.5	-57.3	3.7	0.00e+00	0	48	104	0	78	22415
2026-01-30 07:48:20.74	356.01	34.27	-53.6	-57.3	3.7	0.00e+00	0	48	104	0	78	22374
2026-01-30 07:48:22.75	355.74	33.61	-53.0	-57.0	3.7	0.00e+00	0	48	104	0	78	21791
2026-01-30 07:48:24.76	355.48	32.97	-52.5	-56.7	3.7	0.00e+00	0	48	104	0	75	24981
2026-01-30 07:48:26.77	355.23	32.34	-52.4	-56.6	3.7	0.00e+00	0	49	104	0	75	24776
2026-01-30 07:48:28.85	354.98	31.70	-52.7	-56.8	3.7	0.00e+00	0	48	104	0	77	22512
2026-01-30 07:48:30.85	354.75	31.10	-53.2	-57.1	3.7	0.00e+00	0	48	104	0	77	23183
2026-01-30 07:48:32.93	354.52	30.49	-53.2	-57.0	3.7	0.00e+00	0	48	104	0	77	23143
2026-01-30 07:48:34.98	354.30	29.91	-53.6	-57.3	3.7	0.00e+00	0	48	104	0	78	22534
2026-01-30 07:48:37.21	354.08	29.29	-53.6	-57.3	3.7	0.00e+00	0	48	104	0	78	22397
2026-01-30 07:48:39.24	353.88	28.74	-54.2	-57.7	3.7	0.00e+00	0	48	104	0	78	23481
2026-01-30 07:48:41.34	353.68	28.18	-54.1	-57.6	3.7	0.00e+00	0	48	104	0	78	23181
2026-01-30 07:48:43.35	353.50	27.66	-52.7	-56.8	3.7	0.00e+00	0	48	104	0	77	22465
2026-01-30 07:48:45.36	353.33	27.15	-52.5	-56.6	3.7	0.00e+00	0	48	104	0	77	21961
2026-01-30 07:48:47.36	353.16	26.66	-53.7	-57.4	3.7	0.00e+00	0	48	104	0	77	24000
2026-01-30 07:48:49.37	353.00	26.17	-53.6	-57.3	3.7	0.00e+00	0	48	104	0	78	22495
2026-01-30 07:48:51.37	352.84	25.69	-52.5	-56.7	3.7	0.00e+00	0	48	104	0	76	23546
2026-01-30 07:48:53.38	352.69	25.23	-52.8	-56.8	3.7	0.00e+00	0	48	104	0	76	23840
2026-01-30 07:48:55.39	352.55	24.77	-53.0	-57.1	3.7	0.00e+00	0	49	104	0	76	24541
2026-01-30 07:48:57.40	352.41	24.32	-52.7	-56.8	3.7	0.00e+00	0	48	104	0	76	23770
2026-01-30 07:48:59.41	352.27	23.88	-52.1	-56.5	3.7	0.00e+00	0	49	104	0	76	22960
2026-01-30 07:49:01.42	352.14	23.45	-52.1	-56.4	3.7	0.00e+00	0	48	104	0	76	22780
2026-01-30 07:49:03.43	352.01	23.03	-52.4	-56.7	3.7	0.00e+00	0	48	104	0	75	25076
2026-01-30 07:49:05.43	351.89	22.62	-53.0	-57.0	3.7	0.00e+00	0	48	104	0	76	24522
2026-01-30 07:49:07.44	351.77	22.21	-53.9	-57.5	3.7	0.00e+00	0	48	104	0	78	22935
2026-01-30 07:49:09.44	351.65	21.82	-53.6	-57.4	3.7	0.00e+00	0	49	104	0	78	22631
2026-01-30 07:49:11.53	351.53	21.41	-53.5	-57.2	3.7	0.00e+00	0	49	104	0	78	22327
2026-01-30 07:49:13.53	351.42	21.03	-53.4	-57.1	3.7	0.00e+00	0	49	104	0	78	22063
2026-01-30 07:49:15.54	351.32	20.66	-53.7	-57.3	3.7	0.00e+00	0	48	104	0	78	22470
2026-01-30 07:49:17.55	351.21	20.29	-53.9	-57.4	3.7	0.00e+00	0	48	104	0	78	22697
2026-01-30 07:49:19.56	351.11	19.93	-53.8	-57.2	3.7	0.00e+00	0	49	104	0	78	22349
2026-01-30 07:49:21.56	351.02	19.58	-53.5	-57.1	3.7	0.00e+00	0	48	104	0	77	23326
2026-01-30 07:49:23.57	350.92	19.23	-53.1	-56.9	3.7	0.00e+00	0	48	104	0	77	22873
2026-01-30 07:49:25.69	350.83	18.86	-53.0	-56.9	3.7	0.00e+00	0	48	104	0	76	23977
2026-01-30 07:49:27.71	350.74	18.53	-51.1	-55.6	3.7	0.00e+00	0	49	104	0	74	23406
2026-01-30 07:49:29.72	350.65	18.20	-50.8	-55.5	3.7	0.00e+00	0	48	104	0	73	24419
2026-01-30 07:49:31.73	350.56	17.87	-50.6	-55.4	3.7	0.00e+00	0	48	104	0	73	24068
2026-01-30 07:49:33.73	350.48	17.55	-50.8	-55.5	3.7	0.00e+00	0	48	104	0	73	24443
2026-01-30 07:49:35.73	350.40	17.24	-50.7	-55.4	3.7	0.00e+00	0	48	104	0	73	24237
2026-01-30 07:49:37.74	350.33	16.93	-50.8	-55.6	3.7	0.00e+00	0	49	104	0	73	24619
2026-01-30 07:49:39.74	350.25	16.63	-51.5	-56.0	3.7	0.00e+00	0	48	104	0	73	25850
2026-01-30 07:49:41.75	350.18	16.33	-52.3	-56.6	3.7	0.00e+00	0	48	104	0	75	24802
2026-01-30 07:49:43.76	350.10	16.03	-52.3	-56.8	3.7	0.00e+00	0	49	104	0	75	25136
2026-01-30 07:49:45.76	350.03	15.74	-52.0	-56.6	3.7	0.00e+00	0	48	104	0	75	24621
2026-01-30 07:49:47.81	349.96	15.45	-52.4	-56.8	3.7	0.00e+00	0	48	104	0	75	25278
2026-01-30 07:49:50.22	349.88	15.12	-52.3	-57.0	3.7	0.00e+00	0	48	104	0	75	25868
2026-01-30 07:49:52.37	349.81	14.82	-52.1	-56.9	3.7	0.00e+00	0	48	104	0	75	25604
2026-01-30 07:49:54.65	349.74	14.51	-52.5	-57.3	3.7	0.00e+00	0	48	104	0	75	26626
2026-01-30 07:49:56.81	349.68	14.22	-51.7	-56.5	3.7	0.00e+00	0	49	104	0	75	24326
2026-01-30 07:49:58.99	349.61	13.94	-52.1	-56.8	3.7	0.00e+00	0	48	104	0	74	26751
2026-01-30 07:50:01.15	349.55	13.66	-51.0	-56.0	3.7	0.00e+00	0	48	104	0	73	25709
2026-01-30 07:50:03.48	349.48	13.36	-50.9	-55.9	3.7	0.00e+00	0	48	104	0	73	25542
2026-01-30 07:50:06.06	349.41	13.04	-50.5	-55.6	3.7	0.00e+00	0	48	104	0	73	24661
2026-01-30 07:50:08.22	349.36	12.77	-50.7	-55.8	3.7	0.00e+00	0	48	104	0	73	25180
2026-01-30 07:50:10.39	349.30	12.51	-51.3	-55.8	3.7	0.00e+00	0	48	104	0	74	23716
2026-01-30 07:50:12.55	349.24	12.25	-51.3	-55.8	3.7	0.00e+00	0	49	104	0	74	23722
2026-01-30 07:50:14.89	349.19	11.98	-53.0	-57.0	3.7	0.00e+00	0	49	104	0	76	24396
2026-01-30 07:50:17.05	349.13	11.73	-51.6	-56.1	3.7	0.00e+00	0	48	104	0	75	23394
2026-01-30 07:50:19.21	349.08	11.48	-51.2	-55.9	3.7	0.00e+00	0	48	104	0	74	24232
2026-01-30 07:50:21.37	349.03	11.23	-51.4	-56.1	3.7	0.00e+00	0	48	104	0	74	24537
2026-01-30 07:50:23.52	348.99	10.99	-51.2	-55.7	3.7	0.00e+00	0	49	104	0	74	23435
2026-01-30 07:50:25.81	348.94	10.74	-51.3	-55.7	3.7	0.00e+00	0	48	104	0	73	25089
2026-01-30 07:50:27.97	348.89	10.51	-50.3	-55.2	3.7	0.00e+00	0	48	104	0	71	26309
2026-01-30 07:50:30.16	348.84	10.27	-50.2	-55.2	3.7	0.00e+00	0	48	104	0	71	26352
2026-01-30 07:50:32.19	348.80	10.06	-49.3	-54.6	3.7	0.00e+00	0	49	104	0	70	26059
2026-01-30 07:50:34.23	348.76	9.84	-50.4	-55.3	3.7	0.00e+00	0	49	104	0	71	26833
2026-01-30 07:50:36.23	348.72	9.64	-48.7	-54.2	3.8	0.00e+00	0	48	104	0	68	27930
2026-01-30 07:50:38.24	348.68	9.43	-49.0	-54.4	3.7	0.00e+00	0	48	104	0	68	28558
2026-01-30 07:50:40.25	348.65	9.23	-49.4	-54.7	3.7	0.00e+00	0	49	104	0	69	28012
2026-01-30 07:50:42.36	348.61	9.02	-50.0	-55.1	3.7	0.00e+00	0	48	104	0	70	27582
2026-01-30 07:50:44.52	348.57	8.80	-49.5	-54.8	3.7	0.00e+00	0	48	104	0	69	28178
2026-01-30 07:50:46.53	348.53	8.60	-51.5	-56.1	3.7	0.00e+00	0	48	104	0	73	26254
2026-01-30 07:50:48.54	348.50	8.41	-53.2	-56.9	3.7	0.00e+00	0	48	104	0	77	22755
2026-01-30 07:50:50.55	348.47	8.22	-51.8	-56.2	3.7	0.00e+00	0	48	104	0	74	25080
2026-01-30 07:50:52.56	348.43	8.03	-53.0	-56.7	3.7	0.00e+00	0	48	104	0	76	23551
2026-01-30 07:50:54.57	348.40	7.84	-52.0	-55.8	3.7	0.00e+00	0	48	104	0	75	22585
2026-01-30 07:50:56.57	348.37	7.65	-52.5	-55.7	3.7	0.00e+00	0	48	104	0	76	20963
2026-01-30 07:50:58.58	348.34	7.47	-53.3	-56.7	3.7	0.00e+00	0	48	104	0	77	22234
2026-01-30 07:51:00.59	348.31	7.28	-53.2	-56.5	3.7	0.00e+00	0	48	104	0	77	21608
2026-01-30 07:51:02.60	348.28	7.10	-52.4	-55.3	3.7	0.00e+00	0	48	104	0	76	20035
2026-01-30 07:51:04.61	348.25	6.92	-52.2	-55.1	3.7	0.00e+00	0	48	104	0	76	19700
2026-01-30 07:51:06.62	348.22	6.74	-51.7	-54.7	3.7	0.00e+00	0	48	104	0	75	19732
2026-01-30 07:51:08.63	348.19	6.57	-51.5	-54.5	3.7	0.00e+00	0	48	104	0	75	19417
2026-01-30 07:51:10.64	348.16	6.39	-51.5	-54.5	3.7	0.00e+00	0	49	104	0	74	20479
2026-01-30 07:51:12.64	348.14	6.22	-51.5	-54.5	3.7	0.00e+00	0	48	104	0	74	20502
2026-01-30 07:51:14.65	348.11	6.05	-51.6	-54.5	3.7	0.00e+00	0	48	104	0	74	20623
2026-01-30 07:51:16.66	348.08	5.88	-51.6	-54.6	3.7	0.00e+00	0	48	104	0	74	20781
2026-01-30 07:51:18.67	348.06	5.71	-51.7	-54.7	3.7	0.00e+00	0	48	104	0	74	21028
2026-01-30 07:51:20.68	348.03	5.54	-51.9	-54.8	3.7	0.00e+00	0	48	104	0	74	21345
2026-01-30 07:51:22.69	348.01	5.37	-52.0	-55.0	3.7	0.00e+00	0	48	104	0	74	21733
2026-01-30 07:51:24.70	347.98	5.21	-52.1	-55.1	3.7	0.00e+00	0	48	104	0	74	21963
2026-01-30 07:51:26.71	347.96	5.05	-52.1	-55.1	3.7	0.00e+00	0	48	104	0	74	21920

#Closed at: 2026-01-30 07:51:28
#Recorded file [0 MB]: D:/Data/31040_260130_104222.dat