passes_logs/2026/01/30/T1/T1__20260130_154514_FENGYUN_3E_rec.log

#Pass ID: 20260130_154514_FENGYUN 3E
#Satellite: FENGYUN 3E
#Configuration: FENGYUN 3E
#almurnet v.1.7.20251203
#Start time: 2026-01-30 15:45:16

#Version: 2.0.20230620
#Station: T1
#Location: 37.570604 lon 55.790049 lat
#TLE: 1 49008U 21062A   26030.15628484 -.00000231  00000+0 -88238-4 0  9991
#TLE: 2 49008  98.7496  35.1082 0002567 110.3408 249.8045 14.19886954236998

#Time	Az	El	Level	Level2	SNR	BER	BlckErr	Temp	State	Recorded	gain1	gain2
2026-01-30 15:45:16.01	211.12	5.08	-50.5	-60.4	3.8	8.47e-01	0	41	0	0	70	11926
2026-01-30 15:45:19.01	211.38	5.26	-50.9	-60.5	3.8	8.47e-01	0	41	104	0	71	11342
2026-01-30 15:45:22.00	211.65	5.44	-50.8	-60.5	3.8	8.47e-01	0	41	104	0	71	11395
2026-01-30 15:45:25.00	211.92	5.61	-50.4	-60.5	3.8	8.46e-01	0	42	104	0	71	11347
2026-01-30 15:45:28.01	212.19	5.80	-50.1	-60.2	3.8	8.48e-01	0	41	104	0	70	11664
2026-01-30 15:45:31.01	212.46	5.98	-49.9	-59.9	3.8	8.47e-01	0	42	104	0	70	11195
2026-01-30 15:45:34.01	212.74	6.16	-49.2	-59.6	3.8	8.46e-01	0	42	104	0	69	11531
2026-01-30 15:45:37.01	213.02	6.34	-49.2	-59.7	3.8	8.48e-01	0	42	104	0	69	11580
2026-01-30 15:45:40.01	213.31	6.52	-49.1	-59.6	3.8	8.47e-01	0	42	104	0	69	11445
2026-01-30 15:45:43.01	213.59	6.71	-49.1	-59.2	3.8	8.47e-01	0	42	104	0	68	11560
2026-01-30 15:45:46.01	213.89	6.89	-49.1	-59.1	3.8	8.47e-01	0	42	104	0	68	11431
2026-01-30 15:45:49.01	214.18	7.08	-49.0	-58.8	3.8	8.47e-01	0	42	104	0	68	11053
2026-01-30 15:45:52.01	214.48	7.27	-49.0	-58.5	3.8	8.45e-01	0	42	104	0	68	10717
2026-01-30 15:45:55.01	214.78	7.45	-49.1	-59.1	3.8	8.47e-01	0	42	104	0	68	11455
2026-01-30 15:45:58.01	215.09	7.64	-49.0	-58.4	3.8	8.47e-01	0	42	104	0	68	10637
2026-01-30 15:46:01.01	215.40	7.83	-48.6	-55.4	4.4	8.28e-01	0	43	0	0	68	7538
2026-01-30 15:46:04.01	215.71	8.02	-49.0	-59.5	3.8	8.47e-01	0	43	104	0	67	12788
2026-01-30 15:46:07.02	216.03	8.21	-45.2	-47.0	11.6	2.64e-03	0	43	0	9437184	61	4255
2026-01-30 15:46:10.02	216.35	8.40	-40.2	-40.5	18.0	0.00e+00	0	43	0	31457280	51	3572
2026-01-30 15:46:13.03	216.68	8.59	-39.2	-39.4	19.0	0.00e+00	0	43	0	53477376	48	3758
2026-01-30 15:46:16.02	217.01	8.78	-41.4	-41.9	16.6	0.00e+00	0	43	0	74448896	52	3959
2026-01-30 15:46:19.02	217.35	8.97	-45.5	-47.4	11.2	8.82e-04	0	43	0	96468992	60	4719
2026-01-30 15:46:22.02	217.68	9.16	-42.9	-43.5	15.1	0.00e+00	0	43	0	118489088	56	3806
2026-01-30 15:46:25.02	218.03	9.36	-43.2	-44.0	14.6	0.00e+00	0	43	0	139460608	55	4273
2026-01-30 15:46:28.03	218.38	9.55	-41.0	-41.4	17.1	0.00e+00	0	43	0	161480704	52	3763
2026-01-30 15:46:31.03	218.73	9.75	-40.1	-40.3	18.3	0.00e+00	0	43	0	183500800	50	3711
2026-01-30 15:46:34.04	219.09	9.94	-39.0	-39.1	19.4	0.00e+00	0	43	0	204472320	48	3652
2026-01-30 15:46:37.04	219.45	10.14	-38.9	-39.0	19.5	0.00e+00	0	43	0	226492416	48	3604
2026-01-30 15:46:40.04	219.81	10.34	-38.8	-38.9	19.6	0.00e+00	0	43	0	248512512	48	3539
2026-01-30 15:46:43.04	220.18	10.53	-39.0	-39.1	19.5	0.00e+00	0	43	0	269484032	48	3635
2026-01-30 15:46:46.04	220.56	10.73	-38.9	-39.0	19.6	0.00e+00	0	43	0	291504128	48	3574
2026-01-30 15:46:49.04	220.94	10.93	-38.7	-38.7	19.9	0.00e+00	0	43	0	313524224	48	3476
2026-01-30 15:46:52.04	221.33	11.13	-38.6	-38.6	19.8	0.00e+00	0	43	0	334495744	47	3638
2026-01-30 15:46:55.05	221.72	11.33	-38.4	-38.4	20.0	0.00e+00	0	43	0	356515840	47	3563
2026-01-30 15:46:58.05	222.12	11.53	-38.3	-38.3	20.1	0.00e+00	0	43	0	378535936	47	3514
2026-01-30 15:47:01.04	222.52	11.73	-38.3	-38.3	20.1	0.00e+00	0	43	0	399507456	47	3518
2026-01-30 15:47:04.05	222.92	11.93	-38.4	-38.4	20.0	0.00e+00	0	43	0	421527552	47	3560
2026-01-30 15:47:07.05	223.34	12.13	-38.2	-38.2	20.2	0.00e+00	0	44	0	443547648	47	3469
2026-01-30 15:47:10.06	223.75	12.33	-38.0	-38.0	20.3	0.00e+00	0	43	0	465567744	46	3602
2026-01-30 15:47:13.06	224.18	12.53	-38.0	-38.0	20.4	0.00e+00	0	43	0	486539264	46	3589
2026-01-30 15:47:16.06	224.61	12.73	-38.1	-38.1	20.4	0.00e+00	0	43	0	508559360	46	3613
2026-01-30 15:47:19.07	225.04	12.93	-38.2	-38.2	20.3	0.00e+00	0	44	0	529530880	46	3660
2026-01-30 15:47:22.07	225.48	13.13	-37.9	-37.8	20.6	0.00e+00	0	44	0	551550976	46	3527
2026-01-30 15:47:25.07	225.93	13.34	-37.9	-37.9	20.6	0.00e+00	0	43	0	573571072	46	3530
2026-01-30 15:47:28.07	226.38	13.54	-37.7	-37.6	20.8	0.00e+00	0	43	0	594542592	45	3645
2026-01-30 15:47:31.08	226.84	13.74	-37.6	-37.6	20.8	0.00e+00	0	43	0	616562688	45	3614
2026-01-30 15:47:34.09	227.31	13.94	-37.5	-37.4	21.0	0.00e+00	0	43	0	638582784	45	3564
2026-01-30 15:47:37.09	227.78	14.15	-37.2	-37.1	21.3	0.00e+00	0	43	0	659554304	45	3441
2026-01-30 15:47:40.09	228.25	14.35	-37.2	-37.2	21.2	0.00e+00	0	43	0	681574400	44	3661
2026-01-30 15:47:43.10	228.74	14.55	-37.4	-37.4	21.1	0.00e+00	0	44	0	703594496	44	3741
2026-01-30 15:47:46.10	229.23	14.75	-37.5	-37.5	21.0	0.00e+00	0	43	0	724566016	44	3793
2026-01-30 15:47:49.11	229.73	14.95	-37.4	-37.3	21.1	0.00e+00	0	44	0	746586112	44	3737
2026-01-30 15:47:52.11	230.23	15.15	-37.1	-37.0	21.4	0.00e+00	0	43	0	768606208	44	3585
2026-01-30 15:47:55.11	230.74	15.35	-36.9	-36.9	21.6	0.00e+00	0	44	0	790626304	44	3530
2026-01-30 15:47:58.10	231.25	15.55	-37.0	-36.9	21.4	0.00e+00	0	44	0	811597824	44	3569
2026-01-30 15:48:01.10	231.77	15.75	-37.0	-36.9	21.5	0.00e+00	0	44	0	833617920	44	3547
2026-01-30 15:48:04.10	232.30	15.95	-36.8	-36.7	21.7	0.00e+00	0	44	0	854589440	44	3486
2026-01-30 15:48:07.11	232.84	16.15	-36.9	-36.8	21.6	0.00e+00	0	44	0	876609536	44	3523
2026-01-30 15:48:10.11	233.39	16.35	-36.7	-36.7	21.7	0.00e+00	0	44	0	898629632	44	3462
2026-01-30 15:48:13.12	233.94	16.54	-36.8	-36.7	21.7	0.00e+00	0	44	0	920649728	44	3471
2026-01-30 15:48:16.12	234.49	16.74	-36.8	-36.7	21.7	0.00e+00	0	43	0	941621248	44	3483
2026-01-30 15:48:19.13	235.06	16.93	-36.8	-36.7	21.7	0.00e+00	0	43	0	963641344	44	3480
2026-01-30 15:48:22.14	235.63	17.13	-36.5	-36.4	21.8	0.00e+00	0	44	0	985661440	43	3558
2026-01-30 15:48:25.14	236.21	17.32	-36.4	-36.3	21.9	0.00e+00	0	44	0	1006632960	43	3512
2026-01-30 15:48:28.13	236.80	17.51	-36.4	-36.3	22.0	0.00e+00	0	43	0	1028653056	43	3509
2026-01-30 15:48:31.13	237.39	17.70	-36.3	-36.2	22.0	0.00e+00	0	43	0	1049624576	43	3468
2026-01-30 15:48:34.13	237.99	17.88	-36.2	-36.1	22.1	0.00e+00	0	44	0	1071644672	43	3442
2026-01-30 15:48:37.14	238.60	18.07	-36.2	-36.2	22.1	0.00e+00	0	44	0	1093664768	43	3449
2026-01-30 15:48:40.14	239.21	18.25	-36.3	-36.2	22.0	0.00e+00	0	44	0	1114636288	43	3467
2026-01-30 15:48:43.13	239.83	18.44	-36.2	-36.1	22.1	0.00e+00	0	44	0	1136656384	43	3443
2026-01-30 15:48:46.14	240.46	18.62	-35.9	-35.7	22.5	0.00e+00	0	44	0	1158676480	42	3477
2026-01-30 15:48:49.13	241.10	18.79	-35.8	-35.7	22.5	0.00e+00	0	44	0	1179648000	42	3470
2026-01-30 15:48:52.12	241.74	18.97	-36.0	-35.9	22.3	0.00e+00	0	44	0	1201668096	42	3553
2026-01-30 15:48:55.11	242.39	19.14	-36.0	-35.9	22.4	0.00e+00	0	44	0	1223688192	42	3540
2026-01-30 15:48:58.07	243.04	19.31	-35.8	-35.7	22.5	0.00e+00	0	44	0	1244659712	42	3477
2026-01-30 15:49:01.07	243.70	19.48	-36.0	-35.9	22.3	0.00e+00	0	43	0	1266679808	42	3549
2026-01-30 15:49:04.06	244.37	19.64	-35.9	-35.8	22.4	0.00e+00	0	44	0	1287651328	42	3519
2026-01-30 15:49:07.04	245.05	19.81	-36.0	-35.9	22.4	0.00e+00	0	44	0	1309671424	42	3549
2026-01-30 15:49:10.01	245.73	19.96	-36.1	-36.0	22.2	0.00e+00	0	44	0	1330642944	42	3603
2026-01-30 15:49:12.99	246.41	20.12	-36.0	-35.9	22.3	0.00e+00	0	44	0	1352663040	42	3547
2026-01-30 15:49:15.97	247.11	20.27	-35.8	-35.7	22.6	0.00e+00	0	44	0	1373634560	42	3450
2026-01-30 15:49:18.96	247.81	20.42	-35.6	-35.5	22.7	0.00e+00	0	44	0	1395654656	41	3589
2026-01-30 15:49:21.94	248.52	20.57	-35.8	-35.8	22.5	0.00e+00	0	44	0	1417674752	41	3696
2026-01-30 15:49:24.93	249.24	20.71	-35.8	-35.7	22.5	0.00e+00	0	44	0	1438646272	41	3666
2026-01-30 15:49:27.91	249.96	20.85	-35.8	-35.7	22.6	0.00e+00	0	44	0	1460666368	41	3659
2026-01-30 15:49:30.89	250.69	20.99	-35.8	-35.7	22.5	0.00e+00	0	44	0	1481637888	41	3694
2026-01-30 15:49:33.88	251.43	21.12	-35.8	-35.7	22.5	0.00e+00	0	44	0	1503657984	41	3669
2026-01-30 15:49:36.86	252.17	21.24	-36.0	-35.9	22.3	0.00e+00	0	44	0	1524629504	41	3769
2026-01-30 15:49:39.85	252.91	21.37	-35.8	-35.7	22.5	0.00e+00	0	44	0	1546649600	41	3668
2026-01-30 15:49:42.83	253.66	21.48	-35.8	-35.8	22.5	0.00e+00	0	44	0	1567621120	41	3699
2026-01-30 15:49:45.83	254.43	21.60	-35.7	-35.6	22.6	0.00e+00	0	44	0	1589641216	41	3650
2026-01-30 15:49:48.83	255.19	21.71	-35.6	-35.5	22.7	0.00e+00	0	44	0	1611661312	41	3600
2026-01-30 15:49:51.83	255.97	21.81	-35.5	-35.4	22.8	0.00e+00	0	44	0	1632632832	41	3547
2026-01-30 15:49:54.83	256.74	21.91	-35.5	-35.4	22.8	0.00e+00	0	44	0	1654652928	41	3542
2026-01-30 15:49:57.83	257.53	22.01	-35.3	-35.1	23.1	0.00e+00	0	44	0	1676673024	41	3442
2026-01-30 15:50:00.84	258.32	22.10	-35.4	-35.3	23.0	0.00e+00	0	44	0	1697644544	41	3497
2026-01-30 15:50:03.84	259.11	22.19	-35.3	-35.1	23.1	0.00e+00	0	44	0	1719664640	41	3445
2026-01-30 15:50:06.84	259.90	22.27	-35.1	-34.9	23.2	0.00e+00	0	44	0	1741684736	40	3566
2026-01-30 15:50:09.85	260.70	22.34	-35.5	-35.4	22.9	0.00e+00	0	44	0	1762656256	40	3741
2026-01-30 15:50:12.86	261.51	22.41	-35.6	-35.4	22.8	0.00e+00	0	44	0	1784676352	40	3777
2026-01-30 15:50:15.86	262.31	22.47	-35.4	-35.3	23.0	0.00e+00	0	44	0	1806696448	40	3699
2026-01-30 15:50:18.86	263.12	22.53	-35.4	-35.3	22.9	0.00e+00	0	44	0	1827667968	40	3723
2026-01-30 15:50:21.87	263.94	22.58	-35.4	-35.3	22.8	0.00e+00	0	44	0	1849688064	40	3726
2026-01-30 15:50:24.86	264.75	22.63	-35.5	-35.4	22.9	0.00e+00	0	44	0	1871708160	40	3738
2026-01-30 15:50:27.87	265.57	22.67	-35.5	-35.4	22.9	0.00e+00	0	44	0	1892679680	40	3744
2026-01-30 15:50:30.87	266.39	22.70	-35.6	-35.5	22.8	0.00e+00	0	44	0	1914699776	40	3787
2026-01-30 15:50:33.87	267.21	22.73	-35.8	-35.7	22.6	0.00e+00	0	44	0	1936719872	41	3663
2026-01-30 15:50:36.88	268.03	22.76	-35.4	-35.3	22.9	0.00e+00	0	44	0	1957691392	41	3504
2026-01-30 15:50:39.88	268.85	22.77	-35.4	-35.2	23.0	0.00e+00	0	44	0	1979711488	41	3481
2026-01-30 15:50:42.89	269.68	22.78	-35.2	-35.1	23.1	0.00e+00	0	44	0	2001731584	41	3421
2026-01-30 15:50:45.88	270.50	22.79	-35.4	-35.2	23.0	0.00e+00	0	44	0	2022703104	41	3478
2026-01-30 15:50:48.88	271.32	22.79	-35.4	-35.3	22.9	0.00e+00	0	44	0	2044723200	41	3497
2026-01-30 15:50:51.88	272.14	22.78	-35.4	-35.3	22.9	0.00e+00	0	44	0	2065694720	41	3516
2026-01-30 15:50:54.88	272.97	22.77	-35.5	-35.4	22.8	0.00e+00	0	44	0	2087714816	41	3566
2026-01-30 15:50:57.88	273.79	22.75	-35.6	-35.5	22.8	0.00e+00	0	44	0	2109734912	41	3577
2026-01-30 15:51:00.88	274.61	22.72	-35.6	-35.5	22.7	0.00e+00	0	44	0	2131755008	41	3594
2026-01-30 15:51:03.89	275.43	22.69	-35.6	-35.5	22.8	0.00e+00	0	44	0	2152726528	41	3583
2026-01-30 15:51:06.89	276.25	22.65	-35.4	-35.3	22.9	0.00e+00	0	44	0	2174746624	41	3505
2026-01-30 15:51:09.89	277.06	22.61	-35.6	-35.5	22.8	0.00e+00	0	44	0	2196766720	41	3589
2026-01-30 15:51:12.89	277.87	22.56	-35.5	-35.4	22.9	0.00e+00	0	44	0	2217738240	41	3532
2026-01-30 15:51:15.89	278.68	22.51	-35.3	-35.2	23.0	0.00e+00	0	44	0	2239758336	41	3458
2026-01-30 15:51:18.89	279.49	22.45	-35.6	-35.5	22.8	0.00e+00	0	44	0	2261778432	41	3573
2026-01-30 15:51:21.90	280.30	22.38	-35.6	-35.5	22.7	0.00e+00	0	44	0	2282749952	41	3598
2026-01-30 15:51:24.90	281.10	22.31	-35.6	-35.5	22.7	0.00e+00	0	44	0	2304770048	41	3585
2026-01-30 15:51:27.90	281.89	22.24	-35.6	-35.5	22.7	0.00e+00	0	44	0	2326790144	41	3583
2026-01-30 15:51:30.91	282.69	22.15	-35.7	-35.6	22.7	0.00e+00	0	44	0	2347761664	41	3625
2026-01-30 15:51:33.91	283.47	22.07	-35.7	-35.6	22.6	0.00e+00	0	44	0	2369781760	41	3637
2026-01-30 15:51:36.91	284.26	21.98	-35.6	-35.5	22.8	0.00e+00	0	44	0	2391801856	41	3573
2026-01-30 15:51:39.92	285.04	21.88	-35.8	-35.6	22.6	0.00e+00	0	44	0	2412773376	41	3644
2026-01-30 15:51:42.93	285.81	21.78	-35.8	-35.6	22.6	0.00e+00	0	44	0	2434793472	41	3649
2026-01-30 15:51:45.93	286.58	21.67	-35.5	-35.4	22.7	0.00e+00	0	44	0	2456813568	41	3559
2026-01-30 15:51:48.94	287.35	21.56	-35.6	-35.5	22.7	0.00e+00	0	44	0	2478833664	41	3598
2026-01-30 15:51:51.93	288.10	21.44	-35.8	-35.7	22.6	0.00e+00	0	44	0	2499805184	41	3664
2026-01-30 15:51:54.93	288.86	21.32	-35.9	-35.8	22.5	0.00e+00	0	44	0	2521825280	41	3732
2026-01-30 15:51:57.93	289.60	21.20	-36.1	-36.0	22.3	0.00e+00	0	44	0	2542796800	41	3789
2026-01-30 15:52:00.93	290.34	21.07	-36.1	-36.0	22.3	0.00e+00	0	44	0	2564816896	41	3797
2026-01-30 15:52:03.93	291.08	20.94	-35.9	-35.8	22.5	0.00e+00	0	44	0	2586836992	41	3721
2026-01-30 15:52:06.94	291.81	20.80	-35.8	-35.6	22.4	0.00e+00	0	44	0	2607808512	41	3648
2026-01-30 15:52:09.94	292.53	20.66	-36.1	-36.0	22.3	0.00e+00	0	44	0	2629828608	41	3781
2026-01-30 15:52:12.95	293.24	20.51	-36.3	-36.3	22.0	0.00e+00	0	44	0	2651848704	42	3697
2026-01-30 15:52:15.95	293.95	20.37	-36.1	-36.0	22.3	0.00e+00	0	44	0	2672820224	42	3577
2026-01-30 15:52:18.96	294.65	20.21	-36.1	-36.0	22.3	0.00e+00	0	44	0	2694840320	42	3586
2026-01-30 15:52:21.96	295.35	20.06	-36.2	-36.1	22.2	0.00e+00	0	44	0	2716860416	42	3643
2026-01-30 15:52:24.96	296.04	19.90	-36.1	-36.0	22.3	0.00e+00	0	44	0	2737831936	42	3601
2026-01-30 15:52:27.97	296.72	19.74	-36.1	-36.0	22.3	0.00e+00	0	44	0	2759852032	42	3583
2026-01-30 15:52:30.97	297.39	19.58	-36.2	-36.1	22.2	0.00e+00	0	44	0	2781872128	42	3630
2026-01-30 15:52:33.98	298.06	19.41	-36.4	-36.3	22.0	0.00e+00	0	44	0	2802843648	42	3730
2026-01-30 15:52:36.98	298.72	19.24	-36.7	-36.6	21.4	0.00e+00	0	44	0	2824863744	42	3862
2026-01-30 15:52:39.98	299.37	19.07	-36.7	-36.7	21.7	0.00e+00	0	44	0	2846883840	42	3873
2026-01-30 15:52:42.99	300.02	18.90	-36.5	-36.4	21.9	0.00e+00	0	44	0	2868903936	42	3771
2026-01-30 15:52:45.99	300.66	18.72	-36.6	-36.5	21.8	0.00e+00	0	44	0	2889875456	42	3801
2026-01-30 15:52:48.99	301.29	18.55	-36.6	-36.5	21.7	0.00e+00	0	44	0	2911895552	42	3819
2026-01-30 15:52:52.00	301.91	18.36	-36.6	-36.5	21.8	0.00e+00	0	44	0	2933915648	42	3804
2026-01-30 15:52:55.00	302.53	18.18	-36.6	-36.5	21.8	0.00e+00	0	44	0	2954887168	42	3801
2026-01-30 15:52:58.01	303.14	18.00	-36.8	-36.7	21.6	0.00e+00	0	44	0	2976907264	43	3693
2026-01-30 15:53:01.00	303.74	17.81	-37.0	-36.9	21.4	0.00e+00	0	44	0	2998927360	43	3769
2026-01-30 15:53:04.00	304.33	17.63	-37.0	-36.9	21.4	0.00e+00	0	44	0	3019898880	43	3774
2026-01-30 15:53:07.01	304.92	17.44	-37.0	-36.9	21.4	0.00e+00	0	44	0	3041918976	43	3775
2026-01-30 15:53:10.01	305.50	17.25	-37.0	-36.9	21.4	0.00e+00	0	44	0	3062890496	43	3777
2026-01-30 15:53:13.01	306.07	17.06	-36.9	-36.8	21.5	0.00e+00	0	44	0	3084910592	43	3714
2026-01-30 15:53:16.00	306.64	16.87	-36.9	-36.8	21.5	0.00e+00	0	44	0	3106930688	43	3707
2026-01-30 15:53:19.00	307.19	16.67	-37.1	-37.1	21.3	0.00e+00	0	44	0	3127902208	43	3829
2026-01-30 15:53:22.01	307.75	16.48	-37.5	-37.4	21.1	0.00e+00	0	44	0	3149922304	44	3764
2026-01-30 15:53:25.01	308.29	16.29	-37.6	-37.6	21.0	0.00e+00	0	44	0	3171942400	44	3826
2026-01-30 15:53:28.01	308.83	16.09	-37.6	-37.5	21.0	0.00e+00	0	44	0	3192913920	44	3808
2026-01-30 15:53:31.01	309.36	15.89	-37.6	-37.6	20.9	0.00e+00	0	44	0	3214934016	44	3837
2026-01-30 15:53:34.01	309.89	15.70	-37.5	-37.5	21.0	0.00e+00	0	44	0	3236954112	44	3784
2026-01-30 15:53:37.01	310.40	15.50	-37.4	-37.4	21.2	0.00e+00	0	44	0	3257925632	44	3741
2026-01-30 15:53:40.01	310.91	15.30	-37.5	-37.5	21.0	0.00e+00	0	44	0	3279945728	44	3796
2026-01-30 15:53:43.00	311.42	15.10	-37.8	-37.8	20.7	0.00e+00	0	44	0	3301965824	45	3719
2026-01-30 15:53:46.01	311.92	14.90	-38.1	-38.1	20.4	0.00e+00	0	44	0	3322937344	45	3866
2026-01-30 15:53:49.01	312.41	14.70	-38.2	-38.2	20.3	0.00e+00	0	44	0	3344957440	45	3913
2026-01-30 15:53:52.02	312.89	14.50	-38.1	-38.1	20.4	0.00e+00	0	44	0	3366977536	46	3644
2026-01-30 15:53:55.02	313.37	14.30	-37.6	-37.6	20.9	0.00e+00	0	44	0	3387949056	46	3427
2026-01-30 15:53:58.03	313.85	14.10	-37.4	-37.4	21.1	0.00e+00	0	44	0	3409969152	45	3532
2026-01-30 15:54:01.03	314.31	13.90	-37.5	-37.5	20.9	0.00e+00	0	44	0	3431989248	45	3594
2026-01-30 15:54:04.04	314.77	13.70	-37.6	-37.6	20.9	0.00e+00	0	44	0	3454009344	45	3626
2026-01-30 15:54:07.05	315.23	13.50	-37.8	-37.8	20.7	0.00e+00	0	44	0	3474980864	45	3723
2026-01-30 15:54:10.05	315.68	13.30	-38.2	-38.2	20.3	0.00e+00	0	44	0	3497000960	45	3901
2026-01-30 15:54:13.06	316.12	13.10	-38.3	-38.3	20.2	0.00e+00	0	44	0	3519021056	46	3736
2026-01-30 15:54:16.06	316.56	12.90	-38.3	-38.3	20.2	0.00e+00	0	44	0	3539992576	46	3720
2026-01-30 15:54:19.06	316.99	12.70	-38.2	-38.2	20.3	0.00e+00	0	44	0	3562012672	46	3679
2026-01-30 15:54:22.06	317.41	12.50	-38.2	-38.2	20.3	0.00e+00	0	44	0	3582984192	46	3656
2026-01-30 15:54:25.07	317.84	12.30	-38.2	-38.2	20.3	0.00e+00	0	44	0	3605004288	46	3653
2026-01-30 15:54:28.08	318.25	12.10	-38.1	-38.1	20.3	0.00e+00	0	44	0	3627024384	46	3640
2026-01-30 15:54:31.08	318.66	11.91	-38.4	-38.4	20.1	0.00e+00	0	44	0	3647995904	46	3750
2026-01-30 15:54:34.08	319.06	11.71	-38.5	-38.6	19.9	0.00e+00	0	44	0	3670016000	46	3842
2026-01-30 15:54:37.09	319.46	11.51	-38.8	-38.9	19.6	0.00e+00	0	44	0	3692036096	46	3995
2026-01-30 15:54:40.08	319.85	11.31	-38.6	-38.8	19.7	0.00e+00	0	44	0	3714056192	47	3704
2026-01-30 15:54:43.09	320.24	11.11	-38.7	-38.8	19.7	0.00e+00	0	44	0	3735027712	47	3715
2026-01-30 15:54:46.10	320.63	10.92	-38.4	-38.5	19.9	0.00e+00	0	44	0	3757047808	47	3591
2026-01-30 15:54:49.10	321.01	10.72	-38.4	-38.5	19.9	0.00e+00	0	44	0	3779067904	47	3588
2026-01-30 15:54:52.11	321.38	10.53	-38.5	-38.6	19.8	0.00e+00	0	44	0	3800039424	47	3642
2026-01-30 15:54:55.11	321.75	10.33	-38.3	-38.4	20.0	0.00e+00	0	44	0	3822059520	47	3551
2026-01-30 15:54:58.11	322.11	10.14	-38.4	-38.5	19.9	0.00e+00	0	44	0	3844079616	47	3575
2026-01-30 15:55:01.12	322.47	9.94	-38.6	-38.6	19.8	0.00e+00	0	44	0	3865051136	47	3646
2026-01-30 15:55:04.12	322.83	9.75	-38.7	-38.8	19.6	0.00e+00	0	44	0	3887071232	47	3715
2026-01-30 15:55:07.13	323.18	9.56	-38.8	-38.9	19.5	0.00e+00	0	44	0	3909091328	47	3765
2026-01-30 15:55:10.13	323.53	9.36	-38.9	-39.1	19.3	0.00e+00	0	44	0	3931111424	47	3825
2026-01-30 15:55:13.14	323.87	9.17	-38.9	-39.2	19.2	0.00e+00	0	44	0	3952082944	47	3891
2026-01-30 15:55:16.14	324.21	8.98	-48.6	-56.6	4.1	2.23e-01	0	44	0	3973054464	66	9616
2026-01-30 15:55:19.14	324.54	8.79	-49.8	-59.6	3.8	8.46e-01	0	44	104	3973054464	69	11548
2026-01-30 15:55:22.16	324.87	8.60	-49.7	-59.7	3.8	8.46e-01	0	44	104	3973054464	69	11648
2026-01-30 15:55:25.17	325.20	8.41	-49.9	-59.8	3.8	8.47e-01	0	44	104	3973054464	69	11719
2026-01-30 15:55:28.18	325.52	8.22	-49.9	-59.8	3.8	8.48e-01	0	44	104	3973054464	69	11792
2026-01-30 15:55:31.19	325.83	8.03	-49.9	-59.9	3.8	8.46e-01	0	44	104	3973054464	69	11822
2026-01-30 15:55:34.20	326.15	7.85	-49.9	-59.8	3.8	8.47e-01	0	44	104	3973054464	69	11792
2026-01-30 15:55:37.21	326.46	7.66	-49.9	-59.9	3.8	8.47e-01	0	44	104	3973054464	69	11844
2026-01-30 15:55:40.23	326.77	7.47	-49.9	-59.8	3.8	8.47e-01	0	44	104	3973054464	69	11753
2026-01-30 15:55:43.23	327.07	7.29	-49.9	-59.8	3.8	8.48e-01	0	44	104	3973054464	69	11810
2026-01-30 15:55:46.24	327.37	7.10	-49.9	-59.8	3.8	8.46e-01	0	44	104	3973054464	69	11810
2026-01-30 15:55:49.25	327.66	6.92	-49.9	-59.8	3.8	8.48e-01	0	44	104	3973054464	69	11790
2026-01-30 15:55:52.26	327.95	6.74	-49.9	-59.9	3.8	8.47e-01	0	44	104	3973054464	69	11839
2026-01-30 15:55:55.27	328.24	6.55	-49.9	-59.8	3.8	8.48e-01	0	44	104	3973054464	69	11774
2026-01-30 15:55:58.28	328.53	6.37	-49.9	-59.9	3.8	8.46e-01	0	44	104	3973054464	69	11840
2026-01-30 15:56:01.29	328.81	6.19	-49.9	-59.8	3.8	8.45e-01	0	44	104	3973054464	69	11785
2026-01-30 15:56:04.30	329.09	6.01	-49.9	-59.9	3.8	8.45e-01	0	44	104	3973054464	69	11917
2026-01-30 15:56:07.31	329.36	5.83	-49.9	-59.8	3.8	8.47e-01	0	44	104	3973054464	69	11816
2026-01-30 15:56:10.32	329.63	5.65	-49.9	-59.9	3.8	8.46e-01	0	44	104	3973054464	69	11867
2026-01-30 15:56:13.33	329.90	5.47	-49.9	-59.9	3.8	8.46e-01	0	44	104	3973054464	69	11820
2026-01-30 15:56:16.34	330.17	5.30	-49.9	-59.9	3.8	8.47e-01	0	44	104	3973054464	69	11839
2026-01-30 15:56:19.34	330.43	5.12	-49.9	-59.8	3.8	8.48e-01	0	44	104	3973054464	69	11782

#Closed at: 2026-01-30 15:56:22
#Recorded file [3973 MB]: D:/Data/31040_260130_184515.dat