passes_logs/2026/01/14/R2M6_AANII_01/R2M6_AANII_01__20260114_015448_NOAA_20_JPSS-1_rec.log

#Pass ID: 20260114_015448_NOAA 20 (JPSS-1)
#Satellite: NOAA 20 (JPSS-1)
#Configuration: NOAA 20
#almurnet v.1.7.20240730
#Start time: 2026-01-14 01:56:18

#Version: 2.2.20231116
#Station: R2M6_AANII_01
#Location: 30.233357 lon 59.946436 lat
#TLE: 1 43013U 17073A   26013.21545503  .00000073  00000+0  55630-4 0  9998
#TLE: 2 43013  98.7633 314.1737 0001580  41.9966 318.1331 14.19535680422486

#Time	Az	El	Level	Level2	SNR	BER	BlckErr	Temp	State	Recorded	gain1	gain2
2026-01-14 01:56:18.33	2.95	13.70	-34.7	-54.0	3.8	7.45e-01	0	43	0	0	30	32967
2026-01-14 01:56:21.33	2.59	13.94	-34.5	-48.5	3.8	1.49e+00	0	43	104	0	29	18160
2026-01-14 01:56:24.34	2.22	14.18	-34.4	-48.9	3.8	1.49e+00	0	43	104	0	28	19107
2026-01-14 01:56:27.35	1.84	14.43	-34.4	-48.9	3.8	1.49e+00	0	43	104	0	28	19084
2026-01-14 01:56:30.37	1.45	14.68	-34.4	-48.9	3.8	1.49e+00	0	43	104	0	28	19093
2026-01-14 01:56:33.37	1.06	14.93	-34.4	-48.8	3.8	1.49e+00	0	43	104	0	28	19029
2026-01-14 01:56:36.39	0.66	15.18	-34.4	-48.9	3.8	1.49e+00	0	43	104	0	28	19030
2026-01-14 01:56:39.41	0.26	15.43	-34.4	-48.8	3.8	1.49e+00	0	43	104	0	28	19012
2026-01-14 01:56:42.41	359.84	15.68	-34.4	-48.8	3.8	1.49e+00	0	43	104	0	28	19007
2026-01-14 01:56:45.41	359.43	15.94	-34.4	-48.8	3.8	1.49e+00	0	43	104	0	28	18982
2026-01-14 01:56:48.42	359.00	16.19	-34.4	-48.8	3.8	1.49e+00	0	43	104	0	28	18972
2026-01-14 01:56:51.43	358.57	16.45	-34.4	-48.8	3.8	1.49e+00	0	43	104	0	28	18975
2026-01-14 01:56:54.44	358.12	16.70	-34.4	-48.8	3.8	1.49e+00	0	43	104	0	28	18979
2026-01-14 01:56:57.45	357.67	16.96	-34.4	-48.8	3.8	1.49e+00	0	43	104	0	28	18892
2026-01-14 01:57:00.46	357.22	17.22	-34.3	-48.8	3.8	1.49e+00	0	43	104	0	28	18925
2026-01-14 01:57:03.47	356.75	17.48	-34.4	-48.8	3.8	1.49e+00	0	43	104	0	28	18921
2026-01-14 01:57:06.49	356.27	17.74	-34.4	-48.8	3.8	1.49e+00	0	43	104	0	28	18948
2026-01-14 01:57:09.50	355.79	18.00	-34.3	-48.8	3.8	1.49e+00	0	43	104	0	28	18941
2026-01-14 01:57:12.51	355.30	18.26	-34.3	-48.8	3.8	1.49e+00	0	43	104	0	28	18945
2026-01-14 01:57:15.52	354.80	18.52	-34.4	-49.0	3.8	1.49e+00	0	43	104	0	28	19170
2026-01-14 01:57:18.53	354.29	18.78	-34.5	-48.5	3.8	1.49e+00	0	43	104	0	29	18184
2026-01-14 01:57:21.54	353.78	19.05	-34.5	-48.5	3.8	1.49e+00	0	43	104	0	29	18072
2026-01-14 01:57:24.55	353.25	19.31	-34.4	-49.0	3.8	1.49e+00	0	43	104	0	28	19150
2026-01-14 01:57:27.55	352.71	19.57	-34.4	-48.9	3.8	1.49e+00	0	43	104	0	28	19047
2026-01-14 01:57:30.57	352.17	19.83	-34.4	-48.9	3.8	1.49e+00	0	43	104	0	28	19066
2026-01-14 01:57:33.58	351.61	20.10	-34.4	-48.9	3.8	1.49e+00	0	43	104	0	28	19058
2026-01-14 01:57:36.59	351.05	20.36	-34.4	-48.9	3.8	1.49e+00	0	43	104	0	28	19098
2026-01-14 01:57:39.60	350.47	20.62	-34.4	-48.9	3.8	1.49e+00	0	43	104	0	28	19114
2026-01-14 01:57:42.60	349.89	20.88	-34.4	-48.9	3.8	1.49e+00	0	43	104	0	28	19064
2026-01-14 01:57:45.62	349.29	21.15	-34.4	-48.9	3.8	1.49e+00	0	43	104	0	28	19097
2026-01-14 01:57:48.64	348.69	21.41	-34.4	-48.9	3.8	1.49e+00	0	43	104	0	28	19064
2026-01-14 01:57:51.63	348.07	21.67	-34.4	-48.9	3.8	1.49e+00	0	43	104	0	28	19097
2026-01-14 01:57:54.64	347.45	21.93	-34.4	-48.9	3.8	1.49e+00	0	43	104	0	28	19084
2026-01-14 01:57:57.65	346.81	22.19	-34.4	-48.9	3.8	1.49e+00	0	43	104	0	28	19086
2026-01-14 01:58:00.66	346.16	22.44	-34.4	-48.9	3.8	1.49e+00	0	43	104	0	28	19075
2026-01-14 01:58:03.67	345.50	22.70	-34.4	-48.9	3.8	1.49e+00	0	43	104	0	28	19095
2026-01-14 01:58:06.70	344.83	22.95	-34.4	-48.9	3.8	1.49e+00	0	43	104	0	28	19049
2026-01-14 01:58:09.70	344.15	23.20	-34.4	-48.9	3.8	1.49e+00	0	43	104	0	28	19104
2026-01-14 01:58:12.70	343.46	23.45	-34.4	-48.9	3.8	1.49e+00	0	43	104	0	28	19059
2026-01-14 01:58:15.71	342.76	23.70	-34.4	-48.9	3.8	1.49e+00	0	43	104	0	28	19077
2026-01-14 01:58:18.72	342.04	23.95	-34.4	-48.9	3.8	1.49e+00	0	43	104	0	28	19093
2026-01-14 01:58:21.74	341.31	24.19	-34.4	-48.9	3.8	1.49e+00	0	43	104	0	28	19098
2026-01-14 01:58:24.74	340.58	24.43	-34.4	-48.9	3.8	1.49e+00	0	43	104	0	28	19086
2026-01-14 01:58:27.75	339.83	24.67	-34.4	-48.9	3.8	1.49e+00	0	43	104	0	28	19049
2026-01-14 01:58:30.75	339.07	24.90	-34.4	-48.9	3.8	1.49e+00	0	43	104	0	28	19059
2026-01-14 01:58:33.76	338.30	25.13	-34.4	-48.9	3.8	1.49e+00	0	43	104	0	28	19062
2026-01-14 01:58:36.77	337.52	25.36	-34.4	-48.9	3.8	1.49e+00	0	43	104	0	28	19049
2026-01-14 01:58:39.78	336.72	25.58	-34.4	-48.9	3.8	1.49e+00	0	43	104	0	28	19071
2026-01-14 01:58:42.80	335.92	25.80	-34.4	-48.9	3.8	1.49e+00	0	43	104	0	28	19061
2026-01-14 01:58:45.81	335.10	26.01	-34.4	-48.9	3.8	1.49e+00	0	43	104	0	28	19101
2026-01-14 01:58:48.81	334.27	26.22	-34.4	-48.9	3.8	1.49e+00	0	43	104	0	28	19023
2026-01-14 01:58:51.83	333.43	26.42	-34.4	-48.9	3.8	1.49e+00	0	43	104	0	28	19060
2026-01-14 01:58:54.84	332.58	26.62	-34.4	-48.9	3.8	1.49e+00	0	43	104	0	28	19090
2026-01-14 01:58:57.85	331.72	26.81	-34.4	-48.9	3.8	1.49e+00	0	43	104	0	28	19070
2026-01-14 01:59:00.85	330.86	27.00	-34.4	-48.9	3.8	1.49e+00	0	43	104	0	28	19061
2026-01-14 01:59:03.86	329.97	27.18	-34.4	-48.9	3.8	1.49e+00	0	43	104	0	28	19057
2026-01-14 01:59:06.86	329.09	27.35	-34.4	-48.9	3.8	1.49e+00	0	43	104	0	28	19063
2026-01-14 01:59:09.88	328.18	27.52	-34.4	-48.9	3.8	1.49e+00	0	43	104	0	28	19086
2026-01-14 01:59:12.89	327.27	27.68	-34.4	-48.9	3.8	1.49e+00	0	43	104	0	28	19064
2026-01-14 01:59:15.90	326.35	27.83	-34.4	-48.9	3.8	1.49e+00	0	43	104	0	28	19034
2026-01-14 01:59:18.92	325.42	27.98	-34.4	-48.9	3.8	1.49e+00	0	43	104	0	28	19032
2026-01-14 01:59:21.92	324.49	28.12	-34.4	-48.9	3.8	1.49e+00	0	43	104	0	28	19071
2026-01-14 01:59:24.93	323.55	28.25	-34.4	-48.9	3.8	1.49e+00	0	43	104	0	28	19102
2026-01-14 01:59:27.94	322.59	28.37	-34.4	-48.9	3.8	1.49e+00	0	43	104	0	28	19082
2026-01-14 01:59:30.96	321.63	28.48	-34.4	-48.9	3.8	1.49e+00	0	43	104	0	28	19058
2026-01-14 01:59:33.97	320.67	28.59	-34.4	-48.9	3.8	1.49e+00	0	43	104	0	28	19093
2026-01-14 01:59:36.98	319.70	28.68	-34.4	-48.9	3.8	1.49e+00	0	43	104	0	28	19062
2026-01-14 01:59:40.00	318.72	28.77	-34.4	-48.9	3.8	1.49e+00	0	43	104	0	28	19047
2026-01-14 01:59:43.00	317.74	28.85	-34.4	-48.9	3.8	1.49e+00	0	43	104	0	28	19088
2026-01-14 01:59:46.01	316.75	28.92	-34.4	-48.9	3.8	1.49e+00	0	43	104	0	28	19026
2026-01-14 01:59:49.02	315.76	28.98	-34.4	-48.8	3.8	1.49e+00	0	43	104	0	28	19027
2026-01-14 01:59:52.03	314.76	29.03	-34.4	-48.9	3.8	1.49e+00	0	43	104	0	28	19028
2026-01-14 01:59:55.04	313.77	29.07	-34.4	-48.9	3.8	1.49e+00	0	43	104	0	28	19062
2026-01-14 01:59:58.05	312.77	29.10	-34.4	-48.9	3.8	1.49e+00	0	43	104	0	28	19056
2026-01-14 02:00:01.06	311.77	29.12	-34.4	-48.9	3.8	1.49e+00	0	43	104	0	28	18991
2026-01-14 02:00:04.06	310.77	29.13	-34.4	-48.9	3.8	1.49e+00	0	43	104	0	28	19102
2026-01-14 02:00:07.08	309.76	29.13	-34.4	-48.9	3.8	1.49e+00	0	43	104	0	28	19063
2026-01-14 02:00:10.09	308.76	29.12	-34.4	-48.9	3.8	1.49e+00	0	43	104	0	28	19048
2026-01-14 02:00:13.11	307.75	29.11	-34.4	-48.9	3.8	1.49e+00	0	43	104	0	28	19030
2026-01-14 02:00:16.11	306.76	29.08	-34.4	-48.9	3.8	1.49e+00	0	43	104	0	28	19062
2026-01-14 02:00:19.11	305.76	29.04	-34.4	-48.9	3.8	1.49e+00	0	43	104	0	28	19047
2026-01-14 02:00:22.11	304.77	28.99	-34.4	-48.9	3.8	1.49e+00	0	43	104	0	28	19073
2026-01-14 02:00:25.13	303.77	28.94	-34.4	-48.9	3.8	1.49e+00	0	43	104	0	28	19034
2026-01-14 02:00:28.14	302.78	28.87	-34.4	-48.9	3.8	1.49e+00	0	43	104	0	28	19022
2026-01-14 02:00:31.14	301.80	28.79	-34.4	-48.9	3.8	1.49e+00	0	43	104	0	28	19023
2026-01-14 02:00:34.16	300.82	28.71	-34.4	-48.8	3.8	1.49e+00	0	43	104	0	28	19020
2026-01-14 02:00:37.17	299.85	28.61	-34.4	-48.9	3.8	1.49e+00	0	43	104	0	28	19001
2026-01-14 02:00:40.17	298.88	28.51	-34.4	-48.9	3.8	1.49e+00	0	43	104	0	28	19058
2026-01-14 02:00:43.18	297.92	28.40	-34.4	-48.9	3.8	1.49e+00	0	43	104	0	28	19060
2026-01-14 02:00:46.18	296.97	28.28	-34.4	-48.9	3.8	1.49e+00	0	43	104	0	28	19018
2026-01-14 02:00:49.19	296.02	28.15	-34.4	-48.9	3.8	1.49e+00	0	43	104	0	28	19065
2026-01-14 02:00:52.19	295.08	28.02	-34.4	-48.9	3.8	1.49e+00	0	43	104	0	28	19050
2026-01-14 02:00:55.21	294.15	27.87	-34.4	-48.9	3.8	1.49e+00	0	43	104	0	28	19035
2026-01-14 02:00:58.22	293.23	27.72	-34.4	-48.8	3.8	1.49e+00	0	43	104	0	28	19003
2026-01-14 02:01:01.23	292.31	27.56	-34.4	-48.9	3.8	1.49e+00	0	43	104	0	28	19051
2026-01-14 02:01:04.24	291.41	27.40	-34.4	-48.8	3.8	1.49e+00	0	43	104	0	28	19005
2026-01-14 02:01:07.25	290.51	27.23	-34.4	-48.9	3.8	1.49e+00	0	43	104	0	28	19030
2026-01-14 02:01:10.26	289.63	27.05	-34.4	-48.8	3.8	1.49e+00	0	43	104	0	28	19010
2026-01-14 02:01:13.27	288.75	26.86	-34.4	-48.8	3.8	1.49e+00	0	43	104	0	28	18998
2026-01-14 02:01:16.27	287.89	26.67	-34.4	-48.9	3.8	1.49e+00	0	43	104	0	28	19072
2026-01-14 02:01:19.29	287.03	26.47	-34.4	-48.9	3.8	1.49e+00	0	43	104	0	28	19040
2026-01-14 02:01:22.31	286.18	26.27	-34.4	-48.9	3.8	1.49e+00	0	43	104	0	28	19028
2026-01-14 02:01:25.33	285.35	26.06	-34.4	-48.9	3.8	1.49e+00	0	43	104	0	28	19080
2026-01-14 02:01:28.34	284.52	25.85	-34.4	-48.9	3.8	1.49e+00	0	43	104	0	28	19042
2026-01-14 02:01:31.35	283.71	25.63	-34.4	-48.8	3.8	1.49e+00	0	43	104	0	28	18947
2026-01-14 02:01:34.37	282.91	25.41	-34.4	-48.9	3.8	1.49e+00	0	43	104	0	28	19090
2026-01-14 02:01:37.38	282.12	25.18	-34.4	-48.9	3.8	1.49e+00	0	43	104	0	28	19047
2026-01-14 02:01:40.39	281.35	24.95	-34.4	-48.9	3.8	1.49e+00	0	43	104	0	28	19041
2026-01-14 02:01:43.40	280.58	24.72	-34.4	-48.9	3.8	1.49e+00	0	43	104	0	28	19039
2026-01-14 02:01:46.41	279.83	24.48	-34.4	-49.0	3.8	1.49e+00	0	43	104	0	28	19366
2026-01-14 02:01:49.42	279.08	24.24	-34.4	-48.8	3.8	1.49e+00	0	43	104	0	28	19023
2026-01-14 02:01:52.42	278.35	24.00	-34.4	-48.8	3.8	1.49e+00	0	43	104	0	28	19005
2026-01-14 02:01:55.43	277.63	23.76	-34.4	-48.8	3.8	1.49e+00	0	43	104	0	28	19019
2026-01-14 02:01:58.44	276.92	23.51	-34.4	-48.8	3.8	1.49e+00	0	43	104	0	28	19016
2026-01-14 02:02:01.44	276.23	23.26	-34.4	-48.8	3.8	1.49e+00	0	43	104	0	28	18981
2026-01-14 02:02:04.46	275.54	23.01	-34.4	-48.8	3.8	1.49e+00	0	43	104	0	28	18963
2026-01-14 02:02:07.46	274.87	22.75	-34.4	-48.8	3.8	1.49e+00	0	43	104	0	28	18987
2026-01-14 02:02:10.48	274.20	22.50	-34.4	-48.8	3.8	1.49e+00	0	43	104	0	28	19017
2026-01-14 02:02:13.48	273.55	22.24	-34.4	-48.8	3.8	1.49e+00	0	43	104	0	28	19016
2026-01-14 02:02:16.48	272.91	21.98	-34.4	-48.8	3.8	1.49e+00	0	43	104	0	28	19022
2026-01-14 02:02:19.50	272.28	21.72	-34.4	-48.8	3.8	1.49e+00	0	43	104	0	28	19017
2026-01-14 02:02:22.50	271.66	21.46	-34.4	-48.8	3.8	1.49e+00	0	43	104	0	28	18973
2026-01-14 02:02:25.52	271.04	21.20	-34.4	-48.8	3.8	1.49e+00	0	43	104	0	28	18988
2026-01-14 02:02:28.53	270.44	20.93	-34.4	-48.8	3.8	1.49e+00	0	43	104	0	28	19001
2026-01-14 02:02:31.54	269.85	20.67	-34.4	-48.8	3.8	1.49e+00	0	43	104	0	28	18974
2026-01-14 02:02:34.56	269.27	20.41	-34.4	-48.8	3.8	1.49e+00	0	43	104	0	28	18941
2026-01-14 02:02:37.58	268.70	20.14	-34.4	-48.8	3.8	1.49e+00	0	43	104	0	28	19008
2026-01-14 02:02:40.59	268.14	19.88	-34.4	-48.8	3.8	1.49e+00	0	43	104	0	28	19021
2026-01-14 02:02:43.60	267.59	19.61	-34.4	-48.8	3.8	1.49e+00	0	43	104	0	28	19020
2026-01-14 02:02:46.62	267.05	19.35	-34.4	-48.8	3.8	1.49e+00	0	43	104	0	28	19023
2026-01-14 02:02:49.64	266.51	19.09	-34.4	-48.8	3.8	1.49e+00	0	43	104	0	28	18994
2026-01-14 02:02:52.65	265.99	18.82	-34.4	-48.8	3.8	1.49e+00	0	43	104	0	28	19009
2026-01-14 02:02:55.66	265.48	18.56	-34.3	-48.8	3.8	1.49e+00	0	43	104	0	28	18929
2026-01-14 02:02:58.66	264.97	18.30	-34.4	-48.8	3.8	1.49e+00	0	43	104	0	28	18973
2026-01-14 02:03:01.68	264.48	18.03	-34.4	-48.8	3.8	1.49e+00	0	43	104	0	28	18940
2026-01-14 02:03:04.69	263.99	17.77	-34.4	-48.8	3.8	1.49e+00	0	43	104	0	28	18976
2026-01-14 02:03:07.70	263.51	17.51	-34.4	-48.8	3.8	1.49e+00	0	43	104	0	28	18972
2026-01-14 02:03:10.71	263.04	17.25	-34.4	-48.8	3.8	1.49e+00	0	43	104	0	28	18939
2026-01-14 02:03:13.73	262.58	16.99	-34.4	-48.8	3.8	1.49e+00	0	43	104	0	28	18955
2026-01-14 02:03:16.73	262.12	16.73	-34.4	-48.8	3.8	1.49e+00	0	43	104	0	28	18972
2026-01-14 02:03:19.74	261.68	16.48	-34.4	-48.8	3.8	1.49e+00	0	43	104	0	28	19018
2026-01-14 02:03:22.74	261.24	16.22	-34.4	-48.8	3.8	1.49e+00	0	43	104	0	28	18923
2026-01-14 02:03:25.75	260.81	15.96	-34.4	-48.8	3.8	1.49e+00	0	43	104	0	28	18961
2026-01-14 02:03:28.75	260.39	15.71	-34.4	-48.8	3.8	1.49e+00	0	43	104	0	28	18979
2026-01-14 02:03:31.76	259.97	15.46	-34.4	-48.8	3.8	1.49e+00	0	43	104	0	28	18986
2026-01-14 02:03:34.76	259.56	15.21	-34.4	-48.8	3.8	1.49e+00	0	43	104	0	28	19008
2026-01-14 02:03:37.74	259.16	14.96	-34.4	-48.8	3.8	1.49e+00	0	43	104	0	28	18983
2026-01-14 02:03:40.75	258.77	14.71	-34.4	-48.8	3.8	1.49e+00	0	43	104	0	28	18962
2026-01-14 02:03:43.76	258.38	14.46	-34.4	-48.8	3.8	1.49e+00	0	43	104	0	28	18998
2026-01-14 02:03:46.76	258.00	14.21	-34.4	-48.8	3.8	1.49e+00	0	43	104	0	28	18964
2026-01-14 02:03:49.76	257.62	13.96	-34.4	-48.8	3.8	1.49e+00	0	43	104	0	28	18934
2026-01-14 02:03:52.77	257.25	13.72	-34.4	-48.8	3.8	1.49e+00	0	43	104	0	28	18988
2026-01-14 02:03:55.78	256.89	13.48	-34.4	-48.8	3.8	1.49e+00	0	43	104	0	28	18957
2026-01-14 02:03:58.78	256.53	13.23	-34.4	-48.8	3.8	1.49e+00	0	43	104	0	28	18959
2026-01-14 02:04:01.79	256.18	12.99	-34.4	-48.8	3.8	1.49e+00	0	43	104	0	28	18980
2026-01-14 02:04:04.80	255.83	12.75	-34.4	-48.8	3.8	1.49e+00	0	43	104	0	28	18966
2026-01-14 02:04:07.80	255.49	12.51	-34.4	-48.8	3.8	1.49e+00	0	43	104	0	28	18974
2026-01-14 02:04:10.83	255.16	12.28	-34.4	-48.8	3.8	1.49e+00	0	43	104	0	28	18965
2026-01-14 02:04:13.84	254.83	12.04	-34.4	-48.8	3.8	1.49e+00	0	43	104	0	28	18968
2026-01-14 02:04:16.86	254.50	11.80	-34.4	-48.8	3.8	1.49e+00	0	43	104	0	28	18962
2026-01-14 02:04:19.86	254.19	11.57	-34.3	-48.8	3.8	1.49e+00	0	43	104	0	28	18933
2026-01-14 02:04:22.87	253.87	11.34	-34.3	-48.8	3.8	1.49e+00	0	43	104	0	28	18912
2026-01-14 02:04:25.88	253.56	11.11	-34.4	-48.8	3.8	1.49e+00	0	43	104	0	28	18920
2026-01-14 02:04:28.88	253.26	10.88	-34.3	-48.8	3.8	1.49e+00	0	43	104	0	28	18989
2026-01-14 02:04:31.89	252.96	10.65	-34.4	-48.8	3.8	1.49e+00	0	43	104	0	28	18963
2026-01-14 02:04:34.89	252.67	10.43	-34.3	-48.8	3.8	1.49e+00	0	43	104	0	28	18926
2026-01-14 02:04:37.91	252.38	10.20	-34.3	-48.8	3.8	1.49e+00	0	43	104	0	28	18934
2026-01-14 02:04:40.91	252.09	9.98	-34.3	-48.7	3.8	1.49e+00	0	43	104	0	28	18895
2026-01-14 02:04:43.92	251.81	9.75	-34.4	-48.8	3.8	1.49e+00	0	43	104	0	28	18927
2026-01-14 02:04:46.93	251.54	9.53	-34.3	-48.8	3.8	1.49e+00	0	43	104	0	28	18959
2026-01-14 02:04:49.94	251.26	9.31	-34.3	-48.8	3.8	1.49e+00	0	43	104	0	28	18931
2026-01-14 02:04:52.95	251.00	9.09	-34.3	-48.8	3.8	1.49e+00	0	43	104	0	28	18947
2026-01-14 02:04:55.95	250.73	8.88	-34.4	-48.8	3.8	1.49e+00	0	43	104	0	28	18996
2026-01-14 02:04:58.96	250.47	8.66	-34.3	-48.8	3.8	1.49e+00	0	43	104	0	28	18946
2026-01-14 02:05:01.97	250.22	8.45	-34.4	-48.8	3.8	1.49e+00	0	43	104	0	28	18967
2026-01-14 02:05:04.97	249.97	8.23	-34.3	-48.7	3.8	1.49e+00	0	43	104	0	28	18900
2026-01-14 02:05:07.97	249.72	8.02	-34.3	-48.8	3.8	1.49e+00	0	43	104	0	28	18931
2026-01-14 02:05:10.98	249.48	7.81	-34.3	-48.8	3.8	1.49e+00	0	43	104	0	28	18939
2026-01-14 02:05:13.99	249.23	7.60	-34.3	-48.8	3.8	1.49e+00	0	43	104	0	28	18949
2026-01-14 02:05:17.00	249.00	7.39	-34.4	-48.8	3.8	1.49e+00	0	43	104	0	28	18972
2026-01-14 02:05:20.02	248.76	7.18	-34.3	-48.7	3.8	1.49e+00	0	43	104	0	28	18901

#Closed at: 2026-01-14 02:05:22
#Recorded file [0 MB]: D:/data/31010_260114_045618.dat