passes_logs/2026/01/14/R2M6_AANII_01/R2M6_AANII_01__20260114_080832_SUOMI_NPP_rec.log

#Pass ID: 20260114_080832_SUOMI NPP
#Satellite: SUOMI NPP
#Configuration: NPP
#almurnet v.1.7.20240730
#Start time: 2026-01-14 08:08:31

#Version: 2.2.20231116
#Station: R2M6_AANII_01
#Location: 30.233357 lon 59.946436 lat
#TLE: 1 37849U 11061A   26013.27136842  .00000065  00000+0  51889-4 0  9990
#TLE: 2 37849  98.7808 315.3349 0002489  66.6776 293.4661 14.19524902736466

#Time	Az	El	Level	Level2	SNR	BER	BlckErr	Temp	State	Recorded	gain1	gain2
2026-01-14 08:08:31.46	90.35	6.95	-32.7	-41.7	3.8	1.49e+00	0	40	0	0	26	10201
2026-01-14 08:08:34.47	90.03	7.13	-32.2	-38.4	5.7	4.07e-01	0	40	0	1048576	25	7304
2026-01-14 08:08:37.47	89.72	7.30	-32.2	-38.1	5.8	3.40e-01	0	40	0	7340032	25	7138
2026-01-14 08:08:40.47	89.39	7.48	-32.1	-37.3	6.5	2.82e-01	0	41	0	12582912	25	6576
2026-01-14 08:08:43.47	89.06	7.66	-31.5	-34.6	8.9	3.86e-02	0	41	0	17825792	24	5194
2026-01-14 08:08:46.47	88.73	7.84	-31.3	-34.5	9.5	1.22e-02	0	41	0	24117248	23	5184
2026-01-14 08:08:49.48	88.40	8.02	-31.4	-34.6	9.5	1.73e-02	0	41	0	29360128	23	5241
2026-01-14 08:08:52.49	88.06	8.20	-31.3	-34.5	9.7	1.29e-02	0	41	0	35651584	23	5161
2026-01-14 08:08:55.50	87.71	8.38	-31.4	-34.7	9.3	1.40e-02	0	41	0	40894464	23	5290
2026-01-14 08:08:58.51	87.36	8.56	-31.7	-35.8	8.6	4.14e-02	0	41	0	46137344	23	5779
2026-01-14 08:09:01.52	87.01	8.74	-31.4	-34.8	9.4	1.95e-02	0	41	0	52428800	23	5316
2026-01-14 08:09:04.52	86.65	8.92	-31.5	-34.9	9.4	1.42e-02	0	41	0	57671680	23	5348
2026-01-14 08:09:07.53	86.29	9.10	-31.7	-35.6	8.9	2.42e-02	0	41	0	62914560	23	5674
2026-01-14 08:09:10.54	85.92	9.28	-31.5	-34.8	9.5	1.56e-02	0	41	0	69206016	23	5290
2026-01-14 08:09:13.55	85.55	9.47	-31.1	-33.5	10.5	4.97e-03	0	41	0	74448896	23	4744
2026-01-14 08:09:16.55	85.17	9.65	-31.1	-33.5	10.6	4.50e-03	0	41	0	80740352	23	4725
2026-01-14 08:09:19.57	84.79	9.83	-31.0	-33.2	10.9	1.90e-03	0	41	0	85983232	23	4614
2026-01-14 08:09:22.57	84.40	10.01	-31.0	-33.3	10.8	2.96e-03	0	42	0	91226112	23	4643
2026-01-14 08:09:25.58	84.01	10.19	-31.1	-33.4	10.7	2.85e-03	0	42	0	97517568	23	4709
2026-01-14 08:09:28.60	83.61	10.38	-31.2	-33.9	10.4	2.59e-03	0	42	0	102760448	23	4869
2026-01-14 08:09:31.61	83.21	10.56	-31.2	-33.7	10.6	3.85e-03	0	42	0	108003328	23	4786
2026-01-14 08:09:34.62	82.80	10.74	-31.4	-34.2	10.2	9.05e-03	0	42	0	114294784	23	4980
2026-01-14 08:09:37.61	82.39	10.92	-31.2	-33.8	10.4	3.95e-03	0	42	0	119537664	23	4860
2026-01-14 08:09:40.63	81.97	11.10	-31.0	-33.2	10.9	3.36e-03	0	42	0	125829120	23	4632
2026-01-14 08:09:43.63	81.55	11.29	-30.9	-33.0	11.0	1.37e-03	0	42	0	131072000	23	4570
2026-01-14 08:09:46.65	81.12	11.47	-30.8	-33.2	11.3	1.51e-03	0	42	0	136314880	22	4728
2026-01-14 08:09:49.65	80.69	11.65	-31.1	-34.0	10.7	2.94e-03	0	42	0	142606336	22	5024
2026-01-14 08:09:52.67	80.25	11.83	-31.3	-34.6	10.2	4.93e-03	0	42	0	147849216	22	5290
2026-01-14 08:09:55.67	79.81	12.01	-31.4	-35.1	10.0	6.95e-03	0	42	0	154140672	22	5472
2026-01-14 08:09:58.68	79.36	12.19	-31.3	-34.6	10.2	4.65e-03	0	42	0	159383552	22	5298
2026-01-14 08:10:01.69	78.90	12.37	-31.3	-34.8	10.1	5.90e-03	0	42	0	164626432	22	5383
2026-01-14 08:10:04.70	78.44	12.55	-31.3	-34.7	10.2	6.66e-03	0	42	0	170917888	22	5322
2026-01-14 08:10:07.71	77.97	12.73	-31.2	-34.2	10.6	4.85e-03	0	42	0	176160768	22	5111
2026-01-14 08:10:10.72	77.50	12.91	-31.1	-34.0	10.8	2.23e-03	0	42	0	181403648	22	5009
2026-01-14 08:10:13.73	77.02	13.09	-31.1	-33.9	10.8	1.97e-03	0	42	0	187695104	22	4999
2026-01-14 08:10:16.73	76.54	13.26	-31.3	-34.8	10.2	4.17e-03	0	42	0	192937984	22	5338
2026-01-14 08:10:19.75	76.05	13.44	-31.0	-33.6	11.1	1.90e-03	0	42	0	199229440	22	4876
2026-01-14 08:10:22.76	75.55	13.61	-30.9	-33.2	11.4	7.91e-04	0	42	0	204472320	22	4703
2026-01-14 08:10:25.77	75.05	13.79	-30.5	-32.2	12.1	4.13e-04	0	42	0	209715200	22	4359
2026-01-14 08:10:28.78	74.54	13.96	-30.2	-31.8	12.6	7.55e-05	0	42	0	216006656	21	4328
2026-01-14 08:10:31.78	74.03	14.13	-30.3	-32.1	12.5	9.91e-05	0	42	0	221249536	21	4423
2026-01-14 08:10:34.78	73.51	14.31	-30.2	-31.6	12.8	9.61e-05	0	42	0	226492416	21	4267
2026-01-14 08:10:37.79	72.98	14.48	-30.2	-31.7	12.8	7.32e-05	0	42	0	232783872	21	4269
2026-01-14 08:10:40.79	72.45	14.64	-30.0	-31.2	13.2	1.44e-05	0	42	0	238026752	21	4123
2026-01-14 08:10:43.79	71.92	14.81	-30.0	-31.1	13.3	1.52e-05	0	43	0	244318208	21	4081
2026-01-14 08:10:46.79	71.37	14.98	-30.1	-31.5	13.0	2.67e-05	0	43	0	249561088	21	4198
2026-01-14 08:10:49.80	70.82	15.14	-30.3	-31.9	12.7	5.79e-05	0	42	0	254803968	21	4353
2026-01-14 08:10:52.81	70.27	15.30	-30.5	-32.6	12.3	1.72e-04	0	42	0	261095424	21	4598
2026-01-14 08:10:55.81	69.70	15.46	-30.2	-31.8	12.8	9.15e-05	0	42	0	266338304	21	4308
2026-01-14 08:10:58.81	69.14	15.62	-30.2	-31.6	13.0	3.81e-05	0	42	0	271581184	21	4228
2026-01-14 08:11:01.81	68.56	15.78	-30.3	-31.7	13.0	5.79e-05	0	43	0	277872640	21	4259
2026-01-14 08:11:04.83	67.98	15.94	-30.5	-32.5	12.4	1.10e-04	0	43	0	283115520	21	4529
2026-01-14 08:11:07.83	67.39	16.09	-30.8	-33.2	12.0	2.71e-04	0	42	0	289406976	21	4769
2026-01-14 08:11:10.85	66.80	16.24	-30.1	-31.3	13.3	2.21e-05	0	42	0	294649856	21	4130
2026-01-14 08:11:13.86	66.20	16.39	-30.0	-31.0	13.5	8.30e-06	0	43	0	299892736	21	4030
2026-01-14 08:11:16.86	65.60	16.54	-29.8	-30.9	14.0	7.00e-07	0	43	0	306184192	20	4094
2026-01-14 08:11:19.88	64.98	16.68	-29.3	-29.7	14.7	7.00e-07	0	42	0	311427072	20	3761
2026-01-14 08:11:22.88	64.37	16.83	-29.3	-29.7	14.7	1.50e-06	0	43	0	317718528	20	3757
2026-01-14 08:11:25.90	63.74	16.97	-29.3	-29.7	14.7	0.00e+00	0	42	0	322961408	20	3755
2026-01-14 08:11:28.90	63.11	17.10	-29.5	-30.1	14.4	0.00e+00	0	43	0	328204288	20	3863
2026-01-14 08:11:31.92	62.48	17.24	-29.7	-30.5	14.2	7.00e-07	0	43	0	334495744	20	3972
2026-01-14 08:11:34.92	61.84	17.37	-30.0	-31.4	13.6	7.60e-06	0	43	0	339738624	20	4241
2026-01-14 08:11:37.92	61.20	17.50	-30.0	-31.4	13.7	7.60e-06	0	43	0	344981504	20	4231
2026-01-14 08:11:40.93	60.54	17.62	-29.6	-30.4	14.3	2.20e-06	0	42	0	351272960	20	3951
2026-01-14 08:11:43.95	59.89	17.74	-29.2	-29.7	15.1	0.00e+00	0	43	0	356515840	19	3834
2026-01-14 08:11:46.95	59.23	17.86	-29.1	-29.5	15.3	0.00e+00	0	43	0	362807296	19	3777
2026-01-14 08:11:49.95	58.56	17.97	-29.2	-29.8	15.1	0.00e+00	0	43	0	368050176	19	3852
2026-01-14 08:11:52.97	57.89	18.09	-29.6	-30.6	14.6	0.00e+00	0	43	0	373293056	19	4078
2026-01-14 08:11:55.98	57.21	18.19	-29.6	-30.7	14.6	7.00e-07	0	43	0	379584512	19	4104
2026-01-14 08:11:58.99	56.53	18.30	-29.8	-31.2	14.3	3.00e-06	0	43	0	384827392	19	4233
2026-01-14 08:12:02.00	55.84	18.40	-30.1	-31.5	13.7	1.14e-05	0	43	0	390070272	20	4250
2026-01-14 08:12:05.01	55.15	18.50	-29.8	-30.8	14.1	2.20e-06	0	43	0	396361728	20	4039
2026-01-14 08:12:08.02	54.46	18.59	-29.9	-31.1	13.9	1.50e-06	0	42	0	401604608	20	4117
2026-01-14 08:12:11.02	53.76	18.68	-30.1	-31.7	13.5	9.90e-06	0	43	0	407896064	20	4322
2026-01-14 08:12:14.03	53.05	18.76	-30.1	-31.7	13.5	9.90e-06	0	43	0	413138944	20	4324
2026-01-14 08:12:17.03	52.35	18.84	-29.8	-30.8	14.2	2.20e-06	0	43	0	418381824	20	4043
2026-01-14 08:12:20.03	51.64	18.92	-29.9	-31.2	13.9	1.50e-06	0	43	0	424673280	20	4147
2026-01-14 08:12:23.04	50.93	18.99	-30.1	-31.5	13.7	1.06e-05	0	43	0	429916160	20	4261
2026-01-14 08:12:26.03	50.21	19.05	-30.0	-31.5	13.7	1.22e-05	0	43	0	435159040	20	4249
2026-01-14 08:12:29.03	49.50	19.12	-30.3	-32.2	13.2	9.10e-06	0	43	0	441450496	20	4474
2026-01-14 08:12:32.04	48.77	19.17	-30.7	-33.0	12.4	1.58e-04	0	43	0	446693376	21	4673
2026-01-14 08:12:35.05	48.05	19.23	-30.6	-32.8	12.4	1.26e-04	0	43	0	452984832	21	4621
2026-01-14 08:12:38.04	47.32	19.28	-30.5	-32.4	12.7	7.62e-05	0	43	0	458227712	21	4472
2026-01-14 08:12:41.05	46.59	19.32	-30.4	-32.2	12.9	5.26e-05	0	43	0	463470592	21	4398
2026-01-14 08:12:44.05	45.86	19.36	-30.5	-32.5	12.6	9.38e-05	0	43	0	469762048	21	4513
2026-01-14 08:12:47.06	45.13	19.39	-30.5	-32.2	12.9	3.89e-05	0	43	0	475004928	21	4410
2026-01-14 08:12:50.07	44.39	19.42	-30.7	-32.8	12.4	1.44e-04	0	43	0	480247808	21	4603
2026-01-14 08:12:53.07	43.66	19.45	-30.9	-32.9	12.1	2.87e-04	0	43	0	486539264	22	4526
2026-01-14 08:12:56.08	42.92	19.47	-31.0	-33.3	11.8	3.91e-04	0	43	0	491782144	22	4661
2026-01-14 08:12:59.08	42.18	19.48	-30.2	-31.5	13.3	4.19e-05	0	43	0	498073600	21	4170
2026-01-14 08:13:02.09	41.45	19.49	-30.0	-31.0	13.6	6.10e-06	0	43	0	503316480	21	4041
2026-01-14 08:13:05.10	40.71	19.49	-30.3	-31.6	13.2	2.44e-05	0	43	0	508559360	21	4191
2026-01-14 08:13:08.11	39.97	19.49	-30.3	-31.8	13.1	2.67e-05	0	43	0	514850816	21	4254
2026-01-14 08:13:11.12	39.23	19.49	-30.8	-33.3	12.0	2.94e-04	0	43	0	520093696	21	4780
2026-01-14 08:13:14.12	38.49	19.48	-30.6	-32.0	12.7	1.78e-04	0	43	0	525336576	22	4241
2026-01-14 08:13:17.12	37.75	19.46	-30.0	-31.0	13.6	8.30e-06	0	43	0	531628032	21	4015
2026-01-14 08:13:20.12	37.02	19.44	-29.6	-30.2	14.4	6.10e-06	0	43	0	536870912	20	3880
2026-01-14 08:13:23.13	36.28	19.42	-29.7	-30.6	14.2	1.50e-06	0	43	0	543162368	20	3989
2026-01-14 08:13:26.15	35.54	19.39	-29.6	-30.3	14.4	0.00e+00	0	43	0	548405248	20	3891
2026-01-14 08:13:29.15	34.81	19.35	-29.6	-30.3	14.4	7.00e-07	0	43	0	553648128	20	3901
2026-01-14 08:13:32.15	34.08	19.31	-29.5	-30.0	14.5	0.00e+00	0	43	0	559939584	20	3821
2026-01-14 08:13:35.17	33.35	19.27	-29.2	-29.6	15.1	0.00e+00	0	43	0	565182464	19	3806
2026-01-14 08:13:38.17	32.63	19.22	-28.9	-29.1	15.5	0.00e+00	0	43	0	570425344	19	3660
2026-01-14 08:13:41.18	31.90	19.17	-29.3	-30.0	15.0	0.00e+00	0	43	0	576716800	19	3903
2026-01-14 08:13:44.19	31.18	19.11	-29.5	-30.4	14.7	7.00e-07	0	43	0	581959680	19	4004
2026-01-14 08:13:47.20	30.46	19.04	-29.6	-30.7	14.5	2.20e-06	0	43	0	588251136	19	4087
2026-01-14 08:13:50.20	29.75	18.98	-29.7	-30.4	14.3	2.20e-06	0	43	0	593494016	20	3931
2026-01-14 08:13:53.22	29.03	18.90	-29.7	-30.5	14.3	0.00e+00	0	43	0	598736896	20	3948
2026-01-14 08:13:56.21	28.33	18.83	-30.2	-31.8	13.4	7.60e-06	0	43	0	605028352	20	4351
2026-01-14 08:13:59.21	27.63	18.75	-30.5	-32.3	12.8	4.88e-05	0	43	0	610271232	21	4416
2026-01-14 08:14:02.22	26.93	18.66	-30.3	-31.6	13.2	3.50e-05	0	43	0	615514112	21	4193
2026-01-14 08:14:05.23	26.23	18.57	-30.6	-32.5	12.6	1.11e-04	0	43	0	621805568	21	4474
2026-01-14 08:14:08.23	25.54	18.48	-30.6	-32.4	12.6	8.23e-05	0	43	0	627048448	21	4467
2026-01-14 08:14:11.24	24.85	18.38	-30.6	-32.5	12.6	7.09e-05	0	43	0	633339904	21	4479
2026-01-14 08:14:14.25	24.16	18.28	-30.7	-32.8	12.4	1.70e-04	0	43	0	638582784	21	4600
2026-01-14 08:14:17.26	23.48	18.18	-30.6	-32.4	12.6	9.76e-05	0	43	0	643825664	21	4466
2026-01-14 08:14:20.26	22.81	18.07	-30.0	-30.9	13.6	7.60e-06	0	43	0	650117120	21	3998
2026-01-14 08:14:23.27	22.14	17.96	-30.1	-31.1	13.5	6.80e-06	0	43	0	655360000	21	4032
2026-01-14 08:14:26.27	21.48	17.84	-30.2	-31.4	13.3	1.37e-05	0	43	0	660602880	21	4142
2026-01-14 08:14:29.27	20.82	17.73	-29.8	-30.7	14.0	9.10e-06	0	43	0	666894336	20	4027
2026-01-14 08:14:32.29	20.17	17.60	-29.5	-30.1	14.4	0.00e+00	0	43	0	672137216	20	3852
2026-01-14 08:14:35.30	19.52	17.48	-29.4	-29.8	14.6	7.00e-07	0	43	0	678428672	20	3767
2026-01-14 08:14:38.32	18.87	17.35	-29.7	-30.6	14.1	1.50e-06	0	43	0	683671552	20	3988
2026-01-14 08:14:41.33	18.24	17.22	-30.7	-33.0	12.2	1.06e-04	0	43	0	688914432	21	4681
2026-01-14 08:14:44.34	17.60	17.08	-30.7	-33.0	12.2	2.39e-04	0	43	0	695205888	21	4654
2026-01-14 08:14:47.35	16.98	16.95	-30.6	-32.6	12.4	1.56e-04	0	43	0	700448768	21	4552
2026-01-14 08:14:50.36	16.36	16.81	-30.9	-33.5	11.7	2.75e-04	0	43	0	706740224	21	4874
2026-01-14 08:14:53.37	15.74	16.66	-31.0	-33.4	11.6	1.22e-03	0	43	0	711983104	22	4735
2026-01-14 08:14:56.38	15.13	16.52	-30.4	-31.6	12.7	9.00e-05	0	43	0	717225984	22	4130
2026-01-14 08:14:59.38	14.53	16.37	-30.1	-31.2	13.3	2.05e-05	0	43	0	723517440	21	4097
2026-01-14 08:15:02.39	13.94	16.22	-30.3	-31.9	12.9	4.95e-05	0	43	0	728760320	21	4292
2026-01-14 08:15:05.39	13.35	16.07	-30.6	-32.7	12.3	1.15e-04	0	43	0	734003200	21	4553
2026-01-14 08:15:08.39	12.77	15.92	-30.9	-33.5	11.7	3.64e-04	0	43	0	740294656	21	4878
2026-01-14 08:15:11.41	12.19	15.76	-30.6	-32.2	12.3	2.69e-04	0	43	0	745537536	22	4307
2026-01-14 08:15:14.41	11.62	15.61	-29.8	-31.0	13.6	8.30e-06	0	43	0	750780416	20	4127
2026-01-14 08:15:17.41	11.05	15.45	-30.1	-31.7	13.2	2.28e-05	0	43	0	757071872	20	4353
2026-01-14 08:15:20.43	10.49	15.29	-30.8	-33.3	11.7	5.07e-04	0	43	0	762314752	21	4806
2026-01-14 08:15:23.44	9.94	15.12	-31.3	-34.3	10.7	2.87e-03	0	43	0	768606208	22	5129
2026-01-14 08:15:26.44	9.39	14.96	-31.2	-33.9	11.0	1.78e-03	0	43	0	773849088	22	4954
2026-01-14 08:15:29.45	8.85	14.79	-30.9	-33.0	11.6	7.30e-04	0	43	0	779091968	22	4607
2026-01-14 08:15:32.47	8.31	14.63	-31.0	-33.4	11.3	9.65e-04	0	43	0	785383424	22	4760
2026-01-14 08:15:35.48	7.78	14.46	-30.6	-32.2	12.1	2.78e-04	0	43	0	790626304	22	4325
2026-01-14 08:15:38.49	7.26	14.29	-30.6	-32.1	12.3	1.45e-04	0	43	0	796917760	22	4299
2026-01-14 08:15:41.49	6.75	14.12	-30.9	-33.2	11.5	7.81e-04	0	43	0	802160640	22	4672
2026-01-14 08:15:44.50	6.23	13.94	-30.8	-32.9	11.7	9.56e-04	0	43	0	807403520	22	4571
2026-01-14 08:15:47.50	5.73	13.77	-30.4	-31.7	12.5	1.21e-04	0	43	0	813694976	22	4177
2026-01-14 08:15:50.50	5.23	13.60	-30.6	-32.1	12.2	1.79e-04	0	43	0	818937856	22	4309
2026-01-14 08:15:53.51	4.74	13.42	-30.8	-32.8	11.7	6.35e-04	0	43	0	824180736	22	4537
2026-01-14 08:15:56.52	4.25	13.25	-30.8	-32.8	11.7	7.01e-04	0	43	0	830472192	22	4540
2026-01-14 08:15:59.53	3.77	13.07	-30.7	-32.5	12.0	3.25e-04	0	43	0	835715072	22	4423
2026-01-14 08:16:02.54	3.30	12.89	-30.6	-32.1	12.1	1.94e-04	0	43	0	842006528	22	4317
2026-01-14 08:16:05.54	2.83	12.72	-30.3	-31.8	12.6	1.12e-04	0	43	0	847249408	21	4307
2026-01-14 08:16:08.54	2.37	12.54	-29.9	-30.8	13.4	1.75e-05	0	43	0	852492288	21	3984
2026-01-14 08:16:11.56	1.91	12.36	-29.9	-30.7	13.4	1.75e-05	0	43	0	858783744	21	3950
2026-01-14 08:16:14.57	1.46	12.18	-29.9	-31.2	13.4	1.29e-05	0	43	0	864026624	20	4184
2026-01-14 08:16:17.57	1.01	12.00	-30.3	-32.5	12.5	1.02e-04	0	43	0	869269504	20	4611
2026-01-14 08:16:20.59	0.57	11.82	-30.4	-32.6	12.4	7.93e-05	0	43	0	875560960	20	4647
2026-01-14 08:16:23.61	0.13	11.64	-30.1	-31.8	12.9	5.34e-05	0	43	0	880803840	20	4393
2026-01-14 08:16:26.62	359.70	11.46	-30.1	-31.7	13.0	2.36e-05	0	43	0	887095296	20	4341
2026-01-14 08:16:29.63	359.28	11.28	-29.8	-31.0	13.4	5.30e-06	0	43	0	892338176	20	4139
2026-01-14 08:16:32.63	358.86	11.09	-29.6	-30.6	13.7	4.50e-06	0	43	0	897581056	20	4014
2026-01-14 08:16:35.64	358.45	10.91	-29.9	-31.4	13.2	1.90e-05	0	43	0	903872512	20	4269
2026-01-14 08:16:38.65	358.04	10.73	-30.2	-32.1	12.7	7.24e-05	0	43	0	909115392	20	4483
2026-01-14 08:16:41.65	357.63	10.55	-30.3	-32.6	12.3	1.59e-04	0	43	0	914358272	20	4658
2026-01-14 08:16:44.66	357.24	10.37	-30.4	-32.3	12.2	2.45e-04	0	43	0	920649728	21	4476
2026-01-14 08:16:47.67	356.84	10.19	-30.1	-31.5	12.7	9.30e-05	0	43	0	925892608	21	4217
2026-01-14 08:16:50.68	356.45	10.01	-30.2	-31.7	12.5	5.95e-05	0	43	0	932184064	21	4288
2026-01-14 08:16:53.69	356.07	9.82	-29.8	-31.1	13.3	1.52e-05	0	43	0	937426944	20	4184
2026-01-14 08:16:56.70	355.69	9.64	-30.2	-32.2	12.5	4.80e-05	0	43	0	942669824	20	4544
2026-01-14 08:16:59.72	355.32	9.46	-31.0	-34.1	10.8	1.56e-03	0	43	0	948961280	21	5147
2026-01-14 08:17:02.72	354.95	9.28	-31.1	-33.8	10.7	4.74e-03	0	43	0	954204160	22	4933
2026-01-14 08:17:05.73	354.58	9.10	-30.4	-31.6	12.3	2.30e-04	0	43	0	960495616	22	4165
2026-01-14 08:17:08.73	354.23	8.92	-30.2	-31.7	12.5	1.20e-04	0	43	0	965738496	21	4276
2026-01-14 08:17:11.76	353.87	8.74	-30.2	-31.8	12.4	1.08e-04	0	43	0	970981376	21	4323
2026-01-14 08:17:14.77	353.52	8.56	-30.3	-32.0	12.2	2.32e-04	0	43	0	977272832	21	4397
2026-01-14 08:17:17.78	353.17	8.38	-30.4	-32.5	11.9	2.16e-04	0	43	0	982515712	21	4548
2026-01-14 08:17:20.79	352.83	8.20	-30.6	-33.1	11.4	1.03e-03	0	43	0	987758592	21	4773
2026-01-14 08:17:23.80	352.49	8.02	-30.7	-33.2	11.3	1.42e-03	0	43	0	994050048	21	4830
2026-01-14 08:17:26.81	352.16	7.84	-30.8	-33.6	11.0	1.79e-03	0	43	0	999292928	21	4971
2026-01-14 08:17:29.80	351.83	7.66	-30.7	-33.4	11.1	1.63e-03	0	43	0	1005584384	21	4922
2026-01-14 08:17:32.82	351.50	7.48	-30.6	-33.2	11.2	1.27e-03	0	43	0	1010827264	21	4817
2026-01-14 08:17:35.83	351.18	7.30	-30.9	-33.5	10.7	3.89e-03	0	43	0	1016070144	22	4857
2026-01-14 08:17:38.83	350.87	7.13	-31.2	-34.5	9.9	5.72e-03	0	43	0	1022361600	22	5281

#Closed at: 2026-01-14 08:17:41
#Recorded file [1023 MB]: D:/data/31010_260114_110833.dat