passes_logs/2026/01/14/R2M6_AANII_01/R2M6_AANII_01__20260114_005308_FENGYUN_3D_rec.log

#Pass ID: 20260114_005308_FENGYUN 3D
#Satellite: FENGYUN 3D
#Configuration: FENGYUN 3D
#almurnet v.1.7.20240730
#Start time: 2026-01-14 00:53:07

#Version: 2.2.20231116
#Station: R2M6_AANII_01
#Location: 30.233357 lon 59.946436 lat
#TLE: 1 43010U 17072A   26013.31211337  .00000452  00000+0  23563-3 0  9990
#TLE: 2 43010  98.9934 345.1024 0002270 111.0315 249.1103 14.19696845423017

#Time	Az	El	Level	Level2	SNR	BER	BlckErr	Temp	State	Recorded	gain1	gain2
2026-01-14 00:53:07.75	29.69	6.96	-27.9	-30.2	5.8	7.60e-01	0	40	0	0	15	4720
2026-01-14 00:53:10.76	29.96	7.15	-29.9	-32.9	10.0	9.51e-03	0	40	0	5242880	20	5052
2026-01-14 00:53:13.77	30.24	7.34	-29.7	-32.7	10.4	3.63e-03	0	41	0	22020096	19	5089
2026-01-14 00:53:16.78	30.51	7.54	-29.5	-32.2	10.9	2.73e-03	0	41	0	38797312	19	4895
2026-01-14 00:53:19.79	30.80	7.73	-29.4	-32.5	11.1	2.07e-03	0	41	0	55574528	18	5103
2026-01-14 00:53:22.79	31.08	7.93	-29.7	-32.5	10.7	3.95e-03	0	41	0	73400320	19	5016
2026-01-14 00:53:25.79	31.37	8.12	-28.5	-30.6	12.6	8.42e-04	0	41	0	90177536	17	4596
2026-01-14 00:53:28.79	31.67	8.32	-28.1	-30.2	13.2	8.41e-04	0	41	0	106954752	16	4568
2026-01-14 00:53:31.80	31.96	8.52	-27.8	-30.1	13.4	3.86e-04	0	41	0	123731968	15	4669
2026-01-14 00:53:34.82	32.27	8.72	-27.7	-29.8	13.6	3.28e-04	0	41	0	140509184	15	4561
2026-01-14 00:53:37.83	32.57	8.92	-27.6	-29.6	13.7	7.55e-04	0	41	0	157286400	15	4500
2026-01-14 00:53:40.83	32.88	9.12	-27.2	-29.1	14.3	4.76e-04	0	41	0	174063616	14	4477
2026-01-14 00:53:43.84	33.20	9.32	-27.2	-29.1	14.3	3.38e-04	0	41	0	190840832	14	4470
2026-01-14 00:53:46.85	33.51	9.52	-27.1	-28.9	14.5	0.00e+00	0	41	0	208666624	14	4421
2026-01-14 00:53:49.86	33.84	9.73	-27.0	-28.7	14.6	2.83e-04	0	41	0	225443840	14	4355
2026-01-14 00:53:52.87	34.16	9.93	-26.8	-28.6	14.9	0.00e+00	0	42	0	242221056	13	4453
2026-01-14 00:53:55.88	34.49	10.14	-26.6	-28.3	15.2	9.84e-05	0	41	0	258998272	13	4345
2026-01-14 00:53:58.87	34.83	10.34	-26.6	-28.2	15.2	1.21e-04	0	42	0	275775488	13	4328
2026-01-14 00:54:01.89	35.17	10.55	-26.6	-28.1	15.3	3.29e-04	0	42	0	292552704	13	4307
2026-01-14 00:54:04.91	35.52	10.76	-26.5	-28.0	15.4	0.00e+00	0	42	0	310378496	13	4261
2026-01-14 00:54:07.92	35.86	10.97	-26.5	-27.9	15.4	0.00e+00	0	42	0	327155712	13	4242
2026-01-14 00:54:10.93	36.22	11.18	-26.3	-27.6	15.6	0.00e+00	0	42	0	343932928	13	4158
2026-01-14 00:54:13.94	36.58	11.39	-26.3	-27.4	15.7	0.00e+00	0	42	0	360710144	13	4116
2026-01-14 00:54:16.95	36.94	11.61	-26.4	-27.6	15.6	0.00e+00	0	42	0	377487360	13	4172
2026-01-14 00:54:19.97	37.31	11.82	-26.4	-27.8	15.5	0.00e+00	0	42	0	394264576	13	4220
2026-01-14 00:54:22.98	37.69	12.03	-26.3	-27.6	15.7	0.00e+00	0	42	0	411041792	13	4149
2026-01-14 00:54:25.98	38.07	12.25	-26.4	-27.7	15.7	0.00e+00	0	42	0	428867584	13	4179
2026-01-14 00:54:28.98	38.45	12.46	-26.5	-28.1	15.4	0.00e+00	0	42	0	445644800	13	4290
2026-01-14 00:54:31.99	38.84	12.68	-26.3	-27.6	15.7	0.00e+00	0	42	0	462422016	13	4162
2026-01-14 00:54:34.99	39.24	12.89	-26.1	-27.2	16.0	0.00e+00	0	42	0	479199232	13	4045
2026-01-14 00:54:38.00	39.64	13.11	-26.3	-27.6	15.8	0.00e+00	0	42	0	495976448	13	4149
2026-01-14 00:54:41.00	40.05	13.33	-26.2	-27.3	15.9	0.00e+00	0	42	0	512753664	13	4072
2026-01-14 00:54:44.01	40.46	13.55	-26.1	-27.2	16.0	0.00e+00	0	42	0	529530880	13	4047
2026-01-14 00:54:47.02	40.88	13.77	-26.1	-27.0	16.1	0.00e+00	0	42	0	546308096	13	3995
2026-01-14 00:54:50.03	41.31	13.99	-25.6	-26.5	16.7	0.00e+00	0	42	0	564133888	12	3985
2026-01-14 00:54:53.03	41.74	14.21	-25.6	-26.4	16.7	0.00e+00	0	42	0	580911104	12	3960
2026-01-14 00:54:56.03	42.18	14.43	-25.5	-26.2	16.8	0.00e+00	0	42	0	597688320	12	3916
2026-01-14 00:54:59.05	42.62	14.65	-25.6	-26.4	16.7	0.00e+00	0	42	0	614465536	12	3954
2026-01-14 00:55:02.05	43.07	14.87	-25.6	-26.4	16.6	0.00e+00	0	42	0	631242752	12	3943
2026-01-14 00:55:05.07	43.53	15.10	-25.7	-27.3	16.7	0.00e+00	0	42	0	648019968	11	4284
2026-01-14 00:55:08.07	43.99	15.32	-25.7	-27.2	16.7	6.40e-04	0	42	0	664797184	11	4256
2026-01-14 00:55:11.08	44.47	15.54	-25.7	-27.1	16.7	0.00e+00	0	42	0	681574400	11	4254
2026-01-14 00:55:14.09	44.94	15.76	-25.6	-27.0	16.8	0.00e+00	0	43	0	699400192	11	4216
2026-01-14 00:55:17.10	45.43	15.99	-25.6	-26.9	16.9	1.19e-04	0	42	0	716177408	11	4192
2026-01-14 00:55:20.11	45.92	16.21	-25.5	-26.7	17.1	4.50e-06	0	42	0	732954624	11	4126
2026-01-14 00:55:23.11	46.42	16.44	-25.4	-26.5	17.1	6.80e-06	0	42	0	749731840	11	4080
2026-01-14 00:55:26.12	46.93	16.66	-25.2	-26.1	17.3	4.22e-04	0	43	0	766509056	11	3989
2026-01-14 00:55:29.13	47.44	16.88	-25.1	-26.3	17.5	5.01e-04	0	42	0	783286272	10	4153
2026-01-14 00:55:32.13	47.96	17.11	-25.2	-26.5	17.4	3.32e-04	0	43	0	800063488	10	4198
2026-01-14 00:55:35.14	48.49	17.33	-25.2	-26.5	17.4	0.00e+00	0	42	0	817889280	10	4203
2026-01-14 00:55:38.15	49.03	17.55	-25.2	-26.6	17.4	1.22e-04	0	42	0	834666496	10	4211
2026-01-14 00:55:41.17	49.57	17.78	-25.0	-26.2	17.7	7.09e-05	0	42	0	851443712	10	4126
2026-01-14 00:55:44.19	50.13	18.00	-24.5	-26.3	17.4	0.00e+00	0	42	0	868220928	9	4447
2026-01-14 00:55:47.20	50.69	18.22	-25.1	-26.4	17.6	0.00e+00	0	43	0	884998144	10	4164
2026-01-14 00:55:50.22	51.26	18.44	-24.9	-25.9	17.9	4.27e-04	0	43	0	902823936	10	4050
2026-01-14 00:55:53.22	51.83	18.66	-24.8	-25.7	18.0	0.00e+00	0	43	0	919601152	10	4004
2026-01-14 00:55:56.23	52.42	18.88	-24.9	-26.3	17.9	0.00e+00	0	42	0	936378368	9	4256
2026-01-14 00:55:59.23	53.01	19.10	-25.1	-26.3	17.7	0.00e+00	0	43	0	953155584	10	4134
2026-01-14 00:56:02.23	53.61	19.32	-25.0	-26.1	17.8	0.00e+00	0	43	0	969932800	10	4093
2026-01-14 00:56:05.25	54.22	19.53	-25.2	-26.4	17.7	0.00e+00	0	43	0	986710016	10	4166
2026-01-14 00:56:08.25	54.84	19.75	-24.9	-26.0	17.9	0.00e+00	0	43	0	1003487232	10	4067
2026-01-14 00:56:11.27	55.47	19.96	-25.0	-26.2	17.8	0.00e+00	0	43	0	1020264448	10	4103
2026-01-14 00:56:14.29	56.10	20.17	-24.9	-25.8	18.0	0.00e+00	0	42	0	1038090240	10	4019
2026-01-14 00:56:17.30	56.75	20.38	-24.9	-25.9	17.9	0.00e+00	0	43	0	1054867456	10	4038
2026-01-14 00:56:20.30	57.40	20.59	-24.7	-25.5	18.2	0.00e+00	0	42	0	1071644672	10	3930
2026-01-14 00:56:23.31	58.06	20.80	-24.6	-25.2	18.4	0.00e+00	0	43	0	1088421888	10	3857
2026-01-14 00:56:26.33	58.73	21.00	-24.8	-25.7	18.1	0.00e+00	0	43	0	1105199104	10	3983
2026-01-14 00:56:29.34	59.41	21.21	-24.9	-25.8	18.0	0.00e+00	0	43	0	1121976320	10	4020
2026-01-14 00:56:32.35	60.10	21.41	-24.7	-25.3	18.3	0.00e+00	0	43	0	1138753536	10	3900
2026-01-14 00:56:35.35	60.80	21.60	-25.0	-26.1	17.9	0.00e+00	0	43	0	1156579328	10	4094
2026-01-14 00:56:38.36	61.50	21.80	-24.6	-25.2	18.4	0.00e+00	0	43	0	1173356544	10	3871
2026-01-14 00:56:41.37	62.22	21.99	-24.3	-25.2	18.6	0.00e+00	0	43	0	1190133760	9	3981
2026-01-14 00:56:44.38	62.94	22.18	-24.2	-25.0	18.7	0.00e+00	0	43	0	1206910976	9	3924
2026-01-14 00:56:47.38	63.67	22.36	-24.2	-24.9	18.8	0.00e+00	0	43	0	1223688192	9	3897
2026-01-14 00:56:50.39	64.41	22.54	-24.2	-25.0	18.7	0.00e+00	0	43	0	1240465408	9	3935
2026-01-14 00:56:53.41	65.16	22.72	-24.4	-25.3	18.6	0.00e+00	0	43	0	1258291200	9	3996
2026-01-14 00:56:56.42	65.91	22.89	-24.2	-25.0	18.7	0.00e+00	0	43	0	1275068416	9	3933
2026-01-14 00:56:59.42	66.68	23.06	-24.2	-24.9	18.8	0.00e+00	0	43	0	1291845632	9	3894
2026-01-14 00:57:02.43	67.45	23.23	-24.1	-24.7	18.9	0.00e+00	0	43	0	1308622848	9	3864
2026-01-14 00:57:05.43	68.23	23.39	-24.1	-24.7	18.9	0.00e+00	0	43	0	1325400064	9	3855
2026-01-14 00:57:08.44	69.02	23.55	-24.3	-25.0	18.7	0.00e+00	0	43	0	1342177280	9	3940
2026-01-14 00:57:11.45	69.81	23.70	-24.0	-24.5	19.0	0.00e+00	0	43	0	1358954496	9	3810
2026-01-14 00:57:14.47	70.62	23.85	-23.9	-24.8	19.1	0.00e+00	0	43	0	1375731712	8	3981
2026-01-14 00:57:17.49	71.43	23.99	-24.0	-25.1	18.7	0.00e+00	0	43	0	1393557504	8	4085
2026-01-14 00:57:20.49	72.25	24.13	-23.9	-24.7	18.9	0.00e+00	0	43	0	1410334720	8	3987
2026-01-14 00:57:23.50	73.08	24.26	-24.0	-25.1	18.8	0.00e+00	0	43	0	1427111936	8	4080
2026-01-14 00:57:26.50	73.91	24.39	-23.5	-24.0	19.3	0.00e+00	0	43	0	1443889152	8	3804
2026-01-14 00:57:29.51	74.75	24.51	-23.7	-24.4	19.1	0.00e+00	0	43	0	1460666368	8	3911
2026-01-14 00:57:32.52	75.59	24.63	-23.6	-24.2	19.2	0.00e+00	0	43	0	1477443584	8	3865
2026-01-14 00:57:35.53	76.44	24.73	-23.6	-24.2	19.3	0.00e+00	0	43	0	1494220800	8	3857
2026-01-14 00:57:38.53	77.30	24.84	-23.4	-23.9	19.4	1.10e-06	0	43	0	1510998016	8	3778
2026-01-14 00:57:41.53	78.16	24.93	-23.3	-24.1	19.4	0.00e+00	0	43	0	1528823808	7	3954
2026-01-14 00:57:44.55	79.03	25.02	-23.4	-24.3	19.4	0.00e+00	0	43	0	1545601024	7	3997
2026-01-14 00:57:47.55	79.90	25.11	-23.3	-24.1	19.5	2.20e-06	0	43	0	1562378240	7	3946
2026-01-14 00:57:50.57	80.78	25.19	-23.6	-24.7	19.2	0.00e+00	0	43	0	1579155456	7	4087
2026-01-14 00:57:53.57	81.65	25.26	-23.6	-24.8	19.2	0.00e+00	0	43	0	1595932672	7	4111
2026-01-14 00:57:56.58	82.54	25.32	-23.6	-24.8	19.2	0.00e+00	0	43	0	1612709888	7	4103
2026-01-14 00:57:59.59	83.43	25.38	-23.7	-24.9	19.1	0.00e+00	0	43	0	1629487104	7	4138
2026-01-14 00:58:02.60	84.32	25.43	-23.6	-24.6	19.2	0.00e+00	0	43	0	1646264320	7	4079
2026-01-14 00:58:05.61	85.21	25.47	-23.4	-24.3	19.4	0.00e+00	0	43	0	1664090112	7	3986
2026-01-14 00:58:08.61	86.11	25.50	-23.6	-24.8	19.2	0.00e+00	0	43	0	1680867328	7	4108
2026-01-14 00:58:11.61	87.00	25.53	-23.5	-24.6	19.3	0.00e+00	0	43	0	1697644544	7	4058
2026-01-14 00:58:14.63	87.90	25.55	-23.5	-24.6	19.3	0.00e+00	0	43	0	1714421760	7	4066
2026-01-14 00:58:17.64	88.80	25.57	-23.4	-24.3	19.4	0.00e+00	0	43	0	1731198976	7	4002
2026-01-14 00:58:20.66	89.71	25.57	-23.4	-24.4	19.4	0.00e+00	0	43	0	1749024768	7	4011
2026-01-14 00:58:23.68	90.61	25.57	-23.5	-24.5	19.3	0.00e+00	0	43	0	1765801984	7	4031
2026-01-14 00:58:26.68	91.51	25.56	-23.3	-24.1	19.5	0.00e+00	0	43	0	1782579200	7	3950
2026-01-14 00:58:29.69	92.41	25.55	-23.3	-24.0	19.3	0.00e+00	0	43	0	1799356416	7	3920
2026-01-14 00:58:32.69	93.31	25.52	-23.4	-24.2	19.4	0.00e+00	0	43	0	1816133632	7	3966
2026-01-14 00:58:35.69	94.20	25.49	-23.6	-24.7	19.2	0.00e+00	0	43	0	1832910848	7	4079
2026-01-14 00:58:38.70	95.10	25.45	-23.6	-24.7	19.2	0.00e+00	0	43	0	1849688064	7	4093
2026-01-14 00:58:41.71	95.99	25.41	-23.7	-25.0	19.0	0.00e+00	0	43	0	1867513856	7	4172
2026-01-14 00:58:44.73	96.89	25.36	-23.3	-24.1	19.5	0.00e+00	0	43	0	1884291072	7	3938
2026-01-14 00:58:47.74	97.77	25.30	-23.3	-24.1	19.5	0.00e+00	0	43	0	1901068288	7	3938
2026-01-14 00:58:50.74	98.66	25.23	-23.3	-24.1	19.5	6.80e-06	0	43	0	1917845504	7	3944
2026-01-14 00:58:53.75	99.54	25.16	-23.5	-24.5	19.3	0.00e+00	0	43	0	1934622720	7	4035
2026-01-14 00:58:56.76	100.41	25.08	-23.8	-25.2	18.9	7.09e-05	0	43	0	1951399936	7	4208
2026-01-14 00:58:59.77	101.29	24.99	-23.9	-25.3	18.9	2.63e-05	0	43	0	1968177152	7	4251
2026-01-14 00:59:02.79	102.16	24.90	-23.6	-24.8	19.1	0.00e+00	0	43	0	1984954368	7	4111
2026-01-14 00:59:05.79	103.02	24.80	-23.7	-24.9	19.1	9.38e-05	0	43	0	2002780160	7	4140
2026-01-14 00:59:08.81	103.88	24.69	-23.7	-25.0	19.0	1.67e-04	0	43	0	2019557376	7	4157
2026-01-14 00:59:11.81	104.72	24.58	-23.6	-24.8	19.1	0.00e+00	0	43	0	2036334592	7	4125
2026-01-14 00:59:14.81	105.57	24.46	-23.6	-24.7	19.2	0.00e+00	0	43	0	2053111808	7	4086
2026-01-14 00:59:17.82	106.41	24.34	-23.5	-24.6	19.2	2.04e-04	0	43	0	2069889024	7	4061
2026-01-14 00:59:20.84	107.24	24.21	-23.7	-24.9	19.1	0.00e+00	0	43	0	2086666240	7	4141
2026-01-14 00:59:23.86	108.07	24.07	-23.9	-25.3	18.8	0.00e+00	0	43	0	2104492032	7	4256
2026-01-14 00:59:26.86	108.88	23.93	-24.4	-26.0	18.3	0.00e+00	0	43	0	2121269248	8	4298
2026-01-14 00:59:29.87	109.70	23.79	-24.5	-25.6	18.2	0.00e+00	0	43	0	2138046464	9	4097
2026-01-14 00:59:32.87	110.50	23.64	-24.9	-26.5	17.8	0.00e+00	0	43	0	2154823680	9	4326
2026-01-14 00:59:35.87	111.29	23.48	-23.9	-24.5	18.8	0.00e+00	0	43	0	2171600896	9	3821
2026-01-14 00:59:38.87	112.08	23.32	-24.0	-24.5	18.7	0.00e+00	0	43	0	2188378112	9	3835
2026-01-14 00:59:41.87	112.86	23.16	-23.9	-24.4	18.8	0.00e+00	0	43	0	2205155328	9	3799
2026-01-14 00:59:44.88	113.63	22.99	-24.1	-24.8	18.6	0.00e+00	0	43	0	2221932544	9	3911
2026-01-14 00:59:47.89	114.39	22.82	-24.4	-25.4	18.2	0.00e+00	0	43	0	2238709760	9	4048
2026-01-14 00:59:50.89	115.15	22.64	-24.3	-25.2	18.4	0.00e+00	0	43	0	2255486976	9	4009
2026-01-14 00:59:53.89	115.89	22.46	-24.2	-25.1	18.4	0.00e+00	0	43	0	2273312768	9	3955
2026-01-14 00:59:56.90	116.63	22.28	-24.5	-25.7	18.1	0.00e+00	0	43	0	2290089984	9	4117
2026-01-14 00:59:59.91	117.36	22.09	-24.9	-26.5	17.6	0.00e+00	0	43	0	2306867200	9	4326
2026-01-14 01:00:02.92	118.08	21.90	-24.7	-26.2	17.8	0.00e+00	0	43	0	2323644416	9	4249
2026-01-14 01:00:05.92	118.79	21.71	-24.7	-26.0	17.9	0.00e+00	0	43	0	2340421632	9	4201
2026-01-14 01:00:08.93	119.50	21.51	-24.5	-25.6	18.1	0.00e+00	0	43	0	2357198848	9	4107
2026-01-14 01:00:11.95	120.20	21.31	-24.6	-25.8	18.0	0.00e+00	0	43	0	2373976064	9	4142
2026-01-14 01:00:14.95	120.88	21.11	-24.4	-25.3	18.2	0.00e+00	0	43	0	2390753280	9	4025
2026-01-14 01:00:17.96	121.56	20.91	-24.3	-25.1	18.4	0.00e+00	0	43	0	2408579072	9	3975
2026-01-14 01:00:20.96	122.23	20.70	-24.6	-25.9	17.9	0.00e+00	0	43	0	2425356288	9	4180
2026-01-14 01:00:23.97	122.89	20.49	-24.8	-26.2	17.8	0.00e+00	0	43	0	2442133504	9	4243
2026-01-14 01:00:26.97	123.54	20.28	-24.8	-26.3	17.7	2.17e-05	0	43	0	2458910720	9	4268
2026-01-14 01:00:29.98	124.18	20.07	-24.9	-26.6	17.5	0.00e+00	0	43	0	2475687936	9	4345
2026-01-14 01:00:32.99	124.82	19.85	-25.2	-26.7	17.2	0.00e+00	0	43	0	2492465152	10	4265
2026-01-14 01:00:36.00	125.45	19.64	-25.1	-26.4	17.4	0.00e+00	0	43	0	2509242368	10	4186
2026-01-14 01:00:39.00	126.06	19.42	-25.0	-26.2	17.5	0.00e+00	0	43	0	2526019584	10	4137
2026-01-14 01:00:42.01	126.67	19.20	-24.7	-25.6	17.8	0.00e+00	0	43	0	2543845376	10	3980
2026-01-14 01:00:45.03	127.27	18.98	-25.2	-26.6	17.3	1.83e-05	0	43	0	2560622592	10	4228
2026-01-14 01:00:48.04	127.87	18.76	-25.3	-26.9	17.0	2.43e-04	0	43	0	2577399808	10	4335
2026-01-14 01:00:51.04	128.45	18.54	-25.2	-26.2	17.2	1.04e-04	0	43	0	2594177024	11	4020
2026-01-14 01:00:54.05	129.03	18.32	-25.3	-26.4	17.0	5.49e-05	0	43	0	2610954240	11	4067
2026-01-14 01:00:57.05	129.59	18.10	-25.7	-27.2	16.6	2.80e-04	0	43	0	2627731456	11	4298
2026-01-14 01:01:00.06	130.15	17.87	-25.5	-26.8	16.8	8.58e-05	0	43	0	2645557248	11	4173
2026-01-14 01:01:03.07	130.70	17.65	-25.4	-26.7	16.9	0.00e+00	0	43	0	2662334464	11	4150
2026-01-14 01:01:06.08	131.25	17.42	-25.5	-26.9	16.7	0.00e+00	0	43	0	2679111680	11	4203
2026-01-14 01:01:09.09	131.78	17.20	-25.6	-27.0	16.6	5.38e-04	0	43	0	2695888896	11	4243
2026-01-14 01:01:12.10	132.31	16.97	-25.7	-27.2	16.5	3.36e-04	0	43	0	2712666112	11	4282
2026-01-14 01:01:15.10	132.83	16.75	-25.7	-27.3	16.5	0.00e+00	0	43	0	2729443328	11	4311
2026-01-14 01:01:18.12	133.34	16.52	-25.8	-27.4	16.4	0.00e+00	0	43	0	2746220544	11	4335
2026-01-14 01:01:21.13	133.85	16.30	-26.0	-27.8	16.1	2.92e-04	0	43	0	2764046336	11	4451
2026-01-14 01:01:24.13	134.35	16.07	-26.2	-27.8	15.8	0.00e+00	0	43	0	2780823552	12	4339
2026-01-14 01:01:27.13	134.84	15.84	-25.9	-27.2	16.1	0.00e+00	0	43	0	2797600768	12	4196
2026-01-14 01:01:30.14	135.32	15.62	-25.8	-26.9	16.2	0.00e+00	0	43	0	2814377984	12	4103
2026-01-14 01:01:33.15	135.80	15.39	-25.8	-27.1	16.1	0.00e+00	0	43	0	2831155200	12	4149
2026-01-14 01:01:36.16	136.27	15.17	-26.0	-27.4	15.9	1.10e-06	0	43	0	2847932416	12	4239
2026-01-14 01:01:39.16	136.73	14.94	-25.9	-27.3	16.0	0.00e+00	0	43	0	2864709632	12	4223
2026-01-14 01:01:42.17	137.19	14.72	-26.1	-27.8	15.7	0.00e+00	0	43	0	2882535424	12	4355
2026-01-14 01:01:45.18	137.64	14.50	-26.1	-27.8	15.6	0.00e+00	0	43	0	2899312640	12	4348
2026-01-14 01:01:48.19	138.08	14.27	-26.2	-27.9	15.6	0.00e+00	0	43	0	2916089856	12	4395
2026-01-14 01:01:51.20	138.52	14.05	-26.3	-28.1	15.4	0.00e+00	0	43	0	2932867072	12	4441
2026-01-14 01:01:54.22	138.95	13.83	-26.5	-28.1	15.2	0.00e+00	0	43	0	2949644288	13	4317
2026-01-14 01:01:57.23	139.37	13.60	-26.5	-28.0	15.2	0.00e+00	0	43	0	2966421504	13	4288
2026-01-14 01:02:00.23	139.79	13.38	-26.4	-28.3	15.3	0.00e+00	0	43	0	2983198720	12	4506
2026-01-14 01:02:03.23	140.20	13.16	-26.7	-28.7	14.8	0.00e+00	0	43	0	2999975936	13	4490
2026-01-14 01:02:06.24	140.61	12.94	-26.4	-28.4	15.2	0.00e+00	0	43	0	3017801728	12	4529
2026-01-14 01:02:09.24	141.01	12.73	-26.3	-28.2	15.2	0.00e+00	0	43	0	3034578944	12	4486
2026-01-14 01:02:12.25	141.40	12.51	-26.2	-28.0	15.3	0.00e+00	0	43	0	3051356160	12	4421
2026-01-14 01:02:15.26	141.79	12.29	-26.4	-28.4	15.1	1.10e-06	0	43	0	3068133376	12	4542
2026-01-14 01:02:18.27	142.18	12.07	-26.4	-28.4	15.1	0.00e+00	0	43	0	3084910592	12	4525
2026-01-14 01:02:21.28	142.55	11.86	-26.7	-28.5	14.7	0.00e+00	0	43	0	3101687808	13	4434
2026-01-14 01:02:24.29	142.93	11.64	-26.8	-28.9	14.4	0.00e+00	0	43	0	3118465024	13	4557
2026-01-14 01:02:27.29	143.29	11.43	-26.7	-28.5	14.6	0.00e+00	0	43	0	3135242240	13	4450
2026-01-14 01:02:30.28	143.65	11.21	-26.7	-28.6	14.5	0.00e+00	0	43	0	3153068032	13	4483
2026-01-14 01:02:33.29	144.01	11.00	-26.9	-28.9	14.4	1.10e-06	0	43	0	3169845248	13	4575
2026-01-14 01:02:36.30	144.36	10.79	-26.9	-29.0	14.3	0.00e+00	0	43	0	3186622464	13	4610
2026-01-14 01:02:39.30	144.71	10.58	-27.1	-29.0	14.0	2.20e-06	0	43	0	3203399680	14	4492
2026-01-14 01:02:42.30	145.05	10.37	-27.2	-29.2	14.0	2.20e-06	0	43	0	3220176896	14	4534
2026-01-14 01:02:45.31	145.39	10.16	-27.1	-28.9	14.1	4.50e-06	0	43	0	3236954112	14	4448
2026-01-14 01:02:48.32	145.73	9.95	-27.0	-28.8	14.2	8.00e-06	0	43	0	3253731328	14	4407
2026-01-14 01:02:51.33	146.05	9.74	-27.1	-29.0	14.0	6.63e-05	0	43	0	3270508544	14	4490
2026-01-14 01:02:54.33	146.38	9.54	-27.3	-29.4	13.8	1.23e-04	0	43	0	3288334336	14	4602
2026-01-14 01:02:57.35	146.70	9.33	-27.6	-29.7	13.3	1.45e-04	0	43	0	3305111552	15	4584
2026-01-14 01:03:00.35	147.01	9.13	-27.6	-29.7	13.3	1.57e-04	0	43	0	3321888768	15	4577
2026-01-14 01:03:03.36	147.33	8.92	-27.4	-29.4	13.4	1.14e-05	0	43	0	3338665984	15	4502
2026-01-14 01:03:06.38	147.64	8.72	-27.4	-29.8	13.5	5.70e-06	0	43	0	3355443200	14	4732
2026-01-14 01:03:09.39	147.94	8.52	-27.6	-29.6	13.2	2.05e-05	0	43	0	3372220416	15	4578
2026-01-14 01:03:12.40	148.24	8.32	-27.5	-30.1	13.2	1.92e-04	0	43	0	3388997632	14	4873
2026-01-14 01:03:15.42	148.54	8.12	-27.5	-29.8	13.0	2.63e-05	0	43	0	3406823424	15	4705
2026-01-14 01:03:18.43	148.83	7.92	-27.4	-30.2	13.0	1.60e-05	0	43	0	3423600640	14	4968
2026-01-14 01:03:21.46	149.12	7.72	-27.5	-30.0	12.8	5.14e-05	0	43	0	3440377856	15	4802
2026-01-14 01:03:24.47	149.40	7.52	-27.5	-30.3	13.0	1.83e-05	0	43	0	3457155072	14	4968
2026-01-14 01:03:27.47	149.68	7.33	-27.7	-30.0	12.9	3.77e-05	0	43	0	3473932288	15	4725
2026-01-14 01:03:30.47	149.96	7.13	-27.6	-29.7	13.1	1.83e-05	0	43	0	3490709504	15	4589

#Closed at: 2026-01-14 01:03:33
#Recorded file [3495 MB]: D:/data/31010_260114_035309.dat