passes_logs/2026/01/14/R2M6_AANII_01/R2M6_AANII_01__20260114_141053_FENGYUN_3E_rec.log

#Pass ID: 20260114_141053_FENGYUN 3E
#Satellite: FENGYUN 3E
#Configuration: FENGYUN 3E
#almurnet v.1.7.20240730
#Start time: 2026-01-14 14:17:52

#Version: 2.2.20231116
#Station: R2M6_AANII_01
#Location: 30.233357 lon 59.946436 lat
#TLE: 1 49008U 21062A   26013.59634448 -.00000226  00000+0 -85925-4 0  9991
#TLE: 2 49008  98.7491  18.7414 0001953 139.1941 220.9382 14.19884160234649

#Time	Az	El	Level	Level2	SNR	BER	BlckErr	Temp	State	Recorded	gain1	gain2
2026-01-14 14:17:52.73	12.54	54.50	-34.1	-45.2	3.8	8.45e-01	0	42	0	0	28	12944
2026-01-14 14:17:54.74	11.66	53.91	-34.5	-43.4	3.8	8.47e-01	0	43	104	0	30	10008
2026-01-14 14:17:56.74	10.82	53.32	-34.5	-43.4	3.8	8.46e-01	0	43	104	0	30	9969
2026-01-14 14:17:58.75	10.02	52.72	-34.5	-43.3	3.8	8.46e-01	0	43	104	0	30	9994
2026-01-14 14:18:00.76	9.24	52.13	-34.5	-43.3	3.8	8.45e-01	0	43	104	0	30	9956
2026-01-14 14:18:02.76	8.51	51.54	-34.4	-43.3	3.8	8.46e-01	0	43	104	0	30	9973
2026-01-14 14:18:04.77	7.79	50.95	-34.4	-43.3	3.8	8.46e-01	0	43	104	0	30	9948
2026-01-14 14:18:06.76	7.11	50.37	-34.5	-43.4	3.8	8.45e-01	0	43	104	0	30	10029
2026-01-14 14:18:08.77	6.45	49.79	-34.5	-43.4	3.8	8.46e-01	0	43	104	0	30	10031
2026-01-14 14:18:10.78	5.82	49.21	-34.5	-43.4	3.8	8.46e-01	0	43	104	0	30	10040
2026-01-14 14:18:12.78	5.21	48.64	-34.5	-43.3	3.8	8.46e-01	0	43	104	0	30	9937
2026-01-14 14:18:14.78	4.62	48.07	-34.4	-42.6	3.8	8.47e-01	0	43	104	0	30	9286
2026-01-14 14:18:16.78	4.06	47.50	-34.4	-43.4	3.8	8.46e-01	0	43	104	0	29	10217
2026-01-14 14:18:18.79	3.51	46.94	-34.3	-43.3	3.8	8.46e-01	0	43	104	0	29	10101
2026-01-14 14:18:20.79	2.98	46.39	-34.3	-42.9	3.8	8.46e-01	0	43	104	0	29	9756
2026-01-14 14:18:22.81	2.47	45.83	-34.2	-42.7	3.8	8.45e-01	0	43	104	0	29	9555
2026-01-14 14:18:24.80	1.98	45.29	-34.2	-42.2	3.8	8.47e-01	0	43	104	0	29	9117
2026-01-14 14:18:26.82	1.51	44.74	-34.3	-43.0	3.8	8.45e-01	0	43	104	0	29	9880
2026-01-14 14:18:28.83	1.05	44.21	-34.3	-43.5	3.8	8.47e-01	0	43	104	0	29	10376
2026-01-14 14:18:30.83	0.61	43.68	-34.3	-43.2	3.8	8.46e-01	0	43	104	0	29	10092
2026-01-14 14:18:32.84	0.18	43.15	-34.2	-42.5	3.8	8.45e-01	0	43	104	0	29	9409
2026-01-14 14:18:34.85	359.76	42.63	-34.3	-43.4	3.8	8.45e-01	0	43	104	0	29	10296
2026-01-14 14:18:36.85	359.36	42.11	-34.2	-42.9	3.8	8.46e-01	0	43	104	0	29	9777
2026-01-14 14:18:38.85	358.98	41.61	-34.1	-42.2	3.8	8.45e-01	0	43	104	0	29	9094
2026-01-14 14:18:40.86	358.60	41.10	-33.8	-40.2	3.9	8.44e-01	0	43	104	0	28	7571
2026-01-14 14:18:42.87	358.24	40.60	-32.3	-35.5	6.9	2.69e-01	0	43	0	4194304	25	5187
2026-01-14 14:18:44.87	357.88	40.11	-31.3	-33.5	8.9	4.34e-02	0	43	0	18874368	23	4617
2026-01-14 14:18:46.88	357.54	39.62	-27.5	-27.7	14.5	1.71e-05	0	43	0	33554432	16	3685
2026-01-14 14:18:48.89	357.21	39.14	-27.6	-28.9	14.3	0.00e+00	0	43	0	48234496	14	4192
2026-01-14 14:18:50.89	356.89	38.67	-26.1	-26.1	16.0	0.00e+00	0	43	0	62914560	13	3617
2026-01-14 14:18:52.90	356.58	38.20	-25.0	-24.8	17.3	0.00e+00	0	43	0	77594624	11	3527
2026-01-14 14:18:54.91	356.27	37.73	-24.2	-24.2	18.1	0.00e+00	0	43	0	91226112	9	3592
2026-01-14 14:18:56.92	355.98	37.27	-23.8	-23.8	18.5	0.00e+00	0	43	0	105906176	8	3607
2026-01-14 14:18:58.92	355.69	36.82	-23.6	-23.3	18.8	0.00e+00	0	43	0	120586240	8	3499
2026-01-14 14:19:00.93	355.41	36.37	-23.5	-23.2	18.9	0.00e+00	0	43	0	135266304	8	3465
2026-01-14 14:19:02.93	355.14	35.93	-23.5	-23.6	18.9	0.00e+00	0	43	0	149946368	7	3664
2026-01-14 14:19:04.94	354.88	35.49	-23.6	-23.9	18.7	0.00e+00	0	43	0	164626432	7	3735
2026-01-14 14:19:06.94	354.62	35.06	-23.5	-23.8	18.7	0.00e+00	0	43	0	178257920	7	3708
2026-01-14 14:19:08.95	354.37	34.63	-23.6	-23.8	18.7	0.00e+00	0	43	0	192937984	7	3705
2026-01-14 14:19:10.96	354.13	34.21	-23.5	-23.8	18.8	0.00e+00	0	43	0	207618048	7	3698
2026-01-14 14:19:12.96	353.89	33.79	-23.4	-23.6	18.9	0.00e+00	0	43	0	222298112	7	3660
2026-01-14 14:19:14.96	353.66	33.38	-23.4	-23.5	18.9	0.00e+00	0	43	0	235929600	7	3645
2026-01-14 14:19:16.97	353.44	32.97	-23.4	-23.4	18.9	0.00e+00	0	43	0	250609664	7	3625
2026-01-14 14:19:18.97	353.22	32.57	-23.4	-23.4	18.9	0.00e+00	0	43	0	265289728	7	3622
2026-01-14 14:19:20.97	353.01	32.18	-23.4	-23.4	19.0	0.00e+00	0	43	0	279969792	7	3615
2026-01-14 14:19:22.98	352.80	31.78	-23.1	-23.0	19.1	0.00e+00	0	43	0	294649856	7	3519
2026-01-14 14:19:24.98	352.60	31.40	-23.2	-23.0	19.1	0.00e+00	0	43	0	309329920	7	3532
2026-01-14 14:19:26.99	352.40	31.01	-23.4	-23.5	18.9	0.00e+00	0	43	0	322961408	7	3625
2026-01-14 14:19:28.99	352.21	30.64	-23.4	-23.5	18.8	0.00e+00	0	44	0	337641472	7	3644
2026-01-14 14:19:31.01	352.02	30.26	-23.3	-23.4	18.9	0.00e+00	0	43	0	352321536	7	3610
2026-01-14 14:19:33.02	351.83	29.89	-23.3	-23.3	18.9	0.00e+00	0	43	0	367001600	7	3598
2026-01-14 14:19:35.02	351.65	29.53	-23.5	-23.7	18.8	0.00e+00	0	43	0	380633088	7	3677
2026-01-14 14:19:37.01	351.48	29.17	-23.5	-23.6	18.8	0.00e+00	0	43	0	395313152	7	3654
2026-01-14 14:19:39.01	351.31	28.81	-23.6	-23.9	18.6	0.00e+00	0	43	0	409993216	7	3729
2026-01-14 14:19:41.02	351.14	28.46	-23.7	-24.2	18.5	0.00e+00	0	43	0	424673280	7	3794
2026-01-14 14:19:43.02	350.98	28.11	-23.9	-24.5	18.3	0.00e+00	0	43	0	438304768	7	3862
2026-01-14 14:19:45.03	350.81	27.77	-24.0	-24.8	18.2	0.00e+00	0	44	0	452984832	7	3929
2026-01-14 14:19:47.03	350.66	27.43	-24.0	-24.8	18.1	0.00e+00	0	43	0	467664896	7	3943
2026-01-14 14:19:49.04	350.50	27.09	-24.4	-25.1	17.8	0.00e+00	0	44	0	482344960	8	3900
2026-01-14 14:19:51.04	350.36	26.76	-23.9	-24.1	18.3	0.00e+00	0	43	0	497025024	8	3661
2026-01-14 14:19:53.05	350.21	26.43	-23.9	-24.1	18.3	0.00e+00	0	43	0	511705088	8	3673
2026-01-14 14:19:55.06	350.06	26.11	-23.8	-23.9	18.3	0.00e+00	0	43	0	525336576	8	3628
2026-01-14 14:19:57.06	349.92	25.79	-23.8	-23.9	18.4	0.00e+00	0	44	0	540016640	8	3618
2026-01-14 14:19:59.07	349.79	25.47	-23.9	-24.1	18.2	0.00e+00	0	43	0	554696704	8	3662
2026-01-14 14:20:01.07	349.65	25.16	-24.1	-24.4	18.1	0.00e+00	0	43	0	569376768	8	3734
2026-01-14 14:20:03.08	349.52	24.85	-24.1	-24.4	18.1	0.00e+00	0	44	0	584056832	8	3738
2026-01-14 14:20:05.09	349.39	24.54	-24.1	-24.5	18.0	0.00e+00	0	43	0	598736896	8	3761
2026-01-14 14:20:07.11	349.26	24.24	-24.1	-24.5	17.8	0.00e+00	0	43	0	612368384	8	3766
2026-01-14 14:20:09.10	349.14	23.94	-24.2	-24.7	17.9	0.00e+00	0	43	0	627048448	8	3798
2026-01-14 14:20:11.10	349.02	23.64	-24.2	-24.6	17.9	0.00e+00	0	43	0	641728512	8	3782
2026-01-14 14:20:13.11	348.90	23.35	-24.1	-24.5	18.0	0.00e+00	0	43	0	656408576	8	3751
2026-01-14 14:20:15.11	348.78	23.06	-24.1	-24.4	18.0	0.00e+00	0	43	0	670040064	8	3746
2026-01-14 14:20:17.12	348.67	22.77	-24.0	-24.3	18.0	0.00e+00	0	43	0	684720128	8	3715
2026-01-14 14:20:19.13	348.56	22.49	-24.0	-24.2	18.1	0.00e+00	0	43	0	699400192	8	3702
2026-01-14 14:20:21.14	348.45	22.20	-24.0	-24.3	18.0	0.00e+00	0	43	0	714080256	8	3727
2026-01-14 14:20:23.14	348.34	21.93	-24.0	-24.2	18.1	0.00e+00	0	43	0	728760320	8	3703
2026-01-14 14:20:25.15	348.23	21.65	-24.1	-24.4	17.9	0.00e+00	0	43	0	743440384	8	3751
2026-01-14 14:20:27.15	348.13	21.38	-24.2	-24.7	17.8	0.00e+00	0	44	0	757071872	8	3799
2026-01-14 14:20:29.16	348.03	21.11	-24.3	-24.8	17.8	0.00e+00	0	43	0	771751936	8	3831
2026-01-14 14:20:31.17	347.92	20.84	-24.3	-24.9	17.7	0.00e+00	0	43	0	786432000	8	3849
2026-01-14 14:20:33.17	347.83	20.58	-24.3	-25.0	17.6	0.00e+00	0	43	0	801112064	8	3871
2026-01-14 14:20:35.19	347.73	20.31	-24.4	-25.2	17.5	0.00e+00	0	44	0	815792128	8	3919
2026-01-14 14:20:37.20	347.63	20.06	-24.4	-25.2	17.5	0.00e+00	0	43	0	830472192	8	3922
2026-01-14 14:20:39.20	347.54	19.80	-24.6	-25.1	17.3	0.00e+00	0	43	0	844103680	9	3795
2026-01-14 14:20:41.21	347.45	19.55	-24.6	-25.1	17.3	0.00e+00	0	43	0	858783744	9	3798
2026-01-14 14:20:43.22	347.36	19.29	-24.5	-24.8	17.4	0.00e+00	0	44	0	873463808	9	3730
2026-01-14 14:20:45.23	347.27	19.04	-24.7	-25.3	17.2	0.00e+00	0	43	0	888143872	9	3849
2026-01-14 14:20:47.23	347.19	18.80	-24.7	-25.3	17.2	0.00e+00	0	44	0	901775360	9	3833
2026-01-14 14:20:49.23	347.10	18.56	-24.7	-25.2	17.2	0.00e+00	0	44	0	916455424	9	3821
2026-01-14 14:20:51.22	347.02	18.32	-24.7	-25.2	17.2	0.00e+00	0	43	0	931135488	9	3810
2026-01-14 14:20:53.23	346.93	18.08	-24.7	-25.3	17.1	0.00e+00	0	43	0	945815552	9	3835
2026-01-14 14:20:55.24	346.85	17.84	-25.0	-25.8	16.9	0.00e+00	0	44	0	960495616	9	3955
2026-01-14 14:20:57.24	346.77	17.60	-24.9	-25.6	17.0	0.00e+00	0	43	0	975175680	9	3925
2026-01-14 14:20:59.25	346.70	17.37	-25.0	-25.9	16.8	0.00e+00	0	43	0	988807168	9	3988
2026-01-14 14:21:01.26	346.62	17.14	-25.1	-25.7	16.7	0.00e+00	0	43	0	1003487232	10	3833
2026-01-14 14:21:03.27	346.54	16.91	-25.2	-25.9	16.6	0.00e+00	0	43	0	1018167296	10	3877
2026-01-14 14:21:05.28	346.47	16.68	-25.3	-26.1	16.4	0.00e+00	0	44	0	1032847360	10	3930
2026-01-14 14:21:07.29	346.40	16.46	-25.4	-26.2	16.4	0.00e+00	0	43	0	1047527424	10	3966
2026-01-14 14:21:09.30	346.32	16.24	-25.5	-26.4	16.2	0.00e+00	0	43	0	1062207488	10	4004
2026-01-14 14:21:11.31	346.25	16.01	-25.9	-26.8	15.8	0.00e+00	0	43	0	1075838976	11	3986
2026-01-14 14:21:13.31	346.18	15.80	-25.7	-26.0	15.9	0.00e+00	0	43	0	1090519040	12	3697
2026-01-14 14:21:15.31	346.12	15.58	-25.6	-25.6	16.0	0.00e+00	0	43	0	1105199104	12	3617
2026-01-14 14:21:17.31	346.05	15.37	-25.6	-25.7	16.0	0.00e+00	0	43	0	1119879168	12	3645
2026-01-14 14:21:19.32	345.98	15.15	-25.5	-25.5	16.1	2.20e-06	0	43	0	1133510656	12	3594
2026-01-14 14:21:21.32	345.92	14.94	-25.5	-25.4	16.1	0.00e+00	0	44	0	1148190720	12	3569
2026-01-14 14:21:23.33	345.85	14.73	-25.7	-25.9	15.8	0.00e+00	0	43	0	1162870784	12	3679
2026-01-14 14:21:25.33	345.79	14.53	-25.7	-26.0	15.8	0.00e+00	0	43	0	1177550848	12	3705
2026-01-14 14:21:27.34	345.73	14.32	-25.9	-26.3	15.6	0.00e+00	0	43	0	1192230912	12	3782
2026-01-14 14:21:29.34	345.67	14.12	-25.7	-26.0	15.8	0.00e+00	0	44	0	1206910976	12	3698
2026-01-14 14:21:31.36	345.61	13.91	-25.7	-26.0	15.7	2.20e-06	0	43	0	1220542464	12	3711
2026-01-14 14:21:33.36	345.55	13.71	-25.8	-26.0	15.7	0.00e+00	0	44	0	1235222528	12	3714
2026-01-14 14:21:35.37	345.49	13.51	-25.6	-25.7	15.9	0.00e+00	0	44	0	1249902592	12	3647
2026-01-14 14:21:37.38	345.43	13.31	-25.7	-25.8	15.8	0.00e+00	0	43	0	1264582656	12	3664
2026-01-14 14:21:39.38	345.37	13.12	-25.7	-26.0	15.7	0.00e+00	0	44	0	1279262720	12	3707
2026-01-14 14:21:41.40	345.32	12.92	-25.8	-26.1	15.6	0.00e+00	0	43	0	1293942784	12	3725
2026-01-14 14:21:43.40	345.26	12.73	-25.9	-26.3	15.5	0.00e+00	0	43	0	1307574272	12	3779
2026-01-14 14:21:45.42	345.21	12.54	-25.9	-26.2	15.5	0.00e+00	0	43	0	1322254336	12	3765
2026-01-14 14:21:47.42	345.15	12.35	-26.0	-26.5	15.4	0.00e+00	0	44	0	1336934400	12	3826
2026-01-14 14:21:49.41	345.10	12.16	-26.0	-26.5	15.4	0.00e+00	0	44	0	1351614464	12	3839
2026-01-14 14:21:51.42	345.05	11.97	-26.0	-26.5	15.3	0.00e+00	0	43	0	1365245952	12	3831
2026-01-14 14:21:53.43	345.00	11.79	-26.1	-26.8	15.2	0.00e+00	0	43	0	1379926016	12	3892
2026-01-14 14:21:55.43	344.95	11.60	-26.2	-26.9	15.1	0.00e+00	0	44	0	1394606080	12	3941
2026-01-14 14:21:57.44	344.90	11.42	-26.2	-27.0	15.0	0.00e+00	0	43	0	1409286144	12	3959
2026-01-14 14:21:59.45	344.85	11.24	-26.2	-27.1	15.0	0.00e+00	0	44	0	1423966208	12	3971
2026-01-14 14:22:01.46	344.80	11.06	-26.4	-27.4	14.8	1.10e-06	0	43	0	1438646272	12	4060
2026-01-14 14:22:03.47	344.75	10.88	-26.4	-27.5	14.7	0.00e+00	0	43	0	1452277760	12	4076
2026-01-14 14:22:05.48	344.71	10.70	-26.5	-27.6	14.7	1.10e-06	0	44	0	1466957824	12	4105
2026-01-14 14:22:07.48	344.66	10.52	-26.8	-27.9	14.3	1.10e-06	0	43	0	1481637888	13	4070
2026-01-14 14:22:09.49	344.62	10.35	-26.6	-27.5	14.5	1.10e-06	0	43	0	1496317952	13	3969
2026-01-14 14:22:11.48	344.57	10.17	-26.7	-27.7	14.3	0.00e+00	0	44	0	1510998016	13	4043
2026-01-14 14:22:13.49	344.53	10.00	-26.8	-27.9	14.2	0.00e+00	0	44	0	1525678080	13	4077
2026-01-14 14:22:15.49	344.48	9.83	-27.1	-28.4	13.9	6.80e-06	0	43	0	1539309568	13	4224
2026-01-14 14:22:17.50	344.44	9.66	-27.0	-28.2	14.0	2.20e-06	0	43	0	1553989632	13	4175
2026-01-14 14:22:19.51	344.40	9.49	-26.9	-28.1	14.1	1.10e-06	0	44	0	1568669696	13	4130
2026-01-14 14:22:21.52	344.36	9.32	-27.0	-27.9	13.9	6.80e-06	0	43	0	1583349760	14	3970
2026-01-14 14:22:23.53	344.31	9.15	-26.9	-27.6	14.0	3.40e-06	0	44	0	1596981248	14	3911
2026-01-14 14:22:25.53	344.27	8.99	-27.0	-27.9	13.9	8.00e-06	0	44	0	1611661312	14	3972
2026-01-14 14:22:27.54	344.23	8.82	-27.3	-28.4	13.5	3.40e-06	0	43	0	1626341376	14	4117
2026-01-14 14:22:29.55	344.19	8.66	-27.4	-28.7	13.4	3.31e-05	0	43	0	1641021440	14	4179
2026-01-14 14:22:31.55	344.16	8.49	-27.2	-28.4	13.5	6.80e-06	0	44	0	1655701504	14	4108
2026-01-14 14:22:33.55	344.12	8.33	-27.5	-29.0	13.1	2.51e-05	0	43	0	1670381568	14	4269
2026-01-14 14:22:35.56	344.08	8.17	-27.2	-27.8	13.5	2.40e-05	0	43	0	1684013056	15	3863
2026-01-14 14:22:37.57	344.04	8.01	-27.3	-28.0	13.4	1.94e-05	0	43	0	1698693120	15	3901
2026-01-14 14:22:39.57	344.00	7.85	-27.1	-27.6	13.6	2.51e-05	0	43	0	1713373184	15	3813
2026-01-14 14:22:41.58	343.97	7.69	-27.4	-28.2	13.3	2.51e-05	0	43	0	1728053248	15	3956
2026-01-14 14:22:43.58	343.93	7.54	-27.4	-28.2	13.3	1.94e-05	0	43	0	1742733312	15	3957
2026-01-14 14:22:45.58	343.90	7.38	-27.4	-28.3	13.2	3.31e-05	0	44	0	1757413376	15	3978
2026-01-14 14:22:47.60	343.86	7.23	-27.4	-28.3	13.1	3.77e-05	0	44	0	1771044864	15	3998
2026-01-14 14:22:49.60	343.83	7.07	-33.3	-42.0	3.8	7.19e-01	0	43	104	1784676352	26	9834

#Closed at: 2026-01-14 14:22:51
#Recorded file [1784 MB]: D:/data/31010_260114_171841.dat