passes_logs/2026/01/14/R2M6_AANII_01/R2M6_AANII_01__20260114_041341_FENGYUN_3D_rec.log

#Pass ID: 20260114_041341_FENGYUN 3D
#Satellite: FENGYUN 3D
#Configuration: FENGYUN 3D
#almurnet v.1.7.20240730
#Start time: 2026-01-14 04:13:41

#Version: 2.2.20231116
#Station: R2M6_AANII_01
#Location: 30.233357 lon 59.946436 lat
#TLE: 1 43010U 17072A   26013.31211337  .00000452  00000+0  23563-3 0  9990
#TLE: 2 43010  98.9934 345.1024 0002270 111.0315 249.1103 14.19696845423017

#Time	Az	El	Level	Level2	SNR	BER	BlckErr	Temp	State	Recorded	gain1	gain2
2026-01-14 04:13:41.88	11.36	7.01	-30.2	-33.6	5.3	7.83e-01	0	40	0	0	20	5359
2026-01-14 04:13:44.89	11.10	7.21	-30.2	-33.7	9.5	1.29e-02	0	40	0	5242880	20	5357
2026-01-14 04:13:47.91	10.84	7.41	-30.4	-34.1	9.2	1.36e-02	0	41	0	22020096	20	5539
2026-01-14 04:13:50.92	10.57	7.61	-30.0	-32.9	10.0	6.57e-03	0	41	0	38797312	20	5062
2026-01-14 04:13:53.92	10.31	7.81	-28.7	-31.0	12.4	1.44e-04	0	41	0	55574528	17	4713
2026-01-14 04:13:56.93	10.04	8.01	-28.0	-29.9	13.4	6.80e-06	0	41	0	73400320	16	4491
2026-01-14 04:13:59.95	9.76	8.21	-28.2	-30.3	13.2	9.10e-06	0	41	0	90177536	16	4593
2026-01-14 04:14:02.97	9.48	8.42	-27.5	-29.2	14.0	1.10e-06	0	41	0	106954752	15	4388
2026-01-14 04:14:05.98	9.19	8.62	-27.4	-29.1	14.0	2.20e-06	0	41	0	123731968	15	4365
2026-01-14 04:14:09.00	8.90	8.83	-27.3	-28.9	14.2	0.00e+00	0	41	0	140509184	15	4302
2026-01-14 04:14:12.01	8.61	9.03	-27.3	-29.3	14.3	1.10e-06	0	41	0	158334976	14	4516
2026-01-14 04:14:15.02	8.31	9.24	-27.3	-29.2	14.4	0.00e+00	0	41	0	175112192	14	4492
2026-01-14 04:14:18.04	8.01	9.45	-27.5	-29.2	14.1	2.20e-06	0	41	0	191889408	15	4397
2026-01-14 04:14:21.05	7.71	9.66	-27.2	-28.9	14.5	0.00e+00	0	41	0	208666624	14	4415
2026-01-14 04:14:24.06	7.40	9.87	-27.1	-28.8	14.6	0.00e+00	0	41	0	225443840	14	4376
2026-01-14 04:14:27.07	7.08	10.08	-27.5	-29.2	14.1	0.00e+00	0	41	0	242221056	15	4400
2026-01-14 04:14:30.08	6.76	10.29	-27.3	-29.2	14.4	0.00e+00	0	42	0	258998272	14	4497
2026-01-14 04:14:33.09	6.44	10.50	-27.5	-29.3	14.1	2.20e-06	0	42	0	276824064	15	4406
2026-01-14 04:14:36.10	6.11	10.72	-26.9	-28.3	14.9	0.00e+00	0	42	0	293601280	14	4252
2026-01-14 04:14:39.11	5.77	10.93	-26.8	-28.6	15.1	0.00e+00	0	42	0	310378496	13	4446
2026-01-14 04:14:42.12	5.43	11.15	-26.8	-28.6	15.1	0.00e+00	0	42	0	327155712	13	4432
2026-01-14 04:14:45.13	5.09	11.37	-26.8	-28.7	15.0	1.81e-04	0	42	0	343932928	13	4472
2026-01-14 04:14:48.14	4.74	11.58	-26.8	-28.6	15.1	1.66e-04	0	42	0	360710144	13	4425
2026-01-14 04:14:51.15	4.38	11.80	-26.6	-28.2	15.3	0.00e+00	0	42	0	378535936	13	4329
2026-01-14 04:14:54.17	4.02	12.02	-26.6	-28.1	15.4	1.42e-04	0	42	0	395313152	13	4293
2026-01-14 04:14:57.17	3.65	12.24	-26.7	-28.4	15.3	1.59e-04	0	42	0	412090368	13	4378
2026-01-14 04:15:00.18	3.28	12.46	-26.6	-28.2	15.4	1.54e-04	0	42	0	428867584	13	4330
2026-01-14 04:15:03.18	2.90	12.68	-26.4	-27.7	15.7	1.59e-04	0	42	0	445644800	13	4195
2026-01-14 04:15:06.19	2.52	12.90	-26.4	-28.1	15.7	1.65e-04	0	42	0	462422016	12	4416
2026-01-14 04:15:09.20	2.13	13.13	-26.3	-27.9	15.8	1.29e-04	0	42	0	479199232	12	4357
2026-01-14 04:15:12.21	1.73	13.35	-26.2	-27.8	16.0	0.00e+00	0	42	0	495976448	12	4307
2026-01-14 04:15:15.23	1.33	13.58	-26.2	-27.8	15.9	1.23e-04	0	42	0	513802240	12	4318
2026-01-14 04:15:18.23	0.92	13.80	-26.2	-27.8	16.0	1.42e-04	0	42	0	530579456	12	4322
2026-01-14 04:15:21.25	0.50	14.03	-26.1	-27.5	16.2	0.00e+00	0	42	0	547356672	12	4227
2026-01-14 04:15:24.27	0.08	14.25	-25.9	-27.1	16.4	0.00e+00	0	42	0	564133888	12	4144
2026-01-14 04:15:27.28	359.65	14.48	-25.9	-27.0	16.5	1.54e-04	0	42	0	580911104	12	4112
2026-01-14 04:15:30.29	359.21	14.71	-26.0	-27.3	16.3	0.00e+00	0	42	0	598736896	12	4191
2026-01-14 04:15:33.31	358.77	14.93	-26.0	-27.3	16.3	0.00e+00	0	42	0	615514112	12	4175
2026-01-14 04:15:36.32	358.32	15.16	-26.0	-27.4	16.3	0.00e+00	0	42	0	632291328	12	4205
2026-01-14 04:15:39.33	357.87	15.39	-25.9	-27.2	16.4	0.00e+00	0	42	0	649068544	12	4149
2026-01-14 04:15:42.34	357.40	15.62	-25.9	-27.6	16.5	0.00e+00	0	42	0	665845760	11	4377
2026-01-14 04:15:45.35	356.93	15.85	-25.9	-27.6	16.5	0.00e+00	0	42	0	682622976	11	4366
2026-01-14 04:15:48.35	356.45	16.08	-25.8	-27.4	16.7	0.00e+00	0	42	0	699400192	11	4304
2026-01-14 04:15:51.37	355.97	16.31	-25.7	-27.1	16.8	0.00e+00	0	43	0	716177408	11	4231
2026-01-14 04:15:54.39	355.47	16.54	-25.6	-26.9	16.9	0.00e+00	0	43	0	734003200	11	4194
2026-01-14 04:15:57.38	354.97	16.76	-25.7	-27.2	16.8	0.00e+00	0	42	0	750780416	11	4259
2026-01-14 04:16:00.39	354.47	16.99	-25.5	-26.7	17.1	0.00e+00	0	42	0	767557632	11	4121
2026-01-14 04:16:03.40	353.95	17.22	-25.4	-27.1	17.1	0.00e+00	0	42	0	784334848	10	4346
2026-01-14 04:16:06.41	353.42	17.45	-25.6	-27.0	16.9	0.00e+00	0	42	0	801112064	11	4216
2026-01-14 04:16:09.42	352.89	17.68	-25.7	-27.2	16.8	0.00e+00	0	42	0	817889280	11	4265
2026-01-14 04:16:12.43	352.35	17.90	-25.5	-26.7	17.1	1.10e-06	0	43	0	834666496	11	4127
2026-01-14 04:16:15.43	351.80	18.13	-25.4	-26.4	17.2	0.00e+00	0	43	0	852492288	11	4066
2026-01-14 04:16:18.44	351.24	18.35	-25.1	-26.4	17.5	0.00e+00	0	43	0	869269504	10	4168
2026-01-14 04:16:21.44	350.68	18.58	-25.1	-26.2	17.7	0.00e+00	0	43	0	886046720	10	4123
2026-01-14 04:16:24.44	350.11	18.80	-25.3	-26.7	17.4	9.17e-04	0	42	0	902823936	10	4236
2026-01-14 04:16:27.45	349.52	19.03	-25.4	-26.9	17.3	0.00e+00	0	42	0	919601152	10	4292
2026-01-14 04:16:30.46	348.93	19.25	-25.3	-26.8	17.4	0.00e+00	0	43	0	936378368	10	4259
2026-01-14 04:16:33.48	348.33	19.47	-25.3	-26.9	17.4	3.39e-04	0	43	0	953155584	10	4286
2026-01-14 04:16:36.49	347.72	19.69	-25.0	-26.1	17.7	1.80e-04	0	43	0	970981376	10	4100
2026-01-14 04:16:39.51	347.10	19.91	-24.8	-25.6	18.0	0.00e+00	0	42	0	987758592	10	3964
2026-01-14 04:16:42.51	346.47	20.12	-24.7	-25.9	18.1	3.46e-04	0	42	0	1004535808	9	4158
2026-01-14 04:16:45.53	345.83	20.34	-24.5	-25.6	18.3	9.25e-04	0	43	0	1021313024	9	4065
2026-01-14 04:16:48.53	345.19	20.55	-24.3	-25.2	18.5	0.00e+00	0	42	0	1038090240	9	3968
2026-01-14 04:16:51.55	344.53	20.76	-24.5	-25.5	18.3	1.05e-03	0	42	0	1054867456	9	4051
2026-01-14 04:16:54.57	343.86	20.97	-24.4	-25.4	18.4	1.30e-03	0	42	0	1072693248	9	4034
2026-01-14 04:16:57.58	343.19	21.17	-24.5	-25.6	18.3	0.00e+00	0	42	0	1089470464	9	4068
2026-01-14 04:17:00.60	342.50	21.38	-24.6	-25.8	18.2	0.00e+00	0	43	0	1106247680	9	4128
2026-01-14 04:17:03.60	341.82	21.58	-24.5	-25.6	18.3	0.00e+00	0	43	0	1123024896	9	4085
2026-01-14 04:17:06.60	341.12	21.77	-24.4	-25.2	18.5	1.44e-03	0	43	0	1139802112	9	3984
2026-01-14 04:17:09.62	340.41	21.97	-24.1	-25.3	18.8	0.00e+00	0	43	0	1156579328	8	4104
2026-01-14 04:17:12.61	339.69	22.16	-24.4	-25.9	18.4	2.20e-06	0	43	0	1173356544	8	4255
2026-01-14 04:17:15.62	338.96	22.35	-24.3	-25.6	18.6	0.00e+00	0	43	0	1190133760	8	4196
2026-01-14 04:17:18.62	338.23	22.53	-24.1	-25.1	18.8	0.00e+00	0	43	0	1207959552	8	4065
2026-01-14 04:17:21.63	337.48	22.71	-24.1	-25.2	18.8	0.00e+00	0	43	0	1224736768	8	4094
2026-01-14 04:17:24.65	336.73	22.88	-24.1	-25.2	18.8	0.00e+00	0	43	0	1241513984	8	4094
2026-01-14 04:17:27.66	335.97	23.06	-24.2	-25.4	18.7	0.00e+00	0	43	0	1258291200	8	4132
2026-01-14 04:17:30.67	335.19	23.22	-24.0	-25.0	18.9	0.00e+00	0	43	0	1275068416	8	4031
2026-01-14 04:17:33.68	334.42	23.39	-24.0	-24.9	19.0	0.00e+00	0	43	0	1291845632	8	4024
2026-01-14 04:17:36.69	333.63	23.54	-24.0	-25.0	18.9	0.00e+00	0	43	0	1309671424	8	4037
2026-01-14 04:17:39.70	332.83	23.70	-24.0	-25.1	18.9	0.00e+00	0	43	0	1326448640	8	4052
2026-01-14 04:17:42.71	332.03	23.84	-23.9	-24.7	19.1	0.00e+00	0	42	0	1343225856	8	3975
2026-01-14 04:17:45.73	331.22	23.99	-23.7	-24.8	19.2	0.00e+00	0	43	0	1360003072	7	4091
2026-01-14 04:17:48.73	330.40	24.12	-23.7	-24.8	19.3	0.00e+00	0	43	0	1376780288	7	4100
2026-01-14 04:17:51.73	329.58	24.25	-23.7	-24.8	19.3	0.00e+00	0	43	0	1393557504	7	4097
2026-01-14 04:17:54.73	328.75	24.38	-23.6	-24.7	19.3	0.00e+00	0	43	0	1410334720	7	4064
2026-01-14 04:17:57.74	327.91	24.50	-23.6	-24.6	16.7	0.00e+00	0	43	0	1428160512	7	4040
2026-01-14 04:18:00.75	327.07	24.61	-23.5	-24.5	19.4	0.00e+00	0	43	0	1444937728	7	4036
2026-01-14 04:18:03.76	326.22	24.72	-24.0	-25.1	18.9	0.00e+00	0	43	0	1461714944	8	4061
2026-01-14 04:18:06.76	325.36	24.82	-24.0	-25.0	19.0	0.00e+00	0	43	0	1478492160	8	4030
2026-01-14 04:18:09.77	324.50	24.91	-23.7	-24.8	19.3	0.00e+00	0	43	0	1495269376	7	4092
2026-01-14 04:18:12.78	323.63	25.00	-23.7	-24.8	19.3	8.26e-04	0	43	0	1512046592	7	4089
2026-01-14 04:18:15.80	322.76	25.08	-23.6	-24.7	19.3	9.88e-04	0	43	0	1528823808	7	4068
2026-01-14 04:18:18.81	321.88	25.15	-23.7	-24.8	19.2	0.00e+00	0	43	0	1545601024	7	4100
2026-01-14 04:18:21.83	321.00	25.21	-23.5	-24.5	19.4	1.37e-03	0	43	0	1563426816	7	4024
2026-01-14 04:18:24.84	320.12	25.27	-23.7	-24.8	19.3	1.42e-03	0	43	0	1580204032	7	4097
2026-01-14 04:18:27.84	319.23	25.32	-24.0	-25.4	18.9	1.31e-03	0	43	0	1596981248	7	4259
2026-01-14 04:18:30.85	318.35	25.37	-24.2	-25.4	18.7	1.57e-03	0	43	0	1613758464	8	4136
2026-01-14 04:18:33.86	317.45	25.40	-24.2	-25.4	18.7	1.56e-03	0	43	0	1630535680	8	4124
2026-01-14 04:18:36.86	316.56	25.43	-24.2	-25.4	18.7	1.53e-03	0	43	0	1647312896	8	4146
2026-01-14 04:18:39.88	315.67	25.45	-23.3	-24.0	19.6	0.00e+00	0	43	0	1664090112	7	3916
2026-01-14 04:18:42.88	314.77	25.46	-23.3	-24.6	19.6	1.55e-03	0	43	0	1680867328	6	4169
2026-01-14 04:18:45.89	313.88	25.47	-23.4	-24.8	19.5	1.27e-03	0	43	0	1698693120	6	4213
2026-01-14 04:18:48.90	312.98	25.47	-23.9	-25.4	18.9	0.00e+00	0	43	0	1715470336	7	4240
2026-01-14 04:18:51.90	312.09	25.46	-23.6	-24.7	19.3	0.00e+00	0	43	0	1732247552	7	4075
2026-01-14 04:18:54.91	311.19	25.44	-23.5	-24.4	19.5	1.09e-03	0	43	0	1749024768	7	3993
2026-01-14 04:18:57.90	310.30	25.42	-23.4	-24.3	19.5	0.00e+00	0	43	0	1765801984	7	3982
2026-01-14 04:19:00.90	309.41	25.38	-23.3	-24.0	19.6	0.00e+00	0	43	0	1782579200	7	3905
2026-01-14 04:19:03.91	308.52	25.34	-23.4	-24.8	19.5	0.00e+00	0	43	0	1799356416	6	4203
2026-01-14 04:19:06.91	307.64	25.30	-23.8	-25.0	19.1	0.00e+00	0	43	0	1816133632	7	4153
2026-01-14 04:19:09.92	306.75	25.24	-23.5	-24.5	19.4	0.00e+00	0	43	0	1833959424	7	4038
2026-01-14 04:19:12.91	305.88	25.18	-23.5	-24.4	19.4	0.00e+00	0	43	0	1850736640	7	3992
2026-01-14 04:19:15.92	305.00	25.11	-23.3	-24.0	19.7	0.00e+00	0	43	0	1867513856	7	3895
2026-01-14 04:19:18.93	304.12	25.03	-23.2	-24.4	19.7	0.00e+00	0	43	0	1884291072	6	4108
2026-01-14 04:19:21.94	303.25	24.95	-23.2	-23.8	19.7	0.00e+00	0	43	0	1901068288	7	3862
2026-01-14 04:19:24.95	302.39	24.86	-23.6	-24.6	19.3	0.00e+00	0	43	0	1917845504	7	4044
2026-01-14 04:19:27.96	301.53	24.76	-23.6	-24.7	19.2	0.00e+00	0	43	0	1934622720	7	4084
2026-01-14 04:19:30.97	300.67	24.66	-24.0	-25.4	18.9	0.00e+00	0	43	0	1952448512	7	4252
2026-01-14 04:19:33.98	299.82	24.55	-23.4	-24.3	19.4	0.00e+00	0	43	0	1969225728	7	3970
2026-01-14 04:19:36.99	298.98	24.43	-23.3	-24.1	19.6	0.00e+00	0	43	0	1986002944	7	3921
2026-01-14 04:19:40.00	298.15	24.31	-23.3	-24.0	19.6	0.00e+00	0	43	0	2002780160	7	3905
2026-01-14 04:19:43.01	297.32	24.18	-23.3	-24.5	19.6	0.00e+00	0	43	0	2019557376	6	4132
2026-01-14 04:19:46.01	296.50	24.04	-23.6	-24.7	19.2	0.00e+00	0	43	0	2036334592	7	4086
2026-01-14 04:19:49.02	295.68	23.90	-23.6	-24.6	19.2	0.00e+00	0	43	0	2053111808	7	4062
2026-01-14 04:19:52.03	294.87	23.76	-23.5	-24.5	19.3	0.00e+00	0	43	0	2070937600	7	4018
2026-01-14 04:19:55.05	294.07	23.61	-23.3	-24.5	19.6	0.00e+00	0	43	0	2087714816	6	4142
2026-01-14 04:19:58.06	293.28	23.45	-23.2	-24.3	19.7	0.00e+00	0	43	0	2104492032	6	4090
2026-01-14 04:20:01.06	292.49	23.29	-23.5	-25.0	19.3	0.00e+00	0	43	0	2121269248	6	4258
2026-01-14 04:20:04.06	291.72	23.13	-23.6	-24.6	19.2	0.00e+00	0	43	0	2138046464	7	4042
2026-01-14 04:20:07.07	290.95	22.96	-23.7	-24.9	19.0	0.00e+00	0	43	0	2154823680	7	4125
2026-01-14 04:20:10.07	290.19	22.78	-23.7	-24.8	19.1	0.00e+00	0	43	0	2171600896	7	4113
2026-01-14 04:20:13.07	289.44	22.60	-23.9	-25.3	18.9	0.00e+00	0	43	0	2188378112	7	4219
2026-01-14 04:20:16.07	288.70	22.42	-24.1	-24.7	18.7	0.00e+00	0	43	0	2205155328	9	3861
2026-01-14 04:20:19.08	287.97	22.24	-23.5	-23.9	19.3	0.00e+00	0	43	0	2222981120	8	3780
2026-01-14 04:20:22.09	287.25	22.05	-23.4	-24.3	19.3	0.00e+00	0	43	0	2239758336	7	3990
2026-01-14 04:20:25.10	286.53	21.85	-23.6	-24.8	19.1	0.00e+00	0	43	0	2256535552	7	4093
2026-01-14 04:20:28.10	285.82	21.66	-23.6	-24.7	19.1	0.00e+00	0	43	0	2273312768	7	4083
2026-01-14 04:20:31.12	285.12	21.46	-24.1	-25.2	18.6	0.00e+00	0	43	0	2290089984	8	4090
2026-01-14 04:20:34.13	284.44	21.26	-24.0	-25.0	18.7	0.00e+00	0	43	0	2306867200	8	4060
2026-01-14 04:20:37.13	283.76	21.05	-23.9	-24.7	18.8	1.65e-04	0	43	0	2324692992	8	3979
2026-01-14 04:20:40.14	283.09	20.84	-23.6	-24.9	18.9	0.00e+00	0	43	0	2341470208	7	4151
2026-01-14 04:20:43.14	282.43	20.63	-23.9	-25.4	18.7	0.00e+00	0	43	0	2358247424	7	4265
2026-01-14 04:20:46.15	281.77	20.42	-24.1	-25.3	18.5	0.00e+00	0	43	0	2375024640	8	4119
2026-01-14 04:20:49.17	281.13	20.21	-24.3	-25.7	18.3	0.00e+00	0	43	0	2391801856	8	4216
2026-01-14 04:20:52.19	280.49	19.99	-24.3	-25.6	18.4	0.00e+00	0	43	0	2408579072	8	4178
2026-01-14 04:20:55.19	279.87	19.77	-24.4	-25.9	18.2	0.00e+00	0	43	0	2425356288	8	4280
2026-01-14 04:20:58.20	279.25	19.55	-24.5	-25.7	18.1	0.00e+00	0	43	0	2443182080	9	4097
2026-01-14 04:21:01.22	278.64	19.33	-24.4	-25.5	18.2	0.00e+00	0	43	0	2459959296	9	4043
2026-01-14 04:21:04.23	278.04	19.11	-24.8	-26.1	17.8	0.00e+00	0	43	0	2476736512	9	4219
2026-01-14 04:21:07.24	277.45	18.89	-24.5	-25.5	18.1	0.00e+00	0	43	0	2493513728	9	4058
2026-01-14 04:21:10.26	276.87	18.66	-24.6	-25.8	17.9	0.00e+00	0	43	0	2510290944	9	4130
2026-01-14 04:21:13.26	276.30	18.44	-24.7	-25.9	17.9	0.00e+00	0	43	0	2527068160	9	4155
2026-01-14 04:21:16.27	275.73	18.21	-24.6	-25.9	17.9	0.00e+00	0	43	0	2543845376	9	4147
2026-01-14 04:21:19.28	275.18	17.98	-24.7	-25.9	17.8	0.00e+00	0	43	0	2561671168	9	4165
2026-01-14 04:21:22.29	274.63	17.75	-24.8	-26.2	17.7	0.00e+00	0	43	0	2578448384	9	4238
2026-01-14 04:21:25.30	274.09	17.53	-24.7	-26.0	17.8	0.00e+00	0	43	0	2595225600	9	4174
2026-01-14 04:21:28.30	273.56	17.30	-24.8	-26.1	17.7	0.00e+00	0	43	0	2612002816	9	4209
2026-01-14 04:21:31.32	273.04	17.07	-24.8	-26.3	17.6	0.00e+00	0	43	0	2628780032	9	4251
2026-01-14 04:21:34.32	272.52	16.84	-25.1	-26.3	17.4	0.00e+00	0	43	0	2645557248	10	4141
2026-01-14 04:21:37.33	272.02	16.61	-25.2	-26.3	17.3	0.00e+00	0	43	0	2663383040	10	4118
2026-01-14 04:21:40.34	271.52	16.38	-25.1	-26.4	16.2	0.00e+00	0	43	0	2680160256	10	4185
2026-01-14 04:21:43.35	271.03	16.15	-25.1	-26.4	17.3	7.32e-05	0	43	0	2696937472	10	4181
2026-01-14 04:21:46.35	270.54	15.92	-25.0	-26.2	17.4	0.00e+00	0	43	0	2713714688	10	4113
2026-01-14 04:21:49.35	270.07	15.69	-25.2	-26.6	17.2	0.00e+00	0	43	0	2730491904	10	4213
2026-01-14 04:21:52.35	269.60	15.46	-25.2	-26.7	17.1	1.47e-03	0	43	0	2747269120	10	4241
2026-01-14 04:21:55.37	269.14	15.23	-25.4	-27.1	16.9	1.27e-03	0	43	0	2764046336	10	4347
2026-01-14 04:21:58.38	268.68	15.00	-25.5	-26.6	16.9	0.00e+00	0	43	0	2780823552	11	4122
2026-01-14 04:22:01.38	268.23	14.78	-25.5	-26.7	16.8	1.58e-03	0	43	0	2798649344	11	4149
2026-01-14 04:22:04.38	267.80	14.55	-25.6	-27.0	16.6	1.79e-03	0	43	0	2815426560	11	4217
2026-01-14 04:22:07.40	267.36	14.32	-25.7	-27.1	16.5	2.10e-03	0	43	0	2832203776	11	4257
2026-01-14 04:22:10.40	266.93	14.09	-25.5	-26.8	16.7	0.00e+00	0	43	0	2848980992	11	4179
2026-01-14 04:22:13.40	266.51	13.87	-25.7	-27.1	16.5	2.01e-03	0	43	0	2865758208	11	4249
2026-01-14 04:22:16.41	266.10	13.64	-25.8	-27.5	16.3	1.96e-03	0	43	0	2882535424	11	4348
2026-01-14 04:22:19.42	265.69	13.42	-25.8	-27.4	16.4	1.67e-03	0	43	0	2899312640	11	4332
2026-01-14 04:22:22.43	265.29	13.19	-25.8	-27.4	16.3	1.18e-03	0	43	0	2916089856	11	4331
2026-01-14 04:22:25.43	264.89	12.97	-25.8	-27.5	16.3	1.24e-03	0	43	0	2933915648	11	4351
2026-01-14 04:22:28.44	264.51	12.75	-26.0	-27.3	16.0	1.56e-03	0	43	0	2950692864	12	4189
2026-01-14 04:22:31.45	264.12	12.52	-26.0	-27.4	16.0	0.00e+00	0	43	0	2967470080	12	4212
2026-01-14 04:22:34.46	263.74	12.30	-26.0	-27.4	15.9	1.73e-03	0	43	0	2984247296	12	4216
2026-01-14 04:22:37.46	263.37	12.08	-26.1	-27.7	15.7	2.68e-03	0	43	0	3001024512	12	4291
2026-01-14 04:22:40.48	263.00	11.86	-26.0	-27.4	15.9	0.00e+00	0	43	0	3017801728	12	4232
2026-01-14 04:22:43.49	262.64	11.64	-26.2	-27.8	15.6	1.10e-06	0	43	0	3034578944	12	4328
2026-01-14 04:22:46.49	262.29	11.42	-26.3	-28.0	15.5	4.50e-06	0	43	0	3052404736	12	4398
2026-01-14 04:22:49.51	261.94	11.20	-26.5	-28.4	15.3	0.00e+00	0	43	0	3069181952	12	4504
2026-01-14 04:22:52.52	261.59	10.99	-26.6	-28.3	15.1	0.00e+00	0	43	0	3085959168	13	4355
2026-01-14 04:22:55.54	261.25	10.77	-26.7	-28.4	15.0	0.00e+00	0	43	0	3102736384	13	4401
2026-01-14 04:22:58.56	260.92	10.55	-26.7	-28.4	15.0	0.00e+00	0	43	0	3119513600	13	4382
2026-01-14 04:23:01.54	260.59	10.34	-26.6	-28.2	15.1	0.00e+00	0	43	0	3136290816	13	4342
2026-01-14 04:23:04.55	260.27	10.13	-26.5	-28.1	15.1	0.00e+00	0	43	0	3153068032	13	4307
2026-01-14 04:23:07.56	259.95	9.92	-26.6	-28.3	15.0	0.00e+00	0	43	0	3169845248	13	4351
2026-01-14 04:23:10.57	259.63	9.71	-26.7	-28.4	14.9	0.00e+00	0	43	0	3187671040	13	4386
2026-01-14 04:23:13.59	259.32	9.50	-26.8	-28.7	14.7	0.00e+00	0	43	0	3204448256	13	4483
2026-01-14 04:23:16.59	259.01	9.29	-26.9	-29.0	14.5	0.00e+00	0	43	0	3221225472	13	4571
2026-01-14 04:23:19.59	258.71	9.08	-26.7	-28.6	14.7	0.00e+00	0	43	0	3238002688	13	4455
2026-01-14 04:23:22.60	258.41	8.87	-26.7	-28.5	14.7	0.00e+00	0	43	0	3254779904	13	4425
2026-01-14 04:23:25.60	258.12	8.67	-26.9	-28.9	14.5	0.00e+00	0	43	0	3271557120	13	4544
2026-01-14 04:23:28.62	257.83	8.46	-27.0	-28.7	14.3	1.10e-06	0	43	0	3288334336	14	4367
2026-01-14 04:23:31.62	257.55	8.26	-27.1	-29.0	14.1	2.20e-06	0	43	0	3305111552	14	4465
2026-01-14 04:23:34.62	257.27	8.05	-26.5	-28.3	13.8	1.10e-06	0	43	0	3322937344	14	4424
2026-01-14 04:23:37.63	256.99	7.85	-27.2	-29.2	14.0	0.00e+00	0	43	0	3339714560	14	4514
2026-01-14 04:23:40.64	256.72	7.65	-27.4	-29.6	13.7	5.70e-06	0	43	0	3356491776	14	4647
2026-01-14 04:23:43.66	256.45	7.45	-27.4	-29.7	13.6	2.41e-03	0	43	0	3373268992	14	4669
2026-01-14 04:23:46.68	256.18	7.25	-27.5	-29.3	13.5	1.65e-03	0	43	0	3390046208	15	4437
2026-01-14 04:23:49.70	255.92	7.05	-33.0	-43.5	3.8	3.20e-01	0	43	104	3405774848	26	11991

#Closed at: 2026-01-14 04:23:52
#Recorded file [3405 MB]: D:/data/31010_260114_071343.dat