passes_logs/2026/01/14/R2M6_AANII_01/R2M6_AANII_01__20260114_221551_NOAA_20_JPSS-1_rec.log

#Pass ID: 20260114_221551_NOAA 20 (JPSS-1)
#Satellite: NOAA 20 (JPSS-1)
#Configuration: NOAA 20
#almurnet v.1.7.20240730
#Start time: 2026-01-14 22:15:51

#Version: 2.2.20231116
#Station: R2M6_AANII_01
#Location: 30.233357 lon 59.946436 lat
#TLE: 1 43013U 17073A   26014.13176244  .00000049  00000+0  44136-4 0  9994
#TLE: 2 43013  98.7634 315.0803 0001538  40.6488 319.4803 14.19535812422619

#Time	Az	El	Level	Level2	SNR	BER	BlckErr	Temp	State	Recorded	gain1	gain2
2026-01-14 22:15:51.06	36.04	6.96	-32.2	-38.6	4.9	1.24e+00	0	41	0	0	25	7549
2026-01-14 22:15:54.07	36.41	7.11	-32.0	-38.2	7.8	8.48e-02	0	41	0	1048576	24	7363
2026-01-14 22:15:57.08	36.77	7.27	-32.1	-38.3	7.9	7.44e-02	0	41	0	7340032	24	7341
2026-01-14 22:16:00.09	37.14	7.42	-32.3	-39.5	6.9	1.06e-01	0	41	0	12582912	24	8196
2026-01-14 22:16:03.10	37.51	7.58	-31.6	-36.3	9.5	2.38e-02	0	41	0	17825792	24	6193
2026-01-14 22:16:06.11	37.89	7.73	-31.0	-34.6	11.2	1.95e-03	0	41	0	24117248	23	5435
2026-01-14 22:16:09.12	38.27	7.88	-30.9	-34.1	11.6	1.04e-03	0	41	0	29360128	23	5230
2026-01-14 22:16:12.14	38.65	8.04	-30.9	-34.2	11.5	6.71e-04	0	41	0	35651584	23	5281
2026-01-14 22:16:15.15	39.04	8.19	-31.0	-34.6	11.3	1.09e-03	0	41	0	40894464	23	5410
2026-01-14 22:16:18.15	39.43	8.35	-30.8	-34.3	11.9	3.40e-04	0	41	0	46137344	22	5388
2026-01-14 22:16:21.16	39.83	8.50	-30.9	-34.8	11.6	8.44e-04	0	41	0	52428800	22	5590
2026-01-14 22:16:24.16	40.22	8.65	-30.7	-34.0	12.1	2.51e-04	0	42	0	57671680	22	5267
2026-01-14 22:16:27.17	40.63	8.81	-30.6	-33.5	12.5	1.56e-04	0	42	0	63963136	22	5067
2026-01-14 22:16:30.19	41.04	8.96	-30.6	-33.5	12.5	1.36e-04	0	42	0	69206016	22	5061
2026-01-14 22:16:33.19	41.45	9.11	-30.7	-34.1	12.1	2.51e-04	0	42	0	74448896	22	5286
2026-01-14 22:16:36.20	41.87	9.27	-30.4	-33.0	12.9	5.87e-05	0	42	0	80740352	22	4884
2026-01-14 22:16:39.22	42.29	9.42	-30.3	-32.9	12.9	4.73e-05	0	42	0	85983232	22	4849
2026-01-14 22:16:42.23	42.71	9.57	-30.3	-33.3	13.0	3.50e-05	0	42	0	91226112	21	5080
2026-01-14 22:16:45.24	43.14	9.72	-30.4	-33.5	12.9	4.27e-05	0	42	0	97517568	21	5146
2026-01-14 22:16:48.24	43.57	9.87	-30.4	-33.7	12.8	1.01e-04	0	42	0	102760448	21	5229
2026-01-14 22:16:51.25	44.01	10.02	-30.4	-33.6	12.9	6.63e-05	0	42	0	109051904	21	5193
2026-01-14 22:16:54.26	44.45	10.17	-30.3	-33.7	13.2	2.44e-05	0	42	0	114294784	20	5319
2026-01-14 22:16:57.26	44.90	10.32	-30.4	-33.5	13.0	6.10e-05	0	42	0	119537664	21	5144
2026-01-14 22:17:00.29	45.35	10.47	-30.4	-33.6	12.9	4.57e-05	0	42	0	125829120	21	5177
2026-01-14 22:17:03.29	45.81	10.62	-30.4	-33.6	12.9	4.95e-05	0	42	0	131072000	21	5179
2026-01-14 22:17:06.29	46.27	10.77	-30.4	-33.4	13.0	4.50e-05	0	42	0	136314880	21	5105
2026-01-14 22:17:09.30	46.73	10.91	-30.4	-33.4	13.1	3.28e-05	0	42	0	142606336	21	5110
2026-01-14 22:17:12.31	47.20	11.06	-30.6	-34.0	12.6	9.15e-05	0	42	0	147849216	21	5343
2026-01-14 22:17:15.33	47.67	11.20	-30.5	-33.8	12.8	8.16e-05	0	42	0	154140672	21	5250
2026-01-14 22:17:18.34	48.15	11.35	-30.5	-33.7	12.9	4.27e-05	0	42	0	159383552	21	5226
2026-01-14 22:17:21.34	48.63	11.49	-30.4	-34.1	13.0	4.04e-05	0	43	0	164626432	20	5469
2026-01-14 22:17:24.34	49.12	11.63	-30.6	-34.0	12.7	1.54e-04	0	42	0	170917888	21	5347
2026-01-14 22:17:27.34	49.61	11.77	-30.7	-34.2	12.6	9.38e-05	0	42	0	176160768	21	5421
2026-01-14 22:17:30.35	50.10	11.91	-30.7	-34.2	12.6	8.08e-05	0	42	0	181403648	21	5396
2026-01-14 22:17:33.36	50.61	12.05	-30.7	-34.2	12.6	8.08e-05	0	43	0	187695104	21	5393
2026-01-14 22:17:36.37	51.11	12.19	-30.9	-34.8	12.2	2.08e-04	0	43	0	192937984	21	5673
2026-01-14 22:17:39.36	51.62	12.32	-31.0	-35.1	12.0	3.00e-04	0	43	0	199229440	21	5784
2026-01-14 22:17:42.37	52.13	12.46	-31.2	-35.4	11.4	7.90e-04	0	43	0	204472320	22	5816
2026-01-14 22:17:45.37	52.65	12.59	-31.3	-35.5	11.4	9.06e-04	0	42	0	209715200	22	5843
2026-01-14 22:17:48.39	53.18	12.73	-31.1	-35.1	11.7	6.13e-04	0	43	0	216006656	22	5670
2026-01-14 22:17:51.41	53.71	12.86	-31.2	-35.2	11.7	9.31e-04	0	43	0	221249536	22	5704
2026-01-14 22:17:54.41	54.24	12.99	-31.4	-35.8	11.3	1.34e-03	0	43	0	226492416	22	5980
2026-01-14 22:17:57.42	54.78	13.11	-31.4	-36.0	11.0	1.50e-03	0	43	0	232783872	22	6110
2026-01-14 22:18:00.44	55.32	13.24	-31.3	-35.4	11.5	9.59e-04	0	43	0	238026752	22	5824
2026-01-14 22:18:03.45	55.87	13.37	-31.3	-35.5	11.5	8.09e-04	0	43	0	244318208	22	5849
2026-01-14 22:18:06.45	56.42	13.49	-31.5	-35.7	11.0	1.90e-03	0	43	0	249561088	23	5838
2026-01-14 22:18:09.46	56.97	13.61	-31.7	-36.3	10.5	4.13e-03	0	43	0	254803968	23	6117
2026-01-14 22:18:12.46	57.53	13.73	-31.6	-36.0	10.7	4.26e-03	0	43	0	261095424	23	5983
2026-01-14 22:18:15.46	58.09	13.85	-31.4	-35.3	11.3	1.32e-03	0	43	0	266338304	23	5651
2026-01-14 22:18:18.48	58.66	13.96	-31.3	-35.4	11.6	6.83e-04	0	43	0	272629760	22	5786
2026-01-14 22:18:21.48	59.23	14.07	-31.3	-35.4	11.6	7.85e-04	0	43	0	277872640	22	5798
2026-01-14 22:18:24.49	59.81	14.18	-31.2	-35.1	11.8	5.69e-04	0	43	0	283115520	22	5663
2026-01-14 22:18:27.50	60.39	14.29	-31.2	-35.1	11.8	4.63e-04	0	43	0	289406976	22	5663
2026-01-14 22:18:30.51	60.98	14.40	-31.0	-34.4	12.3	1.65e-04	0	43	0	294649856	22	5361
2026-01-14 22:18:33.52	61.57	14.50	-30.7	-34.2	12.8	8.39e-05	0	43	0	300941312	21	5372
2026-01-14 22:18:36.51	62.16	14.61	-30.5	-33.7	13.1	4.42e-05	0	43	0	306184192	21	5184
2026-01-14 22:18:39.52	62.76	14.70	-30.4	-33.5	13.3	2.05e-05	0	43	0	311427072	21	5094
2026-01-14 22:18:42.53	63.36	14.80	-30.3	-33.5	13.6	5.30e-06	0	43	0	317718528	20	5229
2026-01-14 22:18:45.54	63.96	14.90	-30.4	-33.8	13.4	1.06e-05	0	43	0	322961408	20	5330
2026-01-14 22:18:48.56	64.57	14.99	-30.6	-34.0	12.9	4.50e-05	0	43	0	328204288	21	5298
2026-01-14 22:18:51.57	65.19	15.08	-30.5	-33.6	13.2	2.21e-05	0	43	0	334495744	21	5138
2026-01-14 22:18:54.57	65.80	15.16	-30.5	-33.6	13.2	2.51e-05	0	43	0	339738624	21	5145
2026-01-14 22:18:57.59	66.42	15.25	-30.6	-34.0	12.9	4.88e-05	0	43	0	346030080	21	5317
2026-01-14 22:19:00.58	67.04	15.33	-30.7	-34.2	12.8	7.78e-05	0	43	0	351272960	21	5371
2026-01-14 22:19:03.59	67.67	15.41	-30.9	-34.7	12.5	9.46e-05	0	43	0	356515840	21	5565
2026-01-14 22:19:06.61	68.30	15.48	-30.9	-34.7	12.5	9.99e-05	0	43	0	362807296	21	5566
2026-01-14 22:19:09.61	68.93	15.55	-30.9	-34.3	12.4	1.63e-04	0	43	0	368050176	22	5311
2026-01-14 22:19:12.61	69.56	15.62	-30.9	-34.8	12.4	1.27e-04	0	43	0	373293056	21	5636
2026-01-14 22:19:15.62	70.20	15.69	-30.7	-33.7	12.9	4.50e-05	0	43	0	379584512	22	5075
2026-01-14 22:19:18.63	70.84	15.75	-30.8	-33.9	12.7	8.92e-05	0	43	0	384827392	22	5139
2026-01-14 22:19:21.63	71.49	15.81	-31.0	-34.4	12.4	1.18e-04	0	43	0	391118848	22	5343
2026-01-14 22:19:24.64	72.13	15.86	-30.7	-33.6	13.0	4.57e-05	0	43	0	396361728	22	5024
2026-01-14 22:19:27.65	72.78	15.92	-30.6	-33.3	13.2	2.59e-05	0	43	0	401604608	22	4916
2026-01-14 22:19:30.66	73.43	15.96	-30.7	-33.7	12.9	3.58e-05	0	43	0	407896064	22	5056
2026-01-14 22:19:33.67	74.08	16.01	-30.7	-33.6	13.0	2.74e-05	0	43	0	413138944	22	5021
2026-01-14 22:19:36.67	74.74	16.05	-30.8	-33.8	12.8	4.27e-05	0	43	0	418381824	22	5107
2026-01-14 22:19:39.68	75.39	16.09	-30.7	-34.2	12.8	6.86e-05	0	43	0	424673280	21	5394
2026-01-14 22:19:42.69	76.05	16.13	-30.6	-33.9	13.1	3.58e-05	0	43	0	429916160	21	5245
2026-01-14 22:19:45.70	76.71	16.16	-30.6	-33.8	13.1	2.05e-05	0	43	0	436207616	21	5213
2026-01-14 22:19:48.72	77.37	16.19	-30.5	-33.7	13.2	2.13e-05	0	43	0	441450496	21	5172
2026-01-14 22:19:51.73	78.04	16.21	-30.4	-33.4	13.3	1.06e-05	0	43	0	446693376	21	5069
2026-01-14 22:19:54.74	78.70	16.23	-30.6	-33.9	13.1	2.51e-05	0	43	0	452984832	21	5257
2026-01-14 22:19:57.75	79.36	16.25	-30.7	-34.2	12.9	4.73e-05	0	43	0	458227712	21	5386
2026-01-14 22:20:00.75	80.03	16.27	-30.8	-34.4	12.7	8.31e-05	0	43	0	463470592	21	5466
2026-01-14 22:20:03.76	80.69	16.28	-30.5	-33.6	13.2	2.21e-05	0	43	0	469762048	21	5152
2026-01-14 22:20:06.77	81.36	16.28	-30.6	-34.0	13.0	2.21e-05	0	43	0	475004928	21	5314
2026-01-14 22:20:09.77	82.02	16.29	-30.5	-33.5	13.3	2.28e-05	0	43	0	481296384	21	5112
2026-01-14 22:20:12.78	82.69	16.28	-30.6	-34.0	12.9	3.73e-05	0	43	0	486539264	21	5316
2026-01-14 22:20:15.78	83.35	16.28	-30.5	-33.7	13.1	2.97e-05	0	43	0	491782144	21	5193
2026-01-14 22:20:18.80	84.02	16.27	-30.6	-33.8	13.1	3.58e-05	0	43	0	498073600	21	5229
2026-01-14 22:20:21.81	84.68	16.26	-30.5	-33.5	13.3	2.51e-05	0	43	0	503316480	21	5089
2026-01-14 22:20:24.82	85.35	16.25	-30.6	-33.9	13.0	1.83e-05	0	43	0	509607936	21	5254
2026-01-14 22:20:27.84	86.02	16.23	-30.7	-34.3	12.8	6.71e-05	0	43	0	514850816	21	5416
2026-01-14 22:20:30.86	86.68	16.20	-30.6	-33.9	13.0	4.11e-05	0	43	0	520093696	21	5279
2026-01-14 22:20:33.87	87.34	16.18	-30.4	-33.4	13.3	2.44e-05	0	43	0	526385152	21	5069
2026-01-14 22:20:36.88	88.00	16.15	-30.4	-33.4	13.3	1.52e-05	0	43	0	531628032	21	5063
2026-01-14 22:20:39.87	88.66	16.11	-30.5	-33.5	13.2	2.59e-05	0	43	0	536870912	21	5124
2026-01-14 22:20:42.89	89.32	16.08	-30.4	-33.3	13.4	9.90e-06	0	43	0	543162368	21	5031
2026-01-14 22:20:45.90	89.98	16.04	-30.3	-33.0	13.6	2.67e-05	0	43	0	548405248	21	4909
2026-01-14 22:20:48.91	90.63	15.99	-30.2	-32.9	13.6	1.67e-05	0	43	0	554696704	21	4911
2026-01-14 22:20:51.93	91.29	15.95	-30.2	-32.8	13.7	9.10e-06	0	43	0	559939584	21	4858
2026-01-14 22:20:54.93	91.94	15.90	-30.1	-32.5	13.9	5.26e-05	0	43	0	565182464	21	4753
2026-01-14 22:20:57.94	92.59	15.84	-30.2	-32.7	13.7	5.41e-05	0	43	0	571473920	21	4840
2026-01-14 22:21:00.95	93.23	15.78	-29.7	-32.1	14.5	3.35e-05	0	43	0	576716800	20	4716
2026-01-14 22:21:03.96	93.88	15.72	-30.0	-32.8	14.0	5.18e-05	0	43	0	583008256	20	4984
2026-01-14 22:21:06.97	94.52	15.66	-30.1	-33.0	13.8	3.54e-04	0	43	0	588251136	20	5053
2026-01-14 22:21:09.97	95.15	15.59	-30.0	-32.8	14.0	4.60e-04	0	43	0	593494016	20	4973
2026-01-14 22:21:12.97	95.79	15.52	-29.8	-32.2	14.4	7.00e-07	0	43	0	599785472	20	4753
2026-01-14 22:21:15.99	96.42	15.45	-29.5	-31.5	14.8	0.00e+00	0	43	0	605028352	20	4515
2026-01-14 22:21:18.99	97.05	15.37	-29.5	-31.5	14.7	0.00e+00	0	43	0	610271232	20	4536
2026-01-14 22:21:22.00	97.68	15.29	-29.7	-32.6	14.5	6.94e-05	0	43	0	616562688	19	4985
2026-01-14 22:21:25.02	98.30	15.21	-29.9	-33.1	14.1	8.85e-05	0	43	0	621805568	19	5184
2026-01-14 22:21:28.03	98.93	15.13	-29.9	-33.0	14.2	7.00e-07	0	43	0	628097024	19	5132
2026-01-14 22:21:31.04	99.54	15.04	-29.6	-32.3	14.6	0.00e+00	0	43	0	633339904	19	4900
2026-01-14 22:21:34.04	100.15	14.95	-29.6	-32.3	14.7	7.00e-07	0	43	0	638582784	19	4889
2026-01-14 22:21:37.04	100.76	14.86	-29.7	-32.6	14.5	0.00e+00	0	43	0	644874240	19	4994
2026-01-14 22:21:40.06	101.37	14.76	-30.0	-32.8	13.9	1.14e-04	0	43	0	650117120	20	4967
2026-01-14 22:21:43.08	101.97	14.66	-30.1	-33.2	13.7	1.14e-05	0	43	0	655360000	20	5115
2026-01-14 22:21:46.09	102.57	14.56	-30.3	-33.7	13.3	5.30e-06	0	43	0	661651456	20	5316
2026-01-14 22:21:49.09	103.16	14.46	-30.0	-32.8	13.8	6.80e-06	0	43	0	666894336	20	4997
2026-01-14 22:21:52.11	103.76	14.35	-30.0	-32.8	13.9	7.00e-07	0	43	0	673185792	20	4977
2026-01-14 22:21:55.11	104.34	14.24	-29.8	-32.3	14.2	7.00e-07	0	43	0	678428672	20	4812
2026-01-14 22:21:58.12	104.92	14.13	-30.2	-33.3	13.5	8.30e-06	0	43	0	683671552	20	5182
2026-01-14 22:22:01.13	105.50	14.02	-30.8	-34.5	12.4	1.72e-04	0	43	0	689963008	21	5537
2026-01-14 22:22:04.14	106.07	13.90	-31.1	-34.9	11.7	5.32e-04	0	43	0	695205888	22	5589
2026-01-14 22:22:07.14	106.64	13.79	-31.1	-35.1	11.6	6.12e-04	0	43	0	700448768	22	5679
2026-01-14 22:22:10.15	107.21	13.67	-31.2	-35.2	11.6	7.10e-04	0	43	0	706740224	22	5720
2026-01-14 22:22:13.15	107.76	13.55	-31.3	-35.5	11.3	8.77e-04	0	43	0	711983104	22	5846
2026-01-14 22:22:16.17	108.32	13.43	-30.7	-34.4	12.4	1.52e-04	0	43	0	718274560	21	5474
2026-01-14 22:22:19.19	108.88	13.30	-30.9	-34.8	12.1	2.66e-04	0	43	0	723517440	21	5651
2026-01-14 22:22:22.19	109.42	13.18	-31.0	-34.7	11.9	4.32e-04	0	43	0	728760320	22	5526
2026-01-14 22:22:25.18	109.96	13.05	-31.2	-35.3	11.5	8.47e-04	0	43	0	735051776	22	5766
2026-01-14 22:22:28.19	110.50	12.92	-31.4	-36.0	10.9	2.16e-03	0	43	0	740294656	22	6113
2026-01-14 22:22:31.20	111.03	12.79	-31.2	-35.5	11.3	1.55e-03	0	43	0	745537536	22	5864
2026-01-14 22:22:34.22	111.56	12.65	-30.9	-34.6	11.9	4.08e-04	0	43	0	751828992	22	5457
2026-01-14 22:22:37.22	112.08	12.52	-30.9	-34.6	11.9	3.34e-04	0	43	0	757071872	22	5473
2026-01-14 22:22:40.22	112.60	12.39	-30.9	-34.9	12.0	6.00e-04	0	43	0	763363328	21	5710
2026-01-14 22:22:43.22	113.12	12.25	-30.6	-34.2	12.4	1.31e-04	0	43	0	768606208	21	5450
2026-01-14 22:22:46.24	113.63	12.11	-30.7	-34.3	12.4	2.17e-04	0	43	0	773849088	21	5475
2026-01-14 22:22:49.25	114.13	11.97	-30.8	-34.8	12.0	3.80e-04	0	43	0	780140544	21	5687
2026-01-14 22:22:52.25	114.63	11.83	-31.0	-34.8	11.6	6.77e-04	0	43	0	785383424	22	5573
2026-01-14 22:22:55.26	115.13	11.69	-31.0	-34.9	11.6	7.16e-04	0	43	0	790626304	22	5612
2026-01-14 22:22:58.26	115.62	11.55	-31.0	-34.8	11.6	7.86e-04	0	43	0	796917760	22	5605
2026-01-14 22:23:01.27	116.11	11.40	-30.7	-34.4	12.2	5.62e-04	0	43	0	802160640	21	5542
2026-01-14 22:23:04.28	116.59	11.26	-30.3	-33.3	12.9	3.71e-04	0	43	0	808452096	21	5085
2026-01-14 22:23:07.29	117.07	11.11	-30.4	-34.0	12.8	7.49e-04	0	43	0	813694976	20	5477
2026-01-14 22:23:10.30	117.54	10.97	-30.7	-34.6	12.0	6.65e-04	0	43	0	818937856	21	5607
2026-01-14 22:23:13.31	118.01	10.82	-30.7	-34.6	12.0	3.54e-04	0	43	0	825229312	21	5638
2026-01-14 22:23:16.32	118.47	10.67	-30.7	-34.6	11.9	2.78e-04	0	43	0	830472192	21	5641
2026-01-14 22:23:19.33	118.93	10.52	-30.6	-34.3	12.1	2.97e-04	0	44	0	836763648	21	5524
2026-01-14 22:23:22.34	119.39	10.37	-30.5	-34.0	12.4	1.32e-04	0	43	0	842006528	21	5361
2026-01-14 22:23:25.35	119.84	10.22	-30.4	-33.6	12.6	8.62e-05	0	43	0	847249408	21	5215
2026-01-14 22:23:28.35	120.29	10.07	-30.3	-33.9	12.7	4.30e-04	0	43	0	853540864	20	5445
2026-01-14 22:23:31.36	120.73	9.92	-30.6	-34.3	12.1	2.08e-04	0	43	0	858783744	21	5517
2026-01-14 22:23:34.37	121.16	9.77	-30.8	-34.9	11.6	4.80e-04	0	43	0	864026624	21	5780
2026-01-14 22:23:37.38	121.60	9.61	-30.5	-33.9	12.3	1.88e-04	0	43	0	870318080	21	5342
2026-01-14 22:23:40.39	122.03	9.46	-30.3	-33.5	12.6	8.46e-05	0	43	0	875560960	21	5200
2026-01-14 22:23:43.39	122.45	9.31	-30.4	-33.6	12.5	8.16e-05	0	43	0	881852416	21	5231
2026-01-14 22:23:46.40	122.87	9.15	-30.6	-34.3	12.0	3.65e-04	0	43	0	887095296	21	5544
2026-01-14 22:23:49.42	123.29	9.00	-30.6	-34.4	11.9	4.29e-04	0	43	0	892338176	21	5587
2026-01-14 22:23:52.42	123.70	8.85	-30.4	-33.9	12.2	2.76e-04	0	43	0	898629632	21	5369
2026-01-14 22:23:55.42	124.10	8.69	-30.6	-34.3	11.9	2.91e-04	0	43	0	903872512	21	5550
2026-01-14 22:23:58.43	124.51	8.54	-30.7	-34.8	11.6	7.22e-04	0	43	0	909115392	21	5762
2026-01-14 22:24:01.43	124.90	8.38	-31.1	-35.7	10.5	3.12e-03	0	43	0	915406848	22	6109
2026-01-14 22:24:04.45	125.30	8.22	-30.8	-34.6	11.3	1.29e-03	0	43	0	920649728	22	5591
2026-01-14 22:24:07.46	125.69	8.07	-30.8	-34.6	11.3	1.12e-03	0	43	0	926941184	22	5587
2026-01-14 22:24:10.47	126.08	7.91	-31.0	-35.1	10.9	2.04e-03	0	43	0	932184064	22	5813
2026-01-14 22:24:13.47	126.46	7.76	-31.1	-35.5	10.6	3.75e-03	0	43	0	937426944	22	6016
2026-01-14 22:24:16.48	126.84	7.60	-30.9	-35.1	10.9	2.33e-03	0	43	0	943718400	22	5832
2026-01-14 22:24:19.49	127.22	7.44	-31.0	-35.5	10.5	3.03e-03	0	43	0	948961280	22	6028
2026-01-14 22:24:22.49	127.59	7.29	-31.2	-36.0	10.1	5.82e-03	0	43	0	954204160	22	6298
2026-01-14 22:24:25.50	127.95	7.13	-31.2	-36.2	10.0	6.03e-03	0	43	0	960495616	22	6382

#Closed at: 2026-01-14 22:24:28
#Recorded file [963 MB]: D:/data/31010_260115_011552.dat