passes_logs/2026/01/14/R2M6_AANII_01/R2M6_AANII_01__20260114_023308_FENGYUN_3D_rec.log

#Pass ID: 20260114_023308_FENGYUN 3D
#Satellite: FENGYUN 3D
#Configuration: FENGYUN 3D
#almurnet v.1.7.20240730
#Start time: 2026-01-14 02:33:09

#Version: 2.2.20231116
#Station: R2M6_AANII_01
#Location: 30.233357 lon 59.946436 lat
#TLE: 1 43010U 17072A   26013.31211337  .00000452  00000+0  23563-3 0  9990
#TLE: 2 43010  98.9934 345.1024 0002270 111.0315 249.1103 14.19696845423017

#Time	Az	El	Level	Level2	SNR	BER	BlckErr	Temp	State	Recorded	gain1	gain2
2026-01-14 02:33:09.88	17.97	7.12	-30.1	-33.3	5.4	7.90e-01	0	40	0	0	20	5216
2026-01-14 02:33:12.89	17.96	7.35	-30.9	-35.1	8.2	4.40e-02	0	41	0	5242880	21	5860
2026-01-14 02:33:15.91	17.95	7.59	-29.9	-33.2	10.4	6.80e-03	0	41	0	22020096	19	5228
2026-01-14 02:33:18.92	17.94	7.83	-28.7	-31.1	12.4	1.11e-04	0	41	0	38797312	17	4725
2026-01-14 02:33:21.93	17.93	8.07	-28.2	-30.4	13.2	1.72e-03	0	41	0	55574528	16	4610
2026-01-14 02:33:24.94	17.92	8.31	-28.4	-30.3	13.0	1.73e-03	0	41	0	73400320	17	4475
2026-01-14 02:33:27.95	17.91	8.55	-27.5	-29.1	14.1	0.00e+00	0	41	0	90177536	15	4366
2026-01-14 02:33:30.96	17.90	8.80	-27.0	-28.5	14.8	0.00e+00	0	41	0	106954752	14	4296
2026-01-14 02:33:33.96	17.89	9.05	-27.0	-28.6	14.7	1.35e-03	0	41	0	123731968	14	4324
2026-01-14 02:33:36.98	17.88	9.30	-27.2	-29.0	14.5	0.00e+00	0	41	0	140509184	14	4430
2026-01-14 02:33:40.07	17.86	9.56	-26.9	-28.9	14.9	0.00e+00	0	41	0	158334976	13	4525
2026-01-14 02:33:42.94	17.85	9.81	-26.8	-28.7	15.0	0.00e+00	0	41	0	174063616	13	4467
2026-01-14 02:33:46.09	17.84	10.08	-26.9	-28.7	15.0	0.00e+00	0	41	0	191889408	13	4466
2026-01-14 02:33:48.94	17.83	10.33	-27.1	-28.8	14.7	1.54e-03	0	41	0	207618048	14	4380
2026-01-14 02:33:52.08	17.81	10.61	-26.9	-28.4	15.0	0.00e+00	0	41	0	225443840	14	4254
2026-01-14 02:33:54.94	17.80	10.86	-26.8	-28.7	15.1	0.00e+00	0	42	0	241172480	13	4454
2026-01-14 02:33:58.09	17.78	11.15	-26.8	-28.7	15.1	0.00e+00	0	42	0	258998272	13	4452
2026-01-14 02:34:00.95	17.77	11.41	-26.9	-28.9	15.0	0.00e+00	0	42	0	274726912	13	4500
2026-01-14 02:34:04.10	17.75	11.70	-26.8	-28.6	15.2	0.00e+00	0	42	0	292552704	13	4428
2026-01-14 02:34:06.95	17.73	11.96	-26.7	-28.4	15.3	0.00e+00	0	42	0	309329920	13	4367
2026-01-14 02:34:10.11	17.71	12.26	-26.6	-28.2	15.4	0.00e+00	0	42	0	326107136	13	4323
2026-01-14 02:34:12.97	17.70	12.53	-26.6	-28.2	15.5	0.00e+00	0	42	0	342884352	13	4303
2026-01-14 02:34:16.13	17.68	12.84	-26.5	-27.9	15.6	0.00e+00	0	42	0	360710144	13	4244
2026-01-14 02:34:19.00	17.66	13.12	-26.4	-27.7	15.8	0.00e+00	0	42	0	376438784	13	4180
2026-01-14 02:34:22.14	17.64	13.43	-26.3	-27.9	16.0	0.00e+00	0	42	0	394264576	12	4352
2026-01-14 02:34:25.00	17.62	13.72	-26.3	-27.9	16.0	0.00e+00	0	42	0	409993216	12	4346
2026-01-14 02:34:28.16	17.60	14.04	-26.2	-27.6	16.2	0.00e+00	0	42	0	427819008	12	4266
2026-01-14 02:34:31.03	17.58	14.33	-26.1	-27.5	16.2	0.00e+00	0	42	0	444596224	12	4244
2026-01-14 02:34:34.17	17.55	14.66	-26.0	-27.3	16.4	0.00e+00	0	42	0	462422016	12	4193
2026-01-14 02:34:37.04	17.53	14.96	-26.0	-27.3	16.4	0.00e+00	0	42	0	478150656	12	4183
2026-01-14 02:34:40.20	17.51	15.30	-26.0	-27.4	16.4	0.00e+00	0	42	0	495976448	12	4203
2026-01-14 02:34:43.07	17.48	15.61	-26.2	-27.7	12.7	0.00e+00	0	42	0	511705088	12	4275
2026-01-14 02:34:46.21	17.45	15.96	-26.2	-27.7	16.2	0.00e+00	0	42	0	529530880	12	4276
2026-01-14 02:34:49.08	17.43	16.27	-26.0	-27.3	16.5	0.00e+00	0	42	0	546308096	12	4177
2026-01-14 02:34:52.22	17.40	16.63	-25.8	-27.3	16.8	1.31e-03	0	42	0	563085312	11	4292
2026-01-14 02:34:55.08	17.37	16.96	-25.9	-27.6	16.7	1.50e-03	0	42	0	579862528	11	4368
2026-01-14 02:34:58.24	17.34	17.32	-25.8	-27.3	16.8	1.38e-03	0	42	0	597688320	11	4295
2026-01-14 02:35:01.12	17.31	17.66	-25.7	-27.1	17.0	0.00e+00	0	42	0	613416960	11	4221
2026-01-14 02:35:04.25	17.28	18.04	-25.5	-26.8	17.1	1.35e-03	0	42	0	631242752	11	4148
2026-01-14 02:35:07.12	17.25	18.38	-25.4	-26.9	17.3	1.32e-03	0	42	0	646971392	10	4299
2026-01-14 02:35:10.27	17.22	18.77	-25.2	-26.7	17.5	0.00e+00	0	42	0	664797184	10	4233
2026-01-14 02:35:13.14	17.18	19.13	-25.0	-26.1	17.8	1.33e-03	0	42	0	681574400	10	4075
2026-01-14 02:35:16.30	17.14	19.53	-24.8	-26.1	18.0	1.29e-03	0	42	0	699400192	9	4204
2026-01-14 02:35:19.17	17.11	19.90	-24.7	-25.9	18.2	1.13e-03	0	42	0	715128832	9	4135
2026-01-14 02:35:22.30	17.07	20.31	-24.6	-25.7	18.3	0.00e+00	0	43	0	732954624	9	4102
2026-01-14 02:35:25.16	17.03	20.69	-24.7	-25.9	18.1	1.23e-03	0	43	0	748683264	9	4156
2026-01-14 02:35:28.31	16.99	21.11	-24.5	-25.6	18.4	0.00e+00	0	42	0	766509056	9	4070
2026-01-14 02:35:31.17	16.95	21.51	-24.5	-25.6	18.4	1.26e-03	0	43	0	783286272	9	4060
2026-01-14 02:35:34.31	16.90	21.95	-24.4	-25.3	18.5	0.00e+00	0	43	0	800063488	9	4008
2026-01-14 02:35:37.17	16.86	22.35	-24.4	-25.4	18.5	0.00e+00	0	43	0	816840704	9	4025
2026-01-14 02:35:40.32	16.81	22.81	-24.4	-25.4	18.5	0.00e+00	0	43	0	834666496	9	4017
2026-01-14 02:35:43.18	16.76	23.23	-24.3	-25.6	18.6	0.00e+00	0	43	0	850395136	8	4188
2026-01-14 02:35:46.34	16.71	23.70	-24.2	-25.5	18.7	0.00e+00	0	43	0	868220928	8	4145
2026-01-14 02:35:49.21	16.66	24.13	-24.1	-25.1	18.9	0.00e+00	0	42	0	883949568	8	4062
2026-01-14 02:35:52.36	16.60	24.62	-24.2	-25.3	18.9	0.00e+00	0	42	0	901775360	8	4104
2026-01-14 02:35:55.23	16.55	25.07	-24.2	-25.4	18.8	0.00e+00	0	42	0	918552576	8	4125
2026-01-14 02:35:58.38	16.49	25.58	-24.3	-25.6	18.8	0.00e+00	0	43	0	935329792	8	4179
2026-01-14 02:36:01.24	16.43	26.05	-24.2	-24.9	18.8	0.00e+00	0	43	0	952107008	9	3912
2026-01-14 02:36:04.39	16.37	26.57	-24.1	-25.1	19.0	0.00e+00	0	43	0	969932800	8	4058
2026-01-14 02:36:07.26	16.30	27.06	-24.0	-25.1	19.1	0.00e+00	0	43	0	985661440	8	4048
2026-01-14 02:36:10.40	16.23	27.60	-24.0	-24.9	19.1	0.00e+00	0	43	0	1003487232	8	4021
2026-01-14 02:36:13.27	16.17	28.10	-24.0	-24.9	19.2	0.00e+00	0	43	0	1019215872	8	4008
2026-01-14 02:36:16.42	16.09	28.67	-24.0	-25.0	19.2	0.00e+00	0	43	0	1037041664	8	4020
2026-01-14 02:36:19.29	16.02	29.19	-24.2	-25.5	18.9	0.00e+00	0	43	0	1053818880	8	4152
2026-01-14 02:36:22.45	15.93	29.78	-24.1	-25.1	18.9	0.00e+00	0	43	0	1070596096	8	4069
2026-01-14 02:36:25.32	15.85	30.33	-24.1	-25.1	19.1	0.00e+00	0	43	0	1087373312	8	4068
2026-01-14 02:36:28.48	15.76	30.94	-23.7	-24.8	19.5	0.00e+00	0	43	0	1105199104	7	4086
2026-01-14 02:36:31.34	15.68	31.51	-23.9	-25.3	19.3	0.00e+00	0	43	0	1120927744	7	4214
2026-01-14 02:36:34.49	15.58	32.15	-24.0	-24.9	19.2	0.00e+00	0	43	0	1138753536	8	4009
2026-01-14 02:36:37.36	15.49	32.74	-24.1	-25.2	19.1	0.00e+00	0	43	0	1154482176	8	4071
2026-01-14 02:36:40.50	15.38	33.40	-23.7	-24.3	19.5	0.00e+00	0	43	0	1172307968	8	3859
2026-01-14 02:36:43.35	15.28	34.02	-23.6	-24.7	19.6	0.00e+00	0	43	0	1189085184	7	4072
2026-01-14 02:36:46.49	15.17	34.71	-23.5	-24.4	19.7	0.00e+00	0	43	0	1205862400	7	3990
2026-01-14 02:36:49.36	15.06	35.35	-23.5	-24.3	19.8	0.00e+00	0	43	0	1222639616	7	3983
2026-01-14 02:36:52.51	14.93	36.07	-23.3	-24.5	19.9	0.00e+00	0	43	0	1240465408	6	4124
2026-01-14 02:36:55.37	14.81	36.75	-23.4	-24.7	19.8	0.00e+00	0	43	0	1256194048	6	4173
2026-01-14 02:36:58.52	14.67	37.50	-23.4	-24.8	19.8	0.00e+00	0	43	0	1274019840	6	4209
2026-01-14 02:37:01.39	14.53	38.20	-23.2	-23.7	20.1	0.00e+00	0	43	0	1289748480	7	3841
2026-01-14 02:37:04.54	14.38	38.99	-22.9	-23.8	20.3	0.00e+00	0	43	0	1307574272	6	3956
2026-01-14 02:37:07.41	14.23	39.72	-23.3	-24.5	19.9	0.00e+00	0	43	0	1324351488	6	4140
2026-01-14 02:37:10.56	14.06	40.55	-23.7	-24.8	19.5	0.00e+00	0	43	0	1341128704	7	4103
2026-01-14 02:37:13.43	13.90	41.32	-24.1	-25.2	19.2	0.00e+00	0	43	0	1357905920	8	4076
2026-01-14 02:37:16.58	13.71	42.18	-23.7	-24.4	19.6	0.00e+00	0	43	0	1375731712	8	3879
2026-01-14 02:37:19.44	13.52	42.97	-23.8	-24.6	19.5	0.00e+00	0	43	0	1391460352	8	3925
2026-01-14 02:37:22.60	13.31	43.88	-23.9	-24.7	19.4	0.00e+00	0	43	0	1409286144	8	3948
2026-01-14 02:37:25.46	13.11	44.71	-23.8	-24.5	19.5	0.00e+00	0	43	0	1425014784	8	3919
2026-01-14 02:37:28.61	12.87	45.65	-23.8	-24.5	19.5	0.00e+00	0	43	0	1442840576	8	3922
2026-01-14 02:37:31.49	12.64	46.53	-23.9	-24.7	19.5	0.00e+00	0	43	0	1459617792	8	3953
2026-01-14 02:37:34.64	12.37	47.51	-23.6	-24.2	19.7	0.00e+00	0	43	0	1477443584	8	3838
2026-01-14 02:37:37.51	12.11	48.43	-24.0	-24.9	19.3	0.00e+00	0	43	0	1493172224	8	4008
2026-01-14 02:37:40.66	11.80	49.45	-24.0	-24.9	19.3	0.00e+00	0	43	0	1510998016	8	4009
2026-01-14 02:37:43.52	11.50	50.40	-24.6	-25.8	18.6	0.00e+00	0	43	0	1527775232	9	4119
2026-01-14 02:37:46.67	11.15	51.47	-24.4	-25.3	18.9	0.00e+00	0	43	0	1544552448	9	3997
2026-01-14 02:37:49.53	10.81	52.47	-25.3	-26.7	17.9	0.00e+00	0	43	0	1561329664	10	4222
2026-01-14 02:37:52.67	10.41	53.58	-24.8	-25.6	18.5	0.00e+00	0	43	0	1579155456	10	3955
2026-01-14 02:37:55.53	10.01	54.61	-25.9	-27.6	17.2	0.00e+00	0	43	0	1594884096	11	4352
2026-01-14 02:37:58.67	9.54	55.76	-25.4	-26.4	17.8	0.00e+00	0	43	0	1612709888	11	4034
2026-01-14 02:38:01.55	9.07	56.84	-24.9	-25.4	18.3	0.00e+00	0	43	0	1628438528	11	3812
2026-01-14 02:38:04.69	8.51	58.04	-24.3	-25.1	19.0	0.00e+00	0	43	0	1646264320	9	3952
2026-01-14 02:38:07.55	7.95	59.15	-24.3	-25.1	19.0	0.00e+00	0	43	0	1661992960	9	3947
2026-01-14 02:38:10.69	7.29	60.40	-23.8	-24.5	19.5	0.00e+00	0	43	0	1679818752	8	3910
2026-01-14 02:38:13.55	6.62	61.54	-24.2	-25.5	19.1	0.00e+00	0	43	0	1695547392	8	4153
2026-01-14 02:38:16.69	5.81	62.82	-24.2	-25.5	19.0	0.00e+00	0	43	0	1713373184	8	4155
2026-01-14 02:38:19.56	4.99	64.01	-23.7	-24.3	19.6	0.00e+00	0	43	0	1730150400	8	3870
2026-01-14 02:38:22.73	3.97	65.34	-23.2	-23.7	20.2	0.00e+00	0	43	0	1747976192	7	3837
2026-01-14 02:38:25.59	2.94	66.55	-23.5	-24.5	19.7	0.00e+00	0	43	0	1763704832	7	4022
2026-01-14 02:38:28.74	1.67	67.89	-22.5	-23.4	20.7	0.00e+00	0	43	0	1781530624	5	3990
2026-01-14 02:38:31.61	0.35	69.12	-22.4	-23.2	20.9	0.00e+00	0	43	0	1797259264	5	3937
2026-01-14 02:38:34.77	358.68	70.49	-22.5	-23.4	20.8	6.91e-04	0	43	0	1815085056	5	3966
2026-01-14 02:38:37.62	356.95	71.72	-22.1	-22.6	21.2	0.00e+00	0	43	0	1831862272	5	3800
2026-01-14 02:38:40.78	354.71	73.07	-22.2	-22.8	21.1	0.00e+00	0	43	0	1849688064	5	3842
2026-01-14 02:38:43.65	352.33	74.30	-22.7	-23.7	20.7	0.00e+00	0	43	0	1865416704	5	4060
2026-01-14 02:38:46.80	349.23	75.62	-22.1	-23.1	21.2	4.27e-04	0	43	0	1883242496	4	4019
2026-01-14 02:38:49.66	345.86	76.78	-21.4	-22.1	21.9	3.20e-04	0	43	0	1898971136	3	3898
2026-01-14 02:38:52.81	341.37	78.02	-21.3	-21.9	22.0	1.54e-04	0	43	0	1916796928	3	3844
2026-01-14 02:38:55.68	336.40	79.07	-21.2	-21.6	22.2	0.00e+00	0	43	0	1933574144	3	3793
2026-01-14 02:38:58.83	329.75	80.12	-20.7	-21.1	22.7	1.18e-04	0	43	0	1950351360	2	3777
2026-01-14 02:39:01.70	322.41	80.94	-20.6	-21.0	22.7	0.00e+00	0	43	0	1967128576	2	3752
2026-01-14 02:39:04.84	312.87	81.64	-20.3	-20.8	22.9	1.10e-06	0	43	0	1984954368	1	3822
2026-01-14 02:39:07.71	302.90	82.05	-20.9	-22.1	22.4	2.83e-04	0	43	0	2000683008	1	4118
2026-01-14 02:39:10.87	291.12	82.20	-21.4	-22.5	21.9	0.00e+00	0	43	0	2018508800	2	4117
2026-01-14 02:39:13.75	280.38	82.05	-21.4	-22.6	21.9	0.00e+00	0	43	0	2034237440	2	4128
2026-01-14 02:39:16.91	269.48	81.59	-21.7	-22.1	21.6	7.04e-04	0	43	0	2052063232	4	3786
2026-01-14 02:39:19.77	260.86	80.94	-20.7	-21.2	22.5	1.14e-03	0	43	0	2068840448	2	3810
2026-01-14 02:39:22.91	252.90	80.03	-20.7	-21.1	22.5	0.00e+00	0	43	0	2085617664	2	3791
2026-01-14 02:39:25.78	246.90	79.07	-20.8	-21.3	22.4	0.00e+00	0	43	0	2102394880	2	3828
2026-01-14 02:39:28.93	241.49	77.90	-20.8	-21.4	22.4	0.00e+00	0	43	0	2120220672	2	3843
2026-01-14 02:39:31.78	237.47	76.78	-21.2	-22.1	22.0	0.00e+00	0	43	0	2135949312	2	4020
2026-01-14 02:39:34.92	233.80	75.50	-21.5	-22.8	21.7	0.00e+00	0	43	0	2153775104	2	4172
2026-01-14 02:39:37.78	231.00	74.30	-21.7	-22.6	21.5	0.00e+00	0	43	0	2169503744	3	4016
2026-01-14 02:39:40.92	228.41	72.96	-21.9	-23.1	21.3	0.00e+00	0	43	0	2187329536	3	4128
2026-01-14 02:39:43.78	226.39	71.72	-21.8	-22.3	21.3	0.00e+00	0	43	0	2204106752	4	3847
2026-01-14 02:39:46.94	224.48	70.36	-22.4	-23.7	20.7	0.00e+00	0	43	0	2220883968	4	4174
2026-01-14 02:39:49.81	222.98	69.12	-22.9	-24.2	20.2	0.00e+00	0	43	0	2237661184	5	4179
2026-01-14 02:39:52.95	221.54	67.77	-22.3	-23.4	20.8	0.00e+00	0	43	0	2255486976	4	4101
2026-01-14 02:39:55.80	220.39	66.55	-22.1	-23.0	21.0	0.00e+00	0	43	0	2271215616	4	3995
2026-01-14 02:39:58.96	219.25	65.21	-22.1	-22.6	21.0	0.00e+00	0	43	0	2289041408	5	3800
2026-01-14 02:40:01.83	218.34	64.00	-22.6	-23.6	20.5	0.00e+00	0	43	0	2304770048	5	4027
2026-01-14 02:40:04.98	217.44	62.70	-22.6	-23.5	20.5	0.00e+00	0	43	0	2322595840	5	4009
2026-01-14 02:40:07.84	216.70	61.53	-22.8	-24.0	20.3	0.00e+00	0	43	0	2339373056	5	4125
2026-01-14 02:40:11.00	215.96	60.26	-22.9	-24.2	20.2	0.00e+00	0	43	0	2356150272	5	4176
2026-01-14 02:40:13.87	215.36	59.12	-23.4	-24.8	19.7	0.00e+00	0	43	0	2372927488	6	4215
2026-01-14 02:40:17.02	214.75	57.90	-24.2	-25.3	18.9	0.00e+00	0	43	0	2390753280	8	4117
2026-01-14 02:40:19.89	214.24	56.80	-24.2	-25.5	18.9	0.00e+00	0	43	0	2406481920	8	4151
2026-01-14 02:40:23.05	213.72	55.61	-24.2	-25.4	18.9	0.00e+00	0	43	0	2424307712	8	4136
2026-01-14 02:40:25.92	213.29	54.55	-24.0	-25.0	19.1	0.00e+00	0	43	0	2441084928	8	4040
2026-01-14 02:40:29.06	212.86	53.42	-24.2	-25.5	18.8	0.00e+00	0	43	0	2457862144	8	4148
2026-01-14 02:40:31.93	212.49	52.40	-24.0	-25.0	19.1	0.00e+00	0	43	0	2474639360	8	4026
2026-01-14 02:40:35.08	212.11	51.30	-23.7	-24.4	19.3	6.35e-04	0	43	0	2492465152	8	3890
2026-01-14 02:40:37.95	211.79	50.33	-23.5	-24.3	19.6	5.86e-04	0	43	0	2508193792	7	3977
2026-01-14 02:40:41.08	211.47	49.28	-23.3	-24.5	19.7	3.67e-04	0	43	0	2526019584	6	4156
2026-01-14 02:40:43.95	211.19	48.35	-23.0	-23.9	20.0	0.00e+00	0	43	0	2541748224	6	3986
2026-01-14 02:40:47.12	210.90	47.34	-23.4	-24.8	19.6	2.99e-04	0	43	0	2559574016	6	4203
2026-01-14 02:40:49.98	210.66	46.44	-23.3	-24.5	19.7	3.12e-04	0	43	0	2576351232	6	4142
2026-01-14 02:40:53.12	210.40	45.48	-23.2	-24.3	19.8	0.00e+00	0	43	0	2594177024	6	4094
2026-01-14 02:40:55.98	210.19	44.63	-23.3	-24.6	19.6	3.12e-04	0	43	0	2609905664	6	4174
2026-01-14 02:40:59.13	209.96	43.71	-23.3	-24.6	19.6	2.06e-04	0	43	0	2627731456	6	4166
2026-01-14 02:41:02.00	209.77	42.88	-23.2	-24.4	19.7	1.25e-04	0	43	0	2643460096	6	4103
2026-01-14 02:41:05.16	209.57	42.00	-23.1	-24.2	19.8	0.00e+00	0	43	0	2661285888	6	4063
2026-01-14 02:41:08.03	209.39	41.21	-23.1	-24.1	19.9	2.46e-04	0	43	0	2678063104	6	4047
2026-01-14 02:41:11.19	209.21	40.37	-23.0	-23.9	20.0	0.00e+00	0	43	0	2694840320	6	3990
2026-01-14 02:41:14.06	209.06	39.62	-22.9	-23.8	20.0	0.00e+00	0	43	0	2711617536	6	3966
2026-01-14 02:41:17.21	208.89	38.81	-22.8	-23.4	20.2	0.00e+00	0	43	0	2729443328	6	3889
2026-01-14 02:41:20.07	208.75	38.09	-22.9	-23.7	20.0	6.77e-04	0	43	0	2745171968	6	3946
2026-01-14 02:41:23.22	208.61	37.32	-22.6	-23.6	20.3	0.00e+00	0	43	0	2762997760	5	4040
2026-01-14 02:41:26.09	208.48	36.63	-22.5	-23.4	20.4	0.00e+00	0	43	0	2778726400	5	3990
2026-01-14 02:41:29.25	208.34	35.89	-22.7	-23.9	20.2	0.00e+00	0	43	0	2796552192	5	4097
2026-01-14 02:41:32.11	208.23	35.23	-23.0	-24.4	20.0	0.00e+00	0	43	0	2813329408	5	4227
2026-01-14 02:41:35.26	208.10	34.52	-23.2	-24.4	19.7	0.00e+00	0	43	0	2830106624	6	4119
2026-01-14 02:41:38.13	208.00	33.89	-23.3	-24.5	19.7	0.00e+00	0	43	0	2846883840	6	4138
2026-01-14 02:41:41.27	207.88	33.21	-23.2	-24.2	19.7	0.00e+00	0	43	0	2864709632	6	4074
2026-01-14 02:41:44.13	207.79	32.61	-23.1	-24.2	19.8	0.00e+00	0	43	0	2880438272	6	4067
2026-01-14 02:41:47.27	207.68	31.96	-23.2	-24.4	19.7	0.00e+00	0	43	0	2898264064	6	4119
2026-01-14 02:41:50.13	207.59	31.38	-23.3	-24.6	19.6	0.00e+00	0	43	0	2913992704	6	4161
2026-01-14 02:41:53.28	207.50	30.75	-23.4	-24.7	19.5	0.00e+00	0	43	0	2931818496	6	4189
2026-01-14 02:41:56.14	207.42	30.20	-23.1	-24.2	19.8	0.00e+00	0	43	0	2948595712	6	4059
2026-01-14 02:41:59.28	207.33	29.60	-23.0	-24.0	19.9	0.00e+00	0	43	0	2965372928	6	4016
2026-01-14 02:42:02.15	207.25	29.06	-23.1	-24.2	19.8	0.00e+00	0	43	0	2982150144	6	4058
2026-01-14 02:42:05.30	207.17	28.48	-23.2	-24.4	19.6	1.46e-04	0	43	0	2999975936	6	4122
2026-01-14 02:42:08.16	207.10	27.97	-23.4	-24.7	19.5	0.00e+00	0	43	0	3015704576	6	4206
2026-01-14 02:42:11.30	207.03	27.41	-23.6	-24.6	19.3	0.00e+00	0	43	0	3033530368	7	4064
2026-01-14 02:42:14.17	206.96	26.92	-23.7	-24.8	19.2	0.00e+00	0	43	0	3049259008	7	4105
2026-01-14 02:42:17.31	206.89	26.38	-23.5	-24.6	19.3	0.00e+00	0	43	0	3067084800	7	4043
2026-01-14 02:42:20.17	206.83	25.91	-23.8	-25.0	19.0	0.00e+00	0	43	0	3083862016	7	4146
2026-01-14 02:42:23.33	206.76	25.39	-23.4	-24.3	19.3	0.00e+00	0	43	0	3100639232	7	3989
2026-01-14 02:42:26.20	206.71	24.93	-23.5	-24.5	19.3	0.00e+00	0	43	0	3117416448	7	4026
2026-01-14 02:42:29.34	206.65	24.43	-23.6	-24.7	19.1	0.00e+00	0	43	0	3135242240	7	4090
2026-01-14 02:42:32.20	206.59	23.99	-23.7	-24.8	19.1	0.00e+00	0	43	0	3150970880	7	4110
2026-01-14 02:42:35.35	206.54	23.51	-23.8	-25.1	18.9	0.00e+00	0	43	0	3168796672	7	4179
2026-01-14 02:42:38.20	206.49	23.08	-23.8	-25.2	18.8	0.00e+00	0	43	0	3184525312	7	4202
2026-01-14 02:42:41.35	206.44	22.62	-24.5	-25.5	18.2	0.00e+00	0	43	0	3202351104	9	4056
2026-01-14 02:42:44.22	206.39	22.20	-24.2	-25.5	18.5	0.00e+00	0	43	0	3219128320	8	4168
2026-01-14 02:42:47.37	206.34	21.76	-24.1	-25.2	18.6	0.00e+00	0	43	0	3235905536	8	4089
2026-01-14 02:42:50.24	206.30	21.36	-24.4	-25.8	18.3	0.00e+00	0	43	0	3252682752	8	4238
2026-01-14 02:42:53.39	206.25	20.92	-24.2	-25.5	18.4	0.00e+00	0	43	0	3270508544	8	4166
2026-01-14 02:42:56.26	206.21	20.53	-24.2	-25.5	18.4	0.00e+00	0	43	0	3286237184	8	4179
2026-01-14 02:42:59.42	206.17	20.11	-24.2	-25.5	18.3	1.83e-05	0	43	0	3304062976	8	4169
2026-01-14 02:43:02.28	206.13	19.74	-24.3	-25.7	18.3	3.20e-05	0	43	0	3319791616	8	4209
2026-01-14 02:43:05.42	206.09	19.33	-24.6	-25.7	18.0	0.00e+00	0	43	0	3337617408	9	4107
2026-01-14 02:43:08.29	206.05	18.97	-24.6	-25.8	18.0	0.00e+00	0	43	0	3354394624	9	4117
2026-01-14 02:43:11.45	206.01	18.57	-24.7	-26.0	17.8	6.80e-06	0	43	0	3371171840	9	4180
2026-01-14 02:43:14.31	205.98	18.22	-24.9	-26.4	17.6	0.00e+00	0	43	0	3387949056	9	4278
2026-01-14 02:43:17.47	205.94	17.84	-24.9	-25.9	17.6	8.00e-06	0	43	0	3405774848	10	4051
2026-01-14 02:43:20.33	205.91	17.49	-25.0	-26.6	17.4	0.00e+00	0	43	0	3421503488	9	4331
2026-01-14 02:43:23.49	205.88	17.12	-25.1	-26.4	17.3	3.40e-06	0	43	0	3439329280	10	4175
2026-01-14 02:43:26.35	205.85	16.79	-25.2	-26.6	17.2	2.20e-06	0	43	0	3455057920	10	4217
2026-01-14 02:43:29.49	205.82	16.43	-25.3	-26.8	17.0	0.00e+00	0	43	0	3472883712	10	4286
2026-01-14 02:43:32.36	205.79	16.11	-25.4	-27.1	16.9	0.00e+00	0	43	0	3489660928	10	4353
2026-01-14 02:43:35.51	205.76	15.75	-25.6	-27.0	16.7	0.00e+00	0	43	0	3506438144	11	4212
2026-01-14 02:43:38.37	205.73	15.44	-25.6	-27.0	16.7	2.20e-06	0	43	0	3523215360	11	4218
2026-01-14 02:43:41.52	205.70	15.10	-25.8	-27.4	16.4	0.00e+00	0	43	0	3541041152	11	4331
2026-01-14 02:43:44.39	205.68	14.79	-25.7	-27.3	16.5	0.00e+00	0	43	0	3556769792	11	4294
2026-01-14 02:43:47.54	205.65	14.46	-25.8	-27.4	16.4	0.00e+00	0	43	0	3574595584	11	4335
2026-01-14 02:43:50.40	205.63	14.16	-25.6	-27.0	16.6	0.00e+00	0	43	0	3590324224	11	4233
2026-01-14 02:43:53.56	205.60	13.84	-25.7	-27.2	16.4	0.00e+00	0	43	0	3608150016	11	4277
2026-01-14 02:43:56.42	205.58	13.54	-25.9	-27.5	16.3	0.00e+00	0	43	0	3624927232	11	4358
2026-01-14 02:43:59.58	205.55	13.23	-25.8	-27.4	14.3	0.00e+00	0	43	0	3642753024	11	4327
2026-01-14 02:44:02.45	205.53	12.94	-25.9	-27.7	16.2	0.00e+00	0	43	0	3658481664	11	4404
2026-01-14 02:44:05.61	205.51	12.63	-25.9	-27.1	16.1	1.24e-03	0	43	0	3676307456	12	4136
2026-01-14 02:44:08.47	205.49	12.36	-26.0	-27.7	16.1	0.00e+00	0	43	0	3693084672	11	4415
2026-01-14 02:44:11.62	205.47	12.06	-26.0	-27.4	15.9	0.00e+00	0	43	0	3709861888	12	4235
2026-01-14 02:44:14.49	205.45	11.78	-25.9	-27.2	15.9	0.00e+00	0	43	0	3726639104	12	4174
2026-01-14 02:44:17.65	205.43	11.49	-26.1	-27.6	15.8	1.17e-03	0	43	0	3744464896	12	4280
2026-01-14 02:44:20.52	205.41	11.22	-26.2	-27.7	15.7	0.00e+00	0	43	0	3760193536	12	4314
2026-01-14 02:44:23.67	205.39	10.94	-26.2	-27.9	15.6	1.26e-03	0	43	0	3778019328	12	4355
2026-01-14 02:44:26.53	205.38	10.68	-26.3	-28.1	15.5	0.00e+00	0	43	0	3793747968	12	4408
2026-01-14 02:44:29.69	205.36	10.40	-26.3	-28.0	15.5	1.38e-03	0	43	0	3811573760	12	4384
2026-01-14 02:44:32.57	205.34	10.14	-26.4	-28.3	15.3	0.00e+00	0	43	0	3828350976	12	4462
2026-01-14 02:44:35.72	205.33	9.87	-26.5	-28.5	15.2	1.24e-03	0	43	0	3846176768	12	4523
2026-01-14 02:44:38.58	205.31	9.62	-26.6	-28.2	15.0	1.52e-03	0	43	0	3861905408	13	4326
2026-01-14 02:44:41.73	205.29	9.35	-26.7	-28.4	14.9	0.00e+00	0	43	0	3879731200	13	4382
2026-01-14 02:44:44.59	205.28	9.11	-26.8	-28.7	14.7	1.39e-03	0	43	0	3895459840	13	4474
2026-01-14 02:44:47.75	205.26	8.84	-27.2	-29.2	14.2	1.52e-03	0	43	0	3913285632	14	4501
2026-01-14 02:44:50.61	205.25	8.61	-27.2	-29.1	14.1	1.59e-03	0	43	0	3929014272	14	4495
2026-01-14 02:44:53.77	205.24	8.35	-27.4	-29.0	13.9	3.40e-06	0	43	0	3947888640	15	4359
2026-01-14 02:44:56.63	205.22	8.11	-27.6	-29.5	13.6	8.00e-06	0	43	0	3963617280	15	4490
2026-01-14 02:44:59.78	205.21	7.86	-27.4	-29.6	13.8	6.80e-06	0	43	0	3981443072	14	4654
2026-01-14 02:45:02.63	205.20	7.63	-27.7	-29.9	13.3	1.51e-03	0	43	0	3997171712	15	4628
2026-01-14 02:45:05.79	205.18	7.38	-27.8	-30.1	13.1	2.17e-05	0	43	0	4014997504	15	4687
2026-01-14 02:45:08.64	205.17	7.16	-27.4	-29.2	13.6	2.20e-06	0	43	0	4030726144	15	4421

#Closed at: 2026-01-14 02:45:11
#Recorded file [4035 MB]: D:/data/31010_260114_053311.dat