passes_logs/2026/01/14/R2M6_AANII_01/R2M6_AANII_01__20260114_140759_FENGYUN_3D_rec.log

#Pass ID: 20260114_140759_FENGYUN 3D
#Satellite: FENGYUN 3D
#Configuration: FENGYUN 3D
#almurnet v.1.7.20240730
#Start time: 2026-01-14 14:07:59

#Version: 2.2.20231116
#Station: R2M6_AANII_01
#Location: 30.233357 lon 59.946436 lat
#TLE: 1 43010U 17072A   26013.59402220  .00000029  00000+0  35477-4 0  9991
#TLE: 2 43010  98.9934 345.3884 0002280 110.7757 249.3663 14.19695359423056

#Time	Az	El	Level	Level2	SNR	BER	BlckErr	Temp	State	Recorded	gain1	gain2
2026-01-14 14:07:59.58	218.77	7.01	-28.1	-30.4	5.7	7.54e-01	0	40	0	0	16	4691
2026-01-14 14:08:02.58	219.09	7.19	-30.1	-33.7	9.1	2.26e-02	0	41	0	5242880	20	5406
2026-01-14 14:08:05.59	219.40	7.37	-29.3	-31.7	10.9	4.75e-03	0	40	0	22020096	19	4759
2026-01-14 14:08:08.59	219.73	7.55	-28.1	-29.8	12.8	1.11e-04	0	41	0	38797312	17	4370
2026-01-14 14:08:11.59	220.05	7.73	-27.4	-28.7	13.8	9.10e-06	0	41	0	55574528	16	4163
2026-01-14 14:08:14.60	220.38	7.91	-27.5	-28.7	13.8	6.80e-06	0	41	0	73400320	16	4163
2026-01-14 14:08:17.60	220.71	8.09	-27.0	-28.2	14.2	2.20e-06	0	41	0	90177536	15	4130
2026-01-14 14:08:20.61	221.05	8.28	-26.8	-27.8	14.5	1.10e-06	0	41	0	106954752	15	4023
2026-01-14 14:08:23.63	221.39	8.46	-26.6	-27.7	14.9	0.00e+00	0	41	0	123731968	14	4096
2026-01-14 14:08:26.64	221.74	8.65	-26.6	-27.9	14.8	0.00e+00	0	41	0	140509184	14	4141
2026-01-14 14:08:29.65	222.09	8.83	-26.7	-28.0	14.8	0.00e+00	0	41	0	157286400	14	4168
2026-01-14 14:08:32.65	222.44	9.02	-26.6	-27.7	14.9	0.00e+00	0	41	0	174063616	14	4105
2026-01-14 14:08:35.65	222.80	9.20	-26.5	-27.5	15.1	0.00e+00	0	41	0	190840832	14	4041
2026-01-14 14:08:38.67	223.17	9.39	-26.4	-27.2	15.2	0.00e+00	0	42	0	208666624	14	3978
2026-01-14 14:08:41.69	223.54	9.57	-26.3	-27.6	15.3	0.00e+00	0	41	0	225443840	13	4174
2026-01-14 14:08:44.70	223.91	9.76	-26.4	-27.8	15.2	0.00e+00	0	41	0	242221056	13	4223
2026-01-14 14:08:47.71	224.29	9.95	-26.3	-27.6	15.3	0.00e+00	0	42	0	258998272	13	4174
2026-01-14 14:08:50.72	224.67	10.13	-26.3	-27.5	15.4	0.00e+00	0	42	0	275775488	13	4137
2026-01-14 14:08:53.73	225.05	10.32	-26.3	-27.5	15.4	0.00e+00	0	42	0	292552704	13	4156
2026-01-14 14:08:56.73	225.44	10.51	-26.4	-27.7	15.3	0.00e+00	0	42	0	310378496	13	4210
2026-01-14 14:08:59.76	225.84	10.70	-26.3	-27.7	15.3	0.00e+00	0	42	0	327155712	13	4194
2026-01-14 14:09:02.77	226.24	10.89	-26.0	-26.9	15.8	0.00e+00	0	42	0	343932928	13	3999
2026-01-14 14:09:05.78	226.65	11.08	-26.1	-27.0	15.7	0.00e+00	0	42	0	360710144	13	4022
2026-01-14 14:09:08.78	227.06	11.26	-26.1	-27.1	15.7	0.00e+00	0	42	0	377487360	13	4032
2026-01-14 14:09:11.79	227.48	11.45	-26.1	-27.1	15.7	0.00e+00	0	42	0	394264576	13	4055
2026-01-14 14:09:14.79	227.90	11.64	-26.1	-27.2	15.7	0.00e+00	0	42	0	411041792	13	4064
2026-01-14 14:09:17.79	228.32	11.83	-26.3	-27.6	15.4	0.00e+00	0	42	0	428867584	13	4167
2026-01-14 14:09:20.80	228.76	12.02	-26.3	-27.6	15.5	0.00e+00	0	42	0	445644800	13	4165
2026-01-14 14:09:23.82	229.20	12.21	-26.1	-27.1	15.7	0.00e+00	0	42	0	462422016	13	4043
2026-01-14 14:09:26.82	229.64	12.40	-25.9	-26.7	15.9	0.00e+00	0	42	0	479199232	13	3947
2026-01-14 14:09:29.82	230.09	12.59	-25.8	-26.9	16.2	0.00e+00	0	42	0	495976448	12	4091
2026-01-14 14:09:32.84	230.54	12.77	-25.7	-26.6	16.3	0.00e+00	0	42	0	512753664	12	4025
2026-01-14 14:09:35.85	231.00	12.96	-25.8	-27.0	16.1	0.00e+00	0	42	0	529530880	12	4111
2026-01-14 14:09:38.86	231.47	13.15	-25.4	-26.2	16.6	0.00e+00	0	42	0	546308096	12	3909
2026-01-14 14:09:41.87	231.94	13.34	-25.7	-26.7	16.3	0.00e+00	0	42	0	564133888	12	4040
2026-01-14 14:09:44.87	232.42	13.53	-25.6	-26.5	16.4	0.00e+00	0	42	0	580911104	12	3995
2026-01-14 14:09:47.88	232.90	13.71	-25.4	-26.1	16.6	0.00e+00	0	42	0	597688320	12	3893
2026-01-14 14:09:50.88	233.39	13.90	-25.3	-25.9	16.8	0.00e+00	0	42	0	614465536	12	3832
2026-01-14 14:09:53.89	233.88	14.09	-25.5	-26.2	16.6	0.00e+00	0	43	0	631242752	12	3923
2026-01-14 14:09:56.90	234.38	14.27	-25.6	-26.4	16.5	0.00e+00	0	43	0	648019968	12	3965
2026-01-14 14:09:59.90	234.89	14.46	-25.8	-26.8	16.3	0.00e+00	0	42	0	664797184	12	4076
2026-01-14 14:10:02.92	235.40	14.64	-25.8	-26.9	16.2	0.00e+00	0	42	0	681574400	12	4104
2026-01-14 14:10:05.92	235.92	14.83	-25.8	-26.9	16.3	0.00e+00	0	43	0	699400192	12	4076
2026-01-14 14:10:08.92	236.45	15.01	-25.5	-26.3	16.6	0.00e+00	0	43	0	716177408	12	3944
2026-01-14 14:10:11.93	236.98	15.19	-25.5	-26.7	16.7	0.00e+00	0	42	0	732954624	11	4153
2026-01-14 14:10:14.94	237.52	15.37	-25.3	-26.4	16.9	0.00e+00	0	43	0	749731840	11	4065
2026-01-14 14:10:17.95	238.06	15.55	-25.4	-26.4	16.9	0.00e+00	0	43	0	766509056	11	4075
2026-01-14 14:10:20.97	238.62	15.73	-25.1	-25.9	17.2	0.00e+00	0	43	0	783286272	11	3940
2026-01-14 14:10:23.98	239.18	15.91	-25.0	-25.6	17.4	0.00e+00	0	43	0	801112064	11	3867
2026-01-14 14:10:27.00	239.74	16.09	-24.9	-25.5	17.5	0.00e+00	0	43	0	817889280	11	3840
2026-01-14 14:10:30.01	240.31	16.26	-24.9	-25.5	17.4	0.00e+00	0	43	0	834666496	11	3851
2026-01-14 14:10:33.01	240.89	16.43	-25.1	-25.8	17.3	0.00e+00	0	43	0	851443712	11	3912
2026-01-14 14:10:36.03	241.47	16.61	-25.0	-25.6	17.4	0.00e+00	0	43	0	868220928	11	3859
2026-01-14 14:10:39.03	242.06	16.78	-24.9	-25.5	17.5	0.00e+00	0	43	0	884998144	11	3843
2026-01-14 14:10:42.03	242.66	16.94	-24.9	-25.5	17.5	0.00e+00	0	43	0	901775360	11	3830
2026-01-14 14:10:45.03	243.26	17.11	-24.7	-25.6	17.7	0.00e+00	0	43	0	918552576	10	3967
2026-01-14 14:10:48.03	243.87	17.27	-24.7	-25.5	17.8	0.00e+00	0	43	0	935329792	10	3956
2026-01-14 14:10:51.04	244.48	17.44	-24.8	-25.8	17.6	0.00e+00	0	43	0	953155584	10	4015
2026-01-14 14:10:54.05	245.10	17.60	-24.8	-25.8	17.6	0.00e+00	0	43	0	969932800	10	4017
2026-01-14 14:10:57.06	245.73	17.76	-24.9	-25.9	17.6	0.00e+00	0	43	0	986710016	10	4052
2026-01-14 14:11:00.05	246.36	17.91	-24.8	-25.8	17.7	0.00e+00	0	43	0	1003487232	10	4009
2026-01-14 14:11:03.06	247.01	18.06	-24.8	-25.7	17.7	0.00e+00	0	43	0	1020264448	10	3992
2026-01-14 14:11:06.09	247.66	18.22	-24.9	-26.0	17.6	0.00e+00	0	43	0	1038090240	10	4060
2026-01-14 14:11:09.10	248.31	18.37	-24.6	-25.2	18.0	0.00e+00	0	43	0	1054867456	10	3881
2026-01-14 14:11:12.11	248.97	18.51	-24.5	-25.1	18.0	1.10e-06	0	43	0	1071644672	10	3857
2026-01-14 14:11:15.12	249.64	18.65	-24.5	-25.2	18.0	2.20e-06	0	43	0	1088421888	10	3871
2026-01-14 14:11:18.12	250.31	18.79	-24.5	-25.0	18.1	0.00e+00	0	43	0	1105199104	10	3838
2026-01-14 14:11:21.13	250.99	18.93	-24.3	-24.6	18.3	3.40e-06	0	43	0	1121976320	10	3736
2026-01-14 14:11:24.14	251.67	19.06	-24.6	-25.3	18.0	2.20e-06	0	43	0	1138753536	10	3891
2026-01-14 14:11:27.14	252.36	19.19	-24.9	-25.9	17.7	6.80e-06	0	43	0	1155530752	10	4034
2026-01-14 14:11:30.16	253.06	19.32	-24.2	-24.9	18.4	0.00e+00	0	43	0	1173356544	9	3917
2026-01-14 14:11:33.16	253.76	19.44	-24.5	-25.6	18.1	0.00e+00	0	43	0	1190133760	9	4070
2026-01-14 14:11:36.18	254.47	19.56	-24.5	-25.5	18.1	3.40e-06	0	43	0	1206910976	9	4057
2026-01-14 14:11:39.20	255.18	19.68	-24.4	-25.3	18.3	0.00e+00	0	43	0	1223688192	9	3994
2026-01-14 14:11:42.22	255.90	19.79	-24.5	-25.5	18.2	0.00e+00	0	43	0	1240465408	9	4066
2026-01-14 14:11:45.23	256.62	19.90	-24.4	-25.3	18.3	0.00e+00	0	43	0	1257242624	9	3992
2026-01-14 14:11:48.24	257.35	20.00	-24.3	-25.1	18.4	0.00e+00	0	43	0	1275068416	9	3945
2026-01-14 14:11:51.25	258.08	20.10	-24.1	-24.8	18.5	0.00e+00	0	43	0	1291845632	9	3886
2026-01-14 14:11:54.27	258.82	20.20	-23.9	-24.3	18.8	0.00e+00	0	43	0	1308622848	9	3775
2026-01-14 14:11:57.27	259.56	20.29	-24.0	-24.5	18.7	0.00e+00	0	43	0	1325400064	9	3815
2026-01-14 14:12:00.28	260.30	20.37	-24.1	-24.6	18.6	0.00e+00	0	43	0	1342177280	9	3843
2026-01-14 14:12:03.29	261.05	20.46	-24.2	-24.9	18.5	0.00e+00	0	43	0	1358954496	9	3909
2026-01-14 14:12:06.31	261.81	20.53	-24.4	-25.3	18.3	0.00e+00	0	43	0	1375731712	9	3993
2026-01-14 14:12:09.31	262.56	20.61	-24.2	-24.9	18.5	0.00e+00	0	43	0	1393557504	9	3917
2026-01-14 14:12:12.31	263.32	20.67	-24.3	-25.2	18.3	0.00e+00	0	43	0	1410334720	9	3989
2026-01-14 14:12:15.32	264.08	20.74	-24.4	-25.4	18.3	0.00e+00	0	43	0	1427111936	9	4022
2026-01-14 14:12:18.32	264.84	20.79	-24.4	-25.4	18.2	0.00e+00	0	43	0	1443889152	9	4032
2026-01-14 14:12:21.33	265.61	20.85	-24.1	-24.7	18.6	0.00e+00	0	43	0	1460666368	9	3854
2026-01-14 14:12:24.33	266.38	20.90	-24.1	-24.8	18.6	0.00e+00	0	43	0	1477443584	9	3884
2026-01-14 14:12:27.33	267.15	20.94	-24.1	-24.8	18.6	0.00e+00	0	43	0	1494220800	9	3889
2026-01-14 14:12:30.34	267.93	20.98	-23.9	-24.3	18.8	0.00e+00	0	43	0	1510998016	9	3764
2026-01-14 14:12:33.34	268.70	21.01	-24.0	-24.6	18.7	0.00e+00	0	43	0	1528823808	9	3830
2026-01-14 14:12:36.34	269.47	21.04	-23.9	-24.2	18.9	0.00e+00	0	43	0	1545601024	9	3744
2026-01-14 14:12:39.35	270.25	21.06	-23.9	-24.3	18.8	0.00e+00	0	43	0	1562378240	9	3775
2026-01-14 14:12:42.37	271.04	21.07	-24.0	-24.4	18.8	0.00e+00	0	43	0	1579155456	9	3803
2026-01-14 14:12:45.36	271.81	21.09	-23.9	-24.4	18.8	0.00e+00	0	43	0	1595932672	9	3786
2026-01-14 14:12:48.38	272.59	21.09	-24.1	-24.7	18.6	0.00e+00	0	43	0	1612709888	9	3862
2026-01-14 14:12:51.39	273.37	21.09	-24.1	-24.7	18.6	0.00e+00	0	43	0	1629487104	9	3859
2026-01-14 14:12:54.40	274.16	21.09	-24.1	-24.8	18.6	0.00e+00	0	43	0	1646264320	9	3880
2026-01-14 14:12:57.40	274.93	21.08	-23.9	-24.3	18.8	0.00e+00	0	43	0	1664090112	9	3772
2026-01-14 14:13:00.41	275.71	21.07	-24.0	-24.6	18.7	0.00e+00	0	43	0	1680867328	9	3832
2026-01-14 14:13:03.42	276.49	21.05	-24.0	-24.6	18.7	0.00e+00	0	43	0	1697644544	9	3837
2026-01-14 14:13:06.44	277.27	21.02	-24.3	-25.1	18.4	0.00e+00	0	43	0	1714421760	9	3953
2026-01-14 14:13:09.45	278.05	20.99	-24.2	-24.8	18.5	0.00e+00	0	43	0	1731198976	9	3894
2026-01-14 14:13:12.45	278.82	20.95	-24.3	-25.1	18.4	0.00e+00	0	43	0	1747976192	9	3964
2026-01-14 14:13:15.46	279.59	20.91	-24.3	-25.1	18.4	0.00e+00	0	43	0	1764753408	9	3958
2026-01-14 14:13:18.47	280.36	20.87	-23.9	-24.3	18.8	0.00e+00	0	43	0	1782579200	9	3778
2026-01-14 14:13:21.47	281.13	20.82	-24.2	-24.9	18.5	0.00e+00	0	43	0	1799356416	9	3897
2026-01-14 14:13:24.48	281.89	20.76	-24.3	-25.1	18.4	0.00e+00	0	43	0	1816133632	9	3949
2026-01-14 14:13:27.49	282.66	20.70	-24.3	-25.1	18.4	0.00e+00	0	43	0	1832910848	9	3968
2026-01-14 14:13:30.49	283.41	20.63	-24.4	-25.4	18.2	0.00e+00	0	43	0	1849688064	9	4041
2026-01-14 14:13:33.51	284.17	20.56	-24.4	-25.4	18.3	0.00e+00	0	43	0	1866465280	9	4020
2026-01-14 14:13:36.52	284.92	20.49	-24.4	-25.4	18.3	0.00e+00	0	43	0	1883242496	9	4026
2026-01-14 14:13:39.52	285.67	20.41	-24.5	-25.5	18.2	0.00e+00	0	43	0	1900019712	9	4040
2026-01-14 14:13:42.53	286.42	20.32	-24.7	-25.9	18.0	0.00e+00	0	43	0	1917845504	9	4165
2026-01-14 14:13:45.54	287.16	20.23	-24.6	-25.8	18.0	0.00e+00	0	43	0	1934622720	9	4124
2026-01-14 14:13:48.56	287.90	20.14	-24.6	-25.7	18.1	0.00e+00	0	43	0	1951399936	9	4102
2026-01-14 14:13:51.56	288.62	20.04	-24.2	-25.0	18.5	0.00e+00	0	43	0	1968177152	9	3924
2026-01-14 14:13:54.56	289.35	19.94	-24.3	-25.2	18.4	0.00e+00	0	43	0	1984954368	9	3975
2026-01-14 14:13:57.58	290.07	19.84	-24.4	-25.3	18.3	0.00e+00	0	43	0	2001731584	9	4005
2026-01-14 14:14:00.58	290.79	19.73	-24.4	-25.3	18.3	0.00e+00	0	43	0	2018508800	9	4015
2026-01-14 14:14:03.59	291.50	19.61	-24.4	-25.4	18.2	0.00e+00	0	43	0	2036334592	9	4035
2026-01-14 14:14:06.59	292.21	19.50	-24.6	-25.8	18.1	0.00e+00	0	43	0	2053111808	9	4120
2026-01-14 14:14:09.61	292.91	19.37	-24.7	-26.0	17.9	0.00e+00	0	43	0	2069889024	9	4187
2026-01-14 14:14:12.61	293.60	19.25	-24.7	-25.9	18.0	0.00e+00	0	43	0	2086666240	9	4155
2026-01-14 14:14:15.62	294.29	19.12	-24.8	-26.1	17.9	0.00e+00	0	43	0	2103443456	9	4215
2026-01-14 14:14:18.63	294.98	18.99	-24.7	-26.1	17.9	0.00e+00	0	43	0	2120220672	9	4198
2026-01-14 14:14:21.65	295.66	18.86	-24.8	-26.2	17.8	0.00e+00	0	43	0	2138046464	9	4237
2026-01-14 14:14:24.66	296.33	18.72	-24.9	-26.5	17.7	0.00e+00	0	43	0	2154823680	9	4305
2026-01-14 14:14:27.67	297.00	18.58	-24.9	-26.4	17.7	0.00e+00	0	43	0	2171600896	9	4287
2026-01-14 14:14:30.68	297.66	18.43	-25.1	-26.4	17.5	0.00e+00	0	43	0	2188378112	10	4171
2026-01-14 14:14:33.70	298.31	18.29	-25.0	-26.2	17.6	0.00e+00	0	43	0	2205155328	10	4115
2026-01-14 14:14:36.70	298.96	18.14	-25.1	-26.4	17.5	1.10e-06	0	43	0	2221932544	10	4167
2026-01-14 14:14:39.71	299.60	17.99	-25.0	-26.2	17.6	2.20e-06	0	43	0	2238709760	10	4112
2026-01-14 14:14:42.72	300.24	17.83	-25.2	-26.6	17.4	2.20e-06	0	43	0	2255486976	10	4216
2026-01-14 14:14:45.73	300.87	17.68	-25.2	-26.6	17.3	0.00e+00	0	43	0	2273312768	10	4229
2026-01-14 14:14:48.75	301.49	17.52	-25.4	-27.0	17.1	0.00e+00	0	43	0	2290089984	10	4320
2026-01-14 14:14:51.76	302.11	17.36	-25.1	-25.8	17.5	0.00e+00	0	43	0	2306867200	11	3918
2026-01-14 14:14:54.76	302.72	17.20	-25.1	-25.9	17.4	0.00e+00	0	43	0	2323644416	11	3939
2026-01-14 14:14:57.77	303.32	17.03	-25.5	-26.8	16.9	0.00e+00	0	43	0	2340421632	11	4174
2026-01-14 14:15:00.78	303.92	16.86	-25.5	-26.8	16.9	0.00e+00	0	43	0	2357198848	11	4170
2026-01-14 14:15:03.78	304.51	16.70	-25.5	-26.7	17.0	0.00e+00	0	43	0	2375024640	11	4129
2026-01-14 14:15:06.79	305.09	16.53	-25.4	-26.5	17.1	0.00e+00	0	43	0	2391801856	11	4096
2026-01-14 14:15:09.79	305.67	16.36	-25.5	-26.6	17.1	0.00e+00	0	43	0	2408579072	11	4121
2026-01-14 14:15:12.80	306.24	16.18	-25.3	-26.3	17.2	0.00e+00	0	43	0	2425356288	11	4028
2026-01-14 14:15:15.80	306.80	16.01	-25.6	-26.9	16.9	0.00e+00	0	43	0	2442133504	11	4175
2026-01-14 14:15:18.79	307.35	15.83	-25.7	-27.2	16.7	0.00e+00	0	43	0	2458910720	11	4279
2026-01-14 14:15:21.80	307.91	15.66	-25.8	-27.4	16.6	0.00e+00	0	43	0	2475687936	11	4318
2026-01-14 14:15:24.80	308.45	15.48	-26.0	-27.2	16.3	0.00e+00	0	43	0	2492465152	12	4168
2026-01-14 14:15:27.81	308.99	15.30	-26.2	-27.7	16.1	0.00e+00	0	43	0	2509242368	12	4298
2026-01-14 14:15:30.83	309.53	15.12	-26.1	-27.6	16.1	0.00e+00	0	43	0	2526019584	12	4272
2026-01-14 14:15:33.84	310.05	14.94	-25.9	-27.1	16.4	0.00e+00	0	43	0	2543845376	12	4131
2026-01-14 14:15:36.84	310.57	14.76	-25.7	-26.7	16.6	0.00e+00	0	43	0	2560622592	12	4037
2026-01-14 14:15:39.85	311.09	14.57	-25.7	-26.7	16.6	0.00e+00	0	43	0	2577399808	12	4043
2026-01-14 14:15:42.87	311.60	14.39	-25.6	-26.5	16.7	0.00e+00	0	43	0	2594177024	12	3981
2026-01-14 14:15:45.88	312.10	14.21	-25.7	-26.7	16.6	0.00e+00	0	43	0	2610954240	12	4028
2026-01-14 14:15:48.90	312.60	14.02	-25.9	-27.1	16.3	0.00e+00	0	43	0	2628780032	12	4140
2026-01-14 14:15:51.90	313.08	13.84	-25.9	-27.2	16.3	0.00e+00	0	43	0	2645557248	12	4151
2026-01-14 14:15:54.91	313.57	13.65	-26.1	-27.5	16.1	0.00e+00	0	43	0	2662334464	12	4241
2026-01-14 14:15:57.91	314.05	13.47	-26.3	-28.0	15.9	0.00e+00	0	43	0	2679111680	12	4365
2026-01-14 14:16:00.92	314.52	13.28	-26.2	-27.8	15.9	0.00e+00	0	43	0	2695888896	12	4330
2026-01-14 14:16:03.94	314.99	13.09	-26.3	-28.0	15.8	0.00e+00	0	43	0	2712666112	12	4375
2026-01-14 14:16:06.95	315.45	12.91	-26.3	-28.0	15.8	0.00e+00	0	43	0	2729443328	12	4360
2026-01-14 14:16:09.95	315.90	12.72	-26.3	-28.0	15.8	0.00e+00	0	43	0	2746220544	12	4387
2026-01-14 14:16:12.96	316.35	12.53	-26.2	-27.8	15.9	0.00e+00	0	43	0	2764046336	12	4317
2026-01-14 14:16:15.95	316.79	12.35	-26.2	-27.8	15.9	0.00e+00	0	43	0	2780823552	12	4313
2026-01-14 14:16:18.97	317.23	12.16	-26.4	-28.1	15.7	0.00e+00	0	43	0	2797600768	12	4409
2026-01-14 14:16:21.98	317.67	11.97	-27.2	-29.0	14.7	1.10e-06	0	43	0	2814377984	14	4434
2026-01-14 14:16:24.99	318.10	11.78	-27.2	-29.0	14.7	0.00e+00	0	43	0	2831155200	14	4420
2026-01-14 14:16:28.00	318.52	11.60	-27.4	-29.4	14.4	2.20e-06	0	43	0	2847932416	14	4554
2026-01-14 14:16:31.01	318.94	11.41	-27.1	-28.2	14.8	1.10e-06	0	43	0	2864709632	15	4103
2026-01-14 14:16:34.02	319.35	11.22	-26.9	-28.3	15.0	0.00e+00	0	43	0	2882535424	14	4222
2026-01-14 14:16:37.03	319.76	11.03	-27.1	-28.8	14.7	1.10e-06	0	43	0	2899312640	14	4377
2026-01-14 14:16:40.03	320.16	10.85	-27.2	-29.0	14.6	0.00e+00	0	43	0	2916089856	14	4429
2026-01-14 14:16:43.03	320.56	10.66	-27.0	-28.7	14.8	0.00e+00	0	43	0	2932867072	14	4345
2026-01-14 14:16:46.04	320.95	10.48	-26.9	-28.3	15.0	0.00e+00	0	43	0	2949644288	14	4232
2026-01-14 14:16:49.04	321.34	10.29	-27.1	-28.9	14.6	0.00e+00	0	43	0	2966421504	14	4398
2026-01-14 14:16:52.04	321.72	10.11	-27.2	-29.0	14.6	1.10e-06	0	43	0	2983198720	14	4438
2026-01-14 14:16:55.05	322.10	9.92	-27.3	-29.2	14.4	1.10e-06	0	43	0	2999975936	14	4504
2026-01-14 14:16:58.06	322.47	9.74	-27.5	-29.2	14.1	5.70e-06	0	43	0	3017801728	15	4394
2026-01-14 14:17:01.06	322.84	9.55	-27.7	-29.7	13.8	5.70e-06	0	43	0	3034578944	15	4525
2026-01-14 14:17:04.08	323.21	9.37	-28.2	-30.3	13.3	2.05e-05	0	43	0	3051356160	16	4582
2026-01-14 14:17:07.09	323.57	9.18	-27.4	-28.4	14.4	0.00e+00	0	43	0	3068133376	16	4057
2026-01-14 14:17:10.10	323.92	9.00	-27.5	-29.2	14.1	3.40e-06	0	43	0	3084910592	15	4383
2026-01-14 14:17:13.12	324.28	8.81	-27.5	-29.2	14.0	4.50e-06	0	43	0	3101687808	15	4395
2026-01-14 14:17:16.13	324.63	8.63	-27.4	-29.0	14.2	9.10e-06	0	43	0	3118465024	15	4319
2026-01-14 14:17:19.14	324.97	8.45	-27.4	-28.9	14.2	2.20e-06	0	43	0	3136290816	15	4316
2026-01-14 14:17:22.14	325.31	8.27	-27.4	-29.0	14.1	2.20e-06	0	43	0	3153068032	15	4337
2026-01-14 14:17:25.16	325.64	8.09	-27.6	-29.5	13.8	5.70e-06	0	43	0	3169845248	15	4485
2026-01-14 14:17:28.16	325.98	7.91	-27.3	-28.8	14.2	4.50e-06	0	43	0	3186622464	15	4271
2026-01-14 14:17:31.17	326.30	7.73	-27.8	-29.9	13.5	9.10e-06	0	43	0	3203399680	15	4594
2026-01-14 14:17:34.19	326.63	7.55	-27.4	-29.0	14.0	9.10e-06	0	43	0	3220176896	15	4329
2026-01-14 14:17:37.20	326.95	7.37	-27.6	-29.6	13.6	2.97e-05	0	43	0	3238002688	15	4512
2026-01-14 14:17:40.21	327.27	7.19	-27.8	-29.9	13.4	1.48e-05	0	43	0	3254779904	15	4616
2026-01-14 14:17:43.20	327.58	7.01	-33.6	-44.7	3.8	8.46e-01	0	43	104	3266314240	27	12911

#Closed at: 2026-01-14 14:17:45
#Recorded file [3266 MB]: D:/data/31010_260114_170801.dat