passes_logs/2026/01/14/R2M6_AANII_01/R2M6_AANII_01__20260114_104647_FENGYUN_3D_rec.log

#Pass ID: 20260114_104647_FENGYUN 3D
#Satellite: FENGYUN 3D
#Configuration: FENGYUN 3D
#almurnet v.1.7.20240730
#Start time: 2026-01-14 10:46:47

#Version: 2.2.20231116
#Station: R2M6_AANII_01
#Location: 30.233357 lon 59.946436 lat
#TLE: 1 43010U 17072A   26013.31211337  .00000452  00000+0  23563-3 0  9990
#TLE: 2 43010  98.9934 345.1024 0002270 111.0315 249.1103 14.19696845423017

#Time	Az	El	Level	Level2	SNR	BER	BlckErr	Temp	State	Recorded	gain1	gain2
2026-01-14 10:46:47.90	111.27	7.04	-29.9	-32.5	5.4	7.84e-01	0	40	0	0	21	4828
2026-01-14 10:46:50.90	111.05	7.24	-29.6	-32.1	10.5	2.68e-03	0	40	0	5242880	20	4778
2026-01-14 10:46:53.91	110.81	7.45	-29.5	-31.9	10.7	2.33e-03	0	40	0	22020096	20	4708
2026-01-14 10:46:56.93	110.57	7.66	-29.6	-32.0	10.6	3.33e-03	0	40	0	38797312	20	4767
2026-01-14 10:46:59.94	110.33	7.87	-28.1	-29.8	13.0	4.69e-05	0	41	0	55574528	17	4355
2026-01-14 10:47:02.95	110.09	8.08	-27.4	-28.6	14.1	3.40e-06	0	41	0	73400320	16	4130
2026-01-14 10:47:05.95	109.84	8.30	-27.4	-28.7	14.1	0.00e+00	0	41	0	90177536	16	4143
2026-01-14 10:47:08.96	109.59	8.51	-27.1	-28.5	14.3	1.10e-06	0	41	0	106954752	15	4216
2026-01-14 10:47:11.98	109.34	8.73	-27.2	-28.6	14.3	0.00e+00	0	41	0	123731968	15	4236
2026-01-14 10:47:15.00	109.08	8.94	-27.3	-28.8	14.2	0.00e+00	0	41	0	140509184	15	4300
2026-01-14 10:47:18.01	108.81	9.16	-27.3	-28.7	14.2	5.70e-06	0	41	0	158334976	15	4273
2026-01-14 10:47:21.02	108.54	9.38	-27.2	-28.7	14.3	1.10e-06	0	41	0	175112192	15	4266
2026-01-14 10:47:24.02	108.27	9.60	-27.0	-28.2	14.6	4.50e-06	0	41	0	191889408	15	4117
2026-01-14 10:47:27.04	108.00	9.83	-27.0	-28.2	14.6	4.50e-06	0	41	0	208666624	15	4125
2026-01-14 10:47:30.05	107.72	10.05	-26.7	-28.1	15.0	5.70e-06	0	41	0	225443840	14	4208
2026-01-14 10:47:33.06	107.43	10.28	-26.7	-28.0	15.0	0.00e+00	0	41	0	242221056	14	4185
2026-01-14 10:47:36.07	107.14	10.50	-26.7	-27.9	15.1	2.20e-06	0	41	0	258998272	14	4149
2026-01-14 10:47:39.07	106.85	10.73	-26.8	-28.3	14.9	5.70e-06	0	42	0	275775488	14	4260
2026-01-14 10:47:42.09	106.55	10.96	-26.5	-27.6	15.3	0.00e+00	0	41	0	293601280	14	4061
2026-01-14 10:47:45.10	106.25	11.19	-26.7	-27.9	15.2	0.00e+00	0	41	0	310378496	14	4141
2026-01-14 10:47:48.10	105.94	11.42	-26.8	-28.1	15.0	0.00e+00	0	41	0	327155712	14	4213
2026-01-14 10:47:51.12	105.63	11.66	-26.5	-27.6	15.4	0.00e+00	0	42	0	343932928	14	4066
2026-01-14 10:47:54.13	105.31	11.89	-26.5	-27.6	15.3	0.00e+00	0	42	0	360710144	14	4077
2026-01-14 10:47:57.15	104.98	12.13	-26.6	-27.8	15.2	0.00e+00	0	42	0	377487360	14	4137
2026-01-14 10:48:00.15	104.65	12.37	-26.5	-27.5	15.4	0.00e+00	0	42	0	395313152	14	4036
2026-01-14 10:48:03.15	104.32	12.60	-26.6	-27.8	15.3	0.00e+00	0	42	0	412090368	14	4116
2026-01-14 10:48:06.16	103.98	12.84	-26.4	-27.2	15.6	0.00e+00	0	42	0	428867584	14	3978
2026-01-14 10:48:09.17	103.63	13.09	-26.2	-27.4	15.8	0.00e+00	0	42	0	445644800	13	4113
2026-01-14 10:48:12.18	103.28	13.33	-26.2	-27.3	15.8	0.00e+00	0	42	0	462422016	13	4097
2026-01-14 10:48:15.20	102.92	13.58	-26.3	-27.5	15.7	0.00e+00	0	42	0	479199232	13	4145
2026-01-14 10:48:18.22	102.56	13.82	-26.3	-27.6	15.7	0.00e+00	0	42	0	495976448	13	4174
2026-01-14 10:48:21.22	102.19	14.07	-25.9	-26.8	16.1	0.00e+00	0	42	0	513802240	13	3961
2026-01-14 10:48:24.23	101.81	14.32	-25.8	-26.9	16.4	0.00e+00	0	42	0	530579456	12	4110
2026-01-14 10:48:27.24	101.43	14.57	-25.8	-27.0	16.3	0.00e+00	0	42	0	547356672	12	4136
2026-01-14 10:48:30.24	101.04	14.82	-25.8	-26.9	16.4	0.00e+00	0	42	0	564133888	12	4086
2026-01-14 10:48:33.26	100.64	15.07	-25.7	-26.8	16.5	0.00e+00	0	42	0	580911104	12	4068
2026-01-14 10:48:36.27	100.24	15.32	-25.6	-26.5	16.7	0.00e+00	0	42	0	597688320	12	3995
2026-01-14 10:48:39.27	99.83	15.58	-25.5	-26.3	16.8	1.10e-06	0	42	0	614465536	12	3948
2026-01-14 10:48:42.28	99.41	15.83	-25.5	-26.3	16.7	0.00e+00	0	42	0	631242752	12	3954
2026-01-14 10:48:45.29	98.99	16.09	-25.3	-26.0	17.0	0.00e+00	0	42	0	649068544	12	3862
2026-01-14 10:48:48.31	98.55	16.35	-25.4	-26.1	16.9	0.00e+00	0	42	0	665845760	12	3887
2026-01-14 10:48:51.32	98.11	16.61	-25.4	-26.1	16.9	0.00e+00	0	42	0	682622976	12	3904
2026-01-14 10:48:54.34	97.66	16.87	-25.4	-26.1	16.9	0.00e+00	0	42	0	699400192	12	3900
2026-01-14 10:48:57.34	97.21	17.13	-25.4	-26.6	17.0	0.00e+00	0	42	0	716177408	11	4116
2026-01-14 10:49:00.34	96.75	17.39	-25.3	-26.3	17.2	0.00e+00	0	42	0	732954624	11	4055
2026-01-14 10:49:03.34	96.28	17.65	-25.3	-26.2	17.2	0.00e+00	0	42	0	749731840	11	4031
2026-01-14 10:49:06.36	95.80	17.92	-25.0	-25.7	17.5	0.00e+00	0	42	0	767557632	11	3897
2026-01-14 10:49:09.36	95.31	18.18	-25.0	-25.7	17.5	0.00e+00	0	42	0	784334848	11	3904
2026-01-14 10:49:12.37	94.81	18.44	-25.1	-25.8	17.5	0.00e+00	0	42	0	801112064	11	3932
2026-01-14 10:49:15.37	94.31	18.71	-24.9	-25.5	17.7	0.00e+00	0	42	0	817889280	11	3847
2026-01-14 10:49:18.39	93.79	18.97	-24.7	-25.6	17.9	0.00e+00	0	42	0	834666496	10	3975
2026-01-14 10:49:21.39	93.27	19.24	-24.7	-25.5	18.0	0.00e+00	0	42	0	851443712	10	3950
2026-01-14 10:49:24.40	92.73	19.51	-24.9	-26.0	17.7	0.00e+00	0	42	0	868220928	10	4093
2026-01-14 10:49:27.41	92.19	19.77	-24.9	-26.0	17.7	0.00e+00	0	42	0	886046720	10	4078
2026-01-14 10:49:30.42	91.63	20.04	-25.0	-26.1	17.6	0.00e+00	0	42	0	902823936	10	4116
2026-01-14 10:49:33.43	91.07	20.31	-24.9	-25.9	17.8	0.00e+00	0	42	0	919601152	10	4059
2026-01-14 10:49:36.45	90.50	20.57	-24.7	-25.6	17.9	0.00e+00	0	42	0	936378368	10	3995
2026-01-14 10:49:39.44	89.92	20.84	-24.7	-25.6	17.9	0.00e+00	0	42	0	953155584	10	3992
2026-01-14 10:49:42.46	89.32	21.11	-24.7	-25.6	17.9	0.00e+00	0	42	0	969932800	10	3989
2026-01-14 10:49:45.47	88.72	21.37	-24.5	-25.2	18.2	0.00e+00	0	42	0	987758592	10	3879
2026-01-14 10:49:48.48	88.11	21.64	-24.4	-24.9	18.3	0.00e+00	0	42	0	1004535808	10	3817
2026-01-14 10:49:51.49	87.48	21.90	-24.2	-25.1	18.5	0.00e+00	0	42	0	1021313024	9	3963
2026-01-14 10:49:54.50	86.84	22.16	-24.2	-25.0	18.5	0.00e+00	0	42	0	1038090240	9	3936
2026-01-14 10:49:57.52	86.20	22.43	-24.2	-25.1	18.5	0.00e+00	0	42	0	1054867456	9	3956
2026-01-14 10:50:00.53	85.54	22.69	-24.3	-25.1	18.5	0.00e+00	0	42	0	1071644672	9	3974
2026-01-14 10:50:03.54	84.87	22.94	-24.4	-25.5	18.3	0.00e+00	0	42	0	1088421888	9	4069
2026-01-14 10:50:06.55	84.19	23.20	-24.3	-25.2	18.5	0.00e+00	0	42	0	1105199104	9	3991
2026-01-14 10:50:09.56	83.50	23.46	-24.2	-25.0	18.6	0.00e+00	0	42	0	1123024896	9	3946
2026-01-14 10:50:12.57	82.80	23.71	-24.1	-24.9	18.7	0.00e+00	0	42	0	1139802112	9	3910
2026-01-14 10:50:15.59	82.08	23.96	-24.3	-25.3	18.4	0.00e+00	0	42	0	1156579328	9	4008
2026-01-14 10:50:18.60	81.35	24.21	-24.1	-24.7	18.8	0.00e+00	0	43	0	1173356544	9	3861
2026-01-14 10:50:21.61	80.62	24.46	-24.0	-24.5	18.8	0.00e+00	0	43	0	1190133760	9	3835
2026-01-14 10:50:24.61	79.87	24.70	-23.8	-24.2	19.0	1.10e-06	0	42	0	1207959552	9	3760
2026-01-14 10:50:27.62	79.11	24.94	-23.9	-24.3	18.9	1.10e-06	0	43	0	1224736768	9	3789
2026-01-14 10:50:30.62	78.34	25.17	-23.8	-24.2	19.0	0.00e+00	0	42	0	1241513984	9	3752
2026-01-14 10:50:33.62	77.56	25.41	-24.0	-24.6	18.8	0.00e+00	0	42	0	1258291200	9	3852
2026-01-14 10:50:36.63	76.76	25.63	-24.0	-24.6	18.8	1.10e-06	0	42	0	1275068416	9	3851
2026-01-14 10:50:39.63	75.96	25.86	-24.0	-24.5	18.9	1.10e-06	0	42	0	1291845632	9	3828
2026-01-14 10:50:42.64	75.14	26.08	-23.8	-24.1	19.1	0.00e+00	0	42	0	1308622848	9	3728
2026-01-14 10:50:45.65	74.31	26.29	-24.0	-25.0	18.9	0.00e+00	0	42	0	1325400064	8	4060
2026-01-14 10:50:48.66	73.47	26.50	-24.1	-25.3	18.8	0.00e+00	0	42	0	1343225856	8	4126
2026-01-14 10:50:51.67	72.62	26.71	-24.0	-25.0	18.9	0.00e+00	0	42	0	1360003072	8	4045
2026-01-14 10:50:54.68	71.76	26.91	-23.9	-24.8	19.0	0.00e+00	0	42	0	1376780288	8	4013
2026-01-14 10:50:57.69	70.88	27.10	-23.9	-24.8	19.0	0.00e+00	0	42	0	1393557504	8	4002
2026-01-14 10:51:00.70	70.00	27.29	-23.6	-24.1	19.4	0.00e+00	0	42	0	1410334720	8	3840
2026-01-14 10:51:03.71	69.11	27.47	-23.6	-24.1	19.4	0.00e+00	0	42	0	1427111936	8	3844
2026-01-14 10:51:06.70	68.21	27.64	-23.6	-24.1	19.4	0.00e+00	0	42	0	1443889152	8	3843
2026-01-14 10:51:09.70	67.30	27.81	-23.9	-24.8	19.2	0.00e+00	0	42	0	1460666368	8	3996
2026-01-14 10:51:12.71	66.37	27.97	-23.8	-24.6	19.3	0.00e+00	0	42	0	1478492160	8	3934
2026-01-14 10:51:15.72	65.44	28.12	-23.8	-24.5	19.4	0.00e+00	0	42	0	1495269376	8	3913
2026-01-14 10:51:18.74	64.50	28.26	-23.6	-24.0	19.6	0.00e+00	0	42	0	1512046592	8	3808
2026-01-14 10:51:21.76	63.55	28.40	-23.7	-24.4	19.5	0.00e+00	0	42	0	1528823808	8	3880
2026-01-14 10:51:24.77	62.59	28.53	-23.4	-23.7	19.8	0.00e+00	0	42	0	1545601024	8	3730
2026-01-14 10:51:27.77	61.63	28.65	-23.6	-24.1	19.6	0.00e+00	0	42	0	1562378240	8	3811
2026-01-14 10:51:30.79	60.65	28.76	-23.5	-24.0	19.7	0.00e+00	0	42	0	1579155456	8	3790
2026-01-14 10:51:33.78	59.68	28.86	-23.6	-24.1	19.6	0.00e+00	0	43	0	1595932672	8	3821
2026-01-14 10:51:36.80	58.69	28.96	-23.2	-23.7	20.0	0.00e+00	0	43	0	1613758464	7	3832
2026-01-14 10:51:39.82	57.70	29.04	-23.6	-24.7	19.5	0.00e+00	0	43	0	1630535680	7	4079
2026-01-14 10:51:42.82	56.71	29.12	-23.4	-24.2	19.8	0.00e+00	0	43	0	1647312896	7	3949
2026-01-14 10:51:45.82	55.71	29.18	-23.4	-24.2	19.8	0.00e+00	0	42	0	1664090112	7	3939
2026-01-14 10:51:48.81	54.72	29.24	-23.3	-24.0	19.9	0.00e+00	0	42	0	1680867328	7	3904
2026-01-14 10:51:51.81	53.72	29.28	-23.2	-23.8	20.0	0.00e+00	0	43	0	1697644544	7	3866
2026-01-14 10:51:54.82	52.71	29.32	-23.1	-23.5	20.2	0.00e+00	0	43	0	1714421760	7	3792
2026-01-14 10:51:57.83	51.70	29.35	-23.0	-23.3	20.2	0.00e+00	0	42	0	1731198976	7	3751
2026-01-14 10:52:00.83	50.69	29.36	-23.0	-23.4	20.2	0.00e+00	0	43	0	1749024768	7	3759
2026-01-14 10:52:03.84	49.68	29.37	-23.2	-23.7	20.0	0.00e+00	0	43	0	1765801984	7	3833
2026-01-14 10:52:06.85	48.67	29.37	-23.0	-23.4	20.2	0.00e+00	0	43	0	1782579200	7	3760
2026-01-14 10:52:09.86	47.65	29.35	-22.9	-23.2	20.3	0.00e+00	0	42	0	1799356416	7	3721
2026-01-14 10:52:12.87	46.64	29.33	-23.1	-23.5	20.2	0.00e+00	0	42	0	1816133632	7	3789
2026-01-14 10:52:15.88	45.64	29.30	-23.0	-23.3	20.2	0.00e+00	0	43	0	1832910848	7	3751
2026-01-14 10:52:18.89	44.63	29.25	-23.2	-23.7	20.0	0.00e+00	0	43	0	1849688064	7	3835
2026-01-14 10:52:21.90	43.63	29.20	-23.3	-24.0	19.9	0.00e+00	0	42	0	1867513856	7	3897
2026-01-14 10:52:24.91	42.63	29.14	-22.7	-23.3	20.5	0.00e+00	0	43	0	1884291072	6	3843
2026-01-14 10:52:27.93	41.63	29.07	-22.9	-23.6	20.3	0.00e+00	0	42	0	1901068288	6	3919
2026-01-14 10:52:30.94	40.64	28.99	-23.0	-24.0	20.1	0.00e+00	0	42	0	1917845504	6	4012
2026-01-14 10:52:33.95	39.65	28.90	-23.2	-24.3	20.0	0.00e+00	0	43	0	1934622720	6	4073
2026-01-14 10:52:36.97	38.67	28.79	-23.4	-24.1	19.8	0.00e+00	0	42	0	1952448512	7	3928
2026-01-14 10:52:39.98	37.70	28.69	-23.4	-24.2	19.8	0.00e+00	0	43	0	1969225728	7	3941
2026-01-14 10:52:42.99	36.73	28.57	-23.3	-24.1	19.8	0.00e+00	0	42	0	1986002944	7	3917
2026-01-14 10:52:45.98	35.78	28.44	-23.4	-24.2	19.8	0.00e+00	0	43	0	2002780160	7	3941
2026-01-14 10:52:49.00	34.83	28.31	-23.5	-24.4	19.7	0.00e+00	0	42	0	2019557376	7	3995
2026-01-14 10:52:52.01	33.89	28.17	-23.3	-24.0	19.9	0.00e+00	0	42	0	2036334592	7	3896
2026-01-14 10:52:55.02	32.95	28.02	-23.2	-23.8	20.0	0.00e+00	0	42	0	2053111808	7	3850
2026-01-14 10:52:58.02	32.03	27.86	-23.3	-24.0	19.8	0.00e+00	0	43	0	2069889024	7	3915
2026-01-14 10:53:01.03	31.12	27.70	-23.3	-24.0	19.8	0.00e+00	0	43	0	2087714816	7	3906
2026-01-14 10:53:04.03	30.22	27.53	-23.3	-24.0	19.9	0.00e+00	0	42	0	2104492032	7	3894
2026-01-14 10:53:07.05	29.32	27.35	-23.2	-23.8	19.9	0.00e+00	0	42	0	2121269248	7	3859
2026-01-14 10:53:10.05	28.43	27.16	-23.0	-23.5	20.1	0.00e+00	0	42	0	2138046464	7	3783
2026-01-14 10:53:13.06	27.56	26.97	-23.3	-24.1	19.8	0.00e+00	0	42	0	2154823680	7	3931
2026-01-14 10:53:16.08	26.69	26.77	-23.4	-24.2	19.7	0.00e+00	0	43	0	2171600896	7	3942
2026-01-14 10:53:19.08	25.84	26.57	-23.5	-24.4	19.6	0.00e+00	0	43	0	2188378112	7	3987
2026-01-14 10:53:22.08	25.00	26.37	-23.4	-24.3	19.6	0.00e+00	0	43	0	2205155328	7	3976
2026-01-14 10:53:25.10	24.17	26.15	-23.5	-24.5	19.5	0.00e+00	0	42	0	2222981120	7	4026
2026-01-14 10:53:28.10	23.35	25.93	-23.7	-24.9	19.3	0.00e+00	0	43	0	2239758336	7	4117
2026-01-14 10:53:31.11	22.55	25.71	-23.5	-24.5	19.6	0.00e+00	0	42	0	2256535552	7	4021
2026-01-14 10:53:34.13	21.75	25.49	-23.5	-24.5	19.5	0.00e+00	0	43	0	2273312768	7	4032
2026-01-14 10:53:37.13	20.96	25.26	-23.3	-24.0	19.7	0.00e+00	0	42	0	2290089984	7	3907
2026-01-14 10:53:40.14	20.19	25.02	-23.6	-24.6	19.5	0.00e+00	0	43	0	2306867200	7	4051
2026-01-14 10:53:43.15	19.43	24.78	-23.9	-25.2	19.2	0.00e+00	0	43	0	2323644416	7	4186
2026-01-14 10:53:46.17	18.68	24.54	-23.4	-24.2	19.7	0.00e+00	0	43	0	2341470208	7	3958
2026-01-14 10:53:49.18	17.94	24.30	-23.5	-24.5	19.5	0.00e+00	0	42	0	2358247424	7	4015
2026-01-14 10:53:52.19	17.21	24.05	-23.6	-24.6	19.5	0.00e+00	0	43	0	2375024640	7	4037
2026-01-14 10:53:55.19	16.50	23.80	-23.6	-24.7	19.4	0.00e+00	0	43	0	2391801856	7	4059
2026-01-14 10:53:58.20	15.80	23.55	-23.7	-24.9	19.3	0.00e+00	0	42	0	2408579072	7	4129
2026-01-14 10:54:01.21	15.10	23.30	-23.8	-25.0	19.2	0.00e+00	0	43	0	2425356288	7	4142
2026-01-14 10:54:04.22	14.42	23.04	-23.7	-24.9	19.2	0.00e+00	0	42	0	2443182080	7	4127
2026-01-14 10:54:07.23	13.75	22.78	-23.9	-25.3	19.1	0.00e+00	0	42	0	2459959296	7	4220
2026-01-14 10:54:10.24	13.09	22.52	-24.1	-25.3	18.8	0.00e+00	0	43	0	2476736512	8	4113
2026-01-14 10:54:13.24	12.45	22.26	-24.2	-25.5	18.7	0.00e+00	0	42	0	2493513728	8	4156
2026-01-14 10:54:16.24	11.81	22.00	-24.2	-25.5	18.7	0.00e+00	0	43	0	2510290944	8	4151
2026-01-14 10:54:19.25	11.19	21.74	-24.3	-25.7	18.6	0.00e+00	0	42	0	2527068160	8	4210
2026-01-14 10:54:22.26	10.57	21.48	-24.2	-25.0	18.7	0.00e+00	0	42	0	2543845376	9	3934
2026-01-14 10:54:25.27	9.97	21.21	-24.0	-24.5	18.9	0.00e+00	0	43	0	2560622592	9	3815
2026-01-14 10:54:28.28	9.37	20.95	-24.1	-24.8	18.8	0.00e+00	0	43	0	2578448384	9	3879
2026-01-14 10:54:31.29	8.79	20.68	-24.2	-24.9	18.7	0.00e+00	0	42	0	2595225600	9	3916
2026-01-14 10:54:34.29	8.22	20.42	-24.4	-25.3	18.5	0.00e+00	0	42	0	2612002816	9	3987
2026-01-14 10:54:37.31	7.65	20.15	-24.4	-25.4	18.5	0.00e+00	0	42	0	2628780032	9	4020
2026-01-14 10:54:40.34	7.10	19.88	-24.5	-25.6	18.3	0.00e+00	0	42	0	2645557248	9	4065
2026-01-14 10:54:43.34	6.55	19.62	-24.8	-26.2	18.0	0.00e+00	0	43	0	2662334464	9	4213
2026-01-14 10:54:46.34	6.02	19.35	-24.6	-25.7	18.2	0.00e+00	0	42	0	2679111680	9	4105
2026-01-14 10:54:49.36	5.49	19.09	-24.7	-25.9	18.2	0.00e+00	0	42	0	2696937472	9	4147
2026-01-14 10:54:52.37	4.98	18.82	-24.7	-25.9	18.1	0.00e+00	0	42	0	2713714688	9	4137
2026-01-14 10:54:55.38	4.47	18.56	-24.8	-26.2	18.0	0.00e+00	0	43	0	2730491904	9	4227
2026-01-14 10:54:58.38	3.98	18.29	-25.0	-26.5	17.8	0.00e+00	0	43	0	2747269120	9	4320
2026-01-14 10:55:01.39	3.49	18.03	-24.9	-26.4	17.9	0.00e+00	0	43	0	2764046336	9	4266
2026-01-14 10:55:04.40	3.01	17.77	-25.0	-26.2	17.7	0.00e+00	0	43	0	2780823552	10	4113
2026-01-14 10:55:07.40	2.54	17.51	-25.1	-26.3	17.7	0.00e+00	0	42	0	2797600768	10	4137
2026-01-14 10:55:10.41	2.07	17.25	-25.1	-26.3	17.6	0.00e+00	0	43	0	2815426560	10	4143
2026-01-14 10:55:13.42	1.62	16.99	-25.3	-26.7	17.4	0.00e+00	0	42	0	2832203776	10	4241
2026-01-14 10:55:16.42	1.17	16.73	-25.6	-26.8	17.1	0.00e+00	0	42	0	2848980992	11	4168
2026-01-14 10:55:19.44	0.73	16.47	-25.5	-26.7	17.1	0.00e+00	0	43	0	2865758208	11	4117
2026-01-14 10:55:22.45	0.30	16.21	-25.4	-26.5	17.2	0.00e+00	0	42	0	2882535424	11	4089
2026-01-14 10:55:25.45	359.87	15.95	-25.4	-26.5	17.2	0.00e+00	0	43	0	2899312640	11	4093
2026-01-14 10:55:28.46	359.46	15.70	-25.5	-26.7	17.1	0.00e+00	0	42	0	2917138432	11	4125
2026-01-14 10:55:31.46	359.05	15.45	-25.5	-26.7	17.0	0.00e+00	0	43	0	2933915648	11	4133
2026-01-14 10:55:34.47	358.64	15.19	-25.9	-27.6	16.6	0.00e+00	0	43	0	2950692864	11	4372
2026-01-14 10:55:37.48	358.25	14.94	-25.9	-27.0	16.5	0.00e+00	0	42	0	2967470080	12	4113
2026-01-14 10:55:40.49	357.86	14.69	-25.9	-27.1	16.5	0.00e+00	0	43	0	2984247296	12	4140
2026-01-14 10:55:43.50	357.47	14.44	-25.8	-26.9	16.6	0.00e+00	0	43	0	3001024512	12	4078
2026-01-14 10:55:46.51	357.10	14.19	-25.9	-27.0	16.5	0.00e+00	0	43	0	3017801728	12	4107
2026-01-14 10:55:49.51	356.73	13.95	-25.8	-27.0	16.5	0.00e+00	0	43	0	3034578944	12	4095
2026-01-14 10:55:52.52	356.37	13.70	-25.9	-27.1	16.5	0.00e+00	0	43	0	3052404736	12	4126
2026-01-14 10:55:55.53	356.01	13.46	-26.1	-27.4	16.2	0.00e+00	0	43	0	3069181952	12	4217
2026-01-14 10:55:58.54	355.66	13.22	-26.1	-27.5	16.2	0.00e+00	0	43	0	3085959168	12	4240
2026-01-14 10:56:01.54	355.31	12.97	-26.1	-27.5	16.2	0.00e+00	0	43	0	3102736384	12	4231
2026-01-14 10:56:04.56	354.97	12.73	-26.2	-27.8	16.0	0.00e+00	0	43	0	3119513600	12	4310
2026-01-14 10:56:07.56	354.64	12.50	-26.3	-27.9	15.9	0.00e+00	0	43	0	3136290816	12	4344
2026-01-14 10:56:10.57	354.31	12.26	-26.4	-28.2	15.7	0.00e+00	0	43	0	3153068032	12	4425
2026-01-14 10:56:13.58	353.99	12.02	-26.7	-28.4	15.3	0.00e+00	0	43	0	3169845248	13	4382
2026-01-14 10:56:16.59	353.67	11.79	-26.8	-28.6	15.3	0.00e+00	0	43	0	3187671040	13	4421
2026-01-14 10:56:19.60	353.36	11.55	-26.8	-28.5	15.3	0.00e+00	0	42	0	3204448256	13	4398
2026-01-14 10:56:22.61	353.05	11.32	-26.5	-27.9	15.6	0.00e+00	0	43	0	3221225472	13	4223
2026-01-14 10:56:25.62	352.75	11.09	-26.4	-27.7	15.7	0.00e+00	0	43	0	3238002688	13	4186
2026-01-14 10:56:28.62	352.45	10.86	-26.6	-28.1	15.5	0.00e+00	0	42	0	3254779904	13	4287
2026-01-14 10:56:31.63	352.16	10.64	-26.6	-28.2	15.4	0.00e+00	0	42	0	3271557120	13	4320
2026-01-14 10:56:34.64	351.87	10.41	-26.9	-28.8	15.0	0.00e+00	0	43	0	3288334336	13	4491
2026-01-14 10:56:37.66	351.58	10.18	-27.1	-28.8	14.8	0.00e+00	0	43	0	3306160128	14	4359
2026-01-14 10:56:40.66	351.31	9.96	-27.0	-28.5	14.9	0.00e+00	0	43	0	3322937344	14	4299
2026-01-14 10:56:43.66	351.03	9.74	-27.1	-28.8	14.7	1.10e-06	0	43	0	3339714560	14	4376
2026-01-14 10:56:46.68	350.76	9.52	-26.9	-28.3	15.0	0.00e+00	0	43	0	3356491776	14	4240
2026-01-14 10:56:49.68	350.50	9.30	-27.0	-28.6	14.8	0.00e+00	0	43	0	3373268992	14	4318
2026-01-14 10:56:52.70	350.23	9.08	-27.1	-28.8	14.7	0.00e+00	0	43	0	3390046208	14	4373
2026-01-14 10:56:55.70	349.97	8.86	-27.5	-29.2	14.1	1.10e-06	0	43	0	3407872000	15	4369
2026-01-14 10:56:58.71	349.72	8.65	-27.3	-28.7	14.4	1.10e-06	0	43	0	3424649216	15	4236
2026-01-14 10:57:01.72	349.47	8.43	-27.3	-28.7	14.4	1.10e-06	0	43	0	3441426432	15	4252
2026-01-14 10:57:04.73	349.22	8.22	-27.1	-28.4	14.6	0.00e+00	0	43	0	3458203648	15	4159
2026-01-14 10:57:07.74	348.98	8.01	-27.4	-29.1	14.1	1.10e-06	0	42	0	3474980864	15	4352
2026-01-14 10:57:10.75	348.74	7.80	-27.4	-29.1	14.1	4.50e-06	0	43	0	3491758080	15	4370
2026-01-14 10:57:13.76	348.51	7.59	-27.3	-28.9	14.2	1.10e-06	0	43	0	3508535296	15	4302
2026-01-14 10:57:16.76	348.28	7.38	-27.3	-28.9	14.2	0.00e+00	0	43	0	3525312512	15	4293
2026-01-14 10:57:19.76	348.05	7.17	-27.2	-28.7	14.3	0.00e+00	0	43	0	3543138304	15	4248

#Closed at: 2026-01-14 10:57:22
#Recorded file [3552 MB]: D:/data/31010_260114_134649.dat