passes_logs/2026/01/14/R2M6_AANII_01/R2M6_AANII_01__20260114_155200_FENGYUN_3E_rec.log

#Pass ID: 20260114_155200_FENGYUN 3E
#Satellite: FENGYUN 3E
#Configuration: FENGYUN 3E
#almurnet v.1.7.20240730
#Start time: 2026-01-14 15:52:01

#Version: 2.2.20231116
#Station: R2M6_AANII_01
#Location: 30.233357 lon 59.946436 lat
#TLE: 1 49008U 21062A   26013.59634448 -.00000226  00000+0 -85925-4 0  9991
#TLE: 2 49008  98.7491  18.7414 0001953 139.1941 220.9382 14.19884160234649

#Time	Az	El	Level	Level2	SNR	BER	BlckErr	Temp	State	Recorded	gain1	gain2
2026-01-14 15:52:01.94	201.04	7.12	-27.8	-29.4	5.7	7.54e-01	0	41	0	0	15	4333
2026-01-14 15:52:04.95	201.27	7.32	-28.7	-29.9	10.9	2.99e-03	0	41	0	7340032	18	4159
2026-01-14 15:52:07.96	201.50	7.53	-27.8	-28.8	12.3	2.32e-04	0	41	0	28311552	16	4047
2026-01-14 15:52:10.95	201.74	7.74	-27.2	-28.0	13.0	7.09e-05	0	41	0	50331648	15	3932
2026-01-14 15:52:13.97	201.98	7.96	-27.0	-28.0	13.2	2.51e-05	0	41	0	72351744	14	4047
2026-01-14 15:52:16.98	202.22	8.17	-27.1	-28.2	13.1	3.66e-05	0	41	0	93323264	14	4096
2026-01-14 15:52:19.99	202.47	8.38	-26.8	-27.5	13.6	1.37e-05	0	41	0	115343360	14	3899
2026-01-14 15:52:23.01	202.72	8.60	-26.3	-26.9	14.2	2.20e-06	0	42	0	137363456	13	3850
2026-01-14 15:52:26.02	202.98	8.82	-26.6	-27.4	13.9	5.70e-06	0	42	0	159383552	13	3980
2026-01-14 15:52:29.02	203.23	9.04	-26.7	-27.7	13.8	5.70e-06	0	42	0	180355072	13	4045
2026-01-14 15:52:32.05	203.50	9.26	-26.5	-27.3	14.0	2.20e-06	0	42	0	202375168	13	3961
2026-01-14 15:52:35.05	203.76	9.48	-26.5	-27.4	14.0	5.70e-06	0	42	0	224395264	13	3970
2026-01-14 15:52:38.06	204.03	9.70	-26.4	-27.0	14.2	0.00e+00	0	42	0	246415360	13	3876
2026-01-14 15:52:41.06	204.31	9.93	-26.3	-26.9	14.3	2.20e-06	0	42	0	267386880	13	3831
2026-01-14 15:52:44.08	204.58	10.16	-26.0	-26.2	14.7	0.00e+00	0	42	0	289406976	13	3688
2026-01-14 15:52:47.09	204.87	10.38	-26.3	-26.8	14.4	2.20e-06	0	42	0	311427072	13	3830
2026-01-14 15:52:50.09	205.15	10.61	-26.4	-27.1	14.2	1.10e-06	0	42	0	332398592	13	3887
2026-01-14 15:52:53.10	205.44	10.84	-26.3	-26.7	14.5	1.10e-06	0	42	0	354418688	13	3806
2026-01-14 15:52:56.10	205.74	11.07	-26.1	-26.3	14.7	0.00e+00	0	42	0	376438784	13	3701
2026-01-14 15:52:59.10	206.03	11.31	-25.9	-26.0	14.9	0.00e+00	0	42	0	398458880	13	3637
2026-01-14 15:53:02.12	206.34	11.54	-26.1	-26.9	14.7	0.00e+00	0	42	0	419430400	12	3937
2026-01-14 15:53:05.12	206.65	11.78	-25.8	-26.2	15.1	0.00e+00	0	42	0	441450496	12	3771
2026-01-14 15:53:08.13	206.96	12.02	-25.8	-26.1	15.2	0.00e+00	0	42	0	462422016	12	3759
2026-01-14 15:53:11.14	207.28	12.26	-25.7	-26.0	15.3	1.10e-06	0	42	0	484442112	12	3717
2026-01-14 15:53:14.12	207.60	12.50	-25.8	-26.3	15.1	0.00e+00	0	42	0	506462208	12	3791
2026-01-14 15:53:17.14	207.93	12.74	-25.9	-26.4	15.0	1.10e-06	0	42	0	527433728	12	3828
2026-01-14 15:53:20.14	208.26	12.99	-25.6	-25.9	15.4	0.00e+00	0	42	0	549453824	12	3693
2026-01-14 15:53:23.15	208.60	13.23	-25.7	-26.0	15.3	0.00e+00	0	42	0	571473920	12	3731
2026-01-14 15:53:26.16	208.95	13.48	-25.6	-25.7	15.5	0.00e+00	0	42	0	593494016	12	3664
2026-01-14 15:53:29.17	209.30	13.73	-25.6	-25.7	15.5	0.00e+00	0	43	0	614465536	12	3650
2026-01-14 15:53:32.17	209.66	13.98	-25.5	-25.6	15.6	0.00e+00	0	43	0	636485632	12	3622
2026-01-14 15:53:35.17	210.02	14.24	-25.4	-25.8	15.8	0.00e+00	0	43	0	658505728	11	3778
2026-01-14 15:53:38.18	210.39	14.49	-25.2	-25.5	16.0	0.00e+00	0	43	0	679477248	11	3696
2026-01-14 15:53:41.19	210.76	14.75	-25.1	-25.2	16.1	0.00e+00	0	43	0	701497344	11	3641
2026-01-14 15:53:44.20	211.14	15.00	-25.3	-25.6	15.9	0.00e+00	0	43	0	723517440	11	3724
2026-01-14 15:53:47.21	211.53	15.26	-25.3	-25.6	16.0	0.00e+00	0	43	0	745537536	11	3727
2026-01-14 15:53:50.22	211.92	15.53	-25.5	-25.9	15.8	0.00e+00	0	43	0	766509056	11	3805
2026-01-14 15:53:53.23	212.32	15.79	-24.9	-24.8	16.4	0.00e+00	0	43	0	788529152	11	3533
2026-01-14 15:53:56.25	212.73	16.05	-24.9	-24.8	16.4	0.00e+00	0	43	0	810549248	11	3542
2026-01-14 15:53:59.26	213.15	16.32	-24.9	-25.2	16.5	0.00e+00	0	43	0	832569344	10	3735
2026-01-14 15:54:02.26	213.57	16.58	-24.8	-25.0	16.6	0.00e+00	0	43	0	853540864	10	3677
2026-01-14 15:54:05.26	214.00	16.85	-24.5	-24.3	17.0	0.00e+00	0	43	0	875560960	10	3534
2026-01-14 15:54:08.28	214.43	17.12	-24.4	-24.7	17.1	0.00e+00	0	43	0	897581056	9	3707
2026-01-14 15:54:11.30	214.88	17.40	-24.4	-24.7	17.1	0.00e+00	0	43	0	919601152	9	3717
2026-01-14 15:54:14.31	215.33	17.67	-24.5	-25.0	16.9	0.00e+00	0	43	0	940572672	9	3775
2026-01-14 15:54:17.32	215.79	17.94	-24.4	-24.7	17.1	0.00e+00	0	43	0	962592768	9	3714
2026-01-14 15:54:20.33	216.26	18.22	-24.4	-24.7	17.1	0.00e+00	0	43	0	984612864	9	3727
2026-01-14 15:54:23.34	216.74	18.49	-24.4	-24.7	17.1	0.00e+00	0	43	0	1005584384	9	3723
2026-01-14 15:54:26.35	217.22	18.77	-24.2	-24.3	17.3	0.00e+00	0	43	0	1027604480	9	3619
2026-01-14 15:54:29.36	217.72	19.05	-24.0	-23.8	17.6	0.00e+00	0	43	0	1049624576	9	3514
2026-01-14 15:54:32.37	218.22	19.33	-23.9	-24.1	17.7	0.00e+00	0	43	0	1070596096	8	3683
2026-01-14 15:54:35.38	218.73	19.61	-24.1	-24.5	17.5	0.00e+00	0	43	0	1092616192	8	3777
2026-01-14 15:54:38.39	219.25	19.89	-24.2	-24.8	17.4	0.00e+00	0	43	0	1114636288	8	3846
2026-01-14 15:54:41.41	219.79	20.18	-24.2	-24.8	17.4	0.00e+00	0	43	0	1136656384	8	3843
2026-01-14 15:54:44.43	220.33	20.46	-24.2	-24.6	17.5	0.00e+00	0	43	0	1157627904	8	3805
2026-01-14 15:54:47.43	220.88	20.74	-24.1	-24.6	17.5	0.00e+00	0	43	0	1179648000	8	3781
2026-01-14 15:54:50.44	221.44	21.03	-24.0	-24.3	17.7	0.00e+00	0	43	0	1201668096	8	3730
2026-01-14 15:54:53.46	222.01	21.31	-24.0	-24.3	17.7	0.00e+00	0	43	0	1223688192	8	3720
2026-01-14 15:54:56.47	222.59	21.60	-24.0	-24.3	17.7	0.00e+00	0	43	0	1244659712	8	3733
2026-01-14 15:54:59.49	223.18	21.89	-24.1	-24.5	17.6	0.00e+00	0	43	0	1266679808	8	3767
2026-01-14 15:55:02.50	223.78	22.17	-23.9	-24.1	17.8	0.00e+00	0	43	0	1288699904	8	3684
2026-01-14 15:55:05.50	224.39	22.46	-24.1	-24.6	17.6	0.00e+00	0	43	0	1310720000	8	3800
2026-01-14 15:55:08.51	225.02	22.74	-23.9	-24.1	17.8	0.00e+00	0	43	0	1331691520	8	3687
2026-01-14 15:55:11.52	225.65	23.03	-23.8	-23.9	17.9	0.00e+00	0	43	0	1353711616	8	3640
2026-01-14 15:55:14.54	226.30	23.31	-23.6	-23.6	18.1	0.00e+00	0	43	0	1375731712	8	3561
2026-01-14 15:55:17.55	226.96	23.60	-23.7	-23.6	18.1	0.00e+00	0	43	0	1397751808	8	3575
2026-01-14 15:55:20.56	227.63	23.88	-23.8	-23.8	18.0	0.00e+00	0	43	0	1418723328	8	3624
2026-01-14 15:55:23.58	228.31	24.16	-24.0	-24.4	17.7	0.00e+00	0	43	0	1440743424	8	3746
2026-01-14 15:55:26.58	229.00	24.45	-23.9	-24.1	17.9	0.00e+00	0	43	0	1462763520	8	3675
2026-01-14 15:55:29.60	229.71	24.73	-23.7	-23.7	18.1	0.00e+00	0	43	0	1484783616	8	3600
2026-01-14 15:55:32.61	230.43	25.00	-24.0	-24.3	17.8	0.00e+00	0	43	0	1505755136	8	3714
2026-01-14 15:55:35.62	231.16	25.28	-23.8	-23.8	18.1	0.00e+00	0	43	0	1527775232	8	3612
2026-01-14 15:55:38.63	231.90	25.55	-23.9	-24.0	18.0	0.00e+00	0	43	0	1549795328	8	3649
2026-01-14 15:55:41.64	232.66	25.83	-23.6	-23.5	18.2	2.20e-06	0	43	0	1570766848	8	3541
2026-01-14 15:55:44.65	233.43	26.10	-23.2	-23.2	18.6	3.40e-06	0	43	0	1592786944	7	3574
2026-01-14 15:55:47.66	234.21	26.36	-23.4	-23.6	18.4	5.70e-06	0	43	0	1614807040	7	3668
2026-01-14 15:55:50.68	235.01	26.63	-23.4	-23.5	18.5	3.40e-06	0	43	0	1636827136	7	3648
2026-01-14 15:55:53.68	235.81	26.89	-23.1	-22.9	18.8	0.00e+00	0	43	0	1657798656	7	3510
2026-01-14 15:55:56.69	236.63	27.14	-23.2	-23.1	18.7	0.00e+00	0	43	0	1679818752	7	3551
2026-01-14 15:55:59.69	237.46	27.40	-23.4	-23.4	18.5	0.00e+00	0	43	0	1701838848	7	3633
2026-01-14 15:56:02.71	238.31	27.64	-23.1	-23.0	18.8	0.00e+00	0	43	0	1722810368	7	3525
2026-01-14 15:56:05.72	239.17	27.89	-23.3	-23.4	18.5	0.00e+00	0	43	0	1744830464	7	3625
2026-01-14 15:56:08.73	240.04	28.13	-23.4	-23.5	18.5	0.00e+00	0	43	0	1766850560	7	3642
2026-01-14 15:56:11.74	240.93	28.36	-23.4	-23.5	18.5	0.00e+00	0	43	0	1787822080	7	3637
2026-01-14 15:56:14.74	241.82	28.59	-23.3	-23.3	18.6	0.00e+00	0	43	0	1809842176	7	3591
2026-01-14 15:56:17.75	242.73	28.81	-23.3	-23.2	18.6	0.00e+00	0	43	0	1831862272	7	3580
2026-01-14 15:56:20.76	243.65	29.03	-23.0	-22.8	18.9	0.00e+00	0	43	0	1853882368	7	3483
2026-01-14 15:56:23.78	244.59	29.24	-23.5	-23.7	18.4	0.00e+00	0	43	0	1874853888	7	3683
2026-01-14 15:56:26.79	245.53	29.45	-23.2	-23.2	18.7	0.00e+00	0	43	0	1896873984	7	3573
2026-01-14 15:56:29.80	246.49	29.64	-23.3	-23.3	18.6	0.00e+00	0	43	0	1918894080	7	3606
2026-01-14 15:56:32.81	247.46	29.83	-23.4	-23.5	18.5	0.00e+00	0	43	0	1940914176	7	3644
2026-01-14 15:56:35.82	248.44	30.01	-23.5	-23.7	18.4	0.00e+00	0	43	0	1961885696	7	3697
2026-01-14 15:56:38.83	249.43	30.19	-23.3	-23.3	18.7	0.00e+00	0	43	0	1983905792	7	3592
2026-01-14 15:56:41.85	250.43	30.35	-23.2	-23.1	18.8	0.00e+00	0	43	0	2005925888	7	3551
2026-01-14 15:56:44.86	251.44	30.51	-23.2	-23.2	18.7	0.00e+00	0	43	0	2027945984	7	3582
2026-01-14 15:56:47.87	252.46	30.66	-23.4	-23.5	18.5	0.00e+00	0	43	0	2048917504	7	3654
2026-01-14 15:56:50.88	253.49	30.80	-23.5	-23.6	18.5	0.00e+00	0	43	0	2070937600	7	3674
2026-01-14 15:56:53.89	254.52	30.93	-23.3	-23.3	18.6	0.00e+00	0	43	0	2092957696	7	3601
2026-01-14 15:56:56.91	255.57	31.05	-23.2	-23.0	18.8	0.00e+00	0	43	0	2114977792	7	3542
2026-01-14 15:56:59.91	256.62	31.16	-23.2	-23.1	18.7	0.00e+00	0	43	0	2135949312	7	3547
2026-01-14 15:57:02.92	257.68	31.25	-23.2	-23.1	18.7	0.00e+00	0	43	0	2157969408	7	3568
2026-01-14 15:57:05.92	258.74	31.34	-22.8	-22.8	19.2	0.00e+00	0	43	0	2179989504	6	3584
2026-01-14 15:57:08.93	259.81	31.42	-23.0	-23.3	19.0	0.00e+00	0	43	0	2200961024	6	3692
2026-01-14 15:57:11.94	260.88	31.49	-23.1	-23.4	18.8	0.00e+00	0	43	0	2222981120	6	3718
2026-01-14 15:57:14.95	261.96	31.55	-22.9	-23.0	19.1	0.00e+00	0	43	0	2245001216	6	3632
2026-01-14 15:57:17.96	263.04	31.59	-23.2	-23.5	18.8	0.00e+00	0	43	0	2267021312	6	3754
2026-01-14 15:57:20.96	264.12	31.63	-23.3	-23.8	18.7	0.00e+00	0	43	0	2287992832	6	3810
2026-01-14 15:57:23.97	265.21	31.65	-23.3	-23.8	18.7	0.00e+00	0	43	0	2310012928	6	3802
2026-01-14 15:57:26.98	266.30	31.67	-23.1	-23.4	18.9	0.00e+00	0	43	0	2330984448	6	3708
2026-01-14 15:57:29.97	267.38	31.67	-22.9	-22.9	19.1	0.00e+00	0	43	0	2353004544	6	3617
2026-01-14 15:57:32.97	268.46	31.66	-22.8	-22.8	19.2	0.00e+00	0	43	0	2375024640	6	3573
2026-01-14 15:57:35.98	269.55	31.64	-22.7	-22.4	19.4	0.00e+00	0	43	0	2395996160	6	3504
2026-01-14 15:57:38.99	270.63	31.61	-23.2	-23.7	18.8	0.00e+00	0	43	0	2418016256	6	3777
2026-01-14 15:57:42.00	271.71	31.57	-23.5	-24.3	18.5	0.00e+00	0	43	0	2440036352	6	3918
2026-01-14 15:57:45.01	272.79	31.51	-23.1	-23.4	18.9	0.00e+00	0	43	0	2462056448	6	3717
2026-01-14 15:57:48.01	273.86	31.45	-23.6	-24.0	18.4	0.00e+00	0	43	0	2483027968	7	3760
2026-01-14 15:57:51.03	274.94	31.37	-23.2	-23.0	18.8	0.00e+00	0	43	0	2505048064	7	3539
2026-01-14 15:57:54.03	276.00	31.29	-23.0	-22.6	19.1	0.00e+00	0	43	0	2527068160	7	3441
2026-01-14 15:57:57.05	277.06	31.19	-23.1	-22.8	18.9	0.00e+00	0	43	0	2549088256	7	3496
2026-01-14 15:58:00.07	278.12	31.09	-23.3	-23.4	18.7	0.00e+00	0	43	0	2570059776	7	3611
2026-01-14 15:58:03.07	279.16	30.97	-23.2	-23.0	18.8	0.00e+00	0	43	0	2592079872	7	3529
2026-01-14 15:58:06.08	280.20	30.84	-23.2	-23.1	18.8	0.00e+00	0	43	0	2614099968	7	3554
2026-01-14 15:58:09.10	281.23	30.71	-23.3	-23.3	18.7	0.00e+00	0	43	0	2636120064	7	3592
2026-01-14 15:58:12.11	282.25	30.57	-23.3	-23.3	18.8	0.00e+00	0	43	0	2657091584	7	3592
2026-01-14 15:58:15.11	283.26	30.41	-23.4	-23.5	18.6	0.00e+00	0	43	0	2679111680	7	3653
2026-01-14 15:58:18.11	284.26	30.25	-23.3	-23.4	18.6	0.00e+00	0	43	0	2701131776	7	3618
2026-01-14 15:58:21.11	285.24	30.08	-23.3	-23.3	18.7	0.00e+00	0	43	0	2722103296	7	3607
2026-01-14 15:58:24.12	286.22	29.90	-23.3	-23.3	18.7	0.00e+00	0	43	0	2744123392	7	3607
2026-01-14 15:58:27.13	287.19	29.72	-23.5	-23.6	18.5	0.00e+00	0	43	0	2766143488	7	3666
2026-01-14 15:58:30.14	288.15	29.52	-23.2	-23.2	18.7	0.00e+00	0	43	0	2787115008	7	3571
2026-01-14 15:58:33.13	289.09	29.33	-23.2	-23.1	18.8	0.00e+00	0	43	0	2809135104	7	3547
2026-01-14 15:58:36.12	290.02	29.12	-23.4	-23.5	18.6	0.00e+00	0	43	0	2831155200	7	3634
2026-01-14 15:58:39.12	290.94	28.91	-23.2	-23.2	18.8	0.00e+00	0	43	0	2852126720	7	3567
2026-01-14 15:58:42.13	291.86	28.69	-23.3	-23.2	18.7	0.00e+00	0	43	0	2874146816	7	3574
2026-01-14 15:58:45.14	292.75	28.46	-23.6	-23.9	18.4	0.00e+00	0	43	0	2895118336	7	3724
2026-01-14 15:58:48.15	293.64	28.23	-23.3	-23.3	18.7	0.00e+00	0	43	0	2917138432	7	3610
2026-01-14 15:58:51.15	294.51	28.00	-23.5	-23.6	18.5	0.00e+00	0	43	0	2939158528	7	3669
2026-01-14 15:58:54.16	295.37	27.75	-23.5	-23.8	18.5	0.00e+00	0	43	0	2961178624	7	3696
2026-01-14 15:58:57.17	296.22	27.51	-23.3	-23.3	18.5	0.00e+00	0	43	0	2982150144	7	3592
2026-01-14 15:59:00.17	297.05	27.26	-23.5	-23.7	18.5	0.00e+00	0	43	0	3004170240	7	3682
2026-01-14 15:59:03.18	297.88	27.01	-23.8	-24.3	18.2	0.00e+00	0	43	0	3026190336	7	3821
2026-01-14 15:59:06.19	298.69	26.75	-23.7	-24.2	18.2	0.00e+00	0	43	0	3047161856	7	3796
2026-01-14 15:59:09.20	299.48	26.49	-23.6	-23.8	18.4	0.00e+00	0	43	0	3069181952	7	3712
2026-01-14 15:59:12.21	300.27	26.22	-23.5	-23.8	18.4	0.00e+00	0	43	0	3091202048	7	3702
2026-01-14 15:59:15.23	301.04	25.96	-23.6	-23.8	18.4	0.00e+00	0	43	0	3113222144	7	3713
2026-01-14 15:59:18.24	301.80	25.69	-23.6	-24.0	18.3	0.00e+00	0	43	0	3134193664	7	3761
2026-01-14 15:59:21.25	302.54	25.42	-23.6	-24.0	18.3	0.00e+00	0	43	0	3156213760	7	3750
2026-01-14 15:59:24.27	303.28	25.14	-23.8	-24.4	18.1	0.00e+00	0	43	0	3178233856	7	3842
2026-01-14 15:59:27.27	304.00	24.87	-23.9	-24.5	18.0	0.00e+00	0	43	0	3200253952	7	3876
2026-01-14 15:59:30.28	304.71	24.59	-23.7	-24.2	18.2	0.00e+00	0	43	0	3221225472	7	3801
2026-01-14 15:59:33.28	305.40	24.31	-23.7	-24.2	18.2	0.00e+00	0	43	0	3243245568	7	3795
2026-01-14 15:59:36.29	306.09	24.03	-23.9	-24.5	18.0	0.00e+00	0	43	0	3265265664	7	3865
2026-01-14 15:59:39.30	306.76	23.75	-24.0	-24.7	17.9	0.00e+00	0	43	0	3287285760	7	3926
2026-01-14 15:59:42.32	307.42	23.47	-24.2	-24.7	17.7	0.00e+00	0	43	0	3308257280	8	3810
2026-01-14 15:59:45.33	308.07	23.19	-24.1	-24.5	17.8	0.00e+00	0	43	0	3330277376	8	3773
2026-01-14 15:59:48.34	308.71	22.90	-24.2	-24.6	17.8	0.00e+00	0	43	0	3352297472	8	3779
2026-01-14 15:59:51.34	309.33	22.62	-24.0	-24.2	17.9	1.10e-06	0	43	0	3373268992	8	3704
2026-01-14 15:59:54.34	309.95	22.34	-24.1	-24.4	17.9	0.00e+00	0	43	0	3395289088	8	3730
2026-01-14 15:59:57.34	310.55	22.05	-24.3	-24.9	17.6	0.00e+00	0	43	0	3417309184	8	3851
2026-01-14 16:00:00.35	311.14	21.77	-24.5	-24.9	17.3	0.00e+00	0	44	0	3439329280	9	3741
2026-01-14 16:00:03.36	311.73	21.49	-24.7	-25.3	17.1	0.00e+00	0	43	0	3460300800	9	3842
2026-01-14 16:00:06.37	312.30	21.20	-24.8	-25.4	17.0	0.00e+00	0	43	0	3482320896	9	3876
2026-01-14 16:00:09.37	312.86	20.92	-24.4	-24.6	17.5	0.00e+00	0	43	0	3503292416	9	3676
2026-01-14 16:00:12.37	313.41	20.64	-24.5	-24.8	17.3	0.00e+00	0	43	0	3525312512	9	3734
2026-01-14 16:00:15.38	313.95	20.36	-24.7	-25.3	17.0	0.00e+00	0	43	0	3547332608	9	3848
2026-01-14 16:00:18.39	314.49	20.08	-25.0	-25.9	16.7	0.00e+00	0	43	0	3568304128	9	3983
2026-01-14 16:00:21.40	315.01	19.80	-25.0	-25.8	16.8	0.00e+00	0	43	0	3590324224	9	3977
2026-01-14 16:00:24.41	315.53	19.52	-24.9	-25.6	16.9	0.00e+00	0	43	0	3612344320	9	3910
2026-01-14 16:00:27.42	316.03	19.24	-24.5	-24.9	17.2	0.00e+00	0	44	0	3634364416	9	3756
2026-01-14 16:00:30.43	316.53	18.96	-24.6	-25.0	17.2	0.00e+00	0	43	0	3655335936	9	3773
2026-01-14 16:00:33.45	317.02	18.69	-24.7	-25.3	17.0	0.00e+00	0	43	0	3677356032	9	3850
2026-01-14 16:00:36.46	317.50	18.41	-25.2	-25.8	16.5	0.00e+00	0	44	0	3699376128	10	3867
2026-01-14 16:00:39.46	317.97	18.14	-25.6	-26.6	16.0	0.00e+00	0	43	0	3721396224	10	4055
2026-01-14 16:00:42.47	318.43	17.87	-25.8	-26.7	15.7	0.00e+00	0	43	0	3742367744	11	3973
2026-01-14 16:00:45.49	318.89	17.59	-25.6	-26.1	16.0	0.00e+00	0	43	0	3764387840	11	3836
2026-01-14 16:00:48.50	319.34	17.32	-25.3	-25.6	16.3	0.00e+00	0	43	0	3786407936	11	3707
2026-01-14 16:00:51.50	319.78	17.06	-25.2	-25.3	16.4	0.00e+00	0	43	0	3808428032	11	3652
2026-01-14 16:00:54.52	320.21	16.79	-25.1	-25.1	16.6	0.00e+00	0	43	0	3829399552	11	3594
2026-01-14 16:00:57.53	320.63	16.52	-25.3	-25.5	16.3	0.00e+00	0	43	0	3851419648	11	3687
2026-01-14 16:01:00.54	321.05	16.26	-25.4	-25.8	16.2	1.10e-06	0	43	0	3873439744	11	3751
2026-01-14 16:01:03.54	321.46	16.00	-25.6	-26.1	16.0	0.00e+00	0	44	0	3894411264	11	3831
2026-01-14 16:01:06.55	321.86	15.73	-25.7	-26.4	15.8	0.00e+00	0	43	0	3916431360	11	3909
2026-01-14 16:01:09.55	322.26	15.48	-25.9	-26.7	15.6	0.00e+00	0	43	0	3938451456	11	3988
2026-01-14 16:01:12.56	322.65	15.22	-25.7	-26.4	15.8	0.00e+00	0	43	0	3960471552	11	3900
2026-01-14 16:01:15.57	323.04	14.96	-25.5	-26.0	16.0	0.00e+00	0	43	0	3981443072	11	3814
2026-01-14 16:01:18.57	323.41	14.71	-25.5	-26.0	16.0	0.00e+00	0	43	0	4003463168	11	3816
2026-01-14 16:01:21.58	323.78	14.45	-25.5	-26.0	16.0	0.00e+00	0	43	0	4025483264	11	3814
2026-01-14 16:01:24.59	324.15	14.20	-25.6	-26.2	15.9	0.00e+00	0	43	0	4046454784	11	3849
2026-01-14 16:01:27.59	324.51	13.95	-25.8	-26.7	15.6	0.00e+00	0	44	0	4068474880	11	3971
2026-01-14 16:01:30.60	324.86	13.70	-26.1	-27.2	15.3	0.00e+00	0	43	0	4090494976	11	4095
2026-01-14 16:01:33.61	325.21	13.46	-26.2	-26.9	15.1	0.00e+00	0	44	0	4111466496	12	3928
2026-01-14 16:01:36.62	325.55	13.21	-26.1	-26.7	15.2	0.00e+00	0	43	0	4133486592	12	3873
2026-01-14 16:01:39.63	325.89	12.97	-26.1	-26.7	15.2	0.00e+00	0	43	0	4155506688	12	3877
2026-01-14 16:01:42.65	326.22	12.72	-26.0	-26.6	15.2	0.00e+00	0	44	0	4177526784	12	3860
2026-01-14 16:01:45.66	326.55	12.48	-26.2	-27.0	15.0	0.00e+00	0	43	0	4198498304	12	3938
2026-01-14 16:01:48.66	326.87	12.24	-26.3	-27.3	14.8	0.00e+00	0	43	0	4220518400	12	4026
2026-01-14 16:01:51.67	327.19	12.01	-26.4	-27.5	14.7	0.00e+00	0	44	0	4242538496	12	4077
2026-01-14 16:01:54.68	327.50	11.77	-26.7	-27.6	14.3	1.10e-06	0	44	0	4263510016	13	4009
2026-01-14 16:01:57.70	327.81	11.53	-26.5	-27.1	14.6	2.20e-06	0	43	0	4285530112	13	3873
2026-01-14 16:02:00.71	328.11	11.30	-26.7	-27.6	14.3	0.00e+00	0	43	0	4307550208	13	3992
2026-01-14 16:02:03.72	328.41	11.07	-26.2	-26.6	14.9	0.00e+00	0	44	0	4329570304	13	3755
2026-01-14 16:02:06.73	328.70	10.84	-26.2	-26.6	14.8	0.00e+00	0	44	0	4350541824	13	3752
2026-01-14 16:02:09.75	328.99	10.61	-26.3	-26.8	14.7	1.10e-06	0	43	0	4372561920	13	3801
2026-01-14 16:02:12.76	329.28	10.38	-26.5	-27.2	14.5	0.00e+00	0	43	0	4394582016	13	3898
2026-01-14 16:02:15.77	329.56	10.16	-26.6	-27.5	14.3	0.00e+00	0	43	0	4416602112	13	3980
2026-01-14 16:02:18.78	329.84	9.93	-26.7	-27.7	14.2	1.10e-06	0	43	0	4437573632	13	4035
2026-01-14 16:02:21.79	330.11	9.71	-26.8	-27.9	14.0	1.10e-06	0	43	0	4459593728	13	4086
2026-01-14 16:02:24.80	330.38	9.49	-27.0	-28.3	13.8	5.70e-06	0	44	0	4481613824	13	4198
2026-01-14 16:02:27.81	330.64	9.27	-27.3	-28.5	13.4	1.48e-05	0	44	0	4503633920	14	4142
2026-01-14 16:02:30.81	330.90	9.05	-27.1	-28.0	13.7	6.80e-06	0	44	0	4524605440	14	4006
2026-01-14 16:02:33.82	331.16	8.84	-27.3	-28.6	13.3	1.83e-05	0	44	0	4546625536	14	4163
2026-01-14 16:02:36.84	331.42	8.62	-27.1	-28.1	13.5	1.37e-05	0	43	0	4568645632	14	4047
2026-01-14 16:02:39.85	331.67	8.41	-27.1	-28.0	13.6	1.48e-05	0	44	0	4590665728	14	4020
2026-01-14 16:02:42.85	331.91	8.19	-27.2	-28.3	13.4	1.25e-05	0	43	0	4611637248	14	4088
2026-01-14 16:02:45.86	332.16	7.98	-27.1	-28.1	13.4	2.17e-05	0	43	0	4633657344	14	4044
2026-01-14 16:02:48.87	332.40	7.77	-27.2	-28.4	13.3	3.08e-05	0	43	0	4654628864	14	4118
2026-01-14 16:02:51.88	332.64	7.56	-27.3	-28.0	13.2	2.40e-05	0	43	0	4676648960	15	3917
2026-01-14 16:02:54.88	332.87	7.36	-27.4	-28.4	12.9	5.03e-05	0	43	0	4698669056	15	4022
2026-01-14 16:02:57.89	333.10	7.15	-27.4	-28.4	12.9	5.37e-05	0	44	0	4719640576	15	4010

#Closed at: 2026-01-14 16:03:00
#Recorded file [4731 MB]: D:/data/31010_260114_185203.dat