passes_logs/2026/01/14/R2M6_AANII_01/R2M6_AANII_01__20260114_123237_FENGYUN_3E_rec.log

#Pass ID: 20260114_123237_FENGYUN 3E
#Satellite: FENGYUN 3E
#Configuration: FENGYUN 3E
#almurnet v.1.7.20240730
#Start time: 2026-01-14 12:38:02

#Version: 2.2.20231116
#Station: R2M6_AANII_01
#Location: 30.233357 lon 59.946436 lat
#TLE: 1 49008U 21062A   26013.31447241  .00000001  00000+0  21294-4 0  9992
#TLE: 2 49008  98.7491  18.4630 0001950 139.8565 220.2756 14.19884983234609

#Time	Az	El	Level	Level2	SNR	BER	BlckErr	Temp	State	Recorded	gain1	gain2
2026-01-14 12:38:02.08	33.58	21.30	-33.9	-45.2	3.8	8.46e-01	0	42	0	0	27	13361
2026-01-14 12:38:04.08	33.07	21.25	-34.1	-43.2	3.8	8.46e-01	0	43	104	0	29	10281
2026-01-14 12:38:06.09	32.56	21.20	-34.3	-43.5	3.8	8.47e-01	0	43	104	0	29	10406
2026-01-14 12:38:08.10	32.04	21.15	-34.4	-43.6	3.8	8.46e-01	0	43	104	0	29	10473
2026-01-14 12:38:10.10	31.54	21.10	-34.5	-43.8	3.8	8.46e-01	0	43	104	0	29	10564
2026-01-14 12:38:12.11	31.03	21.04	-34.4	-43.7	3.8	8.46e-01	0	43	104	0	29	10490
2026-01-14 12:38:14.12	30.52	20.98	-34.4	-43.7	3.8	8.45e-01	0	43	104	0	29	10415
2026-01-14 12:38:16.11	30.02	20.92	-34.4	-43.7	3.8	8.46e-01	0	43	104	0	29	10446
2026-01-14 12:38:18.12	29.52	20.86	-34.4	-43.7	3.8	8.46e-01	0	43	104	0	29	10465
2026-01-14 12:38:20.11	29.03	20.79	-34.4	-43.7	3.8	8.46e-01	0	43	104	0	29	10480
2026-01-14 12:38:22.12	28.53	20.73	-34.4	-43.6	3.8	8.47e-01	0	43	104	0	29	10424
2026-01-14 12:38:24.13	28.03	20.66	-34.4	-43.7	3.8	8.47e-01	0	43	104	0	29	10460
2026-01-14 12:38:26.14	27.54	20.58	-34.6	-44.0	3.8	8.46e-01	0	43	104	0	29	10683
2026-01-14 12:38:28.15	27.05	20.51	-34.5	-44.0	3.8	8.46e-01	0	43	104	0	29	10692
2026-01-14 12:38:30.15	26.56	20.43	-34.5	-44.0	3.8	8.46e-01	0	43	104	0	29	10690
2026-01-14 12:38:32.16	26.08	20.36	-34.5	-43.9	3.8	8.46e-01	0	42	104	0	29	10622
2026-01-14 12:38:34.16	25.60	20.28	-34.5	-43.9	3.8	8.45e-01	0	43	104	0	29	10612
2026-01-14 12:38:36.16	25.12	20.20	-34.4	-43.7	3.8	8.46e-01	0	43	104	0	29	10510
2026-01-14 12:38:38.17	24.64	20.11	-34.3	-43.4	3.8	8.47e-01	0	43	104	0	29	10314
2026-01-14 12:38:40.17	24.16	20.03	-33.9	-41.9	3.8	8.47e-01	0	43	104	0	29	8976
2026-01-14 12:38:42.18	23.69	19.94	-33.9	-42.5	3.8	8.45e-01	0	43	104	0	28	9695
2026-01-14 12:38:44.18	23.22	19.85	-33.9	-43.1	3.8	8.45e-01	0	43	104	0	28	10316
2026-01-14 12:38:46.19	22.76	19.76	-33.9	-42.7	3.8	8.46e-01	0	43	104	0	28	9889
2026-01-14 12:38:48.20	22.29	19.67	-33.7	-41.5	3.8	8.45e-01	0	43	104	0	28	8818
2026-01-14 12:38:50.20	21.83	19.58	-33.2	-38.7	4.1	8.38e-01	0	43	104	0	27	6760
2026-01-14 12:38:52.21	21.37	19.48	-32.7	-36.7	5.5	7.02e-01	0	43	0	0	26	5733
2026-01-14 12:38:54.22	20.92	19.38	-31.6	-34.0	7.8	1.42e-01	0	43	0	10485760	24	4755
2026-01-14 12:38:56.24	20.46	19.29	-28.8	-29.7	12.4	4.65e-04	0	43	0	26214400	18	4008
2026-01-14 12:38:58.23	20.02	19.19	-28.8	-29.8	12.4	2.17e-04	0	43	0	39845888	18	4034
2026-01-14 12:39:00.24	19.57	19.09	-28.0	-28.3	13.5	1.94e-05	0	43	0	54525952	17	3754
2026-01-14 12:39:02.24	19.13	18.98	-27.4	-27.6	14.2	1.10e-06	0	43	0	69206016	16	3668
2026-01-14 12:39:04.24	18.69	18.88	-27.0	-27.2	14.6	0.00e+00	0	43	0	83886080	15	3680
2026-01-14 12:39:06.24	18.25	18.78	-27.1	-27.4	14.4	2.20e-06	0	43	0	97517568	15	3734
2026-01-14 12:39:08.24	17.82	18.67	-27.6	-28.6	13.7	1.14e-05	0	43	0	112197632	15	4036
2026-01-14 12:39:10.24	17.39	18.56	-26.3	-26.6	15.4	0.00e+00	0	43	0	126877696	13	3735
2026-01-14 12:39:12.25	16.96	18.45	-25.3	-25.5	16.6	0.00e+00	0	43	0	141557760	11	3679
2026-01-14 12:39:14.26	16.54	18.34	-24.9	-24.7	17.0	0.00e+00	0	43	0	155189248	11	3496
2026-01-14 12:39:16.25	16.12	18.23	-25.0	-25.3	17.0	0.00e+00	0	43	0	169869312	10	3736
2026-01-14 12:39:18.26	15.70	18.12	-24.9	-25.2	17.0	0.00e+00	0	43	0	184549376	10	3724
2026-01-14 12:39:20.26	15.28	18.01	-25.0	-25.3	16.9	0.00e+00	0	43	0	199229440	10	3739
2026-01-14 12:39:22.27	14.87	17.89	-24.9	-25.0	17.1	0.00e+00	0	43	0	213909504	10	3680
2026-01-14 12:39:24.27	14.46	17.78	-24.9	-25.1	17.0	0.00e+00	0	43	0	227540992	10	3706
2026-01-14 12:39:26.28	14.06	17.66	-25.0	-25.5	16.8	0.00e+00	0	43	0	242221056	10	3783
2026-01-14 12:39:28.29	13.65	17.55	-25.1	-25.7	16.7	0.00e+00	0	43	0	256901120	10	3826
2026-01-14 12:39:30.30	13.25	17.43	-25.6	-26.1	16.2	0.00e+00	0	43	0	271581184	11	3821
2026-01-14 12:39:32.30	12.86	17.31	-25.6	-26.2	16.1	0.00e+00	0	43	0	286261248	11	3857
2026-01-14 12:39:34.32	12.46	17.19	-25.7	-26.3	16.1	0.00e+00	0	43	0	299892736	11	3876
2026-01-14 12:39:36.32	12.07	17.07	-25.9	-26.8	15.9	0.00e+00	0	43	0	314572800	11	3981
2026-01-14 12:39:38.33	11.68	16.95	-25.7	-25.8	16.0	0.00e+00	0	43	0	329252864	12	3664
2026-01-14 12:39:40.33	11.30	16.83	-25.4	-25.8	16.3	0.00e+00	0	43	0	343932928	11	3757
2026-01-14 12:39:42.33	10.92	16.70	-25.3	-25.4	16.5	0.00e+00	0	43	0	358612992	11	3663
2026-01-14 12:39:44.33	10.55	16.58	-25.2	-25.4	16.6	0.00e+00	0	43	0	373293056	11	3655
2026-01-14 12:39:46.34	10.17	16.46	-25.3	-25.5	16.5	0.00e+00	0	43	0	386924544	11	3684
2026-01-14 12:39:48.34	9.80	16.33	-25.3	-25.4	16.5	0.00e+00	0	43	0	401604608	11	3666
2026-01-14 12:39:50.35	9.43	16.21	-25.4	-25.8	16.3	0.00e+00	0	43	0	416284672	11	3761
2026-01-14 12:39:52.35	9.07	16.08	-25.4	-25.8	16.3	0.00e+00	0	43	0	430964736	11	3768
2026-01-14 12:39:54.36	8.70	15.96	-25.4	-25.8	16.3	0.00e+00	0	43	0	445644800	11	3754
2026-01-14 12:39:56.36	8.35	15.83	-25.4	-25.7	16.3	0.00e+00	0	43	0	459276288	11	3743
2026-01-14 12:39:58.36	7.99	15.70	-25.3	-25.5	16.4	0.00e+00	0	43	0	473956352	11	3697
2026-01-14 12:40:00.37	7.64	15.58	-25.5	-25.8	16.3	0.00e+00	0	43	0	488636416	11	3763
2026-01-14 12:40:02.38	7.29	15.45	-25.6	-26.2	16.1	0.00e+00	0	43	0	503316480	11	3849
2026-01-14 12:40:04.39	6.94	15.32	-25.8	-26.5	15.9	0.00e+00	0	42	0	517996544	11	3931
2026-01-14 12:40:06.38	6.60	15.19	-25.9	-26.8	15.8	0.00e+00	0	43	0	531628032	11	3987
2026-01-14 12:40:08.38	6.26	15.06	-25.8	-26.7	15.8	0.00e+00	0	43	0	546308096	11	3969
2026-01-14 12:40:10.38	5.92	14.93	-25.9	-26.8	15.7	0.00e+00	0	43	0	560988160	11	4007
2026-01-14 12:40:12.38	5.59	14.80	-26.0	-26.5	15.5	0.00e+00	0	43	0	574619648	12	3820
2026-01-14 12:40:14.37	5.26	14.67	-26.0	-26.5	15.5	0.00e+00	0	43	0	589299712	12	3829
2026-01-14 12:40:16.37	4.93	14.54	-25.8	-26.2	15.7	0.00e+00	0	43	0	603979776	12	3742
2026-01-14 12:40:18.38	4.61	14.41	-25.8	-26.1	15.7	0.00e+00	0	43	0	618659840	12	3719
2026-01-14 12:40:20.37	4.29	14.28	-25.9	-26.3	15.6	0.00e+00	0	43	0	632291328	12	3781
2026-01-14 12:40:22.37	3.97	14.15	-25.9	-26.2	15.6	0.00e+00	0	43	0	646971392	12	3761
2026-01-14 12:40:24.37	3.65	14.02	-26.0	-26.5	15.5	0.00e+00	0	43	0	661651456	12	3815
2026-01-14 12:40:26.37	3.34	13.89	-26.1	-26.8	15.3	0.00e+00	0	43	0	676331520	12	3902
2026-01-14 12:40:28.36	3.03	13.76	-25.8	-26.1	15.6	0.00e+00	0	43	0	691011584	12	3740
2026-01-14 12:40:30.36	2.72	13.63	-25.8	-26.1	15.7	0.00e+00	0	43	0	704643072	12	3724
2026-01-14 12:40:32.35	2.42	13.50	-25.8	-26.2	15.6	0.00e+00	0	43	0	719323136	12	3748
2026-01-14 12:40:34.36	2.12	13.37	-26.0	-26.5	15.4	0.00e+00	0	43	0	734003200	12	3825
2026-01-14 12:40:36.37	1.82	13.24	-26.1	-26.8	15.2	0.00e+00	0	43	0	748683264	12	3908
2026-01-14 12:40:38.36	1.52	13.11	-26.3	-27.2	15.0	0.00e+00	0	43	0	762314752	12	4008
2026-01-14 12:40:40.36	1.23	12.97	-26.3	-27.3	15.0	0.00e+00	0	43	0	776994816	12	4026
2026-01-14 12:40:42.37	0.93	12.84	-26.6	-27.3	14.7	0.00e+00	0	43	0	791674880	13	3920
2026-01-14 12:40:44.37	0.64	12.71	-26.3	-26.7	15.0	0.00e+00	0	43	0	806354944	13	3766
2026-01-14 12:40:46.38	0.36	12.58	-26.2	-26.5	15.1	0.00e+00	0	43	0	819986432	13	3723
2026-01-14 12:40:48.39	0.07	12.45	-26.3	-26.7	15.0	0.00e+00	0	43	0	835715072	13	3777
2026-01-14 12:40:50.40	359.79	12.31	-26.2	-26.5	15.1	0.00e+00	0	43	0	849346560	13	3728
2026-01-14 12:40:52.41	359.51	12.18	-26.3	-26.7	15.0	0.00e+00	0	43	0	864026624	13	3764
2026-01-14 12:40:54.42	359.23	12.05	-26.4	-26.9	14.8	0.00e+00	0	43	0	878706688	13	3833
2026-01-14 12:40:56.43	358.96	11.92	-26.4	-27.0	14.8	0.00e+00	0	43	0	893386752	13	3851
2026-01-14 12:40:58.44	358.69	11.78	-26.3	-26.7	14.9	0.00e+00	0	43	0	908066816	13	3779
2026-01-14 12:41:00.43	358.42	11.65	-26.2	-26.5	15.1	0.00e+00	0	43	0	922746880	13	3728
2026-01-14 12:41:02.43	358.15	11.52	-26.4	-26.9	14.8	0.00e+00	0	43	0	936378368	13	3831
2026-01-14 12:41:04.43	357.89	11.39	-26.6	-27.4	14.6	0.00e+00	0	43	0	951058432	13	3947
2026-01-14 12:41:06.44	357.63	11.26	-26.6	-27.4	14.5	0.00e+00	0	43	0	965738496	13	3960
2026-01-14 12:41:08.44	357.37	11.13	-26.8	-27.9	14.3	1.10e-06	0	43	0	980418560	13	4068
2026-01-14 12:41:10.44	357.11	11.00	-26.7	-27.6	14.4	0.00e+00	0	43	0	994050048	13	3996
2026-01-14 12:41:12.44	356.86	10.87	-26.4	-26.9	14.8	0.00e+00	0	43	0	1008730112	13	3831
2026-01-14 12:41:14.45	356.61	10.74	-26.4	-26.9	14.8	0.00e+00	0	43	0	1023410176	13	3817
2026-01-14 12:41:16.45	356.36	10.61	-26.5	-27.1	14.7	0.00e+00	0	43	0	1038090240	13	3886
2026-01-14 12:41:18.46	356.11	10.48	-26.8	-27.8	14.3	1.10e-06	0	43	0	1051721728	13	4045
2026-01-14 12:41:20.47	355.86	10.35	-27.0	-28.4	13.9	5.70e-06	0	43	0	1066401792	13	4199
2026-01-14 12:41:22.47	355.62	10.22	-27.3	-28.6	13.5	1.02e-05	0	43	0	1081081856	14	4156
2026-01-14 12:41:24.47	355.38	10.09	-27.3	-28.4	13.6	9.10e-06	0	43	0	1095761920	14	4098
2026-01-14 12:41:26.47	355.14	9.96	-27.3	-28.5	13.6	1.94e-05	0	43	0	1110441984	14	4124
2026-01-14 12:41:28.47	354.91	9.83	-27.0	-27.9	13.9	2.20e-06	0	43	0	1124073472	14	3966
2026-01-14 12:41:30.48	354.67	9.70	-26.9	-27.7	14.0	4.50e-06	0	43	0	1138753536	14	3911
2026-01-14 12:41:32.50	354.44	9.57	-26.7	-27.2	14.3	1.10e-06	0	43	0	1153433600	14	3804
2026-01-14 12:41:34.50	354.21	9.44	-26.8	-27.3	14.2	2.20e-06	0	43	0	1168113664	14	3823
2026-01-14 12:41:36.51	353.98	9.31	-26.7	-27.1	14.3	0.00e+00	0	43	0	1182793728	14	3767
2026-01-14 12:41:38.51	353.75	9.18	-26.9	-27.6	14.0	1.10e-06	0	43	0	1196425216	14	3899
2026-01-14 12:41:40.52	353.53	9.05	-26.7	-27.1	14.3	2.20e-06	0	43	0	1211105280	14	3772
2026-01-14 12:41:42.53	353.31	8.92	-26.7	-27.2	14.2	0.00e+00	0	43	0	1225785344	14	3815
2026-01-14 12:41:44.53	353.09	8.80	-27.0	-27.7	13.9	1.10e-06	0	43	0	1240465408	14	3927
2026-01-14 12:41:46.53	352.87	8.67	-26.7	-27.2	14.2	1.10e-06	0	43	0	1255145472	14	3792
2026-01-14 12:41:48.55	352.65	8.54	-26.7	-27.3	14.1	3.40e-06	0	44	0	1269825536	14	3824
2026-01-14 12:41:50.56	352.44	8.41	-27.0	-27.9	13.7	6.80e-06	0	43	0	1283457024	14	3979
2026-01-14 12:41:52.56	352.23	8.29	-27.1	-28.1	13.6	2.63e-05	0	43	0	1298137088	14	4045
2026-01-14 12:41:54.57	352.02	8.16	-27.3	-28.5	13.4	2.28e-05	0	43	0	1312817152	14	4137
2026-01-14 12:41:56.57	351.81	8.03	-27.4	-28.8	13.2	1.60e-05	0	44	0	1327497216	14	4210
2026-01-14 12:41:58.57	351.60	7.91	-27.6	-28.8	12.9	6.06e-05	0	43	0	1342177280	15	4130
2026-01-14 12:42:00.57	351.40	7.78	-27.5	-28.4	13.1	3.20e-05	0	43	0	1355808768	15	4017
2026-01-14 12:42:02.58	351.19	7.66	-27.5	-28.5	13.0	3.08e-05	0	44	0	1370488832	15	4047
2026-01-14 12:42:04.58	350.99	7.53	-27.7	-29.0	12.7	9.04e-05	0	44	0	1385168896	15	4178
2026-01-14 12:42:06.59	350.79	7.41	-27.3	-28.2	13.2	3.20e-05	0	44	0	1399848960	15	3952
2026-01-14 12:42:08.60	350.60	7.28	-27.3	-28.0	13.3	3.31e-05	0	44	0	1414529024	15	3904
2026-01-14 12:42:10.60	350.40	7.16	-27.2	-27.8	13.4	1.71e-05	0	43	0	1428160512	15	3860
2026-01-14 12:42:12.60	350.21	7.04	-33.3	-42.2	3.8	4.11e-03	0	44	0	1441792000	26	10055
2026-01-14 12:42:14.61	350.01	6.91	-33.9	-43.7	3.8	8.45e-01	0	44	104	1441792000	27	11079

#Closed at: 2026-01-14 12:42:15
#Recorded file [1441 MB]: D:/data/31010_260114_153851.dat