passes_logs/2026/01/14/R2M6_AANII_01/R2M6_AANII_01__20260114_001414_NOAA_20_JPSS-1_rec.log

#Pass ID: 20260114_001414_NOAA 20 (JPSS-1)
#Satellite: NOAA 20 (JPSS-1)
#Configuration: NOAA 20
#almurnet v.1.7.20240730
#Start time: 2026-01-14 00:16:30

#Version: 2.2.20231116
#Station: R2M6_AANII_01
#Location: 30.233357 lon 59.946436 lat
#TLE: 1 43013U 17073A   26013.21545503  .00000073  00000+0  55630-4 0  9998
#TLE: 2 43013  98.7633 314.1737 0001580  41.9966 318.1331 14.19535680422486

#Time	Az	El	Level	Level2	SNR	BER	BlckErr	Temp	State	Recorded	gain1	gain2
2026-01-14 00:16:30.60	20.42	20.50	-34.0	-53.6	3.8	7.48e-01	0	43	0	0	28	34502
2026-01-14 00:16:33.56	20.48	20.90	-34.5	-49.0	3.8	1.49e+00	0	43	104	0	28	19167
2026-01-14 00:16:36.56	20.53	21.31	-34.5	-49.1	3.8	1.49e+00	0	43	104	0	28	19248
2026-01-14 00:16:39.55	20.59	21.72	-34.4	-49.0	3.8	1.49e+00	0	43	104	0	28	19141
2026-01-14 00:16:42.55	20.64	22.14	-34.4	-48.9	3.8	1.49e+00	0	43	104	0	28	19101
2026-01-14 00:16:45.54	20.70	22.57	-34.4	-48.9	3.8	1.49e+00	0	43	104	0	28	19108
2026-01-14 00:16:48.53	20.76	23.00	-34.4	-48.9	3.8	1.49e+00	0	43	104	0	28	19126
2026-01-14 00:16:51.50	20.82	23.44	-34.4	-48.9	3.8	1.49e+00	0	43	104	0	28	19050
2026-01-14 00:16:54.49	20.88	23.89	-34.2	-48.6	3.8	1.49e+00	0	43	104	0	28	18794
2026-01-14 00:16:57.47	20.95	24.34	-34.0	-48.1	3.8	1.49e+00	0	43	104	0	28	18209
2026-01-14 00:17:00.47	21.01	24.81	-33.9	-48.4	3.8	1.49e+00	0	43	104	0	27	19131
2026-01-14 00:17:03.47	21.08	25.29	-33.7	-47.8	3.8	1.49e+00	0	43	104	0	27	18073
2026-01-14 00:17:06.46	21.15	25.77	-33.7	-47.5	3.8	1.49e+00	0	43	104	0	27	17653
2026-01-14 00:17:09.45	21.22	26.26	-33.7	-47.4	3.8	1.49e+00	0	43	104	0	27	17440
2026-01-14 00:17:12.44	21.29	26.76	-33.7	-47.2	3.8	1.49e+00	0	43	104	0	27	16963
2026-01-14 00:17:15.43	21.36	27.27	-33.6	-45.3	3.8	1.49e+00	0	43	104	0	27	13876
2026-01-14 00:17:18.42	21.44	27.79	-33.3	-42.9	4.9	9.67e-01	0	43	0	0	26	10848
2026-01-14 00:17:21.40	21.52	28.31	-32.5	-38.3	8.1	8.32e-02	0	43	0	5242880	25	7088
2026-01-14 00:17:24.39	21.60	28.85	-32.1	-37.6	9.1	2.19e-02	0	43	0	10485760	24	6735
2026-01-14 00:17:27.38	21.68	29.40	-32.3	-38.2	8.6	3.81e-02	0	43	0	16777216	24	7131
2026-01-14 00:17:30.37	21.77	29.96	-32.4	-38.7	8.3	5.51e-02	0	43	0	22020096	24	7389
2026-01-14 00:17:33.37	21.85	30.54	-32.7	-39.7	7.1	1.23e-01	0	43	0	28311552	25	8014
2026-01-14 00:17:36.34	21.94	31.12	-32.2	-37.7	9.1	3.08e-02	0	43	0	33554432	24	6762
2026-01-14 00:17:39.32	22.04	31.71	-31.7	-36.4	10.5	4.75e-03	0	43	0	38797312	23	6152
2026-01-14 00:17:42.30	22.13	32.32	-31.5	-35.6	11.0	1.93e-03	0	43	0	45088768	23	5802
2026-01-14 00:17:45.30	22.23	32.94	-31.4	-35.2	11.4	1.35e-03	0	43	0	50331648	23	5584
2026-01-14 00:17:48.32	22.34	33.58	-31.0	-34.6	12.1	2.64e-04	0	43	0	55574528	22	5458
2026-01-14 00:17:51.33	22.45	34.23	-30.7	-34.2	12.8	5.18e-05	0	43	0	61865984	21	5367
2026-01-14 00:17:54.33	22.56	34.89	-30.4	-33.4	13.3	4.11e-05	0	43	0	67108864	21	5070
2026-01-14 00:17:57.34	22.67	35.57	-30.0	-32.8	14.0	2.20e-06	0	43	0	72351744	20	4969
2026-01-14 00:18:00.35	22.79	36.26	-30.0	-32.8	14.0	1.50e-06	0	43	0	78643200	20	4951
2026-01-14 00:18:03.36	22.92	36.97	-29.8	-32.6	14.5	0.00e+00	0	43	0	83886080	19	4983
2026-01-14 00:18:06.36	23.05	37.69	-30.2	-33.2	13.8	4.50e-06	0	43	0	90177536	20	5099
2026-01-14 00:18:09.39	23.18	38.44	-30.0	-33.0	14.3	1.50e-06	0	43	0	95420416	19	5141
2026-01-14 00:18:12.39	23.32	39.19	-30.1	-32.9	14.1	4.50e-06	0	43	0	100663296	20	4977
2026-01-14 00:18:15.40	23.47	39.97	-30.2	-33.1	14.0	1.50e-06	0	43	0	106954752	20	5060
2026-01-14 00:18:18.40	23.63	40.76	-30.3	-33.4	13.8	5.30e-06	0	43	0	112197632	20	5156
2026-01-14 00:18:21.41	23.79	41.56	-30.7	-34.2	12.9	1.44e-05	0	43	0	118489088	21	5362
2026-01-14 00:18:24.41	23.96	42.39	-31.0	-34.5	12.4	1.07e-04	0	43	0	123731968	22	5364
2026-01-14 00:18:27.41	24.13	43.23	-30.7	-33.6	13.0	5.72e-05	0	43	0	128974848	22	5024
2026-01-14 00:18:30.42	24.32	44.09	-30.6	-33.8	13.2	1.90e-05	0	43	0	135266304	21	5199
2026-01-14 00:18:33.44	24.52	44.98	-31.0	-34.8	12.6	8.23e-05	0	43	0	140509184	21	5613
2026-01-14 00:18:36.44	24.72	45.88	-31.6	-35.6	11.3	7.51e-04	0	43	0	145752064	23	5739
2026-01-14 00:18:39.44	24.94	46.80	-31.4	-35.2	11.6	5.72e-04	0	43	0	152043520	23	5556
2026-01-14 00:18:42.45	25.17	47.75	-31.8	-36.4	10.7	2.65e-03	0	43	0	157286400	23	6132
2026-01-14 00:18:45.46	25.42	48.71	-31.3	-34.8	11.9	7.68e-04	0	43	0	163577856	23	5379
2026-01-14 00:18:48.46	25.68	49.69	-30.8	-33.7	13.1	6.33e-05	0	43	0	168820736	22	5029
2026-01-14 00:18:51.47	25.95	50.70	-30.5	-33.6	13.4	1.06e-05	0	43	0	174063616	21	5116
2026-01-14 00:18:54.48	26.25	51.73	-29.9	-32.4	14.5	7.00e-07	0	43	0	180355072	20	4797
2026-01-14 00:18:57.49	26.57	52.78	-29.1	-30.7	15.9	7.00e-07	0	43	0	185597952	19	4368
2026-01-14 00:19:00.49	26.91	53.85	-28.4	-29.7	16.8	0.00e+00	0	43	0	190840832	18	4168
2026-01-14 00:19:03.50	27.27	54.95	-28.1	-29.5	17.2	0.00e+00	0	43	0	197132288	17	4231
2026-01-14 00:19:06.50	27.66	56.06	-28.2	-30.1	17.2	0.00e+00	0	43	0	202375168	16	4499
2026-01-14 00:19:09.52	28.09	57.20	-29.4	-32.0	15.4	0.00e+00	0	43	0	208666624	18	4884
2026-01-14 00:19:12.52	28.55	58.36	-29.4	-31.5	15.5	0.00e+00	0	43	0	213909504	19	4600
2026-01-14 00:19:15.52	29.05	59.54	-29.1	-31.3	15.9	0.00e+00	0	43	0	219152384	18	4649
2026-01-14 00:19:18.54	29.61	60.75	-29.3	-31.8	15.6	0.00e+00	0	43	0	225443840	18	4808
2026-01-14 00:19:21.54	30.21	61.97	-28.5	-29.8	16.8	0.00e+00	0	43	0	230686720	18	4194
2026-01-14 00:19:24.55	30.88	63.21	-28.8	-31.0	16.4	0.00e+00	0	43	0	235929600	17	4672
2026-01-14 00:19:27.55	31.62	64.47	-30.0	-32.6	14.5	0.00e+00	0	43	0	242221056	20	4842
2026-01-14 00:19:30.56	32.44	65.75	-31.1	-34.6	12.7	4.80e-05	0	43	0	247463936	22	5391
2026-01-14 00:19:33.55	33.37	67.04	-30.6	-33.1	13.6	1.37e-05	0	43	0	253755392	22	4806
2026-01-14 00:19:36.55	34.41	68.34	-30.1	-32.9	14.4	0.00e+00	0	43	0	258998272	20	4947
2026-01-14 00:19:39.55	35.60	69.66	-29.8	-32.1	14.9	0.00e+00	0	43	0	264241152	20	4673
2026-01-14 00:19:42.55	36.97	70.99	-29.8	-32.6	15.0	7.00e-07	0	43	0	270532608	19	4930
2026-01-14 00:19:45.55	38.56	72.32	-30.3	-33.5	14.0	1.50e-06	0	43	0	275775488	20	5146
2026-01-14 00:19:48.55	40.42	73.65	-30.9	-34.0	13.1	2.89e-05	0	43	0	281018368	22	5124
2026-01-14 00:19:51.56	42.63	74.99	-31.5	-35.2	11.9	3.46e-04	0	43	0	287309824	23	5522
2026-01-14 00:19:54.56	45.28	76.31	-32.0	-36.1	10.9	2.07e-03	0	43	0	292552704	24	5826
2026-01-14 00:19:57.58	48.53	77.61	-32.4	-37.6	9.9	6.89e-03	0	43	0	297795584	24	6546
2026-01-14 00:20:00.58	52.52	78.87	-30.8	-34.2	11.7	7.45e-04	0	43	0	304087040	24	5369
2026-01-14 00:20:03.59	57.54	80.08	-31.6	-35.4	11.4	1.56e-04	0	43	0	309329920	23	5594
2026-01-14 00:20:06.59	63.89	81.19	-31.0	-34.6	13.1	2.13e-05	0	43	0	315621376	21	5468
2026-01-14 00:20:09.59	71.98	82.17	-29.9	-31.8	15.0	0.00e+00	0	43	0	320864256	21	4448
2026-01-14 00:20:12.60	82.19	82.97	-29.7	-31.8	15.3	0.00e+00	0	43	0	326107136	20	4567
2026-01-14 00:20:15.60	94.46	83.49	-30.4	-33.0	14.2	7.00e-07	0	43	0	332398592	21	4859
2026-01-14 00:20:18.61	108.19	83.67	-30.5	-33.6	14.2	0.00e+00	0	43	0	337641472	20	5183
2026-01-14 00:20:21.63	121.96	83.49	-31.7	-35.7	12.0	6.40e-05	0	43	0	342884352	23	5649
2026-01-14 00:20:24.63	134.25	82.97	-32.8	-38.4	9.3	2.17e-02	0	43	0	349175808	25	6834
2026-01-14 00:20:27.63	144.43	82.18	-32.6	-37.6	9.8	8.50e-03	0	43	0	354418688	25	6375
2026-01-14 00:20:30.64	152.56	81.19	-31.5	-34.4	12.4	3.03e-04	0	43	0	360710144	24	5042
2026-01-14 00:20:33.65	158.94	80.08	-30.5	-32.5	14.4	3.00e-06	0	43	0	365953024	22	4566
2026-01-14 00:20:36.65	163.95	78.87	-30.5	-33.3	14.3	7.00e-07	0	43	0	371195904	21	4916
2026-01-14 00:20:39.66	167.95	77.61	-32.6	-37.3	10.1	2.93e-03	0	43	0	377487360	25	6232
2026-01-14 00:20:42.67	171.19	76.31	-33.5	-40.6	6.6	1.96e-01	0	43	0	382730240	27	8146
2026-01-14 00:20:45.68	173.85	74.98	-33.4	-39.7	7.5	9.73e-02	0	43	0	387973120	27	7414
2026-01-14 00:20:48.68	176.06	73.65	-33.6	-41.1	6.3	3.62e-01	0	43	0	394264576	27	8522
2026-01-14 00:20:51.68	177.92	72.31	-31.8	-35.4	11.7	3.79e-04	0	43	0	399507456	24	5422
2026-01-14 00:20:54.68	179.51	70.98	-30.7	-33.2	13.9	9.10e-06	0	43	0	405798912	22	4816
2026-01-14 00:20:57.69	180.88	69.64	-31.5	-35.1	12.3	5.26e-05	0	43	0	411041792	23	5439
2026-01-14 00:21:00.70	182.07	68.32	-31.7	-35.4	12.0	1.04e-04	0	43	0	416284672	23	5555
2026-01-14 00:21:03.70	183.12	67.01	-31.9	-35.4	11.3	2.94e-03	0	43	0	422576128	25	5331
2026-01-14 00:21:06.70	184.05	65.71	-31.8	-36.0	11.7	4.00e-04	0	43	0	427819008	23	5817
2026-01-14 00:21:09.70	184.87	64.44	-30.4	-32.4	14.3	5.79e-05	0	43	0	433061888	22	4542
2026-01-14 00:21:12.69	185.61	63.18	-30.0	-32.4	14.9	0.00e+00	0	43	0	439353344	20	4761
2026-01-14 00:21:15.69	186.27	61.94	-29.5	-31.2	15.6	0.00e+00	0	43	0	444596224	20	4391
2026-01-14 00:21:18.70	186.88	60.71	-30.8	-34.2	13.5	0.00e+00	0	43	0	449839104	21	5275
2026-01-14 00:21:21.71	187.43	59.50	-31.2	-34.3	12.8	1.34e-04	0	43	0	456130560	23	5098
2026-01-14 00:21:24.71	187.93	58.32	-32.1	-36.4	10.8	2.93e-03	0	43	0	461373440	24	5919
2026-01-14 00:21:27.71	188.39	57.16	-32.1	-36.4	10.9	4.14e-03	0	43	0	467664896	24	5924
2026-01-14 00:21:30.72	188.81	56.02	-30.2	-32.5	14.5	7.00e-07	0	43	0	472907776	21	4678
2026-01-14 00:21:33.73	189.21	54.90	-29.5	-31.1	15.6	0.00e+00	0	43	0	478150656	20	4354
2026-01-14 00:21:36.73	189.57	53.80	-30.1	-32.9	14.5	0.00e+00	0	43	0	484442112	20	4924
2026-01-14 00:21:39.74	189.91	52.73	-29.9	-32.1	15.0	0.00e+00	0	43	0	489684992	20	4677
2026-01-14 00:21:42.75	190.23	51.67	-32.1	-36.5	10.7	6.32e-04	0	43	0	495976448	24	5992
2026-01-14 00:21:45.76	190.52	50.64	-33.0	-39.3	8.2	4.98e-02	0	43	0	501219328	25	7510
2026-01-14 00:21:48.77	190.80	49.63	-32.4	-37.1	9.8	1.40e-02	0	43	0	506462208	25	6189
2026-01-14 00:21:51.78	191.06	48.64	-33.7	-43.0	5.1	4.40e-01	0	43	0	512753664	27	10461
2026-01-14 00:21:54.80	191.30	47.67	-31.9	-35.4	11.0	6.47e-03	0	43	0	517996544	25	5402
2026-01-14 00:21:57.80	191.53	46.72	-30.5	-32.7	14.0	1.50e-06	0	43	0	523239424	22	4659
2026-01-14 00:22:00.79	191.75	45.80	-31.2	-34.9	12.5	6.71e-05	0	43	0	529530880	22	5481
2026-01-14 00:22:03.79	191.96	44.90	-30.9	-34.0	13.1	5.11e-05	0	43	0	534773760	22	5127
2026-01-14 00:22:06.80	192.15	44.01	-29.3	-30.8	15.7	0.00e+00	0	43	0	541065216	20	4279
2026-01-14 00:22:09.81	192.34	43.15	-29.1	-30.8	16.0	0.00e+00	0	43	0	546308096	19	4368
2026-01-14 00:22:12.82	192.51	42.30	-30.8	-34.4	13.1	8.30e-06	0	43	0	551550976	21	5422
2026-01-14 00:22:15.82	192.68	41.47	-31.2	-34.4	12.4	3.45e-04	0	43	0	557842432	23	5224
2026-01-14 00:22:18.83	192.84	40.66	-30.1	-32.2	14.5	1.50e-06	0	43	0	563085312	21	4626
2026-01-14 00:22:21.82	192.99	39.87	-29.9	-32.3	14.7	0.00e+00	0	43	0	568328192	20	4745
2026-01-14 00:22:24.82	193.14	39.10	-31.4	-35.5	12.0	8.16e-05	0	43	0	574619648	22	5752
2026-01-14 00:22:27.82	193.28	38.34	-32.7	-38.6	8.4	2.85e-02	0	43	0	579862528	25	7106
2026-01-14 00:22:30.82	193.41	37.60	-32.2	-36.5	10.1	1.60e-02	0	43	0	585105408	25	5942
2026-01-14 00:22:33.83	193.54	36.87	-31.5	-34.9	11.6	5.39e-04	0	43	0	591396864	24	5313
2026-01-14 00:22:36.84	193.67	36.16	-31.4	-34.5	11.9	4.57e-04	0	43	0	596639744	24	5131
2026-01-14 00:22:39.85	193.79	35.47	-31.6	-35.2	11.3	8.09e-04	0	43	0	602931200	24	5458
2026-01-14 00:22:42.84	193.90	34.79	-32.9	-39.8	7.4	7.36e-02	0	43	0	608174080	25	7938
2026-01-14 00:22:45.85	194.01	34.12	-33.5	-42.7	5.2	5.66e-01	0	43	0	613416960	26	10405
2026-01-14 00:22:48.85	194.12	33.47	-33.2	-40.0	6.5	2.39e-01	0	43	0	619708416	27	7936
2026-01-14 00:22:51.86	194.22	32.83	-33.1	-39.5	6.9	1.53e-01	0	43	0	624951296	27	7510
2026-01-14 00:22:54.86	194.32	32.21	-32.3	-36.6	9.5	2.15e-02	0	43	0	630194176	26	5918
2026-01-14 00:22:57.86	194.41	31.60	-32.0	-36.0	10.4	5.92e-03	0	43	0	636485632	25	5692
2026-01-14 00:23:00.86	194.51	31.00	-32.3	-37.3	9.3	1.69e-02	0	43	0	641728512	25	6349
2026-01-14 00:23:03.87	194.60	30.41	-32.6	-38.6	8.2	4.59e-02	0	43	0	648019968	25	7172
2026-01-14 00:23:06.88	194.68	29.83	-32.6	-38.7	8.3	6.12e-02	0	43	0	653262848	25	7206
2026-01-14 00:23:09.88	194.77	29.27	-32.3	-37.7	9.3	1.77e-02	0	43	0	658505728	24	6719
2026-01-14 00:23:12.89	194.85	28.71	-31.7	-36.2	10.8	3.71e-03	0	43	0	664797184	23	6038
2026-01-14 00:23:15.89	194.93	28.17	-31.3	-34.9	11.7	7.00e-04	0	43	0	670040064	23	5438
2026-01-14 00:23:18.90	195.00	27.64	-31.0	-33.8	12.5	3.26e-04	0	43	0	675282944	23	5010
2026-01-14 00:23:21.90	195.08	27.11	-30.8	-33.9	12.8	1.04e-04	0	43	0	681574400	22	5122
2026-01-14 00:23:24.91	195.15	26.60	-30.6	-33.9	13.0	4.19e-05	0	43	0	686817280	21	5277
2026-01-14 00:23:27.91	195.22	26.10	-30.3	-33.1	13.5	1.52e-05	0	43	0	693108736	21	4960
2026-01-14 00:23:30.91	195.29	25.60	-30.5	-33.7	13.1	3.81e-05	0	43	0	698351616	21	5180
2026-01-14 00:23:33.92	195.36	25.12	-30.7	-34.1	12.8	6.86e-05	0	43	0	703594496	21	5365
2026-01-14 00:23:36.92	195.42	24.64	-30.4	-33.4	13.3	3.38e-04	0	43	0	709885952	21	5070
2026-01-14 00:23:39.93	195.49	24.17	-30.0	-32.8	14.0	4.50e-06	0	43	0	715128832	20	4970
2026-01-14 00:23:42.91	195.55	23.72	-29.8	-32.7	14.4	0.00e+00	0	43	0	720371712	19	5030
2026-01-14 00:23:45.92	195.61	23.26	-29.4	-31.7	15.1	0.00e+00	0	43	0	726663168	19	4673
2026-01-14 00:23:48.92	195.67	22.82	-29.3	-31.8	15.3	0.00e+00	0	43	0	731906048	18	4846
2026-01-14 00:23:51.92	195.73	22.39	-29.3	-32.0	14.9	1.07e-04	0	43	0	737148928	18	4918
2026-01-14 00:23:54.92	195.78	21.96	-29.3	-32.1	14.9	1.20e-04	0	43	0	743440384	18	4955
2026-01-14 00:23:57.92	195.84	21.53	-29.6	-32.2	14.5	2.97e-05	0	43	0	748683264	19	4859
2026-01-14 00:24:00.92	195.89	21.12	-29.8	-33.0	14.0	2.54e-04	0	43	0	754974720	19	5158
2026-01-14 00:24:03.93	195.95	20.71	-30.1	-33.1	13.5	3.16e-04	0	43	0	760217600	20	5099
2026-01-14 00:24:06.94	196.00	20.31	-30.2	-33.5	13.2	1.94e-04	0	43	0	765460480	20	5254
2026-01-14 00:24:09.94	196.05	19.91	-30.5	-33.8	12.8	4.73e-05	0	43	0	771751936	21	5245
2026-01-14 00:24:12.94	196.10	19.52	-30.2	-32.9	13.5	2.13e-05	0	43	0	776994816	21	4919
2026-01-14 00:24:15.95	196.15	19.14	-30.1	-33.1	13.7	1.29e-05	0	43	0	782237696	20	5089
2026-01-14 00:24:18.95	196.19	18.76	-30.0	-32.9	13.8	7.60e-06	0	43	0	788529152	20	5001
2026-01-14 00:24:21.96	196.24	18.39	-30.0	-33.0	13.8	1.14e-05	0	43	0	793772032	20	5033
2026-01-14 00:24:24.96	196.29	18.02	-30.0	-32.8	13.8	7.60e-06	0	43	0	800063488	20	4994
2026-01-14 00:24:27.97	196.33	17.66	-30.1	-33.0	13.7	1.37e-05	0	43	0	805306368	20	5063
2026-01-14 00:24:30.97	196.38	17.31	-30.0	-33.0	13.7	9.90e-06	0	43	0	810549248	20	5048
2026-01-14 00:24:33.99	196.42	16.95	-30.2	-33.3	13.5	1.67e-05	0	43	0	816840704	20	5160
2026-01-14 00:24:36.99	196.46	16.61	-30.3	-33.6	13.2	2.05e-05	0	43	0	822083584	20	5291
2026-01-14 00:24:40.00	196.50	16.27	-30.3	-33.7	13.2	3.50e-05	0	43	0	828375040	20	5310
2026-01-14 00:24:43.00	196.55	15.93	-30.4	-34.1	12.8	5.18e-05	0	43	0	833617920	20	5505
2026-01-14 00:24:46.00	196.59	15.60	-30.6	-34.1	12.5	1.08e-04	0	43	0	838860800	21	5368
2026-01-14 00:24:49.00	196.63	15.27	-30.7	-34.3	12.3	1.55e-04	0	43	0	845152256	21	5481
2026-01-14 00:24:52.01	196.66	14.95	-30.4	-33.4	12.9	5.56e-05	0	43	0	850395136	21	5135
2026-01-14 00:24:55.00	196.70	14.63	-30.3	-33.3	13.0	4.42e-05	0	43	0	855638016	21	5092
2026-01-14 00:24:58.00	196.74	14.32	-30.2	-33.1	13.1	2.67e-05	0	43	0	861929472	21	4997
2026-01-14 00:25:01.01	196.78	14.01	-30.5	-33.7	12.7	7.70e-05	0	43	0	867172352	21	5246
2026-01-14 00:25:04.01	196.81	13.70	-30.5	-33.9	12.5	1.05e-04	0	43	0	872415232	21	5329
2026-01-14 00:25:07.01	196.85	13.40	-30.7	-34.4	12.2	1.68e-04	0	43	0	878706688	21	5536
2026-01-14 00:25:10.02	196.89	13.10	-30.7	-34.4	12.1	2.39e-04	0	43	0	883949568	21	5559
2026-01-14 00:25:13.02	196.92	12.81	-30.8	-35.0	11.7	3.76e-04	0	43	0	890241024	21	5815
2026-01-14 00:25:16.03	196.96	12.51	-30.9	-35.0	11.6	7.09e-04	0	43	0	895483904	21	5831
2026-01-14 00:25:19.03	196.99	12.22	-31.0	-35.1	11.3	1.36e-03	0	43	0	900726784	22	5746
2026-01-14 00:25:22.05	197.02	11.94	-30.9	-34.7	11.5	7.81e-04	0	43	0	907018240	22	5576
2026-01-14 00:25:25.05	197.06	11.66	-30.9	-34.8	11.4	9.45e-04	0	43	0	912261120	22	5639
2026-01-14 00:25:28.06	197.09	11.38	-31.0	-35.0	11.3	1.10e-03	0	43	0	917504000	22	5701
2026-01-14 00:25:31.06	197.12	11.10	-31.0	-35.2	11.0	1.47e-03	0	43	0	923795456	22	5835
2026-01-14 00:25:34.07	197.15	10.83	-31.2	-35.6	10.7	2.72e-03	0	43	0	929038336	22	6010
2026-01-14 00:25:37.07	197.19	10.56	-31.2	-35.9	10.5	3.24e-03	0	43	0	935329792	22	6136
2026-01-14 00:25:40.07	197.22	10.29	-31.2	-35.7	10.6	4.03e-03	0	43	0	940572672	22	6078
2026-01-14 00:25:43.08	197.25	10.03	-31.4	-36.3	10.1	6.77e-03	0	43	0	945815552	22	6391
2026-01-14 00:25:46.09	197.28	9.77	-31.5	-36.7	9.8	1.07e-02	0	43	0	952107008	22	6608
2026-01-14 00:25:49.09	197.31	9.51	-31.6	-36.6	9.4	1.52e-02	0	43	0	957349888	23	6468
2026-01-14 00:25:52.10	197.34	9.26	-31.6	-36.9	9.2	1.92e-02	0	43	0	962592768	23	6635
2026-01-14 00:25:55.10	197.37	9.00	-31.5	-36.6	9.3	1.83e-02	0	43	0	968884224	23	6488
2026-01-14 00:25:58.10	197.39	8.75	-31.0	-34.8	10.8	2.84e-03	0	43	0	974127104	23	5560
2026-01-14 00:26:01.11	197.42	8.50	-30.7	-34.4	11.4	1.04e-03	0	43	0	980418560	22	5482
2026-01-14 00:26:04.11	197.45	8.26	-30.8	-34.6	11.2	1.29e-03	0	43	0	985661440	22	5594
2026-01-14 00:26:07.11	197.48	8.02	-30.8	-34.6	11.2	1.04e-03	0	43	0	990904320	22	5579
2026-01-14 00:26:10.12	197.51	7.78	-30.8	-34.7	11.1	1.63e-03	0	43	0	997195776	22	5659
2026-01-14 00:26:13.13	197.53	7.54	-30.8	-34.6	11.1	1.36e-03	0	43	0	1002438656	22	5599
2026-01-14 00:26:16.12	197.56	7.30	-31.0	-35.5	10.5	3.22e-03	0	43	0	1007681536	22	6025
2026-01-14 00:26:19.12	197.59	7.07	-33.3	-47.6	3.8	1.49e+00	0	43	104	1011875840	26	18728

#Closed at: 2026-01-14 00:26:20
#Recorded file [1011 MB]: D:/data/31010_260114_031718.dat