passes_logs/2026/01/14/R2M6_AANII_01/R2M6_AANII_01__20260114_041811_FENGYUN_3E_rec.log

#Pass ID: 20260114_041811_FENGYUN 3E
#Satellite: FENGYUN 3E
#Configuration: FENGYUN 3E
#almurnet v.1.7.20240730
#Start time: 2026-01-14 04:23:59

#Version: 2.2.20231116
#Station: R2M6_AANII_01
#Location: 30.233357 lon 59.946436 lat
#TLE: 1 49008U 21062A   26013.31447241  .00000001  00000+0  21294-4 0  9992
#TLE: 2 49008  98.7491  18.4630 0001950 139.8565 220.2756 14.19884983234609

#Time	Az	El	Level	Level2	SNR	BER	BlckErr	Temp	State	Recorded	gain1	gain2
2026-01-14 04:23:59.02	84.70	69.65	-33.9	-44.9	3.8	8.46e-01	0	43	0	0	28	12743
2026-01-14 04:24:01.02	87.37	69.96	-34.5	-44.4	3.8	8.46e-01	0	43	104	0	28	11231
2026-01-14 04:24:03.02	90.13	70.23	-34.5	-44.5	3.8	8.46e-01	0	43	104	0	28	11305
2026-01-14 04:24:05.03	92.97	70.45	-34.5	-44.4	3.8	8.46e-01	0	43	104	0	28	11265
2026-01-14 04:24:07.03	95.86	70.63	-34.5	-44.3	3.8	8.47e-01	0	43	104	0	28	11222
2026-01-14 04:24:09.04	98.82	70.76	-34.5	-44.3	3.8	8.45e-01	0	43	104	0	28	11196
2026-01-14 04:24:11.05	101.81	70.85	-34.5	-44.3	3.8	8.45e-01	0	43	104	0	28	11131
2026-01-14 04:24:13.05	104.81	70.88	-34.4	-44.2	3.8	8.45e-01	0	43	104	0	28	11094
2026-01-14 04:24:15.05	107.81	70.87	-34.4	-44.3	3.8	8.46e-01	0	43	104	0	28	11147
2026-01-14 04:24:17.05	110.80	70.80	-34.4	-44.1	3.8	8.46e-01	0	43	104	0	28	11067
2026-01-14 04:24:19.05	113.76	70.69	-34.3	-44.0	3.8	8.46e-01	0	43	104	0	28	11017
2026-01-14 04:24:21.06	116.69	70.53	-34.2	-43.9	3.8	8.46e-01	0	43	104	0	28	10964
2026-01-14 04:24:23.08	119.58	70.33	-34.2	-43.8	3.8	8.46e-01	0	43	104	0	28	10853
2026-01-14 04:24:25.08	122.37	70.08	-34.2	-43.9	3.8	8.46e-01	0	43	104	0	28	10922
2026-01-14 04:24:27.07	125.07	69.79	-34.2	-43.8	3.8	8.45e-01	0	43	104	0	28	10853
2026-01-14 04:24:29.08	127.70	69.46	-34.2	-43.8	3.8	8.47e-01	0	43	104	0	28	10908
2026-01-14 04:24:31.07	130.22	69.09	-34.2	-43.8	3.8	8.45e-01	0	43	104	0	28	10887
2026-01-14 04:24:33.08	132.66	68.69	-34.2	-43.8	3.8	8.46e-01	0	43	104	0	28	10845
2026-01-14 04:24:35.08	135.00	68.26	-34.1	-43.5	3.8	8.46e-01	0	43	104	0	28	10533
2026-01-14 04:24:37.08	137.23	67.79	-34.1	-43.3	3.8	8.46e-01	0	43	104	0	28	10337
2026-01-14 04:24:39.10	139.38	67.30	-33.9	-41.9	3.8	8.45e-01	0	43	104	0	28	9029
2026-01-14 04:24:41.11	141.41	66.78	-34.1	-42.9	3.8	8.46e-01	0	43	104	0	28	9911
2026-01-14 04:24:43.12	143.35	66.24	-33.5	-39.4	4.0	8.43e-01	0	43	104	0	28	7101
2026-01-14 04:24:45.12	145.19	65.69	-33.3	-38.3	4.2	8.30e-01	0	43	104	0	27	6411
2026-01-14 04:24:47.13	146.94	65.11	-32.1	-34.9	7.1	1.41e-01	0	43	0	3145728	25	4968
2026-01-14 04:24:49.13	148.60	64.52	-32.8	-37.3	5.7	7.50e-01	0	43	0	14680064	25	6064
2026-01-14 04:24:51.14	150.17	63.92	-24.5	-24.3	17.7	0.00e+00	0	43	0	28311552	10	3508
2026-01-14 04:24:53.15	151.67	63.30	-26.1	-26.7	15.9	0.00e+00	0	43	0	42991616	12	3847
2026-01-14 04:24:55.17	153.10	62.67	-25.9	-26.3	16.1	0.00e+00	0	43	0	57671680	12	3770
2026-01-14 04:24:57.18	154.45	62.04	-25.8	-26.0	16.3	1.10e-06	0	43	0	72351744	12	3683
2026-01-14 04:24:59.18	155.73	61.40	-25.1	-25.0	17.1	0.00e+00	0	43	0	87031808	11	3573
2026-01-14 04:25:01.18	156.94	60.76	-24.7	-24.7	17.5	8.92e-05	0	43	0	101711872	10	3600
2026-01-14 04:25:03.18	158.10	60.11	-24.8	-25.0	17.4	0.00e+00	0	43	0	115343360	10	3668
2026-01-14 04:25:05.18	159.19	59.46	-25.0	-25.8	17.2	0.00e+00	0	43	0	130023424	9	3952
2026-01-14 04:25:07.19	160.24	58.81	-25.0	-25.8	17.1	6.06e-04	0	43	0	144703488	9	3965
2026-01-14 04:25:09.20	161.24	58.15	-25.0	-25.5	17.1	8.54e-04	0	43	0	159383552	10	3772
2026-01-14 04:25:11.20	162.19	57.50	-25.2	-25.8	16.9	0.00e+00	0	43	0	173015040	10	3855
2026-01-14 04:25:13.21	163.09	56.84	-25.3	-26.0	16.8	9.60e-04	0	43	0	187695104	10	3887
2026-01-14 04:25:15.21	163.95	56.19	-25.1	-25.5	17.0	5.97e-04	0	43	0	202375168	10	3778
2026-01-14 04:25:17.22	164.78	55.54	-24.8	-25.5	17.2	0.00e+00	0	43	0	217055232	9	3888
2026-01-14 04:25:19.23	165.57	54.88	-24.6	-25.0	17.4	3.66e-04	0	43	0	231735296	9	3762
2026-01-14 04:25:21.23	166.32	54.24	-24.5	-24.7	17.7	0.00e+00	0	42	0	246415360	9	3694
2026-01-14 04:25:23.24	167.04	53.59	-24.9	-25.7	17.1	0.00e+00	0	42	0	260046848	9	3932
2026-01-14 04:25:25.25	167.73	52.95	-24.5	-24.8	17.6	0.00e+00	0	43	0	274726912	9	3729
2026-01-14 04:25:27.27	168.39	52.31	-24.7	-25.2	17.3	0.00e+00	0	42	0	289406976	9	3820
2026-01-14 04:25:29.28	169.03	51.68	-24.8	-25.3	17.3	2.20e-06	0	43	0	304087040	9	3848
2026-01-14 04:25:31.28	169.63	51.06	-24.8	-25.4	17.2	0.00e+00	0	42	0	318767104	9	3875
2026-01-14 04:25:33.30	170.22	50.43	-24.8	-25.5	17.2	0.00e+00	0	42	0	333447168	9	3888
2026-01-14 04:25:35.31	170.78	49.82	-25.6	-26.1	16.2	0.00e+00	0	43	0	347078656	11	3829
2026-01-14 04:25:37.31	171.31	49.21	-25.5	-26.0	16.2	0.00e+00	0	42	0	361758720	11	3788
2026-01-14 04:25:39.32	171.83	48.60	-25.4	-25.6	16.6	0.00e+00	0	43	0	376438784	11	3710
2026-01-14 04:25:41.33	172.33	48.00	-25.4	-25.6	16.6	0.00e+00	0	43	0	391118848	11	3704
2026-01-14 04:25:43.34	172.81	47.41	-24.7	-24.6	17.3	0.00e+00	0	43	0	405798912	10	3582
2026-01-14 04:25:45.34	173.27	46.83	-24.3	-24.5	17.5	0.00e+00	0	43	0	419430400	9	3653
2026-01-14 04:25:47.32	173.71	46.25	-24.2	-24.2	17.8	0.00e+00	0	43	0	434110464	9	3591
2026-01-14 04:25:49.31	174.13	45.69	-23.9	-23.5	18.1	0.00e+00	0	43	0	448790528	9	3453
2026-01-14 04:25:51.29	174.54	45.13	-24.1	-24.4	17.9	0.00e+00	0	43	0	462422016	8	3747
2026-01-14 04:25:53.29	174.94	44.57	-23.6	-23.4	18.5	0.00e+00	0	43	0	477102080	8	3511
2026-01-14 04:25:55.28	175.33	44.02	-23.7	-23.6	18.3	0.00e+00	0	43	0	491782144	8	3563
2026-01-14 04:25:57.27	175.70	43.47	-23.6	-23.4	18.4	0.00e+00	0	43	0	505413632	8	3518
2026-01-14 04:25:59.27	176.06	42.93	-23.4	-23.0	18.6	0.00e+00	0	43	0	520093696	8	3439
2026-01-14 04:26:01.25	176.40	42.40	-23.2	-23.1	18.8	0.00e+00	0	43	0	534773760	7	3559
2026-01-14 04:26:03.23	176.74	41.88	-23.2	-23.2	18.7	0.00e+00	0	43	0	549453824	7	3569
2026-01-14 04:26:05.21	177.07	41.37	-23.3	-23.3	18.7	0.00e+00	0	43	0	563085312	7	3590
2026-01-14 04:26:07.21	177.38	40.85	-23.6	-23.9	18.1	0.00e+00	0	43	0	577765376	7	3730
2026-01-14 04:26:09.20	177.69	40.35	-23.7	-24.2	18.2	0.00e+00	0	43	0	592445440	7	3796
2026-01-14 04:26:11.20	177.99	39.84	-23.8	-24.4	18.1	0.00e+00	0	43	0	606076928	7	3842
2026-01-14 04:26:13.21	178.28	39.35	-23.6	-24.0	18.3	0.00e+00	0	43	0	620756992	7	3750
2026-01-14 04:26:15.21	178.56	38.86	-23.5	-23.7	18.4	0.00e+00	0	43	0	635437056	7	3678
2026-01-14 04:26:17.21	178.84	38.37	-23.6	-23.8	18.1	0.00e+00	0	43	0	650117120	7	3714
2026-01-14 04:26:19.22	179.10	37.90	-23.4	-24.1	18.4	0.00e+00	0	43	0	664797184	6	3883
2026-01-14 04:26:21.22	179.36	37.42	-23.9	-24.6	17.9	0.00e+00	0	43	0	678428672	7	3887
2026-01-14 04:26:23.22	179.62	36.96	-23.3	-23.3	18.6	0.00e+00	0	43	0	693108736	7	3590
2026-01-14 04:26:25.23	179.86	36.50	-23.3	-23.7	18.6	0.00e+00	0	43	0	707788800	6	3790
2026-01-14 04:26:27.24	180.10	36.04	-23.4	-24.0	18.4	0.00e+00	0	43	0	722468864	6	3857
2026-01-14 04:26:29.24	180.33	35.60	-23.2	-23.7	18.6	0.00e+00	0	43	0	737148928	6	3783
2026-01-14 04:26:31.24	180.56	35.15	-23.4	-24.0	18.4	0.00e+00	0	43	0	750780416	6	3865
2026-01-14 04:26:33.25	180.78	34.72	-23.6	-24.4	18.2	0.00e+00	0	44	0	765460480	6	3958
2026-01-14 04:26:35.25	180.99	34.29	-24.0	-24.7	17.8	0.00e+00	0	43	0	780140544	7	3918
2026-01-14 04:26:37.26	181.20	33.86	-23.5	-23.6	18.3	0.00e+00	0	43	0	794820608	7	3677
2026-01-14 04:26:39.28	181.41	33.43	-23.3	-23.3	18.5	0.00e+00	0	43	0	809500672	7	3604
2026-01-14 04:26:41.29	181.61	33.02	-23.0	-23.1	18.9	0.00e+00	0	43	0	824180736	6	3657
2026-01-14 04:26:43.30	181.81	32.61	-22.9	-23.0	18.9	0.00e+00	0	43	0	837812224	6	3627
2026-01-14 04:26:45.30	182.00	32.20	-22.8	-23.3	19.0	0.00e+00	0	43	0	852492288	5	3815
2026-01-14 04:26:47.30	182.18	31.81	-23.0	-23.6	18.8	0.00e+00	0	43	0	867172352	5	3883
2026-01-14 04:26:49.31	182.36	31.41	-23.1	-23.4	18.7	0.00e+00	0	43	0	881852416	6	3726
2026-01-14 04:26:51.32	182.54	31.02	-23.1	-23.4	18.6	0.00e+00	0	43	0	896532480	6	3735
2026-01-14 04:26:53.34	182.71	30.63	-23.3	-23.8	18.5	9.72e-05	0	43	0	911212544	6	3818
2026-01-14 04:26:55.34	182.88	30.25	-23.3	-23.8	18.5	0.00e+00	0	44	0	924844032	6	3812
2026-01-14 04:26:57.34	183.05	29.88	-23.3	-23.8	18.4	0.00e+00	0	43	0	939524096	6	3826
2026-01-14 04:26:59.35	183.21	29.51	-23.3	-23.8	18.4	0.00e+00	0	43	0	954204160	6	3827
2026-01-14 04:27:01.36	183.37	29.14	-23.2	-23.6	18.5	0.00e+00	0	43	0	968884224	6	3776
2026-01-14 04:27:03.36	183.52	28.78	-23.3	-23.9	18.3	8.59e-04	0	44	0	982515712	6	3833
2026-01-14 04:27:05.36	183.68	28.42	-23.3	-23.9	18.4	8.67e-04	0	43	0	997195776	6	3838
2026-01-14 04:27:07.37	183.82	28.07	-23.4	-24.1	18.2	0.00e+00	0	43	0	1011875840	6	3891
2026-01-14 04:27:09.39	183.97	27.72	-23.5	-24.3	18.1	1.11e-03	0	44	0	1026555904	6	3937
2026-01-14 04:27:11.39	184.11	27.38	-23.9	-24.5	17.8	1.26e-03	0	43	0	1041235968	7	3872
2026-01-14 04:27:13.39	184.25	27.04	-23.7	-24.2	18.0	0.00e+00	0	43	0	1055916032	7	3802
2026-01-14 04:27:15.40	184.39	26.70	-23.8	-24.4	17.9	1.13e-03	0	44	0	1069547520	7	3838
2026-01-14 04:27:17.40	184.52	26.37	-23.8	-24.3	17.8	0.00e+00	0	43	0	1084227584	7	3836
2026-01-14 04:27:19.40	184.65	26.04	-23.7	-24.2	17.9	3.40e-06	0	43	0	1098907648	7	3798
2026-01-14 04:27:21.41	184.78	25.72	-23.6	-23.9	18.0	1.13e-03	0	43	0	1113587712	7	3744
2026-01-14 04:27:23.42	184.91	25.39	-23.5	-23.8	18.1	1.04e-03	0	43	0	1128267776	7	3706
2026-01-14 04:27:25.43	185.04	25.08	-23.6	-23.9	18.1	0.00e+00	0	43	0	1142947840	7	3739
2026-01-14 04:27:27.44	185.16	24.76	-23.6	-24.0	18.0	0.00e+00	0	43	0	1156579328	7	3753
2026-01-14 04:27:29.44	185.28	24.45	-23.4	-23.6	18.1	0.00e+00	0	43	0	1171259392	7	3662
2026-01-14 04:27:31.44	185.39	24.15	-23.5	-23.7	18.1	0.00e+00	0	43	0	1185939456	7	3698
2026-01-14 04:27:33.44	185.51	23.85	-23.7	-24.1	18.0	1.01e-03	0	44	0	1200619520	7	3772
2026-01-14 04:27:35.45	185.62	23.55	-23.6	-23.9	18.0	0.00e+00	0	43	0	1214251008	7	3732
2026-01-14 04:27:37.46	185.74	23.25	-23.5	-23.8	18.1	0.00e+00	0	43	0	1228931072	7	3719
2026-01-14 04:27:39.48	185.85	22.95	-23.7	-24.2	17.9	0.00e+00	0	43	0	1243611136	7	3794
2026-01-14 04:27:41.48	185.95	22.67	-23.4	-23.6	18.2	0.00e+00	0	43	0	1258291200	7	3671
2026-01-14 04:27:43.49	186.06	22.38	-23.4	-24.0	18.2	0.00e+00	0	43	0	1272971264	6	3856
2026-01-14 04:27:45.49	186.16	22.10	-23.4	-24.0	18.2	0.00e+00	0	43	0	1287651328	6	3859
2026-01-14 04:27:47.48	186.26	21.82	-23.4	-24.1	18.2	0.00e+00	0	43	0	1301282816	6	3883
2026-01-14 04:27:49.49	186.36	21.54	-23.8	-24.3	17.8	0.00e+00	0	44	0	1315962880	7	3829
2026-01-14 04:27:51.50	186.46	21.26	-23.7	-24.2	17.8	0.00e+00	0	43	0	1330642944	7	3804
2026-01-14 04:27:53.51	186.56	20.99	-23.6	-24.0	17.9	0.00e+00	0	43	0	1345323008	7	3751
2026-01-14 04:27:55.52	186.66	20.72	-23.7	-24.2	17.8	0.00e+00	0	43	0	1358954496	7	3814
2026-01-14 04:27:57.53	186.75	20.46	-23.8	-24.5	17.7	0.00e+00	0	43	0	1374683136	7	3870
2026-01-14 04:27:59.53	186.84	20.19	-23.9	-24.7	17.5	0.00e+00	0	43	0	1388314624	7	3919
2026-01-14 04:28:01.53	186.93	19.93	-24.0	-24.9	17.4	0.00e+00	0	43	0	1402994688	7	3972
2026-01-14 04:28:03.53	187.02	19.68	-24.3	-25.0	17.2	0.00e+00	0	43	0	1417674752	8	3885
2026-01-14 04:28:05.53	187.11	19.42	-24.4	-25.3	17.0	0.00e+00	0	43	0	1432354816	8	3949
2026-01-14 04:28:07.54	187.20	19.17	-24.3	-24.8	17.2	0.00e+00	0	43	0	1445986304	8	3852
2026-01-14 04:28:09.54	187.28	18.92	-24.3	-24.9	17.2	0.00e+00	0	44	0	1460666368	8	3868
2026-01-14 04:28:11.55	187.37	18.67	-24.5	-25.3	16.9	0.00e+00	0	44	0	1475346432	8	3970
2026-01-14 04:28:13.56	187.45	18.43	-24.4	-25.2	16.9	0.00e+00	0	43	0	1490026496	8	3930
2026-01-14 04:28:15.56	187.53	18.18	-24.4	-25.1	17.1	0.00e+00	0	43	0	1503657984	8	3901
2026-01-14 04:28:17.56	187.61	17.94	-24.4	-25.1	17.0	0.00e+00	0	44	0	1518338048	8	3918
2026-01-14 04:28:19.56	187.69	17.71	-24.6	-25.0	16.8	0.00e+00	0	43	0	1533018112	9	3783
2026-01-14 04:28:21.57	187.77	17.47	-24.4	-24.6	17.0	0.00e+00	0	43	0	1547698176	9	3683
2026-01-14 04:28:23.58	187.85	17.23	-24.4	-24.6	17.0	0.00e+00	0	43	0	1562378240	9	3700
2026-01-14 04:28:25.58	187.93	17.00	-24.4	-24.7	17.0	0.00e+00	0	43	0	1577058304	9	3715
2026-01-14 04:28:27.57	188.00	16.78	-24.6	-25.1	16.7	0.00e+00	0	43	0	1590689792	9	3808
2026-01-14 04:28:29.57	188.07	16.55	-24.6	-25.1	16.7	0.00e+00	0	43	0	1605369856	9	3818
2026-01-14 04:28:31.57	188.15	16.32	-24.7	-25.2	16.7	0.00e+00	0	43	0	1620049920	9	3830
2026-01-14 04:28:33.58	188.22	16.10	-24.8	-25.5	16.5	0.00e+00	0	43	0	1634729984	9	3894
2026-01-14 04:28:35.58	188.29	15.88	-24.8	-25.5	16.5	0.00e+00	0	44	0	1648361472	9	3911
2026-01-14 04:28:37.58	188.36	15.66	-24.9	-25.7	16.4	0.00e+00	0	43	0	1663041536	9	3963
2026-01-14 04:28:39.59	188.43	15.44	-25.1	-25.6	16.2	0.00e+00	0	43	0	1677721600	10	3820
2026-01-14 04:28:41.59	188.50	15.23	-25.1	-25.6	15.3	0.00e+00	0	43	0	1692401664	10	3817
2026-01-14 04:28:43.59	188.57	15.01	-25.2	-25.8	16.1	0.00e+00	0	43	0	1707081728	10	3871
2026-01-14 04:28:45.59	188.63	14.80	-25.3	-26.1	15.9	0.00e+00	0	43	0	1720713216	10	3934
2026-01-14 04:28:47.60	188.70	14.59	-25.4	-26.2	15.8	0.00e+00	0	43	0	1735393280	10	3981
2026-01-14 04:28:49.61	188.76	14.38	-25.4	-26.4	15.7	0.00e+00	0	44	0	1750073344	10	4021
2026-01-14 04:28:51.62	188.83	14.18	-25.5	-26.6	15.6	0.00e+00	0	44	0	1764753408	10	4068
2026-01-14 04:28:53.63	188.89	13.97	-25.8	-26.7	15.3	5.69e-04	0	44	0	1779433472	11	3988
2026-01-14 04:28:55.64	188.95	13.77	-25.7	-26.4	15.4	0.00e+00	0	43	0	1794113536	11	3907
2026-01-14 04:28:57.64	189.02	13.57	-25.7	-26.5	15.4	0.00e+00	0	43	0	1807745024	11	3945
2026-01-14 04:28:59.65	189.08	13.37	-25.8	-26.6	15.3	9.31e-04	0	43	0	1822425088	11	3974
2026-01-14 04:29:01.65	189.14	13.17	-25.7	-26.4	15.4	9.78e-04	0	44	0	1837105152	11	3927
2026-01-14 04:29:03.65	189.20	12.97	-25.9	-26.9	15.1	0.00e+00	0	44	0	1851785216	11	4050
2026-01-14 04:29:05.66	189.26	12.78	-25.8	-26.8	15.2	1.09e-03	0	43	0	1865416704	11	4006
2026-01-14 04:29:07.67	189.32	12.58	-25.9	-27.0	15.0	1.07e-03	0	44	0	1880096768	11	4071
2026-01-14 04:29:09.67	189.37	12.39	-25.9	-27.0	15.0	0.00e+00	0	43	0	1894776832	11	4073
2026-01-14 04:29:11.67	189.43	12.20	-26.0	-27.1	15.0	1.04e-03	0	43	0	1909456896	11	4099
2026-01-14 04:29:13.68	189.49	12.01	-25.9	-27.0	15.0	9.97e-04	0	43	0	1924136960	11	4069
2026-01-14 04:29:15.68	189.54	11.82	-26.0	-27.2	14.9	0.00e+00	0	43	0	1938817024	11	4127
2026-01-14 04:29:17.69	189.60	11.64	-26.0	-27.2	14.9	0.00e+00	0	43	0	1952448512	11	4109
2026-01-14 04:29:19.68	189.65	11.45	-26.0	-27.1	15.0	1.07e-03	0	43	0	1967128576	11	4090
2026-01-14 04:29:21.69	189.70	11.27	-26.0	-26.7	14.8	1.10e-06	0	44	0	1981808640	12	3890
2026-01-14 04:29:23.69	189.76	11.09	-26.2	-27.1	14.6	1.10e-06	0	43	0	1996488704	12	3997
2026-01-14 04:29:25.70	189.81	10.91	-26.1	-26.8	14.7	1.10e-06	0	43	0	2010120192	12	3918
2026-01-14 04:29:27.70	189.86	10.73	-26.0	-26.6	14.8	0.00e+00	0	43	0	2024800256	12	3878
2026-01-14 04:29:29.71	189.91	10.55	-26.1	-26.9	14.6	1.08e-03	0	43	0	2039480320	12	3959
2026-01-14 04:29:31.71	189.97	10.37	-26.1	-26.9	14.6	1.10e-06	0	43	0	2054160384	12	3935
2026-01-14 04:29:33.71	190.02	10.20	-26.1	-27.0	14.6	0.00e+00	0	43	0	2067791872	12	3975
2026-01-14 04:29:35.72	190.07	10.02	-26.1	-27.0	14.6	0.00e+00	0	44	0	2082471936	12	3975
2026-01-14 04:29:37.72	190.11	9.85	-26.2	-27.1	14.5	0.00e+00	0	43	0	2097152000	12	4005
2026-01-14 04:29:39.73	190.16	9.68	-26.3	-27.3	14.3	0.00e+00	0	44	0	2111832064	12	4053
2026-01-14 04:29:41.73	190.21	9.51	-26.3	-27.3	14.4	0.00e+00	0	43	0	2126512128	12	4038
2026-01-14 04:29:43.73	190.26	9.34	-26.2	-27.1	14.4	0.00e+00	0	44	0	2141192192	12	3989
2026-01-14 04:29:45.74	190.31	9.17	-26.3	-27.3	14.2	2.20e-06	0	44	0	2154823680	12	4062
2026-01-14 04:29:47.75	190.35	9.00	-26.3	-27.4	14.3	1.10e-06	0	44	0	2169503744	12	4074
2026-01-14 04:29:49.76	190.40	8.83	-26.4	-27.5	14.2	3.40e-06	0	43	0	2184183808	12	4107
2026-01-14 04:29:51.77	190.45	8.67	-26.4	-27.6	14.1	2.20e-06	0	44	0	2198863872	12	4142
2026-01-14 04:29:53.79	190.49	8.50	-26.5	-27.9	13.9	3.40e-06	0	44	0	2213543936	12	4209
2026-01-14 04:29:55.79	190.54	8.34	-26.6	-27.6	13.8	2.20e-06	0	44	0	2228224000	13	4024
2026-01-14 04:29:57.80	190.58	8.18	-26.6	-27.6	13.8	4.50e-06	0	44	0	2241855488	13	4017
2026-01-14 04:29:59.81	190.63	8.02	-26.7	-27.8	13.7	1.02e-05	0	44	0	2256535552	13	4072
2026-01-14 04:30:01.82	190.67	7.85	-26.8	-28.0	13.5	1.14e-05	0	44	0	2271215616	13	4121
2026-01-14 04:30:03.82	190.71	7.70	-26.9	-28.2	13.4	2.05e-05	0	43	0	2285895680	13	4194
2026-01-14 04:30:05.83	190.76	7.54	-27.0	-28.4	13.2	1.14e-05	0	43	0	2300575744	13	4244
2026-01-14 04:30:07.83	190.80	7.38	-27.1	-28.1	13.2	4.92e-05	0	44	0	2315255808	14	4054
2026-01-14 04:30:09.84	190.84	7.22	-27.1	-28.6	13.1	2.40e-05	0	44	0	2328887296	13	4299
2026-01-14 04:30:11.84	190.88	7.07	-33.1	-42.5	3.8	8.45e-01	0	43	104	2340421632	26	10589
2026-01-14 04:30:13.85	190.93	6.91	-33.5	-43.4	3.8	8.46e-01	0	43	104	2340421632	26	11234

#Closed at: 2026-01-14 04:30:15
#Recorded file [2340 MB]: D:/data/31010_260114_072446.dat