passes_logs/2026/01/14/R2M6_AANII_01/R2M6_AANII_01__20260114_125925_AQUA_rec.log

#Pass ID: 20260114_125925_AQUA
#Satellite: AQUA
#Configuration: AQUA
#almurnet v.1.7.20240730
#Start time: 2026-01-14 12:59:24

#Version: 2.2.20231116
#Station: R2M6_AANII_01
#Location: 30.233357 lon 59.946436 lat
#TLE: 1 27424U 02022A   26013.58555111  .00000773  00000+0  16469-3 0  9993
#TLE: 2 27424  98.4079 339.9892 0002045  80.0365 334.6894 14.61818766260681

#Time	Az	El	Level	Level2	SNR	BER	BlckErr	Temp	State	Recorded	gain1	gain2
2026-01-14 12:59:24.75	192.39	6.95	-30.5	-34.5	5.3	7.08e-01	0	40	0	0	23	5727
2026-01-14 12:59:27.75	192.60	7.18	-31.5	-36.5	14.7	6.06e-01	0	40	0	0	24	6474
2026-01-14 12:59:30.77	192.82	7.41	-31.3	-36.0	15.2	6.06e-01	0	40	0	5242880	24	6159
2026-01-14 12:59:33.77	193.03	7.65	-30.6	-34.1	16.9	6.05e-01	0	40	0	11010048	23	5371
2026-01-14 12:59:36.78	193.26	7.88	-30.3	-33.8	17.4	6.05e-01	0	40	0	16777216	22	5355
2026-01-14 12:59:39.79	193.48	8.12	-30.4	-33.9	17.5	6.05e-01	0	40	0	22544384	22	5384
2026-01-14 12:59:42.79	193.71	8.36	-30.4	-33.8	17.6	6.04e-01	0	41	0	27787264	22	5356
2026-01-14 12:59:45.79	193.94	8.60	-30.3	-33.6	17.7	6.08e-01	0	41	0	33554432	22	5249
2026-01-14 12:59:48.81	194.18	8.84	-30.3	-33.6	17.7	6.07e-01	0	41	0	39321600	22	5286
2026-01-14 12:59:51.83	194.42	9.09	-30.3	-33.5	17.8	6.07e-01	0	41	0	45088768	22	5227
2026-01-14 12:59:54.84	194.67	9.34	-30.3	-33.5	17.8	6.06e-01	0	41	0	50331648	22	5240
2026-01-14 12:59:57.84	194.92	9.59	-30.2	-33.2	18.0	6.08e-01	0	41	0	56098816	22	5109
2026-01-14 13:00:00.85	195.18	9.85	-30.1	-32.9	18.3	6.07e-01	0	41	0	61865984	22	4988
2026-01-14 13:00:03.85	195.43	10.10	-30.1	-32.9	18.2	6.05e-01	0	41	0	67633152	22	5005
2026-01-14 13:00:06.87	195.70	10.36	-29.9	-32.6	18.5	6.06e-01	0	41	0	73400320	22	4884
2026-01-14 13:00:09.87	195.97	10.62	-30.0	-33.4	18.2	6.06e-01	0	41	0	78643200	21	5302
2026-01-14 13:00:12.88	196.24	10.88	-29.8	-32.8	18.7	6.06e-01	0	41	0	84410368	21	5064
2026-01-14 13:00:15.89	196.52	11.15	-29.9	-32.9	18.6	6.07e-01	0	41	0	90177536	21	5091
2026-01-14 13:00:18.90	196.81	11.42	-30.0	-33.0	18.6	6.06e-01	0	41	0	95944704	21	5107
2026-01-14 13:00:21.90	197.10	11.69	-29.9	-32.9	18.7	6.07e-01	0	41	0	101187584	21	5058
2026-01-14 13:00:24.92	197.40	11.97	-29.9	-32.9	18.7	6.07e-01	0	41	0	106954752	21	5059
2026-01-14 13:00:27.93	197.70	12.24	-29.7	-32.3	19.1	6.05e-01	0	41	0	112721920	21	4870
2026-01-14 13:00:30.95	198.01	12.53	-29.8	-32.4	19.1	6.08e-01	0	42	0	118489088	21	4889
2026-01-14 13:00:33.94	198.32	12.81	-29.6	-32.0	19.3	6.08e-01	0	41	0	123731968	21	4750
2026-01-14 13:00:36.95	198.64	13.09	-29.8	-32.4	19.1	6.06e-01	0	41	0	129499136	21	4878
2026-01-14 13:00:39.96	198.97	13.38	-29.7	-32.2	19.3	6.08e-01	0	42	0	135266304	21	4799
2026-01-14 13:00:42.97	199.30	13.68	-29.7	-32.3	19.2	6.09e-01	0	42	0	141033472	21	4831
2026-01-14 13:00:45.98	199.64	13.97	-29.6	-31.9	19.4	6.06e-01	0	42	0	146276352	21	4718
2026-01-14 13:00:49.00	199.99	14.27	-29.5	-31.8	19.6	6.06e-01	0	42	0	152043520	21	4657
2026-01-14 13:00:52.01	200.34	14.57	-29.4	-31.5	19.7	6.05e-01	0	42	0	157810688	21	4584
2026-01-14 13:00:55.02	200.71	14.88	-29.5	-31.7	19.7	6.05e-01	0	42	0	163577856	21	4620
2026-01-14 13:00:58.04	201.08	15.19	-29.6	-31.8	19.6	6.07e-01	0	42	0	168820736	21	4653
2026-01-14 13:01:01.04	201.46	15.50	-29.5	-31.7	19.7	6.06e-01	0	42	0	174587904	21	4630
2026-01-14 13:01:04.05	201.84	15.81	-29.5	-31.8	19.6	6.06e-01	0	42	0	180355072	21	4661
2026-01-14 13:01:07.05	202.24	16.13	-29.6	-31.9	19.5	6.06e-01	0	42	0	186122240	21	4697
2026-01-14 13:01:10.06	202.64	16.45	-29.5	-31.6	19.8	6.08e-01	0	42	0	191889408	21	4578
2026-01-14 13:01:13.06	203.05	16.77	-29.4	-31.5	19.9	6.05e-01	0	42	0	197132288	21	4552
2026-01-14 13:01:16.07	203.47	17.10	-29.4	-31.4	19.9	6.05e-01	0	42	0	202899456	21	4542
2026-01-14 13:01:19.08	203.91	17.44	-29.4	-31.9	19.9	6.07e-01	0	42	0	208666624	20	4790
2026-01-14 13:01:22.08	204.35	17.77	-29.5	-32.2	19.8	6.06e-01	0	42	0	213909504	20	4890
2026-01-14 13:01:25.09	204.80	18.11	-29.4	-31.9	19.9	6.06e-01	0	42	0	219676672	20	4812
2026-01-14 13:01:28.10	205.26	18.45	-29.4	-32.0	19.9	6.07e-01	0	42	0	225443840	20	4833
2026-01-14 13:01:31.10	205.73	18.80	-29.6	-32.4	19.6	6.10e-01	0	42	0	231211008	20	4987
2026-01-14 13:01:34.12	206.22	19.15	-29.5	-32.0	20.0	6.06e-01	0	42	0	236978176	20	4816
2026-01-14 13:01:37.12	206.72	19.50	-29.5	-32.2	19.8	6.07e-01	0	42	0	242221056	20	4897
2026-01-14 13:01:40.13	207.22	19.86	-29.4	-31.9	20.1	6.05e-01	0	42	0	247988224	20	4780
2026-01-14 13:01:43.13	207.74	20.21	-29.6	-32.3	19.8	6.07e-01	0	42	0	253755392	20	4928
2026-01-14 13:01:46.15	208.28	20.58	-29.6	-32.4	19.8	6.08e-01	0	42	0	259522560	20	4944
2026-01-14 13:01:49.17	208.83	20.95	-29.6	-32.3	19.9	6.07e-01	0	42	0	264765440	20	4906
2026-01-14 13:01:52.17	209.39	21.32	-29.6	-32.2	19.9	6.07e-01	0	42	0	270532608	20	4897
2026-01-14 13:01:55.19	209.96	21.69	-29.5	-32.2	20.0	6.07e-01	0	42	0	276299776	20	4879
2026-01-14 13:01:58.20	210.55	22.07	-29.6	-32.3	19.9	6.06e-01	0	42	0	282066944	20	4899
2026-01-14 13:02:01.22	211.16	22.45	-29.9	-33.0	19.5	6.06e-01	0	42	0	287309824	20	5157
2026-01-14 13:02:04.22	211.77	22.83	-29.8	-32.8	19.6	6.07e-01	0	42	0	293076992	20	5088
2026-01-14 13:02:07.23	212.41	23.22	-29.8	-32.8	19.7	6.06e-01	0	42	0	298844160	20	5068
2026-01-14 13:02:10.24	213.06	23.60	-29.6	-32.1	20.1	6.07e-01	0	42	0	304611328	20	4842
2026-01-14 13:02:13.24	213.72	23.99	-29.6	-32.3	19.9	6.06e-01	0	42	0	309854208	20	4911
2026-01-14 13:02:16.25	214.41	24.39	-29.7	-32.5	19.9	6.07e-01	0	42	0	315621376	20	4966
2026-01-14 13:02:19.25	215.11	24.78	-29.5	-32.0	20.1	6.08e-01	0	42	0	321388544	20	4815
2026-01-14 13:02:22.26	215.83	25.18	-29.7	-32.4	20.0	6.06e-01	0	42	0	327155712	20	4946
2026-01-14 13:02:25.27	216.57	25.58	-29.6	-32.3	20.0	6.05e-01	0	42	0	332398592	20	4916
2026-01-14 13:02:28.28	217.33	25.98	-29.6	-32.2	20.1	6.06e-01	0	42	0	338165760	20	4863
2026-01-14 13:02:31.29	218.11	26.38	-29.6	-32.3	20.0	6.05e-01	0	42	0	343932928	20	4923
2026-01-14 13:02:34.31	218.91	26.79	-29.6	-32.2	20.2	6.06e-01	0	42	0	349700096	20	4852
2026-01-14 13:02:37.32	219.73	27.19	-29.6	-32.2	20.1	6.08e-01	0	42	0	355467264	20	4858
2026-01-14 13:02:40.35	220.58	27.60	-29.6	-32.1	20.2	6.06e-01	0	42	0	360710144	20	4848
2026-01-14 13:02:43.35	221.44	28.00	-29.6	-32.2	20.2	6.07e-01	0	42	0	366477312	20	4861
2026-01-14 13:02:46.37	222.33	28.41	-29.7	-32.4	20.1	6.05e-01	0	42	0	372244480	20	4935
2026-01-14 13:02:49.38	223.24	28.81	-29.5	-32.0	20.3	6.06e-01	0	42	0	378011648	20	4806
2026-01-14 13:02:52.39	224.17	29.21	-29.4	-31.8	20.4	6.06e-01	0	42	0	383254528	20	4722
2026-01-14 13:02:55.40	225.13	29.61	-29.5	-32.0	20.3	6.08e-01	0	42	0	389021696	20	4803
2026-01-14 13:02:58.39	226.10	30.01	-29.5	-31.9	20.4	6.07e-01	0	42	0	394788864	20	4768
2026-01-14 13:03:01.41	227.11	30.40	-29.6	-32.1	20.3	6.06e-01	0	42	0	400556032	20	4823
2026-01-14 13:03:04.42	228.14	30.79	-29.5	-32.0	20.3	6.06e-01	0	42	0	405798912	20	4801
2026-01-14 13:03:07.44	229.20	31.18	-29.6	-32.2	20.2	6.06e-01	0	42	0	411566080	20	4859
2026-01-14 13:03:10.44	230.28	31.56	-29.8	-32.7	20.0	6.05e-01	0	42	0	417333248	20	5023
2026-01-14 13:03:13.45	231.38	31.93	-29.7	-32.5	20.1	6.06e-01	0	42	0	423100416	20	4939
2026-01-14 13:03:16.45	232.51	32.30	-29.7	-32.4	20.1	6.07e-01	0	42	0	428867584	20	4931
2026-01-14 13:03:19.45	233.67	32.66	-30.0	-32.7	19.7	6.07e-01	0	42	0	434110464	21	4918
2026-01-14 13:03:22.46	234.85	33.01	-29.7	-31.8	20.3	6.04e-01	0	42	0	439877632	21	4592
2026-01-14 13:03:25.47	236.06	33.35	-29.7	-31.9	20.2	6.07e-01	0	42	0	445644800	21	4628
2026-01-14 13:03:28.48	237.30	33.68	-29.8	-32.2	20.1	6.07e-01	0	42	0	451411968	21	4724
2026-01-14 13:03:31.49	238.56	34.01	-30.0	-32.6	19.8	6.08e-01	0	42	0	456654848	21	4866
2026-01-14 13:03:34.49	239.85	34.31	-29.9	-32.3	20.0	6.07e-01	0	42	0	462422016	21	4767
2026-01-14 13:03:37.50	241.16	34.61	-30.0	-32.5	19.9	6.05e-01	0	42	0	468189184	21	4819
2026-01-14 13:03:40.51	242.49	34.90	-30.1	-32.7	19.8	6.06e-01	0	42	0	473956352	21	4900
2026-01-14 13:03:43.52	243.85	35.16	-29.7	-31.9	20.2	6.04e-01	0	42	0	479199232	21	4635
2026-01-14 13:03:46.53	245.23	35.42	-29.7	-31.9	20.2	6.06e-01	0	42	0	484966400	21	4633
2026-01-14 13:03:49.53	246.63	35.66	-29.7	-31.8	20.3	6.06e-01	0	42	0	490733568	21	4582
2026-01-14 13:03:52.53	248.04	35.88	-29.9	-32.3	20.0	6.06e-01	0	42	0	496500736	21	4750
2026-01-14 13:03:55.53	249.48	36.08	-29.8	-32.2	20.1	6.06e-01	0	42	0	501743616	21	4709
2026-01-14 13:03:58.53	250.93	36.26	-29.7	-31.7	20.4	6.07e-01	0	42	0	507510784	21	4563
2026-01-14 13:04:01.55	252.41	36.43	-29.7	-31.8	20.3	6.05e-01	0	42	0	513277952	21	4582
2026-01-14 13:04:04.57	253.90	36.57	-29.6	-31.6	20.5	6.06e-01	0	42	0	519045120	21	4521
2026-01-14 13:04:07.58	255.40	36.70	-29.6	-31.6	20.5	6.06e-01	0	42	0	524288000	21	4524
2026-01-14 13:04:10.59	256.91	36.80	-29.9	-32.3	20.1	6.05e-01	0	42	0	530055168	21	4739
2026-01-14 13:04:13.58	258.42	36.88	-29.9	-32.4	20.0	6.07e-01	0	42	0	535822336	21	4782
2026-01-14 13:04:16.60	259.95	36.94	-30.0	-32.6	19.9	6.06e-01	0	42	0	541589504	21	4836
2026-01-14 13:04:19.61	261.47	36.98	-30.1	-32.8	19.8	6.07e-01	0	42	0	546832384	21	4930
2026-01-14 13:04:22.63	263.01	37.00	-29.6	-31.7	20.5	6.07e-01	0	42	0	552599552	21	4541
2026-01-14 13:04:25.63	264.54	36.99	-29.8	-32.1	20.2	6.05e-01	0	42	0	558366720	21	4686
2026-01-14 13:04:28.64	266.07	36.96	-29.7	-31.8	20.4	6.07e-01	0	42	0	564133888	21	4599
2026-01-14 13:04:31.66	267.60	36.91	-29.7	-31.7	20.4	6.05e-01	0	42	0	569901056	21	4562
2026-01-14 13:04:34.67	269.12	36.84	-29.8	-32.1	20.2	6.05e-01	0	42	0	575143936	21	4676
2026-01-14 13:04:37.68	270.63	36.75	-29.8	-32.1	20.3	6.06e-01	0	42	0	580911104	21	4668
2026-01-14 13:04:40.68	272.13	36.63	-29.8	-32.0	20.3	6.07e-01	0	42	0	586678272	21	4648
2026-01-14 13:04:43.69	273.62	36.50	-29.6	-31.5	20.5	6.09e-01	0	42	0	591921152	21	4500
2026-01-14 13:04:46.70	275.10	36.34	-29.9	-32.3	20.1	6.06e-01	0	42	0	597688320	21	4737
2026-01-14 13:04:49.71	276.56	36.17	-29.6	-31.4	20.6	6.06e-01	0	42	0	603455488	21	4474
2026-01-14 13:04:52.72	278.01	35.97	-29.5	-31.3	20.7	6.06e-01	0	42	0	609222656	21	4421
2026-01-14 13:04:55.72	279.43	35.76	-29.6	-31.5	20.6	6.05e-01	0	42	0	614989824	21	4488
2026-01-14 13:04:58.73	280.83	35.53	-29.6	-31.6	20.5	6.07e-01	0	42	0	620232704	21	4516
2026-01-14 13:05:01.74	282.22	35.29	-29.9	-32.3	20.1	6.05e-01	0	42	0	625999872	21	4739
2026-01-14 13:05:04.74	283.58	35.03	-29.5	-31.3	20.7	6.06e-01	0	42	0	631767040	21	4426
2026-01-14 13:05:07.76	284.93	34.75	-29.4	-31.0	20.9	6.06e-01	0	42	0	637534208	21	4331
2026-01-14 13:05:10.76	286.24	34.46	-29.4	-31.4	20.9	6.05e-01	0	42	0	642777088	20	4580
2026-01-14 13:05:13.78	287.54	34.16	-29.3	-31.3	21.0	6.05e-01	0	42	0	648544256	20	4531
2026-01-14 13:05:16.78	288.81	33.84	-29.2	-30.9	21.2	6.09e-01	0	42	0	654311424	20	4422
2026-01-14 13:05:19.79	290.05	33.52	-29.3	-31.4	20.9	6.05e-01	0	42	0	660078592	20	4565
2026-01-14 13:05:22.81	291.27	33.18	-29.3	-31.2	21.0	6.08e-01	0	42	0	665321472	20	4510
2026-01-14 13:05:25.82	292.47	32.83	-29.3	-31.3	21.0	6.09e-01	0	42	0	671088640	20	4525
2026-01-14 13:05:28.83	293.63	32.48	-29.1	-30.9	21.2	6.06e-01	0	43	0	676855808	20	4399
2026-01-14 13:05:31.84	294.77	32.11	-29.1	-30.8	21.2	6.04e-01	0	42	0	682622976	20	4381
2026-01-14 13:05:34.84	295.89	31.75	-29.1	-30.7	21.3	6.05e-01	0	42	0	688390144	20	4361
2026-01-14 13:05:37.85	296.98	31.37	-29.4	-31.5	20.9	6.07e-01	0	42	0	693633024	20	4583
2026-01-14 13:05:40.86	298.04	30.99	-29.2	-31.1	21.1	6.06e-01	0	42	0	699400192	20	4464
2026-01-14 13:05:43.87	299.08	30.60	-29.2	-31.1	21.1	6.04e-01	0	42	0	705167360	20	4480
2026-01-14 13:05:46.88	300.09	30.22	-29.3	-31.3	21.0	6.06e-01	0	42	0	710410240	20	4524
2026-01-14 13:05:49.88	301.08	29.82	-29.8	-32.5	20.3	6.07e-01	0	42	0	716177408	20	4917
2026-01-14 13:05:52.90	302.04	29.43	-29.8	-32.7	20.1	6.06e-01	0	42	0	721944576	20	4988
2026-01-14 13:05:55.90	302.98	29.03	-29.8	-32.4	20.3	6.05e-01	0	42	0	727711744	20	4894
2026-01-14 13:05:58.91	303.90	28.63	-29.7	-32.2	20.4	6.08e-01	0	42	0	733478912	20	4819
2026-01-14 13:06:01.91	304.79	28.23	-29.7	-32.2	20.4	6.08e-01	0	42	0	738721792	20	4815
2026-01-14 13:06:04.92	305.66	27.83	-29.6	-32.1	20.5	6.06e-01	0	42	0	744488960	20	4797
2026-01-14 13:06:07.93	306.51	27.43	-29.7	-32.4	20.3	6.07e-01	0	42	0	750256128	20	4884
2026-01-14 13:06:10.94	307.34	27.03	-29.7	-32.2	20.4	6.07e-01	0	42	0	756023296	20	4831
2026-01-14 13:06:13.95	308.14	26.62	-29.8	-32.5	20.2	6.07e-01	0	42	0	761266176	20	4940
2026-01-14 13:06:16.97	308.93	26.22	-29.9	-32.9	20.0	6.07e-01	0	42	0	767033344	20	5058
2026-01-14 13:06:19.97	309.69	25.82	-29.9	-32.9	20.0	6.06e-01	0	42	0	772800512	20	5086
2026-01-14 13:06:22.99	310.44	25.43	-29.9	-32.9	19.9	6.05e-01	0	43	0	778567680	20	5087
2026-01-14 13:06:25.99	311.17	25.03	-30.1	-32.9	19.6	6.05e-01	0	42	0	783810560	21	4962
2026-01-14 13:06:29.00	311.88	24.64	-29.8	-32.2	20.0	6.07e-01	0	43	0	789577728	21	4716
2026-01-14 13:06:32.01	312.57	24.24	-30.0	-32.6	19.8	6.07e-01	0	42	0	795344896	21	4869
2026-01-14 13:06:35.02	313.24	23.85	-29.9	-32.4	20.0	6.06e-01	0	42	0	801112064	21	4774
2026-01-14 13:06:38.04	313.90	23.47	-30.1	-32.8	19.7	6.08e-01	0	42	0	806879232	21	4920
2026-01-14 13:06:41.04	314.54	23.08	-30.0	-32.7	19.7	6.05e-01	0	42	0	812122112	21	4895
2026-01-14 13:06:44.04	315.16	22.70	-30.3	-33.4	19.3	6.06e-01	0	42	0	817889280	21	5155
2026-01-14 13:06:47.05	315.77	22.32	-29.8	-32.2	20.0	6.05e-01	0	42	0	823656448	21	4721
2026-01-14 13:06:50.07	316.37	21.95	-30.0	-32.6	19.7	6.06e-01	0	42	0	828899328	21	4876
2026-01-14 13:06:53.09	316.95	21.57	-29.9	-32.2	20.0	6.05e-01	0	42	0	834666496	21	4742
2026-01-14 13:06:56.09	317.51	21.21	-29.9	-32.3	19.8	6.08e-01	0	42	0	840433664	21	4772
2026-01-14 13:06:59.10	318.07	20.84	-29.8	-32.2	20.0	6.04e-01	0	42	0	846200832	21	4720
2026-01-14 13:07:02.12	318.61	20.48	-29.9	-32.4	19.8	6.03e-01	0	42	0	851968000	21	4805
2026-01-14 13:07:05.12	319.13	20.12	-29.7	-31.9	20.1	6.05e-01	0	42	0	857210880	21	4634
2026-01-14 13:07:08.13	319.64	19.76	-29.6	-31.7	20.3	6.02e-01	0	42	0	862978048	21	4563
2026-01-14 13:07:11.14	320.15	19.41	-29.7	-31.9	20.2	6.03e-01	0	42	0	868745216	21	4628
2026-01-14 13:07:14.15	320.64	19.06	-29.8	-32.1	19.9	6.02e-01	0	42	0	874512384	21	4697
2026-01-14 13:07:17.16	321.11	18.72	-29.7	-32.0	20.0	6.03e-01	0	42	0	879755264	21	4678
2026-01-14 13:07:20.18	321.58	18.37	-29.8	-32.1	20.0	6.03e-01	0	42	0	885522432	21	4700
2026-01-14 13:07:23.18	322.04	18.04	-29.7	-32.0	20.0	6.04e-01	0	42	0	891289600	21	4670
2026-01-14 13:07:26.18	322.48	17.70	-30.0	-32.6	19.7	6.02e-01	0	42	0	897056768	21	4866
2026-01-14 13:07:29.18	322.92	17.37	-29.9	-32.4	19.8	6.04e-01	0	42	0	902299648	21	4796
2026-01-14 13:07:32.20	323.35	17.04	-29.7	-32.0	19.9	6.03e-01	0	42	0	908066816	21	4672
2026-01-14 13:07:35.21	323.76	16.72	-29.6	-31.7	20.1	6.04e-01	0	42	0	913833984	21	4567
2026-01-14 13:07:38.23	324.17	16.40	-29.7	-31.9	20.0	6.03e-01	0	42	0	919601152	21	4632
2026-01-14 13:07:41.23	324.57	16.08	-29.7	-31.8	20.0	6.02e-01	0	42	0	924844032	21	4622
2026-01-14 13:07:44.24	324.96	15.76	-29.7	-32.0	19.9	6.04e-01	0	42	0	930611200	21	4683
2026-01-14 13:07:47.25	325.35	15.45	-29.7	-32.0	19.9	6.03e-01	0	42	0	936378368	21	4667
2026-01-14 13:07:50.25	325.72	15.15	-29.7	-32.0	19.9	6.02e-01	0	42	0	942145536	21	4672
2026-01-14 13:07:53.26	326.09	14.84	-29.8	-32.3	19.7	6.03e-01	0	42	0	947388416	21	4798
2026-01-14 13:07:56.27	326.44	14.54	-29.9	-32.4	19.6	6.04e-01	0	42	0	953155584	21	4828
2026-01-14 13:07:59.27	326.80	14.24	-29.9	-32.4	19.6	6.05e-01	0	42	0	958922752	21	4823
2026-01-14 13:08:02.28	327.14	13.95	-29.8	-32.2	19.7	6.06e-01	0	42	0	964689920	21	4742
2026-01-14 13:08:05.29	327.48	13.66	-29.7	-32.0	19.8	6.04e-01	0	42	0	970457088	21	4691
2026-01-14 13:08:08.30	327.81	13.37	-29.8	-32.1	19.7	6.02e-01	0	42	0	975699968	21	4737
2026-01-14 13:08:11.30	328.13	13.08	-29.9	-32.6	19.3	6.06e-01	0	42	0	981467136	21	4886
2026-01-14 13:08:14.31	328.45	12.80	-30.0	-32.8	19.3	6.00e-01	0	42	0	987234304	21	4955
2026-01-14 13:08:17.32	328.76	12.52	-30.0	-32.8	19.2	6.02e-01	0	42	0	992477184	21	4970
2026-01-14 13:08:20.32	329.07	12.24	-30.0	-32.8	19.2	6.05e-01	0	42	0	998244352	21	4970
2026-01-14 13:08:23.33	329.37	11.97	-30.0	-32.8	19.2	6.03e-01	0	42	0	1004011520	21	4981
2026-01-14 13:08:26.33	329.66	11.70	-30.1	-33.0	19.0	6.00e-01	0	42	0	1009778688	21	5059
2026-01-14 13:08:29.34	329.95	11.43	-30.1	-33.0	19.0	6.02e-01	0	42	0	1015545856	21	5055
2026-01-14 13:08:32.36	330.23	11.16	-30.1	-33.2	18.9	6.05e-01	0	42	0	1020788736	21	5113
2026-01-14 13:08:35.37	330.51	10.90	-30.2	-33.4	18.7	6.03e-01	0	42	0	1026555904	21	5214
2026-01-14 13:08:38.37	330.79	10.64	-30.1	-33.1	18.9	6.02e-01	0	42	0	1032323072	21	5096
2026-01-14 13:08:41.38	331.05	10.38	-30.2	-33.4	18.7	6.02e-01	0	42	0	1038090240	21	5224
2026-01-14 13:08:44.39	331.32	10.12	-30.2	-33.6	18.6	6.05e-01	0	42	0	1043333120	21	5275
2026-01-14 13:08:47.39	331.58	9.87	-30.2	-33.5	18.6	6.05e-01	0	42	0	1049100288	21	5255
2026-01-14 13:08:50.39	331.83	9.62	-30.2	-33.5	18.6	6.05e-01	0	42	0	1054867456	21	5244
2026-01-14 13:08:53.40	332.08	9.37	-30.3	-33.7	18.4	6.03e-01	0	42	0	1060634624	21	5340
2026-01-14 13:08:56.40	332.32	9.13	-30.3	-33.8	18.3	6.03e-01	0	42	0	1065877504	21	5396
2026-01-14 13:08:59.40	332.56	8.88	-30.3	-33.8	18.3	6.07e-01	0	42	0	1071644672	21	5398
2026-01-14 13:09:02.40	332.80	8.64	-30.5	-34.4	18.0	6.04e-01	0	42	0	1077411840	21	5610
2026-01-14 13:09:05.41	333.03	8.40	-30.3	-33.9	18.2	6.04e-01	0	42	0	1083179008	21	5415
2026-01-14 13:09:08.42	333.26	8.17	-30.4	-34.2	18.0	6.05e-01	0	42	0	1088421888	21	5539
2026-01-14 13:09:11.42	333.49	7.93	-30.6	-34.2	17.7	6.04e-01	0	42	0	1094189056	22	5427
2026-01-14 13:09:14.42	333.71	7.70	-30.5	-33.9	17.9	6.03e-01	0	43	0	1099956224	22	5322
2026-01-14 13:09:17.44	333.93	7.47	-30.6	-34.3	17.6	6.05e-01	0	42	0	1105199104	22	5490
2026-01-14 13:09:20.46	334.15	7.24	-30.6	-34.3	17.5	6.03e-01	0	42	0	1110966272	22	5487
2026-01-14 13:09:23.47	334.36	7.01	-34.0	-53.4	3.8	7.48e-01	0	42	104	1114636288	28	33872

#Closed at: 2026-01-14 13:09:26
#Recorded file [1114 MB]: D:/data/31010_260114_155927.dat