passes_logs/2026/01/14/R2M6_AANII_01/R2M6_AANII_01__20260114_114836_NOAA_20_JPSS-1_rec.log

#Pass ID: 20260114_114836_NOAA 20 (JPSS-1)
#Satellite: NOAA 20 (JPSS-1)
#Configuration: NOAA 20
#almurnet v.1.7.20240730
#Start time: 2026-01-14 11:48:37

#Version: 2.2.20231116
#Station: R2M6_AANII_01
#Location: 30.233357 lon 59.946436 lat
#TLE: 1 43013U 17073A   26013.21545503  .00000073  00000+0  55630-4 0  9998
#TLE: 2 43013  98.7633 314.1737 0001580  41.9966 318.1331 14.19535680422486

#Time	Az	El	Level	Level2	SNR	BER	BlckErr	Temp	State	Recorded	gain1	gain2
2026-01-14 11:48:37.86	208.76	7.07	-30.8	-35.3	5.4	1.15e+00	0	40	0	0	22	6042
2026-01-14 11:48:40.87	209.03	7.27	-31.6	-37.6	8.1	5.25e-02	0	40	0	1048576	23	7211
2026-01-14 11:48:43.87	209.30	7.47	-31.1	-35.4	9.9	9.58e-03	0	40	0	7340032	23	5941
2026-01-14 11:48:46.88	209.57	7.67	-30.6	-34.4	11.1	2.30e-03	0	40	0	12582912	22	5554
2026-01-14 11:48:49.90	209.85	7.87	-30.6	-34.1	11.3	1.31e-03	0	40	0	17825792	22	5423
2026-01-14 11:48:52.90	210.13	8.07	-30.5	-33.9	11.6	9.92e-04	0	40	0	24117248	22	5310
2026-01-14 11:48:55.91	210.42	8.27	-30.6	-34.0	11.5	1.23e-03	0	41	0	29360128	22	5352
2026-01-14 11:48:58.93	210.71	8.48	-30.6	-34.0	11.7	5.39e-04	0	41	0	35651584	22	5326
2026-01-14 11:49:01.94	211.00	8.68	-30.6	-34.1	11.6	7.26e-04	0	41	0	40894464	22	5368
2026-01-14 11:49:04.95	211.30	8.89	-30.4	-33.4	12.1	2.62e-04	0	41	0	46137344	22	5085
2026-01-14 11:49:07.96	211.60	9.09	-30.4	-33.4	12.2	2.53e-04	0	41	0	52428800	22	5071
2026-01-14 11:49:10.97	211.91	9.30	-30.4	-33.2	12.3	1.65e-04	0	41	0	57671680	22	5000
2026-01-14 11:49:13.99	212.22	9.51	-30.4	-33.2	12.4	1.48e-04	0	41	0	63963136	22	4996
2026-01-14 11:49:17.00	212.53	9.72	-30.3	-33.1	12.4	1.73e-04	0	41	0	69206016	22	4952
2026-01-14 11:49:20.01	212.85	9.93	-30.2	-33.1	12.8	6.79e-05	0	41	0	74448896	21	5071
2026-01-14 11:49:23.01	213.18	10.14	-30.1	-33.0	12.9	4.65e-05	0	41	0	80740352	21	4991
2026-01-14 11:49:26.01	213.50	10.35	-30.2	-33.3	12.7	8.62e-05	0	41	0	85983232	21	5105
2026-01-14 11:49:29.02	213.84	10.57	-30.3	-33.5	12.6	1.13e-04	0	41	0	91226112	21	5180
2026-01-14 11:49:32.02	214.17	10.78	-30.4	-33.7	12.4	1.60e-04	0	41	0	97517568	21	5299
2026-01-14 11:49:35.03	214.51	11.00	-30.4	-33.9	12.3	2.16e-04	0	41	0	102760448	21	5352
2026-01-14 11:49:38.03	214.86	11.21	-30.5	-34.1	12.2	2.86e-04	0	41	0	109051904	21	5446
2026-01-14 11:49:41.04	215.21	11.43	-30.4	-33.8	12.4	1.27e-04	0	42	0	114294784	21	5305
2026-01-14 11:49:44.05	215.57	11.65	-30.2	-33.2	12.8	7.24e-05	0	41	0	119537664	21	5069
2026-01-14 11:49:47.07	215.93	11.87	-30.1	-32.9	13.0	3.73e-05	0	42	0	125829120	21	4971
2026-01-14 11:49:50.07	216.30	12.09	-30.2	-33.0	13.0	5.41e-05	0	42	0	131072000	21	5016
2026-01-14 11:49:53.09	216.67	12.31	-30.1	-32.9	13.0	2.59e-05	0	42	0	136314880	21	4969
2026-01-14 11:49:56.11	217.05	12.53	-30.2	-33.1	12.9	3.73e-05	0	42	0	142606336	21	5036
2026-01-14 11:49:59.11	217.43	12.76	-30.1	-32.7	13.2	1.75e-05	0	42	0	147849216	21	4893
2026-01-14 11:50:02.12	217.82	12.98	-30.1	-32.8	13.2	1.75e-05	0	42	0	154140672	21	4923
2026-01-14 11:50:05.13	218.22	13.21	-30.2	-33.0	13.1	2.36e-05	0	42	0	159383552	21	4974
2026-01-14 11:50:08.14	218.62	13.43	-30.2	-33.2	13.0	3.50e-05	0	42	0	164626432	21	5044
2026-01-14 11:50:11.15	219.03	13.66	-30.3	-33.3	12.9	4.27e-05	0	42	0	170917888	21	5108
2026-01-14 11:50:14.16	219.44	13.89	-30.3	-33.4	12.9	4.42e-05	0	42	0	176160768	21	5119
2026-01-14 11:50:17.17	219.86	14.12	-30.1	-32.8	13.3	1.67e-05	0	42	0	182452224	21	4886
2026-01-14 11:50:20.17	220.29	14.34	-30.1	-32.8	13.4	1.98e-05	0	42	0	187695104	21	4885
2026-01-14 11:50:23.19	220.72	14.57	-30.1	-32.6	13.4	9.10e-06	0	42	0	192937984	21	4840
2026-01-14 11:50:26.21	221.16	14.81	-29.9	-32.2	13.8	5.30e-06	0	42	0	199229440	21	4673
2026-01-14 11:50:29.21	221.60	15.04	-30.0	-32.5	13.6	7.60e-06	0	42	0	204472320	21	4777
2026-01-14 11:50:32.21	222.05	15.27	-30.0	-32.5	13.6	9.10e-06	0	42	0	209715200	21	4802
2026-01-14 11:50:35.22	222.51	15.50	-30.2	-32.9	13.3	1.67e-05	0	42	0	216006656	21	4918
2026-01-14 11:50:38.22	222.98	15.73	-30.1	-32.8	13.4	1.75e-05	0	42	0	221249536	21	4877
2026-01-14 11:50:41.22	223.45	15.96	-30.1	-32.8	13.4	9.10e-06	0	42	0	227540992	21	4887
2026-01-14 11:50:44.22	223.93	16.20	-29.8	-31.9	14.0	8.30e-06	0	42	0	232783872	21	4575
2026-01-14 11:50:47.24	224.42	16.43	-29.8	-32.2	14.1	1.50e-06	0	42	0	238026752	20	4792
2026-01-14 11:50:50.24	224.91	16.66	-29.8	-32.3	14.1	7.00e-07	0	42	0	244318208	20	4823
2026-01-14 11:50:53.25	225.41	16.90	-29.8	-32.3	14.1	3.00e-06	0	42	0	249561088	20	4819
2026-01-14 11:50:56.25	225.92	17.13	-29.7	-32.1	14.3	7.00e-07	0	42	0	254803968	20	4751
2026-01-14 11:50:59.26	226.44	17.37	-29.9	-32.5	14.0	7.00e-07	0	42	0	261095424	20	4872
2026-01-14 11:51:02.27	226.96	17.60	-29.8	-32.2	14.2	1.50e-06	0	42	0	266338304	20	4784
2026-01-14 11:51:05.27	227.50	17.83	-29.8	-32.2	14.2	7.00e-07	0	42	0	272629760	20	4782
2026-01-14 11:51:08.29	228.04	18.07	-29.8	-32.3	14.2	3.80e-06	0	42	0	277872640	20	4788
2026-01-14 11:51:11.30	228.59	18.30	-29.6	-31.7	14.6	0.00e+00	0	42	0	283115520	20	4610
2026-01-14 11:51:14.31	229.15	18.54	-29.6	-31.8	14.6	0.00e+00	0	42	0	289406976	20	4616
2026-01-14 11:51:17.32	229.71	18.77	-29.8	-32.2	14.3	0.00e+00	0	42	0	294649856	20	4748
2026-01-14 11:51:20.32	230.29	19.00	-29.8	-32.4	14.2	1.50e-06	0	42	0	300941312	20	4834
2026-01-14 11:51:23.32	230.87	19.23	-29.6	-31.7	14.6	0.00e+00	0	42	0	306184192	20	4610
2026-01-14 11:51:26.33	231.46	19.46	-29.6	-31.8	14.6	7.00e-07	0	42	0	311427072	20	4640
2026-01-14 11:51:29.34	232.06	19.69	-29.4	-31.3	14.9	7.00e-07	0	42	0	317718528	20	4464
2026-01-14 11:51:32.34	232.67	19.92	-29.5	-31.4	14.9	7.00e-07	0	42	0	322961408	20	4488
2026-01-14 11:51:35.35	233.29	20.15	-29.4	-31.2	15.0	0.00e+00	0	42	0	328204288	20	4427
2026-01-14 11:51:38.36	233.92	20.38	-29.2	-31.3	15.3	0.00e+00	0	42	0	334495744	19	4547
2026-01-14 11:51:41.35	234.55	20.60	-29.0	-30.6	15.8	0.00e+00	0	42	0	339738624	19	4337
2026-01-14 11:51:44.36	235.20	20.82	-29.0	-30.7	15.8	7.00e-07	0	42	0	344981504	19	4355
2026-01-14 11:51:47.37	235.85	21.05	-29.1	-31.0	15.5	0.00e+00	0	42	0	351272960	19	4464
2026-01-14 11:51:50.37	236.51	21.27	-28.9	-30.4	15.9	0.00e+00	0	42	0	356515840	19	4295
2026-01-14 11:51:53.38	237.19	21.48	-29.0	-30.6	15.8	0.00e+00	0	42	0	362807296	19	4351
2026-01-14 11:51:56.39	237.87	21.70	-29.1	-30.9	15.6	0.00e+00	0	42	0	368050176	19	4422
2026-01-14 11:51:59.39	238.56	21.91	-29.0	-30.7	15.8	0.00e+00	0	42	0	373293056	19	4353
2026-01-14 11:52:02.40	239.26	22.12	-29.1	-30.9	15.6	0.00e+00	0	42	0	379584512	19	4430
2026-01-14 11:52:05.41	239.97	22.33	-29.2	-31.2	15.4	0.00e+00	0	42	0	384827392	19	4513
2026-01-14 11:52:08.42	240.69	22.54	-29.5	-31.9	15.0	0.00e+00	0	42	0	391118848	19	4748
2026-01-14 11:52:11.42	241.42	22.74	-29.8	-32.6	14.6	0.00e+00	0	42	0	396361728	19	4992
2026-01-14 11:52:14.43	242.16	22.94	-29.7	-32.5	14.7	0.00e+00	0	42	0	401604608	19	4935
2026-01-14 11:52:17.44	242.90	23.14	-29.7	-32.5	14.8	0.00e+00	0	42	0	407896064	19	4926
2026-01-14 11:52:20.45	243.66	23.33	-29.8	-32.5	14.7	0.00e+00	0	42	0	413138944	19	4950
2026-01-14 11:52:23.46	244.43	23.52	-29.9	-32.9	14.5	7.00e-07	0	42	0	418381824	19	5066
2026-01-14 11:52:26.48	245.20	23.70	-30.1	-32.8	14.1	5.30e-06	0	42	0	424673280	20	4960
2026-01-14 11:52:29.49	245.99	23.89	-29.8	-32.2	14.6	0.00e+00	0	42	0	429916160	20	4726
2026-01-14 11:52:32.49	246.78	24.06	-30.1	-33.0	14.0	3.80e-06	0	42	0	436207616	20	5003
2026-01-14 11:52:35.49	247.57	24.23	-30.4	-33.8	13.5	5.30e-06	0	42	0	441450496	20	5322
2026-01-14 11:52:38.51	248.39	24.40	-30.5	-33.6	13.4	1.75e-05	0	42	0	446693376	21	5109
2026-01-14 11:52:41.51	249.20	24.56	-30.6	-33.8	13.2	2.82e-05	0	42	0	452984832	21	5191
2026-01-14 11:52:44.53	250.03	24.72	-30.7	-34.2	12.9	3.28e-05	0	42	0	458227712	21	5363
2026-01-14 11:52:47.55	250.87	24.87	-31.2	-35.1	12.0	2.00e-04	0	42	0	463470592	22	5608
2026-01-14 11:52:50.55	251.70	25.02	-31.0	-34.5	12.4	1.99e-04	0	42	0	469762048	22	5376
2026-01-14 11:52:53.56	252.55	25.16	-31.0	-34.3	12.6	1.14e-04	0	42	0	475004928	22	5277
2026-01-14 11:52:56.57	253.41	25.29	-31.2	-35.0	12.1	1.63e-04	0	42	0	481296384	22	5578
2026-01-14 11:52:59.59	254.28	25.42	-31.8	-36.5	10.7	2.56e-03	0	42	0	486539264	23	6161
2026-01-14 11:53:02.59	255.14	25.55	-31.8	-36.3	10.8	2.91e-03	0	42	0	491782144	23	6075
2026-01-14 11:53:05.60	256.02	25.66	-31.3	-34.9	11.9	4.74e-04	0	42	0	498073600	23	5430
2026-01-14 11:53:08.61	256.90	25.77	-31.5	-35.2	11.6	6.23e-04	0	42	0	503316480	23	5558
2026-01-14 11:53:11.61	257.79	25.88	-31.6	-35.8	11.3	1.30e-03	0	42	0	509607936	23	5796
2026-01-14 11:53:14.63	258.68	25.97	-31.6	-35.8	11.2	9.99e-04	0	42	0	514850816	23	5831
2026-01-14 11:53:17.64	259.58	26.06	-31.2	-34.4	12.2	3.04e-04	0	42	0	520093696	23	5202
2026-01-14 11:53:20.64	260.48	26.14	-30.9	-33.7	12.7	7.01e-05	0	43	0	526385152	23	4946
2026-01-14 11:53:23.65	261.39	26.22	-30.9	-33.5	12.8	5.72e-05	0	42	0	531628032	23	4880
2026-01-14 11:53:26.66	262.30	26.28	-30.8	-33.8	13.0	2.67e-05	0	42	0	536870912	22	5097
2026-01-14 11:53:29.67	263.22	26.34	-30.5	-33.0	13.6	9.90e-06	0	42	0	543162368	22	4792
2026-01-14 11:53:32.68	264.13	26.40	-30.8	-33.8	13.0	2.82e-05	0	42	0	548405248	22	5069
2026-01-14 11:53:35.70	265.06	26.44	-31.0	-34.2	12.8	6.40e-05	0	43	0	554696704	22	5230
2026-01-14 11:53:38.71	265.98	26.48	-31.2	-34.8	12.3	1.47e-04	0	42	0	559939584	22	5489
2026-01-14 11:53:41.71	266.90	26.51	-31.1	-34.5	12.5	1.65e-04	0	42	0	565182464	22	5364
2026-01-14 11:53:44.73	267.83	26.53	-30.9	-34.0	12.9	4.50e-05	0	42	0	571473920	22	5135
2026-01-14 11:53:47.75	268.76	26.54	-30.6	-33.2	13.4	1.44e-05	0	42	0	576716800	22	4854
2026-01-14 11:53:50.75	269.69	26.55	-30.6	-33.2	13.4	1.60e-05	0	42	0	581959680	22	4845
2026-01-14 11:53:53.75	270.61	26.55	-30.5	-32.8	13.5	1.37e-05	0	42	0	588251136	22	4738
2026-01-14 11:53:56.76	271.54	26.54	-30.1	-32.3	14.3	0.00e+00	0	42	0	593494016	21	4641
2026-01-14 11:53:59.77	272.47	26.52	-29.7	-31.7	14.9	0.00e+00	0	42	0	599785472	20	4577
2026-01-14 11:54:02.79	273.39	26.49	-30.1	-33.0	14.2	3.00e-06	0	42	0	605028352	20	4988
2026-01-14 11:54:05.79	274.31	26.46	-30.4	-33.3	13.6	1.22e-05	0	42	0	610271232	21	5002
2026-01-14 11:54:08.80	275.24	26.42	-30.1	-32.5	14.1	3.80e-06	0	42	0	616562688	21	4719
2026-01-14 11:54:11.80	276.15	26.37	-30.4	-33.1	13.7	7.00e-07	0	42	0	621805568	21	4940
2026-01-14 11:54:14.81	277.07	26.31	-31.2	-35.0	12.2	2.00e-04	0	42	0	627048448	22	5550
2026-01-14 11:54:17.81	277.98	26.25	-31.2	-35.1	12.2	3.17e-04	0	43	0	633339904	22	5588
2026-01-14 11:54:20.82	278.88	26.18	-30.7	-33.6	13.2	3.28e-05	0	42	0	638582784	22	4986
2026-01-14 11:54:23.83	279.79	26.10	-30.7	-33.5	13.2	1.98e-05	0	42	0	644874240	22	4969
2026-01-14 11:54:26.84	280.69	26.01	-30.9	-33.9	12.9	5.11e-05	0	43	0	650117120	22	5130
2026-01-14 11:54:29.84	281.58	25.92	-30.5	-33.0	13.5	1.83e-05	0	42	0	655360000	22	4788
2026-01-14 11:54:32.86	282.47	25.82	-30.2	-32.7	14.0	3.00e-06	0	42	0	661651456	21	4778
2026-01-14 11:54:35.87	283.35	25.71	-30.8	-34.3	13.0	2.28e-05	0	42	0	666894336	21	5401
2026-01-14 11:54:38.88	284.23	25.60	-30.9	-34.6	12.8	6.10e-05	0	42	0	673185792	21	5521
2026-01-14 11:54:41.88	285.10	25.48	-30.3	-32.8	13.9	4.50e-06	0	42	0	678428672	21	4838
2026-01-14 11:54:44.88	285.96	25.36	-30.0	-32.2	14.3	3.00e-06	0	42	0	683671552	21	4616
2026-01-14 11:54:47.89	286.81	25.23	-30.0	-32.1	14.4	1.50e-06	0	42	0	689963008	21	4570
2026-01-14 11:54:50.89	287.66	25.09	-29.9	-31.9	14.5	7.00e-07	0	42	0	695205888	21	4510
2026-01-14 11:54:53.90	288.50	24.94	-29.8	-32.1	14.7	0.00e+00	0	42	0	700448768	20	4701
2026-01-14 11:54:56.91	289.34	24.80	-30.1	-32.8	14.3	1.50e-06	0	42	0	706740224	20	4933
2026-01-14 11:54:59.91	290.16	24.64	-29.7	-31.9	14.8	7.00e-07	0	43	0	711983104	20	4643
2026-01-14 11:55:02.92	290.98	24.48	-29.7	-31.9	14.8	0.00e+00	0	43	0	718274560	20	4620
2026-01-14 11:55:05.92	291.79	24.32	-29.3	-31.3	15.5	0.00e+00	0	42	0	723517440	19	4538
2026-01-14 11:55:08.94	292.59	24.15	-29.0	-30.7	15.9	0.00e+00	0	43	0	728760320	19	4348
2026-01-14 11:55:11.95	293.39	23.98	-29.5	-31.8	15.2	0.00e+00	0	42	0	735051776	19	4680
2026-01-14 11:55:14.95	294.17	23.80	-29.4	-31.6	15.3	0.00e+00	0	42	0	740294656	19	4633
2026-01-14 11:55:17.97	294.95	23.62	-29.2	-31.0	15.7	0.00e+00	0	42	0	745537536	19	4431
2026-01-14 11:55:20.96	295.71	23.43	-29.3	-31.4	15.4	0.00e+00	0	42	0	751828992	19	4581
2026-01-14 11:55:23.97	296.47	23.24	-29.7	-32.4	14.8	0.00e+00	0	42	0	757071872	19	4892
2026-01-14 11:55:26.97	297.21	23.05	-30.2	-33.1	14.0	7.00e-07	0	42	0	763363328	20	5057
2026-01-14 11:55:29.99	297.96	22.85	-30.3	-33.3	13.9	2.20e-06	0	42	0	768606208	20	5134
2026-01-14 11:55:32.99	298.68	22.65	-30.2	-33.3	13.9	2.20e-06	0	42	0	773849088	20	5110
2026-01-14 11:55:35.99	299.40	22.45	-30.2	-33.1	14.0	0.00e+00	0	42	0	780140544	20	5040
2026-01-14 11:55:39.00	300.12	22.25	-30.1	-33.0	14.1	2.20e-06	0	42	0	785383424	20	5002
2026-01-14 11:55:42.00	300.82	22.04	-30.1	-33.0	14.1	3.00e-06	0	42	0	790626304	20	4996
2026-01-14 11:55:45.01	301.51	21.83	-30.2	-33.1	14.0	3.80e-06	0	42	0	796917760	20	5042
2026-01-14 11:55:48.02	302.19	21.61	-30.2	-33.2	13.9	3.80e-06	0	43	0	802160640	20	5076
2026-01-14 11:55:51.02	302.87	21.40	-30.3	-33.5	13.7	4.50e-06	0	42	0	808452096	20	5182
2026-01-14 11:55:54.04	303.53	21.18	-30.1	-33.0	14.0	5.30e-06	0	42	0	813694976	20	5029
2026-01-14 11:55:57.06	304.19	20.96	-30.1	-33.0	14.1	3.80e-06	0	42	0	818937856	20	4999
2026-01-14 11:56:00.06	304.84	20.74	-30.2	-33.2	13.9	3.80e-06	0	42	0	825229312	20	5088
2026-01-14 11:56:03.07	305.48	20.52	-30.1	-33.0	14.1	7.00e-07	0	42	0	830472192	20	5001
2026-01-14 11:56:06.08	306.11	20.29	-30.6	-33.7	13.3	2.51e-05	0	42	0	835715072	21	5152
2026-01-14 11:56:09.08	306.72	20.07	-30.7	-34.2	12.9	4.11e-05	0	42	0	842006528	21	5341
2026-01-14 11:56:12.09	307.34	19.84	-30.7	-34.1	13.0	3.66e-05	0	42	0	847249408	21	5312
2026-01-14 11:56:15.10	307.94	19.61	-31.3	-35.4	11.8	1.93e-04	0	42	0	853540864	22	5736
2026-01-14 11:56:18.11	308.53	19.38	-31.1	-34.8	12.1	4.51e-04	0	42	0	858783744	22	5510
2026-01-14 11:56:21.12	309.12	19.15	-30.3	-32.4	13.8	6.10e-06	0	42	0	864026624	22	4612
2026-01-14 11:56:24.13	309.70	18.92	-30.6	-33.9	13.1	2.36e-05	0	42	0	870318080	21	5246
2026-01-14 11:56:27.13	310.26	18.69	-30.7	-34.2	12.9	5.56e-05	0	43	0	875560960	21	5368
2026-01-14 11:56:30.15	310.82	18.46	-30.4	-33.3	13.5	8.30e-06	0	42	0	880803840	21	5020
2026-01-14 11:56:33.15	311.37	18.23	-30.5	-33.6	13.3	9.10e-06	0	42	0	887095296	21	5120
2026-01-14 11:56:36.16	311.92	18.00	-30.9	-34.6	12.6	1.08e-04	0	42	0	892338176	21	5549
2026-01-14 11:56:39.17	312.45	17.77	-30.4	-33.3	13.5	2.67e-05	0	42	0	898629632	21	5034
2026-01-14 11:56:42.18	312.98	17.53	-30.7	-34.0	13.0	2.82e-05	0	43	0	903872512	21	5291
2026-01-14 11:56:45.18	313.50	17.30	-31.0	-34.9	12.3	1.44e-04	0	42	0	909115392	21	5687
2026-01-14 11:56:48.19	314.01	17.07	-30.8	-34.5	12.6	1.23e-04	0	42	0	915406848	21	5480
2026-01-14 11:56:51.21	314.52	16.84	-30.0	-32.3	14.1	2.20e-06	0	42	0	920649728	21	4657
2026-01-14 11:56:54.22	315.01	16.61	-30.7	-34.1	12.9	2.59e-05	0	42	0	926941184	21	5329
2026-01-14 11:56:57.22	315.50	16.37	-31.2	-35.2	11.8	4.46e-04	0	42	0	932184064	22	5701
2026-01-14 11:57:00.22	315.98	16.14	-30.9	-34.2	12.5	1.43e-04	0	42	0	937426944	22	5249
2026-01-14 11:57:03.23	316.46	15.91	-30.8	-33.8	12.7	1.37e-04	0	42	0	943718400	22	5127
2026-01-14 11:57:06.21	316.92	15.68	-30.8	-33.9	12.7	7.85e-05	0	42	0	948961280	22	5134
2026-01-14 11:57:09.23	317.38	15.45	-30.8	-33.9	12.6	8.54e-05	0	42	0	954204160	22	5165
2026-01-14 11:57:12.23	317.84	15.22	-30.9	-34.3	12.3	1.64e-04	0	42	0	960495616	22	5323
2026-01-14 11:57:15.23	318.28	15.00	-30.9	-34.2	12.4	1.15e-04	0	43	0	965738496	22	5281
2026-01-14 11:57:18.23	318.72	14.77	-31.2	-35.3	11.7	6.16e-04	0	42	0	970981376	22	5747
2026-01-14 11:57:21.24	319.16	14.54	-30.9	-34.4	12.3	2.10e-04	0	42	0	977272832	22	5363
2026-01-14 11:57:24.25	319.58	14.31	-30.7	-33.8	12.6	9.15e-05	0	42	0	982515712	22	5129
2026-01-14 11:57:27.25	320.00	14.09	-30.6	-33.5	12.9	5.11e-05	0	43	0	988807168	22	4990
2026-01-14 11:57:30.25	320.42	13.86	-30.8	-34.0	12.5	7.40e-05	0	43	0	994050048	22	5204
2026-01-14 11:57:33.27	320.83	13.64	-30.7	-33.7	12.7	9.23e-05	0	42	0	999292928	22	5110
2026-01-14 11:57:36.29	321.23	13.41	-30.7	-33.9	12.5	1.23e-04	0	42	0	1005584384	22	5165
2026-01-14 11:57:39.29	321.63	13.19	-30.5	-33.2	13.0	4.04e-05	0	42	0	1010827264	22	4899
2026-01-14 11:57:42.29	322.02	12.97	-30.6	-33.3	12.9	6.63e-05	0	42	0	1016070144	22	4960
2026-01-14 11:57:45.29	322.41	12.74	-30.6	-33.5	12.7	6.63e-05	0	43	0	1022361600	22	5031
2026-01-14 11:57:48.30	322.79	12.52	-30.7	-33.8	12.6	8.85e-05	0	42	0	1027604480	22	5132
2026-01-14 11:57:51.30	323.16	12.30	-30.8	-34.1	12.4	1.26e-04	0	42	0	1033895936	22	5241
2026-01-14 11:57:54.29	323.53	12.09	-30.9	-34.5	12.1	2.29e-04	0	42	0	1039138816	22	5409
2026-01-14 11:57:57.29	323.89	11.87	-31.1	-34.9	11.8	4.68e-04	0	43	0	1044381696	22	5578
2026-01-14 11:58:00.30	324.25	11.65	-30.9	-34.4	12.1	3.34e-04	0	42	0	1050673152	22	5391
2026-01-14 11:58:03.31	324.61	11.44	-30.8	-34.2	12.2	1.85e-04	0	42	0	1055916032	22	5295
2026-01-14 11:58:06.32	324.96	11.22	-30.8	-34.1	12.2	2.12e-04	0	42	0	1061158912	22	5273
2026-01-14 11:58:09.33	325.30	11.01	-31.0	-34.6	11.8	4.20e-04	0	42	0	1067450368	22	5493
2026-01-14 11:58:12.33	325.64	10.79	-30.9	-34.6	11.9	4.61e-04	0	42	0	1072693248	22	5456
2026-01-14 11:58:15.35	325.98	10.58	-31.0	-34.8	11.7	4.29e-04	0	43	0	1078984704	22	5559
2026-01-14 11:58:18.35	326.31	10.37	-31.2	-35.3	11.4	9.09e-04	0	42	0	1084227584	22	5777
2026-01-14 11:58:21.36	326.63	10.16	-31.4	-36.2	10.7	2.33e-03	0	42	0	1089470464	22	6211
2026-01-14 11:58:24.37	326.95	9.95	-31.6	-36.4	10.1	5.84e-03	0	43	0	1095761920	23	6215
2026-01-14 11:58:27.37	327.27	9.74	-31.8	-37.0	9.6	1.11e-02	0	42	0	1101004800	23	6560
2026-01-14 11:58:30.38	327.58	9.54	-31.8	-36.9	9.6	1.46e-02	0	42	0	1106247680	23	6526
2026-01-14 11:58:33.38	327.89	9.33	-31.7	-36.8	9.8	9.67e-03	0	42	0	1112539136	23	6444
2026-01-14 11:58:36.38	328.19	9.13	-31.6	-36.5	9.9	9.45e-03	0	42	0	1117782016	23	6315
2026-01-14 11:58:39.39	328.49	8.92	-31.4	-35.8	10.5	4.09e-03	0	43	0	1124073472	23	5954
2026-01-14 11:58:42.38	328.79	8.72	-31.4	-35.7	10.5	4.60e-03	0	43	0	1129316352	23	5913
2026-01-14 11:58:45.38	329.08	8.52	-31.2	-35.1	11.0	2.44e-03	0	43	0	1134559232	23	5615
2026-01-14 11:58:48.39	329.37	8.32	-31.2	-35.1	10.9	2.24e-03	0	43	0	1140850688	23	5621
2026-01-14 11:58:51.40	329.66	8.12	-31.2	-35.0	10.9	2.20e-03	0	42	0	1146093568	23	5608
2026-01-14 11:58:54.41	329.94	7.92	-31.3	-35.3	10.7	3.45e-03	0	42	0	1152385024	23	5752
2026-01-14 11:58:57.42	330.22	7.72	-31.5	-36.3	10.0	6.69e-03	0	42	0	1157627904	23	6221
2026-01-14 11:59:00.43	330.49	7.52	-31.5	-36.3	10.0	7.70e-03	0	42	0	1162870784	23	6207
2026-01-14 11:59:03.44	330.76	7.33	-31.4	-35.7	10.4	4.96e-03	0	42	0	1169162240	23	5920
2026-01-14 11:59:06.45	331.03	7.13	-31.3	-35.4	10.5	3.91e-03	0	42	0	1174405120	23	5819

#Closed at: 2026-01-14 11:59:09
#Recorded file [1176 MB]: D:/data/31010_260114_144839.dat