passes_logs/2026/01/14/R2M6_AANII_01/R2M6_AANII_01__20260114_082825_NOAA_20_JPSS-1_rec.log

#Pass ID: 20260114_082825_NOAA 20 (JPSS-1)
#Satellite: NOAA 20 (JPSS-1)
#Configuration: NOAA 20
#almurnet v.1.7.20240730
#Start time: 2026-01-14 08:28:26

#Version: 2.2.20231116
#Station: R2M6_AANII_01
#Location: 30.233357 lon 59.946436 lat
#TLE: 1 43013U 17073A   26013.21545503  .00000073  00000+0  55630-4 0  9998
#TLE: 2 43013  98.7633 314.1737 0001580  41.9966 318.1331 14.19535680422486

#Time	Az	El	Level	Level2	SNR	BER	BlckErr	Temp	State	Recorded	gain1	gain2
2026-01-14 08:28:26.51	102.88	7.09	-32.3	-40.1	4.5	1.37e+00	0	40	0	0	25	8899
2026-01-14 08:28:29.52	102.62	7.29	-32.1	-38.7	6.6	2.15e-01	0	41	0	1048576	25	7740
2026-01-14 08:28:32.53	102.34	7.48	-32.1	-38.6	6.7	1.98e-01	0	40	0	7340032	25	7652
2026-01-14 08:28:35.53	102.07	7.68	-31.5	-36.3	9.0	3.11e-02	0	41	0	12582912	24	6269
2026-01-14 08:28:38.54	101.79	7.88	-31.3	-36.0	9.6	1.22e-02	0	41	0	17825792	23	6217
2026-01-14 08:28:41.56	101.50	8.08	-31.2	-35.7	9.9	8.54e-03	0	41	0	24117248	23	6030
2026-01-14 08:28:44.57	101.21	8.28	-31.1	-35.3	10.2	7.09e-03	0	41	0	29360128	23	5832
2026-01-14 08:28:47.58	100.92	8.48	-31.1	-35.5	10.0	7.80e-03	0	41	0	35651584	23	5944
2026-01-14 08:28:50.59	100.62	8.69	-31.0	-35.1	10.3	6.00e-03	0	41	0	40894464	23	5750
2026-01-14 08:28:53.60	100.32	8.89	-30.9	-34.8	10.6	3.54e-03	0	41	0	46137344	23	5605
2026-01-14 08:28:56.60	100.02	9.09	-31.1	-35.2	10.3	4.76e-03	0	41	0	52428800	23	5786
2026-01-14 08:28:59.61	99.71	9.30	-31.1	-35.2	10.3	5.77e-03	0	41	0	57671680	23	5797
2026-01-14 08:29:02.61	99.39	9.51	-31.2	-35.5	10.1	8.16e-03	0	41	0	62914560	23	5916
2026-01-14 08:29:05.62	99.07	9.71	-31.2	-35.4	10.3	4.39e-03	0	42	0	69206016	23	5860
2026-01-14 08:29:08.63	98.75	9.92	-31.2	-35.5	10.1	9.61e-03	0	41	0	74448896	23	5929
2026-01-14 08:29:11.63	98.42	10.13	-31.2	-35.5	10.2	5.23e-03	0	41	0	80740352	23	5922
2026-01-14 08:29:14.64	98.09	10.34	-31.3	-36.1	9.7	9.91e-03	0	41	0	85983232	23	6230
2026-01-14 08:29:17.65	97.75	10.55	-31.1	-35.1	10.6	3.34e-03	0	42	0	91226112	23	5686
2026-01-14 08:29:20.67	97.41	10.76	-31.1	-35.1	10.7	4.51e-03	0	42	0	97517568	23	5706
2026-01-14 08:29:23.67	97.06	10.97	-31.2	-35.2	10.7	3.29e-03	0	42	0	102760448	23	5707
2026-01-14 08:29:26.68	96.71	11.19	-31.2	-35.1	10.8	3.40e-03	0	42	0	109051904	23	5681
2026-01-14 08:29:29.69	96.35	11.40	-30.9	-34.3	11.3	1.45e-03	0	42	0	114294784	23	5318
2026-01-14 08:29:32.70	95.98	11.61	-30.9	-34.3	11.4	1.11e-03	0	42	0	119537664	23	5314
2026-01-14 08:29:35.70	95.61	11.83	-30.8	-33.8	11.7	6.02e-04	0	42	0	125829120	23	5114
2026-01-14 08:29:38.71	95.24	12.04	-30.9	-34.6	11.6	7.04e-04	0	42	0	131072000	22	5539
2026-01-14 08:29:41.72	94.86	12.26	-31.0	-35.0	11.4	6.73e-04	0	42	0	136314880	22	5687
2026-01-14 08:29:44.73	94.47	12.48	-31.0	-34.8	11.6	6.57e-04	0	42	0	142606336	22	5594
2026-01-14 08:29:47.73	94.08	12.69	-30.9	-34.7	11.6	4.96e-04	0	42	0	147849216	22	5570
2026-01-14 08:29:50.73	93.68	12.91	-30.9	-34.6	11.7	4.94e-04	0	42	0	154140672	22	5519
2026-01-14 08:29:53.73	93.28	13.13	-30.7	-34.1	12.2	2.78e-04	0	42	0	159383552	22	5279
2026-01-14 08:29:56.73	92.87	13.35	-30.8	-34.1	12.2	3.38e-04	0	42	0	164626432	22	5298
2026-01-14 08:29:59.75	92.45	13.57	-30.7	-33.8	12.4	1.03e-04	0	42	0	170917888	22	5168
2026-01-14 08:30:02.75	92.03	13.79	-30.6	-33.5	12.6	8.46e-05	0	42	0	176160768	22	5059
2026-01-14 08:30:05.76	91.60	14.01	-30.7	-33.8	12.5	1.15e-04	0	42	0	181403648	22	5141
2026-01-14 08:30:08.77	91.17	14.23	-30.7	-33.7	12.6	9.91e-05	0	42	0	187695104	22	5091
2026-01-14 08:30:11.78	90.72	14.45	-30.9	-34.2	12.3	1.58e-04	0	42	0	192937984	22	5318
2026-01-14 08:30:14.79	90.27	14.68	-30.8	-34.2	12.3	1.67e-04	0	42	0	199229440	22	5288
2026-01-14 08:30:17.80	89.82	14.90	-30.9	-34.4	12.2	2.20e-04	0	42	0	204472320	22	5387
2026-01-14 08:30:20.81	89.35	15.12	-31.0	-34.6	12.1	2.11e-04	0	42	0	209715200	22	5434
2026-01-14 08:30:23.82	88.88	15.34	-31.0	-34.8	12.0	3.45e-04	0	42	0	216006656	22	5520
2026-01-14 08:30:26.83	88.41	15.56	-31.0	-34.8	12.0	3.65e-04	0	42	0	221249536	22	5522
2026-01-14 08:30:29.83	87.92	15.79	-31.2	-35.4	11.6	5.42e-04	0	42	0	226492416	22	5778
2026-01-14 08:30:32.84	87.43	16.01	-31.0	-34.6	12.2	2.51e-04	0	42	0	232783872	22	5451
2026-01-14 08:30:35.85	86.93	16.23	-31.1	-34.7	12.1	2.57e-04	0	42	0	238026752	22	5486
2026-01-14 08:30:38.87	86.42	16.45	-31.2	-35.0	11.9	3.42e-04	0	42	0	244318208	22	5631
2026-01-14 08:30:41.87	85.91	16.67	-31.3	-35.5	11.6	7.12e-04	0	42	0	249561088	22	5832
2026-01-14 08:30:44.88	85.39	16.89	-31.3	-35.6	11.5	7.20e-04	0	42	0	254803968	22	5872
2026-01-14 08:30:47.90	84.86	17.12	-31.2	-35.1	11.9	4.71e-04	0	42	0	261095424	22	5662
2026-01-14 08:30:50.91	84.32	17.34	-31.3	-35.3	11.7	4.29e-04	0	42	0	266338304	22	5743
2026-01-14 08:30:53.92	83.77	17.56	-31.3	-35.4	11.7	4.40e-04	0	42	0	272629760	22	5783
2026-01-14 08:30:56.93	83.22	17.77	-31.2	-35.1	11.9	3.74e-04	0	42	0	277872640	22	5659
2026-01-14 08:30:59.94	82.66	17.99	-31.2	-35.2	11.9	4.08e-04	0	42	0	283115520	22	5686
2026-01-14 08:31:02.95	82.09	18.21	-30.9	-34.2	12.6	8.85e-05	0	42	0	289406976	22	5274
2026-01-14 08:31:05.95	81.51	18.42	-30.8	-33.8	12.8	5.34e-05	0	42	0	294649856	22	5083
2026-01-14 08:31:08.95	80.93	18.64	-30.9	-34.2	12.6	1.10e-04	0	42	0	299892736	22	5269
2026-01-14 08:31:11.96	80.33	18.85	-30.5	-33.0	13.4	1.52e-05	0	42	0	306184192	22	4810
2026-01-14 08:31:14.97	79.73	19.06	-30.3	-32.5	13.8	6.10e-06	0	43	0	311427072	22	4636
2026-01-14 08:31:17.97	79.12	19.27	-30.1	-32.5	14.1	6.80e-06	0	43	0	317718528	21	4743
2026-01-14 08:31:20.98	78.50	19.48	-29.9	-31.9	14.4	0.00e+00	0	43	0	322961408	21	4548
2026-01-14 08:31:23.99	77.87	19.69	-29.8	-31.8	14.6	7.00e-07	0	42	0	328204288	21	4488
2026-01-14 08:31:27.00	77.23	19.89	-29.7	-32.0	14.8	0.00e+00	0	42	0	334495744	20	4674
2026-01-14 08:31:30.00	76.59	20.09	-29.7	-31.8	14.9	0.00e+00	0	42	0	339738624	20	4621
2026-01-14 08:31:33.01	75.93	20.29	-29.6	-31.7	15.0	0.00e+00	0	43	0	344981504	20	4560
2026-01-14 08:31:36.02	75.27	20.49	-29.8	-32.1	14.7	0.00e+00	0	42	0	351272960	20	4712
2026-01-14 08:31:39.02	74.60	20.69	-29.5	-31.3	15.2	0.00e+00	0	43	0	356515840	20	4439
2026-01-14 08:31:42.03	73.92	20.88	-29.5	-31.4	15.2	0.00e+00	0	42	0	362807296	20	4480
2026-01-14 08:31:45.03	73.23	21.07	-29.7	-31.9	14.9	0.00e+00	0	43	0	368050176	20	4624
2026-01-14 08:31:48.04	72.53	21.26	-29.7	-31.9	14.9	0.00e+00	0	43	0	373293056	20	4620
2026-01-14 08:31:51.05	71.83	21.44	-29.6	-31.7	15.0	0.00e+00	0	43	0	379584512	20	4563
2026-01-14 08:31:54.06	71.11	21.62	-29.8	-32.0	14.8	0.00e+00	0	43	0	384827392	20	4667
2026-01-14 08:31:57.07	70.39	21.80	-29.9	-32.4	14.5	7.00e-07	0	43	0	391118848	20	4788
2026-01-14 08:32:00.08	69.66	21.97	-29.4	-31.1	15.4	0.00e+00	0	43	0	396361728	20	4375
2026-01-14 08:32:03.08	68.92	22.14	-29.4	-31.0	15.5	0.00e+00	0	42	0	401604608	20	4357
2026-01-14 08:32:06.08	68.18	22.30	-29.3	-31.4	15.6	0.00e+00	0	43	0	407896064	19	4562
2026-01-14 08:32:09.08	67.43	22.46	-29.4	-31.4	15.6	0.00e+00	0	42	0	413138944	19	4572
2026-01-14 08:32:12.09	66.66	22.62	-29.1	-30.8	16.0	0.00e+00	0	43	0	418381824	19	4369
2026-01-14 08:32:15.10	65.89	22.77	-29.1	-30.8	16.0	0.00e+00	0	43	0	424673280	19	4369
2026-01-14 08:32:18.11	65.12	22.92	-29.0	-30.7	16.0	0.00e+00	0	43	0	429916160	19	4347
2026-01-14 08:32:21.11	64.33	23.06	-29.2	-31.0	15.8	0.00e+00	0	43	0	435159040	19	4451
2026-01-14 08:32:24.12	63.54	23.19	-29.5	-31.9	15.3	0.00e+00	0	43	0	441450496	19	4711
2026-01-14 08:32:27.13	62.74	23.33	-29.5	-31.7	15.4	0.00e+00	0	43	0	446693376	19	4643
2026-01-14 08:32:30.14	61.94	23.45	-29.4	-31.6	15.4	0.00e+00	0	43	0	452984832	19	4638
2026-01-14 08:32:33.15	61.13	23.57	-29.7	-32.3	15.0	0.00e+00	0	43	0	458227712	19	4869
2026-01-14 08:32:36.15	60.31	23.69	-30.2	-33.1	14.2	7.00e-07	0	43	0	463470592	20	5026
2026-01-14 08:32:39.17	59.48	23.80	-30.2	-33.1	14.2	2.20e-06	0	43	0	469762048	20	5045
2026-01-14 08:32:42.18	58.66	23.90	-30.3	-33.3	14.0	6.10e-06	0	43	0	475004928	20	5111
2026-01-14 08:32:45.19	57.82	24.00	-30.4	-33.7	13.8	4.50e-06	0	43	0	481296384	20	5253
2026-01-14 08:32:48.20	56.98	24.09	-30.4	-33.2	13.8	4.50e-06	0	43	0	486539264	21	4948
2026-01-14 08:32:51.19	56.14	24.17	-30.7	-34.1	13.2	1.44e-05	0	43	0	491782144	21	5287
2026-01-14 08:32:54.21	55.29	24.25	-30.6	-33.6	13.5	7.60e-06	0	43	0	498073600	21	5115
2026-01-14 08:32:57.23	54.44	24.32	-30.7	-34.0	13.3	1.90e-05	0	43	0	503316480	21	5270
2026-01-14 08:33:00.23	53.58	24.39	-30.9	-34.5	13.0	3.81e-05	0	43	0	508559360	21	5437
2026-01-14 08:33:03.25	52.72	24.44	-30.8	-34.2	13.1	3.43e-05	0	43	0	514850816	21	5342
2026-01-14 08:33:06.26	51.86	24.49	-30.8	-34.2	13.1	3.58e-05	0	43	0	520093696	21	5320
2026-01-14 08:33:09.26	51.00	24.54	-30.7	-34.0	13.2	2.05e-05	0	43	0	526385152	21	5267
2026-01-14 08:33:12.26	50.13	24.57	-30.8	-34.2	13.2	2.59e-05	0	43	0	531628032	21	5321
2026-01-14 08:33:15.26	49.26	24.60	-30.6	-33.8	13.4	1.22e-05	0	43	0	536870912	21	5180
2026-01-14 08:33:18.26	48.40	24.63	-30.5	-33.4	13.7	7.60e-06	0	43	0	543162368	21	5027
2026-01-14 08:33:21.28	47.52	24.64	-30.4	-33.2	13.8	3.00e-06	0	43	0	548405248	21	4967
2026-01-14 08:33:24.28	46.65	24.65	-30.2	-32.7	14.1	1.50e-06	0	43	0	553648128	21	4783
2026-01-14 08:33:27.28	45.78	24.65	-30.2	-32.6	14.2	7.00e-07	0	43	0	559939584	21	4763
2026-01-14 08:33:30.30	44.91	24.64	-30.0	-32.0	14.6	0.00e+00	0	43	0	565182464	21	4551
2026-01-14 08:33:33.32	44.04	24.63	-29.8	-32.0	14.8	0.00e+00	0	43	0	571473920	20	4669
2026-01-14 08:33:36.32	43.17	24.61	-29.5	-31.3	15.2	0.00e+00	0	43	0	576716800	20	4442
2026-01-14 08:33:39.32	42.30	24.58	-29.4	-31.5	15.6	0.00e+00	0	43	0	581959680	19	4582
2026-01-14 08:33:42.33	41.44	24.55	-29.3	-31.2	15.7	0.00e+00	0	43	0	588251136	19	4495
2026-01-14 08:33:45.34	40.57	24.50	-29.2	-31.0	15.8	0.00e+00	0	43	0	593494016	19	4448
2026-01-14 08:33:48.35	39.71	24.45	-29.1	-30.9	15.8	0.00e+00	0	43	0	598736896	19	4423
2026-01-14 08:33:51.34	38.85	24.40	-29.0	-30.6	16.0	0.00e+00	0	43	0	605028352	19	4325
2026-01-14 08:33:54.36	38.00	24.34	-29.0	-30.6	16.1	0.00e+00	0	43	0	610271232	19	4317
2026-01-14 08:33:57.37	37.14	24.27	-29.1	-30.8	15.9	0.00e+00	0	43	0	616562688	19	4393
2026-01-14 08:34:00.38	36.29	24.19	-29.2	-31.0	15.8	0.00e+00	0	43	0	621805568	19	4460
2026-01-14 08:34:03.37	35.46	24.11	-29.3	-31.3	15.6	0.00e+00	0	43	0	627048448	19	4537
2026-01-14 08:34:06.38	34.62	24.02	-29.6	-32.0	15.2	0.00e+00	0	43	0	633339904	19	4757
2026-01-14 08:34:09.39	33.78	23.92	-29.6	-32.1	15.1	0.00e+00	0	43	0	638582784	19	4806
2026-01-14 08:34:12.40	32.95	23.82	-29.9	-32.7	14.8	0.00e+00	0	43	0	643825664	19	4991
2026-01-14 08:34:15.40	32.13	23.71	-29.8	-32.6	14.9	0.00e+00	0	43	0	650117120	19	4963
2026-01-14 08:34:18.41	31.32	23.60	-30.0	-32.7	14.4	0.00e+00	0	43	0	655360000	20	4900
2026-01-14 08:34:21.43	30.50	23.48	-30.0	-32.6	14.5	1.50e-06	0	43	0	661651456	20	4845
2026-01-14 08:34:24.44	29.70	23.36	-30.2	-33.1	14.1	5.30e-06	0	43	0	666894336	20	5053
2026-01-14 08:34:27.45	28.90	23.23	-30.3	-33.4	13.9	2.20e-06	0	43	0	672137216	20	5148
2026-01-14 08:34:30.45	28.11	23.09	-30.3	-33.4	13.9	4.50e-06	0	43	0	678428672	20	5140
2026-01-14 08:34:33.47	27.32	22.95	-30.4	-33.2	13.7	6.10e-06	0	43	0	683671552	21	4983
2026-01-14 08:34:36.48	26.55	22.80	-30.4	-33.1	13.8	2.20e-06	0	43	0	689963008	21	4924
2026-01-14 08:34:39.49	25.78	22.65	-30.4	-33.2	13.7	6.80e-06	0	43	0	695205888	21	4968
2026-01-14 08:34:42.48	25.02	22.50	-30.4	-33.1	13.7	4.50e-06	0	43	0	700448768	21	4945
2026-01-14 08:34:45.49	24.26	22.34	-30.7	-34.1	13.0	3.35e-05	0	43	0	706740224	21	5322
2026-01-14 08:34:48.49	23.52	22.18	-30.6	-33.7	13.4	1.67e-05	0	43	0	711983104	21	5140
2026-01-14 08:34:51.51	22.78	22.01	-30.5	-33.5	13.5	1.14e-05	0	43	0	717225984	21	5087
2026-01-14 08:34:54.52	22.05	21.84	-30.5	-33.5	13.4	9.10e-06	0	43	0	723517440	21	5086
2026-01-14 08:34:57.52	21.33	21.66	-30.4	-33.1	13.7	7.60e-06	0	43	0	728760320	21	4930
2026-01-14 08:35:00.53	20.62	21.48	-30.1	-32.5	14.1	2.20e-06	0	43	0	735051776	21	4719
2026-01-14 08:35:03.54	19.91	21.30	-30.3	-32.8	13.9	4.50e-06	0	43	0	740294656	21	4831
2026-01-14 08:35:06.53	19.22	21.12	-30.0	-32.2	14.2	7.00e-07	0	43	0	745537536	21	4633
2026-01-14 08:35:09.55	18.53	20.93	-30.0	-32.1	14.3	7.00e-07	0	43	0	751828992	21	4604
2026-01-14 08:35:12.56	17.85	20.74	-29.9	-32.0	14.3	2.20e-06	0	43	0	757071872	21	4578
2026-01-14 08:35:15.56	17.18	20.54	-29.9	-31.9	14.4	7.00e-07	0	43	0	762314752	21	4546
2026-01-14 08:35:18.58	16.51	20.35	-30.1	-32.4	14.1	0.00e+00	0	43	0	768606208	21	4695
2026-01-14 08:35:21.59	15.86	20.15	-29.9	-31.9	14.4	7.00e-07	0	43	0	773849088	21	4549
2026-01-14 08:35:24.60	15.22	19.95	-30.0	-32.2	14.2	3.00e-06	0	43	0	780140544	21	4640
2026-01-14 08:35:27.62	14.58	19.74	-30.0	-32.1	14.3	7.00e-07	0	43	0	785383424	21	4598
2026-01-14 08:35:30.62	13.95	19.54	-30.1	-32.5	14.0	2.20e-06	0	43	0	790626304	21	4728
2026-01-14 08:35:33.62	13.33	19.33	-29.9	-31.9	14.4	0.00e+00	0	43	0	796917760	21	4530
2026-01-14 08:35:36.64	12.72	19.12	-29.8	-32.2	14.5	7.00e-07	0	43	0	802160640	20	4745
2026-01-14 08:35:39.66	12.12	18.91	-29.7	-31.9	14.7	0.00e+00	0	43	0	807403520	20	4641
2026-01-14 08:35:42.66	11.52	18.70	-29.6	-31.7	14.8	7.00e-07	0	43	0	813694976	20	4581
2026-01-14 08:35:45.66	10.94	18.49	-29.6	-31.6	14.8	0.00e+00	0	43	0	818937856	20	4548
2026-01-14 08:35:48.67	10.36	18.27	-29.5	-31.5	14.9	0.00e+00	0	43	0	825229312	20	4502
2026-01-14 08:35:51.67	9.79	18.06	-29.3	-31.3	15.3	0.00e+00	0	43	0	830472192	19	4563
2026-01-14 08:35:54.68	9.23	17.84	-29.4	-31.6	15.2	0.00e+00	0	43	0	835715072	19	4635
2026-01-14 08:35:57.68	8.68	17.62	-29.5	-32.0	14.9	0.00e+00	0	43	0	842006528	19	4775
2026-01-14 08:36:00.69	8.14	17.40	-29.6	-32.1	14.9	7.00e-07	0	43	0	847249408	19	4811
2026-01-14 08:36:03.70	7.60	17.19	-29.6	-32.3	14.7	7.00e-07	0	43	0	852492288	19	4867
2026-01-14 08:36:06.71	7.07	16.97	-29.3	-31.4	15.2	0.00e+00	0	43	0	858783744	19	4589
2026-01-14 08:36:09.72	6.55	16.75	-29.4	-31.6	15.1	0.00e+00	0	42	0	864026624	19	4663
2026-01-14 08:36:12.73	6.04	16.53	-29.6	-32.2	14.8	0.00e+00	0	43	0	870318080	19	4841
2026-01-14 08:36:15.73	5.53	16.30	-29.4	-31.8	15.0	7.00e-07	0	43	0	875560960	19	4709
2026-01-14 08:36:18.73	5.04	16.08	-29.4	-31.8	15.0	0.00e+00	0	43	0	880803840	19	4729
2026-01-14 08:36:21.75	4.54	15.86	-29.6	-32.2	14.7	0.00e+00	0	43	0	887095296	19	4859
2026-01-14 08:36:24.75	4.06	15.64	-29.6	-32.3	14.6	0.00e+00	0	43	0	892338176	19	4904
2026-01-14 08:36:27.76	3.59	15.42	-29.8	-32.6	14.4	0.00e+00	0	43	0	897581056	19	5006
2026-01-14 08:36:30.77	3.12	15.20	-29.9	-32.6	14.0	0.00e+00	0	43	0	903872512	20	4902
2026-01-14 08:36:33.78	2.65	14.98	-30.0	-33.0	13.8	5.30e-06	0	43	0	909115392	20	5036
2026-01-14 08:36:36.79	2.20	14.76	-30.1	-33.1	13.7	5.30e-06	0	43	0	915406848	20	5092
2026-01-14 08:36:39.80	1.75	14.54	-30.0	-32.9	13.8	1.50e-06	0	43	0	920649728	20	5020
2026-01-14 08:36:42.82	1.31	14.31	-30.3	-33.7	13.3	1.37e-05	0	43	0	925892608	20	5315
2026-01-14 08:36:45.82	0.88	14.09	-30.2	-33.5	13.4	1.52e-05	0	43	0	932184064	20	5245
2026-01-14 08:36:48.83	0.45	13.87	-30.3	-33.8	13.1	1.52e-05	0	43	0	937426944	20	5372
2026-01-14 08:36:51.83	0.03	13.65	-30.4	-33.9	13.1	1.44e-05	0	43	0	943718400	20	5414
2026-01-14 08:36:54.84	359.61	13.44	-30.2	-33.4	13.4	1.60e-05	0	43	0	948961280	20	5208
2026-01-14 08:36:57.86	359.20	13.22	-30.4	-34.0	13.0	3.20e-05	0	43	0	954204160	20	5430
2026-01-14 08:37:00.87	358.80	13.00	-30.5	-33.7	12.8	4.34e-05	0	43	0	960495616	21	5201
2026-01-14 08:37:03.86	358.40	12.78	-30.4	-33.5	13.0	5.03e-05	0	43	0	965738496	21	5141
2026-01-14 08:37:06.86	358.01	12.57	-30.5	-33.8	12.7	5.79e-05	0	43	0	970981376	21	5255
2026-01-14 08:37:09.87	357.63	12.35	-30.6	-34.2	12.4	1.52e-04	0	43	0	977272832	21	5442
2026-01-14 08:37:12.88	357.25	12.13	-30.5	-33.8	12.7	8.31e-05	0	43	0	982515712	21	5258
2026-01-14 08:37:15.89	356.88	11.92	-30.5	-33.8	12.7	7.55e-05	0	43	0	988807168	21	5282
2026-01-14 08:37:18.90	356.51	11.70	-30.6	-34.2	12.4	1.35e-04	0	43	0	994050048	21	5435
2026-01-14 08:37:21.91	356.15	11.49	-30.7	-34.5	12.2	2.74e-04	0	43	0	999292928	21	5572
2026-01-14 08:37:24.91	355.79	11.28	-30.9	-35.1	11.7	4.16e-04	0	43	0	1005584384	21	5839
2026-01-14 08:37:27.92	355.44	11.06	-30.9	-35.0	11.8	4.13e-04	0	43	0	1010827264	21	5770
2026-01-14 08:37:30.94	355.09	10.85	-30.9	-35.2	11.6	6.29e-04	0	43	0	1016070144	21	5880
2026-01-14 08:37:33.96	354.75	10.64	-30.9	-35.0	11.8	5.06e-04	0	43	0	1022361600	21	5783
2026-01-14 08:37:36.95	354.41	10.43	-31.2	-35.4	11.1	1.29e-03	0	43	0	1027604480	22	5881
2026-01-14 08:37:39.95	354.08	10.22	-31.1	-35.3	11.2	1.24e-03	0	43	0	1033895936	22	5809
2026-01-14 08:37:42.96	353.76	10.02	-31.2	-35.4	11.1	2.01e-03	0	43	0	1039138816	22	5882
2026-01-14 08:37:45.97	353.43	9.81	-31.4	-36.2	10.5	2.86e-03	0	43	0	1044381696	22	6263
2026-01-14 08:37:48.99	353.11	9.60	-31.2	-35.5	11.0	2.27e-03	0	43	0	1050673152	22	5923
2026-01-14 08:37:52.00	352.80	9.40	-31.3	-35.9	10.6	2.49e-03	0	43	0	1055916032	22	6130
2026-01-14 08:37:55.01	352.49	9.19	-31.1	-35.2	11.2	1.46e-03	0	43	0	1061158912	22	5780
2026-01-14 08:37:58.02	352.19	8.99	-31.3	-36.1	10.5	3.80e-03	0	43	0	1067450368	22	6213
2026-01-14 08:38:01.03	351.89	8.78	-31.1	-35.2	11.1	1.87e-03	0	43	0	1072693248	22	5817
2026-01-14 08:38:04.05	351.59	8.58	-31.2	-35.6	10.8	2.32e-03	0	43	0	1078984704	22	6009
2026-01-14 08:38:07.06	351.30	8.38	-31.2	-35.6	10.8	2.60e-03	0	43	0	1084227584	22	5971
2026-01-14 08:38:10.06	351.02	8.18	-31.2	-35.7	10.7	2.67e-03	0	43	0	1089470464	22	6059
2026-01-14 08:38:13.06	350.74	7.98	-31.2	-35.8	10.6	4.06e-03	0	43	0	1095761920	22	6111
2026-01-14 08:38:16.07	350.46	7.78	-31.4	-36.5	10.0	6.23e-03	0	43	0	1101004800	22	6485
2026-01-14 08:38:19.07	350.18	7.59	-31.5	-36.4	9.6	1.23e-02	0	43	0	1107296256	23	6342
2026-01-14 08:38:22.06	349.91	7.39	-31.5	-36.6	9.5	1.36e-02	0	43	0	1112539136	23	6431
2026-01-14 08:38:25.07	349.65	7.19	-31.6	-36.7	9.4	1.89e-02	0	43	0	1117782016	23	6477
2026-01-14 08:38:28.08	349.38	7.00	-33.4	-47.2	3.8	1.49e+00	0	43	104	1121976320	26	17662

#Closed at: 2026-01-14 08:38:30
#Recorded file [1121 MB]: D:/data/31010_260114_112828.dat