passes_logs/2026/01/14/R2M6_AANII_01/R2M6_AANII_01__20260114_094632_SUOMI_NPP_rec.log

#Pass ID: 20260114_094632_SUOMI NPP
#Satellite: SUOMI NPP
#Configuration: NPP
#almurnet v.1.7.20240730
#Start time: 2026-01-14 09:46:33

#Version: 2.2.20231116
#Station: R2M6_AANII_01
#Location: 30.233357 lon 59.946436 lat
#TLE: 1 37849U 11061A   26013.27136842  .00000065  00000+0  51889-4 0  9990
#TLE: 2 37849  98.7808 315.3349 0002489  66.6776 293.4661 14.19524902736466

#Time	Az	El	Level	Level2	SNR	BER	BlckErr	Temp	State	Recorded	gain1	gain2
2026-01-14 09:46:33.89	141.03	7.11	-31.2	-35.0	5.2	1.26e+00	0	40	0	0	23	5567
2026-01-14 09:46:36.90	140.94	7.34	-30.9	-33.8	9.7	1.28e-02	0	40	0	1048576	23	5043
2026-01-14 09:46:39.91	140.85	7.57	-30.9	-34.6	9.4	1.43e-02	0	40	0	7340032	22	5492
2026-01-14 09:46:42.92	140.76	7.81	-31.1	-35.4	8.9	4.50e-02	0	40	0	12582912	22	5884
2026-01-14 09:46:45.94	140.67	8.05	-31.0	-34.9	9.3	2.53e-02	0	40	0	18874368	22	5651
2026-01-14 09:46:48.95	140.57	8.29	-30.5	-32.8	10.9	3.21e-03	0	41	0	24117248	22	4721
2026-01-14 09:46:51.96	140.48	8.53	-30.2	-32.2	11.8	4.13e-04	0	41	0	29360128	21	4521
2026-01-14 09:46:54.96	140.38	8.77	-30.1	-31.8	12.2	4.58e-04	0	41	0	35651584	21	4372
2026-01-14 09:46:57.98	140.28	9.02	-29.9	-30.9	12.9	6.71e-05	0	41	0	40894464	21	4078
2026-01-14 09:47:00.99	140.18	9.27	-30.1	-31.7	12.5	1.30e-04	0	41	0	46137344	21	4296
2026-01-14 09:47:04.00	140.08	9.52	-30.4	-32.5	12.0	3.22e-04	0	41	0	52428800	21	4580
2026-01-14 09:47:07.00	139.97	9.77	-30.3	-32.3	12.1	2.61e-04	0	41	0	57671680	21	4523
2026-01-14 09:47:10.02	139.86	10.03	-30.2	-31.8	12.5	6.63e-05	0	41	0	63963136	21	4326
2026-01-14 09:47:13.02	139.75	10.29	-29.9	-31.1	13.0	3.66e-05	0	41	0	69206016	21	4108
2026-01-14 09:47:16.04	139.64	10.55	-30.2	-31.7	12.6	6.63e-05	0	41	0	74448896	21	4284
2026-01-14 09:47:19.03	139.53	10.82	-30.2	-31.7	12.7	1.11e-04	0	41	0	80740352	21	4272
2026-01-14 09:47:22.02	139.41	11.08	-30.2	-31.6	12.8	6.71e-05	0	41	0	85983232	21	4234
2026-01-14 09:47:25.03	139.30	11.35	-29.9	-30.8	13.3	1.98e-05	0	41	0	91226112	21	3997
2026-01-14 09:47:28.03	139.18	11.62	-29.6	-30.4	13.9	3.00e-06	0	41	0	97517568	20	3979
2026-01-14 09:47:31.05	139.05	11.90	-29.8	-31.1	13.5	9.10e-06	0	41	0	102760448	20	4171
2026-01-14 09:47:34.07	138.93	12.18	-30.2	-32.1	12.8	2.59e-05	0	41	0	109051904	20	4500
2026-01-14 09:47:37.08	138.80	12.46	-30.3	-32.3	12.7	7.40e-05	0	41	0	114294784	20	4557
2026-01-14 09:47:40.10	138.67	12.75	-30.2	-32.0	12.9	5.41e-05	0	42	0	119537664	20	4447
2026-01-14 09:47:43.11	138.53	13.04	-30.0	-31.4	13.3	2.67e-05	0	42	0	125829120	20	4252
2026-01-14 09:47:46.12	138.40	13.33	-29.8	-30.9	13.7	6.10e-06	0	42	0	131072000	20	4103
2026-01-14 09:47:49.13	138.26	13.62	-29.9	-31.2	13.5	1.37e-05	0	42	0	136314880	20	4192
2026-01-14 09:47:52.14	138.12	13.92	-30.0	-31.5	13.4	1.22e-05	0	42	0	142606336	20	4270
2026-01-14 09:47:55.14	137.97	14.22	-29.6	-30.6	13.9	4.50e-06	0	42	0	147849216	20	4003
2026-01-14 09:47:58.16	137.82	14.53	-29.5	-30.3	14.1	7.00e-07	0	42	0	154140672	20	3939
2026-01-14 09:48:01.16	137.67	14.84	-29.6	-30.6	13.9	3.00e-06	0	42	0	159383552	20	4041
2026-01-14 09:48:04.17	137.52	15.15	-29.8	-31.0	13.7	4.50e-06	0	42	0	164626432	20	4153
2026-01-14 09:48:07.18	137.36	15.47	-29.8	-30.9	13.9	3.00e-06	0	42	0	170917888	20	4086
2026-01-14 09:48:10.19	137.20	15.79	-29.7	-30.6	14.2	3.00e-06	0	42	0	176160768	20	3989
2026-01-14 09:48:13.20	137.03	16.12	-29.6	-30.4	14.2	1.50e-06	0	42	0	182452224	20	3938
2026-01-14 09:48:16.21	136.86	16.44	-30.0	-31.3	13.6	3.00e-06	0	42	0	187695104	20	4193
2026-01-14 09:48:19.22	136.69	16.78	-29.6	-30.4	14.2	3.00e-06	0	42	0	192937984	20	3929
2026-01-14 09:48:22.24	136.51	17.12	-29.5	-30.1	14.5	7.00e-07	0	42	0	199229440	20	3833
2026-01-14 09:48:25.25	136.33	17.46	-29.7	-30.4	14.4	7.00e-07	0	42	0	204472320	20	3913
2026-01-14 09:48:28.25	136.14	17.80	-30.0	-31.2	13.9	7.00e-07	0	42	0	209715200	20	4140
2026-01-14 09:48:31.26	135.95	18.16	-29.9	-31.0	14.0	7.00e-07	0	42	0	216006656	20	4089
2026-01-14 09:48:34.27	135.75	18.51	-29.8	-30.7	14.2	7.00e-07	0	42	0	221249536	20	3990
2026-01-14 09:48:37.27	135.55	18.87	-29.8	-30.8	14.3	7.00e-07	0	42	0	227540992	20	4011
2026-01-14 09:48:40.28	135.35	19.24	-29.8	-30.7	14.3	0.00e+00	0	42	0	232783872	20	3998
2026-01-14 09:48:43.28	135.14	19.61	-29.6	-30.0	14.8	0.00e+00	0	42	0	238026752	20	3797
2026-01-14 09:48:46.30	134.92	19.98	-29.7	-30.3	14.7	0.00e+00	0	42	0	244318208	20	3855
2026-01-14 09:48:49.30	134.70	20.36	-30.2	-31.6	13.9	3.80e-06	0	42	0	249561088	20	4242
2026-01-14 09:48:52.31	134.47	20.75	-30.5	-31.9	13.4	1.60e-05	0	42	0	254803968	21	4237
2026-01-14 09:48:55.31	134.24	21.14	-30.0	-30.6	14.2	3.00e-06	0	42	0	261095424	21	3863
2026-01-14 09:48:58.33	134.00	21.54	-30.0	-30.5	14.3	0.00e+00	0	42	0	266338304	21	3841
2026-01-14 09:49:01.33	133.76	21.94	-30.3	-31.4	13.8	7.60e-06	0	42	0	272629760	21	4074
2026-01-14 09:49:04.34	133.50	22.35	-30.2	-31.1	13.9	2.20e-06	0	42	0	277872640	21	4003
2026-01-14 09:49:07.34	133.24	22.77	-30.2	-31.1	14.0	4.50e-06	0	42	0	283115520	21	4002
2026-01-14 09:49:10.35	132.98	23.19	-30.3	-31.5	13.8	8.30e-06	0	42	0	289406976	21	4093
2026-01-14 09:49:13.36	132.70	23.62	-30.3	-31.5	13.8	4.50e-06	0	42	0	294649856	21	4095
2026-01-14 09:49:16.37	132.42	24.05	-30.3	-31.4	13.8	5.30e-06	0	42	0	300941312	21	4074
2026-01-14 09:49:19.38	132.13	24.49	-30.9	-32.8	12.9	3.12e-05	0	42	0	306184192	21	4530
2026-01-14 09:49:22.39	131.83	24.94	-31.0	-32.7	12.7	5.26e-05	0	42	0	311427072	22	4388
2026-01-14 09:49:25.40	131.52	25.39	-30.6	-31.6	13.5	2.21e-05	0	42	0	317718528	22	4028
2026-01-14 09:49:28.42	131.20	25.86	-30.7	-31.8	13.3	2.44e-05	0	42	0	322961408	22	4111
2026-01-14 09:49:31.42	130.87	26.32	-30.9	-32.4	13.0	2.44e-05	0	42	0	328204288	22	4289
2026-01-14 09:49:34.43	130.54	26.80	-31.0	-32.8	12.8	7.09e-05	0	42	0	334495744	22	4391
2026-01-14 09:49:37.43	130.19	27.28	-31.2	-33.2	12.5	1.59e-04	0	42	0	339738624	22	4519
2026-01-14 09:49:40.45	129.83	27.77	-30.8	-32.2	13.2	4.50e-05	0	42	0	346030080	22	4204
2026-01-14 09:49:43.45	129.46	28.27	-30.8	-32.1	13.3	9.90e-06	0	42	0	351272960	22	4171
2026-01-14 09:49:46.46	129.08	28.78	-30.9	-32.2	13.2	3.81e-05	0	42	0	356515840	22	4198
2026-01-14 09:49:49.47	128.68	29.29	-30.8	-32.0	13.3	3.89e-05	0	42	0	362807296	22	4144
2026-01-14 09:49:52.47	128.28	29.81	-30.8	-31.9	13.4	1.60e-05	0	42	0	368050176	22	4119
2026-01-14 09:49:55.49	127.85	30.34	-30.8	-32.0	13.4	1.37e-05	0	42	0	374341632	22	4135
2026-01-14 09:49:58.51	127.42	30.88	-30.7	-31.9	13.5	5.30e-06	0	42	0	379584512	22	4098
2026-01-14 09:50:01.52	126.96	31.42	-31.3	-33.3	12.5	1.04e-04	0	42	0	384827392	22	4549
2026-01-14 09:50:04.53	126.50	31.98	-31.3	-33.4	12.4	1.24e-04	0	42	0	391118848	22	4589
2026-01-14 09:50:07.52	126.02	32.53	-31.8	-34.5	11.5	8.19e-04	0	42	0	396361728	23	4885
2026-01-14 09:50:10.54	125.51	33.11	-31.7	-33.5	11.8	1.24e-03	0	42	0	401604608	24	4440
2026-01-14 09:50:13.55	124.99	33.68	-31.6	-33.1	12.0	7.06e-04	0	42	0	407896064	24	4317
2026-01-14 09:50:16.56	124.46	34.27	-31.8	-34.0	11.4	2.84e-04	0	43	0	413138944	24	4603
2026-01-14 09:50:19.56	123.90	34.86	-32.2	-35.2	10.6	3.43e-03	0	42	0	419430400	24	5068
2026-01-14 09:50:22.57	123.32	35.47	-32.7	-36.5	9.2	1.83e-02	0	42	0	424673280	25	5551
2026-01-14 09:50:25.57	122.72	36.07	-33.3	-38.2	7.5	1.23e-01	0	42	0	429916160	26	6369
2026-01-14 09:50:28.58	122.09	36.69	-32.5	-34.9	10.0	1.21e-02	0	42	0	436207616	26	4789
2026-01-14 09:50:31.59	121.44	37.32	-31.3	-32.8	12.7	7.93e-05	0	42	0	441450496	23	4276
2026-01-14 09:50:34.60	120.77	37.95	-31.3	-32.8	12.7	1.31e-04	0	42	0	446693376	23	4270
2026-01-14 09:50:37.59	120.07	38.59	-31.5	-33.3	12.3	1.80e-04	0	42	0	452984832	23	4460
2026-01-14 09:50:40.59	119.34	39.23	-32.3	-35.4	10.4	2.73e-03	0	42	0	458227712	24	5145
2026-01-14 09:50:43.59	118.58	39.89	-32.5	-35.5	10.1	3.64e-03	0	42	0	463470592	25	5091
2026-01-14 09:50:46.60	117.79	40.55	-33.1	-37.3	8.4	3.74e-02	0	42	0	469762048	26	5816
2026-01-14 09:50:49.61	116.96	41.21	-33.6	-39.5	6.4	1.98e-01	0	42	0	475004928	27	7039
2026-01-14 09:50:52.62	116.10	41.89	-32.9	-35.9	9.1	2.69e-02	0	42	0	481296384	27	5096
2026-01-14 09:50:55.62	115.20	42.56	-32.7	-35.7	9.6	1.59e-02	0	42	0	486539264	26	5089
2026-01-14 09:50:58.62	114.27	43.24	-32.3	-34.7	10.8	3.30e-03	0	42	0	491782144	25	4757
2026-01-14 09:51:01.63	113.29	43.92	-31.5	-32.9	12.2	2.58e-04	0	42	0	498073600	24	4208
2026-01-14 09:51:04.64	112.27	44.61	-31.8	-34.1	11.9	1.45e-04	0	42	0	503316480	23	4706
2026-01-14 09:51:07.64	111.20	45.29	-32.0	-34.5	11.3	8.85e-04	0	42	0	509607936	24	4756
2026-01-14 09:51:10.65	110.09	45.98	-31.7	-33.4	12.1	6.16e-04	0	42	0	514850816	24	4383
2026-01-14 09:51:13.65	108.93	46.66	-31.4	-32.9	12.7	4.65e-05	0	42	0	520093696	23	4298
2026-01-14 09:51:16.67	107.71	47.35	-32.2	-35.0	10.8	1.44e-03	0	42	0	526385152	24	4975
2026-01-14 09:51:19.68	106.43	48.03	-31.0	-31.9	13.4	1.60e-05	0	42	0	531628032	23	3988
2026-01-14 09:51:22.69	105.11	48.70	-31.3	-33.3	12.8	7.17e-05	0	42	0	536870912	22	4515
2026-01-14 09:51:25.70	103.72	49.37	-31.8	-34.1	11.9	4.63e-04	0	43	0	543162368	23	4714
2026-01-14 09:51:28.71	102.27	50.03	-31.6	-33.7	12.2	1.36e-04	0	42	0	548405248	23	4557
2026-01-14 09:51:31.73	100.75	50.68	-30.3	-30.6	14.6	2.20e-06	0	42	0	554696704	22	3719
2026-01-14 09:51:34.74	99.17	51.31	-29.9	-30.5	15.1	0.00e+00	0	43	0	559939584	20	3869
2026-01-14 09:51:37.74	97.53	51.93	-29.7	-30.1	15.4	0.00e+00	0	43	0	565182464	20	3771
2026-01-14 09:51:40.75	95.81	52.53	-31.1	-32.5	13.3	5.30e-06	0	42	0	571473920	22	4277
2026-01-14 09:51:43.76	94.02	53.10	-30.8	-31.8	13.8	1.60e-05	0	42	0	576716800	22	4044
2026-01-14 09:51:46.78	92.16	53.66	-30.5	-31.1	14.2	3.00e-06	0	43	0	581959680	22	3857
2026-01-14 09:51:49.78	90.24	54.19	-30.8	-32.5	13.7	2.20e-06	0	43	0	588251136	21	4353
2026-01-14 09:51:52.80	88.23	54.69	-30.4	-31.3	14.4	7.00e-07	0	42	0	593494016	21	4007
2026-01-14 09:51:55.81	86.16	55.16	-31.2	-33.1	13.0	3.43e-05	0	43	0	599785472	22	4464
2026-01-14 09:51:58.82	84.03	55.60	-30.2	-30.8	14.7	1.50e-06	0	43	0	605028352	21	3858
2026-01-14 09:52:01.82	81.83	55.99	-29.6	-29.8	15.7	0.00e+00	0	43	0	610271232	20	3678
2026-01-14 09:52:04.84	79.56	56.35	-30.3	-31.1	14.5	7.00e-07	0	43	0	616562688	21	3933
2026-01-14 09:52:07.84	77.26	56.66	-29.8	-30.2	15.4	0.00e+00	0	43	0	621805568	20	3794
2026-01-14 09:52:10.86	74.88	56.94	-30.3	-31.5	14.6	0.00e+00	0	43	0	628097024	20	4154
2026-01-14 09:52:13.86	72.48	57.16	-30.0	-30.2	15.0	0.00e+00	0	43	0	633339904	21	3706
2026-01-14 09:52:16.87	70.04	57.33	-28.8	-28.9	16.8	0.00e+00	0	43	0	638582784	18	3628
2026-01-14 09:52:19.88	67.57	57.46	-29.6	-30.3	15.7	0.00e+00	0	42	0	644874240	19	3917
2026-01-14 09:52:22.89	65.08	57.53	-27.9	-27.9	17.9	0.00e+00	0	43	0	650117120	16	3580
2026-01-14 09:52:25.91	62.57	57.55	-28.3	-28.3	17.4	0.00e+00	0	43	0	655360000	17	3588
2026-01-14 09:52:28.92	60.08	57.52	-28.3	-28.2	17.5	0.00e+00	0	43	0	661651456	17	3566
2026-01-14 09:52:31.94	57.58	57.44	-27.7	-27.3	18.2	0.00e+00	0	42	0	666894336	16	3451
2026-01-14 09:52:34.95	55.11	57.31	-27.4	-26.7	18.5	0.00e+00	0	42	0	673185792	16	3317
2026-01-14 09:52:37.96	52.68	57.13	-27.5	-27.6	18.1	0.00e+00	0	43	0	678428672	15	3619
2026-01-14 09:52:40.96	50.28	56.90	-28.2	-28.1	17.5	0.00e+00	0	42	0	683671552	17	3547
2026-01-14 09:52:43.97	47.93	56.62	-28.6	-28.9	17.1	0.00e+00	0	43	0	689963008	17	3733
2026-01-14 09:52:46.99	45.61	56.30	-28.7	-29.0	17.0	0.00e+00	0	42	0	695205888	17	3766
2026-01-14 09:52:49.99	43.37	55.94	-30.1	-31.0	14.9	0.00e+00	0	42	0	701497344	20	3996
2026-01-14 09:52:53.00	41.18	55.54	-30.2	-31.4	14.7	0.00e+00	0	42	0	706740224	20	4116
2026-01-14 09:52:56.01	39.06	55.10	-30.7	-31.6	13.9	9.90e-06	0	42	0	711983104	22	4009
2026-01-14 09:52:59.01	37.01	54.63	-30.4	-31.3	14.4	7.00e-07	0	42	0	718274560	21	4003
2026-01-14 09:53:02.03	35.02	54.12	-29.3	-29.6	16.1	0.00e+00	0	42	0	723517440	19	3718
2026-01-14 09:53:05.04	33.10	53.59	-30.1	-31.1	14.9	0.00e+00	0	42	0	728760320	20	4023
2026-01-14 09:53:08.05	31.25	53.03	-31.2	-32.9	13.0	7.62e-05	0	43	0	735051776	22	4395
2026-01-14 09:53:11.06	29.48	52.45	-30.3	-31.0	14.6	0.00e+00	0	42	0	740294656	21	3915
2026-01-14 09:53:14.07	27.78	51.85	-30.8	-32.3	13.8	8.30e-06	0	42	0	746586112	21	4290
2026-01-14 09:53:17.08	26.14	51.23	-31.2	-32.4	13.0	8.46e-05	0	43	0	751828992	23	4154
2026-01-14 09:53:20.09	24.58	50.60	-31.0	-32.0	13.3	1.23e-04	0	43	0	757071872	23	4018
2026-01-14 09:53:23.09	23.08	49.96	-30.9	-32.7	13.5	4.50e-06	0	42	0	763363328	21	4411
2026-01-14 09:53:26.09	21.65	49.30	-30.2	-30.7	14.6	1.50e-06	0	43	0	768606208	21	3843
2026-01-14 09:53:29.08	20.28	48.64	-31.2	-33.1	12.9	1.14e-05	0	43	0	773849088	22	4466
2026-01-14 09:53:32.09	18.96	47.97	-31.2	-33.1	12.9	5.26e-05	0	42	0	780140544	22	4456
2026-01-14 09:53:35.10	17.70	47.29	-31.6	-33.7	12.2	1.23e-04	0	42	0	785383424	23	4584
2026-01-14 09:53:38.11	16.49	46.61	-33.1	-37.5	8.3	3.91e-02	0	42	0	791674880	26	5918
2026-01-14 09:53:41.12	15.33	45.92	-31.6	-33.2	12.2	1.35e-04	0	43	0	796917760	24	4302
2026-01-14 09:53:44.13	14.23	45.24	-31.7	-33.5	11.9	1.69e-03	0	43	0	802160640	24	4416
2026-01-14 09:53:47.14	13.17	44.55	-30.3	-31.2	14.4	7.00e-07	0	43	0	808452096	21	3976
2026-01-14 09:53:50.14	12.16	43.87	-31.3	-33.1	12.8	2.51e-05	0	42	0	813694976	22	4470
2026-01-14 09:53:53.13	11.19	43.20	-31.6	-33.7	12.1	3.07e-04	0	43	0	818937856	23	4585
2026-01-14 09:53:56.14	10.26	42.52	-32.2	-34.9	10.9	2.75e-03	0	43	0	825229312	24	4916
2026-01-14 09:53:59.13	9.38	41.85	-31.9	-34.0	11.5	9.61e-04	0	42	0	830472192	24	4600
2026-01-14 09:54:02.14	8.52	41.18	-31.4	-33.2	12.5	8.85e-05	0	42	0	836763648	23	4414
2026-01-14 09:54:05.16	7.70	40.52	-31.0	-31.9	13.3	4.95e-05	0	42	0	842006528	23	3995
2026-01-14 09:54:08.18	6.91	39.86	-32.4	-35.9	10.0	1.35e-03	0	43	0	847249408	24	5378
2026-01-14 09:54:11.19	6.15	39.21	-32.1	-34.2	10.9	8.93e-03	0	43	0	853540864	25	4600
2026-01-14 09:54:14.20	5.43	38.56	-31.7	-33.6	11.8	6.26e-04	0	42	0	858783744	24	4445
2026-01-14 09:54:17.22	4.73	37.92	-31.7	-33.5	11.8	1.01e-03	0	42	0	864026624	24	4422
2026-01-14 09:54:20.23	4.06	37.29	-31.9	-34.0	11.4	1.35e-03	0	43	0	870318080	24	4594
2026-01-14 09:54:23.24	3.41	36.67	-31.4	-32.5	12.5	2.41e-04	0	43	0	875560960	24	4117
2026-01-14 09:54:26.23	2.80	36.06	-32.2	-35.0	10.6	1.21e-03	0	43	0	881852416	24	5007
2026-01-14 09:54:29.24	2.20	35.45	-31.8	-33.8	11.6	6.32e-04	0	43	0	887095296	24	4550
2026-01-14 09:54:32.24	1.63	34.85	-32.2	-35.2	10.6	4.09e-03	0	42	0	892338176	24	5070
2026-01-14 09:54:35.24	1.07	34.27	-30.8	-31.5	13.4	3.35e-05	0	42	0	898629632	23	3892
2026-01-14 09:54:38.27	0.54	33.68	-31.9	-34.7	11.2	6.26e-04	0	43	0	903872512	23	4963
2026-01-14 09:54:41.29	0.02	33.10	-32.0	-34.3	11.1	1.75e-03	0	43	0	910163968	24	4739
2026-01-14 09:54:44.30	359.52	32.54	-32.8	-36.8	8.9	1.60e-02	0	42	0	915406848	25	5745
2026-01-14 09:54:47.31	359.04	31.98	-32.6	-35.5	9.5	2.79e-02	0	42	0	920649728	26	5039
2026-01-14 09:54:50.32	358.58	31.43	-32.6	-35.6	9.5	1.33e-02	0	43	0	926941184	26	5076
2026-01-14 09:54:53.33	358.13	30.89	-32.2	-34.6	10.5	6.59e-03	0	43	0	932184064	25	4757
2026-01-14 09:54:56.35	357.70	30.35	-31.4	-32.8	12.1	1.91e-04	0	43	0	937426944	24	4215
2026-01-14 09:54:59.35	357.28	29.83	-32.5	-35.7	9.7	1.68e-02	0	43	0	943718400	25	5242
2026-01-14 09:55:02.37	356.88	29.31	-31.7	-33.6	11.6	2.39e-03	0	43	0	948961280	24	4478
2026-01-14 09:55:05.37	356.49	28.80	-30.9	-31.9	13.0	4.11e-05	0	42	0	955252736	23	4034
2026-01-14 09:55:08.37	356.11	28.30	-31.2	-32.8	12.4	9.61e-05	0	43	0	960495616	23	4318
2026-01-14 09:55:11.37	355.74	27.80	-31.0	-32.1	12.9	3.89e-05	0	42	0	965738496	23	4088
2026-01-14 09:55:14.37	355.39	27.32	-31.0	-32.1	12.9	3.73e-05	0	42	0	972029952	23	4102
2026-01-14 09:55:17.38	355.04	26.84	-32.3	-35.5	10.3	2.64e-03	0	43	0	977272832	24	5207
2026-01-14 09:55:20.39	354.71	26.36	-32.2	-35.3	10.4	3.88e-03	0	43	0	982515712	24	5131
2026-01-14 09:55:23.40	354.39	25.90	-31.7	-33.7	11.5	1.36e-03	0	43	0	988807168	24	4536
2026-01-14 09:55:26.40	354.07	25.44	-31.5	-33.0	12.0	4.00e-04	0	43	0	994050048	24	4271
2026-01-14 09:55:29.41	353.77	24.99	-31.1	-32.5	12.6	6.71e-05	0	43	0	1000341504	23	4220
2026-01-14 09:55:32.42	353.47	24.54	-31.1	-32.4	12.6	9.53e-05	0	43	0	1005584384	23	4185
2026-01-14 09:55:35.43	353.18	24.11	-31.5	-33.7	11.8	4.03e-04	0	43	0	1010827264	23	4634
2026-01-14 09:55:38.44	352.90	23.67	-31.4	-33.3	12.2	4.33e-04	0	43	0	1017118720	23	4464
2026-01-14 09:55:41.44	352.63	23.25	-30.7	-31.9	13.3	1.67e-05	0	43	0	1022361600	22	4111
2026-01-14 09:55:44.45	352.37	22.83	-30.6	-31.6	13.5	9.10e-06	0	43	0	1027604480	22	4021
2026-01-14 09:55:47.46	352.11	22.42	-31.4	-33.9	11.9	1.56e-04	0	43	0	1033895936	22	4800
2026-01-14 09:55:50.46	351.86	22.01	-32.5	-36.2	9.1	1.64e-02	0	43	0	1039138816	25	5482
2026-01-14 09:55:53.47	351.62	21.61	-32.5	-35.9	9.3	2.14e-02	0	43	0	1045430272	25	5362
2026-01-14 09:55:56.47	351.38	21.21	-32.2	-35.1	10.0	7.15e-03	0	43	0	1050673152	25	4998
2026-01-14 09:55:59.47	351.15	20.82	-32.0	-34.4	10.5	2.81e-03	0	43	0	1055916032	25	4715
2026-01-14 09:56:02.47	350.93	20.44	-31.7	-33.6	11.3	1.19e-03	0	43	0	1062207488	24	4522
2026-01-14 09:56:05.48	350.71	20.06	-31.3	-33.0	12.1	3.36e-04	0	43	0	1067450368	23	4378
2026-01-14 09:56:08.49	350.49	19.69	-30.7	-31.8	13.3	3.12e-05	0	43	0	1072693248	22	4100
2026-01-14 09:56:11.50	350.29	19.32	-29.9	-30.3	14.4	7.00e-07	0	43	0	1078984704	21	3765
2026-01-14 09:56:14.51	350.08	18.95	-29.8	-30.5	14.7	0.00e+00	0	43	0	1084227584	20	3896
2026-01-14 09:56:17.52	349.89	18.60	-29.9	-30.8	14.4	7.00e-07	0	43	0	1090519040	20	4006
2026-01-14 09:56:20.54	349.69	18.24	-30.2	-31.5	14.0	0.00e+00	0	43	0	1095761920	20	4206
2026-01-14 09:56:23.55	349.50	17.89	-30.6	-32.3	13.2	5.30e-06	0	43	0	1101004800	21	4353
2026-01-14 09:56:26.54	349.32	17.55	-30.9	-32.6	12.6	9.38e-05	0	43	0	1107296256	22	4377
2026-01-14 09:56:29.55	349.14	17.21	-31.3	-33.8	11.8	4.25e-04	0	43	0	1112539136	22	4792
2026-01-14 09:56:32.56	348.97	16.87	-31.7	-34.4	11.0	2.05e-03	0	43	0	1117782016	23	4909
2026-01-14 09:56:35.56	348.80	16.54	-31.8	-34.9	10.5	3.86e-03	0	43	0	1124073472	23	5123
2026-01-14 09:56:38.58	348.63	16.21	-31.9	-35.0	10.5	4.55e-03	0	43	0	1129316352	23	5187
2026-01-14 09:56:41.59	348.47	15.89	-31.8	-34.8	10.6	2.89e-03	0	43	0	1135607808	23	5070
2026-01-14 09:56:44.59	348.31	15.57	-31.1	-32.5	12.2	2.88e-04	0	43	0	1140850688	23	4247
2026-01-14 09:56:47.60	348.15	15.25	-30.5	-31.6	13.2	4.88e-05	0	42	0	1146093568	22	4049
2026-01-14 09:56:50.61	348.00	14.94	-30.6	-31.6	13.1	3.43e-05	0	43	0	1152385024	22	4072
2026-01-14 09:56:53.61	347.85	14.63	-30.8	-32.2	12.7	7.55e-05	0	42	0	1157627904	22	4254
2026-01-14 09:56:56.63	347.70	14.33	-31.1	-33.1	12.1	3.78e-04	0	43	0	1162870784	22	4554
2026-01-14 09:56:59.63	347.56	14.03	-31.4	-34.2	11.3	7.55e-04	0	43	0	1169162240	22	4945
2026-01-14 09:57:02.64	347.42	13.73	-31.5	-34.4	11.2	1.36e-03	0	43	0	1174405120	22	5029
2026-01-14 09:57:05.65	347.29	13.44	-31.5	-34.0	11.0	2.07e-03	0	43	0	1180696576	23	4810
2026-01-14 09:57:08.66	347.15	13.15	-31.4	-33.6	11.3	1.11e-03	0	43	0	1185939456	23	4657
2026-01-14 09:57:11.67	347.02	12.86	-31.1	-32.7	11.9	9.14e-04	0	43	0	1191182336	23	4346
2026-01-14 09:57:14.67	346.89	12.58	-30.9	-32.1	12.3	2.00e-04	0	43	0	1197473792	23	4134
2026-01-14 09:57:17.67	346.77	12.30	-30.8	-32.3	12.5	1.02e-04	0	43	0	1202716672	22	4315
2026-01-14 09:57:20.68	346.65	12.02	-30.9	-32.7	12.2	2.36e-04	0	42	0	1207959552	22	4429
2026-01-14 09:57:23.69	346.53	11.74	-30.9	-32.7	12.1	4.02e-04	0	43	0	1214251008	22	4434
2026-01-14 09:57:26.70	346.41	11.47	-30.9	-32.8	12.1	3.52e-04	0	43	0	1219493888	22	4462
2026-01-14 09:57:29.71	346.29	11.20	-31.1	-33.2	11.8	4.55e-04	0	43	0	1225785344	22	4620
2026-01-14 09:57:32.70	346.18	10.94	-31.1	-33.4	11.6	5.79e-04	0	43	0	1231028224	22	4705
2026-01-14 09:57:35.73	346.07	10.67	-31.3	-33.9	11.2	1.49e-03	0	42	0	1236271104	22	4885
2026-01-14 09:57:38.73	345.96	10.41	-31.2	-33.9	11.2	1.67e-03	0	43	0	1242562560	22	4877
2026-01-14 09:57:41.74	345.85	10.15	-31.5	-34.2	10.6	3.98e-03	0	43	0	1247805440	23	4903
2026-01-14 09:57:44.74	345.75	9.90	-31.4	-33.9	10.8	2.60e-03	0	43	0	1254096896	23	4816
2026-01-14 09:57:47.74	345.65	9.65	-31.5	-34.3	10.4	4.62e-03	0	43	0	1259339776	23	4976
2026-01-14 09:57:50.76	345.55	9.39	-31.5	-34.5	10.3	5.99e-03	0	42	0	1264582656	23	5064
2026-01-14 09:57:53.76	345.45	9.15	-31.8	-35.3	9.6	1.08e-02	0	43	0	1270874112	23	5430
2026-01-14 09:57:56.77	345.35	8.90	-31.7	-35.1	9.8	1.06e-02	0	43	0	1276116992	23	5333
2026-01-14 09:57:59.77	345.26	8.66	-31.8	-35.5	9.4	1.71e-02	0	43	0	1281359872	23	5518
2026-01-14 09:58:02.79	345.16	8.41	-31.5	-34.2	10.3	5.90e-03	0	43	0	1287651328	23	4959
2026-01-14 09:58:05.80	345.07	8.18	-31.6	-34.8	9.9	1.05e-02	0	43	0	1292894208	23	5200
2026-01-14 09:58:08.80	344.98	7.94	-31.7	-35.1	9.6	9.99e-03	0	43	0	1299185664	23	5351
2026-01-14 09:58:11.81	344.89	7.70	-31.8	-35.7	9.1	1.76e-02	0	43	0	1304428544	23	5631
2026-01-14 09:58:14.80	344.81	7.47	-31.9	-36.2	8.7	2.72e-02	0	43	0	1309671424	23	5897
2026-01-14 09:58:17.81	344.72	7.24	-31.7	-34.8	9.3	2.53e-02	0	43	0	1315962880	24	5153
2026-01-14 09:58:20.81	344.64	7.01	-33.9	-46.4	3.8	1.49e+00	0	43	104	1319108608	27	15211

#Closed at: 2026-01-14 09:58:23
#Recorded file [1319 MB]: D:/data/31010_260114_124635.dat