passes_logs/2026/01/14/R2M6_AANII_01/R2M6_AANII_01__20260114_014537_AQUA_rec.log

#Pass ID: 20260114_014537_AQUA
#Satellite: AQUA
#Configuration: AQUA
#almurnet v.1.7.20240730
#Start time: 2026-01-14 01:45:37

#Version: 2.2.20231116
#Station: R2M6_AANII_01
#Location: 30.233357 lon 59.946436 lat
#TLE: 1 27424U 02022A   26013.25278823  .00000890  00000+0  18808-3 0  9998
#TLE: 2 27424  98.4079 339.6508 0002047  80.3961  24.1839 14.61818714260637

#Time	Az	El	Level	Level2	SNR	BER	BlckErr	Temp	State	Recorded	gain1	gain2
2026-01-14 01:45:37.04	19.44	6.99	-34.9	-54.3	3.8	7.43e-01	0	43	0	0	30	33724
2026-01-14 01:45:40.01	19.51	7.23	-34.8	-54.2	3.8	7.44e-01	0	43	104	0	30	33414
2026-01-14 01:45:43.00	19.57	7.47	-34.8	-54.2	3.8	7.44e-01	0	43	104	0	30	33543
2026-01-14 01:45:45.97	19.64	7.72	-34.8	-54.2	3.8	7.47e-01	0	43	104	0	30	33400
2026-01-14 01:45:48.98	19.70	7.97	-34.8	-54.2	3.8	7.45e-01	0	43	104	0	30	33428
2026-01-14 01:45:51.97	19.77	8.23	-34.8	-54.2	3.8	7.46e-01	0	43	104	0	30	33404
2026-01-14 01:45:54.95	19.84	8.48	-34.8	-54.2	3.8	7.44e-01	0	43	104	0	30	33474
2026-01-14 01:45:57.93	19.91	8.74	-34.8	-54.2	3.8	7.42e-01	0	43	104	0	30	33396
2026-01-14 01:46:00.92	19.98	9.00	-34.8	-54.1	3.8	7.45e-01	0	43	104	0	30	33365
2026-01-14 01:46:03.90	20.05	9.26	-34.8	-54.2	3.8	7.48e-01	0	43	104	0	30	33459
2026-01-14 01:46:06.88	20.12	9.53	-34.8	-54.1	3.8	7.47e-01	0	43	104	0	30	33342
2026-01-14 01:46:09.88	20.20	9.80	-34.8	-54.2	3.8	7.43e-01	0	43	104	0	30	33423
2026-01-14 01:46:12.86	20.27	10.08	-34.8	-54.1	3.8	7.45e-01	0	43	104	0	30	33355
2026-01-14 01:46:15.84	20.35	10.35	-34.8	-54.1	3.8	7.41e-01	0	43	104	0	30	33405
2026-01-14 01:46:18.83	20.43	10.64	-34.8	-54.2	3.8	7.47e-01	0	43	104	0	30	33451
2026-01-14 01:46:21.81	20.51	10.92	-34.8	-54.2	3.8	7.44e-01	0	43	104	0	30	33424
2026-01-14 01:46:24.80	20.59	11.21	-34.8	-54.1	3.8	7.45e-01	0	43	104	0	30	33366
2026-01-14 01:46:27.80	20.67	11.50	-34.8	-54.1	3.8	7.46e-01	0	43	104	0	30	33354
2026-01-14 01:46:30.79	20.75	11.80	-34.8	-54.1	3.8	7.49e-01	0	43	104	0	30	33350
2026-01-14 01:46:33.78	20.84	12.10	-34.8	-54.2	3.8	7.46e-01	0	43	104	0	30	33462
2026-01-14 01:46:36.77	20.93	12.41	-34.8	-54.1	3.8	7.48e-01	0	43	104	0	30	33350
2026-01-14 01:46:39.77	21.01	12.72	-34.8	-54.1	3.8	7.47e-01	0	43	104	0	30	33333
2026-01-14 01:46:42.75	21.10	13.03	-34.8	-54.1	3.8	7.49e-01	0	43	104	0	30	33366
2026-01-14 01:46:45.75	21.20	13.35	-34.8	-54.1	3.8	7.46e-01	0	43	104	0	30	33411
2026-01-14 01:46:48.73	21.29	13.67	-34.8	-54.1	3.8	7.49e-01	0	43	104	0	30	33397
2026-01-14 01:46:51.73	21.39	14.00	-34.8	-54.1	3.8	7.46e-01	0	43	104	0	30	33308
2026-01-14 01:46:54.71	21.49	14.33	-34.8	-54.1	3.8	7.49e-01	0	43	104	0	30	33431
2026-01-14 01:46:57.70	21.59	14.66	-34.8	-54.1	3.8	7.46e-01	0	43	104	0	30	33379
2026-01-14 01:47:00.67	21.69	15.01	-34.8	-54.1	3.8	7.43e-01	0	43	104	0	30	33377
2026-01-14 01:47:03.66	21.79	15.35	-34.8	-54.1	3.8	7.43e-01	0	43	104	0	30	33417
2026-01-14 01:47:06.64	21.90	15.71	-34.8	-54.1	3.8	7.44e-01	0	43	104	0	30	33443
2026-01-14 01:47:09.65	22.01	16.07	-34.8	-54.1	3.8	7.41e-01	0	43	104	0	30	33348
2026-01-14 01:47:12.66	22.12	16.43	-34.8	-54.2	3.8	7.46e-01	0	43	104	0	30	33472
2026-01-14 01:47:15.67	22.24	16.81	-34.8	-54.1	3.8	7.45e-01	0	43	104	0	30	33391
2026-01-14 01:47:18.69	22.35	17.19	-34.8	-54.2	3.8	7.48e-01	0	43	104	0	30	33433
2026-01-14 01:47:21.70	22.48	17.58	-34.8	-54.2	3.8	7.46e-01	0	43	104	0	30	33462
2026-01-14 01:47:24.71	22.60	17.97	-34.8	-54.1	3.8	7.46e-01	0	43	104	0	30	33364
2026-01-14 01:47:27.71	22.73	18.37	-34.8	-54.1	3.8	7.45e-01	0	43	104	0	30	33380
2026-01-14 01:47:30.73	22.86	18.78	-34.8	-54.2	3.8	7.45e-01	0	43	104	0	30	33455
2026-01-14 01:47:33.73	22.99	19.19	-34.8	-54.1	3.8	7.46e-01	0	43	104	0	30	33384
2026-01-14 01:47:36.75	23.13	19.61	-34.8	-54.2	3.8	7.48e-01	0	43	104	0	30	33422
2026-01-14 01:47:39.75	23.27	20.04	-34.8	-54.2	3.8	7.45e-01	0	43	104	0	30	33481
2026-01-14 01:47:42.76	23.41	20.48	-34.8	-54.2	3.8	7.48e-01	0	43	104	0	30	33458
2026-01-14 01:47:45.77	23.56	20.93	-34.8	-54.2	3.8	7.46e-01	0	43	104	0	30	33399
2026-01-14 01:47:48.79	23.72	21.38	-34.8	-54.2	3.8	7.48e-01	0	43	104	0	30	33410
2026-01-14 01:47:51.79	23.87	21.85	-34.8	-54.2	3.8	7.46e-01	0	43	104	0	30	33459
2026-01-14 01:47:54.82	24.04	22.32	-34.8	-54.1	3.8	7.47e-01	0	43	104	0	30	33369
2026-01-14 01:47:57.82	24.20	22.81	-34.8	-54.1	3.8	7.44e-01	0	43	104	0	30	33411
2026-01-14 01:48:00.82	24.37	23.30	-34.8	-54.2	3.8	7.44e-01	0	43	104	0	30	33426
2026-01-14 01:48:03.83	24.55	23.80	-34.8	-54.1	3.8	7.46e-01	0	43	104	0	30	33426
2026-01-14 01:48:06.83	24.74	24.31	-34.8	-54.1	3.8	7.43e-01	0	43	104	0	30	33377
2026-01-14 01:48:09.84	24.93	24.84	-34.8	-54.2	3.8	7.49e-01	0	43	104	0	30	33402
2026-01-14 01:48:12.83	25.12	25.37	-34.8	-54.2	3.8	7.44e-01	0	43	104	0	30	33483
2026-01-14 01:48:15.83	25.32	25.92	-34.8	-54.1	3.8	7.45e-01	0	43	104	0	30	33417
2026-01-14 01:48:18.84	25.53	26.48	-34.8	-54.2	3.8	7.42e-01	0	43	104	0	30	33417
2026-01-14 01:48:21.85	25.75	27.05	-34.8	-54.1	3.8	7.42e-01	0	43	104	0	30	33396
2026-01-14 01:48:24.85	25.97	27.63	-34.8	-54.1	3.8	7.44e-01	0	43	104	0	30	33381
2026-01-14 01:48:27.86	26.21	28.23	-34.8	-54.1	3.8	7.45e-01	0	43	104	0	30	33390
2026-01-14 01:48:30.88	26.45	28.85	-34.8	-54.1	3.8	7.45e-01	0	43	104	0	30	33404
2026-01-14 01:48:33.88	26.70	29.47	-34.8	-54.1	3.8	7.46e-01	0	43	104	0	30	33378
2026-01-14 01:48:36.90	26.96	30.12	-34.8	-54.1	3.8	7.47e-01	0	43	104	0	30	33288
2026-01-14 01:48:39.91	27.23	30.77	-34.8	-54.1	3.8	7.42e-01	0	43	104	0	30	33381
2026-01-14 01:48:42.92	27.52	31.45	-34.8	-54.1	3.8	7.47e-01	0	43	104	0	30	33390
2026-01-14 01:48:45.92	27.81	32.13	-34.8	-54.1	3.8	7.45e-01	0	43	104	0	30	33331
2026-01-14 01:48:48.93	28.12	32.84	-34.8	-54.1	3.8	7.42e-01	0	43	104	0	30	33371
2026-01-14 01:48:51.93	28.44	33.56	-34.8	-54.1	3.8	7.46e-01	0	43	104	0	30	33358
2026-01-14 01:48:54.93	28.77	34.30	-34.8	-54.1	3.8	7.43e-01	0	43	104	0	30	33406
2026-01-14 01:48:57.94	29.12	35.06	-34.8	-54.1	3.8	7.48e-01	0	43	104	0	30	33442
2026-01-14 01:49:00.95	29.49	35.83	-34.8	-54.2	3.8	7.45e-01	0	43	104	0	30	33426
2026-01-14 01:49:03.97	29.88	36.63	-34.8	-54.1	3.8	7.44e-01	0	43	104	0	30	33407
2026-01-14 01:49:06.98	30.29	37.45	-34.8	-54.1	3.8	7.46e-01	0	43	104	0	30	33410
2026-01-14 01:49:09.99	30.71	38.29	-34.8	-54.1	3.8	7.48e-01	0	43	104	0	30	33318
2026-01-14 01:49:13.00	31.16	39.15	-34.8	-54.1	3.8	7.43e-01	0	43	104	0	30	33386
2026-01-14 01:49:16.01	31.64	40.02	-34.8	-54.1	3.8	7.43e-01	0	43	104	0	30	33315
2026-01-14 01:49:19.03	32.14	40.93	-34.8	-54.1	3.8	7.45e-01	0	43	104	0	30	33345
2026-01-14 01:49:22.04	32.67	41.85	-34.8	-54.1	3.8	7.44e-01	0	43	104	0	30	33310
2026-01-14 01:49:25.05	33.23	42.80	-34.8	-54.1	3.8	7.45e-01	0	43	104	0	30	33352
2026-01-14 01:49:28.07	33.83	43.77	-34.8	-54.1	3.8	7.45e-01	0	43	104	0	30	33276
2026-01-14 01:49:31.09	34.46	44.76	-34.8	-54.1	3.8	7.42e-01	0	43	104	0	30	33344
2026-01-14 01:49:34.11	35.14	45.78	-34.8	-54.1	3.8	7.46e-01	0	43	104	0	30	33302
2026-01-14 01:49:37.12	35.86	46.81	-34.8	-54.1	3.8	7.45e-01	0	43	104	0	30	33253
2026-01-14 01:49:40.12	36.62	47.87	-34.8	-54.1	3.8	7.46e-01	0	43	104	0	30	33376
2026-01-14 01:49:43.13	37.45	48.95	-34.8	-54.1	3.8	7.45e-01	0	43	104	0	30	33303
2026-01-14 01:49:46.14	38.33	50.05	-34.8	-54.1	3.8	7.48e-01	0	43	104	0	30	33383
2026-01-14 01:49:49.15	39.28	51.18	-34.8	-54.1	3.8	7.43e-01	0	43	104	0	30	33292
2026-01-14 01:49:52.16	40.31	52.32	-34.8	-54.2	3.8	7.47e-01	0	43	104	0	30	33767
2026-01-14 01:49:55.16	41.41	53.48	-34.8	-54.1	3.8	7.44e-01	0	43	104	0	30	33358
2026-01-14 01:49:58.17	42.62	54.66	-34.8	-54.1	3.8	7.47e-01	0	43	104	0	30	33342
2026-01-14 01:50:01.20	43.93	55.86	-34.8	-54.1	3.8	7.47e-01	0	43	104	0	30	33310
2026-01-14 01:50:04.21	45.35	57.07	-34.8	-54.1	3.8	7.44e-01	0	43	104	0	30	33322
2026-01-14 01:50:07.23	46.91	58.29	-34.8	-54.1	3.8	7.46e-01	0	43	104	0	30	33335
2026-01-14 01:50:10.23	48.61	59.50	-34.8	-54.1	3.8	7.46e-01	0	43	104	0	30	33286
2026-01-14 01:50:13.25	50.49	60.73	-34.8	-54.1	3.8	7.44e-01	0	43	104	0	30	33282
2026-01-14 01:50:16.26	52.55	61.94	-34.8	-54.1	3.8	7.44e-01	0	43	104	0	30	33195
2026-01-14 01:50:19.28	54.84	63.15	-34.8	-54.1	3.8	7.44e-01	0	43	104	0	30	33308
2026-01-14 01:50:22.29	57.35	64.34	-34.8	-54.1	3.8	7.45e-01	0	43	104	0	30	33375
2026-01-14 01:50:25.30	60.14	65.49	-34.8	-54.1	3.8	7.49e-01	0	43	104	0	30	33152
2026-01-14 01:50:28.32	63.24	66.61	-34.8	-54.1	3.8	7.46e-01	0	43	104	0	30	33163
2026-01-14 01:50:31.33	66.66	67.67	-34.8	-54.1	3.8	7.42e-01	0	43	104	0	30	33265
2026-01-14 01:50:34.34	70.45	68.67	-34.8	-54.1	3.8	7.43e-01	0	43	104	0	30	33318
2026-01-14 01:50:37.35	74.62	69.58	-34.8	-54.1	3.8	7.42e-01	0	43	104	0	30	33321
2026-01-14 01:50:40.36	79.18	70.38	-34.8	-54.0	3.8	7.46e-01	0	43	104	0	30	32970
2026-01-14 01:50:43.38	84.14	71.08	-34.8	-54.0	3.8	7.43e-01	0	43	104	0	30	33165
2026-01-14 01:50:46.39	89.45	71.63	-34.8	-54.1	3.8	7.45e-01	0	43	104	0	30	33320
2026-01-14 01:50:49.40	95.06	72.02	-34.8	-54.1	3.8	7.43e-01	0	43	104	0	30	33273
2026-01-14 01:50:52.42	100.89	72.25	-34.8	-54.1	3.8	7.43e-01	0	43	104	0	30	33354
2026-01-14 01:50:55.43	106.81	72.30	-34.8	-54.1	3.8	7.44e-01	0	43	104	0	30	33204
2026-01-14 01:50:58.44	112.70	72.18	-34.8	-54.1	3.8	7.46e-01	0	43	104	0	30	33327
2026-01-14 01:51:01.45	118.44	71.88	-34.8	-54.1	3.8	7.48e-01	0	43	104	0	30	33323
2026-01-14 01:51:04.47	123.96	71.42	-34.8	-54.0	3.8	7.43e-01	0	43	104	0	30	33109
2026-01-14 01:51:07.48	129.13	70.81	-34.8	-54.1	3.8	7.46e-01	0	43	104	0	30	33254
2026-01-14 01:51:10.49	133.92	70.07	-34.8	-54.0	3.8	7.44e-01	0	43	104	0	30	33094
2026-01-14 01:51:13.50	138.33	69.21	-34.8	-54.1	3.8	7.48e-01	0	43	104	0	30	33178
2026-01-14 01:51:16.50	142.33	68.27	-34.8	-54.1	3.8	7.49e-01	0	43	104	0	30	33306
2026-01-14 01:51:19.51	145.97	67.24	-34.8	-54.1	3.8	7.48e-01	0	43	104	0	30	33147
2026-01-14 01:51:22.53	149.26	66.15	-34.8	-54.1	3.8	7.47e-01	0	43	104	0	30	33171
2026-01-14 01:51:25.54	152.23	65.02	-34.8	-54.1	3.8	7.46e-01	0	43	104	0	30	33214
2026-01-14 01:51:28.55	154.91	63.84	-34.8	-54.1	3.8	7.46e-01	0	43	104	0	30	33302
2026-01-14 01:51:31.56	157.32	62.65	-34.8	-54.1	3.8	7.43e-01	0	43	104	0	30	33232
2026-01-14 01:51:34.58	159.52	61.43	-34.8	-54.1	3.8	7.44e-01	0	43	104	0	30	33361
2026-01-14 01:51:37.58	161.50	60.21	-34.8	-54.1	3.8	7.43e-01	0	43	104	0	30	33282
2026-01-14 01:51:40.60	163.31	58.98	-34.8	-54.1	3.8	7.47e-01	0	43	104	0	30	33319
2026-01-14 01:51:43.60	164.94	57.77	-34.8	-54.1	3.8	7.45e-01	0	43	104	0	30	33303
2026-01-14 01:51:46.61	166.45	56.55	-34.8	-54.1	3.8	7.43e-01	0	43	104	0	30	33366
2026-01-14 01:51:49.62	167.82	55.34	-34.8	-54.1	3.8	7.47e-01	0	43	104	0	30	33305
2026-01-14 01:51:52.63	169.09	54.15	-34.8	-54.1	3.8	7.47e-01	0	43	104	0	30	33223
2026-01-14 01:51:55.64	170.25	52.97	-34.8	-54.1	3.8	7.45e-01	0	43	104	0	30	33275
2026-01-14 01:51:58.65	171.33	51.81	-34.8	-54.1	3.8	7.48e-01	0	43	104	0	30	33307
2026-01-14 01:52:01.65	172.32	50.68	-34.8	-54.1	3.8	7.46e-01	0	43	104	0	30	33271
2026-01-14 01:52:04.66	173.24	49.56	-34.8	-54.1	3.8	7.46e-01	0	43	104	0	30	33355
2026-01-14 01:52:07.66	174.10	48.46	-34.8	-54.1	3.8	7.47e-01	0	43	104	0	30	33318
2026-01-14 01:52:10.67	174.90	47.39	-34.8	-54.1	3.8	7.46e-01	0	43	104	0	30	33352
2026-01-14 01:52:13.68	175.65	46.33	-34.8	-54.1	3.8	7.42e-01	0	43	104	0	30	33304
2026-01-14 01:52:16.68	176.35	45.31	-34.8	-54.1	3.8	7.45e-01	0	43	104	0	30	33364
2026-01-14 01:52:19.70	177.01	44.29	-34.8	-54.1	3.8	7.44e-01	0	43	104	0	30	33308
2026-01-14 01:52:22.70	177.62	43.31	-34.8	-54.1	3.8	7.46e-01	0	43	104	0	30	33236
2026-01-14 01:52:25.72	178.21	42.35	-34.7	-54.1	3.8	7.45e-01	0	43	104	0	30	33225
2026-01-14 01:52:28.73	178.75	41.41	-34.8	-54.1	3.8	7.47e-01	0	43	104	0	30	33268
2026-01-14 01:52:31.75	179.27	40.49	-34.8	-54.1	3.8	7.44e-01	0	43	104	0	30	33282
2026-01-14 01:52:34.77	179.77	39.59	-34.8	-54.1	3.8	7.46e-01	0	43	104	0	30	33332
2026-01-14 01:52:37.77	180.23	38.72	-34.8	-54.1	3.8	7.43e-01	0	43	104	0	30	33266
2026-01-14 01:52:40.79	180.67	37.86	-34.8	-54.1	3.8	7.44e-01	0	43	104	0	30	33251
2026-01-14 01:52:43.80	181.09	37.03	-34.8	-54.0	3.8	7.46e-01	0	43	104	0	30	33163
2026-01-14 01:52:46.81	181.48	36.22	-34.8	-54.1	3.8	7.45e-01	0	43	104	0	30	33325
2026-01-14 01:52:49.82	181.86	35.42	-34.7	-54.1	3.8	7.41e-01	0	43	104	0	30	33285
2026-01-14 01:52:52.83	182.22	34.65	-34.8	-54.0	3.8	7.45e-01	0	43	104	0	30	33187
2026-01-14 01:52:55.84	182.57	33.90	-34.8	-54.1	3.8	7.46e-01	0	43	104	0	30	33356
2026-01-14 01:52:58.86	182.90	33.16	-34.8	-54.1	3.8	7.42e-01	0	43	104	0	30	33282
2026-01-14 01:53:01.88	183.22	32.44	-34.8	-54.1	3.8	7.44e-01	0	43	104	0	30	33300
2026-01-14 01:53:04.90	183.52	31.73	-34.8	-54.1	3.8	7.46e-01	0	43	104	0	30	33248
2026-01-14 01:53:07.91	183.81	31.05	-34.8	-54.1	3.8	7.48e-01	0	43	104	0	30	33265
2026-01-14 01:53:10.93	184.09	30.38	-34.8	-54.1	3.8	7.43e-01	0	43	104	0	30	33286
2026-01-14 01:53:13.93	184.35	29.73	-34.8	-54.1	3.8	7.47e-01	0	43	104	0	30	33272
2026-01-14 01:53:16.95	184.61	29.09	-34.8	-54.1	3.8	7.45e-01	0	43	104	0	30	33268
2026-01-14 01:53:19.96	184.85	28.46	-34.7	-54.1	3.8	7.43e-01	0	43	104	0	30	33283
2026-01-14 01:53:22.97	185.09	27.86	-34.7	-54.1	3.8	7.47e-01	0	43	104	0	30	33286
2026-01-14 01:53:25.99	185.32	27.26	-34.7	-54.1	3.8	7.45e-01	0	43	104	0	30	33257
2026-01-14 01:53:29.00	185.54	26.68	-34.8	-54.0	3.8	7.43e-01	0	43	104	0	30	33198
2026-01-14 01:53:32.01	185.75	26.11	-34.8	-54.1	3.8	7.44e-01	0	43	104	0	30	33218
2026-01-14 01:53:35.02	185.96	25.55	-34.8	-54.1	3.8	7.47e-01	0	43	104	0	30	33285
2026-01-14 01:53:38.04	186.16	25.00	-34.8	-54.1	3.8	7.47e-01	0	43	104	0	30	33277
2026-01-14 01:53:41.06	186.35	24.47	-34.8	-54.1	3.8	7.47e-01	0	43	104	0	30	33277
2026-01-14 01:53:44.07	186.54	23.95	-34.8	-54.1	3.8	7.46e-01	0	43	104	0	30	33208
2026-01-14 01:53:47.08	186.72	23.44	-34.8	-54.1	3.8	7.45e-01	0	43	104	0	30	33254
2026-01-14 01:53:50.09	186.89	22.93	-34.7	-54.1	3.8	7.45e-01	0	43	104	0	30	33231
2026-01-14 01:53:53.12	187.06	22.44	-34.8	-54.1	3.8	7.47e-01	0	43	104	0	30	33329
2026-01-14 01:53:56.13	187.22	21.96	-34.8	-54.0	3.8	7.44e-01	0	43	104	0	30	33161
2026-01-14 01:53:59.14	187.38	21.49	-34.7	-54.1	3.8	7.42e-01	0	43	104	0	30	33251
2026-01-14 01:54:02.15	187.54	21.03	-34.7	-54.0	3.8	7.45e-01	0	43	104	0	30	33210
2026-01-14 01:54:05.17	187.69	20.57	-34.8	-54.1	3.8	7.45e-01	0	43	104	0	30	33255
2026-01-14 01:54:08.18	187.83	20.13	-34.7	-54.1	3.8	7.42e-01	0	43	104	0	30	33296
2026-01-14 01:54:11.20	187.97	19.69	-34.7	-54.0	3.8	7.48e-01	0	43	104	0	30	33193
2026-01-14 01:54:14.21	188.11	19.26	-34.8	-54.1	3.8	7.45e-01	0	43	104	0	30	33254
2026-01-14 01:54:17.22	188.24	18.84	-34.8	-54.1	3.8	7.47e-01	0	43	104	0	30	33258
2026-01-14 01:54:20.23	188.38	18.43	-34.7	-54.1	3.8	7.43e-01	0	43	104	0	30	33247
2026-01-14 01:54:23.24	188.50	18.03	-34.8	-54.1	3.8	7.45e-01	0	43	104	0	30	33345
2026-01-14 01:54:26.26	188.63	17.63	-34.8	-54.1	3.8	7.46e-01	0	43	104	0	30	33289
2026-01-14 01:54:29.28	188.75	17.23	-34.7	-54.1	3.8	7.46e-01	0	43	104	0	30	33261
2026-01-14 01:54:32.29	188.87	16.85	-34.8	-54.1	3.8	7.47e-01	0	43	104	0	30	33261
2026-01-14 01:54:35.31	188.98	16.47	-34.8	-54.1	3.8	7.43e-01	0	43	104	0	30	33283
2026-01-14 01:54:38.32	189.09	16.10	-34.8	-54.1	3.8	7.47e-01	0	43	104	0	30	33274
2026-01-14 01:54:41.32	189.20	15.73	-34.7	-54.1	3.8	7.44e-01	0	43	104	0	30	33349
2026-01-14 01:54:44.34	189.31	15.37	-34.8	-54.1	3.8	7.46e-01	0	43	104	0	30	33248
2026-01-14 01:54:47.35	189.41	15.02	-34.8	-54.1	3.8	7.45e-01	0	43	104	0	30	33342
2026-01-14 01:54:50.36	189.52	14.67	-34.8	-54.1	3.8	7.46e-01	0	43	104	0	30	33301
2026-01-14 01:54:53.37	189.62	14.33	-34.8	-54.1	3.8	7.44e-01	0	43	104	0	30	33331
2026-01-14 01:54:56.37	189.71	13.99	-34.8	-54.1	3.8	7.45e-01	0	43	104	0	30	33274
2026-01-14 01:54:59.38	189.81	13.66	-34.8	-54.1	3.8	7.45e-01	0	43	104	0	30	33271
2026-01-14 01:55:02.40	189.90	13.33	-34.8	-54.1	3.8	7.42e-01	0	43	104	0	30	33236
2026-01-14 01:55:05.40	189.99	13.01	-34.8	-54.1	3.8	7.46e-01	0	43	104	0	30	33254
2026-01-14 01:55:08.42	190.08	12.69	-34.8	-54.1	3.8	7.43e-01	0	43	104	0	30	33237
2026-01-14 01:55:11.43	190.17	12.37	-34.8	-54.1	3.8	7.46e-01	0	43	104	0	30	33312
2026-01-14 01:55:14.44	190.26	12.06	-34.8	-54.1	3.8	7.46e-01	0	43	104	0	30	33361
2026-01-14 01:55:17.45	190.34	11.76	-34.8	-54.1	3.8	7.43e-01	0	43	104	0	30	33223
2026-01-14 01:55:20.45	190.43	11.46	-34.8	-54.1	3.8	7.46e-01	0	43	104	0	30	33241
2026-01-14 01:55:23.45	190.51	11.16	-34.8	-54.1	3.8	7.45e-01	0	43	104	0	30	33229
2026-01-14 01:55:26.46	190.59	10.87	-34.7	-54.1	3.8	7.47e-01	0	43	104	0	30	33293
2026-01-14 01:55:29.46	190.66	10.58	-34.8	-54.1	3.8	7.46e-01	0	43	104	0	30	33259
2026-01-14 01:55:32.48	190.74	10.29	-34.7	-54.1	3.8	7.47e-01	0	43	104	0	30	33277
2026-01-14 01:55:35.48	190.82	10.01	-34.8	-54.1	3.8	7.43e-01	0	43	104	0	30	33308
2026-01-14 01:55:38.49	190.89	9.73	-34.8	-54.1	3.8	7.44e-01	0	43	104	0	30	33264
2026-01-14 01:55:41.50	190.96	9.46	-34.7	-54.1	3.8	7.44e-01	0	43	104	0	30	33234
2026-01-14 01:55:44.51	191.03	9.19	-34.8	-54.1	3.8	7.46e-01	0	43	104	0	30	33208
2026-01-14 01:55:47.52	191.11	8.92	-34.7	-54.0	3.8	7.45e-01	0	43	104	0	30	33220
2026-01-14 01:55:50.53	191.17	8.65	-34.7	-54.0	3.8	7.49e-01	0	43	104	0	30	33130
2026-01-14 01:55:53.55	191.24	8.39	-34.7	-54.0	3.8	7.47e-01	0	43	104	0	30	33133
2026-01-14 01:55:56.57	191.31	8.13	-34.7	-54.0	3.8	7.44e-01	0	43	104	0	30	33217
2026-01-14 01:55:59.58	191.37	7.87	-34.7	-54.0	3.8	7.45e-01	0	43	104	0	30	33186
2026-01-14 01:56:02.60	191.44	7.62	-34.8	-54.1	3.8	7.45e-01	0	43	104	0	30	33258
2026-01-14 01:56:05.62	191.50	7.37	-34.7	-54.0	3.8	7.46e-01	0	43	104	0	30	32970
2026-01-14 01:56:08.62	191.57	7.12	-34.7	-54.0	3.8	7.48e-01	0	43	104	0	30	33223

#Closed at: 2026-01-14 01:56:11
#Recorded file [0 MB]: D:/data/31010_260114_044537.dat