passes_logs/2026/01/14/R2M6_AANII_01/R2M6_AANII_01__20260114_032322_AQUA_rec.log

#Pass ID: 20260114_032322_AQUA
#Satellite: AQUA
#Configuration: AQUA
#almurnet v.1.7.20240730
#Start time: 2026-01-14 03:23:21

#Version: 2.2.20231116
#Station: R2M6_AANII_01
#Location: 30.233357 lon 59.946436 lat
#TLE: 1 27424U 02022A   26013.25278823  .00000890  00000+0  18808-3 0  9998
#TLE: 2 27424  98.4079 339.6508 0002047  80.3961  24.1839 14.61818714260637

#Time	Az	El	Level	Level2	SNR	BER	BlckErr	Temp	State	Recorded	gain1	gain2
2026-01-14 03:23:21.64	8.39	6.95	-33.3	-50.7	3.8	7.46e-01	0	40	0	0	27	26750
2026-01-14 03:23:24.64	8.14	7.17	-32.8	-48.7	3.8	7.48e-01	0	40	104	0	26	22689
2026-01-14 03:23:27.65	7.88	7.39	-32.9	-49.3	3.8	7.45e-01	0	40	104	0	26	23694
2026-01-14 03:23:30.65	7.61	7.61	-32.8	-48.5	3.8	7.44e-01	0	41	104	0	26	21991
2026-01-14 03:23:33.66	7.34	7.83	-32.2	-46.6	3.8	7.47e-01	0	41	104	0	25	19015
2026-01-14 03:23:36.66	7.07	8.05	-32.1	-46.7	3.8	7.45e-01	0	41	104	0	24	19482
2026-01-14 03:23:39.68	6.79	8.28	-31.4	-45.2	3.8	7.47e-01	0	41	104	0	23	17626
2026-01-14 03:23:42.69	6.50	8.50	-31.4	-45.0	3.8	7.44e-01	0	41	104	0	23	17310
2026-01-14 03:23:45.70	6.21	8.73	-32.2	-46.6	3.8	7.42e-01	0	41	104	0	25	18873
2026-01-14 03:23:48.71	5.92	8.96	-32.8	-48.2	3.8	7.47e-01	0	41	104	0	26	21384
2026-01-14 03:23:51.71	5.62	9.19	-32.9	-48.8	3.8	7.45e-01	0	41	104	0	26	22461
2026-01-14 03:23:54.72	5.31	9.43	-33.2	-49.7	3.8	7.48e-01	0	41	104	0	27	23916
2026-01-14 03:23:57.72	5.00	9.66	-33.5	-51.2	3.8	7.46e-01	0	41	104	0	27	27584
2026-01-14 03:24:00.74	4.69	9.90	-33.5	-51.1	3.8	7.42e-01	0	41	104	0	28	27213
2026-01-14 03:24:03.73	4.37	10.14	-33.5	-50.8	3.8	7.45e-01	0	41	104	0	27	26502
2026-01-14 03:24:06.75	4.04	10.38	-33.4	-50.3	3.8	7.46e-01	0	41	104	0	27	25130
2026-01-14 03:24:09.75	3.70	10.62	-33.3	-49.7	3.8	7.44e-01	0	42	104	0	27	23720
2026-01-14 03:24:12.77	3.36	10.86	-32.8	-48.1	3.8	7.45e-01	0	42	104	0	26	20887
2026-01-14 03:24:15.78	3.01	11.11	-33.0	-48.7	3.8	7.44e-01	0	42	104	0	26	22065
2026-01-14 03:24:18.79	2.66	11.35	-33.2	-49.0	3.8	7.46e-01	0	42	104	0	27	22187
2026-01-14 03:24:21.80	2.30	11.60	-32.5	-47.2	3.8	7.44e-01	0	42	104	0	25	19592
2026-01-14 03:24:24.82	1.93	11.85	-31.8	-45.5	3.8	7.45e-01	0	42	104	0	24	17439
2026-01-14 03:24:27.83	1.56	12.11	-31.1	-43.9	3.8	7.44e-01	0	42	104	0	23	15719
2026-01-14 03:24:30.85	1.17	12.36	-30.8	-43.8	3.8	7.47e-01	0	42	104	0	22	15973
2026-01-14 03:24:33.84	0.79	12.62	-31.3	-44.5	3.8	7.43e-01	0	42	104	0	23	16523
2026-01-14 03:24:36.85	0.39	12.87	-32.2	-46.3	3.8	7.45e-01	0	42	104	0	25	18185
2026-01-14 03:24:39.86	359.99	13.13	-32.7	-47.6	3.8	7.43e-01	0	42	104	0	26	19914
2026-01-14 03:24:42.86	359.58	13.39	-32.9	-48.1	3.8	7.45e-01	0	42	104	0	26	20900
2026-01-14 03:24:45.87	359.16	13.65	-33.2	-48.8	3.8	7.46e-01	0	42	104	0	27	21879
2026-01-14 03:24:48.88	358.73	13.92	-33.6	-50.6	3.8	7.46e-01	0	42	104	0	27	25627
2026-01-14 03:24:51.89	358.29	14.18	-33.5	-50.0	3.8	7.44e-01	0	42	104	0	28	23945
2026-01-14 03:24:54.90	357.84	14.45	-33.5	-50.1	3.8	7.45e-01	0	42	104	0	27	24418
2026-01-14 03:24:57.90	357.39	14.72	-33.5	-50.2	3.8	7.46e-01	0	42	104	0	27	24621
2026-01-14 03:25:00.90	356.93	14.99	-33.3	-49.2	3.8	7.44e-01	0	42	104	0	27	22531
2026-01-14 03:25:03.91	356.46	15.26	-33.0	-48.3	3.8	7.46e-01	0	42	104	0	26	21036
2026-01-14 03:25:06.92	355.97	15.54	-33.2	-48.6	3.8	7.45e-01	0	42	104	0	27	21330
2026-01-14 03:25:09.93	355.48	15.81	-32.5	-46.6	3.8	7.44e-01	0	42	104	0	26	18271
2026-01-14 03:25:12.94	354.98	16.09	-31.6	-44.8	3.8	7.45e-01	0	42	104	0	24	16391
2026-01-14 03:25:15.93	354.47	16.36	-30.9	-43.7	3.8	7.42e-01	0	42	104	0	22	15638
2026-01-14 03:25:18.94	353.95	16.64	-30.5	-43.4	3.8	7.47e-01	0	42	104	0	21	15822
2026-01-14 03:25:21.95	353.42	16.92	-30.7	-43.3	3.8	7.45e-01	0	42	104	0	22	15384
2026-01-14 03:25:24.96	352.87	17.20	-31.5	-45.0	3.8	7.43e-01	0	42	104	0	23	17059
2026-01-14 03:25:27.97	352.32	17.48	-32.7	-47.1	3.8	7.44e-01	0	42	104	0	26	18861
2026-01-14 03:25:30.99	351.75	17.77	-32.9	-47.8	3.8	7.47e-01	0	43	104	0	26	19999
2026-01-14 03:25:34.00	351.17	18.05	-32.5	-46.6	3.8	7.42e-01	0	43	104	0	26	18129
2026-01-14 03:25:37.01	350.58	18.34	-33.3	-49.0	3.8	7.48e-01	0	42	104	0	27	21943
2026-01-14 03:25:40.02	349.98	18.62	-33.6	-43.0	4.7	7.20e-01	0	43	104	0	28	10559
2026-01-14 03:25:43.04	349.36	18.91	-33.5	-41.4	10.6	6.17e-01	0	42	104	0	28	8989
2026-01-14 03:25:46.05	348.74	19.19	-33.6	-41.8	10.4	6.18e-01	0	42	0	4194304	28	9302
2026-01-14 03:25:49.06	348.10	19.48	-33.5	-41.4	10.7	6.15e-01	0	43	0	9437184	28	8974
2026-01-14 03:25:52.07	347.44	19.76	-33.4	-40.7	11.4	6.12e-01	0	43	0	15204352	28	8344
2026-01-14 03:25:55.07	346.78	20.05	-33.6	-41.8	10.6	6.15e-01	0	42	0	20971520	28	9209
2026-01-14 03:25:58.08	346.10	20.33	-33.4	-40.8	12.0	6.07e-01	0	42	0	26738688	27	8412
2026-01-14 03:26:01.09	345.41	20.62	-33.3	-40.4	12.4	6.06e-01	0	42	0	31981568	27	8090
2026-01-14 03:26:04.09	344.71	20.90	-33.1	-39.2	13.3	6.04e-01	0	43	0	37748736	27	7291
2026-01-14 03:26:07.10	343.99	21.18	-32.1	-35.8	16.2	6.00e-01	0	43	0	43515904	26	5556
2026-01-14 03:26:10.10	343.25	21.46	-30.9	-33.8	18.5	6.01e-01	0	42	0	49283072	23	5062
2026-01-14 03:26:13.11	342.51	21.74	-30.8	-34.1	18.7	6.04e-01	0	43	0	54525952	22	5267
2026-01-14 03:26:16.11	341.75	22.02	-30.6	-33.7	18.9	6.00e-01	0	42	0	60293120	22	5122
2026-01-14 03:26:19.13	340.97	22.30	-30.7	-33.8	18.9	5.99e-01	0	43	0	66060288	22	5153
2026-01-14 03:26:22.13	340.18	22.57	-30.9	-34.5	18.4	6.01e-01	0	42	0	71827456	22	5414
2026-01-14 03:26:25.13	339.37	22.84	-30.5	-33.2	19.3	6.00e-01	0	42	0	77070336	22	4940
2026-01-14 03:26:28.14	338.55	23.11	-30.3	-33.3	19.5	5.99e-01	0	42	0	82837504	21	5099
2026-01-14 03:26:31.15	337.71	23.37	-30.4	-33.6	19.3	6.02e-01	0	43	0	88604672	21	5196
2026-01-14 03:26:34.16	336.86	23.63	-30.3	-33.3	19.5	6.03e-01	0	43	0	94371840	21	5085
2026-01-14 03:26:37.17	335.99	23.89	-30.2	-33.2	19.6	6.02e-01	0	43	0	99614720	21	5040
2026-01-14 03:26:40.16	335.12	24.14	-30.4	-33.5	19.3	6.01e-01	0	43	0	105381888	21	5175
2026-01-14 03:26:43.17	334.22	24.39	-30.4	-33.7	19.3	6.01e-01	0	43	0	111149056	21	5226
2026-01-14 03:26:46.17	333.31	24.63	-30.8	-34.0	18.8	5.99e-01	0	43	0	116916224	22	5243
2026-01-14 03:26:49.18	332.39	24.87	-30.6	-33.6	19.0	6.01e-01	0	42	0	122159104	22	5087
2026-01-14 03:26:52.17	331.45	25.10	-30.9	-34.3	18.6	6.00e-01	0	43	0	127926272	22	5334
2026-01-14 03:26:55.18	330.50	25.33	-30.3	-33.3	19.5	6.02e-01	0	43	0	133693440	21	5092
2026-01-14 03:26:58.18	329.53	25.55	-30.2	-32.9	19.7	6.01e-01	0	43	0	139460608	21	4950
2026-01-14 03:27:01.18	328.55	25.76	-30.1	-32.9	19.8	6.02e-01	0	43	0	144703488	21	4940
2026-01-14 03:27:04.19	327.55	25.97	-30.1	-32.8	19.9	6.00e-01	0	43	0	150470656	21	4894
2026-01-14 03:27:07.20	326.54	26.16	-30.0	-33.1	19.6	6.01e-01	0	42	0	156237824	20	5124
2026-01-14 03:27:10.22	325.51	26.35	-30.1	-32.8	19.8	6.00e-01	0	43	0	162004992	21	4895
2026-01-14 03:27:13.23	324.47	26.54	-30.2	-33.1	19.7	5.99e-01	0	43	0	167247872	21	4993
2026-01-14 03:27:16.24	323.42	26.71	-30.1	-32.8	19.9	6.01e-01	0	43	0	173015040	21	4910
2026-01-14 03:27:19.25	322.36	26.87	-30.0	-33.0	20.0	6.01e-01	0	43	0	178782208	20	5101
2026-01-14 03:27:22.26	321.29	27.02	-30.2	-33.0	19.7	6.04e-01	0	42	0	184549376	21	4979
2026-01-14 03:27:25.26	320.21	27.17	-30.1	-33.2	19.9	6.02e-01	0	43	0	189792256	20	5153
2026-01-14 03:27:28.26	319.12	27.30	-30.2	-32.9	19.7	6.00e-01	0	42	0	195559424	21	4955
2026-01-14 03:27:31.26	318.02	27.42	-29.9	-32.7	20.1	6.02e-01	0	43	0	201326592	20	4990
2026-01-14 03:27:34.26	316.92	27.54	-30.2	-33.0	19.7	5.99e-01	0	43	0	207093760	21	4970
2026-01-14 03:27:37.26	315.80	27.64	-30.4	-33.5	19.5	6.01e-01	0	43	0	212336640	21	5142
2026-01-14 03:27:40.28	314.67	27.73	-30.2	-33.1	19.7	6.00e-01	0	43	0	218103808	21	4998
2026-01-14 03:27:43.29	313.54	27.80	-30.3	-33.4	19.5	6.02e-01	0	43	0	223870976	21	5103
2026-01-14 03:27:46.29	312.41	27.87	-30.7	-33.7	19.0	6.02e-01	0	43	0	229638144	22	5109
2026-01-14 03:27:49.30	311.27	27.92	-30.2	-33.1	19.7	6.02e-01	0	42	0	235405312	21	5008
2026-01-14 03:27:52.31	310.12	27.96	-30.0	-33.1	20.0	6.03e-01	0	43	0	240648192	20	5126
2026-01-14 03:27:55.32	308.97	27.99	-30.4	-33.5	19.5	6.00e-01	0	43	0	246415360	21	5142
2026-01-14 03:27:58.32	307.83	28.01	-30.5	-33.7	19.3	6.01e-01	0	43	0	252182528	21	5225
2026-01-14 03:28:01.33	306.68	28.02	-30.7	-33.9	18.9	6.03e-01	0	43	0	257425408	22	5194
2026-01-14 03:28:04.34	305.53	28.01	-31.0	-34.7	18.3	6.03e-01	0	43	0	263192576	22	5513
2026-01-14 03:28:07.34	304.38	27.99	-31.0	-34.1	18.4	6.02e-01	0	42	0	268959744	23	5144
2026-01-14 03:28:10.36	303.23	27.96	-30.8	-34.1	18.6	5.98e-01	0	43	0	274726912	22	5269
2026-01-14 03:28:13.37	302.08	27.91	-30.8	-33.6	18.6	6.01e-01	0	43	0	280494080	23	4961
2026-01-14 03:28:16.38	300.94	27.85	-31.6	-35.5	17.2	6.02e-01	0	43	0	285736960	24	5627
2026-01-14 03:28:19.38	299.81	27.78	-31.4	-34.9	17.4	6.03e-01	0	43	0	291504128	24	5359
2026-01-14 03:28:22.40	298.67	27.70	-31.4	-35.4	17.7	6.03e-01	0	43	0	297271296	23	5672
2026-01-14 03:28:25.40	297.55	27.61	-30.7	-34.0	18.8	6.01e-01	0	43	0	303038464	22	5227
2026-01-14 03:28:28.41	296.43	27.51	-30.7	-33.2	18.9	6.00e-01	0	43	0	308281344	23	4830
2026-01-14 03:28:31.42	295.32	27.39	-30.9	-34.3	18.5	6.02e-01	0	43	0	314048512	22	5360
2026-01-14 03:28:34.43	294.22	27.27	-31.2	-34.6	18.0	6.00e-01	0	43	0	319815680	23	5380
2026-01-14 03:28:37.44	293.13	27.13	-30.7	-33.3	18.9	6.03e-01	0	43	0	325582848	23	4873
2026-01-14 03:28:40.45	292.05	26.98	-31.0	-34.1	18.2	6.00e-01	0	43	0	330825728	23	5156
2026-01-14 03:28:43.46	290.98	26.83	-31.6	-35.8	17.2	5.99e-01	0	43	0	336592896	23	5902
2026-01-14 03:28:46.46	289.92	26.66	-30.8	-34.3	18.6	5.99e-01	0	43	0	342360064	22	5363
2026-01-14 03:28:49.47	288.87	26.49	-30.6	-33.1	19.0	5.96e-01	0	43	0	348127232	23	4777
2026-01-14 03:28:52.48	287.84	26.30	-31.2	-34.2	17.8	6.01e-01	0	43	0	353370112	24	5095
2026-01-14 03:28:55.49	286.81	26.11	-31.2	-34.8	17.8	6.01e-01	0	43	0	359137280	23	5434
2026-01-14 03:28:58.49	285.80	25.91	-30.6	-33.7	17.3	6.00e-01	0	43	0	364904448	22	5122
2026-01-14 03:29:01.49	284.81	25.70	-31.3	-35.2	17.5	6.02e-01	0	43	0	370671616	23	5628
2026-01-14 03:29:04.50	283.83	25.49	-31.3	-34.6	17.6	6.04e-01	0	43	0	375914496	24	5249
2026-01-14 03:29:07.52	282.86	25.26	-31.1	-34.6	18.0	6.00e-01	0	43	0	381681664	23	5358
2026-01-14 03:29:10.53	281.90	25.03	-31.2	-34.7	17.9	6.00e-01	0	43	0	387448832	23	5423
2026-01-14 03:29:13.54	280.96	24.80	-30.6	-33.1	18.9	6.01e-01	0	43	0	393216000	23	4815
2026-01-14 03:29:16.54	280.04	24.56	-30.5	-33.9	19.0	5.99e-01	0	43	0	398983168	21	5342
2026-01-14 03:29:19.54	279.13	24.31	-30.4	-33.5	19.2	6.02e-01	0	43	0	404226048	21	5203
2026-01-14 03:29:22.54	278.24	24.06	-30.3	-33.5	19.2	6.01e-01	0	43	0	409993216	21	5181
2026-01-14 03:29:25.54	277.36	23.81	-30.4	-33.8	19.0	6.02e-01	0	43	0	415760384	21	5299
2026-01-14 03:29:28.55	276.49	23.55	-30.7	-33.9	18.7	6.03e-01	0	43	0	421003264	22	5223
2026-01-14 03:29:31.55	275.64	23.29	-30.5	-33.8	19.0	5.99e-01	0	43	0	426770432	21	5289
2026-01-14 03:29:34.56	274.81	23.02	-30.6	-33.6	18.7	6.00e-01	0	43	0	432537600	22	5118
2026-01-14 03:29:37.56	273.99	22.75	-31.0	-34.8	18.0	6.01e-01	0	43	0	438304768	22	5602
2026-01-14 03:29:40.56	273.19	22.48	-30.4	-33.7	18.9	6.00e-01	0	43	0	443547648	21	5283
2026-01-14 03:29:43.58	272.39	22.20	-30.5	-34.0	18.8	5.99e-01	0	43	0	449314816	21	5378
2026-01-14 03:29:46.58	271.62	21.93	-30.9	-34.5	18.2	6.02e-01	0	43	0	455081984	22	5484
2026-01-14 03:29:49.59	270.86	21.65	-30.8	-34.2	18.4	6.02e-01	0	43	0	460849152	22	5355
2026-01-14 03:29:52.60	270.11	21.37	-30.7	-34.1	18.4	6.00e-01	0	43	0	466092032	22	5300
2026-01-14 03:29:55.61	269.38	21.08	-30.0	-33.2	19.5	6.01e-01	0	43	0	471859200	20	5194
2026-01-14 03:29:58.63	268.65	20.80	-30.1	-33.0	19.4	6.00e-01	0	43	0	477626368	21	5002
2026-01-14 03:30:01.63	267.95	20.52	-30.0	-33.2	19.5	6.01e-01	0	43	0	483393536	20	5212
2026-01-14 03:30:04.64	267.26	20.23	-30.3	-33.5	19.1	6.01e-01	0	43	0	489160704	21	5214
2026-01-14 03:30:07.65	266.58	19.94	-30.0	-33.3	19.5	6.01e-01	0	43	0	494403584	20	5235
2026-01-14 03:30:10.64	265.92	19.66	-30.1	-33.0	19.3	5.99e-01	0	43	0	500170752	21	5021
2026-01-14 03:30:13.64	265.27	19.37	-29.9	-32.9	19.6	5.99e-01	0	43	0	505937920	20	5090
2026-01-14 03:30:16.65	264.63	19.09	-30.0	-33.4	19.4	6.02e-01	0	43	0	511180800	20	5272
2026-01-14 03:30:19.66	264.01	18.80	-30.3	-33.5	18.9	6.02e-01	0	43	0	516947968	21	5230
2026-01-14 03:30:22.67	263.39	18.51	-30.0	-32.8	19.4	6.01e-01	0	43	0	522715136	21	4944
2026-01-14 03:30:25.68	262.79	18.23	-29.9	-33.1	19.5	6.00e-01	0	43	0	528482304	20	5172
2026-01-14 03:30:28.68	262.20	17.94	-29.9	-33.0	19.5	6.03e-01	0	43	0	533725184	20	5166
2026-01-14 03:30:31.69	261.62	17.66	-29.8	-32.7	19.6	6.00e-01	0	43	0	539492352	20	5057
2026-01-14 03:30:34.69	261.06	17.38	-30.0	-33.4	19.3	6.03e-01	0	43	0	545259520	20	5291
2026-01-14 03:30:37.69	260.51	17.09	-29.9	-33.1	19.4	5.99e-01	0	43	0	551026688	20	5203
2026-01-14 03:30:40.69	259.96	16.81	-29.8	-32.7	19.6	6.03e-01	0	43	0	556269568	20	5042
2026-01-14 03:30:43.68	259.43	16.53	-29.9	-33.1	19.4	5.99e-01	0	43	0	562036736	20	5177
2026-01-14 03:30:46.69	258.91	16.25	-29.9	-33.2	19.3	6.02e-01	0	43	0	567803904	20	5230
2026-01-14 03:30:49.69	258.40	15.98	-29.9	-33.1	19.3	6.00e-01	0	43	0	573571072	20	5212
2026-01-14 03:30:52.70	257.90	15.70	-30.3	-33.5	18.8	6.00e-01	0	43	0	578813952	21	5235
2026-01-14 03:30:55.70	257.41	15.42	-29.9	-33.1	19.4	6.00e-01	0	43	0	584581120	20	5196
2026-01-14 03:30:58.71	256.92	15.15	-30.3	-33.8	18.7	6.00e-01	0	43	0	590348288	21	5402
2026-01-14 03:31:01.72	256.45	14.88	-30.3	-33.5	18.0	5.99e-01	0	43	0	596115456	21	5253
2026-01-14 03:31:04.73	255.99	14.61	-30.4	-34.0	17.9	6.01e-01	0	43	0	601358336	21	5442
2026-01-14 03:31:07.73	255.53	14.34	-30.0	-33.5	19.0	6.01e-01	0	43	0	607125504	20	5345
2026-01-14 03:31:10.74	255.09	14.07	-29.9	-33.0	19.3	5.99e-01	0	43	0	612892672	20	5173
2026-01-14 03:31:13.76	254.65	13.80	-30.0	-33.3	19.1	6.03e-01	0	43	0	618659840	20	5299
2026-01-14 03:31:16.78	254.22	13.53	-30.0	-33.5	19.0	6.03e-01	0	43	0	623902720	20	5353
2026-01-14 03:31:19.78	253.80	13.27	-30.1	-33.2	18.8	5.98e-01	0	43	0	629669888	21	5149
2026-01-14 03:31:22.80	253.38	13.01	-29.8	-32.9	19.3	6.01e-01	0	43	0	635437056	20	5148
2026-01-14 03:31:25.82	252.98	12.75	-30.0	-33.4	19.0	6.00e-01	0	43	0	641204224	20	5319
2026-01-14 03:31:28.83	252.58	12.49	-30.2	-33.5	18.6	6.00e-01	0	43	0	646447104	21	5251
2026-01-14 03:31:31.84	252.19	12.24	-30.3	-33.8	18.4	6.02e-01	0	43	0	652214272	21	5382
2026-01-14 03:31:34.85	251.81	11.98	-30.4	-34.0	18.2	6.02e-01	0	43	0	657981440	21	5468
2026-01-14 03:31:37.87	251.43	11.73	-30.3	-33.7	18.4	5.98e-01	0	43	0	663748608	21	5355
2026-01-14 03:31:40.87	251.06	11.48	-30.2	-33.7	18.4	5.99e-01	0	43	0	669515776	21	5334
2026-01-14 03:31:43.86	250.70	11.23	-30.4	-34.0	18.2	6.01e-01	0	43	0	674758656	21	5466
2026-01-14 03:31:46.87	250.35	10.98	-30.1	-33.2	18.6	5.99e-01	0	43	0	680525824	21	5162
2026-01-14 03:31:49.88	250.00	10.74	-30.1	-33.3	18.5	6.02e-01	0	43	0	686292992	21	5204
2026-01-14 03:31:52.89	249.66	10.49	-30.2	-33.5	18.4	6.01e-01	0	43	0	692060160	21	5266
2026-01-14 03:31:55.89	249.32	10.25	-30.3	-33.7	18.3	6.01e-01	0	43	0	697303040	21	5370
2026-01-14 03:31:58.90	248.99	10.01	-30.2	-33.6	18.3	6.00e-01	0	43	0	703070208	21	5318
2026-01-14 03:32:01.90	248.67	9.77	-30.3	-33.8	18.2	6.02e-01	0	43	0	708837376	21	5400
2026-01-14 03:32:04.90	248.35	9.54	-30.4	-34.2	17.9	6.03e-01	0	43	0	714604544	21	5557
2026-01-14 03:32:07.91	248.04	9.30	-30.4	-34.1	17.9	5.99e-01	0	43	0	719847424	21	5526
2026-01-14 03:32:10.92	247.74	9.07	-30.5	-34.6	17.5	6.03e-01	0	43	0	725614592	21	5764
2026-01-14 03:32:13.92	247.43	8.84	-30.3	-34.0	18.0	6.00e-01	0	43	0	731381760	21	5495
2026-01-14 03:32:16.93	247.14	8.61	-30.5	-34.5	17.6	5.99e-01	0	43	0	737148928	21	5738
2026-01-14 03:32:19.93	246.85	8.38	-30.5	-34.6	17.5	6.01e-01	0	43	0	742391808	21	5763
2026-01-14 03:32:22.94	246.56	8.15	-30.4	-34.4	17.6	5.99e-01	0	43	0	748158976	21	5679
2026-01-14 03:32:25.95	246.28	7.92	-30.3	-33.9	17.9	6.01e-01	0	43	0	753926144	21	5478
2026-01-14 03:32:28.94	246.01	7.70	-30.4	-34.4	17.5	6.00e-01	0	43	0	759693312	21	5705
2026-01-14 03:32:31.95	245.73	7.48	-30.5	-34.7	17.2	6.01e-01	0	43	0	764936192	21	5856
2026-01-14 03:32:34.95	245.47	7.26	-30.7	-34.7	16.9	6.04e-01	0	43	0	770703360	22	5729
2026-01-14 03:32:37.96	245.21	7.04	-33.6	-51.6	3.8	7.43e-01	0	43	104	775421952	28	28655

#Closed at: 2026-01-14 03:32:40
#Recorded file [775 MB]: D:/data/31010_260114_062543.dat