passes_logs/2026/01/14/R2M6_AANII_01/R2M6_AANII_01__20260114_233449_SUOMI_NPP_rec.log

#Pass ID: 20260114_233449_SUOMI NPP
#Satellite: SUOMI NPP
#Configuration: NPP
#almurnet v.1.7.20240730
#Start time: 2026-01-14 23:34:49

#Version: 2.2.20231116
#Station: R2M6_AANII_01
#Location: 30.233357 lon 59.946436 lat
#TLE: 1 37849U 11061A   26014.11719687  .00000048  00000+0  43625-4 0  9998
#TLE: 2 37849  98.7809 316.1734 0002474  65.2440 294.8994 14.19525043736585

#Time	Az	El	Level	Level2	SNR	BER	BlckErr	Temp	State	Recorded	gain1	gain2
2026-01-14 23:34:49.77	23.26	7.00	-31.5	-35.9	5.0	1.29e+00	0	41	0	0	23	6018
2026-01-14 23:34:52.78	23.42	7.22	-31.9	-37.9	6.5	1.84e-01	0	41	0	1048576	23	7165
2026-01-14 23:34:55.77	23.57	7.44	-31.6	-36.5	7.5	1.25e-01	0	41	0	7340032	23	6267
2026-01-14 23:34:58.79	23.73	7.66	-31.5	-36.2	8.2	5.48e-02	0	41	0	12582912	22	6170
2026-01-14 23:35:01.80	23.89	7.89	-31.3	-35.3	8.9	3.59e-02	0	41	0	17825792	22	5704
2026-01-14 23:35:04.81	24.05	8.12	-31.3	-34.9	8.8	5.12e-02	0	41	0	24117248	23	5462
2026-01-14 23:35:07.82	24.22	8.35	-30.9	-34.3	10.0	8.06e-03	0	41	0	29360128	21	5346
2026-01-14 23:35:10.82	24.38	8.58	-30.9	-34.4	9.9	8.80e-03	0	41	0	35651584	21	5393
2026-01-14 23:35:13.82	24.55	8.81	-31.2	-35.0	9.2	1.92e-02	0	41	0	40894464	22	5563
2026-01-14 23:35:16.84	24.72	9.05	-31.2	-34.9	9.3	2.07e-02	0	42	0	46137344	22	5482
2026-01-14 23:35:19.86	24.90	9.28	-31.2	-34.8	9.4	2.12e-02	0	42	0	52428800	22	5462
2026-01-14 23:35:22.85	25.08	9.52	-30.8	-34.1	10.3	5.74e-03	0	42	0	57671680	21	5226
2026-01-14 23:35:25.86	25.26	9.76	-30.5	-32.9	11.2	2.22e-03	0	42	0	62914560	21	4752
2026-01-14 23:35:28.87	25.44	10.01	-30.5	-32.7	11.3	1.47e-03	0	42	0	69206016	21	4675
2026-01-14 23:35:31.88	25.62	10.25	-30.5	-32.9	11.2	1.61e-03	0	42	0	74448896	21	4751
2026-01-14 23:35:34.89	25.81	10.50	-30.8	-33.6	10.7	3.99e-03	0	42	0	80740352	21	5019
2026-01-14 23:35:37.89	26.00	10.75	-30.4	-33.1	11.5	7.57e-04	0	42	0	85983232	20	4914
2026-01-14 23:35:40.90	26.20	11.00	-30.3	-32.1	11.8	4.29e-04	0	42	0	91226112	21	4449
2026-01-14 23:35:43.91	26.40	11.26	-30.3	-32.7	11.9	3.91e-04	0	42	0	97517568	20	4754
2026-01-14 23:35:46.91	26.60	11.52	-30.1	-32.0	12.4	3.68e-04	0	42	0	102760448	20	4500
2026-01-14 23:35:49.92	26.80	11.78	-29.9	-32.0	12.8	1.23e-04	0	42	0	108003328	19	4574
2026-01-14 23:35:52.93	27.01	12.04	-29.8	-31.3	12.9	6.10e-05	0	42	0	114294784	20	4249
2026-01-14 23:35:55.93	27.22	12.30	-29.9	-31.8	13.0	4.65e-05	0	42	0	119537664	19	4516
2026-01-14 23:35:58.93	27.43	12.57	-29.9	-32.0	12.9	2.44e-05	0	42	0	125829120	19	4559
2026-01-14 23:36:01.93	27.65	12.84	-29.6	-31.0	13.5	1.14e-05	0	42	0	131072000	19	4229
2026-01-14 23:36:04.94	27.87	13.11	-29.5	-30.9	13.7	8.30e-06	0	42	0	136314880	19	4198
2026-01-14 23:36:07.95	28.10	13.39	-29.7	-31.4	13.3	1.60e-05	0	42	0	142606336	19	4356
2026-01-14 23:36:10.97	28.33	13.67	-29.8	-31.6	13.2	2.28e-05	0	42	0	147849216	19	4431
2026-01-14 23:36:13.98	28.56	13.95	-29.9	-31.9	13.0	3.73e-05	0	43	0	154140672	19	4542
2026-01-14 23:36:16.98	28.80	14.23	-30.0	-32.0	12.9	4.11e-05	0	43	0	159383552	19	4574
2026-01-14 23:36:19.99	29.05	14.52	-29.6	-31.0	13.6	9.90e-06	0	43	0	164626432	19	4229
2026-01-14 23:36:23.00	29.29	14.81	-29.6	-31.0	13.6	8.30e-06	0	43	0	170917888	19	4225
2026-01-14 23:36:26.01	29.54	15.10	-29.7	-31.2	13.5	1.29e-05	0	43	0	176160768	19	4304
2026-01-14 23:36:29.02	29.80	15.40	-29.9	-31.8	13.1	3.09e-04	0	43	0	181403648	19	4476
2026-01-14 23:36:32.02	30.06	15.70	-30.0	-31.5	12.9	2.31e-04	0	43	0	187695104	20	4317
2026-01-14 23:36:35.04	30.33	16.00	-29.9	-31.4	13.0	1.15e-04	0	43	0	192937984	20	4279
2026-01-14 23:36:38.04	30.60	16.30	-29.9	-31.9	13.2	2.05e-05	0	43	0	199229440	19	4499
2026-01-14 23:36:41.05	30.88	16.61	-29.8	-31.0	13.3	3.89e-05	0	43	0	204472320	20	4149
2026-01-14 23:36:44.05	31.16	16.92	-30.0	-31.9	13.1	2.05e-05	0	43	0	209715200	19	4524
2026-01-14 23:36:47.06	31.45	17.24	-30.0	-31.9	13.2	1.01e-03	0	43	0	216006656	19	4506
2026-01-14 23:36:50.06	31.74	17.56	-30.0	-31.5	13.0	1.24e-03	0	43	0	221249536	20	4303
2026-01-14 23:36:53.06	32.04	17.88	-30.1	-31.7	12.9	9.44e-04	0	43	0	226492416	20	4364
2026-01-14 23:36:56.07	32.35	18.21	-30.1	-31.8	12.9	5.55e-04	0	43	0	232783872	20	4379
2026-01-14 23:36:59.09	32.66	18.54	-30.0	-31.4	13.1	3.14e-04	0	43	0	238026752	20	4268
2026-01-14 23:37:02.10	32.98	18.87	-30.1	-31.8	12.8	3.73e-05	0	43	0	244318208	20	4396
2026-01-14 23:37:05.11	33.31	19.21	-30.0	-31.6	13.0	3.58e-05	0	43	0	249561088	20	4323
2026-01-14 23:37:08.12	33.64	19.55	-30.0	-31.4	13.1	3.89e-05	0	43	0	254803968	20	4264
2026-01-14 23:37:11.14	33.98	19.90	-30.0	-31.6	13.1	3.84e-04	0	43	0	261095424	20	4329
2026-01-14 23:37:14.16	34.33	20.25	-30.0	-31.5	13.1	1.33e-03	0	43	0	266338304	20	4300
2026-01-14 23:37:17.16	34.69	20.60	-30.0	-31.6	13.1	7.40e-04	0	43	0	271581184	20	4326
2026-01-14 23:37:20.18	35.05	20.96	-30.0	-31.4	13.2	9.90e-06	0	43	0	277872640	20	4257
2026-01-14 23:37:23.19	35.42	21.32	-30.0	-31.4	13.2	3.66e-05	0	43	0	283115520	20	4260
2026-01-14 23:37:26.21	35.81	21.68	-30.0	-31.6	13.2	2.89e-05	0	43	0	289406976	20	4301
2026-01-14 23:37:29.22	36.20	22.05	-29.9	-31.2	13.4	2.59e-05	0	43	0	294649856	20	4177
2026-01-14 23:37:32.23	36.59	22.43	-29.9	-31.3	13.1	1.75e-05	0	43	0	300941312	20	4223
2026-01-14 23:37:35.23	37.00	22.80	-30.0	-31.5	13.2	1.20e-04	0	43	0	306184192	20	4285
2026-01-14 23:37:38.24	37.42	23.18	-30.0	-31.4	13.3	1.44e-05	0	43	0	311427072	20	4242
2026-01-14 23:37:41.25	37.85	23.57	-30.0	-31.5	13.2	2.21e-05	0	43	0	317718528	20	4270
2026-01-14 23:37:44.26	38.28	23.96	-29.8	-31.5	13.7	1.29e-05	0	43	0	322961408	19	4351
2026-01-14 23:37:47.28	38.73	24.35	-30.0	-31.4	13.3	1.06e-05	0	43	0	328204288	20	4239
2026-01-14 23:37:50.28	39.19	24.75	-30.0	-31.3	13.4	1.22e-05	0	43	0	334495744	20	4220
2026-01-14 23:37:53.28	39.66	25.15	-30.0	-31.5	13.3	6.94e-05	0	43	0	339738624	20	4258
2026-01-14 23:37:56.29	40.15	25.56	-29.8	-30.8	13.8	9.90e-06	0	43	0	346030080	20	4069
2026-01-14 23:37:59.30	40.64	25.97	-29.8	-30.8	13.9	3.43e-05	0	43	0	351272960	20	4043
2026-01-14 23:38:02.30	41.15	26.38	-29.7	-30.7	13.9	3.80e-06	0	43	0	356515840	20	4011
2026-01-14 23:38:05.31	41.67	26.80	-30.4	-32.5	12.7	5.34e-05	0	43	0	362807296	20	4600
2026-01-14 23:38:08.32	42.20	27.22	-30.5	-32.1	12.6	5.79e-05	0	43	0	368050176	21	4371
2026-01-14 23:38:11.32	42.75	27.65	-30.2	-31.4	13.2	2.44e-05	0	43	0	373293056	21	4130
2026-01-14 23:38:14.33	43.31	28.08	-30.3	-31.7	13.0	3.20e-05	0	43	0	379584512	21	4214
2026-01-14 23:38:17.35	43.90	28.52	-30.8	-33.0	12.1	1.88e-04	0	43	0	384827392	21	4651
2026-01-14 23:38:20.37	44.49	28.96	-30.6	-32.6	12.4	1.52e-04	0	43	0	391118848	21	4525
2026-01-14 23:38:23.36	45.10	29.40	-30.5	-32.2	12.7	8.54e-05	0	43	0	396361728	21	4370
2026-01-14 23:38:26.36	45.72	29.84	-30.4	-32.0	12.8	5.03e-05	0	43	0	401604608	21	4305
2026-01-14 23:38:29.36	46.37	30.29	-30.5	-32.2	12.7	5.49e-05	0	43	0	407896064	21	4388
2026-01-14 23:38:32.36	47.03	30.74	-30.9	-33.3	12.0	2.10e-04	0	43	0	413138944	21	4748
2026-01-14 23:38:35.37	47.71	31.19	-31.3	-34.2	11.1	1.14e-03	0	43	0	418381824	22	4990
2026-01-14 23:38:38.38	48.41	31.65	-30.9	-32.8	12.0	1.95e-04	0	43	0	424673280	22	4490
2026-01-14 23:38:41.40	49.13	32.11	-30.8	-32.4	12.2	2.55e-04	0	43	0	429916160	22	4357
2026-01-14 23:38:44.40	49.86	32.58	-30.3	-31.7	13.1	3.43e-05	0	43	0	436207616	21	4209
2026-01-14 23:38:47.40	50.62	33.04	-30.5	-32.3	12.7	5.72e-05	0	43	0	441450496	21	4412
2026-01-14 23:38:50.41	51.41	33.50	-30.8	-33.0	12.2	2.79e-04	0	43	0	446693376	21	4639
2026-01-14 23:38:53.43	52.21	33.97	-30.8	-33.0	12.2	2.65e-04	0	43	0	452984832	21	4658
2026-01-14 23:38:56.44	53.04	34.44	-30.8	-32.9	12.4	1.80e-04	0	43	0	458227712	21	4601
2026-01-14 23:38:59.45	53.89	34.91	-31.4	-33.8	10.8	2.73e-03	0	43	0	463470592	23	4764
2026-01-14 23:39:02.46	54.77	35.38	-30.7	-32.1	12.6	3.04e-04	0	43	0	469762048	22	4249
2026-01-14 23:39:05.47	55.67	35.85	-30.3	-31.6	13.2	1.98e-05	0	43	0	475004928	21	4186
2026-01-14 23:39:08.48	56.60	36.31	-30.9	-32.8	12.0	3.62e-04	0	43	0	481296384	22	4489
2026-01-14 23:39:11.49	57.55	36.78	-30.5	-32.1	12.7	5.18e-05	0	43	0	486539264	21	4345
2026-01-14 23:39:14.50	58.53	37.24	-30.4	-31.9	13.1	2.97e-05	0	43	0	491782144	21	4267
2026-01-14 23:39:17.51	59.54	37.70	-30.5	-32.5	13.0	2.36e-05	0	43	0	498073600	20	4536
2026-01-14 23:39:20.52	60.58	38.16	-31.9	-35.4	10.0	2.43e-03	0	43	0	503316480	23	5385
2026-01-14 23:39:23.52	61.64	38.61	-31.5	-34.1	10.9	3.30e-03	0	43	0	509607936	23	4839
2026-01-14 23:39:26.54	62.74	39.06	-31.5	-33.9	11.1	1.80e-03	0	43	0	514850816	23	4769
2026-01-14 23:39:29.54	63.86	39.49	-31.4	-33.6	11.2	1.88e-03	0	43	0	520093696	23	4673
2026-01-14 23:39:32.55	65.02	39.93	-31.4	-33.7	11.2	1.51e-03	0	43	0	526385152	23	4691
2026-01-14 23:39:35.57	66.21	40.35	-31.3	-33.5	11.4	8.45e-04	0	43	0	531628032	23	4617
2026-01-14 23:39:38.57	67.42	40.77	-31.2	-33.1	11.6	5.98e-04	0	43	0	536870912	23	4488
2026-01-14 23:39:41.59	68.67	41.18	-31.3	-33.4	11.5	4.48e-04	0	43	0	543162368	23	4574
2026-01-14 23:39:44.59	69.95	41.57	-31.0	-32.6	12.0	4.35e-04	0	43	0	548405248	23	4297
2026-01-14 23:39:47.61	71.26	41.96	-30.8	-32.3	12.6	1.20e-04	0	43	0	554696704	22	4296
2026-01-14 23:39:50.62	72.60	42.33	-30.6	-31.7	13.0	1.38e-04	0	43	0	559939584	22	4102
2026-01-14 23:39:53.64	73.98	42.69	-30.9	-33.2	12.3	4.95e-05	0	43	0	565182464	21	4681
2026-01-14 23:39:56.64	75.38	43.03	-30.4	-31.9	13.2	1.83e-05	0	43	0	571473920	21	4247
2026-01-14 23:39:59.66	76.82	43.36	-30.8	-32.2	12.7	2.01e-04	0	43	0	576716800	22	4267
2026-01-14 23:40:02.67	78.28	43.67	-30.8	-32.9	12.6	2.14e-04	0	44	0	581959680	21	4590
2026-01-14 23:40:05.68	79.76	43.96	-30.8	-32.5	12.5	3.42e-04	0	43	0	588251136	22	4345
2026-01-14 23:40:08.69	81.28	44.23	-30.7	-32.1	12.8	1.08e-04	0	43	0	593494016	22	4229
2026-01-14 23:40:11.69	82.81	44.48	-30.5	-32.0	13.2	3.05e-05	0	43	0	599785472	21	4286
2026-01-14 23:40:14.71	84.38	44.71	-30.7	-32.7	12.7	4.42e-05	0	43	0	605028352	21	4507
2026-01-14 23:40:17.74	85.97	44.92	-30.6	-32.4	12.9	6.63e-05	0	43	0	610271232	21	4421
2026-01-14 23:40:20.75	87.57	45.11	-30.8	-32.9	12.5	5.26e-05	0	43	0	616562688	21	4585
2026-01-14 23:40:23.75	89.19	45.27	-30.2	-31.1	13.7	4.88e-05	0	43	0	621805568	21	4011
2026-01-14 23:40:26.75	90.82	45.40	-29.2	-29.6	15.3	0.00e+00	0	43	0	628097024	19	3771
2026-01-14 23:40:29.76	92.47	45.52	-29.6	-30.7	14.7	7.01e-05	0	43	0	633339904	19	4071
2026-01-14 23:40:32.78	94.14	45.60	-30.4	-31.7	13.2	5.11e-05	0	43	0	638582784	21	4186
2026-01-14 23:40:35.79	95.80	45.66	-29.7	-30.4	14.5	0.00e+00	0	43	0	644874240	20	3907
2026-01-14 23:40:38.80	97.47	45.70	-30.4	-32.2	13.5	6.80e-06	0	43	0	650117120	20	4435
2026-01-14 23:40:41.81	99.15	45.70	-29.6	-30.1	14.8	0.00e+00	0	43	0	655360000	20	3819
2026-01-14 23:40:44.82	100.82	45.68	-29.1	-29.9	15.5	0.00e+00	0	44	0	661651456	18	3950
2026-01-14 23:40:47.84	102.50	45.64	-29.4	-30.2	15.0	5.56e-05	0	43	0	666894336	19	3927
2026-01-14 23:40:50.84	104.16	45.57	-29.4	-30.6	14.9	1.26e-04	0	43	0	673185792	18	4161
2026-01-14 23:40:53.86	105.82	45.47	-29.7	-31.0	14.4	1.14e-05	0	43	0	678428672	19	4162
2026-01-14 23:40:56.86	107.46	45.35	-32.0	-35.5	9.4	1.56e-02	0	43	0	683671552	24	5384
2026-01-14 23:40:59.86	109.09	45.20	-30.2	-31.4	13.4	1.01e-03	0	43	0	689963008	21	4105
2026-01-14 23:41:02.87	110.70	45.03	-30.2	-31.2	13.5	5.87e-04	0	43	0	695205888	21	4041
2026-01-14 23:41:05.88	112.30	44.84	-31.1	-33.3	11.9	8.79e-04	0	43	0	701497344	22	4642
2026-01-14 23:41:08.90	113.88	44.62	-30.0	-30.8	13.6	1.46e-04	0	43	0	706740224	21	3925
2026-01-14 23:41:11.92	115.44	44.38	-30.5	-32.1	13.1	4.27e-05	0	43	0	711983104	21	4304
2026-01-14 23:41:14.92	116.97	44.12	-29.7	-30.3	14.6	0.00e+00	0	44	0	718274560	20	3877
2026-01-14 23:41:17.93	118.47	43.84	-29.6	-30.1	14.6	7.00e-07	0	43	0	723517440	20	3822
2026-01-14 23:41:20.93	119.95	43.54	-30.3	-32.0	13.5	3.00e-06	0	43	0	728760320	20	4368
2026-01-14 23:41:23.94	121.40	43.22	-30.6	-31.7	13.0	6.02e-05	0	43	0	735051776	22	4108
2026-01-14 23:41:26.94	122.81	42.89	-30.0	-31.2	14.0	3.00e-06	0	44	0	740294656	20	4122
2026-01-14 23:41:29.93	124.20	42.54	-29.3	-29.4	15.1	0.00e+00	0	43	0	746586112	20	3638
2026-01-14 23:41:32.94	125.56	42.17	-30.2	-31.7	13.7	9.10e-06	0	43	0	751828992	20	4293
2026-01-14 23:41:35.94	126.89	41.80	-29.4	-30.2	15.0	0.00e+00	0	43	0	757071872	19	3931
2026-01-14 23:41:38.96	128.19	41.41	-30.6	-32.4	12.8	4.65e-05	0	43	0	763363328	21	4431
2026-01-14 23:41:41.96	129.46	41.00	-29.6	-30.0	14.7	7.00e-07	0	43	0	768606208	20	3808
2026-01-14 23:41:44.97	130.70	40.59	-30.5	-32.0	13.2	3.50e-05	0	43	0	773849088	21	4273
2026-01-14 23:41:47.98	131.91	40.17	-31.2	-33.5	11.9	6.86e-05	0	43	0	780140544	22	4691
2026-01-14 23:41:50.98	133.08	39.74	-30.5	-31.7	13.0	2.20e-04	0	43	0	785383424	22	4104
2026-01-14 23:41:54.00	134.23	39.30	-31.8	-35.2	10.2	2.68e-03	0	44	0	791674880	23	5311
2026-01-14 23:41:56.99	135.34	38.86	-29.8	-30.4	13.5	8.01e-05	0	43	0	796917760	21	3880
2026-01-14 23:42:00.00	136.42	38.41	-31.2	-33.5	11.9	1.32e-04	0	43	0	802160640	22	4696
2026-01-14 23:42:03.01	137.48	37.95	-30.3	-30.8	13.5	2.95e-04	0	43	0	808452096	22	3855
2026-01-14 23:42:06.02	138.51	37.49	-32.0	-34.9	11.1	3.93e-04	0	44	0	813694976	23	5014
2026-01-14 23:42:09.03	139.51	37.03	-32.1	-34.9	9.6	6.02e-02	0	43	0	818937856	25	4995
2026-01-14 23:42:12.05	140.48	36.56	-31.7	-34.7	10.5	8.26e-04	0	43	0	825229312	23	5088
2026-01-14 23:42:15.05	141.43	36.09	-32.0	-34.7	9.8	2.91e-02	0	44	0	830472192	25	4906
2026-01-14 23:42:18.06	142.34	35.62	-29.7	-30.5	14.4	4.80e-04	0	43	0	836763648	20	3921
2026-01-14 23:42:21.06	143.23	35.15	-32.1	-35.6	9.5	7.10e-03	0	43	0	842006528	24	5384
2026-01-14 23:42:24.06	144.10	34.69	-29.3	-29.8	15.1	1.43e-03	0	43	0	847249408	19	3826
2026-01-14 23:42:27.07	144.94	34.21	-29.8	-31.2	14.3	2.13e-03	0	43	0	853540864	19	4236
2026-01-14 23:42:30.08	145.76	33.74	-30.0	-31.3	13.8	2.05e-03	0	43	0	858783744	20	4169
2026-01-14 23:42:33.08	146.56	33.28	-29.2	-30.1	15.3	1.62e-03	0	43	0	864026624	18	3991
2026-01-14 23:42:36.09	147.33	32.81	-31.2	-33.6	11.6	1.57e-04	0	44	0	870318080	22	4749
2026-01-14 23:42:39.10	148.09	32.34	-30.6	-32.5	12.7	7.09e-05	0	44	0	875560960	21	4455
2026-01-14 23:42:42.12	148.82	31.88	-30.1	-31.4	13.7	4.50e-06	0	44	0	881852416	20	4199
2026-01-14 23:42:45.12	149.53	31.42	-31.2	-33.6	11.7	6.28e-04	0	43	0	887095296	22	4736
2026-01-14 23:42:48.14	150.23	30.95	-30.4	-32.0	13.0	7.01e-05	0	43	0	892338176	21	4306
2026-01-14 23:42:51.14	150.90	30.50	-29.9	-31.0	14.0	1.22e-05	0	44	0	898629632	20	4081
2026-01-14 23:42:54.15	151.56	30.05	-29.8	-30.7	14.1	5.30e-06	0	44	0	903872512	20	3995
2026-01-14 23:42:57.14	152.19	29.60	-29.5	-30.4	14.7	0.00e+00	0	43	0	909115392	19	4006
2026-01-14 23:43:00.15	152.81	29.15	-30.1	-31.7	13.5	2.20e-06	0	43	0	915406848	20	4305
2026-01-14 23:43:03.17	153.42	28.71	-31.2	-33.8	11.4	9.66e-04	0	43	0	920649728	22	4828
2026-01-14 23:43:06.17	154.01	28.27	-31.0	-33.1	11.8	6.69e-04	0	44	0	926941184	22	4568
2026-01-14 23:43:09.18	154.58	27.83	-30.1	-31.7	13.4	1.44e-05	0	43	0	932184064	20	4296
2026-01-14 23:43:12.19	155.14	27.40	-30.6	-32.4	12.6	7.24e-05	0	43	0	937426944	21	4450
2026-01-14 23:43:15.19	155.68	26.98	-30.7	-32.6	12.4	1.72e-04	0	43	0	943718400	21	4519
2026-01-14 23:43:18.20	156.21	26.55	-29.2	-29.7	15.0	0.00e+00	0	43	0	948961280	19	3821
2026-01-14 23:43:21.20	156.72	26.13	-29.0	-29.7	15.3	0.00e+00	0	44	0	954204160	18	3893
2026-01-14 23:43:24.20	157.23	25.72	-29.6	-30.8	14.4	0.00e+00	0	43	0	960495616	19	4108
2026-01-14 23:43:27.22	157.72	25.31	-30.5	-32.6	12.8	4.19e-05	0	43	0	965738496	20	4607
2026-01-14 23:43:30.22	158.19	24.90	-31.0	-33.3	11.7	4.97e-04	0	43	0	972029952	22	4657
2026-01-14 23:43:33.23	158.66	24.50	-31.1	-33.5	11.4	1.67e-03	0	44	0	977272832	22	4763
2026-01-14 23:43:36.24	159.12	24.10	-30.7	-32.4	12.3	2.69e-04	0	44	0	982515712	22	4361
2026-01-14 23:43:39.25	159.56	23.70	-30.2	-31.9	13.2	1.11e-04	0	43	0	988807168	20	4384
2026-01-14 23:43:42.27	160.00	23.31	-30.8	-33.0	12.1	7.17e-05	0	44	0	994050048	21	4652
2026-01-14 23:43:45.27	160.42	22.93	-31.4	-34.6	10.6	1.50e-03	0	43	0	999292928	22	5195
2026-01-14 23:43:48.27	160.83	22.55	-31.3	-33.8	10.8	3.65e-03	0	43	0	1005584384	23	4798
2026-01-14 23:43:51.27	161.23	22.17	-30.7	-32.8	12.2	2.45e-04	0	43	0	1010827264	21	4618
2026-01-14 23:43:54.27	161.62	21.80	-29.8	-30.8	13.9	6.10e-06	0	43	0	1017118720	20	4049
2026-01-14 23:43:57.26	162.01	21.43	-29.5	-30.7	14.3	1.07e-04	0	43	0	1022361600	19	4089
2026-01-14 23:44:00.27	162.38	21.07	-29.7	-31.0	14.1	1.96e-04	0	44	0	1027604480	19	4198
2026-01-14 23:44:03.27	162.75	20.71	-30.0	-31.4	13.5	3.19e-04	0	43	0	1033895936	20	4241
2026-01-14 23:44:06.28	163.11	20.35	-30.5	-32.5	12.3	4.11e-04	0	43	0	1039138816	21	4506
2026-01-14 23:44:09.28	163.46	20.00	-30.8	-33.3	11.6	8.75e-04	0	43	0	1044381696	21	4823
2026-01-14 23:44:12.30	163.81	19.65	-30.9	-33.2	11.5	1.04e-03	0	43	0	1050673152	22	4692
2026-01-14 23:44:15.31	164.14	19.30	-31.1	-33.7	11.2	1.33e-03	0	43	0	1055916032	22	4854
2026-01-14 23:44:18.32	164.47	18.96	-30.7	-33.0	12.0	6.48e-04	0	43	0	1062207488	21	4687
2026-01-14 23:44:21.32	164.80	18.62	-30.5	-32.5	12.2	4.20e-04	0	43	0	1067450368	21	4511
2026-01-14 23:44:24.33	165.11	18.29	-30.3	-32.3	12.7	3.84e-04	0	43	0	1072693248	20	4539
2026-01-14 23:44:27.33	165.42	17.96	-30.1	-31.6	13.2	2.99e-04	0	43	0	1078984704	20	4317
2026-01-14 23:44:30.34	165.72	17.63	-30.0	-31.5	13.2	1.37e-05	0	43	0	1084227584	20	4263
2026-01-14 23:44:33.35	166.02	17.31	-29.7	-30.8	13.7	3.26e-04	0	43	0	1089470464	20	4063
2026-01-14 23:44:36.37	166.31	16.99	-30.0	-31.9	13.4	3.94e-04	0	44	0	1095761920	19	4478
2026-01-14 23:44:39.38	166.60	16.67	-30.1	-31.7	13.0	3.86e-04	0	43	0	1101004800	20	4362
2026-01-14 23:44:42.40	166.88	16.36	-30.2	-32.2	12.7	4.65e-04	0	43	0	1107296256	20	4508
2026-01-14 23:44:45.41	167.15	16.05	-30.5	-32.6	12.1	5.55e-04	0	43	0	1112539136	21	4544
2026-01-14 23:44:48.42	167.42	15.74	-30.8	-33.3	11.6	7.03e-04	0	43	0	1117782016	21	4806
2026-01-14 23:44:51.42	167.68	15.44	-30.6	-32.9	11.8	5.76e-04	0	43	0	1124073472	21	4694
2026-01-14 23:44:54.43	167.94	15.14	-30.6	-32.9	11.8	5.32e-04	0	44	0	1129316352	21	4684
2026-01-14 23:44:57.43	168.19	14.85	-30.6	-32.8	11.8	4.63e-04	0	43	0	1135607808	21	4678
2026-01-14 23:45:00.45	168.44	14.55	-30.1	-31.9	12.7	5.47e-04	0	43	0	1140850688	20	4449
2026-01-14 23:45:03.46	168.69	14.26	-30.7	-32.7	11.8	5.06e-04	0	43	0	1146093568	20	4556
2026-01-14 23:45:06.48	168.93	13.97	-29.9	-31.9	13.2	1.37e-05	0	44	0	1152385024	19	4516
2026-01-14 23:45:09.48	169.16	13.69	-30.3	-32.5	12.4	1.01e-04	0	43	0	1157627904	20	4632
2026-01-14 23:45:12.48	169.39	13.41	-30.6	-32.9	11.7	4.73e-04	0	43	0	1162870784	21	4706
2026-01-14 23:45:15.49	169.62	13.13	-30.9	-33.9	11.0	2.85e-03	0	43	0	1169162240	21	5067
2026-01-14 23:45:18.51	169.84	12.85	-31.1	-34.1	10.5	6.11e-03	0	44	0	1174405120	22	5054
2026-01-14 23:45:21.50	170.06	12.58	-31.3	-34.7	10.0	7.65e-03	0	44	0	1180696576	22	5326
2026-01-14 23:45:24.51	170.27	12.31	-31.3	-34.9	9.7	8.92e-03	0	43	0	1185939456	22	5445
2026-01-14 23:45:27.51	170.48	12.05	-31.5	-35.2	9.2	2.12e-02	0	43	0	1191182336	23	5485
2026-01-14 23:45:30.52	170.69	11.78	-31.2	-34.4	10.1	9.10e-03	0	43	0	1197473792	22	5236
2026-01-14 23:45:33.54	170.90	11.52	-30.8	-33.8	10.9	2.16e-03	0	43	0	1202716672	21	5056
2026-01-14 23:45:36.53	171.10	11.26	-30.6	-33.0	11.4	3.36e-03	0	43	0	1207959552	21	4771
2026-01-14 23:45:39.54	171.29	11.00	-30.1	-32.0	12.5	2.20e-03	0	43	0	1214251008	20	4509
2026-01-14 23:45:42.54	171.49	10.75	-30.0	-31.6	12.7	2.07e-03	0	43	0	1219493888	20	4371
2026-01-14 23:45:45.55	171.68	10.49	-29.8	-31.6	13.1	2.20e-03	0	44	0	1225785344	19	4434
2026-01-14 23:45:48.55	171.87	10.24	-29.8	-31.6	13.1	2.23e-03	0	43	0	1231028224	19	4435
2026-01-14 23:45:51.55	172.05	10.00	-29.8	-31.7	13.0	1.80e-03	0	43	0	1236271104	19	4454
2026-01-14 23:45:54.56	172.23	9.75	-30.0	-32.1	12.7	1.92e-03	0	44	0	1242562560	19	4617
2026-01-14 23:45:57.57	172.41	9.50	-29.9	-31.6	12.7	1.66e-03	0	43	0	1247805440	20	4341
2026-01-14 23:46:00.58	172.59	9.26	-30.1	-32.1	12.3	1.42e-03	0	44	0	1253048320	20	4531
2026-01-14 23:46:03.58	172.76	9.02	-30.4	-32.8	11.8	1.86e-03	0	43	0	1259339776	20	4786
2026-01-14 23:46:06.59	172.93	8.79	-30.5	-33.2	11.5	2.37e-03	0	43	0	1264582656	20	4926
2026-01-14 23:46:09.60	173.10	8.55	-30.3	-32.6	11.8	8.89e-04	0	44	0	1270874112	20	4726
2026-01-14 23:46:12.61	173.27	8.32	-30.6	-33.1	11.2	1.92e-03	0	44	0	1276116992	21	4796
2026-01-14 23:46:15.62	173.43	8.09	-30.7	-33.5	10.8	3.91e-03	0	44	0	1281359872	21	4972
2026-01-14 23:46:18.62	173.59	7.86	-30.9	-34.2	10.3	6.20e-03	0	43	0	1287651328	21	5269
2026-01-14 23:46:21.63	173.75	7.63	-30.9	-34.3	10.1	7.71e-03	0	43	0	1292894208	21	5330
2026-01-14 23:46:24.64	173.91	7.40	-30.9	-34.2	10.2	6.55e-03	0	44	0	1298137088	21	5274
2026-01-14 23:46:27.65	174.06	7.18	-31.0	-34.6	9.8	1.06e-02	0	44	0	1304428544	21	5497

#Closed at: 2026-01-14 23:46:30
#Recorded file [1307 MB]: D:/data/31010_260115_023451.dat