passes_logs/2026/01/14/R2M6_AANII_01/R2M6_AANII_01__20260114_091714_NOAA_21_JPSS-2_rec.log

#Pass ID: 20260114_091714_NOAA 21 (JPSS-2)
#Satellite: NOAA 21 (JPSS-2)
#Configuration: NOAA 21
#almurnet v.1.7.20240730
#Start time: 2026-01-14 09:17:16

#Version: 2.2.20231116
#Station: R2M6_AANII_01
#Location: 30.233357 lon 59.946436 lat
#TLE: 1 54234U 22150A   26013.18009385  .00000056  00000+0  47387-4 0  9997
#TLE: 2 54234  98.7496 314.1019 0000691 303.8246  56.2864 14.19534466164559

#Time	Az	El	Level	Level2	SNR	BER	BlckErr	Temp	State	Recorded	gain1	gain2
2026-01-14 09:17:16.44	128.25	7.15	-31.3	-36.1	4.5	1.42e+00	0	40	0	0	24	6256
2026-01-14 09:17:19.45	128.10	7.38	-31.1	-35.1	8.3	4.20e-02	0	41	0	3145728	23	5646
2026-01-14 09:17:22.45	127.94	7.60	-30.6	-33.9	9.5	1.88e-02	0	40	0	12582912	22	5236
2026-01-14 09:17:25.46	127.78	7.83	-29.9	-32.8	10.9	2.50e-03	0	41	0	22020096	20	5036
2026-01-14 09:17:28.48	127.62	8.06	-29.8	-32.6	11.1	1.61e-03	0	41	0	30408704	20	4941
2026-01-14 09:17:31.49	127.46	8.29	-29.9	-32.8	11.0	2.05e-03	0	41	0	39845888	20	5004
2026-01-14 09:17:34.49	127.29	8.52	-29.6	-32.0	11.6	9.16e-04	0	41	0	49283072	20	4743
2026-01-14 09:17:37.49	127.12	8.76	-29.3	-31.5	12.3	1.75e-04	0	41	0	58720256	19	4654
2026-01-14 09:17:40.50	126.95	8.99	-28.8	-30.7	13.2	3.05e-05	0	41	0	68157440	18	4483
2026-01-14 09:17:43.51	126.77	9.23	-29.2	-31.7	12.6	9.46e-05	0	41	0	77594624	18	4831
2026-01-14 09:17:46.52	126.59	9.47	-28.8	-30.8	13.2	3.05e-05	0	41	0	87031808	18	4535
2026-01-14 09:17:49.53	126.41	9.72	-28.7	-30.6	13.3	1.52e-05	0	41	0	96468992	18	4459
2026-01-14 09:17:52.54	126.23	9.96	-28.6	-30.3	13.5	9.90e-06	0	41	0	105906176	18	4386
2026-01-14 09:17:55.54	126.04	10.21	-28.6	-30.2	13.5	5.30e-06	0	41	0	115343360	18	4355
2026-01-14 09:17:58.55	125.85	10.46	-28.4	-29.8	13.8	9.10e-06	0	41	0	124780544	18	4222
2026-01-14 09:18:01.56	125.66	10.71	-28.4	-29.8	13.9	2.20e-06	0	42	0	134217728	18	4223
2026-01-14 09:18:04.58	125.46	10.96	-28.2	-29.9	14.1	1.50e-06	0	41	0	143654912	17	4358
2026-01-14 09:18:07.58	125.26	11.22	-28.4	-30.1	14.0	7.00e-07	0	42	0	153092096	17	4417
2026-01-14 09:18:10.59	125.05	11.48	-28.2	-29.8	14.2	0.00e+00	0	42	0	162529280	17	4304
2026-01-14 09:18:13.59	124.84	11.74	-28.1	-29.4	14.4	0.00e+00	0	42	0	171966464	17	4204
2026-01-14 09:18:16.60	124.63	12.00	-28.3	-30.0	14.1	2.20e-06	0	42	0	181403648	17	4368
2026-01-14 09:18:19.62	124.41	12.27	-28.3	-29.9	14.2	3.00e-06	0	42	0	190840832	17	4346
2026-01-14 09:18:22.63	124.19	12.54	-28.2	-29.7	14.3	7.00e-07	0	42	0	200278016	17	4286
2026-01-14 09:18:25.64	123.96	12.81	-28.0	-29.2	14.6	7.00e-07	0	42	0	209715200	17	4164
2026-01-14 09:18:28.64	123.73	13.08	-27.8	-29.2	14.9	0.00e+00	0	42	0	219152384	16	4265
2026-01-14 09:18:31.65	123.50	13.35	-27.8	-29.3	14.9	7.00e-07	0	42	0	228589568	16	4291
2026-01-14 09:18:34.64	123.26	13.63	-27.7	-29.0	15.1	0.00e+00	0	42	0	238026752	16	4191
2026-01-14 09:18:37.65	123.02	13.91	-27.8	-29.3	14.9	0.00e+00	0	42	0	247463936	16	4285
2026-01-14 09:18:40.66	122.77	14.20	-27.9	-29.4	14.9	0.00e+00	0	42	0	256901120	16	4301
2026-01-14 09:18:43.67	122.52	14.48	-27.9	-29.5	14.8	0.00e+00	0	42	0	266338304	16	4338
2026-01-14 09:18:46.66	122.26	14.77	-28.0	-29.8	14.7	7.00e-07	0	42	0	275775488	16	4427
2026-01-14 09:18:49.65	122.00	15.06	-27.9	-29.4	14.9	0.00e+00	0	42	0	284164096	16	4309
2026-01-14 09:18:52.67	121.73	15.36	-27.9	-29.4	15.0	0.00e+00	0	42	0	293601280	16	4309
2026-01-14 09:18:55.68	121.45	15.66	-27.7	-29.1	15.2	0.00e+00	0	42	0	303038464	16	4211
2026-01-14 09:18:58.68	121.17	15.96	-27.8	-29.4	15.0	0.00e+00	0	42	0	312475648	16	4289
2026-01-14 09:19:01.69	120.89	16.26	-28.0	-29.6	14.9	0.00e+00	0	42	0	321912832	16	4369
2026-01-14 09:19:04.70	120.60	16.57	-28.0	-29.8	14.8	0.00e+00	0	42	0	331350016	16	4420
2026-01-14 09:19:07.71	120.30	16.88	-28.1	-30.1	14.7	7.00e-07	0	42	0	340787200	16	4494
2026-01-14 09:19:10.73	119.99	17.19	-28.2	-30.3	14.6	0.00e+00	0	42	0	350224384	16	4550
2026-01-14 09:19:13.73	119.68	17.51	-28.1	-30.0	14.8	0.00e+00	0	42	0	359661568	16	4467
2026-01-14 09:19:16.74	119.36	17.83	-28.2	-30.1	14.7	0.00e+00	0	42	0	369098752	16	4499
2026-01-14 09:19:19.74	119.04	18.15	-28.1	-30.0	14.8	7.00e-07	0	42	0	378535936	16	4461
2026-01-14 09:19:22.75	118.71	18.48	-28.0	-29.6	15.0	0.00e+00	0	42	0	387973120	16	4351
2026-01-14 09:19:25.75	118.37	18.81	-27.9	-29.6	15.1	0.00e+00	0	42	0	397410304	16	4341
2026-01-14 09:19:28.76	118.02	19.14	-27.9	-29.5	15.1	0.00e+00	0	42	0	406847488	16	4331
2026-01-14 09:19:31.78	117.67	19.48	-27.9	-29.5	15.1	7.00e-07	0	42	0	416284672	16	4341
2026-01-14 09:19:34.78	117.30	19.82	-27.8	-29.2	15.3	0.00e+00	0	42	0	425721856	16	4241
2026-01-14 09:19:37.78	116.93	20.16	-27.6	-28.8	15.5	0.00e+00	0	42	0	435159040	16	4141
2026-01-14 09:19:40.79	116.55	20.51	-27.4	-28.2	15.9	0.00e+00	0	42	0	444596224	16	3986
2026-01-14 09:19:43.81	116.16	20.86	-27.4	-28.3	15.8	0.00e+00	0	43	0	454033408	16	4002
2026-01-14 09:19:46.83	115.76	21.21	-27.1	-28.3	15.9	0.00e+00	0	42	0	463470592	15	4100
2026-01-14 09:19:49.83	115.36	21.57	-27.2	-28.4	15.8	3.00e-06	0	42	0	472907776	15	4148
2026-01-14 09:19:52.84	114.94	21.93	-27.1	-28.1	16.1	0.00e+00	0	43	0	482344960	15	4067
2026-01-14 09:19:55.84	114.51	22.30	-27.0	-28.0	16.2	0.00e+00	0	42	0	491782144	15	4021
2026-01-14 09:19:58.86	114.07	22.66	-26.7	-27.8	16.6	0.00e+00	0	43	0	501219328	14	4071
2026-01-14 09:20:01.87	113.63	23.04	-26.7	-27.8	16.6	0.00e+00	0	42	0	510656512	14	4072
2026-01-14 09:20:04.88	113.17	23.41	-26.8	-27.9	16.5	0.00e+00	0	42	0	520093696	14	4115
2026-01-14 09:20:07.89	112.70	23.79	-26.7	-27.7	16.7	0.00e+00	0	42	0	529530880	14	4054
2026-01-14 09:20:10.90	112.21	24.17	-26.8	-27.9	16.6	0.00e+00	0	43	0	538968064	14	4107
2026-01-14 09:20:13.91	111.72	24.55	-26.9	-28.1	16.5	7.00e-07	0	42	0	548405248	14	4160
2026-01-14 09:20:16.92	111.21	24.94	-27.2	-28.7	16.1	0.00e+00	0	43	0	556793856	14	4325
2026-01-14 09:20:19.93	110.69	25.33	-27.4	-29.3	15.9	0.00e+00	0	43	0	566231040	14	4475
2026-01-14 09:20:22.94	110.16	25.73	-27.8	-29.7	15.4	0.00e+00	0	42	0	575668224	15	4486
2026-01-14 09:20:25.95	109.61	26.13	-27.7	-29.5	15.5	0.00e+00	0	43	0	585105408	15	4424
2026-01-14 09:20:28.95	109.05	26.53	-27.8	-29.6	15.5	0.00e+00	0	43	0	594542592	15	4442
2026-01-14 09:20:31.97	108.48	26.93	-28.1	-29.7	15.2	0.00e+00	0	43	0	603979776	16	4355
2026-01-14 09:20:34.98	107.89	27.34	-28.1	-29.9	15.2	0.00e+00	0	43	0	613416960	16	4404
2026-01-14 09:20:37.99	107.28	27.74	-28.2	-30.1	15.1	0.00e+00	0	43	0	622854144	16	4465
2026-01-14 09:20:40.99	106.66	28.15	-27.6	-28.8	15.8	0.00e+00	0	43	0	632291328	16	4097
2026-01-14 09:20:43.99	106.03	28.57	-27.9	-29.4	15.5	0.00e+00	0	43	0	641728512	16	4258
2026-01-14 09:20:47.00	105.37	28.98	-27.9	-29.5	15.5	0.00e+00	0	43	0	651165696	16	4290
2026-01-14 09:20:50.01	104.70	29.40	-27.8	-29.1	15.7	0.00e+00	0	43	0	660602880	16	4193
2026-01-14 09:20:53.00	104.01	29.81	-27.7	-28.9	15.8	0.00e+00	0	43	0	670040064	16	4130
2026-01-14 09:20:56.01	103.31	30.23	-27.9	-29.3	15.6	0.00e+00	0	43	0	679477248	16	4247
2026-01-14 09:20:59.01	102.58	30.65	-27.9	-29.4	15.6	0.00e+00	0	43	0	688914432	16	4261
2026-01-14 09:21:02.03	101.83	31.08	-28.0	-29.5	15.5	0.00e+00	0	43	0	698351616	16	4298
2026-01-14 09:21:05.03	101.07	31.50	-27.8	-29.1	15.8	0.00e+00	0	43	0	707788800	16	4172
2026-01-14 09:21:08.05	100.28	31.92	-27.8	-29.0	15.8	0.00e+00	0	43	0	717225984	16	4163
2026-01-14 09:21:11.06	99.48	32.34	-28.1	-29.9	15.3	0.00e+00	0	42	0	726663168	16	4392
2026-01-14 09:21:14.07	98.65	32.76	-28.4	-30.5	15.0	0.00e+00	0	43	0	736100352	16	4583
2026-01-14 09:21:17.07	97.80	33.18	-28.8	-30.8	14.5	0.00e+00	0	43	0	745537536	17	4558
2026-01-14 09:21:20.07	96.93	33.60	-29.2	-31.2	14.0	3.00e-06	0	43	0	754974720	18	4573
2026-01-14 09:21:23.07	96.04	34.02	-29.1	-31.1	14.1	7.00e-07	0	43	0	764411904	18	4520
2026-01-14 09:21:26.08	95.12	34.43	-29.1	-31.0	14.2	7.00e-07	0	43	0	773849088	18	4504
2026-01-14 09:21:29.07	94.19	34.84	-29.3	-31.5	14.0	0.00e+00	0	43	0	783286272	18	4637
2026-01-14 09:21:32.07	93.22	35.24	-28.9	-30.5	14.5	0.00e+00	0	43	0	791674880	18	4355
2026-01-14 09:21:35.09	92.23	35.65	-28.9	-30.6	14.5	0.00e+00	0	43	0	801112064	18	4364
2026-01-14 09:21:38.09	91.22	36.04	-29.1	-31.0	14.2	2.20e-06	0	43	0	810549248	18	4480
2026-01-14 09:21:41.11	90.18	36.44	-28.9	-30.7	14.4	7.00e-07	0	43	0	819986432	18	4391
2026-01-14 09:21:44.13	89.11	36.82	-29.4	-31.9	13.8	6.80e-06	0	43	0	829423616	18	4764
2026-01-14 09:21:47.14	88.02	37.20	-29.0	-30.7	14.4	0.00e+00	0	43	0	838860800	18	4398
2026-01-14 09:21:50.16	86.90	37.57	-29.1	-31.1	14.2	2.20e-06	0	43	0	848297984	18	4534
2026-01-14 09:21:53.16	85.76	37.93	-28.8	-30.2	14.7	1.50e-06	0	43	0	857735168	18	4272
2026-01-14 09:21:56.17	84.60	38.29	-29.3	-31.5	14.0	7.00e-07	0	43	0	867172352	18	4649
2026-01-14 09:21:59.18	83.40	38.63	-28.9	-30.0	14.5	7.00e-07	0	43	0	876609536	19	4107
2026-01-14 09:22:02.20	82.18	38.96	-29.1	-31.0	14.3	1.50e-06	0	43	0	886046720	18	4493
2026-01-14 09:22:05.21	80.94	39.28	-29.4	-31.8	13.8	6.10e-06	0	43	0	895483904	18	4738
2026-01-14 09:22:08.22	79.68	39.58	-30.0	-32.2	12.9	3.12e-05	0	43	0	904921088	20	4657
2026-01-14 09:22:11.21	78.40	39.88	-30.1	-32.5	12.7	6.10e-05	0	43	0	914358272	20	4742
2026-01-14 09:22:14.23	77.08	40.15	-29.8	-31.7	13.2	2.44e-05	0	42	0	923795456	20	4475
2026-01-14 09:22:17.24	75.75	40.42	-29.8	-31.6	13.3	1.90e-05	0	43	0	933232640	20	4467
2026-01-14 09:22:20.25	74.39	40.66	-29.7	-31.5	13.4	2.05e-05	0	43	0	942669824	20	4434
2026-01-14 09:22:23.25	73.02	40.89	-29.8	-31.7	13.3	2.82e-05	0	43	0	952107008	20	4484
2026-01-14 09:22:26.26	71.63	41.10	-30.4	-33.3	12.3	1.59e-04	0	43	0	961544192	20	5012
2026-01-14 09:22:29.27	70.22	41.30	-30.1	-32.5	12.8	5.18e-05	0	43	0	970981376	20	4747
2026-01-14 09:22:32.28	68.79	41.47	-30.0	-32.4	12.8	5.49e-05	0	43	0	980418560	20	4711
2026-01-14 09:22:35.29	67.35	41.63	-30.3	-33.0	12.5	1.26e-04	0	43	0	989855744	20	4915
2026-01-14 09:22:38.30	65.90	41.76	-30.2	-32.6	12.7	9.61e-05	0	43	0	999292928	20	4790
2026-01-14 09:22:41.31	64.43	41.88	-30.5	-33.1	12.1	2.30e-04	0	43	0	1008730112	21	4841
2026-01-14 09:22:44.31	62.96	41.97	-30.7	-33.5	11.8	4.90e-04	0	43	0	1018167296	21	4993
2026-01-14 09:22:47.33	61.47	42.04	-30.6	-33.2	12.0	2.94e-04	0	43	0	1027604480	21	4881
2026-01-14 09:22:50.34	59.98	42.09	-30.5	-33.1	12.1	2.44e-04	0	43	0	1037041664	21	4833
2026-01-14 09:22:53.35	58.49	42.12	-30.3	-31.9	12.5	1.75e-04	0	43	0	1046478848	22	4343
2026-01-14 09:22:56.36	57.00	42.13	-29.8	-31.6	13.3	1.60e-05	0	43	0	1055916032	20	4460
2026-01-14 09:22:59.36	55.51	42.11	-29.8	-31.7	13.3	2.05e-05	0	43	0	1065353216	20	4494
2026-01-14 09:23:02.38	54.01	42.08	-29.8	-31.7	13.3	2.44e-05	0	42	0	1074790400	20	4483
2026-01-14 09:23:05.38	52.53	42.02	-30.3	-33.1	12.4	1.31e-04	0	43	0	1084227584	20	4940
2026-01-14 09:23:08.39	51.05	41.94	-30.3	-33.1	12.4	1.40e-04	0	43	0	1092616192	20	4942
2026-01-14 09:23:11.40	49.58	41.84	-30.1	-32.5	12.8	6.10e-05	0	43	0	1103101952	20	4747
2026-01-14 09:23:14.41	48.12	41.71	-30.1	-32.4	12.9	7.09e-05	0	43	0	1111490560	20	4707
2026-01-14 09:23:17.41	46.68	41.57	-30.1	-32.4	12.8	7.85e-05	0	43	0	1120927744	20	4717
2026-01-14 09:23:20.43	45.24	41.41	-30.1	-32.5	12.7	5.64e-05	0	43	0	1130364928	20	4763
2026-01-14 09:23:23.43	43.83	41.23	-30.0	-32.1	13.0	6.40e-05	0	43	0	1139802112	20	4614
2026-01-14 09:23:26.43	42.43	41.03	-30.1	-32.3	12.9	6.40e-05	0	43	0	1149239296	20	4683
2026-01-14 09:23:29.44	41.04	40.81	-30.5	-33.0	12.1	2.06e-04	0	43	0	1158676480	21	4809
2026-01-14 09:23:32.45	39.68	40.57	-30.2	-32.2	12.7	1.74e-04	0	43	0	1168113664	21	4535
2026-01-14 09:23:35.45	38.34	40.32	-30.1	-32.5	12.8	2.74e-05	0	43	0	1177550848	20	4733
2026-01-14 09:23:38.47	37.01	40.05	-30.2	-32.7	12.6	1.34e-04	0	43	0	1186988032	20	4801
2026-01-14 09:23:41.47	35.72	39.77	-29.6	-31.7	13.6	7.00e-07	0	43	0	1196425216	19	4596
2026-01-14 09:23:44.48	34.44	39.47	-31.0	-34.2	11.3	1.17e-03	0	43	0	1205862400	21	5250
2026-01-14 09:23:47.49	33.19	39.16	-29.8	-31.7	13.2	2.67e-05	0	43	0	1215299584	20	4500
2026-01-14 09:23:50.49	31.96	38.84	-30.0	-32.1	13.0	3.96e-05	0	43	0	1224736768	20	4621
2026-01-14 09:23:53.50	30.76	38.51	-29.4	-30.7	13.9	9.10e-06	0	43	0	1234173952	20	4185
2026-01-14 09:23:56.51	29.58	38.16	-29.3	-30.9	14.0	3.00e-06	0	43	0	1243611136	19	4353
2026-01-14 09:23:59.51	28.43	37.81	-29.8	-32.1	13.3	2.28e-05	0	43	0	1253048320	19	4729
2026-01-14 09:24:02.51	27.31	37.45	-29.1	-30.4	14.3	7.00e-07	0	43	0	1262485504	19	4221
2026-01-14 09:24:05.51	26.21	37.07	-29.7	-32.0	13.4	1.14e-05	0	43	0	1271922688	19	4686
2026-01-14 09:24:08.52	25.13	36.69	-29.5	-31.1	13.5	2.82e-05	0	43	0	1281359872	20	4296
2026-01-14 09:24:11.54	24.07	36.31	-28.2	-29.4	15.4	0.00e+00	0	43	0	1290797056	17	4153
2026-01-14 09:24:14.55	23.05	35.91	-30.0	-32.7	12.9	4.27e-05	0	43	0	1300234240	19	4937
2026-01-14 09:24:17.57	22.04	35.52	-28.6	-30.0	14.6	7.00e-07	0	43	0	1309671424	18	4200
2026-01-14 09:24:20.58	21.06	35.11	-27.9	-29.3	15.7	0.00e+00	0	43	0	1319108608	16	4240
2026-01-14 09:24:23.59	20.11	34.71	-29.5	-32.0	13.6	4.50e-06	0	43	0	1328545792	18	4794
2026-01-14 09:24:26.60	19.18	34.30	-29.2	-30.8	14.0	1.50e-06	0	43	0	1337982976	19	4346
2026-01-14 09:24:29.61	18.27	33.88	-28.8	-29.9	14.5	7.00e-07	0	43	0	1347420160	19	4083
2026-01-14 09:24:32.61	17.39	33.47	-29.7	-31.9	13.3	6.10e-06	0	43	0	1356857344	19	4686
2026-01-14 09:24:35.63	16.53	33.05	-28.9	-30.1	14.3	7.00e-07	0	43	0	1365245952	19	4148
2026-01-14 09:24:38.64	15.69	32.63	-28.3	-29.2	15.2	0.00e+00	0	43	0	1374683136	18	3995
2026-01-14 09:24:41.65	14.88	32.21	-28.4	-30.0	15.0	7.00e-07	0	43	0	1385168896	17	4309
2026-01-14 09:24:44.66	14.08	31.79	-28.2	-29.6	15.2	0.00e+00	0	43	0	1393557504	17	4206
2026-01-14 09:24:47.67	13.30	31.37	-28.1	-29.3	15.4	0.00e+00	0	43	0	1402994688	17	4126
2026-01-14 09:24:50.69	12.55	30.95	-28.5	-30.2	14.9	7.00e-07	0	43	0	1412431872	17	4371
2026-01-14 09:24:53.70	11.81	30.53	-28.7	-30.6	14.6	7.00e-07	0	43	0	1421869056	17	4490
2026-01-14 09:24:56.71	11.10	30.11	-28.4	-29.9	15.0	0.00e+00	0	43	0	1431306240	17	4300
2026-01-14 09:24:59.71	10.40	29.69	-28.4	-30.0	14.9	7.00e-07	0	43	0	1440743424	17	4315
2026-01-14 09:25:02.71	9.72	29.28	-28.8	-31.0	14.4	1.50e-06	0	43	0	1450180608	17	4615
2026-01-14 09:25:05.72	9.06	28.86	-28.1	-29.4	15.3	0.00e+00	0	43	0	1459617792	17	4142
2026-01-14 09:25:08.73	8.42	28.45	-27.7	-28.9	15.8	0.00e+00	0	43	0	1469054976	16	4122
2026-01-14 09:25:11.73	7.79	28.04	-28.1	-29.8	15.3	0.00e+00	0	43	0	1478492160	16	4361
2026-01-14 09:25:14.73	7.18	27.64	-28.1	-29.7	15.3	0.00e+00	0	43	0	1487929344	16	4361
2026-01-14 09:25:17.74	6.58	27.23	-28.3	-30.3	15.0	0.00e+00	0	43	0	1497366528	16	4536
2026-01-14 09:25:20.74	6.00	26.83	-27.8	-29.1	15.7	0.00e+00	0	43	0	1506803712	16	4198
2026-01-14 09:25:23.76	5.43	26.43	-27.6	-28.7	15.8	0.00e+00	0	43	0	1516240896	16	4089
2026-01-14 09:25:26.77	4.88	26.03	-27.4	-28.3	16.1	0.00e+00	0	43	0	1525678080	16	3970
2026-01-14 09:25:29.78	4.34	25.63	-27.5	-28.5	16.0	0.00e+00	0	43	0	1535115264	16	4016
2026-01-14 09:25:32.79	3.82	25.24	-27.1	-28.0	16.3	0.00e+00	0	43	0	1544552448	15	4024
2026-01-14 09:25:35.80	3.31	24.85	-27.3	-28.5	16.1	0.00e+00	0	43	0	1553989632	15	4136
2026-01-14 09:25:38.80	2.81	24.47	-27.7	-29.4	15.5	0.00e+00	0	43	0	1563426816	15	4404
2026-01-14 09:25:41.82	2.32	24.09	-28.1	-29.9	15.2	0.00e+00	0	43	0	1572864000	16	4412
2026-01-14 09:25:44.82	1.85	23.71	-27.9	-29.4	15.4	0.00e+00	0	43	0	1582301184	16	4273
2026-01-14 09:25:47.83	1.38	23.34	-27.9	-29.3	15.5	0.00e+00	0	43	0	1591738368	16	4257
2026-01-14 09:25:50.84	0.93	22.96	-27.7	-28.9	15.7	0.00e+00	0	43	0	1601175552	16	4143
2026-01-14 09:25:53.85	0.49	22.59	-27.7	-28.9	15.7	0.00e+00	0	43	0	1610612736	16	4131
2026-01-14 09:25:56.86	0.06	22.23	-27.5	-28.5	15.9	0.00e+00	0	43	0	1620049920	16	4041
2026-01-14 09:25:59.86	359.64	21.87	-27.0	-28.0	16.3	0.00e+00	0	43	0	1629487104	15	4002
2026-01-14 09:26:02.86	359.23	21.51	-27.0	-27.9	16.3	7.00e-07	0	43	0	1637875712	15	3993
2026-01-14 09:26:05.87	358.83	21.16	-27.2	-28.3	16.1	1.50e-06	0	43	0	1647312896	15	4098
2026-01-14 09:26:08.88	358.43	20.81	-27.4	-28.7	15.9	0.00e+00	0	43	0	1656750080	15	4196
2026-01-14 09:26:11.89	358.05	20.46	-27.7	-29.4	15.5	0.00e+00	0	43	0	1666187264	15	4399
2026-01-14 09:26:14.89	357.68	20.12	-27.7	-29.4	15.4	0.00e+00	0	43	0	1675624448	15	4397
2026-01-14 09:26:17.91	357.31	19.77	-27.5	-29.1	15.6	0.00e+00	0	43	0	1685061632	15	4299
2026-01-14 09:26:20.91	356.95	19.44	-27.2	-28.3	16.0	0.00e+00	0	43	0	1694498816	15	4082
2026-01-14 09:26:23.93	356.60	19.10	-27.2	-28.3	16.0	0.00e+00	0	43	0	1703936000	15	4090
2026-01-14 09:26:26.95	356.26	18.77	-26.9	-27.7	16.3	0.00e+00	0	43	0	1713373184	15	3938
2026-01-14 09:26:29.96	355.92	18.44	-27.3	-28.6	15.9	0.00e+00	0	43	0	1722810368	15	4168
2026-01-14 09:26:32.97	355.60	18.12	-27.6	-29.3	15.4	0.00e+00	0	43	0	1732247552	15	4372
2026-01-14 09:26:35.99	355.28	17.80	-27.8	-29.7	15.2	0.00e+00	0	43	0	1741684736	15	4498
2026-01-14 09:26:39.01	354.96	17.48	-28.3	-30.3	14.8	0.00e+00	0	43	0	1751121920	16	4540
2026-01-14 09:26:42.02	354.65	17.16	-27.9	-29.5	15.2	0.00e+00	0	43	0	1760559104	16	4310
2026-01-14 09:26:45.02	354.36	16.85	-27.9	-29.3	15.3	0.00e+00	0	43	0	1769996288	16	4260
2026-01-14 09:26:48.03	354.06	16.55	-27.9	-29.5	15.1	0.00e+00	0	43	0	1779433472	16	4324
2026-01-14 09:26:51.04	353.78	16.24	-28.1	-29.9	14.9	7.00e-07	0	43	0	1788870656	16	4424
2026-01-14 09:26:54.06	353.49	15.94	-28.2	-30.0	14.8	7.00e-07	0	43	0	1798307840	16	4455
2026-01-14 09:26:57.08	353.22	15.64	-28.4	-30.7	14.4	0.00e+00	0	43	0	1807745024	16	4663
2026-01-14 09:27:00.08	352.95	15.34	-28.6	-30.6	14.1	1.50e-06	0	43	0	1817182208	17	4539
2026-01-14 09:27:03.07	352.68	15.05	-28.6	-30.7	14.1	0.00e+00	0	43	0	1826619392	17	4551
2026-01-14 09:27:06.09	352.42	14.76	-28.7	-30.7	14.1	3.00e-06	0	43	0	1836056576	17	4574
2026-01-14 09:27:09.11	352.17	14.47	-28.7	-30.9	13.9	1.50e-06	0	43	0	1845493760	17	4627
2026-01-14 09:27:12.13	351.92	14.19	-28.7	-30.9	13.9	4.50e-06	0	43	0	1854930944	17	4627
2026-01-14 09:27:15.14	351.68	13.90	-28.7	-30.9	13.9	4.50e-06	0	43	0	1864368128	17	4635
2026-01-14 09:27:18.15	351.44	13.62	-28.7	-30.9	13.9	9.10e-06	0	43	0	1873805312	17	4637
2026-01-14 09:27:21.17	351.20	13.35	-28.7	-30.9	13.9	5.30e-06	0	43	0	1883242496	17	4638
2026-01-14 09:27:24.18	350.97	13.07	-28.7	-30.9	13.9	4.50e-06	0	43	0	1892679680	17	4623
2026-01-14 09:27:27.18	350.75	12.80	-28.7	-30.9	13.9	6.80e-06	0	43	0	1902116864	17	4613
2026-01-14 09:27:30.18	350.53	12.53	-28.6	-30.7	13.9	4.50e-06	0	43	0	1911554048	17	4566
2026-01-14 09:27:33.19	350.31	12.27	-28.6	-30.7	13.9	7.00e-07	0	43	0	1920991232	17	4567
2026-01-14 09:27:36.20	350.10	12.00	-28.8	-31.1	13.7	9.90e-06	0	43	0	1930428416	17	4698
2026-01-14 09:27:39.20	349.89	11.74	-28.9	-31.4	13.5	1.37e-05	0	43	0	1939865600	17	4796
2026-01-14 09:27:42.22	349.68	11.48	-29.0	-31.1	13.3	1.75e-05	0	43	0	1949302784	18	4603
2026-01-14 09:27:45.23	349.48	11.23	-29.0	-31.2	13.2	2.13e-05	0	43	0	1958739968	18	4627
2026-01-14 09:27:48.25	349.28	10.97	-29.2	-31.7	12.9	5.87e-05	0	43	0	1968177152	18	4780
2026-01-14 09:27:51.26	349.09	10.72	-29.3	-31.9	12.8	7.24e-05	0	43	0	1977614336	18	4866
2026-01-14 09:27:54.26	348.90	10.47	-29.4	-32.2	12.6	9.84e-05	0	43	0	1986002944	18	4955
2026-01-14 09:27:57.26	348.71	10.22	-29.4	-31.7	12.6	1.83e-04	0	43	0	1995440128	19	4665
2026-01-14 09:28:00.27	348.53	9.98	-29.5	-31.9	12.5	1.28e-04	0	43	0	2004877312	19	4731
2026-01-14 09:28:03.26	348.35	9.74	-29.4	-31.5	12.6	1.15e-04	0	43	0	2014314496	19	4632
2026-01-14 09:28:06.28	348.17	9.49	-29.4	-31.7	12.5	7.09e-05	0	43	0	2023751680	19	4668
2026-01-14 09:28:09.30	348.00	9.25	-29.3	-31.5	12.6	1.14e-04	0	43	0	2033188864	19	4607
2026-01-14 09:28:12.30	347.82	9.02	-29.4	-31.5	12.6	1.20e-04	0	43	0	2042626048	19	4631
2026-01-14 09:28:15.31	347.66	8.78	-29.6	-32.1	12.2	2.88e-04	0	43	0	2052063232	19	4816
2026-01-14 09:28:18.31	347.49	8.55	-29.3	-31.5	12.5	9.53e-05	0	43	0	2061500416	19	4621
2026-01-14 09:28:21.33	347.33	8.32	-29.3	-31.5	12.5	1.24e-04	0	43	0	2070937600	19	4610
2026-01-14 09:28:24.34	347.17	8.09	-29.3	-31.5	12.5	7.55e-05	0	43	0	2080374784	19	4636
2026-01-14 09:28:27.35	347.01	7.86	-29.4	-31.8	12.3	2.18e-04	0	43	0	2089811968	19	4721
2026-01-14 09:28:30.35	346.86	7.63	-29.5	-31.9	12.2	1.54e-04	0	43	0	2099249152	19	4767
2026-01-14 09:28:33.36	346.70	7.41	-29.4	-31.8	12.2	1.82e-04	0	43	0	2108686336	19	4739
2026-01-14 09:28:36.36	346.55	7.19	-29.8	-32.8	11.5	8.36e-04	0	43	0	2118123520	19	5092

#Closed at: 2026-01-14 09:28:39
#Recorded file [2121 MB]: D:/data/31010_260114_121718.dat