passes_logs/2026/01/14/R2M6_AANII_01/R2M6_AANII_01__20260114_105712_NOAA_21_JPSS-2_rec.log

#Pass ID: 20260114_105712_NOAA 21 (JPSS-2)
#Satellite: NOAA 21 (JPSS-2)
#Configuration: NOAA 21
#almurnet v.1.7.20240730
#Start time: 2026-01-14 10:57:29

#Version: 2.2.20231116
#Station: R2M6_AANII_01
#Location: 30.233357 lon 59.946436 lat
#TLE: 1 54234U 22150A   26013.18009385  .00000056  00000+0  47387-4 0  9997
#TLE: 2 54234  98.7496 314.1019 0000691 303.8246  56.2864 14.19534466164559

#Time	Az	El	Level	Level2	SNR	BER	BlckErr	Temp	State	Recorded	gain1	gain2
2026-01-14 10:57:29.15	180.79	8.25	-33.7	-44.4	3.8	8.46e-01	0	42	0	0	27	12394
2026-01-14 10:57:32.15	180.92	8.49	-34.6	-46.0	3.8	1.49e+00	0	43	104	0	30	13350
2026-01-14 10:57:35.16	181.05	8.73	-34.6	-46.0	3.8	1.49e+00	0	43	104	0	30	13429
2026-01-14 10:57:38.16	181.19	8.97	-34.6	-46.0	3.8	1.49e+00	0	42	104	0	30	13391
2026-01-14 10:57:41.16	181.33	9.22	-34.6	-46.0	3.8	1.49e+00	0	43	104	0	30	13372
2026-01-14 10:57:44.16	181.47	9.46	-34.6	-45.9	3.8	1.49e+00	0	43	104	0	30	13330
2026-01-14 10:57:47.17	181.61	9.71	-34.5	-46.0	3.8	1.49e+00	0	43	104	0	30	13389
2026-01-14 10:57:50.18	181.75	9.96	-34.6	-46.0	3.8	1.49e+00	0	43	104	0	30	13384
2026-01-14 10:57:53.18	181.90	10.22	-34.4	-45.7	3.8	1.49e+00	0	43	104	0	30	13180
2026-01-14 10:57:56.19	182.05	10.47	-34.2	-45.7	3.8	1.49e+00	0	43	104	0	29	13597
2026-01-14 10:57:59.19	182.20	10.73	-34.0	-45.4	3.8	1.49e+00	0	43	104	0	29	13389
2026-01-14 10:58:02.20	182.36	10.99	-34.0	-45.3	3.8	1.49e+00	0	42	104	0	29	13269
2026-01-14 10:58:05.21	182.51	11.26	-33.5	-43.9	3.8	1.49e+00	0	42	104	0	28	11917
2026-01-14 10:58:08.23	182.67	11.52	-31.8	-35.9	7.5	1.44e-01	0	42	0	1048576	25	5758
2026-01-14 10:58:11.23	182.84	11.79	-30.3	-32.6	10.8	3.64e-03	0	42	0	9437184	22	4695
2026-01-14 10:58:14.24	183.00	12.07	-28.7	-30.4	13.5	2.13e-05	0	42	0	18874368	18	4379
2026-01-14 10:58:17.26	183.17	12.34	-27.8	-28.8	14.7	0.00e+00	0	42	0	29360128	17	4058
2026-01-14 10:58:20.26	183.34	12.62	-28.2	-30.3	14.1	2.20e-06	0	42	0	37748736	16	4569
2026-01-14 10:58:23.27	183.52	12.90	-29.5	-32.5	12.2	1.56e-04	0	42	0	47185920	18	5061
2026-01-14 10:58:26.28	183.69	13.19	-29.4	-31.6	12.4	1.61e-04	0	42	0	56623104	19	4675
2026-01-14 10:58:29.29	183.87	13.47	-28.3	-29.4	14.1	1.50e-06	0	42	0	66060288	18	4113
2026-01-14 10:58:32.30	184.06	13.76	-27.7	-29.1	14.9	7.00e-07	0	42	0	75497472	16	4223
2026-01-14 10:58:35.31	184.25	14.06	-27.8	-29.3	14.8	7.00e-07	0	42	0	84934656	16	4274
2026-01-14 10:58:38.31	184.44	14.35	-27.8	-29.4	14.7	2.20e-06	0	42	0	94371840	16	4301
2026-01-14 10:58:41.30	184.63	14.65	-27.9	-29.5	14.7	0.00e+00	0	42	0	103809024	16	4325
2026-01-14 10:58:44.30	184.83	14.96	-27.7	-29.1	15.0	0.00e+00	0	42	0	113246208	16	4230
2026-01-14 10:58:47.31	185.03	15.26	-27.7	-29.1	15.0	0.00e+00	0	42	0	122683392	16	4211
2026-01-14 10:58:50.32	185.24	15.58	-27.6	-28.7	15.2	0.00e+00	0	42	0	132120576	16	4124
2026-01-14 10:58:53.32	185.45	15.89	-27.7	-29.0	15.1	0.00e+00	0	42	0	141557760	16	4183
2026-01-14 10:58:56.33	185.66	16.21	-27.6	-28.9	15.2	0.00e+00	0	42	0	150994944	16	4159
2026-01-14 10:58:59.35	185.88	16.53	-27.7	-29.0	15.1	0.00e+00	0	42	0	160432128	16	4199
2026-01-14 10:59:02.36	186.11	16.86	-27.6	-28.9	15.2	0.00e+00	0	42	0	169869312	16	4161
2026-01-14 10:59:05.37	186.34	17.19	-27.6	-28.7	15.2	0.00e+00	0	42	0	179306496	16	4123
2026-01-14 10:59:08.37	186.57	17.52	-27.5	-28.6	15.4	0.00e+00	0	42	0	188743680	16	4075
2026-01-14 10:59:11.37	186.81	17.86	-27.6	-28.8	15.2	0.00e+00	0	42	0	198180864	16	4143
2026-01-14 10:59:14.37	187.05	18.20	-27.6	-28.8	15.3	0.00e+00	0	42	0	207618048	16	4135
2026-01-14 10:59:17.38	187.30	18.55	-27.7	-29.1	15.1	0.00e+00	0	42	0	217055232	16	4222
2026-01-14 10:59:20.39	187.55	18.90	-27.7	-29.0	15.2	7.00e-07	0	42	0	226492416	16	4208
2026-01-14 10:59:23.41	187.81	19.26	-27.7	-29.0	15.2	0.00e+00	0	42	0	235929600	16	4190
2026-01-14 10:59:26.42	188.08	19.62	-27.7	-29.1	15.1	7.00e-07	0	43	0	245366784	16	4230
2026-01-14 10:59:29.43	188.35	19.99	-27.7	-29.0	15.2	0.00e+00	0	42	0	254803968	16	4198
2026-01-14 10:59:32.43	188.63	20.36	-27.7	-29.0	15.2	7.60e-06	0	42	0	263192576	16	4198
2026-01-14 10:59:35.43	188.92	20.73	-27.5	-28.5	15.5	0.00e+00	0	42	0	272629760	16	4068
2026-01-14 10:59:38.43	189.21	21.11	-27.4	-28.3	15.6	6.80e-06	0	42	0	282066944	16	4022
2026-01-14 10:59:41.44	189.51	21.50	-27.0	-27.9	15.9	3.80e-06	0	42	0	291504128	15	4034
2026-01-14 10:59:44.44	189.81	21.89	-26.7	-27.9	16.2	1.29e-05	0	42	0	300941312	14	4130
2026-01-14 10:59:47.44	190.12	22.28	-26.6	-27.5	16.4	9.10e-06	0	42	0	310378496	14	4035
2026-01-14 10:59:50.46	190.45	22.68	-26.4	-27.3	16.6	0.00e+00	0	42	0	319815680	14	3965
2026-01-14 10:59:53.46	190.78	23.09	-26.5	-27.4	16.6	0.00e+00	0	42	0	329252864	14	3983
2026-01-14 10:59:56.46	191.11	23.50	-26.4	-27.1	16.7	0.00e+00	0	42	0	338690048	14	3919
2026-01-14 10:59:59.48	191.46	23.92	-26.5	-27.3	16.7	0.00e+00	0	42	0	348127232	14	3961
2026-01-14 11:00:02.48	191.82	24.34	-26.5	-27.5	16.6	0.00e+00	0	42	0	357564416	14	4005
2026-01-14 11:00:05.49	192.18	24.77	-26.5	-27.4	16.6	0.00e+00	0	42	0	367001600	14	3997
2026-01-14 11:00:08.50	192.56	25.21	-26.7	-27.8	16.4	0.00e+00	0	42	0	376438784	14	4088
2026-01-14 11:00:11.51	192.94	25.65	-26.7	-27.8	16.4	0.00e+00	0	42	0	385875968	14	4081
2026-01-14 11:00:14.53	193.34	26.10	-26.9	-28.3	16.2	0.00e+00	0	43	0	395313152	14	4212
2026-01-14 11:00:17.53	193.75	26.55	-27.1	-28.7	16.0	0.00e+00	0	43	0	404750336	14	4322
2026-01-14 11:00:20.54	194.16	27.01	-27.2	-28.9	15.8	0.00e+00	0	43	0	414187520	14	4390
2026-01-14 11:00:23.56	194.60	27.48	-27.2	-28.9	15.9	0.00e+00	0	43	0	423624704	14	4390
2026-01-14 11:00:26.56	195.04	27.95	-27.2	-29.0	15.9	0.00e+00	0	43	0	433061888	14	4391
2026-01-14 11:00:29.57	195.49	28.43	-27.2	-28.9	15.9	0.00e+00	0	43	0	442499072	14	4369
2026-01-14 11:00:32.58	195.96	28.91	-27.5	-29.5	15.6	0.00e+00	0	43	0	451936256	14	4538
2026-01-14 11:00:35.59	196.45	29.40	-27.6	-29.3	15.4	0.00e+00	0	43	0	461373440	15	4382
2026-01-14 11:00:38.61	196.95	29.90	-27.4	-28.9	15.6	0.00e+00	0	43	0	470810624	15	4279
2026-01-14 11:00:41.61	197.46	30.41	-27.4	-28.7	15.7	0.00e+00	0	43	0	480247808	15	4222
2026-01-14 11:00:44.61	197.99	30.91	-27.4	-28.9	15.6	0.00e+00	0	43	0	489684992	15	4274
2026-01-14 11:00:47.63	198.53	31.43	-27.3	-28.6	15.8	0.00e+00	0	43	0	499122176	15	4181
2026-01-14 11:00:50.64	199.10	31.96	-27.2	-28.5	15.9	0.00e+00	0	43	0	508559360	15	4148
2026-01-14 11:00:53.64	199.68	32.48	-27.4	-28.9	15.7	0.00e+00	0	43	0	516947968	15	4271
2026-01-14 11:00:56.64	200.28	33.02	-27.7	-29.5	15.4	0.00e+00	0	43	0	526385152	15	4428
2026-01-14 11:00:59.66	200.90	33.56	-27.9	-30.0	15.1	0.00e+00	0	43	0	536870912	15	4582
2026-01-14 11:01:02.67	201.54	34.11	-28.3	-30.4	14.8	0.00e+00	0	43	0	545259520	16	4556
2026-01-14 11:01:05.69	202.21	34.67	-28.4	-30.1	14.7	0.00e+00	0	43	0	554696704	17	4378
2026-01-14 11:01:08.69	202.89	35.22	-28.6	-30.6	14.4	0.00e+00	0	43	0	564133888	17	4519
2026-01-14 11:01:11.69	203.59	35.79	-28.8	-31.1	14.1	2.20e-06	0	43	0	573571072	17	4680
2026-01-14 11:01:14.69	204.33	36.35	-28.8	-31.0	14.1	1.50e-06	0	43	0	583008256	17	4654
2026-01-14 11:01:17.70	205.08	36.93	-29.3	-31.7	13.4	1.22e-05	0	43	0	592445440	18	4763
2026-01-14 11:01:20.71	205.87	37.51	-29.3	-31.8	13.4	1.37e-05	0	43	0	601882624	18	4788
2026-01-14 11:01:23.72	206.68	38.09	-29.4	-31.9	13.4	2.05e-05	0	43	0	611319808	18	4821
2026-01-14 11:01:26.74	207.53	38.68	-29.4	-31.6	13.3	1.44e-05	0	43	0	620756992	19	4599
2026-01-14 11:01:29.75	208.40	39.27	-29.4	-31.4	13.4	2.21e-05	0	43	0	630194176	19	4546
2026-01-14 11:01:32.75	209.30	39.86	-29.5	-31.7	13.2	3.12e-05	0	43	0	639631360	19	4654
2026-01-14 11:01:35.75	210.24	40.45	-29.5	-31.6	13.2	2.44e-05	0	43	0	649068544	19	4605
2026-01-14 11:01:38.77	211.21	41.05	-29.4	-31.5	13.3	1.14e-05	0	43	0	658505728	19	4563
2026-01-14 11:01:41.77	212.22	41.64	-29.5	-31.6	13.3	2.51e-05	0	43	0	667942912	19	4622
2026-01-14 11:01:44.77	213.26	42.24	-29.2	-31.0	13.7	9.10e-06	0	43	0	677380096	19	4424
2026-01-14 11:01:47.78	214.35	42.83	-29.4	-31.5	13.4	6.80e-06	0	43	0	686817280	19	4566
2026-01-14 11:01:50.79	215.47	43.42	-29.6	-31.8	13.1	3.50e-05	0	43	0	696254464	19	4669
2026-01-14 11:01:53.81	216.64	44.01	-29.5	-31.7	13.2	1.98e-05	0	43	0	705691648	19	4631
2026-01-14 11:01:56.81	217.85	44.59	-29.4	-31.5	13.4	1.98e-05	0	43	0	715128832	19	4559
2026-01-14 11:01:59.81	219.09	45.17	-29.2	-30.8	13.8	6.80e-06	0	43	0	724566016	19	4356
2026-01-14 11:02:02.82	220.39	45.74	-29.5	-31.7	13.3	1.83e-05	0	43	0	734003200	19	4611
2026-01-14 11:02:05.82	221.74	46.30	-29.8	-32.3	12.9	4.27e-05	0	43	0	743440384	19	4813
2026-01-14 11:02:08.84	223.13	46.86	-29.9	-32.5	12.8	6.86e-05	0	43	0	752877568	19	4889
2026-01-14 11:02:11.86	224.58	47.40	-30.3	-33.2	12.0	2.28e-04	0	43	0	762314752	20	5031
2026-01-14 11:02:14.87	226.07	47.93	-29.5	-31.2	13.3	1.83e-05	0	43	0	771751936	20	4349
2026-01-14 11:02:17.88	227.62	48.44	-29.4	-31.4	13.5	1.44e-05	0	43	0	781189120	19	4521
2026-01-14 11:02:20.88	229.20	48.93	-29.8	-32.4	12.9	4.42e-05	0	43	0	790626304	19	4845
2026-01-14 11:02:23.88	230.84	49.41	-29.1	-30.7	14.0	3.80e-06	0	43	0	799014912	19	4323
2026-01-14 11:02:26.89	232.54	49.87	-29.4	-31.4	13.5	8.30e-06	0	43	0	808452096	19	4522
2026-01-14 11:02:29.89	234.28	50.30	-29.1	-30.5	14.0	3.80e-06	0	43	0	817889280	19	4273
2026-01-14 11:02:32.89	236.06	50.71	-29.6	-31.8	13.4	8.30e-06	0	43	0	827326464	19	4638
2026-01-14 11:02:35.90	237.90	51.09	-29.8	-31.9	12.9	5.87e-05	0	43	0	836763648	20	4596
2026-01-14 11:02:38.91	239.79	51.45	-28.9	-30.2	14.3	7.00e-07	0	43	0	846200832	19	4186
2026-01-14 11:02:41.92	241.72	51.77	-29.0	-30.5	14.1	1.50e-06	0	43	0	855638016	19	4249
2026-01-14 11:02:44.91	243.67	52.06	-29.2	-30.9	13.8	3.00e-06	0	43	0	865075200	19	4381
2026-01-14 11:02:47.92	245.67	52.32	-28.8	-30.0	14.4	7.00e-07	0	43	0	874512384	19	4110
2026-01-14 11:02:50.91	247.70	52.54	-28.7	-30.2	14.5	6.10e-06	0	43	0	883949568	18	4290
2026-01-14 11:02:53.92	249.76	52.73	-28.5	-29.7	14.8	0.00e+00	0	43	0	893386752	18	4157
2026-01-14 11:02:56.93	251.85	52.89	-29.0	-31.1	14.0	8.30e-06	0	43	0	902823936	18	4541
2026-01-14 11:02:59.94	253.96	53.00	-28.5	-29.8	14.9	6.10e-06	0	43	0	912261120	18	4161
2026-01-14 11:03:02.96	256.09	53.07	-28.4	-29.4	15.0	7.00e-07	0	43	0	921698304	18	4064
2026-01-14 11:03:05.95	258.20	53.11	-28.7	-30.1	14.7	6.10e-06	0	43	0	931135488	18	4241
2026-01-14 11:03:08.96	260.33	53.10	-28.7	-30.2	14.6	0.00e+00	0	43	0	940572672	18	4277
2026-01-14 11:03:11.97	262.46	53.06	-28.6	-29.9	14.8	0.00e+00	0	43	0	950009856	18	4188
2026-01-14 11:03:14.99	264.58	52.97	-28.4	-29.5	14.9	0.00e+00	0	43	0	959447040	18	4103
2026-01-14 11:03:18.00	266.69	52.85	-28.5	-30.4	14.8	0.00e+00	0	43	0	968884224	17	4438
2026-01-14 11:03:21.00	268.76	52.69	-28.4	-30.0	15.0	0.00e+00	0	43	0	978321408	17	4324
2026-01-14 11:03:24.01	270.82	52.49	-29.6	-32.0	13.2	3.20e-05	0	43	0	987758592	19	4743
2026-01-14 11:03:27.02	272.84	52.26	-29.7	-32.2	13.1	1.98e-05	0	43	0	997195776	19	4780
2026-01-14 11:03:30.01	274.82	51.99	-28.9	-30.4	14.2	1.50e-06	0	43	0	1006632960	19	4236
2026-01-14 11:03:33.02	276.78	51.69	-29.0	-30.4	14.1	2.20e-06	0	43	0	1016070144	19	4242
2026-01-14 11:03:36.02	278.69	51.36	-28.7	-30.2	14.6	0.00e+00	0	43	0	1024458752	18	4277
2026-01-14 11:03:39.03	280.56	51.00	-29.1	-31.2	14.0	0.00e+00	0	43	0	1033895936	18	4569
2026-01-14 11:03:42.04	282.38	50.61	-29.5	-31.6	13.5	5.30e-06	0	43	0	1043333120	19	4597
2026-01-14 11:03:45.05	284.16	50.19	-29.5	-31.5	13.5	1.22e-05	0	43	0	1052770304	19	4558
2026-01-14 11:03:48.05	285.88	49.75	-29.8	-32.4	13.1	2.89e-05	0	43	0	1062207488	19	4845
2026-01-14 11:03:51.05	287.55	49.29	-29.1	-30.5	14.2	2.20e-06	0	43	0	1071644672	19	4237
2026-01-14 11:03:54.06	289.18	48.81	-29.7	-32.1	13.3	1.44e-05	0	43	0	1081081856	19	4731
2026-01-14 11:03:57.06	290.75	48.32	-29.6	-31.7	13.5	9.10e-06	0	43	0	1090519040	19	4596
2026-01-14 11:04:00.06	292.27	47.80	-29.3	-31.1	13.9	3.80e-06	0	43	0	1099956224	19	4403
2026-01-14 11:04:03.06	293.74	47.28	-29.7	-31.9	13.4	1.52e-05	0	43	0	1109393408	19	4659
2026-01-14 11:04:06.08	295.17	46.73	-29.6	-31.9	13.4	1.67e-05	0	43	0	1118830592	19	4649
2026-01-14 11:04:09.09	296.55	46.18	-29.5	-31.6	13.6	4.50e-06	0	43	0	1128267776	19	4555
2026-01-14 11:04:12.10	297.88	45.62	-29.5	-31.4	13.7	7.60e-06	0	43	0	1137704960	19	4513
2026-01-14 11:04:15.10	299.16	45.05	-29.6	-31.7	13.6	8.30e-06	0	43	0	1147142144	19	4603
2026-01-14 11:04:18.09	300.39	44.48	-30.1	-32.5	12.7	8.54e-05	0	43	0	1156579328	20	4760
2026-01-14 11:04:21.10	301.59	43.89	-30.7	-33.4	11.7	4.22e-04	0	43	0	1166016512	21	4959
2026-01-14 11:04:24.11	302.74	43.31	-30.3	-32.4	12.4	1.71e-04	0	43	0	1175453696	21	4613
2026-01-14 11:04:27.13	303.86	42.72	-30.3	-32.4	12.4	1.70e-04	0	43	0	1184890880	21	4624
2026-01-14 11:04:30.14	304.93	42.12	-29.8	-31.7	13.2	3.89e-05	0	43	0	1194328064	20	4484
2026-01-14 11:04:33.14	305.96	41.53	-29.2	-30.7	14.1	7.00e-07	0	43	0	1203765248	19	4298
2026-01-14 11:04:36.16	306.96	40.94	-29.8	-32.3	13.2	2.89e-05	0	43	0	1213202432	19	4785
2026-01-14 11:04:39.18	307.92	40.35	-30.5	-33.1	12.0	3.76e-04	0	43	0	1222639616	21	4850
2026-01-14 11:04:42.20	308.85	39.75	-29.9	-31.5	12.9	6.56e-05	0	43	0	1232076800	21	4349
2026-01-14 11:04:45.21	309.75	39.16	-30.1	-32.5	12.7	6.48e-05	0	43	0	1241513984	20	4755
2026-01-14 11:04:48.22	310.61	38.58	-29.6	-31.4	13.4	1.52e-05	0	43	0	1250951168	20	4396
2026-01-14 11:04:51.23	311.44	38.00	-29.9	-32.1	12.8	6.63e-05	0	43	0	1260388352	20	4643
2026-01-14 11:04:54.25	312.25	37.42	-29.1	-30.5	14.2	3.80e-06	0	43	0	1269825536	19	4230
2026-01-14 11:04:57.25	313.03	36.84	-28.9	-30.5	14.5	0.00e+00	0	43	0	1279262720	18	4340
2026-01-14 11:05:00.24	313.77	36.28	-29.3	-31.6	13.8	3.80e-06	0	43	0	1287651328	18	4696
2026-01-14 11:05:03.24	314.50	35.71	-29.3	-31.0	13.9	4.50e-06	0	43	0	1297088512	19	4384
2026-01-14 11:05:06.25	315.20	35.15	-28.9	-30.1	14.4	7.00e-07	0	43	0	1306525696	19	4125
2026-01-14 11:05:09.25	315.87	34.60	-29.3	-31.1	13.8	3.80e-06	0	43	0	1315962880	19	4429
2026-01-14 11:05:12.26	316.53	34.05	-29.0	-30.3	14.3	3.00e-06	0	43	0	1325400064	19	4197
2026-01-14 11:05:15.27	317.16	33.51	-28.5	-29.6	15.0	0.00e+00	0	43	0	1334837248	18	4116
2026-01-14 11:05:18.26	317.78	32.97	-28.6	-29.9	14.8	0.00e+00	0	43	0	1344274432	18	4183
2026-01-14 11:05:21.28	318.37	32.44	-27.9	-28.9	15.6	0.00e+00	0	43	0	1353711616	17	4029
2026-01-14 11:05:24.30	318.95	31.91	-27.8	-29.0	15.8	0.00e+00	0	43	0	1363148800	16	4155
2026-01-14 11:05:27.30	319.51	31.40	-27.9	-29.3	15.6	0.00e+00	0	43	0	1372585984	16	4232
2026-01-14 11:05:30.31	320.05	30.88	-27.6	-28.6	16.0	0.00e+00	0	43	0	1382023168	16	4047
2026-01-14 11:05:33.31	320.57	30.38	-27.4	-28.2	16.2	0.00e+00	0	43	0	1391460352	16	3941
2026-01-14 11:05:36.33	321.09	29.88	-27.7	-28.8	15.9	0.00e+00	0	43	0	1400897536	16	4102
2026-01-14 11:05:39.34	321.58	29.38	-27.9	-29.3	15.6	0.00e+00	0	43	0	1410334720	16	4249
2026-01-14 11:05:42.35	322.06	28.90	-28.1	-29.7	15.4	0.00e+00	0	43	0	1419771904	16	4362
2026-01-14 11:05:45.36	322.53	28.42	-27.9	-29.3	15.6	0.00e+00	0	43	0	1429209088	16	4237
2026-01-14 11:05:48.36	322.98	27.94	-27.6	-28.7	16.0	0.00e+00	0	43	0	1438646272	16	4062
2026-01-14 11:05:51.37	323.42	27.48	-27.7	-29.0	15.8	0.00e+00	0	43	0	1448083456	16	4146
2026-01-14 11:05:54.38	323.85	27.01	-27.7	-28.8	15.8	0.00e+00	0	43	0	1457520640	16	4120
2026-01-14 11:05:57.39	324.26	26.56	-27.5	-28.4	16.1	0.00e+00	0	43	0	1466957824	16	4007
2026-01-14 11:06:00.39	324.67	26.11	-27.4	-28.1	16.2	0.00e+00	0	43	0	1476395008	16	3934
2026-01-14 11:06:03.40	325.06	25.67	-27.4	-28.3	16.1	0.00e+00	0	43	0	1485832192	16	3971
2026-01-14 11:06:06.41	325.44	25.23	-27.5	-28.4	16.1	0.00e+00	0	43	0	1495269376	16	4003
2026-01-14 11:06:09.42	325.82	24.80	-27.6	-28.8	15.9	0.00e+00	0	43	0	1504706560	16	4096
2026-01-14 11:06:12.43	326.18	24.37	-27.6	-28.7	15.9	0.00e+00	0	43	0	1514143744	16	4078
2026-01-14 11:06:15.45	326.54	23.95	-27.9	-29.5	15.4	0.00e+00	0	43	0	1523580928	16	4289
2026-01-14 11:06:18.46	326.88	23.53	-28.1	-29.7	15.3	0.00e+00	0	43	0	1533018112	16	4359
2026-01-14 11:06:21.46	327.22	23.13	-28.2	-30.1	15.1	0.00e+00	0	43	0	1542455296	16	4460
2026-01-14 11:06:24.48	327.55	22.72	-27.8	-29.2	15.6	0.00e+00	0	43	0	1550843904	16	4205
2026-01-14 11:06:27.48	327.87	22.33	-27.7	-28.9	15.7	0.00e+00	0	43	0	1560281088	16	4144
2026-01-14 11:06:30.50	328.18	21.93	-27.6	-28.7	15.8	0.00e+00	0	43	0	1570766848	16	4090
2026-01-14 11:06:33.51	328.49	21.54	-27.7	-28.9	15.7	0.00e+00	0	43	0	1579155456	16	4132
2026-01-14 11:06:36.52	328.79	21.16	-27.8	-29.0	15.7	0.00e+00	0	43	0	1588592640	16	4173
2026-01-14 11:06:39.54	329.08	20.78	-27.7	-29.0	15.7	0.00e+00	0	43	0	1598029824	16	4150
2026-01-14 11:06:42.54	329.36	20.41	-27.8	-29.2	15.5	0.00e+00	0	43	0	1607467008	16	4209
2026-01-14 11:06:45.56	329.64	20.04	-28.0	-29.6	15.3	0.00e+00	0	43	0	1616904192	16	4335
2026-01-14 11:06:48.57	329.91	19.68	-28.1	-29.9	15.1	0.00e+00	0	43	0	1626341376	16	4429
2026-01-14 11:06:51.57	330.18	19.32	-28.2	-30.1	14.9	0.00e+00	0	43	0	1635778560	16	4486
2026-01-14 11:06:54.59	330.44	18.97	-28.0	-29.7	15.2	0.00e+00	0	43	0	1645215744	16	4360
2026-01-14 11:06:57.59	330.69	18.62	-27.9	-29.4	15.3	0.00e+00	0	43	0	1654652928	16	4278
2026-01-14 11:07:00.59	330.94	18.28	-27.9	-29.3	15.3	0.00e+00	0	43	0	1664090112	16	4265
2026-01-14 11:07:03.60	331.19	17.94	-27.8	-29.3	15.4	0.00e+00	0	43	0	1673527296	16	4247
2026-01-14 11:07:06.62	331.43	17.60	-27.8	-29.3	15.4	0.00e+00	0	43	0	1682964480	16	4252
2026-01-14 11:07:09.64	331.66	17.27	-27.7	-29.0	15.5	0.00e+00	0	43	0	1692401664	16	4175
2026-01-14 11:07:12.64	331.89	16.94	-27.8	-29.2	15.4	0.00e+00	0	43	0	1701838848	16	4228
2026-01-14 11:07:15.66	332.11	16.61	-27.9	-29.5	15.2	0.00e+00	0	43	0	1711276032	16	4299
2026-01-14 11:07:18.67	332.33	16.29	-27.9	-29.6	15.1	0.00e+00	0	43	0	1720713216	16	4338
2026-01-14 11:07:21.69	332.55	15.98	-28.1	-29.9	14.9	0.00e+00	0	43	0	1730150400	16	4435
2026-01-14 11:07:24.70	332.76	15.66	-28.0	-29.7	15.0	0.00e+00	0	43	0	1739587584	16	4372
2026-01-14 11:07:27.70	332.97	15.36	-28.1	-29.9	14.9	7.00e-07	0	43	0	1749024768	16	4417
2026-01-14 11:07:30.70	333.17	15.05	-28.2	-30.0	14.8	2.20e-06	0	43	0	1758461952	16	4474
2026-01-14 11:07:33.72	333.37	14.75	-28.3	-30.5	14.5	7.00e-07	0	43	0	1767899136	16	4615
2026-01-14 11:07:36.73	333.57	14.45	-28.4	-30.6	14.5	0.00e+00	0	43	0	1777336320	16	4648
2026-01-14 11:07:39.73	333.76	14.16	-28.4	-30.7	14.4	7.00e-07	0	43	0	1786773504	16	4683
2026-01-14 11:07:42.75	333.95	13.86	-28.8	-31.0	13.9	4.50e-06	0	43	0	1796210688	17	4667
2026-01-14 11:07:45.76	334.13	13.58	-28.6	-30.7	14.0	3.00e-06	0	43	0	1805647872	17	4567
2026-01-14 11:07:48.77	334.32	13.29	-28.6	-30.6	14.1	9.10e-06	0	43	0	1815085056	17	4548
2026-01-14 11:07:51.78	334.49	13.01	-28.5	-30.6	14.1	2.20e-06	0	43	0	1824522240	17	4552
2026-01-14 11:07:54.80	334.67	12.73	-28.6	-30.8	13.8	5.30e-06	0	43	0	1833959424	17	4626
2026-01-14 11:07:57.81	334.84	12.45	-28.8	-31.2	13.6	6.10e-06	0	43	0	1843396608	17	4748
2026-01-14 11:08:00.82	335.01	12.18	-28.7	-31.1	13.6	1.29e-05	0	43	0	1852833792	17	4742
2026-01-14 11:08:03.82	335.18	11.91	-28.7	-31.1	13.6	8.30e-06	0	43	0	1862270976	17	4737
2026-01-14 11:08:06.84	335.34	11.64	-28.8	-31.5	13.3	1.60e-05	0	43	0	1871708160	17	4886
2026-01-14 11:08:09.85	335.51	11.37	-28.8	-31.2	13.5	1.14e-05	0	43	0	1881145344	17	4782
2026-01-14 11:08:12.86	335.67	11.11	-28.9	-31.6	13.3	2.36e-05	0	43	0	1890582528	17	4885
2026-01-14 11:08:15.88	335.82	10.85	-28.8	-31.4	13.3	1.37e-05	0	43	0	1898971136	17	4855
2026-01-14 11:08:18.90	335.98	10.59	-28.9	-31.7	13.1	3.89e-05	0	43	0	1909456896	17	4984
2026-01-14 11:08:21.91	336.13	10.34	-29.1	-31.9	12.6	8.23e-05	0	43	0	1918894080	18	4953
2026-01-14 11:08:24.93	336.28	10.08	-29.0	-31.5	12.8	6.40e-05	0	43	0	1927282688	18	4825
2026-01-14 11:08:27.94	336.42	9.83	-29.1	-31.8	12.6	8.92e-05	0	43	0	1936719872	18	4931
2026-01-14 11:08:30.94	336.57	9.59	-28.7	-30.7	13.3	1.83e-05	0	43	0	1946157056	18	4551
2026-01-14 11:08:33.95	336.71	9.34	-28.9	-31.2	13.0	4.11e-05	0	43	0	1955594240	18	4735
2026-01-14 11:08:36.96	336.85	9.10	-28.8	-31.1	13.0	4.04e-05	0	43	0	1965031424	18	4695
2026-01-14 11:08:39.98	336.99	8.86	-28.8	-31.2	12.9	5.03e-05	0	43	0	1974468608	18	4730
2026-01-14 11:08:43.00	337.13	8.62	-29.0	-31.4	12.9	6.86e-05	0	43	0	1983905792	18	4747
2026-01-14 11:08:46.00	337.26	8.38	-29.1	-31.8	12.6	6.48e-05	0	43	0	1993342976	18	4885
2026-01-14 11:08:49.01	337.39	8.15	-29.5	-32.7	12.0	3.27e-04	0	43	0	2002780160	18	5222
2026-01-14 11:08:52.01	337.52	7.92	-29.0	-31.7	12.5	1.62e-04	0	43	0	2012217344	18	4903
2026-01-14 11:08:55.03	337.65	7.69	-29.2	-32.4	11.9	3.32e-04	0	43	0	2021654528	18	5210
2026-01-14 11:08:58.03	337.78	7.46	-29.0	-31.8	12.5	1.33e-04	0	43	0	2031091712	18	4921
2026-01-14 11:09:01.05	337.90	7.23	-29.1	-32.0	12.2	1.33e-04	0	43	0	2040528896	18	5027
2026-01-14 11:09:04.05	338.02	7.01	-33.7	-45.5	3.8	1.49e+00	0	43	104	2047868928	27	14033

#Closed at: 2026-01-14 11:09:04
#Recorded file [2047 MB]: D:/data/31010_260114_135807.dat