passes_logs/2026/01/14/R2M6_AANII_01/R2M6_AANII_01__20260114_010419_NOAA_21_JPSS-2_rec.log

#Pass ID: 20260114_010419_NOAA 21 (JPSS-2)
#Satellite: NOAA 21 (JPSS-2)
#Configuration: NOAA 21
#almurnet v.1.7.20240730
#Start time: 2026-01-14 01:04:19

#Version: 2.2.20231116
#Station: R2M6_AANII_01
#Location: 30.233357 lon 59.946436 lat
#TLE: 1 54234U 22150A   26013.18009385  .00000056  00000+0  47387-4 0  9997
#TLE: 2 54234  98.7496 314.1019 0000691 303.8246  56.2864 14.19534466164559

#Time	Az	El	Level	Level2	SNR	BER	BlckErr	Temp	State	Recorded	gain1	gain2
2026-01-14 01:04:19.50	14.68	7.02	-33.8	-45.6	3.8	1.49e+00	0	43	0	0	27	14056
2026-01-14 01:04:22.49	14.58	7.25	-32.4	-38.9	5.8	4.43e-01	0	43	0	2097152	24	7612
2026-01-14 01:04:25.50	14.47	7.48	-31.6	-36.3	7.8	9.55e-02	0	43	0	11534336	23	6158
2026-01-14 01:04:28.51	14.36	7.71	-31.0	-35.1	9.3	2.34e-02	0	43	0	22020096	21	5788
2026-01-14 01:04:31.51	14.25	7.94	-30.9	-34.8	9.5	1.41e-02	0	43	0	30408704	21	5669
2026-01-14 01:04:34.52	14.14	8.17	-31.1	-35.0	9.1	2.88e-02	0	43	0	39845888	22	5638
2026-01-14 01:04:37.52	14.02	8.41	-30.8	-34.5	9.8	1.90e-02	0	43	0	49283072	21	5535
2026-01-14 01:04:40.53	13.90	8.65	-30.5	-33.7	10.4	9.40e-03	0	42	0	58720256	21	5183
2026-01-14 01:04:43.54	13.78	8.89	-29.9	-32.9	11.7	5.01e-03	0	42	0	68157440	19	5078
2026-01-14 01:04:46.56	13.66	9.13	-29.2	-31.6	12.9	4.59e-03	0	43	0	77594624	18	4754
2026-01-14 01:04:49.57	13.54	9.38	-29.1	-31.4	13.1	4.50e-03	0	43	0	87031808	18	4672
2026-01-14 01:04:52.56	13.41	9.62	-29.2	-31.5	13.0	3.05e-05	0	43	0	96468992	18	4720
2026-01-14 01:04:55.57	13.28	9.87	-29.2	-31.6	13.0	4.69e-03	0	42	0	105906176	18	4756
2026-01-14 01:04:58.57	13.15	10.12	-29.0	-31.1	13.3	1.29e-05	0	43	0	115343360	18	4596
2026-01-14 01:05:01.58	13.02	10.38	-28.8	-31.0	13.6	1.22e-05	0	43	0	124780544	17	4677
2026-01-14 01:05:04.58	12.88	10.64	-28.7	-30.8	13.8	4.50e-06	0	42	0	134217728	17	4608
2026-01-14 01:05:07.58	12.74	10.89	-28.7	-30.9	13.8	5.30e-06	0	43	0	143654912	17	4632
2026-01-14 01:05:10.57	12.60	11.16	-28.6	-30.6	14.0	3.91e-03	0	43	0	153092096	17	4538
2026-01-14 01:05:13.57	12.46	11.42	-28.5	-30.4	14.1	7.00e-07	0	43	0	162529280	17	4492
2026-01-14 01:05:16.55	12.31	11.68	-28.4	-30.3	14.2	2.20e-06	0	43	0	171966464	17	4436
2026-01-14 01:05:19.55	12.16	11.95	-28.4	-30.6	14.3	0.00e+00	0	43	0	181403648	16	4636
2026-01-14 01:05:22.54	12.01	12.23	-28.3	-30.3	14.5	0.00e+00	0	42	0	189792256	16	4551
2026-01-14 01:05:25.54	11.86	12.50	-28.3	-30.4	14.5	0.00e+00	0	43	0	199229440	16	4571
2026-01-14 01:05:28.53	11.70	12.78	-28.1	-30.0	14.7	0.00e+00	0	42	0	208666624	16	4455
2026-01-14 01:05:31.52	11.54	13.06	-28.0	-30.2	14.7	0.00e+00	0	43	0	218103808	15	4636
2026-01-14 01:05:34.53	11.37	13.34	-28.2	-30.2	14.6	0.00e+00	0	43	0	227540992	16	4530
2026-01-14 01:05:37.54	11.20	13.63	-28.2	-30.1	14.7	0.00e+00	0	42	0	236978176	16	4495
2026-01-14 01:05:40.55	11.03	13.92	-28.3	-30.2	14.6	0.00e+00	0	43	0	246415360	16	4529
2026-01-14 01:05:43.55	10.85	14.22	-28.7	-30.8	14.0	7.00e-07	0	43	0	255852544	17	4586
2026-01-14 01:05:46.56	10.67	14.51	-28.4	-30.6	14.4	1.50e-06	0	43	0	265289728	16	4650
2026-01-14 01:05:49.56	10.48	14.81	-28.8	-31.0	13.9	2.20e-06	0	43	0	274726912	17	4657
2026-01-14 01:05:52.58	10.30	15.12	-28.5	-30.2	14.4	7.00e-07	0	43	0	284164096	17	4404
2026-01-14 01:05:55.58	10.10	15.43	-28.6	-30.5	14.3	2.20e-06	0	43	0	293601280	17	4478
2026-01-14 01:05:58.60	9.91	15.74	-28.4	-30.6	14.5	1.50e-06	0	43	0	303038464	16	4638
2026-01-14 01:06:01.61	9.70	16.05	-28.7	-30.8	14.1	2.20e-06	0	43	0	312475648	17	4583
2026-01-14 01:06:04.63	9.50	16.37	-28.5	-30.3	14.4	7.00e-07	0	43	0	321912832	17	4428
2026-01-14 01:06:07.63	9.29	16.70	-28.4	-30.7	14.6	0.00e+00	0	43	0	331350016	16	4649
2026-01-14 01:06:10.65	9.07	17.02	-28.8	-31.1	14.0	6.10e-06	0	43	0	340787200	17	4673
2026-01-14 01:06:13.65	8.85	17.35	-28.4	-30.5	14.6	0.00e+00	0	43	0	350224384	16	4610
2026-01-14 01:06:16.65	8.63	17.69	-28.4	-30.6	14.6	0.00e+00	0	43	0	359661568	16	4610
2026-01-14 01:06:19.65	8.40	18.02	-28.5	-30.3	14.5	7.00e-07	0	43	0	369098752	17	4417
2026-01-14 01:06:22.66	8.16	18.37	-28.3	-30.3	14.8	7.00e-07	0	43	0	378535936	16	4528
2026-01-14 01:06:25.66	7.92	18.71	-28.3	-30.3	14.8	1.67e-04	0	43	0	387973120	16	4533
2026-01-14 01:06:28.67	7.67	19.07	-28.5	-30.4	14.5	0.00e+00	0	43	0	397410304	17	4438
2026-01-14 01:06:31.68	7.42	19.42	-28.4	-29.9	14.8	2.34e-04	0	43	0	406847488	17	4311
2026-01-14 01:06:34.68	7.16	19.78	-28.4	-30.6	14.7	0.00e+00	0	43	0	415236096	16	4611
2026-01-14 01:06:37.68	6.89	20.15	-27.9	-29.3	15.5	8.39e-05	0	43	0	424673280	16	4245
2026-01-14 01:06:40.68	6.62	20.52	-27.7	-29.5	15.5	9.90e-06	0	43	0	434110464	15	4404
2026-01-14 01:06:43.68	6.34	20.89	-27.4	-28.7	15.9	3.43e-05	0	43	0	443547648	15	4199
2026-01-14 01:06:46.69	6.05	21.27	-27.2	-28.9	16.1	1.11e-04	0	43	0	452984832	14	4367
2026-01-14 01:06:49.71	5.75	21.65	-27.1	-28.7	16.2	0.00e+00	0	43	0	462422016	14	4298
2026-01-14 01:06:52.71	5.45	22.04	-27.2	-28.7	16.2	1.23e-04	0	43	0	471859200	14	4315
2026-01-14 01:06:55.72	5.14	22.44	-26.9	-28.8	16.4	0.00e+00	0	43	0	481296384	13	4434
2026-01-14 01:06:58.73	4.82	22.84	-27.1	-28.7	16.3	0.00e+00	0	43	0	490733568	14	4301
2026-01-14 01:07:01.75	4.49	23.25	-26.9	-28.6	16.6	2.13e-05	0	43	0	500170752	13	4379
2026-01-14 01:07:04.75	4.15	23.65	-27.3	-29.0	16.1	0.00e+00	0	43	0	509607936	14	4384
2026-01-14 01:07:07.75	3.81	24.07	-26.9	-28.2	16.6	3.73e-05	0	43	0	519045120	14	4163
2026-01-14 01:07:10.76	3.45	24.49	-27.1	-28.6	16.3	0.00e+00	0	43	0	528482304	14	4284
2026-01-14 01:07:13.76	3.09	24.92	-27.1	-28.5	16.4	0.00e+00	0	43	0	537919488	14	4260
2026-01-14 01:07:16.76	2.71	25.35	-27.3	-29.1	16.1	0.00e+00	0	43	0	547356672	14	4412
2026-01-14 01:07:19.76	2.33	25.79	-27.5	-28.9	15.9	0.00e+00	0	43	0	556793856	15	4241
2026-01-14 01:07:22.76	1.93	26.23	-27.6	-29.2	15.7	0.00e+00	0	43	0	566231040	15	4336
2026-01-14 01:07:25.77	1.52	26.68	-27.8	-29.6	15.6	0.00e+00	0	43	0	575668224	15	4443
2026-01-14 01:07:28.78	1.10	27.14	-27.9	-30.0	15.4	0.00e+00	0	43	0	585105408	15	4549
2026-01-14 01:07:31.79	0.66	27.60	-28.2	-30.0	15.3	0.00e+00	0	43	0	594542592	16	4417
2026-01-14 01:07:34.80	0.21	28.07	-28.3	-30.2	15.2	7.00e-07	0	43	0	603979776	16	4489
2026-01-14 01:07:37.79	359.76	28.54	-28.3	-30.2	15.2	0.00e+00	0	43	0	613416960	16	4478
2026-01-14 01:07:40.80	359.28	29.02	-28.4	-30.5	15.0	0.00e+00	0	43	0	621805568	16	4569
2026-01-14 01:07:43.80	358.79	29.50	-28.3	-30.3	15.1	0.00e+00	0	43	0	631242752	16	4524
2026-01-14 01:07:46.80	358.29	29.99	-27.8	-29.6	15.6	0.00e+00	0	43	0	640679936	15	4434
2026-01-14 01:07:49.80	357.77	30.49	-27.7	-29.5	15.7	0.00e+00	0	43	0	650117120	15	4399
2026-01-14 01:07:52.80	357.23	30.99	-27.8	-29.5	15.7	0.00e+00	0	43	0	659554304	15	4416
2026-01-14 01:07:55.82	356.67	31.51	-27.7	-29.3	15.8	0.00e+00	0	43	0	668991488	15	4349
2026-01-14 01:07:58.83	356.10	32.02	-27.6	-29.1	15.9	5.49e-05	0	43	0	678428672	15	4300
2026-01-14 01:08:01.83	355.50	32.54	-27.5	-29.0	16.0	0.00e+00	0	43	0	687865856	15	4258
2026-01-14 01:08:04.84	354.89	33.07	-28.0	-30.1	15.4	0.00e+00	0	43	0	697303040	15	4570
2026-01-14 01:08:07.85	354.26	33.60	-28.4	-30.4	15.1	0.00e+00	0	43	0	706740224	16	4547
2026-01-14 01:08:10.85	353.60	34.14	-27.8	-30.0	14.6	0.00e+00	0	43	0	716177408	16	4611
2026-01-14 01:08:13.84	352.93	34.67	-29.1	-31.0	14.1	0.00e+00	0	43	0	725614592	18	4492
2026-01-14 01:08:16.85	352.23	35.22	-29.3	-31.4	14.0	3.80e-06	0	43	0	735051776	18	4633
2026-01-14 01:08:19.85	351.51	35.77	-29.1	-31.2	14.2	2.20e-06	0	43	0	744488960	18	4545
2026-01-14 01:08:22.86	350.76	36.33	-29.2	-31.4	14.0	9.91e-05	0	43	0	753926144	18	4600
2026-01-14 01:08:25.87	349.98	36.89	-29.5	-31.5	13.6	6.80e-06	0	43	0	763363328	19	4535
2026-01-14 01:08:28.89	349.17	37.45	-29.5	-31.5	13.7	2.80e-03	0	43	0	772800512	19	4523
2026-01-14 01:08:31.89	348.34	38.01	-29.7	-32.0	13.3	2.59e-05	0	43	0	782237696	19	4702
2026-01-14 01:08:34.90	347.48	38.58	-29.7	-32.1	13.3	9.23e-04	0	43	0	791674880	19	4709
2026-01-14 01:08:37.90	346.59	39.15	-29.9	-32.4	13.1	2.39e-03	0	43	0	801112064	19	4836
2026-01-14 01:08:40.92	345.66	39.72	-29.8	-32.3	13.1	2.67e-03	0	43	0	810549248	19	4791
2026-01-14 01:08:43.93	344.70	40.29	-29.5	-31.5	13.6	3.61e-03	0	43	0	819986432	19	4546
2026-01-14 01:08:46.93	343.70	40.86	-29.6	-31.8	13.4	1.29e-05	0	43	0	829423616	19	4617
2026-01-14 01:08:49.93	342.68	41.43	-29.7	-31.9	13.5	4.05e-03	0	43	0	838860800	19	4645
2026-01-14 01:08:52.95	341.60	42.00	-30.0	-32.7	12.9	4.11e-05	0	43	0	847249408	19	4922
2026-01-14 01:08:55.96	340.50	42.57	-30.3	-33.1	12.3	3.57e-03	0	43	0	857735168	20	4966
2026-01-14 01:08:58.96	339.35	43.13	-30.0	-32.3	12.7	6.63e-05	0	43	0	867172352	20	4694
2026-01-14 01:09:01.97	338.17	43.68	-30.0	-32.3	12.8	6.33e-05	0	43	0	875560960	20	4698
2026-01-14 01:09:05.00	336.93	44.24	-30.3	-33.0	12.3	1.78e-04	0	43	0	884998144	20	4937
2026-01-14 01:09:08.00	335.66	44.78	-30.5	-33.0	12.0	3.68e-04	0	43	0	894435328	21	4826
2026-01-14 01:09:11.01	334.34	45.31	-30.2	-32.9	12.5	1.20e-04	0	43	0	903872512	20	4872
2026-01-14 01:09:14.01	332.99	45.83	-30.3	-33.0	12.3	1.88e-04	0	43	0	913309696	20	4930
2026-01-14 01:09:17.02	331.58	46.34	-30.2	-32.7	12.5	9.30e-05	0	43	0	922746880	20	4820
2026-01-14 01:09:20.02	330.13	46.83	-29.9	-32.0	12.9	5.79e-05	0	43	0	932184064	20	4592
2026-01-14 01:09:23.02	328.63	47.31	-29.9	-32.5	13.1	1.29e-05	0	43	0	941621248	19	4840
2026-01-14 01:09:26.04	327.08	47.78	-29.5	-31.6	13.5	3.66e-05	0	43	0	951058432	19	4556
2026-01-14 01:09:29.05	325.49	48.23	-29.6	-31.8	13.4	1.44e-05	0	43	0	960495616	19	4624
2026-01-14 01:09:32.06	323.85	48.65	-29.6	-31.7	13.6	1.29e-05	0	43	0	969932800	19	4587
2026-01-14 01:09:35.07	322.16	49.06	-29.6	-31.7	13.5	1.52e-05	0	43	0	979369984	19	4606
2026-01-14 01:09:38.07	320.44	49.44	-29.4	-31.4	13.7	3.80e-06	0	43	0	988807168	19	4505
2026-01-14 01:09:41.06	318.68	49.79	-29.4	-31.3	13.7	4.50e-06	0	43	0	998244352	19	4465
2026-01-14 01:09:44.07	316.87	50.11	-30.0	-32.3	12.8	4.34e-05	0	43	0	1007681536	20	4683
2026-01-14 01:09:47.08	315.02	50.41	-30.1	-32.7	12.5	1.05e-04	0	43	0	1017118720	20	4808
2026-01-14 01:09:50.10	313.13	50.68	-30.0	-32.7	12.9	4.27e-05	0	43	0	1026555904	19	4920
2026-01-14 01:09:53.09	311.23	50.92	-29.8	-31.9	13.0	4.65e-05	0	43	0	1035993088	20	4550
2026-01-14 01:09:56.09	309.29	51.12	-29.6	-31.8	13.4	1.44e-05	0	43	0	1045430272	19	4646
2026-01-14 01:09:59.10	307.32	51.29	-29.6	-31.8	13.4	8.30e-06	0	43	0	1054867456	19	4631
2026-01-14 01:10:02.10	305.34	51.42	-29.9	-32.4	12.7	5.56e-05	0	43	0	1064304640	19	4845
2026-01-14 01:10:05.10	303.34	51.51	-29.0	-30.9	14.2	1.50e-06	0	43	0	1073741824	18	4460
2026-01-14 01:10:08.10	301.34	51.57	-29.1	-31.0	14.2	0.00e+00	0	43	0	1082130432	18	4484
2026-01-14 01:10:11.12	299.31	51.60	-29.1	-31.1	14.1	7.00e-07	0	43	0	1092616192	18	4515
2026-01-14 01:10:14.12	297.29	51.58	-29.3	-31.5	13.8	2.20e-06	0	44	0	1101004800	18	4666
2026-01-14 01:10:17.14	295.27	51.53	-29.1	-31.1	14.1	5.30e-06	0	44	0	1110441984	18	4534
2026-01-14 01:10:20.15	293.26	51.44	-28.8	-30.9	14.4	0.00e+00	0	43	0	1119879168	17	4574
2026-01-14 01:10:23.15	291.28	51.32	-29.3	-31.5	13.8	1.40e-03	0	43	0	1129316352	18	4660
2026-01-14 01:10:26.16	289.30	51.16	-29.4	-31.9	13.6	2.61e-03	0	43	0	1138753536	18	4784
2026-01-14 01:10:29.15	287.36	50.97	-29.7	-32.1	13.2	1.06e-03	0	43	0	1148190720	19	4746
2026-01-14 01:10:32.16	285.44	50.74	-29.4	-31.8	13.6	4.68e-04	0	43	0	1157627904	18	4757
2026-01-14 01:10:35.17	283.54	50.48	-29.6	-31.8	13.2	2.59e-05	0	44	0	1167065088	19	4641
2026-01-14 01:10:38.17	281.69	50.19	-29.1	-31.0	14.1	2.28e-03	0	44	0	1176502272	18	4514
2026-01-14 01:10:41.18	279.87	49.86	-28.8	-31.0	14.3	0.00e+00	0	43	0	1185939456	17	4611
2026-01-14 01:10:44.19	278.09	49.52	-29.2	-31.3	13.9	3.95e-03	0	43	0	1195376640	18	4583
2026-01-14 01:10:47.19	276.35	49.14	-28.9	-31.0	14.4	3.66e-03	0	43	0	1204813824	17	4630
2026-01-14 01:10:50.20	274.65	48.74	-30.3	-33.2	12.1	1.73e-04	0	44	0	1214251008	20	5006
2026-01-14 01:10:53.21	273.00	48.32	-28.5	-29.8	14.8	0.00e+00	0	44	0	1223688192	18	4150
2026-01-14 01:10:56.22	271.39	47.88	-30.1	-32.6	12.4	5.72e-05	0	43	0	1233125376	20	4814
2026-01-14 01:10:59.22	269.84	47.42	-30.8	-33.5	11.0	3.43e-03	0	44	0	1242562560	22	4922
2026-01-14 01:11:02.22	268.33	46.94	-29.7	-32.1	13.1	2.36e-05	0	44	0	1251999744	19	4722
2026-01-14 01:11:05.23	266.86	46.45	-31.7	-35.4	9.5	7.34e-03	0	44	0	1261436928	23	5546
2026-01-14 01:11:08.24	265.44	45.94	-31.0	-33.9	10.9	2.72e-03	0	44	0	1270874112	22	5040
2026-01-14 01:11:11.25	264.06	45.41	-31.0	-33.9	10.9	2.27e-03	0	44	0	1280311296	22	5031
2026-01-14 01:11:14.26	262.73	44.88	-31.8	-35.8	9.2	2.27e-02	0	44	0	1289748480	23	5715
2026-01-14 01:11:17.26	261.45	44.34	-29.4	-31.4	13.5	3.35e-05	0	44	0	1299185664	19	4514
2026-01-14 01:11:20.28	260.20	43.79	-30.6	-33.5	11.5	3.95e-04	0	44	0	1308622848	21	5009
2026-01-14 01:11:23.29	259.00	43.23	-30.6	-32.9	11.5	1.74e-03	0	44	0	1318060032	22	4686
2026-01-14 01:11:26.30	257.84	42.67	-28.9	-30.6	14.2	1.50e-06	0	44	0	1327497216	18	4391
2026-01-14 01:11:29.30	256.73	42.11	-30.3	-33.3	11.9	2.20e-04	0	43	0	1335885824	20	5051
2026-01-14 01:11:32.30	255.65	41.54	-29.9	-32.1	12.6	1.30e-04	0	44	0	1345323008	20	4628
2026-01-14 01:11:35.32	254.61	40.97	-29.5	-31.5	13.4	1.67e-05	0	43	0	1354760192	19	4546
2026-01-14 01:11:38.32	253.60	40.40	-30.4	-33.6	11.6	4.52e-04	0	44	0	1364197376	20	5149
2026-01-14 01:11:41.34	252.63	39.82	-30.6	-33.5	11.4	1.78e-03	0	44	0	1373634560	21	5017
2026-01-14 01:11:44.34	251.69	39.25	-28.3	-29.8	14.9	0.00e+00	0	44	0	1383071744	17	4261
2026-01-14 01:11:47.35	250.79	38.68	-29.0	-31.3	14.0	7.00e-07	0	44	0	1392508928	17	4717
2026-01-14 01:11:50.36	249.92	38.11	-29.2	-31.4	13.4	8.30e-06	0	44	0	1401946112	18	4652
2026-01-14 01:11:53.37	249.07	37.54	-28.9	-30.7	14.0	3.80e-06	0	43	0	1411383296	18	4421
2026-01-14 01:11:56.38	248.26	36.97	-28.5	-30.2	14.6	0.00e+00	0	44	0	1420820480	17	4390
2026-01-14 01:11:59.38	247.48	36.41	-28.6	-30.4	14.5	0.00e+00	0	44	0	1430257664	17	4451
2026-01-14 01:12:02.39	246.72	35.85	-28.7	-30.3	14.3	0.00e+00	0	44	0	1439694848	18	4322
2026-01-14 01:12:05.40	245.98	35.30	-27.5	-29.0	15.7	1.68e-03	0	44	0	1449132032	15	4287
2026-01-14 01:12:08.41	245.28	34.75	-28.4	-30.4	14.8	5.30e-06	0	44	0	1458569216	16	4573
2026-01-14 01:12:11.42	244.59	34.20	-28.3	-30.2	14.8	1.07e-03	0	44	0	1468006400	16	4518
2026-01-14 01:12:14.43	243.93	33.66	-28.3	-30.2	14.9	3.84e-04	0	44	0	1477443584	16	4510
2026-01-14 01:12:17.43	243.29	33.13	-28.4	-30.4	14.7	0.00e+00	0	44	0	1486880768	16	4573
2026-01-14 01:12:20.43	242.67	32.60	-28.2	-30.2	14.9	7.00e-07	0	44	0	1496317952	16	4492
2026-01-14 01:12:23.43	242.07	32.07	-28.5	-30.7	14.6	0.00e+00	0	44	0	1505755136	16	4663
2026-01-14 01:12:26.43	241.49	31.56	-28.3	-29.9	14.8	0.00e+00	0	44	0	1515192320	17	4305
2026-01-14 01:12:29.43	240.93	31.04	-27.6	-29.3	15.5	0.00e+00	0	44	0	1524629504	15	4358
2026-01-14 01:12:32.43	240.39	30.54	-27.7	-29.4	15.4	7.00e-07	0	44	0	1534066688	15	4407
2026-01-14 01:12:35.45	239.86	30.04	-28.2	-30.2	14.8	0.00e+00	0	44	0	1543503872	16	4508
2026-01-14 01:12:38.45	239.35	29.54	-28.7	-30.8	14.2	0.00e+00	0	43	0	1552941056	17	4579
2026-01-14 01:12:41.47	238.85	29.05	-27.9	-28.8	15.3	7.00e-07	0	44	0	1562378240	17	4014
2026-01-14 01:12:44.48	238.37	28.57	-27.5	-29.2	15.5	0.00e+00	0	43	0	1571815424	15	4333
2026-01-14 01:12:47.49	237.90	28.09	-27.4	-28.7	15.7	0.00e+00	0	44	0	1581252608	15	4219
2026-01-14 01:12:50.50	237.45	27.62	-27.4	-28.7	15.7	0.00e+00	0	44	0	1589641216	15	4208
2026-01-14 01:12:53.50	237.01	27.15	-27.3	-29.1	15.7	0.00e+00	0	43	0	1599078400	14	4443
2026-01-14 01:12:56.50	236.59	26.70	-27.4	-29.2	15.7	0.00e+00	0	44	0	1608515584	14	4461
2026-01-14 01:12:59.52	236.17	26.24	-27.2	-28.8	15.9	0.00e+00	0	43	0	1617952768	14	4355
2026-01-14 01:13:02.52	235.77	25.79	-27.3	-29.2	15.7	0.00e+00	0	44	0	1627389952	14	4454
2026-01-14 01:13:05.53	235.38	25.35	-27.4	-29.4	15.6	0.00e+00	0	43	0	1636827136	14	4523
2026-01-14 01:13:08.53	235.00	24.92	-27.7	-29.6	15.2	0.00e+00	0	43	0	1646264320	15	4457
2026-01-14 01:13:11.54	234.63	24.49	-27.8	-29.7	15.1	0.00e+00	0	44	0	1655701504	15	4478
2026-01-14 01:13:14.55	234.27	24.06	-27.6	-29.4	15.2	7.00e-07	0	43	0	1665138688	15	4421
2026-01-14 01:13:17.56	233.92	23.64	-27.7	-29.5	15.2	7.00e-07	0	43	0	1674575872	15	4434
2026-01-14 01:13:20.57	233.58	23.23	-27.3	-29.2	15.6	1.03e-03	0	43	0	1684013056	14	4450
2026-01-14 01:13:23.57	233.24	22.82	-27.3	-29.2	15.6	0.00e+00	0	43	0	1693450240	14	4464
2026-01-14 01:13:26.57	232.92	22.42	-27.5	-29.0	15.4	3.72e-04	0	44	0	1702887424	15	4305
2026-01-14 01:13:29.58	232.61	22.02	-27.3	-29.1	15.6	2.56e-04	0	44	0	1712324608	14	4429
2026-01-14 01:13:32.59	232.30	21.63	-27.2	-28.9	15.7	0.00e+00	0	43	0	1721761792	14	4382
2026-01-14 01:13:35.60	232.00	21.25	-27.0	-28.6	15.9	2.52e-04	0	43	0	1731198976	14	4295
2026-01-14 01:13:38.60	231.71	20.86	-26.8	-28.5	16.1	0.00e+00	0	43	0	1740636160	13	4385
2026-01-14 01:13:41.61	231.43	20.49	-26.8	-28.5	16.2	3.07e-04	0	43	0	1750073344	13	4376
2026-01-14 01:13:44.62	231.15	20.11	-26.8	-28.4	13.6	1.50e-04	0	43	0	1759510528	13	4369
2026-01-14 01:13:47.63	230.88	19.75	-27.2	-28.9	15.7	0.00e+00	0	43	0	1768947712	14	4381
2026-01-14 01:13:50.63	230.62	19.38	-27.4	-28.9	15.3	0.00e+00	0	44	0	1778384896	15	4281
2026-01-14 01:13:53.64	230.36	19.03	-27.6	-29.3	15.1	3.92e-03	0	43	0	1787822080	15	4402
2026-01-14 01:13:56.65	230.11	18.67	-27.6	-29.3	15.1	0.00e+00	0	43	0	1797259264	15	4385
2026-01-14 01:13:59.65	229.86	18.32	-27.6	-29.3	15.1	3.41e-03	0	43	0	1806696448	15	4401
2026-01-14 01:14:02.66	229.62	17.98	-27.5	-29.2	15.1	0.00e+00	0	43	0	1816133632	15	4370
2026-01-14 01:14:05.67	229.39	17.64	-27.5	-29.1	15.2	2.97e-03	0	44	0	1825570816	15	4349
2026-01-14 01:14:08.68	229.16	17.30	-27.6	-29.3	15.0	3.41e-03	0	44	0	1833959424	15	4406
2026-01-14 01:14:11.69	228.93	16.97	-27.6	-29.3	15.0	3.97e-03	0	43	0	1843396608	15	4382
2026-01-14 01:14:14.69	228.72	16.64	-27.7	-29.7	14.8	3.88e-03	0	43	0	1852833792	15	4506
2026-01-14 01:14:17.71	228.50	16.32	-27.8	-29.8	14.8	0.00e+00	0	44	0	1862270976	15	4527
2026-01-14 01:14:20.72	228.29	15.99	-27.6	-29.5	14.9	4.15e-03	0	43	0	1871708160	15	4439
2026-01-14 01:14:23.72	228.09	15.68	-27.6	-29.3	14.9	0.00e+00	0	43	0	1881145344	15	4394
2026-01-14 01:14:26.72	227.89	15.37	-27.7	-29.5	14.8	3.69e-03	0	43	0	1890582528	15	4454
2026-01-14 01:14:29.73	227.69	15.06	-27.7	-29.7	14.7	4.08e-03	0	43	0	1900019712	15	4519
2026-01-14 01:14:32.75	227.50	14.75	-28.0	-30.3	14.3	1.50e-06	0	43	0	1909456896	15	4688
2026-01-14 01:14:35.74	227.31	14.45	-28.3	-30.4	14.1	3.58e-03	0	44	0	1918894080	16	4610
2026-01-14 01:14:38.73	227.13	14.15	-28.2	-30.3	14.2	7.00e-07	0	43	0	1928331264	16	4580
2026-01-14 01:14:41.72	226.95	13.86	-28.3	-30.5	14.0	7.00e-07	0	43	0	1937768448	16	4633
2026-01-14 01:14:44.72	226.78	13.57	-28.3	-30.5	14.0	2.20e-06	0	43	0	1947205632	16	4653
2026-01-14 01:14:47.74	226.60	13.28	-28.3	-30.5	14.0	7.00e-07	0	43	0	1956642816	16	4661
2026-01-14 01:14:50.73	226.44	12.99	-28.2	-30.4	14.1	1.50e-06	0	43	0	1966080000	16	4608
2026-01-14 01:14:53.73	226.27	12.71	-28.2	-30.4	14.0	3.00e-06	0	43	0	1975517184	16	4615
2026-01-14 01:14:56.73	226.11	12.43	-28.2	-30.2	14.1	1.50e-06	0	43	0	1984954368	16	4567
2026-01-14 01:14:59.74	225.95	12.15	-28.4	-30.9	13.7	5.30e-06	0	43	0	1994391552	16	4765
2026-01-14 01:15:02.74	225.79	11.88	-28.1	-30.2	14.1	7.00e-07	0	43	0	2003828736	16	4542
2026-01-14 01:15:05.75	225.64	11.61	-28.0	-30.4	14.1	1.50e-06	0	43	0	2013265920	15	4743
2026-01-14 01:15:08.76	225.49	11.34	-28.4	-30.8	13.7	7.00e-07	0	43	0	2022703104	16	4742
2026-01-14 01:15:11.77	225.34	11.07	-28.3	-30.5	13.9	1.37e-05	0	43	0	2032140288	16	4646
2026-01-14 01:15:14.78	225.20	10.81	-28.4	-30.7	13.7	5.30e-06	0	43	0	2040528896	16	4728
2026-01-14 01:15:17.80	225.05	10.55	-28.4	-30.3	13.6	1.60e-05	0	43	0	2049966080	17	4481
2026-01-14 01:15:20.80	224.91	10.29	-28.5	-30.6	13.4	1.90e-05	0	43	0	2059403264	17	4581
2026-01-14 01:15:23.80	224.78	10.03	-28.5	-30.7	13.3	2.21e-05	0	43	0	2068840448	17	4592
2026-01-14 01:15:26.82	224.64	9.78	-28.7	-31.0	13.2	3.35e-05	0	44	0	2078277632	17	4711
2026-01-14 01:15:29.82	224.51	9.53	-28.9	-31.5	12.8	4.88e-05	0	43	0	2087714816	17	4881
2026-01-14 01:15:32.83	224.38	9.28	-28.8	-31.4	12.9	5.18e-05	0	43	0	2097152000	17	4846
2026-01-14 01:15:35.84	224.25	9.03	-28.9	-31.5	12.7	6.10e-05	0	43	0	2106589184	17	4889
2026-01-14 01:15:38.85	224.13	8.79	-28.9	-31.7	12.6	9.30e-05	0	43	0	2116026368	17	4971
2026-01-14 01:15:41.85	224.01	8.55	-29.3	-32.1	12.0	2.27e-04	0	43	0	2125463552	18	5002
2026-01-14 01:15:44.87	223.89	8.31	-29.2	-31.9	12.1	3.41e-04	0	43	0	2134900736	18	4932
2026-01-14 01:15:47.87	223.77	8.07	-29.4	-32.4	11.7	4.66e-03	0	43	0	2144337920	18	5097
2026-01-14 01:15:50.90	223.65	7.83	-29.3	-32.2	11.8	4.07e-04	0	43	0	2153775104	18	5039
2026-01-14 01:15:53.91	223.54	7.60	-29.3	-32.3	11.8	3.63e-03	0	43	0	2163212288	18	5051
2026-01-14 01:15:56.92	223.42	7.37	-29.4	-32.6	11.5	3.70e-03	0	43	0	2172649472	18	5174
2026-01-14 01:15:59.93	223.31	7.14	-29.5	-32.2	11.4	2.86e-03	0	43	0	2182086656	19	4923
2026-01-14 01:16:02.93	223.20	6.91	-33.8	-46.0	3.8	1.49e+00	0	43	104	2184183808	27	14622

#Closed at: 2026-01-14 01:16:03
#Recorded file [2184 MB]: D:/data/31010_260114_040421.dat