passes_logs/2026/01/14/R2M6_AANII_01/R2M6_AANII_01__20260114_013402_SUOMI_NPP_rec.log

#Pass ID: 20260114_013402_SUOMI NPP
#Satellite: SUOMI NPP
#Configuration: NPP
#almurnet v.1.7.20240730
#Start time: 2026-01-14 01:34:04

#Version: 2.2.20231116
#Station: R2M6_AANII_01
#Location: 30.233357 lon 59.946436 lat
#TLE: 1 37849U 11061A   26013.27136842  .00000065  00000+0  51889-4 0  9990
#TLE: 2 37849  98.7808 315.3349 0002489  66.6776 293.4661 14.19524902736466

#Time	Az	El	Level	Level2	SNR	BER	BlckErr	Temp	State	Recorded	gain1	gain2
2026-01-14 01:34:04.02	12.99	7.14	-32.4	-38.6	4.6	1.37e+00	0	40	0	0	24	7417
2026-01-14 01:34:07.02	12.82	7.36	-32.5	-39.0	5.9	3.50e-01	0	40	0	1048576	24	7657
2026-01-14 01:34:10.02	12.64	7.58	-32.3	-37.6	7.0	1.77e-01	0	41	0	7340032	24	6656
2026-01-14 01:34:13.03	12.47	7.80	-32.2	-37.3	7.3	1.16e-01	0	41	0	12582912	24	6440
2026-01-14 01:34:16.04	12.29	8.02	-32.2	-37.2	7.4	1.56e-01	0	41	0	17825792	24	6396
2026-01-14 01:34:19.05	12.11	8.25	-31.5	-34.7	9.7	1.61e-02	0	41	0	24117248	23	5226
2026-01-14 01:34:22.06	11.92	8.48	-31.2	-34.1	10.6	4.09e-03	0	41	0	29360128	22	5041
2026-01-14 01:34:25.07	11.74	8.71	-31.3	-34.6	10.2	5.74e-03	0	41	0	35651584	22	5265
2026-01-14 01:34:28.08	11.55	8.94	-31.4	-34.6	10.3	5.98e-03	0	41	0	40894464	22	5252
2026-01-14 01:34:31.09	11.35	9.17	-31.3	-33.9	10.5	5.67e-03	0	41	0	46137344	23	4850
2026-01-14 01:34:34.08	11.16	9.40	-31.5	-34.6	10.0	7.07e-03	0	41	0	52428800	23	5149
2026-01-14 01:34:37.09	10.96	9.64	-31.4	-34.7	10.3	4.24e-03	0	42	0	57671680	22	5284
2026-01-14 01:34:40.10	10.75	9.88	-31.2	-34.0	10.8	2.27e-03	0	41	0	62914560	22	4994
2026-01-14 01:34:43.12	10.54	10.12	-31.1	-33.6	11.1	2.18e-03	0	42	0	69206016	22	4810
2026-01-14 01:34:46.13	10.33	10.36	-30.9	-33.5	11.5	6.71e-04	0	42	0	74448896	21	4893
2026-01-14 01:34:49.14	10.12	10.61	-31.1	-33.7	11.1	1.70e-03	0	42	0	80740352	22	4861
2026-01-14 01:34:52.15	9.90	10.85	-30.9	-33.6	11.5	8.67e-04	0	42	0	85983232	21	4899
2026-01-14 01:34:55.17	9.67	11.10	-31.1	-33.6	11.2	4.08e-03	0	42	0	91226112	22	4806
2026-01-14 01:34:58.18	9.45	11.35	-30.7	-33.0	12.0	2.66e-03	0	42	0	97517568	21	4693
2026-01-14 01:35:01.18	9.22	11.60	-31.1	-33.7	11.2	3.88e-03	0	42	0	102760448	22	4830
2026-01-14 01:35:04.19	8.98	11.86	-31.1	-33.5	11.4	1.48e-03	0	42	0	109051904	22	4777
2026-01-14 01:35:07.21	8.74	12.12	-31.1	-33.7	11.2	1.19e-03	0	42	0	114294784	22	4832
2026-01-14 01:35:10.21	8.50	12.37	-30.8	-33.3	11.9	5.77e-04	0	42	0	119537664	21	4767
2026-01-14 01:35:13.22	8.25	12.64	-30.7	-32.8	12.2	2.93e-03	0	42	0	125829120	21	4602
2026-01-14 01:35:16.23	8.00	12.90	-30.6	-32.6	12.4	2.56e-03	0	42	0	131072000	21	4512
2026-01-14 01:35:19.24	7.74	13.17	-30.8	-33.2	11.9	2.94e-03	0	42	0	136314880	21	4752
2026-01-14 01:35:22.24	7.48	13.43	-30.8	-33.3	11.9	3.13e-03	0	42	0	142606336	21	4777
2026-01-14 01:35:25.25	7.21	13.70	-31.2	-33.9	11.1	3.56e-03	0	42	0	147849216	22	4922
2026-01-14 01:35:28.26	6.94	13.98	-31.0	-33.4	11.6	3.17e-03	0	42	0	154140672	22	4707
2026-01-14 01:35:31.28	6.66	14.25	-31.2	-33.8	11.2	3.53e-03	0	42	0	159383552	22	4856
2026-01-14 01:35:34.29	6.37	14.53	-31.3	-34.0	11.1	4.70e-03	0	42	0	164626432	22	4942
2026-01-14 01:35:37.29	6.09	14.81	-30.6	-32.5	12.5	2.83e-03	0	42	0	170917888	21	4500
2026-01-14 01:35:40.29	5.79	15.09	-30.6	-32.4	12.6	2.71e-03	0	42	0	176160768	21	4438
2026-01-14 01:35:43.29	5.49	15.38	-30.5	-32.2	12.8	2.38e-03	0	42	0	181403648	21	4377
2026-01-14 01:35:46.29	5.19	15.66	-30.6	-32.4	12.7	1.03e-04	0	42	0	187695104	21	4448
2026-01-14 01:35:49.30	4.87	15.95	-30.8	-32.9	12.4	9.23e-05	0	42	0	192937984	21	4613
2026-01-14 01:35:52.30	4.55	16.25	-30.8	-33.0	12.3	1.89e-04	0	42	0	199229440	21	4634
2026-01-14 01:35:55.31	4.23	16.54	-30.7	-32.7	12.6	2.84e-03	0	42	0	204472320	21	4535
2026-01-14 01:35:58.32	3.90	16.84	-30.5	-32.1	12.9	2.63e-03	0	42	0	209715200	21	4348
2026-01-14 01:36:01.32	3.56	17.14	-30.5	-32.3	12.8	1.01e-04	0	42	0	216006656	21	4392
2026-01-14 01:36:04.32	3.21	17.44	-30.6	-32.4	12.9	6.33e-05	0	42	0	221249536	21	4420
2026-01-14 01:36:07.32	2.86	17.75	-30.6	-32.4	12.8	5.11e-05	0	42	0	226492416	21	4410
2026-01-14 01:36:10.33	2.50	18.06	-30.4	-31.9	13.2	5.18e-05	0	42	0	232783872	21	4263
2026-01-14 01:36:13.34	2.13	18.37	-30.6	-32.5	12.8	3.73e-05	0	42	0	238026752	21	4441
2026-01-14 01:36:16.35	1.75	18.68	-30.5	-32.1	13.1	4.11e-05	0	43	0	244318208	21	4311
2026-01-14 01:36:19.35	1.37	19.00	-30.6	-32.2	13.0	5.34e-05	0	42	0	249561088	21	4366
2026-01-14 01:36:22.35	0.97	19.32	-30.5	-32.0	13.1	3.73e-05	0	42	0	254803968	21	4294
2026-01-14 01:36:25.37	0.57	19.64	-30.7	-32.7	12.7	6.02e-05	0	43	0	261095424	21	4510
2026-01-14 01:36:28.38	0.16	19.96	-29.8	-31.7	12.8	6.33e-05	0	42	0	266338304	21	4493
2026-01-14 01:36:31.39	359.74	20.29	-30.8	-33.0	12.5	8.01e-05	0	42	0	271581184	21	4609
2026-01-14 01:36:34.40	359.31	20.62	-31.1	-33.1	12.1	5.44e-04	0	42	0	277872640	22	4556
2026-01-14 01:36:37.41	358.87	20.95	-30.8	-32.9	12.6	2.41e-04	0	43	0	283115520	21	4582
2026-01-14 01:36:40.42	358.42	21.29	-30.8	-33.0	12.5	6.84e-04	0	43	0	289406976	21	4606
2026-01-14 01:36:43.43	357.97	21.63	-31.3	-33.8	11.7	1.09e-03	0	43	0	294649856	22	4807
2026-01-14 01:36:46.44	357.50	21.97	-31.0	-33.4	12.2	1.30e-04	0	43	0	299892736	21	4780
2026-01-14 01:36:49.45	357.02	22.31	-31.3	-33.7	11.8	3.83e-04	0	43	0	306184192	22	4764
2026-01-14 01:36:52.45	356.53	22.66	-31.3	-33.9	11.7	8.22e-04	0	43	0	311427072	22	4854
2026-01-14 01:36:55.46	356.02	23.00	-31.3	-33.7	11.9	7.72e-04	0	43	0	317718528	22	4750
2026-01-14 01:36:58.47	355.51	23.35	-30.8	-32.4	12.7	4.80e-04	0	42	0	322961408	22	4323
2026-01-14 01:37:01.48	354.99	23.71	-30.7	-32.7	12.9	3.38e-04	0	43	0	328204288	21	4490
2026-01-14 01:37:04.50	354.45	24.06	-30.4	-31.7	13.5	2.24e-04	0	43	0	334495744	21	4181
2026-01-14 01:37:07.50	353.90	24.42	-30.3	-31.4	13.6	2.34e-04	0	43	0	339738624	21	4107
2026-01-14 01:37:10.49	353.34	24.77	-30.2	-31.6	13.9	1.94e-04	0	43	0	344981504	20	4232
2026-01-14 01:37:13.51	352.76	25.13	-30.6	-32.1	13.3	1.85e-04	0	43	0	351272960	21	4319
2026-01-14 01:37:16.52	352.17	25.49	-31.0	-33.0	12.4	1.98e-04	0	43	0	356515840	22	4489
2026-01-14 01:37:19.52	351.57	25.86	-31.3	-33.6	11.9	5.04e-04	0	43	0	362807296	22	4723
2026-01-14 01:37:22.52	350.95	26.22	-31.4	-34.0	11.7	5.10e-04	0	43	0	368050176	22	4843
2026-01-14 01:37:25.53	350.32	26.59	-31.4	-33.6	11.6	6.74e-04	0	43	0	373293056	23	4633
2026-01-14 01:37:28.53	349.68	26.95	-31.8	-34.9	10.7	3.17e-03	0	43	0	379584512	23	5144
2026-01-14 01:37:31.54	349.01	27.32	-32.1	-35.4	10.0	7.07e-03	0	43	0	384827392	24	5244
2026-01-14 01:37:34.55	348.33	27.69	-31.8	-34.4	10.6	3.64e-03	0	43	0	390070272	24	4862
2026-01-14 01:37:37.54	347.64	28.05	-31.7	-34.6	10.9	2.87e-03	0	43	0	396361728	23	5015
2026-01-14 01:37:40.54	346.94	28.42	-31.8	-34.8	10.8	4.48e-03	0	43	0	401604608	23	5082
2026-01-14 01:37:43.55	346.21	28.79	-31.6	-33.9	11.4	3.32e-03	0	43	0	407896064	23	4732
2026-01-14 01:37:46.56	345.46	29.16	-31.3	-33.8	11.9	2.56e-04	0	43	0	413138944	22	4769
2026-01-14 01:37:49.56	344.71	29.52	-31.6	-34.0	11.5	1.06e-03	0	43	0	418381824	23	4770
2026-01-14 01:37:52.58	343.92	29.89	-31.9	-34.9	10.8	1.82e-03	0	43	0	424673280	23	5114
2026-01-14 01:37:55.59	343.12	30.25	-31.8	-34.7	10.9	1.92e-03	0	43	0	429916160	23	5042
2026-01-14 01:37:58.60	342.31	30.62	-31.5	-33.8	11.6	7.19e-04	0	43	0	435159040	23	4674
2026-01-14 01:38:01.62	341.47	30.98	-31.7	-34.3	11.1	1.78e-03	0	43	0	441450496	23	4871
2026-01-14 01:38:04.63	340.62	31.34	-31.5	-33.7	11.7	1.57e-03	0	43	0	446693376	23	4624
2026-01-14 01:38:07.63	339.75	31.69	-31.4	-33.8	11.9	2.43e-04	0	43	0	452984832	22	4782
2026-01-14 01:38:10.64	338.85	32.04	-31.7	-34.4	11.1	1.15e-03	0	43	0	458227712	23	4919
2026-01-14 01:38:13.65	337.94	32.39	-31.8	-34.8	10.8	2.73e-03	0	43	0	463470592	23	5096
2026-01-14 01:38:16.65	337.01	32.73	-31.6	-34.4	11.0	2.41e-03	0	43	0	469762048	23	4942
2026-01-14 01:38:19.66	336.06	33.07	-32.1	-35.6	9.8	6.49e-03	0	43	0	475004928	24	5382
2026-01-14 01:38:22.66	335.09	33.40	-32.2	-35.7	9.6	1.54e-02	0	43	0	480247808	24	5416
2026-01-14 01:38:25.68	334.10	33.73	-32.7	-37.2	8.2	4.28e-02	0	43	0	486539264	25	6059
2026-01-14 01:38:28.69	333.08	34.05	-33.2	-38.9	6.8	1.57e-01	0	43	0	491782144	26	6983
2026-01-14 01:38:31.69	332.06	34.36	-33.2	-39.2	6.4	2.85e-01	0	43	0	498073600	26	7190
2026-01-14 01:38:34.68	331.01	34.67	-31.9	-34.9	10.4	6.02e-03	0	43	0	503316480	24	5037
2026-01-14 01:38:37.69	329.94	34.96	-32.4	-36.5	9.1	1.04e-02	0	43	0	508559360	24	5771
2026-01-14 01:38:40.70	328.85	35.25	-32.3	-36.2	9.3	2.15e-02	0	43	0	514850816	24	5638
2026-01-14 01:38:43.71	327.74	35.53	-31.9	-35.3	10.3	7.83e-03	0	43	0	520093696	23	5343
2026-01-14 01:38:46.71	326.61	35.80	-32.2	-35.9	9.5	1.87e-02	0	43	0	525336576	24	5537
2026-01-14 01:38:49.72	325.46	36.06	-31.8	-35.0	10.6	6.93e-03	0	43	0	531628032	23	5185
2026-01-14 01:38:52.73	324.30	36.30	-31.4	-34.2	11.6	3.16e-03	0	43	0	536870912	22	4951
2026-01-14 01:38:55.73	323.11	36.54	-31.4	-34.2	11.5	1.38e-03	0	43	0	543162368	22	4952
2026-01-14 01:38:58.74	321.91	36.76	-30.6	-32.5	13.0	6.25e-05	0	43	0	548405248	21	4447
2026-01-14 01:39:01.74	320.70	36.97	-30.8	-32.8	12.7	2.57e-03	0	43	0	553648128	21	4570
2026-01-14 01:39:04.75	319.47	37.16	-30.8	-32.8	12.9	2.47e-03	0	43	0	559939584	21	4540
2026-01-14 01:39:07.77	318.22	37.34	-30.2	-31.8	13.8	1.55e-03	0	43	0	565182464	20	4317
2026-01-14 01:39:10.78	316.96	37.51	-31.1	-33.4	12.1	3.86e-04	0	43	0	571473920	22	4677
2026-01-14 01:39:13.79	315.68	37.66	-29.8	-30.8	14.4	6.36e-04	0	43	0	576716800	20	4034
2026-01-14 01:39:16.79	314.41	37.80	-29.5	-30.7	15.4	1.73e-03	0	43	0	581959680	18	4163
2026-01-14 01:39:19.79	313.12	37.92	-30.0	-31.2	14.4	1.69e-03	0	43	0	588251136	20	4111
2026-01-14 01:39:22.80	311.81	38.02	-30.1	-31.3	14.3	2.63e-03	0	43	0	593494016	20	4144
2026-01-14 01:39:25.81	310.50	38.11	-30.8	-32.6	13.2	2.76e-03	0	43	0	598736896	21	4439
2026-01-14 01:39:28.81	309.19	38.17	-29.9	-30.9	14.6	2.78e-03	0	43	0	605028352	20	4015
2026-01-14 01:39:31.83	307.86	38.23	-29.5	-30.3	15.3	3.19e-03	0	43	0	610271232	19	3948
2026-01-14 01:39:34.83	306.54	38.26	-29.9	-30.9	14.5	0.00e+00	0	43	0	616562688	20	4018
2026-01-14 01:39:37.84	305.21	38.28	-30.0	-31.2	14.3	0.00e+00	0	43	0	621805568	20	4100
2026-01-14 01:39:40.84	303.89	38.28	-31.0	-32.7	12.6	6.33e-05	0	43	0	627048448	22	4393
2026-01-14 01:39:43.85	302.56	38.26	-31.2	-33.5	12.1	1.40e-04	0	43	0	633339904	22	4675
2026-01-14 01:39:46.86	301.23	38.23	-31.5	-33.7	11.7	3.44e-03	0	43	0	638582784	23	4650
2026-01-14 01:39:49.86	299.91	38.17	-30.7	-32.0	13.2	1.88e-03	0	43	0	643825664	22	4169
2026-01-14 01:39:52.87	298.59	38.10	-30.9	-33.0	12.9	2.59e-05	0	43	0	650117120	21	4585
2026-01-14 01:39:55.86	297.29	38.02	-31.5	-33.9	11.4	5.54e-04	0	43	0	655360000	23	4749
2026-01-14 01:39:58.87	295.99	37.91	-32.0	-35.2	10.1	8.70e-03	0	43	0	660602880	24	5172
2026-01-14 01:40:01.88	294.69	37.79	-31.4	-33.8	11.5	1.05e-03	0	43	0	666894336	23	4724
2026-01-14 01:40:04.88	293.41	37.66	-31.6	-34.3	11.0	2.38e-03	0	43	0	672137216	23	4937
2026-01-14 01:40:07.89	292.14	37.51	-32.3	-36.3	9.1	2.33e-02	0	43	0	678428672	24	5728
2026-01-14 01:40:10.90	290.88	37.34	-32.0	-35.2	10.0	9.44e-03	0	43	0	683671552	24	5217
2026-01-14 01:40:13.90	289.63	37.16	-31.7	-34.7	10.7	1.24e-03	0	43	0	688914432	23	5128
2026-01-14 01:40:16.90	288.40	36.96	-32.6	-37.4	7.8	4.89e-02	0	43	0	695205888	25	6281
2026-01-14 01:40:19.90	287.19	36.76	-32.6	-37.4	7.8	9.16e-02	0	43	0	700448768	25	6278
2026-01-14 01:40:22.91	285.98	36.53	-31.2	-33.2	11.4	8.99e-04	0	43	0	705691648	23	4519
2026-01-14 01:40:25.92	284.80	36.30	-31.8	-34.9	10.5	6.81e-04	0	43	0	711983104	23	5180
2026-01-14 01:40:28.92	283.63	36.05	-30.8	-32.3	12.7	2.24e-04	0	43	0	717225984	22	4289
2026-01-14 01:40:31.93	282.48	35.79	-30.3	-32.1	13.6	2.49e-03	0	43	0	723517440	20	4394
2026-01-14 01:40:34.93	281.35	35.53	-30.9	-33.3	12.5	5.95e-05	0	43	0	728760320	21	4720
2026-01-14 01:40:37.93	280.24	35.25	-31.1	-33.5	11.9	2.47e-04	0	43	0	734003200	22	4701
2026-01-14 01:40:40.95	279.15	34.96	-30.5	-32.1	13.2	5.41e-05	0	43	0	740294656	21	4323
2026-01-14 01:40:43.96	278.07	34.66	-31.1	-33.4	11.9	2.47e-04	0	43	0	745537536	22	4683
2026-01-14 01:40:46.97	277.02	34.35	-31.5	-34.5	11.3	2.82e-03	0	43	0	750780416	22	5084
2026-01-14 01:40:49.97	275.99	34.04	-31.0	-32.9	12.3	2.78e-03	0	43	0	757071872	22	4494
2026-01-14 01:40:52.98	274.97	33.72	-30.7	-32.6	12.8	2.10e-03	0	43	0	762314752	21	4494
2026-01-14 01:40:55.98	273.98	33.39	-30.3	-31.9	13.6	2.07e-03	0	43	0	768606208	20	4355
2026-01-14 01:40:59.00	273.00	33.06	-30.6	-32.2	13.0	2.66e-03	0	43	0	773849088	21	4354
2026-01-14 01:41:02.00	272.05	32.72	-30.4	-32.2	13.4	3.50e-04	0	43	0	779091968	20	4445
2026-01-14 01:41:05.00	271.12	32.37	-31.3	-33.7	11.9	1.17e-03	0	43	0	785383424	22	4778
2026-01-14 01:41:08.01	270.21	32.03	-31.0	-32.9	12.3	1.03e-03	0	43	0	790626304	22	4501
2026-01-14 01:41:11.01	269.31	31.67	-31.4	-34.2	11.4	1.03e-03	0	43	0	795869184	22	4983
2026-01-14 01:41:14.01	268.44	31.32	-31.9	-35.2	10.3	5.86e-03	0	43	0	802160640	23	5317
2026-01-14 01:41:17.03	267.58	30.96	-32.5	-36.5	8.4	2.43e-02	0	43	0	807403520	25	5715
2026-01-14 01:41:20.03	266.75	30.60	-31.9	-34.9	10.2	7.00e-03	0	43	0	813694976	24	5069
2026-01-14 01:41:23.05	265.93	30.23	-31.8	-35.0	10.5	2.88e-03	0	43	0	818937856	23	5173
2026-01-14 01:41:26.05	265.13	29.87	-31.3	-33.7	11.7	2.76e-03	0	43	0	824180736	22	4769
2026-01-14 01:41:29.06	264.35	29.50	-30.8	-32.9	12.7	2.10e-03	0	43	0	830472192	21	4570
2026-01-14 01:41:32.07	263.58	29.13	-30.3	-32.1	13.6	9.08e-04	0	43	0	835715072	20	4394
2026-01-14 01:41:35.09	262.83	28.76	-30.6	-32.3	13.1	1.63e-03	0	43	0	842006528	21	4372
2026-01-14 01:41:38.10	262.10	28.39	-31.3	-33.9	11.6	6.07e-04	0	43	0	847249408	22	4824
2026-01-14 01:41:41.10	261.39	28.02	-31.6	-34.2	11.1	2.00e-03	0	43	0	852492288	23	4848
2026-01-14 01:41:44.11	260.69	27.65	-31.0	-32.9	12.4	2.17e-04	0	43	0	858783744	22	4462
2026-01-14 01:41:47.13	260.01	27.28	-31.1	-33.3	12.1	3.32e-04	0	43	0	864026624	22	4613
2026-01-14 01:41:50.14	259.35	26.91	-30.2	-31.4	13.6	1.06e-05	0	43	0	869269504	21	4092
2026-01-14 01:41:53.14	258.70	26.55	-30.4	-31.8	13.4	1.29e-05	0	43	0	875560960	21	4213
2026-01-14 01:41:56.16	258.06	26.18	-29.9	-30.9	14.2	2.20e-06	0	43	0	880803840	20	4036
2026-01-14 01:41:59.17	257.44	25.81	-30.0	-31.3	13.9	4.50e-06	0	43	0	887095296	20	4175
2026-01-14 01:42:02.17	256.84	25.45	-30.2	-31.9	13.6	4.50e-06	0	43	0	892338176	20	4352
2026-01-14 01:42:05.18	256.25	25.09	-30.1	-31.4	13.8	3.00e-06	0	43	0	897581056	20	4209
2026-01-14 01:42:08.19	255.67	24.72	-30.2	-31.8	13.7	5.30e-06	0	43	0	903872512	20	4310
2026-01-14 01:42:11.19	255.10	24.37	-30.1	-31.6	13.7	5.30e-06	0	43	0	909115392	20	4254
2026-01-14 01:42:14.20	254.55	24.01	-30.2	-31.8	13.6	1.14e-05	0	43	0	914358272	20	4327
2026-01-14 01:42:17.21	254.01	23.65	-30.3	-32.2	13.3	1.22e-05	0	43	0	920649728	20	4445
2026-01-14 01:42:20.21	253.49	23.30	-30.6	-32.3	12.9	3.73e-05	0	43	0	925892608	21	4378
2026-01-14 01:42:23.21	252.97	22.95	-30.5	-32.0	13.1	2.51e-05	0	43	0	932184064	21	4290
2026-01-14 01:42:26.21	252.47	22.60	-31.2	-33.5	11.7	1.42e-04	0	43	0	937426944	22	4736
2026-01-14 01:42:29.22	251.98	22.26	-31.1	-33.5	11.7	4.43e-04	0	43	0	942669824	22	4713
2026-01-14 01:42:32.22	251.50	21.91	-31.1	-33.5	11.7	1.07e-03	0	43	0	948961280	22	4732
2026-01-14 01:42:35.22	251.03	21.57	-30.9	-32.9	12.0	1.24e-03	0	43	0	954204160	22	4534
2026-01-14 01:42:38.22	250.57	21.24	-30.2	-31.9	13.4	1.26e-03	0	43	0	959447040	20	4379
2026-01-14 01:42:41.23	250.12	20.90	-30.2	-31.7	13.5	1.56e-03	0	43	0	965738496	20	4316
2026-01-14 01:42:44.24	249.68	20.56	-30.5	-32.3	12.8	4.27e-05	0	43	0	970981376	21	4393
2026-01-14 01:42:47.25	249.24	20.23	-30.4	-32.3	13.2	6.63e-05	0	43	0	977272832	20	4479
2026-01-14 01:42:50.26	248.82	19.90	-29.8	-31.4	14.1	2.67e-04	0	43	0	982515712	19	4279
2026-01-14 01:42:53.26	248.41	19.58	-30.0	-31.7	13.9	1.86e-04	0	43	0	987758592	19	4374
2026-01-14 01:42:56.27	248.01	19.26	-30.5	-32.6	12.9	1.08e-03	0	43	0	994050048	20	4599
2026-01-14 01:42:59.28	247.61	18.94	-31.4	-34.3	11.0	1.90e-03	0	43	0	999292928	22	5060
2026-01-14 01:43:02.28	247.22	18.62	-32.1	-35.7	9.3	1.66e-02	0	43	0	1004535808	24	5433
2026-01-14 01:43:05.29	246.84	18.30	-32.0	-35.3	9.6	1.38e-02	0	43	0	1010827264	24	5259
2026-01-14 01:43:08.29	246.47	17.99	-31.1	-32.8	11.8	1.58e-03	0	43	0	1016070144	23	4382
2026-01-14 01:43:11.29	246.11	17.68	-30.5	-31.6	12.9	5.56e-05	0	43	0	1022361600	22	4090
2026-01-14 01:43:14.30	245.76	17.38	-30.8	-33.0	12.2	1.49e-04	0	43	0	1027604480	21	4637
2026-01-14 01:43:17.31	245.41	17.07	-31.4	-34.4	10.9	1.95e-03	0	43	0	1032847360	22	5072
2026-01-14 01:43:20.32	245.06	16.77	-31.2	-33.8	11.3	1.91e-03	0	43	0	1039138816	22	4855
2026-01-14 01:43:23.32	244.73	16.47	-31.2	-33.7	11.4	1.36e-03	0	43	0	1044381696	22	4793
2026-01-14 01:43:26.33	244.40	16.18	-31.0	-33.1	11.7	1.58e-03	0	43	0	1049624576	22	4601
2026-01-14 01:43:29.34	244.08	15.88	-30.6	-32.5	12.5	8.93e-04	0	43	0	1055916032	21	4468
2026-01-14 01:43:32.35	243.76	15.59	-31.0	-33.6	11.7	1.21e-03	0	43	0	1061158912	21	4874
2026-01-14 01:43:35.35	243.46	15.30	-31.0	-33.2	11.6	1.88e-03	0	43	0	1067450368	22	4645
2026-01-14 01:43:38.36	243.15	15.02	-31.1	-33.7	11.3	3.19e-03	0	43	0	1072693248	22	4809
2026-01-14 01:43:41.35	242.86	14.73	-31.1	-33.5	11.4	2.15e-03	0	43	0	1077936128	22	4740
2026-01-14 01:43:44.35	242.57	14.45	-30.9	-33.5	11.7	1.22e-03	0	43	0	1084227584	21	4838
2026-01-14 01:43:47.35	242.28	14.18	-30.7	-33.0	12.0	9.06e-04	0	43	0	1089470464	21	4659
2026-01-14 01:43:50.35	242.00	13.90	-30.6	-32.5	12.3	1.51e-04	0	43	0	1094713344	21	4486
2026-01-14 01:43:53.36	241.73	13.63	-30.6	-32.5	12.3	1.58e-04	0	43	0	1101004800	21	4508
2026-01-14 01:43:56.36	241.46	13.36	-31.0	-33.4	11.3	1.39e-03	0	43	0	1106247680	22	4745
2026-01-14 01:43:59.37	241.19	13.09	-31.5	-34.5	10.2	5.52e-03	0	43	0	1111490560	23	5062
2026-01-14 01:44:02.38	240.93	12.82	-31.6	-35.0	9.7	1.01e-02	0	43	0	1117782016	23	5298
2026-01-14 01:44:05.38	240.68	12.56	-31.7	-35.2	9.6	9.95e-03	0	43	0	1123024896	23	5384
2026-01-14 01:44:08.39	240.43	12.30	-31.6	-34.9	9.7	1.73e-02	0	43	0	1129316352	23	5276
2026-01-14 01:44:11.39	240.18	12.04	-30.9	-33.1	11.4	1.32e-03	0	43	0	1134559232	22	4649
2026-01-14 01:44:14.40	239.94	11.78	-30.7	-32.9	11.8	4.26e-04	0	43	0	1139802112	21	4674
2026-01-14 01:44:17.41	239.70	11.52	-31.2	-33.9	11.5	3.06e-04	0	43	0	1146093568	21	4934
2026-01-14 01:44:20.42	239.47	11.27	-30.6	-32.7	11.7	3.63e-04	0	43	0	1151336448	21	4571
2026-01-14 01:44:23.43	239.24	11.02	-30.6	-32.8	11.8	4.90e-04	0	43	0	1157627904	21	4616
2026-01-14 01:44:26.44	239.01	10.77	-30.6	-32.9	11.8	3.90e-04	0	43	0	1162870784	21	4668
2026-01-14 01:44:29.45	238.79	10.52	-30.7	-32.9	11.8	5.13e-04	0	43	0	1168113664	21	4667
2026-01-14 01:44:32.45	238.58	10.28	-30.7	-33.1	11.6	6.42e-04	0	43	0	1174405120	21	4739
2026-01-14 01:44:35.46	238.36	10.04	-31.0	-33.9	11.0	3.17e-03	0	43	0	1179648000	21	5064
2026-01-14 01:44:38.46	238.15	9.80	-31.2	-34.1	10.5	7.58e-03	0	43	0	1184890880	22	5027
2026-01-14 01:44:41.46	237.95	9.56	-31.2	-34.1	10.5	6.21e-03	0	43	0	1191182336	22	5045
2026-01-14 01:44:44.47	237.74	9.32	-31.1	-34.0	10.4	7.58e-03	0	43	0	1196425216	22	5072
2026-01-14 01:44:47.48	237.54	9.08	-31.3	-34.8	9.9	5.46e-03	0	43	0	1202716672	22	5361
2026-01-14 01:44:50.50	237.35	8.85	-31.3	-34.6	10.0	5.74e-03	0	43	0	1207959552	22	5255
2026-01-14 01:44:53.51	237.15	8.62	-31.4	-35.0	9.7	1.41e-02	0	43	0	1213202432	22	5467
2026-01-14 01:44:56.53	236.96	8.39	-31.5	-35.2	9.0	2.80e-02	0	43	0	1219493888	23	5498
2026-01-14 01:44:59.53	236.78	8.16	-31.6	-35.4	8.9	2.79e-02	0	43	0	1224736768	23	5564
2026-01-14 01:45:02.54	236.59	7.93	-31.5	-35.1	9.0	2.72e-02	0	43	0	1229979648	23	5458
2026-01-14 01:45:05.54	236.41	7.71	-31.5	-35.1	9.0	2.78e-02	0	43	0	1236271104	23	5465
2026-01-14 01:45:08.55	236.23	7.49	-31.3	-34.9	9.6	1.72e-02	0	43	0	1241513984	22	5457
2026-01-14 01:45:11.55	236.06	7.27	-31.2	-34.5	9.8	1.04e-02	0	43	0	1247805440	22	5287
2026-01-14 01:45:14.57	235.88	7.05	-33.2	-45.4	3.8	9.61e-03	0	43	104	1253048320	26	14739
2026-01-14 01:45:17.58	235.71	6.83	-33.9	-46.1	3.8	1.49e+00	0	43	104	1253048320	28	14565

#Closed at: 2026-01-14 01:45:17
#Recorded file [1253 MB]: D:/data/31010_260114_043405.dat