passes_logs/2026/01/14/R2M6_AANII_01/R2M6_AANII_01__20260114_000851_AQUA_rec.log

#Pass ID: 20260114_000851_AQUA
#Satellite: AQUA
#Configuration: AQUA
#almurnet v.1.7.20240730
#Start time: 2026-01-14 00:08:52

#Version: 2.2.20231116
#Station: R2M6_AANII_01
#Location: 30.233357 lon 59.946436 lat
#TLE: 1 27424U 02022A   26013.25278823  .00000890  00000+0  18808-3 0  9998
#TLE: 2 27424  98.4079 339.6508 0002047  80.3961  24.1839 14.61818714260637

#Time	Az	El	Level	Level2	SNR	BER	BlckErr	Temp	State	Recorded	gain1	gain2
2026-01-14 00:08:52.71	38.49	7.05	-31.2	-36.9	5.2	7.10e-01	0	41	0	0	23	6917
2026-01-14 00:08:54.72	38.76	7.16	-32.1	-38.9	13.2	6.01e-01	0	41	0	0	24	7902
2026-01-14 00:08:56.73	39.04	7.27	-32.2	-39.1	12.7	6.07e-01	0	41	0	3670016	25	7909
2026-01-14 00:08:58.74	39.31	7.39	-31.8	-37.2	14.3	6.03e-01	0	41	0	7340032	25	6660
2026-01-14 00:09:00.74	39.59	7.50	-31.4	-35.7	15.4	6.01e-01	0	41	0	11010048	25	5861
2026-01-14 00:09:02.74	39.87	7.61	-31.3	-35.6	15.8	6.02e-01	0	41	0	14680064	24	5937
2026-01-14 00:09:04.75	40.16	7.72	-31.5	-36.4	15.3	6.01e-01	0	41	0	18350080	24	6294
2026-01-14 00:09:06.76	40.44	7.83	-31.0	-34.7	16.5	6.02e-01	0	41	0	22544384	24	5515
2026-01-14 00:09:08.77	40.73	7.94	-30.8	-34.4	17.1	6.00e-01	0	41	0	26214400	23	5480
2026-01-14 00:09:10.77	41.02	8.05	-30.8	-34.5	17.0	6.01e-01	0	41	0	29884416	23	5484
2026-01-14 00:09:12.78	41.32	8.16	-30.7	-34.1	17.3	6.03e-01	0	41	0	33554432	23	5328
2026-01-14 00:09:14.78	41.61	8.27	-30.7	-34.1	17.3	6.02e-01	0	41	0	37224448	23	5311
2026-01-14 00:09:16.78	41.91	8.38	-30.6	-34.3	17.5	6.02e-01	0	41	0	41418752	22	5527
2026-01-14 00:09:18.79	42.21	8.49	-30.7	-34.5	17.5	5.99e-01	0	42	0	45088768	22	5573
2026-01-14 00:09:20.80	42.51	8.60	-30.6	-34.3	17.6	6.03e-01	0	41	0	48758784	22	5495
2026-01-14 00:09:22.80	42.82	8.71	-30.7	-34.7	17.3	6.02e-01	0	42	0	52428800	22	5687
2026-01-14 00:09:24.80	43.12	8.82	-30.7	-34.5	17.4	6.00e-01	0	42	0	56098816	22	5588
2026-01-14 00:09:26.81	43.43	8.93	-30.8	-34.9	17.2	6.00e-01	0	42	0	59768832	22	5746
2026-01-14 00:09:28.81	43.74	9.03	-30.7	-34.7	17.4	5.99e-01	0	42	0	63438848	22	5652
2026-01-14 00:09:30.82	44.06	9.14	-30.7	-34.6	17.4	6.00e-01	0	42	0	67633152	22	5633
2026-01-14 00:09:32.82	44.38	9.25	-30.5	-34.4	18.0	6.02e-01	0	42	0	71303168	21	5635
2026-01-14 00:09:34.83	44.70	9.36	-30.7	-34.4	17.7	6.01e-01	0	42	0	74973184	22	5519
2026-01-14 00:09:36.84	45.02	9.47	-30.8	-34.8	17.4	6.02e-01	0	42	0	78643200	22	5688
2026-01-14 00:09:38.83	45.34	9.58	-30.9	-34.9	17.4	6.02e-01	0	42	0	82313216	22	5711
2026-01-14 00:09:40.84	45.67	9.69	-30.7	-34.5	17.6	6.01e-01	0	42	0	86507520	22	5554
2026-01-14 00:09:42.84	46.00	9.79	-30.8	-34.8	17.4	6.01e-01	0	42	0	90177536	22	5675
2026-01-14 00:09:44.85	46.33	9.90	-30.6	-34.1	17.9	5.99e-01	0	42	0	93847552	22	5375
2026-01-14 00:09:46.86	46.67	10.01	-30.5	-33.7	18.2	6.02e-01	0	42	0	97517568	22	5243
2026-01-14 00:09:48.86	47.00	10.12	-30.5	-33.8	18.2	6.02e-01	0	42	0	101187584	22	5251
2026-01-14 00:09:50.86	47.34	10.22	-30.5	-33.9	18.1	6.02e-01	0	42	0	104857600	22	5291
2026-01-14 00:09:52.86	47.69	10.33	-30.6	-34.1	18.0	6.01e-01	0	42	0	109051904	22	5366
2026-01-14 00:09:54.87	48.03	10.44	-30.4	-33.5	18.3	6.02e-01	0	42	0	112721920	22	5135
2026-01-14 00:09:56.87	48.38	10.54	-30.3	-33.7	18.5	6.03e-01	0	42	0	116391936	21	5348
2026-01-14 00:09:58.87	48.73	10.65	-30.5	-34.5	18.0	6.02e-01	0	42	0	120061952	21	5647
2026-01-14 00:10:00.87	49.08	10.75	-30.4	-33.9	18.4	6.01e-01	0	42	0	123731968	21	5418
2026-01-14 00:10:02.88	49.44	10.86	-30.3	-33.7	18.5	6.01e-01	0	42	0	127401984	21	5340
2026-01-14 00:10:04.88	49.80	10.96	-30.4	-34.1	18.3	5.99e-01	0	42	0	131596288	21	5482
2026-01-14 00:10:06.88	50.16	11.06	-30.4	-34.0	18.4	6.02e-01	0	42	0	135266304	21	5437
2026-01-14 00:10:08.89	50.52	11.17	-30.4	-33.9	18.4	6.01e-01	0	42	0	138936320	21	5410
2026-01-14 00:10:10.89	50.89	11.27	-30.6	-34.1	18.0	6.01e-01	0	42	0	142606336	22	5375
2026-01-14 00:10:12.89	51.26	11.37	-30.4	-33.4	18.5	6.03e-01	0	42	0	146276352	22	5089
2026-01-14 00:10:14.89	51.63	11.47	-30.4	-33.4	18.5	6.01e-01	0	42	0	149946368	22	5108
2026-01-14 00:10:16.88	52.00	11.57	-30.3	-33.2	18.6	6.00e-01	0	42	0	153616384	22	5028
2026-01-14 00:10:18.89	52.38	11.67	-30.2	-33.5	18.7	6.01e-01	0	42	0	157810688	21	5266
2026-01-14 00:10:20.90	52.76	11.77	-30.1	-33.2	18.9	6.01e-01	0	42	0	161480704	21	5146
2026-01-14 00:10:22.91	53.14	11.87	-30.2	-33.5	18.7	6.01e-01	0	42	0	165150720	21	5255
2026-01-14 00:10:24.91	53.53	11.97	-30.3	-33.6	18.6	6.04e-01	0	42	0	168820736	21	5281
2026-01-14 00:10:26.92	53.92	12.07	-30.3	-33.7	18.6	6.01e-01	0	42	0	172490752	21	5312
2026-01-14 00:10:28.92	54.31	12.17	-30.2	-33.4	18.8	5.99e-01	0	42	0	176685056	21	5224
2026-01-14 00:10:30.92	54.70	12.26	-30.2	-33.5	18.7	6.01e-01	0	42	0	180355072	21	5257
2026-01-14 00:10:32.94	55.10	12.36	-30.3	-33.6	18.7	5.97e-01	0	42	0	184025088	21	5294
2026-01-14 00:10:34.94	55.50	12.45	-30.5	-34.3	18.3	6.01e-01	0	42	0	187695104	21	5569
2026-01-14 00:10:36.95	55.90	12.55	-30.5	-34.2	18.3	6.02e-01	0	42	0	191365120	21	5500
2026-01-14 00:10:38.95	56.31	12.64	-30.4	-33.9	18.5	6.03e-01	0	42	0	195035136	21	5404
2026-01-14 00:10:40.95	56.71	12.73	-30.3	-33.7	18.6	6.02e-01	0	42	0	198705152	21	5339
2026-01-14 00:10:42.96	57.12	12.83	-30.5	-34.3	18.3	6.01e-01	0	43	0	202899456	21	5582
2026-01-14 00:10:44.96	57.53	12.92	-30.1	-33.1	19.0	6.03e-01	0	42	0	206569472	21	5090
2026-01-14 00:10:46.96	57.95	13.01	-30.2	-33.4	18.9	6.01e-01	0	43	0	210239488	21	5196
2026-01-14 00:10:48.96	58.37	13.10	-30.1	-33.2	19.0	6.01e-01	0	42	0	213909504	21	5127
2026-01-14 00:10:50.96	58.79	13.18	-30.1	-33.1	19.0	6.01e-01	0	42	0	217579520	21	5092
2026-01-14 00:10:52.96	59.21	13.27	-30.1	-33.3	18.9	6.00e-01	0	42	0	221773824	21	5151
2026-01-14 00:10:54.97	59.64	13.36	-30.3	-33.6	18.7	6.02e-01	0	42	0	225443840	21	5294
2026-01-14 00:10:56.98	60.07	13.44	-30.4	-34.0	18.5	6.02e-01	0	42	0	229113856	21	5430
2026-01-14 00:10:58.98	60.50	13.53	-30.2	-33.4	18.9	6.03e-01	0	42	0	232783872	21	5221
2026-01-14 00:11:00.99	60.93	13.61	-30.3	-33.5	18.8	6.00e-01	0	43	0	236453888	21	5250
2026-01-14 00:11:03.00	61.37	13.69	-30.3	-33.6	18.7	6.02e-01	0	43	0	240123904	21	5272
2026-01-14 00:11:05.00	61.81	13.77	-30.0	-32.9	19.2	6.03e-01	0	42	0	243793920	21	5009
2026-01-14 00:11:07.00	62.25	13.85	-30.0	-33.3	19.3	6.01e-01	0	43	0	247988224	20	5270
2026-01-14 00:11:09.00	62.69	13.93	-30.0	-33.4	19.2	6.01e-01	0	43	0	251658240	20	5321
2026-01-14 00:11:11.00	63.13	14.00	-30.1	-33.1	19.1	6.02e-01	0	43	0	255328256	21	5076
2026-01-14 00:11:13.01	63.58	14.08	-30.1	-33.1	18.8	6.03e-01	0	42	0	258998272	21	5085
2026-01-14 00:11:15.03	64.04	14.15	-30.1	-33.1	19.1	6.00e-01	0	43	0	262668288	21	5080
2026-01-14 00:11:17.03	64.49	14.23	-30.1	-33.1	19.1	6.00e-01	0	43	0	266862592	21	5083
2026-01-14 00:11:19.04	64.95	14.30	-30.2	-33.4	19.0	6.01e-01	0	42	0	270532608	21	5185
2026-01-14 00:11:21.04	65.40	14.37	-30.1	-33.5	19.2	6.00e-01	0	43	0	274202624	20	5338
2026-01-14 00:11:23.05	65.87	14.44	-30.2	-33.4	19.0	6.02e-01	0	43	0	277872640	21	5197
2026-01-14 00:11:25.05	66.33	14.51	-30.2	-33.3	19.1	6.00e-01	0	42	0	281542656	21	5142
2026-01-14 00:11:27.06	66.79	14.57	-30.0	-33.3	19.3	6.01e-01	0	43	0	285212672	20	5272
2026-01-14 00:11:29.06	67.26	14.64	-30.1	-33.5	19.2	6.01e-01	0	43	0	289406976	20	5346
2026-01-14 00:11:31.07	67.73	14.70	-30.1	-33.0	19.3	6.04e-01	0	43	0	293076992	21	5024
2026-01-14 00:11:33.07	68.20	14.76	-30.0	-33.4	19.3	6.01e-01	0	43	0	296747008	20	5292
2026-01-14 00:11:35.08	68.67	14.82	-30.2	-33.2	19.1	6.01e-01	0	43	0	300417024	21	5110
2026-01-14 00:11:37.09	69.15	14.88	-30.2	-33.2	19.1	6.02e-01	0	43	0	304087040	21	5102
2026-01-14 00:11:39.10	69.63	14.94	-30.1	-33.0	19.2	6.01e-01	0	43	0	307757056	21	5047
2026-01-14 00:11:41.09	70.10	14.99	-30.1	-33.1	19.2	6.02e-01	0	43	0	311951360	21	5088
2026-01-14 00:11:43.11	70.59	15.04	-30.1	-33.1	19.2	6.01e-01	0	43	0	315621376	21	5074
2026-01-14 00:11:45.12	71.07	15.10	-30.2	-33.2	19.1	6.03e-01	0	43	0	319291392	21	5118
2026-01-14 00:11:47.13	71.56	15.15	-30.3	-33.7	18.8	6.02e-01	0	43	0	322961408	21	5281
2026-01-14 00:11:49.13	72.04	15.19	-30.0	-32.8	19.4	5.98e-01	0	43	0	326631424	21	4964
2026-01-14 00:11:51.13	72.53	15.24	-30.0	-33.4	19.3	6.01e-01	0	43	0	330825728	20	5294
2026-01-14 00:11:53.14	73.02	15.28	-30.2	-33.2	19.1	6.02e-01	0	43	0	334495744	21	5099
2026-01-14 00:11:55.14	73.51	15.33	-30.1	-33.0	19.2	6.00e-01	0	43	0	338165760	21	5048
2026-01-14 00:11:57.15	74.00	15.37	-30.3	-33.6	18.8	6.01e-01	0	43	0	341835776	21	5275
2026-01-14 00:11:59.16	74.50	15.41	-30.1	-33.0	19.3	6.02e-01	0	43	0	345505792	21	5020
2026-01-14 00:12:01.16	74.99	15.45	-30.1	-33.0	19.3	6.00e-01	0	43	0	349175808	21	5037
2026-01-14 00:12:03.17	75.49	15.48	-30.1	-33.1	19.2	5.99e-01	0	43	0	353370112	21	5071
2026-01-14 00:12:05.18	75.99	15.52	-30.0	-32.9	19.3	6.02e-01	0	43	0	357040128	21	4992
2026-01-14 00:12:07.19	76.49	15.55	-30.1	-33.5	19.3	6.01e-01	0	43	0	360710144	20	5324
2026-01-14 00:12:09.19	76.99	15.58	-30.2	-33.4	19.0	6.00e-01	0	43	0	364380160	21	5168
2026-01-14 00:12:11.19	77.49	15.61	-30.1	-33.1	19.2	6.03e-01	0	43	0	368050176	21	5075
2026-01-14 00:12:13.20	77.99	15.63	-30.1	-32.9	19.4	6.01e-01	0	43	0	371720192	21	4988
2026-01-14 00:12:15.20	78.49	15.66	-30.1	-32.9	19.3	6.03e-01	0	43	0	375914496	21	5006
2026-01-14 00:12:17.21	79.00	15.68	-30.2	-33.2	19.1	6.01e-01	0	43	0	379584512	21	5112
2026-01-14 00:12:19.21	79.50	15.70	-30.1	-33.4	19.4	6.00e-01	0	43	0	383254528	20	5279
2026-01-14 00:12:21.21	80.01	15.72	-30.2	-33.3	19.1	6.00e-01	0	43	0	386924544	21	5146
2026-01-14 00:12:23.21	80.51	15.73	-30.2	-33.2	19.1	6.04e-01	0	43	0	390594560	21	5112
2026-01-14 00:12:25.22	81.02	15.75	-30.3	-33.5	19.0	5.99e-01	0	43	0	394264576	21	5209
2026-01-14 00:12:27.22	81.52	15.76	-30.3	-33.5	18.9	6.01e-01	0	43	0	398458880	21	5227
2026-01-14 00:12:29.23	82.03	15.77	-30.1	-33.0	19.3	6.01e-01	0	43	0	402128896	21	5015
2026-01-14 00:12:31.23	82.54	15.78	-30.2	-33.3	19.1	6.01e-01	0	43	0	405798912	21	5141
2026-01-14 00:12:33.24	83.05	15.78	-30.1	-33.0	19.3	6.01e-01	0	43	0	409468928	21	5037
2026-01-14 00:12:35.24	83.55	15.79	-30.0	-32.8	19.4	6.04e-01	0	42	0	413138944	21	4967
2026-01-14 00:12:37.23	84.06	15.79	-30.1	-33.1	19.2	6.00e-01	0	43	0	416808960	21	5076
2026-01-14 00:12:39.22	84.56	15.79	-30.1	-33.0	19.2	6.00e-01	0	43	0	421003264	21	5032
2026-01-14 00:12:41.22	85.07	15.79	-30.0	-32.8	19.4	6.00e-01	0	43	0	424673280	21	4973
2026-01-14 00:12:43.23	85.58	15.78	-30.1	-33.0	19.2	6.03e-01	0	43	0	428343296	21	5042
2026-01-14 00:12:45.23	86.09	15.78	-30.2	-33.2	19.1	6.01e-01	0	43	0	432013312	21	5129
2026-01-14 00:12:47.22	86.59	15.77	-30.3	-33.5	18.9	6.02e-01	0	43	0	435683328	21	5217
2026-01-14 00:12:49.22	87.10	15.76	-30.2	-33.4	18.9	6.02e-01	0	43	0	439353344	21	5200
2026-01-14 00:12:51.23	87.61	15.75	-30.3	-33.6	18.9	6.01e-01	0	43	0	443023360	21	5259
2026-01-14 00:12:53.21	88.11	15.73	-30.3	-33.7	18.8	6.01e-01	0	43	0	447217664	21	5309
2026-01-14 00:12:55.21	88.61	15.72	-30.6	-34.3	18.4	6.00e-01	0	42	0	450887680	21	5542
2026-01-14 00:12:57.21	89.12	15.70	-30.3	-33.5	18.9	6.02e-01	0	43	0	454557696	21	5231
2026-01-14 00:12:59.21	89.62	15.68	-30.3	-33.7	18.7	6.00e-01	0	43	0	458227712	21	5306
2026-01-14 00:13:01.21	90.12	15.66	-30.3	-33.5	18.9	6.01e-01	0	42	0	461897728	21	5240
2026-01-14 00:13:03.22	90.63	15.63	-30.3	-33.7	18.8	6.02e-01	0	43	0	465567744	21	5301
2026-01-14 00:13:05.22	91.13	15.61	-30.3	-33.6	18.8	6.01e-01	0	43	0	469762048	21	5255
2026-01-14 00:13:07.23	91.63	15.58	-30.4	-33.8	18.7	6.02e-01	0	42	0	473432064	21	5337
2026-01-14 00:13:09.23	92.13	15.55	-30.3	-33.7	18.7	6.00e-01	0	42	0	477102080	21	5287
2026-01-14 00:13:11.23	92.63	15.52	-30.1	-33.1	19.1	6.03e-01	0	43	0	480772096	21	5083
2026-01-14 00:13:13.23	93.13	15.48	-30.2	-33.4	18.8	6.02e-01	0	43	0	484442112	21	5202
2026-01-14 00:13:15.25	93.63	15.45	-30.4	-33.9	18.2	6.01e-01	0	43	0	488112128	21	5381
2026-01-14 00:13:17.25	94.12	15.41	-30.1	-33.0	19.1	6.02e-01	0	43	0	491782144	21	5059
2026-01-14 00:13:19.26	94.62	15.37	-30.1	-33.1	18.9	6.01e-01	0	42	0	495976448	21	5099
2026-01-14 00:13:21.26	95.11	15.33	-30.1	-33.2	19.0	6.03e-01	0	43	0	499646464	21	5100
2026-01-14 00:13:23.27	95.61	15.29	-30.0	-32.9	19.2	6.02e-01	0	42	0	503316480	21	5023
2026-01-14 00:13:25.27	96.09	15.24	-30.1	-33.2	19.1	6.01e-01	0	43	0	506986496	21	5108
2026-01-14 00:13:27.28	96.59	15.19	-30.1	-33.0	19.1	6.01e-01	0	43	0	510656512	21	5063
2026-01-14 00:13:29.28	97.07	15.15	-30.1	-33.2	19.0	6.00e-01	0	43	0	514850816	21	5110
2026-01-14 00:13:31.27	97.55	15.10	-30.1	-33.2	19.0	6.01e-01	0	43	0	518520832	21	5140
2026-01-14 00:13:33.27	98.04	15.04	-30.2	-33.4	18.9	6.03e-01	0	43	0	522190848	21	5198
2026-01-14 00:13:35.27	98.52	14.99	-30.3	-33.5	18.8	6.02e-01	0	43	0	525860864	21	5251
2026-01-14 00:13:37.27	99.00	14.94	-30.3	-33.8	18.6	6.00e-01	0	43	0	529530880	21	5340
2026-01-14 00:13:39.28	99.48	14.88	-30.3	-33.6	18.7	6.01e-01	0	43	0	533200896	21	5286
2026-01-14 00:13:41.29	99.96	14.82	-30.3	-33.7	18.7	6.02e-01	0	43	0	536870912	21	5310
2026-01-14 00:13:43.31	100.43	14.76	-30.1	-33.1	19.0	6.01e-01	0	43	0	541065216	21	5100
2026-01-14 00:13:45.31	100.91	14.70	-30.0	-32.9	19.2	6.02e-01	0	43	0	544735232	21	5031
2026-01-14 00:13:47.32	101.38	14.64	-30.1	-33.1	19.0	6.00e-01	0	43	0	548405248	21	5102
2026-01-14 00:13:49.32	101.84	14.57	-30.2	-33.3	18.9	6.00e-01	0	43	0	552075264	21	5166
2026-01-14 00:13:51.33	102.31	14.50	-30.1	-33.3	18.9	5.99e-01	0	43	0	555745280	21	5150
2026-01-14 00:13:53.34	102.78	14.44	-30.1	-33.2	19.0	6.00e-01	0	42	0	559939584	21	5126
2026-01-14 00:13:55.34	103.24	14.37	-30.0	-33.4	19.2	6.02e-01	0	43	0	563609600	20	5313
2026-01-14 00:13:57.35	103.70	14.30	-30.0	-33.4	19.1	6.00e-01	0	43	0	567279616	20	5323
2026-01-14 00:13:59.35	104.16	14.23	-30.4	-33.9	18.5	6.01e-01	0	43	0	570949632	21	5404
2026-01-14 00:14:01.35	104.61	14.15	-30.3	-33.7	18.6	6.00e-01	0	43	0	574619648	21	5336
2026-01-14 00:14:03.36	105.07	14.08	-30.0	-33.3	19.2	6.01e-01	0	43	0	578289664	20	5284
2026-01-14 00:14:05.36	105.51	14.00	-30.0	-33.5	19.1	6.03e-01	0	43	0	581959680	20	5363
2026-01-14 00:14:07.36	105.96	13.92	-30.1	-33.3	18.9	6.03e-01	0	43	0	586153984	21	5159
2026-01-14 00:14:09.36	106.41	13.85	-30.2	-33.3	18.9	6.01e-01	0	43	0	589824000	21	5174
2026-01-14 00:14:11.36	106.85	13.77	-30.1	-33.1	19.0	6.05e-01	0	43	0	593494016	21	5090
2026-01-14 00:14:13.37	107.29	13.69	-30.1	-33.3	18.9	6.00e-01	0	43	0	597164032	21	5170
2026-01-14 00:14:15.36	107.73	13.60	-30.2	-33.3	18.9	6.03e-01	0	43	0	600834048	21	5175
2026-01-14 00:14:17.37	108.16	13.52	-30.2	-33.4	18.8	6.00e-01	0	43	0	605028352	21	5194
2026-01-14 00:14:19.37	108.59	13.44	-30.4	-34.0	18.4	6.01e-01	0	43	0	608698368	21	5427
2026-01-14 00:14:21.37	109.02	13.35	-30.2	-33.3	18.9	6.01e-01	0	43	0	612368384	21	5159
2026-01-14 00:14:23.37	109.45	13.26	-30.1	-33.2	18.9	6.02e-01	0	43	0	616038400	21	5140
2026-01-14 00:14:25.38	109.88	13.18	-30.1	-33.0	19.0	5.99e-01	0	43	0	619708416	21	5079
2026-01-14 00:14:27.38	110.30	13.09	-30.1	-33.2	18.9	6.01e-01	0	43	0	623378432	21	5134
2026-01-14 00:14:29.38	110.72	13.00	-30.2	-33.5	18.6	6.02e-01	0	43	0	627048448	21	5223
2026-01-14 00:14:31.38	111.14	12.91	-30.4	-33.9	18.4	6.00e-01	0	43	0	631242752	21	5420
2026-01-14 00:14:33.38	111.55	12.82	-30.4	-34.1	18.2	5.99e-01	0	43	0	634912768	21	5506
2026-01-14 00:14:35.38	111.96	12.73	-30.4	-34.0	18.4	6.01e-01	0	43	0	638582784	21	5436
2026-01-14 00:14:37.40	112.37	12.63	-30.8	-34.6	17.7	6.01e-01	0	43	0	642252800	22	5588
2026-01-14 00:14:39.40	112.78	12.54	-30.7	-34.2	17.9	6.01e-01	0	43	0	645922816	22	5419
2026-01-14 00:14:41.40	113.18	12.44	-30.3	-33.8	18.5	6.01e-01	0	43	0	649592832	21	5358
2026-01-14 00:14:43.39	113.58	12.35	-30.4	-33.9	18.4	6.01e-01	0	43	0	653787136	21	5412
2026-01-14 00:14:45.40	113.98	12.25	-30.5	-34.2	18.2	6.04e-01	0	43	0	657457152	21	5554
2026-01-14 00:14:47.40	114.38	12.15	-30.2	-33.5	18.6	5.99e-01	0	43	0	661127168	21	5277
2026-01-14 00:14:49.41	114.77	12.06	-30.2	-33.6	18.6	5.99e-01	0	43	0	664797184	21	5291
2026-01-14 00:14:51.41	115.16	11.96	-30.3	-33.7	18.5	6.02e-01	0	43	0	668467200	21	5342
2026-01-14 00:14:53.41	115.55	11.86	-30.3	-33.8	18.4	6.02e-01	0	43	0	672137216	21	5373
2026-01-14 00:14:55.41	115.93	11.76	-30.3	-33.8	18.4	5.99e-01	0	43	0	676331520	21	5394
2026-01-14 00:14:57.42	116.31	11.66	-30.3	-33.7	18.4	6.01e-01	0	43	0	680001536	21	5359
2026-01-14 00:14:59.42	116.69	11.56	-30.4	-34.0	18.2	6.02e-01	0	43	0	683671552	21	5468
2026-01-14 00:15:01.41	117.07	11.45	-30.4	-34.1	18.2	6.02e-01	0	43	0	687341568	21	5510
2026-01-14 00:15:03.42	117.44	11.35	-30.4	-34.1	18.2	6.00e-01	0	43	0	691011584	21	5501
2026-01-14 00:15:05.43	117.81	11.25	-30.4	-34.0	18.2	6.00e-01	0	43	0	694681600	21	5460
2026-01-14 00:15:07.44	118.18	11.14	-30.4	-34.2	18.1	6.01e-01	0	43	0	698875904	21	5556
2026-01-14 00:15:09.44	118.55	11.04	-30.4	-34.1	18.1	6.02e-01	0	43	0	702545920	21	5526
2026-01-14 00:15:11.44	118.91	10.94	-30.5	-34.3	18.0	6.01e-01	0	43	0	706215936	21	5586
2026-01-14 00:15:13.45	119.27	10.83	-30.3	-34.0	18.2	6.01e-01	0	43	0	709885952	21	5463
2026-01-14 00:15:15.45	119.63	10.73	-30.3	-33.9	18.3	6.01e-01	0	43	0	713555968	21	5437
2026-01-14 00:15:17.46	119.98	10.62	-30.4	-34.0	18.2	6.01e-01	0	43	0	717225984	21	5479
2026-01-14 00:15:19.47	120.34	10.51	-30.5	-34.3	18.0	6.02e-01	0	43	0	721420288	21	5605
2026-01-14 00:15:21.48	120.69	10.41	-30.3	-33.9	18.2	6.00e-01	0	43	0	725090304	21	5428
2026-01-14 00:15:23.48	121.03	10.30	-30.4	-34.2	18.0	6.00e-01	0	43	0	728760320	21	5535
2026-01-14 00:15:25.48	121.38	10.19	-30.4	-34.2	18.0	6.00e-01	0	43	0	732430336	21	5552
2026-01-14 00:15:27.48	121.72	10.09	-30.5	-34.3	18.0	6.03e-01	0	43	0	736100352	21	5603
2026-01-14 00:15:29.48	122.06	9.98	-30.4	-34.2	18.0	6.01e-01	0	43	0	739770368	21	5573
2026-01-14 00:15:31.49	122.39	9.87	-30.5	-34.4	17.9	6.02e-01	0	43	0	743964672	21	5642
2026-01-14 00:15:33.48	122.73	9.76	-30.5	-34.5	17.8	6.03e-01	0	43	0	747634688	21	5699
2026-01-14 00:15:35.49	123.06	9.65	-30.5	-34.4	17.9	6.01e-01	0	43	0	751304704	21	5665
2026-01-14 00:15:37.48	123.38	9.54	-30.5	-34.3	17.9	5.98e-01	0	43	0	754974720	21	5626
2026-01-14 00:15:39.49	123.71	9.43	-30.6	-34.3	17.6	5.99e-01	0	43	0	758644736	22	5490
2026-01-14 00:15:41.49	124.03	9.32	-30.5	-34.3	17.9	6.02e-01	0	43	0	762314752	21	5622
2026-01-14 00:15:43.50	124.36	9.21	-30.6	-34.7	17.6	6.03e-01	0	43	0	765984768	21	5789
2026-01-14 00:15:45.52	124.68	9.10	-30.8	-35.0	17.1	5.99e-01	0	43	0	770179072	22	5812
2026-01-14 00:15:47.51	124.99	8.99	-30.7	-34.5	17.4	6.01e-01	0	43	0	773849088	22	5601
2026-01-14 00:15:49.52	125.31	8.88	-30.6	-34.4	17.4	6.02e-01	0	43	0	777519104	22	5568
2026-01-14 00:15:51.52	125.62	8.77	-30.6	-34.4	17.5	6.02e-01	0	43	0	781189120	22	5544
2026-01-14 00:15:53.53	125.93	8.66	-30.5	-34.1	17.6	6.02e-01	0	43	0	784859136	22	5453
2026-01-14 00:15:55.53	126.23	8.55	-30.6	-34.5	17.4	6.01e-01	0	43	0	789053440	22	5603
2026-01-14 00:15:57.53	126.53	8.44	-30.6	-34.5	17.3	6.00e-01	0	43	0	792723456	22	5610
2026-01-14 00:15:59.54	126.84	8.33	-30.8	-34.9	17.0	6.03e-01	0	43	0	796393472	22	5816
2026-01-14 00:16:01.54	127.13	8.22	-30.9	-35.5	16.6	6.00e-01	0	43	0	800063488	22	6113
2026-01-14 00:16:03.55	127.43	8.11	-30.8	-35.0	16.9	6.01e-01	0	43	0	803733504	22	5842
2026-01-14 00:16:05.56	127.73	8.00	-30.9	-35.2	16.7	6.03e-01	0	43	0	807403520	22	5966
2026-01-14 00:16:07.56	128.02	7.88	-30.9	-35.3	16.7	6.01e-01	0	43	0	811073536	22	6002
2026-01-14 00:16:09.57	128.31	7.77	-30.8	-35.1	16.8	6.05e-01	0	43	0	815267840	22	5891
2026-01-14 00:16:11.58	128.59	7.66	-30.8	-34.9	16.9	6.01e-01	0	43	0	818937856	22	5803
2026-01-14 00:16:13.58	128.88	7.55	-30.7	-34.6	17.1	6.03e-01	0	43	0	822607872	22	5692
2026-01-14 00:16:15.58	129.16	7.44	-30.7	-34.8	17.0	6.03e-01	0	43	0	826277888	22	5773
2026-01-14 00:16:17.58	129.44	7.33	-30.7	-35.0	16.8	6.02e-01	0	43	0	829947904	22	5878
2026-01-14 00:16:19.58	129.72	7.22	-30.7	-35.0	16.8	5.99e-01	0	43	0	834142208	22	5867
2026-01-14 00:16:21.58	129.99	7.11	-31.0	-35.8	16.2	6.01e-01	0	43	0	837812224	22	6264
2026-01-14 00:16:23.58	130.27	6.99	-33.8	-53.2	3.8	7.46e-01	0	43	104	838860800	28	33469

#Closed at: 2026-01-14 00:16:23
#Recorded file [838 MB]: D:/data/31010_260114_030854.dat