passes_logs/2026/01/14/R2M6_AANII_01/R2M6_AANII_01__20260114_055840_FENGYUN_3E_rec.log

#Pass ID: 20260114_055840_FENGYUN 3E
#Satellite: FENGYUN 3E
#Configuration: FENGYUN 3E
#almurnet v.1.7.20240730
#Start time: 2026-01-14 05:58:40

#Version: 2.2.20231116
#Station: R2M6_AANII_01
#Location: 30.233357 lon 59.946436 lat
#TLE: 1 49008U 21062A   26013.31447241  .00000001  00000+0  21294-4 0  9992
#TLE: 2 49008  98.7491  18.4630 0001950 139.8565 220.2756 14.19884983234609

#Time	Az	El	Level	Level2	SNR	BER	BlckErr	Temp	State	Recorded	gain1	gain2
2026-01-14 05:58:40.87	12.22	7.01	-30.5	-33.7	5.1	7.87e-01	0	40	0	0	20	5184
2026-01-14 05:58:43.88	12.02	7.22	-30.6	-33.8	8.2	5.49e-02	0	40	0	7340032	20	5213
2026-01-14 05:58:46.88	11.82	7.44	-30.3	-32.8	8.9	2.92e-02	0	41	0	28311552	20	4827
2026-01-14 05:58:49.88	11.62	7.65	-30.1	-32.5	9.2	2.17e-02	0	41	0	50331648	20	4705
2026-01-14 05:58:52.89	11.41	7.87	-29.3	-31.2	10.8	3.77e-03	0	41	0	72351744	18	4468
2026-01-14 05:58:55.90	11.20	8.08	-28.2	-29.5	12.5	6.21e-04	0	41	0	93323264	16	4182
2026-01-14 05:58:58.90	10.98	8.30	-27.8	-29.1	12.9	4.45e-04	0	41	0	115343360	15	4183
2026-01-14 05:59:01.91	10.76	8.52	-27.3	-28.6	13.5	3.75e-04	0	41	0	137363456	14	4155
2026-01-14 05:59:04.92	10.54	8.75	-27.4	-28.6	13.5	3.49e-04	0	41	0	159383552	14	4157
2026-01-14 05:59:07.93	10.32	8.97	-27.2	-28.3	13.7	2.80e-04	0	41	0	180355072	14	4080
2026-01-14 05:59:10.94	10.09	9.20	-27.6	-28.7	13.2	2.37e-04	0	41	0	202375168	15	4075
2026-01-14 05:59:13.94	9.86	9.42	-27.2	-28.2	13.8	1.93e-04	0	41	0	224395264	14	4049
2026-01-14 05:59:16.95	9.62	9.65	-27.1	-28.0	13.9	4.50e-06	0	42	0	245366784	14	4004
2026-01-14 05:59:19.97	9.38	9.88	-27.2	-28.2	13.8	5.70e-06	0	41	0	267386880	14	4050
2026-01-14 05:59:22.97	9.13	10.11	-27.1	-28.0	13.9	5.70e-06	0	42	0	289406976	14	4010
2026-01-14 05:59:25.99	8.89	10.35	-26.8	-27.8	14.3	1.10e-06	0	42	0	311427072	13	4056
2026-01-14 05:59:29.00	8.63	10.58	-26.7	-27.5	14.5	1.10e-06	0	42	0	332398592	13	3983
2026-01-14 05:59:32.02	8.37	10.82	-26.5	-27.1	14.7	0.00e+00	0	42	0	354418688	13	3865
2026-01-14 05:59:35.04	8.11	11.06	-26.8	-27.8	14.4	2.20e-06	0	42	0	376438784	13	4047
2026-01-14 05:59:38.05	7.85	11.30	-26.6	-27.4	14.7	0.00e+00	0	42	0	397410304	13	3932
2026-01-14 05:59:41.05	7.58	11.54	-26.5	-27.2	14.8	0.00e+00	0	42	0	419430400	13	3890
2026-01-14 05:59:44.07	7.30	11.79	-26.6	-27.3	14.7	0.00e+00	0	42	0	441450496	13	3921
2026-01-14 05:59:47.06	7.02	12.03	-26.7	-27.6	14.6	1.71e-05	0	42	0	462422016	13	3981
2026-01-14 05:59:50.08	6.74	12.28	-26.5	-27.1	14.8	0.00e+00	0	42	0	484442112	13	3861
2026-01-14 05:59:53.09	6.44	12.53	-26.6	-27.4	14.7	0.00e+00	0	42	0	506462208	13	3938
2026-01-14 05:59:56.11	6.15	12.78	-26.3	-27.3	15.0	0.00e+00	0	42	0	528482304	12	4013
2026-01-14 05:59:59.13	5.85	13.04	-26.2	-27.0	15.2	0.00e+00	0	42	0	550502400	12	3954
2026-01-14 06:00:02.13	5.54	13.29	-26.1	-26.7	15.4	0.00e+00	0	42	0	571473920	12	3864
2026-01-14 06:00:05.13	5.23	13.55	-26.0	-26.6	15.5	0.00e+00	0	42	0	593494016	12	3845
2026-01-14 06:00:08.15	4.91	13.81	-26.1	-26.9	15.3	0.00e+00	0	42	0	615514112	12	3916
2026-01-14 06:00:11.16	4.59	14.07	-26.1	-26.7	15.5	0.00e+00	0	42	0	636485632	12	3874
2026-01-14 06:00:14.16	4.26	14.33	-26.1	-26.8	15.4	0.00e+00	0	42	0	658505728	12	3903
2026-01-14 06:00:17.18	3.93	14.59	-26.2	-27.0	15.3	0.00e+00	0	42	0	680525824	12	3946
2026-01-14 06:00:20.19	3.58	14.86	-26.1	-26.9	15.4	0.00e+00	0	42	0	702545920	12	3911
2026-01-14 06:00:23.20	3.24	15.13	-26.0	-27.1	15.6	1.68e-03	0	42	0	723517440	11	4065
2026-01-14 06:00:26.20	2.88	15.40	-26.1	-27.2	15.6	1.73e-03	0	42	0	745537536	11	4081
2026-01-14 06:00:29.21	2.52	15.67	-25.9	-26.8	15.8	1.61e-03	0	42	0	767557632	11	3986
2026-01-14 06:00:32.21	2.16	15.94	-25.7	-26.5	16.0	0.00e+00	0	43	0	788529152	11	3916
2026-01-14 06:00:35.23	1.78	16.22	-25.6	-26.2	16.1	1.57e-03	0	43	0	810549248	11	3853
2026-01-14 06:00:38.24	1.40	16.49	-25.7	-26.4	16.0	1.52e-03	0	43	0	832569344	11	3900
2026-01-14 06:00:41.25	1.01	16.77	-25.6	-26.1	16.2	1.52e-03	0	42	0	854589440	11	3826
2026-01-14 06:00:44.26	0.61	17.05	-25.7	-26.4	16.1	1.50e-03	0	42	0	875560960	11	3884
2026-01-14 06:00:47.26	0.21	17.34	-25.4	-25.7	16.5	0.00e+00	0	42	0	897581056	11	3738
2026-01-14 06:00:50.27	359.80	17.62	-25.0	-25.3	17.0	0.00e+00	0	43	0	919601152	10	3735
2026-01-14 06:00:53.28	359.38	17.91	-25.2	-25.7	16.7	0.00e+00	0	43	0	941621248	10	3837
2026-01-14 06:00:56.29	358.95	18.20	-25.0	-25.3	17.0	1.39e-03	0	43	0	962592768	10	3733
2026-01-14 06:00:59.30	358.51	18.48	-25.1	-25.6	16.8	0.00e+00	0	43	0	984612864	10	3815
2026-01-14 06:01:02.30	358.07	18.78	-25.0	-25.8	17.0	0.00e+00	0	43	0	1006632960	9	3960
2026-01-14 06:01:05.30	357.61	19.07	-24.9	-25.6	17.0	0.00e+00	0	43	0	1027604480	9	3917
2026-01-14 06:01:08.31	357.15	19.36	-25.2	-25.9	16.7	0.00e+00	0	43	0	1049624576	10	3868
2026-01-14 06:01:11.30	356.68	19.66	-25.1	-25.7	16.8	0.00e+00	0	43	0	1070596096	10	3827
2026-01-14 06:01:14.31	356.20	19.95	-25.3	-26.1	16.6	0.00e+00	0	43	0	1092616192	10	3918
2026-01-14 06:01:17.33	355.70	20.25	-25.0	-25.3	16.9	0.00e+00	0	43	0	1114636288	10	3747
2026-01-14 06:01:20.34	355.20	20.55	-25.1	-25.6	16.9	0.00e+00	0	43	0	1136656384	10	3794
2026-01-14 06:01:23.35	354.69	20.85	-25.1	-25.0	16.9	0.00e+00	0	42	0	1157627904	11	3576
2026-01-14 06:01:26.35	354.17	21.15	-24.7	-25.2	17.3	0.00e+00	0	43	0	1179648000	9	3815
2026-01-14 06:01:29.34	353.64	21.46	-25.0	-25.8	17.0	0.00e+00	0	43	0	1201668096	9	3953
2026-01-14 06:01:32.35	353.10	21.76	-24.9	-25.6	17.1	0.00e+00	0	43	0	1222639616	9	3911
2026-01-14 06:01:35.36	352.54	22.07	-24.8	-25.4	17.2	0.00e+00	0	43	0	1244659712	9	3863
2026-01-14 06:01:38.37	351.98	22.37	-24.7	-25.3	17.3	0.00e+00	0	43	0	1266679808	9	3849
2026-01-14 06:01:41.37	351.40	22.68	-24.6	-25.0	17.5	0.00e+00	0	43	0	1288699904	9	3761
2026-01-14 06:01:44.38	350.81	22.98	-24.6	-25.0	17.5	0.00e+00	0	43	0	1309671424	9	3759
2026-01-14 06:01:47.39	350.21	23.29	-24.5	-24.7	17.7	0.00e+00	0	43	0	1331691520	9	3699
2026-01-14 06:01:50.41	349.60	23.60	-24.5	-25.3	17.6	0.00e+00	0	43	0	1353711616	8	3937
2026-01-14 06:01:53.42	348.97	23.91	-24.6	-25.0	17.5	0.00e+00	0	43	0	1375731712	9	3764
2026-01-14 06:01:56.43	348.33	24.21	-24.3	-24.8	17.6	0.00e+00	0	43	0	1396703232	8	3833
2026-01-14 06:01:59.44	347.68	24.52	-24.3	-24.9	17.8	1.58e-04	0	43	0	1418723328	8	3854
2026-01-14 06:02:02.45	347.02	24.83	-24.4	-25.1	17.8	0.00e+00	0	43	0	1440743424	8	3899
2026-01-14 06:02:05.46	346.34	25.13	-24.2	-24.6	18.0	0.00e+00	0	43	0	1461714944	8	3774
2026-01-14 06:02:08.47	345.65	25.44	-24.2	-24.6	18.0	0.00e+00	0	43	0	1483735040	8	3781
2026-01-14 06:02:11.47	344.95	25.74	-24.1	-24.5	18.1	0.00e+00	0	43	0	1505755136	8	3765
2026-01-14 06:02:14.48	344.23	26.04	-24.0	-24.2	18.2	1.04e-03	0	43	0	1527775232	8	3688
2026-01-14 06:02:17.49	343.50	26.34	-23.7	-24.1	18.5	9.50e-04	0	43	0	1548746752	7	3778
2026-01-14 06:02:20.48	342.76	26.64	-23.9	-24.5	18.3	1.02e-03	0	43	0	1570766848	7	3865
2026-01-14 06:02:23.49	342.00	26.94	-24.1	-24.4	18.1	0.00e+00	0	43	0	1592786944	8	3739
2026-01-14 06:02:26.50	341.23	27.23	-24.2	-24.7	18.0	1.13e-03	0	43	0	1613758464	8	3802
2026-01-14 06:02:29.51	340.44	27.52	-23.9	-23.9	18.3	9.45e-04	0	43	0	1635778560	8	3636
2026-01-14 06:02:32.51	339.64	27.81	-23.8	-24.4	18.4	8.60e-04	0	43	0	1656750080	7	3836
2026-01-14 06:02:35.53	338.82	28.10	-24.0	-24.7	18.2	0.00e+00	0	43	0	1678770176	7	3910
2026-01-14 06:02:38.54	337.98	28.38	-24.4	-25.0	17.8	0.00e+00	0	43	0	1700790272	8	3874
2026-01-14 06:02:41.54	337.14	28.65	-24.4	-25.1	17.8	0.00e+00	0	43	0	1722810368	8	3894
2026-01-14 06:02:44.54	336.28	28.92	-24.5	-25.3	17.7	0.00e+00	0	43	0	1743781888	8	3944
2026-01-14 06:02:47.55	335.40	29.19	-24.4	-25.0	17.8	0.00e+00	0	43	0	1765801984	8	3876
2026-01-14 06:02:50.56	334.51	29.45	-23.8	-23.7	18.5	0.00e+00	0	43	0	1787822080	8	3588
2026-01-14 06:02:53.57	333.60	29.71	-23.5	-23.6	18.7	0.00e+00	0	43	0	1808793600	7	3669
2026-01-14 06:02:56.57	332.68	29.96	-23.6	-23.9	18.6	0.00e+00	0	43	0	1830813696	7	3723
2026-01-14 06:02:59.58	331.75	30.21	-23.7	-24.1	18.5	0.00e+00	0	43	0	1852833792	7	3764
2026-01-14 06:03:02.58	330.80	30.44	-23.9	-24.5	18.3	0.00e+00	0	43	0	1874853888	7	3859
2026-01-14 06:03:05.59	329.84	30.68	-23.7	-24.0	18.5	0.00e+00	0	43	0	1895825408	7	3757
2026-01-14 06:03:08.60	328.86	30.90	-23.4	-23.4	18.8	0.00e+00	0	43	0	1917845504	7	3619
2026-01-14 06:03:11.61	327.87	31.12	-23.1	-23.4	19.1	0.00e+00	0	43	0	1939865600	6	3712
2026-01-14 06:03:14.61	326.87	31.32	-23.4	-24.1	18.7	0.00e+00	0	43	0	1960837120	6	3876
2026-01-14 06:03:17.62	325.85	31.52	-23.4	-24.1	18.7	0.00e+00	0	43	0	1982857216	6	3872
2026-01-14 06:03:20.64	324.82	31.71	-23.5	-24.2	18.7	0.00e+00	0	43	0	2004877312	6	3907
2026-01-14 06:03:23.66	323.77	31.89	-23.8	-24.3	18.4	0.00e+00	0	43	0	2026897408	7	3812
2026-01-14 06:03:26.67	322.72	32.06	-23.1	-23.4	19.1	0.00e+00	0	43	0	2047868928	6	3718
2026-01-14 06:03:29.68	321.65	32.22	-23.4	-24.0	18.8	0.00e+00	0	43	0	2069889024	6	3853
2026-01-14 06:03:32.69	320.58	32.37	-23.4	-24.0	18.8	0.00e+00	0	43	0	2091909120	6	3858
2026-01-14 06:03:35.70	319.49	32.51	-23.8	-24.3	18.4	0.00e+00	0	43	0	2113929216	7	3816
2026-01-14 06:03:38.70	318.40	32.64	-23.3	-23.4	18.9	0.00e+00	0	43	0	2134900736	7	3609
2026-01-14 06:03:41.70	317.31	32.76	-23.1	-23.4	19.1	0.00e+00	0	43	0	2156920832	6	3712
2026-01-14 06:03:44.71	316.20	32.86	-22.4	-22.7	18.5	0.00e+00	0	43	0	2178940928	6	3755
2026-01-14 06:03:47.69	315.09	32.95	-23.4	-24.1	18.8	0.00e+00	0	43	0	2199912448	6	3872
2026-01-14 06:03:50.70	313.97	33.03	-23.3	-23.8	18.9	0.00e+00	0	43	0	2220883968	6	3813
2026-01-14 06:03:53.70	312.84	33.10	-23.5	-24.2	18.3	0.00e+00	0	43	0	2242904064	6	3892
2026-01-14 06:03:56.71	311.71	33.16	-23.5	-24.3	18.6	0.00e+00	0	43	0	2264924160	6	3921
2026-01-14 06:03:59.73	310.57	33.20	-23.2	-23.6	19.0	0.00e+00	0	43	0	2286944256	6	3774
2026-01-14 06:04:02.74	309.43	33.23	-23.3	-23.7	18.9	1.03e-04	0	43	0	2307915776	6	3783
2026-01-14 06:04:05.75	308.29	33.25	-23.4	-23.5	18.8	4.69e-05	0	43	0	2329935872	7	3642
2026-01-14 06:04:08.75	307.15	33.26	-23.3	-23.8	18.9	4.80e-05	0	43	0	2351955968	6	3815
2026-01-14 06:04:11.77	306.01	33.25	-23.2	-23.7	18.9	0.00e+00	0	43	0	2373976064	6	3777
2026-01-14 06:04:14.78	304.87	33.23	-23.4	-24.0	18.8	0.00e+00	0	43	0	2394947584	6	3849
2026-01-14 06:04:17.79	303.73	33.20	-23.0	-23.2	19.2	0.00e+00	0	43	0	2416967680	6	3676
2026-01-14 06:04:20.81	302.59	33.15	-23.1	-23.4	19.1	0.00e+00	0	43	0	2438987776	6	3715
2026-01-14 06:04:23.80	301.47	33.09	-23.0	-23.2	19.2	1.10e-06	0	43	0	2459959296	6	3669
2026-01-14 06:04:26.82	300.33	33.02	-23.1	-23.3	19.1	0.00e+00	0	43	0	2481979392	6	3704
2026-01-14 06:04:29.83	299.21	32.93	-23.0	-23.1	19.1	0.00e+00	0	43	0	2503999488	6	3661
2026-01-14 06:04:32.84	298.10	32.84	-23.1	-23.4	19.1	0.00e+00	0	43	0	2526019584	6	3713
2026-01-14 06:04:35.85	296.99	32.73	-23.1	-23.4	19.0	0.00e+00	0	43	0	2546991104	6	3727
2026-01-14 06:04:38.86	295.88	32.61	-22.9	-23.0	19.2	0.00e+00	0	43	0	2569011200	6	3642
2026-01-14 06:04:41.88	294.79	32.48	-23.2	-23.5	19.0	0.00e+00	0	43	0	2591031296	6	3736
2026-01-14 06:04:44.89	293.70	32.34	-23.4	-24.0	18.7	0.00e+00	0	43	0	2613051392	6	3853
2026-01-14 06:04:47.90	292.63	32.19	-23.2	-23.5	19.0	0.00e+00	0	43	0	2634022912	6	3749
2026-01-14 06:04:50.92	291.56	32.02	-23.3	-23.8	18.8	0.00e+00	0	43	0	2656043008	6	3809
2026-01-14 06:04:53.93	290.51	31.85	-23.4	-24.0	18.6	0.00e+00	0	43	0	2678063104	6	3848
2026-01-14 06:04:56.94	289.47	31.67	-23.9	-24.5	18.2	0.00e+00	0	43	0	2700083200	7	3861
2026-01-14 06:04:59.95	288.44	31.47	-23.6	-23.8	18.6	0.00e+00	0	43	0	2721054720	7	3703
2026-01-14 06:05:02.96	287.42	31.27	-24.0	-24.7	18.1	0.00e+00	0	43	0	2743074816	7	3907
2026-01-14 06:05:05.98	286.41	31.06	-23.1	-22.9	19.0	0.00e+00	0	43	0	2765094912	7	3510
2026-01-14 06:05:08.98	285.43	30.84	-23.2	-23.7	18.9	0.00e+00	0	43	0	2787115008	6	3777
2026-01-14 06:05:11.99	284.45	30.62	-23.2	-23.6	18.9	0.00e+00	0	43	0	2808086528	6	3770
2026-01-14 06:05:14.99	283.49	30.38	-23.5	-24.1	18.6	0.00e+00	0	43	0	2830106624	6	3882
2026-01-14 06:05:18.00	282.54	30.14	-23.1	-23.4	19.0	0.00e+00	0	43	0	2851078144	6	3715
2026-01-14 06:05:21.01	281.60	29.90	-23.2	-23.7	18.8	0.00e+00	0	43	0	2873098240	6	3781
2026-01-14 06:05:24.02	280.68	29.64	-23.4	-24.1	18.6	0.00e+00	0	43	0	2895118336	6	3876
2026-01-14 06:05:27.03	279.78	29.38	-23.7	-24.0	18.4	0.00e+00	0	43	0	2917138432	7	3757
2026-01-14 06:05:30.03	278.89	29.12	-23.5	-23.6	18.6	0.00e+00	0	43	0	2938109952	7	3669
2026-01-14 06:05:33.05	278.01	28.85	-23.3	-23.5	18.5	0.00e+00	0	43	0	2960130048	7	3688
2026-01-14 06:05:36.05	277.15	28.57	-23.3	-23.8	18.6	0.00e+00	0	43	0	2982150144	6	3813
2026-01-14 06:05:39.06	276.30	28.30	-23.4	-24.1	18.6	0.00e+00	0	43	0	3004170240	6	3875
2026-01-14 06:05:42.07	275.47	28.01	-23.3	-23.8	18.7	0.00e+00	0	43	0	3025141760	6	3805
2026-01-14 06:05:45.07	274.66	27.73	-23.1	-23.4	18.9	2.35e-04	0	43	0	3047161856	6	3718
2026-01-14 06:05:48.08	273.85	27.44	-23.4	-23.9	18.5	2.47e-04	0	43	0	3069181952	6	3827
2026-01-14 06:05:51.09	273.06	27.14	-23.5	-23.8	18.5	1.77e-04	0	43	0	3090153472	7	3704
2026-01-14 06:05:54.10	272.29	26.85	-23.5	-23.8	18.4	6.77e-04	0	43	0	3112173568	7	3699
2026-01-14 06:05:57.12	271.53	26.55	-23.5	-23.8	18.4	1.07e-03	0	43	0	3134193664	7	3702
2026-01-14 06:06:00.13	270.78	26.25	-23.5	-23.7	18.4	4.86e-04	0	43	0	3156213760	7	3692
2026-01-14 06:06:03.14	270.05	25.95	-23.3	-23.3	18.7	1.44e-04	0	43	0	3177185280	7	3589
2026-01-14 06:06:06.15	269.33	25.64	-23.5	-23.8	18.4	1.00e-03	0	43	0	3199205376	7	3702
2026-01-14 06:06:09.16	268.63	25.34	-23.8	-24.3	18.1	0.00e+00	0	43	0	3221225472	7	3819
2026-01-14 06:06:12.16	267.94	25.03	-23.6	-24.0	18.3	0.00e+00	0	43	0	3243245568	7	3757
2026-01-14 06:06:15.17	267.27	24.72	-23.5	-23.7	18.4	0.00e+00	0	43	0	3264217088	7	3674
2026-01-14 06:06:18.18	266.60	24.42	-23.5	-23.7	18.4	0.00e+00	0	43	0	3286237184	7	3689
2026-01-14 06:06:21.20	265.95	24.11	-23.7	-24.1	18.2	0.00e+00	0	43	0	3308257280	7	3783
2026-01-14 06:06:24.22	265.31	23.80	-23.8	-24.4	18.0	0.00e+00	0	43	0	3330277376	7	3842
2026-01-14 06:06:27.23	264.69	23.49	-23.9	-24.5	18.0	0.00e+00	0	43	0	3351248896	7	3871
2026-01-14 06:06:30.25	264.07	23.18	-23.7	-24.2	18.1	0.00e+00	0	43	0	3373268992	7	3791
2026-01-14 06:06:33.27	263.47	22.87	-23.7	-24.2	18.1	0.00e+00	0	43	0	3395289088	7	3794
2026-01-14 06:06:36.27	262.88	22.56	-23.6	-24.0	18.2	0.00e+00	0	43	0	3417309184	7	3753
2026-01-14 06:06:39.29	262.30	22.25	-23.7	-24.2	18.1	0.00e+00	0	43	0	3438280704	7	3804
2026-01-14 06:06:42.29	261.74	21.95	-23.7	-24.1	18.1	0.00e+00	0	43	0	3460300800	7	3777
2026-01-14 06:06:45.31	261.18	21.64	-23.7	-24.1	18.1	0.00e+00	0	43	0	3481272320	7	3784
2026-01-14 06:06:48.30	260.64	21.33	-23.8	-24.4	17.9	0.00e+00	0	43	0	3503292416	7	3859
2026-01-14 06:06:51.32	260.11	21.03	-23.9	-24.7	17.8	0.00e+00	0	43	0	3525312512	7	3915
2026-01-14 06:06:54.32	259.59	20.73	-24.0	-24.7	17.8	0.00e+00	0	43	0	3547332608	7	3908
2026-01-14 06:06:57.34	259.07	20.42	-23.9	-24.5	17.9	0.00e+00	0	43	0	3568304128	7	3870
2026-01-14 06:07:00.35	258.57	20.12	-24.0	-24.8	17.6	0.00e+00	0	43	0	3590324224	7	3953
2026-01-14 06:07:03.36	258.08	19.82	-24.4	-25.1	17.3	0.00e+00	0	43	0	3612344320	8	3906
2026-01-14 06:07:06.37	257.60	19.52	-24.3	-25.0	17.4	0.00e+00	0	43	0	3634364416	8	3883
2026-01-14 06:07:09.39	257.12	19.23	-24.4	-25.1	14.8	0.00e+00	0	43	0	3655335936	8	3906
2026-01-14 06:07:12.39	256.66	18.93	-24.5	-25.3	17.2	0.00e+00	0	43	0	3677356032	8	3949
2026-01-14 06:07:15.40	256.21	18.64	-24.8	-25.5	16.8	0.00e+00	0	43	0	3699376128	9	3887
2026-01-14 06:07:18.41	255.76	18.35	-24.6	-25.2	17.0	1.13e-03	0	43	0	3721396224	9	3815
2026-01-14 06:07:21.42	255.32	18.06	-24.7	-25.2	16.9	1.04e-03	0	43	0	3742367744	9	3829
2026-01-14 06:07:24.44	254.89	17.77	-25.0	-25.9	16.6	0.00e+00	0	43	0	3764387840	9	3996
2026-01-14 06:07:27.45	254.47	17.48	-25.3	-26.0	16.3	1.69e-03	0	43	0	3786407936	10	3909
2026-01-14 06:07:30.46	254.06	17.19	-25.2	-25.9	16.3	1.97e-03	0	43	0	3808428032	10	3901
2026-01-14 06:07:33.47	253.65	16.91	-24.9	-25.7	16.6	2.04e-03	0	43	0	3829399552	9	3939
2026-01-14 06:07:36.48	253.26	16.63	-24.7	-25.3	16.8	2.04e-03	0	43	0	3851419648	9	3841
2026-01-14 06:07:39.50	252.87	16.35	-24.8	-25.5	16.7	0.00e+00	0	43	0	3873439744	9	3892
2026-01-14 06:07:42.50	252.48	16.07	-25.0	-26.0	16.4	0.00e+00	0	43	0	3894411264	9	4012
2026-01-14 06:07:45.52	252.11	15.79	-25.5	-26.5	15.9	1.21e-03	0	43	0	3916431360	10	4032
2026-01-14 06:07:48.52	251.74	15.52	-25.6	-26.3	15.7	2.13e-03	0	43	0	3938451456	11	3893
2026-01-14 06:07:51.53	251.38	15.25	-25.8	-26.6	15.5	0.00e+00	0	43	0	3960471552	11	3965
2026-01-14 06:07:54.54	251.02	14.98	-25.7	-26.4	15.6	0.00e+00	0	43	0	3981443072	11	3919
2026-01-14 06:07:57.54	250.68	14.71	-25.4	-26.3	15.9	0.00e+00	0	43	0	4003463168	10	3998
2026-01-14 06:08:00.55	250.33	14.44	-25.1	-25.7	16.2	0.00e+00	0	43	0	4024434688	10	3849
2026-01-14 06:08:03.56	250.00	14.18	-25.6	-26.1	15.7	0.00e+00	0	43	0	4046454784	11	3846
2026-01-14 06:08:06.56	249.67	13.92	-25.8	-26.6	15.4	0.00e+00	0	43	0	4068474880	11	3961
2026-01-14 06:08:09.56	249.35	13.66	-25.9	-26.9	15.3	0.00e+00	0	43	0	4090494976	11	4034
2026-01-14 06:08:12.57	249.03	13.40	-25.8	-26.6	15.4	0.00e+00	0	43	0	4111466496	11	3968
2026-01-14 06:08:15.58	248.72	13.14	-25.9	-26.9	15.2	1.10e-06	0	43	0	4133486592	11	4024
2026-01-14 06:08:18.58	248.41	12.89	-25.9	-27.0	15.2	1.10e-06	0	43	0	4155506688	11	4053
2026-01-14 06:08:21.59	248.11	12.63	-26.1	-26.8	14.9	1.10e-06	0	43	0	4176478208	12	3904
2026-01-14 06:08:24.59	247.81	12.38	-26.4	-27.5	14.5	1.10e-06	0	43	0	4198498304	12	4083
2026-01-14 06:08:27.60	247.52	12.13	-26.3	-27.4	14.6	0.00e+00	0	43	0	4220518400	12	4056
2026-01-14 06:08:30.59	247.24	11.89	-26.3	-27.2	14.7	0.00e+00	0	43	0	4241489920	12	4006
2026-01-14 06:08:33.61	246.95	11.64	-26.2	-27.0	14.7	0.00e+00	0	43	0	4263510016	12	3964
2026-01-14 06:08:36.61	246.68	11.39	-26.1	-26.8	14.9	1.10e-06	0	43	0	4285530112	12	3898
2026-01-14 06:08:39.63	246.40	11.15	-26.0	-26.7	14.9	1.10e-06	0	43	0	4307550208	12	3899
2026-01-14 06:08:42.65	246.14	10.91	-26.1	-26.9	14.8	0.00e+00	0	43	0	4328521728	12	3931
2026-01-14 06:08:45.65	245.87	10.67	-26.3	-27.2	14.5	0.00e+00	0	43	0	4350541824	12	4031
2026-01-14 06:08:48.67	245.61	10.43	-26.3	-27.3	14.5	1.10e-06	0	43	0	4372561920	12	4051
2026-01-14 06:08:51.67	245.36	10.20	-26.4	-27.5	14.4	0.00e+00	0	43	0	4394582016	12	4086
2026-01-14 06:08:54.68	245.11	9.96	-26.4	-27.5	14.4	3.40e-06	0	43	0	4415553536	12	4100
2026-01-14 06:08:57.71	244.86	9.73	-26.8	-28.0	13.8	2.20e-06	0	43	0	4437573632	13	4122
2026-01-14 06:09:00.72	244.62	9.50	-26.7	-27.7	13.9	6.75e-05	0	43	0	4459593728	13	4054
2026-01-14 06:09:03.73	244.38	9.27	-26.7	-27.8	13.8	1.01e-04	0	43	0	4481613824	13	4058
2026-01-14 06:09:06.73	244.15	9.04	-26.7	-27.7	13.9	2.05e-05	0	43	0	4502585344	13	4057
2026-01-14 06:09:09.74	243.92	8.82	-26.6	-27.5	14.0	5.70e-06	0	43	0	4524605440	13	4005
2026-01-14 06:09:12.73	243.69	8.59	-26.5	-27.9	14.0	1.10e-06	0	43	0	4546625536	12	4200
2026-01-14 06:09:15.75	243.47	8.37	-26.5	-27.8	14.1	5.70e-06	0	43	0	4567597056	12	4169
2026-01-14 06:09:18.76	243.25	8.15	-26.9	-28.2	13.5	5.70e-06	0	43	0	4589617152	13	4183
2026-01-14 06:09:21.76	243.03	7.93	-26.7	-27.8	13.7	3.40e-06	0	43	0	4610588672	13	4075
2026-01-14 06:09:24.78	242.82	7.71	-26.8	-28.1	13.5	1.25e-05	0	43	0	4632608768	13	4148
2026-01-14 06:09:27.79	242.61	7.49	-27.0	-28.0	13.2	2.74e-05	0	43	0	4654628864	14	4046
2026-01-14 06:09:30.79	242.40	7.28	-27.2	-28.4	13.0	5.72e-05	0	43	0	4676648960	14	4150
2026-01-14 06:09:33.80	242.20	7.07	-33.0	-42.6	3.8	7.80e-01	0	43	104	4695523328	25	10859

#Closed at: 2026-01-14 06:09:36
#Recorded file [4695 MB]: D:/data/31010_260114_085842.dat