passes_logs/2026/01/14/R2M6_AANII_01/R2M6_AANII_01__20260114_112716_SUOMI_NPP_rec.log

#Pass ID: 20260114_112716_SUOMI NPP
#Satellite: SUOMI NPP
#Configuration: NPP
#almurnet v.1.7.20240730
#Start time: 2026-01-14 11:32:03

#Version: 2.2.20231116
#Station: R2M6_AANII_01
#Location: 30.233357 lon 59.946436 lat
#TLE: 1 37849U 11061A   26013.27136842  .00000065  00000+0  51889-4 0  9990
#TLE: 2 37849  98.7808 315.3349 0002489  66.6776 293.4661 14.19524902736466

#Time	Az	El	Level	Level2	SNR	BER	BlckErr	Temp	State	Recorded	gain1	gain2
2026-01-14 11:32:03.81	243.12	35.02	-34.5	-54.0	3.8	7.45e-01	0	42	0	0	29	33932
2026-01-14 11:32:05.79	243.86	35.18	-34.6	-46.4	3.8	1.49e+00	0	42	104	0	30	14052
2026-01-14 11:32:07.79	244.62	35.33	-34.6	-46.5	3.8	1.49e+00	0	42	104	0	30	14084
2026-01-14 11:32:09.79	245.39	35.48	-34.6	-46.5	3.8	1.49e+00	0	42	104	0	30	14078
2026-01-14 11:32:11.79	246.17	35.63	-34.6	-46.4	3.8	1.49e+00	0	42	104	0	30	14066
2026-01-14 11:32:13.79	246.95	35.76	-34.6	-46.4	3.8	1.49e+00	0	42	104	0	30	14050
2026-01-14 11:32:15.78	247.73	35.90	-34.6	-46.4	3.8	1.49e+00	0	42	104	0	30	14052
2026-01-14 11:32:17.79	248.53	36.02	-34.6	-46.4	3.8	1.49e+00	0	42	104	0	30	14007
2026-01-14 11:32:19.78	249.33	36.14	-34.6	-46.4	3.8	1.49e+00	0	42	104	0	30	14076
2026-01-14 11:32:21.77	250.13	36.26	-34.6	-46.3	3.8	1.49e+00	0	42	104	0	30	13978
2026-01-14 11:32:23.78	250.94	36.37	-34.4	-46.1	3.8	1.49e+00	0	42	104	0	30	13829
2026-01-14 11:32:25.78	251.76	36.47	-34.5	-46.1	3.8	1.49e+00	0	42	104	0	30	13787
2026-01-14 11:32:27.77	252.58	36.57	-34.4	-46.0	3.8	1.49e+00	0	42	104	0	30	13749
2026-01-14 11:32:29.77	253.41	36.66	-34.3	-45.8	3.8	1.49e+00	0	42	104	0	30	13557
2026-01-14 11:32:31.77	254.24	36.75	-34.2	-46.1	3.8	1.49e+00	0	42	104	0	29	14181
2026-01-14 11:32:33.77	255.07	36.83	-34.2	-46.1	3.8	1.49e+00	0	43	104	0	29	14170
2026-01-14 11:32:35.77	255.91	36.90	-34.2	-46.0	3.8	1.49e+00	0	42	104	0	29	13971
2026-01-14 11:32:37.75	256.74	36.97	-34.2	-46.0	3.8	1.49e+00	0	42	104	0	29	14075
2026-01-14 11:32:39.75	257.59	37.02	-34.2	-46.1	3.8	1.49e+00	0	42	104	0	29	14181
2026-01-14 11:32:41.75	258.44	37.08	-34.2	-46.0	3.8	1.49e+00	0	42	104	0	29	14001
2026-01-14 11:32:43.75	259.29	37.12	-34.2	-45.7	3.8	1.49e+00	0	42	104	0	29	13604
2026-01-14 11:32:45.74	260.13	37.16	-34.2	-45.9	3.8	1.49e+00	0	42	104	0	29	13808
2026-01-14 11:32:47.73	260.98	37.19	-34.2	-45.9	3.8	1.49e+00	0	42	104	0	29	13872
2026-01-14 11:32:49.73	261.84	37.22	-34.2	-46.1	3.8	1.49e+00	0	43	104	0	29	14146
2026-01-14 11:32:51.72	262.69	37.23	-34.2	-46.0	3.8	1.49e+00	0	42	104	0	29	13986
2026-01-14 11:32:53.72	263.55	37.24	-34.1	-45.5	3.8	1.49e+00	0	42	104	0	29	13338
2026-01-14 11:32:55.72	264.41	37.25	-33.4	-38.5	5.7	1.25e+00	0	42	104	0	28	6522
2026-01-14 11:32:57.73	265.27	37.24	-31.9	-33.9	10.4	9.92e-01	0	43	104	0	25	4504
2026-01-14 11:32:59.72	266.12	37.23	-32.1	-34.5	10.5	4.83e-03	0	43	0	2097152	25	4731
2026-01-14 11:33:01.72	266.98	37.21	-32.2	-34.8	10.3	4.64e-03	0	42	0	5242880	25	4846
2026-01-14 11:33:03.72	267.83	37.19	-32.7	-36.4	9.1	1.95e-02	0	42	0	9437184	25	5571
2026-01-14 11:33:05.72	268.69	37.16	-32.9	-37.5	8.2	3.92e-02	0	42	0	13631488	25	6133
2026-01-14 11:33:07.71	269.53	37.12	-32.2	-34.8	10.3	1.16e-02	0	43	0	16777216	25	4845
2026-01-14 11:33:09.71	270.38	37.07	-31.2	-32.8	12.4	1.65e-04	0	43	0	20971520	23	4314
2026-01-14 11:33:11.70	271.23	37.02	-30.8	-32.0	13.3	1.83e-05	0	42	0	24117248	22	4134
2026-01-14 11:33:13.70	272.07	36.96	-31.3	-33.5	12.3	1.23e-04	0	43	0	28311552	22	4634
2026-01-14 11:33:15.70	272.91	36.90	-31.8	-34.4	11.4	9.59e-04	0	42	0	31457280	23	4875
2026-01-14 11:33:17.69	273.74	36.82	-31.1	-32.3	12.7	1.78e-04	0	42	0	35651584	23	4151
2026-01-14 11:33:19.68	274.57	36.75	-31.5	-33.5	12.0	2.59e-04	0	42	0	38797312	23	4527
2026-01-14 11:33:21.67	275.40	36.66	-31.0	-32.2	12.8	1.07e-04	0	42	0	42991616	23	4104
2026-01-14 11:33:23.67	276.22	36.57	-31.4	-33.4	12.1	2.00e-04	0	42	0	47185920	23	4490
2026-01-14 11:33:25.64	277.03	36.47	-32.1	-34.9	10.6	3.77e-03	0	43	0	50331648	24	4990
2026-01-14 11:33:27.63	277.84	36.37	-31.7	-33.7	11.5	1.01e-03	0	42	0	54525952	24	4530
2026-01-14 11:33:29.63	278.65	36.26	-32.3	-35.5	10.2	2.53e-03	0	42	0	57671680	24	5238
2026-01-14 11:33:31.63	279.46	36.14	-33.0	-37.5	7.9	8.80e-02	0	43	0	61865984	26	6020
2026-01-14 11:33:33.64	280.26	36.02	-32.8	-36.3	8.9	2.60e-02	0	43	0	65011712	26	5387
2026-01-14 11:33:35.63	281.05	35.90	-33.1	-37.6	7.9	7.08e-02	0	42	0	69206016	26	6075
2026-01-14 11:33:37.62	281.83	35.76	-32.7	-36.0	8.9	7.49e-02	0	43	0	73400320	26	5283
2026-01-14 11:33:39.62	282.61	35.63	-32.1	-34.5	10.5	4.11e-03	0	42	0	76546048	25	4727
2026-01-14 11:33:41.62	283.38	35.48	-33.1	-37.7	7.8	6.93e-02	0	42	0	80740352	26	6127
2026-01-14 11:33:43.63	284.15	35.34	-33.3	-38.5	7.1	1.71e-01	0	43	0	83886080	26	6574
2026-01-14 11:33:45.64	284.92	35.18	-32.6	-35.7	9.5	1.88e-02	0	43	0	88080384	26	5129
2026-01-14 11:33:47.64	285.67	35.02	-32.7	-36.0	9.0	3.34e-02	0	43	0	91226112	26	5256
2026-01-14 11:33:49.65	286.42	34.86	-32.1	-34.4	10.6	4.77e-03	0	42	0	95420416	25	4709
2026-01-14 11:33:51.65	287.15	34.70	-32.3	-35.1	10.1	8.56e-03	0	42	0	99614720	25	4952
2026-01-14 11:33:53.65	287.88	34.52	-33.2	-38.2	7.4	6.81e-02	0	43	0	102760448	26	6425
2026-01-14 11:33:55.66	288.61	34.35	-33.6	-39.9	5.8	4.18e-01	0	42	0	106954752	27	7415
2026-01-14 11:33:57.67	289.33	34.17	-32.8	-36.3	8.8	8.68e-02	0	42	0	110100480	26	5413
2026-01-14 11:33:59.67	290.03	33.99	-32.5	-35.1	9.7	8.36e-03	0	42	0	114294784	26	4903
2026-01-14 11:34:01.68	290.74	33.80	-32.1	-34.4	10.6	5.87e-03	0	43	0	118489088	25	4679
2026-01-14 11:34:03.69	291.43	33.61	-31.4	-32.7	12.1	4.03e-04	0	43	0	121634816	24	4177
2026-01-14 11:34:05.70	292.12	33.42	-31.3	-32.9	12.3	1.61e-04	0	43	0	125829120	23	4353
2026-01-14 11:34:07.71	292.80	33.22	-31.4	-33.4	12.0	1.66e-04	0	42	0	128974848	23	4495
2026-01-14 11:34:09.72	293.47	33.02	-31.5	-33.5	12.0	3.90e-04	0	43	0	133169152	23	4545
2026-01-14 11:34:11.72	294.12	32.82	-31.5	-33.5	11.9	1.85e-04	0	43	0	137363456	23	4539
2026-01-14 11:34:13.72	294.77	32.61	-33.0	-37.9	8.0	2.24e-02	0	42	0	140509184	25	6311
2026-01-14 11:34:15.72	295.42	32.41	-33.3	-38.3	6.8	2.78e-01	0	43	0	144703488	27	6384
2026-01-14 11:34:17.73	296.05	32.20	-31.0	-32.2	12.8	5.66e-04	0	43	0	147849216	23	4114
2026-01-14 11:34:19.74	296.68	31.98	-30.8	-32.0	13.2	1.22e-05	0	43	0	152043520	22	4157
2026-01-14 11:34:21.76	297.31	31.77	-31.5	-33.7	11.8	1.91e-04	0	42	0	156237824	23	4618
2026-01-14 11:34:23.76	297.92	31.55	-30.9	-31.9	13.0	5.87e-05	0	42	0	159383552	23	4030
2026-01-14 11:34:25.77	298.52	31.33	-30.6	-31.4	13.5	8.30e-06	0	43	0	163577856	22	3984
2026-01-14 11:34:27.78	299.12	31.11	-31.3	-33.6	12.1	6.02e-05	0	43	0	166723584	22	4689
2026-01-14 11:34:29.78	299.71	30.89	-30.9	-31.8	13.0	8.01e-05	0	43	0	170917888	23	4002
2026-01-14 11:34:31.79	300.29	30.67	-29.7	-30.2	15.0	0.00e+00	0	43	0	174063616	20	3820
2026-01-14 11:34:33.80	300.86	30.45	-29.9	-30.6	14.7	0.00e+00	0	43	0	178257920	20	3938
2026-01-14 11:34:35.79	301.42	30.22	-31.3	-33.4	12.3	1.81e-04	0	42	0	182452224	22	4619
2026-01-14 11:34:37.80	301.98	29.99	-30.3	-30.7	14.0	1.37e-05	0	43	0	185597952	22	3790
2026-01-14 11:34:39.81	302.53	29.77	-29.5	-30.2	15.3	0.00e+00	0	42	0	189792256	19	3906
2026-01-14 11:34:41.80	303.07	29.54	-30.6	-32.0	13.5	1.50e-06	0	43	0	192937984	21	4231
2026-01-14 11:34:43.81	303.60	29.31	-31.0	-32.7	12.8	1.01e-04	0	43	0	197132288	22	4369
2026-01-14 11:34:45.82	304.13	29.08	-30.0	-30.4	14.5	0.00e+00	0	43	0	201326592	21	3779
2026-01-14 11:34:47.82	304.65	28.85	-30.6	-32.0	13.5	7.60e-06	0	43	0	204472320	21	4240
2026-01-14 11:34:49.83	305.16	28.62	-31.5	-33.7	11.7	5.17e-04	0	43	0	208666624	23	4618
2026-01-14 11:34:51.84	305.66	28.38	-31.2	-32.6	12.5	3.97e-04	0	43	0	211812352	23	4258
2026-01-14 11:34:53.84	306.16	28.15	-31.0	-32.1	12.8	6.17e-05	0	42	0	216006656	23	4089
2026-01-14 11:34:55.85	306.65	27.92	-30.6	-31.7	13.5	9.10e-06	0	42	0	219152384	22	4048
2026-01-14 11:34:57.85	307.13	27.69	-30.8	-32.1	13.2	6.40e-05	0	43	0	223346688	22	4184
2026-01-14 11:34:59.86	307.61	27.46	-29.9	-30.3	14.5	1.50e-06	0	43	0	227540992	21	3762
2026-01-14 11:35:01.85	308.08	27.22	-30.0	-31.1	14.4	0.00e+00	0	42	0	230686720	20	4058
2026-01-14 11:35:03.85	308.54	26.99	-31.3	-33.7	12.0	7.09e-05	0	43	0	234881024	22	4713
2026-01-14 11:35:05.86	309.00	26.76	-31.6	-34.1	11.4	9.94e-04	0	43	0	238026752	23	4779
2026-01-14 11:35:07.86	309.44	26.53	-30.4	-31.0	13.8	1.67e-05	0	43	0	242221056	22	3865
2026-01-14 11:35:09.87	309.89	26.29	-29.6	-30.0	15.1	0.00e+00	0	43	0	246415360	20	3767
2026-01-14 11:35:11.88	310.33	26.06	-30.4	-32.1	13.7	2.20e-06	0	43	0	249561088	20	4386
2026-01-14 11:35:13.89	310.76	25.83	-30.6	-32.2	13.3	2.74e-05	0	43	0	253755392	21	4317
2026-01-14 11:35:15.90	311.18	25.60	-30.2	-31.1	14.0	1.50e-06	0	43	0	256901120	21	3976
2026-01-14 11:35:17.90	311.60	25.37	-30.3	-31.2	14.0	3.80e-06	0	43	0	261095424	21	4009
2026-01-14 11:35:19.91	312.02	25.14	-30.2	-30.9	14.1	1.50e-06	0	43	0	265289728	21	3938
2026-01-14 11:35:21.93	312.43	24.91	-30.5	-32.0	13.4	9.10e-06	0	42	0	268435456	21	4236
2026-01-14 11:35:23.93	312.83	24.68	-30.8	-32.6	13.0	4.11e-05	0	43	0	272629760	21	4444
2026-01-14 11:35:25.95	313.22	24.45	-31.0	-32.9	12.5	5.34e-05	0	43	0	275775488	22	4446
2026-01-14 11:35:27.95	313.61	24.22	-31.2	-33.2	12.3	2.48e-04	0	43	0	279969792	22	4546
2026-01-14 11:35:29.97	314.00	23.99	-30.5	-31.5	13.4	1.29e-05	0	42	0	283115520	22	4008
2026-01-14 11:35:31.97	314.38	23.76	-30.1	-30.9	14.1	2.20e-06	0	43	0	287309824	21	3924
2026-01-14 11:35:33.97	314.75	23.54	-29.5	-29.9	15.0	0.00e+00	0	43	0	291504128	20	3747
2026-01-14 11:35:35.98	315.12	23.31	-29.2	-29.4	15.6	0.00e+00	0	42	0	294649856	19	3716
2026-01-14 11:35:37.98	315.48	23.09	-28.8	-29.1	16.1	0.00e+00	0	42	0	298844160	18	3711
2026-01-14 11:35:39.99	315.84	22.86	-29.1	-29.8	15.7	0.00e+00	0	43	0	301989888	18	3905
2026-01-14 11:35:41.99	316.19	22.64	-29.7	-30.7	14.8	0.00e+00	0	42	0	306184192	19	4055
2026-01-14 11:35:44.00	316.54	22.42	-29.9	-30.9	14.4	2.20e-06	0	42	0	310378496	20	4020
2026-01-14 11:35:46.00	316.89	22.20	-29.7	-30.3	14.8	0.00e+00	0	42	0	313524224	20	3851
2026-01-14 11:35:48.01	317.23	21.98	-29.5	-29.9	14.9	0.00e+00	0	43	0	317718528	20	3753
2026-01-14 11:35:50.01	317.56	21.76	-29.7	-30.2	14.7	0.00e+00	0	43	0	320864256	20	3842
2026-01-14 11:35:52.02	317.89	21.54	-29.7	-30.3	14.7	7.00e-07	0	43	0	325058560	20	3849
2026-01-14 11:35:54.03	318.22	21.32	-29.9	-30.8	14.4	0.00e+00	0	43	0	328204288	20	3997
2026-01-14 11:35:56.04	318.54	21.11	-29.8	-30.6	14.5	7.00e-07	0	43	0	332398592	20	3941
2026-01-14 11:35:58.04	318.85	20.89	-29.7	-30.4	14.7	0.00e+00	0	43	0	336592896	20	3881
2026-01-14 11:36:00.05	319.17	20.68	-29.8	-30.7	14.5	0.00e+00	0	42	0	339738624	20	3971
2026-01-14 11:36:02.06	319.48	20.46	-29.5	-29.8	15.0	0.00e+00	0	43	0	343932928	20	3717
2026-01-14 11:36:04.07	319.78	20.25	-29.5	-29.7	15.0	0.00e+00	0	43	0	347078656	20	3715
2026-01-14 11:36:06.08	320.08	20.04	-29.7	-30.5	14.5	0.00e+00	0	43	0	351272960	20	3912
2026-01-14 11:36:08.09	320.38	19.83	-29.8	-30.5	14.5	0.00e+00	0	42	0	355467264	20	3921
2026-01-14 11:36:10.09	320.67	19.62	-29.8	-30.5	14.5	0.00e+00	0	43	0	358612992	20	3926
2026-01-14 11:36:12.10	320.96	19.41	-29.6	-30.1	14.7	0.00e+00	0	42	0	362807296	20	3826
2026-01-14 11:36:14.11	321.24	19.20	-29.5	-29.9	14.8	0.00e+00	0	42	0	365953024	20	3767
2026-01-14 11:36:16.11	321.52	19.00	-29.5	-29.9	14.9	7.00e-07	0	43	0	370147328	20	3764
2026-01-14 11:36:18.11	321.80	18.80	-29.7	-30.2	14.7	0.00e+00	0	43	0	374341632	20	3838
2026-01-14 11:36:20.13	322.07	18.59	-30.0	-31.0	14.2	7.00e-07	0	43	0	377487360	20	4072
2026-01-14 11:36:22.14	322.35	18.39	-30.3	-32.0	13.6	6.10e-06	0	43	0	381681664	20	4369
2026-01-14 11:36:24.15	322.61	18.18	-30.9	-33.0	12.5	6.79e-05	0	42	0	384827392	21	4602
2026-01-14 11:36:26.15	322.87	17.98	-31.5	-34.3	11.5	4.89e-04	0	43	0	389021696	22	4964
2026-01-14 11:36:28.16	323.14	17.78	-31.6	-34.2	11.0	1.85e-03	0	42	0	393216000	23	4853
2026-01-14 11:36:30.17	323.39	17.59	-31.3	-33.4	11.6	1.09e-03	0	43	0	396361728	23	4559
2026-01-14 11:36:32.17	323.64	17.39	-31.1	-32.7	12.1	5.62e-04	0	43	0	400556032	23	4316
2026-01-14 11:36:34.17	323.89	17.19	-30.9	-32.2	12.5	1.13e-04	0	43	0	403701760	23	4151
2026-01-14 11:36:36.19	324.14	17.00	-30.7	-32.1	12.8	5.64e-05	0	43	0	407896064	22	4222
2026-01-14 11:36:38.18	324.39	16.80	-30.4	-31.3	13.3	1.29e-05	0	43	0	411041792	22	3981
2026-01-14 11:36:40.19	324.63	16.61	-30.5	-31.4	13.2	4.80e-05	0	43	0	415236096	22	4010
2026-01-14 11:36:42.19	324.86	16.42	-30.8	-32.3	12.7	5.79e-05	0	43	0	419430400	22	4285
2026-01-14 11:36:44.20	325.10	16.23	-30.9	-32.7	12.3	7.70e-05	0	42	0	422576128	22	4420
2026-01-14 11:36:46.20	325.33	16.04	-30.8	-32.4	12.6	1.12e-04	0	43	0	426770432	22	4305
2026-01-14 11:36:48.20	325.56	15.85	-30.7	-32.0	12.8	1.02e-04	0	43	0	429916160	22	4205
2026-01-14 11:36:50.21	325.79	15.66	-30.6	-31.9	12.8	9.76e-05	0	43	0	434110464	22	4164
2026-01-14 11:36:52.22	326.01	15.48	-30.6	-31.7	13.0	4.88e-05	0	43	0	438304768	22	4108
2026-01-14 11:36:54.23	326.23	15.29	-30.3	-31.5	13.4	1.29e-05	0	43	0	441450496	21	4145
2026-01-14 11:36:56.23	326.45	15.11	-30.2	-31.3	13.5	2.36e-05	0	43	0	445644800	21	4064
2026-01-14 11:36:58.24	326.67	14.92	-30.5	-32.1	13.0	5.95e-05	0	43	0	448790528	21	4329
2026-01-14 11:37:00.24	326.88	14.74	-30.6	-32.2	12.9	3.50e-05	0	42	0	452984832	21	4358
2026-01-14 11:37:02.24	327.09	14.56	-30.5	-32.1	12.9	3.43e-05	0	43	0	456130560	21	4336
2026-01-14 11:37:04.25	327.30	14.38	-30.3	-31.6	13.3	4.04e-05	0	43	0	460324864	21	4151
2026-01-14 11:37:06.25	327.51	14.20	-30.4	-31.8	13.1	2.97e-05	0	42	0	464519168	21	4218
2026-01-14 11:37:08.27	327.71	14.02	-30.2	-31.2	13.5	1.67e-05	0	43	0	467664896	21	4062
2026-01-14 11:37:10.28	327.92	13.84	-30.2	-31.4	13.4	9.10e-06	0	42	0	471859200	21	4095
2026-01-14 11:37:12.28	328.11	13.67	-30.0	-30.8	13.8	1.14e-05	0	43	0	475004928	21	3926
2026-01-14 11:37:14.28	328.31	13.49	-30.2	-31.4	13.4	9.90e-06	0	43	0	479199232	21	4113
2026-01-14 11:37:16.28	328.51	13.32	-30.4	-31.8	13.1	3.12e-05	0	43	0	483393536	21	4240
2026-01-14 11:37:18.29	328.70	13.14	-30.4	-31.9	13.0	1.60e-05	0	43	0	486539264	21	4274
2026-01-14 11:37:20.30	328.89	12.97	-30.4	-31.8	13.1	5.11e-05	0	43	0	490733568	21	4231
2026-01-14 11:37:22.31	329.08	12.80	-30.5	-32.2	12.8	7.17e-05	0	43	0	493879296	21	4360
2026-01-14 11:37:24.31	329.26	12.63	-30.5	-32.3	12.7	9.30e-05	0	43	0	498073600	21	4399
2026-01-14 11:37:26.31	329.45	12.46	-30.6	-32.3	12.7	3.89e-05	0	43	0	502267904	21	4412
2026-01-14 11:37:28.31	329.63	12.29	-30.4	-31.8	13.0	5.56e-05	0	43	0	505413632	21	4253
2026-01-14 11:37:30.31	329.81	12.12	-30.4	-31.9	12.9	6.40e-05	0	43	0	509607936	21	4288
2026-01-14 11:37:32.32	329.99	11.95	-30.8	-33.0	12.2	1.77e-04	0	43	0	512753664	21	4651
2026-01-14 11:37:34.32	330.17	11.79	-30.8	-33.0	12.2	1.22e-04	0	43	0	516947968	21	4630
2026-01-14 11:37:36.33	330.34	11.62	-30.8	-32.9	12.2	2.46e-04	0	43	0	520093696	21	4611
2026-01-14 11:37:38.34	330.51	11.46	-31.0	-33.1	11.8	4.90e-04	0	43	0	524288000	22	4598
2026-01-14 11:37:40.34	330.68	11.30	-31.1	-33.6	11.4	8.35e-04	0	43	0	528482304	22	4758
2026-01-14 11:37:42.35	330.85	11.13	-31.2	-33.9	11.2	1.26e-03	0	43	0	531628032	22	4899
2026-01-14 11:37:44.36	331.02	10.97	-31.1	-33.6	11.3	1.28e-03	0	43	0	535822336	22	4765
2026-01-14 11:37:46.37	331.19	10.81	-31.3	-34.2	10.9	2.34e-03	0	43	0	538968064	22	5005
2026-01-14 11:37:48.37	331.35	10.65	-31.1	-33.5	11.4	7.35e-04	0	43	0	543162368	22	4757
2026-01-14 11:37:50.38	331.51	10.49	-30.8	-32.7	12.0	3.71e-04	0	43	0	547356672	22	4463
2026-01-14 11:37:52.39	331.68	10.33	-30.8	-32.5	12.1	2.85e-04	0	43	0	550502400	22	4384
2026-01-14 11:37:54.39	331.83	10.17	-30.9	-33.0	11.7	9.60e-04	0	43	0	554696704	22	4557
2026-01-14 11:37:56.40	331.99	10.02	-30.8	-32.5	12.0	2.46e-04	0	43	0	557842432	22	4398
2026-01-14 11:37:58.41	332.15	9.86	-30.9	-32.9	11.7	3.06e-04	0	42	0	562036736	22	4529
2026-01-14 11:38:00.40	332.30	9.71	-30.7	-32.2	12.2	3.40e-04	0	43	0	565182464	22	4315
2026-01-14 11:38:02.41	332.45	9.55	-30.6	-32.1	12.3	1.47e-04	0	43	0	569376768	22	4271
2026-01-14 11:38:04.41	332.61	9.40	-30.7	-32.4	12.1	3.36e-04	0	43	0	573571072	22	4364
2026-01-14 11:38:06.43	332.76	9.25	-30.8	-32.7	11.8	6.45e-04	0	42	0	576716800	22	4466
2026-01-14 11:38:08.44	332.90	9.09	-30.6	-32.0	12.3	1.63e-04	0	43	0	580911104	22	4236
2026-01-14 11:38:10.44	333.05	8.94	-30.6	-32.2	12.2	2.42e-04	0	43	0	584056832	22	4296
2026-01-14 11:38:12.45	333.20	8.79	-30.5	-31.9	12.3	2.01e-04	0	42	0	588251136	22	4230
2026-01-14 11:38:14.46	333.34	8.64	-30.6	-32.2	12.2	2.53e-04	0	43	0	592445440	22	4303
2026-01-14 11:38:16.47	333.48	8.49	-30.5	-32.0	12.3	1.84e-04	0	43	0	595591168	22	4243
2026-01-14 11:38:18.47	333.63	8.35	-30.7	-32.5	11.9	5.53e-04	0	43	0	599785472	22	4432
2026-01-14 11:38:20.48	333.77	8.20	-30.7	-32.5	11.8	4.13e-04	0	43	0	602931200	22	4415
2026-01-14 11:38:22.49	333.91	8.05	-30.7	-32.6	11.7	7.72e-04	0	43	0	607125504	22	4458
2026-01-14 11:38:24.49	334.04	7.91	-30.6	-32.2	12.0	3.84e-04	0	43	0	611319808	22	4326
2026-01-14 11:38:26.49	334.18	7.76	-30.9	-33.0	11.5	7.85e-04	0	43	0	614465536	22	4597
2026-01-14 11:38:28.50	334.31	7.62	-31.0	-33.5	11.0	1.43e-03	0	43	0	618659840	22	4798
2026-01-14 11:38:30.51	334.45	7.47	-31.0	-33.6	11.0	1.59e-03	0	42	0	621805568	22	4814
2026-01-14 11:38:32.52	334.58	7.33	-31.0	-33.4	11.1	1.52e-03	0	43	0	625999872	22	4765
2026-01-14 11:38:34.53	334.71	7.19	-31.3	-34.4	10.4	3.46e-03	0	43	0	629145600	22	5139
2026-01-14 11:38:36.53	334.84	7.04	-33.5	-45.9	3.8	4.42e-01	0	43	104	633339904	26	15132

#Closed at: 2026-01-14 11:38:38
#Recorded file [633 MB]: D:/data/31010_260114_143258.dat