passes_logs/2026/01/14/R2M6_AANII_01/R2M6_AANII_01__20260114_073948_NOAA_21_JPSS-2_rec.log

#Pass ID: 20260114_073948_NOAA 21 (JPSS-2)
#Satellite: NOAA 21 (JPSS-2)
#Configuration: NOAA 21
#almurnet v.1.7.20240730
#Start time: 2026-01-14 07:39:50

#Version: 2.2.20231116
#Station: R2M6_AANII_01
#Location: 30.233357 lon 59.946436 lat
#TLE: 1 54234U 22150A   26013.18009385  .00000056  00000+0  47387-4 0  9997
#TLE: 2 54234  98.7496 314.1019 0000691 303.8246  56.2864 14.19534466164559

#Time	Az	El	Level	Level2	SNR	BER	BlckErr	Temp	State	Recorded	gain1	gain2
2026-01-14 07:39:50.39	77.21	7.09	-31.1	-35.7	4.6	1.40e+00	0	40	0	0	23	6137
2026-01-14 07:39:52.40	76.97	7.19	-31.0	-34.7	8.5	4.71e-02	0	40	0	0	23	5478
2026-01-14 07:39:54.41	76.72	7.30	-30.8	-34.0	9.0	2.66e-02	0	40	0	6291456	23	5194
2026-01-14 07:39:56.41	76.48	7.40	-31.0	-34.5	8.7	4.34e-02	0	40	0	12582912	23	5403
2026-01-14 07:39:58.42	76.23	7.50	-30.3	-32.9	10.2	6.96e-03	0	40	0	18874368	22	4841
2026-01-14 07:40:00.42	75.99	7.61	-29.6	-31.9	11.5	8.41e-04	0	41	0	24117248	20	4694
2026-01-14 07:40:02.43	75.73	7.71	-29.1	-31.0	12.6	8.54e-05	0	41	0	30408704	19	4482
2026-01-14 07:40:04.45	75.48	7.82	-29.2	-31.4	12.3	1.50e-04	0	41	0	37748736	19	4634
2026-01-14 07:40:06.46	75.23	7.92	-29.1	-31.0	12.6	1.12e-04	0	41	0	44040192	19	4487
2026-01-14 07:40:08.46	74.97	8.03	-29.2	-31.2	12.5	1.37e-04	0	41	0	49283072	19	4557
2026-01-14 07:40:10.47	74.71	8.13	-29.0	-30.7	12.8	5.49e-05	0	41	0	55574528	19	4412
2026-01-14 07:40:12.48	74.45	8.23	-28.9	-30.6	12.9	5.18e-05	0	41	0	61865984	19	4358
2026-01-14 07:40:14.49	74.19	8.34	-28.9	-30.9	13.0	3.20e-05	0	41	0	68157440	18	4575
2026-01-14 07:40:16.50	73.93	8.44	-28.8	-30.8	13.1	2.59e-05	0	41	0	74448896	18	4518
2026-01-14 07:40:18.50	73.66	8.55	-29.0	-31.4	12.8	5.72e-05	0	41	0	80740352	18	4711
2026-01-14 07:40:20.51	73.39	8.65	-28.8	-30.7	13.2	1.98e-05	0	41	0	87031808	18	4502
2026-01-14 07:40:22.52	73.12	8.75	-28.8	-30.9	13.1	3.35e-05	0	41	0	93323264	18	4547
2026-01-14 07:40:24.53	72.85	8.85	-28.7	-30.6	13.3	1.60e-05	0	41	0	99614720	18	4459
2026-01-14 07:40:26.55	72.58	8.96	-29.0	-31.2	12.9	4.57e-05	0	41	0	105906176	18	4661
2026-01-14 07:40:28.55	72.30	9.06	-29.2	-31.7	12.7	9.84e-05	0	41	0	112197632	18	4802
2026-01-14 07:40:30.55	72.03	9.16	-29.3	-32.0	12.5	1.17e-04	0	41	0	118489088	18	4899
2026-01-14 07:40:32.56	71.75	9.26	-29.3	-31.9	12.5	1.20e-04	0	41	0	124780544	18	4877
2026-01-14 07:40:34.57	71.47	9.37	-29.2	-31.8	12.6	7.55e-05	0	41	0	131072000	18	4850
2026-01-14 07:40:36.57	71.18	9.47	-29.2	-31.8	12.7	6.17e-05	0	41	0	137363456	18	4830
2026-01-14 07:40:38.58	70.90	9.57	-29.0	-31.3	12.9	4.42e-05	0	42	0	143654912	18	4688
2026-01-14 07:40:40.58	70.61	9.67	-29.0	-31.2	13.0	4.34e-05	0	41	0	149946368	18	4658
2026-01-14 07:40:42.59	70.32	9.77	-29.1	-31.5	12.8	8.16e-05	0	41	0	156237824	18	4735
2026-01-14 07:40:44.59	70.03	9.87	-29.1	-31.5	12.8	6.56e-05	0	42	0	162529280	18	4735
2026-01-14 07:40:46.60	69.74	9.97	-29.2	-31.8	12.6	6.71e-05	0	42	0	168820736	18	4841
2026-01-14 07:40:48.61	69.44	10.07	-29.0	-31.3	13.0	5.56e-05	0	41	0	175112192	18	4682
2026-01-14 07:40:50.61	69.15	10.17	-28.8	-30.8	13.3	1.14e-05	0	42	0	181403648	18	4508
2026-01-14 07:40:52.62	68.85	10.27	-29.0	-31.2	13.1	3.81e-05	0	42	0	187695104	18	4638
2026-01-14 07:40:54.63	68.54	10.37	-29.1	-31.5	12.9	7.55e-05	0	42	0	193986560	18	4719
2026-01-14 07:40:56.64	68.24	10.47	-28.7	-30.5	13.5	1.90e-05	0	42	0	200278016	18	4429
2026-01-14 07:40:58.64	67.94	10.56	-28.8	-30.8	13.4	1.52e-05	0	42	0	206569472	18	4510
2026-01-14 07:41:00.65	67.63	10.66	-28.6	-30.3	13.6	1.52e-05	0	42	0	212860928	18	4363
2026-01-14 07:41:02.65	67.32	10.76	-28.6	-30.3	13.6	6.80e-06	0	42	0	219152384	18	4362
2026-01-14 07:41:04.66	67.01	10.86	-28.8	-30.8	13.4	1.75e-05	0	42	0	225443840	18	4512
2026-01-14 07:41:06.67	66.69	10.95	-28.9	-31.0	13.2	2.82e-05	0	42	0	231735296	18	4575
2026-01-14 07:41:08.67	66.38	11.05	-28.8	-30.6	13.5	1.06e-05	0	42	0	238026752	18	4434
2026-01-14 07:41:10.68	66.06	11.14	-28.7	-30.5	13.6	8.30e-06	0	42	0	244318208	18	4401
2026-01-14 07:41:12.69	65.74	11.24	-28.7	-30.5	13.6	1.14e-05	0	42	0	250609664	18	4414
2026-01-14 07:41:14.69	65.42	11.33	-28.6	-30.3	13.7	1.50e-06	0	42	0	256901120	18	4349
2026-01-14 07:41:16.70	65.09	11.43	-28.6	-30.3	13.7	6.10e-06	0	42	0	263192576	18	4346
2026-01-14 07:41:18.71	64.77	11.52	-28.7	-30.4	13.6	8.30e-06	0	42	0	269484032	18	4383
2026-01-14 07:41:20.71	64.44	11.61	-28.6	-30.3	13.7	6.80e-06	0	42	0	275775488	18	4346
2026-01-14 07:41:22.72	64.11	11.70	-28.4	-29.7	14.0	1.50e-06	0	42	0	282066944	18	4193
2026-01-14 07:41:24.73	63.77	11.79	-28.3	-29.5	14.2	7.00e-07	0	42	0	288358400	18	4138
2026-01-14 07:41:26.75	63.44	11.89	-28.4	-29.7	14.1	7.00e-07	0	42	0	294649856	18	4163
2026-01-14 07:41:28.76	63.10	11.98	-28.3	-29.9	14.2	0.00e+00	0	42	0	300941312	17	4338
2026-01-14 07:41:30.76	62.76	12.07	-28.5	-30.4	13.9	4.50e-06	0	42	0	307232768	17	4509
2026-01-14 07:41:32.76	62.42	12.15	-28.5	-30.4	13.9	3.80e-06	0	42	0	313524224	17	4491
2026-01-14 07:41:34.77	62.08	12.24	-28.6	-30.8	13.7	4.50e-06	0	42	0	319815680	17	4607
2026-01-14 07:41:36.78	61.73	12.33	-28.5	-30.3	14.0	1.50e-06	0	42	0	326107136	17	4473
2026-01-14 07:41:38.78	61.39	12.42	-28.6	-30.7	13.8	3.00e-06	0	42	0	332398592	17	4584
2026-01-14 07:41:40.79	61.04	12.50	-28.6	-30.6	13.9	2.20e-06	0	42	0	338690048	17	4547
2026-01-14 07:41:42.79	60.69	12.59	-28.7	-30.8	13.7	7.60e-06	0	42	0	344981504	17	4626
2026-01-14 07:41:44.80	60.33	12.67	-28.5	-30.5	14.0	2.20e-06	0	42	0	351272960	17	4514
2026-01-14 07:41:46.80	59.98	12.76	-28.6	-30.7	13.8	6.80e-06	0	42	0	357564416	17	4596
2026-01-14 07:41:48.81	59.62	12.84	-28.6	-30.6	13.9	2.20e-06	0	42	0	363855872	17	4565
2026-01-14 07:41:50.82	59.26	12.92	-28.7	-30.9	13.7	6.10e-06	0	42	0	370147328	17	4629
2026-01-14 07:41:52.83	58.90	13.00	-28.5	-30.4	14.0	7.00e-07	0	42	0	375390208	17	4496
2026-01-14 07:41:54.83	58.54	13.08	-28.4	-30.2	14.1	7.00e-07	0	42	0	381681664	17	4437
2026-01-14 07:41:56.84	58.17	13.16	-28.3	-29.9	14.3	1.50e-06	0	42	0	387973120	17	4352
2026-01-14 07:41:58.84	57.80	13.24	-28.4	-30.1	14.2	2.20e-06	0	42	0	394264576	17	4408
2026-01-14 07:42:00.85	57.43	13.32	-28.4	-30.2	14.2	7.00e-07	0	42	0	400556032	17	4419
2026-01-14 07:42:02.87	57.06	13.40	-28.4	-30.1	14.2	2.20e-06	0	42	0	406847488	17	4389
2026-01-14 07:42:04.88	56.69	13.47	-28.5	-30.5	14.0	3.00e-06	0	42	0	413138944	17	4507
2026-01-14 07:42:06.89	56.31	13.55	-28.5	-30.5	14.0	3.00e-06	0	42	0	419430400	17	4522
2026-01-14 07:42:08.89	55.93	13.62	-28.5	-30.3	14.1	2.20e-06	0	42	0	425721856	17	4463
2026-01-14 07:42:10.90	55.55	13.69	-28.5	-30.5	14.1	0.00e+00	0	42	0	432013312	17	4499
2026-01-14 07:42:12.89	55.18	13.76	-28.6	-30.7	13.9	7.60e-06	0	42	0	438304768	17	4568
2026-01-14 07:42:14.90	54.79	13.84	-28.5	-30.3	14.2	0.00e+00	0	42	0	444596224	17	4447
2026-01-14 07:42:16.90	54.41	13.91	-28.4	-30.3	14.2	1.50e-06	0	43	0	450887680	17	4436
2026-01-14 07:42:18.90	54.02	13.97	-28.3	-30.0	14.3	2.20e-06	0	42	0	457179136	17	4368
2026-01-14 07:42:20.90	53.64	14.04	-28.2	-29.7	14.5	7.00e-07	0	42	0	463470592	17	4285
2026-01-14 07:42:22.90	53.25	14.11	-28.2	-29.7	14.6	7.00e-07	0	42	0	469762048	17	4267
2026-01-14 07:42:24.90	52.86	14.17	-28.3	-29.9	14.4	7.00e-07	0	43	0	476053504	17	4334
2026-01-14 07:42:26.91	52.46	14.24	-28.2	-29.8	14.5	7.00e-07	0	42	0	482344960	17	4298
2026-01-14 07:42:28.92	52.07	14.30	-28.2	-29.8	14.5	0.00e+00	0	43	0	488636416	17	4303
2026-01-14 07:42:30.92	51.67	14.36	-28.3	-30.0	14.4	1.50e-06	0	43	0	494927872	17	4347
2026-01-14 07:42:32.92	51.28	14.42	-28.3	-29.9	14.4	7.00e-07	0	42	0	501219328	17	4326
2026-01-14 07:42:34.94	50.87	14.48	-28.4	-30.2	14.2	1.50e-06	0	42	0	507510784	17	4416
2026-01-14 07:42:36.92	50.48	14.54	-28.5	-30.3	14.2	0.00e+00	0	42	0	513802240	17	4439
2026-01-14 07:42:38.93	50.07	14.59	-28.5	-30.3	14.2	3.00e-06	0	42	0	520093696	17	4449
2026-01-14 07:42:40.94	49.67	14.65	-28.3	-30.0	14.4	1.50e-06	0	42	0	526385152	17	4347
2026-01-14 07:42:42.94	49.26	14.70	-28.4	-30.0	14.3	2.20e-06	0	42	0	532676608	17	4374
2026-01-14 07:42:44.95	48.86	14.76	-28.3	-29.9	14.4	7.00e-07	0	42	0	538968064	17	4344
2026-01-14 07:42:46.96	48.45	14.81	-28.1	-29.5	14.7	0.00e+00	0	42	0	545259520	17	4226
2026-01-14 07:42:48.95	48.04	14.86	-28.1	-29.5	14.7	0.00e+00	0	43	0	551550976	17	4222
2026-01-14 07:42:50.96	47.63	14.91	-28.1	-29.5	14.7	2.20e-06	0	42	0	557842432	17	4217
2026-01-14 07:42:52.96	47.22	14.95	-28.1	-29.5	14.7	0.00e+00	0	43	0	564133888	17	4216
2026-01-14 07:42:54.97	46.80	15.00	-28.2	-29.6	14.6	0.00e+00	0	42	0	570425344	17	4255
2026-01-14 07:42:56.97	46.39	15.04	-28.1	-29.4	14.7	0.00e+00	0	42	0	576716800	17	4189
2026-01-14 07:42:58.98	45.97	15.09	-27.9	-29.1	14.9	0.00e+00	0	42	0	583008256	17	4100
2026-01-14 07:43:00.98	45.55	15.13	-27.9	-29.0	15.0	7.00e-07	0	42	0	589299712	17	4076
2026-01-14 07:43:02.98	45.13	15.17	-28.0	-29.2	14.9	0.00e+00	0	43	0	595591168	17	4132
2026-01-14 07:43:04.99	44.71	15.21	-28.0	-29.3	14.8	0.00e+00	0	43	0	601882624	17	4165
2026-01-14 07:43:07.00	44.29	15.24	-28.2	-29.7	14.6	7.00e-07	0	42	0	608174080	17	4268
2026-01-14 07:43:09.01	43.87	15.28	-28.1	-29.5	14.7	0.00e+00	0	43	0	614465536	17	4212
2026-01-14 07:43:11.01	43.45	15.31	-28.1	-29.4	14.7	7.00e-07	0	43	0	620756992	17	4188
2026-01-14 07:43:13.02	43.02	15.34	-28.0	-29.2	14.8	0.00e+00	0	42	0	625999872	17	4141
2026-01-14 07:43:15.02	42.60	15.38	-27.9	-29.0	15.0	0.00e+00	0	42	0	632291328	17	4075
2026-01-14 07:43:17.02	42.17	15.40	-27.8	-28.8	15.1	0.00e+00	0	43	0	638582784	17	4037
2026-01-14 07:43:19.03	41.75	15.43	-27.9	-29.0	15.0	0.00e+00	0	42	0	644874240	17	4088
2026-01-14 07:43:21.03	41.32	15.46	-28.1	-29.4	14.7	0.00e+00	0	43	0	651165696	17	4196
2026-01-14 07:43:23.05	40.89	15.48	-28.3	-29.9	14.5	7.00e-07	0	42	0	657457152	17	4315
2026-01-14 07:43:25.05	40.46	15.51	-28.3	-29.9	14.4	1.50e-06	0	42	0	663748608	17	4343
2026-01-14 07:43:27.05	40.03	15.53	-28.2	-29.8	14.6	0.00e+00	0	42	0	670040064	17	4288
2026-01-14 07:43:29.06	39.60	15.55	-28.1	-29.5	14.7	0.00e+00	0	43	0	676331520	17	4229
2026-01-14 07:43:31.07	39.17	15.57	-28.2	-29.6	14.7	1.50e-06	0	43	0	682622976	17	4232
2026-01-14 07:43:33.07	38.74	15.58	-28.2	-29.6	14.7	2.20e-06	0	42	0	688914432	17	4240
2026-01-14 07:43:35.08	38.31	15.60	-28.3	-30.0	14.4	0.00e+00	0	43	0	695205888	17	4362
2026-01-14 07:43:37.09	37.87	15.61	-28.2	-29.7	14.6	0.00e+00	0	43	0	701497344	17	4280
2026-01-14 07:43:39.09	37.44	15.62	-28.2	-29.7	14.6	1.50e-06	0	42	0	707788800	17	4267
2026-01-14 07:43:41.10	37.01	15.63	-28.5	-30.3	14.3	0.00e+00	0	42	0	714080256	17	4430
2026-01-14 07:43:43.10	36.58	15.64	-28.5	-30.3	14.2	7.00e-07	0	43	0	720371712	17	4447
2026-01-14 07:43:45.11	36.14	15.65	-28.2	-29.7	14.6	7.00e-07	0	42	0	726663168	17	4267
2026-01-14 07:43:47.11	35.71	15.65	-28.3	-29.9	14.5	2.20e-06	0	43	0	732954624	17	4318
2026-01-14 07:43:49.12	35.28	15.66	-28.3	-29.9	14.5	7.00e-07	0	43	0	739246080	17	4324
2026-01-14 07:43:51.12	34.85	15.66	-28.3	-30.0	14.4	1.50e-06	0	43	0	745537536	17	4358
2026-01-14 07:43:53.13	34.41	15.66	-28.4	-30.1	14.4	7.00e-07	0	43	0	751828992	17	4376
2026-01-14 07:43:55.13	33.98	15.66	-28.2	-29.8	14.6	0.00e+00	0	43	0	758120448	17	4292
2026-01-14 07:43:57.14	33.55	15.65	-28.3	-30.0	14.4	1.50e-06	0	42	0	764411904	17	4352
2026-01-14 07:43:59.15	33.11	15.65	-28.1	-29.5	14.7	0.00e+00	0	43	0	770703360	17	4216
2026-01-14 07:44:01.16	32.68	15.64	-28.2	-29.6	14.7	0.00e+00	0	42	0	776994816	17	4239
2026-01-14 07:44:03.16	32.25	15.63	-28.2	-29.7	14.6	0.00e+00	0	42	0	783286272	17	4271
2026-01-14 07:44:05.16	31.82	15.62	-28.2	-29.6	14.6	0.00e+00	0	43	0	789577728	17	4250
2026-01-14 07:44:07.17	31.38	15.61	-28.3	-29.8	14.5	7.00e-07	0	43	0	795869184	17	4313
2026-01-14 07:44:09.19	30.95	15.60	-28.3	-29.9	14.5	1.50e-06	0	43	0	802160640	17	4323
2026-01-14 07:44:11.20	30.52	15.59	-28.1	-29.5	14.7	0.00e+00	0	43	0	808452096	17	4232
2026-01-14 07:44:13.22	30.08	15.57	-28.2	-29.6	14.7	0.00e+00	0	42	0	814743552	17	4234
2026-01-14 07:44:15.22	29.65	15.55	-28.1	-29.5	14.7	0.00e+00	0	42	0	821035008	17	4226
2026-01-14 07:44:17.23	29.22	15.53	-28.2	-29.6	14.7	0.00e+00	0	43	0	827326464	17	4235
2026-01-14 07:44:19.24	28.79	15.51	-28.1	-29.4	14.8	1.50e-06	0	43	0	833617920	17	4192
2026-01-14 07:44:21.25	28.36	15.49	-28.1	-29.5	14.7	7.00e-07	0	43	0	839909376	17	4223
2026-01-14 07:44:23.25	27.93	15.46	-28.2	-29.7	14.6	7.00e-07	0	42	0	846200832	17	4287
2026-01-14 07:44:25.27	27.50	15.44	-28.3	-30.0	14.4	0.00e+00	0	42	0	852492288	17	4348
2026-01-14 07:44:27.28	27.08	15.41	-28.3	-29.8	14.5	7.00e-07	0	43	0	858783744	17	4304
2026-01-14 07:44:29.28	26.65	15.38	-28.1	-29.5	14.7	0.00e+00	0	42	0	865075200	17	4215
2026-01-14 07:44:31.29	26.23	15.35	-28.0	-29.2	14.8	7.00e-07	0	42	0	871366656	17	4146
2026-01-14 07:44:33.30	25.80	15.32	-28.1	-29.3	14.7	0.00e+00	0	42	0	877658112	17	4178
2026-01-14 07:44:35.31	25.38	15.28	-28.2	-29.7	14.6	0.00e+00	0	43	0	883949568	17	4260
2026-01-14 07:44:37.31	24.96	15.25	-28.3	-30.0	14.4	0.00e+00	0	42	0	890241024	17	4353
2026-01-14 07:44:39.32	24.54	15.21	-28.2	-29.7	14.5	0.00e+00	0	43	0	896532480	17	4279
2026-01-14 07:44:41.32	24.12	15.17	-28.1	-29.5	14.6	7.00e-07	0	43	0	902823936	17	4210
2026-01-14 07:44:43.33	23.70	15.13	-28.0	-29.2	14.8	0.00e+00	0	43	0	909115392	17	4135
2026-01-14 07:44:45.33	23.28	15.09	-28.1	-29.5	14.6	0.00e+00	0	43	0	915406848	17	4231
2026-01-14 07:44:47.34	22.87	15.05	-27.9	-28.9	14.9	0.00e+00	0	43	0	921698304	17	4065
2026-01-14 07:44:49.36	22.45	15.01	-27.9	-29.0	14.9	7.00e-07	0	43	0	927989760	17	4092
2026-01-14 07:44:51.36	22.04	14.96	-28.1	-29.4	14.7	0.00e+00	0	43	0	934281216	17	4188
2026-01-14 07:44:53.38	21.62	14.91	-28.2	-29.6	14.5	0.00e+00	0	43	0	940572672	17	4254
2026-01-14 07:44:55.38	21.21	14.87	-28.1	-29.5	14.6	7.00e-07	0	43	0	946864128	17	4231
2026-01-14 07:44:57.39	20.80	14.82	-28.0	-29.3	14.7	7.00e-07	0	43	0	953155584	17	4177
2026-01-14 07:44:59.40	20.39	14.76	-27.9	-29.1	14.8	7.00e-07	0	43	0	959447040	17	4113
2026-01-14 07:45:01.41	19.98	14.71	-28.0	-29.2	14.8	0.00e+00	0	43	0	965738496	17	4133
2026-01-14 07:45:03.42	19.58	14.66	-28.0	-29.2	14.8	1.50e-06	0	43	0	972029952	17	4137
2026-01-14 07:45:05.42	19.17	14.60	-28.1	-29.5	14.6	7.00e-07	0	42	0	977272832	17	4232
2026-01-14 07:45:07.43	18.77	14.55	-28.2	-29.7	14.5	0.00e+00	0	42	0	983564288	17	4278
2026-01-14 07:45:09.44	18.37	14.49	-28.3	-29.9	14.3	0.00e+00	0	43	0	989855744	17	4333
2026-01-14 07:45:11.44	17.97	14.43	-28.1	-29.4	14.6	0.00e+00	0	43	0	996147200	17	4204
2026-01-14 07:45:13.44	17.58	14.37	-28.1	-29.5	14.6	0.00e+00	0	43	0	1002438656	17	4213
2026-01-14 07:45:15.45	17.18	14.31	-28.0	-29.3	14.7	0.00e+00	0	43	0	1008730112	17	4176
2026-01-14 07:45:17.45	16.79	14.25	-28.0	-29.2	14.7	0.00e+00	0	43	0	1015021568	17	4151
2026-01-14 07:45:19.43	16.40	14.18	-28.0	-29.2	14.7	7.00e-07	0	43	0	1021313024	17	4147
2026-01-14 07:45:21.42	16.01	14.12	-28.1	-29.4	14.6	7.00e-07	0	43	0	1027604480	17	4186
2026-01-14 07:45:23.42	15.62	14.05	-28.1	-29.6	14.5	0.00e+00	0	43	0	1033895936	17	4237
2026-01-14 07:45:25.42	15.24	13.99	-28.3	-29.8	14.4	7.00e-07	0	43	0	1040187392	17	4319
2026-01-14 07:45:27.43	14.85	13.92	-28.3	-29.8	14.3	7.00e-07	0	43	0	1046478848	17	4321
2026-01-14 07:45:29.44	14.47	13.85	-28.3	-29.9	14.3	7.00e-07	0	43	0	1052770304	17	4342
2026-01-14 07:45:31.44	14.09	13.78	-28.4	-30.1	14.2	2.20e-06	0	43	0	1059061760	17	4379
2026-01-14 07:45:33.44	13.71	13.71	-28.1	-29.4	14.6	0.00e+00	0	43	0	1065353216	17	4185
2026-01-14 07:45:35.45	13.33	13.63	-28.1	-29.5	14.6	7.00e-07	0	43	0	1071644672	17	4208
2026-01-14 07:45:37.46	12.95	13.56	-28.2	-29.8	14.4	7.00e-07	0	43	0	1077936128	17	4300
2026-01-14 07:45:39.46	12.58	13.49	-28.3	-29.9	14.3	0.00e+00	0	43	0	1084227584	17	4344
2026-01-14 07:45:41.46	12.21	13.41	-28.2	-29.6	14.4	2.20e-06	0	43	0	1090519040	17	4267
2026-01-14 07:45:43.48	11.83	13.33	-28.1	-29.4	14.5	0.00e+00	0	43	0	1096810496	17	4213
2026-01-14 07:45:45.47	11.47	13.26	-28.1	-29.4	14.6	0.00e+00	0	43	0	1103101952	17	4196
2026-01-14 07:45:47.48	11.10	13.18	-28.1	-29.5	14.5	0.00e+00	0	43	0	1109393408	17	4242
2026-01-14 07:45:49.48	10.74	13.10	-28.2	-29.7	14.4	7.00e-07	0	43	0	1115684864	17	4269
2026-01-14 07:45:51.50	10.37	13.02	-28.2	-29.6	14.4	7.00e-07	0	43	0	1121976320	17	4255
2026-01-14 07:45:53.50	10.01	12.94	-28.2	-29.6	14.4	0.00e+00	0	43	0	1128267776	17	4268
2026-01-14 07:45:55.51	9.65	12.86	-28.0	-29.2	14.7	0.00e+00	0	43	0	1134559232	17	4141
2026-01-14 07:45:57.51	9.30	12.77	-28.0	-29.3	14.6	0.00e+00	0	43	0	1140850688	17	4187
2026-01-14 07:45:59.53	8.94	12.69	-28.1	-29.6	14.4	0.00e+00	0	43	0	1147142144	17	4243
2026-01-14 07:46:01.53	8.59	12.61	-28.3	-30.0	14.2	2.20e-06	0	43	0	1153433600	17	4363
2026-01-14 07:46:03.54	8.24	12.52	-28.4	-30.2	14.1	7.00e-07	0	43	0	1159725056	17	4432
2026-01-14 07:46:05.55	7.89	12.44	-28.5	-30.4	13.9	3.00e-06	0	43	0	1166016512	17	4489
2026-01-14 07:46:07.56	7.54	12.35	-28.6	-30.6	13.9	6.80e-06	0	43	0	1172307968	17	4539
2026-01-14 07:46:09.56	7.20	12.26	-28.5	-30.5	13.9	3.00e-06	0	43	0	1178599424	17	4510
2026-01-14 07:46:11.56	6.86	12.17	-28.5	-30.5	13.9	1.50e-06	0	43	0	1184890880	17	4530
2026-01-14 07:46:13.58	6.52	12.09	-28.5	-30.6	13.9	4.50e-06	0	43	0	1191182336	17	4541
2026-01-14 07:46:15.59	6.18	12.00	-28.7	-30.9	13.6	9.90e-06	0	43	0	1197473792	17	4660
2026-01-14 07:46:17.59	5.84	11.91	-28.8	-31.2	13.4	1.37e-05	0	43	0	1203765248	17	4751
2026-01-14 07:46:19.60	5.51	11.82	-28.7	-31.0	13.6	1.06e-05	0	43	0	1210056704	17	4673
2026-01-14 07:46:21.60	5.18	11.72	-28.7	-31.0	13.5	1.06e-05	0	43	0	1216348160	17	4683
2026-01-14 07:46:23.60	4.85	11.63	-28.6	-30.6	13.8	4.50e-06	0	43	0	1222639616	17	4551
2026-01-14 07:46:25.60	4.52	11.54	-28.6	-30.7	13.7	3.00e-06	0	43	0	1227882496	17	4600
2026-01-14 07:46:27.60	4.20	11.45	-28.6	-30.7	13.7	4.50e-06	0	43	0	1234173952	17	4584
2026-01-14 07:46:29.60	3.88	11.36	-28.5	-30.4	13.9	2.20e-06	0	43	0	1240465408	17	4494
2026-01-14 07:46:31.61	3.55	11.26	-28.8	-31.2	13.4	1.22e-05	0	43	0	1246756864	17	4737
2026-01-14 07:46:33.62	3.24	11.17	-28.9	-31.5	13.2	2.28e-05	0	43	0	1253048320	17	4839
2026-01-14 07:46:35.62	2.92	11.07	-29.2	-31.6	12.9	4.19e-05	0	43	0	1259339776	18	4755
2026-01-14 07:46:37.62	2.61	10.98	-29.3	-31.8	12.7	5.95e-05	0	43	0	1265631232	18	4835
2026-01-14 07:46:39.63	2.29	10.88	-29.4	-32.1	12.5	1.04e-04	0	43	0	1271922688	18	4937
2026-01-14 07:46:41.64	1.98	10.78	-29.2	-31.7	12.7	7.32e-05	0	43	0	1278214144	18	4804
2026-01-14 07:46:43.64	1.67	10.69	-29.3	-31.4	12.6	1.20e-04	0	43	0	1284505600	19	4596
2026-01-14 07:46:45.66	1.36	10.59	-29.3	-31.5	12.5	9.91e-05	0	43	0	1290797056	19	4637
2026-01-14 07:46:47.67	1.06	10.49	-29.0	-30.8	12.9	3.28e-05	0	43	0	1297088512	19	4400
2026-01-14 07:46:49.67	0.76	10.40	-28.8	-30.6	13.4	1.29e-05	0	43	0	1303379968	18	4460
2026-01-14 07:46:51.68	0.46	10.30	-28.8	-30.8	13.3	2.21e-05	0	43	0	1309671424	18	4506
2026-01-14 07:46:53.69	0.16	10.20	-28.9	-31.1	13.1	3.66e-05	0	43	0	1315962880	18	4592
2026-01-14 07:46:55.70	359.86	10.10	-28.9	-30.9	13.2	3.20e-05	0	43	0	1322254336	18	4555
2026-01-14 07:46:57.71	359.57	10.00	-28.8	-30.6	13.4	8.30e-06	0	43	0	1328545792	18	4448
2026-01-14 07:46:59.72	359.27	9.90	-28.9	-30.9	13.2	2.36e-05	0	43	0	1334837248	18	4557
2026-01-14 07:47:01.72	358.99	9.80	-28.9	-31.1	13.1	2.82e-05	0	43	0	1341128704	18	4602
2026-01-14 07:47:03.73	358.70	9.70	-29.0	-31.1	13.0	3.43e-05	0	43	0	1347420160	18	4618
2026-01-14 07:47:05.73	358.41	9.60	-29.1	-31.4	12.9	5.95e-05	0	43	0	1353711616	18	4705
2026-01-14 07:47:07.74	358.13	9.50	-29.1	-31.4	12.8	6.33e-05	0	43	0	1360003072	18	4709
2026-01-14 07:47:09.75	357.84	9.40	-29.1	-31.6	12.7	6.10e-05	0	43	0	1366294528	18	4766
2026-01-14 07:47:11.75	357.57	9.29	-28.9	-31.0	13.0	2.97e-05	0	43	0	1372585984	18	4587
2026-01-14 07:47:13.75	357.29	9.19	-29.0	-31.3	12.9	6.02e-05	0	43	0	1378877440	18	4675
2026-01-14 07:47:15.76	357.01	9.09	-29.2	-31.7	12.6	7.32e-05	0	43	0	1385168896	18	4818
2026-01-14 07:47:17.77	356.74	8.99	-28.8	-30.7	13.2	1.67e-05	0	43	0	1391460352	18	4499
2026-01-14 07:47:19.78	356.46	8.89	-28.7	-30.5	13.3	1.75e-05	0	43	0	1397751808	18	4437
2026-01-14 07:47:21.78	356.20	8.78	-28.9	-31.1	13.0	2.44e-05	0	43	0	1404043264	18	4604
2026-01-14 07:47:23.79	355.93	8.68	-29.0	-31.2	12.9	3.89e-05	0	43	0	1410334720	18	4633
2026-01-14 07:47:25.79	355.66	8.58	-29.0	-31.3	12.8	6.40e-05	0	43	0	1416626176	18	4678
2026-01-14 07:47:27.80	355.40	8.48	-29.2	-31.7	12.5	9.61e-05	0	43	0	1422917632	18	4829
2026-01-14 07:47:29.80	355.14	8.37	-29.1	-31.4	12.7	8.54e-05	0	43	0	1429209088	18	4723
2026-01-14 07:47:31.80	354.88	8.27	-28.9	-31.0	13.0	3.05e-05	0	43	0	1435500544	18	4585
2026-01-14 07:47:33.81	354.62	8.17	-28.9	-31.1	12.9	3.43e-05	0	43	0	1441792000	18	4615
2026-01-14 07:47:35.82	354.36	8.06	-29.1	-31.4	12.7	7.40e-05	0	43	0	1448083456	18	4735
2026-01-14 07:47:37.82	354.11	7.96	-29.1	-31.4	12.7	7.47e-05	0	43	0	1454374912	18	4726
2026-01-14 07:47:39.82	353.85	7.85	-29.1	-31.6	12.6	5.79e-05	0	43	0	1460666368	18	4774
2026-01-14 07:47:41.83	353.60	7.75	-29.0	-31.4	12.7	8.23e-05	0	43	0	1466957824	18	4720
2026-01-14 07:47:43.82	353.35	7.65	-29.0	-31.3	12.7	8.62e-05	0	43	0	1473249280	18	4705
2026-01-14 07:47:45.84	353.10	7.54	-29.0	-31.2	12.7	6.71e-05	0	43	0	1478492160	18	4659
2026-01-14 07:47:47.84	352.86	7.44	-29.0	-31.3	12.7	6.02e-05	0	43	0	1485832192	18	4680
2026-01-14 07:47:49.86	352.61	7.33	-29.2	-31.9	12.3	2.01e-04	0	43	0	1492123648	18	4896
2026-01-14 07:47:51.86	352.37	7.23	-29.2	-31.8	12.4	1.37e-04	0	43	0	1498415104	18	4848
2026-01-14 07:47:53.87	352.13	7.12	-29.2	-31.8	12.3	1.82e-04	0	43	0	1503657984	18	4858
2026-01-14 07:47:55.87	351.89	7.02	-33.4	-45.3	3.8	1.43e+00	0	43	104	1508900864	26	14147

#Closed at: 2026-01-14 07:47:57
#Recorded file [1508 MB]: D:/data/31010_260114_103952.dat