passes_logs/2026/01/14/R2M6_AANII_01/R2M6_AANII_01__20260114_112143_AQUA_rec.log

#Pass ID: 20260114_112143_AQUA
#Satellite: AQUA
#Configuration: AQUA
#almurnet v.1.7.20240730
#Start time: 2026-01-14 11:21:43

#Version: 2.2.20231116
#Station: R2M6_AANII_01
#Location: 30.233357 lon 59.946436 lat
#TLE: 1 27424U 02022A   26013.25278823  .00000890  00000+0  18808-3 0  9998
#TLE: 2 27424  98.4079 339.6508 0002047  80.3961  24.1839 14.61818714260637

#Time	Az	El	Level	Level2	SNR	BER	BlckErr	Temp	State	Recorded	gain1	gain2
2026-01-14 11:21:43.48	137.48	7.04	-31.5	-38.1	5.1	7.13e-01	0	40	0	0	25	7708
2026-01-14 11:21:46.49	137.35	7.28	-31.4	-37.2	14.1	6.08e-01	0	40	0	1572864	24	7050
2026-01-14 11:21:49.51	137.21	7.52	-31.1	-36.5	14.6	6.06e-01	0	40	0	7340032	24	6654
2026-01-14 11:21:52.51	137.07	7.77	-31.2	-36.2	15.0	6.06e-01	0	40	0	13107200	24	6420
2026-01-14 11:21:55.52	136.93	8.02	-30.6	-34.3	16.7	6.08e-01	0	40	0	18350080	23	5565
2026-01-14 11:21:58.53	136.79	8.27	-30.8	-34.8	16.5	6.08e-01	0	40	0	24117248	23	5725
2026-01-14 11:22:01.54	136.65	8.52	-30.7	-34.6	16.7	6.05e-01	0	41	0	29884416	23	5631
2026-01-14 11:22:04.54	136.50	8.78	-30.8	-34.7	16.8	6.06e-01	0	40	0	35651584	23	5608
2026-01-14 11:22:07.54	136.35	9.04	-30.4	-33.7	17.8	6.05e-01	0	41	0	41418752	22	5297
2026-01-14 11:22:10.54	136.19	9.30	-30.5	-34.1	17.6	6.07e-01	0	41	0	46661632	22	5454
2026-01-14 11:22:13.55	136.03	9.57	-30.3	-33.5	18.1	6.07e-01	0	41	0	52428800	22	5179
2026-01-14 11:22:16.55	135.87	9.83	-30.3	-33.4	18.1	6.06e-01	0	41	0	58195968	22	5158
2026-01-14 11:22:19.56	135.71	10.11	-30.2	-33.1	18.4	6.06e-01	0	41	0	63438848	22	5035
2026-01-14 11:22:22.57	135.54	10.38	-30.3	-33.4	18.2	6.06e-01	0	41	0	69206016	22	5148
2026-01-14 11:22:25.58	135.36	10.66	-30.1	-33.0	18.5	6.07e-01	0	41	0	74973184	22	4976
2026-01-14 11:22:28.59	135.19	10.94	-30.1	-32.8	18.6	6.05e-01	0	41	0	80740352	22	4895
2026-01-14 11:22:31.60	135.01	11.22	-30.0	-32.6	18.8	6.07e-01	0	41	0	86507520	22	4843
2026-01-14 11:22:34.61	134.82	11.51	-30.1	-32.7	18.8	6.06e-01	0	41	0	91750400	22	4852
2026-01-14 11:22:37.62	134.64	11.80	-29.9	-32.4	19.0	6.08e-01	0	41	0	97517568	22	4774
2026-01-14 11:22:40.62	134.44	12.10	-30.0	-32.6	18.8	6.08e-01	0	41	0	103284736	22	4863
2026-01-14 11:22:43.64	134.25	12.40	-29.9	-32.9	18.9	6.05e-01	0	41	0	109051904	21	5118
2026-01-14 11:22:46.65	134.05	12.70	-29.9	-33.1	18.8	6.06e-01	0	41	0	114294784	21	5163
2026-01-14 11:22:49.66	133.84	13.01	-29.8	-32.8	19.1	6.07e-01	0	41	0	120061952	21	5048
2026-01-14 11:22:52.67	133.63	13.32	-29.8	-32.7	19.1	6.07e-01	0	42	0	125829120	21	5014
2026-01-14 11:22:55.68	133.41	13.63	-29.8	-32.5	19.3	6.07e-01	0	42	0	131596288	21	4911
2026-01-14 11:22:58.68	133.19	13.95	-29.9	-32.7	19.2	6.06e-01	0	41	0	136839168	21	4966
2026-01-14 11:23:01.70	132.97	14.27	-30.0	-32.8	19.2	6.07e-01	0	41	0	142606336	21	4992
2026-01-14 11:23:04.71	132.73	14.60	-30.0	-32.9	19.1	6.07e-01	0	42	0	148373504	21	5054
2026-01-14 11:23:07.70	132.50	14.93	-29.8	-32.5	19.4	6.04e-01	0	42	0	154140672	21	4918
2026-01-14 11:23:10.70	132.26	15.27	-30.0	-32.9	19.2	6.05e-01	0	41	0	159383552	21	5027
2026-01-14 11:23:13.72	132.00	15.61	-29.9	-32.5	19.5	6.08e-01	0	42	0	165150720	21	4877
2026-01-14 11:23:16.73	131.75	15.95	-29.9	-32.7	19.5	6.08e-01	0	42	0	170917888	21	4922
2026-01-14 11:23:19.73	131.49	16.30	-30.0	-32.8	19.4	6.07e-01	0	42	0	176685056	21	4969
2026-01-14 11:23:22.74	131.22	16.66	-29.8	-32.4	19.6	6.05e-01	0	42	0	181927936	21	4832
2026-01-14 11:23:25.74	130.94	17.02	-29.8	-32.2	19.8	6.05e-01	0	42	0	187695104	21	4754
2026-01-14 11:23:28.76	130.66	17.39	-29.8	-32.2	19.9	6.07e-01	0	42	0	193462272	21	4749
2026-01-14 11:23:31.78	130.36	17.76	-29.9	-32.6	19.7	6.06e-01	0	42	0	199229440	21	4869
2026-01-14 11:23:34.78	130.06	18.14	-30.0	-32.7	19.6	6.07e-01	0	42	0	204472320	21	4903
2026-01-14 11:23:37.78	129.76	18.52	-30.3	-33.5	19.1	6.08e-01	0	42	0	210239488	21	5196
2026-01-14 11:23:40.80	129.44	18.91	-30.3	-33.4	19.2	6.05e-01	0	42	0	216006656	21	5169
2026-01-14 11:23:43.81	129.12	19.30	-30.5	-34.0	18.9	6.05e-01	0	42	0	221773824	21	5379
2026-01-14 11:23:46.82	128.78	19.70	-30.0	-32.7	19.7	6.06e-01	0	42	0	227016704	21	4911
2026-01-14 11:23:49.83	128.44	20.11	-29.9	-32.4	19.9	6.05e-01	0	42	0	232783872	21	4810
2026-01-14 11:23:52.85	128.08	20.52	-30.1	-32.8	19.7	6.07e-01	0	42	0	238551040	21	4928
2026-01-14 11:23:55.86	127.72	20.94	-30.1	-32.9	19.7	6.05e-01	0	42	0	244318208	21	4956
2026-01-14 11:23:58.85	127.34	21.36	-30.2	-33.2	19.5	6.08e-01	0	42	0	250085376	21	5072
2026-01-14 11:24:01.87	126.95	21.80	-30.1	-32.9	19.7	6.08e-01	0	42	0	255328256	21	4977
2026-01-14 11:24:04.88	126.56	22.24	-30.2	-33.2	19.5	6.06e-01	0	42	0	261095424	21	5073
2026-01-14 11:24:07.89	126.14	22.68	-30.2	-33.2	19.6	6.04e-01	0	42	0	266862592	21	5055
2026-01-14 11:24:10.89	125.72	23.13	-30.3	-33.3	19.5	6.06e-01	0	42	0	272629760	21	5094
2026-01-14 11:24:13.90	125.28	23.59	-30.2	-33.1	19.6	6.03e-01	0	42	0	277872640	21	5043
2026-01-14 11:24:16.92	124.83	24.06	-30.4	-33.7	19.3	6.05e-01	0	42	0	283639808	21	5246
2026-01-14 11:24:19.93	124.37	24.54	-30.3	-33.2	19.6	6.06e-01	0	42	0	289406976	21	5037
2026-01-14 11:24:22.94	123.89	25.02	-30.2	-33.0	19.7	6.04e-01	0	42	0	295174144	21	4995
2026-01-14 11:24:25.95	123.39	25.51	-30.3	-33.3	19.6	6.07e-01	0	42	0	300941312	21	5077
2026-01-14 11:24:28.90	122.89	25.99	-30.0	-32.4	20.1	6.08e-01	0	42	0	306184192	21	4786
2026-01-14 11:24:31.89	122.36	26.49	-30.1	-32.7	20.0	6.07e-01	0	42	0	311951360	21	4864
2026-01-14 11:24:34.91	121.81	27.01	-30.1	-32.7	20.0	6.07e-01	0	42	0	317718528	21	4869
2026-01-14 11:24:37.91	121.24	27.52	-30.1	-32.7	20.1	6.06e-01	0	42	0	322961408	21	4854
2026-01-14 11:24:40.93	120.65	28.05	-30.3	-33.4	19.6	6.06e-01	0	42	0	328728576	21	5114
2026-01-14 11:24:43.93	120.05	28.58	-30.1	-32.7	20.0	6.04e-01	0	42	0	334495744	21	4881
2026-01-14 11:24:46.94	119.42	29.13	-29.8	-32.0	20.5	6.08e-01	0	42	0	340262912	21	4632
2026-01-14 11:24:49.95	118.77	29.67	-29.9	-32.2	20.4	6.06e-01	0	42	0	345505792	21	4687
2026-01-14 11:24:52.95	118.09	30.23	-29.6	-31.4	20.8	6.06e-01	0	42	0	351272960	21	4453
2026-01-14 11:24:55.96	117.39	30.79	-29.6	-31.4	20.8	6.05e-01	0	42	0	357040128	21	4457
2026-01-14 11:24:58.97	116.66	31.36	-29.8	-32.1	20.5	6.05e-01	0	42	0	362807296	21	4650
2026-01-14 11:25:01.97	115.91	31.94	-29.7	-31.8	20.6	6.06e-01	0	42	0	368050176	21	4562
2026-01-14 11:25:04.98	115.13	32.52	-29.8	-32.1	20.5	6.08e-01	0	42	0	373817344	21	4645
2026-01-14 11:25:08.00	114.32	33.11	-29.9	-32.2	20.4	6.06e-01	0	42	0	379584512	21	4698
2026-01-14 11:25:11.01	113.47	33.70	-30.1	-32.8	20.1	6.07e-01	0	42	0	385351680	21	4875
2026-01-14 11:25:14.02	112.60	34.30	-30.3	-33.2	19.9	6.07e-01	0	42	0	390594560	21	5004
2026-01-14 11:25:17.03	111.69	34.91	-30.4	-33.5	19.7	6.06e-01	0	42	0	396361728	21	5133
2026-01-14 11:25:20.04	110.74	35.52	-30.6	-33.5	19.4	6.09e-01	0	42	0	402128896	22	5014
2026-01-14 11:25:23.04	109.76	36.13	-30.7	-33.7	19.3	6.06e-01	0	42	0	407896064	22	5101
2026-01-14 11:25:26.05	108.74	36.74	-30.9	-34.3	18.9	6.07e-01	0	42	0	413138944	22	5320
2026-01-14 11:25:29.05	107.68	37.36	-31.8	-35.7	17.5	6.07e-01	0	42	0	418906112	24	5636
2026-01-14 11:25:32.06	106.58	37.97	-31.5	-34.9	18.0	6.05e-01	0	42	0	424673280	24	5301
2026-01-14 11:25:35.07	105.43	38.59	-31.6	-35.3	17.7	6.05e-01	0	42	0	430440448	24	5456
2026-01-14 11:25:38.07	104.24	39.20	-31.5	-34.9	18.0	6.08e-01	0	42	0	435683328	24	5320
2026-01-14 11:25:41.08	103.00	39.81	-31.2	-33.9	18.6	6.07e-01	0	42	0	441450496	24	4936
2026-01-14 11:25:44.09	101.71	40.42	-31.2	-34.0	18.6	6.07e-01	0	42	0	447217664	24	4973
2026-01-14 11:25:47.10	100.37	41.02	-31.4	-34.4	18.3	6.06e-01	0	42	0	452984832	24	5128
2026-01-14 11:25:50.11	98.98	41.61	-31.1	-33.6	18.9	6.07e-01	0	42	0	458227712	24	4819
2026-01-14 11:25:53.12	97.54	42.20	-31.5	-34.7	18.1	6.06e-01	0	42	0	463994880	24	5240
2026-01-14 11:25:56.13	96.05	42.77	-30.9	-33.6	19.1	6.06e-01	0	42	0	469762048	23	4944
2026-01-14 11:25:59.14	94.50	43.33	-30.9	-33.7	19.1	6.05e-01	0	42	0	475529216	23	4959
2026-01-14 11:26:02.14	92.90	43.87	-31.0	-33.9	19.0	6.08e-01	0	42	0	481296384	23	5015
2026-01-14 11:26:05.15	91.23	44.39	-31.0	-34.0	18.9	6.07e-01	0	42	0	486539264	23	5072
2026-01-14 11:26:08.16	89.52	44.89	-31.0	-34.0	18.9	6.07e-01	0	42	0	492306432	23	5071
2026-01-14 11:26:11.17	87.75	45.38	-31.1	-34.1	18.9	6.07e-01	0	42	0	498073600	23	5113
2026-01-14 11:26:14.17	85.93	45.83	-31.0	-34.0	19.0	6.04e-01	0	42	0	503316480	23	5062
2026-01-14 11:26:17.19	84.04	46.26	-31.0	-33.9	19.0	6.06e-01	0	42	0	509083648	23	5026
2026-01-14 11:26:20.19	82.12	46.66	-31.2	-34.4	18.7	6.07e-01	0	42	0	514850816	23	5213
2026-01-14 11:26:23.21	80.14	47.03	-31.4	-35.0	18.4	6.06e-01	0	42	0	520617984	23	5424
2026-01-14 11:26:26.22	78.12	47.36	-31.8	-35.6	17.7	6.08e-01	0	42	0	526385152	24	5593
2026-01-14 11:26:29.23	76.05	47.65	-31.6	-35.0	18.1	6.08e-01	0	42	0	531628032	24	5314
2026-01-14 11:26:32.23	73.96	47.91	-31.1	-33.6	19.0	6.05e-01	0	42	0	537395200	24	4813
2026-01-14 11:26:35.24	71.83	48.12	-31.2	-34.0	18.7	6.07e-01	0	42	0	543162368	24	4956
2026-01-14 11:26:38.24	69.67	48.29	-31.5	-34.8	18.2	6.06e-01	0	42	0	548929536	24	5239
2026-01-14 11:26:41.26	67.49	48.42	-31.7	-35.2	17.9	6.07e-01	0	42	0	554172416	24	5425
2026-01-14 11:26:44.26	65.30	48.51	-31.7	-35.4	17.8	6.05e-01	0	42	0	559939584	24	5488
2026-01-14 11:26:47.27	63.09	48.54	-30.7	-33.2	19.5	6.07e-01	0	42	0	565706752	23	4764
2026-01-14 11:26:50.28	60.88	48.54	-30.6	-32.9	19.6	6.08e-01	0	42	0	571473920	23	4672
2026-01-14 11:26:53.27	58.70	48.49	-30.6	-32.9	19.6	6.07e-01	0	42	0	576716800	23	4686
2026-01-14 11:26:56.27	56.51	48.39	-30.9	-33.6	19.2	6.06e-01	0	42	0	582483968	23	4911
2026-01-14 11:26:59.28	54.34	48.25	-30.6	-32.9	19.7	6.05e-01	0	42	0	588251136	23	4669
2026-01-14 11:27:02.29	52.18	48.07	-30.4	-32.7	20.0	6.07e-01	0	42	0	594018304	22	4731
2026-01-14 11:27:05.31	50.05	47.84	-30.8	-33.8	19.3	6.06e-01	0	42	0	599261184	22	5099
2026-01-14 11:27:08.31	47.97	47.58	-30.0	-31.9	20.5	6.07e-01	0	42	0	605028352	22	4454
2026-01-14 11:27:11.32	45.92	47.27	-30.2	-32.4	20.2	6.06e-01	0	42	0	610795520	22	4632
2026-01-14 11:27:14.32	43.92	46.94	-30.2	-32.4	20.2	6.05e-01	0	42	0	616562688	22	4642
2026-01-14 11:27:17.33	41.96	46.56	-30.1	-32.2	20.3	6.06e-01	0	42	0	621805568	22	4555
2026-01-14 11:27:20.34	40.05	46.16	-30.3	-32.7	20.0	6.09e-01	0	42	0	627572736	22	4729
2026-01-14 11:27:23.34	38.19	45.72	-30.1	-32.0	20.4	6.06e-01	0	42	0	633339904	22	4518
2026-01-14 11:27:26.34	36.39	45.26	-30.2	-32.9	20.1	6.04e-01	0	42	0	639107072	21	4906
2026-01-14 11:27:29.34	34.64	44.78	-30.2	-32.9	20.1	6.08e-01	0	42	0	644349952	21	4911
2026-01-14 11:27:32.34	32.95	44.27	-30.0	-32.5	20.4	6.09e-01	0	42	0	650117120	21	4762
2026-01-14 11:27:35.35	31.31	43.74	-30.2	-32.8	20.2	6.06e-01	0	42	0	655884288	21	4876
2026-01-14 11:27:38.35	29.72	43.20	-30.0	-32.5	20.4	6.07e-01	0	42	0	661651456	21	4766
2026-01-14 11:27:41.36	28.19	42.64	-30.0	-32.4	20.4	6.07e-01	0	42	0	666894336	21	4758
2026-01-14 11:27:44.37	26.71	42.07	-30.2	-32.8	20.2	6.06e-01	0	42	0	672661504	21	4867
2026-01-14 11:27:47.37	25.29	41.49	-30.2	-32.8	20.2	6.06e-01	0	42	0	678428672	21	4874
2026-01-14 11:27:50.39	23.91	40.89	-30.5	-33.6	19.7	6.05e-01	0	42	0	684195840	21	5142
2026-01-14 11:27:53.40	22.59	40.29	-30.7	-33.5	19.4	6.06e-01	0	42	0	689438720	22	5021
2026-01-14 11:27:56.41	21.32	39.69	-30.6	-33.5	19.5	6.06e-01	0	42	0	695205888	22	4996
2026-01-14 11:27:59.42	20.09	39.08	-30.8	-33.9	19.2	6.07e-01	0	42	0	700973056	22	5140
2026-01-14 11:28:02.42	18.92	38.47	-31.1	-34.2	18.6	6.06e-01	0	42	0	706740224	23	5168
2026-01-14 11:28:05.44	17.78	37.85	-30.7	-33.2	19.3	6.06e-01	0	42	0	711983104	23	4781
2026-01-14 11:28:08.44	16.70	37.24	-31.0	-34.1	18.7	6.06e-01	0	42	0	717750272	23	5108
2026-01-14 11:28:11.45	15.65	36.63	-31.1	-34.2	18.7	6.08e-01	0	42	0	723517440	23	5161
2026-01-14 11:28:14.45	14.64	36.02	-30.9	-33.6	19.0	6.08e-01	0	42	0	729284608	23	4928
2026-01-14 11:28:17.47	13.67	35.41	-31.2	-34.6	18.4	6.07e-01	0	42	0	734527488	23	5306
2026-01-14 11:28:20.48	12.74	34.80	-31.3	-34.2	18.3	6.04e-01	0	42	0	740294656	24	5052
2026-01-14 11:28:23.48	11.84	34.20	-31.1	-34.2	18.6	6.04e-01	0	42	0	746061824	23	5168
2026-01-14 11:28:26.48	10.98	33.61	-30.6	-33.0	19.4	6.04e-01	0	42	0	751828992	23	4716
2026-01-14 11:28:29.49	10.14	33.02	-31.0	-33.9	18.8	6.02e-01	0	42	0	757596160	23	5040
2026-01-14 11:28:32.49	9.35	32.44	-30.6	-33.1	19.3	6.03e-01	0	42	0	762839040	23	4771
2026-01-14 11:28:35.50	8.57	31.86	-29.7	-31.7	20.7	6.03e-01	0	42	0	768606208	21	4529
2026-01-14 11:28:38.50	7.83	31.29	-29.7	-31.7	20.6	6.03e-01	0	42	0	774373376	21	4525
2026-01-14 11:28:41.50	7.11	30.72	-29.9	-32.1	20.4	6.05e-01	0	42	0	779616256	21	4668
2026-01-14 11:28:44.51	6.42	30.16	-29.7	-31.6	20.7	6.04e-01	0	42	0	785383424	21	4508
2026-01-14 11:28:47.53	5.75	29.61	-29.7	-31.7	20.6	6.03e-01	0	42	0	791150592	21	4528
2026-01-14 11:28:50.54	5.11	29.06	-30.2	-32.9	19.9	6.02e-01	0	42	0	796917760	21	4938
2026-01-14 11:28:53.54	4.49	28.53	-30.1	-32.7	20.0	6.03e-01	0	42	0	802684928	21	4868
2026-01-14 11:28:56.55	3.89	28.00	-30.3	-33.3	19.6	6.03e-01	0	42	0	807927808	21	5092
2026-01-14 11:28:59.56	3.31	27.48	-30.3	-33.3	19.7	6.02e-01	0	42	0	813694976	21	5062
2026-01-14 11:29:02.56	2.75	26.96	-30.2	-33.1	19.8	6.00e-01	0	42	0	819462144	21	5004
2026-01-14 11:29:05.57	2.21	26.46	-30.1	-32.7	19.9	6.04e-01	0	42	0	824705024	21	4876
2026-01-14 11:29:08.58	1.68	25.96	-30.2	-33.1	19.7	6.01e-01	0	42	0	830472192	21	5020
2026-01-14 11:29:11.59	1.18	25.46	-30.2	-33.1	19.7	6.06e-01	0	42	0	836239360	21	4999
2026-01-14 11:29:14.60	0.68	24.98	-30.2	-33.1	19.7	6.03e-01	0	42	0	842006528	21	5006
2026-01-14 11:29:17.59	0.21	24.50	-30.1	-32.8	19.8	6.03e-01	0	42	0	847773696	21	4916
2026-01-14 11:29:20.61	359.75	24.03	-30.1	-32.7	19.9	6.04e-01	0	42	0	853016576	21	4871
2026-01-14 11:29:23.62	359.31	23.57	-30.1	-32.9	19.7	6.02e-01	0	42	0	858783744	21	4945
2026-01-14 11:29:26.62	358.88	23.11	-30.2	-33.2	19.6	6.01e-01	0	42	0	864550912	21	5038
2026-01-14 11:29:29.61	358.46	22.67	-30.3	-33.4	19.4	6.05e-01	0	42	0	869793792	21	5139
2026-01-14 11:29:32.63	358.05	22.22	-30.3	-33.3	19.5	6.02e-01	0	42	0	875560960	21	5092
2026-01-14 11:29:35.65	357.66	21.79	-30.1	-32.8	19.7	6.02e-01	0	42	0	881328128	21	4931
2026-01-14 11:29:38.66	357.28	21.36	-30.1	-32.9	19.7	6.01e-01	0	42	0	887095296	21	4935
2026-01-14 11:29:41.67	356.91	20.94	-30.2	-33.2	19.4	6.03e-01	0	42	0	892862464	21	5074
2026-01-14 11:29:44.68	356.55	20.52	-30.3	-33.4	19.4	6.04e-01	0	42	0	898105344	21	5120
2026-01-14 11:29:47.69	356.20	20.11	-30.2	-33.1	19.5	6.02e-01	0	42	0	903872512	21	5022
2026-01-14 11:29:50.70	355.86	19.71	-30.1	-32.9	19.6	6.03e-01	0	42	0	909639680	21	4953
2026-01-14 11:29:53.72	355.52	19.31	-30.1	-32.9	19.7	6.03e-01	0	42	0	915406848	21	4955
2026-01-14 11:29:56.72	355.20	18.92	-30.2	-33.1	19.5	6.00e-01	0	42	0	920649728	21	5035
2026-01-14 11:29:59.72	354.89	18.53	-30.1	-32.8	19.7	6.05e-01	0	42	0	926416896	21	4922
2026-01-14 11:30:02.73	354.59	18.15	-30.2	-33.0	19.5	6.01e-01	0	42	0	932184064	21	5007
2026-01-14 11:30:05.72	354.30	17.78	-30.1	-33.0	19.6	6.01e-01	0	42	0	937951232	21	4994
2026-01-14 11:30:08.72	354.01	17.41	-30.1	-32.9	19.6	6.04e-01	0	42	0	943194112	21	4961
2026-01-14 11:30:11.74	353.73	17.05	-30.1	-33.0	19.5	6.04e-01	0	42	0	948961280	21	4999
2026-01-14 11:30:14.73	353.46	16.69	-30.2	-33.2	19.4	6.02e-01	0	42	0	954728448	21	5086
2026-01-14 11:30:17.73	353.19	16.34	-30.3	-33.5	19.2	6.02e-01	0	42	0	959971328	21	5179
2026-01-14 11:30:20.73	352.93	15.99	-30.2	-33.3	19.3	6.02e-01	0	42	0	965738496	21	5104
2026-01-14 11:30:23.73	352.68	15.65	-30.1	-33.0	19.4	6.02e-01	0	42	0	971505664	21	5001
2026-01-14 11:30:26.74	352.44	15.31	-30.1	-33.0	19.5	6.03e-01	0	42	0	977272832	21	4998
2026-01-14 11:30:29.75	352.20	14.98	-30.2	-33.2	19.3	6.03e-01	0	42	0	983040000	21	5076
2026-01-14 11:30:32.77	351.96	14.65	-30.2	-33.2	19.3	6.05e-01	0	42	0	988282880	21	5092
2026-01-14 11:30:35.78	351.73	14.32	-30.0	-32.7	19.6	6.04e-01	0	42	0	994050048	21	4920
2026-01-14 11:30:38.80	351.51	14.00	-30.2	-33.2	19.3	6.03e-01	0	42	0	999817216	21	5094
2026-01-14 11:30:41.80	351.29	13.68	-30.2	-33.2	19.2	6.03e-01	0	42	0	1005584384	21	5087
2026-01-14 11:30:44.81	351.08	13.37	-30.5	-34.0	18.7	6.03e-01	0	42	0	1010827264	21	5411
2026-01-14 11:30:47.82	350.87	13.06	-30.2	-33.3	19.1	6.02e-01	0	42	0	1016594432	21	5147
2026-01-14 11:30:50.84	350.67	12.76	-30.2	-33.4	19.1	6.03e-01	0	42	0	1022361600	21	5162
2026-01-14 11:30:53.85	350.47	12.46	-30.3	-33.5	19.0	6.03e-01	0	42	0	1028128768	21	5203
2026-01-14 11:30:56.86	350.28	12.16	-30.1	-33.1	19.2	6.00e-01	0	42	0	1033371648	21	5063
2026-01-14 11:30:59.86	350.09	11.87	-30.2	-33.4	19.0	6.01e-01	0	42	0	1039138816	21	5170
2026-01-14 11:31:02.87	349.90	11.58	-30.2	-33.4	18.9	6.04e-01	0	42	0	1044905984	21	5183
2026-01-14 11:31:05.87	349.72	11.29	-30.4	-33.9	18.6	6.04e-01	0	42	0	1050673152	21	5384
2026-01-14 11:31:08.88	349.55	11.01	-30.4	-33.7	18.7	6.02e-01	0	42	0	1056440320	21	5317
2026-01-14 11:31:11.90	349.37	10.73	-30.3	-33.6	18.8	6.04e-01	0	42	0	1061683200	21	5274
2026-01-14 11:31:14.90	349.21	10.45	-30.5	-34.0	18.5	6.05e-01	0	42	0	1067450368	21	5438
2026-01-14 11:31:17.90	349.04	10.18	-30.4	-33.9	18.6	6.02e-01	0	42	0	1073217536	21	5365
2026-01-14 11:31:20.91	348.88	9.91	-30.5	-34.1	18.4	6.02e-01	0	42	0	1078460416	21	5468
2026-01-14 11:31:23.91	348.72	9.64	-30.6	-34.0	18.1	6.01e-01	0	42	0	1084227584	22	5313
2026-01-14 11:31:26.92	348.57	9.38	-30.7	-34.3	17.9	6.02e-01	0	42	0	1089994752	22	5460
2026-01-14 11:31:29.92	348.41	9.12	-30.8	-34.5	17.8	6.03e-01	0	42	0	1095761920	22	5530
2026-01-14 11:31:32.93	348.27	8.86	-30.8	-34.7	17.6	6.05e-01	0	42	0	1101529088	22	5632
2026-01-14 11:31:35.95	348.12	8.60	-30.7	-34.2	17.9	6.02e-01	0	42	0	1106771968	22	5400
2026-01-14 11:31:38.95	347.98	8.35	-30.7	-34.2	17.9	6.05e-01	0	42	0	1112539136	22	5433
2026-01-14 11:31:41.95	347.84	8.10	-30.8	-34.7	17.6	6.02e-01	0	42	0	1118306304	22	5626
2026-01-14 11:31:44.96	347.70	7.85	-30.7	-34.3	17.8	6.02e-01	0	42	0	1123549184	22	5473
2026-01-14 11:31:47.97	347.57	7.61	-30.8	-34.7	17.5	6.01e-01	0	42	0	1129316352	22	5649
2026-01-14 11:31:50.98	347.43	7.37	-30.7	-34.4	17.7	6.05e-01	0	42	0	1135083520	22	5507
2026-01-14 11:31:53.99	347.30	7.13	-30.7	-34.0	17.5	6.01e-01	0	42	0	1140850688	23	5251
2026-01-14 11:31:57.00	347.18	6.89	-34.4	-53.8	3.8	7.46e-01	0	42	104	1141374976	29	33357

#Closed at: 2026-01-14 11:31:57
#Recorded file [1141 MB]: D:/data/31010_260114_142145.dat