passes_logs/2026/01/14/R2M6_AANII_01/R2M6_AANII_01__20260114_235527_NOAA_20_JPSS-1_rec.log

#Pass ID: 20260114_235527_NOAA 20 (JPSS-1)
#Satellite: NOAA 20 (JPSS-1)
#Configuration: NOAA 20
#almurnet v.1.7.20240730
#Start time: 2026-01-14 23:55:27

#Version: 2.2.20231116
#Station: R2M6_AANII_01
#Location: 30.233357 lon 59.946436 lat
#TLE: 1 43013U 17073A   26014.13176244  .00000049  00000+0  44136-4 0  9994
#TLE: 2 43013  98.7634 315.0803 0001538  40.6488 319.4803 14.19535812422619

#Time	Az	El	Level	Level2	SNR	BER	BlckErr	Temp	State	Recorded	gain1	gain2
2026-01-14 23:55:27.04	20.47	6.99	-31.7	-38.4	4.9	1.29e+00	0	41	0	0	23	7820
2026-01-14 23:55:30.05	20.55	7.22	-31.8	-38.7	7.2	1.32e-01	0	41	0	1048576	23	7964
2026-01-14 23:55:33.05	20.63	7.45	-31.8	-38.6	7.3	1.32e-01	0	41	0	7340032	23	7897
2026-01-14 23:55:36.06	20.72	7.68	-31.4	-37.4	8.6	5.46e-02	0	41	0	12582912	22	7171
2026-01-14 23:55:39.07	20.80	7.91	-30.9	-35.8	10.2	7.42e-03	0	41	0	17825792	21	6381
2026-01-14 23:55:42.08	20.89	8.15	-30.9	-35.5	10.1	1.04e-02	0	41	0	24117248	22	6113
2026-01-14 23:55:45.10	20.98	8.39	-30.7	-35.1	10.9	2.74e-03	0	41	0	29360128	21	5985
2026-01-14 23:55:48.11	21.06	8.63	-30.7	-35.0	10.9	3.65e-03	0	41	0	35651584	21	5944
2026-01-14 23:55:51.13	21.15	8.88	-30.2	-33.9	12.1	8.71e-04	0	42	0	40894464	20	5553
2026-01-14 23:55:54.13	21.25	9.12	-30.4	-34.6	11.6	1.03e-03	0	42	0	46137344	20	5866
2026-01-14 23:55:57.15	21.34	9.37	-30.2	-33.9	12.2	2.01e-04	0	42	0	52428800	20	5523
2026-01-14 23:56:00.15	21.43	9.62	-30.2	-33.9	12.2	6.45e-04	0	42	0	57671680	20	5517
2026-01-14 23:56:03.15	21.53	9.88	-30.1	-33.6	12.4	6.43e-04	0	42	0	63963136	20	5416
2026-01-14 23:56:06.16	21.62	10.13	-30.0	-33.5	12.5	5.99e-04	0	42	0	69206016	20	5345
2026-01-14 23:56:09.18	21.72	10.39	-30.0	-33.8	12.8	5.80e-04	0	42	0	74448896	19	5561
2026-01-14 23:56:12.19	21.82	10.65	-29.9	-33.5	12.9	5.14e-04	0	42	0	80740352	19	5448
2026-01-14 23:56:15.20	21.92	10.92	-30.0	-33.7	12.8	2.08e-03	0	42	0	85983232	19	5530
2026-01-14 23:56:18.21	22.03	11.18	-30.2	-33.8	12.4	2.08e-03	0	42	0	91226112	20	5473
2026-01-14 23:56:21.22	22.13	11.45	-30.3	-34.1	12.2	2.09e-03	0	42	0	97517568	20	5574
2026-01-14 23:56:24.23	22.24	11.73	-30.3	-34.1	12.2	2.06e-03	0	42	0	102760448	20	5585
2026-01-14 23:56:27.25	22.35	12.00	-30.2	-34.0	12.3	2.06e-03	0	42	0	109051904	20	5525
2026-01-14 23:56:30.25	22.46	12.28	-30.0	-33.6	13.0	3.39e-04	0	42	0	114294784	19	5486
2026-01-14 23:56:33.25	22.57	12.56	-29.9	-33.4	13.1	1.57e-03	0	42	0	119537664	19	5415
2026-01-14 23:56:36.26	22.68	12.85	-29.9	-33.4	13.2	1.65e-03	0	42	0	125829120	19	5399
2026-01-14 23:56:39.26	22.80	13.14	-29.8	-33.2	13.3	1.36e-03	0	42	0	131072000	19	5306
2026-01-14 23:56:42.27	22.92	13.43	-29.8	-33.1	13.4	9.12e-04	0	42	0	136314880	19	5258
2026-01-14 23:56:45.28	23.04	13.72	-29.8	-33.2	13.3	5.09e-04	0	42	0	142606336	19	5303
2026-01-14 23:56:48.28	23.16	14.02	-30.0	-33.5	13.2	2.36e-05	0	42	0	147849216	19	5422
2026-01-14 23:56:51.29	23.28	14.32	-29.9	-33.4	13.3	1.11e-03	0	43	0	154140672	19	5360
2026-01-14 23:56:54.31	23.41	14.63	-29.9	-33.3	13.3	1.19e-03	0	43	0	159383552	19	5345
2026-01-14 23:56:57.31	23.54	14.94	-29.9	-33.0	13.1	1.52e-03	0	43	0	164626432	20	5128
2026-01-14 23:57:00.32	23.67	15.26	-30.1	-33.4	12.9	1.62e-03	0	43	0	170917888	20	5288
2026-01-14 23:57:03.32	23.80	15.57	-30.2	-33.8	12.7	1.86e-03	0	43	0	176160768	20	5417
2026-01-14 23:57:06.32	23.94	15.89	-30.2	-33.7	12.7	7.32e-05	0	43	0	181403648	20	5393
2026-01-14 23:57:09.34	24.08	16.22	-30.2	-33.7	12.7	7.32e-05	0	43	0	187695104	20	5408
2026-01-14 23:57:12.35	24.22	16.55	-30.2	-33.6	12.8	8.23e-05	0	43	0	192937984	20	5326
2026-01-14 23:57:15.36	24.37	16.89	-29.9	-32.8	13.4	1.52e-05	0	43	0	199229440	20	5027
2026-01-14 23:57:18.37	24.51	17.23	-29.8	-33.1	13.6	1.72e-03	0	43	0	204472320	19	5260
2026-01-14 23:57:21.38	24.66	17.57	-30.1	-33.5	12.9	5.26e-05	0	43	0	209715200	20	5289
2026-01-14 23:57:24.38	24.82	17.92	-30.1	-33.5	13.0	4.11e-05	0	43	0	216006656	20	5292
2026-01-14 23:57:27.38	24.98	18.27	-30.1	-33.3	13.1	2.82e-05	0	43	0	221249536	20	5228
2026-01-14 23:57:30.39	25.14	18.63	-30.3	-33.9	12.7	5.34e-05	0	43	0	226492416	20	5462
2026-01-14 23:57:33.40	25.30	18.99	-30.0	-33.2	13.2	3.05e-05	0	43	0	232783872	20	5171
2026-01-14 23:57:36.41	25.47	19.36	-29.9	-32.9	13.4	1.67e-05	0	43	0	238026752	20	5047
2026-01-14 23:57:39.42	25.64	19.74	-29.8	-32.6	13.6	6.10e-06	0	43	0	244318208	20	4955
2026-01-14 23:57:42.43	25.82	20.12	-29.9	-33.1	13.7	8.30e-06	0	43	0	249561088	19	5246
2026-01-14 23:57:45.44	26.00	20.50	-30.0	-33.0	13.3	1.14e-05	0	43	0	254803968	20	5110
2026-01-14 23:57:48.44	26.18	20.89	-29.7	-32.3	13.8	6.80e-06	0	43	0	261095424	20	4838
2026-01-14 23:57:51.44	26.37	21.29	-29.7	-32.5	14.1	0.00e+00	0	43	0	266338304	19	5019
2026-01-14 23:57:54.45	26.56	21.69	-29.5	-32.2	14.4	2.20e-06	0	43	0	272629760	19	4883
2026-01-14 23:57:57.45	26.76	22.10	-29.6	-32.4	14.2	4.50e-06	0	43	0	277872640	19	4977
2026-01-14 23:58:00.45	26.96	22.52	-29.5	-32.2	14.3	7.00e-07	0	43	0	283115520	19	4892
2026-01-14 23:58:03.46	27.17	22.94	-29.5	-32.1	14.4	1.50e-06	0	43	0	289406976	19	4872
2026-01-14 23:58:06.46	27.38	23.37	-29.2	-32.0	14.8	7.00e-07	0	43	0	294649856	18	4916
2026-01-14 23:58:09.47	27.60	23.80	-29.1	-31.6	15.1	0.00e+00	0	43	0	299892736	18	4780
2026-01-14 23:58:12.47	27.83	24.24	-29.0	-31.4	15.2	0.00e+00	0	43	0	306184192	18	4725
2026-01-14 23:58:15.49	28.06	24.70	-29.0	-31.3	15.2	0.00e+00	0	43	0	311427072	18	4709
2026-01-14 23:58:18.49	28.30	25.15	-28.9	-31.1	15.4	0.00e+00	0	43	0	317718528	18	4638
2026-01-14 23:58:21.51	28.54	25.62	-29.0	-31.2	15.4	0.00e+00	0	43	0	322961408	18	4658
2026-01-14 23:58:24.52	28.79	26.09	-28.8	-31.3	15.6	0.00e+00	0	43	0	328204288	17	4803
2026-01-14 23:58:27.51	29.05	26.57	-29.0	-31.2	15.4	0.00e+00	0	43	0	334495744	18	4671
2026-01-14 23:58:30.53	29.32	27.06	-29.0	-31.4	15.3	0.00e+00	0	43	0	339738624	18	4724
2026-01-14 23:58:33.53	29.59	27.56	-29.4	-32.3	14.8	0.00e+00	0	43	0	344981504	18	5026
2026-01-14 23:58:36.54	29.87	28.06	-29.6	-32.2	14.5	0.00e+00	0	43	0	351272960	19	4875
2026-01-14 23:58:39.54	30.16	28.58	-29.7	-32.6	14.2	7.00e-07	0	43	0	356515840	19	5031
2026-01-14 23:58:42.56	30.46	29.10	-29.8	-32.9	14.1	1.50e-06	0	43	0	362807296	19	5108
2026-01-14 23:58:45.56	30.77	29.63	-30.2	-33.5	13.3	9.90e-06	0	43	0	368050176	20	5267
2026-01-14 23:58:48.57	31.09	30.18	-30.4	-34.0	13.0	2.21e-05	0	43	0	373293056	20	5458
2026-01-14 23:58:51.58	31.42	30.73	-30.6	-34.0	12.6	9.99e-05	0	43	0	379584512	21	5352
2026-01-14 23:58:54.58	31.76	31.29	-30.8	-34.6	12.3	1.46e-04	0	43	0	384827392	21	5560
2026-01-14 23:58:57.59	32.12	31.86	-31.0	-34.8	11.8	5.79e-04	0	43	0	390070272	22	5556
2026-01-14 23:59:00.59	32.48	32.44	-31.0	-34.7	11.9	4.85e-04	0	43	0	396361728	22	5503
2026-01-14 23:59:03.60	32.86	33.03	-31.1	-34.8	11.8	3.91e-04	0	43	0	401604608	22	5555
2026-01-14 23:59:06.61	33.25	33.63	-31.0	-34.7	11.9	4.78e-04	0	43	0	407896064	22	5494
2026-01-14 23:59:09.61	33.66	34.24	-31.1	-35.1	11.7	4.88e-04	0	43	0	413138944	22	5665
2026-01-14 23:59:12.62	34.08	34.87	-31.3	-35.4	11.4	8.57e-04	0	43	0	418381824	22	5808
2026-01-14 23:59:15.63	34.52	35.50	-31.3	-35.5	11.4	1.43e-03	0	43	0	424673280	22	5848
2026-01-14 23:59:18.64	34.97	36.15	-31.2	-35.2	11.6	8.66e-04	0	43	0	429916160	22	5697
2026-01-14 23:59:21.65	35.45	36.81	-31.2	-35.4	11.5	9.52e-04	0	43	0	436207616	22	5782
2026-01-14 23:59:24.64	35.94	37.47	-31.1	-34.9	11.9	7.14e-04	0	43	0	441450496	22	5576
2026-01-14 23:59:27.66	36.45	38.15	-31.2	-35.1	11.8	5.13e-04	0	43	0	446693376	22	5660
2026-01-14 23:59:30.65	36.98	38.84	-31.2	-35.2	11.7	8.36e-04	0	43	0	452984832	22	5720
2026-01-14 23:59:33.66	37.54	39.54	-31.1	-34.9	11.9	3.30e-04	0	43	0	458227712	22	5575
2026-01-14 23:59:36.67	38.12	40.25	-30.8	-34.0	12.5	2.89e-04	0	43	0	463470592	22	5208
2026-01-14 23:59:39.68	38.73	40.98	-30.5	-33.7	13.0	3.58e-05	0	43	0	469762048	21	5196
2026-01-14 23:59:42.69	39.36	41.72	-30.1	-32.6	13.8	6.80e-06	0	43	0	475004928	21	4790
2026-01-14 23:59:45.70	40.02	42.46	-30.1	-32.4	13.9	3.80e-06	0	43	0	481296384	21	4726
2026-01-14 23:59:48.70	40.72	43.22	-30.1	-32.6	13.9	5.30e-06	0	43	0	486539264	21	4780
2026-01-14 23:59:51.71	41.44	43.99	-30.3	-33.1	13.5	1.52e-05	0	43	0	491782144	21	4969
2026-01-14 23:59:54.72	42.21	44.77	-30.3	-33.1	13.6	7.60e-06	0	43	0	498073600	21	4939
2026-01-14 23:59:57.73	43.01	45.56	-30.7	-34.2	12.8	2.59e-05	0	43	0	503316480	21	5386
2026-01-15 00:00:00.73	43.85	46.35	-31.1	-34.8	12.1	2.15e-04	0	43	0	508559360	22	5505
2026-01-15 00:00:03.74	44.73	47.16	-31.1	-34.9	12.1	2.80e-04	0	43	0	514850816	22	5538
2026-01-15 00:00:06.75	45.67	47.98	-30.5	-33.1	13.3	1.29e-05	0	43	0	520093696	22	4859
2026-01-15 00:00:09.76	46.65	48.80	-31.2	-35.1	12.0	3.20e-04	0	43	0	526385152	22	5620
2026-01-15 00:00:12.77	47.68	49.63	-30.7	-33.6	13.0	7.17e-05	0	44	0	531628032	22	5011
2026-01-15 00:00:15.78	48.78	50.47	-30.4	-32.9	13.5	8.30e-06	0	43	0	536870912	22	4764
2026-01-15 00:00:18.80	49.94	51.31	-29.8	-32.1	14.6	7.00e-07	0	43	0	543162368	20	4712
2026-01-15 00:00:21.81	51.16	52.15	-28.7	-30.5	16.2	1.50e-06	0	43	0	548405248	18	4411
2026-01-15 00:00:24.82	52.45	52.99	-29.2	-31.6	15.6	3.88e-04	0	43	0	553648128	18	4756
2026-01-15 00:00:27.82	53.81	53.83	-28.1	-30.0	17.0	3.29e-04	0	43	0	559939584	16	4497
2026-01-15 00:00:30.83	55.26	54.67	-28.7	-30.9	16.3	0.00e+00	0	43	0	565182464	17	4656
2026-01-15 00:00:33.84	56.79	55.50	-29.9	-32.9	14.5	0.00e+00	0	43	0	571473920	19	5096
2026-01-15 00:00:36.85	58.42	56.32	-29.9	-32.9	14.6	7.00e-07	0	43	0	576716800	19	5068
2026-01-15 00:00:39.85	60.14	57.13	-30.5	-33.5	13.4	1.75e-05	0	43	0	581959680	21	5105
2026-01-15 00:00:42.85	61.97	57.93	-30.6	-33.7	13.4	1.29e-05	0	43	0	588251136	21	5163
2026-01-15 00:00:45.86	63.90	58.71	-30.5	-33.5	13.4	5.72e-05	0	43	0	593494016	21	5099
2026-01-15 00:00:48.86	65.95	59.46	-30.2	-33.1	14.1	1.75e-05	0	43	0	598736896	20	5043
2026-01-15 00:00:51.87	68.13	60.20	-30.0	-32.1	14.4	5.30e-06	0	43	0	605028352	21	4571
2026-01-15 00:00:54.87	70.42	60.90	-30.1	-32.8	14.4	2.20e-06	0	43	0	610271232	20	4913
2026-01-15 00:00:57.87	72.84	61.56	-29.4	-31.5	15.5	1.50e-06	0	43	0	616562688	19	4584
2026-01-15 00:01:00.87	75.39	62.19	-29.5	-31.9	15.3	7.00e-07	0	43	0	621805568	19	4718
2026-01-15 00:01:03.89	78.08	62.77	-29.7	-32.4	14.9	2.20e-06	0	43	0	627048448	19	4867
2026-01-15 00:01:06.90	80.90	63.31	-30.2	-33.1	14.1	1.50e-06	0	43	0	633339904	20	5025
2026-01-15 00:01:09.91	83.83	63.78	-30.5	-33.9	13.7	1.50e-06	0	43	0	638582784	20	5323
2026-01-15 00:01:12.92	86.88	64.20	-30.7	-34.1	13.1	6.80e-06	0	43	0	643825664	21	5339
2026-01-15 00:01:15.93	90.04	64.55	-30.8	-34.2	13.1	2.97e-05	0	43	0	650117120	21	5320
2026-01-15 00:01:18.94	93.28	64.84	-30.4	-33.8	13.8	2.20e-06	0	43	0	655360000	20	5274
2026-01-15 00:01:21.96	96.61	65.05	-30.9	-34.6	12.7	3.89e-05	0	43	0	661651456	21	5471
2026-01-15 00:01:24.96	99.96	65.18	-30.4	-33.7	13.4	1.29e-05	0	43	0	666894336	20	5268
2026-01-15 00:01:27.97	103.36	65.24	-29.4	-32.1	15.5	0.00e+00	0	43	0	672137216	18	4909
2026-01-15 00:01:30.98	106.76	65.22	-29.6	-32.0	15.4	1.68e-03	0	43	0	678428672	19	4761
2026-01-15 00:01:34.00	110.16	65.12	-30.2	-33.0	14.4	1.25e-03	0	43	0	683671552	20	4984
2026-01-15 00:01:37.00	113.49	64.95	-29.4	-31.0	15.6	0.00e+00	0	43	0	689963008	20	4349
2026-01-15 00:01:40.01	116.78	64.70	-29.9	-32.6	14.9	0.00e+00	0	43	0	695205888	19	4954
2026-01-15 00:01:43.03	119.99	64.38	-29.3	-31.3	15.7	6.25e-05	0	43	0	700448768	19	4514
2026-01-15 00:01:46.04	123.09	63.99	-29.2	-31.5	15.9	1.50e-06	0	43	0	706740224	18	4705
2026-01-15 00:01:49.04	126.08	63.55	-29.0	-31.0	16.2	1.91e-03	0	43	0	711983104	18	4533
2026-01-15 00:01:52.04	128.95	63.04	-27.6	-29.3	17.8	2.02e-03	0	43	0	717225984	15	4400
2026-01-15 00:01:55.05	131.70	62.48	-27.2	-28.4	18.3	1.83e-03	0	43	0	723517440	15	4139
2026-01-15 00:01:58.06	134.32	61.87	-27.4	-28.8	18.1	1.39e-03	0	43	0	728760320	15	4251
2026-01-15 00:02:01.06	136.81	61.22	-27.2	-29.0	18.2	7.61e-04	0	43	0	735051776	14	4429
2026-01-15 00:02:04.07	139.17	60.54	-28.9	-31.4	16.3	0.00e+00	0	43	0	740294656	17	4777
2026-01-15 00:02:07.08	141.41	59.82	-29.6	-32.0	15.4	1.84e-03	0	43	0	745537536	19	4749
2026-01-15 00:02:10.09	143.53	59.07	-29.4	-31.6	15.6	1.61e-03	0	43	0	751828992	19	4637
2026-01-15 00:02:13.11	145.53	58.29	-29.4	-32.2	15.5	7.48e-04	0	43	0	757071872	18	4924
2026-01-15 00:02:16.11	147.41	57.50	-28.6	-30.1	16.7	1.83e-04	0	43	0	762314752	18	4275
2026-01-15 00:02:19.12	149.19	56.69	-28.3	-29.5	17.0	0.00e+00	0	43	0	768606208	18	4124
2026-01-15 00:02:22.14	150.87	55.87	-27.8	-29.2	17.7	0.00e+00	0	43	0	773849088	16	4239
2026-01-15 00:02:25.14	152.44	55.04	-28.1	-29.9	17.3	0.00e+00	0	43	0	780140544	16	4454
2026-01-15 00:02:28.14	153.93	54.21	-27.5	-29.2	17.8	1.93e-04	0	43	0	785383424	15	4359
2026-01-15 00:02:31.14	155.33	53.37	-28.0	-30.3	17.2	2.97e-05	0	43	0	790626304	15	4684
2026-01-15 00:02:34.14	156.66	52.52	-29.1	-30.9	15.8	7.60e-06	0	43	0	796917760	19	4415
2026-01-15 00:02:37.15	157.91	51.68	-29.4	-32.2	15.4	1.33e-04	0	43	0	802160640	18	4930
2026-01-15 00:02:40.15	159.09	50.84	-30.3	-33.4	13.9	1.50e-06	0	43	0	807403520	20	5152
2026-01-15 00:02:43.16	160.22	50.00	-30.4	-33.3	13.7	3.00e-06	0	43	0	813694976	21	4991
2026-01-15 00:02:46.17	161.28	49.16	-31.6	-35.7	11.3	8.42e-04	0	43	0	818937856	23	5753
2026-01-15 00:02:49.17	162.29	48.34	-32.3	-37.7	9.6	1.13e-02	0	43	0	825229312	24	6673
2026-01-15 00:02:52.18	163.24	47.51	-30.6	-33.3	13.3	3.66e-05	0	43	0	830472192	22	4895
2026-01-15 00:02:55.18	164.15	46.70	-32.3	-37.7	9.4	3.96e-03	0	43	0	835715072	24	6768
2026-01-15 00:02:58.20	165.02	45.89	-29.7	-31.9	14.7	5.30e-06	0	43	0	842006528	20	4640
2026-01-15 00:03:01.20	165.84	45.10	-29.6	-32.0	15.1	0.00e+00	0	43	0	847249408	19	4755
2026-01-15 00:03:04.22	166.62	44.31	-31.0	-34.9	12.6	5.95e-05	0	43	0	852492288	21	5671
2026-01-15 00:03:07.23	167.37	43.53	-29.0	-30.6	15.9	0.00e+00	0	43	0	858783744	19	4317
2026-01-15 00:03:10.24	168.08	42.76	-29.1	-31.5	15.7	0.00e+00	0	43	0	864026624	18	4701
2026-01-15 00:03:13.25	168.75	42.01	-30.6	-33.7	13.3	2.74e-05	0	43	0	870318080	21	5183
2026-01-15 00:03:16.26	169.40	41.26	-29.7	-31.9	14.8	0.00e+00	0	43	0	875560960	20	4633
2026-01-15 00:03:19.27	170.02	40.53	-30.6	-33.7	13.3	1.29e-05	0	43	0	880803840	21	5163
2026-01-15 00:03:22.28	170.62	39.81	-31.7	-36.1	11.0	1.16e-03	0	43	0	887095296	23	5964
2026-01-15 00:03:25.29	171.18	39.09	-31.4	-35.2	11.6	7.16e-04	0	43	0	892338176	23	5581
2026-01-15 00:03:28.31	171.73	38.39	-29.9	-31.9	14.4	5.30e-06	0	43	0	898629632	21	4534
2026-01-15 00:03:31.31	172.25	37.71	-30.7	-34.2	12.9	1.83e-05	0	43	0	903872512	21	5357
2026-01-15 00:03:34.32	172.75	37.03	-31.3	-35.3	11.8	6.83e-04	0	43	0	909115392	22	5743
2026-01-15 00:03:37.34	173.23	36.36	-30.3	-33.0	13.7	2.28e-05	0	43	0	915406848	21	4898
2026-01-15 00:03:40.35	173.70	35.71	-30.5	-33.5	13.3	4.11e-05	0	43	0	920649728	21	5093
2026-01-15 00:03:43.36	174.14	35.07	-30.8	-34.3	12.8	4.11e-05	0	43	0	925892608	21	5406
2026-01-15 00:03:46.36	174.57	34.44	-31.4	-35.6	11.6	6.19e-04	0	43	0	932184064	22	5856
2026-01-15 00:03:49.36	174.98	33.82	-31.1	-34.8	12.1	2.66e-04	0	43	0	937426944	22	5499
2026-01-15 00:03:52.34	175.38	33.22	-31.2	-35.0	11.9	6.04e-04	0	44	0	943718400	22	5607
2026-01-15 00:03:55.35	175.76	32.62	-30.6	-33.3	13.1	6.17e-05	0	43	0	948961280	22	4930
2026-01-15 00:03:58.36	176.13	32.03	-30.4	-33.3	13.4	9.84e-05	0	43	0	954204160	21	5012
2026-01-15 00:04:01.37	176.49	31.45	-30.6	-33.9	13.0	1.06e-04	0	44	0	960495616	21	5256
2026-01-15 00:04:04.39	176.84	30.88	-31.0	-34.9	12.2	1.92e-04	0	44	0	965738496	21	5687
2026-01-15 00:04:07.40	177.17	30.32	-31.0	-34.5	12.3	2.46e-04	0	44	0	970981376	22	5397
2026-01-15 00:04:10.42	177.50	29.77	-30.6	-33.8	13.0	3.89e-05	0	43	0	977272832	21	5222
2026-01-15 00:04:13.43	177.81	29.23	-30.5	-33.6	13.1	3.73e-05	0	43	0	982515712	21	5159
2026-01-15 00:04:16.43	178.11	28.70	-30.3	-33.5	13.5	1.60e-05	0	43	0	988807168	20	5220
2026-01-15 00:04:19.44	178.41	28.18	-30.8	-34.4	12.6	3.66e-05	0	43	0	994050048	21	5475
2026-01-15 00:04:22.45	178.69	27.67	-30.7	-34.2	12.7	7.32e-05	0	43	0	999292928	21	5377
2026-01-15 00:04:25.46	178.97	27.16	-30.5	-33.6	13.1	4.42e-05	0	43	0	1005584384	21	5172
2026-01-15 00:04:28.47	179.24	26.67	-30.5	-34.1	12.9	7.09e-05	0	43	0	1010827264	20	5448
2026-01-15 00:04:31.47	179.50	26.18	-29.4	-31.8	14.6	5.30e-06	0	43	0	1016070144	19	4718
2026-01-15 00:04:34.48	179.75	25.71	-29.3	-31.9	15.2	7.00e-07	0	44	0	1022361600	18	4875
2026-01-15 00:04:37.49	180.00	25.23	-29.0	-31.2	15.6	2.33e-04	0	43	0	1027604480	18	4646
2026-01-15 00:04:40.49	180.24	24.77	-29.3	-32.0	15.1	4.50e-06	0	43	0	1033895936	18	4892
2026-01-15 00:04:43.50	180.47	24.32	-29.2	-31.7	15.2	4.50e-06	0	44	0	1039138816	18	4819
2026-01-15 00:04:46.50	180.70	23.87	-29.2	-31.9	15.1	7.00e-07	0	43	0	1044381696	18	4876
2026-01-15 00:04:49.52	180.92	23.43	-29.1	-31.6	15.3	0.00e+00	0	43	0	1050673152	18	4786
2026-01-15 00:04:52.53	181.13	22.99	-29.1	-31.5	15.3	2.95e-04	0	43	0	1055916032	18	4742
2026-01-15 00:04:55.53	181.34	22.57	-28.1	-30.8	15.0	2.95e-04	0	43	0	1062207488	17	4950
2026-01-15 00:04:58.54	181.54	22.15	-29.2	-31.8	13.9	3.23e-04	0	43	0	1067450368	18	4855
2026-01-15 00:05:01.55	181.74	21.73	-29.4	-32.3	14.7	3.12e-04	0	43	0	1072693248	18	5026
2026-01-15 00:05:04.56	181.94	21.33	-29.4	-32.2	14.8	2.24e-03	0	43	0	1078984704	18	5005
2026-01-15 00:05:07.57	182.13	20.92	-29.8	-33.0	14.0	2.20e-06	0	44	0	1084227584	19	5165
2026-01-15 00:05:10.58	182.31	20.53	-29.3	-32.0	14.9	2.48e-04	0	43	0	1089470464	18	4924
2026-01-15 00:05:13.58	182.49	20.14	-29.6	-32.4	14.4	2.43e-04	0	43	0	1095761920	19	4955
2026-01-15 00:05:16.59	182.67	19.76	-29.3	-32.1	14.8	2.94e-04	0	43	0	1101004800	18	4982
2026-01-15 00:05:19.60	182.84	19.38	-29.4	-32.3	14.7	1.88e-03	0	43	0	1107296256	18	5048
2026-01-15 00:05:22.60	183.01	19.01	-29.2	-31.9	14.9	1.74e-03	0	43	0	1112539136	18	4903
2026-01-15 00:05:25.61	183.17	18.64	-29.3	-32.0	14.9	1.54e-03	0	43	0	1117782016	18	4925
2026-01-15 00:05:28.63	183.33	18.28	-29.3	-32.0	14.8	1.06e-03	0	43	0	1124073472	18	4941
2026-01-15 00:05:31.62	183.49	17.92	-29.5	-32.1	14.4	1.05e-03	0	43	0	1129316352	19	4858
2026-01-15 00:05:34.64	183.64	17.57	-29.6	-32.5	14.2	2.30e-04	0	43	0	1135607808	19	4991
2026-01-15 00:05:37.65	183.79	17.22	-29.8	-33.0	13.9	1.10e-03	0	43	0	1140850688	19	5172
2026-01-15 00:05:40.66	183.94	16.88	-30.3	-33.8	12.9	1.08e-03	0	43	0	1146093568	20	5415
2026-01-15 00:05:43.67	184.08	16.54	-29.9	-32.8	13.5	3.80e-04	0	43	0	1152385024	20	5026
2026-01-15 00:05:46.68	184.23	16.21	-30.1	-33.3	13.2	3.83e-04	0	43	0	1157627904	20	5190
2026-01-15 00:05:49.69	184.36	15.88	-30.1	-33.2	13.3	3.19e-04	0	44	0	1162870784	20	5163
2026-01-15 00:05:52.70	184.50	15.55	-29.9	-33.2	13.6	1.65e-04	0	43	0	1169162240	19	5279
2026-01-15 00:05:55.71	184.63	15.23	-30.0	-33.1	13.3	1.90e-05	0	43	0	1174405120	20	5125
2026-01-15 00:05:58.71	184.76	14.91	-30.0	-33.0	13.4	4.74e-04	0	43	0	1180696576	20	5096
2026-01-15 00:06:01.72	184.89	14.60	-30.0	-33.4	13.5	1.58e-04	0	43	0	1185939456	19	5337
2026-01-15 00:06:04.74	185.02	14.29	-29.9	-32.8	13.5	2.10e-04	0	43	0	1191182336	20	5019
2026-01-15 00:06:07.77	185.14	13.98	-30.0	-33.1	13.3	1.48e-04	0	43	0	1197473792	20	5127
2026-01-15 00:06:10.77	185.26	13.68	-29.8	-32.6	13.5	6.10e-06	0	43	0	1202716672	20	4963
2026-01-15 00:06:13.78	185.38	13.39	-30.0	-33.1	13.2	1.14e-05	0	43	0	1209008128	20	5133
2026-01-15 00:06:16.79	185.50	13.09	-30.1	-33.3	13.1	3.43e-05	0	43	0	1214251008	20	5221
2026-01-15 00:06:19.80	185.61	12.80	-30.1	-33.4	13.0	4.27e-05	0	43	0	1219493888	20	5269
2026-01-15 00:06:22.82	185.72	12.51	-30.1	-33.4	12.9	2.47e-04	0	43	0	1225785344	20	5280
2026-01-15 00:06:25.82	185.83	12.23	-29.9	-33.3	13.4	2.09e-04	0	43	0	1231028224	19	5337
2026-01-15 00:06:28.84	185.94	11.95	-29.9	-33.2	13.4	6.80e-06	0	43	0	1236271104	19	5305
2026-01-15 00:06:31.84	186.05	11.67	-30.0	-33.5	13.2	2.05e-05	0	43	0	1242562560	19	5418
2026-01-15 00:06:34.85	186.15	11.39	-30.1	-33.4	12.9	4.65e-05	0	43	0	1247805440	20	5262
2026-01-15 00:06:37.86	186.25	11.12	-30.1	-33.5	12.8	4.88e-05	0	43	0	1254096896	20	5300
2026-01-15 00:06:40.88	186.36	10.85	-30.1	-33.6	12.7	1.84e-04	0	43	0	1259339776	20	5358
2026-01-15 00:06:43.88	186.46	10.59	-30.5	-34.5	12.1	3.23e-04	0	44	0	1264582656	20	5741
2026-01-15 00:06:46.89	186.55	10.32	-30.0	-33.5	13.1	2.04e-04	0	43	0	1270874112	19	5442
2026-01-15 00:06:49.89	186.65	10.06	-29.9	-33.0	13.0	9.57e-04	0	43	0	1276116992	20	5138
2026-01-15 00:06:52.90	186.74	9.80	-30.2	-33.7	12.5	1.26e-03	0	43	0	1281359872	20	5429
2026-01-15 00:06:55.91	186.84	9.55	-30.4	-34.4	12.1	3.97e-04	0	43	0	1287651328	20	5728
2026-01-15 00:06:58.93	186.93	9.30	-30.2	-33.8	12.4	4.52e-04	0	43	0	1292894208	20	5462
2026-01-15 00:07:01.93	187.02	9.05	-30.0	-33.6	12.9	3.49e-04	0	44	0	1299185664	19	5496
2026-01-15 00:07:04.93	187.11	8.80	-30.0	-33.2	12.8	3.03e-04	0	44	0	1304428544	20	5242
2026-01-15 00:07:07.94	187.20	8.55	-30.0	-33.2	12.7	1.87e-03	0	43	0	1309671424	20	5236
2026-01-15 00:07:10.95	187.28	8.31	-30.1	-33.5	12.4	1.87e-03	0	43	0	1315962880	20	5377
2026-01-15 00:07:13.95	187.37	8.07	-29.9	-33.6	12.8	1.57e-03	0	43	0	1321205760	19	5485
2026-01-15 00:07:16.96	187.45	7.83	-30.2	-34.0	12.1	1.82e-03	0	43	0	1326448640	20	5575
2026-01-15 00:07:19.96	187.53	7.60	-30.3	-34.3	11.9	4.87e-04	0	44	0	1332740096	20	5699
2026-01-15 00:07:22.98	187.62	7.36	-30.3	-34.4	11.7	2.95e-03	0	43	0	1337982976	20	5793
2026-01-15 00:07:25.98	187.70	7.13	-30.1	-33.7	12.2	2.47e-03	0	44	0	1344274432	20	5459

#Closed at: 2026-01-15 00:07:28
#Recorded file [1344 MB]: D:/data/31010_260115_025528.dat