passes_logs/2026/01/14/R2M6_AANII_01/R2M6_AANII_01__20260114_230517_NOAA_21_JPSS-2_rec.log

#Pass ID: 20260114_230517_NOAA 21 (JPSS-2)
#Satellite: NOAA 21 (JPSS-2)
#Configuration: NOAA 21
#almurnet v.1.7.20240730
#Start time: 2026-01-14 23:05:17

#Version: 2.2.20231116
#Station: R2M6_AANII_01
#Location: 30.233357 lon 59.946436 lat
#TLE: 1 54234U 22150A   26014.16688770  .00000052  00000+0  45394-4 0  9999
#TLE: 2 54234  98.7497 315.0767 0000655 297.6997  62.4113 14.19534648164696

#Time	Az	El	Level	Level2	SNR	BER	BlckErr	Temp	State	Recorded	gain1	gain2
2026-01-14 23:05:17.21	26.44	7.01	-30.5	-35.1	4.8	1.36e+00	0	41	0	0	20	6128
2026-01-14 23:05:20.23	26.66	7.22	-31.8	-36.9	7.2	1.27e-01	0	41	0	3145728	23	6543
2026-01-14 23:05:23.23	26.89	7.42	-31.2	-35.1	8.5	5.55e-02	0	41	0	12582912	23	5593
2026-01-14 23:05:26.24	27.12	7.63	-30.3	-33.1	10.5	3.75e-03	0	41	0	22020096	21	4987
2026-01-14 23:05:29.25	27.35	7.84	-29.7	-32.4	11.9	4.61e-04	0	41	0	30408704	19	4944
2026-01-14 23:05:32.25	27.58	8.05	-29.8	-32.3	11.6	8.19e-04	0	41	0	39845888	20	4817
2026-01-14 23:05:35.26	27.82	8.26	-29.7	-32.5	11.9	5.65e-04	0	41	0	49283072	19	4958
2026-01-14 23:05:38.26	28.06	8.48	-29.5	-31.9	12.3	1.76e-04	0	41	0	58720256	19	4763
2026-01-14 23:05:41.27	28.31	8.69	-29.3	-32.0	12.5	9.00e-05	0	41	0	68157440	18	4913
2026-01-14 23:05:44.28	28.56	8.91	-28.9	-30.9	13.3	1.29e-04	0	41	0	77594624	18	4535
2026-01-14 23:05:47.30	28.81	9.13	-29.1	-31.5	12.9	3.52e-04	0	41	0	87031808	18	4738
2026-01-14 23:05:50.31	29.07	9.35	-29.4	-32.3	11.8	3.97e-04	0	42	0	96468992	18	4995
2026-01-14 23:05:53.33	29.33	9.57	-29.7	-32.4	12.1	5.28e-04	0	42	0	105906176	19	4907
2026-01-14 23:05:56.34	29.59	9.80	-29.6	-32.2	12.2	1.21e-03	0	42	0	115343360	19	4867
2026-01-14 23:05:59.35	29.86	10.02	-29.7	-32.5	12.1	4.23e-04	0	42	0	124780544	19	4943
2026-01-14 23:06:02.36	30.13	10.25	-29.2	-31.5	13.0	1.21e-03	0	42	0	134217728	18	4731
2026-01-14 23:06:05.38	30.41	10.48	-29.4	-32.1	12.7	3.11e-04	0	42	0	143654912	18	4925
2026-01-14 23:06:08.39	30.69	10.70	-29.3	-31.8	12.9	8.34e-04	0	42	0	153092096	18	4811
2026-01-14 23:06:11.40	30.97	10.93	-28.8	-31.1	13.6	7.70e-04	0	42	0	162529280	17	4722
2026-01-14 23:06:14.41	31.26	11.17	-28.8	-31.2	13.6	8.22e-04	0	42	0	171966464	17	4722
2026-01-14 23:06:17.42	31.55	11.40	-28.5	-30.4	14.0	8.91e-04	0	42	0	181403648	17	4493
2026-01-14 23:06:20.43	31.85	11.64	-28.5	-30.5	14.0	0.00e+00	0	42	0	190840832	17	4514
2026-01-14 23:06:23.45	32.15	11.87	-28.5	-30.5	14.0	7.42e-04	0	42	0	200278016	17	4508
2026-01-14 23:06:26.45	32.46	12.11	-28.3	-30.5	14.3	7.12e-04	0	42	0	209715200	16	4621
2026-01-14 23:06:29.45	32.77	12.35	-28.3	-30.5	14.4	7.10e-04	0	42	0	219152384	16	4605
2026-01-14 23:06:32.46	33.08	12.59	-28.4	-30.7	14.3	5.39e-04	0	42	0	228589568	16	4684
2026-01-14 23:06:35.48	33.40	12.84	-28.4	-30.2	14.2	0.00e+00	0	43	0	238026752	17	4408
2026-01-14 23:06:38.49	33.73	13.08	-28.3	-30.4	14.5	4.81e-04	0	42	0	247463936	16	4589
2026-01-14 23:06:41.49	34.06	13.33	-28.2	-30.3	14.5	7.00e-07	0	42	0	256901120	16	4555
2026-01-14 23:06:44.50	34.40	13.58	-28.3	-30.3	14.5	0.00e+00	0	43	0	266338304	16	4557
2026-01-14 23:06:47.51	34.74	13.83	-28.4	-30.6	14.4	0.00e+00	0	43	0	275775488	16	4654
2026-01-14 23:06:50.52	35.09	14.08	-28.3	-30.3	14.5	0.00e+00	0	43	0	285212672	16	4566
2026-01-14 23:06:53.53	35.44	14.34	-28.2	-30.2	14.6	0.00e+00	0	42	0	294649856	16	4526
2026-01-14 23:06:56.55	35.80	14.59	-28.2	-30.2	14.6	0.00e+00	0	43	0	304087040	16	4525
2026-01-14 23:06:59.56	36.17	14.85	-28.3	-30.4	14.5	7.00e-07	0	43	0	313524224	16	4590
2026-01-14 23:07:02.57	36.54	15.11	-28.6	-30.6	14.1	2.20e-06	0	43	0	322961408	17	4527
2026-01-14 23:07:05.58	36.92	15.37	-28.3	-29.8	14.6	0.00e+00	0	43	0	332398592	17	4300
2026-01-14 23:07:08.59	37.30	15.63	-28.5	-30.4	14.3	0.00e+00	0	43	0	341835776	17	4464
2026-01-14 23:07:11.60	37.69	15.90	-28.5	-30.3	14.4	0.00e+00	0	43	0	350224384	17	4445
2026-01-14 23:07:14.62	38.09	16.16	-28.7	-30.7	14.1	1.50e-06	0	43	0	360710144	17	4568
2026-01-14 23:07:17.62	38.49	16.43	-28.7	-30.7	14.1	7.00e-07	0	43	0	370147328	17	4564
2026-01-14 23:07:20.63	38.90	16.70	-28.8	-31.1	14.0	3.00e-06	0	43	0	378535936	17	4664
2026-01-14 23:07:23.64	39.32	16.97	-28.9	-31.2	13.9	2.20e-06	0	43	0	387973120	17	4705
2026-01-14 23:07:26.65	39.75	17.24	-28.6	-30.5	14.4	7.00e-07	0	43	0	397410304	17	4488
2026-01-14 23:07:29.66	40.18	17.51	-28.3	-29.8	14.8	0.00e+00	0	43	0	406847488	17	4277
2026-01-14 23:07:32.66	40.62	17.79	-28.3	-29.8	14.8	0.00e+00	0	43	0	416284672	17	4285
2026-01-14 23:07:35.67	41.07	18.06	-28.3	-29.9	14.7	0.00e+00	0	43	0	425721856	17	4313
2026-01-14 23:07:38.69	41.53	18.34	-28.1	-29.4	15.1	0.00e+00	0	43	0	435159040	17	4164
2026-01-14 23:07:41.69	41.99	18.62	-27.9	-29.4	15.3	0.00e+00	0	43	0	444596224	16	4278
2026-01-14 23:07:44.71	42.47	18.90	-28.0	-29.7	15.2	0.00e+00	0	43	0	454033408	16	4362
2026-01-14 23:07:47.72	42.95	19.18	-28.0	-29.6	15.2	0.00e+00	0	43	0	463470592	16	4343
2026-01-14 23:07:50.72	43.44	19.47	-28.1	-30.0	15.1	0.00e+00	0	43	0	472907776	16	4442
2026-01-14 23:07:53.73	43.94	19.75	-27.9	-29.5	15.3	0.00e+00	0	43	0	482344960	16	4311
2026-01-14 23:07:56.73	44.45	20.04	-27.9	-29.4	15.4	0.00e+00	0	43	0	491782144	16	4278
2026-01-14 23:07:59.73	44.96	20.32	-27.9	-29.4	15.4	0.00e+00	0	43	0	501219328	16	4281
2026-01-14 23:08:02.73	45.49	20.61	-27.8	-29.1	15.6	0.00e+00	0	43	0	510656512	16	4192
2026-01-14 23:08:05.74	46.02	20.90	-27.7	-28.9	15.7	0.00e+00	0	43	0	520093696	16	4143
2026-01-14 23:08:08.74	46.57	21.19	-27.6	-28.7	15.8	0.00e+00	0	43	0	529530880	16	4074
2026-01-14 23:08:11.74	47.13	21.47	-27.4	-28.2	16.0	0.00e+00	0	43	0	538968064	16	3965
2026-01-14 23:08:14.76	47.70	21.77	-27.4	-28.3	16.0	0.00e+00	0	43	0	548405248	16	3981
2026-01-14 23:08:17.77	48.27	22.06	-27.4	-28.9	15.9	0.00e+00	0	43	0	557842432	15	4244
2026-01-14 23:08:20.78	48.86	22.35	-27.5	-29.0	15.8	0.00e+00	0	43	0	567279616	15	4288
2026-01-14 23:08:23.80	49.46	22.64	-27.5	-29.1	15.8	0.00e+00	0	43	0	576716800	15	4303
2026-01-14 23:08:26.81	50.08	22.93	-27.3	-28.5	16.1	0.00e+00	0	43	0	586153984	15	4149
2026-01-14 23:08:29.81	50.70	23.23	-27.1	-28.2	16.2	0.00e+00	0	43	0	595591168	15	4055
2026-01-14 23:08:32.82	51.33	23.52	-27.2	-28.3	16.2	0.00e+00	0	43	0	605028352	15	4102
2026-01-14 23:08:35.84	51.98	23.81	-27.5	-28.9	15.9	0.00e+00	0	43	0	614465536	15	4258
2026-01-14 23:08:38.86	52.64	24.10	-27.5	-29.0	15.8	0.00e+00	0	43	0	623902720	15	4268
2026-01-14 23:08:41.87	53.30	24.39	-27.5	-29.0	15.8	0.00e+00	0	43	0	633339904	15	4274
2026-01-14 23:08:44.88	53.99	24.68	-27.4	-28.8	15.9	0.00e+00	0	43	0	642777088	15	4221
2026-01-14 23:08:47.89	54.68	24.97	-27.4	-28.9	15.9	0.00e+00	0	43	0	651165696	15	4241
2026-01-14 23:08:50.90	55.39	25.26	-27.8	-29.6	15.5	0.00e+00	0	43	0	660602880	15	4438
2026-01-14 23:08:53.91	56.11	25.54	-28.0	-30.1	15.2	0.00e+00	0	43	0	670040064	15	4586
2026-01-14 23:08:56.92	56.84	25.83	-28.0	-29.7	15.4	0.00e+00	0	43	0	679477248	16	4338
2026-01-14 23:08:59.92	57.58	26.11	-28.1	-29.7	15.3	0.00e+00	0	43	0	688914432	16	4360
2026-01-14 23:09:02.93	58.34	26.39	-27.7	-28.8	15.9	6.17e-05	0	43	0	698351616	16	4115
2026-01-14 23:09:05.93	59.11	26.67	-27.8	-29.1	15.7	2.05e-05	0	43	0	707788800	16	4194
2026-01-14 23:09:08.94	59.89	26.94	-27.8	-29.2	15.6	0.00e+00	0	43	0	717225984	16	4211
2026-01-14 23:09:11.95	60.69	27.21	-27.7	-29.5	15.5	9.60e-04	0	43	0	726663168	15	4419
2026-01-14 23:09:14.96	61.50	27.48	-27.7	-29.5	15.6	1.48e-03	0	43	0	736100352	15	4405
2026-01-14 23:09:17.96	62.32	27.75	-27.7	-29.5	15.6	8.36e-04	0	43	0	745537536	15	4400
2026-01-14 23:09:20.97	63.16	28.01	-27.4	-28.8	15.9	3.41e-04	0	43	0	754974720	15	4228
2026-01-14 23:09:23.97	64.01	28.27	-27.5	-29.0	15.9	6.93e-04	0	43	0	764411904	15	4273
2026-01-14 23:09:26.98	64.87	28.52	-27.7	-29.5	15.6	3.63e-04	0	43	0	773849088	15	4412
2026-01-14 23:09:29.99	65.75	28.77	-27.5	-29.0	15.9	0.00e+00	0	43	0	783286272	15	4260
2026-01-14 23:09:32.99	66.64	29.01	-27.7	-29.4	15.7	0.00e+00	0	43	0	792723456	15	4378
2026-01-14 23:09:35.98	67.54	29.25	-28.1	-29.9	15.3	0.00e+00	0	43	0	802160640	16	4403
2026-01-14 23:09:38.99	68.46	29.48	-27.9	-29.4	15.6	0.00e+00	0	43	0	811597824	16	4261
2026-01-14 23:09:42.01	69.39	29.71	-27.7	-28.8	15.9	0.00e+00	0	43	0	821035008	16	4109
2026-01-14 23:09:45.02	70.34	29.93	-27.8	-29.0	15.7	0.00e+00	0	43	0	830472192	16	4170
2026-01-14 23:09:48.03	71.29	30.14	-27.8	-29.0	15.8	6.10e-06	0	43	0	839909376	16	4166
2026-01-14 23:09:51.02	72.26	30.34	-27.8	-29.2	15.7	0.00e+00	0	43	0	849346560	16	4201
2026-01-14 23:09:54.03	73.24	30.54	-27.9	-29.3	15.7	0.00e+00	0	43	0	858783744	16	4236
2026-01-14 23:09:57.03	74.23	30.73	-28.2	-30.0	15.3	3.80e-06	0	43	0	868220928	16	4434
2026-01-14 23:10:00.04	75.23	30.91	-28.1	-29.7	15.4	0.00e+00	0	43	0	877658112	16	4345
2026-01-14 23:10:03.05	76.25	31.09	-28.1	-29.9	15.3	3.80e-06	0	43	0	886046720	16	4394
2026-01-14 23:10:06.06	77.27	31.25	-28.4	-30.5	15.0	0.00e+00	0	43	0	895483904	16	4589
2026-01-14 23:10:09.07	78.31	31.41	-28.3	-30.2	15.1	7.00e-07	0	43	0	904921088	16	4495
2026-01-14 23:10:12.08	79.36	31.55	-28.3	-30.3	15.1	7.00e-07	0	43	0	914358272	16	4530
2026-01-14 23:10:15.08	80.41	31.69	-28.2	-29.5	15.2	0.00e+00	0	43	0	923795456	17	4190
2026-01-14 23:10:18.09	81.47	31.82	-28.4	-30.0	14.9	0.00e+00	0	43	0	933232640	17	4338
2026-01-14 23:10:21.11	82.54	31.93	-28.0	-29.0	15.6	0.00e+00	0	43	0	942669824	17	4042
2026-01-14 23:10:24.12	83.62	32.04	-28.3	-29.8	15.1	7.00e-07	0	43	0	952107008	17	4260
2026-01-14 23:10:27.14	84.71	32.14	-28.5	-30.3	14.8	0.00e+00	0	43	0	961544192	17	4416
2026-01-14 23:10:30.14	85.80	32.22	-28.6	-30.4	14.8	0.00e+00	0	43	0	970981376	17	4425
2026-01-14 23:10:33.15	86.90	32.29	-28.6	-30.4	14.7	0.00e+00	0	43	0	980418560	17	4424
2026-01-14 23:10:36.16	88.00	32.35	-28.7	-30.6	14.6	7.00e-07	0	43	0	989855744	17	4506
2026-01-14 23:10:39.18	89.11	32.40	-28.6	-30.5	14.7	0.00e+00	0	43	0	999292928	17	4467
2026-01-14 23:10:42.18	90.21	32.44	-28.3	-29.8	15.0	7.00e-07	0	43	0	1008730112	17	4278
2026-01-14 23:10:45.19	91.32	32.47	-28.5	-30.1	14.9	1.96e-04	0	43	0	1018167296	17	4361
2026-01-14 23:10:48.20	92.43	32.49	-28.5	-30.2	14.9	0.00e+00	0	43	0	1027604480	17	4374
2026-01-14 23:10:51.21	93.55	32.49	-28.4	-29.9	15.0	2.46e-04	0	43	0	1037041664	17	4299
2026-01-14 23:10:54.22	94.66	32.48	-28.4	-30.1	14.9	3.13e-04	0	43	0	1046478848	17	4342
2026-01-14 23:10:57.23	95.77	32.46	-28.5	-30.1	14.9	2.12e-04	0	43	0	1055916032	17	4359
2026-01-14 23:11:00.23	96.88	32.43	-28.5	-30.1	14.9	2.40e-04	0	43	0	1065353216	17	4353
2026-01-14 23:11:03.23	97.98	32.39	-28.2	-29.6	15.2	0.00e+00	0	43	0	1074790400	17	4223
2026-01-14 23:11:06.24	99.09	32.33	-28.4	-29.9	15.0	7.00e-07	0	43	0	1084227584	17	4278
2026-01-14 23:11:09.26	100.19	32.27	-28.0	-29.1	15.4	0.00e+00	0	43	0	1093664768	17	4085
2026-01-14 23:11:12.27	101.29	32.19	-28.0	-29.1	15.4	9.10e-06	0	43	0	1103101952	17	4088
2026-01-14 23:11:15.27	102.37	32.10	-28.3	-29.7	15.1	1.75e-05	0	43	0	1112539136	17	4234
2026-01-14 23:11:18.28	103.46	32.00	-28.2	-29.6	15.2	0.00e+00	0	43	0	1121976320	17	4206
2026-01-14 23:11:21.30	104.54	31.89	-28.2	-29.6	15.2	1.83e-05	0	43	0	1131413504	17	4214
2026-01-14 23:11:24.30	105.61	31.77	-28.5	-30.3	14.7	0.00e+00	0	43	0	1140850688	17	4409
2026-01-14 23:11:27.32	106.67	31.64	-28.7	-30.7	14.5	0.00e+00	0	43	0	1150287872	17	4536
2026-01-14 23:11:30.33	107.72	31.50	-28.6	-30.4	14.6	0.00e+00	0	43	0	1159725056	17	4449
2026-01-14 23:11:33.34	108.77	31.35	-28.5	-30.1	14.8	7.00e-07	0	43	0	1169162240	17	4352
2026-01-14 23:11:36.36	109.81	31.19	-28.7	-30.6	14.5	1.50e-06	0	43	0	1178599424	17	4503
2026-01-14 23:11:39.37	110.83	31.02	-28.1	-29.3	15.2	0.00e+00	0	43	0	1188036608	17	4146
2026-01-14 23:11:42.39	111.85	30.84	-28.1	-29.2	15.3	0.00e+00	0	43	0	1197473792	17	4112
2026-01-14 23:11:45.39	112.85	30.65	-27.9	-29.0	15.5	0.00e+00	0	43	0	1205862400	17	4047
2026-01-14 23:11:48.40	113.84	30.46	-27.9	-29.3	15.6	0.00e+00	0	43	0	1215299584	16	4236
2026-01-14 23:11:51.40	114.82	30.26	-28.2	-30.0	15.1	0.00e+00	0	43	0	1224736768	16	4454
2026-01-14 23:11:54.41	115.78	30.05	-27.7	-29.0	15.7	0.00e+00	0	43	0	1234173952	16	4161
2026-01-14 23:11:57.42	116.74	29.83	-27.7	-29.0	15.7	0.00e+00	0	43	0	1243611136	16	4150
2026-01-14 23:12:00.43	117.68	29.61	-27.9	-29.3	15.5	0.00e+00	0	44	0	1253048320	16	4254
2026-01-14 23:12:03.45	118.61	29.38	-27.5	-28.5	16.0	0.00e+00	0	43	0	1262485504	16	4022
2026-01-14 23:12:06.46	119.53	29.14	-27.4	-28.2	16.1	0.00e+00	0	43	0	1271922688	16	3949
2026-01-14 23:12:09.47	120.43	28.90	-27.7	-28.9	15.7	0.00e+00	0	43	0	1281359872	16	4125
2026-01-14 23:12:12.47	121.32	28.66	-27.4	-28.2	16.1	0.00e+00	0	43	0	1290797056	16	3963
2026-01-14 23:12:15.48	122.19	28.40	-27.3	-28.5	16.1	0.00e+00	0	43	0	1300234240	15	4131
2026-01-14 23:12:18.48	123.05	28.15	-26.9	-27.6	16.5	0.00e+00	0	43	0	1309671424	15	3912
2026-01-14 23:12:21.47	123.90	27.89	-26.9	-27.6	16.5	0.00e+00	0	43	0	1319108608	15	3907
2026-01-14 23:12:24.48	124.73	27.62	-26.9	-28.1	16.4	0.00e+00	0	44	0	1328545792	14	4153
2026-01-14 23:12:27.47	125.55	27.36	-27.1	-28.5	16.2	0.00e+00	0	43	0	1337982976	14	4266
2026-01-14 23:12:30.48	126.36	27.09	-26.8	-28.0	16.5	0.00e+00	0	43	0	1347420160	14	4131
2026-01-14 23:12:33.49	127.16	26.81	-26.9	-28.3	16.4	0.00e+00	0	43	0	1356857344	14	4200
2026-01-14 23:12:36.50	127.94	26.53	-27.0	-28.4	16.3	0.00e+00	0	43	0	1366294528	14	4236
2026-01-14 23:12:39.52	128.71	26.25	-27.1	-28.6	16.2	0.00e+00	0	43	0	1375731712	14	4294
2026-01-14 23:12:42.53	129.46	25.97	-26.9	-28.1	16.4	0.00e+00	0	43	0	1385168896	14	4147
2026-01-14 23:12:45.52	130.20	25.68	-26.9	-28.1	16.4	0.00e+00	0	43	0	1394606080	14	4158
2026-01-14 23:12:48.53	130.93	25.40	-27.1	-28.7	16.0	0.00e+00	0	43	0	1404043264	14	4322
2026-01-14 23:12:51.54	131.65	25.11	-27.4	-29.3	15.7	0.00e+00	0	43	0	1413480448	14	4477
2026-01-14 23:12:54.55	132.35	24.82	-28.0	-29.7	15.1	0.00e+00	0	43	0	1422917632	16	4372
2026-01-14 23:12:57.56	133.04	24.53	-27.3	-28.2	16.0	0.00e+00	0	43	0	1431306240	16	3952
2026-01-14 23:13:00.57	133.72	24.24	-27.5	-28.5	15.7	0.00e+00	0	43	0	1441792000	16	4042
2026-01-14 23:13:03.57	134.39	23.94	-27.4	-28.2	15.9	0.00e+00	0	43	0	1451229184	16	3980
2026-01-14 23:13:06.58	135.04	23.65	-27.1	-28.3	15.9	0.00e+00	0	43	0	1459617792	15	4108
2026-01-14 23:13:09.59	135.68	23.36	-27.2	-29.0	15.8	0.00e+00	0	43	0	1469054976	14	4403
2026-01-14 23:13:12.60	136.32	23.06	-27.2	-29.0	15.8	4.50e-06	0	44	0	1478492160	14	4408
2026-01-14 23:13:15.60	136.93	22.77	-27.1	-28.8	15.8	0.00e+00	0	43	0	1487929344	14	4366
2026-01-14 23:13:18.60	137.54	22.47	-27.2	-28.9	15.7	0.00e+00	0	43	0	1497366528	14	4401
2026-01-14 23:13:21.62	138.14	22.18	-27.3	-29.2	15.6	7.00e-07	0	43	0	1506803712	14	4473
2026-01-14 23:13:24.63	138.73	21.89	-27.5	-29.6	15.4	0.00e+00	0	43	0	1516240896	14	4578
2026-01-14 23:13:27.63	139.30	21.59	-27.5	-29.0	15.4	7.00e-07	0	43	0	1525678080	15	4315
2026-01-14 23:13:30.64	139.87	21.30	-27.5	-29.6	15.4	0.00e+00	0	43	0	1535115264	14	4583
2026-01-14 23:13:33.64	140.42	21.01	-27.3	-29.3	15.5	7.00e-07	0	43	0	1544552448	14	4508
2026-01-14 23:13:36.65	140.96	20.72	-27.3	-29.2	15.5	0.00e+00	0	43	0	1553989632	14	4470
2026-01-14 23:13:39.67	141.50	20.43	-27.2	-28.9	15.7	0.00e+00	0	43	0	1563426816	14	4390
2026-01-14 23:13:42.68	142.03	20.14	-27.3	-29.2	15.6	0.00e+00	0	43	0	1572864000	14	4460
2026-01-14 23:13:45.68	142.54	19.85	-27.6	-29.3	15.2	0.00e+00	0	43	0	1582301184	15	4399
2026-01-14 23:13:48.69	143.05	19.56	-27.6	-29.4	15.1	0.00e+00	0	43	0	1591738368	15	4422
2026-01-14 23:13:51.70	143.54	19.28	-27.7	-29.6	14.9	0.00e+00	0	43	0	1601175552	15	4495
2026-01-14 23:13:54.71	144.03	18.99	-27.4	-28.8	15.3	0.00e+00	0	43	0	1610612736	15	4268
2026-01-14 23:13:57.70	144.51	18.71	-27.4	-29.5	15.2	0.00e+00	0	43	0	1620049920	14	4560
2026-01-14 23:14:00.71	144.98	18.43	-27.2	-28.9	15.5	0.00e+00	0	44	0	1629487104	14	4406
2026-01-14 23:14:03.72	145.44	18.14	-27.4	-29.4	15.2	0.00e+00	0	43	0	1638924288	14	4555
2026-01-14 23:14:06.73	145.90	17.87	-27.5	-29.6	15.1	0.00e+00	0	43	0	1648361472	14	4605
2026-01-14 23:14:09.74	146.34	17.59	-27.5	-29.2	15.0	0.00e+00	0	43	0	1657798656	15	4387
2026-01-14 23:14:12.75	146.78	17.31	-27.7	-29.7	14.7	0.00e+00	0	43	0	1667235840	15	4516
2026-01-14 23:14:15.76	147.21	17.04	-27.9	-30.2	14.3	7.00e-07	0	43	0	1676673024	15	4686
2026-01-14 23:14:18.78	147.64	16.76	-27.9	-30.2	14.4	1.50e-06	0	43	0	1686110208	15	4674
2026-01-14 23:14:21.80	148.05	16.49	-28.2	-30.3	14.2	2.20e-06	0	43	0	1695547392	16	4581
2026-01-14 23:14:24.80	148.46	16.22	-28.1	-30.1	14.3	0.00e+00	0	43	0	1704984576	16	4534
2026-01-14 23:14:27.82	148.86	15.95	-28.2	-30.2	14.2	4.01e-03	0	43	0	1714421760	16	4579
2026-01-14 23:14:30.84	149.26	15.68	-28.4	-30.8	13.8	5.30e-06	0	43	0	1723858944	16	4752
2026-01-14 23:14:33.85	149.65	15.42	-28.2	-30.4	14.0	3.56e-03	0	43	0	1732247552	16	4647
2026-01-14 23:14:36.85	150.03	15.15	-28.4	-30.8	13.8	4.06e-03	0	43	0	1741684736	16	4749
2026-01-14 23:14:39.86	150.40	14.89	-28.4	-30.9	13.7	3.97e-03	0	43	0	1752170496	16	4785
2026-01-14 23:14:42.88	150.77	14.63	-28.6	-30.9	13.4	3.78e-03	0	43	0	1760559104	17	4673
2026-01-14 23:14:45.91	151.14	14.37	-28.8	-31.3	13.1	4.35e-03	0	44	0	1769996288	17	4823
2026-01-14 23:14:48.90	151.49	14.11	-28.3	-30.6	13.8	4.05e-03	0	43	0	1779433472	16	4697
2026-01-14 23:14:51.91	151.84	13.86	-28.2	-30.5	13.8	6.10e-06	0	43	0	1788870656	16	4672
2026-01-14 23:14:54.90	152.19	13.61	-28.3	-30.9	13.5	4.13e-03	0	44	0	1798307840	16	4807
2026-01-14 23:14:57.91	152.53	13.36	-28.8	-31.5	12.8	5.41e-05	0	43	0	1807745024	17	4913
2026-01-14 23:15:00.91	152.86	13.11	-28.9	-31.7	12.7	7.78e-05	0	43	0	1817182208	17	4973
2026-01-14 23:15:03.93	153.19	12.86	-29.4	-32.4	11.9	3.40e-04	0	43	0	1826619392	18	5116
2026-01-14 23:15:06.94	153.51	12.61	-28.7	-31.3	13.0	5.41e-05	0	44	0	1836056576	17	4822
2026-01-14 23:15:09.94	153.83	12.37	-28.5	-30.8	13.2	2.51e-05	0	43	0	1845493760	17	4673
2026-01-14 23:15:12.96	154.14	12.12	-28.6	-31.0	13.1	2.44e-05	0	44	0	1854930944	17	4746
2026-01-14 23:15:15.96	154.45	11.88	-28.5	-30.7	13.3	2.21e-05	0	43	0	1864368128	17	4642
2026-01-14 23:15:18.97	154.75	11.64	-28.6	-30.9	13.2	1.83e-05	0	43	0	1873805312	17	4717
2026-01-14 23:15:21.98	155.05	11.40	-28.5	-30.6	13.4	1.37e-05	0	43	0	1883242496	17	4609
2026-01-14 23:15:24.99	155.35	11.17	-28.6	-31.0	13.1	3.28e-05	0	43	0	1892679680	17	4731
2026-01-14 23:15:28.00	155.64	10.93	-28.5	-30.6	13.4	2.51e-05	0	44	0	1902116864	17	4603
2026-01-14 23:15:31.00	155.92	10.70	-28.3	-30.7	13.6	1.29e-05	0	43	0	1911554048	16	4764
2026-01-14 23:15:34.01	156.20	10.47	-28.6	-30.9	13.2	2.28e-05	0	43	0	1920991232	17	4698
2026-01-14 23:15:37.01	156.48	10.24	-28.5	-30.8	13.2	2.51e-05	0	43	0	1930428416	17	4678
2026-01-14 23:15:40.01	156.75	10.01	-28.8	-31.5	12.8	4.34e-05	0	43	0	1939865600	17	4900
2026-01-14 23:15:43.02	157.02	9.78	-28.9	-31.7	12.6	7.47e-05	0	43	0	1949302784	17	4961
2026-01-14 23:15:46.03	157.28	9.56	-29.0	-31.8	12.6	8.77e-05	0	43	0	1958739968	17	4977
2026-01-14 23:15:49.04	157.54	9.33	-28.7	-31.2	12.9	5.26e-05	0	43	0	1968177152	17	4771
2026-01-14 23:15:52.05	157.80	9.11	-28.7	-31.2	12.9	5.18e-05	0	44	0	1977614336	17	4804
2026-01-14 23:15:55.06	158.05	8.89	-28.7	-31.1	12.9	4.88e-05	0	43	0	1986002944	17	4778
2026-01-14 23:15:58.06	158.30	8.67	-28.1	-31.0	12.0	8.62e-05	0	43	0	1996488704	17	5026
2026-01-14 23:16:01.07	158.55	8.45	-28.9	-31.7	12.4	1.03e-04	0	43	0	2005925888	17	4979
2026-01-14 23:16:04.08	158.79	8.24	-29.0	-31.5	12.3	1.39e-04	0	43	0	2014314496	18	4801
2026-01-14 23:16:07.09	159.03	8.02	-29.2	-32.1	12.0	4.54e-04	0	43	0	2023751680	18	4988
2026-01-14 23:16:10.11	159.27	7.81	-29.4	-32.6	11.5	9.52e-04	0	43	0	2033188864	18	5191
2026-01-14 23:16:13.12	159.50	7.59	-29.4	-32.6	11.5	4.60e-03	0	43	0	2042626048	18	5197
2026-01-14 23:16:16.12	159.73	7.38	-29.6	-32.8	11.0	5.48e-03	0	44	0	2052063232	19	5207
2026-01-14 23:16:19.13	159.95	7.17	-29.4	-32.7	11.4	9.31e-04	0	43	0	2061500416	18	5251

#Closed at: 2026-01-14 23:16:21
#Recorded file [2065 MB]: D:/data/31010_260115_020519.dat