passes_logs/2026/01/14/R2M6_AANII_01/R2M6_AANII_01__20260114_100702_NOAA_20_JPSS-1_rec.log

#Pass ID: 20260114_100702_NOAA 20 (JPSS-1)
#Satellite: NOAA 20 (JPSS-1)
#Configuration: NOAA 20
#almurnet v.1.7.20240730
#Start time: 2026-01-14 10:07:02

#Version: 2.2.20231116
#Station: R2M6_AANII_01
#Location: 30.233357 lon 59.946436 lat
#TLE: 1 43013U 17073A   26013.21545503  .00000073  00000+0  55630-4 0  9998
#TLE: 2 43013  98.7633 314.1737 0001580  41.9966 318.1331 14.19535680422486

#Time	Az	El	Level	Level2	SNR	BER	BlckErr	Temp	State	Recorded	gain1	gain2
2026-01-14 10:07:02.13	153.84	7.00	-31.4	-37.2	5.1	1.28e+00	0	40	0	0	24	6977
2026-01-14 10:07:05.15	153.82	7.24	-31.7	-38.0	7.5	1.19e-01	0	40	0	1048576	24	7429
2026-01-14 10:07:08.15	153.80	7.47	-31.6	-37.6	7.7	8.16e-02	0	40	0	7340032	24	7210
2026-01-14 10:07:11.17	153.78	7.71	-31.2	-37.0	8.6	3.76e-02	0	40	0	12582912	23	6964
2026-01-14 10:07:14.18	153.76	7.96	-31.1	-35.9	9.6	1.47e-02	0	40	0	17825792	23	6273
2026-01-14 10:07:17.20	153.74	8.20	-31.1	-35.6	9.9	9.57e-03	0	40	0	24117248	23	6070
2026-01-14 10:07:20.20	153.72	8.44	-31.1	-35.6	9.9	1.27e-02	0	41	0	29360128	23	6064
2026-01-14 10:07:23.22	153.69	8.69	-30.9	-35.0	10.4	6.24e-03	0	41	0	35651584	23	5799
2026-01-14 10:07:26.22	153.67	8.94	-30.9	-35.2	10.2	6.30e-03	0	41	0	40894464	23	5888
2026-01-14 10:07:29.23	153.65	9.20	-30.9	-35.2	10.3	6.22e-03	0	41	0	46137344	23	5912
2026-01-14 10:07:32.25	153.62	9.45	-31.0	-35.6	9.9	8.95e-03	0	41	0	52428800	23	6124
2026-01-14 10:07:35.25	153.60	9.71	-31.0	-35.8	9.8	9.55e-03	0	41	0	57671680	23	6212
2026-01-14 10:07:38.25	153.57	9.97	-31.1	-36.1	9.5	1.19e-02	0	41	0	63963136	23	6391
2026-01-14 10:07:41.25	153.55	10.23	-31.1	-36.0	9.7	1.19e-02	0	41	0	69206016	23	6315
2026-01-14 10:07:44.26	153.52	10.50	-30.9	-34.8	10.8	3.74e-03	0	41	0	74448896	23	5643
2026-01-14 10:07:47.27	153.49	10.77	-31.0	-35.0	10.8	2.17e-03	0	41	0	80740352	23	5653
2026-01-14 10:07:50.27	153.46	11.04	-31.2	-35.5	10.4	5.15e-03	0	41	0	85983232	23	5901
2026-01-14 10:07:53.28	153.43	11.32	-30.9	-34.3	11.4	1.19e-03	0	41	0	91226112	23	5336
2026-01-14 10:07:56.28	153.41	11.59	-30.8	-34.3	11.4	8.65e-04	0	41	0	97517568	23	5334
2026-01-14 10:07:59.29	153.37	11.88	-30.8	-34.2	11.4	9.36e-04	0	41	0	102760448	23	5326
2026-01-14 10:08:02.31	153.34	12.16	-30.9	-34.6	11.2	1.03e-03	0	41	0	109051904	23	5474
2026-01-14 10:08:05.33	153.31	12.45	-30.9	-34.4	11.3	1.37e-03	0	41	0	114294784	23	5416
2026-01-14 10:08:08.33	153.28	12.74	-30.9	-34.4	11.3	1.43e-03	0	42	0	119537664	23	5417
2026-01-14 10:08:11.34	153.25	13.04	-30.8	-34.6	11.5	6.88e-04	0	42	0	125829120	22	5594
2026-01-14 10:08:14.35	153.21	13.34	-30.9	-34.9	11.4	1.08e-03	0	42	0	131072000	22	5695
2026-01-14 10:08:17.36	153.18	13.64	-31.0	-35.2	11.3	1.52e-03	0	42	0	136314880	22	5809
2026-01-14 10:08:20.38	153.14	13.95	-30.9	-34.9	11.5	7.80e-04	0	42	0	142606336	22	5675
2026-01-14 10:08:23.38	153.10	14.26	-31.1	-35.3	11.2	1.23e-03	0	42	0	147849216	22	5856
2026-01-14 10:08:26.39	153.07	14.57	-31.2	-35.7	10.9	2.19e-03	0	42	0	154140672	22	6047
2026-01-14 10:08:29.40	153.03	14.89	-30.7	-34.1	12.1	3.89e-04	0	42	0	159383552	22	5292
2026-01-14 10:08:32.41	152.99	15.21	-30.5	-33.3	12.7	6.63e-05	0	42	0	164626432	22	5000
2026-01-14 10:08:35.42	152.95	15.54	-30.5	-33.5	12.7	8.01e-05	0	42	0	170917888	22	5054
2026-01-14 10:08:38.43	152.90	15.87	-30.4	-32.9	13.1	4.04e-05	0	42	0	176160768	22	4839
2026-01-14 10:08:41.44	152.86	16.21	-30.4	-33.1	13.0	4.65e-05	0	42	0	182452224	22	4880
2026-01-14 10:08:44.45	152.82	16.55	-30.6	-33.4	12.8	7.47e-05	0	42	0	187695104	22	5017
2026-01-14 10:08:47.46	152.77	16.90	-30.2	-33.1	13.4	1.22e-05	0	42	0	192937984	21	4980
2026-01-14 10:08:50.47	152.72	17.25	-30.3	-33.1	13.4	9.90e-06	0	42	0	199229440	21	4988
2026-01-14 10:08:53.49	152.67	17.60	-30.0	-32.4	13.9	5.30e-06	0	42	0	204472320	21	4716
2026-01-14 10:08:56.51	152.62	17.97	-30.2	-32.7	13.7	3.80e-06	0	42	0	209715200	21	4834
2026-01-14 10:08:59.51	152.57	18.33	-30.0	-32.3	14.1	3.00e-06	0	42	0	216006656	21	4678
2026-01-14 10:09:02.52	152.52	18.70	-30.1	-32.4	14.0	7.00e-07	0	42	0	221249536	21	4722
2026-01-14 10:09:05.54	152.47	19.08	-29.9	-31.9	14.4	1.50e-06	0	42	0	227540992	21	4532
2026-01-14 10:09:08.55	152.41	19.47	-29.9	-31.9	14.4	7.00e-07	0	42	0	232783872	21	4546
2026-01-14 10:09:11.56	152.35	19.85	-29.9	-31.9	14.4	0.00e+00	0	42	0	238026752	21	4530
2026-01-14 10:09:14.57	152.29	20.25	-29.9	-31.9	14.5	0.00e+00	0	42	0	244318208	21	4522
2026-01-14 10:09:17.57	152.23	20.65	-29.9	-31.9	14.5	1.50e-06	0	42	0	249561088	21	4533
2026-01-14 10:09:20.58	152.17	21.06	-29.8	-31.7	14.7	0.00e+00	0	42	0	254803968	21	4456
2026-01-14 10:09:23.58	152.11	21.47	-29.7	-31.8	14.9	0.00e+00	0	42	0	261095424	20	4603
2026-01-14 10:09:26.59	152.04	21.89	-29.6	-31.6	15.1	0.00e+00	0	42	0	266338304	20	4528
2026-01-14 10:09:29.60	151.97	22.32	-29.4	-31.2	15.3	0.00e+00	0	42	0	272629760	20	4420
2026-01-14 10:09:32.60	151.90	22.76	-29.5	-31.4	15.2	0.00e+00	0	42	0	277872640	20	4488
2026-01-14 10:09:35.61	151.83	23.20	-29.5	-31.3	15.2	0.00e+00	0	42	0	283115520	20	4450
2026-01-14 10:09:38.62	151.75	23.65	-29.3	-30.8	15.6	0.00e+00	0	42	0	289406976	20	4286
2026-01-14 10:09:41.63	151.67	24.11	-29.4	-31.1	15.5	0.00e+00	0	42	0	294649856	20	4360
2026-01-14 10:09:44.64	151.59	24.58	-29.5	-31.2	15.4	0.00e+00	0	42	0	300941312	20	4392
2026-01-14 10:09:47.64	151.51	25.05	-29.6	-31.5	15.3	7.00e-07	0	42	0	306184192	20	4484
2026-01-14 10:09:50.64	151.42	25.54	-29.7	-31.8	15.1	0.00e+00	0	42	0	311427072	20	4573
2026-01-14 10:09:53.65	151.33	26.03	-29.9	-32.4	14.8	7.00e-07	0	42	0	317718528	20	4760
2026-01-14 10:09:56.65	151.24	26.53	-30.2	-33.1	14.3	0.00e+00	0	42	0	322961408	20	5004
2026-01-14 10:09:59.67	151.14	27.05	-30.5	-33.3	13.9	3.80e-06	0	42	0	328204288	21	4957
2026-01-14 10:10:02.66	151.04	27.56	-30.8	-34.0	13.5	4.50e-06	0	42	0	334495744	21	5231
2026-01-14 10:10:05.67	150.94	28.09	-30.9	-34.5	13.2	2.05e-05	0	42	0	339738624	21	5408
2026-01-14 10:10:08.68	150.83	28.64	-31.3	-34.9	12.6	9.07e-05	0	42	0	346030080	22	5449
2026-01-14 10:10:11.69	150.72	29.19	-31.5	-35.2	12.1	1.91e-04	0	42	0	351272960	23	5505
2026-01-14 10:10:14.70	150.61	29.75	-31.7	-35.7	11.8	6.08e-04	0	42	0	356515840	23	5690
2026-01-14 10:10:17.71	150.49	30.33	-31.5	-35.1	12.2	2.52e-04	0	42	0	362807296	23	5436
2026-01-14 10:10:20.72	150.36	30.91	-31.7	-35.6	11.8	4.44e-04	0	42	0	368050176	23	5664
2026-01-14 10:10:23.74	150.23	31.51	-31.8	-35.9	11.6	7.22e-04	0	42	0	374341632	23	5778
2026-01-14 10:10:26.74	150.10	32.12	-32.0	-36.4	11.3	1.28e-03	0	42	0	379584512	23	6027
2026-01-14 10:10:29.75	149.96	32.74	-32.2	-36.6	10.8	2.31e-03	0	42	0	384827392	24	6003
2026-01-14 10:10:32.75	149.82	33.38	-32.1	-36.2	11.1	1.91e-03	0	42	0	391118848	24	5809
2026-01-14 10:10:35.76	149.66	34.03	-31.9	-35.8	11.4	9.19e-04	0	42	0	396361728	24	5617
2026-01-14 10:10:38.77	149.50	34.69	-31.8	-35.4	11.7	6.26e-04	0	42	0	401604608	24	5467
2026-01-14 10:10:41.78	149.34	35.37	-31.4	-34.4	12.4	1.79e-04	0	42	0	407896064	24	5041
2026-01-14 10:10:44.80	149.17	36.06	-31.2	-34.0	13.0	9.68e-05	0	42	0	413138944	23	4992
2026-01-14 10:10:47.81	148.98	36.76	-30.6	-32.9	14.0	2.20e-06	0	42	0	419430400	22	4713
2026-01-14 10:10:50.82	148.79	37.49	-30.4	-32.4	14.4	1.50e-06	0	42	0	424673280	22	4536
2026-01-14 10:10:53.82	148.60	38.22	-30.5	-32.6	14.4	1.50e-06	0	42	0	429916160	22	4598
2026-01-14 10:10:56.83	148.39	38.97	-30.9	-33.7	13.6	3.00e-06	0	43	0	436207616	22	4989
2026-01-14 10:10:59.84	148.17	39.74	-31.1	-34.2	13.3	2.44e-05	0	42	0	441450496	22	5162
2026-01-14 10:11:02.85	147.94	40.53	-31.4	-35.1	12.7	5.64e-05	0	42	0	446693376	22	5530
2026-01-14 10:11:05.87	147.70	41.33	-31.5	-34.9	12.5	1.40e-04	0	42	0	452984832	23	5335
2026-01-14 10:11:08.87	147.44	42.15	-31.3	-34.2	12.9	8.23e-05	0	42	0	458227712	23	5075
2026-01-14 10:11:11.89	147.17	42.99	-31.4	-34.6	12.7	6.25e-05	0	42	0	464519168	23	5209
2026-01-14 10:11:14.90	146.89	43.85	-31.4	-34.8	12.6	9.00e-05	0	42	0	469762048	23	5278
2026-01-14 10:11:17.90	146.59	44.72	-31.6	-35.1	12.3	2.01e-04	0	42	0	475004928	23	5412
2026-01-14 10:11:20.90	146.27	45.61	-31.8	-35.9	11.8	4.02e-04	0	42	0	481296384	23	5750
2026-01-14 10:11:23.92	145.93	46.52	-31.7	-35.5	12.1	3.67e-04	0	43	0	486539264	23	5587
2026-01-14 10:11:26.93	145.57	47.45	-32.2	-36.7	10.9	2.19e-03	0	42	0	491782144	24	6024
2026-01-14 10:11:29.94	145.19	48.40	-32.2	-36.7	10.9	2.05e-03	0	42	0	498073600	24	5996
2026-01-14 10:11:32.94	144.79	49.37	-31.6	-34.5	12.5	1.67e-04	0	42	0	503316480	24	5073
2026-01-14 10:11:35.95	144.36	50.36	-31.2	-33.9	13.2	5.95e-05	0	42	0	509607936	23	4955
2026-01-14 10:11:38.96	143.89	51.37	-30.8	-33.4	13.9	5.30e-06	0	42	0	514850816	22	4852
2026-01-14 10:11:41.97	143.39	52.40	-29.8	-31.8	15.5	0.00e+00	0	42	0	520093696	20	4536
2026-01-14 10:11:44.97	142.86	53.45	-29.8	-31.8	15.5	0.00e+00	0	42	0	526385152	20	4533
2026-01-14 10:11:47.98	142.29	54.51	-29.4	-31.3	16.2	0.00e+00	0	42	0	531628032	19	4482
2026-01-14 10:11:50.98	141.67	55.60	-29.9	-32.7	15.4	0.00e+00	0	43	0	536870912	19	4925
2026-01-14 10:11:53.98	141.00	56.70	-31.0	-34.1	13.4	9.10e-06	0	42	0	543162368	22	5108
2026-01-14 10:11:56.99	140.27	57.82	-31.8	-35.6	12.1	1.97e-04	0	42	0	548405248	23	5587
2026-01-14 10:12:00.00	139.48	58.97	-32.0	-35.8	11.6	8.97e-04	0	43	0	554696704	24	5625
2026-01-14 10:12:03.00	138.61	60.12	-31.5	-34.3	12.7	1.50e-04	0	43	0	559939584	24	4993
2026-01-14 10:12:06.02	137.66	61.29	-31.0	-33.5	13.6	3.89e-05	0	42	0	565182464	23	4774
2026-01-14 10:12:09.02	136.62	62.47	-30.6	-32.9	14.3	0.00e+00	0	42	0	571473920	22	4695
2026-01-14 10:12:12.04	135.46	63.68	-31.0	-33.9	13.6	9.10e-06	0	43	0	576716800	22	5040
2026-01-14 10:12:15.04	134.18	64.88	-30.3	-32.1	14.8	7.00e-07	0	43	0	583008256	22	4439
2026-01-14 10:12:18.04	132.76	66.09	-30.7	-33.2	14.1	0.00e+00	0	43	0	588251136	22	4772
2026-01-14 10:12:21.03	131.18	67.29	-30.9	-33.6	13.8	1.50e-06	0	43	0	593494016	22	4933
2026-01-14 10:12:24.05	129.38	68.51	-30.7	-33.0	14.3	1.50e-06	0	42	0	599785472	22	4692
2026-01-14 10:12:27.05	127.36	69.71	-30.7	-33.1	14.2	7.00e-07	0	42	0	605028352	22	4731
2026-01-14 10:12:30.06	125.06	70.91	-30.2	-32.4	14.9	0.00e+00	0	42	0	610271232	21	4622
2026-01-14 10:12:33.06	122.44	72.08	-29.8	-32.3	15.6	0.00e+00	0	43	0	616562688	19	4797
2026-01-14 10:12:36.07	119.42	73.23	-30.8	-33.7	14.0	1.50e-06	0	43	0	621805568	21	5077
2026-01-14 10:12:39.07	115.96	74.34	-31.8	-35.5	12.3	2.10e-04	0	42	0	627048448	23	5556
2026-01-14 10:12:42.08	111.94	75.39	-32.4	-37.2	10.7	2.44e-03	0	42	0	633339904	24	6199
2026-01-14 10:12:45.09	107.31	76.37	-32.4	-36.5	11.0	1.49e-03	0	42	0	638582784	25	5789
2026-01-14 10:12:48.11	101.95	77.26	-32.2	-35.9	11.4	1.53e-03	0	42	0	644874240	25	5497
2026-01-14 10:12:51.12	95.84	78.02	-32.2	-36.2	11.5	1.74e-04	0	42	0	650117120	24	5740
2026-01-14 10:12:54.12	88.99	78.64	-32.5	-36.6	10.8	2.21e-03	0	42	0	655360000	25	5808
2026-01-14 10:12:57.13	81.43	79.08	-32.3	-36.0	11.4	7.67e-04	0	42	0	661651456	25	5525
2026-01-14 10:13:00.14	73.38	79.32	-32.2	-35.8	11.4	6.90e-04	0	42	0	666894336	25	5458
2026-01-14 10:13:03.14	65.14	79.35	-31.6	-34.4	12.8	7.40e-05	0	42	0	673185792	24	5000
2026-01-14 10:13:06.15	57.00	79.16	-31.1	-33.7	13.6	1.83e-05	0	43	0	678428672	23	4823
2026-01-14 10:13:09.16	49.29	78.77	-32.2	-36.2	11.5	8.81e-04	0	42	0	683671552	24	5744
2026-01-14 10:13:12.18	42.21	78.19	-31.5	-34.2	13.0	5.26e-05	0	42	0	689963008	24	4892
2026-01-14 10:13:15.19	35.91	77.46	-32.8	-37.7	10.0	8.18e-03	0	42	0	695205888	25	6384
2026-01-14 10:13:18.20	30.38	76.61	-33.0	-38.2	9.3	2.57e-02	0	43	0	700448768	26	6508
2026-01-14 10:13:21.21	25.57	75.65	-33.0	-38.1	9.5	8.87e-03	0	43	0	706740224	26	6474
2026-01-14 10:13:24.21	21.43	74.62	-32.2	-35.8	11.4	2.67e-03	0	42	0	711983104	25	5472
2026-01-14 10:13:27.21	17.83	73.53	-31.8	-35.1	12.3	2.17e-04	0	42	0	718274560	24	5267
2026-01-14 10:13:30.23	14.70	72.39	-30.0	-31.9	15.3	0.00e+00	0	42	0	723517440	21	4453
2026-01-14 10:13:33.24	11.98	71.22	-29.6	-31.4	15.8	0.00e+00	0	42	0	728760320	20	4421
2026-01-14 10:13:36.25	9.60	70.03	-30.6	-33.5	14.3	0.00e+00	0	43	0	735051776	21	4974
2026-01-14 10:13:39.24	7.52	68.84	-31.0	-34.3	13.8	3.00e-06	0	43	0	740294656	21	5289
2026-01-14 10:13:42.25	5.68	67.63	-32.6	-37.4	10.1	8.39e-03	0	42	0	745537536	25	6212
2026-01-14 10:13:45.26	4.03	66.41	-31.5	-34.3	12.8	7.47e-05	0	42	0	751828992	24	4967
2026-01-14 10:13:48.28	2.56	65.20	-30.7	-33.1	14.2	2.20e-06	0	43	0	757071872	22	4737
2026-01-14 10:13:51.29	1.25	63.99	-29.4	-30.8	16.1	0.00e+00	0	42	0	763363328	20	4236
2026-01-14 10:13:54.30	0.07	62.80	-28.7	-30.2	17.1	0.00e+00	0	42	0	768606208	18	4274
2026-01-14 10:13:57.30	359.00	61.62	-29.5	-31.6	16.1	0.00e+00	0	42	0	773849088	19	4575
2026-01-14 10:14:00.31	358.03	60.45	-30.6	-33.2	14.3	7.00e-07	0	42	0	780140544	21	4906
2026-01-14 10:14:03.33	357.14	59.29	-31.7	-35.5	12.2	8.54e-05	0	43	0	785383424	23	5563
2026-01-14 10:14:06.33	356.34	58.15	-32.1	-36.1	11.4	1.08e-03	0	43	0	790626304	24	5730
2026-01-14 10:14:09.34	355.59	57.02	-31.8	-35.3	12.0	4.49e-04	0	42	0	796917760	24	5384
2026-01-14 10:14:12.35	354.91	55.92	-30.9	-33.2	13.8	1.60e-05	0	43	0	802160640	23	4666
2026-01-14 10:14:15.36	354.28	54.83	-29.6	-31.4	15.7	0.00e+00	0	43	0	808452096	20	4430
2026-01-14 10:14:18.37	353.69	53.76	-29.7	-31.6	15.6	0.00e+00	0	42	0	813694976	20	4472
2026-01-14 10:14:21.39	353.15	52.70	-29.9	-32.2	15.2	0.00e+00	0	43	0	818937856	20	4670
2026-01-14 10:14:24.40	352.64	51.67	-30.2	-32.9	14.8	0.00e+00	0	43	0	825229312	20	4896
2026-01-14 10:14:27.40	352.17	50.67	-31.7	-35.6	12.1	1.36e-04	0	43	0	830472192	23	5616
2026-01-14 10:14:30.41	351.74	49.68	-32.2	-36.5	11.1	1.51e-03	0	42	0	836763648	24	5905
2026-01-14 10:14:33.41	351.33	48.71	-32.6	-37.4	9.9	7.95e-03	0	43	0	842006528	25	6260
2026-01-14 10:14:36.42	350.94	47.75	-32.8	-38.0	9.5	1.25e-02	0	43	0	847249408	25	6595
2026-01-14 10:14:39.43	350.58	46.82	-32.1	-35.6	11.3	3.14e-03	0	43	0	853540864	25	5422
2026-01-14 10:14:42.44	350.24	45.91	-31.6	-34.6	12.4	2.34e-04	0	43	0	858783744	24	5096
2026-01-14 10:14:45.45	349.91	45.01	-31.8	-35.4	11.8	4.09e-04	0	43	0	864026624	24	5440
2026-01-14 10:14:48.46	349.61	44.14	-32.5	-37.1	10.1	4.31e-03	0	42	0	870318080	25	6143
2026-01-14 10:14:51.47	349.32	43.28	-32.1	-35.8	11.1	2.34e-03	0	43	0	875560960	25	5500
2026-01-14 10:14:54.48	349.05	42.44	-32.1	-35.8	11.1	1.53e-03	0	43	0	881852416	25	5519
2026-01-14 10:14:57.47	348.80	41.63	-32.0	-35.5	11.3	1.05e-03	0	42	0	887095296	25	5382
2026-01-14 10:15:00.49	348.55	40.82	-32.4	-36.8	10.4	3.68e-03	0	43	0	892338176	25	5973
2026-01-14 10:15:03.49	348.32	40.04	-32.3	-36.6	10.5	4.10e-03	0	43	0	898629632	25	5871
2026-01-14 10:15:06.50	348.10	39.27	-31.9	-35.3	11.4	1.18e-03	0	43	0	903872512	25	5301
2026-01-14 10:15:09.50	347.89	38.51	-31.9	-35.1	11.6	7.25e-04	0	42	0	909115392	25	5228
2026-01-14 10:15:12.51	347.69	37.78	-32.0	-35.5	11.3	1.29e-03	0	42	0	915406848	25	5409
2026-01-14 10:15:15.52	347.50	37.05	-31.7	-35.1	11.8	5.41e-04	0	43	0	920649728	24	5340
2026-01-14 10:15:18.53	347.32	36.35	-31.5	-34.5	12.3	1.79e-04	0	42	0	926941184	24	5067
2026-01-14 10:15:21.54	347.14	35.65	-31.2	-34.2	12.8	6.33e-05	0	43	0	932184064	23	5067
2026-01-14 10:15:24.55	346.98	34.98	-31.0	-33.7	13.2	2.67e-05	0	43	0	937426944	23	4864
2026-01-14 10:15:27.56	346.82	34.31	-31.1	-33.9	13.0	4.11e-05	0	42	0	943718400	23	4957
2026-01-14 10:15:30.57	346.67	33.66	-31.3	-34.4	12.7	5.18e-05	0	43	0	948961280	23	5149
2026-01-14 10:15:33.58	346.52	33.03	-32.0	-36.1	11.0	1.10e-03	0	43	0	954204160	24	5780
2026-01-14 10:15:36.59	346.38	32.40	-32.2	-36.7	10.7	3.86e-03	0	43	0	960495616	24	6066
2026-01-14 10:15:39.59	346.25	31.79	-32.0	-36.2	11.0	2.34e-03	0	43	0	965738496	24	5815
2026-01-14 10:15:42.60	346.12	31.19	-31.9	-35.7	11.4	9.12e-04	0	43	0	972029952	24	5604
2026-01-14 10:15:45.60	345.99	30.61	-31.8	-35.3	11.7	6.83e-04	0	43	0	977272832	24	5415
2026-01-14 10:15:48.62	345.87	30.03	-31.8	-35.6	11.5	8.29e-04	0	42	0	982515712	24	5539
2026-01-14 10:15:51.62	345.76	29.47	-32.0	-36.2	11.1	1.75e-03	0	42	0	988807168	24	5817
2026-01-14 10:15:54.63	345.65	28.92	-32.0	-36.1	11.1	1.82e-03	0	42	0	994050048	24	5765
2026-01-14 10:15:57.63	345.54	28.38	-31.9	-35.8	11.3	8.97e-04	0	43	0	999292928	24	5655
2026-01-14 10:16:00.64	345.44	27.84	-31.6	-35.0	11.9	3.52e-04	0	43	0	1005584384	24	5281
2026-01-14 10:16:03.65	345.34	27.32	-31.5	-34.5	12.2	2.10e-04	0	42	0	1010827264	24	5079
2026-01-14 10:16:06.66	345.25	26.81	-31.2	-34.1	12.8	6.94e-05	0	42	0	1017118720	23	5055
2026-01-14 10:16:09.67	345.15	26.30	-31.3	-34.4	12.6	7.01e-05	0	43	0	1022361600	23	5162
2026-01-14 10:16:12.68	345.07	25.81	-31.2	-34.2	12.7	7.62e-05	0	43	0	1027604480	23	5079
2026-01-14 10:16:15.69	344.98	25.32	-31.0	-33.7	13.0	4.88e-05	0	43	0	1033895936	23	4903
2026-01-14 10:16:18.71	344.90	24.85	-31.2	-34.2	12.7	4.88e-05	0	43	0	1039138816	23	5093
2026-01-14 10:16:21.72	344.82	24.38	-30.9	-33.3	13.2	1.98e-05	0	43	0	1045430272	23	4777
2026-01-14 10:16:24.74	344.74	23.92	-31.0	-33.8	12.9	3.58e-05	0	43	0	1050673152	23	4947
2026-01-14 10:16:27.74	344.66	23.47	-31.0	-33.7	12.9	4.04e-05	0	43	0	1055916032	23	4927
2026-01-14 10:16:30.75	344.59	23.02	-31.0	-33.6	13.0	6.10e-05	0	43	0	1062207488	23	4888
2026-01-14 10:16:33.76	344.52	22.59	-30.9	-33.4	13.2	3.28e-05	0	43	0	1067450368	23	4799
2026-01-14 10:16:36.77	344.45	22.16	-30.9	-33.8	13.2	2.13e-05	0	43	0	1072693248	22	5052
2026-01-14 10:16:39.78	344.39	21.73	-30.8	-33.6	13.3	1.14e-05	0	42	0	1078984704	22	4980
2026-01-14 10:16:42.78	344.33	21.32	-30.8	-33.6	13.3	1.67e-05	0	43	0	1084227584	22	4972
2026-01-14 10:16:45.79	344.26	20.91	-30.9	-34.0	13.0	3.12e-05	0	43	0	1090519040	22	5120
2026-01-14 10:16:48.80	344.20	20.51	-31.0	-34.2	12.9	6.25e-05	0	42	0	1095761920	22	5201
2026-01-14 10:16:51.81	344.15	20.11	-31.1	-34.5	12.7	8.31e-05	0	43	0	1101004800	22	5329
2026-01-14 10:16:54.82	344.09	19.72	-31.0	-34.4	12.7	5.95e-05	0	42	0	1107296256	22	5279
2026-01-14 10:16:57.83	344.04	19.34	-31.2	-34.7	12.5	1.28e-04	0	42	0	1112539136	22	5438
2026-01-14 10:17:00.84	343.98	18.96	-31.2	-34.9	12.3	1.90e-04	0	42	0	1118830592	22	5500
2026-01-14 10:17:03.84	343.93	18.59	-31.2	-34.9	12.3	1.79e-04	0	43	0	1124073472	22	5514
2026-01-14 10:17:06.85	343.88	18.22	-31.3	-35.2	12.0	2.55e-04	0	42	0	1129316352	22	5640
2026-01-14 10:17:09.86	343.84	17.86	-31.2	-34.8	12.3	1.90e-04	0	42	0	1135607808	22	5486
2026-01-14 10:17:12.87	343.79	17.51	-31.2	-35.0	12.2	2.08e-04	0	43	0	1140850688	22	5558
2026-01-14 10:17:15.87	343.74	17.16	-31.3	-35.1	12.1	2.75e-04	0	42	0	1146093568	22	5622
2026-01-14 10:17:18.88	343.70	16.81	-31.3	-34.7	11.9	4.03e-04	0	43	0	1152385024	23	5356
2026-01-14 10:17:21.90	343.66	16.47	-31.4	-35.1	11.8	4.51e-04	0	42	0	1157627904	23	5485
2026-01-14 10:17:24.90	343.62	16.13	-31.4	-35.0	11.7	5.46e-04	0	43	0	1163919360	23	5484
2026-01-14 10:17:27.91	343.58	15.80	-31.5	-35.4	11.5	7.69e-04	0	43	0	1169162240	23	5637
2026-01-14 10:17:30.91	343.54	15.47	-31.5	-35.4	11.4	7.90e-04	0	43	0	1174405120	23	5669
2026-01-14 10:17:33.92	343.50	15.15	-31.7	-36.1	10.9	2.21e-03	0	42	0	1180696576	23	5989
2026-01-14 10:17:36.92	343.46	14.83	-31.7	-36.0	10.9	2.25e-03	0	42	0	1185939456	23	5922
2026-01-14 10:17:39.93	343.43	14.52	-31.6	-35.9	11.0	1.90e-03	0	43	0	1191182336	23	5904
2026-01-14 10:17:42.94	343.39	14.21	-31.5	-35.5	11.3	1.14e-03	0	43	0	1197473792	23	5698
2026-01-14 10:17:45.95	343.36	13.90	-31.4	-35.1	11.5	1.21e-03	0	43	0	1202716672	23	5535
2026-01-14 10:17:48.96	343.32	13.60	-31.3	-35.1	11.5	9.85e-04	0	42	0	1209008128	23	5538
2026-01-14 10:17:51.97	343.29	13.30	-31.4	-35.3	11.4	8.89e-04	0	43	0	1214251008	23	5617
2026-01-14 10:17:54.98	343.26	13.00	-31.6	-35.8	11.0	1.86e-03	0	43	0	1219493888	23	5854
2026-01-14 10:17:57.98	343.23	12.71	-31.6	-35.8	11.0	2.05e-03	0	43	0	1225785344	23	5849
2026-01-14 10:18:00.99	343.20	12.42	-31.8	-36.5	10.4	3.27e-03	0	43	0	1231028224	23	6187
2026-01-14 10:18:04.00	343.17	12.14	-31.6	-35.8	10.9	2.40e-03	0	43	0	1237319680	23	5874
2026-01-14 10:18:07.01	343.14	11.85	-31.5	-35.8	10.8	2.35e-03	0	43	0	1242562560	23	5882
2026-01-14 10:18:10.02	343.12	11.58	-31.5	-35.8	10.8	2.72e-03	0	43	0	1247805440	23	5869
2026-01-14 10:18:13.03	343.09	11.30	-31.6	-36.0	10.7	2.85e-03	0	43	0	1254096896	23	5982
2026-01-14 10:18:16.04	343.06	11.03	-31.6	-36.1	10.6	3.70e-03	0	43	0	1259339776	23	6030
2026-01-14 10:18:19.05	343.04	10.76	-31.7	-36.5	10.3	5.23e-03	0	43	0	1264582656	23	6244
2026-01-14 10:18:22.07	343.01	10.49	-31.8	-36.6	10.1	6.59e-03	0	43	0	1270874112	23	6315
2026-01-14 10:18:25.07	342.99	10.23	-31.7	-36.6	10.1	6.05e-03	0	43	0	1276116992	23	6283
2026-01-14 10:18:28.07	342.97	9.97	-31.7	-36.5	10.1	6.84e-03	0	43	0	1282408448	23	6251
2026-01-14 10:18:31.08	342.95	9.71	-31.6	-36.1	10.4	4.57e-03	0	43	0	1287651328	23	6081
2026-01-14 10:18:34.08	342.92	9.45	-31.7	-36.6	10.0	4.54e-03	0	43	0	1292894208	23	6297
2026-01-14 10:18:37.10	342.90	9.20	-31.5	-35.9	10.5	4.70e-03	0	42	0	1299185664	23	5974
2026-01-14 10:18:40.11	342.88	8.95	-31.4	-35.7	10.6	3.82e-03	0	42	0	1304428544	23	5884
2026-01-14 10:18:43.12	342.86	8.70	-31.6	-36.2	10.3	3.87e-03	0	43	0	1309671424	23	6115
2026-01-14 10:18:46.13	342.84	8.45	-31.4	-35.7	10.6	4.23e-03	0	43	0	1315962880	23	5886
2026-01-14 10:18:49.14	342.82	8.21	-31.7	-36.7	9.7	7.40e-03	0	43	0	1321205760	23	6420
2026-01-14 10:18:52.14	342.81	7.97	-31.8	-37.1	9.4	1.65e-02	0	42	0	1327497216	23	6625
2026-01-14 10:18:55.15	342.79	7.73	-31.6	-36.6	9.8	1.02e-02	0	43	0	1332740096	23	6356
2026-01-14 10:18:58.15	342.77	7.50	-31.6	-36.5	9.7	1.10e-02	0	43	0	1337982976	23	6357
2026-01-14 10:19:01.17	342.75	7.26	-31.7	-36.9	9.4	1.16e-02	0	43	0	1344274432	23	6545
2026-01-14 10:19:04.18	342.74	7.03	-33.5	-45.7	4.0	2.62e-02	0	42	0	1349517312	26	14700

#Closed at: 2026-01-14 10:19:06
#Recorded file [1349 MB]: D:/data/31010_260114_130704.dat