passes_logs/2026/01/14/R2M6_AANII_01/R2M6_AANII_01__20260114_122549_FENGYUN_3D_rec.log

#Pass ID: 20260114_122549_FENGYUN 3D
#Satellite: FENGYUN 3D
#Configuration: FENGYUN 3D
#almurnet v.1.7.20240730
#Start time: 2026-01-14 12:25:50

#Version: 2.2.20231116
#Station: R2M6_AANII_01
#Location: 30.233357 lon 59.946436 lat
#TLE: 1 43010U 17072A   26013.31211337  .00000452  00000+0  23563-3 0  9990
#TLE: 2 43010  98.9934 345.1024 0002270 111.0315 249.1103 14.19696845423017

#Time	Az	El	Level	Level2	SNR	BER	BlckErr	Temp	State	Recorded	gain1	gain2
2026-01-14 12:25:50.46	162.17	7.11	-30.0	-33.1	5.3	7.95e-01	0	40	0	0	21	5106
2026-01-14 12:25:53.47	162.19	7.34	-29.6	-32.3	10.0	5.91e-03	0	40	0	5242880	20	4914
2026-01-14 12:25:56.47	162.22	7.58	-29.7	-32.7	9.8	7.75e-03	0	40	0	22020096	20	5059
2026-01-14 12:25:59.48	162.25	7.82	-29.3	-31.8	10.8	2.87e-03	0	40	0	38797312	19	4829
2026-01-14 12:26:02.50	162.28	8.06	-29.0	-31.6	11.3	8.60e-04	0	41	0	55574528	18	4871
2026-01-14 12:26:05.51	162.31	8.30	-28.9	-31.4	11.5	6.75e-04	0	41	0	73400320	18	4770
2026-01-14 12:26:08.52	162.34	8.55	-29.1	-31.9	11.2	8.28e-04	0	41	0	90177536	18	4945
2026-01-14 12:26:11.53	162.37	8.80	-28.4	-30.1	12.3	1.23e-04	0	41	0	106954752	18	4362
2026-01-14 12:26:14.54	162.40	9.05	-27.3	-28.4	13.9	3.40e-06	0	41	0	123731968	16	4096
2026-01-14 12:26:17.55	162.43	9.31	-26.8	-28.3	14.4	1.10e-06	0	41	0	140509184	14	4291
2026-01-14 12:26:20.56	162.46	9.56	-26.7	-28.0	14.6	0.00e+00	0	41	0	158334976	14	4202
2026-01-14 12:26:23.57	162.49	9.82	-26.7	-28.0	14.6	0.00e+00	0	41	0	175112192	14	4196
2026-01-14 12:26:26.59	162.52	10.08	-26.8	-28.4	14.4	0.00e+00	0	41	0	191889408	14	4312
2026-01-14 12:26:29.61	162.56	10.35	-26.7	-28.0	14.7	0.00e+00	0	41	0	208666624	14	4195
2026-01-14 12:26:32.63	162.59	10.62	-26.6	-27.9	14.7	0.00e+00	0	41	0	225443840	14	4178
2026-01-14 12:26:35.64	162.62	10.89	-26.7	-28.1	14.6	1.10e-06	0	41	0	242221056	14	4237
2026-01-14 12:26:38.65	162.65	11.16	-26.3	-27.1	15.2	0.00e+00	0	41	0	258998272	14	3978
2026-01-14 12:26:41.66	162.69	11.44	-26.2	-27.5	15.3	0.00e+00	0	41	0	276824064	13	4176
2026-01-14 12:26:44.67	162.72	11.72	-26.2	-27.4	15.4	0.00e+00	0	42	0	293601280	13	4151
2026-01-14 12:26:47.68	162.76	12.00	-26.3	-27.6	15.3	0.00e+00	0	41	0	310378496	13	4191
2026-01-14 12:26:50.70	162.79	12.29	-26.1	-27.2	15.5	0.00e+00	0	41	0	327155712	13	4095
2026-01-14 12:26:53.71	162.83	12.58	-26.0	-26.9	15.7	0.00e+00	0	42	0	343932928	13	4018
2026-01-14 12:26:56.71	162.87	12.87	-25.9	-26.7	15.8	0.00e+00	0	42	0	360710144	13	3956
2026-01-14 12:26:59.72	162.90	13.17	-25.9	-26.7	15.8	0.00e+00	0	42	0	378535936	13	3965
2026-01-14 12:27:02.72	162.94	13.47	-25.8	-27.0	16.0	0.00e+00	0	42	0	395313152	12	4142
2026-01-14 12:27:05.74	162.98	13.78	-25.6	-26.5	16.2	0.00e+00	0	42	0	412090368	12	4016
2026-01-14 12:27:08.75	163.02	14.09	-25.6	-26.5	16.2	0.00e+00	0	42	0	428867584	12	4012
2026-01-14 12:27:11.76	163.06	14.40	-25.4	-26.2	16.4	0.00e+00	0	42	0	445644800	12	3929
2026-01-14 12:27:14.77	163.10	14.71	-25.4	-26.2	16.4	0.00e+00	0	42	0	462422016	12	3936
2026-01-14 12:27:17.79	163.14	15.04	-25.5	-26.4	16.4	0.00e+00	0	42	0	479199232	12	3989
2026-01-14 12:27:20.79	163.18	15.36	-25.3	-26.0	16.5	0.00e+00	0	42	0	495976448	12	3900
2026-01-14 12:27:23.80	163.22	15.69	-25.3	-26.4	16.7	0.00e+00	0	42	0	513802240	11	4109
2026-01-14 12:27:26.81	163.26	16.02	-25.1	-26.1	16.9	6.80e-06	0	42	0	530579456	11	4023
2026-01-14 12:27:29.83	163.31	16.36	-25.2	-26.2	16.8	0.00e+00	0	42	0	547356672	11	4064
2026-01-14 12:27:32.83	163.35	16.70	-25.1	-26.0	16.9	0.00e+00	0	42	0	564133888	11	4012
2026-01-14 12:27:35.84	163.40	17.05	-24.9	-25.7	17.2	0.00e+00	0	42	0	580911104	11	3918
2026-01-14 12:27:38.85	163.44	17.41	-25.1	-26.0	17.0	3.40e-06	0	42	0	597688320	11	3982
2026-01-14 12:27:41.86	163.49	17.76	-25.0	-25.8	17.1	5.70e-06	0	42	0	615514112	11	3942
2026-01-14 12:27:44.88	163.54	18.13	-25.0	-25.7	17.2	3.40e-06	0	42	0	632291328	11	3904
2026-01-14 12:27:47.89	163.59	18.50	-25.0	-25.7	17.2	1.10e-06	0	42	0	649068544	11	3909
2026-01-14 12:27:50.90	163.64	18.87	-25.0	-25.7	17.2	0.00e+00	0	42	0	665845760	11	3902
2026-01-14 12:27:53.91	163.69	19.25	-24.7	-25.6	17.6	0.00e+00	0	42	0	682622976	10	3991
2026-01-14 12:27:56.91	163.74	19.64	-24.4	-25.0	17.9	0.00e+00	0	42	0	699400192	10	3858
2026-01-14 12:27:59.92	163.79	20.03	-24.2	-25.0	18.1	0.00e+00	0	42	0	716177408	9	3949
2026-01-14 12:28:02.93	163.85	20.43	-24.2	-25.0	18.1	0.00e+00	0	42	0	734003200	9	3958
2026-01-14 12:28:05.94	163.90	20.83	-24.2	-25.0	18.1	0.00e+00	0	42	0	750780416	9	3951
2026-01-14 12:28:08.95	163.96	21.25	-24.1	-24.9	18.2	0.00e+00	0	42	0	767557632	9	3926
2026-01-14 12:28:11.97	164.02	21.67	-24.0	-24.7	18.3	0.00e+00	0	42	0	784334848	9	3883
2026-01-14 12:28:14.98	164.07	22.09	-24.1	-24.9	18.3	0.00e+00	0	42	0	801112064	9	3922
2026-01-14 12:28:17.99	164.13	22.52	-24.2	-25.1	18.2	0.00e+00	0	42	0	817889280	9	3982
2026-01-14 12:28:21.01	164.20	22.97	-24.0	-24.7	18.4	0.00e+00	0	42	0	834666496	9	3883
2026-01-14 12:28:24.01	164.26	23.41	-24.0	-24.6	18.4	0.00e+00	0	42	0	852492288	9	3849
2026-01-14 12:28:27.04	164.32	23.87	-23.9	-24.3	18.6	0.00e+00	0	42	0	869269504	9	3799
2026-01-14 12:28:30.05	164.39	24.34	-23.8	-24.3	18.7	0.00e+00	0	42	0	886046720	9	3777
2026-01-14 12:28:33.06	164.46	24.81	-24.1	-24.7	18.4	0.00e+00	0	42	0	902823936	9	3887
2026-01-14 12:28:36.07	164.53	25.29	-23.8	-24.6	18.8	0.00e+00	0	42	0	919601152	8	3958
2026-01-14 12:28:39.08	164.60	25.78	-23.6	-24.3	18.9	0.00e+00	0	42	0	937426944	8	3881
2026-01-14 12:28:42.09	164.68	26.28	-23.6	-24.3	18.9	0.00e+00	0	42	0	954204160	8	3888
2026-01-14 12:28:45.10	164.75	26.79	-23.5	-24.0	19.1	0.00e+00	0	42	0	970981376	8	3825
2026-01-14 12:28:48.11	164.83	27.30	-23.2	-24.0	19.3	0.00e+00	0	42	0	987758592	7	3925
2026-01-14 12:28:51.13	164.91	27.83	-23.2	-23.9	19.3	0.00e+00	0	43	0	1004535808	7	3913
2026-01-14 12:28:54.13	164.99	28.37	-23.5	-24.4	19.1	0.00e+00	0	42	0	1021313024	7	4038
2026-01-14 12:28:57.14	165.08	28.92	-23.7	-25.0	18.8	0.00e+00	0	42	0	1038090240	7	4178
2026-01-14 12:29:00.15	165.16	29.48	-23.5	-24.6	19.0	0.00e+00	0	42	0	1054867456	7	4068
2026-01-14 12:29:03.16	165.26	30.05	-23.5	-24.5	19.1	0.00e+00	0	42	0	1072693248	7	4054
2026-01-14 12:29:06.17	165.35	30.63	-23.6	-24.8	18.9	0.00e+00	0	42	0	1089470464	7	4134
2026-01-14 12:29:09.19	165.45	31.23	-23.6	-24.7	19.0	0.00e+00	0	42	0	1106247680	7	4112
2026-01-14 12:29:12.20	165.55	31.84	-23.5	-24.5	19.2	0.00e+00	0	42	0	1123024896	7	4048
2026-01-14 12:29:15.21	165.65	32.46	-23.3	-24.1	19.4	0.00e+00	0	42	0	1139802112	7	3951
2026-01-14 12:29:18.22	165.76	33.09	-23.7	-25.0	18.9	0.00e+00	0	42	0	1157627904	7	4161
2026-01-14 12:29:21.22	165.87	33.73	-23.5	-24.5	19.1	0.00e+00	0	42	0	1174405120	7	4055
2026-01-14 12:29:24.23	165.98	34.39	-23.2	-23.9	19.4	0.00e+00	0	42	0	1191182336	7	3915
2026-01-14 12:29:27.23	166.10	35.06	-23.2	-24.0	19.4	0.00e+00	0	42	0	1207959552	7	3930
2026-01-14 12:29:30.24	166.22	35.75	-23.2	-23.9	19.5	0.00e+00	0	42	0	1224736768	7	3913
2026-01-14 12:29:33.26	166.35	36.46	-22.7	-23.3	20.0	0.00e+00	0	42	0	1241513984	6	3876
2026-01-14 12:29:36.27	166.49	37.17	-22.8	-23.5	20.0	0.00e+00	0	42	0	1258291200	6	3912
2026-01-14 12:29:39.28	166.63	37.91	-23.0	-24.1	19.7	0.00e+00	0	42	0	1275068416	6	4053
2026-01-14 12:29:42.28	166.77	38.66	-22.8	-23.6	19.9	0.00e+00	0	42	0	1292894208	6	3943
2026-01-14 12:29:45.29	166.92	39.42	-22.7	-23.3	20.1	0.00e+00	0	42	0	1309671424	6	3862
2026-01-14 12:29:48.31	167.08	40.21	-23.2	-24.5	19.5	0.00e+00	0	42	0	1326448640	6	4154
2026-01-14 12:29:51.32	167.25	41.01	-23.5	-25.0	19.3	0.00e+00	0	42	0	1343225856	6	4277
2026-01-14 12:29:54.34	167.42	41.84	-23.4	-24.3	19.3	0.00e+00	0	42	0	1360003072	7	4002
2026-01-14 12:29:57.35	167.61	42.67	-23.5	-24.4	19.3	0.00e+00	0	42	0	1376780288	7	4030
2026-01-14 12:30:00.36	167.80	43.53	-23.5	-24.5	19.3	0.00e+00	0	42	0	1394606080	7	4044
2026-01-14 12:30:03.38	168.00	44.41	-23.8	-25.2	19.0	0.00e+00	0	43	0	1411383296	7	4214
2026-01-14 12:30:06.37	168.22	45.30	-24.3	-25.8	18.5	0.00e+00	0	42	0	1428160512	8	4239
2026-01-14 12:30:09.38	168.44	46.22	-24.3	-25.7	18.5	0.00e+00	0	42	0	1444937728	8	4230
2026-01-14 12:30:12.39	168.68	47.15	-24.3	-25.6	18.5	0.00e+00	0	42	0	1461714944	8	4214
2026-01-14 12:30:15.39	168.93	48.11	-23.5	-24.0	19.4	0.00e+00	0	42	0	1478492160	8	3810
2026-01-14 12:30:18.39	169.20	49.08	-23.1	-23.6	19.9	0.00e+00	0	42	0	1495269376	7	3817
2026-01-14 12:30:21.41	169.49	50.09	-23.7	-25.0	19.2	0.00e+00	0	42	0	1513095168	7	4161
2026-01-14 12:30:24.42	169.79	51.11	-23.5	-24.5	19.4	0.00e+00	0	42	0	1529872384	7	4023
2026-01-14 12:30:27.43	170.11	52.15	-24.3	-25.8	18.5	0.00e+00	0	42	0	1546649600	8	4241
2026-01-14 12:30:30.44	170.46	53.22	-24.5	-25.6	18.4	0.00e+00	0	42	0	1563426816	9	4080
2026-01-14 12:30:33.46	170.84	54.31	-25.1	-26.4	17.7	0.00e+00	0	42	0	1580204032	10	4186
2026-01-14 12:30:36.47	171.24	55.42	-24.9	-25.9	18.0	0.00e+00	0	42	0	1596981248	10	4044
2026-01-14 12:30:39.47	171.68	56.54	-24.4	-24.9	18.5	0.00e+00	0	42	0	1613758464	10	3818
2026-01-14 12:30:42.49	172.15	57.70	-24.4	-24.8	18.6	0.00e+00	0	43	0	1630535680	10	3789
2026-01-14 12:30:45.48	172.66	58.86	-23.8	-24.7	19.1	0.00e+00	0	42	0	1648361472	8	3966
2026-01-14 12:30:48.50	173.22	60.06	-23.7	-24.3	19.4	0.00e+00	0	42	0	1665138688	8	3887
2026-01-14 12:30:51.50	173.83	61.27	-22.7	-23.4	20.3	0.00e+00	0	43	0	1681915904	6	3871
2026-01-14 12:30:54.52	174.51	62.51	-23.4	-24.2	19.7	0.00e+00	0	43	0	1698693120	7	3958
2026-01-14 12:30:57.52	175.26	63.76	-23.3	-24.0	19.8	0.00e+00	0	42	0	1715470336	7	3923
2026-01-14 12:31:00.53	176.09	65.03	-22.4	-22.8	20.6	0.00e+00	0	43	0	1732247552	6	3749
2026-01-14 12:31:03.53	177.02	66.32	-23.1	-24.1	19.9	0.00e+00	0	43	0	1749024768	6	4056
2026-01-14 12:31:06.53	178.07	67.61	-22.9	-23.7	20.1	0.00e+00	0	42	0	1766850560	6	3969
2026-01-14 12:31:09.54	179.26	68.93	-22.7	-23.9	20.3	0.00e+00	0	42	0	1783627776	5	4120
2026-01-14 12:31:12.55	180.62	70.25	-22.6	-23.6	20.4	0.00e+00	0	42	0	1800404992	5	4046
2026-01-14 12:31:15.55	182.18	71.58	-22.5	-23.3	20.6	0.00e+00	0	42	0	1817182208	5	3985
2026-01-14 12:31:18.57	184.02	72.91	-22.4	-23.3	20.6	0.00e+00	0	42	0	1833959424	5	3963
2026-01-14 12:31:21.56	186.15	74.23	-22.6	-23.5	20.5	0.00e+00	0	43	0	1850736640	5	4026
2026-01-14 12:31:24.58	188.72	75.55	-22.2	-22.9	20.9	0.00e+00	0	43	0	1867513856	5	3871
2026-01-14 12:31:27.59	191.80	76.85	-22.3	-22.8	21.0	0.00e+00	0	42	0	1884291072	5	3851
2026-01-14 12:31:30.61	195.59	78.11	-21.2	-21.7	22.1	0.00e+00	0	43	0	1902116864	3	3806
2026-01-14 12:31:33.63	200.27	79.32	-21.1	-22.0	22.2	0.00e+00	0	42	0	1918894080	2	3989
2026-01-14 12:31:36.63	206.08	80.45	-21.1	-22.0	22.3	0.00e+00	0	43	0	1935671296	2	3977
2026-01-14 12:31:39.64	213.40	81.46	-21.0	-21.8	22.3	0.00e+00	0	43	0	1952448512	2	3952
2026-01-14 12:31:42.65	222.53	82.30	-21.0	-21.7	22.4	0.00e+00	0	43	0	1969225728	2	3922
2026-01-14 12:31:45.66	233.56	82.91	-21.3	-22.3	22.1	0.00e+00	0	42	0	1987051520	2	4056
2026-01-14 12:31:48.66	246.07	83.22	-21.2	-21.7	22.1	0.00e+00	0	42	0	2003828736	3	3808
2026-01-14 12:31:51.67	259.15	83.19	-20.8	-21.4	22.7	0.00e+00	0	42	0	2020605952	2	3848
2026-01-14 12:31:54.67	271.43	82.82	-20.7	-21.2	22.7	0.00e+00	0	43	0	2037383168	2	3802
2026-01-14 12:31:57.69	282.14	82.16	-21.0	-21.9	22.4	0.00e+00	0	43	0	2054160384	2	3954
2026-01-14 12:32:00.69	290.87	81.28	-20.9	-21.5	22.5	0.00e+00	0	43	0	2070937600	2	3877
2026-01-14 12:32:03.69	297.87	80.25	-21.0	-21.8	22.4	0.00e+00	0	43	0	2087714816	2	3949
2026-01-14 12:32:06.71	303.47	79.10	-21.1	-21.9	22.3	0.00e+00	0	42	0	2104492032	2	3958
2026-01-14 12:32:09.72	307.95	77.88	-21.5	-22.4	21.8	0.00e+00	0	43	0	2122317824	3	3970
2026-01-14 12:32:12.72	311.56	76.62	-21.4	-22.1	22.0	0.00e+00	0	43	0	2139095040	3	3895
2026-01-14 12:32:15.73	314.54	75.32	-21.7	-22.8	21.6	0.00e+00	0	42	0	2155872256	3	4053
2026-01-14 12:32:18.74	317.02	74.00	-22.3	-23.4	21.0	0.00e+00	0	43	0	2172649472	4	4101
2026-01-14 12:32:21.76	319.11	72.67	-22.3	-23.5	20.9	0.00e+00	0	43	0	2189426688	4	4127
2026-01-14 12:32:24.78	320.89	71.34	-22.3	-23.0	20.9	0.00e+00	0	42	0	2206203904	5	3905
2026-01-14 12:32:27.77	322.40	70.02	-22.4	-23.1	20.9	0.00e+00	0	43	0	2222981120	5	3907
2026-01-14 12:32:30.79	323.73	68.70	-22.8	-24.1	20.4	0.00e+00	0	42	0	2239758336	5	4151
2026-01-14 12:32:33.80	324.90	67.39	-22.8	-24.0	20.4	0.00e+00	0	42	0	2257584128	5	4129
2026-01-14 12:32:36.81	325.92	66.09	-22.6	-23.5	20.6	0.00e+00	0	43	0	2274361344	5	4000
2026-01-14 12:32:39.83	326.84	64.81	-22.9	-24.2	20.3	0.00e+00	0	43	0	2291138560	5	4179
2026-01-14 12:32:42.85	327.66	63.54	-23.1	-24.2	20.1	0.00e+00	0	43	0	2307915776	6	4054
2026-01-14 12:32:45.87	328.39	62.29	-23.3	-24.7	19.8	0.00e+00	0	42	0	2324692992	6	4193
2026-01-14 12:32:48.88	329.06	61.06	-23.3	-24.5	19.8	0.00e+00	0	43	0	2342518784	6	4139
2026-01-14 12:32:51.88	329.66	59.86	-23.4	-24.6	19.8	0.00e+00	0	42	0	2359296000	6	4163
2026-01-14 12:32:54.89	330.21	58.67	-23.8	-25.0	19.4	0.00e+00	0	42	0	2376073216	7	4142
2026-01-14 12:32:57.91	330.71	57.50	-24.1	-25.1	19.0	0.00e+00	0	42	0	2392850432	8	4062
2026-01-14 12:33:00.91	331.18	56.36	-23.9	-24.8	19.2	0.00e+00	0	42	0	2409627648	8	3981
2026-01-14 12:33:03.92	331.61	55.24	-24.1	-25.3	18.9	0.00e+00	0	43	0	2426404864	8	4107
2026-01-14 12:33:06.93	332.00	54.13	-24.2	-25.4	18.8	0.00e+00	0	43	0	2443182080	8	4138
2026-01-14 12:33:09.94	332.37	53.05	-24.3	-25.2	18.7	0.00e+00	0	43	0	2459959296	9	3974
2026-01-14 12:33:12.96	332.72	51.99	-24.7	-26.1	18.3	0.00e+00	0	43	0	2477785088	9	4190
2026-01-14 12:33:15.97	333.04	50.96	-24.1	-24.8	18.9	0.00e+00	0	43	0	2494562304	9	3875
2026-01-14 12:33:18.98	333.34	49.95	-23.8	-24.1	19.2	0.00e+00	0	43	0	2511339520	9	3730
2026-01-14 12:33:21.99	333.62	48.95	-23.7	-24.3	19.4	0.00e+00	0	43	0	2528116736	8	3885
2026-01-14 12:33:24.99	333.89	47.99	-23.4	-23.6	19.7	0.00e+00	0	43	0	2544893952	8	3719
2026-01-14 12:33:28.00	334.14	47.04	-23.4	-24.1	19.7	0.00e+00	0	43	0	2561671168	7	3932
2026-01-14 12:33:31.00	334.37	46.11	-23.2	-23.8	19.8	0.00e+00	0	43	0	2578448384	7	3871
2026-01-14 12:33:34.02	334.60	45.20	-23.1	-23.6	19.9	0.00e+00	0	42	0	2596274176	7	3820
2026-01-14 12:33:37.02	334.81	44.31	-23.0	-23.4	20.0	0.00e+00	0	43	0	2613051392	7	3764
2026-01-14 12:33:40.02	335.01	43.44	-22.9	-23.2	20.1	0.00e+00	0	42	0	2629828608	7	3719
2026-01-14 12:33:43.04	335.20	42.59	-23.1	-23.6	19.9	0.00e+00	0	42	0	2646605824	7	3808
2026-01-14 12:33:46.06	335.38	41.75	-23.1	-23.5	19.9	0.00e+00	0	43	0	2663383040	7	3801
2026-01-14 12:33:49.07	335.56	40.94	-23.0	-23.3	20.0	0.00e+00	0	42	0	2680160256	7	3757
2026-01-14 12:33:52.07	335.72	40.15	-23.0	-23.5	19.9	0.00e+00	0	43	0	2697986048	7	3794
2026-01-14 12:33:55.08	335.88	39.37	-23.2	-23.9	19.7	0.00e+00	0	43	0	2714763264	7	3886
2026-01-14 12:33:58.09	336.03	38.61	-23.2	-23.9	19.8	0.00e+00	0	43	0	2731540480	7	3877
2026-01-14 12:34:01.10	336.18	37.86	-23.4	-24.2	19.5	0.00e+00	0	42	0	2748317696	7	3958
2026-01-14 12:34:04.11	336.32	37.13	-22.6	-23.0	20.4	0.00e+00	0	42	0	2765094912	6	3797
2026-01-14 12:34:07.11	336.45	36.42	-22.8	-23.5	20.1	0.00e+00	0	43	0	2781872128	6	3911
2026-01-14 12:34:10.12	336.58	35.73	-23.3	-24.5	19.6	0.00e+00	0	43	0	2798649344	6	4143
2026-01-14 12:34:13.12	336.71	35.04	-23.4	-24.7	19.5	0.00e+00	0	43	0	2815426560	6	4203
2026-01-14 12:34:16.13	336.82	34.38	-23.5	-24.5	19.4	0.00e+00	0	43	0	2833252352	7	4031
2026-01-14 12:34:19.14	336.94	33.72	-22.8	-23.0	20.1	0.00e+00	0	42	0	2850029568	7	3680
2026-01-14 12:34:22.15	337.05	33.08	-22.9	-23.2	20.0	0.00e+00	0	42	0	2866806784	7	3730
2026-01-14 12:34:25.16	337.16	32.45	-23.0	-23.4	19.9	0.00e+00	0	43	0	2883584000	7	3777
2026-01-14 12:34:28.16	337.26	31.84	-23.1	-23.7	19.7	0.00e+00	0	43	0	2900361216	7	3840
2026-01-14 12:34:31.17	337.36	31.24	-23.2	-23.9	19.6	0.00e+00	0	43	0	2917138432	7	3891
2026-01-14 12:34:34.20	337.46	30.64	-23.3	-24.0	19.5	0.00e+00	0	43	0	2933915648	7	3913
2026-01-14 12:34:37.21	337.55	30.06	-23.2	-23.9	19.6	0.00e+00	0	43	0	2951741440	7	3886
2026-01-14 12:34:40.23	337.65	29.49	-23.2	-23.9	19.6	0.00e+00	0	43	0	2968518656	7	3882
2026-01-14 12:34:43.24	337.74	28.94	-23.4	-24.2	19.4	0.00e+00	0	43	0	2985295872	7	3962
2026-01-14 12:34:46.24	337.82	28.40	-23.8	-25.0	19.0	0.00e+00	0	42	0	3002073088	7	4158
2026-01-14 12:34:49.26	337.90	27.86	-23.8	-25.2	18.9	0.00e+00	0	43	0	3018850304	7	4199
2026-01-14 12:34:52.27	337.99	27.33	-23.7	-24.8	19.1	0.00e+00	0	43	0	3036676096	7	4106
2026-01-14 12:34:55.29	338.07	26.82	-23.1	-23.7	19.6	0.00e+00	0	43	0	3053453312	7	3839
2026-01-14 12:34:58.30	338.14	26.31	-23.1	-23.5	19.7	0.00e+00	0	43	0	3070230528	7	3798
2026-01-14 12:35:01.32	338.22	25.82	-23.2	-23.8	19.6	0.00e+00	0	43	0	3087007744	7	3861
2026-01-14 12:35:04.34	338.29	25.33	-23.3	-24.1	19.4	0.00e+00	0	43	0	3103784960	7	3936
2026-01-14 12:35:07.34	338.36	24.85	-23.6	-24.6	19.2	0.00e+00	0	43	0	3120562176	7	4057
2026-01-14 12:35:10.36	338.43	24.38	-23.7	-25.0	18.9	0.00e+00	0	43	0	3138387968	7	4152
2026-01-14 12:35:13.35	338.50	23.92	-23.9	-25.3	18.8	0.00e+00	0	43	0	3155165184	7	4242
2026-01-14 12:35:16.36	338.57	23.47	-23.9	-25.4	18.7	0.00e+00	0	43	0	3171942400	7	4257
2026-01-14 12:35:19.37	338.63	23.02	-24.1	-25.3	18.6	0.00e+00	0	43	0	3188719616	8	4112
2026-01-14 12:35:22.37	338.69	22.59	-24.2	-25.4	18.5	0.00e+00	0	43	0	3205496832	8	4154
2026-01-14 12:35:25.39	338.75	22.16	-24.2	-25.4	18.5	0.00e+00	0	43	0	3222274048	8	4144
2026-01-14 12:35:28.41	338.82	21.73	-24.3	-25.6	18.3	0.00e+00	0	43	0	3239051264	8	4183
2026-01-14 12:35:31.42	338.87	21.32	-24.3	-25.6	18.3	0.00e+00	0	43	0	3256877056	8	4192
2026-01-14 12:35:34.42	338.93	20.91	-24.5	-25.6	18.1	0.00e+00	0	42	0	3273654272	9	4081
2026-01-14 12:35:37.42	338.99	20.51	-24.8	-26.2	17.8	0.00e+00	0	43	0	3290431488	9	4225
2026-01-14 12:35:40.44	339.04	20.11	-25.4	-26.9	17.1	0.00e+00	0	43	0	3307208704	10	4306
2026-01-14 12:35:43.44	339.10	19.72	-25.0	-26.1	17.5	0.00e+00	0	43	0	3323985920	10	4104
2026-01-14 12:35:46.45	339.15	19.33	-24.7	-25.5	17.8	0.00e+00	0	43	0	3340763136	10	3936
2026-01-14 12:35:49.45	339.21	18.96	-24.5	-25.2	18.0	0.00e+00	0	43	0	3357540352	10	3869
2026-01-14 12:35:52.45	339.26	18.59	-24.6	-25.4	17.9	0.00e+00	0	43	0	3374317568	10	3920
2026-01-14 12:35:55.46	339.31	18.22	-24.7	-25.6	17.7	0.00e+00	0	43	0	3392143360	10	3964
2026-01-14 12:35:58.47	339.36	17.86	-24.9	-25.9	17.6	0.00e+00	0	43	0	3408920576	10	4047
2026-01-14 12:36:01.49	339.41	17.50	-25.0	-26.1	17.5	0.00e+00	0	43	0	3425697792	10	4094
2026-01-14 12:36:04.48	339.45	17.15	-25.0	-26.3	17.4	0.00e+00	0	43	0	3442475008	10	4136
2026-01-14 12:36:07.49	339.50	16.80	-25.1	-26.4	17.2	0.00e+00	0	43	0	3459252224	10	4188
2026-01-14 12:36:10.51	339.55	16.46	-25.2	-26.6	17.1	0.00e+00	0	42	0	3476029440	10	4237
2026-01-14 12:36:13.51	339.59	16.13	-25.5	-27.2	16.8	0.00e+00	0	43	0	3492806656	10	4375
2026-01-14 12:36:16.52	339.64	15.79	-25.7	-27.3	16.5	0.00e+00	0	43	0	3509583872	11	4295
2026-01-14 12:36:19.53	339.68	15.47	-25.9	-27.1	16.2	0.00e+00	0	43	0	3527409664	12	4137
2026-01-14 12:36:22.53	339.73	15.14	-26.1	-27.7	15.9	0.00e+00	0	42	0	3544186880	12	4291
2026-01-14 12:36:25.53	339.77	14.83	-25.9	-27.2	16.1	0.00e+00	0	43	0	3560964096	12	4169
2026-01-14 12:36:28.53	339.81	14.51	-25.9	-27.2	16.1	0.00e+00	0	43	0	3577741312	12	4168
2026-01-14 12:36:31.54	339.85	14.20	-25.8	-27.0	16.2	0.00e+00	0	43	0	3594518528	12	4109
2026-01-14 12:36:34.55	339.89	13.89	-25.9	-27.1	16.1	0.00e+00	0	43	0	3611295744	12	4153
2026-01-14 12:36:37.57	339.93	13.59	-25.7	-26.8	16.3	0.00e+00	0	42	0	3628072960	12	4065
2026-01-14 12:36:40.58	339.97	13.29	-25.8	-27.0	16.2	0.00e+00	0	43	0	3644850176	12	4105
2026-01-14 12:36:43.59	340.01	12.99	-25.9	-27.2	16.0	0.00e+00	0	43	0	3662675968	12	4175
2026-01-14 12:36:46.60	340.05	12.70	-26.0	-27.4	15.9	0.00e+00	0	43	0	3679453184	12	4225
2026-01-14 12:36:49.61	340.09	12.41	-26.0	-27.5	15.9	0.00e+00	0	43	0	3696230400	12	4245
2026-01-14 12:36:52.62	340.13	12.13	-26.0	-27.4	15.9	0.00e+00	0	43	0	3713007616	12	4224
2026-01-14 12:36:55.64	340.17	11.84	-26.2	-27.8	15.7	0.00e+00	0	43	0	3729784832	12	4323
2026-01-14 12:36:58.65	340.20	11.57	-26.3	-27.9	15.6	0.00e+00	0	43	0	3747610624	12	4373
2026-01-14 12:37:01.67	340.24	11.29	-26.4	-27.9	15.3	1.10e-06	0	43	0	3764387840	13	4247
2026-01-14 12:37:04.68	340.27	11.02	-26.5	-28.0	15.2	0.00e+00	0	43	0	3781165056	13	4289
2026-01-14 12:37:07.70	340.31	10.75	-26.6	-28.3	15.0	2.20e-06	0	43	0	3797942272	13	4370
2026-01-14 12:37:10.71	340.35	10.48	-26.7	-28.3	15.0	0.00e+00	0	43	0	3814719488	13	4372
2026-01-14 12:37:13.71	340.38	10.22	-26.8	-28.6	14.8	0.00e+00	0	43	0	3831496704	13	4451
2026-01-14 12:37:16.72	340.41	9.96	-26.5	-28.1	15.1	0.00e+00	0	43	0	3848273920	13	4298
2026-01-14 12:37:19.73	340.45	9.70	-26.6	-28.2	15.0	0.00e+00	0	43	0	3865051136	13	4341
2026-01-14 12:37:22.75	340.48	9.44	-26.8	-28.7	14.7	0.00e+00	0	43	0	3882876928	13	4477
2026-01-14 12:37:25.76	340.52	9.19	-26.7	-28.4	14.9	0.00e+00	0	43	0	3899654144	13	4398
2026-01-14 12:37:28.76	340.55	8.94	-26.7	-28.5	14.8	0.00e+00	0	43	0	3916431360	13	4433
2026-01-14 12:37:31.77	340.58	8.69	-26.8	-28.7	14.7	0.00e+00	0	43	0	3933208576	13	4474
2026-01-14 12:37:34.78	340.61	8.44	-26.9	-28.9	14.5	0.00e+00	0	43	0	3949985792	13	4553
2026-01-14 12:37:37.80	340.65	8.20	-27.0	-29.1	14.4	1.10e-06	0	42	0	3966763008	13	4614
2026-01-14 12:37:40.79	340.68	7.96	-27.0	-28.6	14.4	1.10e-06	0	43	0	3983540224	14	4339
2026-01-14 12:37:43.79	340.71	7.72	-27.2	-29.1	14.1	0.00e+00	0	43	0	4000317440	14	4498
2026-01-14 12:37:46.81	340.74	7.49	-27.2	-28.6	14.0	2.20e-06	0	43	0	4018143232	15	4244
2026-01-14 12:37:49.82	340.77	7.25	-27.3	-28.9	13.9	2.20e-06	0	43	0	4034920448	15	4322
2026-01-14 12:37:52.82	340.80	7.02	-33.2	-44.4	3.8	8.46e-01	0	43	104	4048551936	26	13032

#Closed at: 2026-01-14 12:37:55
#Recorded file [4048 MB]: D:/data/31010_260114_152552.dat