passes_logs/2026/01/11/T1/T1__20260111_072426_SUOMI_NPP_rec.log

#Pass ID: 20260111_072426_SUOMI NPP
#Satellite: SUOMI NPP
#Configuration: NPP
#almurnet v.1.7.20251203
#Start time: 2026-01-11 07:24:28

#Version: 2.0.20230620
#Station: T1
#Location: 37.570604 lon 55.790049 lat
#TLE: 1 37849U 11061A   26009.81756760  .00000113  00000+0  74747-4 0  9994
#TLE: 2 37849  98.7806 311.9110 0002525  72.5604 287.5848 14.19524046735974

#Time	Az	El	Level	Level2	SNR	BER	BlckErr	Temp	State	Recorded	gain1	gain2
2026-01-11 07:24:28.44	74.86	5.11	-49.8	-65.2	3.8	1.49e+00	0	39	0	0	70	22081
2026-01-11 07:24:30.45	74.61	5.20	-49.8	-65.2	3.8	1.49e+00	0	39	104	0	70	22095
2026-01-11 07:24:32.46	74.37	5.28	-49.8	-65.2	3.8	1.49e+00	0	39	104	0	70	22009
2026-01-11 07:24:34.47	74.12	5.37	-49.8	-65.1	3.8	1.49e+00	0	40	104	0	70	21932
2026-01-11 07:24:36.47	73.87	5.45	-49.8	-65.1	3.8	1.49e+00	0	40	104	0	70	21916
2026-01-11 07:24:38.48	73.62	5.54	-49.8	-65.1	3.8	1.49e+00	0	40	104	0	70	21938
2026-01-11 07:24:40.49	73.37	5.63	-49.8	-65.1	3.8	1.49e+00	0	40	104	0	70	21994
2026-01-11 07:24:42.50	73.11	5.71	-49.7	-65.2	3.8	1.49e+00	0	40	104	0	70	22009
2026-01-11 07:24:44.50	72.86	5.79	-49.7	-65.2	3.8	1.49e+00	0	40	104	0	70	22031
2026-01-11 07:24:46.51	72.60	5.88	-49.7	-65.1	3.8	1.49e+00	0	40	104	0	70	21971
2026-01-11 07:24:48.52	72.34	5.96	-49.8	-65.1	3.8	1.49e+00	0	40	104	0	70	21914
2026-01-11 07:24:50.53	72.08	6.05	-49.7	-65.1	3.8	1.49e+00	0	40	104	0	70	21887
2026-01-11 07:24:52.54	71.82	6.13	-49.7	-65.1	3.8	1.49e+00	0	40	104	0	70	21960
2026-01-11 07:24:54.55	71.56	6.22	-49.7	-65.1	3.8	1.49e+00	0	40	104	0	70	21906
2026-01-11 07:24:56.56	71.29	6.30	-49.7	-65.1	3.8	1.49e+00	0	40	104	0	70	21949
2026-01-11 07:24:58.57	71.03	6.38	-49.7	-65.1	3.8	1.49e+00	0	40	104	0	70	21885
2026-01-11 07:25:00.58	70.76	6.47	-49.7	-65.1	3.8	1.49e+00	0	40	104	0	70	21909
2026-01-11 07:25:02.58	70.49	6.55	-49.7	-65.1	3.8	1.49e+00	0	41	104	0	70	21893
2026-01-11 07:25:04.59	70.22	6.63	-49.7	-65.1	3.8	1.49e+00	0	41	104	0	70	21976
2026-01-11 07:25:06.60	69.95	6.71	-49.7	-65.2	3.8	1.49e+00	0	41	104	0	70	22095
2026-01-11 07:25:08.61	69.67	6.79	-49.7	-65.2	3.8	1.49e+00	0	41	104	0	70	22009
2026-01-11 07:25:10.62	69.40	6.87	-49.7	-65.1	3.8	1.49e+00	0	41	104	0	70	21960
2026-01-11 07:25:12.63	69.12	6.95	-49.7	-65.2	3.8	1.49e+00	0	41	104	0	70	22041
2026-01-11 07:25:14.63	68.84	7.03	-49.7	-65.1	3.8	1.49e+00	0	41	104	0	70	21951
2026-01-11 07:25:16.64	68.56	7.11	-49.7	-65.1	3.8	1.49e+00	0	41	104	0	70	21866
2026-01-11 07:25:18.65	68.28	7.19	-49.7	-65.0	3.8	1.49e+00	0	41	104	0	70	21595
2026-01-11 07:25:20.66	67.99	7.27	-49.7	-65.0	3.8	1.49e+00	0	41	104	0	70	21619
2026-01-11 07:25:22.67	67.71	7.35	-49.7	-65.0	3.8	1.49e+00	0	41	104	0	70	21664
2026-01-11 07:25:24.68	67.42	7.43	-49.7	-65.1	3.8	1.49e+00	0	41	104	0	70	21804
2026-01-11 07:25:26.69	67.13	7.51	-49.7	-65.0	3.8	1.49e+00	0	41	104	0	70	21710
2026-01-11 07:25:28.70	66.84	7.59	-49.7	-65.1	3.8	1.49e+00	0	41	104	0	70	21846
2026-01-11 07:25:30.70	66.55	7.66	-49.7	-65.0	3.8	1.49e+00	0	41	104	0	70	21722
2026-01-11 07:25:32.71	66.26	7.74	-49.7	-65.0	3.8	1.49e+00	0	41	104	0	70	21545
2026-01-11 07:25:34.72	65.97	7.81	-49.7	-64.8	3.8	1.49e+00	0	41	104	0	70	21051
2026-01-11 07:25:36.73	65.67	7.89	-49.7	-64.9	3.8	1.49e+00	0	41	104	0	70	21338
2026-01-11 07:25:38.74	65.37	7.96	-49.7	-64.9	3.8	1.49e+00	0	41	104	0	70	21477
2026-01-11 07:25:40.75	65.07	8.04	-49.7	-64.9	3.8	1.49e+00	0	41	104	0	70	21332
2026-01-11 07:25:42.75	64.78	8.11	-49.7	-64.8	3.8	1.49e+00	0	41	104	0	70	21172
2026-01-11 07:25:44.76	64.47	8.19	-49.7	-64.5	3.8	1.49e+00	0	41	104	0	70	20435
2026-01-11 07:25:46.77	64.17	8.26	-49.7	-64.4	3.8	1.49e+00	0	41	104	0	70	20194
2026-01-11 07:25:48.78	63.86	8.33	-49.7	-64.8	3.8	1.49e+00	0	41	104	0	70	21050
2026-01-11 07:25:50.79	63.56	8.40	-49.7	-65.0	3.8	1.49e+00	0	41	104	0	70	21593
2026-01-11 07:25:52.80	63.25	8.47	-49.7	-64.8	3.8	1.49e+00	0	42	104	0	70	21081
2026-01-11 07:25:54.81	62.94	8.55	-49.6	-63.0	3.8	1.49e+00	0	42	104	0	70	17236
2026-01-11 07:25:56.81	62.63	8.62	-49.6	-63.5	3.8	1.49e+00	0	41	104	0	70	18255
2026-01-11 07:25:58.82	62.32	8.68	-49.6	-63.5	3.8	1.49e+00	0	41	104	0	70	18102
2026-01-11 07:26:00.83	62.00	8.75	-48.5	-55.7	7.9	2.35e-01	0	42	0	2097152	69	7882
2026-01-11 07:26:02.84	61.69	8.82	-47.1	-52.2	11.5	1.40e-03	0	41	0	6291456	66	6247
2026-01-11 07:26:04.85	61.37	8.89	-47.1	-52.1	11.5	4.14e-04	0	41	0	9437184	65	6538
2026-01-11 07:26:06.86	61.05	8.96	-48.5	-56.0	7.6	4.01e-02	0	42	0	13631488	67	9136
2026-01-11 07:26:08.86	60.73	9.02	-49.6	-63.2	3.8	1.46e+00	0	42	104	16777216	69	18556
2026-01-11 07:26:10.87	60.41	9.09	-48.9	-57.1	6.7	1.22e+00	0	42	0	16777216	69	9219
2026-01-11 07:26:12.87	60.09	9.15	-47.4	-52.6	10.9	7.51e-01	0	42	0	17825792	66	6537
2026-01-11 07:26:14.87	59.76	9.22	-49.0	-57.3	6.5	1.49e+00	0	42	104	18874368	70	8877
2026-01-11 07:26:16.88	59.44	9.28	-48.7	-55.9	7.8	7.29e-02	0	42	0	22020096	69	7997
2026-01-11 07:26:18.88	59.11	9.34	-48.1	-53.8	10.0	1.42e-02	0	41	0	25165824	68	6671
2026-01-11 07:26:20.88	58.79	9.40	-47.4	-52.4	11.3	1.49e-03	0	41	0	29360128	66	6384
2026-01-11 07:26:22.88	58.46	9.46	-46.7	-51.1	12.7	1.32e-04	0	42	0	33554432	65	5790
2026-01-11 07:26:24.88	58.13	9.52	-46.4	-50.6	13.1	5.34e-05	0	42	0	36700160	64	5838
2026-01-11 07:26:26.88	57.80	9.58	-46.4	-50.7	13.1	3.66e-05	0	42	0	40894464	64	5881
2026-01-11 07:26:28.88	57.46	9.64	-46.2	-50.3	13.5	1.14e-05	0	42	0	44040192	64	5627
2026-01-11 07:26:30.89	57.13	9.70	-46.1	-49.9	13.8	1.37e-05	0	42	0	48234496	64	5394
2026-01-11 07:26:32.88	56.79	9.76	-45.9	-49.6	14.2	4.50e-06	0	42	0	51380224	63	5521
2026-01-11 07:26:34.87	56.46	9.81	-45.7	-49.3	14.6	0.00e+00	0	42	0	55574528	63	5316
2026-01-11 07:26:36.87	56.12	9.87	-45.5	-49.0	14.9	0.00e+00	0	42	0	59768832	62	5410
2026-01-11 07:26:38.87	55.78	9.92	-45.3	-48.6	15.2	0.00e+00	0	42	0	62914560	62	5217
2026-01-11 07:26:40.87	55.44	9.98	-45.2	-48.5	15.3	0.00e+00	0	42	0	67108864	62	5153
2026-01-11 07:26:42.87	55.10	10.03	-45.2	-48.5	15.3	0.00e+00	0	42	0	70254592	62	5149
2026-01-11 07:26:44.86	54.76	10.08	-45.3	-48.7	15.3	0.00e+00	0	42	0	74448896	62	5221
2026-01-11 07:26:46.87	54.41	10.13	-45.1	-48.3	15.5	0.00e+00	0	42	0	77594624	62	5026
2026-01-11 07:26:48.87	54.06	10.18	-45.2	-48.5	15.4	0.00e+00	0	42	0	81788928	62	5134
2026-01-11 07:26:50.87	53.72	10.23	-45.4	-48.9	15.0	0.00e+00	0	42	0	85983232	62	5371
2026-01-11 07:26:52.88	53.37	10.28	-45.6	-49.2	14.6	0.00e+00	0	42	0	89128960	62	5588
2026-01-11 07:26:54.88	53.02	10.33	-46.0	-49.9	14.0	7.00e-07	0	42	0	93323264	62	6028
2026-01-11 07:26:56.88	52.67	10.37	-46.1	-50.1	13.8	3.80e-06	0	42	0	96468992	63	5848
2026-01-11 07:26:58.88	52.32	10.42	-46.0	-49.9	14.1	7.00e-07	0	42	0	100663296	63	5665
2026-01-11 07:27:00.88	51.97	10.47	-46.0	-49.8	14.1	5.30e-06	0	42	0	103809024	63	5604
2026-01-11 07:27:02.89	51.61	10.51	-46.0	-49.8	14.1	0.00e+00	0	42	0	108003328	63	5629
2026-01-11 07:27:04.89	51.26	10.55	-46.0	-49.8	14.1	1.50e-06	0	42	0	112197632	63	5628
2026-01-11 07:27:06.88	50.90	10.59	-46.1	-49.9	14.0	7.00e-07	0	42	0	115343360	63	5709
2026-01-11 07:27:08.87	50.55	10.63	-46.1	-50.0	13.9	3.80e-06	0	42	0	119537664	63	5725
2026-01-11 07:27:10.88	50.19	10.67	-46.0	-49.8	14.1	1.50e-06	0	42	0	122683392	63	5655
2026-01-11 07:27:12.88	49.83	10.71	-45.8	-49.5	14.5	1.50e-06	0	42	0	126877696	63	5433
2026-01-11 07:27:14.88	49.47	10.75	-45.6	-49.1	14.8	7.00e-07	0	42	0	130023424	63	5211
2026-01-11 07:27:16.88	49.11	10.79	-45.6	-49.1	14.9	0.00e+00	0	42	0	134217728	63	5185
2026-01-11 07:27:18.87	48.75	10.82	-45.5	-48.9	15.0	0.00e+00	0	42	0	138412032	62	5378
2026-01-11 07:27:20.86	48.39	10.86	-45.6	-49.1	14.9	0.00e+00	0	42	0	141557760	62	5466
2026-01-11 07:27:22.86	48.03	10.89	-46.0	-49.7	14.2	1.50e-06	0	42	0	145752064	62	5899
2026-01-11 07:27:24.85	47.67	10.92	-45.8	-49.5	14.4	1.50e-06	0	42	0	148897792	62	5760
2026-01-11 07:27:26.86	47.30	10.95	-45.4	-48.8	15.1	0.00e+00	0	42	0	153092096	62	5325
2026-01-11 07:27:28.86	46.93	10.98	-45.5	-49.0	15.0	0.00e+00	0	42	0	157286400	62	5405
2026-01-11 07:27:30.86	46.57	11.01	-45.8	-49.4	14.6	0.00e+00	0	42	0	160432128	62	5677
2026-01-11 07:27:32.86	46.20	11.04	-45.8	-49.4	14.6	1.50e-06	0	42	0	164626432	62	5686
2026-01-11 07:27:34.85	45.84	11.07	-45.6	-49.1	14.8	0.00e+00	0	42	0	167772160	62	5517
2026-01-11 07:27:36.84	45.47	11.09	-45.5	-49.1	14.8	0.00e+00	0	42	0	171966464	62	5470
2026-01-11 07:27:38.84	45.10	11.12	-45.5	-49.0	15.0	7.00e-07	0	42	0	175112192	62	5408
2026-01-11 07:27:40.84	44.73	11.14	-45.3	-48.7	15.3	0.00e+00	0	42	0	179306496	62	5241
2026-01-11 07:27:42.83	44.36	11.17	-45.3	-48.7	15.3	0.00e+00	0	42	0	182452224	62	5231
2026-01-11 07:27:44.83	43.99	11.19	-45.6	-49.2	14.8	0.00e+00	0	42	0	186646528	62	5541
2026-01-11 07:27:46.83	43.62	11.21	-45.5	-49.0	15.0	0.00e+00	0	42	0	190840832	62	5416
2026-01-11 07:27:48.83	43.25	11.23	-45.3	-48.7	15.2	0.00e+00	0	42	0	193986560	62	5236
2026-01-11 07:27:50.82	42.88	11.24	-45.1	-48.4	15.6	0.00e+00	0	42	0	198180864	62	5048
2026-01-11 07:27:52.83	42.51	11.26	-45.0	-48.2	15.8	0.00e+00	0	42	0	201326592	61	5239
2026-01-11 07:27:54.82	42.13	11.28	-45.0	-48.2	15.8	0.00e+00	0	42	0	205520896	61	5220
2026-01-11 07:27:56.82	41.76	11.29	-44.7	-47.7	16.3	0.00e+00	0	42	0	209715200	61	4963
2026-01-11 07:27:58.82	41.39	11.30	-44.7	-47.7	16.2	0.00e+00	0	42	0	212860928	61	4961
2026-01-11 07:28:00.82	41.01	11.32	-44.8	-48.0	15.9	0.00e+00	0	42	0	217055232	61	5132
2026-01-11 07:28:02.81	40.64	11.33	-45.0	-48.2	15.7	0.00e+00	0	42	0	220200960	61	5263
2026-01-11 07:28:04.81	40.27	11.34	-45.0	-48.4	15.5	0.00e+00	0	42	0	224395264	61	5374
2026-01-11 07:28:06.81	39.89	11.35	-45.2	-48.6	15.4	0.00e+00	0	42	0	227540992	61	5465
2026-01-11 07:28:08.80	39.52	11.35	-45.2	-48.6	15.3	0.00e+00	0	42	0	231735296	61	5490
2026-01-11 07:28:10.80	39.14	11.36	-45.0	-48.4	15.5	0.00e+00	0	42	0	235929600	61	5368
2026-01-11 07:28:12.80	38.77	11.36	-44.9	-48.4	15.6	0.00e+00	0	42	0	239075328	61	5355
2026-01-11 07:28:14.80	38.39	11.37	-44.8	-48.2	15.7	0.00e+00	0	42	0	243269632	61	5234
2026-01-11 07:28:16.80	38.02	11.37	-44.9	-48.3	15.6	0.00e+00	0	42	0	246415360	61	5327
2026-01-11 07:28:18.79	37.65	11.37	-45.0	-48.5	15.5	0.00e+00	0	42	0	250609664	61	5404
2026-01-11 07:28:20.79	37.27	11.37	-45.1	-48.4	15.5	0.00e+00	0	42	0	253755392	61	5402
2026-01-11 07:28:22.79	36.90	11.37	-45.1	-48.4	15.5	0.00e+00	0	42	0	257949696	61	5391
2026-01-11 07:28:24.79	36.52	11.37	-45.0	-48.4	15.5	0.00e+00	0	42	0	261095424	61	5380
2026-01-11 07:28:26.79	36.14	11.37	-45.1	-48.5	15.5	0.00e+00	0	42	0	265289728	61	5441
2026-01-11 07:28:28.80	35.77	11.36	-45.4	-49.0	15.0	7.00e-07	0	42	0	269484032	61	5732
2026-01-11 07:28:30.79	35.39	11.36	-45.5	-49.0	14.9	7.00e-07	0	42	0	272629760	61	5778
2026-01-11 07:28:32.79	35.02	11.35	-45.6	-49.1	14.9	0.00e+00	0	42	0	276824064	61	5800
2026-01-11 07:28:34.80	34.64	11.34	-45.4	-49.0	15.0	0.00e+00	0	42	0	279969792	61	5761
2026-01-11 07:28:36.80	34.27	11.33	-45.2	-48.7	15.3	0.00e+00	0	42	0	284164096	61	5535
2026-01-11 07:28:38.80	33.89	11.32	-45.0	-48.4	15.6	0.00e+00	0	42	0	288358400	61	5352
2026-01-11 07:28:40.80	33.52	11.31	-45.0	-48.3	15.7	0.00e+00	0	42	0	291504128	61	5315
2026-01-11 07:28:42.81	33.15	11.30	-45.2	-48.7	15.3	0.00e+00	0	42	0	295698432	61	5584
2026-01-11 07:28:44.80	32.77	11.28	-45.5	-49.4	14.7	0.00e+00	0	42	0	298844160	61	5997
2026-01-11 07:28:46.80	32.40	11.27	-45.5	-49.2	14.8	0.00e+00	0	42	0	303038464	61	5887
2026-01-11 07:28:48.80	32.03	11.25	-45.5	-49.1	15.0	0.00e+00	0	42	0	306184192	61	5796
2026-01-11 07:28:50.80	31.66	11.23	-45.6	-49.0	14.9	0.00e+00	0	42	0	310378496	61	5787
2026-01-11 07:28:52.80	31.29	11.22	-45.7	-49.2	14.8	0.00e+00	0	42	0	314572800	61	5889
2026-01-11 07:28:54.80	30.92	11.20	-45.7	-49.3	14.8	0.00e+00	0	42	0	317718528	62	5617
2026-01-11 07:28:56.80	30.54	11.18	-45.7	-49.3	14.7	0.00e+00	0	42	0	321912832	62	5629
2026-01-11 07:28:58.80	30.18	11.15	-45.6	-49.2	14.8	0.00e+00	0	42	0	325058560	62	5561
2026-01-11 07:29:00.80	29.81	11.13	-45.3	-48.8	15.2	0.00e+00	0	42	0	329252864	62	5302
2026-01-11 07:29:02.80	29.44	11.11	-45.1	-48.6	15.5	0.00e+00	0	42	0	333447168	62	5172
2026-01-11 07:29:04.81	29.07	11.08	-45.1	-48.6	15.4	0.00e+00	0	42	0	336592896	61	5504
2026-01-11 07:29:06.81	28.70	11.05	-45.2	-48.8	15.2	0.00e+00	0	42	0	340787200	61	5607
2026-01-11 07:29:08.81	28.33	11.03	-45.3	-48.9	15.2	0.00e+00	0	42	0	343932928	61	5663
2026-01-11 07:29:10.81	27.97	11.00	-45.3	-48.9	15.1	0.00e+00	0	42	0	348127232	61	5664
2026-01-11 07:29:12.81	27.60	10.97	-45.4	-48.9	15.2	0.00e+00	0	42	0	351272960	61	5691
2026-01-11 07:29:14.81	27.24	10.94	-45.2	-48.6	15.4	0.00e+00	0	42	0	355467264	61	5514
2026-01-11 07:29:16.82	26.87	10.91	-45.0	-48.3	15.6	0.00e+00	0	42	0	359661568	61	5324
2026-01-11 07:29:18.82	26.51	10.87	-45.0	-48.3	15.7	0.00e+00	0	42	0	362807296	61	5335
2026-01-11 07:29:20.82	26.15	10.84	-45.3	-48.8	15.2	0.00e+00	0	42	0	367001600	61	5656
2026-01-11 07:29:22.83	25.79	10.80	-45.5	-49.2	14.8	0.00e+00	0	42	0	370147328	61	5903
2026-01-11 07:29:24.82	25.43	10.77	-45.7	-49.6	14.6	0.00e+00	0	42	0	374341632	62	5790
2026-01-11 07:29:26.82	25.07	10.73	-45.5	-49.2	14.8	7.00e-07	0	42	0	377487360	62	5553
2026-01-11 07:29:28.82	24.71	10.69	-45.3	-48.7	15.3	0.00e+00	0	42	0	381681664	62	5253
2026-01-11 07:29:30.82	24.35	10.65	-45.4	-48.8	15.2	0.00e+00	0	42	0	385875968	62	5316
2026-01-11 07:29:32.83	23.99	10.61	-45.5	-48.9	15.0	0.00e+00	0	42	0	389021696	62	5390
2026-01-11 07:29:34.84	23.64	10.57	-45.4	-48.9	15.1	0.00e+00	0	42	0	393216000	62	5367
2026-01-11 07:29:36.84	23.28	10.53	-45.5	-49.1	14.9	7.00e-07	0	42	0	396361728	62	5508
2026-01-11 07:29:38.83	22.93	10.49	-45.3	-48.9	15.1	0.00e+00	0	42	0	400556032	62	5386
2026-01-11 07:29:40.84	22.58	10.44	-45.1	-48.8	15.2	0.00e+00	0	42	0	403701760	62	5328
2026-01-11 07:29:42.84	22.23	10.40	-44.8	-48.9	15.2	0.00e+00	0	42	0	407896064	61	5681
2026-01-11 07:29:44.84	21.88	10.35	-44.7	-48.9	15.2	0.00e+00	0	42	0	412090368	61	5685
2026-01-11 07:29:46.84	21.53	10.30	-44.7	-48.9	15.1	0.00e+00	0	42	0	415236096	61	5722
2026-01-11 07:29:48.84	21.18	10.26	-44.8	-48.8	15.3	0.00e+00	0	42	0	419430400	61	5610
2026-01-11 07:29:50.84	20.83	10.21	-44.8	-48.7	15.4	0.00e+00	0	42	0	422576128	61	5537
2026-01-11 07:29:52.84	20.49	10.16	-44.9	-48.6	15.4	7.00e-07	0	42	0	426770432	61	5523
2026-01-11 07:29:54.84	20.15	10.11	-44.8	-48.5	15.5	0.00e+00	0	42	0	430964736	61	5425
2026-01-11 07:29:56.84	19.80	10.05	-44.8	-48.4	15.6	0.00e+00	0	42	0	434110464	61	5368
2026-01-11 07:29:58.84	19.46	10.00	-45.0	-48.4	15.6	0.00e+00	0	42	0	438304768	61	5382
2026-01-11 07:30:00.84	19.12	9.95	-45.4	-48.8	15.3	0.00e+00	0	42	0	441450496	61	5607
2026-01-11 07:30:02.84	18.78	9.90	-45.5	-49.0	15.1	0.00e+00	0	42	0	445644800	61	5737
2026-01-11 07:30:04.85	18.44	9.84	-45.2	-48.7	15.3	0.00e+00	0	42	0	448790528	61	5570
2026-01-11 07:30:06.85	18.11	9.78	-44.9	-48.4	15.7	0.00e+00	0	42	0	452984832	61	5357
2026-01-11 07:30:08.85	17.77	9.73	-44.8	-48.3	15.7	0.00e+00	0	42	0	457179136	61	5320
2026-01-11 07:30:10.85	17.44	9.67	-44.9	-48.6	15.4	0.00e+00	0	42	0	460324864	61	5488
2026-01-11 07:30:12.85	17.11	9.61	-44.8	-48.6	15.4	0.00e+00	0	43	0	464519168	61	5518
2026-01-11 07:30:14.85	16.77	9.55	-44.7	-48.7	15.3	0.00e+00	0	42	0	467664896	61	5529
2026-01-11 07:30:16.85	16.44	9.49	-44.6	-48.8	15.2	0.00e+00	0	42	0	471859200	61	5634
2026-01-11 07:30:18.86	16.12	9.43	-44.5	-48.8	15.2	0.00e+00	0	42	0	476053504	60	5963
2026-01-11 07:30:20.86	15.79	9.37	-44.7	-48.7	15.3	0.00e+00	0	42	0	479199232	60	5861
2026-01-11 07:30:22.86	15.46	9.31	-45.0	-48.6	15.3	0.00e+00	0	42	0	483393536	60	5855
2026-01-11 07:30:24.87	15.14	9.25	-45.3	-48.9	15.1	0.00e+00	0	42	0	486539264	61	5670
2026-01-11 07:30:26.87	14.81	9.18	-45.5	-49.1	14.9	0.00e+00	0	42	0	490733568	61	5802
2026-01-11 07:30:28.87	14.49	9.12	-45.5	-49.2	14.9	7.00e-07	0	42	0	493879296	61	5870
2026-01-11 07:30:30.88	14.17	9.05	-45.5	-49.2	14.7	0.00e+00	0	42	0	498073600	61	5922
2026-01-11 07:30:32.88	13.85	8.99	-47.7	-53.9	10.5	0.00e+00	0	42	0	502267904	65	8016
2026-01-11 07:30:34.89	13.54	8.92	-50.5	-65.7	3.8	1.49e+00	0	42	104	502267904	71	22172
2026-01-11 07:30:36.89	13.22	8.86	-50.4	-65.8	3.8	1.49e+00	0	42	104	502267904	71	22448
2026-01-11 07:30:38.90	12.91	8.79	-50.6	-65.9	3.8	1.49e+00	0	42	104	502267904	71	22665
2026-01-11 07:30:40.90	12.59	8.72	-50.1	-66.0	3.8	1.49e+00	0	42	104	502267904	71	22873
2026-01-11 07:30:42.91	12.28	8.65	-50.8	-66.0	3.8	1.49e+00	0	42	104	502267904	72	21583
2026-01-11 07:30:44.91	11.97	8.58	-50.7	-66.0	3.8	1.49e+00	0	43	104	502267904	72	21699
2026-01-11 07:30:46.91	11.66	8.51	-50.7	-66.0	3.8	1.49e+00	0	42	104	502267904	72	21713
2026-01-11 07:30:48.92	11.36	8.44	-50.6	-66.0	3.8	1.49e+00	0	42	104	502267904	72	21686
2026-01-11 07:30:50.92	11.05	8.37	-50.8	-66.0	3.8	1.49e+00	0	42	104	502267904	72	21664
2026-01-11 07:30:52.93	10.75	8.30	-50.9	-66.0	3.8	1.49e+00	0	42	104	502267904	72	21690
2026-01-11 07:30:54.93	10.44	8.23	-50.8	-66.0	3.8	1.49e+00	0	42	104	502267904	72	21701
2026-01-11 07:30:56.94	10.14	8.15	-50.7	-66.0	3.8	1.49e+00	0	42	104	502267904	72	21747
2026-01-11 07:30:58.94	9.84	8.08	-50.7	-66.0	3.8	1.49e+00	0	43	104	502267904	72	21600
2026-01-11 07:31:00.95	9.55	8.00	-50.7	-66.0	3.8	1.49e+00	0	43	104	502267904	72	21554
2026-01-11 07:31:02.95	9.25	7.93	-50.7	-66.0	3.8	1.49e+00	0	42	104	502267904	72	21586
2026-01-11 07:31:04.96	8.96	7.86	-50.7	-65.9	3.8	1.49e+00	0	42	104	502267904	72	21498
2026-01-11 07:31:06.97	8.66	7.78	-50.6	-66.0	3.8	1.49e+00	0	42	104	502267904	72	21508
2026-01-11 07:31:08.97	8.37	7.70	-50.6	-65.9	3.8	1.49e+00	0	42	104	502267904	72	21452
2026-01-11 07:31:10.98	8.08	7.63	-50.6	-66.0	3.8	1.49e+00	0	42	104	502267904	72	21523
2026-01-11 07:31:12.98	7.79	7.55	-50.6	-66.0	3.8	1.49e+00	0	42	104	502267904	72	21513
2026-01-11 07:31:14.99	7.50	7.47	-50.6	-66.0	3.8	1.49e+00	0	43	104	502267904	72	21534
2026-01-11 07:31:17.00	7.22	7.40	-50.6	-65.9	3.8	1.49e+00	0	42	104	502267904	72	21466
2026-01-11 07:31:19.00	6.94	7.32	-50.6	-66.0	3.8	1.49e+00	0	43	104	502267904	72	21511
2026-01-11 07:31:21.01	6.65	7.24	-50.6	-65.9	3.8	1.49e+00	0	42	104	502267904	72	21480
2026-01-11 07:31:23.01	6.37	7.16	-50.6	-66.0	3.8	1.49e+00	0	43	104	502267904	72	21512
2026-01-11 07:31:25.02	6.09	7.08	-50.6	-65.9	3.8	1.49e+00	0	43	104	502267904	72	21441
2026-01-11 07:31:27.02	5.82	7.00	-50.6	-65.9	3.8	1.49e+00	0	42	104	502267904	72	21439
2026-01-11 07:31:29.03	5.54	6.92	-50.6	-65.9	3.8	1.49e+00	0	42	104	502267904	72	21503
2026-01-11 07:31:31.03	5.27	6.84	-50.6	-66.0	3.8	1.49e+00	0	43	104	502267904	72	21532
2026-01-11 07:31:33.04	4.99	6.76	-50.6	-65.9	3.8	1.49e+00	0	42	104	502267904	72	21441
2026-01-11 07:31:35.04	4.72	6.68	-50.6	-65.9	3.8	1.49e+00	0	43	104	502267904	72	21474
2026-01-11 07:31:37.05	4.45	6.60	-50.6	-65.9	3.8	1.49e+00	0	42	104	502267904	72	21468
2026-01-11 07:31:39.05	4.18	6.51	-50.6	-65.9	3.8	1.49e+00	0	42	104	502267904	72	21475
2026-01-11 07:31:41.06	3.92	6.43	-50.6	-65.9	3.8	1.49e+00	0	43	104	502267904	72	21455
2026-01-11 07:31:43.07	3.65	6.35	-50.6	-65.9	3.8	1.49e+00	0	42	104	502267904	72	21427
2026-01-11 07:31:45.08	3.39	6.27	-50.6	-65.9	3.8	1.49e+00	0	43	104	502267904	72	21457
2026-01-11 07:31:47.09	3.12	6.18	-50.6	-65.9	3.8	1.49e+00	0	42	104	502267904	72	21446
2026-01-11 07:31:49.09	2.86	6.10	-50.6	-65.9	3.8	1.49e+00	0	42	104	502267904	72	21425
2026-01-11 07:31:51.10	2.60	6.02	-50.6	-65.9	3.8	1.49e+00	0	42	104	502267904	72	21417
2026-01-11 07:31:53.11	2.35	5.93	-50.6	-65.9	3.8	1.49e+00	0	42	104	502267904	72	21442
2026-01-11 07:31:55.11	2.09	5.85	-50.6	-65.9	3.8	1.49e+00	0	42	104	502267904	72	21408
2026-01-11 07:31:57.12	1.84	5.76	-50.6	-65.9	3.8	1.49e+00	0	43	104	502267904	72	21386
2026-01-11 07:31:59.13	1.58	5.68	-50.6	-65.9	3.8	1.49e+00	0	42	104	502267904	72	21417
2026-01-11 07:32:01.14	1.33	5.59	-50.6	-65.9	3.8	1.49e+00	0	43	104	502267904	72	21385
2026-01-11 07:32:03.14	1.08	5.51	-50.6	-65.9	3.8	1.49e+00	0	42	104	502267904	72	21371
2026-01-11 07:32:05.15	0.83	5.42	-50.6	-65.9	3.8	1.49e+00	0	43	104	502267904	72	21441
2026-01-11 07:32:07.16	0.59	5.34	-50.6	-65.9	3.8	1.49e+00	0	42	104	502267904	72	21434
2026-01-11 07:32:09.17	0.34	5.25	-50.6	-65.9	3.8	1.49e+00	0	43	104	502267904	72	21366
2026-01-11 07:32:11.17	0.10	5.16	-50.6	-65.9	3.8	1.49e+00	0	43	104	502267904	72	21388
2026-01-11 07:32:13.18	359.85	5.08	-50.6	-65.9	3.8	1.49e+00	0	42	104	502267904	72	21328
2026-01-11 07:32:15.18	359.61	4.99	-50.6	-65.9	3.8	1.49e+00	0	43	104	502267904	72	21386

#Closed at: 2026-01-11 07:32:16
#Recorded file [502 MB]: D:/Data/31040_260111_102428.dat