passes_logs/2026/01/11/T1/T1__20260111_030716_AQUA_rec.log

#Pass ID: 20260111_030716_AQUA
#Satellite: AQUA
#Configuration: AQUA
#almurnet v.1.7.20251203
#Start time: 2026-01-11 03:07:16

#Version: 2.0.20230620
#Station: T1
#Location: 37.570604 lon 55.790049 lat
#TLE: 1 27424U 02022A   26009.89520876  .00001045  00000+0  21914-3 0  9996
#TLE: 2 27424  98.4076 336.2372 0002032  84.5955   1.0356 14.61811442260144

#Time	Az	El	Level	Level2	SNR	BER	BlckErr	Temp	State	Recorded	gain1	gain2
2026-01-11 03:07:16.14	1.01	5.00	-51.1	-71.9	3.8	7.47e-01	0	38	0	0	73	40151
2026-01-11 03:07:19.15	0.69	5.18	-46.3	-71.1	3.7	7.51e-01	0	39	104	0	63	65535
2026-01-11 03:07:22.17	0.37	5.35	-46.2	-71.1	3.7	7.50e-01	0	39	104	0	63	65534
2026-01-11 03:07:25.18	0.04	5.53	-46.3	-71.1	3.7	7.52e-01	0	39	104	0	63	65535
2026-01-11 03:07:28.19	359.71	5.71	-46.2	-71.1	3.7	7.51e-01	0	39	104	0	63	65535
2026-01-11 03:07:31.21	359.37	5.89	-46.3	-71.1	3.7	7.48e-01	0	39	104	0	63	65535
2026-01-11 03:07:34.22	359.03	6.07	-46.3	-71.1	3.7	7.46e-01	0	39	104	0	63	65535
2026-01-11 03:07:37.23	358.68	6.25	-46.3	-71.1	3.7	7.51e-01	0	39	104	0	63	65535
2026-01-11 03:07:40.25	358.33	6.43	-46.3	-71.1	3.7	7.51e-01	0	39	104	0	63	65534
2026-01-11 03:07:43.26	357.97	6.61	-46.3	-71.1	3.7	7.52e-01	0	39	104	0	63	65535
2026-01-11 03:07:46.27	357.61	6.79	-46.2	-71.1	3.7	7.52e-01	0	40	104	0	63	65534
2026-01-11 03:07:49.29	357.25	6.98	-46.3	-71.1	3.7	7.50e-01	0	40	104	0	63	65534
2026-01-11 03:07:52.30	356.88	7.16	-46.3	-71.1	3.7	7.49e-01	0	40	104	0	63	65534
2026-01-11 03:07:55.31	356.50	7.34	-46.3	-71.1	3.7	7.50e-01	0	40	104	0	63	65535
2026-01-11 03:07:58.33	356.12	7.52	-46.3	-71.1	3.7	7.47e-01	0	40	104	0	63	65535
2026-01-11 03:08:01.34	355.73	7.71	-46.3	-70.8	3.8	7.47e-01	0	40	104	0	63	63470
2026-01-11 03:08:04.35	355.34	7.89	-46.3	-70.7	3.8	7.45e-01	0	40	104	0	63	62044
2026-01-11 03:08:07.37	354.94	8.07	-46.3	-71.1	3.8	7.48e-01	0	40	104	0	63	65115
2026-01-11 03:08:10.38	354.53	8.26	-46.3	-70.8	3.8	7.45e-01	0	40	104	0	63	63425
2026-01-11 03:08:13.39	354.12	8.44	-46.4	-70.5	3.8	7.49e-01	0	40	104	0	63	61039
2026-01-11 03:08:16.41	353.71	8.63	-46.0	-66.7	3.8	7.41e-01	0	40	104	0	63	39282
2026-01-11 03:08:19.42	353.29	8.81	-45.7	-64.5	3.8	7.43e-01	0	40	104	0	63	30424
2026-01-11 03:08:22.43	352.86	8.99	-45.2	-62.0	3.8	7.46e-01	0	41	104	0	62	24277
2026-01-11 03:08:25.44	352.43	9.18	-46.0	-64.8	3.9	7.43e-01	0	40	104	0	64	29924
2026-01-11 03:08:28.45	351.99	9.36	-45.6	-59.3	3.8	7.49e-01	0	41	104	0	63	16758
2026-01-11 03:08:31.46	351.54	9.55	-44.5	-58.9	3.8	7.49e-01	0	41	104	0	60	19125
2026-01-11 03:08:34.47	351.09	9.73	-46.7	-60.2	3.8	7.44e-01	0	40	104	0	63	18629
2026-01-11 03:08:37.48	350.63	9.92	-46.1	-58.8	3.8	7.49e-01	0	41	104	0	63	15932
2026-01-11 03:08:40.49	350.17	10.10	-44.6	-58.7	3.8	7.48e-01	0	41	104	0	61	17648
2026-01-11 03:08:43.50	349.70	10.29	-44.5	-61.3	3.8	7.48e-01	0	41	104	0	60	25249
2026-01-11 03:08:46.51	349.22	10.47	-43.5	-58.6	3.8	7.46e-01	0	41	104	0	58	20751
2026-01-11 03:08:49.52	348.74	10.65	-43.7	-58.6	3.8	7.46e-01	0	41	104	0	58	20558
2026-01-11 03:08:52.53	348.24	10.84	-44.2	-61.0	3.8	7.46e-01	0	41	104	0	58	27139
2026-01-11 03:08:55.54	347.75	11.02	-43.2	-58.5	3.8	7.47e-01	0	41	104	0	58	20310
2026-01-11 03:08:58.55	347.24	11.20	-43.5	-58.5	3.8	7.47e-01	0	41	104	0	58	20325
2026-01-11 03:09:01.56	346.73	11.38	-45.9	-61.5	3.8	7.49e-01	0	41	104	0	62	23041
2026-01-11 03:09:04.57	346.21	11.56	-46.4	-51.7	18.6	6.02e-01	0	41	0	2621440	64	6640
2026-01-11 03:09:07.58	345.69	11.74	-47.0	-51.7	18.5	6.00e-01	0	41	0	8388608	64	6621
2026-01-11 03:09:10.58	345.16	11.92	-46.9	-51.8	18.5	6.00e-01	0	41	0	13631488	64	6678
2026-01-11 03:09:13.59	344.62	12.10	-46.6	-51.2	19.1	6.02e-01	0	41	0	19398656	64	6266
2026-01-11 03:09:16.60	344.07	12.28	-46.7	-51.2	19.1	5.99e-01	0	41	0	25165824	64	6220
2026-01-11 03:09:19.61	343.51	12.45	-46.1	-51.2	19.2	6.03e-01	0	41	0	30932992	64	6216
2026-01-11 03:09:22.63	342.95	12.63	-45.6	-51.0	19.3	6.03e-01	0	41	0	36175872	63	6460
2026-01-11 03:09:25.64	342.38	12.80	-44.9	-50.2	20.2	6.03e-01	0	41	0	41943040	61	6599
2026-01-11 03:09:28.65	341.81	12.98	-45.0	-49.7	20.6	6.03e-01	0	41	0	47710208	61	6232
2026-01-11 03:09:31.66	341.22	13.15	-45.2	-49.4	21.0	6.03e-01	0	41	0	53477376	61	6010
2026-01-11 03:09:34.67	340.63	13.32	-45.4	-49.2	21.2	6.00e-01	0	41	0	59244544	61	5863
2026-01-11 03:09:37.68	340.03	13.49	-45.0	-48.6	21.6	6.01e-01	0	41	0	64487424	61	5527
2026-01-11 03:09:40.69	339.43	13.65	-44.7	-48.3	21.9	6.01e-01	0	41	0	70254592	61	5313
2026-01-11 03:09:43.69	338.81	13.82	-44.8	-48.2	22.0	6.03e-01	0	41	0	76021760	61	5258
2026-01-11 03:09:46.71	338.19	13.98	-44.4	-48.2	22.0	6.04e-01	0	41	0	81788928	60	5586
2026-01-11 03:09:49.72	337.56	14.14	-44.5	-48.1	22.1	6.01e-01	0	41	0	87031808	60	5489
2026-01-11 03:09:52.73	336.93	14.30	-45.0	-48.1	22.1	6.00e-01	0	41	0	92798976	60	5504
2026-01-11 03:09:55.74	336.28	14.46	-44.8	-48.1	22.2	6.02e-01	0	41	0	98566144	60	5485
2026-01-11 03:09:58.75	335.63	14.61	-45.2	-48.2	22.0	6.01e-01	0	41	0	104333312	60	5572
2026-01-11 03:10:01.76	334.98	14.76	-44.9	-48.1	22.1	6.01e-01	0	41	0	109576192	61	5218
2026-01-11 03:10:04.77	334.31	14.91	-44.5	-48.2	22.1	6.02e-01	0	41	0	115343360	60	5564
2026-01-11 03:10:07.79	333.64	15.06	-45.2	-48.3	22.0	6.03e-01	0	41	0	121110528	60	5621
2026-01-11 03:10:10.80	332.96	15.20	-45.0	-48.1	22.2	6.00e-01	0	41	0	126877696	61	5204
2026-01-11 03:10:13.80	332.27	15.34	-44.7	-48.3	21.6	6.02e-01	0	41	0	132644864	61	5309
2026-01-11 03:10:16.81	331.58	15.48	-45.1	-48.2	22.1	6.03e-01	0	41	0	137887744	61	5220
2026-01-11 03:10:19.82	330.88	15.61	-44.9	-48.1	22.2	6.00e-01	0	41	0	143654912	61	5195
2026-01-11 03:10:22.83	330.17	15.75	-44.9	-48.3	22.0	6.02e-01	0	41	0	149422080	61	5282
2026-01-11 03:10:25.84	329.46	15.87	-45.3	-48.3	22.0	6.02e-01	0	41	0	154664960	61	5303
2026-01-11 03:10:28.85	328.74	16.00	-45.1	-48.2	22.1	6.03e-01	0	41	0	160432128	61	5278
2026-01-11 03:10:31.86	328.01	16.12	-45.1	-48.1	22.1	6.05e-01	0	42	0	166199296	61	5216
2026-01-11 03:10:34.87	327.28	16.23	-45.0	-48.3	22.0	6.01e-01	0	41	0	171966464	61	5328
2026-01-11 03:10:37.87	326.54	16.35	-44.7	-48.3	22.0	6.03e-01	0	41	0	177733632	61	5313
2026-01-11 03:10:40.89	325.79	16.45	-44.6	-48.4	21.9	6.02e-01	0	41	0	182976512	61	5358
2026-01-11 03:10:43.90	325.04	16.56	-45.1	-48.3	22.0	6.02e-01	0	41	0	188743680	61	5332
2026-01-11 03:10:46.90	324.29	16.66	-45.4	-48.5	21.9	6.01e-01	0	41	0	194510848	61	5416
2026-01-11 03:10:49.91	323.53	16.75	-45.4	-48.6	21.7	6.00e-01	0	41	0	200278016	61	5506
2026-01-11 03:10:52.92	322.76	16.84	-44.9	-48.3	22.0	6.01e-01	0	42	0	205520896	61	5323
2026-01-11 03:10:55.93	321.99	16.93	-45.1	-48.3	22.0	6.02e-01	0	41	0	211288064	61	5316
2026-01-11 03:10:58.95	321.21	17.01	-45.4	-48.5	21.9	6.02e-01	0	41	0	217055232	61	5416
2026-01-11 03:11:01.96	320.43	17.09	-45.3	-48.4	21.9	6.03e-01	0	41	0	222822400	61	5401
2026-01-11 03:11:04.97	319.65	17.16	-45.3	-48.6	21.8	6.00e-01	0	41	0	228589568	61	5482
2026-01-11 03:11:07.98	318.86	17.23	-45.2	-48.5	21.9	5.98e-01	0	41	0	233832448	61	5415
2026-01-11 03:11:10.99	318.07	17.29	-45.2	-48.6	21.7	5.99e-01	0	41	0	239599616	61	5493
2026-01-11 03:11:14.00	317.27	17.35	-45.3	-48.5	21.9	6.01e-01	0	41	0	245366784	61	5433
2026-01-11 03:11:17.01	316.47	17.40	-45.3	-48.4	22.0	6.00e-01	0	41	0	251133952	61	5354
2026-01-11 03:11:20.02	315.67	17.44	-45.6	-48.7	21.7	6.01e-01	0	41	0	256376832	61	5542
2026-01-11 03:11:23.03	314.87	17.48	-45.6	-48.7	21.7	6.00e-01	0	41	0	262144000	62	5238
2026-01-11 03:11:26.03	314.06	17.52	-45.5	-48.9	21.5	6.02e-01	0	42	0	267911168	62	5393
2026-01-11 03:11:29.04	313.25	17.55	-45.4	-48.6	21.8	6.04e-01	0	41	0	273678336	62	5177
2026-01-11 03:11:32.05	312.45	17.57	-46.1	-49.4	21.1	6.02e-01	0	42	0	278921216	62	5670
2026-01-11 03:11:35.06	311.63	17.59	-45.5	-48.4	21.9	6.03e-01	0	41	0	284688384	62	5096
2026-01-11 03:11:38.07	310.82	17.60	-45.8	-49.0	21.4	6.03e-01	0	41	0	290455552	62	5454
2026-01-11 03:11:41.08	310.01	17.61	-45.5	-48.6	21.8	6.02e-01	0	42	0	296222720	62	5209
2026-01-11 03:11:44.09	309.20	17.61	-46.4	-50.0	20.5	6.02e-01	0	42	0	301465600	63	5759
2026-01-11 03:11:47.10	308.38	17.61	-45.8	-49.0	21.5	6.01e-01	0	41	0	307232768	63	5111
2026-01-11 03:11:50.11	307.57	17.60	-45.9	-48.9	21.5	6.03e-01	0	42	0	312999936	63	5077
2026-01-11 03:11:53.12	306.76	17.58	-46.0	-49.1	21.4	6.01e-01	0	41	0	318767104	63	5164
2026-01-11 03:11:56.13	305.95	17.56	-45.5	-48.5	21.9	6.03e-01	0	41	0	324009984	63	4824
2026-01-11 03:11:59.14	305.14	17.53	-46.1	-49.4	21.1	6.03e-01	0	42	0	329777152	63	5342
2026-01-11 03:12:02.15	304.33	17.50	-45.9	-48.9	21.5	6.02e-01	0	42	0	335544320	63	5078
2026-01-11 03:12:05.16	303.53	17.46	-45.8	-48.7	21.7	6.04e-01	0	42	0	341311488	63	4938
2026-01-11 03:12:08.17	302.72	17.42	-46.3	-49.4	21.0	6.02e-01	0	41	0	347078656	63	5393
2026-01-11 03:12:11.18	301.92	17.37	-46.6	-50.1	20.4	6.01e-01	0	42	0	352321536	64	5477
2026-01-11 03:12:14.19	301.12	17.32	-47.3	-51.3	19.1	6.00e-01	0	42	0	358088704	65	5931
2026-01-11 03:12:17.20	300.33	17.26	-46.8	-50.4	20.0	5.99e-01	0	42	0	363855872	65	5355
2026-01-11 03:12:20.21	299.54	17.19	-46.7	-50.1	20.2	6.03e-01	0	41	0	369623040	65	5209
2026-01-11 03:12:23.22	298.75	17.12	-46.7	-50.1	20.3	6.03e-01	0	41	0	374865920	65	5202
2026-01-11 03:12:26.23	297.96	17.05	-47.0	-50.8	19.7	6.00e-01	0	41	0	380633088	65	5615
2026-01-11 03:12:29.24	297.18	16.97	-46.2	-49.6	20.7	6.00e-01	0	41	0	386400256	64	5190
2026-01-11 03:12:32.25	296.41	16.89	-45.3	-48.2	22.1	6.02e-01	0	42	0	392167424	62	4958
2026-01-11 03:12:35.26	295.64	16.80	-46.3	-49.6	20.9	6.02e-01	0	41	0	397410304	63	5492
2026-01-11 03:12:38.27	294.87	16.70	-45.7	-48.7	21.7	6.02e-01	0	42	0	403177472	63	4941
2026-01-11 03:12:41.27	294.11	16.61	-45.9	-48.9	21.5	6.00e-01	0	42	0	408944640	63	5048
2026-01-11 03:12:44.28	293.36	16.50	-46.2	-49.3	21.2	6.03e-01	0	42	0	414711808	63	5281
2026-01-11 03:12:47.29	292.61	16.40	-46.0	-49.1	21.2	5.99e-01	0	41	0	420478976	63	5194
2026-01-11 03:12:50.31	291.86	16.29	-45.8	-48.8	21.5	6.02e-01	0	42	0	425721856	62	5340
2026-01-11 03:12:53.31	291.13	16.17	-46.2	-49.3	21.0	6.00e-01	0	42	0	431489024	63	5299
2026-01-11 03:12:56.32	290.39	16.05	-45.6	-48.6	21.8	6.02e-01	0	42	0	437256192	63	4890
2026-01-11 03:12:59.33	289.67	15.93	-45.9	-48.9	21.4	6.03e-01	0	41	0	442499072	63	5098
2026-01-11 03:13:02.34	288.95	15.81	-46.1	-49.4	21.0	6.04e-01	0	42	0	448266240	63	5369
2026-01-11 03:13:05.34	288.24	15.68	-46.4	-49.7	20.7	6.00e-01	0	42	0	454033408	63	5567
2026-01-11 03:13:08.35	287.53	15.54	-45.9	-49.0	21.4	6.02e-01	0	42	0	459800576	62	5405
2026-01-11 03:13:11.36	286.83	15.41	-45.8	-48.7	21.6	6.03e-01	0	42	0	465567744	62	5275
2026-01-11 03:13:14.37	286.14	15.27	-45.6	-48.5	21.8	6.02e-01	0	42	0	470810624	63	4842
2026-01-11 03:13:17.37	285.46	15.13	-45.8	-48.8	21.5	6.03e-01	0	42	0	476577792	63	5029
2026-01-11 03:13:20.39	284.78	14.98	-45.9	-49.0	21.4	6.02e-01	0	42	0	482344960	63	5118
2026-01-11 03:13:23.39	284.11	14.83	-45.7	-48.8	21.6	6.00e-01	0	42	0	487587840	63	5005
2026-01-11 03:13:26.40	283.44	14.68	-45.7	-48.7	21.7	6.03e-01	0	42	0	493355008	63	4935
2026-01-11 03:13:29.41	282.79	14.53	-45.8	-48.8	21.5	6.04e-01	0	42	0	499122176	63	5034
2026-01-11 03:13:32.42	282.14	14.37	-45.8	-48.9	21.5	6.02e-01	0	42	0	504889344	63	5048
2026-01-11 03:13:35.42	281.50	14.21	-46.0	-49.0	21.4	6.04e-01	0	42	0	510656512	63	5133
2026-01-11 03:13:38.43	280.86	14.05	-45.9	-48.9	21.5	6.04e-01	0	41	0	515899392	63	5060
2026-01-11 03:13:41.44	280.23	13.89	-45.9	-49.0	21.4	6.02e-01	0	42	0	521666560	63	5116
2026-01-11 03:13:44.45	279.61	13.73	-45.9	-48.9	21.5	6.04e-01	0	42	0	527433728	63	5080
2026-01-11 03:13:47.46	279.00	13.56	-45.7	-48.7	21.7	6.02e-01	0	42	0	533200896	63	4942
2026-01-11 03:13:50.47	278.39	13.39	-45.9	-49.0	21.4	6.03e-01	0	42	0	538443776	63	5122
2026-01-11 03:13:53.48	277.80	13.22	-45.8	-48.8	21.5	6.02e-01	0	42	0	544210944	63	5019
2026-01-11 03:13:56.48	277.21	13.05	-45.7	-48.9	21.4	6.01e-01	0	42	0	549978112	63	5059
2026-01-11 03:13:59.49	276.63	12.88	-45.8	-48.9	21.4	6.00e-01	0	41	0	555745280	63	5057
2026-01-11 03:14:02.50	276.05	12.70	-45.9	-49.0	21.3	6.01e-01	0	42	0	560988160	63	5149
2026-01-11 03:14:05.51	275.48	12.53	-45.8	-49.0	21.3	6.00e-01	0	42	0	566755328	63	5108
2026-01-11 03:14:08.53	274.92	12.35	-45.9	-49.1	21.2	6.02e-01	0	42	0	572522496	63	5193
2026-01-11 03:14:11.54	274.36	12.17	-46.0	-49.2	21.0	6.01e-01	0	42	0	578289664	63	5274
2026-01-11 03:14:14.55	273.82	11.99	-45.9	-49.2	21.1	6.00e-01	0	42	0	584056832	63	5221
2026-01-11 03:14:17.56	273.28	11.81	-45.9	-49.1	21.1	5.98e-01	0	41	0	589299712	63	5215
2026-01-11 03:14:20.57	272.75	11.63	-45.9	-49.1	21.1	6.04e-01	0	42	0	595066880	63	5185
2026-01-11 03:14:23.58	272.22	11.45	-45.9	-49.1	21.1	6.02e-01	0	42	0	600834048	63	5166
2026-01-11 03:14:26.59	271.70	11.27	-45.9	-49.2	21.0	6.04e-01	0	42	0	606076928	63	5230
2026-01-11 03:14:29.60	271.19	11.09	-46.0	-49.2	21.0	6.01e-01	0	42	0	611844096	63	5260
2026-01-11 03:14:32.61	270.69	10.91	-46.1	-49.4	20.8	6.00e-01	0	42	0	617611264	63	5364
2026-01-11 03:14:35.62	270.19	10.72	-46.2	-49.5	20.7	6.02e-01	0	42	0	623378432	63	5423
2026-01-11 03:14:38.63	269.70	10.54	-46.1	-49.4	20.7	6.02e-01	0	42	0	629145600	63	5397
2026-01-11 03:14:41.64	269.21	10.35	-46.0	-49.2	20.9	6.01e-01	0	42	0	634388480	63	5272
2026-01-11 03:14:44.65	268.74	10.17	-46.2	-49.6	20.6	6.03e-01	0	42	0	640155648	63	5475
2026-01-11 03:14:47.66	268.26	9.99	-46.2	-49.7	20.4	6.02e-01	0	42	0	645922816	63	5568
2026-01-11 03:14:50.67	267.80	9.80	-46.2	-49.6	20.4	6.02e-01	0	42	0	651689984	63	5525
2026-01-11 03:14:53.68	267.34	9.62	-46.3	-49.8	20.4	6.03e-01	0	42	0	656932864	63	5602
2026-01-11 03:14:56.69	266.89	9.43	-46.3	-49.7	20.4	6.01e-01	0	42	0	662700032	63	5582
2026-01-11 03:14:59.70	266.44	9.24	-46.3	-49.8	20.3	6.01e-01	0	42	0	668467200	63	5637
2026-01-11 03:15:02.71	266.01	9.06	-46.3	-49.8	20.3	6.01e-01	0	42	0	674234368	63	5617
2026-01-11 03:15:05.72	265.57	8.87	-51.5	-71.3	3.8	7.44e-01	0	42	104	676855808	73	37739
2026-01-11 03:15:08.74	265.14	8.69	-51.7	-72.0	3.8	7.47e-01	0	42	104	676855808	74	38385
2026-01-11 03:15:11.75	264.72	8.50	-52.1	-72.1	3.8	7.49e-01	0	42	104	676855808	74	38716
2026-01-11 03:15:14.76	264.31	8.32	-52.0	-72.1	3.8	7.46e-01	0	42	104	676855808	74	39042
2026-01-11 03:15:17.78	263.89	8.13	-52.0	-72.1	3.8	7.45e-01	0	42	104	676855808	74	38971
2026-01-11 03:15:20.79	263.49	7.95	-51.8	-72.1	3.8	7.46e-01	0	42	104	676855808	74	38933
2026-01-11 03:15:23.80	263.09	7.77	-52.2	-72.4	3.8	7.46e-01	0	42	104	676855808	75	37912
2026-01-11 03:15:26.81	262.70	7.58	-51.7	-72.1	3.8	7.45e-01	0	42	104	676855808	75	36752
2026-01-11 03:15:29.83	262.31	7.40	-51.5	-72.1	3.8	7.41e-01	0	42	104	676855808	75	36580
2026-01-11 03:15:32.84	261.93	7.21	-51.5	-72.0	3.8	7.46e-01	0	42	104	676855808	74	38684
2026-01-11 03:15:35.85	261.55	7.03	-51.6	-72.1	3.8	7.47e-01	0	42	104	676855808	74	38701
2026-01-11 03:15:38.87	261.18	6.85	-51.7	-72.0	3.8	7.45e-01	0	42	104	676855808	74	38635
2026-01-11 03:15:41.88	260.81	6.67	-51.6	-72.0	3.8	7.45e-01	0	42	104	676855808	74	38609
2026-01-11 03:15:44.89	260.45	6.48	-51.6	-72.0	3.8	7.45e-01	0	42	104	676855808	74	38560
2026-01-11 03:15:47.91	260.09	6.30	-51.7	-72.0	3.8	7.48e-01	0	42	104	676855808	74	38667
2026-01-11 03:15:50.92	259.74	6.12	-51.6	-72.0	3.8	7.48e-01	0	42	104	676855808	74	38558
2026-01-11 03:15:53.93	259.39	5.94	-51.6	-72.0	3.8	7.44e-01	0	42	104	676855808	74	38532
2026-01-11 03:15:56.94	259.05	5.76	-51.6	-72.0	3.8	7.46e-01	0	42	104	676855808	74	38564
2026-01-11 03:15:59.96	258.71	5.58	-51.6	-72.0	3.8	7.45e-01	0	42	104	676855808	74	38531
2026-01-11 03:16:02.97	258.38	5.40	-51.6	-72.0	3.8	7.46e-01	0	42	104	676855808	74	38567
2026-01-11 03:16:05.98	258.05	5.22	-51.6	-72.0	3.8	7.48e-01	0	42	104	676855808	74	38602
2026-01-11 03:16:09.00	257.73	5.05	-51.6	-72.0	3.8	7.49e-01	0	42	104	676855808	74	38649

#Closed at: 2026-01-11 03:16:11
#Recorded file [676 MB]: D:/Data/31040_260111_060716.dat