passes_logs/2026/01/11/T1/T1__20260111_150646_FENGYUN_3E_rec.log

#Pass ID: 20260111_150646_FENGYUN 3E
#Satellite: FENGYUN 3E
#Configuration: FENGYUN 3E
#almurnet v.1.7.20251203
#Start time: 2026-01-11 15:06:48

#Version: 2.0.20230620
#Station: T1
#Location: 37.570604 lon 55.790049 lat
#TLE: 1 49008U 21062A   26010.98903141  .00000148  00000+0  90257-4 0  9995
#TLE: 2 49008  98.7490  16.1644 0001865 146.3673 213.7622 14.19884943234274

#Time	Az	El	Level	Level2	SNR	BER	BlckErr	Temp	State	Recorded	gain1	gain2
2026-01-11 15:06:48.28	189.22	5.10	-51.5	-63.0	3.8	8.47e-01	0	37	0	0	73	13437
2026-01-11 15:06:52.25	189.43	5.37	-51.4	-62.8	3.8	8.46e-01	0	37	104	0	73	13241
2026-01-11 15:06:56.22	189.64	5.65	-51.3	-62.2	3.8	8.46e-01	0	37	104	0	73	12265
2026-01-11 15:07:00.19	189.86	5.92	-51.3	-62.0	3.8	8.47e-01	0	38	104	0	73	12060
2026-01-11 15:07:04.17	190.08	6.20	-51.2	-61.4	3.8	8.47e-01	0	38	104	0	73	11179
2026-01-11 15:07:08.14	190.30	6.48	-51.1	-60.5	4.0	8.46e-01	0	38	104	0	73	10168
2026-01-11 15:07:12.11	190.53	6.76	-51.1	-60.2	4.0	8.44e-01	0	38	104	0	73	9822
2026-01-11 15:07:16.08	190.76	7.05	-51.2	-60.7	3.9	8.45e-01	0	38	104	0	72	10977
2026-01-11 15:07:20.06	190.99	7.34	-51.4	-62.5	3.8	8.47e-01	0	38	104	0	72	13448
2026-01-11 15:07:24.03	191.24	7.63	-50.3	-56.5	5.6	6.88e-01	0	38	0	0	71	7162
2026-01-11 15:07:28.00	191.48	7.93	-46.0	-48.4	13.3	1.71e-05	0	39	0	28311552	62	4729
2026-01-11 15:07:31.97	191.73	8.23	-43.4	-45.2	16.3	0.00e+00	0	39	0	56623104	57	4364
2026-01-11 15:07:35.95	191.99	8.53	-43.9	-45.8	15.7	0.00e+00	0	39	0	85983232	57	4682
2026-01-11 15:07:39.92	192.25	8.83	-46.1	-48.6	13.2	9.10e-06	0	39	0	114294784	61	5114
2026-01-11 15:07:43.89	192.51	9.14	-47.8	-51.2	10.5	4.04e-03	0	39	0	142606336	65	5507
2026-01-11 15:07:47.87	192.78	9.45	-49.7	-54.8	7.0	7.71e-02	0	39	0	170917888	68	7000
2026-01-11 15:07:51.85	193.06	9.77	-44.7	-46.8	15.1	0.00e+00	0	39	0	200278016	60	4414
2026-01-11 15:07:55.83	193.34	10.09	-44.2	-46.1	15.6	0.00e+00	0	39	0	229638144	58	4554
2026-01-11 15:07:59.81	193.63	10.41	-43.8	-45.7	16.0	0.00e+00	0	39	0	257949696	58	4355
2026-01-11 15:08:03.79	193.93	10.73	-42.8	-44.5	17.2	0.00e+00	0	39	0	286261248	56	4255
2026-01-11 15:08:07.77	194.23	11.06	-42.3	-44.0	17.5	0.00e+00	0	39	0	314572800	55	4251
2026-01-11 15:08:11.75	194.54	11.40	-42.1	-43.7	17.8	0.00e+00	0	39	0	343932928	54	4367
2026-01-11 15:08:15.73	194.85	11.73	-42.3	-43.9	17.7	0.00e+00	0	39	0	372244480	54	4465
2026-01-11 15:08:19.70	195.17	12.08	-42.1	-43.7	17.9	0.00e+00	0	39	0	401604608	54	4342
2026-01-11 15:08:23.69	195.50	12.42	-41.9	-43.4	18.1	0.00e+00	0	40	0	429916160	54	4224
2026-01-11 15:08:27.67	195.84	12.77	-41.7	-43.3	18.2	0.00e+00	0	40	0	458227712	54	4146
2026-01-11 15:08:31.64	196.18	13.12	-41.7	-43.3	18.3	0.00e+00	0	39	0	487587840	54	4147
2026-01-11 15:08:35.62	196.54	13.48	-41.9	-43.5	18.0	0.00e+00	0	40	0	515899392	54	4278
2026-01-11 15:08:39.59	196.90	13.84	-41.9	-43.5	18.0	0.00e+00	0	39	0	545259520	54	4261
2026-01-11 15:08:43.58	197.27	14.21	-42.0	-43.6	17.9	0.00e+00	0	40	0	573571072	54	4329
2026-01-11 15:08:47.56	197.65	14.58	-41.5	-43.0	18.4	0.00e+00	0	40	0	601882624	53	4245
2026-01-11 15:08:51.53	198.03	14.96	-41.4	-42.8	18.6	0.00e+00	0	40	0	631242752	53	4193
2026-01-11 15:08:55.52	198.43	15.34	-41.3	-42.7	18.7	0.00e+00	0	40	0	659554304	53	4136
2026-01-11 15:08:59.50	198.84	15.72	-41.2	-42.6	18.8	0.00e+00	0	40	0	688914432	52	4297
2026-01-11 15:09:03.48	199.26	16.11	-41.1	-42.5	18.9	0.00e+00	0	40	0	717225984	52	4254
2026-01-11 15:09:07.45	199.68	16.51	-41.1	-42.5	18.9	0.00e+00	0	40	0	745537536	52	4273
2026-01-11 15:09:11.43	200.12	16.91	-41.1	-42.5	19.0	0.00e+00	0	40	0	774897664	52	4262
2026-01-11 15:09:15.41	200.57	17.31	-40.9	-42.3	19.1	0.00e+00	0	40	0	803209216	52	4164
2026-01-11 15:09:19.39	201.04	17.72	-40.7	-42.0	19.4	0.00e+00	0	40	0	832569344	52	4042
2026-01-11 15:09:23.36	201.51	18.14	-40.6	-41.9	19.5	0.00e+00	0	40	0	860880896	51	4227
2026-01-11 15:09:27.34	202.00	18.56	-40.4	-41.7	19.8	0.00e+00	0	40	0	889192448	51	4119
2026-01-11 15:09:31.32	202.50	18.98	-40.6	-41.9	19.6	0.00e+00	0	40	0	918552576	51	4218
2026-01-11 15:09:35.30	203.02	19.41	-40.5	-41.8	19.7	0.00e+00	0	40	0	946864128	51	4192
2026-01-11 15:09:39.28	203.54	19.85	-40.4	-41.8	19.7	0.00e+00	0	40	0	976224256	51	4159
2026-01-11 15:09:43.26	204.09	20.29	-40.2	-41.6	19.9	0.00e+00	0	40	0	1004535808	51	4061
2026-01-11 15:09:47.24	204.65	20.74	-40.2	-41.5	20.0	0.00e+00	0	40	0	1032847360	51	4034
2026-01-11 15:09:51.22	205.23	21.19	-39.8	-41.0	20.4	0.00e+00	0	40	0	1062207488	50	4043
2026-01-11 15:09:55.19	205.82	21.64	-39.9	-41.2	20.3	0.00e+00	0	40	0	1090519040	50	4116
2026-01-11 15:09:59.17	206.43	22.11	-40.0	-41.3	20.2	0.00e+00	0	40	0	1118830592	50	4165
2026-01-11 15:10:03.15	207.05	22.57	-39.9	-41.2	20.2	0.00e+00	0	40	0	1148190720	50	4107
2026-01-11 15:10:07.13	207.70	23.05	-39.9	-41.2	20.2	0.00e+00	0	40	0	1176502272	50	4124
2026-01-11 15:10:11.11	208.37	23.52	-39.7	-41.0	20.4	0.00e+00	0	40	0	1205862400	49	4249
2026-01-11 15:10:15.09	209.05	24.01	-39.7	-41.0	20.4	0.00e+00	0	40	0	1234173952	49	4268
2026-01-11 15:10:19.07	209.76	24.49	-39.7	-41.0	20.3	0.00e+00	0	40	0	1262485504	49	4279
2026-01-11 15:10:23.05	210.49	24.99	-39.7	-41.0	20.4	0.00e+00	0	40	0	1291845632	49	4289
2026-01-11 15:10:27.03	211.24	25.48	-39.5	-40.7	20.6	0.00e+00	0	40	0	1320157184	49	4138
2026-01-11 15:10:31.01	212.02	25.98	-39.5	-40.8	20.5	0.00e+00	0	40	0	1349517312	49	4174
2026-01-11 15:10:34.98	212.82	26.48	-39.5	-40.8	20.5	0.00e+00	0	40	0	1377828864	49	4164
2026-01-11 15:10:38.96	213.64	26.99	-39.3	-40.6	20.6	0.00e+00	0	40	0	1406140416	49	4084
2026-01-11 15:10:42.94	214.49	27.50	-39.4	-40.7	20.6	0.00e+00	0	40	0	1435500544	49	4100
2026-01-11 15:10:46.92	215.37	28.01	-39.3	-40.6	20.8	0.00e+00	0	40	0	1463812096	49	4058
2026-01-11 15:10:50.90	216.28	28.53	-39.2	-40.5	20.9	0.00e+00	0	40	0	1493172224	49	4008
2026-01-11 15:10:54.88	217.21	29.05	-39.4	-40.6	20.8	0.00e+00	0	40	0	1521483776	49	4084
2026-01-11 15:10:58.86	218.18	29.57	-39.6	-41.0	20.5	0.00e+00	0	40	0	1549795328	49	4243
2026-01-11 15:11:02.83	219.17	30.08	-39.4	-40.8	20.6	0.00e+00	0	40	0	1579155456	49	4157
2026-01-11 15:11:06.81	220.20	30.60	-39.4	-40.8	20.5	0.00e+00	0	40	0	1607467008	49	4167
2026-01-11 15:11:10.79	221.26	31.12	-39.4	-40.7	20.6	0.00e+00	0	40	0	1636827136	49	4140
2026-01-11 15:11:14.77	222.35	31.63	-39.5	-40.8	20.5	0.00e+00	0	40	0	1665138688	49	4177
2026-01-11 15:11:18.74	223.48	32.15	-39.2	-40.5	20.8	0.00e+00	0	40	0	1693450240	49	4011
2026-01-11 15:11:22.72	224.64	32.66	-39.3	-40.5	20.8	0.00e+00	0	40	0	1722810368	49	4050
2026-01-11 15:11:26.71	225.85	33.16	-39.3	-40.6	20.8	0.00e+00	0	40	0	1751121920	49	4059
2026-01-11 15:11:30.69	227.08	33.66	-39.5	-40.9	20.5	0.00e+00	0	40	0	1780482048	49	4202
2026-01-11 15:11:34.66	228.36	34.15	-39.3	-40.6	20.7	0.00e+00	0	40	0	1808793600	49	4075
2026-01-11 15:11:38.64	229.67	34.63	-39.1	-40.4	20.9	0.00e+00	0	41	0	1837105152	48	4196
2026-01-11 15:11:42.62	231.02	35.11	-39.2	-40.5	20.9	0.00e+00	0	40	0	1866465280	48	4246
2026-01-11 15:11:46.60	232.41	35.57	-39.4	-40.6	20.8	0.00e+00	0	40	0	1894776832	48	4335
2026-01-11 15:11:50.58	233.84	36.02	-39.1	-40.3	21.1	0.00e+00	0	40	0	1924136960	48	4169
2026-01-11 15:11:54.56	235.31	36.46	-39.3	-40.7	20.7	0.00e+00	0	40	0	1952448512	48	4354
2026-01-11 15:11:58.54	236.82	36.88	-39.3	-40.5	20.9	0.00e+00	0	40	0	1980760064	48	4281
2026-01-11 15:12:02.51	238.36	37.28	-39.2	-40.4	20.9	0.00e+00	0	40	0	2010120192	48	4219
2026-01-11 15:12:06.49	239.94	37.67	-39.1	-40.3	21.1	0.00e+00	0	40	0	2038431744	48	4162
2026-01-11 15:12:10.47	241.56	38.03	-39.4	-40.6	20.8	0.00e+00	0	40	0	2066743296	48	4333
2026-01-11 15:12:14.45	243.21	38.37	-39.4	-40.7	20.7	0.00e+00	0	40	0	2096103424	48	4374
2026-01-11 15:12:18.43	244.90	38.69	-39.6	-40.9	20.5	0.00e+00	0	40	0	2124414976	48	4446
2026-01-11 15:12:22.41	246.61	38.98	-39.3	-40.6	20.9	0.00e+00	0	41	0	2153775104	48	4293
2026-01-11 15:12:26.39	248.36	39.25	-39.3	-40.6	20.9	0.00e+00	0	40	0	2182086656	48	4299
2026-01-11 15:12:30.37	250.13	39.49	-39.5	-40.4	21.4	0.00e+00	0	40	0	2210398208	48	4221
2026-01-11 15:12:34.35	251.93	39.70	-39.8	-40.7	21.2	0.00e+00	0	40	0	2239758336	48	4349
2026-01-11 15:12:38.33	253.75	39.88	-39.5	-40.4	21.5	0.00e+00	0	40	0	2268069888	49	3962
2026-01-11 15:12:42.31	255.59	40.03	-39.4	-40.2	21.6	0.00e+00	0	40	0	2297430016	49	3909
2026-01-11 15:12:46.29	257.44	40.14	-39.7	-40.6	21.3	0.00e+00	0	40	0	2325741568	49	4091
2026-01-11 15:12:50.27	259.30	40.23	-39.8	-40.7	21.2	0.00e+00	0	40	0	2354053120	49	4128
2026-01-11 15:12:54.25	261.17	40.28	-40.0	-41.0	21.0	0.00e+00	0	41	0	2383413248	49	4244
2026-01-11 15:12:58.23	263.05	40.29	-39.8	-40.7	21.2	0.00e+00	0	41	0	2411724800	49	4143
2026-01-11 15:13:02.21	264.92	40.27	-39.7	-40.6	21.3	0.00e+00	0	41	0	2441084928	49	4086
2026-01-11 15:13:06.19	266.79	40.22	-39.7	-40.6	21.3	0.00e+00	0	41	0	2469396480	49	4082
2026-01-11 15:13:10.17	268.65	40.14	-39.5	-40.4	21.5	0.00e+00	0	41	0	2497708032	49	3994
2026-01-11 15:13:14.15	270.50	40.02	-40.0	-40.9	21.0	0.00e+00	0	40	0	2527068160	49	4242
2026-01-11 15:13:18.13	272.33	39.87	-39.8	-40.7	21.3	0.00e+00	0	41	0	2555379712	49	4106
2026-01-11 15:13:22.11	274.15	39.69	-39.8	-40.7	21.2	0.00e+00	0	41	0	2584739840	49	4123
2026-01-11 15:13:26.09	275.94	39.48	-39.8	-40.7	21.3	0.00e+00	0	41	0	2613051392	49	4101
2026-01-11 15:13:30.07	277.71	39.24	-39.6	-40.5	21.4	0.00e+00	0	41	0	2641362944	49	4030
2026-01-11 15:13:34.05	279.46	38.97	-39.5	-40.3	21.6	0.00e+00	0	41	0	2670723072	49	3940
2026-01-11 15:13:38.03	281.17	38.67	-39.9	-40.8	21.1	0.00e+00	0	41	0	2699034624	49	4162
2026-01-11 15:13:42.01	282.85	38.36	-39.5	-40.4	21.5	0.00e+00	0	40	0	2728394752	49	3972
2026-01-11 15:13:45.98	284.49	38.01	-39.5	-40.4	21.5	0.00e+00	0	40	0	2756706304	49	3968
2026-01-11 15:13:49.96	286.10	37.65	-39.8	-40.6	21.3	0.00e+00	0	41	0	2785017856	49	4092
2026-01-11 15:13:53.94	287.68	37.27	-40.1	-41.0	21.0	0.00e+00	0	41	0	2814377984	49	4260
2026-01-11 15:13:57.92	289.22	36.86	-39.9	-40.8	21.1	0.00e+00	0	41	0	2842689536	49	4172
2026-01-11 15:14:01.90	290.72	36.44	-39.6	-40.5	21.4	0.00e+00	0	40	0	2872049664	49	4041
2026-01-11 15:14:05.88	292.18	36.01	-39.8	-40.7	21.2	0.00e+00	0	41	0	2900361216	49	4125
2026-01-11 15:14:09.86	293.60	35.56	-39.7	-40.6	21.4	0.00e+00	0	41	0	2928672768	49	4052
2026-01-11 15:14:13.84	294.99	35.10	-39.6	-40.5	21.4	0.00e+00	0	41	0	2958032896	49	4044
2026-01-11 15:14:17.82	296.33	34.63	-39.6	-40.5	21.4	0.00e+00	0	41	0	2986344448	49	4036
2026-01-11 15:14:21.80	297.64	34.14	-39.7	-40.6	21.3	0.00e+00	0	41	0	3015704576	49	4083
2026-01-11 15:14:25.78	298.91	33.65	-40.0	-40.9	21.1	0.00e+00	0	41	0	3044016128	49	4202
2026-01-11 15:14:29.75	300.14	33.16	-39.9	-40.8	20.9	0.00e+00	0	41	0	3072327680	49	4167
2026-01-11 15:14:33.73	301.33	32.66	-39.7	-40.6	21.3	0.00e+00	0	41	0	3100639232	49	4073
2026-01-11 15:14:37.71	302.49	32.15	-39.8	-40.7	21.2	0.00e+00	0	41	0	3129999360	49	4117
2026-01-11 15:14:41.69	303.62	31.64	-40.1	-41.0	20.9	0.00e+00	0	41	0	3159359488	49	4265
2026-01-11 15:14:45.67	304.71	31.13	-39.9	-40.8	21.1	0.00e+00	0	41	0	3187671040	50	3954
2026-01-11 15:14:49.65	305.76	30.61	-39.7	-40.5	21.3	0.00e+00	0	41	0	3215982592	50	3823
2026-01-11 15:14:53.63	306.78	30.10	-40.0	-40.9	21.0	0.00e+00	0	41	0	3245342720	50	3990
2026-01-11 15:14:57.61	307.78	29.58	-40.0	-41.0	21.0	0.00e+00	0	41	0	3273654272	50	4008
2026-01-11 15:15:01.59	308.74	29.07	-39.9	-40.8	21.1	0.00e+00	0	41	0	3303014400	50	3931
2026-01-11 15:15:05.57	309.67	28.55	-39.8	-40.7	21.2	0.00e+00	0	41	0	3331325952	50	3904
2026-01-11 15:15:09.54	310.57	28.04	-40.2	-41.1	20.8	0.00e+00	0	41	0	3359637504	50	4079
2026-01-11 15:15:13.52	311.44	27.53	-40.1	-41.0	21.0	0.00e+00	0	41	0	3387949056	50	4014
2026-01-11 15:15:17.50	312.29	27.03	-39.9	-40.8	21.1	0.00e+00	0	41	0	3417309184	50	3939
2026-01-11 15:15:21.48	313.11	26.52	-39.9	-40.8	21.1	0.00e+00	0	41	0	3445620736	50	3958
2026-01-11 15:15:25.46	313.91	26.02	-40.0	-40.9	21.0	0.00e+00	0	41	0	3474980864	50	3995
2026-01-11 15:15:29.44	314.68	25.53	-40.2	-41.1	20.8	0.00e+00	0	41	0	3503292416	50	4077
2026-01-11 15:15:33.42	315.43	25.03	-40.1	-41.1	20.8	0.00e+00	0	41	0	3531603968	50	4067
2026-01-11 15:15:37.39	316.16	24.55	-40.2	-41.1	20.7	0.00e+00	0	41	0	3560964096	50	4096
2026-01-11 15:15:41.37	316.86	24.06	-40.4	-41.3	20.6	0.00e+00	0	41	0	3589275648	50	4184
2026-01-11 15:15:45.35	317.55	23.59	-40.2	-41.1	20.8	0.00e+00	0	41	0	3618635776	50	4094
2026-01-11 15:15:49.33	318.21	23.11	-40.2	-41.1	20.7	0.00e+00	0	41	0	3646947328	50	4086
2026-01-11 15:15:53.30	318.86	22.64	-40.1	-41.1	20.8	0.00e+00	0	41	0	3675258880	50	4061
2026-01-11 15:15:57.28	319.48	22.18	-40.5	-41.4	20.5	0.00e+00	0	41	0	3704619008	50	4233
2026-01-11 15:16:01.27	320.09	21.72	-40.7	-41.7	20.2	0.00e+00	0	41	0	3732930560	50	4346
2026-01-11 15:16:05.24	320.69	21.27	-40.5	-41.5	20.4	0.00e+00	0	41	0	3762290688	50	4244
2026-01-11 15:16:09.22	321.26	20.82	-40.5	-41.4	20.4	0.00e+00	0	41	0	3790602240	50	4240
2026-01-11 15:16:13.20	321.82	20.37	-40.8	-41.7	20.2	0.00e+00	0	41	0	3818913792	50	4377
2026-01-11 15:16:17.18	322.36	19.94	-41.0	-41.9	19.9	0.00e+00	0	41	0	3848273920	51	4240
2026-01-11 15:16:21.16	322.89	19.50	-41.0	-42.0	19.9	0.00e+00	0	41	0	3876585472	51	4284
2026-01-11 15:16:25.14	323.41	19.08	-41.0	-42.1	19.8	0.00e+00	0	41	0	3905945600	51	4296
2026-01-11 15:16:29.12	323.91	18.65	-40.9	-42.0	19.9	0.00e+00	0	41	0	3934257152	51	4246
2026-01-11 15:16:33.09	324.40	18.24	-41.0	-41.9	19.9	0.00e+00	0	41	0	3962568704	51	4238
2026-01-11 15:16:37.07	324.87	17.82	-41.2	-42.2	19.7	0.00e+00	0	41	0	3991928832	51	4342
2026-01-11 15:16:41.05	325.34	17.42	-41.4	-42.4	19.4	0.00e+00	0	41	0	4020240384	52	4219
2026-01-11 15:16:45.03	325.79	17.02	-41.4	-42.6	19.2	0.00e+00	0	41	0	4048551936	52	4296
2026-01-11 15:16:49.01	326.23	16.62	-41.5	-42.6	19.2	0.00e+00	0	41	0	4077912064	52	4329
2026-01-11 15:16:52.98	326.66	16.23	-41.6	-42.7	19.1	0.00e+00	0	41	0	4106223616	52	4355
2026-01-11 15:16:56.96	327.08	15.84	-41.6	-42.7	19.1	0.00e+00	0	41	0	4135583744	52	4372
2026-01-11 15:17:00.94	327.48	15.46	-41.7	-42.8	19.0	0.00e+00	0	41	0	4163895296	53	4164
2026-01-11 15:17:04.92	327.88	15.08	-41.8	-42.9	18.9	0.00e+00	0	41	0	4192206848	53	4194
2026-01-11 15:17:08.90	328.27	14.71	-41.8	-42.9	18.9	0.00e+00	0	41	0	4221566976	53	4208
2026-01-11 15:17:12.88	328.65	14.34	-42.0	-43.1	18.7	0.00e+00	0	41	0	4249878528	53	4298
2026-01-11 15:17:16.86	329.02	13.97	-42.2	-43.4	18.4	0.00e+00	0	41	0	4279238656	53	4447
2026-01-11 15:17:20.82	329.39	13.61	-42.5	-43.7	18.1	0.00e+00	0	41	0	4307550208	54	4384
2026-01-11 15:17:24.80	329.74	13.26	-42.6	-43.8	18.0	0.00e+00	0	41	0	4335861760	54	4403
2026-01-11 15:17:28.78	330.09	12.91	-42.5	-43.7	18.1	0.00e+00	0	41	0	4365221888	54	4352
2026-01-11 15:17:32.76	330.43	12.56	-42.4	-43.6	18.1	0.00e+00	0	41	0	4393533440	54	4325
2026-01-11 15:17:36.74	330.76	12.22	-42.5	-43.8	18.0	0.00e+00	0	41	0	4422893568	54	4402
2026-01-11 15:17:40.72	331.08	11.88	-42.6	-43.8	17.9	0.00e+00	0	41	0	4451205120	54	4422
2026-01-11 15:17:44.70	331.40	11.54	-42.9	-44.1	17.6	0.00e+00	0	41	0	4479516672	55	4322
2026-01-11 15:17:48.68	331.71	11.21	-43.0	-44.2	17.5	0.00e+00	0	41	0	4508876800	55	4386
2026-01-11 15:17:52.66	332.01	10.88	-42.9	-44.1	17.6	0.00e+00	0	41	0	4537188352	55	4333
2026-01-11 15:17:56.65	332.31	10.56	-43.0	-44.3	17.4	0.00e+00	0	41	0	4566548480	55	4415
2026-01-11 15:18:00.63	332.60	10.24	-42.9	-44.2	17.5	0.00e+00	0	41	0	4594860032	55	4356
2026-01-11 15:18:04.61	332.89	9.92	-43.0	-44.3	17.3	0.00e+00	0	41	0	4623171584	55	4409
2026-01-11 15:18:08.59	333.17	9.61	-43.1	-44.3	17.3	0.00e+00	0	41	0	4652531712	55	4441
2026-01-11 15:18:12.57	333.44	9.30	-43.1	-44.5	17.1	0.00e+00	0	41	0	4680843264	55	4507
2026-01-11 15:18:16.55	333.71	8.99	-44.0	-45.5	16.3	0.00e+00	0	41	0	4710203392	57	4520
2026-01-11 15:18:20.52	333.98	8.69	-52.5	-63.5	3.8	8.46e-01	0	41	104	4712300544	74	13517
2026-01-11 15:18:24.49	334.24	8.39	-52.5	-63.8	3.8	8.46e-01	0	41	104	4712300544	74	13924
2026-01-11 15:18:28.46	334.49	8.09	-53.0	-63.8	3.8	8.46e-01	0	41	104	4712300544	75	13210
2026-01-11 15:18:32.44	334.74	7.80	-53.2	-63.8	3.8	8.47e-01	0	41	104	4712300544	75	13154
2026-01-11 15:18:36.41	334.98	7.51	-53.0	-63.7	3.8	8.47e-01	0	41	104	4712300544	75	13065
2026-01-11 15:18:40.38	335.22	7.22	-52.9	-63.7	3.8	8.46e-01	0	41	104	4712300544	75	13068
2026-01-11 15:18:44.35	335.46	6.94	-52.8	-63.7	3.8	8.46e-01	0	41	104	4712300544	75	13055
2026-01-11 15:18:48.33	335.69	6.66	-52.8	-63.7	3.8	8.48e-01	0	41	104	4712300544	75	13018
2026-01-11 15:18:52.30	335.92	6.38	-52.8	-63.6	3.8	8.47e-01	0	41	104	4712300544	75	12948
2026-01-11 15:18:56.27	336.14	6.10	-52.8	-63.7	3.8	8.47e-01	0	42	104	4712300544	75	12979
2026-01-11 15:19:00.24	336.36	5.83	-52.8	-63.7	3.8	8.47e-01	0	41	104	4712300544	75	13024
2026-01-11 15:19:04.21	336.57	5.55	-52.8	-63.7	3.8	8.46e-01	0	41	104	4712300544	75	12997
2026-01-11 15:19:08.19	336.79	5.28	-52.8	-63.6	3.8	8.47e-01	0	42	104	4712300544	75	12951
2026-01-11 15:19:12.16	337.00	5.02	-52.8	-63.7	3.8	8.48e-01	0	42	104	4712300544	75	12991

#Closed at: 2026-01-11 15:19:14
#Recorded file [4712 MB]: D:/Data/31040_260111_180648.dat