passes_logs/2026/01/11/T1/T1__20260111_023129_SUOMI_NPP_rec.log

#Pass ID: 20260111_023129_SUOMI NPP
#Satellite: SUOMI NPP
#Configuration: NPP
#almurnet v.1.7.20251203
#Start time: 2026-01-11 02:31:29

#Version: 2.0.20230620
#Station: T1
#Location: 37.570604 lon 55.790049 lat
#TLE: 1 37849U 11061A   26009.81756760  .00000113  00000+0  74747-4 0  9994
#TLE: 2 37849  98.7806 311.9110 0002525  72.5604 287.5848 14.19524046735974

#Time	Az	El	Level	Level2	SNR	BER	BlckErr	Temp	State	Recorded	gain1	gain2
2026-01-11 02:31:29.12	359.92	5.00	-49.0	-65.3	3.8	1.49e+00	0	36	0	0	68	25121
2026-01-11 02:31:31.12	359.68	5.08	-46.5	-64.9	3.8	1.49e+00	0	36	104	0	63	32094
2026-01-11 02:31:33.13	359.43	5.17	-46.5	-64.9	3.8	1.49e+00	0	36	104	0	63	32021
2026-01-11 02:31:35.14	359.18	5.25	-46.5	-64.9	3.8	1.49e+00	0	37	104	0	63	32075
2026-01-11 02:31:37.15	358.93	5.33	-46.5	-64.9	3.8	1.49e+00	0	37	104	0	63	31853
2026-01-11 02:31:39.16	358.68	5.42	-46.5	-64.9	3.8	1.49e+00	0	37	104	0	63	32106
2026-01-11 02:31:41.17	358.43	5.50	-46.5	-64.9	3.8	1.49e+00	0	37	104	0	63	31912
2026-01-11 02:31:43.18	358.17	5.58	-46.6	-64.9	3.8	1.49e+00	0	37	104	0	63	31906
2026-01-11 02:31:45.18	357.92	5.66	-46.5	-64.9	3.8	1.49e+00	0	37	104	0	63	31904
2026-01-11 02:31:47.20	357.66	5.75	-46.5	-64.9	3.8	1.49e+00	0	37	104	0	63	32034
2026-01-11 02:31:49.20	357.40	5.83	-46.5	-64.9	3.8	1.49e+00	0	37	104	0	63	31998
2026-01-11 02:31:51.21	357.14	5.91	-46.5	-64.9	3.8	1.49e+00	0	37	104	0	63	31948
2026-01-11 02:31:53.22	356.88	5.99	-46.6	-64.9	3.8	1.49e+00	0	37	104	0	63	31921
2026-01-11 02:31:55.23	356.61	6.07	-46.6	-64.9	3.8	1.49e+00	0	37	104	0	63	32010
2026-01-11 02:31:57.24	356.35	6.15	-46.5	-64.9	3.8	1.49e+00	0	38	104	0	63	32033
2026-01-11 02:31:59.25	356.08	6.23	-46.6	-64.9	3.8	1.49e+00	0	37	104	0	63	31944
2026-01-11 02:32:01.25	355.81	6.31	-46.6	-64.9	3.8	1.49e+00	0	37	104	0	63	32049
2026-01-11 02:32:03.26	355.55	6.39	-46.6	-64.9	3.8	1.49e+00	0	38	104	0	63	31967
2026-01-11 02:32:05.27	355.27	6.47	-46.6	-64.9	3.8	1.49e+00	0	38	104	0	63	31983
2026-01-11 02:32:07.28	355.00	6.55	-46.6	-64.9	3.8	1.49e+00	0	38	104	0	63	31983
2026-01-11 02:32:09.29	354.73	6.63	-46.6	-64.9	3.8	1.49e+00	0	38	104	0	63	32021
2026-01-11 02:32:11.30	354.45	6.71	-46.6	-64.9	3.8	1.49e+00	0	38	104	0	63	31900
2026-01-11 02:32:13.31	354.17	6.78	-46.6	-64.9	3.8	1.49e+00	0	38	104	0	63	32061
2026-01-11 02:32:15.31	353.90	6.86	-46.6	-64.9	3.8	1.49e+00	0	38	104	0	63	32045
2026-01-11 02:32:17.32	353.62	6.94	-46.6	-64.9	3.8	1.49e+00	0	38	104	0	63	32056
2026-01-11 02:32:19.33	353.34	7.01	-46.6	-64.9	3.8	1.49e+00	0	38	104	0	63	32057
2026-01-11 02:32:21.34	353.05	7.09	-46.6	-64.9	3.8	1.49e+00	0	38	104	0	63	31985
2026-01-11 02:32:23.35	352.77	7.17	-46.6	-65.0	3.8	1.49e+00	0	38	104	0	63	32198
2026-01-11 02:32:25.36	352.48	7.24	-46.6	-64.9	3.8	1.49e+00	0	38	104	0	63	32024
2026-01-11 02:32:27.36	352.20	7.32	-46.3	-64.9	3.8	1.49e+00	0	38	104	0	63	31913
2026-01-11 02:32:29.37	351.91	7.39	-46.6	-64.9	3.8	1.49e+00	0	38	104	0	63	31872
2026-01-11 02:32:31.38	351.62	7.46	-46.5	-64.9	3.8	1.49e+00	0	38	104	0	63	31873
2026-01-11 02:32:33.39	351.32	7.54	-46.6	-64.9	3.8	1.49e+00	0	38	104	0	63	31899
2026-01-11 02:32:35.40	351.03	7.61	-46.6	-64.8	3.8	1.49e+00	0	38	104	0	63	31758
2026-01-11 02:32:37.41	350.73	7.68	-46.6	-64.8	3.8	1.49e+00	0	38	104	0	63	31497
2026-01-11 02:32:39.41	350.44	7.75	-46.5	-64.8	3.8	1.49e+00	0	38	104	0	63	31663
2026-01-11 02:32:41.42	350.14	7.82	-46.6	-64.9	3.8	1.49e+00	0	38	104	0	63	31948
2026-01-11 02:32:43.43	349.84	7.89	-46.6	-64.9	3.8	1.49e+00	0	38	104	0	63	32015
2026-01-11 02:32:45.44	349.54	7.97	-46.6	-64.9	3.8	1.49e+00	0	38	104	0	63	31900
2026-01-11 02:32:47.45	349.24	8.03	-46.6	-64.8	3.8	1.49e+00	0	38	104	0	63	31581
2026-01-11 02:32:49.46	348.93	8.10	-46.6	-64.8	3.8	1.49e+00	0	38	104	0	63	31619
2026-01-11 02:32:51.47	348.63	8.17	-46.6	-64.8	3.8	1.49e+00	0	39	104	0	63	31738
2026-01-11 02:32:53.48	348.32	8.24	-46.6	-64.9	3.8	1.49e+00	0	38	104	0	63	31834
2026-01-11 02:32:55.49	348.01	8.31	-46.6	-64.9	3.8	1.49e+00	0	38	104	0	63	32037
2026-01-11 02:32:57.49	347.70	8.37	-46.6	-64.9	3.8	1.49e+00	0	39	104	0	63	32056
2026-01-11 02:32:59.50	347.39	8.44	-46.6	-64.8	3.8	1.49e+00	0	39	104	0	63	31678
2026-01-11 02:33:01.51	347.08	8.50	-46.6	-64.7	3.8	1.49e+00	0	39	104	0	63	31149
2026-01-11 02:33:03.52	346.76	8.57	-46.7	-64.7	3.8	1.49e+00	0	39	104	0	63	31355
2026-01-11 02:33:05.53	346.45	8.63	-46.6	-64.1	3.8	1.49e+00	0	39	104	0	63	29172
2026-01-11 02:33:07.54	346.13	8.70	-46.6	-63.3	3.8	1.49e+00	0	39	104	0	63	26629
2026-01-11 02:33:09.55	345.81	8.76	-46.6	-62.6	3.8	1.49e+00	0	39	104	0	63	24684
2026-01-11 02:33:11.56	345.49	8.82	-46.5	-60.1	4.6	1.14e+00	0	39	0	1048576	63	18391
2026-01-11 02:33:13.56	345.17	8.88	-46.3	-58.0	5.8	5.01e-01	0	39	0	4194304	63	14486
2026-01-11 02:33:15.57	344.85	8.94	-45.9	-55.1	8.4	8.94e-02	0	38	0	8388608	63	10297
2026-01-11 02:33:17.58	344.53	9.00	-45.1	-51.8	11.8	8.80e-04	0	39	0	11534336	62	7488
2026-01-11 02:33:19.59	344.20	9.06	-45.3	-52.8	10.9	1.98e-05	0	39	0	15728640	61	8953
2026-01-11 02:33:21.59	343.88	9.12	-45.8	-54.3	9.5	6.10e-05	0	39	0	19922944	62	9997
2026-01-11 02:33:23.60	343.55	9.18	-44.1	-49.3	14.2	7.00e-07	0	39	0	23068672	59	6677
2026-01-11 02:33:25.60	343.22	9.23	-44.3	-49.4	14.1	7.00e-07	0	39	0	27262976	59	6765
2026-01-11 02:33:27.61	342.89	9.29	-44.7	-49.5	14.1	0.00e+00	0	39	0	30408704	60	6471
2026-01-11 02:33:29.62	342.56	9.35	-45.0	-49.5	14.1	7.00e-07	0	39	0	34603008	60	6427
2026-01-11 02:33:31.62	342.22	9.40	-45.0	-49.5	14.1	2.20e-06	0	39	0	37748736	60	6462
2026-01-11 02:33:33.62	341.89	9.45	-44.9	-49.7	13.9	5.30e-06	0	39	0	41943040	60	6644
2026-01-11 02:33:35.63	341.56	9.51	-45.0	-49.9	13.7	4.50e-06	0	39	0	46137344	60	6776
2026-01-11 02:33:37.63	341.22	9.56	-45.1	-49.9	13.8	3.00e-06	0	39	0	49283072	60	6735
2026-01-11 02:33:39.64	340.88	9.61	-45.2	-49.8	13.9	2.20e-06	0	39	0	53477376	61	6281
2026-01-11 02:33:41.65	340.54	9.66	-45.4	-49.8	13.9	7.00e-07	0	39	0	56623104	61	6281
2026-01-11 02:33:43.65	340.20	9.71	-45.3	-49.6	14.1	1.50e-06	0	38	0	60817408	61	6133
2026-01-11 02:33:45.66	339.86	9.76	-45.3	-49.6	14.1	0.00e+00	0	39	0	65011712	61	6134
2026-01-11 02:33:47.66	339.52	9.80	-44.9	-48.8	14.8	1.50e-06	0	39	0	68157440	61	5654
2026-01-11 02:33:49.67	339.18	9.85	-44.8	-48.3	15.3	0.00e+00	0	39	0	72351744	61	5336
2026-01-11 02:33:51.68	338.83	9.90	-44.8	-48.4	15.3	0.00e+00	0	39	0	75497472	61	5347
2026-01-11 02:33:53.68	338.49	9.94	-44.5	-48.0	15.5	0.00e+00	0	39	0	79691776	61	5159
2026-01-11 02:33:55.69	338.14	9.99	-44.6	-48.2	15.4	0.00e+00	0	39	0	83886080	61	5241
2026-01-11 02:33:57.69	337.79	10.03	-44.7	-48.3	15.3	7.00e-07	0	39	0	87031808	61	5312
2026-01-11 02:33:59.70	337.44	10.07	-44.8	-48.5	15.1	0.00e+00	0	39	0	91226112	61	5427
2026-01-11 02:34:01.70	337.09	10.11	-44.5	-48.1	15.5	0.00e+00	0	39	0	94371840	61	5200
2026-01-11 02:34:03.71	336.74	10.15	-44.8	-48.7	15.0	0.00e+00	0	39	0	98566144	61	5555
2026-01-11 02:34:05.72	336.39	10.19	-45.0	-49.2	14.4	0.00e+00	0	39	0	101711872	61	5890
2026-01-11 02:34:07.72	336.04	10.23	-45.3	-49.8	13.9	2.20e-06	0	39	0	105906176	61	6344
2026-01-11 02:34:09.73	335.68	10.27	-45.4	-50.1	13.6	6.80e-06	0	39	0	110100480	61	6512
2026-01-11 02:34:11.73	335.33	10.30	-45.4	-49.8	14.0	3.80e-06	0	39	0	113246208	61	6283
2026-01-11 02:34:13.74	334.97	10.34	-45.5	-49.5	14.2	1.50e-06	0	39	0	117440512	61	6126
2026-01-11 02:34:15.75	334.62	10.37	-45.7	-49.6	14.1	2.20e-06	0	39	0	120586240	62	5854
2026-01-11 02:34:17.76	334.26	10.41	-45.6	-49.7	14.0	7.00e-07	0	39	0	124780544	62	5904
2026-01-11 02:34:19.76	333.90	10.44	-45.6	-49.7	14.0	1.50e-06	0	39	0	128974848	62	5899
2026-01-11 02:34:21.77	333.54	10.47	-45.8	-49.9	13.8	3.80e-06	0	39	0	132120576	62	6053
2026-01-11 02:34:23.77	333.18	10.50	-45.7	-49.6	14.2	1.50e-06	0	39	0	136314880	62	5796
2026-01-11 02:34:25.78	332.82	10.53	-45.5	-49.4	14.4	7.00e-07	0	39	0	139460608	62	5665
2026-01-11 02:34:27.79	332.46	10.56	-45.1	-49.0	14.7	0.00e+00	0	39	0	143654912	62	5419
2026-01-11 02:34:29.79	332.10	10.58	-44.9	-48.7	14.9	0.00e+00	0	39	0	146800640	61	5588
2026-01-11 02:34:31.80	331.74	10.61	-45.4	-49.4	14.3	0.00e+00	0	39	0	150994944	61	6029
2026-01-11 02:34:33.80	331.37	10.63	-45.7	-49.7	14.1	7.00e-07	0	39	0	155189248	62	5883
2026-01-11 02:34:35.81	331.01	10.66	-45.7	-49.6	14.1	7.00e-07	0	39	0	158334976	62	5818
2026-01-11 02:34:37.82	330.65	10.68	-45.4	-49.3	14.5	7.00e-07	0	39	0	162529280	62	5596
2026-01-11 02:34:39.82	330.28	10.70	-45.1	-48.8	14.9	7.00e-07	0	39	0	165675008	62	5305
2026-01-11 02:34:41.83	329.92	10.72	-45.4	-49.2	14.5	7.00e-07	0	39	0	169869312	62	5588
2026-01-11 02:34:43.83	329.55	10.74	-45.6	-49.5	14.2	3.00e-06	0	39	0	174063616	62	5769
2026-01-11 02:34:45.84	329.18	10.76	-45.8	-49.8	13.9	3.00e-06	0	39	0	177209344	62	5979
2026-01-11 02:34:47.85	328.82	10.78	-45.5	-49.5	14.2	7.00e-07	0	39	0	181403648	62	5747
2026-01-11 02:34:49.85	328.45	10.79	-45.2	-49.1	14.6	1.50e-06	0	39	0	184549376	62	5517
2026-01-11 02:34:51.86	328.08	10.81	-44.8	-48.5	15.1	0.00e+00	0	39	0	188743680	61	5458
2026-01-11 02:34:53.87	327.71	10.82	-45.0	-48.6	15.1	0.00e+00	0	39	0	191889408	61	5467
2026-01-11 02:34:55.87	327.35	10.83	-45.1	-48.6	15.1	0.00e+00	0	39	0	196083712	61	5508
2026-01-11 02:34:57.87	326.98	10.85	-45.3	-49.1	14.7	0.00e+00	0	39	0	200278016	61	5802
2026-01-11 02:34:59.88	326.61	10.86	-45.1	-49.1	14.6	0.00e+00	0	39	0	203423744	61	5806
2026-01-11 02:35:01.89	326.24	10.87	-45.0	-48.8	14.9	0.00e+00	0	39	0	207618048	61	5642
2026-01-11 02:35:03.89	325.87	10.87	-44.9	-48.5	15.2	0.00e+00	0	39	0	210763776	61	5442
2026-01-11 02:35:05.90	325.50	10.88	-44.7	-48.1	15.5	0.00e+00	0	39	0	214958080	61	5206
2026-01-11 02:35:07.91	325.13	10.89	-44.3	-47.8	15.8	0.00e+00	0	39	0	219152384	60	5334
2026-01-11 02:35:09.91	324.76	10.89	-44.1	-47.7	15.9	0.00e+00	0	39	0	222298112	60	5230
2026-01-11 02:35:11.92	324.39	10.89	-44.0	-47.7	15.9	0.00e+00	0	39	0	226492416	60	5265
2026-01-11 02:35:13.93	324.02	10.90	-44.1	-47.9	15.7	0.00e+00	0	39	0	229638144	59	5681
2026-01-11 02:35:15.93	323.65	10.90	-44.3	-48.1	15.5	0.00e+00	0	39	0	233832448	59	5822
2026-01-11 02:35:17.94	323.28	10.90	-44.6	-48.4	15.3	0.00e+00	0	39	0	238026752	60	5703
2026-01-11 02:35:19.95	322.91	10.90	-45.0	-48.7	15.0	0.00e+00	0	39	0	241172480	60	5885
2026-01-11 02:35:21.95	322.54	10.89	-45.1	-48.5	15.2	0.00e+00	0	39	0	245366784	60	5757
2026-01-11 02:35:23.96	322.17	10.89	-45.0	-48.4	15.3	0.00e+00	0	39	0	248512512	60	5671
2026-01-11 02:35:25.96	321.80	10.89	-44.8	-48.2	15.5	0.00e+00	0	39	0	252706816	60	5554
2026-01-11 02:35:27.97	321.43	10.88	-44.8	-48.1	15.5	0.00e+00	0	39	0	255852544	60	5517
2026-01-11 02:35:29.97	321.06	10.87	-45.1	-48.5	15.2	0.00e+00	0	39	0	260046848	60	5749
2026-01-11 02:35:31.98	320.69	10.86	-45.1	-48.6	15.1	0.00e+00	0	39	0	264241152	60	5837
2026-01-11 02:35:33.99	320.32	10.86	-44.9	-48.7	15.0	7.00e-07	0	39	0	267386880	60	5897
2026-01-11 02:35:36.00	319.95	10.84	-44.8	-48.6	15.1	0.00e+00	0	39	0	271581184	60	5804
2026-01-11 02:35:38.01	319.58	10.83	-44.7	-48.3	15.4	0.00e+00	0	39	0	274726912	60	5606
2026-01-11 02:35:40.01	319.21	10.82	-44.8	-48.3	15.4	0.00e+00	0	39	0	278921216	60	5625
2026-01-11 02:35:42.02	318.84	10.81	-45.0	-48.6	15.1	0.00e+00	0	39	0	283115520	60	5841
2026-01-11 02:35:44.02	318.47	10.79	-45.1	-48.9	14.8	0.00e+00	0	39	0	286261248	60	6058
2026-01-11 02:35:46.03	318.11	10.78	-45.2	-49.1	14.6	0.00e+00	0	39	0	290455552	61	5793
2026-01-11 02:35:48.04	317.74	10.76	-45.1	-48.9	14.8	7.00e-07	0	39	0	293601280	61	5678
2026-01-11 02:35:50.04	317.37	10.74	-44.9	-48.5	15.1	0.00e+00	0	39	0	297795584	61	5456
2026-01-11 02:35:52.05	317.01	10.72	-44.8	-48.4	15.3	0.00e+00	0	39	0	301989888	61	5345
2026-01-11 02:35:54.06	316.64	10.70	-45.0	-48.5	15.2	0.00e+00	0	39	0	305135616	61	5426
2026-01-11 02:35:56.06	316.28	10.68	-45.3	-49.0	14.7	0.00e+00	0	39	0	309329920	61	5739
2026-01-11 02:35:58.06	315.91	10.66	-45.5	-49.1	14.5	7.00e-07	0	39	0	312475648	61	5849
2026-01-11 02:36:00.07	315.55	10.63	-45.6	-49.2	14.5	0.00e+00	0	39	0	316669952	61	5886
2026-01-11 02:36:02.08	315.18	10.61	-45.5	-49.2	14.5	0.00e+00	0	39	0	320864256	61	5875
2026-01-11 02:36:04.08	314.82	10.58	-45.7	-49.5	14.2	7.00e-07	0	39	0	324009984	62	5772
2026-01-11 02:36:06.09	314.46	10.55	-45.7	-49.5	14.2	0.00e+00	0	39	0	328204288	62	5726
2026-01-11 02:36:08.10	314.10	10.53	-45.6	-49.4	14.3	7.00e-07	0	39	0	331350016	62	5692
2026-01-11 02:36:10.11	313.74	10.50	-45.6	-49.4	14.4	0.00e+00	0	39	0	335544320	62	5687
2026-01-11 02:36:12.12	313.37	10.47	-45.4	-49.2	14.5	7.00e-07	0	39	0	338690048	62	5558
2026-01-11 02:36:14.12	313.02	10.43	-45.1	-48.8	15.0	0.00e+00	0	39	0	342884352	62	5311
2026-01-11 02:36:16.13	312.66	10.40	-45.0	-48.6	15.1	0.00e+00	0	39	0	347078656	62	5169
2026-01-11 02:36:18.13	312.30	10.37	-45.2	-48.8	14.9	0.00e+00	0	39	0	350224384	62	5321
2026-01-11 02:36:20.14	311.94	10.33	-45.4	-49.1	14.5	7.00e-07	0	39	0	354418688	62	5520
2026-01-11 02:36:22.15	311.59	10.30	-45.5	-49.2	14.6	0.00e+00	0	39	0	357564416	62	5567
2026-01-11 02:36:24.15	311.23	10.26	-45.6	-49.3	14.5	0.00e+00	0	39	0	361758720	62	5610
2026-01-11 02:36:26.16	310.88	10.23	-45.4	-49.0	14.7	7.00e-07	0	39	0	365953024	62	5413
2026-01-11 02:36:28.16	310.53	10.19	-45.4	-49.0	14.6	0.00e+00	0	39	0	369098752	62	5462
2026-01-11 02:36:30.17	310.17	10.15	-45.5	-49.1	14.6	0.00e+00	0	39	0	373293056	62	5490
2026-01-11 02:36:32.18	309.82	10.11	-45.4	-49.0	14.7	0.00e+00	0	39	0	376438784	62	5406
2026-01-11 02:36:34.18	309.47	10.07	-45.5	-49.0	14.7	0.00e+00	0	39	0	380633088	62	5453
2026-01-11 02:36:36.19	309.12	10.02	-45.9	-49.8	13.9	3.80e-06	0	39	0	384827392	62	5988
2026-01-11 02:36:38.19	308.77	9.98	-46.2	-50.3	13.4	1.29e-05	0	39	0	387973120	62	6296
2026-01-11 02:36:40.20	308.43	9.94	-46.0	-50.1	13.6	1.98e-05	0	39	0	392167424	63	5851
2026-01-11 02:36:42.21	308.08	9.89	-46.0	-50.1	13.5	5.30e-06	0	39	0	395313152	63	5850
2026-01-11 02:36:44.21	307.73	9.85	-45.6	-49.5	14.2	7.00e-07	0	39	0	399507456	63	5435
2026-01-11 02:36:46.22	307.39	9.80	-45.5	-49.2	14.5	2.20e-06	0	39	0	402653184	62	5564
2026-01-11 02:36:48.22	307.05	9.75	-45.7	-49.4	14.2	2.20e-06	0	39	0	406847488	62	5720
2026-01-11 02:36:50.23	306.71	9.70	-45.6	-49.4	14.3	1.50e-06	0	39	0	411041792	62	5681
2026-01-11 02:36:52.23	306.37	9.65	-45.7	-49.7	14.0	3.00e-06	0	39	0	414187520	62	5881
2026-01-11 02:36:54.24	306.03	9.60	-45.7	-49.5	14.2	1.50e-06	0	39	0	418381824	62	5779
2026-01-11 02:36:56.24	305.69	9.55	-45.8	-49.7	14.1	1.50e-06	0	39	0	421527552	62	5866
2026-01-11 02:36:58.25	305.35	9.50	-45.7	-49.6	14.1	7.00e-07	0	39	0	425721856	62	5795
2026-01-11 02:37:00.26	305.01	9.45	-45.7	-49.5	14.2	1.50e-06	0	39	0	429916160	62	5724
2026-01-11 02:37:02.27	304.68	9.39	-45.7	-49.5	14.1	4.50e-06	0	39	0	433061888	62	5750
2026-01-11 02:37:04.27	304.35	9.34	-45.7	-49.6	14.1	7.00e-07	0	39	0	437256192	62	5801
2026-01-11 02:37:06.28	304.01	9.28	-45.7	-49.5	14.2	3.00e-06	0	39	0	440401920	62	5747
2026-01-11 02:37:08.29	303.68	9.23	-45.9	-49.7	13.9	3.00e-06	0	39	0	444596224	62	5908
2026-01-11 02:37:10.29	303.35	9.17	-45.8	-49.7	14.0	3.80e-06	0	39	0	447741952	62	5872
2026-01-11 02:37:12.30	303.03	9.11	-45.9	-49.7	13.9	6.10e-06	0	39	0	451936256	62	5904
2026-01-11 02:37:14.30	302.70	9.05	-45.8	-49.7	13.9	3.00e-06	0	39	0	456130560	62	5864
2026-01-11 02:37:16.31	302.37	8.99	-46.0	-50.0	13.7	4.50e-06	0	39	0	459276288	62	6072
2026-01-11 02:37:18.32	302.05	8.93	-50.2	-65.4	3.8	1.49e+00	0	39	104	460324864	71	21292
2026-01-11 02:37:20.33	301.72	8.87	-50.4	-65.6	3.8	1.49e+00	0	39	104	460324864	71	21829
2026-01-11 02:37:22.34	301.40	8.81	-50.4	-65.7	3.8	1.49e+00	0	39	104	460324864	71	22136
2026-01-11 02:37:24.35	301.08	8.75	-50.6	-65.8	3.8	1.49e+00	0	39	104	460324864	72	21108
2026-01-11 02:37:26.35	300.76	8.69	-50.4	-65.8	3.8	1.49e+00	0	39	104	460324864	72	21172
2026-01-11 02:37:28.36	300.45	8.62	-50.4	-65.8	3.8	1.49e+00	0	39	104	460324864	72	21152
2026-01-11 02:37:30.37	300.13	8.56	-50.5	-65.8	3.8	1.49e+00	0	39	104	460324864	72	21174
2026-01-11 02:37:32.38	299.81	8.49	-50.5	-65.8	3.8	1.49e+00	0	39	104	460324864	72	21196
2026-01-11 02:37:34.39	299.50	8.43	-50.5	-65.8	3.8	1.49e+00	0	39	104	460324864	72	21145
2026-01-11 02:37:36.40	299.19	8.36	-50.5	-65.8	3.8	1.49e+00	0	39	104	460324864	72	21024
2026-01-11 02:37:38.41	298.88	8.30	-50.4	-65.7	3.8	1.49e+00	0	39	104	460324864	72	20934
2026-01-11 02:37:40.42	298.57	8.23	-50.4	-65.7	3.8	1.49e+00	0	39	104	460324864	72	20934
2026-01-11 02:37:42.43	298.26	8.16	-50.4	-65.7	3.8	1.49e+00	0	39	104	460324864	72	20951
2026-01-11 02:37:44.43	297.95	8.09	-50.4	-65.7	3.8	1.49e+00	0	39	104	460324864	72	20878
2026-01-11 02:37:46.44	297.65	8.02	-50.4	-65.7	3.8	1.49e+00	0	39	104	460324864	72	20926
2026-01-11 02:37:48.45	297.35	7.95	-50.4	-65.7	3.8	1.49e+00	0	39	104	460324864	72	20830
2026-01-11 02:37:50.46	297.04	7.88	-50.4	-65.7	3.8	1.49e+00	0	39	104	460324864	72	20883
2026-01-11 02:37:52.47	296.74	7.81	-50.4	-65.7	3.8	1.49e+00	0	39	104	460324864	72	20916
2026-01-11 02:37:54.48	296.44	7.74	-50.4	-65.7	3.8	1.49e+00	0	39	104	460324864	72	20826
2026-01-11 02:37:56.49	296.15	7.67	-50.4	-65.7	3.8	1.49e+00	0	39	104	460324864	72	20900
2026-01-11 02:37:58.50	295.85	7.60	-50.4	-65.7	3.8	1.49e+00	0	39	104	460324864	72	20946
2026-01-11 02:38:00.51	295.56	7.52	-50.4	-65.7	3.8	1.49e+00	0	39	104	460324864	72	20888
2026-01-11 02:38:02.51	295.26	7.45	-50.4	-65.7	3.8	1.49e+00	0	39	104	460324864	72	20859
2026-01-11 02:38:04.52	294.97	7.38	-50.4	-65.7	3.8	1.49e+00	0	39	104	460324864	72	20854
2026-01-11 02:38:06.53	294.68	7.30	-50.4	-65.7	3.8	1.49e+00	0	39	104	460324864	72	20827
2026-01-11 02:38:08.54	294.39	7.23	-50.4	-65.7	3.8	1.49e+00	0	39	104	460324864	72	20877
2026-01-11 02:38:10.55	294.11	7.15	-50.4	-65.6	3.8	1.49e+00	0	39	104	460324864	72	20774
2026-01-11 02:38:12.55	293.82	7.08	-50.4	-65.6	3.8	1.49e+00	0	39	104	460324864	72	20770
2026-01-11 02:38:14.56	293.54	7.00	-50.4	-65.7	3.8	1.49e+00	0	39	104	460324864	72	20778
2026-01-11 02:38:16.57	293.25	6.92	-50.4	-65.7	3.8	1.49e+00	0	39	104	460324864	72	20875
2026-01-11 02:38:18.58	292.97	6.85	-50.4	-65.7	3.8	1.49e+00	0	40	104	460324864	72	20873
2026-01-11 02:38:20.59	292.69	6.77	-50.4	-65.7	3.8	1.49e+00	0	39	104	460324864	72	20846
2026-01-11 02:38:22.59	292.42	6.69	-50.4	-65.7	3.8	1.49e+00	0	39	104	460324864	72	20861
2026-01-11 02:38:24.60	292.14	6.61	-50.4	-65.7	3.8	1.49e+00	0	39	104	460324864	72	20792
2026-01-11 02:38:26.61	291.87	6.54	-50.4	-65.7	3.8	1.49e+00	0	39	104	460324864	72	20922
2026-01-11 02:38:28.62	291.59	6.46	-50.4	-65.7	3.8	1.49e+00	0	39	104	460324864	72	20888
2026-01-11 02:38:30.63	291.32	6.38	-50.4	-65.7	3.8	1.49e+00	0	39	104	460324864	72	20811
2026-01-11 02:38:32.64	291.05	6.30	-50.4	-65.7	3.8	1.49e+00	0	39	104	460324864	72	20793
2026-01-11 02:38:34.65	290.78	6.22	-50.4	-65.6	3.8	1.49e+00	0	39	104	460324864	72	20737
2026-01-11 02:38:36.66	290.51	6.14	-50.3	-65.6	3.8	1.49e+00	0	39	104	460324864	72	20776
2026-01-11 02:38:38.67	290.25	6.06	-50.3	-65.6	3.8	1.49e+00	0	39	104	460324864	72	20750
2026-01-11 02:38:40.68	289.98	5.98	-50.4	-65.7	3.8	1.49e+00	0	39	104	460324864	72	20807
2026-01-11 02:38:42.68	289.72	5.89	-50.4	-65.7	3.8	1.49e+00	0	39	104	460324864	72	20829
2026-01-11 02:38:44.69	289.46	5.81	-50.4	-65.6	3.8	1.49e+00	0	39	104	460324864	72	20772
2026-01-11 02:38:46.70	289.20	5.73	-50.4	-65.6	3.8	1.49e+00	0	39	104	460324864	72	20723
2026-01-11 02:38:48.71	288.94	5.65	-50.4	-65.7	3.8	1.49e+00	0	39	104	460324864	72	20797
2026-01-11 02:38:50.72	288.68	5.57	-50.4	-65.6	3.8	1.49e+00	0	39	104	460324864	72	20764
2026-01-11 02:38:52.73	288.43	5.48	-50.4	-65.7	3.8	1.49e+00	0	39	104	460324864	72	20813
2026-01-11 02:38:54.74	288.17	5.40	-50.4	-65.7	3.8	1.49e+00	0	39	104	460324864	72	20784
2026-01-11 02:38:56.75	287.92	5.32	-50.4	-65.6	3.8	1.49e+00	0	39	104	460324864	72	20760
2026-01-11 02:38:58.75	287.67	5.23	-50.3	-65.7	3.8	1.49e+00	0	39	104	460324864	72	20849
2026-01-11 02:39:00.74	287.42	5.15	-50.4	-65.7	3.8	1.49e+00	0	39	104	460324864	72	20823
2026-01-11 02:39:02.75	287.17	5.07	-50.3	-65.7	3.8	1.49e+00	0	39	104	460324864	72	20807
2026-01-11 02:39:04.75	286.93	4.98	-50.4	-65.6	3.8	1.49e+00	0	40	104	460324864	72	20741

#Closed at: 2026-01-11 02:39:05
#Recorded file [460 MB]: D:/Data/31040_260111_053129.dat