passes_logs/2026/01/11/T1/T1__20260111_110312_AQUA_rec.log

#Pass ID: 20260111_110312_AQUA
#Satellite: AQUA
#Configuration: AQUA
#almurnet v.1.7.20251203
#Start time: 2026-01-11 11:03:13

#Version: 2.0.20230620
#Station: T1
#Location: 37.570604 lon 55.790049 lat
#TLE: 1 27424U 02022A   26010.91777001  .00001106  00000+0  23130-3 0  9995
#TLE: 2 27424  98.4077 337.2768 0002031  83.1713 340.5382 14.61814337260293

#Time	Az	El	Level	Level2	SNR	BER	BlckErr	Temp	State	Recorded	gain1	gain2
2026-01-11 11:03:13.31	140.32	5.05	-53.1	-73.3	3.8	7.43e-01	0	37	0	0	78	35639
2026-01-11 11:03:16.29	140.20	5.27	-53.1	-73.3	3.8	7.48e-01	0	37	104	0	76	40036
2026-01-11 11:03:19.26	140.08	5.49	-53.1	-73.1	3.8	7.44e-01	0	37	104	0	76	39048
2026-01-11 11:03:22.24	139.95	5.71	-53.1	-71.8	3.8	7.45e-01	0	37	104	0	76	33525
2026-01-11 11:03:25.22	139.82	5.94	-53.0	-69.3	4.0	7.33e-01	0	38	104	0	76	24985
2026-01-11 11:03:28.20	139.69	6.17	-53.0	-67.3	5.3	7.02e-01	0	38	0	0	76	19978
2026-01-11 11:03:31.18	139.56	6.40	-52.9	-66.9	5.6	6.94e-01	0	38	0	2621440	76	19104
2026-01-11 11:03:34.16	139.43	6.63	-53.0	-68.3	4.8	7.14e-01	0	38	104	3670016	76	22398
2026-01-11 11:03:37.14	139.29	6.86	-53.1	-71.3	3.9	7.44e-01	0	38	104	3670016	76	31609
2026-01-11 11:03:40.12	139.15	7.10	-53.1	-70.6	4.0	7.39e-01	0	38	104	3670016	76	29105
2026-01-11 11:03:43.09	139.01	7.34	-52.8	-65.4	6.7	6.70e-01	0	38	0	4718592	76	15984
2026-01-11 11:03:46.07	138.87	7.58	-51.7	-58.8	13.3	6.09e-01	0	38	0	9961472	75	7981
2026-01-11 11:03:49.05	138.72	7.82	-50.0	-54.5	17.7	6.07e-01	0	38	0	15728640	71	6063
2026-01-11 11:03:52.03	138.57	8.07	-48.4	-51.9	20.2	6.08e-01	0	38	0	21495808	68	5361
2026-01-11 11:03:55.01	138.42	8.32	-48.3	-51.7	20.4	6.07e-01	0	38	0	26738688	68	5246
2026-01-11 11:03:57.99	138.26	8.57	-49.8	-54.1	18.2	6.08e-01	0	39	0	32505856	70	6154
2026-01-11 11:04:00.97	138.10	8.82	-52.0	-59.9	12.3	6.14e-01	0	39	0	38273024	74	9593
2026-01-11 11:04:03.95	137.94	9.08	-53.1	-71.1	3.9	7.43e-01	0	39	104	41943040	76	30812
2026-01-11 11:04:06.93	137.77	9.34	-53.0	-68.9	4.5	7.23e-01	0	39	104	45088768	76	23974
2026-01-11 11:04:09.91	137.60	9.60	-50.9	-56.3	15.9	6.07e-01	0	39	0	48758784	73	6716
2026-01-11 11:04:12.89	137.43	9.86	-50.7	-55.8	16.5	6.08e-01	0	39	0	54525952	73	6320
2026-01-11 11:04:15.87	137.25	10.13	-49.2	-53.0	19.4	6.05e-01	0	39	0	59768832	70	5409
2026-01-11 11:04:18.85	137.07	10.40	-48.8	-52.4	19.9	6.07e-01	0	39	0	65536000	69	5341
2026-01-11 11:04:21.82	136.89	10.67	-48.0	-51.2	21.0	6.08e-01	0	39	0	71303168	68	4957
2026-01-11 11:04:24.81	136.70	10.95	-47.9	-51.1	21.0	6.07e-01	0	39	0	76546048	67	5193
2026-01-11 11:04:27.78	136.51	11.23	-47.7	-50.8	21.4	6.07e-01	0	39	0	82313216	67	5018
2026-01-11 11:04:30.76	136.32	11.51	-47.5	-50.5	21.6	6.05e-01	0	39	0	88080384	67	4854
2026-01-11 11:04:33.74	136.12	11.80	-47.5	-50.5	21.7	6.07e-01	0	39	0	93323264	67	4851
2026-01-11 11:04:36.72	135.91	12.09	-47.5	-50.5	21.6	6.08e-01	0	39	0	99090432	66	5148
2026-01-11 11:04:39.70	135.70	12.39	-47.4	-50.4	21.8	6.08e-01	0	39	0	104857600	66	5044
2026-01-11 11:04:42.68	135.49	12.68	-47.3	-50.3	21.9	6.07e-01	0	39	0	110100480	66	4998
2026-01-11 11:04:45.65	135.27	12.98	-47.1	-50.0	22.1	6.06e-01	0	39	0	115867648	66	4855
2026-01-11 11:04:48.63	135.05	13.29	-47.2	-50.1	22.1	6.08e-01	0	39	0	121634816	66	4900
2026-01-11 11:04:51.61	134.82	13.60	-47.1	-49.9	22.2	6.07e-01	0	39	0	126877696	66	4814
2026-01-11 11:04:54.59	134.59	13.91	-47.0	-49.8	22.4	6.06e-01	0	40	0	132644864	65	5014
2026-01-11 11:04:57.57	134.35	14.23	-47.0	-49.9	22.3	6.05e-01	0	39	0	138412032	65	5073
2026-01-11 11:05:00.55	134.10	14.55	-46.9	-49.9	22.3	6.06e-01	0	39	0	143654912	65	5044
2026-01-11 11:05:03.53	133.85	14.87	-46.9	-49.7	22.5	6.08e-01	0	39	0	149422080	65	4961
2026-01-11 11:05:06.51	133.59	15.20	-46.9	-49.7	22.5	6.06e-01	0	40	0	154664960	65	4955
2026-01-11 11:05:09.48	133.33	15.54	-46.9	-49.7	22.5	6.07e-01	0	40	0	160432128	65	4949
2026-01-11 11:05:12.46	133.06	15.87	-47.0	-49.7	22.4	6.07e-01	0	40	0	166199296	65	4980
2026-01-11 11:05:15.45	132.78	16.22	-46.8	-49.5	22.7	6.05e-01	0	40	0	171442176	65	4866
2026-01-11 11:05:18.42	132.50	16.57	-46.8	-49.6	22.6	6.04e-01	0	39	0	177209344	65	4888
2026-01-11 11:05:21.40	132.20	16.92	-46.8	-49.6	22.6	6.06e-01	0	39	0	182976512	65	4910
2026-01-11 11:05:24.38	131.91	17.28	-46.8	-49.7	22.6	6.09e-01	0	40	0	188219392	65	4941
2026-01-11 11:05:27.36	131.60	17.64	-46.8	-49.6	22.7	6.06e-01	0	40	0	193986560	65	4889
2026-01-11 11:05:30.34	131.28	18.01	-46.9	-49.6	22.6	6.08e-01	0	40	0	199753728	65	4926
2026-01-11 11:05:33.32	130.96	18.38	-46.9	-49.7	22.6	6.07e-01	0	40	0	204996608	65	4941
2026-01-11 11:05:36.29	130.63	18.76	-47.0	-49.8	22.5	6.06e-01	0	40	0	210763776	65	5016
2026-01-11 11:05:39.27	130.29	19.14	-46.9	-49.8	22.5	6.08e-01	0	40	0	216530944	65	4998
2026-01-11 11:05:42.25	129.94	19.53	-46.9	-49.8	22.5	6.05e-01	0	40	0	221773824	65	5012
2026-01-11 11:05:45.23	129.58	19.92	-46.9	-49.7	22.5	6.07e-01	0	40	0	227540992	65	4975
2026-01-11 11:05:48.21	129.21	20.33	-47.0	-49.8	22.5	6.08e-01	0	40	0	233308160	65	4999
2026-01-11 11:05:51.19	128.82	20.73	-47.1	-49.8	22.4	6.08e-01	0	40	0	238551040	65	5030
2026-01-11 11:05:54.17	128.43	21.14	-47.1	-49.8	22.5	6.07e-01	0	40	0	244318208	65	5037
2026-01-11 11:05:57.15	128.03	21.56	-47.2	-50.0	22.4	6.08e-01	0	40	0	250085376	65	5119
2026-01-11 11:06:00.12	127.61	21.99	-47.1	-50.0	22.4	6.06e-01	0	40	0	255328256	65	5112
2026-01-11 11:06:03.10	127.19	22.42	-47.0	-49.9	22.4	6.08e-01	0	40	0	261095424	65	5100
2026-01-11 11:06:06.08	126.74	22.85	-47.0	-49.9	22.4	6.09e-01	0	40	0	266862592	65	5097
2026-01-11 11:06:09.06	126.29	23.30	-47.1	-50.0	22.4	6.06e-01	0	40	0	272105472	65	5112
2026-01-11 11:06:12.04	125.82	23.75	-47.4	-50.2	22.2	6.07e-01	0	40	0	277872640	65	5243
2026-01-11 11:06:15.02	125.34	24.21	-47.2	-50.0	22.4	6.06e-01	0	40	0	283639808	65	5109
2026-01-11 11:06:18.00	124.84	24.67	-47.3	-50.2	22.2	6.07e-01	0	40	0	288882688	65	5236
2026-01-11 11:06:20.97	124.33	25.14	-47.3	-50.1	22.3	6.08e-01	0	40	0	294649856	65	5201
2026-01-11 11:06:23.95	123.80	25.61	-47.0	-49.8	22.5	6.09e-01	0	40	0	299892736	65	5015
2026-01-11 11:06:26.93	123.25	26.10	-47.0	-49.8	22.5	6.07e-01	0	40	0	305659904	65	5013
2026-01-11 11:06:29.91	122.69	26.59	-46.9	-49.6	22.7	6.07e-01	0	40	0	311427072	65	4910
2026-01-11 11:06:32.89	122.10	27.08	-47.2	-49.9	22.4	6.04e-01	0	40	0	316669952	65	5074
2026-01-11 11:06:35.87	121.50	27.58	-47.0	-49.7	22.7	6.03e-01	0	40	0	322437120	65	4930
2026-01-11 11:06:38.84	120.88	28.09	-46.9	-49.6	22.7	6.07e-01	0	40	0	328204288	65	4915
2026-01-11 11:06:41.82	120.23	28.61	-46.5	-49.2	23.2	6.06e-01	0	40	0	333447168	64	4927
2026-01-11 11:06:44.80	119.56	29.13	-46.4	-49.2	23.1	6.09e-01	0	40	0	339214336	64	4974
2026-01-11 11:06:47.78	118.87	29.66	-46.7	-49.5	22.9	6.04e-01	0	40	0	344981504	64	5122
2026-01-11 11:06:50.76	118.16	30.19	-46.3	-48.9	23.4	6.07e-01	0	40	0	350224384	64	4762
2026-01-11 11:06:53.74	117.42	30.73	-46.4	-49.0	23.3	6.07e-01	0	40	0	355991552	64	4859
2026-01-11 11:06:56.72	116.65	31.28	-46.6	-49.3	23.0	6.06e-01	0	40	0	361758720	64	5015
2026-01-11 11:06:59.70	115.86	31.83	-46.5	-49.2	23.1	6.05e-01	0	40	0	367001600	64	4950
2026-01-11 11:07:02.67	115.04	32.38	-46.4	-49.2	21.7	6.05e-01	0	40	0	372768768	64	4948
2026-01-11 11:07:05.66	114.19	32.94	-46.7	-49.4	23.0	6.06e-01	0	40	0	378535936	64	5060
2026-01-11 11:07:08.64	113.31	33.50	-46.6	-49.5	22.9	6.07e-01	0	40	0	383778816	64	5116
2026-01-11 11:07:11.62	112.39	34.07	-46.9	-49.7	22.7	6.06e-01	0	40	0	389545984	64	5256
2026-01-11 11:07:14.59	111.45	34.63	-47.3	-50.1	22.3	6.07e-01	0	40	0	395313152	65	5197
2026-01-11 11:07:17.57	110.46	35.20	-47.2	-49.9	22.5	6.06e-01	0	40	0	400556032	65	5092
2026-01-11 11:07:20.55	109.45	35.78	-47.7	-50.7	21.8	6.07e-01	0	40	0	406323200	66	5229
2026-01-11 11:07:23.53	108.39	36.35	-47.6	-50.5	22.0	6.05e-01	0	40	0	412090368	66	5106
2026-01-11 11:07:26.51	107.30	36.92	-48.0	-51.1	21.5	6.05e-01	0	40	0	417333248	66	5474
2026-01-11 11:07:29.49	106.16	37.49	-47.9	-50.9	21.6	6.07e-01	0	40	0	423100416	66	5387
2026-01-11 11:07:32.47	104.99	38.06	-48.2	-51.3	21.2	6.07e-01	0	40	0	428867584	67	5324
2026-01-11 11:07:35.44	103.77	38.62	-48.0	-51.1	21.4	6.08e-01	0	40	0	434110464	67	5177
2026-01-11 11:07:38.42	102.51	39.17	-48.2	-51.3	21.2	6.06e-01	0	40	0	439877632	67	5337
2026-01-11 11:07:41.40	101.20	39.73	-48.0	-51.1	21.5	6.07e-01	0	40	0	445120512	67	5163
2026-01-11 11:07:44.38	99.85	40.27	-48.2	-51.4	21.1	6.04e-01	0	40	0	450887680	67	5388
2026-01-11 11:07:47.36	98.45	40.80	-47.8	-50.8	21.7	6.06e-01	0	40	0	456654848	67	5000
2026-01-11 11:07:50.34	97.01	41.32	-48.1	-51.2	21.3	6.07e-01	0	40	0	461897728	67	5265
2026-01-11 11:07:53.32	95.51	41.83	-47.8	-50.7	21.8	6.05e-01	0	40	0	467664896	67	4961
2026-01-11 11:07:56.30	93.97	42.32	-47.8	-50.8	21.7	6.05e-01	0	40	0	473432064	67	5004
2026-01-11 11:07:59.28	92.38	42.80	-47.7	-50.7	21.8	6.08e-01	0	40	0	478674944	67	4972
2026-01-11 11:08:02.26	90.74	43.25	-47.7	-50.6	21.9	6.08e-01	0	40	0	484442112	67	4902
2026-01-11 11:08:05.23	89.06	43.69	-47.5	-50.6	22.0	6.06e-01	0	40	0	490209280	66	5163
2026-01-11 11:08:08.21	87.33	44.10	-47.6	-50.6	21.9	6.06e-01	0	40	0	495452160	66	5204
2026-01-11 11:08:11.19	85.56	44.49	-47.5	-50.5	22.0	6.06e-01	0	40	0	501219328	66	5145
2026-01-11 11:08:14.17	83.74	44.85	-47.4	-50.6	21.9	6.07e-01	0	40	0	506986496	66	5186
2026-01-11 11:08:17.15	81.88	45.18	-47.5	-50.5	22.0	6.07e-01	0	40	0	512229376	66	5142
2026-01-11 11:08:20.13	79.99	45.47	-47.6	-50.6	21.9	6.05e-01	0	40	0	517996544	66	5198
2026-01-11 11:08:23.11	78.06	45.74	-47.8	-50.7	21.9	6.09e-01	0	40	0	523239424	66	5237
2026-01-11 11:08:26.09	76.10	45.97	-47.5	-50.4	22.1	6.09e-01	0	40	0	529006592	66	5086
2026-01-11 11:08:29.07	74.11	46.17	-47.3	-50.2	22.3	6.05e-01	0	40	0	534773760	66	4952
2026-01-11 11:08:32.05	72.10	46.33	-47.6	-50.4	22.1	6.08e-01	0	40	0	540016640	66	5091
2026-01-11 11:08:35.02	70.08	46.45	-47.7	-50.6	22.0	6.06e-01	0	40	0	545783808	66	5170
2026-01-11 11:08:38.00	68.04	46.53	-47.6	-50.5	22.0	6.06e-01	0	40	0	551550976	66	5156
2026-01-11 11:08:40.98	65.99	46.57	-47.4	-50.3	22.3	6.08e-01	0	40	0	557318144	66	4999
2026-01-11 11:08:43.96	63.93	46.57	-47.5	-50.2	22.2	6.08e-01	0	40	0	562561024	66	4970
2026-01-11 11:08:46.94	61.88	46.53	-47.5	-50.4	22.1	6.07e-01	0	40	0	568328192	66	5073
2026-01-11 11:08:49.92	59.84	46.46	-47.6	-50.4	22.0	6.07e-01	0	40	0	574095360	66	5100
2026-01-11 11:08:52.90	57.81	46.34	-47.5	-50.2	22.3	6.07e-01	0	40	0	579338240	66	4980
2026-01-11 11:08:55.88	55.80	46.19	-47.2	-49.9	22.6	6.08e-01	0	40	0	585105408	65	5084
2026-01-11 11:08:58.86	53.81	45.99	-47.0	-49.7	22.8	6.07e-01	0	40	0	590348288	65	4930
2026-01-11 11:09:01.84	51.85	45.77	-47.0	-49.7	22.7	6.08e-01	0	40	0	596115456	65	4966
2026-01-11 11:09:04.81	49.93	45.50	-47.3	-50.1	22.4	6.08e-01	0	40	0	601882624	65	5191
2026-01-11 11:09:07.79	48.03	45.21	-47.3	-50.1	22.4	6.07e-01	0	40	0	607125504	65	5205
2026-01-11 11:09:10.77	46.17	44.88	-47.0	-49.7	22.7	6.07e-01	0	40	0	612892672	65	4948
2026-01-11 11:09:13.75	44.36	44.53	-47.1	-49.9	22.6	6.08e-01	0	40	0	618659840	65	5044
2026-01-11 11:09:16.73	42.58	44.14	-47.3	-50.1	22.4	6.05e-01	0	40	0	623902720	65	5185
2026-01-11 11:09:19.71	40.85	43.73	-46.9	-49.6	22.9	6.07e-01	0	40	0	629669888	65	4901
2026-01-11 11:09:22.69	39.16	43.30	-47.2	-50.0	22.5	6.07e-01	0	40	0	635437056	65	5144
2026-01-11 11:09:25.66	37.53	42.85	-47.2	-50.0	22.5	6.06e-01	0	40	0	640679936	65	5149
2026-01-11 11:09:28.64	35.94	42.38	-47.5	-50.6	21.9	6.07e-01	0	40	0	646447104	65	5511
2026-01-11 11:09:31.62	34.40	41.89	-47.1	-50.1	22.3	6.06e-01	0	40	0	652214272	65	5215
2026-01-11 11:09:34.60	32.90	41.39	-47.5	-50.7	21.8	6.05e-01	0	40	0	657457152	65	5558
2026-01-11 11:09:37.58	31.46	40.87	-48.0	-60.4	3.9	7.45e-01	0	40	104	659030016	66	15989
2026-01-11 11:09:40.56	30.06	40.34	-52.1	-68.9	3.7	7.54e-01	0	41	104	659030016	74	26775
2026-01-11 11:09:43.54	28.70	39.80	-49.7	-63.3	3.8	7.47e-01	0	40	104	659030016	71	16854
2026-01-11 11:09:46.52	27.40	39.25	-48.9	-61.5	3.8	7.49e-01	0	40	104	659030016	69	15277
2026-01-11 11:09:49.50	26.14	38.70	-52.6	-68.1	3.7	7.47e-01	0	40	104	659030016	75	23297
2026-01-11 11:09:52.47	24.92	38.14	-50.6	-64.5	4.1	7.37e-01	0	41	104	659030016	73	17122
2026-01-11 11:09:55.45	23.74	37.57	-48.8	-61.1	4.0	7.37e-01	0	41	104	659030016	69	14684
2026-01-11 11:09:58.43	22.61	37.01	-51.9	-66.8	3.8	7.45e-01	0	40	104	659030016	74	21140
2026-01-11 11:10:01.41	21.51	36.44	-50.7	-65.5	3.9	7.42e-01	0	40	104	659030016	73	19251
2026-01-11 11:10:04.39	20.46	35.87	-48.5	-61.3	3.8	7.44e-01	0	40	104	659030016	68	15842
2026-01-11 11:10:07.37	19.44	35.30	-50.9	-65.0	3.8	7.44e-01	0	40	104	659030016	72	19302
2026-01-11 11:10:10.35	18.46	34.73	-51.1	-65.3	3.9	7.43e-01	0	41	104	659030016	74	17701
2026-01-11 11:10:13.33	17.51	34.17	-48.4	-60.7	3.8	7.46e-01	0	41	104	659030016	68	14783
2026-01-11 11:10:16.31	16.60	33.60	-49.7	-63.0	3.8	7.47e-01	0	40	104	659030016	70	17244
2026-01-11 11:10:19.29	15.71	33.04	-51.0	-64.5	3.8	7.45e-01	0	40	104	659030016	73	17262
2026-01-11 11:10:22.26	14.87	32.49	-48.1	-60.7	3.8	7.40e-01	0	40	104	659030016	68	14834
2026-01-11 11:10:25.24	14.04	31.94	-49.0	-61.7	3.8	7.44e-01	0	40	104	659030016	68	16693
2026-01-11 11:10:28.22	13.25	31.39	-50.6	-64.5	3.8	7.42e-01	0	40	104	659030016	72	18176
2026-01-11 11:10:31.20	12.49	30.84	-47.6	-60.0	3.8	7.46e-01	0	41	104	659030016	67	14456
2026-01-11 11:10:34.18	11.75	30.31	-48.4	-60.8	3.8	7.46e-01	0	40	104	659030016	67	15925
2026-01-11 11:10:37.16	11.03	29.78	-50.9	-64.5	3.8	7.46e-01	0	41	104	659030016	72	18098
2026-01-11 11:10:40.13	10.34	29.25	-47.6	-60.0	3.8	7.44e-01	0	41	104	659030016	67	14428
2026-01-11 11:10:43.11	9.68	28.73	-48.2	-60.4	3.8	7.46e-01	0	41	104	659030016	66	16096
2026-01-11 11:10:46.09	9.03	28.22	-50.8	-64.4	3.8	7.42e-01	0	40	104	659030016	72	18044
2026-01-11 11:10:49.07	8.41	27.71	-47.6	-59.7	3.8	7.44e-01	0	41	104	659030016	67	14044
2026-01-11 11:10:52.05	7.81	27.21	-48.1	-60.3	3.8	7.43e-01	0	41	104	659030016	67	14918
2026-01-11 11:10:55.03	7.22	26.71	-50.6	-64.1	3.8	7.46e-01	0	41	104	659030016	71	18353
2026-01-11 11:10:58.01	6.66	26.23	-47.7	-60.0	3.8	7.45e-01	0	41	104	659030016	67	14492
2026-01-11 11:11:00.99	6.11	25.74	-48.0	-60.1	3.8	7.44e-01	0	41	104	659030016	67	14636
2026-01-11 11:11:03.96	5.58	25.27	-50.5	-64.1	3.8	7.44e-01	0	41	104	659030016	71	18400
2026-01-11 11:11:06.94	5.07	24.80	-48.2	-60.4	3.8	7.44e-01	0	41	104	659030016	68	14322
2026-01-11 11:11:09.92	4.57	24.34	-47.9	-60.2	3.8	7.44e-01	0	41	104	659030016	67	14762
2026-01-11 11:11:12.90	4.09	23.89	-49.6	-62.7	3.8	7.47e-01	0	41	104	659030016	69	17608
2026-01-11 11:11:15.88	3.62	23.44	-47.8	-60.4	3.8	7.45e-01	0	41	104	659030016	67	15122
2026-01-11 11:11:18.86	3.17	22.99	-47.3	-60.1	3.8	7.44e-01	0	41	104	659030016	66	15540
2026-01-11 11:11:21.84	2.73	22.56	-48.5	-62.0	3.8	7.45e-01	0	41	104	659030016	67	18275
2026-01-11 11:11:24.81	2.31	22.13	-47.6	-60.4	3.8	7.46e-01	0	41	104	659030016	67	15176
2026-01-11 11:11:27.79	1.89	21.71	-47.6	-59.7	3.8	7.48e-01	0	41	104	659030016	67	14038
2026-01-11 11:11:30.77	1.49	21.29	-48.6	-61.3	3.8	7.46e-01	0	40	104	659030016	67	16846
2026-01-11 11:11:33.75	1.10	20.88	-47.7	-60.3	3.8	7.46e-01	0	41	104	659030016	67	14974
2026-01-11 11:11:36.73	0.72	20.47	-47.6	-59.8	3.8	7.43e-01	0	41	104	659030016	67	14185
2026-01-11 11:11:39.71	0.35	20.07	-48.2	-60.5	3.8	7.47e-01	0	41	104	659030016	67	15316
2026-01-11 11:11:42.69	359.99	19.68	-47.9	-60.3	3.8	7.41e-01	0	40	104	659030016	67	14971
2026-01-11 11:11:45.67	359.64	19.29	-47.7	-60.0	3.8	7.48e-01	0	41	104	659030016	67	14472
2026-01-11 11:11:48.64	359.30	18.91	-47.7	-60.5	3.8	7.45e-01	0	41	104	659030016	67	15362
2026-01-11 11:11:51.62	358.97	18.53	-47.2	-60.3	3.8	7.47e-01	0	41	104	659030016	66	15817
2026-01-11 11:11:54.60	358.65	18.16	-47.3	-60.0	3.8	7.47e-01	0	41	104	659030016	66	15381
2026-01-11 11:11:57.58	358.33	17.79	-47.6	-60.2	3.9	7.44e-01	0	41	104	659030016	67	14762
2026-01-11 11:12:00.56	358.03	17.43	-47.4	-60.0	3.8	7.47e-01	0	41	104	659030016	66	15234
2026-01-11 11:12:03.54	357.73	17.07	-47.4	-59.8	3.8	7.42e-01	0	41	104	659030016	66	15016
2026-01-11 11:12:06.51	357.44	16.72	-47.7	-60.1	3.8	7.44e-01	0	41	104	659030016	67	14589
2026-01-11 11:12:09.49	357.16	16.38	-47.4	-60.0	3.8	7.45e-01	0	41	104	659030016	66	15254
2026-01-11 11:12:12.47	356.88	16.03	-47.2	-60.3	3.8	7.45e-01	0	41	104	659030016	66	15842
2026-01-11 11:12:15.45	356.62	15.69	-47.5	-60.7	3.9	7.46e-01	0	41	104	659030016	67	15749
2026-01-11 11:12:18.43	356.35	15.36	-47.7	-60.1	3.8	7.43e-01	0	41	104	659030016	66	15486
2026-01-11 11:12:21.41	356.10	15.03	-47.7	-60.1	3.8	7.45e-01	0	41	104	659030016	66	15447
2026-01-11 11:12:24.39	355.85	14.71	-48.3	-61.0	3.9	7.45e-01	0	41	104	659030016	68	15329
2026-01-11 11:12:27.37	355.61	14.39	-47.6	-60.1	3.8	7.45e-01	0	41	104	659030016	66	15466
2026-01-11 11:12:30.34	355.37	14.07	-47.9	-60.2	3.8	7.41e-01	0	41	104	659030016	66	15591
2026-01-11 11:12:33.32	355.14	13.76	-48.8	-61.4	3.8	7.49e-01	0	41	104	659030016	69	15198
2026-01-11 11:12:36.30	354.91	13.45	-47.6	-60.1	3.8	7.44e-01	0	41	104	659030016	67	14558
2026-01-11 11:12:39.28	354.69	13.15	-47.2	-60.0	3.8	7.44e-01	0	41	104	659030016	66	15341
2026-01-11 11:12:42.26	354.47	12.85	-48.8	-62.6	3.9	7.47e-01	0	41	104	659030016	69	17364
2026-01-11 11:12:45.24	354.26	12.55	-45.9	-60.4	3.8	7.47e-01	0	41	104	659030016	63	19109
2026-01-11 11:12:48.21	354.05	12.26	-46.1	-61.2	3.8	7.46e-01	0	41	104	659030016	63	20915
2026-01-11 11:12:51.19	353.85	11.97	-46.6	-63.2	3.9	7.45e-01	0	41	104	659030016	65	23568
2026-01-11 11:12:54.17	353.65	11.68	-46.8	-60.4	3.8	7.47e-01	0	41	104	659030016	64	17986
2026-01-11 11:12:57.15	353.46	11.40	-47.3	-61.3	3.8	7.45e-01	0	41	104	659030016	65	18745
2026-01-11 11:13:00.13	353.27	11.12	-48.7	-63.7	3.8	7.45e-01	0	41	104	659030016	68	20905
2026-01-11 11:13:03.11	353.09	10.84	-46.7	-60.8	3.8	7.45e-01	0	41	104	659030016	65	17692
2026-01-11 11:13:06.09	352.90	10.57	-48.1	-61.6	3.8	7.47e-01	0	41	104	659030016	66	18383
2026-01-11 11:13:09.07	352.73	10.30	-48.0	-63.9	3.8	7.47e-01	0	41	104	659030016	67	22757
2026-01-11 11:13:12.05	352.55	10.03	-47.0	-61.0	3.8	7.48e-01	0	41	104	659030016	65	18131
2026-01-11 11:13:15.03	352.38	9.77	-46.5	-61.6	3.8	7.45e-01	0	41	104	659030016	64	20659
2026-01-11 11:13:18.00	352.22	9.51	-50.1	-65.1	3.8	7.48e-01	0	41	104	659030016	72	19527
2026-01-11 11:13:20.98	352.05	9.25	-48.2	-61.1	3.8	7.46e-01	0	41	104	659030016	67	16452
2026-01-11 11:13:23.96	351.89	8.99	-50.8	-71.2	3.7	7.52e-01	0	41	104	659030016	71	41596
2026-01-11 11:13:26.94	351.74	8.74	-51.7	-73.9	3.8	7.46e-01	0	41	104	659030016	74	47638
2026-01-11 11:13:29.92	351.58	8.49	-53.4	-74.0	3.8	7.49e-01	0	41	104	659030016	77	40941
2026-01-11 11:13:32.90	351.43	8.24	-53.5	-74.1	3.8	7.48e-01	0	41	104	659030016	78	39005
2026-01-11 11:13:35.88	351.28	7.99	-53.3	-74.1	3.7	7.47e-01	0	41	104	659030016	78	39115
2026-01-11 11:13:38.86	351.14	7.75	-53.8	-74.2	3.8	7.48e-01	0	41	104	659030016	79	37238
2026-01-11 11:13:41.84	351.00	7.51	-53.9	-74.2	3.8	7.45e-01	0	41	104	659030016	78	39369
2026-01-11 11:13:44.82	350.86	7.27	-53.8	-74.2	3.8	7.47e-01	0	41	104	659030016	79	37253
2026-01-11 11:13:47.79	350.72	7.04	-54.1	-74.2	3.8	7.51e-01	0	41	104	659030016	79	37231
2026-01-11 11:13:50.77	350.59	6.80	-54.1	-74.2	3.8	7.46e-01	0	41	104	659030016	79	37283
2026-01-11 11:13:53.75	350.46	6.57	-53.7	-74.2	3.8	7.48e-01	0	41	104	659030016	78	39357
2026-01-11 11:13:56.73	350.33	6.34	-53.6	-74.2	3.8	7.45e-01	0	41	104	659030016	78	39244
2026-01-11 11:13:59.71	350.20	6.11	-53.7	-74.2	3.8	7.43e-01	0	41	104	659030016	78	39243
2026-01-11 11:14:02.69	350.08	5.89	-53.6	-74.2	3.8	7.46e-01	0	41	104	659030016	78	39301
