passes_logs/2026/01/11/T1/T1__20260111_092127_NOAA_20_JPSS-1_rec.log

#Pass ID: 20260111_092127_NOAA 20 (JPSS-1)
#Satellite: NOAA 20 (JPSS-1)
#Configuration: NOAA 20
#almurnet v.1.7.20251203
#Start time: 2026-01-11 09:21:29

#Version: 2.0.20230620
#Station: T1
#Location: 37.570604 lon 55.790049 lat
#TLE: 1 43013U 17073A   26010.88944318  .00000078  00000+0  57801-4 0  9992
#TLE: 2 43013  98.7631 311.8723 0001655  45.1140 315.0170 14.19535117422152

#Time	Az	El	Level	Level2	SNR	BER	BlckErr	Temp	State	Recorded	gain1	gain2
2026-01-11 09:21:29.21	142.36	5.15	-51.4	-66.6	3.8	1.49e+00	0	41	0	0	74	20733
2026-01-11 09:21:33.18	142.24	5.43	-51.4	-66.3	3.8	1.49e+00	0	42	104	0	74	19842
2026-01-11 09:21:37.15	142.12	5.71	-51.4	-65.6	3.8	1.49e+00	0	42	104	0	74	18419
2026-01-11 09:21:41.13	142.00	6.00	-51.3	-64.8	3.9	1.49e+00	0	42	104	0	74	16859
2026-01-11 09:21:45.10	141.87	6.30	-51.3	-65.1	3.8	1.49e+00	0	42	104	0	74	17391
2026-01-11 09:21:49.08	141.75	6.59	-51.3	-65.5	3.8	1.49e+00	0	42	104	0	74	18132
2026-01-11 09:21:53.05	141.61	6.89	-51.2	-63.6	4.1	1.46e+00	0	42	0	0	74	14682
2026-01-11 09:21:57.03	141.48	7.19	-50.7	-59.7	6.0	4.23e-01	0	42	0	5242880	73	9847
2026-01-11 09:22:01.01	141.34	7.50	-49.6	-55.3	10.2	1.15e-02	0	43	0	12582912	71	6682
2026-01-11 09:22:04.98	141.20	7.81	-48.1	-52.1	13.4	3.28e-05	0	43	0	19922944	68	5526
2026-01-11 09:22:08.96	141.06	8.12	-47.4	-51.0	14.5	1.50e-06	0	43	0	27262976	66	5411
2026-01-11 09:22:12.93	140.91	8.44	-48.3	-52.7	12.7	5.11e-05	0	43	0	34603008	67	6215
2026-01-11 09:22:16.91	140.76	8.76	-50.5	-58.3	7.1	1.00e-01	0	43	0	42991616	71	9494
2026-01-11 09:22:20.88	140.61	9.08	-50.1	-56.6	8.8	5.91e-01	0	43	0	46137344	72	7307
2026-01-11 09:22:24.86	140.45	9.41	-50.2	-57.0	8.6	1.06e-02	0	43	0	50331648	71	8104
2026-01-11 09:22:28.83	140.29	9.74	-48.7	-53.1	12.7	2.01e-04	0	43	0	57671680	69	5812
2026-01-11 09:22:32.81	140.12	10.08	-47.6	-51.1	14.6	0.00e+00	0	43	0	65011712	67	5203
2026-01-11 09:22:36.78	139.95	10.42	-47.0	-50.2	15.5	0.00e+00	0	43	0	73400320	66	4936
2026-01-11 09:22:40.75	139.78	10.76	-46.9	-50.0	15.7	0.00e+00	0	43	0	80740352	65	5136
2026-01-11 09:22:44.72	139.60	11.11	-46.9	-50.0	15.6	0.00e+00	0	43	0	88080384	65	5147
2026-01-11 09:22:48.70	139.41	11.47	-46.9	-50.0	15.7	0.00e+00	0	43	0	95420416	65	5145
2026-01-11 09:22:52.67	139.23	11.83	-46.7	-49.8	15.9	0.00e+00	0	43	0	102760448	65	5006
2026-01-11 09:22:56.65	139.03	12.19	-46.7	-49.7	16.0	0.00e+00	0	43	0	110100480	65	4964
2026-01-11 09:23:00.62	138.84	12.56	-46.5	-49.4	16.3	0.00e+00	0	43	0	117440512	65	4801
2026-01-11 09:23:04.59	138.63	12.94	-46.9	-50.0	15.8	0.00e+00	0	43	0	124780544	65	5104
2026-01-11 09:23:08.56	138.42	13.32	-46.7	-49.7	16.1	0.00e+00	0	43	0	133169152	65	4959
2026-01-11 09:23:12.53	138.21	13.71	-46.5	-49.3	16.4	0.00e+00	0	43	0	140509184	64	5029
2026-01-11 09:23:16.51	137.99	14.10	-46.4	-49.2	16.6	0.00e+00	0	44	0	147849216	64	4957
2026-01-11 09:23:20.48	137.76	14.50	-46.4	-49.2	16.6	0.00e+00	0	43	0	155189248	64	4953
2026-01-11 09:23:24.46	137.53	14.90	-46.3	-49.1	16.7	0.00e+00	0	43	0	162529280	64	4875
2026-01-11 09:23:28.43	137.29	15.31	-46.5	-49.4	16.5	0.00e+00	0	44	0	169869312	64	5042
2026-01-11 09:23:32.41	137.04	15.73	-46.2	-49.0	16.8	0.00e+00	0	43	0	177209344	64	4819
2026-01-11 09:23:36.38	136.79	16.16	-46.0	-48.7	17.1	0.00e+00	0	44	0	184549376	64	4689
2026-01-11 09:23:40.36	136.53	16.59	-46.3	-49.1	16.7	0.00e+00	0	44	0	191889408	64	4906
2026-01-11 09:23:44.33	136.26	17.03	-46.3	-49.0	16.8	0.00e+00	0	44	0	199229440	64	4854
2026-01-11 09:23:48.30	135.98	17.47	-46.1	-48.7	17.2	0.00e+00	0	44	0	206569472	63	4981
2026-01-11 09:23:52.28	135.69	17.92	-46.3	-49.0	16.9	0.00e+00	0	44	0	214958080	63	5148
2026-01-11 09:23:56.25	135.40	18.38	-46.2	-48.9	17.0	0.00e+00	0	43	0	222298112	63	5098
2026-01-11 09:24:00.23	135.09	18.85	-46.2	-48.9	17.1	0.00e+00	0	43	0	229638144	63	5068
2026-01-11 09:24:04.20	134.77	19.33	-46.3	-49.0	17.0	0.00e+00	0	43	0	236978176	63	5127
2026-01-11 09:24:08.18	134.45	19.82	-46.4	-49.2	16.8	0.00e+00	0	44	0	244318208	63	5245
2026-01-11 09:24:12.15	134.11	20.31	-46.6	-49.6	16.3	0.00e+00	0	44	0	251658240	64	5190
2026-01-11 09:24:16.12	133.76	20.81	-46.6	-49.5	16.4	0.00e+00	0	44	0	258998272	64	5130
2026-01-11 09:24:20.10	133.40	21.32	-46.9	-50.0	15.9	0.00e+00	0	44	0	266338304	64	5438
2026-01-11 09:24:24.07	133.03	21.84	-46.9	-49.9	16.0	0.00e+00	0	44	0	274726912	64	5382
2026-01-11 09:24:28.05	132.65	22.38	-46.9	-49.9	16.1	0.00e+00	0	44	0	282066944	64	5360
2026-01-11 09:24:32.02	132.25	22.91	-46.9	-49.9	16.0	0.00e+00	0	44	0	289406976	64	5374
2026-01-11 09:24:35.99	131.83	23.46	-47.2	-50.3	15.7	0.00e+00	0	44	0	296747008	65	5303
2026-01-11 09:24:39.96	131.40	24.02	-47.3	-50.4	15.5	0.00e+00	0	44	0	304087040	65	5399
2026-01-11 09:24:43.94	130.96	24.60	-47.5	-50.8	15.2	0.00e+00	0	44	0	311427072	65	5601
2026-01-11 09:24:47.91	130.50	25.18	-47.4	-50.6	15.4	0.00e+00	0	44	0	318767104	65	5466
2026-01-11 09:24:51.89	130.02	25.77	-47.7	-51.1	15.0	0.00e+00	0	44	0	326107136	66	5468
2026-01-11 09:24:55.86	129.52	26.37	-47.8	-51.3	14.7	0.00e+00	0	44	0	333447168	66	5629
2026-01-11 09:24:59.83	129.00	26.99	-47.7	-51.1	14.9	0.00e+00	0	44	0	340787200	66	5506
2026-01-11 09:25:03.81	128.46	27.61	-47.8	-51.1	14.9	0.00e+00	0	44	0	348127232	66	5527
2026-01-11 09:25:07.78	127.90	28.25	-47.7	-51.0	15.1	0.00e+00	0	44	0	356515840	66	5421
2026-01-11 09:25:11.75	127.31	28.90	-47.6	-50.9	15.2	0.00e+00	0	44	0	363855872	66	5353
2026-01-11 09:25:15.73	126.70	29.56	-47.6	-50.8	15.2	7.00e-07	0	44	0	371195904	66	5325
2026-01-11 09:25:19.70	126.07	30.23	-47.7	-51.1	15.0	0.00e+00	0	44	0	378535936	66	5477
2026-01-11 09:25:23.67	125.40	30.92	-48.1	-51.5	14.5	0.00e+00	0	44	0	385875968	66	5787
2026-01-11 09:25:27.64	124.71	31.61	-48.0	-51.5	14.6	7.00e-07	0	44	0	393216000	66	5751
2026-01-11 09:25:31.62	123.99	32.32	-48.5	-52.2	13.9	5.30e-06	0	44	0	400556032	67	5907
2026-01-11 09:25:35.59	123.23	33.04	-48.4	-52.1	14.0	2.20e-06	0	44	0	407896064	67	5792
2026-01-11 09:25:39.56	122.44	33.77	-48.7	-52.7	13.5	1.90e-05	0	44	0	416284672	68	5894
2026-01-11 09:25:43.54	121.61	34.51	-48.5	-52.3	13.9	1.50e-06	0	44	0	423624704	68	5639
2026-01-11 09:25:47.52	120.74	35.26	-48.3	-51.8	14.5	0.00e+00	0	44	0	430964736	68	5319
2026-01-11 09:25:51.49	119.83	36.03	-47.8	-51.1	15.0	0.00e+00	0	44	0	438304768	67	5185
2026-01-11 09:25:55.47	118.88	36.80	-47.8	-51.2	15.0	1.50e-06	0	44	0	445644800	67	5219
2026-01-11 09:25:59.44	117.88	37.58	-48.0	-51.4	14.7	0.00e+00	0	44	0	452984832	67	5390
2026-01-11 09:26:03.41	116.83	38.37	-48.0	-51.4	14.7	0.00e+00	0	44	0	460324864	67	5388
2026-01-11 09:26:07.39	115.73	39.17	-48.2	-51.9	14.2	0.00e+00	0	44	0	467664896	67	5670
2026-01-11 09:26:11.36	114.57	39.97	-48.2	-51.7	14.4	1.50e-06	0	44	0	475004928	67	5574
2026-01-11 09:26:15.34	113.35	40.77	-48.1	-51.5	14.6	0.00e+00	0	44	0	482344960	67	5434
2026-01-11 09:26:19.31	112.07	41.58	-48.0	-51.3	14.8	0.00e+00	0	44	0	490733568	67	5316
2026-01-11 09:26:23.28	110.72	42.39	-49.1	-53.1	13.3	1.14e-05	0	44	0	498073600	68	6145
2026-01-11 09:26:27.26	109.31	43.20	-48.9	-52.9	13.4	3.20e-05	0	44	0	505413632	69	5665
2026-01-11 09:26:31.23	107.82	44.00	-48.4	-52.0	14.3	7.00e-07	0	44	0	512753664	68	5447
2026-01-11 09:26:35.20	106.25	44.80	-48.7	-52.4	13.9	4.50e-06	0	44	0	520093696	68	5717
2026-01-11 09:26:39.18	104.60	45.59	-49.2	-53.5	12.8	6.79e-05	0	44	0	527433728	69	6090
2026-01-11 09:26:43.15	102.87	46.36	-48.2	-51.7	14.6	7.00e-07	0	44	0	534773760	68	5273
2026-01-11 09:26:47.13	101.05	47.12	-47.7	-51.0	15.2	0.00e+00	0	44	0	542113792	67	5101
2026-01-11 09:26:51.10	99.15	47.86	-48.1	-51.7	14.5	7.00e-07	0	44	0	549453824	67	5529
2026-01-11 09:26:55.08	97.14	48.58	-47.5	-50.7	15.4	0.00e+00	0	44	0	557842432	66	5254
2026-01-11 09:26:59.05	95.05	49.27	-47.9	-51.2	15.0	0.00e+00	0	44	0	565182464	66	5566
2026-01-11 09:27:03.03	92.86	49.92	-48.2	-51.9	14.3	7.00e-07	0	44	0	572522496	67	5657
2026-01-11 09:27:07.00	90.58	50.54	-48.1	-51.6	14.6	1.50e-06	0	44	0	579862528	67	5519
2026-01-11 09:27:10.98	88.21	51.12	-47.6	-50.9	15.3	0.00e+00	0	44	0	587202560	67	5050
2026-01-11 09:27:14.95	85.75	51.64	-47.7	-51.1	15.2	0.00e+00	0	44	0	594542592	67	5167
2026-01-11 09:27:18.93	83.20	52.12	-46.7	-49.6	16.5	0.00e+00	0	44	0	601882624	65	4922
2026-01-11 09:27:22.90	80.58	52.54	-46.1	-48.7	17.5	0.00e+00	0	44	0	609222656	63	4946
2026-01-11 09:27:26.87	77.88	52.89	-44.7	-47.0	19.1	0.00e+00	0	44	0	616562688	61	4563
2026-01-11 09:27:30.84	75.13	53.19	-44.2	-46.4	19.6	0.00e+00	0	44	0	623902720	60	4497
2026-01-11 09:27:34.82	72.32	53.41	-43.8	-45.9	20.0	0.00e+00	0	44	0	632291328	59	4521
2026-01-11 09:27:38.80	69.48	53.57	-44.1	-46.2	19.7	0.00e+00	0	44	0	639631360	59	4679
2026-01-11 09:27:42.77	66.62	53.65	-44.5	-46.7	19.3	0.00e+00	0	44	0	646971392	59	4942
2026-01-11 09:27:46.74	63.75	53.66	-44.8	-47.0	19.0	0.00e+00	0	44	0	654311424	60	4866
2026-01-11 09:27:50.71	60.88	53.60	-44.5	-46.7	19.4	0.00e+00	0	44	0	661651456	60	4652
2026-01-11 09:27:54.68	58.04	53.47	-44.2	-46.4	19.7	0.00e+00	0	44	0	668991488	60	4502
2026-01-11 09:27:58.66	55.22	53.26	-44.2	-46.3	19.7	0.00e+00	0	44	0	676331520	60	4474
2026-01-11 09:28:02.63	52.45	52.99	-44.0	-46.1	19.9	0.00e+00	0	44	0	683671552	59	4605
2026-01-11 09:28:06.60	49.74	52.65	-44.6	-46.8	19.2	0.00e+00	0	44	0	691011584	59	4994
2026-01-11 09:28:10.58	47.10	52.25	-45.2	-47.6	18.5	0.00e+00	0	44	0	699400192	61	4893
2026-01-11 09:28:14.56	44.53	51.79	-46.6	-49.4	16.9	0.00e+00	0	44	0	706740224	63	5350
2026-01-11 09:28:18.53	42.05	51.28	-46.8	-49.7	16.5	0.00e+00	0	44	0	714080256	64	5247
2026-01-11 09:28:22.50	39.65	50.72	-47.3	-50.3	15.9	0.00e+00	0	44	0	721420288	65	5295
2026-01-11 09:28:26.48	37.35	50.12	-47.2	-50.2	16.0	0.00e+00	0	44	0	728760320	65	5271
2026-01-11 09:28:30.45	35.14	49.47	-47.6	-50.7	15.5	0.00e+00	0	44	0	736100352	65	5580
2026-01-11 09:28:34.42	33.02	48.80	-47.6	-50.8	15.3	0.00e+00	0	44	0	743440384	65	5651
2026-01-11 09:28:38.40	31.00	48.09	-48.6	-52.6	13.6	4.50e-06	0	44	0	750780416	67	6139
2026-01-11 09:28:42.37	29.07	47.36	-49.6	-54.2	12.1	1.62e-04	0	44	0	758120448	69	6633
2026-01-11 09:28:46.35	27.23	46.61	-49.6	-54.0	12.3	2.40e-04	0	44	0	765460480	70	6094
2026-01-11 09:28:50.32	25.48	45.84	-49.6	-54.1	12.2	2.04e-04	0	44	0	773849088	70	6173
2026-01-11 09:28:54.29	23.81	45.06	-49.2	-53.4	13.0	3.89e-05	0	44	0	781189120	70	5680
2026-01-11 09:28:58.26	22.23	44.27	-48.6	-52.3	14.2	2.20e-06	0	44	0	788529152	68	5603
2026-01-11 09:29:02.24	20.72	43.47	-48.8	-52.6	13.7	3.00e-06	0	44	0	795869184	68	5851
2026-01-11 09:29:06.21	19.28	42.67	-48.4	-51.9	14.4	1.50e-06	0	44	0	803209216	68	5386
2026-01-11 09:29:10.19	17.92	41.86	-49.2	-53.3	13.0	1.90e-05	0	44	0	810549248	69	5948
2026-01-11 09:29:14.16	16.62	41.06	-49.2	-53.4	12.9	2.67e-05	0	44	0	817889280	69	6025
2026-01-11 09:29:18.13	15.39	40.25	-49.1	-53.5	12.8	6.33e-05	0	44	0	825229312	69	6092
2026-01-11 09:29:22.11	14.22	39.45	-49.1	-53.5	12.9	5.03e-05	0	44	0	832569344	69	6076
2026-01-11 09:29:26.08	13.10	38.66	-49.2	-53.4	13.0	5.41e-05	0	44	0	840957952	69	6027
2026-01-11 09:29:30.05	12.04	37.87	-49.3	-53.5	12.9	3.58e-05	0	44	0	848297984	69	6075
2026-01-11 09:29:34.02	11.03	37.09	-49.1	-53.3	13.1	3.43e-05	0	44	0	855638016	69	5948
2026-01-11 09:29:38.00	10.07	36.32	-48.7	-52.6	13.8	4.50e-06	0	44	0	862978048	69	5479
2026-01-11 09:29:41.97	9.15	35.56	-48.5	-52.2	14.1	3.80e-06	0	44	0	870318080	69	5227
2026-01-11 09:29:45.94	8.27	34.81	-48.4	-52.1	14.2	0.00e+00	0	44	0	877658112	68	5517
2026-01-11 09:29:49.92	7.43	34.06	-48.8	-52.8	13.6	6.80e-06	0	44	0	884998144	68	5926
2026-01-11 09:29:53.89	6.63	33.33	-48.8	-52.7	13.6	3.00e-06	0	44	0	892338176	68	5914
2026-01-11 09:29:57.87	5.87	32.61	-49.1	-53.3	13.1	2.36e-05	0	44	0	899678208	68	6297
2026-01-11 09:30:01.84	5.14	31.91	-49.1	-53.1	13.2	2.44e-05	0	44	0	907018240	69	5852
2026-01-11 09:30:05.82	4.44	31.21	-49.1	-53.2	13.1	1.37e-05	0	44	0	915406848	69	5896
2026-01-11 09:30:09.80	3.77	30.52	-49.4	-53.9	12.4	1.42e-04	0	44	0	922746880	69	6388
2026-01-11 09:30:13.77	3.13	29.85	-48.8	-52.7	13.6	4.50e-06	0	44	0	930086912	69	5569
2026-01-11 09:30:17.74	2.52	29.19	-48.9	-52.8	13.6	7.60e-06	0	44	0	937426944	69	5607
2026-01-11 09:30:21.71	1.93	28.54	-48.5	-52.1	14.2	1.50e-06	0	44	0	944766976	68	5511
2026-01-11 09:30:25.69	1.36	27.90	-48.0	-51.4	14.9	0.00e+00	0	44	0	952107008	68	5061
2026-01-11 09:30:29.67	0.82	27.27	-48.1	-51.6	14.8	0.00e+00	0	44	0	959447040	68	5179
2026-01-11 09:30:33.64	0.30	26.66	-47.7	-51.1	15.1	0.00e+00	0	44	0	966787072	67	5185
2026-01-11 09:30:37.61	359.79	26.06	-47.3	-50.5	15.7	0.00e+00	0	44	0	974127104	66	5127
2026-01-11 09:30:41.59	359.31	25.46	-47.5	-50.7	15.5	0.00e+00	0	44	0	982515712	66	5248
2026-01-11 09:30:45.56	358.85	24.88	-47.0	-50.3	15.9	0.00e+00	0	44	0	989855744	66	4996
2026-01-11 09:30:49.54	358.40	24.31	-46.7	-49.9	16.2	0.00e+00	0	44	0	997195776	65	5067
2026-01-11 09:30:53.51	357.97	23.75	-47.0	-50.4	15.8	0.00e+00	0	44	0	1004535808	65	5362
2026-01-11 09:30:57.48	357.55	23.20	-47.6	-51.0	15.1	0.00e+00	0	44	0	1011875840	65	5763
2026-01-11 09:31:01.46	357.15	22.66	-47.7	-51.1	15.0	0.00e+00	0	44	0	1019215872	66	5516
2026-01-11 09:31:05.43	356.76	22.12	-47.5	-50.9	15.3	0.00e+00	0	44	0	1026555904	66	5344
2026-01-11 09:31:09.41	356.39	21.60	-47.6	-50.9	15.3	0.00e+00	0	44	0	1033895936	66	5348
2026-01-11 09:31:13.38	356.03	21.09	-47.5	-50.8	15.3	0.00e+00	0	44	0	1041235968	66	5299
2026-01-11 09:31:17.36	355.68	20.59	-47.4	-50.6	15.5	0.00e+00	0	44	0	1048576000	66	5214
2026-01-11 09:31:21.34	355.34	20.09	-47.1	-50.3	15.8	0.00e+00	0	44	0	1056964608	66	5021
2026-01-11 09:31:25.31	355.02	19.61	-46.9	-50.3	15.7	0.00e+00	0	44	0	1064304640	65	5332
2026-01-11 09:31:29.29	354.70	19.13	-47.1	-50.6	15.5	0.00e+00	0	44	0	1071644672	65	5513
2026-01-11 09:31:33.26	354.40	18.66	-47.2	-50.5	15.5	0.00e+00	0	44	0	1078984704	65	5464
2026-01-11 09:31:37.23	354.10	18.20	-47.2	-50.7	15.4	0.00e+00	0	44	0	1086324736	65	5534
2026-01-11 09:31:41.20	353.82	17.74	-47.3	-50.8	15.3	0.00e+00	0	44	0	1093664768	65	5623
2026-01-11 09:31:45.18	353.54	17.30	-47.4	-50.7	15.4	0.00e+00	0	44	0	1101004800	65	5557
2026-01-11 09:31:49.15	353.27	16.86	-47.4	-50.9	15.2	0.00e+00	0	44	0	1108344832	65	5657
2026-01-11 09:31:53.13	353.01	16.43	-47.2	-50.8	15.2	0.00e+00	0	44	0	1115684864	65	5646
2026-01-11 09:31:57.10	352.76	16.00	-47.4	-50.9	15.1	0.00e+00	0	44	0	1124073472	65	5717
2026-01-11 09:32:01.08	352.51	15.58	-47.4	-50.9	15.2	0.00e+00	0	44	0	1131413504	65	5696
2026-01-11 09:32:05.05	352.27	15.17	-47.4	-50.8	15.2	0.00e+00	0	44	0	1138753536	65	5635
2026-01-11 09:32:09.03	352.04	14.77	-47.4	-50.9	15.2	7.00e-07	0	44	0	1146093568	65	5678
2026-01-11 09:32:13.00	351.81	14.37	-47.4	-50.8	15.2	0.00e+00	0	44	0	1153433600	65	5638
2026-01-11 09:32:16.98	351.60	13.97	-47.4	-51.1	15.0	0.00e+00	0	44	0	1160773632	65	5808
2026-01-11 09:32:20.95	351.38	13.59	-47.6	-51.3	14.7	1.50e-06	0	44	0	1168113664	65	5976
2026-01-11 09:32:24.92	351.18	13.20	-47.5	-51.7	14.4	1.50e-06	0	44	0	1175453696	66	5885
2026-01-11 09:32:28.90	350.97	12.83	-47.0	-51.8	14.3	7.00e-07	0	44	0	1182793728	66	5927
2026-01-11 09:32:32.87	350.78	12.46	-46.4	-51.7	14.2	0.00e+00	0	44	0	1191182336	64	6646
2026-01-11 09:32:36.85	350.59	12.09	-46.5	-51.5	14.5	7.00e-07	0	44	0	1198522368	64	6445
2026-01-11 09:32:40.82	350.40	11.73	-47.0	-51.4	14.6	0.00e+00	0	44	0	1205862400	64	6382
2026-01-11 09:32:44.79	350.22	11.38	-47.1	-51.5	14.5	0.00e+00	0	44	0	1213202432	64	6434
2026-01-11 09:32:48.76	350.05	11.03	-46.8	-51.7	14.2	7.00e-07	0	44	0	1220542464	64	6609
2026-01-11 09:32:52.73	349.87	10.68	-46.7	-52.0	14.0	7.00e-07	0	44	0	1227882496	64	6817
2026-01-11 09:32:56.71	349.71	10.34	-46.8	-52.4	13.5	3.80e-06	0	44	0	1235222528	64	7137
2026-01-11 09:33:00.68	349.54	10.00	-47.4	-52.6	13.4	1.60e-05	0	44	0	1242562560	65	6890
2026-01-11 09:33:04.65	349.38	9.67	-48.1	-52.9	12.9	3.28e-05	0	44	0	1249902592	66	6795
2026-01-11 09:33:08.63	349.23	9.34	-48.3	-52.7	13.1	3.89e-05	0	44	0	1257242624	67	6274
2026-01-11 09:33:12.60	349.08	9.02	-48.6	-53.2	12.7	5.11e-05	0	44	0	1265631232	67	6622
2026-01-11 09:33:16.58	348.93	8.70	-52.1	-67.5	3.8	1.49e+00	0	44	104	1265631232	75	21754
2026-01-11 09:33:20.55	348.79	8.38	-52.2	-67.7	3.8	1.49e+00	0	44	104	1265631232	75	22058
2026-01-11 09:33:24.53	348.65	8.07	-52.2	-67.7	3.8	1.49e+00	0	44	104	1265631232	75	22159
2026-01-11 09:33:28.50	348.51	7.76	-52.5	-67.7	3.8	1.49e+00	0	44	104	1265631232	75	22179
2026-01-11 09:33:32.48	348.37	7.45	-52.6	-67.8	3.8	1.49e+00	0	44	104	1265631232	75	22283
2026-01-11 09:33:36.45	348.24	7.15	-52.4	-67.7	3.8	1.49e+00	0	44	104	1265631232	75	22199
2026-01-11 09:33:40.43	348.12	6.85	-52.3	-67.7	3.8	1.49e+00	0	44	104	1265631232	75	22260
2026-01-11 09:33:44.40	347.99	6.55	-52.4	-67.7	3.8	1.49e+00	0	44	104	1265631232	75	22037
2026-01-11 09:33:48.37	347.87	6.26	-52.4	-67.7	3.8	1.49e+00	0	44	104	1265631232	75	22134
2026-01-11 09:33:52.34	347.75	5.97	-52.4	-67.7	3.8	1.49e+00	0	44	104	1265631232	75	22102
2026-01-11 09:33:56.32	347.63	5.69	-52.4	-67.7	3.8	1.49e+00	0	44	104	1265631232	75	22056
2026-01-11 09:34:00.30	347.52	5.40	-52.4	-67.7	3.8	1.49e+00	0	44	104	1265631232	75	22103
2026-01-11 09:34:04.28	347.41	5.12	-52.4	-67.7	3.8	1.49e+00	0	44	104	1265631232	75	22033

#Closed at: 2026-01-11 09:34:07
#Recorded file [1265 MB]: D:/Data/31040_260111_122129.dat