passes_logs/2026/01/11/T1/T1__20260111_005024_SUOMI_NPP_rec.log

#Pass ID: 20260111_005024_SUOMI NPP
#Satellite: SUOMI NPP
#Configuration: NPP
#almurnet v.1.7.20251203
#Start time: 2026-01-11 00:50:24

#Version: 2.0.20230620
#Station: T1
#Location: 37.570604 lon 55.790049 lat
#TLE: 1 37849U 11061A   26009.81756760  .00000113  00000+0  74747-4 0  9994
#TLE: 2 37849  98.7806 311.9110 0002525  72.5604 287.5848 14.19524046735974

#Time	Az	El	Level	Level2	SNR	BER	BlckErr	Temp	State	Recorded	gain1	gain2
2026-01-11 00:50:24.37	9.93	4.98	-49.4	-65.7	3.8	1.49e+00	0	41	0	0	70	23313
2026-01-11 00:50:27.38	9.77	5.18	-48.0	-65.2	3.8	1.49e+00	0	41	104	0	66	27901
2026-01-11 00:50:30.39	9.61	5.39	-48.0	-65.2	3.8	1.49e+00	0	41	104	0	66	27844
2026-01-11 00:50:33.40	9.45	5.59	-48.0	-65.2	3.8	1.49e+00	0	42	104	0	66	27784
2026-01-11 00:50:36.42	9.29	5.80	-48.0	-65.2	3.8	1.49e+00	0	42	104	0	66	27875
2026-01-11 00:50:39.43	9.12	6.00	-48.0	-65.1	3.8	1.49e+00	0	42	104	0	66	27493
2026-01-11 00:50:42.44	8.95	6.21	-48.0	-65.0	3.8	1.49e+00	0	42	104	0	66	27084
2026-01-11 00:50:45.45	8.78	6.42	-48.0	-64.9	3.8	1.49e+00	0	42	104	0	66	26960
2026-01-11 00:50:48.47	8.60	6.63	-48.0	-64.8	3.8	1.49e+00	0	42	104	0	66	26663
2026-01-11 00:50:51.48	8.43	6.85	-48.0	-64.4	3.8	1.49e+00	0	42	104	0	66	25521
2026-01-11 00:50:54.49	8.25	7.06	-48.0	-64.6	3.8	1.49e+00	0	42	104	0	66	25964
2026-01-11 00:50:57.51	8.06	7.28	-48.0	-65.1	3.8	1.49e+00	0	42	104	0	66	27705
2026-01-11 00:51:00.52	7.88	7.50	-47.9	-63.9	3.8	1.49e+00	0	43	104	0	66	24043
2026-01-11 00:51:03.53	7.69	7.71	-47.8	-60.6	4.5	1.27e+00	0	42	0	1048576	66	16323
2026-01-11 00:51:06.54	7.50	7.94	-47.4	-57.2	6.7	2.32e-01	0	43	0	6291456	66	11072
2026-01-11 00:51:09.56	7.30	8.16	-46.9	-54.7	9.1	3.12e-02	0	43	0	11534336	65	8799
2026-01-11 00:51:12.57	7.10	8.38	-46.3	-52.4	11.4	1.40e-03	0	43	0	17825792	64	7185
2026-01-11 00:51:15.58	6.90	8.61	-46.1	-52.0	11.9	4.05e-04	0	43	0	23068672	64	6807
2026-01-11 00:51:18.59	6.70	8.83	-46.5	-53.0	10.9	1.86e-03	0	43	0	28311552	64	7678
2026-01-11 00:51:21.60	6.49	9.06	-46.2	-52.1	11.7	8.06e-02	0	43	0	34603008	64	6916
2026-01-11 00:51:24.61	6.28	9.29	-47.8	-57.7	6.1	1.49e+00	0	43	104	38797312	66	11812
2026-01-11 00:51:27.63	6.06	9.53	-45.2	-50.0	14.0	1.50e-06	0	43	0	44040192	62	6082
2026-01-11 00:51:30.64	5.84	9.76	-45.0	-49.4	14.6	7.00e-07	0	43	0	49283072	61	6013
2026-01-11 00:51:33.65	5.62	10.00	-45.1	-49.3	14.6	7.00e-07	0	43	0	54525952	61	5988
2026-01-11 00:51:36.66	5.40	10.24	-45.4	-49.4	14.6	0.00e+00	0	43	0	60817408	61	6050
2026-01-11 00:51:39.67	5.17	10.48	-45.5	-49.6	14.4	0.00e+00	0	43	0	66060288	61	6180
2026-01-11 00:51:42.67	4.93	10.72	-45.7	-49.5	14.5	7.00e-07	0	43	0	72351744	62	5787
2026-01-11 00:51:45.68	4.69	10.96	-45.8	-49.6	14.5	0.00e+00	0	43	0	77594624	62	5799
2026-01-11 00:51:48.69	4.45	11.20	-46.0	-49.6	14.5	0.00e+00	0	43	0	82837504	62	5819
2026-01-11 00:51:51.70	4.21	11.45	-45.9	-49.3	14.8	0.00e+00	0	43	0	89128960	62	5627
2026-01-11 00:51:54.71	3.95	11.70	-45.9	-49.4	14.8	0.00e+00	0	43	0	94371840	62	5682
2026-01-11 00:51:57.72	3.70	11.95	-45.8	-49.3	14.9	0.00e+00	0	43	0	99614720	62	5604
2026-01-11 00:52:00.73	3.44	12.21	-45.6	-49.1	15.1	0.00e+00	0	43	0	105906176	62	5483
2026-01-11 00:52:03.74	3.17	12.46	-45.5	-49.0	15.2	0.00e+00	0	43	0	111149056	62	5411
2026-01-11 00:52:06.76	2.90	12.72	-45.5	-49.1	15.0	0.00e+00	0	43	0	117440512	62	5508
2026-01-11 00:52:09.77	2.63	12.98	-45.4	-48.9	15.3	0.00e+00	0	43	0	122683392	62	5344
2026-01-11 00:52:12.77	2.35	13.24	-45.2	-48.6	15.5	0.00e+00	0	43	0	127926272	62	5217
2026-01-11 00:52:15.79	2.06	13.50	-44.9	-48.4	15.8	0.00e+00	0	43	0	134217728	61	5361
2026-01-11 00:52:18.79	1.77	13.77	-45.0	-48.6	15.6	0.00e+00	0	43	0	139460608	61	5467
2026-01-11 00:52:21.80	1.48	14.04	-45.0	-48.4	15.8	0.00e+00	0	43	0	144703488	61	5385
2026-01-11 00:52:24.81	1.18	14.31	-45.1	-48.5	15.7	0.00e+00	0	43	0	150994944	61	5431
2026-01-11 00:52:27.82	0.87	14.58	-45.0	-48.3	15.8	0.00e+00	0	43	0	156237824	61	5337
2026-01-11 00:52:30.84	0.55	14.86	-45.2	-48.6	15.7	0.00e+00	0	43	0	162529280	61	5465
2026-01-11 00:52:33.85	0.24	15.13	-45.4	-48.9	15.3	0.00e+00	0	43	0	167772160	61	5687
2026-01-11 00:52:36.86	359.91	15.41	-45.4	-48.9	15.3	0.00e+00	0	44	0	173015040	61	5688
2026-01-11 00:52:39.87	359.58	15.69	-45.7	-49.3	15.1	0.00e+00	0	43	0	179306496	62	5616
2026-01-11 00:52:42.88	359.24	15.98	-45.8	-49.2	15.1	0.00e+00	0	43	0	184549376	62	5546
2026-01-11 00:52:45.89	358.89	16.26	-45.8	-49.2	15.1	0.00e+00	0	44	0	190840832	62	5588
2026-01-11 00:52:48.90	358.54	16.55	-45.6	-49.0	15.3	0.00e+00	0	44	0	196083712	62	5444
2026-01-11 00:52:51.91	358.18	16.84	-45.3	-48.7	15.7	0.00e+00	0	43	0	201326592	62	5220
2026-01-11 00:52:54.92	357.82	17.13	-45.1	-48.3	16.0	0.00e+00	0	43	0	207618048	62	5010
2026-01-11 00:52:57.93	357.44	17.43	-44.9	-47.9	16.4	0.00e+00	0	44	0	212860928	61	5065
2026-01-11 00:53:00.94	357.06	17.73	-44.8	-47.7	16.5	0.00e+00	0	44	0	218103808	61	4983
2026-01-11 00:53:03.95	356.67	18.03	-45.2	-48.3	16.0	0.00e+00	0	44	0	224395264	61	5324
2026-01-11 00:53:06.97	356.28	18.33	-45.5	-48.7	15.6	0.00e+00	0	44	0	229638144	61	5568
2026-01-11 00:53:09.98	355.87	18.63	-45.6	-49.0	15.4	0.00e+00	0	43	0	235929600	62	5414
2026-01-11 00:53:12.98	355.46	18.94	-45.2	-48.6	15.8	0.00e+00	0	44	0	241172480	62	5164
2026-01-11 00:53:15.99	355.04	19.25	-45.0	-48.3	16.0	0.00e+00	0	44	0	246415360	61	5307
2026-01-11 00:53:19.00	354.60	19.56	-45.0	-48.3	16.0	0.00e+00	0	44	0	252706816	61	5326
2026-01-11 00:53:22.01	354.16	19.87	-45.4	-48.9	15.5	0.00e+00	0	44	0	257949696	61	5676
2026-01-11 00:53:25.02	353.71	20.18	-46.2	-49.9	14.6	0.00e+00	0	44	0	264241152	62	6000
2026-01-11 00:53:28.03	353.26	20.50	-46.2	-49.8	14.7	1.50e-06	0	44	0	269484032	63	5604
2026-01-11 00:53:31.04	352.79	20.82	-46.1	-49.6	14.8	7.00e-07	0	44	0	274726912	63	5492
2026-01-11 00:53:34.05	352.31	21.14	-46.1	-49.6	14.9	0.00e+00	0	44	0	281018368	63	5498
2026-01-11 00:53:37.06	351.82	21.47	-46.1	-49.5	15.0	7.00e-07	0	44	0	286261248	63	5424
2026-01-11 00:53:40.07	351.32	21.79	-46.0	-49.3	15.2	0.00e+00	0	44	0	292552704	63	5282
2026-01-11 00:53:43.08	350.81	22.12	-45.7	-48.9	15.5	0.00e+00	0	44	0	297795584	63	5082
2026-01-11 00:53:46.10	350.28	22.45	-45.4	-48.6	15.9	0.00e+00	0	44	0	303038464	62	5182
2026-01-11 00:53:49.11	349.75	22.78	-45.1	-48.2	16.2	0.00e+00	0	44	0	309329920	61	5238
2026-01-11 00:53:52.12	349.21	23.11	-44.8	-47.7	16.6	0.00e+00	0	44	0	314572800	61	4979
2026-01-11 00:53:55.12	348.65	23.44	-44.9	-47.9	16.5	0.00e+00	0	44	0	319815680	61	5082
2026-01-11 00:53:58.13	348.08	23.77	-44.9	-48.2	16.2	0.00e+00	0	44	0	326107136	61	5261
2026-01-11 00:54:01.14	347.50	24.11	-45.1	-48.6	15.8	0.00e+00	0	44	0	331350016	61	5526
2026-01-11 00:54:04.15	346.91	24.45	-45.4	-48.9	15.5	0.00e+00	0	44	0	337641472	61	5702
2026-01-11 00:54:07.16	346.30	24.78	-45.9	-49.4	15.1	0.00e+00	0	44	0	342884352	62	5693
2026-01-11 00:54:10.17	345.68	25.12	-46.6	-50.4	14.1	0.00e+00	0	44	0	348127232	63	6041
2026-01-11 00:54:13.18	345.04	25.46	-46.8	-51.0	13.5	7.60e-06	0	44	0	354418688	64	6078
2026-01-11 00:54:16.19	344.39	25.80	-46.6	-50.6	13.8	2.20e-06	0	44	0	359661568	64	5831
2026-01-11 00:54:19.20	343.73	26.14	-46.3	-49.9	14.6	0.00e+00	0	44	0	364904448	64	5357
2026-01-11 00:54:22.21	343.06	26.48	-46.1	-49.5	14.9	0.00e+00	0	44	0	371195904	64	5144
2026-01-11 00:54:25.22	342.36	26.82	-46.0	-49.4	15.1	0.00e+00	0	44	0	376438784	63	5373
2026-01-11 00:54:28.23	341.66	27.16	-46.1	-49.5	15.0	0.00e+00	0	44	0	382730240	63	5425
2026-01-11 00:54:31.24	340.93	27.49	-46.1	-49.5	15.0	0.00e+00	0	44	0	387973120	63	5425
2026-01-11 00:54:34.25	340.20	27.83	-46.0	-49.4	14.9	0.00e+00	0	44	0	393216000	63	5372
2026-01-11 00:54:37.26	339.44	28.17	-46.3	-49.8	14.7	0.00e+00	0	44	0	399507456	63	5629
2026-01-11 00:54:40.27	338.67	28.50	-46.4	-49.9	14.7	0.00e+00	0	44	0	404750336	63	5663
2026-01-11 00:54:43.28	337.89	28.83	-46.0	-49.5	15.0	0.00e+00	0	44	0	411041792	63	5437
2026-01-11 00:54:46.29	337.08	29.16	-46.0	-49.7	14.8	0.00e+00	0	44	0	416284672	63	5551
2026-01-11 00:54:49.31	336.26	29.49	-46.6	-50.4	14.2	2.20e-06	0	44	0	421527552	63	6006
2026-01-11 00:54:52.31	335.43	29.81	-45.9	-49.6	14.9	0.00e+00	0	44	0	427819008	63	5470
2026-01-11 00:54:55.33	334.57	30.13	-45.8	-49.6	15.0	0.00e+00	0	44	0	433061888	62	5831
2026-01-11 00:54:58.34	333.70	30.45	-46.4	-50.3	14.3	2.20e-06	0	44	0	438304768	63	5936
2026-01-11 00:55:01.35	332.81	30.76	-47.3	-52.0	12.5	5.26e-05	0	44	0	444596224	65	6421
2026-01-11 00:55:04.36	331.90	31.07	-47.2	-51.9	12.6	3.52e-04	0	44	0	449839104	65	6349
2026-01-11 00:55:07.37	330.98	31.37	-46.4	-50.0	14.4	3.80e-06	0	44	0	456130560	64	5456
2026-01-11 00:55:10.38	330.04	31.67	-46.8	-50.9	13.5	6.10e-06	0	44	0	461373440	64	6023
2026-01-11 00:55:13.39	329.08	31.96	-47.7	-52.6	11.9	3.52e-04	0	44	0	466616320	66	6505
2026-01-11 00:55:16.40	328.11	32.25	-47.7	-52.3	12.2	2.17e-04	0	44	0	472907776	66	6346
2026-01-11 00:55:19.41	327.11	32.53	-48.0	-53.1	11.3	3.94e-04	0	44	0	478150656	66	6926
2026-01-11 00:55:22.42	326.10	32.80	-48.4	-54.1	10.3	6.03e-03	0	44	0	484442112	67	7317
2026-01-11 00:55:25.43	325.08	33.06	-48.1	-53.4	11.0	1.33e-03	0	44	0	489684992	67	6758
2026-01-11 00:55:28.45	324.03	33.32	-47.2	-51.6	13.0	2.44e-05	0	44	0	494927872	65	6133
2026-01-11 00:55:31.46	322.97	33.56	-47.5	-52.2	12.3	1.05e-04	0	44	0	501219328	65	6586
2026-01-11 00:55:34.47	321.89	33.80	-47.0	-51.4	13.1	1.13e-04	0	44	0	506462208	66	5693
2026-01-11 00:55:37.48	320.80	34.03	-46.7	-51.0	13.4	3.00e-06	0	44	0	511705088	64	6118
2026-01-11 00:55:40.49	319.69	34.24	-47.6	-52.5	11.8	8.89e-04	0	44	0	517996544	66	6476
2026-01-11 00:55:43.50	318.57	34.45	-47.2	-51.4	13.2	2.44e-05	0	44	0	523239424	66	5658
2026-01-11 00:55:46.51	317.44	34.64	-46.5	-50.0	14.4	9.90e-06	0	44	0	529530880	64	5464
2026-01-11 00:55:49.52	316.29	34.82	-46.2	-49.6	14.9	2.20e-06	0	44	0	534773760	64	5184
2026-01-11 00:55:52.53	315.13	34.99	-44.5	-47.1	17.3	0.00e+00	0	44	0	540016640	61	4643
2026-01-11 00:55:55.54	313.96	35.15	-44.4	-47.0	17.3	0.00e+00	0	44	0	546308096	60	4853
2026-01-11 00:55:58.55	312.77	35.29	-44.8	-47.6	16.8	0.00e+00	0	44	0	551550976	60	5199
2026-01-11 00:56:01.57	311.57	35.43	-45.6	-48.7	15.8	0.00e+00	0	44	0	557842432	62	5262
2026-01-11 00:56:04.58	310.37	35.54	-44.7	-47.4	17.0	0.00e+00	0	44	0	563085312	61	4785
2026-01-11 00:56:07.59	309.16	35.65	-44.8	-47.6	16.8	0.00e+00	0	44	0	568328192	60	5195
2026-01-11 00:56:10.60	307.94	35.73	-45.1	-48.1	16.4	0.00e+00	0	44	0	574619648	60	5485
2026-01-11 00:56:13.61	306.71	35.81	-44.6	-47.3	17.1	0.00e+00	0	44	0	579862528	61	4716
2026-01-11 00:56:16.62	305.48	35.87	-43.7	-46.1	18.1	0.00e+00	0	44	0	585105408	59	4620
2026-01-11 00:56:19.62	304.25	35.91	-45.3	-48.4	16.1	0.00e+00	0	44	0	591396864	61	5376
2026-01-11 00:56:22.63	303.02	35.94	-45.8	-49.1	15.4	0.00e+00	0	44	0	596639744	62	5518
2026-01-11 00:56:25.65	301.77	35.95	-45.4	-48.5	16.0	0.00e+00	0	44	0	602931200	62	5108
2026-01-11 00:56:28.66	300.53	35.95	-45.7	-48.7	15.8	0.00e+00	0	44	0	608174080	62	5270
2026-01-11 00:56:31.67	299.30	35.93	-45.5	-48.4	16.0	0.00e+00	0	44	0	613416960	62	5094
2026-01-11 00:56:34.68	298.06	35.90	-45.3	-48.3	16.1	0.00e+00	0	44	0	619708416	61	5304
2026-01-11 00:56:37.69	296.82	35.85	-45.5	-48.5	16.0	0.00e+00	0	44	0	624951296	62	5117
2026-01-11 00:56:40.70	295.59	35.79	-46.5	-50.0	14.5	0.00e+00	0	44	0	630194176	63	5778
2026-01-11 00:56:43.71	294.37	35.71	-46.3	-49.7	14.8	0.00e+00	0	44	0	636485632	63	5561
2026-01-11 00:56:46.72	293.15	35.62	-46.9	-50.8	13.7	0.00e+00	0	44	0	641728512	64	5960
2026-01-11 00:56:49.72	291.94	35.52	-46.8	-50.6	13.8	1.06e-05	0	44	0	648019968	65	5521
2026-01-11 00:56:52.74	290.74	35.40	-46.0	-49.2	15.2	0.00e+00	0	44	0	653262848	63	5278
2026-01-11 00:56:55.74	289.55	35.26	-46.0	-49.3	15.2	0.00e+00	0	44	0	658505728	63	5290
2026-01-11 00:56:58.75	288.37	35.12	-46.8	-50.5	13.9	1.29e-05	0	44	0	664797184	64	5755
2026-01-11 00:57:01.76	287.19	34.96	-46.3	-49.8	14.7	7.00e-07	0	44	0	670040064	64	5284
2026-01-11 00:57:04.78	286.03	34.78	-45.5	-48.5	16.0	0.00e+00	0	44	0	676331520	62	5119
2026-01-11 00:57:07.79	284.88	34.60	-46.0	-49.3	15.1	0.00e+00	0	44	0	681574400	62	5649
2026-01-11 00:57:10.79	283.75	34.40	-46.1	-49.3	15.1	0.00e+00	0	44	0	686817280	63	5318
2026-01-11 00:57:13.80	282.63	34.19	-45.1	-47.9	16.5	0.00e+00	0	44	0	693108736	61	5056
2026-01-11 00:57:16.81	281.53	33.97	-46.2	-49.5	14.8	0.00e+00	0	44	0	698351616	63	5459
2026-01-11 00:57:19.82	280.43	33.74	-46.8	-50.7	13.9	6.80e-06	0	44	0	703594496	64	5860
2026-01-11 00:57:22.83	279.36	33.50	-45.2	-48.0	16.4	0.00e+00	0	44	0	709885952	61	5146
2026-01-11 00:57:25.84	278.30	33.26	-46.5	-50.0	14.5	0.00e+00	0	44	0	715128832	63	5768
2026-01-11 00:57:28.85	277.26	33.00	-47.8	-52.5	12.0	2.27e-04	0	44	0	721420288	66	6439
2026-01-11 00:57:31.86	276.23	32.73	-47.9	-52.7	11.7	4.35e-04	0	44	0	726663168	66	6635
2026-01-11 00:57:34.87	275.22	32.46	-47.4	-51.8	12.6	1.14e-04	0	44	0	731906048	66	5946
2026-01-11 00:57:37.88	274.23	32.18	-47.8	-52.6	11.9	3.17e-04	0	44	0	738197504	66	6530
2026-01-11 00:57:40.90	273.25	31.89	-46.5	-50.2	14.1	5.30e-06	0	44	0	743440384	65	5228
2026-01-11 00:57:43.91	272.30	31.60	-46.2	-49.6	14.8	0.00e+00	0	44	0	748683264	64	5187
2026-01-11 00:57:46.92	271.36	31.30	-45.9	-49.1	15.4	0.00e+00	0	44	0	754974720	62	5498
2026-01-11 00:57:49.93	270.43	30.99	-47.5	-52.0	12.5	3.96e-05	0	44	0	760217600	65	6437
2026-01-11 00:57:52.94	269.53	30.68	-46.8	-50.6	13.8	8.30e-06	0	44	0	766509056	65	5491
2026-01-11 00:57:55.95	268.64	30.37	-46.1	-49.4	15.0	0.00e+00	0	44	0	771751936	63	5375
2026-01-11 00:57:58.96	267.77	30.05	-48.1	-53.3	11.1	4.55e-04	0	44	0	776994816	66	7077
2026-01-11 00:58:01.97	266.92	29.72	-47.5	-51.9	12.5	2.79e-04	0	44	0	783286272	66	6040
2026-01-11 00:58:04.98	266.08	29.40	-46.8	-50.8	13.6	3.80e-06	0	44	0	788529152	65	5612
2026-01-11 00:58:07.99	265.26	29.07	-47.5	-51.7	13.0	1.27e-03	0	44	0	794820608	66	5884
2026-01-11 00:58:11.01	264.46	28.74	-47.3	-51.6	12.8	1.18e-04	0	44	0	800063488	66	5826
2026-01-11 00:58:14.02	263.67	28.40	-46.0	-49.3	15.1	0.00e+00	0	44	0	805306368	63	5333
2026-01-11 00:58:17.03	262.90	28.07	-45.7	-48.9	15.5	0.00e+00	0	44	0	811597824	63	5057
2026-01-11 00:58:20.04	262.15	27.73	-46.2	-49.7	14.7	0.00e+00	0	44	0	816840704	63	5543
2026-01-11 00:58:23.05	261.41	27.39	-45.4	-48.6	15.8	0.00e+00	0	44	0	822083584	62	5174
2026-01-11 00:58:26.06	260.69	27.05	-44.9	-47.8	16.5	0.00e+00	0	44	0	828375040	61	4989
2026-01-11 00:58:29.07	259.99	26.71	-45.2	-48.2	16.1	0.00e+00	0	44	0	833617920	61	5250
2026-01-11 00:58:32.08	259.29	26.37	-44.8	-47.7	16.6	0.00e+00	0	44	0	839909376	61	4941
2026-01-11 00:58:35.09	258.62	26.03	-43.9	-46.4	17.7	0.00e+00	0	44	0	845152256	59	4814
2026-01-11 00:58:38.11	257.95	25.69	-44.1	-46.8	17.4	0.00e+00	0	44	0	850395136	59	5004
2026-01-11 00:58:41.11	257.31	25.35	-44.9	-47.9	16.4	0.00e+00	0	44	0	856686592	60	5369
2026-01-11 00:58:44.12	256.67	25.01	-44.3	-47.0	17.3	0.00e+00	0	44	0	861929472	60	4827
2026-01-11 00:58:47.14	256.05	24.67	-44.0	-46.6	17.6	0.00e+00	0	44	0	868220928	59	4884
2026-01-11 00:58:50.15	255.44	24.33	-44.0	-46.5	17.7	0.00e+00	0	44	0	873463808	59	4856
2026-01-11 00:58:53.16	254.85	23.99	-44.0	-46.5	17.7	0.00e+00	0	44	0	878706688	59	4847
2026-01-11 00:58:56.17	254.27	23.66	-44.1	-46.6	17.6	0.00e+00	0	44	0	884998144	59	4898
2026-01-11 00:58:59.18	253.70	23.32	-43.9	-46.4	17.8	0.00e+00	0	44	0	890241024	59	4770
2026-01-11 00:59:02.19	253.14	22.99	-44.1	-46.6	17.5	0.00e+00	0	44	0	895483904	59	4921
2026-01-11 00:59:05.20	252.60	22.66	-44.4	-47.1	17.1	0.00e+00	0	44	0	901775360	59	5163
2026-01-11 00:59:08.21	252.06	22.32	-44.6	-47.4	16.8	0.00e+00	0	44	0	907018240	59	5369
2026-01-11 00:59:11.22	251.54	22.00	-44.9	-47.9	16.4	0.00e+00	0	44	0	913309696	60	5368
2026-01-11 00:59:14.23	251.03	21.67	-45.1	-48.1	16.3	0.00e+00	0	44	0	918552576	61	5206
2026-01-11 00:59:17.25	250.53	21.34	-45.1	-48.0	16.3	0.00e+00	0	44	0	923795456	61	5105
2026-01-11 00:59:20.26	250.04	21.02	-45.3	-48.4	15.9	0.00e+00	0	44	0	930086912	61	5352
2026-01-11 00:59:23.27	249.56	20.69	-45.7	-48.9	15.4	0.00e+00	0	44	0	935329792	62	5361
2026-01-11 00:59:26.28	249.09	20.37	-45.1	-48.0	16.2	0.00e+00	0	44	0	941621248	62	4849
2026-01-11 00:59:29.29	248.63	20.06	-45.1	-48.0	16.2	0.00e+00	0	44	0	946864128	61	5154
2026-01-11 00:59:32.30	248.18	19.74	-45.3	-48.3	16.0	0.00e+00	0	44	0	952107008	61	5326
2026-01-11 00:59:35.31	247.74	19.43	-45.0	-47.9	16.3	0.00e+00	0	44	0	958398464	61	5059
2026-01-11 00:59:38.32	247.31	19.12	-44.6	-47.4	16.8	0.00e+00	0	44	0	963641344	61	4776
2026-01-11 00:59:41.33	246.88	18.81	-44.6	-47.4	16.8	0.00e+00	0	44	0	968884224	60	5074
2026-01-11 00:59:44.34	246.47	18.50	-44.7	-47.5	16.7	0.00e+00	0	44	0	975175680	60	5107
2026-01-11 00:59:47.35	246.06	18.20	-44.6	-47.4	16.8	0.00e+00	0	44	0	980418560	60	5069
2026-01-11 00:59:50.36	245.67	17.89	-44.5	-47.2	16.9	0.00e+00	0	44	0	986710016	60	4968
2026-01-11 00:59:53.37	245.28	17.59	-44.4	-47.1	17.1	0.00e+00	0	44	0	991952896	60	4872
2026-01-11 00:59:56.38	244.89	17.29	-44.6	-47.3	16.9	0.00e+00	0	44	0	997195776	60	4987
2026-01-11 00:59:59.38	244.52	17.00	-45.3	-48.3	15.9	0.00e+00	0	44	0	1003487232	61	5307
2026-01-11 01:00:02.40	244.15	16.71	-46.4	-49.9	14.3	0.00e+00	0	44	0	1008730112	63	5697
2026-01-11 01:00:05.41	243.79	16.41	-46.1	-49.5	14.7	7.00e-07	0	44	0	1013972992	63	5430
2026-01-11 01:00:08.42	243.44	16.13	-45.0	-47.9	16.3	0.00e+00	0	44	0	1020264448	62	4764
2026-01-11 01:00:11.43	243.09	15.84	-44.5	-47.2	16.9	0.00e+00	0	44	0	1025507328	60	4946
2026-01-11 01:00:14.44	242.75	15.56	-44.9	-47.8	16.4	0.00e+00	0	44	0	1031798784	60	5295
2026-01-11 01:00:17.45	242.42	15.27	-45.8	-49.1	15.1	0.00e+00	0	44	0	1037041664	62	5508
2026-01-11 01:00:20.45	242.09	15.00	-46.1	-49.6	14.6	0.00e+00	0	44	0	1042284544	63	5486
2026-01-11 01:00:23.46	241.77	14.72	-45.9	-49.2	15.0	0.00e+00	0	44	0	1048576000	63	5240
2026-01-11 01:00:26.47	241.46	14.44	-45.8	-49.2	15.0	0.00e+00	0	44	0	1053818880	63	5228
2026-01-11 01:00:29.48	241.15	14.17	-45.9	-49.3	14.8	7.00e-07	0	44	0	1060110336	63	5313
2026-01-11 01:00:32.49	240.85	13.90	-46.0	-49.5	14.7	1.50e-06	0	44	0	1065353216	63	5416
2026-01-11 01:00:35.50	240.55	13.63	-46.1	-49.6	14.6	1.50e-06	0	44	0	1070596096	63	5479
2026-01-11 01:00:38.50	240.26	13.37	-46.1	-49.6	14.5	1.50e-06	0	44	0	1076887552	63	5527
2026-01-11 01:00:41.51	239.97	13.10	-46.2	-49.8	14.4	7.00e-07	0	44	0	1082130432	63	5596
2026-01-11 01:00:44.52	239.69	12.84	-46.3	-49.8	14.3	7.00e-07	0	44	0	1087373312	63	5654
2026-01-11 01:00:47.53	239.41	12.58	-46.0	-49.4	14.7	0.00e+00	0	44	0	1093664768	63	5354
2026-01-11 01:00:50.54	239.14	12.32	-45.3	-48.4	15.7	0.00e+00	0	44	0	1098907648	62	5060
2026-01-11 01:00:53.55	238.88	12.07	-45.2	-48.2	15.8	0.00e+00	0	44	0	1105199104	62	4971
2026-01-11 01:00:56.56	238.61	11.81	-45.5	-48.8	15.3	0.00e+00	0	44	0	1110441984	62	5280
2026-01-11 01:00:59.57	238.36	11.56	-46.1	-49.7	14.4	0.00e+00	0	44	0	1115684864	62	5860
2026-01-11 01:01:02.58	238.10	11.31	-46.6	-50.7	13.3	7.60e-06	0	44	0	1121976320	64	5881
2026-01-11 01:01:05.59	237.85	11.06	-46.9	-51.2	12.7	6.48e-05	0	44	0	1127219200	64	6235
2026-01-11 01:01:08.60	237.61	10.82	-46.9	-51.2	12.7	8.46e-05	0	44	0	1132462080	64	6270
2026-01-11 01:01:11.61	237.37	10.57	-46.7	-50.8	13.1	3.28e-05	0	44	0	1138753536	64	5982
2026-01-11 01:01:14.63	237.13	10.33	-46.5	-50.6	13.4	1.98e-05	0	44	0	1143996416	64	5791
2026-01-11 01:01:17.64	236.90	10.09	-46.3	-50.1	13.8	5.30e-06	0	44	0	1150287872	64	5507
2026-01-11 01:01:20.65	236.67	9.85	-46.2	-50.0	13.9	0.00e+00	0	44	0	1155530752	64	5444
2026-01-11 01:01:23.66	236.45	9.62	-46.2	-50.0	14.0	1.50e-06	0	44	0	1160773632	63	5728
2026-01-11 01:01:26.67	236.23	9.38	-46.1	-49.8	14.2	3.80e-06	0	44	0	1167065088	63	5619
2026-01-11 01:01:29.68	236.01	9.15	-45.9	-49.5	14.5	1.50e-06	0	44	0	1172307968	63	5404
2026-01-11 01:01:32.69	235.80	8.92	-50.3	-65.3	3.8	1.45e+00	0	44	104	1176502272	71	21236
2026-01-11 01:01:35.70	235.59	8.69	-50.6	-65.8	3.8	1.49e+00	0	44	104	1176502272	71	22373
2026-01-11 01:01:38.71	235.38	8.46	-50.7	-65.9	3.8	1.49e+00	0	44	104	1176502272	72	21266
2026-01-11 01:01:41.73	235.18	8.24	-50.6	-65.9	3.8	1.49e+00	0	44	104	1176502272	72	21456
2026-01-11 01:01:44.74	234.97	8.01	-50.7	-65.9	3.8	1.49e+00	0	44	104	1176502272	72	21503
2026-01-11 01:01:47.75	234.78	7.79	-50.6	-66.0	3.8	1.49e+00	0	44	104	1176502272	72	21607
2026-01-11 01:01:50.77	234.58	7.57	-50.7	-65.9	3.8	1.49e+00	0	44	104	1176502272	72	21438
2026-01-11 01:01:53.78	234.39	7.35	-50.6	-65.9	3.8	1.49e+00	0	44	104	1176502272	72	21363
2026-01-11 01:01:56.79	234.20	7.13	-50.6	-65.9	3.8	1.49e+00	0	44	104	1176502272	72	21331
2026-01-11 01:01:59.81	234.02	6.92	-50.6	-65.9	3.8	1.49e+00	0	44	104	1176502272	72	21284
2026-01-11 01:02:02.82	233.84	6.70	-50.6	-65.9	3.8	1.49e+00	0	44	104	1176502272	72	21299
2026-01-11 01:02:05.83	233.66	6.49	-50.6	-65.9	3.8	1.49e+00	0	44	104	1176502272	72	21303
2026-01-11 01:02:08.85	233.48	6.28	-50.6	-65.9	3.8	1.49e+00	0	44	104	1176502272	72	21288
2026-01-11 01:02:11.86	233.30	6.07	-50.6	-65.9	3.8	1.49e+00	0	44	104	1176502272	72	21285
2026-01-11 01:02:14.87	233.13	5.86	-50.6	-65.8	3.8	1.49e+00	0	44	104	1176502272	72	21201
2026-01-11 01:02:17.89	232.96	5.65	-50.5	-65.9	3.8	1.49e+00	0	44	104	1176502272	72	21322
2026-01-11 01:02:20.90	232.80	5.44	-50.6	-65.8	3.8	1.49e+00	0	44	104	1176502272	72	21215
2026-01-11 01:02:23.91	232.63	5.24	-50.6	-65.8	3.8	1.49e+00	0	44	104	1176502272	72	21224
2026-01-11 01:02:26.93	232.47	5.04	-50.6	-65.8	3.8	1.49e+00	0	44	104	1176502272	72	21257

#Closed at: 2026-01-11 01:02:28
#Recorded file [1176 MB]: D:/Data/31040_260111_035024.dat