passes_logs/2026/01/11/T1/T1__20260111_015001_FENGYUN_3D_rec.log

#Pass ID: 20260111_015001_FENGYUN 3D
#Satellite: FENGYUN 3D
#Configuration: FENGYUN 3D
#almurnet v.1.7.20251203
#Start time: 2026-01-11 01:50:02

#Version: 2.0.20230620
#Station: T1
#Location: 37.570604 lon 55.790049 lat
#TLE: 1 43010U 17072A   26009.92921666 -.00000228  00000+0 -86059-4 0  9998
#TLE: 2 43010  98.9936 341.6668 0002176 116.7510 243.3888 14.19693142422537

#Time	Az	El	Level	Level2	SNR	BER	BlckErr	Temp	State	Recorded	gain1	gain2
2026-01-11 01:50:02.66	16.32	5.09	-48.1	-61.3	3.8	8.47e-01	0	38	0	0	68	15851
2026-01-11 01:50:06.67	16.32	5.38	-48.0	-61.2	3.8	8.46e-01	0	38	104	0	66	17565
2026-01-11 01:50:10.69	16.32	5.67	-47.9	-60.3	3.8	8.47e-01	0	39	104	0	66	15938
2026-01-11 01:50:14.71	16.32	5.97	-47.9	-60.5	3.8	8.46e-01	0	39	104	0	66	16190
2026-01-11 01:50:18.72	16.32	6.27	-47.9	-61.0	3.8	8.48e-01	0	39	104	0	66	17150
2026-01-11 01:50:22.74	16.32	6.57	-47.9	-61.2	3.8	8.47e-01	0	39	104	0	66	17583
2026-01-11 01:50:26.76	16.31	6.87	-48.0	-61.9	3.8	8.47e-01	0	39	104	0	66	19165
2026-01-11 01:50:30.78	16.31	7.18	-47.8	-59.6	4.0	8.46e-01	0	39	104	0	66	14602
2026-01-11 01:50:34.79	16.31	7.49	-47.0	-54.6	6.2	3.76e-01	0	39	0	4194304	66	8190
2026-01-11 01:50:38.81	16.31	7.81	-46.0	-51.5	9.1	3.29e-02	0	40	0	26214400	64	6445
2026-01-11 01:50:42.83	16.31	8.13	-45.5	-50.2	10.6	5.01e-03	0	40	0	49283072	63	5869
2026-01-11 01:50:46.84	16.30	8.46	-45.2	-49.6	11.2	1.82e-03	0	40	0	71303168	62	5848
2026-01-11 01:50:50.86	16.30	8.79	-45.6	-50.4	10.4	4.83e-03	0	40	0	94371840	62	6385
2026-01-11 01:50:54.88	16.29	9.12	-46.6	-53.0	7.7	1.06e-01	0	40	0	116391936	64	7643
2026-01-11 01:50:58.89	16.29	9.46	-42.6	-45.3	15.5	8.28e-04	0	40	0	130023424	57	4745
2026-01-11 01:51:02.90	16.28	9.80	-41.2	-43.6	17.1	0.00e+00	0	40	0	152043520	54	4643
2026-01-11 01:51:06.91	16.28	10.15	-40.9	-43.3	17.3	0.00e+00	0	40	0	175112192	53	4757
2026-01-11 01:51:10.92	16.27	10.50	-40.8	-43.1	17.6	0.00e+00	0	40	0	197132288	53	4615
2026-01-11 01:51:14.94	16.26	10.86	-40.7	-43.0	17.7	0.00e+00	0	40	0	220200960	53	4567
2026-01-11 01:51:18.95	16.26	11.22	-40.8	-43.1	17.7	0.00e+00	0	40	0	242221056	53	4602
2026-01-11 01:51:22.96	16.25	11.59	-40.8	-43.0	17.7	0.00e+00	0	40	0	265289728	53	4597
2026-01-11 01:51:26.98	16.24	11.96	-40.7	-42.9	17.8	0.00e+00	0	40	0	288358400	53	4545
2026-01-11 01:51:30.99	16.23	12.34	-40.6	-42.9	17.9	0.00e+00	0	40	0	310378496	53	4505
2026-01-11 01:51:35.00	16.22	12.72	-40.7	-42.9	17.9	0.00e+00	0	40	0	333447168	53	4494
2026-01-11 01:51:39.01	16.21	13.12	-40.4	-42.5	18.3	0.00e+00	0	40	0	355467264	52	4586
2026-01-11 01:51:43.02	16.20	13.51	-40.3	-42.4	18.4	0.00e+00	0	40	0	378535936	52	4527
2026-01-11 01:51:47.03	16.19	13.92	-40.1	-42.1	18.6	0.00e+00	0	40	0	400556032	52	4388
2026-01-11 01:51:51.05	16.17	14.33	-40.0	-42.0	18.9	0.00e+00	0	40	0	423624704	51	4568
2026-01-11 01:51:55.06	16.16	14.75	-39.8	-41.8	19.1	0.00e+00	0	40	0	445644800	51	4471
2026-01-11 01:51:59.07	16.14	15.17	-39.6	-41.5	19.3	0.00e+00	0	41	0	468713472	51	4329
2026-01-11 01:52:03.08	16.13	15.61	-39.5	-41.4	19.4	0.00e+00	0	40	0	490733568	51	4277
2026-01-11 01:52:07.09	16.11	16.05	-39.5	-41.4	19.5	0.00e+00	0	40	0	513802240	50	4499
2026-01-11 01:52:11.10	16.09	16.50	-39.5	-41.3	19.6	0.00e+00	0	40	0	535822336	50	4484
2026-01-11 01:52:15.12	16.07	16.96	-39.4	-41.3	19.6	0.00e+00	0	40	0	558891008	50	4442
2026-01-11 01:52:19.13	16.06	17.42	-39.4	-41.3	19.6	0.00e+00	0	40	0	580911104	50	4451
2026-01-11 01:52:23.15	16.03	17.90	-39.3	-41.1	19.7	0.00e+00	0	40	0	603979776	50	4389
2026-01-11 01:52:27.16	16.01	18.39	-39.2	-41.0	19.9	0.00e+00	0	41	0	627048448	50	4322
2026-01-11 01:52:31.17	15.99	18.88	-38.9	-40.7	20.1	0.00e+00	0	40	0	649068544	49	4422
2026-01-11 01:52:35.18	15.96	19.39	-38.8	-40.6	20.2	0.00e+00	0	41	0	671088640	49	4386
2026-01-11 01:52:39.20	15.94	19.90	-38.8	-40.6	20.3	0.00e+00	0	40	0	694157312	49	4346
2026-01-11 01:52:43.21	15.91	20.43	-38.7	-40.5	20.3	0.00e+00	0	41	0	716177408	49	4296
2026-01-11 01:52:47.22	15.88	20.97	-38.6	-40.4	20.4	0.00e+00	0	40	0	739246080	49	4280
2026-01-11 01:52:51.23	15.85	21.52	-38.5	-40.3	20.5	0.00e+00	0	40	0	762314752	49	4233
2026-01-11 01:52:55.24	15.82	22.08	-38.7	-40.5	20.3	0.00e+00	0	40	0	784334848	49	4316
2026-01-11 01:52:59.26	15.78	22.66	-38.5	-40.3	20.5	0.00e+00	0	40	0	806354944	49	4223
2026-01-11 01:53:03.27	15.75	23.24	-38.6	-40.4	20.4	0.00e+00	0	41	0	829423616	49	4254
2026-01-11 01:53:07.28	15.71	23.85	-38.4	-40.2	20.6	0.00e+00	0	41	0	852492288	48	4422
2026-01-11 01:53:11.30	15.67	24.46	-38.2	-39.9	20.9	0.00e+00	0	41	0	874512384	48	4277
2026-01-11 01:53:15.31	15.63	25.09	-37.9	-39.7	20.9	0.00e+00	0	40	0	897581056	47	4395
2026-01-11 01:53:19.32	15.58	25.74	-38.0	-39.7	20.8	0.00e+00	0	41	0	919601152	47	4440
2026-01-11 01:53:23.33	15.53	26.40	-38.0	-39.8	20.8	0.00e+00	0	40	0	942669824	47	4474
2026-01-11 01:53:27.34	15.48	27.08	-38.0	-39.8	20.9	0.00e+00	0	41	0	964689920	47	4456
2026-01-11 01:53:31.35	15.43	27.78	-37.8	-39.6	21.0	0.00e+00	0	40	0	987758592	47	4356
2026-01-11 01:53:35.37	15.37	28.50	-37.9	-39.6	21.0	0.00e+00	0	41	0	1009778688	47	4388
2026-01-11 01:53:39.38	15.31	29.23	-37.9	-39.6	21.0	0.00e+00	0	40	0	1032847360	47	4369
2026-01-11 01:53:43.39	15.25	29.98	-37.7	-39.4	21.2	0.00e+00	0	40	0	1054867456	47	4270
2026-01-11 01:53:47.40	15.19	30.76	-37.6	-39.4	21.2	0.00e+00	0	40	0	1077936128	47	4250
2026-01-11 01:53:51.41	15.11	31.55	-37.5	-39.2	21.4	0.00e+00	0	40	0	1099956224	47	4170
2026-01-11 01:53:55.42	15.04	32.37	-37.1	-38.8	21.7	0.00e+00	0	40	0	1123024896	46	4232
2026-01-11 01:53:59.44	14.96	33.21	-37.2	-38.9	21.7	0.00e+00	0	40	0	1145044992	46	4280
2026-01-11 01:54:03.45	14.87	34.08	-37.3	-39.0	21.6	0.00e+00	0	40	0	1168113664	46	4318
2026-01-11 01:54:07.46	14.78	34.97	-36.9	-38.6	21.9	0.00e+00	0	41	0	1191182336	45	4388
2026-01-11 01:54:11.47	14.69	35.88	-37.5	-39.3	21.3	0.00e+00	0	41	0	1213202432	45	4714
2026-01-11 01:54:15.48	14.58	36.82	-36.8	-38.5	22.0	0.00e+00	0	41	0	1236271104	45	4325
2026-01-11 01:54:19.50	14.47	37.80	-37.0	-38.7	21.8	0.00e+00	0	40	0	1258291200	45	4421
2026-01-11 01:54:23.51	14.35	38.80	-37.6	-39.3	21.3	0.00e+00	0	40	0	1281359872	45	4752
2026-01-11 01:54:27.52	14.23	39.82	-37.5	-39.2	21.4	0.00e+00	0	40	0	1303379968	45	4680
2026-01-11 01:54:31.53	14.09	40.88	-37.5	-39.2	21.4	0.00e+00	0	41	0	1326448640	45	4685
2026-01-11 01:54:35.55	13.95	41.98	-37.4	-39.1	21.6	0.00e+00	0	41	0	1348468736	45	4609
2026-01-11 01:54:39.56	13.79	43.10	-37.7	-39.4	21.2	0.00e+00	0	40	0	1371537408	46	4539
2026-01-11 01:54:43.57	13.62	44.26	-38.1	-39.9	20.9	0.00e+00	0	41	0	1393557504	46	4761
2026-01-11 01:54:47.58	13.43	45.46	-37.5	-39.2	21.4	0.00e+00	0	40	0	1416626176	46	4415
2026-01-11 01:54:51.60	13.23	46.69	-38.1	-39.8	20.9	0.00e+00	0	40	0	1438646272	46	4746
2026-01-11 01:54:55.61	13.01	47.96	-37.2	-38.9	21.7	0.00e+00	0	40	0	1461714944	46	4269
2026-01-11 01:54:59.62	12.77	49.27	-37.5	-39.3	21.2	0.00e+00	0	40	0	1483735040	46	4450
2026-01-11 01:55:03.63	12.51	50.62	-38.2	-40.0	20.5	0.00e+00	0	41	0	1506803712	47	4548
2026-01-11 01:55:07.64	12.22	52.00	-38.5	-40.4	20.1	0.00e+00	0	40	0	1528823808	47	4786
2026-01-11 01:55:11.65	11.90	53.43	-39.0	-40.9	19.9	0.00e+00	0	41	0	1551892480	49	4507
2026-01-11 01:55:15.67	11.55	54.90	-39.1	-41.0	19.7	0.00e+00	0	40	0	1573912576	49	4586
2026-01-11 01:55:19.69	11.16	56.41	-38.5	-40.3	20.5	0.00e+00	0	41	0	1596981248	49	4215
2026-01-11 01:55:23.70	10.71	57.96	-38.3	-40.1	20.6	0.00e+00	0	41	0	1619001344	48	4371
2026-01-11 01:55:27.71	10.22	59.55	-37.5	-39.3	21.0	0.00e+00	0	41	0	1642070016	47	4226
2026-01-11 01:55:31.73	9.65	61.18	-38.0	-39.9	20.6	0.00e+00	0	40	0	1665138688	47	4517
2026-01-11 01:55:35.74	9.00	62.85	-37.6	-39.4	21.0	0.00e+00	0	41	0	1687158784	46	4507
2026-01-11 01:55:39.76	8.25	64.56	-37.1	-38.8	21.4	0.00e+00	0	41	0	1709178880	46	4237
2026-01-11 01:55:43.77	7.38	66.30	-36.8	-38.6	21.5	0.00e+00	0	41	0	1732247552	45	4352
2026-01-11 01:55:47.79	6.34	68.07	-36.5	-38.3	21.9	0.00e+00	0	40	0	1755316224	44	4443
2026-01-11 01:55:51.80	5.11	69.87	-36.1	-37.9	22.2	0.00e+00	0	40	0	1777336320	44	4244
2026-01-11 01:55:55.81	3.61	71.70	-36.0	-37.7	22.2	0.00e+00	0	40	0	1800404992	43	4441
2026-01-11 01:55:59.82	1.75	73.54	-36.0	-37.8	22.1	0.00e+00	0	40	0	1822425088	43	4455
2026-01-11 01:56:03.83	359.39	75.39	-35.6	-37.4	22.4	0.00e+00	0	40	0	1845493760	42	4498
2026-01-11 01:56:07.84	356.32	77.23	-35.2	-36.9	22.7	0.00e+00	0	40	0	1867513856	42	4285
2026-01-11 01:56:11.86	352.16	79.05	-34.4	-36.1	23.2	0.00e+00	0	40	0	1890582528	40	4383
2026-01-11 01:56:15.87	346.36	80.81	-34.2	-35.9	23.5	0.00e+00	0	40	0	1912602624	40	4268
2026-01-11 01:56:19.88	337.88	82.44	-34.3	-36.0	23.4	0.00e+00	0	40	0	1935671296	40	4312
2026-01-11 01:56:23.90	325.09	83.84	-34.4	-36.0	23.4	0.00e+00	0	40	0	1957691392	40	4338
2026-01-11 01:56:27.91	306.43	84.77	-35.0	-36.7	22.9	0.00e+00	0	41	0	1980760064	40	4690
2026-01-11 01:56:31.92	283.25	84.98	-34.9	-36.6	23.0	0.00e+00	0	41	0	2002780160	41	4342
2026-01-11 01:56:35.93	261.77	84.38	-35.1	-36.8	22.8	0.00e+00	0	41	0	2025848832	41	4481
2026-01-11 01:56:39.95	246.13	83.18	-34.8	-36.5	23.0	0.00e+00	0	40	0	2047868928	41	4311
2026-01-11 01:56:43.96	235.74	81.65	-34.7	-36.3	23.2	0.00e+00	0	40	0	2070937600	40	4485
2026-01-11 01:56:47.97	228.75	79.94	-34.7	-36.4	23.1	0.00e+00	0	40	0	2094006272	40	4523
2026-01-11 01:56:51.99	223.85	78.14	-34.8	-36.5	23.1	0.00e+00	0	41	0	2116026368	40	4557
2026-01-11 01:56:56.00	220.29	76.31	-35.1	-36.8	22.8	0.00e+00	0	40	0	2139095040	40	4758
2026-01-11 01:57:00.01	217.61	74.46	-35.5	-37.2	22.5	0.00e+00	0	41	0	2161115136	41	4697
2026-01-11 01:57:04.02	215.52	72.61	-35.9	-37.6	22.2	0.00e+00	0	41	0	2184183808	42	4623
2026-01-11 01:57:08.03	213.85	70.77	-36.4	-38.2	21.8	0.00e+00	0	41	0	2206203904	43	4653
2026-01-11 01:57:12.05	212.49	68.95	-36.8	-38.5	21.7	0.00e+00	0	40	0	2229272576	44	4585
2026-01-11 01:57:16.06	211.36	67.16	-36.6	-38.3	21.8	0.00e+00	0	41	0	2251292672	44	4486
2026-01-11 01:57:20.07	210.41	65.40	-36.6	-38.4	21.7	0.00e+00	0	40	0	2274361344	44	4517
2026-01-11 01:57:24.08	209.60	63.67	-36.5	-38.3	21.9	0.00e+00	0	41	0	2296381440	44	4455
2026-01-11 01:57:28.10	208.91	61.97	-36.8	-38.5	21.8	0.00e+00	0	40	0	2319450112	44	4587
2026-01-11 01:57:32.11	208.30	60.32	-37.3	-39.0	21.3	0.00e+00	0	40	0	2341470208	45	4592
2026-01-11 01:57:36.12	207.77	58.71	-37.7	-39.5	20.9	0.00e+00	0	41	0	2364538880	46	4577
2026-01-11 01:57:40.13	207.30	57.13	-38.3	-40.1	20.3	0.00e+00	0	40	0	2386558976	47	4634
2026-01-11 01:57:44.15	206.88	55.60	-38.6	-40.5	20.3	0.00e+00	0	40	0	2409627648	48	4550
2026-01-11 01:57:48.16	206.51	54.10	-38.4	-40.2	20.5	0.00e+00	0	40	0	2432696320	48	4436
2026-01-11 01:57:52.17	206.17	52.65	-38.2	-40.0	20.7	0.00e+00	0	40	0	2454716416	48	4319
2026-01-11 01:57:56.18	205.86	51.24	-38.0	-39.8	20.8	0.00e+00	0	40	0	2476736512	48	4204
2026-01-11 01:58:00.20	205.59	49.87	-37.4	-39.2	21.1	0.00e+00	0	40	0	2499805184	46	4428
2026-01-11 01:58:04.22	205.34	48.53	-37.1	-38.8	21.5	0.00e+00	0	40	0	2522873856	46	4215
2026-01-11 01:58:08.22	205.11	47.24	-37.1	-38.9	21.4	0.00e+00	0	40	0	2544893952	46	4258
2026-01-11 01:58:12.23	204.90	45.99	-37.3	-39.1	21.2	0.00e+00	0	40	0	2567962624	46	4350
2026-01-11 01:58:16.25	204.70	44.77	-37.2	-39.0	21.3	0.00e+00	0	40	0	2589982720	46	4314
2026-01-11 01:58:20.26	204.52	43.59	-37.4	-39.2	21.0	0.00e+00	0	40	0	2613051392	46	4438
2026-01-11 01:58:24.27	204.36	42.44	-37.3	-39.1	21.1	0.00e+00	0	40	0	2635071488	46	4351
2026-01-11 01:58:28.28	204.20	41.33	-37.1	-38.9	21.2	0.00e+00	0	40	0	2658140160	46	4280
2026-01-11 01:58:32.30	204.06	40.24	-37.0	-38.8	21.3	0.00e+00	0	40	0	2680160256	46	4222
2026-01-11 01:58:36.31	203.93	39.20	-36.6	-38.3	21.7	0.00e+00	0	40	0	2703228928	45	4229
2026-01-11 01:58:40.32	203.80	38.18	-36.5	-38.2	21.7	0.00e+00	0	40	0	2725249024	45	4191
2026-01-11 01:58:44.33	203.69	37.19	-36.4	-38.2	21.8	0.00e+00	0	40	0	2748317696	44	4398
2026-01-11 01:58:48.35	203.58	36.23	-36.7	-38.4	21.6	0.00e+00	0	40	0	2770337792	44	4538
2026-01-11 01:58:52.36	203.48	35.30	-37.1	-38.9	21.2	0.00e+00	0	40	0	2793406464	44	4785
2026-01-11 01:58:56.37	203.38	34.39	-37.2	-39.0	21.0	0.00e+00	0	41	0	2815426560	45	4569
2026-01-11 01:59:00.39	203.29	33.51	-37.2	-39.0	21.1	0.00e+00	0	40	0	2838495232	45	4560
2026-01-11 01:59:04.40	203.21	32.66	-37.2	-39.0	21.0	0.00e+00	0	40	0	2860515328	45	4574
2026-01-11 01:59:08.42	203.13	31.82	-37.3	-39.1	21.0	0.00e+00	0	40	0	2883584000	45	4623
2026-01-11 01:59:12.43	203.05	31.01	-37.1	-38.9	21.1	0.00e+00	0	41	0	2905604096	45	4536
2026-01-11 01:59:16.44	202.98	30.23	-37.0	-38.7	21.3	0.00e+00	0	40	0	2928672768	45	4441
2026-01-11 01:59:20.45	202.92	29.46	-37.1	-38.9	21.2	0.00e+00	0	40	0	2950692864	45	4494
2026-01-11 01:59:24.47	202.85	28.71	-37.3	-39.1	21.0	0.00e+00	0	40	0	2973761536	45	4607
2026-01-11 01:59:28.48	202.79	27.98	-37.4	-39.2	20.9	0.00e+00	0	40	0	2996830208	45	4697
2026-01-11 01:59:32.50	202.74	27.28	-37.3	-39.1	21.0	0.00e+00	0	41	0	3018850304	45	4615
2026-01-11 01:59:36.51	202.68	26.59	-37.2	-39.0	21.1	0.00e+00	0	40	0	3041918976	45	4551
2026-01-11 01:59:40.53	202.63	25.91	-37.3	-39.1	21.0	0.00e+00	0	40	0	3063939072	45	4604
2026-01-11 01:59:44.54	202.58	25.25	-37.4	-39.2	20.8	0.00e+00	0	40	0	3087007744	45	4701
2026-01-11 01:59:48.56	202.54	24.61	-37.7	-39.6	20.5	0.00e+00	0	40	0	3109027840	46	4617
2026-01-11 01:59:52.57	202.49	23.99	-37.8	-39.7	20.5	0.00e+00	0	40	0	3132096512	46	4659
2026-01-11 01:59:56.58	202.45	23.38	-37.8	-39.6	20.5	0.00e+00	0	40	0	3154116608	46	4639
2026-01-11 02:00:00.59	202.41	22.78	-37.8	-39.6	20.5	0.00e+00	0	40	0	3177185280	46	4643
2026-01-11 02:00:04.61	202.37	22.20	-37.8	-39.6	20.5	0.00e+00	0	40	0	3199205376	46	4633
2026-01-11 02:00:08.62	202.34	21.63	-37.9	-39.8	20.4	0.00e+00	0	40	0	3222274048	46	4723
2026-01-11 02:00:12.63	202.30	21.07	-38.2	-40.0	20.1	0.00e+00	0	40	0	3244294144	47	4590
2026-01-11 02:00:16.64	202.27	20.52	-38.4	-40.2	19.9	0.00e+00	0	40	0	3267362816	47	4704
2026-01-11 02:00:20.66	202.24	19.99	-38.5	-40.4	19.8	0.00e+00	0	40	0	3290431488	47	4772
2026-01-11 02:00:24.67	202.21	19.47	-38.7	-40.6	19.8	0.00e+00	0	41	0	3312451584	48	4638
2026-01-11 02:00:28.69	202.18	18.95	-38.8	-40.7	19.8	0.00e+00	0	40	0	3334471680	48	4653
2026-01-11 02:00:32.70	202.15	18.45	-38.9	-40.8	19.7	0.00e+00	0	40	0	3357540352	48	4726
2026-01-11 02:00:36.71	202.13	17.96	-39.1	-41.0	19.5	0.00e+00	0	40	0	3380609024	48	4834
2026-01-11 02:00:40.73	202.10	17.48	-39.2	-41.1	19.4	0.00e+00	0	40	0	3402629120	49	4643
2026-01-11 02:00:44.74	202.08	17.00	-39.2	-41.1	19.4	0.00e+00	0	40	0	3425697792	49	4639
2026-01-11 02:00:48.76	202.06	16.54	-39.3	-41.2	19.3	0.00e+00	0	40	0	3447717888	49	4682
2026-01-11 02:00:52.77	202.04	16.09	-39.4	-41.4	19.1	0.00e+00	0	40	0	3470786560	49	4795
2026-01-11 02:00:56.78	202.01	15.64	-39.6	-41.6	18.9	0.00e+00	0	40	0	3492806656	49	4873
2026-01-11 02:01:00.80	202.00	15.20	-39.7	-41.7	18.9	0.00e+00	0	40	0	3515875328	50	4659
2026-01-11 02:01:04.82	201.98	14.77	-39.8	-41.8	18.7	0.00e+00	0	40	0	3537895424	50	4738
2026-01-11 02:01:08.82	201.96	14.35	-39.9	-41.9	18.6	0.00e+00	0	40	0	3560964096	50	4768
2026-01-11 02:01:12.84	201.94	13.93	-40.0	-42.0	18.5	0.00e+00	0	40	0	3582984192	50	4857
2026-01-11 02:01:16.86	201.93	13.52	-40.1	-42.2	18.3	0.00e+00	0	41	0	3606052864	50	4950
2026-01-11 02:01:20.87	201.91	13.12	-40.1	-42.2	18.3	0.00e+00	0	40	0	3629121536	50	4960
2026-01-11 02:01:24.89	201.89	12.72	-40.2	-42.3	18.2	0.00e+00	0	40	0	3651141632	51	4741
2026-01-11 02:01:28.90	201.88	12.33	-40.3	-42.4	18.1	0.00e+00	0	40	0	3673161728	51	4807
2026-01-11 02:01:32.91	201.87	11.95	-40.5	-42.6	17.9	0.00e+00	0	40	0	3696230400	51	4902
2026-01-11 02:01:36.93	201.85	11.57	-40.6	-42.7	17.8	0.00e+00	0	40	0	3719299072	51	4941
2026-01-11 02:01:40.94	201.84	11.20	-40.6	-42.7	17.8	0.00e+00	0	40	0	3741319168	51	4962
2026-01-11 02:01:44.96	201.83	10.83	-40.6	-42.7	17.6	0.00e+00	0	40	0	3764387840	52	4700
2026-01-11 02:01:48.97	201.82	10.47	-40.7	-42.9	17.5	0.00e+00	0	40	0	3786407936	52	4774
2026-01-11 02:01:52.98	201.81	10.12	-40.7	-42.9	17.5	0.00e+00	0	40	0	3809476608	52	4762
2026-01-11 02:01:56.99	201.80	9.77	-40.8	-43.0	17.4	0.00e+00	0	40	0	3831496704	52	4830
2026-01-11 02:02:01.01	201.79	9.42	-41.1	-43.3	17.1	0.00e+00	0	40	0	3854565376	52	5013
2026-01-11 02:02:05.02	201.78	9.08	-41.0	-43.2	17.2	0.00e+00	0	40	0	3876585472	52	4939
2026-01-11 02:02:09.03	201.77	8.75	-50.2	-62.4	3.8	8.48e-01	0	40	104	3881828352	71	15149
2026-01-11 02:02:13.05	201.76	8.41	-50.6	-62.7	3.8	8.48e-01	0	40	104	3881828352	71	15630
2026-01-11 02:02:17.07	201.75	8.09	-50.6	-62.7	3.8	8.47e-01	0	40	104	3881828352	72	14769
2026-01-11 02:02:21.09	201.75	7.76	-50.6	-62.7	3.8	8.46e-01	0	40	104	3881828352	72	14760
2026-01-11 02:02:25.11	201.74	7.44	-50.7	-62.7	3.8	8.47e-01	0	40	104	3881828352	72	14740
2026-01-11 02:02:29.13	201.73	7.13	-50.4	-62.6	3.8	8.47e-01	0	41	104	3881828352	72	14692
2026-01-11 02:02:33.14	201.73	6.82	-50.4	-62.6	3.8	8.47e-01	0	40	104	3881828352	72	14695
2026-01-11 02:02:37.16	201.72	6.51	-50.4	-62.6	3.8	8.47e-01	0	41	104	3881828352	72	14681
2026-01-11 02:02:41.18	201.72	6.20	-50.4	-62.7	3.8	8.47e-01	0	40	104	3881828352	72	14709
2026-01-11 02:02:45.20	201.71	5.90	-50.4	-62.6	3.8	8.46e-01	0	40	104	3881828352	72	14671
2026-01-11 02:02:49.22	201.70	5.61	-50.4	-62.7	3.8	8.46e-01	0	40	104	3881828352	72	14732
2026-01-11 02:02:53.23	201.70	5.31	-50.4	-62.6	3.8	8.46e-01	0	40	104	3881828352	72	14671
2026-01-11 02:02:57.25	201.70	5.02	-50.4	-62.6	3.8	8.47e-01	0	40	104	3881828352	72	14669

#Closed at: 2026-01-11 02:02:59
#Recorded file [3881 MB]: D:/Data/31040_260111_045002.dat