passes_logs/2026/01/11/T1/T1__20260111_051610_FENGYUN_3E_rec.log

#Pass ID: 20260111_051610_FENGYUN 3E
#Satellite: FENGYUN 3E
#Configuration: FENGYUN 3E
#almurnet v.1.7.20251203
#Start time: 2026-01-11 05:16:10

#Version: 2.0.20230620
#Station: T1
#Location: 37.570604 lon 55.790049 lat
#TLE: 1 49008U 21062A   26010.00248113 -.00000186  00000+0 -66867-4 0  9993
#TLE: 2 49008  98.7487  15.1892 0001787 147.8079 212.3207 14.19883469234134

#Time	Az	El	Level	Level2	SNR	BER	BlckErr	Temp	State	Recorded	gain1	gain2
2026-01-11 05:16:10.73	8.54	5.03	-49.2	-61.4	3.8	8.46e-01	0	41	0	0	69	14207
2026-01-11 05:16:13.74	8.35	5.23	-49.4	-61.2	3.8	8.47e-01	0	42	104	0	68	14550
2026-01-11 05:16:16.75	8.16	5.42	-49.4	-61.1	3.8	8.47e-01	0	42	104	0	68	14535
2026-01-11 05:16:19.76	7.96	5.62	-49.4	-61.2	3.8	8.47e-01	0	42	104	0	68	14547
2026-01-11 05:16:22.77	7.76	5.82	-49.3	-61.1	3.8	8.46e-01	0	42	104	0	68	14531
2026-01-11 05:16:25.79	7.56	6.02	-49.4	-61.2	3.8	8.47e-01	0	42	104	0	68	14555
2026-01-11 05:16:28.80	7.36	6.22	-49.2	-61.1	3.8	8.46e-01	0	42	104	0	67	15265
2026-01-11 05:16:31.81	7.15	6.42	-49.2	-60.8	3.8	8.48e-01	0	42	104	0	67	14780
2026-01-11 05:16:34.82	6.94	6.63	-49.0	-60.5	3.8	8.48e-01	0	43	104	0	67	14303
2026-01-11 05:16:37.84	6.72	6.83	-49.0	-60.2	3.8	8.47e-01	0	42	104	0	67	13841
2026-01-11 05:16:40.85	6.51	7.04	-49.0	-59.5	3.8	8.46e-01	0	43	104	0	67	12782
2026-01-11 05:16:43.86	6.29	7.25	-49.0	-59.6	3.8	8.47e-01	0	43	104	0	67	12816
2026-01-11 05:16:46.87	6.06	7.46	-49.1	-60.7	3.8	8.47e-01	0	43	104	0	67	14574
2026-01-11 05:16:49.88	5.83	7.67	-48.8	-58.6	3.9	8.46e-01	0	43	104	0	66	12107
2026-01-11 05:16:52.90	5.60	7.88	-47.7	-53.3	6.5	2.77e-01	0	43	0	4194304	65	7018
2026-01-11 05:16:55.91	5.37	8.09	-46.5	-50.1	9.8	1.39e-02	0	43	0	24117248	62	5758
2026-01-11 05:16:59.06	5.12	8.31	-44.4	-46.7	13.3	4.00e-05	0	43	0	49283072	58	4890
2026-01-11 05:17:01.92	4.89	8.52	-42.9	-44.7	15.1	0.00e+00	0	43	0	69206016	55	4603
2026-01-11 05:17:05.07	4.63	8.75	-42.8	-44.5	15.3	0.00e+00	0	43	0	92274688	55	4513
2026-01-11 05:17:07.94	4.40	8.95	-44.8	-47.2	12.7	4.69e-05	0	43	0	113246208	59	4886
2026-01-11 05:17:11.08	4.13	9.18	-42.9	-44.6	15.3	0.00e+00	0	43	0	136314880	55	4555
2026-01-11 05:17:13.94	3.89	9.39	-41.4	-42.7	17.1	0.00e+00	0	43	0	149946368	53	4111
2026-01-11 05:17:17.07	3.61	9.62	-41.3	-42.7	17.2	0.00e+00	0	44	0	171966464	52	4359
2026-01-11 05:17:19.91	3.36	9.83	-41.0	-42.4	17.5	0.00e+00	0	44	0	192937984	51	4480
2026-01-11 05:17:23.05	3.08	10.07	-40.8	-42.2	17.7	0.00e+00	0	43	0	214958080	51	4384
2026-01-11 05:17:25.91	2.82	10.28	-40.9	-42.4	17.6	0.00e+00	0	44	0	235929600	51	4452
2026-01-11 05:17:29.05	2.53	10.52	-40.4	-42.0	17.9	3.46e-04	0	44	0	258998272	50	4511
2026-01-11 05:17:31.92	2.26	10.74	-40.6	-42.1	17.8	0.00e+00	0	44	0	279969792	50	4580
2026-01-11 05:17:35.07	1.96	10.98	-40.5	-42.0	17.9	0.00e+00	0	44	0	301989888	50	4531
2026-01-11 05:17:37.93	1.68	11.20	-40.3	-42.0	18.0	0.00e+00	0	44	0	322961408	51	4243
2026-01-11 05:17:41.08	1.37	11.45	-40.6	-42.0	18.0	0.00e+00	0	44	0	346030080	50	4525
2026-01-11 05:17:43.94	1.08	11.67	-40.7	-42.2	17.8	0.00e+00	0	44	0	365953024	51	4343
2026-01-11 05:17:47.08	0.76	11.92	-40.8	-42.3	17.8	0.00e+00	0	44	0	389021696	51	4402
2026-01-11 05:17:49.94	0.47	12.14	-40.8	-42.2	17.8	8.81e-05	0	44	0	409993216	51	4380
2026-01-11 05:17:53.08	0.13	12.39	-40.8	-42.2	17.9	4.00e-05	0	44	0	432013312	51	4341
2026-01-11 05:17:55.94	359.83	12.62	-40.7	-42.0	18.1	0.00e+00	0	44	0	452984832	50	4496
2026-01-11 05:17:59.08	359.48	12.87	-40.6	-41.8	18.3	0.00e+00	0	44	0	476053504	50	4406
2026-01-11 05:18:01.94	359.17	13.10	-40.5	-41.7	18.3	0.00e+00	0	44	0	495976448	50	4359
2026-01-11 05:18:05.09	358.81	13.36	-40.5	-41.7	18.4	0.00e+00	0	44	0	519045120	50	4350
2026-01-11 05:18:07.94	358.48	13.60	-40.4	-41.6	18.5	0.00e+00	0	44	0	538968064	50	4301
2026-01-11 05:18:11.09	358.12	13.85	-40.3	-41.5	18.6	0.00e+00	0	44	0	562036736	50	4247
2026-01-11 05:18:13.95	357.77	14.09	-40.1	-41.2	18.8	0.00e+00	0	44	0	583008256	49	4368
2026-01-11 05:18:17.11	357.39	14.36	-40.1	-41.2	18.8	0.00e+00	0	44	0	605028352	49	4374
2026-01-11 05:18:19.97	357.04	14.59	-39.9	-41.0	19.1	0.00e+00	0	44	0	625999872	49	4260
2026-01-11 05:18:23.12	356.64	14.86	-40.0	-41.1	18.9	0.00e+00	0	44	0	649068544	49	4340
2026-01-11 05:18:25.98	356.28	15.10	-40.1	-41.2	18.9	0.00e+00	0	44	0	670040064	49	4382
2026-01-11 05:18:29.12	355.87	15.37	-40.0	-41.1	19.0	0.00e+00	0	44	0	692060160	49	4325
2026-01-11 05:18:31.98	355.49	15.62	-39.8	-40.9	19.2	0.00e+00	0	44	0	713031680	49	4201
2026-01-11 05:18:35.13	355.07	15.89	-39.6	-40.7	19.4	0.00e+00	0	44	0	736100352	48	4376
2026-01-11 05:18:37.99	354.68	16.13	-39.5	-40.6	19.5	0.00e+00	0	44	0	756023296	48	4298
2026-01-11 05:18:41.14	354.24	16.41	-39.5	-40.6	19.5	0.00e+00	0	44	0	779091968	48	4333
2026-01-11 05:18:44.00	353.83	16.66	-39.7	-40.8	19.4	0.00e+00	0	44	0	800063488	48	4417
2026-01-11 05:18:47.15	353.38	16.93	-39.8	-40.9	19.2	0.00e+00	0	44	0	822083584	49	4232
2026-01-11 05:18:50.01	352.96	17.19	-39.9	-41.0	19.2	0.00e+00	0	44	0	843055104	49	4252
2026-01-11 05:18:53.16	352.49	17.46	-39.6	-40.6	19.5	0.00e+00	0	44	0	866123776	49	4090
2026-01-11 05:18:56.02	352.05	17.72	-39.0	-40.1	19.7	0.00e+00	0	44	0	887095296	47	4317
2026-01-11 05:18:59.16	351.56	18.00	-38.9	-40.0	19.8	0.00e+00	0	44	0	909115392	47	4274
2026-01-11 05:19:02.02	351.11	18.25	-38.9	-40.0	19.8	0.00e+00	0	44	0	930086912	47	4280
2026-01-11 05:19:05.17	350.60	18.54	-39.0	-40.1	19.7	0.00e+00	0	44	0	953155584	47	4329
2026-01-11 05:19:08.02	350.14	18.79	-39.1	-40.3	19.7	0.00e+00	0	44	0	973078528	47	4394
2026-01-11 05:19:11.17	349.61	19.08	-39.0	-40.1	19.8	0.00e+00	0	45	0	996147200	47	4324
2026-01-11 05:19:14.03	349.12	19.34	-39.0	-40.1	19.8	0.00e+00	0	44	0	1017118720	47	4322
2026-01-11 05:19:17.17	348.58	19.62	-39.0	-40.0	19.9	0.00e+00	0	44	0	1039138816	47	4277
2026-01-11 05:19:20.04	348.07	19.88	-38.6	-40.0	19.9	0.00e+00	0	44	0	1060110336	47	4278
2026-01-11 05:19:23.19	347.51	20.17	-39.1	-40.1	19.7	0.00e+00	0	44	0	1083179008	47	4336
2026-01-11 05:19:26.04	346.99	20.43	-39.4	-40.4	19.8	0.00e+00	0	44	0	1103101952	48	4217
2026-01-11 05:19:29.19	346.40	20.71	-39.2	-40.1	20.1	0.00e+00	0	44	0	1126170624	48	4098
2026-01-11 05:19:32.06	345.86	20.97	-39.1	-40.1	19.8	0.00e+00	0	44	0	1146093568	47	4324
2026-01-11 05:19:35.20	345.25	21.26	-39.0	-40.0	19.9	0.00e+00	0	44	0	1169162240	47	4266
2026-01-11 05:19:38.06	344.69	21.52	-38.9	-39.9	20.0	0.00e+00	0	44	0	1190133760	47	4218
2026-01-11 05:19:41.21	344.06	21.81	-38.8	-39.8	20.1	0.00e+00	0	44	0	1212153856	47	4187
2026-01-11 05:19:44.07	343.48	22.06	-38.6	-39.7	20.2	0.00e+00	0	44	0	1233125376	46	4369
2026-01-11 05:19:47.21	342.82	22.35	-38.7	-39.8	20.1	0.00e+00	0	44	0	1256194048	46	4412
2026-01-11 05:19:50.06	342.22	22.61	-38.7	-39.8	20.1	0.00e+00	0	44	0	1277165568	47	4163
2026-01-11 05:19:53.21	341.55	22.89	-38.6	-39.7	20.2	0.00e+00	0	44	0	1299185664	47	4099
2026-01-11 05:19:56.08	340.92	23.14	-38.6	-39.6	20.3	0.00e+00	0	44	0	1320157184	46	4306
2026-01-11 05:19:59.22	340.22	23.42	-38.3	-39.3	20.6	0.00e+00	0	44	0	1343225856	46	4181
2026-01-11 05:20:02.09	339.57	23.68	-38.4	-39.3	20.6	0.00e+00	0	44	0	1363148800	46	4191
2026-01-11 05:20:05.24	338.85	23.95	-38.3	-39.3	20.6	0.00e+00	0	44	0	1386217472	46	4152
2026-01-11 05:20:08.09	338.18	24.20	-38.1	-39.1	20.8	0.00e+00	0	44	0	1407188992	46	4080
2026-01-11 05:20:11.23	337.43	24.47	-37.9	-38.9	21.0	0.00e+00	0	44	0	1429209088	45	4204
2026-01-11 05:20:14.09	336.74	24.72	-37.9	-38.8	21.0	0.00e+00	0	44	0	1450180608	45	4170
2026-01-11 05:20:17.24	335.96	24.99	-37.9	-38.9	21.0	0.00e+00	0	44	0	1473249280	45	4211
2026-01-11 05:20:20.10	335.25	25.23	-37.4	-38.8	21.0	0.00e+00	0	44	0	1493172224	45	4177
2026-01-11 05:20:23.25	334.45	25.49	-37.9	-38.8	21.0	0.00e+00	0	44	0	1516240896	45	4190
2026-01-11 05:20:26.11	333.71	25.72	-38.0	-38.9	20.9	0.00e+00	0	44	0	1537212416	45	4233
2026-01-11 05:20:29.26	332.88	25.98	-38.1	-39.0	20.8	0.00e+00	0	45	0	1559232512	45	4288
2026-01-11 05:20:32.12	332.12	26.20	-38.2	-39.2	20.7	0.00e+00	0	44	0	1580204032	45	4358
2026-01-11 05:20:35.27	331.27	26.45	-37.9	-38.9	21.0	0.00e+00	0	44	0	1603272704	45	4215
2026-01-11 05:20:38.12	330.48	26.67	-38.0	-39.0	20.8	0.00e+00	0	44	0	1623195648	45	4279
2026-01-11 05:20:41.27	329.61	26.90	-38.4	-39.4	20.5	0.00e+00	0	44	0	1646264320	46	4211
2026-01-11 05:20:44.13	328.80	27.11	-38.1	-39.0	20.8	0.00e+00	0	44	0	1667235840	45	4277
2026-01-11 05:20:47.27	327.90	27.33	-37.7	-38.6	21.2	0.00e+00	0	44	0	1689255936	45	4081
2026-01-11 05:20:50.13	327.07	27.53	-37.7	-38.6	21.2	0.00e+00	0	44	0	1710227456	45	4073
2026-01-11 05:20:53.27	326.14	27.74	-38.0	-39.0	20.9	0.00e+00	0	44	0	1733296128	45	4243
2026-01-11 05:20:56.14	325.29	27.93	-38.1	-39.1	20.8	0.00e+00	0	44	0	1753219072	45	4329
2026-01-11 05:20:59.28	324.34	28.13	-38.0	-39.0	20.9	0.00e+00	0	45	0	1776287744	46	4023
2026-01-11 05:21:02.15	323.47	28.31	-37.9	-38.8	21.0	0.00e+00	0	44	0	1797259264	46	3958
2026-01-11 05:21:05.29	322.50	28.49	-37.7	-38.6	20.9	0.00e+00	0	44	0	1819279360	44	4338
2026-01-11 05:21:08.15	321.61	28.65	-37.7	-38.6	21.2	0.00e+00	0	45	0	1840250880	45	4067
2026-01-11 05:21:11.30	320.61	28.82	-37.7	-38.7	21.2	0.00e+00	0	45	0	1863319552	44	4350
2026-01-11 05:21:14.16	319.70	28.97	-37.6	-38.5	21.3	0.00e+00	0	44	0	1884291072	44	4279
2026-01-11 05:21:17.31	318.69	29.12	-37.7	-38.6	21.2	0.00e+00	0	44	0	1906311168	44	4323
2026-01-11 05:21:20.16	317.77	29.25	-37.5	-38.5	21.3	0.00e+00	0	44	0	1927282688	44	4250
2026-01-11 05:21:23.30	316.74	29.38	-37.3	-38.2	21.6	0.00e+00	0	44	0	1949302784	44	4130
2026-01-11 05:21:26.16	315.80	29.50	-37.2	-38.1	21.7	0.00e+00	0	44	0	1970274304	44	4091
2026-01-11 05:21:29.31	314.75	29.61	-37.0	-37.9	21.7	0.00e+00	0	44	0	1993342976	43	4230
2026-01-11 05:21:32.17	313.79	29.71	-37.3	-38.2	21.6	0.00e+00	0	44	0	2014314496	44	4135
2026-01-11 05:21:35.31	312.74	29.80	-37.2	-38.1	21.7	0.00e+00	0	44	0	2036334592	44	4094
2026-01-11 05:21:38.18	311.77	29.88	-37.4	-38.3	21.6	0.00e+00	0	44	0	2057306112	44	4148
2026-01-11 05:21:41.33	310.70	29.95	-37.4	-38.3	21.6	0.00e+00	0	44	0	2080374784	44	4157
2026-01-11 05:21:44.19	309.72	30.01	-37.5	-38.4	21.4	0.00e+00	0	44	0	2100297728	44	4209
2026-01-11 05:21:47.33	308.65	30.06	-37.3	-38.1	21.7	0.00e+00	0	44	0	2123366400	44	4092
2026-01-11 05:21:50.19	307.67	30.10	-37.2	-38.1	21.7	0.00e+00	0	44	0	2143289344	44	4065
2026-01-11 05:21:53.33	306.58	30.14	-37.3	-38.2	21.6	0.00e+00	0	44	0	2166358016	44	4130
2026-01-11 05:21:56.19	305.60	30.15	-37.5	-38.4	21.4	0.00e+00	0	44	0	2187329536	44	4215
2026-01-11 05:21:59.34	304.51	30.16	-37.4	-38.3	21.5	0.00e+00	0	44	0	2209349632	44	4169
2026-01-11 05:22:02.20	303.52	30.16	-37.3	-38.2	21.6	0.00e+00	0	44	0	2230321152	44	4141
2026-01-11 05:22:05.35	302.44	30.15	-37.3	-38.2	21.6	0.00e+00	0	44	0	2253389824	44	4106
2026-01-11 05:22:08.20	301.46	30.13	-37.4	-38.3	21.5	0.00e+00	0	44	0	2273312768	44	4173
2026-01-11 05:22:11.35	300.37	30.10	-37.3	-38.2	21.6	0.00e+00	0	44	0	2296381440	44	4126
2026-01-11 05:22:14.20	299.39	30.05	-37.4	-38.2	21.6	0.00e+00	0	45	0	2317352960	44	4145
2026-01-11 05:22:17.35	298.31	30.00	-37.4	-38.3	21.5	0.00e+00	0	44	0	2339373056	44	4166
2026-01-11 05:22:20.21	297.34	29.94	-37.2	-38.1	21.7	0.00e+00	0	44	0	2360344576	44	4060
2026-01-11 05:22:23.35	296.27	29.86	-37.4	-38.3	21.6	0.00e+00	0	44	0	2383413248	44	4156
2026-01-11 05:22:26.21	295.30	29.78	-37.4	-38.3	21.5	0.00e+00	0	44	0	2403336192	44	4163
2026-01-11 05:22:29.36	294.25	29.68	-37.2	-38.1	21.7	0.00e+00	0	44	0	2426404864	44	4065
2026-01-11 05:22:32.22	293.29	29.59	-37.5	-38.4	21.4	0.00e+00	0	44	0	2447376384	44	4222
2026-01-11 05:22:35.37	292.24	29.47	-37.4	-38.3	21.5	0.00e+00	0	44	0	2470445056	44	4172
2026-01-11 05:22:38.23	291.30	29.35	-37.3	-38.1	21.6	0.00e+00	0	44	0	2490368000	44	4093
2026-01-11 05:22:41.37	290.27	29.22	-37.6	-38.5	21.4	0.00e+00	0	44	0	2513436672	44	4243
2026-01-11 05:22:44.23	289.35	29.09	-37.4	-38.3	21.5	0.00e+00	0	44	0	2534408192	44	4191
2026-01-11 05:22:47.38	288.33	28.93	-37.3	-38.2	21.6	0.00e+00	0	44	0	2556428288	44	4134
2026-01-11 05:22:50.24	287.42	28.78	-37.5	-38.4	21.4	0.00e+00	0	44	0	2577399808	44	4196
2026-01-11 05:22:53.39	286.43	28.61	-37.7	-38.6	21.2	0.00e+00	0	44	0	2600468480	44	4313
2026-01-11 05:22:56.25	285.54	28.45	-37.4	-38.3	21.5	0.00e+00	0	44	0	2620391424	44	4179
2026-01-11 05:22:59.39	284.57	28.26	-37.3	-38.2	21.6	0.00e+00	0	44	0	2643460096	44	4130
2026-01-11 05:23:02.25	283.69	28.09	-37.3	-38.2	21.6	0.00e+00	0	44	0	2663383040	44	4135
2026-01-11 05:23:05.39	282.75	27.88	-37.5	-38.4	21.5	0.00e+00	0	44	0	2686451712	44	4201
2026-01-11 05:23:08.24	281.90	27.70	-37.6	-38.5	21.3	0.00e+00	0	45	0	2707423232	44	4257
2026-01-11 05:23:11.39	280.97	27.48	-37.5	-38.4	21.4	0.00e+00	0	44	0	2729443328	44	4237
2026-01-11 05:23:14.26	280.14	27.28	-37.4	-38.3	21.5	0.00e+00	0	44	0	2750414848	44	4166
2026-01-11 05:23:17.40	279.24	27.05	-37.7	-38.6	21.3	0.00e+00	0	44	0	2773483520	44	4303
2026-01-11 05:23:20.26	278.43	26.84	-37.7	-38.6	21.2	0.00e+00	0	44	0	2793406464	45	4098
2026-01-11 05:23:23.41	277.55	26.60	-37.6	-38.5	21.3	0.00e+00	0	44	0	2816475136	45	4028
2026-01-11 05:23:26.27	276.77	26.38	-37.5	-38.4	21.4	0.00e+00	0	44	0	2837446656	45	4002
2026-01-11 05:23:29.42	275.91	26.14	-37.7	-38.6	21.2	0.00e+00	0	44	0	2860515328	45	4079
2026-01-11 05:23:32.27	275.15	25.91	-37.8	-38.7	21.1	0.00e+00	0	44	0	2880438272	45	4127
2026-01-11 05:23:35.42	274.33	25.65	-37.8	-38.8	21.1	0.00e+00	0	45	0	2903506944	45	4153
2026-01-11 05:23:38.28	273.59	25.42	-37.8	-38.7	21.2	0.00e+00	0	44	0	2924478464	45	4107
2026-01-11 05:23:41.43	272.79	25.16	-37.9	-38.8	21.0	0.00e+00	0	44	0	2946498560	45	4164
2026-01-11 05:23:44.29	272.07	24.91	-37.9	-38.8	21.0	0.00e+00	0	44	0	2967470080	45	4173
2026-01-11 05:23:47.44	271.29	24.65	-37.9	-38.8	21.0	0.00e+00	0	44	0	2990538752	45	4173
2026-01-11 05:23:50.30	270.60	24.40	-38.0	-38.9	20.9	0.00e+00	0	44	0	3010461696	45	4223
2026-01-11 05:23:53.45	269.85	24.12	-37.8	-38.7	21.0	0.00e+00	0	44	0	3033530368	45	4138
2026-01-11 05:23:56.31	269.18	23.87	-37.8	-38.7	21.1	0.00e+00	0	45	0	3054501888	45	4127
2026-01-11 05:23:59.46	268.45	23.59	-37.9	-38.8	21.0	0.00e+00	0	44	0	3076521984	45	4176
2026-01-11 05:24:02.32	267.80	23.34	-38.0	-38.9	20.9	0.00e+00	0	44	0	3097493504	45	4211
2026-01-11 05:24:05.47	267.10	23.06	-38.0	-39.0	20.9	0.00e+00	0	44	0	3120562176	45	4261
2026-01-11 05:24:08.32	266.48	22.80	-38.0	-39.0	20.8	0.00e+00	0	45	0	3141533696	45	4257
2026-01-11 05:24:11.47	265.80	22.52	-37.8	-38.7	21.1	0.00e+00	0	45	0	3163553792	45	4130
2026-01-11 05:24:14.33	265.20	22.26	-37.9	-38.9	20.9	0.00e+00	0	45	0	3184525312	45	4200
2026-01-11 05:24:17.47	264.55	21.97	-38.2	-39.2	20.7	0.00e+00	0	44	0	3207593984	45	4351
2026-01-11 05:24:20.33	263.96	21.71	-38.3	-39.3	20.6	0.00e+00	0	44	0	3227516928	46	4160
2026-01-11 05:24:23.47	263.33	21.43	-38.4	-39.4	20.5	0.00e+00	0	44	0	3250585600	46	4197
2026-01-11 05:24:26.33	262.77	21.16	-38.4	-39.3	20.5	0.00e+00	0	44	0	3270508544	46	4188
2026-01-11 05:24:29.48	262.16	20.88	-38.3	-39.2	20.6	0.00e+00	0	45	0	3293577216	46	4123
2026-01-11 05:24:32.34	261.62	20.61	-38.1	-39.0	20.8	0.00e+00	0	44	0	3314548736	46	4026
2026-01-11 05:24:35.49	261.03	20.33	-38.1	-39.0	20.8	0.00e+00	0	45	0	3336568832	46	4048
2026-01-11 05:24:38.35	260.51	20.07	-38.2	-39.1	20.7	0.00e+00	0	44	0	3357540352	46	4090
2026-01-11 05:24:41.50	259.94	19.78	-38.4	-39.4	20.4	0.00e+00	0	44	0	3380609024	46	4219
2026-01-11 05:24:44.35	259.44	19.52	-38.6	-39.6	20.3	0.00e+00	0	45	0	3400531968	46	4303
2026-01-11 05:24:47.50	258.89	19.23	-38.8	-39.7	20.1	0.00e+00	0	44	0	3423600640	46	4391
2026-01-11 05:24:50.37	258.40	18.97	-38.8	-39.8	20.0	0.00e+00	0	44	0	3444572160	47	4164
2026-01-11 05:24:53.52	257.87	18.69	-38.9	-39.9	19.9	0.00e+00	0	45	0	3467640832	47	4222
2026-01-11 05:24:56.38	257.40	18.43	-39.0	-40.0	19.9	0.00e+00	0	44	0	3487563776	47	4260
2026-01-11 05:24:59.52	256.90	18.14	-39.0	-40.0	19.8	0.00e+00	0	44	0	3510632448	47	4281
2026-01-11 05:25:02.38	256.44	17.89	-38.9	-39.9	19.9	0.00e+00	0	44	0	3531603968	47	4227
2026-01-11 05:25:05.53	255.95	17.61	-38.9	-39.8	20.0	0.00e+00	0	44	0	3553624064	47	4190
2026-01-11 05:25:08.39	255.52	17.35	-39.0	-40.0	19.8	0.00e+00	0	44	0	3574595584	47	4262
2026-01-11 05:25:11.54	255.04	17.07	-39.2	-40.2	19.6	0.00e+00	0	44	0	3597664256	47	4379
2026-01-11 05:25:14.40	254.62	16.82	-39.5	-40.5	19.7	0.00e+00	0	44	0	3617587200	48	4262
2026-01-11 05:25:17.54	254.16	16.54	-39.5	-40.5	19.6	0.00e+00	0	44	0	3640655872	48	4265
2026-01-11 05:25:20.41	253.76	16.29	-39.5	-40.5	19.6	0.00e+00	0	44	0	3661627392	48	4286
2026-01-11 05:25:23.55	253.32	16.02	-39.8	-40.8	19.4	0.00e+00	0	44	0	3683647488	48	4410
2026-01-11 05:25:26.41	252.92	15.77	-39.8	-40.8	19.3	0.00e+00	0	45	0	3704619008	49	4165
2026-01-11 05:25:29.56	252.50	15.50	-39.9	-40.9	19.2	0.00e+00	0	45	0	3727687680	49	4225
2026-01-11 05:25:32.41	252.12	15.25	-39.9	-40.9	19.2	0.00e+00	0	44	0	3747610624	49	4206
2026-01-11 05:25:35.57	251.71	14.98	-39.9	-41.0	19.1	0.00e+00	0	44	0	3770679296	49	4256
2026-01-11 05:25:38.43	251.34	14.74	-40.2	-41.2	18.9	0.00e+00	0	45	0	3791650816	49	4377
2026-01-11 05:25:41.58	250.95	14.47	-40.3	-41.4	18.7	0.00e+00	0	45	0	3813670912	50	4219
2026-01-11 05:25:44.44	250.59	14.23	-40.3	-41.4	18.7	0.00e+00	0	45	0	3834642432	50	4219
2026-01-11 05:25:47.59	250.21	13.97	-40.5	-41.5	18.6	0.00e+00	0	44	0	3857711104	50	4280
2026-01-11 05:25:50.45	249.87	13.73	-40.4	-41.5	18.6	0.00e+00	0	44	0	3877634048	50	4281
2026-01-11 05:25:53.59	249.50	13.47	-40.5	-41.6	18.5	0.00e+00	0	44	0	3900702720	50	4298
2026-01-11 05:25:56.45	249.17	13.23	-40.3	-41.3	18.8	0.00e+00	0	44	0	3921674240	50	4181
2026-01-11 05:25:59.60	248.81	12.98	-40.2	-41.3	18.8	0.00e+00	0	44	0	3943694336	50	4157
2026-01-11 05:26:02.46	248.49	12.74	-40.3	-41.4	18.7	0.00e+00	0	44	0	3964665856	50	4196
2026-01-11 05:26:05.61	248.14	12.49	-40.5	-41.5	18.5	0.00e+00	0	44	0	3987734528	50	4291
2026-01-11 05:26:08.47	247.83	12.26	-40.5	-41.5	18.5	0.00e+00	0	44	0	4008706048	50	4290
2026-01-11 05:26:11.62	247.50	12.01	-40.4	-41.5	18.5	0.00e+00	0	44	0	4030726144	50	4279
2026-01-11 05:26:14.48	247.20	11.78	-40.5	-41.5	18.5	0.00e+00	0	44	0	4051697664	50	4285
2026-01-11 05:26:17.62	246.88	11.54	-40.5	-41.6	18.4	0.00e+00	0	44	0	4074766336	50	4337
2026-01-11 05:26:20.48	246.59	11.31	-41.0	-42.1	17.9	0.00e+00	0	44	0	4094689280	51	4332
2026-01-11 05:26:23.63	246.28	11.07	-41.1	-42.3	17.7	0.00e+00	0	44	0	4117757952	51	4416
2026-01-11 05:26:26.49	246.00	10.85	-41.2	-42.4	17.6	0.00e+00	0	44	0	4138729472	51	4481
2026-01-11 05:26:29.63	245.69	10.60	-41.1	-42.3	17.6	0.00e+00	0	44	0	4160749568	52	4179
2026-01-11 05:26:32.49	245.42	10.39	-41.2	-42.4	17.6	0.00e+00	0	44	0	4181721088	52	4208
2026-01-11 05:26:35.63	245.13	10.15	-41.1	-42.2	17.7	0.00e+00	0	44	0	4204789760	52	4139
2026-01-11 05:26:38.49	244.87	9.93	-41.2	-42.3	17.6	0.00e+00	0	44	0	4224712704	52	4176
2026-01-11 05:26:41.64	244.58	9.70	-41.3	-42.4	17.5	0.00e+00	0	44	0	4247781376	52	4234
2026-01-11 05:26:44.51	244.33	9.48	-41.5	-42.7	17.2	0.00e+00	0	44	0	4267704320	52	4353
2026-01-11 05:26:47.66	244.05	9.25	-41.5	-42.8	17.1	0.00e+00	0	44	0	4290772992	52	4400
2026-01-11 05:26:50.52	243.80	9.04	-41.6	-42.8	17.0	0.00e+00	0	44	0	4311744512	52	4440
2026-01-11 05:26:53.67	243.54	8.81	-50.7	-61.7	3.8	8.48e-01	0	44	104	4321181696	71	12981
2026-01-11 05:26:56.53	243.30	8.60	-51.0	-61.8	3.8	8.47e-01	0	44	104	4321181696	71	13242
2026-01-11 05:26:59.68	243.04	8.37	-51.2	-61.9	3.8	8.47e-01	0	44	104	4321181696	71	13399
2026-01-11 05:27:02.54	242.81	8.17	-51.2	-62.0	3.8	8.46e-01	0	44	104	4321181696	71	13499
2026-01-11 05:27:05.69	242.56	7.95	-51.1	-62.0	3.8	8.47e-01	0	44	104	4321181696	71	13426
2026-01-11 05:27:08.55	242.33	7.74	-51.0	-61.9	3.8	8.46e-01	0	44	104	4321181696	71	13349
2026-01-11 05:27:11.70	242.09	7.52	-51.1	-61.9	3.8	8.46e-01	0	44	104	4321181696	71	13344
2026-01-11 05:27:14.56	241.87	7.32	-51.0	-61.8	3.8	8.48e-01	0	44	104	4321181696	71	13221
2026-01-11 05:27:17.71	241.63	7.10	-51.0	-61.9	3.8	8.47e-01	0	44	104	4321181696	71	13272
2026-01-11 05:27:20.57	241.42	6.91	-51.0	-61.8	3.8	8.46e-01	0	44	104	4321181696	71	13215
2026-01-11 05:27:23.72	241.19	6.69	-50.9	-61.8	3.8	8.47e-01	0	44	104	4321181696	71	13253
2026-01-11 05:27:26.59	240.98	6.49	-51.0	-61.9	3.8	8.47e-01	0	44	104	4321181696	71	13267
2026-01-11 05:27:29.73	240.76	6.28	-51.0	-61.9	3.8	8.47e-01	0	44	104	4321181696	71	13306
2026-01-11 05:27:32.60	240.56	6.09	-51.0	-61.8	3.8	8.48e-01	0	44	104	4321181696	71	13224
2026-01-11 05:27:35.75	240.34	5.88	-51.0	-61.8	3.8	8.46e-01	0	44	104	4321181696	71	13194
2026-01-11 05:27:38.61	240.15	5.69	-51.0	-61.8	3.8	8.47e-01	0	44	104	4321181696	71	13241
2026-01-11 05:27:41.76	239.94	5.48	-51.0	-61.8	3.8	8.47e-01	0	44	104	4321181696	71	13178
2026-01-11 05:27:44.62	239.75	5.29	-51.0	-61.9	3.8	8.46e-01	0	44	104	4321181696	71	13288
2026-01-11 05:27:47.78	239.54	5.08	-50.9	-61.8	3.8	8.47e-01	0	44	104	4321181696	71	13200

#Closed at: 2026-01-11 05:27:50
#Recorded file [4321 MB]: D:/Data/31040_260111_081610.dat