passes_logs/2026/01/11/T1/T1__20260111_002041_NOAA_21_JPSS-2_rec.log

#Pass ID: 20260111_002041_NOAA 21 (JPSS-2)
#Satellite: NOAA 21 (JPSS-2)
#Configuration: NOAA 21
#almurnet v.1.7.20251203
#Start time: 2026-01-11 00:20:42

#Version: 2.0.20230620
#Station: T1
#Location: 37.570604 lon 55.790049 lat
#TLE: 1 54234U 22150A   26009.79679979  .00000100  00000+0  68070-4 0  9993
#TLE: 2 54234  98.7494 310.7596 0000833 322.2782  37.8335 14.19533646164071

#Time	Az	El	Level	Level2	SNR	BER	BlckErr	Temp	State	Recorded	gain1	gain2
2026-01-11 00:20:42.24	12.24	5.02	-49.4	-63.3	3.9	1.49e+00	0	40	0	0	69	18779
2026-01-11 00:20:45.25	12.15	5.23	-47.0	-62.9	3.8	1.49e+00	0	41	104	0	64	23993
2026-01-11 00:20:48.27	12.05	5.44	-47.0	-62.7	3.8	1.49e+00	0	41	104	0	64	23535
2026-01-11 00:20:51.28	11.95	5.66	-47.0	-62.6	3.8	1.49e+00	0	41	104	0	64	23077
2026-01-11 00:20:54.29	11.85	5.87	-47.0	-62.5	3.8	1.49e+00	0	41	104	0	64	22894
2026-01-11 00:20:57.30	11.75	6.09	-47.0	-62.4	3.8	1.49e+00	0	42	104	0	64	22620
2026-01-11 00:21:00.32	11.65	6.31	-47.0	-62.0	3.8	1.49e+00	0	41	104	0	64	21626
2026-01-11 00:21:03.33	11.55	6.53	-47.0	-61.6	3.8	1.49e+00	0	42	104	0	64	20740
2026-01-11 00:21:06.34	11.44	6.75	-47.0	-61.8	3.8	1.49e+00	0	42	104	0	64	21221
2026-01-11 00:21:09.36	11.34	6.98	-47.0	-62.8	3.8	1.49e+00	0	42	104	0	64	23607
2026-01-11 00:21:12.37	11.23	7.20	-47.0	-62.3	3.8	1.49e+00	0	42	104	0	64	22278
2026-01-11 00:21:15.38	11.12	7.43	-46.7	-58.9	4.0	1.43e+00	0	42	104	0	64	15215
2026-01-11 00:21:18.40	11.00	7.66	-46.2	-54.7	7.0	1.93e-01	0	42	0	0	64	9305
2026-01-11 00:21:21.41	10.89	7.89	-45.7	-52.0	9.7	1.95e-02	0	42	0	0	63	7236
2026-01-11 00:21:24.43	10.77	8.13	-45.0	-50.3	11.4	1.11e-03	0	42	0	0	62	6301
2026-01-11 00:21:27.44	10.65	8.36	-44.4	-48.8	12.9	1.04e-04	0	42	0	0	60	5985
2026-01-11 00:21:30.45	10.53	8.60	-44.5	-49.1	12.7	7.24e-05	0	42	0	0	60	6136
2026-01-11 00:21:33.47	10.41	8.84	-45.1	-50.6	11.2	1.06e-03	0	42	0	0	60	7289
2026-01-11 00:21:36.48	10.28	9.08	-46.5	-55.3	6.5	1.49e-01	0	42	0	0	63	10582
2026-01-11 00:21:39.49	10.16	9.33	-44.0	-48.1	13.5	8.41e-04	0	42	0	0	60	5525
2026-01-11 00:21:42.50	10.02	9.57	-43.1	-46.2	15.6	0.00e+00	0	43	0	0	58	4959
2026-01-11 00:21:45.51	9.89	9.82	-43.1	-46.1	15.7	0.00e+00	0	43	0	0	57	5190
2026-01-11 00:21:48.52	9.76	10.07	-42.9	-45.7	16.1	0.00e+00	0	43	0	0	57	4935
2026-01-11 00:21:51.54	9.62	10.33	-42.9	-45.7	16.1	0.00e+00	0	43	0	0	57	4944
2026-01-11 00:21:54.55	9.48	10.59	-42.7	-45.4	16.3	0.00e+00	0	43	0	0	57	4795
2026-01-11 00:21:57.56	9.34	10.84	-42.7	-45.3	16.5	0.00e+00	0	43	0	0	57	4751
2026-01-11 00:22:00.57	9.19	11.11	-42.6	-45.1	16.7	0.00e+00	0	43	0	0	57	4623
2026-01-11 00:22:03.57	9.04	11.37	-42.6	-45.1	16.7	0.00e+00	0	43	0	0	57	4625
2026-01-11 00:22:06.58	8.89	11.63	-42.6	-45.0	16.8	0.00e+00	0	43	0	0	57	4576
2026-01-11 00:22:09.59	8.74	11.90	-42.5	-44.8	17.0	0.00e+00	0	43	0	0	56	4736
2026-01-11 00:22:12.61	8.58	12.18	-42.5	-44.7	17.1	0.00e+00	0	43	0	0	56	4703
2026-01-11 00:22:15.62	8.42	12.45	-42.4	-44.7	17.2	0.00e+00	0	43	0	0	56	4663
2026-01-11 00:22:18.63	8.25	12.73	-42.3	-44.5	17.4	0.00e+00	0	43	0	0	56	4546
2026-01-11 00:22:21.64	8.09	13.01	-42.3	-44.4	17.4	0.00e+00	0	43	0	0	56	4530
2026-01-11 00:22:24.65	7.91	13.29	-42.2	-44.3	17.5	0.00e+00	0	43	0	0	56	4463
2026-01-11 00:22:27.66	7.74	13.58	-42.3	-44.5	17.4	0.00e+00	0	43	0	0	56	4551
2026-01-11 00:22:30.67	7.56	13.87	-42.4	-44.5	17.3	0.00e+00	0	43	0	0	56	4580
2026-01-11 00:22:33.67	7.38	14.16	-42.6	-44.7	17.1	0.00e+00	0	43	0	0	56	4689
2026-01-11 00:22:36.69	7.19	14.46	-42.6	-44.8	17.1	0.00e+00	0	43	0	0	56	4713
2026-01-11 00:22:39.70	7.00	14.76	-42.7	-44.8	17.0	0.00e+00	0	43	0	0	56	4740
2026-01-11 00:22:42.71	6.81	15.06	-42.7	-44.8	17.1	0.00e+00	0	43	0	0	56	4737
2026-01-11 00:22:45.72	6.61	15.37	-42.7	-44.8	17.1	0.00e+00	0	43	0	0	56	4743
2026-01-11 00:22:48.73	6.41	15.68	-42.6	-44.7	17.2	0.00e+00	0	43	0	0	56	4698
2026-01-11 00:22:51.74	6.20	15.99	-42.6	-44.7	17.2	0.00e+00	0	43	0	0	56	4669
2026-01-11 00:22:54.75	5.99	16.31	-42.5	-44.6	17.3	0.00e+00	0	43	0	0	56	4651
2026-01-11 00:22:57.77	5.77	16.63	-42.6	-44.7	17.2	0.00e+00	0	43	0	0	56	4687
2026-01-11 00:23:00.78	5.55	16.96	-42.6	-44.7	17.2	0.00e+00	0	43	0	0	56	4682
2026-01-11 00:23:03.78	5.33	17.29	-42.7	-44.9	17.1	0.00e+00	0	43	0	0	56	4764
2026-01-11 00:23:06.79	5.10	17.62	-42.8	-45.0	16.9	0.00e+00	0	43	0	0	56	4867
2026-01-11 00:23:09.80	4.86	17.96	-42.8	-44.9	17.0	0.00e+00	0	43	0	0	56	4812
2026-01-11 00:23:12.81	4.62	18.30	-42.8	-44.9	17.1	0.00e+00	0	43	0	0	56	4806
2026-01-11 00:23:15.83	4.37	18.64	-42.7	-44.9	17.1	0.00e+00	0	43	0	0	56	4765
2026-01-11 00:23:18.84	4.11	18.99	-42.5	-44.6	17.3	0.00e+00	0	43	0	0	56	4643
2026-01-11 00:23:21.85	3.85	19.35	-42.5	-44.6	17.4	0.00e+00	0	43	0	0	56	4630
2026-01-11 00:23:24.86	3.58	19.71	-42.3	-44.3	17.6	0.00e+00	0	43	0	0	56	4472
2026-01-11 00:23:27.87	3.31	20.07	-42.2	-44.2	17.7	0.00e+00	0	43	0	0	56	4438
2026-01-11 00:23:30.88	3.03	20.44	-42.0	-44.1	17.8	0.00e+00	0	43	0	0	56	4368
2026-01-11 00:23:33.89	2.74	20.81	-41.7	-43.7	17.9	0.00e+00	0	43	0	0	55	4420
2026-01-11 00:23:36.90	2.45	21.19	-41.6	-43.5	18.1	0.00e+00	0	43	0	0	55	4336
2026-01-11 00:23:39.91	2.14	21.57	-41.3	-43.2	18.5	0.00e+00	0	44	0	0	54	4421
2026-01-11 00:23:42.92	1.83	21.95	-41.2	-43.2	18.5	0.00e+00	0	43	0	0	54	4395
2026-01-11 00:23:45.93	1.51	22.35	-41.0	-42.8	18.8	0.00e+00	0	43	0	0	53	4491
2026-01-11 00:23:48.93	1.19	22.74	-40.9	-42.7	18.9	0.00e+00	0	43	0	0	53	4432
2026-01-11 00:23:51.94	0.85	23.14	-40.8	-42.7	19.0	0.00e+00	0	43	0	0	53	4419
2026-01-11 00:23:54.95	0.51	23.55	-40.9	-42.8	18.9	0.00e+00	0	43	0	0	53	4478
2026-01-11 00:23:57.96	0.15	23.96	-41.0	-42.9	18.8	0.00e+00	0	43	0	0	53	4532
2026-01-11 00:24:00.97	359.79	24.38	-41.0	-42.9	18.8	0.00e+00	0	43	0	0	53	4505
2026-01-11 00:24:03.98	359.41	24.81	-41.2	-43.1	18.6	0.00e+00	0	43	0	0	53	4642
2026-01-11 00:24:06.99	359.03	25.23	-41.5	-43.4	18.3	0.00e+00	0	43	0	0	53	4799
2026-01-11 00:24:10.00	358.63	25.67	-41.8	-43.7	18.1	0.00e+00	0	43	0	0	54	4688
2026-01-11 00:24:13.01	358.23	26.11	-42.0	-43.9	17.9	0.00e+00	0	43	0	0	54	4811
2026-01-11 00:24:16.02	357.81	26.56	-41.9	-43.9	18.0	0.00e+00	0	43	0	0	54	4761
2026-01-11 00:24:19.03	357.38	27.01	-42.1	-44.1	17.8	0.00e+00	0	43	0	0	54	4889
2026-01-11 00:24:22.04	356.93	27.46	-42.2	-44.2	17.7	0.00e+00	0	44	0	0	55	4695
2026-01-11 00:24:25.06	356.47	27.93	-42.4	-44.5	17.5	0.00e+00	0	43	0	0	55	4819
2026-01-11 00:24:28.07	356.00	28.40	-42.9	-44.9	17.2	0.00e+00	0	43	0	0	56	4802
2026-01-11 00:24:31.08	355.52	28.87	-42.6	-44.6	17.5	0.00e+00	0	43	0	0	56	4614
2026-01-11 00:24:34.09	355.02	29.35	-42.4	-44.4	17.6	0.00e+00	0	43	0	0	56	4529
2026-01-11 00:24:37.10	354.50	29.84	-42.3	-44.3	17.7	0.00e+00	0	43	0	0	56	4461
2026-01-11 00:24:40.11	353.97	30.33	-42.2	-44.2	17.8	0.00e+00	0	43	0	0	56	4431
2026-01-11 00:24:43.12	353.42	30.83	-42.2	-44.1	18.0	0.00e+00	0	43	0	0	56	4362
2026-01-11 00:24:46.13	352.85	31.33	-41.6	-43.4	18.4	0.00e+00	0	43	0	0	55	4279
2026-01-11 00:24:49.14	352.27	31.84	-41.7	-43.5	18.2	0.00e+00	0	44	0	0	55	4340
2026-01-11 00:24:52.15	351.66	32.35	-42.0	-44.0	17.8	0.00e+00	0	43	0	0	55	4550
2026-01-11 00:24:55.16	351.04	32.87	-42.2	-44.2	17.7	0.00e+00	0	43	0	0	55	4703
2026-01-11 00:24:58.17	350.39	33.40	-42.1	-44.1	17.9	0.00e+00	0	44	0	0	55	4611
2026-01-11 00:25:01.18	349.73	33.92	-42.6	-44.6	17.4	0.00e+00	0	44	0	0	55	4900
2026-01-11 00:25:04.19	349.04	34.46	-43.4	-45.6	16.6	0.00e+00	0	43	0	0	57	4907
2026-01-11 00:25:07.20	348.33	34.99	-43.4	-45.6	16.6	0.00e+00	0	43	0	0	57	4911
2026-01-11 00:25:10.21	347.59	35.54	-43.3	-45.5	16.7	0.00e+00	0	44	0	0	57	4853
2026-01-11 00:25:13.22	346.83	36.08	-43.7	-46.0	16.2	0.00e+00	0	43	0	0	57	5107
2026-01-11 00:25:16.23	346.04	36.63	-43.8	-46.1	16.1	0.00e+00	0	44	0	0	58	4915
2026-01-11 00:25:19.24	345.23	37.18	-44.0	-46.4	15.9	0.00e+00	0	44	0	0	58	5061
2026-01-11 00:25:22.26	344.38	37.74	-44.3	-46.7	15.5	0.00e+00	0	43	0	0	59	4967
2026-01-11 00:25:25.27	343.51	38.29	-44.0	-46.3	15.9	0.00e+00	0	44	0	0	59	4754
2026-01-11 00:25:28.28	342.60	38.85	-43.7	-45.8	16.4	0.00e+00	0	44	0	0	59	4489
2026-01-11 00:25:31.29	341.67	39.41	-43.4	-45.6	16.7	0.00e+00	0	43	0	0	58	4629
2026-01-11 00:25:34.30	340.70	39.96	-43.6	-45.8	16.3	0.00e+00	0	44	0	0	58	4721
2026-01-11 00:25:37.31	339.70	40.52	-43.8	-46.0	16.2	0.00e+00	0	43	0	0	58	4855
2026-01-11 00:25:40.32	338.66	41.07	-44.0	-46.4	15.8	0.00e+00	0	44	0	0	58	5058
2026-01-11 00:25:43.33	337.58	41.63	-44.8	-47.5	14.7	0.00e+00	0	44	0	0	60	5135
2026-01-11 00:25:46.34	336.47	42.18	-44.5	-47.2	15.2	0.00e+00	0	43	0	0	60	4955
2026-01-11 00:25:49.35	335.32	42.72	-44.6	-47.2	15.1	0.00e+00	0	44	0	0	60	4953
2026-01-11 00:25:52.36	334.13	43.26	-44.6	-47.1	15.2	0.00e+00	0	44	0	0	60	4924
2026-01-11 00:25:55.36	332.90	43.79	-44.3	-46.7	15.7	0.00e+00	0	43	0	0	60	4668
2026-01-11 00:25:58.37	331.63	44.31	-44.8	-47.3	15.0	0.00e+00	0	44	0	0	60	5032
2026-01-11 00:26:01.38	330.31	44.83	-44.5	-47.0	15.3	0.00e+00	0	44	0	0	60	4832
2026-01-11 00:26:04.39	328.95	45.33	-44.6	-47.2	15.1	0.00e+00	0	44	0	0	60	4970
2026-01-11 00:26:07.41	327.55	45.82	-44.9	-47.5	14.8	7.00e-07	0	44	0	0	60	5154
2026-01-11 00:26:10.41	326.10	46.30	-44.3	-46.7	15.7	0.00e+00	0	44	0	0	60	4663
2026-01-11 00:26:13.42	324.61	46.76	-44.1	-46.4	15.9	0.00e+00	0	44	0	0	60	4543
2026-01-11 00:26:16.43	323.08	47.21	-44.3	-46.7	15.5	0.00e+00	0	44	0	0	60	4698
2026-01-11 00:26:19.44	321.50	47.63	-44.9	-47.5	14.8	0.00e+00	0	44	0	0	60	5106
2026-01-11 00:26:22.45	319.88	48.04	-44.7	-47.3	15.0	0.00e+00	0	44	0	0	60	5011
2026-01-11 00:26:25.46	318.21	48.42	-44.6	-47.1	15.1	0.00e+00	0	43	0	0	60	4926
2026-01-11 00:26:28.47	316.51	48.78	-45.0	-47.8	14.6	0.00e+00	0	44	0	0	60	5282
2026-01-11 00:26:31.49	314.76	49.12	-44.1	-46.5	15.9	0.00e+00	0	44	0	0	60	4563
2026-01-11 00:26:34.50	312.97	49.43	-44.4	-46.8	15.6	0.00e+00	0	43	0	0	60	4726
2026-01-11 00:26:37.50	311.16	49.70	-44.5	-47.0	15.3	0.00e+00	0	43	0	0	60	4862
2026-01-11 00:26:40.51	309.32	49.95	-44.2	-46.5	15.8	0.00e+00	0	43	0	0	60	4598
2026-01-11 00:26:43.53	307.43	50.17	-43.8	-46.1	16.2	0.00e+00	0	44	0	0	59	4610
2026-01-11 00:26:46.54	305.53	50.36	-44.3	-46.6	15.6	0.00e+00	0	44	0	0	59	4920
2026-01-11 00:26:49.55	303.60	50.51	-44.4	-46.8	15.5	0.00e+00	0	44	0	0	59	5039
2026-01-11 00:26:52.56	301.66	50.63	-43.7	-45.9	16.3	0.00e+00	0	44	0	0	59	4544
2026-01-11 00:26:55.57	299.70	50.72	-43.8	-46.1	16.0	0.00e+00	0	44	0	0	59	4609
2026-01-11 00:26:58.58	297.74	50.77	-43.9	-46.2	16.0	0.00e+00	0	44	0	0	59	4667
2026-01-11 00:27:01.59	295.77	50.78	-44.3	-46.6	15.6	0.00e+00	0	44	0	0	59	4918
2026-01-11 00:27:04.61	293.79	50.76	-44.1	-46.4	16.0	0.00e+00	0	44	0	0	59	4775
2026-01-11 00:27:07.62	291.83	50.70	-43.6	-45.8	16.4	0.00e+00	0	44	0	0	59	4449
2026-01-11 00:27:10.63	289.88	50.61	-43.7	-45.9	16.2	0.00e+00	0	44	0	0	59	4531
2026-01-11 00:27:13.64	287.94	50.48	-44.1	-46.4	15.7	0.00e+00	0	44	0	0	59	4783
2026-01-11 00:27:16.65	286.02	50.32	-44.6	-47.1	15.0	0.00e+00	0	44	0	0	59	5167
2026-01-11 00:27:19.66	284.12	50.12	-44.2	-46.5	15.7	0.00e+00	0	44	0	0	59	4857
2026-01-11 00:27:22.67	282.24	49.89	-44.1	-46.4	15.8	0.00e+00	0	44	0	0	59	4765
2026-01-11 00:27:25.68	280.40	49.63	-43.2	-45.3	16.8	0.00e+00	0	44	0	0	58	4473
2026-01-11 00:27:28.70	278.58	49.35	-44.5	-46.8	15.4	0.00e+00	0	43	0	0	59	5041
2026-01-11 00:27:31.71	276.81	49.03	-43.7	-46.0	16.2	0.00e+00	0	44	0	0	59	4556
2026-01-11 00:27:34.72	275.07	48.69	-44.2	-46.5	15.7	0.00e+00	0	44	0	0	59	4828
2026-01-11 00:27:37.73	273.37	48.32	-43.8	-46.0	16.3	0.00e+00	0	44	0	0	59	4561
2026-01-11 00:27:40.73	271.72	47.93	-43.0	-45.1	17.2	0.00e+00	0	43	0	0	57	4618
2026-01-11 00:27:43.74	270.11	47.52	-44.7	-47.2	15.0	0.00e+00	0	44	0	0	59	5231
2026-01-11 00:27:46.75	268.54	47.09	-43.7	-45.8	16.4	0.00e+00	0	44	0	0	59	4484
2026-01-11 00:27:49.76	267.01	46.64	-44.8	-47.3	15.1	0.00e+00	0	44	0	0	60	5024
2026-01-11 00:27:52.77	265.53	46.17	-43.2	-45.2	16.5	0.00e+00	0	44	0	0	58	4435
2026-01-11 00:27:55.78	264.09	45.69	-43.9	-46.1	16.1	0.00e+00	0	44	0	0	58	4905
2026-01-11 00:27:58.79	262.69	45.19	-45.7	-48.5	13.8	7.60e-06	0	44	0	0	62	5145
2026-01-11 00:28:01.80	261.34	44.68	-43.1	-45.2	16.8	0.00e+00	0	44	0	0	58	4424
2026-01-11 00:28:04.81	260.03	44.16	-45.0	-47.7	14.7	0.00e+00	0	43	0	0	60	5223
2026-01-11 00:28:07.82	258.77	43.63	-45.9	-48.8	13.0	6.25e-05	0	44	0	0	63	4996
2026-01-11 00:28:10.82	257.55	43.10	-45.0	-47.5	14.6	0.00e+00	0	43	0	0	61	4855
2026-01-11 00:28:13.83	256.36	42.56	-45.3	-48.0	14.4	0.00e+00	0	43	0	0	61	5114
2026-01-11 00:28:16.84	255.22	42.01	-44.7	-47.2	15.1	0.00e+00	0	44	0	0	61	4667
2026-01-11 00:28:19.85	254.11	41.46	-43.7	-45.9	16.4	0.00e+00	0	44	0	0	59	4510
2026-01-11 00:28:22.86	253.05	40.90	-45.6	-48.5	13.8	2.20e-06	0	43	0	0	61	5443
2026-01-11 00:28:25.88	252.01	40.34	-44.5	-46.9	15.3	0.00e+00	0	44	0	0	61	4517
2026-01-11 00:28:28.89	251.01	39.78	-44.3	-46.6	15.7	0.00e+00	0	44	0	0	60	4639
2026-01-11 00:28:31.90	250.05	39.22	-44.6	-47.1	15.2	0.00e+00	0	44	0	0	60	4915
2026-01-11 00:28:34.91	249.12	38.67	-44.9	-47.5	14.7	1.50e-06	0	44	0	0	61	4835
2026-01-11 00:28:37.92	248.22	38.11	-43.3	-45.4	16.8	0.00e+00	0	44	0	0	58	4523
2026-01-11 00:28:40.93	247.35	37.55	-44.4	-46.8	15.5	0.00e+00	0	44	0	0	59	4990
2026-01-11 00:28:43.94	246.51	36.99	-44.2	-46.5	15.8	0.00e+00	0	44	0	0	60	4591
2026-01-11 00:28:46.96	245.70	36.44	-43.6	-45.7	16.5	0.00e+00	0	44	0	0	59	4438
2026-01-11 00:28:49.96	244.92	35.89	-42.4	-44.3	17.9	0.00e+00	0	44	0	0	56	4457
2026-01-11 00:28:52.98	244.16	35.34	-42.6	-44.6	17.6	0.00e+00	0	44	0	0	56	4603
2026-01-11 00:28:55.99	243.43	34.80	-42.5	-44.4	17.6	0.00e+00	0	44	0	0	56	4524
2026-01-11 00:28:59.00	242.72	34.26	-42.8	-44.8	17.3	0.00e+00	0	44	0	0	56	4749
2026-01-11 00:29:02.01	242.03	33.73	-43.4	-45.5	16.6	0.00e+00	0	44	0	0	57	4870
2026-01-11 00:29:05.02	241.37	33.20	-42.8	-44.8	17.3	0.00e+00	0	44	0	0	57	4464
2026-01-11 00:29:08.03	240.73	32.67	-42.3	-44.2	17.9	0.00e+00	0	44	0	0	56	4412
2026-01-11 00:29:11.05	240.11	32.15	-42.4	-44.3	17.7	0.00e+00	0	44	0	0	56	4487
2026-01-11 00:29:14.06	239.50	31.64	-42.4	-44.3	17.7	0.00e+00	0	44	0	0	56	4475
2026-01-11 00:29:17.06	238.92	31.13	-42.2	-44.1	17.9	0.00e+00	0	44	0	0	56	4387
2026-01-11 00:29:20.07	238.36	30.62	-42.2	-44.1	17.9	0.00e+00	0	44	0	0	56	4350
2026-01-11 00:29:23.09	237.81	30.12	-41.7	-43.5	18.3	0.00e+00	0	44	0	0	55	4314
2026-01-11 00:29:26.10	237.28	29.63	-42.0	-43.9	18.0	0.00e+00	0	44	0	0	55	4538
2026-01-11 00:29:29.11	236.77	29.15	-42.3	-44.2	17.7	0.00e+00	0	44	0	0	55	4698
2026-01-11 00:29:32.12	236.27	28.66	-42.0	-43.9	17.8	0.00e+00	0	44	0	0	55	4543
2026-01-11 00:29:35.13	235.78	28.19	-42.2	-44.1	17.6	0.00e+00	0	44	0	0	55	4640
2026-01-11 00:29:38.14	235.31	27.72	-41.6	-43.5	18.3	0.00e+00	0	44	0	0	55	4297
2026-01-11 00:29:41.15	234.86	27.26	-41.7	-43.5	18.1	0.00e+00	0	44	0	0	55	4336
2026-01-11 00:29:44.16	234.41	26.80	-41.6	-43.5	18.3	0.00e+00	0	44	0	0	55	4306
2026-01-11 00:29:47.17	233.98	26.35	-41.4	-43.3	18.5	0.00e+00	0	44	0	0	54	4454
2026-01-11 00:29:50.18	233.56	25.90	-41.8	-43.7	18.1	0.00e+00	0	44	0	0	54	4667
2026-01-11 00:29:53.19	233.16	25.46	-42.2	-44.2	17.6	0.00e+00	0	43	0	0	55	4683
2026-01-11 00:29:56.20	232.76	25.03	-42.5	-44.5	17.4	0.00e+00	0	44	0	0	55	4853
2026-01-11 00:29:59.20	232.38	24.60	-42.3	-44.4	17.6	0.00e+00	0	44	0	0	55	4762
2026-01-11 00:30:02.21	232.01	24.17	-42.0	-44.0	17.9	0.00e+00	0	44	0	0	55	4550
2026-01-11 00:30:05.22	231.64	23.75	-41.9	-43.8	18.0	0.00e+00	0	44	0	0	55	4486
2026-01-11 00:30:08.23	231.29	23.34	-41.8	-43.7	18.1	0.00e+00	0	44	0	0	55	4438
2026-01-11 00:30:11.24	230.94	22.93	-41.6	-43.5	18.3	0.00e+00	0	44	0	0	55	4297
2026-01-11 00:30:14.25	230.61	22.53	-41.5	-43.4	18.3	0.00e+00	0	44	0	0	54	4513
2026-01-11 00:30:17.26	230.28	22.13	-41.7	-43.5	18.2	0.00e+00	0	44	0	0	54	4588
2026-01-11 00:30:20.27	229.96	21.74	-41.9	-43.8	18.0	0.00e+00	0	44	0	0	54	4712
2026-01-11 00:30:23.28	229.65	21.36	-41.9	-43.8	17.9	0.00e+00	0	43	0	0	54	4754
2026-01-11 00:30:26.29	229.35	20.97	-41.9	-43.8	17.9	0.00e+00	0	44	0	0	54	4753
2026-01-11 00:30:29.30	229.05	20.60	-41.7	-43.6	18.0	0.00e+00	0	43	0	0	54	4646
2026-01-11 00:30:32.31	228.76	20.22	-41.4	-43.3	18.3	0.00e+00	0	44	0	0	54	4450
2026-01-11 00:30:35.32	228.48	19.86	-41.4	-43.2	18.4	0.00e+00	0	44	0	0	54	4426
2026-01-11 00:30:38.33	228.21	19.49	-41.4	-43.3	18.4	0.00e+00	0	44	0	0	54	4447
2026-01-11 00:30:41.34	227.94	19.13	-41.6	-43.4	18.3	0.00e+00	0	44	0	0	54	4530
2026-01-11 00:30:44.35	227.68	18.78	-41.8	-43.7	18.0	0.00e+00	0	44	0	0	54	4668
2026-01-11 00:30:47.36	227.42	18.43	-42.0	-44.0	17.7	0.00e+00	0	44	0	0	54	4836
2026-01-11 00:30:50.37	227.17	18.09	-42.3	-44.2	17.5	0.00e+00	0	44	0	0	55	4697
2026-01-11 00:30:53.38	226.93	17.74	-42.4	-44.5	17.3	0.00e+00	0	44	0	0	55	4815
2026-01-11 00:30:56.39	226.69	17.41	-42.5	-44.5	17.3	0.00e+00	0	44	0	0	55	4857
2026-01-11 00:30:59.41	226.46	17.07	-42.5	-44.5	17.2	0.00e+00	0	44	0	0	55	4858
2026-01-11 00:31:02.42	226.23	16.74	-42.5	-44.5	17.3	0.00e+00	0	44	0	0	55	4832
2026-01-11 00:31:05.43	226.01	16.42	-42.6	-44.6	17.2	0.00e+00	0	44	0	0	55	4898
2026-01-11 00:31:08.44	225.79	16.10	-42.4	-44.5	17.3	0.00e+00	0	44	0	0	55	4823
2026-01-11 00:31:11.45	225.58	15.78	-42.3	-44.3	17.4	0.00e+00	0	44	0	0	55	4732
2026-01-11 00:31:14.47	225.37	15.47	-42.3	-44.3	17.4	0.00e+00	0	44	0	0	55	4724
2026-01-11 00:31:17.48	225.16	15.16	-42.2	-44.1	17.5	0.00e+00	0	44	0	0	55	4635
2026-01-11 00:31:20.49	224.97	14.85	-42.2	-44.2	17.5	0.00e+00	0	44	0	0	55	4668
2026-01-11 00:31:23.50	224.77	14.55	-42.3	-44.3	17.3	0.00e+00	0	44	0	0	55	4750
2026-01-11 00:31:26.51	224.58	14.25	-42.5	-44.5	17.2	0.00e+00	0	44	0	0	55	4856
2026-01-11 00:31:29.52	224.39	13.95	-42.5	-44.6	17.1	0.00e+00	0	44	0	0	55	4890
2026-01-11 00:31:32.52	224.21	13.66	-43.0	-45.2	16.7	0.00e+00	0	44	0	0	56	4935
2026-01-11 00:31:35.53	224.03	13.37	-43.1	-45.3	16.6	0.00e+00	0	44	0	0	56	4987
2026-01-11 00:31:38.54	223.85	13.08	-43.2	-45.3	16.5	0.00e+00	0	44	0	0	57	4743
2026-01-11 00:31:41.55	223.68	12.80	-43.3	-45.5	16.4	0.00e+00	0	44	0	0	57	4824
2026-01-11 00:31:44.56	223.51	12.52	-43.2	-45.4	16.3	0.00e+00	0	44	0	0	57	4813
2026-01-11 00:31:47.58	223.34	12.24	-43.2	-45.4	16.3	0.00e+00	0	44	0	0	57	4812
2026-01-11 00:31:50.59	223.18	11.96	-43.2	-45.4	16.3	0.00e+00	0	44	0	0	57	4766
2026-01-11 00:31:53.59	223.02	11.69	-43.1	-45.3	16.4	0.00e+00	0	44	0	0	57	4709
2026-01-11 00:31:56.60	222.87	11.42	-43.1	-45.2	16.4	0.00e+00	0	44	0	0	57	4702
2026-01-11 00:31:59.61	222.71	11.16	-43.2	-45.5	16.2	0.00e+00	0	44	0	0	57	4815
2026-01-11 00:32:02.62	222.56	10.89	-43.2	-45.5	16.2	0.00e+00	0	44	0	0	57	4817
2026-01-11 00:32:05.64	222.41	10.63	-43.1	-45.4	16.2	0.00e+00	0	44	0	0	57	4760
2026-01-11 00:32:08.65	222.27	10.37	-43.2	-45.4	16.2	0.00e+00	0	44	0	0	57	4800
2026-01-11 00:32:11.65	222.13	10.12	-43.1	-45.3	16.3	0.00e+00	0	43	0	0	57	4744
2026-01-11 00:32:14.67	221.98	9.86	-43.1	-45.4	16.2	0.00e+00	0	43	0	0	57	4791
2026-01-11 00:32:17.68	221.85	9.61	-43.3	-45.7	15.9	0.00e+00	0	43	0	0	57	4938
2026-01-11 00:32:20.68	221.71	9.36	-43.3	-45.8	15.8	0.00e+00	0	43	0	0	57	5003
2026-01-11 00:32:23.69	221.58	9.11	-43.5	-46.0	15.5	0.00e+00	0	44	0	0	57	5159
2026-01-11 00:32:26.70	221.45	8.87	-50.2	-62.5	3.8	1.49e+00	0	44	104	0	71	15363
2026-01-11 00:32:29.72	221.32	8.63	-50.6	-63.6	3.8	1.49e+00	0	44	104	0	72	16356
2026-01-11 00:32:32.73	221.20	8.39	-50.6	-63.7	3.8	1.49e+00	0	44	104	0	72	16595
2026-01-11 00:32:35.74	221.07	8.15	-50.7	-63.7	3.8	1.49e+00	0	44	104	0	72	16693
2026-01-11 00:32:38.75	220.95	7.91	-50.9	-63.7	3.8	1.49e+00	0	44	104	0	72	16656
2026-01-11 00:32:41.77	220.83	7.68	-50.6	-63.8	3.8	1.49e+00	0	43	104	0	72	16714
2026-01-11 00:32:44.78	220.71	7.45	-50.7	-63.8	3.8	1.49e+00	0	44	104	0	72	16732
2026-01-11 00:32:47.80	220.60	7.22	-50.6	-63.7	3.8	1.49e+00	0	44	104	0	72	16639
2026-01-11 00:32:50.81	220.48	6.99	-50.6	-63.7	3.8	1.49e+00	0	44	104	0	72	16645
2026-01-11 00:32:53.82	220.37	6.76	-50.6	-63.7	3.8	1.49e+00	0	44	104	0	72	16543
2026-01-11 00:32:56.84	220.26	6.54	-50.6	-63.7	3.8	1.49e+00	0	44	104	0	72	16546
2026-01-11 00:32:59.85	220.15	6.32	-50.6	-63.7	3.8	1.49e+00	0	44	104	0	72	16518
2026-01-11 00:33:02.86	220.05	6.09	-50.6	-63.7	3.8	1.49e+00	0	44	104	0	72	16551
2026-01-11 00:33:05.87	219.94	5.88	-50.6	-63.7	3.8	1.49e+00	0	44	104	0	72	16570
2026-01-11 00:33:08.89	219.84	5.66	-50.6	-63.7	3.8	1.49e+00	0	44	104	0	72	16541
2026-01-11 00:33:11.90	219.74	5.44	-50.6	-63.6	3.8	1.49e+00	0	44	104	0	72	16480
2026-01-11 00:33:14.92	219.64	5.23	-50.6	-63.7	3.8	1.49e+00	0	44	104	0	72	16605
2026-01-11 00:33:17.93	219.54	5.02	-50.6	-63.7	3.8	1.49e+00	0	44	104	0	72	16567

#Closed at: 2026-01-11 00:33:19
#Recorded file [0 MB]: D:/Data/31040_260111_032042.dat