passes_logs/2026/01/11/T1/T1__20260111_222147_NOAA_21_JPSS-2_rec.log

#Pass ID: 20260111_222147_NOAA 21 (JPSS-2)
#Satellite: NOAA 21 (JPSS-2)
#Configuration: NOAA 21
#almurnet v.1.7.20251203
#Start time: 2026-01-11 22:21:49

#Version: 2.0.20230620
#Station: T1
#Location: 37.570604 lon 55.790049 lat
#TLE: 1 54234U 22150A   26011.27699114  .00000090  00000+0  63771-4 0  9993
#TLE: 2 54234  98.7494 312.2218 0000765 314.9553  45.1561 14.19534106164285

#Time	Az	El	Level	Level2	SNR	BER	BlckErr	Temp	State	Recorded	gain1	gain2
2026-01-11 22:21:49.78	27.51	5.13	-49.8	-63.2	3.8	1.49e+00	0	38	0	0	71	16551
2026-01-11 22:21:52.75	27.74	5.31	-49.8	-63.2	3.8	1.49e+00	0	38	104	0	70	17522
2026-01-11 22:21:55.73	27.97	5.50	-49.8	-63.1	3.8	1.49e+00	0	38	104	0	70	17349
2026-01-11 22:21:58.71	28.21	5.68	-49.8	-63.0	3.8	1.49e+00	0	39	104	0	70	17171
2026-01-11 22:22:01.69	28.45	5.87	-49.8	-63.1	3.8	1.49e+00	0	39	104	0	70	17298
2026-01-11 22:22:04.67	28.69	6.06	-49.8	-63.0	3.8	1.49e+00	0	39	104	0	70	17228
2026-01-11 22:22:07.65	28.94	6.24	-49.8	-62.9	3.8	1.49e+00	0	39	104	0	70	17064
2026-01-11 22:22:10.63	29.19	6.43	-49.8	-62.8	3.8	1.49e+00	0	39	104	0	70	16787
2026-01-11 22:22:13.61	29.44	6.62	-49.8	-62.8	3.8	1.49e+00	0	39	104	0	70	16823
2026-01-11 22:22:16.59	29.69	6.81	-49.8	-62.9	3.8	1.49e+00	0	39	104	0	70	17003
2026-01-11 22:22:19.57	29.95	7.01	-49.7	-63.0	3.8	1.49e+00	0	39	104	0	70	17158
2026-01-11 22:22:22.55	30.21	7.20	-49.8	-62.9	3.8	1.49e+00	0	39	104	0	70	17054
2026-01-11 22:22:25.53	30.48	7.39	-49.7	-62.9	3.8	1.49e+00	0	39	104	0	70	17029
2026-01-11 22:22:28.51	30.74	7.59	-49.7	-63.0	3.8	1.49e+00	0	39	104	0	70	17248
2026-01-11 22:22:31.49	31.01	7.78	-49.7	-63.0	3.8	1.49e+00	0	39	104	0	70	17238
2026-01-11 22:22:34.47	31.29	7.98	-49.7	-62.9	3.8	1.49e+00	0	40	104	0	70	16921
2026-01-11 22:22:37.45	31.57	8.18	-49.7	-62.9	3.8	1.49e+00	0	39	104	0	70	16891
2026-01-11 22:22:40.43	31.85	8.38	-49.7	-62.9	3.8	1.49e+00	0	40	104	0	70	17018
2026-01-11 22:22:43.41	32.13	8.58	-49.8	-63.2	3.8	1.49e+00	0	40	104	0	70	17494
2026-01-11 22:22:46.39	32.42	8.78	-49.7	-62.6	3.8	1.49e+00	0	40	104	0	70	16416
2026-01-11 22:22:49.37	32.72	8.98	-49.7	-62.4	3.8	1.49e+00	0	40	104	0	70	16083
2026-01-11 22:22:52.43	33.02	9.19	-49.8	-63.1	3.8	1.49e+00	0	40	104	0	70	17295
2026-01-11 22:22:55.34	33.31	9.39	-46.0	-49.5	12.3	1.81e-04	0	40	0	0	63	5430
2026-01-11 22:22:58.47	33.64	9.60	-45.0	-47.8	14.1	3.00e-06	0	40	0	0	62	4734
2026-01-11 22:23:01.31	33.93	9.80	-44.0	-46.4	15.5	0.00e+00	0	40	0	0	59	4772
2026-01-11 22:23:04.44	34.26	10.02	-44.0	-46.4	15.5	0.00e+00	0	40	0	0	59	4805
2026-01-11 22:23:07.28	34.56	10.22	-43.8	-46.1	15.8	0.00e+00	0	40	0	0	59	4644
2026-01-11 22:23:10.48	34.91	10.44	-43.8	-46.1	15.7	0.00e+00	0	40	0	0	59	4644
2026-01-11 22:23:13.32	35.22	10.64	-43.6	-45.9	16.0	0.00e+00	0	40	0	0	59	4532
2026-01-11 22:23:16.45	35.57	10.86	-43.5	-45.8	16.1	0.00e+00	0	40	0	0	59	4488
2026-01-11 22:23:19.30	35.89	11.06	-43.6	-46.0	16.0	0.00e+00	0	40	0	0	59	4560
2026-01-11 22:23:22.42	36.24	11.29	-43.5	-45.8	16.2	0.00e+00	0	40	0	0	59	4451
2026-01-11 22:23:25.27	36.57	11.49	-43.4	-45.7	16.3	0.00e+00	0	40	0	0	58	4678
2026-01-11 22:23:28.39	36.94	11.72	-43.5	-45.8	16.2	0.00e+00	0	40	0	0	58	4710
2026-01-11 22:23:31.23	37.28	11.92	-43.3	-45.5	16.4	0.00e+00	0	40	0	0	58	4593
2026-01-11 22:23:34.58	37.69	12.17	-43.1	-45.4	16.4	0.00e+00	0	40	0	0	58	4522
2026-01-11 22:23:37.31	38.02	12.37	-43.1	-45.5	16.3	0.00e+00	0	40	0	0	58	4581
2026-01-11 22:23:40.59	38.43	12.61	-43.0	-45.4	16.3	0.00e+00	0	40	0	0	57	4760
2026-01-11 22:23:43.29	38.77	12.81	-43.1	-45.5	16.3	0.00e+00	0	40	0	0	57	4833
2026-01-11 22:23:46.58	39.19	13.05	-43.1	-45.4	16.5	0.00e+00	0	40	0	0	57	4772
2026-01-11 22:23:49.28	39.54	13.25	-43.1	-45.3	16.6	0.00e+00	0	40	0	0	57	4728
2026-01-11 22:23:52.55	39.97	13.50	-43.1	-45.2	16.7	0.00e+00	0	40	0	0	57	4705
2026-01-11 22:23:55.26	40.34	13.70	-43.1	-45.3	16.7	0.00e+00	0	40	0	0	57	4721
2026-01-11 22:23:58.80	40.82	13.97	-43.2	-45.4	16.5	0.00e+00	0	40	0	0	57	4806
2026-01-11 22:24:01.51	41.19	14.17	-43.2	-45.4	16.6	0.00e+00	0	40	0	0	57	4764
2026-01-11 22:24:04.78	41.65	14.42	-43.2	-45.3	16.6	0.00e+00	0	40	0	0	57	4749
2026-01-11 22:24:07.73	42.07	14.64	-43.3	-45.4	16.7	0.00e+00	0	40	0	0	57	4776
2026-01-11 22:24:11.27	42.58	14.91	-43.4	-45.5	16.4	0.00e+00	0	40	0	0	57	4860
2026-01-11 22:24:13.97	42.98	15.12	-43.4	-45.6	16.4	0.00e+00	0	40	0	0	57	4915
2026-01-11 22:24:17.24	43.47	15.37	-43.4	-45.6	16.5	0.00e+00	0	40	0	0	57	4888
2026-01-11 22:24:20.00	43.88	15.58	-43.5	-45.7	16.4	0.00e+00	0	40	0	0	57	4946
2026-01-11 22:24:23.29	44.39	15.84	-43.3	-45.4	16.7	0.00e+00	0	40	0	0	57	4779
2026-01-11 22:24:26.00	44.81	16.04	-43.4	-45.5	16.6	0.00e+00	0	40	0	0	57	4851
2026-01-11 22:24:29.29	45.33	16.30	-43.5	-45.7	16.4	0.00e+00	0	41	0	0	57	4972
2026-01-11 22:24:31.99	45.77	16.51	-43.5	-45.7	16.4	0.00e+00	0	40	0	0	57	4944
2026-01-11 22:24:35.26	46.30	16.76	-43.4	-45.6	16.4	0.00e+00	0	40	0	0	57	4911
2026-01-11 22:24:37.99	46.75	16.97	-43.5	-45.7	16.4	0.00e+00	0	40	0	0	57	4931
2026-01-11 22:24:41.26	47.30	17.23	-43.6	-45.8	16.3	0.00e+00	0	40	0	0	57	5014
2026-01-11 22:24:43.97	47.76	17.44	-43.6	-45.8	16.3	0.00e+00	0	40	0	0	57	5028
2026-01-11 22:24:47.24	48.33	17.69	-43.4	-45.6	16.5	0.00e+00	0	40	0	0	57	4894
2026-01-11 22:24:49.97	48.81	17.90	-43.4	-45.5	16.5	0.00e+00	0	40	0	0	57	4862
2026-01-11 22:24:53.25	49.39	18.16	-43.3	-45.5	16.5	0.00e+00	0	40	0	0	57	4852
2026-01-11 22:24:56.20	49.93	18.39	-43.3	-45.5	16.6	0.00e+00	0	40	0	0	57	4828
2026-01-11 22:25:00.11	50.65	18.69	-43.2	-45.3	16.7	0.00e+00	0	40	0	0	57	4743
2026-01-11 22:25:02.95	51.18	18.91	-43.1	-45.2	16.9	0.00e+00	0	40	0	0	57	4686
2026-01-11 22:25:06.93	51.94	19.22	-42.9	-44.9	17.1	0.00e+00	0	40	0	0	57	4543
2026-01-11 22:25:09.78	52.49	19.44	-42.7	-44.7	17.4	0.00e+00	0	40	0	0	57	4411
2026-01-11 22:25:13.94	53.32	19.76	-42.8	-44.8	17.3	0.00e+00	0	40	0	0	57	4476
2026-01-11 22:25:16.79	53.89	19.97	-42.8	-44.8	17.2	0.00e+00	0	41	0	0	57	4489
2026-01-11 22:25:20.97	54.74	20.29	-42.8	-44.9	17.2	0.00e+00	0	40	0	0	57	4511
2026-01-11 22:25:23.80	55.33	20.50	-42.9	-45.0	17.1	0.00e+00	0	40	0	0	57	4581
2026-01-11 22:25:27.53	56.12	20.78	-43.0	-45.1	17.0	0.00e+00	0	40	0	0	57	4632
2026-01-11 22:25:30.51	56.75	21.00	-42.8	-44.8	17.3	0.00e+00	0	40	0	0	57	4482
2026-01-11 22:25:33.54	57.41	21.23	-42.6	-44.7	17.5	0.00e+00	0	40	0	0	57	4397
2026-01-11 22:25:36.53	58.07	21.45	-42.5	-44.5	17.6	0.00e+00	0	40	0	0	57	4308
2026-01-11 22:25:39.52	58.74	21.66	-42.5	-44.5	17.6	0.00e+00	0	40	0	0	57	4307
2026-01-11 22:25:42.50	59.42	21.88	-42.5	-44.5	17.5	0.00e+00	0	40	0	0	56	4557
2026-01-11 22:25:45.49	60.10	22.09	-42.4	-44.4	17.6	0.00e+00	0	40	0	0	56	4535
2026-01-11 22:25:48.47	60.80	22.30	-42.3	-44.3	17.8	0.00e+00	0	40	0	0	56	4459
2026-01-11 22:25:51.46	61.50	22.51	-42.1	-44.0	18.0	0.00e+00	0	40	0	0	56	4324
2026-01-11 22:25:54.44	62.21	22.71	-42.2	-44.1	17.8	0.00e+00	0	40	0	0	56	4387
2026-01-11 22:25:57.43	62.94	22.91	-42.5	-44.4	17.6	0.00e+00	0	40	0	0	56	4541
2026-01-11 22:26:00.42	63.67	23.11	-42.4	-44.3	17.8	0.00e+00	0	40	0	0	56	4467
2026-01-11 22:26:03.43	64.42	23.31	-42.4	-44.4	17.7	0.00e+00	0	41	0	0	56	4507
2026-01-11 22:26:06.48	65.18	23.50	-42.7	-44.7	17.5	0.00e+00	0	40	0	0	56	4665
2026-01-11 22:26:09.47	65.94	23.69	-42.7	-44.6	17.5	0.00e+00	0	40	0	0	56	4646
2026-01-11 22:26:12.45	66.71	23.87	-42.6	-44.6	17.5	0.00e+00	0	40	0	0	56	4643
2026-01-11 22:26:15.44	67.49	24.05	-42.8	-44.9	17.3	0.00e+00	0	41	0	0	56	4766
2026-01-11 22:26:18.42	68.27	24.23	-42.7	-44.7	17.4	0.00e+00	0	40	0	0	56	4703
2026-01-11 22:26:21.45	69.08	24.40	-42.8	-44.8	17.3	0.00e+00	0	40	0	0	56	4751
2026-01-11 22:26:24.47	69.89	24.57	-42.8	-44.8	17.3	0.00e+00	0	40	0	0	56	4758
2026-01-11 22:26:27.45	70.70	24.73	-42.7	-44.7	17.4	0.00e+00	0	40	0	0	56	4704
2026-01-11 22:26:30.44	71.52	24.89	-42.6	-44.6	17.5	0.00e+00	0	40	0	0	56	4635
2026-01-11 22:26:33.42	72.35	25.04	-42.8	-44.8	17.3	0.00e+00	0	40	0	0	56	4751
2026-01-11 22:26:36.41	73.19	25.19	-42.5	-44.5	17.6	0.00e+00	0	41	0	0	56	4558
2026-01-11 22:26:39.39	74.03	25.33	-42.4	-44.4	17.7	0.00e+00	0	40	0	0	56	4524
2026-01-11 22:26:42.48	74.91	25.47	-42.6	-44.6	17.5	0.00e+00	0	40	0	0	56	4629
2026-01-11 22:26:45.38	75.74	25.59	-42.6	-44.6	17.5	0.00e+00	0	40	0	0	56	4620
2026-01-11 22:26:48.66	76.69	25.73	-42.4	-44.4	17.7	0.00e+00	0	40	0	0	56	4522
2026-01-11 22:26:51.41	77.49	25.83	-42.4	-44.4	17.8	0.00e+00	0	40	0	0	56	4499
2026-01-11 22:26:54.68	78.45	25.95	-42.5	-44.5	17.6	0.00e+00	0	40	0	0	56	4583
2026-01-11 22:26:57.38	79.25	26.04	-42.3	-44.3	17.9	0.00e+00	0	40	0	0	56	4446
2026-01-11 22:27:00.66	80.23	26.15	-42.2	-44.1	18.0	0.00e+00	0	40	0	0	56	4391
2026-01-11 22:27:03.38	81.04	26.23	-42.2	-44.2	17.9	0.00e+00	0	40	0	0	56	4419
2026-01-11 22:27:06.65	82.03	26.32	-42.2	-44.2	17.9	0.00e+00	0	40	0	0	56	4400
2026-01-11 22:27:09.39	82.85	26.39	-42.3	-44.4	17.8	0.00e+00	0	40	0	0	56	4499
2026-01-11 22:27:12.67	83.85	26.46	-42.2	-44.1	17.9	0.00e+00	0	41	0	0	56	4390
2026-01-11 22:27:15.68	84.77	26.52	-42.2	-44.3	17.9	0.00e+00	0	40	0	0	56	4451
2026-01-11 22:27:18.66	85.68	26.57	-42.2	-44.2	17.9	0.00e+00	0	40	0	0	56	4424
2026-01-11 22:27:21.65	86.60	26.62	-42.2	-44.2	17.9	0.00e+00	0	41	0	0	56	4427
2026-01-11 22:27:24.63	87.52	26.66	-42.2	-44.2	18.0	0.00e+00	0	40	0	0	56	4394
2026-01-11 22:27:27.62	88.44	26.68	-41.9	-43.8	18.1	0.00e+00	0	41	0	0	55	4481
2026-01-11 22:27:30.71	89.40	26.71	-42.1	-44.0	17.9	0.00e+00	0	40	0	0	55	4578
2026-01-11 22:27:34.23	90.49	26.72	-42.0	-44.0	18.0	0.00e+00	0	40	0	0	55	4566
2026-01-11 22:27:36.98	91.34	26.73	-41.8	-43.7	18.2	0.00e+00	0	41	0	0	55	4426
2026-01-11 22:27:40.24	92.35	26.72	-41.9	-43.8	18.1	0.00e+00	0	40	0	0	55	4457
2026-01-11 22:27:42.95	93.19	26.71	-42.1	-44.0	17.9	0.00e+00	0	40	0	0	55	4562
2026-01-11 22:27:46.21	94.19	26.69	-41.8	-43.7	18.2	0.00e+00	0	40	0	0	55	4410
2026-01-11 22:27:49.01	95.06	26.66	-42.1	-44.0	18.0	0.00e+00	0	40	0	0	55	4562
2026-01-11 22:27:52.14	96.02	26.63	-42.1	-44.0	17.9	0.00e+00	0	41	0	0	55	4592
2026-01-11 22:27:55.42	97.03	26.58	-42.0	-44.0	17.9	0.00e+00	0	40	0	0	55	4550
2026-01-11 22:27:58.14	97.87	26.53	-41.9	-43.8	18.1	0.00e+00	0	41	0	0	55	4482
2026-01-11 22:28:01.44	98.87	26.47	-42.0	-43.9	18.0	0.00e+00	0	40	0	0	55	4520
2026-01-11 22:28:04.19	99.71	26.41	-42.0	-43.9	18.0	0.00e+00	0	41	0	0	55	4509
2026-01-11 22:28:07.47	100.71	26.33	-42.0	-44.0	17.9	0.00e+00	0	40	0	0	55	4553
2026-01-11 22:28:10.17	101.52	26.25	-41.9	-43.8	18.0	0.00e+00	0	40	0	0	55	4488
2026-01-11 22:28:13.42	102.50	26.16	-41.9	-43.8	18.1	0.00e+00	0	41	0	0	55	4460
2026-01-11 22:28:16.27	103.35	26.07	-42.1	-44.0	17.9	0.00e+00	0	40	0	0	55	4596
2026-01-11 22:28:19.40	104.28	25.96	-42.0	-44.0	17.9	0.00e+00	0	40	0	0	55	4562
2026-01-11 22:28:22.24	105.11	25.86	-42.4	-44.4	17.6	0.00e+00	0	40	0	0	55	4762
2026-01-11 22:28:25.36	106.03	25.74	-42.2	-44.2	17.7	0.00e+00	0	40	0	0	55	4690
2026-01-11 22:28:28.21	106.86	25.62	-42.4	-44.4	17.6	0.00e+00	0	40	0	0	55	4789
2026-01-11 22:28:31.33	107.76	25.49	-42.5	-44.5	17.5	0.00e+00	0	40	0	0	55	4842
2026-01-11 22:28:34.18	108.57	25.36	-42.4	-44.4	17.5	0.00e+00	0	40	0	0	55	4790
2026-01-11 22:28:37.30	109.46	25.21	-42.2	-44.2	17.8	0.00e+00	0	40	0	0	55	4669
2026-01-11 22:28:40.23	110.28	25.07	-42.1	-44.1	17.8	0.00e+00	0	40	0	0	55	4620
2026-01-11 22:28:43.41	111.17	24.91	-42.2	-44.2	17.7	0.00e+00	0	40	0	0	55	4656
2026-01-11 22:28:46.36	111.98	24.75	-42.2	-44.1	17.8	0.00e+00	0	40	0	0	55	4634
2026-01-11 22:28:49.70	112.89	24.57	-41.8	-43.7	18.1	0.00e+00	0	40	0	0	55	4433
2026-01-11 22:28:52.41	113.62	24.42	-42.0	-43.9	17.9	0.00e+00	0	40	0	0	55	4514
2026-01-11 22:28:55.71	114.51	24.23	-41.9	-43.7	18.1	0.00e+00	0	40	0	0	55	4437
2026-01-11 22:28:58.49	115.24	24.07	-41.9	-43.8	18.1	0.00e+00	0	40	0	0	55	4452
2026-01-11 22:29:01.74	116.09	23.87	-42.2	-44.1	17.7	0.00e+00	0	40	0	0	55	4634
2026-01-11 22:29:04.59	116.83	23.69	-42.3	-44.3	17.6	0.00e+00	0	40	0	0	55	4729
2026-01-11 22:29:07.71	117.63	23.50	-42.1	-44.1	17.8	0.00e+00	0	40	0	0	55	4614
2026-01-11 22:29:10.55	118.34	23.31	-42.1	-44.1	17.8	0.00e+00	0	41	0	0	55	4627
2026-01-11 22:29:13.68	119.12	23.11	-42.4	-44.4	17.6	0.00e+00	0	40	0	0	55	4767
2026-01-11 22:29:16.84	119.90	22.90	-42.6	-44.6	17.4	0.00e+00	0	40	0	0	55	4882
2026-01-11 22:29:19.73	120.61	22.70	-42.2	-44.2	17.7	0.00e+00	0	40	0	0	55	4669
2026-01-11 22:29:23.27	121.45	22.46	-42.2	-44.1	17.7	0.00e+00	0	40	0	0	55	4650
2026-01-11 22:29:26.00	122.10	22.27	-42.3	-44.2	17.7	0.00e+00	0	41	0	0	55	4693
2026-01-11 22:29:29.28	122.87	22.03	-42.2	-44.2	17.7	0.00e+00	0	41	0	0	55	4656
2026-01-11 22:29:31.98	123.49	21.84	-42.2	-44.1	17.7	0.00e+00	0	40	0	0	55	4630
2026-01-11 22:29:35.26	124.23	21.60	-42.2	-44.1	17.8	0.00e+00	0	40	0	0	55	4631
2026-01-11 22:29:38.11	124.87	21.39	-42.3	-44.3	17.6	0.00e+00	0	40	0	0	55	4757
2026-01-11 22:29:41.24	125.56	21.16	-42.4	-44.4	17.6	0.00e+00	0	40	0	0	55	4786
2026-01-11 22:29:44.16	126.20	20.95	-42.2	-44.2	17.7	0.00e+00	0	40	0	0	55	4677
2026-01-11 22:29:47.42	126.90	20.70	-42.0	-44.0	17.9	0.00e+00	0	40	0	0	55	4569
2026-01-11 22:29:50.27	127.50	20.49	-42.1	-44.0	17.8	0.00e+00	0	40	0	0	55	4590
2026-01-11 22:29:53.58	128.19	20.23	-42.2	-44.1	17.8	0.00e+00	0	40	0	0	55	4620
2026-01-11 22:29:56.49	128.79	20.01	-42.2	-44.2	17.6	0.00e+00	0	40	0	0	55	4675
2026-01-11 22:29:59.67	129.44	19.77	-42.2	-44.2	17.6	0.00e+00	0	40	0	0	55	4689
2026-01-11 22:30:02.51	130.00	19.55	-42.3	-44.3	17.5	0.00e+00	0	40	0	0	55	4718
2026-01-11 22:30:05.64	130.62	19.31	-42.4	-44.4	17.4	0.00e+00	0	40	0	0	55	4799
2026-01-11 22:30:08.48	131.17	19.09	-42.4	-44.4	17.4	0.00e+00	0	40	0	0	55	4795
2026-01-11 22:30:11.61	131.76	18.84	-42.5	-44.5	17.4	0.00e+00	0	40	0	0	55	4830
2026-01-11 22:30:14.81	132.37	18.59	-42.6	-44.6	17.3	0.00e+00	0	40	0	0	55	4918
2026-01-11 22:30:17.80	132.92	18.36	-42.7	-44.8	17.3	0.00e+00	0	40	0	0	56	4727
2026-01-11 22:30:20.78	133.46	18.12	-42.7	-44.8	17.3	0.00e+00	0	40	0	0	56	4713
2026-01-11 22:30:23.77	134.00	17.89	-43.0	-45.1	17.0	0.00e+00	0	40	0	0	56	4876
2026-01-11 22:30:26.78	134.53	17.65	-43.0	-45.1	17.0	0.00e+00	0	40	0	0	56	4874
2026-01-11 22:30:29.89	135.07	17.41	-43.1	-45.2	16.8	0.00e+00	0	40	0	0	56	4975
2026-01-11 22:30:32.80	135.57	17.18	-43.1	-45.2	16.9	0.00e+00	0	40	0	0	56	4962
2026-01-11 22:30:36.08	136.12	16.92	-43.1	-45.2	16.8	0.00e+00	0	40	0	0	56	4972
2026-01-11 22:30:38.87	136.59	16.71	-43.1	-45.3	16.8	0.00e+00	0	40	0	0	57	4716
2026-01-11 22:30:42.00	137.10	16.46	-43.2	-45.4	16.6	0.00e+00	0	40	0	0	57	4798
2026-01-11 22:30:44.86	137.56	16.24	-43.1	-45.3	16.7	0.00e+00	0	40	0	0	57	4721
2026-01-11 22:30:48.07	138.07	15.99	-42.9	-45.0	17.0	0.00e+00	0	40	0	0	57	4584
2026-01-11 22:30:50.92	138.52	15.76	-43.0	-45.1	16.9	0.00e+00	0	40	0	0	57	4633
2026-01-11 22:30:54.04	139.00	15.52	-43.0	-45.0	17.0	0.00e+00	0	40	0	0	57	4594
2026-01-11 22:30:56.88	139.43	15.30	-43.1	-45.2	16.9	0.00e+00	0	40	0	0	57	4655
2026-01-11 22:31:00.00	139.90	15.06	-43.3	-45.5	16.6	0.00e+00	0	40	0	0	57	4821
2026-01-11 22:31:02.85	140.32	14.84	-43.3	-45.6	16.4	0.00e+00	0	40	0	0	57	4875
2026-01-11 22:31:06.05	140.78	14.59	-43.2	-45.5	16.5	0.00e+00	0	40	0	0	57	4819
2026-01-11 22:31:08.89	141.19	14.38	-43.3	-45.6	16.4	0.00e+00	0	40	0	0	57	4878
2026-01-11 22:31:12.02	141.63	14.14	-43.2	-45.5	16.5	0.00e+00	0	40	0	0	57	4820
2026-01-11 22:31:14.86	142.02	13.92	-43.4	-45.7	16.3	0.00e+00	0	40	0	0	57	4938
2026-01-11 22:31:17.98	142.45	13.68	-43.5	-45.7	16.2	0.00e+00	0	40	0	0	57	4980
2026-01-11 22:31:20.83	142.83	13.47	-43.5	-45.8	16.1	0.00e+00	0	40	0	0	57	5017
2026-01-11 22:31:24.11	143.27	13.22	-43.6	-45.9	16.0	0.00e+00	0	40	0	0	57	5066
2026-01-11 22:31:26.86	143.62	13.01	-43.8	-46.1	15.8	0.00e+00	0	40	0	0	58	4878
2026-01-11 22:31:30.13	144.05	12.77	-43.8	-46.1	15.8	0.00e+00	0	40	0	0	58	4919
2026-01-11 22:31:33.08	144.42	12.55	-43.7	-46.0	16.0	0.00e+00	0	40	0	0	58	4823
2026-01-11 22:31:36.07	144.79	12.33	-43.7	-46.0	16.0	0.00e+00	0	40	0	0	58	4828
2026-01-11 22:31:39.05	145.16	12.10	-43.8	-46.2	15.7	0.00e+00	0	40	0	0	58	4943
2026-01-11 22:31:42.04	145.52	11.88	-43.9	-46.3	15.6	0.00e+00	0	40	0	0	58	5014
2026-01-11 22:31:45.03	145.88	11.67	-43.9	-46.3	15.6	0.00e+00	0	40	0	0	58	5011
2026-01-11 22:31:48.01	146.23	11.45	-43.8	-46.2	15.7	0.00e+00	0	40	0	0	58	4983
2026-01-11 22:31:50.99	146.58	11.23	-43.8	-46.2	15.7	0.00e+00	0	40	0	0	58	4964
2026-01-11 22:31:54.02	146.93	11.01	-43.9	-46.3	15.6	0.00e+00	0	40	0	0	58	4997
2026-01-11 22:31:57.01	147.27	10.80	-43.9	-46.4	15.5	0.00e+00	0	40	0	0	58	5045
2026-01-11 22:32:00.00	147.60	10.58	-44.1	-46.5	15.4	0.00e+00	0	40	0	0	58	5144
2026-01-11 22:32:02.98	147.93	10.37	-44.1	-46.6	15.3	0.00e+00	0	41	0	0	59	4910
2026-01-11 22:32:05.96	148.25	10.16	-44.2	-46.6	15.2	0.00e+00	0	40	0	0	59	4906
2026-01-11 22:32:08.94	148.57	9.95	-44.2	-46.7	15.2	0.00e+00	0	40	0	0	59	4936
2026-01-11 22:32:11.93	148.88	9.74	-44.2	-46.6	15.2	0.00e+00	0	40	0	0	59	4921
2026-01-11 22:32:14.91	149.19	9.53	-44.2	-46.7	15.2	0.00e+00	0	40	0	0	59	4935
2026-01-11 22:32:17.90	149.50	9.32	-44.3	-46.8	14.9	0.00e+00	0	40	0	0	59	5034
2026-01-11 22:32:20.98	149.81	9.11	-44.4	-47.0	14.8	0.00e+00	0	40	0	0	59	5151
2026-01-11 22:32:23.82	150.09	8.91	-50.3	-63.2	3.8	1.49e+00	0	40	104	0	71	16644
2026-01-11 22:32:26.94	150.40	8.70	-50.6	-63.7	3.8	1.49e+00	0	40	104	0	71	17525
2026-01-11 22:32:29.77	150.67	8.51	-50.7	-63.7	3.8	1.49e+00	0	40	104	0	72	16683
2026-01-11 22:32:32.90	150.97	8.29	-50.7	-63.8	3.8	1.49e+00	0	40	104	0	72	16751
2026-01-11 22:32:35.73	151.24	8.10	-50.8	-63.8	3.8	1.49e+00	0	40	104	0	72	16796
2026-01-11 22:32:38.85	151.53	7.89	-50.9	-63.8	3.8	1.49e+00	0	40	104	0	72	16761
2026-01-11 22:32:41.69	151.79	7.70	-50.8	-63.8	3.8	1.49e+00	0	40	104	0	72	16794
2026-01-11 22:32:44.82	152.08	7.50	-50.6	-63.7	3.8	1.49e+00	0	40	104	0	72	16686
2026-01-11 22:32:47.65	152.33	7.31	-50.6	-63.7	3.8	1.49e+00	0	40	104	0	72	16664
2026-01-11 22:32:50.78	152.61	7.10	-50.6	-63.7	3.8	1.49e+00	0	40	104	0	72	16659
2026-01-11 22:32:53.62	152.86	6.92	-50.6	-63.7	3.8	1.49e+00	0	40	104	0	72	16664
2026-01-11 22:32:56.74	153.13	6.71	-50.6	-63.7	3.8	1.49e+00	0	40	104	0	72	16681
2026-01-11 22:32:59.58	153.37	6.53	-50.6	-63.7	3.8	1.49e+00	0	40	104	0	72	16608
2026-01-11 22:33:02.70	153.63	6.33	-50.6	-63.7	3.8	1.49e+00	0	40	104	0	72	16637
2026-01-11 22:33:05.54	153.87	6.15	-50.6	-63.7	3.8	1.49e+00	0	40	104	0	72	16564
2026-01-11 22:33:08.66	154.12	5.95	-50.6	-63.7	3.8	1.49e+00	0	40	104	0	72	16643
2026-01-11 22:33:11.50	154.35	5.77	-50.6	-63.7	3.8	1.49e+00	0	40	104	0	7
