passes_logs/2026/01/11/T1/T1__20260111_033538_FENGYUN_3E_rec.log

#Pass ID: 20260111_033538_FENGYUN 3E
#Satellite: FENGYUN 3E
#Configuration: FENGYUN 3E
#almurnet v.1.7.20251203
#Start time: 2026-01-11 03:35:40

#Version: 2.0.20230620
#Station: T1
#Location: 37.570604 lon 55.790049 lat
#TLE: 1 49008U 21062A   26010.00248113 -.00000186  00000+0 -66867-4 0  9993
#TLE: 2 49008  98.7487  15.1892 0001787 147.8079 212.3207 14.19883469234134

#Time	Az	El	Level	Level2	SNR	BER	BlckErr	Temp	State	Recorded	gain1	gain2
2026-01-11 03:35:40.98	18.99	5.15	-48.6	-61.0	3.8	8.47e-01	0	41	0	0	66	16045
2026-01-11 03:35:44.99	19.09	5.44	-48.6	-60.5	3.8	8.47e-01	0	41	104	0	66	15117
2026-01-11 03:35:49.01	19.19	5.72	-48.5	-60.0	3.8	8.47e-01	0	41	104	0	66	14320
2026-01-11 03:35:53.03	19.30	6.02	-48.5	-59.7	3.8	8.46e-01	0	41	104	0	66	13843
2026-01-11 03:35:57.04	19.40	6.31	-48.5	-60.4	3.8	8.46e-01	0	41	104	0	66	15026
2026-01-11 03:36:01.06	19.51	6.61	-48.5	-60.3	3.8	8.47e-01	0	41	104	0	66	14746
2026-01-11 03:36:05.08	19.61	6.91	-48.4	-58.8	3.9	8.45e-01	0	42	104	0	66	12425
2026-01-11 03:36:09.09	19.72	7.21	-48.3	-58.3	4.0	8.42e-01	0	42	0	0	66	11771
2026-01-11 03:36:13.11	19.84	7.52	-48.2	-57.0	4.4	8.32e-01	0	42	0	0	66	10112
2026-01-11 03:36:17.13	19.95	7.83	-47.6	-54.3	5.8	4.97e-01	0	42	0	4194304	66	7427
2026-01-11 03:36:21.14	20.06	8.15	-47.3	-53.1	6.8	2.01e-01	0	42	0	32505856	65	6846
2026-01-11 03:36:25.16	20.18	8.47	-47.2	-52.8	7.0	1.55e-01	0	42	0	61865984	65	6600
2026-01-11 03:36:29.18	20.30	8.79	-47.0	-52.1	7.7	9.01e-02	0	42	0	91226112	64	6431
2026-01-11 03:36:33.20	20.43	9.12	-47.8	-55.9	4.8	8.15e-01	0	42	0	115343360	65	9476
2026-01-11 03:36:37.21	20.55	9.45	-43.4	-45.5	14.5	0.00e+00	0	42	0	127926272	57	4504
2026-01-11 03:36:41.22	20.68	9.79	-42.1	-43.7	16.1	0.00e+00	0	42	0	157286400	55	4124
2026-01-11 03:36:45.23	20.81	10.13	-40.9	-42.3	17.5	0.00e+00	0	42	0	186646528	52	4147
2026-01-11 03:36:49.25	20.94	10.48	-40.8	-42.1	17.6	0.00e+00	0	42	0	214958080	51	4339
2026-01-11 03:36:53.26	21.08	10.83	-40.5	-41.9	18.0	0.00e+00	0	42	0	244318208	51	4197
2026-01-11 03:36:57.28	21.21	11.18	-40.3	-41.6	18.4	0.00e+00	0	42	0	272629760	51	4053
2026-01-11 03:37:01.30	21.36	11.55	-40.3	-41.6	18.4	0.00e+00	0	43	0	301989888	50	4317
2026-01-11 03:37:05.31	21.50	11.91	-40.0	-41.2	18.8	0.00e+00	0	43	0	331350016	50	4114
2026-01-11 03:37:09.32	21.65	12.28	-39.8	-41.0	19.0	0.00e+00	0	43	0	359661568	50	4016
2026-01-11 03:37:13.33	21.80	12.66	-39.9	-41.1	19.0	0.00e+00	0	43	0	389021696	50	4053
2026-01-11 03:37:17.34	21.95	13.04	-40.0	-41.1	18.9	0.00e+00	0	43	0	418381824	50	4093
2026-01-11 03:37:21.35	22.11	13.43	-40.0	-41.0	19.0	0.00e+00	0	43	0	446693376	50	4042
2026-01-11 03:37:25.36	22.27	13.82	-39.9	-41.0	19.0	0.00e+00	0	43	0	476053504	50	4023
2026-01-11 03:37:29.37	22.44	14.23	-39.8	-40.9	19.2	0.00e+00	0	43	0	504365056	50	3961
2026-01-11 03:37:33.39	22.61	14.63	-39.7	-40.7	19.3	0.00e+00	0	43	0	533725184	50	3899
2026-01-11 03:37:37.40	22.78	15.05	-39.9	-40.9	19.1	0.00e+00	0	43	0	563085312	49	4232
2026-01-11 03:37:41.41	22.96	15.47	-39.5	-40.5	19.4	0.00e+00	0	43	0	591396864	49	4051
2026-01-11 03:37:45.42	23.14	15.90	-39.3	-40.3	19.7	0.00e+00	0	43	0	620756992	49	3949
2026-01-11 03:37:49.43	23.33	16.34	-39.2	-40.2	19.8	0.00e+00	0	43	0	650117120	48	4129
2026-01-11 03:37:53.45	23.52	16.78	-39.0	-40.0	20.1	0.00e+00	0	43	0	678428672	48	4015
2026-01-11 03:37:57.46	23.72	17.23	-38.9	-39.9	20.2	0.00e+00	0	43	0	707788800	48	3980
2026-01-11 03:38:01.47	23.93	17.69	-39.0	-39.9	20.1	0.00e+00	0	43	0	736100352	48	4000
2026-01-11 03:38:05.48	24.14	18.16	-38.8	-39.8	20.2	0.00e+00	0	43	0	765460480	48	3937
2026-01-11 03:38:09.50	24.35	18.64	-38.8	-39.7	20.3	0.00e+00	0	43	0	794820608	48	3909
2026-01-11 03:38:13.51	24.58	19.13	-38.6	-39.5	20.5	0.00e+00	0	43	0	823132160	48	3823
2026-01-11 03:38:17.52	24.80	19.62	-38.5	-39.5	20.3	0.00e+00	0	43	0	852492288	47	4029
2026-01-11 03:38:21.53	25.04	20.13	-38.5	-39.5	20.2	0.00e+00	0	43	0	880803840	47	4050
2026-01-11 03:38:25.55	25.29	20.64	-38.4	-39.4	20.3	0.00e+00	0	43	0	910163968	47	3990
2026-01-11 03:38:29.56	25.54	21.17	-38.5	-39.5	20.3	0.00e+00	0	43	0	939524096	47	4006
2026-01-11 03:38:33.58	25.80	21.71	-38.4	-39.4	20.3	0.00e+00	0	43	0	967835648	47	3980
2026-01-11 03:38:37.59	26.07	22.26	-38.3	-39.3	20.4	0.00e+00	0	43	0	997195776	47	3946
2026-01-11 03:38:41.61	26.34	22.82	-38.5	-39.4	20.3	0.00e+00	0	43	0	1026555904	47	3989
2026-01-11 03:38:45.62	26.63	23.39	-37.9	-38.9	20.9	0.00e+00	0	43	0	1054867456	46	3963
2026-01-11 03:38:49.64	26.93	23.98	-38.1	-39.0	20.7	0.00e+00	0	43	0	1084227584	46	4042
2026-01-11 03:38:53.65	27.24	24.57	-37.9	-38.7	21.0	0.00e+00	0	43	0	1113587712	46	3912
2026-01-11 03:38:57.66	27.56	25.18	-37.8	-38.7	21.0	0.00e+00	0	43	0	1141899264	46	3894
2026-01-11 03:39:01.65	27.89	25.80	-37.9	-38.8	21.0	0.00e+00	0	43	0	1171259392	46	3926
2026-01-11 03:39:05.67	28.23	26.44	-37.5	-38.4	21.3	0.00e+00	0	43	0	1199570944	45	3992
2026-01-11 03:39:09.68	28.59	27.09	-37.5	-38.5	21.3	0.00e+00	0	43	0	1228931072	45	4018
2026-01-11 03:39:13.70	28.96	27.76	-37.5	-38.5	21.3	0.00e+00	0	43	0	1258291200	45	4008
2026-01-11 03:39:17.71	29.35	28.44	-37.4	-38.3	21.4	0.00e+00	0	43	0	1286602752	44	4188
2026-01-11 03:39:21.73	29.76	29.14	-37.2	-38.1	21.5	0.00e+00	0	43	0	1315962880	44	4073
2026-01-11 03:39:25.73	30.18	29.85	-37.0	-37.9	21.7	0.00e+00	0	43	0	1345323008	44	3994
2026-01-11 03:39:29.75	30.62	30.59	-37.2	-38.0	21.7	0.00e+00	0	43	0	1373634560	44	4042
2026-01-11 03:39:33.76	31.08	31.33	-37.5	-38.4	21.4	0.00e+00	0	43	0	1402994688	45	3967
2026-01-11 03:39:37.78	31.56	32.10	-37.5	-38.4	21.3	0.00e+00	0	43	0	1431306240	45	3998
2026-01-11 03:39:41.79	32.06	32.89	-37.3	-38.2	21.5	0.00e+00	0	43	0	1460666368	45	3888
2026-01-11 03:39:45.80	32.59	33.69	-37.6	-38.4	21.2	0.00e+00	0	43	0	1490026496	45	4004
2026-01-11 03:39:49.81	33.15	34.51	-37.2	-38.1	21.6	0.00e+00	0	43	0	1518338048	45	3848
2026-01-11 03:39:53.83	33.73	35.35	-37.3	-38.2	21.5	0.00e+00	0	43	0	1547698176	45	3903
2026-01-11 03:39:57.84	34.34	36.21	-37.4	-38.3	21.4	0.00e+00	0	43	0	1577058304	44	4156
2026-01-11 03:40:01.86	34.99	37.09	-37.5	-38.4	21.4	0.00e+00	0	43	0	1605369856	44	4227
2026-01-11 03:40:05.87	35.67	37.99	-37.5	-38.3	21.3	0.00e+00	0	43	0	1634729984	44	4192
2026-01-11 03:40:09.88	36.39	38.91	-37.3	-38.1	21.5	0.00e+00	0	43	0	1663041536	45	3850
2026-01-11 03:40:13.89	37.15	39.86	-37.6	-38.5	21.3	0.00e+00	0	43	0	1692401664	45	4011
2026-01-11 03:40:17.91	37.96	40.82	-37.9	-38.8	21.0	0.00e+00	0	43	0	1721761792	45	4176
2026-01-11 03:40:21.92	38.82	41.80	-37.7	-38.6	21.2	0.00e+00	0	43	0	1750073344	45	4084
2026-01-11 03:40:25.93	39.73	42.80	-38.3	-39.3	20.6	0.00e+00	0	43	0	1779433472	46	4152
2026-01-11 03:40:29.94	40.69	43.82	-38.0	-38.9	21.0	0.00e+00	0	43	0	1808793600	45	4209
2026-01-11 03:40:33.95	41.72	44.86	-38.0	-38.9	21.0	0.00e+00	0	43	0	1837105152	46	3970
2026-01-11 03:40:37.97	42.82	45.91	-38.1	-39.0	20.9	0.00e+00	0	43	0	1866465280	45	4251
2026-01-11 03:40:41.98	44.00	46.99	-38.6	-39.6	20.3	0.00e+00	0	43	0	1894776832	47	4072
2026-01-11 03:40:45.99	45.25	48.07	-38.3	-39.2	20.6	0.00e+00	0	43	0	1924136960	47	3907
2026-01-11 03:40:50.00	46.60	49.17	-38.6	-39.5	20.4	0.00e+00	0	43	0	1953497088	47	4043
2026-01-11 03:40:54.02	48.05	50.28	-39.1	-40.0	20.2	0.00e+00	0	43	0	1981808640	48	4048
2026-01-11 03:40:58.03	49.61	51.39	-39.5	-40.4	19.8	0.00e+00	0	43	0	2011168768	49	3994
2026-01-11 03:41:02.04	51.29	52.51	-38.9	-39.9	20.4	0.00e+00	0	43	0	2040528896	48	3968
2026-01-11 03:41:06.05	53.09	53.63	-39.3	-40.3	20.0	0.00e+00	0	43	0	2068840448	48	4179
2026-01-11 03:41:10.07	55.05	54.74	-39.6	-40.6	19.7	0.00e+00	0	43	0	2098200576	48	4309
2026-01-11 03:41:14.08	57.16	55.84	-39.3	-40.3	20.0	0.00e+00	0	43	0	2126512128	48	4163
2026-01-11 03:41:18.09	59.43	56.92	-39.1	-40.0	20.3	0.00e+00	0	43	0	2155872256	48	4038
2026-01-11 03:41:22.10	61.89	57.97	-39.4	-40.3	20.0	0.00e+00	0	43	0	2185232384	49	3953
2026-01-11 03:41:26.12	64.56	59.00	-38.9	-39.9	20.4	0.00e+00	0	43	0	2213543936	48	3959
2026-01-11 03:41:30.13	67.43	59.97	-38.9	-39.9	20.4	0.00e+00	0	43	0	2242904064	48	3962
2026-01-11 03:41:34.15	70.52	60.90	-38.9	-39.9	20.3	0.00e+00	0	43	0	2272264192	48	3974
2026-01-11 03:41:38.16	73.83	61.76	-38.8	-39.7	20.5	0.00e+00	0	43	0	2300575744	48	3890
2026-01-11 03:41:42.18	77.38	62.54	-38.5	-39.4	20.5	0.00e+00	0	43	0	2329935872	46	4240
2026-01-11 03:41:46.19	81.14	63.23	-37.8	-38.7	21.1	0.00e+00	0	43	0	2358247424	46	3913
2026-01-11 03:41:50.21	85.12	63.82	-38.0	-38.9	20.9	0.00e+00	0	43	0	2387607552	46	3968
2026-01-11 03:41:54.22	89.27	64.30	-37.9	-38.9	21.0	0.00e+00	0	43	0	2416967680	46	3959
2026-01-11 03:41:58.24	93.60	64.66	-37.6	-38.5	21.3	0.00e+00	0	43	0	2445279232	45	4035
2026-01-11 03:42:02.25	98.02	64.88	-38.0	-38.9	20.9	0.00e+00	0	43	0	2474639360	45	4227
2026-01-11 03:42:06.26	102.50	64.97	-37.6	-38.5	21.4	0.00e+00	0	43	0	2502950912	45	4012
2026-01-11 03:42:10.28	107.01	64.93	-37.6	-38.5	21.3	0.00e+00	0	43	0	2532311040	45	4035
2026-01-11 03:42:14.29	111.46	64.74	-37.7	-38.6	21.2	0.00e+00	0	43	0	2561671168	45	4083
2026-01-11 03:42:18.31	115.82	64.43	-37.8	-38.7	21.2	0.00e+00	0	43	0	2589982720	45	4099
2026-01-11 03:42:22.32	120.03	63.99	-38.1	-39.0	20.9	0.00e+00	0	43	0	2619342848	46	4026
2026-01-11 03:42:26.34	124.08	63.43	-38.4	-39.3	20.6	0.00e+00	0	43	0	2648702976	46	4183
2026-01-11 03:42:30.35	127.91	62.77	-38.5	-39.5	20.5	0.00e+00	0	43	0	2677014528	46	4268
2026-01-11 03:42:34.36	131.53	62.01	-39.0	-40.0	19.9	0.00e+00	0	43	0	2706374656	47	4284
2026-01-11 03:42:38.37	134.92	61.18	-38.7	-39.7	20.3	0.00e+00	0	43	0	2734686208	47	4121
2026-01-11 03:42:42.38	138.08	60.27	-39.2	-40.2	19.8	0.00e+00	0	43	0	2764046336	47	4354
2026-01-11 03:42:46.39	141.02	59.31	-39.3	-40.3	20.0	0.00e+00	0	43	0	2793406464	48	4161
2026-01-11 03:42:50.41	143.76	58.29	-39.1	-40.0	20.2	0.00e+00	0	43	0	2821718016	48	4024
2026-01-11 03:42:54.42	146.29	57.24	-39.4	-40.4	19.9	0.00e+00	0	43	0	2851078144	48	4202
2026-01-11 03:42:58.44	148.63	56.17	-39.2	-40.1	20.1	0.00e+00	0	43	0	2880438272	48	4083
2026-01-11 03:43:02.45	150.79	55.07	-39.5	-40.5	19.9	0.00e+00	0	43	0	2908749824	48	4252
2026-01-11 03:43:06.47	152.80	53.95	-39.0	-39.9	20.3	0.00e+00	0	43	0	2938109952	48	3974
2026-01-11 03:43:10.48	154.66	52.83	-39.4	-40.4	19.9	0.00e+00	0	44	0	2967470080	48	4208
2026-01-11 03:43:14.49	156.38	51.71	-39.8	-40.8	19.5	0.00e+00	0	44	0	2995781632	49	4156
2026-01-11 03:43:18.51	157.98	50.59	-39.4	-40.3	20.0	0.00e+00	0	43	0	3025141760	49	3953
2026-01-11 03:43:22.52	159.46	49.47	-39.7	-40.8	19.5	0.00e+00	0	44	0	3053453312	49	4155
2026-01-11 03:43:26.53	160.84	48.37	-39.6	-40.6	19.6	0.00e+00	0	43	0	3082813440	49	4090
2026-01-11 03:43:30.55	162.13	47.27	-38.9	-39.8	20.4	0.00e+00	0	43	0	3112173568	48	3942
2026-01-11 03:43:34.56	163.33	46.19	-38.0	-38.9	20.8	0.00e+00	0	44	0	3140485120	46	3981
2026-01-11 03:43:38.58	164.45	45.12	-37.8	-38.6	21.1	0.00e+00	0	43	0	3169845248	46	3865
2026-01-11 03:43:42.59	165.51	44.07	-37.7	-38.6	21.2	0.00e+00	0	43	0	3199205376	46	3857
2026-01-11 03:43:46.60	166.49	43.04	-38.1	-39.1	20.7	0.00e+00	0	43	0	3227516928	46	4061
2026-01-11 03:43:50.62	167.42	42.03	-37.9	-38.8	21.1	0.00e+00	0	43	0	3256877056	46	3938
2026-01-11 03:43:54.64	168.29	41.03	-37.7	-38.6	21.3	0.00e+00	0	43	0	3286237184	46	3828
2026-01-11 03:43:58.65	169.11	40.06	-37.7	-38.6	21.2	0.00e+00	0	43	0	3314548736	45	4056
2026-01-11 03:44:02.66	169.89	39.11	-37.5	-38.4	21.4	0.00e+00	0	43	0	3343908864	45	3978
2026-01-11 03:44:06.67	170.62	38.18	-37.6	-38.5	21.1	0.00e+00	0	43	0	3372220416	45	4048
2026-01-11 03:44:10.68	171.31	37.27	-37.9	-38.8	21.0	0.00e+00	0	43	0	3401580544	45	4170
2026-01-11 03:44:14.69	171.97	36.38	-37.7	-38.6	21.1	0.00e+00	0	43	0	3430940672	45	4094
2026-01-11 03:44:18.71	172.59	35.50	-37.2	-38.0	21.6	0.00e+00	0	43	0	3459252224	45	3812
2026-01-11 03:44:22.72	173.19	34.65	-37.4	-38.3	21.4	0.00e+00	0	43	0	3488612352	45	3937
2026-01-11 03:44:26.74	173.75	33.82	-37.5	-38.4	21.3	0.00e+00	0	43	0	3517972480	45	3973
2026-01-11 03:44:30.75	174.28	33.01	-37.6	-38.5	21.2	0.00e+00	0	43	0	3546284032	45	4020
2026-01-11 03:44:34.76	174.79	32.21	-37.3	-38.2	21.5	0.00e+00	0	43	0	3575644160	45	3903
2026-01-11 03:44:38.77	175.28	31.44	-37.3	-38.2	21.4	0.00e+00	0	43	0	3603955712	45	3901
2026-01-11 03:44:42.79	175.75	30.68	-37.5	-38.4	21.3	0.00e+00	0	44	0	3633315840	45	3980
2026-01-11 03:44:46.80	176.19	29.94	-37.5	-38.4	21.3	0.00e+00	0	43	0	3662675968	45	4004
2026-01-11 03:44:50.81	176.62	29.22	-37.6	-38.5	21.2	0.00e+00	0	44	0	3690987520	45	4009
2026-01-11 03:44:54.83	177.03	28.51	-37.6	-38.5	21.2	0.00e+00	0	43	0	3720347648	45	4025
2026-01-11 03:44:58.84	177.42	27.82	-37.9	-38.8	20.9	0.00e+00	0	43	0	3749707776	45	4177
2026-01-11 03:45:02.85	177.79	27.15	-38.2	-39.2	20.6	0.00e+00	0	43	0	3778019328	45	4341
2026-01-11 03:45:06.86	178.15	26.49	-38.4	-39.4	20.4	0.00e+00	0	43	0	3807379456	46	4196
2026-01-11 03:45:10.88	178.50	25.84	-38.4	-39.4	20.4	0.00e+00	0	43	0	3835691008	46	4207
2026-01-11 03:45:14.89	178.83	25.21	-38.2	-39.1	20.7	0.00e+00	0	43	0	3865051136	46	4078
2026-01-11 03:45:18.90	179.16	24.59	-38.0	-38.9	20.8	0.00e+00	0	44	0	3894411264	46	3971
2026-01-11 03:45:22.91	179.46	23.99	-37.8	-38.7	21.0	0.00e+00	0	44	0	3922722816	46	3896
2026-01-11 03:45:26.93	179.76	23.40	-37.9	-38.8	20.9	0.00e+00	0	44	0	3952082944	46	3948
2026-01-11 03:45:30.94	180.05	22.82	-37.9	-38.8	20.9	0.00e+00	0	43	0	3981443072	46	3945
2026-01-11 03:45:34.95	180.33	22.26	-38.1	-39.0	20.7	0.00e+00	0	44	0	4009754624	46	4050
2026-01-11 03:45:38.96	180.60	21.70	-38.5	-39.5	20.3	0.00e+00	0	44	0	4039114752	46	4253
2026-01-11 03:45:42.97	180.86	21.16	-38.7	-39.7	20.1	0.00e+00	0	44	0	4067426304	46	4350
2026-01-11 03:45:46.98	181.11	20.63	-38.7	-39.7	20.0	0.00e+00	0	44	0	4096786432	47	4141
2026-01-11 03:45:50.99	181.35	20.11	-38.6	-39.6	19.7	0.00e+00	0	44	0	4126146560	47	4094
2026-01-11 03:45:55.01	181.59	19.59	-38.6	-39.7	19.5	0.00e+00	0	44	0	4154458112	47	4119
2026-01-11 03:45:59.02	181.82	19.09	-38.7	-39.7	19.5	0.00e+00	0	43	0	4183818240	47	4114
2026-01-11 03:46:03.04	182.04	18.60	-38.6	-39.7	20.0	0.00e+00	0	43	0	4213178368	47	4100
2026-01-11 03:46:07.05	182.26	18.12	-38.8	-39.8	20.0	0.00e+00	0	43	0	4241489920	47	4174
2026-01-11 03:46:11.07	182.47	17.64	-39.0	-40.0	19.8	0.00e+00	0	44	0	4270850048	47	4261
2026-01-11 03:46:15.08	182.67	17.18	-39.1	-40.1	19.7	0.00e+00	0	44	0	4299161600	47	4309
2026-01-11 03:46:19.09	182.87	16.72	-39.4	-40.4	19.7	0.00e+00	0	43	0	4328521728	48	4207
2026-01-11 03:46:23.10	183.06	16.28	-39.5	-40.5	19.5	0.00e+00	0	43	0	4357881856	48	4279
2026-01-11 03:46:27.11	183.24	15.84	-39.6	-40.6	19.4	0.00e+00	0	43	0	4386193408	48	4317
2026-01-11 03:46:31.12	183.42	15.40	-39.5	-40.6	19.4	0.00e+00	0	44	0	4415553536	48	4306
2026-01-11 03:46:35.13	183.60	14.98	-39.7	-40.8	19.3	0.00e+00	0	44	0	4444913664	48	4404
2026-01-11 03:46:39.15	183.77	14.56	-39.8	-40.9	19.2	0.00e+00	0	43	0	4473225216	49	4199
2026-01-11 03:46:43.16	183.94	14.15	-39.8	-40.8	19.2	0.00e+00	0	43	0	4502585344	49	4190
2026-01-11 03:46:47.18	184.11	13.74	-40.0	-41.1	19.0	0.00e+00	0	43	0	4530896896	49	4299
2026-01-11 03:46:51.19	184.26	13.34	-40.1	-41.2	18.8	0.00e+00	0	43	0	4560257024	49	4361
2026-01-11 03:46:55.20	184.42	12.95	-40.2	-41.3	18.7	0.00e+00	0	43	0	4589617152	49	4432
2026-01-11 03:46:59.21	184.57	12.57	-40.3	-41.4	18.5	0.00e+00	0	44	0	4617928704	50	4230
2026-01-11 03:47:03.23	184.72	12.18	-40.5	-41.6	18.4	0.00e+00	0	43	0	4647288832	50	4334
2026-01-11 03:47:07.24	184.87	11.81	-40.5	-41.6	18.3	0.00e+00	0	44	0	4676648960	50	4331
2026-01-11 03:47:11.25	185.01	11.44	-40.6	-41.8	18.2	0.00e+00	0	43	0	4704960512	50	4423
2026-01-11 03:47:15.26	185.14	11.08	-40.7	-41.9	18.1	0.00e+00	0	43	0	4734320640	51	4203
2026-01-11 03:47:19.28	185.28	10.72	-40.9	-42.1	17.8	0.00e+00	0	44	0	4762632192	51	4319
2026-01-11 03:47:23.28	185.41	10.37	-41.0	-42.2	17.7	0.00e+00	0	44	0	4791992320	51	4379
2026-01-11 03:47:27.29	185.54	10.02	-40.9	-42.1	17.8	0.00e+00	0	43	0	4821352448	51	4335
2026-01-11 03:47:31.30	185.67	9.68	-41.0	-42.3	17.6	0.00e+00	0	43	0	4849664000	51	4399
2026-01-11 03:47:35.32	185.79	9.34	-41.2	-42.5	17.4	0.00e+00	0	44	0	4879024128	51	4495
2026-01-11 03:47:39.33	185.91	9.00	-41.1	-42.4	17.4	0.00e+00	0	44	0	4908384256	52	4195
2026-01-11 03:47:43.35	186.03	8.67	-50.6	-61.7	3.8	8.46e-01	0	43	104	4912578560	70	13876
2026-01-11 03:47:47.37	186.15	8.34	-51.1	-61.8	3.8	8.47e-01	0	43	104	4912578560	71	13231
2026-01-11 03:47:51.38	186.26	8.02	-51.1	-61.9	3.8	8.47e-01	0	44	104	4912578560	71	13300
2026-01-11 03:47:55.40	186.38	7.70	-51.2	-61.8	3.8	8.46e-01	0	44	104	4912578560	71	13206
2026-01-11 03:47:59.42	186.49	7.39	-51.1	-61.8	3.8	8.48e-01	0	44	104	4912578560	71	13260
2026-01-11 03:48:03.44	186.59	7.08	-51.2	-61.9	3.8	8.47e-01	0	44	104	4912578560	71	13385
2026-01-11 03:48:07.45	186.70	6.77	-51.0	-61.8	3.8	8.46e-01	0	43	104	4912578560	71	13180
2026-01-11 03:48:11.47	186.80	6.47	-50.9	-61.8	3.8	8.46e-01	0	44	104	4912578560	71	13167
2026-01-11 03:48:15.48	186.90	6.17	-50.9	-61.8	3.8	8.46e-01	0	44	104	4912578560	71	13161
2026-01-11 03:48:19.50	187.00	5.87	-50.9	-61.8	3.8	8.47e-01	0	44	104	4912578560	71	13118
2026-01-11 03:48:23.52	187.10	5.58	-50.9	-61.8	3.8	8.47e-01	0	44	104	4912578560	71	13153
2026-01-11 03:48:27.54	187.20	5.29	-50.9	-61.7	3.8	8.46e-01	0	44	104	4912578560	71	13092
2026-01-11 03:48:31.56	187.29	5.00	-50.9	-61.7	3.8	8.45e-01	0	44	104	4912578560	71	13053

#Closed at: 2026-01-11 03:48:33
#Recorded file [4912 MB]: D:/Data/31040_260111_063540.dat