passes_logs/2026/01/11/T1/T1__20260111_231151_NOAA_20_JPSS-1_rec.log

#Pass ID: 20260111_231151_NOAA 20 (JPSS-1)
#Satellite: NOAA 20 (JPSS-1)
#Configuration: NOAA 20
#almurnet v.1.7.20251203
#Start time: 2026-01-11 23:11:52

#Version: 2.0.20230620
#Station: T1
#Location: 37.570604 lon 55.790049 lat
#TLE: 1 43013U 17073A   26011.31235446  .00000090  00000+0  63634-4 0  9991
#TLE: 2 43013  98.7632 312.2907 0001646  44.6084 315.5224 14.19535308422217

#Time	Az	El	Level	Level2	SNR	BER	BlckErr	Temp	State	Recorded	gain1	gain2
2026-01-11 23:11:52.82	19.89	5.09	-47.4	-65.3	3.8	1.49e+00	0	36	0	0	66	28027
2026-01-11 23:11:55.80	19.98	5.30	-47.4	-65.1	3.8	1.49e+00	0	36	104	0	65	29079
2026-01-11 23:11:58.78	20.07	5.51	-47.4	-65.0	3.8	1.49e+00	0	37	104	0	65	28795
2026-01-11 23:12:01.76	20.17	5.73	-47.4	-64.8	3.8	1.49e+00	0	37	104	0	65	28246
2026-01-11 23:12:04.74	20.27	5.94	-47.4	-64.8	3.8	1.49e+00	0	37	104	0	65	28117
2026-01-11 23:12:07.72	20.36	6.15	-47.3	-64.9	3.8	1.49e+00	0	37	104	0	65	28556
2026-01-11 23:12:10.70	20.46	6.37	-47.3	-65.1	3.8	1.49e+00	0	37	104	0	65	29148
2026-01-11 23:12:13.68	20.56	6.59	-47.3	-65.0	3.8	1.49e+00	0	37	104	0	65	28992
2026-01-11 23:12:16.66	20.66	6.81	-47.4	-64.6	3.8	1.49e+00	0	37	104	0	65	27504
2026-01-11 23:12:19.64	20.77	7.03	-47.3	-64.3	3.8	1.49e+00	0	37	104	0	65	26484
2026-01-11 23:12:22.62	20.87	7.26	-47.4	-64.1	3.8	1.49e+00	0	38	104	0	65	25879
2026-01-11 23:12:25.60	20.98	7.49	-47.3	-63.3	3.8	1.49e+00	0	38	104	0	65	23849
2026-01-11 23:12:28.58	21.08	7.71	-47.3	-61.8	4.2	1.44e+00	0	38	0	0	65	19848
2026-01-11 23:12:31.56	21.19	7.95	-47.2	-60.9	4.4	1.29e+00	0	38	0	2097152	65	18027
2026-01-11 23:12:34.54	21.30	8.18	-47.2	-60.9	4.4	1.24e+00	0	38	0	7340032	65	17974
2026-01-11 23:12:37.52	21.41	8.41	-47.2	-61.0	4.4	1.31e+00	0	38	0	11534336	65	18129
2026-01-11 23:12:40.50	21.53	8.65	-47.2	-60.6	4.5	1.00e+00	0	38	0	16777216	65	17332
2026-01-11 23:12:43.48	21.64	8.89	-47.2	-61.1	4.4	1.12e+00	0	38	0	23068672	65	18342
2026-01-11 23:12:46.47	21.76	9.13	-47.7	-65.0	3.8	1.48e+00	0	38	104	23068672	65	29004
2026-01-11 23:12:49.45	21.88	9.37	-46.2	-52.9	11.0	6.79e-03	0	38	0	25165824	64	7623
2026-01-11 23:12:52.43	22.00	9.62	-46.2	-52.4	11.6	1.29e-03	0	38	0	31457280	64	7127
2026-01-11 23:12:55.42	22.12	9.87	-46.4	-52.0	12.0	2.20e-04	0	38	0	36700160	64	6831
2026-01-11 23:12:58.48	22.25	10.13	-46.4	-51.4	12.6	1.39e-04	0	38	0	41943040	64	6399
2026-01-11 23:13:01.39	22.37	10.37	-46.4	-51.0	13.1	7.40e-05	0	38	0	48234496	64	6072
2026-01-11 23:13:04.52	22.50	10.64	-46.1	-50.1	14.0	1.06e-05	0	38	0	53477376	64	5470
2026-01-11 23:13:07.36	22.63	10.89	-46.0	-49.8	14.4	7.00e-07	0	38	0	58720256	63	5601
2026-01-11 23:13:10.49	22.76	11.16	-45.8	-49.4	14.8	7.00e-07	0	38	0	65011712	63	5364
2026-01-11 23:13:13.33	22.89	11.42	-45.8	-49.3	14.9	0.00e+00	0	38	0	70254592	63	5330
2026-01-11 23:13:16.81	23.05	11.73	-45.8	-49.3	14.9	0.00e+00	0	38	0	76546048	63	5289
2026-01-11 23:13:19.53	23.18	11.97	-45.8	-49.3	15.0	0.00e+00	0	38	0	81788928	63	5281
2026-01-11 23:13:22.80	23.33	12.27	-45.7	-49.1	15.1	0.00e+00	0	38	0	88080384	63	5193
2026-01-11 23:13:25.54	23.46	12.53	-45.6	-49.0	15.3	0.00e+00	0	38	0	93323264	63	5121
2026-01-11 23:13:28.82	23.62	12.83	-45.5	-48.8	15.4	0.00e+00	0	38	0	99614720	63	5039
2026-01-11 23:13:31.84	23.77	13.12	-45.4	-48.8	15.5	0.00e+00	0	39	0	104857600	62	5321
2026-01-11 23:13:35.11	23.94	13.43	-45.5	-48.9	15.4	0.00e+00	0	38	0	111149056	62	5356
2026-01-11 23:13:37.85	24.08	13.70	-45.3	-48.7	15.6	0.00e+00	0	39	0	116391936	62	5255
2026-01-11 23:13:41.14	24.26	14.02	-45.3	-48.7	15.7	0.00e+00	0	38	0	122683392	62	5224
2026-01-11 23:13:43.85	24.40	14.29	-45.1	-48.4	15.9	0.00e+00	0	39	0	127926272	62	5068
2026-01-11 23:13:47.14	24.58	14.62	-45.1	-48.3	16.0	0.00e+00	0	38	0	133169152	62	5028
2026-01-11 23:13:49.92	24.74	14.90	-45.1	-48.2	16.0	0.00e+00	0	39	0	138412032	62	4980
2026-01-11 23:13:53.19	24.92	15.23	-45.2	-48.3	16.1	0.00e+00	0	38	0	144703488	62	5001
2026-01-11 23:13:55.91	25.08	15.52	-45.1	-48.2	16.1	0.00e+00	0	39	0	149946368	62	4941
2026-01-11 23:13:59.19	25.27	15.86	-45.1	-48.1	16.2	0.00e+00	0	39	0	156237824	62	4902
2026-01-11 23:14:02.21	25.45	16.18	-44.9	-48.0	16.3	0.00e+00	0	39	0	161480704	61	5109
2026-01-11 23:14:05.48	25.66	16.54	-44.7	-47.7	16.6	0.00e+00	0	38	0	167772160	61	4974
2026-01-11 23:14:08.39	25.84	16.85	-44.7	-47.8	16.5	0.00e+00	0	39	0	173015040	61	5028
2026-01-11 23:14:12.17	26.08	17.27	-44.6	-47.7	16.6	0.00e+00	0	39	0	180355072	61	4974
2026-01-11 23:14:14.89	26.26	17.58	-44.6	-47.7	16.6	0.00e+00	0	38	0	185597952	61	4939
2026-01-11 23:14:18.40	26.49	17.98	-44.4	-47.5	16.9	0.00e+00	0	39	0	191889408	60	5123
2026-01-11 23:14:21.10	26.68	18.29	-44.4	-47.5	16.9	0.00e+00	0	39	0	197132288	60	5113
2026-01-11 23:14:24.39	26.91	18.68	-44.3	-47.2	17.1	0.00e+00	0	39	0	203423744	60	4982
2026-01-11 23:14:27.11	27.11	19.00	-44.4	-47.3	17.0	0.00e+00	0	39	0	208666624	60	4996
2026-01-11 23:14:30.39	27.35	19.39	-44.4	-47.1	17.2	0.00e+00	0	39	0	214958080	60	4923
2026-01-11 23:14:33.11	27.55	19.73	-44.3	-47.1	17.3	0.00e+00	0	39	0	220200960	60	4873
2026-01-11 23:14:36.39	27.80	20.13	-44.3	-47.0	17.3	0.00e+00	0	39	0	225443840	60	4854
2026-01-11 23:14:39.13	28.02	20.47	-44.2	-46.9	17.4	0.00e+00	0	39	0	230686720	60	4789
2026-01-11 23:14:43.03	28.33	20.97	-44.2	-46.9	17.3	0.00e+00	0	39	0	238026752	60	4760
2026-01-11 23:14:45.87	28.57	21.34	-44.1	-46.8	17.5	0.00e+00	0	39	0	243269632	60	4725
2026-01-11 23:14:49.85	28.90	21.86	-44.0	-46.6	17.7	0.00e+00	0	39	0	251658240	60	4632
2026-01-11 23:14:52.69	29.15	22.24	-44.1	-46.7	17.6	0.00e+00	0	39	0	256901120	59	4932
2026-01-11 23:14:56.50	29.49	22.76	-44.0	-46.5	17.8	0.00e+00	0	39	0	263192576	59	4850
2026-01-11 23:14:59.50	29.77	23.17	-43.9	-46.4	17.9	0.00e+00	0	39	0	269484032	59	4773
2026-01-11 23:15:02.48	30.05	23.59	-43.9	-46.4	17.9	0.00e+00	0	39	0	274726912	59	4797
2026-01-11 23:15:05.47	30.34	24.02	-44.0	-46.5	17.8	0.00e+00	0	39	0	279969792	59	4846
2026-01-11 23:15:08.45	30.64	24.45	-44.1	-46.7	17.7	0.00e+00	0	39	0	286261248	59	4947
2026-01-11 23:15:11.43	30.95	24.88	-44.0	-46.7	17.6	0.00e+00	0	39	0	291504128	59	4962
2026-01-11 23:15:14.46	31.27	25.33	-44.2	-47.0	17.4	0.00e+00	0	39	0	297795584	59	5136
2026-01-11 23:15:17.54	31.60	25.80	-44.3	-47.1	17.3	0.00e+00	0	39	0	303038464	59	5175
2026-01-11 23:15:20.48	31.93	26.25	-44.5	-47.2	17.1	0.00e+00	0	39	0	308281344	59	5266
2026-01-11 23:15:23.46	32.27	26.71	-44.8	-47.6	16.8	0.00e+00	0	39	0	314572800	60	5191
2026-01-11 23:15:26.44	32.62	27.18	-45.0	-48.0	16.5	0.00e+00	0	39	0	319815680	60	5420
2026-01-11 23:15:29.43	32.98	27.66	-45.3	-48.4	16.1	0.00e+00	0	39	0	325058560	61	5363
2026-01-11 23:15:32.41	33.35	28.15	-45.6	-48.7	15.8	0.00e+00	0	39	0	331350016	61	5582
2026-01-11 23:15:35.33	33.73	28.63	-45.8	-49.0	15.5	0.00e+00	0	39	0	336592896	62	5462
2026-01-11 23:15:38.68	34.17	29.19	-46.0	-49.4	15.1	0.00e+00	0	39	0	342884352	62	5675
2026-01-11 23:15:41.40	34.54	29.65	-46.3	-49.7	14.9	7.00e-07	0	39	0	348127232	63	5530
2026-01-11 23:15:44.68	35.00	30.22	-46.6	-50.2	14.3	7.00e-07	0	39	0	354418688	63	5894
2026-01-11 23:15:47.37	35.39	30.69	-47.0	-51.0	13.4	5.30e-06	0	39	0	358612992	64	6090
2026-01-11 23:15:50.74	35.90	31.30	-47.1	-51.2	13.2	2.59e-05	0	39	0	364904448	65	5908
2026-01-11 23:15:53.47	36.32	31.79	-46.8	-50.7	13.7	9.10e-06	0	39	0	370147328	65	5541
2026-01-11 23:15:56.75	36.85	32.39	-46.7	-50.4	14.1	7.00e-07	0	39	0	376438784	65	5369
2026-01-11 23:15:59.47	37.30	32.90	-46.7	-50.4	14.0	3.00e-06	0	39	0	381681664	65	5395
2026-01-11 23:16:02.70	37.86	33.51	-46.6	-50.3	14.2	3.80e-06	0	39	0	387973120	65	5301
2026-01-11 23:16:05.82	38.41	34.11	-46.4	-49.9	14.6	0.00e+00	0	39	0	393216000	64	5371
2026-01-11 23:16:08.65	38.93	34.66	-46.4	-49.9	14.6	0.00e+00	0	39	0	398458880	64	5378
2026-01-11 23:16:11.78	39.53	35.28	-46.2	-49.5	14.9	0.00e+00	0	39	0	404750336	64	5142
2026-01-11 23:16:14.62	40.09	35.85	-45.9	-49.1	15.4	0.00e+00	0	39	0	409993216	63	5206
2026-01-11 23:16:17.75	40.73	36.49	-45.8	-49.0	15.5	0.00e+00	0	39	0	416284672	63	5146
2026-01-11 23:16:20.59	41.34	37.07	-45.6	-48.7	15.9	0.00e+00	0	39	0	421527552	63	4943
2026-01-11 23:16:23.72	42.03	37.72	-45.4	-48.4	16.2	0.00e+00	0	39	0	426770432	62	5061
2026-01-11 23:16:26.56	42.68	38.32	-45.2	-48.1	16.4	0.00e+00	0	39	0	432013312	62	4903
2026-01-11 23:16:29.69	43.42	38.99	-45.6	-48.6	15.9	0.00e+00	0	39	0	438304768	62	5203
2026-01-11 23:16:32.62	44.15	39.62	-45.6	-48.7	15.8	0.00e+00	0	39	0	443547648	62	5247
2026-01-11 23:16:35.97	45.01	40.35	-45.4	-48.3	16.2	0.00e+00	0	39	0	449839104	62	5011
2026-01-11 23:16:38.67	45.74	40.94	-45.2	-48.0	16.5	0.00e+00	0	39	0	455081984	62	4865
2026-01-11 23:16:41.94	46.65	41.67	-45.2	-48.0	16.5	0.00e+00	0	39	0	461373440	62	4856
2026-01-11 23:16:44.65	47.44	42.27	-45.6	-48.7	15.9	0.00e+00	0	39	0	466616320	62	5241
2026-01-11 23:16:47.92	48.43	43.01	-45.8	-48.9	15.8	0.00e+00	0	39	0	472907776	62	5363
2026-01-11 23:16:50.63	49.29	43.62	-46.0	-49.3	15.3	0.00e+00	0	39	0	478150656	62	5594
2026-01-11 23:16:54.03	50.41	44.40	-46.5	-50.1	14.5	0.00e+00	0	39	0	484442112	64	5486
2026-01-11 23:16:56.73	51.34	45.01	-46.3	-49.7	14.9	0.00e+00	0	39	0	488636416	64	5241
2026-01-11 23:16:59.99	52.51	45.76	-47.3	-51.4	13.1	7.60e-06	0	39	0	494927872	65	6024
2026-01-11 23:17:02.71	53.53	46.38	-47.2	-51.2	13.4	3.81e-05	0	39	0	500170752	65	5878
2026-01-11 23:17:05.99	54.82	47.14	-47.7	-52.1	12.4	9.00e-05	0	39	0	506462208	65	6517
2026-01-11 23:17:08.73	55.94	47.76	-48.5	-53.8	10.6	2.64e-03	0	39	0	511705088	67	7098
2026-01-11 23:17:12.03	57.35	48.51	-47.7	-52.1	12.4	2.07e-04	0	39	0	517996544	67	5855
2026-01-11 23:17:14.83	58.61	49.14	-47.8	-52.3	12.2	1.43e-04	0	39	0	523239424	67	5974
2026-01-11 23:17:18.36	60.26	49.93	-47.2	-51.2	13.3	4.11e-05	0	39	0	529530880	66	5545
2026-01-11 23:17:21.18	61.64	50.54	-46.4	-49.9	14.7	0.00e+00	0	39	0	534773760	64	5353
2026-01-11 23:17:24.31	63.24	51.22	-46.0	-49.3	15.3	0.00e+00	0	39	0	541065216	64	4988
2026-01-11 23:17:27.15	64.76	51.82	-45.1	-47.9	16.7	0.00e+00	0	39	0	546308096	62	4790
2026-01-11 23:17:30.38	66.56	52.49	-45.2	-48.1	16.5	0.00e+00	0	39	0	552599552	61	5164
2026-01-11 23:17:33.22	68.21	53.05	-44.6	-47.3	17.2	0.00e+00	0	39	0	557842432	61	4742
2026-01-11 23:17:36.35	70.10	53.66	-45.2	-48.1	16.5	0.00e+00	0	39	0	563085312	61	5212
2026-01-11 23:17:39.19	71.88	54.19	-45.3	-48.3	16.3	0.00e+00	0	39	0	568328192	61	5297
2026-01-11 23:17:42.32	73.92	54.74	-45.0	-47.8	16.8	0.00e+00	0	39	0	574619648	61	4999
2026-01-11 23:17:45.16	75.84	55.22	-45.3	-48.2	16.4	0.00e+00	0	39	0	579862528	61	5258
2026-01-11 23:17:48.29	78.03	55.71	-45.0	-47.8	16.8	0.00e+00	0	39	0	586153984	61	5006
2026-01-11 23:17:51.24	80.16	56.14	-45.2	-48.1	16.4	0.00e+00	0	39	0	591396864	61	5169
2026-01-11 23:17:54.37	82.49	56.55	-45.6	-48.7	15.9	7.00e-07	0	39	0	597688320	61	5566
2026-01-11 23:17:57.27	84.71	56.90	-45.6	-48.8	15.8	0.00e+00	0	39	0	602931200	62	5317
2026-01-11 23:18:00.54	87.28	57.24	-46.7	-50.5	14.0	0.00e+00	0	39	0	609222656	64	5786
2026-01-11 23:18:03.26	89.46	57.48	-48.2	-53.4	11.0	1.35e-03	0	39	0	613416960	67	6772
2026-01-11 23:18:06.52	92.12	57.73	-47.1	-51.1	13.4	3.66e-05	0	39	0	619708416	66	5500
2026-01-11 23:18:09.25	94.38	57.88	-47.8	-52.4	12.1	1.88e-04	0	39	0	624951296	66	6394
2026-01-11 23:18:12.52	97.12	58.02	-47.4	-51.8	12.8	1.90e-05	0	39	0	631242752	66	5949
2026-01-11 23:18:15.22	99.40	58.08	-47.0	-50.9	13.6	1.52e-05	0	39	0	636485632	66	5364
2026-01-11 23:18:18.52	102.20	58.11	-46.8	-50.5	14.0	6.10e-06	0	39	0	642777088	65	5427
2026-01-11 23:18:21.23	104.49	58.08	-45.4	-48.4	16.3	0.00e+00	0	39	0	648019968	62	5050
2026-01-11 23:18:24.51	107.26	57.99	-46.7	-50.4	14.2	2.20e-06	0	39	0	653262848	64	5684
2026-01-11 23:18:27.24	109.54	57.86	-47.3	-51.6	13.0	2.05e-05	0	39	0	658505728	65	6167
2026-01-11 23:18:30.52	112.25	57.66	-48.0	-52.9	11.6	2.29e-04	0	39	0	664797184	66	6743
2026-01-11 23:18:33.39	114.59	57.44	-48.4	-53.5	11.1	4.65e-03	0	39	0	670040064	68	6443
2026-01-11 23:18:36.67	117.20	57.13	-48.6	-54.2	10.2	2.24e-03	0	39	0	676331520	67	7401
2026-01-11 23:18:39.39	119.33	56.83	-47.6	-51.9	12.7	9.46e-05	0	39	0	681574400	67	5672
2026-01-11 23:18:42.68	121.83	56.43	-46.3	-49.7	14.8	0.00e+00	0	39	0	687865856	64	5275
2026-01-11 23:18:45.49	123.91	56.05	-45.7	-48.8	15.9	0.00e+00	0	39	0	693108736	63	4988
2026-01-11 23:18:49.00	126.43	55.52	-44.1	-46.6	17.9	0.00e+00	0	39	0	699400192	60	4621
2026-01-11 23:18:51.71	128.30	55.08	-43.2	-45.6	18.8	0.00e+00	0	39	0	704643072	58	4613
2026-01-11 23:18:55.02	130.52	54.52	-43.2	-45.6	18.8	0.00e+00	0	39	0	710934528	58	4603
2026-01-11 23:18:57.74	132.27	54.03	-43.3	-45.6	18.8	0.00e+00	0	39	0	716177408	58	4625
2026-01-11 23:19:01.05	134.33	53.40	-43.6	-46.0	18.4	0.00e+00	0	39	0	722468864	59	4573
2026-01-11 23:19:03.81	135.97	52.86	-44.8	-47.5	17.0	0.00e+00	0	39	0	727711744	60	5139
2026-01-11 23:19:07.36	138.00	52.14	-44.6	-47.2	17.4	0.00e+00	0	39	0	734003200	60	4958
2026-01-11 23:19:10.32	139.62	51.52	-45.9	-49.1	15.5	0.00e+00	0	39	0	739246080	62	5518
2026-01-11 23:19:13.31	141.18	50.87	-45.4	-48.3	16.3	0.00e+00	0	39	0	745537536	62	5017
2026-01-11 23:19:16.29	142.68	50.22	-46.4	-49.8	14.8	0.00e+00	0	39	0	750780416	63	5644
2026-01-11 23:19:19.27	144.11	49.56	-46.0	-49.2	15.4	0.00e+00	0	39	0	756023296	63	5273
2026-01-11 23:19:22.24	145.48	48.89	-47.6	-52.1	12.4	2.81e-04	0	39	0	762314752	66	6159
2026-01-11 23:19:25.36	146.85	48.19	-46.9	-50.7	13.9	1.50e-06	0	39	0	767557632	64	5899
2026-01-11 23:19:28.71	148.26	47.42	-48.0	-52.6	11.9	4.70e-04	0	39	0	773849088	66	6568
2026-01-11 23:19:31.55	149.40	46.77	-47.2	-51.3	13.2	4.50e-05	0	39	0	779091968	66	5616
2026-01-11 23:19:34.68	150.61	46.05	-48.1	-52.9	11.5	1.05e-03	0	39	0	785383424	67	6388
2026-01-11 23:19:37.58	151.68	45.38	-46.7	-50.3	14.2	2.20e-06	0	39	0	790626304	65	5305
2026-01-11 23:19:40.96	152.87	44.61	-46.9	-50.6	13.8	3.80e-06	0	39	0	796917760	65	5513
2026-01-11 23:19:43.68	153.79	43.98	-47.4	-51.7	12.7	1.42e-04	0	39	0	802160640	65	6252
2026-01-11 23:19:46.96	154.85	43.23	-46.2	-49.6	15.0	0.00e+00	0	39	0	808452096	63	5505
2026-01-11 23:19:49.69	155.69	42.61	-46.3	-49.8	14.6	1.50e-06	0	39	0	813694976	64	5336
2026-01-11 23:19:52.99	156.67	41.87	-45.9	-49.1	15.5	0.00e+00	0	39	0	819986432	62	5504
2026-01-11 23:19:55.72	157.45	41.26	-46.5	-50.1	14.4	7.00e-07	0	39	0	825229312	64	5477
2026-01-11 23:19:58.99	158.35	40.53	-46.6	-50.3	14.2	2.20e-06	0	39	0	830472192	64	5599
2026-01-11 23:20:01.73	159.07	39.93	-45.7	-48.8	15.7	0.00e+00	0	39	0	835715072	63	5013
2026-01-11 23:20:05.24	159.96	39.17	-47.1	-51.1	13.3	8.30e-06	0	39	0	843055104	64	6189
2026-01-11 23:20:08.20	160.67	38.53	-45.8	-48.9	15.6	0.00e+00	0	39	0	848297984	63	5083
2026-01-11 23:20:11.19	161.37	37.89	-45.0	-47.9	16.7	0.00e+00	0	39	0	853540864	62	4761
2026-01-11 23:20:14.48	162.10	37.20	-46.3	-49.8	14.8	0.00e+00	0	39	0	859832320	63	5605
2026-01-11 23:20:17.18	162.69	36.64	-46.1	-49.6	14.8	7.00e-07	0	39	0	865075200	64	5211
2026-01-11 23:20:20.45	163.37	35.97	-44.9	-47.7	16.7	0.00e+00	0	39	0	871366656	61	4978
2026-01-11 23:20:23.17	163.91	35.42	-46.1	-49.4	15.1	0.00e+00	0	39	0	876609536	62	5706
2026-01-11 23:20:26.44	164.54	34.77	-46.7	-50.4	14.0	3.00e-06	0	39	0	881852416	64	5717
2026-01-11 23:20:29.13	165.04	34.24	-45.9	-49.3	15.3	7.00e-07	0	39	0	887095296	63	5284
2026-01-11 23:20:32.40	165.63	33.61	-45.7	-48.9	15.7	0.00e+00	0	39	0	893386752	62	5342
2026-01-11 23:20:35.30	166.13	33.05	-46.3	-49.8	14.7	1.50e-06	0	39	0	898629632	63	5620
2026-01-11 23:20:39.51	166.84	32.26	-46.3	-49.8	14.7	7.00e-07	0	39	0	907018240	63	5643
2026-01-11 23:20:42.36	167.29	31.73	-46.5	-50.1	14.5	0.00e+00	0	39	0	912261120	63	5806
2026-01-11 23:20:46.51	167.93	30.98	-46.6	-50.4	14.1	0.00e+00	0	39	0	919601152	64	5659
2026-01-11 23:20:49.48	168.37	30.45	-46.1	-49.7	14.7	7.00e-07	0	39	0	925892608	64	5227
2026-01-11 23:20:52.88	168.86	29.85	-46.3	-49.9	14.5	0.00e+00	0	39	0	932184064	64	5367
2026-01-11 23:20:55.62	169.24	29.38	-46.9	-50.8	13.6	3.00e-06	0	39	0	937426944	64	5944
2026-01-11 23:20:58.90	169.69	28.82	-46.9	-50.9	13.5	6.80e-06	0	39	0	942669824	64	6013
2026-01-11 23:21:01.64	170.04	28.36	-46.4	-50.0	14.4	0.00e+00	0	39	0	947912704	64	5436
2026-01-11 23:21:05.20	170.49	27.77	-46.2	-49.7	14.7	0.00e+00	0	39	0	955252736	64	5238
2026-01-11 23:21:07.90	170.82	27.34	-46.2	-49.6	14.8	0.00e+00	0	39	0	960495616	64	5197
2026-01-11 23:21:11.17	171.21	26.81	-46.0	-49.3	15.2	0.00e+00	0	39	0	965738496	63	5321
2026-01-11 23:21:13.90	171.53	26.38	-45.8	-49.1	15.4	0.00e+00	0	39	0	970981376	63	5160
2026-01-11 23:21:17.17	171.90	25.87	-45.6	-48.8	15.7	0.00e+00	0	39	0	977272832	63	5004
2026-01-11 23:21:20.10	172.22	25.43	-45.4	-48.5	16.0	0.00e+00	0	39	0	982515712	62	5123
2026-01-11 23:21:23.16	172.54	24.97	-45.2	-48.3	16.2	0.00e+00	0	39	0	988807168	62	5002
2026-01-11 23:21:26.90	172.93	24.41	-45.1	-48.1	16.3	0.00e+00	0	40	0	996147200	62	4908
2026-01-11 23:21:29.61	173.20	24.02	-45.4	-48.6	15.9	0.00e+00	0	39	0	1000341504	62	5162
2026-01-11 23:21:33.02	173.53	23.53	-45.6	-48.9	15.5	0.00e+00	0	39	0	1007681536	62	5386
2026-01-11 23:21:35.72	173.79	23.15	-45.5	-48.7	15.8	0.00e+00	0	39	0	1011875840	62	5245
2026-01-11 23:21:39.01	174.09	22.69	-44.9	-47.8	16.5	0.00e+00	0	39	0	1018167296	61	5040
2026-01-11 23:21:41.71	174.34	22.32	-44.7	-47.6	16.8	0.00e+00	0	39	0	1023410176	61	4879
2026-01-11 23:21:45.00	174.62	21.88	-44.2	-47.0	17.4	0.00e+00	0	39	0	1029701632	60	4834
2026-01-11 23:21:47.72	174.86	21.51	-44.3	-47.0	17.3	0.00e+00	0	39	0	1034944512	60	4864
2026-01-11 23:21:51.03	175.13	21.08	-44.5	-47.3	17.1	0.00e+00	0	39	0	1041235968	60	4993
2026-01-11 23:21:53.81	175.36	20.72	-44.5	-47.4	17.0	0.00e+00	0	39	0	1046478848	60	5050
2026-01-11 23:21:57.44	175.65	20.26	-44.7	-47.6	16.7	0.00e+00	0	39	0	1052770304	60	5199
2026-01-11 23:22:00.17	175.86	19.91	-44.7	-47.6	16.8	0.00e+00	0	39	0	1058013184	60	5190
2026-01-11 23:22:03.46	176.11	19.51	-44.6	-47.4	16.9	0.00e+00	0	39	0	1064304640	60	5100
2026-01-11 23:22:06.17	176.31	19.18	-44.5	-47.3	17.0	0.00e+00	0	40	0	1069547520	60	4999
2026-01-11 23:22:09.46	176.55	18.78	-44.3	-47.1	17.2	0.00e+00	0	39	0	1075838976	60	4872
2026-01-11 23:22:12.18	176.74	18.46	-44.4	-47.1	16.9	0.00e+00	0	39	0	1081081856	60	4888
2026-01-11 23:22:15.78	176.99	18.03	-44.5	-47.3	17.1	0.00e+00	0	39	0	1087373312	60	5005
2026-01-11 23:22:18.62	177.18	17.71	-44.6	-47.4	16.9	0.00e+00	0	39	0	1092616192	60	5089
2026-01-11 23:22:22.60	177.44	17.25	-44.8	-47.7	16.6	0.00e+00	0	39	0	1099956224	60	5264
2026-01-11 23:22:25.33	177.62	16.95	-44.9	-47.9	16.4	0.00e+00	0	39	0	1105199104	60	5376
2026-01-11 23:22:28.55	177.82	16.59	-44.9	-47.9	16.4	0.00e+00	0	39	0	1111490560	60	5382
2026-01-11 23:22:31.54	178.01	16.26	-44.9	-47.9	16.4	0.00e+00	0	39	0	1116733440	60	5394
2026-01-11 23:22:34.52	178.19	15.94	-44.9	-47.9	16.4	0.00e+00	0	39	0	1121976320	60	5400
2026-01-11 23:22:37.50	178.36	15.62	-44.8	-47.9	16.4	0.00e+00	0	40	0	1128267776	60	5390
2026-01-11 23:22:40.49	178.54	15.31	-45.0	-48.1	16.2	0.00e+00	0	39	0	1133510656	60	5515
2026-01-11 23:22:43.48	178.71	15.00	-45.0	-48.2	16.0	0.00e+00	0	40	0	1139802112	60	5588
2026-01-11 23:22:46.46	178.87	14.69	-45.1	-48.3	16.0	0.00e+00	0	39	0	1145044992	60	5649
2026-01-11 23:22:49.44	179.04	14.39	-45.2	-48.5	15.8	0.00e+00	0	39	0	1150287872	61	5442
2026-01-11 23:22:52.43	179.20	14.09	-45.3	-48.7	15.5	0.00e+00	0	39	0	1156579328	61	5573
2026-01-11 23:22:55.45	179.36	13.79	-45.3	-48.8	15.4	0.00e+00	0	39	0	1161822208	61	5635
2026-01-11 23:22:58.43	179.51	13.49	-45.4	-48.9	15.3	0.00e+00	0	39	0	1167065088	61	5720
2026-01-11 23:23:01.42	179.66	13.20	-45.5	-49.1	15.2	4.62e-04	0	39	0	1173356544	61	5825
2026-01-11 23:23:04.40	179.81	12.92	-45.6	-49.2	15.0	5.46e-04	0	39	0	1178599424	61	5899
2026-01-11 23:23:07.38	179.96	12.64	-45.6	-49.3	14.9	7.50e-04	0	39	0	1183842304	61	5948
2026-01-11 23:23:10.37	180.10	12.35	-45.5	-49.2	15.0	0.00e+00	0	39	0	1190133760	61	5919
2026-01-11 23:23:13.32	180.24	12.08	-45.6	-49.3	14.9	7.28e-04	0	40	0	1195376640	61	5987
2026-01-11 23:23:16.56	180.39	11.78	-45.7	-49.4	14.8	0.00e+00	0	39	0	1201668096	62	5681
2026-01-11 23:23:19.40	180.52	11.53	-45.6	-49.4	14.8	0.00e+00	0	40	0	1206910976	62	5662
2026-01-11 23:23:22.52	180.66	11.25	-45.7	-49.3	14.9	0.00e+00	0	40	0	1212153856	62	5633
2026-01-11 23:23:25.36	180.78	10.99	-45.7	-49.4	14.8	0.00e+00	0	40	0	1217396736	62	5661
2026-01-11 23:23:28.49	180.92	10.72	-45.7	-49.3	14.8	7.00e-07	0	39	0	1223688192	62	5653
2026-01-11 23:23:31.33	181.04	10.47	-45.7	-49.3	14.9	0.00e+00	0	40	0	1228931072	62	5628
2026-01-11 23:23:34.66	181.18	10.18	-45.6	-49.2	15.0	0.00e+00	0	40	0	1235222528	62	5534
2026-01-11 23:23:37.37	181.29	9.95	-45.4	-49.1	15.0	0.00e+00	0	40	0	1240465408	62	5467
2026-01-11 23:23:40.64	181.42	9.68	-45.3	-48.9	15.1	0.00e+00	0	40	0	1246756864	62	5389
2026-01-11 23:23:43.45	181.54	9.44	-45.3	-49.0	15.1	0.00e+00	0	40	0	1251999744	62	5429
2026-01-11 23:23:46.74	181.67	9.17	-45.2	-48.9	15.2	0.00e+00	0	40	0	1258291200	62	5358
2026-01-11 23:23:49.91	181.79	8.91	-49.7	-65.3	3.8	1.49e+00	0	40	104	1262485504	69	23591
2026-01-11 23:23:52.75	181.90	8.68	-49.3	-65.6	3.8	1.49e+00	0	40	104	1262485504	70	23166
2026-01-11 23:23:55.87	182.01	8.43	-50.5	-65.9	3.8	1.49e+00	0	40	104	1262485504	71	22640
2026-01-11 23:23:58.71	182.12	8.20	-50.5	-65.8	3.8	1.49e+00	0	40	104	1262485504	72	21170
2026-01-11 23:24:01.83	182.23	7.95	-50.7	-65.9	3.8	1.49e+00	0	40	104	1262485504	72	21285
2026-01-11 23:24:04.67	182.33	7.73	-50.5	-65.8	3.8	1.49e+00	0	40	104	1262485504	72	21220
2026-01-11 23:24:07.79	182.44	7.49	-50.5	-65.9	3.8	1.49e+00	0	40	104	1262485504	72	21360
2026-01-11 23:24:10.62	182.54	7.27	-50.8	-65.9	3.8	1.49e+00	0	40	104	1262485504	72	21329
2026-01-11 23:24:13.75	182.65	7.03	-50.7	-65.9	3.8	1.49e+00	0	40	104	1262485504	72	21285
2026-01-11 23:24:16.59	182.74	6.82	-50.4	-65.8	3.8	1.49e+00	0	40	104	1262485504	72	21242
2026-01-11 23:24:19.71	182.85	6.58	-50.5	-65.8	3.8	1.49e+00	0	40	104	1262485504	72	21198
2026-01-11 23:24:22.55	182.94	6.37	-50.5	-65.8	3.8	1.49e+00	0	40	104	1262485504	72	21242
2026-01-11 23:24:25.67	183.04	6.14	-50.5	-65.8	3.8	1.49e+00	0	40	104	1262485504	72	21259
2026-01-11 23:24:28.51	183.13	5.93	-50.5	-65.8	3.8	1.49e+00	0	40	104	1262485504	72	21241
2026-01-11 23:24:31.63	183.23	5.71	-50.5	-65.9	3.8	1.49e+00	0	40	104	1262485504	72	21296
2026-01-11 23:24:34.47	183.32	5.50	-50.5	-65.8	3.8	1.49e+00	0	40	104	1262485504	72	21250
2026-01-11 23:24:37.59	183.42	5.28	-50.5	-65.8	3.8	1.49e+00	0	40	104	1262485504	72	21152
2026-01-11 23:24:40.43	183.50	5.08	-50.5	-65.9	3.8	1.49e+00	0	40	104	1262485504	72	21261

#Closed at: 2026-01-11 23:24:42
#Recorded file [1262 MB]: D:/Data/31040_260112_021152.dat