passes_logs/2026/01/11/T1/T1__20260111_012914_AQUA_rec.log

#Pass ID: 20260111_012914_AQUA
#Satellite: AQUA
#Configuration: AQUA
#almurnet v.1.7.20251203
#Start time: 2026-01-11 01:29:17

#Version: 2.0.20230620
#Station: T1
#Location: 37.570604 lon 55.790049 lat
#TLE: 1 27424U 02022A   26009.89520876  .00001045  00000+0  21914-3 0  9996
#TLE: 2 27424  98.4076 336.2372 0002032  84.5955   1.0356 14.61811442260144

#Time	Az	El	Level	Level2	SNR	BER	BlckErr	Temp	State	Recorded	gain1	gain2
2026-01-11 01:29:17.04	14.68	5.17	-50.5	-69.5	3.8	7.45e-01	0	40	0	0	71	34381
2026-01-11 01:29:20.05	14.67	5.40	-50.5	-70.2	3.8	7.44e-01	0	41	104	0	71	37257
2026-01-11 01:29:23.07	14.65	5.63	-50.4	-69.1	4.0	7.40e-01	0	41	104	0	71	32926
2026-01-11 01:29:26.08	14.64	5.86	-50.4	-68.4	3.9	7.36e-01	0	41	104	0	71	30229
2026-01-11 01:29:29.09	14.62	6.09	-50.4	-68.3	4.2	7.33e-01	0	41	104	0	71	29793
2026-01-11 01:29:32.11	14.60	6.33	-50.4	-69.2	4.0	7.44e-01	0	41	104	0	71	33084
2026-01-11 01:29:35.12	14.58	6.57	-50.4	-69.3	3.8	7.45e-01	0	41	104	0	71	33469
2026-01-11 01:29:38.13	14.57	6.81	-50.5	-69.7	3.9	7.44e-01	0	41	104	0	71	35051
2026-01-11 01:29:41.15	14.55	7.05	-50.5	-71.5	3.8	7.46e-01	0	41	104	0	71	43199
2026-01-11 01:29:44.16	14.53	7.30	-50.4	-66.4	4.8	7.15e-01	0	41	104	0	71	23884
2026-01-11 01:29:47.17	14.51	7.55	-50.0	-60.7	9.6	6.24e-01	0	41	0	4194304	71	12510
2026-01-11 01:29:50.18	14.49	7.80	-49.5	-57.8	12.6	6.03e-01	0	42	0	9961472	71	8945
2026-01-11 01:29:53.20	14.47	8.05	-49.1	-56.5	14.0	6.03e-01	0	42	0	15728640	70	8114
2026-01-11 01:29:56.21	14.44	8.31	-49.0	-56.1	14.4	6.02e-01	0	42	0	21495808	70	7792
2026-01-11 01:29:59.22	14.42	8.57	-49.0	-55.9	14.6	6.04e-01	0	42	0	26738688	69	8078
2026-01-11 01:30:02.24	14.40	8.84	-49.2	-56.8	13.7	6.05e-01	0	42	0	32505856	69	8964
2026-01-11 01:30:05.25	14.37	9.10	-49.6	-58.5	11.4	6.08e-01	0	42	0	38273024	70	10222
2026-01-11 01:30:08.26	14.35	9.37	-50.3	-66.6	4.9	7.15e-01	0	42	0	42991616	71	24440
2026-01-11 01:30:11.27	14.32	9.65	-46.2	-50.5	19.9	6.02e-01	0	42	0	46661632	64	5758
2026-01-11 01:30:14.27	14.30	9.92	-45.7	-49.6	20.9	5.99e-01	0	42	0	52428800	63	5487
2026-01-11 01:30:17.28	14.27	10.20	-45.7	-49.5	20.9	6.00e-01	0	42	0	58195968	63	5451
2026-01-11 01:30:20.29	14.24	10.49	-45.6	-49.3	21.2	6.01e-01	0	42	0	63963136	63	5295
2026-01-11 01:30:23.30	14.21	10.77	-45.6	-49.1	21.3	6.01e-01	0	42	0	69730304	63	5212
2026-01-11 01:30:26.32	14.18	11.06	-45.7	-49.3	21.2	6.01e-01	0	42	0	74973184	63	5290
2026-01-11 01:30:29.33	14.15	11.36	-45.6	-49.1	21.3	6.02e-01	0	42	0	80740352	63	5160
2026-01-11 01:30:32.33	14.12	11.66	-45.7	-49.1	21.3	6.02e-01	0	42	0	86507520	63	5200
2026-01-11 01:30:35.34	14.09	11.96	-45.7	-49.0	21.5	6.00e-01	0	42	0	91750400	63	5137
2026-01-11 01:30:38.35	14.06	12.27	-45.5	-48.7	21.8	6.02e-01	0	42	0	97517568	62	5229
2026-01-11 01:30:41.36	14.02	12.58	-45.4	-48.6	21.8	6.00e-01	0	42	0	103284736	62	5218
2026-01-11 01:30:44.37	13.99	12.89	-45.2	-48.4	22.0	6.03e-01	0	42	0	109051904	62	5081
2026-01-11 01:30:47.38	13.95	13.22	-45.3	-48.5	22.0	6.00e-01	0	42	0	114819072	62	5149
2026-01-11 01:30:50.40	13.91	13.54	-45.3	-48.4	22.0	6.02e-01	0	43	0	120061952	62	5098
2026-01-11 01:30:53.40	13.87	13.87	-45.1	-48.3	22.2	5.99e-01	0	42	0	125829120	62	5012
2026-01-11 01:30:56.41	13.83	14.21	-45.1	-48.2	22.3	6.02e-01	0	42	0	131596288	62	4975
2026-01-11 01:30:59.42	13.79	14.55	-44.9	-48.3	22.2	6.03e-01	0	42	0	137363456	61	5300
2026-01-11 01:31:02.43	13.75	14.89	-45.0	-48.4	22.1	6.01e-01	0	42	0	142606336	61	5381
2026-01-11 01:31:05.44	13.70	15.24	-44.9	-48.4	22.2	6.01e-01	0	42	0	148373504	61	5343
2026-01-11 01:31:08.45	13.66	15.60	-44.8	-48.3	22.3	6.02e-01	0	42	0	154140672	61	5290
2026-01-11 01:31:11.46	13.61	15.96	-44.7	-48.1	22.4	6.02e-01	0	42	0	159907840	61	5174
2026-01-11 01:31:14.47	13.56	16.33	-44.8	-48.1	22.5	6.00e-01	0	42	0	165150720	61	5168
2026-01-11 01:31:17.48	13.51	16.71	-44.8	-48.0	22.5	6.02e-01	0	42	0	170917888	61	5128
2026-01-11 01:31:20.49	13.46	17.09	-44.7	-47.9	22.6	5.99e-01	0	42	0	176685056	61	5075
2026-01-11 01:31:23.49	13.41	17.48	-44.9	-48.0	22.5	6.04e-01	0	42	0	182452224	61	5156
2026-01-11 01:31:26.50	13.35	17.87	-45.0	-48.1	22.4	6.03e-01	0	42	0	188219392	61	5181
2026-01-11 01:31:29.52	13.29	18.28	-45.1	-48.1	22.4	6.03e-01	0	42	0	193462272	61	5218
2026-01-11 01:31:32.53	13.23	18.69	-45.2	-48.2	22.3	6.03e-01	0	42	0	199229440	61	5271
2026-01-11 01:31:35.54	13.17	19.10	-45.3	-48.3	22.3	6.02e-01	0	42	0	204996608	61	5299
2026-01-11 01:31:38.55	13.11	19.53	-45.3	-48.3	22.3	6.03e-01	0	42	0	210763776	61	5289
2026-01-11 01:31:41.56	13.04	19.96	-45.3	-48.2	22.4	6.02e-01	0	42	0	216006656	61	5277
2026-01-11 01:31:44.57	12.97	20.40	-45.2	-48.3	22.2	6.01e-01	0	42	0	221773824	61	5332
2026-01-11 01:31:47.58	12.90	20.86	-45.1	-48.5	22.2	5.98e-01	0	42	0	227540992	61	5403
2026-01-11 01:31:50.59	12.83	21.31	-45.4	-48.5	22.1	6.02e-01	0	42	0	233308160	61	5460
2026-01-11 01:31:53.60	12.75	21.78	-45.5	-48.5	22.2	6.02e-01	0	43	0	238551040	61	5415
2026-01-11 01:31:56.61	12.67	22.26	-45.7	-48.5	22.2	6.01e-01	0	42	0	244318208	62	5126
2026-01-11 01:31:59.62	12.59	22.75	-45.7	-48.7	22.0	6.02e-01	0	42	0	250085376	62	5220
2026-01-11 01:32:02.63	12.51	23.25	-45.5	-48.6	22.1	6.00e-01	0	42	0	255852544	62	5170
2026-01-11 01:32:05.64	12.42	23.76	-45.3	-48.4	22.3	5.99e-01	0	42	0	261095424	62	5064
2026-01-11 01:32:08.65	12.33	24.28	-45.1	-48.2	22.5	6.01e-01	0	42	0	266862592	62	4962
2026-01-11 01:32:11.66	12.23	24.81	-45.3	-48.2	22.4	6.02e-01	0	43	0	272629760	62	4968
2026-01-11 01:32:14.67	12.13	25.35	-45.3	-48.3	22.4	6.00e-01	0	42	0	278396928	62	5001
2026-01-11 01:32:17.68	12.03	25.91	-45.1	-48.2	22.4	6.03e-01	0	43	0	283639808	62	4957
2026-01-11 01:32:20.69	11.92	26.48	-45.1	-48.2	22.4	6.01e-01	0	43	0	289406976	62	4983
2026-01-11 01:32:23.70	11.81	27.06	-45.2	-48.0	22.6	6.03e-01	0	42	0	295174144	62	4859
2026-01-11 01:32:26.71	11.69	27.65	-45.1	-47.9	22.8	6.02e-01	0	42	0	300941312	62	4786
2026-01-11 01:32:29.71	11.57	28.26	-45.1	-48.0	22.7	6.02e-01	0	43	0	306708480	62	4840
2026-01-11 01:32:32.72	11.44	28.88	-44.9	-47.7	23.0	6.01e-01	0	42	0	311951360	61	4939
2026-01-11 01:32:35.73	11.30	29.52	-44.9	-47.6	23.0	6.02e-01	0	42	0	317718528	61	4874
2026-01-11 01:32:38.74	11.16	30.18	-44.9	-47.6	23.0	6.02e-01	0	42	0	323485696	61	4901
2026-01-11 01:32:41.75	11.02	30.85	-45.0	-47.8	22.9	6.04e-01	0	42	0	329252864	61	4989
2026-01-11 01:32:44.76	10.87	31.54	-44.8	-47.5	23.1	6.02e-01	0	42	0	334495744	61	4846
2026-01-11 01:32:47.78	10.70	32.24	-44.7	-47.5	23.1	6.02e-01	0	42	0	340262912	61	4831
2026-01-11 01:32:50.79	10.53	32.97	-45.0	-47.8	22.8	6.03e-01	0	42	0	346030080	61	5029
2026-01-11 01:32:53.80	10.36	33.71	-44.9	-47.8	22.8	6.02e-01	0	42	0	351797248	61	5019
2026-01-11 01:32:56.80	10.17	34.47	-45.5	-48.5	22.2	6.03e-01	0	42	0	357040128	61	5464
2026-01-11 01:32:59.81	9.98	35.25	-45.7	-48.8	21.9	6.02e-01	0	43	0	362807296	62	5292
2026-01-11 01:33:02.82	9.77	36.05	-46.3	-49.3	21.6	5.99e-01	0	42	0	368574464	63	5295
2026-01-11 01:33:05.84	9.55	36.88	-46.3	-49.5	21.3	6.02e-01	0	42	0	374341632	63	5455
2026-01-11 01:33:08.85	9.32	37.72	-46.5	-49.9	21.0	6.03e-01	0	42	0	379584512	63	5664
2026-01-11 01:33:11.85	9.08	38.59	-46.7	-50.0	20.8	6.02e-01	0	42	0	385351680	64	5410
2026-01-11 01:33:14.87	8.82	39.48	-46.6	-49.9	20.9	6.02e-01	0	42	0	391118848	64	5353
2026-01-11 01:33:17.88	8.54	40.40	-46.5	-49.7	21.1	6.00e-01	0	42	0	396886016	64	5255
2026-01-11 01:33:20.88	8.25	41.33	-46.4	-49.8	21.0	6.00e-01	0	42	0	402128896	64	5298
2026-01-11 01:33:23.90	7.94	42.30	-45.9	-49.1	21.7	5.99e-01	0	42	0	407896064	63	5212
2026-01-11 01:33:26.90	7.61	43.29	-45.6	-48.5	22.3	6.02e-01	0	42	0	413663232	63	4856
2026-01-11 01:33:29.91	7.26	44.31	-45.8	-48.7	22.1	6.03e-01	0	42	0	419430400	63	4927
2026-01-11 01:33:32.92	6.88	45.36	-45.4	-48.2	22.5	6.01e-01	0	42	0	425197568	62	4946
2026-01-11 01:33:35.93	6.48	46.43	-45.6	-48.4	22.3	6.00e-01	0	42	0	430440448	62	5093
2026-01-11 01:33:38.94	6.04	47.53	-45.6	-48.4	22.3	5.98e-01	0	42	0	436207616	62	5098
2026-01-11 01:33:41.95	5.57	48.66	-45.7	-48.5	21.8	6.02e-01	0	42	0	441974784	62	5134
2026-01-11 01:33:44.96	5.07	49.82	-45.3	-48.0	22.7	6.03e-01	0	42	0	447741952	62	4842
2026-01-11 01:33:47.97	4.52	51.01	-45.1	-47.8	22.9	5.98e-01	0	42	0	452984832	62	4724
2026-01-11 01:33:50.97	3.93	52.23	-44.8	-47.4	23.2	6.00e-01	0	43	0	458752000	61	4781
2026-01-11 01:33:53.98	3.28	53.48	-44.5	-47.0	23.5	6.01e-01	0	42	0	464519168	60	4845
2026-01-11 01:33:56.99	2.57	54.75	-44.8	-47.5	23.2	6.03e-01	0	42	0	470286336	60	5136
2026-01-11 01:34:00.00	1.79	56.06	-45.0	-47.7	23.0	6.02e-01	0	42	0	476053504	60	5241
2026-01-11 01:34:03.01	0.94	57.39	-45.8	-48.7	22.1	6.04e-01	0	42	0	481296384	62	5234
2026-01-11 01:34:06.02	359.99	58.75	-46.0	-48.9	21.9	6.01e-01	0	42	0	487063552	62	5377
2026-01-11 01:34:09.03	358.94	60.13	-46.1	-49.1	21.7	6.01e-01	0	42	0	492830720	63	5175
2026-01-11 01:34:12.04	357.76	61.54	-46.4	-49.3	21.5	6.01e-01	0	42	0	498073600	63	5332
2026-01-11 01:34:15.05	356.44	62.97	-46.5	-49.7	21.1	5.99e-01	0	42	0	503840768	63	5530
2026-01-11 01:34:18.06	354.95	64.41	-47.2	-50.5	20.4	6.03e-01	0	42	0	509607936	64	5741
2026-01-11 01:34:21.07	353.25	65.86	-47.8	-51.8	19.0	6.00e-01	0	42	0	515375104	66	5949
2026-01-11 01:34:24.08	351.32	67.32	-48.4	-52.6	18.3	6.02e-01	0	43	0	521142272	67	6188
2026-01-11 01:34:27.09	349.08	68.77	-48.5	-52.6	18.4	6.00e-01	0	42	0	526385152	68	5797
2026-01-11 01:34:30.10	346.49	70.22	-48.1	-51.9	19.0	6.02e-01	0	42	0	532152320	68	5385
2026-01-11 01:34:33.11	343.46	71.64	-48.3	-52.3	18.7	6.00e-01	0	42	0	537919488	67	5930
2026-01-11 01:34:36.12	339.89	73.03	-48.3	-52.3	18.6	6.00e-01	0	42	0	543686656	67	5974
2026-01-11 01:34:39.13	335.66	74.36	-48.2	-52.0	19.0	6.02e-01	0	42	0	548929536	68	5444
2026-01-11 01:34:42.14	330.64	75.60	-47.8	-51.6	19.2	6.02e-01	0	42	0	554696704	67	5504
2026-01-11 01:34:45.14	324.70	76.72	-47.2	-50.9	20.0	6.01e-01	0	42	0	560463872	66	5348
2026-01-11 01:34:48.15	317.69	77.70	-47.4	-50.9	19.9	6.02e-01	0	42	0	566231040	65	5720
2026-01-11 01:34:51.17	309.55	78.46	-47.2	-50.8	20.0	6.02e-01	0	42	0	571473920	65	5646
2026-01-11 01:34:54.17	300.49	78.97	-46.9	-50.2	20.6	6.01e-01	0	42	0	577241088	65	5257
2026-01-11 01:34:57.18	290.77	79.19	-46.5	-49.8	21.0	6.02e-01	0	42	0	583008256	64	5304
2026-01-11 01:35:00.19	280.93	79.10	-46.8	-50.2	20.5	6.02e-01	0	42	0	588775424	64	5571
2026-01-11 01:35:03.20	271.54	78.70	-46.6	-49.8	20.9	6.02e-01	0	42	0	594542592	64	5316
2026-01-11 01:35:06.21	263.00	78.03	-46.8	-50.2	20.6	6.03e-01	0	42	0	599785472	64	5549
2026-01-11 01:35:09.22	255.53	77.14	-47.0	-50.6	20.2	6.02e-01	0	42	0	605552640	64	5835
2026-01-11 01:35:12.23	249.16	76.07	-47.2	-50.6	20.2	6.03e-01	0	42	0	611319808	65	5517
2026-01-11 01:35:15.23	243.79	74.87	-47.7	-51.5	19.4	6.04e-01	0	42	0	616562688	66	5788
2026-01-11 01:35:18.24	239.25	73.57	-48.0	-51.8	19.1	6.01e-01	0	42	0	622329856	67	5613
2026-01-11 01:35:21.26	235.42	72.20	-48.4	-52.3	18.5	6.02e-01	0	42	0	628097024	68	5619
2026-01-11 01:35:24.27	232.18	70.78	-48.9	-53.2	17.7	6.01e-01	0	42	0	633864192	68	6249
2026-01-11 01:35:27.27	229.43	69.35	-49.8	-54.9	16.3	6.00e-01	0	42	0	639631360	70	6726
2026-01-11 01:35:30.28	227.06	67.89	-50.0	-55.4	15.7	6.02e-01	0	42	0	644874240	70	7174
2026-01-11 01:35:33.29	225.01	66.43	-48.8	-53.3	17.9	6.03e-01	0	42	0	650641408	69	5975
2026-01-11 01:35:36.30	223.22	64.97	-48.1	-51.8	19.2	6.02e-01	0	42	0	656408576	68	5310
2026-01-11 01:35:39.31	221.65	63.52	-47.6	-51.1	19.6	6.02e-01	0	42	0	662175744	67	5201
2026-01-11 01:35:42.32	220.26	62.08	-47.2	-50.5	20.3	6.01e-01	0	42	0	667418624	65	5413
2026-01-11 01:35:45.33	219.03	60.67	-46.9	-50.2	20.5	6.02e-01	0	42	0	673185792	65	5249
2026-01-11 01:35:48.34	217.92	59.27	-46.7	-49.9	20.9	6.00e-01	0	42	0	678952960	64	5373
2026-01-11 01:35:51.35	216.94	57.90	-45.8	-48.8	22.0	6.01e-01	0	42	0	684720128	63	5039
2026-01-11 01:35:54.35	216.05	56.55	-45.5	-48.2	22.4	6.03e-01	0	42	0	689963008	63	4699
2026-01-11 01:35:57.36	215.24	55.23	-44.5	-47.1	23.4	6.03e-01	0	42	0	695730176	61	4618
2026-01-11 01:36:00.37	214.50	53.94	-45.1	-47.8	22.8	6.02e-01	0	42	0	701497344	61	5034
2026-01-11 01:36:03.38	213.83	52.68	-44.5	-47.0	23.6	6.01e-01	0	42	0	707264512	61	4572
2026-01-11 01:36:06.38	213.21	51.44	-45.2	-48.0	22.7	6.01e-01	0	42	0	712507392	61	5111
2026-01-11 01:36:09.39	212.65	50.24	-45.1	-47.8	22.8	6.02e-01	0	42	0	718274560	61	5023
2026-01-11 01:36:12.40	212.12	49.06	-45.4	-48.2	22.5	6.02e-01	0	42	0	724041728	61	5262
2026-01-11 01:36:15.41	211.64	47.92	-45.5	-48.3	22.4	6.03e-01	0	42	0	729808896	62	5007
2026-01-11 01:36:18.42	211.19	46.80	-45.3	-48.1	22.5	6.02e-01	0	42	0	735051776	62	4905
2026-01-11 01:36:21.43	210.77	45.71	-45.2	-47.9	22.8	6.02e-01	0	42	0	740818944	62	4764
2026-01-11 01:36:24.44	210.38	44.65	-45.4	-48.3	22.3	6.02e-01	0	42	0	746586112	62	5016
2026-01-11 01:36:27.44	210.02	43.62	-45.1	-48.0	22.6	6.01e-01	0	42	0	752353280	62	4866
2026-01-11 01:36:30.45	209.68	42.61	-45.5	-48.4	22.3	6.01e-01	0	42	0	758120448	61	5347
2026-01-11 01:36:33.46	209.36	41.63	-46.2	-49.2	21.5	6.01e-01	0	42	0	763363328	63	5266
2026-01-11 01:36:36.47	209.06	40.68	-46.4	-49.6	21.2	6.02e-01	0	42	0	769130496	63	5483
2026-01-11 01:36:39.48	208.78	39.75	-46.4	-49.5	21.2	6.01e-01	0	42	0	774897664	63	5455
2026-01-11 01:36:42.49	208.51	38.84	-46.8	-50.1	20.6	6.01e-01	0	42	0	780140544	64	5505
2026-01-11 01:36:45.50	208.26	37.96	-46.6	-49.9	20.8	6.01e-01	0	42	0	785907712	64	5389
2026-01-11 01:36:48.51	208.03	37.11	-46.5	-49.9	20.8	6.01e-01	0	42	0	791674880	64	5358
2026-01-11 01:36:51.52	207.80	36.27	-46.2	-49.3	21.3	6.01e-01	0	42	0	797442048	64	5016
2026-01-11 01:36:54.53	207.59	35.46	-45.9	-48.9	21.8	6.01e-01	0	42	0	803209216	63	5066
2026-01-11 01:36:57.54	207.39	34.67	-45.9	-48.8	21.9	6.01e-01	0	42	0	808452096	63	5026
2026-01-11 01:37:00.55	207.19	33.89	-45.6	-48.4	22.2	6.00e-01	0	42	0	814219264	63	4813
2026-01-11 01:37:03.56	207.01	33.14	-45.2	-47.9	22.7	6.01e-01	0	42	0	819986432	62	4766
2026-01-11 01:37:06.57	206.84	32.41	-44.9	-47.5	23.0	6.03e-01	0	42	0	825753600	61	4864
2026-01-11 01:37:09.58	206.67	31.70	-45.0	-47.8	22.8	6.03e-01	0	42	0	830996480	61	4999
2026-01-11 01:37:12.59	206.52	31.00	-44.9	-47.6	23.0	6.01e-01	0	42	0	836763648	61	4874
2026-01-11 01:37:15.60	206.37	30.32	-44.8	-47.4	23.1	6.01e-01	0	42	0	842530816	61	4803
2026-01-11 01:37:18.61	206.22	29.66	-44.8	-47.4	23.1	6.00e-01	0	42	0	848297984	61	4769
2026-01-11 01:37:21.61	206.08	29.01	-44.8	-47.4	23.1	6.02e-01	0	42	0	853540864	61	4775
2026-01-11 01:37:24.63	205.95	28.38	-44.8	-47.5	23.0	6.02e-01	0	42	0	859308032	61	4840
2026-01-11 01:37:27.64	205.83	27.76	-44.8	-47.5	23.0	6.00e-01	0	42	0	865075200	61	4822
2026-01-11 01:37:30.64	205.71	27.16	-45.1	-47.9	22.6	6.01e-01	0	42	0	870842368	61	5058
2026-01-11 01:37:33.65	205.59	26.57	-45.3	-48.1	22.4	6.04e-01	0	42	0	876609536	61	5200
2026-01-11 01:37:36.66	205.48	25.99	-45.6	-48.4	22.2	6.02e-01	0	42	0	881852416	61	5367
2026-01-11 01:37:39.68	205.37	25.43	-45.5	-48.3	22.2	6.02e-01	0	42	0	887619584	61	5334
2026-01-11 01:37:42.68	205.27	24.88	-45.6	-48.5	22.1	6.01e-01	0	42	0	893386752	61	5422
2026-01-11 01:37:45.70	205.17	24.34	-45.6	-48.6	22.0	6.01e-01	0	42	0	899153920	61	5484
2026-01-11 01:37:48.71	205.07	23.82	-45.5	-48.5	22.0	6.02e-01	0	42	0	904396800	61	5429
2026-01-11 01:37:51.72	204.98	23.30	-45.6	-48.6	22.0	5.99e-01	0	42	0	910163968	61	5483
2026-01-11 01:37:54.73	204.89	22.80	-45.6	-48.6	21.9	5.98e-01	0	42	0	915931136	61	5522
2026-01-11 01:37:57.73	204.81	22.31	-45.7	-48.7	21.8	6.01e-01	0	42	0	921698304	62	5267
2026-01-11 01:38:00.74	204.73	21.82	-45.9	-48.9	21.7	6.05e-01	0	42	0	926941184	62	5368
2026-01-11 01:38:03.75	204.65	21.35	-45.8	-48.8	21.7	6.02e-01	0	42	0	932708352	62	5305
2026-01-11 01:38:06.76	204.57	20.88	-45.8	-48.8	21.7	6.02e-01	0	42	0	938475520	62	5334
2026-01-11 01:38:09.77	204.50	20.43	-45.7	-48.7	21.8	6.04e-01	0	42	0	944242688	62	5253
2026-01-11 01:38:12.78	204.43	19.98	-45.7	-48.8	21.7	6.00e-01	0	42	0	949485568	62	5314
2026-01-11 01:38:15.79	204.36	19.54	-45.6	-48.6	21.9	6.03e-01	0	42	0	955252736	62	5185
2026-01-11 01:38:18.81	204.29	19.11	-45.5	-48.6	21.9	6.02e-01	0	42	0	961019904	62	5163
2026-01-11 01:38:21.81	204.23	18.69	-45.4	-48.3	22.1	6.02e-01	0	42	0	966787072	62	5037
2026-01-11 01:38:24.82	204.16	18.28	-45.3	-48.2	22.2	6.00e-01	0	42	0	972029952	62	4978
2026-01-11 01:38:27.83	204.10	17.87	-45.4	-48.2	22.1	6.02e-01	0	42	0	977797120	62	4982
2026-01-11 01:38:30.84	204.05	17.47	-45.5	-48.4	22.0	6.02e-01	0	42	0	983564288	62	5086
2026-01-11 01:38:33.85	203.99	17.08	-45.6	-48.5	21.9	6.02e-01	0	42	0	989331456	62	5146
2026-01-11 01:38:36.86	203.93	16.70	-45.5	-48.4	22.0	6.05e-01	0	42	0	995098624	62	5074
2026-01-11 01:38:39.86	203.88	16.32	-45.5	-48.5	21.9	6.02e-01	0	42	0	1000341504	62	5103
2026-01-11 01:38:42.87	203.83	15.95	-45.5	-48.5	21.9	5.99e-01	0	42	0	1006108672	62	5110
2026-01-11 01:38:45.88	203.78	15.58	-45.6	-48.6	21.7	6.01e-01	0	42	0	1011875840	62	5187
2026-01-11 01:38:48.90	203.73	15.22	-45.6	-48.6	21.8	6.00e-01	0	42	0	1017643008	62	5177
2026-01-11 01:38:51.91	203.68	14.86	-45.6	-48.6	21.8	6.01e-01	0	42	0	1022885888	62	5191
2026-01-11 01:38:54.92	203.64	14.51	-45.6	-48.7	21.7	6.03e-01	0	42	0	1028653056	62	5239
2026-01-11 01:38:57.93	203.59	14.17	-45.6	-48.8	21.6	6.01e-01	0	42	0	1034420224	62	5296
2026-01-11 01:39:00.91	203.55	13.84	-45.6	-48.7	21.6	6.01e-01	0	42	0	1040187392	62	5246
2026-01-11 01:39:03.92	203.51	13.50	-45.6	-48.8	21.5	6.01e-01	0	42	0	1045430272	62	5316
2026-01-11 01:39:06.93	203.47	13.17	-45.4	-48.6	21.7	6.02e-01	0	42	0	1051197440	62	5171
2026-01-11 01:39:09.94	203.43	12.85	-45.5	-48.7	21.6	5.99e-01	0	42	0	1056964608	62	5235
2026-01-11 01:39:12.95	203.39	12.53	-45.4	-48.7	21.5	6.01e-01	0	41	0	1062731776	62	5264
2026-01-11 01:39:15.96	203.35	12.22	-45.6	-49.0	21.3	6.01e-01	0	42	0	1067974656	62	5418
2026-01-11 01:39:18.97	203.32	11.91	-45.4	-48.9	21.4	6.02e-01	0	42	0	1073741824	62	5357
2026-01-11 01:39:21.98	203.28	11.60	-45.5	-49.0	21.2	6.02e-01	0	42	0	1079508992	62	5450
2026-01-11 01:39:24.99	203.25	11.30	-45.5	-49.0	21.2	6.03e-01	0	42	0	1085276160	62	5442
2026-01-11 01:39:28.00	203.21	11.01	-45.6	-49.2	21.1	6.01e-01	0	42	0	1090519040	62	5536
2026-01-11 01:39:31.01	203.18	10.71	-45.6	-49.3	21.0	6.03e-01	0	42	0	1096286208	62	5602
2026-01-11 01:39:34.02	203.15	10.42	-45.6	-49.4	20.8	6.00e-01	0	42	0	1102053376	62	5687
2026-01-11 01:39:37.02	203.12	10.14	-45.6	-49.4	20.8	6.01e-01	0	42	0	1107820544	62	5661
2026-01-11 01:39:40.03	203.09	9.86	-45.7	-49.4	20.8	6.02e-01	0	41	0	1113063424	62	5707
2026-01-11 01:39:43.05	203.06	9.58	-45.7	-49.5	20.7	6.01e-01	0	42	0	1118830592	62	5726
2026-01-11 01:39:46.05	203.03	9.30	-45.8	-49.6	20.7	6.02e-01	0	42	0	1124597760	62	5806
2026-01-11 01:39:49.06	203.00	9.03	-45.9	-49.8	20.4	6.03e-01	0	42	0	1130364928	62	5937
2026-01-11 01:39:52.08	202.97	8.76	-51.5	-71.7	3.8	7.46e-01	0	42	104	1131937792	73	39517
2026-01-11 01:39:55.09	202.95	8.50	-51.8	-72.0	3.8	7.45e-01	0	41	104	1131937792	74	38505
2026-01-11 01:39:58.10	202.92	8.23	-51.7	-72.2	3.8	7.45e-01	0	42	104	1131937792	74	39139
2026-01-11 01:40:01.12	202.90	7.97	-52.1	-72.2	3.8	7.49e-01	0	42	104	1131937792	75	37001
2026-01-11 01:40:04.13	202.87	7.72	-52.3	-72.2	3.8	7.45e-01	0	42	104	1131937792	75	36994
2026-01-11 01:40:07.14	202.85	7.46	-52.2	-72.2	3.8	7.45e-01	0	42	104	1131937792	75	36974
2026-01-11 01:40:10.15	202.83	7.21	-51.8	-72.2	3.8	7.46e-01	0	42	104	1131937792	75	37022
2026-01-11 01:40:13.17	202.80	6.97	-51.7	-72.1	3.8	7.47e-01	0	42	104	1131937792	74	38919
2026-01-11 01:40:16.18	202.78	6.72	-51.7	-72.1	3.8	7.44e-01	0	42	104	1131937792	74	38930
2026-01-11 01:40:19.19	202.76	6.48	-51.7	-72.1	3.8	7.44e-01	0	41	104	1131937792	74	38903
2026-01-11 01:40:22.21	202.74	6.24	-51.7	-72.1	3.8	7.44e-01	0	41	104	1131937792	74	38981
2026-01-11 01:40:25.22	202.72	6.00	-51.7	-72.1	3.8	7.48e-01	0	42	104	1131937792	74	38961
2026-01-11 01:40:28.23	202.70	5.76	-51.7	-72.1	3.8	7.50e-01	0	42	104	1131937792	74	39015
2026-01-11 01:40:31.25	202.68	5.53	-51.7	-72.1	3.8	7.46e-01	0	42	104	1131937792	74	38860
2026-01-11 01:40:34.26	202.66	5.30	-51.7	-72.1	3.8	7.45e-01	0	42	104	1131937792	74	38892
2026-01-11 01:40:37.28	202.64	5.07	-51.7	-72.1	3.8	7.45e-01	0	42	104	1131937792	74	38911

#Closed at: 2026-01-11 01:40:39
#Recorded file [1131 MB]: D:/Data/31040_260111_042917.dat