passes_logs/2026/01/11/T1/T1__20260111_082959_KHAYYAM_rec.log

#Pass ID: 20260111_082959_KHAYYAM
#Satellite: KHAYYAM
#Configuration: KHAYYAM_480M
#almurnet v.1.7.20251203
#Start time: 2026-01-11 08:30:00

#Version: 2.0.20230620
#Station: T1
#Location: 37.570604 lon 55.790049 lat
#TLE: 1 53370U 22096A   26010.95337424  .00006048  00000+0  24667-3 0  9998
#TLE: 2 53370  97.3557 278.0363 0001314  97.6112 262.5275 15.24798026190621

#Time	Az	El	Level	Level2	SNR	BER	BlckErr	Temp	State	Recorded	gain1	gain2
2026-01-11 08:30:00.91	188.89	5.08	-51.3	-56.2	3.4	0.00e+00	0	46	0	0	74	25034
2026-01-11 08:30:03.91	189.10	5.31	-51.3	-56.3	3.7	0.00e+00	0	46	104	0	73	26632
2026-01-11 08:30:06.90	189.31	5.55	-51.3	-56.2	3.7	0.00e+00	0	47	104	0	73	26514
2026-01-11 08:30:09.89	189.53	5.79	-51.3	-56.3	3.7	0.00e+00	0	47	104	0	73	26595
2026-01-11 08:30:12.89	189.75	6.03	-51.3	-56.2	3.7	0.00e+00	0	47	104	0	73	26525
2026-01-11 08:30:15.89	189.98	6.27	-51.3	-56.2	3.7	0.00e+00	0	47	104	0	73	26571
2026-01-11 08:30:18.89	190.21	6.52	-51.3	-56.2	3.7	0.00e+00	0	47	104	0	73	26455
2026-01-11 08:30:21.88	190.44	6.77	-51.3	-56.2	3.7	0.00e+00	0	48	104	0	73	26499
2026-01-11 08:30:24.88	190.68	7.03	-51.3	-56.2	3.7	0.00e+00	0	48	104	0	73	26466
2026-01-11 08:30:27.88	190.93	7.28	-51.3	-56.2	3.7	0.00e+00	0	48	104	0	73	26518
2026-01-11 08:30:30.88	191.18	7.54	-51.3	-56.2	3.7	0.00e+00	0	48	104	0	73	26546
2026-01-11 08:30:33.88	191.43	7.81	-51.3	-56.2	3.7	0.00e+00	0	48	104	0	73	26519
2026-01-11 08:30:36.88	191.69	8.08	-51.3	-56.3	3.7	0.00e+00	0	49	104	0	73	26600
2026-01-11 08:30:39.88	191.96	8.35	-51.3	-56.3	3.7	0.00e+00	0	49	104	0	73	26591
2026-01-11 08:30:42.87	192.24	8.62	-51.4	-56.2	3.7	0.00e+00	0	49	104	0	73	26563
2026-01-11 08:30:45.87	192.52	8.90	-51.4	-56.3	3.7	0.00e+00	0	49	104	0	73	26618
2026-01-11 08:30:48.88	192.80	9.18	-51.3	-56.2	3.7	0.00e+00	0	49	104	0	73	26407
2026-01-11 08:30:51.87	193.10	9.46	-51.3	-56.3	3.7	0.00e+00	0	49	104	0	73	26870
2026-01-11 08:30:54.87	193.40	9.75	-51.8	-56.7	3.7	0.00e+00	0	49	104	0	74	26327
2026-01-11 08:30:57.87	193.70	10.05	-51.8	-56.7	3.7	0.00e+00	0	49	104	0	74	26520
2026-01-11 08:31:00.86	194.02	10.34	-51.8	-56.8	3.7	0.00e+00	0	50	104	0	74	26636
2026-01-11 08:31:03.85	194.34	10.64	-51.7	-56.7	3.7	0.00e+00	0	50	104	0	74	26409
2026-01-11 08:31:06.85	194.67	10.95	-51.7	-56.6	3.7	0.00e+00	0	50	104	0	74	26181
2026-01-11 08:31:09.85	195.01	11.26	-51.7	-56.5	3.7	0.00e+00	0	50	104	0	74	25867
2026-01-11 08:31:12.85	195.36	11.58	-51.7	-56.5	3.7	0.00e+00	0	50	104	0	74	25884
2026-01-11 08:31:15.85	195.72	11.90	-51.9	-56.6	3.7	0.00e+00	0	50	104	0	75	24673
2026-01-11 08:31:18.85	196.08	12.22	-52.3	-56.8	3.7	0.00e+00	0	50	104	0	75	25322
2026-01-11 08:31:21.85	196.46	12.55	-52.4	-57.0	3.7	0.00e+00	0	50	104	0	75	25841
2026-01-11 08:31:24.84	196.84	12.88	-52.0	-56.5	3.7	0.00e+00	0	50	104	0	75	24427
2026-01-11 08:31:27.84	197.24	13.22	-51.9	-56.6	3.7	0.00e+00	0	50	104	0	75	24631
2026-01-11 08:31:30.84	197.65	13.57	-52.0	-56.8	3.7	0.00e+00	0	50	104	0	75	25245
2026-01-11 08:31:33.85	198.07	13.92	-52.0	-56.8	3.7	0.00e+00	0	50	104	0	75	25315
2026-01-11 08:31:36.84	198.50	14.27	-52.2	-57.0	3.7	0.00e+00	0	50	104	0	75	25933
2026-01-11 08:31:39.84	198.94	14.64	-52.4	-57.1	3.7	0.00e+00	0	50	104	0	76	24685
2026-01-11 08:31:42.83	199.40	15.00	-53.2	-57.6	3.7	0.00e+00	0	50	104	0	77	24683
2026-01-11 08:31:45.84	199.87	15.38	-44.4	-45.6	10.6	6.44e-04	0	51	0	33554432	59	17433
2026-01-11 08:31:48.83	200.35	15.75	-37.4	-38.4	15.8	3.09e-03	0	51	0	218103808	47	15167
2026-01-11 08:31:51.83	200.85	16.14	-33.8	-34.7	17.8	0.00e+00	0	51	0	394264576	39	15670
2026-01-11 08:31:54.84	201.36	16.53	-33.4	-34.3	18.0	0.00e+00	0	51	0	578813952	38	15837
2026-01-11 08:31:57.83	201.89	16.93	-33.1	-34.0	18.3	0.00e+00	0	51	0	754974720	38	15311
2026-01-11 08:32:00.83	202.43	17.33	-33.1	-34.0	18.4	0.00e+00	0	52	0	939524096	38	15402
2026-01-11 08:32:03.82	202.99	17.74	-33.0	-33.9	18.5	0.00e+00	0	52	0	1115684864	37	16020
2026-01-11 08:32:06.82	203.57	18.16	-32.8	-33.7	18.6	0.00e+00	0	52	0	1300234240	37	15768
2026-01-11 08:32:09.82	204.17	18.59	-32.5	-33.4	18.7	0.00e+00	0	52	0	1476395008	36	16031
2026-01-11 08:32:12.81	204.79	19.01	-32.3	-33.2	18.8	0.00e+00	0	52	0	1660944384	36	15710
2026-01-11 08:32:15.81	205.43	19.45	-32.1	-33.0	19.0	0.00e+00	0	52	0	1837105152	36	15368
2026-01-11 08:32:18.80	206.08	19.90	-32.1	-33.0	19.1	0.00e+00	0	52	0	2013265920	36	15313
2026-01-11 08:32:21.80	206.76	20.35	-30.6	-31.5	18.8	0.00e+00	0	52	0	2197815296	33	15356
2026-01-11 08:32:24.80	207.47	20.80	-30.4	-31.2	19.0	0.00e+00	0	52	0	2373976064	32	15826
2026-01-11 08:32:27.81	208.20	21.27	-30.2	-31.0	19.1	0.00e+00	0	52	0	2550136832	32	15447
2026-01-11 08:32:30.81	208.95	21.74	-30.0	-30.9	19.0	0.00e+00	0	52	0	2734686208	32	15202
2026-01-11 08:32:33.80	209.73	22.22	-29.7	-30.6	19.1	0.00e+00	0	52	0	2910846976	31	15577
2026-01-11 08:32:36.79	210.53	22.70	-29.5	-30.4	19.2	0.00e+00	0	52	0	3095396352	31	15218
2026-01-11 08:32:39.79	211.37	23.19	-29.4	-30.2	19.3	0.00e+00	0	52	0	3271557120	30	15832
2026-01-11 08:32:42.79	212.23	23.68	-29.3	-30.1	19.3	0.00e+00	0	52	0	3456106496	30	15609
2026-01-11 08:32:45.78	213.13	24.18	-28.9	-29.7	19.6	0.00e+00	0	52	0	3632267264	29	15781
2026-01-11 08:32:48.78	214.06	24.69	-28.9	-29.7	19.5	0.00e+00	0	52	0	3816816640	29	15816
2026-01-11 08:32:51.78	215.02	25.20	-28.7	-29.5	19.8	0.00e+00	0	52	0	3992977408	29	15440
2026-01-11 08:32:54.78	216.01	25.72	-28.5	-29.4	19.8	0.00e+00	0	52	0	4177526784	29	15145
2026-01-11 08:32:57.77	217.04	26.23	-28.3	-29.1	19.8	0.00e+00	0	52	0	4353687552	28	15610
2026-01-11 08:33:00.76	218.11	26.75	-28.1	-29.0	20.0	0.00e+00	0	53	0	4529848320	28	15351
2026-01-11 08:33:03.76	219.22	27.28	-28.0	-28.8	20.0	0.00e+00	0	52	0	4714397696	27	16005
2026-01-11 08:33:06.75	220.36	27.80	-28.1	-29.0	20.0	0.00e+00	0	52	0	4890558464	27	16233
2026-01-11 08:33:09.74	221.55	28.32	-28.0	-28.9	20.0	0.00e+00	0	52	0	5075107840	27	16042
2026-01-11 08:33:12.74	222.78	28.85	-27.7	-28.6	20.4	0.00e+00	0	52	0	5251268608	27	15519
2026-01-11 08:33:15.74	224.06	29.37	-27.6	-28.4	20.5	0.00e+00	0	53	0	5427429376	27	15274
2026-01-11 08:33:18.73	225.37	29.89	-27.2	-28.1	20.6	0.00e+00	0	53	0	5611978752	26	15544
2026-01-11 08:33:21.72	226.74	30.40	-27.1	-28.0	20.5	0.00e+00	0	52	0	5788139520	26	15302
2026-01-11 08:33:24.71	228.15	30.91	-27.0	-27.8	20.5	0.00e+00	0	53	0	5972688896	25	15959
2026-01-11 08:33:27.71	229.61	31.41	-26.8	-27.6	20.6	0.00e+00	0	52	0	6148849664	25	15563
2026-01-11 08:33:30.71	231.12	31.90	-26.7	-27.5	20.7	0.00e+00	0	53	0	6325010432	25	15391
2026-01-11 08:33:33.70	232.67	32.37	-26.5	-27.3	20.7	0.00e+00	0	53	0	6509559808	25	15092
2026-01-11 08:33:36.70	234.28	32.84	-26.5	-27.4	20.8	0.00e+00	0	53	0	6685720576	24	16031
2026-01-11 08:33:39.70	235.94	33.29	-26.4	-27.2	20.8	0.00e+00	0	53	0	6870269952	24	15766
2026-01-11 08:33:42.69	237.64	33.72	-26.4	-27.3	20.7	0.00e+00	0	53	0	7046430720	24	15840
2026-01-11 08:33:45.69	239.39	34.13	-26.2	-27.0	20.8	0.00e+00	0	53	0	7230980096	24	15380
2026-01-11 08:33:48.69	241.19	34.51	-26.1	-26.9	21.0	0.00e+00	0	53	0	7407140864	24	15295
2026-01-11 08:33:51.69	243.03	34.88	-26.1	-27.0	21.0	0.00e+00	0	53	0	7591690240	23	16229
2026-01-11 08:33:54.68	244.91	35.21	-26.1	-26.9	21.1	0.00e+00	0	53	0	7767851008	23	16082
2026-01-11 08:33:57.67	246.82	35.51	-25.7	-26.6	21.3	0.00e+00	0	53	0	7944011776	23	15502
2026-01-11 08:34:00.66	248.78	35.79	-25.6	-26.4	21.4	0.00e+00	0	53	0	8128561152	23	15274
2026-01-11 08:34:03.67	250.77	36.03	-25.6	-26.5	21.5	0.00e+00	0	53	0	8304721920	23	15330
2026-01-11 08:34:06.66	252.79	36.23	-25.5	-26.4	21.3	0.00e+00	0	53	0	8489271296	23	15177
2026-01-11 08:34:09.65	254.82	36.40	-25.6	-26.4	21.3	0.00e+00	0	53	0	8665432064	23	15268
2026-01-11 08:34:12.65	256.89	36.53	-25.7	-26.5	21.3	0.00e+00	0	53	0	8841592832	22	16297
2026-01-11 08:34:15.64	258.96	36.62	-25.7	-26.5	21.3	0.00e+00	0	53	0	9026142208	22	16315
2026-01-11 08:34:18.64	261.05	36.68	-25.7	-26.6	21.4	0.00e+00	0	53	0	9202302976	22	16450
2026-01-11 08:34:21.63	263.13	36.69	-25.7	-26.6	21.5	0.00e+00	0	53	0	9386852352	23	15513
2026-01-11 08:34:24.63	265.22	36.66	-25.8	-26.7	21.5	0.00e+00	0	53	0	9563013120	23	15695
2026-01-11 08:34:27.63	267.30	36.59	-25.8	-26.7	21.5	0.00e+00	0	53	0	9747562496	23	15662
2026-01-11 08:34:30.63	269.37	36.48	-25.9	-26.7	21.3	0.00e+00	0	53	0	9923723264	23	15754
2026-01-11 08:34:33.63	271.43	36.33	-26.1	-26.9	21.3	0.00e+00	0	53	0	10108272640	23	16132
2026-01-11 08:34:36.62	273.45	36.15	-26.1	-26.9	21.4	0.00e+00	0	53	0	10284433408	24	15244
2026-01-11 08:34:39.62	275.46	35.93	-26.0	-26.9	21.4	0.00e+00	0	53	0	10468982784	23	16081
2026-01-11 08:34:42.61	277.43	35.68	-26.0	-26.9	21.4	0.00e+00	0	53	0	10645143552	24	15151
2026-01-11 08:34:45.61	279.36	35.39	-26.2	-27.0	21.5	0.00e+00	0	53	0	10821304320	24	15365
2026-01-11 08:34:48.62	281.27	35.07	-26.2	-27.0	21.5	0.00e+00	0	53	0	11005853696	24	15461
2026-01-11 08:34:51.61	283.13	34.73	-54.2	-58.6	3.7	0.00e+00	0	52	104	11114905600	78	26021
2026-01-11 08:34:54.60	284.94	34.36	-53.9	-58.5	3.7	0.00e+00	0	52	104	11114905600	78	25752
2026-01-11 08:34:57.60	286.71	33.96	-54.0	-58.5	3.7	0.00e+00	0	52	104	11114905600	78	25779
2026-01-11 08:35:00.59	288.43	33.55	-54.1	-58.6	3.7	0.00e+00	0	52	104	11114905600	78	26018
2026-01-11 08:35:03.59	290.11	33.11	-53.9	-58.5	3.7	0.00e+00	0	52	104	11114905600	78	25766
2026-01-11 08:35:06.59	291.74	32.66	-53.9	-58.4	3.7	0.00e+00	0	52	104	11114905600	78	25403
2026-01-11 08:35:09.58	293.32	32.19	-53.8	-58.2	3.7	0.00e+00	0	52	104	11114905600	78	25023
2026-01-11 08:35:12.58	294.85	31.71	-53.5	-58.2	3.7	0.00e+00	0	52	104	11114905600	78	24839
2026-01-11 08:35:15.57	296.33	31.22	-54.0	-58.5	3.7	0.00e+00	0	52	104	11114905600	78	25694
2026-01-11 08:35:18.57	297.77	30.72	-53.6	-57.9	3.7	0.00e+00	0	52	104	11114905600	78	24161
2026-01-11 08:35:21.57	299.16	30.21	-53.7	-58.2	3.7	0.00e+00	0	52	104	11114905600	78	25080
2026-01-11 08:35:24.57	300.50	29.70	-53.5	-58.0	3.7	0.00e+00	0	52	104	11114905600	78	24368
2026-01-11 08:35:27.56	301.79	29.18	-53.2	-57.8	3.7	0.00e+00	0	52	104	11114905600	78	23943
2026-01-11 08:35:30.56	303.05	28.66	-53.7	-58.0	3.7	0.00e+00	0	52	104	11114905600	78	24491
2026-01-11 08:35:33.56	304.26	28.14	-53.9	-58.3	3.7	0.00e+00	0	52	104	11114905600	78	25378
2026-01-11 08:35:36.56	305.42	27.62	-53.7	-58.1	3.7	0.00e+00	0	52	104	11114905600	78	24599
2026-01-11 08:35:39.56	306.55	27.10	-53.9	-58.3	3.7	0.00e+00	0	52	104	11114905600	78	25311
2026-01-11 08:35:42.55	307.63	26.58	-53.5	-58.1	3.7	0.00e+00	0	52	104	11114905600	78	24746
2026-01-11 08:35:45.55	308.68	26.07	-53.7	-58.1	3.7	0.00e+00	0	52	104	11114905600	78	24779
2026-01-11 08:35:48.55	309.69	25.55	-53.8	-58.3	3.7	0.00e+00	0	52	104	11114905600	78	25308
2026-01-11 08:35:51.54	310.67	25.04	-53.0	-57.5	3.7	0.00e+00	0	52	104	11114905600	77	24369
2026-01-11 08:35:54.53	311.61	24.54	-52.5	-57.6	3.7	0.00e+00	0	52	104	11114905600	77	24543
2026-01-11 08:35:57.53	312.52	24.04	-52.5	-57.4	3.7	0.00e+00	0	52	104	11114905600	76	25547
2026-01-11 08:36:00.54	313.40	23.54	-52.9	-57.5	3.7	0.00e+00	0	52	104	11114905600	76	25973
2026-01-11 08:36:03.54	314.25	23.05	-53.1	-57.6	3.7	0.00e+00	0	52	104	11114905600	77	24786
2026-01-11 08:36:06.54	315.07	22.57	-53.2	-57.8	3.7	0.00e+00	0	52	104	11114905600	77	25159
2026-01-11 08:36:09.54	315.86	22.09	-52.9	-57.6	3.7	0.00e+00	0	52	104	11114905600	77	24547
2026-01-11 08:36:12.54	316.63	21.62	-52.5	-57.3	3.7	0.00e+00	0	52	104	11114905600	77	23923
2026-01-11 08:36:15.54	317.37	21.16	-53.3	-57.8	3.7	0.00e+00	0	52	104	11114905600	77	25357
2026-01-11 08:36:18.53	318.08	20.70	-53.2	-57.8	3.7	0.00e+00	0	52	104	11114905600	77	25343
2026-01-11 08:36:21.53	318.77	20.25	-53.1	-57.8	3.7	0.00e+00	0	52	104	11114905600	77	25108
2026-01-11 08:36:24.53	319.44	19.80	-52.4	-57.5	3.7	0.00e+00	0	52	104	11114905600	76	25972
2026-01-11 08:36:27.53	320.09	19.37	-52.0	-57.3	3.7	0.00e+00	0	52	104	11114905600	75	26608
2026-01-11 08:36:30.53	320.72	18.93	-52.4	-57.5	3.7	0.00e+00	0	52	104	11114905600	75	27291
2026-01-11 08:36:33.52	321.33	18.51	-53.2	-58.0	3.7	0.00e+00	0	52	104	11114905600	77	25962
2026-01-11 08:36:36.51	321.91	18.09	-53.4	-58.1	3.7	0.00e+00	0	52	104	11114905600	77	26266
2026-01-11 08:36:39.52	322.49	17.68	-53.7	-58.2	3.7	0.00e+00	0	52	104	11114905600	77	26461
2026-01-11 08:36:42.51	323.04	17.28	-52.3	-57.5	3.7	0.00e+00	0	52	104	11114905600	76	25958
2026-01-11 08:36:45.51	323.58	16.88	-52.1	-57.4	3.7	0.00e+00	0	52	104	11114905600	75	27000
2026-01-11 08:36:48.50	324.10	16.49	-53.1	-57.8	3.7	0.00e+00	0	52	104	11114905600	76	26725
2026-01-11 08:36:51.50	324.60	16.10	-53.2	-58.1	3.7	0.00e+00	0	52	104	11114905600	77	25991
2026-01-11 08:36:54.49	325.09	15.72	-52.9	-57.9	3.7	0.00e+00	0	52	104	11114905600	77	25459
2026-01-11 08:36:57.49	325.57	15.35	-51.3	-56.7	3.7	0.00e+00	0	52	104	11114905600	74	26418
2026-01-11 08:37:00.48	326.03	14.98	-50.7	-56.5	3.7	0.00e+00	0	52	104	11114905600	73	27280
2026-01-11 08:37:03.47	326.48	14.62	-51.5	-57.1	3.7	0.00e+00	0	52	104	11114905600	74	27526
2026-01-11 08:37:06.46	326.92	14.26	-51.4	-57.0	3.7	0.00e+00	0	52	104	11114905600	73	29128
2026-01-11 08:37:09.46	327.34	13.91	-52.5	-57.7	3.7	0.00e+00	0	52	104	11114905600	75	28109
2026-01-11 08:37:12.45	327.76	13.57	-52.5	-57.7	3.7	0.00e+00	0	52	104	11114905600	76	26364
2026-01-11 08:37:15.45	328.16	13.22	-52.3	-57.5	3.7	0.00e+00	0	52	104	11114905600	76	25810
2026-01-11 08:37:18.44	328.55	12.89	-53.3	-58.0	3.7	0.00e+00	0	52	104	11114905600	77	25709
2026-01-11 08:37:21.44	328.93	12.56	-52.0	-57.1	3.7	0.00e+00	0	52	104	11114905600	76	24631
2026-01-11 08:37:24.44	329.31	12.23	-51.4	-56.6	3.7	0.00e+00	0	52	104	11114905600	74	26192
2026-01-11 08:37:27.44	329.67	11.91	-52.5	-57.6	3.7	0.00e+00	0	52	104	11114905600	75	27647
2026-01-11 08:37:30.44	330.02	11.60	-52.7	-57.8	3.7	0.00e+00	0	52	104	11114905600	76	26645
2026-01-11 08:37:33.44	330.37	11.29	-52.3	-57.3	3.7	0.00e+00	0	52	104	11114905600	76	25137
2026-01-11 08:37:36.43	330.70	10.98	-52.2	-57.3	3.7	0.00e+00	0	52	104	11114905600	76	25245
2026-01-11 08:37:39.43	331.03	10.68	-53.1	-57.8	3.7	0.00e+00	0	52	104	11114905600	76	26868
2026-01-11 08:37:42.42	331.35	10.38	-52.8	-57.7	3.7	0.00e+00	0	52	104	11114905600	76	26551
2026-01-11 08:37:45.42	331.67	10.09	-53.1	-57.9	3.7	0.00e+00	0	52	104	11114905600	77	25614
2026-01-11 08:37:48.42	331.97	9.80	-52.0	-57.4	3.7	0.00e+00	0	52	104	11114905600	75	26996
2026-01-11 08:37:51.41	332.27	9.51	-51.8	-57.2	3.7	0.00e+00	0	52	104	11114905600	75	26331
2026-01-11 08:37:54.41	332.56	9.23	-52.6	-57.7	3.7	0.00e+00	0	52	104	11114905600	75	27872
2026-01-11 08:37:57.40	332.85	8.95	-52.6	-57.6	3.7	0.00e+00	0	52	104	11114905600	77	24612
2026-01-11 08:38:00.41	333.13	8.68	-53.6	-58.2	3.7	0.00e+00	0	52	104	11114905600	77	26545
2026-01-11 08:38:03.41	333.40	8.40	-53.1	-57.7	3.7	0.00e+00	0	52	104	11114905600	77	24923
2026-01-11 08:38:06.41	333.66	8.14	-53.8	-58.4	3.7	0.00e+00	0	52	104	11114905600	78	25655
2026-01-11 08:38:09.40	333.92	7.87	-53.9	-58.5	3.7	0.00e+00	0	52	104	11114905600	78	25794
2026-01-11 08:38:12.40	334.18	7.61	-54.2	-58.8	3.7	0.00e+00	0	52	104	11114905600	79	25364
2026-01-11 08:38:15.40	334.43	7.35	-54.1	-58.7	3.7	0.00e+00	0	52	104	11114905600	79	24958
2026-01-11 08:38:18.41	334.68	7.10	-54.0	-58.3	3.7	0.00e+00	0	52	104	11114905600	79	23753
2026-01-11 08:38:21.40	334.91	6.85	-53.7	-58.1	3.7	0.00e+00	0	52	104	11114905600	78	24716
2026-01-11 08:38:24.41	335.15	6.60	-53.7	-58.1	3.7	0.00e+00	0	52	104	11114905600	78	24640
2026-01-11 08:38:27.41	335.38	6.35	-53.7	-58.1	3.7	0.00e+00	0	52	104	11114905600	78	24615
2026-01-11 08:38:30.40	335.61	6.11	-53.7	-58.1	3.7	0.00e+00	0	52	104	11114905600	78	24639
2026-01-11 08:38:33.39	335.83	5.87	-53.7	-58.1	3.7	0.00e+00	0	52	104	11114905600	78	24550
2026-01-11 08:38:36.39	336.04	5.63	-53.7	-58.0	3.7	0.00e+00	0	52	104	11114905600	78	24496
2026-01-11 08:38:39.38	336.26	5.40	-53.7	-58.1	3.7	0.00e+00	0	52	104	11114905600	78	24563
2026-01-11 08:38:42.38	336.46	5.17	-53.7	-58.1	3.7	0.00e+00	0	52	104	11114905600	78	24562

#Closed at: 2026-01-11 08:38:45
#Recorded file [11114 MB]: D:/Data/31040_260111_113000.dat