passes_logs/2026/01/11/T1/T1__20260111_235135_FENGYUN_3D_rec.log

#Pass ID: 20260111_235135_FENGYUN 3D
#Satellite: FENGYUN 3D
#Configuration: FENGYUN 3D
#almurnet v.1.7.20251203
#Start time: 2026-01-11 23:51:36

#Version: 2.0.20230620
#Station: T1
#Location: 37.570604 lon 55.790049 lat
#TLE: 1 43010U 17072A   26011.26828046  .00000354  00000+0  18908-3 0  9991
#TLE: 2 43010  98.9936 343.0270 0002205 114.1788 245.9618 14.19695184422722

#Time	Az	El	Level	Level2	SNR	BER	BlckErr	Temp	State	Recorded	gain1	gain2
2026-01-11 23:51:36.91	35.92	5.07	-50.0	-62.2	3.8	8.47e-01	0	39	0	0	72	13963
2026-01-11 23:51:39.89	36.25	5.22	-50.0	-62.3	3.8	8.47e-01	0	40	104	0	71	14881
2026-01-11 23:51:42.87	36.57	5.37	-50.0	-62.2	3.8	8.47e-01	0	40	104	0	71	14867
2026-01-11 23:51:45.85	36.91	5.51	-50.0	-62.2	3.8	8.47e-01	0	40	104	0	71	14836
2026-01-11 23:51:48.83	37.24	5.66	-50.0	-62.2	3.8	8.46e-01	0	40	104	0	71	14858
2026-01-11 23:51:51.81	37.58	5.81	-50.0	-62.2	3.8	8.46e-01	0	40	104	0	71	14806
2026-01-11 23:51:54.79	37.93	5.96	-50.0	-62.2	3.8	8.47e-01	0	40	104	0	71	14836
2026-01-11 23:51:57.77	38.27	6.10	-50.0	-62.2	3.8	8.47e-01	0	40	104	0	71	14802
2026-01-11 23:52:00.75	38.62	6.25	-50.0	-62.2	3.8	8.46e-01	0	40	104	0	71	14786
2026-01-11 23:52:03.73	38.97	6.40	-50.0	-62.2	3.8	8.46e-01	0	40	104	0	71	14765
2026-01-11 23:52:06.71	39.33	6.55	-50.0	-62.2	3.8	8.47e-01	0	40	104	0	71	14769
2026-01-11 23:52:09.69	39.69	6.70	-50.0	-62.2	3.8	8.47e-01	0	40	104	0	71	14731
2026-01-11 23:52:12.67	40.05	6.84	-50.0	-62.1	3.8	8.47e-01	0	41	104	0	71	14657
2026-01-11 23:52:15.65	40.42	6.99	-50.0	-62.2	3.8	8.47e-01	0	41	104	0	71	14850
2026-01-11 23:52:18.63	40.79	7.14	-50.0	-62.2	3.8	8.47e-01	0	41	104	0	71	14826
2026-01-11 23:52:21.61	41.16	7.28	-50.0	-62.2	3.8	8.47e-01	0	41	104	0	71	14808
2026-01-11 23:52:24.59	41.54	7.43	-50.0	-62.1	3.8	8.47e-01	0	41	104	0	71	14703
2026-01-11 23:52:27.57	41.92	7.58	-50.0	-62.0	3.8	8.48e-01	0	41	104	0	71	14501
2026-01-11 23:52:30.55	42.31	7.72	-50.0	-62.1	3.8	8.47e-01	0	41	104	0	71	14610
2026-01-11 23:52:33.53	42.70	7.87	-50.0	-62.2	3.8	8.47e-01	0	41	104	0	71	14756
2026-01-11 23:52:36.51	43.09	8.02	-50.0	-62.2	3.8	8.47e-01	0	41	104	0	71	14803
2026-01-11 23:52:39.49	43.49	8.16	-50.0	-62.1	3.8	8.47e-01	0	41	104	0	71	14629
2026-01-11 23:52:42.47	43.89	8.31	-50.0	-62.1	3.8	8.46e-01	0	41	104	0	71	14597
2026-01-11 23:52:45.45	44.29	8.45	-50.0	-62.2	3.8	8.47e-01	0	41	104	0	71	14727
2026-01-11 23:52:48.43	44.70	8.60	-50.0	-62.1	3.8	8.46e-01	0	41	104	0	71	14679
2026-01-11 23:52:51.42	45.11	8.74	-50.0	-61.9	3.8	8.47e-01	0	42	104	0	71	14310
2026-01-11 23:52:54.40	45.53	8.89	-49.9	-61.5	3.8	8.47e-01	0	41	104	0	71	13697
2026-01-11 23:52:57.38	45.95	9.03	-49.5	-58.6	3.9	8.46e-01	0	42	104	0	71	9743
2026-01-11 23:53:00.45	46.39	9.18	-49.4	-58.0	4.4	7.70e-01	0	42	0	3145728	70	9626
2026-01-11 23:53:03.30	46.79	9.31	-43.9	-46.5	14.4	0.00e+00	0	42	0	12582912	59	4855
2026-01-11 23:53:06.42	47.25	9.46	-43.4	-45.8	15.2	0.00e+00	0	42	0	30408704	58	4727
2026-01-11 23:53:09.26	47.66	9.60	-42.5	-44.8	16.3	0.00e+00	0	42	0	46137344	56	4711
2026-01-11 23:53:12.39	48.13	9.74	-42.3	-44.4	16.6	0.00e+00	0	42	0	63963136	56	4543
2026-01-11 23:53:15.23	48.55	9.88	-42.0	-44.1	16.9	0.00e+00	0	42	0	79691776	56	4352
2026-01-11 23:53:18.47	49.04	10.03	-41.6	-43.7	17.1	0.00e+00	0	42	0	97517568	55	4431
2026-01-11 23:53:21.37	49.48	10.16	-41.6	-43.7	17.2	0.00e+00	0	42	0	114294784	55	4426
2026-01-11 23:53:24.66	49.98	10.31	-41.4	-43.5	17.5	0.00e+00	0	42	0	132120576	54	4547
2026-01-11 23:53:27.46	50.42	10.44	-41.4	-43.5	17.4	0.00e+00	0	42	0	147849216	54	4581
2026-01-11 23:53:30.62	50.91	10.59	-41.5	-43.6	17.3	0.00e+00	0	42	0	166723584	54	4618
2026-01-11 23:53:33.70	51.40	10.72	-41.4	-43.5	17.4	0.00e+00	0	42	0	183500800	54	4573
2026-01-11 23:53:36.54	51.85	10.85	-41.3	-43.4	17.5	0.00e+00	0	42	0	199229440	54	4504
2026-01-11 23:53:39.67	52.35	10.99	-41.3	-43.4	17.3	0.00e+00	0	42	0	217055232	54	4533
2026-01-11 23:53:42.56	52.82	11.12	-41.1	-43.2	17.6	0.00e+00	0	42	0	232783872	54	4397
2026-01-11 23:53:45.62	53.32	11.25	-40.9	-43.0	17.8	0.00e+00	0	42	0	250609664	53	4567
2026-01-11 23:53:49.14	53.90	11.41	-41.0	-43.0	17.8	0.00e+00	0	42	0	270532608	53	4592
2026-01-11 23:53:51.93	54.37	11.53	-41.0	-43.1	17.6	0.00e+00	0	42	0	286261248	53	4627
2026-01-11 23:53:55.21	54.92	11.67	-41.1	-43.2	17.6	0.00e+00	0	42	0	304087040	53	4680
2026-01-11 23:53:57.91	55.37	11.78	-41.1	-43.2	17.6	0.00e+00	0	42	0	319815680	53	4685
2026-01-11 23:54:01.13	55.92	11.91	-41.1	-43.2	17.6	0.00e+00	0	42	0	337641472	53	4676
2026-01-11 23:54:03.97	56.41	12.03	-41.0	-43.1	17.7	0.00e+00	0	42	0	354418688	53	4603
2026-01-11 23:54:07.10	56.96	12.16	-40.9	-42.9	17.9	0.00e+00	0	42	0	371195904	53	4536
2026-01-11 23:54:09.94	57.45	12.27	-40.9	-43.0	17.8	0.00e+00	0	42	0	386924544	53	4571
2026-01-11 23:54:13.07	58.01	12.40	-41.0	-43.1	17.7	0.00e+00	0	42	0	404750336	53	4643
2026-01-11 23:54:16.01	58.53	12.51	-40.8	-42.9	17.9	0.00e+00	0	42	0	421527552	53	4507
2026-01-11 23:54:18.99	59.06	12.63	-40.8	-42.9	17.9	0.00e+00	0	42	0	438304768	53	4496
2026-01-11 23:54:21.98	59.60	12.74	-40.6	-42.5	18.3	0.00e+00	0	42	0	455081984	53	4339
2026-01-11 23:54:24.96	60.15	12.85	-40.8	-42.9	17.9	0.00e+00	0	42	0	471859200	53	4515
2026-01-11 23:54:28.00	60.70	12.96	-40.8	-42.9	17.9	0.00e+00	0	42	0	488636416	53	4515
2026-01-11 23:54:30.98	61.25	13.07	-40.7	-42.8	18.0	0.00e+00	0	42	0	505413632	53	4461
2026-01-11 23:54:33.96	61.81	13.18	-40.5	-42.5	18.3	0.00e+00	0	42	0	522190848	53	4323
2026-01-11 23:54:36.95	62.37	13.28	-40.5	-42.5	18.3	0.00e+00	0	42	0	538968064	52	4567
2026-01-11 23:54:39.93	62.93	13.38	-40.7	-42.7	18.1	0.00e+00	0	42	0	555745280	52	4682
2026-01-11 23:54:42.98	63.51	13.48	-40.6	-42.6	18.1	0.00e+00	0	42	0	573571072	52	4651
2026-01-11 23:54:45.96	64.08	13.58	-40.6	-42.7	18.1	0.00e+00	0	42	0	590348288	52	4662
2026-01-11 23:54:48.95	64.65	13.68	-40.6	-42.6	18.1	0.00e+00	0	42	0	607125504	52	4640
2026-01-11 23:54:51.93	65.23	13.77	-40.5	-42.5	18.3	0.00e+00	0	42	0	623902720	52	4562
2026-01-11 23:54:54.92	65.81	13.86	-40.5	-42.5	18.3	0.00e+00	0	42	0	640679936	52	4569
2026-01-11 23:54:57.91	66.40	13.95	-40.5	-42.5	18.3	0.00e+00	0	42	0	657457152	52	4559
2026-01-11 23:55:00.86	66.98	14.03	-40.2	-42.1	18.6	0.00e+00	0	42	0	673185792	52	4374
2026-01-11 23:55:03.95	67.59	14.12	-40.2	-42.2	18.6	0.00e+00	0	42	0	691011584	52	4397
2026-01-11 23:55:06.80	68.16	14.20	-40.3	-42.3	18.5	0.00e+00	0	42	0	706740224	52	4480
2026-01-11 23:55:09.92	68.78	14.28	-40.3	-42.3	18.5	0.00e+00	0	42	0	724566016	52	4474
2026-01-11 23:55:12.77	69.36	14.35	-40.4	-42.4	18.4	0.00e+00	0	42	0	741343232	52	4501
2026-01-11 23:55:16.07	70.03	14.43	-40.2	-42.1	18.6	0.00e+00	0	42	0	759169024	52	4390
2026-01-11 23:55:18.91	70.60	14.50	-40.2	-42.3	18.5	0.00e+00	0	42	0	774897664	52	4447
2026-01-11 23:55:22.04	71.24	14.57	-40.5	-42.5	18.3	0.00e+00	0	42	0	792723456	52	4577
2026-01-11 23:55:24.88	71.83	14.63	-40.5	-42.6	18.2	0.00e+00	0	42	0	809500672	52	4614
2026-01-11 23:55:28.01	72.47	14.69	-40.3	-42.3	18.5	0.00e+00	0	42	0	826277888	52	4453
2026-01-11 23:55:30.85	73.06	14.75	-40.1	-42.1	18.7	0.00e+00	0	42	0	842006528	52	4355
2026-01-11 23:55:34.02	73.72	14.81	-40.3	-42.3	18.5	0.00e+00	0	42	0	860880896	52	4461
2026-01-11 23:55:36.87	74.31	14.86	-40.3	-42.3	18.5	0.00e+00	0	42	0	876609536	52	4465
2026-01-11 23:55:40.10	74.99	14.91	-40.1	-42.0	18.7	0.00e+00	0	42	0	894435328	52	4337
2026-01-11 23:55:42.95	75.58	14.96	-40.1	-42.1	18.7	0.00e+00	0	42	0	910163968	52	4347
2026-01-11 23:55:46.02	76.23	15.00	-40.0	-41.9	18.9	0.00e+00	0	42	0	927989760	51	4543
2026-01-11 23:55:49.00	76.86	15.04	-40.0	-42.0	18.9	0.00e+00	0	42	0	944766976	51	4553
2026-01-11 23:55:51.99	77.49	15.08	-40.2	-42.1	18.7	0.00e+00	0	42	0	961544192	51	4650
2026-01-11 23:55:54.97	78.12	15.11	-40.2	-42.2	18.7	0.00e+00	0	42	0	978321408	51	4680
2026-01-11 23:55:57.96	78.76	15.14	-40.2	-42.2	18.7	0.00e+00	0	42	0	995098624	51	4690
2026-01-11 23:56:00.94	79.39	15.17	-40.3	-42.3	18.6	0.00e+00	0	42	0	1011875840	51	4711
2026-01-11 23:56:03.92	80.03	15.19	-40.3	-42.3	18.6	0.00e+00	0	42	0	1028653056	51	4720
2026-01-11 23:56:06.91	80.67	15.21	-40.2	-42.2	18.6	0.00e+00	0	43	0	1045430272	51	4695
2026-01-11 23:56:09.90	81.31	15.23	-40.3	-42.3	18.6	0.00e+00	0	42	0	1062207488	51	4713
2026-01-11 23:56:12.90	81.95	15.24	-40.1	-42.1	18.8	0.00e+00	0	42	0	1078984704	51	4618
2026-01-11 23:56:15.88	82.59	15.26	-40.2	-42.2	18.7	0.00e+00	0	43	0	1095761920	51	4662
2026-01-11 23:56:18.87	83.23	15.26	-40.3	-42.3	18.6	0.00e+00	0	42	0	1112539136	51	4725
2026-01-11 23:56:21.85	83.87	15.27	-40.3	-42.3	18.5	0.00e+00	0	42	0	1129316352	51	4753
2026-01-11 23:56:24.83	84.51	15.27	-40.2	-42.3	18.6	0.00e+00	0	42	0	1146093568	51	4733
2026-01-11 23:56:27.83	85.15	15.26	-40.3	-42.4	18.5	0.00e+00	0	42	0	1162870784	51	4762
2026-01-11 23:56:30.96	85.83	15.26	-40.4	-42.4	18.5	0.00e+00	0	42	0	1180696576	51	4782
2026-01-11 23:56:33.80	86.44	15.25	-40.1	-42.1	18.8	0.00e+00	0	42	0	1196425216	51	4616
2026-01-11 23:56:36.93	87.11	15.24	-40.2	-42.2	18.6	0.00e+00	0	42	0	1214251008	51	4703
2026-01-11 23:56:39.76	87.71	15.22	-40.2	-42.2	18.6	0.00e+00	0	42	0	1229979648	51	4700
2026-01-11 23:56:42.89	88.38	15.20	-40.4	-42.4	18.5	0.00e+00	0	42	0	1247805440	51	4786
2026-01-11 23:56:45.84	89.01	15.18	-40.2	-42.2	18.6	0.00e+00	0	42	0	1264582656	51	4705
2026-01-11 23:56:49.10	89.71	15.15	-40.3	-42.3	18.5	0.00e+00	0	43	0	1282408448	51	4749
2026-01-11 23:56:52.30	90.39	15.12	-40.3	-42.3	18.6	0.00e+00	0	42	0	1300234240	51	4708
2026-01-11 23:56:55.14	90.99	15.08	-40.3	-42.3	18.6	0.00e+00	0	43	0	1317011456	51	4727
2026-01-11 23:56:58.27	91.66	15.05	-40.4	-42.4	18.4	0.00e+00	0	42	0	1334837248	51	4792
2026-01-11 23:57:01.11	92.26	15.01	-40.4	-42.4	18.5	0.00e+00	0	43	0	1350565888	51	4780
2026-01-11 23:57:04.24	92.92	14.96	-40.6	-42.6	18.3	0.00e+00	0	43	0	1367343104	51	4891
2026-01-11 23:57:07.08	93.51	14.92	-40.4	-42.4	18.4	0.00e+00	0	43	0	1384120320	51	4802
2026-01-11 23:57:10.21	94.17	14.87	-40.4	-42.4	18.4	0.00e+00	0	42	0	1400897536	51	4794
2026-01-11 23:57:13.05	94.77	14.82	-40.4	-42.4	18.4	0.00e+00	0	43	0	1417674752	51	4800
2026-01-11 23:57:16.28	95.44	14.76	-40.6	-42.7	18.2	0.00e+00	0	42	0	1435500544	51	4928
2026-01-11 23:57:19.18	96.04	14.70	-40.6	-42.7	18.2	0.00e+00	0	43	0	1452277760	52	4655
2026-01-11 23:57:22.50	96.73	14.64	-40.7	-42.7	18.1	0.00e+00	0	43	0	1470103552	52	4705
2026-01-11 23:57:25.29	97.30	14.58	-40.7	-42.7	18.1	0.00e+00	0	43	0	1485832192	52	4695
2026-01-11 23:57:28.59	97.98	14.50	-40.6	-42.6	18.2	0.00e+00	0	43	0	1504706560	52	4637
2026-01-11 23:57:31.32	98.53	14.44	-40.5	-42.5	18.3	0.00e+00	0	43	0	1520435200	52	4593
2026-01-11 23:57:34.60	99.20	14.36	-40.6	-42.6	18.2	0.00e+00	0	43	0	1538260992	52	4626
2026-01-11 23:57:37.35	99.76	14.29	-40.6	-42.6	18.2	0.00e+00	0	42	0	1553989632	52	4632
2026-01-11 23:57:40.64	100.42	14.20	-40.6	-42.7	18.1	0.00e+00	0	42	0	1572864000	52	4652
2026-01-11 23:57:43.34	100.96	14.13	-40.7	-42.7	18.1	0.00e+00	0	42	0	1587544064	52	4699
2026-01-11 23:57:46.74	101.63	14.03	-40.7	-42.7	18.0	0.00e+00	0	42	0	1606418432	52	4698
2026-01-11 23:57:49.45	102.17	13.95	-40.7	-42.7	18.1	0.00e+00	0	43	0	1622147072	52	4685
2026-01-11 23:57:52.72	102.81	13.86	-40.6	-42.7	18.1	0.00e+00	0	43	0	1641021440	52	4655
2026-01-11 23:57:55.69	103.39	13.77	-40.7	-42.8	18.0	0.00e+00	0	42	0	1656750080	52	4710
2026-01-11 23:57:59.05	104.05	13.66	-40.9	-42.9	17.9	0.00e+00	0	42	0	1675624448	52	4804
2026-01-11 23:58:01.98	104.61	13.57	-40.8	-42.8	18.0	0.00e+00	0	42	0	1692401664	52	4753
2026-01-11 23:58:05.25	105.24	13.46	-40.8	-42.9	17.9	0.00e+00	0	42	0	1711276032	52	4789
2026-01-11 23:58:07.96	105.75	13.37	-40.9	-43.0	17.8	0.00e+00	0	42	0	1725956096	52	4857
2026-01-11 23:58:11.28	106.38	13.25	-41.0	-43.1	17.7	0.00e+00	0	43	0	1744830464	52	4912
2026-01-11 23:58:14.26	106.94	13.15	-41.1	-43.2	17.6	0.00e+00	0	42	0	1761607680	52	4939
2026-01-11 23:58:17.75	107.59	13.02	-40.9	-43.0	17.8	0.00e+00	0	43	0	1781530624	52	4824
2026-01-11 23:58:20.48	108.10	12.92	-40.9	-42.9	17.8	0.00e+00	0	43	0	1796210688	52	4812
2026-01-11 23:58:23.76	108.70	12.80	-41.0	-43.1	17.7	0.00e+00	0	43	0	1815085056	52	4875
2026-01-11 23:58:26.49	109.20	12.70	-41.1	-43.3	17.5	0.00e+00	0	43	0	1830813696	52	4985
2026-01-11 23:58:29.76	109.79	12.57	-41.0	-43.1	17.7	0.00e+00	0	42	0	1848639488	53	4650
2026-01-11 23:58:32.49	110.28	12.46	-41.1	-43.2	17.6	0.00e+00	0	43	0	1864368128	53	4659
2026-01-11 23:58:35.71	110.86	12.34	-41.1	-43.2	17.6	0.00e+00	0	42	0	1882193920	53	4660
2026-01-11 23:58:38.70	111.38	12.22	-41.1	-43.3	17.5	0.00e+00	0	43	0	1898971136	53	4710
2026-01-11 23:58:41.69	111.91	12.10	-41.2	-43.4	17.4	0.00e+00	0	43	0	1915748352	53	4779
2026-01-11 23:58:44.64	112.42	11.97	-41.4	-43.5	17.3	0.00e+00	0	43	0	1932525568	53	4856
2026-01-11 23:58:48.00	113.00	11.83	-41.4	-43.5	17.3	0.00e+00	0	43	0	1951399936	53	4860
2026-01-11 23:58:50.71	113.46	11.72	-41.4	-43.5	17.3	0.00e+00	0	43	0	1967128576	53	4849
2026-01-11 23:58:53.98	114.02	11.58	-41.5	-43.6	17.1	0.00e+00	0	43	0	1984954368	53	4908
2026-01-11 23:58:56.73	114.48	11.46	-41.6	-43.7	17.1	0.00e+00	0	43	0	2000683008	53	4969
2026-01-11 23:59:00.06	115.04	11.32	-41.6	-43.7	17.1	0.00e+00	0	43	0	2019557376	53	4970
2026-01-11 23:59:03.04	115.53	11.18	-41.6	-43.8	17.0	0.00e+00	0	43	0	2036334592	53	5007
2026-01-11 23:59:06.03	116.02	11.05	-41.6	-43.8	16.9	0.00e+00	0	43	0	2053111808	54	4757
2026-01-11 23:59:09.01	116.50	10.92	-41.7	-43.9	16.9	0.00e+00	0	43	0	2069889024	54	4763
2026-01-11 23:59:12.00	116.98	10.78	-41.6	-43.8	17.0	0.00e+00	0	43	0	2086666240	54	4720
2026-01-11 23:59:14.98	117.46	10.65	-41.6	-43.9	16.9	0.00e+00	0	43	0	2103443456	54	4761
2026-01-11 23:59:17.96	117.93	10.51	-41.7	-43.9	16.9	0.00e+00	0	43	0	2120220672	54	4768
2026-01-11 23:59:20.94	118.40	10.37	-41.8	-44.0	16.8	0.00e+00	0	43	0	2136997888	54	4839
2026-01-11 23:59:23.94	118.86	10.23	-41.8	-44.0	16.8	0.00e+00	0	42	0	2153775104	54	4829
2026-01-11 23:59:26.99	119.33	10.09	-41.8	-44.0	16.7	0.00e+00	0	43	0	2170552320	54	4854
2026-01-11 23:59:29.98	119.79	9.95	-42.0	-44.2	16.5	0.00e+00	0	43	0	2187329536	54	4943
2026-01-11 23:59:32.96	120.24	9.81	-42.0	-44.2	16.5	0.00e+00	0	43	0	2204106752	54	4976
2026-01-11 23:59:35.95	120.68	9.67	-42.1	-44.3	16.4	0.00e+00	0	43	0	2220883968	54	5024
2026-01-11 23:59:38.93	121.13	9.53	-42.1	-44.4	16.3	0.00e+00	0	42	0	2237661184	54	5081
2026-01-11 23:59:41.92	121.56	9.38	-42.2	-44.5	16.2	0.00e+00	0	43	0	2254438400	55	4859
2026-01-11 23:59:44.99	122.01	9.24	-42.2	-44.5	16.1	0.00e+00	0	42	0	2272264192	55	4866
2026-01-11 23:59:47.83	122.42	9.10	-42.2	-44.5	16.2	0.00e+00	0	43	0	2287992832	55	4862
2026-01-11 23:59:50.95	122.86	8.95	-50.5	-62.4	3.8	8.47e-01	0	43	104	2299527168	71	15099
2026-01-11 23:59:53.79	123.27	8.81	-50.6	-62.8	3.8	8.48e-01	0	43	104	2299527168	71	15845
2026-01-11 23:59:56.91	123.70	8.66	-50.7	-62.9	3.8	8.47e-01	0	43	104	2299527168	72	15100
2026-01-11 23:59:59.75	124.10	8.52	-50.7	-62.9	3.8	8.47e-01	0	43	104	2299527168	72	15124
2026-01-12 00:00:02.87	124.52	8.36	-50.5	-62.9	3.8	8.47e-01	0	43	104	2299527168	72	15156
2026-01-12 00:00:05.71	124.91	8.22	-50.4	-62.9	3.8	8.47e-01	0	43	104	2299527168	72	15181
2026-01-12 00:00:08.83	125.33	8.07	-50.5	-62.9	3.8	8.47e-01	0	43	104	2299527168	72	15210
2026-01-12 00:00:11.67	125.71	7.93	-50.6	-62.9	3.8	8.47e-01	0	43	104	2299527168	72	15149
2026-01-12 00:00:14.79	126.12	7.78	-50.6	-62.9	3.8	8.47e-01	0	43	104	2299527168	72	15104
2026-01-12 00:00:17.63	126.49	7.63	-50.6	-62.9	3.8	8.46e-01	0	43	104	2299527168	72	15068
2026-01-12 00:00:20.75	126.89	7.48	-50.6	-62.9	3.8	8.46e-01	0	43	104	2299527168	72	15061
2026-01-12 00:00:23.59	127.26	7.34	-50.6	-62.8	3.8	8.47e-01	0	43	104	2299527168	72	15035
2026-01-12 00:00:26.71	127.65	7.18	-50.6	-62.8	3.8	8.47e-01	0	43	104	2299527168	72	15042
2026-01-12 00:00:29.55	128.01	7.04	-50.6	-62.8	3.8	8.46e-01	0	43	104	2299527168	72	15042
2026-01-12 00:00:32.67	128.40	6.88	-50.6	-62.8	3.8	8.47e-01	0	43	104	2299527168	72	15042
2026-01-12 00:00:35.51	128.75	6.74	-50.6	-62.8	3.8	8.47e-01	0	43	104	2299527168	72	15039
2026-01-12 00:00:38.63	129.13	6.59	-50.6	-62.9	3.8	8.47e-01	0	43	104	2299527168	72	15075
2026-01-12 00:00:41.47	129.47	6.44	-50.6	-62.8	3.8	8.47e-01	0	43	104	2299527168	72	15044
2026-01-12 00:00:44.59	129.84	6.29	-50.6	-62.9	3.8	8.47e-01	0	43	104	2299527168	72	15062
2026-01-12 00:00:47.43	130.18	6.14	-50.6	-62.9	3.8	8.47e-01	0	43	104	2299527168	72	15074
2026-01-12 00:00:50.55	130.54	5.99	-50.6	-62.8	3.8	8.47e-01	0	43	104	2299527168	72	15000
2026-01-12 00:00:53.39	130.87	5.85	-50.6	-62.8	3.8	8.47e-01	0	43	104	2299527168	72	15012
2026-01-12 00:00:56.51	131.23	5.69	-50.6	-62.8	3.8	8.46e-01	0	43	104	2299527168	72	15033
2026-01-12 00:00:59.35	131.56	5.55	-50.6	-62.8	3.8	8.47e-01	0	43	104	2299527168	72	14985
2026-01-12 00:01:02.47	131.91	5.39	-50.6	-62.8	3.8	8.46e-01	0	43	104	2299527168	72	14974
2026-01-12 00:01:05.31	132.22	5.25	-50.6	-62.8	3.8	8.46e-01	0	43	104	2299527168	72	14979
2026-01-12 00:01:08.43	132.57	5.09	-50.6	-62.8	3.8	8.46e-01	0	43	104	2299527168	72	15011

#Closed at: 2026-01-12 00:01:11
#Recorded file [2299 MB]: D:/Data/31040_260112_025136.dat