passes_logs/2026/01/11/T1/T1__20260111_065645_KHAYYAM_rec.log

#Pass ID: 20260111_065645_KHAYYAM
#Satellite: KHAYYAM
#Configuration: KHAYYAM_480M
#almurnet v.1.7.20251203
#Start time: 2026-01-11 06:56:46

#Version: 2.0.20230620
#Station: T1
#Location: 37.570604 lon 55.790049 lat
#TLE: 1 53370U 22096A   26009.96900081  .00005797  00000+0  23664-3 0  9998
#TLE: 2 53370  97.3557 277.0694 0001291  96.0659 264.0726 15.24786278190477

#Time	Az	El	Level	Level2	SNR	BER	BlckErr	Temp	State	Recorded	gain1	gain2
2026-01-11 06:56:46.34	128.01	5.08	-52.8	-57.3	3.6	0.00e+00	0	42	0	0	77	23724
2026-01-11 06:56:48.34	127.83	5.22	-52.8	-57.3	3.7	0.00e+00	0	42	104	0	76	25096
2026-01-11 06:56:50.35	127.65	5.38	-52.8	-57.2	3.7	0.00e+00	0	43	104	0	76	25083
2026-01-11 06:56:52.36	127.46	5.53	-52.8	-57.3	3.7	0.00e+00	0	42	104	0	76	25108
2026-01-11 06:56:54.37	127.27	5.68	-52.8	-57.3	3.7	0.00e+00	0	42	104	0	76	25199
2026-01-11 06:56:56.38	127.08	5.84	-52.8	-57.2	3.7	0.00e+00	0	43	104	0	76	25052
2026-01-11 06:56:58.39	126.89	5.99	-52.8	-57.3	3.7	0.00e+00	0	43	104	0	76	25156
2026-01-11 06:57:00.39	126.69	6.15	-52.8	-57.3	3.7	0.00e+00	0	43	104	0	76	25136
2026-01-11 06:57:02.40	126.49	6.30	-52.8	-57.3	3.7	0.00e+00	0	43	104	0	76	25115
2026-01-11 06:57:04.41	126.29	6.46	-52.8	-57.2	3.7	0.00e+00	0	44	104	0	76	25093
2026-01-11 06:57:06.42	126.08	6.62	-52.8	-57.3	3.7	0.00e+00	0	44	104	0	76	25105
2026-01-11 06:57:08.43	125.87	6.78	-52.8	-57.3	3.7	0.00e+00	0	43	104	0	76	25120
2026-01-11 06:57:10.44	125.66	6.94	-52.8	-57.2	3.7	0.00e+00	0	44	104	0	76	25072
2026-01-11 06:57:12.44	125.45	7.10	-52.8	-57.2	3.7	0.00e+00	0	44	104	0	76	25080
2026-01-11 06:57:14.45	125.23	7.27	-52.8	-57.2	3.7	0.00e+00	0	44	104	0	76	25074
2026-01-11 06:57:16.46	125.01	7.43	-52.8	-57.2	3.7	0.00e+00	0	44	104	0	76	25090
2026-01-11 06:57:18.47	124.79	7.60	-52.8	-57.3	3.7	0.00e+00	0	44	104	0	76	25095
2026-01-11 06:57:20.48	124.56	7.76	-52.8	-57.2	3.7	0.00e+00	0	45	104	0	76	25092
2026-01-11 06:57:22.49	124.33	7.93	-52.8	-57.3	3.7	0.00e+00	0	44	104	0	76	25100
2026-01-11 06:57:24.49	124.10	8.10	-52.8	-57.3	3.7	0.00e+00	0	45	104	0	76	25108
2026-01-11 06:57:26.50	123.86	8.27	-52.7	-57.2	3.7	0.00e+00	0	45	104	0	76	24903
2026-01-11 06:57:28.51	123.62	8.44	-52.7	-57.0	3.7	0.00e+00	0	45	104	0	76	24511
2026-01-11 06:57:30.52	123.37	8.61	-52.7	-57.1	3.7	0.00e+00	0	45	104	0	76	24609
2026-01-11 06:57:32.53	123.13	8.78	-52.7	-57.2	3.7	0.00e+00	0	45	104	0	76	24822
2026-01-11 06:57:34.54	122.87	8.96	-52.8	-57.2	3.7	0.00e+00	0	45	104	0	76	25064
2026-01-11 06:57:36.54	122.62	9.13	-52.8	-57.3	3.7	0.00e+00	0	45	104	0	76	25224
2026-01-11 06:57:38.55	122.36	9.31	-52.8	-57.2	3.7	0.00e+00	0	45	104	0	76	25052
2026-01-11 06:57:40.56	122.10	9.49	-52.7	-57.2	3.7	0.00e+00	0	45	104	0	76	24861
2026-01-11 06:57:42.56	121.83	9.67	-52.8	-57.2	3.7	0.00e+00	0	45	104	0	76	25019
2026-01-11 06:57:44.57	121.56	9.85	-52.8	-57.1	3.7	0.00e+00	0	46	104	0	76	24772
2026-01-11 06:57:46.58	121.28	10.03	-52.9	-57.3	3.7	0.00e+00	0	46	104	0	76	25159
2026-01-11 06:57:48.58	121.00	10.21	-52.9	-57.3	3.7	0.00e+00	0	45	104	0	76	25228
2026-01-11 06:57:50.59	120.71	10.40	-52.9	-57.3	3.7	0.00e+00	0	46	104	0	76	25248
2026-01-11 06:57:52.55	120.43	10.58	-52.9	-57.4	3.7	0.00e+00	0	46	104	0	76	25455
2026-01-11 06:57:54.65	120.12	10.78	-53.0	-57.5	3.7	0.00e+00	0	46	104	0	76	25722
2026-01-11 06:57:56.66	119.82	10.96	-53.0	-57.5	3.7	0.00e+00	0	46	104	0	76	25751
2026-01-11 06:57:58.66	119.52	11.15	-53.1	-57.5	3.7	0.00e+00	0	46	104	0	76	25799
2026-01-11 06:58:00.67	119.21	11.35	-53.0	-57.5	3.7	0.00e+00	0	46	104	0	76	25758
2026-01-11 06:58:02.67	118.90	11.54	-53.1	-57.5	3.7	0.00e+00	0	46	104	0	76	25759
2026-01-11 06:58:04.68	118.58	11.73	-53.1	-57.5	3.7	0.00e+00	0	46	104	0	76	25860
2026-01-11 06:58:06.66	118.26	11.92	-53.2	-57.6	3.7	0.00e+00	0	46	104	0	76	26025
2026-01-11 06:58:08.68	117.93	12.12	-53.1	-57.5	3.7	0.00e+00	0	46	104	0	77	24370
2026-01-11 06:58:10.69	117.59	12.32	-53.1	-57.5	3.7	0.00e+00	0	46	104	0	77	24508
2026-01-11 06:58:12.70	117.25	12.52	-53.0	-57.5	3.7	0.00e+00	0	46	104	0	77	24503
2026-01-11 06:58:14.70	116.91	12.72	-53.0	-57.5	3.7	0.00e+00	0	46	104	0	77	24476
2026-01-11 06:58:16.71	116.55	12.92	-53.1	-57.6	3.7	0.00e+00	0	46	104	0	77	24569
2026-01-11 06:58:18.76	116.19	13.13	-53.1	-57.5	3.7	0.00e+00	0	46	104	0	77	24502
2026-01-11 06:58:20.99	115.78	13.35	-53.2	-57.6	3.7	0.00e+00	0	46	104	0	77	24695
2026-01-11 06:58:23.00	115.41	13.56	-53.2	-57.5	3.7	0.00e+00	0	46	104	0	77	24481
2026-01-11 06:58:25.01	115.03	13.76	-53.2	-57.6	3.7	0.00e+00	0	47	104	0	77	24740
2026-01-11 06:58:27.01	114.65	13.97	-53.3	-57.7	3.7	0.00e+00	0	46	104	0	77	24874
2026-01-11 06:58:29.02	114.26	14.18	-53.1	-57.6	3.7	0.00e+00	0	47	104	0	77	24734
2026-01-11 06:58:31.04	113.86	14.39	-53.3	-57.7	3.7	0.00e+00	0	47	104	0	77	24992
2026-01-11 06:58:33.05	113.45	14.60	-53.2	-57.7	3.7	0.00e+00	0	46	104	0	77	24882
2026-01-11 06:58:35.18	113.02	14.83	-53.3	-57.7	3.7	0.00e+00	0	47	104	0	77	24918
2026-01-11 06:58:37.50	112.53	15.08	-53.0	-57.6	3.7	0.00e+00	0	47	104	0	77	24704
2026-01-11 06:58:39.86	112.03	15.33	-53.0	-57.6	3.7	0.00e+00	0	47	104	0	77	24524
2026-01-11 06:58:42.02	111.56	15.56	-52.8	-57.5	3.7	0.00e+00	0	47	104	0	77	24328
2026-01-11 06:58:44.17	111.08	15.80	-52.8	-57.5	3.7	0.00e+00	0	47	104	0	77	24497
2026-01-11 06:58:46.34	110.59	16.03	-52.9	-57.6	3.7	0.00e+00	0	47	104	0	77	24673
2026-01-11 06:58:48.51	110.09	16.27	-52.9	-57.6	3.7	0.00e+00	0	47	104	0	77	24728
2026-01-11 06:58:51.07	109.49	16.55	-52.9	-57.6	3.7	0.00e+00	0	47	104	0	77	24699
2026-01-11 06:58:53.25	108.97	16.80	-53.2	-57.8	3.7	0.00e+00	0	47	104	0	77	25178
2026-01-11 06:58:55.41	108.44	17.04	-53.2	-57.7	3.7	0.00e+00	0	47	104	0	77	25060
2026-01-11 06:58:57.57	107.90	17.28	-53.3	-57.8	3.7	0.00e+00	0	47	104	0	77	25270
2026-01-11 06:58:59.92	107.31	17.54	-53.3	-57.8	3.7	0.00e+00	0	47	104	0	77	25215
2026-01-11 06:59:02.08	106.75	17.78	-53.2	-57.8	3.7	0.00e+00	0	47	104	0	77	25109
2026-01-11 06:59:04.08	106.22	18.01	-53.2	-57.7	3.7	0.00e+00	0	47	104	0	77	25011
2026-01-11 06:59:06.28	105.63	18.25	-53.1	-57.6	3.7	0.00e+00	0	47	104	0	77	24786
2026-01-11 06:59:08.29	105.08	18.48	-53.0	-57.6	3.7	0.00e+00	0	47	104	0	77	24758
2026-01-11 06:59:10.46	104.47	18.72	-53.4	-57.9	3.7	0.00e+00	0	47	104	0	77	25461
2026-01-11 06:59:12.67	103.85	18.97	-53.3	-57.8	3.7	0.00e+00	0	47	104	0	77	25166
2026-01-11 06:59:14.60	103.29	19.19	-53.2	-57.7	3.7	0.00e+00	0	47	104	0	77	24948
2026-01-11 06:59:16.61	102.70	19.42	-53.3	-57.7	3.7	0.00e+00	0	47	104	0	77	25033
2026-01-11 06:59:18.61	102.10	19.64	-53.4	-57.8	3.7	0.00e+00	0	47	104	0	77	25313
2026-01-11 06:59:20.62	101.49	19.87	-53.4	-57.7	3.7	0.00e+00	0	47	104	0	77	24984
2026-01-11 06:59:22.64	100.87	20.10	-53.3	-57.6	3.7	0.00e+00	0	47	104	0	77	24707
2026-01-11 06:59:24.73	100.21	20.33	-53.4	-57.8	3.7	0.00e+00	0	47	104	0	77	25207
2026-01-11 06:59:26.74	99.56	20.56	-53.4	-57.8	3.7	0.00e+00	0	47	104	0	77	25315
2026-01-11 06:59:28.81	98.89	20.79	-53.0	-57.2	3.7	0.00e+00	0	47	104	0	77	23564
2026-01-11 06:59:30.85	98.21	21.01	-52.8	-57.1	3.7	0.00e+00	0	47	104	0	77	23200
2026-01-11 06:59:32.85	97.54	21.23	-53.0	-57.3	3.7	0.00e+00	0	47	104	0	77	23952
2026-01-11 06:59:34.86	96.85	21.45	-53.4	-57.9	3.7	0.00e+00	0	47	104	0	77	25411
2026-01-11 06:59:36.86	96.16	21.67	-53.2	-57.6	3.7	0.00e+00	0	47	104	0	77	24588
2026-01-11 06:59:38.87	95.45	21.89	-53.1	-57.4	3.7	0.00e+00	0	47	104	0	77	24068
2026-01-11 06:59:40.87	94.73	22.10	-53.0	-57.5	3.7	0.00e+00	0	47	104	0	77	24397
2026-01-11 06:59:42.88	94.00	22.31	-52.8	-57.2	3.7	0.00e+00	0	47	104	0	77	23452
2026-01-11 06:59:44.88	93.26	22.52	-53.1	-57.3	3.7	0.00e+00	0	47	104	0	77	23781
2026-01-11 06:59:46.89	92.50	22.73	-52.8	-56.9	3.7	0.00e+00	0	47	104	0	77	22875
2026-01-11 06:59:48.90	91.73	22.93	-52.5	-56.3	3.7	0.00e+00	0	47	104	0	76	22604
2026-01-11 06:59:50.90	90.96	23.13	-53.0	-57.2	3.7	0.00e+00	0	48	104	0	76	24813
2026-01-11 06:59:52.91	90.17	23.33	-52.9	-57.4	3.7	0.00e+00	0	47	104	0	77	24016
2026-01-11 06:59:54.95	89.36	23.53	-52.5	-56.9	3.7	0.00e+00	0	47	104	0	76	24177
2026-01-11 06:59:56.95	88.55	23.72	-52.9	-57.4	3.7	0.00e+00	0	48	104	0	76	25543
2026-01-11 06:59:58.99	87.72	23.91	-53.2	-57.8	3.7	0.00e+00	0	48	104	0	77	25316
2026-01-11 07:00:00.92	86.92	24.08	-52.4	-57.3	3.7	0.00e+00	0	48	104	0	76	25276
2026-01-11 07:00:03.21	85.95	24.29	-52.1	-56.8	3.7	0.00e+00	0	47	104	0	76	23811
2026-01-11 07:00:05.24	85.09	24.46	-52.2	-56.9	3.7	0.00e+00	0	48	104	0	76	24105
2026-01-11 07:00:07.25	84.22	24.63	-52.4	-57.3	3.7	0.00e+00	0	47	104	0	76	25359
2026-01-11 07:00:09.26	83.34	24.79	-52.5	-57.5	3.7	0.00e+00	0	48	104	0	76	25958
2026-01-11 07:00:11.26	82.46	24.95	-52.8	-57.5	3.7	0.00e+00	0	48	104	0	76	25931
2026-01-11 07:00:13.27	81.56	25.10	-52.9	-57.6	3.7	0.00e+00	0	48	104	0	76	26126
2026-01-11 07:00:15.28	80.66	25.24	-53.1	-57.8	3.7	0.00e+00	0	47	104	0	76	26798
2026-01-11 07:00:17.29	79.74	25.38	-53.4	-58.0	3.7	0.00e+00	0	47	104	0	77	25746
2026-01-11 07:00:19.30	78.82	25.51	-53.1	-57.5	3.7	0.00e+00	0	48	104	0	77	24506
2026-01-11 07:00:21.71	77.70	25.66	-53.2	-57.6	3.7	0.00e+00	0	48	104	0	77	24574
2026-01-11 07:00:23.72	76.76	25.78	-53.3	-57.7	3.7	0.00e+00	0	48	104	0	77	24986
2026-01-11 07:00:25.73	75.81	25.89	-53.1	-57.6	3.7	0.00e+00	0	48	104	0	77	24713
2026-01-11 07:00:27.73	74.86	25.99	-53.2	-57.6	3.7	0.00e+00	0	48	104	0	77	24669
2026-01-11 07:00:29.93	73.80	26.10	-53.3	-57.6	3.7	0.00e+00	0	48	104	0	77	24695
2026-01-11 07:00:32.16	72.73	26.19	-53.4	-57.8	3.7	0.00e+00	0	48	104	0	77	25160
2026-01-11 07:00:34.23	71.72	26.27	-53.5	-57.8	3.7	0.00e+00	0	48	104	0	77	25216
2026-01-11 07:00:36.23	70.75	26.34	-53.3	-57.7	3.7	0.00e+00	0	48	104	0	77	24866
2026-01-11 07:00:38.24	69.76	26.41	-53.6	-58.1	3.7	0.00e+00	0	48	104	0	77	26066
2026-01-11 07:00:40.25	68.77	26.46	-53.7	-58.1	3.7	0.00e+00	0	48	104	0	77	26255
2026-01-11 07:00:42.25	67.79	26.50	-53.5	-57.9	3.7	0.00e+00	0	48	104	0	77	25395
2026-01-11 07:00:44.29	66.78	26.54	-53.5	-57.9	3.7	0.00e+00	0	48	104	0	77	25424
2026-01-11 07:00:46.30	65.78	26.57	-53.5	-58.0	3.7	0.00e+00	0	48	104	0	77	25792
2026-01-11 07:00:48.30	64.79	26.59	-53.5	-58.0	3.7	0.00e+00	0	48	104	0	77	25841
2026-01-11 07:00:50.23	63.83	26.59	-53.5	-57.9	3.7	0.00e+00	0	48	104	0	77	25548
2026-01-11 07:00:52.28	62.81	26.60	-53.4	-57.9	3.7	0.00e+00	0	48	104	0	77	25419
2026-01-11 07:00:54.29	61.81	26.59	-53.2	-57.6	3.7	0.00e+00	0	48	104	0	77	24665
2026-01-11 07:00:56.29	60.81	26.57	-53.2	-57.7	3.7	0.00e+00	0	48	104	0	77	24811
2026-01-11 07:00:58.30	59.82	26.55	-53.3	-57.5	3.7	0.00e+00	0	48	104	0	77	24370
2026-01-11 07:01:00.35	58.80	26.51	-53.1	-57.4	3.7	0.00e+00	0	48	104	0	77	24001
2026-01-11 07:01:02.36	57.81	26.47	-53.5	-58.0	3.6	0.00e+00	0	48	104	0	77	25824
2026-01-11 07:01:04.49	56.76	26.42	-53.6	-58.1	3.7	0.00e+00	0	48	104	0	77	26013
2026-01-11 07:01:06.50	55.78	26.36	-53.6	-58.1	3.7	0.00e+00	0	48	104	0	77	26062
2026-01-11 07:01:08.50	54.80	26.29	-53.2	-57.6	3.7	0.00e+00	0	48	104	0	77	24662
2026-01-11 07:01:10.51	53.83	26.21	-53.2	-57.6	3.7	0.00e+00	0	48	104	0	77	24749
2026-01-11 07:01:12.51	52.86	26.13	-53.2	-57.7	3.7	0.00e+00	0	48	104	0	77	24818
2026-01-11 07:01:14.67	51.83	26.03	-53.0	-57.4	3.7	0.00e+00	0	48	104	0	77	24206
2026-01-11 07:01:16.85	50.79	25.92	-53.3	-57.8	3.7	0.00e+00	0	48	104	0	77	25351
2026-01-11 07:01:18.86	49.84	25.81	-53.0	-57.2	3.7	0.00e+00	0	48	104	0	77	23633
2026-01-11 07:01:20.87	48.90	25.70	-53.0	-57.2	3.7	0.00e+00	0	48	104	0	77	23635
2026-01-11 07:01:22.99	47.91	25.57	-53.2	-57.4	3.7	0.00e+00	0	48	104	0	77	24219
2026-01-11 07:01:24.99	46.99	25.44	-52.8	-56.9	3.7	0.00e+00	0	48	104	0	77	22739
2026-01-11 07:01:27.00	46.08	25.30	-52.6	-56.7	3.7	0.00e+00	0	48	104	0	76	23671
2026-01-11 07:01:29.37	45.01	25.13	-52.4	-56.3	3.7	0.00e+00	0	48	104	0	76	22458
2026-01-11 07:01:31.30	44.15	24.99	-52.5	-56.6	3.7	0.00e+00	0	48	104	0	76	23217
2026-01-11 07:01:33.30	43.27	24.84	-52.6	-56.7	3.7	0.00e+00	0	48	104	0	76	23662
2026-01-11 07:01:35.31	42.39	24.68	-52.7	-56.7	3.7	0.00e+00	0	48	104	0	76	23539
2026-01-11 07:01:37.32	41.52	24.51	-53.2	-57.6	3.7	0.00e+00	0	48	104	0	77	24756
2026-01-11 07:01:39.39	40.64	24.33	-53.3	-57.8	3.7	0.00e+00	0	48	104	0	77	25099
2026-01-11 07:01:41.46	39.77	24.15	-53.1	-57.4	3.7	0.00e+00	0	48	104	0	77	24053
2026-01-11 07:01:43.47	38.94	23.97	-51.2	-54.4	3.7	0.00e+00	0	48	104	0	74	20240
2026-01-11 07:01:45.48	38.12	23.79	-50.8	-53.9	3.7	0.00e+00	0	48	104	0	73	20221
2026-01-11 07:01:47.64	37.24	23.59	-51.6	-55.1	3.8	0.00e+00	0	48	104	0	74	22092
2026-01-11 07:01:49.86	36.36	23.37	-51.6	-54.9	3.7	0.00e+00	0	48	104	0	73	22879
2026-01-11 07:01:52.01	35.52	23.16	-51.3	-54.7	3.7	0.00e+00	0	48	104	0	73	22179
2026-01-11 07:01:54.28	34.64	22.94	-52.4	-56.9	3.7	0.00e+00	0	48	104	0	75	25541
2026-01-11 07:01:56.29	33.88	22.73	-52.3	-57.2	3.7	0.00e+00	0	48	104	0	75	26409
2026-01-11 07:01:58.29	33.13	22.53	-52.8	-57.1	3.7	0.00e+00	0	48	104	0	76	24582
2026-01-11 07:02:00.30	32.39	22.32	-52.2	-56.4	3.7	0.00e+00	0	48	104	0	76	22644
2026-01-11 07:02:02.30	31.67	22.11	-50.9	-54.1	3.7	0.00e+00	0	48	104	0	73	20772
2026-01-11 07:02:04.31	30.95	21.90	-52.3	-57.2	3.7	0.00e+00	0	48	104	0	75	26413
2026-01-11 07:02:06.27	30.26	21.69	-50.5	-53.1	3.8	0.00e+00	0	48	104	0	71	20830
2026-01-11 07:02:08.19	29.60	21.48	-51.9	-55.4	3.7	0.00e+00	0	48	104	0	74	22802
2026-01-11 07:02:10.40	28.85	21.24	-51.1	-54.3	3.7	0.00e+00	0	48	104	0	74	20148
2026-01-11 07:02:12.41	28.17	21.02	-50.7	-53.8	3.7	0.00e+00	0	48	104	0	73	19956
2026-01-11 07:02:14.41	27.52	20.80	-51.2	-54.3	3.7	0.00e+00	0	48	104	0	73	21216
2026-01-11 07:02:16.42	26.86	20.58	-50.9	-54.2	3.7	0.00e+00	0	48	104	0	73	20913
2026-01-11 07:02:18.60	26.17	20.33	-50.0	-53.3	3.7	0.00e+00	0	48	104	0	72	20080
2026-01-11 07:02:20.60	25.55	20.11	-50.2	-53.6	3.7	0.00e+00	0	48	104	0	72	20721
2026-01-11 07:02:22.61	24.93	19.89	-51.7	-56.9	3.7	0.00e+00	0	48	104	0	73	28662
2026-01-11 07:02:24.62	24.32	19.66	-51.7	-56.4	3.6	0.00e+00	0	48	104	0	74	25600
2026-01-11 07:02:26.62	23.73	19.44	-51.6	-56.7	3.7	0.00e+00	0	48	104	0	74	26296
2026-01-11 07:02:28.63	23.14	19.21	-51.9	-56.4	3.7	0.00e+00	0	48	104	0	74	25506
2026-01-11 07:02:30.64	22.57	18.99	-53.0	-57.5	3.7	0.00e+00	0	48	104	0	76	25875
2026-01-11 07:02:32.82	21.95	18.74	-52.6	-57.1	3.7	0.00e+00	0	48	104	0	76	24680
2026-01-11 07:02:34.85	21.39	18.52	-52.4	-56.9	3.7	0.00e+00	0	48	104	0	76	24171
2026-01-11 07:02:36.86	20.84	18.29	-52.5	-57.1	3.7	0.00e+00	0	48	104	0	76	24792
2026-01-11 07:02:38.87	20.31	18.07	-51.7	-56.9	3.7	0.00e+00	0	48	104	0	75	25633
2026-01-11 07:02:40.87	19.78	17.84	-51.9	-56.7	3.7	0.00e+00	0	48	104	0	75	25013
2026-01-11 07:02:42.88	19.26	17.62	-52.4	-57.4	3.7	0.00e+00	0	48	104	0	75	26937
2026-01-11 07:02:44.88	18.76	17.40	-51.9	-56.9	3.7	0.00e+00	0	48	104	0	75	25496
2026-01-11 07:02:46.97	18.24	17.16	-51.8	-56.7	3.7	0.00e+00	0	48	104	0	75	25082
2026-01-11 07:02:48.97	17.75	16.94	-51.9	-56.3	3.7	0.00e+00	0	48	104	0	75	23922
2026-01-11 07:02:50.98	17.27	16.72	-53.0	-57.0	3.7	0.00e+00	0	48	104	0	76	24411
2026-01-11 07:02:53.15	16.75	16.48	-53.4	-57.9	3.7	0.00e+00	0	48	104	0	77	25420
2026-01-11 07:02:55.15	16.29	16.27	-53.1	-57.2	3.7	0.00e+00	0	48	104	0	77	23445
2026-01-11 07:02:57.46	15.77	16.01	-51.1	-56.0	3.7	0.00e+00	0	48	104	0	74	24487
2026-01-11 07:02:59.50	15.31	15.79	-50.3	-55.4	3.7	0.00e+00	0	48	104	0	72	25530
2026-01-11 07:03:01.50	14.87	15.58	-50.8	-55.9	3.7	0.00e+00	0	48	104	0	72	27057
2026-01-11 07:03:03.51	14.44	15.36	-50.7	-55.9	3.7	0.00e+00	0	48	104	0	73	25413
2026-01-11 07:03:05.55	14.01	15.15	-50.1	-55.7	3.7	0.00e+00	0	48	104	0	72	26562
2026-01-11 07:03:07.55	13.59	14.93	-50.6	-56.2	3.7	0.00e+00	0	48	104	0	72	27948
2026-01-11 07:03:09.69	13.15	14.71	-51.9	-57.0	3.7	0.00e+00	0	48	104	0	74	27418
2026-01-11 07:03:11.76	12.74	14.49	-50.9	-56.2	3.7	0.00e+00	0	48	104	0	72	27927
2026-01-11 07:03:13.76	12.34	14.28	-52.0	-56.8	3.7	0.00e+00	0	48	104	0	74	26828
2026-01-11 07:03:15.77	11.95	14.07	-51.7	-56.8	3.7	0.00e+00	0	48	104	0	74	26587
2026-01-11 07:03:17.78	11.57	13.87	-50.8	-56.2	3.7	0.00e+00	0	48	104	0	73	26457
2026-01-11 07:03:19.78	11.20	13.66	-50.4	-56.0	3.7	0.00e+00	0	48	104	0	72	27424
2026-01-11 07:03:21.79	10.83	13.46	-49.0	-55.0	3.7	0.00e+00	0	48	104	0	70	27360
2026-01-11 07:03:23.80	10.46	13.25	-49.0	-55.1	3.7	0.00e+00	0	48	104	0	70	27629
2026-01-11 07:03:25.80	10.11	13.05	-49.6	-55.5	3.7	0.00e+00	0	48	104	0	69	30821
2026-01-11 07:03:27.81	9.75	12.85	-50.4	-55.9	3.7	0.00e+00	0	48	104	0	71	28765
2026-01-11 07:03:29.82	9.41	12.65	-50.6	-56.1	3.7	0.00e+00	0	48	104	0	71	29378
2026-01-11 07:03:31.82	9.07	12.45	-50.4	-56.1	3.7	0.00e+00	0	48	104	0	72	27705
2026-01-11 07:03:33.83	8.74	12.26	-50.3	-56.2	3.7	0.00e+00	0	48	104	0	72	27976
2026-01-11 07:03:35.84	8.41	12.06	-50.4	-55.9	3.7	0.00e+00	0	48	104	0	72	27179
2026-01-11 07:03:37.84	8.08	11.87	-50.3	-56.0	3.7	0.00e+00	0	48	104	0	72	27504
2026-01-11 07:03:39.85	7.77	11.67	-50.1	-55.8	3.7	0.00e+00	0	48	104	0	72	26711
2026-01-11 07:03:41.85	7.45	11.48	-50.3	-55.8	3.7	0.00e+00	0	48	104	0	72	26723
2026-01-11 07:03:43.86	7.15	11.29	-50.3	-55.8	3.7	0.00e+00	0	48	104	0	72	26595
2026-01-11 07:03:45.86	6.84	11.11	-50.6	-56.3	3.7	0.00e+00	0	49	104	0	72	28370
2026-01-11 07:03:47.87	6.54	10.92	-50.1	-55.8	3.7	0.00e+00	0	48	104	0	72	26856
2026-01-11 07:03:49.87	6.25	10.73	-50.7	-56.4	3.7	0.00e+00	0	48	104	0	72	28571
2026-01-11 07:03:52.15	5.92	10.52	-50.4	-56.2	3.7	0.00e+00	0	48	104	0	72	27865
2026-01-11 07:03:54.16	5.64	10.34	-50.0	-55.9	3.7	0.00e+00	0	48	104	0	72	26956
2026-01-11 07:03:56.17	5.36	10.15	-49.4	-55.3	3.7	0.00e+00	0	48	104	0	70	28359
2026-01-11 07:03:58.17	5.09	9.97	-48.9	-54.6	3.7	0.00e+00	0	48	104	0	69	27779
2026-01-11 07:04:00.12	4.83	9.80	-49.4	-55.0	3.7	0.00e+00	0	48	104	0	69	29026
2026-01-11 07:04:02.12	4.56	9.62	-50.1	-55.4	3.7	0.00e+00	0	48	104	0	70	28751
2026-01-11 07:04:04.13	4.30	9.44	-50.7	-55.9	3.7	0.00e+00	0	49	104	0	71	28567
2026-01-11 07:04:06.13	4.04	9.27	-52.7	-57.4	3.7	0.00e+00	0	49	104	0	76	25454
2026-01-11 07:04:08.14	3.79	9.09	-51.2	-56.5	3.7	0.00e+00	0	49	104	0	74	25974
2026-01-11 07:04:10.15	3.53	8.92	-51.4	-56.9	3.7	0.00e+00	0	49	104	0	74	26936
2026-01-11 07:04:12.16	3.29	8.75	-51.5	-56.2	3.7	0.00e+00	0	48	104	0	75	23631
2026-01-11 07:04:14.08	3.06	8.58	-52.8	-57.2	3.7	0.00e+00	0	48	104	0	76	24920
2026-01-11 07:04:16.09	2.82	8.41	-53.4	-57.7	3.7	0.00e+00	0	48	104	0	78	23449
2026-01-11 07:04:18.10	2.58	8.24	-53.1	-57.7	3.7	0.00e+00	0	48	104	0	77	24843
2026-01-11 07:04:20.11	2.35	8.07	-53.4	-58.2	3.7	0.00e+00	0	48	104	0	78	24954
2026-01-11 07:04:22.12	2.12	7.91	-53.8	-58.3	3.7	0.00e+00	0	48	104	0	78	25258
2026-01-11 07:04:24.13	1.89	7.74	-53.4	-58.1	3.7	0.00e+00	0	48	104	0	78	24633
2026-01-11 07:04:26.09	1.68	7.58	-53.8	-58.3	3.7	0.00e+00	0	48	104	0	78	25110
2026-01-11 07:04:28.09	1.46	7.42	-54.0	-58.4	3.7	0.00e+00	0	48	104	0	78	25499
2026-01-11 07:04:30.10	1.24	7.25	-53.6	-58.2	3.7	0.00e+00	0	48	104	0	78	24963
2026-01-11 07:04:32.11	1.03	7.09	-53.8	-58.4	3.7	0.00e+00	0	48	104	0	78	25496
2026-01-11 07:04:34.55	0.77	6.90	-53.7	-58.1	3.7	0.00e+00	0	48	104	0	78	24655
2026-01-11 07:04:36.59	0.57	6.73	-53.5	-57.8	3.7	0.00e+00	0	49	104	0	77	25371
2026-01-11 07:04:38.60	0.36	6.58	-53.3	-57.7	3.7	0.00e+00	0	48	104	0	77	25053
2026-01-11 07:04:40.60	0.16	6.42	-53.3	-57.7	3.7	0.00e+00	0	49	104	0	77	25012
2026-01-11 07:04:42.61	359.96	6.26	-53.3	-57.7	3.7	0.00e+00	0	48	104	0	77	24995
2026-01-11 07:04:44.62	359.77	6.11	-53.3	-57.7	3.7	0.00e+00	0	48	104	0	77	24956
2026-01-11 07:04:46.63	359.58	5.95	-53.3	-57.7	3.7	0.00e+00	0	48	104	0	77	24866
2026-01-11 07:04:48.64	359.39	5.80	-53.3	-57.7	3.7	0.00e+00	0	48	104	0	77	24916
2026-01-11 07:04:50.65	359.20	5.65	-53.3	-57.7	3.7	0.00e+00	0	48	104	0	77	24943
2026-01-11 07:04:52.65	359.02	5.50	-53.3	-57.7	3.7	0.00e+00	0	48	104	0	77	24821
2026-01-11 07:04:54.67	358.84	5.35	-53.3	-57.7	3.7	0.00e+00	0	48	104	0	77	25014
2026-01-11 07:04:56.67	358.66	5.20	-53.3	-57.7	3.7	0.00e+00	0	49	104	0	77	24901
2026-01-11 07:04:58.68	358.48	5.05	-53.3	-57.7	3.7	0.00e+00	0	49	104	0	77	24915

#Closed at: 2026-01-11 07:05:00
#Recorded file [0 MB]: D:/Data/31040_260111_095646.dat