passes_logs/2026/01/11/T1/T1__20260111_101112_NOAA_21_JPSS-2_rec.log

#Pass ID: 20260111_101112_NOAA 21 (JPSS-2)
#Satellite: NOAA 21 (JPSS-2)
#Configuration: NOAA 21
#almurnet v.1.7.20251203
#Start time: 2026-01-11 10:11:13

#Version: 2.0.20230620
#Station: T1
#Location: 37.570604 lon 55.790049 lat
#TLE: 1 54234U 22150A   26010.92456470  .00000095  00000+0  65865-4 0  9991
#TLE: 2 54234  98.7494 311.8737 0000784 316.5119  43.5995 14.19533975164234

#Time	Az	El	Level	Level2	SNR	BER	BlckErr	Temp	State	Recorded	gain1	gain2
2026-01-11 10:11:13.25	168.46	5.07	-50.9	-64.8	3.8	1.49e+00	0	37	0	0	72	18874
2026-01-11 10:11:16.23	168.51	5.28	-48.7	-64.6	3.8	1.49e+00	0	37	104	0	68	23253
2026-01-11 10:11:19.20	168.56	5.50	-48.7	-64.6	3.8	1.49e+00	0	38	104	0	68	23231
2026-01-11 10:11:22.18	168.61	5.72	-48.7	-64.6	3.8	1.49e+00	0	38	104	0	68	23290
2026-01-11 10:11:25.16	168.66	5.94	-48.9	-64.6	3.8	1.49e+00	0	38	104	0	68	23080
2026-01-11 10:11:28.14	168.71	6.16	-48.7	-63.8	3.8	1.49e+00	0	38	104	0	68	21197
2026-01-11 10:11:31.12	168.76	6.38	-48.6	-63.1	3.9	1.49e+00	0	38	104	0	68	19522
2026-01-11 10:11:34.10	168.81	6.61	-48.5	-61.5	4.1	1.47e+00	0	38	104	0	68	16216
2026-01-11 10:11:37.08	168.86	6.83	-48.4	-60.6	4.0	9.57e-01	0	38	104	0	68	14608
2026-01-11 10:11:40.06	168.92	7.06	-48.2	-57.9	5.9	3.89e-01	0	38	0	0	68	10755
2026-01-11 10:11:43.04	168.97	7.29	-47.7	-55.5	7.8	9.46e-02	0	39	0	0	67	8638
2026-01-11 10:11:46.01	169.02	7.53	-47.0	-53.0	10.4	5.60e-03	0	38	0	0	65	7265
2026-01-11 10:11:48.99	169.08	7.76	-46.3	-51.3	12.1	3.75e-04	0	39	0	0	64	6334
2026-01-11 10:11:51.97	169.14	8.00	-45.9	-50.3	13.3	3.20e-05	0	39	0	0	63	5942
2026-01-11 10:11:54.95	169.19	8.24	-46.0	-50.6	13.0	3.12e-05	0	39	0	0	63	6138
2026-01-11 10:11:57.93	169.25	8.48	-46.6	-52.1	11.4	6.35e-04	0	39	0	0	64	6893
2026-01-11 10:12:00.91	169.31	8.73	-47.6	-55.6	7.8	6.51e-02	0	39	0	0	65	9743
2026-01-11 10:12:03.89	169.37	8.97	-48.4	-61.3	4.2	1.46e+00	0	39	104	0	67	16768
2026-01-11 10:12:06.87	169.43	9.22	-47.6	-53.1	10.4	6.03e-02	0	39	0	0	67	6502
2026-01-11 10:12:09.84	169.49	9.47	-46.9	-50.7	12.8	6.97e-04	0	39	0	0	65	5538
2026-01-11 10:12:12.82	169.55	9.73	-45.8	-48.7	14.9	1.50e-06	0	39	0	0	63	4938
2026-01-11 10:12:15.80	169.62	9.99	-45.9	-48.8	14.9	0.00e+00	0	39	0	0	63	4995
2026-01-11 10:12:18.78	169.68	10.25	-45.2	-48.0	15.6	0.00e+00	0	39	0	0	62	4822
2026-01-11 10:12:21.76	169.74	10.51	-44.3	-46.9	16.7	0.00e+00	0	39	0	0	60	4793
2026-01-11 10:12:24.73	169.81	10.77	-44.3	-46.8	16.7	0.00e+00	0	39	0	0	60	4758
2026-01-11 10:12:27.71	169.88	11.04	-44.2	-46.8	16.8	0.00e+00	0	39	0	0	60	4732
2026-01-11 10:12:30.69	169.95	11.31	-44.2	-46.7	16.9	0.00e+00	0	39	0	0	60	4653
2026-01-11 10:12:33.67	170.01	11.59	-44.2	-46.7	16.9	0.00e+00	0	39	0	0	60	4658
2026-01-11 10:12:36.65	170.09	11.87	-44.2	-46.5	17.1	0.00e+00	0	39	0	0	60	4592
2026-01-11 10:12:39.63	170.16	12.15	-44.2	-46.4	17.2	0.00e+00	0	39	0	0	60	4533
2026-01-11 10:12:42.61	170.23	12.43	-44.2	-46.4	17.2	0.00e+00	0	39	0	0	60	4527
2026-01-11 10:12:45.58	170.30	12.72	-44.3	-46.4	17.2	0.00e+00	0	39	0	0	60	4533
2026-01-11 10:12:48.56	170.38	13.01	-44.1	-46.2	17.5	0.00e+00	0	39	0	0	60	4405
2026-01-11 10:12:51.54	170.46	13.30	-44.0	-46.1	17.5	0.00e+00	0	40	0	0	60	4368
2026-01-11 10:12:54.52	170.53	13.60	-44.1	-46.2	17.4	0.00e+00	0	39	0	0	60	4421
2026-01-11 10:12:57.50	170.61	13.90	-44.0	-46.1	17.5	0.00e+00	0	39	0	0	59	4604
2026-01-11 10:13:00.48	170.69	14.20	-43.9	-46.0	17.5	1.53e-03	0	40	0	0	59	4597
2026-01-11 10:13:03.46	170.78	14.51	-44.0	-46.1	17.5	5.53e-03	0	39	0	0	59	4624
2026-01-11 10:13:06.44	170.86	14.83	-44.0	-46.0	17.6	2.67e-04	0	39	0	0	59	4587
2026-01-11 10:13:09.41	170.95	15.14	-44.0	-46.1	17.6	0.00e+00	0	40	0	0	59	4605
2026-01-11 10:13:12.39	171.03	15.46	-44.1	-46.1	17.5	0.00e+00	0	40	0	0	59	4632
2026-01-11 10:13:15.37	171.12	15.79	-44.0	-46.0	17.7	0.00e+00	0	40	0	0	59	4558
2026-01-11 10:13:18.35	171.21	16.12	-44.2	-46.2	17.5	0.00e+00	0	40	0	0	59	4654
2026-01-11 10:13:21.33	171.31	16.45	-44.2	-46.3	17.4	0.00e+00	0	40	0	0	59	4714
2026-01-11 10:13:24.31	171.40	16.79	-44.2	-46.2	17.5	0.00e+00	0	40	0	0	59	4691
2026-01-11 10:13:27.29	171.50	17.13	-44.3	-46.3	17.4	0.00e+00	0	40	0	0	59	4745
2026-01-11 10:13:30.27	171.60	17.48	-44.3	-46.4	17.4	0.00e+00	0	40	0	0	59	4762
2026-01-11 10:13:33.24	171.70	17.83	-44.3	-46.3	17.4	0.00e+00	0	40	0	0	59	4755
2026-01-11 10:13:36.22	171.80	18.19	-44.3	-46.4	17.4	0.00e+00	0	40	0	0	59	4762
2026-01-11 10:13:39.20	171.90	18.55	-44.3	-46.3	17.4	0.00e+00	0	40	0	0	59	4750
2026-01-11 10:13:42.18	172.01	18.92	-44.2	-46.2	17.5	0.00e+00	0	40	0	0	59	4690
2026-01-11 10:13:45.16	172.12	19.30	-44.1	-46.2	17.5	0.00e+00	0	40	0	0	59	4652
2026-01-11 10:13:48.14	172.23	19.68	-43.9	-46.0	17.7	0.00e+00	0	40	0	0	59	4549
2026-01-11 10:13:51.12	172.35	20.06	-43.8	-45.8	17.9	0.00e+00	0	40	0	0	59	4455
2026-01-11 10:13:54.10	172.47	20.45	-43.7	-45.6	18.0	0.00e+00	0	40	0	0	59	4391
2026-01-11 10:13:57.07	172.59	20.85	-43.5	-45.4	18.3	0.00e+00	0	40	0	0	59	4249
2026-01-11 10:14:00.05	172.71	21.25	-43.4	-45.3	18.4	0.00e+00	0	40	0	0	58	4453
2026-01-11 10:14:03.03	172.84	21.66	-43.2	-45.0	18.6	0.00e+00	0	40	0	0	58	4327
2026-01-11 10:14:06.01	172.96	22.08	-43.0	-44.9	18.8	0.00e+00	0	40	0	0	58	4245
2026-01-11 10:14:08.99	173.10	22.50	-43.0	-44.8	18.9	0.00e+00	0	40	0	0	57	4460
2026-01-11 10:14:11.97	173.23	22.93	-42.8	-44.6	19.0	0.00e+00	0	40	0	0	57	4372
2026-01-11 10:14:14.95	173.37	23.37	-42.7	-44.5	19.1	0.00e+00	0	40	0	0	57	4321
2026-01-11 10:14:17.93	173.52	23.82	-42.7	-44.5	19.0	0.00e+00	0	40	0	0	57	4333
2026-01-11 10:14:20.91	173.66	24.27	-42.7	-44.4	19.1	0.00e+00	0	40	0	0	57	4290
2026-01-11 10:14:23.89	173.82	24.73	-42.6	-44.4	19.2	0.00e+00	0	40	0	0	57	4274
2026-01-11 10:14:26.86	173.97	25.20	-42.8	-44.6	19.1	0.00e+00	0	40	0	0	57	4361
2026-01-11 10:14:29.84	174.13	25.67	-43.1	-44.9	18.8	0.00e+00	0	40	0	0	57	4521
2026-01-11 10:14:32.82	174.30	26.16	-43.3	-45.2	18.5	0.00e+00	0	40	0	0	57	4680
2026-01-11 10:14:35.80	174.46	26.65	-43.6	-45.5	18.2	0.00e+00	0	40	0	0	57	4831
2026-01-11 10:14:38.78	174.64	27.16	-43.9	-45.9	17.9	0.00e+00	0	40	0	0	58	4760
2026-01-11 10:14:41.75	174.82	27.67	-43.9	-45.8	17.9	0.00e+00	0	40	0	0	58	4756
2026-01-11 10:14:44.73	175.00	28.19	-44.0	-45.9	17.9	0.00e+00	0	40	0	0	58	4791
2026-01-11 10:14:47.71	175.20	28.72	-44.1	-46.1	17.7	0.00e+00	0	40	0	0	58	4904
2026-01-11 10:14:50.69	175.39	29.26	-44.2	-46.2	17.6	0.00e+00	0	40	0	0	59	4670
2026-01-11 10:14:53.67	175.60	29.81	-44.0	-46.0	17.8	0.00e+00	0	40	0	0	59	4567
2026-01-11 10:14:56.64	175.81	30.37	-43.8	-45.7	18.0	0.00e+00	0	40	0	0	59	4439
2026-01-11 10:14:59.62	176.02	30.94	-43.5	-45.4	18.3	0.00e+00	0	40	0	0	59	4273
2026-01-11 10:15:02.60	176.25	31.53	-43.4	-45.2	18.5	0.00e+00	0	40	0	0	58	4427
2026-01-11 10:15:05.58	176.48	32.12	-43.4	-45.2	18.5	0.00e+00	0	40	0	0	58	4420
2026-01-11 10:15:08.56	176.73	32.73	-43.6	-45.4	18.3	0.00e+00	0	40	0	0	58	4540
2026-01-11 10:15:11.54	176.98	33.35	-43.8	-45.8	18.1	0.00e+00	0	40	0	0	58	4715
2026-01-11 10:15:14.52	177.24	33.98	-44.3	-46.3	17.6	0.00e+00	0	40	0	0	59	4719
2026-01-11 10:15:17.49	177.50	34.62	-44.7	-46.7	17.2	0.00e+00	0	40	0	0	59	4949
2026-01-11 10:15:20.47	177.79	35.27	-45.0	-47.1	16.9	0.00e+00	0	40	0	0	60	4871
2026-01-11 10:15:23.45	178.08	35.94	-45.4	-47.6	16.4	0.00e+00	0	40	0	0	61	4886
2026-01-11 10:15:26.43	178.38	36.63	-46.0	-48.4	15.6	0.00e+00	0	40	0	0	62	5060
2026-01-11 10:15:29.41	178.70	37.32	-46.4	-49.0	15.1	0.00e+00	0	40	0	0	63	5119
2026-01-11 10:15:32.39	179.03	38.03	-46.4	-49.0	15.1	0.00e+00	0	40	0	0	63	5103
2026-01-11 10:15:35.37	179.37	38.76	-46.1	-48.5	15.5	0.00e+00	0	40	0	0	63	4839
2026-01-11 10:15:38.34	179.73	39.49	-45.9	-48.3	15.8	0.00e+00	0	40	0	0	63	4722
2026-01-11 10:15:41.32	180.10	40.24	-46.2	-48.6	15.5	0.00e+00	0	40	0	0	63	4890
2026-01-11 10:15:44.30	180.50	41.01	-45.9	-48.1	15.9	0.00e+00	0	40	0	0	63	4639
2026-01-11 10:15:47.28	180.91	41.80	-46.1	-48.4	15.6	0.00e+00	0	40	0	0	63	4807
2026-01-11 10:15:50.26	181.34	42.59	-46.0	-48.3	15.8	0.00e+00	0	40	0	0	63	4736
2026-01-11 10:15:53.24	181.79	43.41	-45.7	-47.9	16.1	0.00e+00	0	40	0	0	63	4512
2026-01-11 10:15:56.22	182.27	44.24	-45.9	-48.2	15.9	0.00e+00	0	40	0	0	63	4686
2026-01-11 10:15:59.20	182.77	45.08	-45.8	-48.1	16.0	0.00e+00	0	40	0	0	63	4606
2026-01-11 10:16:02.17	183.30	45.94	-45.6	-47.8	16.3	0.00e+00	0	40	0	0	63	4473
2026-01-11 10:16:05.15	183.86	46.82	-45.4	-47.5	16.5	0.00e+00	0	40	0	0	62	4594
2026-01-11 10:16:08.13	184.45	47.71	-45.3	-47.4	16.6	0.00e+00	0	40	0	0	62	4515
2026-01-11 10:16:11.11	185.07	48.62	-45.7	-47.9	16.2	0.00e+00	0	40	0	0	62	4792
2026-01-11 10:16:14.09	185.73	49.54	-45.7	-48.0	16.1	0.00e+00	0	40	0	0	62	4825
2026-01-11 10:16:17.07	186.44	50.48	-46.1	-48.6	15.5	0.00e+00	0	40	0	0	62	5175
2026-01-11 10:16:20.05	187.18	51.44	-45.9	-48.3	15.8	0.00e+00	0	40	0	0	63	4734
2026-01-11 10:16:23.03	187.98	52.40	-45.6	-47.9	16.2	0.00e+00	0	40	0	0	63	4510
2026-01-11 10:16:26.00	188.83	53.38	-44.5	-46.6	17.3	0.00e+00	0	40	0	0	61	4370
2026-01-11 10:16:28.98	189.74	54.38	-43.7	-45.5	18.3	0.00e+00	0	40	0	0	59	4337
2026-01-11 10:16:31.96	190.71	55.38	-43.1	-44.9	18.9	0.00e+00	0	40	0	0	58	4244
2026-01-11 10:16:34.94	191.76	56.40	-43.0	-44.7	18.9	0.00e+00	0	40	0	0	57	4423
2026-01-11 10:16:37.92	192.88	57.42	-43.2	-45.0	18.7	0.00e+00	0	40	0	0	57	4591
2026-01-11 10:16:40.90	194.09	58.45	-43.3	-45.1	18.7	0.00e+00	0	40	0	0	57	4624
2026-01-11 10:16:43.88	195.40	59.49	-42.8	-44.6	19.2	0.00e+00	0	40	0	0	57	4342
2026-01-11 10:16:46.85	196.81	60.53	-42.3	-44.0	19.6	0.00e+00	0	40	0	0	56	4329
2026-01-11 10:16:49.83	198.35	61.57	-42.0	-43.7	20.0	0.00e+00	0	40	0	0	56	4152
2026-01-11 10:16:52.81	200.01	62.61	-41.7	-43.4	20.0	0.00e+00	0	40	0	0	55	4263
2026-01-11 10:16:55.79	201.83	63.64	-42.1	-43.9	19.6	0.00e+00	0	40	0	0	55	4495
2026-01-11 10:16:58.77	203.81	64.66	-42.2	-43.9	19.6	0.00e+00	0	40	0	0	55	4508
2026-01-11 10:17:01.75	205.98	65.66	-42.5	-44.3	19.2	0.00e+00	0	40	0	0	55	4708
2026-01-11 10:17:04.73	208.35	66.64	-42.0	-43.7	19.6	0.00e+00	0	40	0	0	55	4416
2026-01-11 10:17:07.71	210.94	67.60	-43.0	-44.8	18.9	0.00e+00	0	40	0	0	56	4745
2026-01-11 10:17:10.68	213.77	68.51	-42.4	-44.1	19.5	0.00e+00	0	40	0	0	56	4391
2026-01-11 10:17:13.66	216.88	69.39	-42.3	-44.0	19.7	0.00e+00	0	40	0	0	56	4320
2026-01-11 10:17:16.64	220.27	70.21	-42.3	-44.0	19.6	0.00e+00	0	40	0	0	56	4320
2026-01-11 10:17:19.62	223.97	70.97	-42.3	-44.0	19.4	0.00e+00	0	40	0	0	56	4307
2026-01-11 10:17:22.83	228.29	71.70	-42.6	-44.3	19.3	0.00e+00	0	40	0	0	56	4466
2026-01-11 10:17:25.66	232.39	72.26	-42.7	-44.4	19.1	0.00e+00	0	40	0	0	56	4542
2026-01-11 10:17:28.79	237.23	72.78	-42.8	-44.5	19.0	0.00e+00	0	40	0	0	56	4585
2026-01-11 10:17:31.62	241.85	73.14	-42.1	-43.8	19.8	0.00e+00	0	40	0	0	56	4211
2026-01-11 10:17:34.74	247.14	73.42	-41.8	-43.4	19.8	0.00e+00	0	40	0	0	55	4286
2026-01-11 10:17:37.58	252.09	73.55	-41.7	-43.4	19.9	0.00e+00	0	40	0	0	55	4259
2026-01-11 10:17:40.70	257.56	73.55	-41.9	-43.6	19.6	0.00e+00	0	39	0	0	55	4360
2026-01-11 10:17:43.54	262.52	73.44	-42.1	-43.8	19.7	0.00e+00	0	40	0	0	55	4489
2026-01-11 10:17:46.66	267.83	73.18	-42.0	-43.7	19.7	0.00e+00	0	40	0	0	55	4409
2026-01-11 10:17:49.49	272.46	72.83	-42.7	-44.5	19.3	0.00e+00	0	40	0	0	56	4570
2026-01-11 10:17:52.61	277.32	72.33	-41.7	-43.4	19.9	0.00e+00	0	40	0	0	55	4251
2026-01-11 10:17:55.45	281.47	71.77	-42.2	-43.9	19.7	0.00e+00	0	40	0	0	55	4508
2026-01-11 10:17:58.57	285.71	71.07	-42.9	-44.7	18.9	0.00e+00	0	40	0	0	57	4418
2026-01-11 10:18:01.41	289.27	70.37	-42.1	-43.7	19.7	0.00e+00	0	40	0	0	55	4440
2026-01-11 10:18:04.53	292.87	69.52	-42.2	-44.0	19.1	0.00e+00	0	40	0	0	55	4561
2026-01-11 10:18:07.37	295.87	68.69	-42.2	-43.9	19.6	0.00e+00	0	40	0	0	55	4532
2026-01-11 10:18:10.49	298.89	67.74	-43.4	-45.2	18.5	0.00e+00	0	40	0	0	58	4430
2026-01-11 10:18:13.32	301.39	66.84	-42.4	-44.1	19.5	0.00e+00	0	40	0	0	56	4388
2026-01-11 10:18:16.44	303.90	65.82	-43.8	-45.8	17.8	0.00e+00	0	40	0	0	58	4715
2026-01-11 10:18:19.28	306.00	64.87	-42.6	-44.3	19.3	0.00e+00	0	40	0	0	57	4225
2026-01-11 10:18:22.40	308.10	63.81	-45.0	-47.2	16.9	0.00e+00	0	40	0	0	60	4952
2026-01-11 10:18:25.24	309.86	62.83	-42.9	-44.6	19.0	0.00e+00	0	40	0	0	57	4390
2026-01-11 10:18:28.36	311.63	61.75	-43.4	-45.2	18.6	0.00e+00	0	40	0	0	57	4678
2026-01-11 10:18:31.19	313.11	60.76	-43.8	-45.7	18.1	0.00e+00	0	40	0	0	59	4399
2026-01-11 10:18:34.31	314.61	59.68	-42.5	-44.2	19.5	0.00e+00	0	40	0	0	57	4171
2026-01-11 10:18:37.15	315.87	58.69	-45.1	-47.3	16.9	0.00e+00	0	40	0	0	60	5017
2026-01-11 10:18:40.27	317.16	57.61	-43.3	-45.2	18.4	0.00e+00	0	40	0	0	58	4392
2026-01-11 10:18:43.11	318.24	56.64	-42.8	-44.6	19.1	0.00e+00	0	40	0	0	57	4374
2026-01-11 10:18:46.23	319.35	55.58	-45.9	-48.3	15.8	0.00e+00	0	40	0	0	62	5039
2026-01-11 10:18:49.07	320.29	54.62	-44.8	-47.0	16.6	0.00e+00	0	40	0	0	61	4562
2026-01-11 10:18:52.19	321.25	53.58	-43.4	-45.3	18.6	0.00e+00	0	40	0	0	58	4455
2026-01-11 10:18:55.02	322.06	52.65	-45.4	-47.7	16.3	0.00e+00	0	40	0	0	61	4978
2026-01-11 10:18:58.15	322.91	51.64	-45.8	-48.3	15.5	0.00e+00	0	40	0	0	62	4996
2026-01-11 10:19:00.98	323.63	50.73	-44.7	-46.8	17.1	0.00e+00	0	40	0	0	61	4467
2026-01-11 10:19:04.10	324.37	49.75	-45.5	-47.7	16.4	0.00e+00	0	40	0	0	61	4960
2026-01-11 10:19:06.94	325.01	48.87	-46.4	-48.9	15.2	0.00e+00	0	40	0	0	63	5078
2026-01-11 10:19:10.06	325.67	47.92	-46.5	-49.1	15.0	0.00e+00	0	40	0	0	64	4887
2026-01-11 10:19:12.90	326.24	47.07	-45.6	-47.9	16.0	0.00e+00	0	40	0	0	63	4509
2026-01-11 10:19:16.02	326.83	46.16	-45.5	-47.7	16.3	0.00e+00	0	40	0	0	62	4700
2026-01-11 10:19:18.85	327.33	45.34	-46.0	-48.5	15.6	0.00e+00	0	40	0	0	62	5113
2026-01-11 10:19:21.97	327.87	44.46	-45.1	-47.3	16.7	0.00e+00	0	40	0	0	62	4449
2026-01-11 10:19:24.81	328.32	43.67	-46.9	-49.6	14.4	0.00e+00	0	40	0	0	64	5179
2026-01-11 10:19:27.93	328.80	42.81	-46.6	-49.2	14.6	0.00e+00	0	40	0	0	64	4979
2026-01-11 10:19:30.77	329.22	42.05	-46.1	-48.5	15.4	0.00e+00	0	40	0	0	63	4858
2026-01-11 10:19:33.89	329.66	41.23	-46.5	-49.1	15.0	0.00e+00	0	40	0	0	63	5210
2026-01-11 10:19:36.72	330.03	40.51	-46.2	-48.8	15.3	0.00e+00	0	40	0	0	63	5005
2026-01-11 10:19:39.84	330.43	39.72	-45.6	-48.1	15.9	0.00e+00	0	40	0	0	63	4619
2026-01-11 10:19:42.68	330.77	39.01	-46.3	-48.9	15.2	0.00e+00	0	40	0	0	63	5072
2026-01-11 10:19:45.80	331.14	38.26	-46.5	-49.2	14.9	0.00e+00	0	40	0	0	64	4948
2026-01-11 10:19:48.64	331.46	37.58	-45.1	-47.3	16.6	0.00e+00	0	40	0	0	62	4445
2026-01-11 10:19:51.76	331.79	36.85	-45.1	-47.2	16.7	0.00e+00	0	40	0	0	61	4670
2026-01-11 10:19:54.60	332.08	36.20	-45.0	-47.2	16.8	0.00e+00	0	40	0	0	61	4655
2026-01-11 10:19:57.72	332.39	35.50	-44.7	-46.8	17.1	0.00e+00	0	40	0	0	61	4471
2026-01-11 10:20:00.55	332.66	34.88	-44.8	-46.9	16.8	0.00e+00	0	40	0	0	61	4531
2026-01-11 10:20:03.67	332.95	34.21	-45.0	-47.2	16.8	0.00e+00	0	40	0	0	61	4652
2026-01-11 10:20:06.51	333.20	33.61	-45.0	-47.2	16.8	0.00e+00	0	40	0	0	61	4672
2026-01-11 10:20:09.63	333.46	32.96	-44.6	-46.7	17.3	0.00e+00	0	40	0	0	61	4439
2026-01-11 10:20:12.47	333.70	32.38	-44.8	-47.1	16.9	0.00e+00	0	40	0	0	61	4625
2026-01-11 10:20:15.59	333.94	31.76	-44.9	-47.2	16.8	0.00e+00	0	40	0	0	61	4660
2026-01-11 10:20:18.43	334.16	31.21	-44.8	-47.1	16.9	0.00e+00	0	40	0	0	61	4608
2026-01-11 10:20:21.55	334.39	30.61	-44.3	-46.4	17.6	0.00e+00	0	40	0	0	60	4500
2026-01-11 10:20:24.38	334.59	30.07	-44.0	-46.0	17.8	0.00e+00	0	40	0	0	59	4584
2026-01-11 10:20:27.50	334.81	29.50	-43.7	-45.7	18.0	0.00e+00	0	40	0	0	59	4424
2026-01-11 10:20:30.34	335.00	28.98	-43.8	-45.8	18.0	0.00e+00	0	40	0	0	59	4447
2026-01-11 10:20:33.46	335.20	28.43	-43.4	-45.4	18.3	0.00e+00	0	40	0	0	58	4516
2026-01-11 10:20:36.30	335.38	27.93	-43.3	-45.2	18.5	0.00e+00	0	40	0	0	58	4399
2026-01-11 10:20:39.42	335.57	27.39	-43.2	-45.0	18.6	0.00e+00	0	39	0	0	58	4316
2026-01-11 10:20:42.26	335.74	26.92	-43.0	-44.8	18.8	0.00e+00	0	40	0	0	58	4220
2026-01-11 10:20:45.37	335.92	26.40	-43.0	-44.9	18.7	0.00e+00	0	40	0	0	57	4516
2026-01-11 10:20:48.21	336.08	25.94	-43.2	-45.0	18.7	0.00e+00	0	40	0	0	57	4578
2026-01-11 10:20:51.33	336.25	25.44	-43.3	-45.1	18.6	0.00e+00	0	40	0	0	57	4641
2026-01-11 10:20:54.17	336.40	24.99	-43.0	-44.9	18.8	0.00e+00	0	40	0	0	57	4497
2026-01-11 10:20:57.29	336.56	24.51	-43.1	-45.0	18.7	0.00e+00	0	40	0	0	57	4546
2026-01-11 10:21:00.13	336.71	24.08	-43.4	-45.3	18.4	0.00e+00	0	40	0	0	57	4724
2026-01-11 10:21:03.25	336.86	23.61	-43.6	-45.5	18.2	0.00e+00	0	40	0	0	57	4842
2026-01-11 10:21:06.09	336.99	23.20	-43.6	-45.5	18.1	0.00e+00	0	40	0	0	57	4868
2026-01-11 10:21:09.21	337.14	22.75	-43.5	-45.4	18.3	0.00e+00	0	40	0	0	57	4772
2026-01-11 10:21:12.04	337.27	22.35	-43.4	-45.3	18.3	0.00e+00	0	40	0	0	57	4746
2026-01-11 10:21:15.16	337.41	21.91	-43.4	-45.4	18.3	0.00e+00	0	40	0	0	57	4775
2026-01-11 10:21:18.00	337.53	21.52	-43.3	-45.2	18.4	0.00e+00	0	40	0	0	57	4697
2026-01-11 10:21:21.12	337.66	21.10	-43.4	-45.3	18.3	0.00e+00	0	40	0	0	57	4747
2026-01-11 10:21:23.96	337.78	20.72	-43.5	-45.5	18.2	0.00e+00	0	40	0	0	57	4815
2026-01-11 10:21:27.08	337.90	20.31	-43.4	-45.4	18.2	0.00e+00	0	40	0	0	57	4776
2026-01-11 10:21:29.92	338.02	19.94	-43.4	-45.4	18.2	0.00e+00	0	40	0	0	57	4781
2026-01-11 10:21:33.04	338.14	19.54	-43.3	-45.3	18.2	0.00e+00	0	39	0	0	57	4749
2026-01-11 10:21:35.88	338.24	19.19	-43.3	-45.3	18.3	0.00e+00	0	40	0	0	57	4714
2026-01-11 10:21:39.00	338.36	18.80	-43.4	-45.3	18.2	0.00e+00	0	40	0	0	57	4756
2026-01-11 10:21:41.83	338.46	18.46	-43.4	-45.4	18.1	0.00e+00	0	40	0	0	57	4764
2026-01-11 10:21:44.95	338.57	18.08	-43.5	-45.4	18.1	0.00e+00	0	40	0	0	57	4793
2026-01-11 10:21:47.79	338.67	17.75	-43.6	-45.5	18.0	0.00e+00	0	40	0	0	57	4867
2026-01-11 10:21:50.91	338.77	17.38	-43.7	-45.7	17.9	0.00e+00	0	40	0	0	57	4957
2026-01-11 10:21:53.75	338.87	17.06	-43.7	-45.7	17.9	0.00e+00	0	40	0	0	58	4705
2026-01-11 10:21:56.87	338.97	16.70	-43.9	-45.9	17.8	0.00e+00	0	40	0	0	58	4760
2026-01-11 10:21:59.71	339.06	16.38	-43.9	-46.0	17.7	0.00e+00	0	40	0	0	58	4820
2026-01-11 10:22:02.83	339.16	16.04	-43.9	-46.1	17.6	0.00e+00	0	40	0	0	58	4879
2026-01-11 10:22:05.67	339.25	15.73	-43.9	-46.0	17.6	0.00e+00	0	40	0	0	58	4869
2026-01-11 10:22:08.79	339.34	15.39	-44.0	-46.2	17.5	0.00e+00	0	40	0	0	58	4947
2026-01-11 10:22:11.62	339.43	15.09	-44.0	-46.1	17.5	0.00e+00	0	40	0	0	58	4900
2026-01-11 10:22:14.74	339.52	14.77	-44.1	-46.2	17.5	0.00e+00	0	40	0	0	58	4936
2026-01-11 10:22:17.58	339.60	14.47	-44.1	-46.2	17.4	0.00e+00	0	40	0	0	58	4959
2026-01-11 10:22:20.70	339.69	14.15	-44.1	-46.4	17.2	0.00e+00	0	40	0	0	59	4763
2026-01-11 10:22:23.54	339.76	13.87	-44.2	-46.5	17.1	0.00e+00	0	40	0	0	59	4847
2026-01-11 10:22:26.66	339.85	13.56	-44.4	-46.7	16.9	0.00e+00	0	40	0	0	59	4957
2026-01-11 10:22:29.50	339.92	13.28	-44.6	-46.9	16.7	0.00e+00	0	39	0	0	59	5054
2026-01-11 10:22:32.62	340.01	12.97	-44.7	-47.2	16.5	0.00e+00	0	40	0	0	60	4930
2026-01-11 10:22:35.45	340.08	12.70	-44.6	-47.2	16.5	0.00e+00	0	40	0	0	60	4927
2026-01-11 10:22:38.57	340.16	12.40	-44.6	-47.1	16.5	0.00e+00	0	40	0	0	60	4924
2026-01-11 10:22:41.41	340.23	12.14	-44.6	-47.2	16.5	0.00e+00	0	40	0	0	60	4948
2026-01-11 10:22:44.53	340.31	11.85	-44.5	-47.1	16.5	0.00e+00	0	40	0	0	60	4922
2026-01-11 10:22:47.37	340.38	11.59	-44.5	-47.1	16.5	0.00e+00	0	40	0	0	60	4894
2026-01-11 10:22:50.49	340.45	11.30	-44.7	-47.3	16.3	0.00e+00	0	40	0	0	60	5015
2026-01-11 10:22:53.32	340.52	11.05	-44.6	-47.3	16.3	0.00e+00	0	40	0	0	60	5005
2026-01-11 10:22:56.44	340.59	10.77	-44.8	-47.4	16.2	0.00e+00	0	40	0	0	60	5070
2026-01-11 10:22:59.28	340.66	10.52	-44.8	-47.3	16.3	0.00e+00	0	40	0	0	60	5033
2026-01-11 10:23:02.40	340.73	10.25	-45.0	-47.6	16.0	0.00e+00	0	40	0	0	60	5198
2026-01-11 10:23:05.24	340.79	10.00	-45.1	-47.7	15.9	0.00e+00	0	40	0	0	60	5231
2026-01-11 10:23:08.36	340.86	9.74	-45.0	-47.6	16.0	0.00e+00	0	40	0	0	60	5175
2026-01-11 10:23:11.20	340.92	9.50	-45.0	-47.7	15.8	0.00e+00	0	39	0	0	60	5266
2026-01-11 10:23:14.32	340.99	9.24	-44.9	-47.7	15.8	0.00e+00	0	40	0	0	60	5241
2026-01-11 10:23:17.15	341.05	9.00	-44.9	-47.8	15.7	0.00e+00	0	40	0	0	60	5288
2026-01-11 10:23:20.27	341.11	8.74	-51.7	-65.1	3.8	1.49e+00	0	40	104	0	74	17473
2026-01-11 10:23:23.11	341.17	8.51	-52.1	-65.3	3.8	1.49e+00	0	40	104	0	74	17767
2026-01-11 10:23:26.23	341.23	8.26	-52.3	-65.4	3.8	1.49e+00	0	40	104	0	75	17072
2026-01-11 10:23:29.07	341.29	8.04	-52.4	-65.5	3.8	1.49e+00	0	40	104	0	75	17127
2026-01-11 10:23:32.19	341.35	7.79	-52.3	-65.5	3.8	1.49e+00	0	40	104	0	75	17162
2026-01-11 10:23:35.03	341.40	7.57	-52.4	-65.5	3.8	1.49e+00	0	40	104	0	75	17133
2026-01-11 10:23:38.15	341.46	7.33	-52.4	-65.4	3.8	1.49e+00	0	40	104	0	75	17023
2026-01-11 10:23:40.98	341.52	7.11	-52.5	-65.4	3.8	1.49e+00	0	40	104	0	75	17055
2026-01-11 10:23:44.10	341.58	6.87	-52.3	-65.4	3.8	1.49e+00	0	40	104	0	75	17064
2026-01-11 10:23:46.94	341.63	6.66	-52.3	-65.4	3.8	1.49e+00	0	40	104	0	75	17004
2026-01-11 10:23:50.06	341.69	6.42	-52.3	-65.4	3.8	1.49e+00	0	40	104	0	75	17050
2026-01-11 10:23:52.90	341.74	6.21	-52.3	-65.4	3.8	1.49e+00	0	40	104	0	75	17013
2026-01-11 10:23:56.02	341.79	5.98	-52.3	-65.4	3.8	1.49e+00	0	40	104	0	75	16963
2026-01-11 10:23:58.86	341.84	5.78	-52.3	-65.4	3.8	1.49e+00	0	40	104	0	75	16932
2026-01-11 10:24:01.98	341.90	5.55	-52.3	-65.4	3.8	1.49e+00	0	40	104	0	75	16997
2026-01-11 10:24:04.82	341.95	5.35	-52.3	-65.4	3.8	1.49e+00	0	40	104	0	75	17004
2026-01-11 10:24:07.94	342.00	5.12	-52.3	-65.4	3.8	1.49e+00	0	40	104	0	75	17008

#Closed at: 2026-01-11 10:24:10
#Recorded file [0 MB]: D:/Data/31040_260111_131113.dat