passes_logs/2026/01/11/T1/T1__20260111_114035_FENGYUN_3D_rec.log

#Pass ID: 20260111_114035_FENGYUN 3D
#Satellite: FENGYUN 3D
#Configuration: FENGYUN 3D
#almurnet v.1.7.20251203
#Start time: 2026-01-11 11:40:35

#Version: 2.0.20230620
#Station: T1
#Location: 37.570604 lon 55.790049 lat
#TLE: 1 43010U 17072A   26010.98637270  .00000005  00000+0  24269-4 0  9997
#TLE: 2 43010  98.9936 342.7405 0002213 115.1030 245.0375 14.19693961422685

#Time	Az	El	Level	Level2	SNR	BER	BlckErr	Temp	State	Recorded	gain1	gain2
2026-01-11 11:40:35.32	151.10	5.00	-51.6	-63.7	3.8	8.47e-01	0	40	0	0	74	14837
2026-01-11 11:40:39.29	151.05	5.28	-51.6	-63.7	3.8	8.47e-01	0	40	104	0	75	13987
2026-01-11 11:40:43.26	150.99	5.57	-51.6	-63.9	3.8	8.46e-01	0	40	104	0	75	14249
2026-01-11 11:40:47.23	150.94	5.86	-51.6	-63.4	3.8	8.48e-01	0	40	104	0	75	13515
2026-01-11 11:40:51.20	150.88	6.16	-51.5	-62.6	3.8	8.47e-01	0	41	104	0	74	12997
2026-01-11 11:40:55.17	150.82	6.45	-51.2	-60.8	3.9	8.41e-01	0	41	104	0	74	10574
2026-01-11 11:40:59.15	150.76	6.76	-50.5	-57.4	5.5	7.11e-01	0	41	0	0	73	7570
2026-01-11 11:41:03.12	150.69	7.06	-49.3	-54.2	8.3	8.00e-02	0	41	0	20971520	70	6272
2026-01-11 11:41:07.09	150.63	7.37	-47.4	-50.9	11.5	1.59e-03	0	41	0	42991616	66	5371
2026-01-11 11:41:11.06	150.56	7.68	-45.8	-48.5	14.0	5.70e-06	0	41	0	66060288	63	4864
2026-01-11 11:41:15.03	150.50	8.00	-44.8	-47.3	15.2	0.00e+00	0	41	0	88080384	61	4713
2026-01-11 11:41:19.00	150.43	8.32	-45.5	-48.2	14.4	1.10e-06	0	41	0	110100480	61	5239
2026-01-11 11:41:22.98	150.36	8.65	-48.0	-51.8	10.6	1.55e-03	0	42	0	133169152	66	5952
2026-01-11 11:41:26.95	150.28	8.98	-51.0	-59.5	4.4	8.03e-01	0	42	0	149946368	72	10290
2026-01-11 11:41:30.92	150.21	9.31	-51.4	-61.9	3.9	8.46e-01	0	42	104	149946368	73	12717
2026-01-11 11:41:34.89	150.13	9.65	-45.4	-48.1	14.6	6.80e-06	0	42	0	160432128	62	4883
2026-01-11 11:41:38.86	150.05	9.99	-43.3	-45.5	17.1	0.00e+00	0	42	0	183500800	58	4563
2026-01-11 11:41:42.83	149.97	10.34	-43.0	-45.1	17.4	0.00e+00	0	42	0	205520896	57	4629
2026-01-11 11:41:46.80	149.89	10.69	-42.8	-44.9	17.6	0.00e+00	0	42	0	227540992	57	4535
2026-01-11 11:41:50.78	149.80	11.05	-42.8	-44.9	17.7	0.00e+00	0	42	0	250609664	57	4518
2026-01-11 11:41:54.75	149.71	11.41	-42.6	-44.7	17.8	0.00e+00	0	42	0	272629760	57	4408
2026-01-11 11:41:58.72	149.62	11.78	-42.5	-44.6	17.9	0.00e+00	0	42	0	294649856	57	4370
2026-01-11 11:42:02.69	149.53	12.15	-42.5	-44.6	18.0	0.00e+00	0	42	0	316669952	57	4349
2026-01-11 11:42:06.66	149.44	12.53	-42.5	-44.6	18.0	0.00e+00	0	42	0	339738624	56	4604
2026-01-11 11:42:10.63	149.34	12.91	-42.5	-44.5	18.0	0.00e+00	0	42	0	361758720	56	4585
2026-01-11 11:42:14.61	149.24	13.31	-42.4	-44.5	18.1	0.00e+00	0	42	0	383778816	56	4553
2026-01-11 11:42:18.58	149.13	13.70	-42.4	-44.4	18.2	0.00e+00	0	42	0	406847488	56	4537
2026-01-11 11:42:22.55	149.03	14.11	-42.3	-44.3	18.3	0.00e+00	0	42	0	428867584	56	4475
2026-01-11 11:42:26.52	148.91	14.52	-42.1	-44.1	18.5	0.00e+00	0	42	0	450887680	56	4364
2026-01-11 11:42:30.49	148.80	14.93	-41.7	-43.7	18.7	0.00e+00	0	42	0	473956352	55	4411
2026-01-11 11:42:34.47	148.68	15.36	-41.4	-43.4	19.0	0.00e+00	0	42	0	495976448	54	4512
2026-01-11 11:42:38.44	148.56	15.79	-41.2	-43.1	19.3	0.00e+00	0	42	0	517996544	54	4353
2026-01-11 11:42:42.41	148.44	16.23	-41.2	-43.1	19.3	0.00e+00	0	42	0	540016640	54	4355
2026-01-11 11:42:46.38	148.31	16.68	-41.3	-43.2	19.2	0.00e+00	0	42	0	563085312	54	4414
2026-01-11 11:42:50.35	148.17	17.14	-41.0	-42.9	19.4	0.00e+00	0	42	0	585105408	54	4284
2026-01-11 11:42:54.32	148.04	17.60	-40.9	-42.8	19.5	0.00e+00	0	43	0	608174080	53	4451
2026-01-11 11:42:58.30	147.89	18.07	-40.6	-42.5	19.8	0.00e+00	0	42	0	630194176	53	4324
2026-01-11 11:43:02.27	147.75	18.56	-40.7	-42.5	19.8	0.00e+00	0	42	0	652214272	53	4334
2026-01-11 11:43:06.24	147.59	19.05	-40.5	-42.4	19.9	0.00e+00	0	43	0	674234368	53	4268
2026-01-11 11:43:10.21	147.43	19.55	-40.6	-42.4	19.9	0.00e+00	0	43	0	697303040	53	4285
2026-01-11 11:43:14.18	147.27	20.06	-40.5	-42.4	19.8	0.00e+00	0	43	0	719323136	53	4250
2026-01-11 11:43:18.15	147.10	20.58	-40.4	-42.2	20.1	0.00e+00	0	43	0	741343232	52	4431
2026-01-11 11:43:22.12	146.92	21.12	-40.2	-42.1	20.2	0.00e+00	0	43	0	764411904	52	4350
2026-01-11 11:43:26.10	146.74	21.66	-40.2	-42.0	20.2	0.00e+00	0	43	0	786432000	52	4330
2026-01-11 11:43:30.07	146.55	22.22	-40.1	-42.0	20.3	0.00e+00	0	42	0	808452096	52	4296
2026-01-11 11:43:34.04	146.36	22.78	-40.0	-41.9	20.4	0.00e+00	0	43	0	831520768	51	4499
2026-01-11 11:43:38.01	146.15	23.36	-40.0	-41.8	20.5	0.00e+00	0	43	0	853540864	51	4484
2026-01-11 11:43:41.98	145.94	23.96	-40.1	-41.9	20.4	0.00e+00	0	43	0	875560960	51	4543
2026-01-11 11:43:45.95	145.72	24.56	-40.0	-41.9	20.5	0.00e+00	0	43	0	897581056	51	4509
2026-01-11 11:43:49.93	145.48	25.18	-39.7	-41.5	20.8	0.00e+00	0	43	0	920649728	51	4337
2026-01-11 11:43:53.90	145.24	25.82	-39.7	-41.5	20.8	0.00e+00	0	43	0	942669824	51	4323
2026-01-11 11:43:57.87	144.99	26.47	-39.7	-41.5	20.8	0.00e+00	0	43	0	964689920	51	4304
2026-01-11 11:44:01.84	144.73	27.13	-39.8	-41.6	20.7	0.00e+00	0	43	0	987758592	51	4375
2026-01-11 11:44:05.81	144.46	27.81	-39.6	-41.4	20.9	0.00e+00	0	43	0	1009778688	51	4245
2026-01-11 11:44:09.78	144.17	28.51	-39.5	-41.3	21.0	0.00e+00	0	43	0	1031798784	50	4443
2026-01-11 11:44:13.75	143.87	29.22	-39.4	-41.2	21.1	0.00e+00	0	43	0	1053818880	50	4428
2026-01-11 11:44:17.72	143.56	29.95	-39.2	-41.0	21.3	0.00e+00	0	43	0	1076887552	50	4302
2026-01-11 11:44:21.69	143.23	30.70	-39.1	-40.9	21.3	0.00e+00	0	43	0	1098907648	50	4267
2026-01-11 11:44:25.67	142.88	31.47	-39.1	-40.9	21.3	0.00e+00	0	43	0	1120927744	50	4265
2026-01-11 11:44:29.64	142.52	32.26	-39.1	-40.9	21.3	0.00e+00	0	43	0	1143996416	50	4243
2026-01-11 11:44:33.61	142.14	33.07	-39.2	-40.9	21.2	0.00e+00	0	43	0	1166016512	50	4284
2026-01-11 11:44:37.58	141.74	33.89	-39.1	-40.9	21.3	0.00e+00	0	43	0	1188036608	50	4251
2026-01-11 11:44:41.55	141.31	34.74	-39.0	-40.8	21.5	0.00e+00	0	43	0	1211105280	50	4207
2026-01-11 11:44:45.52	140.86	35.61	-39.1	-40.9	21.3	0.00e+00	0	43	0	1233125376	50	4264
2026-01-11 11:44:49.50	140.39	36.51	-39.1	-40.8	21.4	0.00e+00	0	43	0	1255145472	50	4239
2026-01-11 11:44:53.47	139.89	37.42	-38.9	-40.7	21.5	0.00e+00	0	43	0	1277165568	49	4409
2026-01-11 11:44:57.44	139.36	38.36	-39.1	-40.9	21.4	0.00e+00	0	43	0	1300234240	49	4512
2026-01-11 11:45:01.41	138.80	39.32	-39.3	-41.1	21.2	0.00e+00	0	43	0	1322254336	49	4607
2026-01-11 11:45:05.38	138.20	40.31	-39.3	-41.0	21.3	0.00e+00	0	43	0	1345323008	49	4585
2026-01-11 11:45:09.36	137.56	41.32	-39.6	-41.5	20.9	0.00e+00	0	43	0	1367343104	50	4548
2026-01-11 11:45:13.33	136.88	42.35	-39.4	-41.2	21.2	0.00e+00	0	43	0	1389363200	50	4405
2026-01-11 11:45:17.30	136.16	43.41	-39.4	-41.2	21.1	0.00e+00	0	43	0	1411383296	50	4416
2026-01-11 11:45:21.27	135.38	44.50	-39.6	-41.4	20.9	0.00e+00	0	43	0	1434451968	50	4535
2026-01-11 11:45:25.24	134.55	45.60	-39.3	-41.0	21.3	0.00e+00	0	43	0	1456472064	50	4338
2026-01-11 11:45:29.21	133.66	46.73	-39.4	-41.2	21.2	0.00e+00	0	43	0	1478492160	50	4416
2026-01-11 11:45:33.19	132.69	47.89	-39.8	-41.5	20.9	0.00e+00	0	43	0	1501560832	50	4598
2026-01-11 11:45:37.16	131.66	49.07	-39.9	-41.7	20.8	0.00e+00	0	43	0	1523580928	50	4655
2026-01-11 11:45:41.13	130.54	50.26	-40.3	-42.1	20.5	0.00e+00	0	43	0	1545601024	51	4607
2026-01-11 11:45:45.10	129.32	51.48	-40.5	-42.4	20.1	0.00e+00	0	43	0	1568669696	52	4501
2026-01-11 11:45:49.07	128.00	52.71	-40.1	-41.9	20.6	0.00e+00	0	43	0	1590689792	52	4284
2026-01-11 11:45:53.05	126.56	53.96	-39.9	-41.7	20.8	0.00e+00	0	43	0	1612709888	51	4402
2026-01-11 11:45:57.02	124.99	55.22	-40.2	-42.0	20.5	0.00e+00	0	43	0	1634729984	51	4570
2026-01-11 11:46:00.99	123.27	56.48	-40.2	-42.1	20.4	0.00e+00	0	43	0	1657798656	51	4610
2026-01-11 11:46:04.96	121.39	57.74	-40.0	-41.8	20.7	0.00e+00	0	43	0	1679818752	51	4463
2026-01-11 11:46:08.93	119.33	59.00	-39.9	-41.7	20.8	0.00e+00	0	43	0	1701838848	51	4408
2026-01-11 11:46:12.90	117.05	60.25	-39.7	-41.5	21.0	0.00e+00	0	43	0	1724907520	51	4323
2026-01-11 11:46:16.87	114.55	61.47	-39.6	-41.3	21.1	0.00e+00	0	43	0	1746927616	50	4490
2026-01-11 11:46:20.85	111.78	62.67	-39.1	-40.9	21.5	0.00e+00	0	43	0	1768947712	50	4249
2026-01-11 11:46:24.82	108.73	63.82	-38.7	-40.4	21.8	0.00e+00	0	43	0	1792016384	49	4264
2026-01-11 11:46:28.79	105.37	64.92	-38.6	-40.3	21.9	0.00e+00	0	43	0	1814036480	49	4234
2026-01-11 11:46:32.76	101.68	65.94	-38.5	-40.3	21.9	0.00e+00	0	43	0	1836056576	48	4447
2026-01-11 11:46:36.73	97.64	66.88	-38.1	-39.8	22.3	0.00e+00	0	43	0	1859125248	48	4206
2026-01-11 11:46:40.70	93.25	67.71	-38.2	-39.9	22.2	0.00e+00	0	43	0	1881145344	48	4282
2026-01-11 11:46:44.68	88.50	68.42	-38.5	-40.2	22.0	0.00e+00	0	43	0	1903165440	48	4427
2026-01-11 11:46:48.65	83.45	68.99	-38.3	-40.0	22.2	0.00e+00	0	43	0	1925185536	48	4304
2026-01-11 11:46:52.62	78.14	69.40	-38.3	-40.0	22.1	0.00e+00	0	43	0	1948254208	48	4335
2026-01-11 11:46:56.59	72.65	69.64	-38.5	-40.2	21.9	0.00e+00	0	43	0	1970274304	48	4417
2026-01-11 11:47:00.56	67.07	69.70	-38.5	-40.2	22.0	0.00e+00	0	43	0	1992294400	48	4440
2026-01-11 11:47:04.53	61.51	69.58	-38.5	-40.2	22.0	0.00e+00	0	43	0	2015363072	48	4438
2026-01-11 11:47:08.51	56.06	69.28	-38.4	-40.2	22.0	0.00e+00	0	43	0	2037383168	48	4392
2026-01-11 11:47:12.48	50.83	68.82	-38.3	-40.0	22.1	0.00e+00	0	43	0	2059403264	48	4338
2026-01-11 11:47:16.45	45.89	68.20	-38.3	-40.0	22.2	0.00e+00	0	43	0	2082471936	48	4328
2026-01-11 11:47:20.40	41.29	67.45	-38.4	-40.1	22.1	0.00e+00	0	43	0	2104492032	48	4386
2026-01-11 11:47:24.37	37.02	66.59	-38.5	-40.2	22.0	0.00e+00	0	43	0	2126512128	48	4428
2026-01-11 11:47:28.34	33.10	65.62	-38.0	-39.7	22.1	0.00e+00	0	43	0	2148532224	47	4433
2026-01-11 11:47:32.32	29.51	64.57	-38.5	-40.2	21.7	0.00e+00	0	43	0	2171600896	47	4700
2026-01-11 11:47:36.29	26.26	63.46	-38.9	-40.7	21.7	0.00e+00	0	43	0	2193620992	48	4664
2026-01-11 11:47:40.26	23.32	62.29	-39.1	-40.8	21.6	0.00e+00	0	43	0	2216689664	48	4735
2026-01-11 11:47:44.23	20.64	61.09	-39.1	-40.8	21.5	0.00e+00	0	43	0	2238709760	49	4488
2026-01-11 11:47:48.20	18.22	59.86	-39.2	-41.0	21.4	0.00e+00	0	43	0	2260729856	49	4567
2026-01-11 11:47:52.17	16.02	58.61	-39.6	-41.3	21.2	0.00e+00	0	43	0	2282749952	49	4747
2026-01-11 11:47:56.14	14.02	57.35	-40.0	-41.8	20.7	0.00e+00	0	43	0	2305818624	50	4741
2026-01-11 11:48:00.11	12.20	56.09	-40.0	-41.7	20.8	0.00e+00	0	43	0	2327838720	50	4694
2026-01-11 11:48:04.09	10.53	54.83	-40.4	-42.2	20.4	0.00e+00	0	43	0	2349858816	51	4678
2026-01-11 11:48:08.06	9.01	53.58	-40.4	-42.2	20.4	0.00e+00	0	43	0	2372927488	51	4686
2026-01-11 11:48:12.03	7.61	52.35	-40.1	-41.9	20.7	0.00e+00	0	43	0	2394947584	51	4516
2026-01-11 11:48:16.00	6.33	51.12	-39.9	-41.7	20.8	0.00e+00	0	43	0	2416967680	51	4419
2026-01-11 11:48:19.97	5.15	49.92	-39.5	-41.2	21.2	0.00e+00	0	43	0	2438987776	51	4185
2026-01-11 11:48:23.94	4.06	48.73	-39.4	-41.1	21.5	0.00e+00	0	43	0	2462056448	50	4387
2026-01-11 11:48:27.91	3.05	47.57	-39.4	-41.1	21.5	0.00e+00	0	43	0	2484076544	50	4370
2026-01-11 11:48:31.88	2.11	46.42	-39.4	-41.1	21.6	0.00e+00	0	43	0	2506096640	50	4360
2026-01-11 11:48:35.86	1.24	45.30	-39.4	-41.1	21.6	0.00e+00	0	43	0	2529165312	50	4364
2026-01-11 11:48:39.83	0.43	44.21	-39.1	-40.8	21.8	0.00e+00	0	43	0	2551185408	50	4232
2026-01-11 11:48:43.80	359.67	43.13	-39.3	-41.0	21.7	0.00e+00	0	43	0	2573205504	50	4297
2026-01-11 11:48:47.77	358.96	42.09	-39.3	-41.0	21.7	0.00e+00	0	43	0	2596274176	50	4296
2026-01-11 11:48:51.74	358.30	41.06	-38.9	-40.6	21.9	0.00e+00	0	43	0	2618294272	49	4347
2026-01-11 11:48:55.71	357.68	40.07	-38.8	-40.4	22.1	0.00e+00	0	43	0	2640314368	49	4283
2026-01-11 11:48:59.68	357.09	39.09	-38.8	-40.5	22.1	0.00e+00	0	43	0	2662334464	49	4310
2026-01-11 11:49:03.66	356.54	38.14	-38.8	-40.5	22.1	0.00e+00	0	43	0	2685403136	49	4293
2026-01-11 11:49:07.63	356.02	37.21	-38.7	-40.4	22.1	0.00e+00	0	43	0	2707423232	49	4271
2026-01-11 11:49:11.60	355.53	36.31	-38.9	-40.6	22.0	0.00e+00	0	43	0	2729443328	49	4346
2026-01-11 11:49:15.57	355.07	35.42	-39.2	-40.9	21.7	0.00e+00	0	43	0	2752512000	49	4518
2026-01-11 11:49:19.54	354.64	34.56	-39.3	-41.0	21.6	0.00e+00	0	43	0	2774532096	49	4562
2026-01-11 11:49:23.51	354.22	33.72	-39.0	-40.7	21.8	0.00e+00	0	43	0	2796552192	49	4421
2026-01-11 11:49:27.49	353.83	32.90	-39.1	-40.8	21.8	0.00e+00	0	43	0	2819620864	49	4476
2026-01-11 11:49:31.46	353.45	32.11	-39.5	-41.2	21.4	0.00e+00	0	43	0	2841640960	49	4703
2026-01-11 11:49:35.43	353.10	31.33	-39.6	-41.3	21.4	0.00e+00	0	43	0	2863661056	49	4722
2026-01-11 11:49:39.40	352.76	30.57	-39.6	-41.3	21.3	0.00e+00	0	43	0	2885681152	49	4757
2026-01-11 11:49:43.37	352.44	29.83	-39.6	-41.3	21.4	0.00e+00	0	43	0	2908749824	49	4721
2026-01-11 11:49:47.34	352.13	29.10	-39.6	-41.3	21.3	0.00e+00	0	43	0	2930769920	49	4713
2026-01-11 11:49:51.31	351.84	28.40	-39.4	-41.1	21.5	0.00e+00	0	43	0	2953838592	49	4635
2026-01-11 11:49:55.29	351.56	27.71	-39.3	-41.0	21.6	0.00e+00	0	43	0	2975858688	49	4574
2026-01-11 11:49:59.26	351.29	27.03	-39.5	-41.3	21.3	0.00e+00	0	43	0	2997878784	49	4715
2026-01-11 11:50:03.23	351.03	26.38	-39.5	-41.2	21.4	0.00e+00	0	43	0	3019898880	49	4698
2026-01-11 11:50:07.20	350.79	25.74	-39.4	-41.2	21.4	0.00e+00	0	43	0	3042967552	49	4679
2026-01-11 11:50:11.17	350.55	25.11	-39.5	-41.3	21.3	0.00e+00	0	43	0	3064987648	49	4716
2026-01-11 11:50:15.15	350.33	24.49	-39.5	-41.3	21.3	0.00e+00	0	43	0	3087007744	49	4713
2026-01-11 11:50:19.12	350.11	23.89	-39.7	-41.5	21.2	0.00e+00	0	43	0	3110076416	50	4551
2026-01-11 11:50:23.09	349.90	23.31	-40.0	-41.8	20.9	0.00e+00	0	43	0	3132096512	50	4706
2026-01-11 11:50:27.06	349.70	22.73	-40.3	-42.2	20.6	0.00e+00	0	43	0	3154116608	51	4652
2026-01-11 11:50:31.03	349.51	22.17	-40.5	-42.3	20.4	0.00e+00	0	43	0	3176136704	51	4746
2026-01-11 11:50:35.01	349.33	21.62	-40.4	-42.2	20.5	0.00e+00	0	43	0	3199205376	51	4698
2026-01-11 11:50:38.98	349.15	21.08	-40.4	-42.1	20.5	0.00e+00	0	43	0	3221225472	51	4648
2026-01-11 11:50:42.95	348.98	20.55	-40.4	-42.1	20.5	0.00e+00	0	43	0	3243245568	51	4630
2026-01-11 11:50:46.92	348.81	20.03	-40.4	-42.2	20.5	0.00e+00	0	43	0	3266314240	51	4675
2026-01-11 11:50:50.89	348.65	19.53	-40.5	-42.4	20.3	0.00e+00	0	43	0	3288334336	51	4764
2026-01-11 11:50:54.86	348.50	19.03	-40.5	-42.4	20.3	0.00e+00	0	43	0	3310354432	51	4806
2026-01-11 11:50:58.83	348.35	18.54	-40.6	-42.5	20.1	0.00e+00	0	43	0	3333423104	51	4867
2026-01-11 11:51:02.81	348.21	18.06	-40.6	-42.5	20.1	0.00e+00	0	43	0	3355443200	52	4596
2026-01-11 11:51:06.78	348.07	17.60	-40.6	-42.6	20.1	0.00e+00	0	43	0	3377463296	52	4606
2026-01-11 11:51:10.75	347.94	17.14	-40.9	-42.7	19.9	0.00e+00	0	43	0	3399483392	52	4705
2026-01-11 11:51:14.72	347.81	16.68	-40.9	-42.8	19.8	0.00e+00	0	43	0	3422552064	52	4733
2026-01-11 11:51:18.69	347.68	16.24	-41.1	-43.0	19.6	0.00e+00	0	43	0	3444572160	52	4842
2026-01-11 11:51:22.66	347.56	15.80	-41.2	-43.2	19.5	0.00e+00	0	43	0	3467640832	53	4662
2026-01-11 11:51:26.63	347.45	15.37	-41.4	-43.4	19.3	0.00e+00	0	43	0	3489660928	53	4763
2026-01-11 11:51:30.60	347.33	14.95	-41.6	-43.6	19.1	0.00e+00	0	43	0	3511681024	53	4871
2026-01-11 11:51:34.57	347.22	14.54	-41.7	-43.7	19.0	0.00e+00	0	43	0	3533701120	54	4674
2026-01-11 11:51:38.55	347.12	14.13	-41.8	-43.8	18.8	0.00e+00	0	43	0	3556769792	54	4731
2026-01-11 11:51:42.52	347.02	13.73	-41.9	-43.9	18.7	0.00e+00	0	43	0	3578789888	54	4814
2026-01-11 11:51:46.49	346.92	13.34	-42.0	-44.0	18.6	0.00e+00	0	43	0	3600809984	54	4845
2026-01-11 11:51:50.46	346.82	12.95	-42.1	-44.1	18.5	0.00e+00	0	43	0	3623878656	55	4625
2026-01-11 11:51:54.43	346.73	12.57	-42.2	-44.2	18.5	0.00e+00	0	43	0	3645898752	55	4654
2026-01-11 11:51:58.40	346.63	12.19	-42.1	-44.2	18.4	0.00e+00	0	43	0	3667918848	55	4670
2026-01-11 11:52:02.37	346.55	11.82	-42.0	-44.2	18.3	0.00e+00	0	43	0	3689938944	55	4702
2026-01-11 11:52:06.34	346.46	11.45	-42.1	-44.4	18.1	0.00e+00	0	43	0	3713007616	55	4811
2026-01-11 11:52:10.32	346.38	11.09	-42.0	-44.4	18.1	0.00e+00	0	43	0	3735027712	55	4812
2026-01-11 11:52:14.29	346.30	10.74	-42.0	-44.5	18.0	0.00e+00	0	43	0	3757047808	55	4866
2026-01-11 11:52:18.26	346.22	10.39	-42.2	-44.8	17.7	0.00e+00	0	43	0	3780116480	55	5021
2026-01-11 11:52:22.23	346.14	10.04	-42.0	-44.8	17.7	0.00e+00	0	43	0	3802136576	55	5037
2026-01-11 11:52:26.20	346.07	9.70	-41.9	-44.9	17.6	0.00e+00	0	43	0	3824156672	55	5072
2026-01-11 11:52:30.17	345.99	9.37	-42.0	-45.1	17.4	0.00e+00	0	43	0	3847225344	55	5196
2026-01-11 11:52:34.15	345.92	9.04	-41.9	-45.1	17.4	0.00e+00	0	43	0	3869245440	55	5194
2026-01-11 11:52:38.12	345.86	8.71	-52.3	-64.4	3.8	8.47e-01	0	43	104	3873439744	75	15138
2026-01-11 11:52:42.09	345.79	8.39	-52.0	-64.6	3.8	8.47e-01	0	43	104	3873439744	75	15549
2026-01-11 11:52:46.06	345.73	8.07	-52.3	-64.7	3.8	8.47e-01	0	43	104	3873439744	75	15674
2026-01-11 11:52:50.04	345.66	7.75	-52.4	-64.7	3.8	8.47e-01	0	43	104	3873439744	75	15702
2026-01-11 11:52:54.01	345.60	7.44	-52.7	-64.7	3.8	8.47e-01	0	43	104	3873439744	75	15625
2026-01-11 11:52:57.98	345.54	7.13	-52.5	-64.7	3.8	8.47e-01	0	43	104	3873439744	75	15662
2026-01-11 11:53:01.95	345.48	6.83	-52.5	-64.7	3.8	8.47e-01	0	43	104	3873439744	75	15648
2026-01-11 11:53:05.92	345.43	6.53	-52.4	-64.7	3.8	8.47e-01	0	43	104	3873439744	75	15620
2026-01-11 11:53:09.90	345.37	6.23	-52.4	-64.7	3.8	8.46e-01	0	43	104	3873439744	75	15639
2026-01-11 11:53:13.87	345.32	5.94	-52.4	-64.6	3.8	8.47e-01	0	43	104	3873439744	75	15564
2026-01-11 11:53:17.84	345.27	5.65	-52.4	-64.6	3.8	8.47e-01	0	43	104	3873439744	75	15555
2026-01-11 11:53:21.81	345.22	5.36	-52.4	-64.6	3.8	8.47e-01	0	43	104	3873439744	75	15553
2026-01-11 11:53:25.78	345.17	5.08	-52.4	-64.6	3.8	8.47e-01	0	43	104	3873439744	75	15578

#Closed at: 2026-01-11 11:53:28
#Recorded file [3873 MB]: D:/Data/31040_260111_144035.dat