passes_logs/2026/01/11/T1/T1__20260111_074357_NOAA_20_JPSS-1_rec.log

#Pass ID: 20260111_074357_NOAA 20 (JPSS-1)
#Satellite: NOAA 20 (JPSS-1)
#Configuration: NOAA 20
#almurnet v.1.7.20251203
#Start time: 2026-01-11 07:43:57

#Version: 2.0.20230620
#Station: T1
#Location: 37.570604 lon 55.790049 lat
#TLE: 1 43013U 17073A   26010.88944318  .00000078  00000+0  57801-4 0  9992
#TLE: 2 43013  98.7631 311.8723 0001655  45.1140 315.0170 14.19535117422152

#Time	Az	El	Level	Level2	SNR	BER	BlckErr	Temp	State	Recorded	gain1	gain2
2026-01-11 07:43:57.66	89.35	5.02	-50.0	-65.4	3.8	1.49e+00	0	40	0	0	72	20183
2026-01-11 07:44:00.66	89.03	5.18	-50.0	-65.4	3.8	1.49e+00	0	40	104	0	72	20132
2026-01-11 07:44:03.67	88.71	5.33	-50.0	-65.4	3.8	1.49e+00	0	40	104	0	72	20105
2026-01-11 07:44:06.68	88.38	5.49	-50.0	-65.4	3.8	1.49e+00	0	40	104	0	72	20190
2026-01-11 07:44:09.69	88.05	5.64	-50.0	-65.4	3.8	1.49e+00	0	41	104	0	72	20211
2026-01-11 07:44:12.70	87.71	5.80	-50.0	-65.4	3.8	1.49e+00	0	41	104	0	72	20173
2026-01-11 07:44:15.71	87.37	5.95	-50.0	-65.3	3.8	1.49e+00	0	41	104	0	72	20030
2026-01-11 07:44:18.71	87.03	6.11	-50.0	-65.3	3.8	1.49e+00	0	41	104	0	71	21150
2026-01-11 07:44:21.73	86.69	6.26	-50.0	-65.3	3.8	1.49e+00	0	41	104	0	71	21125
2026-01-11 07:44:24.73	86.34	6.42	-50.0	-65.3	3.8	1.49e+00	0	41	104	0	71	21193
2026-01-11 07:44:27.74	85.98	6.57	-50.0	-65.4	3.8	1.49e+00	0	41	104	0	71	21269
2026-01-11 07:44:30.74	85.63	6.73	-50.0	-65.4	3.8	1.49e+00	0	41	104	0	71	21277
2026-01-11 07:44:33.75	85.27	6.88	-50.0	-65.3	3.8	1.49e+00	0	41	104	0	71	21114
2026-01-11 07:44:36.76	84.90	7.03	-50.0	-65.1	3.8	1.49e+00	0	41	104	0	71	20722
2026-01-11 07:44:39.77	84.53	7.19	-50.0	-65.1	3.8	1.49e+00	0	41	104	0	71	20664
2026-01-11 07:44:42.77	84.16	7.34	-50.0	-65.1	3.8	1.49e+00	0	42	104	0	71	20580
2026-01-11 07:44:45.78	83.79	7.50	-50.0	-65.0	3.8	1.49e+00	0	42	104	0	71	20408
2026-01-11 07:44:48.79	83.41	7.65	-50.0	-64.7	3.8	1.49e+00	0	42	104	0	71	19750
2026-01-11 07:44:51.80	83.02	7.80	-50.0	-65.1	3.8	1.49e+00	0	42	104	0	71	20562
2026-01-11 07:44:54.81	82.63	7.95	-50.0	-65.4	3.8	1.49e+00	0	42	104	0	71	21327
2026-01-11 07:44:57.82	82.24	8.11	-50.0	-65.0	3.8	1.49e+00	0	42	104	0	71	20419
2026-01-11 07:45:00.82	81.84	8.26	-49.9	-63.4	3.9	1.49e+00	0	42	104	0	71	16902
2026-01-11 07:45:03.83	81.44	8.41	-50.0	-65.0	3.8	1.49e+00	0	42	104	0	71	20444
2026-01-11 07:45:06.84	81.04	8.56	-48.9	-56.3	7.7	1.61e-01	0	42	0	3145728	69	8417
2026-01-11 07:45:09.84	80.63	8.71	-47.8	-53.2	10.7	2.81e-03	0	42	0	8388608	67	6594
2026-01-11 07:45:12.85	80.21	8.86	-49.0	-56.9	7.2	9.42e-02	0	42	0	13631488	68	9503
2026-01-11 07:45:15.86	79.79	9.01	-50.0	-65.0	3.8	1.49e+00	0	42	104	16777216	70	21632
2026-01-11 07:45:18.86	79.37	9.16	-50.0	-63.8	3.8	1.31e+00	0	42	104	18874368	70	18875
2026-01-11 07:45:21.87	78.94	9.31	-48.5	-54.5	9.3	1.46e+00	0	42	104	18874368	69	6826
2026-01-11 07:45:24.87	78.51	9.46	-46.5	-50.4	13.7	9.90e-06	0	42	0	23068672	65	5362
2026-01-11 07:45:27.88	78.08	9.61	-46.3	-50.0	14.2	0.00e+00	0	42	0	29360128	64	5417
2026-01-11 07:45:30.88	77.64	9.75	-46.2	-49.8	14.3	0.00e+00	0	42	0	34603008	64	5331
2026-01-11 07:45:33.89	77.19	9.90	-46.0	-49.7	14.5	0.00e+00	0	42	0	40894464	64	5234
2026-01-11 07:45:36.89	76.74	10.04	-46.0	-49.4	14.8	0.00e+00	0	42	0	46137344	63	5393
2026-01-11 07:45:39.90	76.29	10.19	-45.8	-49.1	15.1	0.00e+00	0	42	0	51380224	63	5205
2026-01-11 07:45:42.90	75.83	10.33	-45.9	-49.2	15.0	0.00e+00	0	42	0	57671680	63	5263
2026-01-11 07:45:45.91	75.37	10.47	-45.8	-49.1	15.1	0.00e+00	0	42	0	62914560	63	5212
2026-01-11 07:45:48.93	74.90	10.61	-45.7	-49.0	15.3	0.00e+00	0	42	0	68157440	63	5136
2026-01-11 07:45:51.93	74.43	10.75	-45.6	-48.8	15.5	0.00e+00	0	42	0	74448896	63	5025
2026-01-11 07:45:54.93	73.95	10.89	-45.6	-48.8	15.5	0.00e+00	0	42	0	79691776	63	5001
2026-01-11 07:45:57.94	73.47	11.03	-45.6	-48.8	15.5	0.00e+00	0	43	0	85983232	63	5010
2026-01-11 07:46:00.93	72.99	11.16	-45.5	-48.6	15.7	0.00e+00	0	43	0	91226112	62	5213
2026-01-11 07:46:03.94	72.50	11.30	-45.5	-48.7	15.6	0.00e+00	0	42	0	96468992	62	5250
2026-01-11 07:46:06.94	72.00	11.43	-45.4	-48.5	15.8	0.00e+00	0	42	0	102760448	62	5136
2026-01-11 07:46:09.95	71.50	11.57	-45.4	-48.5	15.9	0.00e+00	0	42	0	108003328	62	5104
2026-01-11 07:46:12.94	71.00	11.70	-45.3	-48.4	16.0	0.00e+00	0	42	0	113246208	62	5048
2026-01-11 07:46:15.95	70.49	11.83	-45.4	-48.5	15.9	0.00e+00	0	43	0	119537664	62	5102
2026-01-11 07:46:18.96	69.98	11.95	-45.5	-48.5	15.8	0.00e+00	0	43	0	124780544	62	5157
2026-01-11 07:46:21.97	69.46	12.08	-45.6	-48.7	15.6	0.00e+00	0	43	0	131072000	62	5250
2026-01-11 07:46:24.97	68.94	12.21	-45.6	-48.8	15.5	0.00e+00	0	43	0	136314880	62	5327
2026-01-11 07:46:27.98	68.41	12.33	-45.7	-49.0	15.3	0.00e+00	0	43	0	141557760	62	5440
2026-01-11 07:46:30.99	67.88	12.45	-45.6	-48.9	15.5	0.00e+00	0	43	0	147849216	62	5349
2026-01-11 07:46:33.99	67.35	12.57	-45.7	-48.9	15.4	0.00e+00	0	43	0	153092096	62	5373
2026-01-11 07:46:36.99	66.81	12.69	-45.6	-48.7	15.6	0.00e+00	0	43	0	158334976	62	5278
2026-01-11 07:46:40.00	66.27	12.80	-45.5	-48.6	15.8	0.00e+00	0	43	0	164626432	62	5179
2026-01-11 07:46:42.99	65.72	12.92	-45.7	-48.8	15.6	0.00e+00	0	43	0	169869312	62	5319
2026-01-11 07:46:46.01	65.17	13.03	-45.6	-48.7	15.7	7.00e-07	0	43	0	176160768	62	5260
2026-01-11 07:46:49.00	64.61	13.14	-45.6	-48.8	15.6	0.00e+00	0	43	0	181403648	62	5288
2026-01-11 07:46:52.00	64.05	13.24	-45.4	-48.5	15.9	0.00e+00	0	43	0	186646528	62	5113
2026-01-11 07:46:55.00	63.49	13.35	-45.4	-48.4	16.0	0.00e+00	0	43	0	192937984	62	5090
2026-01-11 07:46:58.01	62.92	13.45	-45.4	-48.4	16.0	0.00e+00	0	43	0	198180864	62	5059
2026-01-11 07:47:01.01	62.35	13.55	-45.3	-48.4	16.1	0.00e+00	0	43	0	203423744	62	5052
2026-01-11 07:47:04.01	61.77	13.65	-45.1	-48.1	16.3	0.00e+00	0	43	0	209715200	62	4889
2026-01-11 07:47:07.02	61.19	13.75	-45.3	-48.3	16.1	0.00e+00	0	43	0	214958080	62	4996
2026-01-11 07:47:10.02	60.61	13.84	-45.3	-48.4	16.1	0.00e+00	0	43	0	221249536	62	5054
2026-01-11 07:47:13.03	60.02	13.93	-45.1	-48.1	16.3	0.00e+00	0	43	0	226492416	62	4900
2026-01-11 07:47:16.03	59.43	14.02	-45.3	-48.2	16.2	0.00e+00	0	43	0	231735296	62	4980
2026-01-11 07:47:19.04	58.84	14.10	-45.3	-48.2	16.2	0.00e+00	0	43	0	238026752	62	4981
2026-01-11 07:47:22.02	58.24	14.18	-45.4	-48.4	16.0	0.00e+00	0	43	0	243269632	62	5064
2026-01-11 07:47:25.02	57.64	14.26	-45.4	-48.4	16.1	0.00e+00	0	43	0	248512512	62	5065
2026-01-11 07:47:28.03	57.04	14.34	-45.5	-48.6	15.8	0.00e+00	0	43	0	254803968	62	5182
2026-01-11 07:47:31.03	56.43	14.41	-45.3	-48.4	16.1	0.00e+00	0	43	0	260046848	62	5056
2026-01-11 07:47:34.04	55.82	14.48	-45.6	-48.9	15.6	0.00e+00	0	43	0	265289728	62	5344
2026-01-11 07:47:37.03	55.21	14.55	-45.5	-48.6	15.8	0.00e+00	0	43	0	271581184	62	5211
2026-01-11 07:47:40.03	54.60	14.61	-45.5	-48.6	15.8	0.00e+00	0	43	0	276824064	62	5208
2026-01-11 07:47:43.04	53.98	14.67	-45.2	-48.2	16.2	0.00e+00	0	43	0	283115520	62	4975
2026-01-11 07:47:46.04	53.36	14.73	-45.2	-48.2	16.2	0.00e+00	0	43	0	288358400	62	4970
2026-01-11 07:47:49.05	52.73	14.79	-45.1	-48.0	16.4	0.00e+00	0	43	0	293601280	62	4868
2026-01-11 07:47:52.05	52.11	14.84	-45.2	-48.2	16.3	0.00e+00	0	43	0	299892736	62	4944
2026-01-11 07:47:55.05	51.48	14.89	-45.2	-48.2	16.2	0.00e+00	0	43	0	305135616	62	4971
2026-01-11 07:47:58.06	50.85	14.93	-45.4	-48.5	15.9	0.00e+00	0	43	0	310378496	62	5156
2026-01-11 07:48:01.07	50.22	14.97	-45.4	-48.5	16.0	0.00e+00	0	43	0	316669952	62	5121
2026-01-11 07:48:04.08	49.59	15.01	-45.4	-48.5	15.9	0.00e+00	0	43	0	321912832	62	5127
2026-01-11 07:48:07.08	48.96	15.04	-45.5	-48.6	15.9	0.00e+00	0	43	0	328204288	62	5205
2026-01-11 07:48:10.09	48.32	15.08	-45.4	-48.5	16.0	0.00e+00	0	43	0	333447168	62	5128
2026-01-11 07:48:13.10	47.68	15.10	-45.4	-48.4	16.1	0.00e+00	0	43	0	338690048	62	5051
2026-01-11 07:48:16.10	47.04	15.13	-45.3	-48.4	16.1	0.00e+00	0	43	0	344981504	62	5047
2026-01-11 07:48:19.11	46.40	15.15	-45.3	-48.3	16.2	0.00e+00	0	43	0	350224384	62	5006
2026-01-11 07:48:22.11	45.77	15.16	-45.3	-48.4	16.1	0.00e+00	0	43	0	355467264	62	5058
2026-01-11 07:48:25.11	45.13	15.18	-45.4	-48.5	16.0	0.00e+00	0	43	0	361758720	62	5109
2026-01-11 07:48:28.11	44.49	15.19	-45.3	-48.3	16.2	0.00e+00	0	43	0	367001600	62	5012
2026-01-11 07:48:31.12	43.85	15.19	-45.4	-48.4	16.1	0.00e+00	0	43	0	373293056	62	5065
2026-01-11 07:48:34.12	43.21	15.19	-45.3	-48.3	16.2	0.00e+00	0	43	0	378535936	62	4997
2026-01-11 07:48:37.13	42.56	15.19	-45.4	-48.5	16.0	0.00e+00	0	43	0	383778816	62	5113
2026-01-11 07:48:40.14	41.92	15.19	-45.6	-48.7	15.8	0.00e+00	0	43	0	390070272	62	5220
2026-01-11 07:48:43.15	41.28	15.18	-45.4	-48.4	16.0	0.00e+00	0	43	0	395313152	62	5087
2026-01-11 07:48:46.15	40.64	15.17	-45.7	-48.8	15.7	0.00e+00	0	43	0	400556032	62	5325
2026-01-11 07:48:49.15	40.00	15.15	-45.6	-48.6	15.9	0.00e+00	0	43	0	406847488	62	5197
2026-01-11 07:48:52.15	39.36	15.13	-45.4	-48.4	16.0	0.00e+00	0	43	0	412090368	62	5079
2026-01-11 07:48:55.15	38.73	15.11	-45.5	-48.7	15.8	0.00e+00	0	43	0	418381824	62	5242
2026-01-11 07:48:58.15	38.09	15.09	-45.5	-48.7	15.8	0.00e+00	0	43	0	423624704	62	5250
2026-01-11 07:49:01.15	37.46	15.06	-45.4	-48.6	15.8	0.00e+00	0	43	0	428867584	62	5200
2026-01-11 07:49:04.16	36.82	15.02	-45.4	-48.5	16.0	0.00e+00	0	43	0	435159040	62	5139
2026-01-11 07:49:07.16	36.19	14.99	-45.2	-48.2	16.3	0.00e+00	0	43	0	440401920	62	4972
2026-01-11 07:49:10.17	35.56	14.95	-45.2	-48.3	16.2	0.00e+00	0	43	0	445644800	62	5016
2026-01-11 07:49:13.17	34.93	14.90	-45.1	-48.2	16.3	0.00e+00	0	43	0	451936256	62	4928
2026-01-11 07:49:16.18	34.30	14.86	-45.1	-48.1	16.4	0.00e+00	0	43	0	457179136	62	4904
2026-01-11 07:49:19.18	33.68	14.81	-45.1	-48.2	16.3	0.00e+00	0	43	0	462422016	62	4930
2026-01-11 07:49:22.19	33.06	14.75	-45.2	-48.2	16.2	0.00e+00	0	43	0	468713472	62	4972
2026-01-11 07:49:25.20	32.43	14.70	-45.2	-48.3	16.2	0.00e+00	0	43	0	473956352	62	5004
2026-01-11 07:49:28.20	31.82	14.64	-45.2	-48.3	16.2	0.00e+00	0	43	0	480247808	62	5027
2026-01-11 07:49:31.20	31.20	14.57	-45.3	-48.3	16.2	0.00e+00	0	43	0	485490688	62	5000
2026-01-11 07:49:34.20	30.59	14.51	-45.3	-48.3	16.2	0.00e+00	0	43	0	490733568	62	5010
2026-01-11 07:49:37.20	29.98	14.44	-45.6	-48.7	15.8	0.00e+00	0	43	0	497025024	62	5265
2026-01-11 07:49:40.20	29.38	14.37	-45.5	-48.7	15.7	0.00e+00	0	43	0	502267904	62	5262
2026-01-11 07:49:43.20	28.77	14.29	-45.2	-48.5	15.9	0.00e+00	0	43	0	507510784	62	5156
2026-01-11 07:49:46.20	28.17	14.21	-45.1	-48.5	16.0	0.00e+00	0	43	0	513802240	62	5127
2026-01-11 07:49:49.21	27.58	14.13	-45.3	-48.7	15.7	0.00e+00	0	43	0	519045120	62	5265
2026-01-11 07:49:52.22	26.98	14.05	-45.3	-48.5	16.0	0.00e+00	0	43	0	525336576	62	5115
2026-01-11 07:49:55.22	26.39	13.96	-45.1	-48.3	16.2	0.00e+00	0	43	0	530579456	62	5008
2026-01-11 07:49:58.22	25.81	13.87	-45.1	-48.2	16.3	0.00e+00	0	43	0	535822336	62	4935
2026-01-11 07:50:01.22	25.22	13.78	-45.1	-48.2	16.2	0.00e+00	0	43	0	542113792	62	4953
2026-01-11 07:50:04.21	24.65	13.69	-45.2	-48.3	16.1	0.00e+00	0	43	0	547356672	62	5030
2026-01-11 07:50:07.22	24.07	13.59	-45.1	-48.3	16.2	0.00e+00	0	43	0	552599552	62	4987
2026-01-11 07:50:10.22	23.50	13.49	-45.3	-48.4	16.0	0.00e+00	0	43	0	558891008	62	5080
2026-01-11 07:50:13.23	22.93	13.39	-45.2	-48.2	16.2	0.00e+00	0	43	0	564133888	62	4981
2026-01-11 07:50:16.23	22.37	13.29	-45.1	-48.2	16.3	0.00e+00	0	43	0	569376768	62	4931
2026-01-11 07:50:19.24	21.81	13.18	-45.0	-48.2	16.2	0.00e+00	0	43	0	575668224	62	4976
2026-01-11 07:50:22.25	21.25	13.07	-44.8	-48.2	16.2	0.00e+00	0	43	0	580911104	61	5250
2026-01-11 07:50:25.25	20.70	12.96	-44.8	-48.4	16.1	0.00e+00	0	43	0	587202560	61	5357
2026-01-11 07:50:28.26	20.15	12.85	-44.9	-48.2	16.2	0.00e+00	0	43	0	592445440	61	5279
2026-01-11 07:50:31.27	19.61	12.73	-45.3	-48.6	15.9	0.00e+00	0	43	0	597688320	61	5476
2026-01-11 07:50:34.27	19.07	12.62	-45.5	-48.8	15.6	0.00e+00	0	43	0	603979776	61	5629
2026-01-11 07:50:37.28	18.54	12.50	-46.0	-49.3	15.2	0.00e+00	0	43	0	609222656	62	5625
2026-01-11 07:50:40.27	18.01	12.38	-46.0	-49.3	15.2	0.00e+00	0	43	0	614465536	62	5635
2026-01-11 07:50:43.28	17.48	12.25	-46.0	-49.7	14.8	0.00e+00	0	43	0	620756992	62	5866
2026-01-11 07:50:46.28	16.96	12.13	-45.8	-49.7	14.7	0.00e+00	0	43	0	625999872	62	5919
2026-01-11 07:50:49.29	16.45	12.00	-45.8	-50.2	14.3	0.00e+00	0	43	0	632291328	62	6253
2026-01-11 07:50:52.29	15.93	11.88	-45.6	-50.3	14.2	0.00e+00	0	43	0	637534208	62	6277
2026-01-11 07:50:55.30	15.43	11.75	-45.8	-50.5	14.0	7.00e-07	0	43	0	642777088	62	6428
2026-01-11 07:50:58.30	14.92	11.62	-46.2	-50.6	13.8	8.30e-06	0	43	0	649068544	63	6196
2026-01-11 07:51:01.31	14.43	11.49	-46.6	-50.6	13.9	1.50e-06	0	43	0	654311424	63	6149
2026-01-11 07:51:04.31	13.93	11.35	-46.6	-50.7	13.7	4.50e-06	0	43	0	659554304	64	5917
2026-01-11 07:51:07.31	13.44	11.22	-46.7	-51.2	13.2	2.36e-05	0	43	0	665845760	64	6246
2026-01-11 07:51:10.31	12.96	11.08	-46.6	-51.2	13.1	1.98e-05	0	43	0	671088640	64	6267
2026-01-11 07:51:13.31	12.48	10.95	-46.2	-51.2	13.1	2.82e-05	0	43	0	677380096	64	6267
2026-01-11 07:51:16.31	12.01	10.81	-45.9	-51.6	12.9	5.34e-05	0	43	0	682622976	63	6893
2026-01-11 07:51:19.32	11.54	10.67	-46.0	-51.6	12.8	6.48e-05	0	43	0	687865856	63	6946
2026-01-11 07:51:22.32	11.07	10.53	-46.5	-51.7	12.7	8.08e-05	0	43	0	694157312	63	7023
2026-01-11 07:51:25.32	10.61	10.39	-46.3	-51.6	12.8	6.25e-05	0	43	0	699400192	63	6931
2026-01-11 07:51:28.32	10.15	10.25	-45.7	-51.2	13.2	1.98e-05	0	43	0	704643072	63	6604
2026-01-11 07:51:31.33	9.70	10.10	-46.0	-51.4	13.0	3.35e-05	0	43	0	710934528	63	6780
2026-01-11 07:51:34.34	9.25	9.96	-46.4	-51.5	12.9	4.11e-05	0	43	0	716177408	63	6835
2026-01-11 07:51:37.34	8.81	9.82	-46.2	-51.1	13.3	2.44e-05	0	43	0	721420288	63	6527
2026-01-11 07:51:40.34	8.37	9.67	-46.3	-50.9	13.5	1.22e-05	0	43	0	727711744	63	6371
2026-01-11 07:51:43.34	7.94	9.52	-46.3	-50.8	13.6	9.10e-06	0	43	0	732954624	63	6335
2026-01-11 07:51:46.34	7.51	9.38	-46.2	-50.7	13.7	3.80e-06	0	43	0	739246080	63	6206
2026-01-11 07:51:49.34	7.08	9.23	-45.9	-50.6	13.8	3.80e-06	0	43	0	744488960	63	6200
2026-01-11 07:51:52.34	6.66	9.08	-45.6	-50.6	13.8	3.00e-06	0	43	0	749731840	63	6168
2026-01-11 07:51:55.35	6.24	8.93	-49.7	-65.7	3.8	1.49e+00	0	43	104	753926144	70	23575
2026-01-11 07:51:58.35	5.83	8.78	-50.7	-66.0	3.8	1.49e+00	0	43	104	753926144	72	21618
2026-01-11 07:52:01.36	5.42	8.63	-50.7	-66.2	3.8	1.49e+00	0	43	104	753926144	72	22021
2026-01-11 07:52:04.36	5.02	8.48	-50.6	-66.2	3.8	1.49e+00	0	43	104	753926144	72	22259
2026-01-11 07:52:07.37	4.62	8.33	-51.0	-66.3	3.8	1.49e+00	0	43	104	753926144	72	22326
2026-01-11 07:52:10.37	4.22	8.18	-51.0	-66.2	3.8	1.49e+00	0	43	104	753926144	72	22216
2026-01-11 07:52:13.38	3.83	8.03	-51.0	-66.2	3.8	1.49e+00	0	43	104	753926144	72	22176
2026-01-11 07:52:16.38	3.45	7.88	-51.0	-66.2	3.8	1.49e+00	0	43	104	753926144	72	22150
2026-01-11 07:52:19.39	3.06	7.72	-51.0	-66.2	3.8	1.49e+00	0	43	104	753926144	72	22235
2026-01-11 07:52:22.40	2.68	7.57	-50.9	-66.2	3.8	1.49e+00	0	43	104	753926144	72	22178
2026-01-11 07:52:25.40	2.31	7.42	-50.9	-66.2	3.8	1.49e+00	0	43	104	753926144	72	22029
2026-01-11 07:52:28.41	1.94	7.27	-50.9	-66.2	3.8	1.49e+00	0	43	104	753926144	72	22104
2026-01-11 07:52:31.41	1.57	7.11	-50.9	-66.2	3.8	1.49e+00	0	43	104	753926144	72	22151
2026-01-11 07:52:34.41	1.21	6.96	-50.9	-66.2	3.8	1.49e+00	0	43	104	753926144	72	22060
2026-01-11 07:52:37.42	0.85	6.81	-50.9	-66.2	3.8	1.49e+00	0	43	104	753926144	72	22186
2026-01-11 07:52:40.42	0.50	6.65	-50.9	-66.2	3.8	1.49e+00	0	43	104	753926144	72	22054
2026-01-11 07:52:43.43	0.14	6.50	-50.9	-66.2	3.8	1.49e+00	0	43	104	753926144	72	22118
2026-01-11 07:52:46.44	359.80	6.34	-50.9	-66.2	3.8	1.49e+00	0	43	104	753926144	72	22185
2026-01-11 07:52:49.44	359.45	6.19	-50.9	-66.2	3.8	1.49e+00	0	43	104	753926144	72	22071
2026-01-11 07:52:52.45	359.11	6.04	-50.9	-66.1	3.8	1.49e+00	0	43	104	753926144	72	21992
2026-01-11 07:52:55.46	358.78	5.88	-50.9	-66.2	3.8	1.49e+00	0	43	104	753926144	72	22106
2026-01-11 07:52:58.46	358.44	5.73	-50.9	-66.2	3.8	1.49e+00	0	43	104	753926144	72	22086
2026-01-11 07:53:01.47	358.11	5.57	-50.9	-66.2	3.8	1.49e+00	0	43	104	753926144	72	22203
2026-01-11 07:53:04.48	357.79	5.42	-50.9	-66.2	3.8	1.49e+00	0	43	104	753926144	72	22127
2026-01-11 07:53:07.48	357.47	5.26	-50.9	-66.2	3.8	1.49e+00	0	43	104	753926144	72	22106
2026-01-11 07:53:10.48	357.15	5.11	-50.9	-66.2	3.8	1.49e+00	0	43	104	753926144	72	22133
