passes_logs/2026/01/11/T1/T1__20260111_115402_NOAA_21_JPSS-2_rec.log

#Pass ID: 20260111_115402_NOAA 21 (JPSS-2)
#Satellite: NOAA 21 (JPSS-2)
#Configuration: NOAA 21
#almurnet v.1.7.20251203
#Start time: 2026-01-11 11:54:04

#Version: 2.0.20230620
#Station: T1
#Location: 37.570604 lon 55.790049 lat
#TLE: 1 54234U 22150A   26010.92456470  .00000095  00000+0  65865-4 0  9991
#TLE: 2 54234  98.7494 311.8737 0000784 316.5119  43.5995 14.19533975164234

#Time	Az	El	Level	Level2	SNR	BER	BlckErr	Temp	State	Recorded	gain1	gain2
2026-01-11 11:54:04.27	227.50	5.09	-51.9	-65.0	3.8	1.49e+00	0	43	0	0	75	16202
2026-01-11 11:54:07.24	227.82	5.23	-51.9	-64.9	3.8	1.49e+00	0	43	104	0	75	16111
2026-01-11 11:54:10.22	228.15	5.38	-51.9	-65.0	3.8	1.49e+00	0	43	104	0	75	16132
2026-01-11 11:54:13.20	228.48	5.53	-51.9	-65.0	3.8	1.49e+00	0	43	104	0	75	16199
2026-01-11 11:54:16.18	228.82	5.69	-51.9	-64.9	3.8	1.49e+00	0	43	104	0	75	16120
2026-01-11 11:54:19.16	229.16	5.84	-51.9	-64.9	3.8	1.49e+00	0	43	104	0	75	16074
2026-01-11 11:54:22.14	229.50	5.99	-51.9	-64.9	3.8	1.49e+00	0	43	104	0	75	16001
2026-01-11 11:54:25.11	229.85	6.14	-51.9	-64.8	3.8	1.49e+00	0	43	104	0	75	15931
2026-01-11 11:54:28.09	230.20	6.29	-51.9	-64.9	3.8	1.49e+00	0	43	104	0	75	16012
2026-01-11 11:54:31.07	230.55	6.44	-51.9	-64.9	3.8	1.49e+00	0	43	104	0	75	16111
2026-01-11 11:54:34.05	230.91	6.59	-51.8	-64.9	3.8	1.49e+00	0	43	104	0	75	16056
2026-01-11 11:54:37.03	231.27	6.74	-51.8	-64.9	3.8	1.49e+00	0	43	104	0	75	16108
2026-01-11 11:54:40.01	231.64	6.89	-51.8	-64.8	3.8	1.49e+00	0	43	104	0	75	15827
2026-01-11 11:54:42.99	232.00	7.04	-51.8	-64.8	3.8	1.49e+00	0	43	104	0	75	15880
2026-01-11 11:54:45.97	232.38	7.19	-51.8	-64.6	3.8	1.49e+00	0	43	104	0	75	15406
2026-01-11 11:54:48.94	232.75	7.33	-51.8	-64.7	3.8	1.49e+00	0	43	104	0	75	15671
2026-01-11 11:54:51.92	233.13	7.48	-51.8	-64.5	3.8	1.49e+00	0	43	104	0	75	15333
2026-01-11 11:54:54.90	233.51	7.63	-51.8	-64.7	3.8	1.49e+00	0	43	104	0	75	15598
2026-01-11 11:54:57.88	233.90	7.78	-51.8	-64.7	3.8	1.49e+00	0	43	104	0	75	15716
2026-01-11 11:55:00.86	234.29	7.93	-51.8	-64.3	3.8	1.49e+00	0	43	104	0	75	15040
2026-01-11 11:55:03.84	234.68	8.08	-51.8	-64.6	3.8	1.49e+00	0	43	104	0	75	15442
2026-01-11 11:55:06.82	235.08	8.23	-51.7	-63.2	3.8	1.49e+00	0	43	104	0	75	13241
2026-01-11 11:55:09.80	235.49	8.38	-51.8	-64.4	3.8	1.49e+00	0	43	104	0	75	15187
2026-01-11 11:55:12.78	235.89	8.52	-50.4	-56.4	7.2	2.69e-01	0	43	0	0	72	7160
2026-01-11 11:55:15.75	236.30	8.67	-46.8	-49.6	14.0	7.60e-06	0	43	0	0	65	4887
2026-01-11 11:55:18.73	236.71	8.82	-46.1	-48.6	15.0	0.00e+00	0	43	0	0	63	4887
2026-01-11 11:55:21.71	237.13	8.96	-47.8	-51.1	12.4	6.40e-05	0	43	0	0	66	5521
2026-01-11 11:55:24.69	237.56	9.11	-46.7	-49.5	14.1	1.05e-01	0	43	0	0	65	4837
2026-01-11 11:55:27.67	237.98	9.25	-46.5	-49.3	14.3	1.01e-04	0	43	0	0	65	4706
2026-01-11 11:55:30.65	238.41	9.40	-46.5	-49.2	14.4	1.50e-06	0	43	0	0	64	4929
2026-01-11 11:55:33.63	238.85	9.54	-45.4	-47.7	16.0	0.00e+00	0	43	0	0	62	4652
2026-01-11 11:55:36.60	239.28	9.69	-45.1	-47.3	16.3	0.00e+00	0	43	0	0	62	4465
2026-01-11 11:55:39.58	239.73	9.83	-45.0	-47.3	16.4	0.00e+00	0	43	0	0	62	4446
2026-01-11 11:55:42.56	240.17	9.97	-45.0	-47.2	16.3	0.00e+00	0	43	0	0	61	4695
2026-01-11 11:55:45.54	240.63	10.11	-45.1	-47.3	16.3	0.00e+00	0	43	0	0	61	4752
2026-01-11 11:55:48.52	241.08	10.25	-45.2	-47.4	16.3	0.00e+00	0	43	0	0	61	4777
2026-01-11 11:55:51.50	241.54	10.39	-45.1	-47.3	16.4	0.00e+00	0	43	0	0	61	4718
2026-01-11 11:55:54.48	242.01	10.53	-44.9	-47.1	16.5	0.00e+00	0	43	0	0	61	4627
2026-01-11 11:55:57.46	242.47	10.67	-44.9	-47.0	16.7	0.00e+00	0	43	0	0	61	4573
2026-01-11 11:56:00.43	242.94	10.81	-44.8	-46.9	16.8	0.00e+00	0	43	0	0	61	4517
2026-01-11 11:56:03.41	243.42	10.94	-44.7	-46.7	16.9	0.00e+00	0	43	0	0	61	4436
2026-01-11 11:56:06.39	243.90	11.08	-44.6	-46.7	16.9	0.00e+00	0	43	0	0	61	4429
2026-01-11 11:56:09.37	244.39	11.21	-44.6	-46.7	16.9	0.00e+00	0	43	0	0	61	4419
2026-01-11 11:56:12.35	244.88	11.34	-44.8	-46.9	16.8	0.00e+00	0	43	0	0	61	4533
2026-01-11 11:56:15.33	245.37	11.48	-44.8	-47.0	16.7	0.00e+00	0	43	0	0	61	4559
2026-01-11 11:56:18.31	245.87	11.61	-44.6	-46.7	16.9	0.00e+00	0	43	0	0	61	4432
2026-01-11 11:56:21.29	246.37	11.74	-44.6	-46.7	17.0	0.00e+00	0	43	0	0	61	4406
2026-01-11 11:56:24.26	246.88	11.86	-44.8	-46.9	16.8	0.00e+00	0	43	0	0	61	4515
2026-01-11 11:56:27.24	247.39	11.99	-44.9	-47.0	16.6	0.00e+00	0	43	0	0	61	4597
2026-01-11 11:56:30.22	247.90	12.11	-45.0	-47.2	16.5	0.00e+00	0	43	0	0	61	4669
2026-01-11 11:56:33.20	248.42	12.24	-45.0	-47.2	16.5	0.00e+00	0	43	0	0	61	4692
2026-01-11 11:56:36.18	248.95	12.36	-45.0	-47.2	16.5	0.00e+00	0	43	0	0	61	4674
2026-01-11 11:56:39.16	249.48	12.48	-45.0	-47.1	16.6	0.00e+00	0	43	0	0	61	4646
2026-01-11 11:56:42.14	250.01	12.60	-44.8	-47.0	16.8	0.00e+00	0	43	0	0	61	4552
2026-01-11 11:56:45.12	250.54	12.72	-44.8	-47.0	16.8	0.00e+00	0	43	0	0	61	4552
2026-01-11 11:56:48.10	251.09	12.83	-44.8	-46.9	16.8	0.00e+00	0	43	0	0	61	4535
2026-01-11 11:56:51.08	251.63	12.95	-44.9	-47.0	16.8	0.00e+00	0	43	0	0	61	4581
2026-01-11 11:56:54.05	252.18	13.06	-44.7	-46.8	16.9	0.00e+00	0	43	0	0	61	4482
2026-01-11 11:56:57.03	252.73	13.17	-44.8	-47.0	16.8	0.00e+00	0	43	0	0	61	4558
2026-01-11 11:57:00.01	253.29	13.28	-44.9	-47.0	16.7	0.00e+00	0	43	0	0	61	4589
2026-01-11 11:57:02.99	253.85	13.38	-44.8	-46.9	16.8	0.00e+00	0	43	0	0	61	4537
2026-01-11 11:57:05.97	254.41	13.49	-44.7	-46.8	16.9	0.00e+00	0	43	0	0	61	4462
2026-01-11 11:57:08.94	254.98	13.59	-44.5	-46.6	17.1	0.00e+00	0	43	0	0	60	4631
2026-01-11 11:57:11.92	255.55	13.69	-44.5	-46.5	17.2	0.00e+00	0	43	0	0	60	4582
2026-01-11 11:57:14.90	256.12	13.78	-44.6	-46.7	17.1	0.00e+00	0	43	0	0	60	4654
2026-01-11 11:57:17.88	256.70	13.88	-44.5	-46.6	17.1	0.00e+00	0	43	0	0	60	4610
2026-01-11 11:57:20.86	257.28	13.97	-44.4	-46.5	17.2	0.00e+00	0	43	0	0	60	4547
2026-01-11 11:57:23.84	257.87	14.06	-44.3	-46.3	17.3	0.00e+00	0	43	0	0	60	4490
2026-01-11 11:57:26.82	258.46	14.15	-44.5	-46.6	17.2	0.00e+00	0	43	0	0	60	4628
2026-01-11 11:57:29.80	259.05	14.23	-44.7	-46.8	16.9	0.00e+00	0	43	0	0	60	4756
2026-01-11 11:57:32.77	259.65	14.32	-44.5	-46.6	17.1	0.00e+00	0	43	0	0	60	4610
2026-01-11 11:57:35.75	260.25	14.40	-44.4	-46.5	17.2	0.00e+00	0	43	0	0	60	4561
2026-01-11 11:57:38.73	260.85	14.47	-44.3	-46.4	17.3	0.00e+00	0	43	0	0	60	4504
2026-01-11 11:57:41.71	261.45	14.55	-44.2	-46.2	17.5	0.00e+00	0	43	0	0	60	4403
2026-01-11 11:57:44.69	262.06	14.62	-44.2	-46.2	17.5	0.00e+00	0	43	0	0	60	4411
2026-01-11 11:57:47.67	262.67	14.69	-44.3	-46.4	17.3	0.00e+00	0	43	0	0	60	4511
2026-01-11 11:57:50.65	263.29	14.76	-44.4	-46.5	17.2	0.00e+00	0	43	0	0	60	4593
2026-01-11 11:57:53.62	263.90	14.82	-44.1	-46.2	17.5	0.00e+00	0	43	0	0	60	4394
2026-01-11 11:57:56.60	264.52	14.88	-44.1	-46.0	17.6	0.00e+00	0	43	0	0	60	4333
2026-01-11 11:57:59.58	265.14	14.94	-44.0	-46.0	17.7	0.00e+00	0	43	0	0	60	4327
2026-01-11 11:58:02.56	265.76	14.99	-44.1	-46.1	17.7	0.00e+00	0	43	0	0	60	4343
2026-01-11 11:58:05.54	266.39	15.04	-44.1	-46.1	17.6	0.00e+00	0	43	0	0	60	4367
2026-01-11 11:58:08.52	267.02	15.09	-44.3	-46.4	17.3	0.00e+00	0	43	0	0	60	4514
2026-01-11 11:58:11.50	267.64	15.14	-44.2	-46.2	17.5	0.00e+00	0	43	0	0	60	4404
2026-01-11 11:58:14.48	268.28	15.18	-44.1	-46.1	17.6	0.00e+00	0	43	0	0	60	4361
2026-01-11 11:58:17.45	268.91	15.22	-44.2	-46.1	17.5	0.00e+00	0	43	0	0	60	4388
2026-01-11 11:58:20.43	269.54	15.25	-44.1	-46.1	17.6	0.00e+00	0	43	0	0	60	4365
2026-01-11 11:58:23.41	270.18	15.29	-44.1	-46.1	17.6	0.00e+00	0	43	0	0	60	4344
2026-01-11 11:58:26.39	270.81	15.31	-44.2	-46.2	17.5	0.00e+00	0	43	0	0	60	4424
2026-01-11 11:58:29.37	271.45	15.34	-44.4	-46.4	17.4	0.00e+00	0	43	0	0	60	4518
2026-01-11 11:58:32.35	272.09	15.36	-44.2	-46.2	17.5	0.00e+00	0	43	0	0	60	4406
2026-01-11 11:58:35.33	272.73	15.38	-44.4	-46.5	17.2	0.00e+00	0	43	0	0	60	4564
2026-01-11 11:58:38.31	273.37	15.40	-44.4	-46.5	17.2	0.00e+00	0	43	0	0	60	4567
2026-01-11 11:58:41.29	274.01	15.41	-44.5	-46.5	17.2	0.00e+00	0	43	0	0	60	4571
2026-01-11 11:58:44.26	274.65	15.42	-44.2	-46.2	17.5	0.00e+00	0	43	0	0	60	4405
2026-01-11 11:58:47.24	275.29	15.43	-44.4	-46.4	17.3	0.00e+00	0	43	0	0	60	4544
2026-01-11 11:58:50.22	275.93	15.43	-44.5	-46.6	17.2	0.00e+00	0	43	0	0	60	4600
2026-01-11 11:58:53.20	276.57	15.43	-44.4	-46.5	17.2	0.00e+00	0	43	0	0	60	4576
2026-01-11 11:58:56.18	277.21	15.42	-44.4	-46.5	17.3	0.00e+00	0	43	0	0	60	4565
2026-01-11 11:58:59.16	277.85	15.41	-44.5	-46.5	17.2	0.00e+00	0	43	0	0	60	4593
2026-01-11 11:59:02.14	278.49	15.40	-44.4	-46.5	17.2	0.00e+00	0	43	0	0	60	4578
2026-01-11 11:59:05.12	279.13	15.39	-44.4	-46.4	17.3	0.00e+00	0	43	0	0	60	4532
2026-01-11 11:59:08.10	279.77	15.37	-44.3	-46.3	17.4	0.00e+00	0	43	0	0	60	4476
2026-01-11 11:59:11.08	280.41	15.35	-44.2	-46.1	17.6	0.00e+00	0	43	0	0	60	4386
2026-01-11 11:59:14.05	281.05	15.33	-44.1	-46.1	17.7	0.00e+00	0	43	0	0	60	4370
2026-01-11 11:59:17.03	281.68	15.30	-44.2	-46.2	17.5	0.00e+00	0	43	0	0	60	4418
2026-01-11 11:59:20.01	282.32	15.27	-44.3	-46.4	17.4	0.00e+00	0	43	0	0	60	4496
2026-01-11 11:59:22.99	282.95	15.23	-44.3	-46.3	17.4	0.00e+00	0	43	0	0	60	4471
2026-01-11 11:59:25.97	283.58	15.20	-44.4	-46.5	17.3	0.00e+00	0	43	0	0	60	4555
2026-01-11 11:59:28.95	284.21	15.16	-44.5	-46.6	17.2	0.00e+00	0	43	0	0	60	4610
2026-01-11 11:59:31.93	284.84	15.11	-44.4	-46.4	17.3	0.00e+00	0	43	0	0	60	4541
2026-01-11 11:59:34.91	285.47	15.07	-44.5	-46.6	17.2	0.00e+00	0	43	0	0	60	4619
2026-01-11 11:59:37.88	286.09	15.02	-44.6	-46.7	17.0	0.00e+00	0	43	0	0	60	4684
2026-01-11 11:59:40.86	286.71	14.96	-44.5	-46.5	17.2	0.00e+00	0	43	0	0	60	4575
2026-01-11 11:59:43.84	287.33	14.91	-44.5	-46.5	17.2	0.00e+00	0	43	0	0	60	4592
2026-01-11 11:59:46.82	287.95	14.85	-44.5	-46.6	17.2	0.00e+00	0	43	0	0	60	4601
2026-01-11 11:59:49.80	288.57	14.79	-44.5	-46.6	17.2	0.00e+00	0	43	0	0	60	4606
2026-01-11 11:59:52.78	289.18	14.72	-44.7	-46.8	17.0	0.00e+00	0	43	0	0	60	4721
2026-01-11 11:59:55.76	289.79	14.65	-44.7	-46.8	16.9	0.00e+00	0	43	0	0	60	4739
2026-01-11 11:59:58.74	290.40	14.58	-44.6	-46.7	17.1	0.00e+00	0	43	0	0	60	4652
2026-01-11 12:00:01.71	291.00	14.51	-44.5	-46.5	17.2	0.00e+00	0	43	0	0	60	4585
2026-01-11 12:00:04.69	291.60	14.43	-44.7	-46.7	17.1	0.00e+00	0	43	0	0	60	4693
2026-01-11 12:00:07.67	292.20	14.36	-44.6	-46.6	17.2	0.00e+00	0	43	0	0	60	4634
2026-01-11 12:00:10.65	292.80	14.27	-44.7	-46.8	16.9	0.00e+00	0	43	0	0	60	4743
2026-01-11 12:00:13.63	293.39	14.19	-44.6	-46.7	17.1	0.00e+00	0	43	0	0	60	4670
2026-01-11 12:00:16.61	293.98	14.10	-44.6	-46.7	17.0	0.00e+00	0	43	0	0	60	4691
2026-01-11 12:00:19.59	294.56	14.02	-44.6	-46.7	17.1	0.00e+00	0	43	0	0	60	4673
2026-01-11 12:00:22.57	295.14	13.93	-44.7	-46.8	17.0	0.00e+00	0	43	0	0	60	4718
2026-01-11 12:00:25.54	295.72	13.83	-44.7	-46.8	16.9	0.00e+00	0	43	0	0	60	4751
2026-01-11 12:00:28.52	296.29	13.74	-44.8	-47.0	16.8	0.00e+00	0	43	0	0	60	4817
2026-01-11 12:00:31.50	296.87	13.64	-44.8	-47.0	16.7	0.00e+00	0	43	0	0	60	4831
2026-01-11 12:00:34.48	297.43	13.54	-44.9	-47.0	16.7	0.00e+00	0	43	0	0	60	4847
2026-01-11 12:00:37.46	298.00	13.44	-44.8	-46.9	16.8	0.00e+00	0	43	0	0	60	4797
2026-01-11 12:00:40.44	298.56	13.33	-44.7	-46.8	16.9	0.00e+00	0	43	0	0	60	4743
2026-01-11 12:00:43.42	299.11	13.23	-44.8	-46.9	16.8	0.00e+00	0	43	0	0	60	4780
2026-01-11 12:00:46.40	299.66	13.12	-44.9	-47.1	16.6	0.00e+00	0	43	0	0	60	4875
2026-01-11 12:00:49.38	300.21	13.01	-44.9	-47.0	16.6	0.00e+00	0	43	0	0	60	4867
2026-01-11 12:00:52.35	300.75	12.90	-44.8	-46.9	16.7	0.00e+00	0	43	0	0	60	4810
2026-01-11 12:00:55.33	301.29	12.78	-44.6	-46.7	16.9	0.00e+00	0	43	0	0	60	4655
2026-01-11 12:00:58.31	301.83	12.67	-44.7	-46.8	16.7	0.00e+00	0	43	0	0	60	4754
2026-01-11 12:01:01.29	302.36	12.55	-44.6	-46.7	16.9	0.00e+00	0	43	0	0	60	4688
2026-01-11 12:01:04.27	302.89	12.43	-44.7	-46.9	16.8	0.00e+00	0	43	0	0	60	4765
2026-01-11 12:01:07.25	303.41	12.31	-44.9	-47.0	16.7	0.00e+00	0	43	0	0	60	4859
2026-01-11 12:01:10.23	303.93	12.19	-44.7	-46.9	16.7	0.00e+00	0	43	0	0	60	4799
2026-01-11 12:01:13.21	304.44	12.07	-44.8	-47.0	16.7	0.00e+00	0	43	0	0	60	4819
2026-01-11 12:01:16.19	304.95	11.94	-44.8	-46.9	16.7	0.00e+00	0	43	0	0	60	4810
2026-01-11 12:01:19.16	305.46	11.82	-44.9	-47.0	16.6	0.00e+00	0	43	0	0	60	4857
2026-01-11 12:01:22.14	305.96	11.69	-45.1	-47.3	16.3	0.00e+00	0	43	0	0	60	5007
2026-01-11 12:01:25.12	306.46	11.56	-45.2	-47.5	16.1	0.00e+00	0	43	0	0	61	4836
2026-01-11 12:01:28.10	306.95	11.43	-45.0	-47.3	16.3	0.00e+00	0	43	0	0	61	4714
2026-01-11 12:01:31.08	307.44	11.30	-45.2	-47.4	16.2	0.00e+00	0	43	0	0	61	4797
2026-01-11 12:01:34.06	307.93	11.17	-45.0	-47.2	16.4	0.00e+00	0	43	0	0	61	4695
2026-01-11 12:01:37.04	308.41	11.03	-45.2	-47.5	16.2	0.00e+00	0	43	0	0	61	4836
2026-01-11 12:01:40.01	308.88	10.90	-45.3	-47.7	15.9	0.00e+00	0	43	0	0	61	4946
2026-01-11 12:01:42.99	309.35	10.76	-45.4	-47.8	15.8	0.00e+00	0	43	0	0	61	5002
2026-01-11 12:01:45.97	309.82	10.63	-45.6	-48.0	15.6	0.00e+00	0	43	0	0	61	5134
2026-01-11 12:01:48.95	310.28	10.49	-45.6	-48.1	15.6	0.00e+00	0	43	0	0	62	4879
2026-01-11 12:01:51.92	310.74	10.35	-45.5	-47.9	15.7	0.00e+00	0	43	0	0	62	4776
2026-01-11 12:01:54.90	311.20	10.22	-45.4	-47.8	15.9	7.00e-07	0	43	0	0	62	4708
2026-01-11 12:01:57.88	311.65	10.08	-45.5	-47.9	15.7	0.00e+00	0	43	0	0	62	4783
2026-01-11 12:02:00.86	312.10	9.94	-45.5	-48.0	15.6	0.00e+00	0	43	0	0	62	4819
2026-01-11 12:02:03.83	312.54	9.80	-45.6	-48.0	15.5	0.00e+00	0	44	0	0	62	4861
2026-01-11 12:02:06.81	312.98	9.65	-45.5	-47.9	15.6	0.00e+00	0	43	0	0	62	4805
2026-01-11 12:02:09.79	313.41	9.51	-45.6	-48.0	15.5	0.00e+00	0	43	0	0	62	4861
2026-01-11 12:02:12.77	313.84	9.37	-45.6	-48.0	15.5	0.00e+00	0	43	0	0	62	4870
2026-01-11 12:02:15.75	314.27	9.23	-45.7	-48.2	15.3	0.00e+00	0	44	0	0	62	4964
2026-01-11 12:02:18.73	314.69	9.08	-45.7	-48.3	15.3	0.00e+00	0	43	0	0	62	4988
2026-01-11 12:02:21.71	315.11	8.94	-51.4	-64.7	3.8	1.49e+00	0	43	104	0	74	16694
2026-01-11 12:02:24.69	315.52	8.79	-52.4	-65.4	3.8	1.49e+00	0	43	104	0	75	17008
2026-01-11 12:02:27.66	315.93	8.65	-52.3	-65.5	3.8	1.49e+00	0	43	104	0	75	17258
2026-01-11 12:02:30.64	316.34	8.50	-52.6	-65.6	3.8	1.49e+00	0	43	104	0	75	17338
2026-01-11 12:02:33.62	316.74	8.36	-52.6	-65.6	3.8	1.49e+00	0	43	104	0	76	16460
2026-01-11 12:02:36.60	317.14	8.21	-52.6	-65.6	3.8	1.49e+00	0	43	104	0	76	16395
2026-01-11 12:02:39.58	317.53	8.06	-52.6	-65.6	3.8	1.49e+00	0	43	104	0	76	16441
2026-01-11 12:02:42.56	317.93	7.92	-52.4	-65.6	3.8	1.49e+00	0	43	104	0	76	16340
2026-01-11 12:02:45.54	318.31	7.77	-52.4	-65.6	3.8	1.49e+00	0	43	104	0	76	16368
2026-01-11 12:02:48.52	318.70	7.62	-52.4	-65.5	3.8	1.49e+00	0	43	104	0	76	16305
2026-01-11 12:02:51.50	319.08	7.48	-52.4	-65.6	3.8	1.49e+00	0	43	104	0	76	16342
2026-01-11 12:02:54.48	319.45	7.33	-52.4	-65.5	3.8	1.49e+00	0	43	104	0	76	16311
2026-01-11 12:02:57.46	319.82	7.18	-52.4	-65.6	3.8	1.49e+00	0	43	104	0	76	16318
2026-01-11 12:03:00.43	320.19	7.03	-52.4	-65.5	3.8	1.49e+00	0	43	104	0	76	16308
2026-01-11 12:03:03.41	320.56	6.88	-52.4	-65.5	3.8	1.49e+00	0	43	104	0	76	16295
2026-01-11 12:03:06.39	320.92	6.74	-52.4	-65.6	3.8	1.49e+00	0	43	104	0	76	16335
2026-01-11 12:03:09.37	321.28	6.59	-52.4	-65.5	3.8	1.49e+00	0	43	104	0	76	16284
