passes_logs/2026/01/11/T1/T1__20260111_090109_SUOMI_NPP_rec.log

#Pass ID: 20260111_090109_SUOMI NPP
#Satellite: SUOMI NPP
#Configuration: NPP
#almurnet v.1.7.20251203
#Start time: 2026-01-11 09:01:11

#Version: 2.0.20230620
#Station: T1
#Location: 37.570604 lon 55.790049 lat
#TLE: 1 37849U 11061A   26010.94533966  .00000106  00000+0  71276-4 0  9997
#TLE: 2 37849  98.7807 313.0290 0002520  70.6146 289.5303 14.19524339736134

#Time	Az	El	Level	Level2	SNR	BER	BlckErr	Temp	State	Recorded	gain1	gain2
2026-01-11 09:01:11.00	129.41	5.08	-51.7	-66.6	3.8	1.49e+00	0	41	0	0	75	19562
2026-01-11 09:01:13.98	129.26	5.28	-51.7	-66.8	3.8	1.49e+00	0	42	104	0	75	19962
2026-01-11 09:01:16.97	129.11	5.49	-51.7	-66.8	3.8	1.49e+00	0	41	104	0	75	19954
2026-01-11 09:01:19.95	128.95	5.70	-51.7	-66.8	3.8	1.49e+00	0	42	104	0	75	20011
2026-01-11 09:01:22.94	128.79	5.90	-51.7	-66.6	3.8	1.49e+00	0	42	104	0	75	19568
2026-01-11 09:01:25.93	128.63	6.11	-51.6	-65.9	3.8	1.49e+00	0	42	104	0	75	18063
2026-01-11 09:01:28.92	128.47	6.32	-51.6	-65.4	3.8	1.49e+00	0	42	104	0	75	16944
2026-01-11 09:01:31.91	128.30	6.54	-51.6	-66.0	3.8	1.49e+00	0	42	104	0	75	18242
2026-01-11 09:01:34.89	128.13	6.75	-51.7	-66.5	3.8	1.49e+00	0	42	104	0	75	19257
2026-01-11 09:01:37.88	127.96	6.97	-51.6	-66.4	3.8	1.49e+00	0	42	104	0	75	19133
2026-01-11 09:01:40.87	127.79	7.18	-51.7	-66.5	3.8	1.49e+00	0	42	104	0	75	19340
2026-01-11 09:01:43.85	127.61	7.40	-51.6	-66.5	3.8	1.49e+00	0	42	104	0	75	19383
2026-01-11 09:01:46.84	127.43	7.62	-51.4	-63.2	4.2	1.46e+00	0	43	0	0	74	13993
2026-01-11 09:01:49.82	127.25	7.84	-50.7	-58.5	7.0	3.20e-01	0	43	0	4194304	73	8575
2026-01-11 09:01:52.81	127.06	8.07	-48.0	-51.7	13.8	5.56e-05	0	43	0	10485760	68	5259
2026-01-11 09:01:55.79	126.87	8.29	-46.5	-49.5	15.8	0.00e+00	0	43	0	15728640	65	4841
2026-01-11 09:01:58.78	126.68	8.52	-48.4	-52.7	12.7	1.44e-05	0	43	0	20971520	67	6206
2026-01-11 09:02:01.77	126.49	8.75	-50.9	-59.4	6.3	2.00e-01	0	43	0	27262976	72	10081
2026-01-11 09:02:04.77	126.29	8.98	-51.5	-64.2	3.9	1.31e+00	0	43	104	31457280	73	16590
2026-01-11 09:02:07.75	126.09	9.21	-49.8	-55.3	10.3	6.11e-02	0	43	0	32505856	71	6664
2026-01-11 09:02:10.74	125.88	9.44	-51.0	-59.7	6.2	5.35e-03	0	43	0	34603008	72	10431
2026-01-11 09:02:13.73	125.67	9.68	-50.5	-57.6	8.0	5.74e-02	0	43	0	39845888	72	8193
2026-01-11 09:02:16.71	125.46	9.92	-49.5	-54.5	11.2	4.05e-03	0	43	0	45088768	71	6080
2026-01-11 09:02:19.70	125.25	10.16	-47.5	-50.9	14.7	0.00e+00	0	43	0	51380224	67	5089
2026-01-11 09:02:22.68	125.03	10.40	-47.9	-51.7	13.9	1.50e-06	0	43	0	56623104	66	5859
2026-01-11 09:02:25.68	124.81	10.64	-48.5	-52.7	12.9	4.42e-05	0	43	0	61865984	67	6258
2026-01-11 09:02:28.67	124.58	10.89	-47.5	-50.8	14.8	0.00e+00	0	43	0	68157440	67	5024
2026-01-11 09:02:31.66	124.35	11.14	-46.6	-49.5	16.1	0.00e+00	0	43	0	73400320	65	4841
2026-01-11 09:02:34.65	124.11	11.39	-47.4	-50.8	14.8	0.00e+00	0	43	0	78643200	65	5610
2026-01-11 09:02:37.64	123.88	11.64	-47.7	-51.1	14.6	1.50e-06	0	43	0	84934656	66	5522
2026-01-11 09:02:40.63	123.63	11.89	-47.0	-50.1	15.6	0.00e+00	0	44	0	90177536	65	5167
2026-01-11 09:02:43.62	123.39	12.15	-46.9	-50.0	15.6	0.00e+00	0	43	0	95420416	65	5114
2026-01-11 09:02:46.61	123.13	12.41	-47.3	-50.5	15.1	0.00e+00	0	43	0	101711872	65	5448
2026-01-11 09:02:49.61	122.88	12.67	-47.2	-50.4	15.3	0.00e+00	0	43	0	106954752	65	5351
2026-01-11 09:02:52.59	122.62	12.93	-47.4	-50.7	14.9	0.00e+00	0	43	0	112197632	65	5579
2026-01-11 09:02:55.58	122.35	13.20	-47.2	-50.4	15.2	0.00e+00	0	43	0	118489088	65	5375
2026-01-11 09:02:58.57	122.08	13.46	-47.0	-50.0	15.6	0.00e+00	0	43	0	123731968	65	5146
2026-01-11 09:03:01.55	121.80	13.73	-46.8	-49.8	15.8	0.00e+00	0	43	0	128974848	65	5036
2026-01-11 09:03:04.53	121.52	14.00	-47.3	-50.6	15.2	0.00e+00	0	43	0	135266304	65	5472
2026-01-11 09:03:07.52	121.24	14.28	-47.0	-50.1	15.6	0.00e+00	0	44	0	140509184	65	5189
2026-01-11 09:03:10.52	120.94	14.56	-47.1	-50.3	15.5	0.00e+00	0	44	0	146800640	65	5293
2026-01-11 09:03:13.50	120.65	14.83	-47.3	-50.6	15.2	0.00e+00	0	44	0	152043520	65	5468
2026-01-11 09:03:16.49	120.34	15.12	-46.8	-49.8	15.9	0.00e+00	0	43	0	157286400	65	5001
2026-01-11 09:03:19.47	120.03	15.40	-46.7	-49.6	16.0	0.00e+00	0	43	0	163577856	65	4898
2026-01-11 09:03:22.46	119.72	15.69	-46.9	-49.9	15.9	0.00e+00	0	44	0	168820736	65	5065
2026-01-11 09:03:25.44	119.40	15.97	-46.0	-48.6	17.1	0.00e+00	0	44	0	174063616	63	4917
2026-01-11 09:03:28.43	119.07	16.27	-46.3	-49.0	16.8	0.00e+00	0	44	0	180355072	63	5133
2026-01-11 09:03:31.41	118.74	16.56	-46.6	-49.5	16.2	0.00e+00	0	44	0	185597952	64	5146
2026-01-11 09:03:34.40	118.39	16.86	-46.3	-49.1	16.6	0.00e+00	0	44	0	190840832	64	4904
2026-01-11 09:03:37.38	118.05	17.15	-46.7	-49.5	16.2	0.00e+00	0	43	0	197132288	64	5148
2026-01-11 09:03:40.36	117.69	17.45	-47.1	-50.2	15.6	0.00e+00	0	44	0	202375168	65	5232
2026-01-11 09:03:43.34	117.33	17.76	-46.5	-49.3	16.4	0.00e+00	0	44	0	207618048	65	4729
2026-01-11 09:03:46.32	116.96	18.06	-46.8	-49.8	16.0	0.00e+00	0	43	0	213909504	64	5297
2026-01-11 09:03:49.31	116.58	18.37	-46.8	-49.8	16.0	0.00e+00	0	44	0	219152384	64	5326
2026-01-11 09:03:52.31	116.19	18.69	-46.6	-49.5	16.2	0.00e+00	0	44	0	224395264	64	5153
2026-01-11 09:03:55.30	115.80	19.00	-47.3	-50.6	15.3	0.00e+00	0	44	0	230686720	65	5475
2026-01-11 09:03:58.28	115.40	19.32	-47.3	-50.6	15.3	0.00e+00	0	44	0	235929600	65	5479
2026-01-11 09:04:01.27	114.99	19.64	-47.5	-50.9	15.0	0.00e+00	0	44	0	241172480	66	5352
2026-01-11 09:04:04.26	114.57	19.96	-47.3	-50.4	15.4	0.00e+00	0	44	0	247463936	66	5091
2026-01-11 09:04:07.25	114.14	20.28	-47.5	-50.8	15.1	0.00e+00	0	44	0	252706816	66	5302
2026-01-11 09:04:10.23	113.70	20.61	-47.5	-50.9	15.1	0.00e+00	0	44	0	257949696	66	5341
2026-01-11 09:04:13.22	113.25	20.94	-47.5	-50.8	15.0	0.00e+00	0	44	0	264241152	66	5291
2026-01-11 09:04:16.21	112.79	21.27	-47.0	-50.1	15.7	0.00e+00	0	44	0	269484032	66	4911
2026-01-11 09:04:19.20	112.33	21.61	-46.7	-49.7	16.1	0.00e+00	0	44	0	274726912	65	4950
2026-01-11 09:04:22.19	111.85	21.94	-46.9	-50.0	15.8	0.00e+00	0	44	0	281018368	65	5119
2026-01-11 09:04:25.17	111.36	22.28	-46.1	-48.9	16.9	0.00e+00	0	44	0	286261248	64	4769
2026-01-11 09:04:28.16	110.86	22.62	-41.4	-49.7	14.6	1.45e-02	0	44	0	291504128	52	10448
2026-01-11 09:04:31.15	110.35	22.97	-42.5	-48.8	15.5	1.45e-02	0	44	0	297795584	54	8432
2026-01-11 09:04:34.13	109.83	23.31	-39.8	-50.0	14.3	1.49e-02	0	44	0	303038464	51	11509
2026-01-11 09:04:37.11	109.29	23.66	-38.0	-50.0	14.3	1.50e-02	0	44	0	308281344	48	13726
2026-01-11 09:04:40.10	108.75	24.01	-47.8	-51.2	14.7	0.00e+00	0	44	0	314572800	66	5586
2026-01-11 09:04:43.10	108.19	24.36	-47.9	-51.4	14.5	0.00e+00	0	44	0	319815680	66	5674
2026-01-11 09:04:46.09	107.61	24.72	-48.1	-52.0	13.6	1.50e-06	0	44	0	325058560	67	5778
2026-01-11 09:04:49.09	107.03	25.07	-48.0	-52.0	13.7	1.37e-04	0	44	0	331350016	67	5744
2026-01-11 09:04:52.07	106.43	25.43	-47.7	-51.7	13.9	1.17e-02	0	44	0	336592896	67	5551
2026-01-11 09:04:55.05	105.82	25.78	-47.7	-52.2	13.4	1.17e-02	0	44	0	341835776	66	6225
2026-01-11 09:04:58.03	105.19	26.14	-47.3	-51.3	14.3	1.16e-02	0	44	0	348127232	66	5594
2026-01-11 09:05:01.03	104.55	26.50	-46.6	-50.7	14.7	1.17e-02	0	44	0	353370112	65	5568
2026-01-11 09:05:04.01	103.90	26.86	-47.8	-51.2	14.7	0.00e+00	0	44	0	359661568	66	5572
2026-01-11 09:05:07.00	103.23	27.22	-47.6	-50.8	15.1	0.00e+00	0	44	0	364904448	66	5303
2026-01-11 09:05:09.98	102.54	27.58	-47.9	-51.4	14.6	0.00e+00	0	44	0	370147328	67	5358
2026-01-11 09:05:12.96	101.84	27.94	-47.7	-51.0	15.0	0.00e+00	0	44	0	376438784	67	5123
2026-01-11 09:05:15.95	101.12	28.30	-47.6	-50.9	15.1	0.00e+00	0	44	0	381681664	67	5069
2026-01-11 09:05:18.94	100.39	28.66	-47.8	-51.4	14.5	2.69e-04	0	44	0	386924544	66	5674
2026-01-11 09:05:21.93	99.64	29.02	-47.7	-51.0	14.9	0.00e+00	0	44	0	393216000	66	5456
2026-01-11 09:05:24.93	98.87	29.38	-48.2	-51.8	14.3	1.50e-06	0	44	0	398458880	67	5618
2026-01-11 09:05:27.92	98.08	29.74	-47.5	-50.7	15.2	0.00e+00	0	44	0	403701760	67	4938
2026-01-11 09:05:30.91	97.28	30.10	-47.9	-51.4	14.6	0.00e+00	0	44	0	409993216	66	5682
2026-01-11 09:05:33.91	96.45	30.45	-48.2	-51.8	14.2	2.20e-06	0	44	0	415236096	67	5617
2026-01-11 09:05:36.90	95.61	30.80	-48.7	-52.4	13.7	5.30e-06	0	44	0	420478976	68	5721
2026-01-11 09:05:39.90	94.75	31.15	-49.4	-53.8	12.3	3.10e-04	0	44	0	426770432	69	6333
2026-01-11 09:05:42.89	93.87	31.50	-49.3	-53.7	12.4	2.67e-04	0	44	0	432013312	70	5912
2026-01-11 09:05:45.89	92.97	31.84	-48.5	-52.1	14.1	3.80e-06	0	44	0	437256192	69	5193
2026-01-11 09:05:48.88	92.06	32.18	-48.9	-53.0	13.2	1.98e-05	0	44	0	443547648	68	6066
2026-01-11 09:05:51.87	91.13	32.51	-49.6	-54.4	11.7	1.04e-03	0	44	0	448790528	70	6419
2026-01-11 09:05:54.87	90.17	32.84	-49.5	-54.1	12.1	1.24e-03	0	44	0	454033408	70	6134
2026-01-11 09:05:57.86	89.20	33.16	-48.8	-53.3	12.7	1.07e-04	0	44	0	460324864	69	5970
2026-01-11 09:06:00.85	88.20	33.47	-49.5	-55.5	10.5	3.65e-03	0	44	0	465567744	69	7677
2026-01-11 09:06:03.84	87.19	33.78	-49.3	-54.9	11.0	5.38e-03	0	44	0	470810624	70	6788
2026-01-11 09:06:06.84	86.16	34.08	-48.7	-53.6	12.5	2.06e-04	0	44	0	477102080	69	6172
2026-01-11 09:06:09.84	85.11	34.38	-48.9	-54.0	12.0	3.11e-04	0	44	0	482344960	68	6868
2026-01-11 09:06:12.83	84.04	34.66	-48.5	-52.9	13.0	5.56e-05	0	44	0	488636416	69	5702
2026-01-11 09:06:15.83	82.95	34.94	-48.2	-52.5	13.5	9.10e-06	0	44	0	493879296	68	5766
2026-01-11 09:06:18.83	81.84	35.21	-48.3	-52.7	13.3	2.82e-05	0	44	0	499122176	68	5905
2026-01-11 09:06:21.83	80.71	35.46	-47.7	-51.6	14.3	7.00e-07	0	44	0	505413632	66	5836
2026-01-11 09:06:24.82	79.57	35.71	-47.5	-51.3	14.7	0.00e+00	0	44	0	510656512	66	5611
2026-01-11 09:06:27.82	78.41	35.94	-47.0	-50.3	15.6	0.00e+00	0	44	0	515899392	66	5012
2026-01-11 09:06:30.81	77.24	36.16	-46.2	-49.2	16.7	0.00e+00	0	44	0	522190848	63	5222
2026-01-11 09:06:33.81	76.04	36.37	-46.3	-49.3	16.5	0.00e+00	0	44	0	527433728	63	5323
2026-01-11 09:06:36.80	74.84	36.57	-46.4	-49.5	16.2	0.00e+00	0	44	0	532676608	64	5137
2026-01-11 09:06:39.79	73.62	36.75	-45.9	-48.7	17.1	0.00e+00	0	44	0	538968064	63	4964
2026-01-11 09:06:42.79	72.39	36.92	-45.6	-48.2	17.6	0.00e+00	0	44	0	544210944	62	4971
2026-01-11 09:06:45.78	71.14	37.08	-46.1	-48.9	17.1	0.00e+00	0	44	0	549453824	62	5347
2026-01-11 09:06:48.78	69.88	37.22	-46.6	-49.6	16.2	0.00e+00	0	44	0	555745280	64	5217
2026-01-11 09:06:51.77	68.62	37.34	-45.8	-48.5	17.4	0.00e+00	0	44	0	560988160	63	4827
2026-01-11 09:06:54.77	67.34	37.45	-45.1	-47.6	18.3	0.00e+00	0	44	0	567279616	62	4605
2026-01-11 09:06:57.76	66.06	37.54	-46.1	-48.8	17.2	0.00e+00	0	44	0	572522496	62	5293
2026-01-11 09:07:00.76	64.77	37.62	-46.4	-49.3	16.6	0.00e+00	0	44	0	577765376	63	5310
2026-01-11 09:07:03.74	63.48	37.68	-46.9	-50.1	15.9	0.00e+00	0	44	0	584056832	64	5468
2026-01-11 09:07:06.74	62.17	37.72	-48.0	-51.9	14.1	3.00e-06	0	44	0	589299712	66	5996
2026-01-11 09:07:09.73	60.87	37.75	-47.4	-50.9	15.2	0.00e+00	0	44	0	594542592	66	5351
2026-01-11 09:07:12.72	59.57	37.76	-47.4	-50.8	15.2	0.00e+00	0	44	0	600834048	66	5297
2026-01-11 09:07:15.72	58.27	37.75	-46.9	-49.9	16.0	0.00e+00	0	44	0	606076928	65	5077
2026-01-11 09:07:18.71	56.97	37.72	-47.2	-50.5	15.4	0.00e+00	0	44	0	611319808	65	5463
2026-01-11 09:07:21.71	55.66	37.68	-47.6	-51.2	14.8	0.00e+00	0	44	0	617611264	65	5871
2026-01-11 09:07:24.71	54.37	37.63	-48.9	-53.4	12.7	1.99e-04	0	44	0	622854144	68	6403
2026-01-11 09:07:27.70	53.08	37.55	-48.4	-52.5	13.7	9.90e-06	0	44	0	628097024	68	5727
2026-01-11 09:07:30.70	51.79	37.46	-48.5	-52.8	13.2	1.60e-05	0	44	0	634388480	68	5961
2026-01-11 09:07:33.69	50.52	37.35	-48.6	-53.0	13.2	5.87e-05	0	44	0	639631360	68	6089
2026-01-11 09:07:36.68	49.25	37.23	-48.3	-52.4	13.6	9.90e-06	0	44	0	644874240	68	5708
2026-01-11 09:07:39.67	48.00	37.10	-48.1	-52.4	13.6	5.30e-06	0	44	0	651165696	67	6025
2026-01-11 09:07:42.66	46.75	36.94	-49.7	-55.9	10.0	4.34e-03	0	44	0	656408576	69	8070
2026-01-11 09:07:45.66	45.52	36.78	-48.6	-53.1	12.9	1.47e-04	0	44	0	662700032	69	5832
2026-01-11 09:07:48.66	44.30	36.60	-47.1	-50.6	15.2	0.00e+00	0	44	0	667942912	66	5216
2026-01-11 09:07:51.65	43.09	36.40	-47.9	-52.1	13.8	2.20e-06	0	44	0	673185792	66	6171
2026-01-11 09:07:54.64	41.90	36.19	-46.0	-48.8	17.0	0.00e+00	0	44	0	679477248	63	5036
2026-01-11 09:07:57.64	40.73	35.97	-46.0	-48.9	17.0	0.00e+00	0	44	0	684720128	63	5050
2026-01-11 09:08:00.62	39.57	35.74	-46.7	-49.9	15.9	0.00e+00	0	44	0	689963008	64	5398
2026-01-11 09:08:03.61	38.43	35.50	-47.4	-51.0	14.9	0.00e+00	0	44	0	696254464	65	5748
2026-01-11 09:08:06.61	37.31	35.25	-46.8	-50.1	15.8	0.00e+00	0	44	0	701497344	65	5187
2026-01-11 09:08:09.61	36.20	34.98	-47.6	-51.3	14.6	0.00e+00	0	44	0	706740224	66	5651
2026-01-11 09:08:12.60	35.11	34.71	-47.8	-51.8	14.2	1.50e-06	0	44	0	713031680	66	5952
2026-01-11 09:08:15.59	34.04	34.43	-47.2	-50.6	15.4	0.00e+00	0	44	0	718274560	66	5179
2026-01-11 09:08:18.59	32.99	34.13	-46.3	-49.2	16.7	0.00e+00	0	44	0	723517440	64	4950
2026-01-11 09:08:21.57	31.97	33.84	-47.4	-50.9	15.0	0.00e+00	0	44	0	729808896	65	5704
2026-01-11 09:08:24.55	30.96	33.53	-46.6	-49.6	16.3	0.00e+00	0	44	0	735051776	65	4887
2026-01-11 09:08:27.53	29.97	33.22	-47.5	-51.0	15.0	0.00e+00	0	44	0	740294656	65	5736
2026-01-11 09:08:30.52	29.00	32.90	-47.4	-51.0	15.0	0.00e+00	0	44	0	746586112	65	5723
2026-01-11 09:08:33.50	28.05	32.58	-47.0	-50.3	15.6	0.00e+00	0	44	0	751828992	65	5316
2026-01-11 09:08:36.48	27.12	32.25	-48.1	-52.0	13.9	7.00e-07	0	44	0	757071872	66	6096
2026-01-11 09:08:39.46	26.20	31.91	-48.4	-52.9	13.0	1.06e-05	0	44	0	763363328	67	6358
2026-01-11 09:08:42.44	25.31	31.58	-48.6	-53.1	12.9	9.38e-05	0	44	0	768606208	68	6200
2026-01-11 09:08:45.42	24.44	31.23	-48.4	-52.5	13.7	7.60e-06	0	44	0	773849088	68	5748
2026-01-11 09:08:48.40	23.58	30.89	-48.1	-51.8	14.3	1.14e-05	0	44	0	780140544	68	5322
2026-01-11 09:08:51.38	22.74	30.54	-47.0	-50.1	15.8	0.00e+00	0	44	0	785383424	65	5200
2026-01-11 09:08:54.36	21.92	30.19	-46.4	-49.3	16.6	0.00e+00	0	44	0	790626304	64	5020
2026-01-11 09:08:57.35	21.12	29.84	-46.9	-50.1	15.9	0.00e+00	0	44	0	796917760	64	5478
2026-01-11 09:09:00.33	20.34	29.48	-48.2	-52.0	14.0	1.50e-06	0	44	0	802160640	66	6118
2026-01-11 09:09:03.31	19.57	29.13	-48.8	-53.0	13.1	2.74e-05	0	44	0	807403520	68	6098
2026-01-11 09:09:06.29	18.82	28.77	-47.7	-51.3	14.7	1.50e-06	0	44	0	813694976	67	5302
2026-01-11 09:09:09.27	18.09	28.41	-47.6	-51.2	14.8	0.00e+00	0	44	0	818937856	67	5272
2026-01-11 09:09:12.25	17.37	28.05	-46.8	-50.0	16.0	0.00e+00	0	44	0	824180736	65	5115
2026-01-11 09:09:15.23	16.67	27.70	-46.4	-49.4	16.5	0.00e+00	0	44	0	830472192	64	5068
2026-01-11 09:09:18.21	15.99	27.34	-46.2	-49.1	16.8	0.00e+00	0	44	0	835715072	64	4907
2026-01-11 09:09:21.19	15.32	26.98	-47.1	-50.4	15.5	0.00e+00	0	44	0	840957952	64	5720
2026-01-11 09:09:24.17	14.66	26.62	-47.6	-51.0	15.0	0.00e+00	0	44	0	847249408	66	5439
2026-01-11 09:09:27.15	14.03	26.26	-47.7	-51.2	14.8	0.00e+00	0	44	0	852492288	66	5587
2026-01-11 09:09:30.13	13.40	25.91	-47.0	-50.2	15.8	0.00e+00	0	44	0	857735168	65	5252
2026-01-11 09:09:33.12	12.79	25.55	-46.8	-50.0	16.0	0.00e+00	0	44	0	864026624	65	5115
2026-01-11 09:09:36.10	12.19	25.20	-46.7	-49.8	16.2	0.00e+00	0	44	0	869269504	65	5001
2026-01-11 09:09:39.08	11.61	24.85	-47.1	-50.3	15.7	0.00e+00	0	44	0	874512384	65	5310
2026-01-11 09:09:42.06	11.04	24.49	-47.3	-50.7	15.3	7.00e-07	0	44	0	880803840	65	5540
2026-01-11 09:09:45.04	10.48	24.15	-47.7	-51.3	14.7	0.00e+00	0	44	0	886046720	66	5630
2026-01-11 09:09:48.02	9.93	23.80	-48.1	-51.8	14.2	1.50e-06	0	44	0	891289600	66	5946
2026-01-11 09:09:51.00	9.40	23.45	-48.0	-51.7	14.4	7.00e-07	0	44	0	897581056	66	5860
2026-01-11 09:09:53.98	8.88	23.11	-47.4	-50.8	15.2	0.00e+00	0	44	0	902823936	66	5289
2026-01-11 09:09:56.96	8.37	22.77	-47.0	-50.1	15.8	0.00e+00	0	44	0	908066816	65	5217
2026-01-11 09:09:59.94	7.87	22.43	-46.6	-49.6	16.3	0.00e+00	0	44	0	914358272	65	4896
2026-01-11 09:10:02.93	7.38	22.09	-47.1	-50.3	15.7	0.00e+00	0	44	0	919601152	65	5295
2026-01-11 09:10:05.91	6.91	21.75	-46.7	-49.8	16.1	0.00e+00	0	44	0	924844032	65	5029
2026-01-11 09:10:08.89	6.44	21.42	-46.2	-49.3	16.7	0.00e+00	0	44	0	931135488	64	5001
2026-01-11 09:10:11.87	5.98	21.09	-46.9	-50.5	15.5	0.00e+00	0	44	0	936378368	64	5773
2026-01-11 09:10:14.84	5.54	20.76	-47.9	-52.4	13.6	8.30e-06	0	44	0	941621248	66	6373
2026-01-11 09:10:17.83	5.10	20.44	-48.2	-52.6	13.4	1.90e-05	0	44	0	947912704	67	6163
2026-01-11 09:10:20.81	4.67	20.11	-47.7	-51.7	14.3	7.00e-07	0	44	0	953155584	67	5535
2026-01-11 09:10:23.79	4.25	19.79	-47.4	-51.2	14.7	0.00e+00	0	44	0	958398464	66	5562
2026-01-11 09:10:26.77	3.84	19.48	-47.2	-50.7	15.2	0.00e+00	0	44	0	964689920	66	5245
2026-01-11 09:10:29.75	3.44	19.16	-47.7	-51.4	14.5	1.50e-06	0	44	0	969932800	66	5722
2026-01-11 09:10:32.74	3.05	18.85	-47.5	-51.1	14.8	0.00e+00	0	44	0	975175680	66	5477
2026-01-11 09:10:35.72	2.67	18.54	-46.5	-49.5	16.3	0.00e+00	0	44	0	981467136	64	5121
2026-01-11 09:10:38.69	2.29	18.23	-46.3	-49.3	16.6	0.00e+00	0	44	0	986710016	64	4987
2026-01-11 09:10:41.67	1.92	17.92	-46.7	-49.9	15.9	0.00e+00	0	44	0	991952896	64	5397
2026-01-11 09:10:44.66	1.56	17.62	-47.1	-50.8	15.1	7.00e-07	0	44	0	998244352	65	5612
2026-01-11 09:10:47.63	1.21	17.32	-47.0	-50.7	15.2	0.00e+00	0	44	0	1003487232	65	5557
2026-01-11 09:10:50.61	0.86	17.02	-47.1	-50.7	15.2	0.00e+00	0	44	0	1008730112	65	5579
2026-01-11 09:10:53.59	0.52	16.73	-47.4	-51.0	14.9	0.00e+00	0	44	0	1015021568	65	5752
2026-01-11 09:10:56.57	0.19	16.43	-47.7	-51.7	14.2	0.00e+00	0	44	0	1020264448	66	5878
2026-01-11 09:10:59.55	359.86	16.14	-47.7	-51.7	14.2	7.00e-07	0	44	0	1025507328	66	5863
2026-01-11 09:11:02.53	359.54	15.86	-48.1	-52.1	13.8	4.50e-06	0	44	0	1031798784	66	6179
2026-01-11 09:11:05.52	359.23	15.57	-48.2	-52.4	13.5	6.10e-06	0	44	0	1037041664	67	6019
2026-01-11 09:11:08.49	358.92	15.29	-48.0	-52.7	13.2	2.21e-05	0	44	0	1042284544	67	6229
2026-01-11 09:11:11.47	358.62	15.01	-47.8	-52.1	13.7	7.60e-06	0	44	0	1048576000	67	5815
2026-01-11 09:11:14.45	358.32	14.73	-47.5	-51.2	14.6	1.50e-06	0	44	0	1053818880	66	5572
2026-01-11 09:11:17.43	358.03	14.45	-47.2	-50.6	15.2	0.00e+00	0	44	0	1059061760	66	5207
2026-01-11 09:11:20.41	357.75	14.18	-47.0	-50.4	15.4	0.00e+00	0	44	0	1065353216	65	5366
2026-01-11 09:11:23.39	357.47	13.91	-47.1	-50.6	15.2	7.00e-07	0	44	0	1070596096	65	5490
2026-01-11 09:11:26.37	357.19	13.64	-47.5	-51.0	14.8	0.00e+00	0	44	0	1075838976	65	5751
2026-01-11 09:11:29.36	356.93	13.37	-47.4	-50.9	14.9	0.00e+00	0	44	0	1082130432	65	5722
2026-01-11 09:11:32.34	356.66	13.11	-47.3	-51.0	14.8	7.00e-07	0	44	0	1087373312	65	5760
2026-01-11 09:11:35.32	356.40	12.85	-47.2	-51.4	14.4	0.00e+00	0	44	0	1092616192	65	6007
2026-01-11 09:11:38.30	356.15	12.59	-46.9	-51.6	14.2	2.20e-06	0	44	0	1097859072	65	6197
2026-01-11 09:11:41.27	355.90	12.33	-46.8	-52.3	13.5	6.10e-06	0	44	0	1104150528	65	6664
2026-01-11 09:11:44.25	355.65	12.08	-46.5	-52.4	13.4	1.06e-05	0	44	0	1109393408	64	7181
2026-01-11 09:11:47.23	355.41	11.82	-46.7	-52.5	13.3	1.60e-05	0	44	0	1114636288	64	7223
2026-01-11 09:11:50.21	355.18	11.57	-47.4	-52.5	13.2	1.67e-05	0	44	0	1120927744	65	6846
2026-01-11 09:11:53.19	354.94	11.32	-47.8	-52.9	12.9	3.73e-05	0	44	0	1126170624	66	6793
2026-01-11 09:11:56.17	354.72	11.08	-48.0	-53.2	12.6	7.62e-05	0	44	0	1131413504	66	7008
2026-01-11 09:11:59.15	354.49	10.83	-47.7	-53.5	12.2	1.92e-04	0	44	0	1137704960	66	7285
2026-01-11 09:12:02.13	354.27	10.59	-47.8	-53.7	12.2	2.46e-04	0	44	0	1142947840	66	7375
2026-01-11 09:12:05.11	354.05	10.35	-48.0	-53.2	12.5	1.33e-04	0	44	0	1148190720	66	7029
2026-01-11 09:12:08.09	353.84	10.11	-47.4	-52.7	13.0	4.27e-05	0	44	0	1154482176	66	6614
2026-01-11 09:12:11.07	353.63	9.87	-46.7	-52.4	13.3	1.37e-05	0	44	0	1159725056	65	6750
2026-01-11 09:12:14.05	353.43	9.64	-46.1	-51.9	13.8	1.50e-06	0	44	0	1164967936	64	6742
2026-01-11 09:12:17.04	353.22	9.40	-46.8	-52.0	13.7	3.80e-06	0	44	0	1171259392	64	6809
2026-01-11 09:12:20.02	353.03	9.17	-47.5	-52.0	13.7	3.80e-06	0	44	0	1176502272	65	6437
2026-01-11 09:12:23.00	352.83	8.94	-50.3	-65.3	4.0	2.53e-02	0	44	0	1181745152	71	21197
2026-01-11 09:12:25.98	352.64	8.71	-51.6	-67.4	3.8	1.49e+00	0	44	104	1181745152	74	22648
2026-01-11 09:12:28.96	352.45	8.49	-52.1	-67.6	3.8	1.49e+00	0	44	104	1181745152	74	23127
2026-01-11 09:12:31.94	352.26	8.26	-52.2	-67.6	3.8	1.49e+00	0	44	104	1181745152	75	21923
2026-01-11 09:12:34.92	352.08	8.04	-52.1	-67.7	3.8	1.49e+00	0	44	104	1181745152	75	22018
2026-01-11 09:12:37.90	351.90	7.82	-52.4	-67.6	3.8	1.49e+00	0	44	104	1181745152	75	21953
2026-01-11 09:12:40.88	351.72	7.60	-52.4	-67.7	3.8	1.49e+00	0	44	104	1181745152	75	22020
2026-01-11 09:12:43.86	351.55	7.38	-52.4	-67.7	3.8	1.49e+00	0	44	104	1181745152	75	22110
2026-01-11 09:12:46.84	351.38	7.16	-52.5	-67.7	3.8	1.49e+00	0	44	104	1181745152	75	22061
2026-01-11 09:12:49.83	351.21	6.95	-52.5	-67.7	3.8	1.49e+00	0	44	104	1181745152	75	22031
2026-01-11 09:12:52.81	351.04	6.73	-52.4	-67.7	3.8	1.49e+00	0	44	104	1181745152	75	22011
2026-01-11 09:12:55.79	350.88	6.52	-52.4	-67.6	3.8	1.49e+00	0	44	104	1181745152	75	21927
2026-01-11 09:12:58.77	350.71	6.31	-52.4	-67.6	3.8	1.49e+00	0	44	104	1181745152	75	21890
2026-01-11 09:13:01.75	350.56	6.10	-52.4	-67.6	3.8	1.49e+00	0	44	104	1181745152	75	21864
2026-01-11 09:13:04.73	350.40	5.90	-52.4	-67.6	3.8	1.49e+00	0
