passes_logs/2026/01/11/T1/T1__20260111_011115_NOAA_20_JPSS-1_rec.log

#Pass ID: 20260111_011115_NOAA 20 (JPSS-1)
#Satellite: NOAA 20 (JPSS-1)
#Configuration: NOAA 20
#almurnet v.1.7.20251203
#Start time: 2026-01-11 01:11:16

#Version: 2.0.20230620
#Station: T1
#Location: 37.570604 lon 55.790049 lat
#TLE: 1 43013U 17073A   26009.69119415  .00000109  00000+0  72598-4 0  9996
#TLE: 2 43013  98.7631 310.6868 0001678  46.7442 313.3874 14.19534878421981

#Time	Az	El	Level	Level2	SNR	BER	BlckErr	Temp	State	Recorded	gain1	gain2
2026-01-11 01:11:16.19	7.47	5.06	-49.7	-65.5	3.8	1.49e+00	0	41	0	0	70	22849
2026-01-11 01:11:19.20	7.25	5.25	-47.6	-65.2	3.8	1.49e+00	0	41	104	0	65	29471
2026-01-11 01:11:22.21	7.03	5.44	-47.6	-65.2	3.8	1.49e+00	0	42	104	0	65	29513
2026-01-11 01:11:25.22	6.80	5.63	-47.6	-65.2	3.8	1.49e+00	0	41	104	0	65	29613
2026-01-11 01:11:28.24	6.57	5.83	-47.6	-65.2	3.8	1.49e+00	0	42	104	0	65	29525
2026-01-11 01:11:31.25	6.34	6.02	-47.6	-65.2	3.8	1.49e+00	0	42	104	0	65	29577
2026-01-11 01:11:34.26	6.11	6.21	-47.6	-65.2	3.8	1.49e+00	0	42	104	0	65	29512
2026-01-11 01:11:37.27	5.87	6.41	-47.6	-65.2	3.8	1.49e+00	0	42	104	0	65	29678
2026-01-11 01:11:40.29	5.63	6.60	-47.6	-65.2	3.8	1.49e+00	0	42	104	0	65	29443
2026-01-11 01:11:43.30	5.39	6.80	-47.6	-65.0	3.8	1.49e+00	0	42	104	0	65	28833
2026-01-11 01:11:46.31	5.14	7.00	-47.6	-64.9	3.8	1.49e+00	0	42	104	0	65	28470
2026-01-11 01:11:49.33	4.89	7.20	-47.6	-64.6	3.8	1.49e+00	0	42	104	0	65	27463
2026-01-11 01:11:52.34	4.63	7.40	-47.5	-64.4	3.8	1.49e+00	0	42	104	0	65	26878
2026-01-11 01:11:55.35	4.38	7.60	-47.6	-65.0	3.8	1.49e+00	0	43	104	0	65	29000
2026-01-11 01:11:58.37	4.11	7.80	-47.6	-64.6	3.8	1.49e+00	0	43	104	0	65	27645
2026-01-11 01:12:01.38	3.85	8.01	-47.4	-60.7	4.5	1.32e+00	0	42	0	0	65	17667
2026-01-11 01:12:04.40	3.58	8.21	-47.1	-57.1	6.8	2.33e-01	0	43	0	6291456	65	11672
2026-01-11 01:12:07.41	3.30	8.42	-46.5	-54.2	9.7	1.55e-02	0	43	0	11534336	65	8277
2026-01-11 01:12:10.42	3.03	8.62	-46.0	-52.2	11.8	5.64e-04	0	43	0	16777216	63	7442
2026-01-11 01:12:13.43	2.74	8.83	-46.1	-52.4	11.7	3.25e-04	0	43	0	23068672	63	7561
2026-01-11 01:12:16.45	2.46	9.04	-46.8	-55.5	8.3	2.24e-02	0	43	0	28311552	64	10293
2026-01-11 01:12:19.46	2.17	9.25	-46.6	-51.7	12.2	3.19e-03	0	43	0	33554432	65	6223
2026-01-11 01:12:22.47	1.87	9.46	-46.1	-50.5	13.6	2.21e-05	0	43	0	39845888	64	5737
2026-01-11 01:12:25.48	1.57	9.67	-46.1	-50.4	13.6	5.30e-06	0	43	0	45088768	64	5707
2026-01-11 01:12:28.49	1.27	9.88	-46.3	-50.6	13.5	7.60e-06	0	43	0	51380224	64	5797
2026-01-11 01:12:31.50	0.96	10.09	-46.3	-50.4	13.7	3.80e-06	0	43	0	56623104	64	5671
2026-01-11 01:12:34.51	0.65	10.31	-46.4	-50.5	13.6	6.80e-06	0	43	0	61865984	64	5746
2026-01-11 01:12:37.52	0.33	10.52	-46.3	-50.4	13.7	3.00e-06	0	43	0	68157440	64	5710
2026-01-11 01:12:40.54	0.01	10.74	-46.2	-50.4	13.7	4.50e-06	0	43	0	73400320	64	5722
2026-01-11 01:12:43.55	359.68	10.96	-46.1	-50.4	13.8	5.30e-06	0	43	0	79691776	64	5659
2026-01-11 01:12:46.56	359.35	11.18	-46.0	-50.4	13.7	3.80e-06	0	43	0	84934656	63	6052
2026-01-11 01:12:49.57	359.01	11.40	-46.0	-50.6	13.7	5.30e-06	0	43	0	90177536	63	6132
2026-01-11 01:12:52.58	358.67	11.62	-45.9	-50.5	13.7	3.80e-06	0	43	0	96468992	63	6095
2026-01-11 01:12:55.59	358.32	11.84	-45.9	-50.3	13.9	2.20e-06	0	43	0	101711872	63	5987
2026-01-11 01:12:58.60	357.96	12.06	-45.9	-50.1	14.2	3.00e-06	0	43	0	106954752	63	5827
2026-01-11 01:13:01.61	357.60	12.28	-45.9	-50.1	14.2	2.20e-06	0	43	0	113246208	63	5798
2026-01-11 01:13:04.62	357.24	12.51	-45.8	-49.8	14.4	7.00e-07	0	43	0	118489088	63	5654
2026-01-11 01:13:07.63	356.87	12.73	-46.0	-49.9	14.4	1.50e-06	0	43	0	124780544	63	5695
2026-01-11 01:13:10.64	356.49	12.96	-46.0	-49.9	14.5	2.20e-06	0	43	0	130023424	63	5666
2026-01-11 01:13:13.65	356.11	13.18	-46.1	-50.0	14.3	7.00e-07	0	44	0	135266304	63	5741
2026-01-11 01:13:16.66	355.72	13.41	-46.1	-49.9	14.5	0.00e+00	0	43	0	141557760	63	5661
2026-01-11 01:13:19.67	355.33	13.64	-46.0	-49.8	14.5	0.00e+00	0	43	0	146800640	63	5607
2026-01-11 01:13:22.68	354.92	13.87	-45.9	-49.6	14.7	0.00e+00	0	43	0	152043520	63	5492
2026-01-11 01:13:25.70	354.51	14.10	-45.8	-49.3	15.0	0.00e+00	0	44	0	158334976	63	5338
2026-01-11 01:13:28.71	354.10	14.33	-45.9	-49.4	14.9	0.00e+00	0	43	0	163577856	63	5386
2026-01-11 01:13:31.72	353.68	14.56	-45.9	-49.4	14.9	7.00e-07	0	44	0	169869312	63	5393
2026-01-11 01:13:34.73	353.25	14.79	-45.9	-49.5	14.9	0.00e+00	0	43	0	175112192	63	5434
2026-01-11 01:13:37.74	352.82	15.02	-45.7	-49.2	15.2	0.00e+00	0	44	0	180355072	63	5232
2026-01-11 01:13:40.75	352.38	15.26	-45.6	-49.0	15.4	0.00e+00	0	43	0	186646528	63	5159
2026-01-11 01:13:43.76	351.93	15.49	-45.6	-48.9	15.5	0.00e+00	0	43	0	191889408	63	5100
2026-01-11 01:13:46.77	351.47	15.72	-45.6	-49.0	15.4	0.00e+00	0	43	0	198180864	63	5130
2026-01-11 01:13:49.79	351.01	15.96	-45.5	-49.0	15.4	0.00e+00	0	43	0	203423744	63	5146
2026-01-11 01:13:52.80	350.54	16.19	-45.6	-49.1	15.4	0.00e+00	0	44	0	208666624	63	5173
2026-01-11 01:13:55.81	350.06	16.43	-45.5	-49.0	15.5	0.00e+00	0	43	0	214958080	62	5410
2026-01-11 01:13:58.82	349.57	16.66	-45.6	-49.0	15.5	0.00e+00	0	44	0	220200960	62	5418
2026-01-11 01:14:01.83	349.08	16.90	-45.5	-48.9	15.6	0.00e+00	0	43	0	226492416	62	5366
2026-01-11 01:14:04.84	348.58	17.13	-45.6	-49.2	15.3	0.00e+00	0	44	0	231735296	62	5544
2026-01-11 01:14:07.85	348.07	17.37	-45.4	-49.3	15.2	0.00e+00	0	44	0	236978176	62	5610
2026-01-11 01:14:10.86	347.55	17.60	-45.4	-49.4	15.1	0.00e+00	0	44	0	243269632	62	5691
2026-01-11 01:14:13.87	347.02	17.83	-45.4	-49.2	15.2	0.00e+00	0	44	0	248512512	62	5588
2026-01-11 01:14:16.88	346.49	18.07	-45.5	-49.3	15.2	0.00e+00	0	44	0	253755392	62	5644
2026-01-11 01:14:19.89	345.94	18.30	-45.5	-49.4	15.1	0.00e+00	0	44	0	260046848	62	5662
2026-01-11 01:14:22.90	345.39	18.54	-45.5	-49.2	15.3	0.00e+00	0	44	0	265289728	62	5548
2026-01-11 01:14:25.91	344.83	18.77	-45.8	-49.1	15.3	0.00e+00	0	44	0	271581184	62	5528
2026-01-11 01:14:28.92	344.26	19.00	-45.9	-49.3	15.2	0.00e+00	0	44	0	276824064	62	5611
2026-01-11 01:14:31.93	343.69	19.23	-46.1	-49.5	14.9	0.00e+00	0	44	0	282066944	62	5787
2026-01-11 01:14:34.94	343.10	19.46	-46.1	-49.4	15.1	0.00e+00	0	44	0	288358400	62	5722
2026-01-11 01:14:37.95	342.50	19.69	-45.7	-49.0	15.5	0.00e+00	0	44	0	293601280	62	5443
2026-01-11 01:14:40.96	341.90	19.92	-45.4	-48.8	15.6	0.00e+00	0	44	0	299892736	62	5334
2026-01-11 01:14:43.97	341.28	20.14	-45.5	-48.7	15.8	0.00e+00	0	44	0	305135616	62	5242
2026-01-11 01:14:46.99	340.66	20.37	-45.3	-48.7	15.8	0.00e+00	0	44	0	310378496	62	5247
2026-01-11 01:14:50.00	340.03	20.59	-44.8	-48.3	16.1	0.00e+00	0	44	0	316669952	61	5313
2026-01-11 01:14:53.01	339.38	20.81	-44.8	-48.1	16.3	0.00e+00	0	44	0	321912832	61	5175
2026-01-11 01:14:56.02	338.73	21.03	-44.9	-47.9	16.5	0.00e+00	0	44	0	327155712	61	5090
2026-01-11 01:14:59.02	338.08	21.25	-44.8	-47.8	16.7	0.00e+00	0	44	0	333447168	61	4987
2026-01-11 01:15:02.03	337.40	21.47	-44.3	-47.3	17.2	0.00e+00	0	44	0	338690048	60	5012
2026-01-11 01:15:05.04	336.73	21.68	-44.3	-47.1	17.3	0.00e+00	0	44	0	344981504	60	4897
2026-01-11 01:15:08.05	336.04	21.89	-44.3	-47.1	17.3	0.00e+00	0	44	0	350224384	60	4903
2026-01-11 01:15:11.06	335.34	22.10	-44.3	-47.2	17.3	0.00e+00	0	44	0	355467264	60	4941
2026-01-11 01:15:14.07	334.63	22.30	-44.2	-47.0	17.4	0.00e+00	0	44	0	361758720	60	4850
2026-01-11 01:15:17.08	333.91	22.50	-44.2	-46.9	17.6	0.00e+00	0	44	0	367001600	60	4791
2026-01-11 01:15:20.09	333.18	22.70	-44.2	-47.0	17.5	0.00e+00	0	44	0	373293056	60	4818
2026-01-11 01:15:23.10	332.45	22.90	-44.3	-47.0	17.4	0.00e+00	0	44	0	378535936	60	4865
2026-01-11 01:15:26.11	331.70	23.09	-44.1	-46.7	17.6	0.00e+00	0	44	0	383778816	59	4978
2026-01-11 01:15:29.12	330.95	23.27	-44.5	-47.2	17.2	0.00e+00	0	44	0	390070272	59	5244
2026-01-11 01:15:32.14	330.18	23.46	-44.6	-47.3	17.1	0.00e+00	0	44	0	395313152	59	5330
2026-01-11 01:15:35.15	329.41	23.64	-44.6	-47.3	17.1	0.00e+00	0	44	0	400556032	59	5332
2026-01-11 01:15:38.15	328.63	23.81	-44.4	-47.1	17.2	0.00e+00	0	44	0	406847488	59	5213
2026-01-11 01:15:41.16	327.84	23.98	-44.3	-47.2	17.2	0.00e+00	0	44	0	412090368	59	5259
2026-01-11 01:15:44.17	327.04	24.14	-44.1	-47.0	17.4	0.00e+00	0	44	0	418381824	59	5117
2026-01-11 01:15:47.19	326.23	24.30	-44.1	-46.8	17.6	0.00e+00	0	44	0	423624704	59	5020
2026-01-11 01:15:50.20	325.41	24.46	-44.2	-46.8	17.6	0.00e+00	0	44	0	428867584	59	5029
2026-01-11 01:15:53.21	324.59	24.61	-43.8	-46.3	18.0	0.00e+00	0	44	0	435159040	59	4743
2026-01-11 01:15:56.22	323.76	24.75	-43.7	-46.3	18.1	0.00e+00	0	44	0	440401920	59	4723
2026-01-11 01:15:59.23	322.92	24.89	-43.7	-46.3	18.1	0.00e+00	0	44	0	445644800	59	4712
2026-01-11 01:16:02.25	322.07	25.02	-44.0	-46.6	17.8	0.00e+00	0	44	0	451936256	59	4912
2026-01-11 01:16:05.26	321.22	25.14	-44.1	-46.8	17.6	0.00e+00	0	44	0	457179136	59	4999
2026-01-11 01:16:08.27	320.36	25.26	-44.4	-47.2	17.2	0.00e+00	0	44	0	463470592	59	5235
2026-01-11 01:16:11.28	319.49	25.37	-44.4	-47.2	17.3	0.00e+00	0	44	0	468713472	59	5233
2026-01-11 01:16:14.29	318.62	25.48	-44.8	-47.6	16.9	0.00e+00	0	44	0	473956352	60	5216
2026-01-11 01:16:17.29	317.74	25.57	-44.9	-47.9	16.7	0.00e+00	0	44	0	480247808	60	5354
2026-01-11 01:16:20.30	316.86	25.66	-45.1	-48.2	16.2	0.00e+00	0	44	0	485490688	61	5276
2026-01-11 01:16:23.31	315.97	25.75	-45.2	-48.3	16.2	0.00e+00	0	44	0	491782144	61	5292
2026-01-11 01:16:26.32	315.08	25.82	-45.4	-48.6	15.9	0.00e+00	0	44	0	497025024	61	5482
2026-01-11 01:16:29.33	314.18	25.89	-45.3	-48.4	16.1	0.00e+00	0	44	0	502267904	61	5367
2026-01-11 01:16:32.34	313.28	25.95	-45.1	-48.2	16.3	0.00e+00	0	44	0	508559360	61	5241
2026-01-11 01:16:35.35	312.38	26.01	-45.1	-48.2	16.3	0.00e+00	0	44	0	513802240	61	5264
2026-01-11 01:16:38.36	311.47	26.05	-45.5	-48.8	15.7	0.00e+00	0	44	0	519045120	61	5640
2026-01-11 01:16:41.37	310.56	26.09	-45.7	-49.0	15.6	0.00e+00	0	44	0	525336576	62	5429
2026-01-11 01:16:44.38	309.65	26.12	-45.8	-49.0	15.5	0.00e+00	0	44	0	530579456	62	5463
2026-01-11 01:16:47.39	308.73	26.14	-45.8	-49.1	15.5	0.00e+00	0	44	0	536870912	62	5478
2026-01-11 01:16:50.40	307.82	26.16	-45.9	-49.1	15.4	0.00e+00	0	44	0	542113792	62	5523
2026-01-11 01:16:53.41	306.91	26.16	-45.5	-48.6	15.9	0.00e+00	0	44	0	547356672	62	5188
2026-01-11 01:16:56.42	305.99	26.16	-45.3	-48.3	16.2	0.00e+00	0	44	0	553648128	62	5016
2026-01-11 01:16:59.43	305.08	26.15	-45.3	-48.3	16.2	0.00e+00	0	44	0	558891008	62	5018
2026-01-11 01:17:02.45	304.16	26.13	-45.3	-48.3	16.2	0.00e+00	0	44	0	565182464	62	5007
2026-01-11 01:17:05.46	303.24	26.11	-44.9	-47.7	16.8	0.00e+00	0	44	0	570425344	61	4936
2026-01-11 01:17:08.47	302.33	26.07	-44.6	-47.3	17.1	0.00e+00	0	44	0	575668224	61	4737
2026-01-11 01:17:11.48	301.42	26.03	-44.5	-47.2	17.2	0.00e+00	0	44	0	581959680	60	4974
2026-01-11 01:17:14.49	300.52	25.98	-44.4	-47.1	17.3	0.00e+00	0	44	0	587202560	60	4897
2026-01-11 01:17:17.50	299.61	25.93	-44.1	-46.8	17.7	0.00e+00	0	44	0	592445440	60	4713
2026-01-11 01:17:20.49	298.72	25.86	-43.8	-46.3	18.1	0.00e+00	0	44	0	598736896	59	4716
2026-01-11 01:17:23.50	297.82	25.79	-43.8	-46.3	18.0	0.00e+00	0	44	0	603979776	59	4749
2026-01-11 01:17:26.51	296.93	25.71	-43.8	-46.3	18.0	0.00e+00	0	44	0	610271232	59	4731
2026-01-11 01:17:29.52	296.04	25.62	-43.9	-46.3	18.0	0.00e+00	0	44	0	615514112	59	4743
2026-01-11 01:17:32.53	295.16	25.53	-43.7	-46.1	18.2	0.00e+00	0	44	0	620756992	59	4636
2026-01-11 01:17:35.54	294.29	25.43	-43.9	-46.4	18.0	0.00e+00	0	44	0	627048448	59	4779
2026-01-11 01:17:38.55	293.41	25.32	-44.2	-46.8	17.6	0.00e+00	0	44	0	632291328	59	5005
2026-01-11 01:17:41.56	292.55	25.20	-44.1	-46.7	17.7	0.00e+00	0	44	0	637534208	59	4950
2026-01-11 01:17:44.57	291.69	25.08	-44.1	-46.7	17.7	0.00e+00	0	44	0	643825664	59	4944
2026-01-11 01:17:47.58	290.84	24.95	-44.1	-46.7	17.7	0.00e+00	0	44	0	649068544	59	4948
2026-01-11 01:17:50.59	289.99	24.82	-44.4	-47.1	17.3	0.00e+00	0	44	0	655360000	59	5183
2026-01-11 01:17:53.60	289.16	24.68	-44.6	-47.3	17.1	0.00e+00	0	44	0	660602880	59	5320
2026-01-11 01:17:56.61	288.33	24.53	-44.7	-47.4	17.0	0.00e+00	0	44	0	665845760	60	5098
2026-01-11 01:17:59.62	287.51	24.38	-44.9	-47.7	16.8	0.00e+00	0	44	0	672137216	60	5256
2026-01-11 01:18:02.62	286.69	24.23	-45.1	-48.0	16.5	0.00e+00	0	44	0	677380096	60	5413
2026-01-11 01:18:05.63	285.89	24.06	-45.3	-48.3	16.1	0.00e+00	0	44	0	683671552	61	5325
2026-01-11 01:18:08.64	285.09	23.90	-45.3	-48.3	16.2	0.00e+00	0	44	0	688914432	61	5299
2026-01-11 01:18:11.65	284.30	23.72	-45.5	-48.5	16.0	0.00e+00	0	44	0	694157312	61	5407
2026-01-11 01:18:14.66	283.52	23.55	-45.5	-48.5	16.0	0.00e+00	0	44	0	700448768	61	5421
2026-01-11 01:18:17.66	282.75	23.37	-45.5	-48.5	15.9	0.00e+00	0	44	0	705691648	61	5444
2026-01-11 01:18:20.67	281.99	23.18	-45.5	-48.5	16.0	0.00e+00	0	44	0	710934528	61	5437
2026-01-11 01:18:23.69	281.24	22.99	-45.7	-48.8	15.7	0.00e+00	0	44	0	717225984	62	5321
2026-01-11 01:18:26.69	280.49	22.80	-45.6	-48.7	15.8	0.00e+00	0	44	0	722468864	62	5265
2026-01-11 01:18:29.70	279.76	22.60	-45.5	-48.6	15.9	0.00e+00	0	44	0	728760320	62	5173
2026-01-11 01:18:32.72	279.03	22.40	-45.5	-48.5	16.0	0.00e+00	0	44	0	734003200	62	5130
2026-01-11 01:18:35.73	278.32	22.20	-45.3	-48.2	16.2	0.00e+00	0	44	0	739246080	62	4973
2026-01-11 01:18:38.74	277.61	21.99	-45.0	-47.9	16.5	0.00e+00	0	44	0	745537536	62	4797
2026-01-11 01:18:41.75	276.91	21.78	-45.0	-47.8	16.5	0.00e+00	0	44	0	750780416	61	5041
2026-01-11 01:18:44.76	276.23	21.57	-44.9	-47.7	16.7	0.00e+00	0	44	0	756023296	61	4954
2026-01-11 01:18:47.77	275.55	21.36	-44.6	-47.3	17.1	0.00e+00	0	44	0	762314752	61	4736
2026-01-11 01:18:50.78	274.88	21.14	-44.6	-47.4	17.0	0.00e+00	0	44	0	767557632	61	4765
2026-01-11 01:18:53.79	274.22	20.92	-44.7	-47.5	16.9	0.00e+00	0	44	0	773849088	61	4824
2026-01-11 01:18:56.79	273.57	20.70	-44.6	-47.4	16.9	0.00e+00	0	44	0	779091968	61	4813
2026-01-11 01:18:59.80	272.93	20.48	-44.6	-47.4	17.0	0.00e+00	0	44	0	784334848	61	4764
2026-01-11 01:19:02.81	272.30	20.25	-44.8	-47.7	16.8	0.00e+00	0	44	0	790626304	61	4932
2026-01-11 01:19:05.82	271.68	20.02	-44.9	-47.8	16.7	0.00e+00	0	44	0	795869184	61	4984
2026-01-11 01:19:08.83	271.07	19.80	-44.8	-47.6	16.8	0.00e+00	0	44	0	802160640	61	4892
2026-01-11 01:19:11.84	270.46	19.57	-44.6	-47.4	16.9	0.00e+00	0	44	0	807403520	61	4793
2026-01-11 01:19:14.85	269.87	19.34	-44.6	-47.4	16.9	0.00e+00	0	44	0	812646400	61	4793
2026-01-11 01:19:17.86	269.28	19.11	-44.5	-47.2	17.1	0.00e+00	0	44	0	818937856	60	4966
2026-01-11 01:19:20.87	268.71	18.87	-44.3	-47.1	17.3	0.00e+00	0	44	0	824180736	60	4879
2026-01-11 01:19:23.88	268.14	18.64	-44.2	-46.9	17.4	0.00e+00	0	44	0	829423616	60	4769
2026-01-11 01:19:26.89	267.58	18.41	-44.2	-46.9	17.4	0.00e+00	0	44	0	835715072	60	4773
2026-01-11 01:19:29.90	267.03	18.17	-44.1	-46.7	17.6	0.00e+00	0	44	0	840957952	60	4674
2026-01-11 01:19:32.91	266.49	17.94	-43.9	-46.4	17.8	0.00e+00	0	44	0	847249408	59	4794
2026-01-11 01:19:35.91	265.95	17.70	-43.9	-46.5	17.8	0.00e+00	0	44	0	852492288	59	4830
2026-01-11 01:19:38.92	265.43	17.47	-44.0	-46.5	17.7	0.00e+00	0	44	0	857735168	59	4852
2026-01-11 01:19:41.93	264.91	17.23	-43.9	-46.4	17.7	0.00e+00	0	44	0	864026624	59	4805
2026-01-11 01:19:44.94	264.40	17.00	-43.9	-46.5	17.7	0.00e+00	0	44	0	869269504	59	4829
2026-01-11 01:19:47.95	263.90	16.76	-43.9	-46.4	17.8	0.00e+00	0	44	0	874512384	59	4793
2026-01-11 01:19:50.96	263.41	16.52	-44.1	-46.8	17.3	0.00e+00	0	44	0	880803840	59	5024
2026-01-11 01:19:53.97	262.92	16.29	-44.2	-46.9	17.3	0.00e+00	0	44	0	886046720	59	5069
2026-01-11 01:19:56.98	262.45	16.05	-44.0	-46.6	17.5	0.00e+00	0	44	0	892338176	59	4909
2026-01-11 01:19:59.99	261.98	15.82	-44.1	-46.7	17.5	0.00e+00	0	44	0	897581056	59	4949
2026-01-11 01:20:03.00	261.51	15.58	-44.1	-46.7	17.5	0.00e+00	0	44	0	902823936	59	4951
2026-01-11 01:20:06.01	261.06	15.35	-44.2	-46.9	17.3	0.00e+00	0	44	0	909115392	59	5054
2026-01-11 01:20:09.01	260.61	15.12	-44.4	-47.2	16.9	0.00e+00	0	44	0	914358272	59	5243
2026-01-11 01:20:12.03	260.17	14.88	-44.6	-47.5	16.7	0.00e+00	0	44	0	920649728	59	5422
2026-01-11 01:20:15.04	259.73	14.65	-44.9	-47.9	16.4	0.00e+00	0	44	0	925892608	60	5344
2026-01-11 01:20:18.05	259.31	14.42	-45.0	-48.1	16.1	0.00e+00	0	44	0	931135488	60	5487
2026-01-11 01:20:21.06	258.89	14.19	-44.8	-47.7	16.4	0.00e+00	0	44	0	937426944	60	5273
2026-01-11 01:20:24.07	258.47	13.96	-44.7	-47.6	16.5	0.00e+00	0	44	0	942669824	60	5211
2026-01-11 01:20:27.09	258.06	13.72	-44.9	-47.8	16.3	0.00e+00	0	44	0	947912704	60	5335
2026-01-11 01:20:30.10	257.66	13.50	-45.1	-48.2	15.9	0.00e+00	0	44	0	954204160	60	5570
2026-01-11 01:20:33.11	257.27	13.27	-45.1	-48.2	16.0	0.00e+00	0	44	0	959447040	61	5245
2026-01-11 01:20:36.12	256.88	13.04	-45.1	-48.2	16.0	0.00e+00	0	44	0	965738496	61	5256
2026-01-11 01:20:39.13	256.49	12.81	-45.1	-48.2	16.0	0.00e+00	0	44	0	970981376	61	5240
2026-01-11 01:20:42.14	256.12	12.59	-45.2	-48.3	15.9	0.00e+00	0	44	0	976224256	61	5304
2026-01-11 01:20:45.15	255.75	12.36	-45.4	-48.6	15.6	0.00e+00	0	44	0	982515712	61	5471
2026-01-11 01:20:48.16	255.38	12.14	-45.4	-48.6	15.6	0.00e+00	0	44	0	987758592	61	5496
2026-01-11 01:20:51.17	255.02	11.91	-45.5	-48.7	15.4	0.00e+00	0	44	0	993001472	61	5577
2026-01-11 01:20:54.17	254.67	11.69	-45.4	-48.7	15.5	0.00e+00	0	44	0	999292928	61	5550
2026-01-11 01:20:57.19	254.32	11.47	-45.5	-48.8	15.3	0.00e+00	0	44	0	1004535808	61	5625
2026-01-11 01:21:00.20	253.97	11.25	-45.7	-49.0	15.1	0.00e+00	0	44	0	1010827264	61	5751
2026-01-11 01:21:03.21	253.63	11.03	-45.6	-48.9	15.3	0.00e+00	0	44	0	1016070144	62	5360
2026-01-11 01:21:06.21	253.30	10.81	-45.6	-48.9	15.2	0.00e+00	0	44	0	1021313024	62	5379
2026-01-11 01:21:09.22	252.97	10.59	-45.6	-48.9	15.3	0.00e+00	0	44	0	1027604480	62	5342
2026-01-11 01:21:12.24	252.65	10.38	-45.7	-49.1	15.0	0.00e+00	0	44	0	1032847360	62	5465
2026-01-11 01:21:15.24	252.33	10.16	-45.9	-49.4	14.7	0.00e+00	0	44	0	1039138816	62	5692
2026-01-11 01:21:18.25	252.02	9.95	-46.2	-49.8	14.3	0.00e+00	0	44	0	1044381696	62	5979
2026-01-11 01:21:21.26	251.71	9.73	-46.2	-49.9	14.2	1.50e-06	0	44	0	1049624576	63	5684
2026-01-11 01:21:24.28	251.40	9.52	-46.3	-50.1	14.0	1.50e-06	0	44	0	1055916032	63	5791
2026-01-11 01:21:27.28	251.10	9.31	-46.2	-50.0	14.1	1.50e-06	0	44	0	1061158912	63	5725
2026-01-11 01:21:30.30	250.81	9.10	-46.4	-50.2	13.8	1.50e-06	0	44	0	1066401792	63	5885
2026-01-11 01:21:33.31	250.52	8.89	-50.3	-65.6	3.8	1.49e+00	0	44	104	1069547520	71	21759
2026-01-11 01:21:36.32	250.23	8.68	-50.5	-65.9	3.8	1.49e+00	0	44	104	1069547520	71	22570
2026-01-11 01:21:39.34	249.95	8.47	-50.8	-65.9	3.8	1.49e+00	0	44	104	1069547520	72	21478
2026-01-11 01:21:42.35	249.67	8.27	-50.8	-66.0	3.8	1.49e+00	0	44	104	1069547520	72	21556
2026-01-11 01:21:45.36	249.39	8.06	-50.6	-66.0	3.8	1.49e+00	0	44	104	1069547520	72	21720
2026-01-11 01:21:48.38	249.12	7.86	-50.7	-66.0	3.8	1.49e+00	0	44	104	1069547520	72	21637
2026-01-11 01:21:51.39	248.85	7.65	-50.7	-66.0	3.8	1.49e+00	0	44	104	1069547520	72	21536
2026-01-11 01:21:54.40	248.59	7.45	-50.6	-65.9	3.8	1.49e+00	0	44	104	1069547520	72	21461
2026-01-11 01:21:57.42	248.33	7.25	-50.6	-65.9	3.8	1.49e+00	0	44	104	1069547520	72	21364
2026-01-11 01:22:00.43	248.07	7.05	-50.6	-65.9	3.8	1.49e+00	0	44	104	1069547520	72	21428
2026-01-11 01:22:03.44	247.82	6.85	-50.6	-65.9	3.8	1.49e+00	0	44	104	1069547520	72	21486
2026-01-11 01:22:06.46	247.57	6.65	-50.6	-65.9	3.8	1.49e+00	0	44	104	1069547520	72	21386
2026-01-11 01:22:09.47	247.33	6.45	-50.6	-65.9	3.8	1.49e+00	0	44	104	1069547520	72	21388
2026-01-11 01:22:12.48	247.08	6.26	-50.6	-65.9	3.8	1.49e+00	0	44	104	1069547520	72	21344
2026-01-11 01:22:15.50	246.84	6.06	-50.6	-65.9	3.8	1.49e+00	0	44	104	1069547520	72	21325
2026-01-11 01:22:18.51	246.61	5.87	-50.6	-65.9	3.8	1.49e+00	0	44	104	1069547520	72	21377
2026-01-11 01:22:21.52	246.38	5.68	-50.6	-65.9	3.8	1.49e+00	0	44	104	1069547520	72	21315
2026-01-11 01:22:24.54	246.15	5.48	-50.6	-65.9	3.8	1.49e+00	0	44	104	1069547520	72	21331
2026-01-11 01:22:27.55	245.92	5.29	-50.6	-65.9	3.8	1.49e+00	0	44	104	1069547520	72	21369
2026-01-11 01:22:30.56	245.70	5.10	-50.6	-65.9	3.8	1.49e+00	0	44	104	1069547520	72	21369

#Closed at: 2026-01-11 01:22:33
#Recorded file [1069 MB]: D:/Data/31040_260111_041116.dat