passes_logs/2026/01/11/T1/T1__20260111_225114_SUOMI_NPP_rec.log

#Pass ID: 20260111_225114_SUOMI NPP
#Satellite: SUOMI NPP
#Configuration: NPP
#almurnet v.1.7.20251203
#Start time: 2026-01-11 22:51:15

#Version: 2.0.20230620
#Station: T1
#Location: 37.570604 lon 55.790049 lat
#TLE: 1 37849U 11061A   26011.29776829  .00000112  00000+0  74065-4 0  9999
#TLE: 2 37849  98.7807 313.3784 0002522  70.0451 290.0996 14.19524507736187

#Time	Az	El	Level	Level2	SNR	BER	BlckErr	Temp	State	Recorded	gain1	gain2
2026-01-11 22:51:15.91	23.42	5.08	-49.6	-65.4	3.8	1.49e+00	0	36	0	0	70	22680
2026-01-11 22:51:18.89	23.58	5.28	-49.6	-65.3	3.8	1.49e+00	0	37	104	0	69	23834
2026-01-11 22:51:21.87	23.74	5.48	-49.6	-65.4	3.8	1.49e+00	0	37	104	0	69	23946
2026-01-11 22:51:24.85	23.91	5.68	-49.6	-65.3	3.8	1.49e+00	0	37	104	0	69	23826
2026-01-11 22:51:27.83	24.08	5.88	-49.6	-65.4	3.8	1.49e+00	0	37	104	0	69	23879
2026-01-11 22:51:30.81	24.25	6.09	-49.6	-65.4	3.8	1.49e+00	0	37	104	0	69	23930
2026-01-11 22:51:33.78	24.42	6.29	-49.6	-65.4	3.8	1.49e+00	0	37	104	0	69	23960
2026-01-11 22:51:36.76	24.60	6.50	-49.6	-65.4	3.8	1.49e+00	0	37	104	0	69	24057
2026-01-11 22:51:39.74	24.78	6.71	-49.6	-65.3	3.8	1.49e+00	0	38	104	0	69	23817
2026-01-11 22:51:42.72	24.96	6.92	-49.6	-65.4	3.8	1.49e+00	0	37	104	0	69	23906
2026-01-11 22:51:45.70	25.14	7.13	-49.6	-65.3	3.8	1.49e+00	0	38	104	0	69	23797
2026-01-11 22:51:48.68	25.33	7.35	-49.6	-65.2	3.8	1.49e+00	0	38	104	0	69	23369
2026-01-11 22:51:51.66	25.51	7.56	-49.6	-64.9	3.8	1.49e+00	0	38	104	0	69	22638
2026-01-11 22:51:54.64	25.70	7.78	-49.6	-64.8	3.8	1.49e+00	0	38	104	0	69	22396
2026-01-11 22:51:57.62	25.90	8.00	-49.6	-64.6	3.8	1.49e+00	0	38	104	0	69	21769
2026-01-11 22:52:00.60	26.09	8.22	-49.6	-64.3	3.8	1.49e+00	0	38	104	0	69	21153
2026-01-11 22:52:03.58	26.29	8.44	-49.6	-64.8	3.8	1.49e+00	0	38	104	0	69	22358
2026-01-11 22:52:06.56	26.49	8.66	-49.6	-64.3	3.8	1.49e+00	0	38	104	0	69	21025
2026-01-11 22:52:09.54	26.70	8.89	-49.5	-63.6	3.8	1.49e+00	0	38	104	0	69	19406
2026-01-11 22:52:12.52	26.90	9.11	-49.6	-64.0	3.8	1.49e+00	0	38	104	0	69	20430
2026-01-11 22:52:15.51	27.11	9.34	-49.5	-62.1	4.1	1.46e+00	0	38	0	0	70	15489
2026-01-11 22:52:18.49	27.33	9.57	-47.5	-53.0	10.9	5.65e-03	0	38	0	4194304	67	6423
2026-01-11 22:52:21.48	27.54	9.81	-46.3	-50.4	13.7	3.80e-06	0	38	0	9437184	64	5682
2026-01-11 22:52:24.46	27.76	10.04	-46.2	-50.2	13.8	3.80e-06	0	38	0	14680064	64	5564
2026-01-11 22:52:27.44	27.99	10.28	-46.0	-49.9	14.1	1.50e-06	0	39	0	20971520	64	5380
2026-01-11 22:52:30.43	28.22	10.51	-46.0	-49.8	14.3	7.00e-07	0	38	0	26214400	64	5305
2026-01-11 22:52:33.42	28.45	10.75	-46.1	-49.9	14.3	0.00e+00	0	39	0	31457280	63	5709
2026-01-11 22:52:36.45	28.68	11.00	-45.9	-49.6	14.5	0.00e+00	0	39	0	37748736	63	5513
2026-01-11 22:52:39.51	28.93	11.25	-45.8	-49.6	14.5	0.00e+00	0	39	0	42991616	63	5510
2026-01-11 22:52:42.36	29.16	11.49	-45.9	-49.7	14.6	0.00e+00	0	39	0	48234496	63	5533
2026-01-11 22:52:45.49	29.42	11.75	-45.8	-49.5	14.7	7.00e-07	0	39	0	54525952	63	5459
2026-01-11 22:52:48.33	29.65	11.99	-45.8	-49.3	14.9	0.00e+00	0	39	0	59768832	63	5319
2026-01-11 22:52:51.46	29.92	12.25	-45.9	-49.5	14.7	0.00e+00	0	39	0	66060288	63	5403
2026-01-11 22:52:54.30	30.16	12.49	-45.9	-49.4	14.8	0.00e+00	0	39	0	71303168	63	5363
2026-01-11 22:52:57.61	30.46	12.78	-45.8	-49.1	15.1	0.00e+00	0	39	0	77594624	63	5200
2026-01-11 22:53:00.31	30.70	13.01	-45.9	-49.2	15.0	0.00e+00	0	39	0	81788928	63	5263
2026-01-11 22:53:03.58	30.99	13.30	-45.8	-49.1	15.1	0.00e+00	0	39	0	88080384	63	5210
2026-01-11 22:53:06.48	31.26	13.56	-45.7	-49.0	15.3	0.00e+00	0	39	0	94371840	63	5112
2026-01-11 22:53:09.47	31.54	13.82	-45.6	-48.8	15.5	0.00e+00	0	39	0	99614720	63	5013
2026-01-11 22:53:12.45	31.83	14.09	-45.3	-48.5	15.8	0.00e+00	0	39	0	104857600	62	5112
2026-01-11 22:53:15.44	32.12	14.36	-45.2	-48.4	15.9	0.00e+00	0	39	0	111149056	62	5057
2026-01-11 22:53:18.42	32.41	14.64	-45.4	-48.6	15.6	0.00e+00	0	39	0	116391936	62	5209
2026-01-11 22:53:21.41	32.72	14.91	-45.6	-48.9	15.4	0.00e+00	0	39	0	121634816	62	5374
2026-01-11 22:53:24.40	33.02	15.19	-45.9	-49.2	15.0	0.00e+00	0	39	0	127926272	62	5582
2026-01-11 22:53:27.38	33.33	15.47	-45.8	-49.2	15.1	0.00e+00	0	39	0	133169152	62	5545
2026-01-11 22:53:30.37	33.65	15.76	-45.6	-48.8	15.5	0.00e+00	0	39	0	138412032	62	5332
2026-01-11 22:53:33.35	33.97	16.04	-45.4	-48.5	15.7	0.00e+00	0	39	0	144703488	62	5151
2026-01-11 22:53:36.52	34.32	16.35	-45.3	-48.6	15.7	0.00e+00	0	39	0	149946368	62	5185
2026-01-11 22:53:39.41	34.65	16.63	-45.4	-48.7	15.6	0.00e+00	0	39	0	155189248	62	5257
2026-01-11 22:53:42.54	35.01	16.94	-45.6	-49.0	15.3	0.00e+00	0	39	0	161480704	62	5404
2026-01-11 22:53:45.38	35.34	17.22	-45.6	-49.0	15.3	0.00e+00	0	39	0	166723584	62	5438
2026-01-11 22:53:48.51	35.71	17.53	-45.8	-49.3	15.1	0.00e+00	0	39	0	173015040	62	5637
2026-01-11 22:53:51.36	36.06	17.82	-46.2	-49.8	14.6	0.00e+00	0	39	0	178257920	62	5944
2026-01-11 22:53:54.57	36.46	18.15	-46.2	-49.8	14.6	7.00e-07	0	39	0	184549376	63	5609
2026-01-11 22:53:57.42	36.82	18.44	-46.2	-49.7	14.6	0.00e+00	0	39	0	189792256	63	5574
2026-01-11 22:54:00.54	37.22	18.76	-46.0	-49.3	15.0	0.00e+00	0	39	0	195035136	63	5331
2026-01-11 22:54:03.38	37.59	19.06	-45.9	-49.3	15.1	0.00e+00	0	39	0	200278016	63	5284
2026-01-11 22:54:06.51	38.01	19.39	-46.0	-49.4	15.0	0.00e+00	0	39	0	206569472	63	5353
2026-01-11 22:54:09.35	38.40	19.69	-46.1	-49.6	14.8	0.00e+00	0	39	0	211812352	63	5495
2026-01-11 22:54:12.53	38.84	20.04	-46.1	-49.6	14.7	0.00e+00	0	39	0	218103808	63	5500
2026-01-11 22:54:15.48	39.26	20.36	-46.2	-49.7	14.7	0.00e+00	0	39	0	223346688	63	5530
2026-01-11 22:54:18.61	39.72	20.70	-46.3	-49.8	14.6	0.00e+00	0	39	0	229638144	63	5600
2026-01-11 22:54:21.46	40.14	21.01	-46.1	-49.4	15.0	0.00e+00	0	39	0	234881024	63	5397
2026-01-11 22:54:24.76	40.64	21.38	-46.0	-49.2	15.2	0.00e+00	0	39	0	241172480	63	5246
2026-01-11 22:54:27.73	41.10	21.71	-46.1	-49.4	15.0	7.00e-07	0	39	0	246415360	63	5359
2026-01-11 22:54:30.71	41.57	22.05	-46.1	-49.4	15.0	0.00e+00	0	39	0	251658240	63	5397
2026-01-11 22:54:33.70	42.06	22.39	-46.2	-49.6	14.8	0.00e+00	0	39	0	257949696	63	5465
2026-01-11 22:54:36.68	42.55	22.73	-46.1	-49.4	15.0	0.00e+00	0	39	0	263192576	63	5384
2026-01-11 22:54:39.66	43.05	23.07	-45.8	-48.9	15.3	0.00e+00	0	39	0	268435456	63	5100
2026-01-11 22:54:42.61	43.56	23.42	-45.6	-48.6	15.8	0.00e+00	0	39	0	273678336	63	4914
2026-01-11 22:54:46.13	44.18	23.83	-46.1	-49.5	14.9	0.00e+00	0	39	0	281018368	63	5455
2026-01-11 22:54:49.15	44.73	24.18	-46.3	-49.9	14.6	0.00e+00	0	39	0	286261248	63	5670
2026-01-11 22:54:52.45	45.34	24.57	-46.0	-49.3	15.0	0.00e+00	0	39	0	292552704	63	5338
2026-01-11 22:54:55.17	45.85	24.90	-45.6	-48.7	15.7	0.00e+00	0	39	0	297795584	63	4975
2026-01-11 22:54:58.45	46.49	25.29	-45.5	-48.5	15.9	0.00e+00	0	39	0	304087040	62	5156
2026-01-11 22:55:01.21	47.03	25.63	-45.6	-48.7	15.7	0.00e+00	0	39	0	309329920	62	5271
2026-01-11 22:55:04.48	47.69	26.02	-45.6	-48.7	15.8	0.00e+00	0	39	0	315621376	62	5219
2026-01-11 22:55:07.22	48.26	26.35	-45.5	-48.5	15.9	0.00e+00	0	39	0	319815680	62	5129
2026-01-11 22:55:10.77	49.01	26.79	-45.5	-48.6	15.8	0.00e+00	0	39	0	327155712	62	5178
2026-01-11 22:55:13.53	49.61	27.13	-45.3	-48.3	16.1	0.00e+00	0	39	0	332398592	62	5003
2026-01-11 22:55:16.80	50.34	27.53	-45.2	-48.2	16.2	0.00e+00	0	39	0	338690048	62	4927
2026-01-11 22:55:19.53	50.96	27.87	-45.2	-48.1	16.1	0.00e+00	0	39	0	342884352	62	4902
2026-01-11 22:55:22.81	51.72	28.27	-45.5	-48.6	15.9	0.00e+00	0	39	0	349175808	62	5164
2026-01-11 22:55:25.60	52.38	28.62	-45.8	-48.9	15.6	0.00e+00	0	39	0	354418688	62	5377
2026-01-11 22:55:29.70	53.39	29.12	-46.1	-49.3	15.1	0.00e+00	0	39	0	362807296	63	5319
2026-01-11 22:55:32.55	54.10	29.48	-46.3	-49.6	14.9	0.00e+00	0	39	0	368050176	63	5505
2026-01-11 22:55:36.53	55.12	29.97	-46.7	-50.4	14.1	0.00e+00	0	39	0	375390208	64	5711
2026-01-11 22:55:39.43	55.89	30.32	-46.6	-50.3	14.2	2.20e-06	0	39	0	380633088	64	5611
2026-01-11 22:55:42.96	56.84	30.76	-47.3	-51.4	13.0	1.90e-05	0	39	0	386924544	65	6019
2026-01-11 22:55:45.68	57.59	31.09	-47.7	-52.2	12.2	2.58e-04	0	39	0	392167424	66	6259
2026-01-11 22:55:48.96	58.52	31.49	-47.8	-52.4	12.1	4.05e-04	0	39	0	398458880	66	6348
2026-01-11 22:55:51.69	59.31	31.82	-47.7	-52.2	12.2	1.95e-04	0	39	0	403701760	66	6232
2026-01-11 22:55:55.02	60.30	32.22	-48.3	-53.5	10.9	1.43e-03	0	39	0	409993216	67	6822
2026-01-11 22:55:57.77	61.13	32.54	-48.1	-53.0	11.4	1.02e-03	0	39	0	415236096	67	6444
2026-01-11 22:56:01.16	62.18	32.94	-48.2	-53.3	11.1	1.09e-03	0	39	0	421527552	67	6664
2026-01-11 22:56:04.21	63.14	33.29	-48.8	-54.4	10.2	5.40e-03	0	39	0	426770432	68	7139
2026-01-11 22:56:07.46	64.19	33.66	-48.6	-53.8	10.6	6.02e-03	0	39	0	433061888	68	6689
2026-01-11 22:56:10.30	65.13	33.98	-48.1	-52.8	11.8	6.64e-04	0	39	0	438304768	68	5955
2026-01-11 22:56:13.43	66.18	34.33	-48.5	-53.7	10.9	1.32e-03	0	39	0	444596224	68	6591
2026-01-11 22:56:16.27	67.16	34.64	-49.0	-54.9	9.5	1.51e-02	0	39	0	449839104	68	7626
2026-01-11 22:56:19.49	68.28	34.98	-47.2	-51.1	13.3	5.64e-05	0	39	0	456130560	66	5506
2026-01-11 22:56:22.38	69.32	35.28	-47.2	-51.2	13.2	1.14e-05	0	39	0	461373440	65	5886
2026-01-11 22:56:25.66	70.51	35.61	-47.4	-51.6	12.9	1.61e-04	0	39	0	467664896	66	5792
2026-01-11 22:56:28.41	71.53	35.87	-46.3	-49.7	14.8	0.00e+00	0	39	0	472907776	64	5276
2026-01-11 22:56:31.69	72.77	36.18	-46.3	-49.7	14.8	0.00e+00	0	39	0	479199232	63	5571
2026-01-11 22:56:34.62	73.89	36.45	-46.3	-49.7	14.8	0.00e+00	0	39	0	484442112	63	5565
2026-01-11 22:56:37.61	75.06	36.71	-45.5	-48.5	16.0	0.00e+00	0	39	0	489684992	62	5118
2026-01-11 22:56:40.60	76.25	36.96	-45.5	-48.5	16.0	0.00e+00	0	39	0	494927872	61	5411
2026-01-11 22:56:43.58	77.44	37.20	-46.2	-49.5	15.0	0.00e+00	0	39	0	501219328	63	5441
2026-01-11 22:56:46.57	78.66	37.43	-46.6	-50.2	14.2	0.00e+00	0	39	0	506462208	64	5559
2026-01-11 22:56:49.55	79.90	37.64	-46.0	-49.3	15.1	0.00e+00	0	39	0	511705088	63	5307
2026-01-11 22:56:52.54	81.15	37.84	-45.7	-48.9	15.7	0.00e+00	0	39	0	517996544	62	5348
2026-01-11 22:56:55.52	82.41	38.02	-46.5	-50.2	14.4	7.00e-07	0	39	0	523239424	63	5909
2026-01-11 22:56:58.50	83.69	38.19	-46.8	-50.8	13.6	4.50e-06	0	39	0	528482304	64	5934
2026-01-11 22:57:01.55	85.01	38.35	-46.0	-49.4	15.1	0.00e+00	0	39	0	534773760	63	5364
2026-01-11 22:57:04.46	86.28	38.49	-45.7	-49.0	15.4	0.00e+00	0	39	0	540016640	62	5454
2026-01-11 22:57:07.44	87.59	38.61	-46.3	-49.8	14.7	0.00e+00	0	39	0	545259520	63	5644
2026-01-11 22:57:10.43	88.91	38.72	-46.8	-50.9	13.5	1.44e-05	0	39	0	551550976	64	6031
2026-01-11 22:57:13.41	90.24	38.81	-46.5	-50.1	14.3	0.00e+00	0	39	0	556793856	64	5472
2026-01-11 22:57:16.47	91.61	38.88	-46.3	-49.9	14.5	0.00e+00	0	39	0	563085312	64	5385
2026-01-11 22:57:19.32	92.89	38.94	-48.2	-53.6	10.8	7.39e-04	0	39	0	568328192	66	7295
2026-01-11 22:57:22.45	94.31	38.98	-47.0	-51.0	13.5	6.71e-05	0	39	0	573571072	66	5446
2026-01-11 22:57:25.29	95.59	39.00	-45.9	-49.0	15.4	0.00e+00	0	39	0	578813952	63	5153
2026-01-11 22:57:28.41	97.00	39.00	-44.9	-47.7	16.7	0.00e+00	0	39	0	585105408	61	4953
2026-01-11 22:57:31.33	98.32	38.99	-45.4	-48.4	16.1	0.00e+00	0	39	0	590348288	61	5359
2026-01-11 22:57:34.52	99.77	38.96	-46.0	-49.3	15.2	0.00e+00	0	39	0	596639744	62	5647
2026-01-11 22:57:37.44	101.08	38.91	-45.8	-49.0	15.5	0.00e+00	0	39	0	601882624	63	5133
2026-01-11 22:57:40.57	102.49	38.84	-45.5	-48.6	15.9	0.00e+00	0	39	0	608174080	62	5187
2026-01-11 22:57:43.41	103.76	38.76	-46.6	-50.3	14.3	0.00e+00	0	39	0	613416960	63	5942
2026-01-11 22:57:46.54	105.15	38.66	-46.0	-49.3	15.2	0.00e+00	0	39	0	618659840	63	5287
2026-01-11 22:57:49.38	106.41	38.54	-45.7	-48.9	15.6	0.00e+00	0	39	0	623902720	63	5071
2026-01-11 22:57:52.62	107.83	38.40	-45.5	-48.6	16.0	0.00e+00	0	39	0	630194176	62	5163
2026-01-11 22:57:55.46	109.06	38.26	-46.1	-49.4	15.0	7.00e-07	0	39	0	635437056	63	5401
2026-01-11 22:57:58.59	110.41	38.08	-45.3	-48.3	16.2	0.00e+00	0	39	0	641728512	61	5293
2026-01-11 22:58:01.43	111.62	37.91	-45.0	-47.9	16.6	0.00e+00	0	39	0	646971392	62	4765
2026-01-11 22:58:04.55	112.93	37.71	-45.8	-48.9	15.6	0.00e+00	0	39	0	653262848	62	5389
2026-01-11 22:58:07.40	114.12	37.51	-46.2	-49.7	14.8	0.00e+00	0	39	0	658505728	63	5557
2026-01-11 22:58:10.52	115.40	37.28	-45.4	-48.5	16.0	0.00e+00	0	39	0	663748608	61	5426
2026-01-11 22:58:13.37	116.56	37.06	-43.6	-46.0	18.2	0.00e+00	0	39	0	668991488	59	4585
2026-01-11 22:58:16.65	117.87	36.79	-45.6	-48.6	15.9	0.00e+00	0	39	0	675282944	61	5506
2026-01-11 22:58:19.57	119.02	36.53	-44.9	-47.7	16.7	0.00e+00	0	39	0	680525824	61	4956
2026-01-11 22:58:22.86	120.29	36.24	-43.8	-46.3	18.0	0.00e+00	0	39	0	686817280	59	4726
2026-01-11 22:58:25.57	121.32	35.98	-42.7	-44.9	19.2	0.00e+00	0	39	0	692060160	57	4535
2026-01-11 22:58:28.84	122.54	35.67	-44.9	-47.8	16.6	0.00e+00	0	39	0	698351616	60	5309
2026-01-11 22:58:31.55	123.54	35.39	-45.2	-48.2	16.3	0.00e+00	0	39	0	703594496	61	5228
2026-01-11 22:58:34.82	124.71	35.06	-46.3	-49.7	14.8	0.00e+00	0	39	0	709885952	63	5578
2026-01-11 22:58:37.53	125.67	34.77	-45.8	-48.9	15.6	0.00e+00	0	39	0	715128832	62	5398
2026-01-11 22:58:40.80	126.81	34.42	-47.5	-51.9	12.6	8.85e-05	0	39	0	720371712	65	6364
2026-01-11 22:58:43.51	127.73	34.12	-47.4	-51.6	12.9	1.37e-05	0	39	0	725614592	65	6162
2026-01-11 22:58:46.76	128.82	33.76	-48.7	-54.2	10.3	9.15e-03	0	39	0	731906048	68	7033
2026-01-11 22:58:49.60	129.74	33.43	-46.9	-50.7	13.8	2.74e-05	0	39	0	737148928	65	5535
2026-01-11 22:58:52.73	130.74	33.07	-47.8	-52.4	12.1	1.65e-04	0	39	0	743440384	66	6352
2026-01-11 22:58:55.57	131.63	32.74	-47.9	-52.7	11.7	3.58e-04	0	39	0	748683264	67	6241
2026-01-11 22:58:58.90	132.66	32.34	-49.5	-58.2	6.4	2.01e-01	0	39	0	754974720	69	10505
2026-01-11 22:59:01.83	133.53	31.99	-47.1	-51.3	13.1	2.29e-04	0	39	0	760217600	66	5614
2026-01-11 22:59:05.16	134.51	31.59	-48.0	-52.8	11.7	4.08e-04	0	39	0	766509056	66	6678
2026-01-11 22:59:07.88	135.29	31.26	-47.7	-52.3	12.1	1.28e-03	0	39	0	771751936	67	5925
2026-01-11 22:59:11.15	136.21	30.85	-48.0	-52.9	11.4	6.47e-04	0	39	0	778043392	66	6766
2026-01-11 22:59:14.03	136.99	30.50	-47.8	-52.4	11.9	1.79e-03	0	39	0	783286272	67	6045
2026-01-11 22:59:17.15	137.83	30.11	-45.9	-49.1	15.3	0.00e+00	0	39	0	788529152	63	5189
2026-01-11 22:59:20.00	138.58	29.76	-47.8	-52.3	12.1	1.24e-04	0	39	0	793772032	66	6332
2026-01-11 22:59:23.14	139.38	29.37	-45.9	-49.2	15.3	0.00e+00	0	39	0	800063488	63	5231
2026-01-11 22:59:26.47	140.21	28.96	-46.4	-49.9	14.6	7.00e-07	0	39	0	806354944	63	5675
2026-01-11 22:59:29.16	140.87	28.62	-46.0	-49.3	15.1	0.00e+00	0	39	0	811597824	63	5326
2026-01-11 22:59:32.43	141.65	28.21	-44.2	-46.8	17.5	0.00e+00	0	39	0	817889280	60	4717
2026-01-11 22:59:35.16	142.29	27.87	-44.9	-47.7	16.6	0.00e+00	0	39	0	823132160	60	5248
2026-01-11 22:59:38.45	143.04	27.47	-44.8	-47.6	16.8	0.00e+00	0	39	0	828375040	61	4889
2026-01-11 22:59:41.15	143.64	27.13	-43.6	-46.0	18.1	0.00e+00	0	39	0	833617920	59	4597
2026-01-11 22:59:44.45	144.36	26.72	-44.9	-47.9	16.5	0.00e+00	0	39	0	839909376	60	5350
2026-01-11 22:59:47.16	144.93	26.39	-44.7	-47.5	16.8	0.00e+00	0	39	0	845152256	61	4870
2026-01-11 22:59:50.45	145.62	25.99	-43.5	-45.9	18.2	0.00e+00	0	39	0	851443712	58	4779
2026-01-11 22:59:53.15	146.17	25.66	-44.3	-46.9	17.3	0.00e+00	0	39	0	856686592	59	5089
2026-01-11 22:59:56.42	146.82	25.26	-44.5	-47.2	17.1	0.00e+00	0	39	0	862978048	60	4980
2026-01-11 22:59:59.12	147.34	24.93	-43.3	-45.8	18.4	0.00e+00	0	39	0	867172352	58	4716
2026-01-11 23:00:02.41	147.97	24.54	-43.3	-45.7	18.4	0.00e+00	0	39	0	873463808	58	4678
2026-01-11 23:00:05.12	148.47	24.21	-43.9	-46.5	17.6	0.00e+00	0	39	0	878706688	58	5156
2026-01-11 23:00:08.40	149.07	23.82	-44.1	-46.6	17.6	0.00e+00	0	39	0	884998144	58	5218
2026-01-11 23:00:11.27	149.58	23.48	-44.5	-47.2	17.0	0.00e+00	0	39	0	890241024	59	5233
2026-01-11 23:00:14.65	150.17	23.09	-44.7	-47.5	16.9	0.00e+00	0	39	0	896532480	60	5119
2026-01-11 23:00:17.70	150.69	22.73	-44.3	-47.0	17.2	0.00e+00	0	39	0	902823936	60	4848
2026-01-11 23:00:20.85	151.21	22.37	-44.4	-47.0	17.3	0.00e+00	0	39	0	908066816	60	4861
2026-01-11 23:00:23.70	151.68	22.04	-44.8	-47.6	16.7	0.00e+00	0	39	0	913309696	60	5198
2026-01-11 23:00:26.83	152.17	21.69	-44.3	-47.0	17.3	0.00e+00	0	39	0	919601152	60	4821
2026-01-11 23:00:29.75	152.63	21.36	-44.6	-47.3	17.0	0.00e+00	0	39	0	924844032	60	5001
2026-01-11 23:00:33.01	153.12	20.99	-45.5	-48.5	15.8	0.00e+00	0	39	0	931135488	61	5460
2026-01-11 23:00:35.91	153.56	20.67	-45.9	-49.3	15.1	0.00e+00	0	39	0	936378368	62	5608
2026-01-11 23:00:39.15	154.03	20.31	-45.8	-49.2	15.2	0.00e+00	0	39	0	942669824	62	5535
2026-01-11 23:00:42.31	154.48	19.97	-45.5	-48.6	15.7	0.00e+00	0	39	0	948961280	62	5186
2026-01-11 23:00:45.23	154.89	19.65	-45.7	-49.0	15.2	0.00e+00	0	39	0	954204160	62	5438
2026-01-11 23:00:48.36	155.32	19.32	-45.5	-48.8	15.5	0.00e+00	0	39	0	959447040	62	5304
2026-01-11 23:00:51.30	155.71	19.00	-45.5	-48.8	15.5	0.00e+00	0	39	0	965738496	62	5312
2026-01-11 23:00:54.46	156.13	18.67	-45.3	-48.4	15.9	0.00e+00	0	39	0	970981376	62	5068
2026-01-11 23:00:57.31	156.49	18.37	-45.3	-48.4	15.9	0.00e+00	0	39	0	976224256	62	5048
2026-01-11 23:01:00.44	156.89	18.05	-45.6	-48.9	15.4	7.00e-07	0	39	0	982515712	62	5385
2026-01-11 23:01:03.28	157.24	17.76	-45.9	-49.3	14.9	0.00e+00	0	39	0	987758592	63	5324
2026-01-11 23:01:06.41	157.62	17.44	-45.8	-49.2	15.1	0.00e+00	0	39	0	994050048	63	5263
2026-01-11 23:01:09.26	157.96	17.15	-45.5	-48.7	15.5	0.00e+00	0	39	0	999292928	62	5278
2026-01-11 23:01:12.61	158.35	16.81	-45.0	-48.0	16.2	0.00e+00	0	39	0	1005584384	61	5138
2026-01-11 23:01:15.35	158.67	16.54	-45.4	-48.7	15.5	0.00e+00	0	39	0	1010827264	61	5587
2026-01-11 23:01:18.64	159.03	16.22	-45.7	-49.0	15.2	0.00e+00	0	39	0	1017118720	62	5442
2026-01-11 23:01:21.35	159.33	15.96	-46.2	-49.9	14.3	7.00e-07	0	39	0	1021313024	63	5679
2026-01-11 23:01:24.58	159.68	15.64	-46.2	-49.9	14.3	0.00e+00	0	39	0	1027604480	63	5692
2026-01-11 23:01:27.56	160.00	15.36	-46.2	-49.8	14.5	7.00e-07	0	39	0	1033895936	63	5620
2026-01-11 23:01:30.55	160.31	15.08	-46.2	-49.9	14.4	0.00e+00	0	39	0	1039138816	63	5702
2026-01-11 23:01:33.53	160.62	14.80	-46.5	-50.2	14.0	7.00e-07	0	39	0	1044381696	63	5917
2026-01-11 23:01:36.52	160.92	14.52	-46.5	-50.4	13.8	3.80e-06	0	39	0	1050673152	63	6013
2026-01-11 23:01:39.51	161.21	14.24	-46.5	-50.4	13.8	1.06e-05	0	39	0	1055916032	63	6050
2026-01-11 23:01:42.49	161.50	13.97	-46.3	-50.0	14.2	4.50e-06	0	39	0	1061158912	63	5762
2026-01-11 23:01:45.48	161.78	13.70	-46.2	-49.8	14.4	0.00e+00	0	39	0	1067450368	63	5623
2026-01-11 23:01:48.56	162.07	13.42	-45.9	-49.4	14.8	0.00e+00	0	39	0	1072693248	63	5357
2026-01-11 23:01:51.40	162.33	13.17	-45.5	-48.8	15.3	0.00e+00	0	39	0	1077936128	63	5025
2026-01-11 23:01:54.53	162.62	12.89	-45.6	-48.9	15.3	0.00e+00	0	39	0	1084227584	62	5364
2026-01-11 23:01:57.38	162.87	12.64	-45.4	-48.6	15.5	0.00e+00	0	39	0	1089470464	62	5179
2026-01-11 23:02:00.61	163.15	12.36	-45.4	-48.7	15.4	7.09e-05	0	39	0	1095761920	62	5233
2026-01-11 23:02:03.45	163.40	12.12	-45.5	-48.9	15.2	1.21e-03	0	39	0	1101004800	62	5355
2026-01-11 23:02:06.58	163.66	11.85	-46.0	-49.6	14.6	0.00e+00	0	39	0	1106247680	62	5790
2026-01-11 23:02:09.42	163.90	11.61	-46.2	-50.0	14.1	4.50e-06	0	39	0	1111490560	63	5738
2026-01-11 23:02:12.54	164.15	11.35	-46.6	-50.7	13.4	9.10e-06	0	39	0	1117782016	63	6214
2026-01-11 23:02:15.39	164.38	11.11	-46.8	-51.1	12.9	3.89e-05	0	39	0	1123024896	64	6150
2026-01-11 23:02:18.66	164.64	10.84	-46.8	-51.3	12.7	6.94e-05	0	39	0	1129316352	64	6332
2026-01-11 23:02:21.85	164.89	10.58	-46.6	-51.1	12.8	9.76e-05	0	39	0	1135607808	64	6200
2026-01-11 23:02:24.69	165.10	10.35	-46.4	-51.1	12.9	7.32e-05	0	39	0	1140850688	64	6167
2026-01-11 23:02:27.82	165.34	10.10	-46.1	-51.2	12.8	4.27e-05	0	39	0	1146093568	64	6208
2026-01-11 23:02:30.74	165.56	9.87	-45.7	-50.8	13.1	2.13e-05	0	39	0	1152385024	63	6335
2026-01-11 23:02:34.01	165.79	9.61	-45.4	-50.6	13.4	9.90e-06	0	39	0	1157627904	62	6516
2026-01-11 23:02:36.72	165.99	9.40	-45.4	-50.5	13.5	1.90e-05	0	39	0	1162870784	62	6483
2026-01-11 23:02:40.03	166.22	9.14	-45.8	-50.9	13.1	2.89e-05	0	39	0	1169162240	63	6410
2026-01-11 23:02:42.79	166.41	8.93	-50.0	-64.9	3.8	1.49e+00	0	39	104	1172307968	70	21367
2026-01-11 23:02:46.07	166.64	8.68	-50.3	-65.8	3.8	1.49e+00	0	39	104	1172307968	71	22368
2026-01-11 23:02:48.78	166.82	8.47	-50.7	-65.9	3.8	1.49e+00	0	39	104	1172307968	71	22643
2026-01-11 23:02:52.06	167.04	8.23	-50.7	-65.9	3.8	1.49e+00	0	39	104	1172307968	72	21453
2026-01-11 23:02:54.76	167.22	8.02	-50.7	-65.9	3.8	1.49e+00	0	39	104	1172307968	72	21473
2026-01-11 23:02:58.03	167.43	7.78	-50.8	-65.9	3.8	1.49e+00	0	39	104	1172307968	72	21503
2026-01-11 23:03:00.73	167.60	7.58	-50.8	-65.9	3.8	1.49e+00	0	39	104	1172307968	72	21471
2026-01-11 23:03:03.99	167.81	7.34	-50.7	-65.9	3.8	1.49e+00	0	39	104	1172307968	72	21486
2026-01-11 23:03:06.69	167.97	7.15	-50.7	-65.9	3.8	1.49e+00	0	40	104	1172307968	72	21387
2026-01-11 23:03:09.95	168.17	6.91	-50.6	-65.9	3.8	1.49e+00	0	39	104	1172307968	72	21323
2026-01-11 23:03:12.65	168.34	6.72	-50.5	-65.9	3.8	1.49e+00	0	39	104	1172307968	72	21276
2026-01-11 23:03:15.92	168.53	6.49	-50.5	-65.8	3.8	1.49e+00	0	39	104	1172307968	72	21236
2026-01-11 23:03:18.63	168.69	6.30	-50.5	-65.9	3.8	1.49e+00	0	39	104	1172307968	72	21276
2026-01-11 23:03:21.89	168.88	6.07	-50.5	-65.9	3.8	1.49e+00	0	39	104	1172307968	72	21293
2026-01-11 23:03:24.60	169.03	5.88	-50.5	-65.8	3.8	1.49e+00	0	39	104	1172307968	72	21217
2026-01-11 23:03:27.87	169.22	5.66	-50.5	-65.8	3.8	1.49e+00	0	39	104	1172307968	72	21223
2026-01-11 23:03:30.61	169.37	5.47	-50.5	-65.9	3.8	1.49e+00	0	39	104	1172307968	72	21265
2026-01-11 23:03:33.87	169.55	5.25	-50.5	-65.9	3.8	1.49e+00	0	39	104	1172307968	72	21283
2026-01-11 23:03:36.57	169.69	5.06	-50.5	-65.8	3.8	1.49e+00	0	39	104	1172307968	72	21129

#Closed at: 2026-01-11 23:03:38
#Recorded file [1172 MB]: D:/Data/31040_260112_015115.dat