passes_logs/2026/01/11/T1/T1__20260111_104102_SUOMI_NPP_rec.log

#Pass ID: 20260111_104102_SUOMI NPP
#Satellite: SUOMI NPP
#Configuration: NPP
#almurnet v.1.7.20251203
#Start time: 2026-01-11 10:41:03

#Version: 2.0.20230620
#Station: T1
#Location: 37.570604 lon 55.790049 lat
#TLE: 1 37849U 11061A   26010.94533966  .00000106  00000+0  71276-4 0  9997
#TLE: 2 37849  98.7807 313.0290 0002520  70.6146 289.5303 14.19524339736134

#Time	Az	El	Level	Level2	SNR	BER	BlckErr	Temp	State	Recorded	gain1	gain2
2026-01-11 10:41:03.76	181.98	5.07	-51.1	-66.7	3.8	1.49e+00	0	36	0	0	73	22068
2026-01-11 10:41:07.73	182.13	5.35	-51.1	-66.6	3.8	1.49e+00	0	37	104	0	73	21893
2026-01-11 10:41:11.70	182.30	5.63	-51.0	-66.8	3.8	1.49e+00	0	37	104	0	73	22278
2026-01-11 10:41:15.67	182.46	5.92	-51.0	-66.6	3.8	1.49e+00	0	37	104	0	73	21921
2026-01-11 10:41:19.64	182.63	6.20	-51.0	-66.2	3.8	1.49e+00	0	37	104	0	73	20946
2026-01-11 10:41:23.61	182.80	6.49	-51.0	-66.3	3.8	1.49e+00	0	37	104	0	73	21219
2026-01-11 10:41:27.59	182.97	6.78	-51.0	-65.6	3.8	1.49e+00	0	37	104	0	73	19503
2026-01-11 10:41:31.56	183.15	7.08	-51.0	-66.0	3.8	1.49e+00	0	37	104	0	73	20536
2026-01-11 10:41:35.53	183.33	7.38	-50.9	-64.5	3.8	1.49e+00	0	37	104	0	73	17092
2026-01-11 10:41:39.51	183.52	7.68	-49.7	-56.3	9.1	4.67e-02	0	38	0	5242880	71	7540
2026-01-11 10:41:43.48	183.70	7.99	-48.1	-52.5	13.0	6.56e-05	0	38	0	12582912	68	5773
2026-01-11 10:41:47.45	183.90	8.30	-47.5	-51.5	14.0	7.00e-07	0	38	0	20971520	66	5724
2026-01-11 10:41:51.42	184.09	8.61	-48.6	-53.6	11.8	2.98e-04	0	38	0	28311552	67	6920
2026-01-11 10:41:55.39	184.29	8.92	-50.1	-57.8	7.7	7.28e-02	0	38	0	35651584	70	9493
2026-01-11 10:41:59.37	184.50	9.24	-50.0	-57.7	7.9	7.01e-03	0	38	0	42991616	70	9337
2026-01-11 10:42:03.33	184.70	9.57	-49.2	-55.1	10.4	5.55e-03	0	38	0	49283072	70	6957
2026-01-11 10:42:07.30	184.92	9.90	-48.6	-53.9	11.7	5.80e-04	0	39	0	56623104	69	6384
2026-01-11 10:42:11.28	185.13	10.23	-48.3	-52.8	12.9	2.51e-05	0	38	0	65011712	68	5948
2026-01-11 10:42:15.25	185.36	10.56	-47.5	-51.4	14.1	2.20e-06	0	38	0	72351744	67	5344
2026-01-11 10:42:19.22	185.58	10.90	-47.0	-50.4	15.0	0.00e+00	0	38	0	79691776	65	5394
2026-01-11 10:42:23.19	185.81	11.25	-46.8	-50.1	15.4	0.00e+00	0	38	0	87031808	65	5187
2026-01-11 10:42:27.16	186.05	11.60	-46.5	-49.7	15.8	0.00e+00	0	38	0	94371840	65	4940
2026-01-11 10:42:31.13	186.29	11.95	-46.5	-49.7	15.8	0.00e+00	0	38	0	101711872	64	5232
2026-01-11 10:42:35.10	186.54	12.31	-46.3	-49.2	16.2	0.00e+00	0	39	0	109051904	64	4977
2026-01-11 10:42:39.07	186.80	12.68	-46.2	-49.2	16.3	0.00e+00	0	39	0	116391936	64	4970
2026-01-11 10:42:43.04	187.06	13.04	-46.2	-49.2	16.3	0.00e+00	0	38	0	123731968	64	4983
2026-01-11 10:42:47.01	187.32	13.42	-46.1	-49.1	16.4	0.00e+00	0	39	0	132120576	64	4926
2026-01-11 10:42:50.99	187.60	13.80	-46.3	-49.4	16.2	0.00e+00	0	39	0	139460608	63	5357
2026-01-11 10:42:54.96	187.87	14.18	-46.1	-49.2	16.5	0.00e+00	0	39	0	146800640	63	5224
2026-01-11 10:42:58.93	188.16	14.57	-46.0	-49.0	16.6	0.00e+00	0	39	0	154140672	63	5158
2026-01-11 10:43:02.90	188.46	14.97	-46.3	-49.4	16.2	0.00e+00	0	39	0	161480704	63	5388
2026-01-11 10:43:06.87	188.76	15.37	-46.5	-49.7	16.0	0.00e+00	0	39	0	168820736	63	5530
2026-01-11 10:43:10.84	189.07	15.78	-46.6	-49.7	16.0	0.00e+00	0	39	0	176160768	63	5573
2026-01-11 10:43:14.81	189.38	16.19	-46.1	-48.9	16.6	0.00e+00	0	39	0	183500800	63	5099
2026-01-11 10:43:18.78	189.71	16.61	-45.8	-48.6	17.0	0.00e+00	0	39	0	190840832	63	4878
2026-01-11 10:43:22.75	190.05	17.04	-45.8	-48.5	17.1	0.00e+00	0	39	0	198180864	63	4868
2026-01-11 10:43:26.72	190.39	17.47	-46.0	-48.8	16.9	0.00e+00	0	39	0	206569472	63	5032
2026-01-11 10:43:30.69	190.75	17.91	-45.9	-48.7	17.0	0.00e+00	0	39	0	213909504	63	4956
2026-01-11 10:43:34.66	191.11	18.36	-45.8	-48.5	17.1	0.00e+00	0	39	0	221249536	63	4862
2026-01-11 10:43:38.64	191.49	18.82	-45.4	-48.0	17.6	0.00e+00	0	39	0	228589568	62	4854
2026-01-11 10:43:42.61	191.87	19.28	-45.5	-48.2	17.6	0.00e+00	0	39	0	235929600	62	4929
2026-01-11 10:43:46.58	192.27	19.75	-45.3	-47.9	17.8	0.00e+00	0	39	0	243269632	62	4790
2026-01-11 10:43:50.55	192.68	20.22	-45.4	-48.0	17.7	0.00e+00	0	39	0	250609664	62	4863
2026-01-11 10:43:54.52	193.10	20.71	-45.6	-48.2	17.6	0.00e+00	0	39	0	257949696	62	4946
2026-01-11 10:43:58.50	193.54	21.20	-45.6	-48.2	17.5	0.00e+00	0	39	0	265289728	62	4966
2026-01-11 10:44:02.47	193.99	21.70	-45.3	-47.8	17.9	0.00e+00	0	39	0	272629760	62	4719
2026-01-11 10:44:06.44	194.45	22.21	-45.2	-47.7	18.0	0.00e+00	0	39	0	279969792	62	4671
2026-01-11 10:44:10.41	194.93	22.73	-45.1	-47.5	18.1	0.00e+00	0	39	0	288358400	62	4588
2026-01-11 10:44:14.38	195.42	23.26	-45.3	-47.8	17.9	0.00e+00	0	39	0	295698432	62	4720
2026-01-11 10:44:18.35	195.93	23.79	-45.4	-47.9	17.9	0.00e+00	0	39	0	303038464	62	4772
2026-01-11 10:44:22.32	196.46	24.33	-45.8	-48.3	17.4	0.00e+00	0	39	0	310378496	62	5038
2026-01-11 10:44:26.30	197.01	24.89	-45.8	-48.4	17.4	0.00e+00	0	39	0	317718528	62	5055
2026-01-11 10:44:30.27	197.57	25.45	-46.0	-48.7	17.1	0.00e+00	0	39	0	325058560	62	5222
2026-01-11 10:44:34.24	198.16	26.02	-46.1	-48.8	17.1	0.00e+00	0	39	0	332398592	63	4992
2026-01-11 10:44:38.21	198.76	26.60	-46.2	-48.9	16.9	0.00e+00	0	39	0	339738624	63	5068
2026-01-11 10:44:42.18	199.39	27.19	-46.2	-48.9	16.9	0.00e+00	0	39	0	347078656	63	5086
2026-01-11 10:44:46.16	200.05	27.79	-46.5	-49.4	16.5	0.00e+00	0	39	0	355467264	63	5362
2026-01-11 10:44:50.13	200.72	28.40	-47.0	-50.0	15.8	0.00e+00	0	39	0	362807296	64	5447
2026-01-11 10:44:54.10	201.42	29.01	-47.0	-50.0	15.9	0.00e+00	0	39	0	370147328	65	5136
2026-01-11 10:44:58.07	202.15	29.64	-48.0	-51.5	14.5	7.00e-07	0	39	0	377487360	67	5417
2026-01-11 10:45:02.04	202.91	30.27	-48.4	-52.1	13.9	3.00e-06	0	39	0	384827392	67	5799
2026-01-11 10:45:06.02	203.70	30.92	-47.8	-51.1	14.8	7.00e-07	0	39	0	392167424	67	5210
2026-01-11 10:45:09.99	204.52	31.57	-47.3	-50.4	15.5	0.00e+00	0	39	0	399507456	66	5087
2026-01-11 10:45:13.96	205.37	32.23	-47.2	-50.3	15.5	0.00e+00	0	39	0	406847488	66	5038
2026-01-11 10:45:17.93	206.26	32.90	-47.6	-50.9	15.0	0.00e+00	0	39	0	414187520	66	5371
2026-01-11 10:45:21.90	207.18	33.57	-46.2	-48.9	16.9	0.00e+00	0	39	0	421527552	64	4781
2026-01-11 10:45:25.87	208.14	34.25	-46.7	-49.5	16.3	0.00e+00	0	39	0	429916160	64	5120
2026-01-11 10:45:29.84	209.14	34.94	-47.0	-50.1	15.8	0.00e+00	0	39	0	437256192	65	5179
2026-01-11 10:45:33.82	210.19	35.63	-46.4	-49.2	16.7	0.00e+00	0	39	0	444596224	64	4944
2026-01-11 10:45:37.79	211.28	36.33	-46.8	-49.7	16.2	0.00e+00	0	39	0	451936256	64	5236
2026-01-11 10:45:41.76	212.41	37.03	-46.3	-49.0	16.8	0.00e+00	0	39	0	459276288	64	4834
2026-01-11 10:45:45.73	213.60	37.73	-46.2	-48.8	17.1	0.00e+00	0	39	0	466616320	63	5019
2026-01-11 10:45:49.70	214.83	38.44	-45.8	-48.4	17.5	0.00e+00	0	39	0	473956352	63	4761
2026-01-11 10:45:53.67	216.12	39.14	-45.6	-48.2	17.7	0.00e+00	0	39	0	481296384	63	4659
2026-01-11 10:45:57.64	217.47	39.84	-45.9	-48.4	17.4	0.00e+00	0	39	0	488636416	62	5073
2026-01-11 10:46:01.61	218.87	40.53	-46.5	-49.3	16.6	0.00e+00	0	39	0	495976448	63	5321
2026-01-11 10:46:05.58	220.34	41.22	-46.6	-49.4	16.6	0.00e+00	0	39	0	504365056	63	5345
2026-01-11 10:46:09.55	221.87	41.90	-46.2	-49.0	16.9	0.00e+00	0	39	0	511705088	64	4831
2026-01-11 10:46:13.53	223.46	42.57	-45.8	-48.3	17.6	0.00e+00	0	39	0	519045120	62	5026
2026-01-11 10:46:17.50	225.12	43.23	-45.2	-47.6	18.2	0.00e+00	0	39	0	526385152	62	4602
2026-01-11 10:46:21.47	226.84	43.87	-46.2	-48.8	17.1	0.00e+00	0	39	0	533725184	63	5034
2026-01-11 10:46:25.44	228.64	44.49	-46.4	-49.2	16.7	0.00e+00	0	39	0	541065216	64	4939
2026-01-11 10:46:29.42	230.50	45.09	-46.6	-49.4	16.6	0.00e+00	0	39	0	548405248	63	5359
2026-01-11 10:46:33.39	232.44	45.66	-46.6	-49.5	16.3	0.00e+00	0	39	0	555745280	64	5105
2026-01-11 10:46:37.36	234.44	46.21	-47.8	-51.2	14.7	0.00e+00	0	39	0	563085312	66	5558
2026-01-11 10:46:41.33	236.51	46.72	-47.3	-50.4	15.5	0.00e+00	0	39	0	570425344	65	5373
2026-01-11 10:46:45.30	238.64	47.20	-48.3	-52.0	13.9	2.20e-06	0	39	0	578813952	67	5762
2026-01-11 10:46:49.27	240.84	47.63	-47.6	-50.8	15.1	0.00e+00	0	39	0	586153984	66	5337
2026-01-11 10:46:53.24	243.09	48.03	-47.8	-51.1	14.8	0.00e+00	0	39	0	593494016	66	5522
2026-01-11 10:46:57.22	245.41	48.38	-48.1	-51.7	14.2	0.00e+00	0	39	0	600834048	67	5581
2026-01-11 10:47:01.19	247.77	48.68	-47.2	-50.2	15.8	0.00e+00	0	39	0	608174080	66	4954
2026-01-11 10:47:05.16	250.17	48.94	-45.8	-48.3	17.6	0.00e+00	0	39	0	615514112	63	4745
2026-01-11 10:47:09.13	252.60	49.14	-46.3	-49.0	16.8	0.00e+00	0	39	0	622854144	64	4869
2026-01-11 10:47:13.11	255.07	49.28	-45.9	-48.4	17.4	0.00e+00	0	39	0	630194176	63	4813
2026-01-11 10:47:17.08	257.55	49.37	-45.4	-47.8	18.1	0.00e+00	0	39	0	637534208	62	4735
2026-01-11 10:47:20.79	259.88	49.41	-45.5	-48.0	17.8	0.00e+00	0	39	0	644874240	61	5152
2026-01-11 10:47:24.76	262.37	49.39	-46.4	-49.3	16.7	0.00e+00	0	39	0	653262848	64	4992
2026-01-11 10:47:28.75	264.87	49.31	-44.9	-47.2	18.6	0.00e+00	0	39	0	660602880	61	4655
2026-01-11 10:47:32.72	267.34	49.18	-47.1	-50.2	15.8	0.00e+00	0	39	0	667942912	64	5547
2026-01-11 10:47:36.71	269.79	48.99	-48.5	-52.5	13.7	2.20e-06	0	39	0	675282944	67	6065
2026-01-11 10:47:40.69	272.20	48.75	-47.3	-50.4	15.6	0.00e+00	0	39	0	682622976	66	5092
2026-01-11 10:47:44.69	274.59	48.45	-46.3	-49.1	16.9	0.00e+00	0	39	0	689963008	64	4881
2026-01-11 10:47:48.68	276.92	48.11	-49.4	-53.8	12.4	1.19e-04	0	39	0	697303040	69	6331
2026-01-11 10:47:52.67	279.19	47.72	-49.6	-54.2	11.9	5.54e-04	0	39	0	705691648	70	6267
2026-01-11 10:47:56.67	281.42	47.29	-50.1	-55.0	11.2	1.72e-03	0	39	0	713031680	71	6484
2026-01-11 10:48:00.67	283.57	46.82	-48.2	-51.7	14.5	3.00e-06	0	39	0	720371712	68	5234
2026-01-11 10:48:04.64	285.65	46.32	-49.3	-53.6	12.6	1.22e-05	0	39	0	727711744	69	6168
2026-01-11 10:48:08.61	287.66	45.78	-47.8	-51.1	15.0	7.00e-07	0	39	0	735051776	66	5484
2026-01-11 10:48:12.59	289.61	45.21	-47.2	-50.3	15.7	0.00e+00	0	39	0	742391808	66	4999
2026-01-11 10:48:16.60	291.50	44.62	-47.7	-51.0	15.1	0.00e+00	0	39	0	749731840	66	5409
2026-01-11 10:48:20.61	293.32	44.00	-46.4	-49.1	16.8	0.00e+00	0	39	0	757071872	63	5217
2026-01-11 10:48:24.58	295.05	43.36	-45.2	-47.6	18.3	0.00e+00	0	39	0	765460480	61	4903
2026-01-11 10:48:28.57	296.72	42.71	-44.5	-46.7	19.0	0.00e+00	0	39	0	772800512	61	4429
2026-01-11 10:48:32.55	298.33	42.04	-44.9	-47.2	18.6	0.00e+00	0	39	0	780140544	61	4682
2026-01-11 10:48:36.54	299.87	41.37	-45.8	-48.3	17.6	0.00e+00	0	39	0	787480576	62	5008
2026-01-11 10:48:40.53	301.35	40.68	-44.7	-47.0	18.7	0.00e+00	0	39	0	794820608	60	4861
2026-01-11 10:48:44.53	302.77	39.98	-46.9	-49.9	16.0	0.00e+00	0	39	0	802160640	65	5080
2026-01-11 10:48:48.50	304.12	39.29	-50.0	-55.3	10.8	2.28e-05	0	39	0	809500672	70	7117
2026-01-11 10:48:52.51	305.43	38.58	-48.2	-51.8	14.4	3.80e-06	0	39	0	817889280	68	5285
2026-01-11 10:48:56.49	306.67	37.88	-51.0	-59.7	6.5	2.52e-01	0	39	0	825229312	72	10420
2026-01-11 10:49:00.48	307.87	37.18	-48.6	-52.4	13.8	1.06e-05	0	39	0	832569344	69	5384
2026-01-11 10:49:04.48	309.02	36.48	-51.4	-59.6	6.5	2.11e-01	0	39	0	839909376	73	9804
2026-01-11 10:49:08.50	310.12	35.78	-49.2	-53.5	12.6	6.48e-05	0	39	0	847249408	70	5779
2026-01-11 10:49:12.49	311.18	35.09	-50.4	-56.3	9.6	2.81e-02	0	39	0	854589440	72	7062
2026-01-11 10:49:16.46	312.18	34.40	-46.6	-49.5	16.5	0.00e+00	0	39	0	861929472	65	4824
2026-01-11 10:49:20.44	313.15	33.72	-48.3	-52.2	13.9	6.10e-06	0	39	0	870318080	67	5869
2026-01-11 10:49:24.46	314.09	33.04	-45.6	-48.1	17.7	0.00e+00	0	39	0	877658112	63	4599
2026-01-11 10:49:28.46	314.98	32.37	-48.1	-51.6	14.3	0.00e+00	0	39	0	884998144	66	5845
2026-01-11 10:49:32.45	315.84	31.71	-46.4	-49.2	16.6	0.00e+00	0	39	0	892338176	64	4972
2026-01-11 10:49:36.44	316.67	31.06	-46.8	-49.9	16.0	0.00e+00	0	39	0	899678208	64	5389
2026-01-11 10:49:40.44	317.46	30.42	-46.9	-50.1	15.8	0.00e+00	0	39	0	907018240	65	5205
2026-01-11 10:49:44.43	318.22	29.78	-45.2	-47.7	18.1	0.00e+00	0	39	0	914358272	62	4686
2026-01-11 10:49:48.41	318.96	29.16	-47.5	-50.9	15.0	0.00e+00	0	39	0	921698304	65	5703
2026-01-11 10:49:52.42	319.67	28.54	-48.2	-52.1	13.8	1.29e-05	0	39	0	930086912	67	5834
2026-01-11 10:49:56.41	320.35	27.93	-46.4	-49.3	16.5	0.00e+00	0	39	0	937426944	64	4995
2026-01-11 10:50:00.39	321.00	27.33	-47.5	-50.9	15.0	0.00e+00	0	39	0	944766976	65	5669
2026-01-11 10:50:04.38	321.64	26.74	-46.3	-49.2	16.6	0.00e+00	0	39	0	952107008	64	4943
2026-01-11 10:50:08.38	322.25	26.16	-45.6	-48.3	17.5	0.00e+00	0	39	0	959447040	62	5016
2026-01-11 10:50:12.40	322.84	25.59	-46.5	-49.6	16.4	0.00e+00	0	39	0	966787072	63	5500
2026-01-11 10:50:16.37	323.41	25.03	-47.3	-50.7	15.2	0.00e+00	0	39	0	974127104	65	5561
2026-01-11 10:50:20.36	323.96	24.48	-48.1	-51.8	14.1	7.00e-07	0	39	0	982515712	66	5982
2026-01-11 10:50:24.36	324.49	23.93	-47.7	-51.2	14.6	1.50e-06	0	39	0	989855744	67	5276
2026-01-11 10:50:28.34	325.01	23.40	-47.1	-50.4	15.4	0.00e+00	0	39	0	997195776	65	5357
2026-01-11 10:50:32.35	325.51	22.87	-47.6	-51.1	14.7	0.00e+00	0	39	0	1004535808	66	5526
2026-01-11 10:50:36.34	325.99	22.35	-48.3	-52.7	13.1	2.21e-05	0	39	0	1011875840	67	6219
2026-01-11 10:50:40.33	326.46	21.84	-47.2	-50.6	15.2	0.00e+00	0	39	0	1019215872	66	5203
2026-01-11 10:50:44.33	326.91	21.34	-45.6	-48.1	17.7	0.00e+00	0	39	0	1026555904	63	4615
2026-01-11 10:50:48.35	327.35	20.85	-45.6	-48.1	17.6	0.00e+00	0	39	0	1034944512	62	4926
2026-01-11 10:50:52.37	327.78	20.36	-46.3	-49.3	16.5	0.00e+00	0	39	0	1042284544	63	5316
2026-01-11 10:50:56.35	328.19	19.88	-47.5	-51.6	14.2	2.20e-06	0	39	0	1049624576	65	6177
2026-01-11 10:51:00.36	328.60	19.41	-47.6	-51.8	14.0	3.80e-06	0	39	0	1056964608	66	5949
2026-01-11 10:51:04.34	328.98	18.95	-47.7	-51.4	14.4	3.00e-06	0	39	0	1064304640	66	5692
2026-01-11 10:51:08.33	329.36	18.50	-47.0	-50.2	15.5	0.00e+00	0	39	0	1071644672	66	4983
2026-01-11 10:51:12.35	329.73	18.05	-47.2	-50.5	15.3	0.00e+00	0	39	0	1080033280	65	5412
2026-01-11 10:51:16.34	330.09	17.61	-47.2	-50.5	15.2	0.00e+00	0	39	0	1087373312	65	5464
2026-01-11 10:51:20.32	330.44	17.18	-47.4	-51.2	14.5	0.00e+00	0	39	0	1094713344	65	5878
2026-01-11 10:51:24.30	330.78	16.75	-47.4	-51.2	14.5	2.20e-06	0	39	0	1102053376	65	5874
2026-01-11 10:51:28.28	331.10	16.33	-47.5	-51.3	14.5	0.00e+00	0	39	0	1109393408	65	5954
2026-01-11 10:51:32.25	331.42	15.92	-47.3	-50.7	15.0	7.00e-07	0	39	0	1116733440	65	5567
2026-01-11 10:51:36.24	331.74	15.51	-46.7	-50.1	15.6	0.00e+00	0	39	0	1124073472	65	5182
2026-01-11 10:51:40.23	332.04	15.11	-46.6	-50.0	15.6	0.00e+00	0	39	0	1131413504	64	5464
2026-01-11 10:51:44.22	332.34	14.72	-46.7	-50.1	15.6	0.00e+00	0	39	0	1139802112	64	5470
2026-01-11 10:51:48.19	332.63	14.33	-47.2	-50.5	15.2	0.00e+00	0	39	0	1147142144	65	5429
2026-01-11 10:51:52.19	332.91	13.94	-47.1	-50.5	15.2	0.00e+00	0	39	0	1154482176	65	5429
2026-01-11 10:51:56.19	333.19	13.56	-46.5	-50.2	15.4	0.00e+00	0	39	0	1161822208	65	5268
2026-01-11 10:52:00.16	333.46	13.19	-46.4	-49.8	15.9	0.00e+00	0	39	0	1169162240	64	5291
2026-01-11 10:52:04.15	333.72	12.82	-46.6	-49.8	15.8	0.00e+00	0	39	0	1176502272	64	5292
2026-01-11 10:52:08.14	333.98	12.46	-46.6	-49.6	15.9	0.00e+00	0	39	0	1183842304	64	5199
2026-01-11 10:52:12.12	334.23	12.10	-46.9	-50.3	15.3	0.00e+00	0	39	0	1191182336	64	5616
2026-01-11 10:52:16.11	334.48	11.75	-47.1	-50.7	14.9	0.00e+00	0	39	0	1199570944	65	5536
2026-01-11 10:52:20.08	334.72	11.40	-47.7	-51.5	14.0	3.80e-06	0	39	0	1206910976	65	6131
2026-01-11 10:52:24.07	334.95	11.06	-47.9	-52.0	13.6	5.30e-06	0	39	0	1214251008	66	6101
2026-01-11 10:52:28.06	335.19	10.72	-47.7	-52.0	13.6	1.22e-05	0	39	0	1221591040	66	6128
2026-01-11 10:52:32.03	335.41	10.38	-47.5	-51.9	13.7	6.80e-06	0	39	0	1228931072	66	6013
2026-01-11 10:52:36.02	335.63	10.05	-47.4	-51.9	13.7	8.30e-06	0	39	0	1236271104	66	6049
2026-01-11 10:52:39.99	335.85	9.73	-47.2	-51.4	14.1	7.00e-07	0	39	0	1243611136	66	5707
2026-01-11 10:52:43.98	336.06	9.40	-47.2	-51.4	14.1	4.50e-06	0	39	0	1250951168	66	5697
2026-01-11 10:52:47.96	336.27	9.08	-47.2	-51.6	13.9	3.00e-06	0	39	0	1259339776	66	5842
2026-01-11 10:52:51.95	336.47	8.77	-51.3	-67.2	3.8	1.49e+00	0	39	104	1262485504	73	23433
2026-01-11 10:52:55.92	336.67	8.46	-51.9	-67.5	3.8	1.49e+00	0	39	104	1262485504	74	22825
2026-01-11 10:52:59.91	336.87	8.15	-52.1	-67.5	3.8	1.49e+00	0	39	104	1262485504	75	21733
2026-01-11 10:53:03.90	337.06	7.84	-52.4	-67.6	3.8	1.49e+00	0	39	104	1262485504	75	21788
2026-01-11 10:53:07.88	337.25	7.54	-52.5	-67.6	3.8	1.49e+00	0	39	104	1262485504	75	21787
2026-01-11 10:53:11.87	337.43	7.24	-52.3	-67.6	3.8	1.49e+00	0	39	104	1262485504	75	21759
2026-01-11 10:53:15.84	337.61	6.95	-52.2	-67.5	3.8	1.49e+00	0	39	104	1262485504	75	21671
2026-01-11 10:53:19.82	337.79	6.66	-52.2	-67.5	3.8	1.49e+00	0	39	104	1262485504	75	21665
2026-01-11 10:53:23.79	337.97	6.37	-52.2	-67.5	3.8	1.49e+00	0	39	104	1262485504	75	21681
2026-01-11 10:53:27.81	338.14	6.08	-52.2	-67.5	3.8	1.49e+00	0	39	104	1262485504	75	21696
2026-01-11 10:53:31.78	338.31	5.80	-52.2	-67.5	3.8	1.49e+00	0	39	104	1262485504	75	21616
2026-01-11 10:53:35.80	338.48	5.52	-52.2	-67.5	3.8	1.49e+00	0	39	104	1262485504	75	21657
2026-01-11 10:53:39.78	338.64	5.24	-52.2	-67.5	3.8	1.49e+00	0	39	104	1262485504	75	21594
2026-01-11 10:53:43.76	338.80	4.97	-52.2	-67.5	3.8	1.49e+00	0	39	104	1262485504	75	21669

#Closed at: 2026-01-11 10:53:45
#Recorded file [1262 MB]: D:/Data/31040_260111_134103.dat