passes_logs/2026/01/11/T1/T1__20260111_124101_AQUA_rec.log

#Pass ID: 20260111_124101_AQUA
#Satellite: AQUA
#Configuration: AQUA
#almurnet v.1.7.20251203
#Start time: 2026-01-11 12:41:02

#Version: 2.0.20230620
#Station: T1
#Location: 37.570604 lon 55.790049 lat
#TLE: 1 27424U 02022A   26010.91777001  .00001106  00000+0  23130-3 0  9995
#TLE: 2 27424  98.4077 337.2768 0002031  83.1713 340.5382 14.61814337260293

#Time	Az	El	Level	Level2	SNR	BER	BlckErr	Temp	State	Recorded	gain1	gain2
2026-01-11 12:41:02.43	196.12	5.11	-52.2	-73.5	3.8	7.44e-01	0	41	0	0	76	40617
2026-01-11 12:41:05.40	196.33	5.32	-52.2	-73.3	3.8	7.44e-01	0	41	104	0	74	44805
2026-01-11 12:41:08.38	196.55	5.53	-52.2	-73.4	3.8	7.46e-01	0	41	104	0	75	42535
2026-01-11 12:41:11.36	196.77	5.74	-52.2	-73.1	3.8	7.43e-01	0	41	104	0	75	40996
2026-01-11 12:41:14.34	196.99	5.95	-52.1	-72.9	3.8	7.45e-01	0	41	104	0	75	40407
2026-01-11 12:41:17.32	197.22	6.16	-52.1	-71.2	3.8	7.45e-01	0	42	104	0	75	33238
2026-01-11 12:41:20.30	197.45	6.37	-52.1	-71.5	3.8	7.42e-01	0	42	104	0	75	34400
2026-01-11 12:41:23.28	197.69	6.59	-52.1	-72.5	3.8	7.46e-01	0	42	104	0	75	38443
2026-01-11 12:41:26.26	197.93	6.81	-52.1	-71.0	3.8	7.43e-01	0	42	104	0	75	32339
2026-01-11 12:41:29.24	198.17	7.02	-52.1	-69.3	4.4	7.27e-01	0	42	104	0	75	26582
2026-01-11 12:41:32.22	198.42	7.24	-52.0	-68.9	4.4	7.21e-01	0	42	104	0	75	25327
2026-01-11 12:41:35.19	198.67	7.47	-52.0	-68.1	4.9	7.16e-01	0	42	104	0	75	23260
2026-01-11 12:41:38.17	198.92	7.69	-52.1	-72.2	3.8	7.46e-01	0	42	104	0	75	36956
2026-01-11 12:41:41.15	199.18	7.92	-51.8	-63.9	8.1	6.49e-01	0	42	0	524288	75	14322
2026-01-11 12:41:44.13	199.44	8.14	-49.9	-55.6	16.7	6.09e-01	0	42	0	6291456	71	6926
2026-01-11 12:41:47.11	199.71	8.37	-48.4	-52.4	19.9	6.08e-01	0	42	0	12058624	68	5693
2026-01-11 12:41:50.09	199.98	8.61	-48.3	-52.4	19.7	6.08e-01	0	42	0	17301504	68	5678
2026-01-11 12:41:53.07	200.26	8.84	-49.7	-55.0	17.4	6.06e-01	0	42	0	23068672	70	6855
2026-01-11 12:41:56.05	200.54	9.07	-51.0	-58.8	13.5	6.09e-01	0	43	0	28835840	72	9493
2026-01-11 12:41:59.03	200.82	9.31	-51.8	-63.1	9.4	6.31e-01	0	43	0	34078720	74	13756
2026-01-11 12:42:02.00	201.11	9.55	-50.0	-55.0	17.4	6.07e-01	0	43	0	39845888	72	6073
2026-01-11 12:42:04.98	201.41	9.79	-48.3	-51.8	20.5	6.07e-01	0	43	0	45613056	68	5322
2026-01-11 12:42:07.96	201.71	10.03	-48.2	-51.7	20.7	6.08e-01	0	42	0	50855936	68	5254
2026-01-11 12:42:10.94	202.02	10.28	-48.2	-51.7	20.7	6.07e-01	0	43	0	56623104	68	5247
2026-01-11 12:42:13.92	202.33	10.53	-47.8	-51.4	20.9	6.06e-01	0	43	0	62390272	67	5377
2026-01-11 12:42:16.90	202.64	10.77	-47.7	-51.3	21.0	6.08e-01	0	43	0	67633152	67	5290
2026-01-11 12:42:19.87	202.97	11.02	-47.7	-51.2	21.1	6.08e-01	0	43	0	73400320	67	5264
2026-01-11 12:42:22.85	203.30	11.28	-47.7	-51.2	21.1	6.08e-01	0	43	0	79167488	67	5251
2026-01-11 12:42:25.83	203.63	11.53	-47.8	-51.3	21.0	6.06e-01	0	43	0	84410368	67	5282
2026-01-11 12:42:28.81	203.97	11.79	-47.7	-51.0	21.3	6.07e-01	0	43	0	90177536	67	5125
2026-01-11 12:42:31.79	204.32	12.05	-47.7	-51.0	21.3	6.09e-01	0	43	0	95944704	67	5103
2026-01-11 12:42:34.77	204.67	12.31	-47.8	-51.0	21.3	6.07e-01	0	43	0	101187584	67	5140
2026-01-11 12:42:37.74	205.03	12.58	-47.7	-50.9	21.4	6.07e-01	0	43	0	106954752	67	5052
2026-01-11 12:42:40.72	205.40	12.84	-47.7	-50.9	21.4	6.09e-01	0	43	0	112197632	67	5097
2026-01-11 12:42:43.70	205.77	13.11	-47.7	-50.8	21.5	6.08e-01	0	43	0	117964800	67	5011
2026-01-11 12:42:46.68	206.15	13.38	-47.6	-50.7	21.6	6.05e-01	0	43	0	123731968	67	4949
2026-01-11 12:42:49.66	206.54	13.66	-47.6	-50.7	21.6	6.09e-01	0	43	0	128974848	67	4957
2026-01-11 12:42:52.64	206.94	13.93	-47.5	-50.6	21.7	6.06e-01	0	43	0	134742016	67	4896
2026-01-11 12:42:55.62	207.34	14.21	-47.5	-50.6	21.8	6.05e-01	0	43	0	140509184	66	5169
2026-01-11 12:42:58.60	207.75	14.49	-47.6	-50.6	21.7	6.07e-01	0	43	0	145752064	66	5190
2026-01-11 12:43:01.57	208.17	14.77	-47.6	-50.6	21.8	6.04e-01	0	43	0	151519232	66	5188
2026-01-11 12:43:04.55	208.60	15.06	-47.5	-50.4	21.9	6.07e-01	0	43	0	157286400	66	5085
2026-01-11 12:43:07.53	209.04	15.34	-47.5	-50.4	21.9	6.06e-01	0	43	0	162529280	66	5097
2026-01-11 12:43:10.51	209.48	15.63	-47.5	-50.5	21.9	6.07e-01	0	43	0	168296448	66	5110
2026-01-11 12:43:13.49	209.94	15.93	-47.5	-50.4	22.0	6.07e-01	0	43	0	174063616	66	5074
2026-01-11 12:43:16.47	210.40	16.22	-47.5	-50.5	21.9	6.08e-01	0	43	0	179306496	66	5105
2026-01-11 12:43:19.44	210.87	16.51	-47.6	-50.5	21.9	6.07e-01	0	43	0	185073664	66	5141
2026-01-11 12:43:22.42	211.35	16.81	-47.5	-50.4	22.0	6.07e-01	0	43	0	190840832	66	5071
2026-01-11 12:43:25.40	211.85	17.11	-47.4	-50.3	22.1	6.08e-01	0	43	0	196083712	66	5023
2026-01-11 12:43:28.38	212.35	17.42	-47.4	-50.4	22.0	6.05e-01	0	43	0	201850880	66	5046
2026-01-11 12:43:31.36	212.87	17.72	-47.4	-50.3	22.1	6.07e-01	0	43	0	207618048	66	5006
2026-01-11 12:43:34.34	213.39	18.03	-47.5	-50.4	22.0	6.09e-01	0	43	0	212860928	66	5081
2026-01-11 12:43:37.31	213.93	18.33	-47.4	-50.3	22.1	6.06e-01	0	43	0	218628096	66	5035
2026-01-11 12:43:40.29	214.47	18.64	-47.3	-50.3	22.1	6.08e-01	0	43	0	224395264	66	5015
2026-01-11 12:43:43.27	215.03	18.96	-47.4	-50.3	22.1	6.06e-01	0	43	0	229638144	66	5038
2026-01-11 12:43:46.25	215.60	19.27	-47.3	-50.2	22.2	6.09e-01	0	43	0	235405312	66	4978
2026-01-11 12:43:49.23	216.19	19.59	-47.2	-50.1	22.3	6.07e-01	0	43	0	240648192	66	4881
2026-01-11 12:43:52.21	216.78	19.90	-47.4	-50.2	22.2	6.07e-01	0	43	0	246415360	66	4977
2026-01-11 12:43:55.19	217.39	20.22	-47.6	-50.4	22.0	6.09e-01	0	43	0	252182528	66	5076
2026-01-11 12:43:58.17	218.01	20.54	-47.3	-50.1	22.3	6.06e-01	0	43	0	257425408	66	4922
2026-01-11 12:44:01.14	218.65	20.86	-47.4	-50.3	22.1	6.05e-01	0	43	0	263192576	66	5015
2026-01-11 12:44:04.12	219.30	21.19	-47.4	-50.3	22.1	6.06e-01	0	43	0	268959744	66	5013
2026-01-11 12:44:07.10	219.96	21.51	-47.5	-50.4	22.0	6.08e-01	0	44	0	274202624	66	5082
2026-01-11 12:44:10.08	220.64	21.83	-47.4	-50.3	22.2	6.08e-01	0	43	0	279969792	66	4995
2026-01-11 12:44:13.06	221.33	22.16	-47.6	-50.5	21.9	6.07e-01	0	43	0	285736960	66	5159
2026-01-11 12:44:16.04	222.04	22.48	-47.6	-50.4	22.0	6.08e-01	0	43	0	290979840	66	5092
2026-01-11 12:44:19.02	222.76	22.81	-47.4	-50.2	22.2	6.08e-01	0	43	0	296747008	66	4972
2026-01-11 12:44:22.00	223.50	23.13	-47.6	-50.5	21.9	6.06e-01	0	43	0	302514176	66	5148
2026-01-11 12:44:24.98	224.25	23.46	-47.6	-50.5	22.0	6.05e-01	0	43	0	307757056	66	5105
2026-01-11 12:44:27.95	225.02	23.78	-47.6	-50.4	22.1	6.06e-01	0	43	0	313524224	66	5085
2026-01-11 12:44:30.93	225.81	24.10	-47.7	-50.6	21.9	6.06e-01	0	43	0	319291392	66	5205
2026-01-11 12:44:33.91	226.61	24.42	-47.6	-50.5	22.0	6.06e-01	0	43	0	324534272	66	5150
2026-01-11 12:44:36.89	227.43	24.74	-47.7	-50.7	21.8	6.05e-01	0	43	0	330301440	66	5220
2026-01-11 12:44:39.87	228.27	25.06	-47.9	-50.8	21.7	6.08e-01	0	43	0	336068608	66	5297
2026-01-11 12:44:42.85	229.13	25.38	-47.6	-50.5	22.0	6.06e-01	0	43	0	341311488	66	5110
2026-01-11 12:44:45.83	230.00	25.69	-47.6	-50.4	22.0	6.07e-01	0	43	0	347078656	66	5099
2026-01-11 12:44:48.81	230.89	26.00	-47.7	-50.6	21.9	6.07e-01	0	43	0	352845824	66	5183
2026-01-11 12:44:51.79	231.80	26.31	-47.6	-50.6	21.9	6.06e-01	0	43	0	358088704	66	5190
2026-01-11 12:44:54.76	232.72	26.61	-47.5	-50.5	22.0	6.05e-01	0	43	0	363855872	66	5113
2026-01-11 12:44:57.74	233.67	26.91	-47.6	-50.5	22.0	6.07e-01	0	43	0	369623040	66	5152
2026-01-11 12:45:00.72	234.63	27.21	-47.6	-50.5	22.0	6.08e-01	0	43	0	374865920	66	5129
2026-01-11 12:45:03.70	235.61	27.50	-47.8	-50.7	21.8	6.07e-01	0	44	0	380633088	66	5249
2026-01-11 12:45:06.68	236.61	27.78	-47.5	-50.4	22.1	6.07e-01	0	43	0	385875968	66	5085
2026-01-11 12:45:09.66	237.62	28.06	-47.6	-50.5	21.9	6.06e-01	0	44	0	391643136	66	5151
2026-01-11 12:45:12.64	238.66	28.33	-47.7	-50.5	22.0	6.07e-01	0	43	0	397410304	66	5138
2026-01-11 12:45:15.62	239.71	28.60	-47.6	-50.5	22.0	6.06e-01	0	43	0	402653184	66	5131
2026-01-11 12:45:18.60	240.78	28.85	-47.4	-50.3	22.2	6.05e-01	0	43	0	408420352	66	4991
2026-01-11 12:45:21.58	241.87	29.10	-47.5	-50.3	22.1	6.06e-01	0	43	0	414187520	66	5021
2026-01-11 12:45:24.56	242.97	29.34	-47.4	-50.2	22.2	6.07e-01	0	44	0	419430400	66	4973
2026-01-11 12:45:27.53	244.09	29.57	-47.4	-50.3	22.2	6.07e-01	0	44	0	425197568	66	4999
2026-01-11 12:45:30.51	245.23	29.79	-47.4	-50.2	22.3	6.07e-01	0	44	0	430964736	66	4978
2026-01-11 12:45:33.49	246.38	30.01	-47.3	-50.2	22.4	6.06e-01	0	43	0	436207616	66	4935
2026-01-11 12:45:36.47	247.54	30.21	-47.1	-50.0	22.5	6.05e-01	0	43	0	441974784	66	4832
2026-01-11 12:45:39.45	248.73	30.39	-47.4	-50.3	22.3	6.07e-01	0	43	0	447741952	66	4992
2026-01-11 12:45:42.42	249.92	30.57	-47.3	-50.2	22.3	6.06e-01	0	44	0	452984832	65	5234
2026-01-11 12:45:45.40	251.13	30.74	-47.2	-50.0	22.4	6.04e-01	0	44	0	458752000	65	5159
2026-01-11 12:45:48.38	252.34	30.89	-47.3	-50.1	22.4	6.06e-01	0	44	0	464519168	65	5181
2026-01-11 12:45:51.36	253.58	31.03	-47.0	-49.7	22.8	6.07e-01	0	44	0	469762048	65	4939
2026-01-11 12:45:54.34	254.82	31.15	-47.0	-49.7	22.7	6.07e-01	0	44	0	475529216	65	4957
2026-01-11 12:45:57.32	256.07	31.26	-46.9	-49.7	22.7	6.08e-01	0	43	0	481296384	65	4948
2026-01-11 12:46:00.30	257.33	31.36	-47.0	-49.7	22.7	6.06e-01	0	43	0	486539264	65	4976
2026-01-11 12:46:03.28	258.59	31.45	-47.0	-49.7	22.8	6.06e-01	0	44	0	492306432	65	4946
2026-01-11 12:46:06.25	259.86	31.51	-46.9	-49.5	22.9	6.07e-01	0	44	0	498073600	65	4870
2026-01-11 12:46:09.23	261.13	31.57	-46.8	-49.6	22.9	6.04e-01	0	43	0	503316480	65	4879
2026-01-11 12:46:12.21	262.41	31.61	-47.0	-49.8	22.7	6.08e-01	0	43	0	509083648	65	5003
2026-01-11 12:46:15.19	263.70	31.63	-46.6	-49.3	23.1	6.07e-01	0	44	0	514850816	65	4711
2026-01-11 12:46:18.17	264.98	31.64	-46.8	-49.5	22.9	6.05e-01	0	44	0	520093696	65	4829
2026-01-11 12:46:21.15	266.26	31.63	-46.7	-49.4	23.0	6.05e-01	0	44	0	525860864	65	4784
2026-01-11 12:46:24.13	267.55	31.61	-46.9	-49.6	22.8	6.07e-01	0	43	0	531103744	65	4902
2026-01-11 12:46:27.10	268.82	31.57	-46.7	-49.4	23.1	6.05e-01	0	43	0	536870912	65	4764
2026-01-11 12:46:30.08	270.10	31.52	-46.4	-49.1	23.3	6.06e-01	0	43	0	542638080	64	4879
2026-01-11 12:46:33.06	271.37	31.45	-46.6	-49.2	23.1	6.06e-01	0	43	0	547880960	64	4976
2026-01-11 12:46:36.04	272.63	31.37	-46.5	-49.2	23.2	6.08e-01	0	43	0	553648128	64	4946
2026-01-11 12:46:39.02	273.89	31.27	-46.8	-49.6	22.8	6.06e-01	0	44	0	559415296	64	5189
2026-01-11 12:46:42.00	275.14	31.16	-46.9	-49.7	22.8	6.08e-01	0	43	0	564658176	64	5231
2026-01-11 12:46:44.98	276.38	31.04	-46.5	-49.2	23.2	6.05e-01	0	44	0	570425344	64	4931
2026-01-11 12:46:47.95	277.60	30.90	-46.4	-48.9	23.4	6.07e-01	0	43	0	576192512	64	4804
2026-01-11 12:46:50.93	278.82	30.75	-46.5	-49.1	23.3	6.06e-01	0	43	0	581435392	64	4891
2026-01-11 12:46:53.91	280.03	30.59	-46.5	-49.1	23.3	6.06e-01	0	44	0	587202560	64	4880
2026-01-11 12:46:56.89	281.22	30.41	-46.5	-49.1	23.2	6.07e-01	0	44	0	592969728	64	4910
2026-01-11 12:46:59.87	282.40	30.22	-46.5	-49.0	23.3	6.07e-01	0	44	0	598212608	64	4853
2026-01-11 12:47:02.85	283.56	30.02	-46.7	-49.3	23.0	6.06e-01	0	44	0	603979776	64	5031
2026-01-11 12:47:05.83	284.71	29.81	-46.5	-49.1	23.3	6.06e-01	0	44	0	609222656	64	4886
2026-01-11 12:47:08.81	285.85	29.59	-46.6	-49.2	23.2	6.06e-01	0	43	0	614989824	64	4950
2026-01-11 12:47:11.78	286.96	29.37	-46.5	-49.1	23.2	6.07e-01	0	43	0	620756992	64	4896
2026-01-11 12:47:14.76	288.07	29.13	-46.6	-49.3	23.1	6.09e-01	0	44	0	625999872	64	5002
2026-01-11 12:47:17.74	289.15	28.88	-46.5	-49.2	23.2	6.07e-01	0	43	0	631767040	64	4955
2026-01-11 12:47:20.71	290.21	28.63	-46.6	-49.2	23.2	6.07e-01	0	43	0	637534208	64	4938
2026-01-11 12:47:23.68	291.26	28.37	-46.6	-49.2	23.1	6.07e-01	0	43	0	643301376	64	4975
2026-01-11 12:47:26.66	292.29	28.10	-46.6	-49.3	23.0	6.06e-01	0	44	0	648544256	64	5029
2026-01-11 12:47:29.64	293.31	27.82	-46.7	-49.4	23.0	6.05e-01	0	43	0	654311424	64	5046
2026-01-11 12:47:32.62	294.30	27.54	-46.7	-49.3	23.0	6.09e-01	0	43	0	660078592	64	5029
2026-01-11 12:47:35.60	295.28	27.25	-46.7	-49.3	23.1	6.07e-01	0	43	0	665321472	64	5025
2026-01-11 12:47:38.58	296.24	26.96	-46.9	-49.6	22.8	6.06e-01	0	44	0	671088640	64	5180
2026-01-11 12:47:41.55	297.18	26.66	-46.7	-49.4	23.0	6.07e-01	0	44	0	676331520	64	5079
2026-01-11 12:47:44.53	298.11	26.36	-46.9	-49.6	22.8	6.07e-01	0	44	0	682098688	64	5167
2026-01-11 12:47:47.51	299.01	26.06	-46.9	-49.7	22.7	6.06e-01	0	44	0	687865856	64	5274
2026-01-11 12:47:50.49	299.90	25.75	-46.6	-49.4	23.0	6.08e-01	0	44	0	693108736	64	5056
2026-01-11 12:47:53.47	300.77	25.44	-47.1	-49.9	22.5	6.07e-01	0	43	0	698875904	64	5367
2026-01-11 12:47:56.45	301.62	25.12	-46.9	-49.6	22.8	6.05e-01	0	43	0	704643072	64	5181
2026-01-11 12:47:59.43	302.46	24.81	-46.8	-49.5	22.8	6.05e-01	0	44	0	709885952	64	5152
2026-01-11 12:48:02.41	303.28	24.49	-47.0	-49.8	22.6	6.08e-01	0	43	0	715653120	64	5302
2026-01-11 12:48:05.38	304.08	24.17	-47.1	-49.8	22.5	6.07e-01	0	43	0	721420288	64	5338
2026-01-11 12:48:08.36	304.86	23.85	-47.1	-49.9	22.5	6.06e-01	0	44	0	726663168	65	5078
2026-01-11 12:48:11.34	305.63	23.53	-47.0	-49.7	22.6	6.06e-01	0	43	0	732430336	65	4973
2026-01-11 12:48:14.32	306.39	23.21	-47.0	-49.8	22.6	6.06e-01	0	44	0	738197504	65	4989
2026-01-11 12:48:17.29	307.12	22.88	-47.0	-49.8	22.6	6.05e-01	0	43	0	743440384	65	5002
2026-01-11 12:48:20.27	307.84	22.56	-46.8	-49.6	22.8	6.07e-01	0	43	0	749207552	65	4897
2026-01-11 12:48:23.25	308.55	22.24	-46.8	-49.6	22.7	6.07e-01	0	43	0	754450432	65	4913
2026-01-11 12:48:26.23	309.24	21.92	-46.9	-49.8	22.6	6.06e-01	0	43	0	760217600	65	4997
2026-01-11 12:48:29.21	309.92	21.60	-46.7	-49.6	22.7	6.05e-01	0	43	0	765984768	65	4910
2026-01-11 12:48:32.19	310.58	21.28	-46.6	-49.6	22.7	6.07e-01	0	44	0	771227648	65	4906
2026-01-11 12:48:35.17	311.23	20.96	-46.7	-49.6	22.7	6.07e-01	0	44	0	776994816	65	4911
2026-01-11 12:48:38.15	311.86	20.64	-46.9	-49.7	22.6	6.06e-01	0	43	0	782761984	65	4950
2026-01-11 12:48:41.12	312.48	20.32	-46.6	-49.4	22.9	6.05e-01	0	44	0	788004864	65	4779
2026-01-11 12:48:44.10	313.09	20.00	-46.7	-49.5	22.8	6.04e-01	0	43	0	793772032	65	4815
2026-01-11 12:48:47.08	313.68	19.69	-46.6	-49.4	22.8	6.08e-01	0	44	0	799539200	65	4803
2026-01-11 12:48:50.06	314.27	19.38	-46.5	-49.5	22.8	6.07e-01	0	44	0	804782080	65	4815
2026-01-11 12:48:53.04	314.84	19.06	-46.4	-49.4	22.9	6.07e-01	0	44	0	810549248	64	5070
2026-01-11 12:48:56.02	315.40	18.75	-46.7	-49.5	22.8	6.07e-01	0	44	0	816316416	64	5106
2026-01-11 12:48:59.00	315.94	18.45	-46.7	-49.4	22.9	6.08e-01	0	43	0	821559296	64	5052
2026-01-11 12:49:01.97	316.48	18.14	-46.7	-49.5	22.8	6.06e-01	0	44	0	827326464	64	5131
2026-01-11 12:49:04.95	317.00	17.84	-46.7	-49.5	22.7	6.09e-01	0	44	0	833093632	64	5142
2026-01-11 12:49:07.93	317.52	17.53	-46.5	-49.5	22.8	6.06e-01	0	44	0	838336512	64	5118
2026-01-11 12:49:10.91	318.02	17.23	-46.4	-49.4	22.8	6.08e-01	0	44	0	844103680	64	5054
2026-01-11 12:49:13.89	318.51	16.94	-46.3	-49.3	22.9	6.06e-01	0	44	0	849870848	64	5026
2026-01-11 12:49:16.87	319.00	16.64	-46.3	-49.4	22.8	6.08e-01	0	43	0	855113728	64	5095
2026-01-11 12:49:19.84	319.47	16.35	-46.4	-49.5	22.7	6.06e-01	0	44	0	860880896	64	5108
2026-01-11 12:49:22.82	319.93	16.06	-46.5	-49.5	22.7	6.06e-01	0	44	0	866648064	64	5117
2026-01-11 12:49:25.80	320.39	15.77	-46.6	-49.5	22.8	6.06e-01	0	44	0	871890944	64	5109
2026-01-11 12:49:28.78	320.84	15.48	-46.7	-49.5	22.7	6.08e-01	0	43	0	877658112	64	5144
2026-01-11 12:49:31.76	321.27	15.19	-46.5	-49.5	22.7	6.06e-01	0	43	0	882900992	64	5149
2026-01-11 12:49:34.74	321.70	14.91	-46.5	-49.5	22.7	6.07e-01	0	43	0	888668160	64	5157
2026-01-11 12:49:37.72	322.12	14.63	-46.8	-49.7	22.5	6.05e-01	0	44	0	894435328	64	5272
2026-01-11 12:49:40.70	322.54	14.35	-47.0	-49.8	22.4	6.09e-01	0	44	0	899678208	64	5303
2026-01-11 12:49:43.68	322.94	14.08	-46.9	-49.8	22.4	6.07e-01	0	43	0	905445376	64	5283
2026-01-11 12:49:46.65	323.34	13.80	-46.8	-49.7	22.5	6.07e-01	0	44	0	911212544	64	5221
2026-01-11 12:49:49.63	323.72	13.53	-46.5	-49.6	22.6	6.07e-01	0	44	0	916455424	64	5177
2026-01-11 12:49:52.61	324.11	13.26	-46.4	-50.0	22.2	6.03e-01	0	44	0	922222592	64	5424
2026-01-11 12:49:55.59	324.48	13.00	-46.3	-50.0	22.2	6.00e-01	0	44	0	927989760	64	5444
2026-01-11 12:49:58.57	324.85	12.73	-46.3	-50.1	22.1	6.00e-01	0	43	0	933232640	64	5474
2026-01-11 12:50:01.55	325.21	12.47	-46.3	-50.0	22.1	6.03e-01	0	44	0	938999808	64	5455
2026-01-11 12:50:04.53	325.57	12.21	-46.6	-50.1	22.1	6.02e-01	0	44	0	944766976	64	5480
2026-01-11 12:50:07.51	325.91	11.95	-46.9	-50.1	22.1	6.04e-01	0	44	0	950009856	64	5483
2026-01-11 12:50:10.49	326.26	11.69	-46.9	-50.1	22.1	6.02e-01	0	44	0	955777024	64	5473
2026-01-11 12:50:13.46	326.59	11.44	-46.9	-50.2	21.9	6.03e-01	0	44	0	961544192	64	5562
2026-01-11 12:50:16.44	326.92	11.19	-47.1	-50.3	21.9	6.03e-01	0	44	0	966787072	64	5603
2026-01-11 12:50:19.42	327.24	10.94	-47.4	-50.4	21.7	6.02e-01	0	44	0	972554240	65	5389
2026-01-11 12:50:22.40	327.56	10.69	-47.1	-50.5	21.7	5.98e-01	0	44	0	978321408	65	5414
2026-01-11 12:50:25.38	327.88	10.45	-47.0	-50.6	21.5	6.00e-01	0	44	0	983564288	65	5467
2026-01-11 12:50:28.36	328.18	10.20	-47.0	-50.6	21.5	6.00e-01	0	44	0	989331456	65	5491
2026-01-11 12:50:31.34	328.49	9.96	-47.3	-50.7	21.4	6.02e-01	0	44	0	995098624	65	5552
2026-01-11 12:50:34.32	328.78	9.72	-47.5	-50.8	21.3	6.03e-01	0	43	0	1000341504	65	5637
2026-01-11 12:50:37.30	329.08	9.48	-47.4	-50.8	21.3	6.01e-01	0	44	0	1006108672	65	5598
2026-01-11 12:50:40.27	329.36	9.25	-47.4	-51.0	21.2	6.00e-01	0	44	0	1011875840	65	5749
2026-01-11 12:50:43.25	329.65	9.02	-47.1	-51.0	21.0	6.00e-01	0	44	0	1017118720	65	5761
2026-01-11 12:50:46.23	329.92	8.78	-53.0	-73.8	3.9	7.47e-01	0	44	104	1018691584	76	42162
2026-01-11 12:50:49.21	330.20	8.55	-53.0	-74.1	3.8	7.46e-01	0	44	104	1018691584	76	43516
2026-01-11 12:50:52.19	330.47	8.33	-53.9	-74.2	3.8	7.45e-01	0	44	104	1018691584	78	39274
2026-01-11 12:50:55.17	330.73	8.10	-53.2	-74.2	3.8	7.46e-01	0	43	104	1018691584	78	39565
2026-01-11 12:50:58.15	330.99	7.87	-54.0	-74.3	3.8	7.47e-01	0	44	104	1018691584	78	39657
2026-01-11 12:51:01.13	331.25	7.65	-54.1	-74.2	3.8	7.47e-01	0	44	104	1018691584	79	37344
2026-01-11 12:51:04.10	331.50	7.43	-53.7	-74.2	3.8	7.44e-01	0	44	104	1018691584	79	37254
2026-01-11 12:51:07.09	331.75	7.21	-53.6	-74.2	3.8	7.47e-01	0	44	104	1018691584	78	39465
2026-01-11 12:51:10.06	331.99	6.99	-53.6	-74.2	3.8	7.46e-01	0	44	104	1018691584	78	39374
2026-01-11 12:51:13.04	332.24	6.78	-53.6	-74.2	3.8	7.45e-01	0	44	104	1018691584	78	39299
2026-01-11 12:51:16.02	332.47	6.56	-53.6	-74.2	3.8	7.46e-01	0	44	104	1018691584	78	39405
2026-01-11 12:51:19.00	332.71	6.35	-53.6	-74.2	3.8	7.46e-01	0	44	104	1018691584	78	39253
2026-01-11 12:51:21.98	332.94	6.14	-53.6	-74.2	3.8	7.45e-01	0	44	104	1018691584	78	39279
2026-01-11 12:51:24.96	333.17	5.93	-53.6	-74.1	3.8	7.45e-01	0	44	104	1018691584	78	39135
2026-01-11 12:51:27.94	333.39	5.72	-53.6	-74.2	3.8	7.45e-01	0	44	104	1018691584	78	39192
2026-01-11 12:51:30.92	333.61	5.52	-53.6	-74.2	3.8	7.45e-01	0	44	104	1018691584	78	39224
2026-01-11 12:51:33.90	333.83	5.31	-53.6	-74.2	3.8	7.46e-01	0	44	104	1018691584	78	39174
2026-01-11 12:51:36.88	334.04	5.11	-53.6	-74.2	3.8	7.46e-01	0	44	104	1018691584	78	39182

#Closed at: 2026-01-11 12:51:39
#Recorded file [1018 MB]: D:/Data/31040_260111_154102.dat