passes_logs/2026/01/11/T1/T1__20260111_132628_FENGYUN_3E_rec.log

#Pass ID: 20260111_132628_FENGYUN 3E
#Satellite: FENGYUN 3E
#Configuration: FENGYUN 3E
#almurnet v.1.7.20251203
#Start time: 2026-01-11 13:26:30

#Version: 2.0.20230620
#Station: T1
#Location: 37.570604 lon 55.790049 lat
#TLE: 1 49008U 21062A   26010.98903141  .00000148  00000+0  90257-4 0  9995
#TLE: 2 49008  98.7490  16.1644 0001865 146.3673 213.7622 14.19884943234274

#Time	Az	El	Level	Level2	SNR	BER	BlckErr	Temp	State	Recorded	gain1	gain2
2026-01-11 13:26:30.71	136.17	5.15	-52.2	-62.9	3.8	8.46e-01	0	41	0	0	75	11850
2026-01-11 13:26:33.69	136.05	5.36	-52.2	-62.8	3.8	8.46e-01	0	42	104	0	75	11685
2026-01-11 13:26:36.68	135.92	5.57	-52.1	-62.3	3.8	8.46e-01	0	42	104	0	75	11099
2026-01-11 13:26:39.66	135.80	5.78	-52.0	-61.4	3.8	8.46e-01	0	42	104	0	74	10647
2026-01-11 13:26:42.65	135.68	6.00	-51.8	-60.5	3.8	8.44e-01	0	42	104	0	74	9587
2026-01-11 13:26:45.63	135.55	6.21	-51.7	-59.7	4.1	8.41e-01	0	42	0	0	74	8675
2026-01-11 13:26:48.62	135.42	6.43	-51.7	-60.0	4.1	8.42e-01	0	42	0	0	74	8983
2026-01-11 13:26:51.60	135.29	6.65	-51.9	-61.1	3.8	8.47e-01	0	43	104	0	74	10218
2026-01-11 13:26:54.58	135.15	6.87	-52.1	-62.3	3.8	8.47e-01	0	42	104	0	74	11793
2026-01-11 13:26:57.56	135.02	7.09	-52.0	-61.5	3.8	8.47e-01	0	43	104	0	74	10763
2026-01-11 13:27:00.55	134.88	7.31	-51.2	-57.7	4.8	7.98e-01	0	43	0	0	73	7348
2026-01-11 13:27:03.53	134.74	7.54	-49.1	-52.6	9.1	3.42e-02	0	43	0	15728640	69	5103
2026-01-11 13:27:06.51	134.60	7.76	-46.2	-48.4	13.3	6.63e-05	0	43	0	36700160	63	4471
2026-01-11 13:27:09.49	134.45	7.99	-44.1	-45.8	15.6	0.00e+00	0	43	0	58720256	59	4188
2026-01-11 13:27:12.48	134.31	8.22	-43.7	-45.4	16.1	0.00e+00	0	43	0	79691776	57	4449
2026-01-11 13:27:15.46	134.16	8.46	-44.8	-46.7	14.8	0.00e+00	0	43	0	101711872	59	4634
2026-01-11 13:27:18.45	134.00	8.69	-47.4	-50.1	11.5	3.79e-04	0	43	0	122683392	64	5145
2026-01-11 13:27:21.43	133.85	8.93	-51.2	-57.5	4.9	7.36e-01	0	43	0	142606336	71	8020
2026-01-11 13:27:24.42	133.69	9.17	-46.7	-49.1	12.7	4.69e-05	0	43	0	147849216	63	4846
2026-01-11 13:27:27.43	133.53	9.41	-47.5	-50.1	11.6	6.38e-04	0	43	0	158334976	65	4829
2026-01-11 13:27:30.43	133.37	9.66	-46.3	-48.4	13.4	3.54e-05	0	43	0	180355072	63	4485
2026-01-11 13:27:33.43	133.20	9.90	-45.7	-47.8	14.1	3.40e-06	0	44	0	201326592	62	4398
2026-01-11 13:27:36.43	133.03	10.15	-44.2	-46.0	15.7	0.00e+00	0	43	0	223346688	59	4254
2026-01-11 13:27:39.43	132.86	10.40	-43.5	-45.1	16.5	0.00e+00	0	43	0	245366784	57	4329
2026-01-11 13:27:42.43	132.68	10.66	-43.2	-44.8	16.8	0.00e+00	0	44	0	266338304	57	4165
2026-01-11 13:27:45.43	132.50	10.91	-42.9	-44.4	17.2	0.00e+00	0	43	0	288358400	56	4237
2026-01-11 13:27:48.43	132.32	11.17	-42.7	-44.2	17.4	0.00e+00	0	43	0	309329920	56	4116
2026-01-11 13:27:51.44	132.13	11.43	-42.2	-43.6	17.9	0.00e+00	0	44	0	331350016	55	4085
2026-01-11 13:27:54.44	131.94	11.70	-42.2	-43.7	17.8	0.00e+00	0	44	0	353370112	54	4360
2026-01-11 13:27:57.44	131.75	11.96	-42.1	-43.6	17.9	0.00e+00	0	44	0	374341632	54	4310
2026-01-11 13:28:00.44	131.56	12.23	-41.9	-43.4	18.1	0.00e+00	0	44	0	396361728	54	4201
2026-01-11 13:28:03.43	131.36	12.50	-42.1	-43.5	18.0	0.00e+00	0	44	0	418381824	54	4282
2026-01-11 13:28:06.44	131.15	12.78	-41.9	-43.3	18.2	0.00e+00	0	44	0	439353344	54	4191
2026-01-11 13:28:09.45	130.94	13.06	-41.7	-43.2	18.3	0.00e+00	0	44	0	461373440	54	4122
2026-01-11 13:28:12.45	130.73	13.33	-41.9	-43.4	18.2	0.00e+00	0	44	0	483393536	54	4211
2026-01-11 13:28:15.45	130.51	13.62	-41.8	-43.3	18.2	0.00e+00	0	44	0	504365056	54	4159
2026-01-11 13:28:18.45	130.29	13.90	-41.8	-43.2	18.3	0.00e+00	0	44	0	526385152	54	4136
2026-01-11 13:28:21.46	130.07	14.19	-41.6	-43.1	18.4	0.00e+00	0	44	0	548405248	53	4317
2026-01-11 13:28:24.46	129.84	14.48	-41.5	-43.0	18.5	0.00e+00	0	44	0	570425344	53	4248
2026-01-11 13:28:27.47	129.60	14.78	-41.5	-43.0	18.5	0.00e+00	0	44	0	591396864	53	4246
2026-01-11 13:28:30.47	129.36	15.08	-41.3	-42.8	18.7	0.00e+00	0	44	0	613416960	53	4152
2026-01-11 13:28:33.47	129.12	15.38	-41.1	-42.5	18.9	0.00e+00	0	44	0	635437056	52	4286
2026-01-11 13:28:36.47	128.87	15.68	-41.0	-42.4	19.0	0.00e+00	0	44	0	656408576	52	4231
2026-01-11 13:28:39.47	128.61	15.99	-41.1	-42.5	18.9	0.00e+00	0	44	0	678428672	52	4267
2026-01-11 13:28:42.47	128.35	16.30	-41.1	-42.5	18.9	0.00e+00	0	44	0	700448768	52	4265
2026-01-11 13:28:45.47	128.09	16.61	-41.0	-42.4	19.0	0.00e+00	0	44	0	721420288	52	4230
2026-01-11 13:28:48.47	127.82	16.93	-40.9	-42.3	19.1	0.00e+00	0	44	0	743440384	52	4179
2026-01-11 13:28:51.48	127.54	17.25	-40.8	-42.3	19.1	0.00e+00	0	44	0	765460480	52	4158
2026-01-11 13:28:54.48	127.25	17.57	-40.8	-42.2	19.2	0.00e+00	0	44	0	786432000	52	4128
2026-01-11 13:28:57.49	126.96	17.90	-40.9	-42.3	19.2	0.00e+00	0	44	0	808452096	51	4408
2026-01-11 13:29:00.50	126.66	18.23	-40.9	-42.3	19.2	0.00e+00	0	44	0	829423616	51	4415
2026-01-11 13:29:03.50	126.36	18.57	-40.4	-41.7	19.7	0.00e+00	0	44	0	851443712	51	4144
2026-01-11 13:29:06.50	126.05	18.91	-40.4	-41.7	19.7	0.00e+00	0	44	0	873463808	50	4382
2026-01-11 13:29:09.50	125.73	19.25	-40.4	-41.8	19.7	0.00e+00	0	44	0	894435328	50	4394
2026-01-11 13:29:12.51	125.41	19.60	-40.4	-41.8	19.7	0.00e+00	0	44	0	916455424	50	4425
2026-01-11 13:29:15.51	125.07	19.95	-40.5	-41.9	19.7	0.00e+00	0	44	0	938475520	50	4447
2026-01-11 13:29:18.52	124.73	20.30	-40.4	-41.8	19.7	0.00e+00	0	44	0	960495616	50	4417
2026-01-11 13:29:21.51	124.39	20.66	-40.1	-41.4	20.0	0.00e+00	0	44	0	981467136	50	4235
2026-01-11 13:29:24.51	124.03	21.02	-40.1	-41.4	20.0	0.00e+00	0	44	0	1003487232	50	4226
2026-01-11 13:29:27.52	123.66	21.39	-39.8	-41.1	20.3	0.00e+00	0	44	0	1025507328	49	4317
2026-01-11 13:29:30.53	123.29	21.76	-39.8	-41.1	20.3	0.00e+00	0	44	0	1046478848	49	4303
2026-01-11 13:29:33.53	122.90	22.13	-39.7	-41.0	20.4	0.00e+00	0	44	0	1068498944	49	4243
2026-01-11 13:29:36.54	122.51	22.51	-39.8	-41.2	20.2	0.00e+00	0	44	0	1090519040	49	4354
2026-01-11 13:29:39.53	122.11	22.89	-40.0	-41.4	20.0	0.00e+00	0	44	0	1111490560	50	4232
2026-01-11 13:29:42.53	121.69	23.28	-39.7	-41.1	20.3	0.00e+00	0	44	0	1133510656	50	4074
2026-01-11 13:29:45.53	121.27	23.67	-40.1	-41.5	19.9	0.00e+00	0	44	0	1155530752	50	4277
2026-01-11 13:29:48.54	120.83	24.07	-40.0	-41.4	20.0	0.00e+00	0	44	0	1176502272	50	4208
2026-01-11 13:29:51.54	120.38	24.47	-40.1	-41.5	20.0	0.00e+00	0	44	0	1198522368	50	4254
2026-01-11 13:29:54.54	119.93	24.87	-40.1	-41.5	20.1	0.00e+00	0	44	0	1220542464	50	4244
2026-01-11 13:29:57.54	119.46	25.28	-39.8	-41.1	20.2	0.00e+00	0	44	0	1241513984	50	4094
2026-01-11 13:30:00.54	118.97	25.69	-39.6	-41.1	19.4	2.43e-03	0	44	0	1263534080	49	4302
2026-01-11 13:30:03.54	118.48	26.11	-39.8	-41.2	20.1	3.40e-06	0	44	0	1285554176	49	4388
2026-01-11 13:30:06.55	117.97	26.53	-39.7	-41.3	19.2	5.87e-03	0	44	0	1306525696	49	4394
2026-01-11 13:30:09.55	117.44	26.95	-39.9	-41.3	20.1	0.00e+00	0	44	0	1328545792	49	4421
2026-01-11 13:30:12.55	116.91	27.38	-39.8	-41.1	20.2	0.00e+00	0	44	0	1350565888	49	4330
2026-01-11 13:30:15.55	116.36	27.81	-39.5	-40.8	20.6	0.00e+00	0	44	0	1371537408	49	4160
2026-01-11 13:30:18.56	115.79	28.25	-39.2	-40.5	20.8	0.00e+00	0	44	0	1393557504	49	4005
2026-01-11 13:30:21.56	115.20	28.69	-39.3	-40.6	20.8	0.00e+00	0	44	0	1415577600	48	4301
2026-01-11 13:30:24.56	114.60	29.13	-39.0	-40.2	21.1	0.00e+00	0	44	0	1436549120	48	4127
2026-01-11 13:30:27.57	113.98	29.58	-38.9	-40.2	21.1	0.00e+00	0	44	0	1458569216	48	4103
2026-01-11 13:30:30.57	113.35	30.03	-38.9	-40.2	21.2	0.00e+00	0	44	0	1480589312	48	4102
2026-01-11 13:30:33.58	112.70	30.48	-39.5	-40.4	21.4	0.00e+00	0	44	0	1501560832	48	4213
2026-01-11 13:30:36.58	112.02	30.93	-39.6	-40.5	21.3	0.00e+00	0	44	0	1523580928	48	4278
2026-01-11 13:30:39.59	111.33	31.39	-39.8	-40.7	21.1	0.00e+00	0	44	0	1545601024	49	4133
2026-01-11 13:30:42.60	110.62	31.86	-39.9	-40.8	21.1	0.00e+00	0	44	0	1566572544	49	4147
2026-01-11 13:30:45.60	109.89	32.32	-40.1	-41.0	20.9	0.00e+00	0	44	0	1588592640	50	4021
2026-01-11 13:30:48.61	109.13	32.78	-40.0	-40.9	21.0	0.00e+00	0	44	0	1610612736	50	3993
2026-01-11 13:30:51.61	108.36	33.25	-40.0	-40.9	21.0	0.00e+00	0	44	0	1632632832	50	3969
2026-01-11 13:30:54.61	107.56	33.71	-39.5	-40.4	21.4	0.00e+00	0	44	0	1653604352	49	3984
2026-01-11 13:30:57.62	106.74	34.18	-39.3	-40.2	21.6	0.00e+00	0	44	0	1675624448	49	3901
2026-01-11 13:31:00.62	105.89	34.65	-39.0	-39.9	21.8	0.00e+00	0	44	0	1697644544	48	3974
2026-01-11 13:31:03.62	105.02	35.11	-39.4	-40.3	21.5	0.00e+00	0	44	0	1718616064	48	4172
2026-01-11 13:31:06.62	104.13	35.58	-39.9	-40.8	21.1	0.00e+00	0	44	0	1740636160	49	4167
2026-01-11 13:31:09.62	103.21	36.04	-39.8	-40.7	21.1	0.00e+00	0	44	0	1762656256	49	4140
2026-01-11 13:31:12.63	102.26	36.51	-40.1	-41.1	20.9	0.00e+00	0	44	0	1783627776	49	4296
2026-01-11 13:31:15.63	101.28	36.97	-40.0	-40.9	21.0	0.00e+00	0	44	0	1805647872	49	4205
2026-01-11 13:31:18.63	100.28	37.42	-40.0	-40.8	21.1	0.00e+00	0	44	0	1827667968	50	3954
2026-01-11 13:31:21.63	99.25	37.87	-39.9	-40.8	21.1	0.00e+00	0	44	0	1848639488	50	3926
2026-01-11 13:31:24.63	98.19	38.32	-40.0	-40.9	21.1	0.00e+00	0	44	0	1870659584	50	3963
2026-01-11 13:31:27.63	97.10	38.76	-39.7	-40.6	21.3	0.00e+00	0	44	0	1892679680	50	3857
2026-01-11 13:31:30.63	95.98	39.20	-39.7	-40.6	21.2	0.00e+00	0	44	0	1913651200	49	4084
2026-01-11 13:31:33.63	94.83	39.62	-40.3	-41.2	20.8	0.00e+00	0	44	0	1935671296	49	4370
2026-01-11 13:31:36.63	93.65	40.04	-40.3	-41.2	20.8	0.00e+00	0	44	0	1956642816	50	4112
2026-01-11 13:31:39.64	92.44	40.45	-39.8	-40.7	21.2	0.00e+00	0	44	0	1978662912	50	3884
2026-01-11 13:31:42.64	91.20	40.85	-39.8	-40.6	21.3	0.00e+00	0	45	0	2000683008	49	4098
2026-01-11 13:31:45.64	89.93	41.24	-39.9	-40.8	21.1	0.00e+00	0	44	0	2021654528	49	4155
2026-01-11 13:31:48.65	88.62	41.62	-40.0	-40.9	21.1	0.00e+00	0	45	0	2043674624	49	4204
2026-01-11 13:31:51.65	87.29	41.98	-40.1	-41.0	20.9	0.00e+00	0	44	0	2065694720	50	4041
2026-01-11 13:31:54.65	85.93	42.33	-39.9	-40.8	21.1	0.00e+00	0	44	0	2086666240	50	3943
2026-01-11 13:31:57.65	84.54	42.66	-39.5	-40.3	21.5	0.00e+00	0	44	0	2108686336	49	3953
2026-01-11 13:32:00.66	83.11	42.97	-39.7	-40.6	21.3	0.00e+00	0	45	0	2130706432	49	4053
2026-01-11 13:32:03.65	81.67	43.27	-39.8	-40.7	21.2	0.00e+00	0	44	0	2151677952	49	4130
2026-01-11 13:32:06.66	80.20	43.55	-39.7	-40.6	21.3	0.00e+00	0	44	0	2173698048	49	4077
2026-01-11 13:32:09.66	78.70	43.81	-40.0	-40.9	21.0	0.00e+00	0	44	0	2195718144	49	4236
2026-01-11 13:32:12.66	77.18	44.05	-40.1	-41.0	20.9	0.00e+00	0	44	0	2216689664	49	4290
2026-01-11 13:32:15.65	75.64	44.26	-39.9	-40.8	21.1	0.00e+00	0	44	0	2238709760	50	3942
2026-01-11 13:32:18.66	74.07	44.46	-39.6	-40.5	21.4	0.00e+00	0	44	0	2260729856	49	4033
2026-01-11 13:32:21.66	72.49	44.63	-39.8	-40.7	21.2	0.00e+00	0	44	0	2281701376	49	4125
2026-01-11 13:32:24.66	70.89	44.78	-39.7	-40.5	21.4	0.00e+00	0	44	0	2303721472	49	4036
2026-01-11 13:32:27.66	69.28	44.90	-39.9	-40.8	21.2	0.00e+00	0	44	0	2325741568	49	4150
2026-01-11 13:32:30.67	67.65	45.00	-39.8	-40.7	21.2	0.00e+00	0	44	0	2347761664	49	4119
2026-01-11 13:32:33.66	66.03	45.07	-39.8	-40.7	21.3	0.00e+00	0	45	0	2368733184	49	4100
2026-01-11 13:32:36.66	64.39	45.12	-40.0	-40.9	21.1	0.00e+00	0	44	0	2390753280	49	4200
2026-01-11 13:32:39.66	62.75	45.14	-40.0	-40.9	21.1	0.00e+00	0	44	0	2412773376	49	4202
2026-01-11 13:32:42.66	61.11	45.13	-39.7	-40.6	21.3	0.00e+00	0	44	0	2433744896	49	4071
2026-01-11 13:32:45.66	59.47	45.10	-39.9	-40.7	21.2	0.00e+00	0	44	0	2455764992	49	4138
2026-01-11 13:32:48.67	57.84	45.04	-39.7	-40.6	21.4	0.00e+00	0	44	0	2476736512	49	4063
2026-01-11 13:32:51.66	56.21	44.96	-40.1	-41.0	21.0	0.00e+00	0	44	0	2498756608	49	4277
2026-01-11 13:32:54.67	54.59	44.85	-39.8	-40.7	21.3	0.00e+00	0	44	0	2520776704	49	4099
2026-01-11 13:32:57.67	52.99	44.72	-40.1	-41.0	21.0	0.00e+00	0	44	0	2541748224	49	4284
2026-01-11 13:33:00.68	51.40	44.56	-40.1	-41.0	21.0	0.00e+00	0	44	0	2563768320	49	4257
2026-01-11 13:33:03.69	49.82	44.38	-39.6	-40.4	21.4	0.00e+00	0	44	0	2585788416	49	4002
2026-01-11 13:33:06.68	48.27	44.17	-39.7	-40.6	21.3	0.00e+00	0	44	0	2606759936	49	4081
2026-01-11 13:33:09.68	46.74	43.95	-39.3	-40.2	21.6	0.00e+00	0	44	0	2628780032	49	3869
2026-01-11 13:33:12.68	45.23	43.70	-39.4	-40.2	21.6	0.00e+00	0	44	0	2650800128	49	3912
2026-01-11 13:33:15.69	43.74	43.43	-39.5	-40.4	21.5	0.00e+00	0	44	0	2671771648	49	3972
2026-01-11 13:33:18.69	42.28	43.15	-39.4	-40.3	21.6	0.00e+00	0	44	0	2693791744	49	3915
2026-01-11 13:33:21.69	40.85	42.84	-39.3	-40.1	21.7	0.00e+00	0	44	0	2715811840	49	3862
2026-01-11 13:33:24.69	39.44	42.52	-39.3	-40.1	21.7	0.00e+00	0	44	0	2736783360	49	3866
2026-01-11 13:33:27.69	38.07	42.18	-39.5	-40.4	21.5	0.00e+00	0	44	0	2758803456	49	3982
2026-01-11 13:33:30.69	36.72	41.83	-39.9	-40.8	21.2	0.00e+00	0	44	0	2780823552	49	4153
2026-01-11 13:33:33.70	35.40	41.46	-39.9	-40.8	21.1	0.00e+00	0	44	0	2801795072	49	4169
2026-01-11 13:33:36.71	34.11	41.08	-40.1	-41.0	20.9	0.00e+00	0	44	0	2823815168	49	4286
2026-01-11 13:33:39.71	32.86	40.69	-39.8	-40.7	21.2	0.00e+00	0	44	0	2845835264	49	4106
2026-01-11 13:33:42.71	31.63	40.29	-39.7	-40.5	21.1	0.00e+00	0	44	0	2867855360	49	4051
2026-01-11 13:33:45.72	30.44	39.87	-39.7	-40.6	21.2	0.00e+00	0	44	0	2888826880	49	4084
2026-01-11 13:33:48.72	29.27	39.45	-39.5	-40.4	21.5	0.00e+00	0	44	0	2910846976	49	3966
2026-01-11 13:33:51.71	28.14	39.02	-39.6	-40.5	21.4	0.00e+00	0	44	0	2932867072	49	4028
2026-01-11 13:33:54.72	27.04	38.59	-39.8	-40.6	21.3	0.00e+00	0	44	0	2953838592	49	4090
2026-01-11 13:33:57.72	25.96	38.14	-39.5	-40.4	21.5	0.00e+00	0	44	0	2975858688	49	3968
2026-01-11 13:34:00.72	24.92	37.70	-39.6	-40.5	21.4	0.00e+00	0	44	0	2996830208	49	4041
2026-01-11 13:34:03.73	23.90	37.24	-39.8	-40.7	21.2	0.00e+00	0	45	0	3018850304	49	4132
2026-01-11 13:34:06.73	22.91	36.79	-40.0	-40.9	21.0	0.00e+00	0	45	0	3040870400	49	4233
2026-01-11 13:34:09.74	21.95	36.33	-39.6	-40.5	21.4	0.00e+00	0	44	0	3061841920	49	4014
2026-01-11 13:34:12.74	21.02	35.87	-39.2	-40.1	21.7	0.00e+00	0	44	0	3083862016	49	3832
2026-01-11 13:34:15.74	20.11	35.40	-39.6	-40.5	21.4	0.00e+00	0	44	0	3105882112	49	4013
2026-01-11 13:34:18.75	19.23	34.94	-39.3	-40.1	21.7	0.00e+00	0	44	0	3126853632	49	3860
2026-01-11 13:34:21.75	18.37	34.47	-39.5	-40.4	21.5	0.00e+00	0	44	0	3148873728	49	3966
2026-01-11 13:34:24.75	17.54	34.01	-39.7	-40.5	21.3	0.00e+00	0	44	0	3170893824	49	4047
2026-01-11 13:34:27.74	16.74	33.55	-39.9	-40.7	21.1	0.00e+00	0	44	0	3191865344	49	4143
2026-01-11 13:34:30.75	15.95	33.08	-39.5	-40.4	21.5	0.00e+00	0	45	0	3213885440	49	3973
2026-01-11 13:34:33.75	15.19	32.62	-39.3	-40.1	21.7	0.00e+00	0	44	0	3235905536	49	3868
2026-01-11 13:34:36.76	14.45	32.16	-39.5	-40.4	21.4	0.00e+00	0	44	0	3256877056	49	3982
2026-01-11 13:34:39.76	13.73	31.70	-40.0	-40.9	21.0	0.00e+00	0	44	0	3278897152	49	4194
2026-01-11 13:34:42.77	13.03	31.24	-40.0	-40.9	21.0	0.00e+00	0	44	0	3300917248	49	4237
2026-01-11 13:34:45.77	12.35	30.78	-39.6	-40.5	21.4	0.00e+00	0	44	0	3322937344	49	4030
2026-01-11 13:34:48.77	11.69	30.33	-39.9	-40.8	21.1	0.00e+00	0	44	0	3343908864	49	4177
2026-01-11 13:34:51.77	11.04	29.88	-39.8	-40.6	21.2	0.00e+00	0	45	0	3365928960	49	4098
2026-01-11 13:34:54.78	10.42	29.43	-39.6	-40.5	21.3	0.00e+00	0	45	0	3387949056	49	4037
2026-01-11 13:34:57.78	9.81	28.99	-39.7	-40.6	21.2	0.00e+00	0	44	0	3408920576	49	4074
2026-01-11 13:35:00.79	9.22	28.55	-39.7	-40.6	21.3	0.00e+00	0	44	0	3430940672	49	4071
2026-01-11 13:35:03.79	8.65	28.12	-39.9	-40.8	21.1	0.00e+00	0	45	0	3452960768	49	4186
2026-01-11 13:35:06.79	8.09	27.68	-40.1	-41.0	20.9	0.00e+00	0	44	0	3473932288	49	4256
2026-01-11 13:35:09.80	7.54	27.25	-40.0	-40.9	21.0	0.00e+00	0	44	0	3495952384	49	4202
2026-01-11 13:35:12.80	7.01	26.83	-40.1	-41.0	20.9	0.00e+00	0	44	0	3516923904	49	4272
2026-01-11 13:35:15.80	6.50	26.41	-40.2	-41.1	20.8	0.00e+00	0	44	0	3538944000	49	4337
2026-01-11 13:35:18.80	6.00	25.99	-40.1	-41.0	20.9	0.00e+00	0	45	0	3560964096	49	4256
2026-01-11 13:35:21.80	5.51	25.58	-40.0	-40.9	21.0	0.00e+00	0	44	0	3581935616	49	4215
2026-01-11 13:35:24.80	5.04	25.17	-40.0	-40.8	21.0	0.00e+00	0	44	0	3603955712	49	4191
2026-01-11 13:35:27.81	4.57	24.77	-39.8	-40.7	21.2	0.00e+00	0	44	0	3625975808	49	4113
2026-01-11 13:35:30.81	4.12	24.37	-39.7	-40.6	21.2	0.00e+00	0	44	0	3647995904	49	4070
2026-01-11 13:35:33.82	3.68	23.97	-39.8	-40.7	21.1	0.00e+00	0	45	0	3668967424	49	4119
2026-01-11 13:35:36.82	3.25	23.58	-40.0	-40.9	21.0	0.00e+00	0	45	0	3690987520	49	4223
2026-01-11 13:35:39.82	2.84	23.19	-40.3	-41.3	20.7	0.00e+00	0	45	0	3713007616	49	4392
2026-01-11 13:35:42.82	2.43	22.81	-40.3	-41.2	20.7	0.00e+00	0	44	0	3733979136	50	4140
2026-01-11 13:35:45.82	2.03	22.43	-40.3	-41.2	20.7	0.00e+00	0	44	0	3755999232	50	4127
2026-01-11 13:35:48.83	1.64	22.05	-40.4	-41.3	20.6	0.00e+00	0	45	0	3778019328	50	4163
2026-01-11 13:35:51.83	1.27	21.68	-40.4	-41.3	20.6	0.00e+00	0	44	0	3798990848	50	4181
2026-01-11 13:35:54.83	0.90	21.31	-40.4	-41.4	20.6	0.00e+00	0	44	0	3821010944	50	4198
2026-01-11 13:35:57.84	0.54	20.95	-40.6	-41.6	20.4	0.00e+00	0	44	0	3843031040	50	4299
2026-01-11 13:36:00.84	0.19	20.59	-40.7	-41.7	20.3	0.00e+00	0	44	0	3864002560	50	4349
2026-01-11 13:36:03.84	359.84	20.23	-41.0	-42.0	20.0	0.00e+00	0	44	0	3886022656	51	4259
2026-01-11 13:36:06.84	359.51	19.88	-41.1	-42.1	19.8	0.00e+00	0	44	0	3908042752	51	4328
2026-01-11 13:36:09.84	359.18	19.54	-41.0	-42.0	20.0	0.00e+00	0	44	0	3929014272	51	4271
2026-01-11 13:36:12.84	358.86	19.19	-40.9	-41.9	20.0	0.00e+00	0	44	0	3951034368	51	4224
2026-01-11 13:36:15.84	358.55	18.85	-40.8	-41.8	20.1	0.00e+00	0	44	0	3973054464	51	4191
2026-01-11 13:36:18.84	358.25	18.52	-40.9	-42.0	20.0	0.00e+00	0	44	0	3994025984	51	4243
2026-01-11 13:36:21.85	357.95	18.18	-41.2	-42.3	19.7	0.00e+00	0	44	0	4016046080	51	4399
2026-01-11 13:36:24.85	357.66	17.86	-41.4	-42.5	19.4	0.00e+00	0	44	0	4037017600	52	4253
2026-01-11 13:36:27.86	357.37	17.53	-41.5	-42.6	19.3	0.00e+00	0	44	0	4059037696	52	4304
2026-01-11 13:36:30.86	357.09	17.21	-41.6	-42.6	19.3	0.00e+00	0	44	0	4081057792	52	4335
2026-01-11 13:36:33.86	356.82	16.89	-41.6	-42.7	19.2	0.00e+00	0	44	0	4102029312	52	4348
2026-01-11 13:36:36.86	356.55	16.58	-41.5	-42.5	19.3	0.00e+00	0	44	0	4124049408	52	4289
2026-01-11 13:36:39.86	356.29	16.26	-41.5	-42.7	19.2	0.00e+00	0	44	0	4146069504	52	4347
2026-01-11 13:36:42.86	356.04	15.96	-41.7	-42.8	19.1	0.00e+00	0	44	0	4167041024	52	4423
2026-01-11 13:36:45.87	355.79	15.65	-41.8	-42.9	19.0	0.00e+00	0	44	0	4189061120	53	4238
2026-01-11 13:36:48.87	355.54	15.35	-41.8	-42.9	19.0	0.00e+00	0	44	0	4211081216	53	4225
2026-01-11 13:36:51.87	355.30	15.05	-41.7	-42.8	18.9	0.00e+00	0	44	0	4233101312	53	4168
2026-01-11 13:36:54.87	355.07	14.76	-41.8	-42.9	18.6	0.00e+00	0	44	0	4254072832	53	4237
2026-01-11 13:36:57.88	354.84	14.46	-41.9	-43.0	18.7	0.00e+00	0	44	0	4276092928	53	4276
2026-01-11 13:37:00.88	354.61	14.17	-42.1	-43.2	18.7	0.00e+00	0	44	0	4298113024	53	4341
2026-01-11 13:37:03.89	354.39	13.89	-42.2	-43.4	18.3	0.00e+00	0	44	0	4319084544	53	4456
2026-01-11 13:37:06.89	354.17	13.60	-42.4	-43.6	18.2	0.00e+00	0	44	0	4341104640	54	4305
2026-01-11 13:37:09.89	353.96	13.32	-42.4	-43.7	17.9	0.00e+00	0	44	0	4363124736	54	4361
2026-01-11 13:37:12.89	353.75	13.05	-42.4	-43.8	17.3	1.10e-06	0	44	0	4384096256	54	4411
2026-01-11 13:37:15.88	353.55	12.77	-42.6	-44.1	17.3	0.00e+00	0	44	0	4406116352	54	4549
2026-01-11 13:37:18.88	353.35	12.50	-42.4	-44.0	17.0	0.00e+00	0	45	0	4428136448	54	4545
2026-01-11 13:37:21.88	353.16	12.23	-42.4	-44.2	16.2	4.11e-05	0	44	0	4449107968	54	4620
2026-01-11 13:37:24.89	352.96	11.96	-42.5	-44.3	15.5	1.79e-03	0	44	0	4471128064	54	4655
2026-01-11 13:37:27.89	352.77	11.70	-42.8	-44.3	15.6	1.22e-03	0	44	0	4493148160	55	4392
2026-01-11 13:37:30.89	352.59	11.44	-43.0	-44.4	17.5	0.00e+00	0	44	0	4514119680	55	4445
2026-01-11 13:37:33.89	352.41	11.18	-43.0	-44.4	17.5	0.00e+00	0	44	0	4536139776	55	4483
2026-01-11 13:37:36.90	352.23	10.92	-42.9	-44.5	17.4	0.00e+00	0	44	0	4557111296	55	4522
2026-01-11 13:37:39.89	352.05	10.67	-42.9	-44.5	16.9	1.10e-06	0	44	0	4579131392	55	4532
2026-01-11 13:37:42.90	351.88	10.41	-43.1	-44.6	16.6	3.40e-06	0	44	0	4601151488	55	4577
2026-01-11 13:37:45.90	351.71	10.16	-43.5	-44.8	16.9	0.00e+00	0	44	0	4622123008	56	4441
2026-01-11 13:37:48.89	351.55	9.92	-43.5	-44.9	17.1	0.00e+00	0	44	0	4644143104	56	4470
2026-01-11 13:37:51.89	351.39	9.67	-43.4	-45.0	16.9	0.00e+00	0	44	0	4666163200	56	4522
2026-01-11 13:37:54.89	351.23	9.43	-43.4	-45.1	16.9	0.00e+00	0	44	0	4687134720	56	4568
2026-01-11 13:37:57.89	351.07	9.19	-43.4	-45.0	17.0	0.00e+00	0	44	0	4709154816	56	4538
2026-01-11 13:38:00.89	350.92	8.95	-50.6	-56.3	6.4	1.54e-02	0	44	0	4731174912	70	7402
2026-01-11 13:38:03.88	350.76	8.71	-51.5	-63.6	3.8	8.47e-01	0	44	104	4731174912	73	14402
2026-01-11 13:38:06.85	350.62	8.48	-52.6	-63.8	3.8	8.47e-01	0	44	104	4731174912	74	13889
2026-01-11 13:38:09.84	350.47	8.25	-52.8	-63.8	3.8	8.48e-01	0	44	104	4731174912	75	13208
2026-01-11 13:38:12.82	350.33	8.02	-52.7	-63.9	3.8	8.46e-01	0	44	104	4731174912	75	13266
2026-01-11 13:38:15.80	350.19	7.79	-53.0	-63.9	3.8	8.47e-01	0	44	104	4731174912	75	13339
2026-01-11 13:38:18.79	350.05	7.57	-53.1	-63.9	3.8	8.46e-01	0	44	104	4731174912	75	13342
2026-01-11 13:38:21.77	349.91	7.34	-53.1	-63.8	3.8	8.46e-01	0	44	104	4731174912	75	13235
2026-01-11 13:38:24.75	349.78	7.12	-53.0	-63.9	3.8	8.47e-01	0	44	104	4731174912	75	13302
2026-01-11 13:38:27.73	349.65	6.90	-53.1	-63.9	3.8	8.46e-01	0	44	104	4731174912	75	13315
2026-01-11 13:38:30.72	349.52	6.68	-53.0	-63.8	3.8	8.47e-01	0	44	104	4731174912	75	13220
2026-01-11 13:38:33.70	349.39	6.46	-52.9	-63.8	3.8	8.46e-01	0	44	104	4731174912	75	13216
2026-01-11 13:38:36.69	349.27	6.25	-52.9	-63.8	3.8	8.46e-01	0	44	104	4731174912	75	13236
2026-01-11 13:38:39.67	349.14	6.03	-52.9	-63.8	3.8	8.46e-01	0	44	104	4731174912	75	13177
2026-01-11 13:38:42.65	349.02	5.82	-52.9	-63.8	3.8	8.49e-01	0	44	104	4731174912	75	13225
2026-01-11 13:38:45.63	348.90	5.61	-52.9	-63.8	3.8	8.48e-01	0	44	104	4731174912	75	13225
2026-01-11 13:38:48.62	348.79	5.40	-52.9	-63.8	3.8	8.46e-01	0	44	104	4731174912	75	13210
2026-01-11 13:38:51.60	348.67	5.19	-52.9	-63.9	3.8	8.46e-01	0	44	104	4731174912	75	13266
2026-01-11 13:38:54.58	348.56	4.99	-52.9	-63.8	3.8	8.47e-01	0	44	104	4731174912	75	13232

#Closed at: 2026-01-11 13:38:55
#Recorded file [4731 MB]: D:/Data/31040_260111_162630.dat