passes_logs/2026/01/11/PlanumMoscow/PlanumMoscow__20260111_075937_METOP-C_rec.log

#Pass ID: 20260111_075937_METOP-C
#Satellite: METOP-C
#Configuration: METOP-C
#Start time: 2026-01-11 07:59:42.877374

#LorettStation: 1.0.0 05.05.2024
#Station: PlanumMoscow
#Location: 37.6253844 lon 55.6713361 lat
#TLE: 1 43689U 18087A   25293.88981035  .00000265  00000+0  14109-3 0  9997
#TLE: 2 43689  98.7006 352.4487 0002041 122.1097 238.0279 14.21482740360838

#Time	Az	El	Level	SNR
2026-01-11 08:03:21.300635	9.6	29.1	-61.2	0.0
2026-01-11 08:03:23.546646	9.4	29.6	-64.5	0.0
2026-01-11 08:03:25.790688	9.3	30.0	-63.0	0.0
2026-01-11 08:03:28.035195	9.2	30.4	-64.5	0.0
2026-01-11 08:03:30.279214	9.0	30.8	-63.9	0.0
2026-01-11 08:03:32.522770	8.9	31.3	-65.2	2.1
2026-01-11 08:03:34.767284	8.7	31.7	-64.9	1.5
2026-01-11 08:03:37.011295	8.6	32.2	-63.5	0.0
2026-01-11 08:03:39.254859	8.4	32.6	-60.9	0.0
2026-01-11 08:03:41.497887	8.2	33.1	-61.6	0.0
2026-01-11 08:03:43.741435	8.1	33.6	-63.6	0.0
2026-01-11 08:03:45.985951	7.9	34.0	-61.8	0.0
2026-01-11 08:03:48.230495	7.7	34.5	-61.8	0.0
2026-01-11 08:03:50.476515	7.5	35.0	-62.7	0.0
2026-01-11 08:03:52.721062	7.3	35.5	-64.4	0.0
2026-01-11 08:03:54.964584	7.1	36.0	-64.0	0.0
2026-01-11 08:03:57.209091	6.9	36.5	-63.8	0.0
2026-01-11 08:03:59.452150	6.7	37.1	-65.3	0.0
2026-01-11 08:04:01.696169	6.5	37.6	-64.4	0.0
2026-01-11 08:04:03.940211	6.3	38.1	-65.2	0.0
2026-01-11 08:04:06.184717	6.0	38.7	-64.3	0.0
2026-01-11 08:04:08.428271	5.8	39.2	-64.2	0.0
2026-01-11 08:04:10.672786	5.5	39.8	-62.8	0.0
2026-01-11 08:04:12.917293	5.3	40.4	-64.1	0.0
2026-01-11 08:04:15.161342	5.0	41.0	-64.2	0.0
2026-01-11 08:04:17.405354	4.7	41.6	-64.5	0.0
2026-01-11 08:04:19.649900	4.4	42.2	-62.2	0.0
2026-01-11 08:04:21.894415	4.1	42.8	-65.2	0.0
2026-01-11 08:04:24.136969	3.8	43.4	-64.7	0.0
2026-01-11 08:04:26.381012	3.5	44.0	-65.8	0.0
2026-01-11 08:04:28.627519	3.1	44.7	-64.7	0.0
2026-01-11 08:04:30.872026	2.8	45.3	-66.3	0.0
2026-01-11 08:04:33.116038	2.4	46.0	-66.6	0.0
2026-01-11 08:04:35.359583	2.0	46.6	-65.6	0.0
2026-01-11 08:04:37.604098	1.6	47.3	-64.4	0.0
2026-01-11 08:04:39.848644	1.2	48.0	-66.0	0.0
2026-01-11 08:04:42.092167	0.8	48.7	-65.5	0.0
2026-01-11 08:04:44.337209	0.3	49.4	-67.1	0.0
2026-01-11 08:04:46.581228	359.8	50.1	-67.3	0.0
2026-01-11 08:04:48.824767	359.3	50.8	-67.6	0.0
2026-01-11 08:04:51.068796	358.8	51.5	-67.9	0.0
2026-01-11 08:04:53.312807	358.2	52.3	-68.2	0.0
2026-01-11 08:04:55.556849	357.6	53.0	-68.1	0.0
2026-01-11 08:04:57.801365	357.0	53.8	-68.2	0.0
2026-01-11 08:05:00.045436	356.3	54.5	-68.7	0.0
2026-01-11 08:05:02.289942	355.6	55.3	-68.9	0.0
2026-01-11 08:05:04.533486	354.9	56.1	-68.8	0.0
2026-01-11 08:05:06.778002	354.1	56.9	-69.1	0.0
2026-01-11 08:05:09.021557	353.3	57.7	-69.4	0.0
2026-01-11 08:05:11.266064	352.4	58.4	-69.8	0.0
2026-01-11 08:05:13.510580	351.5	59.2	-69.6	0.0
2026-01-11 08:05:15.754629	350.5	60.0	-69.4	0.0
2026-01-11 08:05:17.999145	349.4	60.8	-68.5	0.0
2026-01-11 08:05:20.243691	348.3	61.6	-68.8	0.0
2026-01-11 08:05:22.487710	347.1	62.5	-69.0	0.0
2026-01-11 08:05:24.730265	345.8	63.3	-69.6	0.0
2026-01-11 08:05:26.974780	344.5	64.0	-69.2	0.0
2026-01-11 08:05:29.218823	343.0	64.8	-69.2	0.0
2026-01-11 08:05:31.462834	341.4	65.6	-69.7	0.0
2026-01-11 08:05:33.706854	339.7	66.4	-69.8	0.0
2026-01-11 08:05:35.950897	337.9	67.2	-69.8	0.0
2026-01-11 08:05:38.195412	336.0	67.9	-69.7	0.0
2026-01-11 08:05:40.439957	333.9	68.6	-70.3	0.0
2026-01-11 08:05:42.684472	331.6	69.3	-69.4	0.0
2026-01-11 08:05:44.928979	329.2	70.0	-70.2	0.0
2026-01-11 08:05:47.173029	326.6	70.6	-69.9	0.0
2026-01-11 08:05:49.417545	323.8	71.2	-69.5	0.0
2026-01-11 08:05:51.664108	320.8	71.8	-69.2	0.0
2026-01-11 08:05:53.907667	317.6	72.3	-69.3	0.0
2026-01-11 08:05:56.152174	314.3	72.8	-69.6	0.0
2026-01-11 08:05:58.396680	310.7	73.2	-69.0	1.1
2026-01-11 08:06:00.640227	307.0	73.5	-69.2	0.4
2026-01-11 08:06:02.884734	303.1	73.8	-69.9	3.5
2026-01-11 08:06:05.114703	299.2	74.0	-69.5	2.1
2026-01-11 08:06:07.359217	295.1	74.1	-69.3	2.0
2026-01-11 08:06:09.607229	290.9	74.2	-69.7	0.0
2026-01-11 08:06:11.851776	286.8	74.2	-70.2	0.0
2026-01-11 08:06:14.095796	282.7	74.0	-69.8	0.0
2026-01-11 08:06:16.339335	278.7	73.9	-70.1	0.0
2026-01-11 08:06:18.583354	274.8	73.6	-69.6	0.0
2026-01-11 08:06:20.827395	271.1	73.3	-70.2	0.4
2026-01-11 08:06:23.071413	267.5	72.9	-70.2	0.0
2026-01-11 08:06:25.316969	264.1	72.4	-69.9	0.0
2026-01-11 08:06:27.560989	260.8	71.9	-70.0	0.3
2026-01-11 08:06:29.805040	257.8	71.4	-69.9	0.8
2026-01-11 08:06:32.049090	255.0	70.8	-69.5	0.0
2026-01-11 08:06:34.292605	252.3	70.1	-70.3	0.0
2026-01-11 08:06:36.537151	249.9	69.4	-70.1	0.0
2026-01-11 08:06:38.781657	247.6	68.8	-69.8	0.5
2026-01-11 08:06:41.025204	245.5	68.0	-70.3	1.3
2026-01-11 08:06:43.270224	243.5	67.3	-69.9	0.0
2026-01-11 08:06:45.514731	241.6	66.5	-68.4	0.0
2026-01-11 08:06:47.759238	239.9	65.8	-69.5	0.0
2026-01-11 08:06:50.003249	238.3	65.0	-68.5	0.0
2026-01-11 08:06:52.250260	236.8	64.2	-69.4	0.0
2026-01-11 08:06:54.495302	235.4	63.4	-68.6	0.0
2026-01-11 08:06:56.739818	234.1	62.6	-68.3	0.0
2026-01-11 08:06:58.982870	232.9	61.8	-68.5	0.0
2026-01-11 08:07:01.227377	231.8	61.0	-68.5	0.0
2026-01-11 08:07:03.470481	230.7	60.2	-67.9	0.0
2026-01-11 08:07:05.714524	229.7	59.4	-67.6	0.0
2026-01-11 08:07:07.958544	228.8	58.6	-68.3	0.0
2026-01-11 08:07:10.203051	227.9	57.8	-67.5	0.0
2026-01-11 08:07:12.446600	227.0	57.0	-68.8	0.0
2026-01-11 08:07:14.691612	226.3	56.2	-66.5	0.0
2026-01-11 08:07:16.937661	225.5	55.4	-66.6	0.0
2026-01-11 08:07:19.182176	224.8	54.6	-66.8	0.0
2026-01-11 08:07:21.426235	224.1	53.9	-66.6	0.0
2026-01-11 08:07:23.671758	223.5	53.1	-67.2	0.0
2026-01-11 08:07:25.915801	222.9	52.4	-66.7	0.0
2026-01-11 08:07:28.160308	222.3	51.6	-65.7	0.0
2026-01-11 08:07:30.404358	221.8	50.9	-66.8	0.0
2026-01-11 08:07:32.647416	221.3	50.2	-66.9	0.0
2026-01-11 08:07:34.891948	220.8	49.4	-66.0	0.0
2026-01-11 08:07:37.135495	220.3	48.7	-66.2	0.0
2026-01-11 08:07:39.380002	219.9	48.0	-67.8	0.0
2026-01-11 08:07:41.624053	219.4	47.4	-66.6	0.0
2026-01-11 08:07:43.868560	219.0	46.7	-66.4	0.0
2026-01-11 08:07:46.113076	218.6	46.0	-67.1	0.0
2026-01-11 08:07:48.357137	218.3	45.3	-66.5	0.0
2026-01-11 08:07:50.599699	217.9	44.7	-66.4	0.0
2026-01-11 08:07:52.844212	217.5	44.1	-66.4	0.0
2026-01-11 08:07:55.088246	217.2	43.4	-66.2	0.0
2026-01-11 08:07:57.332753	216.9	42.8	-67.8	0.0
2026-01-11 08:07:59.576291	216.6	42.2	-67.1	0.0
2026-01-11 08:08:01.820798	216.3	41.6	-66.2	0.0
2026-01-11 08:08:04.064840	216.0	41.0	-67.5	0.0
2026-01-11 08:08:06.309347	215.7	40.4	-68.1	0.0
2026-01-11 08:08:08.553364	215.5	39.8	-66.8	0.0
2026-01-11 08:08:10.797413	215.2	39.2	-68.0	0.0
2026-01-11 08:08:13.041928	215.0	38.7	-68.5	0.0
2026-01-11 08:08:15.285939	214.7	38.1	-67.8	0.0
2026-01-11 08:08:17.529486	214.5	37.6	-66.8	0.0
2026-01-11 08:08:19.774000	214.3	37.1	-67.7	0.0
2026-01-11 08:08:22.018043	214.1	36.5	-66.7	0.0
2026-01-11 08:08:24.261566	213.9	36.0	-68.1	0.0
2026-01-11 08:08:26.506073	213.7	35.5	-67.8	0.0
2026-01-11 08:08:28.750620	213.5	35.0	-67.7	0.0
2026-01-11 08:08:30.995127	213.3	34.5	-68.0	0.0
2026-01-11 08:08:33.241687	213.1	34.0	-67.9	0.0
2026-01-11 08:08:35.485697	212.9	33.5	-68.1	0.0
2026-01-11 08:08:37.730204	212.7	33.0	-67.6	0.0
2026-01-11 08:08:39.974238	212.6	32.6	-66.9	0.0
2026-01-11 08:08:42.218257	212.4	32.1	-64.5	0.0
2026-01-11 08:08:44.463788	212.3	31.7	-67.8	0.0
2026-01-11 08:08:46.708304	212.1	31.2	-67.4	0.0
2026-01-11 08:08:48.952811	212.0	30.8	-66.9	0.0
2026-01-11 08:08:51.202357	211.8	30.3	-66.2	0.0
2026-01-11 08:08:53.446406	211.7	29.9	-67.1	0.2
2026-01-11 08:08:55.710917	211.5	29.5	-66.6	0.0
2026-01-11 08:08:57.957433	211.4	29.1	-65.8	0.0
2026-01-11 08:09:00.208477	211.3	28.7	-66.4	2.3
2026-01-11 08:09:02.454984	211.1	28.3	-65.0	0.0
2026-01-11 08:09:04.701507	211.0	27.9	-66.3	2.5
2026-01-11 08:09:06.945055	210.9	27.5	-66.2	3.6
2026-01-11 08:09:09.188577	210.8	27.1	-66.1	2.4
2026-01-11 08:09:11.437132	210.7	26.7	-65.9	4.9
2026-01-11 08:09:13.679172	210.6	26.3	-66.1	4.9
2026-01-11 08:09:15.922192	210.5	25.9	-65.4	4.2
2026-01-11 08:09:18.170760	210.4	25.6	-65.4	2.7
2026-01-11 08:09:20.413830	210.3	25.2	-65.4	4.4
2026-01-11 08:09:22.656353	210.2	24.9	-64.9	2.9
2026-01-11 08:09:24.898391	210.1	24.5	-64.7	3.6
2026-01-11 08:09:27.142966	210.0	24.2	-64.5	3.9
2026-01-11 08:09:29.385993	209.9	23.8	-64.2	3.7
2026-01-11 08:09:31.631055	209.8	23.5	-64.2	5.9
2026-01-11 08:09:33.874588	209.7	23.1	-65.1	6.0
2026-01-11 08:09:36.118599	209.6	22.8	-65.2	4.9
2026-01-11 08:09:38.366153	209.5	22.5	-64.9	7.2
2026-01-11 08:09:40.612679	209.4	22.2	-64.7	3.6
2026-01-11 08:09:42.856784	209.3	21.8	-64.9	5.3
2026-01-11 08:09:45.100803	209.3	21.5	-65.4	7.0
2026-01-11 08:09:47.348397	209.2	21.2	-64.1	6.0
2026-01-11 08:09:49.593409	209.1	20.9	-63.8	4.4
2026-01-11 08:09:51.836924	209.0	20.6	-65.2	6.7
2026-01-11 08:09:54.079977	209.0	20.3	-64.1	5.1
2026-01-11 08:09:56.323501	208.9	20.0	-64.9	7.3
2026-01-11 08:09:58.567060	208.8	19.7	-64.8	7.9
2026-01-11 08:10:00.811071	208.8	19.4	-64.6	5.2
2026-01-11 08:10:03.055082	208.7	19.1	-65.0	4.8
2026-01-11 08:10:05.298598	208.6	18.9	-64.5	5.6
2026-01-11 08:10:07.542122	208.6	18.6	-64.4	7.2
2026-01-11 08:10:09.785141	208.5	18.3	-65.2	5.8
2026-01-11 08:10:12.028161	208.4	18.0	-64.6	7.5
2026-01-11 08:10:14.272172	208.4	17.8	-64.9	6.7
2026-01-11 08:10:16.516183	208.3	17.5	-63.2	3.1
2026-01-11 08:10:18.760194	208.3	17.2	-65.2	4.7
2026-01-11 08:10:21.009206	208.2	17.0	-65.3	7.8
2026-01-11 08:10:23.253226	208.1	16.7	-64.5	7.0
2026-01-11 08:10:25.497733	208.1	16.4	-65.2	3.7
2026-01-11 08:10:27.741249	208.0	16.2	-64.6	4.3
2026-01-11 08:10:29.985260	208.0	15.9	-64.6	6.6
2026-01-11 08:10:32.229271	207.9	15.7	-64.1	5.0
2026-01-11 08:10:34.472795	207.9	15.4	-63.6	4.8
2026-01-11 08:10:36.717302	207.8	15.2	-62.8	3.9
2026-01-11 08:10:39.020372	207.8	15.0	-64.2	5.3
2026-01-11 08:10:41.264384	207.7	14.7	-64.7	7.8
2026-01-11 08:10:43.508891	207.7	14.5	-64.8	6.4
2026-01-11 08:10:45.752480	207.6	14.2	-64.9	6.5
2026-01-11 08:10:47.996996	207.6	14.0	-63.9	4.9
2026-01-11 08:10:50.238065	207.5	13.8	-64.9	7.4
2026-01-11 08:10:52.481596	207.5	13.6	-63.6	2.2
2026-01-11 08:10:54.725607	207.4	13.3	-64.2	7.0
2026-01-11 08:10:56.969164	207.4	13.1	-64.3	5.9
2026-01-11 08:10:59.213182	207.4	12.9	-64.3	6.1
2026-01-11 08:11:01.456726	207.3	12.7	-63.8	3.5
2026-01-11 08:11:03.700242	207.3	12.4	-62.8	0.2
2026-01-11 08:11:05.944291	207.2	12.2	-64.5	4.9
2026-01-11 08:11:08.187823	207.2	12.0	-65.3	5.6
2026-01-11 08:11:10.430346	207.2	11.8	-64.8	6.4
2026-01-11 08:11:12.674397	207.1	11.6	-65.0	5.3
2026-01-11 08:11:14.917973	207.1	11.4	-64.7	7.1
2026-01-11 08:11:17.160497	207.0	11.2	-64.3	3.8
2026-01-11 08:11:19.404012	207.0	11.0	-62.9	0.0
2026-01-11 08:11:21.648023	207.0	10.8	-62.4	0.0
2026-01-11 08:11:23.892043	206.9	10.6	-64.0	5.3
2026-01-11 08:11:26.135062	206.9	10.4	-64.6	5.0
2026-01-11 08:11:28.378577	206.9	10.2	-64.6	4.5
2026-01-11 08:11:30.620606	206.8	10.0	-64.2	4.0
2026-01-11 08:11:32.864617	206.8	9.8	-62.3	4.3
2026-01-11 08:11:35.108628	206.8	9.6	-65.3	4.3
2026-01-11 08:11:37.353135	206.7	9.4	-63.3	2.1
2026-01-11 08:11:39.596650	206.7	9.2	-65.1	2.6
2026-01-11 08:11:41.839173	206.7	9.0	-64.3	2.9
2026-01-11 08:11:44.083183	206.6	8.8	-64.5	2.6
2026-01-11 08:11:46.326698	206.6	8.6	-64.1	4.2
2026-01-11 08:11:48.571205	206.6	8.5	-64.6	1.8
2026-01-11 08:11:50.814225	206.6	8.3	-63.7	4.8
2026-01-11 08:11:53.057244	206.5	8.1	-62.4	0.0
2026-01-11 08:11:55.300760	206.5	7.9	-63.4	3.4
2026-01-11 08:11:57.543779	206.5	7.7	-64.2	3.6
2026-01-11 08:11:59.787789	206.4	7.6	-64.0	2.0
2026-01-11 08:12:02.031305	206.4	7.4	-64.6	2.5
2026-01-11 08:12:04.273332	206.4	7.2	-64.8	1.9
2026-01-11 08:12:06.515855	206.4	7.0	-65.2	3.2
2026-01-11 08:12:08.758875	206.3	6.9	-62.7	0.0
2026-01-11 08:12:11.003390	206.3	6.7	-64.6	2.3
2026-01-11 08:12:13.247401	206.3	6.5	-64.0	1.6
2026-01-11 08:12:15.489925	206.3	6.3	-63.9	2.5
2026-01-11 08:12:17.731954	206.2	6.2	-62.3	0.0
2026-01-11 08:12:19.976470	206.2	6.0	-63.4	0.0
2026-01-11 08:12:22.220481	206.2	5.8	-66.9	0.0
2026-01-11 08:12:24.464493	206.2	5.7	-70.1	0.0
2026-01-11 08:12:26.708008	206.1	5.5	-71.3	0.0
2026-01-11 08:12:28.952020	206.1	5.3	-73.0	0.0
2026-01-11 08:12:31.195039	206.1	5.2	-72.7	0.0
2026-01-11 08:12:33.438059	206.1	5.0	-72.3	0.0
#Closed at: 2026-01-11 07:59:37.880000