passes_logs/2026/01/11/PlanumMoscow/PlanumMoscow__20260111_090207_METOP-B_rec.log

#Pass ID: 20260111_090207_METOP-B
#Satellite: METOP-B
#Configuration: METOP-B
#Start time: 2026-01-11 09:02:12.366280

#LorettStation: 1.0.0 05.05.2024
#Station: PlanumMoscow
#Location: 37.6253844 lon 55.6713361 lat
#TLE: 1 38771U 12049A   25293.92766658  .00000266  00000+0  14193-3 0  9996
#TLE: 2 38771  98.6882 344.7603 0001609 341.5209  18.5909 14.21379342679275

#Time	Az	El	Level	SNR
2026-01-11 09:05:50.771996	333.9	18.3	-63.9	6.2
2026-01-11 09:05:51.893281	333.7	18.3	-64.4	6.3
2026-01-11 09:05:53.014048	333.5	18.4	-64.5	6.1
2026-01-11 09:05:54.136301	333.2	18.4	-64.8	6.5
2026-01-11 09:05:55.259067	333.0	18.5	-65.0	6.3
2026-01-11 09:05:56.379832	332.7	18.5	-64.6	7.0
2026-01-11 09:05:57.501620	332.5	18.6	-64.6	6.4
2026-01-11 09:05:58.623873	332.2	18.6	-64.5	5.1
2026-01-11 09:05:59.745142	332.0	18.7	-64.6	6.7
2026-01-11 09:06:00.867395	331.7	18.7	-64.4	6.0
2026-01-11 09:06:01.989193	331.5	18.8	-64.6	6.8
2026-01-11 09:06:03.110455	331.2	18.8	-64.9	7.0
2026-01-11 09:06:04.232708	331.0	18.9	-64.5	6.7
2026-01-11 09:06:05.353970	330.7	18.9	-64.3	5.6
2026-01-11 09:06:06.475262	330.4	19.0	-64.6	6.7
2026-01-11 09:06:07.597019	330.2	19.0	-64.4	6.5
2026-01-11 09:06:08.719273	329.9	19.1	-64.5	7.2
2026-01-11 09:06:09.841039	329.7	19.1	-64.7	7.3
2026-01-11 09:06:10.944380	329.4	19.2	-64.5	7.2
2026-01-11 09:06:12.066146	329.2	19.2	-64.5	6.8
2026-01-11 09:06:13.187904	328.9	19.3	-64.8	6.7
2026-01-11 09:06:14.310157	328.6	19.3	-64.5	6.2
2026-01-11 09:06:15.432915	328.4	19.4	-64.8	7.3
2026-01-11 09:06:16.555168	328.1	19.4	-64.5	6.6
2026-01-11 09:06:17.677934	327.9	19.4	-64.8	7.2
2026-01-11 09:06:18.799730	327.6	19.5	-64.2	6.3
2026-01-11 09:06:19.925488	327.3	19.5	-64.8	6.9
2026-01-11 09:06:21.047749	327.1	19.6	-64.8	6.6
2026-01-11 09:06:22.168515	326.8	19.6	-64.4	6.9
2026-01-11 09:06:23.289320	326.5	19.7	-64.5	6.9
2026-01-11 09:06:24.410581	326.3	19.7	-65.3	8.1
2026-01-11 09:06:25.532347	326.0	19.7	-64.9	7.4
2026-01-11 09:06:26.654600	325.7	19.8	-64.7	7.5
2026-01-11 09:06:27.775862	325.4	19.8	-65.1	7.3
2026-01-11 09:06:28.897642	325.2	19.8	-64.7	7.5
2026-01-11 09:06:30.018913	324.9	19.9	-65.2	7.4
2026-01-11 09:06:31.140183	324.6	19.9	-64.7	6.8
2026-01-11 09:06:32.261445	324.4	20.0	-65.5	7.2
2026-01-11 09:06:33.383699	324.1	20.0	-65.4	7.0
2026-01-11 09:06:34.505494	323.8	20.0	-65.1	6.9
2026-01-11 09:06:35.627748	323.5	20.1	-65.0	6.8
2026-01-11 09:06:36.751558	323.3	20.1	-65.1	6.9
2026-01-11 09:06:37.873811	323.0	20.1	-65.0	7.8
2026-01-11 09:06:38.995570	322.7	20.2	-65.1	6.8
2026-01-11 09:06:40.117823	322.4	20.2	-65.2	7.7
2026-01-11 09:06:41.239581	322.2	20.2	-65.0	6.8
2026-01-11 09:06:42.361842	321.9	20.3	-65.3	7.0
2026-01-11 09:06:43.483601	321.6	20.3	-65.5	7.6
2026-01-11 09:06:44.605405	321.3	20.3	-64.9	7.9
2026-01-11 09:06:45.726668	321.0	20.3	-65.5	7.6
2026-01-11 09:06:46.848930	320.8	20.4	-65.4	8.2
2026-01-11 09:06:47.971222	320.5	20.4	-65.1	8.0
2026-01-11 09:06:49.092483	320.2	20.4	-65.1	8.3
2026-01-11 09:06:50.214790	319.9	20.4	-64.8	7.8
2026-01-11 09:06:51.336549	319.6	20.5	-64.8	7.1
2026-01-11 09:06:52.458810	319.3	20.5	-64.9	7.8
2026-01-11 09:06:53.580072	319.1	20.5	-65.1	9.0
2026-01-11 09:06:54.703335	318.8	20.5	-65.0	8.2
2026-01-11 09:06:55.823138	318.5	20.6	-65.3	8.7
2026-01-11 09:06:56.945392	318.2	20.6	-65.3	8.5
2026-01-11 09:06:58.067156	317.9	20.6	-65.1	8.2
2026-01-11 09:06:59.188915	317.6	20.6	-65.1	8.6
2026-01-11 09:07:00.310200	317.4	20.6	-65.1	8.2
2026-01-11 09:07:01.431462	317.1	20.7	-64.9	7.9
2026-01-11 09:07:02.551237	316.8	20.7	-64.8	7.2
2026-01-11 09:07:03.673499	316.5	20.7	-65.0	8.8
2026-01-11 09:07:04.793800	316.2	20.7	-65.0	8.3
2026-01-11 09:07:05.916053	315.9	20.7	-65.0	7.5
2026-01-11 09:07:07.037811	315.6	20.7	-64.7	6.8
2026-01-11 09:07:08.159577	315.3	20.8	-64.8	7.6
2026-01-11 09:07:09.281830	315.1	20.8	-65.2	8.4
2026-01-11 09:07:10.403131	314.8	20.8	-65.0	8.8
2026-01-11 09:07:11.527395	314.5	20.8	-65.0	8.3
2026-01-11 09:07:12.649657	314.2	20.8	-65.2	8.2
2026-01-11 09:07:13.770919	313.9	20.8	-65.1	8.1
2026-01-11 09:07:14.893172	313.6	20.8	-64.8	7.5
2026-01-11 09:07:16.015497	313.3	20.8	-64.9	8.7
2026-01-11 09:07:17.137255	313.0	20.8	-64.9	8.1
2026-01-11 09:07:18.258524	312.7	20.8	-65.1	7.3
2026-01-11 09:07:19.382292	312.5	20.9	-65.4	8.7
2026-01-11 09:07:20.503086	312.2	20.9	-65.1	8.7
2026-01-11 09:07:21.625339	311.9	20.9	-64.8	8.1
2026-01-11 09:07:22.746602	311.6	20.9	-65.2	7.9
2026-01-11 09:07:23.868359	311.3	20.9	-65.3	8.0
2026-01-11 09:07:24.990118	311.0	20.9	-65.5	8.9
2026-01-11 09:07:26.111379	310.7	20.9	-65.3	8.6
2026-01-11 09:07:27.232147	310.4	20.9	-64.8	8.1
2026-01-11 09:07:28.353417	310.1	20.9	-64.9	8.6
2026-01-11 09:07:29.474688	309.8	20.9	-65.1	8.9
2026-01-11 09:07:30.596454	309.5	20.9	-65.3	8.8
2026-01-11 09:07:31.717219	309.3	20.9	-65.4	8.6
2026-01-11 09:07:32.839473	309.0	20.9	-65.0	8.5
2026-01-11 09:07:33.960735	308.7	20.9	-65.2	9.1
2026-01-11 09:07:35.082493	308.4	20.9	-65.1	8.9
2026-01-11 09:07:36.204252	308.1	20.9	-65.3	8.8
2026-01-11 09:07:37.326520	307.8	20.8	-65.3	9.2
2026-01-11 09:07:38.447782	307.5	20.8	-65.6	8.7
2026-01-11 09:07:39.569054	307.2	20.8	-64.8	7.9
2026-01-11 09:07:40.691307	306.9	20.8	-64.8	8.0
2026-01-11 09:07:41.813065	306.6	20.8	-64.9	8.5
2026-01-11 09:07:42.934822	306.4	20.8	-65.1	7.9
2026-01-11 09:07:44.057075	306.1	20.8	-65.0	8.4
2026-01-11 09:07:45.177842	305.8	20.8	-65.3	9.0
2026-01-11 09:07:46.299631	305.5	20.8	-65.5	8.9
2026-01-11 09:07:47.420894	305.2	20.8	-65.4	8.6
2026-01-11 09:07:48.543147	304.9	20.7	-65.6	9.0
2026-01-11 09:07:49.664419	304.6	20.7	-65.5	7.1
2026-01-11 09:07:50.786176	304.3	20.7	-65.4	7.8
2026-01-11 09:07:51.908469	304.1	20.7	-65.2	8.5
2026-01-11 09:07:53.030734	303.8	20.7	-65.2	8.5
2026-01-11 09:07:54.154005	303.5	20.7	-65.2	9.4
2026-01-11 09:07:55.275267	303.2	20.6	-65.6	8.8
2026-01-11 09:07:56.397040	302.9	20.6	-65.1	7.5
2026-01-11 09:07:57.517837	302.6	20.6	-65.3	8.4
2026-01-11 09:07:58.639594	302.3	20.6	-65.3	8.7
2026-01-11 09:07:59.760857	302.1	20.6	-65.4	8.5
2026-01-11 09:08:00.883119	301.8	20.5	-65.5	9.0
2026-01-11 09:08:02.006894	301.5	20.5	-65.4	8.1
2026-01-11 09:08:03.128699	301.2	20.5	-65.6	8.7
2026-01-11 09:08:04.251952	300.9	20.5	-65.3	8.7
2026-01-11 09:08:05.372726	300.6	20.4	-65.2	7.8
2026-01-11 09:08:06.494493	300.3	20.4	-65.4	8.5
2026-01-11 09:08:07.616288	300.1	20.4	-65.0	7.2
2026-01-11 09:08:08.738046	299.8	20.4	-65.4	7.0
2026-01-11 09:08:09.859308	299.5	20.3	-65.1	7.4
2026-01-11 09:08:10.979578	299.2	20.3	-65.5	8.1
2026-01-11 09:08:12.101832	298.9	20.3	-65.5	7.8
2026-01-11 09:08:13.224085	298.7	20.3	-65.4	7.7
2026-01-11 09:08:14.345348	298.4	20.2	-65.5	7.6
2026-01-11 09:08:15.467610	298.1	20.2	-65.4	7.6
2026-01-11 09:08:16.590367	297.8	20.2	-65.6	7.7
2026-01-11 09:08:17.711172	297.6	20.1	-65.6	6.8
2026-01-11 09:08:18.832938	297.3	20.1	-65.2	7.7
2026-01-11 09:08:19.954704	297.0	20.1	-65.5	7.8
2026-01-11 09:08:21.076462	296.7	20.0	-65.4	7.6
2026-01-11 09:08:22.198715	296.5	20.0	-65.4	8.1
2026-01-11 09:08:23.319510	296.2	20.0	-65.2	7.5
2026-01-11 09:08:24.441764	295.9	19.9	-65.0	7.8
2026-01-11 09:08:25.564025	295.6	19.9	-64.8	7.2
2026-01-11 09:08:26.685287	295.4	19.8	-64.8	7.7
2026-01-11 09:08:27.807541	295.1	19.8	-65.1	7.1
2026-01-11 09:08:28.928359	294.8	19.8	-64.7	5.8
2026-01-11 09:08:30.050613	294.5	19.7	-65.2	7.6
2026-01-11 09:08:31.172866	294.3	19.7	-65.1	8.2
2026-01-11 09:08:32.294648	294.0	19.6	-65.1	7.4
2026-01-11 09:08:33.416405	293.7	19.6	-65.6	7.6
2026-01-11 09:08:34.538163	293.5	19.6	-64.7	7.3
2026-01-11 09:08:35.659930	293.2	19.5	-65.0	7.2
2026-01-11 09:08:36.782184	292.9	19.5	-64.9	7.3
2026-01-11 09:08:37.903446	292.7	19.4	-65.1	8.4
2026-01-11 09:08:39.025234	292.4	19.4	-65.0	7.8
2026-01-11 09:08:40.146992	292.1	19.3	-64.9	8.3
2026-01-11 09:08:41.268262	291.9	19.3	-65.1	8.8
2026-01-11 09:08:42.390515	291.6	19.3	-65.1	7.3
2026-01-11 09:08:43.512768	291.4	19.2	-65.0	7.7
2026-01-11 09:08:44.633567	291.1	19.2	-64.8	7.3
2026-01-11 09:08:45.755829	290.8	19.1	-65.1	7.1
2026-01-11 09:08:46.878082	290.6	19.1	-65.0	7.3
2026-01-11 09:08:48.000336	290.3	19.0	-65.5	8.7
2026-01-11 09:08:49.121606	290.1	19.0	-65.4	8.3
2026-01-11 09:08:50.243412	289.8	18.9	-65.2	8.1
2026-01-11 09:08:51.365170	289.6	18.9	-64.9	7.7
2026-01-11 09:08:52.486927	289.3	18.8	-65.4	8.1
2026-01-11 09:08:53.607694	289.1	18.8	-65.1	8.0
2026-01-11 09:08:54.729498	288.8	18.7	-64.7	7.6
2026-01-11 09:08:55.851255	288.5	18.7	-64.6	6.8
2026-01-11 09:08:56.973509	288.3	18.6	-64.7	8.1
2026-01-11 09:08:58.095305	288.0	18.6	-65.2	7.9
2026-01-11 09:08:59.217568	287.8	18.5	-64.3	6.5
2026-01-11 09:09:00.339821	287.5	18.5	-65.3	8.1
2026-01-11 09:09:01.461083	287.3	18.4	-65.0	7.5
2026-01-11 09:09:02.583344	287.1	18.3	-64.6	7.7
2026-01-11 09:09:03.705132	286.8	18.3	-65.1	7.6
2026-01-11 09:09:04.826393	286.6	18.2	-63.9	5.8
2026-01-11 09:09:05.948151	286.3	18.2	-65.2	7.9
2026-01-11 09:09:07.069908	286.1	18.1	-65.6	7.2
2026-01-11 09:09:08.191674	285.8	18.1	-64.8	7.1
2026-01-11 09:09:09.313432	285.6	18.0	-65.1	7.4
2026-01-11 09:09:10.435227	285.4	18.0	-65.1	7.2
2026-01-11 09:09:11.556985	285.1	17.9	-65.1	7.2
2026-01-11 09:09:12.678750	284.9	17.8	-64.8	6.5
2026-01-11 09:09:13.800012	284.6	17.8	-65.2	6.7
2026-01-11 09:09:14.922266	284.4	17.7	-65.3	8.0
2026-01-11 09:09:16.043077	284.2	17.7	-65.6	7.1
2026-01-11 09:09:17.164835	283.9	17.6	-65.8	7.1
2026-01-11 09:09:18.286105	283.7	17.5	-64.9	5.9
2026-01-11 09:09:19.408358	283.5	17.5	-65.2	6.4
2026-01-11 09:09:20.530612	283.2	17.4	-65.0	7.0
2026-01-11 09:09:21.651904	283.0	17.4	-65.4	6.4
2026-01-11 09:09:22.773661	282.8	17.3	-65.6	7.4
2026-01-11 09:09:23.894932	282.5	17.2	-65.8	6.7
2026-01-11 09:09:25.017185	282.3	17.2	-65.5	6.9
2026-01-11 09:09:26.138477	282.1	17.1	-65.3	5.9
2026-01-11 09:09:27.260235	281.9	17.1	-65.2	6.0
2026-01-11 09:09:28.382489	281.6	17.0	-65.2	5.4
2026-01-11 09:09:29.504246	281.4	16.9	-65.0	6.8
2026-01-11 09:09:30.626499	281.2	16.9	-65.6	6.0
2026-01-11 09:09:31.748753	281.0	16.8	-65.0	4.4
2026-01-11 09:09:32.870511	280.7	16.7	-65.3	7.7
2026-01-11 09:09:33.992764	280.5	16.7	-64.9	6.3
2026-01-11 09:09:35.114522	280.3	16.6	-65.3	7.2
2026-01-11 09:09:36.235784	280.1	16.5	-65.4	7.1
2026-01-11 09:09:37.357046	279.9	16.5	-65.2	5.5
2026-01-11 09:09:38.478317	279.6	16.4	-65.2	6.7
2026-01-11 09:09:39.600591	279.4	16.4	-64.6	6.8
2026-01-11 09:09:40.722844	279.2	16.3	-65.3	6.1
2026-01-11 09:09:41.844602	279.0	16.2	-65.2	6.8
2026-01-11 09:09:42.966360	278.8	16.2	-65.0	5.5
2026-01-11 09:09:44.088118	278.6	16.1	-65.1	4.5
2026-01-11 09:09:45.209380	278.4	16.0	-65.7	5.9
2026-01-11 09:09:46.331633	278.2	16.0	-64.8	5.1
2026-01-11 09:09:47.452399	277.9	15.9	-65.6	5.7
2026-01-11 09:09:48.574661	277.7	15.8	-65.4	6.6
2026-01-11 09:09:49.695923	277.5	15.8	-65.0	7.0
2026-01-11 09:09:50.817689	277.3	15.7	-65.2	6.5
2026-01-11 09:09:51.943448	277.1	15.6	-65.3	5.5
2026-01-11 09:09:53.065701	276.9	15.6	-65.0	5.1
2026-01-11 09:09:54.187459	276.7	15.5	-65.2	5.7
2026-01-11 09:09:55.309217	276.5	15.4	-65.5	6.8
2026-01-11 09:09:56.431471	276.3	15.3	-64.9	5.4
2026-01-11 09:09:57.552732	276.1	15.3	-64.3	4.2
2026-01-11 09:09:58.674986	275.9	15.2	-64.0	4.3
2026-01-11 09:09:59.795770	275.7	15.1	-64.6	5.8
2026-01-11 09:10:00.918023	275.5	15.1	-64.7	5.3
2026-01-11 09:10:02.040781	275.3	15.0	-64.7	5.5
2026-01-11 09:10:03.162042	275.1	14.9	-64.8	5.5
2026-01-11 09:10:04.284296	274.9	14.9	-65.2	4.9
2026-01-11 09:10:05.405556	274.7	14.8	-65.2	5.6
2026-01-11 09:10:06.526817	274.5	14.7	-64.9	4.8
2026-01-11 09:10:07.649080	274.3	14.7	-64.8	5.0
2026-01-11 09:10:08.771333	274.1	14.6	-64.5	4.3
2026-01-11 09:10:09.893586	273.9	14.5	-64.9	4.4
2026-01-11 09:10:11.014353	273.8	14.4	-65.4	4.7
2026-01-11 09:10:12.135119	273.6	14.4	-65.1	6.3
2026-01-11 09:10:13.255885	273.4	14.3	-65.2	6.1
2026-01-11 09:10:14.377642	273.2	14.2	-64.3	3.7
2026-01-11 09:10:15.499896	273.0	14.2	-64.7	4.1
2026-01-11 09:10:16.621158	272.8	14.1	-64.9	4.9
2026-01-11 09:10:17.743420	272.6	14.0	-65.4	4.9
2026-01-11 09:10:18.865673	272.5	14.0	-64.7	5.1
2026-01-11 09:10:19.987431	272.3	13.9	-65.6	5.5
2026-01-11 09:10:21.109684	272.1	13.8	-65.0	4.7
2026-01-11 09:10:22.231442	271.9	13.7	-65.2	5.0
2026-01-11 09:10:23.353201	271.7	13.7	-65.4	5.1
2026-01-11 09:10:24.474958	271.5	13.6	-65.2	5.4
2026-01-11 09:10:25.596716	271.4	13.5	-64.2	4.8
2026-01-11 09:10:26.718969	271.2	13.5	-65.0	4.5
2026-01-11 09:10:27.841223	271.0	13.4	-64.7	4.3
2026-01-11 09:10:28.961493	270.8	13.3	-64.8	4.6
2026-01-11 09:10:30.082754	270.7	13.2	-65.0	4.0
2026-01-11 09:10:31.204512	270.5	13.2	-64.4	3.4
2026-01-11 09:10:32.325773	270.3	13.1	-65.3	4.2
2026-01-11 09:10:33.450036	270.1	13.0	-65.3	4.6
2026-01-11 09:10:34.571794	270.0	13.0	-64.1	0.3
2026-01-11 09:10:35.693055	269.8	12.9	-64.5	1.6
2026-01-11 09:10:36.814325	269.6	12.8	-64.9	3.7
2026-01-11 09:10:37.938083	269.5	12.7	-64.8	4.9
2026-01-11 09:10:39.059345	269.3	12.7	-64.7	3.2
2026-01-11 09:10:40.181103	269.1	12.6	-64.9	3.4
2026-01-11 09:10:41.303356	269.0	12.5	-65.0	2.9
2026-01-11 09:10:42.424618	268.8	12.5	-64.7	3.2
2026-01-11 09:10:43.546872	268.6	12.4	-64.6	3.2
2026-01-11 09:10:44.668133	268.5	12.3	-64.4	0.0
2026-01-11 09:10:45.789891	268.3	12.2	-64.7	2.1
2026-01-11 09:10:46.912144	268.1	12.2	-64.1	2.0
2026-01-11 09:10:48.033902	268.0	12.1	-64.9	2.8
2026-01-11 09:10:49.156156	267.8	12.0	-65.6	3.3
2026-01-11 09:10:50.277913	267.7	12.0	-65.4	3.5
2026-01-11 09:10:51.400167	267.5	11.9	-65.2	3.3
2026-01-11 09:10:52.522420	267.3	11.8	-64.7	2.0
2026-01-11 09:10:53.643186	267.2	11.7	-64.9	3.6
2026-01-11 09:10:54.764943	267.0	11.7	-64.1	0.0
2026-01-11 09:10:55.886700	266.9	11.6	-63.4	2.9
2026-01-11 09:10:57.008458	266.7	11.5	-63.4	0.1
2026-01-11 09:10:58.130712	266.6	11.4	-64.4	3.2
2026-01-11 09:10:59.252469	266.4	11.4	-63.4	1.3
2026-01-11 09:11:00.374722	266.3	11.3	-64.4	2.7
2026-01-11 09:11:01.496489	266.1	11.2	-64.1	1.9
2026-01-11 09:11:02.618246	266.0	11.2	-64.8	2.4
2026-01-11 09:11:03.739508	265.8	11.1	-63.8	0.0
2026-01-11 09:11:04.863771	265.7	11.0	-64.3	0.0
2026-01-11 09:11:05.986024	265.5	10.9	-64.7	3.5
2026-01-11 09:11:07.108277	265.4	10.9	-63.8	0.2
2026-01-11 09:11:08.230035	265.2	10.8	-64.5	0.0
2026-01-11 09:11:09.351792	265.1	10.7	-64.4	0.5
2026-01-11 09:11:10.473549	264.9	10.7	-64.5	1.2
2026-01-11 09:11:11.594315	264.8	10.6	-63.6	0.0
2026-01-11 09:11:12.716073	264.6	10.5	-63.5	0.0
2026-01-11 09:11:13.837830	264.5	10.4	-63.6	0.0
2026-01-11 09:11:14.959588	264.3	10.4	-63.7	0.0
2026-01-11 09:11:16.081841	264.2	10.3	-64.1	0.0
2026-01-11 09:11:17.203599	264.0	10.2	-64.1	0.0
2026-01-11 09:11:18.324861	263.9	10.2	-63.2	0.0
2026-01-11 09:11:19.447114	263.8	10.1	-63.7	0.3
2026-01-11 09:11:20.568871	263.6	10.0	-64.4	0.0
2026-01-11 09:11:21.691125	263.5	9.9	-64.6	0.0
2026-01-11 09:11:22.812883	263.3	9.9	-64.9	0.0
2026-01-11 09:11:23.935136	263.2	9.8	-63.3	0.0
2026-01-11 09:11:25.057390	263.1	9.7	-64.9	1.7
2026-01-11 09:11:26.179651	262.9	9.7	-65.0	2.5
2026-01-11 09:11:27.301905	262.8	9.6	-64.1	2.6
2026-01-11 09:11:28.423662	262.7	9.5	-64.7	0.0
2026-01-11 09:11:29.544924	262.5	9.4	-63.6	0.0
2026-01-11 09:11:30.666681	262.4	9.4	-64.4	0.0
2026-01-11 09:11:31.788440	262.3	9.3	-64.5	0.0
2026-01-11 09:11:32.910198	262.1	9.2	-65.1	0.0
2026-01-11 09:11:34.031460	262.0	9.2	-64.6	0.0
2026-01-11 09:11:35.153218	261.9	9.1	-64.1	0.0
2026-01-11 09:11:36.276471	261.7	9.0	-63.4	0.0
2026-01-11 09:11:37.398724	261.6	9.0	-63.9	0.0
2026-01-11 09:11:38.520482	261.5	8.9	-63.0	0.0
2026-01-11 09:11:39.642735	261.4	8.8	-62.2	0.0
2026-01-11 09:11:40.764492	261.2	8.7	-64.4	0.0
2026-01-11 09:11:41.886755	261.1	8.7	-64.2	0.0
2026-01-11 09:11:43.008512	261.0	8.6	-64.5	0.3
2026-01-11 09:11:44.131775	260.8	8.5	-64.0	0.0
2026-01-11 09:11:45.253532	260.7	8.5	-63.0	0.0
2026-01-11 09:11:46.375290	260.6	8.4	-64.0	0.0
2026-01-11 09:11:47.497543	260.5	8.3	-63.5	0.0
2026-01-11 09:11:48.618311	260.3	8.2	-63.4	0.0
2026-01-11 09:11:49.739573	260.2	8.2	-62.5	0.0
2026-01-11 09:11:50.861347	260.1	8.1	-63.0	0.0
2026-01-11 09:11:51.984618	260.0	8.0	-62.4	0.0
2026-01-11 09:11:53.107378	259.9	8.0	-64.1	0.0
2026-01-11 09:11:54.228640	259.7	7.9	-64.4	0.0
2026-01-11 09:11:55.350893	259.6	7.8	-63.1	0.0
2026-01-11 09:11:56.472651	259.5	7.8	-64.0	0.0
2026-01-11 09:11:57.594905	259.4	7.7	-63.2	0.0
2026-01-11 09:11:58.717158	259.3	7.6	-62.9	0.0
2026-01-11 09:11:59.837933	259.1	7.6	-63.3	0.0
2026-01-11 09:12:00.959690	259.0	7.5	-63.4	0.0
2026-01-11 09:12:02.081447	258.9	7.4	-63.1	0.0
2026-01-11 09:12:03.203701	258.8	7.3	-62.8	0.0
2026-01-11 09:12:04.325954	258.7	7.3	-63.9	0.0
2026-01-11 09:12:05.446721	258.6	7.2	-63.5	0.0
2026-01-11 09:12:06.568974	258.4	7.1	-62.8	0.0
2026-01-11 09:12:07.690236	258.3	7.1	-62.1	0.0
2026-01-11 09:12:08.812489	258.2	7.0	-62.9	0.0
2026-01-11 09:12:09.934742	258.1	6.9	-63.0	0.0
2026-01-11 09:12:11.056500	258.0	6.9	-64.4	0.0
2026-01-11 09:12:12.178754	257.9	6.8	-62.2	0.0
2026-01-11 09:12:13.300016	257.8	6.7	-64.4	0.0
2026-01-11 09:12:14.422269	257.7	6.7	-63.8	0.0
2026-01-11 09:12:15.543532	257.6	6.6	-65.0	0.0
2026-01-11 09:12:16.664795	257.4	6.5	-64.2	0.0
2026-01-11 09:12:17.786562	257.3	6.5	-65.0	0.0
2026-01-11 09:12:18.908329	257.2	6.4	-64.0	0.0
2026-01-11 09:12:20.030582	257.1	6.3	-64.0	0.0
2026-01-11 09:12:21.151348	257.0	6.3	-63.6	0.0
2026-01-11 09:12:22.272610	256.9	6.2	-64.8	0.0
2026-01-11 09:12:23.393872	256.8	6.1	-64.6	0.0
2026-01-11 09:12:24.514638	256.7	6.1	-63.4	0.0
2026-01-11 09:12:25.636891	256.6	6.0	-66.0	0.0
2026-01-11 09:12:26.758649	256.5	5.9	-68.1	0.0
2026-01-11 09:12:27.880417	256.4	5.8	-66.7	0.0
2026-01-11 09:12:29.002182	256.3	5.8	-67.2	0.0
2026-01-11 09:12:30.123444	256.2	5.7	-68.5	0.0
2026-01-11 09:12:31.245201	256.1	5.6	-69.7	0.0
2026-01-11 09:12:32.368959	256.0	5.6	-70.7	0.0
2026-01-11 09:12:33.490221	255.9	5.5	-70.9	0.0
2026-01-11 09:12:34.610987	255.8	5.4	-70.8	0.0
2026-01-11 09:12:35.732745	255.7	5.4	-71.9	0.0
2026-01-11 09:12:36.854998	255.6	5.3	-72.0	0.0
2026-01-11 09:12:37.976260	255.5	5.2	-72.5	0.0
2026-01-11 09:12:39.099018	255.4	5.2	-72.6	0.0
2026-01-11 09:12:40.220776	255.3	5.1	-72.6	0.0
2026-01-11 09:12:41.345030	255.2	5.0	-72.6	0.0
#Closed at: 2026-01-11 09:02:07.367092