passes_logs/2026/01/11/PlanumMoscow/PlanumMoscow__20260111_012259_METEOR-M2_4_rec.log

#Pass ID: 20260111_012259_METEOR-M2 4
#Satellite: METEOR-M2 4
#Configuration: METEOR-M2 4
#Start time: 2026-01-11 01:23:04.337287

#LorettStation: 1.0.0 05.05.2024
#Station: PlanumMoscow
#Location: 37.6253844 lon 55.6713361 lat
#TLE: 1 59051U 24039A   25293.94737965  .00000087  00000+0  58459-4 0  9998
#TLE: 2 59051  98.6671 251.7071 0007726 135.4772 224.7028 14.22388966 85257

#Time	Az	El	Level	SNR
2026-01-11 01:26:42.705570	5.6	28.7	-60.6	8.0
2026-01-11 01:26:44.951103	5.4	29.1	-61.3	7.3
2026-01-11 01:26:47.195152	5.2	29.5	-61.1	7.8
2026-01-11 01:26:49.438675	5.0	29.9	-61.2	7.5
2026-01-11 01:26:51.682190	4.7	30.4	-60.1	6.1
2026-01-11 01:26:53.925735	4.5	30.8	-61.7	7.8
2026-01-11 01:26:56.169746	4.3	31.2	-62.0	8.5
2026-01-11 01:26:58.412269	4.1	31.6	-62.4	8.3
2026-01-11 01:27:00.655784	3.8	32.1	-62.4	7.9
2026-01-11 01:27:02.899796	3.6	32.5	-62.7	8.4
2026-01-11 01:27:05.143312	3.3	33.0	-62.8	8.4
2026-01-11 01:27:07.387333	3.1	33.4	-62.4	8.5
2026-01-11 01:27:09.632345	2.8	33.9	-61.9	8.3
2026-01-11 01:27:11.876356	2.5	34.3	-62.6	8.9
2026-01-11 01:27:14.118384	2.2	34.8	-63.0	9.6
2026-01-11 01:27:16.360909	1.9	35.3	-62.6	7.9
2026-01-11 01:27:18.604919	1.6	35.8	-63.4	9.4
2026-01-11 01:27:20.848435	1.3	36.3	-63.6	9.6
2026-01-11 01:27:23.091951	1.0	36.8	-63.5	9.1
2026-01-11 01:27:25.335466	0.6	37.3	-63.7	9.5
2026-01-11 01:27:27.579973	0.3	37.8	-63.1	10.2
2026-01-11 01:27:29.823498	359.9	38.3	-63.7	10.4
2026-01-11 01:27:32.066518	359.6	38.8	-63.9	10.4
2026-01-11 01:27:34.310529	359.2	39.4	-64.2	11.3
2026-01-11 01:27:36.553550	358.8	39.9	-64.2	11.1
2026-01-11 01:27:38.795579	358.4	40.5	-64.0	11.5
2026-01-11 01:27:41.039600	358.0	41.0	-64.2	11.9
2026-01-11 01:27:43.284107	357.5	41.6	-63.9	11.4
2026-01-11 01:27:45.526632	357.1	42.1	-64.3	11.3
2026-01-11 01:27:47.770148	356.6	42.7	-64.5	12.7
2026-01-11 01:27:50.014159	356.1	43.3	-64.6	12.4
2026-01-11 01:27:52.257675	355.6	43.9	-64.9	13.2
2026-01-11 01:27:54.500696	355.1	44.5	-65.1	13.0
2026-01-11 01:27:56.744707	354.5	45.1	-64.7	12.4
2026-01-11 01:27:58.986734	354.0	45.7	-65.2	12.0
2026-01-11 01:28:01.232241	353.4	46.3	-65.4	11.4
2026-01-11 01:28:03.474795	352.8	46.9	-65.3	11.0
2026-01-11 01:28:05.718310	352.1	47.5	-65.0	10.1
2026-01-11 01:28:07.960836	351.5	48.2	-65.7	10.3
2026-01-11 01:28:10.205351	350.8	48.8	-65.9	10.1
2026-01-11 01:28:12.448867	350.1	49.4	-65.5	8.3
2026-01-11 01:28:14.693374	349.3	50.1	-66.2	9.8
2026-01-11 01:28:16.935402	348.5	50.7	-66.2	9.7
2026-01-11 01:28:19.178421	347.7	51.4	-65.5	10.2
2026-01-11 01:28:21.423433	346.8	52.0	-65.4	9.5
2026-01-11 01:28:23.668443	345.9	52.7	-65.4	10.5
2026-01-11 01:28:25.912950	345.0	53.3	-65.2	10.8
2026-01-11 01:28:28.157473	344.0	54.0	-65.3	11.0
2026-01-11 01:28:30.400493	343.0	54.6	-65.3	10.4
2026-01-11 01:28:32.642523	341.9	55.3	-65.6	9.9
2026-01-11 01:28:34.884055	340.8	55.9	-65.8	9.4
2026-01-11 01:28:37.127593	339.6	56.6	-65.8	8.8
2026-01-11 01:28:39.371613	338.4	57.2	-65.3	8.1
2026-01-11 01:28:41.615136	337.1	57.9	-65.9	8.2
2026-01-11 01:28:43.857165	335.7	58.5	-65.9	8.6
2026-01-11 01:28:46.099690	334.3	59.1	-65.9	8.3
2026-01-11 01:28:48.342224	332.8	59.7	-65.7	8.6
2026-01-11 01:28:50.587235	331.2	60.3	-65.9	8.9
2026-01-11 01:28:52.833751	329.6	60.9	-65.9	8.6
2026-01-11 01:28:55.077267	327.8	61.5	-65.6	7.9
2026-01-11 01:28:57.321278	326.0	62.0	-66.0	7.6
2026-01-11 01:28:59.563803	324.2	62.5	-66.0	7.5
2026-01-11 01:29:01.807318	322.2	63.0	-66.1	8.0
2026-01-11 01:29:04.051834	320.2	63.5	-66.0	7.6
2026-01-11 01:29:06.297846	318.0	63.9	-66.1	8.5
2026-01-11 01:29:08.540865	315.8	64.4	-65.7	9.2
2026-01-11 01:29:10.784877	313.5	64.7	-65.8	10.0
2026-01-11 01:29:13.028889	311.2	65.1	-65.9	10.7
2026-01-11 01:29:15.272900	308.8	65.4	-66.0	10.8
2026-01-11 01:29:17.517416	306.3	65.7	-66.1	10.9
2026-01-11 01:29:19.760437	303.7	65.9	-66.2	10.4
2026-01-11 01:29:22.001473	301.1	66.1	-66.2	10.6
2026-01-11 01:29:24.244990	298.5	66.2	-66.3	10.0
2026-01-11 01:29:26.489497	295.8	66.3	-66.4	10.2
2026-01-11 01:29:28.733507	293.1	66.3	-66.5	9.8
2026-01-11 01:29:30.975537	290.4	66.3	-66.2	9.9
2026-01-11 01:29:33.218071	287.8	66.3	-66.5	11.4
2026-01-11 01:29:35.461601	285.1	66.2	-66.8	11.2
2026-01-11 01:29:37.704622	282.5	66.0	-66.8	10.9
2026-01-11 01:29:39.947642	279.9	65.8	-66.8	11.1
2026-01-11 01:29:42.191158	277.3	65.6	-67.2	10.5
2026-01-11 01:29:44.433681	274.9	65.3	-67.5	10.8
2026-01-11 01:29:46.676701	272.4	65.0	-67.4	10.7
2026-01-11 01:29:48.919722	270.1	64.7	-67.2	9.8
2026-01-11 01:29:51.163237	267.8	64.3	-67.4	10.5
2026-01-11 01:29:53.406753	265.6	63.9	-67.1	10.9
2026-01-11 01:29:55.650772	263.5	63.4	-66.7	11.5
2026-01-11 01:29:57.895792	261.5	62.9	-67.0	11.9
2026-01-11 01:30:00.139803	259.5	62.4	-66.9	12.2
2026-01-11 01:30:02.382327	257.7	61.9	-66.9	11.7
2026-01-11 01:30:04.625348	255.9	61.3	-66.7	9.7
2026-01-11 01:30:06.869368	254.2	60.8	-66.5	7.6
2026-01-11 01:30:09.113418	252.5	60.2	-67.5	9.8
2026-01-11 01:30:11.356934	251.0	59.6	-67.6	9.8
2026-01-11 01:30:13.600450	249.5	59.0	-67.7	10.4
2026-01-11 01:30:15.843997	248.1	58.4	-67.7	11.0
2026-01-11 01:30:18.088569	246.7	57.7	-67.6	11.2
2026-01-11 01:30:20.332085	245.4	57.1	-67.5	11.6
2026-01-11 01:30:22.576114	244.2	56.4	-67.6	10.4
2026-01-11 01:30:24.818182	243.0	55.8	-66.8	9.1
2026-01-11 01:30:27.062193	241.9	55.1	-66.9	9.0
2026-01-11 01:30:29.305222	240.8	54.5	-67.2	10.1
2026-01-11 01:30:31.549274	239.8	53.8	-67.5	8.6
2026-01-11 01:30:33.792311	238.8	53.2	-67.3	10.2
2026-01-11 01:30:36.036364	237.9	52.5	-67.4	10.5
2026-01-11 01:30:38.279393	237.0	51.9	-67.1	10.3
2026-01-11 01:30:40.522446	236.1	51.2	-67.3	10.4
2026-01-11 01:30:42.766962	235.3	50.6	-67.4	10.4
2026-01-11 01:30:45.010477	234.5	49.9	-66.2	9.1
2026-01-11 01:30:47.254024	233.8	49.3	-66.9	10.9
2026-01-11 01:30:49.497540	233.1	48.6	-66.6	9.9
2026-01-11 01:30:51.740106	232.4	48.0	-67.0	10.4
2026-01-11 01:30:53.984653	231.7	47.4	-66.9	10.0
2026-01-11 01:30:56.227714	231.1	46.7	-66.7	10.5
2026-01-11 01:30:58.471242	230.5	46.1	-66.7	10.0
2026-01-11 01:31:00.714787	229.9	45.5	-66.0	9.8
2026-01-11 01:31:02.957806	229.3	44.9	-66.8	11.0
2026-01-11 01:31:05.200875	228.8	44.3	-66.6	10.2
2026-01-11 01:31:07.442905	228.2	43.7	-66.7	11.5
2026-01-11 01:31:09.683945	227.7	43.1	-67.2	11.0
2026-01-11 01:31:11.927519	227.2	42.5	-66.6	10.8
2026-01-11 01:31:14.169556	226.8	41.9	-65.9	8.9
2026-01-11 01:31:16.411616	226.3	41.4	-65.9	10.0
2026-01-11 01:31:18.657151	225.9	40.8	-66.9	10.5
2026-01-11 01:31:20.901658	225.5	40.3	-66.4	11.0
2026-01-11 01:31:23.145708	225.1	39.7	-66.1	11.7
2026-01-11 01:31:25.389727	224.7	39.2	-65.9	11.9
2026-01-11 01:31:27.635787	224.3	38.6	-65.6	12.1
2026-01-11 01:31:29.880807	223.9	38.1	-65.7	12.3
2026-01-11 01:31:32.123372	223.6	37.6	-65.5	12.4
2026-01-11 01:31:34.366393	223.2	37.1	-65.6	12.6
2026-01-11 01:31:36.609909	222.9	36.6	-65.4	12.1
2026-01-11 01:31:38.853464	222.6	36.1	-65.2	12.7
2026-01-11 01:31:41.096494	222.2	35.6	-65.5	12.3
2026-01-11 01:31:43.343563	221.9	35.1	-65.5	12.5
2026-01-11 01:31:45.585600	221.6	34.6	-65.3	12.1
2026-01-11 01:31:47.828660	221.4	34.1	-65.4	12.4
2026-01-11 01:31:50.071700	221.1	33.6	-65.5	11.9
2026-01-11 01:31:52.317783	220.8	33.2	-65.6	13.5
2026-01-11 01:31:54.560307	220.6	32.7	-64.7	10.3
2026-01-11 01:31:56.801849	220.3	32.3	-63.1	11.7
2026-01-11 01:31:59.046901	220.0	31.8	-64.5	11.2
2026-01-11 01:32:01.291416	219.8	31.4	-65.0	13.0
2026-01-11 01:32:03.535981	219.6	31.0	-64.9	9.7
2026-01-11 01:32:05.779993	219.3	30.5	-65.7	13.3
2026-01-11 01:32:08.025063	219.1	30.1	-65.9	12.1
2026-01-11 01:32:10.269578	218.9	29.7	-65.4	11.0
2026-01-11 01:32:12.511111	218.7	29.3	-66.2	12.3
2026-01-11 01:32:14.754667	218.5	28.9	-66.1	12.4
2026-01-11 01:32:16.998696	218.3	28.5	-66.4	11.3
2026-01-11 01:32:19.242244	218.1	28.1	-66.2	12.8
2026-01-11 01:32:21.486781	217.9	27.7	-65.7	12.0
2026-01-11 01:32:23.730348	217.7	27.3	-65.8	11.8
2026-01-11 01:32:25.973872	217.5	26.9	-65.6	12.0
2026-01-11 01:32:28.216917	217.4	26.6	-64.4	9.7
2026-01-11 01:32:30.461432	217.2	26.2	-65.1	10.4
2026-01-11 01:32:32.705463	217.0	25.8	-64.6	10.9
2026-01-11 01:32:34.949513	216.9	25.5	-65.4	11.6
2026-01-11 01:32:37.192038	216.7	25.1	-65.6	12.3
2026-01-11 01:32:39.434118	216.5	24.8	-64.4	7.1
2026-01-11 01:32:41.675693	216.4	24.4	-65.5	12.5
2026-01-11 01:32:43.920705	216.2	24.1	-66.0	12.0
2026-01-11 01:32:46.164725	216.1	23.8	-66.0	12.7
2026-01-11 01:32:48.408250	215.9	23.4	-66.1	11.4
2026-01-11 01:32:50.652797	215.8	23.1	-65.7	12.0
2026-01-11 01:32:52.896320	215.7	22.8	-66.0	12.2
2026-01-11 01:32:55.139874	215.5	22.4	-66.5	12.1
2026-01-11 01:32:57.382911	215.4	22.1	-66.7	12.6
2026-01-11 01:32:59.625983	215.3	21.8	-66.3	12.5
2026-01-11 01:33:01.869995	215.1	21.5	-66.1	12.7
2026-01-11 01:33:04.113550	215.0	21.2	-66.4	12.6
2026-01-11 01:33:06.357562	214.9	20.9	-66.6	12.6
2026-01-11 01:33:08.601116	214.8	20.6	-66.7	12.2
2026-01-11 01:33:10.845632	214.7	20.3	-66.7	12.4
2026-01-11 01:33:13.093156	214.5	20.0	-67.0	12.2
2026-01-11 01:33:15.337197	214.4	19.7	-67.0	12.4
2026-01-11 01:33:17.581712	214.3	19.4	-67.1	13.2
2026-01-11 01:33:19.826763	214.2	19.1	-67.2	12.9
2026-01-11 01:33:22.071270	214.1	18.9	-66.9	12.2
2026-01-11 01:33:24.316330	214.0	18.6	-66.9	13.1
2026-01-11 01:33:26.560846	213.9	18.3	-66.8	12.0
2026-01-11 01:33:28.805361	213.8	18.0	-66.9	13.2
2026-01-11 01:33:31.049404	213.7	17.8	-67.2	13.4
2026-01-11 01:33:33.293919	213.6	17.5	-67.0	13.0
2026-01-11 01:33:35.540972	213.5	17.3	-67.6	13.1
2026-01-11 01:33:37.786488	213.4	17.0	-67.4	13.6
2026-01-11 01:33:40.030531	213.3	16.7	-67.3	12.2
2026-01-11 01:33:42.274574	213.2	16.5	-67.4	13.2
2026-01-11 01:33:44.517633	213.2	16.2	-67.5	13.2
2026-01-11 01:33:46.762149	213.1	16.0	-67.6	13.1
2026-01-11 01:33:49.006655	213.0	15.7	-67.6	12.4
2026-01-11 01:33:51.249212	212.9	15.5	-67.6	12.7
2026-01-11 01:33:53.496232	212.8	15.2	-67.8	12.7
2026-01-11 01:33:55.739780	212.7	15.0	-67.7	12.9
2026-01-11 01:33:57.983327	212.7	14.8	-67.7	12.6
2026-01-11 01:34:00.227843	212.6	14.5	-67.5	12.4
2026-01-11 01:34:02.471866	212.5	14.3	-67.4	11.7
2026-01-11 01:34:04.715900	212.4	14.1	-67.4	12.6
2026-01-11 01:34:06.960416	212.4	13.8	-67.3	12.9
2026-01-11 01:34:09.204923	212.3	13.6	-67.6	12.8
2026-01-11 01:34:11.448470	212.2	13.4	-67.5	12.7
2026-01-11 01:34:13.692985	212.2	13.2	-67.1	11.2
2026-01-11 01:34:15.937028	212.1	12.9	-67.9	12.0
2026-01-11 01:34:18.181543	212.0	12.7	-67.4	12.0
2026-01-11 01:34:20.425585	211.9	12.5	-67.8	12.8
2026-01-11 01:34:22.670100	211.9	12.3	-67.6	12.6
2026-01-11 01:34:24.914112	211.8	12.1	-67.5	11.6
2026-01-11 01:34:27.159146	211.8	11.9	-67.6	11.8
2026-01-11 01:34:29.403661	211.7	11.7	-67.3	11.6
2026-01-11 01:34:31.646713	211.6	11.5	-67.3	12.4
2026-01-11 01:34:33.891229	211.6	11.2	-67.2	11.7
2026-01-11 01:34:36.134776	211.5	11.0	-67.3	11.3
2026-01-11 01:34:38.379332	211.5	10.8	-67.4	12.2
2026-01-11 01:34:40.624839	211.4	10.6	-67.4	11.1
2026-01-11 01:34:42.869354	211.3	10.4	-67.4	11.1
2026-01-11 01:34:45.113861	211.3	10.2	-67.2	10.9
2026-01-11 01:34:47.357903	211.2	10.0	-67.5	11.0
2026-01-11 01:34:49.606428	211.2	9.8	-67.1	11.3
2026-01-11 01:34:51.850471	211.1	9.7	-66.3	7.6
2026-01-11 01:34:54.094986	211.1	9.5	-66.9	10.3
2026-01-11 01:34:56.338543	211.0	9.3	-66.5	10.4
2026-01-11 01:34:58.583058	211.0	9.1	-65.5	7.7
2026-01-11 01:35:00.827565	210.9	8.9	-66.6	10.8
2026-01-11 01:35:03.071609	210.9	8.7	-66.8	10.8
2026-01-11 01:35:05.315639	210.8	8.5	-66.8	9.8
2026-01-11 01:35:07.559680	210.8	8.3	-66.9	9.6
2026-01-11 01:35:09.802724	210.7	8.2	-66.1	6.9
2026-01-11 01:35:12.046280	210.7	8.0	-67.2	10.3
2026-01-11 01:35:14.290796	210.6	7.8	-66.7	8.7
2026-01-11 01:35:16.534806	210.6	7.6	-66.6	9.3
2026-01-11 01:35:18.778346	210.5	7.4	-66.5	8.9
2026-01-11 01:35:21.022365	210.5	7.3	-66.7	7.5
2026-01-11 01:35:23.266428	210.4	7.1	-66.5	8.3
2026-01-11 01:35:25.510450	210.4	6.9	-66.5	8.3
2026-01-11 01:35:27.754957	210.4	6.7	-66.4	8.4
2026-01-11 01:35:29.999502	210.3	6.6	-66.4	9.1
2026-01-11 01:35:32.244010	210.3	6.4	-66.5	7.7
2026-01-11 01:35:34.487589	210.2	6.2	-66.4	8.1
2026-01-11 01:35:36.732105	210.2	6.1	-66.8	7.9
2026-01-11 01:35:38.976167	210.1	5.9	-68.1	4.4
2026-01-11 01:35:41.220682	210.1	5.7	-70.3	0.0
2026-01-11 01:35:43.448042	210.1	5.6	-70.7	0.0
2026-01-11 01:35:45.694558	210.0	5.4	-72.1	0.0
2026-01-11 01:35:47.939064	210.0	5.2	-72.9	0.0
2026-01-11 01:35:50.183134	209.9	5.1	-71.5	0.0
#Closed at: 2026-01-11 01:22:59.339424