passes_logs/2026/01/11/PlanumMoscow/PlanumMoscow__20260111_111216_METEOR-M2_4_rec.log

#Pass ID: 20260111_111216_METEOR-M2 4
#Satellite: METEOR-M2 4
#Configuration: METEOR-M2 4
#Start time: 2026-01-11 11:12:21.322417

#LorettStation: 1.0.0 05.05.2024
#Station: PlanumMoscow
#Location: 37.6253844 lon 55.6713361 lat
#TLE: 1 59051U 24039A   25293.94737965  .00000087  00000+0  58459-4 0  9998
#TLE: 2 59051  98.6671 251.7071 0007726 135.4772 224.7028 14.22388966 85257

#Time	Az	El	Level	SNR
2026-01-11 11:15:59.788737	155.2	29.8	-65.1	14.0
2026-01-11 11:16:02.032263	155.1	30.2	-65.9	15.0
2026-01-11 11:16:04.276283	155.1	30.6	-65.5	13.7
2026-01-11 11:16:06.518836	155.0	31.1	-65.8	14.4
2026-01-11 11:16:08.761857	154.9	31.5	-65.5	13.8
2026-01-11 11:16:11.007365	154.8	32.0	-65.9	15.4
2026-01-11 11:16:13.251376	154.8	32.5	-65.6	14.6
2026-01-11 11:16:15.494914	154.7	32.9	-66.1	14.9
2026-01-11 11:16:17.738448	154.6	33.4	-65.9	14.6
2026-01-11 11:16:19.980533	154.5	33.9	-65.8	14.7
2026-01-11 11:16:22.225039	154.4	34.4	-66.1	14.8
2026-01-11 11:16:24.469059	154.3	34.9	-65.8	14.9
2026-01-11 11:16:26.716630	154.3	35.4	-65.8	14.7
2026-01-11 11:16:28.959698	154.2	35.9	-65.8	14.3
2026-01-11 11:16:31.202252	154.1	36.5	-66.2	15.5
2026-01-11 11:16:33.447767	154.0	37.0	-66.0	15.5
2026-01-11 11:16:35.692274	153.8	37.5	-66.2	15.6
2026-01-11 11:16:37.935331	153.7	38.1	-65.9	15.1
2026-01-11 11:16:40.179352	153.6	38.6	-66.0	15.2
2026-01-11 11:16:42.424905	153.5	39.2	-66.0	15.8
2026-01-11 11:16:44.668924	153.4	39.8	-65.8	15.5
2026-01-11 11:16:46.910488	153.3	40.4	-65.7	15.3
2026-01-11 11:16:49.159004	153.1	41.0	-65.5	16.1
2026-01-11 11:16:51.404055	153.0	41.6	-66.3	16.4
2026-01-11 11:16:53.648561	152.8	42.2	-66.4	15.7
2026-01-11 11:16:55.892085	152.7	42.9	-66.5	15.9
2026-01-11 11:16:58.138649	152.5	43.5	-66.8	15.7
2026-01-11 11:17:00.382715	152.4	44.2	-66.7	15.0
2026-01-11 11:17:02.625780	152.2	44.8	-66.9	15.4
2026-01-11 11:17:04.869799	152.0	45.5	-67.1	15.5
2026-01-11 11:17:07.114840	151.8	46.2	-67.3	14.8
2026-01-11 11:17:09.357867	151.7	46.9	-67.3	14.8
2026-01-11 11:17:11.600887	151.4	47.6	-67.2	14.3
2026-01-11 11:17:13.845937	151.2	48.3	-67.5	14.3
2026-01-11 11:17:16.088468	151.0	49.0	-68.0	14.9
2026-01-11 11:17:18.331030	150.8	49.8	-67.7	13.9
2026-01-11 11:17:20.574551	150.5	50.5	-67.4	13.4
2026-01-11 11:17:22.818098	150.3	51.3	-67.9	13.7
2026-01-11 11:17:25.061126	150.0	52.1	-67.9	13.5
2026-01-11 11:17:27.304645	149.7	52.9	-68.0	13.0
2026-01-11 11:17:29.550714	149.4	53.7	-68.1	13.0
2026-01-11 11:17:31.793745	149.1	54.5	-68.1	12.3
2026-01-11 11:17:34.036794	148.7	55.3	-68.4	12.7
2026-01-11 11:17:36.280333	148.4	56.2	-68.1	12.5
2026-01-11 11:17:38.523885	148.0	57.0	-68.3	13.3
2026-01-11 11:17:40.765914	147.6	57.9	-68.2	12.9
2026-01-11 11:17:43.009453	147.1	58.8	-68.0	12.0
2026-01-11 11:17:45.252498	146.7	59.6	-68.4	13.1
2026-01-11 11:17:47.498510	146.2	60.5	-68.3	12.6
2026-01-11 11:17:49.742072	145.6	61.4	-68.5	12.0
2026-01-11 11:17:51.985141	145.0	62.4	-68.4	11.7
2026-01-11 11:17:54.228221	144.4	63.3	-68.4	11.0
2026-01-11 11:17:56.471743	143.7	64.2	-68.6	12.1
2026-01-11 11:17:58.714801	143.0	65.2	-68.2	11.5
2026-01-11 11:18:00.955837	142.2	66.1	-68.0	11.6
2026-01-11 11:18:03.198864	141.3	67.1	-68.4	11.0
2026-01-11 11:18:05.441417	140.3	68.0	-68.4	12.5
2026-01-11 11:18:07.685924	139.2	69.0	-67.5	13.3
2026-01-11 11:18:09.928943	138.1	70.0	-68.0	13.4
2026-01-11 11:18:12.173496	136.7	70.9	-67.7	13.4
2026-01-11 11:18:14.418051	135.3	71.9	-68.0	13.1
2026-01-11 11:18:16.662606	133.7	72.9	-67.7	12.9
2026-01-11 11:18:18.907130	131.8	73.8	-67.9	12.2
2026-01-11 11:18:21.150684	129.7	74.8	-67.5	12.7
2026-01-11 11:18:23.394702	127.4	75.7	-67.5	12.8
2026-01-11 11:18:25.639246	124.7	76.6	-67.7	13.4
2026-01-11 11:18:27.883257	121.5	77.5	-67.5	14.3
2026-01-11 11:18:30.127772	118.0	78.3	-67.6	15.1
2026-01-11 11:18:32.372316	113.8	79.1	-66.7	12.5
2026-01-11 11:18:34.615838	109.0	79.9	-67.6	12.8
2026-01-11 11:18:36.859381	103.5	80.5	-67.6	13.2
2026-01-11 11:18:39.103897	97.3	81.1	-67.6	12.0
2026-01-11 11:18:41.348442	90.2	81.5	-68.4	13.5
2026-01-11 11:18:43.594958	82.5	81.8	-68.1	12.9
2026-01-11 11:18:45.839465	74.4	82.0	-67.4	13.9
2026-01-11 11:18:48.083010	66.1	82.0	-67.3	13.3
2026-01-11 11:18:50.327525	58.0	81.8	-67.3	13.1
2026-01-11 11:18:52.571080	50.4	81.5	-67.2	14.6
2026-01-11 11:18:54.815595	43.5	81.0	-67.4	13.7
2026-01-11 11:18:57.060140	37.4	80.4	-66.8	12.7
2026-01-11 11:18:59.304647	32.0	79.7	-67.4	13.3
2026-01-11 11:19:01.551201	27.4	79.0	-67.5	12.0
2026-01-11 11:19:03.795212	23.3	78.2	-68.0	13.0
2026-01-11 11:19:06.039729	19.8	77.3	-67.1	12.3
2026-01-11 11:19:08.283777	16.8	76.5	-67.4	13.5
2026-01-11 11:19:10.527818	14.2	75.5	-67.1	13.1
2026-01-11 11:19:12.772325	11.8	74.6	-67.4	13.3
2026-01-11 11:19:15.016832	9.8	73.7	-67.0	12.8
2026-01-11 11:19:17.262386	8.0	72.7	-67.1	12.1
2026-01-11 11:19:19.506901	6.4	71.7	-67.0	12.6
2026-01-11 11:19:21.751408	5.0	70.8	-67.6	12.8
2026-01-11 11:19:23.994969	3.7	69.8	-66.6	12.0
2026-01-11 11:19:26.243484	2.5	68.8	-66.9	12.7
2026-01-11 11:19:28.487526	1.5	67.9	-66.9	13.1
2026-01-11 11:19:30.732040	0.5	66.9	-66.8	11.6
2026-01-11 11:19:32.976579	359.7	66.0	-66.6	11.1
2026-01-11 11:19:35.223606	358.9	65.0	-66.9	10.9
2026-01-11 11:19:37.468113	358.1	64.1	-67.6	10.7
2026-01-11 11:19:39.711668	357.5	63.2	-67.3	10.1
2026-01-11 11:19:41.957688	356.8	62.2	-67.5	9.3
2026-01-11 11:19:44.201729	356.3	61.3	-67.3	9.4
2026-01-11 11:19:46.445244	355.7	60.4	-67.4	9.6
2026-01-11 11:19:48.689788	355.2	59.5	-67.8	9.4
2026-01-11 11:19:50.933800	354.8	58.6	-67.5	8.3
2026-01-11 11:19:53.178345	354.3	57.8	-67.7	8.0
2026-01-11 11:19:55.422852	353.9	56.9	-67.2	6.8
2026-01-11 11:19:57.670865	353.5	56.1	-66.8	6.4
2026-01-11 11:19:59.915411	353.2	55.2	-68.1	7.9
2026-01-11 11:20:02.159918	352.8	54.4	-67.5	6.7
2026-01-11 11:20:04.403978	352.5	53.6	-67.3	6.9
2026-01-11 11:20:06.647500	352.2	52.8	-65.9	6.4
2026-01-11 11:20:08.891558	351.9	52.0	-65.5	4.9
2026-01-11 11:20:11.136073	351.7	51.2	-67.4	7.3
2026-01-11 11:20:13.380580	351.4	50.5	-67.0	6.5
2026-01-11 11:20:15.624628	351.2	49.7	-66.6	7.3
2026-01-11 11:20:17.869135	350.9	49.0	-67.1	8.3
2026-01-11 11:20:20.112688	350.7	48.3	-67.5	9.2
2026-01-11 11:20:22.356204	350.5	47.6	-66.7	7.9
2026-01-11 11:20:24.600253	350.3	46.8	-67.0	9.2
2026-01-11 11:20:26.843776	350.1	46.2	-67.4	10.6
2026-01-11 11:20:29.088283	349.9	45.5	-67.2	10.5
2026-01-11 11:20:31.332331	349.8	44.8	-66.4	9.0
2026-01-11 11:20:33.576350	349.6	44.1	-66.4	9.0
2026-01-11 11:20:35.820894	349.4	43.5	-65.9	8.7
2026-01-11 11:20:38.065401	349.3	42.9	-66.6	9.7
2026-01-11 11:20:40.308954	349.1	42.2	-67.4	10.5
2026-01-11 11:20:42.553468	349.0	41.6	-65.8	9.4
2026-01-11 11:20:44.797479	348.8	41.0	-66.2	8.4
2026-01-11 11:20:47.043523	348.7	40.4	-66.7	9.4
2026-01-11 11:20:49.287046	348.6	39.8	-66.6	10.4
2026-01-11 11:20:51.531088	348.5	39.2	-66.4	9.2
2026-01-11 11:20:53.775107	348.4	38.7	-66.0	10.1
2026-01-11 11:20:56.018662	348.2	38.1	-66.3	10.2
2026-01-11 11:20:58.263168	348.1	37.6	-65.8	9.5
2026-01-11 11:21:00.507179	348.0	37.0	-65.9	9.9
2026-01-11 11:21:02.751686	347.9	36.5	-65.5	8.8
2026-01-11 11:21:05.000202	347.8	36.0	-65.6	10.7
2026-01-11 11:21:07.244709	347.7	35.5	-65.3	9.5
2026-01-11 11:21:09.489216	347.6	34.9	-64.8	9.8
2026-01-11 11:21:11.733723	347.6	34.4	-65.5	9.5
2026-01-11 11:21:13.977238	347.5	34.0	-65.4	8.7
2026-01-11 11:21:16.222745	347.4	33.5	-65.2	8.3
2026-01-11 11:21:18.467252	347.3	33.0	-66.0	11.0
2026-01-11 11:21:20.711292	347.2	32.5	-65.7	10.5
2026-01-11 11:21:22.957303	347.2	32.1	-65.5	10.2
2026-01-11 11:21:25.201818	347.1	31.6	-65.4	9.5
2026-01-11 11:21:27.446356	347.0	31.2	-66.0	10.9
2026-01-11 11:21:29.690381	346.9	30.7	-65.1	8.7
2026-01-11 11:21:31.934423	346.9	30.3	-65.9	10.2
2026-01-11 11:21:34.178937	346.8	29.9	-65.0	10.1
2026-01-11 11:21:36.423444	346.8	29.4	-65.4	10.3
2026-01-11 11:21:38.666989	346.7	29.0	-66.2	10.9
2026-01-11 11:21:40.910512	346.6	28.6	-65.9	10.3
2026-01-11 11:21:43.154569	346.6	28.2	-64.5	8.1
2026-01-11 11:21:45.399084	346.5	27.8	-65.3	11.2
2026-01-11 11:21:47.643135	346.5	27.4	-64.7	9.5
2026-01-11 11:21:49.887650	346.4	27.0	-65.5	10.9
2026-01-11 11:21:52.131691	346.4	26.6	-65.3	10.5
2026-01-11 11:21:54.375711	346.3	26.3	-65.2	9.4
2026-01-11 11:21:56.620273	346.3	25.9	-65.3	11.3
2026-01-11 11:21:58.864780	346.2	25.5	-65.4	8.8
2026-01-11 11:22:01.108332	346.2	25.2	-65.1	9.1
2026-01-11 11:22:03.354344	346.1	24.8	-64.7	8.6
2026-01-11 11:22:05.598355	346.1	24.5	-65.3	10.0
2026-01-11 11:22:07.842405	346.1	24.1	-65.6	10.0
2026-01-11 11:22:10.085935	346.0	23.8	-65.9	11.1
2026-01-11 11:22:12.329479	346.0	23.4	-65.7	10.6
2026-01-11 11:22:14.573995	345.9	23.1	-65.7	10.8
2026-01-11 11:22:16.818502	345.9	22.8	-65.5	9.4
2026-01-11 11:22:19.062542	345.9	22.5	-65.9	9.4
2026-01-11 11:22:21.308571	345.8	22.1	-65.4	9.2
2026-01-11 11:22:23.552630	345.8	21.8	-65.5	9.5
2026-01-11 11:22:25.797641	345.8	21.5	-64.3	7.0
2026-01-11 11:22:28.042181	345.7	21.2	-64.6	7.9
2026-01-11 11:22:30.286200	345.7	20.9	-64.6	7.4
2026-01-11 11:22:32.530240	345.7	20.6	-64.4	8.4
2026-01-11 11:22:34.774756	345.6	20.3	-64.4	7.5
2026-01-11 11:22:37.020768	345.6	20.0	-64.8	8.9
2026-01-11 11:22:39.264809	345.6	19.7	-65.3	7.6
2026-01-11 11:22:41.507829	345.5	19.4	-64.6	8.3
2026-01-11 11:22:43.751869	345.5	19.1	-64.1	7.1
2026-01-11 11:22:45.995881	345.5	18.9	-64.0	7.6
2026-01-11 11:22:48.239925	345.5	18.6	-64.8	8.2
2026-01-11 11:22:50.484431	345.4	18.3	-64.0	6.0
2026-01-11 11:22:52.728938	345.4	18.0	-65.3	7.7
2026-01-11 11:22:54.972989	345.4	17.8	-64.7	7.1
2026-01-11 11:22:57.217496	345.4	17.5	-65.7	8.9
2026-01-11 11:22:59.462003	345.3	17.2	-65.3	8.8
2026-01-11 11:23:01.705550	345.3	17.0	-64.7	7.6
2026-01-11 11:23:03.949569	345.3	16.7	-64.6	7.3
2026-01-11 11:23:06.193610	345.3	16.5	-64.3	6.5
2026-01-11 11:23:08.437622	345.2	16.2	-64.8	7.4
2026-01-11 11:23:10.681640	345.2	16.0	-65.0	7.7
2026-01-11 11:23:12.924194	345.2	15.7	-64.2	7.1
2026-01-11 11:23:15.168709	345.2	15.5	-64.9	6.9
2026-01-11 11:23:17.412750	345.2	15.2	-65.2	6.1
2026-01-11 11:23:19.657257	345.1	15.0	-65.0	5.0
2026-01-11 11:23:21.905781	345.1	14.7	-64.5	5.5
2026-01-11 11:23:24.149821	345.1	14.5	-64.9	5.9
2026-01-11 11:23:26.394328	345.1	14.3	-64.1	5.9
2026-01-11 11:23:28.637874	345.1	14.0	-63.7	5.1
2026-01-11 11:23:30.884893	345.1	13.8	-64.0	6.0
2026-01-11 11:23:33.129401	345.0	13.6	-64.3	5.8
2026-01-11 11:23:35.373440	345.0	13.4	-64.6	6.2
2026-01-11 11:23:37.617947	345.0	13.1	-65.1	7.4
2026-01-11 11:23:39.861493	345.0	12.9	-64.5	6.1
2026-01-11 11:23:42.106009	345.0	12.7	-64.2	5.9
2026-01-11 11:23:44.382028	345.0	12.5	-64.4	5.9
2026-01-11 11:23:46.626572	345.0	12.3	-64.7	6.6
2026-01-11 11:23:48.870613	344.9	12.1	-64.0	4.0
2026-01-11 11:23:51.114129	344.9	11.9	-64.3	5.6
2026-01-11 11:23:53.357170	344.9	11.6	-62.1	2.8
2026-01-11 11:23:55.600694	344.9	11.4	-64.3	6.6
2026-01-11 11:23:57.844260	344.9	11.2	-64.0	5.8
2026-01-11 11:24:00.088822	344.9	11.0	-63.8	5.7
2026-01-11 11:24:02.332833	344.9	10.8	-63.9	5.0
2026-01-11 11:24:04.576412	344.9	10.6	-63.8	4.6
2026-01-11 11:24:06.819927	344.8	10.4	-64.2	2.9
2026-01-11 11:24:09.063946	344.8	10.2	-63.7	4.5
2026-01-11 11:24:11.307483	344.8	10.0	-64.9	4.8
2026-01-11 11:24:13.551494	344.8	9.8	-65.1	4.3
2026-01-11 11:24:15.795514	344.8	9.6	-64.2	4.0
2026-01-11 11:24:18.041579	344.8	9.5	-64.2	4.9
2026-01-11 11:24:20.285590	344.8	9.3	-64.2	3.8
2026-01-11 11:24:22.530136	344.8	9.1	-63.8	4.2
2026-01-11 11:24:24.774147	344.8	8.9	-64.1	4.2
2026-01-11 11:24:27.023207	344.7	8.7	-63.7	3.6
2026-01-11 11:24:29.268219	344.7	8.5	-63.2	4.0
2026-01-11 11:24:31.515742	344.7	8.3	-63.5	1.7
2026-01-11 11:24:33.759296	344.7	8.2	-64.1	2.7
2026-01-11 11:24:36.002873	344.7	8.0	-61.8	0.6
2026-01-11 11:24:38.246388	344.7	7.8	-64.6	4.8
2026-01-11 11:24:40.491400	344.7	7.6	-64.7	4.8
2026-01-11 11:24:42.739918	344.7	7.4	-64.3	3.8
2026-01-11 11:24:44.984929	344.7	7.3	-63.8	2.5
2026-01-11 11:24:47.227949	344.7	7.1	-64.3	2.1
2026-01-11 11:24:49.471960	344.7	6.9	-64.3	1.6
2026-01-11 11:24:51.715484	344.7	6.8	-64.5	0.0
2026-01-11 11:24:53.959495	344.7	6.6	-64.7	0.5
2026-01-11 11:24:56.202517	344.7	6.4	-65.7	2.2
2026-01-11 11:24:58.450530	344.6	6.2	-65.6	3.6
2026-01-11 11:25:00.694045	344.6	6.1	-64.0	0.0
2026-01-11 11:25:02.940057	344.6	5.9	-67.1	2.2
2026-01-11 11:25:05.188069	344.6	5.8	-69.3	0.0
2026-01-11 11:25:07.433080	344.6	5.6	-69.1	0.0
2026-01-11 11:25:09.677587	344.6	5.4	-70.1	0.0
2026-01-11 11:25:11.920112	344.6	5.3	-70.2	0.0
2026-01-11 11:25:14.164628	344.6	5.1	-71.6	0.0
#Closed at: 2026-01-11 11:12:16.324580