passes_logs/2026/01/11/PlanumMoscow/PlanumMoscow__20260111_174919_METOP-C_rec.log

#Pass ID: 20260111_174919_METOP-C
#Satellite: METOP-C
#Configuration: METOP-C
#Start time: 2026-01-11 17:49:24.909434

#LorettStation: 1.0.0 05.05.2024
#Station: PlanumMoscow
#Location: 37.6253844 lon 55.6713361 lat
#TLE: 1 43689U 18087A   25293.88981035  .00000265  00000+0  14109-3 0  9997
#TLE: 2 43689  98.7006 352.4487 0002041 122.1097 238.0279 14.21482740360838

#Time	Az	El	Level	SNR
2026-01-11 17:53:03.288680	148.7	29.5	-66.2	3.8
2026-01-11 17:53:05.533751	148.5	30.0	-66.2	3.8
2026-01-11 17:53:07.778258	148.4	30.4	-66.8	3.3
2026-01-11 17:53:10.021773	148.2	30.8	-66.5	3.7
2026-01-11 17:53:12.265829	148.1	31.3	-67.1	4.3
2026-01-11 17:53:14.510343	147.9	31.7	-66.7	3.3
2026-01-11 17:53:16.754850	147.8	32.2	-66.9	3.0
2026-01-11 17:53:19.003902	147.6	32.6	-66.7	2.4
2026-01-11 17:53:21.247913	147.5	33.1	-67.2	2.9
2026-01-11 17:53:23.491955	147.3	33.6	-67.4	3.5
2026-01-11 17:53:25.736470	147.1	34.1	-67.7	5.3
2026-01-11 17:53:27.982522	146.9	34.6	-67.3	5.0
2026-01-11 17:53:30.226037	146.8	35.0	-67.0	4.8
2026-01-11 17:53:32.472545	146.6	35.6	-67.8	4.6
2026-01-11 17:53:34.717051	146.4	36.1	-67.0	5.4
2026-01-11 17:53:36.961063	146.2	36.6	-67.2	4.7
2026-01-11 17:53:39.205586	146.0	37.1	-67.3	3.5
2026-01-11 17:53:41.449644	145.7	37.7	-67.6	4.5
2026-01-11 17:53:43.692166	145.5	38.2	-68.2	5.2
2026-01-11 17:53:45.934729	145.3	38.8	-68.1	4.1
2026-01-11 17:53:48.179253	145.0	39.3	-68.6	4.3
2026-01-11 17:53:50.423311	144.8	39.9	-68.4	2.8
2026-01-11 17:53:52.666365	144.5	40.5	-69.0	3.2
2026-01-11 17:53:54.909880	144.3	41.1	-68.5	2.9
2026-01-11 17:53:57.152411	144.0	41.6	-68.3	2.4
2026-01-11 17:53:59.395429	143.7	42.3	-68.6	2.8
2026-01-11 17:54:01.637499	143.4	42.9	-69.1	2.8
2026-01-11 17:54:03.879535	143.1	43.5	-68.9	0.0
2026-01-11 17:54:06.126094	142.7	44.1	-68.5	0.1
2026-01-11 17:54:08.367166	142.4	44.8	-69.2	0.8
2026-01-11 17:54:10.610745	142.0	45.4	-68.6	0.0
2026-01-11 17:54:12.854763	141.7	46.1	-69.2	0.0
2026-01-11 17:54:15.096807	141.3	46.8	-69.7	0.0
2026-01-11 17:54:17.340348	140.9	47.4	-70.1	0.0
2026-01-11 17:54:19.583405	140.5	48.1	-69.4	0.0
2026-01-11 17:54:21.826426	140.0	48.8	-69.8	0.0
2026-01-11 17:54:24.068948	139.5	49.5	-69.4	0.0
2026-01-11 17:54:26.313455	139.1	50.3	-68.5	0.0
2026-01-11 17:54:28.558467	138.5	51.0	-69.6	0.0
2026-01-11 17:54:30.800991	138.0	51.7	-68.6	0.0
2026-01-11 17:54:33.051004	137.4	52.5	-69.1	0.0
2026-01-11 17:54:35.295015	136.9	53.2	-68.3	0.0
2026-01-11 17:54:37.538540	136.2	54.0	-69.0	0.0
2026-01-11 17:54:39.781066	135.6	54.7	-70.0	0.0
2026-01-11 17:54:42.025573	134.9	55.5	-69.2	0.0
2026-01-11 17:54:44.270585	134.1	56.3	-68.9	0.0
2026-01-11 17:54:46.514101	133.4	57.1	-68.8	0.0
2026-01-11 17:54:48.756634	132.5	57.9	-69.0	0.0
2026-01-11 17:54:51.000157	131.6	58.7	-69.3	0.0
2026-01-11 17:54:53.243673	130.7	59.5	-69.6	0.0
2026-01-11 17:54:55.485701	129.7	60.3	-69.0	0.0
2026-01-11 17:54:57.728225	128.7	61.1	-69.2	0.0
2026-01-11 17:54:59.973751	127.5	61.9	-69.0	0.0
2026-01-11 17:55:02.217763	126.3	62.7	-69.7	0.0
2026-01-11 17:55:04.461278	125.0	63.5	-69.5	0.0
2026-01-11 17:55:06.704298	123.6	64.3	-69.1	0.0
2026-01-11 17:55:08.948309	122.2	65.1	-68.7	0.0
2026-01-11 17:55:11.191825	120.6	65.9	-68.8	0.0
2026-01-11 17:55:13.435341	118.9	66.7	-69.2	0.0
2026-01-11 17:55:15.680847	117.0	67.4	-69.4	0.0
2026-01-11 17:55:17.923868	115.0	68.2	-69.1	0.0
2026-01-11 17:55:20.168889	112.9	68.9	-69.0	1.0
2026-01-11 17:55:22.412404	110.6	69.6	-67.9	0.0
2026-01-11 17:55:24.656415	108.1	70.3	-68.5	0.0
2026-01-11 17:55:26.899931	105.5	70.9	-67.4	0.0
2026-01-11 17:55:29.141959	102.7	71.6	-69.7	0.0
2026-01-11 17:55:31.384989	99.6	72.1	-69.1	0.0
2026-01-11 17:55:33.628505	96.4	72.6	-68.4	0.0
2026-01-11 17:55:35.871030	92.9	73.1	-68.5	0.1
2026-01-11 17:55:38.115041	89.3	73.5	-67.8	0.0
2026-01-11 17:55:40.359061	85.5	73.8	-68.8	0.0
2026-01-11 17:55:42.603568	81.6	74.1	-68.8	0.3
2026-01-11 17:55:44.847579	77.5	74.3	-68.3	0.6
2026-01-11 17:55:47.091094	73.3	74.4	-69.0	0.9
2026-01-11 17:55:49.333123	69.2	74.4	-69.6	0.6
2026-01-11 17:55:51.576637	65.0	74.4	-69.3	0.6
2026-01-11 17:55:53.820153	60.8	74.3	-69.4	1.1
2026-01-11 17:55:56.063173	56.8	74.1	-68.7	0.0
2026-01-11 17:55:58.306192	52.9	73.8	-70.1	2.1
2026-01-11 17:56:00.549745	49.1	73.4	-68.8	1.6
2026-01-11 17:56:02.792270	45.5	73.0	-69.3	2.0
2026-01-11 17:56:05.035785	42.1	72.5	-68.1	1.7
2026-01-11 17:56:07.280292	38.9	72.0	-68.9	0.3
2026-01-11 17:56:09.523807	35.9	71.5	-68.4	1.5
2026-01-11 17:56:11.767818	33.1	70.8	-68.6	0.8
2026-01-11 17:56:14.011830	30.5	70.2	-68.1	0.0
2026-01-11 17:56:16.256345	28.0	69.5	-68.5	0.5
2026-01-11 17:56:18.503862	25.8	68.8	-68.0	0.0
2026-01-11 17:56:20.748369	23.7	68.1	-68.1	0.4
2026-01-11 17:56:22.991388	21.7	67.3	-68.2	0.3
2026-01-11 17:56:25.234903	19.9	66.6	-68.3	0.0
2026-01-11 17:56:27.478418	18.2	65.8	-69.0	0.0
2026-01-11 17:56:29.722429	16.6	65.0	-68.1	0.0
2026-01-11 17:56:31.966936	15.2	64.2	-67.9	0.0
2026-01-11 17:56:34.210452	13.8	63.4	-68.2	1.4
2026-01-11 17:56:36.452480	12.5	62.6	-67.6	0.0
2026-01-11 17:56:38.695500	11.4	61.8	-68.3	0.1
2026-01-11 17:56:40.938024	10.2	61.0	-67.3	0.0
2026-01-11 17:56:43.182035	9.2	60.2	-67.0	0.0
2026-01-11 17:56:45.425054	8.2	59.4	-67.0	0.0
2026-01-11 17:56:47.669569	7.3	58.6	-67.3	0.4
2026-01-11 17:56:49.912590	6.4	57.8	-67.2	0.0
2026-01-11 17:56:52.155627	5.6	57.0	-67.0	0.0
2026-01-11 17:56:54.399157	4.8	56.2	-67.1	0.0
2026-01-11 17:56:56.641682	4.1	55.4	-68.5	0.0
2026-01-11 17:56:58.885692	3.4	54.7	-67.3	0.0
2026-01-11 17:57:01.129207	2.8	53.9	-66.3	0.0
2026-01-11 17:57:03.372723	2.1	53.1	-67.0	0.0
2026-01-11 17:57:05.615742	1.6	52.4	-66.5	0.0
2026-01-11 17:57:07.859258	1.0	51.6	-66.2	0.0
2026-01-11 17:57:10.103765	0.5	50.9	-66.6	0.0
2026-01-11 17:57:12.347776	360.0	50.2	-66.4	0.0
2026-01-11 17:57:14.590795	359.5	49.5	-67.2	1.2
2026-01-11 17:57:16.833817	359.0	48.8	-66.6	0.0
2026-01-11 17:57:19.076837	358.6	48.1	-66.4	0.0
2026-01-11 17:57:21.321353	358.2	47.4	-66.6	0.4
2026-01-11 17:57:23.564877	357.8	46.7	-66.3	0.5
2026-01-11 17:57:25.809384	357.4	46.0	-66.4	0.0
2026-01-11 17:57:28.053395	357.0	45.4	-66.6	1.9
2026-01-11 17:57:30.296415	356.7	44.7	-66.1	2.7
2026-01-11 17:57:32.540922	356.3	44.1	-66.3	2.9
2026-01-11 17:57:34.785437	356.0	43.5	-66.6	3.3
2026-01-11 17:57:37.029944	355.7	42.8	-66.7	2.8
2026-01-11 17:57:39.274459	355.4	42.2	-66.3	4.1
2026-01-11 17:57:41.518966	355.1	41.6	-65.3	6.1
2026-01-11 17:57:43.762977	354.8	41.0	-66.7	6.0
2026-01-11 17:57:46.005503	354.6	40.5	-66.0	5.1
2026-01-11 17:57:48.248539	354.3	39.9	-66.1	4.9
2026-01-11 17:57:50.492056	354.0	39.3	-65.0	5.1
2026-01-11 17:57:52.736563	353.8	38.8	-66.3	6.5
2026-01-11 17:57:54.980078	353.6	38.2	-66.0	6.4
2026-01-11 17:57:57.224089	353.4	37.7	-65.2	5.2
2026-01-11 17:57:59.466117	353.1	37.1	-66.1	6.6
2026-01-11 17:58:01.709632	352.9	36.6	-66.1	6.7
2026-01-11 17:58:03.953148	352.7	36.1	-65.6	6.6
2026-01-11 17:58:06.195672	352.5	35.6	-65.3	6.4
2026-01-11 17:58:08.440179	352.3	35.1	-65.5	7.2
2026-01-11 17:58:10.687696	352.2	34.6	-66.2	8.4
2026-01-11 17:58:12.931717	352.0	34.1	-65.7	7.1
2026-01-11 17:58:15.175728	351.8	33.6	-65.6	7.8
2026-01-11 17:58:17.418251	351.6	33.1	-65.3	8.0
2026-01-11 17:58:19.662262	351.5	32.7	-65.9	5.6
2026-01-11 17:58:21.905777	351.3	32.2	-65.3	4.9
2026-01-11 17:58:24.148797	351.2	31.8	-64.5	4.9
2026-01-11 17:58:26.392816	351.0	31.3	-64.6	4.5
2026-01-11 17:58:28.636828	350.9	30.9	-65.3	6.3
2026-01-11 17:58:30.881839	350.7	30.5	-65.7	6.3
2026-01-11 17:58:33.128860	350.6	30.0	-64.1	5.2
2026-01-11 17:58:35.372385	350.5	29.6	-64.8	5.3
2026-01-11 17:58:37.615404	350.3	29.2	-65.6	7.4
2026-01-11 17:58:39.857434	350.2	28.8	-64.8	6.3
2026-01-11 17:58:42.102456	350.1	28.4	-64.7	6.9
2026-01-11 17:58:44.346467	350.0	28.0	-64.1	6.0
2026-01-11 17:58:46.590478	349.9	27.6	-66.1	5.5
2026-01-11 17:58:48.833002	349.7	27.2	-64.1	4.4
2026-01-11 17:58:51.077013	349.6	26.8	-65.2	3.8
2026-01-11 17:58:53.319537	349.5	26.5	-63.2	3.4
2026-01-11 17:58:55.563548	349.4	26.1	-64.1	2.6
2026-01-11 17:58:57.807063	349.3	25.7	-64.7	3.6
2026-01-11 17:59:00.051075	349.2	25.4	-64.9	4.2
2026-01-11 17:59:02.295590	349.1	25.0	-64.6	3.6
2026-01-11 17:59:04.538610	349.0	24.7	-64.7	2.8
2026-01-11 17:59:06.781637	348.9	24.3	-63.7	3.6
2026-01-11 17:59:09.025153	348.8	24.0	-63.8	2.2
2026-01-11 17:59:11.268190	348.8	23.6	-65.0	3.0
2026-01-11 17:59:13.512697	348.7	23.3	-63.4	2.1
2026-01-11 17:59:15.756708	348.6	23.0	-64.3	2.3
2026-01-11 17:59:18.000719	348.5	22.6	-63.4	1.7
2026-01-11 17:59:20.243739	348.4	22.3	-63.6	1.7
2026-01-11 17:59:22.485767	348.3	22.0	-63.8	0.9
2026-01-11 17:59:24.729778	348.3	21.7	-64.6	0.0
2026-01-11 17:59:26.973798	348.2	21.4	-64.1	1.2
2026-01-11 17:59:29.216321	348.1	21.1	-64.2	0.4
2026-01-11 17:59:31.460828	348.0	20.8	-64.7	0.5
2026-01-11 17:59:33.705840	348.0	20.5	-63.4	1.0
2026-01-11 17:59:35.950347	347.9	20.2	-63.8	1.9
2026-01-11 17:59:38.194357	347.8	19.9	-64.2	0.1
2026-01-11 17:59:40.437872	347.8	19.6	-63.7	0.0
2026-01-11 17:59:42.680891	347.7	19.3	-62.9	0.0
2026-01-11 17:59:44.928903	347.7	19.0	-64.7	0.5
2026-01-11 17:59:47.171923	347.6	18.7	-64.2	0.0
2026-01-11 17:59:49.413953	347.5	18.5	-63.6	0.0
2026-01-11 17:59:51.655980	347.5	18.2	-64.4	0.6
2026-01-11 17:59:53.901992	347.4	17.9	-63.6	0.0
2026-01-11 17:59:56.145515	347.4	17.7	-63.6	0.4
2026-01-11 17:59:58.389039	347.3	17.4	-64.4	0.4
2026-01-11 18:00:00.632564	347.2	17.1	-64.2	0.0
2026-01-11 18:00:02.876575	347.2	16.9	-65.0	0.0
2026-01-11 18:00:05.120587	347.1	16.6	-64.2	1.2
2026-01-11 18:00:07.363645	347.1	16.4	-63.8	0.0
2026-01-11 18:00:09.610180	347.0	16.1	-63.2	0.0
2026-01-11 18:00:11.853754	347.0	15.9	-64.0	0.9
2026-01-11 18:00:14.097278	346.9	15.6	-63.8	0.0
2026-01-11 18:00:16.339316	346.9	15.4	-64.0	0.0
2026-01-11 18:00:18.582384	346.8	15.1	-63.5	1.9
2026-01-11 18:00:20.825908	346.8	14.9	-63.1	0.0
2026-01-11 18:00:23.068968	346.8	14.7	-63.7	1.6
2026-01-11 18:00:25.312524	346.7	14.4	-63.0	2.2
2026-01-11 18:00:27.560536	346.7	14.2	-63.7	2.7
2026-01-11 18:00:29.803555	346.6	14.0	-63.9	1.9
2026-01-11 18:00:32.046112	346.6	13.8	-63.8	2.9
2026-01-11 18:00:34.290130	346.5	13.5	-64.3	1.6
2026-01-11 18:00:36.534181	346.5	13.3	-62.2	0.0
2026-01-11 18:00:38.777240	346.5	13.1	-63.6	0.0
2026-01-11 18:00:41.020764	346.4	12.9	-63.7	0.0
2026-01-11 18:00:43.265310	346.4	12.6	-63.7	1.5
2026-01-11 18:00:45.508826	346.3	12.4	-63.5	1.8
2026-01-11 18:00:47.752878	346.3	12.2	-63.6	0.0
2026-01-11 18:00:49.996890	346.3	12.0	-64.1	0.0
2026-01-11 18:00:52.241976	346.2	11.8	-64.2	0.2
2026-01-11 18:00:54.484014	346.2	11.6	-64.3	0.0
2026-01-11 18:00:56.728025	346.2	11.4	-64.5	0.4
2026-01-11 18:00:58.969587	346.1	11.2	-64.0	0.0
2026-01-11 18:01:01.213605	346.1	11.0	-62.5	0.0
2026-01-11 18:01:03.456657	346.1	10.8	-63.7	0.1
2026-01-11 18:01:05.700668	346.0	10.6	-63.0	0.0
2026-01-11 18:01:07.943238	346.0	10.4	-64.0	0.0
2026-01-11 18:01:10.185267	346.0	10.2	-63.1	0.0
2026-01-11 18:01:12.429286	345.9	10.0	-64.3	0.1
2026-01-11 18:01:14.673849	345.9	9.8	-64.6	0.1
2026-01-11 18:01:16.917868	345.9	9.6	-63.8	0.0
2026-01-11 18:01:19.160432	345.9	9.4	-64.5	0.0
2026-01-11 18:01:21.403980	345.8	9.2	-63.7	0.0
2026-01-11 18:01:23.645571	345.8	9.0	-64.4	0.0
2026-01-11 18:01:25.891601	345.8	8.9	-64.4	0.0
2026-01-11 18:01:28.135612	345.8	8.7	-64.2	0.0
2026-01-11 18:01:30.379175	345.7	8.5	-64.3	0.0
2026-01-11 18:01:32.622709	345.7	8.3	-64.5	0.0
2026-01-11 18:01:34.866295	345.7	8.1	-63.9	0.0
2026-01-11 18:01:37.110324	345.7	7.9	-64.0	0.0
2026-01-11 18:01:39.353385	345.6	7.8	-63.8	0.0
2026-01-11 18:01:41.599404	345.6	7.6	-63.9	0.9
2026-01-11 18:01:43.842475	345.6	7.4	-64.9	0.0
2026-01-11 18:01:46.085016	345.6	7.2	-63.9	0.0
2026-01-11 18:01:48.334037	345.5	7.1	-64.1	0.0
2026-01-11 18:01:50.577094	345.5	6.9	-63.5	0.2
2026-01-11 18:01:52.820114	345.5	6.7	-63.9	1.1
2026-01-11 18:01:55.065637	345.5	6.6	-63.7	0.4
2026-01-11 18:01:57.312163	345.4	6.4	-64.2	0.5
2026-01-11 18:01:59.555717	345.4	6.2	-64.3	1.0
2026-01-11 18:02:01.799242	345.4	6.0	-62.9	0.0
2026-01-11 18:02:04.041812	345.4	5.9	-64.1	0.0
2026-01-11 18:02:06.288841	345.4	5.7	-65.0	8.7
2026-01-11 18:02:08.531364	345.3	5.6	-65.4	2.5
2026-01-11 18:02:10.774433	345.3	5.4	-66.0	0.0
2026-01-11 18:02:13.016965	345.3	5.2	-63.6	0.0
2026-01-11 18:02:15.259520	345.3	5.1	-64.3	0.0
#Closed at: 2026-01-11 17:49:19.910753