passes_logs/2026/01/11/PlanumMoscow/PlanumMoscow__20260111_070026_METEOR-M2_3_rec.log

#Pass ID: 20260111_070026_METEOR-M2 3
#Satellite: METEOR-M2 3
#Configuration: METEOR-M2 3
#Start time: 2026-01-11 07:00:31.989517

#LorettStation: 1.0.0 05.05.2024
#Station: PlanumMoscow
#Location: 37.6253844 lon 55.6713361 lat
#TLE: 1 57166U 23091A   25293.99389264  .00000062  00000+0  46113-4 0  9997
#TLE: 2 57166  98.6457 348.4330 0004759 135.3141 224.8422 14.24016546120475

#Time	Az	El	Level	SNR
2026-01-11 07:04:10.407826	32.5	28.1	-65.1	12.4
2026-01-11 07:04:12.651341	32.8	28.4	-64.9	12.1
2026-01-11 07:04:14.894857	33.1	28.8	-65.7	11.6
2026-01-11 07:04:17.140364	33.4	29.2	-65.6	13.1
2026-01-11 07:04:19.383879	33.7	29.6	-64.3	10.0
2026-01-11 07:04:21.627891	34.0	30.0	-65.5	12.9
2026-01-11 07:04:23.871903	34.3	30.4	-64.7	10.8
2026-01-11 07:04:26.115418	34.6	30.8	-64.5	11.3
2026-01-11 07:04:28.363926	35.0	31.2	-64.5	11.3
2026-01-11 07:04:30.607441	35.3	31.6	-64.1	10.8
2026-01-11 07:04:32.851947	35.6	32.0	-65.0	11.9
2026-01-11 07:04:35.095966	36.0	32.4	-63.8	11.5
2026-01-11 07:04:37.341482	36.4	32.9	-63.2	9.9
2026-01-11 07:04:39.584502	36.7	33.3	-63.1	8.3
2026-01-11 07:04:41.829009	37.1	33.7	-63.4	8.6
2026-01-11 07:04:44.072525	37.5	34.2	-63.8	10.8
2026-01-11 07:04:46.316040	37.9	34.6	-63.9	10.9
2026-01-11 07:04:48.559555	38.3	35.1	-63.3	8.6
2026-01-11 07:04:50.803566	38.8	35.5	-63.5	10.0
2026-01-11 07:04:53.047081	39.2	36.0	-63.2	8.4
2026-01-11 07:04:55.289605	39.7	36.5	-62.7	7.5
2026-01-11 07:04:57.533120	40.1	36.9	-63.1	10.9
2026-01-11 07:04:59.775643	40.6	37.4	-60.4	5.6
2026-01-11 07:05:02.019159	41.1	37.9	-62.6	9.8
2026-01-11 07:05:04.263666	41.6	38.4	-62.9	8.8
2026-01-11 07:05:06.506686	42.1	38.9	-62.8	6.4
2026-01-11 07:05:08.750201	42.7	39.4	-62.3	7.6
2026-01-11 07:05:10.994212	43.2	39.9	-60.7	6.2
2026-01-11 07:05:13.238223	43.8	40.4	-61.8	6.1
2026-01-11 07:05:15.481738	44.4	40.9	-60.9	5.0
2026-01-11 07:05:17.725252	45.0	41.4	-61.2	4.1
2026-01-11 07:05:19.967777	45.6	41.9	-62.1	7.1
2026-01-11 07:05:22.212284	46.3	42.4	-62.8	8.0
2026-01-11 07:05:24.455799	46.9	42.9	-62.1	6.3
2026-01-11 07:05:26.700836	47.6	43.5	-61.0	4.5
2026-01-11 07:05:28.944848	48.3	44.0	-59.2	0.8
2026-01-11 07:05:31.189355	49.1	44.5	-60.0	5.0
2026-01-11 07:05:33.433365	49.8	45.0	-61.6	6.9
2026-01-11 07:05:35.677393	50.6	45.6	-61.9	7.3
2026-01-11 07:05:37.919916	51.4	46.1	-62.3	7.0
2026-01-11 07:05:40.161447	52.3	46.6	-59.5	3.0
2026-01-11 07:05:42.403972	53.2	47.2	-60.3	6.2
2026-01-11 07:05:44.647000	54.1	47.7	-59.1	1.8
2026-01-11 07:05:46.891011	55.0	48.3	-61.5	2.0
2026-01-11 07:05:49.134526	56.0	48.8	-60.9	1.7
2026-01-11 07:05:51.378538	57.0	49.3	-62.1	4.3
2026-01-11 07:05:53.623053	58.0	49.8	-64.4	7.3
2026-01-11 07:05:55.866072	59.1	50.4	-61.1	2.1
2026-01-11 07:05:58.111082	60.2	50.9	-63.6	6.0
2026-01-11 07:06:00.340788	61.3	51.4	-63.9	5.9
2026-01-11 07:06:02.582815	62.5	51.9	-62.0	4.6
2026-01-11 07:06:04.826826	63.7	52.4	-61.2	1.9
2026-01-11 07:06:07.068358	65.0	52.9	-63.2	7.1
2026-01-11 07:06:09.311378	66.3	53.4	-63.9	7.2
2026-01-11 07:06:11.552910	67.6	53.8	-64.1	7.9
2026-01-11 07:06:13.796921	69.0	54.3	-62.4	4.6
2026-01-11 07:06:16.040941	70.5	54.7	-62.9	5.2
2026-01-11 07:06:18.283463	72.0	55.2	-64.6	7.2
2026-01-11 07:06:20.527474	73.5	55.6	-63.5	6.2
2026-01-11 07:06:22.770988	75.1	56.0	-63.7	6.4
2026-01-11 07:06:25.014514	76.7	56.3	-64.5	7.1
2026-01-11 07:06:27.258029	78.4	56.7	-65.7	7.9
2026-01-11 07:06:29.501544	80.1	57.0	-66.1	8.7
2026-01-11 07:06:31.745073	81.8	57.3	-65.2	7.5
2026-01-11 07:06:33.989084	83.6	57.6	-66.1	9.7
2026-01-11 07:06:36.233094	85.4	57.9	-65.6	7.9
2026-01-11 07:06:38.477601	87.3	58.1	-63.4	5.6
2026-01-11 07:06:40.721612	89.2	58.4	-66.3	9.6
2026-01-11 07:06:42.965632	91.1	58.5	-66.1	9.6
2026-01-11 07:06:45.210139	93.0	58.7	-66.5	8.9
2026-01-11 07:06:47.453158	95.0	58.8	-66.5	9.2
2026-01-11 07:06:49.696673	96.9	58.9	-67.2	10.1
2026-01-11 07:06:51.942684	98.9	59.0	-66.0	7.0
2026-01-11 07:06:54.185208	100.9	59.0	-67.4	9.3
2026-01-11 07:06:56.429715	102.9	59.0	-67.0	10.3
2026-01-11 07:06:58.673230	104.9	59.0	-66.9	9.4
2026-01-11 07:07:00.916745	106.9	58.9	-67.7	10.2
2026-01-11 07:07:03.160756	108.9	58.8	-67.4	10.5
2026-01-11 07:07:05.404767	110.8	58.7	-67.6	10.4
2026-01-11 07:07:07.653275	112.8	58.5	-67.1	9.8
2026-01-11 07:07:09.896799	114.7	58.3	-67.1	10.9
2026-01-11 07:07:12.140810	116.6	58.1	-66.7	10.5
2026-01-11 07:07:14.384822	118.4	57.9	-66.8	12.4
2026-01-11 07:07:16.631834	120.3	57.6	-67.2	12.2
2026-01-11 07:07:18.875844	122.0	57.3	-66.9	12.4
2026-01-11 07:07:21.120359	123.8	57.0	-67.5	11.5
2026-01-11 07:07:23.364386	125.5	56.7	-67.4	11.7
2026-01-11 07:07:25.608910	127.2	56.3	-67.3	12.3
2026-01-11 07:07:27.853417	128.8	55.9	-67.8	12.2
2026-01-11 07:07:30.097437	130.3	55.5	-68.0	11.5
2026-01-11 07:07:32.340456	131.9	55.1	-67.9	12.3
2026-01-11 07:07:34.584962	133.4	54.7	-68.4	12.3
2026-01-11 07:07:36.828974	134.8	54.2	-68.0	12.6
2026-01-11 07:07:39.072984	136.2	53.8	-67.8	12.6
2026-01-11 07:07:41.320996	137.6	53.3	-67.8	13.1
2026-01-11 07:07:43.564016	138.9	52.8	-68.2	12.9
2026-01-11 07:07:45.806542	140.1	52.3	-68.1	13.9
2026-01-11 07:07:48.049067	141.3	51.8	-68.0	13.3
2026-01-11 07:07:50.293574	142.5	51.3	-67.5	13.4
2026-01-11 07:07:52.536097	143.7	50.8	-68.1	13.5
2026-01-11 07:07:54.779116	144.8	50.3	-67.8	13.5
2026-01-11 07:07:57.022135	145.8	49.7	-68.3	14.8
2026-01-11 07:07:59.265650	146.9	49.2	-68.2	15.1
2026-01-11 07:08:01.509662	147.9	48.7	-68.3	14.3
2026-01-11 07:08:03.752690	148.8	48.1	-68.3	14.2
2026-01-11 07:08:05.994718	149.8	47.6	-68.3	15.1
2026-01-11 07:08:08.238232	150.7	47.1	-68.0	14.9
2026-01-11 07:08:10.481748	151.5	46.5	-67.7	15.0
2026-01-11 07:08:12.725263	152.4	46.0	-67.7	15.7
2026-01-11 07:08:14.969285	153.2	45.5	-67.5	15.5
2026-01-11 07:08:17.213791	154.0	44.9	-67.3	15.4
2026-01-11 07:08:19.456812	154.7	44.4	-67.7	15.5
2026-01-11 07:08:21.699334	155.5	43.9	-67.3	15.2
2026-01-11 07:08:23.943841	156.2	43.3	-67.4	15.6
2026-01-11 07:08:26.187365	156.9	42.8	-67.4	16.0
2026-01-11 07:08:28.432882	157.6	42.3	-67.7	15.0
2026-01-11 07:08:30.681895	158.2	41.8	-67.6	15.5
2026-01-11 07:08:32.925410	158.8	41.2	-67.6	15.4
2026-01-11 07:08:35.168925	159.4	40.7	-67.5	15.4
2026-01-11 07:08:37.415432	160.0	40.2	-67.3	15.0
2026-01-11 07:08:39.659443	160.6	39.7	-66.9	14.8
2026-01-11 07:08:41.902958	161.1	39.2	-66.7	14.6
2026-01-11 07:08:44.146472	161.7	38.7	-67.2	15.9
2026-01-11 07:08:46.389490	162.2	38.2	-67.0	15.6
2026-01-11 07:08:48.632013	162.7	37.7	-67.0	16.1
2026-01-11 07:08:50.875528	163.2	37.2	-66.4	14.9
2026-01-11 07:08:53.119548	163.7	36.8	-66.5	14.6
2026-01-11 07:08:55.365569	164.1	36.3	-66.6	15.4
2026-01-11 07:08:57.609084	164.6	35.8	-66.6	16.0
2026-01-11 07:08:59.853094	165.0	35.4	-66.5	15.4
2026-01-11 07:09:02.096113	165.5	34.9	-66.8	15.5
2026-01-11 07:09:04.344134	165.9	34.4	-66.4	15.5
2026-01-11 07:09:06.588145	166.3	34.0	-66.1	14.7
2026-01-11 07:09:08.832652	166.7	33.6	-66.5	15.4
2026-01-11 07:09:11.076185	167.1	33.1	-66.7	15.2
2026-01-11 07:09:13.319700	167.4	32.7	-66.2	15.9
2026-01-11 07:09:15.563711	167.8	32.3	-66.4	15.6
2026-01-11 07:09:17.807730	168.1	31.8	-66.5	15.7
2026-01-11 07:09:20.053742	168.5	31.4	-66.7	15.1
2026-01-11 07:09:22.298762	168.8	31.0	-66.6	14.8
2026-01-11 07:09:24.540790	169.2	30.6	-66.5	15.6
2026-01-11 07:09:26.783314	169.5	30.2	-66.1	15.0
2026-01-11 07:09:29.025341	169.8	29.8	-66.7	15.1
2026-01-11 07:09:31.268857	170.1	29.4	-66.5	15.9
2026-01-11 07:09:33.512372	170.4	29.0	-65.9	14.4
2026-01-11 07:09:35.755887	170.7	28.6	-66.7	15.1
2026-01-11 07:09:37.998908	171.0	28.2	-66.3	15.5
2026-01-11 07:09:40.243414	171.2	27.8	-66.5	15.3
2026-01-11 07:09:42.487426	171.5	27.5	-66.1	15.1
2026-01-11 07:09:44.730942	171.8	27.1	-66.8	16.1
2026-01-11 07:09:46.973466	172.0	26.7	-66.7	15.1
2026-01-11 07:09:49.217477	172.3	26.4	-66.5	16.0
2026-01-11 07:09:51.461983	172.5	26.0	-66.6	15.6
2026-01-11 07:09:53.705508	172.8	25.7	-66.6	15.0
2026-01-11 07:09:55.949519	173.0	25.3	-66.4	14.9
2026-01-11 07:09:58.193032	173.3	25.0	-66.4	15.9
2026-01-11 07:10:00.437043	173.5	24.7	-66.3	13.1
2026-01-11 07:10:02.682062	173.7	24.3	-66.5	14.8
2026-01-11 07:10:04.926074	173.9	24.0	-66.2	15.2
2026-01-11 07:10:07.170085	174.2	23.7	-66.4	15.4
2026-01-11 07:10:09.413105	174.4	23.3	-66.6	15.3
2026-01-11 07:10:11.657620	174.6	23.0	-66.4	15.8
2026-01-11 07:10:13.900639	174.8	22.7	-66.5	15.3
2026-01-11 07:10:16.144156	175.0	22.4	-66.6	15.1
2026-01-11 07:10:18.391673	175.2	22.1	-66.4	15.1
2026-01-11 07:10:20.635199	175.4	21.8	-66.4	14.6
2026-01-11 07:10:22.877225	175.5	21.5	-66.5	14.3
2026-01-11 07:10:25.120740	175.7	21.2	-66.3	13.5
2026-01-11 07:10:27.364751	175.9	20.9	-66.8	14.0
2026-01-11 07:10:29.608762	176.1	20.6	-66.9	14.5
2026-01-11 07:10:31.851782	176.3	20.3	-66.1	12.9
2026-01-11 07:10:34.095297	176.4	20.0	-65.8	12.7
2026-01-11 07:10:36.338812	176.6	19.7	-66.1	13.1
2026-01-11 07:10:38.583318	176.8	19.4	-65.3	13.1
2026-01-11 07:10:40.825843	176.9	19.2	-65.8	13.4
2026-01-11 07:10:43.069854	177.1	18.9	-65.6	12.5
2026-01-11 07:10:45.312387	177.2	18.6	-66.2	12.3
2026-01-11 07:10:47.556398	177.4	18.3	-66.1	13.5
2026-01-11 07:10:49.799417	177.5	18.1	-66.1	13.2
2026-01-11 07:10:52.043429	177.7	17.8	-66.0	13.8
2026-01-11 07:10:54.287936	177.8	17.6	-66.1	13.5
2026-01-11 07:10:56.531947	178.0	17.3	-66.3	13.7
2026-01-11 07:10:58.775463	178.1	17.0	-66.2	12.8
2026-01-11 07:11:01.017988	178.3	16.8	-66.3	13.0
2026-01-11 07:11:03.261504	178.4	16.5	-66.2	13.1
2026-01-11 07:11:05.506020	178.5	16.3	-66.1	12.9
2026-01-11 07:11:07.750040	178.7	16.0	-66.4	13.3
2026-01-11 07:11:09.993060	178.8	15.8	-65.9	12.7
2026-01-11 07:11:12.236575	178.9	15.6	-66.4	12.8
2026-01-11 07:11:14.481605	179.1	15.3	-66.4	12.2
2026-01-11 07:11:16.725615	179.2	15.1	-66.7	12.6
2026-01-11 07:11:18.969626	179.3	14.8	-66.4	12.3
2026-01-11 07:11:21.213637	179.4	14.6	-66.0	11.2
2026-01-11 07:11:23.458154	179.6	14.4	-65.9	10.2
2026-01-11 07:11:25.701669	179.7	14.2	-66.4	12.0
2026-01-11 07:11:27.946184	179.8	13.9	-66.3	10.4
2026-01-11 07:11:30.193735	179.9	13.7	-66.3	10.0
2026-01-11 07:11:32.437746	180.0	13.5	-65.9	10.2
2026-01-11 07:11:34.681756	180.1	13.3	-65.1	9.6
2026-01-11 07:11:36.924280	180.2	13.0	-65.9	10.7
2026-01-11 07:11:39.168291	180.3	12.8	-65.9	9.9
2026-01-11 07:11:41.412302	180.5	12.6	-65.5	9.9
2026-01-11 07:11:43.656313	180.6	12.4	-65.7	8.6
2026-01-11 07:11:45.898837	180.7	12.2	-66.1	10.0
2026-01-11 07:11:48.142352	180.8	12.0	-66.1	10.6
2026-01-11 07:11:50.384380	180.9	11.8	-65.8	10.3
2026-01-11 07:11:52.628409	181.0	11.6	-65.3	8.4
2026-01-11 07:11:54.872429	181.1	11.4	-65.4	8.7
2026-01-11 07:11:57.116440	181.2	11.2	-65.9	9.9
2026-01-11 07:11:59.360452	181.3	11.0	-66.2	11.2
2026-01-11 07:12:01.604967	181.4	10.8	-65.9	10.3
2026-01-11 07:12:03.848483	181.5	10.6	-65.6	10.0
2026-01-11 07:12:06.092990	181.5	10.4	-66.0	9.6
2026-01-11 07:12:08.336018	181.6	10.2	-65.9	9.5
2026-01-11 07:12:10.579037	181.7	10.0	-65.3	8.0
2026-01-11 07:12:12.823048	181.8	9.8	-65.1	8.3
2026-01-11 07:12:15.067059	181.9	9.6	-65.8	6.9
2026-01-11 07:12:17.314589	182.0	9.4	-65.8	9.5
2026-01-11 07:12:19.557629	182.1	9.2	-66.2	8.6
2026-01-11 07:12:21.799161	182.2	9.0	-65.9	9.0
2026-01-11 07:12:24.043668	182.2	8.8	-65.8	9.2
2026-01-11 07:12:26.287183	182.3	8.7	-65.8	8.1
2026-01-11 07:12:28.531699	182.4	8.5	-66.0	8.8
2026-01-11 07:12:30.775214	182.5	8.3	-65.9	9.1
2026-01-11 07:12:33.017737	182.6	8.1	-65.4	8.8
2026-01-11 07:12:35.261748	182.7	7.9	-65.0	8.6
2026-01-11 07:12:37.505759	182.7	7.8	-64.4	7.4
2026-01-11 07:12:39.748282	182.8	7.6	-64.1	7.1
2026-01-11 07:12:41.993815	182.9	7.4	-63.7	5.0
2026-01-11 07:12:44.238321	183.0	7.2	-65.5	7.5
2026-01-11 07:12:46.481341	183.0	7.1	-65.5	6.2
2026-01-11 07:12:48.727360	183.1	6.9	-65.7	6.0
2026-01-11 07:12:50.970380	183.2	6.7	-66.4	6.9
2026-01-11 07:12:53.213399	183.3	6.6	-65.9	7.8
2026-01-11 07:12:55.457917	183.3	6.4	-66.2	8.2
2026-01-11 07:12:57.701937	183.4	6.2	-65.3	6.7
2026-01-11 07:12:59.945948	183.5	6.1	-65.7	7.5
2026-01-11 07:13:02.190463	183.5	5.9	-70.4	0.0
2026-01-11 07:13:04.434475	183.6	5.7	-71.3	0.0
2026-01-11 07:13:06.677990	183.7	5.6	-71.6	0.0
2026-01-11 07:13:08.922000	183.7	5.4	-71.1	0.0
2026-01-11 07:13:11.165515	183.8	5.2	-72.5	0.0
2026-01-11 07:13:13.409031	183.9	5.1	-72.6	0.0
#Closed at: 2026-01-11 07:00:26.991587