passes_logs/2026/01/06/R3.2S_Murmansk/R3.2S_Murmansk__20260106_055928_NOAA_20_JPSS-1_rec.log

#Pass ID: 20260106_055928_NOAA 20 (JPSS-1)
#Satellite: NOAA 20 (JPSS-1)
#Configuration: NOAA 20
#almurnet v.1.7.20251203
#Start time: 2026-01-06 05:59:28

#Version: 2.2.20231116
#Station: R3.2S_Murmansk
#Location: 33.079688 lon 68.888172 lat
#TLE: 1 43013U 17073A   26005.46207808  .00000128  00000+0  81791-4 0  9997
#TLE: 2 43013  98.7627 306.5027 0001826  53.0458 307.0885 14.19533487421381

#Time	Az	El	Level	Level2	SNR	BER	BlckErr	Temp	State	Recorded	gain1	gain2
2026-01-06 05:59:28.78	75.71	1.99	-57.9	-73.9	3.8	1.49e+00	0	24	0	0	82	22092
2026-01-06 05:59:32.79	75.47	2.22	-57.8	-73.8	3.8	1.49e+00	0	24	104	0	80	24517
2026-01-06 05:59:36.81	75.21	2.45	-57.8	-73.8	3.8	1.49e+00	0	24	104	0	80	24518
2026-01-06 05:59:40.81	74.96	2.68	-57.8	-73.8	3.8	1.49e+00	0	24	104	0	80	24534
2026-01-06 05:59:44.81	74.70	2.92	-57.8	-73.8	3.8	1.49e+00	0	24	104	0	80	24565
2026-01-06 05:59:48.81	74.44	3.15	-57.8	-73.8	3.8	1.49e+00	0	24	104	0	80	24637
2026-01-06 05:59:52.81	74.17	3.39	-57.8	-73.8	3.8	1.49e+00	0	25	104	0	80	24547
2026-01-06 05:59:56.82	73.90	3.63	-57.8	-73.8	3.8	1.49e+00	0	25	104	0	80	24640
2026-01-06 06:00:00.82	73.62	3.87	-57.8	-73.7	3.9	1.49e+00	0	25	104	0	80	24365
2026-01-06 06:00:04.82	73.34	4.11	-57.8	-73.8	3.8	1.49e+00	0	25	104	0	80	24643
2026-01-06 06:00:08.80	73.06	4.35	-57.8	-73.0	3.8	1.49e+00	0	25	104	0	80	22369
2026-01-06 06:00:12.81	72.76	4.60	-57.6	-69.9	4.3	1.39e+00	0	25	0	0	80	15724
2026-01-06 06:00:16.81	72.47	4.84	-57.4	-66.8	5.8	3.93e-01	0	25	0	6291456	80	10962
2026-01-06 06:00:20.80	72.17	5.09	-56.9	-63.5	8.6	1.45e-01	0	25	0	14680064	80	7463
2026-01-06 06:00:24.79	71.86	5.34	-55.8	-60.2	11.2	2.98e-01	0	25	0	19922944	77	6082
2026-01-06 06:00:28.79	71.55	5.59	-55.4	-59.2	11.9	1.22e-05	0	25	0	27262976	77	5459
2026-01-06 06:00:32.79	71.23	5.84	-54.7	-58.0	12.7	0.00e+00	0	25	0	34603008	75	5297
2026-01-06 06:00:36.78	70.91	6.09	-54.5	-57.7	12.9	0.00e+00	0	25	0	41943040	75	5127
2026-01-06 06:00:40.77	70.58	6.35	-54.6	-57.8	12.9	0.00e+00	0	25	0	49283072	75	5165
2026-01-06 06:00:44.79	70.24	6.60	-54.6	-57.8	12.8	0.00e+00	0	25	0	57671680	75	5193
2026-01-06 06:00:48.78	69.90	6.86	-54.4	-57.4	13.1	0.00e+00	0	25	0	65011712	75	4977
2026-01-06 06:00:52.76	69.55	7.12	-54.5	-57.5	13.1	0.00e+00	0	25	0	72351744	75	5004
2026-01-06 06:00:56.75	69.20	7.38	-54.4	-57.4	13.2	0.00e+00	0	25	0	79691776	75	4950
2026-01-06 06:01:00.75	68.84	7.64	-54.3	-57.2	13.3	0.00e+00	0	26	0	87031808	75	4855
2026-01-06 06:01:04.75	68.47	7.91	-54.5	-57.4	13.1	0.00e+00	0	25	0	94371840	75	4979
2026-01-06 06:01:08.74	68.09	8.17	-54.5	-57.4	13.2	0.00e+00	0	25	0	101711872	75	4957
2026-01-06 06:01:12.72	67.71	8.44	-54.3	-57.2	13.3	0.00e+00	0	25	0	109051904	75	4832
2026-01-06 06:01:16.70	67.33	8.71	-54.5	-57.5	13.2	0.00e+00	0	26	0	117440512	75	4984
2026-01-06 06:01:20.70	66.93	8.98	-54.1	-56.8	13.5	0.00e+00	0	25	0	124780544	74	4896
2026-01-06 06:01:24.69	66.52	9.25	-54.0	-56.6	13.6	0.00e+00	0	26	0	132120576	74	4796
2026-01-06 06:01:28.68	66.11	9.52	-54.1	-56.7	13.5	0.00e+00	0	26	0	139460608	74	4858
2026-01-06 06:01:32.68	65.69	9.80	-54.0	-56.5	13.6	0.00e+00	0	26	0	146800640	74	4758
2026-01-06 06:01:36.66	65.26	10.07	-54.0	-56.6	13.6	0.00e+00	0	26	0	154140672	74	4810
2026-01-06 06:01:40.65	64.83	10.35	-54.1	-56.7	13.5	0.00e+00	0	26	0	161480704	74	4851
2026-01-06 06:01:44.63	64.38	10.63	-54.2	-56.8	13.5	0.00e+00	0	26	0	169869312	74	4918
2026-01-06 06:01:48.62	63.93	10.91	-54.1	-56.6	13.6	0.00e+00	0	26	0	177209344	74	4811
2026-01-06 06:01:52.63	63.46	11.20	-54.1	-56.6	13.6	0.00e+00	0	26	0	184549376	74	4807
2026-01-06 06:01:56.63	62.99	11.48	-53.9	-56.3	13.8	0.00e+00	0	26	0	191889408	74	4649
2026-01-06 06:02:00.62	62.51	11.77	-53.8	-56.2	13.9	0.00e+00	0	26	0	199229440	74	4591
2026-01-06 06:02:04.60	62.02	12.05	-53.8	-56.2	13.9	0.00e+00	0	26	0	206569472	74	4596
2026-01-06 06:02:08.59	61.52	12.34	-53.6	-55.9	13.9	0.00e+00	0	26	0	213909504	73	4699
2026-01-06 06:02:12.56	61.01	12.63	-53.6	-55.8	14.0	0.00e+00	0	26	0	221249536	73	4651
2026-01-06 06:02:16.57	60.48	12.92	-53.4	-55.7	14.1	0.00e+00	0	26	0	229638144	73	4572
2026-01-06 06:02:20.55	59.95	13.21	-53.5	-55.8	14.0	0.00e+00	0	26	0	236978176	73	4626
2026-01-06 06:02:24.54	59.41	13.50	-53.5	-55.7	14.1	0.00e+00	0	26	0	244318208	73	4587
2026-01-06 06:02:28.53	58.85	13.79	-53.3	-55.5	14.2	0.00e+00	0	26	0	251658240	73	4463
2026-01-06 06:02:32.54	58.29	14.08	-53.1	-55.3	14.2	0.00e+00	0	26	0	258998272	72	4599
2026-01-06 06:02:36.53	57.71	14.38	-53.0	-55.1	14.3	0.00e+00	0	26	0	266338304	72	4526
2026-01-06 06:02:40.53	57.12	14.67	-53.0	-55.1	14.3	0.00e+00	0	26	0	273678336	72	4516
2026-01-06 06:02:44.52	56.52	14.97	-53.3	-55.5	14.1	0.00e+00	0	26	0	282066944	72	4728
2026-01-06 06:02:48.52	55.90	15.26	-53.3	-55.5	14.1	0.00e+00	0	26	0	289406976	72	4743
2026-01-06 06:02:52.51	55.28	15.56	-53.3	-55.4	14.1	0.00e+00	0	26	0	296747008	72	4698
2026-01-06 06:02:56.52	54.63	15.86	-53.4	-55.5	14.1	0.00e+00	0	26	0	304087040	72	4759
2026-01-06 06:03:00.50	53.99	16.15	-53.6	-55.8	13.9	0.00e+00	0	26	0	311427072	72	4909
2026-01-06 06:03:04.49	53.32	16.45	-53.5	-55.7	14.0	0.00e+00	0	26	0	318767104	72	4859
2026-01-06 06:03:08.47	52.64	16.74	-53.4	-55.6	14.0	0.00e+00	0	26	0	326107136	72	4811
2026-01-06 06:03:12.47	51.95	17.03	-53.6	-55.9	13.9	0.00e+00	0	26	0	334495744	72	4967
2026-01-06 06:03:16.46	51.25	17.33	-53.6	-55.9	13.9	0.00e+00	0	26	0	341835776	72	4965
2026-01-06 06:03:20.44	50.53	17.62	-53.6	-55.8	14.0	0.00e+00	0	26	0	349175808	72	4912
2026-01-06 06:03:24.43	49.80	17.91	-53.5	-55.7	14.0	0.00e+00	0	26	0	356515840	72	4862
2026-01-06 06:03:28.42	49.05	18.20	-53.4	-55.6	14.1	0.00e+00	0	26	0	363855872	72	4774
2026-01-06 06:03:32.40	48.29	18.48	-53.1	-55.2	14.3	0.00e+00	0	26	0	371195904	72	4586
2026-01-06 06:03:36.41	47.51	18.77	-52.9	-55.0	14.4	0.00e+00	0	26	0	378535936	72	4446
2026-01-06 06:03:40.40	46.72	19.05	-52.5	-54.4	14.5	0.00e+00	0	26	0	386924544	71	4406
2026-01-06 06:03:44.39	45.91	19.33	-52.2	-54.0	14.7	0.00e+00	0	26	0	394264576	71	4242
2026-01-06 06:03:48.39	45.08	19.61	-51.7	-53.4	14.9	0.00e+00	0	26	0	401604608	70	4180
2026-01-06 06:03:52.38	44.25	19.88	-51.7	-53.3	14.8	0.00e+00	0	26	0	408944640	69	4387
2026-01-06 06:03:56.39	43.39	20.16	-51.6	-53.3	14.8	0.00e+00	0	26	0	416284672	69	4366
2026-01-06 06:04:00.38	42.52	20.42	-51.6	-53.2	14.8	0.00e+00	0	26	0	423624704	69	4327
2026-01-06 06:04:04.37	41.64	20.68	-51.4	-53.0	14.9	0.00e+00	0	26	0	430964736	69	4233
2026-01-06 06:04:08.36	40.75	20.94	-51.2	-52.8	14.9	0.00e+00	0	26	0	439353344	68	4370
2026-01-06 06:04:12.35	39.83	21.19	-51.1	-52.7	14.9	0.00e+00	0	26	0	446693376	68	4330
2026-01-06 06:04:16.33	38.91	21.44	-51.4	-53.1	14.7	0.00e+00	0	26	0	454033408	68	4508
2026-01-06 06:04:20.33	37.96	21.68	-51.4	-53.1	14.7	0.00e+00	0	26	0	461373440	68	4513
2026-01-06 06:04:24.32	37.01	21.91	-51.5	-53.2	14.7	0.00e+00	0	26	0	468713472	68	4555
2026-01-06 06:04:28.33	36.03	22.14	-51.4	-53.1	14.8	0.00e+00	0	26	0	476053504	68	4495
2026-01-06 06:04:32.34	35.04	22.37	-51.1	-52.7	14.9	0.00e+00	0	26	0	483393536	68	4320
2026-01-06 06:04:36.33	34.04	22.58	-51.1	-52.7	14.9	0.00e+00	0	26	0	491782144	68	4310
2026-01-06 06:04:40.33	33.02	22.79	-51.4	-53.0	14.8	0.00e+00	0	26	0	499122176	68	4461
2026-01-06 06:04:44.33	31.99	22.98	-51.4	-53.0	14.8	0.00e+00	0	26	0	506462208	68	4458
2026-01-06 06:04:48.33	30.95	23.17	-51.0	-52.6	15.0	0.00e+00	0	26	0	513802240	68	4249
2026-01-06 06:04:52.33	29.90	23.35	-51.2	-52.8	14.9	0.00e+00	0	26	0	521142272	68	4366
2026-01-06 06:04:56.34	28.83	23.53	-51.4	-53.0	14.8	0.00e+00	0	26	0	528482304	68	4446
2026-01-06 06:05:00.34	27.75	23.69	-51.3	-52.9	14.8	0.00e+00	0	26	0	536870912	68	4429
2026-01-06 06:05:04.32	26.66	23.84	-51.7	-53.4	14.6	0.00e+00	0	26	0	544210944	68	4677
2026-01-06 06:05:08.30	25.57	23.98	-52.3	-54.1	14.4	0.00e+00	0	26	0	551550976	69	4779
2026-01-06 06:05:12.29	24.46	24.11	-52.4	-54.3	14.5	0.00e+00	0	26	0	558891008	70	4610
2026-01-06 06:05:16.26	23.35	24.22	-52.8	-54.7	14.3	0.00e+00	0	26	0	566231040	70	4865
2026-01-06 06:05:20.26	22.23	24.33	-52.6	-54.5	14.4	0.00e+00	0	26	0	573571072	70	4735
2026-01-06 06:05:24.24	21.10	24.43	-52.9	-54.9	14.4	0.00e+00	0	26	0	580911104	71	4680
2026-01-06 06:05:28.24	19.96	24.51	-53.2	-55.3	14.2	0.00e+00	0	26	0	588251136	71	4901
2026-01-06 06:05:32.25	18.81	24.58	-53.0	-55.0	14.3	0.00e+00	0	26	0	596639744	71	4722
2026-01-06 06:05:36.25	17.66	24.64	-52.7	-54.6	14.5	0.00e+00	0	26	0	603979776	71	4545
2026-01-06 06:05:40.24	16.51	24.69	-53.0	-55.0	14.3	0.00e+00	0	26	0	611319808	71	4745
2026-01-06 06:05:44.25	15.35	24.72	-53.0	-55.0	14.3	0.00e+00	0	26	0	618659840	71	4713
2026-01-06 06:05:48.23	14.20	24.74	-52.6	-54.5	14.6	0.00e+00	0	26	0	625999872	71	4454
2026-01-06 06:05:52.21	13.05	24.75	-52.7	-54.6	14.5	0.00e+00	0	26	0	633339904	71	4526
2026-01-06 06:05:56.21	11.89	24.74	-52.2	-54.0	14.7	0.00e+00	0	26	0	640679936	70	4460
2026-01-06 06:06:00.20	10.73	24.73	-52.0	-53.7	14.8	0.00e+00	0	26	0	649068544	70	4318
2026-01-06 06:06:04.18	9.58	24.70	-51.7	-53.4	14.9	0.00e+00	0	26	0	656408576	70	4167
2026-01-06 06:06:08.17	8.43	24.66	-51.5	-53.1	14.9	0.00e+00	0	26	0	663748608	69	4262
2026-01-06 06:06:12.15	7.28	24.60	-51.0	-52.5	15.0	0.00e+00	0	26	0	671088640	68	4226
2026-01-06 06:06:16.14	6.14	24.53	-51.0	-52.6	15.0	0.00e+00	0	26	0	678428672	68	4245
2026-01-06 06:06:20.14	5.00	24.45	-50.6	-52.1	15.0	0.00e+00	0	26	0	685768704	67	4262
2026-01-06 06:06:24.12	3.87	24.36	-50.5	-52.0	15.0	0.00e+00	0	26	0	693108736	67	4227
2026-01-06 06:06:28.11	2.74	24.26	-50.7	-52.2	15.0	0.00e+00	0	26	0	700448768	67	4301
2026-01-06 06:06:32.10	1.62	24.14	-51.0	-52.5	14.9	0.00e+00	0	26	0	708837376	67	4468
2026-01-06 06:06:36.08	0.52	24.02	-51.0	-52.6	14.8	0.00e+00	0	26	0	716177408	67	4502
2026-01-06 06:06:40.07	359.42	23.88	-51.2	-52.9	14.7	0.00e+00	0	26	0	723517440	67	4661
2026-01-06 06:06:44.06	358.33	23.73	-51.9	-53.6	14.6	0.00e+00	0	26	0	730857472	68	4764
2026-01-06 06:06:48.06	357.25	23.58	-51.8	-53.5	14.6	0.00e+00	0	26	0	738197504	68	4756
2026-01-06 06:06:52.05	356.18	23.41	-52.1	-53.8	14.6	0.00e+00	0	26	0	745537536	69	4650
2026-01-06 06:06:56.04	355.13	23.23	-52.5	-54.3	14.5	0.00e+00	0	26	0	752877568	70	4620
2026-01-06 06:07:00.03	354.08	23.05	-52.5	-54.3	14.5	0.00e+00	0	26	0	760217600	70	4637
2026-01-06 06:07:04.01	353.06	22.85	-52.6	-54.5	14.4	0.00e+00	0	26	0	768606208	70	4746
2026-01-06 06:07:08.00	352.04	22.65	-52.9	-54.8	14.4	0.00e+00	0	26	0	775946240	71	4637
2026-01-06 06:07:11.98	351.04	22.44	-52.8	-54.8	14.4	0.00e+00	0	26	0	783286272	71	4603
2026-01-06 06:07:15.97	350.05	22.22	-53.0	-55.0	14.3	0.00e+00	0	26	0	790626304	71	4741
2026-01-06 06:07:19.97	349.07	21.99	-53.0	-55.0	14.3	0.00e+00	0	26	0	797966336	71	4722
2026-01-06 06:07:23.96	348.11	21.76	-52.7	-54.6	14.5	0.00e+00	0	26	0	805306368	71	4494
2026-01-06 06:07:27.94	347.16	21.52	-52.7	-54.6	14.5	0.00e+00	0	26	0	812646400	71	4540
2026-01-06 06:07:31.92	346.24	21.28	-52.4	-54.2	14.7	0.00e+00	0	26	0	821035008	71	4331
2026-01-06 06:07:35.90	345.32	21.03	-52.3	-54.1	14.7	0.00e+00	0	26	0	828375040	71	4272
2026-01-06 06:07:39.92	344.41	20.77	-52.0	-53.8	14.7	0.00e+00	0	26	0	835715072	70	4354
2026-01-06 06:07:43.92	343.52	20.51	-52.1	-53.9	14.7	0.00e+00	0	26	0	843055104	70	4393
2026-01-06 06:07:47.92	342.65	20.25	-52.2	-53.9	14.7	0.00e+00	0	26	0	850395136	70	4427
2026-01-06 06:07:51.92	341.79	19.98	-52.0	-53.8	14.7	0.00e+00	0	26	0	857735168	70	4349
2026-01-06 06:07:55.91	340.95	19.71	-52.2	-53.9	14.6	0.00e+00	0	26	0	865075200	70	4436
2026-01-06 06:07:59.91	340.12	19.43	-52.3	-54.1	14.6	0.00e+00	0	26	0	873463808	70	4507
2026-01-06 06:08:03.91	339.31	19.15	-52.3	-54.1	14.6	0.00e+00	0	26	0	880803840	70	4498
2026-01-06 06:08:07.90	338.52	18.87	-52.1	-53.9	14.7	0.00e+00	0	26	0	888143872	70	4395
2026-01-06 06:08:11.90	337.73	18.59	-52.0	-53.7	14.8	0.00e+00	0	26	0	895483904	70	4321
2026-01-06 06:08:15.89	336.97	18.30	-51.9	-53.6	14.8	0.00e+00	0	26	0	902823936	70	4289
2026-01-06 06:08:19.88	336.22	18.01	-51.8	-53.5	14.9	0.00e+00	0	26	0	910163968	70	4213
2026-01-06 06:08:23.88	335.48	17.72	-51.4	-53.0	14.9	0.00e+00	0	26	0	917504000	69	4212
2026-01-06 06:08:27.87	334.75	17.43	-51.5	-53.1	14.9	0.00e+00	0	26	0	925892608	69	4265
2026-01-06 06:08:31.85	334.05	17.14	-51.4	-53.0	14.9	0.00e+00	0	26	0	933232640	69	4238
2026-01-06 06:08:35.84	333.35	16.85	-51.3	-52.9	15.0	0.00e+00	0	26	0	940572672	69	4165
2026-01-06 06:08:39.84	332.67	16.55	-51.2	-52.8	14.8	0.00e+00	0	26	0	947912704	68	4361
2026-01-06 06:08:43.83	332.00	16.26	-51.4	-53.1	14.7	0.00e+00	0	26	0	955252736	68	4506
2026-01-06 06:08:47.83	331.35	15.96	-51.3	-52.9	14.8	0.00e+00	0	26	0	962592768	68	4441
2026-01-06 06:08:51.81	330.71	15.67	-51.5	-53.1	14.7	0.00e+00	0	26	0	969932800	68	4524
2026-01-06 06:08:55.79	330.08	15.37	-51.5	-53.2	14.7	0.00e+00	0	26	0	978321408	68	4589
2026-01-06 06:08:59.79	329.46	15.08	-51.6	-53.3	14.6	0.00e+00	0	26	0	985661440	68	4611
2026-01-06 06:09:03.80	328.85	14.78	-52.0	-53.8	14.5	0.00e+00	0	26	0	993001472	69	4632
2026-01-06 06:09:07.78	328.26	14.49	-52.3	-54.2	14.4	0.00e+00	0	26	0	1000341504	69	4848
2026-01-06 06:09:11.77	327.68	14.19	-52.1	-54.0	14.5	0.00e+00	0	26	0	1007681536	69	4710
2026-01-06 06:09:15.74	327.12	13.90	-52.2	-54.0	14.5	0.00e+00	0	26	0	1015021568	69	4724
2026-01-06 06:09:19.72	326.56	13.61	-52.3	-54.2	14.3	0.00e+00	0	26	0	1022361600	69	4848
2026-01-06 06:09:23.70	326.02	13.32	-52.5	-54.5	14.4	0.00e+00	0	26	0	1029701632	70	4721
2026-01-06 06:09:27.69	325.48	13.03	-52.6	-54.5	14.4	0.00e+00	0	26	0	1038090240	70	4733
2026-01-06 06:09:31.67	324.96	12.74	-52.6	-54.5	14.3	0.00e+00	0	26	0	1045430272	70	4741
2026-01-06 06:09:35.67	324.44	12.45	-52.7	-54.7	14.3	0.00e+00	0	26	0	1052770304	70	4847
2026-01-06 06:09:39.65	323.94	12.17	-52.7	-54.7	14.2	0.00e+00	0	26	0	1060110336	70	4863
2026-01-06 06:09:43.65	323.44	11.88	-52.9	-55.0	14.2	0.00e+00	0	26	0	1067450368	71	4715
2026-01-06 06:09:47.64	322.96	11.59	-53.1	-55.2	14.1	0.00e+00	0	26	0	1074790400	71	4828
2026-01-06 06:09:51.64	322.48	11.31	-52.8	-54.9	14.2	0.00e+00	0	26	0	1082130432	71	4653
2026-01-06 06:09:55.64	322.02	11.03	-53.0	-55.2	14.1	0.00e+00	0	26	0	1090519040	71	4826
2026-01-06 06:09:59.64	321.56	10.74	-53.2	-55.3	14.0	0.00e+00	0	26	0	1097859072	71	4920
2026-01-06 06:10:03.64	321.11	10.46	-53.4	-55.6	13.9	0.00e+00	0	26	0	1105199104	71	5082
2026-01-06 06:10:07.63	320.67	10.19	-53.5	-55.8	13.8	0.00e+00	0	26	0	1112539136	72	4917
2026-01-06 06:10:11.63	320.24	9.91	-53.7	-56.1	13.7	0.00e+00	0	26	0	1119879168	72	5066
2026-01-06 06:10:15.62	319.82	9.63	-54.1	-56.7	13.5	0.00e+00	0	26	0	1127219200	73	5109
2026-01-06 06:10:19.61	319.41	9.36	-54.0	-56.6	13.6	0.00e+00	0	26	0	1134559232	73	5061
2026-01-06 06:10:23.60	319.00	9.09	-54.0	-56.6	13.5	0.00e+00	0	26	0	1142947840	73	5079
2026-01-06 06:10:27.58	318.60	8.82	-53.9	-56.5	13.6	0.00e+00	0	26	0	1150287872	73	4989
2026-01-06 06:10:31.57	318.21	8.55	-53.9	-56.5	13.6	0.00e+00	0	26	0	1157627904	73	5007
2026-01-06 06:10:35.56	317.83	8.28	-54.2	-56.9	13.3	0.00e+00	0	26	0	1164967936	73	5263
2026-01-06 06:10:39.55	317.45	8.02	-54.1	-56.7	13.4	0.00e+00	0	26	0	1172307968	73	5155
2026-01-06 06:10:43.54	317.09	7.75	-54.2	-56.9	13.3	0.00e+00	0	26	0	1179648000	73	5238
2026-01-06 06:10:47.55	316.72	7.49	-54.2	-56.9	13.3	0.00e+00	0	26	0	1186988032	73	5257
2026-01-06 06:10:51.55	316.37	7.23	-54.4	-57.2	13.1	0.00e+00	0	26	0	1195376640	74	5143
2026-01-06 06:10:55.56	316.01	6.97	-54.4	-57.4	13.1	0.00e+00	0	26	0	1202716672	74	5227
2026-01-06 06:10:59.55	315.67	6.71	-54.7	-57.8	12.8	0.00e+00	0	26	0	1210056704	74	5505
2026-01-06 06:11:03.56	315.33	6.45	-54.8	-58.0	12.6	0.00e+00	0	26	0	1217396736	74	5628
2026-01-06 06:11:07.56	315.00	6.20	-54.8	-58.0	12.6	0.00e+00	0	26	0	1224736768	74	5629
2026-01-06 06:11:11.55	314.68	5.94	-54.7	-57.9	12.6	0.00e+00	0	26	0	1232076800	74	5589
2026-01-06 06:11:15.54	314.36	5.69	-54.6	-57.8	12.7	0.00e+00	0	26	0	1239416832	74	5516
2026-01-06 06:11:19.54	314.05	5.44	-54.8	-58.1	12.5	0.00e+00	0	26	0	1247805440	74	5676
2026-01-06 06:11:23.53	313.74	5.19	-54.6	-57.9	12.6	0.00e+00	0	26	0	1255145472	74	5548
2026-01-06 06:11:27.52	313.44	4.95	-58.6	-74.6	3.8	1.04e+00	0	26	104	1261436928	82	24039
2026-01-06 06:11:31.51	313.14	4.70	-59.8	-75.8	3.8	1.49e+00	0	26	104	1261436928	84	24617
2026-01-06 06:11:35.49	312.85	4.46	-60.2	-76.3	3.8	1.49e+00	0	26	104	1261436928	85	24487
2026-01-06 06:11:39.47	312.57	4.22	-60.5	-76.6	3.8	1.49e+00	0	26	104	1261436928	86	23902
2026-01-06 06:11:43.47	312.28	3.97	-60.6	-76.7	3.8	1.49e+00	0	26	104	1261436928	86	24331
2026-01-06 06:11:47.46	312.01	3.73	-60.6	-76.7	3.8	1.49e+00	0	26	104	1261436928	86	24350
2026-01-06 06:11:51.48	311.73	3.50	-60.6	-76.7	3.8	1.49e+00	0	26	104	1261436928	86	24184
2026-01-06 06:11:55.46	311.47	3.26	-60.5	-76.6	3.8	1.49e+00	0	27	104	1261436928	86	24105
2026-01-06 06:11:59.46	311.20	3.02	-60.5	-76.6	3.8	1.49e+00	0	26	104	1261436928	86	24084
2026-01-06 06:12:03.46	310.95	2.79	-60.5	-76.6	3.8	1.49e+00	0	27	104	1261436928	86	24076
2026-01-06 06:12:07.46	310.69	2.56	-60.5	-76.6	3.8	1.49e+00	0	27	104	1261436928	86	24034
2026-01-06 06:12:11.46	310.44	2.33	-60.5	-76.6	3.8	1.49e+00	0	27	104	1261436928	86	23949
2026-01-06 06:12:15.44	310.20	2.10	-60.5	-76.6	3.8	1.49e+00	0	27	104	1261436928	86	23993

#Closed at: 2026-01-06 06:12:18
#Recorded file [1261 MB]: D:/lorett/data/31004_260106_085928.dat