passes_logs/2026/01/06/R3.2S_Murmansk/R3.2S_Murmansk__20260106_224032_SUOMI_NPP_rec.log

#Pass ID: 20260106_224032_SUOMI NPP
#Satellite: SUOMI NPP
#Configuration: NPP
#almurnet v.1.7.20251203
#Start time: 2026-01-06 22:40:34

#Version: 2.2.20231116
#Station: R3.2S_Murmansk
#Location: 33.079688 lon 68.888172 lat
#TLE: 1 37849U 11061A   26005.94084933  .00000134  00000+0  84554-4 0  9990
#TLE: 2 37849  98.7803 308.0679 0002567  79.1029 281.0436 14.19522657735426

#Time	Az	El	Level	Level2	SNR	BER	BlckErr	Temp	State	Recorded	gain1	gain2
2026-01-06 22:40:34.95	19.33	2.12	-58.1	-74.1	3.8	1.49e+00	0	25	0	0	82	22576
2026-01-06 22:40:38.94	19.59	2.35	-58.1	-74.1	3.8	1.49e+00	0	25	104	0	81	23936
2026-01-06 22:40:42.95	19.84	2.58	-58.1	-74.1	3.8	1.49e+00	0	25	104	0	81	23872
2026-01-06 22:40:46.93	20.10	2.81	-58.1	-73.9	3.8	1.49e+00	0	25	104	0	81	23398
2026-01-06 22:40:50.93	20.37	3.04	-58.1	-72.9	3.8	1.49e+00	0	26	104	0	81	20928
2026-01-06 22:40:54.93	20.64	3.27	-58.1	-72.6	3.8	1.49e+00	0	26	104	0	81	20285
2026-01-06 22:40:58.92	20.91	3.51	-58.0	-70.9	4.1	1.44e+00	0	26	0	0	81	16559
2026-01-06 22:41:02.93	21.19	3.75	-57.8	-68.1	5.1	5.86e-01	0	26	0	6291456	81	12056
2026-01-06 22:41:06.93	21.47	3.98	-57.5	-66.0	6.5	2.17e-01	0	26	0	13631488	81	9437
2026-01-06 22:41:10.92	21.75	4.22	-55.8	-60.1	11.3	1.75e-04	0	26	0	20971520	78	5679
2026-01-06 22:41:14.92	22.04	4.47	-53.8	-56.6	13.3	0.00e+00	0	26	0	28311552	74	4765
2026-01-06 22:41:18.92	22.33	4.71	-54.3	-57.4	12.8	0.00e+00	0	26	0	36700160	73	5545
2026-01-06 22:41:22.91	22.63	4.95	-56.3	-61.4	10.2	2.14e-04	0	26	0	44040192	77	7004
2026-01-06 22:41:26.90	22.93	5.20	-57.4	-64.6	7.8	6.07e-02	0	26	0	51380224	80	8561
2026-01-06 22:41:30.90	23.24	5.45	-54.6	-57.7	12.8	0.00e+00	0	26	0	58720256	75	5114
2026-01-06 22:41:34.90	23.56	5.70	-54.5	-57.5	12.9	0.00e+00	0	26	0	66060288	75	5028
2026-01-06 22:41:38.89	23.87	5.95	-54.1	-56.8	13.3	0.00e+00	0	27	0	73400320	74	4918
2026-01-06 22:41:42.89	24.20	6.20	-54.0	-56.8	13.3	0.00e+00	0	26	0	80740352	74	4878
2026-01-06 22:41:46.89	24.53	6.46	-53.8	-56.4	13.6	0.00e+00	0	27	0	89128960	74	4665
2026-01-06 22:41:50.90	24.86	6.72	-53.7	-56.2	13.6	0.00e+00	0	27	0	96468992	73	4854
2026-01-06 22:41:54.91	25.20	6.98	-53.3	-55.6	13.9	0.00e+00	0	27	0	103809024	73	4529
2026-01-06 22:41:58.91	25.55	7.24	-53.3	-55.7	13.9	0.00e+00	0	26	0	111149056	73	4546
2026-01-06 22:42:02.87	25.90	7.50	-53.3	-55.6	13.8	0.00e+00	0	27	0	118489088	72	4763
2026-01-06 22:42:06.86	26.25	7.76	-53.4	-55.8	13.7	0.00e+00	0	27	0	125829120	72	4875
2026-01-06 22:42:10.85	26.62	8.03	-53.3	-55.6	13.8	0.00e+00	0	27	0	133169152	72	4772
2026-01-06 22:42:14.85	26.99	8.30	-53.1	-55.3	13.9	0.00e+00	0	27	0	141557760	72	4647
2026-01-06 22:42:18.86	27.36	8.57	-53.1	-55.3	14.0	0.00e+00	0	27	0	148897792	72	4607
2026-01-06 22:42:22.86	27.75	8.84	-53.2	-55.4	13.9	0.00e+00	0	27	0	156237824	72	4672
2026-01-06 22:42:26.86	28.14	9.11	-53.5	-55.8	13.8	0.00e+00	0	27	0	163577856	72	4886
2026-01-06 22:42:30.85	28.53	9.39	-53.6	-56.0	13.7	0.00e+00	0	27	0	170917888	72	4987
2026-01-06 22:42:34.85	28.94	9.67	-53.6	-55.9	13.7	0.00e+00	0	27	0	178257920	72	4967
2026-01-06 22:42:38.85	29.35	9.95	-53.3	-55.6	13.9	0.00e+00	0	27	0	185597952	72	4768
2026-01-06 22:42:42.87	29.77	10.23	-52.9	-55.0	14.2	0.00e+00	0	27	0	193986560	72	4474
2026-01-06 22:42:46.87	30.20	10.51	-52.6	-54.6	14.2	0.00e+00	0	27	0	201326592	71	4528
2026-01-06 22:42:50.86	30.63	10.80	-52.7	-54.7	14.2	0.00e+00	0	27	0	208666624	71	4560
2026-01-06 22:42:54.85	31.08	11.09	-52.7	-54.6	14.2	0.00e+00	0	27	0	216006656	71	4536
2026-01-06 22:42:58.86	31.53	11.38	-52.8	-54.8	14.1	0.00e+00	0	27	0	223346688	71	4631
2026-01-06 22:43:02.87	31.99	11.67	-52.9	-55.0	14.1	0.00e+00	0	27	0	230686720	71	4728
2026-01-06 22:43:06.86	32.46	11.96	-52.9	-55.0	14.1	0.00e+00	0	27	0	239075328	71	4727
2026-01-06 22:43:10.85	32.94	12.25	-53.1	-55.2	14.0	0.00e+00	0	27	0	246415360	71	4831
2026-01-06 22:43:14.84	33.42	12.55	-53.5	-55.7	13.8	0.00e+00	0	27	0	253755392	72	4839
2026-01-06 22:43:18.82	33.92	12.85	-53.3	-55.5	13.9	0.00e+00	0	27	0	261095424	72	4735
2026-01-06 22:43:22.81	34.42	13.15	-53.2	-55.4	14.0	0.00e+00	0	27	0	268435456	72	4668
2026-01-06 22:43:26.80	34.94	13.45	-52.8	-54.8	14.3	0.00e+00	0	27	0	275775488	72	4367
2026-01-06 22:43:30.79	35.47	13.75	-52.4	-54.2	14.4	0.00e+00	0	27	0	283115520	71	4337
2026-01-06 22:43:34.79	36.01	14.06	-52.2	-54.1	14.4	0.00e+00	0	27	0	291504128	70	4496
2026-01-06 22:43:38.78	36.55	14.36	-52.2	-54.0	14.4	0.00e+00	0	27	0	298844160	70	4459
2026-01-06 22:43:42.79	37.11	14.67	-52.1	-53.9	14.4	0.00e+00	0	27	0	306184192	70	4433
2026-01-06 22:43:46.78	37.68	14.98	-52.4	-54.2	14.4	0.00e+00	0	27	0	313524224	70	4583
2026-01-06 22:43:50.77	38.26	15.29	-52.6	-54.5	14.2	0.00e+00	0	27	0	320864256	70	4722
2026-01-06 22:43:54.77	38.86	15.60	-52.8	-54.8	14.1	0.00e+00	0	27	0	328204288	70	4909
2026-01-06 22:43:58.78	39.47	15.92	-52.9	-54.9	14.2	0.00e+00	0	27	0	335544320	71	4658
2026-01-06 22:44:02.74	40.08	16.23	-52.4	-54.2	14.5	0.00e+00	0	27	0	343932928	71	4338
2026-01-06 22:44:06.73	40.71	16.54	-52.0	-53.7	14.6	0.00e+00	0	27	0	351272960	70	4338
2026-01-06 22:44:10.73	41.36	16.86	-52.0	-53.7	14.6	0.00e+00	0	27	0	358612992	70	4318
2026-01-06 22:44:14.72	42.01	17.18	-51.7	-53.4	14.6	0.00e+00	0	27	0	365953024	69	4407
2026-01-06 22:44:18.69	42.68	17.49	-52.1	-54.0	14.4	0.00e+00	0	27	0	373293056	69	4706
2026-01-06 22:44:22.68	43.36	17.81	-52.2	-54.0	14.4	0.00e+00	0	27	0	380633088	69	4718
2026-01-06 22:44:26.68	44.06	18.13	-52.0	-53.8	14.4	0.00e+00	0	27	0	387973120	69	4627
2026-01-06 22:44:30.67	44.77	18.44	-52.4	-54.3	14.2	0.00e+00	0	27	0	396361728	69	4908
2026-01-06 22:44:34.68	45.50	18.76	-52.1	-53.9	14.5	0.00e+00	0	27	0	403701760	70	4433
2026-01-06 22:44:38.67	46.25	19.08	-51.7	-53.4	14.6	0.00e+00	0	27	0	411041792	69	4411
2026-01-06 22:44:42.68	47.01	19.40	-51.7	-53.4	14.6	0.00e+00	0	27	0	418381824	69	4393
2026-01-06 22:44:46.68	47.78	19.71	-51.1	-52.7	14.8	0.00e+00	0	28	0	425721856	68	4294
2026-01-06 22:44:50.70	48.57	20.03	-50.8	-52.3	14.9	0.00e+00	0	27	0	433061888	68	4136
2026-01-06 22:44:54.70	49.38	20.34	-50.8	-52.3	14.9	0.00e+00	0	27	0	441450496	68	4104
2026-01-06 22:44:58.70	50.20	20.65	-50.5	-52.0	14.9	0.00e+00	0	27	0	448790528	67	4219
2026-01-06 22:45:02.70	51.04	20.96	-50.7	-52.3	14.8	0.00e+00	0	27	0	456130560	67	4350
2026-01-06 22:45:06.71	51.90	21.27	-50.7	-52.2	14.8	0.00e+00	0	27	0	463470592	67	4323
2026-01-06 22:45:10.69	52.77	21.57	-50.6	-52.1	14.8	0.00e+00	0	27	0	470810624	67	4254
2026-01-06 22:45:14.69	53.65	21.87	-50.6	-52.1	14.8	0.00e+00	0	27	0	478150656	67	4264
2026-01-06 22:45:18.69	54.56	22.17	-50.9	-52.4	14.7	0.00e+00	0	27	0	485490688	67	4440
2026-01-06 22:45:22.69	55.48	22.46	-51.0	-52.5	14.7	0.00e+00	0	28	0	492830720	67	4478
2026-01-06 22:45:26.68	56.42	22.75	-51.2	-52.8	14.6	0.00e+00	0	27	0	501219328	67	4631
2026-01-06 22:45:30.69	57.38	23.04	-50.9	-52.5	14.7	0.00e+00	0	27	0	508559360	67	4452
2026-01-06 22:45:34.67	58.35	23.32	-51.8	-53.5	14.6	0.00e+00	0	27	0	515899392	69	4489
2026-01-06 22:45:38.68	59.34	23.59	-51.2	-52.7	14.9	0.00e+00	0	27	0	523239424	69	4082
2026-01-06 22:45:42.69	60.35	23.86	-52.5	-54.3	14.4	0.00e+00	0	27	0	530579456	70	4647
2026-01-06 22:45:46.69	61.37	24.12	-53.1	-55.1	14.1	0.00e+00	0	27	0	537919488	71	4799
2026-01-06 22:45:50.69	62.41	24.38	-52.9	-54.8	14.4	0.00e+00	0	27	0	546308096	72	4367
2026-01-06 22:45:54.68	63.47	24.62	-53.0	-54.9	14.2	0.00e+00	0	27	0	553648128	71	4692
2026-01-06 22:45:58.70	64.55	24.87	-54.4	-56.9	13.6	0.00e+00	0	28	0	560988160	74	4968
2026-01-06 22:46:02.70	65.64	25.10	-54.2	-56.6	13.8	0.00e+00	0	27	0	568328192	74	4773
2026-01-06 22:46:06.70	66.74	25.32	-53.8	-56.0	13.9	0.00e+00	0	27	0	575668224	73	4750
2026-01-06 22:46:10.70	67.86	25.53	-55.0	-57.7	13.2	0.00e+00	0	28	0	583008256	75	5141
2026-01-06 22:46:14.70	69.00	25.73	-54.5	-56.9	13.7	0.00e+00	0	27	0	591396864	75	4680
2026-01-06 22:46:18.69	70.15	25.93	-53.9	-56.2	14.0	0.00e+00	0	28	0	598736896	74	4556
2026-01-06 22:46:22.68	71.31	26.11	-54.7	-57.2	13.4	0.00e+00	0	28	0	606076928	74	5149
2026-01-06 22:46:26.66	72.48	26.28	-54.6	-57.1	13.5	0.00e+00	0	27	0	613416960	74	5079
2026-01-06 22:46:30.64	73.66	26.44	-55.4	-58.4	13.0	0.00e+00	0	27	0	620756992	76	5223
2026-01-06 22:46:34.64	74.86	26.58	-53.9	-56.0	14.0	0.00e+00	0	27	0	628097024	74	4488
2026-01-06 22:46:38.63	76.06	26.72	-54.1	-56.4	13.7	0.00e+00	0	28	0	635437056	73	4971
2026-01-06 22:46:42.64	77.28	26.84	-54.8	-57.4	13.4	0.00e+00	0	27	0	642777088	74	5220
2026-01-06 22:46:46.64	78.51	26.95	-54.4	-56.8	13.8	0.00e+00	0	27	0	651165696	75	4631
2026-01-06 22:46:50.64	79.75	27.04	-54.6	-57.2	13.5	0.00e+00	0	28	0	658505728	74	5102
2026-01-06 22:46:54.64	80.99	27.12	-54.1	-56.4	13.9	0.00e+00	0	27	0	665845760	74	4673
2026-01-06 22:46:58.63	82.23	27.19	-53.9	-56.2	13.9	0.00e+00	0	28	0	673185792	73	4839
2026-01-06 22:47:02.63	83.49	27.24	-53.8	-55.9	14.0	0.00e+00	0	27	0	680525824	73	4705
2026-01-06 22:47:06.63	84.74	27.28	-54.5	-57.0	13.5	0.00e+00	0	28	0	687865856	74	5023
2026-01-06 22:47:10.63	86.00	27.30	-55.0	-57.8	13.2	0.00e+00	0	27	0	696254464	75	5169
2026-01-06 22:47:14.61	87.26	27.31	-54.2	-56.5	13.9	0.00e+00	0	28	0	703594496	75	4489
2026-01-06 22:47:18.61	88.52	27.31	-53.3	-55.3	14.3	0.00e+00	0	27	0	710934528	73	4380
2026-01-06 22:47:22.60	89.77	27.29	-53.2	-55.2	14.2	0.00e+00	0	27	0	718274560	72	4553
2026-01-06 22:47:26.59	91.03	27.26	-54.4	-56.8	13.7	0.00e+00	0	27	0	725614592	74	4887
2026-01-06 22:47:30.58	92.28	27.21	-53.9	-56.1	14.0	0.00e+00	0	27	0	732954624	74	4510
2026-01-06 22:47:34.57	93.53	27.14	-53.8	-56.0	14.0	0.00e+00	0	28	0	740294656	74	4480
2026-01-06 22:47:38.57	94.77	27.07	-53.5	-55.6	14.1	0.00e+00	0	27	0	747634688	73	4511
2026-01-06 22:47:42.58	96.01	26.98	-53.9	-56.1	13.9	0.00e+00	0	27	0	756023296	73	4799
2026-01-06 22:47:46.59	97.25	26.87	-52.9	-54.7	14.4	0.00e+00	0	28	0	763363328	72	4333
2026-01-06 22:47:50.59	98.47	26.75	-54.0	-56.3	13.8	0.00e+00	0	28	0	770703360	73	4917
2026-01-06 22:47:54.57	99.68	26.62	-52.9	-54.8	14.4	0.00e+00	0	27	0	778043392	72	4375
2026-01-06 22:47:58.58	100.88	26.48	-52.5	-54.2	14.5	0.00e+00	0	27	0	785383424	71	4334
2026-01-06 22:48:02.59	102.08	26.32	-52.0	-53.7	14.5	0.00e+00	0	28	0	792723456	69	4546
2026-01-06 22:48:06.59	103.26	26.15	-52.9	-54.8	14.3	0.00e+00	0	27	0	801112064	71	4630
2026-01-06 22:48:10.61	104.44	25.97	-51.4	-53.0	14.8	0.00e+00	0	27	0	808452096	69	4210
2026-01-06 22:48:14.60	105.59	25.78	-50.9	-52.4	14.9	0.00e+00	0	27	0	815792128	68	4176
2026-01-06 22:48:18.60	106.73	25.58	-51.1	-52.6	14.6	0.00e+00	0	27	0	823132160	67	4544
2026-01-06 22:48:22.58	107.85	25.37	-51.7	-53.3	14.6	0.00e+00	0	28	0	830472192	69	4371
2026-01-06 22:48:26.57	108.96	25.15	-50.8	-52.3	14.7	0.00e+00	0	27	0	837812224	67	4368
2026-01-06 22:48:30.57	110.06	24.92	-50.9	-52.4	14.7	0.00e+00	0	28	0	845152256	67	4420
2026-01-06 22:48:34.57	111.14	24.69	-51.8	-53.4	14.5	0.00e+00	0	28	0	853540864	68	4700
2026-01-06 22:48:38.58	112.20	24.44	-51.0	-52.6	14.8	0.00e+00	0	28	0	860880896	68	4243
2026-01-06 22:48:42.58	113.25	24.19	-51.8	-53.5	14.5	0.00e+00	0	27	0	868220928	68	4722
2026-01-06 22:48:46.58	114.28	23.92	-51.5	-53.1	14.6	0.00e+00	0	27	0	875560960	68	4536
2026-01-06 22:48:50.58	115.30	23.66	-52.3	-54.1	14.4	0.00e+00	0	28	0	882900992	70	4540
2026-01-06 22:48:54.58	116.30	23.38	-51.5	-53.1	14.7	0.00e+00	0	28	0	890241024	69	4260
2026-01-06 22:48:58.58	117.28	23.10	-51.4	-53.0	14.7	0.00e+00	0	27	0	898629632	69	4241
2026-01-06 22:49:02.59	118.25	22.82	-52.0	-53.7	14.5	0.00e+00	0	27	0	905969664	69	4559
2026-01-06 22:49:06.58	119.19	22.53	-51.9	-53.6	14.5	0.00e+00	0	28	0	913309696	69	4514
2026-01-06 22:49:10.58	120.12	22.23	-50.4	-54.1	14.6	0.00e+00	0	27	0	920649728	67	5398
2026-01-06 22:49:14.58	121.03	21.94	-51.7	-53.5	14.6	0.00e+00	0	28	0	927989760	69	4450
2026-01-06 22:49:18.58	121.93	21.63	-52.9	-54.9	14.2	0.00e+00	0	28	0	935329792	71	4702
2026-01-06 22:49:22.58	122.81	21.33	-50.7	-53.8	14.8	0.00e+00	0	28	0	942669824	68	4924
2026-01-06 22:49:26.58	123.67	21.02	-51.2	-53.1	14.4	0.00e+00	0	27	0	951058432	67	4812
2026-01-06 22:49:30.56	124.51	20.71	-52.2	-54.0	14.4	0.00e+00	0	28	0	958398464	70	4483
2026-01-06 22:49:34.56	125.34	20.40	-52.9	-54.9	14.2	0.00e+00	0	27	0	965738496	71	4660
2026-01-06 22:49:38.55	126.15	20.09	-52.5	-54.4	14.4	0.00e+00	0	28	0	973078528	71	4409
2026-01-06 22:49:42.55	126.94	19.77	-51.7	-53.3	14.6	0.00e+00	0	28	0	980418560	69	4367
2026-01-06 22:49:46.55	127.72	19.45	-53.1	-55.1	14.1	0.00e+00	0	28	0	987758592	71	4807
2026-01-06 22:49:50.54	128.49	19.13	-52.0	-53.8	14.5	0.00e+00	0	27	0	995098624	70	4347
2026-01-06 22:49:54.55	129.24	18.82	-52.0	-53.8	14.5	0.00e+00	0	28	0	1003487232	70	4346
2026-01-06 22:49:58.56	129.98	18.49	-51.6	-53.3	14.6	0.00e+00	0	27	0	1010827264	69	4352
2026-01-06 22:50:02.56	130.70	18.17	-51.8	-53.5	14.5	0.00e+00	0	27	0	1018167296	69	4490
2026-01-06 22:50:06.56	131.40	17.85	-52.3	-54.1	14.3	0.00e+00	0	27	0	1025507328	69	4782
2026-01-06 22:50:10.56	132.09	17.54	-52.4	-54.2	14.2	0.00e+00	0	27	0	1032847360	69	4863
2026-01-06 22:50:14.55	132.77	17.22	-53.1	-55.2	14.0	0.00e+00	0	28	0	1040187392	71	4865
2026-01-06 22:50:18.55	133.43	16.90	-52.2	-54.0	14.5	0.00e+00	0	28	0	1048576000	71	4215
2026-01-06 22:50:22.54	134.08	16.58	-52.0	-53.8	14.5	0.00e+00	0	27	0	1055916032	70	4344
2026-01-06 22:50:26.54	134.71	16.26	-51.6	-53.3	14.6	0.00e+00	0	28	0	1063256064	69	4356
2026-01-06 22:50:30.54	135.34	15.95	-51.4	-53.0	14.7	0.00e+00	0	28	0	1070596096	69	4212
2026-01-06 22:50:34.53	135.95	15.63	-52.0	-53.8	14.4	0.00e+00	0	28	0	1077936128	69	4632
2026-01-06 22:50:38.53	136.55	15.32	-52.9	-55.0	14.0	0.00e+00	0	28	0	1085276160	70	4987
2026-01-06 22:50:42.51	137.13	15.00	-52.6	-54.6	14.2	0.00e+00	0	27	0	1092616192	71	4538
2026-01-06 22:50:46.52	137.71	14.69	-52.4	-54.3	14.4	0.00e+00	0	28	0	1101004800	71	4347
2026-01-06 22:50:50.53	138.27	14.38	-52.0	-53.8	14.5	0.00e+00	0	27	0	1108344832	70	4360
2026-01-06 22:50:54.53	138.82	14.07	-51.9	-53.7	14.5	0.00e+00	0	28	0	1115684864	70	4321
2026-01-06 22:50:58.52	139.36	13.76	-51.6	-53.3	14.6	0.00e+00	0	28	0	1123024896	69	4358
2026-01-06 22:51:02.53	139.89	13.46	-52.1	-54.0	14.3	0.00e+00	0	28	0	1130364928	69	4707
2026-01-06 22:51:06.52	140.41	13.15	-52.9	-54.9	14.0	0.00e+00	0	28	0	1137704960	70	4964
2026-01-06 22:51:10.53	140.92	12.85	-53.0	-55.0	14.0	0.00e+00	0	28	0	1145044992	71	4754
2026-01-06 22:51:14.53	141.42	12.55	-52.6	-54.5	14.3	0.00e+00	0	28	0	1153433600	71	4492
2026-01-06 22:51:18.52	141.91	12.25	-52.6	-54.6	14.2	0.00e+00	0	28	0	1160773632	71	4531
2026-01-06 22:51:22.52	142.39	11.95	-53.4	-55.6	13.8	0.00e+00	0	28	0	1168113664	71	5078
2026-01-06 22:51:26.50	142.86	11.66	-53.3	-55.5	13.9	0.00e+00	0	28	0	1175453696	72	4749
2026-01-06 22:51:30.50	143.33	11.37	-53.1	-55.2	14.1	0.00e+00	0	28	0	1182793728	72	4572
2026-01-06 22:51:34.49	143.78	11.07	-53.2	-55.3	14.0	0.00e+00	0	28	0	1190133760	72	4650
2026-01-06 22:51:38.49	144.22	10.78	-53.4	-55.7	13.8	0.00e+00	0	28	0	1197473792	72	4850
2026-01-06 22:51:42.49	144.66	10.50	-53.4	-55.7	13.8	0.00e+00	0	28	0	1205862400	72	4843
2026-01-06 22:51:46.50	145.09	10.21	-53.0	-55.1	14.1	0.00e+00	0	28	0	1213202432	72	4535
2026-01-06 22:51:50.49	145.51	9.93	-53.4	-55.7	13.8	0.00e+00	0	28	0	1220542464	72	4825
2026-01-06 22:51:54.51	145.93	9.64	-53.9	-56.4	13.5	0.00e+00	0	28	0	1227882496	73	4957
2026-01-06 22:51:58.51	146.33	9.36	-54.4	-57.2	13.1	0.00e+00	0	28	0	1235222528	73	5430
2026-01-06 22:52:02.52	146.73	9.08	-54.3	-57.0	13.3	0.00e+00	0	28	0	1242562560	74	4996
2026-01-06 22:52:06.52	147.12	8.81	-53.9	-56.4	13.6	0.00e+00	0	28	0	1250951168	74	4696
2026-01-06 22:52:10.53	147.51	8.53	-53.4	-55.7	13.8	0.00e+00	0	28	0	1258291200	73	4575
2026-01-06 22:52:14.54	147.88	8.26	-53.2	-55.4	13.9	0.00e+00	0	28	0	1265631232	72	4691
2026-01-06 22:52:18.53	148.25	7.99	-53.2	-55.4	13.8	0.00e+00	0	28	0	1272971264	72	4698
2026-01-06 22:52:22.52	148.62	7.72	-53.3	-55.6	13.7	0.00e+00	0	28	0	1280311296	72	4790
2026-01-06 22:52:26.52	148.98	7.46	-53.3	-55.5	13.8	0.00e+00	0	28	0	1287651328	72	4754
2026-01-06 22:52:30.51	149.33	7.19	-53.3	-55.6	13.7	0.00e+00	0	28	0	1296039936	72	4791
2026-01-06 22:52:34.49	149.67	6.93	-53.1	-55.4	13.8	0.00e+00	0	28	0	1303379968	72	4686
2026-01-06 22:52:38.50	150.01	6.67	-53.3	-55.7	13.7	0.00e+00	0	28	0	1310720000	72	4862
2026-01-06 22:52:42.49	150.34	6.41	-53.7	-56.3	13.3	0.00e+00	0	28	0	1318060032	72	5216
2026-01-06 22:52:46.50	150.67	6.15	-54.3	-57.2	12.9	0.00e+00	0	28	0	1325400064	73	5414
2026-01-06 22:52:50.50	151.00	5.90	-54.4	-57.4	12.8	0.00e+00	0	28	0	1332740096	74	5237
2026-01-06 22:52:54.50	151.31	5.64	-54.3	-57.4	12.9	0.00e+00	0	28	0	1340080128	74	5224
2026-01-06 22:52:58.50	151.63	5.39	-54.1	-56.9	13.1	0.00e+00	0	28	0	1348468736	74	4967
2026-01-06 22:53:02.51	151.94	5.14	-54.2	-57.1	13.0	0.00e+00	0	28	0	1355808768	74	5080
2026-01-06 22:53:06.51	152.24	4.89	-59.1	-75.1	3.8	1.49e+00	0	28	104	1360003072	83	24127
2026-01-06 22:53:10.51	152.54	4.64	-59.9	-76.0	3.8	1.49e+00	0	28	104	1360003072	84	25019
2026-01-06 22:53:14.52	152.83	4.40	-60.2	-76.3	3.8	1.49e+00	0	28	104	1360003072	85	24498
2026-01-06 22:53:18.52	153.12	4.15	-60.4	-76.5	3.8	1.49e+00	0	28	104	1360003072	85	25153
2026-01-06 22:53:22.53	153.40	3.91	-60.6	-76.7	3.8	1.49e+00	0	28	104	1360003072	86	24280
2026-01-06 22:53:26.53	153.68	3.67	-60.6	-76.7	3.8	1.49e+00	0	28	104	1360003072	86	24293
2026-01-06 22:53:30.53	153.96	3.43	-60.5	-76.6	3.8	1.49e+00	0	28	104	1360003072	86	24095
2026-01-06 22:53:34.53	154.23	3.19	-60.5	-76.6	3.8	1.49e+00	0	28	104	1360003072	86	24067
2026-01-06 22:53:38.51	154.49	2.96	-60.5	-76.6	3.8	1.49e+00	0	28	104	1360003072	86	24021
2026-01-06 22:53:42.51	154.76	2.73	-60.5	-76.6	3.8	1.49e+00	0	28	104	1360003072	86	23916
2026-01-06 22:53:46.50	155.02	2.49	-60.5	-76.5	3.8	1.49e+00	0	28	104	1360003072	86	23853
2026-01-06 22:53:50.52	155.27	2.26	-60.5	-76.6	3.8	1.49e+00	0	28	104	1360003072	86	23863
2026-01-06 22:53:54.52	155.52	2.03	-60.4	-76.5	3.8	1.49e+00	0	28	104	1360003072	86	23837

#Closed at: 2026-01-06 22:53:55
#Recorded file [1360 MB]: D:/lorett/data/31004_260107_014034.dat