passes_logs/2026/01/06/R3.2S_Murmansk/R3.2S_Murmansk__20260106_010041_NOAA_20_JPSS-1_rec.log

#Pass ID: 20260106_010041_NOAA 20 (JPSS-1)
#Satellite: NOAA 20 (JPSS-1)
#Configuration: NOAA 20
#almurnet v.1.7.20251203
#Start time: 2026-01-06 01:00:43

#Version: 2.2.20231116
#Station: R3.2S_Murmansk
#Location: 33.079688 lon 68.888172 lat
#TLE: 1 43013U 17073A   26005.46207808  .00000128  00000+0  81791-4 0  9997
#TLE: 2 43013  98.7627 306.5027 0001826  53.0458 307.0885 14.19533487421381

#Time	Az	El	Level	Level2	SNR	BER	BlckErr	Temp	State	Recorded	gain1	gain2
2026-01-06 01:00:43.23	25.81	2.11	-58.0	-73.9	3.8	1.49e+00	0	24	0	0	82	22231
2026-01-06 01:00:47.22	25.79	2.36	-57.9	-73.9	3.8	1.49e+00	0	25	104	0	81	23419
2026-01-06 01:00:51.22	25.77	2.62	-57.9	-73.9	3.8	1.49e+00	0	25	104	0	81	23395
2026-01-06 01:00:55.21	25.74	2.88	-57.9	-73.8	3.8	1.49e+00	0	25	104	0	81	23274
2026-01-06 01:00:59.21	25.72	3.15	-58.0	-73.9	3.8	1.49e+00	0	25	104	0	81	23333
2026-01-06 01:01:03.20	25.70	3.41	-58.0	-73.8	3.8	1.49e+00	0	25	104	0	81	23307
2026-01-06 01:01:07.20	25.68	3.68	-57.9	-73.8	3.8	1.49e+00	0	25	104	0	81	23077
2026-01-06 01:01:11.21	25.65	3.96	-57.9	-73.3	3.8	1.49e+00	0	25	104	0	81	21771
2026-01-06 01:01:15.23	25.63	4.23	-57.7	-68.6	4.8	8.98e-01	0	25	0	2097152	81	12751
2026-01-06 01:01:19.24	25.60	4.51	-57.4	-66.5	6.1	2.99e-01	0	25	0	9437184	81	9957
2026-01-06 01:01:23.25	25.58	4.79	-57.3	-65.5	6.8	1.31e-01	0	26	0	16777216	81	8873
2026-01-06 01:01:27.25	25.55	5.08	-57.4	-66.3	6.2	1.72e-01	0	26	0	24117248	81	9814
2026-01-06 01:01:31.23	25.52	5.36	-55.9	-60.1	11.4	5.18e-03	0	26	0	29360128	78	5657
2026-01-06 01:01:35.21	25.49	5.65	-55.7	-59.7	11.7	1.60e-05	0	26	0	36700160	78	5452
2026-01-06 01:01:39.20	25.46	5.94	-55.1	-58.5	12.5	1.50e-06	0	26	0	45088768	76	5303
2026-01-06 01:01:43.20	25.43	6.24	-55.2	-58.5	12.5	0.00e+00	0	26	0	52428800	76	5335
2026-01-06 01:01:47.19	25.40	6.54	-55.0	-58.2	12.7	7.00e-07	0	26	0	59768832	76	5129
2026-01-06 01:01:51.19	25.37	6.84	-55.0	-58.2	12.7	0.00e+00	0	26	0	67108864	76	5137
2026-01-06 01:01:55.18	25.33	7.15	-54.9	-58.0	12.9	0.00e+00	0	26	0	74448896	76	5007
2026-01-06 01:01:59.18	25.30	7.46	-54.8	-57.8	13.0	0.00e+00	0	26	0	81788928	76	4919
2026-01-06 01:02:03.19	25.26	7.77	-54.8	-57.7	13.1	0.00e+00	0	26	0	90177536	76	4852
2026-01-06 01:02:07.17	25.22	8.09	-54.6	-57.5	13.1	0.00e+00	0	26	0	97517568	75	5014
2026-01-06 01:02:11.17	25.19	8.41	-54.6	-57.5	13.2	0.00e+00	0	26	0	104857600	75	4994
2026-01-06 01:02:15.16	25.15	8.74	-54.5	-57.3	13.3	0.00e+00	0	26	0	112197632	75	4879
2026-01-06 01:02:19.15	25.10	9.07	-54.4	-57.2	13.4	0.00e+00	0	26	0	119537664	75	4820
2026-01-06 01:02:23.17	25.06	9.40	-54.4	-57.1	13.4	0.00e+00	0	26	0	126877696	75	4789
2026-01-06 01:02:27.16	25.02	9.74	-54.4	-57.0	13.5	0.00e+00	0	26	0	134217728	75	4759
2026-01-06 01:02:31.18	24.97	10.09	-54.3	-56.9	13.6	0.00e+00	0	26	0	142606336	75	4653
2026-01-06 01:02:35.18	24.93	10.44	-54.2	-56.7	13.7	0.00e+00	0	26	0	149946368	75	4575
2026-01-06 01:02:39.18	24.88	10.79	-54.1	-56.6	13.6	0.00e+00	0	26	0	157286400	74	4812
2026-01-06 01:02:43.17	24.83	11.15	-54.1	-56.6	13.7	0.00e+00	0	26	0	164626432	74	4763
2026-01-06 01:02:47.17	24.78	11.52	-54.0	-56.5	13.7	0.00e+00	0	26	0	171966464	74	4714
2026-01-06 01:02:51.17	24.72	11.89	-53.9	-56.3	13.9	0.00e+00	0	26	0	179306496	74	4607
2026-01-06 01:02:55.16	24.67	12.26	-53.8	-56.1	14.0	0.00e+00	0	26	0	186646528	74	4499
2026-01-06 01:02:59.16	24.61	12.64	-53.7	-56.0	14.0	0.00e+00	0	26	0	195035136	74	4454
2026-01-06 01:03:03.14	24.55	13.03	-53.6	-55.8	14.0	0.00e+00	0	26	0	202375168	73	4642
2026-01-06 01:03:07.15	24.49	13.42	-53.5	-55.7	14.1	0.00e+00	0	26	0	209715200	73	4546
2026-01-06 01:03:11.15	24.43	13.82	-53.4	-55.5	14.2	0.00e+00	0	26	0	217055232	73	4481
2026-01-06 01:03:15.16	24.36	14.23	-53.2	-55.3	14.3	0.00e+00	0	26	0	224395264	73	4375
2026-01-06 01:03:19.16	24.29	14.65	-53.2	-55.3	14.3	0.00e+00	0	26	0	231735296	73	4353
2026-01-06 01:03:23.15	24.22	15.07	-53.1	-55.1	14.3	0.00e+00	0	26	0	239075328	72	4513
2026-01-06 01:03:27.14	24.15	15.49	-52.9	-54.9	14.4	0.00e+00	0	26	0	247463936	72	4432
2026-01-06 01:03:31.13	24.08	15.93	-52.9	-54.9	14.4	0.00e+00	0	26	0	254803968	72	4420
2026-01-06 01:03:35.12	24.00	16.37	-52.8	-54.8	14.4	0.00e+00	0	26	0	262144000	72	4343
2026-01-06 01:03:39.12	23.92	16.82	-52.6	-54.5	14.4	0.00e+00	0	26	0	269484032	71	4465
2026-01-06 01:03:43.14	23.83	17.29	-52.5	-54.3	14.5	0.00e+00	0	26	0	276824064	71	4382
2026-01-06 01:03:47.13	23.75	17.75	-52.4	-54.2	14.6	0.00e+00	0	26	0	284164096	71	4294
2026-01-06 01:03:51.12	23.66	18.23	-52.3	-54.0	14.7	0.00e+00	0	26	0	291504128	71	4235
2026-01-06 01:03:55.10	23.56	18.72	-52.2	-53.9	14.6	0.00e+00	0	26	0	299892736	70	4419
2026-01-06 01:03:59.09	23.47	19.21	-52.0	-53.7	14.7	0.00e+00	0	26	0	307232768	70	4323
2026-01-06 01:04:03.10	23.36	19.72	-52.0	-53.7	14.7	0.00e+00	0	26	0	314572800	70	4302
2026-01-06 01:04:07.10	23.26	20.24	-51.9	-53.6	14.8	0.00e+00	0	26	0	321912832	70	4246
2026-01-06 01:04:11.10	23.15	20.77	-51.9	-53.5	14.8	0.00e+00	0	26	0	329252864	70	4238
2026-01-06 01:04:15.10	23.04	21.31	-51.8	-53.4	14.8	0.00e+00	0	26	0	336592896	70	4176
2026-01-06 01:04:19.09	22.92	21.86	-51.7	-53.3	14.9	0.00e+00	0	26	0	344981504	70	4139
2026-01-06 01:04:23.09	22.80	22.42	-51.7	-53.3	14.7	0.00e+00	0	26	0	352321536	69	4359
2026-01-06 01:04:27.07	22.67	22.99	-51.8	-53.4	14.7	0.00e+00	0	26	0	359661568	69	4440
2026-01-06 01:04:31.07	22.53	23.58	-51.8	-53.4	14.7	0.00e+00	0	26	0	367001600	69	4429
2026-01-06 01:04:35.07	22.39	24.19	-51.9	-53.5	14.6	0.00e+00	0	26	0	374341632	69	4481
2026-01-06 01:04:39.04	22.25	24.80	-52.0	-53.7	14.6	0.00e+00	0	26	0	381681664	69	4583
2026-01-06 01:04:43.04	22.10	25.43	-52.1	-53.8	14.5	0.00e+00	0	26	0	389021696	69	4637
2026-01-06 01:04:47.05	21.94	26.08	-52.3	-54.1	14.4	0.00e+00	0	26	0	397410304	69	4780
2026-01-06 01:04:51.04	21.77	26.74	-52.5	-54.3	14.5	0.00e+00	0	26	0	404750336	70	4611
2026-01-06 01:04:55.01	21.60	27.41	-52.7	-54.6	14.3	0.00e+00	0	26	0	412090368	70	4789
2026-01-06 01:04:59.00	21.42	28.10	-53.1	-55.1	14.3	0.00e+00	0	26	0	419430400	71	4760
2026-01-06 01:05:03.01	21.22	28.82	-53.7	-55.8	14.0	0.00e+00	0	26	0	426770432	72	4883
2026-01-06 01:05:06.98	21.02	29.54	-54.0	-56.2	13.9	0.00e+00	0	26	0	434110464	73	4853
2026-01-06 01:05:10.98	20.81	30.29	-54.2	-56.5	13.8	0.00e+00	0	26	0	441450496	73	5025
2026-01-06 01:05:14.98	20.59	31.06	-54.3	-56.6	13.7	0.00e+00	0	26	0	449839104	73	5075
2026-01-06 01:05:18.98	20.36	31.85	-54.6	-57.0	13.6	0.00e+00	0	26	0	457179136	74	5023
2026-01-06 01:05:22.98	20.11	32.66	-54.7	-57.2	13.5	0.00e+00	0	26	0	464519168	74	5150
2026-01-06 01:05:26.98	19.85	33.49	-54.5	-56.9	13.7	0.00e+00	0	26	0	471859200	74	4953
2026-01-06 01:05:30.98	19.57	34.35	-54.2	-56.5	13.9	0.00e+00	0	26	0	479199232	74	4720
2026-01-06 01:05:34.96	19.29	35.22	-53.5	-55.5	14.3	0.00e+00	0	26	0	486539264	73	4449
2026-01-06 01:05:38.95	18.98	36.12	-52.7	-54.5	14.7	0.00e+00	0	26	0	493879296	72	4195
2026-01-06 01:05:42.95	18.65	37.05	-52.4	-54.2	14.7	0.00e+00	0	26	0	501219328	71	4293
2026-01-06 01:05:46.94	18.31	38.00	-52.3	-54.0	14.7	0.00e+00	0	26	0	509607936	71	4218
2026-01-06 01:05:50.93	17.94	38.98	-52.9	-54.7	14.5	0.00e+00	0	26	0	516947968	71	4574
2026-01-06 01:05:54.93	17.55	39.98	-53.4	-55.4	14.2	0.00e+00	0	26	0	524288000	71	4962
2026-01-06 01:05:58.90	17.13	41.01	-54.2	-56.4	13.9	0.00e+00	0	26	0	531628032	73	4981
2026-01-06 01:06:02.89	16.68	42.07	-54.2	-56.4	13.9	0.00e+00	0	26	0	538968064	73	4930
2026-01-06 01:06:06.87	16.20	43.15	-54.3	-56.5	13.9	0.00e+00	0	26	0	546308096	74	4739
2026-01-06 01:06:10.85	15.69	44.27	-54.5	-56.8	13.7	0.00e+00	0	26	0	553648128	74	4915
2026-01-06 01:06:14.84	15.14	45.42	-54.6	-56.9	13.8	0.00e+00	0	26	0	562036736	74	4981
2026-01-06 01:06:18.83	14.54	46.60	-54.4	-56.7	13.8	0.00e+00	0	26	0	569376768	74	4831
2026-01-06 01:06:22.82	13.90	47.81	-54.9	-57.4	13.6	0.00e+00	0	26	0	576716800	75	4976
2026-01-06 01:06:26.81	13.20	49.05	-54.8	-57.2	13.7	0.00e+00	0	26	0	584056832	75	4816
2026-01-06 01:06:30.80	12.44	50.32	-54.2	-56.4	14.1	0.00e+00	0	27	0	591396864	74	4657
2026-01-06 01:06:34.79	11.61	51.62	-52.3	-54.0	14.8	0.00e+00	0	26	0	598736896	71	4210
2026-01-06 01:06:38.78	10.71	52.95	-51.4	-52.9	15.0	0.00e+00	0	26	0	606076928	69	4161
2026-01-06 01:06:42.74	9.72	54.30	-51.5	-53.0	14.9	0.00e+00	0	26	0	613416960	69	4195
2026-01-06 01:06:46.74	8.62	55.68	-52.4	-54.0	14.6	0.00e+00	0	26	0	621805568	69	4746
2026-01-06 01:06:50.73	7.41	57.09	-53.7	-55.7	14.2	0.00e+00	0	26	0	629145600	72	4826
2026-01-06 01:06:54.71	6.06	58.52	-54.6	-56.9	13.9	0.00e+00	0	26	0	636485632	75	4659
2026-01-06 01:06:58.70	4.56	59.97	-53.2	-55.1	14.6	0.00e+00	0	26	0	643825664	73	4258
2026-01-06 01:07:02.68	2.88	61.43	-51.1	-52.5	15.0	0.00e+00	0	26	0	651165696	68	4210
2026-01-06 01:07:06.67	0.99	62.90	-51.4	-52.9	14.9	0.00e+00	0	26	0	658505728	68	4428
2026-01-06 01:07:10.69	358.82	64.38	-52.3	-53.9	14.6	0.00e+00	0	26	0	665845760	69	4694
2026-01-06 01:07:14.70	356.36	65.85	-53.6	-55.5	14.3	0.00e+00	0	26	0	674234368	72	4736
2026-01-06 01:07:18.70	353.56	67.30	-54.3	-56.4	14.1	0.00e+00	0	27	0	681574400	74	4671
2026-01-06 01:07:22.69	350.34	68.71	-54.7	-57.1	13.8	0.00e+00	0	27	0	688914432	74	5050
2026-01-06 01:07:26.69	346.63	70.07	-52.7	-54.4	14.8	0.00e+00	0	26	0	696254464	72	4172
2026-01-06 01:07:30.68	342.36	71.36	-52.3	-54.0	14.7	0.00e+00	0	26	0	703594496	70	4445
2026-01-06 01:07:34.67	337.44	72.55	-53.0	-54.7	14.5	0.00e+00	0	26	0	710934528	71	4584
2026-01-06 01:07:38.66	331.80	73.61	-53.2	-55.0	14.4	0.00e+00	0	26	0	718274560	71	4707
2026-01-06 01:07:42.65	325.41	74.50	-54.9	-57.2	13.9	0.00e+00	0	27	0	726663168	76	4563
2026-01-06 01:07:46.66	318.26	75.20	-55.6	-58.2	13.5	0.00e+00	0	26	0	734003200	76	5136
2026-01-06 01:07:50.67	310.51	75.65	-57.1	-60.8	12.1	1.50e-06	0	26	0	741343232	79	5790
2026-01-06 01:07:54.68	302.40	75.83	-55.6	-58.2	13.6	0.00e+00	0	27	0	748683264	77	4822
2026-01-06 01:07:58.68	294.25	75.74	-55.3	-57.8	13.7	0.00e+00	0	26	0	756023296	76	4889
2026-01-06 01:08:02.66	286.41	75.38	-55.5	-58.0	13.6	0.00e+00	0	26	0	763363328	76	4996
2026-01-06 01:08:06.66	279.05	74.76	-56.1	-59.0	13.1	0.00e+00	0	26	0	770703360	77	5339
2026-01-06 01:08:10.66	272.38	73.93	-55.1	-57.4	13.9	0.00e+00	0	26	0	779091968	76	4691
2026-01-06 01:08:14.66	266.47	72.92	-54.1	-56.1	14.3	0.00e+00	0	27	0	786432000	74	4507
2026-01-06 01:08:18.68	261.27	71.77	-53.1	-54.9	14.6	0.00e+00	0	26	0	793772032	72	4407
2026-01-06 01:08:22.69	256.77	70.50	-54.4	-56.5	14.0	0.00e+00	0	26	0	801112064	73	5030
2026-01-06 01:08:26.66	252.91	69.17	-55.9	-58.7	13.1	0.00e+00	0	26	0	808452096	76	5410
2026-01-06 01:08:30.65	249.54	67.77	-56.1	-59.0	13.0	0.00e+00	0	26	0	815792128	77	5306
2026-01-06 01:08:34.63	246.61	66.34	-54.0	-55.9	14.3	0.00e+00	0	27	0	824180736	74	4440
2026-01-06 01:08:38.60	244.06	64.88	-51.9	-53.4	14.9	0.00e+00	0	27	0	831520768	70	4189
2026-01-06 01:08:42.58	241.82	63.41	-50.9	-52.3	15.1	0.00e+00	0	26	0	838860800	68	4133
2026-01-06 01:08:46.57	239.83	61.94	-50.8	-52.3	14.9	0.00e+00	0	26	0	846200832	67	4344
2026-01-06 01:08:50.55	238.08	60.47	-53.7	-55.7	14.2	0.00e+00	0	26	0	853540864	72	4844
2026-01-06 01:08:54.54	236.52	59.02	-56.4	-59.6	12.7	0.00e+00	0	26	0	860880896	77	5659
2026-01-06 01:08:58.51	235.12	57.58	-55.7	-58.4	13.5	0.00e+00	0	26	0	868220928	78	4666
2026-01-06 01:09:02.49	233.86	56.17	-55.1	-57.5	13.8	0.00e+00	0	26	0	875560960	76	4742
2026-01-06 01:09:06.48	232.73	54.77	-53.2	-55.0	14.6	0.00e+00	0	27	0	882900992	73	4224
2026-01-06 01:09:10.46	231.70	53.40	-52.5	-54.2	14.7	0.00e+00	0	26	0	891289600	71	4292
2026-01-06 01:09:14.46	230.76	52.06	-52.8	-54.6	14.6	0.00e+00	0	26	0	898629632	71	4497
2026-01-06 01:09:18.45	229.90	50.74	-53.7	-55.6	14.2	0.00e+00	0	26	0	905969664	72	4807
2026-01-06 01:09:22.43	229.12	49.46	-54.8	-57.1	13.7	0.00e+00	0	26	0	913309696	74	5085
2026-01-06 01:09:26.43	228.40	48.21	-54.9	-57.3	13.7	0.00e+00	0	26	0	920649728	75	4888
2026-01-06 01:09:30.40	227.74	46.99	-54.1	-56.2	14.2	0.00e+00	0	27	0	927989760	74	4560
2026-01-06 01:09:34.39	227.12	45.80	-54.2	-56.3	14.1	0.00e+00	0	27	0	935329792	74	4650
2026-01-06 01:09:38.38	226.55	44.63	-54.3	-56.5	14.0	0.00e+00	0	26	0	943718400	74	4729
2026-01-06 01:09:42.36	226.03	43.51	-54.8	-57.2	13.6	0.00e+00	0	27	0	951058432	74	5159
2026-01-06 01:09:46.34	225.54	42.41	-55.5	-58.1	13.4	0.00e+00	0	26	0	958398464	76	5098
2026-01-06 01:09:50.35	225.07	41.33	-54.9	-57.3	13.8	0.00e+00	0	27	0	965738496	76	4627
2026-01-06 01:09:54.34	224.64	40.28	-55.2	-57.8	13.6	0.00e+00	0	26	0	973078528	76	4874
2026-01-06 01:09:58.33	224.24	39.27	-55.3	-57.8	13.5	0.00e+00	0	26	0	980418560	76	4905
2026-01-06 01:10:02.34	223.86	38.28	-54.3	-56.5	14.1	0.00e+00	0	26	0	987758592	75	4448
2026-01-06 01:10:06.32	223.51	37.32	-54.0	-56.0	14.2	0.00e+00	0	26	0	995098624	74	4475
2026-01-06 01:10:10.31	223.18	36.38	-54.5	-56.8	13.8	0.00e+00	0	26	0	1003487232	74	4878
2026-01-06 01:10:14.32	222.86	35.47	-54.4	-56.7	13.9	0.00e+00	0	26	0	1010827264	74	4820
2026-01-06 01:10:18.32	222.56	34.58	-54.7	-57.1	13.7	0.00e+00	0	27	0	1018167296	74	5056
2026-01-06 01:10:22.32	222.28	33.71	-55.1	-57.6	13.5	0.00e+00	0	26	0	1025507328	75	5088
2026-01-06 01:10:26.33	222.02	32.87	-55.7	-58.5	13.1	0.00e+00	0	27	0	1032847360	76	5307
2026-01-06 01:10:30.33	221.76	32.05	-55.1	-57.7	13.6	0.00e+00	0	26	0	1040187392	76	4815
2026-01-06 01:10:34.34	221.52	31.25	-55.1	-57.6	13.6	0.00e+00	0	26	0	1048576000	76	4803
2026-01-06 01:10:38.34	221.30	30.47	-55.4	-58.0	13.4	0.00e+00	0	27	0	1055916032	76	5015
2026-01-06 01:10:42.24	221.08	29.73	-55.6	-58.4	13.1	0.00e+00	0	26	0	1063256064	76	5265
2026-01-06 01:10:46.21	220.88	29.00	-55.4	-58.1	13.3	0.00e+00	0	27	0	1070596096	76	5050
2026-01-06 01:10:50.21	220.68	28.28	-55.1	-57.7	13.5	0.00e+00	0	26	0	1077936128	76	4854
2026-01-06 01:10:54.20	220.50	27.58	-54.5	-56.8	13.9	0.00e+00	0	27	0	1085276160	75	4623
2026-01-06 01:10:58.21	220.32	26.89	-54.2	-56.5	13.9	0.00e+00	0	26	0	1092616192	74	4720
2026-01-06 01:11:02.20	220.15	26.22	-54.4	-56.7	13.8	0.00e+00	0	27	0	1101004800	74	4829
2026-01-06 01:11:06.20	219.98	25.57	-54.5	-56.8	13.7	0.00e+00	0	27	0	1108344832	74	4925
2026-01-06 01:11:10.20	219.83	24.93	-54.0	-56.2	14.1	0.00e+00	0	26	0	1115684864	74	4569
2026-01-06 01:11:14.21	219.68	24.31	-53.6	-55.6	14.2	0.00e+00	0	27	0	1123024896	73	4517
2026-01-06 01:11:18.22	219.53	23.70	-52.9	-54.7	14.5	0.00e+00	0	26	0	1130364928	72	4333
2026-01-06 01:11:22.22	219.40	23.10	-53.0	-54.9	14.4	0.00e+00	0	27	0	1137704960	72	4419
2026-01-06 01:11:26.21	219.27	22.52	-53.0	-54.9	14.4	0.00e+00	0	26	0	1145044992	72	4430
2026-01-06 01:11:30.21	219.14	21.95	-53.1	-55.0	14.3	0.00e+00	0	26	0	1153433600	72	4488
2026-01-06 01:11:34.21	219.02	21.40	-53.2	-55.2	14.3	0.00e+00	0	26	0	1160773632	72	4556
2026-01-06 01:11:38.20	218.90	20.85	-53.3	-55.3	14.3	0.00e+00	0	26	0	1168113664	72	4601
2026-01-06 01:11:42.19	218.79	20.32	-53.6	-55.7	14.1	0.00e+00	0	27	0	1175453696	72	4833
2026-01-06 01:11:46.17	218.68	19.80	-53.8	-56.0	13.9	0.00e+00	0	27	0	1182793728	72	5008
2026-01-06 01:11:50.16	218.58	19.29	-53.9	-56.1	13.9	0.00e+00	0	26	0	1190133760	73	4803
2026-01-06 01:11:54.16	218.48	18.79	-53.9	-56.2	13.9	0.00e+00	0	26	0	1197473792	73	4822
2026-01-06 01:11:58.14	218.38	18.30	-53.9	-56.1	13.9	0.00e+00	0	27	0	1205862400	73	4793
2026-01-06 01:12:02.12	218.29	17.82	-53.9	-56.2	13.9	0.00e+00	0	26	0	1213202432	73	4830
2026-01-06 01:12:06.09	218.20	17.35	-53.8	-56.0	14.0	0.00e+00	0	26	0	1220542464	73	4748
2026-01-06 01:12:10.07	218.11	16.89	-53.8	-56.1	13.9	0.00e+00	0	26	0	1227882496	73	4765
2026-01-06 01:12:14.04	218.03	16.44	-53.9	-56.1	13.9	0.00e+00	0	27	0	1235222528	73	4811
2026-01-06 01:12:18.05	217.95	15.99	-53.9	-56.2	13.9	0.00e+00	0	27	0	1242562560	73	4838
2026-01-06 01:12:22.05	217.87	15.55	-54.1	-56.5	13.7	0.00e+00	0	27	0	1249902592	73	4997
2026-01-06 01:12:26.07	217.79	15.11	-54.3	-56.8	13.5	0.00e+00	0	27	0	1257242624	73	5201
2026-01-06 01:12:30.09	217.72	14.69	-54.5	-57.1	13.5	0.00e+00	0	27	0	1265631232	74	5046
2026-01-06 01:12:34.09	217.65	14.27	-54.6	-57.2	13.4	0.00e+00	0	26	0	1272971264	74	5114
2026-01-06 01:12:38.11	217.58	13.86	-54.4	-57.0	13.5	0.00e+00	0	27	0	1280311296	74	4994
2026-01-06 01:12:42.10	217.52	13.46	-54.4	-56.9	13.5	0.00e+00	0	27	0	1287651328	74	4972
2026-01-06 01:12:46.12	217.45	13.06	-54.2	-56.6	13.7	0.00e+00	0	26	0	1294991360	74	4768
2026-01-06 01:12:50.13	217.39	12.67	-54.1	-56.5	13.8	0.00e+00	0	26	0	1302331392	74	4726
2026-01-06 01:12:54.14	217.33	12.28	-54.0	-56.4	13.8	0.00e+00	0	26	0	1310720000	74	4659
2026-01-06 01:12:58.15	217.27	11.90	-54.0	-56.3	13.8	0.00e+00	0	26	0	1318060032	74	4639
2026-01-06 01:13:02.15	217.21	11.53	-54.0	-56.3	13.8	0.00e+00	0	26	0	1325400064	74	4640
2026-01-06 01:13:06.14	217.16	11.16	-53.9	-56.2	13.9	0.00e+00	0	26	0	1332740096	74	4597
2026-01-06 01:13:10.12	217.11	10.80	-54.1	-56.5	13.7	0.00e+00	0	26	0	1340080128	74	4722
2026-01-06 01:13:14.11	217.06	10.45	-54.2	-56.7	13.6	0.00e+00	0	27	0	1347420160	74	4826
2026-01-06 01:13:18.09	217.01	10.10	-54.3	-56.8	13.6	0.00e+00	0	27	0	1355808768	74	4884
2026-01-06 01:13:22.09	216.96	9.75	-54.4	-57.0	13.4	0.00e+00	0	27	0	1363148800	74	5006
2026-01-06 01:13:26.07	216.91	9.41	-54.5	-57.3	13.3	0.00e+00	0	26	0	1370488832	74	5169
2026-01-06 01:13:30.06	216.87	9.07	-54.7	-57.5	13.1	0.00e+00	0	26	0	1377828864	74	5297
2026-01-06 01:13:34.06	216.82	8.74	-54.7	-57.6	13.0	0.00e+00	0	27	0	1385168896	74	5375
2026-01-06 01:13:38.05	216.78	8.41	-54.8	-57.8	12.9	0.00e+00	0	27	0	1392508928	74	5499
2026-01-06 01:13:42.03	216.74	8.09	-54.9	-57.9	12.8	0.00e+00	0	26	0	1399848960	74	5530
2026-01-06 01:13:46.02	216.70	7.77	-54.9	-58.0	12.8	0.00e+00	0	26	0	1407188992	75	5303
2026-01-06 01:13:50.02	216.66	7.45	-55.0	-58.1	12.8	0.00e+00	0	26	0	1415577600	75	5373
2026-01-06 01:13:54.01	216.62	7.14	-55.0	-58.1	12.8	0.00e+00	0	26	0	1422917632	75	5361
2026-01-06 01:13:58.01	216.58	6.83	-55.0	-58.2	12.6	0.00e+00	0	26	0	1430257664	75	5431
2026-01-06 01:14:02.00	216.55	6.53	-55.0	-58.3	12.6	0.00e+00	0	27	0	1437597696	75	5482
2026-01-06 01:14:05.99	216.51	6.23	-55.0	-58.2	12.6	0.00e+00	0	27	0	1444937728	75	5452
2026-01-06 01:14:09.97	216.48	5.93	-55.0	-58.2	12.6	0.00e+00	0	27	0	1452277760	75	5445
2026-01-06 01:14:13.95	216.45	5.64	-54.9	-58.2	12.5	0.00e+00	0	27	0	1459617792	75	5458
2026-01-06 01:14:17.93	216.41	5.35	-55.1	-58.5	12.3	7.00e-07	0	27	0	1466957824	75	5651
2026-01-06 01:14:21.92	216.38	5.06	-55.1	-58.5	12.3	0.00e+00	0	27	0	1475346432	75	5639
2026-01-06 01:14:25.92	216.35	4.78	-59.7	-75.8	3.8	1.49e+00	0	27	104	1476395008	84	24458
2026-01-06 01:14:29.92	216.32	4.49	-60.1	-76.2	3.8	1.49e+00	0	27	104	1476395008	85	24140
2026-01-06 01:14:33.92	216.29	4.22	-60.3	-76.3	3.8	1.49e+00	0	27	104	1476395008	85	24597
2026-01-06 01:14:37.93	216.27	3.94	-60.4	-76.4	3.8	1.49e+00	0	27	104	1476395008	85	24948
2026-01-06 01:14:41.91	216.24	3.67	-60.5	-76.6	3.8	1.49e+00	0	27	104	1476395008	86	23858
2026-01-06 01:14:45.89	216.21	3.40	-60.5	-76.6	3.8	1.49e+00	0	27	104	1476395008	86	23927
2026-01-06 01:14:49.91	216.19	3.13	-60.4	-76.5	3.8	1.49e+00	0	27	104	1476395008	86	23719
2026-01-06 01:14:53.91	216.16	2.86	-60.4	-76.5	3.8	1.49e+00	0	27	104	1476395008	86	23691
2026-01-06 01:14:57.93	216.14	2.60	-60.4	-76.5	3.8	1.49e+00	0	27	104	1476395008	86	23676
2026-01-06 01:15:01.94	216.11	2.34	-60.4	-76.4	3.8	1.49e+00	0	27	104	1476395008	86	23558
2026-01-06 01:15:05.94	216.09	2.08	-60.4	-76.4	3.8	1.49e+00	0	27	104	1476395008	86	23464
2026-01-06 01:15:09.94	216.07	1.82	-60.3	-76.4	3.8	1.49e+00	0	27	104	1476395008	86	23496

#Closed at: 2026-01-06 01:15:10
#Recorded file [1476 MB]: D:/lorett/data/31004_260106_040043.dat