passes_logs/2026/01/06/R3.2S_Murmansk/R3.2S_Murmansk__20260106_100521_TY-42_rec.log

#Pass ID: 20260106_100521_TY-42
#Satellite: TY-42
#Configuration: TY-42_900M
#almurnet v.1.7.20251203
#Start time: 2026-01-06 10:05:21

#Version: 2.2.20231116
#Station: R3.2S_Murmansk
#Location: 33.079688 lon 68.888172 lat
#TLE: 1 64048U 25103A   26005.68684028  .00008011  00000-0  38191-3 0 09993
#TLE: 2 64048 097.4106 081.2795 0001725 092.4682 306.5290 15.19173644 35407

#Time	Az	El	Level	Level2	SNR	BER	BlckErr	Temp	State	Recorded	gain1	gain2
2026-01-06 10:05:21.70	21.38	2.03	-57.9	-61.2	6.1	0.00e+00	0	32	0	0	82	21243
2026-01-06 10:05:24.66	21.31	2.23	-58.0	-61.2	6.2	0.00e+00	0	33	104	0	83	20074
2026-01-06 10:05:27.62	21.23	2.44	-58.0	-61.3	6.2	0.00e+00	0	33	104	0	83	20164
2026-01-06 10:05:30.59	21.15	2.65	-58.0	-61.2	6.2	0.00e+00	0	33	104	0	83	20135
2026-01-06 10:05:33.54	21.06	2.86	-58.0	-61.3	6.2	0.00e+00	0	34	104	0	83	20228
2026-01-06 10:05:36.51	20.98	3.07	-58.0	-61.2	6.2	0.00e+00	0	34	104	0	83	20143
2026-01-06 10:05:39.49	20.89	3.29	-58.0	-61.3	6.2	0.00e+00	0	34	104	0	83	20221
2026-01-06 10:05:42.47	20.80	3.51	-58.0	-61.3	6.1	0.00e+00	0	34	104	0	83	20288
2026-01-06 10:05:45.43	20.71	3.73	-58.1	-61.3	6.2	0.00e+00	0	34	104	0	83	20344
2026-01-06 10:05:48.38	20.62	3.95	-58.1	-61.3	6.2	0.00e+00	0	34	104	0	83	20245
2026-01-06 10:05:51.36	20.53	4.17	-58.1	-61.3	6.1	0.00e+00	0	35	104	0	83	20260
2026-01-06 10:05:54.32	20.43	4.40	-58.1	-61.4	6.2	0.00e+00	0	35	104	0	83	20398
2026-01-06 10:05:57.30	20.33	4.63	-58.1	-61.3	6.2	0.00e+00	0	35	104	0	83	20364
2026-01-06 10:06:00.28	20.23	4.86	-58.1	-61.4	6.2	0.00e+00	0	35	104	0	83	20435
2026-01-06 10:06:03.25	20.13	5.10	-58.2	-61.4	6.2	0.00e+00	0	35	104	0	83	20491
2026-01-06 10:06:06.24	20.02	5.34	-58.1	-61.4	6.2	0.00e+00	0	35	104	0	83	20431
2026-01-06 10:06:09.21	19.92	5.58	-58.3	-61.5	6.2	0.00e+00	0	35	104	0	83	20856
2026-01-06 10:06:12.18	19.81	5.82	-58.2	-61.4	6.1	0.00e+00	0	36	104	0	83	20575
2026-01-06 10:06:15.16	19.69	6.06	-58.4	-61.7	6.2	0.00e+00	0	36	104	0	83	21158
2026-01-06 10:06:18.14	19.58	6.31	-58.3	-61.5	6.1	0.00e+00	0	36	104	0	83	20809
2026-01-06 10:06:21.12	19.46	6.57	-58.4	-61.7	6.1	0.00e+00	0	36	104	0	83	21256
2026-01-06 10:06:24.10	19.34	6.82	-58.4	-61.6	6.2	0.00e+00	0	36	104	0	83	20989
2026-01-06 10:06:27.08	19.21	7.08	-58.6	-61.8	6.2	0.00e+00	0	36	104	0	83	21445
2026-01-06 10:06:30.05	19.09	7.34	-58.5	-61.7	6.1	0.00e+00	0	36	104	0	83	21275
2026-01-06 10:06:33.02	18.96	7.61	-58.6	-61.8	6.1	0.00e+00	0	37	104	0	83	21568
2026-01-06 10:06:36.01	18.82	7.88	-58.5	-61.8	6.2	0.00e+00	0	37	104	0	83	21396
2026-01-06 10:06:39.00	18.68	8.15	-58.7	-61.9	6.1	0.00e+00	0	37	104	0	83	21850
2026-01-06 10:06:41.97	18.54	8.43	-58.6	-61.8	6.1	0.00e+00	0	37	104	0	83	21551
2026-01-06 10:06:44.94	18.40	8.71	-58.7	-62.0	6.2	0.00e+00	0	37	104	0	83	21869
2026-01-06 10:06:47.90	18.25	8.99	-52.5	-53.4	8.2	0.00e+00	0	37	104	0	70	17163
2026-01-06 10:06:50.87	18.10	9.28	-50.6	-51.3	8.9	0.00e+00	0	37	104	0	68	15194
2026-01-06 10:06:53.85	17.94	9.58	-47.9	-48.4	10.6	1.57e-01	7	39	0	209715200	63	14519
2026-01-06 10:06:56.83	17.78	9.87	-45.4	-45.8	11.7	1.45e-01	0	38	0	536870912	58	14363
2026-01-06 10:06:59.81	17.62	10.18	-43.8	-44.2	12.1	4.63e-02	0	39	0	880803840	54	14981
2026-01-06 10:07:02.81	17.45	10.49	-42.7	-43.0	12.5	1.71e-02	0	39	0	1216348160	52	14682
2026-01-06 10:07:05.78	17.27	10.80	-42.5	-42.8	12.6	9.37e-03	0	39	0	1543503872	52	14359
2026-01-06 10:07:08.77	17.09	11.12	-42.4	-42.7	12.5	6.50e-03	0	39	0	1887436800	51	15072
2026-01-06 10:07:11.76	16.91	11.44	-42.3	-42.6	12.6	5.96e-03	0	39	0	2222981120	51	14934
2026-01-06 10:07:14.74	16.72	11.77	-42.0	-42.3	12.7	5.09e-03	0	39	0	2550136832	51	14349
2026-01-06 10:07:17.72	16.52	12.10	-42.0	-42.3	12.7	4.08e-03	0	39	0	2894069760	50	15198
2026-01-06 10:07:20.69	16.32	12.44	-41.6	-41.9	12.8	3.90e-03	0	40	0	3221225472	50	14575
2026-01-06 10:07:23.67	16.12	12.79	-41.5	-41.9	12.8	3.25e-03	0	40	0	3565158400	50	14466
2026-01-06 10:07:26.66	15.90	13.14	-41.1	-41.4	12.9	2.26e-03	0	40	0	3900702720	49	14514
2026-01-06 10:07:29.64	15.68	13.50	-41.0	-41.4	12.9	2.26e-03	0	40	0	4227858432	49	14455
2026-01-06 10:07:32.63	15.45	13.86	-40.7	-41.0	12.9	1.75e-03	0	40	0	4571791360	48	14762
2026-01-06 10:07:35.60	15.22	14.23	-40.6	-40.9	13.0	1.46e-03	0	40	0	4898947072	48	14492
2026-01-06 10:07:38.60	14.98	14.62	-39.5	-39.9	12.9	1.46e-03	0	40	0	5234491392	46	14450
2026-01-06 10:07:41.58	14.73	15.00	-39.4	-39.8	12.9	2.27e-03	0	40	0	5578424320	46	14298
2026-01-06 10:07:44.57	14.47	15.40	-39.3	-39.6	13.0	1.60e-03	0	40	0	5913968640	45	14897
2026-01-06 10:07:47.57	14.20	15.80	-39.0	-39.4	13.0	1.49e-03	0	40	0	6249512960	45	14467
2026-01-06 10:07:50.54	13.93	16.21	-39.0	-39.3	13.0	1.43e-03	0	41	0	6585057280	45	14426
2026-01-06 10:07:53.51	13.65	16.63	-38.8	-39.1	13.0	1.31e-03	0	41	0	6920601600	44	14867
2026-01-06 10:07:56.47	13.35	17.05	-38.9	-39.2	13.1	7.91e-04	0	41	0	7247757312	44	15078
2026-01-06 10:07:59.45	13.05	17.48	-38.6	-38.9	13.2	7.82e-04	0	41	0	7583301632	44	14469
2026-01-06 10:08:02.41	12.74	17.93	-38.5	-38.8	13.2	5.39e-04	0	41	0	7918845952	44	14301
2026-01-06 10:08:05.37	12.41	18.38	-38.1	-38.4	13.3	3.77e-04	0	41	0	8254390272	43	14557
2026-01-06 10:08:08.36	12.07	18.84	-37.9	-38.2	13.3	3.81e-04	0	41	0	8589934592	43	14168
2026-01-06 10:08:11.33	11.72	19.31	-37.5	-37.9	13.3	1.48e-04	0	41	0	8925478912	42	14464
2026-01-06 10:08:14.30	11.36	19.80	-37.3	-37.6	13.4	1.95e-04	0	41	0	9261023232	41	14823
2026-01-06 10:08:17.28	10.98	20.29	-37.2	-37.5	13.4	1.38e-04	0	41	0	9588178944	41	14673
2026-01-06 10:08:20.26	10.59	20.80	-37.3	-37.6	13.4	5.24e-05	0	41	0	9932111872	41	14778
2026-01-06 10:08:23.23	10.18	21.32	-37.1	-37.4	13.5	9.53e-05	0	41	0	10259267584	41	14494
2026-01-06 10:08:26.21	9.76	21.85	-37.2	-37.4	13.5	8.10e-05	0	41	0	10594811904	41	14580
2026-01-06 10:08:29.20	9.31	22.39	-36.8	-37.1	13.5	5.72e-05	0	41	0	10930356224	40	14885
2026-01-06 10:08:32.18	8.85	22.95	-36.6	-36.8	13.5	4.76e-05	0	42	0	11265900544	40	14433
2026-01-06 10:08:35.16	8.37	23.52	-36.2	-36.5	13.5	5.24e-05	0	42	0	11601444864	39	14674
2026-01-06 10:08:38.14	7.87	24.10	-36.0	-36.3	13.6	3.33e-05	0	42	0	11936989184	39	14364
2026-01-06 10:08:41.13	7.35	24.70	-35.7	-36.0	13.6	2.86e-05	0	41	0	12272533504	38	14703
2026-01-06 10:08:44.11	6.80	25.31	-35.6	-35.9	13.7	1.90e-05	0	42	0	12608077824	38	14578
2026-01-06 10:08:47.09	6.23	25.94	-35.4	-35.7	13.7	1.43e-05	0	42	0	12943622144	38	14119
2026-01-06 10:08:50.06	5.64	26.57	-35.2	-35.4	13.7	4.70e-06	0	42	0	13279166464	37	14566
2026-01-06 10:08:53.04	5.01	27.23	-35.0	-35.3	13.8	0.00e+00	0	42	0	13614710784	37	14354
2026-01-06 10:08:56.03	4.36	27.91	-34.7	-35.0	13.7	0.00e+00	0	42	0	13950255104	36	14632
2026-01-06 10:08:59.01	3.67	28.59	-31.8	-32.1	13.7	4.70e-06	0	42	0	14285799424	30	14792
2026-01-06 10:09:02.01	2.95	29.30	-31.4	-31.7	13.8	1.43e-05	0	42	0	14621343744	30	14166
2026-01-06 10:09:04.98	2.20	30.02	-31.3	-31.5	13.8	4.70e-06	0	42	0	14956888064	29	14707
2026-01-06 10:09:07.96	1.40	30.76	-31.0	-31.3	13.8	0.00e+00	0	42	0	15292432384	29	14350
2026-01-06 10:09:10.94	0.57	31.51	-30.8	-31.1	13.8	0.00e+00	0	42	0	15627976704	28	14826
2026-01-06 10:09:13.92	359.69	32.28	-30.7	-30.9	13.8	0.00e+00	0	42	0	15963521024	28	14579
2026-01-06 10:09:16.90	358.77	33.07	-30.6	-30.9	13.8	0.00e+00	0	42	0	16299065344	28	14489
2026-01-06 10:09:19.87	357.79	33.87	-30.3	-30.6	13.7	2.86e-05	0	42	0	16634609664	27	14818
2026-01-06 10:09:22.85	356.77	34.68	-30.2	-30.5	13.8	9.50e-06	0	42	0	16961765376	27	14681
2026-01-06 10:09:25.83	355.68	35.51	-60.3	-63.5	6.2	9.50e-06	0	41	104	17246978048	86	21984
2026-01-06 10:09:28.82	354.53	36.36	-60.3	-63.6	6.2	9.50e-06	0	41	104	17246978048	86	22117
2026-01-06 10:09:31.79	353.32	37.22	-60.3	-63.6	6.2	0.00e+00	0	41	104	17246978048	86	22204
2026-01-06 10:09:34.77	352.04	38.09	-60.4	-63.6	6.2	0.00e+00	0	41	104	17246978048	86	22337
2026-01-06 10:09:37.74	350.68	38.96	-60.4	-63.6	6.2	0.00e+00	0	41	104	17246978048	86	22270
2026-01-06 10:09:40.73	349.24	39.85	-60.4	-63.7	6.2	0.00e+00	0	41	104	17246978048	86	22444
2026-01-06 10:09:43.70	347.72	40.74	-60.4	-63.7	6.2	0.00e+00	0	41	104	17246978048	86	22380
2026-01-06 10:09:46.68	346.11	41.63	-60.5	-63.7	6.2	0.00e+00	0	41	104	17246978048	86	22548
2026-01-06 10:09:49.65	344.40	42.52	-60.5	-63.7	6.2	0.00e+00	0	41	104	17246978048	86	22504
2026-01-06 10:09:52.61	342.60	43.39	-60.5	-63.7	6.2	0.00e+00	0	41	104	17246978048	86	22578
2026-01-06 10:09:55.58	340.69	44.27	-60.5	-63.7	6.2	0.00e+00	0	40	104	17246978048	86	22589
2026-01-06 10:09:58.57	338.65	45.13	-60.6	-63.8	6.2	0.00e+00	0	41	104	17246978048	86	22751
2026-01-06 10:10:01.55	336.51	45.96	-60.6	-63.8	6.2	0.00e+00	0	40	104	17246978048	86	22756
2026-01-06 10:10:04.52	334.25	46.77	-60.6	-63.8	6.2	0.00e+00	0	40	104	17246978048	86	22828
2026-01-06 10:10:07.49	331.87	47.55	-60.6	-63.8	6.2	0.00e+00	0	40	104	17246978048	87	21546
2026-01-06 10:10:10.46	329.37	48.28	-60.6	-63.8	6.2	0.00e+00	0	40	104	17246978048	87	21575
2026-01-06 10:10:13.44	326.73	48.97	-60.6	-63.8	6.2	0.00e+00	0	40	104	17246978048	87	21563
2026-01-06 10:10:16.41	323.99	49.61	-60.6	-63.8	6.2	0.00e+00	0	40	104	17246978048	87	21579
2026-01-06 10:10:19.40	321.11	50.18	-60.6	-63.9	6.2	0.00e+00	0	40	104	17246978048	87	21661
2026-01-06 10:10:22.39	318.13	50.68	-60.6	-63.9	6.2	0.00e+00	0	40	104	17246978048	87	21710
2026-01-06 10:10:25.35	315.08	51.10	-60.6	-63.9	6.2	0.00e+00	0	40	104	17246978048	87	21665
2026-01-06 10:10:28.33	311.93	51.44	-60.6	-63.8	6.2	0.00e+00	0	40	104	17246978048	87	21591
2026-01-06 10:10:31.30	308.72	51.69	-60.7	-63.9	6.2	0.00e+00	0	40	104	17246978048	87	21747
2026-01-06 10:10:34.28	305.46	51.85	-60.7	-63.9	6.2	0.00e+00	0	40	104	17246978048	87	21791
2026-01-06 10:10:37.25	302.19	51.92	-60.7	-63.9	6.2	0.00e+00	0	40	104	17246978048	87	21815
2026-01-06 10:10:40.23	298.89	51.89	-60.6	-63.9	6.2	0.00e+00	0	40	104	17246978048	87	21732
2026-01-06 10:10:43.21	295.62	51.76	-60.7	-63.9	6.2	0.00e+00	0	40	104	17246978048	87	21744
2026-01-06 10:10:46.18	292.40	51.54	-60.7	-63.9	6.2	0.00e+00	0	40	104	17246978048	87	21814
2026-01-06 10:10:49.17	289.21	51.23	-60.6	-63.9	6.2	0.00e+00	0	40	104	17246978048	87	21633
2026-01-06 10:10:52.14	286.12	50.83	-60.6	-63.8	6.2	0.00e+00	0	40	104	17246978048	87	21512
2026-01-06 10:10:55.11	283.12	50.36	-60.6	-63.8	6.2	0.00e+00	0	40	104	17246978048	87	21592
2026-01-06 10:10:58.08	280.22	49.81	-60.6	-63.8	6.2	0.00e+00	0	40	104	17246978048	87	21497
2026-01-06 10:11:01.04	277.44	49.20	-60.5	-63.8	6.2	0.00e+00	0	40	104	17246978048	87	21425
2026-01-06 10:11:04.00	274.78	48.53	-60.5	-63.8	6.2	0.00e+00	0	40	104	17246978048	87	21384
2026-01-06 10:11:06.98	272.22	47.81	-60.5	-63.7	6.2	0.00e+00	0	40	104	17246978048	87	21342
2026-01-06 10:11:09.95	269.79	47.04	-60.5	-63.8	6.2	0.00e+00	0	40	104	17246978048	87	21403
2026-01-06 10:11:12.90	267.50	46.25	-60.5	-63.7	6.2	0.00e+00	0	40	104	17246978048	87	21188
2026-01-06 10:11:15.88	265.31	45.42	-60.4	-63.7	6.2	0.00e+00	0	40	104	17246978048	87	21183
2026-01-06 10:11:18.86	263.24	44.56	-60.4	-63.7	6.2	0.00e+00	0	40	104	17246978048	87	21214
2026-01-06 10:11:21.83	261.28	43.69	-60.4	-63.7	6.2	0.00e+00	0	40	104	17246978048	87	21117
2026-01-06 10:11:24.82	259.42	42.81	-60.4	-63.6	6.2	0.00e+00	0	40	104	17246978048	87	21091
2026-01-06 10:11:27.78	257.69	41.92	-60.4	-63.6	6.2	0.00e+00	0	39	104	17246978048	87	21052
2026-01-06 10:11:30.77	256.03	41.03	-60.4	-63.7	6.2	0.00e+00	0	40	104	17246978048	87	21124
2026-01-06 10:11:33.74	254.48	40.14	-60.4	-63.6	6.2	0.00e+00	0	40	104	17246978048	87	20979
2026-01-06 10:11:36.71	253.01	39.25	-60.3	-63.6	6.2	0.00e+00	0	39	104	17246978048	87	20889
2026-01-06 10:11:39.70	251.62	38.36	-60.3	-63.6	6.2	0.00e+00	0	40	104	17246978048	87	20914
2026-01-06 10:11:42.67	250.31	37.49	-60.3	-63.6	6.2	0.00e+00	0	40	104	17246978048	87	20888
2026-01-06 10:11:45.64	249.07	36.63	-60.3	-63.6	6.2	0.00e+00	0	39	104	17246978048	87	20915
2026-01-06 10:11:48.60	247.91	35.78	-60.3	-63.5	6.2	0.00e+00	0	40	104	17246978048	87	20748
2026-01-06 10:11:51.58	246.80	34.94	-60.2	-63.5	6.2	0.00e+00	0	39	104	17246978048	87	20701
2026-01-06 10:11:54.56	245.75	34.12	-60.3	-63.5	6.2	0.00e+00	0	40	104	17246978048	87	20738
2026-01-06 10:11:57.54	244.75	33.30	-60.2	-63.5	6.2	0.00e+00	0	39	104	17246978048	87	20699
2026-01-06 10:12:00.50	243.81	32.52	-60.2	-63.4	6.2	0.00e+00	0	40	104	17246978048	87	20609
2026-01-06 10:12:03.47	242.92	31.74	-60.2	-63.4	6.2	0.00e+00	0	40	104	17246978048	87	20625
2026-01-06 10:12:06.44	242.07	30.98	-60.2	-63.4	6.2	0.00e+00	0	40	104	17246978048	87	20533
2026-01-06 10:12:09.41	241.26	30.24	-60.2	-63.4	6.2	0.00e+00	0	39	104	17246978048	87	20523
2026-01-06 10:12:12.39	240.49	29.51	-60.1	-63.4	6.2	0.00e+00	0	40	104	17246978048	87	20497
2026-01-06 10:12:15.36	239.76	28.80	-60.1	-63.3	6.2	0.00e+00	0	40	104	17246978048	87	20394
2026-01-06 10:12:18.34	239.06	28.10	-60.1	-63.3	6.2	0.00e+00	0	40	104	17246978048	87	20390
2026-01-06 10:12:21.31	238.40	27.42	-60.1	-63.3	6.2	0.00e+00	0	40	104	17246978048	87	20334
2026-01-06 10:12:24.26	237.76	26.77	-60.0	-63.3	6.2	0.00e+00	0	40	104	17246978048	87	20240
2026-01-06 10:12:27.25	237.15	26.11	-60.0	-63.3	6.2	0.00e+00	0	39	104	17246978048	87	20182
2026-01-06 10:12:30.23	236.57	25.48	-60.0	-63.3	6.2	0.00e+00	0	39	104	17246978048	87	20304
2026-01-06 10:12:33.21	236.02	24.86	-60.0	-63.2	6.2	0.00e+00	0	40	104	17246978048	87	20151
2026-01-06 10:12:36.18	235.48	24.26	-60.0	-63.2	6.2	0.00e+00	0	40	104	17246978048	87	20076
2026-01-06 10:12:39.16	234.97	23.67	-60.0	-63.2	6.2	0.00e+00	0	39	104	17246978048	87	20097
2026-01-06 10:12:42.14	234.49	23.09	-59.9	-63.2	6.2	0.00e+00	0	39	104	17246978048	87	19975
2026-01-06 10:12:45.12	234.02	22.53	-59.9	-63.2	6.2	0.00e+00	0	40	104	17246978048	87	19957
2026-01-06 10:12:48.12	233.56	21.98	-59.9	-63.1	6.2	0.00e+00	0	40	104	17246978048	87	19913
2026-01-06 10:12:51.08	233.13	21.44	-59.9	-63.1	6.2	0.00e+00	0	40	104	17246978048	87	19872
2026-01-06 10:12:54.06	232.72	20.92	-59.9	-63.1	6.2	0.00e+00	0	40	104	17246978048	87	19821
2026-01-06 10:12:57.03	232.32	20.41	-59.8	-63.1	6.2	0.00e+00	0	39	104	17246978048	86	20986
2026-01-06 10:13:00.00	231.93	19.91	-59.8	-63.0	6.2	0.00e+00	0	39	104	17246978048	86	20868
2026-01-06 10:13:02.99	231.56	19.42	-59.8	-63.0	6.2	0.00e+00	0	40	104	17246978048	86	20861
2026-01-06 10:13:05.96	231.20	18.94	-59.8	-63.0	6.2	0.00e+00	0	39	104	17246978048	86	20816
2026-01-06 10:13:08.93	230.86	18.47	-59.8	-63.0	6.2	0.00e+00	0	40	104	17246978048	86	20804
2026-01-06 10:13:11.89	230.53	18.01	-59.7	-63.0	6.2	0.00e+00	0	40	104	17246978048	86	20704
2026-01-06 10:13:14.86	230.21	17.57	-59.7	-63.0	6.2	0.00e+00	0	39	104	17246978048	86	20711
2026-01-06 10:13:17.83	229.90	17.13	-59.7	-62.9	6.2	0.00e+00	0	40	104	17246978048	86	20626
2026-01-06 10:13:20.79	229.60	16.70	-59.7	-63.0	6.2	0.00e+00	0	40	104	17246978048	86	20643
2026-01-06 10:13:23.77	229.32	16.28	-59.7	-62.9	6.2	0.00e+00	0	40	104	17246978048	86	20609
2026-01-06 10:13:26.74	229.04	15.86	-59.7	-62.9	6.2	0.00e+00	0	39	104	17246978048	86	20524
2026-01-06 10:13:29.70	228.77	15.46	-59.6	-62.9	6.2	0.00e+00	0	39	104	17246978048	86	20425
2026-01-06 10:13:32.66	228.51	15.07	-59.6	-62.9	6.2	0.00e+00	0	40	104	17246978048	86	20398
2026-01-06 10:13:35.64	228.25	14.68	-59.6	-62.8	6.2	0.00e+00	0	39	104	17246978048	86	20349
2026-01-06 10:13:38.62	228.01	14.29	-59.5	-62.8	6.2	0.00e+00	0	40	104	17246978048	86	20293
2026-01-06 10:13:41.61	227.77	13.92	-59.6	-62.8	6.2	0.00e+00	0	40	104	17246978048	86	20254
2026-01-06 10:13:44.59	227.54	13.55	-59.6	-62.8	6.2	0.00e+00	0	40	104	17246978048	86	20269
2026-01-06 10:13:47.57	227.31	13.19	-59.6	-62.8	6.2	0.00e+00	0	40	104	17246978048	86	20255
2026-01-06 10:13:50.54	227.10	12.83	-59.5	-62.7	6.2	0.00e+00	0	40	104	17246978048	86	20138
2026-01-06 10:13:53.52	226.88	12.48	-59.5	-62.8	6.2	0.00e+00	0	40	104	17246978048	86	20220
2026-01-06 10:13:56.49	226.68	12.14	-59.5	-62.8	6.2	0.00e+00	0	39	104	17246978048	86	20201
2026-01-06 10:13:59.47	226.48	11.81	-59.5	-62.7	6.2	0.00e+00	0	39	104	17246978048	86	20163
2026-01-06 10:14:02.44	226.29	11.47	-59.5	-62.7	6.2	0.00e+00	0	39	104	17246978048	86	20021
2026-01-06 10:14:05.41	226.10	11.15	-59.4	-62.7	6.2	0.00e+00	0	39	104	17246978048	86	19994
2026-01-06 10:14:08.37	225.92	10.83	-59.5	-62.6	6.2	0.00e+00	0	39	104	17246978048	86	19925
2026-01-06 10:14:11.36	225.74	10.52	-59.4	-62.6	6.2	0.00e+00	0	40	104	17246978048	86	19927
2026-01-06 10:14:14.34	225.57	10.20	-59.4	-62.6	6.2	0.00e+00	0	40	104	17246978048	86	19888
2026-01-06 10:14:17.32	225.40	9.90	-59.3	-62.5	6.2	0.00e+00	0	40	104	17246978048	85	20848
2026-01-06 10:14:20.30	225.23	9.60	-59.3	-62.6	6.2	0.00e+00	0	40	104	17246978048	85	20986
2026-01-06 10:14:23.28	225.08	9.30	-59.3	-62.5	6.2	0.00e+00	0	40	104	17246978048	85	20769
2026-01-06 10:14:26.26	224.92	9.01	-59.2	-62.5	6.2	0.00e+00	0	39	104	17246978048	85	20706
2026-01-06 10:14:29.25	224.77	8.72	-59.2	-62.5	6.2	0.00e+00	0	39	104	17246978048	85	20709
2026-01-06 10:14:32.22	224.62	8.44	-59.3	-62.5	6.2	0.00e+00	0	39	104	17246978048	85	20724
2026-01-06 10:14:35.19	224.48	8.16	-59.1	-62.4	6.2	0.00e+00	0	39	104	17246978048	85	20474
2026-01-06 10:14:38.16	224.34	7.89	-59.1	-62.4	6.2	0.00e+00	0	40	104	17246978048	85	20418
2026-01-06 10:14:41.15	224.20	7.61	-59.1	-62.3	6.2	0.00e+00	0	39	104	17246978048	85	20384
2026-01-06 10:14:44.12	224.07	7.35	-59.1	-62.4	6.2	0.00e+00	0	39	104	17246978048	85	20425
2026-01-06 10:14:47.10	223.94	7.08	-59.0	-62.2	6.2	0.00e+00	0	39	104	17246978048	85	20084
2026-01-06 10:14:50.07	223.81	6.82	-59.0	-62.2	6.2	0.00e+00	0	39	104	17246978048	85	20082
2026-01-06 10:14:53.06	223.68	6.56	-59.0	-62.2	6.2	0.00e+00	0	39	104	17246978048	85	20108
2026-01-06 10:14:56.03	223.56	6.31	-59.0	-62.2	6.2	0.00e+00	0	39	104	17246978048	85	20116
2026-01-06 10:14:59.02	223.44	6.06	-58.8	-62.1	6.2	0.00e+00	0	39	104	17246978048	84	20952
2026-01-06 10:15:01.98	223.33	5.81	-58.8	-62.0	6.2	0.00e+00	0	39	104	17246978048	84	20793
2026-01-06 10:15:04.96	223.22	5.56	-58.9	-62.1	6.2	0.00e+00	0	40	104	17246978048	84	20901
2026-01-06 10:15:07.92	223.11	5.32	-58.9	-62.1	6.2	0.00e+00	0	39	104	17246978048	84	20954
2026-01-06 10:15:10.89	223.00	5.08	-58.6	-61.9	6.2	0.00e+00	0	40	104	17246978048	84	20480
2026-01-06 10:15:13.84	222.89	4.85	-59.7	-62.9	6.2	0.00e+00	0	39	104	17246978048	85	21697
2026-01-06 10:15:16.80	222.79	4.62	-60.1	-63.4	6.2	0.00e+00	0	40	104	17246978048	85	22911
2026-01-06 10:15:19.80	222.69	4.38	-60.4	-63.6	6.2	0.00e+00	0	40	104	17246978048	86	22227
2026-01-06 10:15:22.78	222.59	4.15	-60.5	-63.7	6.2	0.00e+00	0	40	104	17246978048	86	22498
2026-01-06 10:15:25.73	222.49	3.93	-60.6	-63.8	6.2	0.00e+00	0	39	104	17246978048	86	22862
2026-01-06 10:15:28.71	222.40	3.71	-60.7	-63.9	6.2	0.00e+00	0	40	104	17246978048	87	21705
2026-01-06 10:15:31.68	222.30	3.49	-60.7	-64.0	6.2	0.00e+00	0	40	104	17246978048	87	21941
2026-01-06 10:15:34.65	222.21	3.27	-60.7	-64.0	6.2	0.00e+00	0	40	104	17246978048	87	21956
2026-01-06 10:15:37.61	222.13	3.05	-60.7	-63.9	6.2	0.00e+00	0	40	104	17246978048	87	21798
2026-01-06 10:15:40.56	222.04	2.84	-60.7	-63.9	6.2	0.00e+00	0	40	104	17246978048	87	21729
2026-01-06 10:15:43.53	221.95	2.62	-60.7	-63.9	6.2	0.00e+00	0	40	104	17246978048	87	21727
2026-01-06 10:15:46.52	221.87	2.41	-60.6	-63.9	6.2	0.00e+00	0	40	104	17246978048	87	21658
2026-01-06 10:15:49.48	221.79	2.20	-60.6	-63.9	6.2	0.00e+00	0	39	104	17246978048	87	21751
2026-01-06 10:15:52.44	221.71	2.00	-60.6	-63.9	6.2	0.00e+00	0	40	104	17246978048	87	21641

#Closed at: 2026-01-06 10:15:53
#Recorded file [17246 MB]: D:/lorett/data/31004_260106_130521.dat