passes_logs/2026/01/06/R3.2S_Murmansk/R3.2S_Murmansk__20260106_134446_TY-40_rec.log

#Pass ID: 20260106_134446_TY-40
#Satellite: TY-40
#Configuration: TY-39
#almurnet v.1.7.20251203
#Start time: 2026-01-06 13:44:46

#Version: 2.2.20231116
#Station: R3.2S_Murmansk
#Location: 33.079688 lon 68.888172 lat
#TLE: 1 56846U 23081A   26005.63822392  .00004505  00000-0  20206-3 0  9998
#TLE: 2 56846  97.3907  78.7206 0002017  82.3616 277.7849 15.21703604143283

#Time	Az	El	Level	Level2	SNR	BER	BlckErr	Temp	State	Recorded	gain1	gain2
2026-01-06 13:44:46.67	44.42	2.00	-57.8	-61.1	3.6	0.00e+00	0	31	0	0	82	20883
2026-01-06 13:44:48.66	44.17	2.10	-57.8	-61.1	3.7	0.00e+00	0	32	104	0	82	20894
2026-01-06 13:44:50.66	43.92	2.21	-57.8	-61.1	3.7	0.00e+00	0	32	104	0	82	20938
2026-01-06 13:44:52.66	43.67	2.31	-57.8	-61.1	3.6	0.00e+00	0	32	104	0	82	20946
2026-01-06 13:44:54.66	43.41	2.41	-57.8	-61.1	3.7	0.00e+00	0	32	104	0	82	20980
2026-01-06 13:44:56.65	43.16	2.52	-57.8	-61.1	3.7	0.00e+00	0	32	104	0	82	20950
2026-01-06 13:44:58.66	42.90	2.62	-57.8	-61.0	3.7	0.00e+00	0	32	104	0	82	20801
2026-01-06 13:45:00.66	42.63	2.73	-57.8	-61.1	3.6	0.00e+00	0	32	104	0	82	20875
2026-01-06 13:45:02.65	42.37	2.83	-57.8	-61.0	3.7	0.00e+00	0	32	104	0	82	20846
2026-01-06 13:45:04.64	42.11	2.93	-57.8	-61.0	3.7	0.00e+00	0	32	104	0	81	22027
2026-01-06 13:45:06.64	41.84	3.04	-57.7	-61.0	3.7	0.00e+00	0	32	104	0	81	21897
2026-01-06 13:45:08.64	41.56	3.14	-57.7	-61.0	3.6	0.00e+00	0	32	104	0	81	21940
2026-01-06 13:45:10.63	41.29	3.24	-57.7	-61.0	3.7	0.00e+00	0	32	104	0	81	21955
2026-01-06 13:45:12.63	41.01	3.35	-57.7	-61.0	3.7	0.00e+00	0	32	104	0	81	21902
2026-01-06 13:45:14.62	40.74	3.45	-57.7	-61.0	3.6	0.00e+00	0	32	104	0	81	21916
2026-01-06 13:45:16.62	40.45	3.56	-57.7	-60.9	3.7	0.00e+00	0	32	104	0	81	21844
2026-01-06 13:45:18.62	40.17	3.66	-57.7	-61.0	3.6	0.00e+00	0	32	104	0	81	21924
2026-01-06 13:45:20.61	39.88	3.76	-57.7	-61.0	3.7	0.00e+00	0	32	104	0	81	21879
2026-01-06 13:45:22.60	39.59	3.87	-57.7	-61.0	3.6	0.00e+00	0	32	104	0	81	21935
2026-01-06 13:45:24.59	39.30	3.97	-57.7	-61.0	3.7	0.00e+00	0	32	104	0	81	21939
2026-01-06 13:45:26.59	39.01	4.07	-57.7	-61.0	3.6	0.00e+00	0	32	104	0	81	21877
2026-01-06 13:45:28.58	38.71	4.18	-57.7	-61.0	3.7	0.00e+00	0	32	104	0	81	21880
2026-01-06 13:45:30.59	38.41	4.28	-57.7	-61.0	3.7	0.00e+00	0	32	104	0	81	21864
2026-01-06 13:45:32.58	38.10	4.38	-57.7	-61.0	3.7	0.00e+00	0	32	104	0	81	21908
2026-01-06 13:45:34.58	37.80	4.49	-57.7	-60.9	3.7	0.00e+00	0	32	104	0	81	21821
2026-01-06 13:45:36.58	37.49	4.59	-57.7	-61.0	3.7	0.00e+00	0	32	104	0	81	21870
2026-01-06 13:45:38.58	37.18	4.69	-57.7	-61.0	3.6	0.00e+00	0	32	104	0	81	21890
2026-01-06 13:45:40.59	36.86	4.80	-57.7	-60.9	3.7	0.00e+00	0	32	104	0	81	21809
2026-01-06 13:45:42.58	36.54	4.90	-57.7	-60.9	3.6	0.00e+00	0	32	104	0	81	21849
2026-01-06 13:45:44.59	36.22	5.00	-57.7	-60.9	3.6	0.00e+00	0	32	104	0	81	21816
2026-01-06 13:45:46.59	35.90	5.11	-57.9	-61.1	3.6	0.00e+00	0	32	104	0	81	22226
2026-01-06 13:45:48.58	35.57	5.21	-57.7	-60.9	3.7	0.00e+00	0	32	104	0	81	21825
2026-01-06 13:45:50.59	35.24	5.31	-57.9	-61.1	3.7	0.00e+00	0	32	104	0	81	22227
2026-01-06 13:45:52.58	34.91	5.41	-57.8	-61.0	3.7	0.00e+00	0	32	104	0	81	22001
2026-01-06 13:45:54.59	34.57	5.52	-57.9	-61.1	3.6	0.00e+00	0	32	104	0	81	22358
2026-01-06 13:45:56.58	34.23	5.62	-57.8	-61.0	3.6	0.00e+00	0	32	104	0	81	22005
2026-01-06 13:45:58.58	33.89	5.72	-57.9	-61.1	3.6	0.00e+00	0	32	104	0	81	22337
2026-01-06 13:46:00.58	33.55	5.82	-57.8	-61.0	3.6	0.00e+00	0	32	104	0	81	22073
2026-01-06 13:46:02.58	33.20	5.92	-57.9	-61.1	3.6	0.00e+00	0	32	104	0	81	22353
2026-01-06 13:46:04.59	32.84	6.02	-57.8	-61.1	3.7	0.00e+00	0	32	104	0	81	22191
2026-01-06 13:46:06.59	32.49	6.12	-58.0	-61.2	3.6	0.00e+00	0	32	104	0	81	22480
2026-01-06 13:46:08.58	32.13	6.22	-57.9	-61.1	3.7	0.00e+00	0	32	104	0	81	22281
2026-01-06 13:46:10.58	31.77	6.32	-58.0	-61.2	3.6	0.00e+00	0	32	104	0	81	22569
2026-01-06 13:46:12.57	31.41	6.42	-57.9	-61.1	3.6	0.00e+00	0	32	104	0	81	22349
2026-01-06 13:46:14.57	31.04	6.52	-58.0	-61.2	3.7	0.00e+00	0	32	104	0	81	22610
2026-01-06 13:46:16.58	30.67	6.62	-58.0	-61.2	3.7	0.00e+00	0	32	104	0	81	22502
2026-01-06 13:46:18.56	30.30	6.71	-58.0	-61.3	3.6	0.00e+00	0	32	104	0	81	22697
2026-01-06 13:46:20.55	29.93	6.81	-58.0	-61.2	3.7	0.00e+00	0	32	104	0	81	22454
2026-01-06 13:46:22.56	29.55	6.91	-58.1	-61.3	3.7	0.00e+00	0	32	104	0	81	22728
2026-01-06 13:46:24.56	29.16	7.00	-58.0	-61.2	3.7	0.00e+00	0	32	104	0	81	22603
2026-01-06 13:46:26.56	28.78	7.10	-58.1	-61.3	3.7	0.00e+00	0	32	104	0	81	22786
2026-01-06 13:46:28.55	28.39	7.19	-58.0	-61.3	3.7	0.00e+00	0	32	104	0	82	21441
2026-01-06 13:46:30.55	28.00	7.29	-58.1	-61.4	3.7	0.00e+00	0	32	104	0	82	21617
2026-01-06 13:46:32.55	27.60	7.38	-58.1	-61.3	3.7	0.00e+00	0	32	104	0	82	21514
2026-01-06 13:46:34.55	27.20	7.47	-58.1	-61.4	3.6	0.00e+00	0	31	104	0	82	21688
2026-01-06 13:46:36.56	26.80	7.57	-58.1	-61.3	3.7	0.00e+00	0	32	104	0	82	21452
2026-01-06 13:46:38.56	26.39	7.66	-58.2	-61.4	3.7	0.00e+00	0	32	104	0	82	21798
2026-01-06 13:46:40.57	25.98	7.75	-58.1	-61.4	3.7	0.00e+00	0	32	104	0	82	21610
2026-01-06 13:46:42.58	25.57	7.84	-58.2	-61.4	3.7	0.00e+00	0	32	104	0	82	21797
2026-01-06 13:46:44.58	25.15	7.93	-58.1	-61.4	3.7	0.00e+00	0	32	104	0	82	21731
2026-01-06 13:46:46.58	24.74	8.02	-58.2	-61.5	3.7	0.00e+00	0	32	104	0	82	21900
2026-01-06 13:46:48.57	24.32	8.11	-58.2	-61.4	3.7	0.00e+00	0	32	104	0	82	21751
2026-01-06 13:46:50.58	23.89	8.20	-58.2	-61.5	3.7	0.00e+00	0	32	104	0	82	21874
2026-01-06 13:46:52.57	23.46	8.28	-58.2	-61.4	3.7	0.00e+00	0	32	104	0	82	21725
2026-01-06 13:46:54.58	23.03	8.37	-58.2	-61.5	3.6	0.00e+00	0	32	104	0	82	21964
2026-01-06 13:46:56.58	22.59	8.45	-58.2	-61.5	3.6	0.00e+00	0	32	104	0	82	21894
2026-01-06 13:46:58.58	22.16	8.54	-58.3	-61.5	3.6	0.00e+00	0	32	104	0	82	21992
2026-01-06 13:47:00.57	21.72	8.62	-58.2	-61.5	3.7	0.00e+00	0	32	104	0	82	21891
2026-01-06 13:47:02.57	21.27	8.70	-58.3	-61.5	3.7	0.00e+00	0	32	104	0	82	22032
2026-01-06 13:47:04.56	20.83	8.78	-58.2	-61.5	3.7	0.00e+00	0	32	104	0	82	21950
2026-01-06 13:47:06.57	20.38	8.86	-58.3	-61.5	3.7	0.00e+00	0	32	104	0	82	22020
2026-01-06 13:47:08.56	19.93	8.94	-58.3	-61.5	3.7	0.00e+00	0	32	104	0	82	21991
2026-01-06 13:47:10.56	19.47	9.02	-58.3	-61.5	3.6	0.00e+00	0	32	104	0	82	22049
2026-01-06 13:47:12.55	19.01	9.09	-58.3	-61.5	3.7	0.00e+00	0	32	104	0	82	21945
2026-01-06 13:47:14.54	18.55	9.17	-58.3	-61.6	3.7	0.00e+00	0	32	104	0	82	22112
2026-01-06 13:47:16.55	18.09	9.24	-58.3	-61.5	3.7	0.00e+00	0	32	104	0	82	22036
2026-01-06 13:47:18.53	17.62	9.32	-58.3	-61.6	3.6	0.00e+00	0	32	104	0	82	22140
2026-01-06 13:47:20.52	17.15	9.39	-58.3	-61.5	3.7	0.00e+00	0	32	104	0	82	22048
2026-01-06 13:47:22.52	16.68	9.46	-58.3	-61.6	3.6	0.00e+00	0	32	104	0	82	22179
2026-01-06 13:47:24.52	16.20	9.53	-58.3	-61.6	3.7	0.00e+00	0	32	104	0	82	22121
2026-01-06 13:47:26.52	15.72	9.59	-58.3	-61.6	3.6	0.00e+00	0	32	104	0	82	22216
2026-01-06 13:47:28.51	15.24	9.66	-58.3	-61.5	3.6	0.00e+00	0	32	104	0	82	22109
2026-01-06 13:47:30.53	14.75	9.72	-58.3	-61.6	3.7	0.00e+00	0	32	104	0	82	22179
2026-01-06 13:47:32.53	14.27	9.79	-58.3	-61.6	3.7	0.00e+00	0	32	104	0	82	22164
2026-01-06 13:47:34.52	13.78	9.85	-58.4	-61.6	3.7	0.00e+00	0	32	104	0	82	22276
2026-01-06 13:47:36.53	13.28	9.91	-58.3	-61.5	3.7	0.00e+00	0	32	104	0	82	22093
2026-01-06 13:47:38.54	12.79	9.97	-58.4	-61.6	3.7	0.00e+00	0	32	104	0	82	22196
2026-01-06 13:47:40.54	12.29	10.02	-58.3	-61.6	3.6	0.00e+00	0	32	104	0	82	22128
2026-01-06 13:47:42.53	11.79	10.08	-58.4	-61.6	3.6	0.00e+00	0	32	104	0	82	22317
2026-01-06 13:47:44.54	11.29	10.13	-58.3	-61.6	3.7	0.00e+00	0	32	104	0	82	22230
2026-01-06 13:47:46.54	10.78	10.19	-58.4	-61.6	3.7	0.00e+00	0	32	104	0	82	22326
2026-01-06 13:47:48.54	10.28	10.24	-58.4	-61.6	3.6	0.00e+00	0	32	104	0	82	22250
2026-01-06 13:47:50.53	9.77	10.29	-58.4	-61.6	3.6	0.00e+00	0	32	104	0	82	22224
2026-01-06 13:47:52.52	9.26	10.33	-58.3	-61.6	3.7	0.00e+00	0	32	104	0	82	22162
2026-01-06 13:47:54.52	8.75	10.38	-58.4	-61.6	3.7	0.00e+00	0	32	104	0	82	22286
2026-01-06 13:47:56.52	8.23	10.42	-58.4	-61.6	3.7	0.00e+00	0	32	104	0	82	22236
2026-01-06 13:47:58.52	7.72	10.46	-58.4	-61.7	3.6	0.00e+00	0	32	104	0	82	22419
2026-01-06 13:48:00.53	7.19	10.50	-58.4	-61.6	3.6	0.00e+00	0	32	104	0	82	22259
2026-01-06 13:48:02.53	6.67	10.54	-58.4	-61.6	3.7	0.00e+00	0	32	104	0	82	22363
2026-01-06 13:48:04.53	6.15	10.58	-58.4	-61.6	3.7	0.00e+00	0	31	104	0	82	22354
2026-01-06 13:48:06.54	5.63	10.61	-58.4	-61.7	3.7	0.00e+00	0	32	104	0	82	22465
2026-01-06 13:48:08.53	5.10	10.64	-58.4	-61.6	3.7	0.00e+00	0	32	104	0	82	22277
2026-01-06 13:48:10.53	4.58	10.67	-58.4	-61.7	3.6	0.00e+00	0	32	104	0	82	22373
2026-01-06 13:48:12.54	4.05	10.70	-58.4	-61.6	3.7	0.00e+00	0	32	104	0	82	22270
2026-01-06 13:48:14.53	3.52	10.73	-58.4	-61.7	3.7	0.00e+00	0	32	104	0	82	22378
2026-01-06 13:48:16.53	2.99	10.75	-58.4	-61.6	3.7	0.00e+00	0	32	104	0	82	22269
2026-01-06 13:48:18.51	2.47	10.78	-58.4	-61.6	3.7	0.00e+00	0	32	104	0	82	22333
2026-01-06 13:48:20.51	1.93	10.80	-58.4	-61.6	3.7	0.00e+00	0	32	104	0	82	22318
2026-01-06 13:48:22.51	1.40	10.82	-58.4	-61.7	3.7	0.00e+00	0	32	104	0	82	22430
2026-01-06 13:48:24.50	0.87	10.83	-58.4	-61.6	3.7	0.00e+00	0	32	104	0	82	22255
2026-01-06 13:48:26.50	0.33	10.85	-58.4	-61.6	3.7	0.00e+00	0	32	104	0	82	22363
2026-01-06 13:48:28.50	359.80	10.86	-58.4	-61.6	3.7	0.00e+00	0	32	104	0	82	22271
2026-01-06 13:48:30.50	359.26	10.87	-58.4	-61.7	3.7	0.00e+00	0	31	104	0	82	22457
2026-01-06 13:48:32.50	358.73	10.88	-58.4	-61.6	3.7	0.00e+00	0	32	104	0	82	22240
2026-01-06 13:48:34.50	358.19	10.89	-58.4	-61.7	3.7	0.00e+00	0	32	104	0	82	22382
2026-01-06 13:48:36.50	357.66	10.89	-58.4	-61.6	3.7	0.00e+00	0	32	104	0	82	22291
2026-01-06 13:48:38.51	357.12	10.89	-58.4	-61.7	3.6	0.00e+00	0	32	104	0	82	22437
2026-01-06 13:48:40.51	356.58	10.89	-58.4	-61.6	3.7	0.00e+00	0	32	104	0	82	22343
2026-01-06 13:48:42.51	356.04	10.89	-58.4	-61.7	3.6	0.00e+00	0	32	104	0	82	22427
2026-01-06 13:48:44.50	355.51	10.89	-58.4	-61.6	3.7	0.00e+00	0	31	104	0	82	22251
2026-01-06 13:48:46.50	354.97	10.88	-58.4	-61.7	3.6	0.00e+00	0	32	104	0	82	22439
2026-01-06 13:48:48.50	354.44	10.87	-58.4	-61.6	3.7	0.00e+00	0	32	104	0	82	22334
2026-01-06 13:48:50.50	353.90	10.86	-58.4	-61.6	3.7	0.00e+00	0	32	104	0	82	22331
2026-01-06 13:48:52.49	353.37	10.85	-58.4	-61.6	3.7	0.00e+00	0	31	104	0	82	22324
2026-01-06 13:48:54.49	352.83	10.84	-58.4	-61.6	3.6	0.00e+00	0	32	104	0	82	22303
2026-01-06 13:48:56.49	352.30	10.82	-58.4	-61.6	3.7	0.00e+00	0	32	104	0	82	22244
2026-01-06 13:48:58.49	351.77	10.80	-58.4	-61.6	3.7	0.00e+00	0	31	104	0	82	22333
2026-01-06 13:49:00.48	351.24	10.78	-58.4	-61.6	3.7	0.00e+00	0	32	104	0	82	22276
2026-01-06 13:49:02.47	350.71	10.76	-58.4	-61.7	3.7	0.00e+00	0	32	104	0	82	22401
2026-01-06 13:49:04.46	350.18	10.74	-58.4	-61.5	3.7	0.00e+00	0	32	104	0	82	22055
2026-01-06 13:49:06.45	349.65	10.71	-58.4	-61.7	3.7	0.00e+00	0	32	104	0	82	22405
2026-01-06 13:49:08.44	349.13	10.68	-58.4	-61.6	3.7	0.00e+00	0	32	104	0	82	22304
2026-01-06 13:49:10.44	348.60	10.65	-58.4	-61.6	3.6	0.00e+00	0	32	104	0	82	22336
2026-01-06 13:49:12.43	348.08	10.62	-58.4	-61.6	3.7	0.00e+00	0	31	104	0	82	22305
2026-01-06 13:49:14.43	347.55	10.59	-58.4	-61.7	3.7	0.00e+00	0	32	104	0	82	22378
2026-01-06 13:49:16.41	347.04	10.55	-58.4	-61.6	3.6	0.00e+00	0	32	104	0	82	22327
2026-01-06 13:49:18.41	346.52	10.51	-58.4	-61.7	3.7	0.00e+00	0	32	104	0	82	22369
2026-01-06 13:49:20.41	346.00	10.48	-58.4	-61.6	3.7	0.00e+00	0	32	104	0	82	22197
2026-01-06 13:49:22.41	345.48	10.43	-58.4	-61.6	3.7	0.00e+00	0	32	104	0	82	22283
2026-01-06 13:49:24.40	344.97	10.39	-58.3	-61.6	3.7	0.00e+00	0	32	104	0	82	22198
2026-01-06 13:49:26.38	344.46	10.35	-58.4	-61.6	3.6	0.00e+00	0	32	104	0	82	22285
2026-01-06 13:49:28.38	343.95	10.30	-58.3	-61.6	3.6	0.00e+00	0	31	104	0	82	22155
2026-01-06 13:49:30.38	343.44	10.25	-58.4	-61.6	3.7	0.00e+00	0	32	104	0	82	22216
2026-01-06 13:49:32.37	342.93	10.20	-58.3	-61.6	3.6	0.00e+00	0	32	104	0	82	22141
2026-01-06 13:49:34.35	342.43	10.15	-58.4	-61.6	3.7	0.00e+00	0	32	104	0	82	22235
2026-01-06 13:49:36.35	341.93	10.10	-58.3	-61.6	3.6	0.00e+00	0	32	104	0	82	22196
2026-01-06 13:49:38.35	341.43	10.04	-58.4	-61.6	3.7	0.00e+00	0	32	104	0	82	22147
2026-01-06 13:49:40.36	340.93	9.99	-58.3	-61.6	3.7	0.00e+00	0	31	104	0	82	22122
2026-01-06 13:49:42.36	340.43	9.93	-58.4	-61.6	3.7	0.00e+00	0	32	104	0	82	22143
2026-01-06 13:49:44.36	339.94	9.87	-58.3	-61.6	3.7	0.00e+00	0	32	104	0	82	22140
2026-01-06 13:49:46.36	339.45	9.81	-58.3	-61.6	3.7	0.00e+00	0	32	104	0	82	22177
2026-01-06 13:49:48.36	338.96	9.74	-58.3	-61.5	3.7	0.00e+00	0	31	104	0	82	22086
2026-01-06 13:49:50.36	338.47	9.68	-58.3	-61.6	3.7	0.00e+00	0	32	104	0	82	22171
2026-01-06 13:49:52.35	337.99	9.62	-58.3	-61.5	3.7	0.00e+00	0	32	104	0	82	22049
2026-01-06 13:49:54.34	337.51	9.55	-58.3	-61.6	3.6	0.00e+00	0	32	104	0	82	22194
2026-01-06 13:49:56.34	337.04	9.48	-58.3	-61.5	3.7	0.00e+00	0	32	104	0	82	22003
2026-01-06 13:49:58.33	336.56	9.41	-58.3	-61.6	3.7	0.00e+00	0	31	104	0	82	22117
2026-01-06 13:50:00.34	336.09	9.34	-58.3	-61.5	3.7	0.00e+00	0	31	104	0	82	22083
2026-01-06 13:50:02.32	335.62	9.27	-58.3	-61.5	3.7	0.00e+00	0	32	104	0	82	22092
2026-01-06 13:50:04.31	335.16	9.19	-58.3	-61.5	3.7	0.00e+00	0	32	104	0	82	22065
2026-01-06 13:50:06.31	334.70	9.12	-58.3	-61.6	3.7	0.00e+00	0	32	104	0	82	22125
2026-01-06 13:50:08.30	334.24	9.04	-58.3	-61.5	3.6	0.00e+00	0	32	104	0	82	21977
2026-01-06 13:50:10.31	333.78	8.97	-58.3	-61.5	3.7	0.00e+00	0	32	104	0	82	22094
2026-01-06 13:50:12.31	333.33	8.89	-58.2	-61.5	3.7	0.00e+00	0	32	104	0	82	21966
2026-01-06 13:50:14.30	332.88	8.81	-58.3	-61.5	3.7	0.00e+00	0	32	104	0	82	22061
2026-01-06 13:50:16.30	332.43	8.73	-58.2	-61.5	3.7	0.00e+00	0	32	104	0	82	21964
2026-01-06 13:50:18.29	331.99	8.65	-58.3	-61.5	3.7	0.00e+00	0	32	104	0	82	22007
2026-01-06 13:50:20.29	331.54	8.57	-58.2	-61.5	3.7	0.00e+00	0	32	104	0	82	21893
2026-01-06 13:50:22.29	331.10	8.48	-58.3	-61.5	3.7	0.00e+00	0	32	104	0	82	22042
2026-01-06 13:50:24.28	330.67	8.40	-58.2	-61.4	3.7	0.00e+00	0	32	104	0	82	21774
2026-01-06 13:50:26.27	330.24	8.31	-58.2	-61.5	3.7	0.00e+00	0	32	104	0	82	21870
2026-01-06 13:50:28.28	329.81	8.23	-58.2	-61.5	3.7	0.00e+00	0	32	104	0	82	21861
2026-01-06 13:50:30.27	329.39	8.14	-58.2	-61.4	3.7	0.00e+00	0	32	104	0	82	21848
2026-01-06 13:50:32.27	328.96	8.05	-58.2	-61.4	3.7	0.00e+00	0	32	104	0	82	21675
2026-01-06 13:50:34.27	328.54	7.96	-58.2	-61.4	3.6	0.00e+00	0	32	104	0	82	21849
2026-01-06 13:50:36.27	328.13	7.87	-58.1	-61.4	3.7	0.00e+00	0	32	104	0	82	21677
2026-01-06 13:50:38.27	327.71	7.78	-58.2	-61.4	3.7	0.00e+00	0	32	104	0	82	21832
2026-01-06 13:50:40.27	327.30	7.69	-58.1	-61.4	3.6	0.00e+00	0	32	104	0	82	21634
2026-01-06 13:50:42.28	326.89	7.60	-58.2	-61.4	3.7	0.00e+00	0	32	104	0	82	21729
2026-01-06 13:50:44.28	326.49	7.51	-58.1	-61.3	3.6	0.00e+00	0	31	104	0	82	21584
2026-01-06 13:50:46.29	326.09	7.41	-58.1	-61.4	3.7	0.00e+00	0	31	104	0	82	21709
2026-01-06 13:50:48.28	325.69	7.32	-58.1	-61.3	3.7	0.00e+00	0	32	104	0	82	21487
2026-01-06 13:50:50.28	325.30	7.23	-58.1	-61.3	3.7	0.00e+00	0	32	104	0	82	21599
2026-01-06 13:50:52.27	324.91	7.13	-58.0	-61.3	3.7	0.00e+00	0	32	104	0	82	21482
2026-01-06 13:50:54.28	324.52	7.04	-58.1	-61.3	3.7	0.00e+00	0	32	104	0	82	21517
2026-01-06 13:50:56.27	324.14	6.94	-58.0	-61.3	3.6	0.00e+00	0	31	104	0	82	21421
2026-01-06 13:50:58.27	323.76	6.84	-58.1	-61.3	3.7	0.00e+00	0	32	104	0	82	21490
2026-01-06 13:51:00.28	323.38	6.75	-58.0	-61.3	3.6	0.00e+00	0	32	104	0	82	21366
2026-01-06 13:51:02.27	323.01	6.65	-58.1	-61.3	3.7	0.00e+00	0	32	104	0	82	21489
2026-01-06 13:51:04.27	322.64	6.55	-58.0	-61.2	3.7	0.00e+00	0	32	104	0	82	21282
2026-01-06 13:51:06.27	322.27	6.45	-58.0	-61.3	3.7	0.00e+00	0	32	104	0	82	21432
2026-01-06 13:51:08.26	321.90	6.35	-57.9	-61.2	3.7	0.00e+00	0	32	104	0	82	21168
2026-01-06 13:51:10.26	321.54	6.26	-58.0	-61.3	3.6	0.00e+00	0	32	104	0	82	21381
2026-01-06 13:51:12.26	321.18	6.16	-57.9	-61.1	3.6	0.00e+00	0	32	104	0	82	21085
2026-01-06 13:51:14.27	320.83	6.05	-58.0	-61.2	3.7	0.00e+00	0	32	104	0	82	21230
2026-01-06 13:51:16.27	320.47	5.95	-57.9	-61.1	3.6	0.00e+00	0	32	104	0	82	21021
2026-01-06 13:51:18.26	320.13	5.85	-57.9	-61.2	3.6	0.00e+00	0	32	104	0	82	21215
2026-01-06 13:51:20.25	319.78	5.75	-57.8	-61.1	3.7	0.00e+00	0	32	104	0	82	20899
2026-01-06 13:51:22.24	319.44	5.65	-57.9	-61.1	3.6	0.00e+00	0	32	104	0	82	21113
2026-01-06 13:51:24.25	319.10	5.55	-57.8	-61.0	3.6	0.00e+00	0	32	104	0	82	20839
2026-01-06 13:51:26.24	318.76	5.45	-57.9	-61.1	3.7	0.00e+00	0	32	104	0	82	21057
2026-01-06 13:51:28.24	318.43	5.35	-57.7	-61.0	3.7	0.00e+00	0	32	104	0	82	20713
2026-01-06 13:51:30.24	318.10	5.25	-57.8	-61.1	3.7	0.00e+00	0	32	104	0	82	20957
2026-01-06 13:51:32.24	317.77	5.14	-57.7	-60.9	3.7	0.00e+00	0	32	104	0	82	20575
2026-01-06 13:51:34.23	317.45	5.04	-57.8	-61.0	3.7	0.00e+00	0	32	104	0	82	20857
2026-01-06 13:51:36.22	317.13	4.94	-58.2	-61.4	3.6	0.00e+00	0	32	104	0	82	21825
2026-01-06 13:51:38.22	316.81	4.84	-58.8	-62.1	3.7	0.00e+00	0	32	104	0	83	22246
2026-01-06 13:51:40.23	316.49	4.73	-59.4	-62.6	3.7	0.00e+00	0	31	104	0	84	22263
2026-01-06 13:51:42.23	316.18	4.63	-59.7	-62.9	3.7	0.00e+00	0	32	104	0	85	21776
2026-01-06 13:51:44.23	315.87	4.53	-59.9	-63.1	3.7	0.00e+00	0	32	104	0	85	22257
2026-01-06 13:51:46.23	315.56	4.42	-60.0	-63.3	3.7	0.00e+00	0	32	104	0	85	22634
2026-01-06 13:51:48.23	315.25	4.32	-60.1	-63.4	3.7	0.00e+00	0	32	104	0	85	22915
2026-01-06 13:51:50.22	314.95	4.22	-60.2	-63.5	3.6	0.00e+00	0	32	104	0	86	21934
2026-01-06 13:51:52.22	314.65	4.11	-60.3	-63.5	3.7	0.00e+00	0	32	104	0	86	21997
2026-01-06 13:51:54.20	314.36	4.01	-60.3	-63.5	3.7	0.00e+00	0	32	104	0	86	21959
2026-01-06 13:51:56.20	314.06	3.90	-60.3	-63.5	3.6	0.00e+00	0	32	104	0	86	22016
2026-01-06 13:51:58.20	313.77	3.80	-60.2	-63.5	3.7	0.00e+00	0	32	104	0	86	21894
2026-01-06 13:52:00.20	313.48	3.70	-60.2	-63.4	3.7	0.00e+00	0	32	104	0	86	21833
2026-01-06 13:52:02.20	313.20	3.59	-60.2	-63.4	3.7	0.00e+00	0	32	104	0	86	21778
2026-01-06 13:52:04.19	312.92	3.49	-60.1	-63.4	3.6	0.00e+00	0	32	104	0	86	21680
2026-01-06 13:52:06.20	312.63	3.38	-60.1	-63.4	3.7	0.00e+00	0	32	104	0	86	21706
2026-01-06 13:52:08.20	312.36	3.28	-60.1	-63.4	3.7	0.00e+00	0	31	104	0	86	21613
2026-01-06 13:52:10.19	312.08	3.18	-60.1	-63.3	3.7	0.00e+00	0	32	104	0	86	21605
2026-01-06 13:52:12.20	311.81	3.07	-60.1	-63.3	3.7	0.00e+00	0	32	104	0	86	21554
2026-01-06 13:52:14.20	311.54	2.97	-60.1	-63.3	3.7	0.00e+00	0	32	104	0	86	21534
2026-01-06 13:52:16.20	311.27	2.86	-60.1	-63.3	3.7	0.00e+00	0	32	104	0	86	21518
2026-01-06 13:52:18.21	311.00	2.76	-60.1	-63.3	3.7	0.00e+00	0	32	104	0	86	21487
2026-01-06 13:52:20.20	310.74	2.66	-60.1	-63.3	3.6	0.00e+00	0	31	104	0	86	21440
2026-01-06 13:52:22.19	310.48	2.55	-60.0	-63.3	3.7	0.00e+00	0	32	104	0	86	21457
2026-01-06 13:52:24.18	310.22	2.45	-60.0	-63.3	3.6	0.00e+00	0	32	104	0	86	21442
2026-01-06 13:52:26.18	309.97	2.35	-60.0	-63.2	3.7	0.00e+00	0	32	104	0	86	21328
2026-01-06 13:52:28.16	309.72	2.24	-60.0	-63.2	3.7	0.00e+00	0	31	104	0	86	21357
2026-01-06 13:52:30.17	309.46	2.14	-60.0	-63.3	3.7	0.00e+00	0	32	104	0	86	21359
2026-01-06 13:52:32.16	309.22	2.04	-60.0	-63.3	3.7	0.00e+00	0	31	104	0	86	21383

#Closed at: 2026-01-06 13:52:33
#Recorded file [0 MB]: D:/lorett/data/31004_260106_164446.dat