passes_logs/2026/01/06/R3.2S_Murmansk/R3.2S_Murmansk__20260106_093335_AQUA_rec.log

#Pass ID: 20260106_093335_AQUA
#Satellite: AQUA
#Configuration: AQUA
#almurnet v.1.7.20251203
#Start time: 2026-01-06 09:33:35

#Version: 2.2.20231116
#Station: R3.2S_Murmansk
#Location: 33.079688 lon 68.888172 lat
#TLE: 1 27424U 02022A   26004.96787593  .00001598  00000+0  32997-3 0  9996
#TLE: 2 27424  98.4069 331.2279 0002002  90.2377   0.6092 14.61798176259425

#Time	Az	El	Level	Level2	SNR	BER	BlckErr	Temp	State	Recorded	gain1	gain2
2026-01-06 09:33:35.21	111.11	2.01	-58.4	-77.7	3.8	7.47e-01	0	28	0	0	86	31623
2026-01-06 09:33:38.18	110.97	2.20	-58.4	-77.5	3.8	7.50e-01	0	28	104	0	84	34548
2026-01-06 09:33:41.13	110.83	2.39	-58.4	-77.5	3.8	7.43e-01	0	28	104	0	84	34770
2026-01-06 09:33:44.11	110.68	2.58	-58.4	-77.6	3.8	7.48e-01	0	28	104	0	84	35249
2026-01-06 09:33:47.07	110.54	2.77	-58.4	-77.2	3.8	7.48e-01	0	28	104	0	84	33679
2026-01-06 09:33:50.04	110.39	2.97	-58.4	-77.5	3.8	7.49e-01	0	28	104	0	84	34541
2026-01-06 09:33:53.00	110.23	3.16	-58.4	-77.4	3.8	7.42e-01	0	28	104	0	84	34138
2026-01-06 09:33:55.97	110.08	3.36	-58.4	-77.3	3.8	7.46e-01	0	28	104	0	84	33799
2026-01-06 09:33:58.93	109.92	3.55	-58.4	-77.2	3.8	7.47e-01	0	28	104	0	84	33405
2026-01-06 09:34:01.89	109.77	3.75	-58.4	-76.1	3.9	7.42e-01	0	28	104	0	84	29414
2026-01-06 09:34:04.84	109.60	3.95	-58.4	-77.1	3.8	7.44e-01	0	29	104	0	84	33088
2026-01-06 09:34:07.79	109.44	4.15	-58.3	-75.6	3.9	7.44e-01	0	28	104	0	84	27883
2026-01-06 09:34:10.75	109.27	4.35	-57.9	-68.2	7.6	6.47e-01	75	29	0	2097152	84	11955
2026-01-06 09:34:13.70	109.11	4.56	-57.1	-64.1	10.9	6.11e-01	0	29	0	7340032	83	7816
2026-01-06 09:34:16.64	108.94	4.76	-56.2	-61.1	12.9	6.07e-01	0	29	0	13107200	81	6274
2026-01-06 09:34:19.59	108.76	4.97	-55.2	-59.1	13.8	6.07e-01	0	29	0	18350080	79	5578
2026-01-06 09:34:22.54	108.58	5.18	-55.8	-60.1	13.5	6.07e-01	0	29	0	24117248	79	6234
2026-01-06 09:34:25.49	108.41	5.39	-54.6	-57.9	14.5	6.07e-01	0	29	0	29360128	76	5729
2026-01-06 09:34:28.43	108.22	5.60	-52.7	-55.1	15.0	6.05e-01	0	28	0	35127296	74	4663
2026-01-06 09:34:31.41	108.04	5.81	-52.9	-55.4	14.8	6.08e-01	0	29	0	40894464	73	5108
2026-01-06 09:34:34.39	107.84	6.03	-52.6	-55.0	15.0	6.08e-01	0	28	0	46137344	73	4890
2026-01-06 09:34:37.35	107.65	6.25	-52.8	-55.2	14.9	6.06e-01	0	29	0	51904512	73	5040
2026-01-06 09:34:40.30	107.46	6.46	-52.3	-54.6	15.1	6.06e-01	0	29	0	57671680	73	4674
2026-01-06 09:34:43.28	107.25	6.69	-52.5	-54.8	15.2	6.08e-01	0	28	0	62914560	73	4780
2026-01-06 09:34:46.27	107.05	6.91	-52.3	-54.6	15.1	6.06e-01	0	29	0	68681728	72	4935
2026-01-06 09:34:49.24	106.84	7.14	-51.8	-54.0	15.2	6.06e-01	0	29	0	73924608	72	4599
2026-01-06 09:34:52.23	106.63	7.36	-52.0	-54.1	15.1	6.07e-01	0	29	0	79691776	72	4693
2026-01-06 09:34:55.21	106.41	7.59	-51.9	-54.1	15.2	6.06e-01	0	29	0	85458944	72	4652
2026-01-06 09:34:58.19	106.19	7.82	-51.5	-53.6	15.3	6.08e-01	0	29	0	90701824	72	4397
2026-01-06 09:35:01.17	105.97	8.06	-51.6	-53.6	15.3	6.05e-01	0	29	0	96468992	72	4435
2026-01-06 09:35:04.15	105.74	8.29	-51.2	-53.2	15.3	6.08e-01	0	29	0	102236160	71	4454
2026-01-06 09:35:07.12	105.51	8.53	-51.1	-53.1	15.4	6.07e-01	0	29	0	107479040	71	4394
2026-01-06 09:35:10.11	105.27	8.77	-50.8	-52.7	15.4	6.06e-01	0	29	0	113246208	70	4453
2026-01-06 09:35:13.08	105.03	9.01	-50.7	-52.6	15.4	6.07e-01	0	29	0	119013376	70	4417
2026-01-06 09:35:16.06	104.79	9.26	-50.6	-52.5	15.5	6.08e-01	0	29	0	124256256	70	4352
2026-01-06 09:35:19.04	104.54	9.50	-50.7	-52.5	15.5	6.07e-01	0	29	0	130023424	70	4365
2026-01-06 09:35:22.03	104.28	9.75	-50.5	-52.2	15.5	6.06e-01	0	29	0	135790592	70	4241
2026-01-06 09:35:25.01	104.02	10.00	-50.2	-52.0	15.5	6.08e-01	0	29	0	141033472	69	4371
2026-01-06 09:35:27.99	103.76	10.25	-50.4	-52.2	15.4	6.07e-01	0	29	0	146800640	69	4457
2026-01-06 09:35:30.98	103.49	10.51	-50.3	-52.1	15.5	6.07e-01	0	29	0	152567808	69	4401
2026-01-06 09:35:33.96	103.21	10.77	-50.3	-52.1	15.5	6.06e-01	0	29	0	157810688	69	4392
2026-01-06 09:35:36.94	102.93	11.03	-50.3	-52.1	15.5	6.05e-01	0	29	0	163577856	69	4402
2026-01-06 09:35:39.92	102.65	11.29	-50.2	-51.9	15.5	6.06e-01	0	29	0	169345024	69	4307
2026-01-06 09:35:42.92	102.35	11.56	-50.1	-51.8	15.6	6.06e-01	0	29	0	174587904	69	4260
2026-01-06 09:35:45.89	102.06	11.82	-50.2	-51.9	15.5	6.06e-01	0	29	0	180355072	69	4315
2026-01-06 09:35:48.87	101.75	12.09	-50.1	-51.8	15.6	6.05e-01	0	29	0	186122240	69	4249
2026-01-06 09:35:51.85	101.44	12.36	-50.1	-51.8	15.5	6.07e-01	0	29	0	191365120	69	4267
2026-01-06 09:35:54.84	101.13	12.64	-50.1	-51.9	15.5	6.07e-01	0	29	0	197132288	69	4294
2026-01-06 09:35:57.81	100.80	12.92	-50.0	-51.6	15.6	6.06e-01	0	29	0	202899456	69	4183
2026-01-06 09:36:00.79	100.47	13.20	-49.9	-51.6	15.6	6.07e-01	0	29	0	208142336	69	4149
2026-01-06 09:36:03.79	100.13	13.48	-49.9	-51.5	15.5	6.04e-01	0	29	0	213909504	68	4378
2026-01-06 09:36:06.77	99.79	13.77	-49.7	-51.4	15.3	6.07e-01	0	29	0	219676672	68	4313
2026-01-06 09:36:09.77	99.44	14.06	-49.8	-51.4	15.5	6.05e-01	0	29	0	224919552	68	4322
2026-01-06 09:36:12.74	99.08	14.35	-49.7	-51.3	15.6	6.06e-01	0	29	0	230686720	68	4281
2026-01-06 09:36:15.71	98.71	14.64	-49.8	-51.4	15.5	6.05e-01	0	29	0	236453888	68	4314
2026-01-06 09:36:18.69	98.34	14.94	-49.6	-51.2	15.6	6.07e-01	0	29	0	241696768	68	4201
2026-01-06 09:36:21.67	97.95	15.24	-49.6	-51.2	15.6	6.07e-01	0	29	0	247463936	68	4226
2026-01-06 09:36:24.65	97.56	15.54	-49.8	-51.4	15.5	6.07e-01	0	29	0	253231104	68	4332
2026-01-06 09:36:27.63	97.16	15.84	-49.6	-51.2	15.6	6.06e-01	0	29	0	258473984	68	4194
2026-01-06 09:36:30.61	96.75	16.15	-49.5	-51.1	15.6	6.07e-01	0	29	0	264241152	68	4186
2026-01-06 09:36:33.59	96.33	16.46	-55.6	-68.2	3.9	7.43e-01	0	29	104	265289728	78	16714
2026-01-06 09:36:36.57	95.90	16.78	-54.5	-66.7	3.8	7.44e-01	0	29	104	265289728	78	14199
2026-01-06 09:36:39.54	95.47	17.09	-52.9	-64.5	3.9	7.41e-01	0	29	104	265289728	74	13814
2026-01-06 09:36:42.52	95.02	17.41	-55.2	-67.8	3.8	7.44e-01	0	29	104	265289728	79	15054
2026-01-06 09:36:45.52	94.56	17.73	-53.1	-64.9	3.8	7.49e-01	0	29	104	265289728	75	13683
2026-01-06 09:36:48.51	94.09	18.06	-52.2	-63.6	4.1	7.37e-01	0	29	104	265289728	73	13184
2026-01-06 09:36:51.50	93.60	18.39	-54.8	-67.0	3.8	7.49e-01	0	29	104	265289728	77	15500
2026-01-06 09:36:54.48	93.11	18.72	-55.6	-68.4	3.9	7.41e-01	0	29	104	265289728	80	15371
2026-01-06 09:36:57.46	92.61	19.05	-53.9	-65.9	3.8	7.43e-01	0	29	104	265289728	75	15352
2026-01-06 09:37:00.43	92.10	19.39	-56.4	-69.8	3.8	7.47e-01	0	29	104	265289728	82	15986
2026-01-06 09:37:03.39	91.57	19.72	-51.1	-62.5	3.8	7.42e-01	0	29	104	265289728	71	13024
2026-01-06 09:37:06.37	91.03	20.07	-50.4	-61.8	3.8	7.46e-01	0	29	104	265289728	69	13418
2026-01-06 09:37:09.36	90.48	20.41	-53.2	-65.0	3.8	7.44e-01	0	29	104	265289728	74	14615
2026-01-06 09:37:12.34	89.91	20.76	-52.5	-64.2	3.9	7.46e-01	0	29	104	265289728	74	13285
2026-01-06 09:37:15.32	89.33	21.10	-53.1	-64.9	3.9	7.46e-01	0	29	104	265289728	75	13570
2026-01-06 09:37:18.30	88.73	21.45	-51.2	-62.7	3.8	7.44e-01	0	29	104	265289728	71	13392
2026-01-06 09:37:21.29	88.12	21.81	-50.2	-61.6	3.8	7.45e-01	0	29	104	265289728	69	13137
2026-01-06 09:37:24.28	87.50	22.16	-56.2	-69.5	3.9	7.46e-01	0	29	104	265289728	81	16488
2026-01-06 09:37:27.27	86.86	22.52	-53.1	-64.9	3.8	7.46e-01	0	29	104	265289728	75	13726
2026-01-06 09:37:30.24	86.20	22.88	-56.4	-69.8	3.9	7.44e-01	0	29	104	265289728	81	17058
2026-01-06 09:37:33.22	85.53	23.24	-56.2	-69.3	3.9	7.46e-01	0	29	104	265289728	81	16085
2026-01-06 09:37:36.21	84.84	23.60	-51.0	-62.4	3.8	7.47e-01	0	29	104	265289728	71	12875
2026-01-06 09:37:39.19	84.14	23.96	-55.0	-67.5	3.9	7.44e-01	0	29	104	265289728	78	15449
2026-01-06 09:37:42.17	83.41	24.32	-58.1	-73.4	3.9	7.44e-01	0	29	104	265289728	84	21522
2026-01-06 09:37:45.15	82.67	24.68	-52.5	-64.2	3.8	7.46e-01	0	29	104	265289728	74	13275
2026-01-06 09:37:48.12	81.92	25.05	-58.3	-74.0	3.9	7.45e-01	0	29	104	265289728	84	23100
2026-01-06 09:37:51.11	81.14	25.41	-51.1	-62.6	3.8	7.47e-01	0	29	104	265289728	71	13130
2026-01-06 09:37:54.10	80.34	25.77	-52.2	-63.8	3.8	7.44e-01	0	29	104	265289728	72	14373
2026-01-06 09:37:57.08	79.53	26.14	-51.4	-62.9	3.8	7.43e-01	0	29	104	265289728	72	12832
2026-01-06 09:38:00.06	78.69	26.50	-51.6	-63.0	3.8	7.46e-01	0	29	104	265289728	72	13054
2026-01-06 09:38:03.04	77.84	26.86	-53.6	-65.5	3.8	7.45e-01	0	29	104	265289728	76	13769
2026-01-06 09:38:06.01	76.97	27.21	-50.9	-62.2	3.8	7.50e-01	0	29	104	265289728	70	13404
2026-01-06 09:38:08.99	76.07	27.57	-50.4	-61.7	3.9	7.44e-01	0	29	104	265289728	69	13292
2026-01-06 09:38:11.98	75.15	27.92	-57.4	-71.6	3.8	7.41e-01	0	29	104	265289728	82	19739
2026-01-06 09:38:14.96	74.21	28.27	-51.3	-62.6	3.8	7.48e-01	0	29	104	265289728	71	13166
2026-01-06 09:38:17.94	73.26	28.61	-59.4	-78.0	3.8	7.46e-01	0	29	104	265289728	86	32857
2026-01-06 09:38:20.92	72.28	28.95	-57.3	-71.3	3.8	7.43e-01	0	29	104	265289728	82	19077
2026-01-06 09:38:23.89	71.28	29.29	-50.2	-61.5	3.8	7.46e-01	0	29	104	265289728	69	13058
2026-01-06 09:38:26.87	70.25	29.62	-54.7	-67.1	3.8	7.49e-01	0	29	104	265289728	77	15608
2026-01-06 09:38:29.86	69.20	29.94	-58.5	-74.1	3.8	7.45e-01	0	29	104	265289728	84	23320
2026-01-06 09:38:32.83	68.14	30.26	-51.1	-62.4	3.8	7.44e-01	0	29	104	265289728	71	12913
2026-01-06 09:38:35.82	67.05	30.57	-58.6	-74.2	3.8	7.46e-01	0	29	104	265289728	84	23619
2026-01-06 09:38:38.81	65.93	30.87	-50.6	-61.9	3.8	7.43e-01	0	29	104	265289728	70	12831
2026-01-06 09:38:41.78	64.81	31.16	-50.5	-61.8	3.8	7.45e-01	0	29	104	265289728	68	14307
2026-01-06 09:38:44.76	63.65	31.44	-52.7	-64.3	3.9	7.44e-01	0	29	104	265289728	74	13536
2026-01-06 09:38:47.74	62.48	31.72	-51.8	-63.3	3.9	7.43e-01	0	29	104	265289728	72	13449
2026-01-06 09:38:50.72	61.29	31.98	-54.6	-66.8	3.9	7.41e-01	0	29	104	265289728	78	14261
2026-01-06 09:38:53.71	60.07	32.23	-51.1	-62.4	3.9	7.46e-01	0	29	104	265289728	71	12842
2026-01-06 09:38:56.69	58.84	32.47	-50.1	-61.4	3.9	7.46e-01	0	29	104	265289728	69	12844
2026-01-06 09:38:59.67	57.59	32.69	-57.1	-70.7	3.8	7.47e-01	0	29	104	265289728	81	18738
2026-01-06 09:39:02.66	56.31	32.91	-53.0	-64.7	3.9	7.45e-01	0	29	104	265289728	75	13300
2026-01-06 09:39:05.64	55.03	33.10	-55.6	-68.1	3.8	7.45e-01	0	29	104	265289728	78	16586
2026-01-06 09:39:08.63	53.73	33.28	-57.4	-71.3	3.8	7.48e-01	0	29	104	265289728	83	17983
2026-01-06 09:39:11.60	52.42	33.45	-50.8	-62.1	3.8	7.44e-01	0	29	104	265289728	70	13258
2026-01-06 09:39:14.58	51.09	33.60	-52.3	-63.9	3.9	7.44e-01	0	29	104	265289728	72	14500
2026-01-06 09:39:17.56	49.75	33.74	-57.0	-70.4	3.8	7.48e-01	0	29	104	265289728	81	18117
2026-01-06 09:39:20.54	48.40	33.85	-51.8	-63.3	3.8	7.43e-01	0	29	104	265289728	72	13422
2026-01-06 09:39:23.51	47.04	33.95	-56.6	-69.6	3.8	7.47e-01	0	29	104	265289728	80	17587
2026-01-06 09:39:26.49	45.68	34.03	-51.2	-62.6	3.9	7.50e-01	0	29	104	265289728	71	13213
2026-01-06 09:39:29.47	44.30	34.10	-50.8	-62.1	3.9	7.47e-01	0	29	104	265289728	70	13145
2026-01-06 09:39:32.47	42.92	34.14	-55.8	-68.4	3.8	7.44e-01	0	29	104	265289728	80	15240
2026-01-06 09:39:35.44	41.54	34.17	-52.6	-64.3	3.9	7.45e-01	0	29	104	265289728	74	13452
2026-01-06 09:39:38.42	40.16	34.18	-55.8	-68.4	3.9	7.41e-01	0	29	104	265289728	80	15357
2026-01-06 09:39:41.39	38.78	34.17	-55.9	-68.8	3.9	7.48e-01	0	29	104	265289728	81	15224
2026-01-06 09:39:44.37	37.40	34.14	-51.0	-62.3	3.9	7.45e-01	0	29	104	265289728	71	12724
2026-01-06 09:39:47.35	36.02	34.09	-55.6	-68.1	3.8	7.44e-01	0	29	104	265289728	78	16619
2026-01-06 09:39:50.33	34.65	34.03	-57.8	-71.9	3.9	7.46e-01	0	29	104	265289728	84	18238
2026-01-06 09:39:53.31	33.28	33.95	-53.2	-64.8	3.8	7.46e-01	0	29	104	265289728	73	15139
2026-01-06 09:39:56.28	31.93	33.85	-58.7	-74.4	3.9	7.43e-01	0	29	104	265289728	86	21674
2026-01-06 09:39:59.26	30.58	33.73	-51.3	-62.5	3.9	7.48e-01	0	29	104	265289728	71	13063
2026-01-06 09:40:02.24	29.24	33.59	-51.3	-62.7	3.9	7.48e-01	0	29	104	265289728	71	13274
2026-01-06 09:40:05.22	27.92	33.44	-51.2	-62.5	3.8	7.44e-01	0	29	104	265289728	70	13807
2026-01-06 09:40:08.19	26.61	33.27	-50.7	-61.9	3.9	7.47e-01	0	29	104	265289728	70	12830
2026-01-06 09:40:11.18	25.31	33.09	-55.0	-67.3	3.9	7.46e-01	0	29	104	265289728	79	14358
2026-01-06 09:40:14.13	24.04	32.90	-58.7	-74.6	3.9	7.46e-01	0	29	104	265289728	85	23443
2026-01-06 09:40:17.11	22.77	32.68	-50.8	-62.1	3.8	7.48e-01	0	29	104	265289728	70	13142
2026-01-06 09:40:20.09	21.53	32.46	-58.5	-73.9	3.9	7.43e-01	0	29	104	265289728	85	21710
2026-01-06 09:40:23.06	20.30	32.22	-51.2	-62.5	3.9	7.48e-01	0	29	104	265289728	71	13042
2026-01-06 09:40:26.04	19.09	31.97	-55.9	-68.7	3.9	7.48e-01	0	29	104	265289728	79	16810
2026-01-06 09:40:29.03	17.90	31.71	-58.4	-73.6	3.8	7.42e-01	0	29	104	265289728	85	20893
2026-01-06 09:40:32.00	16.73	31.44	-51.3	-62.7	3.8	7.45e-01	0	29	104	265289728	71	13327
2026-01-06 09:40:34.98	15.58	31.15	-54.8	-67.1	3.9	7.46e-01	0	29	104	265289728	77	15676
2026-01-06 09:40:37.96	14.45	30.86	-58.9	-75.2	3.8	7.48e-01	0	29	104	265289728	85	25243
2026-01-06 09:40:40.94	13.34	30.56	-50.8	-62.0	3.9	7.46e-01	0	29	104	265289728	70	13002
2026-01-06 09:40:43.92	12.26	30.25	-58.9	-75.2	3.8	7.47e-01	0	29	104	265289728	85	24984
2026-01-06 09:40:46.90	11.19	29.94	-51.5	-63.0	3.9	7.44e-01	0	29	104	265289728	72	12980
2026-01-06 09:40:49.90	10.14	29.61	-55.7	-68.3	3.8	7.45e-01	0	29	104	265289728	79	16124
2026-01-06 09:40:52.88	9.12	29.28	-51.8	-63.1	3.9	7.44e-01	0	29	104	265289728	72	13186
2026-01-06 09:40:55.86	8.12	28.95	-51.1	-62.5	3.8	7.42e-01	0	29	104	265289728	71	12999
2026-01-06 09:40:58.84	7.15	28.61	-53.7	-65.8	3.8	7.48e-01	0	29	104	265289728	75	15095
2026-01-06 09:41:01.83	6.19	28.26	-58.6	-74.1	3.8	7.49e-01	0	29	104	265289728	84	23379
2026-01-06 09:41:04.81	5.25	27.91	-51.9	-63.6	3.9	7.46e-01	0	29	104	265289728	72	13994
2026-01-06 09:41:07.79	4.34	27.56	-58.7	-74.6	3.8	7.48e-01	0	29	104	265289728	85	23466
2026-01-06 09:41:10.77	3.45	27.21	-51.8	-63.3	3.9	7.45e-01	0	29	104	265289728	72	13417
2026-01-06 09:41:13.74	2.58	26.85	-55.0	-67.2	3.9	7.48e-01	0	29	104	265289728	77	15888
2026-01-06 09:41:16.71	1.73	26.50	-52.7	-64.6	3.9	7.40e-01	0	29	104	265289728	74	13909
2026-01-06 09:41:19.69	0.90	26.14	-51.8	-63.5	3.9	7.48e-01	0	29	104	265289728	72	13735
2026-01-06 09:41:22.67	0.09	25.78	-55.0	-67.5	3.8	7.45e-01	0	29	104	265289728	79	14554
2026-01-06 09:41:25.65	359.29	25.41	-57.6	-71.9	3.8	7.50e-01	0	29	104	265289728	82	20425
2026-01-06 09:41:28.64	358.52	25.05	-51.3	-62.8	3.9	7.46e-01	0	29	104	265289728	71	13491
2026-01-06 09:41:31.61	357.76	24.69	-57.9	-72.4	3.8	7.41e-01	0	29	104	265289728	83	20505
2026-01-06 09:41:34.59	357.03	24.33	-53.6	-65.6	3.9	7.44e-01	0	29	104	265289728	76	14005
2026-01-06 09:41:37.57	356.31	23.97	-55.3	-67.9	3.8	7.50e-01	0	29	104	265289728	78	16186
2026-01-06 09:41:40.56	355.60	23.61	-55.0	-67.7	3.8	7.45e-01	0	29	104	265289728	79	14999
2026-01-06 09:41:43.54	354.92	23.25	-52.2	-63.9	3.8	7.45e-01	0	29	104	265289728	73	13580
2026-01-06 09:41:46.52	354.25	22.89	-55.0	-67.4	3.9	7.44e-01	0	29	104	265289728	79	14429
2026-01-06 09:41:49.51	353.59	22.53	-55.8	-68.4	3.8	7.47e-01	0	29	104	265289728	79	16278
2026-01-06 09:41:52.49	352.96	22.18	-51.6	-63.2	3.9	7.48e-01	0	29	104	265289728	72	13274
2026-01-06 09:41:55.47	352.34	21.82	-56.8	-70.4	3.8	7.48e-01	0	29	104	265289728	81	18300
2026-01-06 09:41:58.45	351.73	21.47	-54.5	-66.5	3.9	7.44e-01	0	29	104	265289728	78	13847
2026-01-06 09:42:01.43	351.14	21.12	-52.6	-64.4	3.9	7.47e-01	0	29	104	265289728	72	15300
2026-01-06 09:42:04.43	350.55	20.77	-56.4	-69.8	3.9	7.42e-01	0	29	104	265289728	82	16096
2026-01-06 09:42:07.41	349.99	20.43	-52.4	-63.8	3.9	7.46e-01	0	29	104	265289728	73	13475
2026-01-06 09:42:10.39	349.44	20.09	-55.0	-67.8	3.9	7.43e-01	0	29	104	265289728	79	15057
2026-01-06 09:42:13.38	348.90	19.74	-52.9	-64.4	3.8	7.47e-01	0	29	104	265289728	73	14380
2026-01-06 09:42:16.36	348.37	19.41	-51.5	-63.1	3.8	7.45e-01	0	29	104	265289728	72	13218
2026-01-06 09:42:19.34	347.86	19.07	-55.3	-67.8	3.9	7.47e-01	0	29	104	265289728	78	16065
2026-01-06 09:42:22.33	347.36	18.74	-56.5	-70.0	3.9	7.47e-01	0	29	104	265289728	82	16355
2026-01-06 09:42:25.31	346.87	18.41	-52.1	-63.6	3.8	7.42e-01	0	29	104	265289728	71	14737
2026-01-06 09:42:28.29	346.39	18.08	-57.5	-72.1	3.9	7.43e-01	0	29	104	265289728	84	18580
2026-01-06 09:42:31.26	345.92	17.76	-51.7	-63.0	3.8	7.42e-01	0	29	104	265289728	72	13096
2026-01-06 09:42:34.24	345.47	17.44	-54.8	-67.1	3.9	7.45e-01	0	29	104	265289728	78	14858
2026-01-06 09:42:37.22	345.02	17.12	-51.8	-63.5	3.9	7.44e-01	0	29	104	265289728	72	13860
2026-01-06 09:42:40.20	344.59	16.81	-51.5	-62.9	3.8	7.45e-01	0	29	104	265289728	72	12880
2026-01-06 09:42:43.18	344.16	16.49	-53.9	-66.0	3.8	7.47e-01	0	29	104	265289728	75	15423
2026-01-06 09:42:46.15	343.74	16.18	-57.3	-71.8	3.9	7.45e-01	0	29	104	265289728	83	19121
2026-01-06 09:42:49.13	343.34	15.88	-51.9	-63.5	3.9	7.44e-01	0	29	104	265289728	72	13854
2026-01-06 09:42:52.12	342.94	15.57	-58.3	-74.1	3.9	7.41e-01	0	29	104	265289728	85	22195
2026-01-06 09:42:55.10	342.55	15.27	-52.3	-63.7	3.8	7.47e-01	0	29	104	265289728	73	13404
2026-01-06 09:42:58.09	342.16	14.97	-54.6	-67.1	3.8	7.43e-01	0	29	104	265289728	77	15585
2026-01-06 09:43:01.07	341.79	14.68	-52.7	-64.6	3.8	7.50e-01	0	29	104	265289728	74	13920
2026-01-06 09:43:04.06	341.42	14.38	-51.5	-53.4	15.3	5.98e-01	0	29	0	265814016	72	4302
2026-01-06 09:43:07.03	341.07	14.09	-50.7	-52.5	15.5	6.00e-01	0	29	0	271581184	70	4376
2026-01-06 09:43:10.02	340.72	13.80	-50.7	-52.5	15.5	6.02e-01	0	29	0	277348352	70	4354
2026-01-06 09:43:13.00	340.37	13.52	-50.7	-52.5	15.4	6.03e-01	0	29	0	282591232	70	4342
2026-01-06 09:43:15.98	340.04	13.24	-50.7	-52.5	15.5	6.02e-01	0	29	0	288358400	70	4347
2026-01-06 09:43:18.96	339.71	12.96	-50.9	-52.7	15.4	6.01e-01	0	29	0	294125568	70	4463
2026-01-06 09:43:21.95	339.39	12.68	-50.8	-52.6	15.4	6.01e-01	0	29	0	299368448	70	4412
2026-01-06 09:43:24.94	339.07	12.40	-50.8	-52.6	15.4	6.01e-01	0	29	0	305135616	70	4407
2026-01-06 09:43:27.92	338.76	12.13	-50.9	-52.7	15.4	6.00e-01	0	29	0	310902784	70	4442
2026-01-06 09:43:30.89	338.46	11.87	-50.9	-52.8	15.4	6.02e-01	0	29	0	316145664	70	4497
2026-01-06 09:43:33.87	338.17	11.60	-50.9	-52.7	15.4	6.00e-01	0	29	0	321912832	70	4475
2026-01-06 09:43:36.85	337.88	11.33	-50.8	-52.6	15.4	6.01e-01	0	29	0	327155712	70	4429
2026-01-06 09:43:39.83	337.59	11.07	-51.1	-53.0	15.3	5.99e-01	0	29	0	332922880	70	4617
2026-01-06 09:43:42.81	337.31	10.81	-51.1	-53.0	15.3	6.00e-01	0	29	0	338690048	70	4621
2026-01-06 09:43:45.79	337.04	10.56	-51.0	-52.8	15.3	6.02e-01	0	29	0	343932928	70	4517
2026-01-06 09:43:48.77	336.77	10.30	-51.1	-53.0	15.3	6.01e-01	0	29	0	349700096	70	4618
2026-01-06 09:43:51.73	336.51	10.05	-51.2	-53.0	15.3	6.02e-01	0	29	0	355467264	70	4647
2026-01-06 09:43:54.71	336.25	9.80	-51.1	-53.0	15.3	6.00e-01	0	29	0	360710144	70	4644
2026-01-06 09:43:57.70	336.00	9.55	-51.2	-53.1	15.3	6.00e-01	0	29	0	366477312	70	4668
2026-01-06 09:44:00.68	335.75	9.31	-51.2	-53.1	15.3	6.02e-01	0	29	0	372244480	70	4663
2026-01-06 09:44:03.66	335.51	9.07	-51.2	-53.1	15.3	6.01e-01	0	29	0	377487360	70	4671
2026-01-06 09:44:06.63	335.27	8.83	-51.3	-53.2	15.3	6.00e-01	0	29	0	383254528	70	4740
2026-01-06 09:44:09.61	335.03	8.59	-51.6	-53.6	15.1	5.99e-01	0	29	0	389021696	70	4945
2026-01-06 09:44:12.59	334.80	8.35	-51.9	-54.0	15.1	6.04e-01	0	29	0	394264576	71	4890
2026-01-06 09:44:15.58	334.58	8.11	-51.5	-53.5	15.2	6.01e-01	0	29	0	400031744	71	4650
2026-01-06 09:44:18.55	334.36	7.88	-51.5	-53.4	15.2	6.00e-01	0	29	0	405798912	71	4598
2026-01-06 09:44:21.51	334.14	7.65	-51.5	-53.5	15.2	6.00e-01	0	29	0	411041792	71	4604
2026-01-06 09:44:24.49	333.92	7.42	-51.6	-53.7	15.2	6.00e-01	0	29	0	416808960	71	4712
2026-01-06 09:44:27.46	333.72	7.20	-51.8	-53.9	15.2	6.00e-01	0	29	0	422576128	71	4818
2026-01-06 09:44:30.44	333.51	6.97	-51.6	-53.6	15.2	6.03e-01	0	29	0	427819008	71	4685
2026-01-06 09:44:33.44	333.30	6.75	-51.5	-53.5	15.2	5.99e-01	0	29	0	433586176	71	4621
2026-01-06 09:44:36.41	333.11	6.53	-51.9	-54.0	15.1	6.01e-01	0	29	0	439353344	71	4903
2026-01-06 09:44:39.39	332.91	6.31	-51.8	-53.9	15.3	6.00e-01	0	29	0	444596224	72	4571
2026-01-06 09:44:42.38	332.72	6.09	-52.1	-54.4	15.0	6.01e-01	0	29	0	450363392	72	4830
2026-01-06 09:44:45.35	332.53	5.87	-52.2	-54.4	15.0	5.99e-01	0	29	0	455606272	72	4870
2026-01-06 09:44:48.34	332.34	5.66	-52.2	-54.5	15.0	6.01e-01	0	29	0	461373440	72	4891
2026-01-06 09:44:51.33	332.16	5.44	-52.0	-54.2	15.1	5.99e-01	0	29	0	467140608	72	4730
2026-01-06 09:44:54.31	331.98	5.23	-52.1	-54.4	15.0	5.99e-01	0	29	0	472907776	72	4858
2026-01-06 09:44:57.28	331.80	5.02	-52.0	-54.2	15.1	6.00e-01	0	29	0	478150656	72	4751
2026-01-06 09:45:00.27	331.63	4.81	-59.4	-78.8	3.8	7.47e-01	0	29	104	479723520	86	35810
2026-01-06 09:45:03.28	331.45	4.60	-59.9	-79.3	3.8	7.47e-01	0	29	104	479723520	87	35761
2026-01-06 09:45:06.30	331.28	4.40	-60.2	-79.6	3.8	7.46e-01	0	29	104	479723520	88	35046
2026-01-06 09:45:09.28	331.12	4.19	-60.3	-79.7	3.8	7.49e-01	0	29	104	479723520	88	35621
2026-01-06 09:45:12.26	330.95	3.99	-60.4	-79.8	3.8	7.49e-01	0	29	104	479723520	88	35981
2026-01-06 09:45:15.25	330.79	3.79	-60.5	-79.9	3.8	7.47e-01	0	29	104	479723520	88	36229
2026-01-06 09:45:18.24	330.64	3.59	-60.5	-79.9	3.8	7.46e-01	0	29	104	479723520	88	36453
2026-01-06 09:45:21.22	330.48	3.39	-60.5	-79.9	3.8	7.47e-01	0	29	104	479723520	88	36196
2026-01-06 09:45:24.20	330.33	3.20	-60.4	-79.8	3.8	7.47e-01	0	29	104	479723520	88	36001
2026-01-06 09:45:27.19	330.18	3.00	-60.4	-79.8	3.8	7.45e-01	0	29	104	479723520	88	35995
2026-01-06 09:45:30.16	330.03	2.81	-60.4	-79.8	3.8	7.46e-01	0	29	104	479723520	88	35843
2026-01-06 09:45:33.14	329.88	2.61	-60.4	-79.8	3.8	7.44e-01	0	29	104	479723520	88	35784
2026-01-06 09:45:36.12	329.74	2.42	-60.4	-79.8	3.8	7.49e-01	0	29	104	479723520	88	35816
2026-01-06 09:45:39.11	329.60	2.23	-60.4	-79.7	3.8	7.47e-01	0	29	104	479723520	88	35648
2026-01-06 09:45:42.09	329.46	2.04	-60.3	-79.7	3.8	7.46e-01	0	29	104	479723520	88	35639

#Closed at: 2026-01-06 09:45:43
#Recorded file [479 MB]: D:/lorett/data/31004_260106_123335.dat