passes_logs/2026/01/06/R3.2S_Murmansk/R3.2S_Murmansk__20260106_235127_NOAA_21_JPSS-2_rec.log

#Pass ID: 20260106_235127_NOAA 21 (JPSS-2)
#Satellite: NOAA 21 (JPSS-2)
#Configuration: NOAA-21
#almurnet v.1.7.20251203
#Start time: 2026-01-06 23:51:26

#Version: 2.2.20231116
#Station: R3.2S_Murmansk
#Location: 33.079688 lon 68.888172 lat
#TLE: 1 54234U 22150A   26005.56767909  .00000152  00000+0  92756-4 0  9990
#TLE: 2 54234  98.7490 306.5820 0001036 340.2747  19.8389 14.19532370163472

#Time	Az	El	Level	Level2	SNR	BER	BlckErr	Temp	State	Recorded	gain1	gain2
2026-01-06 23:51:26.99	21.75	1.98	-58.1	-71.4	3.8	1.49e+00	0	25	0	0	82	16546
2026-01-06 23:51:30.97	21.86	2.23	-58.0	-70.3	3.8	1.49e+00	0	25	104	0	81	15564
2026-01-06 23:51:34.97	21.97	2.48	-58.0	-70.5	3.9	1.49e+00	0	25	104	0	81	15821
2026-01-06 23:51:38.97	22.07	2.74	-57.9	-69.7	3.9	1.48e+00	0	25	104	0	81	14414
2026-01-06 23:51:42.98	22.19	3.00	-57.9	-68.4	4.0	1.42e+00	0	25	104	0	81	12479
2026-01-06 23:51:46.97	22.30	3.26	-57.6	-66.3	4.9	1.16e+00	2	26	104	3145728	81	9827
2026-01-06 23:51:50.96	22.41	3.52	-57.3	-64.7	5.9	3.23e-01	0	26	0	14680064	81	8154
2026-01-06 23:51:54.95	22.53	3.78	-56.1	-60.6	9.2	1.11e-02	0	26	0	27262976	78	6048
2026-01-06 23:51:58.95	22.64	4.05	-54.1	-56.8	11.9	1.37e-05	0	26	0	39845888	74	4920
2026-01-06 23:52:02.96	22.76	4.32	-53.0	-55.2	12.9	0.00e+00	0	26	0	52428800	72	4577
2026-01-06 23:52:06.96	22.88	4.59	-53.7	-56.2	12.2	0.00e+00	0	26	0	63963136	72	5133
2026-01-06 23:52:10.95	23.01	4.87	-55.1	-58.6	10.6	9.84e-05	0	26	0	76546048	75	5689
2026-01-06 23:52:14.96	23.13	5.15	-52.9	-55.0	12.9	0.00e+00	0	26	0	89128960	71	4735
2026-01-06 23:52:18.97	23.26	5.43	-53.1	-55.3	12.9	7.40e-05	0	27	0	101711872	72	4621
2026-01-06 23:52:22.97	23.39	5.71	-53.3	-55.6	12.7	0.00e+00	0	27	0	114294784	72	4778
2026-01-06 23:52:26.97	23.52	6.00	-53.1	-55.3	12.9	0.00e+00	0	26	0	126877696	72	4645
2026-01-06 23:52:30.95	23.65	6.29	-52.3	-54.1	13.5	0.00e+00	0	27	0	139460608	71	4291
2026-01-06 23:52:34.96	23.79	6.58	-51.9	-53.7	13.7	0.00e+00	0	27	0	152043520	70	4302
2026-01-06 23:52:38.98	23.93	6.88	-51.6	-53.3	13.8	0.00e+00	0	27	0	164626432	69	4367
2026-01-06 23:52:42.97	24.07	7.18	-51.5	-53.2	13.9	0.00e+00	0	27	0	177209344	69	4312
2026-01-06 23:52:46.97	24.21	7.48	-51.3	-53.0	14.0	0.00e+00	0	27	0	189792256	69	4194
2026-01-06 23:52:50.99	24.36	7.79	-51.4	-53.0	14.0	0.00e+00	0	27	0	202375168	69	4232
2026-01-06 23:52:54.98	24.51	8.10	-51.3	-52.9	14.0	0.00e+00	0	27	0	214958080	69	4173
2026-01-06 23:52:58.97	24.66	8.42	-51.2	-52.8	14.0	0.00e+00	0	27	0	226492416	68	4391
2026-01-06 23:53:02.97	24.81	8.73	-51.1	-52.7	14.1	0.00e+00	0	27	0	239075328	68	4298
2026-01-06 23:53:06.97	24.97	9.06	-50.9	-52.4	14.2	0.00e+00	0	27	0	251658240	68	4164
2026-01-06 23:53:10.96	25.13	9.38	-50.6	-52.1	14.2	0.00e+00	0	27	0	264241152	67	4256
2026-01-06 23:53:14.97	25.29	9.71	-50.5	-52.0	14.3	0.00e+00	0	27	0	276824064	67	4197
2026-01-06 23:53:18.99	25.46	10.05	-50.4	-51.8	14.3	0.00e+00	0	27	0	289406976	67	4142
2026-01-06 23:53:22.99	25.63	10.39	-50.1	-51.5	14.4	0.00e+00	0	27	0	301989888	66	4234
2026-01-06 23:53:26.99	25.81	10.73	-50.2	-51.6	14.3	0.00e+00	0	27	0	314572800	66	4246
2026-01-06 23:53:31.01	25.99	11.08	-50.2	-51.6	14.3	0.00e+00	0	27	0	327155712	66	4283
2026-01-06 23:53:35.01	26.17	11.43	-49.9	-51.3	14.5	0.00e+00	0	27	0	339738624	66	4102
2026-01-06 23:53:38.99	26.35	11.79	-50.0	-51.3	14.5	0.00e+00	0	28	0	352321536	66	4142
2026-01-06 23:53:43.00	26.54	12.15	-49.8	-51.1	14.6	0.00e+00	0	27	0	364904448	66	4037
2026-01-06 23:53:47.00	26.74	12.52	-49.8	-51.1	14.6	0.00e+00	0	27	0	377487360	66	4034
2026-01-06 23:53:51.01	26.94	12.90	-49.8	-51.1	14.6	0.00e+00	0	28	0	390070272	66	4048
2026-01-06 23:53:55.01	27.14	13.28	-49.9	-51.2	14.5	0.00e+00	0	28	0	402653184	66	4078
2026-01-06 23:53:59.02	27.35	13.66	-49.8	-51.1	14.5	0.00e+00	0	28	0	414187520	65	4277
2026-01-06 23:54:03.02	27.56	14.05	-49.7	-51.0	14.5	0.00e+00	0	28	0	426770432	65	4214
2026-01-06 23:54:07.02	27.78	14.45	-49.7	-51.0	14.5	0.00e+00	0	28	0	439353344	65	4241
2026-01-06 23:54:11.02	28.01	14.85	-49.7	-51.1	14.5	0.00e+00	0	28	0	451936256	65	4248
2026-01-06 23:54:15.01	28.23	15.26	-49.6	-50.9	14.5	0.00e+00	0	28	0	464519168	65	4192
2026-01-06 23:54:19.01	28.47	15.68	-49.7	-51.0	14.5	0.00e+00	0	28	0	477102080	65	4206
2026-01-06 23:54:23.03	28.71	16.10	-49.6	-50.9	14.5	0.00e+00	0	28	0	489684992	65	4183
2026-01-06 23:54:27.03	28.96	16.53	-49.6	-50.9	14.6	0.00e+00	0	28	0	502267904	65	4178
2026-01-06 23:54:31.05	29.22	16.97	-49.5	-50.8	14.6	0.00e+00	0	28	0	514850816	65	4134
2026-01-06 23:54:35.04	29.48	17.42	-49.6	-50.9	14.6	0.00e+00	0	28	0	527433728	65	4147
2026-01-06 23:54:39.06	29.75	17.87	-49.7	-51.0	14.5	0.00e+00	0	28	0	540016640	65	4221
2026-01-06 23:54:43.07	30.03	18.33	-49.8	-51.1	14.5	0.00e+00	0	28	0	552599552	65	4276
2026-01-06 23:54:47.09	30.31	18.80	-49.9	-51.3	14.4	0.00e+00	0	28	0	565182464	65	4351
2026-01-06 23:54:51.09	30.61	19.28	-49.8	-51.2	14.5	0.00e+00	0	28	0	577765376	65	4299
2026-01-06 23:54:55.09	30.91	19.77	-49.8	-51.1	14.5	0.00e+00	0	28	0	590348288	65	4286
2026-01-06 23:54:59.09	31.22	20.26	-49.7	-51.0	14.6	0.00e+00	0	28	0	601882624	65	4207
2026-01-06 23:55:03.08	31.54	20.76	-49.5	-50.8	14.6	0.00e+00	0	28	0	614465536	65	4102
2026-01-06 23:55:07.09	31.87	21.28	-49.1	-50.3	14.7	0.00e+00	0	28	0	627048448	64	4131
2026-01-06 23:55:11.10	32.22	21.80	-48.8	-50.0	14.8	0.00e+00	0	28	0	639631360	64	3995
2026-01-06 23:55:15.11	32.57	22.34	-48.5	-49.7	14.8	0.00e+00	0	28	0	652214272	63	4052
2026-01-06 23:55:19.13	32.94	22.88	-48.5	-49.6	14.8	0.00e+00	0	28	0	664797184	63	4030
2026-01-06 23:55:23.14	33.32	23.44	-48.4	-49.6	14.9	0.00e+00	0	28	0	677380096	63	4005
2026-01-06 23:55:27.15	33.71	24.01	-48.6	-49.8	14.8	0.00e+00	0	28	0	689963008	63	4125
2026-01-06 23:55:31.15	34.11	24.58	-48.6	-49.7	14.8	0.00e+00	0	28	0	702545920	63	4098
2026-01-06 23:55:35.13	34.53	25.17	-48.7	-49.9	14.7	0.00e+00	0	28	0	715128832	63	4179
2026-01-06 23:55:39.13	34.96	25.77	-49.1	-50.3	14.7	0.00e+00	0	28	0	727711744	63	4349
2026-01-06 23:55:43.13	35.41	26.38	-49.3	-50.6	14.6	0.00e+00	0	28	0	740294656	64	4253
2026-01-06 23:55:47.13	35.88	27.00	-49.5	-50.8	14.6	0.00e+00	0	28	0	752877568	64	4348
2026-01-06 23:55:51.13	36.37	27.64	-49.6	-50.8	14.6	0.00e+00	0	28	0	765460480	64	4374
2026-01-06 23:55:55.12	36.87	28.28	-49.7	-50.9	14.5	0.00e+00	0	28	0	776994816	64	4428
2026-01-06 23:55:59.11	37.39	28.95	-49.6	-50.9	14.5	0.00e+00	0	28	0	789577728	64	4411
2026-01-06 23:56:03.10	37.94	29.62	-49.6	-50.9	14.5	0.00e+00	0	28	0	802160640	64	4407
2026-01-06 23:56:07.10	38.51	30.31	-49.8	-51.2	14.4	0.00e+00	0	28	0	814743552	64	4550
2026-01-06 23:56:11.10	39.10	31.01	-49.4	-50.6	14.6	0.00e+00	0	28	0	827326464	64	4289
2026-01-06 23:56:15.10	39.72	31.73	-49.3	-50.5	14.7	0.00e+00	0	28	0	839909376	64	4225
2026-01-06 23:56:19.10	40.37	32.46	-49.5	-50.8	14.6	0.00e+00	0	28	0	852492288	64	4374
2026-01-06 23:56:23.10	41.05	33.21	-49.6	-50.9	14.5	0.00e+00	0	28	0	865075200	64	4396
2026-01-06 23:56:27.09	41.75	33.97	-50.3	-51.7	14.4	0.00e+00	0	28	0	877658112	65	4557
2026-01-06 23:56:31.09	42.49	34.74	-51.1	-52.6	14.2	0.00e+00	0	28	0	890241024	67	4510
2026-01-06 23:56:35.08	43.27	35.53	-51.3	-52.8	14.1	0.00e+00	0	28	0	901775360	67	4601
2026-01-06 23:56:39.06	44.07	36.32	-51.3	-52.8	14.1	0.00e+00	0	28	0	914358272	67	4620
2026-01-06 23:56:43.07	44.93	37.14	-51.5	-53.0	14.2	0.00e+00	0	28	0	926941184	68	4479
2026-01-06 23:56:47.07	45.83	37.97	-50.9	-52.2	14.5	0.00e+00	0	28	0	939524096	68	4080
2026-01-06 23:56:51.08	46.77	38.82	-51.4	-52.8	14.2	0.00e+00	0	28	0	952107008	68	4377
2026-01-06 23:56:55.08	47.77	39.67	-51.7	-53.2	14.1	0.00e+00	0	28	0	964689920	68	4553
2026-01-06 23:56:59.07	48.81	40.53	-51.8	-53.3	14.0	0.00e+00	0	28	0	977272832	68	4607
2026-01-06 23:57:03.06	49.91	41.41	-52.2	-53.8	13.9	0.00e+00	0	28	0	989855744	69	4633
2026-01-06 23:57:07.07	51.08	42.30	-51.9	-53.4	14.1	0.00e+00	0	28	0	1002438656	69	4403
2026-01-06 23:57:11.07	52.31	43.19	-52.7	-54.4	13.7	0.00e+00	0	28	0	1015021568	70	4705
2026-01-06 23:57:15.07	53.60	44.09	-52.3	-53.9	14.0	0.00e+00	0	28	0	1027604480	70	4403
2026-01-06 23:57:19.05	54.97	44.99	-52.2	-53.8	14.0	0.00e+00	0	28	0	1040187392	70	4350
2026-01-06 23:57:23.05	56.42	45.89	-51.7	-53.1	14.2	0.00e+00	0	28	0	1052770304	69	4291
2026-01-06 23:57:27.05	57.96	46.80	-52.3	-53.9	13.9	0.00e+00	0	28	0	1064304640	69	4692
2026-01-06 23:57:31.04	59.58	47.70	-51.6	-53.1	14.3	0.00e+00	0	28	0	1076887552	69	4245
2026-01-06 23:57:35.04	61.30	48.59	-51.4	-52.8	14.4	0.00e+00	0	28	0	1089470464	69	4107
2026-01-06 23:57:39.05	63.13	49.48	-50.9	-52.3	14.5	0.00e+00	0	28	0	1102053376	68	4111
2026-01-06 23:57:43.04	65.06	50.35	-51.1	-52.4	14.4	0.00e+00	0	28	0	1114636288	68	4190
2026-01-06 23:57:47.05	67.11	51.20	-51.6	-53.0	14.2	0.00e+00	0	28	0	1127219200	68	4482
2026-01-06 23:57:51.05	69.27	52.03	-50.9	-52.2	14.5	0.00e+00	0	28	0	1139802112	68	4085
2026-01-06 23:57:55.04	71.54	52.82	-50.1	-51.4	14.6	0.00e+00	0	28	0	1152385024	66	4171
2026-01-06 23:57:59.04	73.94	53.58	-50.8	-52.1	14.3	0.00e+00	0	28	0	1164967936	66	4533
2026-01-06 23:58:03.04	76.47	54.30	-50.6	-52.0	14.5	0.00e+00	0	28	0	1177550848	67	4207
2026-01-06 23:58:07.03	79.12	54.97	-49.9	-51.1	14.7	0.00e+00	0	28	0	1190133760	66	4037
2026-01-06 23:58:11.04	81.90	55.58	-49.6	-50.8	14.7	0.00e+00	0	28	0	1201668096	65	4107
2026-01-06 23:58:15.05	84.80	56.14	-49.0	-50.2	14.8	0.00e+00	0	28	0	1215299584	64	4072
2026-01-06 23:58:19.05	87.80	56.62	-49.0	-50.1	14.8	0.00e+00	0	28	0	1226833920	64	4046
2026-01-06 23:58:23.05	90.90	57.04	-49.2	-50.4	14.7	0.00e+00	0	28	0	1239416832	64	4155
2026-01-06 23:58:27.07	94.10	57.37	-49.2	-50.4	14.7	0.00e+00	0	28	0	1251999744	64	4182
2026-01-06 23:58:31.07	97.36	57.62	-49.0	-50.2	14.8	0.00e+00	0	28	0	1264582656	64	4057
2026-01-06 23:58:35.08	100.67	57.78	-49.1	-50.2	14.7	0.00e+00	0	28	0	1277165568	64	4097
2026-01-06 23:58:39.07	104.00	57.86	-49.1	-50.3	14.7	0.00e+00	0	28	0	1289748480	64	4129
2026-01-06 23:58:43.07	107.34	57.84	-49.1	-50.3	14.8	0.00e+00	0	28	0	1302331392	64	4110
2026-01-06 23:58:47.07	110.67	57.73	-49.4	-50.6	14.6	0.00e+00	0	28	0	1314914304	64	4291
2026-01-06 23:58:51.07	113.96	57.54	-49.4	-50.6	14.6	0.00e+00	0	28	0	1327497216	64	4283
2026-01-06 23:58:55.08	117.20	57.26	-49.1	-50.3	14.7	0.00e+00	0	28	0	1340080128	64	4135
2026-01-06 23:58:59.08	120.36	56.89	-49.2	-50.4	14.7	0.00e+00	0	28	0	1352663040	64	4148
2026-01-06 23:59:03.07	123.42	56.45	-49.6	-50.8	14.6	0.00e+00	0	28	0	1365245952	64	4365
2026-01-06 23:59:07.04	126.36	55.95	-50.5	-51.9	14.4	0.00e+00	0	28	0	1376780288	66	4425
2026-01-06 23:59:11.04	129.22	55.37	-50.3	-51.7	14.5	0.00e+00	0	28	0	1389363200	66	4295
2026-01-06 23:59:15.05	131.96	54.73	-50.1	-51.4	14.6	0.00e+00	0	28	0	1401946112	66	4170
2026-01-06 23:59:19.06	134.58	54.04	-50.3	-51.6	14.4	0.00e+00	0	28	0	1414529024	66	4285
2026-01-06 23:59:23.06	137.06	53.31	-51.0	-52.5	14.3	0.00e+00	0	28	0	1427111936	67	4461
2026-01-06 23:59:27.05	139.42	52.53	-50.5	-51.9	14.5	0.00e+00	0	28	0	1439694848	67	4148
2026-01-06 23:59:31.07	141.67	51.72	-51.1	-52.5	14.2	0.00e+00	0	28	0	1452277760	67	4459
2026-01-06 23:59:35.06	143.78	50.88	-51.2	-52.7	14.1	0.00e+00	0	28	0	1464860672	67	4555
2026-01-06 23:59:39.06	145.79	50.02	-51.4	-52.9	14.1	0.00e+00	0	28	0	1477443584	67	4652
2026-01-06 23:59:43.07	147.69	49.14	-51.7	-53.2	14.1	0.00e+00	0	28	0	1490026496	68	4587
2026-01-06 23:59:47.07	149.48	48.25	-51.4	-52.8	14.2	0.00e+00	0	28	0	1502609408	68	4388
2026-01-06 23:59:51.08	151.17	47.35	-52.5	-54.1	13.9	0.00e+00	0	28	0	1515192320	70	4530
2026-01-06 23:59:55.08	152.77	46.44	-51.3	-52.8	14.4	0.00e+00	0	28	0	1527775232	69	4102
2026-01-06 23:59:59.08	154.27	45.53	-52.2	-53.8	13.9	0.00e+00	0	28	0	1539309568	69	4648
2026-01-07 00:00:03.08	155.70	44.63	-52.0	-53.5	14.1	0.00e+00	0	28	0	1551892480	70	4225
2026-01-07 00:00:07.07	157.04	43.72	-51.4	-52.8	14.3	0.00e+00	0	28	0	1564475392	69	4145
2026-01-07 00:00:11.07	158.31	42.82	-52.9	-54.6	13.6	0.00e+00	0	28	0	1577058304	70	4800
2026-01-07 00:00:15.05	159.51	41.93	-52.4	-54.0	14.0	0.00e+00	0	28	0	1589641216	71	4229
2026-01-07 00:00:19.04	160.65	41.05	-51.8	-53.3	14.1	0.00e+00	0	28	0	1602224128	69	4354
2026-01-07 00:00:23.04	161.74	40.17	-52.5	-54.2	13.8	0.00e+00	0	28	0	1614807040	70	4590
2026-01-07 00:00:27.04	162.76	39.31	-51.0	-52.4	14.4	0.00e+00	0	28	0	1627389952	68	4164
2026-01-07 00:00:31.05	163.74	38.45	-51.4	-52.8	14.2	0.00e+00	0	28	0	1639972864	68	4381
2026-01-07 00:00:35.04	164.67	37.61	-51.5	-52.9	14.2	0.00e+00	0	28	0	1652555776	68	4424
2026-01-07 00:00:39.04	165.55	36.79	-51.1	-52.5	14.4	0.00e+00	0	28	0	1665138688	68	4202
2026-01-07 00:00:43.03	166.38	35.97	-50.3	-51.6	14.6	0.00e+00	0	28	0	1676673024	67	4017
2026-01-07 00:00:47.03	167.18	35.17	-50.9	-52.4	14.2	0.00e+00	0	28	0	1689255936	67	4413
2026-01-07 00:00:51.03	167.95	34.39	-50.7	-52.1	14.4	0.00e+00	0	28	0	1701838848	67	4275
2026-01-07 00:00:55.02	168.67	33.62	-50.4	-51.8	14.5	0.00e+00	0	28	0	1714421760	67	4111
2026-01-07 00:00:59.02	169.37	32.86	-51.0	-52.5	14.2	0.00e+00	0	28	0	1727004672	67	4465
2026-01-07 00:01:03.01	170.03	32.12	-50.7	-52.1	14.4	0.00e+00	0	28	0	1739587584	67	4253
2026-01-07 00:01:07.01	170.67	31.39	-50.0	-51.3	14.6	0.00e+00	0	28	0	1752170496	66	4100
2026-01-07 00:01:11.00	171.28	30.68	-49.6	-50.9	14.6	0.00e+00	0	28	0	1764753408	65	4152
2026-01-07 00:01:15.00	171.86	29.97	-49.5	-50.7	14.7	0.00e+00	0	28	0	1777336320	65	4075
2026-01-07 00:01:18.99	172.42	29.29	-49.5	-50.8	14.6	0.00e+00	0	28	0	1789919232	65	4125
2026-01-07 00:01:22.99	172.96	28.62	-49.8	-51.1	14.5	0.00e+00	0	28	0	1801453568	65	4263
2026-01-07 00:01:26.99	173.48	27.96	-49.8	-51.1	14.6	0.00e+00	0	28	0	1815085056	65	4260
2026-01-07 00:01:31.00	173.97	27.31	-49.4	-50.7	14.7	0.00e+00	0	28	0	1826619392	65	4058
2026-01-07 00:01:35.02	174.45	26.67	-49.1	-50.3	14.7	0.00e+00	0	28	0	1839202304	64	4119
2026-01-07 00:01:39.01	174.91	26.05	-49.0	-50.2	14.7	0.00e+00	0	28	0	1851785216	64	4091
2026-01-07 00:01:43.00	175.36	25.44	-48.6	-49.8	14.8	0.00e+00	0	28	0	1864368128	63	4112
2026-01-07 00:01:46.99	175.78	24.85	-48.8	-49.9	14.7	0.00e+00	0	28	0	1876951040	63	4191
2026-01-07 00:01:50.99	176.19	24.26	-49.0	-50.3	14.6	0.00e+00	0	28	0	1889533952	63	4343
2026-01-07 00:01:54.99	176.59	23.69	-49.2	-50.5	14.6	0.00e+00	0	28	0	1902116864	63	4451
2026-01-07 00:01:59.00	176.98	23.12	-49.6	-50.9	14.5	0.00e+00	0	28	0	1914699776	64	4399
2026-01-07 00:02:03.01	177.35	22.57	-49.6	-50.9	14.5	0.00e+00	0	28	0	1927282688	64	4422
2026-01-07 00:02:06.99	177.71	22.03	-49.7	-51.0	14.4	0.00e+00	0	28	0	1939865600	64	4477
2026-01-07 00:02:10.99	178.06	21.50	-49.6	-50.9	14.5	0.00e+00	0	28	0	1952448512	64	4427
2026-01-07 00:02:14.98	178.39	20.98	-49.2	-50.5	14.6	0.00e+00	0	28	0	1963982848	64	4206
2026-01-07 00:02:18.97	178.72	20.47	-48.9	-50.1	14.8	0.00e+00	0	28	0	1976565760	64	4011
2026-01-07 00:02:22.96	179.03	19.97	-48.9	-50.1	14.8	0.00e+00	0	28	0	1989148672	64	4013
2026-01-07 00:02:26.95	179.34	19.48	-49.2	-50.4	14.6	0.00e+00	0	28	0	2001731584	64	4192
2026-01-07 00:02:30.95	179.64	18.99	-49.4	-50.7	14.6	0.00e+00	0	28	0	2014314496	64	4299
2026-01-07 00:02:34.95	179.93	18.52	-49.5	-50.7	14.5	0.00e+00	0	28	0	2026897408	64	4336
2026-01-07 00:02:38.95	180.21	18.05	-49.5	-50.8	14.5	0.00e+00	0	28	0	2039480320	64	4371
2026-01-07 00:02:42.95	180.48	17.59	-49.9	-51.2	14.4	0.00e+00	0	28	0	2052063232	64	4572
2026-01-07 00:02:46.95	180.74	17.14	-49.6	-50.9	14.5	0.00e+00	0	28	0	2064646144	64	4422
2026-01-07 00:02:50.95	181.00	16.70	-50.0	-51.4	14.4	0.00e+00	0	28	0	2077229056	65	4418
2026-01-07 00:02:54.96	181.25	16.26	-50.1	-51.4	14.4	0.00e+00	0	28	0	2089811968	65	4441
2026-01-07 00:02:58.97	181.50	15.83	-50.1	-51.5	14.3	0.00e+00	0	28	0	2102394880	65	4460
2026-01-07 00:03:02.97	181.74	15.41	-50.2	-51.6	14.3	0.00e+00	0	28	0	2114977792	65	4529
2026-01-07 00:03:06.97	181.97	14.99	-50.3	-51.7	14.3	0.00e+00	0	28	0	2126512128	65	4563
2026-01-07 00:03:10.98	182.19	14.58	-50.3	-51.7	14.3	0.00e+00	0	28	0	2139095040	66	4329
2026-01-07 00:03:14.99	182.41	14.18	-50.3	-51.7	14.3	0.00e+00	0	28	0	2151677952	66	4329
2026-01-07 00:03:18.97	182.63	13.79	-50.3	-51.7	14.3	0.00e+00	0	28	0	2164260864	66	4304
2026-01-07 00:03:22.95	182.84	13.40	-50.4	-51.8	14.3	0.00e+00	0	28	0	2176843776	66	4349
2026-01-07 00:03:26.94	183.04	13.02	-50.4	-51.8	14.3	0.00e+00	0	28	0	2189426688	66	4374
2026-01-07 00:03:30.95	183.24	12.64	-50.4	-51.8	14.2	0.00e+00	0	28	0	2202009600	66	4377
2026-01-07 00:03:34.95	183.44	12.26	-50.4	-51.8	14.3	0.00e+00	0	28	0	2214592512	66	4375
2026-01-07 00:03:38.94	183.63	11.90	-50.3	-51.7	14.3	0.00e+00	0	28	0	2227175424	66	4321
2026-01-07 00:03:42.94	183.81	11.53	-50.4	-51.8	14.2	0.00e+00	0	28	0	2239758336	66	4388
2026-01-07 00:03:46.95	184.00	11.18	-50.5	-52.0	14.2	0.00e+00	0	28	0	2252341248	66	4458
2026-01-07 00:03:50.93	184.17	10.82	-50.5	-51.9	14.2	0.00e+00	0	28	0	2263875584	66	4437
2026-01-07 00:03:54.93	184.35	10.48	-50.6	-52.1	14.1	0.00e+00	0	28	0	2276458496	66	4505
2026-01-07 00:03:58.93	184.52	10.13	-50.6	-52.1	14.1	0.00e+00	0	28	0	2289041408	66	4494
2026-01-07 00:04:02.92	184.68	9.80	-50.4	-51.8	14.3	0.00e+00	0	28	0	2301624320	66	4358
2026-01-07 00:04:06.91	184.85	9.46	-50.4	-51.9	14.2	0.00e+00	0	28	0	2314207232	66	4399
2026-01-07 00:04:10.89	185.01	9.13	-50.5	-51.9	14.2	0.00e+00	0	28	0	2326790144	66	4440
2026-01-07 00:04:14.87	185.16	8.81	-50.8	-52.3	14.0	0.00e+00	0	28	0	2339373056	66	4647
2026-01-07 00:04:18.86	185.32	8.49	-50.8	-52.4	14.0	0.00e+00	0	28	0	2351955968	66	4654
2026-01-07 00:04:22.86	185.47	8.17	-51.1	-52.7	13.9	0.00e+00	0	28	0	2364538880	67	4574
2026-01-07 00:04:26.85	185.61	7.86	-51.3	-52.9	13.8	0.00e+00	0	28	0	2377121792	67	4689
2026-01-07 00:04:30.84	185.76	7.55	-51.8	-53.6	13.6	0.00e+00	0	28	0	2388656128	68	4766
2026-01-07 00:04:34.84	185.90	7.24	-51.8	-53.5	13.7	0.00e+00	0	28	0	2401239040	69	4482
2026-01-07 00:04:38.84	186.04	6.94	-52.0	-53.8	13.6	0.00e+00	0	28	0	2413821952	69	4646
2026-01-07 00:04:42.85	186.18	6.64	-52.1	-53.9	13.5	0.00e+00	0	28	0	2426404864	69	4682
2026-01-07 00:04:46.86	186.31	6.34	-52.3	-54.2	13.3	0.00e+00	0	28	0	2438987776	69	4859
2026-01-07 00:04:50.87	186.45	6.05	-52.3	-54.2	13.3	0.00e+00	0	28	0	2451570688	69	4854
2026-01-07 00:04:54.87	186.58	5.76	-52.4	-54.3	13.3	0.00e+00	0	28	0	2464153600	70	4631
2026-01-07 00:04:58.86	186.70	5.47	-52.1	-54.0	13.5	0.00e+00	0	28	0	2476736512	70	4473
2026-01-07 00:05:02.86	186.83	5.19	-52.5	-54.6	13.2	0.00e+00	0	28	0	2489319424	70	4767
2026-01-07 00:05:06.87	186.95	4.91	-59.1	-72.9	3.8	1.49e+00	0	28	104	2497708032	83	18685
2026-01-07 00:05:10.86	187.07	4.63	-60.0	-73.8	3.8	1.49e+00	0	28	104	2497708032	85	18494
2026-01-07 00:05:14.84	187.19	4.35	-60.3	-74.1	3.8	1.49e+00	0	28	104	2497708032	85	19081
2026-01-07 00:05:18.83	187.31	4.08	-60.4	-74.2	3.8	1.49e+00	0	28	104	2497708032	85	19379
2026-01-07 00:05:22.83	187.43	3.81	-60.5	-74.4	3.8	1.49e+00	0	28	104	2497708032	86	18560
2026-01-07 00:05:26.82	187.54	3.54	-60.6	-74.5	3.8	1.49e+00	0	28	104	2497708032	86	18772
2026-01-07 00:05:30.83	187.65	3.28	-60.5	-74.4	3.8	1.49e+00	0	28	104	2497708032	86	18561
2026-01-07 00:05:34.84	187.76	3.02	-60.5	-74.3	3.8	1.49e+00	0	28	104	2497708032	86	18505
2026-01-07 00:05:38.82	187.87	2.76	-60.5	-74.3	3.8	1.49e+00	0	28	104	2497708032	86	18456
2026-01-07 00:05:42.83	187.98	2.50	-60.5	-74.3	3.8	1.49e+00	0	28	104	2497708032	86	18456
2026-01-07 00:05:46.84	188.08	2.24	-60.4	-74.3	3.8	1.49e+00	0	28	104	2497708032	86	18397
2026-01-07 00:05:50.85	188.19	1.99	-60.4	-74.3	3.8	1.49e+00	0	28	104	2497708032	86	18409

#Closed at: 2026-01-07 00:05:53
#Recorded file [2497 MB]: D:/lorett/data/31004_260107_025126.dat