passes_logs/2026/01/06/R3.2S_Murmansk/R3.2S_Murmansk__20260106_003954_SUOMI_NPP_rec.log

#Pass ID: 20260106_003954_SUOMI NPP
#Satellite: SUOMI NPP
#Configuration: NPP
#almurnet v.1.7.20251203
#Start time: 2026-01-06 00:39:55

#Version: 2.2.20231116
#Station: R3.2S_Murmansk
#Location: 33.079688 lon 68.888172 lat
#TLE: 1 37849U 11061A   26004.95404768  .00000136  00000+0  85334-4 0  9991
#TLE: 2 37849  98.7801 307.0898 0002575  80.6707 279.4760 14.19522289735281

#Time	Az	El	Level	Level2	SNR	BER	BlckErr	Temp	State	Recorded	gain1	gain2
2026-01-06 00:39:55.69	24.21	2.09	-58.1	-74.1	3.8	1.49e+00	0	24	0	0	82	22583
2026-01-06 00:39:59.70	24.24	2.35	-58.1	-74.0	3.8	1.49e+00	0	24	104	0	81	23814
2026-01-06 00:40:03.70	24.26	2.61	-58.0	-74.0	3.8	1.49e+00	0	24	104	0	81	23838
2026-01-06 00:40:07.70	24.29	2.87	-58.1	-73.9	3.8	1.49e+00	0	25	104	0	81	23547
2026-01-06 00:40:11.70	24.31	3.13	-58.0	-73.2	3.8	1.49e+00	0	25	104	0	81	21589
2026-01-06 00:40:15.68	24.34	3.40	-58.0	-72.8	3.8	1.49e+00	0	25	104	0	81	20758
2026-01-06 00:40:19.68	24.36	3.67	-58.0	-73.7	3.8	1.49e+00	0	25	104	0	81	22838
2026-01-06 00:40:23.67	24.39	3.94	-58.0	-72.0	3.8	1.49e+00	0	25	104	0	81	18893
2026-01-06 00:40:27.64	24.42	4.21	-57.7	-68.2	5.1	7.47e-01	0	25	0	3145728	81	12163
2026-01-06 00:40:31.63	24.44	4.49	-57.4	-65.7	6.7	1.52e-01	0	25	0	10485760	81	9126
2026-01-06 00:40:35.63	24.47	4.77	-57.2	-64.8	7.5	7.13e-02	0	25	0	17825792	81	8206
2026-01-06 00:40:39.62	24.50	5.05	-56.3	-61.4	10.2	7.65e-02	0	25	0	26214400	79	6223
2026-01-06 00:40:43.60	24.52	5.34	-57.8	-67.2	6.1	2.06e-03	0	25	0	33554432	80	11460
2026-01-06 00:40:47.59	24.55	5.62	-55.6	-59.5	11.7	2.36e-05	0	25	0	39845888	77	5655
2026-01-06 00:40:51.58	24.58	5.92	-55.5	-59.3	11.9	7.00e-07	0	25	0	47185920	77	5495
2026-01-06 00:40:55.57	24.60	6.21	-55.3	-58.9	12.3	7.00e-07	0	25	0	55574528	77	5235
2026-01-06 00:40:59.56	24.63	6.51	-55.4	-59.0	12.2	2.20e-06	0	25	0	62914560	77	5315
2026-01-06 00:41:03.54	24.66	6.81	-55.1	-58.5	12.5	0.00e+00	0	25	0	70254592	76	5314
2026-01-06 00:41:07.52	24.69	7.12	-55.1	-58.3	12.6	0.00e+00	0	26	0	77594624	76	5206
2026-01-06 00:41:11.52	24.72	7.43	-55.0	-58.2	12.7	0.00e+00	0	26	0	84934656	76	5129
2026-01-06 00:41:15.50	24.74	7.74	-54.9	-58.0	12.9	0.00e+00	0	26	0	92274688	76	4997
2026-01-06 00:41:19.49	24.77	8.06	-54.8	-57.8	13.0	0.00e+00	0	26	0	99614720	76	4910
2026-01-06 00:41:23.46	24.80	8.38	-54.8	-57.8	13.1	0.00e+00	0	26	0	106954752	76	4884
2026-01-06 00:41:27.45	24.83	8.70	-54.6	-57.5	13.1	0.00e+00	0	26	0	114294784	75	5016
2026-01-06 00:41:31.43	24.86	9.03	-54.5	-57.3	13.2	0.00e+00	0	26	0	122683392	75	4872
2026-01-06 00:41:35.41	24.89	9.37	-54.2	-56.9	13.5	0.00e+00	0	26	0	130023424	75	4665
2026-01-06 00:41:39.39	24.92	9.70	-54.2	-56.8	13.4	0.00e+00	0	26	0	137363456	74	4918
2026-01-06 00:41:43.40	24.95	10.05	-54.0	-56.6	13.6	0.00e+00	0	26	0	144703488	74	4792
2026-01-06 00:41:47.39	24.98	10.40	-53.9	-56.4	13.7	0.00e+00	0	26	0	152043520	74	4673
2026-01-06 00:41:51.38	25.01	10.75	-53.6	-56.0	13.8	0.00e+00	0	26	0	159383552	73	4706
2026-01-06 00:41:55.36	25.04	11.11	-53.5	-55.8	13.9	0.00e+00	0	26	0	166723584	73	4609
2026-01-06 00:41:59.38	25.08	11.48	-53.3	-55.5	14.1	0.00e+00	0	26	0	175112192	73	4476
2026-01-06 00:42:03.37	25.11	11.84	-53.2	-55.4	14.0	0.00e+00	0	26	0	182452224	72	4686
2026-01-06 00:42:07.37	25.14	12.22	-53.0	-55.1	14.2	0.00e+00	0	26	0	189792256	72	4508
2026-01-06 00:42:11.35	25.17	12.60	-52.9	-54.9	14.3	0.00e+00	0	26	0	197132288	72	4436
2026-01-06 00:42:15.36	25.21	12.99	-52.7	-54.7	14.4	0.00e+00	0	26	0	204472320	72	4312
2026-01-06 00:42:19.35	25.24	13.38	-52.6	-54.5	14.4	0.00e+00	0	26	0	211812352	71	4472
2026-01-06 00:42:23.34	25.27	13.78	-52.3	-54.2	14.5	0.00e+00	0	26	0	219152384	71	4325
2026-01-06 00:42:27.32	25.31	14.19	-52.2	-54.1	14.4	0.00e+00	0	26	0	227540992	70	4517
2026-01-06 00:42:31.32	25.34	14.60	-52.1	-53.9	14.5	0.00e+00	0	26	0	234881024	70	4425
2026-01-06 00:42:35.31	25.38	15.02	-52.1	-53.9	14.5	0.00e+00	0	26	0	242221056	70	4431
2026-01-06 00:42:39.31	25.41	15.45	-52.0	-53.8	14.6	0.00e+00	0	26	0	249561088	70	4362
2026-01-06 00:42:43.30	25.45	15.89	-51.9	-53.7	14.6	0.00e+00	0	26	0	256901120	70	4304
2026-01-06 00:42:47.31	25.49	16.33	-51.8	-53.5	14.7	0.00e+00	0	26	0	264241152	70	4226
2026-01-06 00:42:51.29	25.53	16.78	-51.6	-53.3	14.6	0.00e+00	0	26	0	271581184	69	4374
2026-01-06 00:42:55.28	25.56	17.24	-51.7	-53.3	14.6	0.00e+00	0	26	0	279969792	69	4388
2026-01-06 00:42:59.27	25.60	17.71	-51.6	-53.3	14.6	0.00e+00	0	26	0	287309824	69	4372
2026-01-06 00:43:03.26	25.64	18.19	-51.7	-53.4	14.6	0.00e+00	0	26	0	294649856	69	4401
2026-01-06 00:43:07.26	25.68	18.68	-51.8	-53.6	14.5	0.00e+00	0	26	0	301989888	69	4497
2026-01-06 00:43:11.27	25.73	19.18	-52.0	-53.8	14.5	0.00e+00	0	26	0	309329920	69	4608
2026-01-06 00:43:15.27	25.77	19.69	-51.9	-53.7	14.5	0.00e+00	0	26	0	316669952	69	4556
2026-01-06 00:43:19.27	25.81	20.21	-52.2	-54.0	14.4	0.00e+00	0	26	0	324009984	69	4724
2026-01-06 00:43:23.26	25.85	20.74	-52.4	-54.3	14.4	0.00e+00	0	26	0	332398592	70	4603
2026-01-06 00:43:27.24	25.90	21.28	-52.8	-54.8	14.2	0.00e+00	0	26	0	339738624	70	4880
2026-01-06 00:43:31.24	25.94	21.83	-53.0	-55.0	14.2	0.00e+00	0	26	0	347078656	71	4728
2026-01-06 00:43:35.23	25.99	22.40	-53.0	-55.0	14.2	0.00e+00	0	26	0	354418688	71	4757
2026-01-06 00:43:39.24	26.04	22.98	-53.3	-55.3	14.2	0.00e+00	0	26	0	361758720	72	4638
2026-01-06 00:43:43.25	26.09	23.57	-53.4	-55.6	14.0	0.00e+00	0	26	0	369098752	72	4773
2026-01-06 00:43:47.24	26.14	24.18	-53.3	-55.4	14.1	0.00e+00	0	26	0	376438784	72	4669
2026-01-06 00:43:51.23	26.19	24.80	-53.3	-55.3	14.2	0.00e+00	0	26	0	384827392	72	4621
2026-01-06 00:43:55.24	26.24	25.44	-53.4	-55.5	14.1	0.00e+00	0	26	0	392167424	72	4710
2026-01-06 00:43:59.25	26.30	26.09	-53.8	-56.0	13.8	0.00e+00	0	26	0	399507456	72	4992
2026-01-06 00:44:03.26	26.36	26.76	-53.5	-55.7	14.0	0.00e+00	0	26	0	406847488	72	4818
2026-01-06 00:44:07.26	26.41	27.45	-53.5	-55.6	14.0	0.00e+00	0	26	0	414187520	72	4784
2026-01-06 00:44:11.24	26.47	28.15	-53.9	-56.1	13.8	0.00e+00	0	26	0	421527552	72	5055
2026-01-06 00:44:15.23	26.54	28.87	-53.6	-55.7	14.1	0.00e+00	0	26	0	429916160	73	4570
2026-01-06 00:44:19.24	26.60	29.61	-53.6	-55.7	14.2	0.00e+00	0	26	0	437256192	73	4561
2026-01-06 00:44:23.25	26.67	30.37	-53.9	-56.1	13.9	0.00e+00	0	26	0	444596224	73	4800
2026-01-06 00:44:27.25	26.73	31.15	-54.1	-56.4	13.9	0.00e+00	0	26	0	451936256	74	4667
2026-01-06 00:44:31.26	26.81	31.96	-54.1	-56.4	13.9	0.00e+00	0	26	0	459276288	74	4682
2026-01-06 00:44:35.27	26.88	32.78	-54.7	-57.2	13.6	0.00e+00	0	26	0	466616320	75	4847
2026-01-06 00:44:39.26	26.96	33.63	-54.1	-56.3	14.0	0.00e+00	0	26	0	473956352	74	4629
2026-01-06 00:44:43.25	27.04	34.50	-53.5	-55.6	14.2	0.00e+00	0	26	0	482344960	73	4501
2026-01-06 00:44:47.25	27.12	35.40	-52.6	-54.4	14.5	0.00e+00	0	26	0	489684992	71	4423
2026-01-06 00:44:51.24	27.21	36.32	-51.8	-53.5	14.7	0.00e+00	0	26	0	497025024	69	4449
2026-01-06 00:44:55.23	27.30	37.27	-51.6	-53.2	14.8	0.00e+00	0	26	0	504365056	69	4340
2026-01-06 00:44:59.21	27.40	38.24	-51.6	-53.2	14.7	0.00e+00	0	26	0	511705088	69	4322
2026-01-06 00:45:03.21	27.50	39.25	-51.7	-53.3	14.7	0.00e+00	0	26	0	519045120	69	4388
2026-01-06 00:45:07.19	27.61	40.28	-51.6	-53.2	14.7	0.00e+00	0	27	0	526385152	69	4339
2026-01-06 00:45:11.17	27.72	41.34	-52.1	-53.8	14.5	0.00e+00	0	26	0	534773760	69	4627
2026-01-06 00:45:15.17	27.84	42.45	-52.8	-54.6	14.3	0.00e+00	0	26	0	542113792	70	4768
2026-01-06 00:45:19.15	27.96	43.57	-53.3	-55.2	14.2	0.00e+00	0	26	0	549453824	72	4577
2026-01-06 00:45:23.14	28.10	44.74	-53.2	-55.2	14.3	0.00e+00	0	26	0	556793856	72	4550
2026-01-06 00:45:27.14	28.25	45.95	-54.2	-56.5	13.8	0.00e+00	0	26	0	564133888	73	4991
2026-01-06 00:45:31.12	28.40	47.18	-55.2	-57.9	13.3	0.00e+00	0	26	0	571473920	75	5235
2026-01-06 00:45:35.10	28.57	48.45	-56.7	-60.5	11.9	7.00e-07	0	26	0	578813952	78	5961
2026-01-06 00:45:39.08	28.74	49.76	-54.5	-56.9	13.8	0.00e+00	0	26	0	586153984	75	4660
2026-01-06 00:45:43.06	28.94	51.11	-52.2	-53.8	14.8	0.00e+00	0	27	0	594542592	71	4133
2026-01-06 00:45:47.06	29.15	52.51	-51.6	-53.2	14.8	0.00e+00	0	26	0	601882624	69	4299
2026-01-06 00:45:51.04	29.38	53.94	-51.0	-52.5	14.9	0.00e+00	0	26	0	609222656	68	4206
2026-01-06 00:45:55.03	29.64	55.41	-50.7	-52.1	14.9	0.00e+00	0	26	0	616562688	67	4265
2026-01-06 00:45:59.03	29.92	56.93	-50.4	-51.8	14.9	0.00e+00	0	26	0	623902720	66	4376
2026-01-06 00:46:03.01	30.23	58.48	-52.6	-54.3	14.5	0.00e+00	0	26	0	631242752	70	4645
2026-01-06 00:46:06.99	30.58	60.08	-51.8	-53.4	14.9	0.00e+00	0	26	0	638582784	70	4162
2026-01-06 00:46:10.99	30.97	61.72	-49.7	-51.0	15.1	0.00e+00	0	26	0	645922816	66	3991
2026-01-06 00:46:14.98	31.42	63.40	-50.3	-51.7	14.8	0.00e+00	0	27	0	654311424	65	4567
2026-01-06 00:46:18.98	31.94	65.12	-51.9	-53.6	14.6	0.00e+00	0	26	0	661651456	68	4760
2026-01-06 00:46:22.97	32.54	66.87	-52.6	-54.4	14.4	0.00e+00	0	26	0	668991488	70	4680
2026-01-06 00:46:26.94	33.24	68.65	-53.9	-55.9	14.1	0.00e+00	0	26	0	676331520	73	4703
2026-01-06 00:46:30.92	34.09	70.47	-54.7	-57.0	13.6	0.00e+00	0	26	0	683671552	74	5037
2026-01-06 00:46:34.90	35.11	72.32	-52.2	-53.8	14.8	0.00e+00	0	26	0	691011584	71	4104
2026-01-06 00:46:38.89	36.40	74.20	-51.1	-52.6	14.9	0.00e+00	0	26	0	698351616	68	4278
2026-01-06 00:46:42.85	38.03	76.08	-53.4	-55.3	14.4	0.00e+00	0	26	0	705691648	73	4369
2026-01-06 00:46:46.83	40.20	77.98	-54.4	-56.6	13.9	0.00e+00	0	27	0	714080256	74	4810
2026-01-06 00:46:50.83	43.22	79.90	-53.4	-55.3	14.2	0.00e+00	0	26	0	721420288	72	4637
2026-01-06 00:46:54.82	47.66	81.78	-56.7	-60.4	12.1	0.00e+00	0	26	0	728760320	78	5881
2026-01-06 00:46:58.82	54.72	83.61	-53.4	-55.3	14.5	0.00e+00	0	26	0	736100352	73	4341
2026-01-06 00:47:02.83	67.17	85.28	-54.1	-56.2	14.1	0.00e+00	0	26	0	743440384	73	4867
2026-01-06 00:47:06.80	90.24	86.52	-54.1	-56.2	14.1	0.00e+00	0	26	0	750780416	74	4592
2026-01-06 00:47:10.78	125.56	86.79	-52.3	-53.9	14.8	0.00e+00	0	26	0	758120448	71	4169
2026-01-06 00:47:14.79	155.11	85.89	-54.7	-57.1	13.8	0.00e+00	0	27	0	766509056	75	4781
2026-01-06 00:47:18.78	171.30	84.36	-52.8	-54.5	14.6	0.00e+00	0	26	0	773849088	72	4237
2026-01-06 00:47:22.76	180.16	82.59	-53.5	-55.5	14.2	0.00e+00	0	26	0	781189120	72	4716
2026-01-06 00:47:26.73	185.51	80.73	-53.1	-54.8	14.5	0.00e+00	0	26	0	788529152	72	4362
2026-01-06 00:47:30.70	189.04	78.84	-55.3	-58.0	13.4	0.00e+00	0	26	0	795869184	75	5315
2026-01-06 00:47:34.70	191.55	76.92	-54.2	-56.4	14.1	0.00e+00	0	26	0	803209216	75	4421
2026-01-06 00:47:38.69	193.40	75.02	-53.2	-55.0	14.4	0.00e+00	0	26	0	810549248	72	4481
2026-01-06 00:47:42.69	194.83	73.12	-53.0	-54.9	14.4	0.00e+00	0	26	0	817889280	71	4666
2026-01-06 00:47:46.68	195.96	71.26	-54.9	-57.3	13.6	0.00e+00	0	26	0	826277888	74	5210
2026-01-06 00:47:50.68	196.88	69.41	-54.5	-56.7	14.0	0.00e+00	0	26	0	833617920	75	4584
2026-01-06 00:47:54.68	197.64	67.60	-54.8	-57.1	13.9	0.00e+00	0	26	0	840957952	76	4494
2026-01-06 00:47:58.68	198.29	65.82	-54.9	-57.3	13.8	0.00e+00	0	26	0	848297984	76	4648
2026-01-06 00:48:02.69	198.84	64.08	-52.7	-54.4	14.6	0.00e+00	0	27	0	855638016	71	4434
2026-01-06 00:48:06.68	199.31	62.38	-52.0	-53.7	14.8	0.00e+00	0	26	0	862978048	70	4296
2026-01-06 00:48:10.68	199.73	60.72	-53.0	-54.9	14.4	0.00e+00	0	26	0	871366656	71	4671
2026-01-06 00:48:14.70	200.10	59.09	-52.7	-54.5	14.5	0.00e+00	0	26	0	878706688	71	4444
2026-01-06 00:48:18.69	200.42	57.52	-53.6	-55.6	14.2	0.00e+00	0	27	0	886046720	72	4775
2026-01-06 00:48:22.68	200.71	55.98	-52.8	-54.6	14.4	0.00e+00	0	26	0	893386752	70	4771
2026-01-06 00:48:26.69	200.98	54.48	-54.2	-56.4	14.0	0.00e+00	0	26	0	900726784	73	4957
2026-01-06 00:48:30.69	201.22	53.02	-52.0	-53.6	14.8	0.00e+00	0	27	0	908066816	70	4272
2026-01-06 00:48:34.68	201.44	51.61	-54.8	-57.2	13.8	0.00e+00	0	26	0	915406848	76	4547
2026-01-06 00:48:38.69	201.64	50.23	-52.2	-53.9	14.8	0.00e+00	0	26	0	923795456	71	4146
2026-01-06 00:48:42.67	201.82	48.90	-56.1	-59.4	12.7	0.00e+00	0	27	0	931135488	77	5589
2026-01-06 00:48:46.67	201.99	47.61	-51.4	-52.8	14.9	0.00e+00	0	27	0	938475520	69	4122
2026-01-06 00:48:50.68	202.15	46.35	-53.0	-54.9	14.4	0.00e+00	0	26	0	945815552	71	4652
2026-01-06 00:48:54.70	202.30	45.12	-54.3	-56.6	13.7	0.00e+00	0	26	0	953155584	73	5097
2026-01-06 00:48:58.70	202.44	43.93	-51.3	-52.7	15.0	0.00e+00	0	26	0	960495616	69	4077
2026-01-06 00:49:02.71	202.57	42.78	-52.0	-53.7	14.6	0.00e+00	0	26	0	968884224	69	4552
2026-01-06 00:49:06.71	202.69	41.67	-54.7	-57.1	13.6	0.00e+00	0	26	0	976224256	74	5083
2026-01-06 00:49:10.70	202.81	40.59	-51.6	-53.1	14.8	0.00e+00	0	26	0	983564288	69	4289
2026-01-06 00:49:14.70	202.91	39.53	-54.1	-56.2	14.0	0.00e+00	0	27	0	990904320	73	4834
2026-01-06 00:49:18.71	203.02	38.51	-57.6	-62.4	10.6	2.87e-04	0	26	0	998244352	80	6630
2026-01-06 00:49:22.72	203.12	37.52	-56.8	-60.5	11.9	1.90e-04	0	26	0	1005584384	80	5324
2026-01-06 00:49:26.72	203.21	36.56	-52.6	-54.2	14.6	0.00e+00	0	26	0	1013972992	71	4332
2026-01-06 00:49:30.70	203.30	35.63	-55.2	-57.8	13.3	0.00e+00	0	26	0	1021313024	75	5191
2026-01-06 00:49:34.66	203.38	34.73	-58.4	-64.7	8.8	3.27e-03	0	27	0	1028653056	81	8157
2026-01-06 00:49:38.65	203.46	33.85	-57.0	-61.0	11.7	2.47e-03	0	26	0	1035993088	80	5644
2026-01-06 00:49:42.64	203.54	32.99	-55.5	-58.3	13.2	0.00e+00	0	26	0	1043333120	77	4885
2026-01-06 00:49:46.63	203.61	32.16	-54.6	-56.9	13.8	0.00e+00	0	27	0	1050673152	75	4694
2026-01-06 00:49:50.62	203.68	31.35	-54.3	-56.5	13.9	0.00e+00	0	26	0	1058013184	74	4720
2026-01-06 00:49:54.60	203.75	30.56	-54.0	-56.2	14.1	0.00e+00	0	27	0	1065353216	74	4547
2026-01-06 00:49:58.58	203.81	29.79	-55.0	-57.6	13.4	0.00e+00	0	27	0	1072693248	75	5044
2026-01-06 00:50:02.55	203.88	29.05	-56.2	-59.6	12.4	0.00e+00	0	27	0	1081081856	77	5667
2026-01-06 00:50:06.51	203.94	28.33	-54.4	-56.7	13.8	0.00e+00	0	27	0	1088421888	75	4566
2026-01-06 00:50:10.50	204.00	27.62	-52.6	-54.3	14.5	0.00e+00	0	26	0	1095761920	71	4384
2026-01-06 00:50:14.48	204.06	26.93	-52.6	-54.4	14.5	0.00e+00	0	26	0	1103101952	71	4415
2026-01-06 00:50:18.47	204.11	26.25	-53.0	-54.9	14.3	0.00e+00	0	27	0	1110441984	71	4666
2026-01-06 00:50:22.45	204.16	25.60	-52.7	-54.5	14.4	0.00e+00	0	27	0	1117782016	71	4490
2026-01-06 00:50:26.44	204.22	24.95	-52.6	-54.4	14.5	0.00e+00	0	26	0	1125122048	71	4419
2026-01-06 00:50:30.44	204.27	24.32	-52.1	-53.7	14.6	0.00e+00	0	27	0	1132462080	70	4338
2026-01-06 00:50:34.43	204.32	23.71	-52.0	-53.7	14.7	0.00e+00	0	26	0	1140850688	70	4311
2026-01-06 00:50:38.43	204.36	23.11	-52.0	-53.7	14.6	0.00e+00	0	26	0	1148190720	70	4315
2026-01-06 00:50:42.43	204.41	22.53	-51.7	-53.3	14.7	0.00e+00	0	27	0	1155530752	69	4356
2026-01-06 00:50:46.40	204.46	21.96	-51.1	-52.7	14.8	0.00e+00	0	26	0	1162870784	68	4296
2026-01-06 00:50:50.38	204.50	21.40	-51.3	-52.9	14.7	0.00e+00	0	27	0	1170210816	68	4422
2026-01-06 00:50:54.38	204.55	20.85	-51.8	-53.6	14.5	0.00e+00	0	26	0	1177550848	68	4763
2026-01-06 00:50:58.38	204.59	20.31	-52.7	-54.7	14.2	0.00e+00	0	26	0	1184890880	70	4823
2026-01-06 00:51:02.37	204.63	19.79	-53.2	-55.2	14.1	0.00e+00	0	26	0	1193279488	71	4852
2026-01-06 00:51:06.36	204.67	19.28	-53.5	-55.6	14.0	0.00e+00	0	27	0	1200619520	72	4789
2026-01-06 00:51:10.35	204.71	18.77	-53.3	-55.4	14.1	0.00e+00	0	26	0	1207959552	72	4692
2026-01-06 00:51:14.35	204.75	18.28	-53.6	-55.8	13.9	0.00e+00	0	26	0	1215299584	72	4885
2026-01-06 00:51:18.38	204.79	17.79	-53.4	-55.5	14.1	0.00e+00	0	27	0	1222639616	72	4739
2026-01-06 00:51:22.38	204.82	17.32	-53.2	-55.2	14.2	0.00e+00	0	26	0	1229979648	72	4580
2026-01-06 00:51:26.37	204.86	16.85	-53.2	-55.2	14.2	0.00e+00	0	27	0	1237319680	72	4571
2026-01-06 00:51:30.35	204.90	16.40	-53.0	-55.0	14.2	0.00e+00	0	27	0	1245708288	72	4473
2026-01-06 00:51:34.36	204.93	15.95	-53.5	-55.6	14.0	0.00e+00	0	26	0	1253048320	72	4800
2026-01-06 00:51:38.35	204.97	15.51	-53.6	-55.8	13.8	0.00e+00	0	26	0	1260388352	72	4908
2026-01-06 00:51:42.34	205.00	15.08	-53.9	-56.3	13.7	0.00e+00	0	27	0	1267728384	73	4890
2026-01-06 00:51:46.33	205.04	14.65	-54.0	-56.4	13.7	0.00e+00	0	26	0	1275068416	73	4957
2026-01-06 00:51:50.32	205.07	14.23	-54.0	-56.4	13.7	0.00e+00	0	26	0	1282408448	73	4940
2026-01-06 00:51:54.32	205.10	13.82	-53.7	-56.0	13.9	0.00e+00	0	26	0	1289748480	73	4711
2026-01-06 00:51:58.31	205.13	13.42	-53.6	-55.8	13.9	0.00e+00	0	26	0	1298137088	73	4637
2026-01-06 00:52:02.30	205.16	13.02	-53.4	-55.6	14.1	0.00e+00	0	26	0	1305477120	73	4514
2026-01-06 00:52:06.30	205.20	12.63	-53.2	-55.3	14.2	0.00e+00	0	26	0	1312817152	73	4360
2026-01-06 00:52:10.29	205.23	12.25	-53.0	-55.0	14.2	0.00e+00	0	27	0	1320157184	72	4486
2026-01-06 00:52:14.29	205.26	11.87	-52.9	-54.9	14.3	0.00e+00	0	26	0	1327497216	72	4408
2026-01-06 00:52:18.29	205.29	11.50	-53.0	-55.0	14.2	0.00e+00	0	26	0	1334837248	72	4484
2026-01-06 00:52:22.29	205.32	11.13	-52.9	-54.9	14.2	0.00e+00	0	26	0	1342177280	72	4424
2026-01-06 00:52:26.29	205.35	10.77	-52.9	-55.0	14.2	0.00e+00	0	27	0	1350565888	72	4466
2026-01-06 00:52:30.28	205.37	10.41	-52.9	-54.9	14.2	0.00e+00	0	27	0	1357905920	72	4417
2026-01-06 00:52:34.30	205.40	10.06	-52.9	-55.0	14.2	0.00e+00	0	27	0	1365245952	72	4465
2026-01-06 00:52:38.29	205.43	9.71	-52.9	-54.9	14.2	0.00e+00	0	27	0	1372585984	72	4440
2026-01-06 00:52:42.29	205.46	9.37	-53.1	-55.3	14.0	0.00e+00	0	27	0	1379926016	72	4615
2026-01-06 00:52:46.28	205.49	9.03	-52.8	-54.9	14.2	0.00e+00	0	27	0	1387266048	72	4411
2026-01-06 00:52:50.28	205.51	8.70	-52.9	-55.0	14.2	0.00e+00	0	27	0	1394606080	72	4444
2026-01-06 00:52:54.28	205.54	8.37	-53.0	-55.1	14.1	0.00e+00	0	27	0	1402994688	72	4497
2026-01-06 00:52:58.30	205.57	8.05	-53.0	-55.2	14.0	0.00e+00	0	27	0	1410334720	72	4561
2026-01-06 00:53:02.30	205.59	7.73	-53.0	-55.2	14.0	0.00e+00	0	27	0	1417674752	72	4558
2026-01-06 00:53:06.30	205.62	7.41	-53.1	-55.3	14.0	0.00e+00	0	27	0	1425014784	72	4600
2026-01-06 00:53:10.30	205.64	7.10	-53.3	-55.6	13.8	0.00e+00	0	27	0	1432354816	72	4774
2026-01-06 00:53:14.30	205.67	6.79	-53.1	-55.3	13.9	0.00e+00	0	26	0	1439694848	72	4633
2026-01-06 00:53:18.31	205.69	6.48	-53.1	-55.3	13.9	0.00e+00	0	26	0	1448083456	72	4646
2026-01-06 00:53:22.30	205.72	6.18	-53.2	-55.4	13.8	0.00e+00	0	27	0	1455423488	72	4694
2026-01-06 00:53:26.30	205.74	5.88	-53.3	-55.6	13.7	0.00e+00	0	26	0	1462763520	72	4775
2026-01-06 00:53:30.29	205.77	5.59	-53.4	-55.8	13.6	0.00e+00	0	27	0	1470103552	72	4898
2026-01-06 00:53:34.30	205.79	5.30	-53.5	-55.9	13.5	0.00e+00	0	27	0	1477443584	72	4978
2026-01-06 00:53:38.29	205.82	5.01	-53.8	-56.4	13.3	0.00e+00	0	27	0	1484783616	72	5228
2026-01-06 00:53:42.28	205.84	4.73	-59.7	-75.7	3.8	1.49e+00	0	27	104	1485832192	84	24331
2026-01-06 00:53:46.27	205.86	4.45	-60.0	-76.1	3.8	1.49e+00	0	27	104	1485832192	85	23988
2026-01-06 00:53:50.28	205.89	4.17	-60.2	-76.3	3.8	1.49e+00	0	27	104	1485832192	85	24515
2026-01-06 00:53:54.26	205.91	3.89	-60.3	-76.4	3.8	1.49e+00	0	27	104	1485832192	85	24792
2026-01-06 00:53:58.26	205.93	3.62	-60.5	-76.5	3.8	1.49e+00	0	27	104	1485832192	86	23737
2026-01-06 00:54:02.26	205.96	3.35	-60.5	-76.5	3.8	1.49e+00	0	27	104	1485832192	86	23754
2026-01-06 00:54:06.25	205.98	3.08	-60.4	-76.5	3.8	1.49e+00	0	27	104	1485832192	86	23711
2026-01-06 00:54:10.25	206.00	2.81	-60.4	-76.5	3.8	1.49e+00	0	26	104	1485832192	86	23671
2026-01-06 00:54:14.24	206.02	2.55	-60.4	-76.5	3.8	1.49e+00	0	26	104	1485832192	86	23620
2026-01-06 00:54:18.23	206.05	2.29	-60.4	-76.5	3.8	1.49e+00	0	27	104	1485832192	86	23582
2026-01-06 00:54:22.21	206.07	2.04	-60.3	-76.4	3.8	1.49e+00	0	27	104	1485832192	86	23505

#Closed at: 2026-01-06 00:54:25
#Recorded file [1485 MB]: D:/lorett/data/31004_260106_033955.dat