passes_logs/2026/01/06/R3.2S_Murmansk/R3.2S_Murmansk__20260106_124831_AQUA_rec.log

#Pass ID: 20260106_124831_AQUA
#Satellite: AQUA
#Configuration: AQUA
#almurnet v.1.7.20251203
#Start time: 2026-01-06 12:48:32

#Version: 2.2.20231116
#Station: R3.2S_Murmansk
#Location: 33.079688 lon 68.888172 lat
#TLE: 1 27424U 02022A   26004.96787593  .00001598  00000+0  32997-3 0  9996
#TLE: 2 27424  98.4069 331.2279 0002002  90.2377   0.6092 14.61798176259425

#Time	Az	El	Level	Level2	SNR	BER	BlckErr	Temp	State	Recorded	gain1	gain2
2026-01-06 12:48:32.72	192.59	2.10	-58.3	-77.3	3.8	7.46e-01	0	26	0	0	85	31846
2026-01-06 12:48:35.71	192.76	2.29	-58.1	-77.2	3.8	7.48e-01	0	26	104	0	83	35462
2026-01-06 12:48:38.69	192.93	2.48	-58.1	-77.3	3.8	7.45e-01	0	26	104	0	83	35921
2026-01-06 12:48:41.69	193.10	2.67	-58.1	-77.2	3.8	7.47e-01	0	26	104	0	83	35286
2026-01-06 12:48:44.69	193.27	2.86	-58.1	-77.1	3.8	7.47e-01	0	26	104	0	83	35182
2026-01-06 12:48:47.68	193.45	3.05	-58.1	-76.9	3.9	7.43e-01	0	26	104	0	83	34276
2026-01-06 12:48:50.65	193.63	3.24	-58.1	-77.1	3.8	7.46e-01	0	26	104	0	83	35094
2026-01-06 12:48:53.65	193.81	3.44	-58.1	-76.5	3.8	7.44e-01	0	26	104	0	83	32849
2026-01-06 12:48:56.63	193.99	3.63	-58.1	-75.7	3.8	7.46e-01	0	26	104	0	83	29746
2026-01-06 12:48:59.61	194.18	3.83	-58.1	-77.4	3.8	7.45e-01	0	27	104	0	83	36418
2026-01-06 12:49:02.59	194.37	4.03	-58.0	-71.9	4.9	7.12e-01	0	27	104	0	83	19295
2026-01-06 12:49:05.59	194.56	4.23	-57.5	-66.4	8.9	6.29e-01	0	27	0	4194304	83	10288
2026-01-06 12:49:08.57	194.75	4.43	-57.2	-64.9	10.2	6.17e-01	0	27	0	9437184	83	8564
2026-01-06 12:49:11.57	194.95	4.63	-56.6	-62.6	11.9	6.11e-01	0	27	0	15204352	82	6976
2026-01-06 12:49:14.57	195.15	4.84	-55.1	-59.0	13.8	6.07e-01	0	27	0	20971520	79	5489
2026-01-06 12:49:17.56	195.35	5.05	-55.1	-59.0	13.8	6.07e-01	0	27	0	26214400	78	5815
2026-01-06 12:49:20.54	195.56	5.25	-57.6	-67.5	8.9	6.36e-01	0	27	0	31981568	82	12288
2026-01-06 12:49:23.52	195.76	5.46	-52.3	-54.6	15.0	6.07e-01	0	27	0	36175872	73	4671
2026-01-06 12:49:26.51	195.98	5.67	-52.2	-54.5	15.1	6.07e-01	0	27	0	41943040	73	4617
2026-01-06 12:49:29.49	196.19	5.88	-51.9	-54.1	15.2	6.07e-01	0	27	0	47710208	73	4430
2026-01-06 12:49:32.49	196.41	6.10	-52.4	-54.7	15.0	6.07e-01	0	27	0	52953088	73	4722
2026-01-06 12:49:35.48	196.63	6.31	-52.0	-54.2	15.2	6.05e-01	0	27	0	58720256	73	4455
2026-01-06 12:49:38.47	196.85	6.53	-52.2	-54.4	15.1	6.06e-01	0	27	0	64487424	73	4564
2026-01-06 12:49:41.46	197.08	6.75	-51.9	-54.1	15.2	6.08e-01	0	27	0	69730304	73	4408
2026-01-06 12:49:44.45	197.32	6.97	-51.9	-54.1	15.1	6.09e-01	0	27	0	75497472	72	4652
2026-01-06 12:49:47.43	197.55	7.19	-51.9	-54.0	15.1	6.07e-01	0	28	0	81264640	72	4626
2026-01-06 12:49:50.41	197.79	7.42	-52.0	-54.1	15.1	6.04e-01	0	28	0	86507520	72	4669
2026-01-06 12:49:53.40	198.03	7.64	-52.0	-54.1	15.1	6.06e-01	0	27	0	92274688	72	4696
2026-01-06 12:49:56.37	198.28	7.87	-51.7	-53.7	15.2	6.05e-01	0	28	0	98041856	72	4491
2026-01-06 12:49:59.35	198.53	8.10	-51.7	-53.7	15.2	6.07e-01	0	28	0	103284736	72	4460
2026-01-06 12:50:02.33	198.78	8.33	-51.6	-53.7	15.2	6.07e-01	0	28	0	109051904	72	4444
2026-01-06 12:50:05.31	199.04	8.56	-51.6	-53.6	15.3	6.05e-01	0	28	0	114819072	72	4406
2026-01-06 12:50:08.31	199.31	8.80	-51.5	-53.5	15.3	6.06e-01	0	28	0	120061952	72	4374
2026-01-06 12:50:11.31	199.57	9.04	-51.4	-53.3	15.3	6.04e-01	0	28	0	125829120	72	4289
2026-01-06 12:50:14.30	199.85	9.28	-51.5	-53.5	15.2	6.06e-01	0	28	0	131596288	71	4605
2026-01-06 12:50:17.29	200.12	9.52	-51.3	-53.3	15.2	6.05e-01	0	28	0	137363456	71	4501
2026-01-06 12:50:20.28	200.41	9.76	-51.4	-53.3	15.3	6.05e-01	0	28	0	142606336	71	4522
2026-01-06 12:50:23.28	200.70	10.01	-51.2	-53.1	15.3	6.07e-01	0	28	0	148373504	71	4410
2026-01-06 12:50:26.27	200.99	10.26	-51.4	-53.3	15.2	6.08e-01	0	28	0	154140672	71	4530
2026-01-06 12:50:29.26	201.29	10.51	-51.2	-53.1	15.3	6.07e-01	0	28	0	159383552	71	4409
2026-01-06 12:50:32.25	201.59	10.76	-51.1	-52.9	15.4	6.07e-01	0	28	0	165150720	71	4338
2026-01-06 12:50:35.24	201.90	11.01	-51.2	-53.1	15.3	6.05e-01	0	28	0	170917888	71	4403
2026-01-06 12:50:38.24	202.21	11.27	-51.0	-52.9	15.4	6.04e-01	0	28	0	176160768	71	4304
2026-01-06 12:50:41.23	202.53	11.53	-50.9	-52.7	15.4	6.06e-01	0	28	0	181927936	71	4235
2026-01-06 12:50:44.21	202.86	11.79	-50.9	-52.7	15.3	6.06e-01	0	28	0	187695104	70	4480
2026-01-06 12:50:47.19	203.19	12.06	-50.8	-52.6	15.3	6.09e-01	0	28	0	192937984	70	4410
2026-01-06 12:50:50.18	203.53	12.32	-50.8	-52.6	15.3	6.07e-01	0	28	0	198705152	70	4429
2026-01-06 12:50:53.18	203.87	12.59	-50.6	-52.3	15.4	6.05e-01	0	28	0	204472320	70	4288
2026-01-06 12:50:56.17	204.22	12.86	-50.6	-52.4	15.4	6.06e-01	0	28	0	210239488	70	4304
2026-01-06 12:50:59.16	204.58	13.14	-50.7	-52.4	15.4	6.06e-01	0	28	0	215482368	70	4338
2026-01-06 12:51:02.16	204.95	13.41	-50.6	-52.4	15.4	6.07e-01	0	28	0	221249536	70	4314
2026-01-06 12:51:05.16	205.32	13.69	-50.6	-52.4	15.4	6.05e-01	0	28	0	227016704	70	4297
2026-01-06 12:51:08.16	205.70	13.98	-50.5	-52.2	15.4	6.06e-01	0	28	0	232259584	70	4241
2026-01-06 12:51:11.15	206.09	14.26	-50.6	-52.3	15.4	6.07e-01	0	28	0	238026752	70	4272
2026-01-06 12:51:14.15	206.48	14.55	-50.4	-52.1	15.5	6.07e-01	0	28	0	243793920	70	4182
2026-01-06 12:51:17.14	206.88	14.84	-50.4	-52.1	15.4	6.08e-01	0	28	0	249561088	69	4416
2026-01-06 12:51:20.13	207.30	15.13	-50.4	-52.2	15.3	6.06e-01	0	28	0	254803968	69	4446
2026-01-06 12:51:23.13	207.72	15.42	-50.4	-52.1	15.4	6.08e-01	0	28	0	260571136	69	4417
2026-01-06 12:51:26.15	208.15	15.72	-50.4	-52.1	15.4	6.06e-01	0	28	0	266338304	69	4406
2026-01-06 12:51:29.15	208.59	16.02	-50.3	-52.0	15.4	6.05e-01	0	28	0	272105472	69	4366
2026-01-06 12:51:32.14	209.03	16.33	-50.3	-51.9	15.4	6.05e-01	0	28	0	277348352	69	4335
2026-01-06 12:51:35.14	209.49	16.63	-50.3	-52.0	15.4	6.08e-01	0	28	0	283115520	69	4341
2026-01-06 12:51:38.13	209.95	16.94	-50.4	-52.1	15.4	6.08e-01	0	28	0	288882688	69	4432
2026-01-06 12:51:41.14	210.43	17.25	-50.3	-51.9	15.4	6.07e-01	0	28	0	294125568	69	4340
2026-01-06 12:51:44.13	210.92	17.56	-50.4	-52.1	15.4	6.07e-01	0	28	0	299892736	69	4425
2026-01-06 12:51:47.12	211.41	17.88	-50.4	-52.0	15.4	6.08e-01	0	28	0	305659904	69	4372
2026-01-06 12:51:50.11	211.92	18.20	-50.5	-52.2	15.3	6.05e-01	0	28	0	310902784	69	4449
2026-01-06 12:51:53.11	212.44	18.52	-50.3	-51.9	15.4	6.07e-01	0	28	0	316669952	69	4334
2026-01-06 12:51:56.11	212.97	18.84	-50.4	-52.0	15.4	6.07e-01	0	28	0	322437120	69	4384
2026-01-06 12:51:59.09	213.51	19.16	-50.3	-51.9	15.4	6.06e-01	0	28	0	328204288	69	4322
2026-01-06 12:52:02.09	214.06	19.49	-50.2	-51.8	15.4	6.07e-01	0	28	0	333447168	69	4270
2026-01-06 12:52:05.08	214.62	19.82	-50.3	-52.0	15.4	6.06e-01	0	28	0	339214336	69	4377
2026-01-06 12:52:08.07	215.20	20.15	-50.2	-51.8	15.4	6.08e-01	0	28	0	344981504	69	4290
2026-01-06 12:52:11.06	215.79	20.48	-50.3	-51.9	15.4	6.07e-01	0	28	0	350224384	69	4327
2026-01-06 12:52:14.06	216.40	20.82	-50.3	-51.9	15.4	6.06e-01	0	28	0	355991552	69	4336
2026-01-06 12:52:17.07	217.02	21.16	-50.4	-52.1	15.4	6.07e-01	0	28	0	361758720	69	4432
2026-01-06 12:52:20.06	217.65	21.50	-50.2	-51.9	15.4	6.06e-01	0	28	0	367525888	69	4311
2026-01-06 12:52:23.06	218.30	21.84	-50.4	-52.1	15.4	6.06e-01	0	28	0	372768768	69	4420
2026-01-06 12:52:26.05	218.96	22.18	-50.5	-52.2	15.4	6.07e-01	0	28	0	378535936	69	4450
2026-01-06 12:52:29.03	219.63	22.52	-50.4	-52.0	15.4	6.07e-01	0	28	0	384303104	69	4382
2026-01-06 12:52:32.02	220.32	22.86	-50.7	-52.4	15.3	6.06e-01	0	28	0	389545984	69	4555
2026-01-06 12:52:35.01	221.03	23.21	-50.7	-52.4	15.3	6.07e-01	0	28	0	395313152	69	4557
2026-01-06 12:52:38.01	221.75	23.56	-50.7	-52.4	15.3	6.07e-01	0	28	0	401080320	69	4563
2026-01-06 12:52:41.00	222.49	23.90	-50.7	-52.4	15.3	6.06e-01	0	28	0	406323200	69	4556
2026-01-06 12:52:43.99	223.25	24.25	-50.6	-52.2	15.3	6.06e-01	0	28	0	412090368	69	4487
2026-01-06 12:52:46.96	224.01	24.59	-50.5	-52.2	15.4	6.08e-01	0	28	0	417857536	69	4464
2026-01-06 12:52:49.95	224.80	24.94	-50.7	-52.4	15.3	6.06e-01	0	28	0	423100416	69	4591
2026-01-06 12:52:52.93	225.61	25.28	-50.5	-52.2	15.4	6.08e-01	0	28	0	428867584	69	4461
2026-01-06 12:52:55.92	226.43	25.62	-50.7	-52.4	15.3	6.06e-01	0	28	0	434634752	69	4563
2026-01-06 12:52:58.90	227.28	25.96	-50.8	-52.5	15.3	6.06e-01	0	28	0	439877632	69	4612
2026-01-06 12:53:01.88	228.14	26.30	-50.6	-52.3	15.4	6.06e-01	0	28	0	445644800	69	4515
2026-01-06 12:53:04.86	229.02	26.64	-50.7	-52.4	15.3	6.07e-01	0	28	0	451411968	69	4576
2026-01-06 12:53:07.84	229.91	26.97	-50.5	-52.1	15.4	6.06e-01	0	28	0	457179136	69	4428
2026-01-06 12:53:10.83	230.83	27.31	-50.6	-52.3	15.3	6.06e-01	0	28	0	462422016	69	4515
2026-01-06 12:53:13.82	231.77	27.64	-50.8	-52.5	15.3	6.06e-01	0	29	0	468189184	69	4629
2026-01-06 12:53:16.81	232.73	27.96	-50.6	-52.3	15.3	6.06e-01	0	28	0	473956352	69	4538
2026-01-06 12:53:19.79	233.71	28.28	-50.7	-52.4	15.3	6.07e-01	0	28	0	479199232	69	4575
2026-01-06 12:53:22.76	234.70	28.60	-50.8	-52.5	15.3	6.08e-01	0	28	0	484966400	69	4605
2026-01-06 12:53:25.76	235.73	28.91	-50.5	-52.2	15.4	6.06e-01	0	28	0	490733568	69	4454
2026-01-06 12:53:28.75	236.77	29.21	-50.4	-52.1	15.4	6.06e-01	0	28	0	495976448	69	4401
2026-01-06 12:53:31.73	237.82	29.51	-50.3	-52.0	15.4	6.08e-01	0	28	0	501743616	69	4346
2026-01-06 12:53:34.71	238.90	29.80	-50.5	-52.1	15.4	6.07e-01	0	28	0	507510784	69	4418
2026-01-06 12:53:37.68	239.99	30.08	-50.6	-52.3	15.3	6.07e-01	0	28	0	512753664	69	4520
2026-01-06 12:53:40.67	241.11	30.36	-50.5	-52.2	15.4	6.08e-01	0	29	0	518520832	69	4458
2026-01-06 12:53:43.66	242.25	30.62	-50.3	-51.9	15.4	6.07e-01	0	28	0	524288000	69	4304
2026-01-06 12:53:46.65	243.40	30.88	-50.3	-52.0	15.4	6.05e-01	0	28	0	529530880	69	4358
2026-01-06 12:53:49.63	244.57	31.12	-50.3	-51.9	15.4	6.07e-01	0	28	0	535298048	69	4326
2026-01-06 12:53:52.62	245.77	31.36	-50.3	-51.9	15.4	6.07e-01	0	28	0	541065216	69	4326
2026-01-06 12:53:55.60	246.97	31.58	-50.2	-51.8	15.5	6.06e-01	0	28	0	546308096	69	4249
2026-01-06 12:53:58.59	248.20	31.79	-50.2	-51.9	15.4	6.06e-01	0	28	0	552075264	69	4298
2026-01-06 12:54:01.58	249.44	31.99	-50.3	-51.9	15.4	6.07e-01	0	28	0	557842432	69	4307
2026-01-06 12:54:04.56	250.69	32.18	-50.3	-51.9	15.5	6.07e-01	0	28	0	563085312	69	4305
2026-01-06 12:54:07.55	251.96	32.35	-50.0	-51.6	15.5	6.07e-01	0	28	0	568852480	69	4154
2026-01-06 12:54:10.53	253.24	32.51	-50.1	-51.7	15.5	6.07e-01	0	29	0	574619648	69	4229
2026-01-06 12:54:13.53	254.54	32.65	-50.0	-51.6	15.5	6.03e-01	0	28	0	579862528	69	4157
2026-01-06 12:54:16.52	255.85	32.78	-49.8	-51.4	15.4	6.05e-01	0	28	0	585629696	68	4314
2026-01-06 12:54:19.51	257.17	32.89	-50.0	-51.6	15.4	6.01e-01	0	29	0	591396864	68	4399
2026-01-06 12:54:22.50	258.49	32.99	-50.0	-51.6	15.4	6.01e-01	0	28	0	596639744	68	4411
2026-01-06 12:54:25.49	259.83	33.07	-50.1	-51.7	15.4	6.04e-01	0	28	0	602406912	68	4448
2026-01-06 12:54:28.48	261.17	33.14	-50.2	-51.8	15.3	6.03e-01	0	29	0	608174080	68	4499
2026-01-06 12:54:31.47	262.51	33.19	-49.7	-51.3	15.5	6.05e-01	0	29	0	613941248	68	4250
2026-01-06 12:54:34.47	263.86	33.22	-50.0	-51.6	15.4	6.04e-01	0	28	0	619184128	68	4393
2026-01-06 12:54:37.47	265.21	33.23	-49.7	-51.2	15.5	6.02e-01	0	29	0	624951296	68	4228
2026-01-06 12:54:40.47	266.57	33.23	-49.8	-51.4	15.4	6.02e-01	0	28	0	630718464	68	4311
2026-01-06 12:54:43.46	267.91	33.21	-49.9	-51.4	15.5	6.02e-01	0	28	0	635961344	68	4329
2026-01-06 12:54:46.47	269.27	33.17	-49.8	-51.4	15.4	6.02e-01	0	28	0	641728512	68	4319
2026-01-06 12:54:49.47	270.61	33.12	-50.1	-51.7	15.4	6.03e-01	0	28	0	647495680	68	4461
2026-01-06 12:54:52.47	271.95	33.05	-49.5	-51.0	15.5	6.03e-01	0	29	0	653262848	68	4138
2026-01-06 12:54:55.48	273.29	32.96	-49.7	-51.2	15.5	6.01e-01	0	28	0	658505728	68	4217
2026-01-06 12:54:58.48	274.62	32.85	-49.5	-51.0	15.6	6.01e-01	0	29	0	664272896	68	4105
2026-01-06 12:55:01.47	275.93	32.74	-49.6	-51.1	15.5	6.01e-01	0	29	0	670040064	68	4160
2026-01-06 12:55:04.47	277.24	32.60	-49.6	-51.1	15.5	6.02e-01	0	29	0	675807232	68	4168
2026-01-06 12:55:07.48	278.53	32.45	-49.3	-50.8	15.5	6.03e-01	0	28	0	681050112	67	4281
2026-01-06 12:55:10.49	279.82	32.29	-49.4	-50.9	15.5	6.02e-01	0	28	0	686817280	67	4321
2026-01-06 12:55:13.48	281.08	32.11	-49.4	-50.9	15.5	6.01e-01	0	28	0	692584448	67	4322
2026-01-06 12:55:16.47	282.33	31.92	-49.4	-50.9	15.5	6.04e-01	0	28	0	698351616	67	4333
2026-01-06 12:55:19.50	283.58	31.71	-49.5	-51.1	15.4	6.02e-01	0	28	0	703594496	67	4412
2026-01-06 12:55:22.50	284.80	31.49	-49.4	-50.9	15.5	6.01e-01	0	28	0	709361664	67	4339
2026-01-06 12:55:25.51	286.01	31.26	-49.4	-51.0	15.5	6.01e-01	0	28	0	715128832	67	4345
2026-01-06 12:55:28.51	287.20	31.02	-49.3	-50.8	15.5	6.06e-01	0	29	0	720896000	67	4243
2026-01-06 12:55:31.53	288.37	30.77	-49.4	-50.9	15.5	6.02e-01	0	28	0	726138880	67	4302
2026-01-06 12:55:34.53	289.52	30.51	-49.4	-50.9	15.5	6.02e-01	0	28	0	731906048	67	4329
2026-01-06 12:55:37.53	290.65	30.24	-49.2	-50.7	15.5	6.04e-01	0	28	0	737673216	67	4226
2026-01-06 12:55:40.53	291.76	29.96	-49.4	-50.9	15.4	6.06e-01	0	28	0	743440384	67	4318
2026-01-06 12:55:43.53	292.85	29.68	-49.4	-51.0	15.5	6.05e-01	0	28	0	748683264	67	4345
2026-01-06 12:55:46.54	293.93	29.38	-49.5	-51.1	15.4	6.02e-01	0	29	0	754450432	67	4398
2026-01-06 12:55:49.54	294.98	29.08	-49.5	-51.1	15.4	6.02e-01	0	28	0	760217600	67	4398
2026-01-06 12:55:52.56	296.02	28.77	-49.4	-50.9	15.5	6.03e-01	0	28	0	765984768	67	4304
2026-01-06 12:55:55.56	297.03	28.46	-49.7	-51.2	15.4	6.03e-01	0	29	0	771227648	67	4479
2026-01-06 12:55:58.57	298.02	28.14	-49.6	-51.2	15.4	6.01e-01	0	28	0	776994816	67	4443
2026-01-06 12:56:01.57	298.99	27.82	-49.6	-51.1	15.4	6.04e-01	0	28	0	782761984	67	4417
2026-01-06 12:56:04.58	299.94	27.49	-49.8	-51.3	15.3	6.05e-01	0	28	0	788529152	67	4539
2026-01-06 12:56:07.58	300.87	27.16	-49.8	-51.3	15.4	6.04e-01	0	28	0	793772032	67	4535
2026-01-06 12:56:10.58	301.79	26.82	-49.9	-51.5	15.3	6.03e-01	0	29	0	799539200	67	4600
2026-01-06 12:56:13.58	302.68	26.49	-49.9	-51.4	15.3	6.03e-01	0	29	0	805306368	67	4590
2026-01-06 12:56:16.58	303.55	26.15	-49.9	-51.5	15.4	6.02e-01	0	28	0	811073536	67	4606
2026-01-06 12:56:19.59	304.41	25.81	-50.0	-51.6	15.3	6.03e-01	0	29	0	816316416	67	4696
2026-01-06 12:56:22.60	305.24	25.46	-50.0	-51.7	15.3	6.02e-01	0	29	0	822083584	67	4706
2026-01-06 12:56:25.59	306.06	25.12	-50.1	-51.7	15.4	6.02e-01	0	28	0	827850752	68	4461
2026-01-06 12:56:28.59	306.86	24.78	-50.2	-51.8	15.4	6.04e-01	0	29	0	833093632	68	4495
2026-01-06 12:56:31.58	307.63	24.43	-50.1	-51.7	15.4	6.04e-01	0	28	0	838860800	68	4463
2026-01-06 12:56:34.57	308.39	24.09	-50.1	-51.7	15.4	6.03e-01	0	29	0	844627968	68	4489
2026-01-06 12:56:37.55	309.14	23.75	-50.1	-51.7	15.4	6.05e-01	0	28	0	849870848	68	4491
2026-01-06 12:56:40.53	309.86	23.41	-50.2	-51.9	15.4	6.03e-01	0	29	0	855638016	68	4547
2026-01-06 12:56:43.52	310.57	23.06	-50.2	-51.8	15.4	6.04e-01	0	29	0	861405184	68	4539
2026-01-06 12:56:46.51	311.27	22.72	-50.1	-51.7	15.4	6.01e-01	0	29	0	866648064	68	4465
2026-01-06 12:56:49.50	311.95	22.38	-50.2	-51.9	15.4	6.02e-01	0	29	0	872415232	68	4550
2026-01-06 12:56:52.49	312.61	22.04	-50.2	-51.8	15.4	6.03e-01	0	28	0	878182400	68	4540
2026-01-06 12:56:55.48	313.26	21.70	-50.0	-51.6	15.4	6.04e-01	0	29	0	883949568	68	4440
2026-01-06 12:56:58.47	313.90	21.36	-50.1	-51.7	15.4	6.04e-01	0	28	0	889192448	68	4452
2026-01-06 12:57:01.45	314.52	21.03	-50.0	-51.6	15.4	6.04e-01	0	28	0	894959616	68	4426
2026-01-06 12:57:04.44	315.13	20.69	-50.0	-51.7	15.4	6.04e-01	0	29	0	900726784	68	4444
2026-01-06 12:57:07.42	315.72	20.36	-50.1	-51.7	15.4	6.04e-01	0	29	0	905969664	68	4481
2026-01-06 12:57:10.41	316.30	20.03	-50.0	-51.6	15.4	6.03e-01	0	28	0	911736832	68	4415
2026-01-06 12:57:13.40	316.87	19.71	-50.0	-51.6	15.4	6.02e-01	0	29	0	917504000	68	4411
2026-01-06 12:57:16.38	317.43	19.38	-49.9	-51.4	15.4	6.03e-01	0	29	0	922746880	68	4340
2026-01-06 12:57:19.36	317.97	19.06	-49.9	-51.5	15.4	6.02e-01	0	28	0	928514048	68	4355
2026-01-06 12:57:22.35	318.50	18.74	-49.8	-51.4	15.5	6.00e-01	0	29	0	934281216	68	4317
2026-01-06 12:57:25.35	319.03	18.42	-49.9	-51.5	15.4	6.04e-01	0	29	0	939524096	68	4386
2026-01-06 12:57:28.32	319.53	18.10	-50.0	-51.6	15.4	6.02e-01	0	28	0	945291264	68	4398
2026-01-06 12:57:31.31	320.03	17.79	-49.8	-51.4	15.5	6.02e-01	0	28	0	951058432	68	4310
2026-01-06 12:57:34.30	320.52	17.48	-49.8	-51.4	15.5	6.02e-01	0	29	0	956301312	68	4320
2026-01-06 12:57:37.28	321.00	17.17	-49.8	-51.4	15.5	6.04e-01	0	29	0	962068480	68	4332
2026-01-06 12:57:40.27	321.47	16.86	-49.9	-51.6	15.4	6.04e-01	0	28	0	967835648	68	4396
2026-01-06 12:57:43.25	321.93	16.56	-49.8	-51.4	15.5	6.05e-01	0	29	0	973078528	68	4307
2026-01-06 12:57:46.24	322.38	16.26	-49.7	-51.3	15.5	6.01e-01	0	29	0	978845696	68	4268
2026-01-06 12:57:49.24	322.82	15.96	-49.8	-51.4	15.5	6.02e-01	0	28	0	984612864	68	4299
2026-01-06 12:57:52.23	323.25	15.66	-49.9	-51.5	15.4	6.04e-01	0	28	0	990380032	68	4369
2026-01-06 12:57:55.22	323.68	15.37	-49.9	-51.6	15.4	6.03e-01	0	29	0	995622912	68	4410
2026-01-06 12:57:58.19	324.09	15.08	-49.8	-51.4	15.5	6.02e-01	0	29	0	1001390080	68	4333
2026-01-06 12:58:01.19	324.50	14.79	-49.8	-51.4	15.4	6.01e-01	0	29	0	1007157248	68	4331
2026-01-06 12:58:04.19	324.90	14.50	-50.0	-51.6	15.4	6.02e-01	0	28	0	1012400128	68	4410
2026-01-06 12:58:07.18	325.29	14.22	-50.0	-51.7	15.4	6.05e-01	0	29	0	1018167296	68	4442
2026-01-06 12:58:10.16	325.67	13.94	-50.1	-51.8	15.4	6.04e-01	0	29	0	1023934464	68	4499
2026-01-06 12:58:13.15	326.04	13.66	-50.1	-51.8	15.4	6.02e-01	0	29	0	1029177344	68	4504
2026-01-06 12:58:16.15	326.41	13.38	-50.0	-51.6	15.4	6.02e-01	0	29	0	1034944512	68	4435
2026-01-06 12:58:19.14	326.78	13.11	-50.1	-51.8	15.4	6.03e-01	0	28	0	1040711680	68	4506
2026-01-06 12:58:22.14	327.13	12.83	-50.0	-51.6	15.4	6.04e-01	0	28	0	1046478848	68	4440
2026-01-06 12:58:25.14	327.48	12.56	-50.1	-51.7	15.4	6.04e-01	0	29	0	1051721728	68	4485
2026-01-06 12:58:28.14	327.82	12.30	-50.1	-51.7	15.4	6.02e-01	0	29	0	1057488896	68	4475
2026-01-06 12:58:31.14	328.16	12.03	-50.2	-51.8	15.3	6.03e-01	0	28	0	1063256064	68	4537
2026-01-06 12:58:34.13	328.49	11.77	-50.2	-51.9	15.3	6.04e-01	0	29	0	1068498944	68	4581
2026-01-06 12:58:37.12	328.81	11.51	-50.2	-51.9	15.3	6.03e-01	0	29	0	1074266112	68	4589
2026-01-06 12:58:40.12	329.13	11.25	-50.4	-52.1	15.3	6.05e-01	0	29	0	1080033280	68	4702
2026-01-06 12:58:43.13	329.45	11.00	-50.4	-52.2	15.3	6.03e-01	0	28	0	1085800448	68	4714
2026-01-06 12:58:46.14	329.75	10.74	-50.5	-52.2	15.3	6.03e-01	0	28	0	1091043328	68	4750
2026-01-06 12:58:49.15	330.06	10.49	-50.7	-52.5	15.3	6.05e-01	0	29	0	1096810496	69	4624
2026-01-06 12:58:52.15	330.35	10.24	-50.6	-52.4	15.3	6.01e-01	0	29	0	1102577664	69	4549
2026-01-06 12:58:55.15	330.64	10.00	-50.6	-52.4	15.3	6.03e-01	0	29	0	1108344832	69	4591
2026-01-06 12:58:58.17	330.93	9.75	-50.6	-52.4	15.3	6.03e-01	0	28	0	1113587712	69	4584
2026-01-06 12:59:01.17	331.21	9.51	-50.7	-52.5	15.3	6.03e-01	0	29	0	1119354880	69	4630
2026-01-06 12:59:04.19	331.49	9.27	-50.7	-52.5	15.3	6.04e-01	0	29	0	1125122048	69	4633
2026-01-06 12:59:07.19	331.77	9.03	-50.7	-52.5	15.3	6.02e-01	0	28	0	1130889216	69	4625
2026-01-06 12:59:10.20	332.03	8.79	-50.8	-52.7	15.2	6.04e-01	0	29	0	1136132096	69	4730
2026-01-06 12:59:13.20	332.30	8.56	-51.0	-52.8	15.2	6.03e-01	0	28	0	1141899264	69	4809
2026-01-06 12:59:16.20	332.56	8.32	-51.1	-53.0	15.1	6.04e-01	0	29	0	1147666432	69	4882
2026-01-06 12:59:19.19	332.81	8.09	-51.0	-52.9	15.2	6.03e-01	0	28	0	1153433600	69	4838
2026-01-06 12:59:22.19	333.06	7.87	-51.3	-53.2	15.2	6.03e-01	0	29	0	1158676480	70	4731
2026-01-06 12:59:25.19	333.31	7.64	-51.4	-53.4	15.2	6.02e-01	0	28	0	1164443648	70	4831
2026-01-06 12:59:28.19	333.55	7.41	-51.2	-53.2	15.2	6.04e-01	0	28	0	1170210816	70	4707
2026-01-06 12:59:31.19	333.79	7.19	-51.3	-53.2	15.2	6.01e-01	0	28	0	1175453696	70	4745
2026-01-06 12:59:34.19	334.03	6.97	-51.3	-53.3	15.2	6.02e-01	0	28	0	1181220864	70	4782
2026-01-06 12:59:37.18	334.26	6.75	-51.4	-53.5	15.1	6.03e-01	0	29	0	1186988032	70	4878
2026-01-06 12:59:40.19	334.49	6.53	-51.4	-53.5	15.1	6.05e-01	0	29	0	1192755200	70	4884
2026-01-06 12:59:43.17	334.71	6.32	-51.5	-53.6	15.1	6.03e-01	0	28	0	1197998080	70	4927
2026-01-06 12:59:46.17	334.93	6.10	-51.1	-53.3	15.2	6.02e-01	0	28	0	1203765248	70	4804
2026-01-06 12:59:49.17	335.15	5.89	-51.5	-53.6	15.0	6.02e-01	0	28	0	1209532416	70	4943
2026-01-06 12:59:52.19	335.37	5.68	-51.6	-53.8	15.1	6.02e-01	0	28	0	1215299584	71	4767
2026-01-06 12:59:55.19	335.58	5.47	-51.6	-53.8	15.1	6.03e-01	0	29	0	1220542464	71	4760
2026-01-06 12:59:58.18	335.79	5.26	-51.7	-53.9	15.0	6.02e-01	0	29	0	1226309632	71	4827
2026-01-06 13:00:01.19	335.99	5.06	-51.9	-54.1	15.0	6.03e-01	0	28	0	1232076800	72	4659
2026-01-06 13:00:04.19	336.20	4.85	-59.2	-78.6	3.8	7.47e-01	0	29	104	1235222528	86	35009
2026-01-06 13:00:07.18	336.40	4.65	-59.9	-79.3	3.8	7.46e-01	0	29	104	1235222528	87	35713
2026-01-06 13:00:10.18	336.59	4.45	-60.2	-79.6	3.8	7.48e-01	0	29	104	1235222528	88	35031
2026-01-06 13:00:13.17	336.79	4.25	-60.4	-79.8	3.8	7.46e-01	0	29	104	1235222528	88	35742
2026-01-06 13:00:16.18	336.98	4.05	-60.5	-79.9	3.8	7.49e-01	0	28	104	1235222528	88	36149
2026-01-06 13:00:19.17	337.17	3.85	-60.5	-79.9	3.8	7.43e-01	0	29	104	1235222528	88	36235
2026-01-06 13:00:22.17	337.36	3.65	-60.5	-79.9	3.8	7.46e-01	0	28	104	1235222528	88	36419
2026-01-06 13:00:25.17	337.54	3.46	-60.5	-79.9	3.8	7.49e-01	0	29	104	1235222528	88	36435
2026-01-06 13:00:28.17	337.72	3.26	-60.5	-79.9	3.8	7.46e-01	0	29	104	1235222528	88	36107
2026-01-06 13:00:31.17	337.90	3.07	-60.4	-79.8	3.8	7.43e-01	0	29	104	1235222528	88	36062
2026-01-06 13:00:34.17	338.08	2.88	-60.4	-79.8	3.8	7.45e-01	0	29	104	1235222528	88	35993
2026-01-06 13:00:37.17	338.25	2.69	-60.4	-79.8	3.8	7.44e-01	0	29	104	1235222528	88	35848
2026-01-06 13:00:40.19	338.43	2.50	-60.4	-79.8	3.8	7.46e-01	0	29	104	1235222528	88	35863
2026-01-06 13:00:43.19	338.60	2.31	-60.4	-79.8	3.8	7.45e-01	0	29	104	1235222528	88	35806
2026-01-06 13:00:46.18	338.77	2.13	-60.4	-79.8	3.8	7.45e-01	0	29	104	1235222528	88	35732
2026-01-06 13:00:49.19	338.93	1.94	-60.4	-79.7	3.8	7.45e-01	0	29	104	1235222528	88	35670

#Closed at: 2026-01-06 13:00:49
#Recorded file [1235 MB]: D:/lorett/data/31004_260106_154832.dat