passes_logs/2026/01/06/R3.2S_Murmansk/R3.2S_Murmansk__20260106_085704_SUOMI_NPP_rec.log

#Pass ID: 20260106_085704_SUOMI NPP
#Satellite: SUOMI NPP
#Configuration: NPP
#almurnet v.1.7.20251203
#Start time: 2026-01-06 08:57:06

#Version: 2.2.20231116
#Station: R3.2S_Murmansk
#Location: 33.079688 lon 68.888172 lat
#TLE: 1 37849U 11061A   26004.95404768  .00000136  00000+0  85334-4 0  9991
#TLE: 2 37849  98.7801 307.0898 0002575  80.6707 279.4760 14.19522289735281

#Time	Az	El	Level	Level2	SNR	BER	BlckErr	Temp	State	Recorded	gain1	gain2
2026-01-06 08:57:06.01	136.43	2.11	-57.7	-73.7	3.8	1.49e+00	0	24	0	0	81	22804
2026-01-06 08:57:09.98	136.37	2.37	-57.6	-73.7	3.8	1.49e+00	0	24	104	0	80	24161
2026-01-06 08:57:13.95	136.32	2.63	-57.7	-73.7	3.8	1.49e+00	0	24	104	0	80	24146
2026-01-06 08:57:17.93	136.26	2.89	-57.7	-73.6	3.8	1.49e+00	0	24	104	0	80	23999
2026-01-06 08:57:21.90	136.20	3.15	-57.7	-73.4	3.8	1.49e+00	0	24	104	0	80	23522
2026-01-06 08:57:25.88	136.14	3.42	-57.6	-72.1	3.8	1.49e+00	0	24	104	0	80	20156
2026-01-06 08:57:29.86	136.08	3.68	-57.6	-71.0	3.9	1.47e+00	0	24	104	0	80	17707
2026-01-06 08:57:33.84	136.02	3.96	-57.3	-67.8	5.1	7.86e-01	0	24	0	2097152	80	12338
2026-01-06 08:57:37.79	135.95	4.23	-56.3	-62.1	9.4	1.39e-02	0	24	0	9437184	79	6764
2026-01-06 08:57:41.75	135.89	4.50	-54.8	-58.4	12.2	2.05e-05	0	25	0	16777216	76	5279
2026-01-06 08:57:45.72	135.82	4.78	-53.5	-56.4	13.3	0.00e+00	0	25	0	25165824	73	4949
2026-01-06 08:57:49.69	135.75	5.06	-54.1	-57.4	12.6	0.00e+00	0	25	0	32505856	73	5539
2026-01-06 08:57:53.66	135.68	5.35	-53.8	-56.7	13.2	0.00e+00	0	25	0	39845888	73	5133
2026-01-06 08:57:57.63	135.61	5.64	-53.2	-55.7	13.6	0.00e+00	0	25	0	47185920	72	4847
2026-01-06 08:58:01.61	135.54	5.93	-53.3	-55.8	13.6	0.00e+00	0	25	0	54525952	72	4884
2026-01-06 08:58:05.57	135.46	6.22	-53.3	-55.8	13.6	0.00e+00	0	25	0	61865984	72	4879
2026-01-06 08:58:09.55	135.38	6.52	-53.1	-55.5	13.8	0.00e+00	0	25	0	69206016	72	4720
2026-01-06 08:58:13.51	135.30	6.82	-53.0	-55.4	13.9	0.00e+00	0	25	0	76546048	72	4682
2026-01-06 08:58:17.48	135.22	7.12	-52.9	-55.3	14.0	0.00e+00	0	26	0	83886080	72	4601
2026-01-06 08:58:21.45	135.14	7.43	-52.9	-55.1	14.0	0.00e+00	0	26	0	91226112	72	4519
2026-01-06 08:58:25.43	135.06	7.74	-52.8	-54.9	14.0	0.00e+00	0	26	0	99614720	71	4697
2026-01-06 08:58:29.39	134.97	8.06	-52.7	-54.8	14.1	0.00e+00	0	26	0	106954752	71	4621
2026-01-06 08:58:33.36	134.88	8.38	-52.6	-54.7	14.1	0.00e+00	0	26	0	114294784	71	4583
2026-01-06 08:58:37.33	134.79	8.70	-52.7	-54.9	14.1	0.00e+00	0	26	0	121634816	71	4656
2026-01-06 08:58:41.31	134.69	9.03	-52.8	-54.9	14.0	0.00e+00	0	26	0	128974848	71	4694
2026-01-06 08:58:45.29	134.60	9.36	-52.4	-54.3	14.3	0.00e+00	0	26	0	136314880	71	4388
2026-01-06 08:58:49.26	134.50	9.70	-52.4	-54.3	14.4	0.00e+00	0	26	0	143654912	71	4387
2026-01-06 08:58:53.24	134.40	10.04	-52.2	-54.2	14.3	0.00e+00	0	27	0	150994944	70	4549
2026-01-06 08:58:57.22	134.29	10.39	-52.2	-54.1	14.3	0.00e+00	0	26	0	158334976	70	4542
2026-01-06 08:59:01.19	134.18	10.74	-51.9	-53.7	14.5	0.00e+00	0	27	0	165675008	70	4327
2026-01-06 08:59:05.15	134.07	11.09	-51.7	-53.4	14.5	0.00e+00	0	26	0	174063616	69	4423
2026-01-06 08:59:09.13	133.96	11.45	-51.6	-53.3	14.6	0.00e+00	0	27	0	181403648	69	4353
2026-01-06 08:59:13.11	133.84	11.82	-51.5	-53.2	14.6	0.00e+00	0	27	0	188743680	69	4312
2026-01-06 08:59:17.07	133.73	12.19	-51.4	-53.0	14.7	0.00e+00	0	27	0	196083712	69	4238
2026-01-06 08:59:21.03	133.60	12.56	-51.2	-52.8	14.7	0.00e+00	0	27	0	203423744	68	4372
2026-01-06 08:59:24.99	133.48	12.94	-51.2	-52.8	14.7	0.00e+00	0	27	0	210763776	68	4378
2026-01-06 08:59:28.97	133.35	13.33	-51.0	-52.8	14.7	0.00e+00	0	27	0	218103808	68	4345
2026-01-06 08:59:32.94	133.21	13.73	-51.2	-53.0	14.6	0.00e+00	0	27	0	225443840	68	4455
2026-01-06 08:59:36.91	133.07	14.13	-51.2	-53.0	14.6	0.00e+00	0	27	0	232783872	68	4481
2026-01-06 08:59:40.89	132.93	14.54	-51.2	-53.1	14.6	0.00e+00	0	27	0	240123904	68	4510
2026-01-06 08:59:44.87	132.78	14.95	-51.1	-52.9	14.7	0.00e+00	0	27	0	248512512	68	4426
2026-01-06 08:59:48.83	132.63	15.37	-51.0	-52.8	14.7	0.00e+00	0	27	0	255852544	68	4355
2026-01-06 08:59:52.80	132.48	15.80	-51.2	-53.0	14.6	0.00e+00	0	27	0	263192576	68	4464
2026-01-06 08:59:56.77	132.32	16.23	-51.1	-52.9	14.7	0.00e+00	0	27	0	270532608	68	4392
2026-01-06 09:00:00.73	132.15	16.68	-51.0	-52.7	14.7	0.00e+00	0	27	0	277872640	68	4329
2026-01-06 09:00:04.70	131.98	17.13	-50.9	-52.7	14.8	0.00e+00	0	27	0	285212672	68	4298
2026-01-06 09:00:08.67	131.80	17.59	-51.3	-53.1	14.6	0.00e+00	0	27	0	292552704	68	4530
2026-01-06 09:00:12.65	131.62	18.05	-51.0	-52.7	14.8	0.00e+00	0	27	0	299892736	68	4320
2026-01-06 09:00:16.61	131.43	18.53	-51.1	-52.9	14.7	0.00e+00	0	27	0	307232768	68	4438
2026-01-06 09:00:20.58	131.24	19.01	-51.5	-53.4	14.5	0.00e+00	0	27	0	314572800	68	4673
2026-01-06 09:00:24.55	131.03	19.51	-51.5	-53.4	14.5	0.00e+00	0	27	0	322961408	68	4681
2026-01-06 09:00:28.52	130.83	20.01	-51.6	-53.5	14.5	0.00e+00	0	27	0	330301440	68	4737
2026-01-06 09:00:32.49	130.61	20.53	-51.5	-53.4	14.5	0.00e+00	0	27	0	337641472	68	4670
2026-01-06 09:00:36.47	130.38	21.05	-51.5	-53.3	14.5	0.00e+00	0	27	0	344981504	68	4630
2026-01-06 09:00:40.46	130.15	21.59	-51.6	-53.5	14.5	0.00e+00	0	27	0	352321536	68	4735
2026-01-06 09:00:44.45	129.91	22.14	-52.0	-54.0	14.4	0.00e+00	0	27	0	359661568	69	4706
2026-01-06 09:00:48.43	129.65	22.70	-51.8	-53.8	14.5	0.00e+00	0	27	0	367001600	69	4614
2026-01-06 09:00:52.40	129.39	23.27	-51.4	-53.3	14.7	0.00e+00	0	27	0	374341632	69	4370
2026-01-06 09:00:56.37	129.12	23.85	-51.9	-53.9	14.4	0.00e+00	0	27	0	381681664	69	4692
2026-01-06 09:01:00.34	128.84	24.44	-52.3	-54.5	14.2	0.00e+00	0	27	0	390070272	69	5017
2026-01-06 09:01:04.31	128.55	25.05	-52.1	-54.5	14.0	1.31e-02	0	27	0	397410304	70	4747
2026-01-06 09:01:08.27	128.24	25.67	-52.4	-54.7	14.0	1.99e-03	0	27	0	404750336	70	4850
2026-01-06 09:01:12.25	127.92	26.30	-52.9	-55.2	13.8	1.29e-05	0	27	0	412090368	70	5142
2026-01-06 09:01:16.22	127.59	26.95	-52.7	-55.1	13.8	1.37e-02	0	27	0	419430400	71	4813
2026-01-06 09:01:20.18	127.25	27.61	-52.4	-54.7	14.1	2.75e-03	0	27	0	426770432	71	4563
2026-01-06 09:01:24.15	126.89	28.29	-52.5	-54.6	14.4	0.00e+00	0	27	0	434110464	71	4511
2026-01-06 09:01:28.11	126.51	28.98	-52.4	-54.5	14.4	0.00e+00	0	27	0	441450496	70	4717
2026-01-06 09:01:32.08	126.11	29.69	-53.2	-55.6	13.9	0.00e+00	0	27	0	448790528	71	5044
2026-01-06 09:01:36.06	125.70	30.41	-53.7	-56.3	13.7	0.00e+00	0	27	0	456130560	72	5197
2026-01-06 09:01:40.03	125.27	31.16	-54.1	-57.0	13.5	0.00e+00	0	27	0	464519168	73	5300
2026-01-06 09:01:44.00	124.81	31.92	-54.5	-57.5	13.4	0.00e+00	0	27	0	471859200	74	5286
2026-01-06 09:01:47.97	124.33	32.69	-54.8	-57.9	13.2	0.00e+00	0	27	0	479199232	75	5249
2026-01-06 09:01:51.95	123.83	33.49	-54.5	-57.8	13.2	0.00e+00	0	27	0	486539264	75	5194
2026-01-06 09:01:55.91	123.30	34.30	-55.0	-59.0	12.5	0.00e+00	0	27	0	493879296	75	5959
2026-01-06 09:01:59.90	122.75	35.14	-54.5	-57.9	13.2	0.00e+00	0	27	0	501219328	75	5247
2026-01-06 09:02:03.87	122.16	35.99	-55.5	-60.1	11.9	9.10e-06	0	27	0	508559360	76	6375
2026-01-06 09:02:07.84	121.54	36.86	-54.1	-57.2	13.4	0.00e+00	0	27	0	515899392	74	5153
2026-01-06 09:02:11.81	120.89	37.75	-53.3	-56.1	13.9	0.00e+00	0	27	0	523239424	73	4782
2026-01-06 09:02:15.78	120.20	38.66	-53.2	-55.9	14.0	0.00e+00	0	27	0	530579456	73	4697
2026-01-06 09:02:19.76	119.46	39.59	-53.0	-55.5	14.1	0.00e+00	0	27	0	537919488	72	4740
2026-01-06 09:02:23.73	118.69	40.54	-53.0	-55.5	14.2	0.00e+00	0	27	0	546308096	72	4711
2026-01-06 09:02:27.70	117.86	41.51	-53.8	-56.7	13.7	0.00e+00	0	27	0	553648128	73	5101
2026-01-06 09:02:31.67	116.99	42.50	-53.2	-55.5	14.1	0.00e+00	0	27	0	560988160	72	4740
2026-01-06 09:02:35.64	116.05	43.51	-53.5	-56.0	13.9	0.00e+00	0	27	0	568328192	72	4996
2026-01-06 09:02:39.63	115.05	44.53	-53.0	-55.4	14.2	0.00e+00	0	27	0	575668224	72	4694
2026-01-06 09:02:43.60	113.99	45.57	-52.3	-54.7	14.4	0.00e+00	0	27	0	583008256	71	4548
2026-01-06 09:02:47.58	112.85	46.63	-53.2	-55.9	13.9	0.00e+00	0	27	0	590348288	72	4963
2026-01-06 09:02:51.56	111.63	47.70	-52.4	-54.8	14.3	0.00e+00	0	27	0	597688320	71	4647
2026-01-06 09:02:55.54	110.32	48.79	-52.5	-54.9	14.0	0.00e+00	0	27	0	606076928	70	4949
2026-01-06 09:02:59.50	108.93	49.88	-52.0	-54.5	14.3	0.00e+00	0	27	0	613416960	70	4706
2026-01-06 09:03:03.49	107.41	50.98	-51.9	-53.9	14.6	0.00e+00	0	27	0	620756992	70	4415
2026-01-06 09:03:07.46	105.79	52.08	-52.0	-54.1	14.3	0.00e+00	0	27	0	628097024	69	4798
2026-01-06 09:03:11.44	104.04	53.18	-51.4	-53.4	14.6	0.00e+00	0	27	0	635437056	69	4413
2026-01-06 09:03:15.42	102.15	54.27	-52.7	-55.3	14.0	0.00e+00	0	27	0	642777088	70	5169
2026-01-06 09:03:19.38	100.11	55.35	-52.3	-54.8	14.2	0.00e+00	0	27	0	650117120	70	4897
2026-01-06 09:03:23.36	97.91	56.42	-52.0	-54.1	14.5	0.00e+00	0	27	0	657457152	70	4543
2026-01-06 09:03:27.31	95.55	57.45	-52.1	-54.1	14.4	0.00e+00	0	27	0	664797184	69	4812
2026-01-06 09:03:31.28	93.00	58.46	-52.0	-53.9	14.6	0.00e+00	0	27	0	672137216	70	4438
2026-01-06 09:03:35.27	90.23	59.43	-53.3	-55.7	14.0	0.00e+00	0	28	0	680525824	72	4862
2026-01-06 09:03:39.24	87.26	60.35	-52.4	-54.6	14.3	0.00e+00	0	27	0	687865856	70	4791
2026-01-06 09:03:43.22	84.08	61.20	-51.1	-53.0	14.8	0.00e+00	0	27	0	695205888	68	4450
2026-01-06 09:03:47.18	80.69	61.98	-50.9	-52.9	14.6	0.00e+00	0	27	0	702545920	67	4683
2026-01-06 09:03:51.16	77.08	62.68	-50.8	-52.6	14.8	0.00e+00	0	27	0	709885952	67	4540
2026-01-06 09:03:55.12	73.28	63.28	-50.0	-51.7	15.0	0.00e+00	0	27	0	717225984	66	4330
2026-01-06 09:03:59.09	69.30	63.78	-51.2	-53.2	14.6	0.00e+00	0	27	0	724566016	67	4851
2026-01-06 09:04:03.08	65.14	64.16	-50.8	-52.8	14.8	0.00e+00	0	27	0	731906048	68	4347
2026-01-06 09:04:07.04	60.90	64.42	-49.0	-50.5	15.1	0.00e+00	0	28	0	739246080	64	4203
2026-01-06 09:04:11.00	56.58	64.55	-49.4	-51.0	15.0	0.00e+00	0	28	0	746586112	64	4472
2026-01-06 09:04:14.97	52.23	64.54	-50.9	-52.8	14.8	0.00e+00	0	28	0	754974720	67	4608
2026-01-06 09:04:18.94	47.91	64.41	-49.0	-50.5	15.1	0.00e+00	0	28	0	762314752	64	4203
2026-01-06 09:04:22.91	43.66	64.15	-50.6	-52.4	14.8	0.00e+00	0	27	0	769654784	66	4655
2026-01-06 09:04:26.87	39.54	63.76	-50.4	-52.0	15.0	0.00e+00	0	27	0	776994816	67	4239
2026-01-06 09:04:30.83	35.57	63.26	-50.0	-51.7	14.8	0.00e+00	0	28	0	784334848	65	4589
2026-01-06 09:04:34.81	31.77	62.66	-49.4	-50.9	15.1	0.00e+00	0	28	0	791674880	65	4154
2026-01-06 09:04:38.79	28.16	61.96	-51.0	-52.8	14.8	0.00e+00	0	28	0	799014912	68	4378
2026-01-06 09:04:42.75	24.79	61.17	-53.7	-56.6	13.7	0.00e+00	0	28	0	806354944	72	5376
2026-01-06 09:04:46.73	21.62	60.32	-52.4	-54.4	14.6	0.00e+00	0	28	0	813694976	71	4425
2026-01-06 09:04:50.71	18.66	59.40	-54.9	-57.7	13.5	0.00e+00	0	28	0	822083584	75	5104
2026-01-06 09:04:54.69	15.91	58.43	-53.4	-55.4	14.3	0.00e+00	0	28	0	829423616	73	4434
2026-01-06 09:04:58.66	13.36	57.42	-54.3	-57.0	13.6	0.00e+00	0	28	0	836763648	73	5304
2026-01-06 09:05:02.65	10.99	56.38	-54.7	-58.0	13.3	0.00e+00	0	28	0	844103680	75	5317
2026-01-06 09:05:06.62	8.80	55.32	-53.0	-55.3	14.3	0.00e+00	0	28	0	851443712	72	4632
2026-01-06 09:05:10.60	6.77	54.23	-52.8	-55.1	14.4	0.00e+00	0	28	0	858783744	72	4545
2026-01-06 09:05:14.57	4.89	53.14	-53.4	-56.0	13.9	0.00e+00	0	28	0	866123776	71	5324
2026-01-06 09:05:18.52	3.16	52.05	-53.4	-55.9	14.1	0.00e+00	0	28	0	873463808	72	4946
2026-01-06 09:05:22.52	1.54	50.95	-52.1	-54.0	14.6	0.00e+00	0	28	0	880803840	70	4490
2026-01-06 09:05:26.50	0.03	49.85	-53.4	-55.7	14.0	0.00e+00	0	28	0	888143872	71	5139
2026-01-06 09:05:30.47	358.64	48.76	-55.2	-58.5	13.0	0.00e+00	0	28	0	896532480	75	5644
2026-01-06 09:05:34.44	357.34	47.68	-52.8	-54.9	14.2	0.00e+00	0	28	0	903872512	70	4927
2026-01-06 09:05:38.40	356.13	46.62	-52.1	-54.1	14.4	0.00e+00	0	28	0	911212544	69	4787
2026-01-06 09:05:42.37	355.00	45.57	-54.5	-57.5	13.4	0.00e+00	0	28	0	918552576	75	5023
2026-01-06 09:05:46.35	353.94	44.53	-53.8	-56.4	13.8	0.00e+00	0	28	0	925892608	73	4967
2026-01-06 09:05:50.31	352.95	43.51	-52.9	-55.0	14.3	0.00e+00	0	28	0	933232640	72	4486
2026-01-06 09:05:54.28	352.02	42.51	-52.9	-55.0	14.2	0.00e+00	0	28	0	940572672	71	4758
2026-01-06 09:05:58.25	351.15	41.53	-55.9	-60.0	12.1	1.50e-06	0	28	0	947912704	77	5976
2026-01-06 09:06:02.22	350.33	40.56	-54.9	-58.0	13.4	0.00e+00	0	28	0	955252736	76	4999
2026-01-06 09:06:06.19	349.55	39.61	-53.3	-55.5	14.3	0.00e+00	0	28	0	962592768	73	4455
2026-01-06 09:06:10.15	348.82	38.69	-54.2	-56.8	13.6	0.00e+00	0	28	0	969932800	73	5165
2026-01-06 09:06:14.13	348.13	37.78	-55.2	-58.3	13.1	0.00e+00	0	28	0	978321408	76	5197
2026-01-06 09:06:18.11	347.48	36.89	-55.6	-58.9	12.9	0.00e+00	0	28	0	985661440	76	5532
2026-01-06 09:06:22.09	346.87	36.02	-54.4	-56.9	13.8	0.00e+00	0	28	0	993001472	75	4688
2026-01-06 09:06:26.07	346.28	35.17	-53.2	-55.3	14.3	0.00e+00	0	28	0	1000341504	72	4614
2026-01-06 09:06:30.03	345.73	34.34	-54.3	-57.0	13.5	0.00e+00	0	28	0	1007681536	73	5315
2026-01-06 09:06:33.99	345.20	33.53	-55.5	-58.6	13.0	0.00e+00	0	28	0	1015021568	77	5072
2026-01-06 09:06:37.95	344.71	32.74	-54.9	-57.7	13.3	0.00e+00	0	28	0	1022361600	75	5140
2026-01-06 09:06:41.92	344.23	31.97	-53.8	-56.1	14.1	0.00e+00	0	28	0	1029701632	74	4513
2026-01-06 09:06:45.90	343.78	31.21	-54.2	-56.6	13.8	0.00e+00	0	28	0	1037041664	74	4798
2026-01-06 09:06:49.87	343.35	30.47	-53.7	-55.8	14.1	0.00e+00	0	28	0	1045430272	73	4629
2026-01-06 09:06:53.85	342.93	29.74	-55.5	-58.6	12.9	0.00e+00	0	28	0	1052770304	76	5392
2026-01-06 09:06:57.81	342.54	29.04	-55.3	-58.2	13.2	0.00e+00	0	28	0	1060110336	77	4842
2026-01-06 09:07:01.77	342.17	28.35	-55.3	-58.3	13.1	0.00e+00	0	28	0	1067450368	76	5177
2026-01-06 09:07:05.75	341.80	27.67	-55.1	-58.0	13.3	0.00e+00	0	28	0	1074790400	76	5021
2026-01-06 09:07:09.72	341.46	27.01	-54.2	-56.6	13.8	0.00e+00	0	28	0	1082130432	74	4812
2026-01-06 09:07:13.72	341.13	26.36	-54.1	-56.6	13.8	0.00e+00	0	28	0	1089470464	74	4776
2026-01-06 09:07:17.69	340.81	25.73	-54.5	-57.3	13.5	0.00e+00	0	28	0	1096810496	74	5161
2026-01-06 09:07:21.66	340.51	25.11	-54.9	-57.7	13.2	0.00e+00	0	28	0	1104150528	75	5144
2026-01-06 09:07:25.63	340.22	24.51	-53.4	-55.6	14.1	0.00e+00	0	28	0	1111490560	73	4508
2026-01-06 09:07:29.59	339.94	23.92	-53.3	-55.4	14.2	0.00e+00	0	28	0	1119879168	72	4687
2026-01-06 09:07:33.56	339.67	23.34	-54.2	-56.7	13.6	0.00e+00	0	28	0	1127219200	73	5124
2026-01-06 09:07:37.53	339.41	22.77	-54.3	-56.8	13.7	0.00e+00	0	28	0	1134559232	74	4903
2026-01-06 09:07:41.50	339.16	22.21	-53.5	-55.8	14.0	0.00e+00	0	28	0	1141899264	73	4610
2026-01-06 09:07:45.48	338.92	21.67	-53.7	-56.1	13.9	0.00e+00	0	28	0	1149239296	73	4783
2026-01-06 09:07:49.46	338.69	21.13	-53.9	-56.4	13.7	0.00e+00	0	28	0	1156579328	73	4975
2026-01-06 09:07:53.43	338.47	20.61	-53.9	-56.4	13.7	0.00e+00	0	28	0	1163919360	73	4960
2026-01-06 09:07:57.38	338.25	20.10	-53.7	-56.0	13.9	0.00e+00	0	28	0	1171259392	73	4750
2026-01-06 09:08:01.36	338.04	19.60	-53.3	-55.5	14.1	0.00e+00	0	28	0	1178599424	73	4482
2026-01-06 09:08:05.33	337.84	19.10	-53.3	-55.6	14.0	0.00e+00	0	28	0	1185939456	72	4769
2026-01-06 09:08:09.32	337.65	18.62	-53.0	-55.2	14.2	0.00e+00	0	28	0	1194328064	72	4563
2026-01-06 09:08:13.30	337.46	18.14	-53.0	-55.1	14.2	0.00e+00	0	28	0	1201668096	72	4542
2026-01-06 09:08:17.27	337.28	17.67	-53.1	-55.3	14.1	0.00e+00	0	28	0	1209008128	72	4638
2026-01-06 09:08:21.24	337.11	17.22	-53.4	-55.7	13.9	0.00e+00	0	28	0	1216348160	72	4865
2026-01-06 09:08:25.21	336.94	16.77	-53.8	-56.3	13.6	0.00e+00	0	28	0	1223688192	72	5217
2026-01-06 09:08:29.18	336.77	16.32	-54.1	-56.8	13.5	0.00e+00	0	28	0	1231028224	73	5178
2026-01-06 09:08:33.16	336.61	15.89	-53.8	-56.3	13.8	0.00e+00	0	28	0	1238368256	73	4898
2026-01-06 09:08:37.11	336.46	15.46	-53.7	-56.3	13.8	0.00e+00	0	28	0	1245708288	73	4883
2026-01-06 09:08:41.09	336.31	15.04	-53.9	-56.6	13.6	0.00e+00	0	28	0	1253048320	73	5066
2026-01-06 09:08:45.06	336.17	14.63	-54.5	-57.4	13.2	0.00e+00	0	28	0	1261436928	74	5260
2026-01-06 09:08:49.05	336.03	14.22	-55.1	-58.4	12.7	0.00e+00	0	28	0	1268776960	75	5588
2026-01-06 09:08:53.00	335.89	13.83	-55.1	-58.4	12.7	0.00e+00	0	28	0	1276116992	75	5566
2026-01-06 09:08:56.97	335.76	13.43	-55.1	-58.4	12.8	0.00e+00	0	28	0	1283457024	76	5275
2026-01-06 09:09:00.94	335.63	13.04	-54.5	-57.5	13.2	0.00e+00	0	28	0	1290797056	75	4993
2026-01-06 09:09:04.90	335.51	12.66	-54.1	-56.8	13.5	0.00e+00	0	28	0	1298137088	74	4906
2026-01-06 09:09:08.87	335.39	12.29	-53.7	-56.3	13.7	0.00e+00	0	28	0	1305477120	73	4874
2026-01-06 09:09:12.84	335.27	11.92	-53.5	-56.0	13.8	0.00e+00	0	28	0	1312817152	73	4729
2026-01-06 09:09:16.81	335.15	11.55	-53.6	-56.1	13.8	0.00e+00	0	28	0	1320157184	73	4763
2026-01-06 09:09:20.78	335.04	11.19	-53.9	-56.5	13.6	0.00e+00	0	28	0	1327497216	73	4992
2026-01-06 09:09:24.77	334.94	10.84	-53.9	-56.5	13.6	0.00e+00	0	28	0	1335885824	73	5032
2026-01-06 09:09:28.73	334.83	10.49	-54.0	-56.7	13.5	0.00e+00	0	28	0	1343225856	73	5130
2026-01-06 09:09:32.69	334.73	10.15	-54.2	-57.0	13.3	0.00e+00	0	28	0	1350565888	73	5304
2026-01-06 09:09:36.64	334.63	9.81	-54.5	-57.4	13.1	0.00e+00	0	29	0	1357905920	74	5259
2026-01-06 09:09:40.62	334.53	9.47	-54.8	-57.9	12.8	0.00e+00	0	29	0	1365245952	74	5570
2026-01-06 09:09:44.56	334.44	9.14	-54.9	-58.1	12.8	0.00e+00	0	28	0	1372585984	74	5717
2026-01-06 09:09:48.53	334.35	8.82	-55.1	-58.5	12.6	0.00e+00	0	28	0	1379926016	75	5624
2026-01-06 09:09:52.51	334.26	8.49	-55.0	-58.3	12.7	0.00e+00	0	28	0	1387266048	75	5509
2026-01-06 09:09:56.47	334.17	8.17	-55.0	-58.3	12.7	0.00e+00	0	29	0	1394606080	75	5510
2026-01-06 09:10:00.44	334.09	7.86	-55.0	-58.3	12.7	0.00e+00	0	29	0	1401946112	75	5511
2026-01-06 09:10:04.40	334.01	7.55	-55.1	-58.6	12.5	0.00e+00	0	29	0	1409286144	75	5688
2026-01-06 09:10:08.38	333.92	7.24	-55.2	-58.8	12.3	1.50e-06	0	29	0	1416626176	75	5841
2026-01-06 09:10:12.35	333.85	6.94	-55.0	-58.5	12.5	0.00e+00	0	29	0	1425014784	75	5595
2026-01-06 09:10:16.32	333.77	6.64	-55.2	-58.7	12.5	0.00e+00	0	29	0	1432354816	76	5407
2026-01-06 09:10:20.30	333.69	6.34	-55.3	-58.8	12.3	7.00e-07	0	29	0	1439694848	76	5511
2026-01-06 09:10:24.29	333.62	6.04	-55.1	-58.7	12.5	7.00e-07	0	29	0	1447034880	76	5430
2026-01-06 09:10:28.26	333.55	5.75	-55.5	-59.3	12.0	0.00e+00	0	29	0	1454374912	76	5805
2026-01-06 09:10:32.22	333.48	5.47	-55.4	-59.1	12.1	0.00e+00	0	29	0	1461714944	76	5706
2026-01-06 09:10:36.18	333.41	5.18	-55.1	-58.6	12.4	7.00e-07	0	29	0	1469054976	76	5397
2026-01-06 09:10:40.16	333.35	4.90	-59.4	-75.4	3.8	1.49e+00	0	29	104	1474297856	83	24850
2026-01-06 09:10:44.17	333.28	4.62	-60.3	-76.4	3.8	1.49e+00	0	29	104	1474297856	85	24926
2026-01-06 09:10:48.18	333.22	4.34	-60.7	-76.8	3.8	1.49e+00	0	29	104	1474297856	86	24558
2026-01-06 09:10:52.19	333.16	4.07	-60.9	-76.9	3.8	1.49e+00	0	29	104	1474297856	86	24945
2026-01-06 09:10:56.18	333.10	3.79	-60.9	-77.0	3.8	1.49e+00	0	29	104	1474297856	87	23784
2026-01-06 09:11:00.15	333.04	3.53	-61.0	-77.1	3.8	1.49e+00	0	29	104	1474297856	87	24016
2026-01-06 09:11:04.12	332.98	3.26	-60.9	-77.0	3.8	1.49e+00	0	29	104	1474297856	87	23792
2026-01-06 09:11:08.10	332.93	3.00	-60.9	-77.0	3.8	1.49e+00	0	29	104	1474297856	87	23696
2026-01-06 09:11:12.07	332.87	2.74	-60.8	-77.0	3.8	1.49e+00	0	29	104	1474297856	87	23653
2026-01-06 09:11:16.03	332.82	2.48	-60.8	-76.9	3.8	1.49e+00	0	29	104	1474297856	87	23564
2026-01-06 09:11:20.01	332.77	2.23	-60.8	-76.9	3.8	1.49e+00	0	29	104	1474297856	87	23420
2026-01-06 09:11:23.99	332.72	1.97	-60.8	-76.9	3.8	1.49e+00	0	29	104	1474297856	87	23458

#Closed at: 2026-01-06 09:11:26
#Recorded file [1474 MB]: D:/lorett/data/31004_260106_115705.dat