passes_logs/2026/01/06/R3.2S_Murmansk/R3.2S_Murmansk__20260106_082740_NOAA_21_JPSS-2_rec.log

#Pass ID: 20260106_082740_NOAA 21 (JPSS-2)
#Satellite: NOAA 21 (JPSS-2)
#Configuration: NOAA-21
#almurnet v.1.7.20251203
#Start time: 2026-01-06 08:32:25

#Version: 2.2.20231116
#Station: R3.2S_Murmansk
#Location: 33.079688 lon 68.888172 lat
#TLE: 1 54234U 22150A   26005.42670836  .00000142  00000+0  88292-4 0  9996
#TLE: 2 54234  98.7490 306.4427 0001045 340.6622  19.4514 14.19532269163451

#Time	Az	El	Level	Level2	SNR	BER	BlckErr	Temp	State	Recorded	gain1	gain2
2026-01-06 08:32:25.93	107.60	31.26	-60.2	-73.3	3.8	8.45e-01	0	26	0	0	86	16461
2026-01-06 08:32:28.90	107.05	31.77	-60.2	-74.0	3.8	1.49e+00	0	26	104	0	85	18947
2026-01-06 08:32:31.88	106.49	32.30	-60.2	-74.0	3.8	1.49e+00	0	26	104	0	85	18924
2026-01-06 08:32:34.85	105.91	32.82	-60.4	-74.3	3.8	1.49e+00	0	26	104	0	85	19406
2026-01-06 08:32:37.83	105.31	33.35	-60.3	-74.2	3.8	1.49e+00	0	26	104	0	85	19237
2026-01-06 08:32:40.81	104.69	33.89	-60.2	-74.1	3.8	1.49e+00	0	26	104	0	85	18967
2026-01-06 08:32:43.78	104.05	34.44	-60.1	-73.9	3.8	1.49e+00	0	26	104	0	85	18713
2026-01-06 08:32:46.76	103.39	34.99	-60.0	-73.8	3.8	1.49e+00	0	26	104	0	85	18316
2026-01-06 08:32:49.75	102.70	35.54	-59.9	-73.7	3.8	1.49e+00	0	26	104	0	85	18262
2026-01-06 08:32:52.73	101.98	36.10	-59.8	-73.7	3.8	1.49e+00	0	26	104	0	85	18152
2026-01-06 08:32:55.72	101.24	36.67	-59.8	-73.7	3.8	1.49e+00	0	26	104	0	85	18143
2026-01-06 08:32:58.69	100.48	37.24	-59.8	-73.6	3.8	1.49e+00	0	26	104	0	85	18022
2026-01-06 08:33:01.69	99.69	37.81	-59.8	-73.5	3.8	1.49e+00	0	26	104	0	85	17820
2026-01-06 08:33:04.69	98.86	38.39	-59.8	-73.4	3.8	1.49e+00	0	26	104	0	85	17643
2026-01-06 08:33:07.65	98.02	38.97	-59.8	-73.3	3.8	1.49e+00	0	26	104	0	85	17457
2026-01-06 08:33:10.61	97.14	39.54	-59.8	-73.3	3.8	1.49e+00	0	26	104	0	85	17477
2026-01-06 08:33:13.60	96.23	40.13	-59.7	-73.2	3.8	1.49e+00	0	26	104	0	85	17084
2026-01-06 08:33:16.58	95.28	40.71	-59.0	-66.5	5.7	1.44e+00	0	26	104	0	84	8407
2026-01-06 08:33:19.56	94.30	41.29	-54.7	-57.0	12.8	0.00e+00	0	26	0	8388608	76	4479
2026-01-06 08:33:22.53	93.29	41.88	-55.1	-57.7	12.3	0.00e+00	0	26	0	15728640	75	5141
2026-01-06 08:33:25.51	92.23	42.46	-53.1	-54.9	13.6	0.00e+00	0	26	0	24117248	72	4396
2026-01-06 08:33:28.48	91.14	43.03	-52.3	-54.0	14.1	0.00e+00	0	26	0	33554432	71	4207
2026-01-06 08:33:31.47	90.00	43.61	-52.6	-54.3	13.9	0.00e+00	0	26	0	42991616	71	4388
2026-01-06 08:33:34.45	88.82	44.18	-52.2	-53.8	14.0	0.00e+00	0	26	0	52428800	70	4362
2026-01-06 08:33:37.43	87.61	44.75	-52.3	-54.0	13.9	0.00e+00	0	26	0	61865984	70	4470
2026-01-06 08:33:40.42	86.34	45.31	-52.0	-53.5	14.1	0.00e+00	0	26	0	71303168	70	4225
2026-01-06 08:33:43.40	85.03	45.86	-52.0	-53.7	14.1	0.00e+00	0	26	0	80740352	70	4299
2026-01-06 08:33:46.37	83.68	46.39	-52.2	-53.8	14.0	0.00e+00	0	26	0	90177536	70	4385
2026-01-06 08:33:49.34	82.28	46.92	-51.4	-52.9	14.4	0.00e+00	0	26	0	98566144	69	4166
2026-01-06 08:33:52.32	80.83	47.44	-51.6	-53.1	14.3	0.00e+00	0	26	0	108003328	69	4279
2026-01-06 08:33:55.29	79.34	47.93	-51.6	-53.1	14.3	0.00e+00	0	26	0	117440512	69	4245
2026-01-06 08:33:58.27	77.80	48.42	-51.5	-53.0	14.3	0.00e+00	0	26	0	126877696	69	4214
2026-01-06 08:34:01.24	76.21	48.88	-51.2	-52.7	14.5	0.00e+00	0	26	0	136314880	69	4058
2026-01-06 08:34:04.24	74.55	49.33	-51.5	-53.0	14.3	0.00e+00	0	26	0	145752064	69	4215
2026-01-06 08:34:07.21	72.87	49.75	-51.1	-52.6	14.5	0.00e+00	0	26	0	155189248	68	4257
2026-01-06 08:34:10.18	71.14	50.15	-50.7	-52.1	14.5	0.00e+00	0	26	0	164626432	67	4254
2026-01-06 08:34:13.16	69.36	50.53	-51.3	-52.8	14.1	0.00e+00	0	26	0	173015040	67	4628
2026-01-06 08:34:16.14	67.54	50.88	-51.3	-52.9	14.1	0.00e+00	0	26	0	182452224	67	4659
2026-01-06 08:34:19.12	65.67	51.20	-51.4	-52.9	14.2	0.00e+00	0	26	0	191889408	68	4441
2026-01-06 08:34:22.09	63.77	51.48	-51.8	-53.4	14.1	0.00e+00	0	26	0	201326592	69	4426
2026-01-06 08:34:25.08	61.83	51.74	-51.6	-53.2	14.3	0.00e+00	0	26	0	210763776	69	4295
2026-01-06 08:34:28.06	59.86	51.96	-51.4	-52.8	14.4	0.00e+00	0	26	0	220200960	69	4137
2026-01-06 08:34:31.03	57.87	52.15	-51.4	-53.0	14.3	0.00e+00	0	26	0	229638144	69	4199
2026-01-06 08:34:34.01	55.85	52.30	-51.0	-52.4	14.5	0.00e+00	0	26	0	239075328	68	4178
2026-01-06 08:34:36.99	53.81	52.41	-51.1	-52.6	14.4	0.00e+00	0	26	0	247463936	68	4245
2026-01-06 08:34:39.96	51.77	52.49	-50.4	-51.7	14.6	0.00e+00	0	26	0	256901120	67	4077
2026-01-06 08:34:42.95	49.70	52.53	-50.3	-51.6	14.6	0.00e+00	0	26	0	266338304	66	4256
2026-01-06 08:34:45.92	47.64	52.53	-49.8	-51.1	14.8	0.00e+00	0	26	0	275775488	66	4022
2026-01-06 08:34:48.91	45.58	52.49	-50.4	-51.8	14.5	0.00e+00	0	26	0	285212672	66	4349
2026-01-06 08:34:51.88	43.53	52.42	-50.0	-51.3	14.7	0.00e+00	0	26	0	294649856	66	4101
2026-01-06 08:34:54.85	41.50	52.30	-50.0	-51.3	14.7	0.00e+00	0	26	0	304087040	66	4127
2026-01-06 08:34:57.83	39.48	52.15	-50.7	-52.1	14.3	0.00e+00	0	26	0	313524224	66	4535
2026-01-06 08:35:00.81	37.49	51.97	-51.0	-52.5	14.3	0.00e+00	0	26	0	321912832	67	4468
2026-01-06 08:35:03.78	35.52	51.75	-51.2	-52.6	14.2	0.00e+00	0	26	0	331350016	67	4541
2026-01-06 08:35:06.75	33.59	51.49	-50.6	-52.0	14.5	0.00e+00	0	26	0	340787200	67	4212
2026-01-06 08:35:09.73	31.69	51.20	-51.4	-52.9	14.1	0.00e+00	0	26	0	350224384	67	4660
2026-01-06 08:35:12.69	29.84	50.89	-51.1	-52.5	14.4	0.00e+00	0	26	0	359661568	68	4219
2026-01-06 08:35:15.67	28.01	50.54	-51.8	-53.4	14.1	0.00e+00	0	26	0	369098752	68	4668
2026-01-06 08:35:18.64	26.24	50.17	-51.9	-53.6	14.0	0.00e+00	0	26	0	378535936	69	4496
2026-01-06 08:35:21.63	24.50	49.77	-51.5	-53.0	14.2	0.00e+00	0	26	0	387973120	68	4459
2026-01-06 08:35:24.61	22.81	49.35	-51.9	-53.5	14.1	0.00e+00	0	26	0	396361728	69	4464
2026-01-06 08:35:27.60	21.16	48.90	-50.9	-52.3	14.5	0.00e+00	0	26	0	405798912	68	4112
2026-01-06 08:35:30.59	19.56	48.44	-51.9	-53.4	14.2	0.00e+00	0	26	0	415236096	70	4173
2026-01-06 08:35:33.56	18.03	47.96	-50.3	-51.6	14.5	0.00e+00	0	26	0	424673280	66	4274
2026-01-06 08:35:36.54	16.53	47.46	-52.8	-54.5	13.6	0.00e+00	0	26	0	434110464	70	4757
2026-01-06 08:35:39.52	15.08	46.94	-51.4	-52.8	14.4	0.00e+00	0	26	0	443547648	69	4121
2026-01-06 08:35:42.50	13.68	46.42	-50.7	-52.0	14.5	0.00e+00	0	26	0	452984832	67	4229
2026-01-06 08:35:45.48	12.33	45.88	-53.0	-54.9	13.6	0.00e+00	0	26	0	462422016	71	4659
2026-01-06 08:35:48.47	11.02	45.33	-51.6	-53.2	14.3	0.00e+00	0	26	0	470810624	69	4309
2026-01-06 08:35:51.47	9.75	44.77	-52.8	-54.6	13.6	0.00e+00	0	26	0	480247808	70	4806
2026-01-06 08:35:54.45	8.53	44.20	-53.0	-54.8	13.7	0.00e+00	0	26	0	489684992	72	4386
2026-01-06 08:35:57.43	7.36	43.64	-51.4	-52.9	14.4	0.00e+00	0	26	0	499122176	69	4161
2026-01-06 08:36:00.39	6.23	43.07	-53.5	-55.5	13.3	0.00e+00	0	26	0	508559360	72	4751
2026-01-06 08:36:03.34	5.15	42.49	-53.3	-55.2	13.5	0.00e+00	0	26	0	517996544	72	4565
2026-01-06 08:36:06.32	4.09	41.91	-51.3	-52.7	14.5	0.00e+00	0	26	0	527433728	69	4086
2026-01-06 08:36:09.30	3.08	41.33	-52.0	-53.6	14.0	0.00e+00	0	26	0	536870912	69	4525
2026-01-06 08:36:12.27	2.10	40.75	-52.7	-54.5	13.8	0.00e+00	0	26	0	545259520	71	4443
2026-01-06 08:36:15.24	1.16	40.17	-51.0	-52.4	14.5	0.00e+00	0	26	0	554696704	68	4185
2026-01-06 08:36:18.22	0.25	39.59	-50.3	-51.7	14.7	0.00e+00	0	26	0	564133888	67	4065
2026-01-06 08:36:21.21	359.36	39.01	-51.4	-52.9	14.1	0.00e+00	0	26	0	573571072	67	4675
2026-01-06 08:36:24.19	358.51	38.44	-51.7	-53.2	14.2	0.00e+00	0	26	0	583008256	69	4321
2026-01-06 08:36:27.16	357.70	37.86	-50.8	-52.2	14.6	0.00e+00	0	26	0	592445440	68	4067
2026-01-06 08:36:30.14	356.91	37.29	-51.3	-52.8	14.3	0.00e+00	0	26	0	601882624	68	4384
2026-01-06 08:36:33.12	356.14	36.73	-50.5	-51.8	14.6	0.00e+00	0	26	0	610271232	67	4145
2026-01-06 08:36:36.10	355.41	36.16	-50.5	-51.9	14.6	0.00e+00	0	26	0	619708416	67	4156
2026-01-06 08:36:39.07	354.70	35.61	-50.1	-51.4	14.6	0.00e+00	0	26	0	629145600	66	4179
2026-01-06 08:36:42.05	354.01	35.05	-50.7	-52.0	14.3	0.00e+00	0	26	0	638582784	66	4492
2026-01-06 08:36:45.04	353.35	34.50	-51.2	-52.8	14.2	0.00e+00	0	26	0	648019968	67	4612
2026-01-06 08:36:48.02	352.70	33.96	-50.4	-51.8	14.6	0.00e+00	0	26	0	657457152	67	4127
2026-01-06 08:36:51.00	352.08	33.42	-49.9	-51.2	14.7	0.00e+00	0	26	0	666894336	66	4092
2026-01-06 08:36:53.98	351.48	32.89	-50.3	-51.6	14.6	0.00e+00	0	26	0	676331520	66	4284
2026-01-06 08:36:56.94	350.91	32.37	-49.7	-51.0	14.8	0.00e+00	0	26	0	685768704	66	4003
2026-01-06 08:36:59.93	350.34	31.84	-49.5	-50.7	14.8	0.00e+00	0	26	0	694157312	65	4085
2026-01-06 08:37:02.89	349.80	31.33	-49.7	-51.0	14.7	0.00e+00	0	26	0	703594496	65	4202
2026-01-06 08:37:05.87	349.28	30.82	-49.9	-51.2	14.6	0.00e+00	0	26	0	713031680	65	4308
2026-01-06 08:37:08.83	348.77	30.33	-49.8	-51.2	14.6	0.00e+00	0	26	0	722468864	65	4294
2026-01-06 08:37:11.81	348.28	29.83	-49.8	-51.1	14.6	0.00e+00	0	26	0	731906048	65	4255
2026-01-06 08:37:14.79	347.80	29.34	-49.3	-50.5	14.8	0.00e+00	0	26	0	741343232	65	4004
2026-01-06 08:37:17.75	347.33	28.86	-49.0	-50.2	14.8	0.00e+00	0	26	0	750780416	64	4083
2026-01-06 08:37:20.73	346.88	28.38	-48.9	-50.1	14.9	0.00e+00	0	26	0	759169024	64	4036
2026-01-06 08:37:23.73	346.44	27.91	-49.0	-50.2	14.9	0.00e+00	0	26	0	768606208	64	4074
2026-01-06 08:37:26.72	346.02	27.44	-48.9	-50.2	14.8	0.00e+00	0	26	0	778043392	64	4059
2026-01-06 08:37:29.70	345.61	26.98	-48.8	-50.0	14.9	0.00e+00	0	26	0	787480576	64	4002
2026-01-06 08:37:32.68	345.21	26.53	-48.8	-50.0	14.9	0.00e+00	0	26	0	796917760	64	3967
2026-01-06 08:37:35.65	344.82	26.08	-48.7	-50.0	15.0	0.00e+00	0	26	0	806354944	64	3960
2026-01-06 08:37:38.63	344.44	25.64	-48.8	-50.0	14.9	0.00e+00	0	26	0	815792128	64	3987
2026-01-06 08:37:41.61	344.08	25.20	-48.7	-49.9	15.0	0.00e+00	0	26	0	825229312	64	3930
2026-01-06 08:37:44.59	343.72	24.77	-48.6	-49.8	14.9	0.00e+00	0	26	0	834666496	63	4135
2026-01-06 08:37:47.56	343.37	24.35	-48.4	-49.6	15.0	0.00e+00	0	26	0	843055104	63	4028
2026-01-06 08:37:50.54	343.04	23.93	-48.6	-49.7	14.9	0.00e+00	0	26	0	852492288	63	4097
2026-01-06 08:37:53.51	342.71	23.52	-48.7	-49.9	14.8	0.00e+00	0	26	0	861929472	63	4173
2026-01-06 08:37:56.49	342.39	23.11	-49.1	-50.4	14.7	0.00e+00	0	26	0	871366656	63	4399
2026-01-06 08:37:59.46	342.08	22.71	-49.4	-50.7	14.6	0.00e+00	0	26	0	880803840	63	4563
2026-01-06 08:38:02.44	341.78	22.32	-49.4	-50.7	14.6	0.00e+00	0	26	0	890241024	64	4307
2026-01-06 08:38:05.41	341.48	21.92	-49.1	-50.4	14.7	0.00e+00	0	26	0	899678208	64	4161
2026-01-06 08:38:08.38	341.19	21.54	-48.7	-49.9	14.9	0.00e+00	0	26	0	908066816	64	3946
2026-01-06 08:38:11.38	340.91	21.16	-48.6	-49.8	14.8	0.00e+00	0	26	0	917504000	63	4118
2026-01-06 08:38:14.36	340.64	20.78	-48.3	-49.5	15.0	0.00e+00	0	26	0	926941184	63	3959
2026-01-06 08:38:17.33	340.37	20.41	-48.1	-49.3	14.9	0.00e+00	0	26	0	936378368	62	4113
2026-01-06 08:38:20.31	340.11	20.04	-48.1	-49.2	14.9	0.00e+00	0	26	0	945815552	62	4093
2026-01-06 08:38:23.28	339.86	19.68	-48.1	-49.2	14.9	0.00e+00	0	26	0	955252736	62	4079
2026-01-06 08:38:26.26	339.61	19.32	-48.2	-49.4	14.9	0.00e+00	0	26	0	964689920	62	4159
2026-01-06 08:38:29.24	339.37	18.97	-48.5	-49.7	14.8	0.00e+00	0	26	0	974127104	62	4304
2026-01-06 08:38:32.21	339.14	18.62	-48.7	-49.9	14.7	0.00e+00	0	26	0	982515712	62	4439
2026-01-06 08:38:35.20	338.91	18.28	-48.8	-50.1	14.6	0.00e+00	0	26	0	991952896	62	4497
2026-01-06 08:38:38.17	338.68	17.94	-49.1	-50.3	14.6	0.00e+00	0	26	0	1001390080	63	4391
2026-01-06 08:38:41.15	338.46	17.60	-49.2	-50.4	14.6	0.00e+00	0	26	0	1010827264	63	4438
2026-01-06 08:38:44.12	338.25	17.27	-49.3	-50.6	14.5	0.00e+00	0	26	0	1020264448	63	4519
2026-01-06 08:38:47.10	338.04	16.94	-49.4	-50.7	14.6	0.00e+00	0	26	0	1029701632	64	4337
2026-01-06 08:38:50.09	337.83	16.62	-49.5	-50.8	14.5	0.00e+00	0	26	0	1039138816	64	4390
2026-01-06 08:38:53.07	337.63	16.30	-49.5	-50.8	14.5	0.00e+00	0	26	0	1048576000	64	4369
2026-01-06 08:38:56.04	337.44	15.98	-49.5	-50.8	14.5	0.00e+00	0	26	0	1056964608	64	4361
2026-01-06 08:38:59.04	337.25	15.67	-49.5	-50.8	14.5	0.00e+00	0	26	0	1066401792	64	4390
2026-01-06 08:39:02.01	337.06	15.36	-49.5	-50.8	14.6	0.00e+00	0	26	0	1075838976	64	4354
2026-01-06 08:39:05.00	336.88	15.05	-49.4	-50.8	14.6	0.00e+00	0	26	0	1085276160	64	4341
2026-01-06 08:39:07.98	336.70	14.75	-49.4	-50.8	14.6	0.00e+00	0	26	0	1094713344	64	4345
2026-01-06 08:39:10.97	336.52	14.45	-49.4	-50.8	14.6	0.00e+00	0	26	0	1104150528	64	4353
2026-01-06 08:39:13.95	336.35	14.16	-49.5	-50.8	14.5	0.00e+00	0	26	0	1113587712	64	4377
2026-01-06 08:39:16.93	336.18	13.87	-49.6	-50.9	14.5	0.00e+00	0	26	0	1123024896	64	4433
2026-01-06 08:39:19.91	336.01	13.58	-49.5	-50.9	14.5	0.00e+00	0	26	0	1132462080	64	4410
2026-01-06 08:39:22.88	335.85	13.29	-49.6	-50.9	14.5	0.00e+00	0	26	0	1140850688	64	4426
2026-01-06 08:39:25.86	335.70	13.01	-49.6	-51.0	14.5	0.00e+00	0	26	0	1150287872	64	4456
2026-01-06 08:39:28.85	335.54	12.73	-49.6	-50.9	14.5	0.00e+00	0	26	0	1159725056	64	4425
2026-01-06 08:39:31.83	335.39	12.45	-49.7	-51.0	14.4	0.00e+00	0	26	0	1169162240	64	4486
2026-01-06 08:39:34.81	335.24	12.18	-49.7	-51.1	14.4	0.00e+00	0	26	0	1178599424	64	4520
2026-01-06 08:39:37.78	335.09	11.91	-49.6	-51.0	14.4	0.00e+00	0	26	0	1188036608	64	4449
2026-01-06 08:39:40.76	334.95	11.64	-49.6	-51.0	14.4	0.00e+00	0	26	0	1197473792	64	4476
2026-01-06 08:39:43.74	334.81	11.38	-49.8	-51.1	14.4	0.00e+00	0	26	0	1206910976	64	4541
2026-01-06 08:39:46.73	334.67	11.11	-49.8	-51.2	14.3	0.00e+00	0	26	0	1216348160	64	4591
2026-01-06 08:39:49.70	334.54	10.85	-49.8	-51.2	14.4	0.00e+00	0	26	0	1224736768	65	4332
2026-01-06 08:39:52.68	334.41	10.60	-49.9	-51.3	14.4	0.00e+00	0	26	0	1234173952	65	4389
2026-01-06 08:39:55.64	334.28	10.34	-50.2	-51.6	14.3	0.00e+00	0	26	0	1243611136	65	4526
2026-01-06 08:39:58.61	334.15	10.09	-50.2	-51.7	14.2	0.00e+00	0	26	0	1253048320	65	4549
2026-01-06 08:40:01.62	334.02	9.84	-50.3	-51.8	14.1	0.00e+00	0	26	0	1262485504	65	4648
2026-01-06 08:40:04.59	333.90	9.59	-50.1	-51.6	14.3	0.00e+00	0	26	0	1271922688	65	4513
2026-01-06 08:40:07.59	333.78	9.34	-50.4	-52.0	14.2	0.00e+00	0	26	0	1281359872	66	4447
2026-01-06 08:40:10.57	333.66	9.10	-50.5	-52.1	14.1	0.00e+00	0	26	0	1290797056	66	4501
2026-01-06 08:40:13.55	333.55	8.86	-50.5	-52.0	14.2	0.00e+00	0	26	0	1299185664	66	4460
2026-01-06 08:40:16.54	333.43	8.62	-50.8	-52.3	14.0	0.00e+00	0	26	0	1308622848	66	4651
2026-01-06 08:40:19.49	333.32	8.39	-50.7	-52.3	14.0	0.00e+00	0	26	0	1318060032	66	4639
2026-01-06 08:40:22.48	333.21	8.15	-50.8	-52.4	14.1	0.00e+00	0	26	0	1327497216	67	4408
2026-01-06 08:40:25.48	333.10	7.92	-50.7	-52.3	14.1	0.00e+00	0	26	0	1336934400	67	4351
2026-01-06 08:40:28.45	333.00	7.69	-50.9	-52.6	14.0	0.00e+00	0	26	0	1346371584	67	4497
2026-01-06 08:40:31.43	332.89	7.46	-50.9	-52.5	14.0	0.00e+00	0	26	0	1355808768	67	4474
2026-01-06 08:40:34.41	332.79	7.23	-51.2	-52.9	13.7	0.00e+00	0	26	0	1365245952	67	4676
2026-01-06 08:40:37.38	332.69	7.01	-51.0	-52.7	13.9	0.00e+00	0	26	0	1374683136	67	4557
2026-01-06 08:40:40.35	332.59	6.79	-51.3	-53.0	13.8	0.00e+00	0	26	0	1383071744	68	4491
2026-01-06 08:40:43.33	332.49	6.56	-51.9	-53.8	13.5	0.00e+00	0	26	0	1392508928	69	4636
2026-01-06 08:40:46.31	332.40	6.35	-51.7	-53.6	13.7	0.00e+00	0	26	0	1401946112	69	4505
2026-01-06 08:40:49.29	332.30	6.13	-51.8	-53.7	13.6	0.00e+00	0	26	0	1411383296	69	4566
2026-01-06 08:40:52.28	332.21	5.91	-52.0	-54.0	13.4	0.00e+00	0	26	0	1420820480	69	4726
2026-01-06 08:40:55.26	332.12	5.70	-51.9	-53.7	13.5	0.00e+00	0	26	0	1430257664	69	4597
2026-01-06 08:40:58.24	332.03	5.48	-52.1	-54.1	13.3	0.00e+00	0	26	0	1439694848	69	4787
2026-01-06 08:41:01.21	331.94	5.27	-52.2	-54.2	13.2	0.00e+00	0	26	0	1448083456	69	4829
2026-01-06 08:41:04.20	331.86	5.06	-52.2	-54.2	13.2	0.00e+00	0	26	0	1457520640	69	4820
2026-01-06 08:41:07.17	331.77	4.86	-58.8	-72.6	3.8	1.49e+00	0	26	104	1463812096	82	19013
2026-01-06 08:41:10.14	331.69	4.65	-59.6	-73.4	3.8	1.49e+00	0	26	104	1463812096	84	18723
2026-01-06 08:41:13.14	331.60	4.45	-60.0	-73.8	3.8	1.49e+00	0	26	104	1463812096	85	18511
2026-01-06 08:41:16.12	331.52	4.24	-60.1	-74.0	3.8	1.49e+00	0	26	104	1463812096	85	18743
2026-01-06 08:41:19.10	331.44	4.04	-60.2	-74.1	3.8	1.49e+00	0	26	104	1463812096	85	19048
2026-01-06 08:41:22.08	331.36	3.84	-60.3	-74.2	3.8	1.49e+00	0	26	104	1463812096	85	19174
2026-01-06 08:41:25.07	331.29	3.64	-60.4	-74.2	3.8	1.49e+00	0	26	104	1463812096	85	19380
2026-01-06 08:41:28.05	331.21	3.44	-60.3	-74.2	3.8	1.49e+00	0	26	104	1463812096	85	19239
2026-01-06 08:41:31.05	331.13	3.25	-60.3	-74.2	3.8	1.49e+00	0	26	104	1463812096	85	19208
2026-01-06 08:41:34.03	331.06	3.05	-60.3	-74.1	3.8	1.49e+00	0	26	104	1463812096	85	19161
2026-01-06 08:41:37.01	330.99	2.86	-60.3	-74.1	3.8	1.49e+00	0	26	104	1463812096	85	19096
2026-01-06 08:41:39.98	330.92	2.66	-60.2	-74.0	3.8	1.49e+00	0	26	104	1463812096	85	18944
2026-01-06 08:41:42.97	330.85	2.47	-60.2	-74.1	3.8	1.49e+00	0	26	104	1463812096	85	19043
2026-01-06 08:41:45.95	330.78	2.28	-60.2	-74.1	3.8	1.49e+00	0	26	104	1463812096	85	19026
2026-01-06 08:41:48.95	330.71	2.09	-60.2	-74.1	3.8	1.49e+00	0	26	104	1463812096	85	19017
2026-01-06 08:41:51.92	330.64	1.91	-60.2	-74.1	3.8	1.49e+00	0	26	104	1463812096	85	18950

#Closed at: 2026-01-06 08:41:52
#Recorded file [1463 MB]: D:/lorett/data/31004_260106_113225.dat