passes_logs/2026/01/06/R3.2S_Murmansk/R3.2S_Murmansk__20260106_050058_FENGYUN_3D_rec.log

#Pass ID: 20260106_050058_FENGYUN 3D
#Satellite: FENGYUN 3D
#Configuration: FENGYUN 3D
#almurnet v.1.7.20251203
#Start time: 2026-01-06 05:00:59

#Version: 2.2.20231116
#Station: R3.2S_Murmansk
#Location: 33.079688 lon 68.888172 lat
#TLE: 1 43010U 17072A   26005.48915933 -.00000051  00000+0 -21983-5 0  9995
#TLE: 2 43010  98.9919 337.1582 0002001 124.6377 235.4988 14.19691925421909

#Time	Az	El	Level	Level2	SNR	BER	BlckErr	Temp	State	Recorded	gain1	gain2
2026-01-06 05:00:59.10	37.93	2.06	-57.8	-70.9	3.8	8.46e-01	0	24	0	0	82	15644
2026-01-06 05:01:03.12	37.75	2.31	-54.4	-70.8	3.8	8.46e-01	0	25	104	0	75	23191
2026-01-06 05:01:07.11	37.56	2.55	-54.2	-70.7	3.8	8.45e-01	0	25	104	0	73	25764
2026-01-06 05:01:11.11	37.37	2.80	-56.7	-70.8	3.8	8.44e-01	0	25	104	0	78	19403
2026-01-06 05:01:15.12	37.18	3.05	-57.8	-70.6	3.8	8.45e-01	0	25	104	0	80	17081
2026-01-06 05:01:19.12	36.98	3.30	-57.7	-70.8	3.8	8.45e-01	0	25	104	0	80	17381
2026-01-06 05:01:23.14	36.78	3.55	-57.8	-70.8	3.8	8.46e-01	0	25	104	0	80	17384
2026-01-06 05:01:27.15	36.58	3.80	-57.8	-70.8	3.8	8.46e-01	0	25	104	0	80	17319
2026-01-06 05:01:31.15	36.37	4.06	-57.7	-69.8	3.8	8.46e-01	0	25	104	0	80	15451
2026-01-06 05:01:35.14	36.16	4.32	-57.5	-67.4	4.1	8.39e-01	0	26	0	0	80	11798
2026-01-06 05:01:39.14	35.94	4.58	-56.8	-63.2	6.2	3.00e-01	0	25	0	4194304	80	7259
2026-01-06 05:01:43.14	35.72	4.84	-55.9	-60.5	8.4	5.81e-02	0	25	0	26214400	78	5971
2026-01-06 05:01:47.13	35.50	5.10	-55.8	-60.2	8.7	1.33e-02	0	25	0	48234496	77	6107
2026-01-06 05:01:51.11	35.27	5.37	-57.4	-67.4	3.9	7.49e-01	0	26	104	69206016	80	11702
2026-01-06 05:01:55.10	35.04	5.63	-50.9	-52.6	13.8	0.00e+00	0	25	0	88080384	68	4266
2026-01-06 05:01:59.10	34.80	5.91	-50.0	-51.5	14.1	0.00e+00	0	26	0	110100480	66	4227
2026-01-06 05:02:03.10	34.56	6.18	-50.0	-51.5	14.2	0.00e+00	0	26	0	133169152	66	4241
2026-01-06 05:02:07.11	34.31	6.46	-49.7	-51.1	14.4	0.00e+00	0	26	0	155189248	66	4043
2026-01-06 05:02:11.10	34.06	6.73	-49.5	-50.9	14.4	0.00e+00	0	26	0	178257920	65	4168
2026-01-06 05:02:15.09	33.80	7.01	-49.3	-50.7	14.5	0.00e+00	0	26	0	200278016	65	4060
2026-01-06 05:02:19.09	33.54	7.30	-49.5	-50.9	14.4	0.00e+00	0	26	0	222298112	65	4165
2026-01-06 05:02:23.07	33.28	7.58	-49.1	-50.5	14.5	0.00e+00	0	26	0	245366784	64	4212
2026-01-06 05:02:27.06	33.00	7.87	-48.9	-50.2	14.6	0.00e+00	0	26	0	267386880	64	4098
2026-01-06 05:02:31.07	32.72	8.16	-49.0	-50.4	14.5	0.00e+00	0	26	0	290455552	64	4161
2026-01-06 05:02:35.05	32.44	8.45	-49.3	-50.7	14.4	0.00e+00	0	26	0	312475648	64	4300
2026-01-06 05:02:39.03	32.15	8.75	-49.1	-50.5	14.5	0.00e+00	0	26	0	334495744	64	4214
2026-01-06 05:02:43.01	31.85	9.04	-49.1	-50.4	14.5	0.00e+00	0	26	0	357564416	64	4185
2026-01-06 05:02:46.98	31.55	9.34	-49.0	-50.4	14.6	0.00e+00	0	26	0	379584512	64	4146
2026-01-06 05:02:50.96	31.24	9.65	-48.9	-50.2	14.7	0.00e+00	0	26	0	402653184	64	4059
2026-01-06 05:02:54.95	30.92	9.95	-48.6	-49.9	14.7	0.00e+00	0	26	0	424673280	63	4180
2026-01-06 05:02:58.93	30.60	10.26	-48.6	-49.9	14.7	0.00e+00	0	26	0	446693376	63	4152
2026-01-06 05:03:02.93	30.27	10.57	-48.5	-49.8	14.7	0.00e+00	0	26	0	469762048	63	4128
2026-01-06 05:03:06.93	29.93	10.89	-48.4	-49.7	14.8	0.00e+00	0	26	0	491782144	63	4061
2026-01-06 05:03:10.91	29.58	11.21	-48.5	-49.8	14.8	0.00e+00	0	26	0	514850816	63	4106
2026-01-06 05:03:14.89	29.23	11.53	-48.1	-49.4	14.8	0.00e+00	0	26	0	536870912	62	4150
2026-01-06 05:03:18.89	28.86	11.85	-48.1	-49.4	14.8	0.00e+00	0	26	0	558891008	62	4146
2026-01-06 05:03:22.88	28.49	12.18	-47.9	-49.1	14.9	0.00e+00	0	26	0	581959680	62	4035
2026-01-06 05:03:26.89	28.11	12.52	-47.9	-49.1	14.9	0.00e+00	0	26	0	603979776	62	4043
2026-01-06 05:03:30.88	27.72	12.85	-48.2	-49.4	14.8	0.00e+00	0	26	0	627048448	62	4186
2026-01-06 05:03:34.88	27.32	13.19	-48.2	-49.4	14.8	0.00e+00	0	26	0	649068544	62	4182
2026-01-06 05:03:38.87	26.91	13.53	-47.9	-49.2	14.9	0.00e+00	0	26	0	672137216	62	4062
2026-01-06 05:03:42.87	26.50	13.88	-47.8	-49.0	15.0	0.00e+00	0	26	0	694157312	62	3994
2026-01-06 05:03:46.86	26.07	14.22	-47.7	-48.9	15.0	0.00e+00	0	26	0	716177408	62	3945
2026-01-06 05:03:50.86	25.63	14.57	-47.6	-48.8	14.9	0.00e+00	0	26	0	739246080	61	4124
2026-01-06 05:03:54.85	25.18	14.93	-47.5	-48.7	15.0	0.00e+00	0	26	0	761266176	61	4052
2026-01-06 05:03:58.84	24.72	15.29	-47.2	-48.3	15.1	0.00e+00	0	26	0	784334848	61	3906
2026-01-06 05:04:02.82	24.25	15.65	-47.2	-48.4	14.9	0.00e+00	0	26	0	806354944	60	4166
2026-01-06 05:04:06.81	23.76	16.01	-47.4	-48.6	14.9	0.00e+00	0	26	0	828375040	60	4256
2026-01-06 05:04:10.80	23.27	16.38	-47.4	-48.5	14.9	0.00e+00	0	26	0	851443712	60	4242
2026-01-06 05:04:14.79	22.76	16.75	-47.2	-48.3	15.0	0.00e+00	0	26	0	873463808	60	4137
2026-01-06 05:04:18.78	22.23	17.12	-47.0	-48.1	15.1	0.00e+00	0	26	0	896532480	60	4032
2026-01-06 05:04:22.79	21.70	17.50	-47.0	-48.1	15.1	0.00e+00	0	26	0	918552576	60	4041
2026-01-06 05:04:26.78	21.15	17.88	-47.0	-48.2	15.0	0.00e+00	0	26	0	940572672	59	4310
2026-01-06 05:04:30.80	20.58	18.27	-46.9	-48.0	15.0	0.00e+00	0	26	0	963641344	59	4230
2026-01-06 05:04:34.80	20.00	18.66	-47.1	-48.2	14.9	0.00e+00	0	26	0	986710016	59	4330
2026-01-06 05:04:38.79	19.40	19.05	-46.8	-48.0	15.0	0.00e+00	0	26	0	1008730112	59	4202
2026-01-06 05:04:42.79	18.79	19.44	-46.7	-47.9	15.1	0.00e+00	0	26	0	1030750208	59	4146
2026-01-06 05:04:46.77	18.16	19.84	-46.6	-47.7	15.1	0.00e+00	0	26	0	1053818880	59	4083
2026-01-06 05:04:50.74	17.52	20.23	-46.9	-48.0	15.0	0.00e+00	0	26	0	1075838976	59	4231
2026-01-06 05:04:54.71	16.87	20.63	-46.6	-47.7	15.1	0.00e+00	0	26	0	1097859072	59	4076
2026-01-06 05:04:58.70	16.19	21.03	-46.3	-47.4	15.3	0.00e+00	0	26	0	1120927744	59	3915
2026-01-06 05:05:02.69	15.49	21.44	-46.5	-47.6	15.2	0.00e+00	0	26	0	1142947840	59	4038
2026-01-06 05:05:06.67	14.78	21.84	-46.4	-47.5	15.2	0.00e+00	0	26	0	1166016512	59	3970
2026-01-06 05:05:10.65	14.05	22.25	-46.3	-47.4	15.2	0.00e+00	0	26	0	1188036608	59	3957
2026-01-06 05:05:14.64	13.29	22.66	-46.2	-47.3	15.2	0.00e+00	0	26	0	1210056704	58	4108
2026-01-06 05:05:18.64	12.51	23.07	-46.2	-47.3	15.1	0.00e+00	0	26	0	1233125376	58	4126
2026-01-06 05:05:22.64	11.72	23.48	-46.2	-47.3	15.1	0.00e+00	0	26	0	1255145472	58	4133
2026-01-06 05:05:26.64	10.90	23.89	-45.8	-46.9	15.3	0.00e+00	0	26	0	1278214144	58	3931
2026-01-06 05:05:30.64	10.05	24.30	-45.8	-46.8	15.3	0.00e+00	0	26	0	1300234240	58	3911
2026-01-06 05:05:34.64	9.19	24.72	-46.0	-47.0	15.3	0.00e+00	0	26	0	1322254336	58	4001
2026-01-06 05:05:38.64	8.30	25.13	-45.8	-46.9	15.3	0.00e+00	0	26	0	1345323008	58	3939
2026-01-06 05:05:42.64	7.39	25.54	-45.5	-46.6	15.2	0.00e+00	0	26	0	1367343104	57	4029
2026-01-06 05:05:46.63	6.46	25.94	-45.5	-46.5	15.3	0.00e+00	0	26	0	1390411776	57	3987
2026-01-06 05:05:50.63	5.50	26.35	-45.2	-46.3	15.4	0.00e+00	0	26	0	1412431872	57	3877
2026-01-06 05:05:54.62	4.51	26.75	-45.4	-46.5	15.3	0.00e+00	0	26	0	1435500544	57	3965
2026-01-06 05:05:58.62	3.50	27.15	-45.2	-46.3	15.2	0.00e+00	0	26	0	1457520640	56	4102
2026-01-06 05:06:02.62	2.47	27.54	-45.3	-46.4	15.2	0.00e+00	0	26	0	1480589312	56	4174
2026-01-06 05:06:06.63	1.40	27.93	-45.3	-46.3	15.2	0.00e+00	0	26	0	1502609408	56	4137
2026-01-06 05:06:10.62	0.32	28.31	-45.3	-46.4	15.2	0.00e+00	0	26	0	1525678080	56	4161
2026-01-06 05:06:14.61	359.20	28.69	-45.2	-46.3	15.2	0.00e+00	0	26	0	1547698176	56	4110
2026-01-06 05:06:18.60	358.06	29.05	-45.1	-46.2	15.2	0.00e+00	0	26	0	1569718272	56	4065
2026-01-06 05:06:22.59	356.90	29.41	-45.0	-46.1	15.3	0.00e+00	0	26	0	1592786944	56	4015
2026-01-06 05:06:26.58	355.71	29.76	-45.2	-46.2	15.2	0.00e+00	0	26	0	1614807040	56	4090
2026-01-06 05:06:30.59	354.49	30.10	-45.3	-46.3	15.2	0.00e+00	0	26	0	1637875712	56	4131
2026-01-06 05:06:34.60	353.24	30.43	-45.1	-46.1	15.3	0.00e+00	0	26	0	1659895808	56	4037
2026-01-06 05:06:38.62	351.96	30.75	-45.0	-46.0	15.3	0.00e+00	0	26	0	1682964480	56	4003
2026-01-06 05:06:42.62	350.66	31.06	-45.1	-46.1	15.3	0.00e+00	0	26	0	1704984576	56	4050
2026-01-06 05:06:46.61	349.34	31.35	-44.5	-45.5	15.3	0.00e+00	0	26	0	1728053248	55	4001
2026-01-06 05:06:50.61	348.00	31.62	-44.7	-45.7	15.3	0.00e+00	0	26	0	1750073344	55	4066
2026-01-06 05:06:54.63	346.63	31.89	-44.6	-45.7	15.3	0.00e+00	0	26	0	1773142016	55	4061
2026-01-06 05:06:58.65	345.23	32.13	-44.5	-45.5	15.3	0.00e+00	0	26	0	1795162112	55	4004
2026-01-06 05:07:02.64	343.82	32.36	-44.7	-45.8	15.3	0.00e+00	0	26	0	1818230784	55	4113
2026-01-06 05:07:06.65	342.39	32.57	-44.4	-45.4	15.4	0.00e+00	0	26	0	1840250880	55	3956
2026-01-06 05:07:10.65	340.95	32.75	-44.4	-45.4	15.2	0.00e+00	0	26	0	1863319552	54	4181
2026-01-06 05:07:14.64	339.49	32.92	-44.5	-45.6	15.2	0.00e+00	0	26	0	1885339648	54	4246
2026-01-06 05:07:18.63	338.01	33.07	-44.5	-45.6	15.2	0.00e+00	0	26	0	1907359744	54	4265
2026-01-06 05:07:22.59	336.54	33.20	-44.5	-45.5	15.2	0.00e+00	0	26	0	1930428416	54	4224
2026-01-06 05:07:26.57	335.05	33.30	-44.6	-45.7	15.2	0.00e+00	0	26	0	1952448512	54	4298
2026-01-06 05:07:30.56	333.54	33.38	-44.6	-45.6	15.2	0.00e+00	0	26	0	1974468608	54	4285
2026-01-06 05:07:34.54	332.03	33.45	-44.8	-45.8	15.2	0.00e+00	0	26	0	1997537280	54	4363
2026-01-06 05:07:38.52	330.52	33.48	-44.6	-45.7	15.2	0.00e+00	0	26	0	2019557376	54	4299
2026-01-06 05:07:42.52	329.00	33.50	-44.5	-45.6	15.2	0.00e+00	0	26	0	2042626048	54	4263
2026-01-06 05:07:46.52	327.47	33.49	-44.3	-45.3	15.3	0.00e+00	0	26	0	2064646144	54	4134
2026-01-06 05:07:50.51	325.95	33.46	-44.6	-45.6	15.2	0.00e+00	0	26	0	2086666240	54	4290
2026-01-06 05:07:54.51	324.43	33.41	-44.5	-45.5	15.2	0.00e+00	0	26	0	2109734912	54	4226
2026-01-06 05:07:58.50	322.93	33.33	-44.6	-45.7	15.2	0.00e+00	0	26	0	2131755008	54	4296
2026-01-06 05:08:02.50	321.42	33.23	-44.6	-45.6	15.2	0.00e+00	0	26	0	2154823680	54	4284
2026-01-06 05:08:06.51	319.92	33.11	-44.3	-45.3	15.3	0.00e+00	0	26	0	2176843776	54	4135
2026-01-06 05:08:10.51	318.44	32.97	-44.3	-45.3	15.3	0.00e+00	0	26	0	2199912448	54	4120
2026-01-06 05:08:14.53	316.97	32.81	-44.6	-45.7	15.2	0.00e+00	0	26	0	2221932544	54	4299
2026-01-06 05:08:18.53	315.51	32.62	-44.6	-45.7	15.2	0.00e+00	0	26	0	2245001216	54	4313
2026-01-06 05:08:22.52	314.08	32.42	-44.5	-45.5	15.2	0.00e+00	0	26	0	2267021312	54	4223
2026-01-06 05:08:26.51	312.67	32.20	-44.5	-45.5	15.2	0.00e+00	0	26	0	2290089984	54	4219
2026-01-06 05:08:30.49	311.28	31.97	-44.7	-45.7	15.2	0.00e+00	0	26	0	2312110080	54	4334
2026-01-06 05:08:34.50	309.90	31.71	-44.8	-45.8	15.2	0.00e+00	0	26	0	2335178752	54	4390
2026-01-06 05:08:38.49	308.55	31.44	-44.7	-45.7	15.2	0.00e+00	0	26	0	2357198848	54	4314
2026-01-06 05:08:42.49	307.22	31.15	-44.7	-45.8	15.2	0.00e+00	0	26	0	2379218944	54	4350
2026-01-06 05:08:46.45	305.92	30.85	-44.8	-45.9	15.2	0.00e+00	0	26	0	2402287616	55	4146
2026-01-06 05:08:50.45	304.64	30.54	-44.9	-46.0	15.2	0.00e+00	0	26	0	2424307712	55	4200
2026-01-06 05:08:54.43	303.39	30.21	-45.3	-46.4	15.2	0.00e+00	0	26	0	2446327808	55	4420
2026-01-06 05:08:58.43	302.16	29.88	-44.9	-45.9	15.2	0.00e+00	0	26	0	2469396480	55	4175
2026-01-06 05:09:02.44	300.95	29.53	-44.9	-46.0	15.2	0.00e+00	0	26	0	2491416576	55	4218
2026-01-06 05:09:06.44	299.77	29.17	-45.1	-46.2	15.2	0.00e+00	0	26	0	2514485248	55	4292
2026-01-06 05:09:10.44	298.62	28.80	-45.3	-46.4	15.2	0.00e+00	0	26	0	2536505344	55	4425
2026-01-06 05:09:14.42	297.50	28.43	-45.3	-46.4	15.2	0.00e+00	0	26	0	2559574016	55	4403
2026-01-06 05:09:18.41	296.41	28.05	-45.3	-46.3	15.2	0.00e+00	0	26	0	2581594112	55	4373
2026-01-06 05:09:22.39	295.34	27.67	-45.3	-46.4	15.2	0.00e+00	0	26	0	2603614208	56	4160
2026-01-06 05:09:26.40	294.29	27.27	-45.5	-46.5	15.2	0.00e+00	0	26	0	2626682880	56	4241
2026-01-06 05:09:30.40	293.27	26.87	-45.7	-46.8	15.1	0.00e+00	0	26	0	2648702976	56	4356
2026-01-06 05:09:34.41	292.27	26.47	-45.7	-46.8	15.1	0.00e+00	0	26	0	2671771648	56	4365
2026-01-06 05:09:38.41	291.30	26.07	-45.6	-46.7	15.1	0.00e+00	0	26	0	2693791744	56	4310
2026-01-06 05:09:42.42	290.35	25.66	-46.0	-47.1	15.1	0.00e+00	0	26	0	2716860416	57	4273
2026-01-06 05:09:46.42	289.43	25.25	-46.0	-47.1	15.1	0.00e+00	0	26	0	2738880512	57	4282
2026-01-06 05:09:50.43	288.53	24.84	-45.9	-47.0	15.2	0.00e+00	0	26	0	2761949184	57	4200
2026-01-06 05:09:54.40	287.66	24.43	-46.1	-47.2	15.1	0.00e+00	0	26	0	2783969280	57	4320
2026-01-06 05:09:58.38	286.81	24.02	-46.0	-47.0	15.1	0.00e+00	0	26	0	2805989376	57	4236
2026-01-06 05:10:02.37	285.98	23.60	-45.9	-46.9	15.2	0.00e+00	0	26	0	2829058048	57	4191
2026-01-06 05:10:06.38	285.17	23.19	-46.1	-47.2	15.1	0.00e+00	0	26	0	2851078144	57	4336
2026-01-06 05:10:10.37	284.39	22.78	-46.1	-47.2	15.1	0.00e+00	0	26	0	2874146816	57	4300
2026-01-06 05:10:14.38	283.62	22.37	-46.0	-47.1	15.1	0.00e+00	0	26	0	2896166912	57	4273
2026-01-06 05:10:18.37	282.88	21.96	-46.2	-47.3	15.1	0.00e+00	0	26	0	2919235584	57	4375
2026-01-06 05:10:22.37	282.15	21.55	-46.2	-47.3	15.1	0.00e+00	0	26	0	2941255680	57	4346
2026-01-06 05:10:26.36	281.45	21.14	-46.1	-47.2	15.1	0.00e+00	0	26	0	2964324352	57	4330
2026-01-06 05:10:30.36	280.76	20.74	-46.1	-47.2	15.1	0.00e+00	0	26	0	2986344448	57	4304
2026-01-06 05:10:34.37	280.09	20.33	-46.1	-47.2	15.1	0.00e+00	0	26	0	3008364544	57	4303
2026-01-06 05:10:38.35	279.44	19.93	-46.3	-47.4	15.0	0.00e+00	0	26	0	3031433216	57	4408
2026-01-06 05:10:42.34	278.80	19.54	-46.5	-47.6	15.0	0.00e+00	0	26	0	3053453312	58	4285
2026-01-06 05:10:46.32	278.19	19.14	-46.7	-47.8	15.0	0.00e+00	0	26	0	3076521984	58	4371
2026-01-06 05:10:50.30	277.59	18.75	-46.7	-47.8	15.0	0.00e+00	0	26	0	3098542080	58	4381
2026-01-06 05:10:54.30	277.00	18.36	-46.7	-47.9	15.0	0.00e+00	0	26	0	3120562176	58	4399
2026-01-06 05:10:58.28	276.43	17.98	-46.9	-48.1	14.9	0.00e+00	0	26	0	3143630848	58	4502
2026-01-06 05:11:02.27	275.88	17.60	-47.1	-48.3	15.0	0.00e+00	0	26	0	3165650944	59	4357
2026-01-06 05:11:06.26	275.33	17.22	-47.3	-48.5	14.9	0.00e+00	0	26	0	3188719616	59	4464
2026-01-06 05:11:10.24	274.81	16.84	-46.9	-48.1	15.1	0.00e+00	0	26	0	3210739712	60	4007
2026-01-06 05:11:14.24	274.29	16.47	-46.9	-48.0	15.1	0.00e+00	0	26	0	3232759808	60	3987
2026-01-06 05:11:18.23	273.79	16.10	-47.0	-48.2	15.1	0.00e+00	0	26	0	3255828480	60	4054
2026-01-06 05:11:22.23	273.29	15.73	-47.2	-48.3	15.0	0.00e+00	0	26	0	3277848576	60	4142
2026-01-06 05:11:26.20	272.82	15.37	-47.3	-48.4	15.0	0.00e+00	0	26	0	3300917248	60	4182
2026-01-06 05:11:30.22	272.35	15.01	-47.4	-48.6	14.9	0.00e+00	0	26	0	3321888768	60	4243
2026-01-06 05:11:34.23	271.89	14.65	-47.7	-48.9	14.8	0.00e+00	0	26	0	3343908864	60	4418
2026-01-06 05:11:38.23	271.45	14.30	-47.6	-48.8	14.8	0.00e+00	0	26	0	3366977536	60	4377
2026-01-06 05:11:42.24	271.01	13.94	-47.6	-48.8	14.8	0.00e+00	0	26	0	3388997632	60	4376
2026-01-06 05:11:46.24	270.59	13.60	-47.8	-49.0	14.8	0.00e+00	0	26	0	3412066304	60	4449
2026-01-06 05:11:50.26	270.17	13.25	-47.9	-49.1	14.8	0.00e+00	0	26	0	3434086400	61	4265
2026-01-06 05:11:54.29	269.76	12.91	-47.8	-49.0	14.9	0.00e+00	0	26	0	3457155072	61	4221
2026-01-06 05:11:58.32	269.37	12.57	-47.9	-49.1	14.8	0.00e+00	0	26	0	3479175168	61	4261
2026-01-06 05:12:02.34	268.98	12.23	-47.9	-49.1	14.8	0.00e+00	0	26	0	3502243840	61	4266
2026-01-06 05:12:06.35	268.60	11.90	-48.1	-49.3	14.7	0.00e+00	0	26	0	3525312512	61	4360
2026-01-06 05:12:10.38	268.23	11.57	-48.0	-49.2	14.8	0.00e+00	0	26	0	3547332608	61	4319
2026-01-06 05:12:14.39	267.87	11.25	-48.5	-49.8	14.7	0.00e+00	0	26	0	3570401280	62	4358
2026-01-06 05:12:18.40	267.52	10.93	-49.0	-50.3	14.6	0.00e+00	0	26	0	3592421376	63	4355
2026-01-06 05:12:22.46	267.17	10.60	-49.1	-50.5	14.5	0.00e+00	0	26	0	3615490048	63	4451
2026-01-06 05:12:26.46	266.83	10.29	-49.3	-50.6	14.4	0.00e+00	0	26	0	3637510144	63	4544
2026-01-06 05:12:30.46	266.51	9.98	-48.8	-50.1	14.6	0.00e+00	0	26	0	3660578816	63	4264
2026-01-06 05:12:34.51	266.18	9.67	-48.4	-49.6	14.8	0.00e+00	0	26	0	3683647488	63	4046
2026-01-06 05:12:38.51	265.87	9.36	-48.8	-50.1	14.6	0.00e+00	0	26	0	3705667584	63	4265
2026-01-06 05:12:42.51	265.56	9.06	-48.8	-50.1	14.7	0.00e+00	0	26	0	3728736256	63	4249
2026-01-06 05:12:46.51	265.26	8.76	-48.9	-50.2	14.6	0.00e+00	0	26	0	3750756352	63	4314
2026-01-06 05:12:50.53	264.96	8.46	-48.8	-50.1	14.6	0.00e+00	0	26	0	3772776448	63	4289
2026-01-06 05:12:54.59	264.67	8.16	-49.0	-50.3	14.5	0.00e+00	0	26	0	3795845120	63	4372
2026-01-06 05:12:58.62	264.38	7.86	-49.0	-50.3	14.5	0.00e+00	0	26	0	3818913792	63	4372
2026-01-06 05:13:02.62	264.11	7.58	-48.9	-50.2	14.6	0.00e+00	0	26	0	3840933888	63	4328
2026-01-06 05:13:06.68	263.83	7.28	-49.2	-50.5	14.4	0.00e+00	0	26	0	3864002560	63	4489
2026-01-06 05:13:10.71	263.57	7.00	-49.1	-50.5	14.4	0.00e+00	0	26	0	3887071232	63	4460
2026-01-06 05:13:14.73	263.31	6.72	-49.1	-50.5	14.4	0.00e+00	0	26	0	3909091328	63	4476
2026-01-06 05:13:18.77	263.05	6.43	-49.3	-50.7	14.4	0.00e+00	0	26	0	3932160000	64	4294
2026-01-06 05:13:22.78	262.80	6.16	-49.3	-50.7	14.4	0.00e+00	0	26	0	3954180096	64	4324
2026-01-06 05:13:26.82	262.55	5.88	-49.8	-51.3	14.1	0.00e+00	0	26	0	3977248768	64	4599
2026-01-06 05:13:30.82	262.31	5.61	-49.8	-51.2	14.1	0.00e+00	0	26	0	4000317440	64	4598
2026-01-06 05:13:34.85	262.07	5.34	-49.2	-50.6	14.4	0.00e+00	0	26	0	4022337536	64	4276
2026-01-06 05:13:38.87	261.84	5.07	-50.0	-51.6	14.0	0.00e+00	0	26	0	4045406208	65	4502
2026-01-06 05:13:42.88	261.62	4.80	-59.3	-72.4	3.8	8.45e-01	0	26	104	4051697664	83	17515
2026-01-06 05:13:46.89	261.39	4.54	-59.9	-73.0	3.8	8.45e-01	0	26	104	4051697664	84	17835
2026-01-06 05:13:50.89	261.18	4.28	-60.2	-73.4	3.8	8.46e-01	0	26	104	4051697664	85	17491
2026-01-06 05:13:54.89	260.96	4.02	-60.4	-73.5	3.8	8.45e-01	0	26	104	4051697664	85	17688
2026-01-06 05:13:58.90	260.75	3.76	-60.5	-73.6	3.8	8.45e-01	0	26	104	4051697664	86	16900
2026-01-06 05:14:02.93	260.54	3.51	-60.4	-73.5	3.8	8.45e-01	0	26	104	4051697664	86	16796
2026-01-06 05:14:06.94	260.34	3.26	-60.3	-73.4	3.8	8.46e-01	0	26	104	4051697664	86	16668
2026-01-06 05:14:10.95	260.14	3.00	-60.3	-73.4	3.8	8.45e-01	0	26	104	4051697664	86	16647
2026-01-06 05:14:14.96	259.95	2.76	-60.3	-73.4	3.8	8.45e-01	0	26	104	4051697664	86	16607
2026-01-06 05:14:18.98	259.75	2.51	-60.3	-73.4	3.8	8.45e-01	0	26	104	4051697664	86	16577
2026-01-06 05:14:22.99	259.57	2.26	-60.2	-73.4	3.8	8.46e-01	0	26	104	4051697664	86	16505
2026-01-06 05:14:26.99	259.38	2.02	-60.2	-73.3	3.8	8.46e-01	0	26	104	4051697664	86	16465

#Closed at: 2026-01-06 05:14:28
#Recorded file [4051 MB]: D:/lorett/data/31004_260106_080058.dat