passes_logs/2026/01/06/R3.2S_Murmansk/R3.2S_Murmansk__20260106_212051_NOAA_20_JPSS-1_rec.log

#Pass ID: 20260106_212051_NOAA 20 (JPSS-1)
#Satellite: NOAA 20 (JPSS-1)
#Configuration: NOAA 20
#almurnet v.1.7.20251203
#Start time: 2026-01-06 21:20:50

#Version: 2.2.20231116
#Station: R3.2S_Murmansk
#Location: 33.079688 lon 68.888172 lat
#TLE: 1 43013U 17073A   26006.30790171  .00000126  00000+0  80695-4 0  9991
#TLE: 2 43013  98.7629 307.3394 0001808  51.8724 308.2615 14.19533762421505

#Time	Az	El	Level	Level2	SNR	BER	BlckErr	Temp	State	Recorded	gain1	gain2
2026-01-06 21:20:50.75	18.35	1.97	-57.6	-73.6	3.8	1.49e+00	0	23	0	0	81	22663
2026-01-06 21:20:53.75	18.64	2.11	-57.6	-73.5	3.8	1.49e+00	0	23	104	0	80	23797
2026-01-06 21:20:56.76	18.94	2.25	-57.6	-73.6	3.8	1.49e+00	0	23	104	0	80	23877
2026-01-06 21:20:59.77	19.23	2.38	-57.6	-73.6	3.8	1.49e+00	0	23	104	0	80	23889
2026-01-06 21:21:02.78	19.53	2.52	-57.6	-73.6	3.8	1.49e+00	0	24	104	0	80	23932
2026-01-06 21:21:05.77	19.83	2.65	-57.6	-73.5	3.8	1.49e+00	0	24	104	0	80	23847
2026-01-06 21:21:08.78	20.13	2.79	-57.6	-73.6	3.8	1.49e+00	0	24	104	0	80	23955
2026-01-06 21:21:11.78	20.44	2.92	-57.6	-73.6	3.8	1.49e+00	0	24	104	0	80	24013
2026-01-06 21:21:14.77	20.74	3.06	-57.6	-73.6	3.8	1.49e+00	0	24	104	0	80	24076
2026-01-06 21:21:17.75	21.05	3.19	-57.6	-73.5	3.8	1.49e+00	0	24	104	0	80	23823
2026-01-06 21:21:20.75	21.37	3.33	-57.6	-73.5	3.8	1.49e+00	0	24	104	0	80	23821
2026-01-06 21:21:23.76	21.68	3.47	-57.6	-73.6	3.8	1.49e+00	0	24	104	0	80	24000
2026-01-06 21:21:26.75	22.00	3.60	-57.6	-73.5	3.8	1.49e+00	0	24	104	0	80	23808
2026-01-06 21:21:29.74	22.32	3.74	-57.6	-73.6	3.8	1.49e+00	0	24	104	0	80	24074
2026-01-06 21:21:32.74	22.65	3.87	-57.6	-73.4	3.8	1.49e+00	0	24	104	0	80	23433
2026-01-06 21:21:35.74	22.97	4.01	-57.6	-73.4	3.8	1.49e+00	0	24	104	0	80	23505
2026-01-06 21:21:38.75	23.30	4.14	-57.6	-73.4	3.8	1.49e+00	0	25	104	0	80	23495
2026-01-06 21:21:41.76	23.64	4.28	-57.6	-71.9	3.8	1.49e+00	0	24	104	0	80	19674
2026-01-06 21:21:44.76	23.97	4.41	-57.5	-71.2	3.9	1.48e+00	0	24	104	0	80	18194
2026-01-06 21:21:47.77	24.31	4.55	-57.0	-65.2	6.8	2.52e-01	0	24	0	3145728	80	9107
2026-01-06 21:21:50.76	24.66	4.68	-55.6	-60.3	10.8	3.13e-04	0	24	0	8388608	77	6182
2026-01-06 21:21:53.76	25.00	4.82	-54.8	-58.6	12.0	7.00e-07	0	24	0	13631488	75	5704
2026-01-06 21:21:56.76	25.35	4.95	-55.9	-61.1	10.2	6.38e-04	0	25	0	19922944	76	7173
2026-01-06 21:21:59.76	25.70	5.09	-57.0	-67.0	5.4	3.66e-02	0	25	0	25165824	79	11842
2026-01-06 21:22:02.77	26.05	5.22	-57.2	-66.1	6.3	6.49e-04	0	25	0	30408704	79	10724
2026-01-06 21:22:05.76	26.41	5.36	-53.5	-56.1	13.6	0.00e+00	0	25	0	36700160	73	4807
2026-01-06 21:22:08.76	26.77	5.49	-53.6	-56.3	13.5	0.00e+00	0	25	0	41943040	73	4881
2026-01-06 21:22:11.78	27.14	5.63	-53.6	-56.2	13.6	0.00e+00	0	25	0	47185920	73	4857
2026-01-06 21:22:14.76	27.50	5.76	-53.5	-56.0	13.7	0.00e+00	0	25	0	53477376	73	4755
2026-01-06 21:22:17.77	27.87	5.89	-53.5	-56.1	13.6	0.00e+00	0	25	0	58720256	73	4797
2026-01-06 21:22:20.76	28.25	6.02	-53.7	-56.3	13.6	0.00e+00	0	25	0	65011712	73	4925
2026-01-06 21:22:23.76	28.62	6.16	-53.3	-55.8	13.8	0.00e+00	0	25	0	70254592	73	4640
2026-01-06 21:22:26.76	29.00	6.29	-53.6	-56.2	13.6	0.00e+00	0	25	0	75497472	73	4868
2026-01-06 21:22:29.74	29.38	6.42	-53.5	-56.0	13.8	0.00e+00	0	25	0	81788928	73	4727
2026-01-06 21:22:32.75	29.77	6.55	-53.5	-56.1	13.7	0.00e+00	0	25	0	87031808	73	4797
2026-01-06 21:22:35.74	30.16	6.68	-53.4	-55.9	13.9	0.00e+00	0	25	0	92274688	73	4656
2026-01-06 21:22:38.73	30.55	6.81	-53.5	-56.1	13.8	0.00e+00	0	25	0	98566144	73	4760
2026-01-06 21:22:41.73	30.95	6.94	-53.6	-56.2	13.7	0.00e+00	0	25	0	103809024	73	4862
2026-01-06 21:22:44.73	31.35	7.07	-53.4	-55.9	13.9	0.00e+00	0	25	0	109051904	73	4659
2026-01-06 21:22:47.74	31.75	7.20	-53.3	-55.8	13.9	0.00e+00	0	25	0	115343360	73	4626
2026-01-06 21:22:50.73	32.16	7.33	-53.2	-55.6	14.0	0.00e+00	0	25	0	120586240	73	4531
2026-01-06 21:22:53.73	32.57	7.46	-53.3	-55.8	13.8	0.00e+00	0	25	0	125829120	72	4898
2026-01-06 21:22:56.75	32.99	7.59	-53.2	-55.6	13.9	0.00e+00	0	25	0	132120576	72	4791
2026-01-06 21:22:59.76	33.40	7.71	-53.4	-55.8	13.8	0.00e+00	0	25	0	137363456	72	4907
2026-01-06 21:23:02.75	33.82	7.84	-53.5	-56.0	13.7	0.00e+00	0	25	0	143654912	72	5036
2026-01-06 21:23:05.74	34.25	7.96	-53.5	-56.0	13.7	0.00e+00	0	25	0	148897792	72	4988
2026-01-06 21:23:08.76	34.68	8.09	-53.5	-56.0	13.7	0.00e+00	0	25	0	154140672	72	5026
2026-01-06 21:23:11.76	35.11	8.21	-53.4	-55.8	13.8	0.00e+00	0	25	0	160432128	72	4891
2026-01-06 21:23:14.77	35.55	8.34	-53.4	-55.8	13.8	0.00e+00	0	25	0	165675008	72	4917
2026-01-06 21:23:17.77	35.98	8.46	-53.4	-55.9	13.8	0.00e+00	0	25	0	171966464	72	4949
2026-01-06 21:23:20.78	36.43	8.58	-53.4	-55.9	13.8	0.00e+00	0	25	0	177209344	72	4950
2026-01-06 21:23:23.76	36.87	8.70	-53.6	-56.2	13.6	0.00e+00	0	25	0	182452224	72	5106
2026-01-06 21:23:26.75	37.32	8.82	-53.6	-56.1	13.7	0.00e+00	0	25	0	188743680	72	5075
2026-01-06 21:23:29.75	37.77	8.94	-53.4	-55.8	13.8	0.00e+00	0	25	0	193986560	72	4879
2026-01-06 21:23:32.74	38.23	9.06	-53.5	-56.0	13.7	0.00e+00	0	25	0	199229440	72	5021
2026-01-06 21:23:35.77	38.69	9.17	-53.6	-56.1	13.6	0.00e+00	0	25	0	205520896	72	5099
2026-01-06 21:23:38.78	39.16	9.29	-53.5	-56.0	13.7	0.00e+00	0	25	0	210763776	72	5009
2026-01-06 21:23:41.79	39.62	9.41	-53.5	-55.9	13.8	0.00e+00	0	25	0	216006656	72	4970
2026-01-06 21:23:44.80	40.10	9.52	-53.4	-55.8	13.8	0.00e+00	0	25	0	222298112	72	4892
2026-01-06 21:23:47.79	40.57	9.63	-53.6	-56.1	13.7	0.00e+00	0	25	0	227540992	72	5073
2026-01-06 21:23:50.80	41.05	9.74	-53.7	-56.2	13.6	0.00e+00	0	25	0	233832448	72	5119
2026-01-06 21:23:53.79	41.53	9.85	-53.6	-56.1	13.7	0.00e+00	0	25	0	239075328	72	5067
2026-01-06 21:23:56.81	42.02	9.96	-53.4	-55.9	13.8	0.00e+00	0	25	0	244318208	72	4939
2026-01-06 21:23:59.80	42.50	10.07	-53.3	-55.6	14.0	0.00e+00	0	25	0	250609664	72	4786
2026-01-06 21:24:02.79	42.99	10.17	-53.3	-55.6	14.0	0.00e+00	0	25	0	255852544	72	4779
2026-01-06 21:24:05.80	43.49	10.28	-53.3	-55.6	14.0	0.00e+00	0	25	0	261095424	72	4763
2026-01-06 21:24:08.80	43.99	10.38	-53.6	-56.1	13.6	0.00e+00	0	25	0	267386880	72	5095
2026-01-06 21:24:11.80	44.49	10.48	-53.6	-56.1	13.7	0.00e+00	0	25	0	272629760	72	5056
2026-01-06 21:24:14.80	44.99	10.58	-53.5	-56.0	13.8	0.00e+00	0	25	0	277872640	72	5008
2026-01-06 21:24:17.79	45.50	10.68	-53.5	-56.0	13.7	0.00e+00	0	25	0	284164096	72	4994
2026-01-06 21:24:20.80	46.02	10.78	-53.6	-56.0	13.8	0.00e+00	0	25	0	289406976	72	5020
2026-01-06 21:24:23.79	46.53	10.87	-53.7	-56.2	13.6	0.00e+00	0	25	0	295698432	72	5124
2026-01-06 21:24:26.77	47.04	10.97	-53.5	-55.9	13.8	0.00e+00	0	25	0	300941312	72	4980
2026-01-06 21:24:29.76	47.56	11.06	-53.5	-55.9	13.8	0.00e+00	0	25	0	306184192	72	4959
2026-01-06 21:24:32.77	48.09	11.15	-53.7	-56.3	13.6	0.00e+00	0	25	0	312475648	72	5161
2026-01-06 21:24:35.77	48.62	11.24	-53.8	-56.3	13.6	0.00e+00	0	25	0	317718528	72	5190
2026-01-06 21:24:38.76	49.15	11.32	-53.7	-56.1	13.7	0.00e+00	0	25	0	322961408	72	5092
2026-01-06 21:24:41.75	49.68	11.41	-53.3	-55.6	14.0	0.00e+00	0	25	0	329252864	72	4760
2026-01-06 21:24:44.75	50.22	11.49	-53.3	-55.5	14.0	0.00e+00	0	25	0	334495744	72	4750
2026-01-06 21:24:47.74	50.76	11.57	-53.4	-55.7	13.9	0.00e+00	0	25	0	339738624	72	4823
2026-01-06 21:24:50.74	51.30	11.65	-53.4	-55.8	13.9	0.00e+00	0	25	0	346030080	72	4903
2026-01-06 21:24:53.75	51.85	11.73	-53.3	-55.5	14.0	0.00e+00	0	25	0	351272960	72	4754
2026-01-06 21:24:56.77	52.40	11.80	-53.1	-55.3	14.2	0.00e+00	0	25	0	357564416	72	4610
2026-01-06 21:24:59.76	52.95	11.88	-52.9	-55.0	14.3	0.00e+00	0	25	0	362807296	72	4458
2026-01-06 21:25:02.75	53.50	11.95	-53.1	-55.2	14.2	0.00e+00	0	25	0	368050176	72	4595
2026-01-06 21:25:05.76	54.06	12.01	-53.4	-55.7	14.0	0.00e+00	0	25	0	374341632	72	4826
2026-01-06 21:25:08.75	54.61	12.08	-53.5	-55.9	13.8	0.00e+00	0	25	0	379584512	72	4940
2026-01-06 21:25:11.75	55.17	12.14	-53.4	-55.7	13.9	0.00e+00	0	25	0	384827392	72	4868
2026-01-06 21:25:14.75	55.74	12.20	-53.4	-55.7	13.9	0.00e+00	0	25	0	391118848	72	4858
2026-01-06 21:25:17.74	56.30	12.26	-53.6	-56.0	13.7	0.00e+00	0	25	0	396361728	72	5038
2026-01-06 21:25:20.74	56.87	12.32	-53.9	-56.5	13.5	0.00e+00	0	25	0	401604608	72	5313
2026-01-06 21:25:23.74	57.44	12.37	-54.0	-56.5	13.6	0.00e+00	0	25	0	407896064	73	5028
2026-01-06 21:25:26.76	58.02	12.43	-53.9	-56.4	13.7	0.00e+00	0	25	0	413138944	73	4938
2026-01-06 21:25:29.78	58.59	12.48	-53.7	-56.2	13.8	0.00e+00	0	25	0	419430400	73	4823
2026-01-06 21:25:32.78	59.17	12.52	-53.9	-56.4	13.7	0.00e+00	0	25	0	424673280	73	4948
2026-01-06 21:25:35.78	59.75	12.57	-54.0	-56.6	13.6	0.00e+00	0	25	0	429916160	73	5049
2026-01-06 21:25:38.78	60.33	12.61	-53.7	-56.2	13.7	0.00e+00	0	25	0	436207616	73	4846
2026-01-06 21:25:41.79	60.91	12.65	-53.5	-55.9	14.0	0.00e+00	0	25	0	441450496	73	4664
2026-01-06 21:25:44.78	61.49	12.68	-53.6	-56.0	13.9	0.00e+00	0	25	0	446693376	73	4722
2026-01-06 21:25:47.78	62.07	12.72	-53.6	-56.0	13.9	0.00e+00	0	25	0	452984832	73	4758
2026-01-06 21:25:50.77	62.66	12.75	-53.6	-55.9	13.9	0.00e+00	0	25	0	458227712	73	4688
2026-01-06 21:25:53.77	63.24	12.78	-53.3	-55.5	14.2	0.00e+00	0	26	0	463470592	73	4491
2026-01-06 21:25:56.77	63.83	12.80	-53.1	-55.3	14.2	0.00e+00	0	25	0	469762048	72	4631
2026-01-06 21:25:59.77	64.42	12.83	-53.3	-55.5	14.0	0.00e+00	0	25	0	475004928	72	4759
2026-01-06 21:26:02.77	65.01	12.85	-53.4	-55.7	13.9	0.00e+00	0	25	0	481296384	72	4832
2026-01-06 21:26:05.77	65.60	12.86	-53.2	-55.4	14.1	0.00e+00	0	25	0	486539264	72	4699
2026-01-06 21:26:08.77	66.19	12.88	-53.1	-55.4	14.1	0.00e+00	0	25	0	491782144	72	4658
2026-01-06 21:26:11.77	66.78	12.89	-52.9	-55.1	14.3	0.00e+00	0	25	0	498073600	72	4494
2026-01-06 21:26:14.77	67.37	12.90	-52.7	-54.8	14.5	0.00e+00	0	25	0	503316480	72	4356
2026-01-06 21:26:17.76	67.96	12.91	-52.5	-54.5	14.4	0.00e+00	0	25	0	508559360	71	4481
2026-01-06 21:26:20.75	68.55	12.91	-52.4	-54.4	14.5	0.00e+00	0	25	0	514850816	71	4407
2026-01-06 21:26:23.75	69.14	12.91	-52.7	-54.7	14.3	0.00e+00	0	25	0	520093696	71	4590
2026-01-06 21:26:26.76	69.73	12.91	-52.6	-54.7	14.3	0.00e+00	0	25	0	525336576	71	4570
2026-01-06 21:26:29.74	70.32	12.91	-52.3	-54.3	14.6	0.00e+00	0	25	0	531628032	71	4349
2026-01-06 21:26:32.73	70.91	12.90	-52.2	-54.1	14.6	0.00e+00	0	25	0	536870912	71	4281
2026-01-06 21:26:35.73	71.50	12.89	-52.2	-54.1	14.5	0.00e+00	0	25	0	542113792	70	4498
2026-01-06 21:26:38.73	72.10	12.88	-52.2	-54.1	14.5	0.00e+00	0	25	0	548405248	70	4507
2026-01-06 21:26:41.72	72.68	12.86	-52.3	-54.2	14.4	0.00e+00	0	25	0	553648128	70	4570
2026-01-06 21:26:44.71	73.27	12.84	-52.4	-54.4	14.3	0.00e+00	0	25	0	559939584	70	4699
2026-01-06 21:26:47.71	73.86	12.82	-52.5	-54.5	14.3	0.00e+00	0	25	0	565182464	70	4755
2026-01-06 21:26:50.73	74.45	12.80	-52.5	-54.5	14.3	0.00e+00	0	25	0	570425344	70	4756
2026-01-06 21:26:53.73	75.04	12.77	-52.3	-54.2	14.4	0.00e+00	0	25	0	576716800	70	4562
2026-01-06 21:26:56.73	75.63	12.74	-52.3	-54.3	14.4	0.00e+00	0	25	0	581959680	70	4607
2026-01-06 21:26:59.73	76.21	12.71	-52.5	-54.5	14.3	0.00e+00	0	25	0	587202560	70	4710
2026-01-06 21:27:02.72	76.80	12.68	-52.4	-54.4	14.4	0.00e+00	0	25	0	593494016	70	4668
2026-01-06 21:27:05.71	77.38	12.64	-52.6	-54.7	14.2	0.00e+00	0	25	0	598736896	70	4818
2026-01-06 21:27:08.71	77.96	12.60	-52.8	-55.0	14.1	0.00e+00	0	25	0	603979776	70	5009
2026-01-06 21:27:11.71	78.54	12.56	-53.0	-55.2	14.0	0.00e+00	0	25	0	610271232	71	4870
2026-01-06 21:27:14.72	79.12	12.52	-52.8	-54.9	14.3	0.00e+00	0	25	0	615514112	71	4657
2026-01-06 21:27:17.71	79.69	12.47	-52.5	-54.4	14.5	0.00e+00	0	25	0	621805568	71	4433
2026-01-06 21:27:20.70	80.26	12.42	-52.3	-54.2	14.6	0.00e+00	0	25	0	627048448	71	4327
2026-01-06 21:27:23.69	80.83	12.37	-52.0	-53.9	14.6	0.00e+00	0	25	0	632291328	70	4402
2026-01-06 21:27:26.68	81.40	12.31	-52.0	-53.9	14.6	0.00e+00	0	25	0	638582784	70	4396
2026-01-06 21:27:29.68	81.97	12.26	-52.2	-54.1	14.5	0.00e+00	0	25	0	643825664	70	4514
2026-01-06 21:27:32.67	82.54	12.20	-52.3	-54.3	14.4	0.00e+00	0	25	0	649068544	70	4637
2026-01-06 21:27:35.67	83.10	12.13	-52.3	-54.2	14.4	0.00e+00	0	25	0	655360000	70	4593
2026-01-06 21:27:38.67	83.66	12.07	-52.2	-54.1	14.5	0.00e+00	0	25	0	660602880	70	4528
2026-01-06 21:27:41.67	84.22	12.00	-52.1	-54.0	14.6	0.00e+00	0	25	0	665845760	70	4460
2026-01-06 21:27:44.67	84.78	11.94	-52.1	-54.1	14.5	0.00e+00	0	25	0	672137216	70	4500
2026-01-06 21:27:47.67	85.33	11.86	-52.1	-54.1	14.5	0.00e+00	0	25	0	677380096	70	4502
2026-01-06 21:27:50.67	85.89	11.79	-52.2	-54.2	14.5	0.00e+00	0	25	0	682622976	70	4547
2026-01-06 21:27:53.67	86.44	11.72	-52.1	-54.0	14.6	0.00e+00	0	25	0	688914432	70	4450
2026-01-06 21:27:56.65	86.98	11.64	-52.0	-53.9	14.6	0.00e+00	0	25	0	694157312	70	4406
2026-01-06 21:27:59.65	87.52	11.56	-52.1	-54.0	14.5	0.00e+00	0	25	0	699400192	70	4466
2026-01-06 21:28:02.65	88.06	11.48	-52.1	-54.0	14.5	0.00e+00	0	25	0	705691648	70	4474
2026-01-06 21:28:05.65	88.60	11.40	-52.1	-54.0	14.5	0.00e+00	0	25	0	710934528	70	4483
2026-01-06 21:28:08.64	89.14	11.31	-52.3	-54.2	14.4	0.00e+00	0	25	0	717225984	70	4590
2026-01-06 21:28:11.65	89.67	11.22	-52.4	-54.4	14.3	0.00e+00	0	25	0	722468864	70	4690
2026-01-06 21:28:14.65	90.20	11.13	-52.7	-54.9	14.1	0.00e+00	0	25	0	727711744	70	4930
2026-01-06 21:28:17.64	90.72	11.04	-52.9	-55.1	14.0	0.00e+00	0	25	0	734003200	70	5085
2026-01-06 21:28:20.64	91.24	10.95	-53.2	-55.5	13.9	0.00e+00	0	25	0	739246080	71	5036
2026-01-06 21:28:23.63	91.76	10.86	-53.5	-56.0	13.7	0.00e+00	0	25	0	744488960	72	4999
2026-01-06 21:28:26.63	92.28	10.76	-53.5	-55.9	13.7	0.00e+00	0	25	0	750780416	72	4968
2026-01-06 21:28:29.61	92.79	10.66	-53.4	-55.8	13.8	0.00e+00	0	25	0	756023296	72	4882
2026-01-06 21:28:32.60	93.30	10.57	-53.5	-55.9	13.7	0.00e+00	0	25	0	761266176	72	4976
2026-01-06 21:28:35.61	93.80	10.46	-53.9	-56.6	13.4	0.00e+00	0	25	0	767557632	72	5348
2026-01-06 21:28:38.61	94.31	10.36	-54.0	-56.7	13.3	0.00e+00	0	25	0	772800512	73	5154
2026-01-06 21:28:41.61	94.81	10.26	-54.5	-57.5	13.0	0.00e+00	0	25	0	779091968	74	5303
2026-01-06 21:28:44.62	95.31	10.15	-54.9	-58.2	12.6	0.00e+00	0	25	0	784334848	74	5744
2026-01-06 21:28:47.60	95.79	10.05	-54.9	-58.2	12.7	0.00e+00	0	25	0	789577728	75	5413
2026-01-06 21:28:50.61	96.29	9.94	-54.5	-57.6	13.1	0.00e+00	0	25	0	795869184	75	5049
2026-01-06 21:28:53.61	96.77	9.83	-54.3	-57.2	13.3	0.00e+00	0	25	0	801112064	75	4861
2026-01-06 21:28:56.60	97.25	9.72	-54.3	-57.2	13.3	0.00e+00	0	25	0	806354944	75	4830
2026-01-06 21:28:59.61	97.73	9.61	-54.4	-57.3	13.2	0.00e+00	0	25	0	812646400	75	4918
2026-01-06 21:29:02.61	98.21	9.49	-54.6	-57.8	12.9	0.00e+00	0	25	0	817889280	75	5160
2026-01-06 21:29:05.61	98.68	9.38	-54.9	-58.3	12.6	7.00e-07	0	25	0	824180736	75	5486
2026-01-06 21:29:08.61	99.15	9.26	-54.7	-57.8	12.9	0.00e+00	0	25	0	829423616	75	5189
2026-01-06 21:29:11.60	99.61	9.15	-54.1	-56.8	13.4	0.00e+00	0	25	0	834666496	74	4887
2026-01-06 21:29:14.61	100.07	9.03	-54.2	-57.1	13.3	0.00e+00	0	25	0	840957952	74	5066
2026-01-06 21:29:17.60	100.53	8.91	-54.3	-57.2	13.2	0.00e+00	0	25	0	846200832	74	5101
2026-01-06 21:29:20.61	100.98	8.79	-54.0	-56.7	13.4	0.00e+00	0	25	0	851443712	74	4867
2026-01-06 21:29:23.62	101.44	8.67	-53.5	-56.1	13.7	0.00e+00	0	25	0	857735168	73	4761
2026-01-06 21:29:26.63	101.88	8.55	-53.7	-56.3	13.5	0.00e+00	0	25	0	862978048	73	4925
2026-01-06 21:29:29.62	102.33	8.42	-53.8	-56.5	13.5	0.00e+00	0	26	0	868220928	73	5023
2026-01-06 21:29:32.62	102.76	8.30	-53.9	-56.6	13.4	0.00e+00	0	25	0	874512384	73	5064
2026-01-06 21:29:35.63	103.20	8.18	-53.8	-56.5	13.5	0.00e+00	0	25	0	879755264	73	4993
2026-01-06 21:29:38.63	103.63	8.05	-53.8	-56.5	13.5	0.00e+00	0	25	0	886046720	73	5006
2026-01-06 21:29:41.62	104.06	7.93	-53.7	-56.4	13.5	0.00e+00	0	25	0	891289600	73	4958
2026-01-06 21:29:44.62	104.49	7.80	-53.3	-55.7	13.9	0.00e+00	0	25	0	896532480	73	4575
2026-01-06 21:29:47.63	104.91	7.67	-53.2	-55.5	13.9	0.00e+00	0	25	0	902823936	72	4737
2026-01-06 21:29:50.63	105.33	7.54	-53.2	-55.6	13.8	0.00e+00	0	25	0	908066816	72	4774
2026-01-06 21:29:53.63	105.74	7.42	-53.4	-56.0	13.6	0.00e+00	0	25	0	913309696	72	4990
2026-01-06 21:29:56.63	106.15	7.29	-53.4	-55.9	13.7	0.00e+00	0	25	0	919601152	72	4934
2026-01-06 21:29:59.64	106.56	7.16	-53.0	-55.3	14.0	0.00e+00	0	25	0	924844032	72	4619
2026-01-06 21:30:02.63	106.97	7.03	-53.2	-55.6	13.8	0.00e+00	0	25	0	930086912	72	4773
2026-01-06 21:30:05.62	107.36	6.90	-53.4	-56.0	13.6	0.00e+00	0	25	0	936378368	72	4991
2026-01-06 21:30:08.62	107.76	6.77	-53.4	-55.9	13.6	0.00e+00	0	25	0	941621248	72	4960
2026-01-06 21:30:11.63	108.16	6.63	-53.2	-55.7	13.8	0.00e+00	0	25	0	947912704	72	4821
2026-01-06 21:30:14.64	108.55	6.50	-53.1	-55.5	13.8	0.00e+00	0	25	0	953155584	72	4756
2026-01-06 21:30:17.65	108.94	6.37	-53.1	-55.5	13.9	0.00e+00	0	25	0	958398464	72	4711
2026-01-06 21:30:20.66	109.32	6.24	-53.5	-56.1	13.5	0.00e+00	0	25	0	964689920	72	5047
2026-01-06 21:30:23.65	109.70	6.10	-53.1	-55.5	13.8	0.00e+00	0	26	0	969932800	72	4748
2026-01-06 21:30:26.65	110.08	5.97	-53.2	-55.7	13.7	0.00e+00	0	25	0	975175680	72	4821
2026-01-06 21:30:29.63	110.45	5.84	-53.3	-55.8	13.6	0.00e+00	0	25	0	981467136	72	4924
2026-01-06 21:30:32.62	110.82	5.70	-53.4	-56.1	13.5	0.00e+00	0	26	0	986710016	72	5047
2026-01-06 21:30:35.61	111.18	5.57	-53.4	-56.0	13.5	0.00e+00	0	25	0	991952896	72	5033
2026-01-06 21:30:38.61	111.55	5.43	-53.5	-56.2	13.4	0.00e+00	0	26	0	998244352	72	5150
2026-01-06 21:30:41.61	111.91	5.30	-53.6	-56.4	13.3	0.00e+00	0	25	0	1003487232	72	5236
2026-01-06 21:30:44.62	112.27	5.16	-53.3	-55.9	13.5	0.00e+00	0	26	0	1009778688	72	4955
2026-01-06 21:30:47.62	112.62	5.03	-53.7	-56.6	13.1	0.00e+00	0	26	0	1015021568	72	5381
2026-01-06 21:30:50.61	112.97	4.89	-58.7	-74.7	3.8	1.49e+00	0	25	104	1017118720	82	24270
2026-01-06 21:30:53.61	113.32	4.76	-59.2	-75.3	3.8	1.49e+00	0	25	104	1017118720	83	24473
2026-01-06 21:30:56.61	113.67	4.62	-59.4	-75.5	3.8	1.49e+00	0	26	104	1017118720	83	25112
2026-01-06 21:30:59.63	114.01	4.48	-59.7	-75.8	3.8	1.49e+00	0	26	104	1017118720	84	24506
2026-01-06 21:31:02.62	114.35	4.35	-59.8	-75.9	3.8	1.49e+00	0	25	104	1017118720	84	24805
2026-01-06 21:31:05.63	114.68	4.21	-59.9	-76.0	3.8	1.49e+00	0	25	104	1017118720	84	25038
2026-01-06 21:31:08.62	115.02	4.07	-60.0	-76.1	3.8	1.49e+00	0	26	104	1017118720	85	23983
2026-01-06 21:31:11.62	115.35	3.94	-60.1	-76.2	3.8	1.49e+00	0	26	104	1017118720	85	24207
2026-01-06 21:31:14.64	115.68	3.80	-60.1	-76.3	3.8	1.49e+00	0	26	104	1017118720	85	24428
2026-01-06 21:31:17.63	116.00	3.66	-60.2	-76.3	3.8	1.49e+00	0	26	104	1017118720	85	24486
2026-01-06 21:31:20.63	116.32	3.53	-60.2	-76.3	3.8	1.49e+00	0	26	104	1017118720	85	24413
2026-01-06 21:31:23.64	116.64	3.39	-60.1	-76.2	3.8	1.49e+00	0	26	104	1017118720	85	24244
2026-01-06 21:31:26.64	116.96	3.25	-60.1	-76.2	3.8	1.49e+00	0	26	104	1017118720	85	24239
2026-01-06 21:31:29.63	117.27	3.12	-60.1	-76.2	3.8	1.49e+00	0	26	104	1017118720	85	24161
2026-01-06 21:31:32.62	117.58	2.98	-60.1	-76.2	3.8	1.49e+00	0	26	104	1017118720	85	24173
2026-01-06 21:31:35.61	117.88	2.84	-60.1	-76.2	3.8	1.49e+00	0	26	104	1017118720	85	24146
2026-01-06 21:31:38.61	118.19	2.71	-60.1	-76.1	3.8	1.49e+00	0	26	104	1017118720	85	24052
2026-01-06 21:31:41.60	118.49	2.57	-60.1	-76.1	3.8	1.49e+00	0	26	104	1017118720	85	24125
2026-01-06 21:31:44.61	118.79	2.43	-60.0	-76.1	3.8	1.49e+00	0	26	104	1017118720	85	24065
2026-01-06 21:31:47.61	119.09	2.30	-60.0	-76.1	3.8	1.49e+00	0	26	104	1017118720	85	24063
2026-01-06 21:31:50.61	119.38	2.16	-60.0	-76.1	3.8	1.49e+00	0	26	104	1017118720	85	24043
2026-01-06 21:31:53.62	119.67	2.02	-60.0	-76.1	3.8	1.49e+00	0	26	104	1017118720	85	24034

#Closed at: 2026-01-06 21:31:55
#Recorded file [1017 MB]: D:/lorett/data/31004_260107_002050.dat