passes_logs/2026/01/06/R3.2S_Murmansk/R3.2S_Murmansk__20260106_131905_FENGYUN_3D_rec.log

#Pass ID: 20260106_131905_FENGYUN 3D
#Satellite: FENGYUN 3D
#Configuration: FENGYUN 3D
#almurnet v.1.7.20251203
#Start time: 2026-01-06 13:19:06

#Version: 2.2.20231116
#Station: R3.2S_Murmansk
#Location: 33.079688 lon 68.888172 lat
#TLE: 1 43010U 17072A   26005.48915933 -.00000051  00000+0 -21983-5 0  9995
#TLE: 2 43010  98.9919 337.1582 0002001 124.6377 235.4988 14.19691925421909

#Time	Az	El	Level	Level2	SNR	BER	BlckErr	Temp	State	Recorded	gain1	gain2
2026-01-06 13:19:06.84	195.75	2.11	-58.7	-71.5	3.8	8.44e-01	0	26	0	0	84	15049
2026-01-06 13:19:10.83	195.97	2.34	-58.5	-71.5	3.8	8.44e-01	0	26	104	0	82	16713
2026-01-06 13:19:14.84	196.19	2.58	-58.5	-71.5	3.8	8.45e-01	0	26	104	0	82	16772
2026-01-06 13:19:18.84	196.41	2.83	-58.5	-71.5	3.8	8.45e-01	0	26	104	0	82	16724
2026-01-06 13:19:22.85	196.64	3.07	-58.5	-71.2	3.8	8.45e-01	0	26	104	0	82	16265
2026-01-06 13:19:26.87	196.87	3.32	-58.5	-71.4	3.8	8.45e-01	0	26	104	0	82	16575
2026-01-06 13:19:30.88	197.11	3.56	-58.5	-71.0	3.8	8.45e-01	0	26	104	0	82	15937
2026-01-06 13:19:34.85	197.34	3.81	-58.5	-71.5	3.8	8.46e-01	0	26	104	0	82	16820
2026-01-06 13:19:38.85	197.58	4.06	-58.3	-69.1	4.0	8.44e-01	0	27	104	0	82	12707
2026-01-06 13:19:42.83	197.83	4.31	-57.5	-63.9	6.2	2.99e-01	0	27	0	6291456	81	7448
2026-01-06 13:19:46.83	198.08	4.57	-56.7	-61.6	8.0	5.85e-02	0	27	0	28311552	80	6022
2026-01-06 13:19:50.82	198.33	4.83	-54.4	-57.3	11.4	4.11e-05	0	27	0	50331648	75	4876
2026-01-06 13:19:54.82	198.59	5.09	-52.9	-55.1	12.6	0.00e+00	0	27	0	73400320	71	4774
2026-01-06 13:19:58.81	198.85	5.35	-50.1	-51.7	14.1	0.00e+00	0	27	0	90177536	66	4302
2026-01-06 13:20:02.82	199.12	5.61	-50.1	-51.7	14.1	0.00e+00	0	27	0	112197632	66	4310
2026-01-06 13:20:06.81	199.39	5.87	-49.7	-51.3	14.3	0.00e+00	0	27	0	135266304	66	4121
2026-01-06 13:20:10.80	199.67	6.14	-49.9	-51.5	14.1	0.00e+00	0	27	0	157286400	65	4485
2026-01-06 13:20:14.81	199.95	6.41	-50.0	-51.6	14.0	0.00e+00	0	27	0	180355072	65	4530
2026-01-06 13:20:18.81	200.23	6.68	-49.8	-51.3	14.2	0.00e+00	0	27	0	202375168	65	4380
2026-01-06 13:20:22.79	200.52	6.96	-57.7	-64.8	5.6	5.94e-01	0	27	0	223346688	81	8219
2026-01-06 13:20:26.79	200.82	7.23	-57.6	-64.3	6.0	3.50e-01	0	27	0	243269632	81	7759
2026-01-06 13:20:30.78	201.12	7.51	-58.6	-69.8	3.9	8.45e-01	0	27	104	255852544	82	13869
2026-01-06 13:20:34.76	201.43	7.79	-57.7	-64.3	6.0	2.92e-01	0	27	0	274726912	81	7776
2026-01-06 13:20:38.74	201.74	8.08	-56.8	-61.4	8.4	2.69e-02	0	27	0	297795584	80	5896
2026-01-06 13:20:42.73	202.06	8.36	-56.3	-60.3	9.4	7.19e-03	0	28	0	319815680	79	5507
2026-01-06 13:20:46.73	202.38	8.65	-55.7	-59.1	10.4	1.58e-03	0	28	0	342884352	78	5071
2026-01-06 13:20:50.72	202.71	8.94	-52.2	-54.0	13.5	0.00e+00	0	28	0	364904448	71	4219
2026-01-06 13:20:54.71	203.05	9.23	-49.2	-50.6	14.6	0.00e+00	0	28	0	387973120	65	4013
2026-01-06 13:20:58.70	203.39	9.53	-48.8	-50.1	14.7	0.00e+00	0	28	0	409993216	64	4023
2026-01-06 13:21:02.69	203.74	9.83	-48.7	-50.0	14.6	0.00e+00	0	28	0	432013312	63	4222
2026-01-06 13:21:06.70	204.10	10.13	-48.4	-49.6	14.8	0.00e+00	0	28	0	455081984	63	4037
2026-01-06 13:21:10.69	204.46	10.44	-48.5	-49.7	14.8	0.00e+00	0	28	0	477102080	63	4091
2026-01-06 13:21:14.68	204.84	10.75	-48.3	-49.5	14.9	0.00e+00	0	28	0	500170752	63	3979
2026-01-06 13:21:18.67	205.21	11.06	-48.2	-49.4	14.8	0.00e+00	0	28	0	522190848	62	4169
2026-01-06 13:21:22.69	205.60	11.37	-48.1	-49.3	14.8	0.00e+00	0	28	0	545259520	62	4106
2026-01-06 13:21:26.69	206.00	11.69	-48.0	-49.2	14.9	0.00e+00	0	28	0	567279616	62	4053
2026-01-06 13:21:30.71	206.41	12.01	-47.9	-49.1	14.9	0.00e+00	0	28	0	590348288	62	4016
2026-01-06 13:21:34.70	206.82	12.33	-47.9	-49.1	14.9	0.00e+00	0	28	0	612368384	62	4006
2026-01-06 13:21:38.69	207.24	12.65	-47.9	-49.0	14.9	0.00e+00	0	28	0	635437056	62	3999
2026-01-06 13:21:42.70	207.67	12.98	-47.9	-49.1	14.9	0.00e+00	0	28	0	657457152	62	4022
2026-01-06 13:21:46.68	208.11	13.31	-47.8	-49.0	14.9	0.00e+00	0	28	0	679477248	62	3989
2026-01-06 13:21:50.65	208.55	13.65	-47.8	-49.0	15.0	0.00e+00	0	28	0	702545920	62	3989
2026-01-06 13:21:54.66	209.01	13.98	-47.5	-48.7	14.9	0.00e+00	0	28	0	724566016	61	4072
2026-01-06 13:21:58.65	209.48	14.32	-47.6	-48.7	14.9	0.00e+00	0	28	0	747634688	61	4086
2026-01-06 13:22:02.65	209.96	14.67	-47.4	-48.5	15.0	0.00e+00	0	28	0	769654784	61	4002
2026-01-06 13:22:06.64	210.45	15.01	-47.4	-48.5	15.0	0.00e+00	0	28	0	791674880	61	3990
2026-01-06 13:22:10.65	210.95	15.36	-47.4	-48.5	15.0	0.00e+00	0	28	0	814743552	61	3994
2026-01-06 13:22:14.64	211.46	15.72	-47.5	-48.6	15.0	0.00e+00	0	28	0	836763648	61	4032
2026-01-06 13:22:18.65	211.99	16.07	-47.2	-48.4	14.9	0.00e+00	0	28	0	859832320	60	4154
2026-01-06 13:22:22.64	212.53	16.43	-47.0	-48.1	15.0	0.00e+00	0	28	0	881852416	60	4031
2026-01-06 13:22:26.64	213.08	16.79	-47.1	-48.2	15.0	0.00e+00	0	28	0	904921088	60	4076
2026-01-06 13:22:30.64	213.64	17.16	-47.1	-48.2	15.0	0.00e+00	0	28	0	926941184	60	4086
2026-01-06 13:22:34.64	214.22	17.52	-47.1	-48.2	15.0	0.00e+00	0	28	0	950009856	60	4063
2026-01-06 13:22:38.61	214.80	17.89	-47.0	-48.1	15.0	0.00e+00	0	28	0	972029952	60	4026
2026-01-06 13:22:42.61	215.40	18.26	-46.9	-48.0	15.1	0.00e+00	0	28	0	994050048	60	3985
2026-01-06 13:22:46.61	216.02	18.64	-46.9	-48.0	15.0	0.00e+00	0	28	0	1017118720	59	4205
2026-01-06 13:22:50.60	216.66	19.02	-46.9	-48.1	15.0	0.00e+00	0	28	0	1039138816	59	4249
2026-01-06 13:22:54.59	217.30	19.39	-46.9	-48.0	15.0	0.00e+00	0	28	0	1062207488	59	4227
2026-01-06 13:22:58.59	217.97	19.78	-46.8	-47.9	15.0	0.00e+00	0	28	0	1084227584	59	4162
2026-01-06 13:23:02.58	218.65	20.16	-46.9	-48.0	15.0	0.00e+00	0	28	0	1106247680	59	4224
2026-01-06 13:23:06.58	219.34	20.55	-46.8	-47.9	15.0	0.00e+00	0	28	0	1129316352	59	4173
2026-01-06 13:23:10.58	220.06	20.93	-46.7	-47.8	15.1	0.00e+00	0	28	0	1151336448	59	4112
2026-01-06 13:23:14.58	220.79	21.32	-46.7	-47.8	15.1	0.00e+00	0	28	0	1174405120	59	4105
2026-01-06 13:23:18.57	221.54	21.71	-46.6	-47.7	15.1	0.00e+00	0	28	0	1196425216	59	4077
2026-01-06 13:23:22.56	222.31	22.10	-46.4	-47.5	15.2	0.00e+00	0	28	0	1219493888	59	3988
2026-01-06 13:23:26.55	223.09	22.50	-46.2	-47.3	15.1	0.00e+00	0	28	0	1241513984	58	4099
2026-01-06 13:23:30.53	223.90	22.89	-46.3	-47.4	15.1	0.00e+00	0	28	0	1263534080	58	4162
2026-01-06 13:23:34.52	224.73	23.28	-46.2	-47.3	15.1	0.00e+00	0	28	0	1286602752	58	4110
2026-01-06 13:23:38.53	225.58	23.67	-46.1	-47.2	15.2	0.00e+00	0	28	0	1308622848	58	4064
2026-01-06 13:23:42.51	226.44	24.06	-46.0	-47.1	15.2	0.00e+00	0	28	0	1331691520	58	4012
2026-01-06 13:23:46.50	227.33	24.45	-45.9	-47.0	15.2	0.00e+00	0	28	0	1353711616	58	3979
2026-01-06 13:23:50.50	228.24	24.84	-45.8	-46.9	15.2	0.00e+00	0	28	0	1376780288	58	3942
2026-01-06 13:23:54.49	229.17	25.23	-45.8	-46.8	15.3	0.00e+00	0	28	0	1398800384	58	3899
2026-01-06 13:23:58.49	230.13	25.62	-46.0	-47.0	15.2	0.00e+00	0	28	0	1420820480	58	3994
2026-01-06 13:24:02.48	231.11	26.00	-45.5	-46.5	15.2	0.00e+00	0	28	0	1443889152	57	3983
2026-01-06 13:24:06.49	232.12	26.38	-45.9	-47.0	15.1	0.00e+00	0	28	0	1465909248	57	4222
2026-01-06 13:24:10.49	233.14	26.75	-45.4	-46.5	15.2	0.00e+00	0	28	0	1488977920	57	3973
2026-01-06 13:24:14.50	234.20	27.12	-45.4	-46.4	15.3	0.00e+00	0	28	0	1510998016	57	3952
2026-01-06 13:24:18.50	235.27	27.49	-45.4	-46.4	15.3	0.00e+00	0	28	0	1534066688	57	3945
2026-01-06 13:24:22.48	236.37	27.84	-45.4	-46.5	15.3	0.00e+00	0	28	0	1556086784	57	3959
2026-01-06 13:24:26.47	237.49	28.19	-45.3	-46.3	15.3	0.00e+00	0	28	0	1578106880	57	3883
2026-01-06 13:24:30.46	238.63	28.54	-45.5	-46.6	15.2	0.00e+00	0	28	0	1601175552	57	4025
2026-01-06 13:24:34.45	239.80	28.87	-45.3	-46.3	15.3	0.00e+00	0	28	0	1623195648	57	3909
2026-01-06 13:24:38.45	240.99	29.20	-45.2	-46.2	15.2	0.00e+00	0	28	0	1646264320	56	4077
2026-01-06 13:24:42.44	242.21	29.52	-45.6	-46.7	15.1	0.00e+00	0	28	0	1668284416	56	4314
2026-01-06 13:24:46.43	243.45	29.82	-45.4	-46.5	15.1	0.00e+00	0	28	0	1690304512	56	4207
2026-01-06 13:24:50.42	244.71	30.12	-45.6	-46.6	15.1	0.00e+00	0	28	0	1713373184	56	4289
2026-01-06 13:24:54.41	245.99	30.40	-45.3	-46.4	15.1	0.00e+00	0	28	0	1735393280	56	4162
2026-01-06 13:24:58.40	247.30	30.67	-45.1	-46.2	15.2	0.00e+00	0	28	0	1758461952	56	4053
2026-01-06 13:25:02.39	248.62	30.92	-45.5	-46.5	15.1	0.00e+00	0	28	0	1780482048	56	4230
2026-01-06 13:25:06.38	249.97	31.16	-45.3	-46.4	15.1	0.00e+00	0	28	0	1802502144	56	4158
2026-01-06 13:25:10.38	251.34	31.39	-45.5	-46.5	15.1	0.00e+00	0	28	0	1825570816	56	4237
2026-01-06 13:25:14.37	252.72	31.60	-45.4	-46.5	15.1	0.00e+00	0	28	0	1847590912	56	4210
2026-01-06 13:25:18.37	254.12	31.79	-45.5	-46.5	15.1	0.00e+00	0	28	0	1870659584	56	4236
2026-01-06 13:25:22.37	255.54	31.96	-45.1	-46.1	15.2	0.00e+00	0	28	0	1892679680	56	4018
2026-01-06 13:25:26.36	256.97	32.12	-45.5	-46.5	15.1	0.00e+00	0	28	0	1915748352	56	4220
2026-01-06 13:25:30.37	258.42	32.26	-45.6	-46.6	15.1	0.00e+00	0	28	0	1937768448	56	4288
2026-01-06 13:25:34.37	259.88	32.37	-45.6	-46.7	15.1	0.00e+00	0	28	0	1960837120	56	4292
2026-01-06 13:25:38.36	261.34	32.47	-45.5	-46.5	15.1	0.00e+00	0	28	0	1982857216	56	4232
2026-01-06 13:25:42.35	262.81	32.55	-45.2	-46.3	15.2	0.00e+00	0	28	0	2005925888	56	4099
2026-01-06 13:25:46.36	264.30	32.61	-45.3	-46.3	15.2	0.00e+00	0	28	0	2027945984	56	4131
2026-01-06 13:25:50.34	265.77	32.64	-45.6	-46.6	15.1	0.00e+00	0	29	0	2051014656	56	4291
2026-01-06 13:25:54.34	267.26	32.66	-45.5	-46.6	15.1	0.00e+00	0	28	0	2073034752	56	4259
2026-01-06 13:25:58.34	268.75	32.65	-45.4	-46.4	15.1	0.00e+00	0	28	0	2095054848	56	4192
2026-01-06 13:26:02.33	270.23	32.63	-45.5	-46.5	15.1	0.00e+00	0	28	0	2118123520	56	4231
2026-01-06 13:26:06.31	271.70	32.58	-45.6	-46.6	15.1	0.00e+00	0	28	0	2140143616	56	4281
2026-01-06 13:26:10.29	273.17	32.51	-45.7	-46.7	15.1	0.00e+00	0	28	0	2163212288	56	4329
2026-01-06 13:26:14.30	274.65	32.42	-45.7	-46.8	15.1	0.00e+00	0	28	0	2185232384	56	4349
2026-01-06 13:26:18.29	276.10	32.32	-45.5	-46.5	15.1	0.00e+00	0	28	0	2207252480	56	4232
2026-01-06 13:26:22.27	277.55	32.19	-45.4	-46.5	15.1	0.00e+00	0	28	0	2230321152	56	4212
2026-01-06 13:26:26.25	278.98	32.04	-45.8	-46.9	15.1	0.00e+00	0	28	0	2252341248	56	4412
2026-01-06 13:26:30.25	280.40	31.88	-45.7	-46.8	15.1	0.00e+00	0	28	0	2275409920	56	4343
2026-01-06 13:26:34.24	281.81	31.70	-45.8	-46.8	15.1	0.00e+00	0	28	0	2297430016	56	4378
2026-01-06 13:26:38.25	283.21	31.50	-45.6	-46.7	15.1	0.00e+00	0	28	0	2319450112	56	4299
2026-01-06 13:26:42.23	284.57	31.28	-45.6	-46.7	15.1	0.00e+00	0	28	0	2342518784	56	4306
2026-01-06 13:26:46.23	285.93	31.05	-45.9	-46.9	15.0	0.00e+00	0	28	0	2364538880	56	4437
2026-01-06 13:26:50.22	287.27	30.80	-46.0	-47.1	15.1	0.00e+00	0	28	0	2387607552	57	4260
2026-01-06 13:26:54.18	288.57	30.54	-45.8	-46.8	15.1	0.00e+00	0	28	0	2409627648	57	4119
2026-01-06 13:26:58.17	289.86	30.27	-45.9	-47.0	15.1	0.00e+00	0	28	0	2431647744	57	4220
2026-01-06 13:27:02.15	291.13	29.98	-45.8	-46.9	15.1	0.00e+00	0	28	0	2454716416	57	4164
2026-01-06 13:27:06.15	292.38	29.68	-46.0	-47.1	15.1	0.00e+00	0	28	0	2476736512	57	4275
2026-01-06 13:27:10.15	293.61	29.37	-45.9	-47.0	15.1	0.00e+00	0	28	0	2499805184	57	4199
2026-01-06 13:27:14.15	294.81	29.05	-45.9	-47.0	15.1	0.00e+00	0	28	0	2521825280	57	4195
2026-01-06 13:27:18.15	295.99	28.72	-45.9	-46.9	15.1	0.00e+00	0	28	0	2543845376	57	4175
2026-01-06 13:27:22.13	297.14	28.38	-46.0	-47.1	15.1	0.00e+00	0	28	0	2566914048	57	4252
2026-01-06 13:27:26.14	298.28	28.04	-46.0	-47.1	15.1	0.00e+00	0	28	0	2588934144	57	4276
2026-01-06 13:27:30.13	299.38	27.68	-45.9	-47.0	15.1	0.00e+00	0	28	0	2612002816	57	4210
2026-01-06 13:27:34.13	300.47	27.32	-46.1	-47.2	15.1	0.00e+00	0	28	0	2634022912	57	4298
2026-01-06 13:27:38.14	301.53	26.96	-46.3	-47.4	15.0	0.00e+00	0	28	0	2657091584	57	4400
2026-01-06 13:27:42.12	302.56	26.59	-46.1	-47.1	15.0	0.00e+00	0	28	0	2679111680	57	4284
2026-01-06 13:27:46.10	303.57	26.21	-46.4	-47.5	15.0	0.00e+00	0	28	0	2701131776	57	4451
2026-01-06 13:27:50.07	304.55	25.84	-46.1	-47.1	15.0	0.00e+00	0	28	0	2724200448	57	4284
2026-01-06 13:27:54.06	305.52	25.46	-46.0	-47.1	15.1	0.00e+00	0	28	0	2746220544	57	4247
2026-01-06 13:27:58.06	306.46	25.07	-46.2	-47.3	15.0	0.00e+00	0	28	0	2769289216	57	4353
2026-01-06 13:28:02.05	307.38	24.69	-46.5	-47.5	15.0	0.00e+00	0	28	0	2791309312	58	4240
2026-01-06 13:28:06.05	308.28	24.30	-46.4	-47.5	15.0	0.00e+00	0	28	0	2813329408	58	4219
2026-01-06 13:28:10.04	309.16	23.91	-46.4	-47.5	15.0	0.00e+00	0	28	0	2836398080	58	4232
2026-01-06 13:28:14.04	310.01	23.52	-46.5	-47.6	15.0	0.00e+00	0	28	0	2858418176	58	4262
2026-01-06 13:28:18.04	310.85	23.13	-46.3	-47.3	15.1	0.00e+00	0	28	0	2881486848	58	4137
2026-01-06 13:28:22.03	311.67	22.74	-46.4	-47.5	15.0	0.00e+00	0	28	0	2903506944	58	4227
2026-01-06 13:28:26.03	312.46	22.35	-46.8	-47.9	15.0	0.00e+00	0	28	0	2925527040	58	4440
2026-01-06 13:28:30.02	313.24	21.96	-46.9	-48.0	15.0	0.00e+00	0	28	0	2948595712	59	4208
2026-01-06 13:28:34.02	314.00	21.57	-46.8	-47.8	15.0	0.00e+00	0	28	0	2970615808	59	4140
2026-01-06 13:28:38.00	314.73	21.18	-47.1	-48.2	14.9	0.00e+00	0	28	0	2993684480	59	4315
2026-01-06 13:28:41.99	315.46	20.80	-47.0	-48.1	15.1	0.00e+00	0	28	0	3015704576	60	4039
2026-01-06 13:28:45.98	316.16	20.41	-46.9	-48.0	15.1	0.00e+00	0	28	0	3038773248	60	3993
2026-01-06 13:28:49.97	316.85	20.03	-47.0	-48.1	15.1	0.00e+00	0	28	0	3060793344	60	4042
2026-01-06 13:28:53.97	317.52	19.65	-46.9	-48.0	15.1	0.00e+00	0	28	0	3082813440	60	3967
2026-01-06 13:28:57.95	318.17	19.27	-47.0	-48.1	15.1	0.00e+00	0	28	0	3105882112	60	4012
2026-01-06 13:29:01.94	318.81	18.90	-47.1	-48.3	15.0	0.00e+00	0	28	0	3127902208	60	4115
2026-01-06 13:29:05.92	319.43	18.53	-47.2	-48.3	15.0	0.00e+00	0	28	0	3150970880	60	4118
2026-01-06 13:29:09.91	320.04	18.15	-47.3	-48.4	14.9	0.00e+00	0	28	0	3172990976	60	4156
2026-01-06 13:29:13.90	320.64	17.79	-47.4	-48.5	14.9	0.00e+00	0	28	0	3195011072	60	4219
2026-01-06 13:29:17.91	321.22	17.42	-47.5	-48.7	14.8	0.00e+00	0	28	0	3218079744	60	4307
2026-01-06 13:29:21.91	321.79	17.05	-47.5	-48.7	14.9	0.00e+00	0	28	0	3240099840	60	4292
2026-01-06 13:29:25.91	322.35	16.69	-47.6	-48.7	14.8	0.00e+00	0	28	0	3263168512	60	4340
2026-01-06 13:29:29.89	322.89	16.34	-47.7	-48.8	14.8	0.00e+00	0	28	0	3285188608	60	4385
2026-01-06 13:29:33.91	323.42	15.98	-47.8	-49.0	14.7	0.00e+00	0	28	0	3308257280	60	4466
2026-01-06 13:29:37.88	323.94	15.63	-47.6	-48.7	14.8	0.00e+00	0	28	0	3330277376	60	4337
2026-01-06 13:29:41.87	324.45	15.28	-47.8	-49.0	14.8	0.00e+00	0	28	0	3352297472	60	4452
2026-01-06 13:29:45.85	324.94	14.94	-47.9	-49.1	14.7	0.00e+00	0	28	0	3375366144	60	4517
2026-01-06 13:29:49.86	325.43	14.59	-48.0	-49.2	14.8	0.00e+00	0	28	0	3397386240	61	4302
2026-01-06 13:29:53.84	325.90	14.25	-48.0	-49.2	14.8	0.00e+00	0	28	0	3420454912	61	4317
2026-01-06 13:29:57.83	326.36	13.92	-47.9	-49.1	14.8	0.00e+00	0	28	0	3442475008	61	4277
2026-01-06 13:30:01.82	326.82	13.58	-48.0	-49.2	14.7	0.00e+00	0	28	0	3464495104	61	4326
2026-01-06 13:30:05.82	327.26	13.25	-48.0	-49.2	14.7	0.00e+00	0	28	0	3487563776	61	4328
2026-01-06 13:30:09.81	327.70	12.92	-48.2	-49.4	14.7	0.00e+00	0	28	0	3509583872	61	4411
2026-01-06 13:30:13.80	328.12	12.60	-48.4	-49.6	14.7	0.00e+00	0	28	0	3532652544	62	4272
2026-01-06 13:30:17.81	328.54	12.28	-48.5	-49.8	14.6	0.00e+00	0	28	0	3554672640	62	4363
2026-01-06 13:30:21.81	328.95	11.96	-48.6	-49.9	14.6	0.00e+00	0	28	0	3577741312	62	4417
2026-01-06 13:30:25.80	329.35	11.64	-48.7	-50.0	14.6	0.00e+00	0	28	0	3599761408	62	4452
2026-01-06 13:30:29.80	329.75	11.33	-48.7	-50.0	14.6	0.00e+00	0	28	0	3622830080	62	4462
2026-01-06 13:30:33.78	330.13	11.02	-48.8	-50.1	14.5	0.00e+00	0	28	0	3644850176	62	4512
2026-01-06 13:30:37.77	330.51	10.71	-49.0	-50.3	14.6	0.00e+00	0	28	0	3666870272	63	4344
2026-01-06 13:30:41.77	330.88	10.41	-49.1	-50.4	14.5	0.00e+00	0	28	0	3689938944	63	4421
2026-01-06 13:30:45.76	331.24	10.10	-49.2	-50.5	14.4	0.00e+00	0	28	0	3711959040	63	4486
2026-01-06 13:30:49.77	331.60	9.80	-49.3	-50.6	14.4	0.00e+00	0	28	0	3735027712	63	4517
2026-01-06 13:30:53.76	331.94	9.51	-49.3	-50.6	14.4	0.00e+00	0	28	0	3757047808	63	4521
2026-01-06 13:30:57.73	332.28	9.22	-49.2	-50.5	14.5	0.00e+00	0	28	0	3779067904	64	4227
2026-01-06 13:31:01.72	332.62	8.93	-49.3	-50.6	14.4	0.00e+00	0	28	0	3802136576	64	4283
2026-01-06 13:31:05.71	332.95	8.64	-49.4	-50.7	14.4	0.00e+00	0	28	0	3824156672	64	4340
2026-01-06 13:31:09.70	333.27	8.35	-49.6	-51.0	14.3	0.00e+00	0	28	0	3847225344	64	4445
2026-01-06 13:31:13.68	333.59	8.07	-49.6	-51.0	14.3	0.00e+00	0	28	0	3869245440	64	4476
2026-01-06 13:31:17.68	333.90	7.79	-49.7	-51.1	14.2	0.00e+00	0	28	0	3891265536	64	4503
2026-01-06 13:31:21.67	334.21	7.51	-49.7	-51.2	14.2	0.00e+00	0	28	0	3914334208	64	4547
2026-01-06 13:31:25.67	334.51	7.23	-49.4	-50.8	14.3	0.00e+00	0	28	0	3936354304	64	4370
2026-01-06 13:31:29.67	334.80	6.96	-49.4	-50.8	14.3	0.00e+00	0	28	0	3959422976	64	4365
2026-01-06 13:31:33.66	335.09	6.69	-49.6	-51.0	14.2	0.00e+00	0	28	0	3981443072	64	4479
2026-01-06 13:31:37.64	335.38	6.42	-49.8	-51.2	14.1	0.00e+00	0	28	0	4004511744	64	4583
2026-01-06 13:31:41.65	335.66	6.15	-50.0	-51.5	14.1	0.00e+00	0	28	0	4026531840	65	4471
2026-01-06 13:31:45.63	335.94	5.89	-49.9	-51.4	14.1	0.00e+00	0	28	0	4048551936	65	4410
2026-01-06 13:31:49.62	336.21	5.62	-49.9	-51.4	14.1	0.00e+00	0	28	0	4071620608	65	4419
2026-01-06 13:31:53.61	336.47	5.36	-50.3	-51.8	14.0	0.00e+00	0	28	0	4093640704	66	4352
2026-01-06 13:31:57.60	336.74	5.10	-50.3	-51.8	14.0	0.00e+00	0	28	0	4116709376	66	4346
2026-01-06 13:32:01.59	336.99	4.85	-59.7	-72.7	3.8	8.45e-01	0	28	104	4129292288	84	17249
2026-01-06 13:32:05.58	337.25	4.59	-60.4	-73.5	3.8	8.46e-01	0	28	104	4129292288	85	17715
2026-01-06 13:32:09.57	337.50	4.34	-60.7	-73.8	3.8	8.46e-01	0	28	104	4129292288	86	17450
2026-01-06 13:32:13.57	337.74	4.09	-60.7	-73.9	3.8	8.46e-01	0	28	104	4129292288	86	17565
2026-01-06 13:32:17.57	337.99	3.84	-60.9	-74.0	3.8	8.46e-01	0	28	104	4129292288	86	17793
2026-01-06 13:32:21.57	338.23	3.59	-60.9	-74.0	3.8	8.46e-01	0	28	104	4129292288	87	16876
2026-01-06 13:32:25.56	338.46	3.35	-60.8	-73.9	3.8	8.46e-01	0	28	104	4129292288	87	16681
2026-01-06 13:32:29.55	338.69	3.11	-60.8	-73.9	3.8	8.45e-01	0	28	104	4129292288	87	16657
2026-01-06 13:32:33.54	338.92	2.87	-60.8	-73.9	3.8	8.46e-01	0	28	104	4129292288	87	16513
2026-01-06 13:32:37.54	339.14	2.63	-60.7	-73.8	3.8	8.45e-01	0	28	104	4129292288	87	16479
2026-01-06 13:32:41.54	339.37	2.39	-60.7	-73.8	3.8	8.44e-01	0	28	104	4129292288	87	16338
2026-01-06 13:32:45.56	339.59	2.15	-60.7	-73.8	3.8	8.46e-01	0	29	104	4129292288	87	16381

#Closed at: 2026-01-06 13:32:48
#Recorded file [4129 MB]: D:/lorett/data/31004_260106_161906.dat