passes_logs/2026/01/06/R3.2S_Murmansk/R3.2S_Murmansk__20260106_015039_NOAA_21_JPSS-2_rec.log

#Pass ID: 20260106_015039_NOAA 21 (JPSS-2)
#Satellite: NOAA 21 (JPSS-2)
#Configuration: NOAA-21
#almurnet v.1.7.20251203
#Start time: 2026-01-06 01:50:41

#Version: 2.2.20231116
#Station: R3.2S_Murmansk
#Location: 33.079688 lon 68.888172 lat
#TLE: 1 54234U 22150A   26005.42670836  .00000142  00000+0  88292-4 0  9996
#TLE: 2 54234  98.7490 306.4427 0001045 340.6622  19.4514 14.19532269163451

#Time	Az	El	Level	Level2	SNR	BER	BlckErr	Temp	State	Recorded	gain1	gain2
2026-01-06 01:50:41.21	29.82	2.09	-58.0	-71.8	3.8	1.49e+00	0	25	0	0	82	17380
2026-01-06 01:50:45.22	29.72	2.34	-58.0	-71.8	3.8	1.49e+00	0	25	104	0	81	18363
2026-01-06 01:50:49.24	29.61	2.60	-58.0	-71.8	3.8	1.49e+00	0	25	104	0	81	18350
2026-01-06 01:50:53.26	29.51	2.86	-58.0	-71.8	3.9	1.49e+00	0	25	104	0	81	18352
2026-01-06 01:50:57.27	29.40	3.12	-58.0	-71.8	3.8	1.49e+00	0	25	104	0	81	18372
2026-01-06 01:51:01.28	29.29	3.38	-58.0	-71.7	3.8	1.49e+00	0	25	104	0	81	18137
2026-01-06 01:51:05.30	29.18	3.65	-58.0	-71.1	3.8	1.49e+00	0	25	104	0	81	17076
2026-01-06 01:51:09.31	29.06	3.91	-57.9	-70.3	3.8	1.49e+00	0	25	104	0	81	15454
2026-01-06 01:51:13.33	28.95	4.18	-57.9	-70.7	3.8	1.49e+00	0	25	104	0	81	16210
2026-01-06 01:51:17.34	28.83	4.46	-57.9	-69.7	3.9	1.49e+00	0	26	104	0	81	14483
2026-01-06 01:51:21.36	28.71	4.73	-57.0	-63.5	6.7	2.39e-01	0	25	0	5242880	80	7464
2026-01-06 01:51:25.38	28.58	5.01	-56.0	-60.4	9.3	7.86e-03	0	26	0	17825792	78	5876
2026-01-06 01:51:29.39	28.45	5.29	-55.7	-59.8	9.7	4.43e-02	0	26	0	25165824	78	5466
2026-01-06 01:51:33.41	28.32	5.58	-51.8	-53.6	13.7	0.00e+00	0	26	0	37748736	70	4289
2026-01-06 01:51:37.41	28.19	5.86	-51.8	-53.6	13.7	0.00e+00	0	26	0	50331648	70	4264
2026-01-06 01:51:41.42	28.06	6.15	-51.6	-53.4	13.7	0.00e+00	0	26	0	62914560	69	4408
2026-01-06 01:51:45.43	27.92	6.44	-51.5	-53.2	13.9	0.00e+00	0	26	0	75497472	69	4293
2026-01-06 01:51:49.45	27.78	6.74	-51.4	-53.1	14.0	0.00e+00	0	26	0	88080384	69	4243
2026-01-06 01:51:53.45	27.63	7.04	-51.4	-53.0	14.0	0.00e+00	0	26	0	100663296	69	4223
2026-01-06 01:51:57.46	27.48	7.34	-51.2	-52.8	14.1	0.00e+00	0	26	0	113246208	69	4128
2026-01-06 01:52:01.47	27.33	7.65	-51.1	-52.7	14.1	0.00e+00	0	26	0	125829120	68	4321
2026-01-06 01:52:05.48	27.17	7.95	-50.9	-52.5	14.2	0.00e+00	0	26	0	137363456	68	4218
2026-01-06 01:52:09.49	27.02	8.27	-50.9	-52.5	14.2	0.00e+00	0	26	0	149946368	68	4205
2026-01-06 01:52:13.50	26.85	8.58	-50.8	-52.3	14.3	0.00e+00	0	26	0	162529280	68	4103
2026-01-06 01:52:17.51	26.69	8.90	-50.5	-51.9	14.3	0.00e+00	0	26	0	175112192	67	4183
2026-01-06 01:52:21.51	26.51	9.23	-50.3	-51.8	14.4	0.00e+00	0	26	0	187695104	67	4106
2026-01-06 01:52:25.51	26.34	9.55	-50.3	-51.8	14.4	0.00e+00	0	26	0	200278016	67	4108
2026-01-06 01:52:29.52	26.16	9.89	-50.2	-51.6	14.5	0.00e+00	0	26	0	212860928	67	4027
2026-01-06 01:52:33.52	25.98	10.22	-50.1	-51.5	14.4	0.00e+00	0	26	0	225443840	66	4196
2026-01-06 01:52:37.54	25.79	10.56	-50.0	-51.4	14.5	0.00e+00	0	26	0	238026752	66	4151
2026-01-06 01:52:41.56	25.59	10.91	-49.9	-51.3	14.5	0.00e+00	0	26	0	250609664	66	4106
2026-01-06 01:52:45.58	25.39	11.26	-49.9	-51.2	14.6	0.00e+00	0	26	0	263192576	66	4089
2026-01-06 01:52:49.59	25.19	11.61	-49.9	-51.2	14.6	0.00e+00	0	26	0	275775488	66	4081
2026-01-06 01:52:53.61	24.98	11.97	-49.7	-51.0	14.6	0.00e+00	0	26	0	288358400	66	4004
2026-01-06 01:52:57.62	24.76	12.34	-49.6	-51.0	14.5	0.00e+00	0	26	0	300941312	65	4206
2026-01-06 01:53:01.63	24.54	12.70	-49.6	-50.9	14.6	0.00e+00	0	26	0	313524224	65	4186
2026-01-06 01:53:05.64	24.32	13.08	-49.5	-50.8	14.6	0.00e+00	0	26	0	326107136	65	4131
2026-01-06 01:53:09.66	24.08	13.46	-49.5	-50.8	14.6	0.00e+00	0	26	0	338690048	65	4135
2026-01-06 01:53:13.68	23.84	13.84	-49.3	-50.6	14.7	0.00e+00	0	26	0	351272960	65	4037
2026-01-06 01:53:17.71	23.60	14.24	-49.3	-50.6	14.7	0.00e+00	0	26	0	363855872	65	4017
2026-01-06 01:53:21.72	23.34	14.63	-49.2	-50.5	14.8	0.00e+00	0	26	0	376438784	65	3980
2026-01-06 01:53:25.73	23.08	15.03	-49.3	-50.6	14.7	0.00e+00	0	26	0	389021696	65	4007
2026-01-06 01:53:29.75	22.81	15.44	-49.3	-50.6	14.7	0.00e+00	0	26	0	401604608	65	4023
2026-01-06 01:53:33.76	22.54	15.86	-49.4	-50.7	14.7	0.00e+00	0	26	0	414187520	65	4091
2026-01-06 01:53:37.79	22.25	16.28	-49.5	-50.8	14.6	0.00e+00	0	26	0	426770432	65	4134
2026-01-06 01:53:41.81	21.96	16.71	-49.6	-51.0	14.6	0.00e+00	0	26	0	439353344	65	4195
2026-01-06 01:53:45.80	21.66	17.14	-49.5	-50.8	14.6	0.00e+00	0	26	0	451936256	65	4122
2026-01-06 01:53:49.82	21.34	17.58	-49.5	-50.8	14.7	0.00e+00	0	26	0	463470592	65	4107
2026-01-06 01:53:53.83	21.02	18.03	-49.5	-50.8	14.6	0.00e+00	0	26	0	476053504	65	4136
2026-01-06 01:53:57.84	20.69	18.49	-49.7	-51.0	14.5	0.00e+00	0	26	0	488636416	65	4222
2026-01-06 01:54:01.85	20.35	18.95	-49.8	-51.1	14.5	0.00e+00	0	26	0	501219328	65	4288
2026-01-06 01:54:05.86	20.00	19.42	-49.9	-51.3	14.5	0.00e+00	0	26	0	513802240	65	4345
2026-01-06 01:54:09.87	19.63	19.90	-49.7	-51.0	14.6	0.00e+00	0	26	0	526385152	65	4228
2026-01-06 01:54:13.88	19.26	20.39	-49.2	-50.4	14.8	0.00e+00	0	26	0	538968064	65	3932
2026-01-06 01:54:17.90	18.87	20.88	-48.8	-50.0	14.8	0.00e+00	0	26	0	551550976	64	4000
2026-01-06 01:54:21.90	18.46	21.38	-48.8	-50.0	14.9	0.00e+00	0	26	0	564133888	64	3977
2026-01-06 01:54:25.90	18.05	21.89	-48.8	-50.0	14.7	0.00e+00	0	26	0	576716800	63	4239
2026-01-06 01:54:29.92	17.62	22.42	-48.4	-49.6	14.9	0.00e+00	0	26	0	589299712	63	4025
2026-01-06 01:54:33.94	17.17	22.95	-48.4	-49.6	14.9	0.00e+00	0	26	0	601882624	63	4008
2026-01-06 01:54:37.94	16.71	23.48	-48.4	-49.6	14.9	0.00e+00	0	26	0	614465536	63	4024
2026-01-06 01:54:41.96	16.23	24.03	-48.7	-49.9	14.8	0.00e+00	0	26	0	627048448	63	4180
2026-01-06 01:54:45.97	15.73	24.59	-48.9	-50.1	14.7	0.00e+00	0	26	0	639631360	63	4285
2026-01-06 01:54:49.98	15.22	25.16	-48.7	-49.9	14.8	0.00e+00	0	26	0	652214272	63	4160
2026-01-06 01:54:53.98	14.68	25.73	-49.0	-50.3	14.7	0.00e+00	0	26	0	664797184	63	4347
2026-01-06 01:54:58.00	14.12	26.32	-49.3	-50.6	14.6	0.00e+00	0	26	0	677380096	63	4514
2026-01-06 01:55:02.00	13.55	26.91	-49.5	-50.8	14.6	0.00e+00	0	26	0	689963008	64	4361
2026-01-06 01:55:06.01	12.95	27.52	-49.5	-50.8	14.6	0.00e+00	0	26	0	702545920	64	4366
2026-01-06 01:55:10.03	12.32	28.13	-49.3	-50.5	14.7	0.00e+00	0	26	0	714080256	64	4233
2026-01-06 01:55:14.05	11.67	28.76	-49.5	-50.8	14.6	0.00e+00	0	26	0	726663168	64	4367
2026-01-06 01:55:18.06	11.00	29.40	-49.4	-50.7	14.6	0.00e+00	0	26	0	739246080	64	4320
2026-01-06 01:55:22.07	10.30	30.04	-49.4	-50.6	14.6	0.00e+00	0	26	0	751828992	64	4285
2026-01-06 01:55:26.09	9.56	30.70	-49.9	-51.2	14.4	0.00e+00	0	27	0	764411904	64	4573
2026-01-06 01:55:30.10	8.80	31.36	-49.8	-51.1	14.6	0.00e+00	0	26	0	776994816	65	4272
2026-01-06 01:55:34.10	8.00	32.03	-49.6	-50.8	14.7	0.00e+00	0	26	0	789577728	65	4128
2026-01-06 01:55:38.11	7.17	32.71	-49.3	-50.5	14.8	0.00e+00	0	26	0	802160640	65	4004
2026-01-06 01:55:42.13	6.30	33.41	-49.6	-50.9	14.7	0.00e+00	0	26	0	814743552	65	4176
2026-01-06 01:55:46.15	5.39	34.11	-49.8	-51.0	14.6	0.00e+00	0	26	0	827326464	65	4235
2026-01-06 01:55:50.16	4.45	34.81	-50.1	-51.5	14.4	0.00e+00	0	26	0	839909376	65	4442
2026-01-06 01:55:54.17	3.46	35.52	-50.5	-51.8	14.4	0.00e+00	0	26	0	852492288	66	4378
2026-01-06 01:55:58.17	2.43	36.24	-50.6	-52.0	14.4	0.00e+00	0	26	0	865075200	66	4447
2026-01-06 01:56:02.18	1.35	36.96	-51.0	-52.4	14.3	0.00e+00	0	26	0	877658112	67	4421
2026-01-06 01:56:06.19	0.22	37.69	-51.0	-52.4	14.3	0.00e+00	0	26	0	890241024	67	4409
2026-01-06 01:56:10.20	359.03	38.42	-51.1	-52.5	14.2	0.00e+00	0	26	0	902823936	67	4493
2026-01-06 01:56:14.21	357.79	39.15	-51.5	-53.0	14.2	0.00e+00	0	26	0	915406848	68	4491
2026-01-06 01:56:18.23	356.50	39.88	-51.2	-52.7	14.3	0.00e+00	0	26	0	927989760	68	4297
2026-01-06 01:56:22.25	355.14	40.61	-51.5	-52.9	14.2	0.00e+00	0	26	0	940572672	68	4431
2026-01-06 01:56:26.27	353.71	41.33	-51.7	-53.2	14.1	0.00e+00	0	26	0	953155584	68	4556
2026-01-06 01:56:30.28	352.23	42.05	-52.3	-53.9	13.9	0.00e+00	0	26	0	965738496	69	4688
2026-01-06 01:56:34.28	350.68	42.75	-51.9	-53.4	14.3	0.00e+00	0	26	0	978321408	70	4146
2026-01-06 01:56:38.28	349.07	43.45	-52.2	-53.8	14.0	0.00e+00	0	27	0	990904320	70	4391
2026-01-06 01:56:42.30	347.37	44.13	-52.7	-54.4	13.8	0.00e+00	0	26	0	1002438656	70	4652
2026-01-06 01:56:46.32	345.60	44.79	-52.4	-54.0	13.9	0.00e+00	0	26	0	1015021568	70	4489
2026-01-06 01:56:50.32	343.76	45.43	-52.1	-53.7	14.1	0.00e+00	0	26	0	1027604480	70	4294
2026-01-06 01:56:54.33	341.85	46.05	-51.4	-52.8	14.4	0.00e+00	0	26	0	1040187392	69	4126
2026-01-06 01:56:58.35	339.85	46.64	-52.1	-53.7	14.0	0.00e+00	0	26	0	1052770304	69	4588
2026-01-06 01:57:02.36	337.79	47.20	-52.4	-54.0	13.9	0.00e+00	0	26	0	1065353216	69	4748
2026-01-06 01:57:06.38	335.64	47.72	-52.5	-54.2	13.9	0.00e+00	0	26	0	1077936128	70	4548
2026-01-06 01:57:10.40	333.43	48.20	-52.2	-53.8	14.1	0.00e+00	0	26	0	1090519040	70	4351
2026-01-06 01:57:14.41	331.15	48.64	-52.1	-53.7	14.1	0.00e+00	0	26	0	1103101952	70	4314
2026-01-06 01:57:18.42	328.81	49.04	-51.9	-53.4	14.3	0.00e+00	0	26	0	1115684864	70	4186
2026-01-06 01:57:22.45	326.40	49.38	-51.7	-53.1	14.3	0.00e+00	0	26	0	1128267776	69	4287
2026-01-06 01:57:26.46	323.95	49.67	-51.7	-53.2	14.3	0.00e+00	0	26	0	1140850688	69	4319
2026-01-06 01:57:30.48	321.45	49.91	-51.7	-53.2	14.3	0.00e+00	0	27	0	1153433600	69	4301
2026-01-06 01:57:34.50	318.92	50.09	-51.9	-53.4	14.1	0.00e+00	0	27	0	1166016512	69	4420
2026-01-06 01:57:38.51	316.37	50.20	-51.4	-52.9	14.4	0.00e+00	0	26	0	1178599424	69	4146
2026-01-06 01:57:42.53	313.80	50.26	-51.7	-53.2	14.3	0.00e+00	0	26	0	1191182336	69	4325
2026-01-06 01:57:46.54	311.23	50.26	-51.4	-52.8	14.4	0.00e+00	0	26	0	1203765248	69	4138
2026-01-06 01:57:50.57	308.65	50.19	-52.0	-53.5	14.1	0.00e+00	0	26	0	1216348160	69	4489
2026-01-06 01:57:54.60	306.09	50.06	-52.1	-53.6	14.1	0.00e+00	0	26	0	1228931072	69	4537
2026-01-06 01:57:58.60	303.57	49.88	-52.0	-53.5	14.1	0.00e+00	0	26	0	1241513984	69	4483
2026-01-06 01:58:02.61	301.08	49.64	-51.8	-53.3	14.2	0.00e+00	0	27	0	1254096896	69	4368
2026-01-06 01:58:06.62	298.64	49.34	-51.6	-53.1	14.3	0.00e+00	0	26	0	1266679808	69	4246
2026-01-06 01:58:10.62	296.25	48.99	-51.9	-53.4	14.1	0.00e+00	0	26	0	1279262720	69	4428
2026-01-06 01:58:14.63	293.92	48.59	-51.5	-52.9	14.4	0.00e+00	0	26	0	1291845632	69	4188
2026-01-06 01:58:18.65	291.64	48.14	-51.6	-53.0	14.3	0.00e+00	0	26	0	1304428544	69	4236
2026-01-06 01:58:22.65	289.45	47.65	-51.2	-52.5	14.4	0.00e+00	0	26	0	1317011456	68	4239
2026-01-06 01:58:26.67	287.31	47.12	-52.4	-54.0	14.0	0.00e+00	0	26	0	1329594368	70	4470
2026-01-06 01:58:30.68	285.25	46.56	-51.7	-53.1	14.3	0.00e+00	0	26	0	1341128704	69	4272
2026-01-06 01:58:34.69	283.27	45.96	-51.7	-53.2	14.3	0.00e+00	0	26	0	1353711616	70	4057
2026-01-06 01:58:38.70	281.36	45.34	-53.2	-55.0	13.5	0.00e+00	0	26	0	1366294528	71	4756
2026-01-06 01:58:42.71	279.52	44.70	-50.9	-52.3	14.4	0.00e+00	0	26	0	1378877440	68	4112
2026-01-06 01:58:46.72	277.77	44.03	-52.6	-54.3	13.8	0.00e+00	0	26	0	1391460352	70	4617
2026-01-06 01:58:50.74	276.08	43.35	-51.2	-53.0	14.1	0.00e+00	0	26	0	1404043264	69	4237
2026-01-06 01:58:54.76	274.46	42.65	-52.5	-54.2	13.7	0.00e+00	0	27	0	1416626176	70	4550
2026-01-06 01:58:58.77	272.91	41.94	-51.9	-53.4	14.2	0.00e+00	0	26	0	1429209088	70	4181
2026-01-06 01:59:02.78	271.44	41.22	-52.2	-53.7	14.0	0.00e+00	0	26	0	1441792000	69	4583
2026-01-06 01:59:06.80	270.02	40.49	-52.5	-54.1	14.0	0.00e+00	0	26	0	1454374912	71	4279
2026-01-06 01:59:10.81	268.67	39.76	-51.7	-53.2	14.3	0.00e+00	0	26	0	1466957824	70	4058
2026-01-06 01:59:14.82	267.38	39.03	-52.8	-54.6	13.7	0.00e+00	0	27	0	1479540736	70	4790
2026-01-06 01:59:18.83	266.15	38.30	-51.6	-53.1	14.3	0.00e+00	0	27	0	1492123648	69	4247
2026-01-06 01:59:22.83	264.97	37.57	-51.6	-53.1	14.1	0.00e+00	0	26	0	1504706560	68	4515
2026-01-06 01:59:26.85	263.85	36.84	-51.6	-53.0	14.3	0.00e+00	0	26	0	1517289472	69	4241
2026-01-06 01:59:30.86	262.77	36.12	-50.0	-51.2	14.7	0.00e+00	0	27	0	1529872384	66	4083
2026-01-06 01:59:34.88	261.74	35.40	-50.2	-51.4	14.6	0.00e+00	0	26	0	1542455296	66	4192
2026-01-06 01:59:38.89	260.75	34.68	-50.0	-51.3	14.6	0.00e+00	0	26	0	1555038208	66	4134
2026-01-06 01:59:42.91	259.81	33.98	-50.7	-52.1	14.3	0.00e+00	0	26	0	1567621120	66	4540
2026-01-06 01:59:46.93	258.90	33.27	-50.6	-52.0	14.4	0.00e+00	0	27	0	1580204032	66	4456
2026-01-06 01:59:50.93	258.04	32.59	-50.2	-51.6	14.5	0.00e+00	0	26	0	1592786944	66	4250
2026-01-06 01:59:54.93	257.21	31.90	-49.6	-50.8	14.7	0.00e+00	0	27	0	1605369856	65	4135
2026-01-06 01:59:58.94	256.42	31.23	-49.9	-51.2	14.6	0.00e+00	0	27	0	1616904192	65	4292
2026-01-06 02:00:02.95	255.66	30.57	-49.3	-50.5	14.8	0.00e+00	0	27	0	1629487104	65	3992
2026-01-06 02:00:06.96	254.93	29.91	-49.5	-50.7	14.7	0.00e+00	0	26	0	1642070016	65	4097
2026-01-06 02:00:10.98	254.22	29.27	-49.8	-51.0	14.6	0.00e+00	0	27	0	1654652928	65	4238
2026-01-06 02:00:15.01	253.55	28.63	-49.6	-50.9	14.6	0.00e+00	0	27	0	1667235840	65	4168
2026-01-06 02:00:19.00	252.90	28.00	-49.6	-50.8	14.7	0.00e+00	0	26	0	1679818752	65	4123
2026-01-06 02:00:23.01	252.28	27.39	-49.0	-50.2	14.8	0.00e+00	0	26	0	1692401664	64	4062
2026-01-06 02:00:27.02	251.68	26.78	-48.9	-50.0	14.7	0.00e+00	0	26	0	1704984576	63	4236
2026-01-06 02:00:31.02	251.11	26.19	-49.1	-50.3	14.7	0.00e+00	0	27	0	1717567488	63	4384
2026-01-06 02:00:35.04	250.55	25.60	-49.4	-50.7	14.6	0.00e+00	0	27	0	1730150400	63	4568
2026-01-06 02:00:39.02	250.02	25.03	-49.8	-51.1	14.5	0.00e+00	0	27	0	1742733312	64	4526
2026-01-06 02:00:43.04	249.51	24.46	-49.8	-51.2	14.6	0.00e+00	0	27	0	1755316224	65	4292
2026-01-06 02:00:47.04	249.01	23.91	-49.5	-50.7	14.7	0.00e+00	0	26	0	1767899136	65	4090
2026-01-06 02:00:51.02	248.54	23.36	-49.3	-50.6	14.8	0.00e+00	0	26	0	1780482048	65	4020
2026-01-06 02:00:55.01	248.08	22.83	-49.1	-50.3	14.7	0.00e+00	0	27	0	1793064960	64	4134
2026-01-06 02:00:58.99	247.64	22.30	-49.3	-50.5	14.7	0.00e+00	0	26	0	1804599296	64	4229
2026-01-06 02:01:02.97	247.21	21.78	-49.2	-50.5	14.7	0.00e+00	0	27	0	1817182208	64	4200
2026-01-06 02:01:06.94	246.79	21.28	-49.1	-50.4	14.7	0.00e+00	0	27	0	1829765120	64	4159
2026-01-06 02:01:10.92	246.39	20.78	-48.9	-50.1	14.8	0.00e+00	0	27	0	1842348032	64	4026
2026-01-06 02:01:14.91	246.01	20.28	-48.6	-49.8	14.8	0.00e+00	0	27	0	1854930944	63	4120
2026-01-06 02:01:18.89	245.63	19.80	-48.9	-50.1	14.7	0.00e+00	0	27	0	1867513856	63	4279
2026-01-06 02:01:22.87	245.27	19.33	-49.2	-50.5	14.6	0.00e+00	0	26	0	1880096768	63	4451
2026-01-06 02:01:26.84	244.92	18.86	-49.3	-50.5	14.6	0.00e+00	0	27	0	1891631104	63	4473
2026-01-06 02:01:30.82	244.58	18.40	-49.4	-50.7	14.6	0.00e+00	0	26	0	1904214016	64	4305
2026-01-06 02:01:34.79	244.25	17.95	-49.5	-50.8	14.5	0.00e+00	0	26	0	1916796928	64	4356
2026-01-06 02:01:38.78	243.93	17.50	-49.6	-50.9	14.5	0.00e+00	0	26	0	1929379840	64	4417
2026-01-06 02:01:42.76	243.62	17.06	-49.7	-51.0	14.5	0.00e+00	0	26	0	1941962752	64	4492
2026-01-06 02:01:46.74	243.32	16.63	-49.6	-50.9	14.5	0.00e+00	0	27	0	1954545664	64	4410
2026-01-06 02:01:50.74	243.02	16.20	-49.5	-50.7	14.6	0.00e+00	0	26	0	1967128576	64	4330
2026-01-06 02:01:54.72	242.74	15.79	-49.3	-50.6	14.6	0.00e+00	0	26	0	1979711488	64	4244
2026-01-06 02:01:58.71	242.46	15.37	-49.4	-50.7	14.6	0.00e+00	0	27	0	1992294400	64	4292
2026-01-06 02:02:02.69	242.19	14.97	-49.7	-51.0	14.5	0.00e+00	0	26	0	2003828736	64	4460
2026-01-06 02:02:06.69	241.93	14.56	-50.0	-51.3	14.4	0.00e+00	0	27	0	2016411648	65	4381
2026-01-06 02:02:10.67	241.68	14.17	-50.2	-51.6	14.3	0.00e+00	0	27	0	2028994560	65	4535
2026-01-06 02:02:14.65	241.43	13.78	-50.2	-51.6	14.3	0.00e+00	0	27	0	2041577472	65	4509
2026-01-06 02:02:18.62	241.19	13.40	-50.2	-51.6	14.3	0.00e+00	0	27	0	2054160384	65	4505
2026-01-06 02:02:22.61	240.96	13.02	-50.2	-51.6	14.3	0.00e+00	0	26	0	2066743296	65	4499
2026-01-06 02:02:26.60	240.73	12.65	-50.2	-51.6	14.3	0.00e+00	0	27	0	2079326208	65	4517
2026-01-06 02:02:30.59	240.51	12.28	-50.1	-51.5	14.3	0.00e+00	0	26	0	2090860544	65	4482
2026-01-06 02:02:34.57	240.29	11.92	-50.1	-51.5	14.3	0.00e+00	0	26	0	2103443456	65	4470
2026-01-06 02:02:38.58	240.08	11.56	-50.0	-51.4	14.4	0.00e+00	0	26	0	2116026368	65	4404
2026-01-06 02:02:42.57	239.87	11.21	-50.1	-51.5	14.3	0.00e+00	0	26	0	2128609280	65	4457
2026-01-06 02:02:46.57	239.67	10.86	-50.1	-51.5	14.3	0.00e+00	0	26	0	2141192192	65	4481
2026-01-06 02:02:50.55	239.48	10.51	-50.2	-51.6	14.3	0.00e+00	0	27	0	2153775104	65	4519
2026-01-06 02:02:54.54	239.29	10.17	-50.4	-51.9	14.2	0.00e+00	0	27	0	2166358016	65	4652
2026-01-06 02:02:58.55	239.10	9.84	-50.6	-52.1	14.2	0.00e+00	0	26	0	2178940928	66	4504
2026-01-06 02:03:02.53	238.92	9.51	-50.7	-52.2	14.1	0.00e+00	0	26	0	2191523840	66	4596
2026-01-06 02:03:06.54	238.74	9.18	-50.9	-52.5	14.0	0.00e+00	0	27	0	2204106752	66	4717
2026-01-06 02:03:10.53	238.57	8.85	-50.9	-52.4	14.1	0.00e+00	0	27	0	2215641088	67	4423
2026-01-06 02:03:14.51	238.40	8.54	-51.1	-52.7	13.9	0.00e+00	0	27	0	2228224000	67	4583
2026-01-06 02:03:18.51	238.24	8.22	-51.2	-52.8	13.9	0.00e+00	0	27	0	2240806912	67	4651
2026-01-06 02:03:22.51	238.07	7.91	-51.4	-53.0	13.8	0.00e+00	0	26	0	2253389824	67	4758
2026-01-06 02:03:26.52	237.92	7.60	-51.4	-53.0	13.7	0.00e+00	0	27	0	2265972736	67	4758
2026-01-06 02:03:30.52	237.76	7.29	-51.9	-53.6	13.6	0.00e+00	0	27	0	2278555648	68	4810
2026-01-06 02:03:34.51	237.61	6.99	-51.8	-53.5	13.6	0.00e+00	0	26	0	2291138560	68	4726
2026-01-06 02:03:38.53	237.46	6.69	-51.8	-53.5	13.6	0.00e+00	0	27	0	2303721472	68	4737
2026-01-06 02:03:42.53	237.32	6.39	-51.9	-53.7	13.5	0.00e+00	0	27	0	2316304384	68	4826
2026-01-06 02:03:46.54	237.18	6.10	-51.9	-53.7	13.6	0.00e+00	0	27	0	2328887296	69	4560
2026-01-06 02:03:50.53	237.04	5.81	-52.0	-53.8	13.5	0.00e+00	0	27	0	2341470208	69	4622
2026-01-06 02:03:54.53	236.90	5.52	-52.1	-53.9	13.4	0.00e+00	0	27	0	2354053120	69	4696
2026-01-06 02:03:58.53	236.77	5.24	-52.3	-54.2	13.3	0.00e+00	0	27	0	2366636032	69	4856
2026-01-06 02:04:02.52	236.64	4.96	-58.9	-72.9	3.8	1.49e+00	0	26	104	2376073216	83	18531
2026-01-06 02:04:06.51	236.52	4.68	-59.9	-73.7	3.8	1.49e+00	0	27	104	2376073216	84	19319
2026-01-06 02:04:10.52	236.39	4.41	-60.2	-74.0	3.8	1.49e+00	0	27	104	2376073216	85	18946
2026-01-06 02:04:14.53	236.27	4.14	-60.3	-74.2	3.8	1.49e+00	0	27	104	2376073216	85	19244
2026-01-06 02:04:18.53	236.15	3.87	-60.4	-74.3	3.8	1.49e+00	0	27	104	2376073216	85	19398
2026-01-06 02:04:22.53	236.03	3.60	-60.5	-74.4	3.8	1.49e+00	0	27	104	2376073216	86	18588
2026-01-06 02:04:26.50	235.92	3.33	-60.4	-74.3	3.8	1.49e+00	0	27	104	2376073216	86	18372
2026-01-06 02:04:30.48	235.81	3.07	-60.4	-74.3	3.8	1.49e+00	0	27	104	2376073216	86	18350
2026-01-06 02:04:34.47	235.70	2.81	-60.4	-74.2	3.8	1.49e+00	0	27	104	2376073216	86	18240
2026-01-06 02:04:38.46	235.59	2.56	-60.4	-74.2	3.8	1.49e+00	0	27	104	2376073216	86	18215
2026-01-06 02:04:42.45	235.49	2.30	-60.3	-74.2	3.8	1.49e+00	0	27	104	2376073216	86	18147
2026-01-06 02:04:46.44	235.38	2.05	-60.3	-74.2	3.8	1.49e+00	0	27	104	2376073216	86	18134

#Closed at: 2026-01-06 02:04:49
#Recorded file [2376 MB]: D:/lorett/data/31004_260106_045041.dat