passes_logs/2026/01/06/R3.2S_Murmansk/R3.2S_Murmansk__20260106_075736_AQUA_rec.log

#Pass ID: 20260106_075736_AQUA
#Satellite: AQUA
#Configuration: AQUA
#almurnet v.1.7.20251203
#Start time: 2026-01-06 07:57:38

#Version: 2.2.20231116
#Station: R3.2S_Murmansk
#Location: 33.079688 lon 68.888172 lat
#TLE: 1 27424U 02022A   26004.96787593  .00001598  00000+0  32997-3 0  9996
#TLE: 2 27424  98.4069 331.2279 0002002  90.2377   0.6092 14.61798176259425

#Time	Az	El	Level	Level2	SNR	BER	BlckErr	Temp	State	Recorded	gain1	gain2
2026-01-06 07:57:38.26	76.97	2.08	-57.5	-76.9	3.8	7.46e-01	0	24	0	0	84	32306
2026-01-06 07:57:41.25	76.74	2.26	-57.3	-76.7	3.8	7.47e-01	0	24	104	0	82	35399
2026-01-06 07:57:44.22	76.51	2.43	-57.3	-76.7	3.8	7.47e-01	0	24	104	0	82	35406
2026-01-06 07:57:47.21	76.28	2.61	-57.3	-76.7	3.8	7.48e-01	0	24	104	0	82	35487
2026-01-06 07:57:50.18	76.04	2.78	-57.3	-76.6	3.8	7.46e-01	0	24	104	0	82	34931
2026-01-06 07:57:53.15	75.81	2.96	-57.3	-76.4	3.8	7.45e-01	0	24	104	0	82	34200
2026-01-06 07:57:56.13	75.56	3.13	-57.3	-76.4	3.8	7.48e-01	0	25	104	0	82	34343
2026-01-06 07:57:59.11	75.32	3.31	-57.3	-76.5	3.8	7.47e-01	0	25	104	0	82	34633
2026-01-06 07:58:02.09	75.07	3.49	-57.3	-76.7	3.8	7.47e-01	0	25	104	0	82	35300
2026-01-06 07:58:05.07	74.82	3.67	-57.3	-76.4	3.8	7.48e-01	0	25	104	0	82	34296
2026-01-06 07:58:08.04	74.56	3.85	-57.3	-76.5	3.8	7.46e-01	0	25	104	0	82	34487
2026-01-06 07:58:11.03	74.30	4.03	-57.3	-75.5	3.9	7.45e-01	0	25	104	0	82	30813
2026-01-06 07:58:14.01	74.04	4.21	-57.3	-75.1	3.8	7.44e-01	0	25	104	0	82	29651
2026-01-06 07:58:16.99	73.77	4.40	-57.3	-76.4	3.8	7.45e-01	0	25	104	0	82	34367
2026-01-06 07:58:19.98	73.50	4.58	-57.1	-69.0	6.2	6.77e-01	90	25	0	0	82	14640
2026-01-06 07:58:22.96	73.23	4.77	-56.4	-63.8	10.6	6.16e-01	0	25	0	5767168	82	8045
2026-01-06 07:58:25.96	72.95	4.95	-55.7	-61.3	12.3	6.09e-01	0	25	0	11534336	80	6782
2026-01-06 07:58:28.97	72.66	5.14	-56.9	-74.5	3.9	7.47e-01	0	25	104	16252928	82	27595
2026-01-06 07:58:31.98	72.37	5.33	-56.6	-75.0	3.8	7.44e-01	0	25	104	16252928	81	30963
2026-01-06 07:58:34.96	72.08	5.52	-56.9	-73.2	3.9	7.42e-01	0	25	104	16252928	81	25107
2026-01-06 07:58:37.95	71.79	5.71	-56.7	-75.9	3.8	7.49e-01	0	25	104	16252928	82	32295
2026-01-06 07:58:40.94	71.49	5.90	-57.1	-73.2	3.9	7.39e-01	0	25	104	16252928	82	23749
2026-01-06 07:58:43.92	71.18	6.09	-56.9	-76.2	3.8	7.48e-01	0	25	104	16252928	82	33453
2026-01-06 07:58:46.91	70.87	6.28	-57.2	-73.2	3.9	7.40e-01	0	25	104	16252928	82	23583
2026-01-06 07:58:49.89	70.56	6.47	-57.2	-72.8	4.3	7.33e-01	0	25	104	16252928	82	22558
2026-01-06 07:58:52.87	70.24	6.66	-57.2	-74.0	3.8	7.49e-01	0	26	104	16252928	82	25979
2026-01-06 07:58:55.86	69.92	6.86	-57.2	-74.5	4.0	7.44e-01	0	25	104	16252928	82	27431
2026-01-06 07:58:58.85	69.59	7.05	-57.3	-73.2	4.1	7.43e-01	0	26	104	16252928	82	23791
2026-01-06 07:59:01.83	69.26	7.25	-57.2	-76.1	3.8	7.47e-01	0	26	104	16252928	82	33074
2026-01-06 07:59:04.82	68.92	7.44	-57.4	-73.3	4.1	7.43e-01	0	26	104	16252928	82	23932
2026-01-06 07:59:07.81	68.58	7.64	-57.5	-74.1	3.9	7.41e-01	0	26	104	16252928	82	26348
2026-01-06 07:59:10.81	68.23	7.84	-57.5	-74.5	3.9	7.44e-01	0	26	104	16252928	82	27575
2026-01-06 07:59:13.79	67.88	8.04	-57.4	-72.7	4.2	7.32e-01	0	26	104	16252928	82	22285
2026-01-06 07:59:16.78	67.52	8.24	-57.5	-72.8	4.4	7.29e-01	0	26	104	16252928	82	22651
2026-01-06 07:59:19.76	67.15	8.44	-57.5	-74.7	3.8	7.45e-01	0	26	104	16252928	82	28051
2026-01-06 07:59:22.75	66.78	8.64	-57.5	-72.7	4.4	7.29e-01	0	26	104	16252928	82	22462
2026-01-06 07:59:25.72	66.41	8.84	-57.5	-76.3	3.8	7.43e-01	0	26	104	16252928	83	32089
2026-01-06 07:59:28.71	66.03	9.04	-57.6	-73.0	4.3	7.30e-01	0	26	104	16252928	83	21856
2026-01-06 07:59:31.70	65.64	9.25	-57.7	-77.1	3.8	7.45e-01	0	26	104	16252928	83	34954
2026-01-06 07:59:34.69	65.25	9.45	-57.7	-77.0	3.8	7.45e-01	0	26	104	16252928	83	34502
2026-01-06 07:59:37.68	64.85	9.66	-57.7	-76.6	3.8	7.45e-01	0	26	104	16252928	83	33272
2026-01-06 07:59:40.65	64.44	9.86	-57.7	-76.8	3.8	7.47e-01	0	26	104	16252928	83	33699
2026-01-06 07:59:43.62	64.03	10.06	-57.7	-77.0	3.8	7.44e-01	0	26	104	16252928	83	34668
2026-01-06 07:59:46.60	63.62	10.27	-57.7	-77.0	3.8	7.45e-01	0	26	104	16252928	83	34858
2026-01-06 07:59:49.59	63.19	10.48	-57.7	-77.0	3.8	7.45e-01	0	26	104	16252928	83	34807
2026-01-06 07:59:52.57	62.76	10.68	-57.8	-77.1	3.8	7.44e-01	0	26	104	16252928	83	35095
2026-01-06 07:59:55.57	62.32	10.89	-57.8	-77.1	3.8	7.44e-01	0	26	104	16252928	83	34907
2026-01-06 07:59:58.55	61.87	11.10	-57.8	-77.0	3.8	7.46e-01	0	26	104	16252928	83	34754
2026-01-06 08:00:01.53	61.42	11.30	-57.8	-77.1	3.8	7.47e-01	0	26	104	16252928	83	35084
2026-01-06 08:00:04.52	60.96	11.51	-57.9	-77.2	3.8	7.46e-01	0	26	104	16252928	83	35404
2026-01-06 08:00:07.52	60.49	11.72	-57.8	-77.1	3.8	7.49e-01	0	26	104	16252928	83	35226
2026-01-06 08:00:10.50	60.02	11.93	-57.8	-77.0	3.8	7.47e-01	0	26	104	16252928	83	34758
2026-01-06 08:00:13.49	59.54	12.14	-57.9	-77.2	3.8	7.46e-01	0	26	104	16252928	83	35378
2026-01-06 08:00:16.47	59.05	12.35	-57.9	-77.2	3.8	7.44e-01	0	26	104	16252928	83	35425
2026-01-06 08:00:19.46	58.55	12.56	-57.9	-77.2	3.8	7.46e-01	0	26	104	16252928	83	35559
2026-01-06 08:00:22.45	58.05	12.77	-57.9	-77.0	3.8	7.47e-01	0	26	104	16252928	83	34794
2026-01-06 08:00:25.43	57.54	12.97	-57.9	-77.2	3.8	7.46e-01	0	26	104	16252928	83	35599
2026-01-06 08:00:28.43	57.02	13.18	-57.9	-77.1	3.8	7.50e-01	0	26	104	16252928	83	35204
2026-01-06 08:00:31.42	56.49	13.39	-58.0	-77.2	3.8	7.52e-01	0	26	104	16252928	83	35599
2026-01-06 08:00:34.41	55.95	13.60	-57.9	-77.1	3.8	7.48e-01	0	26	104	16252928	83	35109
2026-01-06 08:00:37.38	55.41	13.81	-58.0	-77.3	3.8	7.50e-01	0	26	104	16252928	83	35863
2026-01-06 08:00:40.36	54.86	14.01	-58.0	-77.1	3.8	7.45e-01	0	26	104	16252928	83	34909
2026-01-06 08:00:43.34	54.30	14.22	-58.0	-77.3	3.8	7.46e-01	0	26	104	16252928	83	35835
2026-01-06 08:00:46.31	53.73	14.42	-58.0	-77.2	3.8	7.46e-01	0	26	104	16252928	83	35612
2026-01-06 08:00:49.29	53.15	14.63	-58.1	-77.4	3.8	7.44e-01	0	26	104	16252928	83	36274
2026-01-06 08:00:52.26	52.57	14.83	-58.0	-77.0	3.8	7.45e-01	0	26	104	16252928	83	34490
2026-01-06 08:00:55.23	51.98	15.03	-58.0	-77.3	3.8	7.48e-01	0	26	104	16252928	83	35730
2026-01-06 08:00:58.20	51.38	15.23	-58.0	-77.3	3.8	7.44e-01	0	26	104	16252928	83	35971
2026-01-06 08:01:01.18	50.77	15.43	-58.1	-77.5	3.8	7.46e-01	0	26	104	16252928	83	36524
2026-01-06 08:01:04.17	50.14	15.63	-58.0	-76.9	3.8	7.46e-01	0	26	104	16252928	83	34128
2026-01-06 08:01:07.15	49.52	15.83	-58.3	-77.4	3.8	7.49e-01	0	26	104	16252928	84	34453
2026-01-06 08:01:10.14	48.87	16.02	-58.3	-77.6	3.8	7.45e-01	0	26	104	16252928	84	34925
2026-01-06 08:01:13.11	48.23	16.22	-58.4	-77.7	3.8	7.45e-01	0	26	104	16252928	84	35372
2026-01-06 08:01:16.09	47.57	16.41	-58.2	-77.1	3.8	7.46e-01	0	26	104	16252928	84	33081
2026-01-06 08:01:19.08	46.91	16.60	-58.3	-77.5	3.8	7.44e-01	0	26	104	16252928	84	34621
2026-01-06 08:01:22.05	46.23	16.78	-58.3	-77.6	3.8	7.49e-01	0	26	104	16252928	84	34912
2026-01-06 08:01:25.02	45.55	16.97	-58.4	-77.7	3.8	7.47e-01	0	26	104	16252928	84	35541
2026-01-06 08:01:28.02	44.86	17.15	-58.3	-77.2	3.8	7.45e-01	0	26	104	16252928	84	33341
2026-01-06 08:01:30.99	44.16	17.33	-58.4	-77.5	3.8	7.45e-01	0	26	104	16252928	84	34729
2026-01-06 08:01:33.97	43.45	17.51	-58.4	-77.6	3.8	7.48e-01	0	26	104	16252928	84	34934
2026-01-06 08:01:36.96	42.73	17.68	-58.4	-77.7	3.8	7.45e-01	0	26	104	16252928	84	35561
2026-01-06 08:01:39.94	42.00	17.85	-58.3	-77.2	3.8	7.46e-01	0	26	104	16252928	84	33641
2026-01-06 08:01:42.93	41.26	18.02	-58.4	-77.6	3.8	7.46e-01	0	26	104	16252928	84	34931
2026-01-06 08:01:45.91	40.51	18.18	-58.4	-77.6	3.8	7.46e-01	0	26	104	16252928	84	35070
2026-01-06 08:01:48.88	39.76	18.34	-58.4	-77.7	3.8	7.49e-01	0	26	104	16252928	84	35526
2026-01-06 08:01:51.85	39.00	18.50	-58.4	-77.4	3.8	7.46e-01	0	26	104	16252928	84	34199
2026-01-06 08:01:54.83	38.23	18.65	-58.4	-77.6	3.8	7.44e-01	0	26	104	16252928	84	35245
2026-01-06 08:01:57.80	37.46	18.80	-58.4	-77.6	3.8	7.45e-01	0	26	104	16252928	84	35175
2026-01-06 08:02:00.78	36.67	18.94	-58.5	-77.7	3.8	7.44e-01	0	26	104	16252928	84	35522
2026-01-06 08:02:03.76	35.88	19.08	-58.4	-77.5	3.8	7.48e-01	0	26	104	16252928	84	34527
2026-01-06 08:02:06.72	35.08	19.22	-58.4	-77.7	3.8	7.48e-01	0	26	104	16252928	84	35400
2026-01-06 08:02:09.70	34.27	19.35	-58.4	-77.7	3.8	7.47e-01	0	26	104	16252928	84	35565
2026-01-06 08:02:12.68	33.46	19.47	-58.5	-77.6	3.8	7.47e-01	0	26	104	16252928	84	35282
2026-01-06 08:02:15.67	32.63	19.59	-58.4	-77.6	3.8	7.48e-01	0	26	104	16252928	84	34969
2026-01-06 08:02:18.65	31.80	19.70	-58.5	-77.7	3.8	7.50e-01	0	26	104	16252928	84	35524
2026-01-06 08:02:21.63	30.96	19.81	-58.5	-77.8	3.8	7.43e-01	0	26	104	16252928	84	35793
2026-01-06 08:02:24.62	30.12	19.92	-58.5	-77.6	3.8	7.45e-01	0	26	104	16252928	84	35019
2026-01-06 08:02:27.60	29.27	20.01	-58.5	-77.7	3.8	7.48e-01	0	26	104	16252928	84	35432
2026-01-06 08:02:30.59	28.41	20.10	-58.5	-77.7	3.8	7.46e-01	0	26	104	16252928	84	35410
2026-01-06 08:02:33.57	27.55	20.19	-58.5	-77.8	3.8	7.46e-01	0	26	104	16252928	84	35873
2026-01-06 08:02:36.54	26.69	20.27	-58.4	-77.5	3.8	7.47e-01	0	26	104	16252928	84	34634
2026-01-06 08:02:39.51	25.83	20.34	-58.5	-77.8	3.8	7.44e-01	0	26	104	16252928	84	35722
2026-01-06 08:02:42.49	24.95	20.41	-58.5	-77.7	3.8	7.48e-01	0	26	104	16252928	84	35372
2026-01-06 08:02:45.47	24.08	20.46	-58.5	-77.7	3.8	7.45e-01	0	26	104	16252928	84	35688
2026-01-06 08:02:48.46	23.19	20.52	-58.5	-77.5	3.8	7.43e-01	0	26	104	16252928	84	34542
2026-01-06 08:02:51.43	22.31	20.56	-58.5	-77.8	3.8	7.47e-01	0	26	104	16252928	84	35923
2026-01-06 08:02:54.41	21.43	20.60	-58.5	-77.7	3.8	7.46e-01	0	26	104	16252928	84	35405
2026-01-06 08:02:57.37	20.55	20.63	-58.5	-77.7	3.8	7.46e-01	0	26	104	16252928	84	35455
2026-01-06 08:03:00.36	19.66	20.66	-58.5	-77.5	3.8	7.45e-01	0	26	104	16252928	84	34488
2026-01-06 08:03:03.35	18.76	20.68	-58.5	-77.8	3.8	7.48e-01	0	26	104	16252928	84	36076
2026-01-06 08:03:06.33	17.87	20.69	-58.5	-77.7	3.8	7.43e-01	0	26	104	16252928	84	35506
2026-01-06 08:03:09.31	16.98	20.69	-58.5	-77.7	3.8	7.51e-01	0	26	104	16252928	84	35305
2026-01-06 08:03:12.29	16.09	20.69	-58.5	-77.4	3.9	7.49e-01	0	26	104	16252928	84	34477
2026-01-06 08:03:15.28	15.19	20.68	-58.6	-77.8	3.8	7.47e-01	0	26	104	16252928	84	36096
2026-01-06 08:03:18.26	14.30	20.66	-58.5	-77.7	3.8	7.47e-01	0	26	104	16252928	84	35581
2026-01-06 08:03:21.24	13.41	20.64	-58.5	-77.7	3.9	7.46e-01	0	26	104	16252928	84	35622
2026-01-06 08:03:24.23	12.52	20.61	-58.5	-77.4	3.8	7.47e-01	0	26	104	16252928	84	34242
2026-01-06 08:03:27.22	11.63	20.57	-58.6	-77.9	3.8	7.46e-01	0	26	104	16252928	84	36135
2026-01-06 08:03:30.19	10.75	20.53	-58.5	-77.7	3.8	7.48e-01	0	26	104	16252928	84	35638
2026-01-06 08:03:33.18	9.87	20.47	-58.6	-77.8	3.8	7.48e-01	0	26	104	16252928	84	35956
2026-01-06 08:03:36.16	9.00	20.42	-58.5	-77.4	3.8	7.46e-01	0	26	104	16252928	84	34163
2026-01-06 08:03:39.14	8.12	20.35	-58.6	-77.9	3.8	7.50e-01	0	26	104	16252928	84	36117
2026-01-06 08:03:42.12	7.25	20.28	-58.5	-77.8	3.8	7.45e-01	0	26	104	16252928	84	35826
2026-01-06 08:03:45.10	6.39	20.20	-58.6	-77.9	3.8	7.48e-01	0	26	104	16252928	84	36132
2026-01-06 08:03:48.08	5.53	20.12	-58.5	-77.4	3.8	7.51e-01	0	26	104	16252928	84	34238
2026-01-06 08:03:51.07	4.67	20.03	-58.6	-77.9	3.8	7.48e-01	0	26	104	16252928	84	36163
2026-01-06 08:03:54.05	3.82	19.93	-58.5	-77.2	3.8	7.44e-01	0	26	104	16252928	84	33634
2026-01-06 08:03:57.03	2.98	19.83	-58.5	-77.3	3.8	7.44e-01	0	26	104	16252928	84	33877
2026-01-06 08:04:00.00	2.15	19.72	-58.6	-77.9	3.8	7.42e-01	0	26	104	16252928	84	36481
2026-01-06 08:04:02.98	1.32	19.61	-58.5	-77.3	3.8	7.48e-01	0	26	104	16252928	84	33705
2026-01-06 08:04:05.96	0.49	19.49	-58.6	-77.9	3.8	7.44e-01	0	26	104	16252928	84	36119
2026-01-06 08:04:08.94	359.68	19.37	-58.5	-77.4	3.8	7.45e-01	0	26	104	16252928	84	34166
2026-01-06 08:04:11.92	358.87	19.24	-58.5	-77.7	3.8	7.42e-01	0	26	104	16252928	84	35657
2026-01-06 08:04:14.90	358.06	19.11	-58.6	-77.9	3.8	7.43e-01	0	26	104	16252928	84	36158
2026-01-06 08:04:17.88	357.27	18.97	-58.5	-77.2	3.8	7.46e-01	0	26	104	16252928	84	33606
2026-01-06 08:04:20.85	356.48	18.83	-58.4	-77.3	3.8	7.48e-01	0	26	104	16252928	84	33974
2026-01-06 08:04:23.82	355.71	18.68	-58.5	-77.9	3.8	7.44e-01	0	26	104	16252928	84	36251
2026-01-06 08:04:26.79	354.94	18.53	-58.5	-77.9	3.8	7.43e-01	0	26	104	16252928	84	36297
2026-01-06 08:04:29.78	354.17	18.37	-58.4	-77.4	3.8	7.45e-01	0	26	104	16252928	84	34306
2026-01-06 08:04:32.76	353.42	18.21	-58.5	-77.8	3.9	7.46e-01	0	26	104	16252928	84	35946
2026-01-06 08:04:35.75	352.67	18.05	-58.5	-77.8	3.8	7.42e-01	0	26	104	16252928	84	35721
2026-01-06 08:04:38.72	351.94	17.88	-58.5	-77.9	3.8	7.47e-01	0	26	104	16252928	84	36247
2026-01-06 08:04:41.68	351.21	17.71	-58.4	-77.5	3.8	7.46e-01	0	26	104	16252928	84	34517
2026-01-06 08:04:44.67	350.49	17.54	-58.5	-77.8	3.8	7.45e-01	0	26	104	16252928	84	35762
2026-01-06 08:04:47.64	349.78	17.36	-58.4	-77.5	3.9	7.47e-01	0	26	104	16252928	84	34822
2026-01-06 08:04:50.62	349.08	17.19	-58.5	-77.9	3.8	7.51e-01	0	26	104	16252928	84	36153
2026-01-06 08:04:53.61	348.39	17.00	-58.4	-77.5	3.8	7.48e-01	0	26	104	16252928	84	34773
2026-01-06 08:04:56.57	347.71	16.82	-58.4	-77.8	3.8	7.47e-01	0	26	104	16252928	84	35735
2026-01-06 08:04:59.55	347.03	16.63	-58.4	-77.5	3.8	7.45e-01	0	26	104	16252928	84	34842
2026-01-06 08:05:02.53	346.37	16.45	-58.5	-77.8	3.8	7.48e-01	0	26	104	16252928	84	36065
2026-01-06 08:05:05.50	345.71	16.25	-58.4	-77.6	3.8	7.47e-01	0	26	104	16252928	84	35273
2026-01-06 08:05:08.47	345.07	16.06	-58.4	-77.7	3.8	7.46e-01	0	26	104	16252928	84	35328
2026-01-06 08:05:11.44	344.43	15.87	-58.4	-77.7	3.8	7.46e-01	0	26	104	16252928	84	35555
2026-01-06 08:05:14.41	343.80	15.67	-58.4	-77.8	3.8	7.49e-01	0	26	104	16252928	84	35874
2026-01-06 08:05:17.39	343.18	15.48	-58.4	-77.7	3.8	7.49e-01	0	26	104	16252928	84	35554
2026-01-06 08:05:20.38	342.57	15.28	-58.3	-77.6	3.8	7.45e-01	0	26	104	16252928	84	34881
2026-01-06 08:05:23.36	341.96	15.07	-58.4	-77.7	3.8	7.45e-01	0	26	104	16252928	84	35660
2026-01-06 08:05:26.34	341.37	14.87	-58.4	-77.8	3.8	7.44e-01	0	26	104	16252928	84	35760
2026-01-06 08:05:29.33	340.78	14.67	-58.3	-77.7	3.8	7.46e-01	0	26	104	16252928	84	35369
2026-01-06 08:05:32.29	340.21	14.47	-58.3	-77.4	3.8	7.47e-01	0	26	104	16252928	84	34419
2026-01-06 08:05:35.26	339.64	14.26	-58.4	-77.6	3.8	7.46e-01	0	26	104	16252928	84	35071
2026-01-06 08:05:38.25	339.08	14.06	-58.3	-77.7	3.8	7.45e-01	0	26	104	16252928	84	35574
2026-01-06 08:05:41.23	338.52	13.85	-58.3	-77.6	3.8	7.47e-01	0	26	104	16252928	84	35192
2026-01-06 08:05:44.20	337.98	13.65	-58.3	-77.4	3.8	7.48e-01	0	26	104	16252928	84	34374
2026-01-06 08:05:47.17	337.45	13.44	-58.3	-77.3	3.8	7.46e-01	0	26	104	16252928	84	33880
2026-01-06 08:05:50.14	336.92	13.23	-58.3	-77.2	3.8	7.47e-01	0	26	104	16252928	84	33674
2026-01-06 08:05:53.12	336.40	13.02	-58.3	-77.2	3.8	7.44e-01	0	26	104	16252928	84	33643
2026-01-06 08:05:56.10	335.89	12.82	-58.3	-77.6	3.8	7.49e-01	0	26	104	16252928	84	35199
2026-01-06 08:05:59.09	335.39	12.61	-58.2	-77.5	3.8	7.43e-01	0	26	104	16252928	84	34858
2026-01-06 08:06:02.07	334.89	12.40	-58.2	-77.4	3.8	7.45e-01	0	26	104	16252928	84	34349
2026-01-06 08:06:05.05	334.40	12.19	-58.2	-77.2	3.8	7.46e-01	0	26	104	16252928	84	33379
2026-01-06 08:06:08.04	333.92	11.98	-58.2	-76.8	3.8	7.47e-01	0	27	104	16252928	84	32076
2026-01-06 08:06:11.01	333.45	11.78	-58.2	-76.6	3.8	7.46e-01	0	26	104	16252928	84	31282
2026-01-06 08:06:13.99	332.98	11.57	-58.2	-74.6	3.9	7.41e-01	0	26	104	16252928	84	24877
2026-01-06 08:06:16.97	332.52	11.36	-58.2	-76.2	3.8	7.49e-01	0	26	104	16252928	84	29880
2026-01-06 08:06:19.96	332.07	11.15	-58.1	-76.7	3.9	7.48e-01	0	26	104	16252928	84	31753
2026-01-06 08:06:22.93	331.62	10.95	-58.1	-74.9	3.9	7.44e-01	0	26	104	16252928	84	25685
2026-01-06 08:06:25.89	331.19	10.74	-58.1	-77.2	3.8	7.45e-01	0	26	104	16252928	84	33377
2026-01-06 08:06:28.86	330.76	10.54	-58.1	-75.9	3.9	7.44e-01	0	26	104	16252928	84	28893
2026-01-06 08:06:31.84	330.33	10.33	-58.1	-77.4	3.8	7.46e-01	0	26	104	16252928	84	34445
2026-01-06 08:06:34.82	329.92	10.12	-58.1	-75.7	3.9	7.50e-01	0	26	104	16252928	84	28349
2026-01-06 08:06:37.79	329.51	9.92	-58.0	-74.9	3.9	7.38e-01	0	26	104	16252928	84	25754
2026-01-06 08:06:40.77	329.10	9.72	-58.0	-74.5	4.1	7.38e-01	0	26	104	16252928	84	24470
2026-01-06 08:06:43.75	328.70	9.51	-58.0	-77.4	3.8	7.45e-01	0	26	104	16252928	84	34088
2026-01-06 08:06:46.74	328.31	9.31	-58.0	-74.7	4.0	7.38e-01	0	26	104	16252928	84	25096
2026-01-06 08:06:49.71	327.92	9.11	-57.9	-76.7	3.8	7.45e-01	0	26	104	16252928	84	31737
2026-01-06 08:06:52.70	327.54	8.90	-57.9	-75.2	3.9	7.46e-01	0	26	104	16252928	84	26536
2026-01-06 08:06:55.69	327.16	8.70	-57.9	-76.9	3.8	7.47e-01	0	26	104	16252928	84	32307
2026-01-06 08:06:58.68	326.79	8.50	-58.0	-75.7	3.9	7.45e-01	0	26	104	16252928	84	28179
2026-01-06 08:07:01.65	326.43	8.30	-57.8	-75.0	3.9	7.44e-01	0	26	104	16252928	84	26120
2026-01-06 08:07:04.65	326.07	8.10	-57.8	-75.1	3.9	7.44e-01	0	26	104	16252928	84	26343
2026-01-06 08:07:07.63	325.71	7.90	-57.8	-76.7	3.7	7.48e-01	0	26	104	16252928	84	31743
2026-01-06 08:07:10.60	325.37	7.71	-57.7	-75.0	3.9	7.44e-01	0	26	104	16252928	84	26025
2026-01-06 08:07:13.59	325.02	7.51	-57.7	-76.1	3.8	7.49e-01	0	26	104	16252928	84	29587
2026-01-06 08:07:16.56	324.69	7.31	-57.7	-75.1	3.8	7.44e-01	0	26	104	16252928	84	26365
2026-01-06 08:07:19.54	324.35	7.12	-57.7	-75.3	3.8	7.41e-01	0	26	104	16252928	84	26930
2026-01-06 08:07:22.51	324.03	6.92	-57.7	-75.3	3.8	7.46e-01	0	26	104	16252928	84	26950
2026-01-06 08:07:25.50	323.70	6.73	-57.6	-75.0	3.9	7.47e-01	0	26	104	16252928	84	25873
2026-01-06 08:07:28.47	323.39	6.54	-57.5	-75.0	3.9	7.47e-01	0	26	104	16252928	84	25908
2026-01-06 08:07:31.45	323.07	6.35	-57.5	-75.1	3.9	7.43e-01	0	26	104	16252928	84	26362
2026-01-06 08:07:34.41	322.77	6.16	-57.4	-74.9	3.9	7.46e-01	0	27	104	16252928	84	25713
2026-01-06 08:07:37.39	322.46	5.97	-57.2	-74.5	3.9	7.44e-01	0	26	104	16252928	83	26071
2026-01-06 08:07:40.37	322.16	5.78	-57.1	-75.7	3.9	7.44e-01	0	26	104	16252928	83	29923
2026-01-06 08:07:43.36	321.87	5.59	-57.0	-75.0	3.8	7.47e-01	0	26	104	16252928	83	27568
2026-01-06 08:07:46.34	321.58	5.40	-57.1	-75.2	3.8	7.42e-01	0	26	104	16252928	82	29864
2026-01-06 08:07:49.33	321.29	5.21	-56.9	-74.6	3.9	7.46e-01	0	26	104	16252928	82	27857
2026-01-06 08:07:52.32	321.01	5.02	-57.0	-75.5	3.8	7.47e-01	0	26	104	16252928	82	30760
2026-01-06 08:07:55.30	320.73	4.84	-58.5	-77.9	3.8	7.43e-01	0	26	104	16252928	84	36190
2026-01-06 08:07:58.28	320.45	4.65	-59.2	-78.6	3.8	7.46e-01	0	26	104	16252928	86	35039
2026-01-06 08:08:01.26	320.18	4.47	-59.6	-79.0	3.8	7.44e-01	0	27	104	16252928	86	36607
2026-01-06 08:08:04.27	319.91	4.29	-59.8	-79.2	3.8	7.45e-01	0	26	104	16252928	87	35363
2026-01-06 08:08:07.25	319.65	4.10	-59.9	-79.3	3.8	7.45e-01	0	26	104	16252928	87	35948
2026-01-06 08:08:10.23	319.39	3.92	-60.0	-79.4	3.8	7.45e-01	0	27	104	16252928	87	36310
2026-01-06 08:08:13.21	319.13	3.74	-60.0	-79.4	3.8	7.46e-01	0	26	104	16252928	87	36347
2026-01-06 08:08:16.20	318.88	3.56	-59.9	-79.3	3.8	7.47e-01	0	27	104	16252928	87	36049
2026-01-06 08:08:19.18	318.63	3.38	-59.9	-79.3	3.8	7.44e-01	0	26	104	16252928	87	35989
2026-01-06 08:08:22.16	318.39	3.21	-59.9	-79.3	3.8	7.46e-01	0	26	104	16252928	87	35789
2026-01-06 08:08:25.13	318.15	3.03	-59.8	-79.2	3.8	7.45e-01	0	26	104	16252928	87	35627
2026-01-06 08:08:28.12	317.91	2.85	-59.8	-79.2	3.8	7.48e-01	0	26	104	16252928	87	35509
2026-01-06 08:08:31.08	317.67	2.68	-59.8	-79.2	3.8	7.43e-01	0	26	104	16252928	87	35422
2026-01-06 08:08:34.05	317.44	2.50	-59.8	-79.2	3.8	7.43e-01	0	26	104	16252928	87	35376
2026-01-06 08:08:37.04	317.21	2.33	-59.8	-79.2	3.8	7.47e-01	0	26	104	16252928	87	35334
2026-01-06 08:08:40.02	316.98	2.15	-59.8	-79.2	3.8	7.44e-01	0	26	104	16252928	87	35372

#Closed at: 2026-01-06 08:08:43
#Recorded file [16 MB]: D:/lorett/data/31004_260106_105738.dat