passes_logs/2026/01/06/R3.2S_Murmansk/R3.2S_Murmansk__20260106_121959_SUOMI_NPP_rec.log

#Pass ID: 20260106_121959_SUOMI NPP
#Satellite: SUOMI NPP
#Configuration: NPP
#almurnet v.1.7.20251203
#Start time: 2026-01-06 12:19:58

#Version: 2.2.20231116
#Station: R3.2S_Murmansk
#Location: 33.079688 lon 68.888172 lat
#TLE: 1 37849U 11061A   26004.95404768  .00000136  00000+0  85334-4 0  9991
#TLE: 2 37849  98.7801 307.0898 0002575  80.6707 279.4760 14.19522289735281

#Time	Az	El	Level	Level2	SNR	BER	BlckErr	Temp	State	Recorded	gain1	gain2
2026-01-06 12:19:58.89	221.64	1.98	-58.9	-74.9	3.8	1.49e+00	0	26	0	0	84	22158
2026-01-06 12:20:01.91	221.88	2.14	-58.7	-74.7	3.8	1.49e+00	0	26	104	0	82	24273
2026-01-06 12:20:04.91	222.13	2.30	-58.7	-74.6	3.8	1.49e+00	0	26	104	0	82	24089
2026-01-06 12:20:07.91	222.37	2.46	-58.7	-74.7	3.8	1.49e+00	0	26	104	0	82	24289
2026-01-06 12:20:10.90	222.62	2.61	-58.7	-74.7	3.8	1.49e+00	0	26	104	0	82	24194
2026-01-06 12:20:13.90	222.87	2.77	-58.7	-74.7	3.8	1.49e+00	0	26	104	0	82	24287
2026-01-06 12:20:16.90	223.12	2.93	-58.7	-74.7	3.8	1.49e+00	0	26	104	0	82	24389
2026-01-06 12:20:19.90	223.38	3.09	-58.7	-74.6	3.8	1.49e+00	0	27	104	0	82	24115
2026-01-06 12:20:22.91	223.64	3.25	-58.7	-74.6	3.8	1.49e+00	0	27	104	0	82	24107
2026-01-06 12:20:25.90	223.90	3.41	-58.7	-74.7	3.8	1.49e+00	0	27	104	0	82	24373
2026-01-06 12:20:28.88	224.16	3.57	-58.7	-74.7	3.8	1.49e+00	0	27	104	0	82	24298
2026-01-06 12:20:31.88	224.43	3.73	-58.7	-74.5	3.8	1.49e+00	0	27	104	0	82	23849
2026-01-06 12:20:34.88	224.70	3.90	-58.7	-74.5	3.8	1.49e+00	0	27	104	0	82	23741
2026-01-06 12:20:37.87	224.97	4.06	-58.7	-74.4	3.8	1.49e+00	0	27	104	0	82	23323
2026-01-06 12:20:40.87	225.25	4.22	-58.7	-74.4	3.8	1.49e+00	0	27	104	0	82	23432
2026-01-06 12:20:43.86	225.52	4.38	-58.7	-74.6	3.8	1.49e+00	0	27	104	0	82	23908
2026-01-06 12:20:46.86	225.81	4.55	-58.6	-71.5	4.1	1.48e+00	0	27	0	0	82	16748
2026-01-06 12:20:49.86	226.09	4.71	-58.4	-70.0	4.6	9.99e-01	0	27	0	4194304	82	14053
2026-01-06 12:20:52.86	226.38	4.88	-57.9	-65.5	7.4	1.18e-01	0	27	0	9437184	82	8396
2026-01-06 12:20:55.87	226.67	5.04	-56.6	-61.3	10.7	4.83e-04	0	27	0	14680064	79	6185
2026-01-06 12:20:58.86	226.96	5.21	-56.3	-60.4	11.5	1.05e+00	0	27	0	18874368	78	5867
2026-01-06 12:21:01.87	227.26	5.37	-55.1	-58.2	12.8	0.00e+00	0	27	0	24117248	76	5101
2026-01-06 12:21:04.87	227.56	5.54	-55.4	-58.6	12.5	0.00e+00	0	28	0	30408704	76	5397
2026-01-06 12:21:07.87	227.86	5.71	-55.6	-59.1	12.2	0.00e+00	0	27	0	35651584	76	5689
2026-01-06 12:21:10.87	228.17	5.87	-55.2	-58.4	12.7	0.00e+00	0	27	0	40894464	76	5236
2026-01-06 12:21:13.88	228.48	6.04	-55.0	-57.9	13.0	0.00e+00	0	28	0	47185920	76	4981
2026-01-06 12:21:16.88	228.79	6.21	-54.9	-57.8	13.1	0.00e+00	0	28	0	52428800	76	4875
2026-01-06 12:21:19.87	229.11	6.38	-55.3	-58.4	12.8	0.00e+00	0	28	0	58720256	76	5236
2026-01-06 12:21:22.87	229.43	6.55	-54.9	-57.8	13.0	0.00e+00	0	28	0	63963136	75	5210
2026-01-06 12:21:25.87	229.75	6.72	-54.8	-57.6	13.2	0.00e+00	0	28	0	69206016	75	5053
2026-01-06 12:21:28.88	230.08	6.89	-54.3	-56.8	13.6	0.00e+00	0	28	0	75497472	75	4628
2026-01-06 12:21:31.87	230.41	7.06	-54.5	-57.1	13.4	0.00e+00	0	28	0	80740352	75	4796
2026-01-06 12:21:34.87	230.75	7.23	-54.3	-56.8	13.6	0.00e+00	0	28	0	85983232	75	4629
2026-01-06 12:21:37.84	231.08	7.39	-54.3	-56.8	13.5	0.00e+00	0	28	0	92274688	74	4918
2026-01-06 12:21:40.84	231.43	7.57	-54.3	-56.8	13.5	0.00e+00	0	28	0	97517568	74	4903
2026-01-06 12:21:43.82	231.77	7.74	-54.2	-56.6	13.6	0.00e+00	0	28	0	102760448	74	4807
2026-01-06 12:21:46.81	232.12	7.91	-54.4	-57.0	13.4	0.00e+00	0	28	0	109051904	74	5009
2026-01-06 12:21:49.80	232.47	8.08	-54.3	-56.8	13.6	0.00e+00	0	28	0	114294784	74	4874
2026-01-06 12:21:52.79	232.83	8.25	-54.4	-56.9	13.5	0.00e+00	0	28	0	119537664	74	4969
2026-01-06 12:21:55.78	233.19	8.42	-54.3	-56.7	13.6	0.00e+00	0	28	0	125829120	74	4864
2026-01-06 12:21:58.78	233.56	8.59	-53.8	-56.1	13.9	0.00e+00	0	28	0	131072000	74	4520
2026-01-06 12:22:01.76	233.93	8.76	-53.8	-56.1	13.9	0.00e+00	0	28	0	136314880	74	4506
2026-01-06 12:22:04.74	234.30	8.93	-54.0	-56.4	13.8	0.00e+00	0	28	0	142606336	74	4652
2026-01-06 12:22:07.73	234.68	9.11	-54.1	-56.4	13.8	0.00e+00	0	28	0	147849216	74	4679
2026-01-06 12:22:10.71	235.06	9.28	-53.8	-56.1	13.9	0.00e+00	0	28	0	153092096	74	4510
2026-01-06 12:22:13.70	235.45	9.45	-53.8	-56.1	14.0	0.00e+00	0	28	0	159383552	74	4500
2026-01-06 12:22:16.67	235.83	9.62	-53.8	-56.1	14.0	0.00e+00	0	28	0	164626432	74	4505
2026-01-06 12:22:19.65	236.23	9.79	-53.9	-56.1	13.9	0.00e+00	0	28	0	170917888	74	4535
2026-01-06 12:22:22.64	236.63	9.97	-53.9	-56.1	13.8	0.00e+00	0	28	0	176160768	73	4806
2026-01-06 12:22:25.62	237.03	10.14	-53.8	-56.1	13.9	0.00e+00	0	28	0	181403648	73	4781
2026-01-06 12:22:28.60	237.44	10.31	-53.9	-56.2	13.8	0.00e+00	0	28	0	187695104	73	4831
2026-01-06 12:22:31.59	237.85	10.48	-53.9	-56.2	13.8	0.00e+00	0	28	0	192937984	73	4853
2026-01-06 12:22:34.58	238.27	10.65	-53.6	-55.8	14.0	0.00e+00	0	28	0	198180864	73	4599
2026-01-06 12:22:37.57	238.70	10.83	-53.7	-55.9	14.0	0.00e+00	0	28	0	204472320	73	4688
2026-01-06 12:22:40.57	239.13	11.00	-53.7	-55.9	13.9	0.00e+00	0	28	0	209715200	73	4701
2026-01-06 12:22:43.56	239.56	11.17	-53.7	-55.8	14.0	0.00e+00	0	28	0	214958080	73	4647
2026-01-06 12:22:46.55	240.00	11.34	-53.6	-55.7	14.1	0.00e+00	0	28	0	221249536	73	4575
2026-01-06 12:22:49.54	240.44	11.51	-53.7	-55.9	14.0	0.00e+00	0	28	0	226492416	73	4681
2026-01-06 12:22:52.53	240.89	11.68	-53.4	-55.5	14.1	0.00e+00	0	28	0	231735296	73	4470
2026-01-06 12:22:55.53	241.34	11.85	-53.6	-55.8	14.1	0.00e+00	0	28	0	238026752	73	4616
2026-01-06 12:22:58.53	241.80	12.02	-53.6	-55.8	14.1	0.00e+00	0	28	0	243269632	73	4599
2026-01-06 12:23:01.53	242.27	12.19	-53.7	-55.8	14.1	0.00e+00	0	28	0	248512512	73	4619
2026-01-06 12:23:04.52	242.73	12.36	-53.5	-55.6	14.1	0.00e+00	0	28	0	254803968	73	4533
2026-01-06 12:23:07.51	243.21	12.53	-53.5	-55.5	14.2	0.00e+00	0	28	0	260046848	73	4489
2026-01-06 12:23:10.52	243.69	12.70	-53.6	-55.8	14.1	0.00e+00	0	28	0	265289728	73	4604
2026-01-06 12:23:13.52	244.18	12.87	-53.4	-55.4	14.2	0.00e+00	0	28	0	271581184	73	4404
2026-01-06 12:23:16.51	244.67	13.03	-53.1	-55.0	14.3	0.00e+00	0	28	0	276824064	72	4475
2026-01-06 12:23:19.48	245.16	13.20	-52.9	-54.8	14.4	0.00e+00	0	28	0	282066944	72	4360
2026-01-06 12:23:22.49	245.66	13.36	-53.0	-54.9	14.4	0.00e+00	0	28	0	288358400	72	4411
2026-01-06 12:23:25.48	246.17	13.53	-53.4	-55.4	14.1	0.00e+00	0	28	0	293601280	72	4671
2026-01-06 12:23:28.48	246.68	13.69	-53.3	-55.3	14.2	0.00e+00	0	28	0	299892736	72	4644
2026-01-06 12:23:31.49	247.20	13.85	-53.1	-55.0	14.3	0.00e+00	0	28	0	305135616	72	4469
2026-01-06 12:23:34.48	247.72	14.01	-53.0	-54.9	14.4	0.00e+00	0	28	0	310378496	72	4405
2026-01-06 12:23:37.47	248.25	14.17	-53.0	-54.8	14.4	0.00e+00	0	28	0	316669952	72	4381
2026-01-06 12:23:40.48	248.78	14.33	-53.0	-54.8	14.4	0.00e+00	0	28	0	321912832	72	4390
2026-01-06 12:23:43.47	249.32	14.49	-53.2	-55.1	14.3	0.00e+00	0	28	0	327155712	72	4527
2026-01-06 12:23:46.46	249.87	14.65	-53.2	-55.2	14.2	0.00e+00	0	28	0	333447168	72	4550
2026-01-06 12:23:49.45	250.42	14.80	-52.9	-54.8	14.4	0.00e+00	0	28	0	338690048	72	4380
2026-01-06 12:23:52.45	250.97	14.95	-53.1	-55.0	14.3	0.00e+00	0	28	0	343932928	72	4491
2026-01-06 12:23:55.44	251.53	15.11	-53.6	-55.7	14.0	0.00e+00	0	28	0	350224384	72	4843
2026-01-06 12:23:58.44	252.10	15.26	-53.5	-55.6	14.1	0.00e+00	0	29	0	355467264	72	4773
2026-01-06 12:24:01.45	252.68	15.40	-53.7	-55.8	14.0	0.00e+00	0	28	0	361758720	72	4874
2026-01-06 12:24:04.42	253.25	15.55	-54.0	-56.2	13.9	0.00e+00	0	28	0	367001600	73	4870
2026-01-06 12:24:07.42	253.84	15.69	-53.9	-56.1	13.9	0.00e+00	0	28	0	372244480	73	4810
2026-01-06 12:24:10.42	254.43	15.84	-53.8	-56.0	14.0	0.00e+00	0	28	0	378535936	73	4724
2026-01-06 12:24:13.42	255.02	15.98	-54.0	-56.2	13.9	0.00e+00	0	29	0	383778816	73	4816
2026-01-06 12:24:16.40	255.62	16.11	-53.8	-56.0	14.0	0.00e+00	0	29	0	389021696	73	4741
2026-01-06 12:24:19.38	256.22	16.25	-54.1	-56.3	13.9	0.00e+00	0	28	0	395313152	73	4903
2026-01-06 12:24:22.37	256.83	16.38	-54.0	-56.2	13.9	0.00e+00	0	28	0	400556032	73	4845
2026-01-06 12:24:25.36	257.44	16.51	-53.7	-55.8	14.1	0.00e+00	0	29	0	405798912	73	4619
2026-01-06 12:24:28.35	258.06	16.64	-54.1	-56.4	13.8	0.00e+00	0	28	0	412090368	73	4942
2026-01-06 12:24:31.36	258.69	16.77	-54.3	-56.6	13.8	0.00e+00	0	29	0	417333248	73	5042
2026-01-06 12:24:34.34	259.32	16.89	-53.8	-56.0	14.0	0.00e+00	0	29	0	422576128	73	4716
2026-01-06 12:24:37.34	259.96	17.02	-53.9	-56.0	14.0	0.00e+00	0	28	0	428867584	73	4731
2026-01-06 12:24:40.33	260.60	17.13	-53.8	-55.9	14.0	0.00e+00	0	28	0	434110464	73	4681
2026-01-06 12:24:43.32	261.24	17.25	-53.6	-55.7	14.2	0.00e+00	0	28	0	439353344	73	4549
2026-01-06 12:24:46.31	261.89	17.36	-54.1	-56.3	13.9	0.00e+00	0	29	0	445644800	73	4887
2026-01-06 12:24:49.31	262.55	17.47	-53.8	-55.9	14.1	0.00e+00	0	29	0	450887680	73	4693
2026-01-06 12:24:52.30	263.20	17.58	-53.2	-55.1	14.3	0.00e+00	0	28	0	456130560	72	4527
2026-01-06 12:24:55.30	263.87	17.68	-53.4	-55.4	14.2	0.00e+00	0	29	0	462422016	72	4705
2026-01-06 12:24:58.28	264.53	17.78	-53.6	-55.6	14.1	0.00e+00	0	29	0	467664896	72	4784
2026-01-06 12:25:01.29	265.21	17.88	-53.3	-55.3	14.2	0.00e+00	0	29	0	472907776	72	4607
2026-01-06 12:25:04.27	265.88	17.97	-53.3	-55.2	14.3	0.00e+00	0	29	0	479199232	72	4597
2026-01-06 12:25:07.28	266.57	18.06	-52.8	-54.6	14.5	0.00e+00	0	29	0	484442112	71	4506
2026-01-06 12:25:10.27	267.25	18.14	-52.6	-54.4	14.5	0.00e+00	0	28	0	490733568	71	4397
2026-01-06 12:25:13.27	267.94	18.23	-53.2	-55.1	14.2	0.00e+00	0	29	0	495976448	71	4794
2026-01-06 12:25:16.26	268.63	18.30	-52.7	-54.5	14.4	0.00e+00	0	29	0	501219328	71	4483
2026-01-06 12:25:19.25	269.32	18.38	-52.9	-54.7	14.4	0.00e+00	0	29	0	507510784	71	4566
2026-01-06 12:25:22.25	270.02	18.45	-52.6	-54.4	14.5	0.00e+00	0	29	0	512753664	71	4396
2026-01-06 12:25:25.24	270.72	18.52	-52.8	-54.6	14.4	0.00e+00	0	28	0	517996544	71	4545
2026-01-06 12:25:28.24	271.43	18.58	-52.9	-54.7	14.4	0.00e+00	0	28	0	524288000	71	4570
2026-01-06 12:25:31.24	272.14	18.64	-52.5	-54.2	14.6	0.00e+00	0	29	0	529530880	71	4318
2026-01-06 12:25:34.23	272.84	18.69	-53.4	-55.3	14.1	0.00e+00	0	29	0	534773760	71	4925
2026-01-06 12:25:37.21	273.55	18.74	-53.2	-55.1	14.3	0.00e+00	0	29	0	541065216	72	4536
2026-01-06 12:25:40.21	274.27	18.79	-53.5	-55.5	14.2	0.00e+00	0	29	0	546308096	72	4711
2026-01-06 12:25:43.22	274.99	18.83	-53.7	-55.8	14.0	0.00e+00	0	29	0	551550976	72	4897
2026-01-06 12:25:46.21	275.70	18.87	-53.4	-55.4	14.2	0.00e+00	0	29	0	557842432	72	4675
2026-01-06 12:25:49.21	276.42	18.90	-53.8	-55.9	14.0	0.00e+00	0	29	0	563085312	72	4943
2026-01-06 12:25:52.22	277.15	18.93	-53.6	-55.7	14.2	0.00e+00	0	29	0	569376768	73	4559
2026-01-06 12:25:55.20	277.87	18.96	-53.6	-55.6	14.2	0.00e+00	0	29	0	574619648	73	4527
2026-01-06 12:25:58.20	278.59	18.98	-53.6	-55.7	14.2	0.00e+00	0	29	0	579862528	73	4560
2026-01-06 12:26:01.19	279.31	18.99	-53.6	-55.6	14.2	0.00e+00	0	29	0	586153984	73	4513
2026-01-06 12:26:04.17	280.03	19.00	-53.7	-55.7	14.2	0.00e+00	0	29	0	591396864	73	4572
2026-01-06 12:26:07.16	280.76	19.01	-53.6	-55.6	14.3	0.00e+00	0	29	0	596639744	73	4506
2026-01-06 12:26:10.16	281.48	19.01	-53.5	-55.4	14.3	0.00e+00	0	29	0	602931200	73	4431
2026-01-06 12:26:13.15	282.21	19.01	-53.9	-56.0	14.0	0.00e+00	0	29	0	608174080	73	4729
2026-01-06 12:26:16.13	282.93	19.00	-54.0	-56.2	13.9	0.00e+00	0	29	0	613416960	73	4835
2026-01-06 12:26:19.13	283.65	18.99	-54.4	-56.7	13.7	0.00e+00	0	29	0	619708416	73	5141
2026-01-06 12:26:22.12	284.37	18.98	-54.0	-56.2	14.0	0.00e+00	0	29	0	624951296	73	4817
2026-01-06 12:26:25.11	285.10	18.96	-53.4	-55.3	14.4	0.00e+00	0	28	0	630194176	73	4356
2026-01-06 12:26:28.08	285.81	18.93	-53.9	-56.0	14.1	0.00e+00	0	29	0	636485632	73	4725
2026-01-06 12:26:31.07	286.53	18.91	-54.0	-56.1	14.0	0.00e+00	0	29	0	641728512	73	4764
2026-01-06 12:26:34.06	287.25	18.87	-54.1	-56.3	13.9	0.00e+00	0	29	0	646971392	73	4874
2026-01-06 12:26:37.07	287.97	18.84	-54.1	-56.3	13.9	0.00e+00	0	29	0	653262848	73	4894
2026-01-06 12:26:40.05	288.68	18.79	-54.1	-56.3	13.9	0.00e+00	0	29	0	658505728	73	4871
2026-01-06 12:26:43.03	289.39	18.75	-53.9	-56.0	14.0	0.00e+00	0	29	0	663748608	73	4756
2026-01-06 12:26:46.04	290.10	18.70	-53.5	-55.4	14.3	0.00e+00	0	29	0	670040064	73	4435
2026-01-06 12:26:49.04	290.81	18.64	-53.0	-54.8	14.5	0.00e+00	0	29	0	675282944	72	4351
2026-01-06 12:26:52.03	291.52	18.59	-53.0	-54.8	14.5	0.00e+00	0	29	0	680525824	72	4352
2026-01-06 12:26:55.02	292.22	18.52	-53.7	-55.7	14.1	0.00e+00	0	29	0	686817280	72	4844
2026-01-06 12:26:58.01	292.92	18.46	-53.8	-55.8	14.0	0.00e+00	0	29	0	692060160	72	4920
2026-01-06 12:27:01.02	293.62	18.39	-54.0	-56.1	14.1	0.00e+00	0	29	0	698351616	73	4761
2026-01-06 12:27:04.01	294.31	18.31	-53.7	-55.7	14.2	0.00e+00	0	29	0	703594496	73	4571
2026-01-06 12:27:07.00	295.00	18.24	-53.1	-54.9	14.4	0.00e+00	0	29	0	708837376	72	4435
2026-01-06 12:27:09.98	295.69	18.15	-53.8	-55.8	14.1	0.00e+00	0	29	0	715128832	72	4923
2026-01-06 12:27:12.98	296.37	18.07	-54.1	-56.2	14.0	0.00e+00	0	29	0	720371712	73	4860
2026-01-06 12:27:15.98	297.05	17.98	-53.2	-55.1	14.5	0.00e+00	0	29	0	725614592	73	4271
2026-01-06 12:27:18.97	297.72	17.89	-53.3	-55.2	14.3	0.00e+00	0	29	0	731906048	72	4577
2026-01-06 12:27:21.96	298.39	17.79	-53.4	-55.3	14.3	0.00e+00	0	29	0	737148928	72	4639
2026-01-06 12:27:24.96	299.06	17.69	-52.6	-54.4	14.6	0.00e+00	0	29	0	742391808	71	4408
2026-01-06 12:27:27.96	299.73	17.59	-52.7	-54.5	14.5	0.00e+00	0	29	0	748683264	71	4455
2026-01-06 12:27:30.96	300.39	17.49	-52.9	-54.8	14.4	0.00e+00	0	29	0	753926144	71	4606
2026-01-06 12:27:33.96	301.04	17.38	-52.7	-54.5	14.5	0.00e+00	0	29	0	760217600	71	4472
2026-01-06 12:27:36.97	301.69	17.26	-52.5	-54.3	14.6	0.00e+00	0	29	0	765460480	71	4355
2026-01-06 12:27:39.96	302.34	17.15	-52.7	-54.5	14.5	0.00e+00	0	29	0	770703360	71	4459
2026-01-06 12:27:42.95	302.97	17.03	-52.9	-54.7	14.4	0.00e+00	0	29	0	776994816	71	4554
2026-01-06 12:27:45.96	303.61	16.91	-53.1	-54.9	14.3	0.00e+00	0	29	0	782237696	71	4700
2026-01-06 12:27:48.95	304.24	16.79	-53.0	-54.8	14.4	0.00e+00	0	29	0	787480576	71	4618
2026-01-06 12:27:51.94	304.86	16.66	-52.7	-54.5	14.5	0.00e+00	0	29	0	793772032	71	4451
2026-01-06 12:27:54.94	305.48	16.53	-53.1	-55.0	14.3	0.00e+00	0	29	0	799014912	71	4722
2026-01-06 12:27:57.95	306.10	16.40	-53.3	-55.3	14.3	0.00e+00	0	29	0	804257792	72	4601
2026-01-06 12:28:00.95	306.71	16.27	-52.9	-54.7	14.5	0.00e+00	0	29	0	810549248	72	4331
2026-01-06 12:28:03.95	307.32	16.14	-53.8	-55.8	14.0	0.00e+00	0	29	0	815792128	72	4924
2026-01-06 12:28:06.95	307.92	16.00	-54.2	-56.4	13.8	0.00e+00	0	29	0	822083584	73	4982
2026-01-06 12:28:09.95	308.51	15.86	-53.7	-55.8	14.1	0.00e+00	0	29	0	827326464	73	4630
2026-01-06 12:28:12.94	309.10	15.72	-53.3	-55.2	14.3	0.00e+00	0	29	0	832569344	72	4571
2026-01-06 12:28:15.92	309.67	15.57	-53.1	-55.0	14.4	0.00e+00	0	29	0	838860800	72	4446
2026-01-06 12:28:18.91	310.25	15.43	-53.3	-55.2	14.3	0.00e+00	0	29	0	844103680	72	4555
2026-01-06 12:28:21.90	310.82	15.28	-53.9	-56.1	14.0	0.00e+00	0	29	0	849346560	73	4765
2026-01-06 12:28:24.90	311.39	15.13	-54.7	-57.2	13.6	0.00e+00	0	29	0	855638016	74	5101
2026-01-06 12:28:27.90	311.95	14.98	-54.6	-57.0	13.6	0.00e+00	0	29	0	860880896	74	5031
2026-01-06 12:28:30.89	312.50	14.83	-54.1	-56.3	14.0	0.00e+00	0	29	0	866123776	74	4642
2026-01-06 12:28:33.87	313.05	14.68	-54.0	-56.1	14.0	0.00e+00	0	29	0	872415232	74	4536
2026-01-06 12:28:36.86	313.59	14.52	-53.9	-56.0	14.1	0.00e+00	0	29	0	877658112	74	4452
2026-01-06 12:28:39.85	314.13	14.37	-53.9	-56.0	14.1	0.00e+00	0	29	0	882900992	74	4465
2026-01-06 12:28:42.85	314.66	14.21	-54.1	-56.4	13.9	0.00e+00	0	29	0	889192448	74	4668
2026-01-06 12:28:45.85	315.19	14.05	-54.1	-56.4	13.9	0.00e+00	0	29	0	894435328	74	4659
2026-01-06 12:28:48.86	315.71	13.89	-54.0	-56.2	14.0	0.00e+00	0	29	0	899678208	74	4553
2026-01-06 12:28:51.87	316.23	13.73	-54.2	-56.5	13.9	0.00e+00	0	29	0	905969664	74	4733
2026-01-06 12:28:54.85	316.74	13.57	-54.3	-56.5	13.8	0.00e+00	0	29	0	911212544	74	4747
2026-01-06 12:28:57.85	317.25	13.40	-53.8	-55.9	14.1	0.00e+00	0	29	0	917504000	74	4431
2026-01-06 12:29:00.85	317.75	13.24	-53.8	-55.9	14.0	0.00e+00	0	29	0	922746880	73	4690
2026-01-06 12:29:03.85	318.24	13.08	-54.0	-56.3	13.8	0.00e+00	0	29	0	927989760	73	4873
2026-01-06 12:29:06.85	318.73	12.91	-53.6	-55.7	14.1	0.00e+00	0	29	0	934281216	73	4593
2026-01-06 12:29:09.84	319.21	12.74	-53.3	-55.3	14.3	0.00e+00	0	29	0	939524096	73	4384
2026-01-06 12:29:12.84	319.69	12.58	-53.4	-55.4	14.1	0.00e+00	0	29	0	944766976	72	4659
2026-01-06 12:29:15.83	320.17	12.41	-53.4	-55.5	14.1	0.00e+00	0	29	0	951058432	72	4725
2026-01-06 12:29:18.83	320.64	12.24	-53.3	-55.3	14.2	0.00e+00	0	29	0	956301312	72	4646
2026-01-06 12:29:21.83	321.10	12.07	-53.1	-55.1	14.2	0.00e+00	0	29	0	961544192	72	4507
2026-01-06 12:29:24.81	321.55	11.91	-53.3	-55.4	14.0	0.00e+00	0	29	0	967835648	72	4661
2026-01-06 12:29:27.81	322.01	11.74	-53.4	-55.4	14.1	0.00e+00	0	29	0	973078528	72	4694
2026-01-06 12:29:30.80	322.46	11.57	-53.4	-55.4	14.1	0.00e+00	0	29	0	978321408	72	4703
2026-01-06 12:29:33.78	322.90	11.40	-52.7	-54.5	14.4	0.00e+00	0	29	0	984612864	71	4459
2026-01-06 12:29:36.78	323.33	11.23	-52.7	-54.6	14.4	0.00e+00	0	29	0	989855744	71	4497
2026-01-06 12:29:39.77	323.77	11.06	-52.9	-54.8	14.3	0.00e+00	0	29	0	995098624	71	4641
2026-01-06 12:29:42.77	324.20	10.89	-53.1	-55.1	14.2	0.00e+00	0	29	0	1001390080	71	4767
2026-01-06 12:29:45.76	324.62	10.72	-53.1	-55.1	14.2	0.00e+00	0	29	0	1006632960	71	4789
2026-01-06 12:29:48.75	325.04	10.54	-53.5	-55.6	14.0	0.00e+00	0	29	0	1012924416	72	4810
2026-01-06 12:29:51.75	325.45	10.37	-54.1	-56.5	13.7	0.00e+00	0	29	0	1018167296	73	4991
2026-01-06 12:29:54.75	325.86	10.20	-53.6	-55.8	14.0	0.00e+00	0	29	0	1023410176	73	4628
2026-01-06 12:29:57.76	326.27	10.03	-53.1	-55.1	14.3	0.00e+00	0	29	0	1029701632	72	4498
2026-01-06 12:30:00.74	326.67	9.86	-53.1	-55.0	14.3	0.00e+00	0	29	0	1034944512	72	4473
2026-01-06 12:30:03.73	327.06	9.69	-53.5	-55.7	14.0	0.00e+00	0	29	0	1040187392	72	4816
2026-01-06 12:30:06.73	327.45	9.52	-54.1	-56.4	13.7	0.00e+00	0	29	0	1046478848	73	4971
2026-01-06 12:30:09.73	327.84	9.34	-54.1	-56.4	13.7	0.00e+00	0	29	0	1051721728	73	4968
2026-01-06 12:30:12.73	328.22	9.17	-54.0	-56.4	13.8	0.00e+00	0	29	0	1056964608	73	4930
2026-01-06 12:30:15.72	328.60	9.00	-54.0	-56.3	13.7	0.00e+00	0	29	0	1063256064	73	4918
2026-01-06 12:30:18.73	328.98	8.83	-54.5	-57.1	13.5	0.00e+00	0	29	0	1068498944	74	5054
2026-01-06 12:30:21.72	329.35	8.66	-54.3	-56.8	13.6	0.00e+00	0	29	0	1073741824	74	4899
2026-01-06 12:30:24.72	329.71	8.49	-54.5	-57.1	13.4	0.00e+00	0	29	0	1080033280	74	5069
2026-01-06 12:30:27.71	330.07	8.32	-54.1	-56.5	13.7	0.00e+00	0	29	0	1085276160	74	4755
2026-01-06 12:30:30.70	330.43	8.15	-54.5	-57.1	13.4	0.00e+00	0	29	0	1091567616	74	5085
2026-01-06 12:30:33.68	330.78	7.98	-54.4	-56.9	13.5	0.00e+00	0	29	0	1096810496	74	4957
2026-01-06 12:30:36.66	331.13	7.81	-54.3	-56.8	13.6	0.00e+00	0	29	0	1102053376	74	4871
2026-01-06 12:30:39.65	331.48	7.64	-53.9	-56.3	13.8	0.00e+00	0	29	0	1108344832	74	4626
2026-01-06 12:30:42.65	331.82	7.47	-53.6	-55.9	13.9	0.00e+00	0	29	0	1113587712	73	4664
2026-01-06 12:30:45.65	332.16	7.30	-53.9	-56.2	13.7	0.00e+00	0	29	0	1118830592	73	4856
2026-01-06 12:30:48.66	332.49	7.13	-54.6	-57.3	13.3	0.00e+00	0	29	0	1125122048	74	5189
2026-01-06 12:30:51.66	332.83	6.97	-54.8	-57.6	13.1	0.00e+00	0	29	0	1130364928	74	5358
2026-01-06 12:30:54.65	333.15	6.80	-54.6	-57.4	13.2	0.00e+00	0	29	0	1135607808	74	5231
2026-01-06 12:30:57.65	333.48	6.63	-54.3	-56.9	13.5	0.00e+00	0	29	0	1141899264	74	4952
2026-01-06 12:31:00.65	333.80	6.46	-54.4	-57.1	13.3	0.00e+00	0	29	0	1147142144	74	5064
2026-01-06 12:31:03.66	334.12	6.30	-54.5	-57.3	13.2	0.00e+00	0	29	0	1152385024	74	5160
2026-01-06 12:31:06.68	334.43	6.13	-54.8	-57.8	12.9	0.00e+00	0	29	0	1158676480	74	5499
2026-01-06 12:31:09.68	334.74	5.96	-54.8	-57.8	12.9	0.00e+00	0	29	0	1163919360	75	5192
2026-01-06 12:31:12.67	335.05	5.80	-54.9	-57.9	12.8	0.00e+00	0	29	0	1170210816	75	5246
2026-01-06 12:31:15.67	335.35	5.63	-54.8	-57.8	12.9	0.00e+00	0	29	0	1175453696	75	5196
2026-01-06 12:31:18.66	335.65	5.47	-55.1	-58.3	12.6	0.00e+00	0	29	0	1180696576	75	5468
2026-01-06 12:31:21.65	335.95	5.30	-55.5	-59.0	12.2	0.00e+00	0	29	0	1186988032	76	5616
2026-01-06 12:31:24.65	336.24	5.14	-55.8	-59.7	11.9	4.50e-06	0	29	0	1192230912	77	5724
2026-01-06 12:31:27.64	336.53	4.97	-57.7	-64.6	8.6	6.53e-04	0	29	0	1197473792	80	8496
2026-01-06 12:31:30.63	336.82	4.81	-60.1	-76.2	3.8	1.49e+00	0	29	104	1198522368	85	24179
2026-01-06 12:31:33.61	337.10	4.65	-60.6	-76.6	3.8	1.49e+00	0	29	104	1198522368	86	24110
2026-01-06 12:31:36.59	337.38	4.49	-60.8	-76.9	3.8	1.49e+00	0	29	104	1198522368	86	24841
2026-01-06 12:31:39.57	337.66	4.33	-60.9	-77.0	3.8	1.49e+00	0	29	104	1198522368	86	25154
2026-01-06 12:31:42.55	337.93	4.17	-61.0	-77.1	3.8	1.49e+00	0	29	104	1198522368	87	23914
2026-01-06 12:31:45.55	338.21	4.00	-61.0	-77.2	3.8	1.49e+00	0	29	104	1198522368	87	24153
2026-01-06 12:31:48.55	338.48	3.84	-61.1	-77.2	3.8	1.49e+00	0	29	104	1198522368	87	24188
2026-01-06 12:31:51.54	338.74	3.68	-61.0	-77.1	3.8	1.49e+00	0	29	104	1198522368	87	23963
2026-01-06 12:31:54.54	339.01	3.52	-61.0	-77.1	3.8	1.49e+00	0	29	104	1198522368	87	23917
2026-01-06 12:31:57.53	339.27	3.37	-60.9	-77.0	3.8	1.49e+00	0	29	104	1198522368	87	23766
2026-01-06 12:32:00.53	339.53	3.21	-60.9	-77.0	3.8	1.49e+00	0	29	104	1198522368	87	23744
2026-01-06 12:32:03.52	339.78	3.05	-60.9	-77.0	3.8	1.49e+00	0	29	104	1198522368	87	23733
2026-01-06 12:32:06.52	340.04	2.89	-60.9	-77.0	3.8	1.49e+00	0	29	104	1198522368	87	23686
2026-01-06 12:32:09.51	340.29	2.73	-60.9	-77.0	3.8	1.49e+00	0	29	104	1198522368	87	23629
2026-01-06 12:32:12.50	340.54	2.58	-60.9	-77.0	3.8	1.49e+00	0	29	104	1198522368	87	23613
2026-01-06 12:32:15.51	340.79	2.42	-60.8	-76.9	3.8	1.49e+00	0	29	104	1198522368	87	23574
2026-01-06 12:32:18.51	341.03	2.26	-60.8	-76.9	3.8	1.49e+00	0	29	104	1198522368	87	23475
2026-01-06 12:32:21.50	341.27	2.11	-60.8	-76.9	3.8	1.49e+00	0	29	104	1198522368	87	23507
2026-01-06 12:32:24.50	341.51	1.95	-60.8	-76.9	3.8	1.49e+00	0	29	104	1198522368	87	23509

#Closed at: 2026-01-06 12:32:24
#Recorded file [1198 MB]: D:/lorett/data/31004_260106_151958.dat