passes_logs/2026/01/06/R3.2S_Murmansk/R3.2S_Murmansk__20260106_221054_NOAA_21_JPSS-2_rec.log

#Pass ID: 20260106_221054_NOAA 21 (JPSS-2)
#Satellite: NOAA 21 (JPSS-2)
#Configuration: NOAA-21
#almurnet v.1.7.20251203
#Start time: 2026-01-06 22:10:54

#Version: 2.2.20231116
#Station: R3.2S_Murmansk
#Location: 33.079688 lon 68.888172 lat
#TLE: 1 54234U 22150A   26005.56767909  .00000152  00000+0  92756-4 0  9990
#TLE: 2 54234  98.7490 306.5820 0001036 340.2747  19.8389 14.19532370163472

#Time	Az	El	Level	Level2	SNR	BER	BlckErr	Temp	State	Recorded	gain1	gain2
2026-01-06 22:10:54.59	18.63	2.03	-58.0	-71.8	3.8	1.49e+00	0	25	0	0	82	17426
2026-01-06 22:10:58.59	18.92	2.25	-58.0	-71.7	3.8	1.49e+00	0	25	104	0	81	18292
2026-01-06 22:11:02.61	19.23	2.46	-58.0	-71.7	3.8	1.49e+00	0	25	104	0	81	18215
2026-01-06 22:11:06.62	19.54	2.68	-58.1	-71.8	3.8	1.49e+00	0	25	104	0	81	18461
2026-01-06 22:11:10.62	19.85	2.90	-58.1	-71.7	3.8	1.49e+00	0	25	104	0	81	18274
2026-01-06 22:11:14.63	20.16	3.12	-58.1	-71.8	3.8	1.49e+00	0	25	104	0	81	18478
2026-01-06 22:11:18.63	20.48	3.34	-58.0	-70.8	3.8	1.49e+00	0	26	104	0	81	16417
2026-01-06 22:11:22.64	20.81	3.56	-58.0	-70.7	3.8	1.49e+00	0	26	104	0	81	16250
2026-01-06 22:11:26.65	21.13	3.78	-57.9	-69.0	4.0	1.48e+00	0	26	104	0	81	13349
2026-01-06 22:11:30.64	21.47	4.00	-57.7	-67.5	4.0	1.17e+00	0	26	104	1048576	81	11214
2026-01-06 22:11:34.65	21.81	4.23	-57.1	-63.6	6.6	2.61e-01	0	26	0	11534336	80	7601
2026-01-06 22:11:38.66	22.15	4.46	-54.1	-56.9	11.8	2.82e-05	0	26	0	24117248	74	4956
2026-01-06 22:11:42.68	22.50	4.68	-52.9	-55.1	12.9	0.00e+00	0	26	0	36700160	72	4538
2026-01-06 22:11:46.69	22.85	4.91	-54.6	-57.8	11.2	5.79e-05	0	26	0	49283072	74	5493
2026-01-06 22:11:50.69	23.21	5.14	-57.0	-63.6	6.7	1.39e-03	0	26	0	61865984	79	8050
2026-01-06 22:11:54.69	23.57	5.37	-53.6	-56.7	12.0	6.23e-03	0	26	0	74448896	74	4845
2026-01-06 22:11:58.69	23.94	5.60	-52.8	-54.9	13.0	0.00e+00	0	26	0	87031808	71	4678
2026-01-06 22:12:02.71	24.32	5.83	-52.8	-54.9	13.0	0.00e+00	0	27	0	99614720	71	4689
2026-01-06 22:12:06.70	24.70	6.07	-52.1	-54.0	13.5	0.00e+00	0	27	0	112197632	70	4478
2026-01-06 22:12:10.70	25.09	6.30	-52.0	-53.8	13.6	0.00e+00	0	27	0	124780544	70	4362
2026-01-06 22:12:14.71	25.48	6.54	-52.2	-54.1	13.5	0.00e+00	0	27	0	137363456	70	4504
2026-01-06 22:12:18.71	25.88	6.77	-51.9	-53.7	13.7	0.00e+00	0	27	0	149946368	70	4306
2026-01-06 22:12:22.71	26.28	7.01	-52.0	-53.8	13.7	0.00e+00	0	27	0	162529280	70	4351
2026-01-06 22:12:26.73	26.69	7.25	-52.1	-54.0	13.6	0.00e+00	0	27	0	174063616	70	4452
2026-01-06 22:12:30.73	27.11	7.49	-51.9	-53.6	13.7	0.00e+00	0	27	0	186646528	70	4290
2026-01-06 22:12:34.73	27.53	7.73	-51.6	-53.3	13.8	0.00e+00	0	27	0	199229440	69	4385
2026-01-06 22:12:38.73	27.97	7.97	-51.6	-53.3	13.8	0.00e+00	0	27	0	211812352	69	4386
2026-01-06 22:12:42.74	28.40	8.21	-51.6	-53.2	13.8	0.00e+00	0	27	0	224395264	69	4340
2026-01-06 22:12:46.74	28.85	8.46	-51.5	-53.2	13.9	0.00e+00	0	27	0	236978176	69	4316
2026-01-06 22:12:50.76	29.30	8.70	-51.4	-53.0	14.0	0.00e+00	0	27	0	249561088	69	4212
2026-01-06 22:12:54.78	29.76	8.95	-51.2	-52.8	14.0	0.00e+00	0	27	0	262144000	68	4373
2026-01-06 22:12:58.78	30.23	9.20	-51.2	-52.7	14.1	0.00e+00	0	27	0	274726912	68	4324
2026-01-06 22:13:02.79	30.70	9.44	-51.1	-52.7	14.0	0.00e+00	0	27	0	287309824	68	4323
2026-01-06 22:13:06.79	31.19	9.69	-51.0	-52.5	14.2	0.00e+00	0	27	0	299892736	68	4224
2026-01-06 22:13:10.80	31.68	9.94	-50.8	-52.3	14.2	0.00e+00	0	27	0	312475648	68	4111
2026-01-06 22:13:14.80	32.17	10.19	-50.3	-51.7	14.4	0.00e+00	0	27	0	325058560	67	4063
2026-01-06 22:13:18.82	32.68	10.44	-50.2	-51.6	14.3	0.00e+00	0	27	0	337641472	66	4261
2026-01-06 22:13:22.82	33.20	10.69	-50.4	-51.8	14.2	0.00e+00	0	27	0	350224384	66	4373
2026-01-06 22:13:26.82	33.72	10.94	-50.5	-52.0	14.2	0.00e+00	0	27	0	362807296	66	4471
2026-01-06 22:13:30.82	34.25	11.19	-50.3	-51.7	14.3	0.00e+00	0	27	0	375390208	66	4306
2026-01-06 22:13:34.81	34.79	11.44	-50.2	-51.6	14.3	0.00e+00	0	27	0	386924544	66	4273
2026-01-06 22:13:38.83	35.34	11.70	-50.4	-51.8	14.3	0.00e+00	0	27	0	399507456	66	4370
2026-01-06 22:13:42.84	35.90	11.95	-50.4	-51.9	14.2	0.00e+00	0	27	0	412090368	66	4409
2026-01-06 22:13:46.85	36.47	12.20	-50.3	-51.7	14.3	0.00e+00	0	27	0	424673280	66	4328
2026-01-06 22:13:50.84	37.05	12.45	-50.0	-51.4	14.4	0.00e+00	0	27	0	437256192	66	4177
2026-01-06 22:13:54.85	37.63	12.71	-50.1	-51.4	14.4	0.00e+00	0	27	0	449839104	66	4189
2026-01-06 22:13:58.85	38.23	12.96	-50.3	-51.7	14.3	0.00e+00	0	27	0	462422016	66	4297
2026-01-06 22:14:02.82	38.83	13.21	-49.9	-51.3	14.5	0.00e+00	0	27	0	475004928	66	4108
2026-01-06 22:14:06.82	39.45	13.46	-49.8	-51.1	14.6	0.00e+00	0	28	0	487587840	66	4026
2026-01-06 22:14:10.83	40.08	13.71	-50.0	-51.4	14.4	0.00e+00	0	28	0	500170752	66	4175
2026-01-06 22:14:14.84	40.72	13.97	-50.0	-51.3	14.5	0.00e+00	0	28	0	512753664	66	4130
2026-01-06 22:14:18.84	41.36	14.22	-49.9	-51.3	14.5	0.00e+00	0	28	0	525336576	66	4101
2026-01-06 22:14:22.85	42.02	14.47	-50.1	-51.4	14.4	0.00e+00	0	27	0	537919488	66	4183
2026-01-06 22:14:26.86	42.69	14.71	-50.1	-51.5	14.4	0.00e+00	0	27	0	550502400	66	4222
2026-01-06 22:14:30.86	43.37	14.96	-50.0	-51.3	14.5	0.00e+00	0	27	0	562036736	66	4121
2026-01-06 22:14:34.86	44.07	15.21	-49.8	-51.2	14.6	0.00e+00	0	27	0	574619648	66	4055
2026-01-06 22:14:38.86	44.77	15.45	-49.9	-51.3	14.5	0.00e+00	0	28	0	587202560	66	4118
2026-01-06 22:14:42.85	45.48	15.70	-50.0	-51.4	14.5	0.00e+00	0	28	0	599785472	66	4169
2026-01-06 22:14:46.86	46.21	15.94	-50.0	-51.4	14.5	0.00e+00	0	27	0	612368384	66	4172
2026-01-06 22:14:50.88	46.95	16.18	-49.9	-51.3	14.5	0.00e+00	0	27	0	624951296	66	4105
2026-01-06 22:14:54.89	47.70	16.42	-49.9	-51.2	14.6	0.00e+00	0	27	0	637534208	66	4078
2026-01-06 22:14:58.91	48.46	16.65	-50.0	-51.3	14.5	0.00e+00	0	28	0	650117120	66	4142
2026-01-06 22:15:02.90	49.23	16.88	-50.0	-51.4	14.5	0.00e+00	0	28	0	662700032	66	4149
2026-01-06 22:15:06.92	50.01	17.11	-49.6	-50.9	14.6	0.00e+00	0	28	0	675282944	65	4159
2026-01-06 22:15:10.93	50.81	17.34	-49.7	-51.0	14.5	0.00e+00	0	27	0	687865856	65	4209
2026-01-06 22:15:14.93	51.62	17.56	-49.7	-51.0	14.5	0.00e+00	0	27	0	700448768	65	4220
2026-01-06 22:15:18.94	52.43	17.78	-49.5	-50.8	14.6	0.00e+00	0	28	0	713031680	65	4141
2026-01-06 22:15:22.93	53.26	18.00	-49.5	-50.8	14.6	0.00e+00	0	28	0	725614592	65	4140
2026-01-06 22:15:26.93	54.10	18.21	-49.5	-50.7	14.6	0.00e+00	0	27	0	738197504	65	4091
2026-01-06 22:15:30.93	54.95	18.42	-49.3	-50.6	14.7	0.00e+00	0	27	0	750780416	65	4014
2026-01-06 22:15:34.92	55.81	18.62	-49.3	-50.5	14.7	0.00e+00	0	28	0	763363328	65	3991
2026-01-06 22:15:38.94	56.69	18.82	-49.4	-50.7	14.6	0.00e+00	0	27	0	774897664	65	4072
2026-01-06 22:15:42.94	57.58	19.02	-49.1	-50.3	14.7	0.00e+00	0	28	0	787480576	64	4142
2026-01-06 22:15:46.94	58.48	19.21	-49.1	-50.4	14.7	0.00e+00	0	28	0	800063488	64	4163
2026-01-06 22:15:50.93	59.38	19.39	-49.4	-50.6	14.6	0.00e+00	0	27	0	812646400	64	4278
2026-01-06 22:15:54.94	60.30	19.57	-48.9	-50.1	14.8	0.00e+00	0	27	0	825229312	64	4037
2026-01-06 22:15:58.95	61.23	19.74	-48.9	-50.1	14.8	0.00e+00	0	28	0	837812224	64	4019
2026-01-06 22:16:02.93	62.16	19.90	-48.9	-50.1	14.8	0.00e+00	0	28	0	850395136	64	4047
2026-01-06 22:16:06.94	63.12	20.06	-48.8	-50.0	14.8	0.00e+00	0	28	0	862978048	64	3992
2026-01-06 22:16:10.95	64.07	20.21	-48.9	-50.1	14.8	0.00e+00	0	28	0	875560960	64	4026
2026-01-06 22:16:14.93	65.04	20.36	-48.8	-50.0	14.8	0.00e+00	0	28	0	888143872	64	3998
2026-01-06 22:16:18.93	66.01	20.49	-49.0	-50.3	14.7	0.00e+00	0	28	0	900726784	64	4101
2026-01-06 22:16:22.92	66.99	20.62	-49.0	-50.3	14.7	0.00e+00	0	28	0	913309696	64	4100
2026-01-06 22:16:26.92	67.98	20.74	-49.1	-50.4	14.7	0.00e+00	0	28	0	924844032	64	4156
2026-01-06 22:16:30.91	68.98	20.86	-49.2	-50.4	14.7	0.00e+00	0	28	0	937426944	64	4184
2026-01-06 22:16:34.90	69.98	20.96	-49.1	-50.3	14.7	0.00e+00	0	27	0	950009856	64	4142
2026-01-06 22:16:38.89	70.99	21.06	-49.2	-50.4	14.7	0.00e+00	0	28	0	962592768	64	4171
2026-01-06 22:16:42.89	72.01	21.15	-48.9	-50.1	14.8	0.00e+00	0	28	0	975175680	64	4027
2026-01-06 22:16:46.89	73.04	21.23	-48.8	-50.0	14.8	0.00e+00	0	28	0	987758592	64	3975
2026-01-06 22:16:50.89	74.07	21.30	-49.0	-50.3	14.7	0.00e+00	0	27	0	1000341504	64	4107
2026-01-06 22:16:54.89	75.10	21.36	-48.9	-50.1	14.8	0.00e+00	0	28	0	1012924416	64	4034
2026-01-06 22:16:58.89	76.14	21.41	-48.9	-50.1	14.8	0.00e+00	0	28	0	1025507328	64	4039
2026-01-06 22:17:02.88	77.18	21.46	-48.8	-50.0	14.8	0.00e+00	0	28	0	1038090240	64	3978
2026-01-06 22:17:06.87	78.22	21.49	-49.0	-50.2	14.7	0.00e+00	0	28	0	1050673152	64	4077
2026-01-06 22:17:10.87	79.26	21.52	-48.7	-49.9	14.7	0.00e+00	0	27	0	1062207488	63	4180
2026-01-06 22:17:14.87	80.31	21.53	-48.9	-50.2	14.6	0.00e+00	0	28	0	1074790400	63	4305
2026-01-06 22:17:18.87	81.36	21.54	-49.1	-50.3	14.6	0.00e+00	0	28	0	1087373312	63	4362
2026-01-06 22:17:22.87	82.40	21.53	-49.1	-50.3	14.6	0.00e+00	0	28	0	1099956224	63	4381
2026-01-06 22:17:26.86	83.45	21.52	-48.9	-50.1	14.7	0.00e+00	0	28	0	1112539136	63	4260
2026-01-06 22:17:30.85	84.49	21.49	-48.8	-50.0	14.7	0.00e+00	0	28	0	1125122048	63	4197
2026-01-06 22:17:34.84	85.53	21.46	-48.7	-49.9	14.7	0.00e+00	0	28	0	1137704960	63	4186
2026-01-06 22:17:38.82	86.57	21.42	-49.1	-50.3	14.6	0.00e+00	0	28	0	1150287872	63	4365
2026-01-06 22:17:42.81	87.60	21.37	-49.1	-50.3	14.6	0.00e+00	0	28	0	1162870784	63	4363
2026-01-06 22:17:46.80	88.64	21.31	-48.9	-50.1	14.7	0.00e+00	0	28	0	1174405120	63	4257
2026-01-06 22:17:50.79	89.67	21.24	-49.0	-50.2	14.6	0.00e+00	0	28	0	1186988032	63	4330
2026-01-06 22:17:54.80	90.69	21.16	-49.0	-50.2	14.6	0.00e+00	0	28	0	1199570944	63	4311
2026-01-06 22:17:58.81	91.72	21.07	-48.8	-50.0	14.7	0.00e+00	0	28	0	1212153856	63	4202
2026-01-06 22:18:02.82	92.73	20.97	-48.9	-50.1	14.7	0.00e+00	0	28	0	1224736768	63	4277
2026-01-06 22:18:06.83	93.75	20.87	-48.8	-50.0	14.7	0.00e+00	0	28	0	1237319680	63	4239
2026-01-06 22:18:10.83	94.75	20.76	-49.0	-50.3	14.6	0.00e+00	0	28	0	1249902592	63	4352
2026-01-06 22:18:14.82	95.74	20.63	-49.0	-50.2	14.6	0.00e+00	0	28	0	1262485504	63	4312
2026-01-06 22:18:18.81	96.72	20.51	-48.9	-50.2	14.7	0.00e+00	0	28	0	1275068416	63	4296
2026-01-06 22:18:22.80	97.70	20.37	-49.0	-50.2	14.6	0.00e+00	0	28	0	1287651328	63	4339
2026-01-06 22:18:26.78	98.66	20.23	-49.1	-50.3	14.6	0.00e+00	0	28	0	1300234240	63	4375
2026-01-06 22:18:30.77	99.62	20.07	-48.9	-50.1	14.7	0.00e+00	0	28	0	1312817152	63	4263
2026-01-06 22:18:34.77	100.57	19.92	-49.1	-50.3	14.6	0.00e+00	0	28	0	1324351488	63	4389
2026-01-06 22:18:38.74	101.51	19.75	-49.1	-50.3	14.6	0.00e+00	0	28	0	1336934400	63	4376
2026-01-06 22:18:42.72	102.44	19.58	-49.0	-50.2	14.6	0.00e+00	0	28	0	1349517312	63	4313
2026-01-06 22:18:46.72	103.36	19.40	-49.2	-50.5	14.5	0.00e+00	0	28	0	1362100224	63	4467
2026-01-06 22:18:50.71	104.27	19.22	-49.1	-50.4	14.6	0.00e+00	0	28	0	1374683136	63	4412
2026-01-06 22:18:54.71	105.17	19.03	-49.3	-50.6	14.5	0.00e+00	0	28	0	1387266048	63	4500
2026-01-06 22:18:58.71	106.06	18.84	-49.4	-50.7	14.5	0.00e+00	0	28	0	1399848960	64	4326
2026-01-06 22:19:02.68	106.93	18.64	-49.2	-50.5	14.6	0.00e+00	0	28	0	1412431872	64	4197
2026-01-06 22:19:06.69	107.80	18.44	-49.0	-50.2	14.7	0.00e+00	0	28	0	1425014784	64	4082
2026-01-06 22:19:10.67	108.65	18.23	-49.2	-50.4	14.6	0.00e+00	0	28	0	1436549120	64	4191
2026-01-06 22:19:14.68	109.50	18.02	-49.6	-50.9	14.5	0.00e+00	0	28	0	1449132032	64	4404
2026-01-06 22:19:18.68	110.33	17.80	-49.5	-50.8	14.5	0.00e+00	0	28	0	1461714944	64	4372
2026-01-06 22:19:22.70	111.15	17.58	-49.5	-50.8	14.5	0.00e+00	0	28	0	1474297856	64	4344
2026-01-06 22:19:26.69	111.96	17.35	-49.6	-50.9	14.5	0.00e+00	0	28	0	1486880768	64	4440
2026-01-06 22:19:30.70	112.76	17.13	-49.9	-51.2	14.4	0.00e+00	0	28	0	1499463680	65	4334
2026-01-06 22:19:34.71	113.55	16.90	-49.5	-50.8	14.6	0.00e+00	0	28	0	1512046592	65	4110
2026-01-06 22:19:38.70	114.32	16.66	-49.6	-51.0	14.5	0.00e+00	0	28	0	1524629504	65	4197
2026-01-06 22:19:42.68	115.08	16.43	-50.0	-51.4	14.4	0.00e+00	0	28	0	1537212416	65	4402
2026-01-06 22:19:46.68	115.83	16.19	-50.0	-51.3	14.4	0.00e+00	0	28	0	1549795328	65	4381
2026-01-06 22:19:50.67	116.57	15.95	-49.9	-51.3	14.4	0.00e+00	0	28	0	1562378240	65	4352
2026-01-06 22:19:54.68	117.30	15.71	-49.9	-51.3	14.4	0.00e+00	0	28	0	1574961152	65	4350
2026-01-06 22:19:58.69	118.02	15.46	-49.9	-51.2	14.4	0.00e+00	0	28	0	1587544064	65	4327
2026-01-06 22:20:02.69	118.73	15.21	-49.7	-51.0	14.5	0.00e+00	0	28	0	1599078400	65	4241
2026-01-06 22:20:06.68	119.42	14.97	-49.8	-51.2	14.4	0.00e+00	0	28	0	1611661312	65	4302
2026-01-06 22:20:10.68	120.11	14.72	-49.7	-51.1	14.5	0.00e+00	0	28	0	1624244224	65	4244
2026-01-06 22:20:14.69	120.78	14.47	-49.5	-50.8	14.6	0.00e+00	0	28	0	1636827136	65	4144
2026-01-06 22:20:18.70	121.44	14.22	-49.6	-50.9	14.5	0.00e+00	0	28	0	1649410048	65	4182
2026-01-06 22:20:22.71	122.10	13.96	-49.6	-50.9	14.5	0.00e+00	0	28	0	1661992960	65	4182
2026-01-06 22:20:26.72	122.74	13.71	-50.0	-51.4	14.3	0.00e+00	0	28	0	1674575872	65	4401
2026-01-06 22:20:30.72	123.37	13.46	-50.1	-51.5	14.3	0.00e+00	0	28	0	1687158784	65	4483
2026-01-06 22:20:34.70	123.98	13.20	-50.1	-51.5	14.3	0.00e+00	0	28	0	1699741696	65	4476
2026-01-06 22:20:38.71	124.60	12.95	-50.3	-51.8	14.2	0.00e+00	0	28	0	1712324608	65	4610
2026-01-06 22:20:42.70	125.19	12.70	-50.6	-52.0	14.1	0.00e+00	0	28	0	1724907520	66	4491
2026-01-06 22:20:46.69	125.78	12.44	-50.2	-51.7	14.3	0.00e+00	0	28	0	1737490432	66	4294
2026-01-06 22:20:50.68	126.36	12.19	-50.1	-51.5	14.3	0.00e+00	0	28	0	1750073344	66	4229
2026-01-06 22:20:54.66	126.93	11.94	-50.3	-51.7	14.3	0.00e+00	0	28	0	1761607680	66	4310
2026-01-06 22:20:58.66	127.49	11.68	-50.5	-52.0	14.2	0.00e+00	0	28	0	1774190592	66	4459
2026-01-06 22:21:02.66	128.04	11.43	-50.6	-52.1	14.1	0.00e+00	0	28	0	1786773504	66	4505
2026-01-06 22:21:06.66	128.58	11.17	-50.5	-52.0	14.1	0.00e+00	0	28	0	1799356416	66	4466
2026-01-06 22:21:10.65	129.11	10.92	-50.4	-51.9	14.2	0.00e+00	0	28	0	1811939328	66	4402
2026-01-06 22:21:14.66	129.64	10.67	-50.7	-52.2	14.0	0.00e+00	0	28	0	1824522240	66	4566
2026-01-06 22:21:18.67	130.16	10.42	-50.8	-52.3	14.0	0.00e+00	0	28	0	1837105152	66	4647
2026-01-06 22:21:22.66	130.66	10.17	-50.7	-52.3	14.0	0.00e+00	0	28	0	1849688064	66	4613
2026-01-06 22:21:26.66	131.16	9.91	-50.8	-52.4	14.0	0.00e+00	0	28	0	1862270976	66	4654
2026-01-06 22:21:30.65	131.65	9.66	-50.8	-52.4	14.0	0.00e+00	0	28	0	1874853888	67	4397
2026-01-06 22:21:34.65	132.14	9.42	-50.8	-52.4	14.0	0.00e+00	0	28	0	1886388224	67	4408
2026-01-06 22:21:38.65	132.61	9.17	-51.0	-52.6	13.9	0.00e+00	0	28	0	1898971136	67	4505
2026-01-06 22:21:42.63	133.08	8.92	-50.8	-52.3	14.0	0.00e+00	0	28	0	1911554048	67	4389
2026-01-06 22:21:46.62	133.54	8.67	-51.0	-52.6	13.9	0.00e+00	0	28	0	1924136960	67	4527
2026-01-06 22:21:50.63	133.99	8.43	-51.3	-53.0	13.7	0.00e+00	0	28	0	1936719872	67	4736
2026-01-06 22:21:54.63	134.44	8.18	-50.9	-52.5	13.9	0.00e+00	0	28	0	1949302784	67	4481
2026-01-06 22:21:58.63	134.88	7.94	-50.8	-52.4	14.0	0.00e+00	0	28	0	1961885696	67	4429
2026-01-06 22:22:02.63	135.31	7.69	-51.0	-52.6	13.9	0.00e+00	0	28	0	1974468608	67	4511
2026-01-06 22:22:06.63	135.73	7.45	-51.2	-52.9	13.7	0.00e+00	0	28	0	1987051520	67	4693
2026-01-06 22:22:10.64	136.15	7.21	-51.2	-52.9	13.7	0.00e+00	0	28	0	1999634432	67	4684
2026-01-06 22:22:14.64	136.56	6.97	-51.2	-52.9	13.7	0.00e+00	0	28	0	2012217344	67	4683
2026-01-06 22:22:18.64	136.97	6.73	-51.6	-53.4	13.6	0.00e+00	0	28	0	2024800256	68	4676
2026-01-06 22:22:22.63	137.37	6.49	-51.8	-53.7	13.4	0.00e+00	0	28	0	2037383168	68	4827
2026-01-06 22:22:26.62	137.76	6.26	-51.7	-53.5	13.5	0.00e+00	0	28	0	2048917504	68	4751
2026-01-06 22:22:30.62	138.14	6.02	-51.8	-53.7	13.5	0.00e+00	0	28	0	2061500416	69	4556
2026-01-06 22:22:34.62	138.52	5.78	-51.9	-53.8	13.4	0.00e+00	0	28	0	2074083328	69	4617
2026-01-06 22:22:38.63	138.90	5.55	-51.8	-53.7	13.4	0.00e+00	0	28	0	2086666240	69	4570
2026-01-06 22:22:42.63	139.27	5.32	-51.9	-53.8	13.4	0.00e+00	0	28	0	2099249152	69	4614
2026-01-06 22:22:46.63	139.63	5.08	-52.4	-54.4	13.0	0.00e+00	0	28	0	2111832064	69	4955
2026-01-06 22:22:50.63	139.99	4.85	-59.0	-72.8	3.8	1.49e+00	0	28	104	2119172096	83	18494
2026-01-06 22:22:54.64	140.35	4.62	-59.8	-73.7	3.8	1.49e+00	0	28	104	2119172096	84	19302
2026-01-06 22:22:58.64	140.69	4.40	-60.2	-74.1	3.8	1.49e+00	0	28	104	2119172096	85	18981
2026-01-06 22:23:02.64	141.04	4.17	-60.4	-74.3	3.8	1.49e+00	0	28	104	2119172096	86	18413
2026-01-06 22:23:06.66	141.37	3.94	-60.6	-74.5	3.8	1.49e+00	0	28	104	2119172096	86	18876
2026-01-06 22:23:10.68	141.71	3.71	-60.7	-74.6	3.8	1.49e+00	0	28	104	2119172096	86	18971
2026-01-06 22:23:14.68	142.04	3.49	-60.6	-74.5	3.8	1.49e+00	0	28	104	2119172096	86	18823
2026-01-06 22:23:18.69	142.36	3.27	-60.6	-74.5	3.8	1.49e+00	0	28	104	2119172096	86	18739
2026-01-06 22:23:22.70	142.68	3.04	-60.6	-74.4	3.8	1.49e+00	0	28	104	2119172096	86	18716
2026-01-06 22:23:26.70	142.99	2.82	-60.6	-74.4	3.8	1.49e+00	0	28	104	2119172096	86	18662
2026-01-06 22:23:30.70	143.30	2.60	-60.5	-74.4	3.8	1.49e+00	0	28	104	2119172096	86	18645
2026-01-06 22:23:34.70	143.61	2.39	-60.5	-74.4	3.8	1.49e+00	0	28	104	2119172096	86	18553
2026-01-06 22:23:38.69	143.91	2.17	-60.5	-74.4	3.8	1.49e+00	0	28	104	2119172096	86	18586

#Closed at: 2026-01-06 22:23:41
#Recorded file [2119 MB]: D:/lorett/data/31004_260107_011054.dat