passes_logs/2026/01/06/R3.2S_Murmansk/R3.2S_Murmansk__20260106_174111_TY-39_rec.log

#Pass ID: 20260106_174111_TY-39
#Satellite: TY-39
#Configuration: TY-39
#almurnet v.1.7.20251203
#Start time: 2026-01-06 17:41:11

#Version: 2.2.20231116
#Station: R3.2S_Murmansk
#Location: 33.079688 lon 68.888172 lat
#TLE: 1 51832U 22019J   26005.60812338  .00003126  00000-0  14986-3 0  9990
#TLE: 2 51832  97.3660  72.5273 0010440  80.2600 279.9813 15.19590096213104

#Time	Az	El	Level	Level2	SNR	BER	BlckErr	Temp	State	Recorded	gain1	gain2
2026-01-06 17:41:11.90	141.92	2.01	-57.2	-60.4	3.7	0.00e+00	0	28	0	0	81	20445
2026-01-06 17:41:14.89	141.86	2.22	-57.2	-60.4	3.7	0.00e+00	0	28	104	0	81	20521
2026-01-06 17:41:17.87	141.79	2.43	-57.2	-60.5	3.6	0.00e+00	0	28	104	0	81	20677
2026-01-06 17:41:20.85	141.72	2.64	-57.3	-60.4	3.7	0.00e+00	0	28	104	0	81	20536
2026-01-06 17:41:23.84	141.65	2.86	-57.3	-60.5	3.7	0.00e+00	0	28	104	0	81	20758
2026-01-06 17:41:26.82	141.58	3.07	-57.3	-60.5	3.7	0.00e+00	0	28	104	0	81	20760
2026-01-06 17:41:29.80	141.51	3.29	-57.3	-60.5	3.7	0.00e+00	0	28	104	0	81	20848
2026-01-06 17:41:32.76	141.44	3.51	-57.3	-60.5	3.7	0.00e+00	0	29	104	0	81	20846
2026-01-06 17:41:35.72	141.36	3.74	-57.3	-60.5	3.6	0.00e+00	0	29	104	0	81	20760
2026-01-06 17:41:38.70	141.29	3.96	-57.3	-60.5	3.7	0.00e+00	0	29	104	0	81	20789
2026-01-06 17:41:41.68	141.21	4.19	-57.3	-60.6	3.7	0.00e+00	0	29	104	0	81	21014
2026-01-06 17:41:44.67	141.13	4.42	-57.3	-60.5	3.6	0.00e+00	0	29	104	0	81	20869
2026-01-06 17:41:47.66	141.05	4.66	-57.3	-60.5	3.7	0.00e+00	0	29	104	0	81	20836
2026-01-06 17:41:50.64	140.96	4.89	-57.3	-60.6	3.7	0.00e+00	0	29	104	0	81	20948
2026-01-06 17:41:53.62	140.88	5.13	-57.5	-60.7	3.6	0.00e+00	0	29	104	0	81	21261
2026-01-06 17:41:56.57	140.79	5.37	-57.4	-60.7	3.7	0.00e+00	0	30	104	0	81	21212
2026-01-06 17:41:59.56	140.70	5.62	-57.5	-60.8	3.7	0.00e+00	0	30	104	0	81	21433
2026-01-06 17:42:02.54	140.61	5.87	-57.5	-60.8	3.6	0.00e+00	0	29	104	0	81	21437
2026-01-06 17:42:05.51	140.51	6.12	-57.5	-60.7	3.6	0.00e+00	0	30	104	0	81	21307
2026-01-06 17:42:08.49	140.42	6.37	-57.6	-60.8	3.7	0.00e+00	0	30	104	0	81	21525
2026-01-06 17:42:11.47	140.32	6.63	-44.7	-45.0	11.1	2.15e-04	0	31	0	92274688	56	14760
2026-01-06 17:42:14.45	140.22	6.89	-44.3	-44.6	11.3	7.07e-04	0	31	0	318767104	55	14852
2026-01-06 17:42:17.44	140.11	7.16	-44.2	-44.6	11.3	1.38e-05	0	31	0	536870912	55	14840
2026-01-06 17:42:20.41	140.00	7.43	-44.1	-44.4	11.4	0.00e+00	0	31	0	763363328	55	14589
2026-01-06 17:42:23.40	139.89	7.70	-44.4	-44.7	11.2	6.90e-06	0	31	0	981467136	55	15097
2026-01-06 17:42:26.36	139.78	7.97	-44.2	-44.5	11.4	0.00e+00	0	31	0	1207959552	55	14723
2026-01-06 17:42:29.35	139.67	8.26	-43.8	-44.2	11.5	6.90e-06	0	31	0	1434451968	54	14966
2026-01-06 17:42:32.33	139.55	8.54	-43.8	-44.1	11.6	0.00e+00	0	31	0	1652555776	54	14841
2026-01-06 17:42:35.31	139.43	8.83	-43.7	-44.0	11.7	0.00e+00	0	31	0	1879048192	54	14673
2026-01-06 17:42:38.30	139.30	9.12	-43.6	-44.0	11.7	0.00e+00	0	31	0	2105540608	54	14624
2026-01-06 17:42:41.26	139.18	9.42	-43.5	-43.8	11.8	0.00e+00	0	31	0	2323644416	54	14337
2026-01-06 17:42:44.24	139.04	9.72	-43.3	-43.6	11.8	0.00e+00	0	31	0	2550136832	53	14900
2026-01-06 17:42:47.20	138.91	10.03	-43.2	-43.5	11.8	6.90e-06	0	31	0	2768240640	53	14647
2026-01-06 17:42:50.16	138.77	10.33	-43.2	-43.5	11.8	0.00e+00	0	31	0	2994733056	53	14639
2026-01-06 17:42:53.14	138.63	10.65	-43.0	-43.3	11.9	0.00e+00	0	31	0	3212836864	53	14431
2026-01-06 17:42:56.11	138.48	10.97	-43.0	-43.3	12.0	0.00e+00	0	31	0	3439329280	53	14311
2026-01-06 17:42:59.08	138.33	11.30	-43.0	-43.3	12.0	0.00e+00	0	31	0	3665821696	53	14290
2026-01-06 17:43:02.06	138.17	11.63	-42.7	-43.0	12.0	0.00e+00	0	31	0	3883925504	52	14699
2026-01-06 17:43:05.04	138.01	11.97	-42.6	-42.9	12.1	0.00e+00	0	31	0	4110417920	52	14455
2026-01-06 17:43:08.03	137.85	12.32	-42.6	-42.9	12.1	0.00e+00	0	32	0	4336910336	52	14524
2026-01-06 17:43:11.03	137.68	12.68	-42.4	-42.7	12.2	0.00e+00	0	32	0	4555014144	52	14210
2026-01-06 17:43:14.01	137.50	13.03	-42.3	-42.6	12.1	0.00e+00	0	32	0	4781506560	51	14877
2026-01-06 17:43:16.99	137.32	13.40	-42.2	-42.5	12.2	0.00e+00	0	32	0	5007998976	51	14726
2026-01-06 17:43:19.99	137.13	13.78	-42.1	-42.4	12.2	0.00e+00	0	32	0	5226102784	51	14539
2026-01-06 17:43:22.97	136.94	14.16	-42.1	-42.3	12.3	0.00e+00	0	32	0	5452595200	51	14412
2026-01-06 17:43:25.95	136.74	14.54	-41.8	-42.1	12.3	0.00e+00	0	32	0	5679087616	50	14835
2026-01-06 17:43:28.94	136.53	14.94	-41.8	-42.1	12.3	0.00e+00	0	32	0	5897191424	50	14803
2026-01-06 17:43:31.94	136.31	15.35	-41.6	-41.9	12.3	0.00e+00	0	32	0	6123683840	50	14547
2026-01-06 17:43:34.93	136.09	15.76	-41.5	-41.8	12.4	0.00e+00	0	32	0	6350176256	50	14400
2026-01-06 17:43:37.91	135.86	16.18	-41.4	-41.7	12.5	0.00e+00	0	32	0	6576668672	50	14206
2026-01-06 17:43:40.89	135.63	16.61	-41.3	-41.6	12.4	0.00e+00	0	32	0	6794772480	49	14800
2026-01-06 17:43:43.89	135.38	17.05	-41.2	-41.5	12.4	0.00e+00	0	32	0	7021264896	49	14684
2026-01-06 17:43:46.87	135.13	17.50	-41.2	-41.5	12.5	0.00e+00	0	32	0	7247757312	49	14614
2026-01-06 17:43:49.87	134.86	17.97	-41.0	-41.3	12.5	0.00e+00	0	32	0	7491026944	49	14337
2026-01-06 17:43:52.59	134.61	18.40	-40.7	-41.0	12.5	0.00e+00	0	32	0	7700742144	48	14686
2026-01-06 17:43:55.87	134.30	18.93	-40.7	-40.9	12.5	0.00e+00	0	32	0	7944011776	48	14596
2026-01-06 17:43:58.58	134.03	19.37	-40.6	-40.8	12.6	0.00e+00	0	32	0	8145338368	48	14417
2026-01-06 17:44:01.89	133.69	19.94	-40.4	-40.7	12.7	0.00e+00	0	32	0	8396996608	48	14173
2026-01-06 17:44:04.63	133.40	20.41	-40.4	-40.7	12.6	0.00e+00	0	32	0	8598323200	48	14211
2026-01-06 17:44:07.93	133.03	21.00	-39.3	-39.6	12.5	0.00e+00	0	32	0	8849981440	45	14814
2026-01-06 17:44:10.65	132.71	21.49	-39.2	-39.5	12.5	0.00e+00	0	32	0	9051308032	45	14734
2026-01-06 17:44:13.97	132.31	22.12	-39.1	-39.4	12.6	0.00e+00	0	32	0	9302966272	45	14461
2026-01-06 17:44:16.70	131.97	22.64	-39.0	-39.2	12.7	0.00e+00	0	32	0	9504292864	45	14259
2026-01-06 17:44:19.98	131.54	23.29	-38.8	-39.1	12.6	0.00e+00	0	32	0	9747562496	44	14904
2026-01-06 17:44:22.69	131.16	23.84	-38.6	-38.9	12.7	0.00e+00	0	32	0	9957277696	44	14513
2026-01-06 17:44:25.99	130.69	24.52	-38.5	-38.8	12.7	0.00e+00	0	32	0	10200547328	44	14401
2026-01-06 17:44:28.71	130.28	25.10	-38.4	-38.7	12.8	0.00e+00	0	32	0	10401873920	44	14160
2026-01-06 17:44:32.06	129.75	25.84	-38.5	-38.7	12.8	0.00e+00	0	32	0	10653532160	44	14260
2026-01-06 17:44:34.77	129.30	26.45	-38.1	-38.3	12.8	0.00e+00	0	32	0	10854858752	43	14409
2026-01-06 17:44:38.07	128.72	27.21	-38.0	-38.2	12.8	0.00e+00	0	32	0	11106516992	43	14236
2026-01-06 17:44:40.79	128.23	27.86	-37.7	-37.9	12.8	0.00e+00	0	32	0	11316232192	42	14601
2026-01-06 17:44:44.11	127.59	28.68	-37.6	-37.9	12.8	0.00e+00	0	32	0	11559501824	42	14464
2026-01-06 17:44:46.83	127.04	29.36	-37.6	-37.8	12.9	0.00e+00	0	33	0	11760828416	42	14408
2026-01-06 17:44:50.12	126.33	30.21	-37.5	-37.7	12.9	0.00e+00	0	33	0	12012486656	42	14245
2026-01-06 17:44:52.86	125.72	30.94	-37.1	-37.4	12.9	0.00e+00	0	33	0	12213813248	41	14479
2026-01-06 17:44:56.15	124.93	31.84	-36.9	-37.2	13.0	0.00e+00	0	33	0	12465471488	41	14196
2026-01-06 17:44:58.88	124.25	32.61	-36.9	-37.2	13.0	0.00e+00	0	32	0	12666798080	41	14166
2026-01-06 17:45:02.17	123.37	33.56	-36.6	-36.9	13.0	0.00e+00	0	33	0	12910067712	40	14445
2026-01-06 17:45:04.89	122.60	34.36	-36.6	-36.8	13.0	0.00e+00	0	32	0	13119782912	40	14398
2026-01-06 17:45:08.18	121.61	35.36	-36.4	-36.6	12.9	0.00e+00	0	33	0	13363052544	39	14916
2026-01-06 17:45:10.89	120.75	36.21	-36.3	-36.5	13.0	0.00e+00	0	32	0	13572767744	39	14710
2026-01-06 17:45:14.19	119.63	37.26	-36.1	-36.3	13.0	0.00e+00	0	32	0	13816037376	39	14371
2026-01-06 17:45:16.92	118.65	38.15	-35.9	-36.2	13.1	0.00e+00	0	32	0	14017363968	39	14184
2026-01-06 17:45:20.22	117.37	39.25	-35.8	-36.1	13.0	0.00e+00	0	33	0	14269022208	38	14817
2026-01-06 17:45:22.94	116.26	40.17	-35.8	-36.0	13.0	0.00e+00	0	33	0	14470348800	38	14728
2026-01-06 17:45:26.23	114.81	41.31	-35.5	-35.8	13.1	0.00e+00	0	33	0	14722007040	38	14364
2026-01-06 17:45:28.95	113.53	42.27	-35.5	-35.8	13.1	0.00e+00	0	33	0	14923333632	38	14311
2026-01-06 17:45:32.23	111.87	43.44	-35.1	-35.4	13.1	0.00e+00	0	33	0	15174991872	37	14462
2026-01-06 17:45:34.97	110.39	44.43	-35.1	-35.3	13.0	0.00e+00	0	33	0	15376318464	37	14409
2026-01-06 17:45:38.27	108.47	45.62	-35.0	-35.2	13.1	0.00e+00	0	33	0	15619588096	37	14196
2026-01-06 17:45:40.99	106.77	46.61	-34.7	-34.9	13.1	0.00e+00	0	33	0	15829303296	36	14587
2026-01-06 17:45:44.28	104.56	47.80	-34.6	-34.9	13.1	0.00e+00	0	33	0	16072572928	36	14465
2026-01-06 17:45:47.01	102.59	48.77	-34.5	-34.8	13.1	0.00e+00	0	33	0	16273899520	36	14288
2026-01-06 17:45:50.30	100.05	49.93	-34.4	-34.7	13.2	0.00e+00	0	33	0	16525557760	36	14141
2026-01-06 17:45:53.08	97.73	50.89	-31.8	-32.0	13.0	0.00e+00	0	33	0	16735272960	30	14768
2026-01-06 17:45:56.39	94.78	51.99	-31.7	-31.9	13.1	0.00e+00	0	33	0	16978542592	30	14568
2026-01-06 17:45:59.12	92.17	52.85	-31.6	-31.9	13.0	0.00e+00	0	33	0	17188257792	30	14501
2026-01-06 17:46:02.41	88.82	53.82	-31.6	-31.8	13.1	0.00e+00	0	33	0	17431527424	30	14405
2026-01-06 17:46:05.15	85.85	54.57	-31.4	-31.7	13.1	0.00e+00	0	33	0	17641242624	30	14189
2026-01-06 17:46:08.46	82.07	55.38	-31.3	-31.5	13.1	0.00e+00	0	33	0	17884512256	29	14764
2026-01-06 17:46:11.18	78.80	55.95	-31.3	-31.5	13.1	0.00e+00	0	33	0	18085838848	29	14730
2026-01-06 17:46:14.49	74.64	56.54	-31.2	-31.4	13.1	0.00e+00	0	33	0	18337497088	29	14565
2026-01-06 17:46:17.21	71.11	56.91	-31.1	-31.4	13.1	0.00e+00	0	33	0	18538823680	29	14519
2026-01-06 17:46:20.51	66.71	57.22	-31.2	-31.4	13.1	0.00e+00	0	33	0	18790481920	29	14590
2026-01-06 17:46:23.23	63.02	57.36	-31.2	-31.4	13.1	0.00e+00	0	33	0	18991808512	29	14582
2026-01-06 17:46:26.52	58.54	57.37	-31.2	-31.5	13.1	0.00e+00	0	33	0	19243466752	29	14639
2026-01-06 17:46:29.25	54.83	57.26	-31.2	-31.5	13.0	0.00e+00	0	33	0	19444793344	29	14717
2026-01-06 17:46:32.53	50.44	56.98	-31.2	-31.5	13.0	0.00e+00	0	33	0	19696451584	29	14658
2026-01-06 17:46:35.25	46.89	56.63	-31.4	-31.6	13.0	0.00e+00	0	33	0	19897778176	29	14901
2026-01-06 17:46:38.53	42.74	56.08	-31.4	-31.6	13.0	0.00e+00	0	33	0	20141047808	29	14920
2026-01-06 17:46:41.28	39.41	55.51	-31.4	-31.6	13.0	0.00e+00	0	33	0	20342374400	29	14939
2026-01-06 17:46:44.57	35.60	54.73	-31.5	-31.8	13.0	0.00e+00	0	33	0	20594032640	29	15223
2026-01-06 17:46:47.31	32.61	54.00	-31.5	-31.8	13.0	0.00e+00	0	33	0	20795359232	29	15215
2026-01-06 17:46:50.59	29.23	53.05	-31.6	-31.9	13.0	0.00e+00	0	33	0	21047017472	29	15314
2026-01-06 17:46:53.35	26.56	52.19	-31.6	-31.9	12.9	0.00e+00	0	33	0	21256732672	29	15452
2026-01-06 17:46:56.64	23.58	51.11	-31.7	-32.0	12.9	0.00e+00	0	33	0	21500002304	29	15579
2026-01-06 17:46:59.36	21.29	50.19	-31.9	-32.1	12.9	0.00e+00	0	33	0	21701328896	29	15829
2026-01-06 17:47:02.65	18.70	49.04	-32.2	-32.4	12.9	0.00e+00	0	32	0	21952987136	30	15465
2026-01-06 17:47:05.38	16.70	48.06	-32.2	-32.5	12.9	0.00e+00	0	33	0	22154313728	30	15543
2026-01-06 17:47:08.68	14.45	46.88	-32.4	-32.7	12.8	0.00e+00	0	33	0	22405971968	30	15880
2026-01-06 17:47:11.42	12.72	45.88	-32.5	-32.8	12.8	0.00e+00	0	33	0	22607298560	30	16042
2026-01-06 17:47:14.73	10.77	44.69	-32.5	-32.8	12.8	0.00e+00	0	33	0	22858956800	30	16145
2026-01-06 17:47:17.45	9.27	43.71	-32.7	-33.0	12.9	0.00e+00	0	33	0	23060283392	31	15592
2026-01-06 17:47:20.74	7.59	42.54	-32.9	-33.2	12.8	0.00e+00	0	33	0	23311941632	31	15975
2026-01-06 17:47:23.45	6.30	41.59	-33.1	-33.3	12.8	0.00e+00	0	33	0	23513268224	31	16196
2026-01-06 17:47:26.76	4.82	40.44	-33.2	-33.5	12.8	0.00e+00	0	33	0	23756537856	32	15525
2026-01-06 17:47:29.47	3.69	39.52	-33.3	-33.6	12.8	0.00e+00	0	33	0	23957864448	32	15727
2026-01-06 17:47:32.77	2.40	38.41	-33.6	-33.8	12.7	0.00e+00	0	33	0	24209522688	32	16194
2026-01-06 17:47:35.49	1.41	37.52	-33.6	-33.9	12.8	0.00e+00	0	33	0	24419237888	33	15425
2026-01-06 17:47:38.83	0.26	36.46	-33.8	-34.1	12.7	0.00e+00	0	33	0	24662507520	33	15764
2026-01-06 17:47:41.57	359.38	35.60	-33.9	-34.2	12.7	0.00e+00	0	33	0	24872222720	33	15993
2026-01-06 17:47:44.86	358.38	34.60	-34.1	-34.4	12.7	0.00e+00	0	33	0	25115492352	33	16280
2026-01-06 17:47:47.59	357.60	33.79	-34.3	-34.6	12.7	0.00e+00	0	33	0	25325207552	34	15784
2026-01-06 17:47:50.88	356.72	32.84	-34.5	-34.7	12.6	0.00e+00	0	33	0	25568477184	34	16010
2026-01-06 17:47:53.61	356.02	32.07	-34.6	-34.9	12.6	0.00e+00	0	33	0	25769803776	34	16280
2026-01-06 17:47:56.90	355.23	31.17	-34.8	-35.1	12.6	0.00e+00	0	33	0	26021462016	35	15747
2026-01-06 17:47:59.65	354.61	30.44	-34.9	-35.1	12.6	0.00e+00	0	33	0	26222788608	35	15820
2026-01-06 17:48:02.94	353.90	29.58	-35.0	-35.3	12.6	0.00e+00	0	33	0	26474446848	35	16174
2026-01-06 17:48:05.66	353.35	28.90	-37.7	-37.9	12.8	0.00e+00	0	33	0	26675773440	41	15462
2026-01-06 17:48:08.95	352.71	28.09	-37.9	-38.2	12.7	0.00e+00	0	33	0	26927431680	41	15835
2026-01-06 17:48:11.69	352.20	27.43	-38.0	-38.3	12.7	0.00e+00	0	33	0	27128758272	41	16062
2026-01-06 17:48:14.98	351.63	26.67	-38.2	-38.4	12.7	0.00e+00	0	33	0	27372027904	42	15437
2026-01-06 17:48:17.70	351.17	26.05	-38.3	-38.6	12.7	0.00e+00	0	33	0	27581743104	42	15665
2026-01-06 17:48:20.98	350.65	25.33	-38.5	-38.8	12.6	0.00e+00	0	33	0	27825012736	42	16140
2026-01-06 17:48:23.70	350.23	24.75	-38.6	-38.9	12.6	0.00e+00	0	33	0	28026339328	42	16264
2026-01-06 17:48:27.00	349.76	24.06	-38.8	-39.0	12.6	0.00e+00	0	33	0	28277997568	43	15629
2026-01-06 17:48:29.72	349.38	23.51	-39.0	-39.3	12.5	0.00e+00	0	33	0	28479324160	43	16022
2026-01-06 17:48:33.00	348.94	22.86	-39.1	-39.4	12.6	0.00e+00	0	33	0	28730982400	44	15364
2026-01-06 17:48:35.73	348.60	22.33	-39.1	-39.4	12.6	0.00e+00	0	33	0	28932308992	44	15379
2026-01-06 17:48:39.03	348.19	21.71	-39.3	-39.5	12.5	0.00e+00	0	33	0	29175578624	44	15635
2026-01-06 17:48:41.77	347.87	21.21	-39.4	-39.7	12.5	0.00e+00	0	33	0	29385293824	44	15893
2026-01-06 17:48:45.05	347.51	20.63	-39.5	-39.8	12.4	0.00e+00	0	33	0	29628563456	44	16071
2026-01-06 17:48:47.76	347.22	20.15	-39.7	-40.0	12.4	0.00e+00	0	33	0	29829890048	45	15507
2026-01-06 17:48:51.06	346.87	19.59	-39.8	-40.0	12.4	0.00e+00	0	33	0	30081548288	45	15631
2026-01-06 17:48:53.79	346.60	19.14	-39.9	-40.2	12.4	0.00e+00	0	33	0	30291263488	45	15970
2026-01-06 17:48:57.09	346.29	18.61	-40.1	-40.4	12.3	0.00e+00	0	33	0	30534533120	45	16264
2026-01-06 17:48:59.81	346.04	18.17	-40.3	-40.6	12.3	0.00e+00	0	33	0	30735859712	46	15665
2026-01-06 17:49:03.11	345.74	17.66	-40.4	-40.7	12.3	0.00e+00	0	33	0	30987517952	46	15880
2026-01-06 17:49:05.84	345.51	17.25	-40.4	-40.7	12.2	0.00e+00	0	33	0	31188844544	46	15938
2026-01-06 17:49:09.13	345.24	16.77	-40.6	-40.9	12.2	0.00e+00	0	33	0	31440502784	47	15411
2026-01-06 17:49:11.87	345.02	16.37	-40.8	-41.1	12.2	0.00e+00	0	33	0	31641829376	47	15704
2026-01-06 17:49:15.17	344.77	15.90	-40.8	-41.1	12.2	0.00e+00	0	33	0	31885099008	47	15785
2026-01-06 17:49:17.90	344.57	15.52	-41.0	-41.2	12.1	0.00e+00	0	33	0	32094814208	47	16008
2026-01-06 17:49:21.17	344.33	15.08	-41.9	-42.2	12.2	0.00e+00	0	33	0	32338083840	49	15930
2026-01-06 17:49:23.91	344.14	14.72	-42.0	-42.3	12.1	0.00e+00	0	33	0	32547799040	49	16165
2026-01-06 17:49:27.19	343.92	14.29	-42.1	-42.4	12.2	0.00e+00	0	33	0	32791068672	50	15377
2026-01-06 17:49:29.93	343.75	13.94	-42.2	-42.5	12.2	0.00e+00	0	33	0	32992395264	50	15566
2026-01-06 17:49:33.24	343.54	13.53	-42.4	-42.7	12.1	0.00e+00	0	33	0	33244053504	50	15839
2026-01-06 17:49:35.96	343.37	13.19	-42.5	-42.8	12.1	0.00e+00	0	33	0	33445380096	50	16093
2026-01-06 17:49:39.25	343.18	12.80	-42.5	-42.8	12.1	0.00e+00	0	33	0	33697038336	51	15275
2026-01-06 17:49:41.98	343.03	12.47	-42.7	-43.0	12.0	0.00e+00	0	33	0	33898364928	51	15539
2026-01-06 17:49:45.26	342.84	12.09	-42.8	-43.1	12.0	0.00e+00	0	33	0	34150023168	51	15671
2026-01-06 17:49:48.01	342.70	11.78	-58.6	-61.9	3.7	0.00e+00	0	33	104	34284240896	82	22996
2026-01-06 17:49:51.31	342.52	11.41	-58.6	-61.9	3.6	0.00e+00	0	33	104	34284240896	83	21655
2026-01-06 17:49:54.04	342.39	11.11	-58.6	-61.8	3.7	0.00e+00	0	33	104	34284240896	83	21402
2026-01-06 17:49:57.34	342.23	10.75	-58.5	-61.8	3.7	0.00e+00	0	33	104	34284240896	83	21423
2026-01-06 17:50:00.07	342.10	10.46	-58.4	-61.8	3.7	0.00e+00	0	33	104	34284240896	83	21397
2026-01-06 17:50:03.40	341.94	10.12	-58.5	-61.7	3.6	0.00e+00	0	32	104	34284240896	83	21318
2026-01-06 17:50:06.11	341.82	9.84	-58.4	-61.6	3.6	0.00e+00	0	33	104	34284240896	83	21075
2026-01-06 17:50:09.44	341.67	9.50	-58.4	-61.6	3.6	0.00e+00	0	32	104	34284240896	83	21092
2026-01-06 17:50:12.18	341.56	9.23	-58.4	-61.7	3.6	0.00e+00	0	32	104	34284240896	83	21119
2026-01-06 17:50:15.48	341.42	8.91	-58.4	-61.6	3.7	0.00e+00	0	32	104	34284240896	83	20979
2026-01-06 17:50:18.20	341.31	8.64	-58.3	-61.5	3.6	0.00e+00	0	32	104	34284240896	83	20777
2026-01-06 17:50:21.51	341.18	8.33	-58.2	-61.4	3.7	0.00e+00	0	32	104	34284240896	83	20623
2026-01-06 17:50:24.24	341.08	8.07	-58.3	-61.5	3.7	0.00e+00	0	32	104	34284240896	83	20737
2026-01-06 17:50:27.55	340.96	7.77	-58.3	-61.5	3.7	0.00e+00	0	32	104	34284240896	83	20718
2026-01-06 17:50:30.27	340.86	7.52	-58.1	-61.4	3.6	0.00e+00	0	32	104	34284240896	83	20399
2026-01-06 17:50:33.56	340.74	7.22	-58.1	-61.3	3.7	0.00e+00	0	32	104	34284240896	83	20376
2026-01-06 17:50:36.28	340.65	6.98	-58.1	-61.4	3.7	0.00e+00	0	32	104	34284240896	83	20491
2026-01-06 17:50:39.58	340.54	6.69	-58.1	-61.4	3.7	0.00e+00	0	32	104	34284240896	83	20420
2026-01-06 17:50:42.32	340.45	6.46	-58.0	-61.2	3.6	0.00e+00	0	32	104	34284240896	83	19989
2026-01-06 17:50:45.61	340.35	6.18	-58.0	-61.2	3.6	0.00e+00	0	32	104	34284240896	83	20126
2026-01-06 17:50:48.32	340.26	5.95	-58.0	-61.2	3.6	0.00e+00	0	32	104	34284240896	83	20125
2026-01-06 17:50:51.61	340.16	5.68	-58.0	-61.2	3.7	0.00e+00	0	32	104	34284240896	82	21318
2026-01-06 17:50:54.33	340.08	5.45	-57.8	-61.0	3.6	0.00e+00	0	32	104	34284240896	82	20704
2026-01-06 17:50:57.62	339.99	5.19	-57.8	-61.0	3.7	0.00e+00	0	32	104	34284240896	82	20751
2026-01-06 17:51:00.35	339.91	4.97	-58.3	-61.5	3.7	0.00e+00	0	32	104	34284240896	82	22046
2026-01-06 17:51:03.65	339.82	4.71	-59.3	-62.6	3.7	0.00e+00	0	32	104	34284240896	84	22171
2026-01-06 17:51:06.36	339.75	4.50	-59.7	-62.9	3.7	0.00e+00	0	32	104	34284240896	85	21790
2026-01-06 17:51:09.67	339.66	4.24	-59.9	-63.1	3.6	0.00e+00	0	32	104	34284240896	85	22337
2026-01-06 17:51:12.39	339.59	4.03	-60.0	-63.3	3.7	0.00e+00	0	32	104	34284240896	85	22627
2026-01-06 17:51:15.69	339.51	3.78	-60.2	-63.4	3.6	0.00e+00	0	32	104	34284240896	86	21710
2026-01-06 17:51:18.42	339.44	3.58	-60.2	-63.4	3.7	0.00e+00	0	32	104	34284240896	86	21840
2026-01-06 17:51:21.71	339.36	3.34	-60.2	-63.4	3.6	0.00e+00	0	32	104	34284240896	86	21763
2026-01-06 17:51:24.45	339.30	3.14	-60.2	-63.4	3.6	0.00e+00	0	32	104	34284240896	86	21856
2026-01-06 17:51:27.74	339.22	2.90	-60.1	-63.4	3.7	0.00e+00	0	32	104	34284240896	86	21738
2026-01-06 17:51:30.46	339.16	2.70	-60.1	-63.3	3.6	0.00e+00	0	32	104	34284240896	86	21543
2026-01-06 17:51:33.77	339.09	2.47	-60.1	-63.3	3.7	0.00e+00	0	31	104	34284240896	86	21483
2026-01-06 17:51:36.50	339.03	2.27	-60.1	-63.3	3.7	0.00e+00	0	31	104	34284240896	86	21536
2026-01-06 17:51:39.86	338.96	2.04	-60.1	-63.3	3.7	0.00e+00	0	31	104	34284240896	86	21484

#Closed at: 2026-01-06 17:51:40
#Recorded file [34284 MB]: D:/lorett/data/31004_260106_204111.dat