passes_logs/2026/01/06/R3.2S_Murmansk/R3.2S_Murmansk__20260106_113750_FENGYUN_3D_rec.log

#Pass ID: 20260106_113750_FENGYUN 3D
#Satellite: FENGYUN 3D
#Configuration: FENGYUN 3D
#almurnet v.1.7.20251203
#Start time: 2026-01-06 11:37:52

#Version: 2.2.20231116
#Station: R3.2S_Murmansk
#Location: 33.079688 lon 68.888172 lat
#TLE: 1 43010U 17072A   26005.48915933 -.00000051  00000+0 -21983-5 0  9995
#TLE: 2 43010  98.9919 337.1582 0002001 124.6377 235.4988 14.19691925421909

#Time	Az	El	Level	Level2	SNR	BER	BlckErr	Temp	State	Recorded	gain1	gain2
2026-01-06 11:37:52.56	153.60	2.14	-58.4	-71.4	3.8	8.46e-01	0	26	0	0	83	15623
2026-01-06 11:37:56.53	153.62	2.40	-58.3	-71.1	3.8	8.45e-01	0	26	104	0	81	17026
2026-01-06 11:38:00.48	153.65	2.66	-58.3	-70.9	3.8	8.46e-01	0	27	104	0	81	16529
2026-01-06 11:38:04.45	153.67	2.92	-58.3	-70.8	3.8	8.46e-01	0	27	104	0	81	16336
2026-01-06 11:38:08.41	153.70	3.18	-58.4	-71.3	3.8	8.45e-01	0	27	104	0	81	17410
2026-01-06 11:38:12.37	153.72	3.45	-57.9	-66.6	4.6	8.15e-01	0	27	0	0	81	10087
2026-01-06 11:38:16.35	153.74	3.72	-57.1	-63.0	6.7	1.97e-01	0	27	0	13631488	80	7085
2026-01-06 11:38:20.32	153.77	3.99	-56.1	-60.5	8.9	1.37e-02	0	27	0	36700160	78	5937
2026-01-06 11:38:24.30	153.79	4.27	-54.0	-56.8	11.6	1.02e-04	0	27	0	58720256	74	4871
2026-01-06 11:38:28.28	153.82	4.55	-52.3	-54.5	12.9	0.00e+00	0	27	0	80740352	70	4715
2026-01-06 11:38:32.26	153.84	4.83	-52.5	-54.6	12.8	0.00e+00	0	27	0	103809024	70	4793
2026-01-06 11:38:36.22	153.87	5.11	-52.3	-54.3	13.0	0.00e+00	0	27	0	125829120	70	4651
2026-01-06 11:38:40.20	153.89	5.40	-55.3	-58.8	10.2	2.93e-03	0	28	0	147849216	76	5477
2026-01-06 11:38:44.16	153.92	5.69	-49.7	-51.3	14.1	0.00e+00	0	28	0	170917888	65	4368
2026-01-06 11:38:48.14	153.95	5.98	-50.2	-51.9	13.9	0.00e+00	0	28	0	192937984	65	4678
2026-01-06 11:38:52.11	153.97	6.28	-49.9	-51.5	14.1	0.00e+00	0	28	0	214958080	65	4448
2026-01-06 11:38:56.08	154.00	6.58	-49.6	-51.1	14.3	0.00e+00	0	28	0	236978176	65	4269
2026-01-06 11:39:00.05	154.02	6.88	-49.9	-51.4	14.1	0.00e+00	0	28	0	260046848	65	4428
2026-01-06 11:39:04.01	154.05	7.19	-49.7	-51.2	14.2	0.00e+00	0	28	0	282066944	65	4322
2026-01-06 11:39:07.97	154.08	7.50	-49.4	-50.9	14.4	0.00e+00	0	28	0	304087040	65	4182
2026-01-06 11:39:11.94	154.11	7.82	-49.5	-51.0	14.4	0.00e+00	0	28	0	326107136	65	4209
2026-01-06 11:39:15.90	154.13	8.13	-49.4	-50.9	14.4	0.00e+00	0	28	0	349175808	65	4152
2026-01-06 11:39:19.88	154.16	8.46	-49.3	-50.8	14.5	0.00e+00	0	28	0	371195904	65	4100
2026-01-06 11:39:23.86	154.19	8.79	-49.3	-50.7	14.5	0.00e+00	0	28	0	393216000	65	4075
2026-01-06 11:39:27.84	154.22	9.12	-49.1	-50.5	14.5	0.00e+00	0	28	0	416284672	64	4216
2026-01-06 11:39:31.82	154.25	9.46	-49.1	-50.5	14.5	0.00e+00	0	28	0	438304768	64	4236
2026-01-06 11:39:35.80	154.28	9.80	-49.4	-50.9	14.4	0.00e+00	0	28	0	460324864	64	4400
2026-01-06 11:39:39.77	154.31	10.14	-48.9	-50.3	14.6	0.00e+00	0	28	0	483393536	64	4120
2026-01-06 11:39:43.74	154.34	10.49	-48.9	-50.3	14.6	0.00e+00	0	28	0	505413632	64	4114
2026-01-06 11:39:47.72	154.37	10.85	-48.8	-50.2	14.7	0.00e+00	0	28	0	528482304	64	4065
2026-01-06 11:39:51.69	154.40	11.21	-48.7	-50.1	14.7	0.00e+00	0	28	0	550502400	64	4042
2026-01-06 11:39:55.66	154.43	11.58	-48.8	-50.1	14.7	0.00e+00	0	28	0	572522496	64	4051
2026-01-06 11:39:59.63	154.47	11.95	-48.7	-50.1	14.6	0.00e+00	0	28	0	594542592	63	4251
2026-01-06 11:40:03.59	154.50	12.32	-48.5	-49.9	14.7	0.00e+00	0	28	0	617611264	63	4168
2026-01-06 11:40:07.54	154.53	12.71	-48.4	-49.7	14.8	0.00e+00	0	29	0	639631360	63	4091
2026-01-06 11:40:11.49	154.57	13.09	-48.4	-49.8	14.8	0.00e+00	0	28	0	661651456	63	4099
2026-01-06 11:40:15.47	154.60	13.49	-48.0	-49.3	14.8	0.00e+00	0	29	0	683671552	62	4137
2026-01-06 11:40:19.44	154.64	13.89	-47.7	-49.0	15.0	0.00e+00	0	28	0	706740224	62	3974
2026-01-06 11:40:23.43	154.67	14.30	-47.7	-49.0	14.9	0.00e+00	0	28	0	728760320	61	4200
2026-01-06 11:40:27.41	154.71	14.72	-47.5	-48.8	15.0	0.00e+00	0	29	0	751828992	61	4104
2026-01-06 11:40:31.37	154.74	15.14	-47.3	-48.6	15.0	0.00e+00	0	29	0	773849088	61	4017
2026-01-06 11:40:35.35	154.78	15.57	-47.3	-48.5	15.0	0.00e+00	0	28	0	795869184	61	3999
2026-01-06 11:40:39.32	154.82	16.01	-47.2	-48.5	15.1	0.00e+00	0	29	0	817889280	61	3973
2026-01-06 11:40:43.30	154.86	16.46	-47.1	-48.4	15.0	0.00e+00	0	29	0	840957952	60	4161
2026-01-06 11:40:47.27	154.90	16.92	-47.3	-48.6	14.9	0.00e+00	0	29	0	862978048	60	4247
2026-01-06 11:40:51.25	154.94	17.38	-47.1	-48.3	15.0	0.00e+00	0	29	0	884998144	60	4130
2026-01-06 11:40:55.22	154.98	17.85	-47.1	-48.4	15.0	0.00e+00	0	29	0	908066816	60	4146
2026-01-06 11:40:59.19	155.02	18.33	-47.1	-48.3	15.0	0.00e+00	0	29	0	930086912	60	4140
2026-01-06 11:41:03.15	155.06	18.82	-47.0	-48.3	14.9	0.00e+00	0	29	0	952107008	59	4363
2026-01-06 11:41:07.11	155.11	19.33	-47.0	-48.3	15.0	0.00e+00	0	29	0	974127104	59	4341
2026-01-06 11:41:11.09	155.15	19.84	-46.9	-48.2	15.0	0.00e+00	0	29	0	997195776	59	4310
2026-01-06 11:41:15.07	155.20	20.36	-46.9	-48.2	15.0	0.00e+00	0	29	0	1019215872	59	4295
2026-01-06 11:41:19.05	155.24	20.90	-46.8	-48.1	15.0	0.00e+00	0	29	0	1041235968	59	4273
2026-01-06 11:41:23.04	155.29	21.44	-46.7	-48.0	15.0	0.00e+00	0	29	0	1064304640	59	4229
2026-01-06 11:41:27.01	155.34	22.00	-46.9	-48.2	15.0	0.00e+00	0	29	0	1086324736	59	4301
2026-01-06 11:41:30.98	155.39	22.57	-46.5	-47.7	15.1	0.00e+00	0	29	0	1108344832	59	4077
2026-01-06 11:41:34.95	155.44	23.15	-46.3	-47.5	15.2	0.00e+00	0	29	0	1131413504	59	4004
2026-01-06 11:41:38.93	155.50	23.75	-46.1	-47.3	15.2	0.00e+00	0	29	0	1153433600	58	4145
2026-01-06 11:41:42.91	155.55	24.36	-46.2	-47.4	15.1	0.00e+00	0	29	0	1176502272	58	4159
2026-01-06 11:41:46.90	155.61	24.99	-46.3	-47.5	15.1	0.00e+00	0	29	0	1198522368	58	4231
2026-01-06 11:41:50.87	155.67	25.63	-46.3	-47.5	15.1	0.00e+00	0	29	0	1220542464	58	4236
2026-01-06 11:41:54.84	155.73	26.29	-46.3	-47.5	15.1	0.00e+00	0	29	0	1242562560	58	4218
2026-01-06 11:41:58.81	155.79	26.96	-46.1	-47.3	15.2	0.00e+00	0	29	0	1265631232	58	4123
2026-01-06 11:42:02.79	155.85	27.65	-46.0	-47.2	15.2	0.00e+00	0	29	0	1287651328	58	4092
2026-01-06 11:42:06.75	155.92	28.36	-45.8	-47.0	15.3	0.00e+00	0	29	0	1309671424	58	3998
2026-01-06 11:42:10.73	155.99	29.08	-45.9	-47.1	15.3	0.00e+00	0	29	0	1332740096	58	4028
2026-01-06 11:42:14.69	156.06	29.83	-46.0	-47.2	15.2	0.00e+00	0	29	0	1354760192	58	4069
2026-01-06 11:42:18.64	156.13	30.59	-45.9	-47.2	15.2	0.00e+00	0	29	0	1376780288	58	4055
2026-01-06 11:42:22.60	156.21	31.37	-45.9	-47.1	15.2	0.00e+00	0	29	0	1398800384	58	4034
2026-01-06 11:42:26.56	156.29	32.17	-45.6	-46.8	15.2	0.00e+00	0	29	0	1420820480	57	4118
2026-01-06 11:42:30.52	156.37	33.00	-45.7	-46.9	15.2	0.00e+00	0	29	0	1443889152	57	4182
2026-01-06 11:42:34.49	156.46	33.85	-45.7	-46.9	15.2	0.00e+00	0	29	0	1465909248	57	4160
2026-01-06 11:42:38.47	156.55	34.73	-45.5	-46.6	15.3	0.00e+00	0	29	0	1488977920	57	4038
2026-01-06 11:42:42.63	156.64	35.68	-45.3	-46.5	15.3	0.00e+00	0	29	0	1510998016	57	3993
2026-01-06 11:42:46.59	156.74	36.60	-45.2	-46.4	15.4	0.00e+00	0	29	0	1533018112	57	3914
2026-01-06 11:42:50.58	156.85	37.56	-45.5	-46.5	15.2	0.00e+00	0	29	0	1555038208	56	4231
2026-01-06 11:42:54.54	156.96	38.55	-45.4	-46.5	15.2	0.00e+00	0	29	0	1578106880	56	4204
2026-01-06 11:42:58.52	157.08	39.56	-45.6	-46.6	15.2	0.00e+00	0	29	0	1600126976	56	4288
2026-01-06 11:43:02.49	157.20	40.61	-45.7	-46.7	15.2	0.00e+00	0	29	0	1622147072	56	4337
2026-01-06 11:43:06.48	157.33	41.69	-46.0	-47.0	15.2	0.00e+00	0	29	0	1645215744	57	4232
2026-01-06 11:43:10.44	157.47	42.79	-46.1	-47.1	15.1	0.00e+00	0	29	0	1667235840	57	4283
2026-01-06 11:43:14.41	157.61	43.93	-45.8	-46.9	15.2	0.00e+00	0	29	0	1689255936	57	4166
2026-01-06 11:43:18.38	157.77	45.11	-46.5	-47.6	15.1	0.00e+00	0	29	0	1711276032	58	4282
2026-01-06 11:43:22.36	157.94	46.32	-45.8	-46.8	15.4	0.00e+00	0	29	0	1734344704	58	3898
2026-01-06 11:43:26.33	158.12	47.57	-45.5	-46.6	15.3	0.00e+00	0	29	0	1756364800	57	4005
2026-01-06 11:43:30.30	158.31	48.85	-46.0	-47.1	15.2	0.00e+00	0	29	0	1779433472	57	4261
2026-01-06 11:43:34.27	158.52	50.17	-46.5	-47.6	15.1	0.00e+00	0	29	0	1801453568	58	4283
2026-01-06 11:43:38.25	158.75	51.54	-46.7	-47.7	15.1	0.00e+00	0	29	0	1823473664	58	4335
2026-01-06 11:43:42.22	159.00	52.94	-47.2	-48.4	15.1	0.00e+00	0	29	0	1845493760	59	4393
2026-01-06 11:43:46.19	159.27	54.38	-47.0	-48.1	15.1	0.00e+00	0	29	0	1868562432	59	4284
2026-01-06 11:43:50.16	159.57	55.86	-47.2	-48.3	15.1	0.00e+00	0	29	0	1890582528	59	4373
2026-01-06 11:43:54.14	159.90	57.39	-46.8	-47.9	15.2	0.00e+00	0	29	0	1912602624	59	4149
2026-01-06 11:43:58.11	160.27	58.95	-46.4	-47.4	15.3	0.00e+00	0	29	0	1935671296	59	3956
2026-01-06 11:44:02.12	160.69	60.57	-45.8	-46.8	15.4	0.00e+00	0	29	0	1957691392	58	3897
2026-01-06 11:44:06.08	161.16	62.21	-45.7	-46.8	15.3	0.00e+00	0	29	0	1979711488	57	4100
2026-01-06 11:44:10.05	161.70	63.89	-46.0	-47.0	15.2	0.00e+00	0	29	0	2002780160	57	4229
2026-01-06 11:44:14.01	162.32	65.60	-45.5	-46.4	15.3	0.00e+00	0	29	0	2024800256	57	3955
2026-01-06 11:44:17.98	163.04	67.36	-45.3	-46.3	15.4	0.00e+00	0	29	0	2046820352	57	3879
2026-01-06 11:44:21.95	163.90	69.15	-45.0	-46.0	15.4	0.00e+00	0	29	0	2069889024	56	3985
2026-01-06 11:44:25.92	164.92	70.96	-44.7	-45.7	15.5	0.00e+00	0	29	0	2091909120	56	3857
2026-01-06 11:44:29.90	166.18	72.81	-45.0	-46.0	15.3	0.00e+00	0	29	0	2113929216	55	4229
2026-01-06 11:44:33.88	167.76	74.68	-44.1	-45.1	15.4	0.00e+00	0	29	0	2136997888	54	4046
2026-01-06 11:44:37.86	169.80	76.56	-44.2	-45.2	15.4	0.00e+00	0	29	0	2159017984	54	4085
2026-01-06 11:44:41.85	172.52	78.45	-44.1	-45.1	15.4	0.00e+00	0	29	0	2181038080	54	4009
2026-01-06 11:44:45.81	176.29	80.31	-43.2	-44.2	15.4	0.00e+00	0	29	0	2204106752	52	4071
2026-01-06 11:44:49.78	181.88	82.13	-42.9	-43.9	15.5	0.00e+00	0	29	0	2226126848	52	3936
2026-01-06 11:44:53.77	190.78	83.85	-43.2	-44.2	15.4	0.00e+00	0	29	0	2248146944	52	4067
2026-01-06 11:44:57.75	205.89	85.33	-43.5	-44.5	15.3	0.00e+00	0	29	0	2271215616	52	4213
2026-01-06 11:45:01.73	231.13	86.24	-43.4	-44.4	15.3	0.00e+00	0	29	0	2293235712	52	4159
2026-01-06 11:45:05.70	262.21	86.15	-43.2	-44.2	15.4	0.00e+00	0	29	0	2315255808	52	4071
2026-01-06 11:45:09.67	285.68	85.12	-43.2	-44.2	15.4	0.00e+00	0	29	0	2338324480	52	4079
2026-01-06 11:45:13.64	299.51	83.60	-42.8	-43.7	15.4	0.00e+00	0	29	0	2360344576	51	4098
2026-01-06 11:45:17.60	307.71	81.87	-43.0	-44.0	15.3	0.00e+00	0	29	0	2382364672	51	4220
2026-01-06 11:45:21.58	312.97	80.04	-43.0	-44.0	15.3	0.00e+00	0	29	0	2404384768	51	4216
2026-01-06 11:45:25.57	316.57	78.16	-43.9	-44.9	15.3	0.00e+00	0	29	0	2427453440	52	4400
2026-01-06 11:45:29.54	319.16	76.28	-44.1	-45.0	15.3	0.00e+00	0	29	0	2449473536	53	4237
2026-01-06 11:45:33.50	321.11	74.41	-44.5	-45.5	15.3	0.00e+00	0	29	0	2471493632	54	4212
2026-01-06 11:45:37.47	322.63	72.55	-44.9	-45.9	15.3	0.00e+00	0	29	0	2494562304	55	4191
2026-01-06 11:45:41.44	323.85	70.72	-44.5	-45.5	15.4	0.00e+00	0	29	0	2516582400	55	3988
2026-01-06 11:45:45.42	324.85	68.90	-44.7	-45.7	15.3	0.00e+00	0	29	0	2538602496	55	4078
2026-01-06 11:45:49.39	325.68	67.12	-45.0	-46.0	15.2	0.00e+00	0	29	0	2561671168	55	4194
2026-01-06 11:45:53.34	326.39	65.38	-45.4	-46.5	15.3	0.00e+00	0	29	0	2583691264	56	4200
2026-01-06 11:45:57.30	326.99	63.68	-45.5	-46.5	15.3	0.00e+00	0	29	0	2605711360	56	4229
2026-01-06 11:46:01.28	327.52	62.00	-45.8	-46.9	15.2	0.00e+00	0	29	0	2627731456	56	4393
2026-01-06 11:46:05.25	327.98	60.37	-45.6	-46.7	15.2	0.00e+00	0	29	0	2650800128	56	4294
2026-01-06 11:46:09.24	328.39	58.76	-46.3	-47.3	15.2	0.00e+00	0	29	0	2672820224	57	4378
2026-01-06 11:46:13.21	328.76	57.21	-46.7	-47.8	15.1	0.00e+00	0	29	0	2694840320	58	4376
2026-01-06 11:46:17.17	329.09	55.70	-47.1	-48.2	15.1	0.00e+00	0	29	0	2717908992	59	4311
2026-01-06 11:46:21.14	329.38	54.23	-46.9	-48.0	15.3	0.00e+00	0	29	0	2739929088	60	3970
2026-01-06 11:46:25.10	329.65	52.80	-47.1	-48.2	15.1	0.00e+00	0	29	0	2761949184	59	4319
2026-01-06 11:46:29.08	329.90	51.40	-46.5	-47.6	15.3	0.00e+00	0	29	0	2783969280	59	4024
2026-01-06 11:46:33.05	330.12	50.05	-46.4	-47.5	15.3	0.00e+00	0	29	0	2807037952	59	3991
2026-01-06 11:46:37.04	330.33	48.73	-46.2	-47.2	15.3	0.00e+00	0	29	0	2829058048	58	4074
2026-01-06 11:46:41.01	330.53	47.45	-45.9	-46.9	15.4	0.00e+00	0	29	0	2852126720	58	3941
2026-01-06 11:46:44.97	330.71	46.22	-45.8	-46.8	15.4	0.00e+00	0	29	0	2874146816	58	3904
2026-01-06 11:46:48.94	330.87	45.01	-45.9	-47.0	15.4	0.00e+00	0	29	0	2896166912	58	3979
2026-01-06 11:46:52.92	331.03	43.84	-45.5	-46.6	15.3	0.00e+00	0	29	0	2918187008	57	4009
2026-01-06 11:46:56.90	331.18	42.70	-45.8	-46.8	15.3	0.00e+00	0	29	0	2941255680	57	4134
2026-01-06 11:47:00.87	331.31	41.60	-45.7	-46.8	15.3	0.00e+00	0	29	0	2963275776	57	4107
2026-01-06 11:47:04.84	331.44	40.54	-45.6	-46.6	15.3	0.00e+00	0	29	0	2985295872	57	4036
2026-01-06 11:47:08.83	331.57	39.49	-45.3	-46.3	15.4	0.00e+00	0	29	0	3008364544	57	3904
2026-01-06 11:47:12.82	331.68	38.48	-45.2	-46.3	15.4	0.00e+00	0	29	0	3030384640	57	3873
2026-01-06 11:47:16.78	331.79	37.51	-45.1	-46.1	15.3	0.00e+00	0	29	0	3052404736	56	4037
2026-01-06 11:47:20.74	331.90	36.56	-45.2	-46.2	15.3	0.00e+00	0	29	0	3075473408	56	4063
2026-01-06 11:47:24.69	332.00	35.64	-45.3	-46.3	15.3	0.00e+00	0	29	0	3097493504	56	4123
2026-01-06 11:47:28.65	332.09	34.74	-45.3	-46.3	15.3	0.00e+00	0	29	0	3119513600	56	4134
2026-01-06 11:47:32.60	332.18	33.88	-45.4	-46.5	15.3	0.00e+00	0	29	0	3141533696	56	4194
2026-01-06 11:47:36.57	332.27	33.03	-45.4	-46.4	15.3	0.00e+00	0	29	0	3164602368	56	4179
2026-01-06 11:47:40.57	332.35	32.20	-45.5	-46.5	15.2	0.00e+00	0	29	0	3186622464	56	4235
2026-01-06 11:47:44.53	332.43	31.39	-45.6	-46.7	15.2	0.00e+00	0	29	0	3208642560	56	4298
2026-01-06 11:47:48.50	332.51	30.61	-45.8	-46.8	15.2	0.00e+00	0	29	0	3231711232	56	4390
2026-01-06 11:47:52.48	332.59	29.85	-45.9	-47.0	15.2	0.00e+00	0	29	0	3253731328	56	4457
2026-01-06 11:47:56.45	332.66	29.11	-46.0	-47.0	15.2	0.00e+00	0	29	0	3275751424	57	4241
2026-01-06 11:48:00.41	332.73	28.39	-45.8	-46.8	15.3	0.00e+00	0	29	0	3298820096	57	4123
2026-01-06 11:48:04.38	332.79	27.69	-45.5	-46.6	15.3	0.00e+00	0	29	0	3320840192	57	4006
2026-01-06 11:48:08.36	332.86	27.00	-45.6	-46.6	15.3	0.00e+00	0	29	0	3342860288	57	4042
2026-01-06 11:48:12.33	332.92	26.33	-45.8	-46.8	15.3	0.00e+00	0	29	0	3364880384	57	4128
2026-01-06 11:48:16.31	332.98	25.67	-46.2	-47.3	15.2	0.00e+00	0	29	0	3387949056	57	4354
2026-01-06 11:48:20.29	333.04	25.03	-46.3	-47.4	15.2	0.00e+00	0	29	0	3409969152	57	4421
2026-01-06 11:48:24.27	333.10	24.41	-46.2	-47.3	15.2	0.00e+00	0	29	0	3431989248	57	4381
2026-01-06 11:48:28.22	333.16	23.81	-46.2	-47.3	15.2	0.00e+00	0	29	0	3455057920	57	4347
2026-01-06 11:48:32.19	333.21	23.21	-46.1	-47.1	15.2	0.00e+00	0	29	0	3477078016	57	4287
2026-01-06 11:48:36.16	333.27	22.63	-46.3	-47.3	15.2	0.00e+00	0	29	0	3499098112	57	4371
2026-01-06 11:48:40.14	333.32	22.06	-46.4	-47.5	15.2	0.00e+00	0	29	0	3521118208	58	4220
2026-01-06 11:48:44.10	333.37	21.51	-46.5	-47.6	15.2	0.00e+00	0	29	0	3544186880	58	4245
2026-01-06 11:48:48.07	333.42	20.97	-46.6	-47.7	15.1	0.00e+00	0	29	0	3566206976	58	4295
2026-01-06 11:48:52.05	333.47	20.43	-46.8	-47.8	15.1	0.00e+00	0	29	0	3589275648	58	4388
2026-01-06 11:48:56.01	333.51	19.91	-46.8	-47.9	15.1	0.00e+00	0	29	0	3611295744	58	4413
2026-01-06 11:48:59.98	333.56	19.40	-47.0	-48.1	15.1	0.00e+00	0	29	0	3633315840	59	4257
2026-01-06 11:49:03.95	333.61	18.90	-47.1	-48.2	15.1	0.00e+00	0	29	0	3655335936	59	4312
2026-01-06 11:49:07.92	333.65	18.41	-47.2	-48.4	15.0	0.00e+00	0	29	0	3678404608	59	4400
2026-01-06 11:49:11.91	333.69	17.93	-47.0	-48.1	15.2	0.00e+00	0	29	0	3700424704	60	4047
2026-01-06 11:49:15.89	333.74	17.46	-47.2	-48.3	15.1	0.00e+00	0	29	0	3722444800	60	4145
2026-01-06 11:49:19.86	333.78	17.00	-47.3	-48.5	15.1	0.00e+00	0	29	0	3745513472	60	4203
2026-01-06 11:49:23.83	333.82	16.54	-47.6	-48.8	15.0	0.00e+00	0	29	0	3767533568	60	4361
2026-01-06 11:49:27.79	333.86	16.10	-47.6	-48.7	15.0	0.00e+00	0	29	0	3789553664	60	4336
2026-01-06 11:49:31.77	333.90	15.66	-47.6	-48.8	14.9	0.00e+00	0	29	0	3812622336	60	4371
2026-01-06 11:49:35.73	333.94	15.23	-47.7	-48.8	14.9	0.00e+00	0	29	0	3834642432	60	4373
2026-01-06 11:49:39.72	333.98	14.81	-47.9	-49.1	14.9	0.00e+00	0	29	0	3856662528	60	4501
2026-01-06 11:49:43.69	334.02	14.39	-47.7	-48.9	14.9	0.00e+00	0	29	0	3878682624	60	4410
2026-01-06 11:49:47.67	334.05	13.98	-47.9	-49.0	15.0	0.00e+00	0	29	0	3901751296	61	4225
2026-01-06 11:49:51.65	334.09	13.58	-48.0	-49.2	14.9	0.00e+00	0	29	0	3923771392	61	4323
2026-01-06 11:49:55.63	334.13	13.19	-48.1	-49.3	14.8	0.00e+00	0	29	0	3945791488	61	4379
2026-01-06 11:49:59.60	334.16	12.80	-48.2	-49.4	14.9	0.00e+00	0	29	0	3968860160	61	4395
2026-01-06 11:50:03.57	334.20	12.42	-48.2	-49.4	14.8	0.00e+00	0	29	0	3990880256	61	4439
2026-01-06 11:50:07.54	334.23	12.04	-48.3	-49.5	14.9	0.00e+00	0	29	0	4012900352	62	4236
2026-01-06 11:50:11.51	334.27	11.67	-48.4	-49.6	14.8	0.00e+00	0	29	0	4035969024	62	4265
2026-01-06 11:50:15.48	334.30	11.30	-48.6	-49.9	14.7	0.00e+00	0	29	0	4057989120	62	4415
2026-01-06 11:50:19.45	334.34	10.95	-48.7	-49.9	14.7	0.00e+00	0	29	0	4080009216	62	4438
2026-01-06 11:50:23.42	334.37	10.59	-48.7	-50.0	14.7	0.00e+00	0	29	0	4103077888	62	4448
2026-01-06 11:50:27.41	334.40	10.24	-48.8	-50.1	14.8	0.00e+00	0	29	0	4125097984	63	4254
2026-01-06 11:50:31.38	334.43	9.90	-49.0	-50.3	14.7	0.00e+00	0	29	0	4147118080	63	4348
2026-01-06 11:50:35.35	334.47	9.56	-49.0	-50.3	14.6	0.00e+00	0	30	0	4170186752	63	4381
2026-01-06 11:50:39.31	334.50	9.22	-49.1	-50.4	14.6	0.00e+00	0	29	0	4192206848	63	4404
2026-01-06 11:50:43.29	334.53	8.89	-49.2	-50.6	14.5	0.00e+00	0	29	0	4214226944	63	4500
2026-01-06 11:50:47.25	334.56	8.56	-49.3	-50.7	14.5	0.00e+00	0	29	0	4237295616	63	4563
2026-01-06 11:50:51.20	334.59	8.24	-49.4	-50.8	14.5	0.00e+00	0	29	0	4259315712	64	4358
2026-01-06 11:50:55.19	334.62	7.92	-49.5	-50.8	14.5	0.00e+00	0	29	0	4281335808	64	4372
2026-01-06 11:50:59.16	334.65	7.61	-49.6	-51.0	14.4	0.00e+00	0	29	0	4303355904	64	4476
2026-01-06 11:51:03.12	334.68	7.30	-49.6	-51.0	14.4	0.00e+00	0	29	0	4326424576	64	4485
2026-01-06 11:51:07.09	334.71	6.99	-49.8	-51.2	14.3	0.00e+00	0	29	0	4348444672	64	4569
2026-01-06 11:51:11.07	334.74	6.69	-50.0	-51.4	14.3	0.00e+00	0	29	0	4370464768	65	4414
2026-01-06 11:51:15.06	334.77	6.39	-50.1	-51.5	14.2	0.00e+00	0	29	0	4393533440	65	4466
2026-01-06 11:51:19.02	334.80	6.09	-49.9	-51.4	14.3	0.00e+00	0	29	0	4415553536	65	4413
2026-01-06 11:51:22.98	334.83	5.80	-50.1	-51.6	14.2	0.00e+00	0	29	0	4437573632	65	4504
2026-01-06 11:51:26.95	334.86	5.51	-50.3	-51.8	14.0	0.00e+00	0	29	0	4459593728	65	4615
2026-01-06 11:51:30.90	334.89	5.23	-50.6	-52.2	13.8	0.00e+00	0	29	0	4482662400	66	4585
2026-01-06 11:51:34.87	334.91	4.94	-55.9	-59.6	10.1	0.00e+00	0	29	0	4504682496	76	6012
2026-01-06 11:51:38.88	334.94	4.66	-60.3	-73.3	3.8	8.46e-01	0	29	104	4505731072	85	17424
2026-01-06 11:51:42.89	334.97	4.38	-60.7	-73.8	3.8	8.46e-01	0	29	104	4505731072	86	17356
2026-01-06 11:51:46.93	335.00	4.10	-60.9	-74.0	3.8	8.45e-01	0	29	104	4505731072	86	17815
2026-01-06 11:51:50.95	335.03	3.83	-61.0	-74.1	3.8	8.45e-01	0	29	104	4505731072	87	17001
2026-01-06 11:51:54.97	335.05	3.55	-61.1	-74.2	3.8	8.46e-01	0	29	104	4505731072	87	17173
2026-01-06 11:51:58.97	335.08	3.29	-61.0	-74.1	3.8	8.45e-01	0	30	104	4505731072	87	17052
2026-01-06 11:52:02.96	335.11	3.02	-60.9	-74.0	3.8	8.45e-01	0	29	104	4505731072	87	16865
2026-01-06 11:52:06.94	335.14	2.76	-60.9	-74.0	3.8	8.46e-01	0	29	104	4505731072	87	16862
2026-01-06 11:52:10.92	335.16	2.50	-60.9	-74.0	3.8	8.46e-01	0	29	104	4505731072	87	16790
2026-01-06 11:52:14.89	335.19	2.24	-60.9	-74.0	3.8	8.45e-01	0	29	104	4505731072	87	16837
2026-01-06 11:52:18.87	335.21	1.99	-60.9	-74.0	3.8	8.47e-01	0	29	104	4505731072	87	16743

#Closed at: 2026-01-06 11:52:19
#Recorded file [4505 MB]: D:/lorett/data/31004_260106_143752.dat