passes_logs/2026/01/06/R3.2S_Murmansk/R3.2S_Murmansk__20260106_062132_AQUA_rec.log

#Pass ID: 20260106_062132_AQUA
#Satellite: AQUA
#Configuration: AQUA
#almurnet v.1.7.20251203
#Start time: 2026-01-06 06:21:34

#Version: 2.2.20231116
#Station: R3.2S_Murmansk
#Location: 33.079688 lon 68.888172 lat
#TLE: 1 27424U 02022A   26004.96787593  .00001598  00000+0  32997-3 0  9996
#TLE: 2 27424  98.4069 331.2279 0002002  90.2377   0.6092 14.61798176259425

#Time	Az	El	Level	Level2	SNR	BER	BlckErr	Temp	State	Recorded	gain1	gain2
2026-01-06 06:21:34.46	51.07	2.12	-57.4	-76.7	3.8	7.48e-01	0	24	0	0	83	33431
2026-01-06 06:21:37.46	50.83	2.29	-57.4	-76.7	3.8	7.47e-01	0	24	104	0	82	35328
2026-01-06 06:21:40.45	50.59	2.46	-57.4	-76.7	3.8	7.46e-01	0	24	104	0	82	35519
2026-01-06 06:21:43.45	50.34	2.63	-57.4	-76.7	3.8	7.46e-01	0	24	104	0	82	35659
2026-01-06 06:21:46.46	50.08	2.80	-57.4	-76.8	3.8	7.45e-01	0	24	104	0	82	35730
2026-01-06 06:21:49.47	49.83	2.97	-57.4	-76.6	3.8	7.46e-01	0	24	104	0	82	34944
2026-01-06 06:21:52.47	49.57	3.15	-57.3	-76.3	3.8	7.47e-01	0	24	104	0	82	34084
2026-01-06 06:21:55.48	49.30	3.32	-57.4	-76.4	3.8	7.46e-01	0	25	104	0	82	34433
2026-01-06 06:21:58.48	49.04	3.50	-57.4	-76.6	3.8	7.46e-01	0	25	104	0	82	35215
2026-01-06 06:22:01.49	48.76	3.67	-57.4	-76.6	3.8	7.47e-01	0	25	104	0	82	35259
2026-01-06 06:22:04.49	48.49	3.85	-57.4	-76.5	3.8	7.47e-01	0	25	104	0	82	34664
2026-01-06 06:22:07.49	48.21	4.03	-57.4	-76.4	3.8	7.43e-01	0	25	104	0	82	34255
2026-01-06 06:22:10.50	47.93	4.21	-57.3	-76.5	3.8	7.49e-01	0	25	104	0	82	34693
2026-01-06 06:22:13.50	47.64	4.39	-57.4	-76.7	3.8	7.47e-01	0	25	104	0	82	35559
2026-01-06 06:22:16.52	47.35	4.57	-57.3	-76.0	3.8	7.44e-01	0	25	104	0	82	32686
2026-01-06 06:22:19.53	47.06	4.75	-56.7	-73.2	3.9	7.46e-01	0	25	104	0	82	23802
2026-01-06 06:22:22.53	46.76	4.93	-56.1	-71.2	3.9	7.43e-01	0	25	104	0	81	19869
2026-01-06 06:22:25.53	46.46	5.11	-56.2	-71.4	3.8	7.46e-01	0	25	104	0	80	21722
2026-01-06 06:22:28.54	46.15	5.29	-56.0	-70.6	3.8	7.42e-01	0	25	104	0	79	20808
2026-01-06 06:22:31.54	45.84	5.47	-52.2	-64.3	3.8	7.46e-01	0	25	104	0	73	14221
2026-01-06 06:22:34.54	45.52	5.66	-55.9	-70.3	3.8	7.47e-01	0	25	104	0	79	20300
2026-01-06 06:22:37.54	45.20	5.84	-52.8	-65.0	3.9	7.43e-01	0	25	104	0	74	14663
2026-01-06 06:22:40.52	44.88	6.02	-51.3	-63.0	3.9	7.45e-01	0	25	104	0	71	13848
2026-01-06 06:22:43.53	44.55	6.21	-56.0	-70.6	3.9	7.43e-01	0	25	104	0	81	18539
2026-01-06 06:22:46.54	44.22	6.39	-52.6	-64.7	3.8	7.47e-01	0	25	104	0	74	14115
2026-01-06 06:22:49.54	43.88	6.58	-52.2	-64.2	3.8	7.50e-01	0	25	104	0	72	14915
2026-01-06 06:22:52.53	43.54	6.77	-53.4	-65.8	3.8	7.43e-01	0	25	104	0	76	14256
2026-01-06 06:22:55.53	43.19	6.95	-52.3	-64.2	3.8	7.46e-01	0	25	104	0	73	14197
2026-01-06 06:22:58.53	42.84	7.14	-55.8	-69.8	3.8	7.51e-01	0	25	104	0	79	19055
2026-01-06 06:23:01.54	42.48	7.33	-52.9	-65.1	3.8	7.46e-01	0	25	104	0	74	14827
2026-01-06 06:23:04.54	42.11	7.52	-51.5	-63.3	3.9	7.45e-01	0	25	104	0	72	13485
2026-01-06 06:23:07.53	41.75	7.71	-56.2	-70.7	3.9	7.49e-01	0	25	104	0	81	18849
2026-01-06 06:23:10.51	41.37	7.90	-52.6	-64.6	3.8	7.44e-01	0	25	104	0	74	14030
2026-01-06 06:23:13.50	41.00	8.09	-51.9	-63.6	3.8	7.45e-01	0	25	104	0	71	14845
2026-01-06 06:23:16.49	40.61	8.28	-53.7	-65.9	3.8	7.44e-01	0	26	104	0	76	14508
2026-01-06 06:23:19.50	40.22	8.47	-52.1	-64.0	3.8	7.44e-01	0	25	104	0	73	13832
2026-01-06 06:23:22.50	39.82	8.66	-55.4	-68.7	3.9	7.44e-01	0	26	104	0	78	17841
2026-01-06 06:23:25.49	39.42	8.85	-52.4	-64.3	3.8	7.45e-01	0	25	104	0	73	14322
2026-01-06 06:23:28.49	39.01	9.05	-51.1	-62.8	3.8	7.47e-01	0	26	104	0	71	13495
2026-01-06 06:23:31.49	38.60	9.24	-56.3	-70.5	3.9	7.46e-01	0	26	104	0	81	18372
2026-01-06 06:23:34.48	38.18	9.43	-52.1	-64.0	3.9	7.42e-01	0	25	104	0	73	13759
2026-01-06 06:23:37.48	37.75	9.63	-53.7	-66.3	3.9	7.43e-01	0	26	104	0	75	16039
2026-01-06 06:23:40.47	37.32	9.82	-55.1	-68.2	3.8	7.49e-01	0	26	104	0	77	17741
2026-01-06 06:23:43.46	36.88	10.01	-52.3	-64.1	3.8	7.45e-01	0	26	104	0	73	14046
2026-01-06 06:23:46.45	36.44	10.21	-54.8	-67.7	3.8	7.46e-01	0	26	104	0	77	16757
2026-01-06 06:23:49.42	35.99	10.40	-51.9	-63.7	3.9	7.42e-01	0	26	104	0	72	14176
2026-01-06 06:23:52.42	35.53	10.59	-50.6	-62.1	3.8	7.44e-01	0	26	104	0	70	13258
2026-01-06 06:23:55.42	35.07	10.79	-56.2	-70.4	3.9	7.44e-01	0	26	104	0	81	18106
2026-01-06 06:23:58.41	34.59	10.98	-50.9	-62.4	3.8	7.45e-01	0	26	104	0	71	12937
2026-01-06 06:24:01.39	34.12	11.17	-50.8	-62.3	3.8	7.46e-01	0	25	104	0	69	14285
2026-01-06 06:24:04.38	33.63	11.36	-54.3	-67.3	3.9	7.44e-01	0	26	104	0	78	15109
2026-01-06 06:24:07.37	33.14	11.56	-51.0	-62.5	3.9	7.46e-01	0	26	104	0	71	13086
2026-01-06 06:24:10.37	32.64	11.75	-54.0	-66.4	3.8	7.45e-01	0	26	104	0	75	16186
2026-01-06 06:24:13.35	32.14	11.94	-51.4	-63.0	3.8	7.49e-01	0	26	104	0	71	13795
2026-01-06 06:24:16.35	31.62	12.13	-51.6	-63.3	3.9	7.44e-01	0	26	104	0	71	14215
2026-01-06 06:24:19.34	31.10	12.32	-56.8	-71.4	3.9	7.42e-01	0	26	104	0	82	19270
2026-01-06 06:24:22.33	30.57	12.51	-51.4	-63.0	3.8	7.48e-01	0	26	104	0	71	13814
2026-01-06 06:24:25.31	30.04	12.70	-50.8	-62.3	3.9	7.39e-01	0	26	104	0	69	14291
2026-01-06 06:24:28.31	29.49	12.89	-52.7	-64.9	3.8	7.47e-01	0	26	104	0	73	15357
2026-01-06 06:24:31.31	28.94	13.08	-51.3	-62.8	3.9	7.44e-01	0	26	104	0	71	13564
2026-01-06 06:24:34.29	28.38	13.27	-53.4	-65.5	3.8	7.46e-01	0	26	104	0	75	14556
2026-01-06 06:24:37.29	27.81	13.46	-51.0	-62.6	3.8	7.49e-01	0	26	104	0	71	13136
2026-01-06 06:24:40.28	27.24	13.64	-50.3	-61.6	3.8	7.45e-01	0	26	104	0	69	13231
2026-01-06 06:24:43.27	26.66	13.83	-57.0	-72.3	3.9	7.43e-01	0	26	104	0	83	20111
2026-01-06 06:24:46.26	26.07	14.01	-51.0	-62.5	3.9	7.48e-01	0	26	104	0	70	13815
2026-01-06 06:24:49.24	25.47	14.19	-51.1	-62.7	3.9	7.44e-01	0	26	104	0	69	14924
2026-01-06 06:24:52.23	24.87	14.37	-56.8	-71.4	3.9	7.46e-01	0	26	104	0	82	19364
2026-01-06 06:24:55.22	24.25	14.55	-50.3	-61.7	3.9	7.43e-01	0	26	104	0	69	13296
2026-01-06 06:24:58.22	23.63	14.72	-53.0	-65.0	3.9	7.45e-01	0	26	104	0	73	15430
2026-01-06 06:25:01.21	23.00	14.90	-50.8	-62.3	3.8	7.48e-01	0	26	104	0	70	13498
2026-01-06 06:25:04.21	22.36	15.07	-50.0	-61.4	3.9	7.43e-01	0	26	104	0	69	12862
2026-01-06 06:25:07.20	21.72	15.24	-57.4	-73.3	3.9	7.46e-01	0	26	104	0	83	22591
2026-01-06 06:25:10.19	21.06	15.41	-50.6	-62.0	3.9	7.42e-01	0	26	104	0	70	13071
2026-01-06 06:25:13.20	20.40	15.58	-50.9	-62.4	3.8	7.45e-01	0	26	104	0	70	13676
2026-01-06 06:25:16.18	19.73	15.74	-51.5	-63.1	3.9	7.47e-01	0	26	104	0	72	13166
2026-01-06 06:25:19.17	19.05	15.90	-51.1	-62.7	3.9	7.43e-01	0	26	104	0	71	13352
2026-01-06 06:25:22.15	18.37	16.06	-53.1	-65.0	3.9	7.45e-01	0	26	104	0	75	13883
2026-01-06 06:25:25.15	17.67	16.21	-50.6	-62.1	3.8	7.46e-01	0	26	104	0	70	13176
2026-01-06 06:25:28.15	16.97	16.37	-50.0	-61.3	3.8	7.49e-01	0	26	104	0	69	12710
2026-01-06 06:25:31.14	16.26	16.51	-57.5	-73.3	3.9	7.45e-01	0	26	104	0	83	22700
2026-01-06 06:25:34.13	15.55	16.66	-51.2	-62.8	3.8	7.43e-01	0	26	104	0	71	13520
2026-01-06 06:25:37.12	14.82	16.80	-50.5	-61.9	3.8	7.48e-01	0	26	104	0	70	12953
2026-01-06 06:25:40.11	14.09	16.94	-51.4	-63.0	3.9	7.45e-01	0	26	104	0	72	13007
2026-01-06 06:25:43.09	13.36	17.07	-51.7	-63.2	3.8	7.48e-01	0	26	104	0	72	13360
2026-01-06 06:25:46.06	12.62	17.20	-53.6	-65.7	3.9	7.46e-01	0	26	104	0	76	14113
2026-01-06 06:25:49.03	11.87	17.33	-50.5	-62.0	3.8	7.44e-01	0	26	104	0	70	12967
2026-01-06 06:25:52.01	11.12	17.45	-50.1	-61.5	3.9	7.44e-01	0	26	104	0	69	13086
2026-01-06 06:25:54.99	10.36	17.57	-57.8	-74.3	3.8	7.42e-01	0	26	104	0	83	25464
2026-01-06 06:25:57.95	9.59	17.68	-51.1	-62.6	3.8	7.46e-01	0	26	104	0	71	13205
2026-01-06 06:26:00.93	8.82	17.79	-50.5	-61.9	3.8	7.47e-01	0	26	104	0	69	13676
2026-01-06 06:26:03.92	8.04	17.90	-51.9	-63.6	3.8	7.47e-01	0	26	104	0	73	13169
2026-01-06 06:26:06.90	7.25	18.00	-51.6	-63.3	3.9	7.45e-01	0	26	104	0	72	13443
2026-01-06 06:26:09.91	6.45	18.09	-54.1	-66.4	3.9	7.45e-01	0	26	104	0	77	14469
2026-01-06 06:26:12.93	5.65	18.18	-50.6	-62.0	3.8	7.47e-01	0	26	104	0	70	13036
2026-01-06 06:26:15.94	4.84	18.27	-50.2	-61.6	3.9	7.44e-01	0	26	104	0	69	13114
2026-01-06 06:26:18.96	4.02	18.35	-57.4	-72.7	3.8	7.46e-01	0	26	104	0	82	22328
2026-01-06 06:26:21.96	3.21	18.42	-51.0	-62.5	3.9	7.45e-01	0	26	104	0	71	13033
2026-01-06 06:26:24.97	2.38	18.49	-57.9	-74.5	3.8	7.44e-01	0	26	104	0	83	25891
2026-01-06 06:26:27.99	1.55	18.55	-57.8	-74.0	3.8	7.47e-01	0	26	104	0	83	24477
2026-01-06 06:26:30.99	0.73	18.61	-51.1	-62.6	3.9	7.47e-01	0	26	104	0	71	13146
2026-01-06 06:26:34.00	359.89	18.66	-53.9	-66.3	3.8	7.47e-01	0	26	104	0	75	15945
2026-01-06 06:26:36.99	359.06	18.71	-57.6	-73.4	3.8	7.44e-01	0	26	104	0	82	24283
2026-01-06 06:26:39.99	358.23	18.75	-50.8	-62.2	3.8	7.47e-01	0	26	104	0	70	13379
2026-01-06 06:26:42.99	357.39	18.78	-57.8	-74.1	3.8	7.46e-01	0	26	104	0	83	24791
2026-01-06 06:26:45.98	356.56	18.81	-51.0	-62.4	3.9	7.45e-01	0	26	104	0	71	12895
2026-01-06 06:26:48.97	355.72	18.83	-50.8	-62.2	3.8	7.46e-01	0	26	104	0	70	13357
2026-01-06 06:26:51.95	354.88	18.84	-51.3	-62.8	3.9	7.48e-01	0	26	104	0	71	13472
2026-01-06 06:26:54.95	354.04	18.85	-51.2	-62.7	3.8	7.47e-01	0	26	104	0	71	13292
2026-01-06 06:26:57.93	353.20	18.86	-53.7	-66.1	3.8	7.46e-01	0	26	104	0	75	15734
2026-01-06 06:27:00.92	352.36	18.85	-57.5	-73.1	3.8	7.47e-01	0	26	104	0	82	23317
2026-01-06 06:27:03.91	351.52	18.84	-50.3	-61.7	3.9	7.44e-01	0	26	104	0	69	13341
2026-01-06 06:27:06.88	350.69	18.83	-57.5	-73.0	3.8	7.44e-01	0	26	104	0	82	23190
2026-01-06 06:27:09.88	349.85	18.81	-50.8	-62.2	3.9	7.48e-01	0	26	104	0	70	13347
2026-01-06 06:27:12.88	349.01	18.78	-55.6	-68.6	3.8	7.48e-01	0	26	104	0	78	17672
2026-01-06 06:27:15.86	348.18	18.75	-51.6	-63.3	3.8	7.44e-01	0	26	104	0	72	13442
2026-01-06 06:27:18.86	347.34	18.71	-51.3	-62.8	3.9	7.45e-01	0	26	104	0	71	13553
2026-01-06 06:27:21.85	346.51	18.66	-55.0	-67.8	3.8	7.49e-01	0	26	104	0	79	15168
2026-01-06 06:27:24.84	345.68	18.61	-50.9	-62.3	3.8	7.44e-01	0	26	104	0	71	12810
2026-01-06 06:27:27.84	344.86	18.55	-50.7	-62.1	3.8	7.44e-01	0	26	104	0	70	13195
2026-01-06 06:27:30.84	344.03	18.49	-57.5	-73.0	3.8	7.49e-01	0	26	104	0	82	23130
2026-01-06 06:27:33.83	343.22	18.42	-50.6	-62.1	3.8	7.46e-01	0	26	104	0	70	13190
2026-01-06 06:27:36.82	342.40	18.35	-56.4	-70.3	3.8	7.46e-01	0	26	104	0	80	19058
2026-01-06 06:27:39.81	341.59	18.27	-51.1	-62.7	3.9	7.42e-01	0	26	104	0	71	13383
2026-01-06 06:27:42.81	340.79	18.18	-50.8	-62.3	3.8	7.47e-01	0	26	104	0	70	13486
2026-01-06 06:27:45.80	339.99	18.09	-53.6	-65.7	3.8	7.42e-01	0	26	104	0	76	14170
2026-01-06 06:27:48.78	339.20	18.00	-56.9	-71.3	3.8	7.45e-01	0	26	104	0	81	20226
2026-01-06 06:27:51.77	338.41	17.90	-50.8	-62.5	3.9	7.44e-01	0	26	104	0	70	13878
2026-01-06 06:27:54.75	337.63	17.80	-57.4	-72.5	3.8	7.48e-01	0	26	104	0	82	21834
2026-01-06 06:27:57.75	336.85	17.69	-50.9	-62.5	3.8	7.46e-01	0	26	104	0	71	12981
2026-01-06 06:28:00.74	336.08	17.57	-54.5	-66.8	3.8	7.46e-01	0	26	104	0	76	16106
2026-01-06 06:28:03.74	335.31	17.45	-57.9	-73.8	3.8	7.49e-01	0	26	104	0	83	24031
2026-01-06 06:28:06.72	334.56	17.33	-50.2	-61.2	3.8	7.46e-01	0	26	104	0	69	12539
2026-01-06 06:28:09.72	333.80	17.20	-52.5	-63.7	3.8	7.43e-01	0	26	104	0	72	14155
2026-01-06 06:28:12.70	333.06	17.07	-56.1	-69.6	3.8	7.47e-01	0	26	104	0	79	18634
2026-01-06 06:28:15.69	332.32	16.94	-50.6	-62.1	3.8	7.46e-01	0	26	104	0	70	13202
2026-01-06 06:28:18.68	331.59	16.80	-57.3	-72.3	3.8	7.48e-01	0	26	104	0	82	21338
2026-01-06 06:28:21.68	330.87	16.66	-51.2	-62.7	3.9	7.44e-01	0	26	104	0	71	13343
2026-01-06 06:28:24.68	330.15	16.51	-55.9	-69.3	3.8	7.45e-01	0	26	104	0	79	18090
2026-01-06 06:28:27.68	329.44	16.36	-52.3	-63.5	3.8	7.44e-01	0	26	104	0	73	13076
2026-01-06 06:28:30.68	328.74	16.21	-50.7	-61.9	3.8	7.45e-01	0	26	104	0	70	12876
2026-01-06 06:28:33.67	328.04	16.05	-51.6	-63.3	3.8	7.46e-01	0	26	104	0	70	15204
2026-01-06 06:28:36.67	327.36	15.89	-56.2	-69.4	3.8	7.50e-01	0	26	104	0	79	18097
2026-01-06 06:28:39.66	326.68	15.73	-50.8	-62.3	3.8	7.47e-01	0	26	104	0	70	13445
2026-01-06 06:28:42.65	326.01	15.57	-56.3	-61.0	13.3	6.02e-01	0	26	0	3670016	80	6561
2026-01-06 06:28:45.64	325.35	15.40	-51.1	-53.0	15.4	6.02e-01	0	26	0	8912896	71	4356
2026-01-06 06:28:48.63	324.69	15.24	-50.1	-51.9	15.5	6.02e-01	0	26	0	14680064	69	4303
2026-01-06 06:28:51.63	324.05	15.07	-50.3	-52.0	15.5	6.03e-01	0	26	0	20447232	69	4383
2026-01-06 06:28:54.62	323.41	14.89	-50.2	-51.9	15.3	6.00e-01	0	26	0	26214400	68	4589
2026-01-06 06:28:57.62	322.78	14.72	-50.1	-51.8	15.4	6.02e-01	0	26	0	31457280	68	4517
2026-01-06 06:29:00.62	322.15	14.54	-50.1	-51.9	15.3	6.00e-01	0	26	0	37224448	68	4559
2026-01-06 06:29:03.62	321.54	14.36	-50.8	-52.6	15.3	6.01e-01	0	26	0	42991616	69	4703
2026-01-06 06:29:06.61	320.93	14.18	-50.7	-52.5	15.3	5.99e-01	0	26	0	48234496	69	4632
2026-01-06 06:29:09.61	320.33	14.00	-51.6	-53.6	15.2	6.04e-01	0	26	0	54001664	71	4701
2026-01-06 06:29:12.60	319.74	13.82	-52.0	-54.1	15.0	6.02e-01	0	26	0	59768832	71	4969
2026-01-06 06:29:15.58	319.16	13.63	-50.6	-52.4	15.5	6.00e-01	0	26	0	65011712	70	4325
2026-01-06 06:29:18.58	318.58	13.45	-50.6	-52.4	15.5	6.00e-01	0	26	0	70778880	70	4313
2026-01-06 06:29:21.57	318.02	13.26	-49.9	-51.6	15.6	6.02e-01	0	26	0	76546048	69	4169
2026-01-06 06:29:24.56	317.46	13.07	-49.9	-51.6	15.6	5.97e-01	0	26	0	81788928	69	4184
2026-01-06 06:29:27.55	316.91	12.88	-50.2	-51.9	15.5	6.02e-01	0	26	0	87556096	69	4335
2026-01-06 06:29:30.56	316.36	12.69	-50.2	-52.1	15.3	6.00e-01	0	26	0	93323264	68	4652
2026-01-06 06:29:33.55	315.83	12.50	-50.5	-52.4	15.2	5.99e-01	0	26	0	99090432	68	4856
2026-01-06 06:29:36.55	315.30	12.31	-50.2	-52.0	15.3	6.03e-01	0	26	0	104333312	68	4624
2026-01-06 06:29:39.55	314.77	12.12	-50.2	-52.0	15.3	5.99e-01	0	26	0	110100480	68	4623
2026-01-06 06:29:42.54	314.26	11.93	-50.3	-52.2	15.3	6.00e-01	0	26	0	115867648	68	4723
2026-01-06 06:29:45.53	313.75	11.74	-50.4	-52.2	15.3	6.00e-01	0	26	0	121634816	68	4734
2026-01-06 06:29:48.53	313.25	11.54	-50.4	-52.3	15.2	6.01e-01	0	26	0	126877696	68	4762
2026-01-06 06:29:51.53	312.76	11.35	-49.9	-51.6	15.4	6.01e-01	0	26	0	132644864	68	4432
2026-01-06 06:29:54.52	312.27	11.16	-50.1	-51.9	15.4	6.01e-01	0	26	0	138412032	68	4554
2026-01-06 06:29:57.51	311.80	10.96	-50.4	-52.2	15.4	6.03e-01	0	26	0	143654912	69	4476
2026-01-06 06:30:00.50	311.33	10.77	-50.5	-52.4	15.3	6.01e-01	0	26	0	149422080	69	4570
2026-01-06 06:30:03.48	310.86	10.58	-50.8	-52.7	15.2	6.00e-01	0	26	0	155189248	69	4757
2026-01-06 06:30:06.47	310.41	10.39	-50.5	-52.3	15.4	6.02e-01	0	26	0	160432128	69	4545
2026-01-06 06:30:09.46	309.95	10.19	-50.1	-51.9	15.5	6.02e-01	0	26	0	166199296	69	4312
2026-01-06 06:30:12.45	309.51	10.00	-50.7	-52.6	15.2	6.02e-01	0	26	0	171966464	69	4670
2026-01-06 06:30:15.43	309.07	9.81	-50.9	-52.9	15.2	6.03e-01	0	26	0	177209344	69	4854
2026-01-06 06:30:18.42	308.64	9.61	-51.2	-53.2	15.2	6.02e-01	0	26	0	182976512	70	4712
2026-01-06 06:30:21.41	308.22	9.42	-51.5	-53.6	15.1	6.00e-01	0	26	0	188743680	70	4953
2026-01-06 06:30:24.40	307.80	9.23	-50.7	-52.5	15.4	5.99e-01	0	26	0	193986560	70	4369
2026-01-06 06:30:27.39	307.38	9.04	-50.7	-52.6	15.4	6.01e-01	0	26	0	199753728	70	4407
2026-01-06 06:30:30.36	306.98	8.84	-51.2	-53.2	15.2	5.99e-01	0	26	0	205520896	70	4748
2026-01-06 06:30:33.32	306.58	8.65	-50.9	-52.8	15.3	6.01e-01	0	26	0	211288064	70	4532
2026-01-06 06:30:36.29	306.19	8.46	-51.0	-53.1	15.2	6.02e-01	0	26	0	216530944	70	4655
2026-01-06 06:30:39.26	305.80	8.28	-50.9	-52.9	15.3	6.03e-01	0	26	0	222298112	70	4557
2026-01-06 06:30:42.23	305.42	8.09	-50.9	-52.9	15.3	6.00e-01	0	26	0	227540992	70	4547
2026-01-06 06:30:45.21	305.04	7.90	-50.9	-52.9	15.3	6.05e-01	0	26	0	233308160	70	4591
2026-01-06 06:30:48.18	304.67	7.71	-50.8	-52.7	15.4	6.02e-01	0	26	0	239075328	70	4470
2026-01-06 06:30:51.15	304.31	7.52	-51.3	-53.5	15.1	6.01e-01	0	26	0	244318208	70	4881
2026-01-06 06:30:54.13	303.94	7.33	-50.8	-52.7	15.4	6.00e-01	0	26	0	250085376	70	4475
2026-01-06 06:30:57.10	303.59	7.15	-51.0	-53.0	15.3	6.00e-01	0	26	0	255328256	70	4616
2026-01-06 06:31:00.09	303.24	6.96	-51.5	-53.7	15.0	6.01e-01	0	26	0	261095424	70	4993
2026-01-06 06:31:03.06	302.89	6.77	-51.2	-53.3	15.1	6.00e-01	0	26	0	266862592	70	4784
2026-01-06 06:31:06.04	302.55	6.59	-51.0	-53.1	15.2	6.02e-01	0	26	0	272105472	70	4672
2026-01-06 06:31:09.02	302.21	6.40	-51.6	-53.9	15.1	6.02e-01	0	26	0	277872640	71	4817
2026-01-06 06:31:11.99	301.88	6.22	-51.4	-53.5	15.2	6.02e-01	0	26	0	283639808	71	4631
2026-01-06 06:31:14.96	301.56	6.03	-51.3	-53.5	15.2	6.00e-01	0	26	0	288882688	71	4599
2026-01-06 06:31:17.92	301.24	5.85	-51.6	-53.8	15.1	6.01e-01	0	26	0	294649856	71	4774
2026-01-06 06:31:20.90	300.92	5.67	-51.4	-53.6	15.2	5.99e-01	0	26	0	300417024	71	4654
2026-01-06 06:31:23.89	300.60	5.49	-51.5	-53.8	15.1	6.00e-01	0	26	0	305659904	71	4762
2026-01-06 06:31:26.86	300.29	5.31	-51.1	-53.2	15.3	5.99e-01	0	26	0	311427072	71	4457
2026-01-06 06:31:29.83	299.99	5.13	-51.5	-53.7	15.1	6.01e-01	0	26	0	317194240	71	4722
2026-01-06 06:31:32.81	299.69	4.95	-58.3	-77.0	3.9	7.47e-01	0	26	104	320864256	84	32885
2026-01-06 06:31:35.78	299.39	4.77	-59.0	-78.4	3.8	7.47e-01	0	26	104	320864256	85	36234
2026-01-06 06:31:38.76	299.10	4.59	-59.5	-78.8	3.8	7.44e-01	0	26	104	320864256	86	35986
2026-01-06 06:31:41.73	298.81	4.41	-59.7	-79.1	3.8	7.50e-01	0	26	104	320864256	87	35150
2026-01-06 06:31:44.72	298.53	4.23	-60.0	-79.4	3.8	7.50e-01	0	26	104	320864256	87	36161
2026-01-06 06:31:47.69	298.25	4.06	-60.0	-79.4	3.8	7.48e-01	0	26	104	320864256	87	36263
2026-01-06 06:31:50.66	297.97	3.88	-60.1	-79.5	3.8	7.43e-01	0	26	104	320864256	87	36714
2026-01-06 06:31:53.64	297.70	3.71	-60.1	-79.5	3.8	7.44e-01	0	26	104	320864256	87	36732
2026-01-06 06:31:56.60	297.43	3.53	-60.1	-79.5	3.8	7.49e-01	0	26	104	320864256	87	36560
2026-01-06 06:31:59.59	297.16	3.36	-60.0	-79.4	3.8	7.48e-01	0	26	104	320864256	87	36204
2026-01-06 06:32:02.56	296.90	3.18	-59.9	-79.3	3.8	7.47e-01	0	26	104	320864256	87	35899
2026-01-06 06:32:05.52	296.64	3.01	-59.9	-79.3	3.8	7.46e-01	0	26	104	320864256	87	35770
2026-01-06 06:32:08.50	296.39	2.84	-59.9	-79.3	3.8	7.47e-01	0	26	104	320864256	87	35779
2026-01-06 06:32:11.49	296.14	2.67	-59.8	-79.2	3.8	7.45e-01	0	26	104	320864256	87	35672
2026-01-06 06:32:14.46	295.89	2.50	-59.9	-79.2	3.8	7.47e-01	0	26	104	320864256	87	35667
2026-01-06 06:32:17.45	295.64	2.33	-59.8	-79.2	3.8	7.44e-01	0	26	104	320864256	87	35511
2026-01-06 06:32:20.43	295.40	2.16	-59.8	-79.2	3.8	7.50e-01	0	26	104	320864256	87	35507
2026-01-06 06:32:23.40	295.16	1.99	-59.8	-79.2	3.8	7.48e-01	0	26	104	320864256	87	35497

#Closed at: 2026-01-06 06:32:24
#Recorded file [320 MB]: D:/lorett/data/31004_260106_092134.dat