passes_logs/2026/01/06/R3.2S_Murmansk/R3.2S_Murmansk__20260106_081919_FENGYUN_3D_rec.log

#Pass ID: 20260106_081919_FENGYUN 3D
#Satellite: FENGYUN 3D
#Configuration: FENGYUN 3D
#almurnet v.1.7.20251203
#Start time: 2026-01-06 08:19:19

#Version: 2.2.20231116
#Station: R3.2S_Murmansk
#Location: 33.079688 lon 68.888172 lat
#TLE: 1 43010U 17072A   26005.48915933 -.00000051  00000+0 -21983-5 0  9995
#TLE: 2 43010  98.9919 337.1582 0002001 124.6377 235.4988 14.19691925421909

#Time	Az	El	Level	Level2	SNR	BER	BlckErr	Temp	State	Recorded	gain1	gain2
2026-01-06 08:19:19.67	81.43	2.00	-57.8	-70.8	3.8	8.45e-01	0	24	0	0	82	15559
2026-01-06 08:19:23.64	81.20	2.23	-57.7	-70.7	3.8	8.45e-01	0	24	104	0	80	17266
2026-01-06 08:19:27.60	80.96	2.46	-57.7	-70.7	3.8	8.45e-01	0	24	104	0	80	17106
2026-01-06 08:19:31.59	80.72	2.70	-57.7	-70.7	3.8	8.45e-01	0	24	104	0	80	17256
2026-01-06 08:19:35.56	80.48	2.93	-57.7	-70.8	3.8	8.45e-01	0	25	104	0	80	17284
2026-01-06 08:19:39.54	80.23	3.17	-57.7	-70.6	3.8	8.46e-01	0	24	104	0	80	17004
2026-01-06 08:19:43.50	79.98	3.41	-57.7	-70.8	3.8	8.44e-01	0	25	104	0	80	17294
2026-01-06 08:19:47.47	79.73	3.65	-57.7	-70.4	3.8	8.45e-01	0	25	104	0	80	16671
2026-01-06 08:19:51.44	79.47	3.89	-57.7	-70.7	3.8	8.46e-01	0	25	104	0	80	17230
2026-01-06 08:19:55.42	79.20	4.13	-57.6	-69.0	3.8	8.46e-01	0	25	104	0	80	14181
2026-01-06 08:19:59.40	78.94	4.38	-57.1	-64.9	5.1	7.59e-01	0	25	0	0	80	8782
2026-01-06 08:20:03.38	78.66	4.63	-55.4	-59.7	9.0	3.00e-02	0	25	0	18874368	77	5750
2026-01-06 08:20:07.36	78.38	4.87	-54.9	-58.6	9.9	4.63e-03	0	25	0	40894464	76	5356
2026-01-06 08:20:11.33	78.10	5.12	-54.1	-57.2	10.9	1.68e-04	0	25	0	63963136	74	5153
2026-01-06 08:20:15.30	77.81	5.38	-56.6	-62.8	6.3	6.72e-01	0	25	0	83886080	79	7365
2026-01-06 08:20:19.27	77.52	5.63	-49.9	-51.6	14.1	0.00e+00	0	25	0	106954752	66	4290
2026-01-06 08:20:23.23	77.22	5.88	-50.0	-51.7	14.0	0.00e+00	0	25	0	128974848	66	4323
2026-01-06 08:20:27.19	76.91	6.14	-49.5	-51.1	14.2	0.00e+00	0	25	0	150994944	65	4266
2026-01-06 08:20:31.14	76.61	6.40	-49.8	-51.5	14.0	0.00e+00	0	25	0	173015040	65	4493
2026-01-06 08:20:35.11	76.29	6.66	-49.5	-51.2	14.2	0.00e+00	0	25	0	196083712	65	4293
2026-01-06 08:20:39.08	75.97	6.92	-49.2	-50.8	14.3	0.00e+00	0	26	0	218103808	64	4379
2026-01-06 08:20:43.05	75.64	7.18	-49.3	-50.9	14.2	0.00e+00	0	26	0	240123904	64	4424
2026-01-06 08:20:47.01	75.31	7.45	-49.1	-50.7	14.4	0.00e+00	0	25	0	262144000	64	4296
2026-01-06 08:20:50.98	74.96	7.72	-49.0	-50.6	14.4	0.00e+00	0	26	0	285212672	64	4264
2026-01-06 08:20:54.95	74.62	7.99	-48.7	-50.2	14.6	0.00e+00	0	25	0	307232768	64	4083
2026-01-06 08:20:58.93	74.26	8.26	-48.9	-50.5	14.5	0.00e+00	0	26	0	330301440	64	4196
2026-01-06 08:21:02.89	73.90	8.53	-48.8	-50.3	14.6	0.00e+00	0	26	0	352321536	64	4103
2026-01-06 08:21:06.88	73.53	8.81	-48.8	-50.3	14.5	0.00e+00	0	26	0	374341632	63	4361
2026-01-06 08:21:10.85	73.16	9.08	-48.8	-50.1	14.6	0.00e+00	0	26	0	396361728	63	4278
2026-01-06 08:21:14.82	72.77	9.36	-48.5	-49.8	14.7	0.00e+00	0	26	0	419430400	63	4120
2026-01-06 08:21:18.79	72.38	9.64	-48.4	-49.7	14.8	0.00e+00	0	26	0	441450496	63	4065
2026-01-06 08:21:22.76	71.98	9.93	-48.6	-49.9	14.7	0.00e+00	0	26	0	463470592	63	4193
2026-01-06 08:21:26.73	71.58	10.21	-48.4	-49.7	14.8	0.00e+00	0	26	0	486539264	63	4073
2026-01-06 08:21:30.69	71.16	10.49	-48.4	-49.7	14.8	0.00e+00	0	26	0	508559360	63	4089
2026-01-06 08:21:34.65	70.74	10.78	-48.5	-49.8	14.7	0.00e+00	0	26	0	530579456	63	4138
2026-01-06 08:21:38.62	70.31	11.07	-48.5	-49.8	14.7	0.00e+00	0	26	0	553648128	63	4128
2026-01-06 08:21:42.60	69.87	11.36	-48.2	-49.5	14.9	0.00e+00	0	26	0	575668224	63	3989
2026-01-06 08:21:46.57	69.42	11.66	-48.3	-49.6	14.9	0.00e+00	0	26	0	597688320	63	4009
2026-01-06 08:21:50.54	68.96	11.95	-48.2	-49.5	14.8	0.00e+00	0	26	0	619708416	62	4201
2026-01-06 08:21:54.52	68.49	12.25	-48.0	-49.2	14.9	0.00e+00	0	26	0	642777088	62	4090
2026-01-06 08:21:58.48	68.01	12.55	-47.8	-49.0	15.0	0.00e+00	0	26	0	664797184	62	3984
2026-01-06 08:22:02.45	67.52	12.85	-47.5	-48.8	15.0	0.00e+00	0	26	0	686817280	61	4104
2026-01-06 08:22:06.41	67.03	13.15	-47.5	-48.7	15.0	0.00e+00	0	26	0	708837376	61	4092
2026-01-06 08:22:10.37	66.52	13.45	-47.5	-48.6	15.0	0.00e+00	0	26	0	731906048	61	4047
2026-01-06 08:22:14.34	66.00	13.75	-47.4	-48.6	15.0	0.00e+00	0	26	0	753926144	61	4029
2026-01-06 08:22:18.31	65.47	14.06	-47.4	-48.6	15.1	0.00e+00	0	26	0	775946240	61	4005
2026-01-06 08:22:22.27	64.93	14.37	-47.2	-48.4	15.1	0.00e+00	0	26	0	799014912	61	3937
2026-01-06 08:22:26.24	64.37	14.67	-47.1	-48.3	15.0	0.00e+00	0	26	0	821035008	60	4131
2026-01-06 08:22:30.22	63.81	14.99	-47.1	-48.2	15.0	0.00e+00	0	26	0	843055104	60	4083
2026-01-06 08:22:34.19	63.23	15.30	-47.1	-48.2	15.0	0.00e+00	0	26	0	866123776	60	4093
2026-01-06 08:22:38.15	62.64	15.61	-47.0	-48.2	15.1	0.00e+00	0	26	0	888143872	60	4058
2026-01-06 08:22:42.12	62.04	15.92	-46.8	-47.9	15.2	0.00e+00	0	26	0	910163968	60	3942
2026-01-06 08:22:46.09	61.42	16.23	-47.0	-48.2	15.0	0.00e+00	0	26	0	932184064	59	4296
2026-01-06 08:22:50.05	60.79	16.54	-47.1	-48.3	15.0	0.00e+00	0	26	0	955252736	59	4365
2026-01-06 08:22:54.02	60.15	16.86	-47.0	-48.1	15.0	0.00e+00	0	26	0	977272832	59	4281
2026-01-06 08:22:58.01	59.49	17.17	-46.9	-48.1	15.0	0.00e+00	0	26	0	999292928	59	4247
2026-01-06 08:23:01.99	58.82	17.49	-47.1	-48.2	15.0	0.00e+00	0	26	0	1022361600	59	4334
2026-01-06 08:23:05.95	58.13	17.80	-46.9	-48.0	15.0	0.00e+00	0	26	0	1044381696	59	4240
2026-01-06 08:23:09.92	57.43	18.12	-46.7	-47.8	15.1	0.00e+00	0	26	0	1066401792	59	4136
2026-01-06 08:23:13.89	56.72	18.43	-46.6	-47.7	15.2	0.00e+00	0	26	0	1088421888	59	4087
2026-01-06 08:23:17.86	55.99	18.74	-46.4	-47.6	15.2	0.00e+00	0	26	0	1111490560	59	4012
2026-01-06 08:23:21.82	55.25	19.05	-46.6	-47.7	15.2	0.00e+00	0	26	0	1133510656	59	4076
2026-01-06 08:23:25.80	54.49	19.36	-46.5	-47.7	15.2	0.00e+00	0	26	0	1155530752	59	4054
2026-01-06 08:23:29.78	53.71	19.67	-46.5	-47.6	15.2	0.00e+00	0	26	0	1178599424	59	4022
2026-01-06 08:23:33.74	52.92	19.98	-46.4	-47.5	15.2	0.00e+00	0	26	0	1200619520	59	3995
2026-01-06 08:23:37.71	52.11	20.28	-46.1	-47.2	15.2	0.00e+00	0	26	0	1222639616	58	4072
2026-01-06 08:23:41.68	51.29	20.59	-46.1	-47.2	15.2	0.00e+00	0	26	0	1245708288	58	4063
2026-01-06 08:23:45.65	50.44	20.88	-45.8	-46.9	15.3	0.00e+00	0	26	0	1267728384	58	3955
2026-01-06 08:23:49.63	49.59	21.18	-45.9	-47.0	15.3	0.00e+00	0	26	0	1289748480	58	3993
2026-01-06 08:23:53.59	48.71	21.47	-46.0	-47.1	15.2	0.00e+00	0	26	0	1311768576	58	4030
2026-01-06 08:23:57.56	47.82	21.76	-46.0	-47.1	15.2	0.00e+00	0	26	0	1334837248	58	4034
2026-01-06 08:24:01.53	46.92	22.05	-45.9	-47.0	15.3	0.00e+00	0	26	0	1356857344	58	3976
2026-01-06 08:24:05.51	45.99	22.33	-45.8	-46.9	15.3	0.00e+00	0	26	0	1378877440	58	3917
2026-01-06 08:24:09.48	45.05	22.60	-45.9	-47.0	15.3	0.00e+00	0	26	0	1401946112	58	4002
2026-01-06 08:24:13.46	44.09	22.87	-45.5	-46.6	15.3	0.00e+00	0	26	0	1423966208	57	4029
2026-01-06 08:24:17.42	43.11	23.13	-45.7	-46.8	15.2	0.00e+00	0	26	0	1445986304	57	4116
2026-01-06 08:24:21.39	42.12	23.39	-45.6	-46.7	15.3	0.00e+00	0	26	0	1469054976	57	4066
2026-01-06 08:24:25.38	41.11	23.64	-45.4	-46.5	15.3	0.00e+00	0	26	0	1491075072	57	3961
2026-01-06 08:24:29.34	40.09	23.88	-45.4	-46.5	15.3	0.00e+00	0	26	0	1513095168	57	3968
2026-01-06 08:24:33.31	39.05	24.11	-45.4	-46.5	15.3	0.00e+00	0	26	0	1535115264	57	3993
2026-01-06 08:24:37.26	38.00	24.34	-45.4	-46.5	15.3	0.00e+00	0	26	0	1558183936	57	3995
2026-01-06 08:24:41.24	36.93	24.55	-45.2	-46.3	15.3	0.00e+00	0	26	0	1580204032	56	4112
2026-01-06 08:24:45.22	35.84	24.76	-45.3	-46.3	15.2	0.00e+00	0	26	0	1602224128	56	4142
2026-01-06 08:24:49.21	34.74	24.96	-45.3	-46.3	15.2	0.00e+00	0	26	0	1625292800	56	4139
2026-01-06 08:24:53.21	33.62	25.15	-45.1	-46.1	15.3	0.00e+00	0	26	0	1647312896	56	4046
2026-01-06 08:24:57.17	32.50	25.32	-45.4	-46.5	15.2	0.00e+00	0	26	0	1670381568	56	4199
2026-01-06 08:25:01.14	31.36	25.49	-45.4	-46.5	15.2	0.00e+00	0	26	0	1692401664	56	4229
2026-01-06 08:25:05.11	30.21	25.64	-45.1	-46.2	15.3	0.00e+00	0	26	0	1714421760	56	4077
2026-01-06 08:25:09.08	29.05	25.78	-45.1	-46.2	15.3	0.00e+00	0	26	0	1736441856	56	4073
2026-01-06 08:25:13.06	27.88	25.91	-45.2	-46.3	15.2	0.00e+00	0	26	0	1759510528	56	4129
2026-01-06 08:25:17.04	26.70	26.03	-45.3	-46.4	15.2	0.00e+00	0	26	0	1781530624	56	4155
2026-01-06 08:25:21.02	25.51	26.14	-45.3	-46.3	15.2	0.00e+00	0	26	0	1804599296	56	4142
2026-01-06 08:25:25.01	24.31	26.23	-45.3	-46.4	15.2	0.00e+00	0	26	0	1826619392	56	4172
2026-01-06 08:25:28.99	23.10	26.30	-45.5	-46.6	15.2	0.00e+00	0	26	0	1848639488	56	4263
2026-01-06 08:25:32.96	21.90	26.37	-45.0	-46.0	15.3	0.00e+00	0	26	0	1870659584	56	3999
2026-01-06 08:25:36.92	20.69	26.41	-44.8	-45.8	15.4	0.00e+00	0	26	0	1893728256	56	3891
2026-01-06 08:25:40.88	19.48	26.45	-44.7	-45.8	15.4	0.00e+00	0	26	0	1915748352	56	3879
2026-01-06 08:25:44.85	18.26	26.47	-45.3	-46.4	15.2	0.00e+00	0	26	0	1937768448	56	4175
2026-01-06 08:25:48.81	17.05	26.48	-45.2	-46.3	15.2	0.00e+00	0	26	0	1959788544	56	4123
2026-01-06 08:25:52.78	15.83	26.47	-45.0	-46.1	15.3	0.00e+00	0	26	0	1982857216	56	4014
2026-01-06 08:25:56.74	14.62	26.45	-44.9	-45.9	15.4	0.00e+00	0	26	0	2004877312	56	3957
2026-01-06 08:26:00.71	13.41	26.41	-45.2	-46.3	15.2	0.00e+00	0	26	0	2026897408	56	4111
2026-01-06 08:26:04.68	12.20	26.36	-45.4	-46.4	15.2	0.00e+00	0	26	0	2049966080	56	4192
2026-01-06 08:26:08.64	11.00	26.30	-45.0	-46.1	15.3	0.00e+00	0	26	0	2071986176	56	4006
2026-01-06 08:26:12.60	9.80	26.22	-45.0	-46.1	15.3	0.00e+00	0	26	0	2094006272	56	4021
2026-01-06 08:26:16.58	8.60	26.13	-45.0	-46.1	15.3	0.00e+00	0	26	0	2117074944	56	4006
2026-01-06 08:26:20.57	7.41	26.02	-45.4	-46.4	15.2	0.00e+00	0	26	0	2139095040	56	4183
2026-01-06 08:26:24.54	6.23	25.91	-45.1	-46.2	15.3	0.00e+00	0	26	0	2161115136	56	4075
2026-01-06 08:26:28.52	5.06	25.77	-44.9	-45.9	15.4	0.00e+00	0	26	0	2184183808	56	3945
2026-01-06 08:26:32.49	3.90	25.63	-44.9	-46.0	15.3	0.00e+00	0	26	0	2206203904	56	3970
2026-01-06 08:26:36.47	2.75	25.48	-45.2	-46.2	15.2	0.00e+00	0	26	0	2228224000	56	4094
2026-01-06 08:26:40.44	1.62	25.31	-45.2	-46.2	15.3	0.00e+00	0	26	0	2250244096	56	4084
2026-01-06 08:26:44.40	0.50	25.14	-45.1	-46.2	15.3	0.00e+00	0	26	0	2273312768	56	4073
2026-01-06 08:26:48.36	359.39	24.95	-45.0	-46.1	15.3	0.00e+00	0	26	0	2295332864	56	4007
2026-01-06 08:26:52.32	358.29	24.75	-44.9	-45.9	15.3	0.00e+00	0	26	0	2317352960	56	3955
2026-01-06 08:26:56.27	357.22	24.54	-45.0	-46.1	15.3	0.00e+00	0	26	0	2340421632	56	4010
2026-01-06 08:27:00.25	356.15	24.33	-45.2	-46.2	15.3	0.00e+00	0	26	0	2362441728	56	4091
2026-01-06 08:27:04.22	355.09	24.10	-45.1	-46.2	15.3	0.00e+00	0	26	0	2384461824	56	4071
2026-01-06 08:27:08.19	354.05	23.87	-45.2	-46.3	15.2	0.00e+00	0	26	0	2406481920	56	4105
2026-01-06 08:27:12.17	353.03	23.62	-45.2	-46.2	15.2	0.00e+00	0	26	0	2429550592	56	4094
2026-01-06 08:27:16.15	352.02	23.37	-45.3	-46.3	15.2	0.00e+00	0	26	0	2451570688	56	4143
2026-01-06 08:27:20.12	351.03	23.12	-45.3	-46.4	15.2	0.00e+00	0	26	0	2473590784	56	4156
2026-01-06 08:27:24.09	350.06	22.85	-45.2	-46.3	15.2	0.00e+00	0	26	0	2496659456	56	4126
2026-01-06 08:27:28.05	349.11	22.59	-45.1	-46.2	15.3	0.00e+00	0	26	0	2518679552	56	4062
2026-01-06 08:27:32.01	348.17	22.31	-45.4	-46.5	15.2	0.00e+00	0	26	0	2540699648	56	4207
2026-01-06 08:27:35.97	347.25	22.03	-45.5	-46.5	15.2	0.00e+00	0	26	0	2562719744	56	4236
2026-01-06 08:27:39.94	346.34	21.75	-45.4	-46.5	15.2	0.00e+00	0	26	0	2585788416	56	4225
2026-01-06 08:27:43.91	345.45	21.46	-45.6	-46.8	15.1	0.00e+00	0	26	0	2607808512	56	4344
2026-01-06 08:27:47.88	344.58	21.17	-45.7	-46.8	15.1	0.00e+00	0	26	0	2629828608	56	4370
2026-01-06 08:27:51.85	343.73	20.87	-45.9	-47.0	15.1	0.00e+00	0	26	0	2652897280	57	4235
2026-01-06 08:27:55.82	342.89	20.57	-46.0	-47.1	15.1	0.00e+00	0	26	0	2674917376	57	4253
2026-01-06 08:27:59.80	342.06	20.27	-46.2	-47.4	15.1	0.00e+00	0	26	0	2696937472	57	4399
2026-01-06 08:28:03.78	341.25	19.97	-46.0	-47.1	15.1	0.00e+00	0	26	0	2720006144	57	4285
2026-01-06 08:28:07.75	340.46	19.66	-46.1	-47.2	15.1	0.00e+00	0	26	0	2742026240	57	4305
2026-01-06 08:28:11.71	339.69	19.35	-46.1	-47.2	15.1	0.00e+00	0	26	0	2764046336	57	4314
2026-01-06 08:28:15.69	338.93	19.04	-46.0	-47.1	15.1	0.00e+00	0	26	0	2786066432	57	4283
2026-01-06 08:28:19.67	338.18	18.73	-46.2	-47.3	15.1	0.00e+00	0	26	0	2809135104	57	4383
2026-01-06 08:28:23.65	337.46	18.42	-46.3	-47.4	15.1	0.00e+00	0	26	0	2831155200	58	4190
2026-01-06 08:28:27.61	336.74	18.10	-46.4	-47.5	15.1	0.00e+00	0	26	0	2853175296	58	4235
2026-01-06 08:28:31.59	336.05	17.79	-46.5	-47.6	15.1	0.00e+00	0	26	0	2876243968	58	4265
2026-01-06 08:28:35.55	335.36	17.48	-46.6	-47.7	15.0	0.00e+00	0	26	0	2898264064	58	4326
2026-01-06 08:28:39.52	334.69	17.16	-46.8	-47.9	15.0	0.00e+00	0	26	0	2920284160	58	4431
2026-01-06 08:28:43.49	334.04	16.85	-46.9	-48.0	15.0	0.00e+00	0	26	0	2943352832	59	4219
2026-01-06 08:28:47.47	333.40	16.53	-47.0	-48.2	15.0	0.00e+00	0	26	0	2965372928	59	4305
2026-01-06 08:28:51.43	332.77	16.22	-47.1	-48.3	15.0	0.00e+00	0	26	0	2987393024	59	4351
2026-01-06 08:28:55.42	332.15	15.91	-47.1	-48.3	14.9	0.00e+00	0	26	0	3010461696	59	4363
2026-01-06 08:28:59.41	331.55	15.59	-47.2	-48.4	14.9	0.00e+00	0	26	0	3032481792	59	4408
2026-01-06 08:29:03.38	330.96	15.28	-47.1	-48.3	14.9	0.00e+00	0	26	0	3054501888	59	4343
2026-01-06 08:29:07.34	330.38	14.97	-47.3	-48.4	14.9	0.00e+00	0	26	0	3077570560	59	4438
2026-01-06 08:29:11.32	329.82	14.66	-47.0	-48.1	15.1	0.00e+00	0	26	0	3099590656	60	4043
2026-01-06 08:29:15.29	329.27	14.36	-47.1	-48.2	15.0	0.00e+00	0	26	0	3121610752	60	4093
2026-01-06 08:29:19.24	328.73	14.05	-47.3	-48.4	14.9	0.00e+00	0	26	0	3143630848	60	4181
2026-01-06 08:29:23.23	328.20	13.74	-47.3	-48.5	14.9	0.00e+00	0	26	0	3166699520	60	4207
2026-01-06 08:29:27.20	327.68	13.44	-47.7	-48.9	14.8	0.00e+00	0	26	0	3188719616	60	4424
2026-01-06 08:29:31.16	327.17	13.14	-47.6	-48.8	14.8	0.00e+00	0	26	0	3210739712	60	4342
2026-01-06 08:29:35.12	326.68	12.84	-47.5	-48.7	14.8	0.00e+00	0	26	0	3233808384	60	4320
2026-01-06 08:29:39.09	326.19	12.54	-47.5	-48.7	14.8	0.00e+00	0	26	0	3255828480	60	4327
2026-01-06 08:29:43.06	325.71	12.24	-47.6	-48.7	14.8	0.00e+00	0	26	0	3277848576	60	4335
2026-01-06 08:29:47.02	325.25	11.94	-47.6	-48.8	14.8	0.00e+00	0	26	0	3299868672	60	4350
2026-01-06 08:29:50.99	324.79	11.65	-47.8	-49.1	14.7	0.00e+00	0	26	0	3322937344	60	4510
2026-01-06 08:29:54.94	324.34	11.36	-47.9	-49.1	14.8	0.00e+00	0	26	0	3344957440	61	4287
2026-01-06 08:29:58.93	323.90	11.06	-47.9	-49.1	14.8	0.00e+00	0	26	0	3366977536	61	4289
2026-01-06 08:30:02.89	323.47	10.78	-48.1	-49.3	14.7	0.00e+00	0	26	0	3390046208	61	4390
2026-01-06 08:30:06.87	323.05	10.49	-48.4	-49.6	14.6	0.00e+00	0	26	0	3412066304	61	4545
2026-01-06 08:30:10.83	322.64	10.20	-48.2	-49.5	14.7	0.00e+00	0	26	0	3434086400	62	4222
2026-01-06 08:30:14.81	322.23	9.92	-48.3	-49.6	14.7	0.00e+00	0	26	0	3456106496	62	4277
2026-01-06 08:30:18.78	321.83	9.64	-48.5	-49.8	14.6	0.00e+00	0	26	0	3479175168	62	4341
2026-01-06 08:30:22.75	321.44	9.36	-48.5	-49.8	14.6	0.00e+00	0	26	0	3501195264	62	4355
2026-01-06 08:30:26.73	321.06	9.08	-48.7	-50.1	14.5	0.00e+00	0	26	0	3523215360	62	4500
2026-01-06 08:30:30.69	320.69	8.80	-48.6	-49.9	14.6	0.00e+00	0	26	0	3546284032	62	4397
2026-01-06 08:30:34.65	320.32	8.53	-48.8	-50.1	14.5	0.00e+00	0	26	0	3568304128	62	4521
2026-01-06 08:30:38.63	319.96	8.25	-48.7	-50.0	14.5	0.00e+00	0	26	0	3590324224	62	4462
2026-01-06 08:30:42.60	319.61	7.98	-48.8	-50.1	14.6	0.00e+00	0	26	0	3612344320	63	4264
2026-01-06 08:30:46.57	319.26	7.71	-48.8	-50.1	14.6	0.00e+00	0	26	0	3635412992	63	4261
2026-01-06 08:30:50.54	318.92	7.45	-48.8	-50.1	14.5	0.00e+00	0	26	0	3657433088	63	4279
2026-01-06 08:30:54.53	318.59	7.18	-49.2	-50.6	14.3	0.00e+00	0	26	0	3680501760	63	4504
2026-01-06 08:30:58.51	318.26	6.91	-48.9	-50.3	14.5	0.00e+00	0	26	0	3702521856	63	4367
2026-01-06 08:31:02.49	317.94	6.65	-49.0	-50.4	14.4	0.00e+00	0	26	0	3724541952	63	4402
2026-01-06 08:31:06.48	317.62	6.39	-48.9	-50.3	14.4	0.00e+00	0	26	0	3747610624	63	4365
2026-01-06 08:31:10.45	317.32	6.13	-49.2	-50.6	14.3	0.00e+00	0	26	0	3769630720	63	4537
2026-01-06 08:31:14.42	317.01	5.88	-49.5	-51.0	14.2	0.00e+00	0	26	0	3791650816	64	4477
2026-01-06 08:31:18.40	316.71	5.62	-49.3	-50.7	14.3	0.00e+00	0	26	0	3814719488	64	4326
2026-01-06 08:31:22.37	316.42	5.37	-49.5	-51.0	14.2	0.00e+00	0	26	0	3836739584	64	4446
2026-01-06 08:31:26.34	316.13	5.12	-49.8	-51.3	14.0	0.00e+00	0	26	0	3858759680	64	4632
2026-01-06 08:31:30.32	315.85	4.87	-58.8	-71.9	3.8	8.44e-01	0	26	104	3873439744	82	17505
2026-01-06 08:31:34.29	315.57	4.62	-59.8	-72.9	3.8	8.45e-01	0	26	104	3873439744	84	17531
2026-01-06 08:31:38.27	315.30	4.37	-60.1	-73.2	3.8	8.46e-01	0	26	104	3873439744	85	17258
2026-01-06 08:31:42.24	315.03	4.13	-60.4	-73.4	3.8	8.46e-01	0	26	104	3873439744	85	17672
2026-01-06 08:31:46.21	314.77	3.88	-60.5	-73.6	3.8	8.46e-01	0	26	104	3873439744	86	17001
2026-01-06 08:31:50.19	314.51	3.64	-60.5	-73.6	3.8	8.45e-01	0	26	104	3873439744	86	16927
2026-01-06 08:31:54.16	314.26	3.40	-60.4	-73.5	3.8	8.46e-01	0	26	104	3873439744	86	16766
2026-01-06 08:31:58.14	314.01	3.16	-60.3	-73.5	3.8	8.46e-01	0	26	104	3873439744	86	16710
2026-01-06 08:32:02.10	313.77	2.92	-60.3	-73.4	3.8	8.45e-01	0	26	104	3873439744	86	16619
2026-01-06 08:32:06.07	313.52	2.69	-60.3	-73.4	3.8	8.47e-01	0	26	104	3873439744	86	16531
2026-01-06 08:32:10.06	313.29	2.45	-60.3	-73.4	3.8	8.46e-01	0	26	104	3873439744	86	16540
2026-01-06 08:32:14.03	313.05	2.22	-60.3	-73.4	3.8	8.47e-01	0	26	104	3873439744	86	16525
2026-01-06 08:32:18.01	312.82	1.99	-60.3	-73.3	3.8	8.46e-01	0	26	104	3873439744	86	16492

#Closed at: 2026-01-06 08:32:18
#Recorded file [3873 MB]: D:/lorett/data/31004_260106_111919.dat