passes_logs/2026/01/06/R3.2S_Murmansk/R3.2S_Murmansk__20260106_053906_SUOMI_NPP_rec.log

#Pass ID: 20260106_053906_SUOMI NPP
#Satellite: SUOMI NPP
#Configuration: NPP
#almurnet v.1.7.20251203
#Start time: 2026-01-06 05:39:07

#Version: 2.2.20231116
#Station: R3.2S_Murmansk
#Location: 33.079688 lon 68.888172 lat
#TLE: 1 37849U 11061A   26004.95404768  .00000136  00000+0  85334-4 0  9991
#TLE: 2 37849  98.7801 307.0898 0002575  80.6707 279.4760 14.19522289735281

#Time	Az	El	Level	Level2	SNR	BER	BlckErr	Temp	State	Recorded	gain1	gain2
2026-01-06 05:39:07.83	68.61	2.08	-57.9	-73.9	3.8	1.49e+00	0	24	0	0	82	22089
2026-01-06 05:39:10.84	68.42	2.26	-57.8	-73.8	3.8	1.49e+00	0	24	104	0	80	24633
2026-01-06 05:39:13.84	68.23	2.43	-57.8	-73.8	3.8	1.49e+00	0	24	104	0	80	24565
2026-01-06 05:39:16.84	68.03	2.60	-57.8	-73.8	3.8	1.49e+00	0	24	104	0	80	24501
2026-01-06 05:39:19.83	67.83	2.77	-57.8	-73.8	3.8	1.49e+00	0	24	104	0	80	24610
2026-01-06 05:39:22.81	67.63	2.95	-57.8	-73.8	3.8	1.49e+00	0	24	104	0	80	24542
2026-01-06 05:39:25.81	67.43	3.12	-57.8	-73.8	3.8	1.49e+00	0	24	104	0	80	24555
2026-01-06 05:39:28.80	67.23	3.30	-57.8	-73.8	3.8	1.49e+00	0	24	104	0	80	24691
2026-01-06 05:39:31.77	67.02	3.47	-57.8	-73.8	3.8	1.49e+00	0	24	104	0	80	24558
2026-01-06 05:39:34.77	66.81	3.65	-57.8	-73.8	3.8	1.49e+00	0	24	104	0	80	24649
2026-01-06 05:39:37.77	66.59	3.82	-57.8	-73.8	3.8	1.49e+00	0	24	104	0	80	24455
2026-01-06 05:39:40.77	66.38	4.00	-57.8	-73.7	3.8	1.49e+00	0	25	104	0	80	24240
2026-01-06 05:39:43.78	66.16	4.18	-57.8	-73.8	3.8	1.49e+00	0	25	104	0	80	24646
2026-01-06 05:39:46.77	65.93	4.36	-57.8	-73.3	3.8	1.49e+00	0	25	104	0	80	23080
2026-01-06 05:39:49.77	65.71	4.54	-57.7	-71.2	3.9	1.49e+00	0	25	104	0	80	18234
2026-01-06 05:39:52.77	65.48	4.73	-57.5	-68.4	4.8	9.41e-01	0	25	0	2097152	80	13260
2026-01-06 05:39:55.76	65.25	4.91	-57.3	-66.0	6.3	2.95e-01	0	25	0	8388608	80	10008
2026-01-06 05:39:58.75	65.02	5.09	-57.4	-66.2	6.3	1.76e-01	0	25	0	13631488	80	10207
2026-01-06 05:40:01.74	64.78	5.27	-55.7	-60.1	11.2	4.02e-02	0	25	0	18874368	78	5701
2026-01-06 05:40:04.74	64.54	5.46	-55.8	-60.1	11.3	9.46e-05	0	25	0	23068672	78	5686
2026-01-06 05:40:07.74	64.30	5.64	-55.0	-58.6	12.3	0.00e+00	0	25	0	28311552	76	5365
2026-01-06 05:40:10.74	64.05	5.83	-55.1	-58.6	12.3	7.00e-07	0	25	0	34603008	76	5361
2026-01-06 05:40:13.74	63.80	6.02	-54.9	-58.2	12.6	0.00e+00	0	25	0	39845888	76	5118
2026-01-06 05:40:16.75	63.55	6.21	-54.4	-57.5	13.0	0.00e+00	0	25	0	45088768	75	5011
2026-01-06 05:40:19.74	63.29	6.40	-54.3	-57.2	13.2	7.00e-07	0	25	0	51380224	75	4853
2026-01-06 05:40:22.75	63.03	6.59	-54.4	-57.5	13.0	0.00e+00	0	25	0	56623104	75	4988
2026-01-06 05:40:25.74	62.76	6.78	-54.7	-58.0	12.7	0.00e+00	0	25	0	61865984	75	5280
2026-01-06 05:40:28.73	62.50	6.97	-54.5	-57.7	12.8	0.00e+00	0	25	0	68157440	75	5128
2026-01-06 05:40:31.71	62.23	7.16	-54.8	-58.1	12.6	0.00e+00	0	25	0	73400320	75	5352
2026-01-06 05:40:34.69	61.96	7.35	-54.6	-57.8	12.9	0.00e+00	0	25	0	78643200	75	5163
2026-01-06 05:40:37.67	61.68	7.54	-54.3	-57.3	13.2	0.00e+00	0	25	0	84934656	75	4885
2026-01-06 05:40:40.66	61.40	7.74	-54.4	-57.4	13.1	0.00e+00	0	25	0	90177536	75	4967
2026-01-06 05:40:43.65	61.11	7.93	-54.2	-57.0	13.4	0.00e+00	0	25	0	95420416	75	4709
2026-01-06 05:40:46.66	60.82	8.13	-54.3	-57.3	13.1	0.00e+00	0	25	0	101711872	74	5163
2026-01-06 05:40:49.65	60.53	8.33	-53.8	-56.4	13.6	0.00e+00	0	25	0	106954752	74	4681
2026-01-06 05:40:52.64	60.23	8.52	-54.0	-56.6	13.5	0.00e+00	0	25	0	112197632	74	4814
2026-01-06 05:40:55.64	59.92	8.72	-53.8	-56.4	13.7	0.00e+00	0	25	0	118489088	74	4667
2026-01-06 05:40:58.63	59.62	8.92	-53.7	-56.2	13.6	0.00e+00	0	25	0	123731968	73	4839
2026-01-06 05:41:01.63	59.31	9.12	-53.9	-56.5	13.5	0.00e+00	0	25	0	130023424	73	5001
2026-01-06 05:41:04.63	58.99	9.32	-53.9	-56.5	13.5	0.00e+00	0	25	0	135266304	73	5004
2026-01-06 05:41:07.63	58.67	9.52	-53.9	-56.5	13.5	0.00e+00	0	25	0	140509184	73	4995
2026-01-06 05:41:10.64	58.34	9.73	-54.0	-56.6	13.4	0.00e+00	0	25	0	146800640	73	5077
2026-01-06 05:41:13.65	58.01	9.93	-53.9	-56.8	13.3	0.00e+00	0	25	0	152043520	73	5218
2026-01-06 05:41:16.65	57.68	10.14	-53.9	-56.9	13.3	0.00e+00	0	25	0	157286400	73	5256
2026-01-06 05:41:19.64	57.34	10.34	-53.8	-56.6	13.4	0.00e+00	0	25	0	163577856	73	5100
2026-01-06 05:41:22.65	56.99	10.55	-53.8	-56.7	13.4	0.00e+00	0	25	0	168820736	73	5135
2026-01-06 05:41:25.65	56.64	10.75	-53.8	-56.7	13.4	0.00e+00	0	25	0	174063616	73	5148
2026-01-06 05:41:28.64	56.29	10.96	-53.4	-56.3	13.7	0.00e+00	0	25	0	180355072	73	4892
2026-01-06 05:41:31.68	55.92	11.17	-53.0	-55.9	13.8	0.00e+00	0	25	0	186646528	72	4978
2026-01-06 05:41:34.43	55.59	11.36	-53.3	-56.2	13.6	0.00e+00	0	25	0	191889408	72	5127
2026-01-06 05:41:37.73	55.18	11.59	-53.0	-55.6	14.0	0.00e+00	0	25	0	197132288	72	4764
2026-01-06 05:41:40.45	54.84	11.78	-53.1	-55.7	13.9	0.00e+00	0	25	0	202375168	72	4823
2026-01-06 05:41:43.75	54.42	12.01	-53.2	-55.8	13.8	0.00e+00	0	25	0	208666624	72	4911
2026-01-06 05:41:46.48	54.07	12.20	-53.0	-55.5	14.0	0.00e+00	0	25	0	213909504	72	4712
2026-01-06 05:41:49.77	53.64	12.43	-52.9	-55.3	14.1	0.00e+00	0	26	0	220200960	72	4623
2026-01-06 05:41:52.47	53.28	12.62	-52.8	-55.2	14.2	0.00e+00	0	25	0	225443840	72	4589
2026-01-06 05:41:55.75	52.84	12.85	-52.8	-55.2	14.2	0.00e+00	0	26	0	231735296	72	4568
2026-01-06 05:41:58.46	52.47	13.05	-52.7	-55.1	14.2	0.00e+00	0	25	0	236978176	72	4530
2026-01-06 05:42:01.75	52.01	13.28	-52.9	-55.4	14.1	0.00e+00	0	25	0	242221056	72	4673
2026-01-06 05:42:04.49	51.63	13.47	-52.8	-55.4	14.0	0.00e+00	0	25	0	247463936	71	4931
2026-01-06 05:42:07.78	51.15	13.71	-52.8	-55.4	14.0	0.00e+00	0	25	0	253755392	71	4959
2026-01-06 05:42:10.52	50.76	13.90	-52.8	-55.4	14.0	0.00e+00	0	26	0	258998272	71	4950
2026-01-06 05:42:13.82	50.27	14.14	-53.1	-55.9	13.7	0.00e+00	0	25	0	265289728	71	5272
2026-01-06 05:42:16.53	49.87	14.33	-52.9	-55.6	13.9	0.00e+00	0	25	0	270532608	71	5077
2026-01-06 05:42:19.81	49.37	14.56	-53.1	-55.8	13.8	0.00e+00	0	26	0	276824064	71	5184
2026-01-06 05:42:22.53	48.95	14.76	-53.0	-55.6	13.9	0.00e+00	0	25	0	282066944	71	5093
2026-01-06 05:42:25.82	48.44	14.99	-52.9	-55.4	14.0	0.00e+00	0	25	0	287309824	71	4978
2026-01-06 05:42:28.55	48.00	15.19	-53.1	-55.9	13.7	0.00e+00	0	26	0	292552704	71	5249
2026-01-06 05:42:31.84	47.47	15.42	-53.4	-56.3	13.6	0.00e+00	0	26	0	298844160	72	5192
2026-01-06 05:42:34.55	47.03	15.61	-53.3	-56.1	13.7	0.00e+00	0	26	0	304087040	72	5071
2026-01-06 05:42:37.86	46.48	15.85	-53.1	-55.8	13.9	0.00e+00	0	26	0	310378496	72	4926
2026-01-06 05:42:40.61	46.02	16.04	-53.2	-55.9	13.8	0.00e+00	0	26	0	315621376	72	4950
2026-01-06 05:42:43.91	45.46	16.28	-53.2	-56.0	13.8	0.00e+00	0	26	0	321912832	72	5003
2026-01-06 05:42:46.65	44.99	16.47	-53.0	-55.7	13.9	0.00e+00	0	26	0	327155712	72	4830
2026-01-06 05:42:49.96	44.41	16.70	-53.1	-55.7	13.9	0.00e+00	0	26	0	333447168	72	4863
2026-01-06 05:42:52.67	43.92	16.89	-53.2	-55.9	13.9	0.00e+00	0	26	0	337641472	72	4950
2026-01-06 05:42:55.95	43.33	17.12	-53.3	-56.2	13.7	0.00e+00	0	26	0	343932928	72	5109
2026-01-06 05:42:58.70	42.83	17.31	-53.6	-56.6	13.5	0.00e+00	0	26	0	349175808	72	5373
2026-01-06 05:43:01.98	42.22	17.54	-52.9	-55.5	14.1	0.00e+00	0	25	0	355467264	72	4709
2026-01-06 05:43:04.70	41.71	17.73	-52.6	-55.1	14.2	0.00e+00	0	26	0	360710144	71	4779
2026-01-06 05:43:08.01	41.08	17.95	-52.4	-54.9	14.3	0.00e+00	0	26	0	367001600	71	4653
2026-01-06 05:43:10.74	40.55	18.14	-52.4	-54.9	14.3	0.00e+00	0	26	0	372244480	71	4657
2026-01-06 05:43:14.03	39.90	18.36	-52.3	-54.9	14.3	0.00e+00	0	26	0	378535936	71	4655
2026-01-06 05:43:16.74	39.36	18.54	-52.0	-54.3	14.4	0.00e+00	0	26	0	383778816	70	4649
2026-01-06 05:43:20.03	38.70	18.76	-51.4	-53.6	14.6	0.00e+00	0	26	0	389021696	69	4533
2026-01-06 05:43:22.76	38.14	18.94	-51.5	-53.7	14.6	0.00e+00	0	26	0	394264576	69	4588
2026-01-06 05:43:26.04	37.47	19.16	-51.6	-53.8	14.5	0.00e+00	0	26	0	400556032	69	4628
2026-01-06 05:43:28.83	36.88	19.34	-51.4	-53.5	14.6	0.00e+00	0	26	0	405798912	69	4472
2026-01-06 05:43:32.12	36.18	19.55	-51.5	-53.6	14.6	0.00e+00	0	26	0	412090368	69	4515
2026-01-06 05:43:34.88	35.59	19.72	-51.5	-53.7	14.6	0.00e+00	0	26	0	417333248	69	4562
2026-01-06 05:43:38.20	34.87	19.93	-51.6	-53.8	14.5	0.00e+00	0	26	0	423624704	69	4603
2026-01-06 05:43:40.95	34.26	20.09	-51.4	-53.5	14.7	0.00e+00	0	25	0	428867584	69	4475
2026-01-06 05:43:44.25	33.52	20.29	-51.0	-53.0	14.7	0.00e+00	0	26	0	435159040	68	4460
2026-01-06 05:43:46.98	32.91	20.46	-50.9	-52.8	14.8	0.00e+00	0	26	0	440401920	68	4345
2026-01-06 05:43:50.31	32.15	20.65	-51.3	-53.2	14.6	0.00e+00	0	25	0	446693376	68	4571
2026-01-06 05:43:53.04	31.52	20.81	-51.0	-52.9	14.8	0.00e+00	0	26	0	450887680	68	4407
2026-01-06 05:43:56.32	30.75	20.99	-51.3	-53.3	14.6	0.00e+00	0	26	0	457179136	68	4606
2026-01-06 05:43:59.05	30.10	21.14	-51.1	-52.9	14.7	0.00e+00	0	26	0	462422016	68	4420
2026-01-06 05:44:02.35	29.32	21.32	-51.0	-52.8	14.8	0.00e+00	0	25	0	468713472	68	4347
2026-01-06 05:44:05.07	28.66	21.46	-50.9	-52.7	14.9	0.00e+00	0	26	0	473956352	68	4299
2026-01-06 05:44:08.35	27.86	21.63	-51.0	-52.8	14.8	0.00e+00	0	26	0	480247808	68	4344
2026-01-06 05:44:11.09	27.19	21.77	-50.9	-52.6	14.9	0.00e+00	0	26	0	485490688	68	4258
2026-01-06 05:44:14.40	26.36	21.93	-51.0	-52.7	14.8	0.00e+00	0	26	0	491782144	68	4329
2026-01-06 05:44:17.15	25.67	22.05	-51.0	-52.7	14.8	0.00e+00	0	26	0	497025024	68	4333
2026-01-06 05:44:20.44	24.84	22.20	-51.2	-53.0	14.7	0.00e+00	0	26	0	502267904	68	4455
2026-01-06 05:44:23.16	24.15	22.32	-51.1	-52.9	14.8	0.00e+00	0	26	0	507510784	68	4414
2026-01-06 05:44:26.45	23.30	22.46	-51.0	-52.7	14.8	0.00e+00	0	26	0	513802240	68	4328
2026-01-06 05:44:29.20	22.58	22.57	-50.9	-52.6	14.9	0.00e+00	0	26	0	519045120	68	4243
2026-01-06 05:44:32.51	21.72	22.70	-50.8	-52.5	14.8	0.00e+00	0	26	0	525336576	67	4476
2026-01-06 05:44:35.24	21.00	22.80	-51.7	-53.6	14.5	0.00e+00	0	26	0	530579456	68	4770
2026-01-06 05:44:38.53	20.13	22.92	-52.4	-54.6	14.3	0.00e+00	0	26	0	536870912	70	4762
2026-01-06 05:44:41.32	19.38	23.01	-52.9	-55.3	14.1	0.00e+00	0	26	0	542113792	71	4883
2026-01-06 05:44:44.60	18.50	23.11	-52.3	-54.4	14.5	0.00e+00	0	26	0	548405248	71	4402
2026-01-06 05:44:47.33	17.76	23.19	-52.2	-54.2	14.6	0.00e+00	0	25	0	553648128	71	4334
2026-01-06 05:44:50.62	16.87	23.28	-52.2	-54.3	14.4	0.00e+00	0	26	0	558891008	70	4651
2026-01-06 05:44:53.35	16.12	23.35	-52.2	-54.2	14.4	0.00e+00	0	26	0	564133888	70	4592
2026-01-06 05:44:56.65	15.21	23.43	-52.4	-54.6	14.3	0.00e+00	0	26	0	570425344	70	4781
2026-01-06 05:44:59.40	14.45	23.48	-52.5	-54.7	14.2	0.00e+00	0	26	0	575668224	70	4824
2026-01-06 05:45:02.69	13.54	23.55	-52.7	-55.0	14.1	0.00e+00	0	26	0	581959680	70	4999
2026-01-06 05:45:05.41	12.79	23.59	-52.8	-55.3	14.0	0.00e+00	0	26	0	587202560	71	4915
2026-01-06 05:45:08.71	11.87	23.64	-52.8	-55.2	14.1	0.00e+00	0	26	0	593494016	71	4836
2026-01-06 05:45:11.43	11.11	23.67	-53.1	-55.6	13.9	0.00e+00	0	26	0	598736896	71	5051
2026-01-06 05:45:14.72	10.19	23.71	-53.7	-56.6	13.5	0.00e+00	0	25	0	603979776	72	5359
2026-01-06 05:45:17.45	9.42	23.73	-53.8	-56.7	13.6	0.00e+00	0	26	0	609222656	73	5102
2026-01-06 05:45:20.76	8.49	23.75	-52.8	-55.2	14.2	0.00e+00	0	25	0	615514112	72	4548
2026-01-06 05:45:23.50	7.72	23.76	-52.1	-54.3	14.4	0.00e+00	0	26	0	620756992	70	4616
2026-01-06 05:45:26.80	6.79	23.76	-52.5	-54.9	14.1	0.00e+00	0	26	0	627048448	70	4957
2026-01-06 05:45:29.54	6.02	23.76	-52.3	-54.7	14.2	0.00e+00	0	26	0	632291328	70	4828
2026-01-06 05:45:32.82	5.10	23.75	-52.1	-54.3	14.4	0.00e+00	0	26	0	638582784	70	4628
2026-01-06 05:45:35.55	4.33	23.73	-51.6	-53.6	14.6	0.00e+00	0	26	0	643825664	69	4511
2026-01-06 05:45:38.84	3.41	23.71	-51.8	-53.9	14.4	0.00e+00	0	26	0	650117120	69	4681
2026-01-06 05:45:41.56	2.65	23.68	-51.4	-53.2	14.8	0.00e+00	0	26	0	655360000	69	4324
2026-01-06 05:45:44.85	1.73	23.64	-51.9	-53.9	14.5	0.00e+00	0	26	0	660602880	69	4671
2026-01-06 05:45:47.59	0.96	23.60	-51.5	-53.4	14.7	0.00e+00	0	26	0	665845760	69	4405
2026-01-06 05:45:50.90	0.04	23.55	-51.5	-53.4	14.7	0.00e+00	0	26	0	672137216	69	4397
2026-01-06 05:45:53.64	359.28	23.50	-51.1	-52.8	14.8	0.00e+00	0	26	0	677380096	68	4369
2026-01-06 05:45:56.92	358.38	23.43	-50.5	-52.1	14.9	0.00e+00	0	26	0	683671552	67	4274
2026-01-06 05:45:59.63	357.63	23.37	-50.7	-52.3	14.8	0.00e+00	0	26	0	688914432	67	4372
2026-01-06 05:46:02.94	356.73	23.28	-51.0	-52.7	14.7	0.00e+00	0	26	0	695205888	67	4573
2026-01-06 05:46:05.69	355.98	23.21	-51.2	-53.0	14.6	0.00e+00	0	26	0	700448768	67	4727
2026-01-06 05:46:08.99	355.09	23.11	-51.3	-53.1	14.7	0.00e+00	0	26	0	706740224	68	4514
2026-01-06 05:46:11.71	354.36	23.03	-50.7	-52.4	15.0	0.00e+00	0	26	0	710934528	68	4148
2026-01-06 05:46:14.99	353.48	22.92	-51.6	-53.4	14.6	0.00e+00	0	26	0	717225984	68	4671
2026-01-06 05:46:17.71	352.76	22.83	-51.6	-53.4	14.5	0.00e+00	0	26	0	722468864	68	4693
2026-01-06 05:46:21.00	351.89	22.71	-51.4	-53.2	14.6	0.00e+00	0	26	0	728760320	68	4563
2026-01-06 05:46:23.72	351.18	22.60	-51.7	-53.6	14.5	0.00e+00	0	26	0	734003200	68	4798
2026-01-06 05:46:27.02	350.32	22.47	-51.8	-53.7	14.4	0.00e+00	0	26	0	740294656	68	4865
2026-01-06 05:46:29.74	349.62	22.35	-52.5	-54.7	14.2	0.00e+00	0	26	0	745537536	70	4829
2026-01-06 05:46:33.04	348.77	22.21	-52.6	-54.9	14.1	0.00e+00	0	26	0	751828992	70	4980
2026-01-06 05:46:35.77	348.08	22.09	-52.3	-54.4	14.3	0.00e+00	0	26	0	756023296	70	4703
2026-01-06 05:46:39.06	347.26	21.93	-52.2	-54.3	14.4	0.00e+00	0	25	0	762314752	70	4625
2026-01-06 05:46:41.83	346.57	21.80	-52.4	-54.7	14.2	0.00e+00	0	26	0	767557632	70	4831
2026-01-06 05:46:45.13	345.75	21.64	-52.0	-54.1	14.5	0.00e+00	0	26	0	773849088	70	4514
2026-01-06 05:46:47.90	345.08	21.50	-52.1	-54.3	14.4	0.00e+00	0	26	0	779091968	70	4605
2026-01-06 05:46:51.20	344.28	21.32	-52.1	-54.3	14.4	0.00e+00	0	26	0	785383424	70	4603
2026-01-06 05:46:53.92	343.63	21.18	-52.6	-54.9	14.1	0.00e+00	0	26	0	790626304	70	4969
2026-01-06 05:46:57.21	342.85	21.00	-52.7	-55.2	14.0	0.00e+00	0	26	0	796917760	70	5105
2026-01-06 05:46:59.93	342.22	20.85	-52.5	-54.8	14.2	0.00e+00	0	26	0	802160640	70	4879
2026-01-06 05:47:03.21	341.46	20.66	-53.1	-55.8	13.8	0.00e+00	0	26	0	807403520	71	5208
2026-01-06 05:47:05.94	340.83	20.50	-54.0	-57.3	13.2	0.00e+00	0	26	0	812646400	73	5487
2026-01-06 05:47:09.24	340.09	20.30	-53.1	-55.8	13.9	0.00e+00	0	26	0	818937856	72	4889
2026-01-06 05:47:11.96	339.48	20.14	-52.7	-55.1	14.1	0.00e+00	0	26	0	824180736	71	4791
2026-01-06 05:47:15.26	338.75	19.94	-51.8	-54.0	14.5	0.00e+00	0	26	0	830472192	70	4449
2026-01-06 05:47:17.99	338.16	19.77	-51.4	-53.4	14.6	0.00e+00	0	26	0	835715072	69	4430
2026-01-06 05:47:21.27	337.45	19.56	-51.4	-53.3	14.7	0.00e+00	0	26	0	842006528	69	4369
2026-01-06 05:47:24.01	336.87	19.39	-50.9	-52.7	14.8	0.00e+00	0	26	0	847249408	68	4324
2026-01-06 05:47:27.30	336.18	19.18	-50.9	-52.8	14.8	0.00e+00	0	26	0	853540864	68	4365
2026-01-06 05:47:30.06	335.61	19.00	-52.0	-54.2	14.2	0.00e+00	0	26	0	858783744	69	4848
2026-01-06 05:47:33.35	334.93	18.78	-53.0	-55.7	13.8	0.00e+00	0	26	0	864026624	71	5111
2026-01-06 05:47:36.06	334.39	18.60	-53.0	-55.7	13.8	0.00e+00	0	26	0	869269504	71	5122
2026-01-06 05:47:39.34	333.73	18.38	-52.1	-54.4	14.3	0.00e+00	0	26	0	875560960	70	4693
2026-01-06 05:47:42.07	333.20	18.20	-51.9	-54.1	14.4	0.00e+00	0	26	0	880803840	70	4517
2026-01-06 05:47:45.37	332.56	17.97	-51.2	-53.1	14.8	0.00e+00	0	26	0	887095296	69	4259
2026-01-06 05:47:48.09	332.04	17.79	-51.3	-53.3	14.6	0.00e+00	0	26	0	892338176	68	4616
2026-01-06 05:47:51.39	331.42	17.56	-52.0	-54.3	14.2	0.00e+00	0	26	0	898629632	69	4871
2026-01-06 05:47:54.13	330.91	17.37	-51.8	-54.0	14.4	0.00e+00	0	26	0	903872512	69	4712
2026-01-06 05:47:57.45	330.30	17.14	-52.1	-54.3	14.3	0.00e+00	0	26	0	910163968	69	4883
2026-01-06 05:48:00.16	329.81	16.95	-52.2	-54.5	14.1	0.00e+00	0	26	0	914358272	69	5003
2026-01-06 05:48:03.47	329.22	16.72	-52.0	-54.2	14.3	0.00e+00	0	26	0	920649728	69	4849
2026-01-06 05:48:06.20	328.74	16.53	-51.8	-53.9	14.4	0.00e+00	0	26	0	925892608	69	4667
2026-01-06 05:48:09.49	328.17	16.30	-51.6	-53.6	14.6	0.00e+00	0	26	0	932184064	69	4498
2026-01-06 05:48:12.20	327.71	16.11	-51.8	-53.8	14.4	0.00e+00	0	26	0	937426944	69	4642
2026-01-06 05:48:15.53	327.15	15.87	-51.9	-53.9	14.4	0.00e+00	0	26	0	943718400	69	4684
2026-01-06 05:48:18.23	326.70	15.68	-51.5	-53.3	14.7	0.00e+00	0	26	0	948961280	69	4370
2026-01-06 05:48:21.54	326.16	15.44	-50.9	-52.6	14.9	0.00e+00	0	26	0	955252736	68	4248
2026-01-06 05:48:24.26	325.72	15.25	-51.2	-53.0	14.7	0.00e+00	0	26	0	959447040	68	4456
2026-01-06 05:48:27.55	325.20	15.02	-51.7	-53.6	14.4	0.00e+00	0	26	0	965738496	68	4780
2026-01-06 05:48:30.32	324.76	14.82	-51.9	-53.8	14.3	0.00e+00	0	26	0	970981376	68	4922
2026-01-06 05:48:33.64	324.25	14.58	-51.4	-53.2	14.6	0.00e+00	0	26	0	977272832	68	4572
2026-01-06 05:48:36.36	323.84	14.39	-51.1	-52.8	14.7	0.00e+00	0	26	0	982515712	68	4372
2026-01-06 05:48:39.65	323.35	14.16	-51.8	-53.7	14.4	0.00e+00	0	26	0	988807168	68	4833
2026-01-06 05:48:42.39	322.94	13.96	-52.1	-54.1	14.3	0.00e+00	0	26	0	994050048	69	4806
2026-01-06 05:48:45.67	322.47	13.73	-52.3	-54.4	14.1	0.00e+00	0	26	0	1000341504	69	4955
2026-01-06 05:48:48.39	322.08	13.53	-52.1	-54.2	14.2	0.00e+00	0	26	0	1005584384	69	4833
2026-01-06 05:48:51.69	321.61	13.30	-51.7	-53.6	14.5	0.00e+00	0	26	0	1011875840	69	4506
2026-01-06 05:48:54.41	321.23	13.11	-51.6	-53.4	14.6	0.00e+00	0	26	0	1016070144	69	4432
2026-01-06 05:48:57.72	320.78	12.87	-51.5	-53.4	14.6	0.00e+00	0	26	0	1022361600	69	4397
2026-01-06 05:49:00.44	320.41	12.68	-52.3	-54.3	14.2	0.00e+00	0	26	0	1027604480	69	4903
2026-01-06 05:49:03.76	319.97	12.45	-53.0	-55.3	13.9	0.00e+00	0	26	0	1033895936	71	4923
2026-01-06 05:49:06.47	319.61	12.26	-52.9	-55.2	14.0	0.00e+00	0	26	0	1039138816	71	4819
2026-01-06 05:49:09.79	319.19	12.02	-52.3	-54.4	14.4	0.00e+00	0	26	0	1045430272	71	4403
2026-01-06 05:49:12.52	318.84	11.83	-52.3	-54.3	14.3	0.00e+00	0	26	0	1050673152	70	4643
2026-01-06 05:49:15.80	318.43	11.60	-52.3	-54.4	14.3	0.00e+00	0	26	0	1056964608	70	4682
2026-01-06 05:49:18.56	318.09	11.41	-52.4	-54.4	14.3	0.00e+00	0	26	0	1062207488	70	4687
2026-01-06 05:49:21.85	317.69	11.18	-52.3	-54.4	14.3	0.00e+00	0	26	0	1067450368	70	4671
2026-01-06 05:49:24.57	317.36	11.00	-52.6	-54.8	14.1	0.00e+00	0	26	0	1072693248	70	4895
2026-01-06 05:49:27.84	316.97	10.77	-53.1	-55.5	13.8	0.00e+00	0	26	0	1078984704	71	5025
2026-01-06 05:49:30.57	316.65	10.58	-52.9	-55.2	13.9	0.00e+00	0	26	0	1084227584	71	4866
2026-01-06 05:49:33.87	316.28	10.36	-53.0	-55.4	13.9	0.00e+00	0	26	0	1090519040	71	4969
2026-01-06 05:49:36.63	315.96	10.17	-53.3	-55.8	13.7	0.00e+00	0	26	0	1095761920	71	5185
2026-01-06 05:49:39.92	315.60	9.94	-53.5	-56.1	13.6	0.00e+00	0	26	0	1102053376	72	5099
2026-01-06 05:49:42.69	315.29	9.76	-53.7	-56.1	13.6	0.00e+00	0	26	0	1107296256	72	5070
2026-01-06 05:49:46.01	314.93	9.53	-53.2	-55.3	14.0	0.00e+00	0	26	0	1113587712	72	4647
2026-01-06 05:49:48.76	314.64	9.35	-52.8	-54.9	14.3	0.00e+00	0	26	0	1118830592	72	4405
2026-01-06 05:49:52.06	314.29	9.13	-52.7	-54.8	14.1	0.00e+00	0	26	0	1124073472	71	4625
2026-01-06 05:49:54.78	314.01	8.94	-53.0	-55.2	14.0	0.00e+00	0	26	0	1129316352	71	4815
2026-01-06 05:49:58.11	313.67	8.72	-53.4	-55.7	13.8	0.00e+00	0	26	0	1135607808	72	4859
2026-01-06 05:50:00.82	313.39	8.54	-53.5	-55.8	13.8	0.00e+00	0	26	0	1140850688	72	4882
2026-01-06 05:50:04.10	313.07	8.33	-53.2	-55.5	13.9	0.00e+00	0	26	0	1147142144	72	4729
2026-01-06 05:50:06.83	312.80	8.15	-53.1	-55.4	14.0	0.00e+00	0	26	0	1152385024	72	4659
2026-01-06 05:50:10.11	312.48	7.93	-53.3	-55.5	13.9	0.00e+00	0	26	0	1158676480	72	4742
2026-01-06 05:50:12.83	312.22	7.76	-53.5	-55.9	13.7	0.00e+00	0	26	0	1163919360	72	4977
2026-01-06 05:50:16.15	311.91	7.54	-53.7	-56.2	13.5	0.00e+00	0	26	0	1170210816	72	5156
2026-01-06 05:50:18.88	311.66	7.36	-53.9	-56.5	13.4	0.00e+00	0	26	0	1174405120	72	5291
2026-01-06 05:50:22.16	311.36	7.15	-54.3	-57.2	13.0	0.00e+00	0	26	0	1180696576	73	5430
2026-01-06 05:50:24.89	311.11	6.98	-54.5	-57.4	12.9	0.00e+00	0	26	0	1185939456	74	5245
2026-01-06 05:50:28.18	310.82	6.77	-54.6	-57.6	12.9	0.00e+00	0	26	0	1192230912	74	5367
2026-01-06 05:50:30.94	310.57	6.59	-54.6	-57.6	12.8	0.00e+00	0	26	0	1197473792	74	5392
2026-01-06 05:50:34.23	310.29	6.39	-54.7	-57.8	12.7	0.00e+00	0	26	0	1203765248	74	5502
2026-01-06 05:50:36.95	310.06	6.21	-54.5	-57.5	12.9	0.00e+00	0	26	0	1209008128	74	5301
2026-01-06 05:50:40.24	309.78	6.01	-54.7	-57.8	12.7	0.00e+00	0	26	0	1215299584	74	5502
2026-01-06 05:50:42.98	309.55	5.84	-54.8	-58.1	12.5	0.00e+00	0	26	0	1220542464	74	5681
2026-01-06 05:50:46.26	309.28	5.63	-54.9	-58.3	12.5	0.00e+00	0	26	0	1225785344	75	5485
2026-01-06 05:50:49.05	309.06	5.46	-55.1	-58.7	12.2	7.00e-07	0	26	0	1231028224	75	5788
2026-01-06 05:50:52.36	308.79	5.26	-55.1	-58.6	12.2	7.00e-07	0	26	0	1237319680	75	5690
2026-01-06 05:50:55.15	308.57	5.08	-55.0	-58.5	12.3	7.00e-07	0	26	0	1242562560	75	5623
2026-01-06 05:50:58.41	308.32	4.89	-59.0	-75.1	3.8	1.49e+00	0	26	104	1245708288	83	23891
2026-01-06 05:51:01.13	308.11	4.72	-59.7	-75.8	3.8	1.49e+00	0	26	104	1245708288	84	24531
2026-01-06 05:51:04.42	307.86	4.52	-60.2	-76.2	3.8	1.49e+00	0	26	104	1245708288	85	24307
2026-01-06 05:51:07.17	307.65	4.36	-60.4	-76.4	3.8	1.49e+00	0	26	104	1245708288	85	24963
2026-01-06 05:51:10.48	307.41	4.16	-60.6	-76.7	3.8	1.49e+00	0	26	104	1245708288	86	24149
2026-01-06 05:51:13.22	307.21	3.99	-60.6	-76.7	3.8	1.49e+00	0	26	104	1245708288	86	24344
2026-01-06 05:51:16.51	306.97	3.80	-60.6	-76.8	3.8	1.49e+00	0	26	104	1245708288	86	24421
2026-01-06 05:51:19.23	306.78	3.64	-60.6	-76.8	3.8	1.49e+00	0	26	104	1245708288	86	24412
2026-01-06 05:51:22.51	306.55	3.44	-60.5	-76.6	3.8	1.49e+00	0	26	104	1245708288	86	24058
2026-01-06 05:51:25.26	306.36	3.28	-60.5	-76.6	3.8	1.49e+00	0	26	104	1245708288	86	23931
2026-01-06 05:51:28.54	306.13	3.09	-60.5	-76.6	3.8	1.49e+00	0	26	104	1245708288	86	23932
2026-01-06 05:51:31.34	305.94	2.93	-60.4	-76.5	3.8	1.49e+00	0	26	104	1245708288	86	23772
2026-01-06 05:51:34.62	305.73	2.74	-60.4	-76.5	3.8	1.49e+00	0	26	104	1245708288	86	23715
2026-01-06 05:51:37.35	305.55	2.58	-60.4	-76.5	3.8	1.49e+00	0	26	104	1245708288	86	23680
2026-01-06 05:51:40.64	305.33	2.39	-60.4	-76.5	3.8	1.49e+00	0	26	104	1245708288	86	23659
2026-01-06 05:51:43.35	305.16	2.24	-60.4	-76.5	3.8	1.49e+00	0	26	104	1245708288	86	23659
2026-01-06 05:51:46.66	304.95	2.05	-60.4	-76.5	3.8	1.49e+00	0	26	104	1245708288	86	23621
2026-01-06 05:51:49.41	304.78	1.89	-60.4	-76.4	3.8	1.49e+00	0	26	104	1245708288	86	23509

#Closed at: 2026-01-06 05:51:49
#Recorded file [1245 MB]: D:/lorett/data/31004_260106_083907.dat