passes_logs/2026/01/06/R3.2S_Murmansk/R3.2S_Murmansk__20260106_030731_AQUA_rec.log

#Pass ID: 20260106_030731_AQUA
#Satellite: AQUA
#Configuration: AQUA
#almurnet v.1.7.20251203
#Start time: 2026-01-06 03:07:33

#Version: 2.2.20231116
#Station: R3.2S_Murmansk
#Location: 33.079688 lon 68.888172 lat
#TLE: 1 27424U 02022A   26004.96787593  .00001598  00000+0  32997-3 0  9996
#TLE: 2 27424  98.4069 331.2279 0002002  90.2377   0.6092 14.61798176259425

#Time	Az	El	Level	Level2	SNR	BER	BlckErr	Temp	State	Recorded	gain1	gain2
2026-01-06 03:07:33.13	26.16	2.13	-57.6	-77.0	3.8	7.47e-01	0	24	0	0	84	32557
2026-01-06 03:07:36.13	26.09	2.33	-57.4	-76.8	3.8	7.46e-01	0	24	104	0	82	35702
2026-01-06 03:07:39.12	26.03	2.53	-57.4	-76.8	3.8	7.46e-01	0	24	104	0	82	35695
2026-01-06 03:07:42.12	25.96	2.73	-57.4	-76.7	3.8	7.48e-01	0	24	104	0	82	35598
2026-01-06 03:07:45.12	25.89	2.93	-57.4	-76.7	3.8	7.47e-01	0	24	104	0	82	35661
2026-01-06 03:07:48.09	25.82	3.14	-57.4	-76.7	3.8	7.49e-01	0	24	104	0	82	35642
2026-01-06 03:07:51.09	25.75	3.34	-57.4	-76.7	3.8	7.44e-01	0	24	104	0	82	35415
2026-01-06 03:07:54.09	25.67	3.55	-57.3	-76.4	3.8	7.42e-01	0	24	104	0	82	34378
2026-01-06 03:07:57.10	25.60	3.76	-57.3	-76.0	3.8	7.47e-01	0	25	104	0	82	32786
2026-01-06 03:08:00.09	25.52	3.97	-57.2	-75.7	3.8	7.50e-01	0	25	104	0	82	31780
2026-01-06 03:08:03.08	25.44	4.18	-57.1	-74.8	3.8	7.45e-01	0	25	104	0	82	28445
2026-01-06 03:08:06.08	25.36	4.40	-56.7	-73.1	3.8	7.46e-01	0	25	104	0	82	23552
2026-01-06 03:08:09.08	25.28	4.61	-56.1	-71.0	3.8	7.46e-01	0	25	104	0	81	19411
2026-01-06 03:08:12.08	25.20	4.83	-55.8	-70.3	3.8	7.45e-01	0	25	104	0	80	19062
2026-01-06 03:08:15.08	25.12	5.05	-55.9	-70.7	3.8	7.43e-01	0	25	104	0	80	20003
2026-01-06 03:08:18.09	25.03	5.27	-57.2	-75.5	3.8	7.48e-01	0	25	104	0	82	30829
2026-01-06 03:08:21.07	24.95	5.50	-53.7	-66.2	3.8	7.44e-01	0	25	104	0	76	15042
2026-01-06 03:08:24.08	24.86	5.72	-51.6	-63.4	3.8	7.49e-01	0	25	104	0	72	13711
2026-01-06 03:08:27.09	24.77	5.95	-54.7	-67.8	3.8	7.49e-01	0	25	104	0	78	15968
2026-01-06 03:08:30.08	24.67	6.18	-53.4	-65.7	3.8	7.46e-01	0	25	104	0	76	14134
2026-01-06 03:08:33.07	24.58	6.42	-53.4	-65.9	3.8	7.46e-01	0	25	104	0	75	15226
2026-01-06 03:08:36.08	24.48	6.65	-56.5	-71.7	3.8	7.46e-01	0	25	104	0	80	22372
2026-01-06 03:08:39.07	24.39	6.89	-53.0	-65.2	3.8	7.45e-01	0	25	104	0	75	14088
2026-01-06 03:08:42.07	24.29	7.13	-57.5	-75.6	3.8	7.45e-01	0	25	104	0	82	31312
2026-01-06 03:08:45.06	24.19	7.37	-53.2	-65.4	3.8	7.46e-01	0	25	104	0	75	14386
2026-01-06 03:08:48.07	24.08	7.62	-51.3	-63.0	3.8	7.47e-01	0	25	104	0	71	13774
2026-01-06 03:08:51.07	23.98	7.86	-54.8	-67.8	3.8	7.48e-01	0	25	104	0	78	15965
2026-01-06 03:08:54.06	23.87	8.11	-53.0	-65.1	3.9	7.47e-01	0	25	104	0	75	13989
2026-01-06 03:08:57.05	23.76	8.36	-52.8	-64.9	3.8	7.45e-01	0	25	104	0	73	15277
2026-01-06 03:09:00.04	23.64	8.62	-56.4	-71.1	3.8	7.48e-01	0	25	104	0	80	20856
2026-01-06 03:09:03.03	23.53	8.88	-52.3	-64.2	3.9	7.46e-01	0	25	104	0	73	14129
2026-01-06 03:09:06.02	23.41	9.14	-57.7	-75.6	3.8	7.48e-01	0	25	104	0	83	29399
2026-01-06 03:09:09.02	23.29	9.40	-52.7	-64.6	3.9	7.44e-01	0	25	104	0	74	13973
2026-01-06 03:09:12.02	23.17	9.67	-51.1	-62.7	3.8	7.47e-01	0	25	104	0	70	14105
2026-01-06 03:09:15.01	23.04	9.94	-54.7	-67.5	3.9	7.44e-01	0	25	104	0	78	15564
2026-01-06 03:09:17.99	22.92	10.21	-52.3	-64.1	3.9	7.42e-01	0	25	104	0	73	13982
2026-01-06 03:09:20.98	22.79	10.48	-52.2	-64.0	3.9	7.44e-01	0	26	104	0	73	13851
2026-01-06 03:09:23.97	22.65	10.76	-56.0	-69.9	3.8	7.48e-01	0	26	104	0	79	19223
2026-01-06 03:09:26.97	22.51	11.05	-51.2	-62.8	3.9	7.47e-01	0	25	104	0	71	13501
2026-01-06 03:09:29.98	22.37	11.33	-57.8	-75.1	3.8	7.46e-01	0	26	104	0	83	27931
2026-01-06 03:09:32.97	22.23	11.62	-52.0	-63.7	3.9	7.41e-01	0	25	104	0	73	13375
2026-01-06 03:09:35.96	22.08	11.92	-54.7	-67.6	3.9	7.43e-01	0	26	104	0	77	16542
2026-01-06 03:09:38.96	21.93	12.21	-54.7	-67.4	3.9	7.47e-01	0	26	104	0	78	15241
2026-01-06 03:09:41.94	21.78	12.51	-51.6	-63.2	3.8	7.45e-01	0	26	104	0	72	13399
2026-01-06 03:09:44.94	21.62	12.82	-51.3	-62.9	3.8	7.43e-01	0	26	104	0	71	13715
2026-01-06 03:09:47.94	21.46	13.13	-55.5	-68.8	3.9	7.49e-01	0	25	104	0	78	17910
2026-01-06 03:09:50.94	21.29	13.44	-50.5	-61.9	3.9	7.44e-01	0	26	104	0	70	12864
2026-01-06 03:09:53.94	21.12	13.76	-57.8	-74.4	3.7	7.47e-01	0	26	104	0	83	25667
2026-01-06 03:09:56.93	20.95	14.08	-51.5	-63.1	3.8	7.42e-01	0	25	104	0	72	13179
2026-01-06 03:09:59.93	20.77	14.41	-53.8	-66.1	3.9	7.47e-01	0	26	104	0	75	15681
2026-01-06 03:10:02.90	20.59	14.74	-54.7	-67.3	3.8	7.44e-01	0	26	104	0	78	15121
2026-01-06 03:10:05.90	20.40	15.08	-51.2	-62.8	3.8	7.45e-01	0	26	104	0	71	13494
2026-01-06 03:10:08.90	20.21	15.42	-51.1	-62.6	3.8	7.46e-01	0	26	104	0	71	13225
2026-01-06 03:10:11.89	20.01	15.76	-55.1	-68.0	3.8	7.48e-01	0	26	104	0	77	17345
2026-01-06 03:10:14.89	19.81	16.11	-50.9	-62.3	3.8	7.45e-01	0	26	104	0	70	13530
2026-01-06 03:10:17.89	19.60	16.47	-57.8	-74.0	3.7	7.51e-01	0	26	104	0	83	24542
2026-01-06 03:10:20.88	19.39	16.83	-50.9	-62.4	3.9	7.46e-01	0	26	104	0	71	12901
2026-01-06 03:10:23.87	19.17	17.20	-53.1	-65.1	3.9	7.43e-01	0	26	104	0	73	15710
2026-01-06 03:10:26.86	18.95	17.57	-54.7	-67.2	3.9	7.46e-01	0	26	104	0	78	15051
2026-01-06 03:10:29.85	18.71	17.95	-50.9	-62.4	3.9	7.44e-01	0	26	104	0	71	12899
2026-01-06 03:10:32.83	18.48	18.33	-50.9	-62.4	3.9	7.47e-01	0	26	104	0	70	13657
2026-01-06 03:10:35.82	18.23	18.72	-54.8	-67.4	3.8	7.47e-01	0	26	104	0	77	16245
2026-01-06 03:10:38.82	17.98	19.12	-51.1	-62.6	3.9	7.45e-01	0	26	104	0	71	13253
2026-01-06 03:10:41.81	17.72	19.52	-57.5	-72.7	3.8	7.48e-01	0	26	104	0	82	22320
2026-01-06 03:10:44.80	17.45	19.93	-51.1	-62.6	3.9	7.44e-01	0	26	104	0	71	13151
2026-01-06 03:10:47.79	17.18	20.35	-52.7	-64.8	3.9	7.51e-01	0	26	104	0	73	15053
2026-01-06 03:10:50.76	16.90	20.77	-55.1	-67.7	3.9	7.48e-01	0	26	104	0	79	14949
2026-01-06 03:10:53.74	16.60	21.20	-51.4	-63.0	3.8	7.46e-01	0	26	104	0	72	13026
2026-01-06 03:10:56.73	16.30	21.64	-51.4	-63.0	3.8	7.45e-01	0	26	104	0	72	12993
2026-01-06 03:10:59.71	15.99	22.08	-53.2	-65.1	3.8	7.43e-01	0	26	104	0	73	15597
2026-01-06 03:11:02.68	15.68	22.54	-50.7	-62.1	3.9	7.46e-01	0	26	104	0	70	13180
2026-01-06 03:11:05.92	15.32	23.04	-56.5	-70.1	3.8	7.46e-01	0	26	104	0	80	18595
2026-01-06 03:11:08.78	14.99	23.49	-52.6	-64.4	3.9	7.44e-01	0	26	104	0	74	13617
2026-01-06 03:11:11.90	14.62	23.98	-53.0	-64.9	3.8	7.47e-01	0	26	104	0	73	15286
2026-01-06 03:11:14.75	14.27	24.45	-55.8	-68.7	3.9	7.47e-01	0	26	104	0	80	15773
2026-01-06 03:11:17.89	13.87	24.97	-51.3	-62.9	3.8	7.44e-01	0	26	104	0	71	13600
2026-01-06 03:11:20.73	13.50	25.45	-51.8	-63.2	3.8	7.43e-01	0	26	104	0	72	13391
2026-01-06 03:11:23.86	13.08	25.99	-52.1	-63.8	3.8	7.46e-01	0	26	104	0	72	14255
2026-01-06 03:11:26.70	12.68	26.48	-51.3	-62.8	3.8	7.46e-01	0	26	104	0	71	13552
2026-01-06 03:11:29.81	12.23	27.03	-55.7	-68.4	3.8	7.45e-01	0	26	104	0	78	17151
2026-01-06 03:11:32.65	11.80	27.55	-53.4	-65.4	3.9	7.42e-01	0	26	104	0	76	13651
2026-01-06 03:11:35.79	11.31	28.13	-51.6	-63.1	3.8	7.43e-01	0	26	104	0	70	14865
2026-01-06 03:11:38.63	10.85	28.66	-56.3	-69.2	3.9	7.46e-01	0	26	104	0	81	15929
2026-01-06 03:11:41.76	10.32	29.26	-50.5	-61.9	3.8	7.46e-01	0	26	104	0	70	12834
2026-01-06 03:11:44.61	9.83	29.81	-52.6	-64.4	3.9	7.47e-01	0	26	104	0	74	13694
2026-01-06 03:11:47.74	9.26	30.43	-50.7	-62.0	3.8	7.45e-01	0	26	104	0	70	12992
2026-01-06 03:11:50.58	8.72	31.00	-50.0	-61.3	3.9	7.45e-01	0	26	104	0	69	12732
2026-01-06 03:11:53.71	8.11	31.64	-54.1	-66.1	3.8	7.43e-01	0	26	104	0	75	15693
2026-01-06 03:11:56.56	7.53	32.24	-53.9	-66.0	3.9	7.45e-01	0	26	104	0	77	13860
2026-01-06 03:11:59.69	6.86	32.90	-51.0	-62.3	3.8	7.49e-01	0	26	104	0	69	14309
2026-01-06 03:12:02.52	6.24	33.51	-57.4	-71.8	3.9	7.43e-01	0	26	104	0	84	18057
2026-01-06 03:12:05.64	5.52	34.19	-50.9	-62.3	3.8	7.44e-01	0	26	104	0	71	12679
2026-01-06 03:12:08.48	4.83	34.82	-54.1	-66.3	3.9	7.45e-01	0	26	104	0	77	14272
2026-01-06 03:12:11.60	4.05	35.52	-52.2	-63.7	3.8	7.47e-01	0	26	104	0	73	13358
2026-01-06 03:12:14.45	3.31	36.17	-51.0	-62.4	3.9	7.47e-01	0	26	104	0	71	12911
2026-01-06 03:12:17.56	2.45	36.89	-53.4	-65.3	3.9	7.47e-01	0	26	104	0	74	15175
2026-01-06 03:12:20.41	1.64	37.55	-56.1	-69.2	3.8	7.47e-01	0	26	104	0	80	16885
2026-01-06 03:12:23.54	0.70	38.29	-52.1	-63.7	3.8	7.42e-01	0	26	104	0	72	14121
2026-01-06 03:12:26.38	359.82	38.97	-58.8	-75.5	3.8	7.44e-01	0	26	104	0	85	25954
2026-01-06 03:12:29.51	358.79	39.73	-52.0	-63.6	3.8	7.43e-01	0	26	104	0	73	13122
2026-01-06 03:12:32.37	357.81	40.43	-56.2	-69.4	3.9	7.44e-01	0	26	104	0	81	16234
2026-01-06 03:12:35.49	356.69	41.19	-53.7	-65.6	3.9	7.44e-01	0	26	104	0	76	13925
2026-01-06 03:12:38.34	355.62	41.89	-51.8	-63.4	3.8	7.45e-01	0	26	104	0	72	13671
2026-01-06 03:12:41.47	354.38	42.67	-52.2	-63.8	3.8	7.47e-01	0	26	104	0	72	14332
2026-01-06 03:12:44.32	353.20	43.38	-56.3	-69.4	3.8	7.46e-01	0	26	104	0	80	17155
2026-01-06 03:12:47.44	351.85	44.15	-51.0	-62.4	3.8	7.47e-01	0	26	104	0	71	12839
2026-01-06 03:12:50.28	350.56	44.85	-58.8	-75.4	3.8	7.49e-01	0	26	104	0	85	25590
2026-01-06 03:12:53.40	349.08	45.62	-51.2	-62.7	3.8	7.43e-01	0	26	104	0	71	13367
2026-01-06 03:12:56.23	347.66	46.31	-58.7	-74.8	3.8	7.45e-01	0	26	104	0	85	23974
2026-01-06 03:12:59.35	346.03	47.06	-54.5	-66.8	3.8	7.51e-01	0	26	104	0	78	14350
2026-01-06 03:13:02.18	344.48	47.73	-51.2	-62.6	3.8	7.45e-01	0	26	104	0	71	13119
2026-01-06 03:13:05.30	342.69	48.45	-51.7	-63.1	3.8	7.45e-01	0	26	104	0	72	13230
2026-01-06 03:13:08.14	340.98	49.09	-56.1	-69.1	3.8	7.46e-01	0	26	104	0	79	17501
2026-01-06 03:13:11.28	339.01	49.78	-51.1	-62.5	3.8	7.44e-01	0	26	104	0	71	13000
2026-01-06 03:13:14.12	337.15	50.38	-58.5	-73.9	3.8	7.50e-01	0	26	104	0	84	22811
2026-01-06 03:13:17.25	335.02	51.01	-51.1	-62.5	3.8	7.46e-01	0	26	104	0	71	12969
2026-01-06 03:13:20.11	332.99	51.55	-58.5	-73.9	3.8	7.47e-01	0	26	104	0	84	22819
2026-01-06 03:13:23.23	330.69	52.11	-54.6	-66.8	3.8	7.48e-01	0	26	104	0	78	14336
2026-01-06 03:13:26.08	328.51	52.58	-50.3	-51.9	15.3	6.02e-01	0	26	0	0	69	4316
2026-01-06 03:13:29.21	326.04	53.06	-50.1	-51.7	15.5	6.01e-01	0	26	0	5767168	69	4206
2026-01-06 03:13:32.08	323.71	53.45	-50.0	-51.6	15.6	6.01e-01	0	26	0	11534336	69	4164
2026-01-06 03:13:35.19	321.11	53.81	-50.2	-51.8	15.4	6.01e-01	0	26	0	17301504	68	4517
2026-01-06 03:13:38.05	318.67	54.10	-50.5	-52.2	15.3	6.01e-01	0	26	0	22544384	68	4712
2026-01-06 03:13:41.19	315.94	54.36	-50.4	-52.1	15.3	6.02e-01	0	26	0	28311552	68	4654
2026-01-06 03:13:44.03	313.43	54.53	-50.3	-51.9	15.5	6.02e-01	0	26	0	33554432	69	4338
2026-01-06 03:13:47.14	310.65	54.66	-50.5	-52.1	15.4	6.04e-01	0	26	0	39845888	69	4432
2026-01-06 03:13:49.99	308.08	54.72	-50.4	-52.0	15.4	6.01e-01	0	26	0	45088768	69	4376
2026-01-06 03:13:53.14	305.24	54.72	-50.6	-52.3	15.4	6.02e-01	0	26	0	50855936	69	4535
2026-01-06 03:13:55.98	302.69	54.66	-50.8	-52.5	15.3	6.02e-01	0	26	0	56098816	69	4622
2026-01-06 03:13:59.10	299.90	54.52	-50.5	-52.2	15.4	6.00e-01	0	26	0	61865984	69	4443
2026-01-06 03:14:01.95	297.38	54.35	-50.1	-51.6	15.6	6.02e-01	0	26	0	67633152	69	4189
2026-01-06 03:14:05.09	294.65	54.09	-50.1	-51.7	15.5	6.01e-01	0	26	0	73400320	69	4201
2026-01-06 03:14:07.92	292.23	53.80	-50.7	-52.4	15.4	6.00e-01	0	26	0	78643200	69	4586
2026-01-06 03:14:11.07	289.60	53.42	-50.9	-52.6	15.5	6.01e-01	0	26	0	84410368	70	4397
2026-01-06 03:14:13.93	287.28	53.04	-51.9	-53.9	15.2	6.02e-01	0	26	0	89653248	71	4855
2026-01-06 03:14:17.07	284.80	52.56	-49.5	-51.0	15.6	6.02e-01	0	26	0	95944704	68	4102
2026-01-06 03:14:19.91	282.63	52.08	-49.3	-50.8	15.5	6.01e-01	0	26	0	101187584	67	4270
2026-01-06 03:14:23.05	280.32	51.52	-50.1	-51.7	15.4	6.02e-01	0	26	0	106954752	68	4457
2026-01-06 03:14:25.90	278.30	50.97	-50.0	-51.6	15.4	6.03e-01	0	26	0	112197632	68	4423
2026-01-06 03:14:29.04	276.16	50.34	-49.9	-51.5	15.5	6.00e-01	0	26	0	117964800	68	4348
2026-01-06 03:14:31.90	274.29	49.73	-50.7	-52.5	15.3	6.00e-01	0	26	0	123731968	69	4625
2026-01-06 03:14:35.03	272.33	49.04	-50.4	-52.1	15.3	6.01e-01	0	26	0	129499136	68	4679
2026-01-06 03:14:37.88	270.62	48.40	-49.8	-51.3	15.5	6.01e-01	0	26	0	134742016	68	4269
2026-01-06 03:14:41.01	268.83	47.67	-49.8	-51.4	15.5	5.99e-01	0	26	0	140509184	68	4300
2026-01-06 03:14:43.87	267.26	46.99	-50.1	-51.7	15.4	6.03e-01	0	26	0	145752064	68	4492
2026-01-06 03:14:47.01	265.62	46.23	-49.6	-51.2	15.5	6.02e-01	0	26	0	152043520	68	4210
2026-01-06 03:14:49.85	264.21	45.54	-50.0	-51.6	15.4	6.00e-01	0	26	0	157286400	68	4422
2026-01-06 03:14:52.99	262.71	44.77	-49.7	-51.3	15.5	6.03e-01	0	26	0	163053568	68	4251
2026-01-06 03:14:55.85	261.42	44.06	-49.9	-51.5	15.5	6.00e-01	0	26	0	168296448	68	4362
2026-01-06 03:14:58.98	260.07	43.28	-50.2	-51.8	15.3	6.03e-01	0	26	0	174063616	68	4529
2026-01-06 03:15:01.82	258.90	42.57	-50.3	-52.0	15.3	6.01e-01	0	26	0	179830784	68	4615
2026-01-06 03:15:04.96	257.66	41.79	-50.6	-52.3	15.3	6.03e-01	0	26	0	185597952	68	4769
2026-01-06 03:15:07.80	256.60	41.09	-51.2	-53.0	15.3	6.01e-01	0	26	0	190840832	70	4609
2026-01-06 03:15:10.92	255.48	40.32	-51.7	-53.7	15.2	6.02e-01	0	26	0	196608000	71	4724
2026-01-06 03:15:13.76	254.51	39.63	-51.6	-53.4	15.3	6.02e-01	0	26	0	201850880	71	4591
2026-01-06 03:15:16.89	253.49	38.87	-51.7	-53.6	15.2	6.00e-01	0	26	0	208142336	71	4676
2026-01-06 03:15:19.75	252.59	38.19	-51.6	-53.4	15.3	6.01e-01	0	26	0	213385216	71	4585
2026-01-06 03:15:22.90	251.65	37.44	-51.5	-53.3	15.5	6.00e-01	0	26	0	219152384	72	4261
2026-01-06 03:15:25.78	250.83	36.77	-52.1	-54.1	15.2	6.04e-01	0	26	0	224395264	72	4661
2026-01-06 03:15:28.93	249.97	36.04	-51.5	-53.4	15.4	5.99e-01	0	26	0	230686720	72	4305
2026-01-06 03:15:31.79	249.23	35.38	-51.1	-52.8	15.5	6.04e-01	0	26	0	235929600	71	4273
2026-01-06 03:15:34.93	248.44	34.68	-50.8	-52.5	15.4	5.99e-01	0	26	0	241696768	70	4384
2026-01-06 03:15:37.79	247.76	34.04	-50.8	-52.6	15.4	6.00e-01	0	26	0	246939648	70	4392
2026-01-06 03:15:40.95	247.03	33.35	-50.7	-52.4	15.5	5.99e-01	0	26	0	253231104	70	4334
2026-01-06 03:15:43.82	246.40	32.74	-50.6	-52.3	15.5	6.01e-01	0	26	0	258473984	70	4250
2026-01-06 03:15:46.96	245.74	32.07	-50.3	-52.0	15.5	6.01e-01	0	26	0	264241152	69	4342
2026-01-06 03:15:49.82	245.15	31.48	-49.9	-51.5	15.6	6.02e-01	0	26	0	269484032	69	4121
2026-01-06 03:15:52.96	244.54	30.83	-49.8	-51.5	15.4	6.00e-01	0	26	0	275775488	68	4342
2026-01-06 03:15:55.82	244.01	30.26	-49.9	-51.6	15.4	6.01e-01	0	26	0	281018368	68	4407
2026-01-06 03:15:58.96	243.44	29.64	-49.7	-51.3	15.5	6.01e-01	0	26	0	286785536	68	4275
2026-01-06 03:16:01.81	242.94	29.09	-49.7	-51.3	15.5	6.03e-01	0	26	0	292028416	68	4289
2026-01-06 03:16:04.95	242.42	28.49	-49.8	-51.5	15.4	6.01e-01	0	26	0	297795584	68	4352
2026-01-06 03:16:07.80	241.96	27.95	-49.9	-51.6	15.4	6.01e-01	0	26	0	303562752	68	4409
2026-01-06 03:16:10.95	241.47	27.37	-49.9	-51.5	15.4	6.01e-01	0	26	0	309329920	68	4386
2026-01-06 03:16:13.80	241.04	26.86	-50.2	-51.9	15.3	5.99e-01	0	26	0	314572800	68	4562
2026-01-06 03:16:16.96	240.59	26.30	-50.1	-51.8	15.3	6.02e-01	0	26	0	320339968	68	4512
2026-01-06 03:16:19.82	240.19	25.80	-50.0	-51.7	15.4	6.03e-01	0	26	0	326107136	68	4447
2026-01-06 03:16:22.97	239.76	25.26	-50.1	-51.8	15.3	6.02e-01	0	26	0	331874304	68	4521
2026-01-06 03:16:25.83	239.39	24.77	-50.3	-52.1	15.3	6.03e-01	0	26	0	337117184	68	4665
2026-01-06 03:16:28.98	238.99	24.25	-50.3	-52.0	15.3	6.02e-01	0	26	0	342884352	68	4634
2026-01-06 03:16:31.84	238.65	23.79	-50.1	-51.7	15.3	6.02e-01	0	26	0	348651520	68	4492
2026-01-06 03:16:34.97	238.28	23.29	-50.1	-51.8	15.4	6.00e-01	0	26	0	354418688	68	4512
2026-01-06 03:16:37.83	237.95	22.84	-50.2	-51.9	15.3	6.01e-01	0	26	0	359661568	68	4548
2026-01-06 03:16:40.97	237.61	22.36	-50.3	-52.1	15.3	6.01e-01	0	26	0	365428736	68	4652
2026-01-06 03:16:43.84	237.30	21.92	-50.3	-52.1	15.3	6.04e-01	0	26	0	371195904	68	4667
2026-01-06 03:16:46.98	236.97	21.45	-50.3	-52.0	15.3	6.00e-01	0	26	0	376963072	68	4651
2026-01-06 03:16:49.83	236.69	21.04	-50.3	-52.0	15.3	6.01e-01	0	26	0	382205952	68	4621
2026-01-06 03:16:52.97	236.38	20.58	-50.3	-52.0	15.3	6.01e-01	0	26	0	387973120	68	4619
2026-01-06 03:16:55.84	236.11	20.18	-50.1	-51.8	15.3	6.02e-01	0	26	0	393216000	68	4514
2026-01-06 03:16:58.97	235.82	19.74	-50.0	-51.7	15.4	6.01e-01	0	26	0	399507456	68	4478
2026-01-06 03:17:01.83	235.57	19.35	-50.1	-51.8	15.4	5.99e-01	0	26	0	404750336	68	4497
2026-01-06 03:17:04.97	235.30	18.93	-50.0	-51.7	15.4	6.03e-01	0	26	0	410517504	68	4482
2026-01-06 03:17:07.83	235.05	18.55	-50.2	-51.9	15.3	6.02e-01	0	26	0	415760384	68	4572
2026-01-06 03:17:10.97	234.80	18.14	-50.0	-51.7	15.4	6.01e-01	0	26	0	421527552	68	4480
2026-01-06 03:17:13.83	234.57	17.77	-50.1	-51.8	15.3	6.00e-01	0	26	0	427294720	68	4520
2026-01-06 03:17:16.98	234.33	17.38	-50.1	-51.8	15.3	6.03e-01	0	26	0	433061888	68	4510
2026-01-06 03:17:19.84	234.11	17.02	-50.1	-51.8	15.3	6.03e-01	0	26	0	438304768	68	4535
2026-01-06 03:17:22.99	233.88	16.63	-50.0	-51.7	15.4	6.00e-01	0	26	0	444596224	68	4469
2026-01-06 03:17:25.85	233.68	16.29	-50.2	-51.9	15.3	6.01e-01	0	26	0	449839104	68	4558
2026-01-06 03:17:29.00	233.46	15.92	-50.2	-51.9	15.3	6.01e-01	0	26	0	455606272	68	4564
2026-01-06 03:17:31.85	233.27	15.58	-50.1	-51.8	15.3	6.01e-01	0	26	0	460849152	68	4541
2026-01-06 03:17:34.99	233.06	15.22	-50.1	-51.8	15.3	6.01e-01	0	26	0	466616320	68	4535
2026-01-06 03:17:37.86	232.88	14.89	-50.1	-51.8	15.3	6.04e-01	0	26	0	472383488	68	4516
2026-01-06 03:17:40.99	232.68	14.54	-50.2	-52.0	15.3	6.02e-01	0	26	0	478150656	68	4599
2026-01-06 03:17:43.86	232.50	14.23	-50.2	-52.0	15.3	6.00e-01	0	26	0	483393536	68	4612
2026-01-06 03:17:47.01	232.32	13.88	-50.3	-52.1	15.3	6.01e-01	0	26	0	489160704	68	4656
2026-01-06 03:17:49.86	232.15	13.58	-50.3	-52.0	15.3	6.01e-01	0	26	0	494927872	68	4632
2026-01-06 03:17:53.00	231.97	13.25	-50.2	-51.9	15.3	6.00e-01	0	26	0	500695040	68	4584
2026-01-06 03:17:55.87	231.82	12.95	-50.2	-51.9	15.3	6.04e-01	0	26	0	505937920	68	4576
2026-01-06 03:17:59.01	231.65	12.62	-50.2	-52.0	15.3	6.00e-01	0	26	0	511705088	68	4602
2026-01-06 03:18:01.86	231.50	12.33	-50.3	-52.1	15.3	6.02e-01	0	26	0	516947968	68	4676
2026-01-06 03:18:04.99	231.33	12.02	-50.4	-52.2	15.2	6.01e-01	0	26	0	523239424	68	4707
2026-01-06 03:18:07.84	231.19	11.74	-50.3	-52.1	15.2	6.00e-01	0	26	0	528482304	68	4689
2026-01-06 03:18:10.97	231.04	11.43	-50.3	-52.1	15.2	6.02e-01	0	26	0	534249472	68	4687
2026-01-06 03:18:13.82	230.90	11.15	-50.3	-52.1	15.2	6.01e-01	0	26	0	539492352	68	4688
2026-01-06 03:18:16.96	230.75	10.85	-50.4	-52.2	15.2	6.01e-01	0	26	0	545259520	68	4759
2026-01-06 03:18:19.81	230.62	10.59	-50.4	-52.2	15.2	6.02e-01	0	26	0	551026688	68	4713
2026-01-06 03:18:22.95	230.48	10.29	-50.4	-52.2	15.2	6.01e-01	0	26	0	556793856	68	4745
2026-01-06 03:18:25.81	230.35	10.03	-50.4	-52.3	15.2	6.03e-01	0	26	0	562036736	68	4767
2026-01-06 03:18:28.95	230.22	9.75	-50.7	-52.6	15.2	6.01e-01	0	26	0	567803904	69	4667
2026-01-06 03:18:31.80	230.10	9.49	-50.8	-52.7	15.2	6.01e-01	0	26	0	573571072	69	4751
2026-01-06 03:18:34.94	229.97	9.21	-50.9	-52.9	15.1	6.04e-01	0	26	0	579338240	69	4820
2026-01-06 03:18:37.80	229.85	8.96	-50.9	-52.9	15.1	6.02e-01	0	26	0	584581120	69	4854
2026-01-06 03:18:40.94	229.73	8.69	-51.0	-52.9	15.1	6.00e-01	0	26	0	590348288	69	4865
2026-01-06 03:18:43.79	229.62	8.44	-50.9	-52.9	15.1	5.99e-01	0	26	0	596115456	69	4841
2026-01-06 03:18:46.93	229.50	8.17	-51.0	-53.0	15.1	5.99e-01	0	26	0	601882624	69	4920
2026-01-06 03:18:49.79	229.39	7.93	-51.0	-53.0	15.1	6.02e-01	0	26	0	607125504	69	4875
2026-01-06 03:18:52.91	229.28	7.67	-51.1	-53.1	15.2	6.03e-01	0	26	0	612892672	70	4682
2026-01-06 03:18:55.78	229.18	7.44	-51.3	-53.3	15.1	6.01e-01	0	26	0	618135552	70	4789
2026-01-06 03:18:58.91	229.07	7.18	-51.2	-53.2	15.1	6.05e-01	0	26	0	624427008	70	4750
2026-01-06 03:19:01.77	228.97	6.95	-51.2	-53.2	15.1	6.01e-01	0	26	0	629669888	70	4743
2026-01-06 03:19:04.92	228.87	6.70	-51.3	-53.3	15.1	6.02e-01	0	26	0	635437056	70	4803
2026-01-06 03:19:07.78	228.77	6.47	-51.4	-53.5	15.1	5.98e-01	0	26	0	640679936	70	4905
2026-01-06 03:19:10.92	228.67	6.23	-51.4	-53.5	15.1	5.99e-01	0	26	0	646447104	70	4889
2026-01-06 03:19:13.76	228.58	6.01	-51.5	-53.6	15.0	6.03e-01	0	26	0	652214272	70	4980
2026-01-06 03:19:16.90	228.48	5.77	-51.6	-53.8	15.0	6.00e-01	0	26	0	657981440	70	5056
2026-01-06 03:19:19.76	228.39	5.55	-51.7	-54.0	15.0	6.01e-01	0	26	0	663224320	71	4891
2026-01-06 03:19:22.89	228.30	5.31	-51.8	-54.0	15.0	6.01e-01	0	26	0	668991488	71	4917
2026-01-06 03:19:25.75	228.22	5.10	-51.9	-54.2	14.9	6.00e-01	0	26	0	674758656	71	5011
2026-01-06 03:19:28.90	228.13	4.87	-58.6	-77.9	3.9	7.43e-01	0	26	104	678952960	84	36319
2026-01-06 03:19:31.75	228.04	4.66	-59.2	-78.6	3.8	7.49e-01	0	26	104	678952960	86	35010
2026-01-06 03:19:34.88	227.96	4.43	-59.4	-78.9	3.8	7.47e-01	0	26	104	678952960	86	36179
2026-01-06 03:19:37.72	227.88	4.23	-59.6	-79.0	3.8	7.45e-01	0	26	104	678952960	87	34796
2026-01-06 03:19:40.86	227.80	4.00	-59.7	-79.1	3.8	7.42e-01	0	26	104	678952960	87	35010
2026-01-06 03:19:43.71	227.72	3.80	-59.8	-79.2	3.8	7.47e-01	0	26	104	678952960	87	35375
2026-01-06 03:19:46.85	227.64	3.58	-59.8	-79.2	3.8	7.46e-01	0	26	104	678952960	87	35641
2026-01-06 03:19:49.71	227.57	3.38	-59.9	-79.3	3.8	7.45e-01	0	26	104	678952960	87	36018
2026-01-06 03:19:52.84	227.49	3.16	-59.9	-79.3	3.8	7.48e-01	0	26	104	678952960	87	35747
2026-01-06 03:19:55.69	227.42	2.97	-59.8	-79.2	3.8	7.50e-01	0	26	104	678952960	87	35645
2026-01-06 03:19:58.83	227.34	2.75	-59.8	-79.2	3.8	7.40e-01	0	26	104	678952960	87	35522
2026-01-06 03:20:01.67	227.27	2.56	-59.8	-79.2	3.8	7.47e-01	0	26	104	678952960	87	35442
2026-01-06 03:20:04.79	227.20	2.35	-59.8	-79.2	3.8	7.45e-01	0	26	104	678952960	87	35337
2026-01-06 03:20:07.65	227.14	2.16	-59.8	-79.2	3.8	7.46e-01	0	26	104	678952960	87	35284
2026-01-06 03:20:10.77	227.07	1.96	-59.7	-79.1	3.8	7.47e-01	0	26	104	678952960	87	35269

#Closed at: 2026-01-06 03:20:11
#Recorded file [678 MB]: D:/lorett/data/31004_260106_060732.dat