passes_logs/2026/01/06/R3.2S_Murmansk/R3.2S_Murmansk__20260106_142847_AQUA_rec.log

#Pass ID: 20260106_142847_AQUA
#Satellite: AQUA
#Configuration: AQUA
#almurnet v.1.7.20251203
#Start time: 2026-01-06 14:28:47

#Version: 2.2.20231116
#Station: R3.2S_Murmansk
#Location: 33.079688 lon 68.888172 lat
#TLE: 1 27424U 02022A   26004.96787593  .00001598  00000+0  32997-3 0  9996
#TLE: 2 27424  98.4069 331.2279 0002002  90.2377   0.6092 14.61798176259425

#Time	Az	El	Level	Level2	SNR	BER	BlckErr	Temp	State	Recorded	gain1	gain2
2026-01-06 14:28:47.33	240.67	2.00	-57.6	-77.2	3.8	7.44e-01	0	23	0	0	84	33498
2026-01-06 14:28:50.33	241.00	2.14	-57.4	-77.0	3.8	7.46e-01	0	23	104	0	82	36841
2026-01-06 14:28:53.34	241.34	2.28	-57.0	-77.0	3.8	7.44e-01	0	23	104	0	82	36685
2026-01-06 14:28:56.33	241.68	2.42	-56.9	-77.0	3.8	7.46e-01	0	24	104	0	82	36862
2026-01-06 14:28:59.33	242.02	2.56	-57.6	-77.0	3.8	7.46e-01	0	24	104	0	83	34745
2026-01-06 14:29:02.33	242.37	2.69	-57.7	-76.8	3.8	7.45e-01	0	24	104	0	83	33910
2026-01-06 14:29:05.33	242.72	2.83	-57.7	-76.8	3.8	7.48e-01	0	24	104	0	83	33770
2026-01-06 14:29:08.33	243.07	2.97	-57.7	-77.0	3.8	7.48e-01	0	24	104	0	83	34660
2026-01-06 14:29:11.33	243.43	3.11	-57.7	-77.0	3.8	7.45e-01	0	24	104	0	83	34693
2026-01-06 14:29:14.33	243.79	3.25	-57.7	-76.9	3.8	7.46e-01	0	24	104	0	83	34422
2026-01-06 14:29:17.32	244.16	3.38	-57.6	-76.4	3.8	7.47e-01	0	24	104	0	83	32293
2026-01-06 14:29:20.31	244.52	3.52	-57.7	-76.5	3.8	7.48e-01	0	24	104	0	83	32897
2026-01-06 14:29:23.31	244.90	3.66	-57.7	-76.9	3.8	7.48e-01	0	24	104	0	83	34328
2026-01-06 14:29:26.29	245.27	3.79	-57.7	-76.8	3.8	7.45e-01	0	24	104	0	83	33843
2026-01-06 14:29:29.28	245.65	3.93	-57.6	-75.8	3.8	7.47e-01	0	24	104	0	83	30314
2026-01-06 14:29:32.28	246.03	4.07	-57.7	-76.9	3.8	7.46e-01	0	25	104	0	83	34376
2026-01-06 14:29:35.29	246.42	4.21	-57.7	-76.7	3.8	7.46e-01	0	24	104	0	83	33539
2026-01-06 14:29:38.29	246.81	4.34	-57.6	-75.1	3.9	7.46e-01	0	24	104	0	83	27927
2026-01-06 14:29:41.28	247.20	4.48	-57.6	-73.9	3.9	7.41e-01	0	25	104	0	83	24371
2026-01-06 14:29:44.28	247.60	4.61	-57.7	-76.6	3.8	7.45e-01	0	25	104	0	83	33155
2026-01-06 14:29:47.27	248.00	4.75	-57.3	-68.1	7.1	6.55e-01	90	25	0	2097152	83	12466
2026-01-06 14:29:50.27	248.41	4.88	-56.8	-64.5	10.2	6.20e-01	0	25	0	7864320	82	8732
2026-01-06 14:29:53.27	248.82	5.02	-53.8	-57.1	14.5	6.06e-01	0	25	0	13107200	76	5233
2026-01-06 14:29:56.27	249.23	5.15	-54.6	-58.3	14.1	6.06e-01	0	25	0	18874368	77	5698
2026-01-06 14:29:59.27	249.65	5.29	-51.9	-54.3	15.1	6.06e-01	0	25	0	24641536	72	4767
2026-01-06 14:30:02.25	250.07	5.42	-51.4	-53.5	15.4	6.06e-01	0	25	0	29884416	72	4390
2026-01-06 14:30:05.26	250.50	5.55	-51.7	-54.0	15.2	6.06e-01	0	25	0	35651584	72	4621
2026-01-06 14:30:08.26	250.93	5.69	-51.6	-53.8	15.3	6.05e-01	0	25	0	41418752	72	4510
2026-01-06 14:30:11.26	251.36	5.82	-51.7	-53.9	15.3	6.07e-01	0	25	0	47185920	72	4570
2026-01-06 14:30:14.25	251.80	5.95	-51.6	-53.8	15.3	6.07e-01	0	25	0	52428800	72	4536
2026-01-06 14:30:17.25	252.24	6.08	-51.5	-53.7	15.4	6.06e-01	0	25	0	58195968	72	4474
2026-01-06 14:30:20.23	252.68	6.21	-51.5	-53.7	15.4	6.08e-01	0	25	0	63963136	72	4453
2026-01-06 14:30:23.21	253.13	6.34	-51.5	-53.7	15.4	6.09e-01	0	25	0	69206016	72	4465
2026-01-06 14:30:26.21	253.59	6.47	-51.4	-53.6	15.3	6.08e-01	0	25	0	74973184	71	4665
2026-01-06 14:30:29.23	254.05	6.60	-51.3	-53.4	15.3	6.07e-01	0	25	0	80740352	71	4586
2026-01-06 14:30:32.20	254.51	6.72	-51.3	-53.5	15.3	6.06e-01	0	25	0	86507520	71	4605
2026-01-06 14:30:35.19	254.98	6.85	-51.1	-53.2	15.4	6.07e-01	0	25	0	91750400	71	4482
2026-01-06 14:30:38.19	255.45	6.98	-51.2	-53.3	15.4	6.05e-01	0	25	0	97517568	71	4515
2026-01-06 14:30:41.19	255.93	7.10	-51.2	-53.3	15.4	6.05e-01	0	25	0	103284736	71	4529
2026-01-06 14:30:44.19	256.41	7.23	-51.1	-53.2	15.4	6.09e-01	0	25	0	108527616	71	4453
2026-01-06 14:30:47.18	256.89	7.35	-51.3	-53.3	15.3	6.08e-01	0	25	0	114294784	71	4530
2026-01-06 14:30:50.18	257.38	7.47	-51.2	-53.3	15.4	6.06e-01	0	25	0	120061952	71	4520
2026-01-06 14:30:53.17	257.87	7.59	-50.9	-52.9	15.5	6.08e-01	0	25	0	125304832	71	4322
2026-01-06 14:30:56.16	258.37	7.71	-51.0	-53.0	15.5	6.06e-01	0	25	0	131072000	71	4365
2026-01-06 14:30:59.15	258.87	7.83	-50.9	-52.9	15.5	6.08e-01	0	25	0	136839168	71	4302
2026-01-06 14:31:02.14	259.37	7.95	-51.1	-53.1	15.3	6.06e-01	0	25	0	142606336	70	4676
2026-01-06 14:31:05.13	259.88	8.06	-51.0	-53.0	15.3	6.06e-01	0	25	0	147849216	70	4648
2026-01-06 14:31:08.12	260.40	8.18	-51.1	-53.1	15.3	6.06e-01	0	25	0	153616384	70	4681
2026-01-06 14:31:11.10	260.91	8.29	-50.9	-52.8	15.3	6.07e-01	0	25	0	159383552	70	4541
2026-01-06 14:31:14.09	261.43	8.40	-50.8	-52.8	15.4	6.07e-01	0	25	0	164626432	70	4513
2026-01-06 14:31:17.07	261.96	8.51	-50.7	-52.7	15.4	6.06e-01	0	25	0	170393600	70	4457
2026-01-06 14:31:20.07	262.49	8.62	-50.7	-52.7	15.4	6.06e-01	0	25	0	176160768	70	4463
2026-01-06 14:31:23.05	263.02	8.73	-50.5	-52.5	15.5	6.07e-01	0	25	0	181403648	70	4389
2026-01-06 14:31:26.04	263.56	8.84	-50.7	-52.8	15.4	6.05e-01	0	25	0	187170816	70	4524
2026-01-06 14:31:29.02	264.10	8.94	-50.4	-52.5	15.5	6.06e-01	0	25	0	192937984	70	4382
2026-01-06 14:31:32.01	264.65	9.04	-50.3	-52.8	15.3	6.07e-01	0	25	0	198180864	69	4791
2026-01-06 14:31:34.99	265.20	9.14	-49.6	-52.5	15.1	6.05e-01	0	25	0	203948032	67	5217
2026-01-06 14:31:37.99	265.75	9.24	-50.9	-52.9	15.2	6.07e-01	0	25	0	209715200	69	4823
2026-01-06 14:31:40.99	266.31	9.34	-50.1	-51.9	15.5	6.05e-01	0	25	0	215482368	69	4331
2026-01-06 14:31:43.98	266.88	9.44	-51.8	-54.1	15.1	6.04e-01	0	25	0	220725248	71	4949
2026-01-06 14:31:46.97	267.44	9.53	-52.4	-55.0	15.0	6.06e-01	0	25	0	226492416	73	4891
2026-01-06 14:31:49.96	268.01	9.63	-52.8	-55.6	14.7	6.08e-01	0	25	0	232259584	73	5241
2026-01-06 14:31:52.95	268.59	9.72	-54.3	-58.2	13.8	6.07e-01	0	25	0	237502464	76	5954
2026-01-06 14:31:55.94	269.16	9.80	-53.8	-57.1	14.4	6.04e-01	0	25	0	243269632	76	5249
2026-01-06 14:31:58.95	269.75	9.89	-52.1	-54.5	15.1	6.07e-01	0	25	0	249036800	73	4641
2026-01-06 14:32:01.94	270.33	9.97	-51.7	-53.9	15.2	6.07e-01	0	25	0	254803968	72	4590
2026-01-06 14:32:04.94	270.92	10.06	-50.9	-52.8	15.5	6.07e-01	0	25	0	260046848	71	4289
2026-01-06 14:32:07.93	271.52	10.14	-50.4	-52.2	15.4	6.06e-01	0	25	0	265814016	69	4467
2026-01-06 14:32:10.94	272.11	10.21	-50.3	-52.1	15.5	6.06e-01	0	25	0	271581184	69	4413
2026-01-06 14:32:13.94	272.71	10.29	-50.4	-52.2	15.4	6.06e-01	0	25	0	276824064	69	4461
2026-01-06 14:32:16.93	273.32	10.36	-50.2	-52.0	15.5	6.06e-01	0	25	0	282591232	69	4346
2026-01-06 14:32:19.92	273.92	10.43	-50.4	-52.3	15.4	6.04e-01	0	25	0	288358400	69	4505
2026-01-06 14:32:22.91	274.53	10.50	-50.2	-52.0	15.5	6.07e-01	0	25	0	293601280	69	4386
2026-01-06 14:32:25.91	275.14	10.56	-50.4	-52.2	15.4	6.07e-01	0	25	0	299368448	69	4487
2026-01-06 14:32:28.92	275.76	10.63	-50.3	-52.1	15.5	6.05e-01	0	25	0	305135616	69	4411
2026-01-06 14:32:31.91	276.37	10.69	-50.3	-52.2	15.4	6.07e-01	0	25	0	310902784	69	4447
2026-01-06 14:32:34.88	276.99	10.74	-50.3	-52.1	15.4	6.06e-01	0	25	0	316145664	69	4423
2026-01-06 14:32:37.88	277.61	10.80	-50.1	-51.9	15.5	6.06e-01	0	25	0	321912832	69	4328
2026-01-06 14:32:40.88	278.23	10.85	-50.1	-51.9	15.5	6.06e-01	0	25	0	327680000	69	4316
2026-01-06 14:32:43.88	278.86	10.90	-50.3	-52.1	15.5	6.06e-01	0	25	0	333447168	69	4425
2026-01-06 14:32:46.87	279.49	10.95	-50.4	-52.2	15.4	6.01e-01	0	25	0	338690048	69	4479
2026-01-06 14:32:49.86	280.12	10.99	-50.4	-52.2	15.4	6.01e-01	0	25	0	344457216	69	4469
2026-01-06 14:32:52.87	280.75	11.03	-50.3	-52.1	15.5	6.00e-01	0	25	0	350224384	69	4433
2026-01-06 14:32:55.86	281.38	11.07	-50.4	-52.2	15.4	6.02e-01	0	25	0	355467264	69	4455
2026-01-06 14:32:58.85	282.02	11.10	-50.3	-52.1	15.4	6.02e-01	0	25	0	361234432	69	4436
2026-01-06 14:33:01.85	282.66	11.14	-50.4	-52.2	15.4	6.02e-01	0	25	0	367001600	69	4487
2026-01-06 14:33:04.85	283.30	11.16	-50.5	-52.3	15.4	6.02e-01	0	25	0	372244480	69	4510
2026-01-06 14:33:07.84	283.93	11.19	-50.5	-52.3	15.4	5.98e-01	0	25	0	378011648	69	4512
2026-01-06 14:33:10.84	284.58	11.21	-50.4	-52.2	15.4	6.01e-01	0	25	0	383778816	69	4461
2026-01-06 14:33:13.83	285.22	11.23	-50.5	-52.3	15.4	6.02e-01	0	25	0	389545984	69	4532
2026-01-06 14:33:16.84	285.86	11.25	-50.5	-52.4	15.4	6.02e-01	0	25	0	394788864	69	4556
2026-01-06 14:33:19.82	286.50	11.26	-50.5	-52.4	15.4	6.01e-01	0	25	0	400556032	69	4560
2026-01-06 14:33:22.81	287.14	11.28	-50.4	-52.2	15.4	6.00e-01	0	25	0	406323200	69	4469
2026-01-06 14:33:25.81	287.79	11.28	-50.5	-52.3	15.4	6.02e-01	0	25	0	411566080	69	4501
2026-01-06 14:33:28.78	288.43	11.29	-50.5	-52.3	15.4	6.03e-01	0	25	0	417333248	69	4543
2026-01-06 14:33:31.77	289.07	11.29	-50.6	-52.4	15.4	5.99e-01	0	25	0	423100416	69	4577
2026-01-06 14:33:34.76	289.72	11.29	-50.5	-52.3	15.4	6.00e-01	0	25	0	428343296	69	4500
2026-01-06 14:33:37.75	290.36	11.28	-50.6	-52.4	15.4	6.04e-01	0	25	0	434110464	69	4567
2026-01-06 14:33:40.75	291.00	11.28	-50.5	-52.4	15.4	6.04e-01	0	25	0	439877632	69	4559
2026-01-06 14:33:43.75	291.65	11.27	-50.6	-52.4	15.4	5.99e-01	0	25	0	445644800	69	4565
2026-01-06 14:33:46.75	292.29	11.25	-50.5	-52.3	15.4	6.00e-01	0	25	0	450887680	69	4541
2026-01-06 14:33:49.74	292.93	11.24	-50.7	-52.6	15.3	6.00e-01	0	25	0	456654848	69	4665
2026-01-06 14:33:52.73	293.57	11.22	-50.4	-52.2	15.4	6.02e-01	0	25	0	462422016	69	4487
2026-01-06 14:33:55.72	294.21	11.19	-50.5	-52.3	15.4	6.00e-01	0	25	0	467664896	69	4513
2026-01-06 14:33:58.72	294.85	11.17	-50.6	-52.5	15.3	6.01e-01	0	25	0	473432064	69	4621
2026-01-06 14:34:01.72	295.49	11.14	-50.5	-52.3	15.4	6.01e-01	0	25	0	479199232	69	4506
2026-01-06 14:34:04.72	296.13	11.11	-50.5	-52.4	15.4	6.00e-01	0	25	0	484442112	69	4552
2026-01-06 14:34:07.73	296.77	11.07	-50.6	-52.4	15.4	6.02e-01	0	25	0	490209280	69	4577
2026-01-06 14:34:10.74	297.40	11.04	-50.4	-52.2	15.4	6.01e-01	0	25	0	495976448	69	4474
2026-01-06 14:34:13.73	298.03	11.00	-50.5	-52.3	15.4	6.02e-01	0	25	0	501743616	69	4525
2026-01-06 14:34:16.72	298.66	10.95	-50.6	-52.4	15.4	6.00e-01	0	25	0	506986496	69	4596
2026-01-06 14:34:19.71	299.29	10.91	-50.5	-52.3	15.4	6.01e-01	0	25	0	512753664	69	4530
2026-01-06 14:34:22.70	299.91	10.86	-50.6	-52.4	15.3	6.00e-01	0	25	0	518520832	69	4579
2026-01-06 14:34:25.68	300.53	10.81	-50.6	-52.5	15.3	6.00e-01	0	25	0	524288000	69	4606
2026-01-06 14:34:28.66	301.15	10.75	-50.4	-52.2	15.4	6.01e-01	0	25	0	529530880	69	4468
2026-01-06 14:34:31.65	301.77	10.70	-50.6	-52.5	15.4	6.02e-01	0	25	0	535298048	69	4605
2026-01-06 14:34:34.64	302.38	10.64	-50.6	-52.5	15.3	6.02e-01	0	25	0	541065216	69	4602
2026-01-06 14:34:37.63	302.99	10.58	-50.4	-52.3	15.4	6.02e-01	0	25	0	546308096	69	4500
2026-01-06 14:34:40.62	303.60	10.51	-50.4	-52.2	15.4	6.02e-01	0	25	0	552075264	69	4457
2026-01-06 14:34:43.63	304.21	10.44	-50.5	-52.4	15.4	6.01e-01	0	25	0	557842432	69	4555
2026-01-06 14:34:46.63	304.82	10.37	-50.4	-52.3	15.4	6.02e-01	0	25	0	563609600	69	4505
2026-01-06 14:34:49.63	305.42	10.30	-50.4	-52.3	15.4	6.00e-01	0	25	0	568852480	69	4496
2026-01-06 14:34:52.63	306.02	10.23	-50.4	-52.3	15.4	6.03e-01	0	25	0	574619648	69	4507
2026-01-06 14:34:55.63	306.61	10.15	-50.6	-52.5	15.3	6.02e-01	0	25	0	580386816	69	4627
2026-01-06 14:34:58.63	307.21	10.07	-50.6	-52.5	15.3	6.01e-01	0	25	0	585629696	69	4630
2026-01-06 14:35:01.64	307.80	9.99	-50.5	-52.4	15.3	6.02e-01	0	25	0	591396864	69	4567
2026-01-06 14:35:04.62	308.38	9.91	-50.4	-52.3	15.4	6.02e-01	0	25	0	597164032	69	4513
2026-01-06 14:35:07.61	308.96	9.82	-50.5	-52.4	15.3	6.01e-01	0	25	0	602406912	69	4575
2026-01-06 14:35:10.61	309.54	9.74	-50.6	-52.4	15.3	6.01e-01	0	25	0	608174080	69	4593
2026-01-06 14:35:13.60	310.11	9.65	-50.5	-52.4	15.3	6.01e-01	0	25	0	613941248	69	4570
2026-01-06 14:35:16.60	310.68	9.55	-50.6	-52.5	15.3	6.01e-01	0	25	0	619708416	69	4628
2026-01-06 14:35:19.60	311.25	9.46	-50.7	-52.6	15.3	6.02e-01	0	25	0	624951296	69	4697
2026-01-06 14:35:22.59	311.81	9.37	-50.4	-52.3	15.4	5.99e-01	0	25	0	630718464	69	4518
2026-01-06 14:35:25.58	312.37	9.27	-50.6	-52.4	15.3	6.02e-01	0	26	0	636485632	69	4595
2026-01-06 14:35:28.56	312.92	9.17	-50.5	-52.4	15.3	6.02e-01	0	25	0	641728512	69	4584
2026-01-06 14:35:31.54	313.46	9.07	-50.6	-52.5	15.3	5.99e-01	0	25	0	647495680	69	4605
2026-01-06 14:35:34.53	314.01	8.97	-50.6	-52.5	15.3	5.99e-01	0	25	0	653262848	69	4604
2026-01-06 14:35:37.51	314.55	8.86	-50.6	-52.5	15.3	6.00e-01	0	25	0	658505728	69	4620
2026-01-06 14:35:40.49	315.09	8.76	-50.6	-52.5	15.3	6.03e-01	0	25	0	664272896	69	4600
2026-01-06 14:35:43.47	315.62	8.65	-50.7	-52.6	15.3	5.99e-01	0	26	0	670040064	69	4692
2026-01-06 14:35:46.46	316.15	8.54	-50.7	-52.7	15.2	6.03e-01	0	25	0	675282944	69	4718
2026-01-06 14:35:49.46	316.67	8.43	-50.8	-52.7	15.2	6.03e-01	0	26	0	681050112	69	4745
2026-01-06 14:35:52.45	317.19	8.32	-50.7	-52.7	15.2	6.01e-01	0	25	0	686817280	69	4726
2026-01-06 14:35:55.45	317.71	8.21	-50.8	-52.7	15.2	6.00e-01	0	25	0	692584448	69	4747
2026-01-06 14:35:58.44	318.22	8.10	-51.0	-53.0	15.1	6.03e-01	0	25	0	697827328	69	4900
2026-01-06 14:36:01.45	318.73	7.98	-50.8	-52.8	15.2	6.00e-01	0	26	0	703594496	69	4771
2026-01-06 14:36:04.44	319.24	7.86	-50.9	-52.8	15.2	5.97e-01	0	25	0	709361664	69	4814
2026-01-06 14:36:07.44	319.74	7.75	-50.7	-52.6	15.2	6.01e-01	0	25	0	714604544	69	4690
2026-01-06 14:36:10.43	320.23	7.63	-50.6	-52.6	15.3	6.05e-01	0	26	0	720371712	69	4673
2026-01-06 14:36:13.43	320.73	7.51	-50.9	-52.9	15.2	6.01e-01	0	26	0	726138880	69	4864
2026-01-06 14:36:16.44	321.22	7.39	-50.9	-52.9	15.1	6.02e-01	0	25	0	731906048	69	4853
2026-01-06 14:36:19.44	321.70	7.26	-50.9	-52.9	15.3	6.01e-01	0	25	0	737148928	70	4588
2026-01-06 14:36:22.41	322.18	7.14	-50.8	-52.8	15.3	6.01e-01	0	25	0	742916096	70	4533
2026-01-06 14:36:25.39	322.65	7.02	-51.0	-53.0	15.3	5.99e-01	0	25	0	748683264	70	4634
2026-01-06 14:36:28.38	323.12	6.89	-51.0	-53.0	15.2	6.02e-01	0	25	0	753926144	70	4638
2026-01-06 14:36:31.38	323.58	6.77	-51.0	-53.1	15.2	6.01e-01	0	25	0	759693312	70	4679
2026-01-06 14:36:34.36	324.04	6.64	-51.0	-53.0	15.2	6.01e-01	0	26	0	765460480	70	4646
2026-01-06 14:36:37.35	324.50	6.52	-51.0	-53.0	15.2	6.01e-01	0	26	0	770703360	70	4644
2026-01-06 14:36:40.34	324.95	6.39	-51.1	-53.2	15.2	6.00e-01	0	25	0	776470528	70	4735
2026-01-06 14:36:43.34	325.40	6.26	-51.2	-53.3	15.2	5.98e-01	0	25	0	782237696	70	4784
2026-01-06 14:36:46.35	325.85	6.13	-51.3	-53.4	15.1	6.03e-01	0	26	0	788004864	70	4863
2026-01-06 14:36:49.34	326.29	6.00	-51.1	-53.3	15.2	6.01e-01	0	25	0	793247744	70	4763
2026-01-06 14:36:52.34	326.73	5.87	-51.4	-53.5	15.1	6.03e-01	0	25	0	799014912	70	4921
2026-01-06 14:36:55.35	327.16	5.74	-51.0	-53.2	15.2	6.06e-01	0	25	0	804782080	70	4727
2026-01-06 14:36:58.34	327.59	5.61	-51.1	-53.3	15.2	6.04e-01	0	25	0	810024960	70	4812
2026-01-06 14:37:01.35	328.02	5.48	-51.4	-53.6	15.0	6.01e-01	0	26	0	815792128	70	4972
2026-01-06 14:37:04.34	328.44	5.34	-51.3	-53.6	15.0	6.02e-01	0	25	0	821559296	70	4954
2026-01-06 14:37:07.35	328.86	5.21	-51.3	-53.4	15.1	6.01e-01	0	25	0	827326464	70	4865
2026-01-06 14:37:10.34	329.27	5.08	-51.4	-53.7	15.0	6.03e-01	0	26	0	832569344	70	4984
2026-01-06 14:37:13.35	329.68	4.94	-58.0	-75.9	3.6	7.50e-01	0	26	104	837812224	83	30471
2026-01-06 14:37:16.34	330.08	4.81	-59.1	-78.4	3.7	7.46e-01	0	26	104	837812224	85	36373
2026-01-06 14:37:19.34	330.49	4.67	-59.6	-79.0	3.8	7.46e-01	0	25	104	837812224	86	36563
2026-01-06 14:37:22.34	330.88	4.54	-59.8	-79.2	3.8	7.44e-01	0	26	104	837812224	87	35436
2026-01-06 14:37:25.34	331.28	4.40	-59.9	-79.3	3.8	7.49e-01	0	26	104	837812224	87	35922
2026-01-06 14:37:28.32	331.67	4.27	-60.0	-79.4	3.8	7.47e-01	0	26	104	837812224	87	36230
2026-01-06 14:37:31.32	332.05	4.13	-60.0	-79.4	3.8	7.48e-01	0	25	104	837812224	87	36294
2026-01-06 14:37:34.31	332.43	4.00	-60.0	-79.4	3.8	7.46e-01	0	26	104	837812224	87	36409
2026-01-06 14:37:37.30	332.81	3.86	-59.9	-79.3	3.8	7.46e-01	0	26	104	837812224	87	35964
2026-01-06 14:37:40.28	333.18	3.73	-59.9	-79.3	3.8	7.47e-01	0	26	104	837812224	87	35865
2026-01-06 14:37:43.28	333.55	3.59	-59.9	-79.2	3.8	7.43e-01	0	26	104	837812224	87	35678
2026-01-06 14:37:46.27	333.92	3.46	-59.8	-79.2	3.8	7.50e-01	0	26	104	837812224	87	35572
2026-01-06 14:37:49.27	334.29	3.32	-59.8	-79.2	3.8	7.44e-01	0	26	104	837812224	87	35541
2026-01-06 14:37:52.26	334.65	3.18	-59.8	-79.2	3.8	7.48e-01	0	26	104	837812224	87	35450
2026-01-06 14:37:55.25	335.00	3.05	-59.8	-79.2	3.8	7.46e-01	0	26	104	837812224	87	35436
2026-01-06 14:37:58.25	335.36	2.91	-59.8	-79.2	3.8	7.46e-01	0	26	104	837812224	87	35326
2026-01-06 14:38:01.26	335.71	2.77	-59.8	-79.2	3.8	7.50e-01	0	26	104	837812224	87	35297
2026-01-06 14:38:04.26	336.05	2.64	-59.7	-79.2	3.8	7.46e-01	0	26	104	837812224	87	35296
2026-01-06 14:38:07.27	336.40	2.50	-59.8	-79.2	3.8	7.50e-01	0	26	104	837812224	87	35290
2026-01-06 14:38:10.27	336.74	2.36	-59.7	-79.1	3.8	7.43e-01	0	26	104	837812224	87	35109
2026-01-06 14:38:13.27	337.08	2.22	-59.7	-79.1	3.8	7.47e-01	0	26	104	837812224	87	35195
2026-01-06 14:38:16.28	337.41	2.09	-59.7	-79.1	3.8	7.46e-01	0	26	104	837812224	87	35163

#Closed at: 2026-01-06 14:38:19
#Recorded file [837 MB]: D:/lorett/data/31004_260106_172847.dat