passes_logs/2026/01/06/R3.2S_Murmansk/R3.2S_Murmansk__20260106_073815_NOAA_20_JPSS-1_rec.log

#Pass ID: 20260106_073815_NOAA 20 (JPSS-1)
#Satellite: NOAA 20 (JPSS-1)
#Configuration: NOAA 20
#almurnet v.1.7.20251203
#Start time: 2026-01-06 07:38:17

#Version: 2.2.20231116
#Station: R3.2S_Murmansk
#Location: 33.079688 lon 68.888172 lat
#TLE: 1 43013U 17073A   26005.46207808  .00000128  00000+0  81791-4 0  9997
#TLE: 2 43013  98.7627 306.5027 0001826  53.0458 307.0885 14.19533487421381

#Time	Az	El	Level	Level2	SNR	BER	BlckErr	Temp	State	Recorded	gain1	gain2
2026-01-06 07:38:17.77	108.34	2.13	-58.0	-74.0	3.8	1.49e+00	0	24	0	0	81	23772
2026-01-06 07:38:21.79	108.17	2.38	-58.0	-74.0	3.8	1.49e+00	0	24	104	0	81	23787
2026-01-06 07:38:25.80	108.00	2.63	-58.0	-74.0	3.8	1.49e+00	0	24	104	0	81	23585
2026-01-06 07:38:29.81	107.83	2.88	-58.0	-73.9	3.8	1.49e+00	0	24	104	0	81	23484
2026-01-06 07:38:33.82	107.66	3.13	-58.0	-73.9	3.8	1.49e+00	0	25	104	0	81	23374
2026-01-06 07:38:37.82	107.48	3.39	-58.0	-73.7	3.8	1.49e+00	0	25	104	0	81	22925
2026-01-06 07:38:41.82	107.30	3.64	-58.0	-73.5	3.8	1.49e+00	0	25	104	0	81	22375
2026-01-06 07:38:45.82	107.12	3.90	-58.0	-74.0	3.8	1.49e+00	0	25	104	0	81	23765
2026-01-06 07:38:49.82	106.93	4.17	-57.9	-72.2	3.8	1.49e+00	0	25	104	0	81	19244
2026-01-06 07:38:53.81	106.74	4.43	-57.7	-68.6	4.9	7.85e-01	0	25	0	3145728	81	12679
2026-01-06 07:38:57.80	106.54	4.69	-57.4	-65.7	6.7	1.85e-01	0	25	0	10485760	81	9090
2026-01-06 07:39:01.78	106.35	4.96	-57.1	-64.3	7.9	3.48e-02	0	25	0	17825792	80	8212
2026-01-06 07:39:05.76	106.14	5.23	-57.3	-65.2	7.4	5.10e-02	0	25	0	25165824	80	9075
2026-01-06 07:39:09.78	105.94	5.51	-56.1	-60.4	11.4	2.13e-05	0	25	0	32505856	78	5916
2026-01-06 07:39:13.76	105.73	5.78	-55.5	-59.4	11.9	6.10e-06	0	25	0	39845888	77	5565
2026-01-06 07:39:17.74	105.51	6.06	-55.1	-58.6	12.4	7.00e-07	0	25	0	48234496	76	5400
2026-01-06 07:39:21.73	105.30	6.34	-54.2	-57.2	13.2	0.00e+00	0	26	0	55574528	75	4821
2026-01-06 07:39:25.71	105.07	6.62	-54.2	-57.0	13.2	0.00e+00	0	25	0	62914560	74	5036
2026-01-06 07:39:29.68	104.85	6.90	-54.1	-57.0	13.3	0.00e+00	0	26	0	70254592	74	5001
2026-01-06 07:39:33.65	104.61	7.19	-53.8	-56.4	13.6	0.00e+00	0	26	0	77594624	74	4697
2026-01-06 07:39:37.65	104.38	7.48	-53.6	-56.2	13.6	0.00e+00	0	26	0	84934656	73	4846
2026-01-06 07:39:41.63	104.13	7.77	-53.8	-56.5	13.5	0.00e+00	0	25	0	92274688	73	4995
2026-01-06 07:39:45.61	103.89	8.07	-53.8	-56.4	13.6	0.00e+00	0	26	0	99614720	73	4958
2026-01-06 07:39:49.58	103.64	8.37	-53.8	-56.4	13.5	0.00e+00	0	26	0	108003328	73	4977
2026-01-06 07:39:53.56	103.38	8.67	-53.9	-56.6	13.5	0.00e+00	0	26	0	115343360	73	5063
2026-01-06 07:39:57.52	103.12	8.97	-53.7	-56.2	13.7	0.00e+00	0	26	0	122683392	73	4816
2026-01-06 07:40:01.51	102.85	9.28	-54.0	-56.7	13.4	0.00e+00	0	26	0	130023424	73	5101
2026-01-06 07:40:05.51	102.57	9.60	-54.0	-56.7	13.4	0.00e+00	0	26	0	137363456	73	5110
2026-01-06 07:40:09.49	102.29	9.91	-53.8	-56.3	13.6	0.00e+00	0	26	0	144703488	73	4910
2026-01-06 07:40:13.46	102.00	10.23	-53.5	-55.9	13.9	0.00e+00	0	26	0	152043520	73	4671
2026-01-06 07:40:17.45	101.70	10.55	-53.6	-56.0	13.8	0.00e+00	0	26	0	159383552	73	4723
2026-01-06 07:40:21.44	101.40	10.88	-53.5	-55.9	13.9	0.00e+00	0	26	0	167772160	73	4700
2026-01-06 07:40:25.40	101.09	11.20	-53.3	-55.6	14.1	0.00e+00	0	26	0	175112192	73	4520
2026-01-06 07:40:29.39	100.78	11.54	-53.4	-55.7	14.0	0.00e+00	0	26	0	182452224	73	4564
2026-01-06 07:40:33.35	100.45	11.87	-53.3	-55.6	14.1	0.00e+00	0	26	0	189792256	73	4510
2026-01-06 07:40:37.34	100.12	12.21	-53.2	-55.4	14.2	0.00e+00	0	26	0	197132288	73	4440
2026-01-06 07:40:41.31	99.78	12.55	-53.3	-55.6	14.0	0.00e+00	0	26	0	204472320	72	4770
2026-01-06 07:40:45.29	99.44	12.90	-53.1	-55.3	14.1	0.00e+00	0	26	0	211812352	72	4634
2026-01-06 07:40:49.27	99.08	13.25	-53.1	-55.2	14.2	0.00e+00	0	26	0	219152384	72	4581
2026-01-06 07:40:53.25	98.71	13.60	-53.0	-55.1	14.3	0.00e+00	0	26	0	226492416	72	4513
2026-01-06 07:40:57.25	98.34	13.97	-52.8	-54.9	14.4	0.00e+00	0	26	0	234881024	72	4428
2026-01-06 07:41:01.25	97.95	14.33	-53.0	-55.1	14.3	0.00e+00	0	26	0	242221056	72	4506
2026-01-06 07:41:05.24	97.56	14.70	-52.9	-54.9	14.4	0.00e+00	0	26	0	249561088	72	4432
2026-01-06 07:41:09.25	97.15	15.07	-52.8	-54.9	14.4	0.00e+00	0	26	0	256901120	72	4401
2026-01-06 07:41:13.24	96.73	15.45	-52.8	-54.8	14.4	0.00e+00	0	26	0	264241152	72	4367
2026-01-06 07:41:17.24	96.31	15.83	-52.7	-54.7	14.4	0.00e+00	0	26	0	271581184	71	4563
2026-01-06 07:41:21.23	95.87	16.21	-52.6	-54.6	14.4	0.00e+00	0	26	0	278921216	71	4538
2026-01-06 07:41:25.22	95.42	16.60	-52.7	-54.8	14.3	0.00e+00	0	26	0	287309824	71	4607
2026-01-06 07:41:29.22	94.96	17.00	-52.7	-54.7	14.4	0.00e+00	0	26	0	294649856	71	4561
2026-01-06 07:41:33.20	94.48	17.40	-52.7	-54.7	14.4	0.00e+00	0	26	0	301989888	71	4549
2026-01-06 07:41:37.17	94.00	17.80	-52.8	-54.8	14.3	0.00e+00	0	26	0	309329920	71	4644
2026-01-06 07:41:41.17	93.49	18.20	-52.8	-54.9	14.3	0.00e+00	0	26	0	316669952	71	4661
2026-01-06 07:41:45.18	92.98	18.62	-53.0	-55.0	14.2	0.00e+00	0	26	0	324009984	71	4753
2026-01-06 07:41:49.15	92.45	19.03	-53.0	-55.1	14.2	0.00e+00	0	26	0	331350016	71	4773
2026-01-06 07:41:53.14	91.91	19.45	-53.1	-55.2	14.2	0.00e+00	0	26	0	339738624	71	4824
2026-01-06 07:41:57.12	91.35	19.87	-53.2	-55.4	14.0	0.00e+00	0	26	0	347078656	71	4963
2026-01-06 07:42:01.10	90.77	20.30	-53.2	-55.4	14.0	0.00e+00	0	26	0	354418688	71	4959
2026-01-06 07:42:05.08	90.18	20.73	-53.3	-55.4	14.1	0.00e+00	0	26	0	361758720	71	4964
2026-01-06 07:42:09.06	89.57	21.17	-52.9	-54.9	14.3	0.00e+00	0	26	0	369098752	71	4703
2026-01-06 07:42:13.06	88.94	21.61	-52.8	-54.8	14.4	0.00e+00	0	26	0	376438784	71	4601
2026-01-06 07:42:17.01	88.30	22.05	-52.9	-54.9	14.3	0.00e+00	0	26	0	383778816	71	4652
2026-01-06 07:42:21.00	87.64	22.50	-52.7	-54.7	14.4	0.00e+00	0	26	0	391118848	71	4569
2026-01-06 07:42:24.99	86.95	22.95	-52.7	-54.7	14.4	0.00e+00	0	26	0	398458880	71	4546
2026-01-06 07:42:28.97	86.25	23.41	-52.8	-54.7	14.4	0.00e+00	0	26	0	406847488	71	4595
2026-01-06 07:42:32.96	85.52	23.87	-52.8	-54.7	14.4	0.00e+00	0	26	0	414187520	71	4576
2026-01-06 07:42:36.92	84.78	24.32	-52.9	-54.9	14.3	0.00e+00	0	26	0	421527552	71	4678
2026-01-06 07:42:40.91	84.01	24.79	-53.3	-55.5	14.0	0.00e+00	0	26	0	428867584	71	5003
2026-01-06 07:42:44.89	83.21	25.25	-53.8	-56.1	13.9	0.00e+00	0	26	0	436207616	72	5044
2026-01-06 07:42:48.87	82.40	25.72	-53.9	-56.2	13.9	0.00e+00	0	26	0	443547648	73	4861
2026-01-06 07:42:52.84	81.56	26.19	-54.3	-56.8	13.6	0.00e+00	0	26	0	450887680	73	5177
2026-01-06 07:42:56.82	80.69	26.66	-53.9	-56.2	13.9	0.00e+00	0	26	0	458227712	73	4838
2026-01-06 07:43:00.80	79.80	27.13	-54.0	-56.3	13.9	0.00e+00	0	26	0	466616320	73	4910
2026-01-06 07:43:04.78	78.88	27.60	-54.1	-56.4	13.8	0.00e+00	0	26	0	473956352	73	4982
2026-01-06 07:43:08.76	77.93	28.07	-54.1	-56.5	13.8	0.00e+00	0	26	0	481296384	73	5015
2026-01-06 07:43:12.72	76.96	28.54	-54.0	-56.4	13.8	0.00e+00	0	26	0	488636416	73	4934
2026-01-06 07:43:16.72	75.95	29.01	-53.9	-56.2	13.9	0.00e+00	0	26	0	495976448	73	4850
2026-01-06 07:43:20.68	74.92	29.47	-53.8	-56.1	14.0	0.00e+00	0	26	0	503316480	73	4769
2026-01-06 07:43:24.65	73.86	29.93	-53.9	-56.1	14.0	0.00e+00	0	26	0	510656512	73	4797
2026-01-06 07:43:28.63	72.76	30.39	-54.0	-56.4	13.9	0.00e+00	0	26	0	517996544	73	4929
2026-01-06 07:43:32.61	71.63	30.84	-55.1	-57.9	13.2	0.00e+00	0	26	0	525336576	75	5273
2026-01-06 07:43:36.59	70.47	31.29	-55.4	-58.4	12.8	0.00e+00	0	26	0	533725184	75	5590
2026-01-06 07:43:40.58	69.27	31.73	-55.8	-59.0	12.6	0.00e+00	0	26	0	541065216	76	5608
2026-01-06 07:43:44.56	68.05	32.16	-56.0	-59.4	12.5	0.00e+00	0	26	0	548405248	77	5559
2026-01-06 07:43:48.55	66.79	32.58	-56.4	-60.1	12.0	1.50e-06	0	26	0	555745280	77	5998
2026-01-06 07:43:52.55	65.49	33.00	-56.8	-60.9	11.4	1.60e-05	0	26	0	563085312	78	6258
2026-01-06 07:43:56.56	64.16	33.40	-56.9	-61.2	11.4	4.57e-05	0	26	0	570425344	79	6089
2026-01-06 07:44:00.55	62.80	33.79	-55.9	-59.1	12.8	7.00e-07	0	26	0	577765376	78	5090
2026-01-06 07:44:04.54	61.40	34.16	-55.5	-58.4	13.1	0.00e+00	0	26	0	585105408	77	4980
2026-01-06 07:44:08.53	59.98	34.52	-55.1	-57.8	13.4	0.00e+00	0	26	0	593494016	76	4921
2026-01-06 07:44:12.50	58.53	34.86	-53.8	-56.0	14.2	0.00e+00	0	26	0	600834048	74	4473
2026-01-06 07:44:16.51	57.04	35.19	-53.6	-55.7	14.3	0.00e+00	0	26	0	608174080	73	4550
2026-01-06 07:44:20.49	55.53	35.49	-53.4	-55.5	14.4	0.00e+00	0	26	0	615514112	73	4444
2026-01-06 07:44:24.48	53.98	35.77	-53.2	-55.2	14.5	0.00e+00	0	26	0	622854144	73	4307
2026-01-06 07:44:28.47	52.41	36.04	-52.9	-54.8	14.5	0.00e+00	0	26	0	630194176	72	4352
2026-01-06 07:44:32.46	50.82	36.28	-52.5	-54.2	14.7	0.00e+00	0	26	0	637534208	71	4334
2026-01-06 07:44:36.44	49.21	36.49	-51.9	-53.5	14.9	0.00e+00	0	26	0	645922816	70	4242
2026-01-06 07:44:40.43	47.57	36.68	-52.0	-53.7	14.8	0.00e+00	0	26	0	653262848	70	4337
2026-01-06 07:44:44.43	45.92	36.84	-51.8	-53.4	14.9	0.00e+00	0	26	0	660602880	70	4176
2026-01-06 07:44:48.42	44.25	36.98	-51.4	-53.0	15.0	0.00e+00	0	26	0	667942912	69	4213
2026-01-06 07:44:52.42	42.56	37.09	-51.9	-53.5	14.7	0.00e+00	0	26	0	675282944	69	4471
2026-01-06 07:44:56.43	40.86	37.17	-52.2	-53.9	14.6	0.00e+00	0	26	0	682622976	69	4704
2026-01-06 07:45:00.41	39.17	37.23	-53.1	-55.0	14.3	0.00e+00	0	26	0	689963008	71	4756
2026-01-06 07:45:04.40	37.47	37.25	-53.1	-55.0	14.3	0.00e+00	0	26	0	698351616	71	4743
2026-01-06 07:45:08.40	35.76	37.25	-53.0	-54.9	14.4	0.00e+00	0	26	0	705691648	71	4681
2026-01-06 07:45:12.39	34.06	37.21	-53.4	-55.5	14.2	0.00e+00	0	26	0	713031680	72	4724
2026-01-06 07:45:16.40	32.35	37.15	-53.3	-55.2	14.3	0.00e+00	0	26	0	720371712	72	4591
2026-01-06 07:45:20.41	30.66	37.06	-54.0	-56.3	14.0	0.00e+00	0	26	0	727711744	73	4897
2026-01-06 07:45:24.42	28.97	36.94	-54.3	-56.6	13.9	0.00e+00	0	26	0	735051776	74	4774
2026-01-06 07:45:28.42	27.30	36.79	-54.3	-56.7	13.9	0.00e+00	0	26	0	742391808	74	4825
2026-01-06 07:45:32.43	25.65	36.62	-54.5	-56.9	13.8	0.00e+00	0	26	0	750780416	74	4951
2026-01-06 07:45:36.44	24.01	36.42	-54.7	-57.2	13.6	0.00e+00	0	26	0	758120448	74	5159
2026-01-06 07:45:40.45	22.40	36.20	-54.4	-56.8	13.8	0.00e+00	0	26	0	765460480	74	4883
2026-01-06 07:45:44.46	20.81	35.95	-53.8	-55.9	14.3	0.00e+00	0	26	0	772800512	74	4406
2026-01-06 07:45:48.46	19.25	35.68	-53.1	-55.1	14.4	0.00e+00	0	26	0	780140544	72	4500
2026-01-06 07:45:52.46	17.71	35.39	-53.0	-54.9	14.5	0.00e+00	0	26	0	787480576	72	4412
2026-01-06 07:45:56.46	16.20	35.07	-52.4	-54.1	14.8	0.00e+00	0	26	0	795869184	71	4289
2026-01-06 07:46:00.47	14.72	34.74	-53.0	-54.9	14.4	0.00e+00	0	26	0	803209216	71	4663
2026-01-06 07:46:04.49	13.27	34.39	-53.3	-55.3	14.2	0.00e+00	0	26	0	810549248	71	4880
2026-01-06 07:46:08.50	11.85	34.03	-54.4	-56.8	13.8	0.00e+00	0	26	0	817889280	74	4894
2026-01-06 07:46:12.51	10.47	33.65	-54.0	-56.2	14.1	0.00e+00	0	26	0	825229312	74	4587
2026-01-06 07:46:16.53	9.11	33.25	-54.1	-56.3	14.1	0.00e+00	0	26	0	833617920	74	4620
2026-01-06 07:46:20.53	7.80	32.84	-54.1	-56.4	14.0	0.00e+00	0	26	0	840957952	74	4660
2026-01-06 07:46:24.55	6.51	32.43	-54.0	-56.2	14.2	0.00e+00	0	26	0	848297984	74	4554
2026-01-06 07:46:28.55	5.26	32.00	-54.0	-56.2	14.1	0.00e+00	0	26	0	855638016	74	4587
2026-01-06 07:46:32.58	4.03	31.56	-54.3	-56.6	13.9	0.00e+00	0	26	0	862978048	74	4810
2026-01-06 07:46:36.60	2.84	31.11	-54.4	-56.7	13.8	0.00e+00	0	26	0	870318080	74	4862
2026-01-06 07:46:40.61	1.69	30.66	-54.5	-57.0	13.7	0.00e+00	0	26	0	878706688	74	4990
2026-01-06 07:46:44.62	0.57	30.21	-54.6	-57.0	13.6	0.00e+00	0	26	0	886046720	74	5030
2026-01-06 07:46:48.64	359.48	29.74	-54.2	-56.5	14.0	0.00e+00	0	26	0	893386752	74	4723
2026-01-06 07:46:52.66	358.42	29.28	-53.8	-55.9	14.3	0.00e+00	0	26	0	900726784	74	4417
2026-01-06 07:46:56.67	357.39	28.81	-53.4	-55.4	14.4	0.00e+00	0	26	0	908066816	73	4421
2026-01-06 07:47:00.68	356.40	28.34	-53.1	-55.1	14.4	0.00e+00	0	26	0	915406848	72	4507
2026-01-06 07:47:04.69	355.43	27.86	-52.9	-54.9	14.6	0.00e+00	0	26	0	923795456	72	4393
2026-01-06 07:47:08.70	354.49	27.39	-52.7	-54.5	14.7	0.00e+00	0	26	0	931135488	72	4233
2026-01-06 07:47:12.72	353.58	26.92	-52.4	-54.2	14.7	0.00e+00	0	26	0	938475520	71	4294
2026-01-06 07:47:16.73	352.69	26.45	-52.3	-54.0	14.8	0.00e+00	0	26	0	945815552	71	4212
2026-01-06 07:47:20.75	351.83	25.97	-52.2	-54.0	14.8	0.00e+00	0	26	0	953155584	71	4199
2026-01-06 07:47:24.76	351.00	25.50	-52.2	-54.0	14.6	0.00e+00	0	26	0	961544192	70	4470
2026-01-06 07:47:28.77	350.19	25.03	-52.3	-54.1	14.6	0.00e+00	0	26	0	968884224	70	4500
2026-01-06 07:47:32.78	349.41	24.57	-52.4	-54.2	14.6	0.00e+00	0	26	0	976224256	70	4569
2026-01-06 07:47:36.78	348.65	24.10	-52.3	-54.1	14.6	0.00e+00	0	26	0	983564288	70	4537
2026-01-06 07:47:40.81	347.91	23.64	-52.1	-53.8	14.7	0.00e+00	0	26	0	990904320	70	4388
2026-01-06 07:47:44.82	347.19	23.18	-52.3	-54.1	14.6	0.00e+00	0	26	0	998244352	70	4501
2026-01-06 07:47:48.84	346.49	22.73	-52.6	-54.4	14.4	0.00e+00	0	26	0	1006632960	70	4689
2026-01-06 07:47:52.85	345.82	22.28	-52.8	-54.8	14.3	0.00e+00	0	26	0	1013972992	70	4889
2026-01-06 07:47:56.87	345.16	21.83	-53.0	-55.0	14.3	0.00e+00	0	26	0	1021313024	71	4734
2026-01-06 07:48:00.88	344.52	21.38	-53.5	-55.6	14.1	0.00e+00	0	26	0	1028653056	72	4809
2026-01-06 07:48:04.88	343.91	20.95	-53.6	-55.8	14.0	0.00e+00	0	26	0	1035993088	72	4875
2026-01-06 07:48:08.89	343.31	20.51	-53.2	-55.3	14.3	0.00e+00	0	26	0	1043333120	72	4611
2026-01-06 07:48:12.91	342.72	20.08	-53.3	-55.4	14.2	0.00e+00	0	26	0	1051721728	72	4690
2026-01-06 07:48:16.91	342.16	19.65	-53.4	-55.5	14.2	0.00e+00	0	26	0	1059061760	72	4722
2026-01-06 07:48:20.94	341.60	19.23	-53.3	-55.4	14.2	0.00e+00	0	26	0	1066401792	72	4681
2026-01-06 07:48:24.96	341.07	18.81	-53.1	-55.0	14.4	0.00e+00	0	26	0	1073741824	72	4493
2026-01-06 07:48:28.94	340.55	18.40	-53.1	-55.1	14.3	0.00e+00	0	26	0	1081081856	72	4540
2026-01-06 07:48:32.95	340.04	17.99	-53.3	-55.4	14.2	0.00e+00	0	26	0	1088421888	72	4666
2026-01-06 07:48:36.93	339.55	17.59	-53.0	-55.0	14.4	0.00e+00	0	26	0	1096810496	72	4476
2026-01-06 07:48:40.93	339.07	17.19	-53.2	-55.3	14.2	0.00e+00	0	26	0	1104150528	72	4613
2026-01-06 07:48:44.94	338.61	16.79	-53.2	-55.3	14.2	0.00e+00	0	26	0	1111490560	72	4636
2026-01-06 07:48:48.93	338.16	16.40	-53.2	-55.3	14.2	0.00e+00	0	26	0	1118830592	72	4608
2026-01-06 07:48:52.93	337.71	16.01	-53.2	-55.3	14.2	0.00e+00	0	26	0	1126170624	72	4643
2026-01-06 07:48:56.95	337.28	15.63	-53.3	-55.4	14.2	0.00e+00	0	26	0	1133510656	72	4658
2026-01-06 07:49:00.94	336.86	15.25	-53.1	-55.2	14.3	0.00e+00	0	26	0	1140850688	72	4581
2026-01-06 07:49:04.95	336.46	14.88	-53.1	-55.2	14.3	0.00e+00	0	26	0	1149239296	72	4552
2026-01-06 07:49:08.96	336.06	14.51	-53.2	-55.3	14.2	0.00e+00	0	26	0	1156579328	72	4642
2026-01-06 07:49:12.95	335.67	14.14	-53.4	-55.6	14.0	0.00e+00	0	26	0	1163919360	72	4760
2026-01-06 07:49:16.96	335.29	13.78	-53.6	-55.9	13.9	0.00e+00	0	26	0	1171259392	72	4973
2026-01-06 07:49:20.97	334.92	13.42	-53.6	-55.9	13.9	1.50e-06	0	26	0	1178599424	72	4963
2026-01-06 07:49:24.98	334.56	13.07	-53.6	-55.9	13.9	0.00e+00	0	26	0	1185939456	72	4936
2026-01-06 07:49:28.98	334.21	12.72	-53.6	-55.9	13.9	0.00e+00	0	26	0	1194328064	72	4957
2026-01-06 07:49:32.99	333.87	12.38	-53.7	-56.1	13.7	0.00e+00	0	26	0	1201668096	72	5076
2026-01-06 07:49:36.99	333.54	12.03	-54.0	-56.4	13.7	0.00e+00	0	26	0	1209008128	73	4969
2026-01-06 07:49:41.01	333.21	11.69	-54.3	-57.0	13.3	0.00e+00	0	26	0	1216348160	73	5307
2026-01-06 07:49:45.00	332.89	11.36	-54.3	-57.0	13.3	0.00e+00	0	26	0	1223688192	73	5311
2026-01-06 07:49:48.99	332.58	11.03	-54.2	-56.8	13.5	0.00e+00	0	26	0	1231028224	73	5170
2026-01-06 07:49:53.00	332.28	10.70	-54.2	-56.8	13.4	0.00e+00	0	26	0	1239416832	73	5184
2026-01-06 07:49:57.02	331.98	10.38	-54.4	-57.2	13.2	3.81e-05	0	26	0	1246756864	73	5411
2026-01-06 07:50:01.03	331.69	10.06	-54.5	-57.3	13.2	0.00e+00	0	26	0	1254096896	74	5185
2026-01-06 07:50:05.04	331.41	9.74	-54.6	-57.5	13.1	0.00e+00	0	26	0	1261436928	74	5326
2026-01-06 07:50:09.05	331.13	9.43	-54.5	-57.3	13.2	0.00e+00	0	26	0	1268776960	74	5205
2026-01-06 07:50:13.06	330.86	9.12	-54.6	-57.6	13.0	0.00e+00	0	26	0	1276116992	74	5358
2026-01-06 07:50:17.07	330.59	8.81	-54.6	-57.6	13.0	0.00e+00	0	26	0	1284505600	74	5350
2026-01-06 07:50:21.06	330.33	8.51	-54.6	-57.6	13.0	0.00e+00	0	26	0	1291845632	74	5386
2026-01-06 07:50:25.07	330.08	8.20	-54.8	-58.0	12.7	0.00e+00	0	26	0	1299185664	74	5610
2026-01-06 07:50:29.06	329.83	7.91	-54.8	-58.0	12.8	0.00e+00	0	26	0	1306525696	75	5295
2026-01-06 07:50:33.06	329.59	7.61	-54.9	-58.1	12.7	0.00e+00	0	26	0	1313865728	75	5370
2026-01-06 07:50:37.04	329.36	7.32	-54.9	-58.2	12.6	0.00e+00	0	26	0	1321205760	75	5441
2026-01-06 07:50:41.03	329.12	7.03	-55.0	-58.5	12.4	7.00e-07	0	26	0	1328545792	75	5605
2026-01-06 07:50:45.02	328.90	6.75	-55.0	-58.6	12.3	7.00e-07	0	26	0	1336934400	75	5713
2026-01-06 07:50:49.00	328.68	6.47	-55.0	-58.6	12.4	0.00e+00	0	26	0	1344274432	75	5677
2026-01-06 07:50:52.98	328.46	6.19	-54.9	-58.5	12.4	0.00e+00	0	26	0	1351614464	75	5595
2026-01-06 07:50:56.97	328.25	5.91	-55.0	-58.7	12.2	0.00e+00	0	26	0	1358954496	75	5744
2026-01-06 07:51:00.94	328.04	5.64	-54.9	-58.4	12.4	0.00e+00	0	26	0	1366294528	75	5580
2026-01-06 07:51:04.94	327.83	5.36	-54.9	-58.4	12.4	7.00e-07	0	26	0	1373634560	75	5566
2026-01-06 07:51:08.93	327.63	5.09	-54.7	-58.0	12.7	1.50e-06	0	26	0	1380974592	75	5303
2026-01-06 07:51:12.94	327.43	4.82	-59.1	-75.2	3.8	1.49e+00	0	26	104	1385168896	83	24152
2026-01-06 07:51:16.96	327.24	4.55	-60.0	-76.0	3.8	1.49e+00	0	26	104	1385168896	85	23781
2026-01-06 07:51:20.97	327.05	4.29	-60.2	-76.3	3.8	1.49e+00	0	26	104	1385168896	85	24609
2026-01-06 07:51:25.00	326.86	4.03	-60.4	-76.5	3.8	1.49e+00	0	26	104	1385168896	85	25009
2026-01-06 07:51:29.01	326.68	3.77	-60.5	-76.6	3.8	1.49e+00	0	26	104	1385168896	86	23858
2026-01-06 07:51:33.02	326.50	3.51	-60.4	-76.5	3.8	1.49e+00	0	26	104	1385168896	86	23728
2026-01-06 07:51:37.01	326.33	3.25	-60.4	-76.5	3.8	1.49e+00	0	26	104	1385168896	86	23658
2026-01-06 07:51:40.99	326.15	3.00	-60.4	-76.5	3.8	1.49e+00	0	26	104	1385168896	86	23595
2026-01-06 07:51:44.97	325.99	2.75	-60.3	-76.4	3.8	1.49e+00	0	26	104	1385168896	86	23492
2026-01-06 07:51:48.98	325.82	2.50	-60.3	-76.4	3.8	1.49e+00	0	26	104	1385168896	86	23498
2026-01-06 07:51:52.97	325.66	2.26	-60.3	-76.4	3.8	1.49e+00	0	26	104	1385168896	86	23417
2026-01-06 07:51:56.97	325.50	2.01	-60.3	-76.4	3.8	1.49e+00	0	26	104	1385168896	86	23317

#Closed at: 2026-01-06 07:51:59
#Recorded file [1385 MB]: D:/lorett/data/31004_260106_103817.dat