passes_logs/2026/01/06/R3.2S_Murmansk/R3.2S_Murmansk__20260106_042030_NOAA_20_JPSS-1_rec.log

#Pass ID: 20260106_042030_NOAA 20 (JPSS-1)
#Satellite: NOAA 20 (JPSS-1)
#Configuration: NOAA 20
#almurnet v.1.7.20251203
#Start time: 2026-01-06 04:20:33

#Version: 2.2.20231116
#Station: R3.2S_Murmansk
#Location: 33.079688 lon 68.888172 lat
#TLE: 1 43013U 17073A   26005.46207808  .00000128  00000+0  81791-4 0  9997
#TLE: 2 43013  98.7627 306.5027 0001826  53.0458 307.0885 14.19533487421381

#Time	Az	El	Level	Level2	SNR	BER	BlckErr	Temp	State	Recorded	gain1	gain2
2026-01-06 04:20:33.15	50.92	2.13	-57.9	-73.9	3.8	1.49e+00	0	24	0	0	82	22214
2026-01-06 04:20:37.13	50.68	2.36	-57.9	-73.9	3.8	1.49e+00	0	24	104	0	80	24780
2026-01-06 04:20:41.12	50.42	2.59	-57.8	-73.8	3.8	1.49e+00	0	25	104	0	80	24675
2026-01-06 04:20:45.10	50.17	2.82	-57.8	-73.9	3.8	1.49e+00	0	24	104	0	80	24702
2026-01-06 04:20:49.08	49.90	3.05	-57.9	-73.9	3.8	1.49e+00	0	25	104	0	80	24760
2026-01-06 04:20:53.08	49.64	3.29	-57.8	-73.8	3.8	1.49e+00	0	25	104	0	80	24623
2026-01-06 04:20:57.06	49.37	3.52	-57.9	-73.8	3.8	1.49e+00	0	25	104	0	80	24658
2026-01-06 04:21:01.06	49.09	3.76	-57.9	-73.8	3.8	1.49e+00	0	25	104	0	80	24686
2026-01-06 04:21:05.07	48.81	4.00	-57.9	-73.8	3.8	1.49e+00	0	25	104	0	80	24524
2026-01-06 04:21:09.06	48.52	4.24	-57.8	-73.7	3.8	1.49e+00	0	25	104	0	80	24335
2026-01-06 04:21:13.08	48.23	4.49	-57.8	-71.9	3.8	1.49e+00	0	25	104	0	80	19725
2026-01-06 04:21:17.08	47.94	4.73	-57.6	-68.4	4.9	8.00e-01	0	25	0	2097152	80	13206
2026-01-06 04:21:21.10	47.63	4.98	-57.3	-66.4	6.1	3.10e-01	0	25	0	9437184	80	10424
2026-01-06 04:21:25.11	47.33	5.23	-57.7	-71.8	3.8	6.61e-01	0	25	104	16777216	80	19542
2026-01-06 04:21:29.12	47.01	5.47	-55.6	-59.7	11.6	3.73e-05	0	25	0	23068672	77	5741
2026-01-06 04:21:33.13	46.70	5.73	-54.9	-58.2	12.6	7.00e-07	0	25	0	30408704	76	5156
2026-01-06 04:21:37.13	46.37	5.98	-54.5	-57.7	12.9	0.00e+00	0	25	0	37748736	75	5138
2026-01-06 04:21:41.12	46.04	6.23	-54.6	-57.7	12.9	0.00e+00	0	26	0	45088768	75	5146
2026-01-06 04:21:45.11	45.71	6.48	-54.5	-57.6	13.0	0.00e+00	0	26	0	53477376	75	5068
2026-01-06 04:21:49.08	45.37	6.74	-54.6	-57.7	12.9	0.00e+00	0	26	0	60817408	75	5140
2026-01-06 04:21:53.08	45.02	6.99	-54.4	-57.4	13.1	0.00e+00	0	26	0	68157440	75	4952
2026-01-06 04:21:57.09	44.67	7.25	-54.4	-57.3	13.2	7.00e-07	0	26	0	75497472	75	4894
2026-01-06 04:22:01.10	44.31	7.52	-54.4	-57.3	13.2	0.00e+00	0	26	0	82837504	75	4888
2026-01-06 04:22:05.12	43.94	7.78	-54.5	-57.4	13.1	0.00e+00	0	26	0	90177536	75	4979
2026-01-06 04:22:09.12	43.56	8.04	-54.4	-57.3	13.3	0.00e+00	0	26	0	98566144	75	4879
2026-01-06 04:22:13.12	43.18	8.31	-54.4	-57.2	13.3	0.00e+00	0	26	0	105906176	75	4836
2026-01-06 04:22:17.12	42.79	8.58	-54.5	-57.4	13.2	0.00e+00	0	26	0	113246208	75	4978
2026-01-06 04:22:21.12	42.40	8.84	-54.4	-57.2	13.4	0.00e+00	0	26	0	120586240	75	4825
2026-01-06 04:22:25.13	41.99	9.12	-54.4	-57.3	13.3	0.00e+00	0	26	0	127926272	75	4871
2026-01-06 04:22:29.13	41.58	9.39	-54.0	-56.6	13.6	0.00e+00	0	26	0	135266304	74	4772
2026-01-06 04:22:33.13	41.16	9.66	-53.9	-56.4	13.7	0.00e+00	0	26	0	142606336	74	4663
2026-01-06 04:22:37.12	40.73	9.93	-53.8	-56.3	13.8	0.00e+00	0	26	0	150994944	74	4633
2026-01-06 04:22:41.10	40.30	10.21	-54.0	-56.5	13.6	0.00e+00	0	26	0	158334976	74	4740
2026-01-06 04:22:45.09	39.85	10.48	-54.0	-56.5	13.7	0.00e+00	0	26	0	165675008	74	4755
2026-01-06 04:22:49.08	39.40	10.76	-54.1	-56.7	13.6	0.00e+00	0	26	0	173015040	74	4850
2026-01-06 04:22:53.08	38.94	11.04	-54.1	-56.7	13.6	0.00e+00	0	26	0	180355072	74	4840
2026-01-06 04:22:57.08	38.47	11.32	-54.0	-56.5	13.7	0.00e+00	0	26	0	187695104	74	4744
2026-01-06 04:23:01.08	37.98	11.61	-54.0	-56.5	13.7	0.00e+00	0	26	0	195035136	74	4720
2026-01-06 04:23:05.09	37.49	11.89	-53.9	-56.3	13.8	0.00e+00	0	26	0	203423744	74	4641
2026-01-06 04:23:09.08	36.99	12.18	-53.8	-56.3	13.9	0.00e+00	0	26	0	210763776	74	4603
2026-01-06 04:23:13.08	36.48	12.46	-53.6	-56.0	13.9	0.00e+00	0	26	0	218103808	73	4710
2026-01-06 04:23:17.08	35.96	12.75	-53.6	-55.8	14.0	0.00e+00	0	26	0	225443840	73	4648
2026-01-06 04:23:21.08	35.43	13.04	-53.5	-55.8	14.0	0.00e+00	0	26	0	232783872	73	4638
2026-01-06 04:23:25.08	34.89	13.33	-53.5	-55.7	14.1	0.00e+00	0	26	0	240123904	73	4598
2026-01-06 04:23:29.07	34.33	13.62	-53.4	-55.6	14.2	0.00e+00	0	26	0	248512512	73	4505
2026-01-06 04:23:33.07	33.77	13.91	-53.2	-55.3	14.2	0.00e+00	0	26	0	255852544	72	4630
2026-01-06 04:23:37.05	33.20	14.20	-53.3	-55.5	14.1	0.00e+00	0	26	0	263192576	72	4751
2026-01-06 04:23:41.04	32.61	14.49	-53.1	-55.2	14.3	0.00e+00	0	26	0	270532608	72	4547
2026-01-06 04:23:45.04	32.01	14.78	-53.1	-55.1	14.3	0.00e+00	0	26	0	277872640	72	4542
2026-01-06 04:23:49.02	31.40	15.07	-53.4	-55.6	14.0	0.00e+00	0	26	0	285212672	72	4769
2026-01-06 04:23:53.01	30.78	15.36	-53.4	-55.5	14.1	0.00e+00	0	26	0	292552704	72	4750
2026-01-06 04:23:56.99	30.15	15.65	-53.4	-55.6	14.0	0.00e+00	0	26	0	299892736	72	4768
2026-01-06 04:24:00.98	29.50	15.94	-53.5	-55.7	14.0	0.00e+00	0	26	0	308281344	72	4847
2026-01-06 04:24:04.98	28.84	16.24	-53.5	-55.8	14.0	0.00e+00	0	26	0	315621376	72	4873
2026-01-06 04:24:08.98	28.16	16.53	-53.5	-55.8	14.0	0.00e+00	0	26	0	322961408	72	4882
2026-01-06 04:24:12.97	27.48	16.82	-53.7	-56.0	13.9	0.00e+00	0	26	0	330301440	72	4989
2026-01-06 04:24:16.97	26.77	17.11	-53.6	-55.8	13.9	0.00e+00	0	26	0	337641472	72	4918
2026-01-06 04:24:20.95	26.06	17.39	-53.7	-55.9	13.9	0.00e+00	0	26	0	344981504	72	4980
2026-01-06 04:24:24.94	25.33	17.68	-53.6	-55.9	13.9	0.00e+00	0	26	0	352321536	72	4967
2026-01-06 04:24:28.93	24.59	17.97	-53.5	-55.8	14.0	0.00e+00	0	26	0	360710144	72	4874
2026-01-06 04:24:32.93	23.83	18.25	-53.6	-55.8	14.0	0.00e+00	0	26	0	368050176	72	4884
2026-01-06 04:24:36.92	23.06	18.53	-53.5	-55.7	14.0	0.00e+00	0	26	0	375390208	72	4835
2026-01-06 04:24:40.89	22.28	18.81	-53.0	-55.0	14.4	0.00e+00	0	26	0	382730240	72	4463
2026-01-06 04:24:44.86	21.48	19.08	-52.8	-54.7	14.5	0.00e+00	0	26	0	390070272	72	4335
2026-01-06 04:24:48.85	20.67	19.36	-52.1	-53.9	14.6	0.00e+00	0	26	0	397410304	70	4399
2026-01-06 04:24:52.83	19.84	19.63	-51.9	-53.6	14.8	0.00e+00	0	26	0	404750336	70	4286
2026-01-06 04:24:56.82	19.00	19.89	-51.8	-53.5	14.8	0.00e+00	0	26	0	412090368	70	4226
2026-01-06 04:25:00.81	18.14	20.15	-51.8	-53.5	14.8	0.00e+00	0	26	0	420478976	70	4217
2026-01-06 04:25:04.81	17.26	20.41	-51.6	-53.3	14.8	0.00e+00	0	26	0	427819008	69	4357
2026-01-06 04:25:08.81	16.37	20.67	-51.5	-53.1	14.9	0.00e+00	0	26	0	435159040	69	4249
2026-01-06 04:25:12.81	15.46	20.92	-51.4	-53.0	14.9	0.00e+00	0	26	0	442499072	69	4220
2026-01-06 04:25:16.81	14.54	21.16	-51.5	-53.1	14.9	0.00e+00	0	26	0	449839104	69	4270
2026-01-06 04:25:20.80	13.61	21.40	-51.6	-53.2	14.8	0.00e+00	0	26	0	457179136	69	4313
2026-01-06 04:25:24.78	12.66	21.63	-51.7	-53.4	14.7	0.00e+00	0	26	0	464519168	69	4407
2026-01-06 04:25:28.78	11.70	21.86	-51.8	-53.5	14.7	0.00e+00	0	26	0	472907776	69	4458
2026-01-06 04:25:32.76	10.73	22.07	-51.5	-53.1	14.9	0.00e+00	0	26	0	480247808	69	4276
2026-01-06 04:25:36.75	9.74	22.29	-51.2	-52.8	15.0	0.00e+00	0	26	0	487587840	69	4123
2026-01-06 04:25:40.72	8.74	22.49	-51.2	-52.8	14.9	0.00e+00	0	26	0	494927872	68	4363
2026-01-06 04:25:44.70	7.72	22.68	-51.2	-52.8	14.9	0.00e+00	0	26	0	502267904	68	4361
2026-01-06 04:25:48.67	6.70	22.87	-51.1	-52.6	14.9	0.00e+00	0	26	0	509607936	68	4260
2026-01-06 04:25:52.66	5.66	23.05	-50.9	-52.4	15.0	0.00e+00	0	26	0	516947968	68	4151
2026-01-06 04:25:56.64	4.61	23.22	-51.3	-52.8	14.9	0.00e+00	0	26	0	524288000	68	4385
2026-01-06 04:26:00.64	3.54	23.38	-51.6	-53.2	14.7	0.00e+00	0	26	0	531628032	68	4566
2026-01-06 04:26:04.64	2.47	23.53	-51.6	-53.2	14.7	0.00e+00	0	26	0	540016640	68	4586
2026-01-06 04:26:08.63	1.38	23.67	-52.0	-53.7	14.6	0.00e+00	0	26	0	547356672	69	4590
2026-01-06 04:26:12.62	0.29	23.80	-52.5	-54.3	14.4	0.00e+00	0	26	0	554696704	70	4636
2026-01-06 04:26:16.62	359.18	23.92	-52.5	-54.3	14.5	0.00e+00	0	26	0	562036736	70	4637
2026-01-06 04:26:20.63	358.06	24.02	-52.6	-54.4	14.4	0.00e+00	0	26	0	569376768	70	4691
2026-01-06 04:26:24.63	356.94	24.12	-53.0	-54.9	14.3	0.00e+00	0	26	0	576716800	71	4705
2026-01-06 04:26:28.61	355.82	24.20	-53.0	-54.9	14.3	0.00e+00	0	26	0	585105408	71	4674
2026-01-06 04:26:32.60	354.69	24.28	-53.4	-55.5	14.2	0.00e+00	0	26	0	592445440	72	4711
2026-01-06 04:26:36.60	353.55	24.34	-53.0	-54.9	14.5	0.00e+00	0	26	0	599785472	72	4413
2026-01-06 04:26:40.58	352.42	24.38	-52.9	-54.9	14.5	0.00e+00	0	26	0	607125504	72	4394
2026-01-06 04:26:44.58	351.27	24.42	-53.0	-54.9	14.5	0.00e+00	0	26	0	614465536	72	4407
2026-01-06 04:26:48.56	350.13	24.44	-52.9	-54.9	14.5	0.00e+00	0	26	0	621805568	72	4392
2026-01-06 04:26:52.55	348.98	24.45	-52.6	-54.5	14.5	0.00e+00	0	26	0	629145600	71	4470
2026-01-06 04:26:56.54	347.84	24.45	-52.7	-54.6	14.5	0.00e+00	0	26	0	636485632	71	4516
2026-01-06 04:27:00.52	346.69	24.44	-52.2	-53.9	14.8	0.00e+00	0	26	0	644874240	71	4164
2026-01-06 04:27:04.52	345.55	24.41	-52.1	-53.8	14.7	0.00e+00	0	26	0	652214272	70	4374
2026-01-06 04:27:08.53	344.40	24.37	-51.9	-53.5	14.8	0.00e+00	0	26	0	659554304	70	4226
2026-01-06 04:27:12.50	343.27	24.32	-51.3	-52.9	15.0	0.00e+00	0	26	0	666894336	69	4150
2026-01-06 04:27:16.49	342.13	24.26	-51.2	-52.7	14.9	0.00e+00	0	26	0	674234368	68	4340
2026-01-06 04:27:20.48	341.00	24.18	-50.8	-52.3	15.1	0.00e+00	0	26	0	681574400	68	4104
2026-01-06 04:27:24.47	339.88	24.10	-50.8	-52.3	15.1	0.00e+00	0	26	0	688914432	68	4126
2026-01-06 04:27:28.47	338.76	24.00	-50.9	-52.4	15.0	0.00e+00	0	26	0	697303040	68	4185
2026-01-06 04:27:32.47	337.65	23.89	-50.9	-52.4	15.0	0.00e+00	0	26	0	704643072	68	4171
2026-01-06 04:27:36.47	336.54	23.77	-51.0	-52.6	15.0	0.00e+00	0	26	0	711983104	68	4255
2026-01-06 04:27:40.47	335.45	23.63	-51.4	-53.0	14.8	0.00e+00	0	26	0	719323136	68	4446
2026-01-06 04:27:44.45	334.37	23.49	-51.6	-53.3	14.7	0.00e+00	0	26	0	726663168	68	4611
2026-01-06 04:27:48.44	333.29	23.34	-51.9	-53.5	14.6	0.00e+00	0	26	0	734003200	68	4755
2026-01-06 04:27:52.44	332.23	23.18	-52.1	-53.8	14.6	0.00e+00	0	26	0	741343232	69	4620
2026-01-06 04:27:56.43	331.18	23.01	-52.3	-54.1	14.5	0.00e+00	0	26	0	749731840	69	4770
2026-01-06 04:28:00.41	330.14	22.83	-52.5	-54.4	14.5	0.00e+00	0	26	0	757071872	70	4653
2026-01-06 04:28:04.41	329.12	22.64	-52.6	-54.4	14.5	0.00e+00	0	26	0	764411904	70	4661
2026-01-06 04:28:08.41	328.10	22.44	-52.7	-54.6	14.4	0.00e+00	0	26	0	771751936	70	4770
2026-01-06 04:28:12.42	327.10	22.23	-53.1	-55.0	14.3	0.00e+00	0	26	0	779091968	71	4755
2026-01-06 04:28:16.39	326.11	22.02	-53.0	-54.9	14.3	0.00e+00	0	26	0	786432000	71	4679
2026-01-06 04:28:20.37	325.14	21.80	-52.9	-54.8	14.4	0.00e+00	0	26	0	793772032	71	4636
2026-01-06 04:28:24.37	324.18	21.57	-53.1	-55.1	14.3	0.00e+00	0	26	0	802160640	71	4792
2026-01-06 04:28:28.37	323.24	21.34	-52.9	-54.8	14.4	0.00e+00	0	26	0	809500672	71	4605
2026-01-06 04:28:32.36	322.31	21.10	-52.8	-54.7	14.4	0.00e+00	0	26	0	816840704	71	4568
2026-01-06 04:28:36.35	321.39	20.85	-52.6	-54.4	14.6	0.00e+00	0	26	0	824180736	71	4417
2026-01-06 04:28:40.33	320.49	20.60	-52.5	-54.3	14.6	0.00e+00	0	26	0	831520768	71	4343
2026-01-06 04:28:44.33	319.60	20.35	-52.4	-54.2	14.6	0.00e+00	0	26	0	838860800	71	4313
2026-01-06 04:28:48.31	318.74	20.09	-52.5	-54.3	14.7	0.00e+00	0	26	0	846200832	71	4342
2026-01-06 04:28:52.29	317.88	19.83	-52.3	-54.0	14.7	0.00e+00	0	26	0	853540864	71	4229
2026-01-06 04:28:56.26	317.04	19.56	-52.2	-54.0	14.8	0.00e+00	0	26	0	861929472	71	4200
2026-01-06 04:29:00.25	316.22	19.29	-52.4	-54.1	14.7	0.00e+00	0	26	0	869269504	71	4290
2026-01-06 04:29:04.24	315.41	19.02	-52.5	-54.3	14.6	0.00e+00	0	26	0	876609536	71	4346
2026-01-06 04:29:08.23	314.61	18.74	-52.5	-54.3	14.6	0.00e+00	0	26	0	883949568	71	4352
2026-01-06 04:29:12.24	313.82	18.46	-52.6	-54.4	14.6	0.00e+00	0	26	0	891289600	71	4417
2026-01-06 04:29:16.24	313.05	18.17	-52.4	-54.2	14.7	0.00e+00	0	26	0	898629632	71	4340
2026-01-06 04:29:20.22	312.30	17.89	-52.2	-54.0	14.8	0.00e+00	0	26	0	905969664	71	4206
2026-01-06 04:29:24.20	311.56	17.61	-52.2	-54.0	14.6	0.00e+00	0	26	0	913309696	70	4463
2026-01-06 04:29:28.20	310.84	17.32	-51.9	-53.6	14.8	0.00e+00	0	26	0	921698304	70	4280
2026-01-06 04:29:32.19	310.13	17.03	-51.7	-53.4	14.9	0.00e+00	0	26	0	929038336	70	4160
2026-01-06 04:29:36.17	309.43	16.74	-51.9	-53.6	14.8	0.00e+00	0	26	0	936378368	70	4252
2026-01-06 04:29:40.17	308.74	16.45	-51.8	-53.5	14.8	0.00e+00	0	26	0	943718400	70	4231
2026-01-06 04:29:44.16	308.07	16.16	-51.4	-53.0	14.9	0.00e+00	0	26	0	951058432	69	4211
2026-01-06 04:29:48.15	307.42	15.87	-51.6	-53.2	14.8	0.00e+00	0	26	0	958398464	69	4327
2026-01-06 04:29:52.12	306.77	15.58	-51.7	-53.3	14.7	0.00e+00	0	26	0	965738496	69	4377
2026-01-06 04:29:56.11	306.14	15.29	-51.6	-53.2	14.8	0.00e+00	0	26	0	974127104	69	4328
2026-01-06 04:30:00.10	305.52	15.00	-51.6	-53.3	14.8	0.00e+00	0	26	0	981467136	69	4350
2026-01-06 04:30:04.09	304.92	14.70	-51.8	-53.5	14.7	0.00e+00	0	26	0	988807168	69	4452
2026-01-06 04:30:08.08	304.32	14.41	-51.8	-53.5	14.7	0.00e+00	0	26	0	996147200	69	4491
2026-01-06 04:30:12.06	303.74	14.12	-52.2	-54.0	14.5	0.00e+00	0	26	0	1003487232	69	4721
2026-01-06 04:30:16.06	303.16	13.83	-52.5	-54.3	14.4	0.00e+00	0	26	0	1010827264	70	4633
2026-01-06 04:30:20.05	302.60	13.54	-52.3	-54.2	14.5	0.00e+00	0	26	0	1018167296	70	4558
2026-01-06 04:30:24.06	302.05	13.25	-52.2	-54.0	14.5	0.00e+00	0	26	0	1026555904	70	4484
2026-01-06 04:30:28.06	301.51	12.96	-52.6	-54.5	14.4	0.00e+00	0	26	0	1033895936	70	4711
2026-01-06 04:30:32.04	300.98	12.67	-52.8	-54.8	14.2	0.00e+00	0	26	0	1041235968	70	4890
2026-01-06 04:30:36.04	300.46	12.39	-52.7	-54.7	14.3	0.00e+00	0	26	0	1048576000	70	4820
2026-01-06 04:30:40.03	299.96	12.10	-52.8	-54.8	14.2	0.00e+00	0	26	0	1055916032	70	4921
2026-01-06 04:30:44.01	299.46	11.82	-52.9	-54.9	14.1	0.00e+00	0	26	0	1063256064	70	4946
2026-01-06 04:30:48.01	298.97	11.54	-52.9	-54.9	14.2	0.00e+00	0	26	0	1070596096	71	4690
2026-01-06 04:30:51.98	298.50	11.25	-53.1	-55.2	14.1	0.00e+00	0	26	0	1077936128	71	4832
2026-01-06 04:30:55.97	298.03	10.97	-53.2	-55.4	14.0	0.00e+00	0	26	0	1086324736	71	4962
2026-01-06 04:30:59.96	297.57	10.70	-53.2	-55.3	14.0	0.00e+00	0	26	0	1093664768	71	4915
2026-01-06 04:31:03.94	297.12	10.42	-53.3	-55.4	14.0	0.00e+00	0	26	0	1101004800	71	4975
2026-01-06 04:31:07.94	296.67	10.14	-53.4	-55.6	13.9	0.00e+00	0	26	0	1108344832	71	5049
2026-01-06 04:31:11.93	296.24	9.87	-53.7	-56.0	13.8	0.00e+00	0	26	0	1115684864	72	5003
2026-01-06 04:31:15.93	295.81	9.59	-53.8	-56.3	13.7	0.00e+00	0	26	0	1123024896	72	5161
2026-01-06 04:31:19.91	295.40	9.32	-53.7	-56.1	13.7	0.00e+00	0	26	0	1130364928	72	5042
2026-01-06 04:31:23.91	294.98	9.05	-54.1	-56.6	13.5	0.00e+00	0	26	0	1138753536	73	5066
2026-01-06 04:31:27.91	294.58	8.78	-54.3	-57.0	13.3	0.00e+00	0	26	0	1146093568	73	5305
2026-01-06 04:31:31.91	294.19	8.51	-54.4	-57.1	13.4	0.00e+00	0	26	0	1153433600	74	5053
2026-01-06 04:31:35.89	293.80	8.25	-54.3	-56.9	13.5	0.00e+00	0	26	0	1160773632	74	4972
2026-01-06 04:31:39.87	293.42	7.98	-54.2	-56.8	13.5	0.00e+00	0	26	0	1168113664	74	4910
2026-01-06 04:31:43.87	293.05	7.72	-54.2	-56.9	13.5	0.00e+00	0	26	0	1175453696	74	4942
2026-01-06 04:31:47.86	292.68	7.46	-54.5	-57.3	13.2	0.00e+00	0	26	0	1182793728	74	5178
2026-01-06 04:31:51.85	292.32	7.20	-54.6	-57.5	13.1	0.00e+00	0	26	0	1190133760	74	5315
2026-01-06 04:31:55.84	291.97	6.94	-54.7	-57.6	13.0	0.00e+00	0	26	0	1198522368	74	5379
2026-01-06 04:31:59.82	291.62	6.68	-54.7	-57.6	13.0	0.00e+00	0	26	0	1205862400	74	5370
2026-01-06 04:32:03.80	291.29	6.43	-54.8	-57.8	12.8	0.00e+00	0	26	0	1213202432	74	5518
2026-01-06 04:32:07.81	290.95	6.17	-55.2	-58.5	12.5	7.00e-07	0	26	0	1220542464	75	5643
2026-01-06 04:32:11.81	290.62	5.92	-55.0	-58.2	12.6	0.00e+00	0	26	0	1227882496	75	5461
2026-01-06 04:32:15.80	290.30	5.67	-55.1	-58.4	12.5	0.00e+00	0	26	0	1235222528	75	5560
2026-01-06 04:32:19.78	289.98	5.42	-55.2	-58.7	12.3	0.00e+00	0	26	0	1242562560	75	5740
2026-01-06 04:32:23.77	289.67	5.17	-55.1	-58.6	12.4	7.00e-07	0	26	0	1250951168	75	5667
2026-01-06 04:32:27.76	289.37	4.93	-59.0	-74.9	3.8	1.49e+00	0	26	104	1256194048	83	23395
2026-01-06 04:32:31.77	289.07	4.68	-59.8	-75.9	3.8	1.49e+00	0	27	104	1256194048	84	24755
2026-01-06 04:32:35.76	288.77	4.44	-60.1	-76.2	3.8	1.49e+00	0	27	104	1256194048	85	24179
2026-01-06 04:32:39.77	288.48	4.20	-60.2	-76.3	3.8	1.49e+00	0	27	104	1256194048	85	24675
2026-01-06 04:32:43.76	288.20	3.96	-60.4	-76.5	3.8	1.49e+00	0	27	104	1256194048	85	25029
2026-01-06 04:32:47.74	287.92	3.72	-60.5	-76.6	3.8	1.49e+00	0	27	104	1256194048	86	23906
2026-01-06 04:32:51.75	287.64	3.48	-60.5	-76.6	3.8	1.49e+00	0	26	104	1256194048	86	23876
2026-01-06 04:32:55.73	287.37	3.24	-60.4	-76.5	3.8	1.49e+00	0	27	104	1256194048	86	23774
2026-01-06 04:32:59.72	287.10	3.01	-60.3	-76.4	3.8	1.49e+00	0	27	104	1256194048	86	23469
2026-01-06 04:33:03.70	286.84	2.78	-60.3	-76.4	3.8	1.49e+00	0	27	104	1256194048	86	23404
2026-01-06 04:33:07.69	286.59	2.54	-60.3	-76.4	3.8	1.49e+00	0	27	104	1256194048	86	23323
2026-01-06 04:33:11.69	286.33	2.31	-60.3	-76.4	3.8	1.49e+00	0	27	104	1256194048	86	23352
2026-01-06 04:33:15.68	286.08	2.08	-60.3	-76.3	3.8	1.49e+00	0	27	104	1256194048	86	23274

#Closed at: 2026-01-06 04:33:17
#Recorded file [1256 MB]: D:/lorett/data/31004_260106_072032.dat