passes_logs/2026/01/06/R3.2S_Murmansk/R3.2S_Murmansk__20260106_091743_NOAA_20_JPSS-1_rec.log

#Pass ID: 20260106_091743_NOAA 20 (JPSS-1)
#Satellite: NOAA 20 (JPSS-1)
#Configuration: NOAA 20
#almurnet v.1.7.20251203
#Start time: 2026-01-06 09:17:45

#Version: 2.2.20231116
#Station: R3.2S_Murmansk
#Location: 33.079688 lon 68.888172 lat
#TLE: 1 43013U 17073A   26005.46207808  .00000128  00000+0  81791-4 0  9997
#TLE: 2 43013  98.7627 306.5027 0001826  53.0458 307.0885 14.19533487421381

#Time	Az	El	Level	Level2	SNR	BER	BlckErr	Temp	State	Recorded	gain1	gain2
2026-01-06 09:17:45.53	146.24	2.12	-58.0	-74.1	3.8	1.49e+00	0	25	0	0	81	23889
2026-01-06 09:17:49.51	146.23	2.37	-58.1	-74.0	3.8	1.49e+00	0	25	104	0	81	23805
2026-01-06 09:17:53.48	146.22	2.63	-58.1	-74.0	3.8	1.49e+00	0	26	104	0	81	23728
2026-01-06 09:17:57.46	146.20	2.90	-58.1	-74.0	3.8	1.49e+00	0	26	104	0	81	23621
2026-01-06 09:18:01.45	146.19	3.16	-58.1	-73.9	3.8	1.49e+00	0	26	104	0	81	23384
2026-01-06 09:18:05.43	146.18	3.43	-58.1	-73.7	3.8	1.49e+00	0	26	104	0	81	22986
2026-01-06 09:18:09.41	146.16	3.70	-58.0	-73.2	3.8	1.49e+00	0	26	104	0	81	21600
2026-01-06 09:18:13.36	146.14	3.97	-57.8	-68.8	4.8	1.13e+00	0	26	0	0	81	12972
2026-01-06 09:18:17.35	146.13	4.25	-56.6	-62.3	9.6	1.14e-02	0	26	0	7340032	79	6908
2026-01-06 09:18:21.33	146.11	4.53	-55.8	-60.3	11.2	8.69e-05	0	26	0	15728640	78	5789
2026-01-06 09:18:25.32	146.09	4.81	-55.1	-58.8	12.1	0.00e+00	0	26	0	23068672	76	5492
2026-01-06 09:18:29.29	146.08	5.09	-55.9	-60.4	11.0	9.00e-05	0	27	0	30408704	76	6581
2026-01-06 09:18:33.29	146.06	5.38	-56.0	-60.3	11.2	5.58e-03	0	26	0	37748736	78	5837
2026-01-06 09:18:37.25	146.04	5.67	-55.4	-59.1	12.0	2.20e-06	0	26	0	45088768	76	5676
2026-01-06 09:18:41.21	146.02	5.96	-55.2	-58.5	12.5	7.00e-07	0	27	0	52428800	76	5289
2026-01-06 09:18:45.18	146.00	6.26	-55.2	-58.5	12.5	0.00e+00	0	27	0	59768832	76	5329
2026-01-06 09:18:49.15	145.98	6.56	-55.2	-58.6	12.5	0.00e+00	0	27	0	67108864	76	5350
2026-01-06 09:18:53.13	145.95	6.86	-54.9	-57.9	13.0	0.00e+00	0	27	0	74448896	76	4958
2026-01-06 09:18:57.07	145.93	7.17	-54.9	-57.9	13.0	0.00e+00	0	27	0	81788928	76	4972
2026-01-06 09:19:01.02	145.91	7.48	-55.0	-58.1	12.9	0.00e+00	0	27	0	90177536	76	5048
2026-01-06 09:19:04.99	145.88	7.79	-54.8	-57.7	13.2	0.00e+00	0	27	0	97517568	76	4847
2026-01-06 09:19:08.96	145.86	8.11	-54.8	-57.6	13.2	0.00e+00	0	27	0	104857600	76	4783
2026-01-06 09:19:12.93	145.83	8.43	-54.7	-57.5	13.3	0.00e+00	0	27	0	112197632	76	4743
2026-01-06 09:19:16.90	145.81	8.76	-54.5	-57.1	13.4	0.00e+00	0	27	0	119537664	75	4809
2026-01-06 09:19:20.86	145.78	9.09	-54.5	-57.2	13.4	0.00e+00	0	27	0	126877696	75	4870
2026-01-06 09:19:24.83	145.75	9.43	-54.6	-57.3	13.3	0.00e+00	0	27	0	134217728	75	4920
2026-01-06 09:19:28.81	145.72	9.77	-54.4	-57.1	13.5	0.00e+00	0	27	0	141557760	75	4766
2026-01-06 09:19:32.78	145.69	10.11	-54.5	-57.2	13.4	0.00e+00	0	27	0	148897792	75	4836
2026-01-06 09:19:36.76	145.66	10.46	-54.3	-56.9	13.6	0.00e+00	0	27	0	156237824	75	4669
2026-01-06 09:19:40.73	145.63	10.82	-54.2	-56.7	13.7	0.00e+00	0	27	0	164626432	75	4560
2026-01-06 09:19:44.70	145.59	11.18	-54.1	-56.5	13.7	0.00e+00	0	27	0	171966464	74	4740
2026-01-06 09:19:48.67	145.56	11.54	-54.1	-56.5	13.7	0.00e+00	0	27	0	179306496	74	4755
2026-01-06 09:19:52.64	145.52	11.92	-54.0	-56.4	13.8	0.00e+00	0	27	0	186646528	74	4656
2026-01-06 09:19:56.60	145.48	12.29	-54.1	-56.4	13.8	0.00e+00	0	27	0	193986560	74	4700
2026-01-06 09:20:00.57	145.44	12.67	-53.9	-56.2	13.9	0.00e+00	0	27	0	201326592	74	4585
2026-01-06 09:20:04.54	145.40	13.06	-53.8	-56.0	14.0	0.00e+00	0	27	0	208666624	74	4462
2026-01-06 09:20:08.51	145.36	13.46	-53.8	-56.0	13.9	0.00e+00	0	27	0	216006656	73	4720
2026-01-06 09:20:12.50	145.32	13.86	-53.6	-55.7	14.0	0.00e+00	0	27	0	223346688	73	4598
2026-01-06 09:20:16.47	145.27	14.27	-53.5	-55.6	14.1	0.00e+00	0	27	0	230686720	73	4533
2026-01-06 09:20:20.43	145.23	14.68	-53.4	-55.5	14.2	0.00e+00	0	27	0	239075328	73	4469
2026-01-06 09:20:24.41	145.18	15.11	-53.3	-55.3	14.3	0.00e+00	0	27	0	246415360	73	4381
2026-01-06 09:20:28.39	145.13	15.54	-53.1	-55.1	14.2	0.00e+00	0	27	0	253755392	72	4517
2026-01-06 09:20:32.35	145.08	15.97	-53.1	-55.1	14.3	0.00e+00	0	27	0	261095424	72	4498
2026-01-06 09:20:36.32	145.02	16.42	-53.0	-54.9	14.4	0.00e+00	0	27	0	268435456	72	4396
2026-01-06 09:20:40.29	144.97	16.87	-53.0	-54.9	14.4	0.00e+00	0	27	0	275775488	72	4415
2026-01-06 09:20:44.26	144.91	17.34	-52.8	-54.6	14.5	0.00e+00	0	27	0	283115520	72	4273
2026-01-06 09:20:48.22	144.85	17.81	-52.9	-54.7	14.5	0.00e+00	0	27	0	290455552	72	4338
2026-01-06 09:20:52.19	144.78	18.29	-52.6	-54.4	14.5	0.00e+00	0	28	0	297795584	71	4439
2026-01-06 09:20:56.17	144.72	18.78	-52.6	-54.4	14.5	0.00e+00	0	27	0	305135616	71	4418
2026-01-06 09:21:00.13	144.65	19.28	-52.4	-54.1	14.6	0.00e+00	0	27	0	312475648	71	4286
2026-01-06 09:21:04.11	144.58	19.79	-52.3	-54.1	14.6	0.00e+00	0	27	0	320864256	71	4254
2026-01-06 09:21:08.07	144.51	20.31	-52.2	-53.9	14.7	0.00e+00	0	28	0	328204288	71	4189
2026-01-06 09:21:12.06	144.43	20.84	-52.1	-53.8	14.6	0.00e+00	0	28	0	335544320	70	4381
2026-01-06 09:21:16.02	144.35	21.38	-52.1	-53.8	14.7	0.00e+00	0	28	0	342884352	70	4363
2026-01-06 09:21:20.01	144.27	21.94	-51.9	-53.6	14.7	0.00e+00	0	28	0	350224384	70	4259
2026-01-06 09:21:23.98	144.18	22.51	-51.9	-53.5	14.8	0.00e+00	0	28	0	357564416	70	4230
2026-01-06 09:21:27.95	144.09	23.09	-52.0	-53.6	14.7	0.00e+00	0	27	0	364904448	70	4278
2026-01-06 09:21:31.94	144.00	23.68	-51.9	-53.6	14.7	0.00e+00	0	28	0	372244480	70	4252
2026-01-06 09:21:35.90	143.90	24.29	-52.0	-53.7	14.7	0.00e+00	0	28	0	380633088	70	4292
2026-01-06 09:21:39.88	143.80	24.91	-52.2	-53.9	14.7	0.00e+00	0	27	0	387973120	70	4393
2026-01-06 09:21:43.86	143.69	25.55	-52.4	-54.1	14.5	0.00e+00	0	27	0	395313152	70	4523
2026-01-06 09:21:47.82	143.57	26.20	-52.5	-54.3	14.5	0.00e+00	0	27	0	402653184	70	4604
2026-01-06 09:21:51.79	143.46	26.87	-52.8	-54.6	14.3	0.00e+00	0	28	0	409993216	70	4807
2026-01-06 09:21:55.75	143.33	27.55	-53.0	-54.9	14.3	0.00e+00	0	28	0	417333248	71	4675
2026-01-06 09:21:59.72	143.20	28.25	-53.6	-55.6	14.1	0.00e+00	0	28	0	424673280	72	4787
2026-01-06 09:22:03.70	143.07	28.97	-54.0	-56.2	13.9	0.00e+00	0	28	0	432013312	73	4853
2026-01-06 09:22:07.65	142.92	29.70	-54.5	-56.9	13.7	0.00e+00	0	28	0	439353344	74	4949
2026-01-06 09:22:11.62	142.77	30.46	-54.7	-57.1	13.6	0.00e+00	0	27	0	446693376	74	5058
2026-01-06 09:22:15.60	142.61	31.24	-54.9	-57.3	13.6	0.00e+00	0	27	0	455081984	75	4915
2026-01-06 09:22:19.58	142.45	32.04	-54.9	-57.5	13.5	0.00e+00	0	27	0	462422016	75	4989
2026-01-06 09:22:23.54	142.27	32.86	-55.0	-57.5	13.5	0.00e+00	0	28	0	469762048	75	5018
2026-01-06 09:22:27.51	142.08	33.70	-54.9	-57.4	13.6	0.00e+00	0	27	0	477102080	75	4946
2026-01-06 09:22:31.48	141.89	34.57	-54.3	-56.5	14.0	0.00e+00	0	27	0	484442112	75	4481
2026-01-06 09:22:35.46	141.68	35.46	-53.7	-55.6	14.2	0.00e+00	0	28	0	491782144	73	4543
2026-01-06 09:22:39.43	141.46	36.38	-52.9	-54.7	14.5	0.00e+00	0	27	0	499122176	72	4300
2026-01-06 09:22:43.40	141.22	37.32	-52.7	-54.4	14.6	0.00e+00	0	28	0	506462208	71	4429
2026-01-06 09:22:47.37	140.97	38.29	-52.5	-54.2	14.6	0.00e+00	0	27	0	513802240	71	4331
2026-01-06 09:22:51.34	140.70	39.28	-52.7	-54.5	14.6	0.00e+00	0	27	0	521142272	71	4446
2026-01-06 09:22:55.31	140.42	40.31	-53.6	-55.6	14.2	0.00e+00	0	28	0	528482304	72	4786
2026-01-06 09:22:59.30	140.11	41.37	-53.9	-55.9	14.1	0.00e+00	0	27	0	536870912	73	4686
2026-01-06 09:23:03.26	139.79	42.45	-54.3	-56.6	13.8	0.00e+00	0	28	0	544210944	73	5068
2026-01-06 09:23:07.23	139.44	43.56	-54.3	-56.5	13.9	0.00e+00	0	28	0	551550976	74	4741
2026-01-06 09:23:11.21	139.06	44.71	-54.4	-56.6	13.9	0.00e+00	0	28	0	558891008	74	4783
2026-01-06 09:23:15.19	138.65	45.90	-54.7	-57.1	13.7	0.00e+00	0	28	0	566231040	74	5066
2026-01-06 09:23:19.17	138.21	47.11	-55.2	-57.9	13.4	0.00e+00	0	28	0	573571072	75	5227
2026-01-06 09:23:23.16	137.73	48.37	-56.0	-58.9	12.9	0.00e+00	0	28	0	580911104	77	5262
2026-01-06 09:23:27.13	137.21	49.65	-54.7	-56.9	14.0	0.00e+00	0	28	0	588251136	76	4439
2026-01-06 09:23:31.11	136.64	50.97	-52.9	-54.7	14.6	0.00e+00	0	28	0	596639744	72	4301
2026-01-06 09:23:35.08	136.02	52.32	-51.9	-53.5	14.9	0.00e+00	0	28	0	603979776	70	4194
2026-01-06 09:23:39.06	135.33	53.71	-52.1	-53.7	14.8	0.00e+00	0	28	0	611319808	70	4294
2026-01-06 09:23:43.02	134.58	55.13	-52.2	-53.8	14.7	0.00e+00	0	28	0	618659840	70	4361
2026-01-06 09:23:47.01	133.74	56.59	-53.3	-55.1	14.3	0.00e+00	0	28	0	625999872	71	4789
2026-01-06 09:23:50.99	132.81	58.07	-54.8	-57.2	13.7	0.00e+00	0	28	0	633339904	74	5123
2026-01-06 09:23:54.95	131.77	59.59	-54.8	-57.1	13.8	0.00e+00	0	28	0	640679936	75	4805
2026-01-06 09:23:58.91	130.60	61.12	-52.6	-54.3	14.6	0.00e+00	0	28	0	648019968	71	4390
2026-01-06 09:24:02.87	129.27	62.69	-51.6	-53.1	14.9	0.00e+00	0	28	0	655360000	69	4244
2026-01-06 09:24:06.84	127.75	64.27	-51.9	-53.5	14.8	0.00e+00	0	28	0	662700032	69	4452
2026-01-06 09:24:10.82	125.99	65.88	-53.1	-54.9	14.5	0.00e+00	0	28	0	671088640	71	4686
2026-01-06 09:24:14.80	123.96	67.49	-54.1	-56.2	14.1	0.00e+00	0	28	0	678428672	73	4837
2026-01-06 09:24:18.79	121.57	69.11	-53.1	-54.8	14.6	0.00e+00	0	28	0	685768704	72	4376
2026-01-06 09:24:22.76	118.76	70.71	-52.8	-54.5	14.6	0.00e+00	0	28	0	693108736	71	4469
2026-01-06 09:24:26.74	115.40	72.29	-53.0	-54.8	14.5	0.00e+00	0	28	0	700448768	71	4600
2026-01-06 09:24:30.70	111.38	73.80	-54.8	-57.0	13.8	0.00e+00	0	28	0	707788800	74	5023
2026-01-06 09:24:34.67	106.49	75.25	-55.5	-58.0	13.5	0.00e+00	0	28	0	715128832	76	5011
2026-01-06 09:24:38.65	100.52	76.59	-54.7	-56.9	14.1	0.00e+00	0	28	0	722468864	76	4411
2026-01-06 09:24:42.61	93.32	77.76	-54.0	-55.9	14.3	0.00e+00	0	28	0	729808896	74	4407
2026-01-06 09:24:46.57	84.71	78.71	-54.2	-56.2	14.1	0.00e+00	0	28	0	737148928	73	4865
2026-01-06 09:24:50.56	74.67	79.37	-54.5	-56.6	14.1	0.00e+00	0	28	0	745537536	74	4768
2026-01-06 09:24:54.51	63.77	79.68	-53.4	-55.1	14.6	0.00e+00	0	28	0	752877568	73	4291
2026-01-06 09:24:58.49	52.53	79.61	-52.3	-53.9	14.9	0.00e+00	0	28	0	760217600	71	4159
2026-01-06 09:25:02.46	41.89	79.15	-53.1	-54.8	14.6	0.00e+00	0	28	0	767557632	71	4613
2026-01-06 09:25:06.43	32.41	78.37	-54.1	-56.1	14.3	0.00e+00	0	28	0	774897664	73	4788
2026-01-06 09:25:10.42	24.31	77.32	-56.6	-59.6	12.9	0.00e+00	0	28	0	782237696	78	5402
2026-01-06 09:25:14.40	17.60	76.07	-56.4	-59.3	13.2	0.00e+00	0	29	0	789577728	79	4874
2026-01-06 09:25:18.38	12.09	74.68	-55.2	-57.5	14.0	0.00e+00	0	29	0	796917760	77	4469
2026-01-06 09:25:22.36	7.57	73.20	-53.4	-55.1	14.7	0.00e+00	0	29	0	804257792	73	4282
2026-01-06 09:25:26.33	3.83	71.66	-52.3	-53.9	15.0	0.00e+00	0	29	0	812646400	71	4146
2026-01-06 09:25:30.31	0.71	70.07	-53.7	-55.5	14.5	0.00e+00	0	29	0	819986432	72	4741
2026-01-06 09:25:34.28	358.09	68.47	-55.7	-58.1	13.7	0.00e+00	0	29	0	827326464	76	5088
2026-01-06 09:25:38.24	355.87	66.86	-55.6	-57.9	13.9	0.00e+00	0	29	0	834666496	77	4673
2026-01-06 09:25:42.21	353.96	65.26	-53.5	-55.2	14.7	0.00e+00	0	29	0	842006528	73	4316
2026-01-06 09:25:46.19	352.30	63.66	-52.1	-53.5	15.1	0.00e+00	0	29	0	849346560	70	4240
2026-01-06 09:25:50.16	350.86	62.09	-51.8	-53.3	15.1	0.00e+00	0	29	0	856686592	69	4341
2026-01-06 09:25:54.13	349.60	60.53	-53.6	-55.4	14.7	0.00e+00	0	29	0	864026624	72	4652
2026-01-06 09:25:58.11	348.48	59.00	-56.0	-58.5	13.7	0.00e+00	0	29	0	871366656	77	5028
2026-01-06 09:26:02.07	347.48	57.50	-55.6	-58.0	13.9	0.00e+00	0	29	0	878706688	77	4745
2026-01-06 09:26:06.03	346.60	56.04	-54.3	-56.2	14.6	0.00e+00	0	30	0	886046720	75	4325
2026-01-06 09:26:09.99	345.80	54.61	-52.6	-54.1	15.1	0.00e+00	0	30	0	894435328	71	4280
2026-01-06 09:26:13.94	345.08	53.21	-52.5	-54.0	15.1	0.00e+00	0	30	0	901775360	70	4468
2026-01-06 09:26:17.92	344.42	51.84	-52.8	-54.4	15.0	0.00e+00	0	30	0	909115392	70	4682
2026-01-06 09:26:21.89	343.82	50.51	-55.2	-57.4	14.1	0.00e+00	0	30	0	916455424	75	4958
2026-01-06 09:26:25.85	343.27	49.21	-56.5	-59.4	13.4	0.00e+00	0	30	0	923795456	78	5235
2026-01-06 09:26:29.83	342.77	47.94	-56.8	-59.7	13.3	0.00e+00	0	30	0	931135488	78	5439
2026-01-06 09:26:33.80	342.31	46.71	-56.1	-58.6	14.0	0.00e+00	0	30	0	938475520	78	4790
2026-01-06 09:26:37.78	341.88	45.51	-55.2	-57.3	14.6	0.00e+00	0	31	0	945815552	76	4610
2026-01-06 09:26:41.75	341.49	44.34	-56.4	-59.1	13.9	0.00e+00	0	31	0	953155584	77	5353
2026-01-06 09:26:45.73	341.12	43.21	-56.0	-58.4	14.3	0.00e+00	0	31	0	960495616	78	4672
2026-01-06 09:26:49.71	340.78	42.10	-55.6	-57.8	14.5	0.00e+00	0	31	0	968884224	77	4635
2026-01-06 09:26:53.68	340.46	41.03	-56.3	-59.0	14.0	0.00e+00	0	31	0	976224256	77	5291
2026-01-06 09:26:57.66	340.16	39.99	-56.5	-59.2	13.9	0.00e+00	0	31	0	983564288	78	5120
2026-01-06 09:27:01.63	339.89	38.98	-55.9	-58.3	14.5	0.00e+00	0	31	0	990904320	78	4613
2026-01-06 09:27:05.61	339.63	38.00	-56.0	-58.5	14.5	0.00e+00	0	31	0	998244352	78	4737
2026-01-06 09:27:09.59	339.38	37.04	-55.9	-58.3	14.5	0.00e+00	0	31	0	1005584384	78	4626
2026-01-06 09:27:13.55	339.16	36.11	-55.2	-57.3	14.9	0.00e+00	0	32	0	1012924416	76	4631
2026-01-06 09:27:17.54	338.94	35.20	-55.0	-57.1	14.8	0.00e+00	0	31	0	1020264448	76	4514
2026-01-06 09:27:21.51	338.74	34.32	-55.1	-57.2	14.7	0.00e+00	0	32	0	1027604480	76	4575
2026-01-06 09:27:25.49	338.54	33.47	-55.5	-57.8	14.3	0.00e+00	0	31	0	1035993088	76	4879
2026-01-06 09:27:29.47	338.36	32.63	-56.6	-59.6	13.3	0.00e+00	0	31	0	1043333120	78	5358
2026-01-06 09:27:33.43	338.19	31.83	-56.4	-59.1	13.6	0.00e+00	0	31	0	1050673152	78	5082
2026-01-06 09:27:37.42	338.03	31.03	-55.7	-58.1	14.1	0.00e+00	0	31	0	1058013184	78	4535
2026-01-06 09:27:41.40	337.87	30.26	-55.2	-57.5	14.3	0.00e+00	0	31	0	1065353216	77	4473
2026-01-06 09:27:45.37	337.73	29.52	-55.4	-57.7	14.2	0.00e+00	0	31	0	1072693248	77	4590
2026-01-06 09:27:49.35	337.59	28.79	-55.5	-57.9	14.0	0.00e+00	0	31	0	1080033280	77	4665
2026-01-06 09:27:53.33	337.45	28.07	-55.1	-57.4	14.2	0.00e+00	0	31	0	1087373312	76	4690
2026-01-06 09:27:57.29	337.33	27.38	-54.8	-57.0	14.3	0.00e+00	0	31	0	1095761920	76	4455
2026-01-06 09:28:01.27	337.21	26.71	-54.4	-56.5	14.4	0.00e+00	0	30	0	1103101952	75	4478
2026-01-06 09:28:05.24	337.09	26.05	-54.2	-56.3	14.6	0.00e+00	0	30	0	1110441984	75	4343
2026-01-06 09:28:09.21	336.98	25.40	-54.1	-56.0	14.6	0.00e+00	0	30	0	1117782016	74	4488
2026-01-06 09:28:13.17	336.88	24.78	-54.0	-56.0	14.6	0.00e+00	0	30	0	1125122048	74	4455
2026-01-06 09:28:17.14	336.78	24.16	-54.0	-56.0	14.6	0.00e+00	0	30	0	1132462080	74	4450
2026-01-06 09:28:21.12	336.68	23.56	-53.9	-55.9	14.6	0.00e+00	0	30	0	1139802112	74	4392
2026-01-06 09:28:25.08	336.59	22.98	-53.8	-55.8	14.6	0.00e+00	0	30	0	1147142144	74	4365
2026-01-06 09:28:29.06	336.51	22.40	-53.8	-55.8	14.6	0.00e+00	0	30	0	1154482176	74	4350
2026-01-06 09:28:33.03	336.42	21.84	-53.7	-55.6	14.7	0.00e+00	0	30	0	1161822208	74	4259
2026-01-06 09:28:37.01	336.34	21.29	-53.7	-55.6	14.6	0.00e+00	0	30	0	1169162240	73	4514
2026-01-06 09:28:40.99	336.26	20.75	-53.6	-55.5	14.6	0.00e+00	0	30	0	1177550848	73	4482
2026-01-06 09:28:44.95	336.19	20.23	-53.9	-55.9	14.4	0.00e+00	0	30	0	1184890880	73	4658
2026-01-06 09:28:48.94	336.12	19.71	-54.0	-56.0	14.4	0.00e+00	0	30	0	1192230912	73	4740
2026-01-06 09:28:52.92	336.05	19.20	-54.0	-56.1	14.3	0.00e+00	0	29	0	1199570944	73	4766
2026-01-06 09:28:56.89	335.99	18.71	-54.2	-56.3	14.2	0.00e+00	0	29	0	1206910976	73	4883
2026-01-06 09:29:00.86	335.93	18.22	-54.1	-56.2	14.2	0.00e+00	0	29	0	1214251008	73	4842
2026-01-06 09:29:04.84	335.87	17.75	-54.2	-56.3	14.1	0.00e+00	0	29	0	1221591040	73	4916
2026-01-06 09:29:08.82	335.81	17.28	-54.4	-56.6	14.0	0.00e+00	0	29	0	1228931072	73	5090
2026-01-06 09:29:12.80	335.75	16.82	-54.4	-56.7	14.0	0.00e+00	0	29	0	1237319680	74	4831
2026-01-06 09:29:16.78	335.70	16.37	-54.6	-57.0	13.8	0.00e+00	0	29	0	1244659712	74	5007
2026-01-06 09:29:20.76	335.65	15.93	-54.7	-57.0	13.8	0.00e+00	0	29	0	1251999744	74	5020
2026-01-06 09:29:24.73	335.60	15.49	-54.6	-57.0	13.8	0.00e+00	0	29	0	1259339776	74	5013
2026-01-06 09:29:28.71	335.55	15.07	-54.7	-57.1	13.8	0.00e+00	0	29	0	1266679808	74	5071
2026-01-06 09:29:32.67	335.51	14.65	-54.6	-57.0	13.8	0.00e+00	0	29	0	1274019840	74	4985
2026-01-06 09:29:36.64	335.46	14.24	-54.6	-57.0	13.8	0.00e+00	0	29	0	1281359872	74	5028
2026-01-06 09:29:40.62	335.42	13.83	-54.5	-56.8	13.8	0.00e+00	0	29	0	1288699904	74	4917
2026-01-06 09:29:44.60	335.38	13.43	-54.5	-56.9	13.8	0.00e+00	0	29	0	1296039936	74	4949
2026-01-06 09:29:48.58	335.34	13.04	-54.5	-56.9	13.8	0.00e+00	0	29	0	1303379968	74	4938
2026-01-06 09:29:52.54	335.30	12.65	-54.5	-56.9	13.8	0.00e+00	0	29	0	1311768576	74	4968
2026-01-06 09:29:56.50	335.27	12.28	-54.5	-57.0	13.7	0.00e+00	0	29	0	1319108608	74	4987
2026-01-06 09:30:00.46	335.23	11.90	-54.8	-57.4	13.5	0.00e+00	0	29	0	1326448640	74	5219
2026-01-06 09:30:04.45	335.20	11.53	-54.8	-57.3	13.6	0.00e+00	0	29	0	1333788672	75	4909
2026-01-06 09:30:08.42	335.16	11.17	-55.0	-57.7	13.4	0.00e+00	0	29	0	1341128704	75	5108
2026-01-06 09:30:12.37	335.13	10.82	-55.0	-57.8	13.3	0.00e+00	0	29	0	1348468736	75	5163
2026-01-06 09:30:16.34	335.10	10.46	-55.0	-57.8	13.3	0.00e+00	0	29	0	1355808768	75	5160
2026-01-06 09:30:20.29	335.07	10.12	-55.1	-57.9	13.2	0.00e+00	0	29	0	1363148800	75	5237
2026-01-06 09:30:24.26	335.05	9.77	-55.1	-58.0	13.2	0.00e+00	0	29	0	1370488832	75	5295
2026-01-06 09:30:28.23	335.02	9.44	-55.2	-58.0	13.1	0.00e+00	0	29	0	1377828864	75	5314
2026-01-06 09:30:32.20	334.99	9.10	-55.0	-57.8	13.2	0.00e+00	0	29	0	1385168896	75	5164
2026-01-06 09:30:36.17	334.97	8.77	-55.0	-57.7	13.2	0.00e+00	0	29	0	1393557504	75	5153
2026-01-06 09:30:40.15	334.95	8.45	-55.0	-57.7	13.2	0.00e+00	0	29	0	1400897536	75	5159
2026-01-06 09:30:44.13	334.92	8.13	-55.0	-57.8	13.2	0.00e+00	0	29	0	1408237568	75	5165
2026-01-06 09:30:48.12	334.90	7.81	-54.8	-57.5	13.3	0.00e+00	0	29	0	1415577600	75	5041
2026-01-06 09:30:52.10	334.88	7.50	-54.6	-57.3	13.4	7.00e-07	0	29	0	1422917632	75	4903
2026-01-06 09:30:56.06	334.86	7.19	-54.8	-57.5	13.3	0.00e+00	0	29	0	1430257664	75	5030
2026-01-06 09:31:00.04	334.84	6.88	-54.6	-57.3	13.4	0.00e+00	0	29	0	1437597696	75	4920
2026-01-06 09:31:03.99	334.82	6.58	-54.6	-57.3	13.4	0.00e+00	0	28	0	1444937728	75	4886
2026-01-06 09:31:07.96	334.80	6.28	-54.6	-57.4	13.3	0.00e+00	0	29	0	1452277760	75	4970
2026-01-06 09:31:11.93	334.78	5.99	-54.8	-57.8	13.0	0.00e+00	0	29	0	1460666368	75	5176
2026-01-06 09:31:15.90	334.77	5.70	-54.7	-57.6	13.1	0.00e+00	0	29	0	1468006400	75	5075
2026-01-06 09:31:19.87	334.75	5.41	-54.7	-57.8	12.9	0.00e+00	0	29	0	1475346432	75	5175
2026-01-06 09:31:23.82	334.74	5.13	-54.6	-57.9	12.5	0.00e+00	0	29	0	1482686464	74	5550
2026-01-06 09:31:27.78	334.72	4.84	-59.8	-75.9	3.8	1.49e+00	0	29	104	1486880768	84	24828
2026-01-06 09:31:31.76	334.71	4.56	-60.5	-76.6	3.8	1.49e+00	0	29	104	1486880768	86	23954
2026-01-06 09:31:35.76	334.69	4.29	-60.8	-76.9	3.8	1.49e+00	0	29	104	1486880768	86	24760
2026-01-06 09:31:39.75	334.68	4.01	-60.9	-77.0	3.8	1.49e+00	0	29	104	1486880768	87	23764
2026-01-06 09:31:43.70	334.67	3.74	-61.0	-77.1	3.8	1.49e+00	0	29	104	1486880768	87	24009
2026-01-06 09:31:47.67	334.66	3.47	-61.0	-77.1	3.8	1.49e+00	0	29	104	1486880768	87	24128
2026-01-06 09:31:51.65	334.64	3.21	-61.0	-77.1	3.8	1.49e+00	0	29	104	1486880768	87	23963
2026-01-06 09:31:55.64	334.63	2.94	-60.9	-77.1	3.8	1.49e+00	0	29	104	1486880768	87	23858
2026-01-06 09:31:59.61	334.62	2.68	-60.8	-77.0	3.8	1.49e+00	0	29	104	1486880768	87	23716
2026-01-06 09:32:03.59	334.61	2.42	-60.9	-77.0	3.8	1.49e+00	0	29	104	1486880768	87	23667
2026-01-06 09:32:07.56	334.60	2.17	-60.9	-77.0	3.8	1.49e+00	0	29	104	1486880768	87	23672
2026-01-06 09:32:11.53	334.59	1.91	-60.8	-77.0	3.8	1.49e+00	0	29	104	1486880768	87	23599

#Closed at: 2026-01-06 09:32:11
#Recorded file [1486 MB]: D:/lorett/data/31004_260106_121745.dat