passes_logs/2026/01/06/R3.2S_Murmansk/R3.2S_Murmansk__20260106_103734_SUOMI_NPP_rec.log

#Pass ID: 20260106_103734_SUOMI NPP
#Satellite: SUOMI NPP
#Configuration: NPP
#almurnet v.1.7.20251203
#Start time: 2026-01-06 10:37:35

#Version: 2.2.20231116
#Station: R3.2S_Murmansk
#Location: 33.079688 lon 68.888172 lat
#TLE: 1 37849U 11061A   26004.95404768  .00000136  00000+0  85334-4 0  9991
#TLE: 2 37849  98.7801 307.0898 0002575  80.6707 279.4760 14.19522289735281

#Time	Az	El	Level	Level2	SNR	BER	BlckErr	Temp	State	Recorded	gain1	gain2
2026-01-06 10:37:35.16	176.98	2.05	-58.8	-74.7	3.8	1.49e+00	0	26	0	0	84	21697
2026-01-06 10:37:39.09	177.10	2.30	-58.6	-74.6	3.8	1.49e+00	0	26	104	0	82	24017
2026-01-06 10:37:43.03	177.23	2.55	-58.6	-74.4	3.8	1.49e+00	0	26	104	0	82	23366
2026-01-06 10:37:46.97	177.36	2.80	-58.6	-74.5	3.8	1.49e+00	0	26	104	0	82	23747
2026-01-06 10:37:50.93	177.49	3.06	-58.6	-74.5	3.8	1.49e+00	0	27	104	0	82	23778
2026-01-06 10:37:54.90	177.63	3.32	-58.6	-74.6	3.8	1.49e+00	0	27	104	0	82	23962
2026-01-06 10:37:58.84	177.77	3.57	-58.6	-74.2	3.8	1.49e+00	0	27	104	0	82	23014
2026-01-06 10:38:02.78	177.90	3.84	-58.5	-70.9	4.3	1.42e+00	0	27	0	0	82	15583
2026-01-06 10:38:06.73	178.05	4.10	-58.3	-68.4	5.3	5.25e-01	0	27	0	6291456	82	11752
2026-01-06 10:38:10.70	178.19	4.37	-58.0	-66.1	6.8	1.41e-01	0	27	0	13631488	82	9031
2026-01-06 10:38:14.65	178.34	4.64	-57.3	-63.1	9.3	1.45e-02	0	27	0	20971520	81	6765
2026-01-06 10:38:18.60	178.48	4.91	-56.6	-61.3	10.7	1.80e-04	0	27	0	28311552	79	6198
2026-01-06 10:38:22.55	178.64	5.18	-56.7	-61.4	10.8	1.37e-03	0	27	0	35651584	79	6262
2026-01-06 10:38:26.51	178.79	5.46	-54.8	-57.7	13.0	0.00e+00	0	27	0	40894464	75	5113
2026-01-06 10:38:30.48	178.95	5.74	-54.6	-57.4	13.2	0.00e+00	0	28	0	48234496	75	4970
2026-01-06 10:38:34.46	179.11	6.03	-54.4	-57.0	13.4	0.00e+00	0	28	0	55574528	75	4756
2026-01-06 10:38:38.43	179.27	6.32	-54.5	-57.3	13.2	0.00e+00	0	28	0	62914560	74	5176
2026-01-06 10:38:42.40	179.44	6.61	-54.4	-56.9	13.4	0.00e+00	0	28	0	70254592	74	4981
2026-01-06 10:38:46.36	179.60	6.90	-54.5	-57.2	13.3	0.00e+00	0	28	0	77594624	74	5144
2026-01-06 10:38:50.33	179.78	7.20	-54.5	-57.1	13.4	0.00e+00	0	28	0	84934656	74	5063
2026-01-06 10:38:54.31	179.95	7.50	-54.4	-57.0	13.4	0.00e+00	0	28	0	92274688	74	5026
2026-01-06 10:38:58.28	180.13	7.80	-54.3	-56.8	13.5	0.00e+00	0	28	0	99614720	74	4905
2026-01-06 10:39:02.23	180.31	8.11	-54.5	-57.1	13.4	0.00e+00	0	28	0	108003328	74	5074
2026-01-06 10:39:06.19	180.50	8.42	-54.5	-57.0	13.4	0.00e+00	0	28	0	115343360	74	5020
2026-01-06 10:39:10.17	180.69	8.73	-54.6	-57.2	13.4	0.00e+00	0	28	0	122683392	74	5152
2026-01-06 10:39:14.13	180.88	9.05	-54.4	-56.9	13.5	0.00e+00	0	28	0	130023424	74	4960
2026-01-06 10:39:18.10	181.08	9.37	-54.3	-56.8	13.6	0.00e+00	0	28	0	137363456	74	4884
2026-01-06 10:39:22.07	181.28	9.69	-54.1	-56.5	13.8	0.00e+00	0	28	0	144703488	74	4716
2026-01-06 10:39:26.04	181.49	10.02	-54.1	-56.4	13.8	0.00e+00	0	28	0	152043520	74	4681
2026-01-06 10:39:30.00	181.69	10.36	-53.9	-56.2	13.9	0.00e+00	0	28	0	159383552	74	4551
2026-01-06 10:39:33.97	181.91	10.70	-53.7	-55.8	14.1	0.00e+00	0	28	0	166723584	74	4390
2026-01-06 10:39:37.93	182.13	11.04	-53.7	-55.8	14.0	0.00e+00	0	28	0	174063616	73	4640
2026-01-06 10:39:41.89	182.35	11.38	-53.5	-55.5	14.2	0.00e+00	0	28	0	181403648	73	4473
2026-01-06 10:39:45.86	182.58	11.74	-53.3	-55.2	14.3	0.00e+00	0	28	0	189792256	73	4336
2026-01-06 10:39:49.82	182.81	12.09	-53.0	-54.9	14.4	0.00e+00	0	28	0	197132288	72	4407
2026-01-06 10:39:53.77	183.05	12.45	-52.8	-54.7	14.5	0.00e+00	0	28	0	204472320	72	4304
2026-01-06 10:39:57.71	183.30	12.81	-52.6	-54.4	14.5	0.00e+00	0	28	0	211812352	71	4421
2026-01-06 10:40:01.64	183.54	13.18	-52.7	-54.5	14.5	0.00e+00	0	29	0	219152384	71	4474
2026-01-06 10:40:05.60	183.80	13.56	-52.9	-54.7	14.4	0.00e+00	0	28	0	226492416	71	4596
2026-01-06 10:40:09.57	184.06	13.94	-52.7	-54.5	14.5	0.00e+00	0	29	0	233832448	71	4449
2026-01-06 10:40:13.52	184.33	14.32	-52.8	-54.7	14.4	0.00e+00	0	29	0	241172480	71	4546
2026-01-06 10:40:17.47	184.61	14.72	-52.6	-54.3	14.6	0.00e+00	0	29	0	248512512	71	4389
2026-01-06 10:40:21.42	184.89	15.11	-52.8	-54.7	14.4	0.00e+00	0	28	0	255852544	71	4546
2026-01-06 10:40:25.38	185.18	15.52	-53.1	-55.1	14.3	0.00e+00	0	28	0	263192576	71	4773
2026-01-06 10:40:29.34	185.48	15.93	-52.9	-54.8	14.4	0.00e+00	0	28	0	270532608	71	4631
2026-01-06 10:40:33.29	185.78	16.34	-52.6	-54.4	14.5	0.00e+00	0	29	0	277872640	71	4429
2026-01-06 10:40:37.22	186.09	16.76	-52.4	-54.1	14.7	0.00e+00	0	28	0	285212672	71	4260
2026-01-06 10:40:41.16	186.41	17.19	-52.3	-53.9	14.8	0.00e+00	0	29	0	292552704	71	4185
2026-01-06 10:40:45.11	186.74	17.62	-52.4	-54.1	14.7	0.00e+00	0	28	0	300941312	71	4265
2026-01-06 10:40:49.04	187.08	18.06	-52.6	-54.4	14.6	0.00e+00	0	29	0	308281344	71	4396
2026-01-06 10:40:52.99	187.43	18.51	-52.5	-54.2	14.6	0.00e+00	0	29	0	315621376	71	4335
2026-01-06 10:40:56.92	187.79	18.97	-52.4	-54.1	14.7	0.00e+00	0	29	0	322961408	71	4265
2026-01-06 10:41:00.88	188.16	19.43	-52.0	-53.6	14.8	0.00e+00	0	28	0	330301440	70	4276
2026-01-06 10:41:04.84	188.54	19.91	-51.9	-53.6	14.8	0.00e+00	0	29	0	337641472	70	4247
2026-01-06 10:41:08.77	188.93	20.38	-51.7	-53.3	14.8	0.00e+00	0	29	0	344981504	69	4361
2026-01-06 10:41:12.73	189.33	20.87	-51.8	-53.4	14.7	0.00e+00	0	29	0	352321536	69	4432
2026-01-06 10:41:16.68	189.75	21.37	-51.9	-53.6	14.7	0.00e+00	0	29	0	359661568	69	4495
2026-01-06 10:41:20.64	190.18	21.87	-51.8	-53.5	14.7	0.00e+00	0	29	0	367001600	69	4448
2026-01-06 10:41:24.59	190.62	22.39	-51.6	-53.1	14.9	0.00e+00	0	29	0	374341632	69	4264
2026-01-06 10:41:28.55	191.08	22.91	-51.5	-53.0	14.9	0.00e+00	0	29	0	381681664	69	4204
2026-01-06 10:41:32.51	191.55	23.44	-51.4	-52.9	14.9	0.00e+00	0	29	0	389021696	69	4173
2026-01-06 10:41:36.46	192.04	23.98	-51.7	-53.2	14.8	0.00e+00	0	29	0	396361728	69	4322
2026-01-06 10:41:40.40	192.55	24.53	-51.9	-53.5	14.7	0.00e+00	0	29	0	403701760	69	4459
2026-01-06 10:41:44.36	193.07	25.09	-52.4	-54.1	14.6	0.00e+00	0	29	0	411041792	70	4530
2026-01-06 10:41:48.30	193.61	25.65	-52.5	-54.2	14.6	0.00e+00	0	29	0	419430400	70	4551
2026-01-06 10:41:52.26	194.17	26.23	-52.5	-54.2	14.6	0.00e+00	0	29	0	426770432	70	4583
2026-01-06 10:41:56.21	194.75	26.82	-52.5	-54.2	14.6	0.00e+00	0	29	0	434110464	70	4587
2026-01-06 10:42:00.16	195.35	27.42	-52.6	-54.3	14.6	0.00e+00	0	29	0	441450496	71	4355
2026-01-06 10:42:04.12	195.98	28.03	-52.8	-54.6	14.5	0.00e+00	0	29	0	448790528	71	4510
2026-01-06 10:42:08.08	196.63	28.64	-53.6	-55.6	14.3	0.00e+00	0	29	0	456130560	72	4773
2026-01-06 10:42:12.02	197.30	29.27	-54.3	-56.4	14.0	0.00e+00	0	29	0	463470592	74	4697
2026-01-06 10:42:15.98	198.00	29.91	-55.0	-57.4	13.7	0.00e+00	0	29	0	470810624	75	4967
2026-01-06 10:42:19.94	198.73	30.55	-55.5	-58.2	13.4	0.00e+00	0	29	0	478150656	76	5121
2026-01-06 10:42:23.88	199.48	31.21	-54.9	-57.3	13.8	0.00e+00	0	29	0	485490688	76	4630
2026-01-06 10:42:27.81	200.26	31.87	-55.3	-57.8	13.6	0.00e+00	0	29	0	492830720	76	4903
2026-01-06 10:42:31.76	201.08	32.54	-54.8	-57.1	13.9	0.00e+00	0	29	0	500170752	76	4543
2026-01-06 10:42:35.69	201.93	33.22	-53.9	-56.0	14.2	0.00e+00	0	29	0	507510784	73	4739
2026-01-06 10:42:39.64	202.82	33.91	-54.2	-56.3	14.2	0.00e+00	0	29	0	514850816	74	4635
2026-01-06 10:42:43.59	203.74	34.61	-53.3	-55.1	14.4	0.00e+00	0	29	0	522190848	72	4525
2026-01-06 10:42:47.54	204.71	35.32	-53.5	-55.4	14.4	0.00e+00	0	29	0	529530880	72	4691
2026-01-06 10:42:51.50	205.72	36.04	-53.5	-55.3	14.4	0.00e+00	0	29	0	537919488	72	4646
2026-01-06 10:42:55.46	206.77	36.76	-52.6	-54.2	14.7	0.00e+00	0	29	0	545259520	71	4329
2026-01-06 10:42:59.42	207.87	37.48	-52.7	-54.4	14.6	0.00e+00	0	29	0	552599552	71	4435
2026-01-06 10:43:03.39	209.03	38.21	-52.0	-53.6	14.8	0.00e+00	0	29	0	559939584	70	4271
2026-01-06 10:43:07.35	210.23	38.95	-52.4	-54.1	14.7	0.00e+00	0	29	0	567279616	70	4508
2026-01-06 10:43:11.30	211.49	39.68	-53.3	-55.2	14.4	0.00e+00	0	29	0	574619648	71	4815
2026-01-06 10:43:15.27	212.80	40.41	-53.0	-54.7	14.6	0.00e+00	0	29	0	581959680	71	4589
2026-01-06 10:43:19.23	214.18	41.14	-52.6	-54.2	14.7	0.00e+00	0	29	0	589299712	71	4324
2026-01-06 10:43:23.17	215.61	41.87	-53.7	-55.6	14.3	0.00e+00	0	29	0	596639744	72	4802
2026-01-06 10:43:27.11	217.10	42.58	-53.2	-55.0	14.5	0.00e+00	0	29	0	603979776	72	4455
2026-01-06 10:43:31.04	218.66	43.29	-52.6	-54.3	14.7	0.00e+00	0	29	0	611319808	71	4359
2026-01-06 10:43:34.98	220.29	43.99	-53.1	-54.9	14.5	0.00e+00	0	29	0	618659840	71	4667
2026-01-06 10:43:38.93	221.99	44.67	-53.5	-55.3	14.4	0.00e+00	0	29	0	625999872	72	4647
2026-01-06 10:43:42.86	223.76	45.34	-54.6	-56.8	14.0	0.00e+00	0	29	0	633339904	74	4896
2026-01-06 10:43:46.81	225.61	45.99	-53.3	-55.1	14.6	0.00e+00	0	29	0	640679936	73	4264
2026-01-06 10:43:50.76	227.54	46.61	-53.0	-54.8	14.7	0.00e+00	0	29	0	649068544	72	4348
2026-01-06 10:43:54.69	229.53	47.20	-52.6	-54.2	14.8	0.00e+00	0	29	0	656408576	71	4329
2026-01-06 10:43:58.63	231.60	47.77	-53.4	-55.2	14.5	0.00e+00	0	29	0	663748608	72	4568
2026-01-06 10:44:02.58	233.76	48.30	-53.0	-54.7	14.6	0.00e+00	0	29	0	671088640	72	4329
2026-01-06 10:44:06.53	235.98	48.80	-52.3	-53.9	14.8	0.00e+00	0	29	0	678428672	70	4427
2026-01-06 10:44:10.47	238.27	49.25	-52.6	-54.2	14.7	0.00e+00	0	29	0	685768704	70	4572
2026-01-06 10:44:14.43	240.63	49.66	-53.0	-54.8	14.5	0.00e+00	0	29	0	693108736	71	4631
2026-01-06 10:44:18.38	243.04	50.01	-51.9	-53.4	14.8	0.00e+00	0	29	0	700448768	69	4414
2026-01-06 10:44:22.33	245.51	50.32	-51.8	-53.3	14.9	0.00e+00	0	29	0	707788800	69	4357
2026-01-06 10:44:26.28	248.03	50.57	-51.3	-52.8	15.0	0.00e+00	0	29	0	715128832	68	4362
2026-01-06 10:44:30.22	250.57	50.77	-52.6	-54.2	14.7	0.00e+00	0	29	0	722468864	70	4593
2026-01-06 10:44:34.18	253.16	50.91	-52.2	-53.8	14.7	0.00e+00	0	29	0	729808896	69	4611
2026-01-06 10:44:38.14	255.76	50.98	-52.9	-54.7	14.6	0.00e+00	0	29	0	737148928	71	4564
2026-01-06 10:44:42.10	258.37	51.00	-52.7	-54.4	14.6	0.00e+00	0	29	0	744488960	70	4658
2026-01-06 10:44:46.05	260.97	50.95	-52.4	-54.0	14.7	0.00e+00	0	29	0	751828992	70	4485
2026-01-06 10:44:50.00	263.56	50.85	-50.5	-51.8	15.2	0.00e+00	0	29	0	759169024	67	4127
2026-01-06 10:44:53.96	266.13	50.68	-52.1	-53.6	14.8	0.00e+00	0	29	0	767557632	69	4534
2026-01-06 10:44:57.92	268.67	50.46	-52.5	-54.1	14.7	0.00e+00	0	29	0	774897664	70	4535
2026-01-06 10:45:01.88	271.17	50.18	-51.9	-53.4	14.8	0.00e+00	0	29	0	782237696	69	4421
2026-01-06 10:45:05.82	273.60	49.85	-52.8	-54.5	14.6	0.00e+00	0	29	0	789577728	70	4724
2026-01-06 10:45:09.78	276.00	49.47	-53.8	-55.7	14.4	0.00e+00	0	29	0	796917760	74	4321
2026-01-06 10:45:13.73	278.32	49.04	-55.1	-57.5	13.8	0.00e+00	0	29	0	804257792	75	5018
2026-01-06 10:45:17.68	280.57	48.56	-56.4	-59.4	13.0	0.00e+00	0	29	0	811597824	79	4957
2026-01-06 10:45:21.62	282.75	48.05	-56.5	-59.5	12.9	0.00e+00	0	29	0	818937856	78	5309
2026-01-06 10:45:25.56	284.86	47.51	-56.3	-59.2	13.1	0.00e+00	0	29	0	826277888	79	4865
2026-01-06 10:45:29.51	286.90	46.93	-55.7	-58.2	13.6	0.00e+00	0	29	0	833617920	77	4840
2026-01-06 10:45:33.46	288.86	46.32	-55.6	-58.1	13.7	0.00e+00	0	29	0	840957952	77	4803
2026-01-06 10:45:37.41	290.75	45.68	-56.3	-59.1	13.1	0.00e+00	0	29	0	848297984	78	5063
2026-01-06 10:45:41.35	292.56	45.03	-57.6	-61.5	11.8	3.23e-04	0	29	0	855638016	81	5619
2026-01-06 10:45:45.32	294.31	44.35	-54.6	-56.7	14.1	0.00e+00	0	29	0	862978048	75	4564
2026-01-06 10:45:49.27	295.97	43.66	-52.9	-54.6	14.7	0.00e+00	0	29	0	870318080	72	4251
2026-01-06 10:45:53.23	297.57	42.96	-51.6	-53.1	15.1	0.00e+00	0	29	0	878706688	69	4244
2026-01-06 10:45:57.18	299.10	42.25	-51.9	-53.4	14.9	0.00e+00	0	29	0	886046720	69	4408
2026-01-06 10:46:01.15	300.57	41.52	-52.7	-54.4	14.6	0.00e+00	0	29	0	893386752	70	4676
2026-01-06 10:46:05.11	301.97	40.80	-51.7	-53.2	15.0	0.00e+00	0	29	0	900726784	69	4294
2026-01-06 10:46:09.09	303.32	40.06	-53.5	-55.3	14.5	0.00e+00	0	29	0	908066816	72	4618
2026-01-06 10:46:13.04	304.60	39.33	-53.1	-54.9	14.6	0.00e+00	0	29	0	915406848	72	4397
2026-01-06 10:46:17.01	305.83	38.60	-56.8	-60.0	12.7	0.00e+00	0	29	0	922746880	78	5620
2026-01-06 10:46:20.96	307.00	37.88	-55.1	-57.4	13.9	0.00e+00	0	29	0	930086912	76	4684
2026-01-06 10:46:24.95	308.13	37.15	-55.9	-58.6	13.4	0.00e+00	0	29	0	937426944	77	5055
2026-01-06 10:46:28.91	309.21	36.43	-54.0	-55.9	14.4	0.00e+00	0	29	0	944766976	74	4426
2026-01-06 10:46:32.89	310.24	35.71	-58.4	-63.5	10.3	3.97e-04	0	29	0	952107008	81	7042
2026-01-06 10:46:36.86	311.23	35.00	-54.0	-56.0	14.4	0.00e+00	0	29	0	960495616	74	4465
2026-01-06 10:46:40.84	312.18	34.29	-55.4	-57.9	13.5	0.00e+00	0	29	0	967835648	75	5244
2026-01-06 10:46:44.81	313.09	33.60	-55.0	-57.3	13.9	0.00e+00	0	29	0	975175680	76	4621
2026-01-06 10:46:48.79	313.96	32.91	-55.6	-58.2	13.5	0.00e+00	0	29	0	982515712	76	5108
2026-01-06 10:46:52.76	314.80	32.23	-55.4	-57.8	13.7	0.00e+00	0	29	0	989855744	77	4619
2026-01-06 10:46:56.73	315.60	31.56	-54.0	-56.0	14.4	0.00e+00	0	29	0	997195776	74	4464
2026-01-06 10:47:00.71	316.38	30.90	-54.8	-57.1	13.9	0.00e+00	0	29	0	1004535808	74	5071
2026-01-06 10:47:04.69	317.12	30.24	-55.1	-57.5	13.8	0.00e+00	0	29	0	1011875840	76	4740
2026-01-06 10:47:08.67	317.84	29.60	-54.0	-56.0	14.3	0.00e+00	0	29	0	1019215872	74	4468
2026-01-06 10:47:12.65	318.52	28.97	-54.1	-56.1	14.3	0.00e+00	0	29	0	1027604480	74	4509
2026-01-06 10:47:16.61	319.18	28.35	-54.2	-56.3	14.2	0.00e+00	0	29	0	1034944512	74	4607
2026-01-06 10:47:20.59	319.82	27.74	-53.6	-55.5	14.5	0.00e+00	0	29	0	1042284544	73	4443
2026-01-06 10:47:24.57	320.44	27.13	-52.3	-53.9	14.9	0.00e+00	0	29	0	1049624576	71	4186
2026-01-06 10:47:28.53	321.03	26.54	-52.6	-54.3	14.6	0.00e+00	0	29	0	1056964608	70	4613
2026-01-06 10:47:32.49	321.60	25.96	-53.8	-55.8	14.2	0.00e+00	0	29	0	1064304640	72	4893
2026-01-06 10:47:36.47	322.15	25.39	-54.0	-56.0	14.2	0.00e+00	0	29	0	1071644672	73	4730
2026-01-06 10:47:40.44	322.68	24.83	-53.1	-54.8	14.6	0.00e+00	0	29	0	1078984704	72	4391
2026-01-06 10:47:44.43	323.20	24.27	-53.2	-55.0	14.5	0.00e+00	0	29	0	1086324736	72	4468
2026-01-06 10:47:48.39	323.69	23.73	-53.3	-55.1	14.4	0.00e+00	0	29	0	1093664768	72	4521
2026-01-06 10:47:52.36	324.17	23.20	-53.0	-54.8	14.6	0.00e+00	0	29	0	1102053376	72	4341
2026-01-06 10:47:56.33	324.64	22.67	-53.4	-55.2	14.4	0.00e+00	0	29	0	1109393408	72	4586
2026-01-06 10:48:00.28	325.09	22.16	-52.8	-54.6	14.7	0.00e+00	0	29	0	1116733440	72	4258
2026-01-06 10:48:04.27	325.53	21.65	-53.4	-55.4	14.4	0.00e+00	0	29	0	1124073472	72	4658
2026-01-06 10:48:08.24	325.95	21.15	-53.7	-55.7	14.2	0.00e+00	0	29	0	1131413504	72	4847
2026-01-06 10:48:12.21	326.36	20.66	-53.9	-56.0	14.2	0.00e+00	0	29	0	1138753536	73	4734
2026-01-06 10:48:16.18	326.76	20.17	-54.0	-56.0	14.1	0.00e+00	0	29	0	1146093568	73	4751
2026-01-06 10:48:20.16	327.15	19.70	-54.6	-56.9	13.8	0.00e+00	0	29	0	1153433600	74	4958
2026-01-06 10:48:24.14	327.53	19.23	-54.3	-56.5	14.0	0.00e+00	0	29	0	1160773632	74	4706
2026-01-06 10:48:28.10	327.89	18.77	-53.7	-55.7	14.2	0.00e+00	0	29	0	1168113664	74	4333
2026-01-06 10:48:32.07	328.25	18.32	-52.9	-54.7	14.6	0.00e+00	0	29	0	1176502272	72	4330
2026-01-06 10:48:36.05	328.59	17.87	-52.7	-54.4	14.6	0.00e+00	0	29	0	1183842304	71	4409
2026-01-06 10:48:40.02	328.93	17.44	-53.0	-54.7	14.5	0.00e+00	0	29	0	1191182336	71	4595
2026-01-06 10:48:43.99	329.25	17.00	-52.9	-54.7	14.5	0.00e+00	0	29	0	1198522368	71	4548
2026-01-06 10:48:47.97	329.57	16.58	-53.4	-55.4	14.3	0.00e+00	0	29	0	1205862400	72	4671
2026-01-06 10:48:51.94	329.88	16.16	-53.7	-55.7	14.2	0.00e+00	0	29	0	1213202432	72	4851
2026-01-06 10:48:55.91	330.19	15.75	-53.9	-56.1	14.1	0.00e+00	0	29	0	1220542464	73	4778
2026-01-06 10:48:59.88	330.48	15.35	-53.7	-55.8	14.2	0.00e+00	0	29	0	1227882496	73	4610
2026-01-06 10:49:03.84	330.77	14.95	-53.5	-55.5	14.3	0.00e+00	0	29	0	1235222528	73	4485
2026-01-06 10:49:07.81	331.05	14.55	-53.0	-54.9	14.5	0.00e+00	0	29	0	1242562560	72	4404
2026-01-06 10:49:11.79	331.32	14.17	-52.9	-54.7	14.5	0.00e+00	0	29	0	1250951168	72	4335
2026-01-06 10:49:15.77	331.59	13.78	-53.3	-55.2	14.3	0.00e+00	0	29	0	1258291200	72	4589
2026-01-06 10:49:19.73	331.85	13.41	-53.7	-55.9	14.0	0.00e+00	0	29	0	1265631232	72	4938
2026-01-06 10:49:23.70	332.10	13.04	-54.4	-56.8	13.7	0.00e+00	0	29	0	1272971264	73	5178
2026-01-06 10:49:27.67	332.35	12.67	-54.8	-57.4	13.4	0.00e+00	0	29	0	1280311296	74	5235
2026-01-06 10:49:31.65	332.59	12.31	-55.0	-57.7	13.4	0.00e+00	0	29	0	1287651328	75	5139
2026-01-06 10:49:35.63	332.83	11.95	-55.0	-57.7	13.3	0.00e+00	0	29	0	1294991360	75	5124
2026-01-06 10:49:39.59	333.06	11.60	-54.8	-57.5	13.5	0.00e+00	0	29	0	1302331392	75	4990
2026-01-06 10:49:43.57	333.29	11.25	-54.3	-56.6	13.9	0.00e+00	0	29	0	1309671424	75	4536
2026-01-06 10:49:47.54	333.51	10.91	-53.9	-56.1	14.0	0.00e+00	0	29	0	1318060032	74	4538
2026-01-06 10:49:51.51	333.73	10.57	-53.7	-55.8	14.1	0.00e+00	0	29	0	1325400064	73	4613
2026-01-06 10:49:55.48	333.94	10.24	-53.2	-55.2	14.4	0.00e+00	0	29	0	1332740096	73	4314
2026-01-06 10:49:59.45	334.15	9.91	-53.2	-55.1	14.3	0.00e+00	0	29	0	1340080128	72	4542
2026-01-06 10:50:03.42	334.36	9.58	-53.0	-55.0	14.3	0.00e+00	0	29	0	1347420160	72	4462
2026-01-06 10:50:07.40	334.56	9.26	-53.2	-55.2	14.2	0.00e+00	0	29	0	1354760192	72	4592
2026-01-06 10:50:11.36	334.75	8.94	-53.4	-55.5	14.1	0.00e+00	0	29	0	1362100224	72	4720
2026-01-06 10:50:15.33	334.95	8.63	-53.5	-55.7	14.0	0.00e+00	0	29	0	1369440256	72	4833
2026-01-06 10:50:19.30	335.14	8.32	-53.7	-56.0	13.8	0.00e+00	0	29	0	1376780288	72	4988
2026-01-06 10:50:23.28	335.32	8.01	-54.2	-56.6	13.6	0.00e+00	0	29	0	1384120320	73	5079
2026-01-06 10:50:27.25	335.50	7.71	-54.4	-56.9	13.4	0.00e+00	0	29	0	1391460352	73	5259
2026-01-06 10:50:31.22	335.68	7.41	-54.7	-57.4	13.2	4.50e-06	0	29	0	1399848960	74	5265
2026-01-06 10:50:35.19	335.86	7.11	-54.6	-57.3	13.3	0.00e+00	0	29	0	1407188992	74	5173
2026-01-06 10:50:39.16	336.03	6.82	-54.9	-57.9	13.1	7.00e-07	0	29	0	1414529024	75	5220
2026-01-06 10:50:43.13	336.20	6.53	-55.0	-58.0	12.9	0.00e+00	0	29	0	1421869056	75	5313
2026-01-06 10:50:47.09	336.37	6.24	-55.1	-58.2	12.8	7.00e-07	0	29	0	1429209088	75	5435
2026-01-06 10:50:51.07	336.53	5.96	-55.1	-58.2	12.8	0.00e+00	0	29	0	1436549120	75	5407
2026-01-06 10:50:55.03	336.69	5.68	-55.5	-58.8	12.5	0.00e+00	0	29	0	1443889152	76	5498
2026-01-06 10:50:58.99	336.85	5.40	-55.5	-58.8	12.5	0.00e+00	0	29	0	1451229184	76	5478
2026-01-06 10:51:02.97	337.00	5.12	-55.5	-58.8	12.4	0.00e+00	0	29	0	1458569216	76	5499
2026-01-06 10:51:06.94	337.16	4.85	-60.0	-76.0	3.8	1.49e+00	0	29	104	1462763520	85	23813
2026-01-06 10:51:10.96	337.31	4.58	-60.6	-76.7	3.8	1.49e+00	0	29	104	1462763520	86	24314
2026-01-06 10:51:14.97	337.46	4.31	-60.9	-77.2	3.8	1.49e+00	0	29	104	1462763520	87	24173
2026-01-06 10:51:19.01	337.61	4.04	-61.0	-77.1	3.8	1.49e+00	0	29	104	1462763520	87	23982
2026-01-06 10:51:23.01	337.75	3.77	-61.1	-77.2	3.8	1.49e+00	0	29	104	1462763520	87	24296
2026-01-06 10:51:27.01	337.89	3.51	-61.1	-77.2	3.8	1.49e+00	0	29	104	1462763520	87	24265
2026-01-06 10:51:30.97	338.03	3.25	-61.0	-77.1	3.8	1.49e+00	0	29	104	1462763520	87	23991
2026-01-06 10:51:34.94	338.17	3.00	-61.0	-77.1	3.8	1.49e+00	0	29	104	1462763520	87	23897
2026-01-06 10:51:38.92	338.30	2.74	-60.9	-77.0	3.8	1.49e+00	0	29	104	1462763520	87	23803
2026-01-06 10:51:42.90	338.44	2.49	-60.9	-77.0	3.8	1.49e+00	0	29	104	1462763520	87	23763
2026-01-06 10:51:46.85	338.57	2.24	-60.9	-77.0	3.8	1.49e+00	0	29	104	1462763520	87	23704
2026-01-06 10:51:50.82	338.70	2.00	-60.9	-77.0	3.8	1.49e+00	0	29	104	1462763520	87	23650

#Closed at: 2026-01-06 10:51:52
#Recorded file [1462 MB]: D:/lorett/data/31004_260106_133734.dat