passes_logs/2026/01/06/R3.2S_Murmansk/R3.2S_Murmansk__20260106_133356_NOAA_21_JPSS-2_rec.log

#Pass ID: 20260106_133356_NOAA 21 (JPSS-2)
#Satellite: NOAA 21 (JPSS-2)
#Configuration: NOAA-21
#almurnet v.1.7.20251203
#Start time: 2026-01-06 13:33:56

#Version: 2.2.20231116
#Station: R3.2S_Murmansk
#Location: 33.079688 lon 68.888172 lat
#TLE: 1 54234U 22150A   26005.42670836  .00000142  00000+0  88292-4 0  9996
#TLE: 2 54234  98.7490 306.4427 0001045 340.6622  19.4514 14.19532269163451

#Time	Az	El	Level	Level2	SNR	BER	BlckErr	Temp	State	Recorded	gain1	gain2
2026-01-06 13:33:56.40	259.95	1.98	-58.8	-72.6	3.8	1.49e+00	0	28	0	0	84	17065
2026-01-06 13:33:59.38	260.28	2.09	-58.6	-72.4	3.8	1.49e+00	0	28	104	0	82	18729
2026-01-06 13:34:02.37	260.62	2.20	-58.6	-72.4	3.8	1.49e+00	0	28	104	0	82	18666
2026-01-06 13:34:05.36	260.96	2.31	-58.6	-72.4	3.8	1.49e+00	0	28	104	0	82	18683
2026-01-06 13:34:08.35	261.30	2.42	-58.6	-72.5	3.8	1.49e+00	0	28	104	0	82	18751
2026-01-06 13:34:11.34	261.64	2.53	-58.6	-72.5	3.8	1.49e+00	0	28	104	0	82	18741
2026-01-06 13:34:14.33	261.99	2.64	-58.6	-72.4	3.8	1.49e+00	0	28	104	0	82	18674
2026-01-06 13:34:17.33	262.34	2.75	-58.6	-72.4	3.8	1.49e+00	0	28	104	0	82	18631
2026-01-06 13:34:20.34	262.69	2.86	-58.6	-72.4	3.8	1.49e+00	0	28	104	0	82	18702
2026-01-06 13:34:23.34	263.05	2.97	-58.6	-72.4	3.8	1.49e+00	0	28	104	0	82	18674
2026-01-06 13:34:26.33	263.41	3.08	-58.6	-72.4	3.8	1.49e+00	0	28	104	0	82	18683
2026-01-06 13:34:29.33	263.77	3.18	-58.6	-72.4	3.8	1.49e+00	0	29	104	0	82	18659
2026-01-06 13:34:32.32	264.13	3.29	-58.6	-72.4	3.8	1.49e+00	0	29	104	0	82	18635
2026-01-06 13:34:35.32	264.49	3.40	-58.6	-72.4	3.8	1.49e+00	0	28	104	0	82	18552
2026-01-06 13:34:38.32	264.86	3.50	-58.6	-72.2	3.8	1.49e+00	0	28	104	0	82	18200
2026-01-06 13:34:41.33	265.23	3.61	-58.6	-72.3	3.8	1.49e+00	0	29	104	0	82	18495
2026-01-06 13:34:44.32	265.60	3.71	-58.6	-72.3	3.8	1.49e+00	0	29	104	0	82	18406
2026-01-06 13:34:47.32	265.98	3.81	-58.6	-72.4	3.8	1.49e+00	0	29	104	0	82	18632
2026-01-06 13:34:50.33	266.36	3.92	-58.6	-72.2	3.8	1.49e+00	0	29	104	0	82	18243
2026-01-06 13:34:53.33	266.74	4.02	-58.6	-72.4	3.8	1.49e+00	0	29	104	0	82	18616
2026-01-06 13:34:56.32	267.12	4.12	-58.6	-72.3	3.8	1.49e+00	0	28	104	0	82	18315
2026-01-06 13:34:59.31	267.50	4.22	-58.6	-72.3	3.8	1.49e+00	0	29	104	0	82	18497
2026-01-06 13:35:02.30	267.89	4.32	-58.6	-72.1	3.8	1.49e+00	0	29	104	0	82	18082
2026-01-06 13:35:05.30	268.28	4.42	-58.6	-72.3	3.8	1.49e+00	0	29	104	0	82	18500
2026-01-06 13:35:08.30	268.67	4.52	-58.6	-71.8	3.8	1.49e+00	0	29	104	0	82	17417
2026-01-06 13:35:11.30	269.07	4.62	-58.6	-72.4	3.8	1.49e+00	0	29	104	0	82	18610
2026-01-06 13:35:14.29	269.46	4.72	-58.6	-72.2	3.9	1.49e+00	0	29	104	0	82	18111
2026-01-06 13:35:17.30	269.87	4.82	-58.4	-70.0	3.9	1.49e+00	0	28	104	0	82	14197
2026-01-06 13:35:20.29	270.27	4.91	-57.9	-65.9	5.4	5.36e-01	0	29	0	2097152	82	8798
2026-01-06 13:35:23.30	270.67	5.01	-56.0	-59.9	10.1	3.44e-03	0	29	0	11534336	78	5553
2026-01-06 13:35:26.31	271.08	5.10	-56.9	-62.0	8.1	1.41e+00	0	29	104	19922944	80	6332
2026-01-06 13:35:29.30	271.49	5.20	-52.8	-54.7	13.3	0.00e+00	0	29	0	28311552	72	4331
2026-01-06 13:35:32.30	271.91	5.29	-52.9	-54.9	13.3	0.00e+00	0	29	0	37748736	72	4400
2026-01-06 13:35:35.29	272.32	5.38	-52.5	-54.4	13.5	0.00e+00	0	29	0	47185920	71	4422
2026-01-06 13:35:38.30	272.74	5.47	-52.6	-54.5	13.4	0.00e+00	0	29	0	56623104	71	4459
2026-01-06 13:35:41.29	273.16	5.56	-52.7	-54.7	13.4	0.00e+00	0	29	0	66060288	71	4552
2026-01-06 13:35:44.29	273.58	5.65	-52.5	-54.4	13.5	0.00e+00	0	29	0	75497472	71	4419
2026-01-06 13:35:47.28	274.01	5.74	-52.5	-54.4	13.5	0.00e+00	0	28	0	83886080	71	4419
2026-01-06 13:35:50.27	274.43	5.82	-52.6	-54.5	13.5	0.00e+00	0	29	0	93323264	71	4464
2026-01-06 13:35:53.27	274.86	5.91	-52.4	-54.3	13.5	0.00e+00	0	29	0	102760448	71	4356
2026-01-06 13:35:56.26	275.29	5.99	-52.5	-54.3	13.5	0.00e+00	0	29	0	112197632	71	4390
2026-01-06 13:35:59.27	275.73	6.08	-52.4	-54.3	13.6	0.00e+00	0	29	0	121634816	71	4347
2026-01-06 13:36:02.27	276.17	6.16	-52.3	-54.1	13.7	0.00e+00	0	29	0	131072000	71	4247
2026-01-06 13:36:05.26	276.61	6.24	-52.0	-53.8	13.8	0.00e+00	0	28	0	140509184	70	4345
2026-01-06 13:36:08.26	277.05	6.32	-52.2	-54.0	13.6	0.00e+00	0	28	0	149946368	70	4464
2026-01-06 13:36:11.25	277.49	6.40	-52.4	-54.3	13.5	0.00e+00	0	28	0	159383552	70	4606
2026-01-06 13:36:14.23	277.94	6.48	-52.2	-54.0	13.7	0.00e+00	0	29	0	168820736	70	4445
2026-01-06 13:36:17.22	278.38	6.56	-52.3	-54.1	13.6	0.00e+00	0	28	0	178257920	70	4506
2026-01-06 13:36:20.22	278.84	6.63	-52.2	-54.0	13.6	0.00e+00	0	29	0	187695104	70	4472
2026-01-06 13:36:23.21	279.29	6.70	-52.3	-54.1	13.6	0.00e+00	0	29	0	197132288	70	4514
2026-01-06 13:36:26.21	279.74	6.78	-52.4	-54.2	13.6	0.00e+00	0	28	0	206569472	70	4555
2026-01-06 13:36:29.21	280.20	6.85	-52.1	-53.9	13.7	0.00e+00	0	28	0	214958080	70	4397
2026-01-06 13:36:32.21	280.66	6.92	-52.1	-53.8	13.7	0.00e+00	0	28	0	224395264	70	4384
2026-01-06 13:36:35.20	281.12	6.99	-52.0	-53.6	13.9	0.00e+00	0	28	0	233832448	70	4283
2026-01-06 13:36:38.21	281.59	7.06	-51.8	-53.5	13.9	0.00e+00	0	29	0	243269632	70	4213
2026-01-06 13:36:41.21	282.05	7.12	-51.9	-53.5	13.9	0.00e+00	0	28	0	252706816	70	4232
2026-01-06 13:36:44.21	282.52	7.19	-51.9	-53.6	13.9	0.00e+00	0	29	0	262144000	70	4252
2026-01-06 13:36:47.20	282.99	7.25	-51.9	-53.6	13.9	0.00e+00	0	28	0	271581184	70	4248
2026-01-06 13:36:50.19	283.46	7.31	-52.0	-53.7	13.9	0.00e+00	0	28	0	281018368	70	4300
2026-01-06 13:36:53.19	283.94	7.37	-52.1	-53.8	13.8	0.00e+00	0	29	0	290455552	70	4371
2026-01-06 13:36:56.19	284.41	7.43	-52.2	-53.9	13.8	0.00e+00	0	28	0	299892736	70	4421
2026-01-06 13:36:59.17	284.89	7.49	-52.0	-53.6	13.9	0.00e+00	0	28	0	309329920	70	4283
2026-01-06 13:37:02.16	285.36	7.54	-52.0	-53.6	13.9	0.00e+00	0	28	0	318767104	70	4279
2026-01-06 13:37:05.15	285.84	7.60	-52.0	-53.7	13.9	0.00e+00	0	28	0	328204288	70	4301
2026-01-06 13:37:08.14	286.32	7.65	-52.2	-53.9	13.8	0.00e+00	0	28	0	336592896	70	4398
2026-01-06 13:37:11.13	286.81	7.70	-52.1	-53.7	13.9	0.00e+00	0	28	0	346030080	70	4331
2026-01-06 13:37:14.11	287.29	7.75	-52.0	-53.6	13.9	0.00e+00	0	28	0	355467264	70	4290
2026-01-06 13:37:17.11	287.78	7.79	-52.0	-53.6	13.9	0.00e+00	0	28	0	364904448	70	4287
2026-01-06 13:37:20.11	288.27	7.84	-52.1	-53.8	13.8	0.00e+00	0	28	0	374341632	70	4361
2026-01-06 13:37:23.12	288.76	7.88	-52.2	-53.9	13.8	0.00e+00	0	28	0	383778816	70	4414
2026-01-06 13:37:26.13	289.25	7.93	-52.2	-53.9	13.8	0.00e+00	0	28	0	393216000	70	4417
2026-01-06 13:37:29.12	289.74	7.97	-52.0	-53.7	13.9	0.00e+00	0	28	0	402653184	70	4305
2026-01-06 13:37:32.12	290.24	8.01	-52.1	-53.7	13.9	0.00e+00	0	28	0	412090368	70	4333
2026-01-06 13:37:35.11	290.73	8.04	-51.9	-53.5	14.0	0.00e+00	0	28	0	421527552	70	4217
2026-01-06 13:37:38.11	291.23	8.08	-51.9	-53.5	14.0	0.00e+00	0	28	0	430964736	70	4236
2026-01-06 13:37:41.11	291.73	8.11	-52.1	-53.7	13.9	0.00e+00	0	28	0	440401920	70	4331
2026-01-06 13:37:44.10	292.22	8.14	-52.0	-53.7	13.9	0.00e+00	0	28	0	449839104	70	4307
2026-01-06 13:37:47.10	292.72	8.17	-52.0	-53.7	13.9	0.00e+00	0	28	0	459276288	70	4302
2026-01-06 13:37:50.10	293.23	8.20	-52.1	-53.8	13.9	0.00e+00	0	28	0	468713472	70	4354
2026-01-06 13:37:53.10	293.73	8.23	-51.8	-53.4	14.0	0.00e+00	0	28	0	478150656	70	4159
2026-01-06 13:37:56.10	294.23	8.25	-51.7	-53.3	14.1	0.00e+00	0	28	0	486539264	70	4132
2026-01-06 13:37:59.08	294.73	8.27	-52.0	-53.7	13.9	0.00e+00	0	28	0	495976448	70	4313
2026-01-06 13:38:02.08	295.23	8.29	-51.9	-53.6	13.9	0.00e+00	0	28	0	505413632	70	4246
2026-01-06 13:38:05.08	295.74	8.31	-51.8	-53.5	14.0	0.00e+00	0	28	0	514850816	70	4195
2026-01-06 13:38:08.06	296.24	8.33	-51.8	-53.5	14.0	0.00e+00	0	28	0	524288000	70	4200
2026-01-06 13:38:11.05	296.75	8.34	-51.9	-53.6	13.9	0.00e+00	0	28	0	533725184	70	4261
2026-01-06 13:38:14.05	297.25	8.36	-51.8	-53.5	14.0	0.00e+00	0	28	0	543162368	70	4208
2026-01-06 13:38:17.04	297.76	8.37	-51.7	-53.3	14.0	0.00e+00	0	28	0	552599552	69	4345
2026-01-06 13:38:20.03	298.26	8.38	-51.8	-53.4	13.9	0.00e+00	0	28	0	562036736	69	4401
2026-01-06 13:38:23.04	298.77	8.39	-51.7	-53.3	14.0	0.00e+00	0	28	0	571473920	69	4363
2026-01-06 13:38:26.04	299.28	8.39	-51.8	-53.5	13.9	0.00e+00	0	28	0	580911104	69	4446
2026-01-06 13:38:29.04	299.79	8.39	-51.8	-53.4	13.9	0.00e+00	0	28	0	590348288	69	4420
2026-01-06 13:38:32.03	300.29	8.40	-51.8	-53.4	13.9	0.00e+00	0	28	0	598736896	69	4400
2026-01-06 13:38:35.02	300.80	8.40	-51.8	-53.5	13.9	0.00e+00	0	28	0	608174080	69	4452
2026-01-06 13:38:38.02	301.30	8.39	-51.8	-53.4	13.9	0.00e+00	0	28	0	617611264	69	4428
2026-01-06 13:38:41.02	301.81	8.39	-51.6	-53.2	14.0	0.00e+00	0	28	0	627048448	69	4335
2026-01-06 13:38:44.00	302.32	8.38	-51.6	-53.2	14.0	0.00e+00	0	28	0	636485632	69	4340
2026-01-06 13:38:46.99	302.82	8.37	-51.6	-53.2	14.0	0.00e+00	0	28	0	645922816	69	4309
2026-01-06 13:38:50.00	303.33	8.36	-51.6	-53.2	14.0	0.00e+00	0	28	0	655360000	69	4328
2026-01-06 13:38:53.00	303.84	8.35	-51.6	-53.2	14.0	0.00e+00	0	28	0	664797184	69	4296
2026-01-06 13:38:56.01	304.34	8.34	-51.4	-53.0	14.1	0.00e+00	0	28	0	674234368	69	4218
2026-01-06 13:38:59.01	304.85	8.32	-51.5	-53.1	14.1	0.00e+00	0	28	0	683671552	69	4249
2026-01-06 13:39:02.00	305.35	8.31	-51.5	-53.1	14.0	0.00e+00	0	28	0	693108736	69	4254
2026-01-06 13:39:04.99	305.85	8.29	-51.6	-53.2	14.0	0.00e+00	0	28	0	702545920	69	4321
2026-01-06 13:39:07.97	306.35	8.26	-51.4	-53.0	14.1	0.00e+00	0	28	0	711983104	69	4229
2026-01-06 13:39:10.95	306.85	8.24	-51.4	-52.9	14.1	0.00e+00	0	28	0	721420288	69	4180
2026-01-06 13:39:13.95	307.35	8.22	-51.4	-53.0	14.1	0.00e+00	0	28	0	729808896	69	4203
2026-01-06 13:39:16.94	307.85	8.19	-51.6	-53.2	14.0	0.00e+00	0	28	0	739246080	69	4292
2026-01-06 13:39:19.93	308.35	8.16	-51.5	-53.1	14.0	0.00e+00	0	28	0	748683264	69	4249
2026-01-06 13:39:22.92	308.85	8.13	-51.5	-53.0	14.1	0.00e+00	0	28	0	758120448	69	4241
2026-01-06 13:39:25.90	309.34	8.10	-51.6	-53.2	14.0	0.00e+00	0	28	0	767557632	69	4314
2026-01-06 13:39:28.90	309.84	8.06	-51.5	-53.1	14.0	0.00e+00	0	28	0	776994816	69	4280
2026-01-06 13:39:31.89	310.33	8.03	-51.5	-53.1	14.0	0.00e+00	0	28	0	786432000	69	4268
2026-01-06 13:39:34.89	310.83	7.99	-51.5	-53.0	14.0	0.00e+00	0	28	0	795869184	69	4233
2026-01-06 13:39:37.89	311.32	7.95	-51.5	-53.1	14.0	0.00e+00	0	28	0	805306368	69	4262
2026-01-06 13:39:40.87	311.81	7.91	-51.6	-53.2	13.9	0.00e+00	0	28	0	814743552	69	4323
2026-01-06 13:39:43.86	312.30	7.87	-51.6	-53.3	13.9	0.00e+00	0	28	0	824180736	69	4341
2026-01-06 13:39:46.86	312.79	7.82	-51.6	-53.3	13.9	0.00e+00	0	28	0	833617920	69	4344
2026-01-06 13:39:49.85	313.27	7.78	-51.8	-53.5	13.8	0.00e+00	0	28	0	842006528	69	4442
2026-01-06 13:39:52.86	313.76	7.73	-51.9	-53.6	13.8	0.00e+00	0	28	0	851443712	69	4501
2026-01-06 13:39:55.86	314.25	7.68	-51.9	-53.6	13.8	0.00e+00	0	28	0	860880896	69	4514
2026-01-06 13:39:58.87	314.73	7.63	-51.7	-53.4	13.8	0.00e+00	0	28	0	870318080	69	4400
2026-01-06 13:40:01.81	315.20	7.58	-51.8	-53.5	13.8	0.00e+00	0	28	0	879755264	69	4452
2026-01-06 13:40:04.82	315.68	7.52	-51.7	-53.4	13.8	0.00e+00	0	28	0	889192448	69	4397
2026-01-06 13:40:07.81	316.16	7.47	-51.8	-53.5	13.8	0.00e+00	0	28	0	898629632	69	4445
2026-01-06 13:40:10.80	316.63	7.41	-51.8	-53.5	13.8	0.00e+00	0	28	0	908066816	69	4461
2026-01-06 13:40:13.78	317.10	7.35	-51.7	-53.4	13.8	0.00e+00	0	28	0	917504000	69	4399
2026-01-06 13:40:16.77	317.57	7.29	-51.6	-53.3	13.9	0.00e+00	0	28	0	926941184	69	4347
2026-01-06 13:40:19.77	318.04	7.23	-51.7	-53.3	13.8	0.00e+00	0	28	0	936378368	69	4379
2026-01-06 13:40:22.76	318.51	7.17	-51.6	-53.2	13.9	0.00e+00	0	28	0	945815552	69	4337
2026-01-06 13:40:25.76	318.98	7.10	-51.6	-53.2	13.9	0.00e+00	0	28	0	954204160	69	4309
2026-01-06 13:40:28.75	319.44	7.04	-51.6	-53.3	13.9	0.00e+00	0	28	0	963641344	69	4359
2026-01-06 13:40:31.76	319.90	6.97	-51.6	-53.3	13.9	0.00e+00	0	28	0	973078528	69	4365
2026-01-06 13:40:34.76	320.36	6.90	-51.7	-53.4	13.8	0.00e+00	0	28	0	982515712	69	4423
2026-01-06 13:40:37.78	320.82	6.83	-51.6	-53.3	13.9	0.00e+00	0	28	0	991952896	69	4364
2026-01-06 13:40:40.78	321.28	6.76	-51.4	-53.0	14.0	0.00e+00	0	28	0	1001390080	69	4221
2026-01-06 13:40:43.77	321.73	6.68	-51.5	-53.1	13.9	0.00e+00	0	28	0	1010827264	69	4280
2026-01-06 13:40:46.77	322.18	6.61	-51.7	-53.3	13.8	0.00e+00	0	28	0	1020264448	69	4387
2026-01-06 13:40:49.77	322.63	6.53	-51.7	-53.4	13.8	0.00e+00	0	28	0	1029701632	69	4441
2026-01-06 13:40:52.77	323.08	6.46	-51.6	-53.3	13.8	0.00e+00	0	28	0	1039138816	69	4360
2026-01-06 13:40:55.77	323.52	6.38	-51.7	-53.4	13.7	0.00e+00	0	28	0	1048576000	69	4435
2026-01-06 13:40:58.77	323.97	6.30	-51.8	-53.5	13.7	0.00e+00	0	28	0	1058013184	69	4482
2026-01-06 13:41:01.76	324.40	6.22	-51.7	-53.4	13.8	0.00e+00	0	28	0	1067450368	69	4408
2026-01-06 13:41:04.75	324.84	6.14	-51.7	-53.4	13.8	0.00e+00	0	28	0	1076887552	69	4405
2026-01-06 13:41:07.74	325.27	6.06	-51.7	-53.5	13.7	0.00e+00	0	28	0	1086324736	69	4445
2026-01-06 13:41:10.72	325.70	5.97	-52.0	-53.8	13.5	0.00e+00	0	28	0	1094713344	69	4604
2026-01-06 13:41:13.71	326.13	5.89	-51.9	-53.6	13.6	0.00e+00	0	28	0	1104150528	69	4529
2026-01-06 13:41:16.73	326.56	5.80	-51.6	-53.3	13.8	0.00e+00	0	28	0	1113587712	69	4370
2026-01-06 13:41:19.70	326.99	5.72	-51.9	-53.6	13.6	0.00e+00	0	28	0	1123024896	69	4519
2026-01-06 13:41:22.68	327.41	5.63	-51.8	-53.5	13.7	0.00e+00	0	28	0	1132462080	69	4486
2026-01-06 13:41:25.67	327.83	5.54	-51.8	-53.6	13.6	0.00e+00	0	28	0	1141899264	69	4506
2026-01-06 13:41:28.65	328.24	5.45	-52.0	-53.7	13.5	0.00e+00	0	28	0	1151336448	69	4598
2026-01-06 13:41:31.65	328.66	5.36	-52.2	-54.0	13.3	0.00e+00	0	28	0	1160773632	69	4754
2026-01-06 13:41:34.63	329.07	5.27	-52.1	-54.0	13.4	0.00e+00	0	28	0	1170210816	69	4734
2026-01-06 13:41:37.63	329.48	5.18	-52.3	-54.2	13.3	0.00e+00	0	28	0	1179648000	69	4820
2026-01-06 13:41:40.63	329.89	5.09	-52.1	-54.0	13.4	0.00e+00	0	28	0	1189085184	69	4707
2026-01-06 13:41:43.63	330.29	4.99	-54.6	-57.5	11.7	0.00e+00	0	28	0	1197473792	74	5328
2026-01-06 13:41:46.62	330.69	4.90	-59.8	-73.7	3.8	1.49e+00	0	28	104	1199570944	84	19255
2026-01-06 13:41:49.61	331.09	4.80	-60.3	-74.2	3.8	1.49e+00	0	28	104	1199570944	85	19180
2026-01-06 13:41:52.61	331.49	4.71	-60.6	-74.5	3.8	1.49e+00	0	28	104	1199570944	86	18738
2026-01-06 13:41:55.62	331.89	4.61	-60.7	-74.6	3.8	1.49e+00	0	28	104	1199570944	86	19079
2026-01-06 13:41:58.62	332.28	4.51	-60.8	-74.7	3.8	1.49e+00	0	28	104	1199570944	86	19194
2026-01-06 13:42:01.61	332.67	4.41	-60.8	-74.7	3.8	1.49e+00	0	28	104	1199570944	86	19234
2026-01-06 13:42:04.60	333.06	4.31	-60.8	-74.7	3.8	1.49e+00	0	28	104	1199570944	86	19335
2026-01-06 13:42:07.58	333.44	4.21	-60.8	-74.6	3.8	1.49e+00	0	28	104	1199570944	86	19158
2026-01-06 13:42:10.57	333.82	4.11	-60.7	-74.6	3.8	1.49e+00	0	28	104	1199570944	86	18950
2026-01-06 13:42:13.54	334.20	4.01	-60.7	-74.6	3.8	1.49e+00	0	28	104	1199570944	86	18968
2026-01-06 13:42:16.53	334.58	3.91	-60.7	-74.5	3.8	1.49e+00	0	28	104	1199570944	86	18937
2026-01-06 13:42:19.53	334.95	3.81	-60.7	-74.5	3.8	1.49e+00	0	28	104	1199570944	86	18916
2026-01-06 13:42:22.53	335.32	3.71	-60.6	-74.5	3.8	1.49e+00	0	28	104	1199570944	86	18837
2026-01-06 13:42:25.54	335.70	3.60	-60.6	-74.5	3.8	1.49e+00	0	28	104	1199570944	86	18807
2026-01-06 13:42:28.54	336.06	3.50	-60.6	-74.5	3.8	1.49e+00	0	28	104	1199570944	86	18812
2026-01-06 13:42:31.53	336.43	3.39	-60.6	-74.5	3.8	1.49e+00	0	28	104	1199570944	86	18741
2026-01-06 13:42:34.53	336.79	3.29	-60.6	-74.5	3.8	1.49e+00	0	28	104	1199570944	86	18787
2026-01-06 13:42:37.52	337.15	3.18	-60.6	-74.4	3.8	1.49e+00	0	29	104	1199570944	86	18723
2026-01-06 13:42:40.50	337.51	3.08	-60.6	-74.5	3.8	1.49e+00	0	28	104	1199570944	86	18757
2026-01-06 13:42:43.51	337.86	2.97	-60.6	-74.4	3.8	1.49e+00	0	28	104	1199570944	86	18708
2026-01-06 13:42:46.52	338.22	2.86	-60.5	-74.4	3.8	1.49e+00	0	28	104	1199570944	86	18684
2026-01-06 13:42:49.52	338.57	2.75	-60.5	-74.4	3.8	1.49e+00	0	28	104	1199570944	86	18618
2026-01-06 13:42:52.51	338.92	2.65	-60.5	-74.4	3.8	1.49e+00	0	28	104	1199570944	86	18635
2026-01-06 13:42:55.51	339.26	2.54	-60.5	-74.4	3.8	1.49e+00	0	28	104	1199570944	86	18637
2026-01-06 13:42:58.51	339.61	2.43	-60.5	-74.4	3.8	1.49e+00	0	28	104	1199570944	86	18653
2026-01-06 13:43:01.45	339.94	2.32	-60.5	-74.4	3.8	1.49e+00	0	28	104	1199570944	86	18627
2026-01-06 13:43:04.30	340.26	2.22	-60.5	-74.4	3.8	1.49e+00	0	28	104	1199570944	86	18602
2026-01-06 13:43:07.42	340.61	2.10	-60.5	-74.4	3.8	1.49e+00	0	28	104	1199570944	86	18610
2026-01-06 13:43:10.29	340.93	2.00	-60.5	-74.4	3.8	1.49e+00	0	29	104	1199570944	86	18574

#Closed at: 2026-01-06 13:43:11
#Recorded file [1199 MB]: D:/lorett/data/31004_260106_163356.dat