passes_logs/2026/01/06/R3.2S_Murmansk/R3.2S_Murmansk__20260106_064839_NOAA_21_JPSS-2_rec.log

#Pass ID: 20260106_064839_NOAA 21 (JPSS-2)
#Satellite: NOAA 21 (JPSS-2)
#Configuration: NOAA-21
#almurnet v.1.7.20251203
#Start time: 2026-01-06 06:48:41

#Version: 2.2.20231116
#Station: R3.2S_Murmansk
#Location: 33.079688 lon 68.888172 lat
#TLE: 1 54234U 22150A   26005.42670836  .00000142  00000+0  88292-4 0  9996
#TLE: 2 54234  98.7490 306.4427 0001045 340.6622  19.4514 14.19532269163451

#Time	Az	El	Level	Level2	SNR	BER	BlckErr	Temp	State	Recorded	gain1	gain2
2026-01-06 06:48:41.26	91.12	2.09	-57.9	-71.7	3.8	1.49e+00	0	24	0	0	82	17248
2026-01-06 06:48:45.23	90.90	2.32	-57.9	-71.6	3.8	1.49e+00	0	24	104	0	80	19061
2026-01-06 06:48:49.21	90.68	2.56	-57.9	-71.6	3.8	1.49e+00	0	24	104	0	80	19143
2026-01-06 06:48:53.19	90.46	2.80	-57.9	-71.7	3.8	1.49e+00	0	24	104	0	80	19225
2026-01-06 06:48:57.16	90.24	3.04	-57.9	-71.7	3.8	1.49e+00	0	24	104	0	80	19189
2026-01-06 06:49:01.14	90.01	3.29	-57.9	-71.6	3.8	1.49e+00	0	24	104	0	80	19122
2026-01-06 06:49:05.11	89.78	3.53	-57.9	-71.7	3.8	1.49e+00	0	25	104	0	80	19215
2026-01-06 06:49:09.10	89.54	3.78	-57.9	-71.4	3.8	1.49e+00	0	25	104	0	80	18721
2026-01-06 06:49:13.07	89.30	4.02	-57.9	-71.7	3.8	1.49e+00	0	25	104	0	80	19258
2026-01-06 06:49:17.04	89.05	4.27	-57.8	-70.4	3.8	1.49e+00	0	25	104	0	80	16512
2026-01-06 06:49:21.01	88.80	4.52	-57.4	-66.3	4.9	7.43e-01	0	25	0	0	80	10319
2026-01-06 06:49:24.99	88.54	4.78	-56.7	-62.6	7.4	8.01e-02	0	25	0	12582912	80	6763
2026-01-06 06:49:28.97	88.28	5.03	-56.3	-61.5	8.3	2.65e-02	0	25	0	25165824	79	6302
2026-01-06 06:49:32.94	88.02	5.29	-53.6	-56.1	12.4	1.72e-04	0	25	0	37748736	73	4797
2026-01-06 06:49:36.91	87.75	5.55	-53.1	-55.4	12.8	0.00e+00	0	25	0	48234496	72	4673
2026-01-06 06:49:40.89	87.47	5.81	-52.7	-54.8	13.2	0.00e+00	0	25	0	60817408	72	4353
2026-01-06 06:49:44.85	87.20	6.07	-52.5	-54.5	13.3	0.00e+00	0	25	0	72351744	71	4453
2026-01-06 06:49:48.82	86.91	6.33	-51.6	-53.3	13.8	0.00e+00	0	25	0	84934656	69	4380
2026-01-06 06:49:52.77	86.62	6.60	-51.2	-52.9	14.1	0.00e+00	0	25	0	97517568	69	4159
2026-01-06 06:49:56.71	86.33	6.87	-51.3	-53.0	14.0	0.00e+00	0	25	0	110100480	69	4200
2026-01-06 06:50:00.68	86.03	7.14	-51.1	-52.8	14.0	0.00e+00	0	25	0	122683392	68	4354
2026-01-06 06:50:04.66	85.72	7.41	-51.1	-52.7	14.0	0.00e+00	0	25	0	135266304	68	4315
2026-01-06 06:50:08.63	85.41	7.68	-51.0	-52.6	14.1	0.00e+00	0	26	0	146800640	68	4257
2026-01-06 06:50:12.61	85.08	7.96	-51.1	-52.8	14.0	0.00e+00	0	25	0	159383552	68	4351
2026-01-06 06:50:16.58	84.76	8.24	-51.0	-52.6	14.2	0.00e+00	0	25	0	171966464	68	4264
2026-01-06 06:50:20.54	84.43	8.52	-50.9	-52.4	14.2	0.00e+00	0	25	0	184549376	68	4191
2026-01-06 06:50:24.49	84.09	8.80	-50.7	-52.2	14.3	0.00e+00	0	26	0	197132288	68	4085
2026-01-06 06:50:28.46	83.74	9.09	-50.4	-51.9	14.3	0.00e+00	0	25	0	209715200	67	4184
2026-01-06 06:50:32.41	83.39	9.37	-50.5	-52.0	14.3	0.00e+00	0	25	0	221249536	67	4202
2026-01-06 06:50:36.38	83.03	9.66	-50.5	-52.0	14.3	0.00e+00	0	26	0	233832448	67	4197
2026-01-06 06:50:40.36	82.66	9.96	-50.2	-51.7	14.3	0.00e+00	0	25	0	246415360	66	4313
2026-01-06 06:50:44.32	82.29	10.25	-50.3	-51.8	14.3	0.00e+00	0	26	0	258998272	66	4351
2026-01-06 06:50:48.29	81.90	10.55	-50.2	-51.6	14.4	0.00e+00	0	26	0	271581184	66	4290
2026-01-06 06:50:52.25	81.51	10.85	-50.0	-51.5	14.4	0.00e+00	0	26	0	283115520	66	4194
2026-01-06 06:50:56.22	81.11	11.15	-49.9	-51.3	14.5	0.00e+00	0	26	0	295698432	66	4127
2026-01-06 06:51:00.20	80.70	11.45	-49.8	-51.2	14.6	0.00e+00	0	26	0	308281344	66	4090
2026-01-06 06:51:04.17	80.28	11.76	-49.7	-51.1	14.5	0.00e+00	0	26	0	320864256	65	4253
2026-01-06 06:51:08.15	79.86	12.07	-49.4	-50.7	14.7	0.00e+00	0	25	0	333447168	65	4072
2026-01-06 06:51:12.11	79.42	12.38	-49.2	-50.5	14.8	0.00e+00	0	26	0	346030080	65	3986
2026-01-06 06:51:16.09	78.97	12.69	-49.3	-50.7	14.6	0.00e+00	0	26	0	357564416	64	4311
2026-01-06 06:51:20.06	78.52	13.01	-49.4	-50.7	14.6	0.00e+00	0	26	0	370147328	64	4315
2026-01-06 06:51:24.03	78.05	13.32	-49.1	-50.4	14.7	0.00e+00	0	26	0	382730240	64	4167
2026-01-06 06:51:28.01	77.58	13.64	-49.0	-50.2	14.8	0.00e+00	0	26	0	395313152	64	4087
2026-01-06 06:51:31.96	77.09	13.96	-49.1	-50.4	14.7	0.00e+00	0	26	0	407896064	64	4175
2026-01-06 06:51:35.91	76.60	14.28	-49.3	-50.6	14.6	0.00e+00	0	26	0	420478976	64	4256
2026-01-06 06:51:39.86	76.09	14.61	-49.3	-50.7	14.6	0.00e+00	0	26	0	432013312	64	4294
2026-01-06 06:51:43.82	75.57	14.94	-49.3	-50.6	14.6	0.00e+00	0	26	0	444596224	64	4269
2026-01-06 06:51:47.78	75.04	15.26	-49.2	-50.5	14.6	0.00e+00	0	26	0	457179136	64	4232
2026-01-06 06:51:51.74	74.50	15.60	-49.4	-50.7	14.5	0.00e+00	0	26	0	469762048	64	4340
2026-01-06 06:51:55.70	73.94	15.93	-49.3	-50.6	14.6	0.00e+00	0	26	0	481296384	64	4291
2026-01-06 06:51:59.66	73.38	16.26	-49.2	-50.5	14.7	0.00e+00	0	26	0	493879296	64	4194
2026-01-06 06:52:03.60	72.80	16.60	-49.3	-50.6	14.6	0.00e+00	0	26	0	506462208	64	4274
2026-01-06 06:52:07.56	72.20	16.93	-49.3	-50.6	14.6	0.00e+00	0	26	0	519045120	64	4286
2026-01-06 06:52:11.52	71.60	17.27	-49.3	-50.6	14.6	0.00e+00	0	26	0	531628032	64	4261
2026-01-06 06:52:15.48	70.97	17.61	-49.3	-50.6	14.6	0.00e+00	0	26	0	543162368	64	4264
2026-01-06 06:52:19.45	70.34	17.96	-49.6	-50.9	14.5	0.00e+00	0	26	0	555745280	64	4440
2026-01-06 06:52:23.41	69.69	18.30	-49.2	-50.5	14.7	0.00e+00	0	26	0	568328192	64	4212
2026-01-06 06:52:27.39	69.02	18.64	-49.2	-50.5	14.7	0.00e+00	0	26	0	580911104	64	4214
2026-01-06 06:52:31.37	68.33	18.99	-49.2	-50.5	14.7	0.00e+00	0	26	0	593494016	64	4201
2026-01-06 06:52:35.34	67.63	19.33	-49.0	-50.3	14.7	0.00e+00	0	26	0	606076928	64	4122
2026-01-06 06:52:39.31	66.92	19.68	-48.9	-50.2	14.8	0.00e+00	0	26	0	618659840	64	4053
2026-01-06 06:52:43.28	66.18	20.02	-49.1	-50.4	14.7	0.00e+00	0	26	0	630194176	64	4149
2026-01-06 06:52:47.25	65.44	20.37	-48.7	-49.9	14.9	0.00e+00	0	26	0	642777088	63	4176
2026-01-06 06:52:51.21	64.67	20.71	-48.8	-50.0	14.8	0.00e+00	0	26	0	655360000	63	4223
2026-01-06 06:52:55.19	63.89	21.06	-48.7	-49.9	14.8	0.00e+00	0	26	0	667942912	63	4162
2026-01-06 06:52:59.15	63.09	21.40	-48.7	-50.0	14.8	0.00e+00	0	26	0	680525824	63	4197
2026-01-06 06:53:03.13	62.27	21.74	-48.6	-49.8	14.8	0.00e+00	0	26	0	692060160	63	4111
2026-01-06 06:53:07.11	61.43	22.08	-48.5	-49.7	14.9	0.00e+00	0	26	0	704643072	63	4056
2026-01-06 06:53:11.08	60.57	22.41	-48.4	-49.6	14.9	0.00e+00	0	26	0	717225984	63	4014
2026-01-06 06:53:15.06	59.69	22.75	-48.3	-49.4	14.8	0.00e+00	0	26	0	729808896	62	4191
2026-01-06 06:53:19.03	58.80	23.08	-48.5	-49.7	14.8	0.00e+00	0	26	0	742391808	62	4324
2026-01-06 06:53:23.01	57.88	23.41	-48.4	-49.6	14.8	0.00e+00	0	26	0	754974720	62	4281
2026-01-06 06:53:26.98	56.95	23.73	-48.7	-49.9	14.7	0.00e+00	0	26	0	767557632	62	4424
2026-01-06 06:53:30.96	56.00	24.05	-49.0	-50.2	14.7	0.00e+00	0	26	0	779091968	63	4333
2026-01-06 06:53:34.93	55.02	24.36	-49.0	-50.3	14.7	0.00e+00	0	26	0	791674880	63	4347
2026-01-06 06:53:38.90	54.03	24.67	-48.8	-50.0	14.8	0.00e+00	0	26	0	804257792	63	4207
2026-01-06 06:53:42.88	53.02	24.97	-49.0	-50.3	14.7	0.00e+00	0	26	0	816840704	63	4342
2026-01-06 06:53:46.87	51.98	25.27	-48.8	-50.1	14.7	0.00e+00	0	26	0	829423616	63	4258
2026-01-06 06:53:50.83	50.94	25.56	-49.3	-50.6	14.6	0.00e+00	0	26	0	842006528	63	4515
2026-01-06 06:53:54.81	49.87	25.84	-49.2	-50.5	14.6	0.00e+00	0	26	0	854589440	63	4446
2026-01-06 06:53:58.76	48.78	26.11	-48.9	-50.1	14.7	0.00e+00	0	26	0	866123776	63	4285
2026-01-06 06:54:02.72	47.68	26.37	-48.7	-50.0	14.8	0.00e+00	0	26	0	878706688	63	4194
2026-01-06 06:54:06.68	46.56	26.62	-49.0	-50.2	14.7	0.00e+00	0	26	0	891289600	63	4325
2026-01-06 06:54:10.66	45.41	26.87	-48.8	-50.0	14.8	0.00e+00	0	26	0	903872512	63	4229
2026-01-06 06:54:14.63	44.25	27.10	-48.9	-50.1	14.7	0.00e+00	0	26	0	916455424	63	4267
2026-01-06 06:54:18.59	43.08	27.32	-48.7	-49.9	14.8	0.00e+00	0	26	0	927989760	63	4187
2026-01-06 06:54:22.58	41.88	27.53	-48.8	-50.0	14.8	0.00e+00	0	26	0	940572672	63	4230
2026-01-06 06:54:26.55	40.67	27.73	-48.9	-50.1	14.7	0.00e+00	0	26	0	953155584	63	4272
2026-01-06 06:54:30.52	39.45	27.91	-48.9	-50.1	14.7	0.00e+00	0	26	0	965738496	63	4258
2026-01-06 06:54:34.48	38.22	28.08	-48.9	-50.1	14.8	0.00e+00	0	26	0	978321408	63	4265
2026-01-06 06:54:38.45	36.97	28.24	-48.7	-49.9	14.8	0.00e+00	0	26	0	990904320	63	4159
2026-01-06 06:54:42.43	35.71	28.38	-48.9	-50.1	14.8	0.00e+00	0	26	0	1002438656	63	4249
2026-01-06 06:54:46.38	34.44	28.51	-49.1	-50.3	14.7	0.00e+00	0	26	0	1015021568	63	4373
2026-01-06 06:54:50.34	33.17	28.62	-49.2	-50.5	14.6	0.00e+00	0	26	0	1027604480	63	4446
2026-01-06 06:54:54.31	31.88	28.72	-49.2	-50.5	14.6	0.00e+00	0	26	0	1040187392	63	4465
2026-01-06 06:54:58.29	30.58	28.80	-49.1	-50.4	14.7	0.00e+00	0	26	0	1052770304	63	4400
2026-01-06 06:55:02.25	29.28	28.86	-49.0	-50.2	14.7	0.00e+00	0	26	0	1065353216	63	4334
2026-01-06 06:55:06.21	27.98	28.91	-48.9	-50.2	14.7	0.00e+00	0	26	0	1076887552	63	4301
2026-01-06 06:55:10.18	26.67	28.94	-49.3	-50.6	14.6	0.00e+00	0	26	0	1089470464	63	4496
2026-01-06 06:55:14.14	25.36	28.95	-49.1	-50.3	14.7	0.00e+00	0	26	0	1102053376	63	4388
2026-01-06 06:55:18.11	24.05	28.95	-49.1	-50.3	14.7	0.00e+00	0	26	0	1114636288	63	4382
2026-01-06 06:55:22.10	22.73	28.93	-48.9	-50.1	14.7	0.00e+00	0	26	0	1127219200	63	4280
2026-01-06 06:55:26.09	21.42	28.89	-49.0	-50.2	14.7	0.00e+00	0	26	0	1138753536	63	4326
2026-01-06 06:55:30.04	20.12	28.84	-48.7	-49.9	14.8	0.00e+00	0	26	0	1151336448	63	4147
2026-01-06 06:55:33.99	18.83	28.77	-48.6	-49.8	14.9	0.00e+00	0	26	0	1163919360	63	4104
2026-01-06 06:55:37.95	17.54	28.69	-48.6	-49.8	14.9	0.00e+00	0	26	0	1176502272	63	4111
2026-01-06 06:55:41.92	16.25	28.58	-49.0	-50.3	14.7	0.00e+00	0	26	0	1189085184	63	4350
2026-01-06 06:55:45.88	14.98	28.47	-49.2	-50.4	14.6	0.00e+00	0	26	0	1200619520	63	4439
2026-01-06 06:55:49.85	13.71	28.34	-48.9	-50.1	14.8	0.00e+00	0	26	0	1213202432	63	4244
2026-01-06 06:55:53.82	12.46	28.19	-49.0	-50.3	14.7	0.00e+00	0	26	0	1225785344	63	4341
2026-01-06 06:55:57.78	11.22	28.03	-49.1	-50.3	14.7	0.00e+00	0	26	0	1238368256	63	4389
2026-01-06 06:56:01.73	9.99	27.85	-49.0	-50.2	14.7	0.00e+00	0	26	0	1250951168	63	4311
2026-01-06 06:56:05.71	8.78	27.66	-48.9	-50.1	14.8	0.00e+00	0	26	0	1263534080	63	4278
2026-01-06 06:56:09.68	7.57	27.46	-49.1	-50.3	14.7	0.00e+00	0	26	0	1275068416	63	4373
2026-01-06 06:56:13.65	6.39	27.25	-49.4	-50.6	14.6	0.00e+00	0	26	0	1287651328	63	4542
2026-01-06 06:56:17.62	5.22	27.03	-49.2	-50.4	14.6	0.00e+00	0	26	0	1300234240	63	4426
2026-01-06 06:56:21.59	4.07	26.79	-49.3	-50.6	14.6	0.00e+00	0	26	0	1312817152	63	4535
2026-01-06 06:56:25.57	2.93	26.54	-48.7	-49.9	14.8	0.00e+00	0	26	0	1325400064	63	4171
2026-01-06 06:56:29.53	1.82	26.29	-49.0	-50.2	14.7	0.00e+00	0	26	0	1337982976	63	4308
2026-01-06 06:56:33.52	0.71	26.02	-49.1	-50.3	14.7	0.00e+00	0	26	0	1349517312	63	4366
2026-01-06 06:56:37.49	359.63	25.74	-48.3	-49.4	15.0	0.00e+00	0	26	0	1362100224	63	3952
2026-01-06 06:56:41.47	358.57	25.46	-49.1	-50.4	14.7	0.00e+00	0	26	0	1374683136	63	4423
2026-01-06 06:56:45.44	357.53	25.17	-49.3	-50.5	14.6	0.00e+00	0	26	0	1387266048	63	4491
2026-01-06 06:56:49.42	356.50	24.87	-49.0	-50.3	14.7	0.00e+00	0	26	0	1399848960	63	4350
2026-01-06 06:56:53.41	355.50	24.57	-48.6	-49.8	14.8	0.00e+00	0	26	0	1412431872	63	4141
2026-01-06 06:56:57.39	354.51	24.26	-48.2	-49.4	15.0	0.00e+00	0	26	0	1425014784	63	3934
2026-01-06 06:57:01.36	353.55	23.94	-48.5	-49.7	14.9	0.00e+00	0	26	0	1436549120	63	4063
2026-01-06 06:57:05.35	352.60	23.62	-48.4	-49.6	14.9	0.00e+00	0	26	0	1449132032	63	4011
2026-01-06 06:57:09.33	351.68	23.30	-48.6	-49.8	14.9	0.00e+00	0	26	0	1461714944	63	4109
2026-01-06 06:57:13.28	350.78	22.97	-48.5	-49.7	14.9	0.00e+00	0	26	0	1474297856	63	4068
2026-01-06 06:57:17.25	349.89	22.64	-48.6	-49.8	14.8	0.00e+00	0	26	0	1486880768	63	4135
2026-01-06 06:57:21.22	349.02	22.31	-48.8	-50.0	14.8	0.00e+00	0	26	0	1499463680	63	4216
2026-01-06 06:57:25.17	348.18	21.97	-48.6	-49.7	14.9	0.00e+00	0	26	0	1510998016	63	4092
2026-01-06 06:57:29.14	347.35	21.63	-48.7	-49.9	14.8	0.00e+00	0	26	0	1523580928	63	4169
2026-01-06 06:57:33.11	346.54	21.29	-49.1	-50.4	14.6	0.00e+00	0	26	0	1536163840	63	4408
2026-01-06 06:57:37.07	345.75	20.95	-49.2	-50.4	14.6	0.00e+00	0	26	0	1548746752	63	4419
2026-01-06 06:57:41.03	344.97	20.61	-49.2	-50.5	14.6	0.00e+00	0	26	0	1561329664	63	4461
2026-01-06 06:57:44.99	344.22	20.27	-49.0	-50.3	14.7	0.00e+00	0	26	0	1572864000	63	4352
2026-01-06 06:57:48.95	343.48	19.92	-48.8	-50.0	14.8	0.00e+00	0	26	0	1585446912	63	4240
2026-01-06 06:57:52.92	342.75	19.58	-48.8	-50.0	14.8	0.00e+00	0	26	0	1598029824	63	4208
2026-01-06 06:57:56.89	342.04	19.24	-48.8	-50.0	14.8	0.00e+00	0	26	0	1610612736	63	4234
2026-01-06 06:58:00.84	341.36	18.89	-49.0	-50.2	14.7	0.00e+00	0	26	0	1623195648	63	4334
2026-01-06 06:58:04.80	340.68	18.55	-48.9	-50.2	14.7	0.00e+00	0	26	0	1635778560	63	4310
2026-01-06 06:58:08.78	340.02	18.21	-49.1	-50.3	14.6	0.00e+00	0	26	0	1647312896	63	4370
2026-01-06 06:58:12.74	339.37	17.87	-49.5	-50.8	14.6	0.00e+00	0	26	0	1659895808	64	4390
2026-01-06 06:58:16.71	338.74	17.52	-49.7	-51.0	14.5	0.00e+00	0	26	0	1672478720	64	4482
2026-01-06 06:58:20.67	338.13	17.19	-49.3	-50.5	14.6	0.00e+00	0	26	0	1685061632	64	4238
2026-01-06 06:58:24.62	337.53	16.85	-49.1	-50.4	14.7	0.00e+00	0	26	0	1697644544	64	4152
2026-01-06 06:58:28.58	336.94	16.51	-49.5	-50.8	14.5	0.00e+00	0	26	0	1709178880	64	4386
2026-01-06 06:58:32.55	336.36	16.18	-49.5	-50.8	14.6	0.00e+00	0	26	0	1721761792	64	4363
2026-01-06 06:58:36.51	335.80	15.84	-49.1	-50.4	14.7	0.00e+00	0	26	0	1734344704	64	4146
2026-01-06 06:58:40.49	335.25	15.51	-49.2	-50.5	14.6	0.00e+00	0	26	0	1746927616	64	4209
2026-01-06 06:58:44.47	334.71	15.18	-49.6	-51.0	14.5	0.00e+00	0	26	0	1759510528	64	4461
2026-01-06 06:58:48.44	334.18	14.85	-49.5	-50.8	14.5	0.00e+00	0	26	0	1772093440	64	4391
2026-01-06 06:58:52.40	333.67	14.53	-49.1	-50.3	14.7	0.00e+00	0	26	0	1783627776	64	4125
2026-01-06 06:58:56.38	333.16	14.20	-49.0	-50.3	14.7	0.00e+00	0	26	0	1796210688	64	4102
2026-01-06 06:59:00.35	332.67	13.88	-49.5	-50.8	14.5	0.00e+00	0	26	0	1808793600	64	4354
2026-01-06 06:59:04.32	332.19	13.56	-49.7	-51.0	14.4	0.00e+00	0	26	0	1821376512	64	4485
2026-01-06 06:59:08.27	331.72	13.24	-49.7	-51.1	14.4	0.00e+00	0	26	0	1833959424	64	4518
2026-01-06 06:59:12.25	331.26	12.92	-49.2	-50.5	14.6	0.00e+00	0	26	0	1845493760	64	4211
2026-01-06 06:59:16.21	330.81	12.61	-49.2	-50.5	14.6	0.00e+00	0	26	0	1858076672	64	4205
2026-01-06 06:59:20.20	330.37	12.30	-49.7	-51.0	14.4	0.00e+00	0	26	0	1870659584	64	4479
2026-01-06 06:59:24.18	329.94	11.99	-50.3	-51.7	14.2	0.00e+00	0	26	0	1883242496	65	4577
2026-01-06 06:59:28.18	329.51	11.68	-50.4	-51.9	14.2	0.00e+00	0	26	0	1895825408	65	4662
2026-01-06 06:59:32.18	329.10	11.37	-50.1	-51.5	14.3	0.00e+00	0	26	0	1908408320	65	4466
2026-01-06 06:59:36.17	328.69	11.07	-49.9	-51.3	14.4	0.00e+00	0	26	0	1920991232	65	4377
2026-01-06 06:59:40.17	328.29	10.77	-50.1	-51.5	14.3	0.00e+00	0	26	0	1933574144	65	4486
2026-01-06 06:59:44.17	327.90	10.47	-50.5	-52.0	14.2	0.00e+00	0	26	0	1946157056	66	4484
2026-01-06 06:59:48.16	327.52	10.17	-50.9	-52.4	14.0	0.00e+00	0	26	0	1958739968	66	4701
2026-01-06 06:59:52.15	327.15	9.88	-51.1	-52.7	14.0	0.00e+00	0	26	0	1971322880	67	4562
2026-01-06 06:59:56.16	326.78	9.58	-50.9	-52.5	14.1	0.00e+00	0	26	0	1982857216	67	4449
2026-01-06 07:00:00.17	326.42	9.29	-50.6	-52.1	14.2	0.00e+00	0	26	0	1995440128	67	4280
2026-01-06 07:00:04.18	326.07	9.00	-50.8	-52.3	14.1	0.00e+00	0	26	0	2008023040	67	4383
2026-01-06 07:00:08.19	325.72	8.71	-51.0	-52.6	14.0	0.00e+00	0	26	0	2020605952	67	4500
2026-01-06 07:00:12.20	325.38	8.43	-51.2	-52.8	13.9	0.00e+00	0	26	0	2033188864	67	4623
2026-01-06 07:00:16.20	325.05	8.15	-51.4	-53.1	13.7	0.00e+00	0	26	0	2045771776	67	4762
2026-01-06 07:00:20.19	324.73	7.87	-51.5	-53.3	13.8	0.00e+00	0	26	0	2058354688	68	4601
2026-01-06 07:00:24.18	324.41	7.59	-51.5	-53.2	13.7	0.00e+00	0	26	0	2070937600	68	4592
2026-01-06 07:00:28.16	324.10	7.32	-51.4	-53.1	13.8	0.00e+00	0	26	0	2083520512	68	4507
2026-01-06 07:00:32.15	323.80	7.05	-51.3	-53.0	13.9	0.00e+00	0	26	0	2096103424	68	4453
2026-01-06 07:00:36.14	323.50	6.78	-51.2	-52.8	13.9	0.00e+00	0	26	0	2107637760	68	4390
2026-01-06 07:00:40.13	323.21	6.51	-51.5	-53.2	13.7	0.00e+00	0	26	0	2120220672	68	4571
2026-01-06 07:00:44.11	322.92	6.24	-51.6	-53.4	13.6	0.00e+00	0	26	0	2132803584	68	4669
2026-01-06 07:00:48.08	322.64	5.98	-52.0	-53.8	13.5	0.00e+00	0	26	0	2145386496	69	4625
2026-01-06 07:00:52.08	322.36	5.72	-51.7	-53.5	13.7	0.00e+00	0	26	0	2157969408	69	4456
2026-01-06 07:00:56.07	322.09	5.46	-52.1	-54.1	13.3	0.00e+00	0	26	0	2170552320	69	4788
2026-01-06 07:01:00.04	321.83	5.20	-52.1	-54.0	13.3	0.00e+00	0	26	0	2183135232	69	4733
2026-01-06 07:01:04.05	321.56	4.94	-58.2	-69.9	3.9	5.65e-01	0	26	104	2194669568	81	14815
2026-01-06 07:01:08.03	321.31	4.69	-59.7	-73.6	3.8	1.49e+00	0	26	104	2194669568	84	18997
2026-01-06 07:01:12.03	321.05	4.43	-60.2	-74.0	3.8	1.49e+00	0	26	104	2194669568	85	18934
2026-01-06 07:01:16.03	320.81	4.18	-60.4	-74.3	3.8	1.49e+00	0	26	104	2194669568	85	19392
2026-01-06 07:01:20.02	320.56	3.93	-60.6	-74.4	3.8	1.49e+00	0	26	104	2194669568	86	18673
2026-01-06 07:01:24.03	320.32	3.68	-60.6	-74.5	3.8	1.49e+00	0	26	104	2194669568	86	18761
2026-01-06 07:01:28.02	320.09	3.44	-60.5	-74.4	3.8	1.49e+00	0	26	104	2194669568	86	18548
2026-01-06 07:01:32.00	319.86	3.20	-60.5	-74.3	3.8	1.49e+00	0	26	104	2194669568	86	18477
2026-01-06 07:01:35.99	319.63	2.95	-60.4	-74.3	3.8	1.49e+00	0	26	104	2194669568	86	18419
2026-01-06 07:01:39.97	319.41	2.71	-60.4	-74.3	3.8	1.49e+00	0	26	104	2194669568	86	18338
2026-01-06 07:01:43.96	319.19	2.47	-60.4	-74.3	3.8	1.49e+00	0	26	104	2194669568	86	18324
2026-01-06 07:01:47.94	318.98	2.24	-60.4	-74.3	3.8	1.49e+00	0	26	104	2194669568	86	18320
2026-01-06 07:01:51.94	318.77	2.00	-60.4	-74.2	3.8	1.49e+00	0	26	104	2194669568	86	18272

#Closed at: 2026-01-06 07:01:52
#Recorded file [2194 MB]: D:/lorett/data/31004_260106_094841.dat