passes_logs/2026/01/06/R3.2S_Murmansk/R3.2S_Murmansk__20260106_210007_SUOMI_NPP_rec.log

#Pass ID: 20260106_210007_SUOMI NPP
#Satellite: SUOMI NPP
#Configuration: NPP
#almurnet v.1.7.20251203
#Start time: 2026-01-06 21:00:09

#Version: 2.2.20231116
#Station: R3.2S_Murmansk
#Location: 33.079688 lon 68.888172 lat
#TLE: 1 37849U 11061A   26005.94084933  .00000134  00000+0  84554-4 0  9990
#TLE: 2 37849  98.7803 308.0679 0002567  79.1029 281.0436 14.19522657735426

#Time	Az	El	Level	Level2	SNR	BER	BlckErr	Temp	State	Recorded	gain1	gain2
2026-01-06 21:00:09.40	19.14	2.09	-57.6	-73.6	3.8	1.49e+00	0	24	0	0	81	22679
2026-01-06 21:00:12.41	19.47	2.21	-57.6	-73.6	3.8	1.49e+00	0	24	104	0	80	23856
2026-01-06 21:00:15.42	19.79	2.32	-57.6	-73.5	3.8	1.49e+00	0	24	104	0	80	23796
2026-01-06 21:00:18.44	20.12	2.44	-57.6	-73.5	3.8	1.49e+00	0	24	104	0	80	23700
2026-01-06 21:00:21.45	20.45	2.56	-57.6	-73.6	3.8	1.49e+00	0	24	104	0	80	23902
2026-01-06 21:00:24.46	20.79	2.68	-57.7	-73.5	3.8	1.49e+00	0	24	104	0	80	23739
2026-01-06 21:00:27.46	21.13	2.80	-57.6	-73.4	3.8	1.49e+00	0	24	104	0	80	23496
2026-01-06 21:00:30.47	21.46	2.91	-57.6	-73.6	3.8	1.49e+00	0	24	104	0	80	23949
2026-01-06 21:00:33.48	21.81	3.03	-57.7	-73.7	3.8	1.49e+00	0	24	104	0	80	24148
2026-01-06 21:00:36.48	22.15	3.15	-57.7	-73.7	3.8	1.49e+00	0	24	104	0	80	24132
2026-01-06 21:00:39.48	22.50	3.26	-57.7	-73.6	3.8	1.49e+00	0	25	104	0	80	24064
2026-01-06 21:00:42.49	22.85	3.38	-57.7	-73.6	3.8	1.49e+00	0	25	104	0	80	24115
2026-01-06 21:00:45.49	23.20	3.50	-57.7	-73.7	3.8	1.49e+00	0	25	104	0	80	24239
2026-01-06 21:00:48.50	23.55	3.61	-57.7	-73.6	3.8	1.49e+00	0	25	104	0	80	24071
2026-01-06 21:00:51.50	23.91	3.73	-57.7	-73.5	3.8	1.49e+00	0	25	104	0	80	23685
2026-01-06 21:00:54.51	24.27	3.84	-57.7	-73.6	3.8	1.49e+00	0	25	104	0	80	24116
2026-01-06 21:00:57.51	24.63	3.96	-57.7	-73.7	3.8	1.49e+00	0	25	104	0	80	24144
2026-01-06 21:01:00.51	25.00	4.07	-57.7	-73.7	3.8	1.49e+00	0	25	104	0	80	24198
2026-01-06 21:01:03.50	25.36	4.18	-57.7	-73.6	3.8	1.49e+00	0	25	104	0	80	24106
2026-01-06 21:01:06.52	25.74	4.29	-57.7	-73.7	3.8	1.49e+00	0	25	104	0	80	24155
2026-01-06 21:01:09.52	26.11	4.41	-57.7	-73.4	3.8	1.49e+00	0	25	104	0	80	23502
2026-01-06 21:01:12.53	26.49	4.52	-57.6	-72.1	3.8	1.49e+00	0	25	104	0	80	20147
2026-01-06 21:01:15.52	26.86	4.63	-57.4	-69.0	4.5	1.25e+00	7	25	0	0	80	14088
2026-01-06 21:01:18.53	27.24	4.74	-56.2	-61.9	9.6	2.08e-02	0	25	0	5242880	79	6604
2026-01-06 21:01:21.53	27.63	4.85	-55.2	-59.4	11.6	4.19e-05	0	25	0	11534336	77	5530
2026-01-06 21:01:24.53	28.02	4.96	-56.0	-61.4	9.8	8.25e-04	0	25	0	16777216	77	7032
2026-01-06 21:01:27.54	28.41	5.07	-55.1	-59.1	11.7	6.80e-06	0	25	0	22020096	76	5703
2026-01-06 21:01:30.56	28.80	5.18	-54.8	-58.4	12.1	4.58e-01	0	25	0	28311552	76	5224
2026-01-06 21:01:33.57	29.20	5.28	-53.9	-56.8	13.2	0.00e+00	0	25	0	33554432	74	4884
2026-01-06 21:01:36.57	29.60	5.39	-54.3	-57.4	12.8	0.00e+00	0	25	0	39845888	74	5275
2026-01-06 21:01:39.58	30.00	5.50	-54.2	-57.2	13.0	0.00e+00	0	25	0	45088768	74	5124
2026-01-06 21:01:42.58	30.40	5.60	-54.0	-57.0	13.1	0.00e+00	0	25	0	50331648	74	4998
2026-01-06 21:01:45.58	30.81	5.71	-53.9	-56.7	13.3	0.00e+00	0	25	0	56623104	74	4827
2026-01-06 21:01:48.59	31.22	5.81	-54.1	-56.9	13.1	0.00e+00	0	25	0	61865984	74	4979
2026-01-06 21:01:51.58	31.63	5.91	-53.8	-56.5	13.4	0.00e+00	0	25	0	67108864	74	4723
2026-01-06 21:01:54.57	32.04	6.02	-54.0	-56.8	13.3	0.00e+00	0	25	0	73400320	74	4922
2026-01-06 21:01:57.58	32.46	6.12	-54.2	-57.2	13.0	0.00e+00	0	25	0	78643200	74	5146
2026-01-06 21:02:00.60	32.88	6.22	-54.1	-57.0	13.2	0.00e+00	0	25	0	84934656	74	5012
2026-01-06 21:02:03.59	33.31	6.32	-54.0	-56.8	13.3	0.00e+00	0	25	0	90177536	74	4901
2026-01-06 21:02:06.61	33.73	6.42	-54.1	-57.0	13.2	0.00e+00	0	25	0	95420416	74	5020
2026-01-06 21:02:09.61	34.16	6.51	-54.3	-57.3	13.0	0.00e+00	0	25	0	101711872	74	5197
2026-01-06 21:02:12.61	34.59	6.61	-54.3	-57.4	13.0	0.00e+00	0	25	0	106954752	74	5227
2026-01-06 21:02:15.62	35.03	6.71	-54.2	-57.2	13.1	0.00e+00	0	25	0	112197632	74	5103
2026-01-06 21:02:18.63	35.47	6.80	-54.3	-57.2	13.1	0.00e+00	0	25	0	118489088	74	5137
2026-01-06 21:02:21.64	35.91	6.89	-54.2	-57.1	13.2	0.00e+00	0	25	0	123731968	74	5052
2026-01-06 21:02:24.63	36.35	6.99	-54.1	-56.9	13.2	0.00e+00	0	25	0	128974848	74	4979
2026-01-06 21:02:27.65	36.80	7.08	-54.3	-57.3	13.1	0.00e+00	0	25	0	135266304	74	5166
2026-01-06 21:02:30.64	37.24	7.17	-54.4	-57.5	12.9	0.00e+00	0	25	0	140509184	74	5290
2026-01-06 21:02:33.63	37.69	7.26	-54.5	-57.5	12.9	0.00e+00	0	25	0	146800640	74	5323
2026-01-06 21:02:36.63	38.15	7.35	-54.1	-56.9	13.3	0.00e+00	0	25	0	152043520	74	4977
2026-01-06 21:02:39.61	38.60	7.43	-54.0	-56.7	13.5	0.00e+00	0	25	0	157286400	74	4816
2026-01-06 21:02:42.60	39.06	7.52	-54.2	-57.1	13.1	0.00e+00	0	25	0	163577856	74	5084
2026-01-06 21:02:45.61	39.52	7.60	-54.6	-57.7	12.8	0.00e+00	0	25	0	168820736	74	5435
2026-01-06 21:02:48.61	39.98	7.68	-54.5	-57.5	12.9	0.00e+00	0	25	0	174063616	74	5320
2026-01-06 21:02:51.60	40.45	7.77	-54.4	-57.3	13.0	0.00e+00	0	25	0	180355072	74	5194
2026-01-06 21:02:54.59	40.91	7.85	-54.3	-57.3	13.1	0.00e+00	0	25	0	185597952	74	5163
2026-01-06 21:02:57.58	41.38	7.92	-54.2	-57.0	13.2	0.00e+00	0	25	0	190840832	74	5036
2026-01-06 21:03:00.58	41.86	8.00	-54.0	-56.7	13.4	0.00e+00	0	25	0	197132288	74	4855
2026-01-06 21:03:03.60	42.34	8.08	-54.0	-56.7	13.4	0.00e+00	0	25	0	202375168	74	4834
2026-01-06 21:03:06.60	42.81	8.15	-54.4	-57.3	13.1	0.00e+00	0	25	0	208666624	74	5187
2026-01-06 21:03:09.61	43.30	8.23	-54.9	-58.3	12.4	0.00e+00	0	25	0	213909504	74	5798
2026-01-06 21:03:12.60	43.78	8.30	-55.0	-58.4	12.5	0.00e+00	0	25	0	219152384	75	5540
2026-01-06 21:03:15.60	44.26	8.37	-54.4	-57.4	13.2	0.00e+00	0	25	0	225443840	75	4929
2026-01-06 21:03:18.60	44.75	8.44	-54.3	-57.1	13.3	0.00e+00	0	25	0	230686720	75	4812
2026-01-06 21:03:21.59	45.24	8.50	-54.4	-57.3	13.2	0.00e+00	0	25	0	235929600	75	4923
2026-01-06 21:03:24.60	45.73	8.57	-54.2	-57.0	13.4	0.00e+00	0	25	0	242221056	75	4741
2026-01-06 21:03:27.58	46.22	8.63	-53.9	-56.6	13.5	0.00e+00	0	25	0	247463936	74	4797
2026-01-06 21:03:30.58	46.72	8.69	-54.1	-56.8	13.4	0.00e+00	0	25	0	252706816	74	4924
2026-01-06 21:03:33.58	47.22	8.75	-54.5	-57.5	13.0	0.00e+00	0	25	0	258998272	74	5298
2026-01-06 21:03:36.57	47.71	8.81	-54.3	-57.1	13.1	0.00e+00	0	25	0	264241152	74	5092
2026-01-06 21:03:39.57	48.22	8.87	-53.7	-56.3	13.7	0.00e+00	0	25	0	270532608	74	4603
2026-01-06 21:03:42.59	48.72	8.92	-54.0	-56.7	13.3	0.00e+00	0	25	0	275775488	73	5126
2026-01-06 21:03:45.59	49.23	8.98	-54.1	-57.0	13.1	0.00e+00	0	25	0	281018368	73	5307
2026-01-06 21:03:48.59	49.74	9.03	-53.9	-56.5	13.5	0.00e+00	0	25	0	287309824	73	5001
2026-01-06 21:03:51.58	50.24	9.08	-53.6	-56.1	13.7	0.00e+00	0	25	0	292552704	73	4803
2026-01-06 21:03:54.59	50.76	9.13	-53.9	-56.5	13.5	0.00e+00	0	25	0	297795584	73	5024
2026-01-06 21:03:57.59	51.27	9.17	-53.8	-56.5	13.5	0.00e+00	0	25	0	304087040	73	4988
2026-01-06 21:04:00.61	51.79	9.22	-54.0	-56.8	13.3	0.00e+00	0	25	0	309329920	73	5172
2026-01-06 21:04:03.62	52.30	9.26	-54.7	-58.0	12.7	0.00e+00	0	25	0	315621376	74	5598
2026-01-06 21:04:06.64	52.82	9.30	-55.2	-58.7	12.3	0.00e+00	0	25	0	320864256	75	5752
2026-01-06 21:04:09.63	53.34	9.34	-54.9	-58.3	12.6	0.00e+00	0	25	0	326107136	75	5468
2026-01-06 21:04:12.63	53.86	9.37	-54.8	-58.0	12.8	0.00e+00	0	25	0	332398592	75	5285
2026-01-06 21:04:15.64	54.38	9.41	-54.9	-58.1	12.7	0.00e+00	0	25	0	337641472	75	5394
2026-01-06 21:04:18.64	54.91	9.44	-54.8	-58.1	12.7	0.00e+00	0	25	0	342884352	75	5351
2026-01-06 21:04:21.65	55.43	9.47	-54.8	-58.1	12.7	0.00e+00	0	25	0	349175808	75	5345
2026-01-06 21:04:24.64	55.95	9.50	-54.9	-58.3	12.5	0.00e+00	0	25	0	354418688	75	5497
2026-01-06 21:04:27.65	56.48	9.52	-54.8	-58.0	12.8	0.00e+00	0	25	0	360710144	75	5288
2026-01-06 21:04:30.67	57.01	9.55	-54.5	-57.4	13.1	0.00e+00	0	25	0	365953024	75	4972
2026-01-06 21:04:33.67	57.54	9.57	-54.2	-57.0	13.4	0.00e+00	0	25	0	371195904	75	4750
2026-01-06 21:04:36.68	58.07	9.59	-54.3	-57.1	13.3	0.00e+00	0	25	0	377487360	75	4773
2026-01-06 21:04:39.68	58.59	9.60	-54.2	-57.0	13.4	0.00e+00	0	25	0	382730240	75	4727
2026-01-06 21:04:42.69	59.12	9.62	-54.0	-56.6	13.5	0.00e+00	0	25	0	387973120	74	4807
2026-01-06 21:04:45.70	59.66	9.63	-54.1	-56.8	13.4	0.00e+00	0	25	0	394264576	74	4874
2026-01-06 21:04:48.71	60.19	9.65	-54.3	-57.1	13.2	0.00e+00	0	25	0	399507456	74	5063
2026-01-06 21:04:51.73	60.72	9.65	-53.9	-56.6	13.5	0.00e+00	0	25	0	405798912	74	4778
2026-01-06 21:04:54.74	61.25	9.66	-53.8	-56.3	13.7	0.00e+00	0	25	0	411041792	74	4623
2026-01-06 21:04:57.76	61.79	9.67	-53.7	-56.2	13.7	0.00e+00	0	25	0	416284672	73	4844
2026-01-06 21:05:00.76	62.32	9.67	-53.4	-55.8	13.9	0.00e+00	0	25	0	422576128	73	4602
2026-01-06 21:05:03.74	62.85	9.67	-52.9	-55.1	14.1	0.00e+00	0	25	0	427819008	72	4531
2026-01-06 21:05:06.74	63.38	9.67	-53.3	-55.7	13.8	0.00e+00	0	25	0	433061888	72	4823
2026-01-06 21:05:09.74	63.91	9.66	-53.6	-56.2	13.5	0.00e+00	0	25	0	439353344	72	5108
2026-01-06 21:05:12.74	64.44	9.66	-53.5	-55.9	13.7	0.00e+00	0	25	0	444596224	72	4980
2026-01-06 21:05:15.75	64.97	9.65	-53.4	-55.8	13.7	0.00e+00	0	25	0	450887680	72	4908
2026-01-06 21:05:18.74	65.50	9.64	-53.5	-56.0	13.7	0.00e+00	0	25	0	456130560	72	4988
2026-01-06 21:05:21.73	66.03	9.63	-53.5	-56.0	13.6	0.00e+00	0	25	0	461373440	72	5023
2026-01-06 21:05:24.72	66.55	9.61	-53.3	-55.6	13.9	0.00e+00	0	25	0	467664896	72	4811
2026-01-06 21:05:27.71	67.08	9.60	-53.2	-55.5	13.9	0.00e+00	0	25	0	472907776	72	4755
2026-01-06 21:05:30.71	67.61	9.58	-53.3	-55.6	13.8	0.00e+00	0	25	0	478150656	72	4798
2026-01-06 21:05:33.71	68.14	9.56	-52.6	-54.8	14.2	0.00e+00	0	25	0	484442112	71	4608
2026-01-06 21:05:36.71	68.66	9.54	-52.3	-54.3	14.4	0.00e+00	0	25	0	489684992	71	4355
2026-01-06 21:05:39.71	69.19	9.51	-52.3	-54.3	14.4	0.00e+00	0	25	0	494927872	71	4376
2026-01-06 21:05:42.71	69.72	9.48	-52.6	-54.7	14.2	0.00e+00	0	25	0	501219328	71	4586
2026-01-06 21:05:45.70	70.24	9.45	-52.8	-55.0	14.0	0.00e+00	0	25	0	506462208	71	4746
2026-01-06 21:05:48.69	70.76	9.42	-52.8	-54.9	14.1	0.00e+00	0	25	0	511705088	71	4697
2026-01-06 21:05:51.69	71.28	9.39	-53.0	-55.2	13.9	0.00e+00	0	25	0	517996544	71	4846
2026-01-06 21:05:54.70	71.80	9.36	-53.1	-55.4	13.8	0.00e+00	0	25	0	523239424	71	4953
2026-01-06 21:05:57.70	72.32	9.32	-52.8	-55.1	14.0	0.00e+00	0	25	0	528482304	71	4776
2026-01-06 21:06:00.69	72.84	9.28	-52.9	-55.1	14.0	0.00e+00	0	25	0	534773760	71	4803
2026-01-06 21:06:03.69	73.36	9.24	-53.0	-55.3	13.9	0.00e+00	0	25	0	540016640	71	4926
2026-01-06 21:06:06.69	73.87	9.20	-53.4	-55.8	13.6	0.00e+00	0	25	0	546308096	71	5212
2026-01-06 21:06:09.69	74.39	9.15	-53.4	-55.9	13.7	0.00e+00	0	25	0	551550976	72	4938
2026-01-06 21:06:12.70	74.90	9.10	-53.4	-55.8	13.7	0.00e+00	0	25	0	556793856	72	4898
2026-01-06 21:06:15.71	75.41	9.06	-52.8	-55.0	14.1	0.00e+00	0	25	0	563085312	72	4490
2026-01-06 21:06:18.71	75.92	9.01	-52.4	-54.4	14.3	0.00e+00	0	25	0	568328192	71	4420
2026-01-06 21:06:21.71	76.43	8.95	-51.9	-53.8	14.5	0.00e+00	0	25	0	573571072	70	4366
2026-01-06 21:06:24.70	76.94	8.90	-51.7	-53.5	14.5	0.00e+00	0	25	0	579862528	69	4469
2026-01-06 21:06:27.69	77.44	8.84	-52.0	-54.0	14.2	0.00e+00	0	25	0	585105408	69	4748
2026-01-06 21:06:30.67	77.94	8.79	-52.2	-54.2	14.1	0.00e+00	0	25	0	590348288	69	4849
2026-01-06 21:06:33.66	78.44	8.73	-52.3	-54.4	14.1	0.00e+00	0	25	0	596639744	69	4971
2026-01-06 21:06:36.65	78.93	8.67	-52.5	-54.6	14.1	0.00e+00	0	25	0	601882624	70	4767
2026-01-06 21:06:39.65	79.43	8.60	-52.4	-54.5	14.1	0.00e+00	0	25	0	608174080	70	4748
2026-01-06 21:06:42.64	79.92	8.54	-52.7	-54.9	14.0	0.00e+00	0	25	0	613416960	70	4946
2026-01-06 21:06:45.65	80.42	8.47	-52.6	-54.8	14.0	0.00e+00	0	25	0	618659840	70	4920
2026-01-06 21:06:48.63	80.90	8.41	-52.2	-54.3	14.3	0.00e+00	0	25	0	624951296	70	4616
2026-01-06 21:06:51.63	81.39	8.34	-51.9	-53.8	14.5	0.00e+00	0	25	0	630194176	70	4349
2026-01-06 21:06:54.62	81.87	8.26	-52.1	-54.1	14.3	0.00e+00	0	25	0	635437056	70	4511
2026-01-06 21:06:57.60	82.35	8.19	-52.5	-54.6	14.1	0.00e+00	0	25	0	641728512	70	4800
2026-01-06 21:07:00.59	82.83	8.12	-52.5	-54.6	14.1	0.00e+00	0	25	0	646971392	70	4813
2026-01-06 21:07:03.58	83.31	8.04	-52.4	-54.5	14.1	0.00e+00	0	25	0	652214272	70	4751
2026-01-06 21:07:06.58	83.79	7.97	-52.7	-55.0	13.9	0.00e+00	0	25	0	658505728	70	5002
2026-01-06 21:07:09.57	84.26	7.89	-53.2	-55.7	13.6	0.00e+00	0	25	0	663748608	71	5135
2026-01-06 21:07:12.59	84.73	7.81	-53.6	-56.2	13.4	0.00e+00	0	25	0	668991488	72	5133
2026-01-06 21:07:15.60	85.20	7.73	-53.8	-56.6	13.2	0.00e+00	0	25	0	675282944	72	5355
2026-01-06 21:07:18.61	85.67	7.64	-53.8	-56.5	13.3	0.00e+00	0	25	0	680525824	72	5311
2026-01-06 21:07:21.61	86.14	7.56	-54.0	-56.9	13.1	0.00e+00	0	25	0	686817280	73	5235
2026-01-06 21:07:24.61	86.60	7.48	-54.0	-56.9	13.1	0.00e+00	0	25	0	692060160	73	5235
2026-01-06 21:07:27.61	87.06	7.39	-53.7	-56.4	13.4	0.00e+00	0	25	0	697303040	73	4934
2026-01-06 21:07:30.62	87.51	7.30	-53.8	-56.6	13.3	0.00e+00	0	25	0	703594496	73	5043
2026-01-06 21:07:33.62	87.97	7.21	-53.9	-56.7	13.2	0.00e+00	0	25	0	708837376	73	5153
2026-01-06 21:07:36.62	88.42	7.12	-54.3	-57.3	12.8	0.00e+00	0	25	0	714080256	73	5528
2026-01-06 21:07:39.62	88.86	7.03	-54.4	-57.5	12.7	0.00e+00	0	25	0	720371712	73	5627
2026-01-06 21:07:42.62	89.31	6.94	-54.7	-58.1	12.4	1.50e-06	0	25	0	725614592	74	5657
2026-01-06 21:07:45.63	89.75	6.84	-55.1	-58.9	11.9	3.00e-06	0	25	0	730857472	75	5914
2026-01-06 21:07:48.62	90.19	6.75	-55.1	-58.9	11.9	7.60e-06	0	25	0	737148928	75	5917
2026-01-06 21:07:51.62	90.63	6.65	-54.8	-58.4	12.3	1.50e-06	0	25	0	742391808	75	5585
2026-01-06 21:07:54.62	91.06	6.56	-54.6	-57.9	12.6	0.00e+00	0	25	0	748683264	75	5259
2026-01-06 21:07:57.61	91.49	6.46	-54.6	-58.0	12.5	7.00e-07	0	25	0	753926144	75	5318
2026-01-06 21:08:00.61	91.92	6.36	-54.6	-57.9	12.5	0.00e+00	0	25	0	759169024	75	5259
2026-01-06 21:08:03.60	92.35	6.26	-54.8	-58.4	12.2	7.00e-07	0	25	0	765460480	75	5538
2026-01-06 21:08:06.60	92.77	6.16	-55.0	-58.8	11.9	7.00e-07	0	25	0	770703360	75	5824
2026-01-06 21:08:09.60	93.19	6.06	-54.8	-58.4	12.2	1.50e-06	0	25	0	775946240	75	5569
2026-01-06 21:08:12.60	93.61	5.96	-54.5	-57.9	12.5	0.00e+00	0	25	0	782237696	75	5263
2026-01-06 21:08:15.60	94.02	5.86	-54.2	-57.4	12.9	0.00e+00	0	25	0	787480576	75	4957
2026-01-06 21:08:18.60	94.43	5.75	-54.5	-57.9	12.4	1.50e-06	0	25	0	792723456	74	5573
2026-01-06 21:08:21.59	94.84	5.65	-54.6	-58.1	12.2	0.00e+00	0	25	0	799014912	74	5717
2026-01-06 21:08:24.59	95.25	5.54	-54.4	-57.8	12.5	1.50e-06	0	25	0	804257792	74	5507
2026-01-06 21:08:27.58	95.65	5.44	-54.2	-57.5	12.6	0.00e+00	0	25	0	809500672	74	5317
2026-01-06 21:08:30.58	96.05	5.33	-54.1	-57.3	12.8	0.00e+00	0	25	0	815792128	74	5166
2026-01-06 21:08:33.58	96.45	5.22	-54.0	-57.1	12.7	0.00e+00	0	25	0	821035008	74	5079
2026-01-06 21:08:36.58	96.84	5.11	-54.1	-57.4	12.7	0.00e+00	0	25	0	827326464	74	5227
2026-01-06 21:08:39.58	97.24	5.00	-55.4	-59.9	11.2	0.00e+00	0	25	0	832569344	75	6641
2026-01-06 21:08:42.58	97.63	4.89	-58.7	-74.7	3.8	1.49e+00	0	25	104	832569344	82	24382
2026-01-06 21:08:45.58	98.01	4.78	-59.2	-75.2	3.8	1.49e+00	0	25	104	832569344	83	24375
2026-01-06 21:08:48.57	98.40	4.67	-59.7	-75.7	3.8	1.49e+00	0	25	104	832569344	84	24361
2026-01-06 21:08:51.57	98.78	4.56	-59.9	-75.9	3.8	1.49e+00	0	25	104	832569344	84	24927
2026-01-06 21:08:54.57	99.16	4.45	-60.0	-76.1	3.8	1.49e+00	0	25	104	832569344	85	23936
2026-01-06 21:08:57.56	99.53	4.34	-60.1	-76.2	3.8	1.49e+00	0	26	104	832569344	85	24224
2026-01-06 21:09:00.56	99.90	4.22	-60.2	-76.3	3.9	1.49e+00	0	25	104	832569344	85	24559
2026-01-06 21:09:03.54	100.27	4.11	-60.3	-76.4	3.8	1.49e+00	0	26	104	832569344	85	24828
2026-01-06 21:09:06.55	100.64	4.00	-60.3	-76.5	3.8	1.49e+00	0	25	104	832569344	85	24987
2026-01-06 21:09:09.54	101.00	3.88	-60.3	-76.4	3.8	1.49e+00	0	25	104	832569344	85	24743
2026-01-06 21:09:12.54	101.36	3.77	-60.3	-76.4	3.8	1.49e+00	0	25	104	832569344	85	24718
2026-01-06 21:09:15.54	101.72	3.65	-60.2	-76.3	3.8	1.49e+00	0	25	104	832569344	85	24562
2026-01-06 21:09:18.52	102.08	3.54	-60.2	-76.3	3.8	1.49e+00	0	25	104	832569344	85	24532
2026-01-06 21:09:21.53	102.43	3.42	-60.2	-76.3	3.8	1.49e+00	0	25	104	832569344	85	24557
2026-01-06 21:09:24.53	102.78	3.30	-60.2	-76.3	3.8	1.49e+00	0	25	104	832569344	85	24471
2026-01-06 21:09:27.52	103.13	3.19	-60.2	-76.3	3.8	1.49e+00	0	26	104	832569344	85	24445
2026-01-06 21:09:30.53	103.48	3.07	-60.2	-76.3	3.8	1.49e+00	0	26	104	832569344	85	24451
2026-01-06 21:09:33.53	103.82	2.95	-60.2	-76.3	3.8	1.49e+00	0	25	104	832569344	85	24467
2026-01-06 21:09:36.55	104.16	2.83	-60.2	-76.3	3.8	1.49e+00	0	26	104	832569344	85	24469
2026-01-06 21:09:39.56	104.50	2.72	-60.2	-76.2	3.8	1.49e+00	0	26	104	832569344	85	24383
2026-01-06 21:09:42.57	104.84	2.60	-60.1	-76.2	3.8	1.49e+00	0	26	104	832569344	85	24328
2026-01-06 21:09:45.57	105.17	2.48	-60.1	-76.2	3.8	1.49e+00	0	26	104	832569344	85	24281
2026-01-06 21:09:48.58	105.50	2.36	-60.1	-76.2	3.8	1.49e+00	0	25	104	832569344	85	24319
2026-01-06 21:09:51.58	105.83	2.24	-60.1	-76.2	3.8	1.49e+00	0	26	104	832569344	85	24280
2026-01-06 21:09:54.58	106.16	2.12	-60.1	-76.2	3.8	1.49e+00	0	25	104	832569344	85	24276
2026-01-06 21:09:57.57	106.48	2.00	-60.1	-76.2	3.8	1.49e+00	0	26	104	832569344	85	24232

#Closed at: 2026-01-06 21:09:58
#Recorded file [832 MB]: D:/lorett/data/31004_260107_000009.dat