passes_logs/2026/01/06/R3.2S_Murmansk/R3.2S_Murmansk__20260106_024053_NOAA_20_JPSS-1_rec.log

#Pass ID: 20260106_024053_NOAA 20 (JPSS-1)
#Satellite: NOAA 20 (JPSS-1)
#Configuration: NOAA 20
#almurnet v.1.7.20251203
#Start time: 2026-01-06 02:40:53

#Version: 2.2.20231116
#Station: R3.2S_Murmansk
#Location: 33.079688 lon 68.888172 lat
#TLE: 1 43013U 17073A   26005.46207808  .00000128  00000+0  81791-4 0  9997
#TLE: 2 43013  98.7627 306.5027 0001826  53.0458 307.0885 14.19533487421381

#Time	Az	El	Level	Level2	SNR	BER	BlckErr	Temp	State	Recorded	gain1	gain2
2026-01-06 02:40:53.85	35.18	2.04	-57.9	-73.9	3.8	1.49e+00	0	24	0	0	82	22011
2026-01-06 02:40:57.85	35.01	2.29	-57.8	-73.8	3.8	1.49e+00	0	24	104	0	80	24549
2026-01-06 02:41:01.83	34.85	2.53	-57.8	-73.8	3.8	1.49e+00	0	24	104	0	80	24596
2026-01-06 02:41:05.77	34.67	2.78	-57.8	-73.8	3.8	1.49e+00	0	24	104	0	80	24441
2026-01-06 02:41:09.75	34.50	3.03	-57.8	-73.7	3.8	1.49e+00	0	25	104	0	80	24383
2026-01-06 02:41:13.75	34.32	3.28	-57.8	-73.8	3.8	1.49e+00	0	25	104	0	80	24555
2026-01-06 02:41:17.73	34.14	3.53	-57.8	-73.8	3.8	1.49e+00	0	25	104	0	80	24470
2026-01-06 02:41:21.70	33.95	3.79	-57.8	-73.7	3.8	1.49e+00	0	25	104	0	80	24260
2026-01-06 02:41:25.69	33.76	4.04	-57.8	-72.9	3.8	1.49e+00	0	25	104	0	80	22202
2026-01-06 02:41:29.67	33.57	4.30	-57.7	-71.6	3.9	1.49e+00	0	25	104	0	80	19009
2026-01-06 02:41:33.67	33.37	4.57	-57.6	-68.9	4.6	1.13e+00	0	25	0	1048576	80	14016
2026-01-06 02:41:37.66	33.17	4.83	-57.3	-66.6	5.9	3.18e-01	0	25	0	9437184	80	10665
2026-01-06 02:41:41.67	32.96	5.10	-57.4	-66.3	6.2	1.99e-01	0	25	0	16777216	80	10315
2026-01-06 02:41:45.66	32.75	5.37	-56.3	-61.5	10.4	1.76e-02	0	25	0	22020096	78	6659
2026-01-06 02:41:49.65	32.54	5.64	-55.6	-59.6	11.7	1.60e-05	0	25	0	29360128	77	5713
2026-01-06 02:41:53.64	32.32	5.91	-54.3	-57.3	13.2	0.00e+00	0	25	0	36700160	75	4902
2026-01-06 02:41:57.61	32.10	6.19	-54.3	-57.2	13.3	0.00e+00	0	25	0	44040192	75	4823
2026-01-06 02:42:01.60	31.87	6.47	-54.1	-56.9	13.3	0.00e+00	0	26	0	51380224	74	4983
2026-01-06 02:42:05.58	31.64	6.75	-54.0	-56.8	13.4	0.00e+00	0	25	0	58720256	74	4871
2026-01-06 02:42:09.57	31.40	7.03	-54.0	-56.7	13.5	0.00e+00	0	26	0	66060288	74	4838
2026-01-06 02:42:13.57	31.16	7.32	-54.0	-56.7	13.5	0.00e+00	0	25	0	73400320	74	4830
2026-01-06 02:42:17.54	30.92	7.61	-53.8	-56.3	13.8	0.00e+00	0	26	0	81788928	74	4627
2026-01-06 02:42:21.55	30.66	7.90	-53.8	-56.2	13.8	0.00e+00	0	26	0	89128960	74	4590
2026-01-06 02:42:25.53	30.41	8.19	-53.6	-56.0	13.8	0.00e+00	0	26	0	96468992	73	4747
2026-01-06 02:42:29.51	30.14	8.49	-53.5	-55.9	13.9	0.00e+00	0	26	0	103809024	73	4694
2026-01-06 02:42:33.51	29.87	8.79	-53.6	-56.0	13.8	0.00e+00	0	26	0	111149056	73	4727
2026-01-06 02:42:37.50	29.60	9.10	-53.6	-56.0	13.8	0.00e+00	0	26	0	118489088	73	4745
2026-01-06 02:42:41.50	29.32	9.40	-53.6	-55.9	13.9	0.00e+00	0	26	0	125829120	73	4698
2026-01-06 02:42:45.51	29.03	9.72	-53.7	-56.1	13.8	0.00e+00	0	26	0	134217728	73	4779
2026-01-06 02:42:49.48	28.74	10.03	-53.5	-55.9	13.9	0.00e+00	0	26	0	141557760	73	4674
2026-01-06 02:42:53.47	28.44	10.34	-53.5	-55.9	14.0	0.00e+00	0	26	0	148897792	73	4656
2026-01-06 02:42:57.46	28.13	10.66	-53.5	-55.8	14.0	0.00e+00	0	26	0	156237824	73	4648
2026-01-06 02:43:01.46	27.81	10.99	-53.4	-55.6	14.1	0.00e+00	0	26	0	163577856	73	4539
2026-01-06 02:43:05.45	27.49	11.31	-53.3	-55.5	14.2	0.00e+00	0	26	0	170917888	73	4492
2026-01-06 02:43:09.42	27.17	11.64	-53.3	-55.5	14.2	0.00e+00	0	26	0	178257920	73	4457
2026-01-06 02:43:13.41	26.83	11.97	-53.2	-55.4	14.2	0.00e+00	0	26	0	185597952	73	4417
2026-01-06 02:43:17.41	26.48	12.31	-53.2	-55.3	14.3	0.00e+00	0	26	0	193986560	73	4391
2026-01-06 02:43:21.40	26.13	12.65	-53.2	-55.3	14.1	0.00e+00	0	26	0	201326592	72	4640
2026-01-06 02:43:25.38	25.77	12.99	-53.2	-55.4	14.1	0.00e+00	0	26	0	208666624	72	4660
2026-01-06 02:43:29.37	25.40	13.34	-53.1	-55.2	14.2	0.00e+00	0	26	0	216006656	72	4581
2026-01-06 02:43:33.35	25.02	13.69	-53.0	-55.0	14.3	0.00e+00	0	26	0	223346688	72	4465
2026-01-06 02:43:37.34	24.63	14.05	-53.0	-55.0	14.3	0.00e+00	0	26	0	230686720	72	4469
2026-01-06 02:43:41.33	24.23	14.41	-52.9	-54.9	14.4	0.00e+00	0	26	0	238026752	72	4439
2026-01-06 02:43:45.35	23.81	14.77	-52.9	-54.9	14.4	0.00e+00	0	26	0	246415360	72	4405
2026-01-06 02:43:49.33	23.39	15.14	-52.8	-54.8	14.5	0.00e+00	0	26	0	253755392	72	4364
2026-01-06 02:43:53.33	22.96	15.51	-52.9	-54.9	14.4	0.00e+00	0	26	0	261095424	72	4412
2026-01-06 02:43:57.33	22.52	15.89	-52.9	-54.9	14.4	0.00e+00	0	26	0	268435456	72	4396
2026-01-06 02:44:01.33	22.06	16.27	-52.9	-54.9	14.4	0.00e+00	0	26	0	275775488	72	4413
2026-01-06 02:44:05.30	21.60	16.65	-52.8	-54.8	14.5	0.00e+00	0	26	0	283115520	72	4364
2026-01-06 02:44:09.29	21.12	17.03	-52.8	-54.7	14.5	0.00e+00	0	26	0	290455552	72	4309
2026-01-06 02:44:13.26	20.63	17.42	-52.7	-54.7	14.6	0.00e+00	0	26	0	297795584	72	4296
2026-01-06 02:44:17.25	20.13	17.82	-52.7	-54.6	14.5	0.00e+00	0	26	0	306184192	71	4515
2026-01-06 02:44:21.23	19.61	18.21	-52.7	-54.6	14.4	0.00e+00	0	26	0	313524224	71	4537
2026-01-06 02:44:25.23	19.07	18.62	-52.9	-54.9	14.3	0.00e+00	0	26	0	320864256	71	4652
2026-01-06 02:44:29.21	18.53	19.02	-52.9	-54.9	14.3	0.00e+00	0	26	0	328204288	71	4673
2026-01-06 02:44:33.20	17.96	19.43	-53.2	-55.3	14.2	0.00e+00	0	26	0	335544320	71	4900
2026-01-06 02:44:37.19	17.39	19.85	-53.4	-55.5	14.2	0.00e+00	0	26	0	342884352	72	4706
2026-01-06 02:44:41.17	16.79	20.27	-53.5	-55.6	14.1	0.00e+00	0	26	0	350224384	72	4772
2026-01-06 02:44:45.15	16.18	20.69	-53.4	-55.5	14.2	0.00e+00	0	26	0	358612992	72	4740
2026-01-06 02:44:49.15	15.55	21.11	-53.2	-55.2	14.3	0.00e+00	0	26	0	365953024	72	4567
2026-01-06 02:44:53.12	14.91	21.54	-53.0	-54.9	14.4	0.00e+00	0	26	0	373293056	72	4430
2026-01-06 02:44:57.12	14.24	21.97	-52.9	-54.8	14.5	0.00e+00	0	26	0	380633088	72	4389
2026-01-06 02:45:01.10	13.56	22.41	-52.9	-54.9	14.5	0.00e+00	0	26	0	387973120	72	4399
2026-01-06 02:45:05.05	12.86	22.84	-52.9	-54.8	14.5	0.00e+00	0	26	0	395313152	72	4386
2026-01-06 02:45:09.04	12.14	23.28	-52.9	-54.8	14.5	0.00e+00	0	26	0	402653184	72	4377
2026-01-06 02:45:13.01	11.39	23.72	-52.9	-54.8	14.5	0.00e+00	0	26	0	409993216	72	4379
2026-01-06 02:45:16.99	10.63	24.16	-53.0	-54.9	14.5	0.00e+00	0	26	0	417333248	72	4440
2026-01-06 02:45:20.99	9.84	24.61	-53.4	-55.5	14.2	0.00e+00	0	26	0	425721856	72	4711
2026-01-06 02:45:24.97	9.02	25.06	-53.8	-56.0	13.9	0.00e+00	0	26	0	433061888	72	5030
2026-01-06 02:45:28.94	8.19	25.50	-53.8	-56.1	13.9	0.00e+00	0	26	0	440401920	72	5043
2026-01-06 02:45:32.93	7.33	25.95	-54.2	-56.5	13.8	0.00e+00	0	26	0	447741952	73	5036
2026-01-06 02:45:36.92	6.44	26.40	-53.9	-56.2	14.0	0.00e+00	0	26	0	455081984	73	4819
2026-01-06 02:45:40.90	5.53	26.85	-54.2	-56.5	13.8	0.00e+00	0	26	0	462422016	73	5016
2026-01-06 02:45:44.88	4.60	27.30	-54.2	-56.5	13.8	0.00e+00	0	26	0	469762048	73	5040
2026-01-06 02:45:48.86	3.63	27.75	-54.1	-56.4	13.9	0.00e+00	0	26	0	477102080	73	4949
2026-01-06 02:45:52.83	2.65	28.19	-54.1	-56.4	13.9	0.00e+00	0	26	0	484442112	73	4943
2026-01-06 02:45:56.82	1.63	28.63	-54.1	-56.3	13.9	0.00e+00	0	26	0	492830720	73	4911
2026-01-06 02:46:00.81	0.57	29.07	-53.9	-56.1	14.0	0.00e+00	0	26	0	500170752	73	4811
2026-01-06 02:46:04.79	359.50	29.50	-54.0	-56.2	14.0	0.00e+00	0	26	0	507510784	73	4841
2026-01-06 02:46:08.78	358.39	29.93	-54.1	-56.4	13.9	0.00e+00	0	26	0	514850816	73	4969
2026-01-06 02:46:12.75	357.26	30.35	-55.0	-57.7	13.4	0.00e+00	0	26	0	522190848	75	5135
2026-01-06 02:46:16.72	356.09	30.77	-55.5	-58.4	13.1	0.00e+00	0	26	0	529530880	76	5244
2026-01-06 02:46:20.70	354.90	31.18	-56.0	-59.2	12.7	0.00e+00	0	26	0	536870912	77	5437
2026-01-06 02:46:24.70	353.66	31.58	-56.3	-59.7	12.4	0.00e+00	0	26	0	545259520	77	5745
2026-01-06 02:46:28.68	352.41	31.96	-56.6	-60.2	12.2	7.00e-07	0	26	0	552599552	78	5761
2026-01-06 02:46:32.65	351.12	32.34	-56.8	-60.5	12.0	3.00e-06	0	26	0	559939584	78	5975
2026-01-06 02:46:36.63	349.80	32.70	-56.8	-60.6	12.0	3.80e-06	0	26	0	567279616	79	5683
2026-01-06 02:46:40.62	348.45	33.06	-56.1	-59.3	12.8	0.00e+00	0	26	0	574619648	78	5160
2026-01-06 02:46:44.62	347.07	33.40	-55.6	-58.5	13.2	0.00e+00	0	26	0	581959680	77	5002
2026-01-06 02:46:48.60	345.66	33.72	-55.6	-58.4	13.3	0.00e+00	0	26	0	589299712	77	4934
2026-01-06 02:46:52.59	344.23	34.02	-54.8	-57.2	13.9	0.00e+00	0	26	0	596639744	76	4555
2026-01-06 02:46:56.57	342.77	34.31	-53.9	-56.1	14.3	0.00e+00	0	26	0	603979776	74	4494
2026-01-06 02:47:00.56	341.28	34.58	-53.9	-56.0	14.3	0.00e+00	0	26	0	612368384	74	4449
2026-01-06 02:47:04.56	339.77	34.82	-53.5	-55.5	14.4	0.00e+00	0	26	0	619708416	73	4464
2026-01-06 02:47:08.55	338.23	35.05	-53.3	-55.2	14.6	0.00e+00	0	26	0	627048448	73	4297
2026-01-06 02:47:12.55	336.67	35.26	-53.3	-55.2	14.4	0.00e+00	0	26	0	634388480	72	4562
2026-01-06 02:47:16.53	335.10	35.44	-52.4	-54.1	14.8	0.00e+00	0	26	0	641728512	71	4251
2026-01-06 02:47:20.52	333.51	35.59	-52.8	-54.6	14.6	0.00e+00	0	26	0	649068544	71	4496
2026-01-06 02:47:24.51	331.91	35.72	-52.5	-54.2	14.7	0.00e+00	0	26	0	656408576	71	4325
2026-01-06 02:47:28.47	330.30	35.83	-52.1	-53.7	14.8	0.00e+00	0	26	0	664797184	70	4315
2026-01-06 02:47:32.47	328.67	35.91	-52.4	-54.2	14.6	0.00e+00	0	26	0	672137216	70	4547
2026-01-06 02:47:36.45	327.05	35.97	-53.2	-55.0	14.4	0.00e+00	0	26	0	679477248	71	4756
2026-01-06 02:47:40.44	325.41	35.99	-53.0	-54.8	14.5	0.00e+00	0	26	0	686817280	71	4611
2026-01-06 02:47:44.43	323.77	36.00	-53.0	-54.9	14.5	0.00e+00	0	26	0	694157312	71	4676
2026-01-06 02:47:48.41	322.14	35.97	-53.1	-55.0	14.4	0.00e+00	0	26	0	701497344	71	4729
2026-01-06 02:47:52.40	320.50	35.92	-53.7	-55.7	14.2	0.00e+00	0	26	0	708837376	72	4848
2026-01-06 02:47:56.40	318.87	35.84	-53.4	-55.4	14.4	0.00e+00	0	26	0	717225984	72	4657
2026-01-06 02:48:00.39	317.25	35.74	-54.2	-56.4	14.0	0.00e+00	0	26	0	724566016	73	4960
2026-01-06 02:48:04.38	315.65	35.61	-54.8	-57.2	13.7	0.00e+00	0	26	0	731906048	74	5131
2026-01-06 02:48:08.36	314.06	35.45	-54.4	-56.6	14.0	0.00e+00	0	26	0	739246080	74	4793
2026-01-06 02:48:12.35	312.48	35.27	-54.8	-57.2	13.7	0.00e+00	0	26	0	746586112	74	5102
2026-01-06 02:48:16.33	310.93	35.07	-54.7	-57.0	13.9	0.00e+00	0	26	0	753926144	75	4724
2026-01-06 02:48:20.31	309.40	34.85	-54.8	-57.2	13.8	0.00e+00	0	26	0	761266176	75	4831
2026-01-06 02:48:24.29	307.88	34.60	-54.6	-56.8	14.0	0.00e+00	0	26	0	768606208	75	4651
2026-01-06 02:48:28.28	306.39	34.34	-54.2	-56.3	14.2	0.00e+00	0	26	0	775946240	74	4616
2026-01-06 02:48:32.26	304.93	34.05	-54.1	-56.1	14.2	0.00e+00	0	26	0	784334848	74	4537
2026-01-06 02:48:36.23	303.50	33.75	-54.0	-56.1	14.3	0.00e+00	0	26	0	791674880	74	4516
2026-01-06 02:48:40.23	302.08	33.43	-54.5	-56.8	13.9	0.00e+00	0	26	0	799014912	74	4899
2026-01-06 02:48:44.21	300.70	33.09	-54.8	-57.1	13.7	0.00e+00	0	26	0	806354944	74	5093
2026-01-06 02:48:48.18	299.35	32.74	-54.9	-57.3	13.6	0.00e+00	0	26	0	813694976	74	5193
2026-01-06 02:48:52.19	298.02	32.38	-55.1	-57.6	13.5	0.00e+00	0	26	0	821035008	75	5097
2026-01-06 02:48:56.18	296.72	32.00	-55.1	-57.6	13.6	0.00e+00	0	26	0	828375040	75	5080
2026-01-06 02:49:00.16	295.46	31.61	-55.0	-57.6	13.6	0.00e+00	0	26	0	835715072	75	5046
2026-01-06 02:49:04.15	294.22	31.21	-54.8	-57.2	13.8	0.00e+00	0	26	0	844103680	75	4816
2026-01-06 02:49:08.14	293.02	30.80	-54.8	-57.3	13.7	0.00e+00	0	26	0	851443712	75	4875
2026-01-06 02:49:12.14	291.84	30.39	-54.7	-57.2	13.8	0.00e+00	0	26	0	858783744	75	4818
2026-01-06 02:49:16.14	290.70	29.96	-54.8	-57.2	13.7	0.00e+00	0	26	0	866123776	75	4841
2026-01-06 02:49:20.12	289.59	29.53	-54.2	-56.4	14.2	0.00e+00	0	26	0	873463808	75	4434
2026-01-06 02:49:24.11	288.50	29.10	-54.4	-56.8	13.9	0.00e+00	0	26	0	880803840	74	4889
2026-01-06 02:49:28.08	287.45	28.66	-54.1	-56.2	14.1	0.00e+00	0	26	0	888143872	74	4592
2026-01-06 02:49:32.06	286.43	28.22	-53.7	-55.7	14.2	0.00e+00	0	26	0	896532480	73	4579
2026-01-06 02:49:36.06	285.43	27.77	-53.2	-55.1	14.6	0.00e+00	0	26	0	903872512	73	4256
2026-01-06 02:49:40.03	284.46	27.33	-52.5	-54.3	14.7	0.00e+00	0	26	0	911212544	71	4341
2026-01-06 02:49:44.01	283.52	26.88	-52.3	-54.0	14.8	0.00e+00	0	26	0	918552576	71	4236
2026-01-06 02:49:48.00	282.61	26.43	-51.8	-53.5	14.9	0.00e+00	0	26	0	925892608	70	4195
2026-01-06 02:49:51.98	281.72	25.98	-52.1	-53.8	14.7	0.00e+00	0	26	0	933232640	70	4386
2026-01-06 02:49:55.97	280.85	25.53	-51.8	-53.4	15.0	0.00e+00	0	26	0	940572672	70	4149
2026-01-06 02:49:59.94	280.02	25.08	-51.7	-53.3	15.0	0.00e+00	0	26	0	947912704	70	4122
2026-01-06 02:50:03.94	279.20	24.63	-51.7	-53.3	14.8	0.00e+00	0	26	0	955252736	69	4350
2026-01-06 02:50:07.91	278.41	24.19	-51.8	-53.4	14.8	0.00e+00	0	26	0	963641344	69	4409
2026-01-06 02:50:11.92	277.63	23.74	-52.1	-53.8	14.6	0.00e+00	0	26	0	970981376	69	4647
2026-01-06 02:50:15.90	276.89	23.29	-52.2	-53.9	14.6	0.00e+00	0	26	0	978321408	69	4687
2026-01-06 02:50:19.88	276.16	22.85	-52.3	-54.0	14.5	0.00e+00	0	26	0	985661440	69	4748
2026-01-06 02:50:23.87	275.45	22.42	-52.2	-53.9	14.5	0.00e+00	0	26	0	993001472	69	4698
2026-01-06 02:50:27.87	274.76	21.98	-52.5	-54.3	14.5	0.00e+00	0	26	0	1000341504	70	4620
2026-01-06 02:50:31.86	274.09	21.55	-52.6	-54.4	14.5	0.00e+00	0	26	0	1007681536	70	4662
2026-01-06 02:50:35.85	273.44	21.12	-52.6	-54.5	14.4	0.00e+00	0	26	0	1016070144	70	4717
2026-01-06 02:50:39.84	272.81	20.69	-52.9	-54.8	14.3	0.00e+00	0	26	0	1023410176	70	4879
2026-01-06 02:50:43.83	272.20	20.27	-53.0	-54.9	14.4	0.00e+00	0	26	0	1030750208	71	4670
2026-01-06 02:50:47.83	271.60	19.85	-53.1	-55.1	14.3	0.00e+00	0	26	0	1038090240	71	4767
2026-01-06 02:50:51.81	271.02	19.43	-53.4	-55.5	14.1	0.00e+00	0	26	0	1045430272	71	4991
2026-01-06 02:50:55.81	270.45	19.02	-53.2	-55.2	14.3	0.00e+00	0	26	0	1052770304	72	4579
2026-01-06 02:50:59.81	269.90	18.61	-53.2	-55.2	14.3	0.00e+00	0	26	0	1060110336	72	4577
2026-01-06 02:51:03.81	269.36	18.21	-53.5	-55.6	14.1	0.00e+00	0	26	0	1068498944	72	4779
2026-01-06 02:51:07.79	268.84	17.81	-53.6	-55.8	14.0	0.00e+00	0	26	0	1075838976	72	4878
2026-01-06 02:51:11.79	268.33	17.41	-53.6	-55.7	14.0	0.00e+00	0	26	0	1083179008	72	4851
2026-01-06 02:51:15.78	267.84	17.02	-53.8	-56.1	13.9	0.00e+00	0	26	0	1090519040	72	5044
2026-01-06 02:51:19.78	267.36	16.63	-53.9	-56.1	14.0	0.00e+00	0	26	0	1097859072	73	4799
2026-01-06 02:51:23.79	266.89	16.25	-53.4	-55.5	14.3	0.00e+00	0	26	0	1105199104	73	4470
2026-01-06 02:51:27.79	266.43	15.86	-53.3	-55.3	14.4	0.00e+00	0	26	0	1112539136	73	4365
2026-01-06 02:51:31.79	265.98	15.49	-53.6	-55.7	14.2	0.00e+00	0	26	0	1120927744	73	4577
2026-01-06 02:51:35.80	265.55	15.12	-53.8	-56.0	14.0	0.00e+00	0	26	0	1128267776	73	4745
2026-01-06 02:51:39.82	265.12	14.74	-53.7	-55.9	14.0	0.00e+00	0	26	0	1135607808	73	4665
2026-01-06 02:51:43.82	264.71	14.38	-53.7	-55.9	14.1	0.00e+00	0	26	0	1142947840	73	4658
2026-01-06 02:51:47.84	264.31	14.02	-53.8	-56.1	13.9	0.00e+00	0	26	0	1150287872	73	4768
2026-01-06 02:51:51.84	263.91	13.66	-53.7	-55.9	14.1	0.00e+00	0	26	0	1157627904	73	4675
2026-01-06 02:51:55.85	263.53	13.31	-53.6	-55.7	14.2	0.00e+00	0	26	0	1166016512	73	4584
2026-01-06 02:51:59.86	263.15	12.96	-53.6	-55.8	14.1	0.00e+00	0	26	0	1173356544	73	4641
2026-01-06 02:52:03.86	262.79	12.61	-54.0	-56.4	13.8	0.00e+00	0	26	0	1180696576	73	4936
2026-01-06 02:52:07.88	262.43	12.27	-54.2	-56.7	13.6	0.00e+00	0	26	0	1188036608	73	5101
2026-01-06 02:52:11.89	262.08	11.93	-54.3	-56.9	13.5	0.00e+00	0	26	0	1195376640	73	5238
2026-01-06 02:52:15.90	261.74	11.59	-54.3	-56.9	13.5	0.00e+00	0	26	0	1203765248	73	5222
2026-01-06 02:52:19.91	261.41	11.26	-54.4	-57.0	13.4	0.00e+00	0	26	0	1211105280	73	5326
2026-01-06 02:52:23.92	261.08	10.93	-54.4	-57.0	13.5	0.00e+00	0	26	0	1218445312	74	5038
2026-01-06 02:52:27.94	260.77	10.61	-54.4	-57.0	13.5	0.00e+00	0	26	0	1225785344	74	5036
2026-01-06 02:52:31.94	260.46	10.29	-54.4	-57.1	13.5	0.00e+00	0	26	0	1233125376	74	5055
2026-01-06 02:52:35.95	260.15	9.97	-54.6	-57.4	13.3	0.00e+00	0	26	0	1240465408	74	5241
2026-01-06 02:52:39.96	259.86	9.66	-54.7	-57.6	13.1	0.00e+00	0	26	0	1248854016	74	5352
2026-01-06 02:52:43.98	259.57	9.34	-54.8	-57.7	13.1	0.00e+00	0	26	0	1256194048	74	5431
2026-01-06 02:52:48.00	259.28	9.03	-54.7	-57.5	13.1	0.00e+00	0	26	0	1263534080	74	5338
2026-01-06 02:52:52.01	259.00	8.73	-54.8	-57.6	13.1	0.00e+00	0	26	0	1270874112	74	5402
2026-01-06 02:52:56.02	258.73	8.43	-54.9	-57.8	12.9	0.00e+00	0	26	0	1278214144	74	5509
2026-01-06 02:53:00.02	258.47	8.13	-55.0	-58.2	12.8	0.00e+00	0	26	0	1285554176	75	5408
2026-01-06 02:53:04.03	258.21	7.83	-55.1	-58.3	12.7	0.00e+00	0	26	0	1293942784	75	5498
2026-01-06 02:53:08.04	257.95	7.54	-55.1	-58.3	12.7	0.00e+00	0	26	0	1301282816	75	5500
2026-01-06 02:53:12.06	257.70	7.24	-55.1	-58.2	12.7	0.00e+00	0	26	0	1308622848	75	5455
2026-01-06 02:53:16.06	257.46	6.96	-55.3	-58.6	12.4	0.00e+00	0	26	0	1315962880	75	5713
2026-01-06 02:53:20.07	257.22	6.67	-55.2	-58.6	12.5	0.00e+00	0	26	0	1323302912	75	5658
2026-01-06 02:53:24.09	256.99	6.39	-55.3	-58.7	12.4	0.00e+00	0	26	0	1330642944	75	5770
2026-01-06 02:53:28.09	256.76	6.11	-55.1	-58.5	12.5	0.00e+00	0	26	0	1339031552	75	5597
2026-01-06 02:53:32.10	256.53	5.83	-55.2	-58.6	12.4	0.00e+00	0	26	0	1346371584	75	5688
2026-01-06 02:53:36.11	256.31	5.56	-55.2	-58.7	12.3	0.00e+00	0	26	0	1353711616	75	5768
2026-01-06 02:53:40.11	256.10	5.28	-55.2	-58.7	12.3	1.50e-06	0	26	0	1361051648	75	5733
2026-01-06 02:53:44.13	255.88	5.01	-55.4	-59.1	12.0	1.50e-06	0	26	0	1368391680	75	6008
2026-01-06 02:53:48.11	255.68	4.75	-59.6	-75.7	3.8	1.49e+00	0	26	104	1369440256	84	24255
2026-01-06 02:53:52.10	255.47	4.48	-60.1	-76.1	3.8	1.49e+00	0	26	104	1369440256	85	24126
2026-01-06 02:53:56.09	255.27	4.22	-60.3	-76.4	3.8	1.49e+00	0	26	104	1369440256	85	24816
2026-01-06 02:54:00.09	255.08	3.96	-60.4	-76.5	3.8	1.49e+00	0	26	104	1369440256	85	25159
2026-01-06 02:54:04.08	254.89	3.70	-60.5	-76.6	3.8	1.49e+00	0	26	104	1369440256	86	23997
2026-01-06 02:54:08.10	254.70	3.44	-60.4	-76.5	3.8	1.49e+00	0	27	104	1369440256	86	23805
2026-01-06 02:54:12.09	254.51	3.19	-60.4	-76.5	3.8	1.49e+00	0	26	104	1369440256	86	23689
2026-01-06 02:54:16.08	254.33	2.94	-60.4	-76.5	3.8	1.49e+00	0	26	104	1369440256	86	23590
2026-01-06 02:54:20.08	254.15	2.69	-60.3	-76.4	3.8	1.49e+00	0	26	104	1369440256	86	23457
2026-01-06 02:54:24.08	253.98	2.44	-60.3	-76.4	3.8	1.49e+00	0	27	104	1369440256	86	23453
2026-01-06 02:54:28.07	253.81	2.19	-60.3	-76.4	3.8	1.49e+00	0	26	104	1369440256	86	23378

#Closed at: 2026-01-06 02:54:31
#Recorded file [1369 MB]: D:/lorett/data/31004_260106_054053.dat