passes_logs/2026/01/06/R3.2S_Murmansk/R3.2S_Murmansk__20260106_111019_AQUA_rec.log

#Pass ID: 20260106_111019_AQUA
#Satellite: AQUA
#Configuration: AQUA
#almurnet v.1.7.20251203
#Start time: 2026-01-06 11:10:18

#Version: 2.2.20231116
#Station: R3.2S_Murmansk
#Location: 33.079688 lon 68.888172 lat
#TLE: 1 27424U 02022A   26004.96787593  .00001598  00000+0  32997-3 0  9996
#TLE: 2 27424  98.4069 331.2279 0002002  90.2377   0.6092 14.61798176259425

#Time	Az	El	Level	Level2	SNR	BER	BlckErr	Temp	State	Recorded	gain1	gain2
2026-01-06 11:10:18.87	150.01	1.98	-57.9	-77.3	3.8	7.48e-01	0	26	0	0	84	33889
2026-01-06 11:10:22.84	150.00	2.25	-57.8	-77.1	3.8	7.45e-01	0	26	104	0	83	35204
2026-01-06 11:10:26.83	150.00	2.52	-57.8	-77.1	3.8	7.43e-01	0	26	104	0	83	34962
2026-01-06 11:10:30.79	150.00	2.79	-57.8	-76.8	3.8	7.45e-01	0	26	104	0	83	33716
2026-01-06 11:10:34.77	149.99	3.06	-57.8	-76.1	3.8	7.46e-01	0	26	104	0	83	31260
2026-01-06 11:10:38.74	149.99	3.34	-57.7	-74.1	4.1	7.39e-01	0	26	104	0	83	24860
2026-01-06 11:10:42.71	149.98	3.62	-57.6	-70.5	5.5	6.96e-01	90	26	0	0	83	16359
2026-01-06 11:10:46.69	149.97	3.91	-57.2	-66.3	8.8	6.28e-01	0	27	0	6815744	83	10064
2026-01-06 11:10:50.66	149.97	4.19	-55.5	-60.1	13.2	6.08e-01	0	27	0	14155776	80	5877
2026-01-06 11:10:54.63	149.96	4.48	-53.5	-56.5	14.6	6.05e-01	0	27	0	21495808	76	4878
2026-01-06 11:10:58.61	149.95	4.78	-52.9	-55.6	14.8	6.07e-01	0	27	0	28835840	75	4676
2026-01-06 11:11:02.59	149.94	5.08	-54.4	-58.0	14.0	6.06e-01	0	27	0	36700160	76	5800
2026-01-06 11:11:06.55	149.93	5.38	-53.1	-55.9	14.8	6.07e-01	0	27	0	44040192	73	5433
2026-01-06 11:11:10.52	149.93	5.68	-51.7	-53.9	15.1	6.06e-01	0	27	0	51380224	72	4562
2026-01-06 11:11:14.49	149.92	5.99	-51.9	-54.1	15.0	6.06e-01	0	27	0	58720256	72	4697
2026-01-06 11:11:18.47	149.91	6.30	-51.7	-53.8	15.1	6.06e-01	0	27	0	66060288	72	4539
2026-01-06 11:11:22.45	149.90	6.62	-52.0	-54.2	15.0	6.06e-01	0	27	0	73924608	72	4730
2026-01-06 11:11:26.42	149.88	6.94	-51.8	-53.9	15.1	6.06e-01	0	27	0	81264640	72	4592
2026-01-06 11:11:30.38	149.87	7.27	-51.4	-53.4	15.3	6.06e-01	0	27	0	88604672	72	4339
2026-01-06 11:11:34.35	149.86	7.60	-51.3	-53.2	15.3	6.05e-01	0	27	0	95944704	71	4481
2026-01-06 11:11:38.32	149.85	7.94	-51.5	-53.5	15.2	6.08e-01	0	28	0	103284736	71	4630
2026-01-06 11:11:42.29	149.83	8.28	-51.1	-53.1	15.3	6.06e-01	0	28	0	111149056	71	4409
2026-01-06 11:11:46.26	149.82	8.63	-51.0	-52.9	15.4	6.05e-01	0	28	0	118489088	71	4307
2026-01-06 11:11:50.24	149.80	8.98	-50.9	-52.8	15.3	6.06e-01	0	28	0	125829120	70	4544
2026-01-06 11:11:54.21	149.79	9.34	-50.9	-52.8	15.3	6.05e-01	0	28	0	133169152	70	4527
2026-01-06 11:11:58.19	149.77	9.70	-50.8	-52.6	15.3	6.06e-01	0	28	0	141033472	70	4423
2026-01-06 11:12:02.17	149.75	10.07	-50.6	-52.5	15.4	6.06e-01	0	28	0	148373504	70	4342
2026-01-06 11:12:06.14	149.73	10.45	-50.6	-52.4	15.4	6.04e-01	0	28	0	155713536	70	4326
2026-01-06 11:12:10.12	149.71	10.83	-50.7	-52.5	15.4	6.08e-01	0	28	0	163053568	70	4363
2026-01-06 11:12:14.10	149.69	11.22	-50.5	-52.3	15.4	6.06e-01	0	28	0	170393600	70	4243
2026-01-06 11:12:18.07	149.67	11.61	-50.3	-52.0	15.4	6.07e-01	0	28	0	178257920	69	4391
2026-01-06 11:12:22.03	149.65	12.02	-50.3	-52.0	15.4	6.05e-01	0	28	0	185597952	69	4384
2026-01-06 11:12:26.01	149.63	12.43	-50.1	-51.8	15.4	6.07e-01	0	28	0	192937984	69	4275
2026-01-06 11:12:29.97	149.60	12.85	-50.1	-51.8	15.4	6.09e-01	0	28	0	200278016	69	4253
2026-01-06 11:12:33.95	149.58	13.27	-50.1	-51.8	15.5	6.09e-01	0	28	0	207618048	69	4249
2026-01-06 11:12:37.92	149.55	13.71	-50.1	-51.8	15.5	6.07e-01	0	28	0	215482368	69	4276
2026-01-06 11:12:41.83	149.52	14.15	-50.3	-52.0	15.4	6.08e-01	0	28	0	222822400	69	4358
2026-01-06 11:12:45.81	149.49	14.60	-50.1	-51.8	15.5	6.06e-01	0	28	0	230162432	69	4270
2026-01-06 11:12:49.79	149.46	15.06	-50.3	-51.9	15.4	6.08e-01	0	28	0	237502464	69	4340
2026-01-06 11:12:53.77	149.43	15.54	-50.1	-51.8	15.5	6.09e-01	0	28	0	245366784	69	4279
2026-01-06 11:12:57.75	149.39	16.02	-50.1	-51.8	15.5	6.08e-01	0	28	0	252706816	69	4250
2026-01-06 11:13:01.72	149.36	16.51	-50.3	-52.0	15.4	6.07e-01	0	28	0	260046848	69	4345
2026-01-06 11:13:05.69	149.32	17.02	-50.0	-51.7	15.5	6.07e-01	0	28	0	267386880	69	4216
2026-01-06 11:13:09.65	149.28	17.53	-50.0	-51.7	15.5	6.07e-01	0	28	0	274726912	69	4216
2026-01-06 11:13:13.62	149.24	18.06	-50.2	-51.8	15.5	6.06e-01	0	28	0	282591232	69	4285
2026-01-06 11:13:17.61	149.19	18.61	-50.2	-51.9	15.4	6.07e-01	0	28	0	289931264	69	4307
2026-01-06 11:13:21.59	149.15	19.16	-50.2	-51.9	15.4	6.08e-01	0	28	0	297271296	69	4319
2026-01-06 11:13:25.55	149.10	19.73	-50.3	-51.9	15.4	6.09e-01	0	28	0	304611328	69	4330
2026-01-06 11:13:29.53	149.05	20.31	-50.4	-52.1	15.4	6.04e-01	0	28	0	311951360	69	4438
2026-01-06 11:13:33.49	148.99	20.91	-50.5	-52.2	15.4	6.06e-01	0	28	0	319815680	69	4470
2026-01-06 11:13:37.45	148.94	21.52	-50.3	-52.0	15.4	6.06e-01	0	28	0	327155712	69	4372
2026-01-06 11:13:41.40	148.88	22.15	-50.4	-52.0	15.4	6.08e-01	0	28	0	334495744	69	4388
2026-01-06 11:13:45.38	148.81	22.80	-50.4	-52.1	15.4	6.05e-01	0	29	0	341835776	69	4422
2026-01-06 11:13:49.34	148.75	23.47	-50.4	-52.1	15.4	6.06e-01	0	28	0	349175808	69	4421
2026-01-06 11:13:53.31	148.68	24.15	-50.4	-52.0	15.4	6.06e-01	0	28	0	356515840	69	4391
2026-01-06 11:13:57.27	148.60	24.86	-50.4	-52.0	15.4	6.08e-01	0	28	0	364380160	69	4386
2026-01-06 11:14:01.26	148.52	25.59	-50.5	-52.1	15.4	6.03e-01	0	29	0	371720192	69	4435
2026-01-06 11:14:05.23	148.44	26.34	-50.3	-52.0	15.4	6.06e-01	0	28	0	379060224	69	4356
2026-01-06 11:14:09.21	148.35	27.11	-49.9	-51.5	15.6	6.06e-01	0	28	0	386400256	69	4127
2026-01-06 11:14:13.19	148.26	27.91	-50.1	-51.7	15.5	6.05e-01	0	28	0	394264576	69	4204
2026-01-06 11:14:17.16	148.16	28.73	-49.9	-51.5	15.6	6.04e-01	0	28	0	401604608	69	4132
2026-01-06 11:14:21.13	148.05	29.58	-49.8	-51.3	15.5	6.07e-01	0	28	0	408944640	68	4285
2026-01-06 11:14:25.11	147.94	30.46	-49.9	-51.5	15.5	6.06e-01	0	29	0	416284672	68	4391
2026-01-06 11:14:29.08	147.82	31.36	-49.7	-51.3	15.5	6.05e-01	0	28	0	423624704	68	4255
2026-01-06 11:14:33.05	147.69	32.30	-49.7	-51.3	15.5	6.06e-01	0	28	0	431489024	68	4257
2026-01-06 11:14:37.01	147.56	33.26	-50.1	-51.7	15.4	6.06e-01	0	28	0	438829056	68	4457
2026-01-06 11:14:40.99	147.41	34.27	-50.7	-52.4	15.4	6.05e-01	0	29	0	446169088	69	4564
2026-01-06 11:14:44.95	147.26	35.30	-51.0	-52.7	15.3	6.07e-01	0	28	0	453509120	69	4724
2026-01-06 11:14:48.93	147.09	36.38	-51.3	-53.1	15.3	6.04e-01	0	29	0	460849152	70	4691
2026-01-06 11:14:52.91	146.91	37.49	-51.9	-53.8	15.2	6.04e-01	0	29	0	468713472	71	4764
2026-01-06 11:14:56.89	146.71	38.65	-51.8	-53.7	15.2	6.07e-01	0	29	0	476053504	71	4726
2026-01-06 11:15:00.85	146.50	39.84	-51.7	-53.6	15.3	6.06e-01	0	29	0	483393536	71	4679
2026-01-06 11:15:04.81	146.27	41.08	-51.5	-53.3	15.4	6.07e-01	0	29	0	490733568	71	4505
2026-01-06 11:15:08.77	146.02	42.36	-51.3	-53.0	15.4	6.08e-01	0	28	0	498073600	71	4383
2026-01-06 11:15:12.74	145.75	43.69	-50.8	-52.5	15.4	6.06e-01	0	29	0	505937920	70	4387
2026-01-06 11:15:16.72	145.45	45.08	-50.6	-52.2	15.5	6.06e-01	0	29	0	513277952	70	4223
2026-01-06 11:15:20.69	145.12	46.51	-50.3	-52.0	15.5	6.03e-01	0	29	0	520617984	69	4350
2026-01-06 11:15:24.66	144.76	48.00	-50.5	-52.1	15.4	6.05e-01	0	29	0	527958016	69	4434
2026-01-06 11:15:28.63	144.36	49.54	-50.6	-52.2	15.4	6.06e-01	0	28	0	535298048	69	4483
2026-01-06 11:15:32.61	143.91	51.14	-49.9	-51.5	15.6	6.07e-01	0	29	0	543162368	69	4131
2026-01-06 11:15:36.56	143.42	52.78	-49.6	-51.1	15.6	6.07e-01	0	28	0	550502400	68	4171
2026-01-06 11:15:40.53	142.85	54.49	-49.7	-51.3	15.5	6.01e-01	0	28	0	557842432	68	4250
2026-01-06 11:15:44.50	142.22	56.25	-49.9	-51.5	15.5	6.00e-01	0	29	0	565182464	68	4366
2026-01-06 11:15:48.48	141.49	58.08	-51.4	-53.1	15.3	6.02e-01	0	28	0	572522496	70	4700
2026-01-06 11:15:52.46	140.65	59.96	-51.3	-53.0	15.3	6.00e-01	0	29	0	580386816	70	4634
2026-01-06 11:15:56.42	139.68	61.88	-51.8	-53.6	15.3	6.04e-01	0	29	0	587726848	71	4702
2026-01-06 11:16:00.39	138.53	63.86	-52.3	-54.3	15.2	6.02e-01	0	29	0	595066880	72	4780
2026-01-06 11:16:04.35	137.17	65.88	-53.4	-55.6	15.0	6.01e-01	0	29	0	602406912	74	4940
2026-01-06 11:16:08.30	135.53	67.93	-53.9	-56.3	15.0	6.02e-01	0	29	0	609746944	76	4764
2026-01-06 11:16:12.29	133.49	70.04	-54.4	-56.9	14.9	6.02e-01	0	29	0	617611264	77	4853
2026-01-06 11:16:16.26	130.94	72.15	-53.7	-56.0	15.1	6.04e-01	0	29	0	624951296	76	4621
2026-01-06 11:16:20.25	127.64	74.26	-53.6	-55.8	15.1	6.02e-01	0	29	0	632291328	75	4787
2026-01-06 11:16:24.22	123.29	76.34	-53.4	-55.6	15.1	6.02e-01	0	29	0	639631360	75	4669
2026-01-06 11:16:28.19	117.34	78.35	-52.0	-53.9	15.4	6.01e-01	0	29	0	646971392	73	4301
2026-01-06 11:16:32.16	108.98	80.20	-51.1	-52.8	15.5	6.01e-01	0	29	0	654835712	71	4263
2026-01-06 11:16:36.12	97.05	81.76	-52.2	-54.1	15.3	6.01e-01	0	29	0	662175744	72	4653
2026-01-06 11:16:40.08	80.55	82.84	-51.7	-53.5	15.3	6.02e-01	0	29	0	669515776	71	4632
2026-01-06 11:16:44.05	60.46	83.16	-51.3	-53.0	15.4	5.99e-01	0	29	0	676855808	71	4368
2026-01-06 11:16:48.02	40.95	82.63	-51.7	-53.5	15.3	6.01e-01	0	29	0	684195840	71	4605
2026-01-06 11:16:52.00	25.53	81.41	-50.7	-52.3	15.5	6.01e-01	0	29	0	691535872	70	4276
2026-01-06 11:16:55.97	14.59	79.76	-51.1	-52.8	15.4	6.03e-01	0	29	0	699400192	70	4495
2026-01-06 11:16:59.94	6.93	77.86	-53.5	-55.6	15.0	6.00e-01	0	29	0	706740224	74	4982
2026-01-06 11:17:03.91	1.45	75.83	-54.1	-56.4	14.9	6.03e-01	0	29	0	714080256	75	5159
2026-01-06 11:17:07.88	357.41	73.74	-53.2	-55.2	15.2	5.98e-01	0	29	0	721420288	75	4485
2026-01-06 11:17:11.85	354.34	71.64	-54.0	-56.3	14.9	6.00e-01	0	28	0	728760320	75	5046
2026-01-06 11:17:15.81	351.94	69.54	-54.9	-57.4	14.9	6.03e-01	0	29	0	736624640	78	4847
2026-01-06 11:17:19.77	350.01	67.46	-55.2	-57.9	14.7	6.02e-01	0	29	0	743964672	78	5151
2026-01-06 11:17:23.74	348.44	65.41	-53.8	-56.0	15.1	6.02e-01	0	29	0	751304704	76	4651
2026-01-06 11:17:27.72	347.13	63.39	-52.3	-54.2	15.3	6.02e-01	0	29	0	758644736	73	4474
2026-01-06 11:17:31.70	346.03	61.43	-51.9	-53.7	15.4	6.00e-01	0	29	0	765984768	72	4443
2026-01-06 11:17:35.66	345.10	59.52	-51.4	-53.0	15.4	6.02e-01	0	29	0	773849088	71	4386
2026-01-06 11:17:39.63	344.29	57.66	-50.8	-52.4	15.5	6.02e-01	0	29	0	781189120	70	4315
2026-01-06 11:17:43.60	343.59	55.86	-49.9	-51.4	15.5	6.00e-01	0	29	0	788529152	68	4312
2026-01-06 11:17:47.55	342.97	54.12	-49.6	-51.1	15.6	6.00e-01	0	29	0	795869184	68	4160
2026-01-06 11:17:51.53	342.43	52.43	-50.0	-51.6	15.5	6.01e-01	0	29	0	803209216	68	4400
2026-01-06 11:17:55.50	341.94	50.79	-50.1	-51.7	15.5	6.03e-01	0	29	0	811073536	68	4455
2026-01-06 11:17:59.47	341.51	49.22	-50.6	-52.2	15.4	6.04e-01	0	29	0	818413568	69	4479
2026-01-06 11:18:03.46	341.12	47.68	-50.9	-52.6	15.4	6.01e-01	0	29	0	825753600	69	4654
2026-01-06 11:18:07.43	340.76	46.22	-50.5	-52.1	15.4	6.01e-01	0	29	0	833093632	69	4420
2026-01-06 11:18:11.40	340.44	44.80	-50.3	-51.9	15.5	5.99e-01	0	29	0	840433664	69	4293
2026-01-06 11:18:15.38	340.15	43.43	-50.9	-52.6	15.4	6.00e-01	0	29	0	848297984	69	4676
2026-01-06 11:18:19.37	339.89	42.10	-51.1	-52.8	15.3	6.02e-01	0	29	0	855638016	69	4812
2026-01-06 11:18:23.35	339.64	40.83	-51.7	-53.5	15.3	6.02e-01	0	29	0	862978048	71	4638
2026-01-06 11:18:27.33	339.42	39.60	-51.6	-53.4	15.3	6.04e-01	0	29	0	870318080	71	4577
2026-01-06 11:18:31.31	339.21	38.42	-52.3	-54.2	15.2	6.02e-01	0	29	0	878182400	72	4754
2026-01-06 11:18:35.28	339.02	37.28	-51.6	-53.4	15.5	6.03e-01	0	29	0	885522432	72	4315
2026-01-06 11:18:39.24	338.84	36.18	-50.8	-52.4	15.5	6.02e-01	0	29	0	892862464	70	4308
2026-01-06 11:18:43.20	338.68	35.12	-50.8	-52.4	15.5	6.03e-01	0	29	0	900202496	70	4334
2026-01-06 11:18:47.18	338.53	34.09	-50.4	-52.0	15.6	6.03e-01	0	29	0	907542528	70	4128
2026-01-06 11:18:51.16	338.38	33.10	-50.1	-51.7	15.6	6.02e-01	0	29	0	915406848	69	4212
2026-01-06 11:18:55.13	338.25	32.14	-49.7	-51.2	15.6	6.00e-01	0	29	0	922746880	68	4203
2026-01-06 11:18:59.10	338.13	31.22	-49.5	-51.1	15.6	6.03e-01	0	29	0	930086912	68	4146
2026-01-06 11:19:03.07	338.01	30.32	-49.7	-51.3	15.6	6.00e-01	0	29	0	937426944	68	4266
2026-01-06 11:19:07.05	337.90	29.45	-50.0	-51.6	15.5	5.99e-01	0	29	0	944766976	68	4406
2026-01-06 11:19:11.02	337.80	28.61	-50.2	-51.8	15.4	6.02e-01	0	29	0	952631296	68	4526
2026-01-06 11:19:14.99	337.70	27.80	-50.1	-51.7	15.4	6.03e-01	0	29	0	959971328	68	4473
2026-01-06 11:19:18.96	337.61	27.01	-50.0	-51.6	15.5	6.02e-01	0	29	0	967311360	68	4392
2026-01-06 11:19:22.92	337.52	26.25	-50.0	-51.5	15.5	6.00e-01	0	29	0	974651392	68	4373
2026-01-06 11:19:26.89	337.44	25.51	-50.2	-51.9	15.4	6.02e-01	0	29	0	981991424	68	4549
2026-01-06 11:19:30.87	337.37	24.79	-50.8	-52.6	15.4	6.00e-01	0	29	0	989855744	69	4663
2026-01-06 11:19:34.83	337.30	24.09	-50.9	-52.6	15.3	6.02e-01	0	29	0	997195776	69	4703
2026-01-06 11:19:38.77	337.23	23.42	-50.7	-52.4	15.4	6.01e-01	0	29	0	1004535808	69	4588
2026-01-06 11:19:42.73	337.16	22.76	-50.7	-52.3	15.4	5.97e-01	0	29	0	1011875840	69	4541
2026-01-06 11:19:46.68	337.10	22.12	-50.6	-52.3	15.4	6.02e-01	0	29	0	1019215872	69	4521
2026-01-06 11:19:50.65	337.05	21.49	-50.5	-52.2	15.4	6.02e-01	0	29	0	1026555904	69	4464
2026-01-06 11:19:54.62	336.99	20.88	-50.4	-52.1	15.5	6.00e-01	0	29	0	1034420224	69	4408
2026-01-06 11:19:58.61	336.94	20.29	-50.4	-52.0	15.5	6.00e-01	0	29	0	1041760256	69	4390
2026-01-06 11:20:02.57	336.89	19.71	-50.5	-52.2	15.4	6.02e-01	0	29	0	1049100288	69	4464
2026-01-06 11:20:06.54	336.84	19.14	-50.6	-52.3	15.4	5.99e-01	0	29	0	1056440320	69	4506
2026-01-06 11:20:10.52	336.80	18.59	-50.8	-52.5	15.4	6.01e-01	0	29	0	1064304640	69	4635
2026-01-06 11:20:14.48	336.76	18.06	-50.8	-52.6	15.3	6.01e-01	0	29	0	1071644672	69	4681
2026-01-06 11:20:18.46	336.72	17.53	-50.6	-52.3	15.4	6.02e-01	0	29	0	1078984704	69	4537
2026-01-06 11:20:22.44	336.68	17.02	-50.6	-52.3	15.4	6.03e-01	0	29	0	1086324736	69	4542
2026-01-06 11:20:26.41	336.65	16.52	-50.4	-52.1	15.5	6.02e-01	0	29	0	1093664768	69	4407
2026-01-06 11:20:30.40	336.61	16.02	-50.4	-52.1	15.5	6.03e-01	0	29	0	1101529088	69	4398
2026-01-06 11:20:34.37	336.58	15.54	-50.4	-52.1	15.4	6.00e-01	0	29	0	1108869120	69	4393
2026-01-06 11:20:38.34	336.55	15.08	-50.4	-52.1	15.5	5.98e-01	0	29	0	1116209152	69	4404
2026-01-06 11:20:42.31	336.52	14.62	-50.3	-51.9	15.5	6.03e-01	0	29	0	1123549184	69	4335
2026-01-06 11:20:46.29	336.49	14.17	-50.2	-51.9	15.5	6.02e-01	0	29	0	1130889216	69	4323
2026-01-06 11:20:50.25	336.47	13.73	-50.2	-51.9	15.5	6.03e-01	0	29	0	1138753536	69	4301
2026-01-06 11:20:54.23	336.44	13.29	-50.1	-51.7	15.5	6.02e-01	0	29	0	1146093568	69	4229
2026-01-06 11:20:58.20	336.42	12.87	-50.2	-51.8	15.5	5.99e-01	0	28	0	1153433600	69	4289
2026-01-06 11:21:02.16	336.39	12.45	-50.2	-51.8	15.5	6.03e-01	0	29	0	1160773632	69	4271
2026-01-06 11:21:06.14	336.37	12.04	-50.2	-51.9	15.5	6.04e-01	0	29	0	1168113664	69	4304
2026-01-06 11:21:10.12	336.35	11.64	-50.5	-52.2	15.2	6.00e-01	0	29	0	1175977984	69	4444
2026-01-06 11:21:14.09	336.33	11.25	-50.4	-52.2	15.4	6.02e-01	0	29	0	1183318016	69	4447
2026-01-06 11:21:18.06	336.32	10.86	-50.5	-52.2	15.4	6.03e-01	0	29	0	1190658048	69	4479
2026-01-06 11:21:22.02	336.30	10.48	-50.6	-52.4	15.4	6.04e-01	0	29	0	1197998080	69	4572
2026-01-06 11:21:25.99	336.28	10.11	-50.8	-52.6	15.3	6.03e-01	0	29	0	1205338112	69	4676
2026-01-06 11:21:29.97	336.27	9.74	-50.9	-52.7	15.3	6.03e-01	0	29	0	1213202432	69	4759
2026-01-06 11:21:33.93	336.25	9.38	-50.9	-52.7	15.3	6.03e-01	0	29	0	1220542464	69	4755
2026-01-06 11:21:37.89	336.24	9.03	-51.2	-53.1	15.3	6.02e-01	0	29	0	1227882496	70	4663
2026-01-06 11:21:41.87	336.23	8.68	-51.1	-53.0	15.3	6.01e-01	0	29	0	1235222528	70	4650
2026-01-06 11:21:45.83	336.21	8.33	-51.3	-53.2	15.3	6.02e-01	0	29	0	1242562560	70	4727
2026-01-06 11:21:49.79	336.20	7.99	-51.4	-53.4	15.2	6.00e-01	0	29	0	1249902592	70	4839
2026-01-06 11:21:53.76	336.19	7.66	-51.5	-53.5	15.2	6.02e-01	0	29	0	1257766912	70	4872
2026-01-06 11:21:57.72	336.18	7.33	-51.4	-53.4	15.2	6.01e-01	0	29	0	1265106944	71	4594
2026-01-06 11:22:01.68	336.17	7.01	-51.6	-53.6	15.2	6.03e-01	0	29	0	1272446976	71	4701
2026-01-06 11:22:05.67	336.16	6.68	-51.7	-53.8	15.1	6.01e-01	0	29	0	1279787008	71	4778
2026-01-06 11:22:09.64	336.16	6.37	-51.6	-53.7	15.2	6.01e-01	0	28	0	1287127040	71	4709
2026-01-06 11:22:13.61	336.15	6.06	-51.7	-53.8	15.2	6.00e-01	0	29	0	1294991360	71	4762
2026-01-06 11:22:17.58	336.14	5.75	-51.7	-53.8	15.1	6.04e-01	0	29	0	1302331392	71	4810
2026-01-06 11:22:21.55	336.14	5.45	-52.1	-54.3	15.0	5.99e-01	0	29	0	1309671424	71	5088
2026-01-06 11:22:25.52	336.13	5.15	-51.9	-54.2	15.1	6.04e-01	0	29	0	1317011456	72	4706
2026-01-06 11:22:29.50	336.12	4.85	-59.4	-78.7	3.8	7.45e-01	0	29	104	1321730048	86	35652
2026-01-06 11:22:33.49	336.12	4.55	-60.0	-79.4	3.8	7.48e-01	0	29	104	1321730048	87	36385
2026-01-06 11:22:37.50	336.12	4.26	-60.4	-79.8	3.8	7.49e-01	0	29	104	1321730048	88	35732
2026-01-06 11:22:41.47	336.11	3.98	-60.5	-79.9	3.9	7.47e-01	0	29	104	1321730048	88	36294
2026-01-06 11:22:45.44	336.11	3.69	-60.6	-80.0	3.8	7.46e-01	0	29	104	1321730048	88	36628
2026-01-06 11:22:49.39	336.10	3.42	-60.6	-80.0	3.8	7.45e-01	0	29	104	1321730048	88	36768
2026-01-06 11:22:53.36	336.10	3.14	-60.5	-79.9	3.8	7.48e-01	0	29	104	1321730048	88	36389
2026-01-06 11:22:57.32	336.10	2.87	-60.5	-79.9	3.8	7.43e-01	0	29	104	1321730048	88	36214
2026-01-06 11:23:01.30	336.10	2.60	-60.5	-79.9	3.8	7.46e-01	0	29	104	1321730048	88	36181
2026-01-06 11:23:05.26	336.10	2.33	-60.4	-79.8	3.8	7.46e-01	0	29	104	1321730048	88	36024
2026-01-06 11:23:09.22	336.10	2.07	-60.4	-79.8	3.8	7.49e-01	0	29	104	1321730048	88	35944

#Closed at: 2026-01-06 11:23:11
#Recorded file [1321 MB]: D:/lorett/data/31004_260106_141018.dat