passes_logs/2026/01/06/R3.2S_Murmansk/R3.2S_Murmansk__20260106_150231_FENGYUN_3D_rec.log

#Pass ID: 20260106_150231_FENGYUN 3D
#Satellite: FENGYUN 3D
#Configuration: FENGYUN 3D
#almurnet v.1.7.20251203
#Start time: 2026-01-06 15:02:31

#Version: 2.2.20231116
#Station: R3.2S_Murmansk
#Location: 33.079688 lon 68.888172 lat
#TLE: 1 43010U 17072A   26005.48915933 -.00000051  00000+0 -21983-5 0  9995
#TLE: 2 43010  98.9919 337.1582 0002001 124.6377 235.4988 14.19691925421909

#Time	Az	El	Level	Level2	SNR	BER	BlckErr	Temp	State	Recorded	gain1	gain2
2026-01-06 15:02:31.17	243.22	1.99	-58.3	-71.3	3.8	8.46e-01	0	23	0	0	82	16371
2026-01-06 15:02:34.17	243.52	2.13	-58.2	-71.3	3.8	8.45e-01	0	24	104	0	81	17285
2026-01-06 15:02:37.15	243.82	2.26	-58.2	-71.3	3.8	8.45e-01	0	24	104	0	81	17321
2026-01-06 15:02:40.16	244.13	2.39	-58.2	-71.2	3.8	8.47e-01	0	24	104	0	81	17278
2026-01-06 15:02:43.16	244.44	2.52	-58.2	-71.2	3.8	8.45e-01	0	24	104	0	81	17182
2026-01-06 15:02:46.17	244.75	2.65	-58.2	-71.2	3.8	8.46e-01	0	24	104	0	81	17143
2026-01-06 15:02:49.17	245.06	2.79	-58.2	-71.2	3.8	8.45e-01	0	24	104	0	81	17266
2026-01-06 15:02:52.17	245.38	2.92	-58.2	-71.3	3.8	8.46e-01	0	24	104	0	81	17293
2026-01-06 15:02:55.17	245.70	3.05	-58.2	-71.2	3.8	8.46e-01	0	24	104	0	81	17198
2026-01-06 15:02:58.18	246.02	3.18	-58.2	-71.1	3.8	8.46e-01	0	24	104	0	81	16995
2026-01-06 15:03:01.17	246.35	3.31	-58.2	-71.1	3.8	8.45e-01	0	24	104	0	81	17028
2026-01-06 15:03:04.17	246.67	3.44	-58.2	-71.2	3.8	8.46e-01	0	24	104	0	81	17244
2026-01-06 15:03:07.17	247.00	3.58	-58.2	-71.3	3.8	8.45e-01	0	24	104	0	81	17364
2026-01-06 15:03:10.16	247.33	3.71	-58.2	-71.0	3.8	8.45e-01	0	25	104	0	81	16728
2026-01-06 15:03:13.16	247.67	3.84	-58.2	-71.0	3.8	8.45e-01	0	25	104	0	81	16713
2026-01-06 15:03:16.15	248.01	3.97	-58.2	-71.3	3.8	8.46e-01	0	25	104	0	81	17307
2026-01-06 15:03:19.16	248.35	4.10	-58.2	-70.7	3.8	8.44e-01	0	25	104	0	81	16236
2026-01-06 15:03:22.16	248.69	4.23	-58.2	-70.9	3.8	8.46e-01	0	25	104	0	81	16593
2026-01-06 15:03:25.16	249.04	4.36	-58.2	-70.6	3.8	8.46e-01	0	25	104	0	81	15946
2026-01-06 15:03:28.15	249.39	4.49	-58.2	-70.8	3.8	8.45e-01	0	25	104	0	81	16436
2026-01-06 15:03:31.15	249.74	4.62	-58.1	-69.6	3.8	8.45e-01	0	25	104	0	81	14263
2026-01-06 15:03:34.15	250.10	4.75	-57.5	-64.8	5.4	7.27e-01	0	25	0	0	81	8255
2026-01-06 15:03:37.15	250.46	4.88	-56.1	-60.4	8.9	3.50e-02	0	25	0	14680064	78	5859
2026-01-06 15:03:40.15	250.82	5.01	-52.3	-54.3	13.2	0.00e+00	0	25	0	31457280	71	4347
2026-01-06 15:03:43.14	251.19	5.14	-52.9	-55.0	12.8	0.00e+00	0	25	0	47185920	71	4730
2026-01-06 15:03:46.15	251.56	5.26	-49.7	-51.2	14.4	0.00e+00	0	25	0	63963136	66	4069
2026-01-06 15:03:49.15	251.93	5.39	-49.6	-51.0	14.4	0.00e+00	0	25	0	80740352	65	4229
2026-01-06 15:03:52.16	252.30	5.52	-49.5	-50.9	14.4	0.00e+00	0	25	0	97517568	65	4175
2026-01-06 15:03:55.17	252.68	5.65	-49.2	-50.6	14.6	0.00e+00	0	25	0	114294784	65	4031
2026-01-06 15:03:58.17	253.06	5.77	-49.5	-50.9	14.4	0.00e+00	0	25	0	131072000	65	4161
2026-01-06 15:04:01.17	253.45	5.90	-49.7	-51.2	14.3	0.00e+00	0	25	0	148897792	65	4293
2026-01-06 15:04:04.18	253.84	6.03	-49.6	-51.0	14.4	0.00e+00	0	25	0	165675008	65	4213
2026-01-06 15:04:07.18	254.23	6.15	-49.5	-51.0	14.4	0.00e+00	0	25	0	182452224	65	4209
2026-01-06 15:04:10.17	254.62	6.28	-49.4	-50.8	14.5	0.00e+00	0	25	0	199229440	65	4140
2026-01-06 15:04:13.18	255.02	6.40	-49.4	-50.8	14.5	0.00e+00	0	25	0	216006656	65	4125
2026-01-06 15:04:16.18	255.42	6.53	-49.4	-50.8	14.5	0.00e+00	0	25	0	232783872	65	4133
2026-01-06 15:04:19.17	255.82	6.65	-49.4	-50.8	14.5	0.00e+00	0	25	0	249561088	65	4131
2026-01-06 15:04:22.17	256.23	6.77	-49.5	-50.9	14.3	0.00e+00	0	25	0	266338304	64	4430
2026-01-06 15:04:25.17	256.64	6.89	-49.3	-50.7	14.5	0.00e+00	0	25	0	283115520	64	4304
2026-01-06 15:04:28.19	257.05	7.02	-49.1	-50.5	14.5	0.00e+00	0	25	0	300941312	64	4199
2026-01-06 15:04:31.18	257.47	7.14	-48.9	-50.2	14.7	0.00e+00	0	25	0	317718528	64	4085
2026-01-06 15:04:34.16	257.89	7.25	-48.7	-50.0	14.7	0.00e+00	0	25	0	334495744	63	4203
2026-01-06 15:04:37.16	258.31	7.37	-48.7	-50.0	14.7	0.00e+00	0	25	0	351272960	63	4196
2026-01-06 15:04:40.16	258.74	7.49	-48.9	-50.2	14.6	0.00e+00	0	25	0	368050176	63	4331
2026-01-06 15:04:43.16	259.17	7.61	-48.8	-50.1	14.6	0.00e+00	0	25	0	384827392	63	4258
2026-01-06 15:04:46.15	259.60	7.73	-48.9	-50.2	14.6	0.00e+00	0	25	0	401604608	63	4320
2026-01-06 15:04:49.13	260.03	7.84	-48.8	-50.2	14.6	0.00e+00	0	25	0	418381824	63	4300
2026-01-06 15:04:52.12	260.47	7.96	-48.6	-49.9	14.7	0.00e+00	0	25	0	435159040	63	4184
2026-01-06 15:04:55.12	260.92	8.07	-48.5	-49.8	14.8	0.00e+00	0	25	0	451936256	63	4113
2026-01-06 15:04:58.12	261.36	8.18	-48.6	-49.9	14.7	0.00e+00	0	25	0	468713472	63	4174
2026-01-06 15:05:01.12	261.81	8.29	-48.3	-49.6	14.9	0.00e+00	0	25	0	485490688	63	4022
2026-01-06 15:05:04.13	262.27	8.41	-48.5	-49.8	14.8	0.00e+00	0	25	0	503316480	63	4128
2026-01-06 15:05:07.13	262.72	8.52	-48.5	-49.7	14.8	0.00e+00	0	25	0	520093696	63	4090
2026-01-06 15:05:10.12	263.18	8.62	-48.5	-49.8	14.8	0.00e+00	0	25	0	535822336	63	4119
2026-01-06 15:05:13.11	263.65	8.73	-48.4	-49.6	14.9	0.00e+00	0	25	0	553648128	63	4044
2026-01-06 15:05:16.09	264.11	8.84	-48.5	-49.8	14.8	0.00e+00	0	25	0	570425344	63	4123
2026-01-06 15:05:19.09	264.58	8.94	-48.4	-49.6	14.9	0.00e+00	0	25	0	587202560	63	4046
2026-01-06 15:05:22.09	265.05	9.05	-48.5	-49.8	14.8	0.00e+00	0	26	0	603979776	63	4111
2026-01-06 15:05:25.09	265.53	9.15	-48.6	-49.9	14.8	0.00e+00	0	25	0	620756992	63	4163
2026-01-06 15:05:28.09	266.01	9.25	-48.1	-49.4	14.8	0.00e+00	0	25	0	637534208	62	4150
2026-01-06 15:05:31.09	266.49	9.35	-48.6	-49.9	14.6	0.00e+00	0	25	0	654311424	62	4416
2026-01-06 15:05:34.08	266.98	9.45	-50.3	-51.9	13.9	0.00e+00	0	25	0	671088640	65	4653
2026-01-06 15:05:37.08	267.46	9.55	-50.7	-52.3	13.7	0.00e+00	0	26	0	687865856	66	4636
2026-01-06 15:05:40.07	267.96	9.64	-50.5	-52.2	13.8	0.00e+00	0	25	0	704643072	66	4562
2026-01-06 15:05:43.06	268.45	9.74	-52.2	-54.3	12.8	0.00e+00	0	26	0	721420288	69	4903
2026-01-06 15:05:46.07	268.95	9.83	-51.5	-53.5	13.4	0.00e+00	0	26	0	738197504	69	4442
2026-01-06 15:05:49.07	269.45	9.92	-49.8	-51.3	14.3	0.00e+00	0	25	0	754974720	66	4131
2026-01-06 15:05:52.06	269.95	10.01	-49.4	-50.9	14.4	0.00e+00	0	26	0	772800512	65	4157
2026-01-06 15:05:55.05	270.46	10.10	-49.3	-50.7	14.6	0.00e+00	0	26	0	789577728	65	4056
2026-01-06 15:05:58.05	270.97	10.19	-48.1	-49.3	14.8	0.00e+00	0	26	0	806354944	62	4120
2026-01-06 15:06:01.05	271.48	10.27	-48.1	-49.4	14.8	0.00e+00	0	25	0	823132160	62	4171
2026-01-06 15:06:04.05	272.00	10.36	-48.4	-49.7	14.7	0.00e+00	0	26	0	839909376	62	4301
2026-01-06 15:06:07.04	272.52	10.44	-48.0	-49.2	14.9	0.00e+00	0	25	0	856686592	62	4079
2026-01-06 15:06:10.02	273.03	10.52	-48.1	-49.4	14.9	0.00e+00	0	26	0	873463808	62	4147
2026-01-06 15:06:13.02	273.56	10.59	-48.2	-49.4	14.8	0.00e+00	0	26	0	890241024	62	4181
2026-01-06 15:06:16.01	274.08	10.67	-48.2	-49.5	14.8	0.00e+00	0	26	0	907018240	62	4209
2026-01-06 15:06:19.01	274.61	10.74	-48.1	-49.3	14.9	0.00e+00	0	26	0	923795456	62	4138
2026-01-06 15:06:22.00	275.14	10.82	-48.2	-49.5	14.8	0.00e+00	0	26	0	940572672	62	4214
2026-01-06 15:06:24.99	275.68	10.88	-48.4	-49.7	14.7	0.00e+00	0	26	0	957349888	62	4310
2026-01-06 15:06:28.00	276.22	10.95	-48.2	-49.5	14.8	0.00e+00	0	26	0	974127104	62	4214
2026-01-06 15:06:31.00	276.76	11.02	-48.4	-49.7	14.7	0.00e+00	0	26	0	990904320	62	4301
2026-01-06 15:06:33.99	277.30	11.08	-48.1	-49.4	14.9	0.00e+00	0	26	0	1008730112	62	4156
2026-01-06 15:06:36.98	277.84	11.14	-47.8	-49.1	15.0	0.00e+00	0	26	0	1025507328	62	4006
2026-01-06 15:06:39.98	278.38	11.20	-47.8	-49.0	15.0	0.00e+00	0	26	0	1042284544	62	3997
2026-01-06 15:06:42.97	278.93	11.26	-48.0	-49.2	14.9	0.00e+00	0	26	0	1059061760	62	4092
2026-01-06 15:06:45.98	279.48	11.32	-47.9	-49.1	15.0	0.00e+00	0	26	0	1075838976	62	4030
2026-01-06 15:06:48.97	280.03	11.37	-47.8	-49.0	15.0	0.00e+00	0	26	0	1092616192	62	3989
2026-01-06 15:06:51.97	280.59	11.42	-47.5	-48.7	15.0	0.00e+00	0	25	0	1109393408	61	4065
2026-01-06 15:06:54.97	281.14	11.47	-47.9	-49.1	14.8	0.00e+00	0	26	0	1126170624	61	4261
2026-01-06 15:06:57.97	281.70	11.51	-48.1	-49.3	14.8	0.00e+00	0	26	0	1142947840	61	4370
2026-01-06 15:07:00.96	282.26	11.56	-48.0	-49.2	14.8	0.00e+00	0	26	0	1159725056	61	4319
2026-01-06 15:07:03.95	282.82	11.60	-48.0	-49.3	14.8	0.00e+00	0	26	0	1176502272	61	4353
2026-01-06 15:07:06.94	283.38	11.64	-48.1	-49.3	14.8	0.00e+00	0	26	0	1193279488	61	4384
2026-01-06 15:07:09.93	283.94	11.68	-48.0	-49.3	14.8	0.00e+00	0	26	0	1210056704	61	4341
2026-01-06 15:07:12.91	284.50	11.71	-48.1	-49.4	14.8	0.00e+00	0	26	0	1226833920	61	4408
2026-01-06 15:07:15.90	285.06	11.74	-48.2	-49.4	14.7	0.00e+00	0	26	0	1243611136	61	4437
2026-01-06 15:07:18.88	285.63	11.77	-48.1	-49.3	14.8	0.00e+00	0	26	0	1260388352	61	4387
2026-01-06 15:07:21.86	286.19	11.80	-48.1	-49.4	14.8	0.00e+00	0	26	0	1277165568	61	4410
2026-01-06 15:07:24.85	286.76	11.82	-48.1	-49.3	14.8	0.00e+00	0	26	0	1293942784	61	4382
2026-01-06 15:07:27.83	287.32	11.84	-47.9	-49.1	14.8	0.00e+00	0	26	0	1310720000	61	4274
2026-01-06 15:07:30.83	287.90	11.86	-48.0	-49.2	14.8	0.00e+00	0	26	0	1328545792	61	4296
2026-01-06 15:07:33.85	288.47	11.88	-47.9	-49.2	14.8	0.00e+00	0	26	0	1345323008	61	4296
2026-01-06 15:07:36.84	289.04	11.89	-48.1	-49.3	14.8	0.00e+00	0	26	0	1362100224	61	4376
2026-01-06 15:07:39.85	289.62	11.91	-48.1	-49.4	14.8	0.00e+00	0	25	0	1378877440	61	4393
2026-01-06 15:07:42.85	290.19	11.92	-48.1	-49.3	14.8	0.00e+00	0	26	0	1395654656	61	4369
2026-01-06 15:07:45.85	290.76	11.92	-48.0	-49.2	14.8	0.00e+00	0	26	0	1412431872	61	4330
2026-01-06 15:07:48.85	291.33	11.93	-48.0	-49.2	14.8	0.00e+00	0	26	0	1429209088	61	4305
2026-01-06 15:07:51.85	291.91	11.93	-48.2	-49.5	14.7	0.00e+00	0	26	0	1445986304	61	4463
2026-01-06 15:07:54.85	292.48	11.93	-48.1	-49.3	14.8	0.00e+00	0	26	0	1462763520	61	4361
2026-01-06 15:07:57.85	293.05	11.92	-48.1	-49.3	14.8	0.00e+00	0	26	0	1479540736	61	4377
2026-01-06 15:08:00.84	293.63	11.92	-48.2	-49.5	14.7	0.00e+00	0	26	0	1496317952	61	4470
2026-01-06 15:08:03.84	294.20	11.91	-48.4	-49.7	14.8	0.00e+00	0	26	0	1514143744	62	4317
2026-01-06 15:08:06.84	294.77	11.90	-48.2	-49.5	14.9	0.00e+00	0	26	0	1530920960	62	4195
2026-01-06 15:08:09.84	295.34	11.88	-48.2	-49.4	14.9	0.00e+00	0	26	0	1547698176	62	4183
2026-01-06 15:08:12.82	295.91	11.87	-48.1	-49.3	14.9	0.00e+00	0	26	0	1564475392	62	4126
2026-01-06 15:08:15.83	296.48	11.85	-48.2	-49.4	14.9	0.00e+00	0	26	0	1581252608	62	4193
2026-01-06 15:08:18.82	297.05	11.83	-48.2	-49.4	14.9	0.00e+00	0	26	0	1598029824	62	4169
2026-01-06 15:08:21.78	297.61	11.80	-48.2	-49.5	14.8	0.00e+00	0	26	0	1614807040	62	4202
2026-01-06 15:08:24.76	298.18	11.78	-48.4	-49.7	14.7	0.00e+00	0	26	0	1631584256	62	4321
2026-01-06 15:08:27.76	298.74	11.75	-48.4	-49.6	14.8	0.00e+00	0	26	0	1648361472	62	4286
2026-01-06 15:08:30.76	299.31	11.72	-48.4	-49.7	14.8	0.00e+00	0	25	0	1665138688	62	4293
2026-01-06 15:08:33.75	299.87	11.68	-48.3	-49.5	14.8	0.00e+00	0	26	0	1681915904	62	4233
2026-01-06 15:08:36.75	300.43	11.65	-48.3	-49.5	14.8	0.00e+00	0	26	0	1698693120	62	4220
2026-01-06 15:08:39.75	301.00	11.61	-48.2	-49.4	14.9	0.00e+00	0	26	0	1715470336	62	4185
2026-01-06 15:08:42.77	301.56	11.57	-48.1	-49.3	14.9	0.00e+00	0	25	0	1732247552	62	4133
2026-01-06 15:08:45.76	302.12	11.52	-48.3	-49.5	14.8	0.00e+00	0	26	0	1749024768	62	4227
2026-01-06 15:08:48.75	302.67	11.48	-48.3	-49.6	14.8	0.00e+00	0	26	0	1765801984	62	4262
2026-01-06 15:08:51.76	303.23	11.43	-48.2	-49.5	14.8	0.00e+00	0	26	0	1782579200	62	4210
2026-01-06 15:08:54.76	303.78	11.38	-48.1	-49.3	14.9	0.00e+00	0	26	0	1800404992	62	4121
2026-01-06 15:08:57.76	304.33	11.33	-48.2	-49.5	14.8	0.00e+00	0	26	0	1817182208	62	4201
2026-01-06 15:09:00.77	304.89	11.27	-48.2	-49.4	14.9	0.00e+00	0	26	0	1833959424	62	4172
2026-01-06 15:09:03.77	305.43	11.22	-48.4	-49.6	14.8	0.00e+00	0	26	0	1850736640	62	4279
2026-01-06 15:09:06.77	305.98	11.16	-48.4	-49.7	14.7	0.00e+00	0	26	0	1867513856	62	4298
2026-01-06 15:09:09.78	306.52	11.10	-48.4	-49.6	14.8	0.00e+00	0	26	0	1884291072	62	4289
2026-01-06 15:09:12.76	307.06	11.03	-48.5	-49.8	14.7	0.00e+00	0	26	0	1901068288	62	4347
2026-01-06 15:09:15.75	307.60	10.97	-48.6	-49.8	14.7	0.00e+00	0	26	0	1917845504	62	4387
2026-01-06 15:09:18.72	308.13	10.90	-48.3	-49.5	14.8	0.00e+00	0	26	0	1934622720	62	4241
2026-01-06 15:09:21.72	308.66	10.83	-48.3	-49.6	14.8	0.00e+00	0	25	0	1951399936	62	4259
2026-01-06 15:09:24.71	309.19	10.76	-48.3	-49.5	14.8	0.00e+00	0	26	0	1968177152	62	4218
2026-01-06 15:09:27.71	309.72	10.69	-48.3	-49.6	14.7	0.00e+00	0	26	0	1984954368	62	4267
2026-01-06 15:09:30.70	310.25	10.61	-48.5	-49.8	14.7	0.00e+00	0	26	0	2001731584	62	4367
2026-01-06 15:09:33.69	310.77	10.54	-48.4	-49.6	14.7	0.00e+00	0	26	0	2019557376	62	4284
2026-01-06 15:09:36.70	311.29	10.46	-48.4	-49.7	14.7	0.00e+00	0	26	0	2036334592	62	4339
2026-01-06 15:09:39.68	311.81	10.38	-48.5	-49.8	14.7	0.00e+00	0	26	0	2053111808	62	4378
2026-01-06 15:09:42.68	312.32	10.29	-48.6	-49.9	14.6	0.00e+00	0	26	0	2069889024	62	4421
2026-01-06 15:09:45.68	312.83	10.21	-48.7	-50.0	14.6	0.00e+00	0	26	0	2086666240	62	4465
2026-01-06 15:09:48.67	313.34	10.13	-48.5	-49.8	14.6	0.00e+00	0	26	0	2103443456	62	4380
2026-01-06 15:09:51.67	313.85	10.04	-48.6	-49.9	14.6	0.00e+00	0	25	0	2120220672	62	4411
2026-01-06 15:09:54.65	314.35	9.95	-48.5	-49.8	14.7	0.00e+00	0	26	0	2136997888	62	4352
2026-01-06 15:09:57.65	314.85	9.86	-48.5	-49.8	14.6	0.00e+00	0	26	0	2153775104	62	4363
2026-01-06 15:10:00.65	315.35	9.77	-48.6	-50.0	14.6	0.00e+00	0	25	0	2170552320	62	4446
2026-01-06 15:10:03.64	315.84	9.67	-48.7	-50.0	14.5	0.00e+00	0	26	0	2187329536	62	4483
2026-01-06 15:10:06.64	316.33	9.58	-48.6	-49.9	14.6	0.00e+00	0	26	0	2204106752	62	4417
2026-01-06 15:10:09.62	316.82	9.48	-48.8	-50.1	14.5	0.00e+00	0	26	0	2220883968	62	4529
2026-01-06 15:10:12.63	317.30	9.38	-48.9	-50.3	14.6	0.00e+00	0	26	0	2237661184	63	4342
2026-01-06 15:10:15.62	317.79	9.28	-48.8	-50.1	14.6	0.00e+00	0	26	0	2254438400	63	4264
2026-01-06 15:10:18.61	318.26	9.18	-48.6	-49.9	14.7	0.00e+00	0	26	0	2271215616	63	4150
2026-01-06 15:10:21.58	318.73	9.08	-48.6	-49.9	14.7	0.00e+00	0	26	0	2287992832	63	4191
2026-01-06 15:10:24.58	319.21	8.98	-48.9	-50.2	14.6	0.00e+00	0	26	0	2305818624	63	4309
2026-01-06 15:10:27.58	319.68	8.88	-48.9	-50.3	14.5	0.00e+00	0	26	0	2322595840	63	4350
2026-01-06 15:10:30.57	320.14	8.77	-49.1	-50.4	14.5	0.00e+00	0	26	0	2339373056	63	4432
2026-01-06 15:10:33.57	320.60	8.66	-49.0	-50.4	14.5	0.00e+00	0	26	0	2356150272	63	4415
2026-01-06 15:10:36.57	321.06	8.56	-49.0	-50.3	14.5	0.00e+00	0	26	0	2372927488	63	4385
2026-01-06 15:10:39.56	321.52	8.45	-48.8	-50.2	14.6	0.00e+00	0	26	0	2389704704	63	4306
2026-01-06 15:10:42.55	321.97	8.34	-48.9	-50.2	14.5	0.00e+00	0	26	0	2406481920	63	4335
2026-01-06 15:10:45.56	322.42	8.23	-49.0	-50.4	14.5	0.00e+00	0	26	0	2423259136	63	4397
2026-01-06 15:10:48.54	322.86	8.11	-48.8	-50.1	14.6	0.00e+00	0	26	0	2440036352	63	4258
2026-01-06 15:10:51.54	323.31	8.00	-48.9	-50.2	14.5	0.00e+00	0	26	0	2456813568	63	4314
2026-01-06 15:10:54.53	323.74	7.89	-49.1	-50.5	14.4	0.00e+00	0	26	0	2473590784	63	4444
2026-01-06 15:10:57.54	324.18	7.77	-49.4	-50.9	14.3	0.00e+00	0	26	0	2490368000	64	4410
2026-01-06 15:11:00.52	324.61	7.66	-49.3	-50.7	14.4	0.00e+00	0	26	0	2507145216	64	4301
2026-01-06 15:11:03.52	325.04	7.54	-49.2	-50.6	14.5	0.00e+00	0	26	0	2523922432	64	4279
2026-01-06 15:11:06.52	325.47	7.42	-48.8	-50.5	14.6	0.00e+00	0	26	0	2540699648	64	4220
2026-01-06 15:11:09.53	325.89	7.30	-49.0	-50.5	14.5	0.00e+00	0	26	0	2558525440	64	4201
2026-01-06 15:11:12.52	326.31	7.19	-49.3	-50.8	14.4	0.00e+00	0	26	0	2575302656	64	4355
2026-01-06 15:11:15.50	326.72	7.07	-49.3	-50.8	14.3	0.00e+00	0	26	0	2592079872	64	4349
2026-01-06 15:11:18.49	327.14	6.95	-49.4	-50.8	14.3	0.00e+00	0	26	0	2608857088	64	4367
2026-01-06 15:11:21.48	327.55	6.83	-49.3	-50.7	14.4	0.00e+00	0	26	0	2625634304	64	4319
2026-01-06 15:11:24.47	327.95	6.71	-49.1	-50.5	14.5	0.00e+00	0	26	0	2642411520	64	4196
2026-01-06 15:11:27.45	328.35	6.58	-49.1	-50.5	14.4	0.00e+00	0	26	0	2659188736	64	4223
2026-01-06 15:11:30.43	328.75	6.46	-49.4	-50.8	14.3	0.00e+00	0	26	0	2675965952	64	4353
2026-01-06 15:11:33.43	329.15	6.34	-49.3	-50.8	14.3	0.00e+00	0	26	0	2692743168	64	4347
2026-01-06 15:11:36.42	329.54	6.22	-49.5	-51.0	14.2	0.00e+00	0	26	0	2709520384	64	4461
2026-01-06 15:11:39.42	329.93	6.09	-49.6	-51.1	14.2	0.00e+00	0	26	0	2726297600	64	4523
2026-01-06 15:11:42.41	330.32	5.97	-49.8	-51.4	14.0	0.00e+00	0	26	0	2743074816	64	4655
2026-01-06 15:11:45.41	330.70	5.84	-49.7	-51.2	14.1	0.00e+00	0	26	0	2759852032	64	4575
2026-01-06 15:11:48.42	331.08	5.72	-49.8	-51.2	14.2	0.00e+00	0	26	0	2776629248	65	4337
2026-01-06 15:11:51.42	331.46	5.59	-49.7	-51.2	14.2	0.00e+00	0	26	0	2793406464	65	4295
2026-01-06 15:11:54.42	331.83	5.46	-49.8	-51.3	14.1	0.00e+00	0	26	0	2810183680	65	4361
2026-01-06 15:11:57.41	332.21	5.34	-50.2	-51.7	13.9	0.00e+00	0	26	0	2826960896	65	4592
2026-01-06 15:12:00.40	332.57	5.21	-49.8	-51.3	14.1	0.00e+00	0	26	0	2843738112	65	4364
2026-01-06 15:12:03.40	332.94	5.08	-50.2	-51.8	13.8	0.00e+00	0	26	0	2861563904	65	4648
2026-01-06 15:12:06.40	333.30	4.95	-58.5	-71.0	3.8	7.56e-01	0	26	104	2875195392	82	15762
2026-01-06 15:12:09.40	333.66	4.83	-59.6	-72.6	3.8	8.46e-01	0	26	104	2875195392	84	17045
2026-01-06 15:12:12.40	334.02	4.70	-60.1	-73.2	3.8	8.45e-01	0	26	104	2875195392	85	17110
2026-01-06 15:12:15.41	334.37	4.57	-60.3	-73.3	3.8	8.45e-01	0	26	104	2875195392	85	17462
2026-01-06 15:12:18.40	334.72	4.44	-60.4	-73.4	3.8	8.45e-01	0	26	104	2875195392	85	17675
2026-01-06 15:12:21.39	335.07	4.31	-60.5	-73.6	3.8	8.45e-01	0	26	104	2875195392	86	16906
2026-01-06 15:12:24.38	335.41	4.18	-60.5	-73.6	3.8	8.45e-01	0	26	104	2875195392	86	16960
2026-01-06 15:12:27.38	335.75	4.05	-60.5	-73.6	3.8	8.45e-01	0	26	104	2875195392	86	17023
2026-01-06 15:12:30.37	336.09	3.92	-60.4	-73.5	3.8	8.46e-01	0	26	104	2875195392	86	16788
2026-01-06 15:12:33.36	336.43	3.79	-60.4	-73.5	3.8	8.46e-01	0	26	104	2875195392	86	16780
2026-01-06 15:12:36.36	336.76	3.66	-60.4	-73.4	3.8	8.45e-01	0	26	104	2875195392	86	16690
2026-01-06 15:12:39.37	337.09	3.53	-60.3	-73.5	3.8	8.45e-01	0	26	104	2875195392	86	16757
2026-01-06 15:12:42.37	337.42	3.40	-60.3	-73.4	3.8	8.46e-01	0	26	104	2875195392	86	16616
2026-01-06 15:12:45.37	337.74	3.27	-60.3	-73.4	3.8	8.46e-01	0	26	104	2875195392	86	16594
2026-01-06 15:12:48.37	338.06	3.14	-60.3	-73.4	3.8	8.45e-01	0	26	104	2875195392	86	16592
2026-01-06 15:12:51.37	338.38	3.01	-60.3	-73.4	3.8	8.45e-01	0	26	104	2875195392	86	16526
2026-01-06 15:12:54.37	338.70	2.88	-60.3	-73.4	3.8	8.46e-01	0	26	104	2875195392	86	16551
2026-01-06 15:12:57.36	339.01	2.75	-60.2	-73.4	3.8	8.44e-01	0	26	104	2875195392	86	16535
2026-01-06 15:13:00.35	339.32	2.62	-60.2	-73.3	3.8	8.46e-01	0	26	104	2875195392	86	16484
2026-01-06 15:13:03.35	339.63	2.49	-60.2	-73.3	3.8	8.46e-01	0	26	104	2875195392	86	16471
2026-01-06 15:13:06.36	339.94	2.36	-60.2	-73.3	3.8	8.45e-01	0	26	104	2875195392	86	16471
2026-01-06 15:13:09.36	340.24	2.23	-60.2	-73.3	3.8	8.46e-01	0	26	104	2875195392	86	16451
2026-01-06 15:13:12.35	340.54	2.10	-60.2	-73.3	3.8	8.46e-01	0	26	104	2875195392	86	16450

#Closed at: 2026-01-06 15:13:14
#Recorded file [2875 MB]: D:/lorett/data/31004_260106_180230.dat