passes_logs/2026/01/06/R3.2S_Murmansk/R3.2S_Murmansk__20260106_230121_NOAA_20_JPSS-1_rec.log

#Pass ID: 20260106_230121_NOAA 20 (JPSS-1)
#Satellite: NOAA 20 (JPSS-1)
#Configuration: NOAA 20
#almurnet v.1.7.20251203
#Start time: 2026-01-06 23:01:22

#Version: 2.2.20231116
#Station: R3.2S_Murmansk
#Location: 33.079688 lon 68.888172 lat
#TLE: 1 43013U 17073A   26006.30790171  .00000126  00000+0  80695-4 0  9991
#TLE: 2 43013  98.7629 307.3394 0001808  51.8724 308.2615 14.19533762421505

#Time	Az	El	Level	Level2	SNR	BER	BlckErr	Temp	State	Recorded	gain1	gain2
2026-01-06 23:01:22.72	19.90	2.07	-58.2	-74.1	3.8	1.49e+00	0	25	0	0	82	22756
2026-01-06 23:01:26.73	20.11	2.31	-58.1	-73.9	3.8	1.49e+00	0	25	104	0	81	23530
2026-01-06 23:01:30.73	20.31	2.55	-58.1	-73.5	3.8	1.49e+00	0	25	104	0	81	22345
2026-01-06 23:01:34.72	20.52	2.79	-58.1	-73.0	3.8	1.49e+00	0	25	104	0	81	21079
2026-01-06 23:01:38.72	20.73	3.03	-58.1	-72.9	3.8	1.49e+00	0	25	104	0	81	20959
2026-01-06 23:01:42.71	20.95	3.28	-58.0	-70.8	4.1	1.41e+00	0	26	0	0	81	16402
2026-01-06 23:01:46.72	21.17	3.53	-57.9	-68.8	4.9	7.62e-01	0	26	0	5242880	81	13057
2026-01-06 23:01:50.71	21.39	3.78	-57.8	-67.6	5.4	5.08e-01	0	26	0	12582912	81	11415
2026-01-06 23:01:54.70	21.62	4.03	-57.0	-63.4	8.7	2.86e-02	0	26	0	19922944	80	7429
2026-01-06 23:01:58.69	21.85	4.28	-55.5	-59.5	11.8	1.52e-05	0	26	0	27262976	77	5618
2026-01-06 23:02:02.69	22.08	4.54	-55.5	-59.5	11.7	0.00e+00	0	26	0	35651584	76	5972
2026-01-06 23:02:06.69	22.32	4.79	-56.2	-61.1	10.5	4.79e-04	0	26	0	42991616	77	6788
2026-01-06 23:02:10.69	22.56	5.05	-55.8	-59.8	11.6	4.56e-02	0	26	0	50331648	78	5499
2026-01-06 23:02:14.68	22.81	5.31	-57.8	-67.2	5.9	7.33e-04	0	27	0	57671680	80	11477
2026-01-06 23:02:18.70	23.06	5.58	-55.4	-59.1	12.2	2.20e-06	0	27	0	65011712	77	5366
2026-01-06 23:02:22.70	23.31	5.85	-55.5	-59.1	12.2	1.50e-06	0	26	0	72351744	77	5365
2026-01-06 23:02:26.70	23.57	6.12	-55.2	-58.6	12.5	0.00e+00	0	26	0	79691776	77	5072
2026-01-06 23:02:30.69	23.83	6.39	-55.0	-58.2	12.7	0.00e+00	0	26	0	88080384	76	5140
2026-01-06 23:02:34.68	24.10	6.66	-54.6	-57.6	13.0	0.00e+00	0	27	0	95420416	75	5045
2026-01-06 23:02:38.69	24.37	6.94	-54.7	-57.7	12.9	0.00e+00	0	27	0	102760448	75	5150
2026-01-06 23:02:42.69	24.65	7.21	-54.3	-57.0	13.4	0.00e+00	0	27	0	110100480	75	4741
2026-01-06 23:02:46.69	24.93	7.49	-54.2	-56.9	13.4	0.00e+00	0	27	0	117440512	74	4940
2026-01-06 23:02:50.66	25.21	7.78	-54.1	-56.7	13.5	0.00e+00	0	27	0	124780544	74	4855
2026-01-06 23:02:54.67	25.50	8.06	-54.2	-56.8	13.5	0.00e+00	0	27	0	132120576	74	4899
2026-01-06 23:02:58.67	25.80	8.35	-54.2	-56.8	13.5	0.00e+00	0	27	0	140509184	74	4903
2026-01-06 23:03:02.69	26.11	8.64	-54.1	-56.6	13.6	0.00e+00	0	27	0	147849216	74	4794
2026-01-06 23:03:06.68	26.41	8.94	-53.9	-56.4	13.7	0.00e+00	0	27	0	155189248	74	4664
2026-01-06 23:03:10.69	26.73	9.24	-53.7	-56.1	13.9	0.00e+00	0	27	0	162529280	74	4520
2026-01-06 23:03:14.67	27.05	9.54	-53.5	-55.8	13.9	0.00e+00	0	27	0	169869312	73	4632
2026-01-06 23:03:18.67	27.38	9.84	-53.2	-55.3	14.1	0.00e+00	0	27	0	177209344	72	4621
2026-01-06 23:03:22.65	27.71	10.14	-53.0	-55.1	14.2	0.00e+00	0	27	0	185597952	72	4510
2026-01-06 23:03:26.65	28.05	10.45	-52.9	-54.9	14.3	0.00e+00	0	27	0	192937984	72	4413
2026-01-06 23:03:30.65	28.39	10.76	-52.8	-54.8	14.3	0.00e+00	0	27	0	200278016	72	4369
2026-01-06 23:03:34.64	28.75	11.08	-53.0	-55.0	14.3	0.00e+00	0	27	0	207618048	72	4458
2026-01-06 23:03:38.63	29.11	11.40	-52.8	-54.8	14.3	0.00e+00	0	27	0	214958080	72	4388
2026-01-06 23:03:42.61	29.48	11.72	-52.8	-54.8	14.4	0.00e+00	0	27	0	222298112	72	4347
2026-01-06 23:03:46.61	29.85	12.04	-52.8	-54.8	14.2	0.00e+00	0	27	0	229638144	71	4639
2026-01-06 23:03:50.59	30.23	12.37	-52.7	-54.6	14.3	0.00e+00	0	27	0	236978176	71	4545
2026-01-06 23:03:54.57	30.63	12.70	-52.9	-54.9	14.2	0.00e+00	0	27	0	245366784	71	4671
2026-01-06 23:03:58.56	31.03	13.03	-52.6	-54.6	14.3	0.00e+00	0	27	0	252706816	71	4514
2026-01-06 23:04:02.57	31.44	13.37	-52.6	-54.5	14.4	0.00e+00	0	27	0	260046848	71	4474
2026-01-06 23:04:06.57	31.86	13.71	-52.5	-54.4	14.5	0.00e+00	0	27	0	267386880	71	4408
2026-01-06 23:04:10.57	32.29	14.06	-52.3	-54.2	14.6	0.00e+00	0	27	0	274726912	71	4301
2026-01-06 23:04:14.57	32.72	14.40	-52.6	-54.5	14.4	0.00e+00	0	27	0	282066944	71	4444
2026-01-06 23:04:18.56	33.17	14.75	-52.6	-54.4	14.4	0.00e+00	0	27	0	289406976	71	4435
2026-01-06 23:04:22.56	33.63	15.11	-52.8	-54.8	14.3	0.00e+00	0	27	0	297795584	71	4609
2026-01-06 23:04:26.56	34.10	15.47	-53.1	-55.1	14.1	0.00e+00	0	27	0	305135616	71	4791
2026-01-06 23:04:30.56	34.58	15.83	-53.2	-55.3	14.1	0.00e+00	0	27	0	312475648	71	4892
2026-01-06 23:04:34.55	35.07	16.20	-53.3	-55.4	14.1	0.00e+00	0	27	0	319815680	72	4682
2026-01-06 23:04:38.55	35.57	16.57	-53.2	-55.2	14.2	0.00e+00	0	27	0	327155712	72	4571
2026-01-06 23:04:42.55	36.09	16.94	-53.1	-55.2	14.2	0.00e+00	0	27	0	334495744	72	4553
2026-01-06 23:04:46.54	36.61	17.32	-53.4	-55.5	14.1	0.00e+00	0	27	0	342884352	72	4714
2026-01-06 23:04:50.52	37.15	17.70	-53.5	-55.6	14.0	0.00e+00	0	27	0	350224384	72	4792
2026-01-06 23:04:54.50	37.70	18.08	-53.3	-55.4	14.1	0.00e+00	0	27	0	357564416	72	4696
2026-01-06 23:04:58.49	38.27	18.47	-53.5	-55.6	14.0	0.00e+00	0	27	0	364904448	72	4814
2026-01-06 23:05:02.49	38.85	18.86	-53.5	-55.6	14.1	0.00e+00	0	27	0	372244480	72	4769
2026-01-06 23:05:06.51	39.45	19.25	-53.1	-55.1	14.3	0.00e+00	0	27	0	379584512	72	4534
2026-01-06 23:05:10.52	40.06	19.65	-53.0	-54.9	14.4	0.00e+00	0	27	0	386924544	72	4421
2026-01-06 23:05:14.52	40.69	20.05	-53.1	-55.1	14.3	0.00e+00	0	27	0	395313152	72	4532
2026-01-06 23:05:18.51	41.33	20.46	-53.0	-55.0	14.3	0.00e+00	0	27	0	402653184	72	4466
2026-01-06 23:05:22.51	41.99	20.86	-52.8	-54.6	14.5	0.00e+00	0	27	0	409993216	72	4291
2026-01-06 23:05:26.50	42.67	21.27	-52.4	-54.2	14.6	0.00e+00	0	27	0	417333248	71	4308
2026-01-06 23:05:30.51	43.37	21.69	-52.3	-54.1	14.6	0.00e+00	0	27	0	424673280	71	4252
2026-01-06 23:05:34.50	44.08	22.10	-52.0	-53.6	14.7	0.00e+00	0	27	0	432013312	70	4289
2026-01-06 23:05:38.50	44.81	22.52	-51.8	-53.4	14.8	0.00e+00	0	27	0	439353344	70	4170
2026-01-06 23:05:42.50	45.56	22.94	-51.6	-53.2	14.8	0.00e+00	0	27	0	447741952	69	4336
2026-01-06 23:05:46.48	46.33	23.36	-51.1	-52.6	14.9	0.00e+00	0	27	0	455081984	68	4290
2026-01-06 23:05:50.47	47.12	23.78	-51.0	-52.5	14.9	0.00e+00	0	27	0	462422016	68	4232
2026-01-06 23:05:54.46	47.93	24.20	-50.9	-52.4	15.0	0.00e+00	0	27	0	469762048	68	4161
2026-01-06 23:05:58.46	48.77	24.63	-51.2	-52.7	14.8	0.00e+00	0	27	0	477102080	68	4340
2026-01-06 23:06:02.47	49.63	25.05	-51.6	-53.1	14.7	0.00e+00	0	27	0	484442112	68	4545
2026-01-06 23:06:06.47	50.51	25.48	-51.5	-53.1	14.7	0.00e+00	0	27	0	492830720	68	4519
2026-01-06 23:06:10.47	51.41	25.91	-52.0	-53.7	14.6	0.00e+00	0	27	0	500170752	69	4556
2026-01-06 23:06:14.48	52.34	26.33	-52.5	-54.3	14.5	0.00e+00	0	27	0	507510784	70	4603
2026-01-06 23:06:18.48	53.29	26.76	-52.8	-54.7	14.3	0.00e+00	0	27	0	514850816	70	4861
2026-01-06 23:06:22.49	54.27	27.18	-53.4	-55.5	14.1	0.00e+00	0	27	0	522190848	71	5004
2026-01-06 23:06:26.48	55.27	27.60	-53.8	-56.0	13.9	0.00e+00	0	27	0	529530880	72	4998
2026-01-06 23:06:30.50	56.31	28.02	-53.8	-55.9	13.9	0.00e+00	0	27	0	536870912	72	4971
2026-01-06 23:06:34.50	57.36	28.43	-54.0	-56.2	13.9	0.00e+00	0	27	0	545259520	73	4828
2026-01-06 23:06:38.50	58.45	28.84	-54.7	-57.2	13.5	0.00e+00	0	27	0	552599552	74	5101
2026-01-06 23:06:42.48	59.55	29.24	-55.7	-58.8	12.8	0.00e+00	0	27	0	559939584	76	5473
2026-01-06 23:06:46.46	60.68	29.63	-55.3	-58.0	13.3	0.00e+00	0	27	0	567279616	76	4993
2026-01-06 23:06:50.46	61.85	30.02	-56.5	-60.1	12.2	0.00e+00	0	27	0	574619648	78	5673
2026-01-06 23:06:54.45	63.04	30.40	-55.9	-59.0	12.9	0.00e+00	0	27	0	581959680	78	5001
2026-01-06 23:06:58.44	64.26	30.78	-56.0	-59.1	12.8	0.00e+00	0	27	0	589299712	78	5097
2026-01-06 23:07:02.43	65.50	31.14	-55.5	-58.4	13.1	0.00e+00	0	27	0	597688320	77	4950
2026-01-06 23:07:06.42	66.77	31.49	-54.5	-56.9	13.8	0.00e+00	0	27	0	605028352	75	4705
2026-01-06 23:07:10.42	68.08	31.83	-54.3	-56.6	13.9	0.00e+00	0	27	0	612368384	75	4533
2026-01-06 23:07:14.42	69.41	32.16	-54.2	-56.4	13.9	0.00e+00	0	27	0	619708416	74	4672
2026-01-06 23:07:18.41	70.76	32.48	-54.0	-56.2	14.0	0.00e+00	0	27	0	627048448	74	4594
2026-01-06 23:07:22.41	72.14	32.78	-53.7	-55.8	14.3	0.00e+00	0	27	0	634388480	74	4354
2026-01-06 23:07:26.42	73.55	33.07	-54.1	-56.4	13.8	0.00e+00	0	27	0	641728512	73	4938
2026-01-06 23:07:30.41	74.98	33.34	-54.3	-56.7	13.7	0.00e+00	0	27	0	650117120	73	5109
2026-01-06 23:07:34.41	76.43	33.59	-55.3	-58.1	13.1	0.00e+00	0	27	0	657457152	75	5385
2026-01-06 23:07:38.41	77.91	33.82	-55.9	-59.0	12.8	0.00e+00	0	28	0	664797184	77	5286
2026-01-06 23:07:42.42	79.41	34.04	-55.0	-57.6	13.6	0.00e+00	0	27	0	672137216	76	4776
2026-01-06 23:07:46.41	80.92	34.23	-55.5	-58.3	13.1	0.00e+00	0	27	0	679477248	76	5193
2026-01-06 23:07:50.41	82.45	34.41	-54.1	-56.3	14.0	0.00e+00	0	27	0	686817280	74	4651
2026-01-06 23:07:54.42	84.00	34.56	-54.9	-57.5	13.5	0.00e+00	0	28	0	694157312	75	5010
2026-01-06 23:07:58.42	85.56	34.69	-54.7	-57.1	13.7	0.00e+00	0	28	0	702545920	75	4814
2026-01-06 23:08:02.40	87.12	34.79	-54.8	-57.4	13.5	0.00e+00	0	27	0	709885952	75	4936
2026-01-06 23:08:06.41	88.71	34.88	-55.0	-57.7	13.4	0.00e+00	0	27	0	717225984	75	5112
2026-01-06 23:08:10.40	90.29	34.93	-55.6	-58.4	13.1	0.00e+00	0	28	0	724566016	76	5261
2026-01-06 23:08:14.40	91.88	34.97	-54.9	-57.4	13.7	0.00e+00	0	28	0	731906048	76	4655
2026-01-06 23:08:18.41	93.48	34.98	-54.4	-56.7	13.9	0.00e+00	0	27	0	739246080	75	4583
2026-01-06 23:08:22.41	95.07	34.97	-53.6	-55.6	14.3	0.00e+00	0	28	0	747634688	73	4496
2026-01-06 23:08:26.40	96.66	34.93	-54.9	-57.5	13.5	0.00e+00	0	28	0	754974720	75	5005
2026-01-06 23:08:30.41	98.25	34.87	-54.9	-57.4	13.7	0.00e+00	0	28	0	762314752	76	4678
2026-01-06 23:08:34.41	99.83	34.78	-54.9	-57.4	13.6	0.00e+00	0	28	0	769654784	75	4963
2026-01-06 23:08:38.40	101.40	34.67	-56.1	-59.2	12.7	0.00e+00	0	28	0	776994816	77	5443
2026-01-06 23:08:42.41	102.96	34.54	-57.1	-61.1	11.6	1.67e-05	0	28	0	784334848	79	6043
2026-01-06 23:08:46.40	104.50	34.39	-55.4	-58.1	13.3	0.00e+00	0	28	0	791674880	77	4797
2026-01-06 23:08:50.40	106.04	34.21	-54.9	-57.4	13.7	0.00e+00	0	28	0	800063488	76	4672
2026-01-06 23:08:54.39	107.55	34.01	-55.0	-57.6	13.4	0.00e+00	0	28	0	807403520	75	5078
2026-01-06 23:08:58.37	109.03	33.80	-54.6	-56.9	13.8	0.00e+00	0	28	0	814743552	75	4703
2026-01-06 23:09:02.36	110.51	33.56	-55.3	-57.9	13.4	0.00e+00	0	28	0	822083584	76	4977
2026-01-06 23:09:06.36	111.96	33.30	-54.1	-56.3	14.0	0.00e+00	0	28	0	829423616	74	4600
2026-01-06 23:09:10.35	113.39	33.03	-54.1	-56.2	14.0	0.00e+00	0	28	0	836763648	74	4581
2026-01-06 23:09:14.33	114.79	32.75	-54.5	-56.9	13.7	0.00e+00	0	28	0	844103680	74	4954
2026-01-06 23:09:18.33	116.17	32.44	-54.1	-56.4	14.0	0.00e+00	0	28	0	852492288	74	4656
2026-01-06 23:09:22.33	117.52	32.12	-54.3	-56.7	13.8	0.00e+00	0	28	0	859832320	74	4831
2026-01-06 23:09:26.34	118.86	31.79	-54.8	-57.4	13.5	0.00e+00	0	28	0	867172352	75	4944
2026-01-06 23:09:30.36	120.16	31.44	-55.1	-57.7	13.4	0.00e+00	0	28	0	874512384	75	5152
2026-01-06 23:09:34.36	121.44	31.09	-55.1	-57.7	13.5	0.00e+00	0	28	0	881852416	76	4822
2026-01-06 23:09:38.36	122.69	30.72	-54.7	-57.2	13.6	0.00e+00	0	28	0	889192448	74	5111
2026-01-06 23:09:42.36	123.91	30.34	-54.0	-56.2	14.0	0.00e+00	0	28	0	896532480	74	4566
2026-01-06 23:09:46.36	125.10	29.96	-55.1	-57.9	13.3	0.00e+00	0	28	0	904921088	75	5229
2026-01-06 23:09:50.36	126.26	29.56	-54.2	-56.4	13.9	0.00e+00	0	28	0	912261120	74	4703
2026-01-06 23:09:54.36	127.40	29.16	-54.7	-57.1	13.8	0.00e+00	0	28	0	919601152	76	4541
2026-01-06 23:09:58.36	128.51	28.76	-54.0	-56.2	13.9	0.00e+00	0	28	0	926941184	73	4844
2026-01-06 23:10:02.35	129.59	28.35	-53.6	-55.7	14.3	0.00e+00	0	27	0	934281216	73	4565
2026-01-06 23:10:06.35	130.64	27.93	-55.3	-58.1	13.1	0.00e+00	0	28	0	941621248	75	5365
2026-01-06 23:10:10.36	131.67	27.51	-54.1	-56.3	14.0	0.00e+00	0	28	0	950009856	74	4613
2026-01-06 23:10:14.35	132.67	27.09	-55.0	-57.7	13.3	0.00e+00	0	28	0	957349888	75	5140
2026-01-06 23:10:18.34	133.65	26.67	-53.0	-54.8	14.4	0.00e+00	0	28	0	964689920	72	4377
2026-01-06 23:10:22.33	134.59	26.25	-54.0	-56.3	13.9	0.00e+00	0	28	0	972029952	73	4886
2026-01-06 23:10:26.33	135.52	25.82	-52.7	-54.5	14.6	0.00e+00	0	28	0	979369984	72	4229
2026-01-06 23:10:30.33	136.42	25.39	-53.6	-55.7	14.1	0.00e+00	0	28	0	986710016	72	4824
2026-01-06 23:10:34.33	137.30	24.96	-52.1	-53.8	14.6	0.00e+00	0	28	0	994050048	70	4382
2026-01-06 23:10:38.34	138.16	24.53	-52.4	-54.1	14.5	0.00e+00	0	28	0	1002438656	70	4538
2026-01-06 23:10:42.35	139.00	24.10	-51.7	-53.3	14.7	0.00e+00	0	28	0	1009778688	69	4355
2026-01-06 23:10:46.36	139.81	23.68	-51.8	-53.5	14.6	0.00e+00	0	28	0	1017118720	69	4472
2026-01-06 23:10:50.35	140.60	23.25	-51.5	-53.1	14.8	0.00e+00	0	28	0	1024458752	69	4273
2026-01-06 23:10:54.34	141.37	22.83	-50.9	-52.4	14.9	0.00e+00	0	28	0	1031798784	68	4168
2026-01-06 23:10:58.33	142.12	22.41	-51.4	-53.0	14.7	0.00e+00	0	28	0	1039138816	68	4444
2026-01-06 23:11:02.32	142.85	21.99	-51.3	-52.8	14.8	0.00e+00	0	28	0	1047527424	68	4391
2026-01-06 23:11:06.31	143.56	21.58	-51.3	-52.9	14.8	0.00e+00	0	28	0	1054867456	68	4396
2026-01-06 23:11:10.30	144.25	21.16	-51.8	-53.5	14.5	0.00e+00	0	28	0	1062207488	68	4717
2026-01-06 23:11:14.30	144.92	20.75	-51.5	-53.1	14.6	0.00e+00	0	28	0	1069547520	68	4517
2026-01-06 23:11:18.28	145.58	20.34	-51.5	-53.1	14.6	0.00e+00	0	28	0	1076887552	68	4528
2026-01-06 23:11:22.29	146.22	19.94	-51.6	-53.3	14.6	0.00e+00	0	28	0	1084227584	68	4636
2026-01-06 23:11:26.27	146.85	19.53	-51.8	-53.5	14.5	0.00e+00	0	28	0	1091567616	68	4712
2026-01-06 23:11:30.29	147.46	19.13	-52.0	-53.8	14.5	0.00e+00	0	27	0	1099956224	69	4607
2026-01-06 23:11:34.29	148.05	18.74	-51.8	-53.5	14.6	0.00e+00	0	28	0	1107296256	69	4454
2026-01-06 23:11:38.29	148.64	18.34	-52.5	-54.4	14.4	0.00e+00	0	28	0	1114636288	70	4664
2026-01-06 23:11:42.29	149.20	17.95	-53.1	-55.2	14.1	0.00e+00	0	28	0	1121976320	71	4834
2026-01-06 23:11:46.29	149.75	17.57	-52.7	-54.6	14.4	0.00e+00	0	28	0	1129316352	71	4517
2026-01-06 23:11:50.30	150.29	17.19	-52.9	-54.9	14.2	0.00e+00	0	28	0	1136656384	71	4660
2026-01-06 23:11:54.27	150.82	16.81	-53.8	-56.1	13.8	0.00e+00	0	28	0	1143996416	72	5060
2026-01-06 23:11:58.24	151.33	16.44	-53.6	-55.8	13.9	0.00e+00	0	28	0	1151336448	72	4891
2026-01-06 23:12:02.24	151.83	16.07	-53.0	-55.0	14.3	0.00e+00	0	28	0	1159725056	72	4471
2026-01-06 23:12:06.24	152.32	15.70	-53.1	-55.2	14.2	0.00e+00	0	28	0	1167065088	72	4555
2026-01-06 23:12:10.21	152.79	15.34	-53.3	-55.4	14.1	0.00e+00	0	28	0	1174405120	72	4682
2026-01-06 23:12:14.21	153.26	14.98	-52.7	-54.7	14.4	0.00e+00	0	28	0	1181745152	72	4293
2026-01-06 23:12:18.20	153.71	14.62	-52.5	-54.3	14.5	0.00e+00	0	28	0	1189085184	71	4378
2026-01-06 23:12:22.21	154.16	14.27	-52.6	-54.6	14.4	0.00e+00	0	28	0	1196425216	71	4501
2026-01-06 23:12:26.20	154.60	13.92	-53.0	-55.1	14.1	0.00e+00	0	28	0	1203765248	71	4781
2026-01-06 23:12:30.21	155.02	13.57	-53.3	-55.5	13.9	0.00e+00	0	28	0	1212153856	71	5022
2026-01-06 23:12:34.21	155.44	13.23	-52.9	-54.9	14.2	0.00e+00	0	28	0	1219493888	71	4695
2026-01-06 23:12:38.22	155.85	12.89	-52.6	-54.5	14.4	0.00e+00	0	28	0	1226833920	71	4488
2026-01-06 23:12:42.23	156.25	12.55	-52.8	-54.8	14.2	0.00e+00	0	28	0	1234173952	71	4640
2026-01-06 23:12:46.22	156.64	12.22	-53.1	-55.2	14.0	0.00e+00	0	28	0	1241513984	71	4831
2026-01-06 23:12:50.22	157.02	11.89	-53.2	-55.3	14.0	0.00e+00	0	28	0	1248854016	71	4904
2026-01-06 23:12:54.21	157.40	11.56	-53.2	-55.3	14.0	0.00e+00	0	28	0	1257242624	71	4917
2026-01-06 23:12:58.22	157.76	11.24	-53.2	-55.3	13.9	0.00e+00	0	28	0	1264582656	71	4907
2026-01-06 23:13:02.22	158.12	10.92	-53.1	-55.2	14.0	0.00e+00	0	28	0	1271922688	71	4850
2026-01-06 23:13:06.21	158.47	10.61	-53.2	-55.4	13.9	0.00e+00	0	28	0	1279262720	71	4952
2026-01-06 23:13:10.20	158.82	10.29	-53.4	-55.6	13.8	0.00e+00	0	28	0	1286602752	71	5044
2026-01-06 23:13:14.21	159.15	9.98	-53.5	-55.8	13.8	0.00e+00	0	28	0	1293942784	72	4912
2026-01-06 23:13:18.21	159.49	9.68	-53.6	-56.0	13.7	0.00e+00	0	28	0	1301282816	72	5006
2026-01-06 23:13:22.22	159.81	9.37	-53.8	-56.3	13.5	0.00e+00	0	28	0	1309671424	72	5176
2026-01-06 23:13:26.21	160.13	9.07	-54.0	-56.5	13.5	0.00e+00	0	28	0	1317011456	73	5008
2026-01-06 23:13:30.21	160.44	8.77	-54.0	-56.6	13.5	0.00e+00	0	28	0	1324351488	73	5060
2026-01-06 23:13:34.22	160.75	8.48	-54.2	-56.9	13.3	0.00e+00	0	28	0	1331691520	73	5220
2026-01-06 23:13:38.21	161.05	8.19	-54.3	-57.1	13.2	0.00e+00	0	28	0	1339031552	73	5347
2026-01-06 23:13:42.21	161.34	7.90	-54.4	-57.2	13.2	0.00e+00	0	27	0	1346371584	74	5148
2026-01-06 23:13:46.22	161.63	7.61	-54.6	-57.5	12.9	0.00e+00	0	28	0	1354760192	74	5334
2026-01-06 23:13:50.23	161.92	7.32	-54.7	-57.8	12.8	0.00e+00	0	28	0	1362100224	74	5469
2026-01-06 23:13:54.23	162.19	7.04	-54.7	-57.7	12.8	0.00e+00	0	28	0	1369440256	74	5458
2026-01-06 23:13:58.23	162.47	6.76	-54.7	-57.8	12.8	0.00e+00	0	28	0	1376780288	74	5491
2026-01-06 23:14:02.22	162.74	6.48	-54.8	-57.9	12.7	0.00e+00	0	28	0	1384120320	74	5556
2026-01-06 23:14:06.23	163.00	6.21	-54.7	-57.8	12.7	0.00e+00	0	27	0	1391460352	74	5493
2026-01-06 23:14:10.24	163.26	5.94	-54.8	-58.0	12.6	0.00e+00	0	28	0	1398800384	74	5620
2026-01-06 23:14:14.24	163.51	5.67	-54.9	-58.1	12.6	0.00e+00	0	28	0	1407188992	75	5402
2026-01-06 23:14:18.23	163.76	5.40	-55.0	-58.4	12.4	0.00e+00	0	28	0	1414529024	75	5530
2026-01-06 23:14:22.23	164.01	5.14	-55.3	-59.1	11.9	7.00e-07	0	27	0	1421869056	75	6015
2026-01-06 23:14:26.23	164.25	4.87	-59.0	-75.1	3.8	1.49e+00	0	28	104	1427111936	83	23978
2026-01-06 23:14:30.22	164.49	4.61	-59.9	-76.0	3.8	1.49e+00	0	28	104	1427111936	84	24986
2026-01-06 23:14:34.21	164.72	4.35	-60.2	-76.3	3.8	1.49e+00	0	28	104	1427111936	85	24531
2026-01-06 23:14:38.21	164.95	4.10	-60.4	-76.5	3.8	1.49e+00	0	28	104	1427111936	86	23838
2026-01-06 23:14:42.19	165.18	3.85	-60.5	-76.6	3.8	1.49e+00	0	28	104	1427111936	86	24024
2026-01-06 23:14:46.20	165.40	3.59	-60.5	-76.7	3.8	1.49e+00	0	28	104	1427111936	86	24147
2026-01-06 23:14:50.20	165.62	3.34	-60.5	-76.6	3.8	1.49e+00	0	28	104	1427111936	86	23923
2026-01-06 23:14:54.20	165.84	3.09	-60.5	-76.6	3.8	1.49e+00	0	28	104	1427111936	86	23901
2026-01-06 23:14:58.20	166.05	2.85	-60.4	-76.5	3.8	1.49e+00	0	28	104	1427111936	86	23805
2026-01-06 23:15:02.19	166.26	2.60	-60.4	-76.5	3.8	1.49e+00	0	28	104	1427111936	86	23772
2026-01-06 23:15:06.17	166.47	2.36	-60.4	-76.5	3.8	1.49e+00	0	28	104	1427111936	86	23693
2026-01-06 23:15:10.17	166.67	2.12	-60.4	-76.5	3.8	1.49e+00	0	28	104	1427111936	86	23755

#Closed at: 2026-01-06 23:15:12
#Recorded file [1427 MB]: D:/lorett/data/31004_260107_020122.dat