passes_logs/2026/01/06/R3.2S_Murmansk/R3.2S_Murmansk__20260106_032053_FENGYUN_3D_rec.log

#Pass ID: 20260106_032053_FENGYUN 3D
#Satellite: FENGYUN 3D
#Configuration: FENGYUN 3D
#almurnet v.1.7.20251203
#Start time: 2026-01-06 03:20:55

#Version: 2.2.20231116
#Station: R3.2S_Murmansk
#Location: 33.079688 lon 68.888172 lat
#TLE: 1 43010U 17072A   26005.48915933 -.00000051  00000+0 -21983-5 0  9995
#TLE: 2 43010  98.9919 337.1582 0002001 124.6377 235.4988 14.19691925421909

#Time	Az	El	Level	Level2	SNR	BER	BlckErr	Temp	State	Recorded	gain1	gain2
2026-01-06 03:20:55.32	27.61	2.15	-57.8	-70.8	3.8	8.45e-01	0	27	0	0	82	15568
2026-01-06 03:20:59.28	27.56	2.40	-57.7	-70.7	3.8	8.45e-01	0	26	104	0	80	17275
2026-01-06 03:21:03.23	27.52	2.66	-57.7	-70.7	3.8	8.46e-01	0	26	104	0	80	17255
2026-01-06 03:21:07.22	27.47	2.92	-57.7	-70.5	3.8	8.45e-01	0	26	104	0	80	16769
2026-01-06 03:21:11.22	27.42	3.18	-57.6	-68.9	3.8	8.45e-01	0	26	104	0	80	13968
2026-01-06 03:21:15.21	27.37	3.45	-57.5	-68.6	3.8	8.45e-01	0	27	104	0	80	13433
2026-01-06 03:21:19.20	27.32	3.72	-57.7	-70.1	3.8	8.45e-01	0	26	104	0	80	15999
2026-01-06 03:21:23.20	27.27	3.99	-57.5	-67.8	3.9	8.44e-01	0	26	104	0	80	12245
2026-01-06 03:21:27.20	27.22	4.26	-56.5	-62.4	6.7	2.19e-01	0	26	0	6291456	79	7011
2026-01-06 03:21:31.19	27.16	4.54	-55.7	-60.2	8.6	2.62e-02	0	26	0	28311552	78	5747
2026-01-06 03:21:35.18	27.11	4.82	-55.3	-59.3	9.3	6.81e-03	0	26	0	51380224	77	5474
2026-01-06 03:21:39.17	27.05	5.10	-57.5	-65.1	5.1	7.68e-01	0	27	0	71303168	80	9052
2026-01-06 03:21:43.17	26.99	5.39	-56.5	-62.6	6.4	5.08e-02	0	26	0	93323264	78	7605
2026-01-06 03:21:47.18	26.93	5.68	-50.9	-52.5	13.9	0.00e+00	0	26	0	115343360	68	4219
2026-01-06 03:21:51.17	26.87	5.97	-50.2	-51.7	14.2	0.00e+00	0	27	0	137363456	67	4076
2026-01-06 03:21:55.16	26.80	6.26	-49.7	-51.2	14.3	0.00e+00	0	27	0	160432128	66	4067
2026-01-06 03:21:59.16	26.74	6.56	-49.7	-51.2	14.2	0.00e+00	0	26	0	182452224	65	4299
2026-01-06 03:22:03.16	26.67	6.86	-49.9	-51.3	14.2	0.00e+00	0	27	0	205520896	65	4380
2026-01-06 03:22:07.16	26.60	7.17	-49.6	-51.0	14.3	0.00e+00	0	26	0	227540992	65	4227
2026-01-06 03:22:11.15	26.53	7.48	-49.4	-50.8	14.5	0.00e+00	0	26	0	250609664	65	4127
2026-01-06 03:22:15.14	26.46	7.79	-49.5	-50.9	14.4	0.00e+00	0	26	0	272629760	65	4167
2026-01-06 03:22:19.14	26.39	8.11	-49.4	-50.8	14.5	0.00e+00	0	26	0	295698432	65	4135
2026-01-06 03:22:23.13	26.31	8.43	-49.4	-50.7	14.5	0.00e+00	0	26	0	317718528	65	4092
2026-01-06 03:22:27.12	26.23	8.75	-49.1	-50.5	14.5	0.00e+00	0	26	0	339738624	64	4204
2026-01-06 03:22:31.15	26.15	9.09	-49.0	-50.4	14.6	0.00e+00	0	26	0	362807296	64	4170
2026-01-06 03:22:35.15	26.07	9.42	-49.0	-50.3	14.6	0.00e+00	0	26	0	385875968	64	4144
2026-01-06 03:22:39.13	25.98	9.76	-48.8	-50.1	14.7	0.00e+00	0	26	0	407896064	64	4039
2026-01-06 03:22:43.13	25.90	10.10	-48.7	-50.0	14.6	0.00e+00	0	26	0	429916160	63	4224
2026-01-06 03:22:47.13	25.81	10.45	-48.5	-49.8	14.7	0.00e+00	0	26	0	452984832	63	4105
2026-01-06 03:22:51.14	25.71	10.80	-48.5	-49.7	14.8	0.00e+00	0	26	0	475004928	63	4081
2026-01-06 03:22:55.14	25.62	11.16	-48.4	-49.6	14.8	0.00e+00	0	26	0	498073600	63	4039
2026-01-06 03:22:59.15	25.52	11.52	-48.3	-49.6	14.8	0.00e+00	0	26	0	520093696	63	4024
2026-01-06 03:23:03.16	25.42	11.89	-48.1	-49.3	14.8	0.00e+00	0	26	0	543162368	62	4135
2026-01-06 03:23:07.16	25.31	12.26	-48.1	-49.3	14.8	0.00e+00	0	26	0	565182464	62	4114
2026-01-06 03:23:11.17	25.21	12.64	-48.1	-49.3	14.8	0.00e+00	0	26	0	588251136	62	4129
2026-01-06 03:23:15.17	25.09	13.03	-47.9	-49.1	14.9	0.00e+00	0	26	0	610271232	62	4013
2026-01-06 03:23:19.15	24.98	13.42	-47.6	-48.8	14.9	0.00e+00	0	26	0	633339904	61	4130
2026-01-06 03:23:23.15	24.86	13.81	-47.7	-48.9	14.9	0.00e+00	0	26	0	655360000	61	4158
2026-01-06 03:23:27.15	24.74	14.22	-47.5	-48.7	15.0	0.00e+00	0	26	0	677380096	61	4058
2026-01-06 03:23:31.17	24.62	14.63	-47.5	-48.6	15.0	0.00e+00	0	26	0	700448768	61	4047
2026-01-06 03:23:35.18	24.49	15.05	-47.2	-48.3	15.1	0.00e+00	0	26	0	723517440	61	3909
2026-01-06 03:23:39.16	24.36	15.47	-47.0	-48.2	15.0	0.00e+00	0	26	0	745537536	60	4068
2026-01-06 03:23:43.16	24.22	15.90	-46.9	-48.0	15.1	0.00e+00	0	26	0	767557632	60	3983
2026-01-06 03:23:47.16	24.08	16.34	-46.8	-47.9	15.1	0.00e+00	0	26	0	790626304	60	3945
2026-01-06 03:23:51.16	23.93	16.79	-47.1	-48.2	14.9	0.00e+00	0	26	0	812646400	59	4325
2026-01-06 03:23:55.16	23.78	17.25	-46.9	-48.0	15.0	0.00e+00	0	26	0	835715072	59	4221
2026-01-06 03:23:59.17	23.62	17.71	-46.8	-47.9	15.0	0.00e+00	0	26	0	857735168	59	4189
2026-01-06 03:24:03.16	23.46	18.18	-46.8	-48.0	15.0	0.00e+00	0	26	0	880803840	59	4201
2026-01-06 03:24:07.18	23.29	18.67	-46.8	-47.9	15.0	0.00e+00	0	26	0	902823936	59	4172
2026-01-06 03:24:11.16	23.12	19.16	-46.7	-47.8	15.1	0.00e+00	0	26	0	924844032	59	4133
2026-01-06 03:24:15.17	22.94	19.66	-46.7	-47.9	15.1	0.00e+00	0	26	0	947912704	59	4150
2026-01-06 03:24:19.16	22.75	20.17	-46.7	-47.8	15.1	0.00e+00	0	26	0	969932800	59	4114
2026-01-06 03:24:23.16	22.56	20.69	-46.7	-47.8	15.1	0.00e+00	0	26	0	993001472	59	4137
2026-01-06 03:24:27.15	22.36	21.22	-46.7	-47.9	15.1	0.00e+00	0	26	0	1015021568	59	4148
2026-01-06 03:24:31.13	22.15	21.76	-46.5	-47.6	15.1	0.00e+00	0	26	0	1038090240	59	4017
2026-01-06 03:24:35.13	21.93	22.31	-46.1	-47.2	15.2	0.00e+00	0	26	0	1060110336	58	4056
2026-01-06 03:24:39.13	21.71	22.88	-45.7	-46.8	15.3	0.00e+00	0	26	0	1083179008	58	3880
2026-01-06 03:24:43.11	21.47	23.45	-45.5	-46.6	15.2	0.00e+00	0	26	0	1105199104	57	4020
2026-01-06 03:24:47.10	21.23	24.04	-45.6	-46.6	15.2	0.00e+00	0	26	0	1127219200	57	4048
2026-01-06 03:24:51.07	20.98	24.64	-45.8	-46.9	15.2	0.00e+00	0	26	0	1150287872	57	4148
2026-01-06 03:24:55.05	20.72	25.25	-45.8	-46.9	15.1	0.00e+00	0	26	0	1172307968	57	4185
2026-01-06 03:24:59.04	20.44	25.88	-45.6	-46.7	15.2	0.00e+00	0	26	0	1194328064	57	4080
2026-01-06 03:25:03.03	20.16	26.52	-45.5	-46.6	15.3	0.00e+00	0	26	0	1217396736	57	4008
2026-01-06 03:25:07.02	19.86	27.18	-45.7	-46.8	15.2	0.00e+00	0	26	0	1239416832	57	4102
2026-01-06 03:25:10.99	19.55	27.85	-45.8	-46.9	15.1	0.00e+00	0	26	0	1262485504	57	4178
2026-01-06 03:25:14.98	19.22	28.54	-45.6	-46.7	15.2	0.00e+00	0	26	0	1284505600	57	4056
2026-01-06 03:25:18.98	18.88	29.25	-45.5	-46.5	15.3	0.00e+00	0	26	0	1306525696	57	4004
2026-01-06 03:25:22.97	18.52	29.97	-45.3	-46.3	15.3	0.00e+00	0	26	0	1329594368	57	3905
2026-01-06 03:25:26.96	18.14	30.71	-45.4	-46.4	15.3	0.00e+00	0	26	0	1351614464	57	3947
2026-01-06 03:25:30.95	17.75	31.47	-45.3	-46.4	15.3	0.00e+00	0	26	0	1374683136	57	3929
2026-01-06 03:25:34.95	17.34	32.25	-45.3	-46.3	15.3	0.00e+00	0	26	0	1396703232	57	3912
2026-01-06 03:25:38.95	16.90	33.04	-45.1	-46.1	15.3	0.00e+00	0	26	0	1418723328	56	4023
2026-01-06 03:25:42.95	16.44	33.86	-45.0	-46.0	15.3	0.00e+00	0	26	0	1441792000	56	3990
2026-01-06 03:25:46.93	15.96	34.69	-45.1	-46.2	15.2	0.00e+00	0	26	0	1463812096	56	4058
2026-01-06 03:25:50.90	15.45	35.54	-45.0	-46.1	15.3	0.00e+00	0	26	0	1486880768	56	4017
2026-01-06 03:25:54.89	14.92	36.42	-44.7	-45.7	15.4	0.00e+00	0	26	0	1508900864	56	3852
2026-01-06 03:25:58.88	14.35	37.31	-44.9	-45.9	15.3	0.00e+00	0	26	0	1531969536	56	3952
2026-01-06 03:26:02.89	13.74	38.24	-45.0	-46.1	15.3	0.00e+00	0	26	0	1553989632	56	4022
2026-01-06 03:26:06.87	13.11	39.17	-45.3	-46.4	15.2	0.00e+00	0	26	0	1576009728	56	4157
2026-01-06 03:26:10.87	12.43	40.14	-45.1	-46.2	15.2	0.00e+00	0	26	0	1599078400	56	4065
2026-01-06 03:26:14.86	11.71	41.12	-45.7	-46.8	15.1	0.00e+00	0	26	0	1621098496	56	4368
2026-01-06 03:26:18.86	10.94	42.13	-45.6	-46.6	15.1	0.00e+00	0	26	0	1644167168	56	4291
2026-01-06 03:26:22.85	10.12	43.15	-45.7	-46.8	15.1	0.00e+00	0	26	0	1666187264	56	4359
2026-01-06 03:26:26.84	9.25	44.20	-45.7	-46.8	15.1	0.00e+00	0	26	0	1688207360	56	4347
2026-01-06 03:26:30.83	8.32	45.27	-45.7	-46.8	15.1	0.00e+00	0	26	0	1711276032	56	4364
2026-01-06 03:26:34.81	7.32	46.36	-45.7	-46.7	15.1	0.00e+00	0	26	0	1733296128	56	4329
2026-01-06 03:26:38.79	6.25	47.46	-45.6	-46.7	15.1	0.00e+00	0	26	0	1756364800	56	4313
2026-01-06 03:26:42.77	5.10	48.58	-46.0	-47.1	15.1	0.00e+00	0	26	0	1778384896	57	4287
2026-01-06 03:26:46.76	3.85	49.72	-46.5	-47.6	15.1	0.00e+00	0	26	0	1800404992	58	4265
2026-01-06 03:26:50.76	2.51	50.88	-46.9	-48.0	15.0	0.00e+00	0	26	0	1823473664	58	4466
2026-01-06 03:26:54.76	1.05	52.05	-46.6	-47.7	15.2	0.00e+00	0	26	0	1845493760	59	4061
2026-01-06 03:26:58.76	359.48	53.22	-46.6	-47.7	15.2	0.00e+00	0	26	0	1868562432	59	4064
2026-01-06 03:27:02.75	357.77	54.40	-46.6	-47.7	15.2	0.00e+00	0	26	0	1890582528	59	4098
2026-01-06 03:27:06.74	355.92	55.57	-46.5	-47.6	15.2	0.00e+00	0	26	0	1912602624	59	4025
2026-01-06 03:27:10.73	353.91	56.74	-46.0	-47.0	15.2	0.00e+00	0	26	0	1935671296	58	3989
2026-01-06 03:27:14.72	351.71	57.89	-45.8	-46.8	15.3	0.00e+00	0	26	0	1957691392	58	3888
2026-01-06 03:27:18.70	349.33	59.02	-46.4	-47.5	15.1	0.00e+00	0	26	0	1980760064	58	4222
2026-01-06 03:27:22.69	346.73	60.12	-46.4	-47.5	15.1	0.00e+00	0	26	0	2002780160	58	4241
2026-01-06 03:27:26.67	343.90	61.19	-46.2	-47.3	15.2	0.00e+00	0	26	0	2024800256	58	4106
2026-01-06 03:27:30.65	340.83	62.20	-45.9	-47.0	15.3	0.00e+00	0	26	0	2047868928	58	3981
2026-01-06 03:27:34.63	337.50	63.15	-45.2	-46.3	15.2	0.00e+00	0	26	0	2069889024	56	4105
2026-01-06 03:27:38.65	333.87	64.03	-45.4	-46.4	15.2	0.00e+00	0	26	0	2092957696	56	4181
2026-01-06 03:27:42.63	330.00	64.81	-44.9	-45.9	15.3	0.00e+00	0	26	0	2114977792	56	3933
2026-01-06 03:27:46.62	325.86	65.49	-44.8	-45.8	15.4	0.00e+00	0	26	0	2136997888	56	3876
2026-01-06 03:27:50.63	321.46	66.06	-45.1	-46.1	15.3	0.00e+00	0	26	0	2160066560	56	4046
2026-01-06 03:27:54.63	316.86	66.49	-44.7	-45.7	15.4	0.00e+00	0	26	0	2182086656	56	3861
2026-01-06 03:27:58.63	312.10	66.78	-44.6	-45.6	15.3	0.00e+00	0	26	0	2205155328	55	4030
2026-01-06 03:28:02.63	307.25	66.92	-44.6	-45.6	15.3	0.00e+00	0	26	0	2227175424	55	4028
2026-01-06 03:28:06.61	302.39	66.91	-44.1	-45.1	15.3	0.00e+00	0	26	0	2250244096	54	4042
2026-01-06 03:28:10.62	297.53	66.74	-44.2	-45.2	15.3	0.00e+00	0	26	0	2272264192	54	4088
2026-01-06 03:28:14.62	292.79	66.43	-44.3	-45.3	15.3	0.00e+00	0	26	0	2295332864	54	4122
2026-01-06 03:28:18.62	288.22	65.98	-44.5	-45.5	15.2	0.00e+00	0	26	0	2317352960	54	4211
2026-01-06 03:28:22.62	283.87	65.39	-44.6	-45.6	15.2	0.00e+00	0	26	0	2339373056	54	4284
2026-01-06 03:28:26.61	279.76	64.69	-44.9	-45.9	15.2	0.00e+00	0	26	0	2362441728	54	4436
2026-01-06 03:28:30.58	275.94	63.90	-44.8	-45.8	15.3	0.00e+00	0	26	0	2384461824	55	4122
2026-01-06 03:28:34.57	272.37	63.01	-45.2	-46.2	15.2	0.00e+00	0	26	0	2406481920	55	4332
2026-01-06 03:28:38.58	269.05	62.04	-44.9	-46.0	15.2	0.00e+00	0	26	0	2429550592	55	4211
2026-01-06 03:28:42.58	266.00	61.01	-45.2	-46.2	15.2	0.00e+00	0	26	0	2452619264	55	4311
2026-01-06 03:28:46.58	263.20	59.94	-45.8	-46.9	15.2	0.00e+00	0	26	0	2474639360	57	4152
2026-01-06 03:28:50.57	260.63	58.83	-45.8	-46.8	15.2	0.00e+00	0	26	0	2497708032	57	4136
2026-01-06 03:28:54.57	258.27	57.68	-45.6	-46.6	15.3	0.00e+00	0	26	0	2519728128	57	4049
2026-01-06 03:28:58.57	256.10	56.52	-46.0	-47.0	15.1	0.00e+00	0	26	0	2541748224	57	4233
2026-01-06 03:29:02.56	254.11	55.35	-45.9	-46.9	15.2	0.00e+00	0	26	0	2564816896	57	4182
2026-01-06 03:29:06.57	252.27	54.17	-46.2	-47.3	15.1	0.00e+00	0	26	0	2586836992	57	4362
2026-01-06 03:29:10.56	250.59	52.99	-46.0	-47.1	15.1	0.00e+00	0	26	0	2609905664	57	4268
2026-01-06 03:29:14.54	249.04	51.82	-46.1	-47.2	15.1	0.00e+00	0	26	0	2631925760	57	4292
2026-01-06 03:29:18.54	247.61	50.65	-46.1	-47.2	15.1	0.00e+00	0	26	0	2654994432	57	4322
2026-01-06 03:29:22.53	246.28	49.50	-45.9	-46.9	15.2	0.00e+00	0	26	0	2677014528	57	4189
2026-01-06 03:29:26.54	245.04	48.35	-45.4	-46.4	15.3	0.00e+00	0	26	0	2699034624	57	3933
2026-01-06 03:29:30.54	243.90	47.22	-45.6	-46.6	15.3	0.00e+00	0	26	0	2722103296	57	4049
2026-01-06 03:29:34.52	242.84	46.12	-45.1	-46.1	15.3	0.00e+00	0	26	0	2744123392	56	4015
2026-01-06 03:29:38.52	241.85	45.03	-45.0	-46.0	15.3	0.00e+00	0	26	0	2767192064	56	3977
2026-01-06 03:29:42.50	240.93	43.96	-45.4	-46.5	15.2	0.00e+00	0	26	0	2789212160	56	4220
2026-01-06 03:29:46.50	240.06	42.91	-45.2	-46.2	15.2	0.00e+00	0	26	0	2811232256	56	4078
2026-01-06 03:29:50.49	239.25	41.89	-45.1	-46.1	15.3	0.00e+00	0	26	0	2834300928	56	4049
2026-01-06 03:29:54.49	238.49	40.88	-44.9	-45.9	15.3	0.00e+00	0	26	0	2856321024	56	3952
2026-01-06 03:29:58.50	237.78	39.89	-44.9	-45.9	15.3	0.00e+00	0	26	0	2879389696	56	3951
2026-01-06 03:30:02.50	237.10	38.93	-44.8	-45.9	15.3	0.00e+00	0	26	0	2901409792	56	3917
2026-01-06 03:30:06.49	236.47	37.99	-45.2	-46.2	15.3	0.00e+00	0	26	0	2924478464	56	4084
2026-01-06 03:30:10.48	235.88	37.08	-44.9	-45.9	15.3	0.00e+00	0	26	0	2946498560	56	3945
2026-01-06 03:30:14.47	235.31	36.18	-44.9	-45.9	15.3	0.00e+00	0	26	0	2968518656	56	3951
2026-01-06 03:30:18.47	234.78	35.31	-44.9	-45.9	15.3	0.00e+00	0	26	0	2991587328	56	3942
2026-01-06 03:30:22.45	234.28	34.46	-45.0	-46.0	15.3	0.00e+00	0	26	0	3013607424	56	3982
2026-01-06 03:30:26.44	233.80	33.62	-44.8	-45.8	15.4	0.00e+00	0	26	0	3036676096	56	3889
2026-01-06 03:30:30.43	233.34	32.81	-45.0	-46.1	15.3	0.00e+00	0	26	0	3058696192	56	4017
2026-01-06 03:30:34.43	232.91	32.02	-45.2	-46.3	15.2	0.00e+00	0	26	0	3081764864	56	4109
2026-01-06 03:30:38.43	232.50	31.24	-45.2	-46.2	15.2	0.00e+00	0	26	0	3103784960	56	4097
2026-01-06 03:30:42.43	232.10	30.48	-45.3	-46.3	15.2	0.00e+00	0	27	0	3126853632	56	4124
2026-01-06 03:30:46.43	231.73	29.74	-45.3	-46.4	15.2	0.00e+00	0	26	0	3148873728	56	4146
2026-01-06 03:30:50.44	231.37	29.02	-45.4	-46.4	15.2	0.00e+00	0	27	0	3170893824	56	4177
2026-01-06 03:30:54.44	231.03	28.31	-45.5	-46.6	15.1	0.00e+00	0	27	0	3193962496	56	4289
2026-01-06 03:30:58.44	230.71	27.62	-45.5	-46.6	15.1	0.00e+00	0	26	0	3215982592	56	4267
2026-01-06 03:31:02.44	230.39	26.95	-45.5	-46.6	15.1	0.00e+00	0	26	0	3239051264	56	4275
2026-01-06 03:31:06.44	230.10	26.29	-45.5	-46.5	15.1	0.00e+00	0	26	0	3261071360	56	4235
2026-01-06 03:31:10.44	229.81	25.65	-45.5	-46.6	15.1	0.00e+00	0	26	0	3284140032	56	4265
2026-01-06 03:31:14.44	229.54	25.02	-45.7	-46.8	15.1	0.00e+00	0	27	0	3306160128	56	4349
2026-01-06 03:31:18.44	229.27	24.40	-45.8	-46.9	15.1	0.00e+00	0	26	0	3329228800	56	4397
2026-01-06 03:31:22.42	229.02	23.80	-45.7	-46.8	15.1	0.00e+00	0	26	0	3351248896	56	4353
2026-01-06 03:31:26.42	228.78	23.22	-45.8	-46.9	15.1	0.00e+00	0	26	0	3373268992	56	4392
2026-01-06 03:31:30.41	228.55	22.64	-46.0	-47.0	15.1	0.00e+00	0	26	0	3396337664	57	4240
2026-01-06 03:31:34.39	228.32	22.08	-46.2	-47.3	15.1	0.00e+00	0	27	0	3418357760	57	4357
2026-01-06 03:31:38.38	228.11	21.53	-46.2	-47.3	15.1	0.00e+00	0	26	0	3441426432	57	4378
2026-01-06 03:31:42.38	227.90	20.99	-46.2	-47.3	15.0	0.00e+00	0	26	0	3463446528	57	4378
2026-01-06 03:31:46.38	227.70	20.46	-46.1	-47.2	15.1	0.00e+00	0	27	0	3486515200	57	4305
2026-01-06 03:31:50.39	227.50	19.94	-46.0	-47.1	15.1	0.00e+00	0	26	0	3508535296	57	4269
2026-01-06 03:31:54.39	227.32	19.43	-46.1	-47.2	15.0	0.00e+00	0	26	0	3531603968	57	4321
2026-01-06 03:31:58.39	227.14	18.93	-46.4	-47.5	15.0	0.00e+00	0	26	0	3553624064	57	4464
2026-01-06 03:32:02.37	226.96	18.44	-46.8	-48.0	14.9	0.00e+00	0	27	0	3575644160	58	4451
2026-01-06 03:32:06.38	226.79	17.96	-46.9	-48.1	14.9	0.00e+00	0	26	0	3598712832	58	4511
2026-01-06 03:32:10.36	226.63	17.49	-47.0	-48.2	15.0	0.00e+00	0	27	0	3620732928	59	4326
2026-01-06 03:32:14.36	226.47	17.03	-47.2	-48.4	14.9	0.00e+00	0	26	0	3643801600	59	4417
2026-01-06 03:32:18.36	226.32	16.57	-47.2	-48.3	14.9	0.00e+00	0	26	0	3665821696	59	4391
2026-01-06 03:32:22.35	226.18	16.13	-47.3	-48.4	14.9	0.00e+00	0	27	0	3687841792	59	4440
2026-01-06 03:32:26.33	226.03	15.69	-47.4	-48.6	14.9	0.00e+00	0	26	0	3710910464	59	4495
2026-01-06 03:32:30.32	225.90	15.26	-47.2	-48.3	15.0	0.00e+00	0	27	0	3732930560	60	4144
2026-01-06 03:32:34.32	225.76	14.84	-47.2	-48.4	14.9	0.00e+00	0	27	0	3755999232	60	4168
2026-01-06 03:32:38.32	225.63	14.42	-47.4	-48.6	14.9	0.00e+00	0	26	0	3778019328	60	4262
2026-01-06 03:32:42.30	225.51	14.01	-47.5	-48.7	14.8	0.00e+00	0	27	0	3800039424	60	4332
2026-01-06 03:32:46.29	225.38	13.61	-47.6	-48.8	14.8	0.00e+00	0	26	0	3823108096	60	4391
2026-01-06 03:32:50.28	225.27	13.22	-47.5	-48.7	14.8	0.00e+00	0	27	0	3845128192	60	4336
2026-01-06 03:32:54.29	225.15	12.82	-47.7	-48.9	14.8	0.00e+00	0	27	0	3868196864	60	4424
2026-01-06 03:32:58.29	225.04	12.44	-47.7	-49.0	14.7	0.00e+00	0	27	0	3890216960	60	4450
2026-01-06 03:33:02.30	224.93	12.06	-47.9	-49.1	14.7	0.00e+00	0	27	0	3913285632	60	4500
2026-01-06 03:33:06.29	224.82	11.69	-47.9	-49.1	14.8	0.00e+00	0	26	0	3935305728	61	4277
2026-01-06 03:33:10.30	224.72	11.32	-48.0	-49.2	14.7	0.00e+00	0	26	0	3958374400	61	4315
2026-01-06 03:33:14.27	224.62	10.96	-48.0	-49.3	14.7	0.00e+00	0	26	0	3980394496	61	4363
2026-01-06 03:33:18.27	224.52	10.60	-48.2	-49.5	14.6	0.00e+00	0	26	0	4002414592	61	4455
2026-01-06 03:33:22.26	224.43	10.25	-48.1	-49.4	14.7	0.00e+00	0	26	0	4025483264	61	4409
2026-01-06 03:33:26.25	224.34	9.91	-48.2	-49.5	14.6	0.00e+00	0	27	0	4047503360	61	4457
2026-01-06 03:33:30.24	224.25	9.56	-48.2	-49.5	14.6	0.00e+00	0	27	0	4070572032	61	4460
2026-01-06 03:33:34.23	224.16	9.23	-48.3	-49.6	14.6	0.00e+00	0	26	0	4092592128	61	4510
2026-01-06 03:33:38.23	224.08	8.89	-48.5	-49.7	14.6	0.00e+00	0	27	0	4115660800	62	4339
2026-01-06 03:33:42.22	224.00	8.57	-48.5	-49.7	14.6	0.00e+00	0	26	0	4137680896	62	4323
2026-01-06 03:33:46.22	223.92	8.24	-48.6	-49.9	14.5	0.00e+00	0	26	0	4160749568	62	4404
2026-01-06 03:33:50.23	223.84	7.92	-48.7	-50.0	14.5	0.00e+00	0	26	0	4182769664	62	4455
2026-01-06 03:33:54.24	223.76	7.60	-48.8	-50.1	14.4	0.00e+00	0	26	0	4204789760	62	4527
2026-01-06 03:33:58.24	223.69	7.29	-48.9	-50.2	14.5	0.00e+00	0	26	0	4227858432	63	4312
2026-01-06 03:34:02.24	223.61	6.98	-49.0	-50.3	14.4	0.00e+00	0	26	0	4249878528	63	4376
2026-01-06 03:34:06.25	223.54	6.67	-49.2	-50.6	14.3	0.00e+00	0	26	0	4272947200	63	4514
2026-01-06 03:34:10.25	223.47	6.37	-49.3	-50.6	14.3	0.00e+00	0	26	0	4294967296	63	4538
2026-01-06 03:34:14.26	223.40	6.07	-49.3	-50.7	14.2	0.00e+00	0	26	0	4318035968	63	4589
2026-01-06 03:34:18.28	223.34	5.77	-49.4	-50.8	14.3	0.00e+00	0	26	0	4340056064	64	4359
2026-01-06 03:34:22.27	223.27	5.48	-49.6	-51.1	14.1	0.00e+00	0	27	0	4363124736	64	4499
2026-01-06 03:34:26.26	223.21	5.19	-49.6	-51.0	14.1	0.00e+00	0	26	0	4385144832	64	4488
2026-01-06 03:34:30.24	223.15	4.91	-59.2	-72.2	3.8	8.44e-01	0	27	104	4398776320	83	17255
2026-01-06 03:34:34.23	223.09	4.63	-59.9	-73.0	3.8	8.46e-01	0	27	104	4398776320	84	17687
2026-01-06 03:34:38.24	223.03	4.35	-60.1	-73.2	3.8	8.44e-01	0	27	104	4398776320	85	17154
2026-01-06 03:34:42.23	222.98	4.07	-60.2	-73.3	3.8	8.45e-01	0	27	104	4398776320	85	17398
2026-01-06 03:34:46.22	222.92	3.80	-60.3	-73.4	3.8	8.46e-01	0	27	104	4398776320	85	17667
2026-01-06 03:34:50.19	222.87	3.53	-60.4	-73.5	3.8	8.46e-01	0	26	104	4398776320	85	17758
2026-01-06 03:34:54.18	222.81	3.26	-60.4	-73.5	3.8	8.45e-01	0	26	104	4398776320	85	17694
2026-01-06 03:34:58.19	222.76	2.99	-60.3	-73.4	3.8	8.46e-01	0	27	104	4398776320	85	17579
2026-01-06 03:35:02.16	222.71	2.73	-60.3	-73.4	3.8	8.46e-01	0	27	104	4398776320	85	17537
2026-01-06 03:35:06.14	222.66	2.47	-60.3	-73.4	3.8	8.46e-01	0	27	104	4398776320	85	17511
2026-01-06 03:35:10.14	222.61	2.21	-60.2	-73.3	3.8	8.45e-01	0	27	104	4398776320	85	17454
2026-01-06 03:35:14.13	222.56	1.96	-60.2	-73.3	3.8	8.45e-01	0	26	104	4398776320	85	17464

#Closed at: 2026-01-06 03:35:15
#Recorded file [4398 MB]: D:/lorett/data/31004_260106_062055.dat