passes_logs/2026/01/06/R3.2S_Murmansk/R3.2S_Murmansk__20260106_035959_SUOMI_NPP_rec.log

#Pass ID: 20260106_035959_SUOMI NPP
#Satellite: SUOMI NPP
#Configuration: NPP
#almurnet v.1.7.20251203
#Start time: 2026-01-06 04:00:00

#Version: 2.2.20231116
#Station: R3.2S_Murmansk
#Location: 33.079688 lon 68.888172 lat
#TLE: 1 37849U 11061A   26004.95404768  .00000136  00000+0  85334-4 0  9991
#TLE: 2 37849  98.7801 307.0898 0002575  80.6707 279.4760 14.19522289735281

#Time	Az	El	Level	Level2	SNR	BER	BlckErr	Temp	State	Recorded	gain1	gain2
2026-01-06 04:00:00.63	46.29	2.07	-57.9	-73.9	3.8	1.49e+00	0	24	0	0	82	22064
2026-01-06 04:00:04.63	46.05	2.31	-57.8	-73.8	3.8	1.49e+00	0	24	104	0	80	24569
2026-01-06 04:00:08.63	45.81	2.54	-57.8	-73.8	3.8	1.49e+00	0	24	104	0	80	24603
2026-01-06 04:00:12.60	45.57	2.77	-57.8	-73.8	3.8	1.49e+00	0	24	104	0	80	24618
2026-01-06 04:00:16.61	45.32	3.01	-57.8	-73.9	3.8	1.49e+00	0	24	104	0	80	24728
2026-01-06 04:00:20.62	45.07	3.25	-57.9	-73.8	3.8	1.49e+00	0	24	104	0	80	24593
2026-01-06 04:00:24.62	44.81	3.49	-57.9	-73.9	3.8	1.49e+00	0	25	104	0	80	24707
2026-01-06 04:00:28.61	44.55	3.73	-57.8	-73.8	3.8	1.49e+00	0	25	104	0	80	24668
2026-01-06 04:00:32.60	44.29	3.97	-57.8	-73.8	3.8	1.49e+00	0	25	104	0	80	24595
2026-01-06 04:00:36.61	44.02	4.22	-57.9	-73.6	3.8	1.49e+00	0	25	104	0	80	24121
2026-01-06 04:00:40.61	43.74	4.46	-57.8	-71.9	3.8	1.49e+00	0	25	104	0	80	19783
2026-01-06 04:00:44.60	43.46	4.71	-57.6	-68.8	4.7	9.22e-01	0	25	0	2097152	80	13811
2026-01-06 04:00:48.61	43.18	4.96	-57.3	-66.8	5.8	3.33e-01	0	25	0	9437184	80	10940
2026-01-06 04:00:52.61	42.89	5.21	-57.4	-66.7	5.9	6.19e-01	0	25	0	16777216	80	10885
2026-01-06 04:00:56.60	42.59	5.46	-55.6	-60.1	11.2	7.35e-04	0	25	0	22020096	77	6012
2026-01-06 04:01:00.59	42.29	5.72	-54.8	-58.5	12.4	3.00e-06	0	25	0	29360128	76	5335
2026-01-06 04:01:04.59	41.98	5.97	-54.2	-57.6	12.9	0.00e+00	0	25	0	36700160	75	5062
2026-01-06 04:01:08.60	41.67	6.23	-54.1	-57.3	13.0	0.00e+00	0	25	0	44040192	74	5212
2026-01-06 04:01:12.61	41.35	6.49	-53.9	-57.1	13.2	0.00e+00	0	25	0	52428800	74	5049
2026-01-06 04:01:16.61	41.03	6.75	-53.9	-57.0	13.3	0.00e+00	0	26	0	59768832	74	5002
2026-01-06 04:01:20.60	40.70	7.02	-53.7	-56.6	13.3	0.00e+00	0	26	0	67108864	73	5082
2026-01-06 04:01:24.61	40.36	7.28	-54.0	-57.1	13.1	0.00e+00	0	26	0	74448896	73	5398
2026-01-06 04:01:28.61	40.02	7.55	-53.8	-56.8	13.3	0.00e+00	0	26	0	81788928	73	5197
2026-01-06 04:01:32.60	39.67	7.82	-54.0	-57.0	13.2	0.00e+00	0	25	0	89128960	73	5321
2026-01-06 04:01:36.60	39.31	8.09	-54.0	-57.0	13.2	0.00e+00	0	26	0	96468992	73	5314
2026-01-06 04:01:40.59	38.95	8.36	-53.9	-56.9	13.3	0.00e+00	0	26	0	104857600	73	5225
2026-01-06 04:01:44.59	38.58	8.63	-53.8	-56.6	13.4	0.00e+00	0	25	0	112197632	73	5082
2026-01-06 04:01:48.59	38.20	8.91	-53.7	-56.5	13.4	0.00e+00	0	26	0	119537664	73	5032
2026-01-06 04:01:52.58	37.82	9.18	-53.8	-56.8	13.3	0.00e+00	0	26	0	126877696	73	5211
2026-01-06 04:01:56.56	37.42	9.46	-54.1	-57.3	13.0	0.00e+00	0	26	0	134217728	73	5501
2026-01-06 04:02:00.55	37.03	9.74	-53.8	-56.9	13.3	0.00e+00	0	26	0	141557760	73	5264
2026-01-06 04:02:04.55	36.62	10.02	-53.6	-56.6	13.4	0.00e+00	0	26	0	148897792	73	5074
2026-01-06 04:02:08.54	36.20	10.31	-53.6	-56.5	13.5	0.00e+00	0	26	0	157286400	73	5013
2026-01-06 04:02:12.53	35.78	10.59	-53.6	-56.5	13.5	0.00e+00	0	26	0	164626432	73	5017
2026-01-06 04:02:16.50	35.34	10.88	-53.6	-56.5	13.6	0.00e+00	0	26	0	171966464	73	5000
2026-01-06 04:02:20.48	34.90	11.17	-53.5	-56.2	13.7	0.00e+00	0	26	0	179306496	73	4834
2026-01-06 04:02:24.48	34.45	11.46	-53.5	-56.2	13.7	0.00e+00	0	26	0	186646528	73	4828
2026-01-06 04:02:28.48	33.99	11.75	-53.4	-56.0	13.8	0.00e+00	0	26	0	193986560	73	4730
2026-01-06 04:02:32.46	33.52	12.05	-53.4	-56.0	13.8	0.00e+00	0	26	0	201326592	73	4714
2026-01-06 04:02:36.47	33.04	12.34	-53.6	-56.3	13.6	0.00e+00	0	26	0	208666624	73	4888
2026-01-06 04:02:40.44	32.55	12.64	-53.8	-56.5	13.5	0.00e+00	0	26	0	217055232	73	5020
2026-01-06 04:02:44.43	32.05	12.94	-54.0	-56.9	13.3	0.00e+00	0	26	0	224395264	73	5274
2026-01-06 04:02:48.45	31.54	13.24	-53.4	-55.9	13.8	0.00e+00	0	26	0	231735296	73	4700
2026-01-06 04:02:52.48	31.01	13.54	-53.2	-55.7	13.9	0.00e+00	0	26	0	239075328	72	4825
2026-01-06 04:02:56.46	30.48	13.84	-52.5	-54.7	14.2	0.00e+00	0	26	0	246415360	71	4596
2026-01-06 04:03:00.44	29.94	14.15	-52.5	-54.8	14.2	0.00e+00	0	26	0	253755392	71	4620
2026-01-06 04:03:04.44	29.38	14.45	-52.7	-54.9	14.1	0.00e+00	0	26	0	262144000	71	4701
2026-01-06 04:03:08.45	28.81	14.76	-52.6	-54.8	14.2	0.00e+00	0	26	0	269484032	71	4608
2026-01-06 04:03:12.43	28.23	15.07	-52.6	-54.8	14.2	0.00e+00	0	26	0	276824064	71	4634
2026-01-06 04:03:16.43	27.64	15.38	-52.7	-54.9	14.2	0.00e+00	0	26	0	284164096	71	4685
2026-01-06 04:03:20.41	27.03	15.68	-52.6	-54.9	14.2	0.00e+00	0	26	0	291504128	71	4656
2026-01-06 04:03:24.41	26.42	15.99	-52.6	-54.9	14.1	0.00e+00	0	26	0	298844160	71	4692
2026-01-06 04:03:28.41	25.78	16.30	-52.9	-55.5	13.9	0.00e+00	0	26	0	306184192	71	4984
2026-01-06 04:03:32.40	25.14	16.61	-53.2	-55.9	13.6	0.00e+00	0	26	0	314572800	71	5259
2026-01-06 04:03:36.39	24.48	16.92	-53.4	-56.1	13.7	0.00e+00	0	26	0	321912832	72	5048
2026-01-06 04:03:40.38	23.81	17.23	-53.4	-56.1	13.7	0.00e+00	0	26	0	329252864	72	5044
2026-01-06 04:03:44.36	23.13	17.54	-53.0	-55.4	14.1	0.00e+00	0	26	0	336592896	72	4673
2026-01-06 04:03:48.33	22.43	17.85	-53.1	-55.5	14.0	0.00e+00	0	26	0	343932928	72	4753
2026-01-06 04:03:52.31	21.72	18.16	-52.5	-54.8	14.2	0.00e+00	0	26	0	351272960	71	4644
2026-01-06 04:03:56.32	20.99	18.47	-52.9	-55.4	13.9	0.00e+00	0	26	0	358612992	71	4934
2026-01-06 04:04:00.32	20.24	18.77	-53.2	-55.8	13.8	0.00e+00	0	26	0	365953024	71	5173
2026-01-06 04:04:04.33	19.48	19.08	-52.8	-55.1	14.1	0.00e+00	0	26	0	374341632	71	4779
2026-01-06 04:04:08.32	18.70	19.38	-52.4	-54.6	14.4	0.00e+00	0	26	0	381681664	71	4520
2026-01-06 04:04:12.30	17.91	19.69	-52.9	-55.3	14.0	0.00e+00	0	26	0	389021696	71	4898
2026-01-06 04:04:16.29	17.10	19.98	-52.7	-55.0	14.2	0.00e+00	0	26	0	396361728	71	4730
2026-01-06 04:04:20.27	16.28	20.28	-52.7	-55.0	14.2	0.00e+00	0	26	0	403701760	71	4715
2026-01-06 04:04:24.26	15.44	20.57	-52.1	-54.2	14.4	0.00e+00	0	26	0	411041792	70	4589
2026-01-06 04:04:28.26	14.59	20.87	-51.9	-54.1	14.5	0.00e+00	0	26	0	418381824	70	4499
2026-01-06 04:04:32.26	13.71	21.15	-51.5	-53.5	14.5	0.00e+00	0	26	0	426770432	69	4485
2026-01-06 04:04:36.27	12.82	21.44	-51.1	-53.0	14.7	0.00e+00	0	26	0	434110464	68	4444
2026-01-06 04:04:40.25	11.92	21.72	-51.9	-54.0	14.3	0.00e+00	0	26	0	441450496	68	4999
2026-01-06 04:04:44.24	11.00	21.99	-51.6	-53.5	14.6	0.00e+00	0	26	0	448790528	69	4467
2026-01-06 04:04:48.23	10.06	22.26	-51.3	-53.2	14.8	0.00e+00	0	26	0	456130560	69	4310
2026-01-06 04:04:52.23	9.10	22.52	-51.0	-52.8	14.8	0.00e+00	0	26	0	463470592	68	4390
2026-01-06 04:04:56.22	8.13	22.78	-51.0	-52.8	14.7	0.00e+00	0	26	0	470810624	68	4371
2026-01-06 04:05:00.21	7.14	23.03	-50.9	-52.6	14.7	0.00e+00	0	26	0	479199232	67	4543
2026-01-06 04:05:04.21	6.14	23.27	-50.9	-52.6	14.7	0.00e+00	0	26	0	486539264	67	4531
2026-01-06 04:05:08.21	5.12	23.51	-51.4	-53.3	14.5	0.00e+00	0	26	0	493879296	67	4882
2026-01-06 04:05:12.20	4.08	23.74	-50.9	-52.7	14.9	0.00e+00	0	26	0	501219328	68	4297
2026-01-06 04:05:16.19	3.03	23.96	-51.5	-53.4	14.6	0.00e+00	0	26	0	508559360	68	4657
2026-01-06 04:05:20.17	1.97	24.17	-51.1	-52.8	14.8	0.00e+00	0	26	0	515899392	68	4356
2026-01-06 04:05:24.16	0.90	24.37	-51.0	-52.7	14.9	0.00e+00	0	26	0	523239424	68	4305
2026-01-06 04:05:28.15	359.80	24.56	-51.3	-53.1	14.7	0.00e+00	0	26	0	530579456	68	4525
2026-01-06 04:05:32.15	358.70	24.74	-50.9	-52.6	14.9	0.00e+00	0	26	0	538968064	68	4270
2026-01-06 04:05:36.16	357.58	24.91	-51.1	-52.9	14.8	0.00e+00	0	26	0	546308096	68	4394
2026-01-06 04:05:40.15	356.45	25.07	-51.5	-53.3	14.6	0.00e+00	0	26	0	553648128	68	4606
2026-01-06 04:05:44.15	355.30	25.22	-52.6	-54.7	14.2	0.00e+00	0	26	0	560988160	70	4856
2026-01-06 04:05:48.13	354.16	25.36	-52.7	-54.9	14.2	0.00e+00	0	26	0	568328192	71	4686
2026-01-06 04:05:52.13	352.99	25.48	-52.6	-54.8	14.3	0.00e+00	0	26	0	575668224	71	4620
2026-01-06 04:05:56.13	351.82	25.60	-52.9	-55.2	14.1	0.00e+00	0	26	0	583008256	71	4859
2026-01-06 04:06:00.13	350.64	25.70	-52.5	-54.6	14.3	0.00e+00	0	26	0	591396864	71	4532
2026-01-06 04:06:04.12	349.46	25.78	-53.4	-56.1	13.8	0.00e+00	0	26	0	598736896	72	5064
2026-01-06 04:06:08.12	348.26	25.86	-52.6	-54.9	14.2	0.00e+00	0	26	0	606076928	71	4669
2026-01-06 04:06:12.11	347.07	25.92	-52.4	-54.6	14.4	0.00e+00	0	26	0	613416960	71	4531
2026-01-06 04:06:16.10	345.87	25.96	-52.7	-55.1	14.1	0.00e+00	0	26	0	620756992	71	4802
2026-01-06 04:06:20.08	344.67	25.99	-53.4	-55.9	13.8	0.00e+00	0	26	0	628097024	71	5249
2026-01-06 04:06:24.08	343.46	26.01	-52.2	-54.2	14.4	0.00e+00	0	26	0	635437056	70	4574
2026-01-06 04:06:28.06	342.26	26.02	-52.7	-55.0	14.1	0.00e+00	0	26	0	643825664	70	5010
2026-01-06 04:06:32.06	341.05	26.01	-52.9	-55.3	14.0	0.00e+00	0	26	0	651165696	71	4924
2026-01-06 04:06:36.05	339.85	25.98	-52.7	-55.0	14.2	0.00e+00	0	26	0	658505728	71	4747
2026-01-06 04:06:40.03	338.65	25.95	-51.7	-53.6	14.7	0.00e+00	0	26	0	665845760	70	4274
2026-01-06 04:06:44.02	337.45	25.90	-51.6	-53.5	14.7	0.00e+00	0	26	0	673185792	69	4447
2026-01-06 04:06:48.01	336.26	25.83	-51.8	-53.7	14.6	0.00e+00	0	26	0	680525824	69	4584
2026-01-06 04:06:52.03	335.06	25.75	-50.3	-51.9	15.0	0.00e+00	0	26	0	687865856	67	4166
2026-01-06 04:06:56.03	333.87	25.66	-50.5	-52.1	14.9	0.00e+00	0	26	0	696254464	67	4255
2026-01-06 04:07:00.04	332.69	25.56	-50.9	-52.6	14.7	0.00e+00	0	26	0	703594496	67	4527
2026-01-06 04:07:04.04	331.53	25.44	-51.0	-52.6	14.7	0.00e+00	0	26	0	710934528	67	4536
2026-01-06 04:07:08.03	330.37	25.31	-51.3	-53.0	14.6	0.00e+00	0	26	0	718274560	67	4740
2026-01-06 04:07:12.04	329.21	25.17	-52.0	-53.8	14.6	0.00e+00	0	26	0	725614592	69	4601
2026-01-06 04:07:16.02	328.08	25.01	-52.2	-54.1	14.4	0.00e+00	0	26	0	732954624	69	4802
2026-01-06 04:07:19.99	326.96	24.85	-51.7	-53.4	14.7	0.00e+00	0	26	0	740294656	69	4418
2026-01-06 04:07:23.98	325.85	24.67	-52.6	-54.7	14.3	0.00e+00	0	26	0	748683264	70	4816
2026-01-06 04:07:27.95	324.75	24.49	-52.5	-54.6	14.3	0.00e+00	0	26	0	756023296	70	4764
2026-01-06 04:07:31.95	323.66	24.29	-52.9	-55.2	14.2	0.00e+00	0	26	0	763363328	71	4856
2026-01-06 04:07:35.93	322.59	24.09	-53.0	-55.3	14.1	0.00e+00	0	26	0	770703360	71	4889
2026-01-06 04:07:39.92	321.54	23.87	-53.2	-55.7	13.9	0.00e+00	0	26	0	778043392	71	5118
2026-01-06 04:07:43.93	320.49	23.65	-52.7	-54.9	14.3	0.00e+00	0	26	0	785383424	71	4693
2026-01-06 04:07:47.93	319.45	23.42	-52.2	-54.3	14.4	0.00e+00	0	26	0	792723456	70	4640
2026-01-06 04:07:51.92	318.44	23.18	-53.1	-55.6	13.9	0.00e+00	0	26	0	801112064	71	5076
2026-01-06 04:07:55.92	317.44	22.93	-52.7	-55.0	14.3	0.00e+00	0	26	0	808452096	72	4466
2026-01-06 04:07:59.92	316.46	22.68	-53.1	-55.7	13.9	0.00e+00	0	26	0	815792128	71	5107
2026-01-06 04:08:03.91	315.49	22.42	-53.5	-56.2	13.7	0.00e+00	0	26	0	823132160	72	5153
2026-01-06 04:08:07.90	314.54	22.16	-52.4	-54.6	14.4	0.00e+00	0	26	0	830472192	71	4523
2026-01-06 04:08:11.91	313.61	21.88	-51.9	-53.9	14.5	0.00e+00	0	26	0	837812224	69	4692
2026-01-06 04:08:15.90	312.69	21.61	-52.2	-54.4	14.2	0.00e+00	0	26	0	845152256	69	4977
2026-01-06 04:08:19.88	311.79	21.33	-51.5	-53.4	14.7	0.00e+00	0	26	0	853540864	69	4431
2026-01-06 04:08:23.86	310.91	21.04	-50.9	-52.7	14.8	0.00e+00	0	26	0	860880896	68	4310
2026-01-06 04:08:27.85	310.04	20.76	-51.8	-53.9	14.3	0.00e+00	0	26	0	868220928	68	4951
2026-01-06 04:08:31.85	309.19	20.46	-52.1	-54.3	14.3	0.00e+00	0	26	0	875560960	69	4878
2026-01-06 04:08:35.82	308.36	20.17	-51.9	-54.1	14.4	0.00e+00	0	26	0	882900992	69	4760
2026-01-06 04:08:39.82	307.54	19.87	-51.6	-53.7	14.5	0.00e+00	0	26	0	890241024	69	4584
2026-01-06 04:08:43.81	306.74	19.57	-51.7	-53.7	14.5	0.00e+00	0	26	0	897581056	69	4586
2026-01-06 04:08:47.81	305.95	19.27	-52.2	-54.5	14.2	0.00e+00	0	26	0	904921088	69	4997
2026-01-06 04:08:51.80	305.18	18.96	-51.7	-53.7	14.5	0.00e+00	0	26	0	913309696	69	4553
2026-01-06 04:08:55.79	304.42	18.66	-52.0	-54.1	14.3	0.00e+00	0	26	0	920649728	69	4805
2026-01-06 04:08:59.77	303.69	18.35	-51.2	-53.0	14.8	0.00e+00	0	26	0	927989760	69	4230
2026-01-06 04:09:03.75	302.96	18.04	-51.0	-52.7	14.8	0.00e+00	0	26	0	935329792	68	4308
2026-01-06 04:09:07.76	302.25	17.73	-51.4	-53.2	14.6	0.00e+00	0	26	0	942669824	68	4559
2026-01-06 04:09:11.77	301.55	17.42	-51.4	-53.2	14.6	0.00e+00	0	26	0	950009856	68	4573
2026-01-06 04:09:15.77	300.87	17.11	-51.2	-52.9	14.8	0.00e+00	0	26	0	957349888	68	4406
2026-01-06 04:09:19.74	300.20	16.80	-51.2	-52.9	14.7	0.00e+00	0	26	0	965738496	68	4424
2026-01-06 04:09:23.72	299.55	16.49	-51.7	-53.5	14.5	0.00e+00	0	26	0	973078528	68	4747
2026-01-06 04:09:27.70	298.91	16.18	-51.7	-53.5	14.5	0.00e+00	0	26	0	980418560	68	4725
2026-01-06 04:09:31.67	298.29	15.87	-51.1	-52.7	14.8	0.00e+00	0	26	0	987758592	68	4329
2026-01-06 04:09:35.68	297.68	15.56	-52.1	-54.1	14.3	0.00e+00	0	26	0	995098624	69	4807
2026-01-06 04:09:39.69	297.07	15.25	-52.0	-54.0	14.4	0.00e+00	0	26	0	1002438656	69	4709
2026-01-06 04:09:43.70	296.48	14.94	-51.7	-53.5	14.6	0.00e+00	0	26	0	1009778688	69	4467
2026-01-06 04:09:47.71	295.90	14.64	-51.7	-53.5	14.6	0.00e+00	0	26	0	1018167296	69	4450
2026-01-06 04:09:51.71	295.34	14.33	-51.9	-53.8	14.5	0.00e+00	0	26	0	1025507328	69	4628
2026-01-06 04:09:55.69	294.79	14.02	-52.8	-55.0	14.2	0.00e+00	0	26	0	1032847360	71	4707
2026-01-06 04:09:59.68	294.25	13.72	-52.5	-54.6	14.4	0.00e+00	0	26	0	1040187392	71	4509
2026-01-06 04:10:03.69	293.71	13.42	-51.6	-53.4	14.6	0.00e+00	0	26	0	1047527424	69	4437
2026-01-06 04:10:07.69	293.19	13.12	-51.9	-53.7	14.5	0.00e+00	0	26	0	1054867456	69	4588
2026-01-06 04:10:11.69	292.69	12.81	-52.0	-53.8	14.4	0.00e+00	0	26	0	1063256064	69	4650
2026-01-06 04:10:15.68	292.19	12.52	-52.0	-54.0	14.4	0.00e+00	0	26	0	1070596096	69	4710
2026-01-06 04:10:19.67	291.70	12.22	-52.5	-54.6	14.2	0.00e+00	0	26	0	1077936128	70	4778
2026-01-06 04:10:23.65	291.22	11.93	-52.6	-54.8	14.1	0.00e+00	0	26	0	1085276160	70	4877
2026-01-06 04:10:27.63	290.76	11.63	-53.2	-55.6	13.8	0.00e+00	0	26	0	1092616192	71	5070
2026-01-06 04:10:31.61	290.30	11.34	-53.7	-56.3	13.6	0.00e+00	0	26	0	1099956224	72	5162
2026-01-06 04:10:35.59	289.85	11.05	-53.3	-55.6	13.9	0.00e+00	0	26	0	1107296256	72	4813
2026-01-06 04:10:39.58	289.41	10.76	-53.0	-55.2	14.2	0.00e+00	0	26	0	1114636288	72	4546
2026-01-06 04:10:43.58	288.98	10.48	-52.9	-55.0	14.2	0.00e+00	0	26	0	1121976320	72	4469
2026-01-06 04:10:47.58	288.56	10.19	-53.4	-55.8	13.9	0.00e+00	0	26	0	1130364928	72	4881
2026-01-06 04:10:51.56	288.15	9.91	-53.4	-55.8	13.9	0.00e+00	0	26	0	1137704960	72	4888
2026-01-06 04:10:55.55	287.74	9.63	-53.3	-55.6	13.9	0.00e+00	0	26	0	1145044992	72	4787
2026-01-06 04:10:59.54	287.34	9.35	-52.9	-55.1	14.1	0.00e+00	0	26	0	1152385024	72	4540
2026-01-06 04:11:03.54	286.95	9.07	-53.2	-55.6	13.9	0.00e+00	0	26	0	1159725056	72	4780
2026-01-06 04:11:07.53	286.57	8.79	-53.6	-56.3	13.6	0.00e+00	0	26	0	1167065088	72	5164
2026-01-06 04:11:11.52	286.19	8.52	-54.0	-56.9	13.2	0.00e+00	0	26	0	1174405120	73	5226
2026-01-06 04:11:15.48	285.83	8.25	-54.4	-57.4	13.1	0.00e+00	0	26	0	1182793728	74	5278
2026-01-06 04:11:19.47	285.47	7.98	-54.7	-57.9	12.8	0.00e+00	0	26	0	1190133760	74	5538
2026-01-06 04:11:23.47	285.11	7.71	-54.5	-57.6	13.0	0.00e+00	0	26	0	1197473792	74	5359
2026-01-06 04:11:27.46	284.76	7.44	-54.4	-57.5	13.0	0.00e+00	0	26	0	1204813824	74	5309
2026-01-06 04:11:31.44	284.42	7.17	-54.9	-58.3	12.5	0.00e+00	0	26	0	1212153856	74	5809
2026-01-06 04:11:35.44	284.09	6.91	-55.0	-58.6	12.4	7.00e-07	0	26	0	1219493888	75	5693
2026-01-06 04:11:39.44	283.76	6.65	-55.1	-58.8	12.2	0.00e+00	0	26	0	1227882496	75	5822
2026-01-06 04:11:43.45	283.43	6.38	-55.0	-58.6	12.3	0.00e+00	0	26	0	1235222528	75	5713
2026-01-06 04:11:47.44	283.12	6.13	-54.1	-57.0	13.2	0.00e+00	0	26	0	1242562560	74	5032
2026-01-06 04:11:51.45	282.81	5.87	-53.9	-56.6	13.4	0.00e+00	0	26	0	1249902592	74	4811
2026-01-06 04:11:55.44	282.50	5.61	-53.9	-56.6	13.4	0.00e+00	0	26	0	1257242624	74	4800
2026-01-06 04:11:59.44	282.20	5.36	-54.1	-57.1	13.1	0.00e+00	0	26	0	1264582656	74	5081
2026-01-06 04:12:03.44	281.91	5.11	-54.5	-57.8	12.6	0.00e+00	0	26	0	1271922688	74	5511
2026-01-06 04:12:07.43	281.62	4.86	-59.1	-75.1	3.8	1.49e+00	0	26	104	1277165568	83	24016
2026-01-06 04:12:11.42	281.33	4.61	-59.8	-75.9	3.8	1.49e+00	0	26	104	1277165568	84	24700
2026-01-06 04:12:15.42	281.05	4.36	-60.1	-76.2	3.8	1.49e+00	0	26	104	1277165568	85	24180
2026-01-06 04:12:19.42	280.78	4.12	-60.3	-76.4	3.8	1.49e+00	0	26	104	1277165568	85	24886
2026-01-06 04:12:23.44	280.51	3.87	-60.5	-76.6	3.8	1.49e+00	0	26	104	1277165568	86	24013
2026-01-06 04:12:27.44	280.24	3.63	-60.5	-76.6	3.8	1.49e+00	0	26	104	1277165568	86	23919
2026-01-06 04:12:31.43	279.98	3.39	-60.4	-76.5	3.8	1.49e+00	0	26	104	1277165568	86	23854
2026-01-06 04:12:35.42	279.73	3.15	-60.3	-76.5	3.8	1.49e+00	0	26	104	1277165568	86	23633
2026-01-06 04:12:39.42	279.48	2.91	-60.3	-76.4	3.8	1.49e+00	0	26	104	1277165568	86	23457
2026-01-06 04:12:43.41	279.23	2.67	-60.3	-76.4	3.8	1.49e+00	0	26	104	1277165568	86	23335
2026-01-06 04:12:47.41	278.99	2.44	-60.3	-76.4	3.8	1.49e+00	0	26	104	1277165568	86	23346
2026-01-06 04:12:51.41	278.75	2.21	-60.2	-76.3	3.8	1.49e+00	0	26	104	1277165568	86	23281
2026-01-06 04:12:55.41	278.51	1.97	-60.2	-76.3	3.8	1.49e+00	0	26	104	1277165568	86	23229

#Closed at: 2026-01-06 04:12:56
#Recorded file [1277 MB]: D:/lorett/data/31004_260106_070000.dat