passes_logs/2026/01/06/R3.2S_Murmansk/R3.2S_Murmansk__20260106_012955_AQUA_rec.log

#Pass ID: 20260106_012955_AQUA
#Satellite: AQUA
#Configuration: AQUA
#almurnet v.1.7.20251203
#Start time: 2026-01-06 01:29:56

#Version: 2.2.20231116
#Station: R3.2S_Murmansk
#Location: 33.079688 lon 68.888172 lat
#TLE: 1 27424U 02022A   26004.96787593  .00001598  00000+0  32997-3 0  9996
#TLE: 2 27424  98.4069 331.2279 0002002  90.2377   0.6092 14.61798176259425

#Time	Az	El	Level	Level2	SNR	BER	BlckErr	Temp	State	Recorded	gain1	gain2
2026-01-06 01:29:56.43	21.91	2.05	-57.8	-76.3	3.8	7.45e-01	0	24	0	0	84	30325
2026-01-06 01:30:00.43	22.04	2.31	-57.5	-73.3	3.9	7.39e-01	0	24	104	0	82	24060
2026-01-06 01:30:04.41	22.17	2.57	-57.4	-72.5	3.9	7.37e-01	0	24	104	0	82	21954
2026-01-06 01:30:08.41	22.30	2.84	-57.5	-72.9	4.3	7.30e-01	0	24	104	0	82	22794
2026-01-06 01:30:12.40	22.43	3.11	-57.3	-70.0	5.7	6.92e-01	76	25	0	524288	82	16448
2026-01-06 01:30:16.38	22.56	3.38	-57.1	-67.5	7.6	6.46e-01	67	25	0	7864320	82	12248
2026-01-06 01:30:20.37	22.70	3.65	-57.2	-67.5	7.6	6.47e-01	74	25	0	15204352	82	12316
2026-01-06 01:30:24.36	22.84	3.93	-56.6	-63.9	10.6	6.14e-01	0	25	0	22544384	82	8148
2026-01-06 01:30:28.34	22.98	4.20	-54.9	-59.2	13.7	6.00e-01	0	25	0	30408704	79	5609
2026-01-06 01:30:32.32	23.12	4.49	-54.0	-57.4	14.4	6.01e-01	0	25	0	37748736	77	5126
2026-01-06 01:30:36.30	23.27	4.77	-54.4	-58.1	13.9	6.01e-01	0	25	0	45088768	76	5919
2026-01-06 01:30:40.28	23.42	5.06	-55.2	-59.6	13.3	6.02e-01	0	25	0	52428800	78	6261
2026-01-06 01:30:44.26	23.57	5.35	-52.4	-55.0	15.0	5.99e-01	0	25	0	59768832	74	4600
2026-01-06 01:30:48.23	23.72	5.65	-51.6	-53.8	15.2	6.00e-01	0	25	0	67633152	72	4525
2026-01-06 01:30:52.20	23.88	5.95	-51.3	-53.4	15.2	6.01e-01	0	25	0	74973184	71	4567
2026-01-06 01:30:56.20	24.04	6.25	-51.2	-53.3	15.2	6.01e-01	0	25	0	82313216	71	4515
2026-01-06 01:31:00.19	24.20	6.56	-51.2	-53.3	15.3	5.99e-01	0	25	0	89653248	71	4524
2026-01-06 01:31:04.18	24.37	6.87	-51.2	-53.3	15.3	6.00e-01	0	26	0	97517568	71	4509
2026-01-06 01:31:08.19	24.55	7.19	-51.2	-53.3	15.3	6.02e-01	0	26	0	104857600	71	4510
2026-01-06 01:31:12.20	24.72	7.51	-51.0	-53.0	15.4	6.01e-01	0	25	0	112197632	71	4391
2026-01-06 01:31:16.18	24.90	7.83	-50.9	-52.9	15.4	6.03e-01	0	25	0	120061952	71	4314
2026-01-06 01:31:20.18	25.08	8.16	-50.9	-52.9	15.3	6.02e-01	0	25	0	127401984	70	4549
2026-01-06 01:31:24.17	25.27	8.49	-50.8	-52.7	15.3	6.01e-01	0	26	0	134742016	70	4492
2026-01-06 01:31:28.18	25.46	8.83	-50.7	-52.6	15.4	6.03e-01	0	26	0	142082048	70	4430
2026-01-06 01:31:32.17	25.66	9.18	-50.7	-52.6	15.4	6.01e-01	0	26	0	149946368	70	4434
2026-01-06 01:31:36.16	25.86	9.52	-50.6	-52.5	15.4	6.02e-01	0	26	0	157286400	70	4357
2026-01-06 01:31:40.17	26.07	9.88	-50.4	-52.3	15.5	6.02e-01	0	25	0	164626432	70	4258
2026-01-06 01:31:44.16	26.28	10.24	-50.4	-52.3	15.5	6.00e-01	0	25	0	172490752	70	4250
2026-01-06 01:31:48.17	26.49	10.60	-50.3	-52.2	15.4	6.01e-01	0	25	0	179830784	69	4456
2026-01-06 01:31:52.18	26.71	10.98	-50.4	-52.2	15.4	6.02e-01	0	25	0	187170816	69	4479
2026-01-06 01:31:56.19	26.94	11.35	-50.3	-52.2	15.4	6.00e-01	0	26	0	195035136	69	4446
2026-01-06 01:32:00.20	27.18	11.74	-50.2	-52.0	15.4	5.99e-01	0	26	0	202375168	69	4374
2026-01-06 01:32:04.22	27.42	12.13	-50.3	-52.0	15.4	6.00e-01	0	26	0	209715200	69	4390
2026-01-06 01:32:08.21	27.66	12.53	-50.2	-51.9	15.5	6.01e-01	0	26	0	217579520	69	4330
2026-01-06 01:32:12.21	27.91	12.93	-50.0	-51.8	15.5	6.02e-01	0	26	0	224919552	69	4260
2026-01-06 01:32:16.21	28.17	13.34	-50.0	-51.7	15.5	6.03e-01	0	26	0	232259584	69	4235
2026-01-06 01:32:20.21	28.44	13.76	-49.7	-51.4	15.4	6.02e-01	0	26	0	240123904	68	4339
2026-01-06 01:32:24.22	28.72	14.19	-49.7	-51.4	15.5	6.02e-01	0	26	0	247463936	68	4325
2026-01-06 01:32:28.23	29.00	14.62	-49.8	-51.5	15.4	6.01e-01	0	26	0	254803968	68	4377
2026-01-06 01:32:32.23	29.29	15.06	-49.8	-51.6	15.4	6.00e-01	0	26	0	262668288	68	4398
2026-01-06 01:32:36.21	29.59	15.51	-49.7	-51.4	15.5	6.00e-01	0	26	0	270008320	68	4311
2026-01-06 01:32:40.21	29.90	15.97	-49.8	-51.5	15.5	6.01e-01	0	26	0	277348352	68	4341
2026-01-06 01:32:44.23	30.22	16.44	-49.8	-51.4	15.5	6.02e-01	0	26	0	285212672	68	4337
2026-01-06 01:32:48.22	30.55	16.91	-49.6	-51.2	15.5	6.01e-01	0	26	0	292552704	68	4231
2026-01-06 01:32:52.24	30.89	17.40	-49.6	-51.2	15.5	6.02e-01	0	26	0	299892736	68	4234
2026-01-06 01:32:56.25	31.24	17.90	-49.7	-51.4	15.5	6.00e-01	0	26	0	307232768	68	4305
2026-01-06 01:33:00.25	31.60	18.41	-49.6	-51.2	15.5	6.01e-01	0	26	0	315097088	68	4229
2026-01-06 01:33:04.24	31.98	18.93	-49.5	-51.1	15.6	6.00e-01	0	26	0	322437120	68	4168
2026-01-06 01:33:08.23	32.37	19.45	-49.6	-51.2	15.5	5.98e-01	0	26	0	329777152	68	4242
2026-01-06 01:33:12.20	32.76	19.99	-49.6	-51.2	15.5	6.02e-01	0	26	0	337641472	68	4237
2026-01-06 01:33:16.19	33.18	20.54	-49.5	-51.2	15.5	6.02e-01	0	26	0	344981504	68	4205
2026-01-06 01:33:20.18	33.61	21.10	-49.9	-51.6	15.4	6.03e-01	0	26	0	352321536	68	4396
2026-01-06 01:33:24.19	34.06	21.68	-49.7	-51.4	15.5	6.04e-01	0	26	0	359661568	68	4299
2026-01-06 01:33:28.18	34.53	22.27	-49.9	-51.6	15.4	6.00e-01	0	26	0	367525888	68	4398
2026-01-06 01:33:32.17	35.01	22.87	-49.9	-51.5	15.4	6.01e-01	0	26	0	374865920	68	4377
2026-01-06 01:33:36.17	35.52	23.49	-50.0	-51.7	15.4	6.02e-01	0	26	0	382205952	68	4472
2026-01-06 01:33:40.16	36.04	24.12	-49.9	-51.5	15.4	5.99e-01	0	26	0	389545984	68	4390
2026-01-06 01:33:44.15	36.59	24.76	-50.1	-51.8	15.3	6.02e-01	0	26	0	397410304	68	4529
2026-01-06 01:33:48.14	37.15	25.42	-50.0	-51.7	15.4	6.00e-01	0	26	0	404750336	68	4453
2026-01-06 01:33:52.14	37.75	26.10	-50.2	-52.0	15.3	6.01e-01	0	26	0	412090368	68	4604
2026-01-06 01:33:56.15	38.37	26.79	-49.8	-51.5	15.4	6.01e-01	0	26	0	419954688	68	4364
2026-01-06 01:34:00.14	39.02	27.50	-49.9	-51.5	15.4	6.00e-01	0	26	0	427294720	68	4370
2026-01-06 01:34:04.11	39.70	28.22	-50.0	-51.7	15.4	6.02e-01	0	26	0	434634752	68	4487
2026-01-06 01:34:08.11	40.41	28.96	-49.8	-51.5	15.4	6.01e-01	0	26	0	441974784	68	4347
2026-01-06 01:34:12.10	41.15	29.71	-49.8	-51.5	15.4	6.02e-01	0	26	0	449839104	68	4341
2026-01-06 01:34:16.10	41.93	30.49	-49.9	-51.5	15.4	5.99e-01	0	26	0	457179136	68	4384
2026-01-06 01:34:20.09	42.75	31.27	-49.9	-51.6	15.4	5.99e-01	0	26	0	464519168	68	4395
2026-01-06 01:34:24.09	43.62	32.08	-50.0	-51.6	15.4	6.02e-01	0	26	0	472383488	68	4427
2026-01-06 01:34:28.08	44.52	32.91	-50.2	-51.9	15.3	6.01e-01	0	26	0	479723520	68	4562
2026-01-06 01:34:32.09	45.48	33.75	-50.2	-51.9	15.3	6.03e-01	0	26	0	487063552	68	4570
2026-01-06 01:34:36.09	46.49	34.61	-50.6	-52.3	15.2	6.00e-01	0	26	0	494927872	68	4803
2026-01-06 01:34:40.09	47.55	35.48	-50.9	-52.6	15.2	5.99e-01	0	26	0	502267904	69	4705
2026-01-06 01:34:44.09	48.68	36.37	-50.9	-52.7	15.2	5.98e-01	0	26	0	509607936	69	4718
2026-01-06 01:34:48.10	49.87	37.27	-51.0	-52.8	15.3	6.01e-01	0	26	0	516947968	70	4523
2026-01-06 01:34:52.11	51.12	38.19	-51.0	-52.8	15.3	6.01e-01	0	26	0	524812288	70	4503
2026-01-06 01:34:56.11	52.45	39.12	-50.9	-52.7	15.3	6.01e-01	0	26	0	532152320	70	4471
2026-01-06 01:35:00.12	53.87	40.05	-50.9	-52.7	15.3	6.00e-01	0	26	0	539492352	70	4481
2026-01-06 01:35:04.12	55.36	41.00	-50.4	-52.1	15.5	6.03e-01	0	26	0	547356672	70	4162
2026-01-06 01:35:08.11	56.94	41.94	-50.1	-51.8	15.5	5.98e-01	0	26	0	554696704	69	4253
2026-01-06 01:35:12.13	58.62	42.89	-49.6	-51.2	15.5	6.03e-01	0	26	0	562036736	68	4227
2026-01-06 01:35:16.11	60.40	43.83	-49.3	-50.9	15.4	6.03e-01	0	26	0	569901056	67	4324
2026-01-06 01:35:20.10	62.28	44.76	-49.1	-50.6	15.5	6.01e-01	0	26	0	577241088	67	4169
2026-01-06 01:35:24.11	64.29	45.69	-49.1	-50.7	15.5	5.99e-01	0	26	0	584581120	67	4195
2026-01-06 01:35:28.10	66.41	46.59	-49.2	-50.8	15.5	6.00e-01	0	26	0	592445440	67	4248
2026-01-06 01:35:32.10	68.66	47.47	-49.3	-50.9	15.5	6.01e-01	0	26	0	599785472	67	4298
2026-01-06 01:35:36.09	71.03	48.32	-49.5	-51.1	15.4	6.01e-01	0	26	0	607125504	67	4409
2026-01-06 01:35:40.07	73.53	49.13	-49.3	-50.9	15.5	6.01e-01	0	26	0	614465536	67	4314
2026-01-06 01:35:44.06	76.17	49.90	-49.5	-51.1	15.4	5.99e-01	0	26	0	622329856	67	4440
2026-01-06 01:35:48.07	78.95	50.61	-49.4	-50.9	15.4	6.00e-01	0	26	0	629669888	67	4334
2026-01-06 01:35:52.06	81.85	51.26	-49.4	-51.0	15.4	6.01e-01	0	26	0	637009920	67	4343
2026-01-06 01:35:56.06	84.88	51.85	-49.7	-51.3	15.4	5.99e-01	0	26	0	644349952	67	4502
2026-01-06 01:36:00.07	88.03	52.35	-50.3	-51.9	15.3	6.02e-01	0	26	0	652214272	68	4595
2026-01-06 01:36:04.06	91.27	52.77	-50.3	-52.0	15.4	6.01e-01	0	26	0	659554304	69	4361
2026-01-06 01:36:08.08	94.61	53.10	-49.9	-51.5	15.4	5.99e-01	0	26	0	667418624	68	4376
2026-01-06 01:36:12.08	98.01	53.33	-50.1	-51.8	15.3	6.01e-01	0	26	0	674758656	68	4507
2026-01-06 01:36:16.07	101.43	53.46	-50.2	-51.9	15.3	6.01e-01	0	26	0	682098688	68	4557
2026-01-06 01:36:20.07	104.89	53.49	-50.1	-51.7	15.4	6.00e-01	0	26	0	689438720	68	4490
2026-01-06 01:36:24.07	108.34	53.41	-50.1	-51.7	15.4	5.99e-01	0	26	0	697303040	68	4478
2026-01-06 01:36:28.06	111.75	53.24	-50.1	-51.8	15.4	5.98e-01	0	26	0	704643072	68	4495
2026-01-06 01:36:32.05	115.11	52.96	-50.0	-51.7	15.4	6.01e-01	0	26	0	711983104	68	4459
2026-01-06 01:36:36.05	118.41	52.59	-50.0	-51.6	15.4	5.99e-01	0	26	0	719847424	68	4426
2026-01-06 01:36:40.06	121.62	52.13	-49.9	-51.6	15.4	6.02e-01	0	26	0	727187456	68	4396
2026-01-06 01:36:44.07	124.72	51.59	-50.3	-52.0	15.4	5.98e-01	0	26	0	734527488	69	4363
2026-01-06 01:36:48.07	127.70	50.97	-50.5	-52.3	15.3	6.02e-01	0	26	0	741867520	69	4497
2026-01-06 01:36:52.07	130.55	50.29	-50.6	-52.4	15.3	5.99e-01	0	26	0	749731840	69	4565
2026-01-06 01:36:56.07	133.27	49.54	-50.6	-52.3	15.3	5.99e-01	0	26	0	757071872	69	4514
2026-01-06 01:37:00.06	135.85	48.75	-50.5	-52.2	15.3	5.99e-01	0	26	0	764411904	69	4475
2026-01-06 01:37:04.09	138.32	47.91	-50.6	-52.3	15.3	6.02e-01	0	26	0	772276224	69	4519
2026-01-06 01:37:08.10	140.65	47.04	-50.9	-52.7	15.2	5.98e-01	0	26	0	779616256	69	4729
2026-01-06 01:37:12.09	142.84	46.15	-50.5	-52.3	15.4	6.00e-01	0	26	0	786956288	69	4495
2026-01-06 01:37:16.09	144.91	45.23	-50.4	-52.1	15.3	6.00e-01	0	26	0	794820608	69	4439
2026-01-06 01:37:20.11	146.87	44.29	-50.3	-52.0	15.4	6.02e-01	0	26	0	802160640	69	4371
2026-01-06 01:37:24.12	148.72	43.35	-50.4	-52.0	15.4	5.98e-01	0	26	0	809500672	69	4391
2026-01-06 01:37:28.14	150.46	42.39	-50.5	-52.3	15.3	6.00e-01	0	26	0	817364992	69	4495
2026-01-06 01:37:32.14	152.09	41.44	-50.6	-52.4	15.3	6.02e-01	0	26	0	824705024	69	4566
2026-01-06 01:37:36.15	153.64	40.49	-50.5	-52.2	15.3	6.01e-01	0	26	0	832045056	69	4468
2026-01-06 01:37:40.15	155.09	39.55	-50.4	-52.1	15.4	5.99e-01	0	26	0	839909376	69	4425
2026-01-06 01:37:44.17	156.47	38.61	-50.6	-52.4	15.3	6.04e-01	0	26	0	847249408	69	4570
2026-01-06 01:37:48.19	157.77	37.68	-50.4	-52.1	15.4	6.01e-01	0	26	0	855113728	69	4427
2026-01-06 01:37:52.19	158.99	36.77	-49.8	-51.4	15.4	6.02e-01	0	26	0	862453760	68	4338
2026-01-06 01:37:56.18	160.14	35.88	-49.9	-51.6	15.4	6.00e-01	0	26	0	869793792	68	4398
2026-01-06 01:38:00.19	161.24	34.99	-49.4	-51.0	15.6	5.99e-01	0	26	0	877133824	68	4103
2026-01-06 01:38:04.18	162.27	34.12	-49.2	-50.7	15.5	6.02e-01	0	26	0	884998144	67	4227
2026-01-06 01:38:08.17	163.25	33.27	-48.9	-50.4	15.6	6.00e-01	0	26	0	892338176	67	4098
2026-01-06 01:38:12.18	164.19	32.43	-48.8	-50.3	15.5	5.99e-01	0	26	0	899678208	66	4286
2026-01-06 01:38:16.19	165.08	31.61	-48.7	-50.2	15.5	6.00e-01	0	26	0	907542528	66	4237
2026-01-06 01:38:20.19	165.92	30.81	-48.7	-50.2	15.5	6.01e-01	0	26	0	914882560	66	4221
2026-01-06 01:38:24.18	166.72	30.02	-48.9	-50.4	15.4	5.99e-01	0	26	0	922222592	66	4329
2026-01-06 01:38:28.17	167.48	29.26	-49.0	-50.6	15.4	6.02e-01	0	26	0	929562624	66	4403
2026-01-06 01:38:32.15	168.21	28.51	-49.3	-50.9	15.3	6.01e-01	0	26	0	937426944	66	4554
2026-01-06 01:38:36.13	168.90	27.78	-49.0	-50.6	15.4	6.00e-01	0	26	0	944766976	66	4407
2026-01-06 01:38:40.12	169.56	27.06	-49.4	-51.1	15.3	6.04e-01	0	26	0	952107008	66	4661
2026-01-06 01:38:44.10	170.19	26.36	-49.7	-51.3	15.3	6.01e-01	0	26	0	959447040	67	4538
2026-01-06 01:38:48.06	170.80	25.68	-49.5	-51.1	15.4	6.00e-01	0	26	0	967311360	67	4432
2026-01-06 01:38:52.03	171.37	25.02	-49.6	-51.2	15.4	6.01e-01	0	26	0	974651392	67	4472
2026-01-06 01:38:56.00	171.93	24.36	-49.7	-51.3	15.4	6.01e-01	0	26	0	981991424	67	4519
2026-01-06 01:38:59.98	172.46	23.73	-49.7	-51.4	15.3	6.03e-01	0	26	0	989331456	67	4582
2026-01-06 01:39:03.97	172.98	23.10	-49.8	-51.5	15.3	6.02e-01	0	26	0	996671488	67	4611
2026-01-06 01:39:07.95	173.47	22.49	-49.6	-51.3	15.3	6.01e-01	0	26	0	1004535808	67	4505
2026-01-06 01:39:11.92	173.94	21.90	-49.5	-51.2	15.4	6.01e-01	0	26	0	1011875840	67	4458
2026-01-06 01:39:15.89	174.39	21.32	-49.6	-51.2	15.4	5.99e-01	0	26	0	1019215872	67	4468
2026-01-06 01:39:19.88	174.83	20.74	-49.5	-51.1	15.4	6.01e-01	0	26	0	1026555904	67	4439
2026-01-06 01:39:23.86	175.26	20.19	-49.5	-51.2	15.4	5.99e-01	0	26	0	1034420224	67	4449
2026-01-06 01:39:27.84	175.66	19.64	-49.6	-51.3	15.3	6.00e-01	0	26	0	1041760256	67	4507
2026-01-06 01:39:31.83	176.06	19.10	-49.6	-51.3	15.3	6.00e-01	0	26	0	1049100288	67	4522
2026-01-06 01:39:35.82	176.44	18.58	-49.6	-51.3	15.4	6.00e-01	0	26	0	1056440320	67	4502
2026-01-06 01:39:39.81	176.81	18.07	-49.4	-51.1	15.4	5.99e-01	0	26	0	1064304640	67	4400
2026-01-06 01:39:43.81	177.16	17.56	-49.3	-50.9	15.5	5.99e-01	0	26	0	1071644672	67	4317
2026-01-06 01:39:47.80	177.51	17.07	-49.3	-50.9	15.5	5.99e-01	0	26	0	1078984704	67	4327
2026-01-06 01:39:51.79	177.84	16.59	-49.4	-51.1	15.4	6.01e-01	0	26	0	1086849024	67	4404
2026-01-06 01:39:55.79	178.16	16.11	-49.4	-51.0	15.4	6.00e-01	0	26	0	1094189056	67	4373
2026-01-06 01:39:59.79	178.48	15.65	-49.5	-51.2	15.4	6.00e-01	0	26	0	1101529088	67	4466
2026-01-06 01:40:03.79	178.78	15.19	-49.5	-51.2	15.4	6.02e-01	0	26	0	1109393408	67	4455
2026-01-06 01:40:07.81	179.08	14.74	-49.6	-51.3	15.3	6.02e-01	0	26	0	1116733440	67	4503
2026-01-06 01:40:11.81	179.36	14.30	-49.5	-51.1	15.4	5.99e-01	0	26	0	1124073472	67	4431
2026-01-06 01:40:15.81	179.64	13.87	-49.5	-51.2	15.3	6.01e-01	0	26	0	1131413504	67	4466
2026-01-06 01:40:19.82	179.91	13.44	-49.5	-51.1	15.4	6.00e-01	0	26	0	1139277824	67	4431
2026-01-06 01:40:23.81	180.17	13.03	-49.5	-51.2	15.4	6.01e-01	0	26	0	1146617856	67	4467
2026-01-06 01:40:27.82	180.43	12.62	-49.6	-51.3	15.3	6.00e-01	0	26	0	1153957888	67	4545
2026-01-06 01:40:31.84	180.67	12.22	-49.7	-51.4	15.3	6.01e-01	0	26	0	1161822208	67	4570
2026-01-06 01:40:35.84	180.92	11.82	-49.8	-51.6	15.3	6.00e-01	0	26	0	1169162240	67	4668
2026-01-06 01:40:39.83	181.15	11.43	-49.8	-51.6	15.3	6.03e-01	0	26	0	1176502272	67	4665
2026-01-06 01:40:43.78	181.38	11.06	-49.9	-51.6	15.3	6.01e-01	0	26	0	1183842304	67	4685
2026-01-06 01:40:47.80	181.60	10.68	-49.9	-51.7	15.2	6.00e-01	0	26	0	1191706624	67	4747
2026-01-06 01:40:51.81	181.82	10.31	-49.8	-51.6	15.3	6.01e-01	0	26	0	1199046656	67	4659
2026-01-06 01:40:55.82	182.03	9.94	-49.9	-51.7	15.2	6.02e-01	0	26	0	1206386688	67	4710
2026-01-06 01:40:59.82	182.24	9.59	-50.0	-51.8	15.2	6.00e-01	0	26	0	1214251008	67	4774
2026-01-06 01:41:03.83	182.44	9.23	-50.1	-51.9	15.3	6.01e-01	0	26	0	1221591040	68	4574
2026-01-06 01:41:07.84	182.63	8.88	-50.3	-52.1	15.2	5.99e-01	0	26	0	1228931072	68	4670
2026-01-06 01:41:11.86	182.83	8.54	-50.2	-52.1	15.2	5.98e-01	0	26	0	1236795392	68	4669
2026-01-06 01:41:15.85	183.01	8.20	-50.4	-52.3	15.2	6.00e-01	0	26	0	1244135424	68	4794
2026-01-06 01:41:19.87	183.20	7.87	-50.5	-52.4	15.1	5.99e-01	0	26	0	1251475456	68	4866
2026-01-06 01:41:23.87	183.38	7.54	-50.6	-52.6	15.2	5.99e-01	0	26	0	1259339776	69	4659
2026-01-06 01:41:27.88	183.55	7.21	-50.7	-52.6	15.2	6.01e-01	0	26	0	1266679808	69	4687
2026-01-06 01:41:31.90	183.73	6.89	-50.8	-52.8	15.1	5.98e-01	0	26	0	1274019840	69	4776
2026-01-06 01:41:35.91	183.89	6.58	-50.8	-52.9	15.1	6.00e-01	0	26	0	1281884160	69	4819
2026-01-06 01:41:39.93	184.06	6.26	-50.9	-53.0	15.1	6.00e-01	0	26	0	1289224192	69	4881
2026-01-06 01:41:43.94	184.22	5.96	-50.9	-52.9	15.1	6.00e-01	0	26	0	1296564224	69	4847
2026-01-06 01:41:47.95	184.38	5.65	-51.0	-53.2	15.0	6.01e-01	0	26	0	1304428544	69	4992
2026-01-06 01:41:51.96	184.53	5.35	-51.2	-53.3	15.1	6.01e-01	0	26	0	1311768576	70	4797
2026-01-06 01:41:55.96	184.68	5.06	-51.3	-53.5	15.0	5.99e-01	0	26	0	1319108608	70	4912
2026-01-06 01:41:59.96	184.83	4.76	-59.0	-78.4	3.8	7.46e-01	0	26	104	1321205760	85	36262
2026-01-06 01:42:03.95	184.98	4.48	-59.4	-78.8	3.8	7.48e-01	0	26	104	1321205760	86	35884
2026-01-06 01:42:07.93	185.12	4.19	-59.6	-79.0	3.8	7.45e-01	0	26	104	1321205760	86	36695
2026-01-06 01:42:11.91	185.26	3.91	-59.7	-79.1	3.8	7.46e-01	0	26	104	1321205760	87	35092
2026-01-06 01:42:15.89	185.40	3.63	-59.8	-79.2	3.8	7.44e-01	0	26	104	1321205760	87	35513
2026-01-06 01:42:19.90	185.53	3.35	-59.8	-79.2	3.8	7.48e-01	0	26	104	1321205760	87	35570
2026-01-06 01:42:23.92	185.66	3.08	-59.8	-79.2	3.8	7.49e-01	0	26	104	1321205760	87	35462
2026-01-06 01:42:27.93	185.79	2.81	-59.8	-79.2	3.8	7.47e-01	0	26	104	1321205760	87	35400
2026-01-06 01:42:31.95	185.92	2.54	-59.8	-79.1	3.8	7.44e-01	0	26	104	1321205760	87	35180
2026-01-06 01:42:35.96	186.05	2.27	-59.7	-79.1	3.8	7.44e-01	0	26	104	1321205760	87	35220
2026-01-06 01:42:39.98	186.17	2.01	-59.7	-79.1	3.8	7.47e-01	0	26	104	1321205760	87	35237

#Closed at: 2026-01-06 01:42:40
#Recorded file [1321 MB]: D:/lorett/data/31004_260106_042956.dat