passes_logs/2026/01/06/R3.2S_Murmansk/R3.2S_Murmansk__20260106_071751_SUOMI_NPP_rec.log

#Pass ID: 20260106_071751_SUOMI NPP
#Satellite: SUOMI NPP
#Configuration: NPP
#almurnet v.1.7.20251203
#Start time: 2026-01-06 07:17:51

#Version: 2.2.20231116
#Station: R3.2S_Murmansk
#Location: 33.079688 lon 68.888172 lat
#TLE: 1 37849U 11061A   26004.95404768  .00000136  00000+0  85334-4 0  9991
#TLE: 2 37849  98.7801 307.0898 0002575  80.6707 279.4760 14.19522289735281

#Time	Az	El	Level	Level2	SNR	BER	BlckErr	Temp	State	Recorded	gain1	gain2
2026-01-06 07:17:51.29	99.66	1.99	-58.0	-74.0	3.8	1.49e+00	0	24	0	0	82	22316
2026-01-06 07:17:55.26	99.47	2.23	-57.9	-73.9	3.8	1.49e+00	0	24	104	0	80	24894
2026-01-06 07:17:59.24	99.28	2.48	-57.9	-73.9	3.8	1.49e+00	0	24	104	0	80	24863
2026-01-06 07:18:03.21	99.08	2.72	-57.9	-74.0	3.8	1.49e+00	0	24	104	0	81	23624
2026-01-06 07:18:07.18	98.89	2.96	-57.9	-74.0	3.8	1.49e+00	0	24	104	0	81	23593
2026-01-06 07:18:11.16	98.68	3.21	-57.9	-73.9	3.8	1.49e+00	0	24	104	0	81	23539
2026-01-06 07:18:15.14	98.48	3.46	-57.9	-73.9	3.8	1.49e+00	0	24	104	0	81	23453
2026-01-06 07:18:19.12	98.26	3.71	-57.9	-73.8	3.8	1.49e+00	0	24	104	0	81	23095
2026-01-06 07:18:23.08	98.05	3.96	-58.0	-74.0	3.8	1.49e+00	0	24	104	0	81	23684
2026-01-06 07:18:27.06	97.83	4.22	-57.9	-72.9	3.8	1.49e+00	0	24	104	0	81	20860
2026-01-06 07:18:31.03	97.61	4.48	-57.7	-69.5	4.5	1.29e+00	5	24	0	0	81	14091
2026-01-06 07:18:35.00	97.38	4.73	-57.5	-67.0	5.7	3.99e-01	0	25	0	8388608	81	10651
2026-01-06 07:18:38.98	97.15	5.00	-57.2	-65.3	7.0	1.36e-01	0	25	0	15728640	81	8695
2026-01-06 07:18:42.97	96.92	5.26	-57.9	-70.9	4.1	1.36e-02	0	25	0	23068672	80	17549
2026-01-06 07:18:46.95	96.68	5.53	-55.6	-59.7	11.6	2.82e-05	0	25	0	29360128	77	5776
2026-01-06 07:18:50.92	96.43	5.79	-56.0	-60.7	10.8	1.97e-04	0	25	0	36700160	77	6493
2026-01-06 07:18:54.90	96.18	6.06	-55.4	-59.1	12.1	2.20e-06	0	25	0	45088768	77	5382
2026-01-06 07:18:58.87	95.93	6.33	-54.5	-57.6	13.0	0.00e+00	0	25	0	52428800	75	5063
2026-01-06 07:19:02.84	95.67	6.61	-54.5	-57.5	13.0	0.00e+00	0	25	0	59768832	75	5017
2026-01-06 07:19:06.80	95.41	6.88	-54.0	-56.7	13.4	0.00e+00	0	25	0	67108864	74	4839
2026-01-06 07:19:10.74	95.14	7.16	-54.1	-56.9	13.3	0.00e+00	0	25	0	74448896	74	4942
2026-01-06 07:19:14.73	94.86	7.44	-53.9	-56.6	13.5	0.00e+00	0	25	0	81788928	74	4796
2026-01-06 07:19:18.69	94.58	7.73	-53.8	-56.4	13.5	0.00e+00	0	25	0	89128960	73	4980
2026-01-06 07:19:22.67	94.29	8.01	-54.1	-56.9	13.2	0.00e+00	0	25	0	96468992	73	5232
2026-01-06 07:19:26.64	94.00	8.30	-53.6	-56.5	13.5	0.00e+00	0	25	0	103809024	73	5027
2026-01-06 07:19:30.61	93.70	8.59	-53.7	-56.7	13.3	0.00e+00	0	25	0	111149056	73	5145
2026-01-06 07:19:34.57	93.40	8.89	-53.6	-56.6	13.4	0.00e+00	0	25	0	119537664	73	5082
2026-01-06 07:19:38.54	93.09	9.18	-53.5	-56.4	13.6	0.00e+00	0	25	0	126877696	73	4936
2026-01-06 07:19:42.52	92.77	9.48	-53.5	-56.3	13.6	0.00e+00	0	25	0	134217728	73	4886
2026-01-06 07:19:46.49	92.44	9.78	-53.8	-56.8	13.3	0.00e+00	0	25	0	141557760	73	5181
2026-01-06 07:19:50.47	92.11	10.09	-53.6	-56.4	13.6	0.00e+00	0	25	0	148897792	73	4968
2026-01-06 07:19:54.44	91.77	10.40	-53.6	-56.5	13.5	0.00e+00	0	25	0	156237824	73	4997
2026-01-06 07:19:58.41	91.43	10.71	-53.4	-56.2	13.7	0.00e+00	0	25	0	163577856	73	4820
2026-01-06 07:20:02.38	91.07	11.02	-53.3	-56.0	13.7	0.00e+00	0	25	0	170917888	72	5006
2026-01-06 07:20:06.36	90.71	11.34	-52.9	-55.4	14.0	0.00e+00	0	25	0	178257920	72	4701
2026-01-06 07:20:10.33	90.34	11.66	-52.9	-55.4	14.0	0.00e+00	0	25	0	185597952	72	4692
2026-01-06 07:20:14.30	89.96	11.98	-52.8	-55.1	14.2	0.00e+00	0	25	0	193986560	72	4542
2026-01-06 07:20:18.27	89.57	12.30	-52.9	-55.3	14.1	0.00e+00	0	26	0	201326592	72	4635
2026-01-06 07:20:22.25	89.17	12.63	-52.7	-55.0	14.1	0.00e+00	0	25	0	208666624	71	4727
2026-01-06 07:20:26.21	88.77	12.96	-52.7	-55.0	14.1	0.00e+00	0	26	0	216006656	71	4758
2026-01-06 07:20:30.18	88.35	13.30	-52.8	-55.1	14.0	0.00e+00	0	26	0	223346688	71	4801
2026-01-06 07:20:34.16	87.93	13.64	-52.7	-55.0	14.2	0.00e+00	0	26	0	230686720	71	4716
2026-01-06 07:20:38.13	87.49	13.98	-53.1	-55.5	13.8	0.00e+00	0	26	0	238026752	71	5041
2026-01-06 07:20:42.10	87.05	14.32	-52.8	-55.2	14.0	0.00e+00	0	26	0	245366784	71	4860
2026-01-06 07:20:46.09	86.59	14.67	-52.7	-55.2	14.0	0.00e+00	0	26	0	252706816	71	4831
2026-01-06 07:20:50.06	86.12	15.02	-52.8	-55.2	14.0	0.00e+00	0	26	0	261095424	71	4868
2026-01-06 07:20:54.03	85.64	15.37	-52.7	-55.1	14.1	0.00e+00	0	26	0	268435456	71	4771
2026-01-06 07:20:58.00	85.15	15.73	-52.8	-55.1	14.1	0.00e+00	0	26	0	275775488	71	4792
2026-01-06 07:21:01.98	84.65	16.09	-52.3	-54.4	14.5	0.00e+00	0	26	0	283115520	71	4417
2026-01-06 07:21:05.95	84.13	16.45	-52.7	-55.0	14.0	0.00e+00	0	26	0	290455552	70	4997
2026-01-06 07:21:09.91	83.60	16.81	-53.1	-55.6	13.9	0.00e+00	0	26	0	297795584	71	5053
2026-01-06 07:21:13.87	83.06	17.18	-53.3	-55.9	13.7	0.00e+00	0	26	0	305135616	71	5254
2026-01-06 07:21:17.81	82.51	17.54	-53.5	-56.2	13.7	0.00e+00	0	26	0	312475648	72	5104
2026-01-06 07:21:21.77	81.95	17.92	-53.1	-55.5	14.0	0.00e+00	0	26	0	319815680	72	4743
2026-01-06 07:21:25.74	81.36	18.29	-52.9	-55.3	14.1	0.00e+00	0	26	0	327155712	72	4647
2026-01-06 07:21:29.71	80.76	18.67	-52.7	-55.0	14.3	0.00e+00	0	26	0	334495744	72	4461
2026-01-06 07:21:33.68	80.15	19.05	-52.8	-55.3	14.1	0.00e+00	0	26	0	341835776	71	4875
2026-01-06 07:21:37.65	79.52	19.43	-52.6	-54.8	14.3	0.00e+00	0	26	0	350224384	71	4624
2026-01-06 07:21:41.63	78.87	19.82	-52.5	-54.7	14.4	0.00e+00	0	26	0	357564416	71	4570
2026-01-06 07:21:45.62	78.21	20.21	-53.2	-55.7	13.9	0.00e+00	0	26	0	364904448	71	5126
2026-01-06 07:21:49.59	77.53	20.60	-53.1	-55.6	14.0	0.00e+00	0	26	0	372244480	72	4779
2026-01-06 07:21:53.56	76.83	20.99	-52.9	-55.3	14.2	0.00e+00	0	26	0	379584512	72	4639
2026-01-06 07:21:57.53	76.11	21.38	-52.3	-54.5	14.5	0.00e+00	0	26	0	386924544	71	4455
2026-01-06 07:22:01.50	75.38	21.77	-52.1	-54.2	14.4	0.00e+00	0	26	0	394264576	70	4596
2026-01-06 07:22:05.46	74.63	22.17	-52.6	-54.8	14.2	0.00e+00	0	26	0	401604608	70	4895
2026-01-06 07:22:09.42	73.86	22.56	-52.5	-54.7	14.3	0.00e+00	0	26	0	408944640	70	4823
2026-01-06 07:22:13.37	73.07	22.95	-52.2	-54.3	14.4	0.00e+00	0	26	0	416284672	70	4601
2026-01-06 07:22:17.34	72.25	23.35	-52.5	-54.6	14.3	0.00e+00	0	26	0	424673280	70	4795
2026-01-06 07:22:21.32	71.42	23.74	-52.7	-54.9	14.2	0.00e+00	0	26	0	432013312	70	4934
2026-01-06 07:22:25.30	70.56	24.14	-52.6	-54.8	14.4	0.00e+00	0	26	0	439353344	71	4608
2026-01-06 07:22:29.27	69.68	24.53	-53.0	-55.2	14.1	0.00e+00	0	26	0	446693376	71	4868
2026-01-06 07:22:33.22	68.78	24.92	-52.9	-55.1	14.2	0.00e+00	0	26	0	454033408	71	4780
2026-01-06 07:22:37.21	67.85	25.31	-52.8	-54.9	14.3	0.00e+00	0	26	0	461373440	71	4682
2026-01-06 07:22:41.19	66.91	25.70	-52.3	-54.3	14.6	0.00e+00	0	26	0	468713472	71	4352
2026-01-06 07:22:45.17	65.93	26.08	-49.4	-53.3	14.9	0.00e+00	0	26	0	476053504	65	5493
2026-01-06 07:22:49.13	64.94	26.46	-51.4	-53.5	14.3	0.00e+00	0	26	0	483393536	67	5011
2026-01-06 07:22:53.10	63.92	26.83	-52.4	-54.5	14.3	0.00e+00	0	26	0	491782144	70	4731
2026-01-06 07:22:57.08	62.88	27.20	-52.8	-55.1	14.0	0.00e+00	0	26	0	499122176	70	5082
2026-01-06 07:23:01.05	61.81	27.56	-52.9	-55.1	14.1	0.00e+00	0	26	0	506462208	71	4784
2026-01-06 07:23:05.02	60.72	27.92	-53.2	-55.5	14.0	0.00e+00	0	26	0	513802240	71	5029
2026-01-06 07:23:08.98	59.61	28.27	-52.9	-55.3	14.0	0.00e+00	0	26	0	521142272	71	4899
2026-01-06 07:23:12.95	58.47	28.61	-53.7	-56.4	13.6	0.00e+00	0	26	0	528482304	72	5273
2026-01-06 07:23:16.92	57.31	28.94	-54.6	-57.9	13.0	0.00e+00	0	26	0	535822336	74	5576
2026-01-06 07:23:20.89	56.12	29.26	-54.3	-57.4	13.3	0.00e+00	0	26	0	543162368	74	5232
2026-01-06 07:23:24.87	54.90	29.58	-53.4	-55.9	14.1	0.00e+00	0	26	0	550502400	73	4673
2026-01-06 07:23:28.84	53.67	29.88	-53.6	-56.5	13.5	0.00e+00	0	26	0	557842432	72	5302
2026-01-06 07:23:32.81	52.41	30.16	-53.3	-56.1	13.7	0.00e+00	0	26	0	566231040	72	5051
2026-01-06 07:23:36.79	51.13	30.44	-52.9	-55.4	14.1	0.00e+00	0	26	0	573571072	72	4689
2026-01-06 07:23:40.78	49.82	30.70	-52.9	-55.2	14.2	0.00e+00	0	26	0	580911104	72	4590
2026-01-06 07:23:44.74	48.50	30.95	-53.4	-55.9	13.9	0.00e+00	0	26	0	588251136	72	4983
2026-01-06 07:23:48.71	47.16	31.18	-54.1	-57.3	13.2	0.00e+00	0	26	0	595591168	73	5517
2026-01-06 07:23:52.68	45.80	31.39	-52.8	-55.2	14.2	0.00e+00	0	26	0	602931200	72	4576
2026-01-06 07:23:56.65	44.42	31.59	-52.6	-54.8	14.3	0.00e+00	0	26	0	610271232	71	4637
2026-01-06 07:24:00.64	43.02	31.77	-52.6	-54.9	14.3	0.00e+00	0	26	0	617611264	71	4674
2026-01-06 07:24:04.60	41.61	31.93	-52.5	-54.8	14.3	0.00e+00	0	26	0	624951296	71	4627
2026-01-06 07:24:08.58	40.18	32.07	-53.3	-55.9	13.8	0.00e+00	0	26	0	632291328	71	5244
2026-01-06 07:24:12.52	38.76	32.19	-53.0	-55.4	14.2	0.00e+00	0	26	0	640679936	72	4676
2026-01-06 07:24:16.50	37.31	32.30	-53.4	-56.1	13.8	0.00e+00	0	26	0	648019968	72	5043
2026-01-06 07:24:20.46	35.86	32.38	-52.8	-54.9	14.4	0.00e+00	0	26	0	655360000	72	4436
2026-01-06 07:24:24.44	34.40	32.44	-53.6	-56.3	13.7	0.00e+00	0	26	0	662700032	72	5175
2026-01-06 07:24:28.40	32.94	32.48	-54.2	-57.1	13.4	0.00e+00	0	26	0	670040064	73	5395
2026-01-06 07:24:32.38	31.47	32.50	-54.0	-56.9	13.6	0.00e+00	0	26	0	677380096	74	4953
2026-01-06 07:24:36.37	30.00	32.49	-53.5	-56.2	13.8	0.00e+00	0	26	0	684720128	73	4824
2026-01-06 07:24:40.33	28.54	32.47	-52.5	-54.7	14.4	0.00e+00	0	26	0	692060160	71	4550
2026-01-06 07:24:44.30	27.08	32.42	-53.6	-56.2	13.8	0.00e+00	0	26	0	699400192	72	5132
2026-01-06 07:24:48.27	25.62	32.36	-54.0	-56.7	13.6	0.00e+00	0	26	0	706740224	73	5107
2026-01-06 07:24:52.23	24.17	32.27	-53.7	-56.4	13.8	0.00e+00	0	26	0	715128832	73	4942
2026-01-06 07:24:56.21	22.73	32.16	-53.0	-55.4	14.1	0.00e+00	0	26	0	722468864	72	4677
2026-01-06 07:25:00.18	21.30	32.04	-53.5	-56.2	13.7	0.00e+00	0	26	0	729808896	72	5147
2026-01-06 07:25:04.17	19.87	31.89	-52.9	-55.3	14.2	0.00e+00	0	26	0	737148928	72	4647
2026-01-06 07:25:08.15	18.46	31.72	-53.8	-56.7	13.5	0.00e+00	0	26	0	744488960	72	5421
2026-01-06 07:25:12.11	17.08	31.54	-53.5	-56.2	13.8	0.00e+00	0	26	0	751828992	72	5108
2026-01-06 07:25:16.08	15.71	31.34	-53.0	-55.6	14.0	0.00e+00	0	26	0	759169024	72	4795
2026-01-06 07:25:20.06	14.35	31.12	-52.6	-54.9	14.3	0.00e+00	0	26	0	766509056	71	4680
2026-01-06 07:25:24.03	13.01	30.89	-53.4	-56.0	13.9	0.00e+00	0	26	0	773849088	72	4991
2026-01-06 07:25:28.01	11.69	30.64	-54.2	-57.2	13.3	0.00e+00	0	26	0	782237696	73	5459
2026-01-06 07:25:32.00	10.39	30.37	-54.2	-57.4	13.2	0.00e+00	0	26	0	789577728	74	5225
2026-01-06 07:25:35.99	9.11	30.09	-54.0	-56.9	13.6	0.00e+00	0	26	0	796917760	74	4962
2026-01-06 07:25:39.94	7.87	29.80	-53.6	-56.2	13.9	0.00e+00	0	26	0	804257792	73	4834
2026-01-06 07:25:43.91	6.64	29.50	-53.5	-56.1	13.8	0.00e+00	0	26	0	811597824	73	4783
2026-01-06 07:25:47.87	5.44	29.19	-52.0	-54.1	14.5	0.00e+00	0	26	0	818937856	70	4495
2026-01-06 07:25:51.83	4.26	28.86	-52.2	-54.4	14.3	0.00e+00	0	26	0	826277888	69	4936
2026-01-06 07:25:55.79	3.11	28.53	-53.5	-56.3	13.6	0.00e+00	0	26	0	833617920	72	5206
2026-01-06 07:25:59.77	1.97	28.19	-52.3	-54.4	14.4	0.00e+00	0	26	0	840957952	70	4674
2026-01-06 07:26:03.75	0.86	27.84	-54.7	-58.1	12.9	0.00e+00	0	26	0	848297984	74	5699
2026-01-06 07:26:07.73	359.78	27.48	-54.4	-57.2	13.4	0.00e+00	0	26	0	856686592	74	5159
2026-01-06 07:26:11.70	358.72	27.12	-53.1	-55.4	14.2	0.00e+00	0	26	0	864026624	72	4664
2026-01-06 07:26:15.66	357.69	26.75	-52.6	-54.6	14.4	0.00e+00	0	26	0	871366656	71	4537
2026-01-06 07:26:19.62	356.68	26.37	-52.0	-53.9	14.6	0.00e+00	0	26	0	878706688	70	4418
2026-01-06 07:26:23.61	355.69	25.99	-52.1	-54.0	14.5	0.00e+00	0	26	0	886046720	70	4489
2026-01-06 07:26:27.59	354.73	25.61	-52.3	-54.3	14.4	0.00e+00	0	26	0	893386752	70	4651
2026-01-06 07:26:31.56	353.79	25.22	-52.3	-54.4	14.4	0.00e+00	0	26	0	900726784	70	4698
2026-01-06 07:26:35.54	352.87	24.83	-52.1	-54.1	14.5	0.00e+00	0	26	0	908066816	70	4530
2026-01-06 07:26:39.53	351.97	24.44	-51.1	-52.8	14.8	0.00e+00	0	26	0	915406848	68	4353
2026-01-06 07:26:43.49	351.10	24.05	-50.4	-52.0	14.8	0.00e+00	0	26	0	923795456	66	4476
2026-01-06 07:26:47.47	350.25	23.66	-51.4	-53.2	14.6	0.00e+00	0	26	0	931135488	68	4590
2026-01-06 07:26:51.46	349.42	23.26	-51.2	-52.9	14.8	0.00e+00	0	26	0	938475520	68	4396
2026-01-06 07:26:55.43	348.62	22.87	-51.6	-53.5	14.5	0.00e+00	0	26	0	945815552	68	4716
2026-01-06 07:26:59.42	347.83	22.47	-51.6	-53.4	14.6	0.00e+00	0	26	0	953155584	68	4674
2026-01-06 07:27:03.39	347.06	22.08	-51.5	-53.3	14.6	0.00e+00	0	26	0	960495616	68	4621
2026-01-06 07:27:07.35	346.32	21.69	-51.4	-53.2	14.6	0.00e+00	0	26	0	967835648	68	4568
2026-01-06 07:27:11.30	345.59	21.30	-51.9	-53.8	14.5	0.00e+00	0	26	0	975175680	69	4613
2026-01-06 07:27:15.29	344.88	20.90	-51.8	-53.7	14.6	0.00e+00	0	26	0	982515712	69	4555
2026-01-06 07:27:19.28	344.18	20.51	-51.9	-53.7	14.6	0.00e+00	0	26	0	989855744	69	4571
2026-01-06 07:27:23.27	343.51	20.12	-52.5	-54.6	14.3	0.00e+00	0	26	0	998244352	70	4784
2026-01-06 07:27:27.24	342.85	19.74	-53.5	-56.0	13.9	0.00e+00	0	26	0	1005584384	72	4992
2026-01-06 07:27:31.25	342.21	19.35	-52.1	-54.0	14.5	0.00e+00	0	26	0	1012924416	70	4462
2026-01-06 07:27:35.23	341.58	18.97	-52.0	-53.8	14.7	0.00e+00	0	26	0	1020264448	70	4388
2026-01-06 07:27:39.22	340.97	18.59	-52.4	-54.4	14.4	0.00e+00	0	26	0	1027604480	70	4681
2026-01-06 07:27:43.21	340.37	18.21	-51.7	-53.6	14.7	0.00e+00	0	26	0	1034944512	70	4270
2026-01-06 07:27:47.20	339.79	17.83	-51.4	-53.2	14.8	0.00e+00	0	26	0	1042284544	69	4306
2026-01-06 07:27:51.18	339.23	17.46	-51.6	-53.4	14.7	0.00e+00	0	26	0	1049624576	69	4441
2026-01-06 07:27:55.17	338.68	17.09	-52.1	-54.1	14.4	0.00e+00	0	26	0	1058013184	69	4768
2026-01-06 07:27:59.16	338.14	16.72	-51.9	-53.9	14.4	0.00e+00	0	26	0	1065353216	69	4661
2026-01-06 07:28:03.15	337.62	16.36	-52.2	-54.2	14.3	0.00e+00	0	26	0	1072693248	69	4829
2026-01-06 07:28:07.15	337.10	15.99	-53.7	-56.3	13.6	0.00e+00	0	26	0	1080033280	72	5192
2026-01-06 07:28:11.12	336.61	15.64	-53.7	-56.3	13.7	0.00e+00	0	26	0	1087373312	73	4909
2026-01-06 07:28:15.11	336.12	15.28	-52.3	-54.3	14.5	0.00e+00	0	26	0	1094713344	71	4386
2026-01-06 07:28:19.09	335.64	14.93	-52.0	-54.0	14.5	0.00e+00	0	26	0	1102053376	70	4451
2026-01-06 07:28:23.08	335.18	14.58	-53.0	-55.4	14.0	0.00e+00	0	26	0	1110441984	71	4947
2026-01-06 07:28:27.08	334.72	14.23	-53.5	-56.1	13.7	0.00e+00	0	26	0	1117782016	72	5085
2026-01-06 07:28:31.07	334.28	13.89	-53.2	-55.6	14.0	0.00e+00	0	26	0	1125122048	72	4811
2026-01-06 07:28:35.05	333.85	13.55	-53.1	-55.5	14.0	0.00e+00	0	26	0	1132462080	72	4729
2026-01-06 07:28:39.05	333.43	13.21	-53.2	-55.6	13.9	0.00e+00	0	26	0	1139802112	72	4810
2026-01-06 07:28:43.04	333.02	12.88	-53.3	-55.8	13.8	0.00e+00	0	26	0	1147142144	72	4905
2026-01-06 07:28:47.04	332.61	12.55	-53.5	-56.0	13.7	0.00e+00	0	26	0	1154482176	72	5034
2026-01-06 07:28:51.03	332.22	12.22	-53.2	-55.7	13.9	0.00e+00	0	26	0	1162870784	72	4816
2026-01-06 07:28:55.03	331.83	11.89	-52.5	-54.7	14.3	0.00e+00	0	26	0	1170210816	71	4561
2026-01-06 07:28:59.02	331.46	11.57	-52.4	-54.5	14.4	0.00e+00	0	26	0	1177550848	71	4457
2026-01-06 07:29:03.02	331.09	11.25	-52.9	-55.2	14.0	0.00e+00	0	26	0	1184890880	71	4859
2026-01-06 07:29:07.00	330.73	10.93	-53.7	-56.4	13.5	0.00e+00	0	26	0	1192230912	72	5241
2026-01-06 07:29:10.99	330.38	10.62	-54.2	-57.2	13.1	0.00e+00	0	26	0	1199570944	73	5430
2026-01-06 07:29:14.97	330.04	10.31	-54.3	-57.3	13.1	0.00e+00	0	26	0	1206910976	74	5212
2026-01-06 07:29:18.96	329.70	10.01	-54.1	-57.0	13.3	0.00e+00	0	26	0	1214251008	74	5037
2026-01-06 07:29:22.97	329.37	9.70	-54.0	-56.8	13.4	0.00e+00	0	26	0	1222639616	74	4898
2026-01-06 07:29:26.96	329.05	9.40	-53.7	-56.4	13.5	0.00e+00	0	26	0	1229979648	73	4927
2026-01-06 07:29:30.97	328.73	9.10	-53.4	-55.9	13.8	0.00e+00	0	26	0	1237319680	73	4694
2026-01-06 07:29:34.97	328.42	8.80	-53.1	-55.5	13.9	0.00e+00	0	26	0	1244659712	72	4734
2026-01-06 07:29:38.96	328.12	8.51	-53.7	-56.4	13.4	0.00e+00	0	26	0	1251999744	72	5262
2026-01-06 07:29:42.96	327.83	8.21	-53.9	-56.8	13.2	0.00e+00	0	26	0	1259339776	72	5469
2026-01-06 07:29:46.95	327.54	7.93	-54.4	-57.7	12.8	0.00e+00	0	26	0	1267728384	74	5417
2026-01-06 07:29:50.95	327.25	7.64	-54.6	-58.0	12.6	0.00e+00	0	26	0	1275068416	74	5618
2026-01-06 07:29:54.95	326.97	7.36	-54.5	-57.9	12.7	0.00e+00	0	26	0	1282408448	74	5551
2026-01-06 07:29:58.94	326.70	7.07	-54.8	-58.3	12.4	0.00e+00	0	26	0	1289748480	74	5813
2026-01-06 07:30:02.93	326.44	6.80	-55.1	-59.0	12.1	0.00e+00	0	26	0	1297088512	75	5928
2026-01-06 07:30:06.92	326.18	6.52	-55.0	-58.8	12.1	4.50e-06	0	26	0	1304428544	75	5847
2026-01-06 07:30:10.91	325.92	6.25	-55.2	-59.3	11.8	1.50e-06	0	26	0	1311768576	75	6133
2026-01-06 07:30:14.90	325.67	5.97	-55.1	-59.1	11.9	8.30e-06	0	26	0	1320157184	75	6016
2026-01-06 07:30:18.89	325.42	5.71	-54.9	-58.7	12.1	2.20e-06	0	26	0	1327497216	75	5750
2026-01-06 07:30:22.89	325.18	5.44	-54.6	-58.0	12.6	0.00e+00	0	26	0	1334837248	75	5316
2026-01-06 07:30:26.88	324.94	5.17	-54.5	-58.0	12.5	0.00e+00	0	26	0	1342177280	74	5619
2026-01-06 07:30:30.87	324.71	4.91	-58.8	-74.8	3.8	1.49e+00	0	26	104	1347420160	82	24501
2026-01-06 07:30:34.87	324.48	4.65	-59.8	-75.9	3.8	1.49e+00	0	26	104	1347420160	84	24796
2026-01-06 07:30:38.87	324.26	4.39	-60.2	-76.3	3.8	1.49e+00	0	26	104	1347420160	85	24478
2026-01-06 07:30:42.88	324.04	4.13	-60.4	-76.4	3.8	1.49e+00	0	26	104	1347420160	85	24943
2026-01-06 07:30:46.89	323.82	3.88	-60.5	-76.6	3.8	1.49e+00	0	26	104	1347420160	86	23871
2026-01-06 07:30:50.88	323.61	3.62	-60.5	-76.6	3.8	1.49e+00	0	26	104	1347420160	86	24044
2026-01-06 07:30:54.87	323.40	3.37	-60.4	-76.5	3.8	1.49e+00	0	26	104	1347420160	86	23789
2026-01-06 07:30:58.88	323.20	3.12	-60.4	-76.5	3.8	1.49e+00	0	26	104	1347420160	86	23713
2026-01-06 07:31:02.87	323.00	2.88	-60.4	-76.4	3.8	1.49e+00	0	26	104	1347420160	86	23564
2026-01-06 07:31:06.89	322.80	2.63	-60.3	-76.4	3.8	1.49e+00	0	26	104	1347420160	86	23503
2026-01-06 07:31:10.89	322.61	2.39	-60.3	-76.4	3.8	1.49e+00	0	26	104	1347420160	86	23476
2026-01-06 07:31:14.89	322.42	2.14	-60.3	-76.4	3.8	1.49e+00	0	26	104	1347420160	86	23375

#Closed at: 2026-01-06 07:31:17
#Recorded file [1347 MB]: D:/lorett/data/31004_260106_101751.dat