passes_logs/2026/01/06/R3.2S_Murmansk/R3.2S_Murmansk__20260106_044449_AQUA_rec.log

#Pass ID: 20260106_044449_AQUA
#Satellite: AQUA
#Configuration: AQUA
#almurnet v.1.7.20251203
#Start time: 2026-01-06 04:44:51

#Version: 2.2.20231116
#Station: R3.2S_Murmansk
#Location: 33.079688 lon 68.888172 lat
#TLE: 1 27424U 02022A   26004.96787593  .00001598  00000+0  32997-3 0  9996
#TLE: 2 27424  98.4069 331.2279 0002002  90.2377   0.6092 14.61798176259425

#Time	Az	El	Level	Level2	SNR	BER	BlckErr	Temp	State	Recorded	gain1	gain2
2026-01-06 04:44:51.24	34.94	2.13	-57.1	-76.5	3.8	7.43e-01	0	24	0	0	83	32726
2026-01-06 04:44:54.25	34.75	2.32	-57.1	-76.4	3.8	7.42e-01	0	24	104	0	81	36405
2026-01-06 04:44:57.25	34.56	2.50	-57.1	-76.4	3.8	7.47e-01	0	24	104	0	81	36433
2026-01-06 04:45:00.25	34.37	2.69	-57.1	-76.4	3.8	7.45e-01	0	24	104	0	81	36393
2026-01-06 04:45:03.25	34.18	2.87	-57.1	-76.4	3.8	7.44e-01	0	24	104	0	81	36488
2026-01-06 04:45:06.23	33.98	3.06	-57.1	-76.4	3.8	7.47e-01	0	24	104	0	81	36464
2026-01-06 04:45:09.21	33.78	3.25	-57.1	-76.4	3.8	7.48e-01	0	24	104	0	81	36426
2026-01-06 04:45:12.19	33.58	3.43	-57.1	-76.4	3.8	7.46e-01	0	24	104	0	81	36253
2026-01-06 04:45:15.17	33.38	3.62	-57.1	-76.4	3.8	7.45e-01	0	25	104	0	81	36368
2026-01-06 04:45:18.18	33.17	3.82	-57.1	-76.4	3.8	7.44e-01	0	24	104	0	81	36355
2026-01-06 04:45:21.17	32.96	4.01	-57.1	-76.4	3.8	7.48e-01	0	25	104	0	81	36122
2026-01-06 04:45:24.16	32.74	4.20	-57.1	-76.5	3.8	7.48e-01	0	25	104	0	81	36559
2026-01-06 04:45:27.16	32.52	4.40	-57.0	-75.9	3.8	7.47e-01	0	25	104	0	81	34233
2026-01-06 04:45:30.16	32.30	4.60	-56.7	-74.1	3.8	7.44e-01	0	25	104	0	81	27733
2026-01-06 04:45:33.16	32.07	4.79	-56.2	-71.9	3.8	7.47e-01	0	25	104	0	81	21702
2026-01-06 04:45:36.15	31.85	4.99	-55.7	-70.4	3.8	7.46e-01	0	25	104	0	80	19370
2026-01-06 04:45:39.15	31.61	5.19	-56.2	-71.8	3.8	7.43e-01	0	25	104	0	80	22593
2026-01-06 04:45:42.15	31.38	5.39	-56.8	-75.6	3.8	7.46e-01	0	25	104	0	81	33038
2026-01-06 04:45:45.15	31.14	5.60	-52.7	-64.9	3.8	7.49e-01	0	25	104	0	74	14450
2026-01-06 04:45:48.14	30.89	5.80	-57.0	-75.4	3.8	7.47e-01	0	25	104	0	81	32331
2026-01-06 04:45:51.14	30.65	6.01	-52.9	-65.1	3.8	7.47e-01	0	25	104	0	75	14008
2026-01-06 04:45:54.14	30.39	6.21	-52.0	-63.9	3.8	7.46e-01	0	25	104	0	72	14419
2026-01-06 04:45:57.13	30.14	6.42	-56.5	-71.9	3.9	7.45e-01	0	25	104	0	81	21559
2026-01-06 04:46:00.13	29.88	6.63	-52.7	-64.9	3.8	7.46e-01	0	25	104	0	74	14455
2026-01-06 04:46:03.12	29.61	6.84	-52.9	-65.1	3.9	7.45e-01	0	25	104	0	74	14829
2026-01-06 04:46:06.13	29.34	7.05	-53.5	-66.0	3.8	7.51e-01	0	25	104	0	74	16369
2026-01-06 04:46:09.12	29.07	7.27	-52.5	-64.5	3.8	7.47e-01	0	25	104	0	74	13848
2026-01-06 04:46:12.12	28.79	7.48	-57.4	-75.8	3.8	7.45e-01	0	25	104	0	82	32167
2026-01-06 04:46:15.11	28.51	7.70	-52.5	-64.6	3.8	7.49e-01	0	25	104	0	74	13953
2026-01-06 04:46:18.10	28.22	7.91	-52.2	-64.1	3.8	7.44e-01	0	25	104	0	72	14803
2026-01-06 04:46:21.10	27.93	8.13	-56.8	-72.4	3.8	7.44e-01	0	26	104	0	81	22799
2026-01-06 04:46:24.08	27.64	8.35	-51.5	-63.3	3.9	7.43e-01	0	25	104	0	72	13442
2026-01-06 04:46:27.08	27.33	8.57	-52.5	-64.6	3.9	7.44e-01	0	25	104	0	72	15649
2026-01-06 04:46:30.06	27.03	8.80	-52.5	-64.6	3.8	7.44e-01	0	25	104	0	72	15623
2026-01-06 04:46:33.06	26.72	9.02	-50.9	-62.4	3.8	7.46e-01	0	25	104	0	71	12954
2026-01-06 04:46:36.04	26.40	9.25	-57.7	-75.9	3.9	7.48e-01	0	25	104	0	83	30462
2026-01-06 04:46:39.03	26.08	9.47	-51.8	-63.6	3.9	7.45e-01	0	25	104	0	72	13941
2026-01-06 04:46:42.03	25.75	9.70	-51.5	-63.3	3.9	7.46e-01	0	26	104	0	70	15110
2026-01-06 04:46:45.03	25.41	9.93	-57.1	-72.7	3.8	7.47e-01	0	26	104	0	81	23638
2026-01-06 04:46:48.03	25.07	10.17	-51.6	-63.3	3.8	7.49e-01	0	25	104	0	72	13470
2026-01-06 04:46:51.02	24.72	10.40	-52.4	-64.4	3.9	7.44e-01	0	26	104	0	72	15282
2026-01-06 04:46:54.02	24.37	10.63	-52.1	-64.0	3.8	7.46e-01	0	25	104	0	72	14543
2026-01-06 04:46:57.03	24.01	10.87	-51.4	-63.1	3.8	7.46e-01	0	26	104	0	72	13192
2026-01-06 04:47:00.02	23.64	11.11	-57.8	-75.5	3.8	7.49e-01	0	26	104	0	83	29314
2026-01-06 04:47:03.01	23.27	11.35	-51.5	-63.2	3.9	7.45e-01	0	26	104	0	72	13271
2026-01-06 04:47:06.01	22.89	11.59	-50.5	-62.0	3.9	7.45e-01	0	26	104	0	70	13042
2026-01-06 04:47:09.02	22.50	11.83	-57.3	-73.2	3.8	7.45e-01	0	26	104	0	82	23619
2026-01-06 04:47:12.01	22.11	12.08	-51.1	-62.6	3.9	7.45e-01	0	26	104	0	71	13257
2026-01-06 04:47:15.01	21.70	12.32	-51.9	-63.7	3.8	7.44e-01	0	26	104	0	72	14118
2026-01-06 04:47:18.00	21.30	12.57	-51.4	-63.0	3.8	7.44e-01	0	26	104	0	70	14662
2026-01-06 04:47:20.98	20.88	12.81	-50.2	-61.6	3.9	7.48e-01	0	26	104	0	69	13191
2026-01-06 04:47:23.96	20.46	13.06	-57.8	-74.9	3.8	7.49e-01	0	26	104	0	83	27093
2026-01-06 04:47:26.95	20.03	13.31	-51.0	-62.5	3.8	7.45e-01	0	26	104	0	71	13078
2026-01-06 04:47:29.95	19.59	13.56	-50.3	-61.7	3.9	7.48e-01	0	26	104	0	69	13372
2026-01-06 04:47:32.94	19.14	13.82	-57.4	-73.1	3.8	7.46e-01	0	26	104	0	82	23407
2026-01-06 04:47:35.93	18.68	14.07	-50.8	-62.2	3.9	7.46e-01	0	26	104	0	70	13378
2026-01-06 04:47:38.94	18.22	14.33	-51.9	-63.6	3.9	7.46e-01	0	26	104	0	71	14854
2026-01-06 04:47:41.93	17.74	14.58	-50.9	-62.4	3.8	7.43e-01	0	26	104	0	70	13586
2026-01-06 04:47:44.91	17.26	14.84	-49.8	-61.1	3.9	7.46e-01	0	26	104	0	68	13183
2026-01-06 04:47:47.90	16.77	15.10	-57.8	-74.3	3.8	7.46e-01	0	26	104	0	83	25560
2026-01-06 04:47:50.90	16.27	15.36	-50.6	-62.1	3.8	7.46e-01	0	26	104	0	70	13134
2026-01-06 04:47:53.89	15.76	15.62	-50.3	-61.8	3.8	7.45e-01	0	26	104	0	68	14281
2026-01-06 04:47:56.89	15.23	15.88	-57.5	-73.0	3.8	7.48e-01	0	26	104	0	82	23229
2026-01-06 04:47:59.88	14.70	16.14	-50.4	-61.8	3.9	7.45e-01	0	26	104	0	70	12785
2026-01-06 04:48:02.88	14.16	16.40	-51.8	-63.5	3.8	7.46e-01	0	26	104	0	71	14644
2026-01-06 04:48:05.88	13.61	16.67	-50.5	-61.9	3.8	7.45e-01	0	26	104	0	70	12936
2026-01-06 04:48:08.89	13.04	16.93	-50.2	-61.6	3.8	7.45e-01	0	26	104	0	69	13112
2026-01-06 04:48:11.87	12.47	17.20	-57.6	-73.5	3.8	7.48e-01	0	26	104	0	82	24536
2026-01-06 04:48:14.86	11.89	17.46	-50.7	-62.2	3.9	7.48e-01	0	26	104	0	70	13322
2026-01-06 04:48:17.84	11.30	17.72	-50.0	-61.4	3.8	7.46e-01	0	26	104	0	69	12884
2026-01-06 04:48:20.83	10.69	17.99	-57.4	-72.6	3.8	7.46e-01	0	26	104	0	82	22052
2026-01-06 04:48:23.82	10.08	18.25	-50.6	-62.0	3.9	7.46e-01	0	26	104	0	69	13752
2026-01-06 04:48:26.81	9.45	18.51	-51.7	-63.4	3.9	7.44e-01	0	26	104	0	71	14481
2026-01-06 04:48:29.81	8.81	18.78	-50.3	-61.6	3.8	7.46e-01	0	26	104	0	69	13203
2026-01-06 04:48:32.81	8.15	19.04	-50.1	-61.4	3.9	7.44e-01	0	26	104	0	69	12905
2026-01-06 04:48:35.80	7.49	19.30	-57.5	-72.8	3.8	7.46e-01	0	26	104	0	82	22567
2026-01-06 04:48:38.81	6.81	19.57	-51.0	-62.5	3.8	7.43e-01	0	26	104	0	70	13738
2026-01-06 04:48:41.81	6.11	19.83	-50.0	-61.4	3.9	7.47e-01	0	26	104	0	69	12918
2026-01-06 04:48:44.82	5.41	20.09	-57.7	-73.4	3.8	7.43e-01	0	26	104	0	83	22885
2026-01-06 04:48:47.82	4.69	20.35	-50.7	-62.2	3.8	7.45e-01	0	26	104	0	69	14113
2026-01-06 04:48:50.82	3.96	20.60	-52.6	-64.3	3.8	7.48e-01	0	26	104	0	72	15105
2026-01-06 04:48:53.82	3.22	20.86	-50.8	-62.2	3.9	7.46e-01	0	26	104	0	70	13335
2026-01-06 04:48:56.82	2.46	21.11	-50.4	-61.8	3.8	7.46e-01	0	26	104	0	70	12691
2026-01-06 04:48:59.83	1.69	21.36	-57.6	-72.7	3.8	7.47e-01	0	26	104	0	82	22494
2026-01-06 04:49:02.82	0.91	21.61	-50.8	-62.3	3.9	7.43e-01	0	26	104	0	70	13415
2026-01-06 04:49:05.83	0.11	21.85	-50.2	-61.6	3.8	7.46e-01	0	26	104	0	69	13175
2026-01-06 04:49:08.82	359.30	22.09	-57.9	-73.6	3.8	7.44e-01	0	26	104	0	83	23431
2026-01-06 04:49:11.81	358.49	22.33	-50.6	-61.9	3.8	7.45e-01	0	26	104	0	70	12924
2026-01-06 04:49:14.80	357.65	22.56	-52.4	-64.2	3.8	7.46e-01	0	26	104	0	72	15003
2026-01-06 04:49:17.81	356.80	22.79	-50.7	-62.2	3.8	7.49e-01	0	26	104	0	70	13330
2026-01-06 04:49:20.80	355.94	23.01	-50.4	-61.8	3.9	7.45e-01	0	26	104	0	70	12712
2026-01-06 04:49:23.80	355.07	23.23	-57.6	-72.8	3.8	7.52e-01	0	26	104	0	82	22692
2026-01-06 04:49:26.79	354.18	23.45	-50.8	-62.2	3.9	7.48e-01	0	26	104	0	70	13405
2026-01-06 04:49:29.78	353.28	23.66	-51.3	-62.8	3.8	7.46e-01	0	26	104	0	70	14305
2026-01-06 04:49:32.78	352.37	23.86	-57.8	-73.3	3.8	7.46e-01	0	26	104	0	83	22616
2026-01-06 04:49:35.77	351.45	24.06	-50.6	-62.0	3.8	7.47e-01	0	26	104	0	70	12976
2026-01-06 04:49:38.77	350.51	24.25	-52.5	-64.2	3.8	7.47e-01	0	26	104	0	72	15034
2026-01-06 04:49:41.77	349.56	24.43	-50.6	-62.0	3.8	7.46e-01	0	26	104	0	70	13042
2026-01-06 04:49:44.78	348.59	24.61	-50.4	-61.8	3.8	7.41e-01	0	26	104	0	70	12758
2026-01-06 04:49:47.79	347.62	24.78	-57.7	-73.2	3.8	7.45e-01	0	26	104	0	83	22263
2026-01-06 04:49:50.79	346.63	24.95	-50.7	-62.1	3.8	7.45e-01	0	26	104	0	70	13217
2026-01-06 04:49:53.79	345.64	25.10	-51.9	-63.5	3.9	7.46e-01	0	26	104	0	71	14583
2026-01-06 04:49:56.80	344.63	25.25	-58.4	-74.6	3.8	7.47e-01	0	26	104	0	84	24953
2026-01-06 04:49:59.79	343.62	25.39	-50.5	-61.8	3.8	7.43e-01	0	26	104	0	70	12739
2026-01-06 04:50:02.80	342.60	25.52	-52.5	-64.3	3.9	7.46e-01	0	26	104	0	72	15055
2026-01-06 04:50:05.79	341.57	25.64	-50.5	-61.9	3.8	7.45e-01	0	26	104	0	70	12839
2026-01-06 04:50:08.79	340.53	25.75	-50.4	-61.7	3.9	7.44e-01	0	26	104	0	70	12647
2026-01-06 04:50:11.79	339.48	25.85	-57.7	-73.0	3.8	7.49e-01	0	26	104	0	83	21926
2026-01-06 04:50:14.78	338.43	25.94	-50.6	-62.0	3.9	7.45e-01	0	26	104	0	70	13029
2026-01-06 04:50:17.78	337.37	26.02	-50.9	-62.3	3.8	7.43e-01	0	26	104	0	69	14278
2026-01-06 04:50:20.77	336.31	26.09	-58.4	-74.4	3.8	7.45e-01	0	26	104	0	84	24239
2026-01-06 04:50:23.75	335.25	26.15	-50.9	-62.3	3.8	7.46e-01	0	26	104	0	70	13549
2026-01-06 04:50:26.73	334.18	26.20	-53.3	-65.1	3.9	7.47e-01	0	26	104	0	74	14864
2026-01-06 04:50:29.71	333.11	26.24	-56.9	-70.8	3.8	7.46e-01	0	26	104	0	81	18970
2026-01-06 04:50:32.69	332.04	26.27	-50.7	-62.1	3.9	7.46e-01	0	26	104	0	70	13155
2026-01-06 04:50:35.68	330.96	26.29	-57.3	-71.6	3.8	7.51e-01	0	26	104	0	82	19727
2026-01-06 04:50:38.68	329.88	26.29	-50.7	-62.0	3.8	7.45e-01	0	26	104	0	70	12982
2026-01-06 04:50:41.68	328.80	26.29	-51.1	-62.6	3.8	7.46e-01	0	26	104	0	70	13918
2026-01-06 04:50:44.68	327.72	26.27	-52.0	-63.7	3.8	7.44e-01	0	26	104	0	73	13265
2026-01-06 04:50:47.68	326.64	26.25	-50.8	-62.4	3.9	7.48e-01	0	26	104	0	70	13595
2026-01-06 04:50:50.69	325.56	26.21	-53.5	-65.3	3.9	7.45e-01	0	26	104	0	76	13561
2026-01-06 04:50:53.69	324.48	26.17	-50.6	-61.8	3.8	7.44e-01	0	26	104	0	70	12699
2026-01-06 04:50:56.69	323.41	26.11	-50.9	-62.3	3.8	7.45e-01	0	26	104	0	70	13540
2026-01-06 04:50:59.69	322.34	26.04	-57.4	-71.7	3.8	7.47e-01	0	26	104	0	82	19849
2026-01-06 04:51:02.69	321.28	25.96	-50.8	-62.2	3.8	7.48e-01	0	26	104	0	70	13390
2026-01-06 04:51:05.68	320.23	25.88	-52.9	-65.1	3.8	7.47e-01	0	26	104	0	73	15743
2026-01-06 04:51:08.67	319.18	25.78	-58.1	-73.3	3.8	7.46e-01	0	26	104	0	83	22733
2026-01-06 04:51:11.65	318.15	25.67	-51.7	-62.8	3.8	7.47e-01	0	26	104	0	71	13490
2026-01-06 04:51:14.65	317.11	25.55	-51.6	-53.7	15.1	6.03e-01	0	26	0	4194304	70	4986
2026-01-06 04:51:17.65	316.09	25.43	-51.8	-53.8	15.1	6.05e-01	0	26	0	9961472	71	4776
2026-01-06 04:51:20.65	315.07	25.29	-50.8	-52.6	15.3	6.03e-01	0	26	0	15204352	70	4400
2026-01-06 04:51:23.64	314.06	25.15	-50.5	-52.2	15.5	6.03e-01	0	26	0	20971520	70	4230
2026-01-06 04:51:26.62	313.07	25.00	-50.3	-51.8	15.6	6.02e-01	0	26	0	26738688	69	4291
2026-01-06 04:51:29.60	312.09	24.84	-51.4	-53.3	15.2	6.04e-01	0	26	0	31981568	70	4769
2026-01-06 04:51:32.58	311.12	24.67	-50.2	-51.8	15.4	6.03e-01	0	26	0	37748736	69	4283
2026-01-06 04:51:35.57	310.15	24.49	-50.8	-52.5	15.4	6.04e-01	0	26	0	43515904	70	4370
2026-01-06 04:51:38.55	309.21	24.31	-50.7	-52.4	15.4	6.03e-01	0	26	0	48758784	70	4340
2026-01-06 04:51:41.55	308.26	24.12	-51.0	-52.9	15.3	6.02e-01	0	26	0	54525952	70	4549
2026-01-06 04:51:44.54	307.33	23.93	-51.2	-53.1	15.2	6.03e-01	0	26	0	60293120	70	4692
2026-01-06 04:51:47.54	306.41	23.73	-50.4	-52.2	15.4	6.04e-01	0	26	0	66060288	69	4455
2026-01-06 04:51:50.54	305.51	23.52	-50.4	-52.2	15.3	6.03e-01	0	26	0	71303168	69	4456
2026-01-06 04:51:53.56	304.61	23.30	-51.0	-52.9	15.3	6.06e-01	0	26	0	77070336	70	4573
2026-01-06 04:51:56.55	303.73	23.09	-51.1	-53.0	15.2	6.01e-01	0	26	0	82837504	69	4908
2026-01-06 04:51:59.54	302.86	22.86	-50.8	-52.7	15.3	6.06e-01	0	26	0	88080384	69	4709
2026-01-06 04:52:02.55	302.01	22.63	-50.8	-52.6	15.3	6.07e-01	0	26	0	93847552	69	4654
2026-01-06 04:52:05.56	301.16	22.40	-50.4	-52.1	15.6	6.03e-01	0	26	0	99614720	70	4152
2026-01-06 04:52:08.55	300.34	22.16	-51.5	-53.4	15.2	6.04e-01	0	26	0	105381888	71	4589
2026-01-06 04:52:11.55	299.52	21.92	-50.5	-52.2	15.5	6.04e-01	0	26	0	110624768	70	4223
2026-01-06 04:52:14.55	298.72	21.68	-50.3	-52.0	15.4	6.02e-01	0	26	0	116391936	69	4351
2026-01-06 04:52:17.54	297.93	21.44	-50.5	-52.2	15.4	6.04e-01	0	26	0	122159104	69	4478
2026-01-06 04:52:20.53	297.16	21.19	-50.1	-51.7	15.5	6.03e-01	0	26	0	127401984	69	4224
2026-01-06 04:52:23.51	296.40	20.94	-50.7	-52.4	15.3	6.03e-01	0	26	0	133169152	69	4583
2026-01-06 04:52:26.50	295.66	20.68	-50.5	-52.2	15.4	6.05e-01	0	26	0	138936320	69	4483
2026-01-06 04:52:29.49	294.92	20.43	-50.4	-52.1	15.4	6.02e-01	0	26	0	144703488	69	4400
2026-01-06 04:52:32.48	294.20	20.17	-50.5	-52.2	15.4	6.02e-01	0	26	0	149946368	69	4449
2026-01-06 04:52:35.47	293.50	19.91	-49.9	-51.5	15.6	6.00e-01	0	26	0	155713536	69	4122
2026-01-06 04:52:38.47	292.80	19.65	-50.2	-51.8	15.5	6.05e-01	0	26	0	161480704	69	4266
2026-01-06 04:52:41.47	292.11	19.39	-50.2	-51.9	15.5	6.03e-01	0	26	0	166723584	69	4306
2026-01-06 04:52:44.47	291.44	19.13	-50.4	-52.1	15.4	6.03e-01	0	26	0	172490752	69	4417
2026-01-06 04:52:47.47	290.78	18.86	-50.0	-51.7	15.5	6.03e-01	0	26	0	178257920	69	4206
2026-01-06 04:52:50.48	290.13	18.60	-50.1	-51.7	15.5	6.02e-01	0	26	0	183500800	69	4238
2026-01-06 04:52:53.47	289.50	18.33	-50.3	-52.0	15.4	6.02e-01	0	26	0	189267968	69	4382
2026-01-06 04:52:56.46	288.87	18.07	-50.8	-52.6	15.3	6.06e-01	0	26	0	195035136	69	4673
2026-01-06 04:52:59.46	288.26	17.80	-50.3	-52.1	15.4	6.04e-01	0	26	0	200802304	69	4412
2026-01-06 04:53:02.46	287.66	17.54	-50.2	-51.9	15.5	6.01e-01	0	26	0	206045184	69	4324
2026-01-06 04:53:05.47	287.07	17.27	-49.9	-51.5	15.6	6.04e-01	0	26	0	211812352	69	4140
2026-01-06 04:53:08.46	286.49	17.01	-50.5	-52.3	15.2	6.05e-01	0	26	0	217579520	68	4809
2026-01-06 04:53:11.45	285.92	16.74	-50.2	-51.9	15.3	6.05e-01	0	26	0	223346688	68	4591
2026-01-06 04:53:14.44	285.37	16.48	-50.2	-51.9	15.5	6.02e-01	0	26	0	228589568	69	4315
2026-01-06 04:53:17.44	284.82	16.21	-50.5	-52.3	15.4	6.05e-01	0	26	0	234356736	69	4494
2026-01-06 04:53:20.43	284.28	15.95	-50.2	-51.9	15.4	6.04e-01	0	26	0	240123904	69	4333
2026-01-06 04:53:23.43	283.76	15.69	-50.3	-52.1	15.4	6.03e-01	0	26	0	245366784	69	4394
2026-01-06 04:53:26.41	283.24	15.43	-50.3	-52.0	15.4	6.04e-01	0	26	0	251133952	69	4375
2026-01-06 04:53:29.40	282.74	15.17	-50.3	-52.0	15.4	6.04e-01	0	26	0	256901120	69	4358
2026-01-06 04:53:32.39	282.24	14.91	-50.4	-52.2	15.4	6.05e-01	0	26	0	262144000	69	4469
2026-01-06 04:53:35.38	281.75	14.65	-50.2	-51.9	15.5	6.06e-01	0	26	0	267911168	69	4339
2026-01-06 04:53:38.38	281.27	14.39	-50.3	-52.0	15.4	6.04e-01	0	26	0	273678336	69	4366
2026-01-06 04:53:41.37	280.80	14.14	-50.5	-52.3	15.4	6.04e-01	0	26	0	278921216	69	4504
2026-01-06 04:53:44.34	280.35	13.88	-50.3	-52.0	15.4	6.05e-01	0	26	0	284688384	69	4389
2026-01-06 04:53:47.33	279.89	13.63	-50.5	-52.2	15.4	6.03e-01	0	26	0	290455552	69	4492
2026-01-06 04:53:50.33	279.45	13.38	-50.7	-52.5	15.3	6.02e-01	0	26	0	296222720	69	4647
2026-01-06 04:53:53.32	279.01	13.13	-50.6	-52.4	15.3	6.02e-01	0	26	0	301465600	69	4586
2026-01-06 04:53:56.31	278.59	12.88	-50.4	-52.2	15.4	6.03e-01	0	26	0	307232768	69	4449
2026-01-06 04:53:59.31	278.16	12.63	-50.7	-52.5	15.3	6.02e-01	0	26	0	312999936	69	4647
2026-01-06 04:54:02.30	277.75	12.38	-50.7	-52.5	15.3	6.05e-01	0	26	0	318242816	69	4641
2026-01-06 04:54:05.28	277.35	12.14	-50.7	-52.6	15.3	6.01e-01	0	26	0	324009984	69	4654
2026-01-06 04:54:08.27	276.95	11.89	-50.6	-52.4	15.3	6.02e-01	0	26	0	329777152	69	4591
2026-01-06 04:54:11.27	276.56	11.65	-50.7	-52.6	15.3	6.02e-01	0	26	0	335020032	69	4670
2026-01-06 04:54:14.27	276.18	11.41	-50.8	-52.6	15.2	6.04e-01	0	26	0	340787200	69	4701
2026-01-06 04:54:17.27	275.80	11.17	-50.5	-52.4	15.3	6.06e-01	0	26	0	346554368	69	4555
2026-01-06 04:54:20.27	275.43	10.93	-50.8	-52.6	15.2	6.04e-01	0	26	0	352321536	69	4690
2026-01-06 04:54:23.26	275.07	10.69	-50.8	-52.7	15.2	6.04e-01	0	26	0	357564416	69	4741
2026-01-06 04:54:26.25	274.71	10.45	-50.9	-52.8	15.2	6.04e-01	0	26	0	363331584	69	4773
2026-01-06 04:54:29.23	274.36	10.22	-50.9	-52.8	15.2	6.05e-01	0	26	0	369098752	69	4792
2026-01-06 04:54:32.23	274.01	9.99	-50.8	-52.6	15.3	6.04e-01	0	26	0	374341632	69	4705
2026-01-06 04:54:35.21	273.68	9.76	-50.9	-52.8	15.2	6.03e-01	0	26	0	380108800	69	4788
2026-01-06 04:54:38.21	273.34	9.53	-51.0	-52.9	15.2	6.05e-01	0	26	0	385875968	69	4858
2026-01-06 04:54:41.20	273.02	9.30	-51.0	-53.0	15.1	6.04e-01	0	26	0	391643136	69	4897
2026-01-06 04:54:44.18	272.70	9.07	-51.1	-53.1	15.2	6.04e-01	0	26	0	396886016	70	4684
2026-01-06 04:54:47.18	272.38	8.85	-51.1	-53.1	15.2	6.03e-01	0	26	0	402653184	70	4676
2026-01-06 04:54:50.19	272.07	8.62	-51.2	-53.2	15.2	6.03e-01	0	26	0	408420352	70	4714
2026-01-06 04:54:53.17	271.77	8.40	-51.0	-53.0	15.2	6.04e-01	0	26	0	413663232	70	4613
2026-01-06 04:54:56.16	271.47	8.18	-51.2	-53.2	15.2	6.02e-01	0	26	0	419430400	70	4714
2026-01-06 04:54:59.15	271.17	7.96	-51.6	-53.8	15.0	6.02e-01	0	26	0	425197568	70	5077
2026-01-06 04:55:02.15	270.88	7.74	-52.1	-54.5	14.9	6.03e-01	0	26	0	430440448	71	5185
2026-01-06 04:55:05.15	270.59	7.52	-51.9	-54.2	15.1	6.03e-01	0	26	0	436207616	72	4752
2026-01-06 04:55:08.14	270.31	7.31	-52.1	-54.5	15.0	6.03e-01	0	26	0	441974784	72	4922
2026-01-06 04:55:11.14	270.04	7.09	-53.0	-55.8	14.6	6.05e-01	0	26	0	447741952	73	5373
2026-01-06 04:55:14.13	269.77	6.88	-54.1	-57.8	13.9	6.01e-01	0	26	0	452984832	75	6006
2026-01-06 04:55:17.12	269.50	6.67	-54.4	-58.2	13.9	6.05e-01	0	26	0	458752000	76	5942
2026-01-06 04:55:20.12	269.24	6.46	-54.1	-57.6	14.2	6.02e-01	0	26	0	464519168	76	5531
2026-01-06 04:55:23.11	268.98	6.25	-53.9	-57.3	14.3	6.04e-01	0	26	0	469762048	76	5380
2026-01-06 04:55:26.11	268.72	6.04	-54.2	-57.8	14.1	6.01e-01	0	26	0	475529216	76	5680
2026-01-06 04:55:29.12	268.47	5.84	-54.0	-57.4	14.2	6.03e-01	0	26	0	481296384	76	5457
2026-01-06 04:55:32.10	268.23	5.63	-53.8	-57.0	14.4	6.04e-01	0	26	0	487063552	76	5201
2026-01-06 04:55:35.07	267.99	5.43	-53.5	-56.6	14.6	6.02e-01	0	26	0	492306432	76	4936
2026-01-06 04:55:38.07	267.75	5.23	-52.1	-54.5	15.1	6.04e-01	0	26	0	498073600	73	4645
2026-01-06 04:55:41.06	267.51	5.03	-51.6	-53.8	15.2	6.07e-01	0	26	0	503840768	72	4525
2026-01-06 04:55:44.06	267.28	4.83	-58.8	-78.2	3.8	7.46e-01	0	26	104	504889344	85	35360
2026-01-06 04:55:47.06	267.05	4.63	-59.2	-78.6	3.8	7.43e-01	0	26	104	504889344	86	35165
2026-01-06 04:55:50.06	266.83	4.43	-59.5	-78.9	3.8	7.42e-01	0	26	104	504889344	86	36126
2026-01-06 04:55:53.06	266.61	4.24	-59.7	-79.1	3.8	7.51e-01	0	26	104	504889344	87	34974
2026-01-06 04:55:56.06	266.39	4.04	-59.8	-79.2	3.8	7.47e-01	0	26	104	504889344	87	35530
2026-01-06 04:55:59.07	266.17	3.85	-59.9	-79.3	3.8	7.47e-01	0	26	104	504889344	87	35991
2026-01-06 04:56:02.07	265.96	3.65	-60.0	-79.4	3.8	7.48e-01	0	26	104	504889344	87	36194
2026-01-06 04:56:05.06	265.75	3.46	-59.9	-79.3	3.8	7.48e-01	0	26	104	504889344	87	35987
2026-01-06 04:56:08.07	265.55	3.27	-59.8	-79.2	3.8	7.47e-01	0	26	104	504889344	87	35595
2026-01-06 04:56:11.07	265.34	3.08	-59.8	-79.2	3.8	7.45e-01	0	26	104	504889344	87	35447
2026-01-06 04:56:14.07	265.15	2.90	-59.8	-79.2	3.8	7.45e-01	0	26	104	504889344	87	35376
2026-01-06 04:56:17.08	264.95	2.71	-59.8	-79.2	3.8	7.48e-01	0	26	104	504889344	87	35319
2026-01-06 04:56:20.08	264.75	2.52	-59.8	-79.1	3.8	7.48e-01	0	26	104	504889344	87	35192
2026-01-06 04:56:23.07	264.56	2.34	-59.7	-79.1	3.8	7.46e-01	0	26	104	504889344	87	35202
2026-01-06 04:56:26.07	264.38	2.15	-59.7	-79.1	3.8	7.45e-01	0	26	104	504889344	87	35136
2026-01-06 04:56:29.05	264.19	1.97	-59.7	-79.1	3.8	7.48e-01	0	26	104	504889344	87	35063

#Closed at: 2026-01-06 04:56:29
#Recorded file [504 MB]: D:/lorett/data/31004_260106_074451.dat