passes_logs/2026/01/06/R3.2S_Murmansk/R3.2S_Murmansk__20260106_001017_NOAA_21_JPSS-2_rec.log

#Pass ID: 20260106_001017_NOAA 21 (JPSS-2)
#Satellite: NOAA 21 (JPSS-2)
#Configuration: NOAA-21
#almurnet v.1.7.20251203
#Start time: 2026-01-06 00:10:18

#Version: 2.2.20231116
#Station: R3.2S_Murmansk
#Location: 33.079688 lon 68.888172 lat
#TLE: 1 54234U 22150A   26005.42670836  .00000142  00000+0  88292-4 0  9996
#TLE: 2 54234  98.7490 306.4427 0001045 340.6622  19.4514 14.19532269163451

#Time	Az	El	Level	Level2	SNR	BER	BlckErr	Temp	State	Recorded	gain1	gain2
2026-01-06 00:10:18.68	22.72	2.09	-58.1	-71.6	3.8	1.49e+00	0	25	0	0	82	17077
2026-01-06 00:10:22.67	22.80	2.35	-58.0	-71.6	3.8	1.49e+00	0	25	104	0	81	17955
2026-01-06 00:10:26.68	22.87	2.61	-58.0	-71.1	3.8	1.49e+00	0	25	104	0	81	17007
2026-01-06 00:10:30.68	22.94	2.86	-57.9	-70.2	3.8	1.49e+00	0	25	104	0	81	15293
2026-01-06 00:10:34.66	23.01	3.13	-57.8	-69.2	3.9	1.48e+00	0	25	104	0	81	13581
2026-01-06 00:10:38.64	23.09	3.39	-57.8	-68.4	3.9	1.47e+00	0	25	104	0	81	12506
2026-01-06 00:10:42.63	23.16	3.65	-57.2	-64.3	6.1	3.28e-01	0	25	0	6291456	81	7805
2026-01-06 00:10:46.63	23.24	3.92	-55.7	-59.7	9.9	2.95e-03	0	25	0	18874368	78	5461
2026-01-06 00:10:50.63	23.32	4.20	-54.4	-57.4	11.5	3.05e-05	0	25	0	30408704	75	4956
2026-01-06 00:10:54.64	23.40	4.47	-54.5	-57.6	11.3	4.57e-05	0	25	0	42991616	75	5098
2026-01-06 00:10:58.65	23.48	4.75	-55.3	-59.0	10.2	6.51e-04	0	25	0	55574528	75	5967
2026-01-06 00:11:02.63	23.56	5.03	-56.4	-61.5	8.3	2.37e-02	0	26	0	68157440	77	7041
2026-01-06 00:11:06.63	23.64	5.31	-55.7	-59.6	9.8	3.28e-01	0	25	0	78643200	78	5397
2026-01-06 00:11:10.62	23.73	5.60	-52.6	-54.7	13.1	0.00e+00	0	26	0	88080384	71	4575
2026-01-06 00:11:14.62	23.81	5.89	-52.5	-54.4	13.3	0.00e+00	0	26	0	100663296	71	4431
2026-01-06 00:11:18.61	23.90	6.18	-51.9	-53.7	13.7	0.00e+00	0	26	0	113246208	70	4313
2026-01-06 00:11:22.58	23.98	6.48	-51.5	-53.2	13.8	0.00e+00	0	26	0	125829120	69	4338
2026-01-06 00:11:26.56	24.07	6.77	-51.8	-53.6	13.7	0.00e+00	0	26	0	138412032	69	4516
2026-01-06 00:11:30.56	24.16	7.08	-51.4	-53.1	13.9	0.00e+00	0	26	0	150994944	69	4268
2026-01-06 00:11:34.55	24.26	7.38	-51.5	-53.1	13.9	0.00e+00	0	26	0	163577856	69	4280
2026-01-06 00:11:38.53	24.35	7.69	-51.4	-53.1	14.0	0.00e+00	0	26	0	175112192	69	4250
2026-01-06 00:11:42.53	24.45	8.01	-51.2	-52.9	14.0	0.00e+00	0	26	0	187695104	68	4394
2026-01-06 00:11:46.52	24.54	8.32	-51.2	-52.8	14.0	0.00e+00	0	26	0	200278016	68	4359
2026-01-06 00:11:50.49	24.64	8.64	-51.0	-52.5	14.1	0.00e+00	0	26	0	212860928	68	4220
2026-01-06 00:11:54.48	24.74	8.97	-50.9	-52.4	14.2	0.00e+00	0	26	0	225443840	68	4180
2026-01-06 00:11:58.48	24.84	9.30	-50.8	-52.3	14.3	0.00e+00	0	26	0	238026752	68	4102
2026-01-06 00:12:02.48	24.95	9.63	-50.3	-51.8	14.4	0.00e+00	0	26	0	250609664	67	4111
2026-01-06 00:12:06.48	25.06	9.97	-50.5	-51.9	14.3	0.00e+00	0	26	0	263192576	67	4186
2026-01-06 00:12:10.47	25.17	10.32	-50.3	-51.7	14.4	0.00e+00	0	26	0	275775488	67	4078
2026-01-06 00:12:14.46	25.28	10.66	-50.1	-51.6	14.4	0.00e+00	0	26	0	288358400	66	4244
2026-01-06 00:12:18.46	25.39	11.02	-50.1	-51.5	14.4	0.00e+00	0	26	0	299892736	66	4229
2026-01-06 00:12:22.45	25.50	11.38	-50.0	-51.4	14.5	0.00e+00	0	26	0	312475648	66	4156
2026-01-06 00:12:26.44	25.62	11.74	-49.7	-51.0	14.6	0.00e+00	0	26	0	325058560	66	3994
2026-01-06 00:12:30.44	25.74	12.11	-49.7	-51.0	14.6	0.00e+00	0	26	0	337641472	66	3988
2026-01-06 00:12:34.43	25.87	12.48	-49.5	-50.8	14.6	0.00e+00	0	26	0	350224384	65	4140
2026-01-06 00:12:38.42	25.99	12.86	-49.6	-51.0	14.5	0.00e+00	0	26	0	362807296	65	4200
2026-01-06 00:12:42.41	26.12	13.25	-49.5	-50.9	14.6	0.00e+00	0	26	0	375390208	65	4154
2026-01-06 00:12:46.40	26.25	13.64	-49.6	-50.9	14.5	0.00e+00	0	26	0	387973120	65	4174
2026-01-06 00:12:50.38	26.38	14.04	-49.6	-50.9	14.5	0.00e+00	0	26	0	400556032	65	4187
2026-01-06 00:12:54.38	26.52	14.44	-49.5	-50.8	14.6	0.00e+00	0	26	0	412090368	65	4118
2026-01-06 00:12:58.39	26.66	14.86	-49.5	-50.9	14.6	0.00e+00	0	26	0	424673280	65	4151
2026-01-06 00:13:02.39	26.81	15.27	-49.7	-51.0	14.5	0.00e+00	0	26	0	437256192	65	4216
2026-01-06 00:13:06.38	26.96	15.70	-49.7	-51.1	14.5	0.00e+00	0	26	0	449839104	65	4243
2026-01-06 00:13:10.39	27.11	16.14	-49.8	-51.2	14.5	0.00e+00	0	26	0	462422016	65	4301
2026-01-06 00:13:14.39	27.27	16.58	-49.6	-50.9	14.5	0.00e+00	0	26	0	475004928	65	4193
2026-01-06 00:13:18.39	27.43	17.03	-49.6	-50.9	14.6	0.00e+00	0	26	0	487587840	65	4152
2026-01-06 00:13:22.39	27.59	17.49	-49.6	-50.9	14.6	0.00e+00	0	26	0	500170752	65	4190
2026-01-06 00:13:26.38	27.76	17.95	-49.4	-50.7	14.7	0.00e+00	0	26	0	512753664	65	4074
2026-01-06 00:13:30.37	27.93	18.42	-49.3	-50.6	14.7	0.00e+00	0	26	0	525336576	65	4024
2026-01-06 00:13:34.37	28.11	18.91	-49.3	-50.6	14.7	0.00e+00	0	26	0	537919488	65	4030
2026-01-06 00:13:38.36	28.30	19.40	-49.1	-50.3	14.7	0.00e+00	0	26	0	550502400	64	4142
2026-01-06 00:13:42.35	28.49	19.90	-49.0	-50.3	14.7	0.00e+00	0	26	0	563085312	64	4121
2026-01-06 00:13:46.35	28.68	20.42	-49.1	-50.3	14.7	0.00e+00	0	26	0	574619648	64	4134
2026-01-06 00:13:50.34	28.88	20.94	-49.0	-50.2	14.7	0.00e+00	0	26	0	587202560	64	4071
2026-01-06 00:13:54.33	29.09	21.47	-48.9	-50.2	14.8	0.00e+00	0	26	0	599785472	64	4055
2026-01-06 00:13:58.32	29.30	22.02	-48.8	-50.0	14.8	0.00e+00	0	26	0	612368384	64	3970
2026-01-06 00:14:02.31	29.53	22.58	-48.5	-49.7	14.8	0.00e+00	0	26	0	624951296	63	4065
2026-01-06 00:14:06.31	29.75	23.15	-48.3	-49.5	14.9	0.00e+00	0	26	0	637534208	63	3976
2026-01-06 00:14:10.30	29.99	23.73	-48.0	-49.2	14.9	0.00e+00	0	26	0	650117120	62	4056
2026-01-06 00:14:14.31	30.24	24.32	-48.0	-49.1	14.9	0.00e+00	0	26	0	662700032	62	4047
2026-01-06 00:14:18.30	30.49	24.93	-48.4	-49.5	14.8	0.00e+00	0	26	0	675282944	62	4233
2026-01-06 00:14:22.32	30.76	25.56	-48.6	-49.9	14.7	0.00e+00	0	26	0	687865856	62	4394
2026-01-06 00:14:26.33	31.03	26.20	-49.0	-50.2	14.7	0.00e+00	0	26	0	700448768	63	4307
2026-01-06 00:14:30.33	31.32	26.85	-49.1	-50.3	14.6	0.00e+00	0	26	0	711983104	63	4382
2026-01-06 00:14:34.32	31.61	27.51	-49.3	-50.6	14.5	0.00e+00	0	26	0	724566016	63	4513
2026-01-06 00:14:38.31	31.92	28.19	-49.6	-50.9	14.5	0.00e+00	0	26	0	737148928	64	4422
2026-01-06 00:14:42.30	32.24	28.89	-50.0	-51.3	14.4	0.00e+00	0	26	0	749731840	65	4390
2026-01-06 00:14:46.28	32.57	29.60	-49.8	-51.1	14.5	0.00e+00	0	26	0	762314752	65	4280
2026-01-06 00:14:50.27	32.92	30.34	-49.6	-50.9	14.6	0.00e+00	0	27	0	774897664	65	4154
2026-01-06 00:14:54.27	33.28	31.09	-49.1	-50.4	14.7	0.00e+00	0	26	0	787480576	64	4168
2026-01-06 00:14:58.26	33.66	31.86	-49.1	-50.4	14.7	0.00e+00	0	27	0	800063488	64	4159
2026-01-06 00:15:02.25	34.06	32.64	-49.2	-50.5	14.7	0.00e+00	0	26	0	812646400	64	4199
2026-01-06 00:15:06.25	34.48	33.45	-49.3	-50.5	14.7	0.00e+00	0	26	0	825229312	64	4237
2026-01-06 00:15:10.25	34.92	34.28	-50.0	-51.3	14.5	0.00e+00	0	27	0	837812224	65	4352
2026-01-06 00:15:14.25	35.38	35.13	-50.5	-51.9	14.4	0.00e+00	0	27	0	849346560	66	4396
2026-01-06 00:15:18.26	35.87	36.01	-50.7	-52.1	14.3	0.00e+00	0	27	0	861929472	66	4500
2026-01-06 00:15:22.25	36.38	36.90	-50.6	-52.0	14.3	0.00e+00	0	27	0	874512384	66	4445
2026-01-06 00:15:26.25	36.92	37.82	-50.9	-52.3	14.2	0.00e+00	0	27	0	887095296	66	4629
2026-01-06 00:15:30.24	37.49	38.76	-50.8	-52.2	14.3	0.00e+00	0	27	0	899678208	67	4329
2026-01-06 00:15:34.25	38.09	39.72	-50.9	-52.3	14.2	0.00e+00	0	27	0	912261120	67	4391
2026-01-06 00:15:38.23	38.73	40.70	-51.4	-52.9	14.0	0.00e+00	0	27	0	924844032	67	4656
2026-01-06 00:15:42.23	39.40	41.72	-51.9	-53.5	14.0	0.00e+00	0	26	0	937426944	69	4470
2026-01-06 00:15:46.22	40.13	42.75	-51.8	-53.3	14.1	0.00e+00	0	27	0	950009856	69	4385
2026-01-06 00:15:50.21	40.89	43.80	-52.4	-54.0	13.9	0.00e+00	0	27	0	962592768	70	4486
2026-01-06 00:15:54.20	41.71	44.88	-52.3	-53.9	13.9	0.00e+00	0	27	0	974127104	70	4427
2026-01-06 00:15:58.19	42.59	45.99	-52.0	-53.5	14.1	0.00e+00	0	27	0	986710016	70	4222
2026-01-06 00:16:02.19	43.53	47.12	-51.7	-53.2	14.2	0.00e+00	0	27	0	999292928	69	4307
2026-01-06 00:16:06.20	44.54	48.27	-51.5	-53.0	14.3	0.00e+00	0	27	0	1011875840	69	4212
2026-01-06 00:16:10.20	45.63	49.44	-51.2	-52.6	14.3	0.00e+00	0	27	0	1024458752	68	4281
2026-01-06 00:16:14.19	46.81	50.63	-51.7	-53.2	14.1	0.00e+00	0	27	0	1037041664	68	4583
2026-01-06 00:16:18.18	48.08	51.84	-51.1	-52.5	14.4	0.00e+00	0	27	0	1049624576	68	4198
2026-01-06 00:16:22.16	49.45	53.06	-50.8	-52.2	14.5	0.00e+00	0	27	0	1062207488	68	4082
2026-01-06 00:16:26.16	50.95	54.30	-50.9	-52.3	14.5	0.00e+00	0	27	0	1074790400	68	4123
2026-01-06 00:16:30.16	52.58	55.55	-49.8	-51.1	14.7	0.00e+00	0	27	0	1087373312	66	4036
2026-01-06 00:16:34.15	54.36	56.80	-50.2	-51.5	14.6	0.00e+00	0	27	0	1099956224	66	4209
2026-01-06 00:16:38.14	56.30	58.05	-48.7	-49.8	14.8	0.00e+00	0	27	0	1111490560	63	4140
2026-01-06 00:16:42.14	58.44	59.29	-49.1	-50.3	14.7	0.00e+00	0	27	0	1124073472	63	4372
2026-01-06 00:16:46.13	60.79	60.52	-48.5	-49.6	14.9	0.00e+00	0	27	0	1136656384	63	4032
2026-01-06 00:16:50.13	63.37	61.73	-48.5	-49.7	14.9	0.00e+00	0	27	0	1149239296	63	4058
2026-01-06 00:16:54.12	66.21	62.90	-48.6	-49.8	14.8	0.00e+00	0	27	0	1161822208	63	4108
2026-01-06 00:16:58.09	69.32	64.02	-47.8	-48.9	15.0	0.00e+00	0	27	0	1174405120	62	3926
2026-01-06 00:17:02.10	72.77	65.10	-48.2	-49.3	14.8	0.00e+00	0	27	0	1186988032	61	4389
2026-01-06 00:17:06.10	76.54	66.09	-47.9	-49.0	15.0	0.00e+00	0	27	0	1199570944	62	3994
2026-01-06 00:17:10.09	80.65	67.00	-47.7	-48.8	14.9	0.00e+00	0	27	0	1212153856	61	4136
2026-01-06 00:17:14.09	85.12	67.80	-47.8	-48.9	14.9	0.00e+00	0	27	0	1224736768	61	4186
2026-01-06 00:17:18.10	89.93	68.47	-47.6	-48.7	15.0	0.00e+00	0	27	0	1237319680	61	4061
2026-01-06 00:17:22.09	95.01	69.00	-47.6	-48.7	14.9	0.00e+00	0	27	0	1248854016	61	4076
2026-01-06 00:17:26.07	100.32	69.37	-48.2	-49.3	14.8	0.00e+00	0	27	0	1261436928	61	4372
2026-01-06 00:17:30.07	105.82	69.58	-47.9	-49.0	14.8	0.00e+00	0	27	0	1274019840	61	4238
2026-01-06 00:17:34.08	111.40	69.60	-48.2	-49.4	14.8	0.00e+00	0	27	0	1286602752	62	4174
2026-01-06 00:17:38.08	116.93	69.45	-48.2	-49.4	14.9	0.00e+00	0	27	0	1299185664	62	4157
2026-01-06 00:17:42.07	122.31	69.13	-47.8	-48.9	14.9	0.00e+00	0	27	0	1311768576	61	4164
2026-01-06 00:17:46.03	127.44	68.65	-48.2	-49.3	14.9	0.00e+00	0	27	0	1324351488	62	4136
2026-01-06 00:17:50.02	132.32	68.01	-48.4	-49.5	14.8	0.00e+00	0	27	0	1336934400	62	4224
2026-01-06 00:17:54.00	136.87	67.25	-47.7	-48.8	15.0	0.00e+00	0	27	0	1349517312	62	3869
2026-01-06 00:17:57.98	141.07	66.38	-48.0	-49.2	14.8	0.00e+00	0	27	0	1361051648	61	4297
2026-01-06 00:18:01.97	144.95	65.41	-47.8	-48.9	14.9	0.00e+00	0	27	0	1373634560	61	4152
2026-01-06 00:18:05.96	148.48	64.36	-47.4	-48.5	15.0	0.00e+00	0	27	0	1386217472	61	3982
2026-01-06 00:18:09.95	151.70	63.25	-49.2	-50.5	14.6	0.00e+00	0	26	0	1398800384	63	4448
2026-01-06 00:18:13.93	154.62	62.09	-49.0	-50.3	14.6	0.00e+00	0	26	0	1411383296	63	4357
2026-01-06 00:18:17.93	157.29	60.88	-48.5	-49.6	14.9	0.00e+00	0	27	0	1423966208	63	4029
2026-01-06 00:18:21.92	159.70	59.66	-48.7	-49.9	14.7	0.00e+00	0	27	0	1436549120	62	4410
2026-01-06 00:18:25.91	161.90	58.42	-49.5	-50.8	14.5	0.00e+00	0	27	0	1449132032	65	4099
2026-01-06 00:18:29.89	163.90	57.17	-50.0	-51.3	14.4	0.00e+00	0	27	0	1461714944	65	4390
2026-01-06 00:18:33.88	165.73	55.92	-50.0	-51.3	14.4	0.00e+00	0	27	0	1473249280	66	4110
2026-01-06 00:18:37.88	167.41	54.66	-50.2	-51.5	14.3	0.00e+00	0	27	0	1485832192	65	4461
2026-01-06 00:18:41.88	168.95	53.42	-50.7	-52.0	14.3	0.00e+00	0	26	0	1498415104	68	4002
2026-01-06 00:18:45.87	170.36	52.19	-49.0	-50.1	14.7	0.00e+00	0	27	0	1510998016	63	4288
2026-01-06 00:18:49.87	171.67	50.97	-53.3	-55.2	13.4	0.00e+00	0	27	0	1523580928	71	4869
2026-01-06 00:18:53.86	172.87	49.77	-52.4	-53.9	14.0	0.00e+00	0	26	0	1536163840	71	4191
2026-01-06 00:18:57.85	173.98	48.59	-51.5	-52.9	14.2	0.00e+00	0	27	0	1548746752	69	4181
2026-01-06 00:19:01.85	175.02	47.43	-52.9	-54.7	13.6	0.00e+00	0	27	0	1561329664	71	4553
2026-01-06 00:19:05.85	175.98	46.29	-51.0	-52.3	14.5	0.00e+00	0	27	0	1573912576	68	4122
2026-01-06 00:19:09.84	176.88	45.17	-51.8	-53.3	14.0	0.00e+00	0	27	0	1586495488	68	4630
2026-01-06 00:19:13.84	177.72	44.08	-51.3	-52.7	14.4	0.00e+00	0	27	0	1598029824	69	4080
2026-01-06 00:19:17.84	178.50	43.01	-53.4	-55.3	13.4	0.00e+00	0	27	0	1610612736	72	4609
2026-01-06 00:19:21.84	179.24	41.97	-51.5	-53.0	14.2	0.00e+00	0	26	0	1623195648	69	4225
2026-01-06 00:19:25.82	179.93	40.95	-52.0	-53.5	14.0	0.00e+00	0	27	0	1635778560	69	4482
2026-01-06 00:19:29.80	180.57	39.96	-51.6	-53.0	14.3	0.00e+00	0	27	0	1648361472	69	4230
2026-01-06 00:19:33.79	181.19	38.99	-51.8	-53.3	14.1	0.00e+00	0	27	0	1660944384	69	4381
2026-01-06 00:19:37.79	181.77	38.04	-51.9	-53.5	14.0	0.00e+00	0	27	0	1673527296	69	4460
2026-01-06 00:19:41.78	182.31	37.11	-50.9	-52.3	14.4	0.00e+00	0	27	0	1686110208	68	4112
2026-01-06 00:19:45.77	182.83	36.21	-50.9	-52.3	14.5	0.00e+00	0	27	0	1698693120	68	4114
2026-01-06 00:19:49.76	183.32	35.33	-50.3	-51.6	14.6	0.00e+00	0	27	0	1710227456	67	4022
2026-01-06 00:19:53.75	183.79	34.47	-50.8	-52.2	14.3	0.00e+00	0	27	0	1722810368	67	4329
2026-01-06 00:19:57.75	184.23	33.63	-50.6	-52.0	14.4	0.00e+00	0	27	0	1735393280	67	4216
2026-01-06 00:20:01.71	184.65	32.82	-50.9	-52.3	14.3	0.00e+00	0	27	0	1747976192	67	4367
2026-01-06 00:20:05.71	185.06	32.02	-50.8	-52.3	14.3	0.00e+00	0	27	0	1760559104	67	4365
2026-01-06 00:20:09.70	185.44	31.25	-50.2	-51.5	14.5	0.00e+00	0	27	0	1773142016	66	4235
2026-01-06 00:20:13.69	185.81	30.49	-49.5	-50.8	14.7	0.00e+00	0	27	0	1785724928	65	4109
2026-01-06 00:20:17.69	186.16	29.75	-49.4	-50.7	14.7	0.00e+00	0	27	0	1798307840	65	4064
2026-01-06 00:20:21.67	186.50	29.03	-49.1	-50.3	14.7	0.00e+00	0	27	0	1810890752	64	4104
2026-01-06 00:20:25.67	186.82	28.32	-48.7	-49.9	14.7	0.00e+00	0	27	0	1822425088	63	4163
2026-01-06 00:20:29.67	187.13	27.63	-48.8	-50.0	14.7	0.00e+00	0	26	0	1835008000	63	4217
2026-01-06 00:20:33.67	187.43	26.95	-49.0	-50.2	14.7	0.00e+00	0	27	0	1847590912	63	4321
2026-01-06 00:20:37.67	187.72	26.30	-49.0	-50.2	14.7	0.00e+00	0	26	0	1860173824	63	4316
2026-01-06 00:20:41.66	187.99	25.65	-48.9	-50.1	14.7	0.00e+00	0	27	0	1872756736	63	4287
2026-01-06 00:20:45.67	188.26	25.02	-48.9	-50.1	14.7	0.00e+00	0	27	0	1885339648	63	4254
2026-01-06 00:20:49.65	188.52	24.41	-49.0	-50.2	14.6	0.00e+00	0	27	0	1897922560	63	4309
2026-01-06 00:20:53.63	188.76	23.81	-48.9	-50.1	14.7	0.00e+00	0	27	0	1910505472	63	4258
2026-01-06 00:20:57.61	189.00	23.23	-48.8	-50.0	14.7	0.00e+00	0	27	0	1923088384	63	4210
2026-01-06 00:21:01.59	189.23	22.66	-49.2	-50.5	14.5	0.00e+00	0	26	0	1935671296	63	4457
2026-01-06 00:21:05.60	189.45	22.09	-49.3	-50.6	14.5	0.00e+00	0	27	0	1948254208	63	4533
2026-01-06 00:21:09.59	189.67	21.54	-49.3	-50.6	14.5	0.00e+00	0	27	0	1959788544	63	4506
2026-01-06 00:21:13.57	189.88	21.00	-48.8	-50.0	14.7	0.00e+00	0	27	0	1972371456	63	4240
2026-01-06 00:21:17.54	190.08	20.48	-48.7	-49.9	14.7	0.00e+00	0	26	0	1984954368	63	4156
2026-01-06 00:21:21.53	190.27	19.96	-48.8	-50.1	14.7	0.00e+00	0	27	0	1997537280	63	4245
2026-01-06 00:21:25.52	190.46	19.45	-48.8	-50.1	14.7	0.00e+00	0	27	0	2010120192	63	4247
2026-01-06 00:21:29.52	190.65	18.95	-49.0	-50.2	14.6	0.00e+00	0	27	0	2022703104	63	4332
2026-01-06 00:21:33.51	190.82	18.47	-49.0	-50.2	14.6	0.00e+00	0	26	0	2035286016	63	4327
2026-01-06 00:21:37.50	191.00	17.99	-49.2	-50.5	14.6	0.00e+00	0	27	0	2047868928	63	4450
2026-01-06 00:21:41.49	191.17	17.52	-49.4	-50.6	14.5	0.00e+00	0	27	0	2060451840	63	4545
2026-01-06 00:21:45.48	191.33	17.06	-49.6	-50.9	14.5	0.00e+00	0	27	0	2071986176	64	4404
2026-01-06 00:21:49.48	191.49	16.60	-49.8	-51.1	14.4	0.00e+00	0	26	0	2084569088	64	4518
2026-01-06 00:21:53.46	191.64	16.16	-50.0	-51.4	14.3	0.00e+00	0	26	0	2097152000	65	4426
2026-01-06 00:21:57.44	191.80	15.72	-50.1	-51.5	14.3	0.00e+00	0	26	0	2109734912	65	4483
2026-01-06 00:22:01.43	191.94	15.30	-50.2	-51.6	14.3	0.00e+00	0	27	0	2122317824	65	4523
2026-01-06 00:22:05.43	192.09	14.87	-50.1	-51.5	14.3	0.00e+00	0	27	0	2134900736	65	4457
2026-01-06 00:22:09.44	192.23	14.46	-50.1	-51.6	14.3	0.00e+00	0	27	0	2147483648	65	4497
2026-01-06 00:22:13.44	192.36	14.05	-50.0	-51.4	14.3	0.00e+00	0	26	0	2160066560	65	4428
2026-01-06 00:22:17.43	192.50	13.65	-50.1	-51.5	14.3	0.00e+00	0	27	0	2171600896	65	4478
2026-01-06 00:22:21.42	192.63	13.25	-50.1	-51.6	14.3	0.00e+00	0	27	0	2184183808	65	4494
2026-01-06 00:22:25.43	192.76	12.86	-50.2	-51.7	14.2	0.00e+00	0	27	0	2196766720	65	4554
2026-01-06 00:22:29.42	192.88	12.48	-50.2	-51.6	14.2	0.00e+00	0	27	0	2209349632	65	4515
2026-01-06 00:22:33.42	193.00	12.10	-50.6	-52.0	14.1	0.00e+00	0	26	0	2221932544	66	4478
2026-01-06 00:22:37.43	193.12	11.73	-50.4	-51.9	14.2	0.00e+00	0	26	0	2234515456	66	4392
2026-01-06 00:22:41.42	193.24	11.36	-50.4	-51.9	14.2	0.00e+00	0	26	0	2247098368	66	4407
2026-01-06 00:22:45.42	193.35	11.00	-50.2	-51.6	14.3	0.00e+00	0	26	0	2259681280	66	4277
2026-01-06 00:22:49.41	193.46	10.64	-50.2	-51.7	14.3	0.00e+00	0	27	0	2272264192	66	4292
2026-01-06 00:22:53.40	193.57	10.29	-50.4	-51.8	14.2	0.00e+00	0	27	0	2284847104	66	4387
2026-01-06 00:22:57.41	193.68	9.95	-50.5	-52.0	14.1	0.00e+00	0	27	0	2297430016	66	4478
2026-01-06 00:23:01.41	193.78	9.60	-50.6	-52.1	14.1	0.00e+00	0	27	0	2310012928	66	4508
2026-01-06 00:23:05.40	193.89	9.27	-50.7	-52.3	14.0	0.00e+00	0	27	0	2322595840	66	4605
2026-01-06 00:23:09.39	193.99	8.94	-51.0	-52.6	14.0	0.00e+00	0	26	0	2334130176	67	4509
2026-01-06 00:23:13.37	194.09	8.61	-51.0	-52.6	13.9	0.00e+00	0	26	0	2346713088	67	4524
2026-01-06 00:23:17.36	194.18	8.29	-51.2	-52.8	13.9	0.00e+00	0	26	0	2359296000	67	4627
2026-01-06 00:23:21.38	194.28	7.96	-51.3	-53.0	13.7	0.00e+00	0	27	0	2371878912	67	4735
2026-01-06 00:23:25.37	194.37	7.65	-51.7	-53.4	13.7	0.00e+00	0	26	0	2384461824	68	4666
2026-01-06 00:23:29.37	194.46	7.34	-51.6	-53.3	13.7	0.00e+00	0	27	0	2397044736	68	4641
2026-01-06 00:23:33.37	194.55	7.03	-51.6	-53.4	13.7	0.00e+00	0	27	0	2409627648	68	4665
2026-01-06 00:23:37.36	194.64	6.72	-51.7	-53.5	13.6	0.00e+00	0	27	0	2422210560	68	4746
2026-01-06 00:23:41.36	194.73	6.42	-51.8	-53.6	13.6	0.00e+00	0	26	0	2434793472	69	4497
2026-01-06 00:23:45.36	194.81	6.12	-52.0	-53.9	13.4	0.00e+00	0	26	0	2447376384	69	4669
2026-01-06 00:23:49.35	194.90	5.83	-52.2	-54.1	13.3	0.00e+00	0	27	0	2459959296	69	4773
2026-01-06 00:23:53.35	194.98	5.54	-52.2	-54.2	13.3	0.00e+00	0	27	0	2471493632	69	4817
2026-01-06 00:23:57.33	195.06	5.25	-52.3	-54.3	13.2	0.00e+00	0	27	0	2484076544	69	4875
2026-01-06 00:24:01.33	195.14	4.97	-58.7	-72.5	3.8	1.49e+00	0	27	104	2495610880	82	18795
2026-01-06 00:24:05.31	195.22	4.69	-59.8	-73.6	3.8	1.49e+00	0	27	104	2495610880	84	19056
2026-01-06 00:24:09.31	195.30	4.41	-60.1	-73.9	3.8	1.49e+00	0	27	104	2495610880	85	18683
2026-01-06 00:24:13.30	195.37	4.13	-60.2	-74.1	3.8	1.49e+00	0	27	104	2495610880	85	18958
2026-01-06 00:24:17.30	195.45	3.86	-60.3	-74.2	3.8	1.49e+00	0	27	104	2495610880	85	19264
2026-01-06 00:24:21.30	195.52	3.59	-60.4	-74.3	3.8	1.49e+00	0	27	104	2495610880	85	19451
2026-01-06 00:24:25.31	195.60	3.32	-60.4	-74.3	3.8	1.49e+00	0	27	104	2495610880	86	18378
2026-01-06 00:24:29.30	195.67	3.05	-60.4	-74.2	3.8	1.49e+00	0	27	104	2495610880	86	18263
2026-01-06 00:24:33.29	195.74	2.79	-60.4	-74.2	3.8	1.49e+00	0	27	104	2495610880	86	18215
2026-01-06 00:24:37.27	195.81	2.53	-60.3	-74.2	3.8	1.49e+00	0	27	104	2495610880	86	18200
2026-01-06 00:24:41.26	195.88	2.27	-60.3	-74.2	3.8	1.49e+00	0	27	104	2495610880	86	18165
2026-01-06 00:24:45.26	195.94	2.02	-60.3	-74.2	3.8	1.49e+00	0	27	104	2495610880	86	18153

#Closed at: 2026-01-06 00:24:48
#Recorded file [2495 MB]: D:/lorett/data/31004_260106_031018.dat