passes_logs/2026/01/06/R3.2S_Murmansk/R3.2S_Murmansk__20260106_022011_SUOMI_NPP_rec.log

#Pass ID: 20260106_022011_SUOMI NPP
#Satellite: SUOMI NPP
#Configuration: NPP
#almurnet v.1.7.20251203
#Start time: 2026-01-06 02:20:12

#Version: 2.2.20231116
#Station: R3.2S_Murmansk
#Location: 33.079688 lon 68.888172 lat
#TLE: 1 37849U 11061A   26004.95404768  .00000136  00000+0  85334-4 0  9991
#TLE: 2 37849  98.7801 307.0898 0002575  80.6707 279.4760 14.19522289735281

#Time	Az	El	Level	Level2	SNR	BER	BlckErr	Temp	State	Recorded	gain1	gain2
2026-01-06 02:20:12.65	32.37	2.05	-57.7	-73.6	3.8	1.49e+00	0	24	0	0	81	22770
2026-01-06 02:20:16.64	32.23	2.30	-57.6	-73.6	3.8	1.49e+00	0	24	104	0	80	24106
2026-01-06 02:20:20.64	32.10	2.55	-57.6	-73.6	3.8	1.49e+00	0	24	104	0	80	23935
2026-01-06 02:20:24.62	31.96	2.80	-57.7	-73.6	3.8	1.49e+00	0	24	104	0	80	24115
2026-01-06 02:20:28.61	31.81	3.06	-57.7	-73.6	3.8	1.49e+00	0	24	104	0	80	23923
2026-01-06 02:20:32.60	31.67	3.31	-57.7	-73.6	3.8	1.49e+00	0	24	104	0	80	24022
2026-01-06 02:20:36.59	31.52	3.57	-57.6	-73.2	3.8	1.49e+00	0	24	104	0	80	22820
2026-01-06 02:20:40.58	31.37	3.84	-57.6	-72.4	3.8	1.49e+00	0	25	104	0	80	20934
2026-01-06 02:20:44.57	31.21	4.10	-57.6	-71.7	3.8	1.49e+00	0	25	104	0	80	19371
2026-01-06 02:20:48.56	31.05	4.36	-57.4	-69.1	4.5	1.30e+00	2	25	0	1048576	80	14307
2026-01-06 02:20:52.55	30.89	4.63	-57.0	-65.7	6.4	2.27e-01	0	25	0	8388608	80	9622
2026-01-06 02:20:56.54	30.73	4.90	-56.8	-64.2	7.6	6.32e-02	0	25	0	15728640	80	8162
2026-01-06 02:21:00.53	30.56	5.18	-57.4	-65.0	7.6	1.15e-03	0	25	0	23068672	79	9457
2026-01-06 02:21:04.50	30.39	5.45	-55.0	-58.9	12.1	7.00e-07	0	25	0	30408704	76	5533
2026-01-06 02:21:08.49	30.21	5.73	-53.8	-56.7	13.3	0.00e+00	0	25	0	37748736	74	4830
2026-01-06 02:21:12.50	30.03	6.01	-53.4	-56.1	13.6	0.00e+00	0	25	0	45088768	73	4811
2026-01-06 02:21:16.49	29.85	6.30	-53.3	-56.0	13.7	0.00e+00	0	25	0	52428800	73	4723
2026-01-06 02:21:20.47	29.67	6.58	-53.2	-55.8	13.8	0.00e+00	0	25	0	59768832	73	4641
2026-01-06 02:21:24.47	29.47	6.87	-53.4	-56.1	13.6	0.00e+00	0	25	0	67108864	73	4813
2026-01-06 02:21:28.46	29.28	7.17	-53.3	-55.9	13.8	0.00e+00	0	25	0	74448896	73	4691
2026-01-06 02:21:32.47	29.08	7.46	-53.4	-56.1	13.7	0.00e+00	0	25	0	82837504	73	4779
2026-01-06 02:21:36.46	28.88	7.76	-53.3	-56.0	13.7	0.00e+00	0	25	0	90177536	73	4720
2026-01-06 02:21:40.45	28.67	8.06	-53.1	-55.7	13.8	0.00e+00	0	25	0	97517568	72	4861
2026-01-06 02:21:44.46	28.45	8.37	-53.1	-55.7	13.8	0.00e+00	0	25	0	104857600	72	4840
2026-01-06 02:21:48.44	28.24	8.68	-53.0	-55.5	13.9	0.00e+00	0	25	0	112197632	72	4759
2026-01-06 02:21:52.42	28.02	8.99	-53.0	-55.4	14.0	0.00e+00	0	26	0	119537664	72	4683
2026-01-06 02:21:56.41	27.79	9.31	-52.9	-55.4	14.0	0.00e+00	0	26	0	126877696	72	4661
2026-01-06 02:22:00.40	27.55	9.62	-52.8	-55.2	14.1	0.00e+00	0	25	0	135266304	72	4588
2026-01-06 02:22:04.39	27.32	9.95	-52.8	-55.2	14.2	0.00e+00	0	26	0	142606336	72	4557
2026-01-06 02:22:08.38	27.07	10.27	-52.7	-55.0	14.0	0.00e+00	0	26	0	149946368	71	4746
2026-01-06 02:22:12.36	26.82	10.60	-52.7	-55.0	14.1	0.00e+00	0	26	0	157286400	71	4739
2026-01-06 02:22:16.35	26.57	10.94	-52.7	-55.0	14.1	0.00e+00	0	25	0	164626432	71	4748
2026-01-06 02:22:20.34	26.30	11.27	-52.7	-55.0	14.1	0.00e+00	0	26	0	171966464	71	4741
2026-01-06 02:22:24.35	26.03	11.62	-52.5	-54.8	14.2	0.00e+00	0	26	0	179306496	71	4604
2026-01-06 02:22:28.35	25.76	11.97	-52.8	-55.1	14.0	0.00e+00	0	26	0	187695104	71	4803
2026-01-06 02:22:32.35	25.47	12.32	-52.6	-55.0	14.1	0.00e+00	0	26	0	195035136	71	4709
2026-01-06 02:22:36.33	25.18	12.67	-52.7	-55.1	14.1	0.00e+00	0	26	0	202375168	71	4767
2026-01-06 02:22:40.32	24.89	13.03	-52.6	-54.9	14.2	0.00e+00	0	26	0	209715200	71	4652
2026-01-06 02:22:44.31	24.58	13.39	-52.4	-54.6	14.3	0.00e+00	0	26	0	217055232	71	4501
2026-01-06 02:22:48.31	24.27	13.76	-52.4	-54.5	14.4	0.00e+00	0	26	0	224395264	71	4473
2026-01-06 02:22:52.31	23.94	14.14	-52.4	-54.5	14.4	0.00e+00	0	26	0	231735296	71	4466
2026-01-06 02:22:56.30	23.61	14.52	-52.6	-54.8	14.3	0.00e+00	0	26	0	239075328	71	4617
2026-01-06 02:23:00.29	23.27	14.90	-52.7	-54.9	14.2	0.00e+00	0	26	0	247463936	71	4671
2026-01-06 02:23:04.29	22.92	15.29	-52.6	-54.8	14.2	0.00e+00	0	26	0	254803968	71	4640
2026-01-06 02:23:08.29	22.57	15.68	-52.7	-54.9	14.1	0.00e+00	0	26	0	262144000	71	4703
2026-01-06 02:23:12.29	22.20	16.08	-52.3	-54.5	14.4	0.00e+00	0	26	0	269484032	71	4471
2026-01-06 02:23:16.28	21.82	16.49	-52.5	-54.8	14.2	0.00e+00	0	26	0	276824064	71	4624
2026-01-06 02:23:20.27	21.43	16.90	-52.6	-54.8	14.2	0.00e+00	0	26	0	284164096	71	4635
2026-01-06 02:23:24.28	21.02	17.31	-52.6	-54.8	14.2	0.00e+00	0	26	0	291504128	71	4621
2026-01-06 02:23:28.26	20.61	17.73	-52.6	-54.7	14.3	0.00e+00	0	26	0	299892736	71	4587
2026-01-06 02:23:32.27	20.19	18.16	-52.6	-54.7	14.3	0.00e+00	0	26	0	307232768	71	4571
2026-01-06 02:23:36.25	19.75	18.59	-52.5	-54.5	14.4	0.00e+00	0	26	0	314572800	71	4472
2026-01-06 02:23:40.24	19.30	19.03	-52.6	-54.7	14.3	0.00e+00	0	26	0	321912832	71	4589
2026-01-06 02:23:44.23	18.84	19.47	-53.0	-55.2	14.1	0.00e+00	0	26	0	329252864	71	4817
2026-01-06 02:23:48.21	18.36	19.92	-52.7	-54.8	14.3	0.00e+00	0	26	0	336592896	71	4634
2026-01-06 02:23:52.18	17.87	20.37	-52.4	-54.4	14.5	0.00e+00	0	26	0	343932928	71	4437
2026-01-06 02:23:56.17	17.36	20.83	-52.4	-54.4	14.5	0.00e+00	0	26	0	352321536	71	4439
2026-01-06 02:24:00.16	16.84	21.30	-52.8	-54.9	14.2	0.00e+00	0	26	0	359661568	71	4701
2026-01-06 02:24:04.15	16.30	21.78	-53.0	-55.2	14.1	0.00e+00	0	26	0	367001600	71	4844
2026-01-06 02:24:08.13	15.74	22.25	-53.0	-55.4	14.0	0.00e+00	0	26	0	374341632	71	4928
2026-01-06 02:24:12.13	15.16	22.74	-53.2	-55.6	13.9	0.00e+00	0	26	0	381681664	71	5098
2026-01-06 02:24:16.12	14.57	23.23	-53.1	-55.5	14.0	0.00e+00	0	26	0	389021696	71	4996
2026-01-06 02:24:20.12	13.95	23.73	-53.4	-56.0	13.8	0.00e+00	0	26	0	396361728	72	5000
2026-01-06 02:24:24.11	13.32	24.24	-53.2	-55.8	13.9	0.00e+00	0	26	0	403701760	72	4914
2026-01-06 02:24:28.11	12.66	24.75	-52.8	-55.1	14.3	0.00e+00	0	26	0	412090368	72	4495
2026-01-06 02:24:32.10	11.98	25.26	-52.8	-55.0	14.2	0.00e+00	0	26	0	419430400	71	4758
2026-01-06 02:24:36.08	11.29	25.78	-53.3	-55.7	13.9	0.00e+00	0	26	0	426770432	71	5139
2026-01-06 02:24:40.07	10.56	26.31	-53.2	-55.6	14.0	0.00e+00	0	26	0	434110464	72	4808
2026-01-06 02:24:44.07	9.81	26.84	-53.0	-55.5	14.1	0.00e+00	0	26	0	441450496	72	4735
2026-01-06 02:24:48.07	9.03	27.38	-53.6	-56.3	13.6	0.00e+00	0	26	0	448790528	72	5179
2026-01-06 02:24:52.04	8.23	27.91	-53.5	-56.0	13.8	0.00e+00	0	26	0	456130560	72	5026
2026-01-06 02:24:56.03	7.40	28.46	-54.1	-56.8	13.5	0.00e+00	0	26	0	464519168	73	5201
2026-01-06 02:25:00.02	6.54	29.01	-54.1	-56.9	13.6	0.00e+00	0	26	0	471859200	74	4970
2026-01-06 02:25:04.01	5.65	29.56	-54.7	-57.9	13.1	0.00e+00	0	26	0	479199232	75	5271
2026-01-06 02:25:07.99	4.73	30.11	-55.1	-58.7	12.6	0.00e+00	0	26	0	486539264	75	5773
2026-01-06 02:25:11.98	3.78	30.67	-54.8	-58.2	12.9	0.00e+00	0	26	0	493879296	75	5417
2026-01-06 02:25:15.96	2.79	31.22	-55.5	-59.3	12.5	0.00e+00	0	26	0	501219328	76	5799
2026-01-06 02:25:19.96	1.76	31.78	-54.0	-56.6	13.8	0.00e+00	0	26	0	508559360	74	4770
2026-01-06 02:25:23.94	0.71	32.34	-55.0	-58.3	12.9	0.00e+00	0	26	0	515899392	75	5528
2026-01-06 02:25:27.92	359.61	32.89	-54.1	-56.7	13.7	0.00e+00	0	26	0	524288000	74	4860
2026-01-06 02:25:31.90	358.48	33.45	-53.8	-56.5	13.7	0.00e+00	0	26	0	531628032	73	5002
2026-01-06 02:25:35.88	357.30	34.00	-54.6	-57.8	13.2	0.00e+00	0	26	0	538968064	74	5474
2026-01-06 02:25:39.88	356.09	34.54	-53.8	-56.5	13.9	0.00e+00	0	26	0	546308096	74	4737
2026-01-06 02:25:43.86	354.83	35.08	-53.9	-56.9	13.8	0.00e+00	0	26	0	553648128	74	4964
2026-01-06 02:25:47.84	353.53	35.62	-54.2	-57.1	13.6	0.00e+00	0	26	0	560988160	74	5047
2026-01-06 02:25:51.82	352.19	36.14	-54.6	-58.2	12.8	0.00e+00	0	26	0	568328192	74	5762
2026-01-06 02:25:55.78	350.82	36.65	-54.6	-58.3	12.7	0.00e+00	0	26	0	575668224	74	5833
2026-01-06 02:25:59.77	349.38	37.15	-54.6	-58.2	12.8	0.00e+00	0	26	0	584056832	74	5758
2026-01-06 02:26:03.74	347.92	37.64	-53.8	-56.6	13.6	0.00e+00	0	26	0	591396864	73	5077
2026-01-06 02:26:07.72	346.40	38.11	-54.3	-57.3	13.4	0.00e+00	0	26	0	598736896	74	5198
2026-01-06 02:26:11.71	344.83	38.57	-52.8	-55.2	14.2	0.00e+00	0	26	0	606076928	71	4819
2026-01-06 02:26:15.70	343.22	39.01	-52.9	-55.4	14.2	0.00e+00	0	26	0	613416960	72	4660
2026-01-06 02:26:19.69	341.57	39.42	-52.8	-55.4	14.0	0.00e+00	0	26	0	620756992	71	4959
2026-01-06 02:26:23.67	339.88	39.82	-52.7	-55.2	14.1	0.00e+00	0	26	0	628097024	71	4869
2026-01-06 02:26:27.65	338.15	40.18	-52.2	-54.6	14.3	0.00e+00	0	26	0	635437056	70	4803
2026-01-06 02:26:31.66	336.37	40.53	-50.9	-52.8	14.8	0.00e+00	0	26	0	643825664	68	4376
2026-01-06 02:26:35.63	334.57	40.84	-51.5	-53.6	14.5	0.00e+00	0	26	0	651165696	68	4789
2026-01-06 02:26:39.62	332.73	41.12	-52.4	-54.6	14.3	0.00e+00	0	26	0	658505728	70	4790
2026-01-06 02:26:43.61	330.85	41.37	-52.7	-55.0	14.3	0.00e+00	0	26	0	665845760	71	4757
2026-01-06 02:26:47.59	328.96	41.58	-53.2	-55.9	13.9	0.00e+00	0	26	0	673185792	71	5228
2026-01-06 02:26:51.59	327.03	41.76	-52.0	-54.1	14.6	0.00e+00	0	26	0	680525824	70	4503
2026-01-06 02:26:55.59	325.08	41.91	-53.2	-55.8	14.0	0.00e+00	0	26	0	687865856	72	4891
2026-01-06 02:26:59.58	323.11	42.02	-52.4	-54.5	14.3	0.00e+00	0	26	0	695205888	69	5041
2026-01-06 02:27:03.58	321.14	42.09	-53.2	-55.6	14.1	0.00e+00	0	26	0	703594496	72	4799
2026-01-06 02:27:07.58	319.16	42.12	-53.5	-56.2	13.9	0.00e+00	0	26	0	710934528	72	5105
2026-01-06 02:27:11.57	317.18	42.11	-53.2	-55.9	14.1	0.00e+00	0	26	0	718274560	73	4653
2026-01-06 02:27:15.56	315.20	42.06	-53.5	-56.4	13.7	0.00e+00	0	26	0	725614592	72	5237
2026-01-06 02:27:19.54	313.24	41.98	-54.6	-58.4	12.7	0.00e+00	0	26	0	732954624	74	5881
2026-01-06 02:27:23.55	311.27	41.85	-54.9	-58.6	12.8	0.00e+00	0	26	0	740294656	75	5705
2026-01-06 02:27:27.55	309.33	41.69	-54.7	-58.5	12.8	0.00e+00	0	26	0	748683264	75	5635
2026-01-06 02:27:31.54	307.41	41.50	-56.2	-62.3	10.3	2.94e-04	0	26	0	756023296	77	7787
2026-01-06 02:27:35.54	305.52	41.27	-55.1	-59.4	12.4	0.00e+00	0	26	0	763363328	76	5878
2026-01-06 02:27:39.54	303.65	41.00	-55.2	-59.9	12.0	2.20e-06	0	26	0	770703360	75	6610
2026-01-06 02:27:43.52	301.82	40.71	-54.6	-58.2	13.1	0.00e+00	0	26	0	778043392	75	5430
2026-01-06 02:27:47.51	300.03	40.38	-52.7	-55.2	14.3	0.00e+00	0	26	0	785383424	72	4565
2026-01-06 02:27:51.49	298.27	40.03	-52.3	-54.5	14.4	0.00e+00	0	26	0	792723456	71	4493
2026-01-06 02:27:55.47	296.56	39.65	-51.1	-53.0	14.7	0.00e+00	0	26	0	800063488	68	4490
2026-01-06 02:27:59.48	294.87	39.25	-51.6	-53.6	14.5	0.00e+00	0	26	0	808452096	68	4792
2026-01-06 02:28:03.48	293.23	38.82	-50.3	-52.0	15.0	0.00e+00	0	26	0	815792128	67	4230
2026-01-06 02:28:07.49	291.63	38.37	-51.8	-53.9	14.4	0.00e+00	0	26	0	823132160	68	4980
2026-01-06 02:28:11.48	290.08	37.90	-52.1	-54.2	14.5	0.00e+00	0	26	0	830472192	70	4579
2026-01-06 02:28:15.47	288.58	37.42	-52.3	-54.4	14.4	0.00e+00	0	26	0	837812224	70	4659
2026-01-06 02:28:19.45	287.12	36.93	-51.2	-53.0	14.9	0.00e+00	0	26	0	845152256	69	4224
2026-01-06 02:28:23.46	285.70	36.42	-51.4	-53.1	14.7	0.00e+00	0	26	0	852492288	68	4500
2026-01-06 02:28:27.46	284.33	35.89	-52.2	-54.1	14.7	0.00e+00	0	26	0	860880896	71	4270
2026-01-06 02:28:31.47	283.00	35.36	-52.2	-54.0	14.5	0.00e+00	0	26	0	868220928	70	4492
2026-01-06 02:28:35.46	281.71	34.82	-53.0	-55.2	14.0	0.00e+00	0	26	0	875560960	71	4854
2026-01-06 02:28:39.44	280.48	34.28	-54.7	-57.5	13.3	0.00e+00	0	26	0	882900992	74	5323
2026-01-06 02:28:43.44	279.27	33.73	-53.6	-55.9	14.1	0.00e+00	0	26	0	890241024	73	4689
2026-01-06 02:28:47.44	278.11	33.17	-53.4	-55.6	14.2	0.00e+00	0	26	0	897581056	72	4768
2026-01-06 02:28:51.45	276.99	32.61	-54.1	-56.7	13.8	0.00e+00	0	26	0	905969664	74	4828
2026-01-06 02:28:55.46	275.90	32.05	-54.4	-57.1	13.5	0.00e+00	0	26	0	913309696	73	5357
2026-01-06 02:28:59.45	274.85	31.49	-56.5	-61.2	11.4	7.00e-07	0	27	0	920649728	78	6437
2026-01-06 02:29:03.44	273.85	30.93	-54.9	-57.9	13.3	0.00e+00	0	26	0	927989760	76	4957
2026-01-06 02:29:07.45	272.87	30.37	-54.3	-57.1	13.6	0.00e+00	0	26	0	935329792	75	4792
2026-01-06 02:29:11.43	271.93	29.82	-54.0	-56.6	13.7	0.00e+00	0	26	0	942669824	74	4773
2026-01-06 02:29:15.45	271.01	29.26	-53.9	-56.4	13.9	0.00e+00	0	26	0	950009856	74	4677
2026-01-06 02:29:19.44	270.14	28.71	-53.8	-56.1	14.0	0.00e+00	0	26	0	958398464	74	4545
2026-01-06 02:29:23.44	269.29	28.16	-53.5	-55.8	14.1	0.00e+00	0	26	0	965738496	73	4616
2026-01-06 02:29:27.44	268.47	27.61	-52.8	-54.9	14.4	0.00e+00	0	26	0	973078528	72	4421
2026-01-06 02:29:31.42	267.68	27.08	-52.6	-54.6	14.4	0.00e+00	0	26	0	980418560	71	4541
2026-01-06 02:29:35.41	266.91	26.54	-53.0	-55.1	14.2	0.00e+00	0	27	0	987758592	71	4804
2026-01-06 02:29:39.41	266.17	26.01	-53.8	-56.4	13.8	0.00e+00	0	27	0	995098624	73	4947
2026-01-06 02:29:43.38	265.46	25.49	-54.4	-57.2	13.4	0.00e+00	0	27	0	1002438656	74	5154
2026-01-06 02:29:47.38	264.77	24.97	-53.8	-56.4	13.9	0.00e+00	0	26	0	1010827264	74	4669
2026-01-06 02:29:51.35	264.10	24.46	-53.3	-55.6	14.2	0.00e+00	0	27	0	1018167296	73	4520
2026-01-06 02:29:55.33	263.46	23.95	-53.3	-55.6	14.1	0.00e+00	0	26	0	1025507328	72	4781
2026-01-06 02:29:59.33	262.83	23.45	-53.2	-55.4	14.1	0.00e+00	0	26	0	1032847360	72	4703
2026-01-06 02:30:03.32	262.22	22.95	-52.5	-54.6	14.4	0.00e+00	0	26	0	1040187392	71	4502
2026-01-06 02:30:07.31	261.64	22.46	-53.7	-56.2	13.8	0.00e+00	0	27	0	1047527424	72	5150
2026-01-06 02:30:11.30	261.07	21.98	-55.1	-58.4	12.9	0.00e+00	0	26	0	1054867456	75	5542
2026-01-06 02:30:15.29	260.52	21.50	-54.5	-56.9	13.7	0.00e+00	0	26	0	1062207488	75	4700
2026-01-06 02:30:19.27	259.99	21.03	-54.3	-56.6	13.8	0.00e+00	0	26	0	1070596096	74	4784
2026-01-06 02:30:23.24	259.47	20.57	-54.1	-56.4	13.9	0.00e+00	0	26	0	1077936128	74	4678
2026-01-06 02:30:27.22	258.97	20.11	-54.1	-56.3	13.9	0.00e+00	0	26	0	1085276160	74	4632
2026-01-06 02:30:31.20	258.48	19.66	-53.0	-54.9	14.4	0.00e+00	0	26	0	1092616192	72	4401
2026-01-06 02:30:35.18	258.01	19.21	-52.6	-54.4	14.5	0.00e+00	0	26	0	1099956224	71	4427
2026-01-06 02:30:39.16	257.55	18.77	-53.3	-55.3	14.0	0.00e+00	0	26	0	1107296256	71	4920
2026-01-06 02:30:43.14	257.11	18.33	-53.9	-56.1	13.9	0.00e+00	0	26	0	1114636288	73	4779
2026-01-06 02:30:47.13	256.68	17.90	-53.4	-55.5	14.2	0.00e+00	0	26	0	1121976320	73	4462
2026-01-06 02:30:51.11	256.26	17.48	-53.5	-55.6	14.2	0.00e+00	0	26	0	1129316352	73	4494
2026-01-06 02:30:55.07	255.85	17.07	-53.6	-55.7	14.1	0.00e+00	0	26	0	1137704960	73	4570
2026-01-06 02:30:59.05	255.46	16.65	-53.9	-56.2	13.9	0.00e+00	0	26	0	1145044992	73	4834
2026-01-06 02:31:03.03	255.07	16.25	-54.3	-56.7	13.6	0.00e+00	0	26	0	1152385024	73	5133
2026-01-06 02:31:07.02	254.70	15.85	-54.3	-56.7	13.6	0.00e+00	0	26	0	1159725056	73	5147
2026-01-06 02:31:11.00	254.33	15.45	-53.5	-55.6	14.1	0.00e+00	0	26	0	1167065088	73	4544
2026-01-06 02:31:14.99	253.98	15.06	-52.9	-54.8	14.3	0.00e+00	0	26	0	1174405120	72	4387
2026-01-06 02:31:18.95	253.63	14.67	-52.9	-54.8	14.4	0.00e+00	0	26	0	1181745152	72	4371
2026-01-06 02:31:22.94	253.30	14.29	-53.4	-55.6	14.0	0.00e+00	0	26	0	1189085184	72	4763
2026-01-06 02:31:26.93	252.97	13.92	-53.4	-55.6	14.0	0.00e+00	0	26	0	1197473792	72	4760
2026-01-06 02:31:30.92	252.65	13.54	-53.3	-55.4	14.1	0.00e+00	0	26	0	1204813824	72	4695
2026-01-06 02:31:34.89	252.34	13.18	-53.7	-55.9	13.8	0.00e+00	0	26	0	1212153856	72	4977
2026-01-06 02:31:38.87	252.03	12.82	-54.0	-56.4	13.7	0.00e+00	0	26	0	1219493888	73	4971
2026-01-06 02:31:42.86	251.74	12.46	-54.2	-56.7	13.5	0.00e+00	0	26	0	1226833920	73	5117
2026-01-06 02:31:46.86	251.45	12.10	-54.4	-56.9	13.5	0.00e+00	0	26	0	1234173952	74	4967
2026-01-06 02:31:50.85	251.17	11.75	-54.4	-56.9	13.5	0.00e+00	0	26	0	1241513984	74	4959
2026-01-06 02:31:54.83	250.89	11.41	-54.7	-57.5	13.2	0.00e+00	0	26	0	1248854016	74	5286
2026-01-06 02:31:58.83	250.62	11.07	-55.1	-58.0	12.9	0.00e+00	0	26	0	1257242624	75	5332
2026-01-06 02:32:02.82	250.36	10.73	-55.0	-58.0	12.9	0.00e+00	0	26	0	1264582656	75	5309
2026-01-06 02:32:06.81	250.11	10.40	-54.8	-57.5	13.2	0.00e+00	0	26	0	1271922688	75	5040
2026-01-06 02:32:10.80	249.86	10.07	-54.5	-57.2	13.4	0.00e+00	0	26	0	1279262720	75	4837
2026-01-06 02:32:14.78	249.61	9.75	-54.3	-56.9	13.6	0.00e+00	0	26	0	1286602752	75	4652
2026-01-06 02:32:18.78	249.37	9.42	-54.1	-56.5	13.7	0.00e+00	0	26	0	1293942784	74	4757
2026-01-06 02:32:22.76	249.14	9.11	-54.2	-56.8	13.5	0.00e+00	0	26	0	1301282816	74	4880
2026-01-06 02:32:26.75	248.92	8.79	-54.3	-56.8	13.5	0.00e+00	0	26	0	1309671424	74	4910
2026-01-06 02:32:30.75	248.69	8.48	-54.5	-57.2	13.2	0.00e+00	0	26	0	1317011456	74	5130
2026-01-06 02:32:34.73	248.48	8.17	-54.4	-57.2	13.3	0.00e+00	0	26	0	1324351488	74	5103
2026-01-06 02:32:38.72	248.26	7.87	-54.7	-57.5	13.1	0.00e+00	0	26	0	1331691520	74	5339
2026-01-06 02:32:42.72	248.05	7.57	-54.9	-57.9	12.9	0.00e+00	0	26	0	1339031552	75	5240
2026-01-06 02:32:46.71	247.85	7.27	-55.0	-58.1	12.8	0.00e+00	0	26	0	1346371584	75	5373
2026-01-06 02:32:50.71	247.65	6.97	-55.3	-58.7	12.4	0.00e+00	0	26	0	1353711616	75	5738
2026-01-06 02:32:54.69	247.46	6.68	-55.6	-59.3	12.1	0.00e+00	0	26	0	1361051648	76	5789
2026-01-06 02:32:58.68	247.27	6.39	-55.6	-59.1	12.1	0.00e+00	0	26	0	1369440256	76	5716
2026-01-06 02:33:02.66	247.08	6.11	-55.4	-59.0	12.2	7.00e-07	0	26	0	1376780288	76	5627
2026-01-06 02:33:06.66	246.90	5.82	-55.3	-58.8	12.3	7.00e-07	0	26	0	1384120320	76	5478
2026-01-06 02:33:10.66	246.72	5.54	-55.1	-58.4	12.6	0.00e+00	0	26	0	1391460352	76	5254
2026-01-06 02:33:14.64	246.54	5.27	-55.0	-58.2	12.7	0.00e+00	0	26	0	1398800384	76	5122
2026-01-06 02:33:18.62	246.37	4.99	-57.7	-65.9	7.6	0.00e+00	0	26	0	1406140416	80	9849
2026-01-06 02:33:22.63	246.20	4.72	-59.8	-75.8	3.8	1.49e+00	0	26	104	1406140416	84	24674
2026-01-06 02:33:26.62	246.03	4.45	-60.1	-76.2	3.8	1.49e+00	0	26	104	1406140416	85	24335
2026-01-06 02:33:30.61	245.87	4.18	-60.3	-76.4	3.8	1.49e+00	0	26	104	1406140416	85	24880
2026-01-06 02:33:34.60	245.71	3.92	-60.4	-76.5	3.8	1.49e+00	0	27	104	1406140416	85	25131
2026-01-06 02:33:38.60	245.56	3.65	-60.5	-76.6	3.8	1.49e+00	0	26	104	1406140416	86	23880
2026-01-06 02:33:42.60	245.40	3.39	-60.4	-76.5	3.8	1.49e+00	0	26	104	1406140416	86	23827
2026-01-06 02:33:46.60	245.25	3.13	-60.4	-76.5	3.8	1.49e+00	0	27	104	1406140416	86	23794
2026-01-06 02:33:50.60	245.11	2.87	-60.4	-76.5	3.8	1.49e+00	0	26	104	1406140416	86	23709
2026-01-06 02:33:54.61	244.96	2.62	-60.4	-76.5	3.8	1.49e+00	0	26	104	1406140416	86	23663
2026-01-06 02:33:58.62	244.82	2.37	-60.3	-76.4	3.8	1.49e+00	0	26	104	1406140416	86	23548
2026-01-06 02:34:02.59	244.68	2.12	-60.3	-76.4	3.8	1.49e+00	0	26	104	1406140416	86	23497

#Closed at: 2026-01-06 02:34:05
#Recorded file [1406 MB]: D:/lorett/data/31004_260106_052012.dat