passes_logs/2025/01/26/X_MFTI_02/X_MFTI_02__20250126_005535_AQUA_rec.log

#Pass ID: 20250126_005535_AQUA
#Satellite: AQUA
#Configuration: AQUA
#Start time: 2025-01-26 00:55:30

#Version: 1.5.20200625
#Station: X_MFTI_02
#Location: 37.5186 lon 55.9291 lat
#TLE: 1 27424U 02022A   23362.45420161  .00001617  00000+0  35675-3 0  9997
#TLE: 2 27424  98.3111 306.4798 0000768  48.9916  62.2296 14.58703046151674

#Time	Az	El	Level	Level2	SNR	BER	Gain	Gain2
2025-01-26 00:55:32.27	326.94	69.26	
2025-01-26 00:55:32.48	326.66	69.33	
2025-01-26 00:55:32.68	326.40	69.40	
2025-01-26 00:55:32.89	326.12	69.47	
2025-01-26 00:55:33.09	325.85	69.53	
2025-01-26 00:55:33.31	325.56	69.61	
2025-01-26 00:55:33.51	325.29	69.67	
2025-01-26 00:55:33.71	325.01	69.74	
2025-01-26 00:55:33.92	324.72	69.80	
2025-01-26 00:55:34.13	324.43	69.87	
2025-01-26 00:55:34.34	324.14	69.94	
2025-01-26 00:55:34.55	323.84	70.00	
2025-01-26 00:55:34.76	323.55	70.07	
2025-01-26 00:55:34.97	323.25	70.13	
2025-01-26 00:55:35.17	322.96	70.19	
2025-01-26 00:55:35.38	322.65	70.26	
2025-01-26 00:55:35.59	322.35	70.32	
2025-01-26 00:55:35.80	322.04	70.39	
2025-01-26 00:55:36.00	321.75	70.45	
2025-01-26 00:55:36.20	321.45	70.51	
2025-01-26 00:55:36.41	321.13	70.57	
2025-01-26 00:55:36.61	320.83	70.63	
2025-01-26 00:55:36.81	320.53	70.68	
2025-01-26 00:55:37.02	320.21	70.74	
2025-01-26 00:55:37.22	319.90	70.80	
2025-01-26 00:55:37.43	319.58	70.86	
2025-01-26 00:55:37.63	319.27	70.92	
2025-01-26 00:55:37.84	318.94	70.97	
2025-01-26 00:55:38.04	318.62	71.03	
2025-01-26 00:55:38.25	318.29	71.09	
2025-01-26 00:55:38.46	317.95	71.14	
2025-01-26 00:55:38.67	317.62	71.20	
2025-01-26 00:55:38.87	317.29	71.25	
2025-01-26 00:55:39.07	316.97	71.30	
2025-01-26 00:55:39.28	316.63	71.36	
2025-01-26 00:55:39.48	316.30	71.41	
2025-01-26 00:55:39.69	315.95	71.46	
2025-01-26 00:55:39.89	315.62	71.51	
2025-01-26 00:55:40.10	315.26	71.56	
2025-01-26 00:55:40.30	314.93	71.61	
2025-01-26 00:55:40.51	314.57	71.66	
2025-01-26 00:55:40.71	314.23	71.71	
2025-01-26 00:55:40.91	313.89	71.76	
2025-01-26 00:55:41.12	313.53	71.81	
2025-01-26 00:55:41.32	313.18	71.85	
2025-01-26 00:55:41.52	312.83	71.90	
2025-01-26 00:55:41.72	312.48	71.94	
2025-01-26 00:55:41.93	312.11	71.99	
2025-01-26 00:55:42.13	311.76	72.03	
2025-01-26 00:55:42.34	311.38	72.08	
2025-01-26 00:55:42.54	311.03	72.12	
2025-01-26 00:55:42.75	310.65	72.16	
2025-01-26 00:55:42.95	310.29	72.20	
2025-01-26 00:55:43.16	309.91	72.24	
2025-01-26 00:55:43.36	309.54	72.28	
2025-01-26 00:55:43.56	309.18	72.32	
2025-01-26 00:55:43.76	308.81	72.36	
2025-01-26 00:55:43.98	308.40	72.40	
2025-01-26 00:55:44.19	308.01	72.44	
2025-01-26 00:55:44.39	307.64	72.47	
2025-01-26 00:55:44.59	307.26	72.51	
2025-01-26 00:55:44.80	306.87	72.55	
2025-01-26 00:55:45.00	306.49	72.58	
2025-01-26 00:55:45.21	306.09	72.61	
2025-01-26 00:55:45.42	305.69	72.65	
2025-01-26 00:55:45.62	305.31	72.68	
2025-01-26 00:55:45.83	304.90	72.71	
2025-01-26 00:55:46.05	304.48	72.74	
2025-01-26 00:55:46.25	304.09	72.77	
2025-01-26 00:55:46.45	303.70	72.80	
2025-01-26 00:55:46.65	303.31	72.83	
2025-01-26 00:55:46.86	302.90	72.86	
2025-01-26 00:55:47.08	302.47	72.89	
2025-01-26 00:55:47.28	302.08	72.91	
2025-01-26 00:55:47.48	301.68	72.93	
2025-01-26 00:55:47.70	301.25	72.96	
2025-01-26 00:55:47.90	300.85	72.98	
2025-01-26 00:55:48.10	300.45	73.01	
2025-01-26 00:55:48.32	300.01	73.03	
2025-01-26 00:55:48.52	299.61	73.05	
2025-01-26 00:55:48.73	299.19	73.07	
2025-01-26 00:55:48.93	298.78	73.09	
2025-01-26 00:55:49.14	298.36	73.11	
2025-01-26 00:55:49.34	297.95	73.12	
2025-01-26 00:55:49.55	297.53	73.14	
2025-01-26 00:55:49.75	297.12	73.16	
2025-01-26 00:55:49.95	296.72	73.17	
2025-01-26 00:55:50.16	296.29	73.19	
2025-01-26 00:55:50.36	295.88	73.20	
2025-01-26 00:55:50.57	295.45	73.21	
2025-01-26 00:55:50.77	295.04	73.22	
2025-01-26 00:55:50.97	294.63	73.23	
2025-01-26 00:55:51.18	294.20	73.24	
2025-01-26 00:55:51.38	293.78	73.25	
2025-01-26 00:55:51.59	293.35	73.26	
2025-01-26 00:55:51.80	292.92	73.27	
2025-01-26 00:55:52.01	292.49	73.27	
2025-01-26 00:55:52.21	292.07	73.28	
2025-01-26 00:55:52.41	291.66	73.28	
2025-01-26 00:55:52.62	291.23	73.29	
2025-01-26 00:55:52.82	290.81	73.29	
2025-01-26 00:55:53.02	290.40	73.29	
2025-01-26 00:55:53.23	289.96	73.29	
2025-01-26 00:55:53.43	289.55	73.29	
2025-01-26 00:55:53.64	289.11	73.29	
2025-01-26 00:55:53.85	288.68	73.29	
2025-01-26 00:55:54.06	288.24	73.29	
2025-01-26 00:55:54.26	287.83	73.29	
2025-01-26 00:55:54.46	287.42	73.28	
2025-01-26 00:55:54.68	286.96	73.28	
2025-01-26 00:55:54.89	286.53	73.27	
2025-01-26 00:55:55.09	286.12	73.26	
2025-01-26 00:55:55.30	285.68	73.26	
2025-01-26 00:55:55.51	285.25	73.25	
2025-01-26 00:55:55.72	284.82	73.24	
2025-01-26 00:55:55.92	284.41	73.23	
2025-01-26 00:55:56.13	283.98	73.22	
2025-01-26 00:55:56.34	283.55	73.20	
2025-01-26 00:55:56.54	283.14	73.19	
2025-01-26 00:55:56.75	282.71	73.18	
2025-01-26 00:55:56.96	282.28	73.16	
2025-01-26 00:55:57.17	281.85	73.15	
2025-01-26 00:55:57.39	281.41	73.13	
2025-01-26 00:55:57.59	281.00	73.11	
2025-01-26 00:55:57.80	280.58	73.09	
2025-01-26 00:55:58.00	280.18	73.07	
2025-01-26 00:55:58.20	279.77	73.06	
2025-01-26 00:55:58.40	279.37	73.04	
2025-01-26 00:55:58.60	278.97	73.01	
2025-01-26 00:55:58.81	278.55	72.99	
2025-01-26 00:55:59.02	278.13	72.97	
2025-01-26 00:55:59.22	277.74	72.94	
2025-01-26 00:55:59.42	277.34	72.92	
2025-01-26 00:55:59.62	276.95	72.90	
2025-01-26 00:55:59.83	276.53	72.87	
2025-01-26 00:56:00.03	276.14	72.84	
2025-01-26 00:56:00.24	275.73	72.81	
2025-01-26 00:56:00.44	275.34	72.79	
2025-01-26 00:56:00.65	274.93	72.76	
2025-01-26 00:56:00.85	274.55	72.73	
2025-01-26 00:56:01.05	274.16	72.70	
2025-01-26 00:56:01.25	273.78	72.67	
2025-01-26 00:56:01.46	273.38	72.63	
2025-01-26 00:56:01.67	272.98	72.60	
2025-01-26 00:56:01.87	272.60	72.56	
2025-01-26 00:56:02.07	272.22	72.53	
2025-01-26 00:56:02.28	271.82	72.49	
2025-01-26 00:56:02.48	271.45	72.46	
2025-01-26 00:56:02.68	271.08	72.42	
2025-01-26 00:56:02.89	270.69	72.38	
2025-01-26 00:56:03.09	270.32	72.35	
2025-01-26 00:56:03.30	269.93	72.31	
2025-01-26 00:56:03.50	269.57	72.27	
2025-01-26 00:56:03.70	269.20	72.23	
2025-01-26 00:56:03.92	268.80	72.18	
2025-01-26 00:56:04.12	268.44	72.14	
2025-01-26 00:56:04.33	268.06	72.10	
2025-01-26 00:56:04.53	267.71	72.06	
2025-01-26 00:56:04.73	267.35	72.01	
2025-01-26 00:56:04.95	266.96	71.97	
2025-01-26 00:56:05.15	266.61	71.92	
2025-01-26 00:56:05.35	266.26	71.88	
2025-01-26 00:56:05.55	265.91	71.83	
2025-01-26 00:56:05.76	265.55	71.78	
2025-01-26 00:56:05.97	265.19	71.74	
2025-01-26 00:56:06.17	264.85	71.69	
2025-01-26 00:56:06.39	264.47	71.64	
2025-01-26 00:56:06.59	264.14	71.59	
2025-01-26 00:56:06.79	263.80	71.54	
2025-01-26 00:56:07.00	263.45	71.49	
2025-01-26 00:56:07.21	263.10	71.43	
2025-01-26 00:56:07.41	262.77	71.38	
2025-01-26 00:56:07.61	262.44	71.33	
2025-01-26 00:56:07.82	262.10	71.28	
2025-01-26 00:56:08.02	261.77	71.22	
2025-01-26 00:56:08.23	261.44	71.17	
2025-01-26 00:56:08.43	261.11	71.11	
2025-01-26 00:56:08.63	260.80	71.06	
2025-01-26 00:56:08.83	260.48	71.00	
2025-01-26 00:56:09.04	260.15	70.95	
2025-01-26 00:56:09.25	259.82	70.89	
2025-01-26 00:56:09.45	259.51	70.83	
2025-01-26 00:56:09.66	259.19	70.77	
2025-01-26 00:56:09.86	258.88	70.71	
2025-01-26 00:56:10.06	258.58	70.66	
2025-01-26 00:56:10.26	258.27	70.60	
2025-01-26 00:56:10.47	257.96	70.54	
2025-01-26 00:56:10.67	257.66	70.48	
2025-01-26 00:56:10.87	257.36	70.42	
2025-01-26 00:56:11.08	257.05	70.35	

#Closed at: 2025-01-26 00:56:11