passes_logs/2026/01/02/R3.0SM8_Murmansk_STILSPACE/R3.0SM8_Murmansk_STILSPACE__20260102_121555_NOAA_20_JPSS-1_rec.log

#Pass ID: 20260102_121555_NOAA 20 (JPSS-1)
#Satellite: NOAA 20 (JPSS-1)
#Configuration: NOAA 20
#almurnet v.1.7.20240730
#Start time: 2026-01-02 12:15:57

#Version: 2.2.20231116
#Station: R3.0SM8_Murmansk_STILSPACE
#Location: 33.092731 lon 68.902999 lat
#TLE: 1 43013U 17073A   26001.30344297  .00000183  00000+0  10758-3 0  9995
#TLE: 2 43013  98.7621 302.3885 0001938  59.1624 300.9742 14.19532032420790

#Time	Az	El	Level	Level2	SNR	BER	BlckErr	Temp	State	Recorded	gain1	gain2
2026-01-02 12:15:57.20	223.38	3.09	-52.5	-66.5	3.8	1.49e+00	0	46	0	0	67	18472
2026-01-02 12:16:00.15	223.64	3.25	-52.2	-66.3	3.8	1.49e+00	0	47	104	0	67	18028
2026-01-02 12:16:03.11	223.89	3.41	-51.8	-65.6	3.8	1.49e+00	0	47	104	0	66	17681
2026-01-02 12:16:06.08	224.15	3.57	-50.9	-63.9	3.8	1.49e+00	0	47	104	0	64	16212
2026-01-02 12:16:09.05	224.42	3.73	-50.8	-64.1	3.8	1.49e+00	0	47	104	0	64	16666
2026-01-02 12:16:12.03	224.69	3.89	-50.8	-64.7	3.8	1.49e+00	0	47	104	0	64	17746
2026-01-02 12:16:14.99	224.95	4.05	-50.8	-64.4	3.8	1.49e+00	0	48	104	0	64	17255
2026-01-02 12:16:17.95	225.22	4.21	-50.8	-63.4	3.8	1.49e+00	0	48	104	0	64	15380
2026-01-02 12:16:20.91	225.50	4.37	-50.7	-62.8	3.8	1.49e+00	0	48	104	0	64	14325
2026-01-02 12:16:23.88	225.78	4.53	-50.7	-63.1	3.8	1.49e+00	0	48	104	0	64	14827
2026-01-02 12:16:26.84	226.06	4.70	-50.8	-64.2	3.8	1.49e+00	0	48	104	0	64	16845
2026-01-02 12:16:29.81	226.34	4.86	-50.8	-64.5	3.8	1.49e+00	0	48	104	0	64	17373
2026-01-02 12:16:32.77	226.63	5.02	-50.6	-61.0	4.2	1.42e+00	0	48	0	0	64	11627
2026-01-02 12:16:35.71	226.91	5.18	-50.5	-60.6	4.4	1.32e+00	88	49	0	3145728	64	11051
2026-01-02 12:16:38.67	227.21	5.35	-50.4	-58.3	5.6	5.34e-01	0	49	0	8388608	63	9060
2026-01-02 12:16:41.64	227.50	5.51	-50.2	-57.2	6.4	2.51e-01	0	49	0	13631488	63	7963
2026-01-02 12:16:44.60	227.80	5.68	-50.2	-57.0	6.6	2.17e-01	0	49	0	19922944	63	7804
2026-01-02 12:16:47.56	228.10	5.84	-50.0	-56.6	6.9	1.64e-01	0	50	0	25165824	63	7457
2026-01-02 12:16:50.51	228.41	6.01	-50.0	-56.6	7.1	1.40e-01	0	50	0	30408704	63	7390
2026-01-02 12:16:53.49	228.72	6.17	-50.1	-56.5	7.1	1.42e-01	0	50	0	35651584	63	7367
2026-01-02 12:16:56.46	229.03	6.34	-50.1	-56.5	7.2	1.28e-01	0	50	0	41943040	63	7302
2026-01-02 12:16:59.42	229.34	6.51	-50.1	-56.3	7.4	1.26e-01	0	50	0	47185920	63	7191
2026-01-02 12:17:02.40	229.67	6.68	-49.9	-55.8	7.9	8.34e-02	0	50	0	52428800	62	7181
2026-01-02 12:17:05.36	229.99	6.84	-49.9	-55.8	8.0	7.00e-02	0	51	0	58720256	62	7145
2026-01-02 12:17:08.33	230.31	7.01	-49.8	-55.3	8.5	4.68e-02	0	51	0	63963136	62	6733
2026-01-02 12:17:11.31	230.65	7.18	-49.7	-54.7	9.0	2.72e-02	0	51	0	69206016	62	6344
2026-01-02 12:17:14.28	230.98	7.35	-49.7	-54.8	9.0	2.35e-02	0	51	0	75497472	62	6402
2026-01-02 12:17:17.25	231.32	7.52	-49.6	-54.3	9.5	1.46e-02	0	51	0	80740352	62	6026
2026-01-02 12:17:20.23	231.66	7.69	-49.5	-54.2	9.7	1.17e-02	0	51	0	85983232	62	5973
2026-01-02 12:17:23.20	232.01	7.86	-49.5	-54.1	9.9	1.11e-02	0	51	0	92274688	62	5868
2026-01-02 12:17:26.16	232.35	8.03	-49.4	-53.7	10.3	5.39e-03	0	51	0	97517568	61	5936
2026-01-02 12:17:29.12	232.71	8.20	-49.3	-53.5	10.5	3.79e-03	0	52	0	102760448	61	5815
2026-01-02 12:17:32.08	233.06	8.37	-49.1	-53.2	10.9	2.53e-03	0	52	0	108003328	61	5620
2026-01-02 12:17:35.04	233.42	8.54	-49.2	-53.0	11.1	1.64e-03	0	52	0	114294784	61	5521
2026-01-02 12:17:38.02	233.79	8.71	-49.1	-52.9	11.3	1.17e-03	0	52	0	119537664	61	5437
2026-01-02 12:17:40.99	234.16	8.88	-49.2	-53.0	11.3	1.08e-03	0	52	0	124780544	61	5521
2026-01-02 12:17:43.96	234.53	9.05	-49.3	-53.1	11.3	1.15e-03	0	52	0	131072000	61	5539
2026-01-02 12:17:46.93	234.91	9.22	-49.3	-53.0	11.5	8.74e-04	0	52	0	136314880	61	5468
2026-01-02 12:17:49.89	235.29	9.39	-49.4	-53.1	11.4	1.37e-03	0	52	0	141557760	61	5568
2026-01-02 12:17:52.86	235.68	9.56	-49.0	-52.4	12.2	2.69e-04	0	52	0	147849216	61	5101
2026-01-02 12:17:55.83	236.07	9.73	-49.1	-52.5	12.1	1.98e-04	0	52	0	153092096	60	5501
2026-01-02 12:17:58.79	236.46	9.91	-48.7	-51.7	13.0	5.79e-05	0	53	0	158334976	60	4986
2026-01-02 12:18:01.75	236.86	10.08	-48.7	-51.8	12.9	3.96e-05	0	53	0	164626432	60	5079
2026-01-02 12:18:04.71	237.26	10.25	-48.9	-51.9	12.9	4.34e-05	0	53	0	169869312	60	5129
2026-01-02 12:18:07.67	237.67	10.42	-48.6	-51.5	13.3	2.21e-05	0	53	0	175112192	60	4898
2026-01-02 12:18:10.64	238.08	10.59	-48.6	-51.4	13.4	2.28e-05	0	53	0	180355072	60	4870
2026-01-02 12:18:13.62	238.50	10.76	-48.4	-51.0	13.9	1.50e-06	0	53	0	186646528	59	4910
2026-01-02 12:18:16.59	238.93	10.93	-48.6	-51.2	13.7	5.30e-06	0	53	0	191889408	59	5035
2026-01-02 12:18:19.55	239.35	11.10	-48.7	-51.3	13.7	6.80e-06	0	53	0	197132288	59	5054
2026-01-02 12:18:22.52	239.79	11.27	-48.6	-51.3	13.7	6.80e-06	0	53	0	203423744	59	5069
2026-01-02 12:18:25.49	240.22	11.44	-48.6	-51.1	13.9	2.20e-06	0	53	0	208666624	59	4954
2026-01-02 12:18:28.45	240.66	11.61	-48.6	-51.1	13.9	1.50e-06	0	53	0	213909504	59	4972
2026-01-02 12:18:31.40	241.11	11.78	-48.3	-50.6	14.5	1.50e-06	0	53	0	220200960	59	4683
2026-01-02 12:18:34.38	241.56	11.95	-48.2	-50.5	14.5	0.00e+00	0	54	0	225443840	59	4649
2026-01-02 12:18:37.34	242.02	12.12	-48.4	-50.8	14.4	2.20e-06	0	53	0	230686720	59	4762
2026-01-02 12:18:40.32	242.48	12.29	-48.1	-50.4	14.7	0.00e+00	0	54	0	235929600	59	4565
2026-01-02 12:18:43.29	242.95	12.45	-48.2	-50.4	14.7	0.00e+00	0	53	0	242221056	59	4598
2026-01-02 12:18:46.25	243.42	12.62	-47.9	-50.1	15.0	0.00e+00	0	54	0	247463936	59	4435
2026-01-02 12:18:49.21	243.90	12.79	-47.9	-50.0	15.1	0.00e+00	0	54	0	252706816	58	4639
2026-01-02 12:18:52.18	244.38	12.95	-47.9	-50.0	15.2	0.00e+00	0	54	0	258998272	58	4629
2026-01-02 12:18:55.13	244.87	13.12	-47.8	-49.8	15.4	0.00e+00	0	54	0	264241152	58	4506
2026-01-02 12:18:58.10	245.36	13.28	-47.7	-49.6	15.6	0.00e+00	0	54	0	269484032	58	4428
2026-01-02 12:19:01.07	245.86	13.44	-47.5	-49.4	15.8	0.00e+00	0	54	0	275775488	58	4304
2026-01-02 12:19:04.04	246.36	13.61	-47.8	-49.8	15.4	0.00e+00	0	54	0	281018368	58	4544
2026-01-02 12:19:06.99	246.87	13.77	-47.5	-49.4	15.8	0.00e+00	0	54	0	286261248	58	4322
2026-01-02 12:19:09.95	247.38	13.93	-47.6	-49.5	15.7	0.00e+00	0	54	0	291504128	58	4387
2026-01-02 12:19:12.93	247.90	14.09	-47.6	-49.5	15.7	0.00e+00	0	54	0	297795584	58	4368
2026-01-02 12:19:15.89	248.43	14.25	-47.6	-49.5	15.7	0.00e+00	0	54	0	303038464	58	4384
2026-01-02 12:19:18.86	248.96	14.40	-47.7	-49.8	15.5	0.00e+00	0	54	0	308281344	58	4521
2026-01-02 12:19:21.82	249.49	14.56	-48.0	-50.1	15.2	0.00e+00	0	54	0	314572800	58	4661
2026-01-02 12:19:24.78	250.03	14.71	-47.3	-49.1	16.2	0.00e+00	0	54	0	319815680	57	4398
2026-01-02 12:19:27.75	250.58	14.87	-47.3	-49.1	16.1	0.00e+00	0	54	0	325058560	57	4432
2026-01-02 12:19:30.69	251.13	15.02	-47.5	-49.4	15.8	0.00e+00	0	54	0	331350016	57	4596
2026-01-02 12:19:33.67	251.69	15.17	-47.6	-49.6	15.7	0.00e+00	0	54	0	336592896	57	4664
2026-01-02 12:19:36.63	252.25	15.31	-47.7	-49.7	15.6	0.00e+00	0	54	0	341835776	57	4714
2026-01-02 12:19:39.60	252.82	15.46	-48.1	-50.3	14.9	0.00e+00	0	55	0	347078656	58	4783
2026-01-02 12:19:42.58	253.40	15.61	-48.3	-50.6	14.7	0.00e+00	0	55	0	353370112	58	4942
2026-01-02 12:19:45.55	253.98	15.75	-48.4	-50.7	14.6	1.50e-06	0	55	0	358612992	58	4990
2026-01-02 12:19:48.51	254.56	15.89	-48.4	-50.6	14.7	7.00e-07	0	55	0	363855872	59	4669
2026-01-02 12:19:51.47	255.15	16.03	-48.1	-50.3	15.0	0.00e+00	0	55	0	370147328	59	4495
2026-01-02 12:19:54.44	255.74	16.17	-48.3	-50.5	14.8	0.00e+00	0	55	0	375390208	59	4642
2026-01-02 12:19:57.42	256.35	16.30	-48.5	-50.8	14.5	7.00e-07	0	55	0	380633088	59	4762
2026-01-02 12:20:00.39	256.95	16.43	-48.6	-51.1	14.2	2.20e-06	0	55	0	386924544	59	4959
2026-01-02 12:20:03.36	257.56	16.56	-48.9	-51.5	13.8	3.00e-06	0	55	0	392167424	59	5193
2026-01-02 12:20:06.33	258.18	16.69	-49.0	-51.8	13.4	9.90e-06	0	55	0	397410304	60	5092
2026-01-02 12:20:09.30	258.80	16.82	-49.1	-51.9	13.3	9.10e-06	0	55	0	403701760	60	5144
2026-01-02 12:20:12.29	259.43	16.94	-49.2	-52.1	13.1	2.89e-05	0	55	0	408944640	60	5254
2026-01-02 12:20:15.28	260.07	17.06	-48.7	-51.4	13.9	1.50e-06	0	55	0	414187520	60	4825
2026-01-02 12:20:18.25	260.70	17.18	-48.7	-51.3	14.0	1.50e-06	0	55	0	420478976	60	4774
2026-01-02 12:20:21.21	261.34	17.29	-48.5	-50.8	14.5	0.00e+00	0	55	0	425721856	59	4784
2026-01-02 12:20:24.19	261.99	17.40	-48.3	-50.6	14.8	0.00e+00	0	55	0	430964736	59	4654
2026-01-02 12:20:27.16	262.64	17.51	-48.3	-50.5	14.8	0.00e+00	0	55	0	437256192	59	4633
2026-01-02 12:20:30.12	263.29	17.62	-48.1	-50.2	15.1	0.00e+00	0	55	0	442499072	59	4484
2026-01-02 12:20:33.08	263.95	17.72	-48.0	-50.1	15.3	0.00e+00	0	55	0	447741952	59	4408
2026-01-02 12:20:36.05	264.62	17.82	-47.9	-49.9	15.4	0.00e+00	0	55	0	452984832	58	4573
2026-01-02 12:20:39.02	265.28	17.91	-47.8	-49.8	15.5	7.00e-07	0	55	0	459276288	58	4543
2026-01-02 12:20:41.98	265.95	18.01	-48.1	-50.2	15.1	0.00e+00	0	55	0	464519168	58	4747
2026-01-02 12:20:44.95	266.63	18.09	-48.0	-50.1	15.2	0.00e+00	0	55	0	469762048	58	4696
2026-01-02 12:20:47.91	267.30	18.18	-48.0	-50.1	15.2	0.00e+00	0	55	0	476053504	58	4689
2026-01-02 12:20:50.87	267.98	18.26	-48.0	-50.0	15.3	0.00e+00	0	56	0	481296384	58	4621
2026-01-02 12:20:53.84	268.67	18.34	-48.0	-50.0	15.3	0.00e+00	0	56	0	486539264	58	4628
2026-01-02 12:20:56.81	269.36	18.41	-48.1	-50.2	15.1	0.00e+00	0	56	0	492830720	58	4742
2026-01-02 12:20:59.79	270.06	18.48	-48.3	-50.5	14.8	0.00e+00	0	56	0	498073600	58	4893
2026-01-02 12:21:02.77	270.75	18.55	-48.0	-50.0	15.4	0.00e+00	0	56	0	503316480	58	4617
2026-01-02 12:21:05.74	271.45	18.61	-47.9	-50.0	15.3	0.00e+00	0	56	0	508559360	58	4629
2026-01-02 12:21:08.71	272.15	18.67	-48.1	-50.2	15.1	0.00e+00	0	56	0	514850816	58	4758
2026-01-02 12:21:11.69	272.86	18.72	-48.2	-50.3	15.0	0.00e+00	0	56	0	520093696	58	4801
2026-01-02 12:21:14.67	273.57	18.77	-48.0	-50.1	15.3	0.00e+00	0	56	0	525336576	58	4665
2026-01-02 12:21:17.64	274.28	18.82	-48.2	-50.4	15.0	0.00e+00	0	56	0	531628032	58	4828
2026-01-02 12:21:20.61	274.99	18.86	-48.3	-50.6	14.7	0.00e+00	0	56	0	536870912	59	4675
2026-01-02 12:21:23.59	275.70	18.90	-48.1	-50.2	15.1	0.00e+00	0	56	0	542113792	59	4469
2026-01-02 12:21:26.55	276.41	18.93	-48.4	-50.6	14.8	0.00e+00	0	56	0	548405248	59	4662
2026-01-02 12:21:29.53	277.13	18.96	-48.1	-50.3	15.0	0.00e+00	0	56	0	553648128	59	4523
2026-01-02 12:21:32.50	277.84	18.99	-48.4	-50.6	14.7	7.00e-07	0	56	0	558891008	59	4692
2026-01-02 12:21:35.47	278.56	19.01	-48.3	-50.6	14.7	7.00e-07	0	56	0	565182464	59	4670
2026-01-02 12:21:38.43	279.28	19.02	-48.0	-50.0	15.3	0.00e+00	0	56	0	570425344	58	4635
2026-01-02 12:21:41.40	280.00	19.04	-48.1	-50.3	15.1	0.00e+00	0	56	0	575668224	58	4763
2026-01-02 12:21:44.38	280.72	19.04	-48.5	-50.9	14.4	0.00e+00	0	56	0	581959680	58	5118
2026-01-02 12:21:47.34	281.43	19.05	-48.6	-51.1	14.2	7.00e-07	0	56	0	587202560	59	4978
2026-01-02 12:21:50.32	282.16	19.04	-48.9	-51.6	13.6	6.10e-06	0	56	0	592445440	59	5238
2026-01-02 12:21:53.29	282.87	19.04	-49.4	-52.7	12.3	9.99e-05	0	56	0	597688320	60	5612
2026-01-02 12:21:56.27	283.59	19.03	-49.7	-53.4	11.3	8.54e-04	0	56	0	603979776	61	5778
2026-01-02 12:21:59.24	284.31	19.01	-50.0	-54.4	10.1	5.25e-03	0	56	0	609222656	61	6458
2026-01-02 12:22:02.21	285.03	18.99	-50.2	-55.4	8.9	2.15e-02	0	56	0	614465536	62	6841
2026-01-02 12:22:05.18	285.75	18.97	-50.5	-57.4	6.6	1.65e-01	0	56	0	620756992	62	8588
2026-01-02 12:22:08.14	286.46	18.94	-50.8	-58.9	5.4	4.25e-01	0	56	0	625999872	63	9686
2026-01-02 12:22:11.11	287.17	18.91	-50.7	-59.2	5.3	5.83e-01	0	56	0	631242752	63	9969
2026-01-02 12:22:14.07	287.88	18.88	-50.8	-59.3	5.2	5.77e-01	0	56	0	637534208	63	10081
2026-01-02 12:22:17.05	288.59	18.84	-50.6	-58.6	5.6	4.85e-01	0	56	0	642777088	63	9312
2026-01-02 12:22:20.02	289.30	18.79	-50.6	-58.2	5.9	3.65e-01	0	56	0	648019968	63	8932
2026-01-02 12:22:22.97	290.00	18.74	-50.1	-56.8	7.0	1.72e-01	0	56	0	654311424	63	7595
2026-01-02 12:22:25.94	290.71	18.69	-50.1	-55.9	8.0	9.93e-02	0	56	0	659554304	63	6858
2026-01-02 12:22:28.93	291.41	18.63	-49.7	-54.3	10.0	1.13e-02	0	56	0	664797184	62	6050
2026-01-02 12:22:31.89	292.11	18.57	-49.7	-53.5	11.2	1.58e-03	0	56	0	670040064	62	5478
2026-01-02 12:22:34.86	292.80	18.51	-49.2	-52.2	12.8	1.58e-04	0	56	0	676331520	61	5039
2026-01-02 12:22:37.84	293.50	18.44	-48.2	-50.4	14.8	7.00e-07	0	57	0	681574400	59	4582
2026-01-02 12:22:40.82	294.19	18.36	-47.9	-50.0	15.3	0.00e+00	0	56	0	687865856	59	4364
2026-01-02 12:22:43.78	294.87	18.29	-47.3	-49.1	16.2	0.00e+00	0	56	0	693108736	57	4414
2026-01-02 12:22:46.75	295.56	18.21	-47.5	-49.4	15.9	0.00e+00	0	56	0	698351616	57	4559
2026-01-02 12:22:49.71	296.23	18.13	-47.9	-50.0	15.3	0.00e+00	0	56	0	703594496	57	4894
2026-01-02 12:22:52.68	296.91	18.04	-48.3	-50.5	14.8	0.00e+00	0	56	0	709885952	58	4900
2026-01-02 12:22:55.65	297.58	17.95	-48.4	-50.7	14.6	7.00e-07	0	57	0	715128832	58	5006
2026-01-02 12:22:58.63	298.25	17.85	-48.1	-50.1	15.2	0.00e+00	0	56	0	720371712	58	4688
2026-01-02 12:23:01.60	298.91	17.76	-47.9	-49.8	15.5	0.00e+00	0	56	0	726663168	58	4544
2026-01-02 12:23:04.58	299.57	17.66	-47.0	-48.6	16.7	0.00e+00	0	56	0	731906048	57	4155
2026-01-02 12:23:07.55	300.23	17.55	-47.0	-48.6	16.7	0.00e+00	0	56	0	737148928	56	4425
2026-01-02 12:23:10.52	300.88	17.44	-47.2	-49.0	16.4	0.00e+00	0	56	0	743440384	56	4605
2026-01-02 12:23:13.50	301.52	17.33	-47.0	-48.6	16.7	0.00e+00	0	56	0	748683264	56	4436
2026-01-02 12:23:16.47	302.16	17.22	-46.9	-48.5	16.8	0.00e+00	0	56	0	753926144	56	4353
2026-01-02 12:23:19.45	302.80	17.11	-46.4	-47.9	17.4	0.00e+00	0	56	0	760217600	56	4076
2026-01-02 12:23:22.43	303.44	16.99	-46.3	-47.8	17.4	0.00e+00	0	56	0	765460480	55	4243
2026-01-02 12:23:25.41	304.06	16.86	-46.6	-48.2	16.9	0.00e+00	0	56	0	770703360	55	4489
2026-01-02 12:23:28.37	304.68	16.74	-46.8	-48.6	16.6	0.00e+00	0	56	0	776994816	55	4663
2026-01-02 12:23:31.33	305.30	16.62	-47.0	-48.7	16.4	0.00e+00	0	57	0	782237696	55	4759
2026-01-02 12:23:34.30	305.91	16.49	-47.1	-48.9	16.4	0.00e+00	0	57	0	787480576	56	4578
2026-01-02 12:23:37.28	306.52	16.36	-47.2	-49.0	16.3	0.00e+00	0	57	0	792723456	56	4611
2026-01-02 12:23:40.25	307.12	16.22	-47.7	-49.6	15.7	0.00e+00	0	57	0	799014912	57	4687
2026-01-02 12:23:43.22	307.71	16.09	-48.2	-50.3	14.9	0.00e+00	0	57	0	804257792	58	4804
2026-01-02 12:23:46.19	308.30	15.95	-48.5	-50.8	14.4	1.50e-06	0	57	0	809500672	58	5096
2026-01-02 12:23:49.17	308.89	15.81	-48.4	-50.7	14.5	0.00e+00	0	57	0	815792128	59	4749
2026-01-02 12:23:52.13	309.47	15.67	-48.6	-51.0	14.3	7.00e-07	0	57	0	821035008	59	4883
2026-01-02 12:23:55.09	310.04	15.53	-47.9	-50.0	15.2	0.00e+00	0	57	0	826277888	59	4378
2026-01-02 12:23:58.06	310.61	15.38	-47.8	-49.8	15.4	0.00e+00	0	57	0	832569344	58	4544
2026-01-02 12:24:01.03	311.17	15.23	-48.1	-50.2	15.0	0.00e+00	0	57	0	837812224	58	4723
2026-01-02 12:24:04.00	311.73	15.08	-48.3	-50.7	14.6	7.00e-07	0	57	0	843055104	58	4992
2026-01-02 12:24:06.96	312.28	14.93	-48.4	-50.8	14.5	0.00e+00	0	57	0	849346560	58	5049
2026-01-02 12:24:09.94	312.83	14.78	-48.5	-50.9	14.3	7.00e-07	0	57	0	854589440	58	5141
2026-01-02 12:24:12.91	313.37	14.63	-48.7	-51.3	14.0	3.00e-06	0	57	0	859832320	59	5042
2026-01-02 12:24:15.88	313.91	14.48	-48.4	-50.7	14.5	7.00e-07	0	57	0	865075200	59	4746
2026-01-02 12:24:18.85	314.44	14.32	-48.3	-50.6	14.6	0.00e+00	0	57	0	871366656	59	4699
2026-01-02 12:24:21.83	314.97	14.16	-48.3	-50.5	14.7	0.00e+00	0	57	0	876609536	59	4644
2026-01-02 12:24:24.80	315.49	14.00	-47.9	-49.9	15.3	0.00e+00	0	57	0	881852416	58	4578
2026-01-02 12:24:27.78	316.00	13.84	-48.1	-50.2	15.0	0.00e+00	0	57	0	888143872	58	4750
2026-01-02 12:24:30.74	316.51	13.68	-48.1	-50.3	14.9	7.00e-07	0	57	0	893386752	58	4768
2026-01-02 12:24:33.70	317.01	13.52	-48.4	-50.7	14.5	7.00e-07	0	57	0	898629632	58	5009
2026-01-02 12:24:36.67	317.51	13.36	-48.7	-51.3	13.9	1.50e-06	0	57	0	904921088	59	5079
2026-01-02 12:24:39.65	318.01	13.20	-49.0	-51.9	13.2	1.06e-05	0	57	0	910163968	59	5435
2026-01-02 12:24:42.61	318.50	13.04	-48.5	-51.0	14.1	2.20e-06	0	57	0	915406848	60	4634
2026-01-02 12:24:45.57	318.98	12.87	-48.0	-50.2	15.0	7.00e-07	0	57	0	921698304	59	4455
2026-01-02 12:24:48.54	319.45	12.71	-47.4	-49.3	15.9	0.00e+00	0	57	0	926941184	58	4279
2026-01-02 12:24:51.51	319.93	12.54	-47.7	-49.6	15.5	7.00e-07	0	57	0	932184064	58	4440
2026-01-02 12:24:54.47	320.39	12.38	-47.7	-49.7	15.4	0.00e+00	0	57	0	937426944	58	4470
2026-01-02 12:24:57.44	320.86	12.21	-47.6	-49.6	15.5	0.00e+00	0	57	0	943718400	58	4427
2026-01-02 12:25:00.41	321.31	12.04	-47.6	-49.7	15.4	0.00e+00	0	57	0	948961280	58	4477
2026-01-02 12:25:03.38	321.77	11.87	-47.8	-49.9	15.2	7.00e-07	0	57	0	954204160	58	4576
2026-01-02 12:25:06.33	322.21	11.71	-47.8	-49.9	15.3	7.00e-07	0	57	0	960495616	58	4552
2026-01-02 12:25:09.30	322.65	11.54	-47.5	-49.4	15.7	0.00e+00	0	57	0	965738496	58	4325
2026-01-02 12:25:12.27	323.09	11.37	-47.7	-49.7	15.4	0.00e+00	0	57	0	970981376	58	4489
2026-01-02 12:25:15.24	323.52	11.20	-48.2	-50.5	14.6	0.00e+00	0	57	0	977272832	58	4890
2026-01-02 12:25:18.22	323.95	11.03	-48.1	-50.4	14.7	0.00e+00	0	57	0	982515712	58	4824
2026-01-02 12:25:21.19	324.37	10.86	-47.8	-49.9	15.2	0.00e+00	0	57	0	987758592	58	4556
2026-01-02 12:25:24.15	324.79	10.69	-47.8	-49.9	15.1	0.00e+00	0	57	0	994050048	58	4584
2026-01-02 12:25:27.13	325.21	10.52	-48.3	-50.6	14.4	0.00e+00	0	57	0	999292928	58	4950
2026-01-02 12:25:30.08	325.61	10.35	-48.4	-50.9	14.1	2.20e-06	0	57	0	1004535808	58	5105
2026-01-02 12:25:33.04	326.02	10.18	-48.4	-50.9	14.1	0.00e+00	0	57	0	1009778688	58	5139
2026-01-02 12:25:36.00	326.42	10.01	-48.4	-50.8	14.2	2.20e-06	0	57	0	1016070144	58	5080
2026-01-02 12:25:38.97	326.81	9.84	-48.5	-51.0	14.1	2.20e-06	0	57	0	1021313024	58	5166
2026-01-02 12:25:41.94	327.20	9.67	-48.3	-50.8	14.2	3.80e-06	0	57	0	1026555904	59	4772
2026-01-02 12:25:44.92	327.59	9.50	-48.2	-50.6	14.4	0.00e+00	0	57	0	1032847360	59	4677
2026-01-02 12:25:47.90	327.98	9.33	-48.3	-50.7	14.2	0.00e+00	0	57	0	1038090240	59	4751
2026-01-02 12:25:50.87	328.35	9.16	-48.3	-50.7	14.3	0.00e+00	0	57	0	1043333120	59	4725
2026-01-02 12:25:53.84	328.73	8.99	-48.7	-51.3	13.7	9.10e-06	0	57	0	1049624576	59	5095
2026-01-02 12:25:56.81	329.10	8.82	-48.7	-51.5	13.3	1.67e-05	0	57	0	1054867456	59	5209
2026-01-02 12:25:59.77	329.46	8.65	-48.7	-51.3	13.6	8.30e-06	0	57	0	1060110336	59	5077
2026-01-02 12:26:02.73	329.82	8.49	-48.6	-51.2	13.6	3.00e-06	0	57	0	1066401792	59	5027
2026-01-02 12:26:05.70	330.18	8.32	-48.6	-51.3	13.6	8.30e-06	0	57	0	1071644672	59	5050
2026-01-02 12:26:08.67	330.54	8.15	-48.9	-51.8	13.0	2.28e-05	0	57	0	1076887552	59	5396
2026-01-02 12:26:11.65	330.89	7.98	-49.1	-52.1	12.6	7.17e-05	0	57	0	1083179008	59	5566
2026-01-02 12:26:14.62	331.23	7.81	-49.0	-52.1	12.7	7.70e-05	0	57	0	1088421888	60	5254
2026-01-02 12:26:17.61	331.58	7.64	-48.8	-51.7	13.1	3.50e-05	0	57	0	1093664768	60	5041
2026-01-02 12:26:20.57	331.92	7.47	-48.8	-51.7	13.0	4.04e-05	0	57	0	1098907648	60	5031
2026-01-02 12:26:23.55	332.25	7.31	-49.0	-52.1	12.7	5.56e-05	0	57	0	1105199104	60	5228
2026-01-02 12:26:26.52	332.58	7.14	-49.2	-52.5	12.1	2.60e-04	0	57	0	1110441984	60	5526
2026-01-02 12:26:29.47	332.91	6.97	-49.1	-52.4	12.3	2.78e-04	0	57	0	1115684864	60	5438
2026-01-02 12:26:32.42	333.23	6.81	-49.1	-52.5	12.1	3.00e-04	0	57	0	1121976320	60	5502
2026-01-02 12:26:35.39	333.55	6.64	-49.0	-52.3	12.3	1.68e-04	0	57	0	1127219200	60	5371
2026-01-02 12:26:38.36	333.87	6.48	-48.9	-52.1	12.5	1.14e-04	0	57	0	1132462080	60	5246
2026-01-02 12:26:41.32	334.18	6.31	-49.0	-52.3	12.2	2.62e-04	0	57	0	1138753536	60	5363
2026-01-02 12:26:44.29	334.49	6.15	-49.1	-52.6	12.0	2.93e-04	0	57	0	1143996416	60	5562
2026-01-02 12:26:47.26	334.80	5.98	-49.2	-52.8	11.6	5.26e-04	0	57	0	1149239296	60	5695
2026-01-02 12:26:50.22	335.10	5.82	-49.2	-52.9	11.5	7.05e-04	0	57	0	1154482176	60	5744
2026-01-02 12:26:53.19	335.40	5.65	-49.3	-53.0	11.4	1.05e-03	0	57	0	1160773632	60	5841
2026-01-02 12:26:56.16	335.70	5.49	-49.5	-53.3	11.1	1.86e-03	0	57	0	1166016512	60	6047
2026-01-02 12:26:59.11	335.99	5.33	-49.6	-53.9	10.4	4.86e-03	0	57	0	1171259392	61	6100
2026-01-02 12:27:02.09	336.28	5.16	-49.5	-53.8	10.4	6.11e-03	0	57	0	1177550848	61	6056
2026-01-02 12:27:05.06	336.57	5.00	-51.0	-58.9	6.1	8.17e-03	0	57	0	1182793728	63	9663
2026-01-02 12:27:08.03	336.86	4.84	-48.5	-62.3	3.8	1.49e+00	0	57	104	1182793728	59	17967
2026-01-02 12:27:11.01	337.14	4.68	-52.4	-66.2	3.8	1.49e+00	0	57	104	1182793728	66	18839
2026-01-02 12:27:13.98	337.42	4.52	-52.6	-66.4	3.8	1.49e+00	0	57	104	1182793728	67	18301
2026-01-02 12:27:16.94	337.69	4.36	-52.6	-66.5	3.8	1.49e+00	0	57	104	1182793728	67	18508
2026-01-02 12:27:19.92	337.97	4.20	-52.6	-66.6	3.8	1.49e+00	0	57	104	1182793728	67	18628
2026-01-02 12:27:22.89	338.24	4.04	-52.6	-66.6	3.8	1.49e+00	0	57	104	1182793728	67	18705
2026-01-02 12:27:25.86	338.51	3.88	-52.6	-66.7	3.8	1.49e+00	0	57	104	1182793728	67	18770
2026-01-02 12:27:28.83	338.77	3.72	-52.9	-66.7	3.8	1.49e+00	0	57	104	1182793728	67	18862
2026-01-02 12:27:31.80	339.04	3.56	-52.8	-66.7	3.8	1.49e+00	0	57	104	1182793728	67	18860
2026-01-02 12:27:34.77	339.30	3.40	-52.8	-66.7	3.8	1.49e+00	0	57	104	1182793728	67	18769
2026-01-02 12:27:37.73	339.55	3.24	-52.6	-66.6	3.8	1.49e+00	0	57	104	1182793728	67	18728
2026-01-02 12:27:40.70	339.81	3.09	-52.7	-66.7	3.8	1.49e+00	0	57	104	1182793728	67	18793
2026-01-02 12:27:43.67	340.06	2.93	-52.7	-66.7	3.8	1.49e+00	0	57	104	1182793728	67	18779

#Closed at: 2026-01-02 12:27:45
#Recorded file [1182 MB]: D:/Data/31026_260102_152705.dat