passes_logs/2026/01/02/R3.0SM8_Murmansk_STILSPACE/R3.0SM8_Murmansk_STILSPACE__20260102_053500_NOAA_20_JPSS-1_rec.log

#Pass ID: 20260102_053500_NOAA 20 (JPSS-1)
#Satellite: NOAA 20 (JPSS-1)
#Configuration: NOAA 20
#almurnet v.1.7.20240730
#Start time: 2026-01-02 05:38:15

#Version: 2.2.20231116
#Station: R3.0SM8_Murmansk_STILSPACE
#Location: 33.092731 lon 68.902999 lat
#TLE: 1 43013U 17073A   26001.30344297  .00000183  00000+0  10758-3 0  9995
#TLE: 2 43013  98.7621 302.3885 0001938  59.1624 300.9742 14.19532032420790

#Time	Az	El	Level	Level2	SNR	BER	BlckErr	Temp	State	Recorded	gain1	gain2
2026-01-02 05:38:15.73	46.40	15.90	-54.5	-74.4	3.8	7.46e-01	0	56	0	0	71	37178
2026-01-02 05:38:18.69	45.90	16.11	-52.7	-66.5	3.8	1.49e+00	0	57	104	0	67	18363
2026-01-02 05:38:21.67	45.39	16.32	-52.6	-66.5	3.8	1.49e+00	0	57	104	0	67	18394
2026-01-02 05:38:24.65	44.88	16.53	-52.6	-66.5	3.8	1.49e+00	0	57	104	0	67	18344
2026-01-02 05:38:27.60	44.36	16.74	-52.5	-66.5	3.8	1.49e+00	0	57	104	0	67	18322
2026-01-02 05:38:30.56	43.83	16.95	-52.6	-66.4	3.8	1.49e+00	0	57	104	0	67	18197
2026-01-02 05:38:33.53	43.29	17.15	-52.5	-66.4	3.8	1.49e+00	0	57	104	0	67	18123
2026-01-02 05:38:36.50	42.75	17.36	-52.5	-66.3	3.8	1.49e+00	0	57	104	0	67	18005
2026-01-02 05:38:39.45	42.20	17.56	-52.4	-66.2	3.8	1.49e+00	0	57	104	0	67	17851
2026-01-02 05:38:42.43	41.64	17.77	-52.2	-66.1	3.8	1.49e+00	0	57	104	0	67	17619
2026-01-02 05:38:45.39	41.07	17.97	-52.4	-66.2	3.8	1.49e+00	0	57	104	0	67	17686
2026-01-02 05:38:48.36	40.50	18.17	-52.2	-65.9	3.8	1.49e+00	0	57	104	0	67	17276
2026-01-02 05:38:51.33	39.92	18.37	-52.2	-65.9	3.8	1.49e+00	0	57	104	0	67	17116
2026-01-02 05:38:54.30	39.33	18.57	-52.3	-66.0	3.8	1.49e+00	0	57	104	0	67	17296
2026-01-02 05:38:57.28	38.72	18.77	-52.3	-65.9	3.8	1.49e+00	0	57	104	0	67	17130
2026-01-02 05:39:00.26	38.12	18.97	-52.2	-65.1	3.8	1.49e+00	0	57	104	0	67	15653
2026-01-02 05:39:03.23	37.50	19.16	-52.4	-65.7	3.8	1.49e+00	0	57	104	0	67	16701
2026-01-02 05:39:06.20	36.88	19.35	-51.8	-59.8	5.5	8.18e-01	0	57	0	1048576	66	9017
2026-01-02 05:39:09.17	36.25	19.54	-49.8	-53.3	11.8	1.12e-03	0	57	0	6291456	62	5355
2026-01-02 05:39:12.14	35.61	19.73	-49.5	-52.7	12.4	1.52e-04	0	57	0	12582912	61	5297
2026-01-02 05:39:15.11	34.97	19.91	-49.2	-52.2	13.0	4.73e-05	0	57	0	17825792	61	5019
2026-01-02 05:39:18.07	34.31	20.10	-49.8	-53.2	11.9	1.35e-04	0	57	0	23068672	61	5619
2026-01-02 05:39:21.03	33.65	20.27	-48.4	-50.7	14.6	1.50e-06	0	57	0	29360128	59	4708
2026-01-02 05:39:24.00	32.99	20.45	-47.3	-49.1	16.1	0.00e+00	0	57	0	34603008	57	4400
2026-01-02 05:39:26.97	32.31	20.63	-46.8	-48.3	16.9	0.00e+00	0	57	0	39845888	56	4283
2026-01-02 05:39:29.94	31.62	20.80	-46.8	-48.4	16.8	0.00e+00	0	57	0	45088768	56	4319
2026-01-02 05:39:32.91	30.93	20.96	-46.8	-48.4	16.7	0.00e+00	0	57	0	51380224	56	4322
2026-01-02 05:39:35.87	30.23	21.13	-47.2	-48.9	16.3	0.00e+00	0	57	0	56623104	56	4594
2026-01-02 05:39:38.84	29.53	21.29	-46.6	-48.1	17.1	0.00e+00	0	57	0	61865984	56	4187
2026-01-02 05:39:41.81	28.81	21.44	-46.1	-47.6	17.5	0.00e+00	0	57	0	68157440	55	4154
2026-01-02 05:39:44.78	28.09	21.60	-46.2	-47.6	17.5	0.00e+00	0	57	0	73400320	55	4175
2026-01-02 05:39:47.74	27.36	21.75	-46.1	-47.6	17.5	0.00e+00	0	57	0	78643200	55	4146
2026-01-02 05:39:50.72	26.62	21.89	-46.3	-47.8	17.4	0.00e+00	0	57	0	84934656	55	4257
2026-01-02 05:39:53.68	25.88	22.03	-45.9	-47.3	17.9	0.00e+00	0	57	0	90177536	54	4247
2026-01-02 05:39:56.65	25.13	22.17	-46.0	-47.4	17.7	0.00e+00	0	57	0	95420416	54	4300
2026-01-02 05:39:59.62	24.38	22.30	-46.3	-47.7	17.4	0.00e+00	0	57	0	101711872	54	4467
2026-01-02 05:40:02.59	23.61	22.42	-46.1	-47.5	17.6	0.00e+00	0	57	0	106954752	54	4362
2026-01-02 05:40:05.57	22.84	22.55	-46.2	-47.6	17.5	0.00e+00	0	57	0	112197632	54	4430
2026-01-02 05:40:08.53	22.07	22.66	-46.3	-47.8	17.4	0.00e+00	0	57	0	118489088	54	4499
2026-01-02 05:40:11.50	21.29	22.77	-46.4	-47.9	17.1	0.00e+00	0	57	0	123731968	54	4572
2026-01-02 05:40:14.48	20.50	22.88	-46.5	-48.1	17.1	0.00e+00	0	57	0	128974848	54	4655
2026-01-02 05:40:17.45	19.71	22.98	-46.9	-48.6	16.6	0.00e+00	0	57	0	134217728	55	4654
2026-01-02 05:40:20.41	18.92	23.08	-47.3	-49.1	16.1	0.00e+00	0	57	0	140509184	56	4675
2026-01-02 05:40:23.38	18.12	23.17	-47.5	-49.4	15.8	0.00e+00	0	57	0	145752064	56	4842
2026-01-02 05:40:26.33	17.32	23.25	-47.6	-49.5	15.7	0.00e+00	0	57	0	150994944	57	4622
2026-01-02 05:40:29.30	16.51	23.33	-47.9	-49.9	15.3	0.00e+00	0	57	0	157286400	57	4826
2026-01-02 05:40:32.26	15.70	23.40	-47.8	-49.9	15.4	0.00e+00	0	57	0	162529280	57	4815
2026-01-02 05:40:35.23	14.88	23.47	-48.2	-50.3	14.9	7.00e-07	0	57	0	167772160	58	4808
2026-01-02 05:40:38.19	14.06	23.52	-48.1	-50.2	15.0	0.00e+00	0	57	0	174063616	58	4751
2026-01-02 05:40:41.15	13.24	23.58	-48.2	-50.5	14.6	0.00e+00	0	57	0	179306496	58	4890
2026-01-02 05:40:44.12	12.41	23.63	-48.3	-50.6	14.4	1.50e-06	0	57	0	184549376	58	4978
2026-01-02 05:40:47.09	11.59	23.67	-47.6	-49.6	15.5	0.00e+00	0	57	0	189792256	58	4397
2026-01-02 05:40:50.06	10.75	23.70	-47.9	-50.1	14.7	7.00e-07	0	57	0	196083712	58	4700
2026-01-02 05:40:53.02	9.93	23.73	-47.9	-50.4	13.9	7.00e-07	0	57	0	201326592	58	4838
2026-01-02 05:40:55.98	9.09	23.75	-48.8	-52.3	11.6	3.13e-04	0	57	0	206569472	59	5697
2026-01-02 05:40:58.95	8.26	23.76	-49.1	-53.3	10.4	4.09e-03	0	57	0	212860928	60	6021
2026-01-02 05:41:01.92	7.43	23.77	-49.1	-53.3	10.4	4.22e-03	0	57	0	218103808	60	6037
2026-01-02 05:41:04.88	6.59	23.77	-48.8	-52.4	11.6	1.08e-03	0	57	0	223346688	59	5723
2026-01-02 05:41:07.85	5.76	23.77	-48.0	-50.5	13.8	1.22e-05	0	57	0	229638144	58	4895
2026-01-02 05:41:10.82	4.92	23.76	-49.0	-52.7	11.4	1.55e-04	0	57	0	234881024	59	5940
2026-01-02 05:41:13.78	4.09	23.74	-49.9	-55.8	7.8	9.24e-02	0	57	0	240123904	61	7596
2026-01-02 05:41:16.74	3.26	23.71	-48.6	-51.6	12.8	1.59e-04	0	57	0	245366784	60	4980
2026-01-02 05:41:19.70	2.43	23.68	-48.3	-50.6	14.6	7.00e-07	0	57	0	251658240	59	4662
2026-01-02 05:41:22.66	1.61	23.65	-47.0	-48.7	16.4	0.00e+00	0	57	0	256901120	57	4227
2026-01-02 05:41:25.62	0.78	23.60	-46.6	-48.1	17.0	0.00e+00	0	57	0	262144000	56	4190
2026-01-02 05:41:28.58	359.96	23.55	-45.9	-47.3	17.7	0.00e+00	0	57	0	268435456	55	4015
2026-01-02 05:41:31.54	359.14	23.50	-45.7	-47.0	18.0	0.00e+00	0	57	0	273678336	54	4117
2026-01-02 05:41:34.51	358.32	23.43	-45.4	-46.7	18.3	0.00e+00	0	57	0	278921216	54	3975
2026-01-02 05:41:37.49	357.51	23.36	-45.3	-46.6	18.4	0.00e+00	0	57	0	285212672	53	4151
2026-01-02 05:41:40.46	356.69	23.29	-45.6	-46.9	18.2	0.00e+00	0	57	0	290455552	53	4296
2026-01-02 05:41:43.42	355.89	23.21	-45.9	-47.3	17.7	0.00e+00	0	57	0	295698432	53	4518
2026-01-02 05:41:46.39	355.09	23.12	-46.0	-47.5	17.6	0.00e+00	0	57	0	300941312	53	4606
2026-01-02 05:41:49.37	354.29	23.03	-46.3	-47.8	17.2	0.00e+00	0	57	0	307232768	54	4545
2026-01-02 05:41:52.33	353.49	22.93	-46.5	-48.0	17.0	0.00e+00	0	57	0	312475648	54	4631
2026-01-02 05:41:55.29	352.71	22.83	-46.8	-48.4	16.6	0.00e+00	0	57	0	317718528	55	4585
2026-01-02 05:41:58.26	351.93	22.72	-46.9	-48.6	16.5	0.00e+00	0	57	0	324009984	55	4662
2026-01-02 05:42:01.23	351.15	22.60	-47.2	-48.9	16.2	0.00e+00	0	57	0	329252864	56	4596
2026-01-02 05:42:04.21	350.38	22.48	-47.5	-49.3	15.8	0.00e+00	0	57	0	334495744	56	4805
2026-01-02 05:42:07.18	349.61	22.36	-47.8	-49.9	15.2	0.00e+00	0	57	0	340787200	57	4840
2026-01-02 05:42:10.15	348.85	22.23	-47.8	-49.8	15.3	0.00e+00	0	57	0	346030080	57	4774
2026-01-02 05:42:13.13	348.10	22.10	-47.6	-49.5	15.6	0.00e+00	0	57	0	351272960	57	4620
2026-01-02 05:42:16.11	347.35	21.96	-47.7	-49.7	15.4	0.00e+00	0	57	0	357564416	57	4731
2026-01-02 05:42:19.08	346.61	21.82	-47.9	-50.0	15.1	0.00e+00	0	57	0	362807296	57	4883
2026-01-02 05:42:22.06	345.87	21.67	-48.1	-50.2	14.9	7.00e-07	0	57	0	368050176	58	4752
2026-01-02 05:42:25.03	345.15	21.52	-47.7	-49.7	15.4	0.00e+00	0	57	0	374341632	58	4443
2026-01-02 05:42:27.99	344.43	21.36	-47.6	-49.5	15.6	0.00e+00	0	57	0	379584512	58	4360
2026-01-02 05:42:30.95	343.73	21.20	-48.1	-50.4	14.7	0.00e+00	0	57	0	384827392	58	4821
2026-01-02 05:42:33.91	343.02	21.04	-48.1	-50.4	14.6	0.00e+00	0	57	0	390070272	58	4834
2026-01-02 05:42:36.88	342.33	20.88	-48.0	-50.1	14.9	0.00e+00	0	57	0	396361728	58	4705
2026-01-02 05:42:39.85	341.64	20.71	-48.0	-50.2	14.9	0.00e+00	0	57	0	401604608	58	4718
2026-01-02 05:42:42.81	340.96	20.54	-48.1	-50.5	14.5	0.00e+00	0	57	0	406847488	58	4878
2026-01-02 05:42:45.77	340.29	20.36	-48.3	-50.8	13.9	3.80e-06	0	57	0	413138944	58	5079
2026-01-02 05:42:48.75	339.63	20.18	-49.1	-52.6	11.9	1.55e-04	0	57	0	418381824	60	5547
2026-01-02 05:42:51.72	338.97	20.00	-49.0	-52.5	11.8	5.84e-04	0	57	0	423624704	60	5470
2026-01-02 05:42:54.70	338.32	19.82	-48.6	-51.6	12.7	9.76e-05	0	57	0	429916160	60	4973
2026-01-02 05:42:57.67	337.68	19.63	-48.5	-51.3	13.3	2.59e-05	0	57	0	435159040	59	5042
2026-01-02 05:43:00.64	337.04	19.44	-47.8	-50.0	14.6	7.00e-07	0	57	0	440401920	58	4639
2026-01-02 05:43:03.60	336.42	19.25	-47.5	-49.5	15.4	7.00e-07	0	57	0	446693376	58	4350
2026-01-02 05:43:06.58	335.80	19.06	-47.0	-48.8	16.2	0.00e+00	0	57	0	451936256	57	4246
2026-01-02 05:43:09.54	335.19	18.87	-47.4	-49.4	15.6	0.00e+00	0	57	0	457179136	57	4566
2026-01-02 05:43:12.52	334.59	18.67	-47.2	-49.1	16.0	0.00e+00	0	57	0	462422016	57	4404
2026-01-02 05:43:15.49	333.99	18.47	-47.4	-49.3	15.7	0.00e+00	0	57	0	468713472	57	4543
2026-01-02 05:43:18.45	333.41	18.27	-47.4	-49.2	15.8	0.00e+00	0	57	0	473956352	57	4491
2026-01-02 05:43:21.41	332.83	18.07	-47.3	-49.1	16.0	0.00e+00	0	57	0	479199232	57	4440
2026-01-02 05:43:24.38	332.26	17.87	-47.3	-49.1	16.0	0.00e+00	0	57	0	485490688	57	4412
2026-01-02 05:43:27.35	331.70	17.67	-47.3	-49.2	16.0	0.00e+00	0	57	0	490733568	57	4442
2026-01-02 05:43:30.30	331.15	17.46	-47.2	-49.0	16.1	0.00e+00	0	57	0	495976448	57	4377
2026-01-02 05:43:33.25	330.60	17.26	-47.4	-49.2	15.9	0.00e+00	0	57	0	502267904	57	4491
2026-01-02 05:43:36.21	330.07	17.05	-46.9	-48.6	16.4	0.00e+00	0	57	0	507510784	57	4191
2026-01-02 05:43:39.17	329.53	16.85	-47.0	-48.7	16.4	0.00e+00	0	57	0	512753664	56	4484
2026-01-02 05:43:42.14	329.01	16.64	-46.8	-48.5	16.6	0.00e+00	0	57	0	517996544	56	4369
2026-01-02 05:43:45.11	328.49	16.43	-47.1	-48.8	16.3	0.00e+00	0	57	0	524288000	56	4529
2026-01-02 05:43:48.08	327.98	16.22	-47.1	-48.9	16.2	0.00e+00	0	57	0	529530880	56	4567
2026-01-02 05:43:51.05	327.48	16.01	-47.1	-48.9	16.2	0.00e+00	0	57	0	534773760	56	4569
2026-01-02 05:43:54.02	326.98	15.80	-46.6	-48.1	17.0	0.00e+00	0	57	0	541065216	56	4175
2026-01-02 05:43:56.98	326.49	15.59	-46.7	-48.3	16.8	0.00e+00	0	57	0	546308096	56	4271
2026-01-02 05:43:59.95	326.01	15.38	-47.0	-48.8	16.3	0.00e+00	0	57	0	551550976	56	4501
2026-01-02 05:44:02.92	325.53	15.17	-46.6	-48.1	16.9	0.00e+00	0	57	0	557842432	56	4191
2026-01-02 05:44:05.89	325.07	14.96	-46.8	-48.4	16.6	0.00e+00	0	57	0	563085312	56	4332
2026-01-02 05:44:08.85	324.61	14.75	-46.6	-48.2	16.8	0.00e+00	0	57	0	568328192	56	4222
2026-01-02 05:44:11.83	324.15	14.53	-47.0	-48.7	16.4	0.00e+00	0	57	0	574619648	56	4453
2026-01-02 05:44:14.79	323.70	14.32	-46.6	-48.2	16.7	0.00e+00	0	57	0	579862528	55	4469
2026-01-02 05:44:17.76	323.26	14.11	-46.8	-48.5	16.4	0.00e+00	0	57	0	585105408	55	4640
2026-01-02 05:44:20.73	322.82	13.90	-47.0	-48.8	16.1	0.00e+00	0	57	0	590348288	55	4783
2026-01-02 05:44:23.70	322.39	13.69	-47.4	-49.3	15.7	0.00e+00	0	57	0	596639744	56	4809
2026-01-02 05:44:26.66	321.97	13.48	-47.5	-49.4	15.6	0.00e+00	0	57	0	601882624	57	4592
2026-01-02 05:44:29.63	321.55	13.27	-47.3	-49.1	15.9	0.00e+00	0	57	0	607125504	57	4420
2026-01-02 05:44:32.59	321.14	13.06	-47.0	-48.8	16.2	0.00e+00	0	57	0	613416960	56	4522
2026-01-02 05:44:35.56	320.74	12.85	-47.1	-48.9	16.0	0.00e+00	0	57	0	618659840	56	4597
2026-01-02 05:44:38.52	320.34	12.64	-47.3	-49.3	15.7	0.00e+00	0	57	0	623902720	56	4769
2026-01-02 05:44:41.48	319.95	12.43	-47.5	-49.5	15.5	0.00e+00	0	57	0	630194176	56	4905
2026-01-02 05:44:44.46	319.56	12.22	-47.7	-49.9	15.1	0.00e+00	0	57	0	635437056	57	4823
2026-01-02 05:44:47.43	319.18	12.01	-47.9	-50.0	14.9	0.00e+00	0	57	0	640679936	57	4915
2026-01-02 05:44:50.40	318.80	11.81	-47.7	-49.9	15.0	0.00e+00	0	57	0	646971392	57	4850
2026-01-02 05:44:53.37	318.43	11.60	-47.8	-50.0	14.9	0.00e+00	0	57	0	652214272	57	4895
2026-01-02 05:44:56.35	318.06	11.39	-47.8	-49.9	15.0	0.00e+00	0	57	0	657457152	57	4832
2026-01-02 05:44:59.31	317.70	11.19	-47.8	-49.9	15.0	0.00e+00	0	57	0	662700032	57	4849
2026-01-02 05:45:02.28	317.34	10.98	-47.9	-50.2	14.7	0.00e+00	0	57	0	668991488	57	4997
2026-01-02 05:45:05.24	316.99	10.78	-48.1	-50.4	14.5	0.00e+00	0	57	0	674234368	58	4842
2026-01-02 05:45:08.21	316.65	10.57	-48.2	-50.5	14.3	0.00e+00	0	57	0	679477248	58	4920
2026-01-02 05:45:11.18	316.31	10.37	-48.4	-50.8	14.0	1.50e-06	0	57	0	685768704	58	5094
2026-01-02 05:45:14.15	315.97	10.17	-48.3	-50.8	14.0	4.50e-06	0	57	0	691011584	58	5085
2026-01-02 05:45:17.13	315.64	9.96	-48.2	-50.7	14.1	7.00e-07	0	57	0	696254464	58	5016
2026-01-02 05:45:20.09	315.31	9.76	-48.2	-50.6	14.2	2.20e-06	0	57	0	702545920	58	4964
2026-01-02 05:45:23.05	314.99	9.56	-48.3	-50.7	14.1	3.80e-06	0	57	0	707788800	58	5024
2026-01-02 05:45:26.01	314.68	9.36	-48.4	-50.9	13.9	6.10e-06	0	57	0	713031680	58	5137
2026-01-02 05:45:28.97	314.36	9.17	-48.5	-51.1	13.7	6.80e-06	0	57	0	718274560	58	5226
2026-01-02 05:45:31.93	314.06	8.97	-48.5	-51.2	13.6	1.06e-05	0	57	0	724566016	58	5291
2026-01-02 05:45:34.91	313.75	8.77	-48.6	-51.4	13.4	1.14e-05	0	57	0	729808896	59	5113
2026-01-02 05:45:37.88	313.45	8.57	-48.7	-51.5	13.3	1.98e-05	0	57	0	735051776	59	5160
2026-01-02 05:45:40.84	313.16	8.38	-48.8	-51.8	12.9	4.27e-05	0	57	0	741343232	59	5380
2026-01-02 05:45:43.81	312.86	8.18	-48.8	-51.8	12.9	5.41e-05	0	57	0	746586112	59	5354
2026-01-02 05:45:46.78	312.58	7.99	-48.9	-51.9	12.8	4.95e-05	0	57	0	751828992	59	5448
2026-01-02 05:45:49.75	312.29	7.79	-48.7	-51.6	13.1	3.20e-05	0	57	0	758120448	59	5273
2026-01-02 05:45:52.71	312.01	7.60	-48.8	-51.7	13.0	4.73e-05	0	57	0	763363328	59	5289
2026-01-02 05:45:55.68	311.74	7.41	-49.0	-52.1	12.5	1.51e-04	0	57	0	768606208	59	5574
2026-01-02 05:45:58.64	311.46	7.22	-49.0	-52.3	12.2	1.94e-04	0	57	0	774897664	59	5688
2026-01-02 05:46:01.61	311.20	7.03	-49.2	-52.6	12.0	2.83e-04	0	57	0	780140544	60	5539
2026-01-02 05:46:04.57	310.93	6.84	-49.3	-52.9	11.6	6.57e-04	0	57	0	785383424	60	5774
2026-01-02 05:46:07.53	310.67	6.65	-49.2	-52.7	11.7	6.13e-04	0	57	0	790626304	60	5652
2026-01-02 05:46:10.50	310.41	6.46	-49.3	-53.0	11.5	6.58e-04	0	57	0	796917760	60	5813
2026-01-02 05:46:13.47	310.16	6.28	-49.2	-52.7	11.7	4.75e-04	0	57	0	802160640	60	5614
2026-01-02 05:46:16.45	309.90	6.09	-49.2	-52.9	11.4	8.36e-04	0	57	0	807403520	60	5782
2026-01-02 05:46:19.42	309.66	5.90	-49.2	-53.1	11.1	1.58e-03	0	57	0	813694976	60	5908
2026-01-02 05:46:22.39	309.41	5.72	-49.3	-53.3	10.9	1.85e-03	0	57	0	818937856	60	6001
2026-01-02 05:46:25.36	309.17	5.54	-49.5	-53.6	10.5	2.80e-03	0	57	0	824180736	60	6271
2026-01-02 05:46:28.32	308.93	5.35	-49.5	-53.9	10.2	3.99e-03	0	57	0	830472192	60	6454
2026-01-02 05:46:31.29	308.70	5.17	-49.6	-54.1	9.9	6.71e-03	0	57	0	835715072	60	6591
2026-01-02 05:46:34.27	308.46	4.99	-51.4	-65.1	3.8	7.58e-01	0	57	104	840957952	64	18656
2026-01-02 05:46:37.24	308.23	4.81	-50.2	-64.3	3.8	1.49e+00	0	57	104	840957952	64	16898
2026-01-02 05:46:40.21	308.01	4.63	-52.2	-66.1	3.8	1.49e+00	0	57	104	840957952	66	18565
2026-01-02 05:46:43.18	307.78	4.45	-52.5	-66.3	3.8	1.49e+00	0	57	104	840957952	66	18976
2026-01-02 05:46:46.13	307.56	4.27	-52.5	-66.4	3.8	1.49e+00	0	57	104	840957952	66	19225
2026-01-02 05:46:49.08	307.35	4.09	-52.6	-66.4	3.8	1.49e+00	0	57	104	840957952	67	18285
2026-01-02 05:46:52.04	307.13	3.92	-52.6	-66.5	3.8	1.49e+00	0	57	104	840957952	67	18358
2026-01-02 05:46:55.02	306.92	3.74	-52.7	-66.5	3.8	1.49e+00	0	57	104	840957952	67	18427
2026-01-02 05:46:57.99	306.71	3.56	-52.7	-66.5	3.8	1.49e+00	0	57	104	840957952	67	18442
2026-01-02 05:47:00.95	306.50	3.39	-52.7	-66.5	3.8	1.49e+00	0	57	104	840957952	67	18455
2026-01-02 05:47:03.92	306.30	3.22	-52.6	-66.5	3.8	1.49e+00	0	57	104	840957952	67	18349
2026-01-02 05:47:06.89	306.10	3.04	-52.6	-66.5	3.8	1.49e+00	0	57	104	840957952	67	18400

#Closed at: 2026-01-02 05:47:08
#Recorded file [840 MB]: D:/Data/31026_260102_084634.dat