passes_logs/2026/01/02/R3.0SM8_Murmansk_STILSPACE/R3.0SM8_Murmansk_STILSPACE__20260102_223626_NOAA_20_JPSS-1_rec.log

#Pass ID: 20260102_223626_NOAA 20 (JPSS-1)
#Satellite: NOAA 20 (JPSS-1)
#Configuration: NOAA 20
#almurnet v.1.7.20240730
#Start time: 2026-01-02 22:36:28

#Version: 2.2.20231116
#Station: R3.0SM8_Murmansk_STILSPACE
#Location: 33.092731 lon 68.902999 lat
#TLE: 1 43013U 17073A   26002.21975278  .00000202  00000+0  11669-3 0  9999
#TLE: 2 43013  98.7622 303.2950 0001915  57.9213 302.2149 14.19532512420923

#Time	Az	El	Level	Level2	SNR	BER	BlckErr	Temp	State	Recorded	gain1	gain2
2026-01-02 22:36:28.80	20.40	3.13	-52.7	-66.5	3.8	1.49e+00	0	47	0	0	67	18459
2026-01-02 22:36:32.75	20.67	3.36	-52.4	-66.2	3.8	1.49e+00	0	48	104	0	67	17779
2026-01-02 22:36:36.71	20.94	3.59	-51.4	-65.1	3.8	1.49e+00	0	48	104	0	65	17546
2026-01-02 22:36:40.68	21.21	3.83	-51.4	-64.5	3.8	1.49e+00	0	48	104	0	65	16339
2026-01-02 22:36:44.63	21.49	4.07	-51.3	-65.3	3.8	1.49e+00	0	48	104	0	65	17940
2026-01-02 22:36:48.59	21.77	4.30	-51.4	-65.2	3.8	1.49e+00	0	49	104	0	65	17688
2026-01-02 22:36:52.56	22.06	4.54	-51.4	-64.0	3.8	1.49e+00	0	49	104	0	65	15548
2026-01-02 22:36:56.51	22.35	4.79	-51.0	-60.6	4.5	1.03e+00	0	49	0	2097152	65	10506
2026-01-02 22:37:00.46	22.65	5.03	-50.5	-56.9	7.1	2.14e-01	0	49	0	9437184	64	7277
2026-01-02 22:37:04.41	22.95	5.27	-49.7	-54.0	10.3	8.56e-03	0	49	0	16777216	62	5811
2026-01-02 22:37:08.38	23.26	5.52	-48.9	-52.4	12.0	4.06e-04	0	50	0	24117248	61	5114
2026-01-02 22:37:12.33	23.57	5.77	-48.9	-52.0	12.5	1.23e-04	0	50	0	31457280	60	5218
2026-01-02 22:37:16.29	23.88	6.02	-49.1	-52.2	12.5	1.06e-04	0	50	0	38797312	60	5332
2026-01-02 22:37:20.26	24.20	6.27	-49.1	-52.2	12.7	5.49e-05	0	50	0	46137344	60	5282
2026-01-02 22:37:24.23	24.53	6.52	-49.1	-52.2	12.7	6.79e-05	0	50	0	53477376	60	5292
2026-01-02 22:37:28.18	24.86	6.78	-49.1	-52.2	12.8	4.34e-05	0	51	0	60817408	60	5288
2026-01-02 22:37:32.13	25.20	7.04	-49.1	-52.0	12.9	5.56e-05	0	51	0	68157440	60	5189
2026-01-02 22:37:36.08	25.54	7.29	-49.1	-52.2	12.8	4.65e-05	0	51	0	75497472	60	5289
2026-01-02 22:37:40.04	25.89	7.56	-49.1	-52.0	13.0	3.58e-05	0	51	0	83886080	60	5211
2026-01-02 22:37:44.01	26.24	7.82	-48.9	-51.9	13.1	2.82e-05	0	51	0	91226112	60	5140
2026-01-02 22:37:47.97	26.60	8.08	-48.9	-51.8	13.3	1.14e-05	0	52	0	98566144	60	5055
2026-01-02 22:37:51.93	26.97	8.35	-48.6	-51.3	13.9	6.80e-06	0	52	0	105906176	60	4779
2026-01-02 22:37:55.87	27.34	8.62	-49.0	-51.7	13.4	9.90e-06	0	52	0	113246208	60	5013
2026-01-02 22:37:59.83	27.72	8.89	-49.0	-51.9	13.3	2.21e-05	0	52	0	120586240	60	5124
2026-01-02 22:38:03.81	28.11	9.16	-49.0	-51.8	13.3	1.44e-05	0	52	0	127926272	60	5094
2026-01-02 22:38:07.76	28.50	9.43	-49.1	-51.9	13.3	1.37e-05	0	53	0	135266304	60	5113
2026-01-02 22:38:11.73	28.90	9.71	-48.6	-51.1	14.2	2.20e-06	0	53	0	142606336	60	4686
2026-01-02 22:38:15.69	29.31	9.99	-48.6	-50.9	14.3	1.50e-06	0	52	0	149946368	59	4863
2026-01-02 22:38:19.64	29.72	10.27	-48.3	-50.5	14.8	0.00e+00	0	52	0	157286400	59	4617
2026-01-02 22:38:23.58	30.14	10.54	-48.5	-50.8	14.4	1.50e-06	0	53	0	164626432	59	4807
2026-01-02 22:38:27.53	30.57	10.83	-48.7	-51.1	14.3	7.00e-07	0	53	0	171966464	59	4934
2026-01-02 22:38:31.48	31.01	11.11	-48.6	-51.0	14.3	0.00e+00	0	53	0	180355072	59	4888
2026-01-02 22:38:35.42	31.45	11.40	-48.3	-50.5	14.8	0.00e+00	0	53	0	187695104	59	4642
2026-01-02 22:38:39.37	31.91	11.69	-48.4	-50.6	14.7	0.00e+00	0	53	0	195035136	59	4698
2026-01-02 22:38:43.33	32.37	11.98	-48.8	-51.3	14.1	2.20e-06	0	53	0	202375168	59	5089
2026-01-02 22:38:47.29	32.84	12.27	-49.0	-51.7	13.7	4.50e-06	0	53	0	209715200	59	5294
2026-01-02 22:38:51.25	33.33	12.56	-48.9	-51.5	13.9	3.00e-06	0	53	0	217055232	59	5214
2026-01-02 22:38:55.21	33.82	12.86	-48.8	-51.2	14.2	2.20e-06	0	53	0	224395264	59	5039
2026-01-02 22:38:59.17	34.32	13.16	-48.4	-50.7	14.8	1.50e-06	0	54	0	231735296	59	4718
2026-01-02 22:39:03.14	34.83	13.46	-48.1	-50.2	15.2	0.00e+00	0	54	0	239075328	59	4465
2026-01-02 22:39:07.11	35.35	13.76	-48.1	-50.2	15.3	0.00e+00	0	54	0	246415360	59	4453
2026-01-02 22:39:11.07	35.88	14.06	-48.4	-50.6	14.9	0.00e+00	0	54	0	253755392	59	4657
2026-01-02 22:39:15.02	36.42	14.37	-48.2	-50.3	15.2	0.00e+00	0	54	0	261095424	59	4539
2026-01-02 22:39:18.98	36.98	14.67	-48.1	-50.1	15.5	0.00e+00	0	54	0	268435456	59	4397
2026-01-02 22:39:22.95	37.54	14.98	-48.1	-50.2	15.4	0.00e+00	0	54	0	276824064	59	4445
2026-01-02 22:39:26.91	38.11	15.29	-48.1	-50.1	15.4	0.00e+00	0	54	0	284164096	59	4417
2026-01-02 22:39:30.85	38.70	15.60	-48.0	-49.9	15.6	0.00e+00	0	54	0	291504128	59	4321
2026-01-02 22:39:34.81	39.30	15.91	-48.1	-50.0	15.5	0.00e+00	0	54	0	298844160	59	4387
2026-01-02 22:39:38.77	39.91	16.22	-48.4	-50.5	15.1	0.00e+00	0	54	0	306184192	59	4608
2026-01-02 22:39:42.71	40.53	16.53	-47.7	-49.6	15.9	0.00e+00	0	54	0	313524224	58	4441
2026-01-02 22:39:46.68	41.16	16.85	-47.5	-49.2	16.3	0.00e+00	0	54	0	320864256	58	4236
2026-01-02 22:39:50.63	41.81	17.16	-47.5	-49.3	16.3	0.00e+00	0	54	0	328204288	58	4252
2026-01-02 22:39:54.59	42.47	17.48	-47.8	-49.8	15.8	0.00e+00	0	55	0	335544320	58	4505
2026-01-02 22:39:58.56	43.15	17.79	-47.9	-49.8	15.7	0.00e+00	0	55	0	342884352	58	4539
2026-01-02 22:40:02.52	43.84	18.11	-48.2	-50.3	15.4	0.00e+00	0	55	0	350224384	58	4779
2026-01-02 22:40:06.49	44.54	18.42	-48.4	-50.6	15.0	0.00e+00	0	55	0	357564416	58	4939
2026-01-02 22:40:10.45	45.26	18.74	-48.1	-50.0	15.6	0.00e+00	0	55	0	365953024	59	4363
2026-01-02 22:40:14.41	45.99	19.06	-47.9	-49.7	15.9	0.00e+00	0	55	0	373293056	58	4473
2026-01-02 22:40:18.37	46.74	19.37	-47.8	-49.7	15.9	0.00e+00	0	55	0	380633088	58	4453
2026-01-02 22:40:22.32	47.50	19.68	-47.0	-48.6	17.1	0.00e+00	0	55	0	387973120	57	4146
2026-01-02 22:40:26.28	48.28	20.00	-46.9	-48.4	17.2	0.00e+00	0	55	0	395313152	56	4338
2026-01-02 22:40:30.22	49.07	20.31	-46.7	-48.2	17.4	0.00e+00	0	55	0	402653184	56	4226
2026-01-02 22:40:34.17	49.88	20.62	-46.9	-48.4	17.2	0.00e+00	0	55	0	409993216	56	4317
2026-01-02 22:40:38.12	50.70	20.92	-46.8	-48.2	17.4	0.00e+00	0	55	0	417333248	56	4224
2026-01-02 22:40:42.09	51.54	21.23	-46.9	-48.4	17.3	0.00e+00	0	55	0	424673280	56	4294
2026-01-02 22:40:46.03	52.39	21.53	-46.8	-48.2	17.4	0.00e+00	0	55	0	432013312	56	4224
2026-01-02 22:40:49.99	53.27	21.83	-46.9	-48.4	17.2	0.00e+00	0	55	0	439353344	56	4305
2026-01-02 22:40:53.95	54.16	22.13	-47.1	-48.7	16.9	0.00e+00	0	55	0	446693376	56	4476
2026-01-02 22:40:57.92	55.07	22.42	-47.3	-48.9	16.7	0.00e+00	0	55	0	454033408	56	4582
2026-01-02 22:41:01.87	55.99	22.71	-47.9	-49.7	15.9	0.00e+00	0	55	0	461373440	57	4752
2026-01-02 22:41:05.83	56.93	23.00	-47.8	-49.7	16.0	0.00e+00	0	56	0	469762048	57	4717
2026-01-02 22:41:09.79	57.89	23.28	-47.3	-49.0	16.6	0.00e+00	0	55	0	477102080	57	4347
2026-01-02 22:41:13.75	58.86	23.55	-47.9	-49.7	15.9	0.00e+00	0	56	0	484442112	57	4753
2026-01-02 22:41:17.72	59.86	23.82	-47.7	-49.5	16.2	0.00e+00	0	56	0	491782144	57	4630
2026-01-02 22:41:21.67	60.86	24.09	-48.3	-50.4	15.3	0.00e+00	0	56	0	499122176	58	4851
2026-01-02 22:41:25.62	61.89	24.34	-48.5	-50.7	15.0	0.00e+00	0	56	0	506462208	59	4709
2026-01-02 22:41:29.56	62.92	24.59	-48.6	-50.8	14.9	0.00e+00	0	56	0	513802240	59	4809
2026-01-02 22:41:33.52	63.98	24.83	-49.0	-51.5	14.2	1.50e-06	0	56	0	521142272	59	5208
2026-01-02 22:41:37.48	65.05	25.07	-49.3	-52.0	13.7	8.30e-06	0	56	0	528482304	60	5187
2026-01-02 22:41:41.45	66.14	25.29	-49.5	-52.4	13.3	1.60e-05	0	56	0	535822336	60	5411
2026-01-02 22:41:45.41	67.24	25.51	-49.5	-52.4	13.2	2.74e-05	0	56	0	543162368	61	5141
2026-01-02 22:41:49.37	68.36	25.72	-50.2	-53.6	12.0	2.08e-04	0	56	0	550502400	62	5581
2026-01-02 22:41:53.32	69.49	25.91	-49.9	-53.1	12.6	1.66e-04	0	56	0	557842432	62	5250
2026-01-02 22:41:57.28	70.64	26.10	-49.7	-52.8	12.9	3.73e-05	0	56	0	566231040	62	5053
2026-01-02 22:42:01.24	71.80	26.28	-49.5	-52.4	13.3	6.80e-06	0	56	0	573571072	61	5139
2026-01-02 22:42:05.21	72.97	26.44	-49.6	-52.6	13.1	2.82e-05	0	56	0	580911104	61	5225
2026-01-02 22:42:09.17	74.15	26.59	-49.2	-51.9	13.9	1.50e-06	0	56	0	588251136	61	4829
2026-01-02 22:42:13.12	75.34	26.73	-49.0	-51.6	14.2	7.00e-07	0	56	0	595591168	61	4690
2026-01-02 22:42:17.08	76.55	26.86	-49.1	-51.6	14.0	2.20e-06	0	56	0	602931200	60	4979
2026-01-02 22:42:21.03	77.76	26.98	-49.5	-52.4	13.2	2.13e-05	0	56	0	610271232	61	5146
2026-01-02 22:42:25.00	78.98	27.08	-49.4	-52.1	13.5	8.30e-06	0	56	0	617611264	61	4982
2026-01-02 22:42:28.96	80.21	27.17	-49.1	-51.6	14.1	7.00e-07	0	56	0	624951296	61	4668
2026-01-02 22:42:32.91	81.44	27.25	-49.1	-51.8	14.0	3.80e-06	0	56	0	632291328	60	5054
2026-01-02 22:42:36.85	82.67	27.31	-49.2	-51.7	13.9	5.30e-06	0	56	0	639631360	60	5001
2026-01-02 22:42:40.81	83.92	27.35	-49.1	-51.5	14.2	2.20e-06	0	56	0	646971392	60	4916
2026-01-02 22:42:44.77	85.17	27.39	-48.9	-51.3	14.4	0.00e+00	0	56	0	654311424	60	4786
2026-01-02 22:42:48.74	86.42	27.41	-48.3	-50.3	15.4	0.00e+00	0	56	0	662700032	59	4535
2026-01-02 22:42:52.71	87.67	27.41	-48.5	-50.7	15.1	7.00e-07	0	56	0	670040064	59	4710
2026-01-02 22:42:56.66	88.92	27.40	-48.6	-50.8	14.9	0.00e+00	0	56	0	677380096	59	4806
2026-01-02 22:43:00.61	90.17	27.38	-48.8	-51.1	14.6	0.00e+00	0	56	0	684720128	59	4962
2026-01-02 22:43:04.56	91.41	27.34	-49.3	-52.0	13.8	3.80e-06	0	56	0	692060160	60	5179
2026-01-02 22:43:08.51	92.65	27.29	-49.2	-51.7	14.0	2.20e-06	0	56	0	699400192	60	5005
2026-01-02 22:43:12.47	93.89	27.22	-49.1	-51.7	14.1	3.80e-06	0	56	0	706740224	60	5004
2026-01-02 22:43:16.43	95.12	27.14	-49.8	-53.1	12.7	7.78e-05	0	56	0	714080256	61	5545
2026-01-02 22:43:20.39	96.35	27.05	-49.7	-52.8	12.9	5.56e-05	0	57	0	721420288	62	5056
2026-01-02 22:43:24.35	97.57	26.94	-48.5	-50.7	15.0	0.00e+00	0	56	0	728760320	60	4466
2026-01-02 22:43:28.30	98.78	26.82	-48.6	-50.8	15.0	0.00e+00	0	56	0	736100352	60	4507
2026-01-02 22:43:32.23	99.97	26.69	-48.3	-50.3	15.5	0.00e+00	0	56	0	743440384	59	4497
2026-01-02 22:43:36.20	101.17	26.54	-48.4	-50.6	15.2	0.00e+00	0	57	0	750780416	59	4658
2026-01-02 22:43:40.17	102.35	26.38	-48.3	-50.4	15.4	0.00e+00	0	56	0	759169024	59	4568
2026-01-02 22:43:44.11	103.51	26.22	-48.2	-50.2	15.5	0.00e+00	0	56	0	766509056	59	4492
2026-01-02 22:43:48.06	104.67	26.04	-47.8	-49.7	16.1	0.00e+00	0	57	0	773849088	58	4464
2026-01-02 22:43:52.01	105.81	25.85	-47.1	-48.8	17.0	0.00e+00	0	57	0	781189120	57	4258
2026-01-02 22:43:55.98	106.94	25.64	-47.4	-49.0	16.7	0.00e+00	0	57	0	788529152	57	4384
2026-01-02 22:43:59.93	108.05	25.43	-47.8	-49.6	16.2	0.00e+00	0	57	0	795869184	57	4675
2026-01-02 22:44:03.90	109.16	25.21	-47.7	-49.5	16.3	0.00e+00	0	57	0	803209216	57	4613
2026-01-02 22:44:07.86	110.24	24.98	-47.9	-49.8	15.9	0.00e+00	0	57	0	810549248	57	4785
2026-01-02 22:44:11.81	111.31	24.75	-48.4	-50.6	15.2	0.00e+00	0	57	0	817889280	58	4935
2026-01-02 22:44:15.79	112.37	24.50	-48.3	-50.4	15.3	0.00e+00	0	56	0	825229312	58	4864
2026-01-02 22:44:19.75	113.41	24.25	-48.2	-50.2	15.5	0.00e+00	0	57	0	832569344	58	4736
2026-01-02 22:44:23.71	114.43	23.99	-48.5	-50.6	15.1	0.00e+00	0	57	0	839909376	58	4959
2026-01-02 22:44:27.68	115.44	23.72	-48.2	-50.2	15.6	0.00e+00	0	57	0	847249408	59	4445
2026-01-02 22:44:31.62	116.42	23.45	-47.7	-49.5	16.3	0.00e+00	0	57	0	855638016	58	4347
2026-01-02 22:44:35.56	117.39	23.17	-48.1	-50.0	15.7	0.00e+00	0	57	0	862978048	58	4648
2026-01-02 22:44:39.51	118.34	22.89	-48.8	-51.1	14.6	0.00e+00	0	57	0	870318080	59	4968
2026-01-02 22:44:43.48	119.28	22.60	-48.8	-51.0	14.7	7.00e-07	0	57	0	877658112	59	4895
2026-01-02 22:44:47.45	120.20	22.30	-48.7	-50.9	14.8	0.00e+00	0	57	0	884998144	59	4867
2026-01-02 22:44:51.42	121.11	22.01	-48.4	-50.5	15.2	0.00e+00	0	57	0	892338176	59	4615
2026-01-02 22:44:55.39	122.00	21.71	-48.9	-51.2	14.5	0.00e+00	0	57	0	899678208	59	5022
2026-01-02 22:44:59.35	122.87	21.40	-48.8	-51.1	14.6	7.00e-07	0	57	0	907018240	60	4654
2026-01-02 22:45:03.31	123.72	21.10	-49.4	-52.1	13.6	6.10e-06	0	57	0	914358272	60	5231
2026-01-02 22:45:07.26	124.56	20.79	-49.5	-52.2	13.4	2.51e-05	0	57	0	921698304	61	5021
2026-01-02 22:45:11.21	125.38	20.48	-49.7	-52.6	13.0	5.49e-05	0	57	0	929038336	61	5267
2026-01-02 22:45:15.17	126.18	20.17	-49.1	-51.6	14.1	3.80e-06	0	57	0	936378368	61	4669
2026-01-02 22:45:19.14	126.97	19.85	-48.7	-51.0	14.7	0.00e+00	0	57	0	943718400	60	4620
2026-01-02 22:45:23.09	127.75	19.54	-49.4	-52.3	13.4	4.04e-05	0	57	0	952107008	61	5069
2026-01-02 22:45:27.06	128.51	19.22	-48.1	-50.0	15.7	0.00e+00	0	57	0	959447040	59	4376
2026-01-02 22:45:31.00	129.25	18.91	-48.9	-51.3	14.3	0.00e+00	0	57	0	966787072	59	5088
2026-01-02 22:45:34.95	129.97	18.59	-48.5	-50.7	15.0	0.00e+00	0	57	0	974127104	60	4454
2026-01-02 22:45:38.90	130.69	18.27	-48.7	-50.9	14.7	0.00e+00	0	57	0	981467136	59	4853
2026-01-02 22:45:42.86	131.39	17.96	-48.7	-50.9	14.7	0.00e+00	0	57	0	988807168	59	4869
2026-01-02 22:45:46.80	132.07	17.64	-48.4	-50.6	15.1	0.00e+00	0	57	0	996147200	59	4670
2026-01-02 22:45:50.76	132.74	17.32	-48.8	-51.1	14.6	0.00e+00	0	57	0	1003487232	59	4956
2026-01-02 22:45:54.73	133.40	17.00	-48.9	-51.3	14.4	0.00e+00	0	57	0	1010827264	59	5046
2026-01-02 22:45:58.70	134.05	16.69	-48.7	-51.0	14.6	0.00e+00	0	57	0	1018167296	59	4883
2026-01-02 22:46:02.65	134.68	16.37	-49.1	-51.6	14.0	2.20e-06	0	57	0	1025507328	60	4958
2026-01-02 22:46:06.61	135.30	16.06	-48.3	-50.3	15.3	0.00e+00	0	57	0	1032847360	59	4529
2026-01-02 22:46:10.56	135.90	15.74	-48.2	-50.2	15.4	0.00e+00	0	57	0	1040187392	59	4470
2026-01-02 22:46:14.52	136.50	15.43	-48.2	-50.3	15.4	0.00e+00	0	57	0	1048576000	59	4496
2026-01-02 22:46:18.47	137.08	15.12	-48.6	-50.9	14.8	0.00e+00	0	57	0	1055916032	59	4836
2026-01-02 22:46:22.42	137.65	14.81	-48.9	-51.2	14.4	0.00e+00	0	57	0	1063256064	59	5037
2026-01-02 22:46:26.38	138.21	14.50	-48.6	-50.7	15.0	0.00e+00	0	57	0	1070596096	59	4739
2026-01-02 22:46:30.33	138.76	14.20	-48.6	-50.9	14.6	0.00e+00	0	57	0	1077936128	59	4860
2026-01-02 22:46:34.29	139.30	13.89	-49.0	-51.6	14.0	1.50e-06	0	57	0	1085276160	60	4947
2026-01-02 22:46:38.24	139.82	13.59	-49.2	-52.0	13.6	9.10e-06	0	57	0	1092616192	60	5170
2026-01-02 22:46:42.20	140.34	13.29	-49.6	-52.6	12.9	4.11e-05	0	57	0	1099956224	61	5265
2026-01-02 22:46:46.16	140.85	12.98	-49.4	-52.3	13.2	3.89e-05	0	57	0	1107296256	61	5085
2026-01-02 22:46:50.11	141.34	12.69	-49.1	-51.8	13.8	2.20e-06	0	57	0	1114636288	61	4766
2026-01-02 22:46:54.07	141.83	12.39	-49.1	-51.8	13.6	1.06e-05	0	57	0	1121976320	61	4793
2026-01-02 22:46:58.03	142.31	12.09	-49.5	-52.5	13.0	3.35e-05	0	57	0	1129316352	61	5161
2026-01-02 22:47:01.99	142.78	11.80	-49.7	-52.8	12.7	1.16e-04	0	57	0	1136656384	61	5346
2026-01-02 22:47:05.95	143.24	11.51	-49.5	-52.5	13.0	4.34e-05	0	57	0	1145044992	61	5163
2026-01-02 22:47:09.90	143.69	11.22	-49.1	-51.7	13.7	4.50e-06	0	57	0	1151336448	61	4745
2026-01-02 22:47:13.85	144.13	10.93	-49.2	-51.9	13.5	9.10e-06	0	57	0	1159725056	60	5148
2026-01-02 22:47:17.81	144.57	10.64	-49.3	-52.2	13.2	3.81e-05	0	57	0	1167065088	60	5317
2026-01-02 22:47:21.77	145.00	10.36	-49.1	-51.7	13.7	9.10e-06	0	57	0	1174405120	60	5028
2026-01-02 22:47:25.73	145.42	10.08	-48.7	-51.2	14.2	2.20e-06	0	57	0	1181745152	60	4726
2026-01-02 22:47:29.69	145.83	9.80	-48.5	-50.8	14.6	0.00e+00	0	57	0	1189085184	60	4539
2026-01-02 22:47:33.63	146.23	9.52	-48.7	-51.0	14.3	7.00e-07	0	57	0	1196425216	60	4648
2026-01-02 22:47:37.59	146.63	9.24	-48.9	-51.5	13.9	0.00e+00	0	57	0	1203765248	60	4885
2026-01-02 22:47:41.55	147.02	8.97	-49.0	-51.7	13.6	6.10e-06	0	57	0	1211105280	60	5012
2026-01-02 22:47:45.51	147.40	8.70	-48.9	-51.6	13.7	6.80e-06	0	57	0	1218445312	60	4939
2026-01-02 22:47:49.48	147.78	8.42	-48.9	-51.5	13.8	9.10e-06	0	57	0	1225785344	60	4889
2026-01-02 22:47:53.44	148.15	8.15	-49.2	-52.1	13.1	1.83e-05	0	57	0	1233125376	60	5222
2026-01-02 22:47:57.40	148.51	7.89	-49.4	-52.4	12.7	7.17e-05	0	57	0	1241513984	60	5448
2026-01-02 22:48:01.36	148.87	7.62	-49.3	-52.3	12.9	4.88e-05	0	57	0	1248854016	60	5348
2026-01-02 22:48:05.32	149.22	7.36	-49.3	-52.4	12.7	5.03e-05	0	57	0	1256194048	60	5463
2026-01-02 22:48:09.28	149.56	7.10	-49.0	-51.7	13.4	1.75e-05	0	57	0	1263534080	60	5025
2026-01-02 22:48:13.25	149.90	6.84	-49.0	-51.8	13.3	1.44e-05	0	57	0	1270874112	60	5052
2026-01-02 22:48:17.21	150.24	6.58	-48.9	-51.7	13.3	1.98e-05	0	57	0	1278214144	60	5027
2026-01-02 22:48:21.16	150.56	6.32	-49.1	-52.0	13.0	2.28e-05	0	57	0	1285554176	60	5190
2026-01-02 22:48:25.12	150.89	6.07	-49.0	-52.1	12.9	4.88e-05	0	57	0	1292894208	60	5239
2026-01-02 22:48:29.08	151.20	5.82	-49.3	-52.6	12.2	1.52e-04	0	57	0	1300234240	60	5545
2026-01-02 22:48:33.05	151.51	5.56	-49.0	-52.2	12.4	2.23e-04	0	57	0	1307574272	60	5317
2026-01-02 22:48:37.00	151.82	5.32	-48.8	-51.9	12.6	6.02e-05	0	57	0	1314914304	60	5142
2026-01-02 22:48:40.97	152.12	5.07	-49.1	-52.9	11.2	6.46e-04	0	57	0	1322254336	60	5768
2026-01-02 22:48:44.91	152.42	4.82	-52.7	-66.5	3.8	1.49e+00	0	57	104	1324351488	67	18472
2026-01-02 22:48:48.88	152.71	4.58	-52.9	-66.8	3.8	1.49e+00	0	57	104	1324351488	67	18978
2026-01-02 22:48:52.84	153.00	4.34	-53.0	-66.8	3.8	1.49e+00	0	57	104	1324351488	67	19159
2026-01-02 22:48:56.80	153.28	4.09	-53.1	-66.9	3.8	1.49e+00	0	57	104	1324351488	67	19260
2026-01-02 22:49:00.75	153.56	3.86	-53.2	-67.1	3.8	1.49e+00	0	57	104	1324351488	68	18601
2026-01-02 22:49:04.70	153.84	3.62	-53.3	-67.1	3.8	1.49e+00	0	57	104	1324351488	68	18659
2026-01-02 22:49:08.67	154.11	3.38	-53.3	-67.1	3.8	1.49e+00	0	57	104	1324351488	68	18663
2026-01-02 22:49:12.63	154.38	3.15	-53.2	-67.1	3.8	1.49e+00	0	57	104	1324351488	68	18652

#Closed at: 2026-01-02 22:49:16
#Recorded file [1324 MB]: D:/Data/31026_260103_014842.dat