passes_logs/2026/01/02/R3.0SM8_Murmansk_STILSPACE/R3.0SM8_Murmansk_STILSPACE__20260102_214602_NOAA_21_JPSS-2_rec.log

#Pass ID: 20260102_214602_NOAA 21 (JPSS-2)
#Satellite: NOAA 21 (JPSS-2)
#Configuration: NOAA-21
#almurnet v.1.7.20240730
#Start time: 2026-01-02 21:46:04

#Version: 2.2.20231116
#Station: R3.0SM8_Murmansk_STILSPACE
#Location: 33.092731 lon 68.902999 lat
#TLE: 1 54234U 22150A   26002.25486487  .00000200  00000+0  11573-3 0  9993
#TLE: 2 54234  98.7485 303.3096 0001220 350.9074   9.2080 14.19531212163006

#Time	Az	El	Level	Level2	SNR	BER	BlckErr	Temp	State	Recorded	gain1	gain2
2026-01-02 21:46:04.43	20.26	3.12	-53.3	-64.8	3.8	1.49e+00	0	46	0	0	68	14229
2026-01-02 21:46:07.40	20.54	3.27	-53.0	-64.5	3.8	1.49e+00	0	46	104	0	67	14671
2026-01-02 21:46:10.36	20.81	3.42	-52.9	-64.4	3.8	1.49e+00	0	46	104	0	67	14406
2026-01-02 21:46:13.32	21.09	3.57	-52.5	-64.0	3.8	1.49e+00	0	47	104	0	67	13845
2026-01-02 21:46:16.29	21.37	3.72	-52.2	-63.5	3.8	1.49e+00	0	47	104	0	67	13095
2026-01-02 21:46:19.26	21.65	3.87	-52.1	-63.6	3.8	1.49e+00	0	47	104	0	67	13155
2026-01-02 21:46:22.24	21.94	4.02	-52.2	-63.6	3.8	1.49e+00	0	47	104	0	67	13172
2026-01-02 21:46:25.21	22.23	4.17	-52.1	-63.6	3.8	1.49e+00	0	47	104	0	67	13253
2026-01-02 21:46:28.19	22.52	4.33	-52.2	-63.7	3.8	1.49e+00	0	48	104	0	67	13272
2026-01-02 21:46:31.13	22.81	4.48	-52.0	-63.2	3.8	1.49e+00	0	48	104	0	67	12658
2026-01-02 21:46:34.11	23.11	4.63	-51.8	-60.7	4.0	1.48e+00	0	48	104	0	66	10008
2026-01-02 21:46:37.07	23.41	4.78	-51.0	-56.7	5.9	4.40e-01	0	48	0	2097152	65	6648
2026-01-02 21:46:40.05	23.72	4.94	-49.9	-53.6	8.9	3.38e-02	0	48	0	11534336	63	5227
2026-01-02 21:46:43.02	24.03	5.09	-48.7	-51.2	11.4	1.07e-03	0	49	0	20971520	60	4724
2026-01-02 21:46:45.99	24.34	5.24	-48.4	-50.7	12.0	4.96e-04	0	49	0	30408704	59	4727
2026-01-02 21:46:48.96	24.65	5.40	-48.0	-50.1	12.6	1.03e-04	0	49	0	39845888	59	4412
2026-01-02 21:46:51.92	24.96	5.55	-47.8	-49.7	13.0	4.27e-05	0	49	0	48234496	58	4475
2026-01-02 21:46:54.90	25.29	5.71	-47.5	-49.2	13.4	1.14e-05	0	49	0	57671680	57	4490
2026-01-02 21:46:57.87	25.61	5.86	-47.5	-49.3	13.4	1.52e-05	0	49	0	67108864	57	4518
2026-01-02 21:47:00.84	25.93	6.02	-47.5	-49.3	13.4	1.37e-05	0	50	0	76546048	57	4541
2026-01-02 21:47:03.80	26.26	6.17	-47.7	-49.5	13.3	1.90e-05	0	50	0	85983232	57	4635
2026-01-02 21:47:06.77	26.60	6.32	-47.7	-49.5	13.2	2.36e-05	0	50	0	95420416	57	4646
2026-01-02 21:47:09.74	26.93	6.48	-47.5	-49.2	13.5	9.90e-06	0	50	0	104857600	57	4473
2026-01-02 21:47:12.70	27.27	6.63	-47.4	-49.2	13.7	7.60e-06	0	50	0	113246208	57	4442
2026-01-02 21:47:15.68	27.61	6.79	-47.4	-49.2	13.6	6.80e-06	0	50	0	122683392	57	4462
2026-01-02 21:47:18.65	27.96	6.95	-47.5	-49.2	13.7	6.80e-06	0	51	0	132120576	57	4473
2026-01-02 21:47:21.61	28.31	7.10	-47.8	-49.6	13.3	1.22e-05	0	51	0	141557760	57	4669
2026-01-02 21:47:24.57	28.66	7.26	-47.4	-49.0	13.9	4.50e-06	0	51	0	150994944	57	4380
2026-01-02 21:47:27.54	29.02	7.41	-47.1	-48.7	14.2	0.00e+00	0	51	0	160432128	57	4229
2026-01-02 21:47:30.51	29.38	7.57	-47.2	-48.8	14.1	1.50e-06	0	51	0	168820736	57	4279
2026-01-02 21:47:33.47	29.74	7.72	-46.8	-48.2	14.7	0.00e+00	0	51	0	178257920	56	4214
2026-01-02 21:47:36.44	30.11	7.88	-46.7	-48.1	14.9	7.00e-07	0	51	0	187695104	56	4151
2026-01-02 21:47:39.40	30.48	8.03	-46.6	-48.0	14.9	7.00e-07	0	51	0	197132288	56	4144
2026-01-02 21:47:42.36	30.86	8.19	-46.7	-48.1	14.8	0.00e+00	0	51	0	206569472	56	4182
2026-01-02 21:47:45.32	31.24	8.34	-46.8	-48.4	14.6	0.00e+00	0	52	0	216006656	56	4300
2026-01-02 21:47:48.29	31.62	8.50	-46.9	-48.3	14.7	0.00e+00	0	52	0	224395264	56	4265
2026-01-02 21:47:51.27	32.01	8.66	-46.8	-48.2	14.8	0.00e+00	0	52	0	233832448	56	4208
2026-01-02 21:47:54.22	32.40	8.81	-46.6	-48.0	15.1	0.00e+00	0	52	0	243269632	56	4104
2026-01-02 21:47:57.20	32.80	8.96	-46.8	-48.2	14.8	0.00e+00	0	52	0	252706816	56	4235
2026-01-02 21:48:00.17	33.20	9.12	-47.1	-48.5	14.5	0.00e+00	0	52	0	262144000	56	4389
2026-01-02 21:48:03.14	33.60	9.27	-47.2	-48.7	14.4	0.00e+00	0	52	0	271581184	56	4470
2026-01-02 21:48:06.11	34.01	9.43	-46.7	-48.1	15.0	0.00e+00	0	52	0	281018368	56	4153
2026-01-02 21:48:09.07	34.42	9.58	-46.6	-48.0	15.1	0.00e+00	0	52	0	289406976	56	4105
2026-01-02 21:48:12.04	34.84	9.73	-46.1	-47.3	15.7	0.00e+00	0	52	0	298844160	55	4043
2026-01-02 21:48:14.99	35.25	9.89	-46.2	-47.5	15.6	0.00e+00	0	52	0	308281344	55	4102
2026-01-02 21:48:17.97	35.68	10.04	-46.5	-47.9	15.1	0.00e+00	0	52	0	317718528	55	4293
2026-01-02 21:48:20.93	36.11	10.19	-46.4	-47.7	15.3	0.00e+00	0	52	0	327155712	55	4224
2026-01-02 21:48:23.90	36.54	10.34	-46.6	-48.0	15.1	0.00e+00	0	53	0	336592896	55	4349
2026-01-02 21:48:26.87	36.98	10.50	-46.2	-47.4	15.7	0.00e+00	0	53	0	344981504	55	4072
2026-01-02 21:48:29.82	37.42	10.65	-45.9	-47.1	16.0	0.00e+00	0	53	0	354418688	54	4168
2026-01-02 21:48:32.78	37.86	10.80	-46.0	-47.2	15.8	0.00e+00	0	53	0	363855872	54	4219
2026-01-02 21:48:35.76	38.32	10.95	-46.2	-47.4	15.6	0.00e+00	0	53	0	373293056	54	4331
2026-01-02 21:48:38.74	38.77	11.10	-46.3	-47.5	15.5	0.00e+00	0	53	0	382730240	54	4388
2026-01-02 21:48:41.70	39.23	11.24	-46.2	-47.5	15.6	0.00e+00	0	53	0	392167424	54	4377
2026-01-02 21:48:44.66	39.69	11.39	-46.1	-47.4	15.7	0.00e+00	0	53	0	400556032	54	4331
2026-01-02 21:48:47.62	40.16	11.54	-45.9	-47.1	16.0	0.00e+00	0	53	0	409993216	54	4174
2026-01-02 21:48:50.58	40.63	11.68	-46.0	-47.3	15.8	0.00e+00	0	53	0	419430400	54	4249
2026-01-02 21:48:53.54	41.11	11.83	-46.2	-47.5	15.6	0.00e+00	0	53	0	428867584	54	4345
2026-01-02 21:48:56.51	41.59	11.97	-46.3	-47.5	15.6	0.00e+00	0	53	0	438304768	54	4380
2026-01-02 21:48:59.49	42.08	12.11	-46.6	-47.9	15.3	0.00e+00	0	54	0	447741952	55	4304
2026-01-02 21:49:02.44	42.57	12.26	-46.6	-47.9	15.2	0.00e+00	0	54	0	456130560	55	4305
2026-01-02 21:49:05.41	43.07	12.40	-46.6	-48.0	15.1	0.00e+00	0	54	0	465567744	55	4381
2026-01-02 21:49:08.38	43.57	12.54	-46.3	-47.6	15.5	0.00e+00	0	54	0	475004928	55	4178
2026-01-02 21:49:11.35	44.07	12.68	-46.3	-47.6	15.6	0.00e+00	0	54	0	484442112	55	4155
2026-01-02 21:49:14.31	44.58	12.81	-46.4	-47.8	15.4	0.00e+00	0	54	0	493879296	55	4254
2026-01-02 21:49:17.28	45.10	12.95	-46.5	-47.7	15.4	0.00e+00	0	54	0	503316480	55	4234
2026-01-02 21:49:20.25	45.62	13.08	-46.3	-47.5	15.7	0.00e+00	0	54	0	512753664	55	4112
2026-01-02 21:49:23.22	46.14	13.22	-46.0	-47.2	15.9	0.00e+00	0	54	0	521142272	55	3989
2026-01-02 21:49:26.20	46.67	13.35	-46.1	-47.4	15.8	0.00e+00	0	54	0	530579456	55	4059
2026-01-02 21:49:29.17	47.20	13.48	-46.3	-47.5	15.7	0.00e+00	0	54	0	540016640	55	4121
2026-01-02 21:49:32.14	47.74	13.61	-46.0	-47.1	16.0	0.00e+00	0	54	0	549453824	55	3954
2026-01-02 21:49:35.12	48.29	13.74	-45.9	-47.1	16.1	0.00e+00	0	54	0	558891008	54	4155
2026-01-02 21:49:38.10	48.84	13.86	-45.9	-47.0	16.2	0.00e+00	0	54	0	568328192	54	4135
2026-01-02 21:49:41.07	49.39	13.99	-46.1	-47.4	15.8	0.00e+00	0	54	0	577765376	54	4301
2026-01-02 21:49:44.03	49.94	14.11	-46.3	-47.5	15.6	0.00e+00	0	54	0	586153984	54	4388
2026-01-02 21:49:47.01	50.50	14.23	-46.2	-47.4	15.7	0.00e+00	0	54	0	595591168	54	4335
2026-01-02 21:49:49.96	51.07	14.35	-45.9	-47.0	16.2	0.00e+00	0	55	0	605028352	54	4133
2026-01-02 21:49:52.93	51.63	14.46	-46.0	-47.2	16.0	0.00e+00	0	55	0	614465536	54	4203
2026-01-02 21:49:55.90	52.21	14.58	-46.3	-47.5	15.7	0.00e+00	0	54	0	623902720	54	4366
2026-01-02 21:49:58.87	52.79	14.69	-46.4	-47.7	15.5	0.00e+00	0	55	0	633339904	54	4455
2026-01-02 21:50:01.83	53.37	14.80	-46.6	-47.9	15.3	0.00e+00	0	54	0	641728512	54	4558
2026-01-02 21:50:04.80	53.95	14.91	-46.6	-47.9	15.3	0.00e+00	0	55	0	651165696	55	4337
2026-01-02 21:50:07.78	54.54	15.01	-46.1	-47.2	16.0	0.00e+00	0	54	0	660602880	55	4000
2026-01-02 21:50:10.74	55.14	15.12	-45.9	-47.0	16.2	0.00e+00	0	55	0	670040064	54	4131
2026-01-02 21:50:13.71	55.74	15.22	-45.7	-46.7	16.5	0.00e+00	0	55	0	679477248	54	3994
2026-01-02 21:50:16.67	56.34	15.31	-45.7	-46.7	16.5	0.00e+00	0	55	0	688914432	54	4004
2026-01-02 21:50:19.64	56.94	15.41	-45.5	-46.5	16.6	0.00e+00	0	55	0	698351616	54	3909
2026-01-02 21:50:22.61	57.55	15.50	-45.6	-46.7	16.5	0.00e+00	0	55	0	706740224	54	3961
2026-01-02 21:50:25.57	58.16	15.59	-45.8	-46.9	16.3	0.00e+00	0	55	0	716177408	54	4065
2026-01-02 21:50:28.56	58.78	15.68	-45.7	-46.8	16.5	0.00e+00	0	55	0	725614592	54	4012
2026-01-02 21:50:31.51	59.40	15.76	-45.4	-46.5	16.8	0.00e+00	0	55	0	735051776	54	3877
2026-01-02 21:50:34.48	60.02	15.84	-45.3	-46.3	16.9	0.00e+00	0	55	0	744488960	53	4022
2026-01-02 21:50:37.45	60.65	15.92	-45.3	-46.3	16.9	0.00e+00	0	55	0	753926144	53	4040
2026-01-02 21:50:40.41	61.28	16.00	-45.7	-46.8	16.4	0.00e+00	0	55	0	762314752	53	4280
2026-01-02 21:50:43.38	61.91	16.07	-45.3	-46.4	16.8	0.00e+00	0	55	0	771751936	53	4055
2026-01-02 21:50:46.35	62.55	16.14	-45.6	-46.6	16.6	0.00e+00	0	55	0	781189120	53	4178
2026-01-02 21:50:49.32	63.19	16.21	-45.7	-46.8	16.4	0.00e+00	0	55	0	790626304	53	4253
2026-01-02 21:50:52.29	63.83	16.27	-45.2	-46.2	17.0	0.00e+00	0	55	0	800063488	53	3987
2026-01-02 21:50:55.26	64.47	16.33	-45.5	-46.6	16.6	0.00e+00	0	55	0	809500672	53	4148
2026-01-02 21:50:58.23	65.12	16.39	-45.7	-46.7	16.5	0.00e+00	0	55	0	817889280	53	4231
2026-01-02 21:51:01.19	65.77	16.44	-45.8	-47.0	16.3	0.00e+00	0	55	0	827326464	53	4348
2026-01-02 21:51:04.16	66.42	16.49	-45.5	-46.5	16.7	0.00e+00	0	55	0	836763648	53	4142
2026-01-02 21:51:07.13	67.07	16.54	-45.6	-46.7	16.6	0.00e+00	0	55	0	846200832	53	4215
2026-01-02 21:51:10.09	67.73	16.58	-45.6	-46.7	16.5	0.00e+00	0	55	0	855638016	53	4210
2026-01-02 21:51:13.06	68.38	16.62	-45.6	-46.7	16.5	0.00e+00	0	55	0	865075200	53	4221
2026-01-02 21:51:16.03	69.04	16.66	-46.0	-47.2	16.0	0.00e+00	0	55	0	874512384	53	4476
2026-01-02 21:51:18.99	69.70	16.69	-45.3	-46.3	16.9	0.00e+00	0	55	0	882900992	53	4039
2026-01-02 21:51:21.96	70.36	16.72	-45.4	-46.4	16.9	0.00e+00	0	55	0	892338176	53	4057
2026-01-02 21:51:24.94	71.03	16.74	-45.3	-46.3	16.9	0.00e+00	0	55	0	901775360	53	4043
2026-01-02 21:51:27.89	71.69	16.76	-45.4	-46.4	16.8	0.00e+00	0	56	0	911212544	53	4056
2026-01-02 21:51:30.86	72.35	16.78	-45.4	-46.5	16.8	0.00e+00	0	55	0	920649728	53	4110
2026-01-02 21:51:33.83	73.02	16.80	-45.2	-46.2	17.0	0.00e+00	0	55	0	930086912	53	3965
2026-01-02 21:51:36.80	73.69	16.81	-45.3	-46.4	16.9	0.00e+00	0	56	0	938475520	53	4058
2026-01-02 21:51:39.77	74.35	16.81	-45.4	-46.4	16.8	0.00e+00	0	56	0	947912704	53	4083
2026-01-02 21:51:42.75	75.02	16.82	-45.5	-46.5	16.7	0.00e+00	0	56	0	957349888	53	4140
2026-01-02 21:51:45.72	75.69	16.82	-45.7	-46.8	16.5	0.00e+00	0	56	0	966787072	53	4255
2026-01-02 21:51:48.68	76.35	16.81	-45.8	-46.9	16.3	0.00e+00	0	56	0	976224256	53	4312
2026-01-02 21:51:51.65	77.02	16.81	-46.0	-47.2	16.1	0.00e+00	0	56	0	985661440	54	4207
2026-01-02 21:51:54.63	77.69	16.79	-46.2	-47.4	15.9	0.00e+00	0	56	0	995098624	54	4301
2026-01-02 21:51:57.60	78.35	16.78	-45.7	-46.8	16.5	0.00e+00	0	56	0	1003487232	54	4012
2026-01-02 21:52:00.58	79.02	16.76	-45.5	-46.6	16.7	0.00e+00	0	56	0	1012924416	54	3924
2026-01-02 21:52:03.55	79.69	16.74	-45.5	-46.6	16.7	0.00e+00	0	56	0	1022361600	54	3915
2026-01-02 21:52:06.52	80.35	16.71	-45.2	-46.1	17.1	0.00e+00	0	56	0	1031798784	53	3953
2026-01-02 21:52:09.49	81.01	16.68	-45.6	-46.7	16.6	0.00e+00	0	56	0	1041235968	53	4207
2026-01-02 21:52:12.44	81.67	16.65	-45.7	-46.8	16.4	0.00e+00	0	56	0	1050673152	53	4284
2026-01-02 21:52:15.40	82.32	16.61	-45.8	-47.0	16.3	0.00e+00	0	56	0	1060110336	53	4345
2026-01-02 21:52:18.36	82.98	16.57	-45.4	-46.4	16.8	0.00e+00	0	56	0	1068498944	53	4059
2026-01-02 21:52:21.33	83.64	16.53	-45.2	-46.2	17.0	0.00e+00	0	56	0	1077936128	53	3971
2026-01-02 21:52:24.29	84.29	16.48	-45.5	-46.6	16.7	0.00e+00	0	56	0	1087373312	53	4164
2026-01-02 21:52:27.27	84.94	16.43	-45.7	-46.8	16.4	0.00e+00	0	56	0	1096810496	53	4283
2026-01-02 21:52:30.22	85.59	16.38	-46.1	-47.2	16.1	0.00e+00	0	56	0	1106247680	54	4229
2026-01-02 21:52:33.19	86.24	16.32	-46.1	-47.3	16.0	0.00e+00	0	56	0	1115684864	54	4258
2026-01-02 21:52:36.17	86.88	16.26	-46.1	-47.3	16.0	0.00e+00	0	56	0	1124073472	54	4272
2026-01-02 21:52:39.15	87.53	16.20	-46.2	-47.5	15.8	0.00e+00	0	56	0	1133510656	54	4358
2026-01-02 21:52:42.13	88.17	16.13	-46.5	-47.8	15.5	0.00e+00	0	56	0	1142947840	54	4524
2026-01-02 21:52:45.09	88.81	16.06	-46.0	-47.1	16.1	0.00e+00	0	56	0	1152385024	54	4174
2026-01-02 21:52:48.07	89.44	15.99	-46.1	-47.2	16.1	0.00e+00	0	56	0	1161822208	54	4209
2026-01-02 21:52:51.05	90.07	15.91	-45.8	-46.9	16.4	0.00e+00	0	56	0	1171259392	54	4078
2026-01-02 21:52:54.02	90.70	15.83	-45.1	-46.1	17.1	0.00e+00	0	56	0	1180696576	53	3938
2026-01-02 21:52:56.99	91.33	15.75	-45.4	-46.4	16.9	0.00e+00	0	56	0	1189085184	53	4058
2026-01-02 21:52:59.97	91.95	15.66	-45.4	-46.4	16.8	0.00e+00	0	56	0	1198522368	53	4075
2026-01-02 21:53:02.94	92.57	15.57	-45.5	-46.5	16.7	0.00e+00	0	56	0	1207959552	53	4119
2026-01-02 21:53:05.91	93.18	15.48	-45.6	-46.6	16.6	0.00e+00	0	56	0	1217396736	53	4172
2026-01-02 21:53:08.88	93.79	15.39	-45.3	-46.3	16.9	0.00e+00	0	56	0	1226833920	53	4042
2026-01-02 21:53:11.85	94.40	15.29	-45.7	-46.7	16.5	0.00e+00	0	56	0	1236271104	53	4231
2026-01-02 21:53:14.81	95.00	15.19	-45.2	-46.2	17.0	0.00e+00	0	56	0	1245708288	53	4001
2026-01-02 21:53:17.77	95.60	15.09	-45.4	-46.3	16.8	0.00e+00	0	56	0	1254096896	53	4050
2026-01-02 21:53:20.74	96.19	14.99	-45.3	-46.3	16.9	0.00e+00	0	56	0	1263534080	53	4051
2026-01-02 21:53:23.71	96.79	14.88	-45.3	-46.3	16.9	0.00e+00	0	56	0	1272971264	53	4026
2026-01-02 21:53:26.67	97.37	14.78	-45.4	-46.4	16.8	0.00e+00	0	56	0	1282408448	53	4088
2026-01-02 21:53:29.64	97.95	14.66	-45.6	-46.7	16.6	0.00e+00	0	56	0	1291845632	53	4194
2026-01-02 21:53:32.60	98.53	14.55	-45.7	-46.8	16.5	0.00e+00	0	56	0	1301282816	53	4243
2026-01-02 21:53:35.56	99.10	14.44	-45.7	-46.8	16.4	0.00e+00	0	56	0	1309671424	53	4262
2026-01-02 21:53:38.53	99.67	14.32	-45.4	-46.4	16.8	0.00e+00	0	56	0	1319108608	53	4073
2026-01-02 21:53:41.49	100.24	14.20	-45.6	-46.7	16.5	0.00e+00	0	56	0	1328545792	53	4197
2026-01-02 21:53:44.47	100.80	14.08	-46.0	-47.1	16.0	0.00e+00	0	56	0	1337982976	53	4431
2026-01-02 21:53:47.44	101.36	13.96	-45.9	-47.0	16.2	0.00e+00	0	56	0	1347420160	54	4123
2026-01-02 21:53:50.42	101.91	13.83	-46.0	-47.2	16.1	0.00e+00	0	56	0	1356857344	54	4197
2026-01-02 21:53:53.39	102.46	13.70	-45.6	-46.7	16.5	0.00e+00	0	56	0	1366294528	54	3970
2026-01-02 21:53:56.36	103.00	13.58	-45.9	-47.0	16.2	0.00e+00	0	56	0	1374683136	54	4127
2026-01-02 21:53:59.33	103.54	13.45	-46.1	-47.3	16.0	0.00e+00	0	56	0	1384120320	54	4245
2026-01-02 21:54:02.30	104.08	13.31	-45.9	-47.1	16.2	0.00e+00	0	56	0	1393557504	54	4152
2026-01-02 21:54:05.27	104.61	13.18	-46.0	-47.1	16.0	0.00e+00	0	56	0	1402994688	54	4184
2026-01-02 21:54:08.25	105.13	13.05	-46.2	-47.3	15.9	0.00e+00	0	56	0	1412431872	54	4288
2026-01-02 21:54:11.22	105.65	12.91	-45.8	-46.9	16.2	0.00e+00	0	56	0	1421869056	54	4077
2026-01-02 21:54:14.18	106.17	12.77	-45.9	-47.0	16.2	0.00e+00	0	56	0	1430257664	54	4136
2026-01-02 21:54:17.13	106.68	12.63	-46.0	-47.1	16.1	0.00e+00	0	56	0	1439694848	54	4177
2026-01-02 21:54:20.11	107.18	12.49	-46.1	-47.3	15.9	0.00e+00	0	56	0	1449132032	54	4248
2026-01-02 21:54:23.07	107.68	12.35	-46.2	-47.5	15.7	0.00e+00	0	56	0	1458569216	54	4347
2026-01-02 21:54:26.04	108.18	12.21	-46.0	-47.2	16.0	0.00e+00	0	56	0	1468006400	54	4195
2026-01-02 21:54:29.01	108.67	12.07	-46.1	-47.3	15.9	0.00e+00	0	56	0	1477443584	54	4259
2026-01-02 21:54:31.98	109.16	11.92	-46.1	-47.3	16.0	0.00e+00	0	56	0	1485832192	54	4257
2026-01-02 21:54:34.94	109.64	11.78	-46.2	-47.5	15.8	0.00e+00	0	56	0	1495269376	54	4342
2026-01-02 21:54:37.91	110.12	11.63	-46.4	-47.7	15.5	0.00e+00	0	56	0	1504706560	54	4458
2026-01-02 21:54:40.88	110.60	11.49	-46.4	-47.7	15.5	0.00e+00	0	56	0	1514143744	54	4450
2026-01-02 21:54:43.85	111.07	11.34	-46.4	-47.6	15.6	0.00e+00	0	56	0	1523580928	54	4409
2026-01-02 21:54:46.81	111.53	11.19	-46.3	-47.5	15.6	0.00e+00	0	56	0	1533018112	54	4381
2026-01-02 21:54:49.77	111.99	11.04	-46.4	-47.7	15.5	0.00e+00	0	56	0	1542455296	54	4452
2026-01-02 21:54:52.74	112.44	10.89	-46.3	-47.5	15.6	0.00e+00	0	56	0	1550843904	54	4381
2026-01-02 21:54:55.71	112.90	10.74	-46.3	-47.5	15.6	0.00e+00	0	56	0	1560281088	54	4388
2026-01-02 21:54:58.66	113.34	10.59	-46.6	-47.9	15.3	0.00e+00	0	56	0	1569718272	54	4560
2026-01-02 21:55:01.63	113.78	10.44	-46.2	-47.4	15.7	0.00e+00	0	57	0	1579155456	55	4097
2026-01-02 21:55:04.60	114.22	10.28	-46.5	-47.8	15.4	0.00e+00	0	56	0	1588592640	55	4248
2026-01-02 21:55:07.57	114.66	10.13	-46.3	-47.5	15.6	0.00e+00	0	56	0	1598029824	55	4132
2026-01-02 21:55:10.54	115.09	9.98	-46.5	-47.9	15.3	0.00e+00	0	57	0	1607467008	55	4297
2026-01-02 21:55:13.51	115.51	9.82	-46.3	-47.6	15.5	0.00e+00	0	57	0	1615855616	55	4154
2026-01-02 21:55:16.49	115.93	9.67	-46.4	-47.7	15.4	0.00e+00	0	56	0	1625292800	55	4240
2026-01-02 21:55:19.46	116.35	9.51	-46.6	-47.9	15.1	0.00e+00	0	56	0	1634729984	55	4339
2026-01-02 21:55:22.43	116.76	9.36	-46.9	-48.3	14.8	0.00e+00	0	57	0	1644167168	55	4521
2026-01-02 21:55:25.39	117.17	9.20	-47.0	-48.5	14.5	0.00e+00	0	57	0	1653604352	55	4639
2026-01-02 21:55:28.35	117.57	9.05	-47.2	-48.7	14.4	7.00e-07	0	57	0	1663041536	56	4484
2026-01-02 21:55:31.33	117.97	8.89	-47.1	-48.6	14.6	0.00e+00	0	56	0	1671430144	56	4398
2026-01-02 21:55:34.29	118.37	8.74	-47.1	-48.5	14.6	0.00e+00	0	57	0	1680867328	56	4384
2026-01-02 21:55:37.25	118.76	8.58	-47.2	-48.8	14.4	7.00e-07	0	56	0	1690304512	56	4503
2026-01-02 21:55:40.22	119.15	8.42	-47.3	-48.9	14.3	7.00e-07	0	57	0	1699741696	56	4547
2026-01-02 21:55:43.19	119.53	8.27	-47.5	-49.1	14.1	7.00e-07	0	57	0	1709178880	56	4672
2026-01-02 21:55:46.16	119.91	8.11	-47.3	-48.8	14.3	1.50e-06	0	57	0	1718616064	56	4522
2026-01-02 21:55:49.14	120.29	7.95	-47.3	-48.9	14.1	1.50e-06	0	57	0	1728053248	56	4592
2026-01-02 21:55:52.10	120.66	7.80	-47.5	-49.1	13.9	3.80e-06	0	57	0	1736441856	56	4698
2026-01-02 21:55:55.07	121.03	7.64	-47.6	-49.2	13.8	3.80e-06	0	57	0	1745879040	57	4493
2026-01-02 21:55:58.04	121.39	7.48	-47.6	-49.2	13.8	5.30e-06	0	57	0	1755316224	57	4492
2026-01-02 21:56:01.01	121.75	7.33	-47.8	-49.6	13.5	1.60e-05	0	57	0	1764753408	57	4658
2026-01-02 21:56:03.98	122.11	7.17	-48.0	-49.9	13.1	1.75e-05	0	57	0	1774190592	57	4855
2026-01-02 21:56:06.94	122.46	7.01	-47.8	-49.6	13.4	1.83e-05	0	57	0	1783627776	58	4410
2026-01-02 21:56:09.92	122.81	6.85	-47.4	-49.0	13.9	7.00e-07	0	57	0	1792016384	57	4372
2026-01-02 21:56:12.90	123.16	6.70	-47.5	-49.2	13.7	6.80e-06	0	57	0	1801453568	57	4474
2026-01-02 21:56:15.86	123.50	6.54	-47.4	-49.0	13.9	3.80e-06	0	57	0	1810890752	57	4384
2026-01-02 21:56:18.83	123.84	6.39	-47.5	-49.2	13.7	4.50e-06	0	57	0	1820327936	57	4485
2026-01-02 21:56:21.81	124.18	6.23	-47.7	-49.4	13.5	9.90e-06	0	57	0	1829765120	57	4586
2026-01-02 21:56:24.79	124.51	6.07	-47.8	-49.6	13.3	1.90e-05	0	57	0	1839202304	57	4696
2026-01-02 21:56:27.75	124.84	5.92	-47.5	-49.3	13.6	1.83e-05	0	57	0	1848639488	57	4532
2026-01-02 21:56:30.71	125.16	5.76	-47.8	-49.6	13.3	1.98e-05	0	57	0	1857028096	57	4692
2026-01-02 21:56:33.67	125.48	5.61	-48.2	-50.2	12.7	7.17e-05	0	57	0	1866465280	58	4715
2026-01-02 21:56:36.64	125.80	5.45	-47.9	-49.8	13.1	3.05e-05	0	57	0	1875902464	58	4503
2026-01-02 21:56:39.61	126.12	5.29	-47.8	-49.8	13.1	2.97e-05	0	57	0	1885339648	58	4502
2026-01-02 21:56:42.59	126.43	5.14	-47.9	-49.9	12.9	4.95e-05	0	57	0	1894776832	58	4546
2026-01-02 21:56:45.56	126.74	4.98	-52.4	-63.8	3.8	9.24e-01	0	57	104	1902116864	66	14281
2026-01-02 21:56:48.52	127.05	4.83	-52.9	-64.4	3.8	1.49e+00	0	57	104	1902116864	67	14444
2026-01-02 21:56:51.50	127.35	4.67	-53.2	-64.7	3.8	1.49e+00	0	57	104	1902116864	68	14052
2026-01-02 21:56:54.47	127.65	4.52	-53.2	-64.7	3.8	1.49e+00	0	57	104	1902116864	68	14196
2026-01-02 21:56:57.44	127.95	4.37	-53.2	-64.8	3.8	1.49e+00	0	57	104	1902116864	68	14304
2026-01-02 21:57:00.41	128.24	4.21	-53.3	-64.9	3.8	1.49e+00	0	57	104	1902116864	68	14382
2026-01-02 21:57:03.37	128.53	4.06	-53.2	-64.9	3.8	1.49e+00	0	57	104	1902116864	68	14433
2026-01-02 21:57:06.34	128.82	3.91	-53.3	-64.9	3.8	1.49e+00	0	57	104	1902116864	68	14507
2026-01-02 21:57:09.31	129.11	3.75	-53.4	-64.9	3.8	1.49e+00	0	57	104	1902116864	68	14535
2026-01-02 21:57:12.28	129.39	3.60	-53.4	-64.9	3.8	1.49e+00	0	57	104	1902116864	68	14536
2026-01-02 21:57:15.25	129.67	3.45	-53.4	-65.0	3.8	1.49e+00	0	57	104	1902116864	68	14561
2026-01-02 21:57:18.22	129.95	3.30	-53.3	-64.9	3.8	1.49e+00	0	57	104	1902116864	68	14503
2026-01-02 21:57:21.20	130.22	3.14	-53.4	-64.9	3.8	1.49e+00	0	57	104	1902116864	68	14506
2026-01-02 21:57:24.17	130.49	2.99	-53.4	-64.9	3.8	1.49e+00	0	57	104	1902116864	68	14509

#Closed at: 2026-01-02 21:57:24
#Recorded file [1902 MB]: D:/Data/31026_260103_005645.dat