passes_logs/2026/01/02/R3.0SM8_Murmansk_STILSPACE/R3.0SM8_Murmansk_STILSPACE__20260102_111338_FENGYUN_3D_rec.log

#Pass ID: 20260102_111338_FENGYUN 3D
#Satellite: FENGYUN 3D
#Configuration: FENGYUN 3D
#almurnet v.1.7.20240730
#Start time: 2026-01-02 11:13:40

#Version: 2.2.20231116
#Station: R3.0SM8_Murmansk_STILSPACE
#Location: 33.092731 lon 68.902999 lat
#TLE: 1 43010U 17072A   26001.33100487  .00000602  00000+0  30664-3 0  9999
#TLE: 2 43010  98.9910 332.9374 0001848 133.1047 227.0283 14.19692078421319

#Time	Az	El	Level	Level2	SNR	BER	BlckErr	Temp	State	Recorded	gain1	gain2
2026-01-02 11:13:40.36	144.02	3.12	-52.5	-63.3	3.8	8.46e-01	0	47	0	0	67	12667
2026-01-02 11:13:44.33	143.99	3.39	-51.9	-62.8	3.8	8.46e-01	0	47	104	0	66	12700
2026-01-02 11:13:48.30	143.97	3.66	-51.7	-62.2	3.8	8.46e-01	0	47	104	0	66	11857
2026-01-02 11:13:52.27	143.95	3.93	-51.6	-61.1	3.8	8.46e-01	0	47	104	0	66	10434
2026-01-02 11:13:56.24	143.93	4.20	-51.3	-59.3	4.1	8.40e-01	0	48	0	0	65	8976
2026-01-02 11:14:00.21	143.90	4.48	-51.0	-57.6	4.7	8.11e-01	0	48	0	0	64	7812
2026-01-02 11:14:04.17	143.88	4.76	-50.5	-55.8	5.7	5.77e-01	0	48	0	1048576	64	6392
2026-01-02 11:14:08.11	143.85	5.04	-49.4	-52.9	8.3	8.14e-02	0	48	0	23068672	62	5147
2026-01-02 11:14:12.06	143.83	5.33	-49.1	-52.3	9.0	3.80e-02	0	49	0	45088768	61	5058
2026-01-02 11:14:16.02	143.80	5.62	-47.8	-50.1	11.4	1.50e-03	0	49	0	67108864	58	4657
2026-01-02 11:14:19.97	143.77	5.91	-47.6	-49.8	11.6	8.47e-04	0	49	0	90177536	58	4541
2026-01-02 11:14:23.92	143.74	6.20	-45.8	-47.4	14.0	4.50e-06	0	50	0	112197632	54	4301
2026-01-02 11:14:27.87	143.71	6.50	-44.7	-45.9	15.5	0.00e+00	0	50	0	134217728	52	4085
2026-01-02 11:14:31.81	143.68	6.80	-44.8	-46.0	15.5	0.00e+00	0	50	0	156237824	52	4127
2026-01-02 11:14:35.75	143.65	7.10	-44.4	-45.5	16.0	0.00e+00	0	50	0	178257920	52	3902
2026-01-02 11:14:39.72	143.62	7.41	-44.5	-45.7	15.9	0.00e+00	0	51	0	201326592	51	4210
2026-01-02 11:14:43.69	143.59	7.73	-44.8	-46.0	15.7	0.00e+00	0	51	0	223346688	51	4341
2026-01-02 11:14:47.64	143.56	8.04	-44.9	-46.1	15.6	0.00e+00	0	51	0	245366784	51	4410
2026-01-02 11:14:51.58	143.52	8.36	-44.6	-45.8	15.9	0.00e+00	0	51	0	267386880	51	4253
2026-01-02 11:14:55.56	143.48	8.69	-44.3	-45.4	16.3	0.00e+00	0	51	0	290455552	51	4095
2026-01-02 11:14:59.53	143.45	9.02	-44.0	-45.0	16.8	0.00e+00	0	51	0	312475648	51	3891
2026-01-02 11:15:03.50	143.41	9.35	-43.7	-44.7	17.1	0.00e+00	0	51	0	334495744	50	3964
2026-01-02 11:15:07.46	143.37	9.69	-43.8	-44.9	16.9	0.00e+00	0	52	0	356515840	50	4056
2026-01-02 11:15:11.43	143.33	10.03	-43.8	-44.8	17.0	0.00e+00	0	52	0	379584512	50	4024
2026-01-02 11:15:15.40	143.29	10.38	-44.1	-45.1	16.8	0.00e+00	0	52	0	401604608	50	4154
2026-01-02 11:15:19.38	143.24	10.74	-44.1	-45.1	16.7	0.00e+00	0	52	0	423624704	50	4176
2026-01-02 11:15:23.34	143.20	11.09	-44.5	-45.6	16.3	0.00e+00	0	52	0	446693376	50	4419
2026-01-02 11:15:27.29	143.15	11.46	-44.9	-46.0	15.9	0.00e+00	0	52	0	468713472	51	4381
2026-01-02 11:15:31.24	143.10	11.82	-44.4	-45.5	16.4	0.00e+00	0	53	0	490733568	51	4111
2026-01-02 11:15:35.20	143.05	12.20	-43.6	-44.5	17.4	0.00e+00	0	53	0	512753664	50	3896
2026-01-02 11:15:39.16	143.00	12.58	-43.5	-44.5	17.5	0.00e+00	0	53	0	535822336	50	3876
2026-01-02 11:15:43.12	142.95	12.96	-43.5	-44.4	17.5	0.00e+00	0	53	0	557842432	49	4077
2026-01-02 11:15:47.10	142.90	13.36	-43.4	-44.3	17.6	0.00e+00	0	53	0	579862528	49	4022
2026-01-02 11:15:51.05	142.84	13.75	-43.4	-44.3	17.6	0.00e+00	0	53	0	601882624	49	4032
2026-01-02 11:15:55.01	142.78	14.16	-43.4	-44.3	17.6	0.00e+00	0	53	0	624951296	49	4020
2026-01-02 11:15:58.95	142.72	14.57	-43.8	-44.7	17.3	0.00e+00	0	53	0	645922816	49	4227
2026-01-02 11:16:02.91	142.66	14.99	-42.8	-43.7	18.3	0.00e+00	0	53	0	668991488	48	3975
2026-01-02 11:16:06.85	142.59	15.41	-42.5	-43.4	18.6	0.00e+00	0	54	0	691011584	48	3825
2026-01-02 11:16:10.81	142.53	15.84	-42.2	-43.0	18.8	0.00e+00	0	54	0	713031680	47	3871
2026-01-02 11:16:14.76	142.46	16.28	-42.1	-42.9	18.9	0.00e+00	0	54	0	736100352	47	3838
2026-01-02 11:16:18.73	142.39	16.73	-42.3	-43.1	18.7	0.00e+00	0	54	0	758120448	47	3955
2026-01-02 11:16:22.68	142.31	17.19	-42.2	-43.0	18.8	0.00e+00	0	54	0	780140544	47	3903
2026-01-02 11:16:26.63	142.24	17.65	-42.0	-42.8	19.0	0.00e+00	0	54	0	802160640	47	3787
2026-01-02 11:16:30.58	142.16	18.13	-41.5	-42.2	19.6	0.00e+00	0	54	0	824180736	46	3767
2026-01-02 11:16:34.54	142.07	18.61	-41.7	-42.4	19.4	0.00e+00	0	54	0	846200832	46	3864
2026-01-02 11:16:38.51	141.99	19.11	-41.5	-42.2	19.6	0.00e+00	0	54	0	869269504	46	3764
2026-01-02 11:16:42.45	141.90	19.61	-41.4	-42.1	19.7	0.00e+00	0	55	0	891289600	46	3723
2026-01-02 11:16:46.41	141.81	20.12	-41.3	-42.0	19.8	0.00e+00	0	55	0	913309696	45	3885
2026-01-02 11:16:50.37	141.71	20.65	-41.2	-41.9	19.9	0.00e+00	0	54	0	935329792	45	3861
2026-01-02 11:16:54.34	141.61	21.19	-41.6	-42.3	19.5	0.00e+00	0	55	0	958398464	45	4039
2026-01-02 11:16:58.30	141.51	21.73	-40.9	-41.6	20.2	0.00e+00	0	55	0	980418560	45	3709
2026-01-02 11:17:02.26	141.40	22.29	-40.7	-41.4	20.4	0.00e+00	0	55	0	1002438656	44	3829
2026-01-02 11:17:06.19	141.29	22.86	-40.4	-41.1	20.7	0.00e+00	0	55	0	1024458752	44	3711
2026-01-02 11:17:10.14	141.17	23.44	-40.5	-41.2	20.6	0.00e+00	0	55	0	1046478848	44	3757
2026-01-02 11:17:14.10	141.05	24.04	-41.0	-41.6	20.2	0.00e+00	0	55	0	1069547520	44	3950
2026-01-02 11:17:18.07	140.92	24.66	-40.9	-41.6	20.2	0.00e+00	0	55	0	1091567616	44	3944
2026-01-02 11:17:22.04	140.78	25.28	-41.1	-41.7	20.1	0.00e+00	0	55	0	1113587712	44	3997
2026-01-02 11:17:26.00	140.64	25.93	-40.5	-41.1	20.7	0.00e+00	0	55	0	1135607808	44	3732
2026-01-02 11:17:29.97	140.50	26.58	-40.3	-41.0	20.8	0.00e+00	0	55	0	1158676480	43	3885
2026-01-02 11:17:33.92	140.35	27.26	-40.4	-41.1	20.7	0.00e+00	0	56	0	1180696576	43	3917
2026-01-02 11:17:37.88	140.19	27.95	-40.5	-41.1	20.6	0.00e+00	0	56	0	1202716672	43	3948
2026-01-02 11:17:41.83	140.02	28.65	-40.4	-41.0	20.7	0.00e+00	0	55	0	1224736768	43	3900
2026-01-02 11:17:45.78	139.84	29.37	-40.2	-40.8	20.9	0.00e+00	0	56	0	1247805440	43	3801
2026-01-02 11:17:49.75	139.66	30.12	-40.6	-41.3	20.4	0.00e+00	0	56	0	1269825536	43	4030
2026-01-02 11:17:53.72	139.46	30.89	-39.9	-40.6	21.1	0.00e+00	0	56	0	1291845632	43	3701
2026-01-02 11:17:57.69	139.26	31.67	-40.2	-40.8	20.9	0.00e+00	0	56	0	1314914304	42	4021
2026-01-02 11:18:01.66	139.04	32.48	-39.4	-40.0	21.6	0.00e+00	0	56	0	1336934400	42	3677
2026-01-02 11:18:05.61	138.81	33.30	-39.7	-40.3	21.4	0.00e+00	0	56	0	1358954496	42	3805
2026-01-02 11:18:09.57	138.57	34.15	-39.5	-40.1	21.6	0.00e+00	0	56	0	1380974592	42	3703
2026-01-02 11:18:13.53	138.32	35.02	-39.1	-39.6	22.0	0.00e+00	0	56	0	1404043264	41	3727
2026-01-02 11:18:17.48	138.05	35.91	-39.4	-40.0	21.9	0.00e+00	0	56	0	1426063360	41	3885
2026-01-02 11:18:21.44	137.77	36.84	-39.6	-40.1	21.8	0.00e+00	0	56	0	1448083456	41	3955
2026-01-02 11:18:25.40	137.46	37.78	-40.0	-40.6	21.4	0.00e+00	0	56	0	1470103552	42	3916
2026-01-02 11:18:29.36	137.14	38.75	-40.1	-40.6	21.4	0.00e+00	0	56	0	1492123648	42	3952
2026-01-02 11:18:33.30	136.80	39.75	-39.9	-40.4	21.6	0.00e+00	0	56	0	1515192320	42	3850
2026-01-02 11:18:37.26	136.44	40.78	-40.1	-40.7	21.3	0.00e+00	0	56	0	1537212416	42	3961
2026-01-02 11:18:41.21	136.05	41.83	-40.6	-41.2	20.8	0.00e+00	0	56	0	1559232512	43	3978
2026-01-02 11:18:45.17	135.63	42.92	-40.6	-41.2	20.9	0.00e+00	0	56	0	1581252608	43	3959
2026-01-02 11:18:49.13	135.18	44.03	-40.1	-40.7	21.3	0.00e+00	0	56	0	1604321280	43	3751
2026-01-02 11:18:53.10	134.69	45.18	-40.4	-41.0	21.1	0.00e+00	0	56	0	1626341376	43	3872
2026-01-02 11:18:57.06	134.17	46.36	-40.3	-40.9	21.1	0.00e+00	0	56	0	1648361472	43	3867
2026-01-02 11:19:01.04	133.61	47.57	-40.0	-40.6	21.4	0.00e+00	0	56	0	1670381568	43	3700
2026-01-02 11:19:05.00	133.00	48.82	-40.7	-41.3	20.7	0.00e+00	0	56	0	1693450240	43	4024
2026-01-02 11:19:08.95	132.34	50.09	-41.1	-41.7	20.5	0.00e+00	0	57	0	1715470336	44	3979
2026-01-02 11:19:12.91	131.61	51.39	-41.2	-41.8	20.3	0.00e+00	0	56	0	1737490432	44	4051
2026-01-02 11:19:16.85	130.83	52.72	-41.2	-41.8	20.4	0.00e+00	0	56	0	1759510528	44	4049
2026-01-02 11:19:20.82	129.96	54.09	-41.2	-41.8	20.4	0.00e+00	0	56	0	1782579200	44	4021
2026-01-02 11:19:24.79	129.00	55.49	-41.1	-41.8	20.5	0.00e+00	0	56	0	1804599296	44	4016
2026-01-02 11:19:28.76	127.93	56.92	-40.6	-41.2	21.0	0.00e+00	0	56	0	1826619392	44	3755
2026-01-02 11:19:32.70	126.76	58.36	-41.3	-41.9	20.3	0.00e+00	0	57	0	1848639488	44	4075
2026-01-02 11:19:36.66	125.44	59.83	-40.6	-41.2	21.0	0.00e+00	0	56	0	1871708160	44	3756
2026-01-02 11:19:40.62	123.96	61.33	-41.1	-41.7	20.4	0.00e+00	0	56	0	1893728256	43	4215
2026-01-02 11:19:44.58	122.29	62.84	-39.8	-40.3	21.7	0.00e+00	0	56	0	1915748352	42	3794
2026-01-02 11:19:48.54	120.40	64.35	-38.9	-39.4	22.5	0.00e+00	0	57	0	1937768448	41	3640
2026-01-02 11:19:52.50	118.23	65.87	-39.7	-40.2	21.8	0.00e+00	0	57	0	1959788544	41	4004
2026-01-02 11:19:56.45	115.74	67.38	-39.9	-40.5	21.6	0.00e+00	0	56	0	1982857216	43	3661
2026-01-02 11:20:00.41	112.86	68.87	-39.7	-40.2	21.9	0.00e+00	0	56	0	2004877312	42	3750
2026-01-02 11:20:04.37	109.51	70.33	-39.2	-39.7	22.3	0.00e+00	0	57	0	2026897408	41	3759
2026-01-02 11:20:08.33	105.59	71.73	-39.7	-40.2	21.8	0.00e+00	0	57	0	2048917504	41	3984
2026-01-02 11:20:12.28	101.01	73.05	-40.3	-40.8	21.3	0.00e+00	0	57	0	2071986176	42	4039
2026-01-02 11:20:16.23	95.64	74.27	-39.7	-40.2	21.8	0.00e+00	0	57	0	2094006272	42	3767
2026-01-02 11:20:20.19	89.38	75.34	-39.7	-40.2	21.8	0.00e+00	0	57	0	2116026368	42	3780
2026-01-02 11:20:24.15	82.19	76.23	-38.6	-39.0	22.9	0.00e+00	0	57	0	2138046464	40	3693
2026-01-02 11:20:28.09	74.16	76.87	-38.0	-38.5	23.5	0.00e+00	0	57	0	2160066560	39	3665
2026-01-02 11:20:32.04	65.44	77.25	-38.4	-38.9	23.0	0.00e+00	0	57	0	2183135232	39	3858
2026-01-02 11:20:36.00	56.38	77.32	-37.7	-38.1	23.8	0.00e+00	0	57	0	2205155328	38	3732
2026-01-02 11:20:39.96	47.43	77.09	-38.4	-38.9	23.1	0.00e+00	0	57	0	2227175424	38	4085
2026-01-02 11:20:43.92	39.01	76.56	-38.3	-38.8	23.2	0.00e+00	0	57	0	2249195520	38	4031
2026-01-02 11:20:47.89	31.38	75.78	-38.4	-38.8	23.2	0.00e+00	0	57	0	2272264192	39	3814
2026-01-02 11:20:51.86	24.68	74.79	-38.3	-38.8	23.2	0.00e+00	0	57	0	2294284288	39	3811
2026-01-02 11:20:55.82	18.90	73.63	-39.0	-39.5	22.6	0.00e+00	0	57	0	2316304384	39	4136
2026-01-02 11:20:59.77	13.98	72.36	-39.8	-40.3	21.7	0.00e+00	0	57	0	2338324480	41	4043
2026-01-02 11:21:03.74	9.75	70.98	-38.7	-39.2	22.7	0.00e+00	0	57	0	2361393152	40	3772
2026-01-02 11:21:07.69	6.16	69.55	-38.7	-39.2	22.8	0.00e+00	0	57	0	2383413248	40	3742
2026-01-02 11:21:11.64	3.08	68.08	-38.8	-39.3	22.6	0.00e+00	0	57	0	2405433344	40	3799
2026-01-02 11:21:15.59	0.43	66.58	-38.7	-39.2	22.7	0.00e+00	0	57	0	2427453440	40	3766
2026-01-02 11:21:19.55	358.12	65.07	-39.3	-39.8	22.1	0.00e+00	0	57	0	2449473536	40	4030
2026-01-02 11:21:23.51	356.11	63.55	-39.8	-40.3	21.7	0.00e+00	0	57	0	2472542208	41	4041
2026-01-02 11:21:27.46	354.34	62.04	-39.4	-39.9	22.1	0.00e+00	0	57	0	2494562304	41	3867
2026-01-02 11:21:31.42	352.78	60.55	-40.4	-40.9	21.2	0.00e+00	0	57	0	2516582400	42	4088
2026-01-02 11:21:35.39	351.39	59.06	-40.6	-41.3	20.8	0.00e+00	0	57	0	2538602496	43	4009
2026-01-02 11:21:39.34	350.15	57.61	-40.5	-41.1	20.9	0.00e+00	0	57	0	2561671168	43	3952
2026-01-02 11:21:43.30	349.04	56.17	-41.8	-42.5	19.7	0.00e+00	0	57	0	2583691264	45	4134
2026-01-02 11:21:47.27	348.04	54.76	-42.0	-42.7	19.6	0.00e+00	0	57	0	2605711360	46	3976
2026-01-02 11:21:51.20	347.14	53.40	-41.8	-42.5	19.7	0.00e+00	0	57	0	2627731456	46	3881
2026-01-02 11:21:55.17	346.31	52.04	-41.5	-42.1	20.1	0.00e+00	0	57	0	2650800128	46	3729
2026-01-02 11:21:59.14	345.55	50.72	-41.5	-42.2	20.1	0.00e+00	0	57	0	2672820224	46	3743
2026-01-02 11:22:03.11	344.86	49.44	-39.8	-40.4	21.6	0.00e+00	0	57	0	2694840320	42	3829
2026-01-02 11:22:07.05	344.23	48.19	-40.1	-40.7	21.3	0.00e+00	0	57	0	2716860416	42	3997
2026-01-02 11:22:11.01	343.65	46.97	-40.0	-40.5	21.5	0.00e+00	0	57	0	2739929088	42	3897
2026-01-02 11:22:14.96	343.11	45.78	-39.9	-40.4	21.6	0.00e+00	0	57	0	2761949184	42	3852
2026-01-02 11:22:18.91	342.61	44.62	-39.7	-40.2	21.8	0.00e+00	0	57	0	2783969280	42	3766
2026-01-02 11:22:22.86	342.15	43.50	-39.7	-40.2	21.7	0.00e+00	0	57	0	2805989376	42	3775
2026-01-02 11:22:26.82	341.72	42.40	-39.9	-40.4	21.6	0.00e+00	0	57	0	2828009472	42	3845
2026-01-02 11:22:30.75	341.32	41.34	-39.5	-40.0	21.9	0.00e+00	0	57	0	2850029568	42	3679
2026-01-02 11:22:34.72	340.94	40.30	-39.7	-40.2	21.8	0.00e+00	0	57	0	2873098240	42	3748
2026-01-02 11:22:38.68	340.59	39.29	-39.5	-40.1	21.9	0.00e+00	0	57	0	2895118336	41	3920
2026-01-02 11:22:42.63	340.26	38.31	-39.8	-40.3	21.6	0.00e+00	0	57	0	2917138432	41	4049
2026-01-02 11:22:46.60	339.95	37.35	-39.3	-39.8	22.0	0.00e+00	0	57	0	2939158528	41	3821
2026-01-02 11:22:50.55	339.66	36.42	-39.1	-39.6	22.2	0.00e+00	0	57	0	2962227200	41	3729
2026-01-02 11:22:54.50	339.38	35.52	-39.5	-40.1	21.8	0.00e+00	0	57	0	2984247296	41	3924
2026-01-02 11:22:58.47	339.12	34.63	-39.9	-40.5	21.4	0.00e+00	0	57	0	3006267392	41	4104
2026-01-02 11:23:02.44	338.88	33.77	-39.8	-40.3	21.6	0.00e+00	0	57	0	3028287488	42	3814
2026-01-02 11:23:06.40	338.65	32.94	-39.9	-40.5	21.4	0.00e+00	0	57	0	3051356160	42	3876
2026-01-02 11:23:10.36	338.42	32.13	-40.2	-40.8	21.1	0.00e+00	0	57	0	3073376256	42	4024
2026-01-02 11:23:14.32	338.22	31.34	-40.6	-41.2	20.7	0.00e+00	0	57	0	3095396352	42	4218
2026-01-02 11:23:18.28	338.02	30.56	-40.0	-40.5	21.4	0.00e+00	0	57	0	3117416448	43	3684
2026-01-02 11:23:22.24	337.83	29.81	-39.9	-40.4	21.5	0.00e+00	0	57	0	3140485120	42	3859
2026-01-02 11:23:26.21	337.65	29.08	-39.9	-40.4	21.4	0.00e+00	0	57	0	3162505216	42	3860
2026-01-02 11:23:30.15	337.48	28.37	-39.9	-40.5	21.4	0.00e+00	0	57	0	3184525312	42	3887
2026-01-02 11:23:34.11	337.32	27.67	-40.3	-40.9	21.0	0.00e+00	0	57	0	3206545408	42	4066
2026-01-02 11:23:38.07	337.16	26.99	-40.6	-41.2	20.7	0.00e+00	0	57	0	3229614080	43	3961
2026-01-02 11:23:42.02	337.02	26.33	-40.8	-41.4	20.5	0.00e+00	0	57	0	3251634176	43	4079
2026-01-02 11:23:45.98	336.87	25.68	-40.5	-41.0	20.9	0.00e+00	0	57	0	3273654272	44	3690
2026-01-02 11:23:49.94	336.74	25.05	-40.5	-41.1	20.8	0.00e+00	0	57	0	3295674368	43	3934
2026-01-02 11:23:53.89	336.61	24.43	-40.8	-41.4	20.5	0.00e+00	0	57	0	3317694464	43	4064
2026-01-02 11:23:57.86	336.49	23.83	-41.2	-41.8	20.2	0.00e+00	0	57	0	3340763136	44	4039
2026-01-02 11:24:01.83	336.37	23.24	-41.5	-42.2	19.8	0.00e+00	0	57	0	3362783232	44	4208
2026-01-02 11:24:05.79	336.25	22.66	-40.6	-41.2	20.6	0.00e+00	0	57	0	3384803328	44	3764
2026-01-02 11:24:09.74	336.14	22.10	-41.4	-42.1	19.6	0.00e+00	0	57	0	3406823424	44	4160
2026-01-02 11:24:13.70	336.04	21.54	-42.7	-43.5	18.0	0.00e+00	0	57	0	3429892096	47	4110
2026-01-02 11:24:17.65	335.94	21.00	-43.3	-44.2	17.4	0.00e+00	0	57	0	3451912192	48	4211
2026-01-02 11:24:21.59	335.84	20.48	-43.3	-44.2	17.4	0.00e+00	0	57	0	3473932288	48	4240
2026-01-02 11:24:25.56	335.75	19.96	-42.0	-42.8	18.7	0.00e+00	0	57	0	3495952384	47	3800
2026-01-02 11:24:29.51	335.66	19.45	-41.1	-41.8	19.8	0.00e+00	0	57	0	3519021056	45	3785
2026-01-02 11:24:33.46	335.58	18.95	-41.3	-42.0	19.8	0.00e+00	0	57	0	3541041152	44	4130
2026-01-02 11:24:37.41	335.49	18.47	-41.7	-42.3	19.5	0.00e+00	0	57	0	3563061248	45	4045
2026-01-02 11:24:41.37	335.41	17.99	-41.9	-42.6	19.2	0.00e+00	0	57	0	3585081344	45	4192
2026-01-02 11:24:45.31	335.34	17.52	-42.2	-42.9	19.0	0.00e+00	0	57	0	3607101440	46	4090
2026-01-02 11:24:49.27	335.27	17.06	-42.7	-43.4	18.5	0.00e+00	0	57	0	3630170112	47	4089
2026-01-02 11:24:53.25	335.19	16.60	-43.6	-44.5	17.6	0.00e+00	0	57	0	3652190208	49	4102
2026-01-02 11:24:57.21	335.13	16.16	-43.0	-43.8	18.3	0.00e+00	0	57	0	3674210304	49	3796
2026-01-02 11:25:01.16	335.06	15.72	-42.7	-43.4	18.6	0.00e+00	0	57	0	3696230400	48	3858
2026-01-02 11:25:05.13	335.00	15.30	-42.7	-43.5	18.6	0.00e+00	0	57	0	3719299072	48	3874
2026-01-02 11:25:09.08	334.93	14.87	-42.7	-43.5	18.5	0.00e+00	0	58	0	3741319168	48	3890
2026-01-02 11:25:13.04	334.88	14.46	-43.1	-43.9	18.1	0.00e+00	0	58	0	3763339264	48	4074
2026-01-02 11:25:16.99	334.82	14.05	-43.3	-44.1	17.9	0.00e+00	0	57	0	3785359360	48	4169
2026-01-02 11:25:20.94	334.76	13.65	-43.1	-43.9	18.1	0.00e+00	0	57	0	3807379456	48	4074
2026-01-02 11:25:24.91	334.71	13.26	-43.4	-44.2	17.7	0.00e+00	0	57	0	3830448128	48	4241
2026-01-02 11:25:28.85	334.66	12.87	-43.4	-44.3	17.6	0.00e+00	0	58	0	3852468224	49	4032
2026-01-02 11:25:32.81	334.61	12.49	-43.8	-44.8	17.2	0.00e+00	0	58	0	3874488320	49	4251
2026-01-02 11:25:36.76	334.56	12.12	-43.3	-44.2	17.8	0.00e+00	0	57	0	3896508416	49	3960
2026-01-02 11:25:40.72	334.52	11.75	-43.4	-44.5	17.4	0.00e+00	0	57	0	3919577088	49	4124
2026-01-02 11:25:44.66	334.47	11.38	-43.3	-44.8	17.0	0.00e+00	0	58	0	3941597184	49	4266
2026-01-02 11:25:48.63	334.43	11.02	-43.8	-45.1	16.7	0.00e+00	0	57	0	3963617280	49	4437
2026-01-02 11:25:52.59	334.39	10.67	-43.7	-44.7	17.1	0.00e+00	0	58	0	3985637376	49	4233
2026-01-02 11:25:56.54	334.35	10.32	-43.9	-44.8	17.0	0.00e+00	0	58	0	4007657472	49	4287
2026-01-02 11:26:00.50	334.31	9.97	-43.9	-44.8	17.0	0.00e+00	0	57	0	4029677568	50	4044
2026-01-02 11:26:04.45	334.27	9.64	-44.0	-45.0	16.8	0.00e+00	0	57	0	4052746240	50	4128
2026-01-02 11:26:08.39	334.23	9.30	-43.9	-44.9	16.9	0.00e+00	0	58	0	4074766336	50	4073
2026-01-02 11:26:12.34	334.20	8.97	-44.3	-45.3	16.4	0.00e+00	0	57	0	4096786432	50	4264
2026-01-02 11:26:16.31	334.16	8.64	-44.6	-45.7	16.0	0.00e+00	0	58	0	4118806528	51	4221
2026-01-02 11:26:20.26	334.13	8.32	-44.6	-45.7	16.1	0.00e+00	0	58	0	4141875200	51	4194
2026-01-02 11:26:24.22	334.10	8.00	-44.4	-45.5	16.2	0.00e+00	0	57	0	4163895296	51	4111
2026-01-02 11:26:28.16	334.07	7.69	-44.4	-45.5	16.2	0.00e+00	0	58	0	4185915392	51	4107
2026-01-02 11:26:32.10	334.04	7.38	-44.5	-45.7	16.0	0.00e+00	0	58	0	4207935488	51	4201
2026-01-02 11:26:36.07	334.01	7.08	-44.7	-45.9	15.8	0.00e+00	0	58	0	4229955584	51	4300
2026-01-02 11:26:40.02	333.98	6.77	-44.7	-45.9	15.7	0.00e+00	0	57	0	4253024256	51	4305
2026-01-02 11:26:43.97	333.95	6.47	-45.2	-46.5	15.0	0.00e+00	0	58	0	4275044352	52	4341
2026-01-02 11:26:47.94	333.93	6.18	-45.4	-46.7	14.7	0.00e+00	0	58	0	4297064448	52	4482
2026-01-02 11:26:51.92	333.90	5.88	-45.1	-46.4	15.0	0.00e+00	0	58	0	4319084544	52	4325
2026-01-02 11:26:55.88	333.88	5.59	-44.8	-46.1	15.3	0.00e+00	0	58	0	4342153216	52	4152
2026-01-02 11:26:59.84	333.85	5.31	-45.0	-46.2	15.1	0.00e+00	0	58	0	4364173312	52	4222
2026-01-02 11:27:03.80	333.83	5.02	-45.4	-46.8	14.5	0.00e+00	0	58	0	4386193408	52	4510
2026-01-02 11:27:07.76	333.81	4.74	-52.2	-63.1	3.8	8.47e-01	0	58	104	4388290560	66	13172
2026-01-02 11:27:11.71	333.79	4.47	-52.6	-63.3	3.8	8.48e-01	0	58	104	4388290560	66	13485
2026-01-02 11:27:15.67	333.77	4.19	-52.7	-63.4	3.8	8.46e-01	0	58	104	4388290560	67	12925
2026-01-02 11:27:19.62	333.75	3.92	-52.7	-63.5	3.8	8.47e-01	0	58	104	4388290560	67	13045
2026-01-02 11:27:23.56	333.73	3.65	-52.8	-63.6	3.8	8.46e-01	0	58	104	4388290560	67	13145
2026-01-02 11:27:27.53	333.71	3.38	-52.8	-63.6	3.8	8.46e-01	0	58	104	4388290560	67	13126
2026-01-02 11:27:31.46	333.69	3.12	-52.9	-63.6	3.8	8.46e-01	0	58	104	4388290560	67	13170

#Closed at: 2026-01-02 11:27:33
#Recorded file [4388 MB]: D:/Data/31026_260102_142704.dat