passes_logs/2026/01/02/R3.0SM8_Murmansk_STILSPACE/R3.0SM8_Murmansk_STILSPACE__20260102_144120_FENGYUN_3E_rec.log

#Pass ID: 20260102_144120_FENGYUN 3E
#Satellite: FENGYUN 3E
#Configuration: FENGYUN 3E
#almurnet v.1.7.20240730
#Start time: 2026-01-02 14:48:34

#Version: 2.2.20231116
#Station: R3.0SM8_Murmansk_STILSPACE
#Location: 33.092731 lon 68.902999 lat
#TLE: 1 49008U 21062A   26001.26445318  .00000475  00000+0  24453-3 0  9990
#TLE: 2 49008  98.7480   6.5551 0001357 167.8415 192.2795 14.19884467232890

#Time	Az	El	Level	Level2	SNR	BER	BlckErr	Temp	State	Recorded	gain1	gain2
2026-01-02 14:48:34.23	270.78	54.92	-52.9	-63.9	3.8	8.46e-01	0	56	0	0	68	12927
2026-01-02 14:48:36.18	272.19	54.72	-53.1	-63.3	3.8	8.47e-01	0	57	104	0	68	11943
2026-01-02 14:48:38.15	273.59	54.51	-53.2	-63.3	3.8	8.45e-01	0	57	104	0	68	11955
2026-01-02 14:48:40.10	274.96	54.28	-53.0	-63.3	3.8	8.46e-01	0	57	104	0	68	11852
2026-01-02 14:48:42.07	276.32	54.04	-52.9	-63.3	3.8	8.45e-01	0	57	104	0	68	11853
2026-01-02 14:48:44.06	277.67	53.78	-53.1	-63.2	3.8	8.46e-01	0	57	104	0	68	11818
2026-01-02 14:48:46.03	278.98	53.51	-53.1	-63.3	3.8	8.48e-01	0	57	104	0	68	11851
2026-01-02 14:48:48.00	280.27	53.22	-53.1	-63.3	3.8	8.46e-01	0	57	104	0	68	11870
2026-01-02 14:48:49.96	281.53	52.93	-53.1	-63.2	3.8	8.45e-01	0	57	104	0	68	11809
2026-01-02 14:48:51.92	282.76	52.62	-53.1	-63.2	3.8	8.47e-01	0	57	104	0	68	11716
2026-01-02 14:48:53.89	283.97	52.30	-53.0	-63.2	3.8	8.46e-01	0	57	104	0	68	11770
2026-01-02 14:48:55.85	285.15	51.97	-52.9	-63.2	3.8	8.47e-01	0	57	104	0	68	11784
2026-01-02 14:48:57.81	286.30	51.63	-53.0	-63.3	3.8	8.47e-01	0	57	104	0	68	11819
2026-01-02 14:48:59.78	287.43	51.28	-53.1	-63.2	3.8	8.46e-01	0	57	104	0	68	11805
2026-01-02 14:49:01.76	288.54	50.92	-53.0	-63.1	3.8	8.47e-01	0	57	104	0	68	11672
2026-01-02 14:49:03.73	289.62	50.56	-53.0	-63.0	3.8	8.46e-01	0	57	104	0	68	11518
2026-01-02 14:49:05.71	290.68	50.18	-52.9	-63.0	3.8	8.45e-01	0	57	104	0	68	11420
2026-01-02 14:49:07.70	291.72	49.80	-53.0	-63.2	3.8	8.47e-01	0	57	104	0	68	11772
2026-01-02 14:49:09.67	292.72	49.41	-53.0	-63.1	3.8	8.46e-01	0	57	104	0	68	11633
2026-01-02 14:49:11.64	293.70	49.02	-53.0	-62.8	3.8	8.45e-01	0	57	104	0	68	11271
2026-01-02 14:49:13.61	294.65	48.62	-53.0	-63.2	3.8	8.47e-01	0	57	104	0	68	11708
2026-01-02 14:49:15.58	295.58	48.22	-52.8	-62.8	3.8	8.46e-01	0	57	104	0	68	11205
2026-01-02 14:49:17.55	296.49	47.82	-53.0	-63.2	3.8	8.47e-01	0	57	104	0	68	11725
2026-01-02 14:49:19.54	297.38	47.40	-52.8	-62.0	3.8	8.46e-01	0	57	104	0	68	10188
2026-01-02 14:49:21.52	298.24	46.99	-52.9	-63.1	3.8	8.47e-01	0	57	104	0	68	11663
2026-01-02 14:49:23.50	299.08	46.57	-52.7	-61.4	3.8	8.45e-01	0	57	104	0	68	9548
2026-01-02 14:49:25.46	299.89	46.16	-50.0	-52.9	8.9	1.07e-01	0	58	0	3145728	63	4801
2026-01-02 14:49:27.42	300.68	45.74	-43.1	-43.8	18.3	0.00e+00	0	57	0	16777216	49	3755
2026-01-02 14:49:29.38	301.45	45.32	-41.8	-42.4	19.5	0.00e+00	0	57	0	30408704	45	4010
2026-01-02 14:49:31.34	302.20	44.91	-41.5	-42.1	19.9	0.00e+00	0	57	0	45088768	46	3656
2026-01-02 14:49:33.32	302.94	44.48	-40.7	-41.2	20.6	0.00e+00	0	57	0	59768832	44	3706
2026-01-02 14:49:35.29	303.65	44.06	-40.4	-40.8	20.9	0.00e+00	0	57	0	73400320	43	3767
2026-01-02 14:49:37.28	304.36	43.63	-40.1	-40.5	21.2	0.00e+00	0	58	0	88080384	43	3647
2026-01-02 14:49:39.25	305.04	43.21	-40.0	-40.5	21.3	0.00e+00	0	58	0	102760448	42	3827
2026-01-02 14:49:41.24	305.70	42.79	-40.4	-40.9	20.8	0.00e+00	0	58	0	116391936	42	4029
2026-01-02 14:49:43.22	306.35	42.37	-40.6	-41.0	20.7	0.00e+00	0	58	0	131072000	42	4096
2026-01-02 14:49:45.20	306.98	41.94	-41.0	-41.6	20.2	0.00e+00	0	58	0	145752064	43	4106
2026-01-02 14:49:47.18	307.60	41.52	-41.4	-41.9	19.9	0.00e+00	0	58	0	159383552	44	4040
2026-01-02 14:49:49.15	308.19	41.11	-40.7	-41.2	20.6	0.00e+00	0	58	0	174063616	44	3707
2026-01-02 14:49:51.13	308.78	40.69	-40.4	-40.9	20.9	0.00e+00	0	58	0	188743680	43	3791
2026-01-02 14:49:53.10	309.34	40.27	-40.2	-40.7	21.0	0.00e+00	0	58	0	202375168	43	3715
2026-01-02 14:49:55.08	309.90	39.86	-40.3	-40.8	21.0	0.00e+00	0	58	0	217055232	43	3741
2026-01-02 14:49:57.05	310.44	39.45	-40.5	-41.0	20.6	0.00e+00	0	58	0	230686720	43	3865
2026-01-02 14:49:59.03	310.97	39.04	-40.6	-41.1	20.7	0.00e+00	0	58	0	245366784	43	3882
2026-01-02 14:50:01.01	311.48	38.63	-40.6	-41.1	20.6	0.00e+00	0	58	0	258998272	43	3890
2026-01-02 14:50:02.99	311.99	38.23	-40.3	-40.8	20.9	0.00e+00	0	58	0	273678336	43	3756
2026-01-02 14:50:04.97	312.48	37.83	-40.3	-40.7	20.9	0.00e+00	0	58	0	284164096	43	3728
2026-01-02 14:50:06.96	312.96	37.42	-40.3	-40.7	20.9	0.00e+00	0	58	0	301989888	43	3724
2026-01-02 14:50:08.94	313.43	37.03	-40.4	-40.8	20.9	0.00e+00	0	58	0	316669952	43	3767
2026-01-02 14:50:10.92	313.88	36.63	-40.5	-41.0	20.8	0.00e+00	0	58	0	331350016	43	3834
2026-01-02 14:50:12.90	314.33	36.24	-40.7	-41.2	20.5	0.00e+00	0	58	0	344981504	43	3939
2026-01-02 14:50:14.88	314.77	35.85	-40.4	-40.9	20.8	0.00e+00	0	58	0	359661568	43	3808
2026-01-02 14:50:16.86	315.19	35.47	-40.7	-41.2	20.5	0.00e+00	0	58	0	373293056	43	3936
2026-01-02 14:50:18.84	315.61	35.08	-40.7	-41.2	20.5	0.00e+00	0	58	0	387973120	43	3944
2026-01-02 14:50:20.81	316.01	34.70	-40.3	-40.7	21.0	0.00e+00	0	58	0	402653184	43	3730
2026-01-02 14:50:22.79	316.41	34.33	-40.1	-40.6	21.0	0.00e+00	0	58	0	416284672	43	3672
2026-01-02 14:50:24.78	316.80	33.95	-40.0	-40.5	21.2	0.00e+00	0	58	0	430964736	42	3836
2026-01-02 14:50:26.76	317.18	33.58	-39.4	-39.8	21.7	0.00e+00	0	58	0	445644800	41	3777
2026-01-02 14:50:28.72	317.55	33.22	-39.6	-40.0	21.6	0.00e+00	0	58	0	459276288	41	3843
2026-01-02 14:50:30.69	317.91	32.86	-40.1	-40.6	21.1	0.00e+00	0	58	0	473956352	41	4100
2026-01-02 14:50:32.67	318.27	32.49	-40.4	-40.9	20.8	0.00e+00	0	58	0	487587840	42	4036
2026-01-02 14:50:34.65	318.62	32.14	-40.6	-41.1	20.6	0.00e+00	0	58	0	502267904	42	4124
2026-01-02 14:50:36.63	318.96	31.78	-40.6	-41.1	20.6	0.00e+00	0	58	0	516947968	43	3908
2026-01-02 14:50:38.60	319.29	31.43	-40.5	-41.0	20.7	0.00e+00	0	58	0	530579456	43	3844
2026-01-02 14:50:40.57	319.62	31.09	-40.6	-41.2	20.5	0.00e+00	0	58	0	545259520	43	3915
2026-01-02 14:50:42.53	319.93	30.74	-40.4	-40.9	20.8	0.00e+00	0	58	0	558891008	43	3783
2026-01-02 14:50:44.51	320.25	30.40	-40.3	-40.8	20.8	0.00e+00	0	58	0	573571072	43	3767
2026-01-02 14:50:46.49	320.55	30.06	-40.1	-40.5	21.1	0.00e+00	0	58	0	588251136	43	3651
2026-01-02 14:50:48.46	320.85	29.73	-40.1	-40.6	20.9	0.00e+00	0	58	0	601882624	43	3680
2026-01-02 14:50:50.43	321.15	29.40	-40.1	-40.5	21.1	0.00e+00	0	58	0	616562688	42	3861
2026-01-02 14:50:52.41	321.44	29.07	-40.4	-40.9	20.7	0.00e+00	0	58	0	630194176	42	4027
2026-01-02 14:50:54.39	321.72	28.74	-40.3	-40.7	20.9	0.00e+00	0	58	0	644874240	42	3954
2026-01-02 14:50:56.38	322.00	28.42	-40.5	-41.0	20.6	0.00e+00	0	58	0	659554304	42	4092
2026-01-02 14:50:58.36	322.28	28.10	-40.7	-41.2	20.4	0.00e+00	0	58	0	673185792	43	3956
2026-01-02 14:51:00.34	322.54	27.78	-41.0	-41.5	20.2	0.00e+00	0	58	0	687865856	43	4076
2026-01-02 14:51:02.32	322.81	27.46	-41.0	-41.5	20.2	0.00e+00	0	58	0	701497344	43	4068
2026-01-02 14:51:04.29	323.06	27.15	-41.4	-41.9	19.9	0.00e+00	0	58	0	716177408	44	4033
2026-01-02 14:51:06.27	323.32	26.85	-41.1	-41.6	20.2	0.00e+00	0	58	0	729808896	44	3879
2026-01-02 14:51:08.25	323.56	26.54	-41.1	-41.7	20.1	0.00e+00	0	58	0	744488960	44	3915
2026-01-02 14:51:10.23	323.81	26.24	-41.0	-41.5	20.2	0.00e+00	0	58	0	759169024	44	3860
2026-01-02 14:51:12.21	324.05	25.94	-40.7	-41.1	20.6	0.00e+00	0	58	0	773849088	44	3691
2026-01-02 14:51:14.20	324.28	25.64	-40.7	-41.2	20.5	0.00e+00	0	58	0	787480576	44	3705
2026-01-02 14:51:16.18	324.52	25.35	-40.7	-41.2	20.5	0.00e+00	0	58	0	802160640	44	3718
2026-01-02 14:51:18.15	324.74	25.06	-40.6	-41.1	20.6	0.00e+00	0	58	0	815792128	44	3665
2026-01-02 14:51:20.12	324.96	24.77	-40.7	-41.2	20.5	0.00e+00	0	58	0	830472192	44	3725
2026-01-02 14:51:22.10	325.18	24.48	-40.7	-41.2	20.5	0.00e+00	0	58	0	845152256	44	3716
2026-01-02 14:51:24.08	325.40	24.20	-40.8	-41.2	20.5	0.00e+00	0	58	0	858783744	44	3736
2026-01-02 14:51:26.06	325.61	23.92	-40.8	-41.3	20.4	0.00e+00	0	58	0	873463808	44	3760
2026-01-02 14:51:28.03	325.82	23.64	-40.9	-41.4	20.3	0.00e+00	0	58	0	888143872	44	3812
2026-01-02 14:51:30.01	326.02	23.37	-40.9	-41.4	20.3	0.00e+00	0	58	0	901775360	44	3820
2026-01-02 14:51:32.00	326.22	23.09	-41.0	-41.5	20.1	0.00e+00	0	58	0	916455424	44	3865
2026-01-02 14:51:33.97	326.42	22.83	-41.1	-41.6	20.1	0.00e+00	0	58	0	930086912	44	3894
2026-01-02 14:51:35.94	326.62	22.56	-41.5	-42.1	19.7	0.00e+00	0	58	0	944766976	44	4123
2026-01-02 14:51:37.92	326.81	22.29	-41.7	-42.2	19.5	0.00e+00	0	58	0	958398464	44	4185
2026-01-02 14:51:39.89	326.99	22.03	-41.5	-42.0	19.7	0.00e+00	0	58	0	973078528	45	3864
2026-01-02 14:51:41.87	327.18	21.77	-41.6	-42.1	19.6	0.00e+00	0	58	0	987758592	45	3899
2026-01-02 14:51:43.85	327.36	21.51	-41.6	-42.2	19.5	0.00e+00	0	58	0	1001390080	45	3926
2026-01-02 14:51:45.83	327.54	21.26	-41.5	-42.0	19.7	0.00e+00	0	58	0	1016070144	45	3846
2026-01-02 14:51:47.81	327.72	21.01	-41.6	-42.2	19.5	0.00e+00	0	58	0	1030750208	45	3935
2026-01-02 14:51:49.80	327.90	20.75	-41.3	-41.8	19.8	0.00e+00	0	58	0	1044381696	45	3765
2026-01-02 14:51:51.77	328.07	20.51	-41.2	-41.7	20.0	0.00e+00	0	58	0	1059061760	45	3714
2026-01-02 14:51:53.75	328.24	20.26	-41.4	-41.9	19.8	0.00e+00	0	58	0	1073741824	45	3816
2026-01-02 14:51:55.72	328.40	20.02	-41.6	-42.1	19.6	0.00e+00	0	58	0	1087373312	45	3883
2026-01-02 14:51:57.70	328.56	19.77	-41.7	-42.3	19.4	0.00e+00	0	58	0	1102053376	45	3961
2026-01-02 14:51:59.68	328.73	19.53	-41.7	-42.3	19.4	0.00e+00	0	58	0	1116733440	45	3983
2026-01-02 14:52:01.66	328.89	19.30	-41.5	-42.0	19.6	0.00e+00	0	58	0	1130364928	45	3866
2026-01-02 14:52:03.64	329.04	19.06	-41.5	-42.0	19.6	0.00e+00	0	58	0	1145044992	45	3854
2026-01-02 14:52:05.63	329.20	18.83	-41.7	-42.2	19.4	0.00e+00	0	58	0	1158676480	45	3952
2026-01-02 14:52:07.61	329.35	18.59	-41.7	-42.3	19.4	0.00e+00	0	58	0	1173356544	45	3978
2026-01-02 14:52:09.59	329.50	18.36	-41.7	-42.3	19.4	0.00e+00	0	58	0	1188036608	45	3983
2026-01-02 14:52:11.56	329.65	18.14	-41.9	-42.5	19.2	0.00e+00	0	58	0	1201668096	45	4070
2026-01-02 14:52:13.54	329.79	17.91	-42.0	-42.6	19.1	0.00e+00	0	58	0	1216348160	45	4129
2026-01-02 14:52:15.52	329.94	17.69	-41.9	-42.4	19.2	0.00e+00	0	58	0	1229979648	45	4041
2026-01-02 14:52:17.49	330.08	17.47	-42.1	-42.7	18.9	0.00e+00	0	58	0	1244659712	46	3957
2026-01-02 14:52:19.48	330.22	17.24	-42.0	-42.6	19.0	0.00e+00	0	58	0	1259339776	46	3905
2026-01-02 14:52:21.46	330.36	17.03	-42.1	-42.7	18.9	0.00e+00	0	58	0	1272971264	46	3945
2026-01-02 14:52:23.45	330.50	16.81	-42.3	-42.9	18.7	0.00e+00	0	58	0	1287651328	46	4030
2026-01-02 14:52:25.42	330.63	16.59	-42.5	-43.2	18.5	0.00e+00	0	58	0	1301282816	46	4154
2026-01-02 14:52:27.39	330.76	16.38	-42.4	-43.0	18.7	0.00e+00	0	58	0	1315962880	46	4078
2026-01-02 14:52:29.37	330.89	16.17	-42.7	-43.4	18.3	0.00e+00	0	58	0	1330642944	47	4006
2026-01-02 14:52:31.35	331.02	15.96	-42.5	-43.1	18.5	0.00e+00	0	58	0	1344274432	47	3908
2026-01-02 14:52:33.33	331.15	15.75	-42.9	-43.6	18.0	0.00e+00	0	58	0	1358954496	47	4111
2026-01-02 14:52:35.31	331.28	15.55	-42.5	-43.2	18.4	0.00e+00	0	58	0	1373634560	47	3931
2026-01-02 14:52:37.29	331.40	15.34	-42.4	-43.0	18.6	0.00e+00	0	58	0	1387266048	47	3852
2026-01-02 14:52:39.28	331.53	15.14	-42.7	-43.3	18.3	0.00e+00	0	58	0	1401946112	47	3997
2026-01-02 14:52:41.25	331.65	14.94	-42.7	-43.4	18.2	0.00e+00	0	58	0	1416626176	47	4031
2026-01-02 14:52:43.23	331.77	14.74	-42.6	-43.2	18.4	0.00e+00	0	58	0	1430257664	47	3950
2026-01-02 14:52:45.21	331.89	14.54	-42.9	-43.5	18.0	0.00e+00	0	58	0	1444937728	47	4093
2026-01-02 14:52:47.19	332.00	14.34	-42.9	-43.6	18.0	0.00e+00	0	58	0	1458569216	47	4103
2026-01-02 14:52:49.17	332.12	14.15	-43.0	-43.7	17.9	0.00e+00	0	58	0	1473249280	47	4153
2026-01-02 14:52:51.15	332.23	13.95	-43.1	-43.8	17.8	0.00e+00	0	58	0	1487929344	47	4197
2026-01-02 14:52:53.13	332.35	13.76	-42.8	-43.4	18.1	0.00e+00	0	58	0	1501560832	47	4051
2026-01-02 14:52:55.12	332.46	13.57	-43.4	-44.1	17.7	0.00e+00	0	58	0	1516240896	48	4124
2026-01-02 14:52:57.09	332.57	13.38	-43.4	-44.1	17.6	0.00e+00	0	58	0	1530920960	48	4127
2026-01-02 14:52:59.07	332.68	13.19	-43.5	-44.2	17.5	0.00e+00	0	58	0	1544552448	48	4184
2026-01-02 14:53:01.05	332.78	13.00	-43.8	-44.6	17.2	0.00e+00	0	58	0	1559232512	49	4101
2026-01-02 14:53:03.02	332.89	12.82	-43.4	-44.2	17.5	0.00e+00	0	58	0	1572864000	49	3925
2026-01-02 14:53:04.99	333.00	12.63	-43.5	-44.3	17.4	0.00e+00	0	58	0	1587544064	49	3975
2026-01-02 14:53:06.97	333.10	12.45	-43.6	-44.3	17.4	0.00e+00	0	58	0	1601175552	49	3988
2026-01-02 14:53:08.95	333.20	12.27	-43.7	-44.5	17.2	0.00e+00	0	58	0	1615855616	49	4066
2026-01-02 14:53:10.93	333.30	12.09	-44.0	-44.8	16.9	0.00e+00	0	58	0	1630535680	49	4216
2026-01-02 14:53:12.91	333.40	11.91	-43.7	-44.5	17.2	0.00e+00	0	58	0	1644167168	49	4082
2026-01-02 14:53:14.89	333.50	11.73	-44.1	-44.9	16.7	0.00e+00	0	58	0	1658847232	49	4262
2026-01-02 14:53:16.87	333.60	11.55	-44.2	-45.0	16.6	0.00e+00	0	58	0	1673527296	50	4093
2026-01-02 14:53:18.86	333.70	11.38	-44.0	-44.8	16.8	0.00e+00	0	58	0	1687158784	50	3978
2026-01-02 14:53:20.84	333.80	11.20	-44.1	-44.9	16.7	0.00e+00	0	58	0	1701838848	50	4037
2026-01-02 14:53:22.83	333.89	11.03	-43.9	-44.7	16.9	0.00e+00	0	58	0	1716518912	50	3954
2026-01-02 14:53:24.81	333.99	10.86	-43.9	-44.6	17.0	0.00e+00	0	58	0	1730150400	50	3911
2026-01-02 14:53:26.78	334.08	10.69	-43.9	-44.7	16.8	0.00e+00	0	58	0	1744830464	50	3946
2026-01-02 14:53:28.76	334.17	10.52	-44.1	-44.9	16.6	0.00e+00	0	58	0	1759510528	50	4029
2026-01-02 14:53:30.72	334.26	10.35	-44.2	-45.0	16.6	0.00e+00	0	58	0	1773142016	50	4073
2026-01-02 14:53:32.69	334.35	10.18	-44.2	-45.1	16.5	0.00e+00	0	58	0	1787822080	50	4114
2026-01-02 14:53:34.67	334.44	10.02	-44.7	-45.7	15.8	0.00e+00	0	58	0	1801453568	51	4170
2026-01-02 14:53:36.64	334.53	9.85	-44.8	-45.8	15.7	0.00e+00	0	58	0	1816133632	51	4225
2026-01-02 14:53:38.62	334.62	9.69	-44.9	-45.9	15.6	0.00e+00	0	58	0	1829765120	51	4271
2026-01-02 14:53:40.61	334.71	9.52	-44.8	-45.7	15.8	0.00e+00	0	58	0	1844445184	51	4178
2026-01-02 14:53:42.59	334.79	9.36	-44.4	-45.3	16.2	0.00e+00	0	58	0	1859125248	51	3991
2026-01-02 14:53:44.58	334.88	9.20	-44.3	-45.2	16.3	0.00e+00	0	58	0	1873805312	51	3947
2026-01-02 14:53:46.56	334.96	9.04	-44.5	-45.4	16.0	0.00e+00	0	58	0	1887436800	51	4033
2026-01-02 14:53:48.55	335.05	8.88	-44.8	-45.8	15.7	0.00e+00	0	58	0	1902116864	51	4195
2026-01-02 14:53:50.53	335.13	8.72	-44.6	-45.5	15.9	0.00e+00	0	58	0	1916796928	51	4098
2026-01-02 14:53:52.50	335.21	8.56	-44.6	-45.5	15.9	0.00e+00	0	58	0	1930428416	51	4075
2026-01-02 14:53:54.47	335.29	8.41	-44.5	-45.4	15.9	0.00e+00	0	58	0	1944059904	51	4045
2026-01-02 14:53:56.45	335.37	8.25	-44.6	-45.6	15.8	0.00e+00	0	58	0	1958739968	51	4126
2026-01-02 14:53:58.43	335.45	8.10	-44.6	-45.5	15.8	0.00e+00	0	58	0	1973420032	51	4087
2026-01-02 14:54:00.41	335.53	7.94	-44.7	-45.7	15.6	0.00e+00	0	58	0	1987051520	51	4173
2026-01-02 14:54:02.38	335.61	7.79	-44.9	-45.9	15.4	0.00e+00	0	58	0	2001731584	51	4280
2026-01-02 14:54:04.36	335.68	7.64	-44.8	-45.8	15.4	0.00e+00	0	58	0	2016411648	52	3992
2026-01-02 14:54:06.33	335.76	7.49	-44.6	-45.6	15.6	0.00e+00	0	58	0	2030043136	52	3892
2026-01-02 14:54:08.31	335.84	7.34	-44.6	-45.6	15.6	0.00e+00	0	58	0	2044723200	52	3903
2026-01-02 14:54:10.29	335.91	7.19	-44.5	-45.5	15.7	0.00e+00	0	58	0	2059403264	52	3848
2026-01-02 14:54:12.26	335.99	7.04	-44.8	-45.8	15.5	0.00e+00	0	58	0	2073034752	51	4213
2026-01-02 14:54:14.24	336.06	6.89	-44.7	-45.8	15.5	0.00e+00	0	58	0	2087714816	51	4200
2026-01-02 14:54:16.23	336.13	6.75	-45.0	-46.1	15.1	0.00e+00	0	58	0	2102394880	51	4364
2026-01-02 14:54:18.21	336.21	6.60	-45.1	-46.2	15.0	0.00e+00	0	58	0	2116026368	51	4418
2026-01-02 14:54:20.19	336.28	6.46	-44.9	-46.0	15.1	0.00e+00	0	58	0	2130706432	52	4076
2026-01-02 14:54:22.17	336.35	6.31	-45.3	-46.5	14.5	1.10e-06	0	58	0	2144337920	52	4319
2026-01-02 14:54:24.16	336.42	6.17	-45.3	-46.5	14.5	0.00e+00	0	58	0	2159017984	52	4315
2026-01-02 14:54:26.14	336.49	6.02	-45.3	-46.5	14.5	1.10e-06	0	58	0	2173698048	52	4319
2026-01-02 14:54:28.12	336.56	5.88	-45.5	-46.8	14.2	5.70e-06	0	58	0	2187329536	53	4196
2026-01-02 14:54:30.09	336.63	5.74	-45.6	-46.8	14.1	4.50e-06	0	58	0	2202009600	53	4241
2026-01-02 14:54:32.07	336.70	5.60	-46.2	-47.7	13.2	2.74e-05	0	58	0	2215641088	54	4408
2026-01-02 14:54:34.05	336.77	5.46	-46.1	-47.5	13.4	2.63e-05	0	58	0	2230321152	54	4299
2026-01-02 14:54:36.03	336.83	5.32	-46.3	-47.8	13.1	4.11e-05	0	58	0	2245001216	54	4456
2026-01-02 14:54:38.00	336.90	5.18	-46.2	-47.7	13.1	4.69e-05	0	58	0	2258632704	54	4418
2026-01-02 14:54:39.99	336.97	5.04	-46.0	-47.3	13.6	1.10e-06	0	58	0	2273312768	53	4471
2026-01-02 14:54:41.97	337.03	4.91	-51.3	-61.4	3.8	8.46e-01	0	58	104	2275409920	65	11311
2026-01-02 14:54:43.95	337.10	4.77	-49.8	-59.9	3.8	8.47e-01	0	58	104	2275409920	61	12072
2026-01-02 14:54:45.93	337.16	4.63	-52.5	-62.7	3.8	8.47e-01	0	58	104	2275409920	66	12484
2026-01-02 14:54:47.90	337.23	4.50	-52.7	-62.9	3.8	8.47e-01	0	58	104	2275409920	67	12094
2026-01-02 14:54:49.88	337.29	4.36	-52.9	-63.0	3.8	8.46e-01	0	58	104	2275409920	67	12206
2026-01-02 14:54:51.84	337.35	4.23	-52.8	-63.1	3.8	8.47e-01	0	58	104	2275409920	67	12313
2026-01-02 14:54:53.80	337.42	4.10	-52.9	-63.1	3.8	8.47e-01	0	58	104	2275409920	67	12356
2026-01-02 14:54:55.76	337.48	3.97	-52.9	-63.2	3.8	8.47e-01	0	58	104	2275409920	67	12452
2026-01-02 14:54:57.72	337.54	3.84	-52.9	-63.2	3.8	8.46e-01	0	58	104	2275409920	67	12477
2026-01-02 14:54:59.69	337.60	3.71	-53.0	-63.2	3.8	8.47e-01	0	58	104	2275409920	67	12511
2026-01-02 14:55:01.67	337.66	3.58	-52.9	-63.3	3.8	8.45e-01	0	58	104	2275409920	67	12527
2026-01-02 14:55:03.63	337.72	3.45	-53.0	-63.3	3.8	8.46e-01	0	58	104	2275409920	67	12551
2026-01-02 14:55:05.60	337.78	3.32	-53.1	-63.3	3.8	8.46e-01	0	58	104	2275409920	67	12621
2026-01-02 14:55:07.56	337.84	3.19	-53.1	-63.3	3.8	8.45e-01	0	58	104	2275409920	67	12585
2026-01-02 14:55:09.53	337.90	3.06	-53.0	-63.3	3.8	8.47e-01	0	58	104	2275409920	67	12523
2026-01-02 14:55:11.51	337.96	2.93	-52.8	-63.3	3.8	8.45e-01	0	58	104	2275409920	67	12552

#Closed at: 2026-01-02 14:55:12
#Recorded file [2275 MB]: D:/Data/31026_260102_175440.dat