passes_logs/2026/01/02/R3.0SM8_Murmansk_STILSPACE/R3.0SM8_Murmansk_STILSPACE__20260102_035022_AQUA_rec.log

#Pass ID: 20260102_035022_AQUA
#Satellite: AQUA
#Configuration: AQUA
#almurnet v.1.7.20240730
#Start time: 2026-01-02 03:50:24

#Version: 2.2.20231116
#Station: R3.0SM8_Murmansk_STILSPACE
#Location: 33.092731 lon 68.902999 lat
#TLE: 1 27424U 02022A   25365.92641127  .00002078  00000+0  42628-3 0  9999
#TLE: 2 27424  98.4058 327.1196 0001962  94.7781 340.6230 14.61783896258835

#Time	Az	El	Level	Level2	SNR	BER	BlckErr	Temp	State	Recorded	gain1	gain2
2026-01-02 03:50:24.01	28.71	3.13	-54.2	-74.1	3.8	7.42e-01	0	51	0	0	70	38044
2026-01-02 03:50:26.96	28.58	3.33	-53.7	-73.5	3.8	7.45e-01	0	51	104	0	70	35625
2026-01-02 03:50:29.91	28.44	3.53	-53.2	-73.0	3.8	7.43e-01	0	51	104	0	69	35688
2026-01-02 03:50:32.87	28.30	3.73	-53.3	-73.1	3.8	7.47e-01	0	51	104	0	69	35734
2026-01-02 03:50:35.84	28.16	3.93	-53.3	-73.0	3.8	7.44e-01	0	51	104	0	69	35402
2026-01-02 03:50:38.80	28.02	4.13	-53.2	-72.7	3.8	7.45e-01	0	52	104	0	69	34135
2026-01-02 03:50:41.78	27.87	4.34	-53.1	-71.6	3.8	7.44e-01	0	52	104	0	69	30350
2026-01-02 03:50:44.75	27.72	4.54	-52.7	-69.6	3.8	7.46e-01	0	52	104	0	69	23915
2026-01-02 03:50:47.72	27.57	4.75	-52.1	-67.3	3.8	7.41e-01	0	52	104	0	67	20713
2026-01-02 03:50:50.68	27.42	4.96	-51.4	-65.5	3.8	7.46e-01	0	52	104	0	66	17784
2026-01-02 03:50:53.64	27.26	5.17	-51.2	-65.0	3.8	7.45e-01	0	52	104	0	65	17722
2026-01-02 03:50:56.60	27.11	5.38	-51.8	-66.4	3.8	7.41e-01	0	52	104	0	65	20871
2026-01-02 03:50:59.56	26.94	5.60	-52.5	-68.6	3.8	7.44e-01	0	53	104	0	67	24081
2026-01-02 03:51:02.54	26.78	5.82	-53.0	-70.0	3.9	7.47e-01	0	53	104	0	68	26677
2026-01-02 03:51:05.50	26.61	6.03	-53.2	-70.9	3.8	7.43e-01	0	53	104	0	68	29538
2026-01-02 03:51:08.46	26.44	6.25	-53.0	-69.9	3.8	7.47e-01	0	53	104	0	68	26353
2026-01-02 03:51:11.44	26.27	6.48	-52.6	-68.4	3.8	7.43e-01	0	53	104	0	68	22076
2026-01-02 03:51:14.40	26.09	6.70	-51.6	-65.7	3.8	7.41e-01	0	53	104	0	66	18233
2026-01-02 03:51:17.37	25.91	6.92	-50.7	-63.8	3.8	7.45e-01	0	53	104	0	65	15452
2026-01-02 03:51:20.35	25.73	7.15	-50.3	-63.0	3.8	7.45e-01	0	53	104	0	64	14999
2026-01-02 03:51:23.33	25.54	7.38	-50.3	-63.0	3.8	7.43e-01	0	53	104	0	64	14891
2026-01-02 03:51:26.30	25.35	7.62	-49.6	-61.8	3.8	7.48e-01	0	53	104	0	62	14594
2026-01-02 03:51:29.27	25.16	7.85	-49.0	-60.9	3.8	7.44e-01	0	53	104	0	61	13964
2026-01-02 03:51:32.23	24.96	8.09	-48.9	-60.7	3.8	7.48e-01	0	53	104	0	61	13680
2026-01-02 03:51:35.19	24.76	8.32	-49.3	-61.3	3.8	7.45e-01	0	53	104	0	61	14609
2026-01-02 03:51:38.16	24.56	8.56	-49.8	-62.1	3.8	7.45e-01	0	53	104	0	61	15953
2026-01-02 03:51:41.13	24.35	8.81	-50.8	-63.6	3.8	7.44e-01	0	54	104	0	63	17060
2026-01-02 03:51:44.10	24.14	9.05	-51.6	-65.3	3.8	7.44e-01	0	54	104	0	65	18343
2026-01-02 03:51:47.07	23.92	9.30	-52.6	-67.8	3.8	7.43e-01	0	54	104	0	67	22002
2026-01-02 03:51:50.04	23.70	9.55	-52.6	-68.0	3.8	7.49e-01	0	54	104	0	67	22482
2026-01-02 03:51:53.00	23.48	9.80	-53.1	-69.8	3.8	7.45e-01	0	54	104	0	68	25898
2026-01-02 03:51:55.97	23.25	10.05	-53.1	-69.6	3.8	7.48e-01	0	54	104	0	68	25538
2026-01-02 03:51:58.95	23.01	10.31	-52.9	-68.8	3.8	7.44e-01	0	54	104	0	68	23280
2026-01-02 03:52:01.91	22.78	10.57	-52.2	-66.6	3.8	7.45e-01	0	54	104	0	68	18028
2026-01-02 03:52:04.88	22.53	10.83	-50.8	-63.6	3.8	7.44e-01	0	54	104	0	65	15161
2026-01-02 03:52:07.85	22.28	11.10	-50.1	-62.3	3.8	7.43e-01	0	54	104	0	63	14674
2026-01-02 03:52:10.81	22.03	11.36	-50.1	-62.4	3.8	7.46e-01	0	54	104	0	63	14826
2026-01-02 03:52:13.77	21.77	11.63	-49.6	-61.6	3.8	7.45e-01	0	54	104	0	62	14296
2026-01-02 03:52:16.74	21.51	11.90	-48.6	-60.2	3.8	7.45e-01	0	54	104	0	60	13571
2026-01-02 03:52:19.70	21.24	12.18	-48.5	-59.9	3.8	7.42e-01	0	55	104	0	59	13979
2026-01-02 03:52:22.67	20.96	12.46	-48.6	-60.2	3.8	7.43e-01	0	55	104	0	60	13671
2026-01-02 03:52:25.64	20.68	12.74	-49.6	-61.6	3.9	7.44e-01	0	55	104	0	61	15186
2026-01-02 03:52:28.61	20.39	13.02	-50.1	-62.3	3.8	7.43e-01	0	55	104	0	62	15563
2026-01-02 03:52:31.57	20.10	13.31	-51.1	-64.0	3.8	7.46e-01	0	55	104	0	64	16880
2026-01-02 03:52:34.53	19.80	13.60	-52.2	-66.6	3.8	7.45e-01	0	55	104	0	66	20114
2026-01-02 03:52:37.50	19.49	13.89	-51.4	-64.8	3.8	7.41e-01	0	55	104	0	66	16370
2026-01-02 03:52:40.46	19.18	14.19	-52.1	-66.3	3.8	7.44e-01	0	55	104	0	66	19400
2026-01-02 03:52:43.43	18.86	14.49	-53.0	-68.6	3.8	7.45e-01	0	55	104	0	68	22567
2026-01-02 03:52:46.40	18.53	14.79	-52.9	-68.3	3.8	7.45e-01	0	55	104	0	68	21949
2026-01-02 03:52:49.38	18.20	15.10	-52.7	-67.8	3.8	7.45e-01	0	55	104	0	68	20627
2026-01-02 03:52:52.35	17.85	15.41	-51.5	-64.9	3.8	7.43e-01	0	55	104	0	66	16554
2026-01-02 03:52:55.32	17.50	15.72	-50.0	-62.1	3.8	7.43e-01	0	55	104	0	63	14239
2026-01-02 03:52:58.28	17.14	16.04	-49.8	-61.9	3.8	7.47e-01	0	55	104	0	62	14792
2026-01-02 03:53:01.25	16.77	16.36	-49.7	-61.7	3.8	7.46e-01	0	56	104	0	62	14404
2026-01-02 03:53:04.22	16.40	16.68	-49.2	-61.0	3.8	7.44e-01	0	55	104	0	62	13328
2026-01-02 03:53:07.18	16.01	17.01	-48.3	-59.7	3.8	7.44e-01	0	55	104	0	60	12890
2026-01-02 03:53:10.16	15.62	17.34	-48.5	-60.0	3.8	7.43e-01	0	56	104	0	59	14084
2026-01-02 03:53:13.13	15.21	17.67	-49.3	-61.2	3.8	7.45e-01	0	56	104	0	60	15233
2026-01-02 03:53:16.10	14.80	18.01	-50.4	-62.8	3.8	7.42e-01	0	55	104	0	63	15483
2026-01-02 03:53:19.06	14.37	18.35	-50.8	-63.5	3.9	7.41e-01	0	56	104	0	64	15845
2026-01-02 03:53:22.02	13.94	18.69	-51.9	-65.8	3.8	7.47e-01	0	56	104	0	66	18489
2026-01-02 03:53:24.99	13.50	19.04	-51.5	-64.8	3.8	7.47e-01	0	56	104	0	66	16405
2026-01-02 03:53:27.96	13.04	19.39	-50.3	-62.6	3.8	7.48e-01	0	56	104	0	64	14286
2026-01-02 03:53:30.93	12.57	19.75	-51.5	-64.8	3.8	7.45e-01	0	56	104	0	65	17324
2026-01-02 03:53:33.90	12.09	20.11	-52.8	-67.8	3.8	7.44e-01	0	56	104	0	67	21904
2026-01-02 03:53:36.86	11.60	20.47	-52.7	-67.6	3.8	7.44e-01	0	56	104	0	67	21350
2026-01-02 03:53:39.83	11.09	20.84	-52.7	-67.7	3.8	7.42e-01	0	56	104	0	67	21702
2026-01-02 03:53:42.79	10.57	21.20	-51.1	-64.0	3.8	7.45e-01	0	56	104	0	65	15831
2026-01-02 03:53:45.75	10.04	21.58	-49.7	-61.6	3.8	7.45e-01	0	56	104	0	63	13557
2026-01-02 03:53:48.73	9.50	21.95	-49.5	-61.4	3.8	7.48e-01	0	56	104	0	62	13927
2026-01-02 03:53:51.71	8.93	22.34	-49.4	-61.6	3.8	7.44e-01	0	56	104	0	62	14227
2026-01-02 03:53:54.67	8.36	22.72	-49.6	-62.1	3.8	7.46e-01	0	56	104	0	61	16021
2026-01-02 03:53:57.65	7.77	23.11	-50.1	-63.3	3.8	7.47e-01	0	56	104	0	62	17290
2026-01-02 03:54:00.62	7.16	23.50	-51.1	-65.5	3.8	7.47e-01	0	56	104	0	64	19916
2026-01-02 03:54:03.59	6.54	23.89	-51.4	-65.1	3.8	7.44e-01	0	56	104	0	65	17973
2026-01-02 03:54:06.57	5.90	24.29	-51.0	-63.9	3.8	7.43e-01	0	56	104	0	64	16648
2026-01-02 03:54:09.54	5.24	24.68	-51.4	-65.6	3.8	7.43e-01	0	56	104	0	64	20182
2026-01-02 03:54:12.51	4.56	25.08	-52.3	-70.1	3.8	7.45e-01	0	56	104	0	67	28669
2026-01-02 03:54:15.48	3.87	25.49	-52.3	-69.8	3.8	7.44e-01	0	56	104	0	67	27440
2026-01-02 03:54:18.45	3.16	25.89	-51.7	-65.8	3.8	7.47e-01	0	56	104	0	67	17388
2026-01-02 03:54:21.40	2.43	26.30	-51.3	-64.3	3.8	7.43e-01	0	56	104	0	65	16317
2026-01-02 03:54:24.38	1.68	26.71	-52.4	-66.6	3.8	7.44e-01	0	56	104	0	67	19057
2026-01-02 03:54:27.34	0.91	27.11	-52.5	-66.8	3.8	7.46e-01	0	56	104	0	67	19571
2026-01-02 03:54:30.31	0.11	27.52	-52.4	-66.5	3.8	7.41e-01	0	56	104	0	67	18810
2026-01-02 03:54:33.27	359.30	27.93	-50.5	-62.8	3.8	7.42e-01	0	56	104	0	64	14663
2026-01-02 03:54:36.23	358.47	28.34	-49.2	-60.9	3.8	7.44e-01	0	56	104	0	62	13158
2026-01-02 03:54:39.19	357.61	28.75	-48.9	-60.5	3.8	7.45e-01	0	56	104	0	61	13310
2026-01-02 03:54:42.16	356.72	29.16	-49.6	-61.4	3.8	7.45e-01	0	56	104	0	61	14831
2026-01-02 03:54:45.11	355.82	29.57	-49.2	-60.8	3.8	7.43e-01	0	56	104	0	62	13076
2026-01-02 03:54:48.08	354.89	29.97	-48.6	-60.0	3.8	7.48e-01	0	56	104	0	60	13354
2026-01-02 03:54:51.05	353.94	30.38	-49.8	-61.7	3.8	7.43e-01	0	56	104	0	61	15361
2026-01-02 03:54:54.01	352.96	30.78	-50.5	-62.8	3.8	7.43e-01	0	56	104	0	64	14663
2026-01-02 03:54:56.99	351.95	31.18	-49.7	-61.6	3.8	7.44e-01	0	56	104	0	63	13465
2026-01-02 03:54:59.96	350.92	31.57	-50.3	-62.5	3.8	7.45e-01	0	56	104	0	63	14927
2026-01-02 03:55:02.93	349.86	31.96	-49.7	-61.5	3.8	7.41e-01	0	56	104	0	63	13413
2026-01-02 03:55:05.90	348.77	32.34	-48.7	-60.1	3.8	7.43e-01	0	57	104	0	61	12774
2026-01-02 03:55:08.86	347.66	32.72	-49.2	-60.9	3.8	7.41e-01	0	56	104	0	60	14832
2026-01-02 03:55:11.83	346.52	33.09	-50.7	-63.0	3.8	7.44e-01	0	57	104	0	63	15861
2026-01-02 03:55:14.80	345.36	33.45	-52.1	-65.8	3.8	7.43e-01	0	56	104	0	66	18456
2026-01-02 03:55:17.77	344.17	33.80	-52.4	-66.4	3.8	7.45e-01	0	57	104	0	67	18717
2026-01-02 03:55:20.73	342.95	34.14	-51.7	-64.7	3.8	7.48e-01	0	56	104	0	66	16299
2026-01-02 03:55:23.70	341.70	34.47	-50.1	-62.0	3.8	7.46e-01	0	56	104	0	63	14182
2026-01-02 03:55:26.67	340.43	34.79	-49.2	-60.8	3.8	7.47e-01	0	56	104	0	62	13019
2026-01-02 03:55:29.64	339.14	35.10	-49.5	-61.4	3.8	7.46e-01	0	56	104	0	61	14746
2026-01-02 03:55:32.60	337.82	35.39	-50.5	-62.7	3.8	7.46e-01	0	57	104	0	63	15360
2026-01-02 03:55:35.55	336.48	35.67	-50.2	-62.2	3.8	7.45e-01	0	56	104	0	63	14525
2026-01-02 03:55:38.52	335.11	35.93	-50.1	-62.0	3.8	7.41e-01	0	56	104	0	63	14180
2026-01-02 03:55:41.49	333.72	36.18	-50.8	-63.4	3.8	7.46e-01	0	57	104	0	64	15661
2026-01-02 03:55:44.47	332.31	36.41	-49.5	-61.3	3.8	7.46e-01	0	56	104	0	62	13799
2026-01-02 03:55:47.45	330.87	36.62	-49.2	-60.7	3.8	7.43e-01	0	56	104	0	61	13698
2026-01-02 03:55:50.42	329.42	36.81	-49.9	-61.8	3.8	7.46e-01	0	57	104	0	61	15493
2026-01-02 03:55:53.38	327.96	36.98	-49.6	-61.4	3.8	7.43e-01	0	57	104	0	62	13917
2026-01-02 03:55:56.35	326.47	37.13	-49.9	-61.7	3.8	7.47e-01	0	56	104	0	62	14499
2026-01-02 03:55:59.32	324.98	37.26	-50.8	-63.2	3.8	7.43e-01	0	57	104	0	63	16147
2026-01-02 03:56:02.31	323.46	37.37	-51.4	-55.1	17.9	6.05e-01	0	56	0	1048576	65	5704
2026-01-02 03:56:05.27	321.95	37.46	-51.7	-55.7	17.4	6.05e-01	0	57	0	6291456	65	6079
2026-01-02 03:56:08.25	320.42	37.53	-50.7	-53.8	19.4	6.04e-01	0	57	0	12058624	65	4879
2026-01-02 03:56:11.21	318.89	37.57	-50.7	-53.6	19.5	6.03e-01	0	57	0	17825792	64	5100
2026-01-02 03:56:14.18	317.36	37.59	-49.9	-52.4	20.9	6.01e-01	0	57	0	23068672	63	4653
2026-01-02 03:56:17.13	315.84	37.59	-49.0	-51.1	22.1	6.04e-01	0	56	0	28835840	61	4505
2026-01-02 03:56:20.09	314.31	37.56	-49.0	-51.1	22.1	6.03e-01	0	57	0	34078720	61	4502
2026-01-02 03:56:23.07	312.78	37.51	-48.9	-50.9	22.2	6.04e-01	0	57	0	39845888	60	4703
2026-01-02 03:56:26.04	311.26	37.44	-48.8	-50.8	22.3	6.05e-01	0	57	0	45613056	60	4624
2026-01-02 03:56:29.00	309.75	37.34	-49.7	-52.1	21.1	6.01e-01	0	57	0	50855936	61	5079
2026-01-02 03:56:31.96	308.25	37.23	-49.6	-51.9	21.2	6.04e-01	0	57	0	56623104	61	4955
2026-01-02 03:56:34.92	306.76	37.09	-49.6	-52.0	21.2	6.04e-01	0	57	0	61865984	61	5000
2026-01-02 03:56:37.89	305.28	36.93	-49.1	-51.3	21.8	6.03e-01	0	57	0	67633152	60	4875
2026-01-02 03:56:40.85	303.82	36.76	-49.1	-51.2	21.9	6.04e-01	0	57	0	72876032	60	4851
2026-01-02 03:56:43.81	302.38	36.56	-50.1	-52.8	20.4	6.02e-01	0	57	0	78643200	62	5172
2026-01-02 03:56:46.77	300.95	36.34	-49.5	-51.7	21.5	6.01e-01	0	57	0	84410368	61	4857
2026-01-02 03:56:49.74	299.55	36.11	-49.9	-52.4	20.7	6.02e-01	0	57	0	89653248	61	5274
2026-01-02 03:56:52.69	298.17	35.86	-49.1	-51.2	21.9	6.05e-01	0	57	0	95420416	61	4589
2026-01-02 03:56:55.67	296.80	35.59	-48.4	-50.2	22.7	6.02e-01	0	57	0	101187584	60	4326
2026-01-02 03:56:58.64	295.46	35.31	-48.7	-50.6	22.5	6.04e-01	0	57	0	106430464	61	4247
2026-01-02 03:57:01.60	294.15	35.01	-48.5	-50.2	22.8	6.04e-01	0	57	0	112197632	60	4335
2026-01-02 03:57:04.56	292.86	34.70	-48.9	-51.0	22.2	6.04e-01	0	57	0	117440512	60	4710
2026-01-02 03:57:07.53	291.59	34.38	-48.8	-50.8	22.3	6.03e-01	0	57	0	123207680	60	4601
2026-01-02 03:57:10.50	290.35	34.04	-49.1	-51.1	21.9	6.03e-01	0	56	0	128974848	60	4809
2026-01-02 03:57:13.47	289.14	33.70	-48.8	-50.8	22.2	6.04e-01	0	57	0	134217728	60	4615
2026-01-02 03:57:16.44	287.95	33.34	-49.1	-51.3	21.9	6.03e-01	0	57	0	139984896	60	4882
2026-01-02 03:57:19.41	286.79	32.98	-48.4	-50.2	22.8	6.05e-01	0	57	0	145227776	60	4329
2026-01-02 03:57:22.37	285.66	32.61	-48.2	-49.9	23.4	6.03e-01	0	57	0	150994944	59	4398
2026-01-02 03:57:25.35	284.55	32.23	-48.9	-50.9	21.9	6.03e-01	0	57	0	156762112	60	4705
2026-01-02 03:57:28.31	283.47	31.84	-48.6	-50.4	22.9	6.03e-01	0	57	0	162004992	59	4702
2026-01-02 03:57:31.26	282.42	31.46	-48.5	-50.3	22.4	6.02e-01	0	57	0	167772160	60	4354
2026-01-02 03:57:34.23	281.40	31.06	-48.4	-50.1	23.0	6.03e-01	0	57	0	173015040	59	4541
2026-01-02 03:57:37.21	280.39	30.66	-49.2	-51.5	21.6	6.03e-01	0	57	0	178782208	60	5011
2026-01-02 03:57:40.18	279.41	30.25	-48.1	-49.7	23.5	6.03e-01	0	57	0	184549376	59	4293
2026-01-02 03:57:43.16	278.46	29.85	-48.6	-50.3	23.0	6.02e-01	0	57	0	189792256	59	4648
2026-01-02 03:57:46.14	277.53	29.44	-48.5	-50.3	23.0	6.04e-01	0	56	0	195559424	59	4623
2026-01-02 03:57:49.11	276.63	29.03	-48.9	-50.9	22.1	6.03e-01	0	57	0	201326592	60	4662
2026-01-02 03:57:52.09	275.75	28.61	-48.7	-50.6	22.4	6.04e-01	0	57	0	206569472	60	4537
2026-01-02 03:57:55.05	274.89	28.20	-48.8	-50.7	22.4	6.02e-01	0	57	0	212336640	60	4563
2026-01-02 03:57:58.03	274.06	27.79	-49.3	-51.5	21.6	6.03e-01	0	57	0	218103808	60	4990
2026-01-02 03:58:01.00	273.25	27.38	-48.9	-51.0	22.1	6.03e-01	0	57	0	223346688	61	4445
2026-01-02 03:58:03.97	272.46	26.97	-48.8	-50.7	22.4	6.04e-01	0	57	0	229113856	60	4581
2026-01-02 03:58:06.95	271.69	26.56	-48.9	-51.0	22.1	6.05e-01	0	57	0	234356736	60	4741
2026-01-02 03:58:09.92	270.94	26.15	-48.5	-50.3	22.7	6.03e-01	0	57	0	240123904	60	4381
2026-01-02 03:58:12.88	270.21	25.74	-48.3	-50.1	22.9	6.03e-01	0	57	0	245891072	60	4285
2026-01-02 03:58:15.85	269.51	25.34	-48.5	-50.3	22.7	6.03e-01	0	57	0	251133952	60	4384
2026-01-02 03:58:18.81	268.82	24.93	-48.4	-50.3	22.7	6.04e-01	0	57	0	256901120	60	4353
2026-01-02 03:58:21.78	268.15	24.53	-48.6	-50.6	22.4	6.04e-01	0	57	0	262144000	60	4497
2026-01-02 03:58:24.74	267.49	24.14	-48.6	-50.5	22.4	6.02e-01	0	57	0	267911168	60	4484
2026-01-02 03:58:27.70	266.86	23.74	-48.6	-50.4	23.0	6.03e-01	0	57	0	273678336	59	4655
2026-01-02 03:58:30.65	266.24	23.35	-48.5	-50.5	22.5	6.04e-01	0	57	0	278921216	60	4449
2026-01-02 03:58:33.62	265.64	22.96	-48.6	-50.5	22.4	6.04e-01	0	57	0	284688384	60	4481
2026-01-02 03:58:36.60	265.05	22.57	-48.6	-50.4	23.0	6.03e-01	0	57	0	289931264	59	4668
2026-01-02 03:58:39.57	264.48	22.19	-48.8	-50.8	22.6	6.02e-01	0	57	0	295698432	59	4871
2026-01-02 03:58:42.53	263.92	21.81	-48.6	-50.6	22.4	6.03e-01	0	57	0	301465600	60	4506
2026-01-02 03:58:45.51	263.38	21.43	-48.2	-50.0	22.9	6.02e-01	0	56	0	306708480	60	4238
2026-01-02 03:58:48.48	262.85	21.06	-48.4	-50.3	22.7	6.05e-01	0	57	0	312475648	60	4347
2026-01-02 03:58:51.45	262.33	20.69	-48.5	-50.3	22.6	6.05e-01	0	57	0	318242816	60	4390
2026-01-02 03:58:54.42	261.83	20.32	-48.5	-50.4	22.5	6.04e-01	0	56	0	323485696	60	4421
2026-01-02 03:58:57.39	261.33	19.96	-48.7	-50.6	22.3	6.04e-01	0	57	0	329252864	60	4531
2026-01-02 03:59:00.36	260.86	19.60	-48.4	-50.2	22.7	6.03e-01	0	57	0	334495744	60	4317
2026-01-02 03:59:03.32	260.39	19.25	-48.3	-50.1	22.7	6.07e-01	0	57	0	340262912	60	4266
2026-01-02 03:59:06.28	259.94	18.89	-48.5	-50.3	22.8	6.03e-01	0	57	0	346030080	59	4632
2026-01-02 03:59:09.24	259.49	18.55	-48.6	-50.5	22.7	6.03e-01	0	57	0	351272960	59	4717
2026-01-02 03:59:12.20	259.06	18.20	-48.5	-50.4	22.9	6.04e-01	0	57	0	357040128	59	4661
2026-01-02 03:59:15.17	258.64	17.86	-48.7	-50.6	22.6	6.03e-01	0	57	0	362283008	59	4775
2026-01-02 03:59:18.14	258.23	17.53	-48.7	-50.6	22.7	6.02e-01	0	57	0	368050176	59	4764
2026-01-02 03:59:21.11	257.82	17.19	-48.5	-50.3	22.9	6.03e-01	0	57	0	373817344	59	4637
2026-01-02 03:59:24.08	257.43	16.86	-48.7	-50.6	22.6	6.02e-01	0	57	0	379060224	59	4792
2026-01-02 03:59:27.06	257.04	16.53	-48.5	-50.4	22.8	6.02e-01	0	57	0	384827392	59	4667
2026-01-02 03:59:30.03	256.67	16.21	-48.6	-50.5	22.7	6.02e-01	0	56	0	390070272	59	4737
2026-01-02 03:59:32.99	256.30	15.89	-48.8	-50.9	21.9	6.05e-01	0	57	0	395837440	60	4680
2026-01-02 03:59:35.94	255.95	15.58	-48.4	-50.3	22.5	6.04e-01	0	57	0	401604608	60	4387
2026-01-02 03:59:38.91	255.59	15.26	-48.7	-50.7	22.2	6.01e-01	0	57	0	406847488	60	4551
2026-01-02 03:59:41.88	255.25	14.96	-49.1	-51.3	21.6	6.06e-01	0	57	0	412614656	60	4889
2026-01-02 03:59:44.84	254.92	14.65	-48.6	-50.6	22.2	6.01e-01	0	57	0	417857536	60	4524
2026-01-02 03:59:47.81	254.59	14.35	-48.7	-50.8	22.1	6.02e-01	0	57	0	423624704	60	4609
2026-01-02 03:59:50.78	254.27	14.05	-48.5	-50.4	22.4	6.04e-01	0	57	0	429391872	60	4414
2026-01-02 03:59:53.75	253.96	13.75	-48.5	-50.5	22.2	6.03e-01	0	57	0	434634752	60	4469
2026-01-02 03:59:56.72	253.65	13.46	-48.4	-50.3	22.5	6.04e-01	0	57	0	440401920	60	4346
2026-01-02 03:59:59.69	253.35	13.17	-48.3	-50.2	22.5	6.05e-01	0	57	0	446169088	60	4320
2026-01-02 04:00:02.65	253.06	12.88	-48.4	-50.3	22.4	6.03e-01	0	57	0	451411968	60	4361
2026-01-02 04:00:05.61	252.77	12.60	-48.4	-50.3	22.4	6.03e-01	0	57	0	457179136	60	4362
2026-01-02 04:00:08.57	252.49	12.32	-48.8	-50.9	22.2	6.02e-01	0	57	0	462422016	59	4931
2026-01-02 04:00:11.54	252.21	12.04	-48.6	-50.6	22.0	6.04e-01	0	57	0	468189184	60	4539
2026-01-02 04:00:14.52	251.94	11.76	-48.6	-50.7	22.0	6.03e-01	0	56	0	473956352	60	4559
2026-01-02 04:00:17.48	251.68	11.49	-48.6	-50.6	22.1	6.03e-01	0	57	0	479199232	60	4504
2026-01-02 04:00:20.44	251.42	11.22	-48.5	-50.6	22.1	6.01e-01	0	57	0	484966400	60	4500
2026-01-02 04:00:23.42	251.17	10.95	-48.7	-50.8	21.9	6.04e-01	0	57	0	490733568	60	4610
2026-01-02 04:00:26.39	250.92	10.69	-49.1	-51.3	21.3	6.05e-01	0	57	0	495976448	60	4925
2026-01-02 04:00:29.35	250.68	10.43	-49.1	-51.4	21.2	6.04e-01	0	57	0	501743616	60	4981
2026-01-02 04:00:32.31	250.44	10.17	-49.4	-51.8	20.8	6.00e-01	0	57	0	506986496	61	4899
2026-01-02 04:00:35.28	250.20	9.91	-49.3	-51.7	20.9	6.04e-01	0	57	0	512753664	61	4864
2026-01-02 04:00:38.24	249.97	9.66	-49.4	-51.8	20.8	6.04e-01	0	57	0	517996544	61	4895
2026-01-02 04:00:41.21	249.75	9.41	-49.1	-51.4	21.1	6.00e-01	0	57	0	523763712	61	4705
2026-01-02 04:00:44.16	249.53	9.16	-49.3	-51.7	20.8	6.05e-01	0	57	0	529530880	61	4832
2026-01-02 04:00:47.14	249.31	8.91	-49.1	-51.5	21.0	6.02e-01	0	57	0	534773760	61	4715
2026-01-02 04:00:50.12	249.10	8.67	-49.0	-51.3	21.2	6.03e-01	0	57	0	540540928	61	4608
2026-01-02 04:00:53.08	248.89	8.42	-48.9	-51.2	21.3	6.03e-01	0	57	0	546308096	61	4560
2026-01-02 04:00:56.05	248.69	8.18	-48.9	-51.2	21.3	6.04e-01	0	57	0	551550976	61	4558
2026-01-02 04:00:59.03	248.48	7.95	-48.9	-51.1	21.3	6.06e-01	0	56	0	557318144	61	4537
2026-01-02 04:01:01.99	248.29	7.71	-49.1	-51.4	21.0	6.03e-01	0	56	0	562561024	61	4699
2026-01-02 04:01:04.97	248.09	7.48	-49.2	-51.6	20.8	6.02e-01	0	57	0	568328192	61	4781
2026-01-02 04:01:07.94	247.90	7.24	-49.2	-51.7	20.6	6.01e-01	0	57	0	574095360	61	4868
2026-01-02 04:01:10.91	247.72	7.01	-49.4	-52.0	20.4	6.02e-01	0	56	0	579338240	61	5012
2026-01-02 04:01:13.89	247.53	6.79	-49.5	-52.3	20.1	6.01e-01	0	57	0	585105408	61	5168
2026-01-02 04:01:16.85	247.35	6.56	-49.5	-52.2	20.1	6.03e-01	0	56	0	590872576	61	5133
2026-01-02 04:01:19.81	247.18	6.34	-49.8	-52.6	19.7	6.04e-01	0	57	0	596115456	62	5089
2026-01-02 04:01:22.78	247.00	6.12	-49.3	-52.0	20.2	6.02e-01	0	56	0	601882624	62	4707
2026-01-02 04:01:25.71	246.83	5.90	-49.5	-52.2	20.0	6.02e-01	0	57	0	607125504	62	4838
2026-01-02 04:01:28.68	246.67	5.68	-49.7	-52.6	19.6	6.01e-01	0	56	0	612892672	62	5053
2026-01-02 04:01:31.63	246.50	5.47	-49.5	-52.3	19.8	6.04e-01	0	57	0	618135552	62	4899
2026-01-02 04:01:34.60	246.34	5.25	-49.6	-52.5	19.6	6.03e-01	0	56	0	623902720	62	5002
2026-01-02 04:01:37.57	246.18	5.04	-50.1	-53.4	18.7	6.03e-01	0	57	0	629669888	62	5550
2026-01-02 04:01:40.53	246.02	4.83	-53.7	-73.6	3.8	7.45e-01	0	57	104	630718464	69	37839
2026-01-02 04:01:43.51	245.87	4.62	-54.1	-74.0	3.8	7.44e-01	0	57	104	630718464	70	37735
2026-01-02 04:01:46.48	245.71	4.41	-54.3	-74.2	3.8	7.46e-01	0	57	104	630718464	70	38265
2026-01-02 04:01:49.44	245.57	4.20	-54.3	-74.2	3.8	7.46e-01	0	57	104	630718464	70	38563
2026-01-02 04:01:52.40	245.42	4.00	-54.4	-74.3	3.8	7.43e-01	0	57	104	630718464	71	36760
2026-01-02 04:01:55.36	245.27	3.80	-54.4	-74.4	3.8	7.46e-01	0	57	104	630718464	71	37027
2026-01-02 04:01:58.33	245.13	3.59	-54.5	-74.4	3.8	7.43e-01	0	57	104	630718464	71	37152
2026-01-02 04:02:01.29	244.99	3.39	-54.5	-74.4	3.8	7.45e-01	0	57	104	630718464	71	37258
2026-01-02 04:02:04.25	244.86	3.20	-54.5	-74.4	3.8	7.44e-01	0	57	104	630718464	71	37307
2026-01-02 04:02:07.22	244.72	3.00	-54.5	-74.4	3.8	7.45e-01	0	57	104	630718464	71	37260

#Closed at: 2026-01-02 04:02:08
#Recorded file [630 MB]: D:/Data/31026_260102_070138.dat