passes_logs/2026/01/02/R3.0SM8_Murmansk_STILSPACE/R3.0SM8_Murmansk_STILSPACE__20260102_130755_NOAA_21_JPSS-2_rec.log

#Pass ID: 20260102_130755_NOAA 21 (JPSS-2)
#Satellite: NOAA 21 (JPSS-2)
#Configuration: NOAA-21
#almurnet v.1.7.20240730
#Start time: 2026-01-02 13:14:54

#Version: 2.2.20231116
#Station: R3.0SM8_Murmansk_STILSPACE
#Location: 33.092731 lon 68.902999 lat
#TLE: 1 54234U 22150A   26001.26806856  .00000185  00000+0  10843-3 0  9990
#TLE: 2 54234  98.7484 302.3349 0001277 353.3887   6.7272 14.19530660162860

#Time	Az	El	Level	Level2	SNR	BER	BlckErr	Temp	State	Recorded	gain1	gain2
2026-01-02 13:14:54.52	316.75	9.30	-52.8	-63.2	3.8	8.45e-01	0	58	0	0	67	12459
2026-01-02 13:14:55.50	316.91	9.27	-53.1	-64.7	3.8	1.49e+00	0	58	104	0	69	13308
2026-01-02 13:14:56.50	317.08	9.25	-53.2	-64.7	3.8	1.49e+00	0	58	104	0	69	13310
2026-01-02 13:14:57.49	317.24	9.22	-53.2	-64.7	3.8	1.49e+00	0	58	104	0	69	13332
2026-01-02 13:14:58.47	317.40	9.19	-53.1	-64.7	3.8	1.49e+00	0	58	104	0	69	13368
2026-01-02 13:14:59.47	317.56	9.16	-53.2	-64.7	3.8	1.49e+00	0	58	104	0	69	13346
2026-01-02 13:15:00.46	317.72	9.13	-53.0	-64.7	3.8	1.49e+00	0	58	104	0	69	13309
2026-01-02 13:15:01.46	317.88	9.10	-53.0	-64.7	3.8	1.49e+00	0	58	104	0	68	14051
2026-01-02 13:15:02.45	318.04	9.06	-53.0	-64.6	3.8	1.49e+00	0	58	104	0	68	13942
2026-01-02 13:15:03.43	318.20	9.03	-53.0	-64.6	3.8	1.49e+00	0	58	104	0	68	13990
2026-01-02 13:15:04.43	318.36	9.00	-53.0	-64.6	3.8	1.49e+00	0	58	104	0	68	14004
2026-01-02 13:15:05.42	318.51	8.97	-53.1	-64.6	3.8	1.49e+00	0	58	104	0	68	13986
2026-01-02 13:15:06.40	318.67	8.94	-52.9	-64.6	3.8	1.49e+00	0	58	104	0	68	13983
2026-01-02 13:15:07.39	318.83	8.91	-53.0	-64.6	3.8	1.49e+00	0	58	104	0	68	13914
2026-01-02 13:15:08.38	318.98	8.88	-53.0	-64.6	3.8	1.49e+00	0	58	104	0	68	13913
2026-01-02 13:15:09.37	319.14	8.85	-53.1	-64.6	3.8	1.49e+00	0	59	104	0	68	13902
2026-01-02 13:15:10.36	319.30	8.82	-53.0	-64.5	3.8	1.49e+00	0	59	104	0	68	13850
2026-01-02 13:15:11.35	319.45	8.78	-53.1	-64.5	3.8	1.49e+00	0	58	104	0	68	13818
2026-01-02 13:15:12.34	319.61	8.75	-53.0	-64.5	3.8	1.49e+00	0	58	104	0	68	13774
2026-01-02 13:15:13.33	319.77	8.72	-53.0	-64.4	3.8	1.49e+00	0	58	104	0	68	13649
2026-01-02 13:15:14.32	319.92	8.69	-52.9	-64.3	3.8	1.49e+00	0	58	104	0	68	13526
2026-01-02 13:15:15.31	320.08	8.66	-52.7	-64.1	3.8	1.49e+00	0	58	104	0	68	13252
2026-01-02 13:15:16.30	320.23	8.62	-52.7	-63.9	3.8	1.49e+00	0	58	104	0	68	12957
2026-01-02 13:15:17.28	320.38	8.59	-52.6	-64.1	3.8	1.49e+00	0	59	104	0	67	13912
2026-01-02 13:15:18.27	320.54	8.56	-52.3	-63.7	3.8	1.49e+00	0	58	104	0	67	13321
2026-01-02 13:15:19.26	320.69	8.53	-52.1	-63.7	3.8	1.49e+00	0	58	104	0	67	13266
2026-01-02 13:15:20.24	320.84	8.49	-52.1	-63.3	3.8	1.49e+00	0	58	104	0	67	12773
2026-01-02 13:15:21.23	321.00	8.46	-52.2	-63.5	3.8	1.49e+00	0	58	104	0	67	13023
2026-01-02 13:15:22.22	321.15	8.43	-52.1	-63.6	3.8	1.49e+00	0	58	104	0	67	13188
2026-01-02 13:15:23.21	321.30	8.39	-52.3	-63.7	3.8	1.49e+00	0	58	104	0	67	13320
2026-01-02 13:15:24.20	321.45	8.36	-52.3	-63.7	3.8	1.49e+00	0	58	104	0	67	13396
2026-01-02 13:15:25.19	321.60	8.33	-52.2	-63.7	3.8	1.49e+00	0	58	104	0	67	13334
2026-01-02 13:15:26.18	321.76	8.29	-52.2	-63.7	3.8	1.49e+00	0	58	104	0	67	13284
2026-01-02 13:15:27.17	321.91	8.26	-52.2	-63.6	3.8	1.49e+00	0	58	104	0	67	13157
2026-01-02 13:15:28.15	322.06	8.23	-52.2	-63.5	3.8	1.49e+00	0	58	104	0	67	13019
2026-01-02 13:15:29.14	322.21	8.19	-52.2	-63.5	3.8	1.49e+00	0	58	104	0	67	13089
2026-01-02 13:15:30.12	322.35	8.16	-52.2	-63.6	3.8	1.49e+00	0	58	104	0	67	13228
2026-01-02 13:15:31.11	322.50	8.12	-52.1	-63.7	3.8	1.49e+00	0	58	104	0	67	13327
2026-01-02 13:15:32.10	322.65	8.09	-52.2	-63.7	3.8	1.49e+00	0	58	104	0	67	13274
2026-01-02 13:15:33.09	322.80	8.05	-52.2	-63.4	3.8	1.49e+00	0	58	104	0	67	12883
2026-01-02 13:15:34.07	322.95	8.02	-52.2	-63.0	3.8	1.49e+00	0	58	104	0	67	12350
2026-01-02 13:15:35.06	323.10	7.99	-52.1	-62.8	3.8	1.49e+00	0	58	104	0	67	12051
2026-01-02 13:15:36.05	323.24	7.95	-52.1	-62.8	3.8	1.49e+00	0	58	104	0	67	11976
2026-01-02 13:15:37.03	323.39	7.92	-52.1	-62.9	3.8	1.49e+00	0	58	104	0	67	12214
2026-01-02 13:15:38.02	323.54	7.88	-52.2	-63.4	3.8	1.49e+00	0	58	104	0	67	12877
2026-01-02 13:15:39.00	323.68	7.85	-52.2	-63.7	3.8	1.49e+00	0	58	104	0	67	13383
2026-01-02 13:15:39.99	323.83	7.81	-52.2	-63.3	3.8	1.49e+00	0	58	104	0	67	12711
2026-01-02 13:15:40.98	323.98	7.78	-51.8	-61.3	4.0	1.49e+00	0	58	104	0	66	10759
2026-01-02 13:15:41.96	324.12	7.74	-51.6	-58.9	4.6	1.24e+00	0	58	104	0	66	8151
2026-01-02 13:15:42.93	324.26	7.71	-51.0	-56.6	6.1	4.96e-01	0	58	0	1048576	65	6578
2026-01-02 13:15:43.93	324.41	7.67	-50.4	-54.5	7.9	1.20e-01	0	58	0	4194304	63	5838
2026-01-02 13:15:44.92	324.55	7.63	-49.6	-52.9	9.6	2.05e-02	0	58	0	7340032	62	5123
2026-01-02 13:15:45.91	324.70	7.60	-48.8	-51.4	11.1	2.21e-03	0	58	0	10485760	60	4848
2026-01-02 13:15:46.90	324.84	7.56	-48.0	-50.0	12.6	1.43e-04	0	58	0	13631488	59	4391
2026-01-02 13:15:47.89	324.99	7.53	-47.4	-49.2	13.6	2.13e-05	0	58	0	16777216	57	4446
2026-01-02 13:15:48.87	325.13	7.49	-47.1	-48.8	13.9	1.50e-06	0	58	0	19922944	57	4281
2026-01-02 13:15:49.86	325.27	7.45	-47.3	-49.1	13.6	9.10e-06	0	58	0	23068672	57	4395
2026-01-02 13:15:50.86	325.42	7.42	-47.1	-48.8	13.9	4.50e-06	0	58	0	26214400	57	4261
2026-01-02 13:15:51.84	325.56	7.38	-46.9	-48.4	14.2	3.00e-06	0	58	0	29360128	56	4330
2026-01-02 13:15:52.84	325.70	7.34	-46.7	-48.2	14.4	1.50e-06	0	58	0	32505856	56	4240
2026-01-02 13:15:53.83	325.84	7.31	-46.6	-48.2	14.5	0.00e+00	0	58	0	35651584	56	4216
2026-01-02 13:15:54.81	325.98	7.27	-46.7	-48.3	14.4	0.00e+00	0	58	0	37748736	56	4246
2026-01-02 13:15:55.80	326.12	7.23	-46.7	-48.3	14.4	0.00e+00	0	58	0	40894464	56	4268
2026-01-02 13:15:56.78	326.26	7.20	-46.7	-48.3	14.4	0.00e+00	0	58	0	44040192	56	4251
2026-01-02 13:15:57.77	326.40	7.16	-46.9	-48.5	14.2	7.00e-07	0	58	0	47185920	56	4371
2026-01-02 13:15:58.75	326.54	7.12	-46.9	-48.4	14.2	1.50e-06	0	58	0	50331648	56	4337
2026-01-02 13:15:59.75	326.68	7.08	-46.8	-48.3	14.4	7.00e-07	0	58	0	53477376	56	4266
2026-01-02 13:16:00.74	326.82	7.05	-46.9	-48.4	14.2	2.20e-06	0	58	0	56623104	56	4327
2026-01-02 13:16:01.72	326.96	7.01	-46.8	-48.4	14.2	7.00e-07	0	58	0	59768832	56	4320
2026-01-02 13:16:02.72	327.10	6.97	-46.9	-48.4	14.2	0.00e+00	0	58	0	62914560	56	4337
2026-01-02 13:16:03.71	327.24	6.93	-47.1	-48.8	13.9	5.30e-06	0	58	0	66060288	56	4506
2026-01-02 13:16:04.70	327.37	6.90	-47.1	-48.8	13.8	3.00e-06	0	58	0	69206016	56	4526
2026-01-02 13:16:05.69	327.51	6.86	-47.2	-49.0	13.7	5.30e-06	0	58	0	72351744	56	4606
2026-01-02 13:16:06.68	327.65	6.82	-47.2	-48.8	13.8	2.20e-06	0	58	0	75497472	56	4539
2026-01-02 13:16:07.67	327.79	6.78	-47.2	-48.8	13.8	3.00e-06	0	58	0	78643200	56	4540
2026-01-02 13:16:08.65	327.92	6.75	-47.1	-48.7	13.9	3.00e-06	0	58	0	81788928	56	4477
2026-01-02 13:16:09.64	328.06	6.71	-47.0	-48.6	14.0	4.50e-06	0	58	0	84934656	56	4420
2026-01-02 13:16:10.64	328.19	6.67	-46.9	-48.6	13.9	3.00e-06	0	58	0	88080384	56	4416
2026-01-02 13:16:11.63	328.33	6.63	-46.9	-48.6	13.9	1.50e-06	0	58	0	91226112	56	4432
2026-01-02 13:16:12.61	328.46	6.59	-47.0	-48.7	13.9	2.20e-06	0	58	0	93323264	56	4461
2026-01-02 13:16:13.60	328.60	6.55	-47.0	-48.7	13.9	7.00e-07	0	58	0	96468992	56	4453
2026-01-02 13:16:14.59	328.73	6.52	-47.0	-48.6	14.0	2.20e-06	0	58	0	99614720	56	4433
2026-01-02 13:16:15.58	328.87	6.48	-47.0	-48.7	14.0	3.80e-06	0	58	0	102760448	56	4443
2026-01-02 13:16:16.57	329.00	6.44	-47.0	-48.6	13.9	3.80e-06	0	58	0	105906176	56	4439
2026-01-02 13:16:17.56	329.13	6.40	-47.0	-48.7	13.8	7.60e-06	0	58	0	109051904	56	4469
2026-01-02 13:16:18.55	329.27	6.36	-47.1	-48.8	13.8	3.00e-06	0	58	0	112197632	56	4509
2026-01-02 13:16:19.54	329.40	6.32	-47.2	-48.9	13.6	5.30e-06	0	58	0	115343360	56	4592
2026-01-02 13:16:20.52	329.53	6.28	-47.2	-49.0	13.5	1.22e-05	0	58	0	118489088	56	4645
2026-01-02 13:16:21.50	329.66	6.25	-47.2	-49.0	13.6	1.14e-05	0	58	0	121634816	56	4600
2026-01-02 13:16:22.49	329.79	6.21	-47.2	-48.9	13.6	3.80e-06	0	58	0	124780544	56	4582
2026-01-02 13:16:23.49	329.93	6.17	-47.2	-49.0	13.5	1.22e-05	0	58	0	127926272	56	4650
2026-01-02 13:16:24.48	330.06	6.13	-47.3	-49.1	13.4	1.22e-05	0	58	0	131072000	56	4693
2026-01-02 13:16:25.47	330.19	6.09	-47.4	-49.2	13.4	1.90e-05	0	58	0	134217728	56	4721
2026-01-02 13:16:26.46	330.32	6.05	-47.5	-49.3	13.2	2.44e-05	0	58	0	137363456	56	4795
2026-01-02 13:16:27.45	330.45	6.01	-47.3	-49.2	13.3	1.44e-05	0	58	0	140509184	56	4714
2026-01-02 13:16:28.44	330.58	5.97	-47.3	-49.1	13.4	1.44e-05	0	58	0	143654912	56	4685
2026-01-02 13:16:29.42	330.71	5.93	-47.4	-49.2	13.3	1.75e-05	0	58	0	146800640	56	4711
2026-01-02 13:16:30.40	330.83	5.89	-47.5	-49.4	13.1	2.28e-05	0	58	0	149946368	56	4821
2026-01-02 13:16:31.38	330.96	5.85	-47.7	-49.7	12.8	5.79e-05	0	58	0	152043520	57	4710
2026-01-02 13:16:32.38	331.09	5.81	-47.4	-49.2	13.2	2.67e-05	0	58	0	155189248	57	4483
2026-01-02 13:16:33.37	331.22	5.77	-47.3	-49.1	13.4	1.37e-05	0	58	0	158334976	57	4405
2026-01-02 13:16:34.35	331.35	5.73	-47.2	-48.9	13.6	1.60e-05	0	58	0	161480704	57	4296
2026-01-02 13:16:35.35	331.47	5.69	-47.1	-48.8	13.7	5.30e-06	0	58	0	164626432	57	4264
2026-01-02 13:16:36.34	331.60	5.65	-47.2	-49.0	13.6	1.37e-05	0	58	0	167772160	57	4344
2026-01-02 13:16:37.33	331.73	5.61	-47.1	-48.9	13.5	1.14e-05	0	58	0	170917888	57	4322
2026-01-02 13:16:38.32	331.85	5.57	-46.9	-48.5	13.9	2.20e-06	0	58	0	174063616	56	4389
2026-01-02 13:16:39.32	331.98	5.53	-46.9	-48.7	13.7	1.50e-06	0	58	0	177209344	56	4460
2026-01-02 13:16:40.31	332.11	5.49	-46.9	-48.6	13.8	2.20e-06	0	58	0	180355072	56	4432
2026-01-02 13:16:41.29	332.23	5.45	-47.1	-48.8	13.6	6.10e-06	0	58	0	183500800	56	4498
2026-01-02 13:16:42.28	332.36	5.41	-47.0	-48.7	13.7	1.50e-06	0	58	0	186646528	56	4485
2026-01-02 13:16:43.26	332.48	5.37	-47.2	-49.0	13.4	1.37e-05	0	58	0	189792256	56	4626
2026-01-02 13:16:44.25	332.60	5.33	-47.2	-49.1	13.3	1.37e-05	0	58	0	192937984	56	4656
2026-01-02 13:16:45.24	332.73	5.29	-47.4	-49.3	13.1	3.50e-05	0	58	0	196083712	56	4792
2026-01-02 13:16:46.23	332.85	5.25	-47.4	-49.2	13.2	2.28e-05	0	58	0	199229440	56	4737
2026-01-02 13:16:47.22	332.98	5.21	-47.4	-49.2	13.1	3.28e-05	0	58	0	202375168	56	4753
2026-01-02 13:16:48.22	333.10	5.17	-47.4	-49.4	13.0	3.89e-05	0	58	0	205520896	56	4824
2026-01-02 13:16:49.20	333.22	5.13	-47.5	-49.4	12.9	4.50e-05	0	58	0	208666624	57	4587
2026-01-02 13:16:50.19	333.34	5.09	-47.5	-49.4	13.0	4.57e-05	0	58	0	211812352	57	4551
2026-01-02 13:16:51.18	333.47	5.05	-47.3	-49.2	13.1	3.35e-05	0	58	0	214958080	57	4469
2026-01-02 13:16:52.18	333.59	5.01	-51.5	-59.7	4.4	1.94e-01	3	58	0	217055232	64	10019
2026-01-02 13:16:53.17	333.71	4.97	-52.1	-63.6	3.8	1.49e+00	0	58	104	217055232	66	13951
2026-01-02 13:16:54.15	333.83	4.93	-52.4	-63.8	3.8	1.49e+00	0	58	104	217055232	66	14357
2026-01-02 13:16:55.15	333.95	4.89	-52.5	-64.0	3.8	1.49e+00	0	58	104	217055232	66	14554
2026-01-02 13:16:56.14	334.07	4.85	-52.6	-64.1	3.8	1.49e+00	0	58	104	217055232	67	13935
2026-01-02 13:16:57.12	334.19	4.81	-52.4	-64.1	3.8	1.49e+00	0	58	104	217055232	67	13980
2026-01-02 13:16:58.11	334.31	4.76	-52.2	-63.6	3.8	1.49e+00	0	58	104	217055232	67	13252
2026-01-02 13:16:59.10	334.43	4.72	-52.8	-64.3	3.8	1.49e+00	0	58	104	217055232	67	14230
2026-01-02 13:17:00.09	334.55	4.68	-52.9	-64.3	3.8	1.49e+00	0	58	104	217055232	67	14354
2026-01-02 13:17:01.08	334.67	4.64	-52.9	-64.4	3.8	1.49e+00	0	58	104	217055232	67	14381
2026-01-02 13:17:02.06	334.79	4.60	-52.9	-64.4	3.8	1.49e+00	0	58	104	217055232	67	14431
2026-01-02 13:17:03.06	334.91	4.56	-52.9	-64.4	3.8	1.49e+00	0	58	104	217055232	67	14507
2026-01-02 13:17:04.04	335.02	4.52	-52.9	-64.5	3.8	1.49e+00	0	58	104	217055232	67	14548
2026-01-02 13:17:05.04	335.14	4.48	-52.8	-64.5	3.8	1.49e+00	0	58	104	217055232	67	14621
2026-01-02 13:17:06.03	335.26	4.44	-53.0	-64.5	3.8	1.49e+00	0	58	104	217055232	67	14617
2026-01-02 13:17:07.01	335.37	4.40	-53.0	-64.5	3.8	1.49e+00	0	58	104	217055232	67	14661
2026-01-02 13:17:08.00	335.49	4.35	-53.1	-64.5	3.8	1.49e+00	0	58	104	217055232	67	14660
2026-01-02 13:17:09.00	335.61	4.31	-53.0	-64.6	3.8	1.49e+00	0	58	104	217055232	67	14717
2026-01-02 13:17:09.98	335.72	4.27	-53.1	-64.7	3.8	1.49e+00	0	58	104	217055232	68	14085
2026-01-02 13:17:10.97	335.84	4.23	-53.2	-64.7	3.8	1.49e+00	0	58	104	217055232	68	14098
2026-01-02 13:17:11.96	335.95	4.19	-53.2	-64.7	3.8	1.49e+00	0	58	104	217055232	68	14095
2026-01-02 13:17:12.95	336.07	4.15	-53.1	-64.7	3.8	1.49e+00	0	58	104	217055232	68	14125
2026-01-02 13:17:13.94	336.18	4.11	-53.2	-64.7	3.8	1.49e+00	0	58	104	217055232	68	14103
2026-01-02 13:17:14.93	336.30	4.06	-53.2	-64.7	3.8	1.49e+00	0	58	104	217055232	68	14156
2026-01-02 13:17:15.92	336.41	4.02	-52.9	-64.7	3.8	1.49e+00	0	58	104	217055232	68	14142
2026-01-02 13:17:16.91	336.53	3.98	-53.0	-64.7	3.8	1.49e+00	0	58	104	217055232	68	14145
2026-01-02 13:17:17.91	336.64	3.94	-53.2	-64.7	3.8	1.49e+00	0	58	104	217055232	68	14122
2026-01-02 13:17:18.90	336.76	3.90	-53.2	-64.7	3.8	1.49e+00	0	58	104	217055232	68	14124
2026-01-02 13:17:19.90	336.87	3.86	-53.1	-64.7	3.8	1.49e+00	0	58	104	217055232	68	14135
2026-01-02 13:17:20.88	336.98	3.82	-52.9	-64.7	3.8	1.49e+00	0	58	104	217055232	68	14101
2026-01-02 13:17:21.87	337.09	3.77	-53.2	-64.7	3.8	1.49e+00	0	58	104	217055232	68	14150
2026-01-02 13:17:22.85	337.20	3.73	-53.2	-64.7	3.8	1.49e+00	0	58	104	217055232	68	14127
2026-01-02 13:17:23.84	337.32	3.69	-53.0	-64.7	3.8	1.49e+00	0	58	104	217055232	68	14093
2026-01-02 13:17:24.83	337.43	3.65	-53.0	-64.7	3.8	1.49e+00	0	58	104	217055232	68	14148
2026-01-02 13:17:25.82	337.54	3.61	-53.0	-64.7	3.8	1.49e+00	0	58	104	217055232	68	14166
2026-01-02 13:17:26.81	337.65	3.57	-53.0	-64.7	3.8	1.49e+00	0	58	104	217055232	68	14129
2026-01-02 13:17:27.80	337.76	3.52	-53.0	-64.7	3.8	1.49e+00	0	58	104	217055232	68	14125
2026-01-02 13:17:28.78	337.87	3.48	-53.0	-64.7	3.8	1.49e+00	0	58	104	217055232	68	14116
2026-01-02 13:17:29.77	337.98	3.44	-53.0	-64.7	3.8	1.49e+00	0	58	104	217055232	68	14076
2026-01-02 13:17:30.75	338.09	3.40	-53.0	-64.7	3.8	1.49e+00	0	58	104	217055232	68	14077
2026-01-02 13:17:31.74	338.20	3.36	-53.1	-64.7	3.8	1.49e+00	0	58	104	217055232	68	14085
2026-01-02 13:17:32.73	338.31	3.32	-53.0	-64.7	3.8	1.49e+00	0	58	104	217055232	68	14069
2026-01-02 13:17:33.73	338.42	3.27	-53.0	-64.7	3.8	1.49e+00	0	58	104	217055232	68	14060
2026-01-02 13:17:34.72	338.52	3.23	-53.1	-64.7	3.8	1.49e+00	0	58	104	217055232	68	14079
2026-01-02 13:17:35.71	338.63	3.19	-53.1	-64.7	3.8	1.49e+00	0	58	104	217055232	68	14082
2026-01-02 13:17:36.69	338.74	3.15	-53.0	-64.7	3.8	1.49e+00	0	58	104	217055232	68	14098
2026-01-02 13:17:37.69	338.85	3.11	-53.2	-64.7	3.8	1.49e+00	0	58	104	217055232	68	14116
2026-01-02 13:17:38.68	338.95	3.06	-53.1	-64.7	3.8	1.49e+00	0	58	104	217055232	68	14091
2026-01-02 13:17:39.67	339.06	3.02	-53.1	-64.7	3.8	1.49e+00	0	58	104	217055232	68	14096
2026-01-02 13:17:40.67	339.17	2.98	-53.0	-64.7	3.8	1.49e+00	0	58	104	217055232	68	14113
2026-01-02 13:17:41.66	339.28	2.94	-53.0	-64.7	3.8	1.49e+00	0	58	104	217055232	68	14069
2026-01-02 13:17:42.65	339.38	2.90	-53.0	-64.7	3.8	1.49e+00	0	58	104	217055232	68	14091

#Closed at: 2026-01-02 13:17:43
#Recorded file [217 MB]: D:/Data/31026_260102_161652.dat