passes_logs/2026/01/02/R3.0SM8_Murmansk_STILSPACE/R3.0SM8_Murmansk_STILSPACE__20260102_035553_NOAA_20_JPSS-1_rec.log

#Pass ID: 20260102_035553_NOAA 20 (JPSS-1)
#Satellite: NOAA 20 (JPSS-1)
#Configuration: NOAA 20
#almurnet v.1.7.20240730
#Start time: 2026-01-02 04:02:15

#Version: 2.2.20231116
#Station: R3.0SM8_Murmansk_STILSPACE
#Location: 33.092731 lon 68.902999 lat
#TLE: 1 43013U 17073A   26001.30344297  .00000183  00000+0  10758-3 0  9995
#TLE: 2 43013  98.7621 302.3885 0001938  59.1624 300.9742 14.19532032420790

#Time	Az	El	Level	Level2	SNR	BER	BlckErr	Temp	State	Recorded	gain1	gain2
2026-01-02 04:02:15.20	339.30	25.97	-54.5	-74.4	3.8	7.45e-01	0	56	0	0	71	37146
2026-01-02 04:02:17.18	338.71	25.95	-52.7	-66.6	3.8	1.49e+00	0	57	104	0	68	17611
2026-01-02 04:02:19.15	338.12	25.93	-52.7	-66.5	3.8	1.49e+00	0	57	104	0	67	18449
2026-01-02 04:02:21.13	337.52	25.90	-52.6	-66.5	3.8	1.49e+00	0	57	104	0	67	18427
2026-01-02 04:02:23.11	336.93	25.87	-52.7	-66.5	3.8	1.49e+00	0	57	104	0	67	18400
2026-01-02 04:02:25.08	336.34	25.83	-52.6	-66.5	3.8	1.49e+00	0	57	104	0	67	18349
2026-01-02 04:02:27.07	335.75	25.80	-52.6	-66.4	3.8	1.49e+00	0	57	104	0	67	18285
2026-01-02 04:02:29.04	335.16	25.76	-52.6	-66.4	3.8	1.49e+00	0	57	104	0	67	18195
2026-01-02 04:02:31.01	334.58	25.72	-52.5	-66.4	3.8	1.49e+00	0	57	104	0	67	18140
2026-01-02 04:02:33.01	333.99	25.67	-52.4	-66.3	3.8	1.49e+00	0	57	104	0	67	18084
2026-01-02 04:02:34.99	333.40	25.62	-52.4	-66.3	3.8	1.49e+00	0	57	104	0	67	18045
2026-01-02 04:02:36.98	332.82	25.57	-52.4	-66.3	3.8	1.49e+00	0	57	104	0	67	17910
2026-01-02 04:02:38.95	332.24	25.51	-52.3	-66.2	3.8	1.49e+00	0	57	104	0	67	17871
2026-01-02 04:02:40.93	331.66	25.45	-52.4	-66.2	3.8	1.49e+00	0	57	104	0	67	17810
2026-01-02 04:02:42.93	331.08	25.39	-52.4	-66.2	3.8	1.49e+00	0	57	104	0	67	17789
2026-01-02 04:02:44.91	330.51	25.32	-52.4	-66.2	3.8	1.49e+00	0	57	104	0	67	17763
2026-01-02 04:02:46.88	329.94	25.26	-52.4	-66.2	3.8	1.49e+00	0	57	104	0	67	17775
2026-01-02 04:02:48.86	329.37	25.18	-52.4	-66.2	3.8	1.49e+00	0	57	104	0	67	17875
2026-01-02 04:02:50.84	328.81	25.11	-52.4	-66.2	3.8	1.49e+00	0	57	104	0	67	17785
2026-01-02 04:02:52.83	328.24	25.03	-52.4	-66.2	3.8	1.49e+00	0	57	104	0	67	17775
2026-01-02 04:02:54.81	327.68	24.95	-52.3	-66.2	3.8	1.49e+00	0	57	104	0	67	17711
2026-01-02 04:02:56.79	327.12	24.87	-52.4	-66.2	3.8	1.49e+00	0	57	104	0	67	17781
2026-01-02 04:02:58.78	326.57	24.79	-52.4	-66.0	3.8	1.49e+00	0	57	104	0	67	17334
2026-01-02 04:03:00.77	326.01	24.70	-52.3	-64.0	3.8	1.49e+00	0	57	104	0	67	13735
2026-01-02 04:03:02.75	325.47	24.61	-52.1	-62.6	4.2	1.40e+00	0	57	0	0	67	11759
2026-01-02 04:03:04.72	324.92	24.52	-51.5	-58.3	6.6	4.50e-01	0	57	0	2097152	66	7589
2026-01-02 04:03:06.69	324.38	24.42	-49.1	-51.8	13.3	5.92e-04	0	57	0	6291456	61	4805
2026-01-02 04:03:08.67	323.85	24.32	-48.0	-50.1	15.2	0.00e+00	0	57	0	9437184	59	4400
2026-01-02 04:03:10.65	323.31	24.22	-48.2	-50.4	14.9	0.00e+00	0	57	0	13631488	59	4547
2026-01-02 04:03:12.63	322.78	24.12	-48.2	-50.4	14.8	0.00e+00	0	57	0	16777216	59	4588
2026-01-02 04:03:14.61	322.25	24.02	-48.4	-50.7	14.5	0.00e+00	0	57	0	20971520	59	4755
2026-01-02 04:03:16.59	321.73	23.91	-48.5	-51.0	14.3	7.00e-07	0	57	0	24117248	59	4888
2026-01-02 04:03:18.57	321.21	23.80	-48.8	-51.2	14.0	7.00e-07	0	57	0	28311552	59	5037
2026-01-02 04:03:20.55	320.69	23.69	-48.4	-50.7	14.5	7.00e-07	0	57	0	31457280	59	4752
2026-01-02 04:03:22.53	320.18	23.58	-48.3	-50.4	14.8	0.00e+00	0	57	0	35651584	59	4586
2026-01-02 04:03:24.51	319.67	23.46	-48.4	-50.7	14.6	7.00e-07	0	57	0	39845888	59	4745
2026-01-02 04:03:26.48	319.16	23.35	-48.2	-50.4	14.8	0.00e+00	0	57	0	42991616	59	4578
2026-01-02 04:03:28.46	318.66	23.23	-47.9	-49.9	15.3	0.00e+00	0	57	0	47185920	58	4587
2026-01-02 04:03:30.42	318.17	23.11	-48.2	-50.4	14.9	0.00e+00	0	57	0	50331648	58	4819
2026-01-02 04:03:32.40	317.67	22.99	-47.9	-50.0	15.3	0.00e+00	0	57	0	54525952	58	4607
2026-01-02 04:03:34.38	317.18	22.86	-48.0	-50.0	15.2	0.00e+00	0	57	0	57671680	58	4639
2026-01-02 04:03:36.37	316.69	22.74	-48.3	-50.5	14.7	7.00e-07	0	57	0	61865984	58	4896
2026-01-02 04:03:38.35	316.21	22.61	-48.4	-50.7	14.4	0.00e+00	0	57	0	65011712	58	5032
2026-01-02 04:03:40.32	315.74	22.48	-48.5	-50.9	14.3	7.00e-07	0	57	0	69206016	58	5124
2026-01-02 04:03:42.28	315.27	22.35	-48.3	-50.6	14.6	0.00e+00	0	57	0	72351744	59	4669
2026-01-02 04:03:44.26	314.80	22.22	-48.0	-50.1	15.1	0.00e+00	0	57	0	76546048	59	4420
2026-01-02 04:03:46.24	314.33	22.09	-47.5	-49.4	15.8	0.00e+00	0	57	0	79691776	58	4319
2026-01-02 04:03:48.22	313.87	21.95	-47.4	-49.3	15.9	0.00e+00	0	57	0	83886080	57	4503
2026-01-02 04:03:50.20	313.41	21.82	-47.1	-48.8	16.3	0.00e+00	0	57	0	87031808	57	4287
2026-01-02 04:03:52.17	312.96	21.68	-47.0	-48.6	16.6	0.00e+00	0	57	0	91226112	57	4184
2026-01-02 04:03:54.16	312.50	21.54	-47.0	-48.7	16.5	0.00e+00	0	57	0	95420416	57	4212
2026-01-02 04:03:56.14	312.06	21.41	-47.1	-48.8	16.3	0.00e+00	0	57	0	98566144	57	4285
2026-01-02 04:03:58.11	311.62	21.27	-47.2	-48.9	16.3	0.00e+00	0	57	0	102760448	57	4317
2026-01-02 04:04:00.10	311.18	21.12	-47.2	-48.9	16.3	0.00e+00	0	57	0	105906176	57	4320
2026-01-02 04:04:02.07	310.74	20.98	-47.4	-49.2	15.9	0.00e+00	0	57	0	110100480	57	4491
2026-01-02 04:04:04.04	310.32	20.84	-46.9	-48.6	16.6	0.00e+00	0	57	0	113246208	57	4155
2026-01-02 04:04:06.02	309.89	20.70	-46.8	-48.4	16.8	0.00e+00	0	57	0	117440512	56	4317
2026-01-02 04:04:08.00	309.47	20.55	-46.9	-48.6	16.6	0.00e+00	0	57	0	120586240	56	4423
2026-01-02 04:04:09.98	309.05	20.41	-46.9	-48.6	16.6	0.00e+00	0	57	0	124780544	56	4428
2026-01-02 04:04:11.96	308.64	20.26	-47.0	-48.7	16.5	0.00e+00	0	57	0	127926272	56	4442
2026-01-02 04:04:13.94	308.23	20.11	-47.0	-48.6	16.6	0.00e+00	0	57	0	132120576	56	4426
2026-01-02 04:04:15.91	307.82	19.97	-46.9	-48.6	16.6	0.00e+00	0	57	0	135266304	56	4410
2026-01-02 04:04:17.88	307.42	19.82	-46.8	-48.5	16.7	0.00e+00	0	57	0	139460608	56	4351
2026-01-02 04:04:19.86	307.02	19.67	-46.5	-48.1	17.1	0.00e+00	0	57	0	142606336	56	4157
2026-01-02 04:04:21.84	306.63	19.52	-46.5	-48.1	17.0	0.00e+00	0	57	0	146800640	56	4158
2026-01-02 04:04:23.81	306.24	19.37	-46.6	-48.2	16.9	0.00e+00	0	57	0	150994944	55	4443
2026-01-02 04:04:25.79	305.85	19.22	-46.3	-47.8	17.2	0.00e+00	0	57	0	154140672	55	4286
2026-01-02 04:04:27.77	305.47	19.07	-46.3	-47.7	17.3	0.00e+00	0	57	0	158334976	55	4230
2026-01-02 04:04:29.74	305.09	18.92	-46.3	-47.8	17.2	0.00e+00	0	57	0	161480704	55	4259
2026-01-02 04:04:31.72	304.72	18.77	-46.4	-47.9	17.1	0.00e+00	0	57	0	165675008	55	4312
2026-01-02 04:04:33.70	304.35	18.62	-46.0	-47.4	17.6	0.00e+00	0	57	0	168820736	55	4060
2026-01-02 04:04:35.68	303.98	18.46	-46.0	-47.4	17.6	0.00e+00	0	57	0	173015040	55	4089
2026-01-02 04:04:37.65	303.62	18.31	-46.0	-47.4	17.6	0.00e+00	0	57	0	176160768	54	4318
2026-01-02 04:04:39.61	303.26	18.16	-46.2	-47.6	17.3	0.00e+00	0	57	0	180355072	54	4439
2026-01-02 04:04:41.58	302.91	18.01	-46.1	-47.5	17.5	0.00e+00	0	57	0	183500800	54	4370
2026-01-02 04:04:43.56	302.55	17.85	-46.2	-47.7	17.3	0.00e+00	0	57	0	187695104	54	4473
2026-01-02 04:04:45.53	302.20	17.70	-46.4	-47.9	17.1	0.00e+00	0	57	0	190840832	54	4554
2026-01-02 04:04:47.52	301.86	17.55	-46.2	-47.7	17.2	0.00e+00	0	57	0	195035136	54	4450
2026-01-02 04:04:49.48	301.52	17.40	-46.2	-47.7	17.0	0.00e+00	0	57	0	198180864	54	4487
2026-01-02 04:04:51.46	301.18	17.24	-46.3	-47.9	16.5	0.00e+00	0	57	0	202375168	54	4591
2026-01-02 04:04:53.45	300.84	17.09	-46.1	-47.7	16.8	0.00e+00	0	57	0	206569472	54	4458
2026-01-02 04:04:55.43	300.51	16.93	-46.1	-47.6	16.9	0.00e+00	0	57	0	209715200	54	4437
2026-01-02 04:04:57.41	300.18	16.78	-46.3	-47.9	16.7	0.00e+00	0	57	0	213909504	54	4582
2026-01-02 04:04:59.39	299.86	16.63	-46.3	-47.8	17.1	0.00e+00	0	57	0	217055232	54	4494
2026-01-02 04:05:01.37	299.53	16.47	-46.1	-47.6	17.4	0.00e+00	0	57	0	221249536	54	4404
2026-01-02 04:05:03.35	299.22	16.32	-46.2	-47.7	17.3	0.00e+00	0	57	0	224395264	54	4463
2026-01-02 04:05:05.33	298.90	16.16	-46.4	-47.9	17.0	0.00e+00	0	57	0	228589568	54	4598
2026-01-02 04:05:07.30	298.59	16.01	-46.4	-47.9	17.1	0.00e+00	0	57	0	231735296	54	4573
2026-01-02 04:05:09.28	298.28	15.86	-46.5	-48.1	16.8	0.00e+00	0	57	0	235929600	54	4672
2026-01-02 04:05:11.25	297.98	15.71	-46.6	-48.3	16.6	0.00e+00	0	57	0	239075328	55	4513
2026-01-02 04:05:13.23	297.68	15.55	-46.8	-48.5	16.3	0.00e+00	0	57	0	243269632	55	4636
2026-01-02 04:05:15.22	297.38	15.40	-47.0	-48.8	16.1	0.00e+00	0	57	0	246415360	55	4779
2026-01-02 04:05:17.20	297.08	15.24	-47.2	-49.1	15.9	0.00e+00	0	57	0	250609664	56	4686
2026-01-02 04:05:19.18	296.79	15.09	-47.3	-49.2	15.8	0.00e+00	0	57	0	254803968	56	4753
2026-01-02 04:05:21.17	296.49	14.94	-47.4	-49.3	15.7	0.00e+00	0	57	0	257949696	56	4765
2026-01-02 04:05:23.14	296.21	14.79	-47.3	-49.1	15.9	0.00e+00	0	57	0	262144000	56	4687
2026-01-02 04:05:25.12	295.93	14.64	-47.1	-48.9	16.0	0.00e+00	0	57	0	265289728	56	4592
2026-01-02 04:05:27.10	295.64	14.48	-47.2	-49.1	15.9	0.00e+00	0	57	0	269484032	56	4655
2026-01-02 04:05:29.07	295.37	14.33	-47.3	-49.2	15.7	0.00e+00	0	57	0	272629760	56	4745
2026-01-02 04:05:31.03	295.10	14.18	-47.4	-49.4	15.5	0.00e+00	0	57	0	276824064	56	4826
2026-01-02 04:05:33.02	294.82	14.03	-47.5	-49.5	15.4	0.00e+00	0	57	0	279969792	56	4918
2026-01-02 04:05:35.00	294.55	13.88	-47.7	-49.9	15.0	0.00e+00	0	57	0	284164096	57	4816
2026-01-02 04:05:36.99	294.28	13.73	-47.5	-49.5	15.3	0.00e+00	0	57	0	287309824	57	4622
2026-01-02 04:05:38.97	294.02	13.58	-47.7	-49.8	15.0	0.00e+00	0	57	0	291504128	57	4804
2026-01-02 04:05:40.95	293.76	13.43	-47.7	-49.9	14.9	0.00e+00	0	57	0	294649856	57	4831
2026-01-02 04:05:42.94	293.50	13.28	-47.8	-50.0	14.7	0.00e+00	0	57	0	298844160	57	4906
2026-01-02 04:05:44.92	293.24	13.13	-47.9	-50.2	14.6	0.00e+00	0	57	0	303038464	57	5000
2026-01-02 04:05:46.89	292.99	12.98	-47.8	-50.1	14.7	1.50e-06	0	57	0	306184192	57	4952
2026-01-02 04:05:48.88	292.74	12.83	-47.9	-50.3	14.5	7.00e-07	0	57	0	310378496	57	5048
2026-01-02 04:05:50.85	292.49	12.68	-48.0	-50.4	14.2	1.50e-06	0	57	0	313524224	57	5153
2026-01-02 04:05:52.83	292.25	12.54	-48.2	-50.8	13.8	3.80e-06	0	57	0	317718528	58	5080
2026-01-02 04:05:54.81	292.00	12.39	-48.3	-51.0	13.5	8.30e-06	0	57	0	320864256	58	5215
2026-01-02 04:05:56.77	291.76	12.24	-48.4	-51.2	13.3	1.75e-05	0	57	0	325058560	58	5305
2026-01-02 04:05:58.75	291.53	12.10	-48.5	-51.4	12.9	2.82e-05	0	57	0	328204288	58	5447
2026-01-02 04:06:00.72	291.29	11.95	-48.7	-51.9	12.3	1.71e-04	0	57	0	332398592	59	5449
2026-01-02 04:06:02.71	291.06	11.80	-48.8	-52.2	11.8	3.49e-04	0	57	0	335544320	59	5636
2026-01-02 04:06:04.69	290.83	11.66	-48.9	-52.6	11.3	9.38e-04	0	57	0	339738624	59	5918
2026-01-02 04:06:06.67	290.60	11.51	-49.0	-52.8	11.1	1.42e-03	0	57	0	342884352	59	6052
2026-01-02 04:06:08.64	290.37	11.37	-49.1	-53.2	10.6	2.78e-03	0	57	0	347078656	60	5948
2026-01-02 04:06:10.62	290.15	11.23	-49.1	-53.4	10.3	4.33e-03	0	57	0	351272960	60	6088
2026-01-02 04:06:12.60	289.93	11.08	-49.2	-53.8	9.7	9.48e-03	0	57	0	354418688	60	6410
2026-01-02 04:06:14.57	289.71	10.94	-49.3	-54.3	9.2	1.49e-02	0	57	0	358612992	60	6729
2026-01-02 04:06:16.55	289.49	10.80	-49.4	-54.6	8.8	2.82e-02	0	57	0	361758720	60	7001
2026-01-02 04:06:18.53	289.27	10.65	-49.5	-55.1	8.3	4.38e-02	0	57	0	365953024	60	7386
2026-01-02 04:06:20.51	289.06	10.51	-49.6	-55.4	8.0	6.52e-02	0	57	0	369098752	61	7230
2026-01-02 04:06:22.49	288.85	10.37	-49.6	-55.6	7.6	8.62e-02	0	57	0	373293056	61	7440
2026-01-02 04:06:24.47	288.64	10.23	-49.7	-55.8	7.5	1.05e-01	0	57	0	376438784	61	7618
2026-01-02 04:06:26.44	288.44	10.09	-49.7	-55.8	7.4	1.14e-01	0	57	0	380633088	61	7624
2026-01-02 04:06:28.41	288.23	9.95	-49.6	-55.7	7.5	1.03e-01	0	57	0	383778816	61	7507
2026-01-02 04:06:30.36	288.03	9.81	-49.7	-56.0	7.3	1.14e-01	0	57	0	387973120	61	7742
2026-01-02 04:06:32.33	287.83	9.67	-49.6	-55.9	7.4	1.27e-01	0	57	0	391118848	61	7636
2026-01-02 04:06:34.31	287.63	9.53	-49.5	-55.4	7.8	8.25e-02	0	57	0	395313152	61	7263
2026-01-02 04:06:36.30	287.43	9.39	-49.5	-55.3	7.9	7.02e-02	0	57	0	398458880	61	7198
2026-01-02 04:06:38.29	287.24	9.25	-49.5	-55.2	8.1	6.22e-02	0	57	0	402653184	61	7051
2026-01-02 04:06:40.26	287.05	9.12	-49.4	-54.8	8.5	4.47e-02	0	57	0	406847488	61	6793
2026-01-02 04:06:42.24	286.85	8.98	-49.4	-54.9	8.5	4.19e-02	0	57	0	409993216	60	7225
2026-01-02 04:06:44.22	286.67	8.84	-49.5	-55.1	8.3	5.15e-02	0	57	0	414187520	60	7415
2026-01-02 04:06:46.20	286.48	8.71	-49.6	-55.2	8.2	5.13e-02	0	57	0	417333248	60	7460
2026-01-02 04:06:48.19	286.29	8.57	-49.6	-55.2	8.1	6.34e-02	0	57	0	421527552	61	7102
2026-01-02 04:06:50.16	286.11	8.43	-49.6	-55.7	7.5	1.04e-01	0	57	0	424673280	61	7519
2026-01-02 04:06:52.15	285.92	8.30	-49.5	-55.1	8.2	7.27e-02	0	57	0	428867584	61	6994
2026-01-02 04:06:54.13	285.74	8.16	-49.5	-54.8	8.5	4.52e-02	0	57	0	432013312	60	7204
2026-01-02 04:06:56.12	285.56	8.03	-49.3	-54.7	8.7	3.56e-02	0	57	0	436207616	60	7057
2026-01-02 04:06:58.11	285.39	7.89	-49.4	-54.6	8.8	3.83e-02	0	57	0	439353344	60	7010
2026-01-02 04:07:00.08	285.21	7.76	-49.3	-54.2	9.3	2.03e-02	0	57	0	443547648	60	6696
2026-01-02 04:07:02.07	285.04	7.63	-49.3	-54.2	9.4	2.00e-02	0	57	0	447741952	60	6670
2026-01-02 04:07:04.05	284.86	7.50	-49.4	-54.4	9.1	2.09e-02	0	57	0	450887680	60	6876
2026-01-02 04:07:06.02	284.69	7.36	-49.6	-54.8	8.7	2.85e-02	0	57	0	455081984	60	7180
2026-01-02 04:07:08.00	284.53	7.23	-49.3	-54.1	9.5	1.68e-02	0	57	0	458227712	60	6599
2026-01-02 04:07:09.97	284.36	7.10	-49.2	-53.8	9.7	1.10e-02	0	57	0	462422016	60	6411
2026-01-02 04:07:11.95	284.19	6.97	-49.2	-53.9	9.6	1.18e-02	0	57	0	465567744	60	6455
2026-01-02 04:07:13.93	284.03	6.84	-49.1	-53.8	9.5	1.38e-02	0	57	0	469762048	60	6420
2026-01-02 04:07:15.91	283.87	6.71	-49.0	-54.0	9.2	1.74e-02	0	57	0	472907776	60	6536
2026-01-02 04:07:17.88	283.71	6.58	-49.1	-54.3	8.8	2.82e-02	0	57	0	477102080	60	6752
2026-01-02 04:07:19.86	283.55	6.45	-49.0	-53.9	9.2	2.14e-02	0	57	0	480247808	60	6462
2026-01-02 04:07:21.83	283.39	6.33	-49.0	-54.1	9.0	2.08e-02	0	57	0	484442112	60	6572
2026-01-02 04:07:23.82	283.23	6.20	-48.8	-53.7	9.2	2.13e-02	0	57	0	487587840	60	6343
2026-01-02 04:07:25.81	283.07	6.07	-48.7	-53.5	9.4	1.61e-02	0	57	0	491782144	60	6164
2026-01-02 04:07:27.78	282.92	5.94	-48.6	-53.5	9.3	2.03e-02	0	57	0	494927872	60	6184
2026-01-02 04:07:29.75	282.77	5.81	-48.7	-53.9	8.8	2.54e-02	0	58	0	499122176	60	6447
2026-01-02 04:07:31.72	282.62	5.69	-48.8	-54.2	8.5	4.07e-02	0	57	0	503316480	60	6651
2026-01-02 04:07:33.70	282.47	5.56	-48.8	-54.6	7.9	6.61e-02	0	57	0	506462208	60	6968
2026-01-02 04:07:35.67	282.32	5.44	-48.9	-55.2	7.3	1.10e-01	0	57	0	510656512	60	7505
2026-01-02 04:07:37.66	282.17	5.31	-48.9	-55.5	6.9	1.61e-01	0	57	0	513802240	60	7751
2026-01-02 04:07:39.64	282.03	5.19	-48.9	-55.9	6.5	2.17e-01	0	57	0	517996544	60	8119
2026-01-02 04:07:41.62	281.88	5.06	-49.0	-56.7	5.9	3.60e-01	0	57	0	521142272	60	8889
2026-01-02 04:07:43.59	281.74	4.94	-50.6	-64.4	3.8	1.49e+00	0	57	104	522190848	63	18290
2026-01-02 04:07:45.57	281.60	4.82	-52.1	-66.0	3.8	1.49e+00	0	57	104	522190848	66	18397
2026-01-02 04:07:47.54	281.46	4.69	-52.0	-65.9	3.8	1.49e+00	0	57	104	522190848	66	18101
2026-01-02 04:07:49.53	281.32	4.57	-52.3	-66.2	3.8	1.49e+00	0	57	104	522190848	66	18796
2026-01-02 04:07:51.51	281.18	4.45	-52.5	-66.3	3.8	1.49e+00	0	57	104	522190848	66	19025
2026-01-02 04:07:53.48	281.04	4.33	-52.5	-66.3	3.8	1.49e+00	0	57	104	522190848	66	19120
2026-01-02 04:07:55.46	280.90	4.20	-52.6	-66.4	3.8	1.49e+00	0	57	104	522190848	66	19176
2026-01-02 04:07:57.45	280.77	4.08	-52.6	-66.4	3.8	1.49e+00	0	58	104	522190848	67	18231
2026-01-02 04:07:59.43	280.63	3.96	-52.6	-66.4	3.8	1.49e+00	0	57	104	522190848	67	18257
2026-01-02 04:08:01.41	280.50	3.84	-52.6	-66.4	3.8	1.49e+00	0	58	104	522190848	67	18290
2026-01-02 04:08:03.39	280.37	3.72	-52.6	-66.5	3.8	1.49e+00	0	58	104	522190848	67	18388
2026-01-02 04:08:05.37	280.24	3.60	-52.6	-66.5	3.8	1.49e+00	0	58	104	522190848	67	18380
2026-01-02 04:08:07.36	280.11	3.48	-52.6	-66.5	3.8	1.49e+00	0	57	104	522190848	67	18432
2026-01-02 04:08:09.34	279.98	3.36	-52.7	-66.5	3.8	1.49e+00	0	58	104	522190848	67	18436
2026-01-02 04:08:11.31	279.86	3.24	-52.5	-66.5	3.8	1.49e+00	0	57	104	522190848	67	18386
2026-01-02 04:08:13.30	279.73	3.12	-52.7	-66.5	3.8	1.49e+00	0	57	104	522190848	67	18359
2026-01-02 04:08:15.29	279.60	3.01	-52.6	-66.5	3.8	1.49e+00	0	57	104	522190848	67	18336

#Closed at: 2026-01-02 04:08:16
#Recorded file [522 MB]: D:/Data/31026_260102_070742.dat