passes_logs/2026/01/02/R3.0SM8_Murmansk_STILSPACE/R3.0SM8_Murmansk_STILSPACE__20260102_051434_SUOMI_NPP_rec.log

#Pass ID: 20260102_051434_SUOMI NPP
#Satellite: SUOMI NPP
#Configuration: NPP
#almurnet v.1.7.20240730
#Start time: 2026-01-02 05:14:33

#Version: 2.2.20231116
#Station: R3.0SM8_Murmansk_STILSPACE
#Location: 33.092731 lon 68.902999 lat
#TLE: 1 37849U 11061A   26001.07732418  .00000182  00000+0  10735-3 0  9990
#TLE: 2 37849  98.7795 303.2470 0002580  87.2016 272.9455 14.19520779734739

#Time	Az	El	Level	Level2	SNR	BER	BlckErr	Temp	State	Recorded	gain1	gain2
2026-01-02 05:14:33.99	61.16	2.99	-52.3	-66.3	3.8	1.49e+00	0	46	0	0	67	17950
2026-01-02 05:14:36.95	60.95	3.16	-52.2	-66.1	3.8	1.49e+00	0	46	104	0	67	17488
2026-01-02 05:14:39.90	60.75	3.33	-52.0	-65.8	3.8	1.49e+00	0	46	104	0	66	17952
2026-01-02 05:14:42.87	60.54	3.51	-51.5	-65.3	3.8	1.49e+00	0	46	104	0	65	17983
2026-01-02 05:14:45.81	60.33	3.68	-51.5	-65.2	3.8	1.49e+00	0	46	104	0	65	17870
2026-01-02 05:14:48.76	60.12	3.86	-51.5	-65.3	3.8	1.49e+00	0	47	104	0	65	17996
2026-01-02 05:14:51.74	59.90	4.03	-51.5	-65.3	3.8	1.49e+00	0	47	104	0	65	18000
2026-01-02 05:14:54.70	59.68	4.21	-51.5	-65.1	3.8	1.49e+00	0	47	104	0	65	17651
2026-01-02 05:14:57.67	59.45	4.39	-51.4	-64.0	3.8	1.49e+00	0	47	104	0	65	15547
2026-01-02 05:15:00.64	59.23	4.57	-51.3	-61.7	4.2	1.40e+00	0	47	0	0	65	11874
2026-01-02 05:15:03.62	59.00	4.75	-50.9	-59.3	5.3	6.99e-01	0	48	0	4194304	64	9515
2026-01-02 05:15:06.58	58.77	4.92	-50.7	-57.9	6.2	3.23e-01	0	48	0	9437184	64	8133
2026-01-02 05:15:09.55	58.53	5.11	-50.7	-57.6	6.6	1.86e-01	0	48	0	15728640	63	8279
2026-01-02 05:15:12.52	58.30	5.29	-50.7	-57.4	6.8	1.66e-01	0	48	0	20971520	63	8086
2026-01-02 05:15:15.48	58.06	5.47	-50.3	-55.8	8.3	8.99e-02	0	48	0	26214400	63	6791
2026-01-02 05:15:18.45	57.81	5.65	-49.6	-53.9	10.3	9.35e-03	0	49	0	32505856	62	5758
2026-01-02 05:15:21.41	57.57	5.84	-49.0	-52.6	11.7	9.64e-04	0	49	0	37748736	61	5250
2026-01-02 05:15:24.39	57.32	6.02	-48.7	-52.0	12.2	2.30e-04	0	49	0	42991616	60	5216
2026-01-02 05:15:27.37	57.06	6.21	-48.8	-52.4	11.9	5.34e-04	0	49	0	49283072	60	5416
2026-01-02 05:15:30.33	56.80	6.39	-48.8	-52.2	12.1	3.65e-04	0	49	0	54525952	60	5283
2026-01-02 05:15:33.29	56.54	6.58	-49.1	-52.8	11.5	8.61e-04	0	49	0	59768832	60	5721
2026-01-02 05:15:36.25	56.28	6.77	-49.1	-52.9	11.4	8.41e-04	0	50	0	66060288	60	5730
2026-01-02 05:15:39.22	56.01	6.95	-49.1	-52.9	11.4	9.40e-04	0	50	0	71303168	60	5734
2026-01-02 05:15:42.19	55.74	7.14	-49.0	-52.7	11.7	6.85e-04	0	50	0	76546048	60	5607
2026-01-02 05:15:45.16	55.47	7.33	-48.8	-52.2	12.2	3.96e-04	0	50	0	81788928	60	5309
2026-01-02 05:15:48.12	55.19	7.52	-48.8	-52.2	12.1	3.27e-04	0	50	0	88080384	60	5337
2026-01-02 05:15:51.08	54.91	7.71	-48.6	-51.9	12.5	1.46e-04	0	50	0	93323264	60	5117
2026-01-02 05:15:54.06	54.62	7.91	-48.7	-52.0	12.5	1.13e-04	0	50	0	98566144	60	5187
2026-01-02 05:15:57.02	54.33	8.10	-48.6	-51.7	12.8	5.49e-05	0	51	0	104857600	60	4984
2026-01-02 05:15:59.99	54.04	8.29	-48.7	-51.9	12.6	7.24e-05	0	51	0	110100480	60	5120
2026-01-02 05:16:02.96	53.74	8.49	-48.4	-51.2	13.3	2.44e-05	0	51	0	115343360	59	5035
2026-01-02 05:16:05.92	53.44	8.68	-48.5	-51.4	13.2	1.98e-05	0	51	0	121634816	59	5155
2026-01-02 05:16:08.88	53.13	8.88	-48.5	-51.3	13.3	2.36e-05	0	51	0	126877696	59	5091
2026-01-02 05:16:11.84	52.82	9.08	-48.5	-51.4	13.2	2.05e-05	0	51	0	132120576	59	5130
2026-01-02 05:16:14.81	52.51	9.27	-48.5	-51.4	13.2	1.67e-05	0	51	0	137363456	59	5152
2026-01-02 05:16:17.77	52.19	9.47	-48.6	-51.5	13.1	1.75e-05	0	51	0	143654912	59	5212
2026-01-02 05:16:20.75	51.86	9.67	-48.9	-51.9	12.8	5.34e-05	0	51	0	148897792	59	5453
2026-01-02 05:16:23.70	51.54	9.87	-49.1	-52.4	12.3	1.22e-04	0	51	0	154140672	59	5742
2026-01-02 05:16:26.67	51.20	10.07	-48.9	-52.2	12.5	1.18e-04	0	52	0	160432128	60	5310
2026-01-02 05:16:29.62	50.87	10.27	-48.7	-51.8	12.8	7.55e-05	0	52	0	165675008	60	5092
2026-01-02 05:16:32.57	50.53	10.47	-49.1	-52.4	12.3	2.33e-04	0	52	0	170917888	60	5443
2026-01-02 05:16:35.54	50.18	10.67	-48.9	-52.0	12.7	9.38e-05	0	52	0	176160768	60	5216
2026-01-02 05:16:38.49	49.83	10.87	-48.8	-51.9	12.8	6.25e-05	0	52	0	182452224	60	5120
2026-01-02 05:16:41.44	49.47	11.07	-48.9	-52.2	12.6	1.46e-04	0	52	0	187695104	60	5292
2026-01-02 05:16:44.40	49.11	11.28	-48.3	-50.9	13.8	4.50e-06	0	52	0	192937984	59	4849
2026-01-02 05:16:47.37	48.74	11.48	-48.1	-50.6	14.1	0.00e+00	0	52	0	199229440	59	4698
2026-01-02 05:16:50.34	48.37	11.69	-48.2	-50.8	14.0	7.00e-07	0	53	0	204472320	59	4789
2026-01-02 05:16:53.30	47.99	11.89	-48.1	-50.5	14.3	0.00e+00	0	52	0	209715200	59	4651
2026-01-02 05:16:56.27	47.61	12.10	-48.2	-50.6	14.2	2.20e-06	0	52	0	216006656	59	4677
2026-01-02 05:16:59.24	47.22	12.31	-48.0	-50.5	14.4	0.00e+00	0	53	0	221249536	59	4623
2026-01-02 05:17:02.21	46.82	12.51	-48.1	-50.4	14.4	1.50e-06	0	53	0	226492416	59	4598
2026-01-02 05:17:05.18	46.42	12.72	-48.1	-50.5	14.4	1.50e-06	0	52	0	231735296	58	4890
2026-01-02 05:17:08.15	46.01	12.93	-48.3	-50.8	14.0	7.00e-07	0	53	0	238026752	58	5100
2026-01-02 05:17:11.09	45.60	13.13	-48.4	-51.0	13.8	2.20e-06	0	53	0	243269632	58	5205
2026-01-02 05:17:14.06	45.19	13.34	-48.6	-51.4	13.5	6.80e-06	0	53	0	248512512	58	5413
2026-01-02 05:17:17.02	44.76	13.55	-48.2	-50.8	14.1	0.00e+00	0	53	0	254803968	59	4769
2026-01-02 05:17:19.99	44.33	13.76	-48.2	-50.7	14.2	2.20e-06	0	53	0	260046848	59	4731
2026-01-02 05:17:22.97	43.89	13.97	-48.2	-50.7	14.1	2.20e-06	0	53	0	265289728	59	4749
2026-01-02 05:17:25.92	43.45	14.17	-48.3	-50.9	14.0	1.50e-06	0	53	0	271581184	59	4835
2026-01-02 05:17:28.88	43.00	14.38	-48.0	-50.4	14.5	0.00e+00	0	53	0	276824064	59	4573
2026-01-02 05:17:31.84	42.55	14.59	-48.0	-50.5	14.4	0.00e+00	0	53	0	282066944	59	4620
2026-01-02 05:17:34.80	42.09	14.80	-47.9	-50.2	14.6	0.00e+00	0	53	0	288358400	58	4758
2026-01-02 05:17:37.78	41.62	15.01	-48.4	-51.1	13.8	7.00e-07	0	54	0	293601280	58	5223
2026-01-02 05:17:40.75	41.14	15.22	-48.6	-51.4	13.5	9.90e-06	0	54	0	298844160	59	5101
2026-01-02 05:17:43.71	40.66	15.42	-48.4	-51.0	13.8	9.90e-06	0	54	0	304087040	59	4925
2026-01-02 05:17:46.67	40.17	15.63	-48.6	-51.3	13.6	1.06e-05	0	54	0	310378496	59	5051
2026-01-02 05:17:49.62	39.68	15.84	-48.4	-51.1	13.9	3.00e-06	0	54	0	315621376	59	4928
2026-01-02 05:17:52.59	39.17	16.04	-48.5	-51.3	13.7	9.10e-06	0	54	0	320864256	59	5057
2026-01-02 05:17:55.55	38.66	16.25	-48.6	-51.3	13.7	8.30e-06	0	54	0	327155712	59	5053
2026-01-02 05:17:58.52	38.14	16.46	-48.4	-51.1	13.8	4.50e-06	0	54	0	332398592	59	4954
2026-01-02 05:18:01.48	37.62	16.66	-48.5	-51.1	13.7	6.10e-06	0	54	0	337641472	59	4969
2026-01-02 05:18:04.43	37.09	16.86	-48.4	-51.0	13.9	3.80e-06	0	54	0	342884352	59	4890
2026-01-02 05:18:07.41	36.55	17.07	-48.6	-51.4	13.6	4.50e-06	0	54	0	349175808	59	5130
2026-01-02 05:18:10.36	36.00	17.27	-48.1	-50.6	14.4	7.00e-07	0	54	0	354418688	59	4659
2026-01-02 05:18:13.33	35.45	17.47	-48.0	-50.3	14.6	7.00e-07	0	54	0	359661568	59	4541
2026-01-02 05:18:16.29	34.89	17.67	-48.1	-50.5	14.5	0.00e+00	0	54	0	365953024	58	4876
2026-01-02 05:18:19.26	34.32	17.87	-47.7	-49.9	15.1	0.00e+00	0	54	0	371195904	58	4588
2026-01-02 05:18:22.22	33.74	18.06	-47.6	-49.8	15.1	0.00e+00	0	54	0	376438784	58	4524
2026-01-02 05:18:25.20	33.16	18.26	-47.2	-49.3	15.6	0.00e+00	0	54	0	382730240	57	4499
2026-01-02 05:18:28.16	32.56	18.45	-46.9	-48.7	16.2	0.00e+00	0	54	0	387973120	56	4476
2026-01-02 05:18:31.12	31.97	18.65	-46.9	-48.8	16.1	0.00e+00	0	54	0	393216000	56	4498
2026-01-02 05:18:34.07	31.36	18.84	-46.8	-48.7	16.3	0.00e+00	0	54	0	398458880	56	4458
2026-01-02 05:18:37.03	30.75	19.02	-46.9	-48.7	16.3	0.00e+00	0	54	0	404750336	56	4458
2026-01-02 05:18:40.00	30.12	19.21	-46.6	-48.4	16.5	0.00e+00	0	55	0	409993216	56	4292
2026-01-02 05:18:42.97	29.49	19.40	-46.7	-48.6	16.4	0.00e+00	0	55	0	415236096	56	4403
2026-01-02 05:18:45.94	28.85	19.58	-46.8	-48.7	16.3	0.00e+00	0	54	0	421527552	56	4456
2026-01-02 05:18:48.90	28.21	19.76	-47.3	-49.4	15.6	0.00e+00	0	55	0	426770432	56	4816
2026-01-02 05:18:51.86	27.56	19.93	-46.6	-48.2	16.7	0.00e+00	0	55	0	432013312	56	4241
2026-01-02 05:18:54.83	26.89	20.11	-46.5	-48.1	16.8	0.00e+00	0	55	0	438304768	56	4178
2026-01-02 05:18:57.79	26.23	20.28	-46.9	-48.7	16.3	0.00e+00	0	55	0	443547648	56	4472
2026-01-02 05:19:00.76	25.55	20.45	-47.4	-49.3	15.6	0.00e+00	0	55	0	448790528	56	4804
2026-01-02 05:19:03.73	24.86	20.61	-47.2	-49.1	15.9	0.00e+00	0	55	0	454033408	56	4686
2026-01-02 05:19:06.70	24.17	20.77	-46.9	-48.8	16.2	0.00e+00	0	55	0	460324864	56	4513
2026-01-02 05:19:09.68	23.47	20.93	-47.1	-48.9	16.2	0.00e+00	0	55	0	465567744	56	4557
2026-01-02 05:19:12.63	22.77	21.09	-46.0	-47.4	17.4	0.00e+00	0	55	0	470810624	55	4098
2026-01-02 05:19:15.59	22.06	21.24	-46.2	-47.8	17.1	0.00e+00	0	55	0	477102080	55	4245
2026-01-02 05:19:18.55	21.34	21.38	-46.4	-48.0	16.9	0.00e+00	0	55	0	482344960	55	4359
2026-01-02 05:19:21.53	20.61	21.53	-46.1	-47.6	17.3	0.00e+00	0	55	0	487587840	55	4167
2026-01-02 05:19:24.50	19.87	21.67	-46.4	-48.0	17.0	0.00e+00	0	55	0	493879296	55	4341
2026-01-02 05:19:27.46	19.13	21.80	-46.7	-48.5	16.4	0.00e+00	0	55	0	499122176	55	4607
2026-01-02 05:19:30.43	18.39	21.93	-46.5	-48.2	16.7	0.00e+00	0	55	0	504365056	55	4447
2026-01-02 05:19:33.39	17.64	22.06	-46.7	-48.3	16.6	0.00e+00	0	55	0	510656512	55	4539
2026-01-02 05:19:36.37	16.87	22.18	-46.1	-47.6	17.3	0.00e+00	0	55	0	515899392	55	4170
2026-01-02 05:19:39.34	16.11	22.29	-45.9	-47.3	17.6	0.00e+00	0	55	0	521142272	54	4267
2026-01-02 05:19:42.31	15.34	22.41	-46.1	-47.6	17.3	0.00e+00	0	55	0	526385152	55	4163
2026-01-02 05:19:45.28	14.56	22.51	-46.7	-48.3	16.6	0.00e+00	0	55	0	532676608	55	4544
2026-01-02 05:19:48.24	13.78	22.61	-47.6	-49.8	15.2	0.00e+00	0	55	0	537919488	57	4774
2026-01-02 05:19:51.20	13.00	22.71	-47.8	-50.0	15.0	0.00e+00	0	55	0	543162368	57	4896
2026-01-02 05:19:54.18	12.20	22.80	-47.6	-49.9	15.1	0.00e+00	0	55	0	549453824	57	4833
2026-01-02 05:19:57.14	11.41	22.88	-46.9	-48.7	16.1	0.00e+00	0	55	0	554696704	57	4239
2026-01-02 05:20:00.11	10.61	22.96	-47.3	-49.3	15.5	0.00e+00	0	55	0	559939584	56	4806
2026-01-02 05:20:03.07	9.81	23.03	-47.0	-49.0	15.3	0.00e+00	0	55	0	566231040	56	4627
2026-01-02 05:20:06.04	9.00	23.10	-47.6	-50.2	13.7	1.50e-06	0	56	0	571473920	56	5321
2026-01-02 05:20:09.00	8.19	23.16	-48.2	-51.3	12.6	6.63e-05	0	55	0	576716800	58	5350
2026-01-02 05:20:11.97	7.38	23.21	-49.7	-55.2	8.5	1.94e-02	0	55	0	583008256	61	7074
2026-01-02 05:20:14.94	6.56	23.26	-50.2	-57.1	6.6	2.10e-01	0	55	0	588251136	62	8353
2026-01-02 05:20:17.91	5.74	23.30	-49.7	-55.1	8.6	4.47e-02	0	56	0	593494016	61	6978
2026-01-02 05:20:20.88	4.92	23.34	-49.6	-54.6	9.0	1.55e-02	0	56	0	598736896	61	6620
2026-01-02 05:20:23.83	4.10	23.37	-49.9	-56.0	7.6	9.70e-02	0	56	0	605028352	61	7785
2026-01-02 05:20:26.79	3.28	23.39	-50.0	-55.6	8.2	6.42e-02	0	56	0	610271232	61	7418
2026-01-02 05:20:29.76	2.46	23.41	-49.0	-52.6	11.6	2.01e-03	0	56	0	615514112	61	5275
2026-01-02 05:20:32.73	1.63	23.42	-48.5	-51.1	13.7	1.14e-05	0	56	0	621805568	59	4975
2026-01-02 05:20:35.69	0.81	23.42	-49.1	-52.2	12.8	6.10e-05	0	56	0	627048448	60	5300
2026-01-02 05:20:38.66	359.98	23.42	-49.0	-52.0	13.0	6.10e-05	0	56	0	632291328	60	5161
2026-01-02 05:20:41.62	359.16	23.41	-47.8	-50.0	15.0	0.00e+00	0	56	0	638582784	58	4628
2026-01-02 05:20:44.59	358.33	23.39	-47.5	-49.6	15.5	0.00e+00	0	56	0	643825664	57	4656
2026-01-02 05:20:47.56	357.51	23.37	-47.1	-49.1	15.8	0.00e+00	0	56	0	649068544	57	4394
2026-01-02 05:20:50.53	356.68	23.34	-46.6	-48.4	16.6	0.00e+00	0	56	0	654311424	56	4302
2026-01-02 05:20:53.50	355.86	23.31	-47.0	-48.8	16.2	0.00e+00	0	56	0	660602880	56	4509
2026-01-02 05:20:56.46	355.05	23.27	-47.3	-49.3	15.8	0.00e+00	0	56	0	665845760	56	4773
2026-01-02 05:20:59.45	354.22	23.22	-47.7	-49.8	15.2	0.00e+00	0	56	0	671088640	57	4792
2026-01-02 05:21:02.41	353.41	23.17	-47.9	-50.2	14.8	0.00e+00	0	56	0	677380096	57	5003
2026-01-02 05:21:05.37	352.60	23.11	-47.9	-50.1	14.9	0.00e+00	0	56	0	682622976	57	4962
2026-01-02 05:21:08.34	351.79	23.05	-47.5	-49.5	15.5	0.00e+00	0	56	0	687865856	58	4364
2026-01-02 05:21:11.30	350.99	22.97	-46.4	-48.0	16.9	0.00e+00	0	56	0	694157312	56	4120
2026-01-02 05:21:14.27	350.19	22.90	-47.0	-48.7	16.3	0.00e+00	0	56	0	699400192	56	4470
2026-01-02 05:21:17.23	349.40	22.81	-46.8	-48.5	16.5	0.00e+00	0	56	0	704643072	56	4356
2026-01-02 05:21:20.19	348.61	22.73	-46.3	-47.9	17.0	0.00e+00	0	56	0	709885952	55	4328
2026-01-02 05:21:23.15	347.82	22.63	-46.8	-48.6	16.3	0.00e+00	0	56	0	716177408	55	4652
2026-01-02 05:21:26.12	347.04	22.53	-47.5	-49.5	15.5	0.00e+00	0	56	0	721420288	57	4604
2026-01-02 05:21:29.07	346.27	22.43	-47.4	-49.4	15.6	0.00e+00	0	56	0	726663168	57	4587
2026-01-02 05:21:32.03	345.50	22.32	-47.0	-48.8	16.2	0.00e+00	0	56	0	732954624	57	4270
2026-01-02 05:21:35.00	344.73	22.21	-47.2	-49.1	15.9	0.00e+00	0	56	0	738197504	56	4657
2026-01-02 05:21:37.98	343.97	22.09	-47.2	-49.1	15.8	0.00e+00	0	56	0	743440384	57	4432
2026-01-02 05:21:40.93	343.22	21.96	-47.7	-49.9	15.0	0.00e+00	0	56	0	749731840	57	4832
2026-01-02 05:21:43.89	342.47	21.83	-47.9	-50.2	14.8	7.00e-07	0	56	0	754974720	57	5020
2026-01-02 05:21:46.85	341.73	21.70	-47.6	-49.7	15.2	7.00e-07	0	56	0	760217600	58	4481
2026-01-02 05:21:49.83	340.99	21.56	-47.4	-49.4	15.5	0.00e+00	0	56	0	765460480	57	4571
2026-01-02 05:21:52.79	340.26	21.42	-47.3	-49.4	15.5	0.00e+00	0	56	0	771751936	57	4556
2026-01-02 05:21:55.75	339.54	21.27	-47.3	-49.4	15.4	0.00e+00	0	56	0	776994816	57	4569
2026-01-02 05:21:58.73	338.83	21.12	-47.8	-50.2	14.5	0.00e+00	0	56	0	782237696	57	5001
2026-01-02 05:22:01.70	338.12	20.97	-48.4	-51.2	13.4	5.30e-06	0	56	0	788529152	58	5308
2026-01-02 05:22:04.66	337.42	20.81	-49.3	-53.1	11.3	7.23e-04	0	56	0	793772032	60	5869
2026-01-02 05:22:07.62	336.73	20.65	-49.5	-53.7	10.5	6.60e-03	0	56	0	799014912	61	5961
2026-01-02 05:22:10.60	336.04	20.49	-49.1	-52.9	11.4	1.57e-03	0	56	0	805306368	61	5449
2026-01-02 05:22:13.56	335.36	20.32	-49.1	-52.7	11.8	6.12e-04	0	56	0	810549248	60	5618
2026-01-02 05:22:16.52	334.69	20.15	-49.4	-53.4	11.0	1.42e-03	0	56	0	815792128	60	6102
2026-01-02 05:22:19.47	334.03	19.98	-48.8	-52.2	12.3	2.70e-04	0	56	0	821035008	60	5335
2026-01-02 05:22:22.43	333.38	19.80	-49.2	-52.8	11.9	5.24e-04	0	57	0	827326464	60	5685
2026-01-02 05:22:25.40	332.73	19.62	-49.1	-52.4	12.6	1.22e-04	0	56	0	832569344	60	5416
2026-01-02 05:22:28.35	332.09	19.44	-48.9	-51.8	13.2	4.04e-05	0	56	0	837812224	60	5064
2026-01-02 05:22:31.31	331.46	19.26	-48.5	-51.1	13.9	4.50e-06	0	56	0	844103680	60	4667
2026-01-02 05:22:34.26	330.84	19.07	-48.3	-50.6	14.5	3.00e-06	0	56	0	849346560	59	4699
2026-01-02 05:22:37.23	330.22	18.88	-47.1	-48.9	16.1	0.00e+00	0	56	0	854589440	57	4334
2026-01-02 05:22:40.19	329.61	18.69	-47.4	-49.4	15.6	0.00e+00	0	56	0	860880896	56	4866
2026-01-02 05:22:43.16	329.01	18.50	-48.3	-50.8	14.2	0.00e+00	0	56	0	866123776	58	5068
2026-01-02 05:22:46.13	328.42	18.31	-48.4	-51.1	13.9	3.00e-06	0	56	0	871366656	59	4947
2026-01-02 05:22:49.09	327.83	18.11	-48.6	-51.3	13.7	3.00e-06	0	57	0	877658112	59	5060
2026-01-02 05:22:52.07	327.25	17.92	-48.0	-50.3	14.7	7.00e-07	0	56	0	882900992	59	4530
2026-01-02 05:22:55.03	326.68	17.72	-47.2	-49.2	15.7	0.00e+00	0	56	0	888143872	57	4473
2026-01-02 05:22:58.00	326.12	17.52	-47.0	-48.8	16.1	0.00e+00	0	56	0	893386752	57	4276
2026-01-02 05:23:00.96	325.56	17.32	-48.0	-50.3	14.7	0.00e+00	0	56	0	899678208	57	5050
2026-01-02 05:23:03.92	325.01	17.12	-47.3	-49.3	15.6	0.00e+00	0	57	0	904921088	57	4535
2026-01-02 05:23:06.88	324.47	16.91	-47.2	-49.1	15.8	0.00e+00	0	57	0	910163968	57	4412
2026-01-02 05:23:09.85	323.94	16.71	-47.5	-49.6	15.4	0.00e+00	0	57	0	916455424	57	4683
2026-01-02 05:23:12.80	323.41	16.51	-47.6	-49.7	15.2	0.00e+00	0	56	0	921698304	57	4753
2026-01-02 05:23:15.76	322.90	16.30	-47.3	-49.3	15.7	0.00e+00	0	57	0	926941184	57	4509
2026-01-02 05:23:18.72	322.39	16.10	-47.3	-49.3	15.7	0.00e+00	0	57	0	932184064	57	4511
2026-01-02 05:23:21.68	321.88	15.89	-46.5	-48.3	16.6	0.00e+00	0	57	0	938475520	56	4260
2026-01-02 05:23:24.65	321.38	15.68	-46.7	-48.5	16.5	0.00e+00	0	57	0	943718400	56	4352
2026-01-02 05:23:27.63	320.89	15.47	-46.6	-48.3	16.6	0.00e+00	0	57	0	948961280	56	4262
2026-01-02 05:23:30.60	320.40	15.27	-46.5	-48.1	16.7	0.00e+00	0	57	0	955252736	55	4402
2026-01-02 05:23:33.57	319.93	15.06	-46.2	-47.8	17.0	0.00e+00	0	57	0	960495616	54	4503
2026-01-02 05:23:36.54	319.46	14.85	-46.6	-48.3	16.6	0.00e+00	0	57	0	965738496	54	4774
2026-01-02 05:23:39.50	318.99	14.64	-47.0	-48.9	16.0	0.00e+00	0	57	0	972029952	55	4818
2026-01-02 05:23:42.48	318.53	14.43	-46.6	-48.4	16.4	0.00e+00	0	57	0	977272832	55	4550
2026-01-02 05:23:45.45	318.08	14.22	-46.6	-48.2	16.6	0.00e+00	0	56	0	982515712	55	4476
2026-01-02 05:23:48.42	317.64	14.01	-46.5	-48.1	16.6	0.00e+00	0	57	0	988807168	55	4428
2026-01-02 05:23:51.39	317.20	13.81	-46.8	-48.6	16.1	0.00e+00	0	57	0	994050048	55	4683
2026-01-02 05:23:54.35	316.77	13.60	-47.4	-49.4	15.3	0.00e+00	0	57	0	999292928	57	4598
2026-01-02 05:23:57.31	316.34	13.39	-47.2	-49.2	15.6	0.00e+00	0	57	0	1004535808	57	4478
2026-01-02 05:24:00.28	315.92	13.18	-47.6	-49.8	15.1	0.00e+00	0	57	0	1010827264	57	4765
2026-01-02 05:24:03.23	315.51	12.98	-46.9	-48.7	16.2	0.00e+00	0	57	0	1016070144	56	4472
2026-01-02 05:24:06.20	315.10	12.77	-46.8	-48.6	16.2	0.00e+00	0	57	0	1021313024	56	4418
2026-01-02 05:24:09.16	314.70	12.56	-46.3	-47.9	16.9	0.00e+00	0	57	0	1027604480	55	4298
2026-01-02 05:24:12.13	314.30	12.35	-46.8	-48.7	16.1	0.00e+00	0	57	0	1032847360	55	4712
2026-01-02 05:24:15.09	313.91	12.15	-47.6	-49.8	15.1	0.00e+00	0	57	0	1038090240	57	4765
2026-01-02 05:24:18.06	313.53	11.94	-47.6	-49.7	15.1	0.00e+00	0	57	0	1044381696	57	4755
2026-01-02 05:24:21.03	313.15	11.74	-47.2	-49.2	15.7	0.00e+00	0	57	0	1049624576	57	4462
2026-01-02 05:24:24.01	312.77	11.53	-46.8	-48.6	16.2	0.00e+00	0	57	0	1054867456	56	4417
2026-01-02 05:24:26.98	312.40	11.33	-47.1	-49.0	15.8	0.00e+00	0	57	0	1060110336	56	4619
2026-01-02 05:24:29.94	312.04	11.12	-47.1	-49.1	15.7	0.00e+00	0	57	0	1066401792	56	4672
2026-01-02 05:24:32.89	311.68	10.92	-47.4	-49.4	15.4	0.00e+00	0	57	0	1071644672	56	4830
2026-01-02 05:24:35.85	311.33	10.72	-47.4	-49.5	15.3	0.00e+00	0	57	0	1076887552	56	4878
2026-01-02 05:24:38.82	310.98	10.52	-47.9	-50.3	14.5	1.50e-06	0	57	0	1083179008	57	5042
2026-01-02 05:24:41.79	310.64	10.31	-48.0	-50.5	14.3	7.00e-07	0	57	0	1088421888	58	4883
2026-01-02 05:24:44.74	310.30	10.11	-48.2	-50.7	14.1	3.80e-06	0	57	0	1093664768	58	5014
2026-01-02 05:24:47.71	309.97	9.91	-48.1	-50.6	14.2	1.50e-06	0	57	0	1099956224	58	4930
2026-01-02 05:24:50.69	309.64	9.71	-48.5	-51.2	13.5	3.80e-06	0	57	0	1105199104	58	5338
2026-01-02 05:24:53.66	309.31	9.51	-48.3	-51.7	13.0	4.34e-05	0	57	0	1110441984	58	5627
2026-01-02 05:24:56.63	308.99	9.32	-48.4	-51.0	13.7	9.10e-06	0	57	0	1116733440	58	5184
2026-01-02 05:24:59.60	308.67	9.12	-48.4	-51.0	13.7	3.80e-06	0	57	0	1121976320	58	5215
2026-01-02 05:25:02.56	308.36	8.92	-47.7	-50.1	14.7	0.00e+00	0	57	0	1127219200	58	4652
2026-01-02 05:25:05.53	308.06	8.73	-45.3	-49.7	14.7	0.00e+00	0	57	0	1132462080	53	5931
2026-01-02 05:25:08.50	307.75	8.53	-46.8	-50.0	14.5	7.00e-07	0	57	0	1138753536	55	5480
2026-01-02 05:25:11.47	307.45	8.33	-47.9	-50.4	14.2	1.50e-06	0	57	0	1143996416	57	5125
2026-01-02 05:25:14.44	307.16	8.14	-48.2	-50.8	13.7	2.20e-06	0	57	0	1149239296	58	5081
2026-01-02 05:25:17.41	306.87	7.95	-48.3	-51.0	13.5	3.00e-06	0	57	0	1155530752	58	5204
2026-01-02 05:25:20.36	306.58	7.76	-47.9	-50.4	14.0	5.30e-06	0	57	0	1160773632	57	5144
2026-01-02 05:25:23.33	306.30	7.56	-47.9	-50.5	13.9	2.20e-06	0	57	0	1166016512	57	5171
2026-01-02 05:25:26.30	306.02	7.37	-48.0	-50.8	13.5	7.60e-06	0	57	0	1172307968	58	5060
2026-01-02 05:25:29.26	305.74	7.18	-48.4	-51.4	12.8	4.19e-05	0	57	0	1177550848	58	5423
2026-01-02 05:25:32.23	305.47	6.99	-48.7	-52.0	12.1	2.39e-04	0	57	0	1182793728	59	5489
2026-01-02 05:25:35.19	305.21	6.81	-49.0	-52.7	11.4	8.24e-04	0	57	0	1189085184	59	5954
2026-01-02 05:25:38.16	304.94	6.62	-49.1	-53.1	10.8	2.91e-03	0	57	0	1194328064	60	5920
2026-01-02 05:25:41.13	304.68	6.43	-49.3	-53.6	10.3	5.04e-03	0	57	0	1199570944	60	6247
2026-01-02 05:25:44.10	304.42	6.25	-49.4	-54.0	9.8	9.90e-03	0	57	0	1204813824	60	6519
2026-01-02 05:25:47.06	304.17	6.06	-49.5	-54.3	9.4	1.30e-02	0	57	0	1211105280	60	6768
2026-01-02 05:25:50.01	303.92	5.88	-49.4	-54.2	9.4	1.65e-02	0	57	0	1216348160	60	6655
2026-01-02 05:25:52.97	303.67	5.69	-49.4	-54.5	9.1	2.41e-02	0	57	0	1221591040	60	6895
2026-01-02 05:25:55.93	303.43	5.51	-49.4	-54.5	9.0	2.94e-02	0	57	0	1227882496	60	6897
2026-01-02 05:25:58.88	303.19	5.33	-49.4	-54.9	8.5	3.75e-02	0	57	0	1233125376	60	7216
2026-01-02 05:26:01.84	302.95	5.15	-49.5	-55.4	7.9	5.96e-02	0	57	0	1238368256	60	7632
2026-01-02 05:26:04.81	302.72	4.97	-51.4	-65.2	3.8	1.49e+00	0	57	104	1242562560	64	18932
2026-01-02 05:26:07.79	302.48	4.79	-50.4	-64.2	3.8	1.49e+00	0	57	104	1242562560	64	16851
2026-01-02 05:26:10.75	302.25	4.61	-52.2	-66.2	3.8	1.49e+00	0	57	104	1242562560	66	18801
2026-01-02 05:26:13.73	302.03	4.43	-52.5	-66.3	3.8	1.49e+00	0	57	104	1242562560	66	19125
2026-01-02 05:26:16.70	301.80	4.25	-52.5	-66.4	3.8	1.49e+00	0	57	104	1242562560	67	18243
2026-01-02 05:26:19.67	301.58	4.07	-52.6	-66.5	3.8	1.49e+00	0	57	104	1242562560	67	18350
2026-01-02 05:26:22.64	301.37	3.90	-52.7	-66.5	3.8	1.49e+00	0	57	104	1242562560	67	18372
2026-01-02 05:26:25.61	301.15	3.72	-52.7	-66.5	3.8	1.49e+00	0	57	104	1242562560	67	18436
2026-01-02 05:26:28.58	300.94	3.55	-52.7	-66.6	3.8	1.49e+00	0	57	104	1242562560	67	18530
2026-01-02 05:26:31.54	300.73	3.37	-52.6	-66.5	3.8	1.49e+00	0	57	104	1242562560	67	18440
2026-01-02 05:26:34.51	300.52	3.20	-52.7	-66.5	3.8	1.49e+00	0	57	104	1242562560	67	18442
2026-01-02 05:26:37.48	300.32	3.03	-52.7	-66.5	3.8	1.49e+00	0	57	104	1242562560	67	18510

#Closed at: 2026-01-02 05:26:40
#Recorded file [1242 MB]: D:/Data/31026_260102_082604.dat