passes_logs/2026/01/02/R3.0SM8_Murmansk_STILSPACE/R3.0SM8_Murmansk_STILSPACE__20260102_133222_AQUA_rec.log

#Pass ID: 20260102_133222_AQUA
#Satellite: AQUA
#Configuration: AQUA
#almurnet v.1.7.20240730
#Start time: 2026-01-02 13:32:23

#Version: 2.2.20231116
#Station: R3.0SM8_Murmansk_STILSPACE
#Location: 33.092731 lon 68.902999 lat
#TLE: 1 27424U 02022A   25365.92641127  .00002078  00000+0  42628-3 0  9999
#TLE: 2 27424  98.4058 327.1196 0001962  94.7781 340.6230 14.61783896258835

#Time	Az	El	Level	Level2	SNR	BER	BlckErr	Temp	State	Recorded	gain1	gain2
2026-01-02 13:32:23.50	214.38	3.06	-54.5	-74.4	3.8	7.43e-01	0	46	0	0	71	37336
2026-01-02 13:32:26.47	214.64	3.23	-54.0	-73.9	3.8	7.47e-01	0	46	104	0	71	35099
2026-01-02 13:32:29.42	214.90	3.40	-53.2	-72.9	3.8	7.47e-01	0	47	104	0	70	32995
2026-01-02 13:32:32.38	215.17	3.58	-53.1	-71.7	3.8	7.47e-01	0	47	104	0	69	30650
2026-01-02 13:32:35.35	215.44	3.75	-53.2	-72.2	3.8	7.44e-01	0	47	104	0	69	32280
2026-01-02 13:32:38.31	215.71	3.93	-53.2	-72.9	3.8	7.43e-01	0	47	104	0	69	35265
2026-01-02 13:32:41.26	215.98	4.11	-53.2	-73.0	3.8	7.46e-01	0	47	104	0	69	35422
2026-01-02 13:32:44.23	216.26	4.28	-53.1	-71.9	3.8	7.46e-01	0	48	104	0	69	31151
2026-01-02 13:32:47.20	216.54	4.46	-53.0	-66.4	5.6	6.90e-01	0	48	0	0	69	16597
2026-01-02 13:32:50.16	216.83	4.64	-52.7	-62.7	9.0	6.34e-01	1	48	0	5242880	69	10840
2026-01-02 13:32:53.12	217.12	4.82	-52.5	-61.1	10.7	6.22e-01	0	48	0	11010048	68	9556
2026-01-02 13:32:56.09	217.41	5.00	-51.9	-58.7	13.2	6.10e-01	0	48	0	16252928	67	7649
2026-01-02 13:32:59.05	217.71	5.18	-51.8	-58.2	13.8	6.09e-01	0	49	0	22020096	66	7662
2026-01-02 13:33:02.01	218.01	5.37	-51.3	-56.7	15.2	6.08e-01	0	49	0	27787264	66	6484
2026-01-02 13:33:04.97	218.31	5.55	-50.9	-55.3	16.6	6.07e-01	0	49	0	33030144	65	5814
2026-01-02 13:33:07.94	218.62	5.73	-50.8	-55.1	16.9	6.07e-01	0	49	0	38797312	65	5673
2026-01-02 13:33:10.91	218.94	5.92	-50.7	-54.8	17.2	6.05e-01	0	49	0	44040192	64	5799
2026-01-02 13:33:13.88	219.26	6.11	-50.6	-54.6	17.4	6.08e-01	0	49	0	49807360	64	5697
2026-01-02 13:33:16.84	219.58	6.29	-50.6	-54.5	17.6	6.08e-01	0	50	0	55050240	64	5593
2026-01-02 13:33:19.81	219.90	6.48	-50.6	-54.6	17.4	6.05e-01	0	50	0	60817408	64	5705
2026-01-02 13:33:22.76	220.23	6.67	-50.7	-54.7	17.3	6.05e-01	0	50	0	66584576	64	5753
2026-01-02 13:33:25.73	220.57	6.86	-50.6	-54.6	17.4	6.06e-01	0	50	0	71827456	64	5700
2026-01-02 13:33:28.70	220.91	7.05	-50.7	-54.8	17.2	6.06e-01	0	50	0	77594624	64	5830
2026-01-02 13:33:31.67	221.25	7.24	-50.6	-54.4	17.6	6.07e-01	0	50	0	83361792	64	5591
2026-01-02 13:33:34.64	221.60	7.43	-50.8	-54.9	17.2	6.08e-01	0	50	0	88604672	64	5895
2026-01-02 13:33:37.61	221.96	7.62	-50.9	-55.1	16.9	6.08e-01	0	51	0	94371840	64	6047
2026-01-02 13:33:40.58	222.32	7.82	-50.9	-55.2	16.8	6.06e-01	0	51	0	99614720	64	6097
2026-01-02 13:33:43.54	222.68	8.01	-50.8	-55.1	16.9	6.07e-01	0	51	0	105381888	64	6009
2026-01-02 13:33:46.50	223.05	8.20	-50.8	-55.0	17.0	6.08e-01	0	51	0	110624768	64	5986
2026-01-02 13:33:49.47	223.42	8.40	-50.8	-54.9	17.2	6.07e-01	0	51	0	116391936	64	5895
2026-01-02 13:33:52.44	223.80	8.59	-50.8	-55.0	17.1	6.07e-01	0	51	0	122159104	64	5928
2026-01-02 13:33:55.40	224.19	8.79	-50.9	-55.1	17.0	6.07e-01	0	51	0	127401984	64	6002
2026-01-02 13:33:58.36	224.58	8.99	-50.9	-55.2	16.8	6.07e-01	0	51	0	133169152	64	6118
2026-01-02 13:34:01.33	224.97	9.19	-50.7	-54.8	17.3	6.03e-01	0	51	0	138936320	64	5826
2026-01-02 13:34:04.30	225.37	9.38	-50.8	-54.8	17.3	6.06e-01	0	51	0	144179200	64	5832
2026-01-02 13:34:07.26	225.78	9.58	-50.6	-54.5	17.6	6.08e-01	0	52	0	149946368	64	5616
2026-01-02 13:34:10.22	226.19	9.78	-50.7	-54.7	17.4	6.06e-01	0	52	0	155189248	64	5755
2026-01-02 13:34:13.19	226.61	9.98	-50.5	-54.1	18.0	6.06e-01	0	52	0	160956416	64	5399
2026-01-02 13:34:16.14	227.03	10.18	-50.4	-54.1	18.1	6.06e-01	0	52	0	166723584	64	5348
2026-01-02 13:34:19.11	227.47	10.38	-50.4	-54.1	18.1	6.07e-01	0	52	0	171966464	64	5347
2026-01-02 13:34:22.08	227.90	10.59	-50.7	-54.5	17.8	6.07e-01	0	52	0	177733632	64	5607
2026-01-02 13:34:25.06	228.35	10.79	-50.7	-54.6	17.7	6.07e-01	0	52	0	183500800	64	5693
2026-01-02 13:34:28.04	228.80	10.99	-50.5	-54.1	18.2	6.05e-01	0	52	0	188743680	64	5380
2026-01-02 13:34:30.98	229.26	11.19	-50.8	-54.6	17.7	6.08e-01	0	53	0	194510848	64	5685
2026-01-02 13:34:33.96	229.72	11.40	-50.0	-53.1	19.3	6.06e-01	0	52	0	199753728	63	5048
2026-01-02 13:34:36.92	230.19	11.60	-49.6	-52.4	19.9	6.07e-01	0	53	0	205520896	62	4971
2026-01-02 13:34:39.89	230.67	11.80	-49.7	-52.4	20.0	6.06e-01	0	53	0	210763776	62	4980
2026-01-02 13:34:42.85	231.15	12.01	-49.4	-52.0	20.4	6.08e-01	0	53	0	216530944	62	4741
2026-01-02 13:34:45.81	231.64	12.21	-49.4	-52.0	20.5	6.06e-01	0	53	0	222298112	62	4725
2026-01-02 13:34:48.77	232.14	12.41	-49.4	-52.0	20.6	6.06e-01	0	53	0	227540992	62	4718
2026-01-02 13:34:51.72	232.64	12.62	-49.3	-51.7	20.8	6.06e-01	0	53	0	233308160	62	4577
2026-01-02 13:34:54.69	233.15	12.82	-49.0	-51.3	21.3	6.05e-01	0	53	0	238551040	61	4634
2026-01-02 13:34:57.66	233.67	13.03	-49.0	-51.2	21.4	6.06e-01	0	53	0	244318208	61	4597
2026-01-02 13:35:00.63	234.20	13.23	-49.0	-51.2	21.5	6.09e-01	0	53	0	250085376	61	4578
2026-01-02 13:35:03.60	234.74	13.43	-49.1	-51.4	21.3	6.05e-01	0	53	0	255328256	61	4680
2026-01-02 13:35:06.56	235.28	13.64	-49.2	-51.4	21.3	6.09e-01	0	53	0	261095424	61	4701
2026-01-02 13:35:09.52	235.83	13.84	-49.4	-51.7	21.1	6.05e-01	0	53	0	266338304	61	4844
2026-01-02 13:35:12.50	236.39	14.04	-49.1	-51.3	21.6	6.07e-01	0	53	0	272105472	61	4605
2026-01-02 13:35:15.46	236.96	14.24	-49.0	-51.2	21.7	6.07e-01	0	53	0	277872640	61	4559
2026-01-02 13:35:18.44	237.53	14.45	-49.2	-51.4	21.5	6.06e-01	0	54	0	283115520	61	4704
2026-01-02 13:35:21.41	238.12	14.65	-48.8	-50.8	22.2	6.06e-01	0	54	0	288882688	61	4348
2026-01-02 13:35:24.38	238.71	14.85	-48.6	-50.5	22.4	6.05e-01	0	54	0	294649856	60	4483
2026-01-02 13:35:27.34	239.31	15.05	-48.6	-50.6	22.4	6.08e-01	0	54	0	299892736	60	4496
2026-01-02 13:35:30.31	239.91	15.24	-48.7	-50.6	22.4	6.06e-01	0	54	0	305659904	60	4540
2026-01-02 13:35:33.28	240.53	15.44	-48.7	-50.6	22.4	6.09e-01	0	54	0	310902784	60	4529
2026-01-02 13:35:36.25	241.15	15.64	-48.6	-50.6	22.5	6.07e-01	0	54	0	316669952	60	4494
2026-01-02 13:35:39.22	241.79	15.83	-48.9	-50.9	22.2	6.07e-01	0	54	0	322437120	60	4663
2026-01-02 13:35:42.17	242.43	16.02	-48.4	-50.3	22.8	6.05e-01	0	54	0	327680000	60	4349
2026-01-02 13:35:45.14	243.08	16.21	-48.4	-50.3	22.8	6.04e-01	0	54	0	333447168	60	4346
2026-01-02 13:35:48.11	243.74	16.40	-48.6	-50.5	22.6	6.06e-01	0	54	0	339214336	60	4452
2026-01-02 13:35:51.07	244.40	16.59	-48.7	-50.6	22.5	6.06e-01	0	54	0	344457216	60	4519
2026-01-02 13:35:54.04	245.08	16.77	-48.8	-50.7	22.4	6.08e-01	0	54	0	350224384	60	4579
2026-01-02 13:35:57.01	245.76	16.96	-48.7	-50.6	22.5	6.05e-01	0	54	0	355467264	60	4501
2026-01-02 13:35:59.98	246.46	17.14	-49.1	-51.2	21.9	6.07e-01	0	54	0	361234432	60	4847
2026-01-02 13:36:02.96	247.16	17.32	-48.4	-50.2	22.9	6.07e-01	0	54	0	367001600	60	4331
2026-01-02 13:36:05.92	247.87	17.49	-48.5	-50.3	22.7	6.06e-01	0	54	0	372244480	60	4371
2026-01-02 13:36:08.89	248.59	17.67	-48.6	-50.5	22.6	6.07e-01	0	54	0	378011648	60	4450
2026-01-02 13:36:11.86	249.32	17.84	-48.4	-50.2	22.9	6.06e-01	0	54	0	383254528	60	4299
2026-01-02 13:36:14.82	250.05	18.00	-48.6	-50.5	22.6	6.07e-01	0	54	0	389021696	60	4491
2026-01-02 13:36:17.80	250.80	18.17	-48.7	-50.7	22.4	6.05e-01	0	54	0	394788864	60	4554
2026-01-02 13:36:20.78	251.55	18.33	-48.8	-50.7	22.4	6.07e-01	0	54	0	400031744	60	4595
2026-01-02 13:36:23.74	252.31	18.48	-48.8	-50.7	22.4	6.05e-01	0	55	0	405798912	60	4581
2026-01-02 13:36:26.72	253.08	18.64	-48.6	-50.5	22.6	6.05e-01	0	55	0	411566080	60	4467
2026-01-02 13:36:29.67	253.85	18.79	-48.6	-50.4	22.7	6.07e-01	0	55	0	416808960	60	4432
2026-01-02 13:36:32.63	254.63	18.93	-48.6	-50.5	22.6	6.08e-01	0	55	0	422576128	60	4450
2026-01-02 13:36:35.60	255.43	19.07	-48.6	-50.5	22.6	6.06e-01	0	55	0	427819008	60	4465
2026-01-02 13:36:38.56	256.22	19.21	-48.9	-50.9	22.3	6.07e-01	0	55	0	433586176	60	4691
2026-01-02 13:36:41.51	257.02	19.34	-49.1	-51.2	22.0	6.07e-01	0	55	0	439353344	60	4819
2026-01-02 13:36:44.48	257.84	19.47	-49.2	-51.3	21.8	6.06e-01	0	55	0	444596224	60	4918
2026-01-02 13:36:47.46	258.66	19.59	-49.0	-51.1	22.1	6.08e-01	0	55	0	450363392	60	4770
2026-01-02 13:36:50.42	259.49	19.71	-49.0	-51.1	22.0	6.08e-01	0	55	0	455606272	60	4779
2026-01-02 13:36:53.39	260.32	19.82	-48.7	-50.6	22.6	6.06e-01	0	55	0	461373440	60	4511
2026-01-02 13:36:56.36	261.16	19.93	-48.6	-50.5	22.6	6.05e-01	0	55	0	467140608	60	4472
2026-01-02 13:36:59.33	262.01	20.03	-49.0	-51.0	22.1	6.05e-01	0	55	0	472383488	60	4758
2026-01-02 13:37:02.30	262.86	20.13	-48.6	-50.4	22.7	6.08e-01	0	55	0	478150656	60	4437
2026-01-02 13:37:05.25	263.71	20.22	-48.6	-50.5	22.7	6.06e-01	0	55	0	483393536	60	4451
2026-01-02 13:37:08.22	264.57	20.31	-48.9	-50.9	22.2	6.03e-01	0	55	0	489160704	60	4692
2026-01-02 13:37:11.20	265.44	20.39	-48.7	-50.6	22.6	6.05e-01	0	55	0	494927872	60	4499
2026-01-02 13:37:14.17	266.31	20.46	-48.9	-50.9	22.3	6.03e-01	0	55	0	500170752	60	4658
2026-01-02 13:37:17.13	267.18	20.53	-48.7	-50.6	22.5	6.03e-01	0	55	0	505937920	60	4518
2026-01-02 13:37:20.09	268.06	20.59	-48.9	-50.9	22.3	6.03e-01	0	55	0	511180800	60	4696
2026-01-02 13:37:23.05	268.94	20.64	-49.1	-51.1	22.0	6.03e-01	0	55	0	516947968	60	4813
2026-01-02 13:37:26.02	269.82	20.69	-49.0	-51.1	22.1	6.03e-01	0	56	0	522715136	60	4773
2026-01-02 13:37:28.99	270.71	20.73	-48.9	-50.8	22.3	6.03e-01	0	55	0	527958016	60	4651
2026-01-02 13:37:31.94	271.60	20.77	-49.0	-51.0	22.1	6.03e-01	0	56	0	533725184	60	4755
2026-01-02 13:37:34.89	272.48	20.80	-49.1	-51.1	22.1	6.04e-01	0	55	0	538968064	60	4783
2026-01-02 13:37:37.86	273.38	20.82	-49.3	-51.4	21.8	6.04e-01	0	56	0	544735232	60	4974
2026-01-02 13:37:40.82	274.27	20.83	-48.9	-50.8	22.3	6.03e-01	0	55	0	550502400	60	4642
2026-01-02 13:37:43.79	275.16	20.84	-48.9	-50.8	22.4	6.03e-01	0	56	0	555745280	60	4634
2026-01-02 13:37:46.75	276.05	20.85	-48.9	-50.9	22.3	6.02e-01	0	56	0	561512448	61	4395
2026-01-02 13:37:49.73	276.95	20.84	-48.7	-50.6	22.6	6.03e-01	0	56	0	566755328	60	4499
2026-01-02 13:37:52.70	277.85	20.83	-48.7	-50.6	22.6	6.04e-01	0	56	0	572522496	60	4495
2026-01-02 13:37:55.66	278.74	20.81	-48.7	-50.6	22.6	6.02e-01	0	56	0	578289664	60	4514
2026-01-02 13:37:58.63	279.63	20.79	-48.7	-50.7	22.5	6.01e-01	0	56	0	583532544	60	4546
2026-01-02 13:38:01.61	280.52	20.76	-48.8	-50.7	22.5	6.04e-01	0	56	0	589299712	60	4565
2026-01-02 13:38:04.58	281.41	20.72	-48.8	-50.7	22.4	6.04e-01	0	56	0	595066880	60	4563
2026-01-02 13:38:07.54	282.30	20.67	-49.1	-51.1	21.9	6.04e-01	0	56	0	600309760	60	4810
2026-01-02 13:38:10.50	283.18	20.62	-49.7	-52.2	20.8	6.02e-01	0	56	0	606076928	61	5116
2026-01-02 13:38:13.47	284.06	20.57	-50.3	-53.3	19.4	6.04e-01	0	56	0	611319808	62	5522
2026-01-02 13:38:16.44	284.93	20.50	-50.8	-54.4	18.2	6.03e-01	0	56	0	617086976	63	5860
2026-01-02 13:38:19.41	285.80	20.43	-51.2	-55.7	16.5	6.04e-01	0	56	0	622854144	64	6494
2026-01-02 13:38:22.38	286.67	20.36	-51.5	-56.5	15.6	6.03e-01	0	56	0	628097024	65	6694
2026-01-02 13:38:25.33	287.53	20.28	-51.8	-57.7	14.4	6.02e-01	0	56	0	633864192	65	7660
2026-01-02 13:38:28.30	288.39	20.19	-51.7	-57.4	14.7	6.05e-01	0	56	0	639107072	66	6996
2026-01-02 13:38:31.26	289.24	20.09	-51.6	-57.4	14.5	6.04e-01	0	56	0	644874240	66	7005
2026-01-02 13:38:34.23	290.09	20.00	-51.6	-57.7	14.1	6.07e-01	0	56	0	650641408	66	7227
2026-01-02 13:38:37.20	290.93	19.89	-51.0	-55.7	16.2	6.03e-01	0	56	0	655884288	65	6101
2026-01-02 13:38:40.16	291.76	19.78	-50.6	-54.2	18.0	6.05e-01	0	56	0	661651456	64	5437
2026-01-02 13:38:43.13	292.59	19.67	-50.3	-53.4	19.3	6.02e-01	0	56	0	666894336	64	4955
2026-01-02 13:38:46.10	293.41	19.55	-50.2	-52.9	20.2	6.04e-01	0	56	0	672661504	63	4963
2026-01-02 13:38:49.07	294.23	19.42	-50.0	-52.5	20.6	6.03e-01	0	56	0	678428672	63	4744
2026-01-02 13:38:52.03	295.03	19.29	-50.4	-53.1	20.1	6.05e-01	0	56	0	683671552	63	5087
2026-01-02 13:38:55.00	295.84	19.16	-49.4	-51.6	21.5	6.01e-01	0	56	0	689438720	62	4543
2026-01-02 13:38:57.96	296.63	19.02	-48.5	-50.3	22.7	6.03e-01	0	56	0	694681600	60	4390
2026-01-02 13:39:00.93	297.41	18.88	-48.3	-50.1	23.0	6.05e-01	0	56	0	700448768	60	4273
2026-01-02 13:39:03.90	298.19	18.73	-48.3	-50.1	23.0	6.04e-01	0	56	0	706215936	60	4262
2026-01-02 13:39:06.87	298.96	18.58	-48.5	-50.4	22.7	6.02e-01	0	56	0	711458816	60	4410
2026-01-02 13:39:09.83	299.73	18.43	-48.8	-50.8	22.3	6.02e-01	0	56	0	717225984	60	4619
2026-01-02 13:39:12.81	300.48	18.27	-48.8	-50.8	22.3	6.00e-01	0	56	0	722993152	60	4631
2026-01-02 13:39:15.78	301.23	18.11	-49.0	-51.0	22.1	6.05e-01	0	56	0	728236032	60	4739
2026-01-02 13:39:18.73	301.96	17.95	-48.5	-50.3	23.1	6.00e-01	0	56	0	734003200	59	4626
2026-01-02 13:39:21.69	302.69	17.78	-48.8	-50.6	22.8	6.03e-01	0	56	0	739246080	59	4795
2026-01-02 13:39:24.68	303.42	17.61	-48.6	-50.4	23.0	6.03e-01	0	56	0	745013248	59	4675
2026-01-02 13:39:27.63	304.13	17.44	-48.8	-50.7	22.4	6.04e-01	0	56	0	750780416	60	4596
2026-01-02 13:39:30.59	304.83	17.26	-49.0	-51.1	22.0	6.04e-01	0	56	0	756023296	60	4784
2026-01-02 13:39:33.55	305.52	17.08	-48.6	-50.4	22.6	6.04e-01	0	56	0	761790464	60	4439
2026-01-02 13:39:36.53	306.21	16.90	-48.5	-50.4	22.7	6.03e-01	0	56	0	767033344	60	4401
2026-01-02 13:39:39.49	306.89	16.72	-48.2	-50.0	23.1	6.02e-01	0	56	0	772800512	60	4207
2026-01-02 13:39:42.46	307.56	16.53	-48.6	-50.4	23.0	6.05e-01	0	56	0	778567680	59	4672
2026-01-02 13:39:45.41	308.22	16.35	-48.5	-50.2	23.1	6.04e-01	0	56	0	783810560	59	4588
2026-01-02 13:39:48.38	308.87	16.16	-48.5	-50.3	23.1	6.01e-01	0	56	0	789577728	59	4630
2026-01-02 13:39:51.33	309.51	15.97	-48.6	-50.4	23.0	6.02e-01	0	56	0	794820608	59	4655
2026-01-02 13:39:54.29	310.15	15.78	-48.7	-50.5	22.8	6.04e-01	0	56	0	800587776	59	4739
2026-01-02 13:39:57.26	310.77	15.59	-48.8	-50.7	22.7	6.06e-01	0	56	0	806354944	59	4834
2026-01-02 13:40:00.21	311.39	15.39	-48.8	-50.7	22.3	6.06e-01	0	56	0	811597824	60	4594
2026-01-02 13:40:03.18	312.00	15.20	-48.6	-50.5	22.5	6.03e-01	0	56	0	817364992	60	4483
2026-01-02 13:40:06.16	312.60	15.00	-48.6	-50.5	22.6	6.03e-01	0	56	0	822607872	60	4444
2026-01-02 13:40:09.13	313.20	14.80	-48.4	-50.2	22.7	6.03e-01	0	57	0	828375040	60	4333
2026-01-02 13:40:12.10	313.79	14.60	-48.6	-50.5	22.5	6.03e-01	0	56	0	833617920	60	4442
2026-01-02 13:40:15.07	314.36	14.40	-48.2	-50.0	23.0	6.05e-01	0	56	0	839385088	60	4217
2026-01-02 13:40:18.04	314.93	14.20	-48.7	-50.5	22.8	6.04e-01	0	56	0	845152256	59	4750
2026-01-02 13:40:21.00	315.49	14.00	-48.7	-50.6	22.7	6.04e-01	0	56	0	850395136	59	4781
2026-01-02 13:40:23.98	316.05	13.80	-48.6	-50.5	22.5	6.03e-01	0	56	0	856162304	60	4458
2026-01-02 13:40:26.96	316.60	13.60	-48.4	-50.3	22.6	6.02e-01	0	57	0	861929472	60	4388
2026-01-02 13:40:29.92	317.14	13.40	-48.5	-50.4	22.5	6.01e-01	0	56	0	867172352	60	4424
2026-01-02 13:40:32.89	317.67	13.19	-48.6	-50.5	22.4	6.04e-01	0	56	0	872939520	60	4478
2026-01-02 13:40:35.86	318.19	12.99	-48.6	-50.5	22.4	6.00e-01	0	56	0	878706688	60	4454
2026-01-02 13:40:38.82	318.71	12.79	-48.6	-50.5	22.4	6.05e-01	0	56	0	883949568	60	4488
2026-01-02 13:40:41.77	319.21	12.59	-48.4	-50.3	22.6	6.03e-01	0	56	0	889716736	60	4346
2026-01-02 13:40:44.74	319.71	12.38	-48.4	-50.4	22.4	6.06e-01	0	57	0	894959616	60	4397
2026-01-02 13:40:47.70	320.20	12.18	-48.5	-50.4	22.4	6.07e-01	0	56	0	900726784	60	4421
2026-01-02 13:40:50.66	320.69	11.98	-48.6	-50.6	22.2	6.06e-01	0	56	0	906493952	60	4535
2026-01-02 13:40:53.62	321.17	11.78	-48.8	-50.9	22.0	6.04e-01	0	56	0	911736832	60	4652
2026-01-02 13:40:56.58	321.64	11.58	-49.0	-51.2	21.7	6.01e-01	0	56	0	917504000	60	4817
2026-01-02 13:40:59.54	322.11	11.37	-49.2	-51.4	21.5	6.05e-01	0	56	0	922746880	60	4932
2026-01-02 13:41:02.50	322.57	11.17	-49.0	-51.1	21.7	6.04e-01	0	56	0	928514048	60	4798
2026-01-02 13:41:05.47	323.02	10.97	-48.8	-50.9	21.9	6.03e-01	0	57	0	933756928	60	4695
2026-01-02 13:41:08.42	323.46	10.77	-48.5	-50.5	22.3	6.05e-01	0	57	0	939524096	60	4475
2026-01-02 13:41:11.39	323.90	10.57	-48.9	-51.0	21.8	6.02e-01	0	57	0	945291264	60	4718
2026-01-02 13:41:14.36	324.34	10.37	-48.9	-51.1	21.8	6.05e-01	0	57	0	950534144	60	4775
2026-01-02 13:41:17.32	324.77	10.17	-49.1	-51.3	21.5	6.02e-01	0	57	0	956301312	60	4873
2026-01-02 13:41:20.29	325.19	9.97	-49.3	-51.6	21.2	6.04e-01	0	57	0	961544192	60	5086
2026-01-02 13:41:23.26	325.61	9.77	-49.4	-51.8	20.9	6.04e-01	0	56	0	967311360	61	4920
2026-01-02 13:41:26.22	326.01	9.58	-49.2	-51.4	21.3	6.01e-01	0	56	0	973078528	61	4686
2026-01-02 13:41:29.17	326.42	9.38	-49.1	-51.4	21.3	6.04e-01	0	56	0	978321408	61	4672
2026-01-02 13:41:32.14	326.82	9.18	-49.0	-51.2	21.6	6.03e-01	0	56	0	984088576	61	4547
2026-01-02 13:41:35.11	327.21	8.99	-49.1	-51.3	21.4	6.04e-01	0	57	0	989855744	61	4624
2026-01-02 13:41:38.08	327.60	8.79	-49.2	-51.5	21.2	6.07e-01	0	57	0	995098624	61	4733
2026-01-02 13:41:41.05	327.98	8.59	-49.1	-51.4	21.2	6.06e-01	0	57	0	1000865792	61	4703
2026-01-02 13:41:44.01	328.36	8.40	-49.2	-51.6	21.1	6.04e-01	0	56	0	1006108672	61	4771
2026-01-02 13:41:46.98	328.73	8.21	-49.4	-51.9	20.7	6.03e-01	0	57	0	1011875840	61	4959
2026-01-02 13:41:49.95	329.10	8.01	-49.6	-52.2	20.4	6.04e-01	0	57	0	1017118720	61	5149
2026-01-02 13:41:52.92	329.46	7.82	-49.4	-52.0	20.6	6.06e-01	0	57	0	1022885888	61	4991
2026-01-02 13:41:55.89	329.82	7.63	-49.2	-51.6	21.0	6.03e-01	0	57	0	1028653056	61	4793
2026-01-02 13:41:58.86	330.17	7.44	-49.2	-51.6	20.9	6.03e-01	0	57	0	1033895936	61	4772
2026-01-02 13:42:01.82	330.52	7.25	-49.2	-51.6	20.9	6.02e-01	0	57	0	1039663104	61	4811
2026-01-02 13:42:04.79	330.86	7.06	-49.3	-51.8	20.7	6.07e-01	0	57	0	1045430272	61	4890
2026-01-02 13:42:07.76	331.20	6.87	-49.5	-52.1	20.4	6.04e-01	0	57	0	1050673152	61	5066
2026-01-02 13:42:10.73	331.53	6.68	-49.6	-52.3	20.1	6.05e-01	0	57	0	1056440320	61	5199
2026-01-02 13:42:13.71	331.86	6.50	-49.6	-52.4	20.0	6.03e-01	0	57	0	1062207488	61	5240
2026-01-02 13:42:16.68	332.19	6.31	-49.8	-52.7	19.8	6.07e-01	0	57	0	1067450368	61	5404
2026-01-02 13:42:19.64	332.51	6.13	-49.5	-52.2	20.2	6.03e-01	0	57	0	1073217536	61	5115
2026-01-02 13:42:22.61	332.82	5.94	-49.7	-52.6	19.6	6.04e-01	0	57	0	1078460416	61	5380
2026-01-02 13:42:25.58	333.14	5.76	-49.7	-52.5	19.7	6.05e-01	0	57	0	1084227584	61	5310
2026-01-02 13:42:28.54	333.44	5.58	-49.8	-52.7	19.5	6.05e-01	0	57	0	1089470464	61	5457
2026-01-02 13:42:31.49	333.75	5.39	-49.9	-53.0	19.3	6.03e-01	0	57	0	1095237632	62	5293
2026-01-02 13:42:34.46	334.05	5.21	-50.0	-53.1	19.1	6.05e-01	0	57	0	1101004800	62	5376
2026-01-02 13:42:37.41	334.34	5.03	-53.5	-71.3	3.6	7.47e-01	0	57	104	1106247680	69	29117
2026-01-02 13:42:40.38	334.63	4.85	-54.2	-73.6	3.8	7.45e-01	0	57	104	1106247680	70	35923
2026-01-02 13:42:43.36	334.92	4.67	-54.1	-73.9	3.8	7.44e-01	0	57	104	1106247680	70	37348
2026-01-02 13:42:46.32	335.21	4.50	-54.5	-74.4	3.8	7.45e-01	0	57	104	1106247680	71	37176
2026-01-02 13:42:49.30	335.49	4.32	-54.6	-74.5	3.8	7.47e-01	0	57	104	1106247680	71	37615
2026-01-02 13:42:52.27	335.77	4.14	-54.7	-74.6	3.8	7.43e-01	0	57	104	1106247680	71	37858
2026-01-02 13:42:55.23	336.04	3.97	-54.7	-74.6	3.8	7.46e-01	0	57	104	1106247680	71	38150
2026-01-02 13:42:58.19	336.31	3.79	-54.7	-74.6	3.8	7.46e-01	0	57	104	1106247680	71	38179
2026-01-02 13:43:01.15	336.58	3.62	-54.8	-74.7	3.8	7.44e-01	0	57	104	1106247680	71	38416
2026-01-02 13:43:04.11	336.85	3.45	-54.8	-74.7	3.8	7.43e-01	0	57	104	1106247680	71	38363
2026-01-02 13:43:07.09	337.11	3.27	-54.7	-74.7	3.8	7.44e-01	0	57	104	1106247680	71	38296
2026-01-02 13:43:10.05	337.37	3.10	-54.7	-74.7	3.8	7.41e-01	0	57	104	1106247680	71	38283
2026-01-02 13:43:13.01	337.62	2.93	-54.7	-74.6	3.8	7.44e-01	0	57	104	1106247680	71	38234

#Closed at: 2026-01-02 13:43:13
#Recorded file [1106 MB]: D:/Data/31026_260102_164237.dat