passes_logs/2026/01/02/R3.0SM8_Murmansk_STILSPACE/R3.0SM8_Murmansk_STILSPACE__20260102_021251_AQUA_rec.log

#Pass ID: 20260102_021251_AQUA
#Satellite: AQUA
#Configuration: AQUA
#almurnet v.1.7.20240730
#Start time: 2026-01-02 02:12:52

#Version: 2.2.20231116
#Station: R3.0SM8_Murmansk_STILSPACE
#Location: 33.092731 lon 68.902999 lat
#TLE: 1 27424U 02022A   25365.92641127  .00002078  00000+0  42628-3 0  9999
#TLE: 2 27424  98.4058 327.1196 0001962  94.7781 340.6230 14.61783896258835

#Time	Az	El	Level	Level2	SNR	BER	BlckErr	Temp	State	Recorded	gain1	gain2
2026-01-02 02:12:52.48	23.46	3.06	-54.1	-74.0	3.8	7.45e-01	0	49	0	0	70	37693
2026-01-02 02:12:55.45	23.49	3.26	-53.2	-73.0	3.8	7.43e-01	0	49	104	0	70	33559
2026-01-02 02:12:58.41	23.51	3.47	-50.1	-63.2	3.8	7.43e-01	0	49	104	0	63	16252
2026-01-02 02:13:01.38	23.53	3.68	-49.7	-62.5	3.8	7.44e-01	0	49	104	0	62	15930
2026-01-02 02:13:04.35	23.55	3.89	-49.9	-62.9	3.8	7.47e-01	0	50	104	0	62	16579
2026-01-02 02:13:07.32	23.57	4.10	-50.2	-63.3	3.8	7.45e-01	0	50	104	0	62	17469
2026-01-02 02:13:10.28	23.59	4.31	-50.3	-63.7	3.8	7.43e-01	0	50	104	0	62	18189
2026-01-02 02:13:13.25	23.61	4.53	-50.7	-64.5	3.8	7.46e-01	0	50	104	0	63	18866
2026-01-02 02:13:16.23	23.63	4.75	-51.0	-65.4	3.8	7.44e-01	0	50	104	0	64	19756
2026-01-02 02:13:19.19	23.65	4.97	-51.4	-66.6	3.8	7.43e-01	0	51	104	0	65	21292
2026-01-02 02:13:22.16	23.67	5.19	-51.0	-65.4	3.8	7.44e-01	0	51	104	0	65	18545
2026-01-02 02:13:25.13	23.70	5.41	-49.8	-62.6	3.8	7.44e-01	0	51	104	0	63	15203
2026-01-02 02:13:28.09	23.72	5.64	-50.1	-63.1	3.8	7.44e-01	0	51	104	0	62	16940
2026-01-02 02:13:31.06	23.74	5.87	-51.0	-64.8	3.8	7.42e-01	0	51	104	0	64	18340
2026-01-02 02:13:34.03	23.76	6.10	-50.8	-64.2	3.8	7.47e-01	0	51	104	0	64	17207
2026-01-02 02:13:37.00	23.78	6.33	-51.4	-65.7	3.8	7.44e-01	0	51	104	0	64	20310
2026-01-02 02:13:39.97	23.81	6.57	-51.7	-66.5	3.8	7.46e-01	0	51	104	0	65	21195
2026-01-02 02:13:42.95	23.83	6.81	-51.0	-64.8	3.8	7.45e-01	0	52	104	0	65	17322
2026-01-02 02:13:45.92	23.85	7.05	-51.2	-65.1	3.8	7.45e-01	0	52	104	0	65	18008
2026-01-02 02:13:48.90	23.87	7.29	-52.1	-67.8	3.8	7.43e-01	0	52	104	0	66	23247
2026-01-02 02:13:51.87	23.90	7.54	-52.5	-69.3	3.8	7.44e-01	0	52	104	0	67	25933
2026-01-02 02:13:54.84	23.92	7.78	-52.6	-69.6	3.8	7.44e-01	0	52	104	0	67	26915
2026-01-02 02:13:57.81	23.94	8.04	-52.7	-69.6	3.8	7.44e-01	0	53	104	0	67	26967
2026-01-02 02:14:00.78	23.97	8.29	-52.6	-69.0	3.8	7.43e-01	0	53	104	0	67	25104
2026-01-02 02:14:03.76	23.99	8.55	-51.7	-66.0	3.8	7.45e-01	0	52	104	0	67	17835
2026-01-02 02:14:06.72	24.02	8.81	-51.5	-65.6	3.8	7.45e-01	0	53	104	0	66	17948
2026-01-02 02:14:09.68	24.04	9.07	-51.8	-66.1	3.8	7.43e-01	0	53	104	0	66	19126
2026-01-02 02:14:12.67	24.07	9.34	-50.9	-64.1	3.8	7.44e-01	0	53	104	0	65	15959
2026-01-02 02:14:15.63	24.09	9.60	-49.9	-62.2	3.8	7.43e-01	0	53	104	0	63	14465
2026-01-02 02:14:18.61	24.12	9.88	-50.5	-63.1	3.8	7.46e-01	0	53	104	0	63	16121
2026-01-02 02:14:21.58	24.14	10.15	-50.3	-62.9	3.8	7.42e-01	0	53	104	0	64	14841
2026-01-02 02:14:24.55	24.17	10.43	-49.7	-61.8	3.8	7.43e-01	0	53	104	0	62	14593
2026-01-02 02:14:27.50	24.19	10.71	-50.4	-63.0	3.9	7.43e-01	0	53	104	0	63	15889
2026-01-02 02:14:30.45	24.22	11.00	-50.7	-63.5	3.8	7.44e-01	0	53	104	0	64	15935
2026-01-02 02:14:33.42	24.24	11.29	-50.2	-62.8	3.8	7.46e-01	0	54	104	0	64	14572
2026-01-02 02:14:36.39	24.27	11.58	-50.8	-63.8	3.8	7.44e-01	0	53	104	0	64	16413
2026-01-02 02:14:39.35	24.30	11.88	-52.2	-67.0	3.8	7.41e-01	0	54	104	0	66	21102
2026-01-02 02:14:42.30	24.32	12.18	-52.9	-69.0	3.8	7.47e-01	0	54	104	0	67	25049
2026-01-02 02:14:45.27	24.35	12.48	-53.0	-69.5	3.8	7.47e-01	0	54	104	0	68	25117
2026-01-02 02:14:48.24	24.38	12.79	-52.9	-68.8	3.8	7.45e-01	0	54	104	0	68	23277
2026-01-02 02:14:51.22	24.41	13.11	-52.5	-67.6	3.8	7.45e-01	0	54	104	0	68	20156
2026-01-02 02:14:54.18	24.44	13.43	-51.2	-64.5	3.8	7.46e-01	0	54	104	0	66	15797
2026-01-02 02:14:57.16	24.47	13.75	-51.4	-64.8	3.8	7.45e-01	0	54	104	0	66	16356
2026-01-02 02:15:00.13	24.50	14.08	-51.7	-65.7	3.8	7.46e-01	0	54	104	0	66	18154
2026-01-02 02:15:03.10	24.53	14.42	-50.5	-63.1	3.8	7.44e-01	0	54	104	0	64	15152
2026-01-02 02:15:06.05	24.56	14.75	-49.5	-61.4	3.8	7.43e-01	0	55	104	0	62	13992
2026-01-02 02:15:09.01	24.59	15.10	-49.9	-62.0	3.8	7.45e-01	0	54	104	0	62	14986
2026-01-02 02:15:11.98	24.62	15.45	-48.8	-60.4	3.8	7.44e-01	0	55	104	0	61	13177
2026-01-02 02:15:14.96	24.65	15.80	-48.4	-59.9	3.8	7.43e-01	0	55	104	0	60	13179
2026-01-02 02:15:17.92	24.68	16.16	-49.5	-61.5	3.8	7.44e-01	0	55	104	0	61	14909
2026-01-02 02:15:20.89	24.71	16.53	-49.9	-62.1	3.8	7.43e-01	0	55	104	0	62	15151
2026-01-02 02:15:23.86	24.75	16.91	-50.3	-62.6	3.8	7.45e-01	0	55	104	0	62	16118
2026-01-02 02:15:26.83	24.78	17.29	-51.4	-65.0	3.8	7.43e-01	0	55	104	0	65	17843
2026-01-02 02:15:29.79	24.81	17.67	-52.8	-68.2	3.8	7.49e-01	0	55	104	0	67	22953
2026-01-02 02:15:32.74	24.85	18.06	-53.3	-69.8	3.8	7.44e-01	0	55	104	0	68	26013
2026-01-02 02:15:35.69	24.88	18.46	-52.9	-68.3	3.8	7.48e-01	0	55	104	0	68	21923
2026-01-02 02:15:38.67	24.92	18.87	-53.0	-68.4	3.8	7.45e-01	0	55	104	0	68	22260
2026-01-02 02:15:41.63	24.96	19.28	-52.2	-66.4	3.8	7.42e-01	0	55	104	0	68	17577
2026-01-02 02:15:44.59	24.99	19.71	-51.0	-63.8	3.8	7.42e-01	0	55	104	0	65	15512
2026-01-02 02:15:47.55	25.03	20.14	-51.5	-64.8	3.8	7.42e-01	0	55	104	0	65	17289
2026-01-02 02:15:50.52	25.07	20.58	-51.9	-65.6	3.8	7.41e-01	0	55	104	0	66	18072
2026-01-02 02:15:53.50	25.11	21.03	-50.8	-63.4	3.8	7.44e-01	0	55	104	0	65	14828
2026-01-02 02:15:56.47	25.15	21.48	-50.1	-62.2	3.8	7.44e-01	0	55	104	0	63	14417
2026-01-02 02:15:59.44	25.19	21.95	-49.0	-60.6	3.8	7.42e-01	0	55	104	0	61	13537
2026-01-02 02:16:02.41	25.24	22.42	-48.8	-60.3	3.8	7.43e-01	0	55	104	0	61	12991
2026-01-02 02:16:05.37	25.28	22.91	-48.9	-60.5	3.8	7.44e-01	0	55	104	0	60	14078
2026-01-02 02:16:08.35	25.33	23.41	-50.0	-62.0	3.9	7.47e-01	0	56	104	0	62	14965
2026-01-02 02:16:11.32	25.37	23.91	-50.7	-63.2	3.8	7.45e-01	0	56	104	0	63	16244
2026-01-02 02:16:14.28	25.42	24.43	-51.6	-64.9	3.8	7.49e-01	0	56	104	0	65	17528
2026-01-02 02:16:17.25	25.47	24.96	-52.4	-66.6	3.8	7.46e-01	0	56	104	0	66	20248
2026-01-02 02:16:20.24	25.52	25.50	-53.5	-70.0	3.8	7.43e-01	0	56	104	0	69	25212
2026-01-02 02:16:23.20	25.57	26.05	-53.3	-69.3	3.8	7.43e-01	0	56	104	0	69	23159
2026-01-02 02:16:26.18	25.62	26.62	-53.0	-68.3	3.8	7.47e-01	0	56	104	0	69	20568
2026-01-02 02:16:29.13	25.67	27.19	-53.2	-68.8	3.8	7.45e-01	0	56	104	0	69	21934
2026-01-02 02:16:32.09	25.73	27.78	-51.9	-65.5	3.8	7.41e-01	0	56	104	0	67	16869
2026-01-02 02:16:35.06	25.78	28.39	-51.0	-63.7	3.8	7.43e-01	0	56	104	0	65	15272
2026-01-02 02:16:38.04	25.84	29.01	-51.6	-65.0	3.8	7.44e-01	0	56	104	0	65	17742
2026-01-02 02:16:41.01	25.90	29.65	-50.4	-62.8	3.8	7.46e-01	0	56	104	0	64	14623
2026-01-02 02:16:43.99	25.97	30.30	-49.3	-61.0	3.8	7.42e-01	0	56	104	0	62	13264
2026-01-02 02:16:46.96	26.03	30.97	-48.4	-59.8	3.9	7.45e-01	0	56	104	0	60	13041
2026-01-02 02:16:49.94	26.10	31.65	-48.6	-60.0	3.8	7.45e-01	0	56	104	0	59	14114
2026-01-02 02:16:52.89	26.17	32.35	-49.6	-61.5	3.8	7.43e-01	0	56	104	0	61	14908
2026-01-02 02:16:55.86	26.24	33.07	-50.5	-63.1	3.8	7.46e-01	0	56	104	0	63	16030
2026-01-02 02:16:58.84	26.31	33.81	-51.3	-64.7	3.8	7.47e-01	0	56	104	0	64	18274
2026-01-02 02:17:01.80	26.39	34.57	-51.6	-65.9	3.8	7.45e-01	0	56	104	0	65	19682
2026-01-02 02:17:04.77	26.47	35.34	-50.7	-63.3	3.8	7.47e-01	0	56	104	0	64	15547
2026-01-02 02:17:07.74	26.56	36.14	-52.5	-67.5	3.8	7.44e-01	0	56	104	0	67	21043
2026-01-02 02:17:10.71	26.65	36.96	-53.5	-70.8	3.8	7.44e-01	0	56	104	0	69	27588
2026-01-02 02:17:13.69	26.74	37.81	-53.5	-70.0	3.8	7.45e-01	0	56	104	0	69	25036
2026-01-02 02:17:16.66	26.84	38.67	-53.4	-69.4	3.8	7.46e-01	0	56	104	0	69	23468
2026-01-02 02:17:19.61	26.94	39.55	-53.5	-69.8	3.8	7.44e-01	0	56	104	0	69	24668
2026-01-02 02:17:22.59	27.05	40.47	-52.5	-66.7	3.8	7.44e-01	0	56	104	0	68	18238
2026-01-02 02:17:25.56	27.16	41.41	-52.0	-65.5	3.8	7.46e-01	0	56	104	0	67	16827
2026-01-02 02:17:28.52	27.28	42.37	-51.3	-64.2	3.8	7.47e-01	0	56	104	0	66	15327
2026-01-02 02:17:31.49	27.40	43.36	-50.3	-62.6	3.8	7.45e-01	0	57	104	0	64	14228
2026-01-02 02:17:34.47	27.54	44.39	-49.1	-60.7	3.8	7.47e-01	0	57	104	0	61	13678
2026-01-02 02:17:37.44	27.68	45.44	-48.8	-60.2	3.8	7.44e-01	0	57	104	0	60	13723
2026-01-02 02:17:40.42	27.83	46.52	-50.2	-62.2	3.8	7.43e-01	0	57	104	0	62	15240
2026-01-02 02:17:43.38	27.99	47.62	-51.9	-65.3	3.8	7.43e-01	0	57	104	0	66	17388
2026-01-02 02:17:46.36	28.16	48.77	-52.2	-65.9	3.8	7.43e-01	0	56	104	0	66	18610
2026-01-02 02:17:49.32	28.35	49.93	-52.7	-67.0	3.8	7.42e-01	0	57	104	0	67	19987
2026-01-02 02:17:52.29	28.55	51.13	-51.9	-65.3	3.8	7.41e-01	0	57	104	0	67	16365
2026-01-02 02:17:55.27	28.76	52.37	-50.3	-62.4	3.8	7.45e-01	0	57	104	0	64	13962
2026-01-02 02:17:58.24	29.00	53.64	-52.0	-65.4	3.8	7.40e-01	0	57	104	0	66	17556
2026-01-02 02:18:01.21	29.25	54.94	-53.5	-69.2	3.8	7.41e-01	0	57	104	0	69	22836
2026-01-02 02:18:04.18	29.53	56.28	-53.0	-67.9	3.8	7.43e-01	0	57	104	0	69	19616
2026-01-02 02:18:07.15	29.84	57.65	-53.1	-67.9	3.8	7.44e-01	0	57	104	0	69	19666
2026-01-02 02:18:10.11	30.17	59.05	-53.2	-68.2	3.8	7.43e-01	0	57	104	0	69	20336
2026-01-02 02:18:13.09	30.55	60.49	-52.2	-65.6	3.9	7.42e-01	0	57	104	0	68	16094
2026-01-02 02:18:16.05	30.96	61.95	-51.4	-55.0	18.2	6.02e-01	0	57	0	1572864	66	5318
2026-01-02 02:18:19.03	31.44	63.46	-51.9	-56.1	17.2	6.04e-01	0	57	0	6815744	66	6029
2026-01-02 02:18:21.99	31.97	64.99	-52.8	-58.4	14.9	6.02e-01	0	57	0	12582912	67	7401
2026-01-02 02:18:24.96	32.58	66.55	-52.4	-57.2	16.0	6.02e-01	0	57	0	18350080	67	6482
2026-01-02 02:18:27.91	33.29	68.14	-52.7	-58.0	15.2	6.04e-01	0	57	0	23592960	68	6684
2026-01-02 02:18:30.86	34.11	69.75	-52.7	-57.9	15.4	6.01e-01	0	57	0	29360128	68	6623
2026-01-02 02:18:33.83	35.10	71.39	-52.6	-57.6	15.7	6.03e-01	0	57	0	34603008	68	6375
2026-01-02 02:18:36.79	36.28	73.05	-51.7	-55.6	17.7	6.02e-01	0	57	0	40370176	67	5347
2026-01-02 02:18:39.75	37.73	74.73	-50.8	-53.9	19.3	6.04e-01	0	57	0	45613056	65	4969
2026-01-02 02:18:42.71	39.56	76.42	-50.0	-52.4	20.8	6.01e-01	0	57	0	51380224	63	4702
2026-01-02 02:18:45.68	41.93	78.11	-49.8	-52.1	21.1	6.02e-01	0	57	0	57147392	62	4802
2026-01-02 02:18:48.64	45.09	79.80	-49.1	-51.1	22.2	6.02e-01	0	57	0	62390272	61	4503
2026-01-02 02:18:51.60	49.52	81.45	-48.3	-50.1	23.1	6.02e-01	0	57	0	68157440	60	4244
2026-01-02 02:18:54.57	56.07	83.05	-48.4	-50.1	23.4	6.00e-01	0	57	0	73400320	59	4522
2026-01-02 02:18:57.54	66.35	84.52	-48.7	-50.5	22.7	6.04e-01	0	57	0	79167488	60	4480
2026-01-02 02:19:00.50	83.07	85.69	-49.2	-51.4	21.9	6.01e-01	0	57	0	84934656	60	4927
2026-01-02 02:19:03.46	108.23	86.29	-48.7	-50.6	22.6	6.01e-01	0	57	0	90177536	60	4537
2026-01-02 02:19:06.42	135.70	86.03	-49.2	-51.3	22.0	6.02e-01	0	57	0	95944704	60	4878
2026-01-02 02:19:09.39	155.99	85.05	-50.2	-52.8	20.4	6.03e-01	0	57	0	101187584	62	5186
2026-01-02 02:19:12.35	168.50	83.68	-51.1	-54.4	18.8	6.03e-01	0	57	0	106954752	64	5578
2026-01-02 02:19:15.32	176.33	82.12	-51.5	-55.2	18.0	6.02e-01	0	57	0	112721920	65	5758
2026-01-02 02:19:18.27	181.48	80.49	-51.4	-54.9	18.2	6.06e-01	0	57	0	117964800	65	5585
2026-01-02 02:19:21.25	185.12	78.80	-51.5	-55.2	17.9	5.99e-01	0	57	0	123731968	65	5782
2026-01-02 02:19:24.21	187.77	77.11	-50.9	-54.1	19.1	6.03e-01	0	57	0	128974848	65	5064
2026-01-02 02:19:27.18	189.80	75.41	-51.3	-54.7	18.5	6.01e-01	0	57	0	134742016	65	5446
2026-01-02 02:19:30.14	191.39	73.72	-51.2	-54.6	18.5	6.01e-01	0	57	0	140509184	65	5358
2026-01-02 02:19:33.11	192.67	72.05	-51.4	-54.9	18.3	6.03e-01	0	57	0	145752064	65	5536
2026-01-02 02:19:36.08	193.73	70.39	-51.8	-55.8	17.5	6.05e-01	0	57	0	151519232	65	6150
2026-01-02 02:19:39.04	194.62	68.77	-51.0	-54.2	19.0	6.02e-01	0	57	0	157286400	65	5133
2026-01-02 02:19:42.02	195.37	67.15	-51.3	-54.8	18.3	6.04e-01	0	57	0	162529280	65	5497
2026-01-02 02:19:44.98	196.02	65.58	-50.9	-53.9	19.2	6.03e-01	0	57	0	168296448	65	4976
2026-01-02 02:19:47.96	196.58	64.03	-50.3	-53.0	20.2	6.01e-01	0	57	0	173539328	64	4724
2026-01-02 02:19:50.93	197.08	62.51	-50.5	-53.3	20.0	6.03e-01	0	57	0	179306496	63	5167
2026-01-02 02:19:53.90	197.52	61.02	-49.4	-51.6	21.6	6.01e-01	0	57	0	185073664	62	4530
2026-01-02 02:19:56.87	197.91	59.57	-48.9	-50.9	22.3	6.02e-01	0	57	0	190316544	61	4415
2026-01-02 02:19:59.83	198.26	58.16	-48.6	-50.4	22.8	6.03e-01	0	57	0	196083712	60	4407
2026-01-02 02:20:02.80	198.57	56.77	-48.4	-50.2	22.9	6.05e-01	0	57	0	201326592	60	4321
2026-01-02 02:20:05.77	198.86	55.42	-47.6	-49.1	24.3	6.02e-01	0	57	0	207093760	58	4260
2026-01-02 02:20:08.75	199.12	54.10	-47.4	-48.9	24.4	6.02e-01	0	57	0	212860928	58	4167
2026-01-02 02:20:11.71	199.36	52.82	-47.6	-49.1	24.4	6.01e-01	0	57	0	218103808	58	4248
2026-01-02 02:20:14.68	199.59	51.56	-47.9	-49.5	23.9	6.01e-01	0	57	0	223870976	58	4473
2026-01-02 02:20:17.64	199.79	50.35	-48.6	-50.4	23.0	6.03e-01	0	57	0	229638144	59	4704
2026-01-02 02:20:20.61	199.98	49.16	-48.6	-50.4	23.0	6.03e-01	0	57	0	234881024	59	4690
2026-01-02 02:20:23.57	200.16	48.01	-49.1	-51.2	22.0	6.00e-01	0	57	0	240648192	60	4815
2026-01-02 02:20:26.55	200.32	46.89	-48.4	-50.2	22.8	6.02e-01	0	57	0	245891072	60	4334
2026-01-02 02:20:29.52	200.48	45.80	-48.6	-50.4	23.0	6.04e-01	0	57	0	251658240	59	4676
2026-01-02 02:20:32.48	200.62	44.74	-48.5	-50.2	23.2	6.03e-01	0	57	0	257425408	59	4581
2026-01-02 02:20:35.44	200.76	43.71	-48.7	-50.5	23.0	6.04e-01	0	57	0	262668288	59	4718
2026-01-02 02:20:38.42	200.89	42.70	-48.8	-50.7	22.8	6.01e-01	0	57	0	268435456	59	4815
2026-01-02 02:20:41.39	201.01	41.72	-49.2	-51.2	21.9	6.02e-01	0	57	0	273678336	60	4868
2026-01-02 02:20:44.35	201.12	40.77	-49.5	-51.7	21.4	6.01e-01	0	57	0	279445504	61	4867
2026-01-02 02:20:47.34	201.23	39.84	-49.4	-51.6	21.6	6.03e-01	0	57	0	285212672	61	4765
2026-01-02 02:20:50.31	201.33	38.94	-49.7	-52.1	21.1	6.03e-01	0	57	0	290455552	61	5071
2026-01-02 02:20:53.29	201.43	38.06	-49.2	-51.3	21.8	6.00e-01	0	57	0	296222720	61	4609
2026-01-02 02:20:56.27	201.53	37.20	-48.8	-50.7	22.4	6.03e-01	0	57	0	301989888	61	4321
2026-01-02 02:20:59.24	201.62	36.37	-48.5	-50.4	22.7	6.02e-01	0	57	0	307232768	60	4415
2026-01-02 02:21:02.21	201.70	35.56	-49.0	-51.0	22.1	6.00e-01	0	57	0	312999936	60	4716
2026-01-02 02:21:05.19	201.78	34.77	-48.5	-50.3	23.1	6.03e-01	0	57	0	318767104	59	4613
2026-01-02 02:21:08.16	201.86	34.00	-48.4	-50.1	23.3	6.00e-01	0	57	0	324009984	59	4532
2026-01-02 02:21:11.13	201.94	33.26	-48.2	-49.9	23.4	6.01e-01	0	57	0	329777152	59	4413
2026-01-02 02:21:14.10	202.01	32.53	-47.6	-49.2	24.1	6.00e-01	0	57	0	335020032	58	4301
2026-01-02 02:21:17.07	202.08	31.82	-47.6	-49.2	24.1	6.00e-01	0	57	0	340787200	58	4303
2026-01-02 02:21:20.03	202.15	31.13	-47.6	-49.1	24.2	6.05e-01	0	57	0	346554368	58	4271
2026-01-02 02:21:23.00	202.21	30.45	-47.4	-48.9	24.4	6.04e-01	0	57	0	351797248	58	4163
2026-01-02 02:21:25.97	202.28	29.79	-47.5	-49.0	24.0	6.05e-01	0	57	0	357564416	58	4226
2026-01-02 02:21:28.92	202.34	29.16	-47.9	-49.5	23.8	6.04e-01	0	57	0	362807296	58	4460
2026-01-02 02:21:31.88	202.39	28.53	-48.0	-49.6	23.6	6.05e-01	0	57	0	368574464	58	4542
2026-01-02 02:21:34.86	202.45	27.92	-47.6	-49.2	24.1	6.01e-01	0	57	0	374341632	58	4302
2026-01-02 02:21:37.82	202.51	27.32	-47.8	-49.4	23.9	6.06e-01	0	57	0	379584512	58	4426
2026-01-02 02:21:40.80	202.56	26.73	-48.1	-49.7	23.6	6.00e-01	0	57	0	385351680	58	4583
2026-01-02 02:21:43.77	202.61	26.16	-48.2	-49.9	23.4	6.02e-01	0	57	0	390594560	58	4701
2026-01-02 02:21:46.74	202.66	25.60	-48.4	-50.1	23.2	6.00e-01	0	57	0	396361728	59	4528
2026-01-02 02:21:49.71	202.71	25.06	-48.8	-50.7	22.6	5.99e-01	0	57	0	402128896	59	4824
2026-01-02 02:21:52.69	202.76	24.52	-49.0	-51.2	21.8	6.03e-01	0	57	0	407371776	60	4816
2026-01-02 02:21:55.64	202.80	24.00	-49.0	-51.1	21.8	6.02e-01	0	57	0	413138944	60	4795
2026-01-02 02:21:58.62	202.85	23.49	-48.5	-50.3	22.6	6.03e-01	0	57	0	418906112	60	4379
2026-01-02 02:22:01.60	202.89	22.98	-48.6	-50.6	22.4	6.02e-01	0	57	0	424148992	60	4495
2026-01-02 02:22:04.58	202.94	22.49	-48.5	-50.3	22.9	6.01e-01	0	57	0	429916160	59	4645
2026-01-02 02:22:07.55	202.98	22.01	-48.8	-50.7	22.5	6.04e-01	0	57	0	435683328	59	4857
2026-01-02 02:22:10.52	203.02	21.54	-48.8	-50.8	22.5	6.05e-01	0	57	0	440926208	59	4879
2026-01-02 02:22:13.48	203.06	21.08	-48.9	-51.0	21.9	6.02e-01	0	57	0	446693376	60	4735
2026-01-02 02:22:16.46	203.10	20.63	-49.3	-51.5	21.3	6.02e-01	0	57	0	451936256	60	5022
2026-01-02 02:22:19.42	203.14	20.18	-49.0	-51.1	21.8	6.02e-01	0	57	0	457703424	61	4503
2026-01-02 02:22:22.39	203.17	19.75	-48.5	-50.3	22.9	6.01e-01	0	57	0	463470592	59	4629
2026-01-02 02:22:25.36	203.21	19.32	-48.4	-50.2	23.0	6.03e-01	0	57	0	468713472	59	4551
2026-01-02 02:22:28.33	203.25	18.90	-48.3	-50.0	23.1	6.01e-01	0	57	0	474480640	59	4490
2026-01-02 02:22:31.30	203.28	18.49	-48.4	-50.2	23.0	6.02e-01	0	57	0	480247808	59	4560
2026-01-02 02:22:34.27	203.32	18.09	-48.6	-50.4	22.7	6.03e-01	0	57	0	485490688	59	4698
2026-01-02 02:22:37.23	203.35	17.69	-48.4	-50.2	22.9	6.01e-01	0	57	0	491257856	59	4562
2026-01-02 02:22:40.20	203.38	17.30	-48.2	-50.0	23.0	6.02e-01	0	57	0	496500736	59	4489
2026-01-02 02:22:43.17	203.42	16.92	-48.4	-50.3	22.8	6.02e-01	0	58	0	502267904	59	4603
2026-01-02 02:22:46.14	203.45	16.54	-48.3	-50.0	23.0	6.01e-01	0	57	0	508035072	59	4488
2026-01-02 02:22:49.10	203.48	16.17	-48.4	-50.2	22.9	6.00e-01	0	57	0	513277952	59	4569
2026-01-02 02:22:52.08	203.51	15.81	-48.5	-50.3	22.7	6.01e-01	0	57	0	519045120	59	4635
2026-01-02 02:22:55.05	203.54	15.45	-48.7	-50.6	22.4	6.00e-01	0	57	0	524288000	59	4791
2026-01-02 02:22:58.01	203.57	15.10	-48.4	-50.2	22.7	6.02e-01	0	57	0	530055168	59	4598
2026-01-02 02:23:00.98	203.60	14.75	-48.7	-50.6	22.4	6.04e-01	0	57	0	535822336	59	4799
2026-01-02 02:23:03.94	203.63	14.41	-48.1	-49.9	23.1	6.04e-01	0	57	0	541065216	59	4396
2026-01-02 02:23:06.91	203.66	14.07	-48.4	-50.2	22.7	6.00e-01	0	57	0	546832384	59	4591
2026-01-02 02:23:09.88	203.69	13.74	-48.4	-50.3	22.7	6.03e-01	0	57	0	552599552	59	4631
2026-01-02 02:23:12.84	203.71	13.41	-48.6	-50.5	22.4	6.00e-01	0	57	0	557842432	59	4751
2026-01-02 02:23:15.80	203.74	13.09	-48.1	-49.9	23.1	6.02e-01	0	57	0	563609600	59	4393
2026-01-02 02:23:18.77	203.77	12.78	-48.4	-50.3	22.6	6.01e-01	0	57	0	568852480	59	4637
2026-01-02 02:23:21.73	203.79	12.46	-48.5	-50.4	22.5	5.99e-01	0	57	0	574619648	59	4692
2026-01-02 02:23:24.68	203.82	12.16	-48.6	-50.6	22.3	6.03e-01	0	57	0	579862528	59	4792
2026-01-02 02:23:27.65	203.85	11.85	-48.3	-50.2	22.7	6.00e-01	0	57	0	585629696	59	4565
2026-01-02 02:23:30.62	203.87	11.55	-48.5	-50.4	22.5	6.04e-01	0	57	0	591396864	59	4687
2026-01-02 02:23:33.57	203.90	11.26	-48.4	-50.3	22.5	6.03e-01	0	57	0	596639744	59	4639
2026-01-02 02:23:36.54	203.92	10.97	-48.5	-50.4	22.4	6.04e-01	0	57	0	602406912	59	4693
2026-01-02 02:23:39.51	203.95	10.68	-48.5	-50.5	22.3	6.00e-01	0	57	0	607649792	59	4731
2026-01-02 02:23:42.48	203.97	10.40	-48.7	-50.7	22.1	6.03e-01	0	57	0	613416960	59	4854
2026-01-02 02:23:45.44	203.99	10.12	-48.6	-50.6	22.2	6.03e-01	0	57	0	619184128	59	4794
2026-01-02 02:23:48.41	204.02	9.84	-48.8	-50.9	21.9	6.02e-01	0	57	0	624427008	59	4949
2026-01-02 02:23:51.38	204.04	9.56	-48.8	-51.0	21.8	6.03e-01	0	57	0	630194176	59	4996
2026-01-02 02:23:54.35	204.06	9.29	-48.6	-50.8	21.6	6.03e-01	0	57	0	635961344	60	4623
2026-01-02 02:23:57.32	204.09	9.03	-48.2	-50.2	22.1	6.03e-01	0	57	0	641204224	60	4336
2026-01-02 02:24:00.29	204.11	8.76	-48.3	-50.3	22.0	6.02e-01	0	57	0	646971392	60	4385
2026-01-02 02:24:03.26	204.13	8.50	-48.3	-50.4	22.0	6.01e-01	0	57	0	652214272	60	4408
2026-01-02 02:24:06.23	204.16	8.24	-48.6	-50.8	21.5	6.06e-01	0	57	0	657981440	60	4633
2026-01-02 02:24:09.19	204.18	7.99	-48.9	-51.2	21.1	6.01e-01	0	57	0	663748608	60	4824
2026-01-02 02:24:12.16	204.20	7.74	-48.6	-50.8	21.5	6.03e-01	0	57	0	668991488	60	4600
2026-01-02 02:24:15.12	204.22	7.49	-48.7	-51.0	21.3	6.03e-01	0	57	0	674758656	60	4712
2026-01-02 02:24:18.09	204.24	7.24	-48.6	-50.9	21.4	6.02e-01	0	57	0	680001536	60	4654
2026-01-02 02:24:21.05	204.26	7.00	-48.7	-51.1	21.1	6.04e-01	0	57	0	685768704	60	4763
2026-01-02 02:24:24.02	204.28	6.76	-48.8	-51.1	21.1	6.02e-01	0	57	0	691535872	60	4788
2026-01-02 02:24:26.99	204.30	6.52	-48.9	-51.3	20.8	6.02e-01	0	57	0	696778752	60	4907
2026-01-02 02:24:29.95	204.33	6.28	-48.7	-51.1	21.0	6.03e-01	0	57	0	702545920	60	4795
2026-01-02 02:24:32.91	204.35	6.05	-48.8	-51.2	20.8	6.00e-01	0	57	0	707788800	60	4846
2026-01-02 02:24:35.87	204.37	5.82	-49.0	-51.5	20.4	6.03e-01	0	57	0	713555968	60	5041
2026-01-02 02:24:38.85	204.39	5.58	-49.3	-52.1	19.9	6.03e-01	0	58	0	719323136	61	5056
2026-01-02 02:24:41.81	204.41	5.36	-49.2	-52.0	19.9	6.03e-01	0	57	0	724566016	61	4994
2026-01-02 02:24:44.78	204.43	5.13	-49.4	-52.3	19.6	6.03e-01	0	58	0	730333184	61	5184
2026-01-02 02:24:47.73	204.44	4.91	-53.5	-73.4	3.8	7.46e-01	0	57	104	732954624	69	37044
2026-01-02 02:24:50.70	204.46	4.69	-54.0	-73.8	3.8	7.45e-01	0	57	104	732954624	70	36739
2026-01-02 02:24:53.66	204.48	4.47	-54.1	-74.0	3.8	7.44e-01	0	58	104	732954624	70	37449
2026-01-02 02:24:56.62	204.50	4.25	-54.2	-74.1	3.8	7.47e-01	0	57	104	732954624	70	38060
2026-01-02 02:24:59.60	204.52	4.04	-54.3	-74.2	3.8	7.47e-01	0	57	104	732954624	70	38447
2026-01-02 02:25:02.57	204.54	3.82	-54.3	-74.2	3.8	7.46e-01	0	57	104	732954624	70	38601
2026-01-02 02:25:05.54	204.56	3.61	-54.3	-74.3	3.8	7.45e-01	0	58	104	732954624	70	38731
2026-01-02 02:25:08.51	204.58	3.40	-54.4	-74.3	3.8	7.45e-01	0	58	104	732954624	70	38706
2026-01-02 02:25:11.48	204.60	3.20	-54.4	-74.2	3.8	7.45e-01	0	58	104	732954624	70	38661
2026-01-02 02:25:14.46	204.61	2.99	-54.3	-74.2	3.8	7.44e-01	0	58	104	732954624	70	38561

#Closed at: 2026-01-02 02:25:15
#Recorded file [732 MB]: D:/Data/31026_260102_052446.dat