passes_logs/2026/01/02/R3.0SM8_Murmansk_STILSPACE/R3.0SM8_Murmansk_STILSPACE__20260102_043650_FENGYUN_3D_rec.log

#Pass ID: 20260102_043650_FENGYUN 3D
#Satellite: FENGYUN 3D
#Configuration: FENGYUN 3D
#almurnet v.1.7.20240730
#Start time: 2026-01-02 04:36:50

#Version: 2.2.20231116
#Station: R3.0SM8_Murmansk_STILSPACE
#Location: 33.092731 lon 68.902999 lat
#TLE: 1 43010U 17072A   26001.33100487  .00000602  00000+0  30664-3 0  9999
#TLE: 2 43010  98.9910 332.9374 0001848 133.1047 227.0283 14.19692078421319

#Time	Az	El	Level	Level2	SNR	BER	BlckErr	Temp	State	Recorded	gain1	gain2
2026-01-02 04:36:50.38	34.38	2.98	-52.5	-63.2	3.8	8.45e-01	0	46	0	0	67	12589
2026-01-02 04:36:54.32	34.22	3.23	-52.3	-63.0	3.8	8.46e-01	0	47	104	0	67	12256
2026-01-02 04:36:58.29	34.05	3.49	-51.5	-62.0	3.8	8.46e-01	0	47	104	0	66	11598
2026-01-02 04:37:02.23	33.88	3.74	-51.4	-61.9	3.8	8.45e-01	0	47	104	0	65	12144
2026-01-02 04:37:06.19	33.71	4.00	-51.4	-61.1	3.8	8.46e-01	0	47	104	0	65	11156
2026-01-02 04:37:10.15	33.53	4.26	-51.1	-58.8	4.2	8.40e-01	0	48	0	0	64	8996
2026-01-02 04:37:14.12	33.35	4.52	-50.2	-55.4	6.0	5.40e-01	0	48	0	2097152	63	6430
2026-01-02 04:37:18.06	33.16	4.79	-48.8	-51.9	9.2	3.22e-02	0	48	0	24117248	60	5149
2026-01-02 04:37:22.02	32.98	5.05	-47.5	-49.6	11.6	1.19e-03	0	48	0	46137344	58	4423
2026-01-02 04:37:25.97	32.78	5.32	-47.3	-49.2	12.1	5.43e-04	0	49	0	68157440	57	4488
2026-01-02 04:37:29.91	32.59	5.59	-47.0	-48.8	12.5	1.49e-04	0	49	0	91226112	56	4543
2026-01-02 04:37:33.85	32.39	5.86	-46.1	-47.7	13.6	3.08e-05	0	49	0	113246208	55	4210
2026-01-02 04:37:37.81	32.19	6.14	-45.0	-46.2	15.1	0.00e+00	0	49	0	135266304	53	3984
2026-01-02 04:37:41.77	31.98	6.42	-44.9	-46.1	15.2	0.00e+00	0	50	0	157286400	52	4175
2026-01-02 04:37:45.72	31.77	6.70	-44.8	-46.0	15.4	0.00e+00	0	50	0	179306496	52	4122
2026-01-02 04:37:49.67	31.55	6.98	-45.1	-46.3	15.1	0.00e+00	0	50	0	202375168	52	4276
2026-01-02 04:37:53.63	31.33	7.27	-44.7	-45.9	15.6	0.00e+00	0	50	0	224395264	52	4060
2026-01-02 04:37:57.58	31.10	7.56	-44.5	-45.6	15.9	0.00e+00	0	50	0	246415360	52	3924
2026-01-02 04:38:01.52	30.87	7.85	-44.6	-45.7	15.9	0.00e+00	0	51	0	268435456	51	4203
2026-01-02 04:38:05.47	30.64	8.15	-44.6	-45.7	16.0	0.00e+00	0	51	0	290455552	51	4203
2026-01-02 04:38:09.42	30.40	8.45	-44.4	-45.4	16.2	0.00e+00	0	51	0	312475648	51	4087
2026-01-02 04:38:13.38	30.15	8.75	-44.2	-45.3	16.4	0.00e+00	0	51	0	335544320	51	4019
2026-01-02 04:38:17.34	29.90	9.05	-44.1	-45.1	16.6	0.00e+00	0	51	0	357564416	51	3926
2026-01-02 04:38:21.31	29.64	9.36	-44.1	-45.1	16.7	0.00e+00	0	51	0	379584512	51	3916
2026-01-02 04:38:25.26	29.38	9.67	-44.0	-45.0	16.8	0.00e+00	0	52	0	401604608	51	3884
2026-01-02 04:38:29.20	29.11	9.99	-44.2	-45.1	16.6	0.00e+00	0	52	0	424673280	51	3951
2026-01-02 04:38:33.15	28.84	10.30	-44.4	-45.4	16.4	0.00e+00	0	52	0	446693376	51	4067
2026-01-02 04:38:37.10	28.56	10.62	-43.9	-44.9	16.9	0.00e+00	0	52	0	468713472	51	3853
2026-01-02 04:38:41.05	28.27	10.95	-43.8	-44.7	17.1	0.00e+00	0	52	0	490733568	50	3989
2026-01-02 04:38:44.99	27.97	11.27	-43.7	-44.5	17.3	0.00e+00	0	52	0	512753664	50	3908
2026-01-02 04:38:48.94	27.67	11.61	-43.8	-44.7	17.2	0.00e+00	0	53	0	535822336	50	3983
2026-01-02 04:38:52.90	27.36	11.94	-43.3	-44.2	17.6	0.00e+00	0	53	0	557842432	49	3975
2026-01-02 04:38:56.86	27.04	12.28	-43.6	-44.5	17.4	0.00e+00	0	53	0	579862528	49	4126
2026-01-02 04:39:00.82	26.72	12.63	-43.3	-44.2	17.7	0.00e+00	0	53	0	601882624	49	3969
2026-01-02 04:39:04.78	26.39	12.97	-43.5	-44.4	17.5	0.00e+00	0	53	0	624951296	49	4056
2026-01-02 04:39:08.74	26.04	13.32	-43.1	-43.9	18.0	0.00e+00	0	53	0	646971392	49	3855
2026-01-02 04:39:12.70	25.69	13.68	-43.0	-43.9	18.1	0.00e+00	0	53	0	668991488	49	3830
2026-01-02 04:39:16.66	25.33	14.04	-43.0	-43.8	18.1	0.00e+00	0	53	0	691011584	49	3815
2026-01-02 04:39:20.63	24.96	14.40	-43.2	-44.0	18.0	0.00e+00	0	53	0	713031680	49	3881
2026-01-02 04:39:24.60	24.59	14.77	-42.9	-43.7	18.2	0.00e+00	0	53	0	736100352	48	3995
2026-01-02 04:39:28.55	24.20	15.14	-42.9	-43.7	18.3	0.00e+00	0	54	0	758120448	48	3973
2026-01-02 04:39:32.50	23.80	15.52	-42.9	-43.7	18.3	0.00e+00	0	54	0	780140544	48	3987
2026-01-02 04:39:36.45	23.39	15.90	-42.8	-43.5	18.4	0.00e+00	0	54	0	802160640	48	3899
2026-01-02 04:39:40.42	22.97	16.29	-42.7	-43.4	18.5	0.00e+00	0	54	0	825229312	48	3857
2026-01-02 04:39:44.38	22.54	16.68	-43.0	-43.8	18.2	0.00e+00	0	54	0	847249408	48	4010
2026-01-02 04:39:48.34	22.10	17.07	-42.2	-42.9	18.9	0.00e+00	0	54	0	869269504	47	3852
2026-01-02 04:39:52.30	21.65	17.47	-42.3	-43.0	18.8	0.00e+00	0	54	0	891289600	47	3905
2026-01-02 04:39:56.25	21.18	17.87	-42.0	-42.8	19.1	0.00e+00	0	54	0	914358272	47	3783
2026-01-02 04:40:00.21	20.70	18.28	-42.2	-42.9	19.0	0.00e+00	0	55	0	936378368	47	3840
2026-01-02 04:40:04.18	20.20	18.70	-41.8	-42.5	19.4	0.00e+00	0	55	0	958398464	46	3896
2026-01-02 04:40:08.13	19.70	19.11	-41.7	-42.4	19.5	0.00e+00	0	55	0	980418560	46	3847
2026-01-02 04:40:12.09	19.17	19.54	-41.9	-42.6	19.2	0.00e+00	0	55	0	1003487232	46	3955
2026-01-02 04:40:16.03	18.64	19.96	-41.4	-42.0	19.8	0.00e+00	0	55	0	1025507328	46	3685
2026-01-02 04:40:19.99	18.08	20.39	-41.8	-42.5	19.4	0.00e+00	0	55	0	1047527424	45	4105
2026-01-02 04:40:23.95	17.52	20.83	-41.6	-42.2	19.7	0.00e+00	0	55	0	1069547520	45	4000
2026-01-02 04:40:27.91	16.93	21.27	-41.7	-42.4	19.5	0.00e+00	0	55	0	1091567616	45	4081
2026-01-02 04:40:31.85	16.33	21.71	-40.9	-41.6	20.3	0.00e+00	0	55	0	1114636288	45	3713
2026-01-02 04:40:35.81	15.71	22.16	-40.9	-41.5	20.4	0.00e+00	0	55	0	1136656384	44	3877
2026-01-02 04:40:39.75	15.07	22.61	-41.0	-41.6	20.3	0.00e+00	0	55	0	1158676480	44	3949
2026-01-02 04:40:43.72	14.41	23.07	-40.7	-41.3	20.5	0.00e+00	0	55	0	1180696576	44	3820
2026-01-02 04:40:47.66	13.73	23.53	-40.9	-41.5	20.4	0.00e+00	0	55	0	1202716672	44	3884
2026-01-02 04:40:51.62	13.03	24.00	-41.0	-41.7	20.1	0.00e+00	0	55	0	1225785344	44	3968
2026-01-02 04:40:55.58	12.31	24.47	-40.7	-41.4	20.2	0.00e+00	0	56	0	1247805440	44	3835
2026-01-02 04:40:59.54	11.56	24.94	-42.1	-42.9	18.3	0.00e+00	0	55	0	1269825536	46	4088
2026-01-02 04:41:03.49	10.80	25.41	-44.9	-46.3	14.4	1.10e-06	0	55	0	1291845632	51	4499
2026-01-02 04:41:07.43	10.01	25.89	-46.6	-48.7	11.8	1.38e-03	0	56	0	1314914304	55	4733
2026-01-02 04:41:11.40	9.19	26.37	-43.7	-44.7	16.4	0.00e+00	0	56	0	1336934400	50	3996
2026-01-02 04:41:15.35	8.35	26.85	-42.1	-42.8	18.7	0.00e+00	0	56	0	1358954496	47	3813
2026-01-02 04:41:19.31	7.48	27.34	-41.6	-42.3	19.5	0.00e+00	0	56	0	1380974592	46	3812
2026-01-02 04:41:23.27	6.59	27.82	-41.4	-42.1	19.7	0.00e+00	0	56	0	1402994688	46	3715
2026-01-02 04:41:27.21	5.67	28.30	-40.2	-40.8	21.0	0.00e+00	0	56	0	1426063360	43	3810
2026-01-02 04:41:31.16	4.72	28.79	-40.0	-40.5	21.2	0.00e+00	0	56	0	1448083456	43	3694
2026-01-02 04:41:35.12	3.74	29.27	-40.1	-40.7	21.2	0.00e+00	0	56	0	1470103552	42	3967
2026-01-02 04:41:39.07	2.73	29.75	-40.2	-40.7	21.1	0.00e+00	0	56	0	1492123648	42	4004
2026-01-02 04:41:43.04	1.68	30.23	-40.2	-40.8	21.0	0.00e+00	0	56	0	1515192320	42	4033
2026-01-02 04:41:46.98	0.61	30.71	-40.3	-40.8	21.0	0.00e+00	0	56	0	1537212416	42	4040
2026-01-02 04:41:50.94	359.51	31.18	-40.4	-40.9	20.9	0.00e+00	0	56	0	1559232512	42	4097
2026-01-02 04:41:54.89	358.37	31.65	-40.0	-40.5	21.3	0.00e+00	0	56	0	1581252608	42	3901
2026-01-02 04:41:58.84	357.20	32.11	-39.5	-40.0	21.8	0.00e+00	0	56	0	1603272704	42	3687
2026-01-02 04:42:02.80	355.99	32.57	-39.8	-40.3	21.5	0.00e+00	0	56	0	1626341376	42	3809
2026-01-02 04:42:06.76	354.75	33.01	-39.7	-40.2	21.6	0.00e+00	0	56	0	1648361472	42	3778
2026-01-02 04:42:10.73	353.47	33.45	-39.5	-40.0	21.8	0.00e+00	0	56	0	1670381568	42	3687
2026-01-02 04:42:14.67	352.17	33.88	-39.6	-40.1	21.7	0.00e+00	0	56	0	1692401664	41	3953
2026-01-02 04:42:18.63	350.82	34.30	-39.9	-40.5	21.3	0.00e+00	0	57	0	1715470336	41	4123
2026-01-02 04:42:22.58	349.44	34.70	-39.9	-40.5	21.4	0.00e+00	0	56	0	1737490432	42	3870
2026-01-02 04:42:26.53	348.03	35.09	-39.6	-40.1	21.7	0.00e+00	0	57	0	1759510528	42	3725
2026-01-02 04:42:30.47	346.59	35.46	-39.2	-39.7	22.1	0.00e+00	0	56	0	1781530624	41	3753
2026-01-02 04:42:34.42	345.11	35.81	-39.4	-39.9	22.0	0.00e+00	0	57	0	1803550720	41	3836
2026-01-02 04:42:38.38	343.60	36.15	-39.6	-40.1	21.7	0.00e+00	0	56	0	1825570816	41	3943
2026-01-02 04:42:42.34	342.05	36.47	-39.6	-40.2	21.7	0.00e+00	0	56	0	1848639488	41	3960
2026-01-02 04:42:46.30	340.48	36.76	-39.9	-40.4	21.4	0.00e+00	0	56	0	1870659584	41	4086
2026-01-02 04:42:50.26	338.88	37.04	-40.2	-40.8	21.1	0.00e+00	0	56	0	1892679680	42	4027
2026-01-02 04:42:54.23	337.25	37.29	-40.4	-41.0	20.9	0.00e+00	0	57	0	1914699776	42	4124
2026-01-02 04:42:58.20	335.59	37.51	-39.5	-40.1	21.8	0.00e+00	0	56	0	1937768448	42	3705
2026-01-02 04:43:02.15	333.92	37.71	-39.5	-40.0	21.9	0.00e+00	0	57	0	1959788544	42	3684
2026-01-02 04:43:06.12	332.22	37.88	-39.3	-39.8	22.0	0.00e+00	0	57	0	1981808640	41	3803
2026-01-02 04:43:10.06	330.52	38.02	-39.3	-39.9	22.0	0.00e+00	0	57	0	2003828736	41	3835
2026-01-02 04:43:14.03	328.79	38.13	-39.4	-39.9	22.0	0.00e+00	0	57	0	2026897408	41	3836
2026-01-02 04:43:18.01	327.05	38.22	-39.7	-40.2	21.7	0.00e+00	0	57	0	2048917504	41	3991
2026-01-02 04:43:21.96	325.31	38.27	-39.3	-39.8	22.0	0.00e+00	0	57	0	2070937600	41	3811
2026-01-02 04:43:25.93	323.56	38.30	-39.8	-40.3	21.6	0.00e+00	0	57	0	2092957696	41	4029
2026-01-02 04:43:29.86	321.83	38.29	-39.5	-40.0	21.8	0.00e+00	0	57	0	2116026368	41	3908
2026-01-02 04:43:33.83	320.08	38.25	-39.8	-40.3	21.6	0.00e+00	0	57	0	2138046464	41	4048
2026-01-02 04:43:37.77	318.35	38.19	-39.8	-40.3	21.6	0.00e+00	0	57	0	2160066560	41	4048
2026-01-02 04:43:41.72	316.62	38.09	-39.9	-40.4	21.5	0.00e+00	0	57	0	2182086656	42	3862
2026-01-02 04:43:45.67	314.91	37.97	-39.4	-39.9	22.0	0.00e+00	0	57	0	2204106752	41	3847
2026-01-02 04:43:49.64	313.20	37.81	-39.6	-40.1	21.8	0.00e+00	0	57	0	2227175424	41	3927
2026-01-02 04:43:53.61	311.51	37.63	-39.8	-40.4	21.6	0.00e+00	0	57	0	2249195520	41	4056
2026-01-02 04:43:57.56	309.85	37.42	-39.8	-40.4	21.5	0.00e+00	0	57	0	2271215616	41	4062
2026-01-02 04:44:01.52	308.20	37.19	-40.4	-40.9	21.0	0.00e+00	0	57	0	2293235712	42	4087
2026-01-02 04:44:05.47	306.59	36.93	-40.0	-40.6	21.4	0.00e+00	0	57	0	2315255808	43	3699
2026-01-02 04:44:09.41	305.00	36.65	-39.3	-39.8	22.1	0.00e+00	0	57	0	2338324480	41	3804
2026-01-02 04:44:13.36	303.44	36.34	-39.4	-39.9	21.9	0.00e+00	0	57	0	2360344576	41	3868
2026-01-02 04:44:17.30	301.92	36.02	-39.1	-39.6	22.2	0.00e+00	0	57	0	2382364672	41	3737
2026-01-02 04:44:21.25	300.42	35.67	-39.5	-40.0	21.9	0.00e+00	0	57	0	2404384768	41	3881
2026-01-02 04:44:25.20	298.95	35.31	-39.6	-40.1	21.8	0.00e+00	0	57	0	2426404864	41	3948
2026-01-02 04:44:29.15	297.52	34.93	-39.8	-40.4	21.5	0.00e+00	0	57	0	2449473536	41	4055
2026-01-02 04:44:33.10	296.11	34.54	-39.6	-40.1	21.8	0.00e+00	0	57	0	2471493632	41	3932
2026-01-02 04:44:37.05	294.75	34.13	-39.1	-39.6	22.3	0.00e+00	0	57	0	2493513728	41	3706
2026-01-02 04:44:41.01	293.41	33.71	-39.1	-39.6	22.2	0.00e+00	0	57	0	2515533824	41	3729
2026-01-02 04:44:44.98	292.11	33.27	-39.1	-39.6	22.2	0.00e+00	0	57	0	2537553920	41	3713
2026-01-02 04:44:48.94	290.85	32.83	-39.3	-39.8	22.1	0.00e+00	0	57	0	2560622592	41	3788
2026-01-02 04:44:52.89	289.62	32.38	-39.5	-40.1	21.8	0.00e+00	0	57	0	2582642688	41	3914
2026-01-02 04:44:56.84	288.42	31.92	-39.7	-40.2	21.6	0.00e+00	0	57	0	2604662784	41	4004
2026-01-02 04:45:00.81	287.26	31.45	-39.5	-40.0	21.8	0.00e+00	0	57	0	2626682880	41	3899
2026-01-02 04:45:04.78	286.13	30.98	-39.7	-40.3	21.6	0.00e+00	0	57	0	2649751552	41	4022
2026-01-02 04:45:08.73	285.03	30.50	-39.6	-40.1	21.8	0.00e+00	0	57	0	2671771648	41	3947
2026-01-02 04:45:12.68	283.97	30.03	-39.2	-39.8	22.1	0.00e+00	0	57	0	2693791744	41	3781
2026-01-02 04:45:16.62	282.94	29.55	-39.8	-40.3	21.5	0.00e+00	0	57	0	2715811840	41	4050
2026-01-02 04:45:20.58	281.94	29.06	-40.1	-40.7	21.2	0.00e+00	0	57	0	2737831936	42	3970
2026-01-02 04:45:24.53	280.97	28.58	-39.9	-40.4	21.5	0.00e+00	0	57	0	2760900608	42	3859
2026-01-02 04:45:28.49	280.03	28.09	-40.0	-40.5	21.4	0.00e+00	0	57	0	2782920704	42	3895
2026-01-02 04:45:32.42	279.12	27.61	-40.1	-40.7	21.2	0.00e+00	0	57	0	2804940800	42	3986
2026-01-02 04:45:36.38	278.24	27.12	-40.0	-40.5	21.4	0.00e+00	0	57	0	2826960896	42	3910
2026-01-02 04:45:40.33	277.38	26.64	-40.4	-41.0	21.0	0.00e+00	0	57	0	2848980992	42	4100
2026-01-02 04:45:44.28	276.55	26.16	-40.2	-40.7	21.2	0.00e+00	0	57	0	2871001088	42	4000
2026-01-02 04:45:48.24	275.74	25.68	-40.2	-40.8	21.1	0.00e+00	0	57	0	2894069760	42	4025
2026-01-02 04:45:52.18	274.96	25.20	-40.7	-41.3	20.7	0.00e+00	0	57	0	2916089856	43	4016
2026-01-02 04:45:56.14	274.20	24.72	-40.7	-41.3	20.6	0.00e+00	0	57	0	2938109952	43	4020
2026-01-02 04:46:00.10	273.46	24.25	-40.5	-41.1	20.8	0.00e+00	0	57	0	2961178624	43	3940
2026-01-02 04:46:04.05	272.74	23.78	-40.4	-41.0	20.9	0.00e+00	0	57	0	2983198720	43	3889
2026-01-02 04:46:07.99	272.05	23.32	-40.3	-40.9	21.0	0.00e+00	0	57	0	3005218816	43	3847
2026-01-02 04:46:11.95	271.38	22.86	-40.3	-40.9	21.0	0.00e+00	0	57	0	3027238912	43	3835
2026-01-02 04:46:15.92	270.72	22.40	-40.5	-41.0	20.8	0.00e+00	0	57	0	3049259008	43	3908
2026-01-02 04:46:19.88	270.09	21.95	-40.5	-41.1	20.7	0.00e+00	0	57	0	3071279104	43	3950
2026-01-02 04:46:23.83	269.47	21.50	-40.8	-41.4	20.5	0.00e+00	0	57	0	3094347776	43	4057
2026-01-02 04:46:27.78	268.87	21.06	-41.0	-41.6	20.3	0.00e+00	0	57	0	3116367872	43	4156
2026-01-02 04:46:31.74	268.29	20.62	-41.1	-41.7	20.2	0.00e+00	0	57	0	3138387968	43	4221
2026-01-02 04:46:35.68	267.73	20.18	-41.0	-41.6	20.3	0.00e+00	0	57	0	3160408064	44	3954
2026-01-02 04:46:39.63	267.18	19.75	-41.2	-41.9	20.1	0.00e+00	0	57	0	3182428160	44	4060
2026-01-02 04:46:43.58	266.65	19.33	-41.1	-41.8	20.2	0.00e+00	0	57	0	3205496832	44	4006
2026-01-02 04:46:47.53	266.13	18.91	-41.5	-42.2	19.8	0.00e+00	0	57	0	3227516928	44	4194
2026-01-02 04:46:51.50	265.63	18.49	-41.4	-42.1	19.9	0.00e+00	0	57	0	3249537024	44	4163
2026-01-02 04:46:55.45	265.14	18.08	-41.8	-42.5	19.5	0.00e+00	0	57	0	3271557120	45	4112
2026-01-02 04:46:59.41	264.66	17.67	-41.8	-42.4	19.5	0.00e+00	0	57	0	3294625792	45	4098
2026-01-02 04:47:03.36	264.20	17.27	-42.0	-42.7	19.3	0.00e+00	0	57	0	3316645888	46	3977
2026-01-02 04:47:07.32	263.74	16.87	-42.1	-42.8	19.2	0.00e+00	0	57	0	3338665984	46	4035
2026-01-02 04:47:11.28	263.30	16.47	-42.1	-42.8	19.1	0.00e+00	0	57	0	3360686080	46	4028
2026-01-02 04:47:15.22	262.88	16.09	-42.0	-42.7	19.2	0.00e+00	0	57	0	3382706176	46	3999
2026-01-02 04:47:19.18	262.46	15.70	-42.3	-43.1	18.9	0.00e+00	0	57	0	3405774848	46	4152
2026-01-02 04:47:23.13	262.05	15.32	-42.4	-43.1	18.9	0.00e+00	0	57	0	3427794944	46	4163
2026-01-02 04:47:27.10	261.66	14.94	-42.4	-43.2	18.8	0.00e+00	0	57	0	3449815040	47	3969
2026-01-02 04:47:31.05	261.27	14.57	-42.6	-43.3	18.6	0.00e+00	0	57	0	3471835136	47	4026
2026-01-02 04:47:35.01	260.90	14.21	-42.6	-43.4	18.6	0.00e+00	0	57	0	3494903808	47	4055
2026-01-02 04:47:38.97	260.53	13.84	-42.6	-43.4	18.5	0.00e+00	0	57	0	3516923904	47	4068
2026-01-02 04:47:42.91	260.17	13.49	-42.7	-43.5	18.4	0.00e+00	0	58	0	3538944000	47	4112
2026-01-02 04:47:46.88	259.82	13.13	-42.7	-43.5	18.4	0.00e+00	0	57	0	3560964096	47	4138
2026-01-02 04:47:50.83	259.49	12.78	-42.9	-43.7	18.1	0.00e+00	0	57	0	3582984192	47	4234
2026-01-02 04:47:54.79	259.15	12.43	-43.4	-44.3	17.8	0.00e+00	0	58	0	3606052864	48	4251
2026-01-02 04:47:58.75	258.83	12.09	-43.6	-44.4	17.6	0.00e+00	0	57	0	3628072960	48	4340
2026-01-02 04:48:02.70	258.51	11.75	-43.8	-44.7	17.3	0.00e+00	0	57	0	3650093056	49	4239
2026-01-02 04:48:06.66	258.20	11.42	-43.4	-44.3	17.7	0.00e+00	0	57	0	3672113152	49	4011
2026-01-02 04:48:10.64	257.90	11.08	-43.4	-44.3	17.7	0.00e+00	0	57	0	3695181824	49	4017
2026-01-02 04:48:14.59	257.61	10.76	-43.4	-44.2	17.8	0.00e+00	0	57	0	3717201920	49	3989
2026-01-02 04:48:18.55	257.32	10.43	-43.6	-44.5	17.5	0.00e+00	0	57	0	3739222016	49	4102
2026-01-02 04:48:22.52	257.04	10.11	-44.2	-45.1	16.9	0.00e+00	0	57	0	3761242112	50	4165
2026-01-02 04:48:26.46	256.76	9.80	-44.4	-45.4	16.6	0.00e+00	0	57	0	3784310784	50	4295
2026-01-02 04:48:30.41	256.50	9.48	-44.1	-45.1	16.9	0.00e+00	0	57	0	3806330880	50	4152
2026-01-02 04:48:34.37	256.23	9.17	-44.1	-45.0	16.9	0.00e+00	0	57	0	3828350976	50	4133
2026-01-02 04:48:38.32	255.98	8.87	-44.5	-45.6	16.3	0.00e+00	0	58	0	3850371072	50	4395
2026-01-02 04:48:42.28	255.72	8.56	-44.5	-45.5	16.3	0.00e+00	0	58	0	3872391168	50	4375
2026-01-02 04:48:46.24	255.48	8.26	-44.5	-45.5	16.4	0.00e+00	0	58	0	3895459840	51	4117
2026-01-02 04:48:50.19	255.24	7.96	-44.3	-45.4	16.5	0.00e+00	0	58	0	3917479936	51	4056
2026-01-02 04:48:54.14	255.00	7.67	-44.7	-45.8	16.0	0.00e+00	0	57	0	3939500032	51	4247
2026-01-02 04:48:58.10	254.77	7.38	-44.9	-46.0	15.7	0.00e+00	0	58	0	3961520128	51	4367
2026-01-02 04:49:02.06	254.54	7.09	-44.9	-46.1	15.6	0.00e+00	0	58	0	3984588800	52	4152
2026-01-02 04:49:06.02	254.32	6.80	-44.6	-45.7	15.8	0.00e+00	0	58	0	4006608896	52	4000
2026-01-02 04:49:09.97	254.11	6.52	-44.8	-45.9	15.6	0.00e+00	0	57	0	4028628992	52	4085
2026-01-02 04:49:13.91	253.90	6.24	-45.3	-46.6	14.8	0.00e+00	0	58	0	4050649088	52	4431
2026-01-02 04:49:17.87	253.69	5.96	-44.9	-46.1	15.5	0.00e+00	0	58	0	4072669184	51	4431
2026-01-02 04:49:21.80	253.48	5.68	-45.0	-46.2	15.3	0.00e+00	0	57	0	4094689280	51	4471
2026-01-02 04:49:25.76	253.28	5.41	-45.1	-46.3	15.1	0.00e+00	0	58	0	4117757952	51	4535
2026-01-02 04:49:29.71	253.09	5.14	-45.1	-46.4	14.9	0.00e+00	0	58	0	4139778048	52	4325
2026-01-02 04:49:33.66	252.90	4.87	-51.8	-62.6	3.8	8.46e-01	0	58	104	4148166656	65	13144
2026-01-02 04:49:37.62	252.71	4.61	-52.6	-63.3	3.8	8.46e-01	0	58	104	4148166656	66	13466
2026-01-02 04:49:41.56	252.52	4.34	-52.6	-63.4	3.8	8.46e-01	0	57	104	4148166656	67	12842
2026-01-02 04:49:45.51	252.34	4.08	-52.7	-63.5	3.8	8.47e-01	0	58	104	4148166656	67	13003
2026-01-02 04:49:49.48	252.16	3.82	-52.7	-63.5	3.8	8.46e-01	0	58	104	4148166656	67	13033
2026-01-02 04:49:53.44	251.99	3.56	-52.7	-63.5	3.8	8.45e-01	0	58	104	4148166656	67	13108
2026-01-02 04:49:57.39	251.82	3.31	-52.8	-63.6	3.8	8.46e-01	0	57	104	4148166656	67	13159
2026-01-02 04:50:01.34	251.65	3.06	-52.7	-63.6	3.8	8.45e-01	0	58	104	4148166656	67	13139

#Closed at: 2026-01-02 04:50:04
#Recorded file [4148 MB]: D:/Data/31026_260102_074931.dat