passes_logs/2026/01/02/R3.0SM8_Murmansk_STILSPACE/R3.0SM8_Murmansk_STILSPACE__20260102_071344_NOAA_20_JPSS-1_rec.log

#Pass ID: 20260102_071344_NOAA 20 (JPSS-1)
#Satellite: NOAA 20 (JPSS-1)
#Configuration: NOAA 20
#almurnet v.1.7.20240730
#Start time: 2026-01-02 07:14:15

#Version: 2.2.20231116
#Station: R3.0SM8_Murmansk_STILSPACE
#Location: 33.092731 lon 68.902999 lat
#TLE: 1 43013U 17073A   26001.30344297  .00000183  00000+0  10758-3 0  9995
#TLE: 2 43013  98.7621 302.3885 0001938  59.1624 300.9742 14.19532032420790

#Time	Az	El	Level	Level2	SNR	BER	BlckErr	Temp	State	Recorded	gain1	gain2
2026-01-02 07:14:15.06	97.25	4.92	-54.4	-74.3	3.8	7.45e-01	0	56	0	0	71	36863
2026-01-02 07:14:18.03	97.08	5.12	-52.6	-66.5	3.8	1.49e+00	0	57	104	0	68	17472
2026-01-02 07:14:20.98	96.90	5.31	-52.7	-66.6	3.8	1.49e+00	0	57	104	0	68	17490
2026-01-02 07:14:23.95	96.72	5.51	-52.6	-66.5	3.8	1.49e+00	0	57	104	0	68	17371
2026-01-02 07:14:26.90	96.54	5.71	-52.5	-66.5	3.8	1.49e+00	0	57	104	0	68	17319
2026-01-02 07:14:29.86	96.36	5.91	-52.5	-66.4	3.8	1.49e+00	0	57	104	0	67	18121
2026-01-02 07:14:32.83	96.17	6.11	-52.4	-66.3	3.8	1.49e+00	0	57	104	0	67	18060
2026-01-02 07:14:35.80	95.98	6.32	-52.3	-66.3	3.8	1.49e+00	0	57	104	0	67	18026
2026-01-02 07:14:38.76	95.79	6.52	-52.2	-66.2	3.8	1.49e+00	0	57	104	0	67	17756
2026-01-02 07:14:41.73	95.59	6.73	-52.1	-66.1	3.8	1.49e+00	0	57	104	0	67	17611
2026-01-02 07:14:44.69	95.39	6.93	-51.9	-65.7	3.8	1.49e+00	0	57	104	0	66	17793
2026-01-02 07:14:47.64	95.19	7.14	-51.9	-65.7	3.8	1.49e+00	0	57	104	0	66	17771
2026-01-02 07:14:50.60	94.99	7.35	-52.0	-65.7	3.8	1.49e+00	0	57	104	0	66	17770
2026-01-02 07:14:53.57	94.78	7.56	-52.0	-65.7	3.8	1.49e+00	0	57	104	0	66	17773
2026-01-02 07:14:56.53	94.57	7.77	-51.9	-65.5	3.8	1.49e+00	0	57	104	0	66	17383
2026-01-02 07:14:59.49	94.36	7.99	-51.8	-64.7	3.8	1.49e+00	0	57	104	0	66	15874
2026-01-02 07:15:02.46	94.14	8.20	-51.7	-62.6	4.1	1.46e+00	0	57	0	0	66	12378
2026-01-02 07:15:05.41	93.92	8.42	-51.4	-60.0	5.1	6.85e-01	0	57	0	3145728	65	9719
2026-01-02 07:15:08.36	93.70	8.63	-51.1	-57.9	6.6	2.50e-01	0	57	0	8388608	65	7664
2026-01-02 07:15:11.32	93.47	8.85	-51.1	-57.8	6.7	1.91e-01	0	57	0	14680064	65	7605
2026-01-02 07:15:14.29	93.24	9.07	-50.7	-56.6	7.9	9.15e-02	0	57	0	19922944	64	7039
2026-01-02 07:15:17.26	93.00	9.30	-50.6	-56.3	8.3	5.25e-02	0	57	0	25165824	64	6727
2026-01-02 07:15:20.24	92.76	9.52	-50.6	-56.1	8.4	6.39e-02	0	57	0	31457280	64	6610
2026-01-02 07:15:23.21	92.52	9.75	-49.8	-53.8	10.9	4.41e-03	0	57	0	36700160	62	5691
2026-01-02 07:15:26.17	92.27	9.97	-48.9	-52.0	12.8	1.36e-04	0	57	0	41943040	60	5180
2026-01-02 07:15:29.14	92.02	10.20	-48.4	-51.0	13.8	6.10e-06	0	57	0	48234496	59	4885
2026-01-02 07:15:32.09	91.77	10.43	-48.5	-51.1	13.8	3.80e-06	0	57	0	53477376	59	4934
2026-01-02 07:15:35.07	91.51	10.67	-48.5	-51.2	13.7	5.30e-06	0	57	0	58720256	59	4985
2026-01-02 07:15:38.03	91.25	10.90	-48.6	-51.3	13.5	3.80e-06	0	57	0	65011712	59	5091
2026-01-02 07:15:41.01	90.98	11.13	-48.7	-51.6	13.3	9.10e-06	0	57	0	70254592	59	5243
2026-01-02 07:15:43.96	90.71	11.37	-48.3	-50.8	14.1	3.80e-06	0	57	0	75497472	59	4761
2026-01-02 07:15:46.93	90.43	11.61	-48.1	-50.5	14.4	7.00e-07	0	57	0	80740352	59	4611
2026-01-02 07:15:49.89	90.15	11.85	-48.1	-50.5	14.4	0.00e+00	0	57	0	87031808	59	4602
2026-01-02 07:15:52.85	89.87	12.09	-48.1	-50.4	14.6	0.00e+00	0	57	0	92274688	59	4550
2026-01-02 07:15:55.82	89.57	12.33	-48.1	-50.5	14.4	7.00e-07	0	57	0	97517568	59	4599
2026-01-02 07:15:58.79	89.28	12.58	-48.4	-50.9	14.1	7.00e-07	0	57	0	103809024	59	4822
2026-01-02 07:16:01.75	88.98	12.83	-48.4	-50.9	14.1	7.00e-07	0	57	0	109051904	59	4825
2026-01-02 07:16:04.71	88.67	13.07	-48.5	-51.1	13.8	7.00e-07	0	57	0	114294784	59	4950
2026-01-02 07:16:07.69	88.36	13.32	-48.4	-51.0	13.9	7.60e-06	0	57	0	120586240	59	4892
2026-01-02 07:16:10.66	88.04	13.58	-48.5	-51.0	13.9	3.00e-06	0	57	0	125829120	59	4906
2026-01-02 07:16:13.63	87.72	13.83	-48.2	-50.6	14.3	0.00e+00	0	57	0	131072000	59	4701
2026-01-02 07:16:16.59	87.39	14.09	-48.3	-50.7	14.3	3.00e-06	0	57	0	136314880	59	4753
2026-01-02 07:16:19.56	87.06	14.34	-48.5	-51.0	14.0	0.00e+00	0	57	0	142606336	59	4873
2026-01-02 07:16:22.51	86.72	14.60	-48.2	-50.5	14.4	3.00e-06	0	57	0	147849216	59	4616
2026-01-02 07:16:25.48	86.37	14.86	-47.9	-50.3	14.7	0.00e+00	0	57	0	153092096	59	4519
2026-01-02 07:16:28.45	86.02	15.12	-48.1	-50.3	14.6	0.00e+00	0	57	0	159383552	59	4535
2026-01-02 07:16:31.40	85.66	15.39	-48.1	-50.4	14.7	7.00e-07	0	57	0	164626432	59	4572
2026-01-02 07:16:34.36	85.30	15.65	-48.1	-50.3	14.6	0.00e+00	0	57	0	169869312	58	4810
2026-01-02 07:16:37.33	84.92	15.92	-48.1	-50.3	14.6	0.00e+00	0	57	0	176160768	58	4814
2026-01-02 07:16:40.29	84.54	16.19	-48.3	-50.6	14.4	0.00e+00	0	57	0	181403648	58	4950
2026-01-02 07:16:43.25	84.16	16.46	-48.4	-50.9	14.0	5.30e-06	0	57	0	186646528	58	5133
2026-01-02 07:16:46.21	83.77	16.73	-48.0	-50.2	14.9	0.00e+00	0	57	0	191889408	58	4723
2026-01-02 07:16:49.18	83.37	17.00	-48.0	-50.3	14.8	0.00e+00	0	57	0	198180864	58	4765
2026-01-02 07:16:52.14	82.96	17.28	-48.2	-50.5	14.5	0.00e+00	0	57	0	203423744	58	4904
2026-01-02 07:16:55.10	82.54	17.55	-47.9	-50.0	15.1	0.00e+00	0	57	0	208666624	58	4641
2026-01-02 07:16:58.07	82.12	17.83	-48.0	-50.2	14.9	0.00e+00	0	57	0	214958080	58	4734
2026-01-02 07:17:01.03	81.69	18.11	-47.8	-49.9	15.2	0.00e+00	0	57	0	220200960	58	4563
2026-01-02 07:17:04.01	81.25	18.39	-48.0	-50.3	14.8	0.00e+00	0	57	0	225443840	58	4760
2026-01-02 07:17:06.98	80.80	18.68	-47.7	-49.7	15.3	0.00e+00	0	57	0	231735296	58	4483
2026-01-02 07:17:09.94	80.34	18.96	-47.6	-49.7	15.5	0.00e+00	0	57	0	236978176	58	4446
2026-01-02 07:17:12.90	79.88	19.25	-47.6	-49.5	15.5	0.00e+00	0	57	0	242221056	58	4390
2026-01-02 07:17:15.86	79.40	19.53	-47.7	-49.6	15.5	7.00e-07	0	57	0	247463936	58	4437
2026-01-02 07:17:18.83	78.92	19.82	-47.6	-49.6	15.5	0.00e+00	0	57	0	253755392	58	4402
2026-01-02 07:17:21.80	78.42	20.11	-47.8	-49.9	15.2	0.00e+00	0	57	0	258998272	58	4581
2026-01-02 07:17:24.77	77.92	20.40	-47.3	-49.1	16.0	0.00e+00	0	57	0	264241152	57	4432
2026-01-02 07:17:27.75	77.41	20.69	-47.7	-49.8	15.4	0.00e+00	0	57	0	270532608	57	4767
2026-01-02 07:17:30.69	76.89	20.98	-48.1	-50.4	14.7	0.00e+00	0	57	0	275775488	58	4841
2026-01-02 07:17:33.66	76.36	21.28	-48.5	-50.9	14.2	0.00e+00	0	57	0	281018368	58	5137
2026-01-02 07:17:36.62	75.81	21.57	-48.1	-50.3	14.9	7.00e-07	0	57	0	287309824	58	4770
2026-01-02 07:17:39.60	75.26	21.86	-48.2	-50.5	14.6	7.00e-07	0	57	0	292552704	58	4896
2026-01-02 07:17:42.57	74.69	22.16	-47.9	-50.1	15.0	0.00e+00	0	57	0	297795584	58	4690
2026-01-02 07:17:45.54	74.12	22.45	-47.9	-50.0	15.2	0.00e+00	0	57	0	304087040	58	4613
2026-01-02 07:17:48.52	73.53	22.75	-48.0	-50.2	14.9	0.00e+00	0	57	0	309329920	58	4755
2026-01-02 07:17:51.49	72.93	23.05	-47.5	-49.5	15.6	0.00e+00	0	57	0	314572800	58	4351
2026-01-02 07:17:54.46	72.32	23.34	-47.6	-49.7	15.5	0.00e+00	0	57	0	320864256	58	4448
2026-01-02 07:17:57.44	71.70	23.64	-47.3	-49.1	16.0	0.00e+00	0	57	0	326107136	57	4413
2026-01-02 07:18:00.41	71.06	23.93	-47.2	-49.0	16.2	0.00e+00	0	57	0	331350016	57	4383
2026-01-02 07:18:03.39	70.42	24.23	-47.3	-49.2	16.0	0.00e+00	0	57	0	336592896	57	4444
2026-01-02 07:18:06.36	69.76	24.52	-46.8	-48.5	16.6	0.00e+00	0	57	0	342884352	56	4362
2026-01-02 07:18:09.32	69.09	24.81	-47.0	-48.8	16.4	0.00e+00	0	57	0	348127232	56	4517
2026-01-02 07:18:12.29	68.41	25.11	-47.0	-48.8	16.4	0.00e+00	0	57	0	353370112	56	4497
2026-01-02 07:18:15.25	67.71	25.39	-47.0	-48.7	16.5	0.00e+00	0	57	0	359661568	56	4471
2026-01-02 07:18:18.21	67.01	25.68	-46.9	-48.7	16.5	0.00e+00	0	57	0	364904448	56	4451
2026-01-02 07:18:21.17	66.29	25.97	-47.3	-49.1	16.0	0.00e+00	0	57	0	370147328	56	4699
2026-01-02 07:18:24.14	65.55	26.25	-47.5	-49.4	15.8	0.00e+00	0	57	0	376438784	56	4815
2026-01-02 07:18:27.12	64.80	26.54	-47.5	-49.4	15.8	0.00e+00	0	57	0	381681664	56	4830
2026-01-02 07:18:30.07	64.04	26.81	-47.6	-49.6	15.5	0.00e+00	0	57	0	386924544	57	4694
2026-01-02 07:18:33.05	63.26	27.09	-47.9	-50.0	15.2	0.00e+00	0	57	0	392167424	57	4877
2026-01-02 07:18:36.03	62.47	27.37	-48.0	-50.1	15.1	0.00e+00	0	57	0	398458880	57	4934
2026-01-02 07:18:39.00	61.67	27.64	-48.1	-50.3	14.9	0.00e+00	0	57	0	403701760	58	4792
2026-01-02 07:18:41.97	60.85	27.90	-48.4	-50.8	14.4	0.00e+00	0	57	0	408944640	58	5064
2026-01-02 07:18:44.94	60.02	28.16	-48.6	-51.0	14.2	2.20e-06	0	57	0	415236096	59	4879
2026-01-02 07:18:47.91	59.18	28.42	-48.6	-51.2	14.0	1.50e-06	0	57	0	420478976	59	4988
2026-01-02 07:18:50.87	58.32	28.67	-49.0	-51.7	13.5	1.06e-05	0	57	0	425721856	59	5309
2026-01-02 07:18:53.84	57.45	28.92	-49.0	-52.0	13.2	2.89e-05	0	58	0	432013312	60	5175
2026-01-02 07:18:56.82	56.57	29.17	-49.1	-51.9	13.3	3.58e-05	0	57	0	437256192	60	5111
2026-01-02 07:18:59.77	55.67	29.40	-48.8	-51.4	13.7	3.00e-06	0	57	0	442499072	60	4849
2026-01-02 07:19:02.74	54.76	29.63	-48.9	-51.7	13.5	2.05e-05	0	57	0	448790528	60	4996
2026-01-02 07:19:05.71	53.84	29.86	-48.3	-50.5	14.7	0.00e+00	0	57	0	454033408	59	4640
2026-01-02 07:19:08.68	52.90	30.07	-48.3	-50.6	14.6	7.00e-07	0	57	0	459276288	59	4669
2026-01-02 07:19:11.65	51.95	30.28	-48.4	-50.7	14.5	0.00e+00	0	57	0	465567744	59	4734
2026-01-02 07:19:14.61	50.99	30.49	-48.2	-50.5	14.7	0.00e+00	0	57	0	470810624	59	4607
2026-01-02 07:19:17.57	50.02	30.68	-48.5	-50.9	14.2	0.00e+00	0	57	0	476053504	59	4866
2026-01-02 07:19:20.54	49.04	30.87	-48.5	-51.0	14.2	0.00e+00	0	57	0	481296384	59	4879
2026-01-02 07:19:23.51	48.04	31.05	-48.9	-51.5	13.6	1.29e-05	0	57	0	487587840	60	4910
2026-01-02 07:19:26.48	47.03	31.22	-48.8	-51.5	13.6	3.00e-06	0	57	0	492830720	60	4926
2026-01-02 07:19:29.44	46.02	31.38	-48.5	-50.9	14.2	1.50e-06	0	57	0	498073600	60	4574
2026-01-02 07:19:32.39	45.00	31.53	-48.5	-50.8	14.3	1.50e-06	0	57	0	504365056	59	4814
2026-01-02 07:19:35.36	43.96	31.67	-48.6	-51.0	14.3	7.00e-07	0	57	0	509607936	59	4871
2026-01-02 07:19:38.33	42.92	31.80	-48.4	-50.7	14.5	7.00e-07	0	57	0	514850816	59	4743
2026-01-02 07:19:41.30	41.86	31.92	-47.9	-50.0	15.3	0.00e+00	0	57	0	521142272	58	4601
2026-01-02 07:19:44.28	40.80	32.03	-48.1	-50.3	15.0	0.00e+00	0	57	0	526385152	58	4766
2026-01-02 07:19:47.24	39.73	32.13	-48.1	-50.3	14.8	7.00e-07	0	57	0	531628032	58	4805
2026-01-02 07:19:50.20	38.66	32.22	-48.3	-50.5	14.8	0.00e+00	0	57	0	536870912	58	4872
2026-01-02 07:19:53.16	37.59	32.30	-48.4	-50.8	14.4	0.00e+00	0	57	0	543162368	58	5067
2026-01-02 07:19:56.14	36.50	32.36	-48.7	-51.2	14.0	3.00e-06	0	57	0	548405248	59	4999
2026-01-02 07:19:59.10	35.41	32.41	-49.2	-52.1	13.1	1.90e-05	0	57	0	553648128	60	5235
2026-01-02 07:20:02.06	34.33	32.46	-48.9	-51.7	13.4	1.06e-05	0	57	0	559939584	60	5026
2026-01-02 07:20:05.03	33.23	32.49	-49.0	-51.8	13.3	2.21e-05	0	57	0	565182464	60	5076
2026-01-02 07:20:08.00	32.14	32.51	-49.1	-51.9	13.2	1.44e-05	0	57	0	570425344	60	5143
2026-01-02 07:20:10.97	31.04	32.51	-48.5	-50.9	14.2	5.30e-06	0	57	0	576716800	60	4596
2026-01-02 07:20:13.95	29.94	32.51	-48.5	-50.8	14.4	0.00e+00	0	57	0	581959680	59	4775
2026-01-02 07:20:16.91	28.85	32.49	-48.5	-50.8	14.3	0.00e+00	0	57	0	587202560	59	4793
2026-01-02 07:20:19.88	27.75	32.46	-48.8	-51.4	13.7	4.50e-06	0	57	0	593494016	59	5147
2026-01-02 07:20:22.85	26.66	32.42	-49.1	-52.0	13.1	1.60e-05	0	57	0	598736896	60	5181
2026-01-02 07:20:25.82	25.57	32.37	-48.9	-51.7	13.3	1.44e-05	0	57	0	603979776	60	5012
2026-01-02 07:20:28.78	24.49	32.31	-48.8	-52.0	12.3	1.40e-04	0	57	0	609222656	60	5187
2026-01-02 07:20:31.75	23.41	32.23	-48.6	-51.9	12.4	1.24e-04	0	57	0	615514112	60	5116
2026-01-02 07:20:34.71	22.34	32.15	-48.7	-52.0	12.4	1.27e-04	0	57	0	620756992	60	5169
2026-01-02 07:20:37.68	21.27	32.05	-49.3	-53.3	10.9	1.92e-03	0	57	0	625999872	60	6015
2026-01-02 07:20:40.64	20.21	31.94	-49.8	-54.5	9.6	1.03e-02	0	57	0	632291328	61	6511
2026-01-02 07:20:43.62	19.15	31.82	-50.0	-55.3	8.7	4.01e-02	0	57	0	637534208	61	7139
2026-01-02 07:20:46.58	18.11	31.69	-49.4	-53.5	10.7	4.13e-03	0	58	0	642777088	61	5821
2026-01-02 07:20:49.55	17.07	31.55	-49.6	-53.6	10.8	2.79e-03	0	57	0	649068544	61	5868
2026-01-02 07:20:52.53	16.04	31.40	-49.5	-53.2	11.5	8.90e-04	0	57	0	654311424	61	5613
2026-01-02 07:20:55.51	15.02	31.24	-48.8	-51.7	13.1	4.42e-05	0	57	0	659554304	60	5005
2026-01-02 07:20:58.47	14.02	31.08	-48.9	-51.7	13.3	9.10e-06	0	57	0	665845760	60	4988
2026-01-02 07:21:01.44	13.02	30.90	-49.3	-52.3	12.7	8.08e-05	0	57	0	671088640	60	5399
2026-01-02 07:21:04.41	12.03	30.71	-49.1	-52.1	12.9	6.86e-05	0	57	0	676331520	60	5254
2026-01-02 07:21:07.38	11.06	30.52	-49.1	-52.1	12.9	2.97e-05	0	57	0	681574400	60	5248
2026-01-02 07:21:10.36	10.09	30.32	-49.3	-52.3	12.8	7.55e-05	0	57	0	687865856	60	5360
2026-01-02 07:21:13.33	9.14	30.11	-49.1	-51.9	13.2	1.37e-05	0	57	0	693108736	60	5108
2026-01-02 07:21:16.30	8.21	29.89	-49.1	-51.9	13.2	2.51e-05	0	57	0	698351616	60	5129
2026-01-02 07:21:19.27	7.28	29.67	-49.3	-52.3	12.9	5.11e-05	0	58	0	704643072	60	5345
2026-01-02 07:21:22.25	6.37	29.44	-49.1	-52.0	13.1	3.35e-05	0	57	0	709885952	60	5202
2026-01-02 07:21:25.21	5.47	29.20	-49.0	-51.7	13.4	2.13e-05	0	57	0	715128832	60	5034
2026-01-02 07:21:28.18	4.59	28.96	-48.8	-51.4	13.8	6.10e-06	0	57	0	721420288	60	4828
2026-01-02 07:21:31.15	3.71	28.72	-48.5	-51.0	14.1	1.50e-06	0	57	0	726663168	60	4642
2026-01-02 07:21:34.12	2.86	28.46	-48.6	-51.1	14.0	7.00e-07	0	57	0	731906048	60	4702
2026-01-02 07:21:37.09	2.01	28.21	-48.5	-51.0	14.1	0.00e+00	0	57	0	738197504	59	4906
2026-01-02 07:21:40.06	1.18	27.95	-48.7	-51.2	13.9	6.10e-06	0	57	0	743440384	59	5006
2026-01-02 07:21:43.04	0.36	27.68	-48.7	-51.2	13.9	3.00e-06	0	57	0	748683264	59	5013
2026-01-02 07:21:46.01	359.56	27.41	-48.4	-50.8	14.3	7.00e-07	0	57	0	754974720	59	4789
2026-01-02 07:21:48.97	358.77	27.14	-48.4	-50.7	14.5	0.00e+00	0	57	0	760217600	59	4720
2026-01-02 07:21:51.94	358.00	26.86	-48.2	-50.4	14.7	7.00e-07	0	57	0	765460480	59	4586
2026-01-02 07:21:54.89	357.24	26.59	-47.5	-49.4	15.7	0.00e+00	0	57	0	770703360	58	4307
2026-01-02 07:21:57.86	356.49	26.31	-47.2	-48.9	16.2	0.00e+00	0	58	0	776994816	57	4336
2026-01-02 07:22:00.82	355.76	26.02	-47.1	-48.8	16.3	0.00e+00	0	57	0	782237696	57	4258
2026-01-02 07:22:03.77	355.04	25.74	-46.9	-48.6	16.5	0.00e+00	0	57	0	787480576	57	4173
2026-01-02 07:22:06.74	354.33	25.45	-46.7	-48.2	16.9	0.00e+00	0	57	0	793772032	56	4237
2026-01-02 07:22:09.71	353.63	25.16	-46.2	-47.7	17.2	0.00e+00	0	57	0	799014912	55	4234
2026-01-02 07:22:12.68	352.95	24.87	-46.0	-47.4	17.6	0.00e+00	0	57	0	804257792	55	4069
2026-01-02 07:22:15.62	352.28	24.58	-45.8	-47.1	17.8	0.00e+00	0	57	0	810549248	54	4176
2026-01-02 07:22:18.59	351.63	24.29	-45.8	-47.2	17.8	0.00e+00	0	57	0	815792128	54	4195
2026-01-02 07:22:21.56	350.98	24.00	-45.7	-47.1	17.8	0.00e+00	0	57	0	821035008	54	4148
2026-01-02 07:22:24.52	350.35	23.70	-45.8	-47.3	17.7	0.00e+00	0	57	0	826277888	54	4243
2026-01-02 07:22:27.48	349.73	23.41	-45.9	-47.2	17.7	0.00e+00	0	57	0	832569344	54	4238
2026-01-02 07:22:30.43	349.12	23.12	-45.8	-47.2	17.7	0.00e+00	0	57	0	837812224	54	4226
2026-01-02 07:22:33.41	348.52	22.82	-46.2	-47.6	17.3	0.00e+00	0	57	0	843055104	54	4437
2026-01-02 07:22:36.38	347.93	22.53	-46.4	-48.0	16.9	0.00e+00	0	57	0	849346560	54	4624
2026-01-02 07:22:39.35	347.36	22.23	-46.6	-48.2	16.7	0.00e+00	0	57	0	854589440	55	4464
2026-01-02 07:22:42.33	346.79	21.94	-46.6	-48.3	16.6	0.00e+00	0	57	0	859832320	55	4520
2026-01-02 07:22:45.30	346.23	21.64	-46.8	-48.5	16.4	0.00e+00	0	57	0	866123776	55	4602
2026-01-02 07:22:48.27	345.69	21.35	-46.1	-47.6	17.2	0.00e+00	0	57	0	871366656	55	4185
2026-01-02 07:22:51.25	345.16	21.06	-46.3	-47.8	17.1	0.00e+00	0	57	0	876609536	55	4253
2026-01-02 07:22:54.21	344.63	20.77	-46.6	-48.2	16.6	0.00e+00	0	57	0	881852416	55	4482
2026-01-02 07:22:57.18	344.12	20.48	-46.5	-48.2	16.5	0.00e+00	0	57	0	888143872	55	4474
2026-01-02 07:23:00.16	343.62	20.18	-46.6	-48.4	16.4	0.00e+00	0	58	0	893386752	55	4553
2026-01-02 07:23:03.11	343.12	19.90	-46.9	-48.8	15.9	0.00e+00	0	57	0	898629632	55	4773
2026-01-02 07:23:06.08	342.64	19.61	-47.7	-50.0	14.6	7.00e-07	0	57	0	904921088	57	4871
2026-01-02 07:23:09.04	342.17	19.32	-48.6	-51.9	12.3	9.53e-05	0	57	0	910163968	59	5438
2026-01-02 07:23:12.03	341.70	19.04	-49.6	-54.5	9.3	1.43e-02	0	57	0	915406848	60	6914
2026-01-02 07:23:15.00	341.24	18.75	-49.4	-54.6	9.0	2.88e-02	0	58	0	921698304	61	6576
2026-01-02 07:23:17.95	340.79	18.47	-49.2	-53.5	10.4	8.13e-03	0	57	0	926941184	61	5812
2026-01-02 07:23:20.93	340.35	18.19	-48.7	-51.7	12.6	1.10e-04	0	57	0	932184064	60	5038
2026-01-02 07:23:23.89	339.92	17.91	-48.3	-50.9	13.7	1.98e-05	0	57	0	938475520	59	4853
2026-01-02 07:23:26.85	339.50	17.63	-48.1	-50.6	14.2	1.50e-06	0	57	0	943718400	59	4652
2026-01-02 07:23:29.82	339.08	17.36	-48.4	-51.1	13.8	6.10e-06	0	57	0	948961280	59	4927
2026-01-02 07:23:32.78	338.67	17.08	-48.1	-50.5	14.3	2.20e-06	0	57	0	954204160	59	4626
2026-01-02 07:23:35.73	338.28	16.81	-47.7	-49.8	15.0	0.00e+00	0	57	0	960495616	58	4518
2026-01-02 07:23:38.69	337.88	16.54	-47.7	-49.9	15.0	0.00e+00	0	57	0	965738496	58	4550
2026-01-02 07:23:41.66	337.50	16.27	-47.8	-50.1	14.8	0.00e+00	0	57	0	970981376	58	4655
2026-01-02 07:23:44.62	337.12	16.00	-48.0	-50.3	14.6	0.00e+00	0	57	0	977272832	58	4776
2026-01-02 07:23:47.60	336.74	15.73	-48.1	-50.5	14.3	0.00e+00	0	57	0	982515712	58	4887
2026-01-02 07:23:50.58	336.38	15.46	-48.1	-50.5	14.3	0.00e+00	0	57	0	987758592	58	4904
2026-01-02 07:23:53.55	336.02	15.20	-48.2	-50.6	14.2	7.00e-07	0	57	0	994050048	58	4974
2026-01-02 07:23:56.51	335.67	14.94	-48.3	-50.7	14.1	7.00e-07	0	57	0	999292928	58	5010
2026-01-02 07:23:59.49	335.32	14.68	-48.2	-50.6	14.2	0.00e+00	0	57	0	1004535808	58	4976
2026-01-02 07:24:02.44	334.98	14.42	-48.0	-50.3	14.6	7.00e-07	0	57	0	1010827264	58	4763
2026-01-02 07:24:05.40	334.65	14.17	-48.0	-50.3	14.6	7.00e-07	0	57	0	1016070144	58	4783
2026-01-02 07:24:08.36	334.32	13.91	-48.1	-50.4	14.5	0.00e+00	0	57	0	1021313024	58	4847
2026-01-02 07:24:11.34	334.00	13.66	-48.3	-50.7	14.2	7.00e-07	0	58	0	1026555904	58	5002
2026-01-02 07:24:14.30	333.68	13.41	-48.3	-50.8	14.1	1.50e-06	0	57	0	1032847360	58	5067
2026-01-02 07:24:17.25	333.37	13.16	-48.3	-50.7	14.1	7.00e-07	0	57	0	1038090240	58	5020
2026-01-02 07:24:20.22	333.07	12.91	-48.3	-50.9	14.0	3.00e-06	0	58	0	1043333120	58	5109
2026-01-02 07:24:23.19	332.76	12.66	-48.3	-50.8	14.1	2.20e-06	0	57	0	1049624576	58	5062
2026-01-02 07:24:26.17	332.47	12.42	-48.2	-50.5	14.3	0.00e+00	0	58	0	1054867456	58	4918
2026-01-02 07:24:29.14	332.18	12.17	-48.4	-50.9	13.9	2.20e-06	0	57	0	1060110336	58	5108
2026-01-02 07:24:32.08	331.89	11.93	-48.2	-50.6	14.1	1.50e-06	0	57	0	1066401792	58	4981
2026-01-02 07:24:35.06	331.61	11.69	-48.2	-50.7	14.1	0.00e+00	0	57	0	1071644672	58	5008
2026-01-02 07:24:38.03	331.34	11.45	-48.3	-50.8	14.0	1.50e-06	0	57	0	1076887552	58	5066
2026-01-02 07:24:40.99	331.06	11.22	-48.4	-50.9	13.8	3.80e-06	0	58	0	1082130432	58	5138
2026-01-02 07:24:43.96	330.80	10.98	-48.6	-51.3	13.5	4.50e-06	0	58	0	1088421888	58	5357
2026-01-02 07:24:46.91	330.54	10.75	-48.7	-51.4	13.3	1.14e-05	0	57	0	1093664768	59	5134
2026-01-02 07:24:49.89	330.28	10.52	-48.7	-51.7	13.0	3.73e-05	0	58	0	1098907648	59	5296
2026-01-02 07:24:52.85	330.02	10.29	-48.9	-52.0	12.7	9.99e-05	0	57	0	1105199104	59	5486
2026-01-02 07:24:55.82	329.77	10.06	-49.2	-52.5	12.1	2.26e-04	0	57	0	1110441984	60	5510
2026-01-02 07:24:58.80	329.53	9.83	-49.3	-52.7	11.9	3.92e-04	0	57	0	1115684864	60	5646
2026-01-02 07:25:01.78	329.28	9.60	-49.3	-52.8	11.9	3.89e-04	0	58	0	1121976320	60	5669
2026-01-02 07:25:04.75	329.05	9.38	-48.9	-52.1	12.5	1.20e-04	0	57	0	1127219200	60	5242
2026-01-02 07:25:07.71	328.81	9.16	-48.9	-52.1	12.5	1.05e-04	0	58	0	1132462080	60	5226
2026-01-02 07:25:10.67	328.58	8.94	-49.1	-52.4	12.1	3.26e-04	0	57	0	1138753536	60	5452
2026-01-02 07:25:13.65	328.35	8.72	-49.0	-52.3	12.3	1.98e-04	0	57	0	1143996416	60	5352
2026-01-02 07:25:16.61	328.13	8.50	-49.2	-52.7	11.9	3.58e-04	0	57	0	1149239296	60	5600
2026-01-02 07:25:19.58	327.91	8.28	-49.3	-52.9	11.6	7.36e-04	0	57	0	1154482176	60	5764
2026-01-02 07:25:22.56	327.69	8.07	-49.4	-53.3	11.2	1.44e-03	0	57	0	1160773632	60	5993
2026-01-02 07:25:25.52	327.48	7.85	-49.5	-53.3	11.2	1.29e-03	0	57	0	1166016512	60	6008
2026-01-02 07:25:28.48	327.27	7.64	-49.6	-53.6	10.8	2.20e-03	0	57	0	1171259392	61	5893
2026-01-02 07:25:31.44	327.07	7.43	-49.7	-53.8	10.6	3.29e-03	0	57	0	1177550848	61	6051
2026-01-02 07:25:34.41	326.86	7.22	-49.8	-54.1	10.3	5.56e-03	0	57	0	1182793728	61	6231
2026-01-02 07:25:37.37	326.66	7.01	-49.7	-54.1	10.2	6.09e-03	0	57	0	1188036608	61	6239
2026-01-02 07:25:40.34	326.46	6.81	-49.8	-54.1	10.2	6.84e-03	0	57	0	1194328064	61	6263
2026-01-02 07:25:43.29	326.27	6.60	-49.8	-54.1	10.2	4.98e-03	0	57	0	1199570944	61	6274
2026-01-02 07:25:46.27	326.08	6.40	-49.6	-53.9	10.4	5.31e-03	0	57	0	1204813824	61	6106
2026-01-02 07:25:49.25	325.89	6.19	-49.5	-53.6	10.7	2.70e-03	0	57	0	1210056704	61	5865
2026-01-02 07:25:52.22	325.70	5.99	-49.6	-53.7	10.5	3.78e-03	0	57	0	1216348160	61	5978
2026-01-02 07:25:55.19	325.52	5.79	-49.6	-53.7	10.5	5.32e-03	0	57	0	1221591040	61	5973
2026-01-02 07:25:58.17	325.34	5.59	-49.6	-53.9	10.3	4.45e-03	0	57	0	1226833920	61	6101
2026-01-02 07:26:01.13	325.16	5.39	-49.8	-54.3	9.9	8.33e-03	0	57	0	1233125376	61	6370
2026-01-02 07:26:04.12	324.98	5.20	-49.8	-54.5	9.7	1.46e-02	0	57	0	1238368256	61	6501
2026-01-02 07:26:07.08	324.81	5.00	-51.4	-63.1	4.0	2.07e-02	0	57	0	1243611136	64	14749
2026-01-02 07:26:10.05	324.64	4.81	-48.1	-61.9	3.8	1.49e+00	0	57	104	1243611136	59	17111
2026-01-02 07:26:13.00	324.47	4.61	-52.1	-65.9	3.8	1.49e+00	0	57	104	1243611136	65	19259
2026-01-02 07:26:15.98	324.30	4.42	-52.4	-66.2	3.8	1.49e+00	0	57	104	1243611136	66	18802
2026-01-02 07:26:18.95	324.14	4.23	-52.4	-66.3	3.8	1.49e+00	0	57	104	1243611136	66	19065
2026-01-02 07:26:21.92	323.98	4.04	-52.5	-66.4	3.8	1.49e+00	0	58	104	1243611136	66	19201
2026-01-02 07:26:24.89	323.82	3.85	-52.4	-66.4	3.8	1.49e+00	0	57	104	1243611136	66	19241
2026-01-02 07:26:27.87	323.66	3.66	-52.6	-66.4	3.8	1.49e+00	0	58	104	1243611136	67	18161
2026-01-02 07:26:30.84	323.51	3.47	-52.6	-66.4	3.8	1.49e+00	0	58	104	1243611136	67	18234
2026-01-02 07:26:33.81	323.35	3.29	-52.5	-66.4	3.8	1.49e+00	0	57	104	1243611136	67	18280
2026-01-02 07:26:36.78	323.20	3.10	-52.5	-66.4	3.8	1.49e+00	0	58	104	1243611136	67	18210

#Closed at: 2026-01-02 07:26:38
#Recorded file [1243 MB]: D:/Data/31026_260102_102607.dat