passes_logs/2026/01/02/R3.0SM8_Murmansk_STILSPACE/R3.0SM8_Murmansk_STILSPACE__20260102_205608_NOAA_20_JPSS-1_rec.log

#Pass ID: 20260102_205608_NOAA 20 (JPSS-1)
#Satellite: NOAA 20 (JPSS-1)
#Configuration: NOAA 20
#almurnet v.1.7.20240730
#Start time: 2026-01-02 20:56:08

#Version: 2.2.20231116
#Station: R3.0SM8_Murmansk_STILSPACE
#Location: 33.092731 lon 68.902999 lat
#TLE: 1 43013U 17073A   26002.21975278  .00000202  00000+0  11669-3 0  9999
#TLE: 2 43013  98.7622 303.2950 0001915  57.9213 302.2149 14.19532512420923

#Time	Az	El	Level	Level2	SNR	BER	BlckErr	Temp	State	Recorded	gain1	gain2
2026-01-02 20:56:08.47	21.56	3.00	-52.8	-66.8	3.8	1.49e+00	0	45	0	0	67	19105
2026-01-02 20:56:11.43	21.90	3.11	-52.9	-67.0	3.8	1.49e+00	0	46	104	0	68	18339
2026-01-02 20:56:14.40	22.24	3.23	-53.0	-66.9	3.8	1.49e+00	0	46	104	0	68	18303
2026-01-02 20:56:17.38	22.58	3.34	-52.8	-66.9	3.8	1.49e+00	0	46	104	0	68	18215
2026-01-02 20:56:20.34	22.93	3.46	-52.9	-66.9	3.8	1.49e+00	0	46	104	0	68	18140
2026-01-02 20:56:23.32	23.28	3.57	-52.9	-66.8	3.8	1.49e+00	0	46	104	0	68	17989
2026-01-02 20:56:26.28	23.63	3.69	-52.9	-66.8	3.8	1.49e+00	0	47	104	0	68	17930
2026-01-02 20:56:29.25	23.98	3.80	-52.7	-66.7	3.8	1.49e+00	0	47	104	0	68	17694
2026-01-02 20:56:32.19	24.34	3.91	-52.6	-66.4	3.8	1.49e+00	0	47	104	0	68	17177
2026-01-02 20:56:35.15	24.69	4.02	-51.9	-65.8	3.8	1.49e+00	0	48	104	0	66	17993
2026-01-02 20:56:38.12	25.06	4.14	-51.9	-65.8	3.8	1.49e+00	0	47	104	0	66	17926
2026-01-02 20:56:41.10	25.42	4.25	-51.9	-65.8	3.8	1.49e+00	0	48	104	0	66	17946
2026-01-02 20:56:44.07	25.79	4.36	-51.7	-65.8	3.8	1.49e+00	0	48	104	0	66	18041
2026-01-02 20:56:47.04	26.16	4.47	-51.8	-65.8	3.8	1.49e+00	0	48	104	0	66	17898
2026-01-02 20:56:50.00	26.53	4.58	-51.9	-65.5	3.8	1.49e+00	0	48	104	0	66	17478
2026-01-02 20:56:52.98	26.91	4.69	-51.8	-65.7	3.8	1.49e+00	0	49	104	0	66	17790
2026-01-02 20:56:55.95	27.29	4.80	-51.7	-64.5	3.8	1.49e+00	0	49	104	0	66	15432
2026-01-02 20:56:58.92	27.67	4.91	-51.4	-60.0	5.2	8.65e-01	0	49	0	1048576	65	9745
2026-01-02 20:57:01.90	28.05	5.02	-50.4	-55.6	8.8	4.22e-02	0	49	0	7340032	64	6253
2026-01-02 20:57:04.88	28.44	5.13	-50.4	-55.4	9.0	2.43e-02	0	49	0	12582912	63	6462
2026-01-02 20:57:07.86	28.83	5.24	-49.8	-54.1	10.6	5.40e-03	0	49	0	17825792	62	5872
2026-01-02 20:57:10.82	29.22	5.34	-49.4	-52.9	11.7	7.97e-04	0	50	0	24117248	62	5115
2026-01-02 20:57:13.78	29.61	5.45	-49.6	-53.3	11.5	8.32e-04	0	50	0	29360128	61	5718
2026-01-02 20:57:16.74	30.01	5.55	-49.5	-53.1	11.6	4.95e-04	0	50	0	34603008	61	5547
2026-01-02 20:57:19.72	30.41	5.66	-49.3	-52.7	12.0	3.96e-04	0	50	0	39845888	61	5338
2026-01-02 20:57:22.68	30.81	5.76	-49.3	-52.8	12.1	2.94e-04	0	50	0	46137344	61	5346
2026-01-02 20:57:25.66	31.22	5.86	-49.3	-52.8	12.1	4.87e-04	0	50	0	51380224	61	5387
2026-01-02 20:57:28.63	31.62	5.97	-49.1	-52.4	12.3	1.66e-04	0	50	0	56623104	61	5113
2026-01-02 20:57:31.59	32.03	6.07	-49.2	-52.4	12.6	1.49e-04	0	50	0	62914560	61	5122
2026-01-02 20:57:34.56	32.45	6.17	-48.9	-51.8	12.9	5.18e-05	0	50	0	68157440	60	5098
2026-01-02 20:57:37.52	32.86	6.27	-49.1	-52.2	12.9	8.16e-05	0	51	0	73400320	60	5319
2026-01-02 20:57:40.49	33.28	6.36	-49.1	-52.3	12.7	1.11e-04	0	51	0	79691776	60	5344
2026-01-02 20:57:43.45	33.70	6.46	-49.3	-52.6	12.4	1.24e-04	0	51	0	84934656	60	5592
2026-01-02 20:57:46.40	34.12	6.56	-49.2	-52.5	12.3	1.70e-04	0	51	0	90177536	60	5493
2026-01-02 20:57:49.35	34.55	6.65	-49.3	-52.6	12.3	1.69e-04	0	51	0	96468992	60	5541
2026-01-02 20:57:52.32	34.98	6.75	-49.5	-53.0	12.0	3.71e-04	0	51	0	101711872	61	5503
2026-01-02 20:57:55.30	35.41	6.84	-49.0	-52.2	12.8	9.15e-05	0	51	0	106954752	61	4990
2026-01-02 20:57:58.26	35.85	6.94	-49.1	-52.2	12.6	7.40e-05	0	51	0	112197632	61	5022
2026-01-02 20:58:01.22	36.28	7.03	-49.1	-52.1	12.8	8.31e-05	0	52	0	118489088	61	4977
2026-01-02 20:58:04.17	36.72	7.12	-49.2	-52.3	12.5	1.14e-04	0	52	0	123731968	61	5067
2026-01-02 20:58:07.13	37.16	7.21	-49.3	-52.5	12.4	1.68e-04	0	52	0	128974848	61	5216
2026-01-02 20:58:10.10	37.61	7.30	-49.2	-52.6	12.4	1.36e-04	0	52	0	135266304	61	5240
2026-01-02 20:58:13.07	38.06	7.38	-49.4	-52.8	12.3	1.77e-04	0	52	0	140509184	61	5341
2026-01-02 20:58:16.04	38.51	7.47	-49.2	-52.4	12.3	1.75e-04	0	52	0	145752064	61	5153
2026-01-02 20:58:19.01	38.96	7.55	-49.4	-52.8	12.3	1.72e-04	0	52	0	152043520	61	5402
2026-01-02 20:58:21.98	39.42	7.64	-49.3	-52.5	12.4	1.49e-04	0	52	0	157286400	61	5169
2026-01-02 20:58:24.95	39.88	7.72	-49.3	-52.5	12.6	8.46e-05	0	52	0	162529280	61	5181
2026-01-02 20:58:27.92	40.34	7.80	-49.4	-52.7	12.4	1.55e-04	0	52	0	167772160	61	5303
2026-01-02 20:58:30.87	40.80	7.88	-49.3	-52.6	12.5	1.27e-04	0	52	0	174063616	61	5251
2026-01-02 20:58:33.84	41.27	7.96	-49.6	-52.9	12.0	1.98e-04	0	52	0	179306496	61	5423
2026-01-02 20:58:36.81	41.73	8.04	-49.5	-52.9	12.1	1.94e-04	0	53	0	184549376	61	5421
2026-01-02 20:58:39.78	42.21	8.11	-49.4	-52.5	12.6	1.31e-04	0	53	0	190840832	61	5198
2026-01-02 20:58:42.75	42.68	8.19	-49.6	-52.8	12.2	1.85e-04	0	53	0	196083712	61	5390
2026-01-02 20:58:45.72	43.15	8.26	-49.3	-52.3	12.7	8.31e-05	0	53	0	201326592	61	5099
2026-01-02 20:58:48.69	43.63	8.33	-49.1	-52.2	12.9	5.41e-05	0	53	0	207618048	61	4987
2026-01-02 20:58:51.66	44.11	8.40	-49.3	-52.4	12.7	6.56e-05	0	53	0	212860928	61	5139
2026-01-02 20:58:54.63	44.60	8.47	-49.4	-52.6	12.7	8.08e-05	0	53	0	218103808	61	5237
2026-01-02 20:58:57.60	45.08	8.54	-49.5	-52.7	12.4	1.51e-04	0	53	0	224395264	61	5317
2026-01-02 20:59:00.56	45.57	8.60	-49.5	-52.8	12.3	1.45e-04	0	53	0	229638144	61	5358
2026-01-02 20:59:03.53	46.05	8.67	-49.6	-52.9	12.3	1.59e-04	0	53	0	234881024	61	5415
2026-01-02 20:59:06.49	46.54	8.73	-49.6	-53.0	12.2	2.62e-04	0	53	0	240123904	61	5497
2026-01-02 20:59:09.47	47.04	8.79	-49.5	-52.8	12.3	1.53e-04	0	53	0	246415360	61	5389
2026-01-02 20:59:12.46	47.54	8.85	-49.6	-52.9	12.2	1.67e-04	0	54	0	251658240	61	5419
2026-01-02 20:59:15.42	48.03	8.90	-49.3	-52.4	12.8	7.09e-05	0	54	0	256901120	61	5105
2026-01-02 20:59:18.40	48.53	8.96	-49.2	-52.1	13.0	3.73e-05	0	54	0	263192576	61	4981
2026-01-02 20:59:21.37	49.03	9.01	-49.2	-52.1	13.0	2.97e-05	0	53	0	268435456	61	4935
2026-01-02 20:59:24.33	49.53	9.07	-49.1	-52.2	12.9	5.18e-05	0	54	0	273678336	61	5034
2026-01-02 20:59:27.29	50.04	9.12	-49.4	-52.4	12.7	8.16e-05	0	54	0	279969792	61	5123
2026-01-02 20:59:30.24	50.54	9.16	-49.6	-52.8	12.3	1.68e-04	0	54	0	285212672	61	5391
2026-01-02 20:59:33.22	51.05	9.21	-49.3	-52.4	12.8	5.87e-05	0	54	0	290455552	61	5115
2026-01-02 20:59:36.19	51.56	9.25	-49.3	-52.4	12.8	7.24e-05	0	54	0	296747008	61	5131
2026-01-02 20:59:39.16	52.07	9.30	-49.4	-52.6	12.6	9.61e-05	0	54	0	301989888	61	5227
2026-01-02 20:59:42.13	52.58	9.34	-49.7	-53.2	12.0	3.57e-04	0	54	0	307232768	61	5640
2026-01-02 20:59:45.10	53.09	9.38	-49.7	-53.2	11.9	5.49e-04	0	54	0	312475648	61	5655
2026-01-02 20:59:48.07	53.61	9.41	-50.0	-53.9	11.2	1.31e-03	0	54	0	318767104	61	6079
2026-01-02 20:59:51.05	54.12	9.45	-50.0	-53.9	11.2	1.20e-03	0	54	0	324009984	61	6098
2026-01-02 20:59:54.02	54.64	9.48	-50.1	-54.1	11.1	1.70e-03	0	54	0	329252864	62	5881
2026-01-02 20:59:56.99	55.16	9.51	-50.2	-54.1	11.1	1.57e-03	0	54	0	335544320	62	5871
2026-01-02 20:59:59.96	55.68	9.54	-50.4	-54.8	10.4	3.08e-03	0	54	0	340787200	62	6353
2026-01-02 21:00:02.94	56.20	9.57	-50.2	-54.1	11.0	2.06e-03	0	54	0	346030080	62	5861
2026-01-02 21:00:05.90	56.72	9.59	-50.3	-54.4	10.8	3.43e-03	0	54	0	352321536	62	6068
2026-01-02 21:00:08.87	57.24	9.61	-50.0	-53.6	11.7	6.19e-04	0	54	0	357564416	62	5549
2026-01-02 21:00:11.84	57.76	9.64	-49.9	-53.5	11.7	4.65e-04	0	55	0	362807296	62	5474
2026-01-02 21:00:14.81	58.29	9.65	-49.5	-52.7	12.5	1.02e-04	0	54	0	369098752	62	4991
2026-01-02 21:00:17.77	58.81	9.67	-49.6	-52.8	12.5	1.91e-04	0	55	0	374341632	61	5377
2026-01-02 21:00:20.74	59.33	9.69	-49.6	-52.8	12.4	1.33e-04	0	55	0	379584512	61	5372
2026-01-02 21:00:23.71	59.86	9.70	-49.6	-52.9	12.3	2.02e-04	0	55	0	385875968	61	5428
2026-01-02 21:00:26.68	60.38	9.71	-49.6	-52.9	12.4	1.49e-04	0	55	0	391118848	61	5405
2026-01-02 21:00:29.62	60.90	9.72	-49.1	-52.0	13.3	3.43e-05	0	55	0	396361728	61	4888
2026-01-02 21:00:32.57	61.43	9.72	-49.0	-51.8	13.4	1.90e-05	0	55	0	401604608	61	4794
2026-01-02 21:00:35.54	61.95	9.73	-49.1	-51.8	13.4	1.22e-05	0	55	0	407896064	61	4795
2026-01-02 21:00:38.50	62.48	9.73	-49.1	-51.9	13.5	6.80e-06	0	55	0	413138944	60	5112
2026-01-02 21:00:41.46	63.00	9.73	-49.0	-51.8	13.5	1.06e-05	0	55	0	418381824	60	5079
2026-01-02 21:00:44.44	63.53	9.73	-49.0	-51.7	13.5	1.22e-05	0	55	0	424673280	60	5028
2026-01-02 21:00:47.40	64.05	9.72	-49.2	-52.1	13.1	1.44e-05	0	55	0	429916160	60	5253
2026-01-02 21:00:50.38	64.58	9.72	-48.8	-51.4	13.8	5.30e-06	0	55	0	435159040	60	4867
2026-01-02 21:00:53.34	65.10	9.71	-48.8	-51.5	13.8	3.80e-06	0	55	0	441450496	60	4907
2026-01-02 21:00:56.31	65.63	9.70	-48.9	-51.6	13.6	7.60e-06	0	55	0	446693376	60	4979
2026-01-02 21:00:59.28	66.16	9.69	-48.8	-51.3	14.0	6.80e-06	0	55	0	451936256	60	4789
2026-01-02 21:01:02.25	66.68	9.67	-48.7	-51.3	13.9	4.50e-06	0	55	0	457179136	60	4769
2026-01-02 21:01:05.21	67.20	9.65	-48.5	-50.9	14.4	7.00e-07	0	55	0	463470592	60	4556
2026-01-02 21:01:08.18	67.73	9.63	-48.5	-50.8	14.4	1.50e-06	0	55	0	468713472	59	4795
2026-01-02 21:01:11.16	68.25	9.61	-48.5	-51.0	14.2	7.00e-07	0	55	0	473956352	59	4874
2026-01-02 21:01:14.13	68.77	9.59	-48.6	-51.1	14.1	7.00e-07	0	55	0	480247808	59	4979
2026-01-02 21:01:17.10	69.29	9.57	-48.7	-51.2	14.0	2.20e-06	0	55	0	485490688	59	5017
2026-01-02 21:01:20.07	69.82	9.54	-48.9	-51.6	13.8	7.60e-06	0	55	0	490733568	59	5261
2026-01-02 21:01:23.04	70.33	9.51	-49.2	-52.1	13.2	1.29e-05	0	55	0	497025024	60	5222
2026-01-02 21:01:26.01	70.85	9.48	-49.0	-51.9	13.5	7.60e-06	0	55	0	502267904	60	5101
2026-01-02 21:01:28.98	71.37	9.45	-49.1	-52.1	13.1	2.59e-05	0	55	0	507510784	60	5246
2026-01-02 21:01:31.94	71.89	9.41	-49.2	-52.2	13.0	3.28e-05	0	55	0	513802240	60	5337
2026-01-02 21:01:34.92	72.40	9.37	-49.2	-52.0	13.2	3.96e-05	0	55	0	519045120	60	5190
2026-01-02 21:01:37.88	72.91	9.34	-48.7	-51.2	14.0	3.00e-06	0	55	0	524288000	60	4751
2026-01-02 21:01:40.84	73.42	9.29	-48.5	-50.9	14.4	7.00e-07	0	55	0	529530880	60	4572
2026-01-02 21:01:43.82	73.94	9.25	-48.6	-51.2	14.0	1.50e-06	0	56	0	535822336	60	4745
2026-01-02 21:01:46.79	74.45	9.21	-48.9	-51.6	13.6	7.60e-06	0	55	0	541065216	60	4978
2026-01-02 21:01:49.76	74.96	9.16	-49.0	-51.7	13.6	9.90e-06	0	55	0	546308096	60	4987
2026-01-02 21:01:52.72	75.46	9.11	-49.1	-51.9	13.4	1.22e-05	0	55	0	552599552	60	5125
2026-01-02 21:01:55.67	75.96	9.06	-48.9	-51.7	13.7	7.60e-06	0	55	0	557842432	60	4985
2026-01-02 21:01:58.64	76.46	9.01	-49.1	-51.8	13.4	1.52e-05	0	55	0	563085312	60	5093
2026-01-02 21:02:01.61	76.97	8.96	-48.8	-51.4	13.8	2.20e-06	0	55	0	569376768	60	4853
2026-01-02 21:02:04.58	77.47	8.90	-48.8	-51.4	13.8	6.80e-06	0	55	0	574619648	60	4845
2026-01-02 21:02:07.54	77.96	8.84	-48.4	-50.8	14.4	0.00e+00	0	56	0	579862528	60	4544
2026-01-02 21:02:10.51	78.46	8.79	-48.7	-51.1	14.1	1.50e-06	0	55	0	585105408	59	4979
2026-01-02 21:02:13.48	78.95	8.72	-48.8	-51.3	14.0	5.30e-06	0	56	0	591396864	59	5048
2026-01-02 21:02:16.44	79.44	8.66	-48.5	-51.0	14.3	7.00e-07	0	56	0	596639744	59	4906
2026-01-02 21:02:19.41	79.93	8.60	-48.7	-51.3	14.0	2.20e-06	0	56	0	601882624	59	5056
2026-01-02 21:02:22.37	80.42	8.53	-48.8	-51.5	13.8	3.80e-06	0	56	0	608174080	59	5164
2026-01-02 21:02:25.34	80.90	8.47	-48.8	-51.4	13.9	3.00e-06	0	56	0	613416960	59	5129
2026-01-02 21:02:28.29	81.38	8.40	-48.3	-50.6	14.6	0.00e+00	0	56	0	618659840	59	4690
2026-01-02 21:02:31.24	81.86	8.33	-48.8	-51.3	13.9	2.20e-06	0	56	0	624951296	59	5067
2026-01-02 21:02:34.21	82.34	8.26	-48.9	-51.6	13.7	9.10e-06	0	56	0	630194176	59	5233
2026-01-02 21:02:37.18	82.82	8.18	-49.1	-51.9	13.3	1.06e-05	0	56	0	635437056	60	5149
2026-01-02 21:02:40.14	83.29	8.11	-48.9	-51.6	13.6	4.50e-06	0	56	0	641728512	60	4928
2026-01-02 21:02:43.10	83.76	8.03	-48.9	-51.6	13.6	4.50e-06	0	56	0	646971392	60	4953
2026-01-02 21:02:46.07	84.23	7.95	-49.1	-52.0	13.2	1.37e-05	0	56	0	652214272	60	5171
2026-01-02 21:02:49.03	84.70	7.88	-49.1	-52.0	13.1	1.52e-05	0	56	0	657457152	60	5212
2026-01-02 21:02:52.00	85.16	7.80	-49.2	-52.2	12.9	4.88e-05	0	56	0	663748608	60	5310
2026-01-02 21:02:54.98	85.63	7.71	-49.4	-52.7	12.5	9.07e-05	0	56	0	668991488	60	5601
2026-01-02 21:02:57.94	86.09	7.63	-49.9	-53.6	11.5	6.71e-04	0	56	0	674234368	61	5908
2026-01-02 21:03:00.92	86.55	7.55	-50.0	-53.8	11.2	1.50e-03	0	56	0	680525824	61	6055
2026-01-02 21:03:03.88	87.00	7.46	-49.9	-53.6	11.5	9.16e-04	0	56	0	685768704	61	5896
2026-01-02 21:03:06.87	87.45	7.37	-50.0	-53.9	11.2	1.19e-03	0	56	0	691011584	61	6093
2026-01-02 21:03:09.84	87.90	7.28	-49.8	-53.5	11.5	7.89e-04	0	56	0	697303040	62	5524
2026-01-02 21:03:12.82	88.35	7.20	-49.9	-53.7	11.4	8.82e-04	0	56	0	702545920	62	5608
2026-01-02 21:03:15.78	88.80	7.11	-49.8	-53.5	11.6	7.04e-04	0	56	0	707788800	62	5488
2026-01-02 21:03:18.74	89.24	7.01	-50.2	-54.2	10.8	1.68e-03	0	56	0	714080256	62	5939
2026-01-02 21:03:21.73	89.68	6.92	-50.5	-55.1	9.9	8.68e-03	0	56	0	719323136	62	6594
2026-01-02 21:03:24.70	90.11	6.83	-50.5	-55.2	9.8	1.13e-02	0	56	0	724566016	63	6284
2026-01-02 21:03:27.67	90.55	6.73	-50.5	-55.2	9.7	1.25e-02	0	56	0	730857472	63	6328
2026-01-02 21:03:30.63	90.98	6.64	-50.4	-55.0	9.9	8.77e-03	0	56	0	736100352	63	6155
2026-01-02 21:03:33.61	91.41	6.54	-50.4	-54.9	10.1	6.94e-03	0	56	0	741343232	63	6098
2026-01-02 21:03:36.57	91.83	6.44	-50.2	-54.4	10.5	4.26e-03	0	56	0	746586112	63	5762
2026-01-02 21:03:39.54	92.25	6.34	-50.3	-54.7	10.2	4.84e-03	0	56	0	752877568	63	5971
2026-01-02 21:03:42.50	92.67	6.25	-50.3	-54.9	10.0	7.80e-03	0	56	0	758120448	63	6116
2026-01-02 21:03:45.47	93.09	6.15	-50.3	-54.7	10.2	6.16e-03	0	56	0	763363328	63	5984
2026-01-02 21:03:48.44	93.51	6.04	-50.2	-54.8	10.1	9.43e-03	0	56	0	769654784	63	6021
2026-01-02 21:03:51.41	93.92	5.94	-50.0	-54.0	11.0	1.91e-03	0	56	0	774897664	63	5477
2026-01-02 21:03:54.37	94.33	5.84	-50.2	-54.5	10.4	4.22e-03	0	56	0	780140544	63	5846
2026-01-02 21:03:57.35	94.73	5.74	-50.5	-55.2	9.7	1.12e-02	0	56	0	786432000	63	6302
2026-01-02 21:04:00.32	95.14	5.63	-50.3	-54.7	10.1	7.03e-03	0	56	0	791674880	63	5986
2026-01-02 21:04:03.30	95.54	5.53	-50.4	-55.0	9.9	9.93e-03	0	56	0	796917760	63	6139
2026-01-02 21:04:06.26	95.94	5.42	-49.8	-53.7	11.2	1.80e-03	0	56	0	802160640	62	5623
2026-01-02 21:04:09.22	96.33	5.31	-49.8	-53.7	11.2	1.31e-03	0	56	0	808452096	62	5633
2026-01-02 21:04:12.19	96.72	5.21	-49.8	-53.6	11.2	1.22e-03	0	56	0	813694976	62	5579
2026-01-02 21:04:15.17	97.11	5.10	-49.7	-53.4	11.4	1.01e-03	0	57	0	818937856	62	5427
2026-01-02 21:04:18.12	97.50	4.99	-52.2	-66.1	3.8	1.49e+00	0	56	104	823132160	66	18597
2026-01-02 21:04:21.10	97.88	4.88	-52.6	-66.5	3.8	1.49e+00	0	57	104	823132160	67	18497
2026-01-02 21:04:24.06	98.26	4.77	-52.8	-66.7	3.8	1.49e+00	0	56	104	823132160	67	18872
2026-01-02 21:04:27.02	98.64	4.66	-52.9	-66.8	3.8	1.49e+00	0	57	104	823132160	67	18966
2026-01-02 21:04:29.98	99.02	4.55	-53.0	-66.8	3.8	1.49e+00	0	57	104	823132160	67	19133
2026-01-02 21:04:32.94	99.39	4.44	-52.7	-66.9	3.8	1.49e+00	0	56	104	823132160	67	19265
2026-01-02 21:04:35.90	99.76	4.33	-52.8	-66.9	3.8	1.49e+00	0	57	104	823132160	67	19303
2026-01-02 21:04:38.86	100.12	4.22	-53.1	-67.1	3.8	1.49e+00	0	56	104	823132160	68	18561
2026-01-02 21:04:41.83	100.49	4.10	-53.2	-67.1	3.8	1.49e+00	0	57	104	823132160	68	18592
2026-01-02 21:04:44.79	100.85	3.99	-53.2	-67.1	3.8	1.49e+00	0	57	104	823132160	68	18599
2026-01-02 21:04:47.76	101.21	3.88	-53.1	-67.0	3.8	1.49e+00	0	57	104	823132160	68	18517
2026-01-02 21:04:50.73	101.57	3.76	-53.1	-67.1	3.8	1.49e+00	0	57	104	823132160	68	18556
2026-01-02 21:04:53.70	101.92	3.65	-53.0	-67.1	3.8	1.49e+00	0	57	104	823132160	68	18590
2026-01-02 21:04:56.67	102.27	3.53	-53.0	-67.1	3.8	1.49e+00	0	57	104	823132160	68	18536
2026-01-02 21:04:59.65	102.62	3.42	-53.1	-67.1	3.8	1.49e+00	0	57	104	823132160	68	18560
2026-01-02 21:05:02.60	102.97	3.30	-53.2	-67.0	3.8	1.49e+00	0	57	104	823132160	68	18514
2026-01-02 21:05:05.57	103.31	3.18	-53.2	-67.1	3.8	1.49e+00	0	57	104	823132160	68	18569
2026-01-02 21:05:08.54	103.65	3.07	-53.0	-67.0	3.8	1.49e+00	0	57	104	823132160	68	18502
2026-01-02 21:05:11.50	103.99	2.95	-53.0	-67.1	3.8	1.49e+00	0	57	104	823132160	68	18553

#Closed at: 2026-01-02 21:05:13
#Recorded file [823 MB]: D:/Data/31026_260103_000417.dat