passes_logs/2026/01/02/R3.0SM8_Murmansk_STILSPACE/R3.0SM8_Murmansk_STILSPACE__20260102_080302_NOAA_21_JPSS-2_rec.log

#Pass ID: 20260102_080302_NOAA 21 (JPSS-2)
#Satellite: NOAA 21 (JPSS-2)
#Configuration: NOAA-21
#almurnet v.1.7.20240730
#Start time: 2026-01-02 08:07:54

#Version: 2.2.20231116
#Station: R3.0SM8_Murmansk_STILSPACE
#Location: 33.092731 lon 68.902999 lat
#TLE: 1 54234U 22150A   26001.26806856  .00000185  00000+0  10843-3 0  9990
#TLE: 2 54234  98.7484 302.3349 0001277 353.3887   6.7272 14.19530660162860

#Time	Az	El	Level	Level2	SNR	BER	BlckErr	Temp	State	Recorded	gain1	gain2
2026-01-02 08:07:54.97	87.63	32.52	-52.6	-63.5	3.8	8.45e-01	0	57	0	0	67	12967
2026-01-02 08:07:57.94	86.85	32.96	-52.8	-64.4	3.8	1.49e+00	0	58	104	0	68	13601
2026-01-02 08:08:00.91	86.05	33.40	-52.8	-64.4	3.8	1.49e+00	0	58	104	0	68	13624
2026-01-02 08:08:03.88	85.22	33.84	-52.8	-64.4	3.8	1.49e+00	0	58	104	0	68	13572
2026-01-02 08:08:06.84	84.37	34.28	-52.8	-64.3	3.8	1.49e+00	0	58	104	0	68	13503
2026-01-02 08:08:09.81	83.50	34.72	-52.8	-64.3	3.8	1.49e+00	0	58	104	0	68	13508
2026-01-02 08:08:12.80	82.60	35.15	-52.6	-64.2	3.8	1.49e+00	0	58	104	0	68	13383
2026-01-02 08:08:15.77	81.68	35.59	-52.8	-64.2	3.8	1.49e+00	0	58	104	0	68	13413
2026-01-02 08:08:18.73	80.74	36.02	-52.8	-64.2	3.8	1.49e+00	0	58	104	0	68	13283
2026-01-02 08:08:21.69	79.77	36.44	-52.8	-64.3	3.8	1.49e+00	0	58	104	0	68	13422
2026-01-02 08:08:24.67	78.77	36.86	-52.8	-64.2	3.8	1.49e+00	0	58	104	0	68	13396
2026-01-02 08:08:27.64	77.75	37.28	-52.4	-64.2	3.8	1.49e+00	0	58	104	0	68	13318
2026-01-02 08:08:30.59	76.70	37.69	-50.2	-64.1	3.8	1.49e+00	0	58	104	0	63	17634
2026-01-02 08:08:33.58	75.62	38.10	-52.4	-64.0	3.8	1.49e+00	0	58	104	0	66	14680
2026-01-02 08:08:36.56	74.51	38.50	-52.6	-63.3	3.8	1.49e+00	0	58	104	0	67	12696
2026-01-02 08:08:39.53	73.38	38.89	-52.5	-63.5	3.8	1.49e+00	0	58	104	0	67	13078
2026-01-02 08:08:42.51	72.22	39.28	-52.6	-63.8	3.8	1.49e+00	0	58	104	0	67	13456
2026-01-02 08:08:45.48	71.04	39.65	-52.6	-64.0	3.8	1.49e+00	0	58	104	0	67	13862
2026-01-02 08:08:48.44	69.83	40.01	-51.2	-56.1	6.8	2.56e-01	0	58	0	2097152	65	6227
2026-01-02 08:08:51.41	68.59	40.36	-50.8	-55.1	7.7	8.86e-02	0	58	0	11534336	64	5859
2026-01-02 08:08:54.38	67.32	40.70	-50.9	-55.4	7.5	1.15e-01	0	58	0	20971520	64	6073
2026-01-02 08:08:57.35	66.03	41.02	-50.8	-54.9	8.0	7.77e-02	0	57	0	29360128	64	5754
2026-01-02 08:09:00.32	64.71	41.34	-49.1	-51.7	11.3	2.00e-03	0	57	0	38797312	61	4734
2026-01-02 08:09:03.30	63.36	41.63	-47.6	-49.3	13.8	7.60e-06	0	58	0	48234496	58	4260
2026-01-02 08:09:06.28	61.99	41.91	-46.6	-47.9	15.2	0.00e+00	0	58	0	57671680	56	4068
2026-01-02 08:09:09.24	60.61	42.18	-46.1	-47.4	15.6	7.00e-07	0	58	0	67108864	55	4057
2026-01-02 08:09:12.21	59.19	42.42	-46.3	-47.6	15.4	0.00e+00	0	58	0	76546048	55	4152
2026-01-02 08:09:15.18	57.76	42.65	-46.6	-47.9	15.0	0.00e+00	0	58	0	85983232	55	4340
2026-01-02 08:09:18.14	56.31	42.86	-46.2	-47.4	15.6	0.00e+00	0	58	0	94371840	55	4091
2026-01-02 08:09:21.12	54.83	43.05	-46.9	-48.4	14.6	7.00e-07	0	58	0	103809024	55	4554
2026-01-02 08:09:24.10	53.34	43.22	-46.4	-47.7	15.2	0.00e+00	0	58	0	113246208	55	4230
2026-01-02 08:09:27.08	51.83	43.36	-46.9	-48.4	14.6	0.00e+00	0	58	0	122683392	55	4548
2026-01-02 08:09:30.04	50.32	43.49	-47.4	-49.0	14.1	7.00e-07	0	58	0	132120576	56	4632
2026-01-02 08:09:33.03	48.79	43.59	-47.0	-48.5	14.6	2.20e-06	0	58	0	141557760	56	4366
2026-01-02 08:09:35.99	47.26	43.67	-46.6	-47.9	15.2	0.00e+00	0	58	0	150994944	56	4071
2026-01-02 08:09:38.95	45.72	43.72	-46.7	-48.0	15.0	0.00e+00	0	58	0	159383552	55	4382
2026-01-02 08:09:41.91	44.18	43.76	-46.3	-47.6	15.4	0.00e+00	0	58	0	168820736	55	4155
2026-01-02 08:09:44.88	42.63	43.77	-46.5	-47.8	15.2	0.00e+00	0	58	0	178257920	55	4250
2026-01-02 08:09:47.86	41.08	43.75	-46.4	-47.7	15.3	0.00e+00	0	58	0	187695104	55	4205
2026-01-02 08:09:50.84	39.53	43.71	-46.3	-47.6	15.3	0.00e+00	0	58	0	197132288	55	4164
2026-01-02 08:09:53.80	38.00	43.65	-46.6	-48.0	15.1	0.00e+00	0	58	0	206569472	55	4345
2026-01-02 08:09:56.77	36.46	43.57	-46.5	-47.9	15.1	0.00e+00	0	58	0	216006656	55	4298
2026-01-02 08:09:59.75	34.93	43.46	-47.4	-49.0	14.1	7.00e-07	0	58	0	224395264	56	4606
2026-01-02 08:10:02.73	33.42	43.33	-46.8	-48.2	14.8	0.00e+00	0	58	0	233832448	56	4235
2026-01-02 08:10:05.70	31.92	43.18	-47.6	-49.3	13.7	3.80e-06	0	58	0	243269632	57	4525
2026-01-02 08:10:08.67	30.43	43.01	-48.1	-50.0	13.2	3.43e-05	0	58	0	252706816	58	4602
2026-01-02 08:10:11.65	28.96	42.82	-47.6	-49.2	13.9	5.30e-06	0	58	0	262144000	58	4237
2026-01-02 08:10:14.62	27.51	42.61	-47.7	-49.4	13.6	9.10e-06	0	58	0	271581184	58	4303
2026-01-02 08:10:17.57	26.10	42.38	-48.1	-49.9	13.1	3.05e-05	0	58	0	281018368	58	4584
2026-01-02 08:10:20.54	24.69	42.13	-46.6	-47.9	15.2	0.00e+00	0	58	0	289406976	56	4054
2026-01-02 08:10:23.50	23.31	41.86	-47.9	-49.7	13.4	2.74e-05	0	58	0	298844160	57	4715
2026-01-02 08:10:26.47	21.95	41.58	-46.9	-48.4	14.6	7.00e-07	0	58	0	308281344	57	4081
2026-01-02 08:10:29.44	20.61	41.28	-47.4	-48.9	14.0	3.00e-06	0	58	0	317718528	56	4587
2026-01-02 08:10:32.41	19.30	40.97	-46.5	-47.8	15.2	0.00e+00	0	58	0	327155712	56	4025
2026-01-02 08:10:35.38	18.01	40.64	-46.9	-48.3	14.6	0.00e+00	0	58	0	336592896	55	4525
2026-01-02 08:10:38.35	16.75	40.30	-48.2	-50.1	12.9	6.33e-05	0	58	0	344981504	58	4687
2026-01-02 08:10:41.32	15.52	39.95	-45.9	-47.2	15.7	0.00e+00	0	58	0	354418688	55	3960
2026-01-02 08:10:44.28	14.32	39.59	-46.3	-47.5	15.5	0.00e+00	0	58	0	363855872	55	4121
2026-01-02 08:10:47.26	13.14	39.21	-46.6	-47.9	15.1	0.00e+00	0	58	0	373293056	56	4079
2026-01-02 08:10:50.22	11.99	38.83	-45.4	-46.5	16.4	0.00e+00	0	58	0	382730240	53	4099
2026-01-02 08:10:53.20	10.87	38.44	-46.2	-47.4	15.5	0.00e+00	0	58	0	392167424	54	4338
2026-01-02 08:10:56.17	9.77	38.04	-45.1	-46.1	16.7	0.00e+00	0	58	0	401604608	53	3939
2026-01-02 08:10:59.15	8.70	37.63	-45.3	-46.3	16.5	0.00e+00	0	58	0	409993216	53	4023
2026-01-02 08:11:02.12	7.66	37.22	-47.5	-49.1	13.9	7.60e-06	0	58	0	419430400	56	4689
2026-01-02 08:11:05.09	6.64	36.80	-45.7	-46.8	16.1	0.00e+00	0	58	0	428867584	54	4019
2026-01-02 08:11:08.05	5.65	36.38	-46.2	-47.5	15.5	0.00e+00	0	58	0	438304768	54	4344
2026-01-02 08:11:11.02	4.69	35.95	-47.2	-48.8	14.3	3.00e-06	0	58	0	447741952	56	4495
2026-01-02 08:11:13.99	3.75	35.52	-46.3	-47.6	15.4	0.00e+00	0	58	0	457179136	55	4151
2026-01-02 08:11:16.96	2.84	35.09	-46.3	-47.6	15.3	0.00e+00	0	58	0	465567744	55	4173
2026-01-02 08:11:19.93	1.95	34.66	-47.0	-48.5	14.5	0.00e+00	0	58	0	475004928	56	4385
2026-01-02 08:11:22.91	1.08	34.22	-44.9	-45.9	17.0	0.00e+00	0	58	0	484442112	53	3846
2026-01-02 08:11:25.88	0.24	33.78	-45.1	-46.2	16.8	0.00e+00	0	58	0	493879296	52	4194
2026-01-02 08:11:28.87	359.41	33.34	-45.9	-47.1	15.8	0.00e+00	0	58	0	503316480	53	4435
2026-01-02 08:11:31.83	358.61	32.90	-45.6	-46.7	16.2	0.00e+00	0	58	0	512753664	53	4203
2026-01-02 08:11:34.79	357.84	32.47	-45.8	-47.0	15.9	0.00e+00	0	58	0	522190848	53	4365
2026-01-02 08:11:37.77	357.08	32.03	-45.3	-46.3	16.6	0.00e+00	0	58	0	531628032	53	4039
2026-01-02 08:11:40.73	356.35	31.59	-45.4	-46.5	16.3	0.00e+00	0	58	0	540016640	53	4136
2026-01-02 08:11:43.70	355.63	31.16	-44.4	-45.3	17.5	0.00e+00	0	58	0	549453824	52	3810
2026-01-02 08:11:46.66	354.94	30.72	-44.9	-45.9	16.9	0.00e+00	0	58	0	558891008	52	4087
2026-01-02 08:11:49.63	354.26	30.29	-45.1	-46.2	16.7	0.00e+00	0	58	0	568328192	52	4219
2026-01-02 08:11:52.60	353.60	29.86	-45.0	-46.1	16.8	0.00e+00	0	58	0	577765376	52	4147
2026-01-02 08:11:55.58	352.96	29.43	-44.7	-45.6	17.2	0.00e+00	0	58	0	587202560	52	3955
2026-01-02 08:11:58.55	352.33	29.01	-45.0	-46.1	16.8	0.00e+00	0	58	0	595591168	52	4158
2026-01-02 08:12:01.51	351.73	28.59	-45.4	-46.5	16.4	0.00e+00	0	58	0	605028352	52	4352
2026-01-02 08:12:04.49	351.13	28.16	-44.8	-45.8	17.0	0.00e+00	0	58	0	614465536	52	4043
2026-01-02 08:12:07.46	350.55	27.75	-44.6	-45.6	17.2	0.00e+00	0	58	0	623902720	52	3932
2026-01-02 08:12:10.42	349.99	27.34	-44.8	-45.7	17.2	0.00e+00	0	57	0	633339904	51	4236
2026-01-02 08:12:13.40	349.44	26.92	-44.7	-45.7	17.2	0.00e+00	0	58	0	642777088	51	4201
2026-01-02 08:12:16.37	348.91	26.52	-44.2	-45.1	17.8	0.00e+00	0	58	0	652214272	51	3936
2026-01-02 08:12:19.34	348.39	26.11	-44.1	-44.9	17.9	0.00e+00	0	58	0	660602880	51	3868
2026-01-02 08:12:22.31	347.89	25.71	-44.0	-44.8	18.0	0.00e+00	0	58	0	670040064	51	3820
2026-01-02 08:12:25.28	347.39	25.31	-44.1	-44.9	17.9	0.00e+00	0	58	0	679477248	51	3856
2026-01-02 08:12:28.26	346.91	24.92	-44.1	-45.0	17.8	0.00e+00	0	58	0	688914432	51	3889
2026-01-02 08:12:31.23	346.44	24.53	-44.0	-44.9	17.9	0.00e+00	0	58	0	698351616	51	3827
2026-01-02 08:12:34.19	345.98	24.14	-44.6	-45.6	17.3	0.00e+00	0	58	0	707788800	51	4166
2026-01-02 08:12:37.16	345.54	23.76	-44.6	-45.6	17.2	0.00e+00	0	58	0	716177408	51	4172
2026-01-02 08:12:40.13	345.10	23.38	-44.7	-45.7	17.1	0.00e+00	0	58	0	725614592	51	4222
2026-01-02 08:12:43.10	344.68	23.01	-44.6	-45.6	17.2	0.00e+00	0	58	0	735051776	51	4156
2026-01-02 08:12:46.06	344.27	22.64	-44.3	-45.2	17.6	0.00e+00	0	58	0	744488960	51	3963
2026-01-02 08:12:49.03	343.86	22.27	-44.2	-45.1	17.7	0.00e+00	0	58	0	753926144	51	3917
2026-01-02 08:12:51.99	343.47	21.91	-44.0	-44.9	17.8	0.00e+00	0	58	0	763363328	51	3849
2026-01-02 08:12:54.94	343.09	21.55	-43.9	-44.7	18.0	0.00e+00	0	58	0	771751936	50	4003
2026-01-02 08:12:57.92	342.71	21.19	-44.1	-45.0	17.7	0.00e+00	0	58	0	781189120	50	4138
2026-01-02 08:13:00.90	342.34	20.84	-44.3	-45.2	17.4	0.00e+00	0	57	0	790626304	50	4223
2026-01-02 08:13:03.86	341.98	20.49	-44.0	-44.9	17.7	0.00e+00	0	58	0	800063488	50	4076
2026-01-02 08:13:06.84	341.63	20.14	-44.2	-45.2	17.2	0.00e+00	0	58	0	809500672	50	4202
2026-01-02 08:13:09.80	341.29	19.80	-45.1	-46.3	15.9	0.00e+00	0	58	0	818937856	51	4503
2026-01-02 08:13:12.78	340.95	19.46	-46.0	-47.5	14.3	7.00e-07	0	58	0	828375040	53	4635
2026-01-02 08:13:15.75	340.62	19.13	-46.6	-48.3	13.5	8.30e-06	0	57	0	837812224	55	4536
2026-01-02 08:13:18.71	340.30	18.80	-46.7	-48.4	13.6	1.06e-05	0	58	0	846200832	55	4558
2026-01-02 08:13:21.67	339.99	18.47	-45.8	-47.1	15.0	7.00e-07	0	57	0	855638016	54	4190
2026-01-02 08:13:24.63	339.69	18.15	-44.9	-46.1	16.2	0.00e+00	0	58	0	865075200	53	3918
2026-01-02 08:13:27.61	339.39	17.83	-44.4	-45.4	17.0	0.00e+00	0	58	0	874512384	52	3839
2026-01-02 08:13:30.58	339.09	17.51	-44.6	-45.5	17.0	0.00e+00	0	57	0	883949568	51	4145
2026-01-02 08:13:33.55	338.81	17.19	-44.4	-45.3	17.2	0.00e+00	0	58	0	893386752	51	4047
2026-01-02 08:13:36.53	338.53	16.88	-44.4	-45.4	17.2	0.00e+00	0	58	0	901775360	51	4074
2026-01-02 08:13:39.51	338.25	16.57	-44.6	-45.6	17.0	0.00e+00	0	58	0	911212544	51	4153
2026-01-02 08:13:42.47	337.98	16.27	-44.9	-46.1	16.6	0.00e+00	0	58	0	920649728	51	4399
2026-01-02 08:13:45.45	337.72	15.97	-44.9	-46.1	16.4	0.00e+00	0	58	0	930086912	52	4169
2026-01-02 08:13:48.41	337.46	15.67	-45.2	-46.4	16.2	0.00e+00	0	58	0	939524096	52	4310
2026-01-02 08:13:51.40	337.21	15.37	-45.6	-46.8	15.8	0.00e+00	0	58	0	948961280	52	4519
2026-01-02 08:13:54.36	336.96	15.08	-45.3	-46.5	16.0	0.00e+00	0	58	0	958398464	53	4106
2026-01-02 08:13:57.33	336.72	14.79	-45.2	-46.4	16.2	0.00e+00	0	58	0	966787072	53	4054
2026-01-02 08:14:00.31	336.48	14.50	-45.3	-46.4	16.1	0.00e+00	0	58	0	976224256	53	4082
2026-01-02 08:14:03.27	336.25	14.22	-45.5	-46.7	15.8	0.00e+00	0	58	0	985661440	53	4222
2026-01-02 08:14:06.24	336.02	13.94	-45.3	-46.4	16.1	0.00e+00	0	58	0	995098624	53	4075
2026-01-02 08:14:09.22	335.79	13.66	-45.4	-46.6	15.9	0.00e+00	0	57	0	1004535808	53	4151
2026-01-02 08:14:12.20	335.57	13.38	-45.5	-46.8	15.7	0.00e+00	0	58	0	1013972992	53	4275
2026-01-02 08:14:15.17	335.36	13.11	-45.4	-46.6	15.9	0.00e+00	0	58	0	1023410176	53	4159
2026-01-02 08:14:18.13	335.15	12.84	-45.3	-46.5	16.0	0.00e+00	0	58	0	1031798784	53	4100
2026-01-02 08:14:21.10	334.94	12.57	-45.5	-46.6	15.9	0.00e+00	0	57	0	1041235968	53	4183
2026-01-02 08:14:24.07	334.74	12.30	-45.5	-46.7	15.8	0.00e+00	0	57	0	1050673152	53	4215
2026-01-02 08:14:27.03	334.54	12.04	-45.7	-47.0	15.5	0.00e+00	0	58	0	1060110336	53	4359
2026-01-02 08:14:29.99	334.34	11.78	-45.7	-47.0	15.5	0.00e+00	0	58	0	1069547520	53	4353
2026-01-02 08:14:32.96	334.15	11.52	-45.9	-47.3	15.2	0.00e+00	0	58	0	1078984704	53	4509
2026-01-02 08:14:35.92	333.96	11.27	-46.0	-47.4	15.1	0.00e+00	0	57	0	1087373312	53	4556
2026-01-02 08:14:38.89	333.78	11.01	-46.3	-47.8	14.7	7.00e-07	0	58	0	1096810496	54	4524
2026-01-02 08:14:41.87	333.60	10.76	-46.4	-47.9	14.5	7.00e-07	0	57	0	1106247680	54	4573
2026-01-02 08:14:44.83	333.42	10.51	-46.3	-47.7	14.7	0.00e+00	0	58	0	1115684864	54	4465
2026-01-02 08:14:47.80	333.24	10.27	-46.6	-48.2	14.2	7.00e-07	0	57	0	1125122048	55	4463
2026-01-02 08:14:50.76	333.07	10.02	-46.2	-47.6	14.8	0.00e+00	0	58	0	1134559232	55	4184
2026-01-02 08:14:53.74	332.90	9.78	-46.4	-47.9	14.5	1.50e-06	0	58	0	1143996416	55	4339
2026-01-02 08:14:56.70	332.74	9.54	-46.1	-47.5	14.8	0.00e+00	0	58	0	1152385024	55	4127
2026-01-02 08:14:59.68	332.57	9.30	-46.4	-47.9	14.5	1.50e-06	0	58	0	1161822208	55	4328
2026-01-02 08:15:02.65	332.41	9.07	-46.7	-48.3	14.0	1.50e-06	0	58	0	1171259392	55	4531
2026-01-02 08:15:05.61	332.25	8.83	-46.4	-47.9	14.4	1.50e-06	0	58	0	1180696576	55	4328
2026-01-02 08:15:08.58	332.10	8.60	-46.6	-48.2	14.2	1.50e-06	0	58	0	1190133760	55	4451
2026-01-02 08:15:11.55	331.95	8.37	-46.1	-47.5	14.9	0.00e+00	0	57	0	1199570944	55	4106
2026-01-02 08:15:14.54	331.80	8.14	-46.4	-47.9	14.5	1.50e-06	0	57	0	1209008128	55	4306
2026-01-02 08:15:17.49	331.65	7.91	-46.4	-47.9	14.4	1.50e-06	0	58	0	1217396736	55	4311
2026-01-02 08:15:20.46	331.50	7.69	-46.3	-47.8	14.4	0.00e+00	0	58	0	1226833920	55	4288
2026-01-02 08:15:23.44	331.36	7.47	-46.4	-47.9	14.4	7.00e-07	0	58	0	1236271104	55	4307
2026-01-02 08:15:26.42	331.22	7.24	-46.5	-48.1	14.2	1.50e-06	0	58	0	1245708288	55	4396
2026-01-02 08:15:29.37	331.08	7.03	-46.6	-48.2	14.1	2.20e-06	0	58	0	1255145472	55	4451
2026-01-02 08:15:32.34	330.95	6.81	-46.7	-48.3	13.9	4.50e-06	0	58	0	1264582656	55	4525
2026-01-02 08:15:35.30	330.81	6.59	-46.8	-48.4	13.7	4.50e-06	0	58	0	1272971264	55	4597
2026-01-02 08:15:38.28	330.68	6.38	-46.8	-48.5	13.7	3.00e-06	0	58	0	1282408448	55	4608
2026-01-02 08:15:41.25	330.55	6.16	-46.9	-48.6	13.5	9.90e-06	0	58	0	1291845632	55	4661
2026-01-02 08:15:44.21	330.43	5.95	-46.8	-48.6	13.6	1.37e-05	0	58	0	1301282816	56	4404
2026-01-02 08:15:47.17	330.30	5.74	-47.1	-48.9	13.3	2.05e-05	0	57	0	1310720000	56	4579
2026-01-02 08:15:50.13	330.18	5.54	-47.1	-48.9	13.2	1.44e-05	0	58	0	1320157184	56	4596
2026-01-02 08:15:53.10	330.06	5.33	-47.2	-49.1	13.0	3.35e-05	0	58	0	1329594368	56	4682
2026-01-02 08:15:56.08	329.94	5.12	-47.1	-49.0	13.1	2.13e-05	0	58	0	1337982976	56	4613
2026-01-02 08:15:59.05	329.82	4.92	-51.8	-63.4	3.8	1.49e+00	0	58	104	1344274432	65	14519
2026-01-02 08:16:02.01	329.70	4.72	-52.0	-63.6	3.8	1.49e+00	0	58	104	1344274432	66	13928
2026-01-02 08:16:04.98	329.59	4.52	-52.4	-64.1	3.8	1.49e+00	0	58	104	1344274432	66	14722
2026-01-02 08:16:07.95	329.48	4.32	-52.5	-64.2	3.8	1.49e+00	0	58	104	1344274432	67	14076
2026-01-02 08:16:10.91	329.37	4.12	-52.8	-64.2	3.8	1.49e+00	0	58	104	1344274432	67	14174
2026-01-02 08:16:13.88	329.26	3.92	-52.8	-64.3	3.8	1.49e+00	0	58	104	1344274432	67	14247
2026-01-02 08:16:16.85	329.15	3.73	-52.8	-64.3	3.8	1.49e+00	0	58	104	1344274432	67	14276
2026-01-02 08:16:19.81	329.05	3.53	-52.7	-64.3	3.8	1.49e+00	0	58	104	1344274432	67	14357
2026-01-02 08:16:22.79	328.94	3.34	-52.6	-64.4	3.8	1.49e+00	0	58	104	1344274432	67	14386
2026-01-02 08:16:25.76	328.84	3.15	-52.8	-64.3	3.8	1.49e+00	0	58	104	1344274432	67	14327
2026-01-02 08:16:28.73	328.74	2.95	-52.8	-64.3	3.8	1.49e+00	0	58	104	1344274432	67	14340

#Closed at: 2026-01-02 08:16:30
#Recorded file [1344 MB]: D:/Data/31026_260102_111557.dat