passes_logs/2026/01/02/R3.0SM8_Murmansk_STILSPACE/R3.0SM8_Murmansk_STILSPACE__20260102_101226_SUOMI_NPP_rec.log

#Pass ID: 20260102_101226_SUOMI NPP
#Satellite: SUOMI NPP
#Configuration: NPP
#almurnet v.1.7.20240730
#Start time: 2026-01-02 10:12:28

#Version: 2.2.20231116
#Station: R3.0SM8_Murmansk_STILSPACE
#Location: 33.092731 lon 68.902999 lat
#TLE: 1 37849U 11061A   26001.07732418  .00000182  00000+0  10735-3 0  9990
#TLE: 2 37849  98.7795 303.2470 0002580  87.2016 272.9455 14.19520779734739

#Time	Az	El	Level	Level2	SNR	BER	BlckErr	Temp	State	Recorded	gain1	gain2
2026-01-02 10:12:28.86	166.88	3.13	-52.3	-66.2	3.8	1.49e+00	0	46	0	0	67	17727
2026-01-02 10:12:32.80	166.96	3.39	-51.9	-65.7	3.8	1.49e+00	0	47	104	0	66	17831
2026-01-02 10:12:36.78	167.05	3.66	-50.5	-64.3	3.8	1.49e+00	0	47	104	0	63	18010
2026-01-02 10:12:40.72	167.14	3.93	-50.5	-64.3	3.8	1.49e+00	0	47	104	0	63	17995
2026-01-02 10:12:44.68	167.23	4.20	-50.5	-64.1	3.8	1.49e+00	0	48	104	0	63	17504
2026-01-02 10:12:48.65	167.32	4.47	-50.4	-63.5	3.8	1.49e+00	0	48	104	0	63	16425
2026-01-02 10:12:52.60	167.41	4.75	-50.5	-62.8	3.8	1.49e+00	0	48	104	0	63	15067
2026-01-02 10:12:56.58	167.50	5.03	-50.4	-61.4	4.1	1.45e+00	0	49	0	0	63	12890
2026-01-02 10:13:00.54	167.59	5.31	-50.4	-59.8	4.6	1.02e+00	0	49	0	2097152	63	10758
2026-01-02 10:13:04.50	167.69	5.60	-49.8	-56.5	6.8	2.61e-01	0	49	0	9437184	62	7732
2026-01-02 10:13:08.45	167.79	5.88	-48.6	-52.8	10.4	8.95e-03	0	49	0	16777216	60	5699
2026-01-02 10:13:12.41	167.88	6.18	-47.9	-51.3	12.0	5.86e-04	0	50	0	24117248	58	5377
2026-01-02 10:13:16.36	167.99	6.47	-48.5	-52.0	11.7	3.57e-04	0	50	0	31457280	58	5830
2026-01-02 10:13:20.33	168.09	6.77	-48.5	-51.7	12.4	1.83e-04	0	50	0	38797312	59	5315
2026-01-02 10:13:24.29	168.19	7.07	-48.5	-51.4	12.9	7.01e-05	0	50	0	46137344	59	5120
2026-01-02 10:13:28.25	168.30	7.38	-48.3	-51.1	13.3	2.67e-05	0	50	0	53477376	59	4949
2026-01-02 10:13:32.20	168.41	7.68	-48.3	-50.9	13.5	1.52e-05	0	50	0	60817408	59	4854
2026-01-02 10:13:36.16	168.52	8.00	-48.5	-51.3	13.2	1.52e-05	0	51	0	69206016	59	5067
2026-01-02 10:13:40.11	168.63	8.31	-48.4	-51.2	13.4	1.83e-05	0	51	0	76546048	59	4988
2026-01-02 10:13:44.08	168.74	8.63	-48.5	-51.4	13.2	2.82e-05	0	51	0	83886080	59	5106
2026-01-02 10:13:48.03	168.86	8.96	-48.4	-51.2	13.4	1.22e-05	0	51	0	91226112	59	4986
2026-01-02 10:13:51.98	168.98	9.28	-48.5	-51.4	13.2	3.81e-05	0	51	0	98566144	59	5110
2026-01-02 10:13:55.94	169.10	9.62	-47.7	-49.9	14.7	7.00e-07	0	51	0	105906176	58	4591
2026-01-02 10:13:59.90	169.22	9.95	-47.2	-49.2	15.4	0.00e+00	0	52	0	113246208	57	4486
2026-01-02 10:14:03.87	169.35	10.30	-47.7	-49.9	14.7	0.00e+00	0	52	0	120586240	57	4863
2026-01-02 10:14:07.82	169.48	10.64	-47.1	-49.0	15.6	0.00e+00	0	52	0	127926272	57	4390
2026-01-02 10:14:11.78	169.61	10.99	-47.2	-49.1	15.6	0.00e+00	0	52	0	135266304	57	4413
2026-01-02 10:14:15.75	169.75	11.35	-47.3	-49.3	15.4	0.00e+00	0	52	0	142606336	57	4538
2026-01-02 10:14:19.70	169.88	11.71	-47.3	-49.3	15.5	0.00e+00	0	53	0	149946368	57	4516
2026-01-02 10:14:23.65	170.02	12.08	-47.5	-49.5	15.3	0.00e+00	0	53	0	157286400	57	4638
2026-01-02 10:14:27.61	170.17	12.45	-47.0	-48.9	15.9	0.00e+00	0	53	0	165675008	57	4293
2026-01-02 10:14:31.55	170.32	12.82	-46.9	-48.7	16.1	0.00e+00	0	53	0	173015040	56	4451
2026-01-02 10:14:35.51	170.47	13.21	-46.8	-48.6	16.2	0.00e+00	0	53	0	180355072	56	4414
2026-01-02 10:14:39.47	170.62	13.60	-46.8	-48.5	16.3	0.00e+00	0	53	0	187695104	56	4362
2026-01-02 10:14:43.44	170.78	13.99	-47.1	-48.9	16.0	0.00e+00	0	53	0	195035136	56	4566
2026-01-02 10:14:47.40	170.94	14.40	-47.2	-49.0	15.8	0.00e+00	0	53	0	202375168	56	4641
2026-01-02 10:14:51.36	171.11	14.80	-47.1	-49.0	15.9	0.00e+00	0	53	0	209715200	56	4608
2026-01-02 10:14:55.33	171.28	15.22	-47.4	-49.3	15.6	0.00e+00	0	54	0	217055232	56	4776
2026-01-02 10:14:59.29	171.45	15.64	-47.4	-49.4	15.6	0.00e+00	0	54	0	224395264	56	4820
2026-01-02 10:15:03.25	171.63	16.07	-47.3	-49.2	15.8	0.00e+00	0	54	0	231735296	57	4448
2026-01-02 10:15:07.19	171.82	16.51	-47.3	-49.2	15.7	0.00e+00	0	54	0	239075328	57	4485
2026-01-02 10:15:11.15	172.01	16.95	-47.1	-48.9	16.0	0.00e+00	0	54	0	246415360	57	4314
2026-01-02 10:15:15.11	172.20	17.41	-47.2	-49.1	15.9	0.00e+00	0	54	0	253755392	57	4396
2026-01-02 10:15:19.08	172.40	17.87	-47.5	-49.5	15.5	0.00e+00	0	54	0	262144000	57	4618
2026-01-02 10:15:23.04	172.61	18.34	-47.2	-49.0	15.9	0.00e+00	0	54	0	269484032	57	4378
2026-01-02 10:15:27.00	172.82	18.82	-47.3	-49.2	15.8	0.00e+00	0	54	0	276824064	57	4478
2026-01-02 10:15:30.96	173.04	19.30	-47.6	-49.6	15.5	0.00e+00	0	54	0	284164096	57	4652
2026-01-02 10:15:34.92	173.26	19.80	-47.6	-49.5	15.5	0.00e+00	0	55	0	291504128	57	4643
2026-01-02 10:15:38.87	173.49	20.31	-47.7	-49.8	15.2	0.00e+00	0	55	0	298844160	57	4780
2026-01-02 10:15:42.82	173.73	20.82	-47.8	-49.8	15.2	0.00e+00	0	55	0	306184192	57	4793
2026-01-02 10:15:46.79	173.98	21.35	-47.3	-49.2	15.9	0.00e+00	0	54	0	313524224	57	4456
2026-01-02 10:15:50.75	174.23	21.89	-47.2	-49.0	16.0	0.00e+00	0	55	0	320864256	57	4371
2026-01-02 10:15:54.70	174.50	22.44	-47.2	-49.0	16.0	0.00e+00	0	55	0	328204288	57	4369
2026-01-02 10:15:58.66	174.77	23.00	-47.3	-49.1	16.0	0.00e+00	0	55	0	335544320	57	4424
2026-01-02 10:16:02.62	175.05	23.57	-46.9	-48.5	16.5	0.00e+00	0	55	0	342884352	56	4377
2026-01-02 10:16:06.58	175.34	24.15	-47.3	-49.0	16.0	0.00e+00	0	55	0	350224384	56	4651
2026-01-02 10:16:10.54	175.64	24.75	-47.4	-49.3	15.8	0.00e+00	0	55	0	358612992	56	4761
2026-01-02 10:16:14.50	175.96	25.36	-47.1	-48.9	16.1	0.00e+00	0	55	0	365953024	56	4576
2026-01-02 10:16:18.47	176.28	25.99	-47.5	-49.5	15.7	0.00e+00	0	55	0	373293056	56	4873
2026-01-02 10:16:22.41	176.62	26.62	-47.0	-48.7	16.3	0.00e+00	0	55	0	380633088	56	4487
2026-01-02 10:16:26.38	176.97	27.27	-47.1	-48.8	16.3	0.00e+00	0	55	0	387973120	56	4519
2026-01-02 10:16:30.33	177.34	27.94	-46.6	-48.2	16.9	0.00e+00	0	55	0	395313152	56	4210
2026-01-02 10:16:34.28	177.72	28.62	-47.0	-48.6	16.5	0.00e+00	0	55	0	402653184	56	4428
2026-01-02 10:16:38.23	178.11	29.31	-47.4	-49.3	15.9	0.00e+00	0	55	0	409993216	57	4500
2026-01-02 10:16:42.20	178.53	30.03	-48.3	-50.6	14.6	7.00e-07	0	56	0	417333248	58	4941
2026-01-02 10:16:46.14	178.95	30.76	-48.6	-51.1	14.1	3.00e-06	0	55	0	424673280	59	4937
2026-01-02 10:16:50.09	179.40	31.50	-49.0	-51.8	13.2	1.14e-05	0	55	0	432013312	60	5098
2026-01-02 10:16:54.05	179.88	32.27	-50.0	-53.7	11.4	7.56e-04	0	56	0	439353344	62	5594
2026-01-02 10:16:58.02	180.37	33.05	-49.9	-53.5	11.6	3.09e-04	0	56	0	446693376	62	5508
2026-01-02 10:17:01.97	180.89	33.85	-49.4	-52.5	12.5	1.70e-04	0	56	0	455081984	61	5196
2026-01-02 10:17:05.93	181.43	34.67	-49.4	-52.5	12.7	9.53e-05	0	56	0	462422016	61	5179
2026-01-02 10:17:09.89	182.00	35.51	-49.9	-53.4	11.8	2.65e-04	0	56	0	469762048	61	5734
2026-01-02 10:17:13.84	182.60	36.36	-50.1	-54.1	11.0	1.98e-03	0	56	0	477102080	62	5886
2026-01-02 10:17:17.79	183.23	37.24	-49.2	-52.3	12.9	2.10e-04	0	56	0	484442112	61	5079
2026-01-02 10:17:21.74	183.89	38.13	-49.1	-51.9	13.3	8.30e-06	0	56	0	491782144	60	5135
2026-01-02 10:17:25.71	184.59	39.05	-49.8	-53.2	12.0	3.48e-04	0	56	0	499122176	61	5633
2026-01-02 10:17:29.65	185.33	39.99	-50.4	-54.4	10.7	1.91e-03	0	56	0	506462208	62	6089
2026-01-02 10:17:33.61	186.12	40.95	-50.4	-54.6	10.7	2.74e-03	0	56	0	513802240	62	6204
2026-01-02 10:17:37.57	186.95	41.92	-49.3	-52.3	13.0	3.73e-05	0	56	0	521142272	61	5043
2026-01-02 10:17:41.50	187.83	42.91	-48.4	-50.6	14.6	0.00e+00	0	56	0	528482304	59	4699
2026-01-02 10:17:45.46	188.77	43.93	-48.3	-50.5	14.8	0.00e+00	0	56	0	535822336	59	4620
2026-01-02 10:17:49.42	189.77	44.96	-48.1	-50.3	14.9	0.00e+00	0	56	0	543162368	58	4811
2026-01-02 10:17:53.38	190.84	46.01	-48.3	-50.4	14.9	0.00e+00	0	56	0	550502400	58	4816
2026-01-02 10:17:57.34	191.98	47.08	-48.1	-50.3	15.1	0.00e+00	0	56	0	558891008	58	4764
2026-01-02 10:18:01.30	193.21	48.16	-47.5	-49.4	15.9	0.00e+00	0	56	0	566231040	58	4311
2026-01-02 10:18:05.25	194.51	49.26	-46.6	-48.1	17.1	0.00e+00	0	56	0	573571072	56	4169
2026-01-02 10:18:09.21	195.92	50.36	-47.2	-49.0	16.3	0.00e+00	0	56	0	580911104	56	4609
2026-01-02 10:18:13.17	197.43	51.48	-47.4	-49.1	16.1	0.00e+00	0	56	0	588251136	57	4426
2026-01-02 10:18:17.13	199.06	52.59	-45.4	-46.5	18.4	0.00e+00	0	56	0	595591168	53	4139
2026-01-02 10:18:21.09	200.81	53.71	-46.0	-47.4	17.6	0.00e+00	0	56	0	602931200	53	4575
2026-01-02 10:18:25.05	202.70	54.82	-46.0	-47.4	17.6	0.00e+00	0	56	0	610271232	55	4087
2026-01-02 10:18:28.97	204.73	55.92	-46.1	-47.4	17.6	0.00e+00	0	56	0	617611264	54	4327
2026-01-02 10:18:32.91	206.92	57.00	-45.7	-47.0	18.1	0.00e+00	0	57	0	624951296	54	4114
2026-01-02 10:18:36.86	209.30	58.06	-46.0	-47.4	17.8	0.00e+00	0	57	0	632291328	54	4330
2026-01-02 10:18:40.80	211.87	59.09	-46.9	-48.5	16.7	0.00e+00	0	57	0	639631360	55	4644
2026-01-02 10:18:44.76	214.65	60.09	-46.7	-48.2	17.0	0.00e+00	0	57	0	646971392	56	4232
2026-01-02 10:18:48.73	217.66	61.04	-46.4	-47.9	17.3	0.00e+00	0	57	0	654311424	56	4078
2026-01-02 10:18:52.70	220.89	61.92	-46.9	-48.4	16.8	0.00e+00	0	57	0	662700032	56	4340
2026-01-02 10:18:56.66	224.35	62.74	-46.1	-47.4	17.7	0.00e+00	0	57	0	670040064	54	4330
2026-01-02 10:19:00.60	228.02	63.46	-45.7	-47.0	18.0	0.00e+00	0	57	0	677380096	53	4377
2026-01-02 10:19:04.57	231.93	64.10	-47.5	-49.4	15.8	0.00e+00	0	57	0	684720128	57	4591
2026-01-02 10:19:08.51	236.01	64.62	-49.2	-52.2	13.1	7.00e-07	0	57	0	692060160	60	5333
2026-01-02 10:19:12.47	240.28	65.03	-48.1	-50.2	15.0	7.00e-07	0	57	0	699400192	59	4492
2026-01-02 10:19:16.43	244.69	65.32	-48.3	-50.6	14.6	7.00e-07	0	57	0	706740224	59	4662
2026-01-02 10:19:20.40	249.19	65.47	-46.2	-47.6	17.5	0.00e+00	0	57	0	714080256	55	4180
2026-01-02 10:19:24.35	253.71	65.48	-47.3	-49.0	16.3	0.00e+00	0	57	0	721420288	56	4624
2026-01-02 10:19:28.31	258.21	65.36	-47.7	-49.7	15.7	0.00e+00	0	57	0	728760320	57	4717
2026-01-02 10:19:32.25	262.62	65.11	-46.1	-47.6	17.5	0.00e+00	0	57	0	736100352	55	4160
2026-01-02 10:19:36.21	266.92	64.73	-45.7	-47.0	18.1	0.00e+00	0	57	0	743440384	53	4352
2026-01-02 10:19:40.16	271.05	64.23	-46.3	-47.8	17.2	0.00e+00	0	57	0	750780416	55	4270
2026-01-02 10:19:44.11	274.99	63.62	-45.9	-47.3	17.8	0.00e+00	0	57	0	758120448	54	4243
2026-01-02 10:19:48.07	278.72	62.91	-47.3	-49.1	16.1	0.00e+00	0	57	0	766509056	56	4698
2026-01-02 10:19:52.05	282.24	62.11	-46.3	-47.8	17.3	0.00e+00	0	57	0	773849088	55	4261
2026-01-02 10:19:56.00	285.50	61.24	-45.1	-46.3	18.7	0.00e+00	0	57	0	781189120	53	4033
2026-01-02 10:19:59.95	288.54	60.31	-45.1	-46.2	18.8	0.00e+00	0	57	0	788529152	52	4223
2026-01-02 10:20:03.90	291.36	59.33	-44.0	-45.0	20.0	0.00e+00	0	57	0	795869184	51	3885
2026-01-02 10:20:07.87	293.99	58.30	-44.4	-45.4	19.7	0.00e+00	0	57	0	803209216	51	4058
2026-01-02 10:20:11.84	296.42	57.24	-45.0	-46.3	18.8	0.00e+00	0	57	0	810549248	51	4500
2026-01-02 10:20:15.80	298.66	56.16	-45.2	-46.4	18.6	0.00e+00	0	57	0	817889280	52	4335
2026-01-02 10:20:19.75	300.73	55.07	-45.0	-46.1	18.9	0.00e+00	0	57	0	825229312	52	4159
2026-01-02 10:20:23.71	302.65	53.96	-47.1	-48.9	16.3	0.00e+00	0	57	0	832569344	56	4565
2026-01-02 10:20:27.64	304.42	52.85	-47.0	-48.6	16.5	0.00e+00	0	57	0	839909376	55	4682
2026-01-02 10:20:31.60	306.07	51.74	-47.5	-49.4	15.9	0.00e+00	0	57	0	847249408	57	4557
2026-01-02 10:20:35.55	307.60	50.63	-47.0	-48.6	16.6	0.00e+00	0	57	0	854589440	56	4407
2026-01-02 10:20:39.51	309.02	49.53	-48.0	-50.1	15.3	0.00e+00	0	57	0	862978048	57	4933
2026-01-02 10:20:43.48	310.36	48.43	-47.3	-49.0	16.2	0.00e+00	0	57	0	870318080	57	4388
2026-01-02 10:20:47.44	311.59	47.35	-47.1	-48.8	16.4	0.00e+00	0	57	0	877658112	56	4511
2026-01-02 10:20:51.40	312.75	46.28	-49.3	-52.1	13.1	4.57e-05	0	57	0	884998144	60	5272
2026-01-02 10:20:55.37	313.84	45.23	-48.0	-50.2	15.0	0.00e+00	0	57	0	892338176	59	4479
2026-01-02 10:20:59.34	314.85	44.19	-49.1	-51.9	13.2	7.60e-06	0	57	0	899678208	60	5159
2026-01-02 10:21:03.30	315.81	43.17	-48.8	-51.5	13.8	1.52e-05	0	57	0	907018240	60	4884
2026-01-02 10:21:07.26	316.70	42.17	-49.0	-51.8	13.4	3.35e-05	0	57	0	914358272	60	5055
2026-01-02 10:21:11.22	317.55	41.20	-47.5	-49.3	16.0	0.00e+00	0	57	0	921698304	57	4506
2026-01-02 10:21:15.18	318.34	40.24	-50.0	-53.9	11.3	5.89e-04	0	57	0	929038336	61	6096
2026-01-02 10:21:19.12	319.09	39.30	-48.4	-50.7	14.6	2.20e-06	0	57	0	936378368	59	4717
2026-01-02 10:21:23.07	319.80	38.39	-48.4	-50.7	14.5	0.00e+00	0	57	0	943718400	58	5034
2026-01-02 10:21:27.02	320.47	37.49	-50.2	-54.3	10.8	1.15e-02	0	57	0	951058432	63	5700
2026-01-02 10:21:30.96	321.10	36.62	-46.7	-48.3	16.9	0.00e+00	0	57	0	959447040	56	4243
2026-01-02 10:21:34.93	321.71	35.75	-48.7	-51.2	13.9	7.00e-07	0	57	0	966787072	59	5025
2026-01-02 10:21:38.88	322.29	34.92	-47.6	-49.5	15.7	0.00e+00	0	57	0	974127104	58	4363
2026-01-02 10:21:42.84	322.84	34.10	-47.6	-49.5	15.7	0.00e+00	0	57	0	981467136	57	4641
2026-01-02 10:21:46.80	323.36	33.29	-48.2	-50.5	14.7	7.00e-07	0	57	0	988807168	58	4884
2026-01-02 10:21:50.76	323.86	32.51	-47.4	-49.3	15.9	0.00e+00	0	57	0	996147200	58	4267
2026-01-02 10:21:54.71	324.33	31.75	-48.0	-50.1	15.0	0.00e+00	0	57	0	1003487232	57	4980
2026-01-02 10:21:58.67	324.79	31.00	-48.5	-51.0	14.2	7.00e-07	0	57	0	1010827264	59	4891
2026-01-02 10:22:02.63	325.22	30.27	-48.2	-50.5	14.7	0.00e+00	0	57	0	1018167296	59	4602
2026-01-02 10:22:06.58	325.64	29.55	-48.6	-51.1	14.1	0.00e+00	0	57	0	1025507328	59	4947
2026-01-02 10:22:10.54	326.04	28.85	-48.8	-51.5	13.6	6.80e-06	0	57	0	1032847360	59	5208
2026-01-02 10:22:14.49	326.42	28.17	-49.0	-51.8	13.3	1.60e-05	0	57	0	1040187392	60	5096
2026-01-02 10:22:18.44	326.79	27.51	-48.3	-50.7	14.5	1.50e-06	0	57	0	1047527424	59	4707
2026-01-02 10:22:22.39	327.15	26.86	-47.2	-48.9	16.2	0.00e+00	0	57	0	1054867456	57	4315
2026-01-02 10:22:26.35	327.49	26.22	-47.2	-49.0	16.1	0.00e+00	0	57	0	1063256064	57	4363
2026-01-02 10:22:30.30	327.82	25.60	-47.9	-50.0	15.1	7.00e-07	0	57	0	1070596096	57	4908
2026-01-02 10:22:34.24	328.13	24.99	-47.8	-49.9	15.3	0.00e+00	0	57	0	1077936128	57	4816
2026-01-02 10:22:38.18	328.44	24.39	-47.7	-49.8	15.3	0.00e+00	0	57	0	1085276160	57	4789
2026-01-02 10:22:42.15	328.73	23.81	-47.0	-48.8	16.3	0.00e+00	0	57	0	1092616192	57	4245
2026-01-02 10:22:46.11	329.02	23.23	-45.6	-46.9	18.0	0.00e+00	0	57	0	1099956224	54	4075
2026-01-02 10:22:50.06	329.29	22.67	-44.9	-46.1	18.7	0.00e+00	0	57	0	1107296256	52	4148
2026-01-02 10:22:54.02	329.56	22.12	-45.1	-46.3	18.5	0.00e+00	0	57	0	1114636288	52	4282
2026-01-02 10:22:57.98	329.82	21.58	-45.8	-47.2	17.7	0.00e+00	0	57	0	1121976320	54	4217
2026-01-02 10:23:01.93	330.07	21.06	-46.1	-47.6	17.3	0.00e+00	0	57	0	1129316352	54	4402
2026-01-02 10:23:05.89	330.31	20.54	-45.5	-46.8	18.0	0.00e+00	0	57	0	1136656384	54	4048
2026-01-02 10:23:09.86	330.55	20.03	-45.8	-47.2	17.7	0.00e+00	0	57	0	1143996416	54	4205
2026-01-02 10:23:13.82	330.77	19.53	-45.8	-47.2	17.7	0.00e+00	0	57	0	1151336448	54	4202
2026-01-02 10:23:17.78	330.99	19.05	-45.8	-47.2	17.6	0.00e+00	0	57	0	1159725056	54	4221
2026-01-02 10:23:21.74	331.21	18.57	-46.0	-47.5	17.4	0.00e+00	0	57	0	1167065088	54	4341
2026-01-02 10:23:25.68	331.42	18.10	-46.4	-47.9	16.9	0.00e+00	0	57	0	1174405120	54	4591
2026-01-02 10:23:29.63	331.62	17.64	-46.6	-48.2	16.7	0.00e+00	0	57	0	1181745152	55	4460
2026-01-02 10:23:33.57	331.82	17.19	-46.6	-48.3	16.5	0.00e+00	0	57	0	1189085184	55	4503
2026-01-02 10:23:37.54	332.01	16.74	-46.4	-47.9	16.9	0.00e+00	0	57	0	1196425216	55	4331
2026-01-02 10:23:41.50	332.20	16.30	-46.0	-47.4	17.4	0.00e+00	0	57	0	1203765248	55	4080
2026-01-02 10:23:45.46	332.38	15.87	-45.9	-47.3	17.4	0.00e+00	0	57	0	1211105280	54	4276
2026-01-02 10:23:49.41	332.56	15.45	-45.9	-47.3	17.4	0.00e+00	0	57	0	1218445312	54	4275
2026-01-02 10:23:53.39	332.73	15.03	-46.2	-47.7	17.0	0.00e+00	0	57	0	1225785344	54	4463
2026-01-02 10:23:57.34	332.90	14.62	-46.4	-48.0	16.8	0.00e+00	0	57	0	1233125376	55	4343
2026-01-02 10:24:01.31	333.07	14.22	-46.8	-48.5	16.2	0.00e+00	0	57	0	1240465408	55	4617
2026-01-02 10:24:05.25	333.23	13.83	-47.0	-48.8	15.9	0.00e+00	0	57	0	1247805440	55	4794
2026-01-02 10:24:09.21	333.38	13.44	-47.2	-49.1	15.7	0.00e+00	0	57	0	1256194048	56	4681
2026-01-02 10:24:13.16	333.54	13.05	-47.7	-49.9	14.9	0.00e+00	0	57	0	1263534080	57	4865
2026-01-02 10:24:17.13	333.69	12.67	-48.1	-50.5	14.4	0.00e+00	0	57	0	1270874112	58	4875
2026-01-02 10:24:21.10	333.84	12.30	-48.8	-51.8	12.9	3.20e-05	0	57	0	1278214144	59	5371
2026-01-02 10:24:25.05	333.98	11.93	-49.0	-52.2	12.5	1.04e-04	0	57	0	1285554176	60	5339
2026-01-02 10:24:29.01	334.12	11.57	-49.2	-52.5	12.1	2.39e-04	0	57	0	1292894208	60	5525
2026-01-02 10:24:32.95	334.26	11.22	-48.4	-51.1	13.5	2.51e-05	0	57	0	1300234240	59	4964
2026-01-02 10:24:36.91	334.39	10.87	-47.9	-50.3	14.3	0.00e+00	0	57	0	1307574272	58	4779
2026-01-02 10:24:40.86	334.52	10.52	-47.9	-50.3	14.3	1.50e-06	0	57	0	1314914304	58	4769
2026-01-02 10:24:44.85	334.65	10.18	-47.7	-50.1	14.6	0.00e+00	0	57	0	1322254336	57	4930
2026-01-02 10:24:48.81	334.78	9.84	-47.7	-50.0	14.6	0.00e+00	0	57	0	1329594368	57	4893
2026-01-02 10:24:52.75	334.90	9.51	-47.5	-49.6	14.9	0.00e+00	0	57	0	1336934400	57	4687
2026-01-02 10:24:56.72	335.03	9.18	-47.4	-49.5	15.0	0.00e+00	0	57	0	1344274432	57	4644
2026-01-02 10:25:00.66	335.15	8.85	-47.5	-49.7	14.8	0.00e+00	0	57	0	1352663040	57	4715
2026-01-02 10:25:04.62	335.26	8.53	-47.5	-49.8	14.7	7.00e-07	0	57	0	1360003072	57	4761
2026-01-02 10:25:08.59	335.38	8.22	-47.6	-49.9	14.6	7.00e-07	0	57	0	1367343104	57	4842
2026-01-02 10:25:12.56	335.49	7.90	-47.4	-49.6	14.8	0.00e+00	0	57	0	1374683136	57	4683
2026-01-02 10:25:16.53	335.61	7.59	-47.5	-49.8	14.6	7.00e-07	0	57	0	1382023168	57	4766
2026-01-02 10:25:20.49	335.71	7.29	-47.7	-50.1	14.3	0.00e+00	0	57	0	1389363200	57	4964
2026-01-02 10:25:24.44	335.82	6.99	-47.7	-50.1	14.2	0.00e+00	0	57	0	1396703232	57	4971
2026-01-02 10:25:28.38	335.93	6.69	-47.7	-50.2	14.1	2.20e-06	0	57	0	1404043264	57	5031
2026-01-02 10:25:32.32	336.03	6.40	-47.8	-50.3	13.9	2.20e-06	0	57	0	1411383296	57	5070
2026-01-02 10:25:36.27	336.13	6.11	-48.0	-50.8	13.4	9.10e-06	0	57	0	1418723328	57	5360
2026-01-02 10:25:40.23	336.23	5.82	-48.0	-50.6	13.6	6.10e-06	0	57	0	1426063360	58	4959
2026-01-02 10:25:44.19	336.33	5.53	-48.1	-51.0	13.2	3.73e-05	0	58	0	1433403392	58	5171
2026-01-02 10:25:48.13	336.43	5.25	-48.3	-51.4	12.8	6.10e-05	0	57	0	1440743424	58	5409
2026-01-02 10:25:52.09	336.53	4.97	-51.3	-62.7	4.0	1.21e+00	0	58	0	1448083456	64	14159
2026-01-02 10:25:56.05	336.62	4.70	-51.3	-65.2	3.8	1.49e+00	0	58	104	1448083456	64	18917
2026-01-02 10:26:00.01	336.71	4.42	-52.2	-66.2	3.8	1.49e+00	0	58	104	1448083456	66	18920
2026-01-02 10:26:03.97	336.80	4.15	-52.4	-66.3	3.8	1.49e+00	0	58	104	1448083456	66	19096
2026-01-02 10:26:07.93	336.89	3.88	-52.4	-66.4	3.8	1.49e+00	0	57	104	1448083456	66	19327
2026-01-02 10:26:11.90	336.98	3.62	-52.5	-66.5	3.8	1.49e+00	0	57	104	1448083456	67	18325
2026-01-02 10:26:15.86	337.07	3.36	-52.4	-66.5	3.8	1.49e+00	0	57	104	1448083456	67	18375
2026-01-02 10:26:19.82	337.16	3.09	-52.5	-66.4	3.8	1.49e+00	0	58	104	1448083456	67	18255

#Closed at: 2026-01-02 10:26:22
#Recorded file [1448 MB]: D:/Data/31026_260102_132552.dat