passes_logs/2026/01/02/R3.0SM8_Murmansk_STILSPACE/R3.0SM8_Murmansk_STILSPACE__20260102_083219_SUOMI_NPP_rec.log

#Pass ID: 20260102_083219_SUOMI NPP
#Satellite: SUOMI NPP
#Configuration: NPP
#almurnet v.1.7.20240730
#Start time: 2026-01-02 08:32:19

#Version: 2.2.20231116
#Station: R3.0SM8_Murmansk_STILSPACE
#Location: 33.092731 lon 68.902999 lat
#TLE: 1 37849U 11061A   26001.07732418  .00000182  00000+0  10735-3 0  9990
#TLE: 2 37849  98.7795 303.2470 0002580  87.2016 272.9455 14.19520779734739

#Time	Az	El	Level	Level2	SNR	BER	BlckErr	Temp	State	Recorded	gain1	gain2
2026-01-02 08:32:19.97	126.52	3.00	-52.3	-66.3	3.8	1.49e+00	0	46	0	0	67	17968
2026-01-02 08:32:23.93	126.42	3.26	-52.2	-66.1	3.8	1.49e+00	0	47	104	0	67	17572
2026-01-02 08:32:27.88	126.32	3.53	-51.8	-65.6	3.8	1.49e+00	0	47	104	0	66	17532
2026-01-02 08:32:31.84	126.21	3.79	-51.6	-64.5	3.8	1.49e+00	0	47	104	0	66	15515
2026-01-02 08:32:35.81	126.11	4.06	-51.5	-63.1	3.8	1.49e+00	0	47	104	0	66	13219
2026-01-02 08:32:39.77	126.00	4.33	-51.4	-61.4	4.4	1.30e+00	0	48	0	1048576	65	11467
2026-01-02 08:32:43.72	125.89	4.60	-51.1	-59.7	5.1	7.30e-01	0	48	0	8388608	65	9448
2026-01-02 08:32:47.68	125.77	4.88	-50.8	-57.9	6.4	2.80e-01	0	48	0	15728640	64	8155
2026-01-02 08:32:51.64	125.65	5.16	-50.6	-56.8	7.4	8.98e-02	0	49	0	23068672	64	7141
2026-01-02 08:32:55.59	125.54	5.44	-50.3	-55.3	9.0	2.99e-02	0	49	0	30408704	63	6367
2026-01-02 08:32:59.56	125.41	5.72	-50.1	-54.8	9.5	1.37e-02	0	49	0	37748736	63	6053
2026-01-02 08:33:03.52	125.29	6.01	-49.2	-52.8	11.6	1.01e-03	0	49	0	45088768	61	5345
2026-01-02 08:33:07.46	125.16	6.30	-48.1	-50.7	13.8	1.14e-05	0	49	0	52428800	59	4745
2026-01-02 08:33:11.43	125.03	6.59	-47.6	-49.9	14.6	7.00e-07	0	50	0	59768832	58	4570
2026-01-02 08:33:15.37	124.90	6.89	-47.8	-50.1	14.4	0.00e+00	0	50	0	67108864	58	4692
2026-01-02 08:33:19.31	124.77	7.19	-47.9	-50.3	14.2	7.00e-07	0	50	0	74448896	58	4812
2026-01-02 08:33:23.27	124.63	7.49	-48.2	-50.7	13.9	3.00e-06	0	50	0	81788928	58	4996
2026-01-02 08:33:27.23	124.49	7.79	-47.6	-49.8	14.8	1.50e-06	0	50	0	89128960	58	4545
2026-01-02 08:33:31.17	124.34	8.10	-47.7	-49.9	14.8	7.00e-07	0	50	0	97517568	58	4548
2026-01-02 08:33:35.13	124.19	8.42	-47.4	-49.5	15.1	0.00e+00	0	51	0	104857600	58	4387
2026-01-02 08:33:39.09	124.04	8.73	-47.6	-49.7	15.0	0.00e+00	0	51	0	112197632	58	4488
2026-01-02 08:33:43.05	123.89	9.06	-47.5	-49.6	15.1	0.00e+00	0	51	0	119537664	58	4427
2026-01-02 08:33:47.01	123.73	9.38	-47.6	-49.8	15.0	0.00e+00	0	51	0	126877696	57	4771
2026-01-02 08:33:50.97	123.56	9.71	-47.2	-49.1	15.6	0.00e+00	0	51	0	134217728	57	4415
2026-01-02 08:33:54.92	123.40	10.04	-47.3	-49.3	15.5	0.00e+00	0	52	0	141557760	57	4522
2026-01-02 08:33:58.90	123.23	10.38	-47.1	-48.9	15.9	0.00e+00	0	52	0	148897792	57	4311
2026-01-02 08:34:02.86	123.05	10.73	-47.2	-49.0	15.8	0.00e+00	0	52	0	156237824	57	4368
2026-01-02 08:34:06.80	122.87	11.07	-47.2	-49.1	15.7	0.00e+00	0	52	0	163577856	57	4398
2026-01-02 08:34:10.77	122.68	11.42	-47.2	-49.2	15.7	0.00e+00	0	52	0	170917888	57	4448
2026-01-02 08:34:14.72	122.50	11.78	-46.9	-48.8	16.0	0.00e+00	0	52	0	178257920	57	4273
2026-01-02 08:34:18.68	122.30	12.14	-47.1	-49.1	15.7	0.00e+00	0	53	0	185597952	56	4670
2026-01-02 08:34:22.64	122.10	12.51	-47.3	-49.3	15.5	0.00e+00	0	52	0	193986560	56	4812
2026-01-02 08:34:26.60	121.89	12.88	-47.5	-49.6	15.2	0.00e+00	0	52	0	201326592	56	4974
2026-01-02 08:34:30.55	121.68	13.25	-47.3	-49.3	15.6	0.00e+00	0	53	0	208666624	57	4500
2026-01-02 08:34:34.50	121.47	13.63	-47.5	-49.6	15.3	0.00e+00	0	53	0	216006656	57	4680
2026-01-02 08:34:38.45	121.25	14.02	-47.5	-49.6	15.3	0.00e+00	0	53	0	223346688	57	4677
2026-01-02 08:34:42.41	121.02	14.42	-48.0	-50.2	14.7	0.00e+00	0	53	0	230686720	57	5038
2026-01-02 08:34:46.37	120.78	14.82	-47.6	-49.7	15.2	0.00e+00	0	53	0	238026752	57	4726
2026-01-02 08:34:50.33	120.54	15.22	-48.1	-50.5	14.5	1.50e-06	0	53	0	245366784	58	4880
2026-01-02 08:34:54.29	120.29	15.63	-47.0	-48.8	16.1	0.00e+00	0	53	0	252706816	57	4276
2026-01-02 08:34:58.25	120.03	16.05	-47.0	-48.8	16.2	0.00e+00	0	53	0	260046848	56	4528
2026-01-02 08:35:02.21	119.77	16.48	-47.2	-49.1	15.9	0.00e+00	0	54	0	267386880	56	4665
2026-01-02 08:35:06.17	119.50	16.91	-47.1	-49.0	15.9	0.00e+00	0	54	0	274726912	56	4643
2026-01-02 08:35:10.14	119.21	17.35	-47.1	-49.0	15.9	0.00e+00	0	54	0	282066944	56	4630
2026-01-02 08:35:14.10	118.92	17.80	-46.7	-48.4	16.5	0.00e+00	0	54	0	290455552	56	4317
2026-01-02 08:35:18.06	118.63	18.25	-46.5	-48.2	16.7	0.00e+00	0	54	0	297795584	56	4223
2026-01-02 08:35:22.02	118.32	18.71	-47.1	-49.0	16.0	0.00e+00	0	54	0	305135616	56	4613
2026-01-02 08:35:25.98	118.00	19.18	-46.9	-48.7	16.3	0.00e+00	0	54	0	312475648	56	4462
2026-01-02 08:35:29.93	117.67	19.66	-47.1	-48.9	16.1	0.00e+00	0	54	0	319815680	56	4573
2026-01-02 08:35:33.87	117.33	20.14	-47.0	-48.8	16.2	0.00e+00	0	54	0	327155712	56	4530
2026-01-02 08:35:37.84	116.98	20.64	-47.5	-49.7	15.4	0.00e+00	0	54	0	334495744	56	4988
2026-01-02 08:35:41.80	116.62	21.14	-47.4	-49.5	15.6	0.00e+00	0	54	0	341835776	56	4876
2026-01-02 08:35:45.76	116.24	21.65	-47.2	-49.1	15.9	0.00e+00	0	54	0	349175808	56	4701
2026-01-02 08:35:49.72	115.86	22.17	-47.5	-49.7	15.4	0.00e+00	0	54	0	356515840	56	4988
2026-01-02 08:35:53.69	115.45	22.70	-47.5	-49.6	15.5	0.00e+00	0	54	0	363855872	57	4666
2026-01-02 08:35:57.66	115.03	23.24	-47.9	-50.1	15.0	0.00e+00	0	54	0	371195904	57	4940
2026-01-02 08:36:01.63	114.60	23.79	-48.3	-50.7	14.4	0.00e+00	0	55	0	379584512	58	5025
2026-01-02 08:36:05.60	114.15	24.36	-48.0	-50.3	14.9	0.00e+00	0	55	0	386924544	58	4760
2026-01-02 08:36:09.57	113.69	24.93	-48.4	-50.9	14.3	1.50e-06	0	55	0	394264576	58	5102
2026-01-02 08:36:13.51	113.21	25.50	-48.0	-50.2	14.9	0.00e+00	0	55	0	401604608	58	4757
2026-01-02 08:36:17.46	112.71	26.09	-48.8	-51.6	13.6	9.10e-06	0	55	0	408944640	59	5248
2026-01-02 08:36:21.42	112.19	26.69	-48.8	-51.7	13.5	2.28e-05	0	55	0	416284672	60	4993
2026-01-02 08:36:25.37	111.65	27.30	-48.6	-51.1	14.0	6.10e-06	0	55	0	423624704	60	4688
2026-01-02 08:36:29.32	111.09	27.92	-48.3	-50.7	14.5	1.50e-06	0	55	0	430964736	59	4721
2026-01-02 08:36:33.27	110.50	28.56	-48.9	-51.6	13.6	5.30e-06	0	55	0	438304768	59	5241
2026-01-02 08:36:37.23	109.89	29.20	-48.0	-50.3	14.9	0.00e+00	0	55	0	445644800	59	4509
2026-01-02 08:36:41.20	109.26	29.86	-48.5	-51.0	14.2	7.00e-07	0	55	0	452984832	58	5173
2026-01-02 08:36:45.17	108.59	30.53	-48.5	-51.1	14.1	1.50e-06	0	55	0	460324864	59	4928
2026-01-02 08:36:49.12	107.90	31.20	-48.5	-51.0	14.2	1.50e-06	0	55	0	467664896	59	4901
2026-01-02 08:36:53.07	107.18	31.89	-48.9	-51.7	13.5	9.90e-06	0	55	0	476053504	60	5025
2026-01-02 08:36:57.03	106.43	32.59	-49.2	-52.3	12.9	3.12e-05	0	55	0	483393536	60	5356
2026-01-02 08:37:00.99	105.64	33.30	-49.2	-52.4	12.7	8.16e-05	0	55	0	490733568	60	5434
2026-01-02 08:37:04.93	104.82	34.02	-48.9	-51.7	13.5	1.37e-05	0	55	0	498073600	60	5004
2026-01-02 08:37:08.88	103.96	34.74	-48.7	-51.4	13.8	8.30e-06	0	56	0	505413632	59	5123
2026-01-02 08:37:12.84	103.06	35.48	-49.0	-52.2	13.0	3.43e-05	0	56	0	512753664	60	5283
2026-01-02 08:37:16.80	102.12	36.23	-49.4	-52.7	12.4	2.51e-04	0	56	0	520093696	61	5305
2026-01-02 08:37:20.77	101.13	36.99	-49.3	-52.6	12.5	1.95e-04	0	56	0	527433728	61	5276
2026-01-02 08:37:24.73	100.09	37.75	-49.5	-53.1	12.1	2.69e-04	0	56	0	534773760	61	5581
2026-01-02 08:37:28.69	99.01	38.52	-49.4	-52.7	12.3	2.16e-04	0	56	0	542113792	61	5340
2026-01-02 08:37:32.64	97.87	39.30	-49.5	-52.9	12.3	2.39e-04	0	56	0	549453824	61	5446
2026-01-02 08:37:36.60	96.67	40.08	-49.7	-53.5	11.6	9.83e-04	0	56	0	556793856	61	5849
2026-01-02 08:37:40.57	95.41	40.86	-49.6	-53.3	11.8	5.19e-04	0	56	0	564133888	61	5719
2026-01-02 08:37:44.53	94.10	41.64	-50.7	-55.6	9.5	1.19e-02	0	56	0	572522496	63	6580
2026-01-02 08:37:48.49	92.71	42.42	-49.2	-52.4	12.8	9.38e-05	0	56	0	579862528	61	5124
2026-01-02 08:37:52.45	91.26	43.20	-49.9	-53.8	11.3	3.69e-04	0	56	0	587202560	61	6051
2026-01-02 08:37:56.40	89.74	43.97	-49.7	-53.6	11.5	8.35e-04	0	56	0	594542592	62	5547
2026-01-02 08:38:00.35	88.14	44.73	-50.0	-54.4	10.7	2.68e-03	0	56	0	601882624	62	6078
2026-01-02 08:38:04.31	86.46	45.47	-50.4	-55.2	9.9	9.16e-03	0	56	0	609222656	63	6294
2026-01-02 08:38:08.26	84.71	46.21	-48.9	-51.7	13.5	1.83e-05	0	56	0	616562688	61	4731
2026-01-02 08:38:12.22	82.86	46.92	-50.3	-54.5	10.7	1.48e-03	0	56	0	623902720	62	6145
2026-01-02 08:38:16.18	80.94	47.62	-49.2	-52.2	13.0	6.63e-05	0	56	0	631242752	61	5003
2026-01-02 08:38:20.15	78.92	48.29	-50.1	-54.0	11.1	1.02e-03	0	56	0	638582784	62	5806
2026-01-02 08:38:24.11	76.81	48.92	-48.3	-50.8	14.5	0.00e+00	0	56	0	645922816	59	4760
2026-01-02 08:38:28.06	74.63	49.52	-47.8	-50.2	14.9	7.00e-07	0	56	0	653262848	59	4448
2026-01-02 08:38:31.99	72.37	50.08	-47.9	-50.3	14.9	0.00e+00	0	56	0	660602880	57	5060
2026-01-02 08:38:35.95	70.02	50.60	-49.8	-54.6	10.4	1.93e-03	0	56	0	667942912	61	6603
2026-01-02 08:38:39.92	67.57	51.08	-48.8	-51.8	13.4	7.60e-06	0	56	0	676331520	59	5359
2026-01-02 08:38:43.88	65.06	51.50	-48.4	-51.2	13.8	0.00e+00	0	56	0	683671552	58	5330
2026-01-02 08:38:47.82	62.50	51.86	-48.0	-50.5	14.5	1.50e-06	0	56	0	691011584	59	4645
2026-01-02 08:38:51.79	59.86	52.16	-46.0	-47.6	17.3	0.00e+00	0	56	0	698351616	54	4417
2026-01-02 08:38:55.76	57.17	52.41	-45.9	-47.5	17.4	0.00e+00	0	56	0	705691648	53	4635
2026-01-02 08:38:59.71	54.45	52.58	-45.3	-46.8	18.1	0.00e+00	0	56	0	713031680	53	4245
2026-01-02 08:39:03.66	51.71	52.69	-45.1	-46.4	18.4	0.00e+00	0	56	0	720371712	52	4316
2026-01-02 08:39:07.62	48.95	52.73	-46.8	-48.9	16.2	0.00e+00	0	56	0	727711744	55	4815
2026-01-02 08:39:11.59	46.18	52.71	-47.1	-49.0	16.1	0.00e+00	0	56	0	735051776	56	4633
2026-01-02 08:39:15.55	43.42	52.61	-47.8	-50.2	14.9	7.00e-07	0	56	0	742391808	58	4737
2026-01-02 08:39:19.51	40.70	52.45	-47.5	-49.7	15.0	0.00e+00	0	56	0	749731840	57	4759
2026-01-02 08:39:23.47	38.01	52.22	-47.3	-49.2	16.0	0.00e+00	0	56	0	757071872	57	4454
2026-01-02 08:39:27.43	35.36	51.93	-47.5	-49.6	15.6	0.00e+00	0	56	0	765460480	57	4658
2026-01-02 08:39:31.38	32.78	51.57	-47.9	-50.2	15.0	0.00e+00	0	56	0	772800512	58	4708
2026-01-02 08:39:35.35	30.25	51.16	-46.6	-48.2	16.9	0.00e+00	0	56	0	780140544	56	4220
2026-01-02 08:39:39.30	27.81	50.70	-48.0	-50.5	14.7	0.00e+00	0	56	0	787480576	57	5203
2026-01-02 08:39:43.25	25.45	50.20	-47.6	-49.6	15.5	0.00e+00	0	57	0	794820608	58	4427
2026-01-02 08:39:47.20	23.16	49.64	-47.7	-49.8	15.2	0.00e+00	0	57	0	802160640	58	4527
2026-01-02 08:39:51.16	20.96	49.05	-48.0	-50.4	14.7	0.00e+00	0	57	0	809500672	57	5145
2026-01-02 08:39:55.13	18.84	48.42	-48.1	-50.5	14.6	0.00e+00	0	57	0	816840704	58	4916
2026-01-02 08:39:59.08	16.81	47.76	-48.0	-50.1	15.0	7.00e-07	0	57	0	824180736	58	4700
2026-01-02 08:40:03.03	14.87	47.08	-49.5	-52.9	12.3	1.44e-05	0	57	0	831520768	60	5761
2026-01-02 08:40:06.99	13.02	46.37	-47.4	-49.3	15.9	0.00e+00	0	57	0	838860800	58	4276
2026-01-02 08:40:10.96	11.24	45.63	-48.4	-50.9	14.3	0.00e+00	0	57	0	846200832	58	5129
2026-01-02 08:40:14.92	9.55	44.89	-49.5	-53.0	12.1	3.39e-04	0	57	0	853540864	61	5518
2026-01-02 08:40:18.89	7.93	44.13	-49.2	-52.4	12.7	8.54e-05	0	57	0	861929472	60	5410
2026-01-02 08:40:22.84	6.40	43.36	-48.3	-50.8	14.3	0.00e+00	0	57	0	869269504	59	4811
2026-01-02 08:40:26.79	4.93	42.59	-47.8	-50.0	15.1	0.00e+00	0	57	0	876609536	58	4636
2026-01-02 08:40:30.74	3.54	41.82	-48.1	-50.5	14.7	0.00e+00	0	57	0	883949568	58	4918
2026-01-02 08:40:34.70	2.21	41.04	-48.3	-50.8	14.3	4.50e-06	0	57	0	891289600	59	4806
2026-01-02 08:40:38.66	0.95	40.26	-49.9	-54.2	10.9	1.82e-03	0	57	0	898629632	61	6311
2026-01-02 08:40:42.61	359.75	39.48	-49.3	-52.9	12.1	1.97e-03	0	57	0	905969664	61	5436
2026-01-02 08:40:46.56	358.60	38.71	-49.0	-52.1	12.9	3.50e-05	0	56	0	913309696	60	5228
2026-01-02 08:40:50.52	357.50	37.94	-49.0	-52.1	12.9	9.61e-05	0	57	0	920649728	60	5268
2026-01-02 08:40:54.48	356.46	37.18	-48.1	-50.5	14.6	0.00e+00	0	57	0	927989760	58	4911
2026-01-02 08:40:58.45	355.46	36.42	-48.9	-52.0	12.8	2.28e-05	0	57	0	935329792	60	5173
2026-01-02 08:41:02.39	354.52	35.68	-48.9	-51.9	13.1	1.29e-05	0	56	0	942669824	60	5148
2026-01-02 08:41:06.35	353.61	34.94	-48.8	-51.7	13.5	6.10e-06	0	57	0	950009856	60	5010
2026-01-02 08:41:10.31	352.74	34.21	-49.4	-52.7	12.4	4.34e-05	0	57	0	957349888	60	5628
2026-01-02 08:41:14.27	351.91	33.49	-48.9	-51.8	13.3	1.37e-05	0	57	0	965738496	60	5080
2026-01-02 08:41:18.23	351.12	32.78	-49.2	-52.4	12.7	6.10e-05	0	57	0	973078528	60	5445
2026-01-02 08:41:22.17	350.36	32.08	-48.7	-51.4	13.5	9.90e-06	0	57	0	980418560	60	4849
2026-01-02 08:41:26.13	349.64	31.39	-48.8	-51.6	13.5	1.14e-05	0	57	0	987758592	60	4946
2026-01-02 08:41:30.07	348.95	30.71	-49.6	-53.3	11.7	2.65e-04	0	57	0	995098624	61	5659
2026-01-02 08:41:34.04	348.28	30.05	-47.7	-49.9	15.2	0.00e+00	0	57	0	1002438656	58	4549
2026-01-02 08:41:38.01	347.64	29.39	-47.0	-48.8	16.2	0.00e+00	0	57	0	1009778688	56	4541
2026-01-02 08:41:41.97	347.02	28.74	-48.2	-50.5	14.6	0.00e+00	0	57	0	1017118720	58	4895
2026-01-02 08:41:45.94	346.43	28.11	-48.6	-51.3	13.8	9.90e-06	0	57	0	1024458752	59	5071
2026-01-02 08:41:49.90	345.87	27.48	-47.4	-49.3	15.7	0.00e+00	0	57	0	1031798784	57	4513
2026-01-02 08:41:53.85	345.33	26.87	-47.8	-49.9	15.1	0.00e+00	0	57	0	1039138816	57	4853
2026-01-02 08:41:57.82	344.80	26.27	-47.9	-50.2	14.8	0.00e+00	0	57	0	1046478848	57	4990
2026-01-02 08:42:01.77	344.30	25.68	-48.8	-51.6	13.4	7.60e-06	0	57	0	1054867456	59	5250
2026-01-02 08:42:05.74	343.81	25.10	-48.6	-51.1	13.9	3.00e-06	0	57	0	1062207488	59	4943
2026-01-02 08:42:09.71	343.35	24.53	-48.2	-50.5	14.5	0.00e+00	0	57	0	1069547520	59	4621
2026-01-02 08:42:13.68	342.90	23.97	-48.6	-51.2	13.8	6.80e-06	0	57	0	1076887552	59	5019
2026-01-02 08:42:17.65	342.46	23.41	-48.9	-51.7	13.3	9.10e-06	0	57	0	1084227584	59	5298
2026-01-02 08:42:21.61	342.04	22.87	-49.4	-52.6	12.3	1.86e-04	0	57	0	1091567616	60	5592
2026-01-02 08:42:25.56	341.64	22.34	-49.6	-53.0	11.9	5.90e-04	0	57	0	1098907648	61	5517
2026-01-02 08:42:29.52	341.25	21.82	-48.7	-51.4	13.6	8.30e-06	0	57	0	1106247680	60	4835
2026-01-02 08:42:33.47	340.88	21.31	-48.4	-50.9	13.9	3.80e-06	0	57	0	1113587712	59	4865
2026-01-02 08:42:37.44	340.51	20.81	-48.2	-50.7	14.2	7.00e-07	0	57	0	1120927744	59	4711
2026-01-02 08:42:41.40	340.16	20.31	-47.9	-50.3	14.2	3.80e-06	0	57	0	1128267776	58	4810
2026-01-02 08:42:45.37	339.82	19.83	-48.2	-51.0	13.2	1.52e-05	0	57	0	1135607808	58	5212
2026-01-02 08:42:49.33	339.49	19.35	-48.6	-51.8	12.4	1.19e-04	0	57	0	1143996416	59	5350
2026-01-02 08:42:53.29	339.17	18.88	-48.5	-51.4	12.8	1.28e-04	0	57	0	1151336448	59	5147
2026-01-02 08:42:57.25	338.86	18.42	-48.4	-51.3	12.9	3.66e-05	0	57	0	1158676480	59	5084
2026-01-02 08:43:01.21	338.57	17.96	-48.9	-52.2	12.2	1.81e-04	0	57	0	1166016512	59	5610
2026-01-02 08:43:05.17	338.28	17.51	-48.9	-52.1	12.5	1.85e-04	0	57	0	1173356544	60	5256
2026-01-02 08:43:09.14	337.99	17.07	-49.1	-52.5	12.2	9.15e-05	0	57	0	1180696576	60	5465
2026-01-02 08:43:13.10	337.72	16.64	-48.4	-51.1	13.7	9.90e-06	0	57	0	1188036608	59	4969
2026-01-02 08:43:17.05	337.46	16.22	-48.0	-50.5	14.4	7.00e-07	0	57	0	1195376640	59	4608
2026-01-02 08:43:21.01	337.20	15.80	-48.3	-50.9	13.8	3.80e-06	0	57	0	1202716672	59	4861
2026-01-02 08:43:24.97	336.95	15.38	-47.9	-50.2	14.5	3.00e-06	0	57	0	1210056704	59	4493
2026-01-02 08:43:28.93	336.71	14.98	-47.9	-50.3	14.5	1.50e-06	0	57	0	1217396736	58	4787
2026-01-02 08:43:32.88	336.48	14.58	-48.1	-50.5	14.2	1.50e-06	0	57	0	1224736768	58	4916
2026-01-02 08:43:36.85	336.25	14.18	-48.0	-50.4	14.3	3.00e-06	0	57	0	1232076800	58	4847
2026-01-02 08:43:40.80	336.03	13.80	-48.2	-50.7	14.0	0.00e+00	0	57	0	1240465408	58	5025
2026-01-02 08:43:44.76	335.81	13.41	-48.7	-51.6	13.0	1.44e-05	0	57	0	1247805440	59	5265
2026-01-02 08:43:48.72	335.60	13.04	-49.1	-52.4	12.3	1.20e-04	0	57	0	1255145472	60	5422
2026-01-02 08:43:52.68	335.40	12.66	-48.7	-51.8	12.9	4.80e-05	0	57	0	1262485504	60	5056
2026-01-02 08:43:56.65	335.20	12.30	-48.6	-51.4	13.2	2.59e-05	0	57	0	1269825536	60	4865
2026-01-02 08:44:00.61	335.00	11.94	-48.3	-50.8	13.9	3.00e-06	0	57	0	1277165568	59	4804
2026-01-02 08:44:04.59	334.81	11.58	-48.0	-50.4	14.2	2.20e-06	0	57	0	1284505600	59	4586
2026-01-02 08:44:08.57	334.63	11.22	-47.8	-50.1	14.5	2.20e-06	0	57	0	1291845632	58	4703
2026-01-02 08:44:12.52	334.45	10.88	-47.8	-50.1	14.5	0.00e+00	0	57	0	1299185664	58	4690
2026-01-02 08:44:16.49	334.27	10.53	-48.0	-50.6	14.0	3.00e-06	0	57	0	1306525696	58	4928
2026-01-02 08:44:20.45	334.10	10.20	-48.3	-51.0	13.6	6.10e-06	0	57	0	1313865728	58	5160
2026-01-02 08:44:24.40	333.94	9.86	-48.5	-51.3	13.3	1.98e-05	0	57	0	1322254336	58	5350
2026-01-02 08:44:28.36	333.78	9.53	-48.7	-51.8	12.8	6.40e-05	0	57	0	1329594368	59	5362
2026-01-02 08:44:32.32	333.62	9.21	-48.6	-51.6	12.9	4.73e-05	0	57	0	1336934400	59	5239
2026-01-02 08:44:36.29	333.46	8.89	-48.7	-51.8	12.7	9.30e-05	0	57	0	1344274432	59	5361
2026-01-02 08:44:40.25	333.31	8.57	-48.9	-52.0	12.4	1.81e-04	0	57	0	1351614464	59	5521
2026-01-02 08:44:44.19	333.17	8.26	-48.9	-52.2	12.3	2.30e-04	0	57	0	1358954496	59	5594
2026-01-02 08:44:48.14	333.02	7.95	-49.0	-52.5	11.9	4.87e-04	0	57	0	1366294528	60	5528
2026-01-02 08:44:52.10	332.88	7.64	-49.1	-52.8	11.5	4.94e-04	0	57	0	1373634560	60	5712
2026-01-02 08:44:56.06	332.75	7.34	-49.2	-53.0	11.3	1.34e-03	0	57	0	1380974592	60	5833
2026-01-02 08:45:00.02	332.61	7.04	-49.2	-53.1	11.2	1.65e-03	0	57	0	1388314624	60	5894
2026-01-02 08:45:03.98	332.48	6.74	-49.4	-53.5	10.7	2.96e-03	0	57	0	1395654656	60	6202
2026-01-02 08:45:07.94	332.35	6.45	-49.4	-53.5	10.8	2.67e-03	0	57	0	1402994688	60	6194
2026-01-02 08:45:11.89	332.23	6.16	-49.6	-54.1	10.1	4.64e-03	0	57	0	1410334720	61	6260
2026-01-02 08:45:15.85	332.11	5.87	-49.4	-53.5	10.7	3.48e-03	0	58	0	1418723328	61	5854
2026-01-02 08:45:19.82	331.99	5.58	-49.3	-53.5	10.6	5.18e-03	0	57	0	1426063360	61	5845
2026-01-02 08:45:23.77	331.87	5.30	-49.6	-54.1	10.0	8.13e-03	0	58	0	1433403392	61	6252
2026-01-02 08:45:27.74	331.76	5.02	-49.6	-54.1	9.9	1.46e-02	0	57	0	1440743424	61	6244
2026-01-02 08:45:31.68	331.65	4.75	-52.1	-65.9	3.8	1.49e+00	0	57	104	1441792000	66	18274
2026-01-02 08:45:35.64	331.54	4.48	-52.3	-66.2	3.8	1.49e+00	0	57	104	1441792000	66	18781
2026-01-02 08:45:39.61	331.43	4.21	-52.4	-66.3	3.8	1.49e+00	0	58	104	1441792000	66	19092
2026-01-02 08:45:43.57	331.32	3.94	-52.5	-66.4	3.8	1.49e+00	0	57	104	1441792000	66	19278
2026-01-02 08:45:47.53	331.22	3.67	-52.5	-66.4	3.8	1.49e+00	0	58	104	1441792000	67	18274
2026-01-02 08:45:51.49	331.12	3.41	-52.6	-66.5	3.8	1.49e+00	0	57	104	1441792000	67	18371
2026-01-02 08:45:55.46	331.02	3.15	-52.6	-66.5	3.8	1.49e+00	0	57	104	1441792000	67	18363

#Closed at: 2026-01-02 08:45:58
#Recorded file [1441 MB]: D:/Data/31026_260102_114528.dat