passes_logs/2026/01/02/R3.0SM8_Murmansk_STILSPACE/R3.0SM8_Murmansk_STILSPACE__20260102_233552_AQUA_rec.log

#Pass ID: 20260102_233552_AQUA
#Satellite: AQUA
#Configuration: AQUA
#almurnet v.1.7.20240730
#Start time: 2026-01-02 23:40:19

#Version: 2.2.20231116
#Station: R3.0SM8_Murmansk_STILSPACE
#Location: 33.092731 lon 68.902999 lat
#TLE: 1 27424U 02022A   25365.92641127  .00002078  00000+0  42628-3 0  9999
#TLE: 2 27424  98.4058 327.1196 0001962  94.7781 340.6230 14.61783896258835

#Time	Az	El	Level	Level2	SNR	BER	BlckErr	Temp	State	Recorded	gain1	gain2
2026-01-02 23:40:19.04	69.65	14.98	-53.3	-64.9	3.8	1.49e+00	0	56	0	0	68	14429
2026-01-02 23:40:21.01	70.13	15.01	-55.0	-74.9	3.8	7.44e-01	0	57	104	0	72	37247
2026-01-02 23:40:22.99	70.62	15.03	-55.0	-74.9	3.8	7.47e-01	0	57	104	0	72	37359
2026-01-02 23:40:24.97	71.10	15.06	-55.0	-74.9	3.8	7.48e-01	0	57	104	0	72	37291
2026-01-02 23:40:26.95	71.59	15.08	-55.0	-74.9	3.8	7.47e-01	0	57	104	0	72	37218
2026-01-02 23:40:28.92	72.07	15.10	-55.0	-74.9	3.8	7.48e-01	0	57	104	0	72	37103
2026-01-02 23:40:30.87	72.55	15.12	-54.9	-74.9	3.8	7.45e-01	0	57	104	0	72	37089
2026-01-02 23:40:32.85	73.04	15.13	-54.9	-74.8	3.8	7.43e-01	0	57	104	0	72	36877
2026-01-02 23:40:34.83	73.53	15.15	-54.9	-74.8	3.8	7.45e-01	0	57	104	0	72	36930
2026-01-02 23:40:36.81	74.01	15.16	-54.9	-74.8	3.8	7.45e-01	0	57	104	0	72	36700
2026-01-02 23:40:38.79	74.50	15.17	-54.8	-74.7	3.8	7.45e-01	0	57	104	0	72	36438
2026-01-02 23:40:40.77	74.99	15.18	-54.7	-74.6	3.8	7.45e-01	0	57	104	0	72	36076
2026-01-02 23:40:42.74	75.48	15.19	-54.6	-74.4	3.8	7.41e-01	0	57	104	0	72	34889
2026-01-02 23:40:44.73	75.97	15.19	-54.6	-74.5	3.8	7.44e-01	0	57	104	0	72	35351
2026-01-02 23:40:46.71	76.46	15.20	-54.6	-74.4	3.8	7.41e-01	0	57	104	0	72	34925
2026-01-02 23:40:48.69	76.95	15.20	-54.6	-74.4	3.8	7.45e-01	0	57	104	0	72	35177
2026-01-02 23:40:50.66	77.44	15.20	-54.6	-74.3	3.8	7.43e-01	0	57	104	0	72	34718
2026-01-02 23:40:52.65	77.93	15.19	-54.6	-74.2	3.8	7.43e-01	0	57	104	0	72	34257
2026-01-02 23:40:54.62	78.42	15.19	-54.6	-73.9	3.8	7.46e-01	0	57	104	0	72	33059
2026-01-02 23:40:56.59	78.91	15.18	-54.6	-73.9	3.8	7.44e-01	0	57	104	0	72	33032
2026-01-02 23:40:58.57	79.40	15.18	-54.6	-74.0	3.8	7.47e-01	0	57	104	0	72	33529
2026-01-02 23:41:00.54	79.89	15.17	-54.6	-73.1	3.8	7.41e-01	0	57	104	0	72	30343
2026-01-02 23:41:02.52	80.38	15.16	-54.5	-71.8	3.9	7.42e-01	0	57	104	0	72	25895
2026-01-02 23:41:04.49	80.86	15.14	-54.5	-72.0	3.9	7.42e-01	0	57	104	0	72	26469
2026-01-02 23:41:06.46	81.35	15.13	-54.6	-73.5	3.8	7.43e-01	0	57	104	0	72	31700
2026-01-02 23:41:08.45	81.84	15.11	-54.5	-69.7	4.5	7.17e-01	0	57	104	0	72	20435
2026-01-02 23:41:10.42	82.32	15.09	-53.3	-59.5	13.8	6.02e-01	0	57	0	2621440	70	7115
2026-01-02 23:41:12.40	82.81	15.07	-51.0	-54.0	19.3	6.02e-01	0	57	0	6815744	65	5028
2026-01-02 23:41:14.37	83.30	15.05	-50.4	-53.1	20.3	6.01e-01	0	57	0	10485760	64	4774
2026-01-02 23:41:16.36	83.78	15.02	-50.5	-53.1	20.3	6.02e-01	0	57	0	14155776	64	4801
2026-01-02 23:41:18.34	84.27	15.00	-50.2	-52.7	20.6	6.02e-01	0	57	0	17825792	64	4581
2026-01-02 23:41:20.32	84.75	14.97	-50.2	-52.6	20.8	6.04e-01	0	57	0	21495808	63	4805
2026-01-02 23:41:22.29	85.23	14.94	-49.7	-51.9	21.5	6.00e-01	0	57	0	25165824	63	4420
2026-01-02 23:41:24.27	85.71	14.91	-49.3	-51.4	22.1	6.01e-01	0	57	0	28835840	62	4407
2026-01-02 23:41:26.25	86.19	14.88	-49.3	-51.3	22.1	6.00e-01	0	57	0	32505856	62	4376
2026-01-02 23:41:28.23	86.67	14.84	-49.2	-51.2	22.2	6.00e-01	0	57	0	36175872	62	4305
2026-01-02 23:41:30.21	87.15	14.80	-49.1	-51.1	22.3	6.01e-01	0	57	0	39845888	61	4525
2026-01-02 23:41:32.18	87.63	14.77	-49.2	-51.1	22.2	6.02e-01	0	57	0	43515904	61	4541
2026-01-02 23:41:34.16	88.10	14.73	-49.2	-51.3	22.2	6.01e-01	0	57	0	47185920	61	4600
2026-01-02 23:41:36.13	88.57	14.68	-49.4	-51.5	21.8	6.03e-01	0	57	0	50855936	61	4753
2026-01-02 23:41:38.11	89.05	14.64	-49.2	-51.2	22.2	5.99e-01	0	57	0	54525952	61	4560
2026-01-02 23:41:40.08	89.51	14.60	-49.4	-51.6	21.8	6.03e-01	0	57	0	58195968	61	4763
2026-01-02 23:41:42.06	89.98	14.55	-49.5	-51.6	21.8	6.03e-01	0	57	0	62390272	61	4786
2026-01-02 23:41:44.03	90.45	14.50	-49.4	-51.5	21.9	6.02e-01	0	57	0	66060288	61	4748
2026-01-02 23:41:46.00	90.92	14.45	-49.7	-51.9	21.5	6.01e-01	0	57	0	69730304	61	4958
2026-01-02 23:41:47.98	91.38	14.40	-49.6	-51.8	21.6	6.00e-01	0	57	0	73400320	61	4902
2026-01-02 23:41:49.96	91.84	14.35	-49.6	-51.8	21.6	6.02e-01	0	57	0	77070336	61	4918
2026-01-02 23:41:51.94	92.31	14.29	-49.4	-51.5	21.9	6.00e-01	0	57	0	80740352	61	4732
2026-01-02 23:41:53.91	92.76	14.24	-49.6	-51.8	21.5	5.97e-01	0	57	0	84410368	61	4915
2026-01-02 23:41:55.88	93.22	14.18	-49.7	-52.0	21.4	6.00e-01	0	57	0	88080384	61	4998
2026-01-02 23:41:57.87	93.68	14.12	-49.4	-51.5	21.8	6.03e-01	0	57	0	91750400	61	4753
2026-01-02 23:41:59.84	94.13	14.06	-49.2	-51.3	22.1	6.00e-01	0	57	0	95420416	61	4610
2026-01-02 23:42:01.82	94.58	14.00	-49.3	-51.4	21.9	6.00e-01	0	57	0	99090432	61	4655
2026-01-02 23:42:03.81	95.04	13.94	-49.1	-51.1	22.1	5.99e-01	0	57	0	102760448	61	4522
2026-01-02 23:42:05.78	95.48	13.87	-49.4	-51.5	21.9	6.00e-01	0	57	0	106430464	61	4741
2026-01-02 23:42:07.76	95.93	13.81	-49.5	-51.6	21.8	6.01e-01	0	57	0	110624768	61	4779
2026-01-02 23:42:09.72	96.37	13.74	-49.4	-51.5	21.9	6.03e-01	0	57	0	113770496	61	4709
2026-01-02 23:42:11.70	96.81	13.67	-49.3	-51.4	22.0	6.02e-01	0	57	0	117964800	61	4654
2026-01-02 23:42:13.68	97.25	13.60	-49.2	-51.2	22.1	6.01e-01	0	57	0	121634816	61	4584
2026-01-02 23:42:15.66	97.69	13.53	-49.4	-51.5	21.8	5.97e-01	0	57	0	125304832	61	4748
2026-01-02 23:42:17.64	98.13	13.46	-49.4	-51.6	21.8	6.02e-01	0	57	0	128974848	61	4764
2026-01-02 23:42:19.62	98.56	13.39	-49.5	-51.6	21.7	6.03e-01	0	57	0	132644864	61	4772
2026-01-02 23:42:21.59	98.99	13.31	-49.3	-51.3	22.1	6.03e-01	0	57	0	136314880	61	4624
2026-01-02 23:42:23.56	99.42	13.24	-49.3	-51.4	21.9	5.99e-01	0	57	0	139984896	61	4686
2026-01-02 23:42:25.54	99.84	13.16	-49.4	-51.4	21.9	5.99e-01	0	57	0	143654912	61	4704
2026-01-02 23:42:27.50	100.26	13.08	-49.6	-51.8	21.5	6.02e-01	0	57	0	147324928	61	4906
2026-01-02 23:42:29.47	100.68	13.01	-49.5	-51.6	21.7	5.99e-01	0	57	0	150994944	61	4803
2026-01-02 23:42:31.45	101.10	12.93	-49.4	-51.4	21.9	6.00e-01	0	57	0	154664960	61	4693
2026-01-02 23:42:33.43	101.52	12.84	-49.4	-51.4	21.8	6.00e-01	0	57	0	158334976	61	4698
2026-01-02 23:42:35.39	101.93	12.76	-49.7	-51.9	21.4	6.03e-01	0	57	0	162004992	61	4979
2026-01-02 23:42:37.38	102.35	12.68	-49.3	-51.3	22.0	6.00e-01	0	57	0	165675008	61	4638
2026-01-02 23:42:39.36	102.76	12.60	-49.2	-51.2	22.2	6.00e-01	0	57	0	169869312	61	4555
2026-01-02 23:42:41.33	103.16	12.51	-49.3	-51.4	21.9	6.01e-01	0	57	0	173015040	61	4667
2026-01-02 23:42:43.31	103.57	12.43	-49.4	-51.5	21.8	6.03e-01	0	57	0	177209344	61	4740
2026-01-02 23:42:45.28	103.97	12.34	-49.2	-51.2	22.0	6.02e-01	0	57	0	180879360	61	4593
2026-01-02 23:42:47.27	104.37	12.25	-49.2	-51.2	22.2	5.99e-01	0	57	0	184549376	61	4572
2026-01-02 23:42:49.24	104.77	12.16	-49.4	-51.5	21.8	6.02e-01	0	57	0	188219392	61	4754
2026-01-02 23:42:51.22	105.17	12.07	-49.4	-51.5	21.8	6.01e-01	0	57	0	191889408	61	4734
2026-01-02 23:42:53.20	105.56	11.98	-49.3	-51.4	21.9	6.01e-01	0	57	0	195559424	61	4697
2026-01-02 23:42:55.18	105.95	11.89	-49.2	-51.2	22.1	6.03e-01	0	57	0	199229440	61	4578
2026-01-02 23:42:57.15	106.34	11.80	-49.2	-51.2	22.0	5.99e-01	0	57	0	202899456	61	4586
2026-01-02 23:42:59.13	106.72	11.71	-49.2	-51.3	21.9	6.00e-01	0	57	0	206569472	61	4619
2026-01-02 23:43:01.11	107.11	11.62	-49.6	-51.8	21.5	6.03e-01	0	57	0	210239488	61	4880
2026-01-02 23:43:03.08	107.48	11.52	-49.2	-51.3	21.9	6.02e-01	0	57	0	213909504	61	4619
2026-01-02 23:43:05.05	107.86	11.43	-49.3	-51.4	21.9	5.99e-01	0	57	0	217579520	61	4679
2026-01-02 23:43:07.03	108.24	11.34	-49.3	-51.4	21.9	6.00e-01	0	57	0	221249536	61	4691
2026-01-02 23:43:09.01	108.61	11.24	-49.5	-51.6	21.7	6.01e-01	0	57	0	225443840	61	4801
2026-01-02 23:43:10.98	108.98	11.14	-49.4	-51.6	21.7	6.02e-01	0	57	0	229113856	61	4779
2026-01-02 23:43:12.95	109.34	11.05	-49.5	-51.6	21.6	6.05e-01	0	57	0	232783872	61	4795
2026-01-02 23:43:14.93	109.71	10.95	-49.8	-52.1	21.2	6.00e-01	0	57	0	236453888	61	5063
2026-01-02 23:43:16.90	110.07	10.85	-49.9	-52.2	21.1	6.02e-01	0	57	0	240123904	61	5141
2026-01-02 23:43:18.88	110.43	10.76	-49.8	-52.1	21.1	6.02e-01	0	57	0	243793920	62	4810
2026-01-02 23:43:20.85	110.79	10.66	-49.6	-51.8	21.5	5.99e-01	0	57	0	247463936	62	4644
2026-01-02 23:43:22.83	111.14	10.56	-49.6	-51.8	21.5	6.02e-01	0	57	0	251133952	62	4635
2026-01-02 23:43:24.80	111.49	10.46	-49.7	-52.0	21.3	5.99e-01	0	57	0	254803968	62	4729
2026-01-02 23:43:26.78	111.84	10.36	-49.8	-52.1	21.2	5.99e-01	0	57	0	258473984	62	4772
2026-01-02 23:43:28.75	112.19	10.26	-49.5	-51.6	21.5	6.01e-01	0	57	0	262144000	62	4536
2026-01-02 23:43:30.71	112.53	10.16	-49.6	-51.8	21.4	6.03e-01	0	57	0	265814016	62	4630
2026-01-02 23:43:32.68	112.87	10.06	-49.5	-51.7	21.5	6.02e-01	0	57	0	269484032	62	4577
2026-01-02 23:43:34.66	113.21	9.96	-49.5	-51.7	21.5	6.00e-01	0	57	0	273154048	62	4593
2026-01-02 23:43:36.64	113.55	9.85	-49.6	-51.9	21.3	6.03e-01	0	57	0	276824064	62	4683
2026-01-02 23:43:38.62	113.89	9.75	-49.8	-52.1	21.1	6.00e-01	0	57	0	280494080	62	4806
2026-01-02 23:43:40.60	114.22	9.65	-49.6	-51.9	21.3	5.97e-01	0	57	0	284688384	62	4671
2026-01-02 23:43:42.57	114.55	9.55	-49.8	-52.1	21.0	6.00e-01	0	57	0	288358400	62	4810
2026-01-02 23:43:44.55	114.88	9.44	-49.8	-52.2	20.9	5.99e-01	0	57	0	292028416	62	4855
2026-01-02 23:43:46.53	115.20	9.34	-50.0	-52.5	20.8	6.01e-01	0	57	0	295698432	62	5031
2026-01-02 23:43:48.50	115.52	9.23	-49.9	-52.3	20.9	6.03e-01	0	57	0	299368448	62	4881
2026-01-02 23:43:50.48	115.85	9.13	-49.9	-52.3	20.9	6.00e-01	0	57	0	303038464	62	4916
2026-01-02 23:43:52.45	116.16	9.03	-49.8	-52.1	21.0	6.02e-01	0	57	0	306708480	62	4806
2026-01-02 23:43:54.43	116.48	8.92	-49.8	-52.2	21.0	6.02e-01	0	57	0	310378496	62	4821
2026-01-02 23:43:56.41	116.79	8.82	-49.9	-52.3	20.8	6.00e-01	0	57	0	314048512	62	4916
2026-01-02 23:43:58.38	117.10	8.71	-49.8	-52.2	20.9	6.03e-01	0	57	0	317718528	62	4833
2026-01-02 23:44:00.36	117.41	8.61	-50.0	-52.4	20.8	6.00e-01	0	57	0	321388544	62	4962
2026-01-02 23:44:02.34	117.72	8.50	-50.0	-52.5	20.7	6.00e-01	0	57	0	325058560	62	4990
2026-01-02 23:44:04.32	118.02	8.39	-50.0	-52.5	20.6	6.00e-01	0	57	0	328728576	62	5017
2026-01-02 23:44:06.29	118.32	8.29	-50.3	-52.9	20.2	6.02e-01	0	57	0	332398592	62	5279
2026-01-02 23:44:08.26	118.62	8.18	-50.0	-52.5	20.7	6.02e-01	0	57	0	336068608	62	5011
2026-01-02 23:44:10.24	118.92	8.08	-49.9	-52.4	20.7	6.04e-01	0	57	0	340262912	62	4940
2026-01-02 23:44:12.22	119.21	7.97	-49.9	-52.4	20.7	6.01e-01	0	58	0	343932928	62	4966
2026-01-02 23:44:14.19	119.51	7.87	-50.0	-52.5	20.6	6.00e-01	0	57	0	347602944	62	5018
2026-01-02 23:44:16.17	119.80	7.76	-50.3	-53.0	20.1	6.03e-01	0	57	0	351272960	62	5280
2026-01-02 23:44:18.15	120.09	7.65	-50.4	-53.1	20.0	6.02e-01	0	57	0	354942976	63	5083
2026-01-02 23:44:20.12	120.37	7.55	-50.4	-53.2	19.9	5.99e-01	0	57	0	358612992	63	5120
2026-01-02 23:44:22.10	120.66	7.44	-50.5	-53.4	19.7	6.00e-01	0	57	0	362283008	63	5236
2026-01-02 23:44:24.07	120.94	7.33	-50.6	-53.6	19.5	6.03e-01	0	57	0	365953024	63	5353
2026-01-02 23:44:26.05	121.22	7.23	-50.5	-53.4	19.6	5.99e-01	0	58	0	369623040	64	4978
2026-01-02 23:44:28.02	121.49	7.12	-50.2	-52.8	20.2	5.98e-01	0	57	0	373293056	63	4915
2026-01-02 23:44:29.98	121.76	7.01	-50.4	-53.2	20.0	6.03e-01	0	57	0	376963072	63	5107
2026-01-02 23:44:31.95	122.04	6.91	-50.3	-53.1	19.9	6.02e-01	0	57	0	380633088	63	5068
2026-01-02 23:44:33.93	122.31	6.80	-50.4	-53.2	19.8	6.00e-01	0	57	0	384303104	63	5120
2026-01-02 23:44:35.90	122.58	6.69	-50.5	-53.5	19.6	6.01e-01	0	57	0	387973120	63	5284
2026-01-02 23:44:37.88	122.84	6.59	-50.3	-53.1	19.9	6.02e-01	0	58	0	391643136	63	5072
2026-01-02 23:44:39.85	123.11	6.48	-50.0	-52.7	20.2	6.03e-01	0	58	0	395313152	63	4827
2026-01-02 23:44:41.83	123.37	6.37	-50.0	-52.7	20.2	6.02e-01	0	57	0	398983168	63	4823
2026-01-02 23:44:43.81	123.63	6.27	-50.1	-52.8	20.2	6.00e-01	0	57	0	403177472	63	4911
2026-01-02 23:44:45.79	123.89	6.16	-50.2	-53.0	20.0	6.01e-01	0	57	0	406847488	63	4999
2026-01-02 23:44:47.77	124.15	6.05	-50.1	-52.9	20.0	6.00e-01	0	57	0	410517504	63	4927
2026-01-02 23:44:49.74	124.40	5.95	-50.2	-53.0	19.8	6.01e-01	0	57	0	414187520	63	4996
2026-01-02 23:44:51.72	124.66	5.84	-50.2	-53.0	19.8	6.01e-01	0	57	0	417857536	63	5013
2026-01-02 23:44:53.69	124.91	5.73	-50.3	-53.2	19.7	6.03e-01	0	58	0	421527552	63	5136
2026-01-02 23:44:55.66	125.16	5.63	-50.3	-53.2	19.7	6.02e-01	0	57	0	425197568	63	5115
2026-01-02 23:44:57.64	125.40	5.52	-50.4	-53.4	19.5	6.03e-01	0	58	0	428867584	63	5235
2026-01-02 23:44:59.62	125.65	5.41	-50.6	-53.8	19.0	5.99e-01	0	57	0	432537600	63	5484
2026-01-02 23:45:01.59	125.89	5.31	-50.5	-53.5	19.3	6.00e-01	0	57	0	436207616	63	5309
2026-01-02 23:45:03.57	126.13	5.20	-50.3	-53.3	19.5	6.01e-01	0	57	0	439877632	63	5179
2026-01-02 23:45:05.55	126.37	5.10	-50.4	-53.4	19.3	6.01e-01	0	57	0	443547648	63	5271
2026-01-02 23:45:07.53	126.61	4.99	-54.0	-73.0	3.7	7.49e-01	0	57	104	446693376	70	33425
2026-01-02 23:45:09.50	126.85	4.88	-54.5	-74.4	3.8	7.46e-01	0	57	104	446693376	71	37069
2026-01-02 23:45:11.48	127.08	4.78	-54.7	-74.6	3.8	7.47e-01	0	57	104	446693376	71	38063
2026-01-02 23:45:13.45	127.31	4.67	-54.8	-74.7	3.8	7.43e-01	0	57	104	446693376	71	38565
2026-01-02 23:45:15.43	127.54	4.57	-54.9	-74.8	3.8	7.48e-01	0	58	104	446693376	71	38885
2026-01-02 23:45:17.41	127.77	4.46	-54.8	-74.7	3.8	7.46e-01	0	58	104	446693376	71	38311
2026-01-02 23:45:19.39	128.00	4.36	-54.9	-74.8	3.8	7.46e-01	0	58	104	446693376	72	36790
2026-01-02 23:45:21.37	128.23	4.25	-54.9	-74.9	3.8	7.49e-01	0	58	104	446693376	72	37006
2026-01-02 23:45:23.35	128.45	4.14	-55.0	-74.9	3.8	7.42e-01	0	58	104	446693376	72	37152
2026-01-02 23:45:25.33	128.67	4.04	-55.0	-74.9	3.8	7.44e-01	0	58	104	446693376	72	37229
2026-01-02 23:45:27.32	128.90	3.93	-55.0	-74.9	3.8	7.45e-01	0	58	104	446693376	72	37362
2026-01-02 23:45:29.29	129.11	3.83	-55.0	-75.0	3.8	7.46e-01	0	58	104	446693376	72	37523
2026-01-02 23:45:31.26	129.33	3.73	-55.1	-75.0	3.8	7.42e-01	0	58	104	446693376	72	37518
2026-01-02 23:45:33.24	129.55	3.62	-55.0	-75.0	3.8	7.44e-01	0	58	104	446693376	72	37442
2026-01-02 23:45:35.23	129.76	3.52	-55.0	-75.0	3.8	7.46e-01	0	58	104	446693376	72	37382
2026-01-02 23:45:37.21	129.98	3.41	-55.0	-74.9	3.8	7.46e-01	0	58	104	446693376	72	37321
2026-01-02 23:45:39.20	130.19	3.31	-55.0	-74.9	3.8	7.44e-01	0	58	104	446693376	72	37346
2026-01-02 23:45:41.17	130.40	3.20	-55.0	-74.9	3.8	7.47e-01	0	58	104	446693376	72	37320
2026-01-02 23:45:43.15	130.60	3.10	-55.0	-74.9	3.8	7.45e-01	0	58	104	446693376	72	37340
2026-01-02 23:45:45.13	130.81	2.99	-55.0	-74.9	3.8	7.44e-01	0	58	104	446693376	72	37337

#Closed at: 2026-01-02 23:45:45
#Recorded file [446 MB]: D:/Data/31026_260103_024507.dat