passes_logs/2026/01/02/R3.0SM8_Murmansk_STILSPACE/R3.0SM8_Murmansk_STILSPACE__20260102_125428_FENGYUN_3D_rec.log

#Pass ID: 20260102_125428_FENGYUN 3D
#Satellite: FENGYUN 3D
#Configuration: FENGYUN 3D
#almurnet v.1.7.20240730
#Start time: 2026-01-02 12:54:28

#Version: 2.2.20231116
#Station: R3.0SM8_Murmansk_STILSPACE
#Location: 33.092731 lon 68.902999 lat
#TLE: 1 43010U 17072A   26001.33100487  .00000602  00000+0  30664-3 0  9999
#TLE: 2 43010  98.9910 332.9374 0001848 133.1047 227.0283 14.19692078421319

#Time	Az	El	Level	Level2	SNR	BER	BlckErr	Temp	State	Recorded	gain1	gain2
2026-01-02 12:54:28.19	185.93	3.00	-52.8	-63.5	3.8	8.47e-01	0	46	0	0	67	13077
2026-01-02 12:54:32.12	186.10	3.25	-52.6	-63.4	3.8	8.47e-01	0	46	104	0	68	12229
2026-01-02 12:54:36.07	186.28	3.50	-51.9	-62.7	3.8	8.45e-01	0	46	104	0	66	12601
2026-01-02 12:54:40.02	186.46	3.76	-51.7	-62.5	3.8	8.46e-01	0	47	104	0	66	12289
2026-01-02 12:54:43.98	186.65	4.02	-51.9	-62.6	3.8	8.47e-01	0	47	104	0	66	12514
2026-01-02 12:54:47.94	186.84	4.28	-51.6	-61.2	3.8	8.45e-01	0	47	104	0	66	10567
2026-01-02 12:54:51.89	187.03	4.54	-50.5	-55.5	6.0	6.28e-01	0	48	0	1048576	64	6202
2026-01-02 12:54:55.85	187.23	4.80	-48.6	-51.3	10.1	1.18e-02	0	48	0	23068672	60	4797
2026-01-02 12:54:59.80	187.43	5.07	-47.2	-49.1	12.6	2.10e-04	0	48	0	46137344	57	4395
2026-01-02 12:55:03.76	187.63	5.34	-46.6	-48.2	13.4	3.89e-05	0	48	0	68157440	56	4214
2026-01-02 12:55:07.71	187.83	5.61	-45.2	-46.5	15.0	0.00e+00	0	49	0	90177536	53	4141
2026-01-02 12:55:11.68	188.04	5.88	-44.9	-46.1	15.4	0.00e+00	0	49	0	112197632	52	4171
2026-01-02 12:55:15.63	188.26	6.16	-44.7	-45.9	15.7	0.00e+00	0	49	0	134217728	52	4092
2026-01-02 12:55:19.59	188.47	6.44	-44.9	-46.2	15.4	0.00e+00	0	49	0	157286400	52	4211
2026-01-02 12:55:23.56	188.70	6.72	-45.0	-46.2	15.4	0.00e+00	0	50	0	179306496	52	4228
2026-01-02 12:55:27.53	188.92	7.01	-44.7	-45.8	15.9	0.00e+00	0	50	0	201326592	52	4039
2026-01-02 12:55:31.48	189.15	7.30	-44.8	-45.9	15.8	0.00e+00	0	50	0	223346688	52	4081
2026-01-02 12:55:35.43	189.38	7.59	-44.6	-45.7	16.0	0.00e+00	0	50	0	245366784	52	3996
2026-01-02 12:55:39.39	189.62	7.88	-44.8	-46.0	15.8	0.00e+00	0	50	0	268435456	52	4105
2026-01-02 12:55:43.34	189.86	8.18	-44.5	-45.5	16.3	0.00e+00	0	50	0	290455552	52	3906
2026-01-02 12:55:47.31	190.11	8.48	-44.3	-45.3	16.6	0.00e+00	0	51	0	312475648	51	4049
2026-01-02 12:55:51.27	190.36	8.78	-44.1	-45.1	16.8	0.00e+00	0	51	0	335544320	51	3931
2026-01-02 12:55:55.22	190.62	9.09	-44.0	-44.9	17.0	0.00e+00	0	51	0	357564416	51	3864
2026-01-02 12:55:59.18	190.88	9.40	-44.1	-45.1	16.9	0.00e+00	0	51	0	379584512	50	4177
2026-01-02 12:56:03.14	191.15	9.71	-44.0	-45.0	17.0	0.00e+00	0	51	0	401604608	50	4128
2026-01-02 12:56:07.10	191.42	10.03	-43.9	-44.8	17.2	0.00e+00	0	52	0	424673280	50	4043
2026-01-02 12:56:11.06	191.70	10.35	-43.7	-44.6	17.4	0.00e+00	0	52	0	446693376	50	3950
2026-01-02 12:56:15.02	191.99	10.68	-43.8	-44.7	17.4	0.00e+00	0	52	0	468713472	50	3975
2026-01-02 12:56:18.99	192.28	11.01	-43.9	-44.8	17.2	0.00e+00	0	52	0	490733568	50	4047
2026-01-02 12:56:22.94	192.57	11.34	-44.0	-45.0	17.1	0.00e+00	0	52	0	513802240	50	4116
2026-01-02 12:56:26.89	192.88	11.67	-44.0	-45.0	17.1	0.00e+00	0	52	0	535822336	50	4139
2026-01-02 12:56:30.83	193.19	12.01	-44.3	-45.3	16.9	0.00e+00	0	52	0	557842432	50	4256
2026-01-02 12:56:34.79	193.50	12.35	-43.8	-44.8	17.3	0.00e+00	0	52	0	579862528	50	4018
2026-01-02 12:56:38.74	193.83	12.70	-43.8	-44.7	17.5	0.00e+00	0	53	0	601882624	50	3974
2026-01-02 12:56:42.69	194.16	13.05	-43.2	-44.1	18.0	0.00e+00	0	53	0	624951296	49	3929
2026-01-02 12:56:46.64	194.50	13.41	-43.3	-44.2	17.9	0.00e+00	0	53	0	646971392	49	4000
2026-01-02 12:56:50.59	194.84	13.77	-43.0	-43.8	18.3	0.00e+00	0	53	0	668991488	49	3797
2026-01-02 12:56:54.53	195.19	14.13	-43.0	-43.9	18.2	0.00e+00	0	53	0	691011584	49	3852
2026-01-02 12:56:58.49	195.56	14.50	-43.2	-44.1	18.1	0.00e+00	0	53	0	713031680	49	3915
2026-01-02 12:57:02.45	195.93	14.87	-43.2	-44.1	18.1	0.00e+00	0	53	0	735051776	49	3932
2026-01-02 12:57:06.40	196.31	15.25	-43.3	-44.2	18.0	0.00e+00	0	53	0	758120448	49	3961
2026-01-02 12:57:10.36	196.70	15.64	-42.5	-43.3	18.8	0.00e+00	0	53	0	780140544	48	3813
2026-01-02 12:57:14.32	197.10	16.03	-42.1	-42.8	19.2	0.00e+00	0	54	0	802160640	47	3810
2026-01-02 12:57:18.28	197.51	16.42	-42.2	-43.0	19.1	0.00e+00	0	54	0	824180736	47	3870
2026-01-02 12:57:22.24	197.94	16.82	-42.4	-43.2	18.9	0.00e+00	0	54	0	847249408	47	3960
2026-01-02 12:57:26.21	198.37	17.22	-42.7	-43.6	18.5	0.00e+00	0	54	0	869269504	47	4148
2026-01-02 12:57:30.16	198.81	17.63	-42.9	-43.7	18.4	0.00e+00	0	54	0	891289600	47	4222
2026-01-02 12:57:34.11	199.27	18.04	-42.9	-43.7	18.4	0.00e+00	0	54	0	913309696	47	4210
2026-01-02 12:57:38.07	199.73	18.46	-42.2	-42.9	19.3	0.00e+00	0	54	0	935329792	47	3836
2026-01-02 12:57:42.04	200.21	18.89	-41.8	-42.4	19.8	0.00e+00	0	54	0	958398464	46	3854
2026-01-02 12:57:45.99	200.71	19.32	-41.4	-42.1	20.1	0.00e+00	0	54	0	980418560	46	3715
2026-01-02 12:57:49.94	201.21	19.76	-42.0	-42.7	19.5	0.00e+00	0	54	0	1002438656	46	3989
2026-01-02 12:57:53.90	201.73	20.20	-41.6	-42.3	19.9	0.00e+00	0	54	0	1024458752	46	3784
2026-01-02 12:57:57.87	202.27	20.65	-41.9	-42.6	19.6	0.00e+00	0	54	0	1047527424	46	3937
2026-01-02 12:58:01.81	202.82	21.10	-41.3	-42.0	20.2	0.00e+00	0	55	0	1069547520	45	3878
2026-01-02 12:58:05.78	203.39	21.56	-41.6	-42.2	20.0	0.00e+00	0	55	0	1091567616	45	3996
2026-01-02 12:58:09.76	203.98	22.02	-41.2	-41.9	20.3	0.00e+00	0	55	0	1114636288	45	3825
2026-01-02 12:58:13.71	204.58	22.49	-41.2	-41.9	20.3	0.00e+00	0	55	0	1136656384	45	3829
2026-01-02 12:58:17.67	205.19	22.97	-41.2	-41.8	20.4	0.00e+00	0	55	0	1158676480	45	3824
2026-01-02 12:58:21.63	205.83	23.45	-41.0	-41.7	20.6	0.00e+00	0	55	0	1180696576	45	3742
2026-01-02 12:58:25.59	206.49	23.93	-40.7	-41.2	20.9	0.00e+00	0	55	0	1203765248	44	3769
2026-01-02 12:58:29.51	207.16	24.42	-40.8	-41.4	20.8	0.00e+00	0	55	0	1224736768	44	3845
2026-01-02 12:58:33.45	207.85	24.91	-41.0	-41.6	20.6	0.00e+00	0	55	0	1247805440	44	3943
2026-01-02 12:58:37.41	208.57	25.41	-41.3	-41.9	20.3	0.00e+00	0	55	0	1269825536	44	4082
2026-01-02 12:58:41.36	209.31	25.92	-40.4	-41.0	21.2	0.00e+00	0	55	0	1291845632	44	3673
2026-01-02 12:58:45.32	210.08	26.43	-40.1	-40.6	21.5	0.00e+00	0	55	0	1313865728	43	3732
2026-01-02 12:58:49.27	210.87	26.94	-40.2	-40.8	21.3	0.00e+00	0	55	0	1335885824	43	3787
2026-01-02 12:58:53.24	211.69	27.46	-40.3	-40.9	21.2	0.00e+00	0	55	0	1358954496	43	3842
2026-01-02 12:58:57.19	212.53	27.98	-40.5	-41.1	21.0	0.00e+00	0	55	0	1380974592	43	3927
2026-01-02 12:59:01.15	213.40	28.51	-40.7	-41.3	20.8	0.00e+00	0	55	0	1402994688	43	4028
2026-01-02 12:59:05.11	214.29	29.03	-40.3	-40.8	21.3	0.00e+00	0	55	0	1425014784	43	3810
2026-01-02 12:59:09.07	215.22	29.56	-40.6	-41.2	21.0	0.00e+00	0	55	0	1448083456	43	3971
2026-01-02 12:59:13.03	216.18	30.10	-40.6	-41.1	21.0	0.00e+00	0	56	0	1470103552	43	3949
2026-01-02 12:59:17.00	217.17	30.63	-40.7	-41.3	20.9	0.00e+00	0	56	0	1492123648	43	4005
2026-01-02 12:59:20.96	218.19	31.16	-39.9	-40.5	21.6	0.00e+00	0	55	0	1514143744	43	3665
2026-01-02 12:59:24.92	219.24	31.70	-40.0	-40.6	21.5	0.00e+00	0	56	0	1537212416	42	3924
2026-01-02 12:59:28.87	220.33	32.23	-39.8	-40.3	21.8	0.00e+00	0	56	0	1559232512	42	3799
2026-01-02 12:59:32.83	221.45	32.76	-40.2	-40.8	21.4	0.00e+00	0	56	0	1581252608	42	4014
2026-01-02 12:59:36.78	222.61	33.28	-40.0	-40.6	21.6	0.00e+00	0	56	0	1603272704	42	3921
2026-01-02 12:59:40.73	223.81	33.80	-40.2	-40.7	21.5	0.00e+00	0	56	0	1625292800	42	3980
2026-01-02 12:59:44.66	225.03	34.32	-40.0	-40.5	21.6	0.00e+00	0	56	0	1648361472	42	3892
2026-01-02 12:59:48.63	226.31	34.83	-40.0	-40.6	21.6	0.00e+00	0	56	0	1670381568	42	3932
2026-01-02 12:59:52.60	227.63	35.34	-39.7	-40.3	21.9	0.00e+00	0	56	0	1692401664	42	3781
2026-01-02 12:59:56.56	228.98	35.83	-39.7	-40.2	21.9	0.00e+00	0	56	0	1714421760	42	3760
2026-01-02 13:00:00.52	230.38	36.31	-39.5	-40.0	22.1	0.00e+00	0	56	0	1737490432	42	3694
2026-01-02 13:00:04.47	231.81	36.78	-39.5	-40.0	22.1	0.00e+00	0	56	0	1759510528	41	3912
2026-01-02 13:00:08.44	233.29	37.24	-39.8	-40.3	21.8	0.00e+00	0	56	0	1781530624	41	4024
2026-01-02 13:00:12.40	234.81	37.68	-39.7	-40.3	21.9	0.00e+00	0	56	0	1803550720	42	3787
2026-01-02 13:00:16.36	236.37	38.11	-39.7	-40.2	22.0	0.00e+00	0	56	0	1826619392	42	3751
2026-01-02 13:00:20.32	237.96	38.51	-39.5	-40.0	22.1	0.00e+00	0	56	0	1848639488	42	3685
2026-01-02 13:00:24.27	239.60	38.90	-39.5	-40.0	22.1	0.00e+00	0	56	0	1870659584	42	3692
2026-01-02 13:00:28.22	241.26	39.26	-39.5	-40.0	22.2	0.00e+00	0	56	0	1892679680	42	3663
2026-01-02 13:00:32.18	242.97	39.60	-39.8	-40.3	21.9	0.00e+00	0	56	0	1914699776	42	3810
2026-01-02 13:00:36.13	244.71	39.92	-39.5	-40.0	22.1	0.00e+00	0	56	0	1937768448	42	3689
2026-01-02 13:00:40.08	246.48	40.20	-39.8	-40.4	21.8	0.00e+00	0	56	0	1959788544	42	3829
2026-01-02 13:00:44.03	248.28	40.46	-40.2	-40.7	21.5	0.00e+00	0	56	0	1981808640	42	3983
2026-01-02 13:00:47.98	250.11	40.69	-40.1	-40.6	21.6	0.00e+00	0	56	0	2003828736	42	3938
2026-01-02 13:00:51.95	251.97	40.89	-39.7	-40.2	21.9	0.00e+00	0	56	0	2026897408	42	3779
2026-01-02 13:00:55.90	253.84	41.05	-39.6	-40.2	22.0	0.00e+00	0	56	0	2048917504	42	3740
2026-01-02 13:00:59.85	255.73	41.18	-40.0	-40.5	21.6	0.00e+00	0	56	0	2070937600	42	3902
2026-01-02 13:01:03.81	257.64	41.28	-40.2	-40.7	21.5	0.00e+00	0	56	0	2092957696	42	3994
2026-01-02 13:01:07.76	259.55	41.34	-40.2	-40.8	21.4	0.00e+00	0	56	0	2114977792	42	4021
2026-01-02 13:01:11.72	261.47	41.37	-40.4	-40.9	21.3	0.00e+00	0	56	0	2138046464	42	4078
2026-01-02 13:01:15.68	263.39	41.36	-39.7	-40.2	21.9	0.00e+00	0	56	0	2160066560	42	3749
2026-01-02 13:01:19.64	265.31	41.32	-40.1	-40.6	21.6	0.00e+00	0	56	0	2182086656	42	3950
2026-01-02 13:01:23.60	267.22	41.24	-40.4	-41.0	21.2	0.00e+00	0	56	0	2204106752	42	4126
2026-01-02 13:01:27.56	269.12	41.13	-40.4	-41.0	21.2	0.00e+00	0	56	0	2227175424	42	4133
2026-01-02 13:01:31.52	271.00	40.98	-40.8	-41.4	20.8	0.00e+00	0	56	0	2249195520	43	4074
2026-01-02 13:01:35.47	272.86	40.80	-40.1	-40.7	21.5	0.00e+00	0	56	0	2271215616	43	3759
2026-01-02 13:01:39.42	274.70	40.59	-40.3	-40.8	21.4	0.00e+00	0	56	0	2293235712	43	3819
2026-01-02 13:01:43.38	276.52	40.35	-39.7	-40.2	22.0	0.00e+00	0	56	0	2315255808	42	3766
2026-01-02 13:01:47.34	278.31	40.08	-39.5	-40.0	22.1	0.00e+00	0	56	0	2338324480	42	3665
2026-01-02 13:01:51.29	280.07	39.78	-39.9	-40.4	21.8	0.00e+00	0	57	0	2360344576	42	3835
2026-01-02 13:01:55.25	281.79	39.46	-40.4	-41.0	21.2	0.00e+00	0	56	0	2382364672	42	4116
2026-01-02 13:01:59.21	283.48	39.11	-39.9	-40.4	21.8	0.00e+00	0	56	0	2404384768	42	3841
2026-01-02 13:02:03.17	285.14	38.74	-40.2	-40.7	21.5	0.00e+00	0	57	0	2427453440	42	4004
2026-01-02 13:02:07.14	286.76	38.34	-39.6	-40.1	22.0	0.00e+00	0	56	0	2449473536	42	3726
2026-01-02 13:02:11.09	288.33	37.93	-39.7	-40.3	21.9	0.00e+00	0	57	0	2471493632	42	3789
2026-01-02 13:02:15.05	289.87	37.50	-39.7	-40.2	21.9	0.00e+00	0	56	0	2493513728	42	3758
2026-01-02 13:02:19.01	291.36	37.05	-39.8	-40.3	21.9	0.00e+00	0	56	0	2516582400	42	3791
2026-01-02 13:02:22.95	292.81	36.59	-40.0	-40.5	21.6	0.00e+00	0	56	0	2538602496	42	3897
2026-01-02 13:02:26.90	294.22	36.11	-40.3	-40.8	21.3	0.00e+00	0	56	0	2560622592	42	4046
2026-01-02 13:02:30.85	295.59	35.63	-40.3	-40.9	21.3	0.00e+00	0	57	0	2582642688	42	4077
2026-01-02 13:02:34.80	296.93	35.13	-40.0	-40.5	21.6	0.00e+00	0	57	0	2604662784	42	3909
2026-01-02 13:02:38.74	298.21	34.63	-39.6	-40.1	22.0	0.00e+00	0	57	0	2627731456	42	3707
2026-01-02 13:02:42.70	299.47	34.12	-40.1	-40.7	21.4	0.00e+00	0	57	0	2649751552	42	3992
2026-01-02 13:02:46.66	300.69	33.60	-40.2	-40.8	21.4	0.00e+00	0	57	0	2671771648	42	4013
2026-01-02 13:02:50.58	301.85	33.09	-40.0	-40.6	21.6	0.00e+00	0	56	0	2693791744	42	3928
2026-01-02 13:02:54.54	303.00	32.56	-40.1	-40.6	21.5	0.00e+00	0	56	0	2715811840	42	3948
2026-01-02 13:02:58.49	304.10	32.03	-40.1	-40.7	21.4	0.00e+00	0	57	0	2737831936	42	3970
2026-01-02 13:03:02.43	305.17	31.51	-40.1	-40.7	21.4	0.00e+00	0	57	0	2759852032	42	3985
2026-01-02 13:03:06.39	306.21	30.97	-40.7	-41.3	20.9	0.00e+00	0	57	0	2782920704	43	4024
2026-01-02 13:03:10.34	307.21	30.44	-40.6	-41.2	21.0	0.00e+00	0	57	0	2804940800	43	3959
2026-01-02 13:03:14.29	308.18	29.92	-40.6	-41.2	21.0	0.00e+00	0	57	0	2826960896	43	3959
2026-01-02 13:03:18.25	309.12	29.39	-40.8	-41.4	20.8	0.00e+00	0	56	0	2848980992	43	4062
2026-01-02 13:03:22.22	310.04	28.86	-40.3	-40.9	21.3	0.00e+00	0	57	0	2872049664	43	3836
2026-01-02 13:03:26.17	310.92	28.33	-40.4	-41.0	21.1	0.00e+00	0	57	0	2894069760	43	3879
2026-01-02 13:03:30.12	311.78	27.81	-40.7	-41.3	20.8	0.00e+00	0	56	0	2916089856	43	4041
2026-01-02 13:03:34.08	312.61	27.30	-40.5	-41.0	21.1	0.00e+00	0	57	0	2938109952	43	3904
2026-01-02 13:03:38.03	313.41	26.78	-40.6	-41.2	21.0	0.00e+00	0	57	0	2960130048	43	3961
2026-01-02 13:03:41.99	314.19	26.27	-40.7	-41.3	20.8	0.00e+00	0	57	0	2983198720	43	4042
2026-01-02 13:03:45.95	314.94	25.77	-40.6	-41.1	21.0	0.00e+00	0	57	0	3005218816	43	3950
2026-01-02 13:03:49.92	315.68	25.26	-40.8	-41.4	20.7	0.00e+00	0	57	0	3027238912	43	4090
2026-01-02 13:03:53.87	316.38	24.77	-41.2	-41.9	20.4	0.00e+00	0	57	0	3049259008	44	4069
2026-01-02 13:03:57.84	317.08	24.28	-41.1	-41.8	20.5	0.00e+00	0	57	0	3072327680	44	4005
2026-01-02 13:04:01.80	317.74	23.79	-41.0	-41.6	20.6	0.00e+00	0	57	0	3094347776	44	3930
2026-01-02 13:04:05.75	318.39	23.31	-41.2	-41.8	20.4	0.00e+00	0	57	0	3116367872	44	4022
2026-01-02 13:04:09.72	319.02	22.83	-41.4	-42.1	20.2	0.00e+00	0	57	0	3138387968	44	4147
2026-01-02 13:04:13.68	319.63	22.36	-41.5	-42.1	20.1	0.00e+00	0	57	0	3161456640	44	4160
2026-01-02 13:04:17.64	320.23	21.90	-41.4	-42.1	20.2	0.00e+00	0	57	0	3183476736	45	3914
2026-01-02 13:04:21.60	320.80	21.44	-41.7	-42.4	19.8	0.00e+00	0	57	0	3205496832	45	4071
2026-01-02 13:04:25.57	321.37	20.98	-41.8	-42.5	19.8	0.00e+00	0	57	0	3227516928	45	4108
2026-01-02 13:04:29.53	321.91	20.53	-41.7	-42.4	19.8	0.00e+00	0	57	0	3250585600	46	3849
2026-01-02 13:04:33.48	322.44	20.09	-42.1	-42.8	19.5	0.00e+00	0	57	0	3272605696	46	4011
2026-01-02 13:04:37.44	322.95	19.66	-42.0	-42.7	19.5	0.00e+00	0	57	0	3294625792	46	3988
2026-01-02 13:04:41.38	323.45	19.23	-42.3	-43.0	19.3	0.00e+00	0	57	0	3316645888	46	4101
2026-01-02 13:04:45.34	323.94	18.80	-42.4	-43.2	19.1	0.00e+00	0	57	0	3339714560	47	3966
2026-01-02 13:04:49.29	324.42	18.38	-42.6	-43.3	18.9	0.00e+00	0	57	0	3361734656	47	4034
2026-01-02 13:04:53.25	324.88	17.96	-42.3	-43.1	19.2	0.00e+00	0	57	0	3383754752	47	3919
2026-01-02 13:04:57.21	325.33	17.55	-42.5	-43.3	18.9	0.00e+00	0	57	0	3405774848	47	4020
2026-01-02 13:05:01.17	325.77	17.15	-42.5	-43.3	18.9	0.00e+00	0	57	0	3427794944	47	4005
2026-01-02 13:05:05.13	326.20	16.75	-42.5	-43.2	18.9	0.00e+00	0	57	0	3450863616	47	3998
2026-01-02 13:05:09.09	326.62	16.35	-42.7	-43.4	18.8	0.00e+00	0	57	0	3472883712	47	4074
2026-01-02 13:05:13.06	327.03	15.96	-43.1	-43.9	18.5	0.00e+00	0	57	0	3494903808	48	4053
2026-01-02 13:05:17.02	327.42	15.58	-43.6	-44.5	17.8	0.00e+00	0	57	0	3516923904	49	4123
2026-01-02 13:05:20.97	327.81	15.20	-43.8	-44.8	17.6	0.00e+00	0	57	0	3539992576	49	4244
2026-01-02 13:05:24.93	328.19	14.82	-43.6	-44.5	17.9	0.00e+00	0	57	0	3562012672	49	4104
2026-01-02 13:05:28.90	328.56	14.45	-43.9	-44.8	17.5	0.00e+00	0	57	0	3584032768	49	4291
2026-01-02 13:05:32.85	328.92	14.08	-43.7	-44.6	17.7	0.00e+00	0	57	0	3606052864	50	3942
2026-01-02 13:05:36.81	329.27	13.72	-43.8	-44.7	17.6	0.00e+00	0	57	0	3629121536	50	3961
2026-01-02 13:05:40.76	329.62	13.37	-43.4	-44.3	18.0	0.00e+00	0	57	0	3651141632	50	3789
2026-01-02 13:05:44.73	329.96	13.01	-43.8	-44.7	17.6	0.00e+00	0	57	0	3673161728	50	3977
2026-01-02 13:05:48.70	330.29	12.66	-43.8	-44.7	17.5	0.00e+00	0	57	0	3695181824	50	3990
2026-01-02 13:05:52.66	330.61	12.32	-44.0	-44.9	17.3	0.00e+00	0	57	0	3718250496	50	4075
2026-01-02 13:05:56.61	330.92	11.98	-43.8	-44.7	17.5	0.00e+00	0	57	0	3740270592	50	3982
2026-01-02 13:06:00.57	331.23	11.64	-43.9	-44.8	17.4	0.00e+00	0	57	0	3762290688	50	4021
2026-01-02 13:06:04.52	331.53	11.31	-44.0	-45.0	17.2	0.00e+00	0	57	0	3784310784	50	4102
2026-01-02 13:06:08.48	331.83	10.98	-44.2	-45.2	17.0	0.00e+00	0	57	0	3806330880	50	4199
2026-01-02 13:06:12.44	332.12	10.66	-44.5	-45.5	16.6	0.00e+00	0	57	0	3829399552	51	4114
2026-01-02 13:06:16.41	332.41	10.33	-44.6	-45.6	16.4	0.00e+00	0	57	0	3851419648	51	4193
2026-01-02 13:06:20.37	332.68	10.02	-44.8	-45.9	16.2	0.00e+00	0	57	0	3873439744	51	4311
2026-01-02 13:06:24.32	332.96	9.70	-44.7	-45.8	16.3	0.00e+00	0	57	0	3895459840	51	4250
2026-01-02 13:06:28.27	333.22	9.39	-45.1	-46.2	15.7	0.00e+00	0	57	0	3918528512	52	4209
2026-01-02 13:06:32.21	333.48	9.09	-44.7	-45.8	16.2	0.00e+00	0	57	0	3940548608	52	4009
2026-01-02 13:06:36.16	333.74	8.78	-44.6	-45.7	16.2	0.00e+00	0	57	0	3962568704	52	3964
2026-01-02 13:06:40.11	333.99	8.48	-44.7	-45.8	16.0	0.00e+00	0	57	0	3984588800	52	4049
2026-01-02 13:06:44.08	334.24	8.18	-44.7	-45.9	16.0	0.00e+00	0	57	0	4006608896	52	4060
2026-01-02 13:06:48.04	334.48	7.89	-45.1	-46.3	15.5	0.00e+00	0	57	0	4029677568	52	4259
2026-01-02 13:06:52.00	334.72	7.60	-45.1	-46.3	15.5	0.00e+00	0	57	0	4051697664	52	4280
2026-01-02 13:06:55.97	334.96	7.31	-45.2	-46.4	15.4	0.00e+00	0	57	0	4073717760	52	4314
2026-01-02 13:06:59.92	335.19	7.02	-45.4	-46.7	15.0	0.00e+00	0	57	0	4095737856	52	4474
2026-01-02 13:07:03.87	335.41	6.74	-45.8	-47.1	14.5	0.00e+00	0	57	0	4118806528	53	4427
2026-01-02 13:07:07.82	335.63	6.46	-45.9	-47.3	14.3	2.20e-06	0	57	0	4140826624	54	4266
2026-01-02 13:07:11.79	335.85	6.18	-46.0	-47.5	14.1	4.50e-06	0	57	0	4162846720	54	4367
2026-01-02 13:07:15.74	336.06	5.91	-46.0	-47.5	14.1	8.00e-06	0	57	0	4184866816	54	4345
2026-01-02 13:07:19.70	336.28	5.63	-46.3	-47.8	13.7	1.25e-05	0	57	0	4207935488	54	4540
2026-01-02 13:07:23.65	336.48	5.36	-46.5	-48.2	13.2	3.54e-05	0	57	0	4229955584	54	4749
2026-01-02 13:07:27.59	336.68	5.10	-46.1	-47.7	13.7	1.48e-05	0	57	0	4251975680	55	4194
2026-01-02 13:07:31.54	336.88	4.83	-48.6	-59.4	3.8	8.46e-01	0	57	104	4261412864	60	12117
2026-01-02 13:07:35.51	337.08	4.57	-52.5	-63.4	3.8	8.45e-01	0	57	104	4261412864	66	13615
2026-01-02 13:07:39.45	337.28	4.31	-52.8	-63.6	3.8	8.47e-01	0	57	104	4261412864	67	13186
2026-01-02 13:07:43.41	337.47	4.05	-52.7	-63.7	3.8	8.45e-01	0	57	104	4261412864	67	13322
2026-01-02 13:07:47.39	337.66	3.80	-52.9	-63.8	3.8	8.47e-01	0	57	104	4261412864	67	13438
2026-01-02 13:07:51.34	337.84	3.54	-53.0	-63.8	3.8	8.46e-01	0	57	104	4261412864	67	13524
2026-01-02 13:07:55.29	338.02	3.29	-52.9	-63.8	3.8	8.45e-01	0	57	104	4261412864	67	13491
2026-01-02 13:07:59.23	338.20	3.04	-52.8	-63.7	3.8	8.47e-01	0	58	104	4261412864	67	13400

#Closed at: 2026-01-02 13:08:00
#Recorded file [4261 MB]: D:/Data/31026_260102_160729.dat