passes_logs/2026/01/02/R3.0SM8_Murmansk_STILSPACE/R3.0SM8_Murmansk_STILSPACE__20260102_075530_FENGYUN_3D_rec.log

#Pass ID: 20260102_075530_FENGYUN 3D
#Satellite: FENGYUN 3D
#Configuration: FENGYUN 3D
#almurnet v.1.7.20240730
#Start time: 2026-01-02 07:55:30

#Version: 2.2.20231116
#Station: R3.0SM8_Murmansk_STILSPACE
#Location: 33.092731 lon 68.902999 lat
#TLE: 1 43010U 17072A   26001.33100487  .00000602  00000+0  30664-3 0  9999
#TLE: 2 43010  98.9910 332.9374 0001848 133.1047 227.0283 14.19692078421319

#Time	Az	El	Level	Level2	SNR	BER	BlckErr	Temp	State	Recorded	gain1	gain2
2026-01-02 07:55:30.65	73.31	3.02	-52.4	-63.2	3.8	8.46e-01	0	45	0	0	66	13292
2026-01-02 07:55:33.62	73.12	3.20	-52.0	-62.9	3.8	8.46e-01	0	46	104	0	67	12212
2026-01-02 07:55:36.60	72.92	3.38	-51.9	-62.6	3.8	8.46e-01	0	46	104	0	66	12474
2026-01-02 07:55:39.57	72.72	3.55	-51.5	-62.1	3.8	8.46e-01	0	46	104	0	65	12473
2026-01-02 07:55:42.55	72.52	3.73	-51.4	-62.2	3.8	8.45e-01	0	47	104	0	65	12561
2026-01-02 07:55:45.52	72.32	3.91	-51.4	-62.2	3.8	8.46e-01	0	47	104	0	65	12520
2026-01-02 07:55:48.49	72.11	4.09	-51.5	-62.2	3.8	8.47e-01	0	47	104	0	65	12617
2026-01-02 07:55:51.46	71.90	4.27	-51.4	-61.8	3.8	8.47e-01	0	47	104	0	65	12068
2026-01-02 07:55:54.44	71.69	4.45	-51.1	-60.1	3.8	8.44e-01	0	47	104	0	65	9881
2026-01-02 07:55:57.40	71.47	4.63	-50.6	-57.0	4.8	7.97e-01	0	48	0	0	64	7312
2026-01-02 07:56:00.37	71.26	4.82	-49.9	-54.2	6.8	2.14e-01	0	48	0	9437184	62	5992
2026-01-02 07:56:03.35	71.03	5.00	-49.0	-52.2	8.8	4.10e-02	0	48	0	26214400	61	5037
2026-01-02 07:56:06.31	70.81	5.18	-48.8	-52.1	9.0	3.53e-02	0	48	0	42991616	60	5251
2026-01-02 07:56:09.28	70.58	5.37	-48.6	-51.5	9.6	1.44e-02	0	48	0	59768832	60	4889
2026-01-02 07:56:12.25	70.35	5.56	-48.6	-51.4	9.8	1.26e-02	0	49	0	76546048	59	5113
2026-01-02 07:56:15.21	70.12	5.74	-47.8	-50.0	11.2	2.56e-03	0	49	0	93323264	58	4649
2026-01-02 07:56:18.17	69.89	5.93	-46.2	-47.9	13.3	3.20e-05	0	49	0	109051904	55	4322
2026-01-02 07:56:21.13	69.65	6.12	-45.3	-46.7	14.5	1.10e-06	0	49	0	125829120	53	4207
2026-01-02 07:56:24.09	69.41	6.31	-44.6	-45.9	15.3	0.00e+00	0	49	0	142606336	52	4062
2026-01-02 07:56:27.07	69.16	6.50	-44.8	-46.0	15.3	0.00e+00	0	49	0	159383552	52	4110
2026-01-02 07:56:30.04	68.91	6.69	-45.1	-46.4	15.0	0.00e+00	0	50	0	176160768	52	4298
2026-01-02 07:56:33.02	68.66	6.89	-44.9	-46.1	15.2	0.00e+00	0	50	0	192937984	52	4180
2026-01-02 07:56:35.98	68.40	7.08	-44.9	-46.2	15.2	0.00e+00	0	50	0	209715200	52	4207
2026-01-02 07:56:38.95	68.15	7.27	-44.9	-46.2	15.2	0.00e+00	0	50	0	226492416	52	4202
2026-01-02 07:56:41.92	67.88	7.47	-44.6	-45.7	15.6	0.00e+00	0	50	0	243269632	52	3997
2026-01-02 07:56:44.89	67.62	7.66	-44.9	-46.1	15.2	0.00e+00	0	50	0	260046848	52	4188
2026-01-02 07:56:47.86	67.35	7.86	-45.0	-46.2	15.2	0.00e+00	0	50	0	276824064	52	4233
2026-01-02 07:56:50.83	67.07	8.06	-45.1	-46.4	15.1	0.00e+00	0	50	0	293601280	52	4295
2026-01-02 07:56:53.80	66.79	8.26	-44.4	-45.4	16.1	0.00e+00	0	51	0	309329920	51	4092
2026-01-02 07:56:56.77	66.51	8.46	-44.9	-46.0	15.6	0.00e+00	0	51	0	327155712	51	4377
2026-01-02 07:56:59.74	66.22	8.66	-44.6	-45.7	15.8	0.00e+00	0	51	0	342884352	52	3986
2026-01-02 07:57:02.72	65.93	8.86	-44.4	-45.5	16.1	0.00e+00	0	51	0	359661568	51	4111
2026-01-02 07:57:05.69	65.64	9.06	-44.2	-45.3	16.4	0.00e+00	0	51	0	376438784	51	4005
2026-01-02 07:57:08.66	65.34	9.27	-43.9	-44.9	16.7	0.00e+00	0	51	0	393216000	50	4077
2026-01-02 07:57:11.64	65.04	9.47	-44.0	-45.0	16.7	0.00e+00	0	51	0	409993216	50	4129
2026-01-02 07:57:14.61	64.73	9.68	-44.0	-45.0	16.6	0.00e+00	0	52	0	426770432	50	4144
2026-01-02 07:57:17.59	64.42	9.89	-44.1	-45.1	16.6	0.00e+00	0	52	0	443547648	50	4178
2026-01-02 07:57:20.56	64.10	10.09	-44.0	-45.0	16.7	0.00e+00	0	52	0	460324864	50	4118
2026-01-02 07:57:23.53	63.78	10.30	-44.1	-45.1	16.6	0.00e+00	0	52	0	477102080	50	4177
2026-01-02 07:57:26.51	63.45	10.51	-44.1	-45.1	16.7	0.00e+00	0	52	0	493879296	50	4157
2026-01-02 07:57:29.48	63.12	10.72	-44.3	-45.4	16.4	0.00e+00	0	52	0	510656512	50	4294
2026-01-02 07:57:32.43	62.79	10.93	-43.9	-44.9	16.9	0.00e+00	0	52	0	527433728	50	4060
2026-01-02 07:57:35.40	62.45	11.14	-43.8	-44.8	17.0	0.00e+00	0	52	0	544210944	50	4010
2026-01-02 07:57:38.37	62.10	11.35	-43.7	-44.6	17.2	0.00e+00	0	52	0	560988160	50	3924
2026-01-02 07:57:41.34	61.75	11.56	-43.5	-44.4	17.4	0.00e+00	0	52	0	577765376	49	4061
2026-01-02 07:57:44.31	61.39	11.78	-43.4	-44.4	17.5	0.00e+00	0	52	0	594542592	49	4053
2026-01-02 07:57:47.28	61.03	11.99	-43.4	-44.3	17.5	0.00e+00	0	53	0	610271232	49	4010
2026-01-02 07:57:50.24	60.66	12.21	-43.3	-44.2	17.6	0.00e+00	0	53	0	627048448	49	3983
2026-01-02 07:57:53.21	60.29	12.42	-43.6	-44.5	17.3	0.00e+00	0	53	0	643825664	49	4129
2026-01-02 07:57:56.17	59.92	12.64	-43.5	-44.4	17.4	0.00e+00	0	53	0	660602880	49	4061
2026-01-02 07:57:59.15	59.53	12.86	-43.1	-43.9	17.9	0.00e+00	0	53	0	677380096	49	3857
2026-01-02 07:58:02.12	59.14	13.07	-43.0	-43.9	18.0	0.00e+00	0	53	0	694157312	49	3827
2026-01-02 07:58:05.10	58.74	13.29	-43.3	-44.2	17.7	0.00e+00	0	53	0	710934528	49	3970
2026-01-02 07:58:08.07	58.34	13.51	-43.5	-44.4	17.4	0.00e+00	0	53	0	727711744	49	4062
2026-01-02 07:58:11.04	57.93	13.73	-43.5	-44.4	17.5	0.00e+00	0	53	0	744488960	49	4052
2026-01-02 07:58:14.00	57.52	13.95	-43.6	-44.5	17.3	0.00e+00	0	53	0	761266176	49	4144
2026-01-02 07:58:16.97	57.10	14.17	-42.8	-43.6	18.2	0.00e+00	0	54	0	778043392	48	3938
2026-01-02 07:58:19.94	56.67	14.39	-42.7	-43.5	18.4	0.00e+00	0	54	0	794820608	48	3891
2026-01-02 07:58:22.90	56.24	14.61	-42.8	-43.6	18.3	0.00e+00	0	54	0	810549248	48	3930
2026-01-02 07:58:25.88	55.80	14.84	-42.9	-43.6	18.3	0.00e+00	0	54	0	828375040	48	3954
2026-01-02 07:58:28.83	55.36	15.06	-42.7	-43.5	18.4	0.00e+00	0	54	0	844103680	48	3887
2026-01-02 07:58:31.80	54.90	15.28	-42.4	-43.2	18.7	0.00e+00	0	54	0	860880896	48	3743
2026-01-02 07:58:34.77	54.44	15.50	-42.6	-43.4	18.6	0.00e+00	0	54	0	877658112	48	3826
2026-01-02 07:58:37.74	53.97	15.72	-42.2	-42.9	18.8	0.00e+00	0	54	0	894435328	47	3863
2026-01-02 07:58:40.71	53.50	15.95	-42.5	-43.3	18.5	0.00e+00	0	54	0	911212544	47	4034
2026-01-02 07:58:43.68	53.02	16.17	-42.3	-43.0	18.7	0.00e+00	0	54	0	927989760	47	3894
2026-01-02 07:58:46.66	52.53	16.39	-42.5	-43.3	18.5	0.00e+00	0	54	0	944766976	47	4010
2026-01-02 07:58:49.65	52.03	16.62	-42.6	-43.4	18.4	0.00e+00	0	54	0	961544192	47	4076
2026-01-02 07:58:52.61	51.53	16.84	-41.9	-42.6	19.2	0.00e+00	0	54	0	978321408	47	3720
2026-01-02 07:58:55.58	51.01	17.06	-41.9	-42.6	19.1	0.00e+00	0	54	0	995098624	46	3949
2026-01-02 07:58:58.55	50.49	17.28	-41.8	-42.5	19.2	0.00e+00	0	54	0	1011875840	46	3913
2026-01-02 07:59:01.52	49.97	17.50	-42.0	-42.7	19.1	0.00e+00	0	55	0	1028653056	46	3996
2026-01-02 07:59:04.49	49.43	17.72	-42.1	-42.8	19.0	0.00e+00	0	54	0	1045430272	46	4030
2026-01-02 07:59:07.46	48.89	17.94	-41.9	-42.6	19.2	0.00e+00	0	55	0	1062207488	46	3955
2026-01-02 07:59:10.43	48.34	18.16	-42.0	-42.7	19.1	0.00e+00	0	55	0	1078984704	46	3978
2026-01-02 07:59:13.38	47.78	18.38	-41.6	-42.2	19.6	0.00e+00	0	55	0	1094713344	46	3771
2026-01-02 07:59:16.36	47.21	18.59	-41.6	-42.3	19.5	0.00e+00	0	55	0	1111490560	46	3818
2026-01-02 07:59:19.33	46.64	18.81	-41.6	-42.3	19.5	0.00e+00	0	55	0	1128267776	46	3804
2026-01-02 07:59:22.29	46.06	19.02	-41.4	-42.0	19.8	0.00e+00	0	54	0	1145044992	45	3890
2026-01-02 07:59:25.27	45.46	19.24	-41.1	-41.8	20.0	0.00e+00	0	55	0	1161822208	45	3790
2026-01-02 07:59:28.23	44.86	19.45	-41.2	-41.8	20.0	0.00e+00	0	55	0	1178599424	45	3823
2026-01-02 07:59:31.18	44.26	19.66	-41.4	-42.0	19.8	0.00e+00	0	55	0	1195376640	45	3908
2026-01-02 07:59:34.15	43.64	19.87	-40.9	-41.6	20.2	0.00e+00	0	55	0	1212153856	45	3704
2026-01-02 07:59:37.12	43.02	20.07	-41.0	-41.7	20.1	0.00e+00	0	55	0	1228931072	44	3975
2026-01-02 07:59:40.09	42.38	20.28	-41.1	-41.8	20.1	0.00e+00	0	55	0	1245708288	44	4007
2026-01-02 07:59:43.06	41.74	20.48	-41.2	-41.8	20.0	0.00e+00	0	55	0	1262485504	44	4044
2026-01-02 07:59:46.03	41.09	20.68	-41.3	-41.9	19.9	0.00e+00	0	55	0	1279262720	44	4091
2026-01-02 07:59:48.99	40.43	20.88	-41.3	-42.0	19.8	0.00e+00	0	55	0	1294991360	44	4118
2026-01-02 07:59:51.95	39.76	21.07	-40.7	-41.4	20.4	0.00e+00	0	55	0	1311768576	44	3832
2026-01-02 07:59:54.92	39.08	21.27	-41.0	-41.6	20.2	0.00e+00	0	55	0	1328545792	44	3941
2026-01-02 07:59:57.88	38.40	21.45	-40.9	-41.6	20.2	0.00e+00	0	55	0	1345323008	44	3915
2026-01-02 08:00:00.85	37.71	21.64	-40.7	-41.3	20.5	0.00e+00	0	55	0	1362100224	44	3824
2026-01-02 08:00:03.82	37.00	21.83	-40.7	-41.3	20.5	0.00e+00	0	55	0	1378877440	44	3798
2026-01-02 08:00:06.78	36.30	22.01	-40.7	-41.3	20.5	0.00e+00	0	56	0	1395654656	44	3800
2026-01-02 08:00:09.77	35.57	22.18	-40.9	-41.5	20.3	0.00e+00	0	55	0	1412431872	44	3904
2026-01-02 08:00:12.73	34.85	22.36	-40.8	-41.5	20.3	0.00e+00	0	55	0	1429209088	44	3872
2026-01-02 08:00:15.70	34.11	22.52	-40.8	-41.5	20.4	0.00e+00	0	55	0	1445986304	44	3877
2026-01-02 08:00:18.68	33.36	22.69	-40.7	-41.4	20.5	0.00e+00	0	55	0	1462763520	44	3825
2026-01-02 08:00:21.64	32.62	22.85	-40.8	-41.5	20.4	0.00e+00	0	55	0	1478492160	44	3874
2026-01-02 08:00:24.60	31.86	23.01	-40.7	-41.3	20.5	0.00e+00	0	56	0	1495269376	44	3801
2026-01-02 08:00:27.58	31.09	23.16	-40.4	-41.0	20.8	0.00e+00	0	55	0	1512046592	44	3679
2026-01-02 08:00:30.52	30.32	23.31	-40.6	-41.2	20.6	0.00e+00	0	56	0	1528823808	43	3977
2026-01-02 08:00:33.49	29.54	23.45	-40.3	-40.9	20.9	0.00e+00	0	56	0	1545601024	43	3829
2026-01-02 08:00:36.45	28.75	23.58	-40.2	-40.8	21.0	0.00e+00	0	56	0	1562378240	43	3781
2026-01-02 08:00:39.41	27.96	23.72	-40.4	-41.0	20.8	0.00e+00	0	56	0	1579155456	43	3871
2026-01-02 08:00:42.37	27.16	23.84	-40.4	-41.0	20.7	0.00e+00	0	56	0	1595932672	43	3894
2026-01-02 08:00:45.33	26.36	23.96	-40.6	-41.3	20.5	0.00e+00	0	56	0	1612709888	43	4012
2026-01-02 08:00:48.31	25.54	24.08	-40.5	-41.1	20.6	0.00e+00	0	56	0	1629487104	43	3927
2026-01-02 08:00:51.28	24.72	24.19	-40.3	-40.9	20.8	0.00e+00	0	56	0	1646264320	43	3837
2026-01-02 08:00:54.25	23.89	24.29	-40.4	-41.0	20.7	0.00e+00	0	56	0	1661992960	43	3890
2026-01-02 08:00:57.21	23.06	24.39	-40.5	-41.0	20.7	0.00e+00	0	56	0	1678770176	43	3909
2026-01-02 08:01:00.17	22.23	24.48	-40.4	-41.0	20.7	0.00e+00	0	56	0	1695547392	43	3894
2026-01-02 08:01:03.14	21.39	24.57	-40.3	-40.9	20.8	0.00e+00	0	56	0	1712324608	43	3841
2026-01-02 08:01:06.11	20.54	24.64	-40.2	-40.8	20.9	0.00e+00	0	56	0	1729101824	43	3811
2026-01-02 08:01:09.08	19.69	24.72	-40.5	-41.1	20.6	0.00e+00	0	56	0	1745879040	43	3957
2026-01-02 08:01:12.05	18.84	24.78	-40.5	-41.1	20.7	0.00e+00	0	56	0	1762656256	43	3923
2026-01-02 08:01:15.01	17.98	24.84	-40.8	-41.4	20.3	0.00e+00	0	56	0	1779433472	43	4096
2026-01-02 08:01:17.99	17.12	24.89	-40.3	-40.8	20.9	0.00e+00	0	56	0	1796210688	43	3815
2026-01-02 08:01:20.96	16.26	24.94	-40.3	-40.9	20.8	0.00e+00	0	56	0	1812987904	43	3828
2026-01-02 08:01:23.95	15.39	24.97	-39.8	-40.4	21.3	0.00e+00	0	56	0	1829765120	42	3834
2026-01-02 08:01:26.92	14.52	25.00	-39.9	-40.4	21.2	0.00e+00	0	56	0	1846542336	42	3856
2026-01-02 08:01:29.87	13.66	25.03	-39.9	-40.5	21.1	0.00e+00	0	56	0	1863319552	42	3880
2026-01-02 08:01:32.84	12.79	25.04	-40.1	-40.7	20.6	0.00e+00	0	56	0	1879048192	42	3969
2026-01-02 08:01:35.81	11.92	25.05	-40.6	-41.3	19.8	0.00e+00	0	56	0	1896873984	43	4027
2026-01-02 08:01:38.78	11.05	25.05	-42.0	-42.8	18.1	0.00e+00	0	56	0	1912602624	45	4270
2026-01-02 08:01:41.76	10.18	25.05	-44.2	-45.5	15.0	0.00e+00	0	56	0	1929379840	50	4364
2026-01-02 08:01:44.72	9.31	25.03	-45.8	-47.7	12.5	7.20e-05	0	56	0	1946157056	53	4708
2026-01-02 08:01:47.70	8.44	25.01	-45.1	-46.5	14.0	3.77e-05	0	56	0	1962934272	53	4145
2026-01-02 08:01:50.67	7.57	24.98	-42.1	-42.9	18.4	0.00e+00	0	56	0	1979711488	47	3827
2026-01-02 08:01:53.65	6.70	24.95	-41.2	-41.8	19.8	0.00e+00	0	56	0	1996488704	45	3813
2026-01-02 08:01:56.61	5.84	24.91	-39.9	-40.5	21.0	0.00e+00	0	56	0	2013265920	43	3671
2026-01-02 08:01:59.59	4.98	24.86	-41.3	-42.1	19.1	0.00e+00	0	56	0	2030043136	44	4148
2026-01-02 08:02:02.55	4.12	24.80	-46.3	-48.4	12.0	3.16e-04	0	57	0	2046820352	54	4834
2026-01-02 08:02:05.53	3.26	24.74	-43.4	-44.3	17.2	0.00e+00	0	56	0	2063597568	50	3793
2026-01-02 08:02:08.49	2.42	24.67	-43.0	-43.8	18.2	0.00e+00	0	56	0	2080374784	48	4029
2026-01-02 08:02:11.47	1.57	24.60	-42.8	-43.6	18.5	0.00e+00	0	57	0	2097152000	48	3931
2026-01-02 08:02:14.41	0.73	24.51	-42.5	-43.2	18.8	0.00e+00	0	56	0	2113929216	48	3770
2026-01-02 08:02:17.39	359.89	24.43	-42.1	-42.9	19.0	0.00e+00	0	57	0	2129657856	47	3832
2026-01-02 08:02:20.35	359.06	24.33	-40.5	-41.0	20.8	0.00e+00	0	57	0	2147483648	44	3694
2026-01-02 08:02:23.32	358.23	24.23	-39.8	-40.4	21.3	0.00e+00	0	57	0	2163212288	42	3844
2026-01-02 08:02:26.29	357.41	24.12	-39.7	-40.2	21.4	0.00e+00	0	57	0	2179989504	42	3779
2026-01-02 08:02:29.26	356.59	24.01	-40.0	-40.6	21.1	0.00e+00	0	57	0	2196766720	42	3935
2026-01-02 08:02:32.23	355.78	23.89	-40.4	-41.0	20.7	0.00e+00	0	57	0	2213543936	42	4106
2026-01-02 08:02:35.19	354.98	23.77	-40.4	-41.0	20.7	0.00e+00	0	57	0	2230321152	43	3898
2026-01-02 08:02:38.17	354.18	23.63	-40.5	-41.0	20.6	0.00e+00	0	57	0	2247098368	43	3907
2026-01-02 08:02:41.14	353.39	23.50	-40.1	-40.7	21.0	0.00e+00	0	57	0	2263875584	43	3748
2026-01-02 08:02:44.11	352.60	23.36	-40.1	-40.7	21.0	0.00e+00	0	57	0	2280652800	43	3772
2026-01-02 08:02:47.08	351.83	23.21	-40.5	-41.1	20.5	0.00e+00	0	57	0	2297430016	43	3954
2026-01-02 08:02:50.05	351.06	23.06	-40.0	-40.5	21.1	0.00e+00	0	57	0	2314207232	43	3687
2026-01-02 08:02:53.02	350.29	22.91	-40.2	-40.7	20.9	0.00e+00	0	57	0	2330984448	43	3774
2026-01-02 08:02:55.99	349.54	22.75	-40.3	-40.9	20.8	0.00e+00	0	57	0	2346713088	43	3836
2026-01-02 08:02:58.97	348.79	22.58	-40.5	-41.1	20.5	0.00e+00	0	57	0	2364538880	43	3928
2026-01-02 08:03:01.94	348.05	22.42	-40.3	-40.9	20.7	0.00e+00	0	57	0	2380267520	43	3863
2026-01-02 08:03:04.92	347.32	22.24	-40.8	-41.4	20.3	0.00e+00	0	57	0	2397044736	43	4055
2026-01-02 08:03:07.90	346.60	22.07	-40.3	-40.8	20.8	0.00e+00	0	57	0	2413821952	43	3823
2026-01-02 08:03:10.87	345.88	21.89	-40.6	-41.2	20.5	0.00e+00	0	57	0	2430599168	43	3959
2026-01-02 08:03:13.84	345.18	21.71	-40.6	-41.2	20.5	0.00e+00	0	57	0	2447376384	43	3966
2026-01-02 08:03:16.82	344.48	21.52	-40.9	-41.5	20.1	0.00e+00	0	57	0	2464153600	43	4139
2026-01-02 08:03:19.79	343.79	21.33	-41.1	-41.8	20.0	0.00e+00	0	57	0	2480930816	44	4023
2026-01-02 08:03:22.76	343.11	21.14	-40.9	-41.5	20.3	0.00e+00	0	57	0	2497708032	44	3879
2026-01-02 08:03:25.73	342.44	20.94	-40.8	-41.5	20.2	0.00e+00	0	57	0	2514485248	44	3879
2026-01-02 08:03:28.68	341.78	20.75	-41.0	-41.6	20.1	0.00e+00	0	57	0	2531262464	44	3930
2026-01-02 08:03:31.63	341.13	20.55	-41.6	-42.3	19.4	0.00e+00	0	57	0	2548039680	45	4025
2026-01-02 08:03:34.60	340.48	20.35	-42.3	-43.1	18.4	0.00e+00	0	57	0	2564816896	46	4180
2026-01-02 08:03:37.57	339.85	20.14	-43.9	-44.8	16.7	0.00e+00	0	57	0	2581594112	49	4280
2026-01-02 08:03:40.55	339.22	19.94	-44.3	-45.4	15.9	0.00e+00	0	57	0	2597322752	50	4312
2026-01-02 08:03:43.51	338.60	19.73	-44.4	-45.5	15.8	0.00e+00	0	57	0	2615148544	51	4132
2026-01-02 08:03:46.50	337.98	19.52	-43.0	-43.9	17.6	0.00e+00	0	57	0	2630877184	49	3829
2026-01-02 08:03:49.47	337.38	19.31	-41.9	-42.6	18.7	0.00e+00	0	57	0	2647654400	47	3728
2026-01-02 08:03:52.44	336.79	19.10	-41.1	-41.7	19.7	0.00e+00	0	57	0	2664431616	45	3779
2026-01-02 08:03:55.42	336.20	18.88	-41.2	-41.9	19.7	0.00e+00	0	57	0	2681208832	44	4056
2026-01-02 08:03:58.40	335.62	18.66	-42.0	-42.7	18.9	0.00e+00	0	57	0	2697986048	45	4241
2026-01-02 08:04:01.38	335.05	18.45	-41.5	-42.2	19.5	0.00e+00	0	57	0	2714763264	46	3755
2026-01-02 08:04:04.35	334.48	18.23	-41.8	-42.5	19.3	0.00e+00	0	57	0	2731540480	46	3882
2026-01-02 08:04:07.32	333.93	18.01	-41.5	-42.2	19.6	0.00e+00	0	57	0	2748317696	46	3740
2026-01-02 08:04:10.28	333.39	17.79	-41.1	-41.8	19.9	0.00e+00	0	57	0	2765094912	45	3796
2026-01-02 08:04:13.26	332.85	17.57	-41.3	-42.0	19.8	0.00e+00	0	57	0	2781872128	45	3869
2026-01-02 08:04:16.22	332.32	17.35	-41.6	-42.3	19.5	0.00e+00	0	57	0	2798649344	45	4043
2026-01-02 08:04:19.19	331.80	17.13	-41.9	-42.6	19.2	0.00e+00	0	57	0	2815426560	45	4167
2026-01-02 08:04:22.14	331.29	16.91	-42.3	-43.0	18.8	0.00e+00	0	57	0	2832203776	46	4125
2026-01-02 08:04:25.10	330.79	16.69	-42.6	-43.4	18.5	0.00e+00	0	57	0	2847932416	47	4060
2026-01-02 08:04:28.07	330.29	16.47	-42.1	-42.8	19.0	0.00e+00	0	57	0	2865758208	47	3813
2026-01-02 08:04:31.01	329.80	16.25	-42.6	-43.4	18.4	0.00e+00	0	57	0	2881486848	47	4062
2026-01-02 08:04:33.98	329.32	16.03	-41.9	-42.6	19.2	0.00e+00	0	57	0	2898264064	46	3919
2026-01-02 08:04:36.96	328.84	15.80	-42.1	-42.8	19.0	0.00e+00	0	57	0	2915041280	46	4030
2026-01-02 08:04:39.94	328.37	15.58	-42.1	-42.8	19.0	0.00e+00	0	58	0	2931818496	46	4048
2026-01-02 08:04:42.90	327.91	15.36	-42.2	-42.9	18.9	0.00e+00	0	57	0	2948595712	46	4093
2026-01-02 08:04:45.87	327.45	15.14	-42.1	-42.8	19.0	0.00e+00	0	57	0	2965372928	46	4035
2026-01-02 08:04:48.84	327.00	14.91	-42.3	-43.0	18.8	0.00e+00	0	57	0	2982150144	46	4137
2026-01-02 08:04:51.82	326.56	14.69	-42.3	-43.0	18.8	0.00e+00	0	57	0	2998927360	46	4121
2026-01-02 08:04:54.79	326.12	14.47	-42.5	-43.2	18.6	0.00e+00	0	57	0	3015704576	46	4229
2026-01-02 08:04:57.77	325.69	14.25	-42.6	-43.4	18.3	0.00e+00	0	57	0	3032481792	47	4096
2026-01-02 08:05:00.75	325.27	14.03	-42.5	-43.3	18.5	0.00e+00	0	57	0	3049259008	47	4036
2026-01-02 08:05:03.71	324.86	13.81	-42.3	-43.1	18.7	0.00e+00	0	57	0	3066036224	47	3915
2026-01-02 08:05:06.68	324.45	13.59	-42.5	-43.2	18.6	0.00e+00	0	57	0	3082813440	47	3987
2026-01-02 08:05:09.66	324.04	13.37	-42.6	-43.4	18.4	0.00e+00	0	58	0	3099590656	47	4082
2026-01-02 08:05:12.62	323.65	13.15	-42.6	-43.4	18.3	0.00e+00	0	58	0	3116367872	47	4079
2026-01-02 08:05:15.59	323.25	12.93	-42.9	-43.8	18.0	0.00e+00	0	57	0	3132096512	47	4246
2026-01-02 08:05:18.56	322.87	12.72	-43.2	-44.1	17.9	0.00e+00	0	57	0	3148873728	48	4162
2026-01-02 08:05:21.53	322.49	12.50	-43.3	-44.1	17.8	0.00e+00	0	57	0	3165650944	48	4193
2026-01-02 08:05:24.50	322.11	12.28	-43.7	-44.6	17.3	0.00e+00	0	57	0	3182428160	49	4166
2026-01-02 08:05:27.48	321.74	12.07	-43.9	-44.8	17.0	0.00e+00	0	58	0	3199205376	49	4290
2026-01-02 08:05:30.44	321.38	11.85	-44.0	-45.0	17.0	0.00e+00	0	57	0	3215982592	49	4345
2026-01-02 08:05:33.42	321.02	11.64	-43.6	-44.5	17.4	0.00e+00	0	58	0	3232759808	50	3881
2026-01-02 08:05:36.39	320.67	11.42	-43.8	-44.7	17.2	0.00e+00	0	57	0	3249537024	50	3988
2026-01-02 08:05:39.36	320.32	11.21	-44.0	-44.9	16.9	0.00e+00	0	57	0	3266314240	50	4092
2026-01-02 08:05:42.33	319.98	11.00	-44.2	-45.2	16.7	0.00e+00	0	58	0	3283091456	50	4220
2026-01-02 08:05:45.30	319.65	10.79	-44.1	-45.0	16.8	0.00e+00	0	57	0	3299868672	50	4124
2026-01-02 08:05:48.27	319.31	10.58	-44.4	-45.4	16.5	0.00e+00	0	58	0	3316645888	50	4310
2026-01-02 08:05:51.23	318.99	10.37	-44.3	-45.3	16.5	0.00e+00	0	57	0	3333423104	51	4032
2026-01-02 08:05:54.21	318.66	10.16	-44.2	-45.2	16.6	0.00e+00	0	58	0	3350200320	51	3990
2026-01-02 08:05:57.17	318.35	9.96	-43.9	-44.8	17.0	0.00e+00	0	57	0	3366977536	50	4039
2026-01-02 08:06:00.15	318.03	9.75	-43.9	-44.9	17.0	0.00e+00	0	57	0	3382706176	50	4056
2026-01-02 08:06:03.13	317.72	9.54	-44.2	-45.2	16.6	0.00e+00	0	58	0	3399483392	50	4205
2026-01-02 08:06:06.10	317.42	9.34	-44.1	-45.1	16.6	0.00e+00	0	57	0	3416260608	50	4188
2026-01-02 08:06:09.06	317.12	9.14	-44.3	-45.3	16.5	0.00e+00	0	57	0	3433037824	50	4254
2026-01-02 08:06:12.02	316.83	8.93	-44.0	-45.0	16.8	0.00e+00	0	58	0	3449815040	50	4112
2026-01-02 08:06:14.99	316.54	8.73	-44.1	-45.1	16.7	0.00e+00	0	57	0	3466592256	50	4159
2026-01-02 08:06:17.96	316.25	8.53	-44.3	-45.3	16.4	0.00e+00	0	58	0	3483369472	50	4281
2026-01-02 08:06:20.91	315.97	8.33	-44.7	-45.8	15.9	0.00e+00	0	58	0	3500146688	51	4281
2026-01-02 08:06:23.89	315.69	8.13	-44.8	-45.9	15.8	0.00e+00	0	58	0	3516923904	51	4317
2026-01-02 08:06:26.86	315.41	7.93	-44.8	-46.0	15.6	0.00e+00	0	58	0	3533701120	52	4112
2026-01-02 08:06:29.82	315.14	7.74	-44.5	-45.6	16.0	0.00e+00	0	58	0	3550478336	52	3955
2026-01-02 08:06:32.78	314.87	7.54	-44.4	-45.4	16.2	0.00e+00	0	58	0	3566206976	51	4085
2026-01-02 08:06:35.74	314.61	7.35	-44.3	-45.4	16.3	0.00e+00	0	58	0	3582984192	51	4062
2026-01-02 08:06:38.72	314.35	7.15	-44.4	-45.5	16.2	0.00e+00	0	57	0	3599761408	51	4102
2026-01-02 08:06:41.67	314.10	6.96	-44.6	-45.8	15.8	0.00e+00	0	58	0	3616538624	51	4244
2026-01-02 08:06:44.64	313.84	6.76	-44.8	-45.9	15.6	0.00e+00	0	57	0	3633315840	51	4328
2026-01-02 08:06:47.61	313.59	6.57	-44.3	-45.5	16.1	0.00e+00	0	58	0	3650093056	51	4104
2026-01-02 08:06:50.58	313.35	6.38	-44.5	-45.6	15.9	0.00e+00	0	58	0	3666870272	51	4172
2026-01-02 08:06:53.55	313.10	6.19	-44.7	-45.8	15.7	0.00e+00	0	57	0	3683647488	51	4271
2026-01-02 08:06:56.52	312.86	6.00	-44.9	-46.0	15.5	2.20e-06	0	57	0	3700424704	51	4384
2026-01-02 08:06:59.48	312.63	5.81	-44.7	-45.8	15.5	0.00e+00	0	58	0	3717201920	52	4036
2026-01-02 08:07:02.46	312.39	5.63	-44.9	-46.1	15.2	0.00e+00	0	57	0	3733979136	52	4190
2026-01-02 08:07:05.43	312.16	5.44	-45.0	-46.2	15.1	0.00e+00	0	58	0	3750756352	52	4222
2026-01-02 08:07:08.39	311.94	5.25	-45.0	-46.3	14.9	0.00e+00	0	58	0	3766484992	52	4291
2026-01-02 08:07:11.36	311.71	5.07	-45.4	-46.7	14.5	0.00e+00	0	57	0	3784310784	52	4476
2026-01-02 08:07:14.33	311.49	4.88	-52.0	-62.8	3.8	8.47e-01	0	57	104	3788505088	65	13457
2026-01-02 08:07:17.31	311.27	4.70	-52.2	-62.9	3.8	8.45e-01	0	58	104	3788505088	66	12898
2026-01-02 08:07:20.27	311.06	4.52	-52.4	-63.2	3.8	8.46e-01	0	58	104	3788505088	66	13331
2026-01-02 08:07:23.24	310.85	4.34	-52.5	-63.3	3.8	8.46e-01	0	58	104	3788505088	67	12737
2026-01-02 08:07:26.20	310.64	4.16	-52.7	-63.4	3.8	8.46e-01	0	58	104	3788505088	67	12906
2026-01-02 08:07:29.17	310.43	3.98	-52.7	-63.5	3.8	8.46e-01	0	58	104	3788505088	67	12977
2026-01-02 08:07:32.14	310.23	3.80	-52.7	-63.5	3.8	8.47e-01	0	58	104	3788505088	67	12970
2026-01-02 08:07:35.10	310.02	3.62	-52.8	-63.5	3.8	8.46e-01	0	58	104	3788505088	67	13054
2026-01-02 08:07:38.07	309.82	3.44	-52.8	-63.5	3.8	8.46e-01	0	58	104	3788505088	67	13064
2026-01-02 08:07:41.04	309.63	3.27	-52.8	-63.5	3.8	8.45e-01	0	58	104	3788505088	67	13011
2026-01-02 08:07:44.02	309.43	3.09	-52.7	-63.5	3.8	8.47e-01	0	58	104	3788505088	67	12990
2026-01-02 08:07:46.99	309.24	2.92	-52.7	-63.5	3.8	8.48e-01	0	58	104	3788505088	67	13052

#Closed at: 2026-01-02 08:07:47
#Recorded file [3788 MB]: D:/Data/31026_260102_110712.dat