passes_logs/2026/01/02/R3.0SM8_Murmansk_STILSPACE/R3.0SM8_Murmansk_STILSPACE__20260102_143723_FENGYUN_3D_rec.log

#Pass ID: 20260102_143723_FENGYUN 3D
#Satellite: FENGYUN 3D
#Configuration: FENGYUN 3D
#almurnet v.1.7.20240730
#Start time: 2026-01-02 14:37:23

#Version: 2.2.20231116
#Station: R3.0SM8_Murmansk_STILSPACE
#Location: 33.092731 lon 68.902999 lat
#TLE: 1 43010U 17072A   26001.33100487  .00000602  00000+0  30664-3 0  9999
#TLE: 2 43010  98.9910 332.9374 0001848 133.1047 227.0283 14.19692078421319

#Time	Az	El	Level	Level2	SNR	BER	BlckErr	Temp	State	Recorded	gain1	gain2
2026-01-02 14:37:23.58	233.01	3.01	-52.8	-63.7	3.8	8.46e-01	0	46	0	0	67	13300
2026-01-02 14:37:26.54	233.30	3.15	-52.8	-63.7	3.8	8.46e-01	0	46	104	0	68	12632
2026-01-02 14:37:29.51	233.59	3.30	-52.8	-63.6	3.8	8.46e-01	0	46	104	0	68	12480
2026-01-02 14:37:32.48	233.88	3.45	-52.5	-63.4	3.8	8.47e-01	0	46	104	0	68	12171
2026-01-02 14:37:35.44	234.17	3.59	-51.8	-62.5	3.8	8.46e-01	0	46	104	0	66	12309
2026-01-02 14:37:38.41	234.46	3.74	-51.4	-61.9	3.8	8.46e-01	0	47	104	0	65	12113
2026-01-02 14:37:41.39	234.76	3.89	-51.3	-61.4	3.8	8.46e-01	0	47	104	0	65	11543
2026-01-02 14:37:44.34	235.06	4.04	-51.3	-61.5	3.8	8.46e-01	0	47	104	0	65	11574
2026-01-02 14:37:47.31	235.36	4.18	-51.4	-61.9	3.8	8.46e-01	0	47	104	0	65	12118
2026-01-02 14:37:50.28	235.67	4.33	-51.4	-61.7	3.8	8.46e-01	0	48	104	0	65	11865
2026-01-02 14:37:53.24	235.98	4.48	-51.1	-60.1	3.8	8.45e-01	0	48	104	0	65	9917
2026-01-02 14:37:56.21	236.29	4.63	-50.5	-57.0	4.8	8.09e-01	0	48	0	0	64	7318
2026-01-02 14:37:59.19	236.61	4.78	-49.5	-53.6	7.4	1.85e-01	0	48	0	9437184	62	5587
2026-01-02 14:38:02.17	236.93	4.92	-48.1	-50.7	10.4	8.72e-03	0	48	0	26214400	59	4736
2026-01-02 14:38:05.13	237.25	5.07	-47.0	-49.1	12.1	4.03e-04	0	49	0	42991616	57	4407
2026-01-02 14:38:08.09	237.58	5.22	-46.6	-48.5	12.8	1.26e-04	0	49	0	59768832	56	4363
2026-01-02 14:38:11.05	237.90	5.37	-46.0	-47.6	13.6	1.37e-05	0	49	0	75497472	55	4167
2026-01-02 14:38:14.03	238.24	5.52	-45.7	-47.2	14.1	3.40e-06	0	49	0	93323264	54	4211
2026-01-02 14:38:17.00	238.57	5.67	-45.7	-47.1	14.2	5.70e-06	0	49	0	109051904	54	4168
2026-01-02 14:38:19.98	238.91	5.82	-45.7	-47.2	14.2	1.10e-06	0	49	0	125829120	54	4196
2026-01-02 14:38:22.95	239.25	5.97	-46.1	-47.7	13.7	5.70e-06	0	49	0	142606336	54	4474
2026-01-02 14:38:25.92	239.60	6.11	-46.2	-47.8	13.7	1.02e-05	0	50	0	159383552	54	4500
2026-01-02 14:38:28.88	239.94	6.26	-46.1	-47.6	13.9	1.14e-05	0	50	0	176160768	54	4433
2026-01-02 14:38:31.84	240.30	6.41	-45.6	-46.9	14.7	2.20e-06	0	50	0	192937984	54	4086
2026-01-02 14:38:34.81	240.65	6.56	-45.8	-47.2	14.5	0.00e+00	0	50	0	209715200	54	4204
2026-01-02 14:38:37.79	241.01	6.71	-45.3	-46.5	15.2	0.00e+00	0	50	0	226492416	53	4127
2026-01-02 14:38:40.75	241.37	6.86	-45.6	-46.9	14.8	1.10e-06	0	50	0	243269632	53	4335
2026-01-02 14:38:43.72	241.74	7.01	-45.3	-46.5	15.3	0.00e+00	0	51	0	260046848	53	4103
2026-01-02 14:38:46.70	242.11	7.16	-45.2	-46.4	15.4	0.00e+00	0	51	0	276824064	53	4055
2026-01-02 14:38:49.66	242.48	7.30	-45.3	-46.5	15.3	0.00e+00	0	51	0	293601280	53	4126
2026-01-02 14:38:52.63	242.86	7.45	-45.4	-46.6	15.2	0.00e+00	0	51	0	309329920	53	4168
2026-01-02 14:38:55.60	243.24	7.60	-45.1	-46.2	15.7	0.00e+00	0	51	0	326107136	53	3973
2026-01-02 14:38:58.59	243.62	7.75	-44.8	-45.9	16.0	0.00e+00	0	51	0	343932928	52	4075
2026-01-02 14:39:01.57	244.01	7.90	-45.2	-46.4	15.5	0.00e+00	0	51	0	359661568	52	4333
2026-01-02 14:39:04.54	244.41	8.04	-44.6	-45.6	16.3	0.00e+00	0	51	0	376438784	52	3938
2026-01-02 14:39:07.50	244.80	8.19	-44.6	-45.7	16.2	0.00e+00	0	51	0	393216000	52	3979
2026-01-02 14:39:10.47	245.20	8.34	-44.6	-45.6	16.3	0.00e+00	0	52	0	409993216	52	3939
2026-01-02 14:39:13.44	245.60	8.48	-44.5	-45.6	16.4	0.00e+00	0	52	0	426770432	52	3935
2026-01-02 14:39:16.40	246.01	8.63	-44.5	-45.5	16.5	0.00e+00	0	52	0	443547648	52	3900
2026-01-02 14:39:19.37	246.42	8.77	-44.5	-45.5	16.6	0.00e+00	0	52	0	460324864	51	4116
2026-01-02 14:39:22.34	246.83	8.92	-44.3	-45.3	16.8	0.00e+00	0	52	0	477102080	51	4027
2026-01-02 14:39:25.31	247.25	9.06	-44.2	-45.2	16.9	0.00e+00	0	52	0	493879296	51	3978
2026-01-02 14:39:28.28	247.68	9.21	-44.4	-45.4	16.7	0.00e+00	0	52	0	510656512	51	4062
2026-01-02 14:39:31.24	248.10	9.35	-44.2	-45.1	17.0	0.00e+00	0	52	0	527433728	51	3941
2026-01-02 14:39:34.21	248.53	9.49	-44.4	-45.4	16.7	0.00e+00	0	52	0	544210944	51	4087
2026-01-02 14:39:37.18	248.97	9.64	-44.0	-45.0	17.2	0.00e+00	0	53	0	559939584	51	3874
2026-01-02 14:39:40.15	249.41	9.78	-44.3	-45.3	16.9	0.00e+00	0	52	0	576716800	51	4015
2026-01-02 14:39:43.10	249.85	9.92	-44.2	-45.1	17.1	0.00e+00	0	52	0	593494016	51	3947
2026-01-02 14:39:46.06	250.29	10.06	-44.3	-45.2	16.9	0.00e+00	0	53	0	610271232	51	4000
2026-01-02 14:39:49.03	250.75	10.20	-44.5	-45.5	16.6	0.00e+00	0	53	0	627048448	51	4138
2026-01-02 14:39:51.99	251.20	10.34	-43.9	-44.8	17.3	0.00e+00	0	53	0	643825664	51	3824
2026-01-02 14:39:54.96	251.66	10.47	-43.8	-44.7	17.5	0.00e+00	0	53	0	660602880	50	3966
2026-01-02 14:39:57.92	252.12	10.61	-43.9	-44.8	17.4	0.00e+00	0	53	0	677380096	50	4037
2026-01-02 14:40:00.88	252.59	10.75	-44.1	-45.0	17.2	0.00e+00	0	53	0	694157312	50	4145
2026-01-02 14:40:03.85	253.06	10.88	-44.3	-45.2	16.9	0.00e+00	0	53	0	710934528	50	4237
2026-01-02 14:40:06.80	253.54	11.02	-44.5	-45.5	16.7	0.00e+00	0	53	0	726663168	51	4140
2026-01-02 14:40:09.77	254.02	11.15	-44.1	-45.0	17.2	0.00e+00	0	54	0	743440384	51	3889
2026-01-02 14:40:12.76	254.51	11.28	-44.1	-45.0	17.2	0.00e+00	0	54	0	760217600	51	3897
2026-01-02 14:40:15.72	254.99	11.41	-43.8	-44.7	17.6	0.00e+00	0	53	0	776994816	50	3969
2026-01-02 14:40:18.68	255.49	11.54	-43.9	-44.8	17.4	0.00e+00	0	53	0	793772032	50	4045
2026-01-02 14:40:21.66	255.98	11.67	-43.6	-44.5	17.7	0.00e+00	0	54	0	810549248	50	3889
2026-01-02 14:40:24.63	256.49	11.80	-43.8	-44.6	17.6	0.00e+00	0	54	0	827326464	50	3938
2026-01-02 14:40:27.60	256.99	11.93	-43.6	-44.5	17.8	0.00e+00	0	54	0	844103680	50	3881
2026-01-02 14:40:30.55	257.50	12.05	-43.5	-44.4	17.9	0.00e+00	0	54	0	860880896	50	3841
2026-01-02 14:40:33.53	258.02	12.17	-43.8	-44.7	17.6	0.00e+00	0	54	0	877658112	50	3966
2026-01-02 14:40:36.51	258.54	12.30	-43.1	-43.9	18.4	0.00e+00	0	54	0	894435328	49	3838
2026-01-02 14:40:39.48	259.06	12.42	-43.1	-43.9	18.4	0.00e+00	0	54	0	911212544	49	3828
2026-01-02 14:40:42.44	259.59	12.53	-43.3	-44.0	18.2	0.00e+00	0	54	0	927989760	49	3913
2026-01-02 14:40:45.40	260.11	12.65	-43.4	-44.2	18.1	0.00e+00	0	54	0	943718400	49	3980
2026-01-02 14:40:48.37	260.65	12.77	-43.5	-44.3	17.9	0.00e+00	0	54	0	960495616	49	4049
2026-01-02 14:40:51.32	261.19	12.88	-43.2	-44.0	18.3	0.00e+00	0	54	0	977272832	49	3898
2026-01-02 14:40:54.27	261.73	12.99	-43.3	-44.1	18.2	0.00e+00	0	54	0	994050048	49	3929
2026-01-02 14:40:57.24	262.27	13.10	-43.2	-44.0	18.3	0.00e+00	0	54	0	1010827264	49	3898
2026-01-02 14:41:00.22	262.83	13.21	-43.6	-44.4	17.9	0.00e+00	0	54	0	1027604480	49	4078
2026-01-02 14:41:03.20	263.38	13.32	-43.2	-44.0	18.3	0.00e+00	0	55	0	1044381696	49	3874
2026-01-02 14:41:06.17	263.94	13.42	-42.9	-43.6	18.6	0.00e+00	0	54	0	1061158912	48	3953
2026-01-02 14:41:09.13	264.50	13.52	-42.7	-43.5	18.8	0.00e+00	0	55	0	1077936128	48	3875
2026-01-02 14:41:12.11	265.07	13.62	-43.0	-43.7	18.6	0.00e+00	0	55	0	1094713344	48	4003
2026-01-02 14:41:15.08	265.64	13.72	-43.1	-43.9	18.4	0.00e+00	0	55	0	1111490560	48	4062
2026-01-02 14:41:18.04	266.21	13.82	-43.5	-44.3	18.0	0.00e+00	0	54	0	1128267776	48	4291
2026-01-02 14:41:21.01	266.79	13.91	-43.4	-44.2	18.1	0.00e+00	0	55	0	1143996416	49	3975
2026-01-02 14:41:23.97	267.37	14.00	-43.7	-44.6	17.7	0.00e+00	0	55	0	1160773632	49	4153
2026-01-02 14:41:26.95	267.95	14.09	-43.2	-44.0	18.3	0.00e+00	0	55	0	1177550848	49	3902
2026-01-02 14:41:29.91	268.54	14.18	-43.2	-44.0	18.3	0.00e+00	0	54	0	1194328064	49	3875
2026-01-02 14:41:32.88	269.13	14.26	-43.3	-44.1	18.2	0.00e+00	0	55	0	1211105280	49	3941
2026-01-02 14:41:35.85	269.72	14.34	-42.8	-43.6	18.7	0.00e+00	0	55	0	1227882496	48	3917
2026-01-02 14:41:38.82	270.32	14.42	-42.9	-43.6	18.7	0.00e+00	0	55	0	1244659712	48	3951
2026-01-02 14:41:41.79	270.92	14.50	-43.0	-43.8	18.5	0.00e+00	0	55	0	1261436928	48	4008
2026-01-02 14:41:44.76	271.52	14.57	-43.1	-43.9	18.4	0.00e+00	0	55	0	1278214144	48	4075
2026-01-02 14:41:47.72	272.13	14.64	-42.6	-43.4	18.9	0.00e+00	0	55	0	1294991360	48	3835
2026-01-02 14:41:50.68	272.73	14.71	-42.7	-43.4	18.9	0.00e+00	0	55	0	1311768576	48	3842
2026-01-02 14:41:53.65	273.34	14.77	-42.9	-43.7	18.7	0.00e+00	0	55	0	1328545792	48	3962
2026-01-02 14:41:56.61	273.95	14.83	-42.6	-43.4	18.9	0.00e+00	0	55	0	1344274432	48	3839
2026-01-02 14:41:59.57	274.57	14.89	-42.8	-43.6	18.7	0.00e+00	0	55	0	1361051648	48	3930
2026-01-02 14:42:02.54	275.19	14.95	-42.6	-43.3	19.0	0.00e+00	0	55	0	1377828864	48	3802
2026-01-02 14:42:05.50	275.80	15.00	-42.9	-43.6	18.7	0.00e+00	0	55	0	1394606080	48	3952
2026-01-02 14:42:08.45	276.42	15.05	-43.1	-43.9	18.5	0.00e+00	0	55	0	1411383296	48	4054
2026-01-02 14:42:11.41	277.04	15.10	-42.9	-43.6	18.7	0.00e+00	0	55	0	1428160512	48	3946
2026-01-02 14:42:14.37	277.67	15.14	-42.6	-43.3	19.0	0.00e+00	0	55	0	1444937728	48	3813
2026-01-02 14:42:17.35	278.30	15.19	-42.6	-43.3	19.1	0.00e+00	0	55	0	1461714944	48	3794
2026-01-02 14:42:20.32	278.93	15.22	-42.8	-43.5	18.8	0.00e+00	0	55	0	1478492160	48	3907
2026-01-02 14:42:23.30	279.56	15.26	-43.0	-43.7	18.6	0.00e+00	0	55	0	1495269376	48	3989
2026-01-02 14:42:26.25	280.19	15.29	-43.2	-44.0	18.3	0.00e+00	0	55	0	1510998016	48	4128
2026-01-02 14:42:29.22	280.82	15.32	-43.3	-44.1	18.3	0.00e+00	0	55	0	1527775232	48	4163
2026-01-02 14:42:32.17	281.45	15.34	-43.8	-44.6	17.7	0.00e+00	0	55	0	1544552448	49	4173
2026-01-02 14:42:35.15	282.09	15.36	-43.9	-44.8	17.4	0.00e+00	0	55	0	1561329664	49	4281
2026-01-02 14:42:38.11	282.72	15.38	-44.7	-45.7	16.3	0.00e+00	0	55	0	1578106880	51	4214
2026-01-02 14:42:41.08	283.36	15.40	-45.7	-47.0	14.7	0.00e+00	0	55	0	1594884096	53	4367
2026-01-02 14:42:44.05	284.00	15.41	-46.3	-47.9	13.5	1.48e-05	0	55	0	1611661312	54	4587
2026-01-02 14:42:47.02	284.64	15.42	-47.9	-50.4	10.8	1.79e-03	0	56	0	1628438528	57	5105
2026-01-02 14:42:50.00	285.28	15.43	-48.7	-51.9	8.9	3.24e-02	0	55	0	1645215744	59	5454
2026-01-02 14:42:52.98	285.92	15.43	-49.1	-53.3	7.2	1.47e-01	0	56	0	1661992960	60	6047
2026-01-02 14:42:55.94	286.55	15.43	-49.7	-55.4	5.4	5.50e-01	0	56	0	1677721600	61	7232
2026-01-02 14:42:58.91	287.19	15.42	-49.8	-55.9	5.1	7.64e-01	0	56	0	1679818752	61	7651
2026-01-02 14:43:01.88	287.83	15.41	-49.5	-54.6	6.0	3.83e-01	0	56	0	1689255936	61	6609
2026-01-02 14:43:04.84	288.46	15.40	-49.3	-53.6	6.9	1.91e-01	0	56	0	1706033152	61	5914
2026-01-02 14:43:07.81	289.10	15.39	-48.9	-52.6	8.1	7.97e-02	0	56	0	1722810368	61	5227
2026-01-02 14:43:10.78	289.74	15.37	-48.4	-51.3	9.6	2.85e-02	0	56	0	1739587584	59	5077
2026-01-02 14:43:13.76	290.37	15.35	-47.3	-49.4	11.8	1.12e-03	0	56	0	1756364800	57	4562
2026-01-02 14:43:16.72	291.01	15.32	-46.1	-47.6	13.7	2.28e-05	0	56	0	1773142016	55	4190
2026-01-02 14:43:19.69	291.64	15.30	-45.6	-46.9	14.7	0.00e+00	0	56	0	1789919232	54	4056
2026-01-02 14:43:22.64	292.27	15.27	-44.7	-45.7	16.1	0.00e+00	0	56	0	1806696448	52	4003
2026-01-02 14:43:25.61	292.90	15.23	-43.7	-44.6	17.6	0.00e+00	0	56	0	1823473664	50	3919
2026-01-02 14:43:28.58	293.53	15.20	-43.5	-44.4	17.9	0.00e+00	0	56	0	1840250880	50	3834
2026-01-02 14:43:31.54	294.15	15.16	-42.9	-43.7	18.6	0.00e+00	0	56	0	1857028096	49	3765
2026-01-02 14:43:34.51	294.78	15.11	-43.1	-43.9	18.4	0.00e+00	0	56	0	1872756736	49	3849
2026-01-02 14:43:37.49	295.41	15.07	-43.0	-43.7	18.5	0.00e+00	0	56	0	1890582528	49	3776
2026-01-02 14:43:40.44	296.02	15.02	-43.5	-44.3	18.1	0.00e+00	0	56	0	1906311168	49	4013
2026-01-02 14:43:43.41	296.64	14.96	-43.6	-44.4	17.9	0.00e+00	0	56	0	1923088384	49	4073
2026-01-02 14:43:46.37	297.26	14.91	-43.6	-44.4	17.9	0.00e+00	0	56	0	1939865600	49	4080
2026-01-02 14:43:49.34	297.87	14.85	-43.3	-44.2	18.1	0.00e+00	0	56	0	1956642816	49	3962
2026-01-02 14:43:52.29	298.48	14.79	-43.3	-44.2	18.1	0.00e+00	0	56	0	1973420032	49	3962
2026-01-02 14:43:55.26	299.09	14.73	-43.4	-44.2	18.1	0.00e+00	0	56	0	1990197248	49	3976
2026-01-02 14:43:58.23	299.70	14.66	-43.2	-44.0	18.3	0.00e+00	0	56	0	2006974464	49	3899
2026-01-02 14:44:01.18	300.30	14.59	-43.4	-44.2	18.1	0.00e+00	0	56	0	2023751680	49	3994
2026-01-02 14:44:04.15	300.90	14.52	-43.7	-44.6	17.8	0.00e+00	0	56	0	2040528896	49	4153
2026-01-02 14:44:07.12	301.50	14.44	-44.0	-44.9	17.4	0.00e+00	0	56	0	2056257536	49	4320
2026-01-02 14:44:10.08	302.10	14.36	-43.4	-44.2	18.2	0.00e+00	0	56	0	2073034752	49	3971
2026-01-02 14:44:13.03	302.69	14.28	-43.3	-44.1	18.2	0.00e+00	0	56	0	2089811968	49	3954
2026-01-02 14:44:15.99	303.28	14.20	-43.2	-43.9	18.4	0.00e+00	0	56	0	2106589184	49	3865
2026-01-02 14:44:18.95	303.86	14.12	-43.6	-44.4	17.9	0.00e+00	0	56	0	2123366400	49	4073
2026-01-02 14:44:21.92	304.44	14.03	-43.6	-44.4	17.9	0.00e+00	0	56	0	2140143616	49	4086
2026-01-02 14:44:24.88	305.02	13.94	-43.4	-44.3	18.1	0.00e+00	0	56	0	2156920832	49	4012
2026-01-02 14:44:27.84	305.60	13.85	-43.4	-44.2	18.1	0.00e+00	0	56	0	2173698048	49	3990
2026-01-02 14:44:30.79	306.17	13.75	-43.4	-44.2	18.2	0.00e+00	0	56	0	2189426688	49	3977
2026-01-02 14:44:33.74	306.73	13.66	-43.6	-44.5	17.8	0.00e+00	0	56	0	2206203904	49	4110
2026-01-02 14:44:36.71	307.30	13.56	-43.6	-44.5	17.8	0.00e+00	0	56	0	2222981120	49	4119
2026-01-02 14:44:39.66	307.86	13.46	-43.8	-44.6	17.7	0.00e+00	0	56	0	2239758336	49	4186
2026-01-02 14:44:42.62	308.41	13.35	-44.1	-45.0	17.4	0.00e+00	0	56	0	2256535552	50	4102
2026-01-02 14:44:45.58	308.96	13.25	-44.1	-45.0	17.3	0.00e+00	0	56	0	2273312768	50	4143
2026-01-02 14:44:48.55	309.52	13.14	-43.7	-44.5	17.9	0.00e+00	0	56	0	2290089984	50	3890
2026-01-02 14:44:51.53	310.06	13.03	-43.9	-44.8	17.5	0.00e+00	0	56	0	2306867200	50	4032
2026-01-02 14:44:54.50	310.61	12.92	-43.9	-44.8	17.6	0.00e+00	0	56	0	2323644416	50	4013
2026-01-02 14:44:57.45	311.14	12.81	-43.8	-44.7	17.6	0.00e+00	0	56	0	2339373056	50	3976
2026-01-02 14:45:00.41	311.68	12.70	-43.8	-44.7	17.6	0.00e+00	0	56	0	2356150272	50	3994
2026-01-02 14:45:03.39	312.21	12.58	-44.0	-44.9	17.4	0.00e+00	0	56	0	2372927488	50	4086
2026-01-02 14:45:06.37	312.74	12.46	-43.9	-44.7	17.6	0.00e+00	0	56	0	2389704704	50	4002
2026-01-02 14:45:09.34	313.26	12.34	-44.0	-44.9	17.4	0.00e+00	0	56	0	2406481920	50	4081
2026-01-02 14:45:12.31	313.78	12.22	-43.8	-44.7	17.6	0.00e+00	0	56	0	2423259136	50	3968
2026-01-02 14:45:15.27	314.29	12.10	-44.1	-45.0	17.3	0.00e+00	0	56	0	2440036352	50	4117
2026-01-02 14:45:18.23	314.80	11.98	-43.9	-44.8	17.4	0.00e+00	0	56	0	2456813568	50	4033
2026-01-02 14:45:21.20	315.30	11.85	-44.1	-45.0	17.3	0.00e+00	0	56	0	2473590784	50	4117
2026-01-02 14:45:24.17	315.81	11.73	-44.0	-45.0	17.3	0.00e+00	0	56	0	2490368000	50	4102
2026-01-02 14:45:27.14	316.30	11.60	-44.1	-45.1	17.2	0.00e+00	0	57	0	2507145216	50	4146
2026-01-02 14:45:30.10	316.80	11.47	-43.8	-44.7	17.6	0.00e+00	0	56	0	2523922432	50	3970
2026-01-02 14:45:33.06	317.28	11.34	-44.0	-44.9	17.3	0.00e+00	0	57	0	2539651072	50	4092
2026-01-02 14:45:36.04	317.77	11.21	-44.3	-45.2	17.0	0.00e+00	0	57	0	2557476864	50	4231
2026-01-02 14:45:39.01	318.25	11.08	-44.6	-45.5	16.7	0.00e+00	0	56	0	2573205504	51	4143
2026-01-02 14:45:41.99	318.73	10.94	-44.8	-45.8	16.4	0.00e+00	0	57	0	2589982720	51	4265
2026-01-02 14:45:44.95	319.20	10.81	-44.9	-46.0	16.2	0.00e+00	0	56	0	2606759936	51	4360
2026-01-02 14:45:47.91	319.67	10.67	-44.9	-45.9	16.4	0.00e+00	0	57	0	2623537152	51	4311
2026-01-02 14:45:50.88	320.13	10.54	-44.6	-45.5	16.6	0.00e+00	0	57	0	2640314368	51	4142
2026-01-02 14:45:53.86	320.59	10.40	-44.4	-45.4	16.8	0.00e+00	0	56	0	2657091584	51	4077
2026-01-02 14:45:56.82	321.05	10.26	-44.2	-45.2	17.0	0.00e+00	0	57	0	2673868800	51	3973
2026-01-02 14:45:59.78	321.50	10.13	-44.4	-45.4	16.8	0.00e+00	0	57	0	2690646016	51	4094
2026-01-02 14:46:02.74	321.94	9.99	-44.6	-45.6	16.5	0.00e+00	0	57	0	2707423232	51	4184
2026-01-02 14:46:05.72	322.39	9.85	-44.6	-45.7	16.5	0.00e+00	0	57	0	2724200448	51	4196
2026-01-02 14:46:08.68	322.83	9.71	-44.6	-45.6	16.5	0.00e+00	0	56	0	2739929088	51	4191
2026-01-02 14:46:11.65	323.26	9.57	-44.8	-45.9	16.3	0.00e+00	0	57	0	2756706304	51	4292
2026-01-02 14:46:14.62	323.69	9.42	-44.9	-46.0	16.2	0.00e+00	0	57	0	2773483520	51	4367
2026-01-02 14:46:17.58	324.12	9.28	-45.1	-46.3	15.7	0.00e+00	0	57	0	2790260736	52	4260
2026-01-02 14:46:20.56	324.54	9.14	-45.0	-46.1	16.0	0.00e+00	0	56	0	2807037952	52	4162
2026-01-02 14:46:23.52	324.96	8.99	-45.0	-46.1	15.9	0.00e+00	0	57	0	2823815168	52	4175
2026-01-02 14:46:26.49	325.37	8.85	-45.2	-46.4	15.6	0.00e+00	0	56	0	2840592384	52	4298
2026-01-02 14:46:29.44	325.78	8.71	-45.2	-46.4	15.6	0.00e+00	0	57	0	2857369600	53	4075
2026-01-02 14:46:32.41	326.19	8.56	-45.3	-46.4	15.6	0.00e+00	0	57	0	2874146816	53	4094
2026-01-02 14:46:35.38	326.59	8.42	-45.1	-46.3	15.7	0.00e+00	0	57	0	2890924032	53	4030
2026-01-02 14:46:38.35	326.99	8.27	-45.2	-46.4	15.6	0.00e+00	0	57	0	2907701248	53	4076
2026-01-02 14:46:41.31	327.39	8.13	-44.9	-46.0	15.9	0.00e+00	0	57	0	2924478464	52	4140
2026-01-02 14:46:44.28	327.78	7.98	-45.0	-46.1	15.8	0.00e+00	0	57	0	2940207104	52	4183
2026-01-02 14:46:47.24	328.17	7.84	-45.2	-46.4	15.6	0.00e+00	0	57	0	2956984320	52	4295
2026-01-02 14:46:50.21	328.55	7.69	-45.6	-46.8	15.1	0.00e+00	0	57	0	2973761536	53	4291
2026-01-02 14:46:53.17	328.93	7.54	-45.2	-46.4	15.5	0.00e+00	0	57	0	2990538752	53	4069
2026-01-02 14:46:56.14	329.31	7.40	-45.6	-46.9	15.0	0.00e+00	0	57	0	3007315968	53	4303
2026-01-02 14:46:59.11	329.68	7.25	-45.2	-46.4	15.5	0.00e+00	0	57	0	3024093184	53	4065
2026-01-02 14:47:02.08	330.05	7.10	-45.3	-46.4	15.4	0.00e+00	0	57	0	3040870400	53	4089
2026-01-02 14:47:05.05	330.42	6.95	-45.2	-46.4	15.4	0.00e+00	0	57	0	3057647616	53	4075
2026-01-02 14:47:08.02	330.78	6.81	-45.1	-46.3	15.5	0.00e+00	0	57	0	3074424832	53	4041
2026-01-02 14:47:10.98	331.14	6.66	-45.3	-46.5	15.3	0.00e+00	0	57	0	3091202048	53	4138
2026-01-02 14:47:13.94	331.49	6.51	-45.3	-46.6	15.2	0.00e+00	0	57	0	3107979264	53	4158
2026-01-02 14:47:16.91	331.85	6.36	-45.5	-46.8	15.0	0.00e+00	0	57	0	3124756480	53	4251
2026-01-02 14:47:19.88	332.20	6.22	-45.7	-47.1	14.7	0.00e+00	0	57	0	3140485120	53	4392
2026-01-02 14:47:22.84	332.54	6.07	-45.9	-47.2	14.5	0.00e+00	0	57	0	3157262336	53	4478
2026-01-02 14:47:25.80	332.88	5.92	-45.8	-47.2	14.5	1.10e-06	0	57	0	3174039552	53	4452
2026-01-02 14:47:28.76	333.22	5.77	-45.8	-47.1	14.5	1.10e-06	0	57	0	3190816768	53	4424
2026-01-02 14:47:31.73	333.56	5.63	-45.7	-47.1	14.6	2.20e-06	0	57	0	3207593984	53	4400
2026-01-02 14:47:34.69	333.89	5.48	-45.8	-47.2	14.4	2.20e-06	0	57	0	3224371200	53	4452
2026-01-02 14:47:37.67	334.22	5.33	-45.8	-47.1	14.4	0.00e+00	0	57	0	3241148416	53	4426
2026-01-02 14:47:40.63	334.54	5.18	-45.9	-47.3	14.2	2.20e-06	0	57	0	3257925632	53	4537
2026-01-02 14:47:43.59	334.87	5.04	-45.8	-47.2	14.3	3.40e-06	0	57	0	3274702848	54	4232
2026-01-02 14:47:46.55	335.18	4.89	-52.4	-63.1	3.8	8.46e-01	0	57	104	3277848576	66	13257
2026-01-02 14:47:49.52	335.50	4.74	-52.5	-63.2	3.8	8.47e-01	0	57	104	3277848576	67	12659
2026-01-02 14:47:52.50	335.82	4.60	-52.7	-63.6	3.8	8.46e-01	0	57	104	3277848576	67	13164
2026-01-02 14:47:55.46	336.13	4.45	-52.8	-63.7	3.8	8.46e-01	0	57	104	3277848576	67	13291
2026-01-02 14:47:58.43	336.44	4.30	-52.9	-63.7	3.8	8.45e-01	0	57	104	3277848576	67	13383
2026-01-02 14:48:01.40	336.74	4.16	-52.9	-63.8	3.8	8.46e-01	0	57	104	3277848576	67	13472
2026-01-02 14:48:04.37	337.04	4.01	-53.2	-64.0	3.8	8.46e-01	0	57	104	3277848576	68	12970
2026-01-02 14:48:07.35	337.34	3.86	-53.1	-64.0	3.8	8.46e-01	0	57	104	3277848576	68	12979
2026-01-02 14:48:10.31	337.64	3.72	-53.2	-63.9	3.8	8.46e-01	0	57	104	3277848576	68	12956
2026-01-02 14:48:13.28	337.93	3.57	-53.2	-63.9	3.8	8.46e-01	0	57	104	3277848576	68	12904
2026-01-02 14:48:16.25	338.22	3.43	-53.1	-63.9	3.8	8.46e-01	0	57	104	3277848576	68	12898
2026-01-02 14:48:19.20	338.51	3.28	-53.2	-63.9	3.8	8.46e-01	0	57	104	3277848576	68	12946
2026-01-02 14:48:22.17	338.80	3.14	-53.2	-63.9	3.8	8.46e-01	0	57	104	3277848576	68	12908
2026-01-02 14:48:25.13	339.08	2.99	-53.1	-63.9	3.8	8.46e-01	0	57	104	3277848576	68	12959

#Closed at: 2026-01-02 14:48:27
#Recorded file [3277 MB]: D:/Data/31026_260102_174744.dat