passes_logs/2026/01/02/R3.0SM8_Murmansk_STILSPACE/R3.0SM8_Murmansk_STILSPACE__20260102_221536_SUOMI_NPP_rec.log

#Pass ID: 20260102_221536_SUOMI NPP
#Satellite: SUOMI NPP
#Configuration: NPP
#almurnet v.1.7.20240730
#Start time: 2026-01-02 22:15:38

#Version: 2.2.20231116
#Station: R3.0SM8_Murmansk_STILSPACE
#Location: 33.092731 lon 68.902999 lat
#TLE: 1 37849U 11061A   26001.07732418  .00000182  00000+0  10735-3 0  9990
#TLE: 2 37849  98.7795 303.2470 0002580  87.2016 272.9455 14.19520779734739

#Time	Az	El	Level	Level2	SNR	BER	BlckErr	Temp	State	Recorded	gain1	gain2
2026-01-02 22:15:38.46	20.25	3.09	-51.7	-65.7	3.8	1.49e+00	0	46	0	0	66	17860
2026-01-02 22:15:41.43	20.49	3.25	-52.7	-66.6	3.8	1.49e+00	0	46	104	0	68	17561
2026-01-02 22:15:44.40	20.73	3.42	-52.2	-66.1	3.8	1.49e+00	0	46	104	0	67	17651
2026-01-02 22:15:47.37	20.97	3.58	-51.7	-65.3	3.8	1.49e+00	0	46	104	0	66	17010
2026-01-02 22:15:50.33	21.21	3.75	-51.8	-65.5	3.8	1.49e+00	0	47	104	0	66	17385
2026-01-02 22:15:53.29	21.46	3.91	-51.8	-65.6	3.8	1.49e+00	0	47	104	0	66	17520
2026-01-02 22:15:56.26	21.71	4.08	-51.6	-65.5	3.8	1.49e+00	0	47	104	0	66	17328
2026-01-02 22:15:59.24	21.96	4.24	-51.8	-65.6	3.8	1.49e+00	0	47	104	0	66	17495
2026-01-02 22:16:02.21	22.22	4.41	-51.7	-65.0	3.8	1.49e+00	0	48	104	0	66	16486
2026-01-02 22:16:05.18	22.48	4.58	-51.7	-64.7	3.8	1.49e+00	0	48	104	0	66	15897
2026-01-02 22:16:08.15	22.74	4.75	-51.4	-62.8	4.0	1.49e+00	0	48	104	0	65	13518
2026-01-02 22:16:11.12	23.00	4.92	-50.7	-57.6	6.7	3.49e-01	0	48	0	4194304	64	7871
2026-01-02 22:16:14.08	23.27	5.09	-50.4	-55.7	8.7	3.64e-02	0	48	0	9437184	63	6685
2026-01-02 22:16:17.04	23.54	5.26	-50.2	-54.9	9.6	1.75e-02	0	49	0	14680064	63	6116
2026-01-02 22:16:20.01	23.81	5.43	-49.7	-53.6	11.0	2.66e-03	0	49	0	20971520	62	5552
2026-01-02 22:16:22.99	24.09	5.60	-49.5	-53.2	11.5	9.19e-04	0	49	0	26214400	62	5325
2026-01-02 22:16:25.94	24.36	5.77	-49.8	-53.7	11.0	1.41e-03	0	49	0	31457280	62	5607
2026-01-02 22:16:28.90	24.64	5.94	-49.9	-54.1	10.7	2.28e-03	0	49	0	36700160	62	5890
2026-01-02 22:16:31.87	24.93	6.12	-49.8	-54.0	10.8	2.34e-03	0	49	0	42991616	62	5790
2026-01-02 22:16:34.82	25.22	6.29	-49.8	-53.7	11.1	1.85e-03	0	50	0	48234496	62	5640
2026-01-02 22:16:37.80	25.51	6.46	-49.5	-53.2	11.7	8.85e-04	0	50	0	53477376	62	5286
2026-01-02 22:16:40.77	25.80	6.64	-49.4	-52.8	12.1	2.91e-04	0	50	0	59768832	61	5349
2026-01-02 22:16:43.74	26.10	6.81	-49.2	-52.5	12.3	1.65e-04	0	50	0	65011712	61	5208
2026-01-02 22:16:46.70	26.40	6.99	-49.1	-52.2	12.7	6.86e-05	0	50	0	70254592	61	5022
2026-01-02 22:16:49.68	26.71	7.17	-49.3	-52.8	12.1	2.40e-04	0	50	0	76546048	61	5359
2026-01-02 22:16:52.64	27.02	7.34	-49.4	-52.8	12.2	2.28e-04	0	50	0	81788928	61	5362
2026-01-02 22:16:55.60	27.33	7.52	-49.3	-52.6	12.4	2.17e-04	0	51	0	87031808	61	5244
2026-01-02 22:16:58.57	27.64	7.70	-49.0	-51.9	13.1	2.74e-05	0	51	0	92274688	61	4865
2026-01-02 22:17:01.54	27.96	7.88	-49.0	-52.1	12.9	3.05e-05	0	51	0	98566144	60	5257
2026-01-02 22:17:04.50	28.29	8.06	-49.1	-52.2	12.9	4.42e-05	0	51	0	103809024	60	5308
2026-01-02 22:17:07.47	28.61	8.24	-49.2	-52.3	12.7	5.11e-05	0	51	0	109051904	60	5374
2026-01-02 22:17:10.44	28.94	8.42	-48.9	-51.9	13.2	2.82e-05	0	51	0	115343360	60	5146
2026-01-02 22:17:13.41	29.28	8.60	-49.3	-52.4	12.7	5.95e-05	0	51	0	120586240	60	5418
2026-01-02 22:17:16.37	29.62	8.78	-49.2	-52.3	12.8	6.71e-05	0	51	0	125829120	60	5351
2026-01-02 22:17:19.34	29.96	8.96	-49.2	-52.3	12.8	8.31e-05	0	52	0	132120576	60	5359
2026-01-02 22:17:22.32	30.31	9.14	-49.0	-51.9	13.3	2.59e-05	0	52	0	137363456	60	5113
2026-01-02 22:17:25.29	30.66	9.33	-48.9	-51.7	13.4	2.28e-05	0	52	0	142606336	60	5032
2026-01-02 22:17:28.26	31.02	9.51	-48.6	-51.2	13.9	3.00e-06	0	52	0	148897792	60	4740
2026-01-02 22:17:31.20	31.37	9.69	-48.6	-51.2	14.0	2.20e-06	0	52	0	154140672	60	4744
2026-01-02 22:17:34.17	31.74	9.87	-48.7	-51.3	13.8	6.80e-06	0	52	0	159383552	60	4801
2026-01-02 22:17:37.15	32.11	10.06	-48.8	-51.6	13.5	1.83e-05	0	52	0	164626432	60	4979
2026-01-02 22:17:40.11	32.48	10.24	-48.5	-51.0	14.3	7.00e-07	0	52	0	170917888	60	4604
2026-01-02 22:17:43.07	32.86	10.43	-48.8	-51.5	13.7	4.50e-06	0	53	0	176160768	59	5207
2026-01-02 22:17:46.03	33.24	10.61	-49.0	-51.7	13.5	7.60e-06	0	53	0	181403648	59	5315
2026-01-02 22:17:48.99	33.62	10.80	-49.1	-51.9	13.4	9.10e-06	0	52	0	187695104	60	5110
2026-01-02 22:17:51.95	34.02	10.98	-49.0	-51.7	13.5	3.80e-06	0	53	0	192937984	60	5034
2026-01-02 22:17:54.92	34.41	11.17	-49.1	-52.1	13.2	4.11e-05	0	53	0	198180864	60	5230
2026-01-02 22:17:57.89	34.81	11.36	-49.2	-52.1	13.1	3.81e-05	0	53	0	204472320	60	5278
2026-01-02 22:18:00.87	35.22	11.54	-49.2	-52.1	13.1	4.11e-05	0	53	0	209715200	60	5274
2026-01-02 22:18:03.84	35.63	11.73	-49.3	-52.2	13.0	1.90e-05	0	53	0	214958080	60	5325
2026-01-02 22:18:06.82	36.05	11.92	-49.2	-52.1	13.2	2.28e-05	0	53	0	221249536	60	5227
2026-01-02 22:18:09.77	36.47	12.10	-49.4	-52.4	12.9	5.64e-05	0	53	0	226492416	60	5444
2026-01-02 22:18:12.73	36.90	12.29	-48.8	-51.5	13.9	6.80e-06	0	53	0	231735296	60	4876
2026-01-02 22:18:15.69	37.33	12.48	-48.4	-50.8	14.6	0.00e+00	0	53	0	236978176	59	4761
2026-01-02 22:18:18.66	37.77	12.66	-48.3	-50.6	14.7	7.00e-07	0	54	0	243269632	59	4669
2026-01-02 22:18:21.63	38.21	12.85	-48.0	-50.2	15.1	0.00e+00	0	54	0	248512512	58	4725
2026-01-02 22:18:24.59	38.66	13.04	-48.3	-50.6	14.8	7.00e-07	0	54	0	253755392	58	4938
2026-01-02 22:18:27.56	39.11	13.22	-48.5	-50.9	14.5	7.00e-07	0	54	0	260046848	59	4827
2026-01-02 22:18:30.52	39.57	13.41	-48.4	-50.9	14.5	0.00e+00	0	54	0	265289728	59	4862
2026-01-02 22:18:33.48	40.03	13.59	-48.3	-50.5	14.8	0.00e+00	0	54	0	270532608	59	4640
2026-01-02 22:18:36.46	40.50	13.78	-48.4	-50.7	14.6	0.00e+00	0	54	0	275775488	59	4755
2026-01-02 22:18:39.44	40.98	13.97	-48.4	-50.8	14.6	0.00e+00	0	54	0	282066944	59	4766
2026-01-02 22:18:42.40	41.46	14.15	-48.7	-51.1	14.2	3.00e-06	0	54	0	287309824	59	4980
2026-01-02 22:18:45.36	41.95	14.34	-48.3	-50.6	14.8	0.00e+00	0	54	0	292552704	59	4681
2026-01-02 22:18:48.34	42.44	14.52	-48.0	-50.2	15.2	0.00e+00	0	54	0	298844160	59	4456
2026-01-02 22:18:51.31	42.95	14.70	-48.4	-50.6	14.7	0.00e+00	0	54	0	304087040	59	4704
2026-01-02 22:18:54.27	43.45	14.89	-48.6	-51.1	14.3	7.00e-07	0	54	0	309329920	59	4947
2026-01-02 22:18:57.24	43.96	15.07	-48.6	-51.1	14.3	0.00e+00	0	54	0	315621376	59	4928
2026-01-02 22:19:00.20	44.48	15.25	-48.4	-50.8	14.5	7.00e-07	0	54	0	320864256	59	4812
2026-01-02 22:19:03.18	45.00	15.43	-48.1	-50.3	15.1	0.00e+00	0	55	0	326107136	59	4533
2026-01-02 22:19:06.14	45.53	15.61	-47.9	-50.0	15.4	0.00e+00	0	55	0	332398592	58	4619
2026-01-02 22:19:09.10	46.07	15.79	-47.8	-49.8	15.5	0.00e+00	0	55	0	337641472	58	4545
2026-01-02 22:19:12.07	46.61	15.97	-47.9	-50.0	15.3	0.00e+00	0	55	0	342884352	58	4651
2026-01-02 22:19:15.03	47.16	16.14	-48.1	-50.4	15.0	7.00e-07	0	55	0	348127232	58	4850
2026-01-02 22:19:17.99	47.71	16.32	-48.0	-50.2	15.2	0.00e+00	0	55	0	354418688	58	4719
2026-01-02 22:19:20.95	48.27	16.49	-48.0	-50.3	15.1	0.00e+00	0	55	0	359661568	58	4775
2026-01-02 22:19:23.92	48.84	16.66	-48.5	-51.0	14.5	0.00e+00	0	55	0	364904448	58	5186
2026-01-02 22:19:26.88	49.42	16.83	-48.6	-51.0	14.4	1.50e-06	0	55	0	371195904	59	4926
2026-01-02 22:19:29.85	50.00	17.00	-48.4	-50.7	14.7	0.00e+00	0	55	0	376438784	59	4732
2026-01-02 22:19:32.80	50.58	17.17	-48.6	-51.0	14.4	0.00e+00	0	55	0	381681664	59	4922
2026-01-02 22:19:35.76	51.17	17.34	-48.9	-51.6	13.8	6.10e-06	0	55	0	387973120	59	5270
2026-01-02 22:19:38.74	51.77	17.50	-48.8	-51.5	14.0	1.50e-06	0	55	0	393216000	60	4880
2026-01-02 22:19:41.71	52.38	17.66	-48.9	-51.7	13.7	2.20e-06	0	55	0	398458880	60	5013
2026-01-02 22:19:44.68	52.99	17.83	-49.3	-52.3	13.1	1.75e-05	0	55	0	404750336	60	5352
2026-01-02 22:19:47.65	53.61	17.98	-49.2	-52.1	13.3	1.67e-05	0	55	0	409993216	60	5253
2026-01-02 22:19:50.61	54.24	18.14	-49.4	-52.5	13.0	3.50e-05	0	55	0	415236096	60	5471
2026-01-02 22:19:53.55	54.86	18.29	-49.5	-52.6	12.9	1.21e-04	0	55	0	420478976	61	5239
2026-01-02 22:19:56.51	55.50	18.44	-49.4	-52.6	12.8	6.10e-05	0	55	0	426770432	61	5239
2026-01-02 22:19:59.49	56.15	18.59	-49.4	-52.4	13.0	7.78e-05	0	56	0	432013312	61	5155
2026-01-02 22:20:02.45	56.79	18.74	-49.1	-52.0	13.4	1.14e-05	0	56	0	437256192	61	4896
2026-01-02 22:20:05.41	57.45	18.88	-49.2	-52.0	13.4	1.60e-05	0	55	0	443547648	61	4884
2026-01-02 22:20:08.39	58.11	19.02	-49.0	-51.9	13.5	1.75e-05	0	56	0	448790528	61	4851
2026-01-02 22:20:11.35	58.78	19.16	-48.2	-50.3	15.1	0.00e+00	0	55	0	454033408	59	4520
2026-01-02 22:20:14.33	59.46	19.30	-48.4	-50.6	14.8	0.00e+00	0	56	0	460324864	59	4698
2026-01-02 22:20:17.30	60.14	19.43	-48.4	-50.6	14.9	0.00e+00	0	56	0	465567744	59	4677
2026-01-02 22:20:20.28	60.82	19.56	-48.1	-50.3	15.2	0.00e+00	0	56	0	470810624	59	4503
2026-01-02 22:20:23.24	61.51	19.68	-48.2	-50.3	15.2	0.00e+00	0	56	0	476053504	59	4536
2026-01-02 22:20:26.21	62.21	19.80	-48.0	-50.1	15.4	0.00e+00	0	56	0	482344960	59	4423
2026-01-02 22:20:29.18	62.91	19.92	-48.0	-50.0	15.5	0.00e+00	0	56	0	487587840	58	4637
2026-01-02 22:20:32.13	63.62	20.03	-48.7	-51.0	14.5	0.00e+00	0	56	0	492830720	59	4912
2026-01-02 22:20:35.09	64.33	20.14	-48.7	-51.1	14.5	7.00e-07	0	56	0	499122176	59	4935
2026-01-02 22:20:38.05	65.04	20.25	-49.0	-51.6	14.0	7.00e-07	0	56	0	504365056	59	5230
2026-01-02 22:20:41.01	65.76	20.35	-49.3	-52.0	13.5	9.10e-06	0	56	0	509607936	60	5179
2026-01-02 22:20:43.98	66.49	20.45	-48.5	-50.7	14.9	0.00e+00	0	56	0	515899392	59	4732
2026-01-02 22:20:46.95	67.22	20.54	-48.6	-50.9	14.7	0.00e+00	0	56	0	521142272	59	4818
2026-01-02 22:20:49.92	67.96	20.63	-48.2	-50.3	15.2	0.00e+00	0	56	0	526385152	59	4534
2026-01-02 22:20:52.88	68.69	20.72	-48.5	-50.7	14.9	0.00e+00	0	56	0	531628032	59	4737
2026-01-02 22:20:55.84	69.44	20.80	-48.4	-50.6	14.9	0.00e+00	0	56	0	537919488	59	4663
2026-01-02 22:20:58.80	70.18	20.87	-48.2	-50.3	15.3	0.00e+00	0	56	0	543162368	59	4497
2026-01-02 22:21:01.78	70.94	20.95	-48.8	-51.2	14.4	0.00e+00	0	56	0	548405248	59	4987
2026-01-02 22:21:04.75	71.69	21.01	-48.3	-50.5	15.1	0.00e+00	0	56	0	554696704	59	4599
2026-01-02 22:21:07.73	72.45	21.08	-48.8	-51.1	14.4	0.00e+00	0	56	0	559939584	59	4967
2026-01-02 22:21:10.70	73.21	21.13	-48.7	-51.1	14.5	1.50e-06	0	56	0	565182464	59	4938
2026-01-02 22:21:13.67	73.97	21.19	-47.7	-49.7	15.8	7.00e-07	0	56	0	571473920	58	4458
2026-01-02 22:21:16.64	74.74	21.23	-47.9	-49.9	15.6	0.00e+00	0	56	0	576716800	58	4586
2026-01-02 22:21:19.62	75.51	21.28	-47.8	-49.8	15.7	0.00e+00	0	56	0	581959680	58	4495
2026-01-02 22:21:22.59	76.28	21.31	-48.1	-50.2	15.3	0.00e+00	0	56	0	588251136	58	4729
2026-01-02 22:21:25.56	77.05	21.35	-48.2	-50.2	15.3	7.00e-07	0	56	0	593494016	58	4750
2026-01-02 22:21:28.51	77.82	21.37	-48.2	-50.2	15.3	0.00e+00	0	56	0	598736896	58	4757
2026-01-02 22:21:31.47	78.59	21.39	-48.8	-51.2	14.4	7.00e-07	0	56	0	603979776	59	5000
2026-01-02 22:21:34.43	79.37	21.41	-48.7	-51.1	14.5	7.00e-07	0	56	0	610271232	59	4934
2026-01-02 22:21:37.41	80.15	21.42	-48.5	-50.7	14.8	0.00e+00	0	56	0	615514112	59	4750
2026-01-02 22:21:40.36	80.92	21.43	-48.3	-50.4	15.1	0.00e+00	0	57	0	620756992	59	4563
2026-01-02 22:21:43.32	81.69	21.43	-48.5	-50.8	14.8	0.00e+00	0	56	0	627048448	59	4768
2026-01-02 22:21:46.29	82.47	21.42	-48.8	-51.3	14.2	2.20e-06	0	56	0	632291328	59	5091
2026-01-02 22:21:49.26	83.25	21.41	-48.3	-50.4	15.2	0.00e+00	0	56	0	637534208	59	4562
2026-01-02 22:21:52.23	84.02	21.40	-47.9	-50.0	15.6	0.00e+00	0	56	0	643825664	59	4349
2026-01-02 22:21:55.20	84.80	21.38	-47.6	-49.4	16.1	0.00e+00	0	56	0	649068544	58	4321
2026-01-02 22:21:58.17	85.57	21.35	-47.6	-49.4	16.2	0.00e+00	0	56	0	654311424	58	4298
2026-01-02 22:22:01.13	86.34	21.32	-47.9	-49.8	15.7	0.00e+00	0	56	0	660602880	58	4544
2026-01-02 22:22:04.09	87.11	21.29	-47.8	-49.8	15.7	0.00e+00	0	57	0	665845760	58	4497
2026-01-02 22:22:07.05	87.88	21.25	-48.0	-50.0	15.5	0.00e+00	0	57	0	671088640	58	4610
2026-01-02 22:22:10.02	88.64	21.20	-48.1	-50.2	15.4	0.00e+00	0	57	0	676331520	58	4710
2026-01-02 22:22:12.99	89.41	21.15	-47.9	-49.9	15.6	0.00e+00	0	56	0	682622976	58	4595
2026-01-02 22:22:15.95	90.17	21.10	-48.1	-50.1	15.3	0.00e+00	0	57	0	687865856	58	4704
2026-01-02 22:22:18.92	90.93	21.03	-48.1	-50.2	15.3	0.00e+00	0	57	0	693108736	58	4748
2026-01-02 22:22:21.89	91.69	20.97	-48.4	-50.6	14.9	7.00e-07	0	57	0	699400192	58	4970
2026-01-02 22:22:24.85	92.44	20.90	-48.5	-50.8	14.7	0.00e+00	0	57	0	704643072	59	4786
2026-01-02 22:22:27.82	93.19	20.82	-48.0	-50.1	15.4	0.00e+00	0	57	0	709885952	59	4408
2026-01-02 22:22:30.77	93.93	20.75	-47.6	-49.5	16.0	0.00e+00	0	57	0	716177408	58	4371
2026-01-02 22:22:33.74	94.67	20.66	-47.7	-49.6	15.9	0.00e+00	0	57	0	721420288	58	4438
2026-01-02 22:22:36.70	95.41	20.57	-47.4	-49.2	16.3	0.00e+00	0	57	0	726663168	57	4453
2026-01-02 22:22:39.67	96.14	20.48	-47.4	-49.2	16.3	0.00e+00	0	57	0	731906048	57	4450
2026-01-02 22:22:42.65	96.87	20.38	-47.8	-49.7	15.7	0.00e+00	0	57	0	738197504	57	4751
2026-01-02 22:22:45.61	97.60	20.28	-47.7	-49.6	15.9	0.00e+00	0	57	0	743440384	57	4696
2026-01-02 22:22:48.58	98.32	20.18	-47.4	-49.1	16.3	0.00e+00	0	57	0	748683264	57	4434
2026-01-02 22:22:51.54	99.03	20.07	-47.6	-49.4	16.1	0.00e+00	0	57	0	754974720	57	4590
2026-01-02 22:22:54.52	99.75	19.95	-47.7	-49.7	15.8	0.00e+00	0	57	0	760217600	57	4721
2026-01-02 22:22:57.48	100.45	19.84	-47.8	-49.8	15.7	0.00e+00	0	57	0	765460480	57	4800
2026-01-02 22:23:00.44	101.15	19.72	-47.4	-49.1	16.3	0.00e+00	0	57	0	771751936	57	4441
2026-01-02 22:23:03.42	101.84	19.59	-47.7	-49.6	15.9	0.00e+00	0	57	0	776994816	57	4665
2026-01-02 22:23:06.39	102.53	19.46	-48.0	-50.1	15.4	0.00e+00	0	57	0	782237696	57	4974
2026-01-02 22:23:09.36	103.22	19.33	-47.9	-49.9	15.5	0.00e+00	0	57	0	787480576	58	4594
2026-01-02 22:23:12.33	103.90	19.20	-47.6	-49.4	16.0	0.00e+00	0	57	0	793772032	58	4336
2026-01-02 22:23:15.30	104.57	19.06	-47.4	-49.3	16.2	0.00e+00	0	57	0	799014912	57	4496
2026-01-02 22:23:18.28	105.24	18.92	-47.9	-50.0	15.5	0.00e+00	0	57	0	804257792	57	4882
2026-01-02 22:23:21.25	105.90	18.78	-48.8	-51.4	14.0	7.00e-07	0	57	0	810549248	59	5122
2026-01-02 22:23:24.21	106.55	18.63	-48.9	-51.6	13.9	4.50e-06	0	57	0	815792128	59	5222
2026-01-02 22:23:27.19	107.20	18.48	-49.0	-51.8	13.7	6.10e-06	0	57	0	821035008	60	5045
2026-01-02 22:23:30.15	107.84	18.33	-49.1	-51.9	13.6	6.10e-06	0	57	0	827326464	60	5134
2026-01-02 22:23:33.12	108.48	18.18	-48.8	-51.5	13.9	3.00e-06	0	57	0	832569344	60	4900
2026-01-02 22:23:36.09	109.11	18.02	-48.7	-51.3	14.2	2.20e-06	0	57	0	837812224	60	4770
2026-01-02 22:23:39.06	109.73	17.86	-48.6	-51.2	14.2	1.50e-06	0	57	0	844103680	60	4728
2026-01-02 22:23:42.02	110.34	17.70	-48.9	-51.7	13.8	1.50e-06	0	57	0	849346560	60	4985
2026-01-02 22:23:45.00	110.96	17.54	-49.1	-52.0	13.3	1.83e-05	0	57	0	854589440	60	5212
2026-01-02 22:23:47.97	111.56	17.37	-49.1	-52.0	13.4	1.06e-05	0	57	0	860880896	60	5188
2026-01-02 22:23:50.93	112.16	17.21	-48.6	-51.1	14.4	3.00e-06	0	57	0	866123776	60	4657
2026-01-02 22:23:53.89	112.75	17.04	-48.6	-51.2	14.4	2.20e-06	0	57	0	871366656	60	4706
2026-01-02 22:23:56.86	113.33	16.87	-48.9	-51.7	13.7	2.20e-06	0	57	0	876609536	60	5015
2026-01-02 22:23:59.82	113.91	16.70	-48.5	-51.0	14.5	7.00e-07	0	57	0	882900992	60	4639
2026-01-02 22:24:02.80	114.48	16.52	-48.4	-50.7	14.8	7.00e-07	0	57	0	888143872	59	4709
2026-01-02 22:24:05.77	115.05	16.35	-48.5	-50.9	14.5	0.00e+00	0	57	0	893386752	59	4841
2026-01-02 22:24:08.73	115.60	16.17	-48.3	-50.5	14.9	7.00e-07	0	57	0	899678208	59	4635
2026-01-02 22:24:11.70	116.16	15.99	-48.3	-50.6	14.8	0.00e+00	0	57	0	904921088	59	4688
2026-01-02 22:24:14.67	116.70	15.82	-49.0	-51.7	13.7	1.50e-06	0	57	0	910163968	59	5322
2026-01-02 22:24:17.62	117.24	15.64	-48.5	-50.9	14.5	0.00e+00	0	57	0	916455424	59	4845
2026-01-02 22:24:20.59	117.77	15.46	-48.5	-50.8	14.6	1.50e-06	0	57	0	921698304	59	4794
2026-01-02 22:24:23.55	118.30	15.28	-48.3	-50.6	14.8	0.00e+00	0	57	0	926941184	59	4656
2026-01-02 22:24:26.53	118.82	15.09	-48.8	-51.3	14.1	1.50e-06	0	57	0	932184064	59	5100
2026-01-02 22:24:29.49	119.34	14.91	-48.7	-51.2	14.2	7.00e-07	0	57	0	938475520	59	5035
2026-01-02 22:24:32.45	119.85	14.73	-48.8	-51.3	14.1	0.00e+00	0	57	0	943718400	59	5065
2026-01-02 22:24:35.41	120.35	14.54	-49.3	-52.3	13.1	3.73e-05	0	57	0	948961280	60	5352
2026-01-02 22:24:38.38	120.84	14.36	-48.8	-51.4	14.0	1.37e-05	0	57	0	955252736	60	4868
2026-01-02 22:24:41.35	121.34	14.17	-47.9	-50.0	15.4	0.00e+00	0	57	0	960495616	59	4368
2026-01-02 22:24:44.32	121.82	13.99	-47.9	-50.0	15.4	0.00e+00	0	57	0	965738496	58	4601
2026-01-02 22:24:47.29	122.30	13.80	-47.9	-50.0	15.4	0.00e+00	0	57	0	972029952	58	4648
2026-01-02 22:24:50.26	122.78	13.61	-47.3	-49.1	16.3	0.00e+00	0	57	0	977272832	57	4405
2026-01-02 22:24:53.23	123.24	13.42	-47.3	-49.0	16.4	0.00e+00	0	57	0	982515712	57	4380
2026-01-02 22:24:56.19	123.70	13.24	-47.9	-50.0	15.4	0.00e+00	0	57	0	988807168	57	4881
2026-01-02 22:24:59.16	124.16	13.05	-48.4	-50.7	14.6	0.00e+00	0	57	0	994050048	58	5028
2026-01-02 22:25:02.13	124.61	12.86	-48.2	-50.5	14.8	0.00e+00	0	57	0	999292928	58	4915
2026-01-02 22:25:05.10	125.06	12.67	-48.5	-50.8	14.5	1.50e-06	0	57	0	1004535808	58	5096
2026-01-02 22:25:08.08	125.50	12.48	-48.7	-51.2	14.2	7.00e-07	0	57	0	1010827264	59	4998
2026-01-02 22:25:11.06	125.94	12.29	-48.6	-51.0	14.4	7.00e-07	0	57	0	1016070144	59	4914
2026-01-02 22:25:14.04	126.37	12.11	-48.0	-49.9	15.4	0.00e+00	0	57	0	1021313024	59	4324
2026-01-02 22:25:17.01	126.79	11.92	-48.2	-50.2	15.2	0.00e+00	0	57	0	1027604480	58	4736
2026-01-02 22:25:19.97	127.21	11.73	-48.5	-50.8	14.7	0.00e+00	0	57	0	1032847360	58	5050
2026-01-02 22:25:22.93	127.62	11.54	-48.6	-50.8	14.6	7.00e-07	0	57	0	1038090240	59	4800
2026-01-02 22:25:25.90	128.03	11.35	-48.9	-51.4	14.0	1.50e-06	0	57	0	1044381696	59	5144
2026-01-02 22:25:28.88	128.43	11.17	-49.1	-51.7	13.6	4.50e-06	0	57	0	1049624576	60	5029
2026-01-02 22:25:31.84	128.83	10.98	-49.3	-52.2	13.1	3.28e-05	0	57	0	1054867456	61	5024
2026-01-02 22:25:34.80	129.22	10.79	-49.4	-52.3	13.0	3.20e-05	0	57	0	1061158912	61	5094
2026-01-02 22:25:37.77	129.61	10.61	-48.8	-51.3	14.0	7.00e-07	0	57	0	1066401792	60	4812
2026-01-02 22:25:40.74	130.00	10.42	-48.4	-50.7	14.6	0.00e+00	0	57	0	1071644672	60	4485
2026-01-02 22:25:43.70	130.38	10.23	-48.1	-50.2	15.1	0.00e+00	0	57	0	1076887552	59	4457
2026-01-02 22:25:46.66	130.75	10.05	-48.5	-50.8	14.5	7.00e-07	0	57	0	1083179008	59	4806
2026-01-02 22:25:49.63	131.12	9.86	-48.8	-51.3	14.1	0.00e+00	0	57	0	1088421888	59	5049
2026-01-02 22:25:52.59	131.49	9.68	-49.0	-51.6	13.7	7.60e-06	0	57	0	1093664768	59	5262
2026-01-02 22:25:55.56	131.85	9.49	-49.0	-51.7	13.6	9.10e-06	0	57	0	1099956224	60	4987
2026-01-02 22:25:58.53	132.20	9.31	-49.3	-52.2	13.1	2.44e-05	0	57	0	1105199104	60	5284
2026-01-02 22:26:01.50	132.56	9.12	-49.6	-52.7	12.6	1.17e-04	0	57	0	1110441984	61	5308
2026-01-02 22:26:04.46	132.90	8.94	-49.5	-52.5	12.8	8.77e-05	0	57	0	1116733440	61	5184
2026-01-02 22:26:07.44	133.25	8.76	-49.5	-52.5	12.6	1.01e-04	0	57	0	1121976320	61	5215
2026-01-02 22:26:10.41	133.59	8.57	-49.0	-51.8	13.4	1.29e-05	0	57	0	1127219200	61	4772
2026-01-02 22:26:13.39	133.93	8.39	-48.9	-51.5	13.7	6.80e-06	0	57	0	1133510656	60	4886
2026-01-02 22:26:16.36	134.26	8.21	-49.3	-52.3	12.9	4.11e-05	0	57	0	1138753536	60	5350
2026-01-02 22:26:19.33	134.59	8.03	-49.6	-52.8	12.4	1.17e-04	0	57	0	1143996416	60	5662
2026-01-02 22:26:22.30	134.91	7.85	-49.4	-52.5	12.6	9.15e-05	0	57	0	1149239296	60	5514
2026-01-02 22:26:25.26	135.23	7.67	-49.2	-52.1	13.0	5.26e-05	0	57	0	1155530752	60	5265
2026-01-02 22:26:28.23	135.55	7.49	-49.2	-52.0	13.1	4.04e-05	0	57	0	1160773632	60	5217
2026-01-02 22:26:31.19	135.86	7.31	-48.9	-51.7	13.4	2.59e-05	0	57	0	1166016512	60	5023
2026-01-02 22:26:34.16	136.17	7.13	-49.1	-52.3	12.8	5.41e-05	0	57	0	1172307968	60	5347
2026-01-02 22:26:37.13	136.48	6.95	-49.4	-52.5	12.6	8.46e-05	0	57	0	1177550848	60	5504
2026-01-02 22:26:40.10	136.78	6.77	-49.7	-53.1	12.0	1.85e-04	0	57	0	1182793728	61	5576
2026-01-02 22:26:43.07	137.08	6.60	-49.9	-53.7	11.3	6.64e-04	0	57	0	1189085184	61	5962
2026-01-02 22:26:46.04	137.37	6.42	-49.3	-52.3	12.7	1.23e-04	0	57	0	1194328064	61	5091
2026-01-02 22:26:49.00	137.66	6.25	-49.2	-52.3	12.7	5.49e-05	0	57	0	1199570944	61	5079
2026-01-02 22:26:51.97	137.95	6.07	-49.3	-52.5	12.5	8.31e-05	0	57	0	1205862400	61	5203
2026-01-02 22:26:54.94	138.24	5.90	-49.5	-52.9	12.1	4.04e-04	0	57	0	1211105280	61	5406
2026-01-02 22:26:57.89	138.52	5.72	-49.8	-53.5	11.4	1.18e-03	0	57	0	1216348160	61	5828
2026-01-02 22:27:00.86	138.80	5.55	-50.0	-54.0	10.9	2.63e-03	0	57	0	1221591040	62	5801
2026-01-02 22:27:03.83	139.07	5.38	-50.1	-54.3	10.6	2.97e-03	0	57	0	1227882496	62	6030
2026-01-02 22:27:06.81	139.35	5.20	-50.1	-54.4	10.5	3.25e-03	0	57	0	1233125376	62	6069
2026-01-02 22:27:09.77	139.62	5.03	-49.9	-53.8	11.1	9.89e-04	0	57	0	1238368256	62	5717
2026-01-02 22:27:12.73	139.88	4.86	-52.5	-66.5	3.8	1.49e+00	0	57	104	1239416832	66	19470
2026-01-02 22:27:15.70	140.15	4.69	-52.8	-66.7	3.8	1.49e+00	0	57	104	1239416832	67	18769
2026-01-02 22:27:18.66	140.41	4.52	-52.7	-66.8	3.8	1.49e+00	0	57	104	1239416832	67	19008
2026-01-02 22:27:21.63	140.66	4.35	-52.8	-66.8	3.8	1.49e+00	0	57	104	1239416832	67	19084
2026-01-02 22:27:24.60	140.92	4.18	-52.9	-66.9	3.8	1.49e+00	0	57	104	1239416832	67	19238
2026-01-02 22:27:27.57	141.17	4.02	-52.8	-66.9	3.8	1.49e+00	0	57	104	1239416832	67	19357
2026-01-02 22:27:30.53	141.42	3.85	-53.0	-67.1	3.8	1.49e+00	0	57	104	1239416832	68	18540
2026-01-02 22:27:33.50	141.67	3.68	-53.1	-67.1	3.8	1.49e+00	0	57	104	1239416832	68	18582
2026-01-02 22:27:36.48	141.91	3.52	-53.2	-67.1	3.8	1.49e+00	0	57	104	1239416832	68	18592
2026-01-02 22:27:39.45	142.15	3.35	-53.1	-67.1	3.8	1.49e+00	0	57	104	1239416832	68	18598
2026-01-02 22:27:42.43	142.39	3.18	-52.9	-67.1	3.8	1.49e+00	0	57	104	1239416832	68	18572
2026-01-02 22:27:45.41	142.63	3.02	-53.0	-67.0	3.8	1.49e+00	0	58	104	1239416832	68	18511

#Closed at: 2026-01-02 22:27:46
#Recorded file [1239 MB]: D:/Data/31026_260103_012710.dat