passes_logs/2026/01/02/R3.0SM8_Murmansk_STILSPACE/R3.0SM8_Murmansk_STILSPACE__20260102_070353_AQUA_rec.log

#Pass ID: 20260102_070353_AQUA
#Satellite: AQUA
#Configuration: AQUA
#almurnet v.1.7.20240730
#Start time: 2026-01-02 07:06:06

#Version: 2.2.20231116
#Station: R3.0SM8_Murmansk_STILSPACE
#Location: 33.092731 lon 68.902999 lat
#TLE: 1 27424U 02022A   25365.92641127  .00002078  00000+0  42628-3 0  9999
#TLE: 2 27424  98.4058 327.1196 0001962  94.7781 340.6230 14.61783896258835

#Time	Az	El	Level	Level2	SNR	BER	BlckErr	Temp	State	Recorded	gain1	gain2
2026-01-02 07:06:06.00	44.13	11.18	-52.5	-66.4	3.8	1.49e+00	0	57	0	0	67	18277
2026-01-02 07:06:07.97	43.81	11.31	-54.5	-74.4	3.8	7.46e-01	0	57	104	0	71	36974
2026-01-02 07:06:09.96	43.48	11.43	-54.5	-74.4	3.8	7.45e-01	0	57	104	0	71	37088
2026-01-02 07:06:11.93	43.15	11.56	-54.5	-74.4	3.8	7.47e-01	0	57	104	0	71	37007
2026-01-02 07:06:13.91	42.82	11.69	-54.4	-74.3	3.8	7.46e-01	0	57	104	0	71	36940
2026-01-02 07:06:15.90	42.48	11.81	-54.4	-74.3	3.8	7.45e-01	0	57	104	0	71	36820
2026-01-02 07:06:17.88	42.14	11.94	-54.4	-74.3	3.8	7.46e-01	0	57	104	0	71	36732
2026-01-02 07:06:19.86	41.80	12.06	-54.4	-74.3	3.8	7.44e-01	0	57	104	0	71	36676
2026-01-02 07:06:21.84	41.46	12.19	-54.3	-74.2	3.8	7.43e-01	0	57	104	0	71	36490
2026-01-02 07:06:23.83	41.11	12.32	-54.3	-74.2	3.8	7.45e-01	0	57	104	0	71	36263
2026-01-02 07:06:25.80	40.76	12.44	-54.3	-74.1	3.8	7.46e-01	0	58	104	0	71	36071
2026-01-02 07:06:27.78	40.40	12.56	-54.2	-74.1	3.8	7.44e-01	0	57	104	0	71	35795
2026-01-02 07:06:29.74	40.05	12.69	-54.1	-73.8	3.8	7.46e-01	0	58	104	0	71	34741
2026-01-02 07:06:31.71	39.69	12.81	-54.0	-73.8	3.8	7.47e-01	0	57	104	0	71	34566
2026-01-02 07:06:33.70	39.32	12.93	-54.0	-72.7	3.8	7.42e-01	0	57	104	0	71	30567
2026-01-02 07:06:35.68	38.95	13.06	-54.0	-73.4	3.8	7.42e-01	0	57	104	0	71	33272
2026-01-02 07:06:37.66	38.58	13.18	-54.0	-73.6	3.8	7.41e-01	0	57	104	0	71	33826
2026-01-02 07:06:39.65	38.21	13.30	-54.0	-73.1	3.8	7.44e-01	0	57	104	0	71	32037
2026-01-02 07:06:41.62	37.83	13.42	-54.0	-73.3	3.8	7.47e-01	0	57	104	0	71	32702
2026-01-02 07:06:43.61	37.45	13.54	-54.0	-73.5	3.8	7.45e-01	0	57	104	0	71	33475
2026-01-02 07:06:45.59	37.06	13.66	-54.0	-73.5	3.8	7.45e-01	0	58	104	0	71	33491
2026-01-02 07:06:47.56	36.68	13.78	-54.0	-73.0	3.8	7.44e-01	0	57	104	0	71	31696
2026-01-02 07:06:49.53	36.29	13.90	-53.9	-71.1	3.9	7.40e-01	0	57	104	0	71	25434
2026-01-02 07:06:51.51	35.89	14.02	-53.9	-70.5	4.2	7.42e-01	0	57	104	0	71	23755
2026-01-02 07:06:53.48	35.50	14.14	-53.9	-69.3	4.5	7.24e-01	0	57	104	0	71	20766
2026-01-02 07:06:55.46	35.09	14.26	-53.6	-64.1	8.3	6.38e-01	27	58	0	1572864	70	12072
2026-01-02 07:06:57.44	34.69	14.37	-52.5	-58.3	14.4	5.99e-01	0	57	0	5242880	68	6941
2026-01-02 07:06:59.42	34.28	14.49	-51.0	-54.6	18.1	6.04e-01	0	57	0	8912896	65	5382
2026-01-02 07:07:01.39	33.87	14.60	-50.8	-54.2	18.5	6.01e-01	0	58	0	12582912	65	5135
2026-01-02 07:07:03.38	33.45	14.72	-50.8	-54.1	18.6	6.03e-01	0	57	0	16252928	65	5093
2026-01-02 07:07:05.36	33.03	14.83	-50.8	-54.2	18.5	6.01e-01	0	57	0	19922944	65	5118
2026-01-02 07:07:07.33	32.61	14.94	-50.3	-53.2	19.6	6.02e-01	0	57	0	23592960	63	5134
2026-01-02 07:07:09.31	32.19	15.05	-49.4	-51.7	21.0	6.03e-01	0	57	0	27787264	62	4598
2026-01-02 07:07:11.28	31.76	15.16	-48.7	-50.7	22.0	6.02e-01	0	57	0	31457280	60	4578
2026-01-02 07:07:13.25	31.33	15.27	-48.2	-50.1	22.6	5.99e-01	0	57	0	35127296	60	4278
2026-01-02 07:07:15.24	30.89	15.38	-48.2	-50.1	22.6	6.04e-01	0	57	0	38797312	60	4249
2026-01-02 07:07:17.22	30.45	15.49	-48.5	-50.4	22.3	6.03e-01	0	57	0	42467328	60	4432
2026-01-02 07:07:19.20	30.01	15.60	-48.2	-50.1	22.6	6.01e-01	0	57	0	46137344	60	4259
2026-01-02 07:07:21.19	29.56	15.70	-48.5	-50.4	22.7	6.00e-01	0	57	0	49807360	59	4669
2026-01-02 07:07:23.16	29.11	15.81	-48.8	-50.8	22.3	6.03e-01	0	57	0	53477376	59	4886
2026-01-02 07:07:25.14	28.66	15.91	-48.6	-50.6	22.2	6.01e-01	0	57	0	57147392	60	4513
2026-01-02 07:07:27.13	28.20	16.01	-48.5	-50.5	22.2	6.05e-01	0	57	0	60817408	60	4463
2026-01-02 07:07:29.10	27.74	16.11	-48.4	-50.3	22.4	6.04e-01	0	57	0	64487424	60	4367
2026-01-02 07:07:31.06	27.29	16.21	-48.4	-50.4	22.3	6.04e-01	0	57	0	68157440	60	4426
2026-01-02 07:07:33.04	26.82	16.31	-48.2	-50.1	22.6	6.02e-01	0	58	0	71827456	60	4266
2026-01-02 07:07:35.02	26.35	16.40	-48.5	-50.4	22.6	6.02e-01	0	57	0	75497472	59	4702
2026-01-02 07:07:37.00	25.88	16.50	-48.5	-50.4	22.7	6.03e-01	0	57	0	79691776	59	4699
2026-01-02 07:07:38.99	25.40	16.59	-48.6	-50.5	22.6	6.02e-01	0	57	0	83361792	59	4737
2026-01-02 07:07:40.96	24.92	16.68	-48.9	-50.9	22.2	6.04e-01	0	57	0	87031808	59	4968
2026-01-02 07:07:42.94	24.44	16.77	-48.6	-50.5	22.2	6.04e-01	0	57	0	90701824	60	4493
2026-01-02 07:07:44.91	23.96	16.86	-48.5	-50.5	22.3	6.01e-01	0	57	0	94371840	60	4455
2026-01-02 07:07:46.88	23.47	16.94	-48.7	-50.7	22.0	6.00e-01	0	57	0	98041856	60	4594
2026-01-02 07:07:48.86	22.98	17.03	-48.7	-50.8	22.0	6.03e-01	0	57	0	101711872	60	4636
2026-01-02 07:07:50.84	22.49	17.11	-48.8	-51.0	21.8	6.03e-01	0	57	0	105381888	60	4712
2026-01-02 07:07:52.82	21.99	17.19	-48.5	-50.5	22.3	5.99e-01	0	57	0	109051904	60	4446
2026-01-02 07:07:54.79	21.49	17.27	-48.5	-50.4	22.3	6.04e-01	0	57	0	112721920	60	4436
2026-01-02 07:07:56.77	20.99	17.35	-48.4	-50.3	22.5	6.02e-01	0	57	0	116391936	60	4358
2026-01-02 07:07:58.75	20.48	17.43	-48.5	-50.4	22.4	6.00e-01	0	57	0	120061952	60	4436
2026-01-02 07:08:00.72	19.98	17.50	-48.3	-50.2	22.5	6.02e-01	0	57	0	123731968	60	4323
2026-01-02 07:08:02.69	19.47	17.57	-48.5	-50.5	22.3	6.02e-01	0	57	0	127401984	60	4451
2026-01-02 07:08:04.67	18.96	17.64	-48.5	-50.4	22.3	6.01e-01	0	57	0	131072000	60	4437
2026-01-02 07:08:06.65	18.44	17.71	-48.8	-50.9	21.9	6.03e-01	0	57	0	134742016	60	4689
2026-01-02 07:08:08.62	17.93	17.77	-48.8	-50.8	21.9	6.03e-01	0	57	0	138936320	60	4642
2026-01-02 07:08:10.60	17.41	17.84	-48.6	-50.6	22.1	6.03e-01	0	57	0	142606336	60	4539
2026-01-02 07:08:12.57	16.89	17.90	-48.9	-51.0	21.8	6.02e-01	0	57	0	146276352	60	4722
2026-01-02 07:08:14.55	16.36	17.96	-48.8	-50.9	21.9	6.01e-01	0	57	0	149946368	60	4656
2026-01-02 07:08:16.52	15.84	18.02	-48.4	-50.3	22.5	6.02e-01	0	57	0	153616384	60	4350
2026-01-02 07:08:18.51	15.30	18.07	-48.4	-50.3	22.4	6.01e-01	0	57	0	157286400	60	4373
2026-01-02 07:08:20.49	14.77	18.12	-48.5	-50.5	22.3	6.00e-01	0	57	0	160956416	60	4444
2026-01-02 07:08:22.48	14.24	18.17	-48.5	-50.5	22.3	6.04e-01	0	57	0	164626432	60	4468
2026-01-02 07:08:24.46	13.70	18.22	-48.6	-50.6	22.2	6.04e-01	0	57	0	168296448	60	4502
2026-01-02 07:08:26.44	13.16	18.27	-48.5	-50.4	22.3	6.02e-01	0	57	0	171966464	60	4440
2026-01-02 07:08:28.41	12.63	18.31	-48.6	-50.6	22.1	6.00e-01	0	57	0	175636480	60	4532
2026-01-02 07:08:30.39	12.09	18.35	-48.6	-50.6	22.2	6.02e-01	0	57	0	179306496	60	4497
2026-01-02 07:08:32.37	11.55	18.39	-48.5	-50.4	22.3	6.00e-01	0	57	0	183500800	60	4435
2026-01-02 07:08:34.35	11.00	18.42	-48.7	-50.8	21.9	6.03e-01	0	57	0	187170816	60	4636
2026-01-02 07:08:36.32	10.46	18.46	-48.7	-50.7	22.0	6.03e-01	0	57	0	190840832	60	4583
2026-01-02 07:08:38.30	9.92	18.49	-49.0	-51.2	21.6	6.02e-01	0	57	0	194510848	60	4848
2026-01-02 07:08:40.26	9.38	18.51	-48.7	-50.7	22.0	6.01e-01	0	57	0	198180864	60	4597
2026-01-02 07:08:42.23	8.83	18.54	-48.7	-50.7	22.0	6.01e-01	0	57	0	201850880	60	4595
2026-01-02 07:08:44.21	8.28	18.56	-48.7	-50.8	21.9	6.03e-01	0	57	0	205520896	60	4637
2026-01-02 07:08:46.17	7.74	18.58	-48.8	-50.9	21.9	6.02e-01	0	57	0	209190912	60	4657
2026-01-02 07:08:48.15	7.19	18.60	-48.8	-50.9	21.8	6.03e-01	0	57	0	212860928	60	4680
2026-01-02 07:08:50.13	6.64	18.62	-48.8	-51.0	21.6	6.04e-01	0	57	0	216530944	60	4717
2026-01-02 07:08:52.11	6.09	18.63	-49.0	-51.5	20.8	6.01e-01	0	57	0	220200960	60	5004
2026-01-02 07:08:54.09	5.54	18.64	-49.6	-52.6	19.6	6.04e-01	0	57	0	223870976	61	5341
2026-01-02 07:08:56.06	4.99	18.65	-50.3	-54.6	16.7	6.04e-01	0	57	0	227540992	62	6406
2026-01-02 07:08:58.05	4.43	18.65	-50.4	-56.7	13.7	6.03e-01	0	57	0	231211008	63	7674
2026-01-02 07:09:00.02	3.88	18.65	-50.5	-57.5	12.7	6.02e-01	0	57	0	234881024	63	8458
2026-01-02 07:09:02.01	3.33	18.65	-50.6	-58.6	11.3	6.10e-01	0	57	0	239075328	63	9576
2026-01-02 07:09:03.97	2.78	18.65	-50.5	-58.8	10.8	6.13e-01	0	57	0	242745344	63	9799
2026-01-02 07:09:05.94	2.23	18.64	-50.4	-55.8	14.8	6.02e-01	0	57	0	246415360	63	6904
2026-01-02 07:09:07.92	1.68	18.64	-49.8	-52.8	19.4	6.01e-01	0	57	0	250085376	63	4873
2026-01-02 07:09:09.89	1.13	18.62	-49.6	-52.2	20.5	6.02e-01	0	57	0	253755392	62	4857
2026-01-02 07:09:11.87	0.58	18.61	-49.0	-51.3	21.4	6.04e-01	0	57	0	257425408	61	4602
2026-01-02 07:09:13.84	0.03	18.59	-48.9	-51.0	21.6	6.00e-01	0	57	0	261095424	61	4493
2026-01-02 07:09:15.82	359.48	18.58	-49.0	-51.2	21.4	6.02e-01	0	57	0	264765440	61	4589
2026-01-02 07:09:17.80	358.93	18.55	-48.7	-50.8	21.7	6.01e-01	0	57	0	268435456	61	4379
2026-01-02 07:09:19.77	358.39	18.53	-48.4	-50.5	22.1	6.03e-01	0	57	0	272105472	60	4442
2026-01-02 07:09:21.75	357.84	18.50	-48.5	-50.6	22.0	6.02e-01	0	57	0	275775488	60	4500
2026-01-02 07:09:23.72	357.30	18.47	-48.7	-50.8	21.8	6.01e-01	0	57	0	279445504	60	4644
2026-01-02 07:09:25.69	356.75	18.44	-48.7	-50.8	21.8	6.05e-01	0	57	0	283115520	60	4606
2026-01-02 07:09:27.67	356.21	18.41	-49.0	-51.2	21.4	6.02e-01	0	57	0	286785536	60	4862
2026-01-02 07:09:29.64	355.67	18.37	-49.0	-51.3	21.3	6.04e-01	0	57	0	290455552	60	4923
2026-01-02 07:09:31.62	355.13	18.33	-49.0	-51.3	21.3	6.03e-01	0	57	0	294125568	60	4907
2026-01-02 07:09:33.60	354.59	18.29	-48.7	-50.8	21.8	6.02e-01	0	57	0	298319872	60	4601
2026-01-02 07:09:35.58	354.05	18.25	-48.8	-51.0	21.6	6.02e-01	0	57	0	301989888	60	4712
2026-01-02 07:09:37.54	353.52	18.20	-49.0	-51.3	21.3	6.04e-01	0	57	0	305659904	60	4886
2026-01-02 07:09:39.52	352.99	18.15	-49.1	-51.5	21.1	6.02e-01	0	57	0	309329920	60	4992
2026-01-02 07:09:41.51	352.45	18.10	-48.7	-50.8	21.6	6.04e-01	0	57	0	312999936	60	4631
2026-01-02 07:09:43.49	351.92	18.05	-48.5	-50.6	21.8	6.00e-01	0	57	0	316669952	60	4502
2026-01-02 07:09:45.46	351.40	17.99	-48.6	-50.7	21.6	6.01e-01	0	57	0	320339968	60	4581
2026-01-02 07:09:47.44	350.87	17.93	-48.4	-50.4	21.9	6.06e-01	0	57	0	324009984	60	4425
2026-01-02 07:09:49.41	350.35	17.87	-48.3	-50.4	22.0	6.04e-01	0	57	0	327680000	60	4393
2026-01-02 07:09:51.38	349.83	17.81	-48.7	-51.0	21.4	6.03e-01	0	57	0	331350016	60	4719
2026-01-02 07:09:53.36	349.31	17.75	-48.6	-50.7	21.6	6.02e-01	0	57	0	335020032	60	4574
2026-01-02 07:09:55.34	348.79	17.68	-48.4	-50.4	22.2	6.03e-01	0	57	0	338690048	59	4698
2026-01-02 07:09:57.32	348.28	17.61	-48.6	-50.8	21.6	6.03e-01	0	57	0	342360064	59	4894
2026-01-02 07:09:59.29	347.77	17.54	-48.9	-51.5	20.4	6.00e-01	0	57	0	346030080	60	4992
2026-01-02 07:10:01.27	347.26	17.47	-50.2	-54.3	17.2	6.01e-01	0	57	0	349700096	62	6182
2026-01-02 07:10:03.25	346.75	17.40	-50.9	-56.9	14.1	6.00e-01	0	57	0	353894400	64	7437
2026-01-02 07:10:05.22	346.25	17.32	-51.3	-59.7	10.9	6.15e-01	0	57	0	357564416	64	10261
2026-01-02 07:10:07.20	345.75	17.24	-50.4	-55.4	15.5	6.03e-01	0	57	0	361234432	64	6249
2026-01-02 07:10:09.18	345.25	17.16	-50.6	-55.1	16.4	6.00e-01	0	57	0	364904448	63	6368
2026-01-02 07:10:11.15	344.76	17.08	-50.5	-54.7	16.9	6.01e-01	0	57	0	368574464	63	6129
2026-01-02 07:10:13.12	344.27	17.00	-50.2	-54.0	17.7	6.02e-01	0	57	0	372244480	63	5629
2026-01-02 07:10:15.10	343.78	16.91	-48.5	-51.0	20.5	6.01e-01	0	57	0	375914496	60	4709
2026-01-02 07:10:17.09	343.29	16.82	-48.3	-50.5	21.6	6.01e-01	0	57	0	379584512	59	4729
2026-01-02 07:10:19.07	342.81	16.73	-48.4	-50.7	21.4	6.02e-01	0	57	0	383254528	59	4836
2026-01-02 07:10:21.04	342.33	16.64	-48.6	-51.2	20.7	6.03e-01	0	57	0	386924544	60	4818
2026-01-02 07:10:23.02	341.85	16.55	-49.7	-52.9	18.9	6.03e-01	0	57	0	390594560	61	5559
2026-01-02 07:10:24.99	341.38	16.46	-48.7	-51.2	20.5	6.00e-01	0	57	0	394264576	61	4546
2026-01-02 07:10:26.96	340.91	16.36	-48.3	-50.4	21.9	6.01e-01	0	57	0	397934592	59	4658
2026-01-02 07:10:28.94	340.44	16.27	-48.9	-51.1	21.4	6.00e-01	0	57	0	401604608	59	5084
2026-01-02 07:10:30.90	339.98	16.17	-49.0	-51.4	21.0	6.04e-01	0	57	0	405798912	60	4934
2026-01-02 07:10:32.88	339.52	16.07	-49.0	-51.3	21.0	6.00e-01	0	57	0	408944640	60	4912
2026-01-02 07:10:34.86	339.06	15.97	-48.5	-50.7	21.7	6.01e-01	0	57	0	413138944	60	4558
2026-01-02 07:10:36.85	338.60	15.87	-48.5	-50.7	21.6	6.03e-01	0	57	0	416808960	60	4574
2026-01-02 07:10:38.83	338.15	15.76	-48.4	-50.5	21.9	6.03e-01	0	57	0	420478976	60	4454
2026-01-02 07:10:40.81	337.70	15.66	-48.4	-50.4	22.0	6.02e-01	0	57	0	424148992	60	4409
2026-01-02 07:10:42.80	337.26	15.55	-48.4	-50.4	22.2	6.04e-01	0	57	0	427819008	60	4409
2026-01-02 07:10:44.78	336.81	15.45	-48.7	-50.9	21.7	6.03e-01	0	57	0	431489024	60	4663
2026-01-02 07:10:46.76	336.38	15.34	-48.9	-51.1	21.5	6.04e-01	0	57	0	435159040	60	4775
2026-01-02 07:10:48.73	335.94	15.23	-48.5	-50.5	22.1	6.01e-01	0	57	0	438829056	60	4478
2026-01-02 07:10:50.71	335.51	15.12	-48.7	-50.8	21.8	6.04e-01	0	57	0	442499072	60	4644
2026-01-02 07:10:52.69	335.09	15.01	-49.3	-51.7	21.0	6.02e-01	0	57	0	446169088	60	5137
2026-01-02 07:10:54.66	334.66	14.90	-48.8	-51.0	21.6	6.00e-01	0	57	0	449839104	60	4750
2026-01-02 07:10:56.63	334.24	14.79	-48.9	-51.0	21.6	6.00e-01	0	57	0	453509120	60	4755
2026-01-02 07:10:58.61	333.83	14.67	-48.7	-50.8	21.9	6.00e-01	0	57	0	457703424	60	4603
2026-01-02 07:11:00.58	333.41	14.56	-48.6	-50.6	22.1	6.03e-01	0	57	0	461373440	60	4498
2026-01-02 07:11:02.56	333.00	14.44	-48.7	-50.7	21.9	6.00e-01	0	57	0	465043456	60	4590
2026-01-02 07:11:04.53	332.60	14.33	-48.8	-50.9	21.8	6.02e-01	0	57	0	468713472	60	4662
2026-01-02 07:11:06.51	332.20	14.21	-49.2	-51.5	21.2	6.04e-01	0	57	0	472383488	60	5028
2026-01-02 07:11:08.49	331.80	14.09	-48.9	-51.1	21.5	6.02e-01	0	57	0	476053504	60	4799
2026-01-02 07:11:10.48	331.40	13.97	-49.1	-51.4	21.3	6.00e-01	0	57	0	479723520	60	4948
2026-01-02 07:11:12.46	331.00	13.86	-49.0	-51.3	21.4	6.00e-01	0	57	0	483393536	60	4890
2026-01-02 07:11:14.44	330.61	13.74	-49.2	-51.6	21.0	6.00e-01	0	57	0	487063552	60	5078
2026-01-02 07:11:16.42	330.23	13.62	-49.2	-51.6	20.9	5.99e-01	0	57	0	490733568	60	5087
2026-01-02 07:11:18.40	329.84	13.50	-49.5	-52.1	20.5	6.03e-01	0	57	0	494403584	61	5090
2026-01-02 07:11:20.37	329.47	13.37	-49.6	-52.2	20.5	6.02e-01	0	57	0	498073600	61	5139
2026-01-02 07:11:22.34	329.09	13.25	-49.2	-51.5	21.2	6.00e-01	0	57	0	502267904	61	4709
2026-01-02 07:11:24.31	328.72	13.13	-49.2	-51.6	21.1	6.00e-01	0	57	0	505413632	61	4781
2026-01-02 07:11:26.29	328.35	13.01	-49.5	-52.0	20.7	6.02e-01	0	57	0	509607936	61	4992
2026-01-02 07:11:28.26	327.98	12.89	-49.6	-52.1	20.6	6.02e-01	0	57	0	513277952	61	5074
2026-01-02 07:11:30.23	327.62	12.76	-49.6	-52.1	20.6	6.01e-01	0	57	0	516947968	61	5068
2026-01-02 07:11:32.21	327.26	12.64	-49.4	-51.9	20.8	6.00e-01	0	57	0	520617984	61	4946
2026-01-02 07:11:34.19	326.91	12.52	-49.5	-51.9	20.7	6.00e-01	0	57	0	524288000	61	4973
2026-01-02 07:11:36.16	326.56	12.39	-49.6	-52.1	20.4	6.02e-01	0	57	0	527958016	62	4809
2026-01-02 07:11:38.15	326.20	12.27	-50.1	-53.1	19.5	6.03e-01	0	57	0	531628032	62	5356
2026-01-02 07:11:40.13	325.86	12.14	-49.5	-52.0	20.6	6.03e-01	0	57	0	535298048	62	4724
2026-01-02 07:11:42.11	325.51	12.02	-49.4	-51.8	20.8	6.04e-01	0	57	0	538968064	62	4633
2026-01-02 07:11:44.09	325.17	11.89	-49.9	-52.7	19.9	6.03e-01	0	57	0	542638080	62	5104
2026-01-02 07:11:46.07	324.84	11.76	-49.1	-51.4	21.2	6.03e-01	0	57	0	546308096	61	4673
2026-01-02 07:11:48.05	324.50	11.64	-48.9	-51.1	21.5	6.01e-01	0	57	0	549978112	61	4533
2026-01-02 07:11:50.03	324.17	11.51	-49.3	-51.7	20.8	6.04e-01	0	57	0	554172416	61	4861
2026-01-02 07:11:52.02	323.84	11.39	-49.0	-51.4	21.2	6.04e-01	0	57	0	557842432	61	4658
2026-01-02 07:11:54.00	323.52	11.26	-49.0	-51.2	21.3	6.02e-01	0	57	0	561512448	61	4574
2026-01-02 07:11:55.98	323.19	11.13	-49.1	-51.4	21.0	6.02e-01	0	57	0	565182464	61	4704
2026-01-02 07:11:57.96	322.88	11.01	-49.2	-51.7	20.9	6.03e-01	0	57	0	568852480	61	4818
2026-01-02 07:11:59.94	322.56	10.88	-49.0	-51.3	21.2	6.00e-01	0	57	0	572522496	61	4631
2026-01-02 07:12:01.93	322.25	10.75	-49.5	-52.0	20.5	6.02e-01	0	57	0	576192512	61	5039
2026-01-02 07:12:03.91	321.94	10.62	-49.0	-51.3	21.2	6.02e-01	0	57	0	579862528	61	4602
2026-01-02 07:12:05.90	321.63	10.50	-49.1	-51.5	20.9	6.04e-01	0	57	0	583532544	61	4719
2026-01-02 07:12:07.88	321.32	10.37	-49.4	-52.0	20.4	6.01e-01	0	57	0	587202560	61	5037
2026-01-02 07:12:09.87	321.02	10.24	-49.2	-51.6	20.9	6.02e-01	0	57	0	590872576	61	4765
2026-01-02 07:12:11.85	320.72	10.12	-49.9	-52.8	19.7	6.01e-01	0	57	0	595066880	62	5170
2026-01-02 07:12:13.84	320.43	9.99	-49.8	-52.4	20.1	6.01e-01	0	57	0	598736896	62	4983
2026-01-02 07:12:15.81	320.14	9.86	-50.4	-53.7	18.8	6.01e-01	0	57	0	602406912	63	5439
2026-01-02 07:12:17.79	319.85	9.74	-50.2	-53.3	19.2	6.03e-01	0	57	0	606076928	63	5218
2026-01-02 07:12:19.76	319.56	9.61	-50.6	-54.0	18.5	6.02e-01	0	57	0	609746944	63	5623
2026-01-02 07:12:21.74	319.28	9.48	-50.1	-53.1	19.3	6.00e-01	0	57	0	613416960	63	5076
2026-01-02 07:12:23.73	318.99	9.35	-50.4	-53.7	18.8	6.03e-01	0	57	0	617086976	63	5428
2026-01-02 07:12:25.71	318.72	9.23	-50.2	-53.2	19.2	6.03e-01	0	57	0	620756992	63	5138
2026-01-02 07:12:27.70	318.44	9.10	-50.4	-53.8	18.6	6.03e-01	0	57	0	624427008	63	5517
2026-01-02 07:12:29.67	318.17	8.98	-49.4	-52.0	20.4	6.01e-01	0	57	0	628097024	62	4717
2026-01-02 07:12:31.65	317.89	8.85	-50.0	-53.1	19.4	6.02e-01	0	57	0	631767040	62	5343
2026-01-02 07:12:33.64	317.63	8.72	-49.4	-51.9	20.4	6.02e-01	0	57	0	635437056	62	4676
2026-01-02 07:12:35.62	317.36	8.60	-49.9	-52.9	19.5	6.02e-01	0	57	0	639107072	62	5232
2026-01-02 07:12:37.59	317.10	8.47	-49.7	-52.4	19.9	6.02e-01	0	57	0	643301376	62	4964
2026-01-02 07:12:39.58	316.84	8.35	-49.8	-52.6	19.8	5.99e-01	0	57	0	646971392	62	5059
2026-01-02 07:12:41.54	316.58	8.22	-50.1	-53.3	19.1	6.03e-01	0	57	0	650641408	62	5468
2026-01-02 07:12:43.52	316.32	8.10	-50.1	-53.1	19.3	6.00e-01	0	57	0	654311424	62	5362
2026-01-02 07:12:45.50	316.07	7.97	-50.1	-53.1	19.2	6.07e-01	0	57	0	657981440	62	5385
2026-01-02 07:12:47.48	315.82	7.85	-50.3	-53.5	18.8	6.04e-01	0	57	0	661651456	62	5620
2026-01-02 07:12:49.44	315.57	7.72	-49.9	-52.8	19.5	6.01e-01	0	57	0	665321472	62	5218
2026-01-02 07:12:51.41	315.33	7.60	-50.2	-53.4	18.9	6.02e-01	0	57	0	668991488	62	5563
2026-01-02 07:12:53.39	315.09	7.47	-50.0	-53.0	19.2	6.06e-01	0	57	0	672661504	62	5310
2026-01-02 07:12:55.36	314.85	7.35	-49.5	-52.1	20.1	6.00e-01	0	57	0	676331520	62	4814
2026-01-02 07:12:57.35	314.60	7.23	-49.4	-52.1	20.2	6.02e-01	0	57	0	680001536	62	4772
2026-01-02 07:12:59.33	314.37	7.10	-49.4	-52.1	20.1	6.02e-01	0	57	0	683671552	62	4767
2026-01-02 07:13:01.31	314.13	6.98	-49.4	-52.0	20.2	6.04e-01	0	57	0	687341568	62	4731
2026-01-02 07:13:03.30	313.90	6.86	-49.6	-52.4	19.8	6.02e-01	0	57	0	691535872	62	4949
2026-01-02 07:13:05.28	313.67	6.73	-49.7	-52.6	19.6	6.01e-01	0	57	0	695205888	62	5084
2026-01-02 07:13:07.26	313.44	6.61	-49.7	-52.5	19.7	6.06e-01	0	57	0	698875904	62	5036
2026-01-02 07:13:09.24	313.21	6.49	-49.9	-53.0	19.2	6.02e-01	0	57	0	702545920	62	5309
2026-01-02 07:13:11.23	312.99	6.36	-49.7	-52.7	19.4	6.02e-01	0	57	0	706215936	62	5140
2026-01-02 07:13:13.22	312.77	6.24	-50.0	-53.3	18.9	6.01e-01	0	57	0	709885952	62	5476
2026-01-02 07:13:15.20	312.55	6.12	-49.9	-53.0	19.2	6.02e-01	0	57	0	713555968	62	5283
2026-01-02 07:13:17.18	312.33	6.00	-50.0	-53.1	19.0	6.03e-01	0	57	0	717225984	62	5375
2026-01-02 07:13:19.15	312.11	5.88	-49.9	-53.0	19.1	6.01e-01	0	57	0	720896000	62	5337
2026-01-02 07:13:21.14	311.90	5.76	-49.6	-52.6	19.4	6.04e-01	0	57	0	724566016	62	5092
2026-01-02 07:13:23.10	311.69	5.64	-49.8	-52.9	19.2	6.02e-01	0	57	0	728236032	62	5228
2026-01-02 07:13:25.08	311.48	5.52	-49.6	-52.6	19.3	6.00e-01	0	57	0	731906048	62	5099
2026-01-02 07:13:27.06	311.27	5.40	-49.8	-53.1	18.9	6.01e-01	0	57	0	735576064	62	5341
2026-01-02 07:13:29.03	311.07	5.28	-49.7	-52.8	19.1	6.03e-01	0	57	0	739770368	62	5161
2026-01-02 07:13:31.00	310.86	5.16	-49.8	-52.9	18.9	6.00e-01	0	57	0	743440384	62	5277
2026-01-02 07:13:32.99	310.66	5.04	-52.5	-61.3	12.0	6.14e-01	0	57	0	747110400	67	10407
2026-01-02 07:13:34.98	310.46	4.92	-53.6	-73.5	3.8	7.45e-01	0	57	104	747110400	69	37379
2026-01-02 07:13:36.95	310.26	4.80	-50.0	-69.6	3.8	7.47e-01	0	57	104	747110400	62	36014
2026-01-02 07:13:38.94	310.07	4.68	-53.9	-73.8	3.8	7.44e-01	0	57	104	747110400	70	36759
2026-01-02 07:13:40.93	309.87	4.56	-54.1	-74.0	3.8	7.48e-01	0	57	104	747110400	70	37647
2026-01-02 07:13:42.90	309.68	4.45	-54.2	-74.1	3.8	7.45e-01	0	57	104	747110400	70	38039
2026-01-02 07:13:44.87	309.49	4.33	-54.2	-74.1	3.8	7.48e-01	0	57	104	747110400	70	37999
2026-01-02 07:13:46.85	309.30	4.21	-54.3	-74.2	3.8	7.46e-01	0	57	104	747110400	70	38507
2026-01-02 07:13:48.83	309.11	4.09	-54.4	-74.3	3.8	7.46e-01	0	57	104	747110400	70	38829
2026-01-02 07:13:50.82	308.92	3.98	-54.4	-74.3	3.8	7.49e-01	0	57	104	747110400	70	38869
2026-01-02 07:13:52.81	308.74	3.86	-54.4	-74.3	3.8	7.43e-01	0	57	104	747110400	71	36805
2026-01-02 07:13:54.78	308.56	3.74	-54.4	-74.3	3.8	7.42e-01	0	57	104	747110400	71	36942
2026-01-02 07:13:56.76	308.37	3.63	-54.5	-74.4	3.8	7.44e-01	0	57	104	747110400	71	36954
2026-01-02 07:13:58.72	308.20	3.51	-54.5	-74.4	3.8	7.43e-01	0	57	104	747110400	71	37013
2026-01-02 07:14:00.71	308.02	3.40	-54.4	-74.4	3.8	7.43e-01	0	57	104	747110400	71	36950
2026-01-02 07:14:02.69	307.84	3.28	-54.4	-74.3	3.8	7.43e-01	0	57	104	747110400	71	36886
2026-01-02 07:14:04.66	307.67	3.17	-54.4	-74.3	3.8	7.45e-01	0	57	104	747110400	71	36897
2026-01-02 07:14:06.64	307.49	3.05	-54.4	-74.4	3.8	7.45e-01	0	57	104	747110400	71	36951

#Closed at: 2026-01-02 07:14:07
#Recorded file [747 MB]: D:/Data/31026_260102_101333.dat