passes_logs/2026/01/02/R3.0SM8_Murmansk_STILSPACE/R3.0SM8_Murmansk_STILSPACE__20260102_085256_NOAA_20_JPSS-1_rec.log

#Pass ID: 20260102_085256_NOAA 20 (JPSS-1)
#Satellite: NOAA 20 (JPSS-1)
#Configuration: NOAA 20
#almurnet v.1.7.20240730
#Start time: 2026-01-02 08:52:56

#Version: 2.2.20231116
#Station: R3.0SM8_Murmansk_STILSPACE
#Location: 33.092731 lon 68.902999 lat
#TLE: 1 43013U 17073A   26001.30344297  .00000183  00000+0  10758-3 0  9995
#TLE: 2 43013  98.7621 302.3885 0001938  59.1624 300.9742 14.19532032420790

#Time	Az	El	Level	Level2	SNR	BER	BlckErr	Temp	State	Recorded	gain1	gain2
2026-01-02 08:52:56.78	136.26	2.99	-52.4	-66.3	3.8	1.49e+00	0	51	0	0	67	18020
2026-01-02 08:53:00.73	136.21	3.25	-52.2	-66.1	3.8	1.49e+00	0	52	104	0	67	17637
2026-01-02 08:53:04.68	136.15	3.52	-51.8	-65.6	3.8	1.49e+00	0	52	104	0	66	17669
2026-01-02 08:53:08.64	136.08	3.78	-51.6	-64.8	3.8	1.49e+00	0	52	104	0	66	15993
2026-01-02 08:53:12.59	136.02	4.05	-51.5	-63.6	3.8	1.49e+00	0	52	104	0	65	14856
2026-01-02 08:53:16.56	135.96	4.33	-51.5	-62.0	4.2	1.41e+00	0	53	0	0	65	12312
2026-01-02 08:53:20.52	135.89	4.60	-51.2	-60.1	4.9	7.97e-01	0	53	0	5242880	65	9942
2026-01-02 08:53:24.48	135.82	4.88	-50.8	-58.1	6.3	3.02e-01	0	53	0	12582912	64	8287
2026-01-02 08:53:28.43	135.75	5.17	-50.7	-56.7	7.6	7.45e-02	0	53	0	19922944	63	7519
2026-01-02 08:53:32.38	135.68	5.45	-50.0	-54.8	9.6	1.93e-02	0	53	0	27262976	63	5994
2026-01-02 08:53:36.32	135.61	5.74	-49.4	-53.3	11.1	1.71e-03	0	53	0	34603008	61	5665
2026-01-02 08:53:40.27	135.54	6.03	-49.1	-52.6	11.9	7.31e-04	0	53	0	41943040	61	5236
2026-01-02 08:53:44.22	135.46	6.32	-48.2	-50.8	13.7	4.50e-06	0	53	0	49283072	59	4802
2026-01-02 08:53:48.17	135.39	6.62	-48.0	-50.5	14.1	2.20e-06	0	54	0	56623104	59	4603
2026-01-02 08:53:52.12	135.31	6.92	-47.8	-50.2	14.4	0.00e+00	0	53	0	63963136	58	4723
2026-01-02 08:53:56.08	135.22	7.22	-47.9	-50.3	14.4	7.00e-07	0	54	0	71303168	58	4769
2026-01-02 08:54:00.05	135.14	7.53	-48.4	-51.1	13.6	4.50e-06	0	54	0	78643200	58	5251
2026-01-02 08:54:04.00	135.06	7.84	-48.1	-50.6	14.1	3.80e-06	0	54	0	87031808	58	4964
2026-01-02 08:54:07.96	134.97	8.16	-48.0	-50.5	14.2	0.00e+00	0	54	0	94371840	58	4890
2026-01-02 08:54:11.91	134.88	8.48	-47.4	-49.4	15.3	0.00e+00	0	54	0	101711872	57	4597
2026-01-02 08:54:15.86	134.79	8.80	-47.5	-49.6	15.2	0.00e+00	0	54	0	109051904	57	4657
2026-01-02 08:54:19.82	134.69	9.13	-47.4	-49.4	15.4	0.00e+00	0	54	0	116391936	57	4569
2026-01-02 08:54:23.77	134.60	9.46	-47.3	-49.3	15.5	0.00e+00	0	54	0	123731968	57	4509
2026-01-02 08:54:27.73	134.50	9.80	-47.1	-49.0	15.9	0.00e+00	0	54	0	131072000	57	4368
2026-01-02 08:54:31.68	134.39	10.14	-47.0	-48.9	16.0	0.00e+00	0	54	0	138412032	57	4307
2026-01-02 08:54:35.65	134.29	10.48	-47.3	-49.2	15.7	0.00e+00	0	55	0	145752064	57	4470
2026-01-02 08:54:39.60	134.18	10.83	-47.5	-49.5	15.4	0.00e+00	0	55	0	153092096	57	4600
2026-01-02 08:54:43.55	134.07	11.19	-47.2	-49.1	15.8	0.00e+00	0	55	0	160432128	57	4421
2026-01-02 08:54:47.50	133.96	11.55	-46.9	-48.6	16.3	0.00e+00	0	55	0	167772160	56	4423
2026-01-02 08:54:51.45	133.84	11.91	-46.6	-48.2	16.7	0.00e+00	0	55	0	175112192	56	4241
2026-01-02 08:54:55.42	133.72	12.29	-46.9	-48.6	16.3	0.00e+00	0	55	0	182452224	56	4441
2026-01-02 08:54:59.38	133.60	12.66	-47.1	-48.9	16.1	0.00e+00	0	55	0	189792256	56	4559
2026-01-02 08:55:03.33	133.47	13.04	-47.0	-48.7	16.3	0.00e+00	0	55	0	198180864	56	4479
2026-01-02 08:55:07.28	133.34	13.43	-46.7	-48.3	16.6	0.00e+00	0	55	0	205520896	56	4287
2026-01-02 08:55:11.25	133.21	13.83	-46.5	-48.1	16.9	0.00e+00	0	55	0	212860928	56	4166
2026-01-02 08:55:15.19	133.07	14.23	-46.6	-48.2	16.8	0.00e+00	0	55	0	220200960	56	4239
2026-01-02 08:55:19.15	132.93	14.63	-46.5	-48.1	16.9	0.00e+00	0	55	0	227540992	56	4176
2026-01-02 08:55:23.11	132.78	15.05	-46.3	-47.8	17.2	0.00e+00	0	55	0	234881024	55	4245
2026-01-02 08:55:27.07	132.63	15.47	-46.4	-47.9	17.0	0.00e+00	0	55	0	242221056	55	4340
2026-01-02 08:55:31.03	132.47	15.90	-46.4	-47.9	17.1	0.00e+00	0	55	0	249561088	55	4318
2026-01-02 08:55:35.01	132.31	16.34	-46.5	-48.1	16.9	0.00e+00	0	55	0	256901120	55	4393
2026-01-02 08:55:38.96	132.14	16.78	-46.3	-47.8	17.1	0.00e+00	0	55	0	264241152	55	4286
2026-01-02 08:55:42.92	131.97	17.23	-46.3	-47.8	17.2	0.00e+00	0	56	0	271581184	55	4271
2026-01-02 08:55:46.89	131.79	17.69	-46.7	-48.3	16.7	0.00e+00	0	56	0	279969792	55	4542
2026-01-02 08:55:50.85	131.61	18.16	-46.4	-47.9	17.1	0.00e+00	0	56	0	287309824	55	4302
2026-01-02 08:55:54.82	131.42	18.64	-46.4	-47.9	17.1	0.00e+00	0	55	0	294649856	55	4305
2026-01-02 08:55:58.78	131.22	19.12	-46.1	-47.6	17.4	0.00e+00	0	56	0	301989888	55	4165
2026-01-02 08:56:02.71	131.02	19.62	-46.3	-47.7	17.3	0.00e+00	0	56	0	309329920	55	4240
2026-01-02 08:56:06.65	130.81	20.12	-46.2	-47.7	17.4	0.00e+00	0	56	0	316669952	55	4218
2026-01-02 08:56:10.60	130.59	20.63	-46.1	-47.5	17.5	0.00e+00	0	56	0	324009984	55	4136
2026-01-02 08:56:14.56	130.37	21.16	-45.9	-47.3	17.8	0.00e+00	0	56	0	331350016	54	4245
2026-01-02 08:56:18.53	130.13	21.69	-46.0	-47.4	17.7	0.00e+00	0	56	0	338690048	54	4320
2026-01-02 08:56:22.47	129.89	22.24	-46.1	-47.5	17.6	0.00e+00	0	56	0	346030080	54	4349
2026-01-02 08:56:26.42	129.64	22.79	-46.4	-47.9	17.2	0.00e+00	0	56	0	353370112	54	4580
2026-01-02 08:56:30.36	129.38	23.36	-46.3	-47.8	17.3	0.00e+00	0	56	0	360710144	54	4497
2026-01-02 08:56:34.31	129.11	23.94	-46.4	-48.0	17.1	0.00e+00	0	56	0	368050176	54	4600
2026-01-02 08:56:38.27	128.83	24.53	-46.7	-48.3	16.8	0.00e+00	0	56	0	375390208	55	4539
2026-01-02 08:56:42.22	128.53	25.14	-46.9	-48.5	16.6	0.00e+00	0	56	0	382730240	55	4634
2026-01-02 08:56:46.17	128.23	25.76	-47.3	-49.0	16.2	0.00e+00	0	56	0	390070272	56	4637
2026-01-02 08:56:50.11	127.91	26.39	-47.8	-49.8	15.5	0.00e+00	0	56	0	398458880	57	4773
2026-01-02 08:56:54.05	127.58	27.03	-48.2	-50.4	14.9	0.00e+00	0	56	0	405798912	58	4823
2026-01-02 08:56:57.99	127.23	27.69	-48.5	-51.0	14.3	0.00e+00	0	56	0	413138944	58	5181
2026-01-02 08:57:01.92	126.87	28.36	-48.9	-51.5	13.7	6.80e-06	0	56	0	420478976	59	5192
2026-01-02 08:57:05.87	126.50	29.06	-48.5	-51.0	14.3	2.20e-06	0	56	0	427819008	59	4873
2026-01-02 08:57:09.80	126.10	29.76	-49.0	-51.7	13.6	6.80e-06	0	56	0	435159040	59	5284
2026-01-02 08:57:13.75	125.69	30.48	-49.4	-52.4	12.9	5.11e-05	0	56	0	442499072	60	5416
2026-01-02 08:57:17.71	125.26	31.22	-49.3	-52.2	13.0	3.05e-05	0	56	0	449839104	60	5294
2026-01-02 08:57:21.67	124.80	31.98	-49.6	-52.8	12.4	2.21e-04	0	56	0	457179136	61	5370
2026-01-02 08:57:25.62	124.33	32.76	-49.4	-52.5	12.8	1.07e-04	0	56	0	464519168	61	5195
2026-01-02 08:57:29.58	123.82	33.55	-49.4	-52.4	12.9	5.18e-05	0	56	0	471859200	61	5123
2026-01-02 08:57:33.52	123.30	34.36	-49.6	-52.9	12.3	1.60e-04	0	56	0	479199232	61	5422
2026-01-02 08:57:37.47	122.74	35.19	-49.9	-53.5	11.7	5.97e-04	0	56	0	486539264	61	5842
2026-01-02 08:57:41.43	122.16	36.04	-49.8	-53.4	11.9	2.35e-04	0	56	0	493879296	61	5734
2026-01-02 08:57:45.39	121.54	36.91	-49.4	-52.4	12.9	5.72e-05	0	56	0	501219328	61	5134
2026-01-02 08:57:49.35	120.89	37.80	-49.1	-52.0	13.4	1.29e-05	0	56	0	508559360	61	4876
2026-01-02 08:57:53.30	120.20	38.70	-48.7	-51.2	14.1	7.00e-07	0	56	0	516947968	60	4739
2026-01-02 08:57:57.27	119.46	39.63	-48.5	-50.9	14.5	7.00e-07	0	56	0	524288000	60	4561
2026-01-02 08:58:01.23	118.69	40.58	-48.4	-50.7	14.6	0.00e+00	0	56	0	531628032	59	4751
2026-01-02 08:58:05.17	117.87	41.54	-48.7	-51.1	14.3	0.00e+00	0	56	0	538968064	59	4942
2026-01-02 08:58:09.11	117.00	42.52	-48.8	-51.3	14.0	2.20e-06	0	56	0	546308096	59	5096
2026-01-02 08:58:13.06	116.07	43.52	-49.0	-51.7	13.7	4.50e-06	0	56	0	553648128	59	5282
2026-01-02 08:58:17.01	115.08	44.54	-48.3	-50.4	14.9	0.00e+00	0	56	0	560988160	59	4597
2026-01-02 08:58:20.95	114.03	45.57	-47.8	-49.8	15.6	0.00e+00	0	56	0	568328192	58	4516
2026-01-02 08:58:24.89	112.90	46.62	-47.8	-49.9	15.5	0.00e+00	0	56	0	575668224	58	4559
2026-01-02 08:58:28.85	111.69	47.69	-48.1	-50.3	15.1	0.00e+00	0	56	0	583008256	58	4770
2026-01-02 08:58:32.78	110.40	48.76	-47.8	-49.8	15.6	0.00e+00	0	56	0	590348288	58	4519
2026-01-02 08:58:36.73	109.01	49.84	-47.3	-49.0	16.3	0.00e+00	0	56	0	597688320	57	4378
2026-01-02 08:58:40.65	107.53	50.92	-47.3	-49.1	16.3	0.00e+00	0	56	0	605028352	57	4410
2026-01-02 08:58:44.61	105.91	52.02	-47.1	-48.7	16.7	0.00e+00	0	56	0	612368384	57	4208
2026-01-02 08:58:48.54	104.19	53.11	-47.1	-48.8	16.6	0.00e+00	0	56	0	619708416	57	4254
2026-01-02 08:58:52.50	102.32	54.20	-47.6	-49.5	15.9	0.00e+00	0	56	0	627048448	57	4601
2026-01-02 08:58:56.44	100.32	55.27	-47.3	-49.0	16.3	0.00e+00	0	56	0	634388480	57	4368
2026-01-02 08:59:00.40	98.14	56.33	-47.5	-49.2	16.1	0.00e+00	0	56	0	642777088	57	4482
2026-01-02 08:59:04.35	95.80	57.37	-48.6	-51.0	14.4	7.00e-07	0	56	0	650117120	59	4922
2026-01-02 08:59:08.30	93.27	58.37	-48.9	-51.5	13.8	1.50e-06	0	56	0	657457152	59	5208
2026-01-02 08:59:12.25	90.55	59.34	-47.7	-49.5	15.9	0.00e+00	0	56	0	664797184	58	4389
2026-01-02 08:59:16.21	87.62	60.26	-47.7	-49.5	15.9	0.00e+00	0	56	0	672137216	58	4386
2026-01-02 08:59:20.17	84.47	61.12	-46.8	-48.4	17.1	0.00e+00	0	56	0	679477248	56	4302
2026-01-02 08:59:24.10	81.14	61.90	-46.0	-47.3	17.9	0.00e+00	0	56	0	686817280	55	4048
2026-01-02 08:59:28.05	77.58	62.60	-46.2	-47.5	17.7	0.00e+00	0	56	0	694157312	55	4133
2026-01-02 08:59:31.98	73.84	63.21	-46.6	-48.1	17.2	0.00e+00	0	56	0	701497344	55	4411
2026-01-02 08:59:35.93	69.90	63.72	-45.8	-47.1	18.1	0.00e+00	0	56	0	708837376	54	4192
2026-01-02 08:59:39.89	65.80	64.12	-46.0	-47.4	17.9	0.00e+00	0	56	0	716177408	54	4306
2026-01-02 08:59:43.84	61.58	64.39	-45.1	-46.2	19.0	0.00e+00	0	56	0	723517440	53	4001
2026-01-02 08:59:47.80	57.27	64.54	-45.1	-46.3	19.0	0.00e+00	0	56	0	730857472	52	4259
2026-01-02 08:59:51.73	52.97	64.56	-45.2	-46.3	19.0	0.00e+00	0	56	0	738197504	52	4277
2026-01-02 08:59:55.69	48.65	64.44	-45.5	-46.8	18.5	0.00e+00	0	56	0	745537536	53	4260
2026-01-02 08:59:59.64	44.41	64.20	-46.0	-47.3	17.9	0.00e+00	0	56	0	752877568	54	4283
2026-01-02 09:00:03.59	40.28	63.84	-45.7	-46.9	18.3	0.00e+00	0	56	0	761266176	54	4083
2026-01-02 09:00:07.54	36.29	63.36	-45.4	-46.6	18.6	0.00e+00	0	56	0	768606208	54	3945
2026-01-02 09:00:11.50	32.48	62.78	-44.8	-45.9	19.3	0.00e+00	0	56	0	775946240	52	4056
2026-01-02 09:00:15.44	28.87	62.10	-45.6	-46.9	18.3	0.00e+00	0	56	0	783286272	53	4302
2026-01-02 09:00:19.41	25.45	61.34	-47.0	-48.7	16.7	0.00e+00	0	56	0	790626304	55	4709
2026-01-02 09:00:23.36	22.26	60.50	-47.7	-49.7	15.7	0.00e+00	0	56	0	797966336	57	4719
2026-01-02 09:00:27.30	19.29	59.60	-49.3	-52.1	13.2	2.44e-05	0	56	0	805306368	60	5275
2026-01-02 09:00:31.23	16.53	58.66	-49.4	-52.3	13.1	2.82e-05	0	56	0	812646400	60	5370
2026-01-02 09:00:35.17	13.96	57.66	-49.1	-51.8	13.6	6.80e-06	0	56	0	819986432	61	4776
2026-01-02 09:00:39.12	11.57	56.64	-48.9	-51.6	13.8	9.10e-06	0	56	0	827326464	60	4931
2026-01-02 09:00:43.07	9.36	55.59	-48.7	-51.2	14.2	2.20e-06	0	56	0	834666496	60	4723
2026-01-02 09:00:47.01	7.31	54.52	-47.1	-48.8	16.5	0.00e+00	0	56	0	842006528	57	4288
2026-01-02 09:00:50.97	5.40	53.43	-47.6	-49.5	15.8	0.00e+00	0	56	0	849346560	57	4634
2026-01-02 09:00:54.94	3.63	52.34	-47.7	-49.6	15.7	0.00e+00	0	56	0	856686592	57	4700
2026-01-02 09:00:58.89	1.99	51.25	-48.1	-50.2	15.2	0.00e+00	0	56	0	864026624	58	4738
2026-01-02 09:01:02.86	0.46	50.15	-48.4	-50.9	14.5	7.00e-07	0	56	0	871366656	58	5115
2026-01-02 09:01:06.83	359.04	49.06	-48.8	-51.4	13.9	1.50e-06	0	56	0	879755264	59	5141
2026-01-02 09:01:10.79	357.72	47.99	-48.7	-51.2	14.1	7.00e-07	0	56	0	887095296	59	5008
2026-01-02 09:01:14.74	356.49	46.92	-48.3	-50.6	14.7	3.00e-06	0	56	0	894435328	59	4660
2026-01-02 09:01:18.69	355.34	45.87	-48.2	-50.4	14.9	1.50e-06	0	56	0	901775360	59	4592
2026-01-02 09:01:22.66	354.26	44.83	-48.6	-51.0	14.3	0.00e+00	0	56	0	909115392	59	4895
2026-01-02 09:01:26.62	353.26	43.81	-48.9	-51.5	13.8	1.50e-06	0	56	0	916455424	59	5165
2026-01-02 09:01:30.57	352.32	42.81	-49.2	-52.2	13.1	3.96e-05	0	56	0	923795456	60	5287
2026-01-02 09:01:34.50	351.44	41.83	-49.6	-52.8	12.4	1.52e-04	0	56	0	931135488	61	5369
2026-01-02 09:01:38.45	350.60	40.86	-50.4	-54.5	10.6	2.32e-03	0	56	0	938475520	62	6191
2026-01-02 09:01:42.41	349.82	39.91	-50.1	-54.0	11.3	1.69e-03	0	56	0	945815552	62	5814
2026-01-02 09:01:46.38	349.08	38.98	-50.0	-53.7	11.6	6.10e-04	0	56	0	953155584	62	5617
2026-01-02 09:01:50.33	348.38	38.07	-49.7	-53.2	12.1	4.31e-04	0	56	0	960495616	62	5293
2026-01-02 09:01:54.30	347.72	37.18	-49.5	-52.7	12.6	1.37e-04	0	56	0	967835648	62	5008
2026-01-02 09:01:58.26	347.09	36.31	-49.0	-51.8	13.4	6.80e-06	0	56	0	976224256	61	4807
2026-01-02 09:02:02.20	346.50	35.46	-49.2	-52.2	13.1	4.11e-05	0	56	0	983564288	61	5012
2026-01-02 09:02:06.15	345.94	34.63	-48.6	-51.2	14.1	3.80e-06	0	56	0	990904320	60	4719
2026-01-02 09:02:10.12	345.41	33.81	-49.0	-51.8	13.4	1.06e-05	0	56	0	998244352	60	5062
2026-01-02 09:02:14.07	344.90	33.02	-49.0	-52.0	13.2	1.90e-05	0	56	0	1005584384	60	5182
2026-01-02 09:02:18.04	344.42	32.24	-49.2	-52.1	13.1	2.67e-05	0	56	0	1012924416	60	5241
2026-01-02 09:02:21.99	343.96	31.48	-49.4	-52.7	12.5	1.29e-04	0	56	0	1020264448	60	5633
2026-01-02 09:02:25.96	343.52	30.73	-49.6	-53.1	12.0	3.07e-04	0	56	0	1027604480	61	5564
2026-01-02 09:02:29.92	343.11	30.01	-49.7	-53.3	11.8	4.07e-04	0	56	0	1034944512	61	5712
2026-01-02 09:02:33.88	342.71	29.30	-49.9	-53.8	11.3	1.02e-03	0	56	0	1042284544	61	6053
2026-01-02 09:02:37.82	342.33	28.61	-49.8	-53.6	11.5	8.44e-04	0	56	0	1049624576	61	5891
2026-01-02 09:02:41.79	341.96	27.92	-49.6	-53.0	12.1	3.17e-04	0	56	0	1056964608	61	5523
2026-01-02 09:02:45.76	341.61	27.26	-49.3	-52.5	12.6	1.07e-04	0	56	0	1064304640	61	5180
2026-01-02 09:02:49.71	341.28	26.61	-49.2	-52.3	12.8	5.87e-05	0	56	0	1072693248	61	5053
2026-01-02 09:02:53.67	340.96	25.98	-49.0	-52.1	13.0	3.35e-05	0	56	0	1080033280	61	4947
2026-01-02 09:02:57.63	340.65	25.35	-49.2	-52.3	12.8	4.57e-05	0	56	0	1087373312	61	5057
2026-01-02 09:03:01.59	340.36	24.75	-48.8	-51.6	13.5	1.22e-05	0	56	0	1094713344	60	4955
2026-01-02 09:03:05.56	340.07	24.15	-48.8	-51.6	13.5	1.14e-05	0	56	0	1102053376	60	4956
2026-01-02 09:03:09.51	339.80	23.57	-48.3	-50.7	14.5	7.00e-07	0	56	0	1109393408	59	4737
2026-01-02 09:03:13.46	339.54	23.00	-48.2	-50.7	14.4	0.00e+00	0	56	0	1116733440	59	4709
2026-01-02 09:03:17.43	339.29	22.44	-48.1	-50.4	14.7	0.00e+00	0	56	0	1124073472	59	4547
2026-01-02 09:03:21.39	339.05	21.89	-47.7	-49.8	15.1	0.00e+00	0	56	0	1131413504	58	4544
2026-01-02 09:03:25.36	338.81	21.35	-48.0	-50.4	14.3	0.00e+00	0	56	0	1138753536	58	4853
2026-01-02 09:03:29.31	338.59	20.83	-48.5	-51.4	13.1	1.37e-05	0	56	0	1146093568	58	5445
2026-01-02 09:03:33.28	338.37	20.31	-48.9	-52.5	11.8	5.29e-04	0	56	0	1153433600	60	5523
2026-01-02 09:03:37.25	338.16	19.81	-48.8	-52.2	12.1	3.36e-04	0	56	0	1161822208	60	5313
2026-01-02 09:03:41.19	337.96	19.31	-48.4	-51.5	13.0	4.73e-05	0	56	0	1169162240	60	4885
2026-01-02 09:03:45.16	337.76	18.83	-47.7	-50.0	14.6	2.20e-06	0	56	0	1176502272	58	4644
2026-01-02 09:03:49.11	337.57	18.35	-47.4	-49.4	15.4	0.00e+00	0	56	0	1183842304	57	4565
2026-01-02 09:03:53.08	337.39	17.88	-47.8	-50.0	14.9	0.00e+00	0	56	0	1191182336	57	4889
2026-01-02 09:03:57.04	337.21	17.42	-47.9	-50.2	14.7	0.00e+00	0	56	0	1198522368	57	5009
2026-01-02 09:04:01.00	337.04	16.97	-48.1	-50.5	14.4	0.00e+00	0	56	0	1205862400	57	5160
2026-01-02 09:04:04.96	336.87	16.52	-48.0	-50.3	14.6	0.00e+00	0	56	0	1213202432	58	4807
2026-01-02 09:04:08.92	336.71	16.09	-48.4	-50.9	14.0	7.00e-07	0	56	0	1220542464	58	5142
2026-01-02 09:04:12.87	336.56	15.66	-48.1	-50.6	14.3	0.00e+00	0	56	0	1227882496	58	4933
2026-01-02 09:04:16.83	336.41	15.24	-48.2	-50.7	14.2	7.00e-07	0	56	0	1235222528	58	5033
2026-01-02 09:04:20.79	336.26	14.82	-48.2	-50.8	14.1	2.20e-06	0	56	0	1242562560	58	5071
2026-01-02 09:04:24.74	336.12	14.42	-48.4	-51.0	13.8	5.30e-06	0	56	0	1250951168	58	5192
2026-01-02 09:04:28.70	335.98	14.01	-48.6	-51.3	13.5	8.30e-06	0	56	0	1258291200	59	5093
2026-01-02 09:04:32.64	335.85	13.62	-48.6	-51.5	13.4	1.52e-05	0	56	0	1265631232	59	5164
2026-01-02 09:04:36.60	335.72	13.23	-48.6	-51.5	13.3	1.06e-05	0	56	0	1272971264	59	5170
2026-01-02 09:04:40.54	335.60	12.85	-48.8	-51.7	13.1	1.60e-05	0	56	0	1280311296	59	5328
2026-01-02 09:04:44.48	335.47	12.48	-49.0	-52.2	12.5	7.24e-05	0	56	0	1287651328	59	5623
2026-01-02 09:04:48.43	335.36	12.10	-49.0	-52.1	12.6	5.72e-05	0	56	0	1294991360	60	5250
2026-01-02 09:04:52.41	335.24	11.74	-49.0	-52.2	12.5	1.16e-04	0	56	0	1302331392	60	5340
2026-01-02 09:04:56.36	335.13	11.38	-48.7	-51.6	13.1	3.73e-05	0	56	0	1309671424	60	4944
2026-01-02 09:05:00.32	335.02	11.02	-48.5	-51.5	13.2	1.75e-05	0	56	0	1317011456	60	4894
2026-01-02 09:05:04.28	334.91	10.67	-48.6	-51.5	13.2	3.89e-05	0	56	0	1324351488	60	4890
2026-01-02 09:05:08.24	334.81	10.32	-48.7	-51.7	12.9	4.04e-05	0	56	0	1331691520	60	5039
2026-01-02 09:05:12.20	334.71	9.98	-48.8	-51.9	12.6	7.55e-05	0	56	0	1339031552	60	5147
2026-01-02 09:05:16.16	334.61	9.65	-48.8	-52.0	12.5	1.25e-04	0	56	0	1346371584	60	5215
2026-01-02 09:05:20.11	334.52	9.31	-49.1	-52.4	12.1	3.09e-04	0	56	0	1353711616	60	5453
2026-01-02 09:05:24.05	334.43	8.99	-49.1	-52.6	12.0	3.09e-04	0	56	0	1362100224	60	5531
2026-01-02 09:05:28.00	334.34	8.66	-48.9	-52.3	12.2	1.84e-04	0	56	0	1369440256	60	5356
2026-01-02 09:05:31.93	334.25	8.35	-49.2	-52.9	11.6	4.87e-04	0	56	0	1376780288	60	5736
2026-01-02 09:05:35.89	334.16	8.03	-49.1	-52.5	11.9	4.08e-04	0	56	0	1384120320	60	5522
2026-01-02 09:05:39.85	334.08	7.72	-49.2	-53.1	11.3	8.57e-04	0	56	0	1391460352	60	5879
2026-01-02 09:05:43.80	334.00	7.41	-49.2	-52.9	11.5	6.18e-04	0	56	0	1398800384	60	5768
2026-01-02 09:05:47.78	333.92	7.10	-49.4	-53.4	11.0	2.00e-03	0	56	0	1406140416	60	6094
2026-01-02 09:05:51.73	333.84	6.80	-49.2	-53.0	11.4	7.69e-04	0	56	0	1413480448	60	5799
2026-01-02 09:05:55.70	333.77	6.50	-49.3	-53.3	11.1	1.73e-03	0	56	0	1420820480	60	6005
2026-01-02 09:05:59.66	333.69	6.21	-49.4	-53.7	10.5	3.10e-03	0	56	0	1428160512	60	6310
2026-01-02 09:06:03.63	333.62	5.92	-49.5	-53.9	10.3	4.93e-03	0	56	0	1435500544	61	6105
2026-01-02 09:06:07.61	333.55	5.63	-49.3	-53.2	11.0	1.65e-03	0	56	0	1442840576	61	5655
2026-01-02 09:06:11.55	333.48	5.34	-49.4	-53.6	10.5	4.05e-03	0	56	0	1450180608	61	5906
2026-01-02 09:06:15.50	333.42	5.06	-49.3	-53.6	10.5	4.01e-03	0	56	0	1458569216	61	5922
2026-01-02 09:06:19.46	333.35	4.78	-52.0	-65.9	3.8	1.49e+00	0	56	104	1459617792	65	19239
2026-01-02 09:06:23.42	333.29	4.51	-52.2	-66.1	3.8	1.49e+00	0	56	104	1459617792	66	18692
2026-01-02 09:06:27.38	333.23	4.23	-52.4	-66.3	3.8	1.49e+00	0	56	104	1459617792	66	18998
2026-01-02 09:06:31.30	333.17	3.97	-52.4	-66.4	3.8	1.49e+00	0	56	104	1459617792	66	19244
2026-01-02 09:06:35.26	333.11	3.70	-52.5	-66.4	3.8	1.49e+00	0	56	104	1459617792	66	19367
2026-01-02 09:06:39.22	333.05	3.43	-52.5	-66.5	3.8	1.49e+00	0	56	104	1459617792	67	18338
2026-01-02 09:06:43.19	332.99	3.17	-52.5	-66.5	3.8	1.49e+00	0	56	104	1459617792	67	18313
2026-01-02 09:06:47.15	332.94	2.91	-52.4	-66.4	3.8	1.49e+00	0	56	104	1459617792	67	18269

#Closed at: 2026-01-02 09:06:47
#Recorded file [1459 MB]: D:/Data/31026_260102_120616.dat