passes_logs/2026/01/02/R3.0SM8_Murmansk_STILSPACE/R3.0SM8_Murmansk_STILSPACE__20260102_021604_NOAA_20_JPSS-1_rec.log

#Pass ID: 20260102_021604_NOAA 20 (JPSS-1)
#Satellite: NOAA 20 (JPSS-1)
#Configuration: NOAA 20
#almurnet v.1.7.20240730
#Start time: 2026-01-02 02:25:22

#Version: 2.2.20231116
#Station: R3.0SM8_Murmansk_STILSPACE
#Location: 33.092731 lon 68.902999 lat
#TLE: 1 43013U 17073A   26001.30344297  .00000183  00000+0  10758-3 0  9995
#TLE: 2 43013  98.7621 302.3885 0001938  59.1624 300.9742 14.19532032420790

#Time	Az	El	Level	Level2	SNR	BER	BlckErr	Temp	State	Recorded	gain1	gain2
2026-01-02 02:25:22.93	265.14	25.19	-54.3	-74.2	3.8	7.44e-01	0	57	0	0	70	38588
2026-01-02 02:25:23.91	264.97	25.07	-52.4	-66.3	3.8	1.49e+00	0	57	104	0	67	18057
2026-01-02 02:25:24.89	264.80	24.94	-52.5	-66.3	3.8	1.49e+00	0	57	104	0	67	18040
2026-01-02 02:25:25.88	264.63	24.81	-52.5	-66.3	3.8	1.49e+00	0	57	104	0	67	18057
2026-01-02 02:25:26.87	264.47	24.69	-52.5	-66.4	3.8	1.49e+00	0	57	104	0	67	18104
2026-01-02 02:25:27.86	264.30	24.56	-52.5	-66.3	3.8	1.49e+00	0	57	104	0	67	18051
2026-01-02 02:25:28.84	264.14	24.43	-52.4	-66.3	3.8	1.49e+00	0	57	104	0	67	18004
2026-01-02 02:25:29.83	263.98	24.31	-52.4	-66.3	3.8	1.49e+00	0	57	104	0	67	17988
2026-01-02 02:25:30.81	263.82	24.18	-52.4	-66.3	3.8	1.49e+00	0	58	104	0	67	17958
2026-01-02 02:25:31.80	263.66	24.06	-52.4	-66.3	3.8	1.49e+00	0	57	104	0	67	18010
2026-01-02 02:25:32.79	263.50	23.93	-52.4	-66.3	3.8	1.49e+00	0	57	104	0	67	17950
2026-01-02 02:25:33.77	263.34	23.81	-52.3	-66.3	3.8	1.49e+00	0	58	104	0	67	17935
2026-01-02 02:25:34.76	263.19	23.68	-52.3	-66.3	3.8	1.49e+00	0	57	104	0	67	17954
2026-01-02 02:25:35.76	263.03	23.56	-52.4	-66.3	3.8	1.49e+00	0	57	104	0	67	17920
2026-01-02 02:25:36.75	262.88	23.43	-52.5	-66.3	3.8	1.49e+00	0	58	104	0	67	17943
2026-01-02 02:25:37.74	262.73	23.31	-52.4	-66.2	3.8	1.49e+00	0	58	104	0	67	17847
2026-01-02 02:25:38.73	262.58	23.19	-52.4	-66.2	3.8	1.49e+00	0	57	104	0	67	17847
2026-01-02 02:25:39.72	262.43	23.06	-52.4	-66.2	3.8	1.49e+00	0	57	104	0	67	17824
2026-01-02 02:25:40.71	262.28	22.94	-52.3	-66.2	3.8	1.49e+00	0	58	104	0	67	17793
2026-01-02 02:25:41.69	262.13	22.82	-52.2	-66.2	3.8	1.49e+00	0	58	104	0	67	17749
2026-01-02 02:25:42.68	261.99	22.70	-52.3	-66.1	3.8	1.49e+00	0	58	104	0	67	17646
2026-01-02 02:25:43.67	261.84	22.58	-52.3	-66.1	3.8	1.49e+00	0	58	104	0	67	17562
2026-01-02 02:25:44.65	261.70	22.46	-52.3	-65.8	3.8	1.49e+00	0	58	104	0	67	17022
2026-01-02 02:25:45.64	261.56	22.34	-52.2	-65.8	3.8	1.49e+00	0	58	104	0	67	17013
2026-01-02 02:25:46.62	261.41	22.22	-52.2	-66.0	3.8	1.49e+00	0	57	104	0	66	18373
2026-01-02 02:25:47.62	261.27	22.10	-52.2	-65.9	3.8	1.49e+00	0	58	104	0	66	18269
2026-01-02 02:25:48.61	261.13	21.98	-52.1	-65.8	3.8	1.49e+00	0	58	104	0	66	18044
2026-01-02 02:25:49.60	260.99	21.86	-52.1	-65.8	3.8	1.49e+00	0	57	104	0	66	17892
2026-01-02 02:25:50.59	260.86	21.74	-52.2	-65.7	3.8	1.49e+00	0	57	104	0	66	17801
2026-01-02 02:25:51.58	260.72	21.62	-52.2	-65.7	3.8	1.49e+00	0	58	104	0	66	17872
2026-01-02 02:25:52.57	260.59	21.51	-52.2	-65.7	3.8	1.49e+00	0	58	104	0	66	17876
2026-01-02 02:25:53.55	260.45	21.39	-52.2	-65.8	3.8	1.49e+00	0	58	104	0	66	18018
2026-01-02 02:25:54.54	260.32	21.27	-52.2	-65.8	3.8	1.49e+00	0	57	104	0	66	18057
2026-01-02 02:25:55.53	260.19	21.16	-52.2	-65.8	3.8	1.49e+00	0	58	104	0	66	18072
2026-01-02 02:25:56.52	260.06	21.04	-52.2	-65.8	3.8	1.49e+00	0	57	104	0	66	18070
2026-01-02 02:25:57.52	259.93	20.92	-52.2	-65.8	3.8	1.49e+00	0	57	104	0	66	18083
2026-01-02 02:25:58.49	259.80	20.81	-52.2	-65.8	3.8	1.49e+00	0	58	104	0	66	17922
2026-01-02 02:25:59.48	259.67	20.69	-52.1	-65.7	3.8	1.49e+00	0	57	104	0	66	17848
2026-01-02 02:26:00.47	259.54	20.58	-52.2	-65.8	3.8	1.49e+00	0	57	104	0	66	17926
2026-01-02 02:26:01.45	259.42	20.47	-52.2	-65.6	3.8	1.49e+00	0	58	104	0	66	17613
2026-01-02 02:26:02.44	259.29	20.35	-52.1	-64.6	3.8	1.49e+00	0	58	104	0	66	15672
2026-01-02 02:26:03.43	259.17	20.24	-51.9	-62.2	4.2	1.47e+00	0	57	0	0	66	11941
2026-01-02 02:26:04.42	259.05	20.12	-51.6	-59.5	5.6	8.95e-01	0	58	0	1048576	66	8757
2026-01-02 02:26:05.40	258.93	20.01	-51.1	-57.2	7.5	1.67e-01	0	58	0	3145728	65	7096
2026-01-02 02:26:06.40	258.80	19.90	-50.6	-55.5	9.2	4.19e-02	0	57	0	5242880	64	6185
2026-01-02 02:26:07.39	258.68	19.79	-50.0	-54.2	10.7	8.80e-03	0	57	0	6291456	63	5619
2026-01-02 02:26:08.38	258.56	19.67	-49.6	-53.1	11.9	1.57e-03	0	57	0	8388608	62	5239
2026-01-02 02:26:09.37	258.44	19.56	-49.0	-52.0	12.9	8.77e-05	0	58	0	10485760	61	4906
2026-01-02 02:26:10.36	258.33	19.45	-48.6	-51.2	13.8	1.52e-05	0	58	0	12582912	60	4717
2026-01-02 02:26:11.36	258.21	19.34	-48.2	-50.5	14.5	1.50e-06	0	58	0	14680064	59	4629
2026-01-02 02:26:12.35	258.09	19.23	-48.0	-50.3	14.8	0.00e+00	0	57	0	15728640	58	4767
2026-01-02 02:26:13.33	257.98	19.12	-48.0	-50.1	14.9	0.00e+00	0	58	0	17825792	58	4703
2026-01-02 02:26:14.32	257.86	19.01	-48.3	-50.6	14.5	7.00e-07	0	57	0	19922944	58	4937
2026-01-02 02:26:15.31	257.75	18.90	-48.6	-51.2	13.8	7.00e-07	0	58	0	22020096	59	5020
2026-01-02 02:26:16.30	257.64	18.79	-49.1	-52.2	12.8	2.28e-05	0	58	0	23068672	60	5284
2026-01-02 02:26:17.29	257.52	18.68	-49.7	-53.2	11.8	2.70e-04	0	58	0	25165824	61	5612
2026-01-02 02:26:18.28	257.41	18.58	-49.5	-52.9	12.0	4.93e-04	0	58	0	27262976	61	5464
2026-01-02 02:26:19.27	257.30	18.47	-49.4	-52.6	12.4	2.10e-04	0	58	0	29360128	61	5241
2026-01-02 02:26:20.27	257.19	18.36	-49.5	-52.8	12.2	2.62e-04	0	58	0	30408704	61	5355
2026-01-02 02:26:21.26	257.08	18.25	-49.1	-52.1	12.9	9.38e-05	0	58	0	32505856	61	4933
2026-01-02 02:26:22.25	256.98	18.14	-48.8	-51.5	13.5	2.13e-05	0	58	0	34603008	60	4913
2026-01-02 02:26:23.24	256.87	18.04	-48.4	-51.0	14.0	6.10e-06	0	58	0	36700160	60	4612
2026-01-02 02:26:24.24	256.76	17.93	-48.2	-50.5	14.5	7.00e-07	0	58	0	38797312	59	4619
2026-01-02 02:26:25.23	256.65	17.83	-48.0	-50.2	14.8	0.00e+00	0	58	0	39845888	59	4487
2026-01-02 02:26:26.21	256.55	17.72	-47.9	-50.0	15.0	7.00e-07	0	58	0	41943040	59	4381
2026-01-02 02:26:27.20	256.45	17.62	-47.8	-49.9	15.1	7.00e-07	0	58	0	44040192	58	4595
2026-01-02 02:26:28.19	256.34	17.51	-47.8	-49.9	15.1	0.00e+00	0	58	0	46137344	58	4590
2026-01-02 02:26:29.16	256.24	17.41	-47.8	-49.9	15.1	0.00e+00	0	57	0	47185920	58	4570
2026-01-02 02:26:30.15	256.14	17.31	-47.7	-49.8	15.2	0.00e+00	0	58	0	49283072	58	4507
2026-01-02 02:26:31.14	256.04	17.20	-47.7	-49.7	15.3	0.00e+00	0	57	0	51380224	58	4486
2026-01-02 02:26:32.13	255.94	17.10	-47.7	-49.8	15.3	0.00e+00	0	57	0	53477376	58	4494
2026-01-02 02:26:33.13	255.84	16.99	-47.8	-49.9	15.1	0.00e+00	0	58	0	54525952	58	4568
2026-01-02 02:26:34.12	255.74	16.89	-47.7	-49.7	15.3	0.00e+00	0	58	0	56623104	58	4473
2026-01-02 02:26:35.12	255.64	16.79	-47.7	-49.7	15.3	0.00e+00	0	57	0	58720256	58	4481
2026-01-02 02:26:36.10	255.54	16.69	-47.7	-49.8	15.2	0.00e+00	0	58	0	60817408	58	4517
2026-01-02 02:26:37.09	255.45	16.59	-47.8	-49.9	15.1	0.00e+00	0	57	0	62914560	58	4571
2026-01-02 02:26:38.09	255.35	16.48	-48.0	-50.2	14.8	0.00e+00	0	57	0	63963136	58	4709
2026-01-02 02:26:39.07	255.25	16.38	-47.9	-50.0	14.9	0.00e+00	0	58	0	66060288	58	4648
2026-01-02 02:26:40.05	255.16	16.28	-48.1	-50.3	14.6	7.00e-07	0	57	0	68157440	58	4813
2026-01-02 02:26:41.04	255.07	16.18	-48.1	-50.3	14.7	0.00e+00	0	58	0	70254592	58	4787
2026-01-02 02:26:42.03	254.97	16.08	-48.2	-50.6	14.4	7.00e-07	0	57	0	71303168	58	4958
2026-01-02 02:26:43.02	254.88	15.98	-48.2	-50.6	14.4	7.00e-07	0	57	0	73400320	58	4954
2026-01-02 02:26:44.01	254.79	15.88	-48.4	-50.8	14.2	1.50e-06	0	57	0	75497472	58	5053
2026-01-02 02:26:44.99	254.69	15.79	-48.4	-50.8	14.2	1.50e-06	0	58	0	77594624	58	5069
2026-01-02 02:26:45.99	254.60	15.69	-48.4	-50.8	14.2	1.50e-06	0	57	0	78643200	58	5065
2026-01-02 02:26:46.98	254.51	15.59	-48.5	-51.0	14.0	3.80e-06	0	58	0	80740352	58	5180
2026-01-02 02:26:47.96	254.42	15.49	-48.4	-50.8	14.2	7.00e-07	0	57	0	82837504	58	5049
2026-01-02 02:26:48.95	254.33	15.39	-48.5	-50.9	14.0	7.00e-07	0	57	0	84934656	58	5156
2026-01-02 02:26:49.95	254.24	15.29	-48.3	-50.7	14.2	2.20e-06	0	58	0	87031808	58	5025
2026-01-02 02:26:50.93	254.16	15.20	-48.2	-50.5	14.5	0.00e+00	0	58	0	88080384	58	4911
2026-01-02 02:26:51.92	254.07	15.10	-48.1	-50.3	14.7	0.00e+00	0	57	0	90177536	58	4789
2026-01-02 02:26:52.92	253.98	15.00	-48.1	-50.3	14.6	0.00e+00	0	57	0	92274688	58	4813
2026-01-02 02:26:53.91	253.89	14.91	-48.1	-50.4	14.6	0.00e+00	0	57	0	94371840	58	4846
2026-01-02 02:26:54.91	253.81	14.81	-48.1	-50.3	14.6	0.00e+00	0	58	0	95420416	58	4814
2026-01-02 02:26:55.89	253.72	14.72	-48.2	-50.6	14.3	7.00e-07	0	58	0	97517568	58	4953
2026-01-02 02:26:56.89	253.64	14.62	-48.5	-51.1	13.8	2.20e-06	0	58	0	99614720	58	5242
2026-01-02 02:26:57.87	253.55	14.53	-48.4	-50.8	14.1	2.20e-06	0	58	0	101711872	59	4806
2026-01-02 02:26:58.86	253.47	14.43	-48.2	-50.7	14.2	7.00e-07	0	58	0	102760448	59	4728
2026-01-02 02:26:59.86	253.39	14.34	-48.4	-50.9	14.0	1.50e-06	0	57	0	104857600	59	4865
2026-01-02 02:27:00.84	253.30	14.24	-48.4	-50.9	14.0	6.80e-06	0	58	0	106954752	59	4865
2026-01-02 02:27:01.83	253.22	14.15	-48.4	-50.9	14.0	3.00e-06	0	58	0	109051904	59	4840
2026-01-02 02:27:02.82	253.14	14.06	-48.5	-51.0	13.9	3.00e-06	0	58	0	111149056	59	4901
2026-01-02 02:27:03.80	253.06	13.96	-48.6	-51.3	13.7	5.30e-06	0	57	0	112197632	59	5042
2026-01-02 02:27:04.78	252.98	13.87	-48.6	-51.2	13.7	1.37e-05	0	58	0	114294784	59	5008
2026-01-02 02:27:05.77	252.90	13.78	-48.7	-51.3	13.6	5.30e-06	0	57	0	116391936	59	5074
2026-01-02 02:27:06.77	252.82	13.69	-48.8	-51.5	13.3	1.22e-05	0	57	0	118489088	59	5207
2026-01-02 02:27:07.76	252.74	13.60	-48.9	-51.7	13.2	1.06e-05	0	58	0	119537664	59	5290
2026-01-02 02:27:08.75	252.66	13.50	-48.9	-51.7	13.2	3.05e-05	0	58	0	121634816	59	5306
2026-01-02 02:27:09.74	252.59	13.41	-48.9	-51.8	13.1	2.59e-05	0	57	0	123731968	59	5342
2026-01-02 02:27:10.73	252.51	13.32	-49.1	-52.1	12.8	3.43e-05	0	58	0	125829120	59	5534
2026-01-02 02:27:11.72	252.43	13.23	-48.9	-51.9	13.0	5.95e-05	0	57	0	126877696	60	5122
2026-01-02 02:27:12.70	252.36	13.14	-48.8	-51.7	13.1	2.97e-05	0	57	0	128974848	60	5023
2026-01-02 02:27:13.69	252.28	13.05	-48.8	-51.6	13.2	2.74e-05	0	57	0	131072000	60	4974
2026-01-02 02:27:14.68	252.20	12.96	-48.8	-51.7	13.1	2.59e-05	0	58	0	133169152	60	5036
2026-01-02 02:27:15.67	252.13	12.87	-48.9	-51.7	13.1	4.27e-05	0	58	0	134217728	60	5041
2026-01-02 02:27:16.66	252.06	12.78	-48.8	-51.6	13.3	1.67e-05	0	58	0	136314880	60	4938
2026-01-02 02:27:17.65	251.98	12.69	-48.8	-51.6	13.2	1.52e-05	0	58	0	138412032	60	4969
2026-01-02 02:27:18.63	251.91	12.60	-48.7	-51.6	13.2	1.90e-05	0	58	0	140509184	60	4962
2026-01-02 02:27:19.62	251.84	12.52	-48.9	-51.8	13.0	3.20e-05	0	58	0	142606336	60	5072
2026-01-02 02:27:20.61	251.76	12.43	-48.9	-51.9	12.9	5.11e-05	0	57	0	143654912	60	5131
2026-01-02 02:27:21.60	251.69	12.34	-48.9	-51.9	12.9	5.03e-05	0	58	0	145752064	60	5102
2026-01-02 02:27:22.60	251.62	12.25	-49.1	-52.2	12.7	7.32e-05	0	58	0	147849216	60	5288
2026-01-02 02:27:23.59	251.55	12.16	-49.1	-52.2	12.6	1.14e-04	0	58	0	149946368	60	5307
2026-01-02 02:27:24.58	251.48	12.08	-49.0	-52.0	12.8	7.47e-05	0	58	0	150994944	60	5170
2026-01-02 02:27:25.57	251.40	11.99	-49.0	-52.0	12.9	4.95e-05	0	58	0	153092096	60	5207
2026-01-02 02:27:26.55	251.34	11.90	-49.0	-52.1	12.7	7.09e-05	0	58	0	155189248	60	5231
2026-01-02 02:27:27.54	251.27	11.82	-49.0	-52.1	12.7	9.99e-05	0	57	0	157286400	60	5237
2026-01-02 02:27:28.53	251.20	11.73	-49.0	-52.0	12.8	4.50e-05	0	58	0	158334976	60	5192
2026-01-02 02:27:29.52	251.13	11.65	-49.1	-52.4	12.4	9.30e-05	0	57	0	160432128	60	5413
2026-01-02 02:27:30.50	251.06	11.56	-49.1	-52.3	12.4	1.91e-04	0	58	0	162529280	60	5398
2026-01-02 02:27:31.49	250.99	11.48	-49.0	-52.0	12.8	7.40e-05	0	57	0	164626432	60	5206
2026-01-02 02:27:32.48	250.93	11.39	-49.0	-52.1	12.7	6.33e-05	0	58	0	166723584	60	5221
2026-01-02 02:27:33.47	250.86	11.31	-49.0	-52.1	12.7	9.68e-05	0	58	0	167772160	60	5245
2026-01-02 02:27:34.46	250.79	11.22	-48.9	-51.9	12.9	5.34e-05	0	57	0	169869312	60	5123
2026-01-02 02:27:35.45	250.73	11.14	-48.9	-52.0	12.8	3.96e-05	0	57	0	171966464	60	5177
2026-01-02 02:27:36.45	250.66	11.05	-48.9	-52.0	12.8	7.55e-05	0	58	0	174063616	60	5164
2026-01-02 02:27:37.44	250.59	10.97	-49.1	-52.3	12.4	8.92e-05	0	58	0	175112192	60	5373
2026-01-02 02:27:38.43	250.53	10.88	-49.2	-52.4	12.3	2.20e-04	0	58	0	177209344	60	5458
2026-01-02 02:27:39.42	250.46	10.80	-49.1	-52.2	12.5	1.40e-04	0	58	0	179306496	60	5316
2026-01-02 02:27:40.40	250.40	10.72	-49.0	-52.2	12.6	1.21e-04	0	58	0	181403648	60	5313
2026-01-02 02:27:41.40	250.33	10.63	-49.2	-52.4	12.3	1.17e-04	0	58	0	183500800	60	5439
2026-01-02 02:27:42.39	250.27	10.55	-49.2	-52.4	12.3	1.64e-04	0	58	0	184549376	60	5442
2026-01-02 02:27:43.38	250.21	10.47	-49.1	-52.5	12.2	1.84e-04	0	58	0	186646528	60	5475
2026-01-02 02:27:44.36	250.15	10.39	-49.3	-52.8	11.9	3.46e-04	0	58	0	188743680	60	5698
2026-01-02 02:27:45.35	250.08	10.31	-49.2	-52.5	12.2	2.96e-04	0	58	0	190840832	60	5486
2026-01-02 02:27:46.33	250.02	10.23	-49.3	-52.7	12.0	2.68e-04	0	58	0	191889408	60	5615
2026-01-02 02:27:47.33	249.96	10.14	-49.4	-53.1	11.6	6.58e-04	0	58	0	193986560	60	5862
2026-01-02 02:27:48.32	249.90	10.06	-49.3	-52.6	12.1	4.26e-04	0	58	0	196083712	60	5562
2026-01-02 02:27:49.31	249.84	9.98	-49.3	-52.7	12.0	3.87e-04	0	58	0	198180864	60	5601
2026-01-02 02:27:50.30	249.78	9.90	-49.2	-52.5	12.2	2.66e-04	0	58	0	199229440	60	5507
2026-01-02 02:27:51.28	249.72	9.82	-49.1	-52.3	12.4	2.10e-04	0	58	0	201326592	60	5361
2026-01-02 02:27:52.27	249.66	9.74	-49.1	-52.3	12.3	1.57e-04	0	58	0	203423744	60	5376
2026-01-02 02:27:53.26	249.60	9.66	-49.0	-52.3	12.4	1.40e-04	0	58	0	205520896	60	5363
2026-01-02 02:27:54.25	249.54	9.58	-49.0	-52.2	12.5	1.22e-04	0	58	0	207618048	60	5308
2026-01-02 02:27:55.23	249.48	9.50	-48.9	-52.1	12.6	1.11e-04	0	58	0	208666624	60	5241
2026-01-02 02:27:56.23	249.42	9.42	-49.0	-52.1	12.5	1.07e-04	0	58	0	210763776	60	5261
2026-01-02 02:27:57.21	249.36	9.34	-49.0	-52.1	12.6	1.08e-04	0	58	0	212860928	60	5253
2026-01-02 02:27:58.20	249.30	9.26	-49.0	-52.1	12.5	1.17e-04	0	58	0	214958080	60	5242
2026-01-02 02:27:59.19	249.25	9.19	-49.2	-52.5	12.1	1.81e-04	0	58	0	216006656	60	5505
2026-01-02 02:28:00.18	249.19	9.11	-49.1	-52.3	12.3	1.92e-04	0	58	0	218103808	60	5371
2026-01-02 02:28:01.18	249.13	9.03	-49.1	-52.4	12.2	1.83e-04	0	57	0	220200960	60	5464
2026-01-02 02:28:02.17	249.08	8.95	-49.2	-52.6	12.0	2.75e-04	0	58	0	222298112	60	5558
2026-01-02 02:28:03.16	249.02	8.87	-49.3	-52.8	11.8	3.94e-04	0	58	0	223346688	60	5695
2026-01-02 02:28:04.16	248.96	8.79	-49.3	-52.7	11.9	4.07e-04	0	58	0	225443840	60	5649
2026-01-02 02:28:05.14	248.91	8.72	-49.4	-52.9	11.6	5.02e-04	0	58	0	227540992	60	5778
2026-01-02 02:28:06.13	248.85	8.64	-49.4	-53.1	11.4	6.59e-04	0	57	0	229638144	60	5895
2026-01-02 02:28:07.12	248.80	8.56	-49.5	-53.3	11.3	9.86e-04	0	58	0	230686720	60	6016
2026-01-02 02:28:08.10	248.74	8.49	-49.5	-53.2	11.4	1.17e-03	0	58	0	232783872	60	5927
2026-01-02 02:28:09.10	248.69	8.41	-49.4	-53.1	11.4	9.69e-04	0	58	0	234881024	60	5921
2026-01-02 02:28:10.09	248.63	8.33	-49.6	-53.4	11.1	1.26e-03	0	57	0	236978176	60	6114
2026-01-02 02:28:11.07	248.58	8.26	-49.4	-53.1	11.4	1.50e-03	0	58	0	239075328	60	5912
2026-01-02 02:28:12.06	248.53	8.18	-49.4	-53.1	11.4	1.10e-03	0	57	0	240123904	60	5892
2026-01-02 02:28:13.05	248.47	8.11	-49.4	-53.1	11.4	8.84e-04	0	58	0	242221056	60	5886
2026-01-02 02:28:14.03	248.42	8.03	-49.6	-53.4	11.0	1.26e-03	0	58	0	244318208	60	6108
2026-01-02 02:28:15.02	248.37	7.96	-49.3	-52.9	11.6	1.50e-03	0	58	0	246415360	60	5762
2026-01-02 02:28:16.01	248.32	7.88	-49.3	-52.9	11.5	6.56e-04	0	58	0	247463936	60	5785
2026-01-02 02:28:16.99	248.26	7.81	-49.4	-53.1	11.3	1.01e-03	0	58	0	249561088	60	5919
2026-01-02 02:28:17.98	248.21	7.73	-49.4	-52.9	11.5	8.33e-04	0	57	0	251658240	60	5777
2026-01-02 02:28:18.97	248.16	7.66	-49.3	-52.9	11.6	7.76e-04	0	58	0	253755392	60	5728
2026-01-02 02:28:19.96	248.11	7.58	-49.2	-52.7	11.7	6.09e-04	0	58	0	254803968	60	5655
2026-01-02 02:28:20.94	248.06	7.51	-49.3	-52.9	11.5	5.98e-04	0	58	0	256901120	60	5767
2026-01-02 02:28:21.93	248.01	7.43	-49.3	-52.9	11.6	7.35e-04	0	58	0	258998272	60	5744
2026-01-02 02:28:22.92	247.96	7.36	-49.3	-52.8	11.6	6.81e-04	0	58	0	261095424	60	5702
2026-01-02 02:28:23.91	247.91	7.29	-49.4	-53.2	11.2	1.01e-03	0	58	0	263192576	60	5977
2026-01-02 02:28:24.90	247.86	7.21	-49.3	-53.1	11.4	1.33e-03	0	57	0	264241152	60	5860
2026-01-02 02:28:25.89	247.81	7.14	-49.3	-53.0	11.4	9.08e-04	0	58	0	266338304	60	5800
2026-01-02 02:28:26.87	247.76	7.07	-49.4	-53.3	11.2	8.68e-04	0	58	0	268435456	60	5999
2026-01-02 02:28:27.87	247.71	6.99	-49.4	-53.2	11.2	1.29e-03	0	58	0	270532608	60	5942
2026-01-02 02:28:28.85	247.66	6.92	-49.4	-53.2	11.2	1.21e-03	0	58	0	271581184	60	5968
2026-01-02 02:28:29.83	247.61	6.85	-49.5	-53.5	10.9	1.69e-03	0	58	0	273678336	60	6161
2026-01-02 02:28:30.82	247.56	6.78	-49.4	-53.3	11.1	2.27e-03	0	58	0	275775488	60	6010
2026-01-02 02:28:31.81	247.52	6.71	-49.4	-53.2	11.1	1.37e-03	0	58	0	277872640	60	5968
2026-01-02 02:28:32.81	247.47	6.63	-49.5	-53.4	11.0	1.72e-03	0	58	0	278921216	60	6085
2026-01-02 02:28:33.79	247.42	6.56	-49.4	-53.2	11.1	1.99e-03	0	58	0	281018368	60	5966
2026-01-02 02:28:34.79	247.37	6.49	-49.3	-53.1	11.3	1.13e-03	0	58	0	283115520	60	5871
2026-01-02 02:28:35.77	247.33	6.42	-49.3	-53.1	11.3	1.18e-03	0	58	0	285212672	60	5866
2026-01-02 02:28:36.76	247.28	6.35	-49.2	-52.9	11.4	9.52e-04	0	57	0	287309824	60	5752
2026-01-02 02:28:37.75	247.23	6.28	-49.4	-53.3	11.0	1.36e-03	0	58	0	288358400	60	6046
2026-01-02 02:28:38.75	247.19	6.21	-49.5	-53.6	10.6	3.24e-03	0	58	0	290455552	60	6253
2026-01-02 02:28:39.74	247.14	6.13	-49.5	-53.5	10.8	3.11e-03	0	58	0	292552704	60	6138
2026-01-02 02:28:40.73	247.09	6.06	-49.3	-53.1	11.1	1.88e-03	0	57	0	294649856	60	5906
2026-01-02 02:28:41.72	247.05	5.99	-49.4	-53.3	10.9	1.63e-03	0	58	0	295698432	60	6055
2026-01-02 02:28:42.71	247.00	5.92	-49.4	-53.6	10.6	3.56e-03	0	58	0	297795584	60	6249
2026-01-02 02:28:43.69	246.96	5.85	-49.5	-53.8	10.4	3.37e-03	0	58	0	299892736	60	6401
2026-01-02 02:28:44.69	246.91	5.78	-49.5	-53.7	10.5	6.25e-03	0	58	0	301989888	61	5924
2026-01-02 02:28:45.67	246.87	5.71	-49.3	-53.2	11.0	3.07e-03	0	58	0	303038464	61	5629
2026-01-02 02:28:46.66	246.82	5.65	-49.3	-53.1	11.1	1.59e-03	0	58	0	305135616	61	5583
2026-01-02 02:28:47.66	246.78	5.58	-49.3	-53.2	11.0	1.72e-03	0	57	0	307232768	61	5599
2026-01-02 02:28:48.64	246.74	5.51	-49.3	-53.1	11.1	1.87e-03	0	58	0	309329920	61	5564
2026-01-02 02:28:49.63	246.69	5.44	-49.4	-53.4	10.7	2.28e-03	0	58	0	310378496	61	5769
2026-01-02 02:28:50.61	246.65	5.37	-49.4	-53.5	10.6	2.96e-03	0	58	0	312475648	61	5834
2026-01-02 02:28:51.59	246.61	5.30	-49.4	-53.5	10.7	2.14e-03	0	58	0	314572800	61	5796
2026-01-02 02:28:52.59	246.56	5.23	-49.5	-53.7	10.4	3.36e-03	0	58	0	316669952	61	5974
2026-01-02 02:28:53.58	246.52	5.16	-49.4	-53.6	10.5	4.50e-03	0	57	0	318767104	61	5857
2026-01-02 02:28:54.57	246.48	5.10	-49.5	-53.7	10.4	3.55e-03	0	58	0	319815680	61	5969
2026-01-02 02:28:55.55	246.43	5.03	-51.6	-65.3	3.8	9.08e-01	0	58	104	320864256	64	19089
2026-01-02 02:28:56.53	246.39	4.96	-51.8	-65.6	3.8	1.49e+00	0	58	104	320864256	65	18541
2026-01-02 02:28:57.53	246.35	4.89	-51.7	-65.6	3.8	1.49e+00	0	58	104	320864256	65	18572
2026-01-02 02:28:58.52	246.31	4.82	-51.9	-65.8	3.8	1.49e+00	0	58	104	320864256	65	19082
2026-01-02 02:28:59.50	246.27	4.76	-50.9	-64.7	3.8	1.49e+00	0	58	104	320864256	63	18886
2026-01-02 02:29:00.49	246.23	4.69	-52.2	-66.0	3.8	1.49e+00	0	58	104	320864256	66	18437
2026-01-02 02:29:01.48	246.18	4.62	-52.0	-66.1	3.8	1.49e+00	0	57	104	320864256	66	18553
2026-01-02 02:29:02.48	246.14	4.56	-52.2	-66.1	3.8	1.49e+00	0	58	104	320864256	66	18606
2026-01-02 02:29:03.46	246.10	4.49	-52.3	-66.1	3.8	1.49e+00	0	58	104	320864256	66	18631
2026-01-02 02:29:04.45	246.06	4.42	-52.3	-66.1	3.8	1.49e+00	0	58	104	320864256	66	18648
2026-01-02 02:29:05.45	246.02	4.36	-52.2	-66.2	3.8	1.49e+00	0	58	104	320864256	66	18806
2026-01-02 02:29:06.44	245.98	4.29	-52.4	-66.2	3.8	1.49e+00	0	58	104	320864256	66	18827
2026-01-02 02:29:07.43	245.94	4.22	-52.4	-66.2	3.8	1.49e+00	0	57	104	320864256	66	18898
2026-01-02 02:29:08.41	245.90	4.16	-52.4	-66.2	3.8	1.49e+00	0	58	104	320864256	66	18948
2026-01-02 02:29:09.40	245.86	4.09	-52.4	-66.3	3.8	1.49e+00	0	58	104	320864256	66	18953
2026-01-02 02:29:10.40	245.82	4.03	-52.4	-66.3	3.8	1.49e+00	0	58	104	320864256	66	18997
2026-01-02 02:29:11.39	245.78	3.96	-52.5	-66.3	3.8	1.49e+00	0	58	104	320864256	66	19044
2026-01-02 02:29:12.38	245.74	3.89	-52.5	-66.3	3.8	1.49e+00	0	58	104	320864256	66	19036
2026-01-02 02:29:13.37	245.70	3.83	-52.5	-66.3	3.8	1.49e+00	0	58	104	320864256	66	19101
2026-01-02 02:29:14.36	245.67	3.76	-52.4	-66.3	3.8	1.49e+00	0	58	104	320864256	66	19085
2026-01-02 02:29:15.35	245.63	3.70	-52.4	-66.3	3.8	1.49e+00	0	58	104	320864256	66	19122
2026-01-02 02:29:16.33	245.59	3.63	-52.5	-66.4	3.8	1.49e+00	0	58	104	320864256	66	19180
2026-01-02 02:29:17.33	245.55	3.57	-52.4	-66.4	3.8	1.49e+00	0	58	104	320864256	66	19181
2026-01-02 02:29:18.32	245.51	3.50	-52.5	-66.4	3.8	1.49e+00	0	58	104	320864256	66	19254
2026-01-02 02:29:19.30	245.47	3.44	-52.4	-66.3	3.8	1.49e+00	0	58	104	320864256	66	19157
2026-01-02 02:29:20.29	245.44	3.38	-52.5	-66.4	3.8	1.49e+00	0	58	104	320864256	66	19183
2026-01-02 02:29:21.28	245.40	3.31	-52.5	-66.4	3.8	1.49e+00	0	58	104	320864256	66	19186
2026-01-02 02:29:22.27	245.36	3.25	-52.6	-66.4	3.8	1.49e+00	0	58	104	320864256	66	19180
2026-01-02 02:29:23.26	245.32	3.18	-52.5	-66.4	3.8	1.49e+00	0	58	104	320864256	66	19178
2026-01-02 02:29:24.24	245.29	3.12	-52.5	-66.3	3.8	1.49e+00	0	58	104	320864256	66	19100
2026-01-02 02:29:25.23	245.25	3.06	-52.4	-66.3	3.8	1.49e+00	0	58	104	320864256	66	19130
2026-01-02 02:29:26.22	245.21	2.99	-52.5	-66.3	3.8	1.49e+00	0	58	104	320864256	66	19134
2026-01-02 02:29:27.21	245.18	2.93	-52.5	-66.3	3.8	1.49e+00	0	58	104	320864256	66	19130
2026-01-02 02:29:28.19	245.14	2.87	-52.5	-66.3	3.8	1.49e+00	0	58	104	320864256	66	19107

#Closed at: 2026-01-02 02:29:28
#Recorded file [320 MB]: D:/Data/31026_260102_052855.dat