passes_logs/2026/01/02/R3.0SM8_Murmansk_STILSPACE/R3.0SM8_Murmansk_STILSPACE__20260102_011611_FENGYUN_3D_rec.log

#Pass ID: 20260102_011611_FENGYUN 3D
#Satellite: FENGYUN 3D
#Configuration: FENGYUN 3D
#almurnet v.1.7.20240730
#Start time: 2026-01-02 01:16:13

#Version: 2.2.20231116
#Station: R3.0SM8_Murmansk_STILSPACE
#Location: 33.092731 lon 68.902999 lat
#TLE: 1 43010U 17072A   26001.33100487  .00000602  00000+0  30664-3 0  9999
#TLE: 2 43010  98.9910 332.9374 0001848 133.1047 227.0283 14.19692078421319

#Time	Az	El	Level	Level2	SNR	BER	BlckErr	Temp	State	Recorded	gain1	gain2
2026-01-02 01:16:13.77	21.69	3.14	-52.3	-63.1	3.8	8.46e-01	0	46	0	0	66	13118
2026-01-02 01:16:17.72	21.89	3.39	-51.8	-62.5	3.8	8.44e-01	0	46	104	0	66	12312
2026-01-02 01:16:21.67	22.09	3.64	-50.5	-60.0	3.8	8.46e-01	0	47	104	0	64	10306
2026-01-02 01:16:25.64	22.29	3.89	-50.3	-58.2	4.1	8.41e-01	0	47	104	0	63	8906
2026-01-02 01:16:29.57	22.49	4.15	-50.0	-56.7	4.7	8.13e-01	0	47	0	0	63	7479
2026-01-02 01:16:33.52	22.70	4.40	-49.6	-55.0	5.6	6.09e-01	0	47	0	0	62	6508
2026-01-02 01:16:37.47	22.91	4.66	-49.1	-53.5	6.8	2.22e-01	0	48	0	22020096	60	6194
2026-01-02 01:16:41.41	23.12	4.92	-49.2	-53.6	6.7	2.26e-01	0	48	0	44040192	60	6253
2026-01-02 01:16:45.37	23.34	5.18	-48.2	-51.2	9.2	3.00e-02	0	48	0	67108864	59	5020
2026-01-02 01:16:49.33	23.56	5.45	-47.5	-49.9	10.8	4.26e-03	0	48	0	89128960	58	4594
2026-01-02 01:16:53.27	23.78	5.71	-47.5	-49.8	11.1	2.45e-03	0	48	0	111149056	57	4776
2026-01-02 01:16:57.22	24.01	5.98	-45.4	-46.8	14.2	3.40e-06	0	49	0	133169152	54	4039
2026-01-02 01:17:01.18	24.24	6.25	-44.3	-45.4	15.9	0.00e+00	0	49	0	156237824	51	4069
2026-01-02 01:17:05.13	24.48	6.53	-44.4	-45.5	15.8	0.00e+00	0	49	0	178257920	51	4134
2026-01-02 01:17:09.07	24.72	6.80	-44.5	-45.6	15.7	0.00e+00	0	49	0	200278016	51	4181
2026-01-02 01:17:13.03	24.96	7.08	-44.7	-45.8	15.5	0.00e+00	0	50	0	222298112	51	4291
2026-01-02 01:17:16.98	25.21	7.37	-44.8	-46.0	15.4	0.00e+00	0	50	0	244318208	51	4347
2026-01-02 01:17:20.95	25.47	7.65	-44.3	-45.3	16.1	0.00e+00	0	50	0	267386880	51	4042
2026-01-02 01:17:24.90	25.73	7.94	-44.3	-45.3	16.2	0.00e+00	0	50	0	289406976	51	4049
2026-01-02 01:17:28.85	25.99	8.23	-44.4	-45.5	16.0	0.00e+00	0	50	0	311427072	51	4114
2026-01-02 01:17:32.81	26.26	8.53	-44.5	-45.6	15.9	0.00e+00	0	50	0	333447168	51	4166
2026-01-02 01:17:36.78	26.53	8.82	-44.2	-45.3	16.3	0.00e+00	0	51	0	356515840	51	4032
2026-01-02 01:17:40.74	26.81	9.12	-44.1	-45.2	16.4	0.00e+00	0	51	0	378535936	51	3973
2026-01-02 01:17:44.70	27.09	9.43	-43.6	-44.5	17.2	0.00e+00	0	51	0	400556032	50	3891
2026-01-02 01:17:48.65	27.38	9.73	-43.6	-44.6	17.1	0.00e+00	0	51	0	422576128	50	3926
2026-01-02 01:17:52.63	27.68	10.04	-43.5	-44.4	17.3	0.00e+00	0	51	0	445644800	49	4056
2026-01-02 01:17:56.59	27.98	10.36	-43.4	-44.3	17.4	0.00e+00	0	52	0	467664896	49	4011
2026-01-02 01:18:00.55	28.29	10.67	-43.4	-44.3	17.4	0.00e+00	0	52	0	489684992	49	4032
2026-01-02 01:18:04.51	28.60	10.99	-43.3	-44.1	17.6	0.00e+00	0	52	0	511705088	49	3955
2026-01-02 01:18:08.47	28.92	11.32	-43.1	-43.9	17.8	0.00e+00	0	52	0	533725184	49	3840
2026-01-02 01:18:12.44	29.25	11.64	-42.9	-43.8	18.0	0.00e+00	0	52	0	556793856	48	4009
2026-01-02 01:18:16.41	29.59	11.98	-42.7	-43.5	18.3	0.00e+00	0	52	0	578813952	48	3900
2026-01-02 01:18:20.36	29.93	12.31	-42.7	-43.5	18.3	0.00e+00	0	52	0	600834048	48	3880
2026-01-02 01:18:24.30	30.28	12.65	-42.8	-43.5	18.3	0.00e+00	0	52	0	622854144	48	3902
2026-01-02 01:18:28.26	30.63	12.99	-42.9	-43.7	18.2	0.00e+00	0	53	0	645922816	48	3965
2026-01-02 01:18:32.21	31.00	13.33	-42.5	-43.3	18.5	0.00e+00	0	53	0	667942912	48	3803
2026-01-02 01:18:36.18	31.37	13.68	-42.7	-43.4	18.4	0.00e+00	0	53	0	689963008	48	3867
2026-01-02 01:18:40.13	31.75	14.04	-42.2	-42.9	18.8	0.00e+00	0	53	0	713031680	47	3864
2026-01-02 01:18:44.09	32.14	14.39	-42.2	-42.9	18.8	0.00e+00	0	53	0	735051776	47	3847
2026-01-02 01:18:48.04	32.54	14.75	-42.5	-43.3	18.5	0.00e+00	0	53	0	757071872	47	4012
2026-01-02 01:18:52.01	32.95	15.12	-42.2	-42.9	18.7	0.00e+00	0	53	0	779091968	47	3868
2026-01-02 01:18:55.97	33.37	15.49	-42.6	-43.4	18.4	0.00e+00	0	53	0	802160640	47	4072
2026-01-02 01:18:59.93	33.80	15.87	-42.1	-42.8	19.0	0.00e+00	0	53	0	824180736	47	3804
2026-01-02 01:19:03.90	34.24	16.25	-42.0	-42.7	19.1	0.00e+00	0	54	0	846200832	47	3751
2026-01-02 01:19:07.85	34.68	16.63	-41.8	-42.5	19.3	0.00e+00	0	54	0	868220928	46	3899
2026-01-02 01:19:11.80	35.14	17.02	-41.7	-42.4	19.4	0.00e+00	0	54	0	890241024	46	3839
2026-01-02 01:19:15.75	35.61	17.41	-41.7	-42.4	19.4	0.00e+00	0	54	0	912261120	46	3828
2026-01-02 01:19:19.71	36.10	17.81	-42.0	-42.7	19.1	0.00e+00	0	54	0	935329792	46	3991
2026-01-02 01:19:23.66	36.60	18.21	-42.2	-42.9	18.9	0.00e+00	0	54	0	957349888	46	4086
2026-01-02 01:19:27.62	37.10	18.61	-42.5	-43.3	18.5	0.00e+00	0	54	0	979369984	46	4261
2026-01-02 01:19:31.57	37.63	19.02	-41.5	-42.1	19.7	0.00e+00	0	54	0	1001390080	46	3736
2026-01-02 01:19:35.52	38.16	19.44	-41.5	-42.2	19.7	0.00e+00	0	54	0	1024458752	45	3966
2026-01-02 01:19:39.47	38.71	19.85	-41.3	-42.0	19.9	0.00e+00	0	54	0	1046478848	45	3869
2026-01-02 01:19:43.43	39.28	20.28	-41.0	-41.6	20.2	0.00e+00	0	54	0	1068498944	45	3712
2026-01-02 01:19:47.39	39.86	20.71	-41.1	-41.7	20.1	0.00e+00	0	54	0	1090519040	45	3778
2026-01-02 01:19:51.35	40.46	21.14	-41.1	-41.8	20.1	0.00e+00	0	54	0	1112539136	45	3795
2026-01-02 01:19:55.31	41.07	21.58	-41.2	-41.8	20.1	0.00e+00	0	55	0	1135607808	45	3808
2026-01-02 01:19:59.28	41.70	22.02	-41.5	-42.2	19.6	0.00e+00	0	55	0	1157627904	45	3979
2026-01-02 01:20:03.24	42.35	22.47	-41.2	-41.8	20.1	0.00e+00	0	55	0	1179648000	45	3798
2026-01-02 01:20:07.19	43.02	22.92	-41.4	-42.0	19.8	0.00e+00	0	55	0	1201668096	45	3902
2026-01-02 01:20:11.14	43.70	23.37	-40.2	-40.8	20.9	0.00e+00	0	55	0	1224736768	43	3804
2026-01-02 01:20:15.09	44.41	23.83	-40.2	-40.8	20.9	0.00e+00	0	55	0	1246756864	43	3808
2026-01-02 01:20:19.05	45.14	24.29	-40.5	-41.1	20.7	0.00e+00	0	55	0	1268776960	43	3917
2026-01-02 01:20:23.00	45.88	24.76	-40.5	-41.1	20.6	0.00e+00	0	55	0	1290797056	43	3950
2026-01-02 01:20:26.93	46.65	25.22	-40.5	-41.1	20.7	0.00e+00	0	55	0	1312817152	43	3925
2026-01-02 01:20:30.87	47.43	25.69	-40.0	-40.5	21.2	0.00e+00	0	55	0	1334837248	43	3689
2026-01-02 01:20:34.81	48.24	26.17	-39.9	-40.5	21.2	0.00e+00	0	55	0	1357905920	42	3892
2026-01-02 01:20:38.77	49.08	26.64	-39.9	-40.4	21.3	0.00e+00	0	55	0	1379926016	42	3858
2026-01-02 01:20:42.73	49.95	27.12	-40.0	-40.5	21.2	0.00e+00	0	55	0	1401946112	42	3897
2026-01-02 01:20:46.71	50.85	27.60	-39.8	-40.4	21.4	0.00e+00	0	55	0	1423966208	42	3840
2026-01-02 01:20:50.66	51.76	28.08	-39.6	-40.1	21.6	0.00e+00	0	56	0	1447034880	42	3715
2026-01-02 01:20:54.60	52.70	28.56	-39.8	-40.4	21.4	0.00e+00	0	55	0	1469054976	42	3835
2026-01-02 01:20:58.56	53.67	29.05	-39.5	-40.0	21.7	0.00e+00	0	55	0	1491075072	42	3662
2026-01-02 01:21:02.52	54.68	29.53	-39.6	-40.2	21.6	0.00e+00	0	56	0	1513095168	42	3744
2026-01-02 01:21:06.46	55.70	30.00	-39.4	-39.9	21.8	0.00e+00	0	56	0	1535115264	42	3640
2026-01-02 01:21:10.42	56.76	30.48	-39.7	-40.3	21.5	0.00e+00	0	56	0	1558183936	41	4008
2026-01-02 01:21:14.37	57.86	30.96	-39.7	-40.2	21.5	0.00e+00	0	56	0	1580204032	41	3982
2026-01-02 01:21:18.34	58.98	31.43	-39.9	-40.4	21.3	0.00e+00	0	56	0	1602224128	41	4087
2026-01-02 01:21:22.30	60.14	31.89	-39.3	-39.8	21.9	0.00e+00	0	56	0	1624244224	41	3802
2026-01-02 01:21:26.26	61.33	32.36	-39.7	-40.2	21.5	0.00e+00	0	56	0	1647312896	41	3996
2026-01-02 01:21:30.19	62.55	32.81	-39.4	-40.0	21.8	0.00e+00	0	56	0	1669332992	41	3876
2026-01-02 01:21:34.13	63.80	33.25	-39.4	-39.9	21.8	0.00e+00	0	56	0	1691353088	41	3867
2026-01-02 01:21:38.08	65.09	33.69	-40.0	-40.5	21.2	0.00e+00	0	56	0	1713373184	41	4132
2026-01-02 01:21:42.05	66.42	34.11	-39.3	-39.8	21.9	0.00e+00	0	56	0	1735393280	41	3811
2026-01-02 01:21:46.01	67.78	34.53	-39.9	-40.4	21.3	0.00e+00	0	56	0	1757413376	41	4084
2026-01-02 01:21:49.99	69.18	34.94	-39.2	-39.7	22.0	0.00e+00	0	56	0	1780482048	41	3748
2026-01-02 01:21:53.94	70.61	35.32	-39.7	-40.3	21.5	0.00e+00	0	56	0	1802502144	41	4016
2026-01-02 01:21:57.91	72.07	35.70	-39.2	-39.7	22.0	0.00e+00	0	56	0	1824522240	41	3746
2026-01-02 01:22:01.84	73.56	36.05	-39.2	-39.7	22.1	0.00e+00	0	56	0	1847590912	41	3762
2026-01-02 01:22:05.80	75.08	36.39	-39.2	-39.7	22.1	0.00e+00	0	56	0	1869611008	41	3742
2026-01-02 01:22:09.75	76.64	36.71	-39.1	-39.6	22.1	0.00e+00	0	56	0	1891631104	41	3727
2026-01-02 01:22:13.70	78.22	37.01	-39.3	-39.8	22.0	0.00e+00	0	56	0	1913651200	40	4038
2026-01-02 01:22:17.66	79.84	37.29	-39.4	-40.0	21.8	0.00e+00	0	57	0	1935671296	40	4100
2026-01-02 01:22:21.62	81.48	37.54	-39.2	-39.7	22.0	0.00e+00	0	56	0	1957691392	41	3762
2026-01-02 01:22:25.58	83.14	37.77	-39.4	-39.9	21.8	0.00e+00	0	56	0	1980760064	41	3867
2026-01-02 01:22:29.54	84.83	37.97	-38.8	-39.3	22.4	0.00e+00	0	56	0	2002780160	40	3799
2026-01-02 01:22:33.49	86.53	38.15	-38.9	-39.4	22.4	0.00e+00	0	56	0	2024800256	40	3829
2026-01-02 01:22:37.46	88.26	38.30	-39.3	-39.8	21.9	0.00e+00	0	56	0	2046820352	40	4041
2026-01-02 01:22:41.43	90.01	38.42	-38.8	-39.3	22.4	0.00e+00	0	57	0	2069889024	40	3816
2026-01-02 01:22:45.38	91.75	38.51	-38.9	-39.4	22.3	0.00e+00	0	56	0	2091909120	40	3860
2026-01-02 01:22:49.33	93.51	38.58	-39.1	-39.6	22.1	0.00e+00	0	57	0	2113929216	40	3920
2026-01-02 01:22:53.29	95.27	38.61	-39.1	-39.7	22.1	0.00e+00	0	57	0	2136997888	40	3968
2026-01-02 01:22:57.25	97.04	38.62	-39.0	-39.5	22.2	0.00e+00	0	57	0	2159017984	40	3879
2026-01-02 01:23:01.21	98.81	38.59	-38.9	-39.4	22.4	0.00e+00	0	57	0	2181038080	40	3829
2026-01-02 01:23:05.16	100.57	38.53	-38.7	-39.2	22.5	0.00e+00	0	57	0	2203058176	40	3745
2026-01-02 01:23:09.12	102.32	38.45	-39.0	-39.5	22.2	0.00e+00	0	57	0	2225078272	40	3889
2026-01-02 01:23:13.08	104.06	38.33	-39.0	-39.5	22.2	0.00e+00	0	57	0	2248146944	40	3899
2026-01-02 01:23:17.04	105.79	38.19	-39.4	-39.9	21.9	0.00e+00	0	57	0	2270167040	40	4093
2026-01-02 01:23:20.98	107.50	38.02	-39.6	-40.2	21.6	0.00e+00	0	57	0	2292187136	41	3976
2026-01-02 01:23:24.94	109.19	37.82	-38.9	-39.4	22.3	0.00e+00	0	57	0	2314207232	40	3850
2026-01-02 01:23:28.90	110.87	37.60	-39.3	-39.9	21.9	0.00e+00	0	57	0	2336227328	40	4053
2026-01-02 01:23:32.85	112.51	37.35	-38.9	-39.4	22.3	0.00e+00	0	57	0	2359296000	40	3854
2026-01-02 01:23:36.80	114.14	37.08	-39.2	-39.8	22.0	0.00e+00	0	57	0	2381316096	40	4006
2026-01-02 01:23:40.75	115.73	36.78	-39.0	-39.5	22.3	0.00e+00	0	57	0	2403336192	40	3888
2026-01-02 01:23:44.71	117.30	36.47	-39.3	-39.8	22.0	0.00e+00	0	57	0	2425356288	40	4032
2026-01-02 01:23:48.67	118.83	36.13	-39.8	-40.3	21.5	0.00e+00	0	57	0	2447376384	41	4045
2026-01-02 01:23:52.63	120.34	35.78	-39.9	-40.5	21.4	0.00e+00	0	57	0	2470445056	41	4125
2026-01-02 01:23:56.60	121.82	35.41	-40.2	-40.8	21.1	0.00e+00	0	57	0	2492465152	42	4032
2026-01-02 01:24:00.56	123.26	35.02	-40.6	-41.2	20.7	0.00e+00	0	57	0	2514485248	43	3978
2026-01-02 01:24:04.51	124.66	34.62	-40.0	-40.6	21.3	0.00e+00	0	57	0	2536505344	42	3937
2026-01-02 01:24:08.47	126.03	34.20	-40.4	-41.0	20.9	0.00e+00	0	57	0	2559574016	42	4109
2026-01-02 01:24:12.42	127.37	33.78	-39.7	-40.3	21.6	0.00e+00	0	57	0	2581594112	42	3797
2026-01-02 01:24:16.37	128.67	33.34	-39.7	-40.2	21.6	0.00e+00	0	57	0	2603614208	42	3761
2026-01-02 01:24:20.34	129.94	32.89	-40.0	-40.6	21.3	0.00e+00	0	57	0	2625634304	42	3927
2026-01-02 01:24:24.30	131.18	32.44	-40.4	-40.9	20.9	0.00e+00	0	57	0	2648702976	42	4092
2026-01-02 01:24:28.25	132.38	31.98	-40.2	-40.8	20.9	0.00e+00	0	57	0	2670723072	43	3799
2026-01-02 01:24:32.19	133.54	31.51	-39.9	-40.6	21.1	0.00e+00	0	57	0	2692743168	43	3696
2026-01-02 01:24:36.14	134.67	31.04	-39.8	-40.4	21.1	0.00e+00	0	57	0	2714763264	42	3857
2026-01-02 01:24:40.09	135.77	30.57	-40.1	-40.7	20.9	0.00e+00	0	57	0	2736783360	42	3982
2026-01-02 01:24:44.05	136.85	30.09	-40.4	-41.1	20.6	0.00e+00	0	57	0	2759852032	42	4148
2026-01-02 01:24:48.01	137.89	29.61	-40.7	-41.4	20.3	0.00e+00	0	57	0	2781872128	43	4056
2026-01-02 01:24:51.97	138.90	29.12	-41.5	-42.3	19.5	0.00e+00	0	57	0	2803892224	44	4251
2026-01-02 01:24:55.92	139.88	28.64	-40.0	-40.7	20.9	0.00e+00	0	57	0	2825912320	43	3739
2026-01-02 01:24:59.88	140.83	28.15	-40.0	-40.7	20.9	0.00e+00	0	57	0	2848980992	43	3749
2026-01-02 01:25:03.83	141.76	27.67	-39.9	-40.5	21.1	0.00e+00	0	57	0	2871001088	42	3893
2026-01-02 01:25:07.79	142.66	27.19	-40.1	-40.7	20.9	0.00e+00	0	57	0	2893021184	42	3999
2026-01-02 01:25:11.76	143.53	26.70	-40.0	-40.6	21.0	0.00e+00	0	57	0	2915041280	42	3958
2026-01-02 01:25:15.71	144.38	26.23	-39.7	-40.3	21.2	0.00e+00	0	57	0	2937061376	42	3821
2026-01-02 01:25:19.67	145.20	25.75	-40.2	-40.8	20.8	0.00e+00	0	57	0	2960130048	42	4042
2026-01-02 01:25:23.63	146.00	25.27	-40.5	-41.2	20.5	0.00e+00	0	57	0	2982150144	42	4196
2026-01-02 01:25:27.58	146.77	24.80	-40.1	-40.7	20.9	0.00e+00	0	57	0	3004170240	42	3974
2026-01-02 01:25:31.52	147.52	24.33	-40.5	-41.2	20.4	0.00e+00	0	57	0	3026190336	42	4232
2026-01-02 01:25:35.49	148.26	23.87	-40.8	-41.5	20.1	0.00e+00	0	57	0	3049259008	43	4119
2026-01-02 01:25:39.45	148.97	23.40	-40.7	-41.4	20.2	0.00e+00	0	57	0	3071279104	43	4061
2026-01-02 01:25:43.39	149.66	22.95	-40.5	-41.1	20.5	0.00e+00	0	58	0	3093299200	43	3945
2026-01-02 01:25:47.35	150.33	22.49	-40.7	-41.4	20.2	0.00e+00	0	57	0	3115319296	43	4055
2026-01-02 01:25:51.30	150.98	22.05	-41.0	-41.7	19.9	0.00e+00	0	57	0	3137339392	43	4211
2026-01-02 01:25:55.25	151.62	21.60	-40.8	-41.5	20.1	0.00e+00	0	57	0	3160408064	43	4107
2026-01-02 01:25:59.20	152.23	21.16	-41.1	-41.8	19.8	0.00e+00	0	58	0	3182428160	44	4051
2026-01-02 01:26:03.16	152.83	20.72	-41.8	-42.6	19.1	0.00e+00	0	58	0	3204448256	45	4174
2026-01-02 01:26:07.13	153.42	20.29	-42.2	-43.0	18.8	0.00e+00	0	58	0	3226468352	46	4139
2026-01-02 01:26:11.09	153.99	19.86	-41.9	-42.7	19.1	0.00e+00	0	58	0	3249537024	46	3961
2026-01-02 01:26:15.05	154.55	19.44	-41.6	-42.3	19.4	0.00e+00	0	58	0	3271557120	46	3823
2026-01-02 01:26:19.00	155.08	19.02	-41.4	-42.1	19.6	0.00e+00	0	57	0	3293577216	45	3955
2026-01-02 01:26:22.95	155.61	18.61	-41.7	-42.5	19.2	0.00e+00	0	58	0	3315597312	45	4122
2026-01-02 01:26:26.89	156.12	18.20	-42.3	-43.1	18.6	0.00e+00	0	58	0	3337617408	46	4192
2026-01-02 01:26:30.83	156.62	17.80	-42.5	-43.3	18.5	0.00e+00	0	58	0	3360686080	46	4283
2026-01-02 01:26:34.80	157.11	17.40	-42.2	-43.0	18.8	0.00e+00	0	58	0	3382706176	47	3886
2026-01-02 01:26:38.76	157.58	17.00	-42.1	-42.9	18.9	0.00e+00	0	58	0	3404726272	47	3832
2026-01-02 01:26:42.73	158.04	16.61	-42.5	-43.3	18.5	0.00e+00	0	58	0	3426746368	47	4023
2026-01-02 01:26:46.69	158.50	16.22	-42.8	-43.7	18.1	0.00e+00	0	58	0	3449815040	47	4195
2026-01-02 01:26:50.64	158.94	15.84	-42.9	-43.8	18.2	0.00e+00	0	58	0	3471835136	48	4020
2026-01-02 01:26:54.57	159.36	15.47	-42.7	-43.6	18.3	0.00e+00	0	58	0	3493855232	48	3927
2026-01-02 01:26:58.52	159.78	15.09	-42.8	-43.7	18.2	0.00e+00	0	58	0	3515875328	48	3983
2026-01-02 01:27:02.49	160.19	14.72	-43.0	-43.9	18.0	0.00e+00	0	58	0	3537895424	48	4076
2026-01-02 01:27:06.45	160.59	14.36	-43.2	-44.1	17.8	0.00e+00	0	58	0	3560964096	48	4173
2026-01-02 01:27:10.40	160.98	14.00	-43.0	-43.8	18.1	0.00e+00	0	58	0	3582984192	48	4035
2026-01-02 01:27:14.35	161.36	13.64	-42.9	-43.8	18.1	0.00e+00	0	58	0	3605004288	48	4025
2026-01-02 01:27:18.32	161.74	13.29	-43.2	-44.1	17.7	0.00e+00	0	58	0	3627024384	48	4190
2026-01-02 01:27:22.27	162.10	12.94	-43.3	-44.2	17.7	0.00e+00	0	58	0	3650093056	48	4212
2026-01-02 01:27:26.24	162.46	12.60	-43.4	-44.3	17.6	0.00e+00	0	58	0	3672113152	48	4262
2026-01-02 01:27:30.18	162.81	12.26	-43.4	-44.4	17.5	0.00e+00	0	58	0	3694133248	49	4064
2026-01-02 01:27:34.13	163.15	11.92	-43.6	-44.5	17.3	0.00e+00	0	58	0	3716153344	49	4130
2026-01-02 01:27:38.09	163.48	11.59	-43.8	-44.8	17.1	0.00e+00	0	58	0	3738173440	49	4253
2026-01-02 01:27:42.06	163.81	11.26	-44.0	-45.0	16.8	0.00e+00	0	58	0	3760193536	50	4129
2026-01-02 01:27:46.01	164.13	10.93	-44.0	-45.1	16.8	0.00e+00	0	58	0	3783262208	50	4154
2026-01-02 01:27:49.97	164.45	10.61	-44.1	-45.1	16.7	0.00e+00	0	58	0	3805282304	50	4164
2026-01-02 01:27:53.93	164.75	10.29	-44.0	-45.0	16.8	0.00e+00	0	58	0	3827302400	50	4141
2026-01-02 01:27:57.88	165.05	9.98	-44.0	-45.0	16.7	0.00e+00	0	58	0	3850371072	50	4140
2026-01-02 01:28:01.84	165.35	9.67	-44.2	-45.3	16.5	0.00e+00	0	58	0	3872391168	50	4249
2026-01-02 01:28:05.78	165.64	9.36	-44.4	-45.5	16.2	0.00e+00	0	58	0	3894411264	50	4375
2026-01-02 01:28:09.74	165.92	9.05	-44.2	-45.3	16.4	0.00e+00	0	58	0	3916431360	51	4048
2026-01-02 01:28:13.69	166.20	8.75	-44.3	-45.4	16.3	0.00e+00	0	58	0	3938451456	51	4067
2026-01-02 01:28:17.64	166.47	8.45	-44.3	-45.4	16.3	0.00e+00	0	58	0	3960471552	51	4070
2026-01-02 01:28:21.59	166.74	8.16	-44.3	-45.4	16.2	0.00e+00	0	58	0	3983540224	51	4081
2026-01-02 01:28:25.56	167.00	7.86	-44.4	-45.5	16.1	0.00e+00	0	58	0	4005560320	51	4112
2026-01-02 01:28:29.50	167.26	7.57	-44.5	-45.6	15.8	0.00e+00	0	58	0	4027580416	51	4177
2026-01-02 01:28:33.46	167.51	7.29	-44.5	-45.7	15.6	0.00e+00	0	58	0	4049600512	51	4230
2026-01-02 01:28:37.43	167.76	7.00	-44.5	-45.7	15.4	0.00e+00	0	58	0	4072669184	51	4210
2026-01-02 01:28:41.39	168.00	6.72	-44.9	-46.4	14.5	1.10e-06	0	58	0	4094689280	51	4548
2026-01-02 01:28:45.35	168.24	6.44	-45.3	-46.9	13.6	8.00e-06	0	58	0	4116709376	52	4587
2026-01-02 01:28:49.30	168.48	6.16	-44.5	-46.0	14.1	4.50e-06	0	58	0	4138729472	52	4133
2026-01-02 01:28:53.27	168.71	5.89	-44.2	-45.6	14.4	2.20e-06	0	58	0	4160749568	51	4188
2026-01-02 01:28:57.22	168.94	5.62	-44.8	-46.5	13.3	2.17e-05	0	58	0	4183818240	51	4625
2026-01-02 01:29:01.17	169.16	5.35	-45.4	-47.3	12.4	2.41e-04	0	58	0	4205838336	52	4776
2026-01-02 01:29:05.12	169.38	5.08	-45.0	-46.7	13.0	4.92e-05	0	58	0	4227858432	52	4473
2026-01-02 01:29:09.07	169.59	4.82	-52.2	-63.0	3.8	8.45e-01	0	58	104	4233101312	66	13040
2026-01-02 01:29:13.02	169.80	4.56	-52.5	-63.3	3.8	8.46e-01	0	58	104	4233101312	66	13488
2026-01-02 01:29:16.98	170.01	4.30	-52.7	-63.4	3.8	8.47e-01	0	58	104	4233101312	67	12949
2026-01-02 01:29:20.95	170.22	4.04	-52.7	-63.5	3.8	8.45e-01	0	58	104	4233101312	67	13007
2026-01-02 01:29:24.90	170.42	3.78	-52.7	-63.5	3.8	8.45e-01	0	58	104	4233101312	67	13047
2026-01-02 01:29:28.87	170.62	3.53	-52.7	-63.5	3.8	8.46e-01	0	58	104	4233101312	67	13060
2026-01-02 01:29:32.81	170.81	3.28	-52.7	-63.5	3.8	8.46e-01	0	58	104	4233101312	67	13038
2026-01-02 01:29:36.78	171.01	3.03	-52.8	-63.5	3.8	8.46e-01	0	58	104	4233101312	67	13060

#Closed at: 2026-01-02 01:29:40
#Recorded file [4233 MB]: D:/Data/31026_260102_042906.dat