passes_logs/2026/01/02/R3.0SM8_Murmansk_STILSPACE/R3.0SM8_Murmansk_STILSPACE__20260102_001456_SUOMI_NPP_rec.log

#Pass ID: 20260102_001456_SUOMI NPP
#Satellite: SUOMI NPP
#Configuration: NPP
#almurnet v.1.7.20240730
#Start time: 2026-01-02 00:14:55

#Version: 2.2.20231116
#Station: R3.0SM8_Murmansk_STILSPACE
#Location: 33.092731 lon 68.902999 lat
#TLE: 1 37849U 11061A   26001.07732418  .00000182  00000+0  10735-3 0  9990
#TLE: 2 37849  98.7795 303.2470 0002580  87.2016 272.9455 14.19520779734739

#Time	Az	El	Level	Level2	SNR	BER	BlckErr	Temp	State	Recorded	gain1	gain2
2026-01-02 00:14:55.82	23.06	2.98	-52.2	-66.0	3.8	1.49e+00	0	45	0	0	66	18360
2026-01-02 00:14:59.78	23.14	3.24	-51.8	-65.8	3.8	1.49e+00	0	46	104	0	66	17892
2026-01-02 00:15:03.74	23.21	3.50	-51.0	-62.9	3.8	1.49e+00	0	46	104	0	65	13701
2026-01-02 00:15:07.70	23.29	3.77	-49.4	-55.0	8.4	3.79e-02	0	47	0	6291456	61	6932
2026-01-02 00:15:11.65	23.37	4.03	-49.5	-55.2	8.1	6.40e-02	0	47	0	13631488	61	7111
2026-01-02 00:15:15.61	23.45	4.30	-49.4	-54.6	8.8	2.66e-02	0	47	0	20971520	61	6607
2026-01-02 00:15:19.56	23.53	4.58	-49.4	-54.6	8.8	3.83e-02	0	47	0	28311552	61	6617
2026-01-02 00:15:23.52	23.61	4.85	-49.8	-55.9	7.5	1.05e-01	0	48	0	35651584	61	7702
2026-01-02 00:15:27.47	23.69	5.13	-49.9	-56.1	7.3	1.60e-01	0	48	0	42991616	61	7858
2026-01-02 00:15:31.42	23.77	5.41	-49.6	-55.1	8.3	5.96e-02	0	48	0	50331648	61	7007
2026-01-02 00:15:35.37	23.86	5.70	-49.0	-53.1	10.6	4.19e-03	0	48	0	57671680	61	5569
2026-01-02 00:15:39.34	23.94	5.98	-48.8	-52.4	11.5	7.02e-04	0	49	0	66060288	60	5443
2026-01-02 00:15:43.29	24.03	6.28	-48.3	-51.4	12.6	1.50e-04	0	49	0	73400320	59	5116
2026-01-02 00:15:47.24	24.12	6.57	-48.1	-50.8	13.2	9.90e-06	0	49	0	80740352	59	4810
2026-01-02 00:15:51.19	24.21	6.87	-47.8	-50.5	13.7	5.30e-06	0	49	0	88080384	58	4889
2026-01-02 00:15:55.16	24.30	7.17	-47.7	-50.2	14.0	1.50e-06	0	49	0	95420416	57	5022
2026-01-02 00:15:59.11	24.39	7.47	-47.8	-50.3	14.0	3.80e-06	0	50	0	102760448	57	5074
2026-01-02 00:16:03.08	24.49	7.78	-47.8	-50.3	14.0	3.80e-06	0	50	0	110100480	57	5055
2026-01-02 00:16:07.04	24.58	8.09	-47.8	-50.2	14.1	5.30e-06	0	50	0	117440512	57	5022
2026-01-02 00:16:11.01	24.68	8.41	-47.6	-50.0	14.4	0.00e+00	0	50	0	124780544	57	4896
2026-01-02 00:16:14.97	24.78	8.73	-47.9	-50.3	14.0	3.00e-06	0	50	0	132120576	57	5081
2026-01-02 00:16:18.93	24.88	9.06	-47.8	-50.3	14.1	7.00e-07	0	50	0	139460608	57	5047
2026-01-02 00:16:22.90	24.99	9.38	-47.7	-50.1	14.3	2.20e-06	0	51	0	146800640	57	4955
2026-01-02 00:16:26.86	25.09	9.72	-47.7	-50.1	14.3	1.50e-06	0	51	0	154140672	57	4929
2026-01-02 00:16:30.82	25.20	10.05	-47.4	-49.6	14.8	0.00e+00	0	51	0	162529280	57	4697
2026-01-02 00:16:34.79	25.31	10.40	-47.2	-49.2	15.3	0.00e+00	0	51	0	169869312	57	4450
2026-01-02 00:16:38.76	25.42	10.75	-47.0	-48.9	15.5	0.00e+00	0	51	0	177209344	56	4591
2026-01-02 00:16:42.71	25.53	11.10	-47.0	-48.9	15.7	0.00e+00	0	51	0	184549376	56	4570
2026-01-02 00:16:46.66	25.65	11.45	-46.9	-48.7	15.8	0.00e+00	0	51	0	191889408	56	4492
2026-01-02 00:16:50.60	25.77	11.81	-46.9	-48.8	15.8	0.00e+00	0	52	0	199229440	56	4496
2026-01-02 00:16:54.56	25.89	12.18	-47.1	-49.0	15.5	0.00e+00	0	52	0	206569472	56	4651
2026-01-02 00:16:58.51	26.01	12.55	-46.9	-48.8	15.8	0.00e+00	0	52	0	213909504	56	4513
2026-01-02 00:17:02.47	26.14	12.93	-46.8	-48.7	16.0	0.00e+00	0	52	0	221249536	56	4449
2026-01-02 00:17:06.42	26.27	13.31	-46.9	-48.8	15.9	0.00e+00	0	52	0	228589568	56	4497
2026-01-02 00:17:10.37	26.40	13.70	-46.8	-48.7	16.0	0.00e+00	0	52	0	235929600	56	4447
2026-01-02 00:17:14.33	26.54	14.10	-46.5	-48.3	16.4	0.00e+00	0	52	0	243269632	56	4244
2026-01-02 00:17:18.28	26.68	14.50	-46.8	-48.5	16.0	0.00e+00	0	52	0	250609664	55	4644
2026-01-02 00:17:22.24	26.82	14.91	-46.5	-48.3	16.3	0.00e+00	0	53	0	258998272	55	4505
2026-01-02 00:17:26.19	26.96	15.32	-46.6	-48.4	16.2	0.00e+00	0	53	0	266338304	55	4557
2026-01-02 00:17:30.14	27.11	15.75	-46.6	-48.3	16.3	0.00e+00	0	52	0	273678336	55	4521
2026-01-02 00:17:34.09	27.27	16.18	-46.6	-48.3	16.3	0.00e+00	0	53	0	281018368	55	4509
2026-01-02 00:17:38.05	27.42	16.62	-46.6	-48.3	16.3	0.00e+00	0	53	0	288358400	55	4539
2026-01-02 00:17:42.01	27.59	17.06	-46.9	-48.7	16.0	0.00e+00	0	53	0	295698432	55	4714
2026-01-02 00:17:45.97	27.75	17.52	-47.1	-48.9	15.7	0.00e+00	0	53	0	303038464	55	4869
2026-01-02 00:17:49.92	27.92	17.98	-47.3	-49.3	15.5	0.00e+00	0	53	0	310378496	56	4770
2026-01-02 00:17:53.88	28.10	18.45	-47.4	-49.5	15.3	0.00e+00	0	53	0	317718528	57	4641
2026-01-02 00:17:57.84	28.28	18.93	-47.2	-49.3	15.6	0.00e+00	0	53	0	325058560	57	4498
2026-01-02 00:18:01.79	28.46	19.42	-47.5	-49.7	15.2	0.00e+00	0	53	0	332398592	57	4716
2026-01-02 00:18:05.75	28.65	19.92	-47.8	-50.1	14.7	0.00e+00	0	54	0	339738624	57	4970
2026-01-02 00:18:09.70	28.85	20.43	-47.7	-49.8	15.0	0.00e+00	0	54	0	347078656	57	4810
2026-01-02 00:18:13.67	29.05	20.95	-47.7	-49.8	15.1	0.00e+00	0	53	0	354418688	57	4805
2026-01-02 00:18:17.63	29.26	21.48	-47.2	-49.0	15.9	0.00e+00	0	54	0	362807296	57	4377
2026-01-02 00:18:21.59	29.48	22.02	-47.1	-48.8	16.0	0.00e+00	0	54	0	370147328	57	4277
2026-01-02 00:18:25.55	29.70	22.57	-47.3	-49.2	15.7	0.00e+00	0	54	0	377487360	57	4468
2026-01-02 00:18:29.49	29.93	23.14	-47.4	-49.2	15.7	0.00e+00	0	54	0	384827392	57	4489
2026-01-02 00:18:33.44	30.17	23.71	-47.6	-49.8	15.1	0.00e+00	0	54	0	392167424	57	4769
2026-01-02 00:18:37.40	30.41	24.30	-47.7	-49.9	15.0	0.00e+00	0	54	0	399507456	57	4869
2026-01-02 00:18:41.36	30.67	24.90	-47.7	-49.8	15.2	0.00e+00	0	54	0	406847488	57	4762
2026-01-02 00:18:45.32	30.93	25.52	-47.6	-49.6	15.3	0.00e+00	0	54	0	414187520	57	4698
2026-01-02 00:18:49.28	31.21	26.15	-47.1	-48.9	16.0	0.00e+00	0	54	0	421527552	57	4328
2026-01-02 00:18:53.24	31.49	26.80	-46.6	-48.2	16.7	0.00e+00	0	54	0	428867584	56	4240
2026-01-02 00:18:57.19	31.79	27.45	-46.0	-47.4	17.4	0.00e+00	0	54	0	436207616	55	4057
2026-01-02 00:19:01.15	32.10	28.13	-46.3	-47.9	16.9	0.00e+00	0	55	0	443547648	55	4293
2026-01-02 00:19:05.11	32.42	28.82	-46.6	-48.2	16.6	0.00e+00	0	54	0	450887680	55	4472
2026-01-02 00:19:09.07	32.75	29.53	-47.4	-49.3	15.7	0.00e+00	0	55	0	458227712	56	4766
2026-01-02 00:19:13.02	33.10	30.25	-47.8	-50.0	15.0	0.00e+00	0	55	0	466616320	57	4880
2026-01-02 00:19:16.96	33.46	30.99	-48.3	-50.7	14.4	1.50e-06	0	55	0	473956352	58	5009
2026-01-02 00:19:20.92	33.85	31.75	-48.6	-51.2	13.8	7.00e-07	0	55	0	481296384	59	4991
2026-01-02 00:19:24.87	34.24	32.53	-48.7	-51.6	13.2	4.95e-05	0	55	0	488636416	60	4938
2026-01-02 00:19:28.83	34.66	33.33	-48.7	-51.3	13.7	3.80e-06	0	55	0	495976448	59	5065
2026-01-02 00:19:32.78	35.10	34.15	-48.5	-51.0	13.9	7.00e-07	0	55	0	503316480	59	4889
2026-01-02 00:19:36.74	35.56	34.99	-48.6	-51.1	13.9	5.30e-06	0	55	0	510656512	59	4938
2026-01-02 00:19:40.69	36.04	35.85	-49.0	-51.9	13.1	1.67e-05	0	55	0	517996544	60	5157
2026-01-02 00:19:44.65	36.55	36.73	-49.0	-51.9	13.1	1.98e-05	0	55	0	525336576	60	5106
2026-01-02 00:19:48.59	37.08	37.63	-49.2	-52.4	12.8	5.34e-05	0	55	0	532676608	60	5408
2026-01-02 00:19:52.55	37.65	38.56	-48.6	-51.1	14.0	7.60e-06	0	55	0	540016640	60	4678
2026-01-02 00:19:56.52	38.25	39.51	-49.5	-52.8	12.3	1.08e-04	0	55	0	547356672	60	5695
2026-01-02 00:20:00.46	38.88	40.48	-49.9	-53.6	11.5	5.65e-04	0	55	0	554696704	61	5883
2026-01-02 00:20:04.40	39.55	41.47	-50.0	-53.9	11.1	1.41e-03	0	55	0	562036736	62	5724
2026-01-02 00:20:08.36	40.27	42.49	-49.7	-53.4	11.6	4.90e-04	0	55	0	570425344	62	5405
2026-01-02 00:20:12.31	41.03	43.53	-48.9	-51.5	13.6	9.10e-06	0	55	0	577765376	60	4921
2026-01-02 00:20:16.26	41.84	44.59	-48.5	-50.9	14.2	3.00e-06	0	55	0	585105408	59	4818
2026-01-02 00:20:20.20	42.70	45.67	-49.0	-51.8	13.3	1.98e-05	0	56	0	592445440	60	5085
2026-01-02 00:20:24.16	43.63	46.78	-48.4	-50.8	14.3	0.00e+00	0	55	0	599785472	58	5052
2026-01-02 00:20:28.11	44.62	47.91	-47.9	-50.0	15.1	0.00e+00	0	56	0	607125504	58	4618
2026-01-02 00:20:32.06	45.69	49.07	-46.7	-48.3	16.7	0.00e+00	0	56	0	614465536	56	4281
2026-01-02 00:20:36.02	46.85	50.24	-46.9	-48.5	16.5	0.00e+00	0	56	0	621805568	56	4375
2026-01-02 00:20:39.98	48.09	51.43	-46.1	-47.6	17.3	0.00e+00	0	55	0	629145600	55	4153
2026-01-02 00:20:43.93	49.44	52.63	-45.8	-47.2	17.7	0.00e+00	0	56	0	636485632	54	4231
2026-01-02 00:20:47.88	50.90	53.85	-45.4	-46.7	18.2	0.00e+00	0	56	0	643825664	53	4202
2026-01-02 00:20:51.84	52.49	55.08	-44.9	-46.0	19.0	0.00e+00	0	56	0	651165696	51	4361
2026-01-02 00:20:55.78	54.22	56.31	-44.6	-45.7	19.1	0.00e+00	0	56	0	658505728	52	3961
2026-01-02 00:20:59.72	56.10	57.54	-46.2	-47.7	17.2	0.00e+00	0	56	0	665845760	54	4481
2026-01-02 00:21:03.67	58.17	58.76	-46.1	-47.5	17.4	0.00e+00	0	56	0	673185792	54	4349
2026-01-02 00:21:07.63	60.44	59.98	-46.3	-47.7	17.2	0.00e+00	0	56	0	681574400	54	4485
2026-01-02 00:21:11.58	62.93	61.17	-46.8	-48.4	16.6	0.00e+00	0	56	0	688914432	56	4330
2026-01-02 00:21:15.53	65.66	62.34	-47.1	-48.9	16.2	0.00e+00	0	56	0	696254464	56	4553
2026-01-02 00:21:19.49	68.66	63.47	-45.0	-46.1	18.8	0.00e+00	0	56	0	703594496	53	3944
2026-01-02 00:21:23.45	71.96	64.54	-46.0	-47.4	17.6	0.00e+00	0	56	0	710934528	54	4308
2026-01-02 00:21:27.41	75.58	65.54	-46.1	-47.6	17.3	0.00e+00	0	56	0	718274560	54	4421
2026-01-02 00:21:31.37	79.52	66.47	-46.6	-48.1	16.9	0.00e+00	0	56	0	725614592	55	4417
2026-01-02 00:21:35.32	83.79	67.29	-47.9	-50.0	15.1	0.00e+00	0	56	0	732954624	57	4921
2026-01-02 00:21:39.28	88.39	67.99	-46.6	-48.2	16.7	0.00e+00	0	56	0	740294656	55	4458
2026-01-02 00:21:43.23	93.28	68.57	-48.2	-50.4	14.8	0.00e+00	0	56	0	747634688	58	4819
2026-01-02 00:21:47.19	98.43	68.99	-48.9	-51.7	13.4	4.34e-05	0	56	0	754974720	60	5030
2026-01-02 00:21:51.15	103.77	69.25	-48.3	-50.5	14.7	0.00e+00	0	56	0	762314752	58	4892
2026-01-02 00:21:55.10	109.19	69.35	-48.5	-50.9	14.1	1.50e-06	0	56	0	769654784	59	4854
2026-01-02 00:21:59.04	114.60	69.27	-48.4	-50.8	14.5	0.00e+00	0	56	0	776994816	58	5050
2026-01-02 00:22:03.00	119.95	69.02	-47.6	-49.6	15.6	0.00e+00	0	56	0	785383424	57	4658
2026-01-02 00:22:06.94	125.10	68.61	-49.2	-52.2	12.9	4.95e-05	0	56	0	792723456	60	5331
2026-01-02 00:22:10.90	130.03	68.05	-47.5	-49.4	15.7	0.00e+00	0	56	0	800063488	58	4336
2026-01-02 00:22:14.87	134.68	67.36	-45.5	-46.8	18.1	0.00e+00	0	56	0	807403520	54	4020
2026-01-02 00:22:18.82	138.98	66.54	-45.9	-47.3	17.7	0.00e+00	0	56	0	814743552	54	4259
2026-01-02 00:22:22.77	142.94	65.63	-45.1	-46.3	18.7	0.00e+00	0	56	0	822083584	52	4257
2026-01-02 00:22:26.73	146.59	64.63	-45.4	-46.6	18.3	0.00e+00	0	56	0	829423616	53	4186
2026-01-02 00:22:30.68	149.92	63.56	-47.6	-49.6	15.5	0.00e+00	0	56	0	836763648	57	4692
2026-01-02 00:22:34.63	152.95	62.44	-47.0	-48.7	16.3	0.00e+00	0	56	0	844103680	55	4746
2026-01-02 00:22:38.57	155.70	61.28	-46.9	-48.6	16.5	0.00e+00	0	56	0	851443712	57	4155
2026-01-02 00:22:42.53	158.22	60.09	-44.7	-45.8	19.0	0.00e+00	0	56	0	858783744	52	4017
2026-01-02 00:22:46.49	160.51	58.87	-45.5	-46.8	18.1	0.00e+00	0	56	0	866123776	54	4050
2026-01-02 00:22:50.44	162.60	57.64	-46.4	-48.0	17.0	0.00e+00	0	56	0	873463808	54	4604
2026-01-02 00:22:54.40	164.51	56.40	-44.8	-45.9	18.9	0.00e+00	0	56	0	880803840	52	4078
2026-01-02 00:22:58.36	166.26	55.16	-44.7	-45.8	19.0	0.00e+00	0	56	0	889192448	52	4040
2026-01-02 00:23:02.31	167.86	53.93	-45.6	-46.9	18.0	0.00e+00	0	56	0	896532480	53	4326
2026-01-02 00:23:06.26	169.33	52.71	-45.7	-47.0	18.0	0.00e+00	0	56	0	903872512	54	4110
2026-01-02 00:23:10.22	170.69	51.50	-46.1	-47.5	17.4	0.00e+00	0	57	0	911212544	55	4127
2026-01-02 00:23:14.18	171.95	50.31	-45.0	-46.1	18.7	0.00e+00	0	56	0	918552576	52	4181
2026-01-02 00:23:18.14	173.11	49.13	-49.1	-52.1	13.0	6.80e-06	0	56	0	925892608	60	5243
2026-01-02 00:23:22.10	174.19	47.97	-46.8	-48.4	16.6	0.00e+00	0	56	0	933232640	56	4317
2026-01-02 00:23:26.06	175.19	46.83	-48.8	-51.5	13.6	1.14e-05	0	56	0	940572672	60	4892
2026-01-02 00:23:30.01	176.12	45.72	-47.4	-49.2	15.9	0.00e+00	0	57	0	947912704	57	4475
2026-01-02 00:23:33.97	176.99	44.62	-50.3	-54.5	10.5	1.76e-03	0	56	0	955252736	62	6162
2026-01-02 00:23:37.92	177.81	43.55	-47.5	-49.4	15.8	0.00e+00	0	57	0	962592768	58	4304
2026-01-02 00:23:41.89	178.57	42.50	-49.1	-52.1	12.9	1.60e-05	0	57	0	969932800	60	5256
2026-01-02 00:23:45.84	179.29	41.48	-47.0	-48.7	16.3	0.00e+00	0	57	0	977272832	57	4237
2026-01-02 00:23:49.79	179.97	40.48	-46.8	-48.3	16.6	0.00e+00	0	57	0	985661440	55	4542
2026-01-02 00:23:53.76	180.60	39.50	-49.3	-52.4	12.7	1.69e-04	0	57	0	993001472	60	5405
2026-01-02 00:23:57.71	181.20	38.55	-46.9	-48.5	16.5	0.00e+00	0	57	0	1000341504	56	4367
2026-01-02 00:24:01.68	181.77	37.62	-45.6	-47.0	17.9	0.00e+00	0	56	0	1007681536	54	4107
2026-01-02 00:24:05.65	182.31	36.71	-46.7	-48.4	16.5	0.00e+00	0	57	0	1015021568	55	4576
2026-01-02 00:24:09.61	182.82	35.82	-47.6	-49.5	15.6	0.00e+00	0	57	0	1022361600	57	4619
2026-01-02 00:24:13.57	183.31	34.96	-47.2	-48.9	16.2	0.00e+00	0	56	0	1029701632	57	4304
2026-01-02 00:24:17.54	183.77	34.11	-48.2	-50.4	14.7	0.00e+00	0	56	0	1037041664	58	4861
2026-01-02 00:24:21.49	184.21	33.29	-48.9	-51.6	13.4	1.29e-05	0	56	0	1044381696	60	4977
2026-01-02 00:24:25.46	184.63	32.49	-48.5	-50.9	14.1	7.00e-07	0	57	0	1051721728	59	4852
2026-01-02 00:24:29.43	185.03	31.70	-47.7	-49.6	15.5	0.00e+00	0	57	0	1059061760	58	4421
2026-01-02 00:24:33.38	185.40	30.94	-47.6	-49.5	15.6	0.00e+00	0	57	0	1066401792	57	4616
2026-01-02 00:24:37.34	185.77	30.19	-47.4	-49.3	15.8	0.00e+00	0	57	0	1074790400	57	4503
2026-01-02 00:24:41.30	186.12	29.47	-47.9	-50.1	15.0	0.00e+00	0	56	0	1082130432	57	4930
2026-01-02 00:24:45.25	186.45	28.76	-48.9	-51.7	13.3	1.67e-05	0	57	0	1089470464	60	5025
2026-01-02 00:24:49.21	186.77	28.06	-48.6	-51.1	13.9	6.10e-06	0	57	0	1096810496	60	4705
2026-01-02 00:24:53.16	187.08	27.39	-47.6	-49.5	15.5	0.00e+00	0	57	0	1104150528	58	4365
2026-01-02 00:24:57.11	187.37	26.72	-47.1	-48.9	16.1	0.00e+00	0	57	0	1111490560	57	4307
2026-01-02 00:25:01.07	187.66	26.08	-48.1	-50.3	14.7	0.00e+00	0	57	0	1118830592	57	5050
2026-01-02 00:25:05.04	187.93	25.44	-49.1	-52.1	13.0	4.19e-05	0	57	0	1126170624	60	5239
2026-01-02 00:25:09.00	188.20	24.82	-47.4	-49.4	15.6	0.00e+00	0	57	0	1133510656	58	4297
2026-01-02 00:25:12.96	188.45	24.22	-46.0	-47.5	17.4	0.00e+00	0	57	0	1140850688	54	4357
2026-01-02 00:25:16.90	188.70	23.63	-45.3	-46.5	18.1	0.00e+00	0	57	0	1148190720	53	4141
2026-01-02 00:25:20.86	188.93	23.05	-45.2	-46.4	18.3	0.00e+00	0	57	0	1155530752	53	4084
2026-01-02 00:25:24.82	189.16	22.48	-45.7	-47.0	17.8	0.00e+00	0	57	0	1162870784	53	4357
2026-01-02 00:25:28.78	189.39	21.93	-46.4	-47.9	16.9	0.00e+00	0	57	0	1171259392	54	4589
2026-01-02 00:25:32.71	189.60	21.39	-46.9	-48.7	16.1	0.00e+00	0	57	0	1178599424	55	4713
2026-01-02 00:25:36.66	189.81	20.86	-46.2	-47.7	17.1	0.00e+00	0	57	0	1185939456	55	4235
2026-01-02 00:25:40.63	190.01	20.34	-45.3	-46.6	18.1	0.00e+00	0	57	0	1193279488	53	4167
2026-01-02 00:25:44.59	190.20	19.82	-44.9	-46.0	18.6	0.00e+00	0	57	0	1200619520	52	4142
2026-01-02 00:25:48.56	190.39	19.32	-45.0	-46.2	18.5	0.00e+00	0	56	0	1207959552	52	4203
2026-01-02 00:25:52.52	190.58	18.83	-45.3	-46.6	18.1	0.00e+00	0	57	0	1215299584	52	4394
2026-01-02 00:25:56.45	190.75	18.35	-46.0	-47.5	17.3	0.00e+00	0	57	0	1222639616	53	4613
2026-01-02 00:26:00.41	190.93	17.88	-46.4	-47.9	16.8	0.00e+00	0	57	0	1229979648	54	4577
2026-01-02 00:26:04.37	191.10	17.41	-46.6	-48.3	16.4	0.00e+00	0	57	0	1237319680	55	4513
2026-01-02 00:26:08.33	191.26	16.96	-46.8	-48.5	16.2	0.00e+00	0	57	0	1244659712	55	4639
2026-01-02 00:26:12.29	191.42	16.51	-47.2	-49.1	15.7	0.00e+00	0	57	0	1251999744	56	4687
2026-01-02 00:26:16.26	191.57	16.07	-47.3	-49.3	15.5	0.00e+00	0	57	0	1259339776	56	4789
2026-01-02 00:26:20.24	191.73	15.63	-47.1	-48.9	15.9	0.00e+00	0	57	0	1267728384	56	4582
2026-01-02 00:26:24.21	191.87	15.21	-46.5	-48.1	16.7	0.00e+00	0	57	0	1275068416	56	4146
2026-01-02 00:26:28.15	192.02	14.79	-46.5	-48.2	16.5	0.00e+00	0	57	0	1282408448	55	4462
2026-01-02 00:26:32.12	192.16	14.38	-46.6	-48.4	16.3	0.00e+00	0	57	0	1289748480	55	4555
2026-01-02 00:26:36.07	192.29	13.98	-47.3	-49.2	15.5	0.00e+00	0	57	0	1297088512	56	4746
2026-01-02 00:26:40.02	192.43	13.58	-47.5	-49.6	15.2	0.00e+00	0	57	0	1304428544	56	4941
2026-01-02 00:26:43.98	192.56	13.19	-47.5	-49.5	15.3	0.00e+00	0	57	0	1311768576	57	4626
2026-01-02 00:26:47.94	192.69	12.80	-47.7	-50.0	14.8	0.00e+00	0	57	0	1319108608	57	4872
2026-01-02 00:26:51.91	192.81	12.42	-47.8	-50.1	14.6	0.00e+00	0	57	0	1326448640	57	4964
2026-01-02 00:26:55.87	192.93	12.05	-48.0	-50.4	14.3	0.00e+00	0	57	0	1333788672	57	5153
2026-01-02 00:26:59.82	193.05	11.68	-47.7	-49.9	14.8	0.00e+00	0	57	0	1341128704	57	4850
2026-01-02 00:27:03.78	193.17	11.32	-47.4	-49.5	15.2	0.00e+00	0	57	0	1348468736	57	4630
2026-01-02 00:27:07.74	193.28	10.96	-47.4	-49.6	15.1	0.00e+00	0	57	0	1355808768	57	4674
2026-01-02 00:27:11.70	193.39	10.61	-47.5	-49.6	15.0	0.00e+00	0	57	0	1364197376	57	4682
2026-01-02 00:27:15.67	193.50	10.26	-47.6	-49.7	14.9	0.00e+00	0	57	0	1371537408	57	4740
2026-01-02 00:27:19.62	193.61	9.92	-47.6	-49.8	14.8	0.00e+00	0	57	0	1378877440	57	4765
2026-01-02 00:27:23.58	193.72	9.58	-47.5	-49.6	14.9	0.00e+00	0	57	0	1386217472	57	4702
2026-01-02 00:27:27.54	193.82	9.25	-47.5	-49.6	14.9	7.00e-07	0	57	0	1393557504	57	4683
2026-01-02 00:27:31.50	193.92	8.92	-47.7	-49.9	14.6	7.00e-07	0	57	0	1400897536	57	4856
2026-01-02 00:27:35.45	194.02	8.60	-47.8	-50.1	14.4	0.00e+00	0	57	0	1408237568	57	4945
2026-01-02 00:27:39.40	194.12	8.28	-47.8	-50.2	14.3	0.00e+00	0	57	0	1415577600	57	4992
2026-01-02 00:27:43.36	194.21	7.96	-47.3	-49.4	15.0	0.00e+00	0	57	0	1422917632	57	4596
2026-01-02 00:27:47.33	194.30	7.64	-47.5	-49.7	14.7	0.00e+00	0	57	0	1430257664	57	4746
2026-01-02 00:27:51.29	194.40	7.34	-47.4	-49.7	14.7	0.00e+00	0	57	0	1437597696	57	4721
2026-01-02 00:27:55.25	194.49	7.03	-47.7	-50.1	14.2	7.00e-07	0	57	0	1444937728	57	4966
2026-01-02 00:27:59.21	194.58	6.73	-47.9	-50.5	13.8	3.80e-06	0	57	0	1452277760	57	5171
2026-01-02 00:28:03.15	194.66	6.43	-47.2	-49.4	14.9	0.00e+00	0	57	0	1460666368	57	4551
2026-01-02 00:28:07.11	194.75	6.14	-47.4	-49.6	14.7	7.00e-07	0	57	0	1468006400	57	4665
2026-01-02 00:28:11.08	194.83	5.84	-47.6	-50.0	14.2	2.20e-06	0	57	0	1475346432	57	4892
2026-01-02 00:28:15.04	194.92	5.55	-47.7	-50.2	14.0	3.80e-06	0	57	0	1482686464	57	4992
2026-01-02 00:28:19.00	195.00	5.27	-47.6	-50.0	14.1	1.50e-06	0	57	0	1490026496	57	4912
2026-01-02 00:28:22.95	195.08	4.99	-51.5	-65.3	3.8	1.49e+00	0	57	104	1496317952	64	19029
2026-01-02 00:28:26.90	195.16	4.71	-52.1	-66.0	3.8	1.49e+00	0	57	104	1496317952	66	18362
2026-01-02 00:28:30.86	195.23	4.43	-52.3	-66.1	3.8	1.49e+00	0	57	104	1496317952	66	18709
2026-01-02 00:28:34.81	195.31	4.16	-52.4	-66.3	3.8	1.49e+00	0	57	104	1496317952	66	18954
2026-01-02 00:28:38.77	195.39	3.89	-52.4	-66.3	3.8	1.49e+00	0	57	104	1496317952	66	18988
2026-01-02 00:28:42.73	195.46	3.62	-52.5	-66.3	3.8	1.49e+00	0	57	104	1496317952	66	19024
2026-01-02 00:28:46.69	195.53	3.35	-52.5	-66.3	3.8	1.49e+00	0	57	104	1496317952	66	19041
2026-01-02 00:28:50.64	195.61	3.09	-52.4	-66.3	3.8	1.49e+00	0	57	104	1496317952	66	19070

#Closed at: 2026-01-02 00:28:52
#Recorded file [1496 MB]: D:/Data/31026_260102_032822.dat