passes_logs/2026/01/02/R3.0SM8_Murmansk_STILSPACE/R3.0SM8_Murmansk_STILSPACE__20260102_235607_SUOMI_NPP_rec.log

#Pass ID: 20260102_235607_SUOMI NPP
#Satellite: SUOMI NPP
#Configuration: NPP
#almurnet v.1.7.20240730
#Start time: 2026-01-02 23:56:07

#Version: 2.2.20231116
#Station: R3.0SM8_Murmansk_STILSPACE
#Location: 33.092731 lon 68.902999 lat
#TLE: 1 37849U 11061A   26001.07732418  .00000182  00000+0  10735-3 0  9990
#TLE: 2 37849  98.7795 303.2470 0002580  87.2016 272.9455 14.19520779734739

#Time	Az	El	Level	Level2	SNR	BER	BlckErr	Temp	State	Recorded	gain1	gain2
2026-01-02 23:56:07.06	22.28	3.00	-52.9	-66.9	3.8	1.49e+00	0	46	0	0	68	18209
2026-01-02 23:56:11.01	22.39	3.25	-52.8	-66.7	3.8	1.49e+00	0	47	104	0	68	17858
2026-01-02 23:56:14.97	22.51	3.51	-51.8	-64.9	3.8	1.49e+00	0	47	104	0	66	16150
2026-01-02 23:56:18.91	22.62	3.77	-50.9	-60.4	4.6	9.51e-01	0	47	0	5242880	64	10872
2026-01-02 23:56:22.87	22.74	4.04	-50.9	-60.0	4.8	7.97e-01	0	47	0	12582912	64	10361
2026-01-02 23:56:26.82	22.86	4.31	-50.7	-58.4	5.8	4.48e-01	0	48	0	19922944	64	8603
2026-01-02 23:56:30.77	22.98	4.58	-50.0	-55.6	8.4	4.68e-02	0	48	0	27262976	63	6606
2026-01-02 23:56:34.72	23.10	4.85	-50.1	-55.4	8.5	4.40e-02	0	49	0	34603008	63	6483
2026-01-02 23:56:38.68	23.22	5.12	-49.9	-54.7	9.4	2.18e-02	0	48	0	42991616	62	6277
2026-01-02 23:56:42.65	23.35	5.40	-49.5	-53.8	10.4	3.31e-03	0	49	0	50331648	61	5999
2026-01-02 23:56:46.60	23.48	5.68	-49.4	-53.2	11.1	1.81e-03	0	49	0	57671680	61	5629
2026-01-02 23:56:50.55	23.61	5.97	-49.4	-53.0	11.5	7.27e-04	0	49	0	65011712	61	5506
2026-01-02 23:56:54.50	23.74	6.25	-49.2	-52.4	12.4	1.56e-04	0	49	0	72351744	61	5108
2026-01-02 23:56:58.45	23.88	6.54	-49.2	-52.4	12.4	1.73e-04	0	50	0	79691776	61	5143
2026-01-02 23:57:02.40	24.02	6.83	-49.2	-52.3	12.6	8.23e-05	0	50	0	87031808	61	5049
2026-01-02 23:57:06.36	24.16	7.13	-49.0	-51.9	13.1	3.81e-05	0	50	0	94371840	61	4861
2026-01-02 23:57:10.31	24.30	7.43	-49.0	-51.9	13.2	1.98e-05	0	50	0	101711872	60	5113
2026-01-02 23:57:14.28	24.44	7.73	-49.0	-51.8	13.3	1.67e-05	0	50	0	109051904	60	5046
2026-01-02 23:57:18.23	24.59	8.04	-49.0	-51.7	13.4	1.22e-05	0	50	0	116391936	60	5029
2026-01-02 23:57:22.18	24.74	8.35	-48.9	-51.7	13.4	1.44e-05	0	51	0	123731968	60	5007
2026-01-02 23:57:26.13	24.89	8.66	-49.1	-51.9	13.3	1.75e-05	0	51	0	131072000	60	5133
2026-01-02 23:57:30.08	25.05	8.98	-48.9	-51.5	13.7	6.10e-06	0	51	0	138412032	60	4920
2026-01-02 23:57:34.03	25.21	9.30	-49.0	-51.7	13.6	9.10e-06	0	51	0	145752064	60	5016
2026-01-02 23:57:37.99	25.37	9.63	-48.7	-51.3	14.0	3.00e-06	0	51	0	154140672	60	4782
2026-01-02 23:57:41.95	25.54	9.96	-48.6	-51.0	14.2	3.00e-06	0	51	0	161480704	60	4649
2026-01-02 23:57:45.91	25.71	10.29	-48.6	-51.1	14.2	7.00e-07	0	52	0	168820736	60	4657
2026-01-02 23:57:49.86	25.88	10.63	-48.6	-51.1	14.3	0.00e+00	0	52	0	176160768	59	4933
2026-01-02 23:57:53.82	26.06	10.97	-48.7	-51.1	14.3	0.00e+00	0	52	0	183500800	59	4958
2026-01-02 23:57:57.78	26.24	11.32	-48.5	-50.7	14.6	1.50e-06	0	52	0	190840832	59	4743
2026-01-02 23:58:01.71	26.42	11.67	-48.6	-50.9	14.4	0.00e+00	0	52	0	198180864	59	4858
2026-01-02 23:58:05.65	26.61	12.03	-48.8	-51.2	14.2	7.00e-07	0	52	0	205520896	59	4987
2026-01-02 23:58:09.60	26.80	12.39	-48.5	-50.8	14.6	0.00e+00	0	52	0	212860928	59	4773
2026-01-02 23:58:13.55	27.00	12.76	-48.4	-50.6	14.9	0.00e+00	0	52	0	220200960	59	4653
2026-01-02 23:58:17.49	27.20	13.13	-47.9	-49.9	15.5	0.00e+00	0	52	0	227540992	58	4559
2026-01-02 23:58:21.45	27.40	13.51	-47.9	-49.8	15.6	0.00e+00	0	53	0	234881024	58	4519
2026-01-02 23:58:25.41	27.62	13.90	-48.0	-50.0	15.4	0.00e+00	0	53	0	242221056	58	4637
2026-01-02 23:58:29.35	27.83	14.28	-47.9	-49.8	15.7	0.00e+00	0	53	0	249561088	58	4539
2026-01-02 23:58:33.28	28.05	14.68	-47.8	-49.7	15.8	0.00e+00	0	53	0	256901120	58	4448
2026-01-02 23:58:37.23	28.28	15.08	-47.8	-49.7	15.8	0.00e+00	0	53	0	265289728	58	4463
2026-01-02 23:58:41.20	28.51	15.49	-47.8	-49.6	15.9	0.00e+00	0	53	0	272629760	58	4427
2026-01-02 23:58:45.16	28.75	15.91	-47.8	-49.6	15.9	0.00e+00	0	53	0	279969792	58	4404
2026-01-02 23:58:49.13	29.00	16.33	-47.9	-49.7	15.8	0.00e+00	0	53	0	287309824	58	4485
2026-01-02 23:58:53.10	29.25	16.76	-47.9	-49.8	15.8	0.00e+00	0	53	0	294649856	58	4498
2026-01-02 23:58:57.06	29.51	17.20	-47.9	-49.8	15.8	0.00e+00	0	53	0	301989888	58	4511
2026-01-02 23:59:01.02	29.77	17.64	-47.7	-49.6	16.0	0.00e+00	0	53	0	309329920	58	4394
2026-01-02 23:59:04.97	30.04	18.09	-47.4	-49.0	16.5	0.00e+00	0	54	0	316669952	57	4374
2026-01-02 23:59:08.95	30.33	18.56	-47.7	-49.5	16.1	0.00e+00	0	54	0	324009984	57	4618
2026-01-02 23:59:12.91	30.62	19.02	-47.2	-48.8	16.7	0.00e+00	0	54	0	331350016	57	4281
2026-01-02 23:59:16.86	30.91	19.50	-47.0	-48.6	17.0	0.00e+00	0	54	0	338690048	57	4147
2026-01-02 23:59:20.82	31.22	19.98	-46.9	-48.4	17.1	0.00e+00	0	54	0	346030080	56	4336
2026-01-02 23:59:24.78	31.54	20.48	-47.4	-49.0	16.6	0.00e+00	0	54	0	354418688	56	4636
2026-01-02 23:59:28.73	31.86	20.98	-47.4	-49.0	16.6	0.00e+00	0	54	0	361758720	56	4620
2026-01-02 23:59:32.67	32.19	21.49	-47.1	-48.7	16.9	0.00e+00	0	54	0	369098752	57	4223
2026-01-02 23:59:36.62	32.54	22.01	-46.9	-48.5	17.1	0.00e+00	0	54	0	376438784	56	4342
2026-01-02 23:59:40.57	32.90	22.54	-47.1	-48.7	16.9	0.00e+00	0	54	0	383778816	56	4461
2026-01-02 23:59:44.53	33.27	23.08	-46.6	-48.0	17.6	0.00e+00	0	54	0	391118848	56	4137
2026-01-02 23:59:48.49	33.65	23.64	-46.3	-47.6	17.9	0.00e+00	0	54	0	398458880	55	4185
2026-01-02 23:59:52.43	34.04	24.20	-46.3	-47.6	17.8	0.00e+00	0	54	0	405798912	55	4187
2026-01-02 23:59:56.38	34.45	24.77	-46.0	-47.3	18.2	0.00e+00	0	54	0	413138944	55	4017
2026-01-03 00:00:00.33	34.87	25.36	-46.0	-47.3	18.2	0.00e+00	0	54	0	420478976	55	4013
2026-01-03 00:00:04.30	35.32	25.95	-46.4	-47.7	17.8	0.00e+00	0	54	0	427819008	55	4227
2026-01-03 00:00:08.24	35.77	26.56	-46.5	-47.9	17.6	0.00e+00	0	55	0	435159040	55	4306
2026-01-03 00:00:12.20	36.24	27.18	-46.8	-48.3	17.3	0.00e+00	0	55	0	442499072	55	4500
2026-01-03 00:00:16.16	36.73	27.82	-47.8	-49.6	16.1	0.00e+00	0	55	0	449839104	57	4675
2026-01-03 00:00:20.11	37.24	28.46	-48.3	-50.2	15.5	0.00e+00	0	55	0	458227712	58	4746
2026-01-03 00:00:24.07	37.77	29.12	-48.5	-50.7	15.1	0.00e+00	0	55	0	465567744	59	4715
2026-01-03 00:00:28.02	38.33	29.79	-48.7	-51.1	14.8	0.00e+00	0	55	0	472907776	59	4929
2026-01-03 00:00:31.98	38.90	30.48	-49.4	-52.1	13.7	1.50e-06	0	55	0	480247808	60	5247
2026-01-03 00:00:35.93	39.50	31.18	-49.3	-52.0	13.8	1.06e-05	0	55	0	487587840	61	4880
2026-01-03 00:00:39.88	40.12	31.89	-49.7	-52.6	13.1	2.67e-05	0	55	0	494927872	61	5262
2026-01-03 00:00:43.84	40.78	32.62	-49.0	-51.3	14.5	7.00e-07	0	55	0	502267904	60	4778
2026-01-03 00:00:47.80	41.46	33.36	-49.2	-51.6	14.1	0.00e+00	0	55	0	509607936	60	4978
2026-01-03 00:00:51.76	42.18	34.11	-48.7	-51.0	14.9	1.50e-06	0	55	0	516947968	60	4615
2026-01-03 00:00:55.71	42.92	34.88	-48.6	-50.7	15.1	0.00e+00	0	55	0	524288000	60	4483
2026-01-03 00:00:59.68	43.71	35.66	-49.1	-51.4	14.4	7.00e-07	0	55	0	531628032	60	4862
2026-01-03 00:01:03.64	44.53	36.46	-48.9	-51.2	14.7	0.00e+00	0	55	0	538968064	60	4729
2026-01-03 00:01:07.60	45.39	37.27	-48.8	-51.1	14.7	0.00e+00	0	55	0	546308096	60	4674
2026-01-03 00:01:11.55	46.29	38.09	-48.9	-51.2	14.7	7.00e-07	0	55	0	553648128	60	4735
2026-01-03 00:01:15.51	47.24	38.92	-49.0	-51.4	14.4	3.00e-06	0	55	0	560988160	60	4843
2026-01-03 00:01:19.46	48.24	39.77	-48.9	-51.3	14.5	2.20e-06	0	55	0	569376768	60	4762
2026-01-03 00:01:23.42	49.30	40.62	-48.5	-50.7	15.2	0.00e+00	0	55	0	576716800	60	4447
2026-01-03 00:01:27.37	50.40	41.49	-47.9	-49.7	16.1	0.00e+00	0	55	0	584056832	58	4452
2026-01-03 00:01:31.31	51.57	42.36	-48.6	-50.6	15.2	0.00e+00	0	55	0	591396864	59	4702
2026-01-03 00:01:35.25	52.80	43.24	-48.5	-50.5	15.4	0.00e+00	0	55	0	598736896	59	4630
2026-01-03 00:01:39.20	54.10	44.12	-49.0	-51.2	14.7	7.00e-07	0	56	0	606076928	59	4991
2026-01-03 00:01:43.16	55.47	45.02	-48.3	-50.2	15.6	0.00e+00	0	56	0	613416960	59	4483
2026-01-03 00:01:47.11	56.93	45.91	-49.1	-51.6	14.3	7.00e-07	0	55	0	620756992	60	4948
2026-01-03 00:01:51.09	58.47	46.80	-50.1	-53.2	12.6	4.57e-05	0	56	0	628097024	62	5324
2026-01-03 00:01:55.05	60.10	47.69	-50.6	-54.3	11.6	1.06e-03	0	56	0	635437056	63	5665
2026-01-03 00:01:59.01	61.83	48.57	-50.2	-53.3	12.4	2.30e-04	0	56	0	642777088	63	5094
2026-01-03 00:02:02.95	63.64	49.43	-49.5	-52.4	13.5	1.67e-05	0	55	0	650117120	62	4846
2026-01-03 00:02:06.91	65.57	50.29	-49.7	-52.5	13.4	1.14e-05	0	56	0	657457152	61	5197
2026-01-03 00:02:10.87	67.60	51.12	-49.9	-52.8	13.0	9.10e-06	0	56	0	665845760	61	5388
2026-01-03 00:02:14.82	69.75	51.93	-49.4	-52.0	14.0	3.00e-06	0	56	0	673185792	61	4874
2026-01-03 00:02:18.79	72.02	52.71	-49.0	-51.3	14.6	0.00e+00	0	56	0	680525824	60	4767
2026-01-03 00:02:22.75	74.41	53.45	-47.5	-49.1	16.7	0.00e+00	0	56	0	687865856	58	4175
2026-01-03 00:02:26.70	76.91	54.15	-47.5	-49.1	16.7	0.00e+00	0	56	0	695205888	57	4427
2026-01-03 00:02:30.64	79.53	54.80	-47.0	-48.5	17.3	0.00e+00	0	56	0	702545920	57	4106
2026-01-03 00:02:34.59	82.26	55.40	-46.7	-48.1	17.6	0.00e+00	0	56	0	709885952	55	4423
2026-01-03 00:02:38.55	85.12	55.94	-46.4	-47.7	18.0	0.00e+00	0	56	0	717225984	55	4228
2026-01-03 00:02:42.52	88.09	56.42	-47.3	-48.9	16.9	0.00e+00	0	56	0	724566016	57	4338
2026-01-03 00:02:46.47	91.14	56.82	-47.8	-49.5	16.4	0.00e+00	0	56	0	731906048	58	4381
2026-01-03 00:02:50.43	94.28	57.14	-49.1	-51.4	14.5	7.00e-07	0	56	0	739246080	60	4837
2026-01-03 00:02:54.39	97.49	57.38	-49.1	-51.5	14.4	1.50e-06	0	56	0	746586112	61	4632
2026-01-03 00:02:58.37	100.76	57.54	-49.3	-51.8	14.1	6.10e-06	0	56	0	753926144	61	4800
2026-01-03 00:03:02.33	104.04	57.62	-49.5	-52.3	13.6	3.80e-06	0	56	0	762314752	60	5364
2026-01-03 00:03:06.27	107.31	57.60	-48.8	-51.0	14.9	0.00e+00	0	56	0	769654784	60	4599
2026-01-03 00:03:10.24	110.60	57.50	-47.8	-49.6	16.3	0.00e+00	0	56	0	776994816	57	4663
2026-01-03 00:03:14.19	113.83	57.31	-47.9	-49.6	16.2	0.00e+00	0	56	0	784334848	58	4402
2026-01-03 00:03:18.16	117.02	57.03	-47.7	-49.4	16.4	0.00e+00	0	56	0	791674880	58	4295
2026-01-03 00:03:22.11	120.13	56.68	-47.8	-49.6	16.4	0.00e+00	0	56	0	799014912	57	4657
2026-01-03 00:03:26.07	123.15	56.25	-47.3	-48.8	17.1	0.00e+00	0	56	0	806354944	57	4245
2026-01-03 00:03:30.01	126.07	55.75	-47.4	-48.9	17.0	0.00e+00	0	56	0	813694976	56	4585
2026-01-03 00:03:33.96	128.88	55.19	-47.0	-48.4	17.4	0.00e+00	0	56	0	821035008	56	4330
2026-01-03 00:03:37.91	131.58	54.57	-46.4	-47.6	18.0	0.00e+00	0	56	0	828375040	55	4189
2026-01-03 00:03:41.87	134.17	53.90	-47.2	-48.7	17.1	0.00e+00	0	56	0	835715072	56	4466
2026-01-03 00:03:45.83	136.64	53.18	-48.4	-50.3	15.6	0.00e+00	0	56	0	843055104	58	4765
2026-01-03 00:03:49.80	138.99	52.42	-49.4	-52.1	13.9	1.50e-06	0	56	0	850395136	60	5221
2026-01-03 00:03:53.75	141.22	51.63	-48.4	-50.3	15.7	0.00e+00	0	56	0	857735168	59	4496
2026-01-03 00:03:57.71	143.33	50.81	-51.1	-55.6	10.2	2.61e-03	0	56	0	866123776	64	6233
2026-01-03 00:04:01.66	145.32	49.97	-49.8	-52.7	13.3	8.30e-06	0	56	0	873463808	61	5303
2026-01-03 00:04:05.62	147.21	49.11	-48.8	-51.0	15.0	7.00e-07	0	56	0	880803840	60	4608
2026-01-03 00:04:09.58	149.00	48.23	-50.9	-55.2	10.7	3.98e-03	0	56	0	888143872	64	5929
2026-01-03 00:04:13.55	150.70	47.34	-48.4	-50.4	15.5	0.00e+00	0	56	0	895483904	59	4547
2026-01-03 00:04:17.51	152.29	46.45	-49.0	-51.2	14.6	0.00e+00	0	56	0	902823936	59	4995
2026-01-03 00:04:21.47	153.80	45.56	-48.5	-50.5	15.5	0.00e+00	0	56	0	910163968	59	4599
2026-01-03 00:04:25.44	155.24	44.66	-48.4	-50.3	15.6	0.00e+00	0	56	0	917504000	59	4526
2026-01-03 00:04:29.39	156.58	43.77	-49.0	-51.2	14.7	7.00e-07	0	56	0	924844032	60	4738
2026-01-03 00:04:33.34	157.86	42.88	-48.9	-51.2	14.5	4.95e-05	0	56	0	932184064	61	4469
2026-01-03 00:04:37.30	159.07	42.00	-50.9	-54.8	11.1	2.10e-04	0	56	0	939524096	63	6041
2026-01-03 00:04:41.25	160.22	41.12	-48.9	-51.3	14.6	7.00e-07	0	56	0	946864128	60	4775
2026-01-03 00:04:45.21	161.31	40.26	-50.3	-53.5	12.3	1.75e-04	0	56	0	954204160	62	5516
2026-01-03 00:04:49.18	162.34	39.40	-48.3	-50.2	15.7	0.00e+00	0	56	0	962592768	59	4465
2026-01-03 00:04:53.15	163.33	38.55	-50.3	-53.7	12.1	1.32e-04	0	56	0	969932800	62	5615
2026-01-03 00:04:57.12	164.26	37.72	-48.5	-50.4	15.4	0.00e+00	0	56	0	977272832	59	4590
2026-01-03 00:05:01.08	165.15	36.90	-48.8	-50.9	15.0	0.00e+00	0	56	0	984612864	59	4841
2026-01-03 00:05:05.03	166.00	36.09	-48.5	-50.6	15.4	0.00e+00	0	56	0	991952896	59	4654
2026-01-03 00:05:08.99	166.80	35.30	-48.3	-50.3	15.6	0.00e+00	0	56	0	999292928	59	4495
2026-01-03 00:05:12.96	167.57	34.51	-50.1	-53.2	12.7	3.43e-05	0	56	0	1006632960	61	5598
2026-01-03 00:05:16.92	168.31	33.75	-50.1	-53.2	12.6	9.26e-04	0	56	0	1013972992	63	5018
2026-01-03 00:05:20.88	169.01	33.00	-48.8	-51.1	14.7	0.00e+00	0	56	0	1021313024	60	4700
2026-01-03 00:05:24.83	169.68	32.26	-49.3	-51.9	13.9	1.50e-06	0	57	0	1028653056	60	5113
2026-01-03 00:05:28.79	170.32	31.53	-48.9	-51.3	14.5	7.00e-07	0	56	0	1035993088	60	4783
2026-01-03 00:05:32.75	170.94	30.82	-49.4	-52.0	13.7	0.00e+00	0	56	0	1043333120	60	5217
2026-01-03 00:05:36.71	171.53	30.13	-49.5	-52.3	13.5	9.00e-05	0	57	0	1051721728	61	5076
2026-01-03 00:05:40.67	172.09	29.44	-48.6	-50.7	15.1	0.00e+00	0	56	0	1059061760	60	4471
2026-01-03 00:05:44.63	172.64	28.77	-48.0	-49.7	16.1	0.00e+00	0	56	0	1066401792	58	4475
2026-01-03 00:05:48.57	173.16	28.12	-49.6	-52.4	13.4	1.14e-05	0	56	0	1073741824	61	5128
2026-01-03 00:05:52.53	173.66	27.48	-49.5	-52.3	13.5	1.60e-05	0	57	0	1081081856	61	5054
2026-01-03 00:05:56.49	174.14	26.85	-49.6	-52.3	13.5	1.22e-05	0	57	0	1088421888	61	5065
2026-01-03 00:06:00.45	174.61	26.23	-49.3	-52.0	13.7	6.80e-06	0	56	0	1095761920	61	4911
2026-01-03 00:06:04.41	175.06	25.62	-49.3	-51.7	13.9	5.30e-06	0	56	0	1103101952	61	4758
2026-01-03 00:06:08.38	175.49	25.02	-48.4	-50.3	15.5	0.00e+00	0	57	0	1110441984	59	4513
2026-01-03 00:06:12.34	175.91	24.44	-47.8	-49.5	16.2	0.00e+00	0	56	0	1117782016	58	4384
2026-01-03 00:06:16.30	176.31	23.87	-47.7	-49.3	16.4	0.00e+00	0	56	0	1125122048	58	4278
2026-01-03 00:06:20.26	176.70	23.31	-47.6	-49.4	16.3	0.00e+00	0	56	0	1132462080	58	4292
2026-01-03 00:06:24.22	177.07	22.76	-48.2	-50.1	15.6	0.00e+00	0	56	0	1140850688	58	4698
2026-01-03 00:06:28.18	177.44	22.22	-48.3	-50.3	15.4	0.00e+00	0	57	0	1148190720	58	4782
2026-01-03 00:06:32.13	177.79	21.69	-47.8	-49.6	16.1	0.00e+00	0	56	0	1155530752	58	4395
2026-01-03 00:06:36.08	178.13	21.17	-47.4	-49.0	16.6	0.00e+00	0	56	0	1162870784	57	4379
2026-01-03 00:06:40.03	178.46	20.66	-46.5	-47.9	17.7	0.00e+00	0	56	0	1170210816	56	4078
2026-01-03 00:06:44.00	178.78	20.16	-46.1	-47.4	18.1	0.00e+00	0	57	0	1177550848	55	4081
2026-01-03 00:06:47.95	179.09	19.67	-46.0	-47.3	18.2	0.00e+00	0	56	0	1184890880	54	4247
2026-01-03 00:06:51.91	179.39	19.19	-46.9	-48.4	17.1	0.00e+00	0	56	0	1192230912	55	4589
2026-01-03 00:06:55.86	179.68	18.71	-47.6	-49.4	16.3	0.00e+00	0	56	0	1199570944	57	4554
2026-01-03 00:06:59.81	179.97	18.25	-48.3	-50.3	15.4	0.00e+00	0	56	0	1206910976	58	4769
2026-01-03 00:07:03.76	180.24	17.79	-48.3	-50.4	15.2	0.00e+00	0	56	0	1214251008	58	4834
2026-01-03 00:07:07.71	180.51	17.34	-48.4	-50.5	15.1	0.00e+00	0	56	0	1221591040	58	4885
2026-01-03 00:07:11.66	180.77	16.90	-48.7	-51.0	14.6	2.20e-06	0	57	0	1228931072	59	4908
2026-01-03 00:07:15.61	181.02	16.47	-48.6	-50.8	14.8	0.00e+00	0	56	0	1236271104	59	4790
2026-01-03 00:07:19.56	181.27	16.04	-48.0	-49.9	15.8	0.00e+00	0	56	0	1243611136	58	4550
2026-01-03 00:07:23.51	181.51	15.62	-47.5	-49.2	16.3	0.00e+00	0	57	0	1251999744	58	4235
2026-01-03 00:07:27.47	181.74	15.20	-47.0	-48.6	16.9	0.00e+00	0	57	0	1259339776	57	4176
2026-01-03 00:07:31.41	181.97	14.80	-47.5	-49.2	16.4	0.00e+00	0	56	0	1266679808	57	4445
2026-01-03 00:07:35.37	182.19	14.40	-47.0	-48.5	17.0	0.00e+00	0	56	0	1274019840	56	4374
2026-01-03 00:07:39.33	182.41	14.00	-47.2	-48.8	16.7	0.00e+00	0	56	0	1281359872	56	4505
2026-01-03 00:07:43.29	182.62	13.61	-47.4	-49.1	16.5	0.00e+00	0	56	0	1288699904	56	4656
2026-01-03 00:07:47.24	182.83	13.23	-47.7	-49.6	15.9	0.00e+00	0	57	0	1296039936	57	4657
2026-01-03 00:07:51.20	183.03	12.85	-48.1	-50.1	15.5	0.00e+00	0	56	0	1303379968	57	4931
2026-01-03 00:07:55.16	183.23	12.48	-48.4	-50.5	15.0	0.00e+00	0	57	0	1310720000	58	4916
2026-01-03 00:07:59.13	183.42	12.11	-48.8	-51.3	14.2	7.00e-07	0	56	0	1318060032	59	5091
2026-01-03 00:08:03.09	183.61	11.75	-49.3	-52.2	13.3	1.14e-05	0	56	0	1325400064	60	5292
2026-01-03 00:08:07.02	183.80	11.39	-49.3	-52.1	13.3	2.89e-05	0	56	0	1332740096	60	5244
2026-01-03 00:08:10.98	183.98	11.04	-49.4	-52.4	13.0	2.05e-05	0	56	0	1340080128	60	5435
2026-01-03 00:08:14.94	184.15	10.69	-49.1	-52.0	13.4	1.52e-05	0	56	0	1348468736	60	5173
2026-01-03 00:08:18.89	184.32	10.35	-49.4	-52.2	13.1	1.98e-05	0	56	0	1355808768	60	5327
2026-01-03 00:08:22.84	184.49	10.01	-49.2	-51.9	13.4	1.37e-05	0	56	0	1363148800	60	5134
2026-01-03 00:08:26.80	184.66	9.68	-49.0	-51.6	13.7	1.60e-05	0	56	0	1370488832	60	4951
2026-01-03 00:08:30.74	184.82	9.35	-48.4	-50.7	14.6	0.00e+00	0	56	0	1377828864	60	4475
2026-01-03 00:08:34.70	184.98	9.03	-48.4	-50.6	14.7	0.00e+00	0	56	0	1385168896	59	4674
2026-01-03 00:08:38.65	185.14	8.71	-48.1	-50.3	15.0	0.00e+00	0	56	0	1392508928	59	4509
2026-01-03 00:08:42.61	185.29	8.39	-48.1	-50.2	15.0	0.00e+00	0	56	0	1399848960	59	4484
2026-01-03 00:08:46.57	185.44	8.08	-48.2	-50.3	14.9	0.00e+00	0	56	0	1407188992	59	4525
2026-01-03 00:08:50.54	185.59	7.77	-48.2	-50.4	14.8	7.00e-07	0	56	0	1414529024	59	4559
2026-01-03 00:08:54.50	185.73	7.46	-48.5	-50.9	14.3	2.20e-06	0	56	0	1421869056	59	4820
2026-01-03 00:08:58.45	185.87	7.16	-48.6	-51.1	14.1	7.00e-07	0	56	0	1429209088	59	4928
2026-01-03 00:09:02.40	186.01	6.86	-49.0	-51.8	13.3	1.67e-05	0	56	0	1436549120	59	5345
2026-01-03 00:09:06.36	186.15	6.56	-48.8	-51.5	13.6	4.50e-06	0	56	0	1444937728	59	5176
2026-01-03 00:09:10.32	186.28	6.27	-48.8	-51.5	13.5	1.98e-05	0	56	0	1452277760	59	5192
2026-01-03 00:09:14.29	186.41	5.98	-49.0	-51.7	13.2	1.37e-05	0	56	0	1459617792	59	5329
2026-01-03 00:09:18.23	186.54	5.69	-48.9	-51.8	13.2	3.66e-05	0	56	0	1466957824	60	5060
2026-01-03 00:09:22.18	186.67	5.41	-49.1	-52.3	12.7	6.94e-05	0	56	0	1474297856	60	5358
2026-01-03 00:09:26.13	186.79	5.13	-49.4	-52.9	11.9	2.13e-04	0	56	0	1481637888	60	5725
2026-01-03 00:09:30.07	186.91	4.86	-52.5	-66.4	3.8	1.49e+00	0	56	104	1484783616	66	19170
2026-01-03 00:09:34.04	187.03	4.58	-52.9	-66.8	3.8	1.49e+00	0	56	104	1484783616	67	18964
2026-01-03 00:09:38.00	187.15	4.31	-53.0	-66.9	3.8	1.49e+00	0	56	104	1484783616	67	19207
2026-01-03 00:09:41.94	187.27	4.04	-53.0	-67.1	3.8	1.49e+00	0	56	104	1484783616	68	18537
2026-01-03 00:09:45.91	187.38	3.77	-53.1	-67.1	3.8	1.49e+00	0	56	104	1484783616	68	18622
2026-01-03 00:09:49.86	187.50	3.51	-53.3	-67.1	3.8	1.49e+00	0	56	104	1484783616	68	18660
2026-01-03 00:09:53.82	187.61	3.25	-53.3	-67.1	3.8	1.49e+00	0	57	104	1484783616	68	18615
2026-01-03 00:09:57.76	187.72	2.99	-53.2	-67.1	3.8	1.49e+00	0	56	104	1484783616	68	18623

#Closed at: 2026-01-03 00:10:00
#Recorded file [1484 MB]: D:/Data/31026_260103_030928.dat