passes_logs/2026/01/02/R3.0SM8_Murmansk_STILSPACE/R3.0SM8_Murmansk_STILSPACE__20260102_093415_FENGYUN_3D_rec.log

#Pass ID: 20260102_093415_FENGYUN 3D
#Satellite: FENGYUN 3D
#Configuration: FENGYUN 3D
#almurnet v.1.7.20240730
#Start time: 2026-01-02 09:34:14

#Version: 2.2.20231116
#Station: R3.0SM8_Murmansk_STILSPACE
#Location: 33.092731 lon 68.902999 lat
#TLE: 1 43010U 17072A   26001.33100487  .00000602  00000+0  30664-3 0  9999
#TLE: 2 43010  98.9910 332.9374 0001848 133.1047 227.0283 14.19692078421319

#Time	Az	El	Level	Level2	SNR	BER	BlckErr	Temp	State	Recorded	gain1	gain2
2026-01-02 09:34:14.92	105.94	2.98	-52.4	-63.2	3.8	8.45e-01	0	45	0	0	67	12593
2026-01-02 09:34:18.87	105.76	3.23	-52.0	-63.0	3.8	8.47e-01	0	46	104	0	67	12309
2026-01-02 09:34:22.82	105.58	3.49	-51.7	-62.4	3.8	8.46e-01	0	46	104	0	66	12169
2026-01-02 09:34:26.78	105.40	3.74	-51.6	-62.1	3.8	8.46e-01	0	46	104	0	66	11793
2026-01-02 09:34:30.72	105.22	4.00	-51.4	-61.8	3.8	8.46e-01	0	47	104	0	65	12067
2026-01-02 09:34:34.67	105.03	4.25	-51.4	-60.6	3.8	8.46e-01	0	47	104	0	65	10516
2026-01-02 09:34:38.65	104.83	4.52	-50.9	-57.8	4.5	8.26e-01	0	47	0	0	64	8076
2026-01-02 09:34:42.60	104.64	4.78	-50.1	-55.0	6.3	3.25e-01	0	47	0	6291456	63	6159
2026-01-02 09:34:46.56	104.44	5.05	-49.2	-52.6	8.6	4.09e-02	0	48	0	29360128	61	5241
2026-01-02 09:34:50.52	104.23	5.31	-48.8	-51.9	9.3	2.63e-02	0	48	0	51380224	60	5135
2026-01-02 09:34:54.45	104.03	5.58	-48.4	-51.0	10.3	6.88e-03	0	48	0	73400320	59	4921
2026-01-02 09:34:58.40	103.81	5.86	-47.7	-50.0	11.4	1.97e-03	0	48	0	95420416	58	4602
2026-01-02 09:35:02.34	103.60	6.13	-46.0	-47.6	13.8	9.10e-06	0	49	0	117440512	55	4167
2026-01-02 09:35:06.30	103.38	6.41	-44.9	-46.2	15.1	0.00e+00	0	49	0	140509184	53	3994
2026-01-02 09:35:10.25	103.15	6.69	-44.9	-46.2	15.2	0.00e+00	0	49	0	162529280	53	3985
2026-01-02 09:35:14.21	102.92	6.97	-44.9	-46.2	15.2	0.00e+00	0	49	0	184549376	52	4237
2026-01-02 09:35:18.15	102.69	7.26	-44.6	-45.8	15.7	0.00e+00	0	50	0	206569472	52	4011
2026-01-02 09:35:22.12	102.45	7.55	-44.8	-46.1	15.4	0.00e+00	0	50	0	228589568	52	4150
2026-01-02 09:35:26.08	102.20	7.84	-44.6	-45.8	15.7	0.00e+00	0	50	0	251658240	52	4014
2026-01-02 09:35:30.03	101.95	8.13	-44.5	-45.6	15.9	0.00e+00	0	50	0	273678336	52	3933
2026-01-02 09:35:33.99	101.69	8.43	-44.4	-45.5	16.1	0.00e+00	0	50	0	295698432	51	4127
2026-01-02 09:35:37.94	101.43	8.73	-44.8	-46.0	15.7	0.00e+00	0	51	0	317718528	51	4359
2026-01-02 09:35:41.88	101.17	9.03	-44.1	-45.1	16.5	0.00e+00	0	51	0	340787200	51	3953
2026-01-02 09:35:45.84	100.90	9.34	-44.1	-45.2	16.5	0.00e+00	0	51	0	362807296	51	3968
2026-01-02 09:35:49.81	100.62	9.65	-44.1	-45.2	16.6	0.00e+00	0	51	0	384827392	51	3960
2026-01-02 09:35:53.76	100.33	9.96	-43.9	-44.9	16.8	0.00e+00	0	51	0	406847488	50	4080
2026-01-02 09:35:57.72	100.04	10.27	-43.8	-44.8	17.0	0.00e+00	0	51	0	428867584	50	4006
2026-01-02 09:36:01.67	99.74	10.59	-43.9	-44.9	16.8	0.00e+00	0	51	0	451936256	50	4083
2026-01-02 09:36:05.62	99.44	10.91	-44.0	-45.0	16.8	0.00e+00	0	52	0	473956352	50	4127
2026-01-02 09:36:09.57	99.13	11.24	-43.8	-44.8	17.0	0.00e+00	0	52	0	495976448	50	4014
2026-01-02 09:36:13.54	98.80	11.57	-43.6	-44.6	17.2	0.00e+00	0	52	0	517996544	50	3916
2026-01-02 09:36:17.50	98.48	11.90	-43.7	-44.7	17.2	0.00e+00	0	52	0	541065216	50	3970
2026-01-02 09:36:21.46	98.14	12.24	-43.3	-44.2	17.6	0.00e+00	0	52	0	563085312	49	3976
2026-01-02 09:36:25.42	97.80	12.58	-43.2	-44.1	17.7	0.00e+00	0	52	0	585105408	49	3953
2026-01-02 09:36:29.38	97.45	12.92	-43.2	-44.1	17.7	0.00e+00	0	52	0	607125504	49	3944
2026-01-02 09:36:33.33	97.09	13.27	-43.1	-43.9	17.9	0.00e+00	0	53	0	630194176	49	3868
2026-01-02 09:36:37.30	96.72	13.62	-43.5	-44.5	17.4	0.00e+00	0	53	0	652214272	49	4125
2026-01-02 09:36:41.25	96.34	13.98	-43.3	-44.2	17.7	0.00e+00	0	53	0	674234368	49	3982
2026-01-02 09:36:45.21	95.95	14.34	-43.0	-43.9	17.9	0.00e+00	0	53	0	696254464	49	3849
2026-01-02 09:36:49.17	95.56	14.70	-42.9	-43.7	18.1	0.00e+00	0	53	0	718274560	48	4000
2026-01-02 09:36:53.12	95.15	15.07	-42.8	-43.7	18.2	0.00e+00	0	53	0	741343232	48	3965
2026-01-02 09:36:57.08	94.73	15.44	-43.0	-43.8	18.1	0.00e+00	0	53	0	763363328	48	4047
2026-01-02 09:37:01.04	94.30	15.81	-43.0	-43.9	18.0	0.00e+00	0	53	0	785383424	48	4060
2026-01-02 09:37:04.99	93.86	16.19	-42.7	-43.5	18.4	0.00e+00	0	53	0	807403520	48	3884
2026-01-02 09:37:08.95	93.41	16.58	-42.5	-43.2	18.8	0.00e+00	0	53	0	830472192	48	3753
2026-01-02 09:37:12.91	92.95	16.97	-42.3	-43.0	18.9	0.00e+00	0	53	0	852492288	47	3906
2026-01-02 09:37:16.86	92.47	17.36	-42.5	-43.2	18.6	0.00e+00	0	54	0	874512384	47	4000
2026-01-02 09:37:20.81	91.98	17.75	-42.7	-43.5	18.4	0.00e+00	0	53	0	896532480	47	4116
2026-01-02 09:37:24.77	91.48	18.15	-42.0	-42.7	19.2	0.00e+00	0	54	0	918552576	47	3758
2026-01-02 09:37:28.73	90.96	18.56	-42.0	-42.7	19.2	0.00e+00	0	54	0	941621248	47	3752
2026-01-02 09:37:32.67	90.44	18.97	-42.0	-42.7	19.2	0.00e+00	0	54	0	963641344	46	3991
2026-01-02 09:37:36.63	89.89	19.38	-41.9	-42.6	19.3	0.00e+00	0	54	0	985661440	46	3919
2026-01-02 09:37:40.60	89.33	19.80	-41.9	-42.6	19.3	0.00e+00	0	54	0	1007681536	46	3935
2026-01-02 09:37:44.56	88.75	20.22	-41.5	-42.2	19.7	0.00e+00	0	54	0	1030750208	46	3766
2026-01-02 09:37:48.52	88.16	20.64	-41.6	-42.3	19.6	0.00e+00	0	54	0	1052770304	46	3795
2026-01-02 09:37:52.48	87.55	21.07	-41.3	-42.0	19.9	0.00e+00	0	54	0	1074790400	45	3870
2026-01-02 09:37:56.42	86.92	21.50	-40.9	-41.5	20.3	0.00e+00	0	54	0	1096810496	45	3685
2026-01-02 09:38:00.38	86.28	21.94	-41.0	-41.7	20.2	0.00e+00	0	54	0	1119879168	44	3960
2026-01-02 09:38:04.34	85.61	22.38	-41.4	-42.0	19.9	0.00e+00	0	54	0	1141899264	44	4143
2026-01-02 09:38:08.30	84.93	22.82	-41.1	-41.7	20.2	0.00e+00	0	54	0	1163919360	44	3988
2026-01-02 09:38:12.25	84.23	23.27	-41.0	-41.6	20.3	0.00e+00	0	54	0	1185939456	44	3934
2026-01-02 09:38:16.20	83.50	23.72	-41.1	-41.7	20.2	0.00e+00	0	55	0	1207959552	44	4004
2026-01-02 09:38:20.16	82.76	24.17	-41.1	-41.7	20.2	0.00e+00	0	54	0	1231028224	44	3978
2026-01-02 09:38:24.11	81.99	24.62	-40.7	-41.3	20.6	0.00e+00	0	54	0	1253048320	44	3822
2026-01-02 09:38:28.05	81.20	25.08	-41.0	-41.6	20.3	0.00e+00	0	55	0	1275068416	44	3941
2026-01-02 09:38:31.99	80.39	25.53	-41.0	-41.6	20.3	0.00e+00	0	55	0	1297088512	44	3947
2026-01-02 09:38:35.95	79.55	25.99	-41.4	-42.1	19.9	0.00e+00	0	55	0	1319108608	44	4148
2026-01-02 09:38:39.92	78.69	26.45	-40.7	-41.3	20.7	0.00e+00	0	55	0	1342177280	44	3799
2026-01-02 09:38:43.90	77.79	26.92	-40.2	-40.7	21.1	0.00e+00	0	55	0	1364197376	43	3778
2026-01-02 09:38:47.85	76.88	27.38	-40.3	-40.8	21.0	0.00e+00	0	55	0	1386217472	43	3811
2026-01-02 09:38:51.81	75.94	27.84	-40.0	-40.5	21.3	0.00e+00	0	55	0	1408237568	43	3678
2026-01-02 09:38:55.75	74.97	28.29	-40.1	-40.7	21.1	0.00e+00	0	55	0	1431306240	43	3767
2026-01-02 09:38:59.70	73.98	28.75	-40.4	-41.0	20.8	0.00e+00	0	55	0	1453326336	43	3905
2026-01-02 09:39:03.66	72.95	29.20	-40.3	-40.9	20.9	0.00e+00	0	55	0	1475346432	43	3851
2026-01-02 09:39:07.61	71.89	29.65	-40.1	-40.7	21.2	0.00e+00	0	55	0	1497366528	43	3753
2026-01-02 09:39:11.57	70.81	30.10	-40.2	-40.8	21.1	0.00e+00	0	55	0	1520435200	43	3809
2026-01-02 09:39:15.52	69.69	30.54	-39.8	-40.4	21.5	0.00e+00	0	55	0	1541406720	42	3833
2026-01-02 09:39:19.47	68.54	30.97	-39.8	-40.4	21.5	0.00e+00	0	55	0	1564475392	42	3831
2026-01-02 09:39:23.43	67.36	31.40	-39.5	-40.1	21.8	0.00e+00	0	55	0	1586495488	42	3710
2026-01-02 09:39:27.39	66.15	31.82	-39.7	-40.2	21.7	0.00e+00	0	55	0	1608515584	42	3758
2026-01-02 09:39:31.33	64.92	32.23	-39.8	-40.3	21.5	0.00e+00	0	55	0	1630535680	42	3819
2026-01-02 09:39:35.29	63.64	32.63	-39.6	-40.1	21.7	0.00e+00	0	55	0	1653604352	42	3735
2026-01-02 09:39:39.25	62.33	33.02	-39.8	-40.4	21.5	0.00e+00	0	55	0	1675624448	42	3838
2026-01-02 09:39:43.21	61.00	33.40	-39.4	-40.0	21.9	0.00e+00	0	55	0	1697644544	42	3662
2026-01-02 09:39:47.18	59.62	33.76	-39.6	-40.2	21.7	0.00e+00	0	55	0	1720713216	42	3748
2026-01-02 09:39:51.14	58.22	34.11	-39.9	-40.5	21.4	0.00e+00	0	55	0	1742733312	42	3886
2026-01-02 09:39:55.09	56.80	34.45	-40.2	-40.8	21.2	0.00e+00	0	56	0	1764753408	42	4005
2026-01-02 09:39:59.04	55.35	34.76	-40.2	-40.8	21.2	0.00e+00	0	55	0	1786773504	42	4007
2026-01-02 09:40:03.01	53.86	35.06	-39.0	-39.5	22.3	0.00e+00	0	55	0	1808793600	41	3672
2026-01-02 09:40:06.97	52.34	35.33	-39.2	-39.8	22.1	0.00e+00	0	56	0	1830813696	41	3787
2026-01-02 09:40:10.94	50.80	35.59	-39.5	-40.0	21.9	0.00e+00	0	56	0	1853882368	41	3889
2026-01-02 09:40:14.91	49.24	35.82	-39.8	-40.4	21.5	0.00e+00	0	56	0	1875902464	41	4052
2026-01-02 09:40:18.85	47.67	36.03	-39.8	-40.4	21.5	0.00e+00	0	56	0	1897922560	41	4075
2026-01-02 09:40:22.81	46.07	36.22	-39.8	-40.3	21.6	0.00e+00	0	56	0	1919942656	41	4040
2026-01-02 09:40:26.77	44.45	36.38	-40.4	-41.0	21.0	0.00e+00	0	56	0	1943011328	42	4102
2026-01-02 09:40:30.73	42.81	36.52	-39.4	-39.9	22.0	0.00e+00	0	56	0	1965031424	42	3642
2026-01-02 09:40:34.70	41.16	36.63	-39.6	-40.1	21.7	0.00e+00	0	56	0	1987051520	41	3950
2026-01-02 09:40:38.67	39.50	36.71	-39.4	-39.9	21.9	0.00e+00	0	56	0	2010120192	41	3853
2026-01-02 09:40:42.64	37.84	36.77	-39.7	-40.3	21.6	0.00e+00	0	56	0	2032140288	41	4013
2026-01-02 09:40:46.60	36.17	36.79	-39.9	-40.5	21.5	0.00e+00	0	56	0	2054160384	42	3870
2026-01-02 09:40:50.54	34.51	36.80	-39.6	-40.2	21.7	0.00e+00	0	56	0	2076180480	42	3756
2026-01-02 09:40:54.51	32.84	36.77	-39.9	-40.5	21.4	0.00e+00	0	56	0	2099249152	42	3894
2026-01-02 09:40:58.47	31.18	36.71	-39.4	-39.9	21.9	0.00e+00	0	56	0	2121269248	42	3643
2026-01-02 09:41:02.43	29.52	36.63	-39.4	-40.0	21.9	0.00e+00	0	56	0	2143289344	42	3659
2026-01-02 09:41:06.38	27.88	36.52	-39.7	-40.3	21.6	0.00e+00	0	56	0	2165309440	41	4022
2026-01-02 09:41:10.35	26.25	36.39	-39.5	-40.1	21.8	0.00e+00	0	56	0	2188378112	41	3914
2026-01-02 09:41:14.31	24.63	36.22	-40.4	-41.0	20.7	0.00e+00	0	56	0	2210398208	42	4107
2026-01-02 09:41:18.26	23.03	36.04	-39.8	-40.4	21.1	0.00e+00	0	56	0	2232418304	42	3857
2026-01-02 09:41:22.21	21.46	35.83	-39.5	-40.0	21.8	0.00e+00	0	56	0	2254438400	41	3913
2026-01-02 09:41:26.17	19.90	35.60	-39.4	-39.9	21.9	0.00e+00	0	56	0	2277507072	41	3862
2026-01-02 09:41:30.13	18.36	35.34	-39.3	-39.8	22.0	0.00e+00	0	56	0	2299527168	41	3818
2026-01-02 09:41:34.09	16.85	35.07	-39.4	-39.9	22.0	0.00e+00	0	56	0	2321547264	41	3842
2026-01-02 09:41:38.04	15.37	34.77	-40.0	-40.5	21.4	0.00e+00	0	56	0	2343567360	41	4130
2026-01-02 09:41:42.00	13.91	34.46	-40.4	-41.0	20.9	0.00e+00	0	56	0	2365587456	42	4140
2026-01-02 09:41:45.95	12.48	34.13	-39.7	-40.2	21.6	0.00e+00	0	56	0	2388656128	42	3777
2026-01-02 09:41:49.90	11.09	33.78	-39.2	-39.7	22.1	0.00e+00	0	56	0	2410676224	41	3762
2026-01-02 09:41:53.87	9.72	33.42	-39.2	-39.7	22.1	0.00e+00	0	56	0	2432696320	41	3772
2026-01-02 09:41:57.81	8.39	33.04	-39.5	-40.0	21.9	0.00e+00	0	56	0	2454716416	41	3889
2026-01-02 09:42:01.76	7.08	32.66	-39.4	-39.9	21.9	0.00e+00	0	56	0	2476736512	41	3845
2026-01-02 09:42:05.71	5.81	32.26	-39.7	-40.2	21.7	0.00e+00	0	56	0	2498756608	41	3992
2026-01-02 09:42:09.68	4.57	31.85	-39.9	-40.4	21.5	0.00e+00	0	56	0	2521825280	41	4087
2026-01-02 09:42:13.63	3.36	31.43	-39.7	-40.2	21.7	0.00e+00	0	56	0	2543845376	42	3764
2026-01-02 09:42:17.58	2.18	31.00	-39.7	-40.2	21.6	0.00e+00	0	56	0	2565865472	41	3994
2026-01-02 09:42:21.55	1.03	30.57	-39.2	-39.8	22.1	0.00e+00	0	56	0	2588934144	41	3782
2026-01-02 09:42:25.52	359.91	30.12	-39.6	-40.1	21.7	0.00e+00	0	56	0	2610954240	41	3939
2026-01-02 09:42:29.47	358.83	29.68	-39.3	-39.8	22.0	0.00e+00	0	56	0	2632974336	41	3814
2026-01-02 09:42:33.43	357.77	29.23	-39.3	-39.9	22.0	0.00e+00	0	56	0	2654994432	41	3827
2026-01-02 09:42:37.39	356.74	28.78	-39.6	-40.2	21.7	0.00e+00	0	56	0	2678063104	41	3965
2026-01-02 09:42:41.35	355.75	28.32	-39.7	-40.3	21.5	0.00e+00	0	56	0	2700083200	41	4024
2026-01-02 09:42:45.29	354.78	27.86	-39.8	-40.3	21.5	0.00e+00	0	56	0	2722103296	41	4042
2026-01-02 09:42:49.25	353.84	27.41	-39.9	-40.5	21.3	0.00e+00	0	56	0	2744123392	41	4125
2026-01-02 09:42:53.20	352.93	26.95	-40.3	-40.9	21.0	0.00e+00	0	57	0	2766143488	42	4066
2026-01-02 09:42:57.16	352.04	26.49	-40.2	-40.8	21.1	0.00e+00	0	56	0	2788163584	42	4018
2026-01-02 09:43:01.11	351.18	26.03	-40.5	-41.1	20.8	0.00e+00	0	57	0	2811232256	42	4153
2026-01-02 09:43:05.06	350.34	25.57	-40.3	-40.9	21.0	0.00e+00	0	56	0	2833252352	43	3832
2026-01-02 09:43:09.02	349.53	25.11	-40.3	-40.8	21.0	0.00e+00	0	57	0	2855272448	43	3821
2026-01-02 09:43:12.98	348.74	24.66	-40.6	-41.2	20.6	0.00e+00	0	56	0	2878341120	43	3997
2026-01-02 09:43:16.95	347.97	24.20	-40.6	-41.2	20.6	0.00e+00	0	56	0	2900361216	43	3980
2026-01-02 09:43:20.90	347.22	23.75	-40.6	-41.2	20.6	0.00e+00	0	57	0	2922381312	43	3967
2026-01-02 09:43:24.86	346.50	23.30	-40.5	-41.1	20.7	0.00e+00	0	56	0	2944401408	43	3931
2026-01-02 09:43:28.81	345.80	22.86	-40.4	-41.0	20.8	0.00e+00	0	56	0	2966421504	43	3882
2026-01-02 09:43:32.77	345.12	22.42	-40.5	-41.1	20.7	0.00e+00	0	57	0	2989490176	43	3928
2026-01-02 09:43:36.74	344.45	21.98	-40.7	-41.3	20.4	0.00e+00	0	56	0	3011510272	43	4051
2026-01-02 09:43:40.69	343.81	21.54	-41.0	-41.6	20.3	0.00e+00	0	56	0	3033530368	44	3942
2026-01-02 09:43:44.66	343.18	21.11	-41.3	-41.9	19.9	0.00e+00	0	57	0	3055550464	44	4082
2026-01-02 09:43:48.62	342.57	20.68	-41.1	-41.7	20.1	0.00e+00	0	57	0	3078619136	44	3981
2026-01-02 09:43:52.57	341.98	20.26	-41.1	-41.8	19.8	0.00e+00	0	57	0	3100639232	44	4016
2026-01-02 09:43:56.52	341.41	19.84	-42.7	-43.6	17.8	0.00e+00	0	57	0	3122659328	47	4155
2026-01-02 09:44:00.47	340.85	19.42	-44.3	-45.4	15.9	0.00e+00	0	57	0	3144679424	50	4293
2026-01-02 09:44:04.44	340.30	19.01	-44.6	-45.8	15.6	0.00e+00	0	57	0	3167748096	51	4249
2026-01-02 09:44:08.38	339.77	18.60	-42.9	-43.7	17.7	0.00e+00	0	57	0	3189768192	49	3767
2026-01-02 09:44:12.34	339.26	18.20	-41.7	-42.5	18.9	0.00e+00	0	57	0	3211788288	46	3870
2026-01-02 09:44:16.29	338.76	17.80	-42.5	-43.3	18.3	0.00e+00	0	57	0	3233808384	46	4286
2026-01-02 09:44:20.25	338.27	17.40	-42.0	-42.8	19.0	0.00e+00	0	57	0	3255828480	47	3786
2026-01-02 09:44:24.20	337.80	17.01	-41.8	-42.5	19.2	0.00e+00	0	57	0	3277848576	46	3913
2026-01-02 09:44:28.16	337.33	16.62	-42.2	-43.0	18.8	0.00e+00	0	57	0	3300917248	46	4105
2026-01-02 09:44:32.11	336.88	16.24	-42.5	-43.2	18.6	0.00e+00	0	57	0	3322937344	46	4222
2026-01-02 09:44:36.05	336.45	15.86	-42.6	-43.4	18.4	0.00e+00	0	57	0	3344957440	47	4066
2026-01-02 09:44:40.02	336.02	15.49	-43.4	-44.2	17.8	0.00e+00	0	57	0	3366977536	48	4230
2026-01-02 09:44:43.98	335.60	15.12	-43.7	-44.5	17.5	0.00e+00	0	57	0	3390046208	49	4130
2026-01-02 09:44:47.93	335.20	14.75	-42.8	-43.6	18.4	0.00e+00	0	57	0	3412066304	48	3927
2026-01-02 09:44:51.89	334.80	14.39	-42.6	-43.3	18.7	0.00e+00	0	57	0	3434086400	48	3814
2026-01-02 09:44:55.84	334.41	14.03	-42.8	-43.5	18.5	0.00e+00	0	57	0	3456106496	48	3912
2026-01-02 09:44:59.80	334.04	13.67	-42.6	-43.3	18.7	0.00e+00	0	57	0	3478126592	48	3814
2026-01-02 09:45:03.77	333.67	13.32	-43.0	-43.9	18.1	0.00e+00	0	57	0	3501195264	48	4054
2026-01-02 09:45:07.71	333.31	12.97	-43.0	-43.8	18.2	0.00e+00	0	57	0	3523215360	48	4006
2026-01-02 09:45:11.67	332.96	12.63	-43.2	-44.1	17.9	0.00e+00	0	57	0	3545235456	48	4155
2026-01-02 09:45:15.61	332.62	12.29	-43.6	-44.5	17.5	0.00e+00	0	57	0	3567255552	48	4346
2026-01-02 09:45:19.57	332.29	11.96	-43.7	-44.6	17.4	0.00e+00	0	57	0	3590324224	49	4159
2026-01-02 09:45:23.54	331.96	11.62	-43.2	-44.0	17.9	0.00e+00	0	57	0	3612344320	49	3910
2026-01-02 09:45:27.48	331.64	11.30	-43.4	-44.2	17.6	0.00e+00	0	57	0	3634364416	49	3999
2026-01-02 09:45:31.42	331.33	10.97	-43.3	-44.2	17.7	0.00e+00	0	57	0	3656384512	49	3969
2026-01-02 09:45:35.38	331.03	10.65	-43.4	-44.3	17.6	0.00e+00	0	57	0	3678404608	49	4012
2026-01-02 09:45:39.34	330.73	10.33	-43.6	-44.5	17.4	0.00e+00	0	57	0	3701473280	49	4132
2026-01-02 09:45:43.30	330.44	10.01	-44.0	-44.9	17.0	0.00e+00	0	57	0	3723493376	49	4320
2026-01-02 09:45:47.27	330.16	9.70	-44.3	-45.2	16.6	0.00e+00	0	57	0	3745513472	50	4239
2026-01-02 09:45:51.23	329.88	9.39	-44.1	-45.1	16.7	0.00e+00	0	57	0	3767533568	50	4176
2026-01-02 09:45:55.19	329.61	9.09	-44.3	-45.3	16.6	0.00e+00	0	57	0	3790602240	50	4263
2026-01-02 09:45:59.15	329.34	8.78	-44.8	-45.9	16.0	0.00e+00	0	57	0	3812622336	51	4295
2026-01-02 09:46:03.10	329.08	8.48	-44.4	-45.5	16.4	0.00e+00	0	57	0	3834642432	51	4103
2026-01-02 09:46:07.05	328.83	8.19	-44.5	-45.5	16.2	0.00e+00	0	57	0	3856662528	51	4145
2026-01-02 09:46:11.01	328.58	7.89	-44.7	-45.8	15.9	0.00e+00	0	57	0	3878682624	51	4280
2026-01-02 09:46:14.97	328.34	7.60	-44.3	-45.3	16.4	0.00e+00	0	57	0	3901751296	51	4050
2026-01-02 09:46:18.92	328.10	7.31	-44.5	-45.5	16.2	0.00e+00	0	57	0	3923771392	51	4138
2026-01-02 09:46:22.88	327.87	7.03	-44.6	-45.7	16.0	0.00e+00	0	57	0	3945791488	51	4217
2026-01-02 09:46:26.84	327.64	6.75	-44.8	-46.0	15.7	0.00e+00	0	57	0	3967811584	51	4349
2026-01-02 09:46:30.80	327.41	6.47	-44.6	-45.7	15.9	0.00e+00	0	57	0	3990880256	51	4214
2026-01-02 09:46:34.76	327.19	6.19	-44.9	-46.1	15.6	0.00e+00	0	57	0	4012900352	51	4405
2026-01-02 09:46:38.73	326.98	5.91	-45.2	-46.4	15.0	0.00e+00	0	57	0	4034920448	52	4339
2026-01-02 09:46:42.67	326.77	5.64	-44.8	-45.9	15.5	0.00e+00	0	57	0	4056940544	52	4092
2026-01-02 09:46:46.63	326.56	5.37	-45.1	-46.3	15.0	0.00e+00	0	57	0	4080009216	52	4288
2026-01-02 09:46:50.58	326.36	5.10	-45.1	-46.3	15.1	0.00e+00	0	57	0	4102029312	52	4284
2026-01-02 09:46:54.55	326.16	4.84	-48.3	-59.0	3.8	8.46e-01	0	57	104	4110417920	59	12358
2026-01-02 09:46:58.50	325.97	4.57	-52.5	-63.2	3.8	8.45e-01	0	57	104	4110417920	66	13306
2026-01-02 09:47:02.46	325.78	4.31	-52.5	-63.4	3.8	8.46e-01	0	57	104	4110417920	67	12876
2026-01-02 09:47:06.42	325.59	4.05	-52.7	-63.5	3.8	8.46e-01	0	57	104	4110417920	67	13048
2026-01-02 09:47:10.36	325.41	3.80	-52.6	-63.5	3.8	8.46e-01	0	57	104	4110417920	67	13081
2026-01-02 09:47:14.32	325.22	3.54	-52.7	-63.6	3.8	8.47e-01	0	57	104	4110417920	67	13182
2026-01-02 09:47:18.28	325.05	3.29	-52.9	-63.6	3.8	8.46e-01	0	57	104	4110417920	67	13192
2026-01-02 09:47:22.23	324.87	3.04	-52.7	-63.5	3.8	8.47e-01	0	57	104	4110417920	67	13067

#Closed at: 2026-01-02 09:47:23
#Recorded file [4110 MB]: D:/Data/31026_260102_124652.dat