passes_logs/2026/01/02/R3.0SM8_Murmansk_STILSPACE/R3.0SM8_Murmansk_STILSPACE__20260102_232630_NOAA_21_JPSS-2_rec.log

#Pass ID: 20260102_232630_NOAA 21 (JPSS-2)
#Satellite: NOAA 21 (JPSS-2)
#Configuration: NOAA-21
#almurnet v.1.7.20240730
#Start time: 2026-01-02 23:26:53

#Version: 2.2.20231116
#Station: R3.0SM8_Murmansk_STILSPACE
#Location: 33.092731 lon 68.902999 lat
#TLE: 1 54234U 22150A   26002.25486487  .00000200  00000+0  11573-3 0  9993
#TLE: 2 54234  98.7485 303.3096 0001220 350.9074   9.2080 14.19531212163006

#Time	Az	El	Level	Level2	SNR	BER	BlckErr	Temp	State	Recorded	gain1	gain2
2026-01-02 23:26:53.03	22.25	4.43	-53.3	-64.1	3.8	8.47e-01	0	57	0	0	68	13143
2026-01-02 23:26:56.98	22.43	4.70	-53.3	-64.9	3.8	1.49e+00	0	57	104	0	69	13588
2026-01-02 23:27:00.95	22.61	4.96	-53.3	-64.9	3.8	1.49e+00	0	57	104	0	69	13664
2026-01-02 23:27:04.90	22.79	5.23	-53.4	-64.9	3.8	1.49e+00	0	57	104	0	69	13651
2026-01-02 23:27:08.85	22.98	5.50	-53.2	-64.9	3.8	1.49e+00	0	57	104	0	69	13601
2026-01-02 23:27:12.82	23.17	5.78	-53.3	-64.8	3.8	1.49e+00	0	57	104	0	69	13516
2026-01-02 23:27:16.77	23.36	6.05	-53.1	-64.7	3.8	1.49e+00	0	57	104	0	68	14177
2026-01-02 23:27:20.72	23.55	6.33	-52.8	-64.6	3.8	1.49e+00	0	58	104	0	68	13953
2026-01-02 23:27:24.69	23.75	6.62	-52.6	-63.7	3.8	1.49e+00	0	57	104	0	68	12615
2026-01-02 23:27:28.64	23.95	6.90	-52.2	-60.7	3.9	1.47e+00	0	57	104	0	67	9403
2026-01-02 23:27:32.59	24.16	7.19	-51.3	-56.7	6.1	3.18e-01	0	57	0	5242880	65	6709
2026-01-02 23:27:36.53	24.37	7.48	-50.2	-53.7	9.1	2.42e-02	0	57	0	17825792	63	5306
2026-01-02 23:27:40.51	24.58	7.77	-48.5	-50.7	12.2	2.68e-04	0	57	0	30408704	60	4459
2026-01-02 23:27:44.46	24.80	8.07	-47.6	-49.2	13.8	5.30e-06	0	57	0	41943040	58	4230
2026-01-02 23:27:48.42	25.02	8.37	-47.4	-49.0	14.0	5.30e-06	0	57	0	54525952	57	4375
2026-01-02 23:27:52.37	25.25	8.67	-47.3	-49.0	14.0	3.00e-06	0	57	0	67108864	57	4353
2026-01-02 23:27:56.33	25.48	8.98	-47.1	-48.7	14.4	7.00e-07	0	57	0	79691776	57	4215
2026-01-02 23:28:00.30	25.71	9.29	-46.6	-48.0	15.1	0.00e+00	0	57	0	92274688	56	4130
2026-01-02 23:28:04.25	25.95	9.61	-46.5	-47.9	15.2	0.00e+00	0	57	0	103809024	56	4069
2026-01-02 23:28:08.21	26.19	9.92	-46.2	-47.5	15.5	0.00e+00	0	57	0	116391936	55	4126
2026-01-02 23:28:12.18	26.44	10.25	-46.2	-47.4	15.6	0.00e+00	0	58	0	128974848	55	4087
2026-01-02 23:28:16.15	26.70	10.57	-46.4	-47.7	15.3	7.00e-07	0	57	0	141557760	55	4233
2026-01-02 23:28:20.10	26.96	10.90	-46.2	-47.5	15.5	0.00e+00	0	57	0	154140672	55	4121
2026-01-02 23:28:24.06	27.22	11.24	-46.5	-47.9	15.2	0.00e+00	0	57	0	165675008	55	4327
2026-01-02 23:28:28.02	27.49	11.57	-46.3	-47.6	15.5	0.00e+00	0	57	0	178257920	55	4165
2026-01-02 23:28:31.96	27.77	11.91	-45.9	-47.1	16.0	0.00e+00	0	57	0	190840832	55	3937
2026-01-02 23:28:35.92	28.05	12.26	-45.9	-47.0	16.1	0.00e+00	0	57	0	203423744	54	4138
2026-01-02 23:28:39.88	28.34	12.61	-45.5	-46.6	16.5	0.00e+00	0	57	0	214958080	54	3947
2026-01-02 23:28:43.85	28.64	12.96	-45.5	-46.6	16.6	0.00e+00	0	57	0	227540992	54	3930
2026-01-02 23:28:47.80	28.94	13.32	-45.5	-46.6	16.6	0.00e+00	0	57	0	240123904	54	3945
2026-01-02 23:28:51.76	29.25	13.69	-45.6	-46.7	16.5	0.00e+00	0	57	0	252706816	54	3988
2026-01-02 23:28:55.71	29.56	14.06	-45.6	-46.7	16.5	0.00e+00	0	57	0	265289728	54	3985
2026-01-02 23:28:59.67	29.89	14.43	-45.8	-47.0	16.2	0.00e+00	0	57	0	276824064	54	4108
2026-01-02 23:29:03.64	30.22	14.81	-46.0	-47.2	16.1	0.00e+00	0	57	0	289406976	54	4203
2026-01-02 23:29:07.59	30.56	15.19	-46.1	-47.3	15.9	0.00e+00	0	57	0	301989888	54	4279
2026-01-02 23:29:11.55	30.91	15.58	-45.9	-47.0	16.2	0.00e+00	0	57	0	314572800	54	4137
2026-01-02 23:29:15.50	31.27	15.97	-46.0	-47.1	16.1	0.00e+00	0	57	0	327155712	54	4183
2026-01-02 23:29:19.48	31.63	16.38	-46.1	-47.2	16.1	0.00e+00	0	57	0	338690048	54	4241
2026-01-02 23:29:23.44	32.01	16.78	-46.4	-47.6	15.7	0.00e+00	0	57	0	351272960	54	4431
2026-01-02 23:29:27.41	32.40	17.19	-46.1	-47.2	16.1	0.00e+00	0	57	0	363855872	54	4231
2026-01-02 23:29:31.35	32.79	17.61	-46.2	-47.4	15.9	0.00e+00	0	57	0	376438784	54	4334
2026-01-02 23:29:35.31	33.20	18.03	-46.5	-47.7	15.6	0.00e+00	0	57	0	389021696	54	4477
2026-01-02 23:29:39.27	33.62	18.46	-46.4	-47.6	15.7	0.00e+00	0	57	0	400556032	54	4436
2026-01-02 23:29:43.22	34.04	18.89	-46.0	-47.1	16.3	0.00e+00	0	57	0	413138944	54	4156
2026-01-02 23:29:47.18	34.48	19.34	-45.6	-46.6	16.8	0.00e+00	0	58	0	425721856	54	3939
2026-01-02 23:29:51.15	34.94	19.79	-45.7	-46.8	16.6	0.00e+00	0	57	0	438304768	54	4012
2026-01-02 23:29:55.11	35.41	20.24	-45.3	-46.3	17.0	0.00e+00	0	57	0	450887680	53	4026
2026-01-02 23:29:59.06	35.88	20.70	-44.8	-45.7	17.6	0.00e+00	0	57	0	462422016	52	3986
2026-01-02 23:30:03.02	36.38	21.17	-44.5	-45.3	18.0	0.00e+00	0	57	0	475004928	52	3814
2026-01-02 23:30:06.97	36.89	21.64	-44.4	-45.3	18.1	0.00e+00	0	57	0	487587840	52	3782
2026-01-02 23:30:10.93	37.41	22.12	-44.6	-45.5	17.8	0.00e+00	0	57	0	500170752	52	3892
2026-01-02 23:30:14.89	37.95	22.61	-45.0	-45.9	17.5	0.00e+00	0	57	0	512753664	52	4072
2026-01-02 23:30:18.85	38.51	23.10	-44.6	-45.5	17.9	0.00e+00	0	57	0	524288000	52	3877
2026-01-02 23:30:22.81	39.08	23.60	-45.2	-46.1	17.3	0.00e+00	0	57	0	536870912	52	4175
2026-01-02 23:30:26.78	39.67	24.11	-44.5	-45.3	18.0	0.00e+00	0	57	0	549453824	52	3804
2026-01-02 23:30:30.72	40.28	24.63	-44.7	-45.5	17.9	0.00e+00	0	57	0	562036736	52	3903
2026-01-02 23:30:34.66	40.91	25.14	-45.1	-46.0	17.4	0.00e+00	0	57	0	574619648	52	4132
2026-01-02 23:30:38.61	41.56	25.67	-45.2	-46.1	17.2	0.00e+00	0	57	0	586153984	52	4193
2026-01-02 23:30:42.56	42.23	26.21	-45.4	-46.4	17.1	0.00e+00	0	57	0	598736896	52	4296
2026-01-02 23:30:46.52	42.93	26.75	-45.2	-46.2	17.2	0.00e+00	0	57	0	611319808	52	4207
2026-01-02 23:30:50.47	43.64	27.30	-45.2	-46.1	17.4	0.00e+00	0	57	0	623902720	52	4161
2026-01-02 23:30:54.42	44.39	27.85	-45.5	-46.5	17.0	0.00e+00	0	57	0	635437056	52	4366
2026-01-02 23:30:58.37	45.15	28.41	-45.6	-46.6	16.9	0.00e+00	0	57	0	648019968	53	4159
2026-01-02 23:31:02.33	45.95	28.98	-45.2	-46.1	17.3	0.00e+00	0	57	0	660602880	53	3941
2026-01-02 23:31:06.29	46.77	29.55	-45.3	-46.3	17.1	0.00e+00	0	57	0	673185792	53	4025
2026-01-02 23:31:10.26	47.63	30.13	-45.1	-46.1	17.4	0.00e+00	0	57	0	685768704	53	3920
2026-01-02 23:31:14.22	48.51	30.71	-45.3	-46.3	17.2	0.00e+00	0	57	0	697303040	53	4013
2026-01-02 23:31:18.17	49.43	31.30	-45.9	-47.0	16.5	0.00e+00	0	57	0	709885952	53	4381
2026-01-02 23:31:22.12	50.38	31.89	-46.1	-47.2	16.3	0.00e+00	0	57	0	722468864	54	4227
2026-01-02 23:31:26.08	51.36	32.48	-46.4	-47.6	15.9	0.00e+00	0	57	0	735051776	54	4420
2026-01-02 23:31:30.01	52.37	33.07	-45.8	-46.8	16.7	0.00e+00	0	57	0	747634688	54	4047
2026-01-02 23:31:33.95	53.42	33.67	-46.4	-47.6	16.0	0.00e+00	0	57	0	759169024	54	4402
2026-01-02 23:31:37.91	54.52	34.27	-46.1	-47.3	16.3	0.00e+00	0	57	0	771751936	54	4243
2026-01-02 23:31:41.88	55.66	34.87	-46.5	-47.7	15.9	0.00e+00	0	57	0	784334848	54	4453
2026-01-02 23:31:45.85	56.84	35.46	-46.6	-47.8	15.7	0.00e+00	0	57	0	796917760	55	4288
2026-01-02 23:31:49.81	58.06	36.06	-46.5	-47.7	15.8	0.00e+00	0	57	0	809500672	55	4216
2026-01-02 23:31:53.75	59.32	36.65	-46.5	-47.7	15.8	0.00e+00	0	57	0	821035008	55	4207
2026-01-02 23:31:57.71	60.63	37.23	-46.6	-47.7	15.8	0.00e+00	0	57	0	833617920	55	4237
2026-01-02 23:32:01.66	61.98	37.81	-46.6	-47.8	15.7	0.00e+00	0	57	0	846200832	55	4279
2026-01-02 23:32:05.63	63.39	38.38	-46.5	-47.7	15.9	0.00e+00	0	57	0	858783744	55	4203
2026-01-02 23:32:09.58	64.85	38.94	-46.7	-47.9	15.6	0.00e+00	0	57	0	871366656	55	4340
2026-01-02 23:32:13.54	66.35	39.49	-46.9	-48.2	15.5	0.00e+00	0	57	0	882900992	56	4210
2026-01-02 23:32:17.50	67.91	40.03	-47.5	-49.0	14.6	0.00e+00	0	57	0	895483904	56	4612
2026-01-02 23:32:21.47	69.52	40.55	-48.1	-49.8	13.9	4.50e-06	0	57	0	908066816	58	4500
2026-01-02 23:32:25.42	71.17	41.05	-47.5	-48.9	14.8	0.00e+00	0	57	0	920649728	57	4293
2026-01-02 23:32:29.38	72.88	41.53	-48.2	-49.8	13.8	2.20e-06	0	57	0	932184064	58	4525
2026-01-02 23:32:33.32	74.63	41.98	-48.3	-50.1	13.6	6.80e-06	0	57	0	944766976	58	4685
2026-01-02 23:32:37.29	76.44	42.42	-48.2	-49.9	13.8	5.30e-06	0	57	0	957349888	58	4595
2026-01-02 23:32:41.25	78.29	42.82	-48.0	-49.6	14.2	7.00e-07	0	57	0	969932800	58	4392
2026-01-02 23:32:45.19	80.18	43.20	-48.3	-50.0	13.6	5.30e-06	0	57	0	982515712	58	4649
2026-01-02 23:32:49.15	82.12	43.54	-48.0	-49.6	14.0	2.20e-06	0	57	0	994050048	58	4405
2026-01-02 23:32:53.10	84.10	43.86	-47.7	-49.1	14.6	7.00e-07	0	57	0	1006632960	58	4170
2026-01-02 23:32:57.05	86.11	44.13	-48.0	-49.5	14.1	7.00e-07	0	57	0	1019215872	58	4363
2026-01-02 23:33:01.01	88.16	44.37	-47.3	-48.7	15.0	0.00e+00	0	57	0	1031798784	57	4208
2026-01-02 23:33:04.98	90.25	44.57	-47.5	-48.9	14.8	0.00e+00	0	57	0	1044381696	57	4307
2026-01-02 23:33:08.93	92.35	44.73	-48.2	-49.9	13.8	7.00e-07	0	57	0	1055916032	58	4562
2026-01-02 23:33:12.89	94.47	44.84	-48.1	-49.7	14.1	4.50e-06	0	57	0	1068498944	58	4467
2026-01-02 23:33:16.86	96.61	44.92	-47.3	-48.7	14.9	0.00e+00	0	57	0	1081081856	57	4233
2026-01-02 23:33:20.82	98.75	44.95	-47.7	-49.2	14.4	0.00e+00	0	57	0	1093664768	57	4488
2026-01-02 23:33:24.78	100.89	44.94	-47.9	-49.4	14.2	1.50e-06	0	57	0	1106247680	58	4326
2026-01-02 23:33:28.72	103.02	44.88	-47.7	-49.2	14.5	0.00e+00	0	57	0	1117782016	58	4216
2026-01-02 23:33:32.68	105.15	44.79	-47.2	-48.5	15.1	0.00e+00	0	57	0	1130364928	57	4124
2026-01-02 23:33:36.63	107.25	44.65	-47.1	-48.4	15.2	0.00e+00	0	57	0	1142947840	56	4332
2026-01-02 23:33:40.58	109.34	44.47	-47.4	-48.8	14.9	0.00e+00	0	57	0	1155530752	56	4508
2026-01-02 23:33:44.54	111.41	44.24	-48.0	-49.6	14.1	2.20e-06	0	57	0	1167065088	57	4663
2026-01-02 23:33:48.50	113.44	43.99	-48.1	-49.7	13.9	3.80e-06	0	57	0	1179648000	58	4474
2026-01-02 23:33:52.45	115.44	43.69	-47.6	-49.2	14.5	0.00e+00	0	57	0	1192230912	58	4195
2026-01-02 23:33:56.40	117.40	43.36	-47.7	-49.1	14.6	7.00e-07	0	57	0	1204813824	58	4174
2026-01-02 23:34:00.36	119.32	43.00	-47.1	-48.5	15.1	0.00e+00	0	57	0	1217396736	56	4367
2026-01-02 23:34:04.32	121.20	42.60	-47.5	-49.0	14.7	0.00e+00	0	57	0	1228931072	56	4617
2026-01-02 23:34:08.27	123.02	42.18	-47.5	-49.0	14.7	7.00e-07	0	57	0	1241513984	57	4364
2026-01-02 23:34:12.24	124.81	41.73	-47.3	-48.7	14.9	0.00e+00	0	57	0	1254096896	57	4236
2026-01-02 23:34:16.21	126.55	41.26	-46.7	-47.9	15.7	0.00e+00	0	57	0	1266679808	56	4090
2026-01-02 23:34:20.18	128.23	40.76	-46.6	-47.8	15.8	0.00e+00	0	57	0	1279262720	56	4049
2026-01-02 23:34:24.14	129.87	40.25	-46.5	-47.7	15.6	0.00e+00	0	57	0	1291845632	55	4236
2026-01-02 23:34:28.10	131.45	39.72	-47.3	-48.8	14.9	0.00e+00	0	57	0	1303379968	56	4494
2026-01-02 23:34:32.05	132.98	39.18	-47.5	-48.9	14.7	0.00e+00	0	57	0	1315962880	56	4584
2026-01-02 23:34:36.01	134.46	38.62	-47.6	-49.1	14.5	7.00e-07	0	57	0	1328545792	57	4434
2026-01-02 23:34:39.96	135.88	38.05	-47.1	-48.4	15.3	0.00e+00	0	57	0	1341128704	57	4061
2026-01-02 23:34:43.92	137.27	37.47	-46.4	-47.5	16.1	0.00e+00	0	57	0	1352663040	56	3910
2026-01-02 23:34:47.86	138.59	36.89	-46.0	-47.0	16.5	0.00e+00	0	57	0	1365245952	55	3891
2026-01-02 23:34:51.83	139.89	36.30	-46.0	-47.1	16.4	0.00e+00	0	57	0	1377828864	54	4184
2026-01-02 23:34:55.80	141.13	35.70	-46.1	-47.3	16.2	0.00e+00	0	57	0	1390411776	54	4246
2026-01-02 23:34:59.76	142.33	35.10	-46.0	-47.1	16.4	0.00e+00	0	57	0	1402994688	54	4149
2026-01-02 23:35:03.72	143.49	34.50	-46.2	-47.4	16.1	0.00e+00	0	57	0	1414529024	54	4317
2026-01-02 23:35:07.66	144.60	33.90	-46.3	-47.5	16.0	0.00e+00	0	57	0	1427111936	54	4372
2026-01-02 23:35:11.63	145.68	33.30	-46.3	-47.5	16.1	0.00e+00	0	57	0	1439694848	55	4120
2026-01-02 23:35:15.59	146.71	32.70	-46.5	-47.8	15.7	0.00e+00	0	57	0	1452277760	55	4266
2026-01-02 23:35:19.55	147.71	32.10	-45.8	-46.9	16.7	0.00e+00	0	57	0	1464860672	54	4078
2026-01-02 23:35:23.51	148.68	31.51	-45.0	-45.9	17.5	0.00e+00	0	57	0	1476395008	53	3847
2026-01-02 23:35:27.48	149.61	30.91	-44.7	-45.5	17.9	0.00e+00	0	57	0	1488977920	52	3891
2026-01-02 23:35:31.43	150.51	30.33	-44.9	-45.8	17.7	0.00e+00	0	57	0	1501560832	52	4019
2026-01-02 23:35:35.38	151.38	29.75	-45.1	-46.0	17.4	0.00e+00	0	57	0	1514143744	52	4121
2026-01-02 23:35:39.31	152.21	29.17	-45.5	-46.5	16.9	0.00e+00	0	57	0	1525678080	53	4129
2026-01-02 23:35:43.27	153.02	28.60	-45.6	-46.6	16.8	0.00e+00	0	57	0	1538260992	53	4177
2026-01-02 23:35:47.22	153.80	28.04	-45.7	-46.7	16.7	0.00e+00	0	57	0	1550843904	53	4242
2026-01-02 23:35:51.18	154.55	27.48	-45.9	-47.0	16.4	0.00e+00	0	57	0	1563426816	53	4343
2026-01-02 23:35:55.14	155.28	26.92	-45.1	-46.0	17.3	0.00e+00	0	57	0	1576009728	53	3913
2026-01-02 23:35:59.12	155.99	26.37	-44.8	-45.7	17.6	0.00e+00	0	57	0	1587544064	52	4000
2026-01-02 23:36:03.08	156.68	25.83	-45.2	-46.2	17.2	0.00e+00	0	57	0	1600126976	52	4228
2026-01-02 23:36:07.04	157.34	25.30	-45.0	-45.9	17.4	0.00e+00	0	57	0	1612709888	52	4086
2026-01-02 23:36:10.99	157.97	24.77	-45.1	-46.0	17.4	0.00e+00	0	57	0	1625292800	52	4143
2026-01-02 23:36:14.94	158.59	24.25	-45.0	-45.9	17.4	0.00e+00	0	57	0	1637875712	52	4085
2026-01-02 23:36:18.90	159.19	23.74	-45.5	-46.5	16.9	0.00e+00	0	57	0	1649410048	52	4373
2026-01-02 23:36:22.86	159.77	23.23	-44.8	-45.7	17.6	0.00e+00	0	57	0	1661992960	52	3990
2026-01-02 23:36:26.82	160.34	22.73	-45.1	-46.0	17.3	0.00e+00	0	57	0	1674575872	52	4116
2026-01-02 23:36:30.76	160.88	22.24	-45.4	-46.3	17.0	0.00e+00	0	57	0	1687158784	52	4283
2026-01-02 23:36:34.74	161.42	21.75	-45.2	-46.2	17.1	0.00e+00	0	57	0	1699741696	52	4210
2026-01-02 23:36:38.70	161.93	21.27	-45.1	-46.0	17.3	0.00e+00	0	57	0	1711276032	52	4133
2026-01-02 23:36:42.65	162.43	20.80	-45.4	-46.5	16.9	0.00e+00	0	57	0	1723858944	52	4347
2026-01-02 23:36:46.60	162.91	20.34	-45.5	-46.6	16.8	0.00e+00	0	57	0	1736441856	53	4147
2026-01-02 23:36:50.54	163.38	19.88	-45.5	-46.5	16.8	0.00e+00	0	57	0	1749024768	53	4127
2026-01-02 23:36:54.48	163.84	19.43	-45.3	-46.3	17.1	0.00e+00	0	57	0	1761607680	53	4005
2026-01-02 23:36:58.44	164.28	18.99	-45.3	-46.3	16.9	0.00e+00	0	57	0	1773142016	53	4026
2026-01-02 23:37:02.40	164.72	18.55	-45.0	-46.0	17.3	0.00e+00	0	57	0	1785724928	53	3869
2026-01-02 23:37:06.35	165.14	18.11	-44.8	-45.6	17.6	0.00e+00	0	57	0	1798307840	52	3956
2026-01-02 23:37:10.31	165.55	17.69	-45.1	-46.1	17.2	0.00e+00	0	57	0	1810890752	52	4163
2026-01-02 23:37:14.27	165.95	17.27	-45.7	-46.8	16.5	0.00e+00	0	57	0	1822425088	53	4247
2026-01-02 23:37:18.22	166.33	16.85	-46.0	-47.2	16.1	0.00e+00	0	57	0	1835008000	53	4456
2026-01-02 23:37:22.19	166.71	16.44	-46.2	-47.4	15.9	0.00e+00	0	57	0	1847590912	54	4327
2026-01-02 23:37:26.14	167.08	16.04	-45.8	-46.9	16.3	0.00e+00	0	57	0	1860173824	54	4093
2026-01-02 23:37:30.07	167.44	15.64	-45.6	-46.7	16.5	0.00e+00	0	57	0	1872756736	54	3994
2026-01-02 23:37:34.03	167.79	15.25	-45.6	-46.7	16.5	0.00e+00	0	57	0	1884291072	54	3973
2026-01-02 23:37:37.97	168.13	14.86	-45.8	-46.9	16.3	0.00e+00	0	57	0	1896873984	54	4094
2026-01-02 23:37:41.92	168.46	14.48	-45.8	-46.9	16.4	0.00e+00	0	57	0	1909456896	54	4064
2026-01-02 23:37:45.88	168.79	14.10	-45.8	-46.8	16.4	0.00e+00	0	57	0	1922039808	54	4048
2026-01-02 23:37:49.85	169.11	13.73	-45.9	-46.9	16.2	0.00e+00	0	57	0	1934622720	54	4096
2026-01-02 23:37:53.81	169.42	13.36	-46.1	-47.2	16.0	0.00e+00	0	57	0	1946157056	54	4228
2026-01-02 23:37:57.77	169.73	13.00	-46.3	-47.5	15.7	0.00e+00	0	57	0	1958739968	54	4385
2026-01-02 23:38:01.71	170.02	12.64	-46.5	-47.8	15.4	0.00e+00	0	57	0	1971322880	54	4508
2026-01-02 23:38:05.68	170.31	12.29	-46.3	-47.6	15.5	0.00e+00	0	57	0	1983905792	54	4426
2026-01-02 23:38:09.63	170.59	11.94	-46.2	-47.4	15.7	7.00e-07	0	57	0	1995440128	54	4310
2026-01-02 23:38:13.58	170.87	11.60	-46.4	-47.6	15.5	0.00e+00	0	57	0	2008023040	54	4432
2026-01-02 23:38:17.53	171.14	11.26	-46.4	-47.7	15.4	0.00e+00	0	57	0	2020605952	54	4465
2026-01-02 23:38:21.48	171.41	10.92	-46.6	-48.0	15.1	0.00e+00	0	57	0	2033188864	55	4348
2026-01-02 23:38:25.43	171.67	10.59	-46.8	-48.2	14.9	0.00e+00	0	57	0	2045771776	55	4474
2026-01-02 23:38:29.36	171.92	10.26	-46.8	-48.3	14.7	0.00e+00	0	57	0	2057306112	55	4542
2026-01-02 23:38:33.31	172.17	9.94	-46.9	-48.4	14.7	1.50e-06	0	57	0	2069889024	56	4312
2026-01-02 23:38:37.26	172.41	9.62	-47.1	-48.6	14.5	0.00e+00	0	57	0	2082471936	56	4398
2026-01-02 23:38:41.22	172.65	9.30	-47.1	-48.5	14.6	7.00e-07	0	57	0	2095054848	56	4382
2026-01-02 23:38:45.18	172.89	8.99	-47.4	-49.0	14.0	7.00e-07	0	57	0	2106589184	56	4651
2026-01-02 23:38:49.13	173.12	8.68	-47.7	-49.4	13.7	3.00e-06	0	57	0	2119172096	57	4552
2026-01-02 23:38:53.09	173.34	8.37	-47.5	-49.2	13.8	6.80e-06	0	57	0	2131755008	57	4477
2026-01-02 23:38:57.05	173.56	8.07	-47.3	-49.0	14.0	3.80e-06	0	57	0	2144337920	57	4342
2026-01-02 23:39:01.01	173.78	7.77	-47.1	-48.6	14.4	0.00e+00	0	57	0	2156920832	57	4159
2026-01-02 23:39:04.97	173.99	7.47	-47.2	-48.7	14.2	2.20e-06	0	57	0	2168455168	57	4240
2026-01-02 23:39:08.92	174.20	7.18	-47.4	-49.0	13.9	2.20e-06	0	57	0	2181038080	57	4368
2026-01-02 23:39:12.87	174.40	6.89	-47.5	-49.2	13.7	1.06e-05	0	57	0	2193620992	57	4456
2026-01-02 23:39:16.84	174.61	6.60	-47.5	-49.3	13.5	1.06e-05	0	57	0	2206203904	57	4523
2026-01-02 23:39:20.79	174.80	6.32	-47.6	-49.3	13.5	8.30e-06	0	57	0	2218786816	57	4526
2026-01-02 23:39:24.75	175.00	6.03	-47.5	-49.3	13.4	1.14e-05	0	57	0	2230321152	57	4540
2026-01-02 23:39:28.71	175.19	5.76	-47.5	-49.3	13.4	2.13e-05	0	57	0	2242904064	57	4519
2026-01-02 23:39:32.66	175.38	5.48	-47.6	-49.5	13.1	1.90e-05	0	57	0	2255486976	57	4617
2026-01-02 23:39:36.62	175.56	5.21	-47.9	-49.8	12.7	7.09e-05	0	57	0	2268069888	57	4799
2026-01-02 23:39:40.57	175.74	4.94	-52.5	-64.0	3.8	1.49e+00	0	57	104	2275409920	66	14549
2026-01-02 23:39:44.52	175.92	4.67	-53.1	-64.6	3.8	1.49e+00	0	57	104	2275409920	67	14718
2026-01-02 23:39:48.49	176.09	4.40	-53.3	-64.8	3.8	1.49e+00	0	57	104	2275409920	68	14239
2026-01-02 23:39:52.44	176.26	4.14	-53.4	-64.9	3.8	1.49e+00	0	57	104	2275409920	68	14410
2026-01-02 23:39:56.41	176.43	3.87	-53.2	-64.9	3.8	1.49e+00	0	57	104	2275409920	68	14440
2026-01-02 23:40:00.37	176.60	3.62	-53.4	-64.9	3.8	1.49e+00	0	57	104	2275409920	68	14482
2026-01-02 23:40:04.33	176.77	3.36	-53.4	-64.9	3.8	1.49e+00	0	57	104	2275409920	68	14481
2026-01-02 23:40:08.28	176.93	3.10	-53.4	-64.9	3.8	1.49e+00	0	57	104	2275409920	68	14429

#Closed at: 2026-01-02 23:40:11
#Recorded file [2275 MB]: D:/Data/31026_260103_023939.dat