passes_logs/2026/01/02/R3.0SM8_Murmansk_STILSPACE/R3.0SM8_Murmansk_STILSPACE__20260102_033516_SUOMI_NPP_rec.log

#Pass ID: 20260102_033516_SUOMI NPP
#Satellite: SUOMI NPP
#Configuration: NPP
#almurnet v.1.7.20240730
#Start time: 2026-01-02 03:35:16

#Version: 2.2.20231116
#Station: R3.0SM8_Murmansk_STILSPACE
#Location: 33.092731 lon 68.902999 lat
#TLE: 1 37849U 11061A   26001.07732418  .00000182  00000+0  10735-3 0  9990
#TLE: 2 37849  98.7795 303.2470 0002580  87.2016 272.9455 14.19520779734739

#Time	Az	El	Level	Level2	SNR	BER	BlckErr	Temp	State	Recorded	gain1	gain2
2026-01-02 03:35:16.48	41.28	3.00	-52.3	-66.2	3.8	1.49e+00	0	45	0	0	66	18775
2026-01-02 03:35:20.44	41.04	3.24	-52.1	-65.9	3.8	1.49e+00	0	46	104	0	66	18300
2026-01-02 03:35:24.40	40.81	3.48	-51.4	-65.2	3.8	1.49e+00	0	46	104	0	65	17807
2026-01-02 03:35:28.34	40.57	3.73	-51.0	-65.2	3.8	1.49e+00	0	47	104	0	65	17827
2026-01-02 03:35:32.29	40.33	3.97	-51.4	-65.1	3.8	1.49e+00	0	47	104	0	65	17507
2026-01-02 03:35:36.25	40.08	4.22	-51.4	-64.2	3.8	1.49e+00	0	47	104	0	65	15926
2026-01-02 03:35:40.19	39.83	4.46	-51.1	-61.6	4.2	1.40e+00	0	47	0	0	65	11738
2026-01-02 03:35:44.15	39.58	4.71	-50.6	-58.0	6.1	4.10e-01	0	48	0	6291456	64	8243
2026-01-02 03:35:48.09	39.32	4.96	-50.3	-56.3	7.7	1.03e-01	0	48	0	13631488	63	7130
2026-01-02 03:35:52.05	39.05	5.22	-50.3	-56.1	7.9	8.38e-02	0	48	0	20971520	63	7027
2026-01-02 03:35:56.00	38.78	5.47	-50.2	-55.9	8.2	4.97e-02	0	48	0	28311552	63	6821
2026-01-02 03:35:59.96	38.51	5.73	-50.0	-55.2	8.8	4.20e-02	0	49	0	35651584	63	6342
2026-01-02 03:36:03.93	38.23	5.99	-49.2	-53.1	11.0	2.72e-03	0	49	0	42991616	61	5579
2026-01-02 03:36:07.90	37.94	6.25	-48.8	-52.3	11.8	3.51e-04	0	49	0	50331648	60	5360
2026-01-02 03:36:11.86	37.65	6.52	-48.7	-52.3	11.9	2.68e-04	0	49	0	58720256	60	5375
2026-01-02 03:36:15.82	37.35	6.78	-49.0	-52.8	11.3	4.16e-04	0	50	0	66060288	60	5722
2026-01-02 03:36:19.77	37.05	7.05	-48.6	-51.9	12.3	1.95e-04	0	50	0	73400320	60	5118
2026-01-02 03:36:23.73	36.74	7.32	-48.8	-52.3	12.0	1.01e-04	0	50	0	80740352	60	5347
2026-01-02 03:36:27.69	36.42	7.59	-48.4	-51.6	12.7	8.77e-05	0	50	0	88080384	60	4976
2026-01-02 03:36:31.62	36.11	7.86	-48.5	-51.8	12.7	4.95e-05	0	50	0	95420416	60	5078
2026-01-02 03:36:35.58	35.78	8.13	-48.3	-51.1	13.3	2.51e-05	0	50	0	102760448	59	4967
2026-01-02 03:36:39.54	35.44	8.41	-48.1	-50.8	13.6	2.20e-06	0	51	0	110100480	59	4788
2026-01-02 03:36:43.50	35.10	8.69	-48.2	-50.9	13.6	1.06e-05	0	51	0	117440512	58	5102
2026-01-02 03:36:47.45	34.76	8.97	-48.2	-51.0	13.5	1.22e-05	0	51	0	124780544	58	5202
2026-01-02 03:36:51.41	34.40	9.26	-48.3	-51.0	13.5	1.22e-05	0	51	0	132120576	58	5199
2026-01-02 03:36:55.36	34.04	9.54	-48.5	-51.3	13.2	2.36e-05	0	51	0	139460608	58	5401
2026-01-02 03:36:59.32	33.67	9.83	-48.6	-51.6	13.0	4.65e-05	0	51	0	146800640	59	5237
2026-01-02 03:37:03.28	33.29	10.12	-48.9	-51.9	12.6	9.15e-05	0	52	0	154140672	59	5463
2026-01-02 03:37:07.22	32.91	10.41	-49.0	-52.3	12.3	2.10e-04	0	52	0	162529280	60	5365
2026-01-02 03:37:11.18	32.52	10.71	-48.8	-51.9	12.7	8.31e-05	0	52	0	169869312	60	5108
2026-01-02 03:37:15.14	32.12	11.00	-48.5	-51.2	13.4	1.06e-05	0	52	0	177209344	59	5039
2026-01-02 03:37:19.10	31.71	11.30	-48.5	-51.4	13.2	1.83e-05	0	52	0	184549376	59	5131
2026-01-02 03:37:23.04	31.29	11.60	-48.8	-51.8	12.9	3.12e-05	0	52	0	191889408	59	5349
2026-01-02 03:37:27.00	30.86	11.90	-48.2	-50.9	13.7	7.60e-06	0	52	0	199229440	59	4849
2026-01-02 03:37:30.96	30.43	12.21	-48.4	-51.2	13.5	5.30e-06	0	53	0	206569472	59	4984
2026-01-02 03:37:34.91	29.98	12.52	-48.4	-51.2	13.5	9.90e-06	0	53	0	213909504	59	4987
2026-01-02 03:37:38.88	29.53	12.83	-48.2	-50.8	13.9	7.00e-07	0	53	0	221249536	59	4788
2026-01-02 03:37:42.84	29.06	13.14	-48.4	-51.1	13.6	3.80e-06	0	53	0	228589568	59	4959
2026-01-02 03:37:46.80	28.58	13.45	-48.0	-50.5	14.3	7.00e-07	0	53	0	235929600	58	4872
2026-01-02 03:37:50.75	28.10	13.77	-48.3	-50.9	13.9	3.00e-06	0	53	0	243269632	58	5113
2026-01-02 03:37:54.71	27.60	14.08	-48.5	-51.2	13.5	1.50e-06	0	53	0	250609664	58	5320
2026-01-02 03:37:58.65	27.09	14.40	-48.6	-51.4	13.3	1.75e-05	0	53	0	258998272	59	5155
2026-01-02 03:38:02.61	26.57	14.72	-48.7	-51.5	13.3	1.52e-05	0	53	0	266338304	59	5181
2026-01-02 03:38:06.56	26.04	15.05	-49.0	-52.2	12.5	1.03e-04	0	53	0	273678336	60	5314
2026-01-02 03:38:10.51	25.50	15.37	-47.6	-49.8	15.0	0.00e+00	0	53	0	281018368	58	4508
2026-01-02 03:38:14.48	24.95	15.70	-47.8	-50.1	14.6	0.00e+00	0	54	0	288358400	58	4693
2026-01-02 03:38:18.43	24.38	16.02	-47.1	-49.0	15.8	0.00e+00	0	53	0	295698432	57	4342
2026-01-02 03:38:22.40	23.80	16.36	-47.1	-49.1	15.7	0.00e+00	0	54	0	303038464	56	4664
2026-01-02 03:38:26.35	23.20	16.69	-46.9	-48.8	16.0	0.00e+00	0	54	0	310378496	56	4517
2026-01-02 03:38:30.30	22.60	17.02	-47.1	-49.0	15.8	0.00e+00	0	54	0	317718528	56	4641
2026-01-02 03:38:34.27	21.97	17.35	-47.2	-49.2	15.6	0.00e+00	0	54	0	325058560	56	4717
2026-01-02 03:38:38.21	21.34	17.68	-47.7	-49.9	14.9	0.00e+00	0	54	0	332398592	57	4842
2026-01-02 03:38:42.17	20.69	18.02	-47.6	-49.8	15.0	0.00e+00	0	54	0	339738624	57	4800
2026-01-02 03:38:46.14	20.02	18.36	-47.2	-49.2	15.5	0.00e+00	0	54	0	347078656	57	4480
2026-01-02 03:38:50.10	19.34	18.69	-47.1	-49.1	15.8	0.00e+00	0	54	0	355467264	57	4403
2026-01-02 03:38:54.06	18.65	19.03	-47.6	-49.8	15.0	0.00e+00	0	54	0	362807296	57	4808
2026-01-02 03:38:58.02	17.94	19.36	-48.1	-50.5	14.4	0.00e+00	0	54	0	370147328	57	5187
2026-01-02 03:39:01.98	17.21	19.70	-48.0	-50.3	14.6	1.50e-06	0	54	0	377487360	58	4774
2026-01-02 03:39:05.95	16.46	20.04	-47.6	-49.9	15.0	0.00e+00	0	55	0	384827392	58	4557
2026-01-02 03:39:09.91	15.70	20.37	-47.7	-49.9	14.9	0.00e+00	0	55	0	392167424	57	4833
2026-01-02 03:39:13.88	14.92	20.71	-47.8	-50.0	14.9	0.00e+00	0	55	0	399507456	57	4896
2026-01-02 03:39:17.82	14.13	21.04	-47.7	-49.9	15.0	0.00e+00	0	55	0	406847488	57	4844
2026-01-02 03:39:21.76	13.32	21.37	-47.1	-49.0	15.9	0.00e+00	0	55	0	414187520	57	4360
2026-01-02 03:39:25.72	12.49	21.70	-47.6	-49.7	15.2	0.00e+00	0	55	0	421527552	57	4755
2026-01-02 03:39:29.67	11.65	22.02	-47.4	-49.4	15.5	0.00e+00	0	55	0	428867584	57	4590
2026-01-02 03:39:33.62	10.78	22.35	-47.0	-48.9	15.9	0.00e+00	0	55	0	436207616	57	4311
2026-01-02 03:39:37.58	9.90	22.67	-46.1	-47.7	16.8	0.00e+00	0	55	0	443547648	55	4218
2026-01-02 03:39:41.53	8.99	22.98	-47.7	-50.2	14.2	0.00e+00	0	55	0	450887680	57	5000
2026-01-02 03:39:45.49	8.07	23.30	-48.5	-51.9	12.1	1.91e-04	0	55	0	459276288	58	5768
2026-01-02 03:39:49.44	7.13	23.61	-48.3	-51.7	11.8	8.60e-04	0	55	0	466616320	59	5326
2026-01-02 03:39:53.39	6.18	23.91	-47.5	-49.8	14.4	1.50e-06	0	55	0	473956352	57	4799
2026-01-02 03:39:57.35	5.20	24.21	-47.2	-49.2	15.4	7.00e-07	0	55	0	481296384	56	4729
2026-01-02 03:40:01.29	4.21	24.50	-49.1	-53.9	9.6	2.75e-03	0	55	0	488636416	60	6430
2026-01-02 03:40:05.25	3.19	24.78	-47.9	-50.7	13.2	5.95e-04	0	55	0	495976448	59	4731
2026-01-02 03:40:09.21	2.16	25.06	-46.5	-48.1	16.6	0.00e+00	0	55	0	503316480	55	4434
2026-01-02 03:40:13.16	1.10	25.33	-46.5	-48.1	16.6	0.00e+00	0	55	0	510656512	55	4435
2026-01-02 03:40:17.11	0.04	25.60	-47.6	-49.7	15.2	0.00e+00	0	55	0	517996544	57	4755
2026-01-02 03:40:21.07	358.95	25.85	-47.4	-49.4	15.6	0.00e+00	0	55	0	525336576	56	4837
2026-01-02 03:40:25.04	357.84	26.10	-46.9	-48.7	16.2	0.00e+00	0	55	0	532676608	56	4448
2026-01-02 03:40:28.98	356.72	26.33	-46.7	-48.4	16.5	0.00e+00	0	55	0	540016640	56	4335
2026-01-02 03:40:32.93	355.58	26.56	-46.8	-48.6	16.4	0.00e+00	0	56	0	547356672	56	4397
2026-01-02 03:40:36.90	354.42	26.77	-46.4	-48.0	16.8	0.00e+00	0	56	0	554696704	55	4384
2026-01-02 03:40:40.85	353.26	26.98	-46.5	-48.1	16.7	0.00e+00	0	55	0	563085312	55	4406
2026-01-02 03:40:44.81	352.07	27.17	-47.1	-48.9	16.0	0.00e+00	0	56	0	570425344	55	4858
2026-01-02 03:40:48.77	350.87	27.34	-47.4	-49.5	15.5	0.00e+00	0	56	0	577765376	56	4881
2026-01-02 03:40:52.71	349.66	27.51	-47.4	-49.3	15.6	0.00e+00	0	56	0	585105408	57	4531
2026-01-02 03:40:56.65	348.44	27.66	-47.5	-49.5	15.5	0.00e+00	0	56	0	592445440	56	4881
2026-01-02 03:41:00.61	347.21	27.80	-47.7	-49.8	15.2	0.00e+00	0	56	0	599785472	57	4774
2026-01-02 03:41:04.57	345.96	27.92	-48.7	-51.6	13.4	1.06e-05	0	56	0	607125504	59	5241
2026-01-02 03:41:08.53	344.70	28.03	-48.3	-50.8	14.1	3.00e-06	0	56	0	614465536	59	4804
2026-01-02 03:41:12.48	343.44	28.13	-48.5	-51.1	13.9	1.06e-05	0	56	0	621805568	59	4935
2026-01-02 03:41:16.44	342.17	28.20	-48.0	-50.3	14.6	0.00e+00	0	56	0	629145600	58	4805
2026-01-02 03:41:20.40	340.89	28.27	-48.2	-50.6	14.3	7.00e-07	0	56	0	636485632	58	4956
2026-01-02 03:41:24.38	339.61	28.32	-47.9	-50.3	14.6	0.00e+00	0	56	0	643825664	58	4810
2026-01-02 03:41:28.33	338.32	28.35	-48.4	-51.0	13.9	3.00e-06	0	56	0	651165696	59	4914
2026-01-02 03:41:32.27	337.04	28.36	-47.0	-48.8	16.1	0.00e+00	0	56	0	658505728	57	4275
2026-01-02 03:41:36.23	335.76	28.36	-48.0	-50.4	14.6	1.50e-06	0	56	0	666894336	57	5106
2026-01-02 03:41:40.19	334.47	28.34	-48.1	-50.4	14.6	0.00e+00	0	56	0	674234368	58	4864
2026-01-02 03:41:44.15	333.19	28.31	-47.4	-49.4	15.7	0.00e+00	0	56	0	681574400	57	4551
2026-01-02 03:41:48.09	331.91	28.26	-47.8	-50.0	15.0	0.00e+00	0	56	0	688914432	57	4913
2026-01-02 03:41:52.04	330.64	28.20	-47.5	-49.5	15.5	0.00e+00	0	56	0	696254464	57	4649
2026-01-02 03:41:55.99	329.37	28.12	-46.7	-48.4	16.5	0.00e+00	0	56	0	703594496	56	4333
2026-01-02 03:41:59.95	328.10	28.02	-46.9	-48.7	16.2	0.00e+00	0	56	0	710934528	55	4733
2026-01-02 03:42:03.91	326.85	27.91	-46.5	-48.1	16.8	0.00e+00	0	56	0	718274560	55	4424
2026-01-02 03:42:07.86	325.61	27.79	-47.2	-49.1	15.9	0.00e+00	0	56	0	725614592	56	4671
2026-01-02 03:42:11.82	324.37	27.65	-47.7	-49.8	15.2	0.00e+00	0	56	0	732954624	57	4787
2026-01-02 03:42:15.78	323.14	27.49	-48.4	-50.9	14.1	7.00e-07	0	56	0	740294656	58	5125
2026-01-02 03:42:19.73	321.93	27.33	-48.3	-50.7	14.4	0.00e+00	0	56	0	747634688	59	4712
2026-01-02 03:42:23.67	320.74	27.15	-47.6	-49.6	15.5	0.00e+00	0	56	0	754974720	58	4397
2026-01-02 03:42:27.62	319.56	26.96	-47.2	-49.1	16.0	0.00e+00	0	56	0	762314752	57	4410
2026-01-02 03:42:31.57	318.39	26.75	-47.3	-49.3	15.9	0.00e+00	0	56	0	769654784	57	4517
2026-01-02 03:42:35.53	317.23	26.54	-47.9	-50.2	14.9	0.00e+00	0	56	0	778043392	58	4710
2026-01-02 03:42:39.49	316.09	26.31	-47.8	-49.9	15.0	0.00e+00	0	56	0	785383424	57	4834
2026-01-02 03:42:43.45	314.97	26.07	-48.5	-51.0	14.0	3.00e-06	0	56	0	792723456	58	5213
2026-01-02 03:42:47.39	313.87	25.83	-48.1	-50.6	14.4	1.50e-06	0	56	0	800063488	58	4945
2026-01-02 03:42:51.35	312.78	25.57	-47.8	-50.0	15.0	0.00e+00	0	56	0	807403520	58	4623
2026-01-02 03:42:55.32	311.71	25.31	-47.1	-49.0	15.9	0.00e+00	0	56	0	814743552	57	4369
2026-01-02 03:42:59.29	310.65	25.03	-46.4	-48.1	16.8	0.00e+00	0	56	0	822083584	55	4402
2026-01-02 03:43:03.25	309.62	24.75	-47.9	-50.2	14.8	0.00e+00	0	56	0	829423616	57	5016
2026-01-02 03:43:07.21	308.60	24.47	-48.1	-50.6	14.3	3.00e-06	0	56	0	836763648	58	4981
2026-01-02 03:43:11.16	307.61	24.17	-47.9	-50.2	14.8	7.00e-07	0	56	0	844103680	58	4730
2026-01-02 03:43:15.13	306.63	23.87	-47.6	-49.9	15.1	0.00e+00	0	56	0	851443712	57	4839
2026-01-02 03:43:19.09	305.67	23.57	-47.4	-49.5	15.5	0.00e+00	0	57	0	859832320	56	4895
2026-01-02 03:43:23.04	304.73	23.26	-46.8	-48.5	16.4	0.00e+00	0	56	0	867172352	55	4639
2026-01-02 03:43:27.00	303.81	22.94	-46.5	-48.2	16.7	0.00e+00	0	57	0	874512384	56	4229
2026-01-02 03:43:30.94	302.91	22.63	-46.6	-48.3	16.5	0.00e+00	0	56	0	881852416	55	4521
2026-01-02 03:43:34.90	302.03	22.31	-46.3	-47.9	16.9	0.00e+00	0	56	0	889192448	55	4292
2026-01-02 03:43:38.86	301.16	21.98	-46.2	-47.7	17.0	0.00e+00	0	57	0	896532480	54	4483
2026-01-02 03:43:42.81	300.32	21.66	-46.5	-48.2	16.6	0.00e+00	0	56	0	903872512	54	4747
2026-01-02 03:43:46.78	299.49	21.32	-47.2	-49.1	15.9	0.00e+00	0	57	0	911212544	56	4678
2026-01-02 03:43:50.75	298.67	20.99	-47.4	-49.3	15.6	0.00e+00	0	56	0	918552576	56	4807
2026-01-02 03:43:54.70	297.88	20.66	-46.6	-48.4	16.4	0.00e+00	0	57	0	925892608	55	4580
2026-01-02 03:43:58.66	297.10	20.32	-45.3	-46.7	17.8	0.00e+00	0	57	0	933232640	53	4215
2026-01-02 03:44:02.64	296.34	19.99	-45.3	-46.7	17.6	0.00e+00	0	57	0	940572672	52	4482
2026-01-02 03:44:06.59	295.60	19.65	-45.8	-47.3	17.4	0.00e+00	0	57	0	947912704	53	4522
2026-01-02 03:44:10.56	294.87	19.31	-46.0	-47.5	17.3	0.00e+00	0	57	0	956301312	54	4355
2026-01-02 03:44:14.53	294.15	18.98	-45.9	-47.4	17.4	0.00e+00	0	57	0	963641344	54	4307
2026-01-02 03:44:18.50	293.46	18.64	-46.3	-47.9	16.9	0.00e+00	0	57	0	970981376	54	4551
2026-01-02 03:44:22.46	292.78	18.30	-46.8	-48.7	16.0	0.00e+00	0	57	0	978321408	55	4707
2026-01-02 03:44:26.43	292.11	17.96	-47.0	-48.9	15.5	0.00e+00	0	57	0	985661440	55	4855
2026-01-02 03:44:30.38	291.46	17.63	-47.8	-50.4	13.8	3.00e-06	0	57	0	993001472	57	5122
2026-01-02 03:44:34.33	290.83	17.30	-49.0	-53.2	10.6	1.83e-03	0	57	0	1000341504	60	5953
2026-01-02 03:44:38.28	290.21	16.96	-49.2	-53.9	9.6	1.06e-02	0	57	0	1007681536	60	6462
2026-01-02 03:44:42.23	289.60	16.63	-49.3	-54.5	8.8	2.93e-02	0	57	0	1015021568	60	6920
2026-01-02 03:44:46.19	289.01	16.30	-49.8	-56.3	7.0	1.43e-01	0	57	0	1022361600	61	8019
2026-01-02 03:44:50.14	288.43	15.97	-50.1	-58.7	5.1	6.01e-01	0	57	0	1029701632	62	10014
2026-01-02 03:44:54.09	287.86	15.64	-49.3	-59.4	4.7	9.16e-01	0	57	0	1037041664	62	10878
2026-01-02 03:44:58.04	287.31	15.32	-50.0	-59.5	4.6	9.80e-01	0	56	0	1044381696	62	10978
2026-01-02 03:45:01.99	286.77	14.99	-50.1	-60.3	4.3	1.33e+00	0	57	0	1051721728	62	11961
2026-01-02 03:45:05.95	286.24	14.67	-49.9	-58.5	5.1	7.81e-01	0	57	0	1058013184	61	10313
2026-01-02 03:45:09.91	285.72	14.35	-49.1	-54.5	8.6	4.70e-02	0	57	0	1065353216	60	6912
2026-01-02 03:45:13.87	285.21	14.03	-49.0	-53.5	9.9	1.24e-02	0	57	0	1072693248	60	6166
2026-01-02 03:45:17.84	284.71	13.71	-48.8	-52.7	11.0	2.58e-03	0	57	0	1080033280	59	5927
2026-01-02 03:45:21.80	284.22	13.39	-48.5	-51.6	12.5	9.99e-05	0	57	0	1087373312	59	5272
2026-01-02 03:45:25.76	283.75	13.08	-48.6	-51.6	12.6	1.43e-04	0	57	0	1094713344	59	5228
2026-01-02 03:45:29.72	283.28	12.77	-48.1	-50.7	13.7	1.14e-05	0	57	0	1102053376	58	5019
2026-01-02 03:45:33.68	282.82	12.46	-48.1	-50.6	13.8	7.00e-07	0	57	0	1109393408	58	4960
2026-01-02 03:45:37.64	282.38	12.15	-48.3	-50.9	13.6	1.60e-05	0	57	0	1116733440	58	5155
2026-01-02 03:45:41.61	281.94	11.84	-48.8	-51.8	12.7	9.76e-05	0	57	0	1124073472	59	5394
2026-01-02 03:45:45.57	281.51	11.54	-48.2	-50.8	13.8	8.30e-06	0	57	0	1131413504	59	4791
2026-01-02 03:45:49.53	281.09	11.24	-47.9	-50.3	14.2	0.00e+00	0	57	0	1138753536	57	5096
2026-01-02 03:45:53.49	280.68	10.94	-48.0	-50.6	14.0	2.20e-06	0	57	0	1147142144	58	4928
2026-01-02 03:45:57.45	280.28	10.64	-48.8	-52.0	12.4	7.55e-05	0	57	0	1154482176	59	5502
2026-01-02 03:46:01.41	279.89	10.35	-49.2	-53.0	11.4	8.74e-04	0	57	0	1161822208	60	5800
2026-01-02 03:46:05.36	279.51	10.06	-49.6	-53.8	10.3	5.22e-03	0	57	0	1169162240	61	6061
2026-01-02 03:46:09.32	279.13	9.77	-49.0	-52.8	11.3	1.24e-03	0	57	0	1176502272	60	5697
2026-01-02 03:46:13.26	278.76	9.48	-48.7	-52.3	11.6	7.04e-04	0	57	0	1183842304	59	5671
2026-01-02 03:46:17.23	278.40	9.19	-48.7	-52.4	11.2	1.32e-03	0	57	0	1191182336	59	5760
2026-01-02 03:46:21.19	278.04	8.91	-48.8	-52.8	10.7	2.92e-03	0	57	0	1198522368	59	6045
2026-01-02 03:46:25.15	277.69	8.63	-49.0	-53.7	9.6	1.17e-02	0	57	0	1205862400	60	6332
2026-01-02 03:46:29.10	277.35	8.35	-49.0	-54.1	9.0	2.55e-02	0	57	0	1213202432	60	6616
2026-01-02 03:46:33.06	277.02	8.07	-48.9	-53.9	9.0	2.43e-02	0	57	0	1220542464	59	6855
2026-01-02 03:46:37.02	276.69	7.80	-48.5	-53.3	9.4	1.99e-02	0	57	0	1227882496	59	6374
2026-01-02 03:46:40.98	276.37	7.52	-48.5	-53.6	8.8	2.56e-02	0	57	0	1235222528	58	7035
2026-01-02 03:46:44.92	276.06	7.25	-48.5	-53.9	8.4	4.43e-02	0	57	0	1242562560	58	7269
2026-01-02 03:46:48.86	275.75	6.99	-48.7	-55.1	7.2	1.11e-01	0	57	0	1250951168	59	7829
2026-01-02 03:46:52.82	275.45	6.72	-48.9	-56.0	6.2	2.68e-01	0	57	0	1258291200	59	8737
2026-01-02 03:46:56.77	275.15	6.45	-49.0	-57.2	5.4	5.07e-01	0	57	0	1265631232	59	9968
2026-01-02 03:47:00.72	274.86	6.19	-49.0	-58.0	4.8	7.51e-01	0	57	0	1272971264	59	10921
2026-01-02 03:47:04.67	274.57	5.93	-49.0	-58.8	4.4	1.07e+00	0	57	0	1280311296	59	11969
2026-01-02 03:47:08.62	274.29	5.67	-48.9	-59.0	4.3	1.33e+00	0	57	0	1286602752	59	12281
2026-01-02 03:47:12.58	274.01	5.41	-48.8	-59.8	4.1	1.42e+00	0	57	0	1286602752	59	13532
2026-01-02 03:47:16.54	273.74	5.16	-49.0	-60.8	3.8	1.49e+00	0	57	104	1286602752	59	15098
2026-01-02 03:47:20.49	273.48	4.91	-51.3	-65.1	3.8	1.49e+00	0	57	104	1286602752	64	18629
2026-01-02 03:47:24.44	273.22	4.65	-52.3	-66.1	3.8	1.49e+00	0	57	104	1286602752	66	18710
2026-01-02 03:47:28.41	272.96	4.40	-52.4	-66.2	3.8	1.49e+00	0	57	104	1286602752	66	18913
2026-01-02 03:47:32.38	272.70	4.15	-52.5	-66.3	3.8	1.49e+00	0	57	104	1286602752	66	19146
2026-01-02 03:47:36.33	272.46	3.91	-52.5	-66.4	3.8	1.49e+00	0	57	104	1286602752	67	18168
2026-01-02 03:47:40.30	272.21	3.66	-52.6	-66.5	3.8	1.49e+00	0	57	104	1286602752	67	18334
2026-01-02 03:47:44.28	271.97	3.42	-52.6	-66.5	3.8	1.49e+00	0	57	104	1286602752	67	18355
2026-01-02 03:47:48.24	271.74	3.18	-52.6	-66.4	3.8	1.49e+00	0	57	104	1286602752	67	18295

#Closed at: 2026-01-02 03:47:51
#Recorded file [1286 MB]: D:/Data/31026_260102_064715.dat