passes_logs/2026/01/02/R3.0SM8_Murmansk_STILSPACE/R3.0SM8_Murmansk_STILSPACE__20260102_030324_FENGYUN_3E_rec.log

#Pass ID: 20260102_030324_FENGYUN 3E
#Satellite: FENGYUN 3E
#Configuration: FENGYUN 3E
#almurnet v.1.7.20240730
#Start time: 2026-01-02 03:10:42

#Version: 2.2.20231116
#Station: R3.0SM8_Murmansk_STILSPACE
#Location: 33.092731 lon 68.902999 lat
#TLE: 1 49008U 21062A   26001.26445318  .00000475  00000+0  24453-3 0  9990
#TLE: 2 49008  98.7480   6.5551 0001357 167.8415 192.2795 14.19884467232890

#Time	Az	El	Level	Level2	SNR	BER	BlckErr	Temp	State	Recorded	gain1	gain2
2026-01-02 03:10:42.89	105.48	29.10	-52.6	-63.5	3.8	8.47e-01	0	57	0	0	67	12970
2026-01-02 03:10:44.86	106.11	29.00	-52.7	-62.9	3.8	8.45e-01	0	58	104	0	67	12013
2026-01-02 03:10:46.84	106.74	28.90	-52.6	-62.9	3.8	8.45e-01	0	58	104	0	67	12023
2026-01-02 03:10:48.82	107.37	28.80	-52.7	-62.9	3.8	8.46e-01	0	58	104	0	67	11978
2026-01-02 03:10:50.80	108.00	28.69	-52.6	-62.8	3.8	8.47e-01	0	58	104	0	67	11937
2026-01-02 03:10:52.78	108.62	28.58	-52.7	-62.8	3.8	8.46e-01	0	58	104	0	67	11850
2026-01-02 03:10:54.76	109.23	28.47	-52.7	-62.8	3.8	8.45e-01	0	58	104	0	67	11948
2026-01-02 03:10:56.74	109.85	28.35	-52.6	-62.8	3.8	8.47e-01	0	58	104	0	67	11911
2026-01-02 03:10:58.72	110.45	28.23	-52.6	-62.8	3.8	8.46e-01	0	58	104	0	67	11934
2026-01-02 03:11:00.69	111.05	28.11	-52.6	-62.8	3.8	8.46e-01	0	58	104	0	67	11862
2026-01-02 03:11:02.68	111.65	27.99	-52.4	-62.1	3.8	8.46e-01	0	58	104	0	67	10921
2026-01-02 03:11:04.66	112.25	27.86	-52.5	-62.6	3.8	8.47e-01	0	58	104	0	67	11648
2026-01-02 03:11:06.64	112.84	27.73	-52.4	-62.3	3.8	8.48e-01	0	58	104	0	67	11212
2026-01-02 03:11:08.63	113.42	27.60	-52.4	-62.5	3.8	8.45e-01	0	58	104	0	67	11449
2026-01-02 03:11:10.60	114.00	27.46	-52.5	-62.6	3.8	8.46e-01	0	58	104	0	67	11632
2026-01-02 03:11:12.58	114.58	27.32	-52.5	-62.6	3.8	8.46e-01	0	58	104	0	67	11646
2026-01-02 03:11:14.55	115.14	27.19	-52.5	-62.4	3.8	8.47e-01	0	58	104	0	67	11338
2026-01-02 03:11:16.53	115.71	27.04	-52.5	-62.6	3.8	8.46e-01	0	58	104	0	67	11596
2026-01-02 03:11:18.52	116.27	26.90	-52.5	-62.4	3.8	8.46e-01	0	58	104	0	67	11342
2026-01-02 03:11:20.48	116.82	26.75	-52.5	-62.3	3.8	8.46e-01	0	58	104	0	67	11267
2026-01-02 03:11:22.45	117.37	26.61	-52.4	-62.5	3.8	8.45e-01	0	58	104	0	67	11496
2026-01-02 03:11:24.43	117.91	26.46	-52.4	-62.1	3.8	8.46e-01	0	58	104	0	67	10928
2026-01-02 03:11:26.41	118.45	26.30	-52.2	-60.9	3.8	8.45e-01	0	58	104	0	67	9562
2026-01-02 03:11:28.38	118.99	26.15	-52.2	-61.1	3.8	8.45e-01	0	58	104	0	67	9807
2026-01-02 03:11:30.35	119.51	26.00	-52.3	-61.4	3.8	8.47e-01	0	58	104	0	67	10165
2026-01-02 03:11:32.32	120.04	25.84	-52.3	-61.0	3.8	8.46e-01	0	58	104	0	67	9695
2026-01-02 03:11:34.30	120.56	25.68	-50.6	-54.5	6.9	2.54e-01	0	58	0	3145728	64	5437
2026-01-02 03:11:36.27	121.07	25.52	-48.1	-50.0	11.6	2.29e-03	0	58	0	16777216	59	4329
2026-01-02 03:11:38.24	121.58	25.36	-47.5	-49.1	12.6	9.15e-05	0	58	0	31457280	57	4362
2026-01-02 03:11:40.22	122.08	25.20	-47.5	-49.0	12.7	9.95e-05	0	58	0	45088768	57	4335
2026-01-02 03:11:42.19	122.58	25.04	-47.5	-49.1	12.5	1.28e-04	0	58	0	59768832	57	4386
2026-01-02 03:11:44.16	123.07	24.87	-48.7	-50.8	10.8	2.77e-03	0	58	0	74448896	59	4729
2026-01-02 03:11:46.15	123.56	24.70	-46.7	-48.0	13.7	1.71e-05	0	58	0	88080384	56	4068
2026-01-02 03:11:48.12	124.04	24.54	-44.7	-45.6	16.0	0.00e+00	0	58	0	102760448	52	3881
2026-01-02 03:11:50.10	124.52	24.37	-43.2	-43.8	17.9	0.00e+00	0	58	0	116391936	49	3780
2026-01-02 03:11:52.07	125.00	24.20	-42.0	-42.6	18.9	0.00e+00	0	58	0	131072000	46	3878
2026-01-02 03:11:54.06	125.47	24.03	-41.2	-41.7	19.7	0.00e+00	0	58	0	145752064	45	3733
2026-01-02 03:11:56.04	125.93	23.86	-40.7	-41.3	20.2	0.00e+00	0	58	0	159383552	44	3738
2026-01-02 03:11:58.02	126.39	23.69	-40.8	-41.4	20.1	0.00e+00	0	58	0	174063616	44	3790
2026-01-02 03:12:00.00	126.85	23.51	-40.9	-41.5	20.0	0.00e+00	0	58	0	188743680	44	3830
2026-01-02 03:12:01.99	127.30	23.34	-40.7	-41.2	20.0	0.00e+00	0	58	0	202375168	44	3726
2026-01-02 03:12:03.97	127.75	23.17	-41.0	-41.5	19.9	0.00e+00	0	58	0	217055232	44	3868
2026-01-02 03:12:05.94	128.18	22.99	-40.9	-41.5	20.0	0.00e+00	0	58	0	231735296	44	3833
2026-01-02 03:12:07.93	128.62	22.82	-40.9	-41.4	20.0	0.00e+00	0	58	0	245366784	44	3800
2026-01-02 03:12:09.90	129.05	22.64	-40.3	-40.8	20.5	0.00e+00	0	58	0	260046848	43	3739
2026-01-02 03:12:11.87	129.47	22.47	-40.3	-40.8	20.6	0.00e+00	0	58	0	273678336	43	3740
2026-01-02 03:12:13.85	129.90	22.29	-40.4	-40.9	20.4	0.00e+00	0	58	0	288358400	43	3788
2026-01-02 03:12:15.82	130.31	22.12	-40.7	-41.2	20.1	0.00e+00	0	58	0	301989888	43	3920
2026-01-02 03:12:17.80	130.72	21.94	-40.8	-41.3	20.0	0.00e+00	0	58	0	316669952	43	3976
2026-01-02 03:12:19.77	131.13	21.76	-40.9	-41.4	19.9	0.00e+00	0	58	0	331350016	43	4047
2026-01-02 03:12:21.75	131.53	21.59	-41.1	-41.7	19.6	0.00e+00	0	58	0	344981504	43	4163
2026-01-02 03:12:23.73	131.93	21.41	-40.9	-41.4	20.0	0.00e+00	0	58	0	359661568	44	3801
2026-01-02 03:12:25.70	132.32	21.23	-40.7	-41.2	20.2	0.00e+00	0	58	0	374341632	44	3735
2026-01-02 03:12:27.67	132.71	21.05	-40.8	-41.3	20.1	0.00e+00	0	58	0	387973120	44	3775
2026-01-02 03:12:29.65	133.10	20.88	-40.9	-41.4	20.0	0.00e+00	0	58	0	402653184	44	3785
2026-01-02 03:12:31.64	133.48	20.70	-41.1	-41.6	19.8	0.00e+00	0	58	0	417333248	44	3909
2026-01-02 03:12:33.61	133.86	20.52	-41.4	-42.0	19.5	0.00e+00	0	58	0	430964736	44	4061
2026-01-02 03:12:35.57	134.23	20.35	-41.5	-42.1	19.3	0.00e+00	0	58	0	444596224	44	4113
2026-01-02 03:12:37.55	134.60	20.17	-41.7	-42.3	19.1	0.00e+00	0	58	0	459276288	45	3980
2026-01-02 03:12:39.52	134.96	19.99	-41.8	-42.4	19.0	0.00e+00	0	58	0	473956352	45	4019
2026-01-02 03:12:41.50	135.32	19.81	-41.3	-41.9	19.5	0.00e+00	0	58	0	487587840	45	3794
2026-01-02 03:12:43.49	135.68	19.64	-41.1	-41.6	19.7	0.00e+00	0	58	0	502267904	45	3670
2026-01-02 03:12:45.47	136.03	19.46	-41.1	-41.6	19.7	0.00e+00	0	58	0	516947968	44	3912
2026-01-02 03:12:47.45	136.38	19.28	-41.3	-41.8	19.6	0.00e+00	0	58	0	530579456	44	3992
2026-01-02 03:12:49.43	136.72	19.11	-41.3	-41.8	19.6	0.00e+00	0	58	0	545259520	44	3977
2026-01-02 03:12:51.40	137.06	18.93	-41.6	-42.2	19.2	0.00e+00	0	58	0	558891008	44	4164
2026-01-02 03:12:53.38	137.40	18.76	-41.9	-42.4	18.9	0.00e+00	0	58	0	573571072	45	4050
2026-01-02 03:12:55.35	137.73	18.58	-41.9	-42.6	18.8	0.00e+00	0	58	0	588251136	45	4100
2026-01-02 03:12:57.32	138.06	18.41	-42.0	-42.6	18.7	0.00e+00	0	58	0	601882624	45	4143
2026-01-02 03:12:59.30	138.39	18.23	-42.1	-42.8	18.6	0.00e+00	0	58	0	616562688	45	4195
2026-01-02 03:13:01.28	138.71	18.06	-41.6	-42.1	19.2	0.00e+00	0	58	0	630194176	45	3912
2026-01-02 03:13:03.26	139.03	17.88	-41.3	-41.9	19.4	0.00e+00	0	58	0	644874240	45	3799
2026-01-02 03:13:05.24	139.34	17.71	-41.4	-42.0	19.4	0.00e+00	0	58	0	659554304	45	3833
2026-01-02 03:13:07.22	139.66	17.54	-41.7	-42.2	19.1	0.00e+00	0	58	0	673185792	45	3956
2026-01-02 03:13:09.19	139.96	17.36	-41.5	-42.1	19.2	0.00e+00	0	58	0	687865856	45	3899
2026-01-02 03:13:11.16	140.27	17.19	-41.7	-42.3	19.1	0.00e+00	0	58	0	701497344	45	3960
2026-01-02 03:13:13.14	140.57	17.02	-41.9	-42.5	18.8	0.00e+00	0	58	0	716177408	45	4091
2026-01-02 03:13:15.12	140.87	16.85	-42.1	-42.8	18.5	0.00e+00	0	58	0	730857472	45	4202
2026-01-02 03:13:17.10	141.16	16.68	-42.2	-42.9	18.3	0.00e+00	0	58	0	744488960	46	4014
2026-01-02 03:13:19.07	141.45	16.51	-42.3	-43.0	18.4	0.00e+00	0	58	0	759169024	46	4057
2026-01-02 03:13:21.05	141.74	16.34	-42.5	-43.1	18.2	0.00e+00	0	58	0	773849088	46	4142
2026-01-02 03:13:23.04	142.03	16.17	-42.4	-43.1	18.3	0.00e+00	0	58	0	787480576	47	3873
2026-01-02 03:13:25.02	142.31	16.00	-42.2	-42.9	18.5	0.00e+00	0	58	0	802160640	47	3789
2026-01-02 03:13:26.99	142.59	15.83	-42.1	-42.7	18.6	0.00e+00	0	58	0	816840704	47	3729
2026-01-02 03:13:28.97	142.87	15.66	-42.1	-42.7	18.6	0.00e+00	0	58	0	830472192	47	3713
2026-01-02 03:13:30.94	143.14	15.50	-41.8	-42.4	19.0	0.00e+00	0	58	0	845152256	46	3784
2026-01-02 03:13:32.91	143.41	15.33	-42.0	-42.6	18.7	0.00e+00	0	58	0	858783744	46	3900
2026-01-02 03:13:34.89	143.68	15.16	-42.1	-42.7	18.6	0.00e+00	0	58	0	873463808	46	3936
2026-01-02 03:13:36.87	143.94	15.00	-42.2	-42.9	18.4	0.00e+00	0	58	0	887095296	46	4020
2026-01-02 03:13:38.84	144.20	14.83	-42.4	-43.0	18.3	0.00e+00	0	58	0	901775360	46	4090
2026-01-02 03:13:40.82	144.46	14.67	-42.5	-43.2	18.1	0.00e+00	0	58	0	916455424	46	4156
2026-01-02 03:13:42.80	144.72	14.50	-42.6	-43.2	18.1	0.00e+00	0	58	0	930086912	47	3958
2026-01-02 03:13:44.77	144.97	14.34	-42.2	-42.9	18.4	0.00e+00	0	58	0	944766976	47	3798
2026-01-02 03:13:46.75	145.22	14.18	-42.2	-42.8	18.4	0.00e+00	0	58	0	959447040	47	3779
2026-01-02 03:13:48.74	145.47	14.02	-42.2	-42.8	18.5	0.00e+00	0	58	0	973078528	47	3775
2026-01-02 03:13:50.72	145.72	13.85	-42.1	-42.8	18.5	0.00e+00	0	58	0	987758592	47	3751
2026-01-02 03:13:52.69	145.96	13.69	-42.3	-43.0	18.2	0.00e+00	0	58	0	1001390080	47	3829
2026-01-02 03:13:54.66	146.20	13.53	-42.4	-43.1	18.2	0.00e+00	0	58	0	1016070144	47	3874
2026-01-02 03:13:56.64	146.44	13.37	-42.6	-43.3	17.9	0.00e+00	0	58	0	1030750208	47	4003
2026-01-02 03:13:58.63	146.67	13.21	-42.8	-43.5	17.8	0.00e+00	0	58	0	1044381696	47	4064
2026-01-02 03:14:00.61	146.91	13.06	-43.0	-43.7	17.5	0.00e+00	0	58	0	1059061760	47	4168
2026-01-02 03:14:02.58	147.14	12.90	-42.9	-43.7	17.6	0.00e+00	0	58	0	1073741824	47	4154
2026-01-02 03:14:04.57	147.37	12.74	-43.0	-43.8	17.5	0.00e+00	0	58	0	1087373312	47	4213
2026-01-02 03:14:06.53	147.59	12.59	-43.0	-43.7	17.6	0.00e+00	0	58	0	1102053376	47	4165
2026-01-02 03:14:08.51	147.82	12.43	-43.0	-43.8	17.5	0.00e+00	0	58	0	1115684864	47	4219
2026-01-02 03:14:10.50	148.04	12.27	-42.7	-43.4	17.8	0.00e+00	0	58	0	1130364928	47	4038
2026-01-02 03:14:12.47	148.26	12.12	-42.7	-43.4	17.8	0.00e+00	0	58	0	1143996416	47	4045
2026-01-02 03:14:14.44	148.47	11.97	-42.9	-43.7	17.6	0.00e+00	0	58	0	1158676480	47	4155
2026-01-02 03:14:16.42	148.69	11.81	-42.8	-43.6	17.6	0.00e+00	0	58	0	1173356544	47	4106
2026-01-02 03:14:18.39	148.90	11.66	-42.8	-43.5	17.7	0.00e+00	0	58	0	1186988032	47	4090
2026-01-02 03:14:20.36	149.11	11.51	-43.1	-43.8	17.4	0.00e+00	0	58	0	1201668096	47	4230
2026-01-02 03:14:22.35	149.32	11.35	-43.4	-44.1	17.3	0.00e+00	0	58	0	1216348160	48	4136
2026-01-02 03:14:24.32	149.53	11.20	-43.4	-44.1	17.2	0.00e+00	0	58	0	1229979648	48	4141
2026-01-02 03:14:26.30	149.73	11.05	-43.6	-44.4	17.0	0.00e+00	0	58	0	1244659712	48	4264
2026-01-02 03:14:28.28	149.94	10.90	-43.6	-44.4	17.0	0.00e+00	0	58	0	1259339776	49	4012
2026-01-02 03:14:30.25	150.14	10.75	-43.4	-44.2	17.2	0.00e+00	0	58	0	1272971264	49	3923
2026-01-02 03:14:32.22	150.33	10.61	-43.6	-44.4	16.9	0.00e+00	0	57	0	1286602752	49	4046
2026-01-02 03:14:34.20	150.53	10.46	-43.7	-44.5	16.8	0.00e+00	0	58	0	1301282816	49	4098
2026-01-02 03:14:36.18	150.73	10.31	-43.7	-44.5	16.8	0.00e+00	0	58	0	1315962880	49	4083
2026-01-02 03:14:38.15	150.92	10.16	-43.7	-44.6	16.8	0.00e+00	0	58	0	1329594368	49	4110
2026-01-02 03:14:40.13	151.11	10.02	-43.7	-44.5	16.8	0.00e+00	0	58	0	1344274432	49	4098
2026-01-02 03:14:42.11	151.30	9.87	-43.5	-44.3	17.0	0.00e+00	0	58	0	1358954496	49	3999
2026-01-02 03:14:44.08	151.49	9.73	-43.5	-44.3	17.0	0.00e+00	0	58	0	1372585984	49	4001
2026-01-02 03:14:46.05	151.67	9.58	-43.6	-44.4	16.9	0.00e+00	0	58	0	1387266048	49	4022
2026-01-02 03:14:48.03	151.86	9.44	-43.8	-44.7	16.6	0.00e+00	0	58	0	1401946112	49	4158
2026-01-02 03:14:50.01	152.04	9.30	-43.9	-44.8	16.5	0.00e+00	0	58	0	1415577600	49	4202
2026-01-02 03:14:51.99	152.22	9.15	-43.7	-44.6	16.7	0.00e+00	0	58	0	1430257664	49	4109
2026-01-02 03:14:53.98	152.40	9.01	-43.8	-44.6	16.7	0.00e+00	0	58	0	1443889152	49	4112
2026-01-02 03:14:55.96	152.58	8.87	-43.8	-44.7	16.6	0.00e+00	0	58	0	1458569216	49	4155
2026-01-02 03:14:57.94	152.75	8.73	-43.8	-44.6	16.6	0.00e+00	0	58	0	1473249280	49	4140
2026-01-02 03:14:59.91	152.93	8.59	-43.8	-44.7	16.5	0.00e+00	0	58	0	1486880768	49	4177
2026-01-02 03:15:01.89	153.10	8.45	-44.2	-45.1	16.1	0.00e+00	0	58	0	1501560832	49	4368
2026-01-02 03:15:03.86	153.27	8.31	-43.9	-44.8	16.4	0.00e+00	0	58	0	1515192320	50	3982
2026-01-02 03:15:05.84	153.44	8.17	-43.9	-44.7	16.4	0.00e+00	0	58	0	1529872384	50	3951
2026-01-02 03:15:07.82	153.61	8.03	-44.1	-45.0	16.2	0.00e+00	0	58	0	1543503872	50	4077
2026-01-02 03:15:09.80	153.77	7.89	-44.0	-44.9	16.3	0.00e+00	0	58	0	1558183936	50	4011
2026-01-02 03:15:11.78	153.94	7.76	-44.0	-44.9	16.2	0.00e+00	0	58	0	1572864000	50	4035
2026-01-02 03:15:13.76	154.10	7.62	-44.3	-45.3	15.8	1.10e-06	0	58	0	1586495488	50	4213
2026-01-02 03:15:15.74	154.26	7.48	-44.3	-45.2	15.8	0.00e+00	0	58	0	1601175552	50	4192
2026-01-02 03:15:17.73	154.43	7.35	-44.4	-45.4	15.7	0.00e+00	0	58	0	1615855616	50	4262
2026-01-02 03:15:19.71	154.59	7.21	-44.7	-45.7	15.3	0.00e+00	0	58	0	1629487104	51	4185
2026-01-02 03:15:21.69	154.74	7.08	-44.4	-45.4	15.6	0.00e+00	0	58	0	1644167168	51	4020
2026-01-02 03:15:23.66	154.90	6.94	-44.3	-45.3	15.8	0.00e+00	0	58	0	1658847232	51	3970
2026-01-02 03:15:25.64	155.05	6.81	-44.3	-45.3	15.8	0.00e+00	0	58	0	1672478720	51	3973
2026-01-02 03:15:27.61	155.21	6.68	-44.2	-45.2	15.8	0.00e+00	0	58	0	1687158784	51	3935
2026-01-02 03:15:29.59	155.36	6.54	-44.4	-45.4	15.6	0.00e+00	0	58	0	1701838848	51	4006
2026-01-02 03:15:31.56	155.51	6.41	-44.2	-45.2	15.7	0.00e+00	0	58	0	1715470336	51	3931
2026-01-02 03:15:33.55	155.66	6.28	-44.3	-45.3	15.7	0.00e+00	0	58	0	1730150400	51	3959
2026-01-02 03:15:35.52	155.81	6.15	-44.5	-45.5	15.4	0.00e+00	0	58	0	1743781888	51	4077
2026-01-02 03:15:37.49	155.96	6.02	-44.6	-45.6	15.2	0.00e+00	0	58	0	1758461952	51	4132
2026-01-02 03:15:39.48	156.10	5.89	-44.7	-45.7	15.1	0.00e+00	0	58	0	1773142016	51	4193
2026-01-02 03:15:41.47	156.25	5.76	-44.5	-45.5	15.2	0.00e+00	0	58	0	1786773504	51	4098
2026-01-02 03:15:43.44	156.39	5.63	-44.5	-45.6	15.2	0.00e+00	0	58	0	1801453568	51	4105
2026-01-02 03:15:45.41	156.53	5.50	-44.6	-45.6	15.0	0.00e+00	0	58	0	1815085056	51	4139
2026-01-02 03:15:47.39	156.68	5.38	-44.7	-45.9	14.7	0.00e+00	0	58	0	1829765120	51	4267
2026-01-02 03:15:49.36	156.82	5.25	-44.9	-46.1	14.4	1.10e-06	0	58	0	1844445184	51	4345
2026-01-02 03:15:51.34	156.95	5.12	-44.9	-46.2	14.2	2.20e-06	0	58	0	1858076672	51	4393
2026-01-02 03:15:53.30	157.09	5.00	-51.3	-60.7	3.8	4.41e-01	0	58	104	1870659584	64	11066
2026-01-02 03:15:55.28	157.23	4.87	-52.1	-62.4	3.8	8.47e-01	0	58	104	1870659584	65	12667
2026-01-02 03:15:57.25	157.36	4.75	-52.3	-62.5	3.8	8.47e-01	0	58	104	1870659584	66	12194
2026-01-02 03:15:59.23	157.50	4.62	-52.4	-62.6	3.8	8.46e-01	0	58	104	1870659584	66	12343
2026-01-02 03:16:01.21	157.63	4.50	-52.5	-62.7	3.8	8.46e-01	0	58	104	1870659584	66	12438
2026-01-02 03:16:03.17	157.76	4.37	-52.6	-62.7	3.8	8.46e-01	0	58	104	1870659584	66	12509
2026-01-02 03:16:05.15	157.89	4.25	-52.4	-62.7	3.8	8.46e-01	0	58	104	1870659584	66	12517
2026-01-02 03:16:07.14	158.03	4.13	-52.4	-62.8	3.8	8.47e-01	0	58	104	1870659584	66	12610
2026-01-02 03:16:09.11	158.15	4.00	-52.7	-62.8	3.8	8.46e-01	0	58	104	1870659584	66	12639
2026-01-02 03:16:11.09	158.28	3.88	-52.7	-62.9	3.8	8.46e-01	0	58	104	1870659584	67	12021
2026-01-02 03:16:13.06	158.41	3.76	-52.6	-62.9	3.8	8.45e-01	0	58	104	1870659584	67	12016
2026-01-02 03:16:15.04	158.54	3.64	-52.7	-62.9	3.8	8.46e-01	0	58	104	1870659584	67	12042
2026-01-02 03:16:17.02	158.66	3.52	-52.7	-63.0	3.8	8.47e-01	0	58	104	1870659584	67	12101
2026-01-02 03:16:19.00	158.79	3.40	-52.7	-62.9	3.8	8.46e-01	0	58	104	1870659584	67	12059
2026-01-02 03:16:20.98	158.91	3.28	-52.7	-63.0	3.8	8.46e-01	0	58	104	1870659584	67	12116
2026-01-02 03:16:22.97	159.03	3.16	-52.7	-62.9	3.8	8.46e-01	0	58	104	1870659584	67	12034
2026-01-02 03:16:24.96	159.15	3.04	-52.6	-62.9	3.8	8.47e-01	0	58	104	1870659584	67	12013

#Closed at: 2026-01-02 03:16:26
#Recorded file [1870 MB]: D:/Data/31026_260102_061553.dat