passes_logs/2026/01/02/R3.0SM8_Murmansk_STILSPACE/R3.0SM8_Murmansk_STILSPACE__20260102_012304_FENGYUN_3E_rec.log

#Pass ID: 20260102_012304_FENGYUN 3E
#Satellite: FENGYUN 3E
#Configuration: FENGYUN 3E
#almurnet v.1.7.20240730
#Start time: 2026-01-02 01:29:47

#Version: 2.2.20231116
#Station: R3.0SM8_Murmansk_STILSPACE
#Location: 33.092731 lon 68.902999 lat
#TLE: 1 49008U 21062A   26001.26445318  .00000475  00000+0  24453-3 0  9990
#TLE: 2 49008  98.7480   6.5551 0001357 167.8415 192.2795 14.19884467232890

#Time	Az	El	Level	Level2	SNR	BER	BlckErr	Temp	State	Recorded	gain1	gain2
2026-01-02 01:29:47.30	85.70	9.34	-52.6	-63.5	3.8	8.46e-01	0	57	0	0	67	12994
2026-01-02 01:29:48.28	85.87	9.31	-52.8	-63.0	3.8	8.45e-01	0	58	104	0	68	11473
2026-01-02 01:29:49.27	86.03	9.28	-52.8	-63.0	3.8	8.45e-01	0	58	104	0	68	11507
2026-01-02 01:29:50.26	86.20	9.26	-52.8	-63.0	3.8	8.46e-01	0	58	104	0	68	11496
2026-01-02 01:29:51.25	86.36	9.23	-52.8	-63.0	3.8	8.46e-01	0	58	104	0	68	11494
2026-01-02 01:29:52.25	86.53	9.20	-52.8	-63.0	3.8	8.47e-01	0	58	104	0	68	11490
2026-01-02 01:29:53.23	86.69	9.17	-52.7	-63.0	3.8	8.47e-01	0	58	104	0	68	11485
2026-01-02 01:29:54.22	86.85	9.15	-52.8	-63.0	3.8	8.46e-01	0	58	104	0	68	11469
2026-01-02 01:29:55.21	87.01	9.12	-52.6	-63.0	3.8	8.47e-01	0	58	104	0	68	11434
2026-01-02 01:29:56.20	87.17	9.09	-52.7	-62.9	3.8	8.46e-01	0	58	104	0	68	11380
2026-01-02 01:29:57.18	87.33	9.06	-52.6	-62.9	3.8	8.46e-01	0	58	104	0	68	11388
2026-01-02 01:29:58.18	87.50	9.04	-52.6	-62.9	3.8	8.46e-01	0	58	104	0	68	11408
2026-01-02 01:29:59.17	87.66	9.01	-52.6	-62.9	3.8	8.46e-01	0	58	104	0	68	11396
2026-01-02 01:30:00.16	87.82	8.98	-52.7	-62.9	3.8	8.45e-01	0	58	104	0	68	11417
2026-01-02 01:30:01.14	87.98	8.95	-52.6	-62.9	3.8	8.46e-01	0	58	104	0	68	11406
2026-01-02 01:30:02.13	88.14	8.92	-52.6	-62.9	3.8	8.46e-01	0	58	104	0	68	11320
2026-01-02 01:30:03.12	88.30	8.89	-52.5	-62.8	3.8	8.45e-01	0	58	104	0	67	11863
2026-01-02 01:30:04.11	88.46	8.86	-52.5	-62.8	3.8	8.47e-01	0	58	104	0	67	11851
2026-01-02 01:30:05.09	88.62	8.83	-52.5	-62.7	3.8	8.46e-01	0	58	104	0	67	11784
2026-01-02 01:30:06.09	88.78	8.80	-52.4	-62.7	3.8	8.47e-01	0	58	104	0	67	11730
2026-01-02 01:30:07.08	88.94	8.77	-52.4	-62.7	3.8	8.46e-01	0	58	104	0	67	11721
2026-01-02 01:30:08.07	89.10	8.74	-52.2	-62.6	3.8	8.47e-01	0	58	104	0	67	11635
2026-01-02 01:30:09.06	89.25	8.71	-52.3	-62.5	3.8	8.48e-01	0	58	104	0	67	11523
2026-01-02 01:30:10.04	89.41	8.68	-52.4	-62.5	3.8	8.45e-01	0	58	104	0	67	11485
2026-01-02 01:30:11.03	89.57	8.65	-52.1	-62.4	3.8	8.46e-01	0	58	104	0	67	11317
2026-01-02 01:30:12.01	89.72	8.62	-52.1	-62.0	3.8	8.46e-01	0	58	104	0	66	11538
2026-01-02 01:30:13.00	89.88	8.59	-51.9	-62.1	3.8	8.45e-01	0	58	104	0	66	11558
2026-01-02 01:30:13.99	90.04	8.56	-52.0	-62.1	3.8	8.47e-01	0	58	104	0	66	11591
2026-01-02 01:30:14.98	90.19	8.53	-52.0	-62.0	3.8	8.46e-01	0	58	104	0	66	11540
2026-01-02 01:30:15.97	90.35	8.50	-52.0	-62.1	3.8	8.46e-01	0	58	104	0	66	11600
2026-01-02 01:30:16.95	90.50	8.47	-52.0	-62.0	3.8	8.45e-01	0	58	104	0	66	11490
2026-01-02 01:30:17.95	90.66	8.44	-51.9	-62.0	3.8	8.46e-01	0	58	104	0	66	11452
2026-01-02 01:30:18.94	90.82	8.41	-52.0	-61.9	3.8	8.46e-01	0	58	104	0	66	11316
2026-01-02 01:30:19.93	90.97	8.38	-52.0	-61.7	3.8	8.46e-01	0	58	104	0	66	11101
2026-01-02 01:30:20.92	91.13	8.34	-52.0	-61.6	3.8	8.46e-01	0	58	104	0	66	10999
2026-01-02 01:30:21.91	91.28	8.31	-51.9	-61.5	3.8	8.46e-01	0	58	104	0	66	10843
2026-01-02 01:30:22.91	91.44	8.28	-52.0	-61.5	3.8	8.46e-01	0	58	104	0	66	10878
2026-01-02 01:30:23.89	91.59	8.25	-51.9	-61.5	3.8	8.46e-01	0	58	104	0	66	10857
2026-01-02 01:30:24.88	91.74	8.21	-51.9	-61.6	3.8	8.46e-01	0	58	104	0	66	10940
2026-01-02 01:30:25.87	91.89	8.18	-51.9	-61.6	3.8	8.46e-01	0	58	104	0	66	10983
2026-01-02 01:30:26.85	92.04	8.15	-51.9	-61.5	3.8	8.47e-01	0	58	104	0	66	10885
2026-01-02 01:30:27.84	92.20	8.12	-51.8	-61.5	3.8	8.46e-01	0	58	104	0	66	10870
2026-01-02 01:30:28.83	92.35	8.08	-51.9	-61.6	3.8	8.47e-01	0	58	104	0	66	10912
2026-01-02 01:30:29.81	92.50	8.05	-51.9	-61.7	3.8	8.46e-01	0	58	104	0	66	11072
2026-01-02 01:30:30.80	92.65	8.02	-52.0	-61.8	3.8	8.46e-01	0	58	104	0	66	11228
2026-01-02 01:30:31.79	92.80	7.99	-52.0	-61.9	3.8	8.46e-01	0	58	104	0	66	11325
2026-01-02 01:30:32.78	92.95	7.95	-52.0	-61.8	3.8	8.47e-01	0	58	104	0	66	11227
2026-01-02 01:30:33.76	93.10	7.92	-51.9	-61.3	3.8	8.46e-01	0	58	104	0	66	10634
2026-01-02 01:30:34.75	93.25	7.89	-51.7	-60.4	3.8	8.45e-01	0	58	104	0	66	9597
2026-01-02 01:30:35.74	93.40	7.85	-51.5	-59.1	4.1	8.43e-01	0	58	104	0	65	8708
2026-01-02 01:30:36.73	93.55	7.82	-51.1	-57.4	4.6	8.24e-01	0	58	0	0	65	7192
2026-01-02 01:30:37.73	93.70	7.78	-50.7	-55.8	5.5	7.45e-01	0	58	0	0	64	6300
2026-01-02 01:30:38.72	93.85	7.75	-50.1	-54.4	6.7	2.28e-01	0	58	0	6291456	63	5701
2026-01-02 01:30:39.70	93.99	7.72	-49.6	-53.2	7.7	1.00e-01	0	58	0	12582912	62	5273
2026-01-02 01:30:40.69	94.14	7.68	-49.2	-52.5	8.5	4.98e-02	0	58	0	19922944	61	5133
2026-01-02 01:30:41.69	94.29	7.65	-49.0	-52.2	8.8	3.16e-02	0	58	0	27262976	60	5254
2026-01-02 01:30:42.68	94.44	7.61	-49.2	-52.4	8.6	3.38e-02	0	58	0	34603008	60	5373
2026-01-02 01:30:43.67	94.59	7.58	-49.2	-52.4	8.6	3.85e-02	0	58	0	41943040	60	5371
2026-01-02 01:30:44.66	94.73	7.54	-49.1	-52.4	8.6	3.57e-02	0	58	0	49283072	60	5371
2026-01-02 01:30:45.65	94.88	7.51	-49.1	-52.3	8.6	3.27e-02	0	58	0	55574528	60	5327
2026-01-02 01:30:46.64	95.02	7.47	-49.2	-52.4	8.5	3.71e-02	0	58	0	62914560	60	5399
2026-01-02 01:30:47.63	95.17	7.44	-48.8	-51.8	9.1	2.50e-02	0	58	0	70254592	60	5036
2026-01-02 01:30:48.63	95.32	7.40	-48.3	-50.9	10.2	8.60e-03	0	58	0	77594624	59	4785
2026-01-02 01:30:49.61	95.46	7.37	-47.6	-49.9	11.2	1.71e-03	0	58	0	84934656	58	4523
2026-01-02 01:30:50.60	95.60	7.33	-46.9	-49.0	12.1	3.54e-04	0	58	0	92274688	56	4566
2026-01-02 01:30:51.60	95.75	7.30	-46.3	-48.1	12.9	6.86e-05	0	58	0	98566144	55	4371
2026-01-02 01:30:52.58	95.89	7.26	-45.7	-47.4	13.6	4.50e-06	0	58	0	105906176	54	4274
2026-01-02 01:30:53.58	96.04	7.23	-45.2	-46.8	14.2	4.50e-06	0	58	0	113246208	53	4229
2026-01-02 01:30:54.57	96.18	7.19	-44.8	-46.3	14.7	0.00e+00	0	58	0	120586240	52	4212
2026-01-02 01:30:55.56	96.32	7.15	-44.5	-46.0	15.0	0.00e+00	0	59	0	127926272	52	4061
2026-01-02 01:30:56.55	96.47	7.12	-44.2	-45.7	15.4	0.00e+00	0	58	0	134217728	51	4148
2026-01-02 01:30:57.54	96.61	7.08	-44.0	-45.4	15.6	0.00e+00	0	58	0	141557760	51	4029
2026-01-02 01:30:58.52	96.75	7.05	-43.9	-45.2	15.8	0.00e+00	0	58	0	148897792	50	4174
2026-01-02 01:30:59.51	96.89	7.01	-43.9	-45.3	15.7	0.00e+00	0	58	0	156237824	50	4212
2026-01-02 01:31:00.50	97.03	6.97	-44.0	-45.4	15.6	0.00e+00	0	58	0	162529280	50	4272
2026-01-02 01:31:01.48	97.17	6.94	-44.1	-45.5	15.5	0.00e+00	0	58	0	169869312	50	4302
2026-01-02 01:31:02.47	97.31	6.90	-44.2	-45.6	15.4	0.00e+00	0	58	0	177209344	50	4388
2026-01-02 01:31:03.46	97.45	6.86	-44.2	-45.7	15.3	0.00e+00	0	58	0	184549376	50	4407
2026-01-02 01:31:04.44	97.59	6.83	-44.2	-45.6	15.2	0.00e+00	0	58	0	190840832	50	4382
2026-01-02 01:31:05.44	97.73	6.79	-44.2	-45.6	15.4	0.00e+00	0	58	0	198180864	50	4355
2026-01-02 01:31:06.43	97.87	6.75	-44.3	-45.8	15.3	0.00e+00	0	58	0	205520896	50	4443
2026-01-02 01:31:07.42	98.01	6.72	-44.4	-45.8	15.2	0.00e+00	0	58	0	212860928	50	4482
2026-01-02 01:31:08.42	98.15	6.68	-44.3	-45.8	15.2	0.00e+00	0	58	0	220200960	50	4476
2026-01-02 01:31:09.41	98.29	6.64	-44.5	-45.9	15.1	0.00e+00	0	58	0	227540992	50	4537
2026-01-02 01:31:10.40	98.42	6.61	-44.5	-46.0	15.0	0.00e+00	0	58	0	234881024	50	4556
2026-01-02 01:31:11.39	98.56	6.57	-44.5	-45.9	15.0	0.00e+00	0	58	0	241172480	50	4536
2026-01-02 01:31:12.39	98.70	6.53	-44.6	-46.1	14.9	0.00e+00	0	58	0	248512512	50	4609
2026-01-02 01:31:13.37	98.84	6.49	-44.7	-46.2	14.8	0.00e+00	0	58	0	255852544	50	4653
2026-01-02 01:31:14.37	98.97	6.46	-44.6	-46.1	14.9	0.00e+00	0	58	0	263192576	51	4352
2026-01-02 01:31:15.37	99.11	6.42	-44.5	-45.9	15.0	0.00e+00	0	58	0	270532608	51	4290
2026-01-02 01:31:16.36	99.25	6.38	-44.3	-45.7	15.2	0.00e+00	0	59	0	277872640	51	4190
2026-01-02 01:31:17.34	99.38	6.34	-44.4	-45.8	15.2	0.00e+00	0	58	0	284164096	51	4219
2026-01-02 01:31:18.33	99.52	6.30	-44.5	-45.9	15.1	0.00e+00	0	58	0	291504128	51	4264
2026-01-02 01:31:19.32	99.65	6.27	-44.5	-45.9	15.0	0.00e+00	0	58	0	298844160	51	4286
2026-01-02 01:31:20.31	99.79	6.23	-44.3	-45.7	15.2	0.00e+00	0	58	0	306184192	51	4192
2026-01-02 01:31:21.29	99.92	6.19	-44.1	-45.5	15.4	0.00e+00	0	58	0	312475648	51	4079
2026-01-02 01:31:22.28	100.05	6.15	-43.9	-45.3	15.6	0.00e+00	0	58	0	319815680	50	4206
2026-01-02 01:31:23.27	100.19	6.11	-43.9	-45.3	15.6	0.00e+00	0	58	0	327155712	50	4214
2026-01-02 01:31:24.26	100.32	6.08	-44.0	-45.4	15.5	0.00e+00	0	58	0	334495744	50	4275
2026-01-02 01:31:25.24	100.45	6.04	-44.1	-45.4	15.5	0.00e+00	0	59	0	341835776	50	4277
2026-01-02 01:31:26.23	100.58	6.00	-44.3	-45.7	15.2	0.00e+00	0	58	0	349175808	50	4429
2026-01-02 01:31:27.22	100.71	5.96	-44.5	-46.0	14.9	0.00e+00	0	58	0	355467264	50	4572
2026-01-02 01:31:28.21	100.85	5.92	-44.4	-45.8	15.1	0.00e+00	0	58	0	362807296	50	4477
2026-01-02 01:31:29.21	100.98	5.88	-44.3	-45.7	15.1	1.10e-06	0	58	0	370147328	50	4438
2026-01-02 01:31:30.18	101.11	5.84	-44.4	-45.8	15.1	0.00e+00	0	59	0	377487360	50	4483
2026-01-02 01:31:31.17	101.24	5.81	-44.4	-45.9	15.0	0.00e+00	0	58	0	384827392	50	4506
2026-01-02 01:31:32.16	101.37	5.77	-44.5	-46.0	14.9	0.00e+00	0	58	0	392167424	50	4583
2026-01-02 01:31:33.15	101.50	5.73	-44.6	-46.1	14.8	0.00e+00	0	59	0	398458880	50	4621
2026-01-02 01:31:34.13	101.63	5.69	-44.7	-46.2	14.7	3.40e-06	0	58	0	405798912	50	4685
2026-01-02 01:31:35.12	101.76	5.65	-44.8	-46.3	14.5	0.00e+00	0	58	0	413138944	51	4477
2026-01-02 01:31:36.12	101.89	5.61	-44.6	-46.1	14.7	0.00e+00	0	58	0	420478976	51	4386
2026-01-02 01:31:37.11	102.02	5.57	-44.8	-46.3	14.6	0.00e+00	0	58	0	427819008	51	4470
2026-01-02 01:31:38.10	102.14	5.53	-44.8	-46.4	14.5	1.10e-06	0	59	0	434110464	51	4496
2026-01-02 01:31:39.09	102.27	5.49	-44.6	-46.1	14.7	0.00e+00	0	58	0	441450496	51	4369
2026-01-02 01:31:40.07	102.40	5.45	-44.6	-46.1	14.8	0.00e+00	0	59	0	448790528	51	4358
2026-01-02 01:31:41.06	102.53	5.41	-44.6	-46.0	14.8	0.00e+00	0	59	0	456130560	51	4340
2026-01-02 01:31:42.06	102.65	5.37	-44.4	-45.8	15.0	0.00e+00	0	58	0	463470592	51	4238
2026-01-02 01:31:43.05	102.78	5.34	-44.4	-45.8	15.0	0.00e+00	0	59	0	469762048	51	4235
2026-01-02 01:31:44.04	102.91	5.30	-44.4	-45.8	15.0	0.00e+00	0	58	0	477102080	51	4222
2026-01-02 01:31:45.03	103.03	5.26	-44.2	-45.6	15.2	0.00e+00	0	59	0	484442112	51	4112
2026-01-02 01:31:46.02	103.16	5.22	-44.5	-45.9	15.0	0.00e+00	0	58	0	491782144	51	4253
2026-01-02 01:31:47.00	103.28	5.18	-44.3	-45.6	15.2	0.00e+00	0	59	0	499122176	51	4125
2026-01-02 01:31:47.99	103.41	5.14	-44.1	-45.5	15.3	0.00e+00	0	59	0	505413632	51	4059
2026-01-02 01:31:48.98	103.53	5.10	-44.2	-45.5	15.3	0.00e+00	0	59	0	512753664	51	4095
2026-01-02 01:31:49.97	103.66	5.06	-44.4	-45.8	15.0	0.00e+00	0	58	0	520093696	51	4236
2026-01-02 01:31:50.95	103.78	5.02	-47.3	-49.5	11.4	0.00e+00	0	58	0	527433728	55	5134
2026-01-02 01:31:51.95	103.91	4.98	-51.9	-62.0	3.8	8.46e-01	0	59	104	528482304	65	12201
2026-01-02 01:31:52.94	104.03	4.94	-52.0	-62.2	3.8	8.45e-01	0	58	104	528482304	65	12492
2026-01-02 01:31:53.91	104.15	4.90	-52.2	-62.4	3.8	8.46e-01	0	59	104	528482304	66	12037
2026-01-02 01:31:54.91	104.27	4.86	-52.3	-62.5	3.8	8.46e-01	0	58	104	528482304	66	12164
2026-01-02 01:31:55.89	104.40	4.82	-52.3	-62.5	3.8	8.46e-01	0	58	104	528482304	66	12232
2026-01-02 01:31:56.88	104.52	4.78	-52.4	-62.6	3.8	8.46e-01	0	58	104	528482304	66	12352
2026-01-02 01:31:57.87	104.64	4.74	-52.4	-62.7	3.8	8.45e-01	0	58	104	528482304	66	12442
2026-01-02 01:31:58.86	104.76	4.70	-52.4	-62.7	3.8	8.46e-01	0	58	104	528482304	66	12413
2026-01-02 01:31:59.85	104.88	4.66	-52.1	-62.3	3.8	8.48e-01	0	59	104	528482304	65	12651
2026-01-02 01:32:00.84	105.00	4.62	-52.5	-62.7	3.8	8.46e-01	0	58	104	528482304	66	12484
2026-01-02 01:32:01.82	105.12	4.58	-52.5	-62.8	3.8	8.45e-01	0	59	104	528482304	66	12566
2026-01-02 01:32:02.82	105.24	4.53	-52.6	-62.8	3.8	8.46e-01	0	58	104	528482304	66	12590
2026-01-02 01:32:03.81	105.36	4.49	-52.5	-62.8	3.8	8.47e-01	0	58	104	528482304	66	12647
2026-01-02 01:32:04.80	105.48	4.45	-52.6	-62.8	3.8	8.46e-01	0	58	104	528482304	66	12608
2026-01-02 01:32:05.80	105.60	4.41	-52.6	-62.8	3.8	8.45e-01	0	59	104	528482304	66	12616
2026-01-02 01:32:06.79	105.72	4.37	-52.6	-62.8	3.8	8.45e-01	0	59	104	528482304	67	11948
2026-01-02 01:32:07.78	105.84	4.33	-52.6	-62.9	3.8	8.45e-01	0	59	104	528482304	67	12024
2026-01-02 01:32:08.77	105.96	4.29	-52.6	-62.8	3.8	8.46e-01	0	59	104	528482304	67	11947
2026-01-02 01:32:09.76	106.08	4.25	-52.7	-62.9	3.8	8.46e-01	0	59	104	528482304	67	12033
2026-01-02 01:32:10.75	106.20	4.21	-52.7	-62.9	3.8	8.45e-01	0	59	104	528482304	67	12034
2026-01-02 01:32:11.74	106.31	4.17	-52.6	-62.9	3.8	8.46e-01	0	59	104	528482304	67	12050
2026-01-02 01:32:12.72	106.43	4.13	-52.8	-62.9	3.8	8.45e-01	0	59	104	528482304	67	12054
2026-01-02 01:32:13.72	106.55	4.09	-52.6	-62.9	3.8	8.47e-01	0	59	104	528482304	67	12074
2026-01-02 01:32:14.71	106.66	4.05	-52.6	-63.0	3.8	8.47e-01	0	58	104	528482304	67	12105
2026-01-02 01:32:15.69	106.78	4.00	-52.6	-62.9	3.8	8.47e-01	0	59	104	528482304	67	12090
2026-01-02 01:32:16.67	106.89	3.96	-52.7	-63.0	3.8	8.45e-01	0	59	104	528482304	67	12101
2026-01-02 01:32:17.66	107.01	3.92	-52.6	-62.9	3.8	8.46e-01	0	59	104	528482304	67	12062
2026-01-02 01:32:18.64	107.12	3.88	-52.6	-62.9	3.8	8.45e-01	0	59	104	528482304	67	12064
2026-01-02 01:32:19.63	107.24	3.84	-52.7	-63.0	3.8	8.46e-01	0	59	104	528482304	67	12131
2026-01-02 01:32:20.62	107.35	3.80	-52.6	-62.9	3.8	8.46e-01	0	59	104	528482304	67	12081
2026-01-02 01:32:21.61	107.47	3.76	-52.7	-62.9	3.8	8.46e-01	0	59	104	528482304	67	12035
2026-01-02 01:32:22.59	107.58	3.72	-52.7	-62.9	3.8	8.46e-01	0	58	104	528482304	67	12074
2026-01-02 01:32:23.58	107.69	3.68	-52.8	-62.9	3.8	8.46e-01	0	59	104	528482304	67	12056
2026-01-02 01:32:24.58	107.81	3.63	-52.7	-62.9	3.8	8.46e-01	0	59	104	528482304	67	12011
2026-01-02 01:32:25.56	107.92	3.59	-52.8	-62.9	3.8	8.46e-01	0	59	104	528482304	67	12014
2026-01-02 01:32:26.55	108.03	3.55	-52.7	-62.9	3.8	8.47e-01	0	59	104	528482304	67	12086
2026-01-02 01:32:27.54	108.15	3.51	-52.6	-62.9	3.8	8.46e-01	0	59	104	528482304	67	12024
2026-01-02 01:32:28.52	108.26	3.47	-52.6	-62.9	3.8	8.46e-01	0	59	104	528482304	67	12055
2026-01-02 01:32:29.50	108.37	3.43	-52.7	-62.9	3.8	8.46e-01	0	59	104	528482304	67	12013
2026-01-02 01:32:30.48	108.48	3.39	-52.7	-62.9	3.8	8.45e-01	0	59	104	528482304	67	12062
2026-01-02 01:32:31.47	108.59	3.35	-52.7	-62.9	3.8	8.47e-01	0	59	104	528482304	67	12035
2026-01-02 01:32:32.46	108.70	3.31	-52.7	-62.9	3.8	8.46e-01	0	59	104	528482304	67	12002
2026-01-02 01:32:33.45	108.81	3.26	-52.7	-63.0	3.8	8.46e-01	0	59	104	528482304	67	12098
2026-01-02 01:32:34.44	108.92	3.22	-52.7	-62.9	3.8	8.46e-01	0	59	104	528482304	67	12036
2026-01-02 01:32:35.42	109.03	3.18	-52.7	-63.0	3.8	8.45e-01	0	58	104	528482304	67	12103
2026-01-02 01:32:36.41	109.14	3.14	-52.7	-62.9	3.8	8.45e-01	0	59	104	528482304	67	12026
2026-01-02 01:32:37.40	109.25	3.10	-52.8	-62.9	3.8	8.46e-01	0	59	104	528482304	67	12069
2026-01-02 01:32:38.39	109.36	3.06	-52.7	-62.9	3.8	8.45e-01	0	59	104	528482304	67	12007
2026-01-02 01:32:39.37	109.47	3.02	-52.6	-62.9	3.8	8.45e-01	0	59	104	528482304	67	12061

#Closed at: 2026-01-02 01:32:40
#Recorded file [528 MB]: D:/Data/31026_260102_043151.dat