passes_logs/2026/01/02/R3.0SM8_Murmansk_STILSPACE/R3.0SM8_Murmansk_STILSPACE__20260102_115318_AQUA_rec.log

#Pass ID: 20260102_115318_AQUA
#Satellite: AQUA
#Configuration: AQUA
#almurnet v.1.7.20240730
#Start time: 2026-01-02 11:53:18

#Version: 2.2.20231116
#Station: R3.0SM8_Murmansk_STILSPACE
#Location: 33.092731 lon 68.902999 lat
#TLE: 1 27424U 02022A   25365.92641127  .00002078  00000+0  42628-3 0  9999
#TLE: 2 27424  98.4058 327.1196 0001962  94.7781 340.6230 14.61783896258835

#Time	Az	El	Level	Level2	SNR	BER	BlckErr	Temp	State	Recorded	gain1	gain2
2026-01-02 11:53:18.21	168.72	3.01	-54.3	-74.3	3.8	7.44e-01	0	45	0	0	71	36541
2026-01-02 11:53:21.16	168.79	3.22	-54.1	-74.0	3.8	7.44e-01	0	46	104	0	70	37608
2026-01-02 11:53:24.14	168.87	3.42	-53.7	-73.6	3.8	7.46e-01	0	46	104	0	70	35734
2026-01-02 11:53:27.10	168.94	3.63	-53.1	-72.9	3.8	7.43e-01	0	46	104	0	69	34989
2026-01-02 11:53:30.06	169.02	3.84	-53.1	-72.3	3.8	7.45e-01	0	46	104	0	69	32711
2026-01-02 11:53:33.02	169.10	4.05	-53.0	-71.4	3.8	7.48e-01	0	47	104	0	69	29467
2026-01-02 11:53:36.00	169.18	4.26	-53.0	-70.2	4.0	7.39e-01	0	47	104	0	69	25649
2026-01-02 11:53:38.96	169.26	4.47	-52.9	-67.5	4.9	7.10e-01	0	47	0	0	69	18830
2026-01-02 11:53:41.93	169.34	4.69	-52.6	-62.4	9.1	6.34e-01	0	47	0	3670016	68	11088
2026-01-02 11:53:44.90	169.42	4.91	-51.7	-58.0	13.7	6.08e-01	0	48	0	9437184	67	7074
2026-01-02 11:53:47.87	169.50	5.13	-50.6	-54.8	17.0	6.06e-01	0	48	0	15204352	64	5835
2026-01-02 11:53:50.85	169.59	5.35	-50.7	-55.0	16.9	6.09e-01	0	48	0	20447232	64	5930
2026-01-02 11:53:53.83	169.68	5.58	-50.0	-53.4	18.5	6.06e-01	0	48	0	26214400	63	5263
2026-01-02 11:53:56.80	169.76	5.81	-49.1	-51.8	20.1	6.06e-01	0	48	0	31981568	61	4919
2026-01-02 11:53:59.77	169.85	6.03	-49.2	-52.0	20.1	6.07e-01	0	48	0	37224448	61	4990
2026-01-02 11:54:02.76	169.94	6.27	-49.3	-52.1	20.0	6.06e-01	0	49	0	42991616	61	5078
2026-01-02 11:54:05.73	170.04	6.50	-49.5	-52.4	19.8	6.03e-01	0	49	0	48758784	61	5248
2026-01-02 11:54:08.69	170.13	6.74	-49.6	-52.5	19.8	6.04e-01	0	49	0	54001664	61	5308
2026-01-02 11:54:11.65	170.22	6.97	-49.8	-52.9	19.4	6.07e-01	0	49	0	59768832	61	5531
2026-01-02 11:54:14.63	170.32	7.21	-49.6	-52.4	19.9	6.08e-01	0	49	0	65011712	62	4980
2026-01-02 11:54:17.58	170.42	7.46	-49.5	-52.2	20.1	6.07e-01	0	49	0	70778880	62	4852
2026-01-02 11:54:20.55	170.52	7.70	-49.4	-52.0	20.4	6.09e-01	0	50	0	76021760	62	4726
2026-01-02 11:54:23.52	170.62	7.95	-48.8	-51.1	21.2	6.08e-01	0	49	0	81788928	61	4542
2026-01-02 11:54:26.49	170.72	8.20	-48.8	-51.0	21.4	6.05e-01	0	50	0	87556096	61	4488
2026-01-02 11:54:29.45	170.82	8.45	-48.7	-50.9	21.5	6.06e-01	0	50	0	92798976	61	4438
2026-01-02 11:54:32.41	170.93	8.71	-48.9	-51.2	21.3	6.07e-01	0	50	0	98566144	60	4817
2026-01-02 11:54:35.38	171.04	8.97	-48.9	-51.2	21.3	6.08e-01	0	50	0	104333312	60	4820
2026-01-02 11:54:38.35	171.15	9.23	-49.1	-51.4	21.1	6.07e-01	0	50	0	109576192	60	4970
2026-01-02 11:54:41.33	171.26	9.50	-48.9	-51.2	21.3	6.07e-01	0	50	0	115343360	60	4850
2026-01-02 11:54:44.30	171.37	9.76	-49.0	-51.3	21.3	6.07e-01	0	51	0	120586240	60	4909
2026-01-02 11:54:47.27	171.49	10.04	-49.2	-51.6	21.0	6.08e-01	0	51	0	126353408	60	5065
2026-01-02 11:54:50.25	171.61	10.31	-48.9	-51.1	21.5	6.04e-01	0	51	0	132120576	60	4768
2026-01-02 11:54:53.21	171.73	10.59	-48.6	-50.7	21.9	6.06e-01	0	51	0	137363456	60	4552
2026-01-02 11:54:56.18	171.85	10.87	-48.6	-50.6	22.0	6.06e-01	0	51	0	143130624	60	4527
2026-01-02 11:54:59.16	171.98	11.16	-48.3	-50.2	22.4	6.05e-01	0	51	0	148897792	60	4316
2026-01-02 11:55:02.14	172.10	11.45	-48.5	-50.6	22.1	6.05e-01	0	51	0	154140672	60	4499
2026-01-02 11:55:05.11	172.23	11.74	-48.8	-50.9	21.8	6.06e-01	0	52	0	159907840	60	4662
2026-01-02 11:55:08.09	172.37	12.04	-48.7	-50.8	21.9	6.06e-01	0	51	0	165675008	60	4643
2026-01-02 11:55:11.07	172.50	12.34	-48.6	-50.7	22.1	6.05e-01	0	52	0	170917888	60	4553
2026-01-02 11:55:14.03	172.64	12.64	-48.2	-50.1	22.6	6.08e-01	0	52	0	176685056	60	4270
2026-01-02 11:55:17.00	172.78	12.95	-48.3	-50.2	22.6	6.07e-01	0	52	0	181927936	60	4316
2026-01-02 11:55:19.95	172.92	13.26	-48.5	-50.4	22.7	6.06e-01	0	52	0	187695104	59	4657
2026-01-02 11:55:22.91	173.07	13.58	-48.5	-50.4	22.7	6.09e-01	0	52	0	193462272	59	4683
2026-01-02 11:55:25.89	173.22	13.90	-48.4	-50.2	22.9	6.08e-01	0	52	0	198705152	59	4588
2026-01-02 11:55:28.86	173.37	14.23	-48.4	-50.2	22.9	6.04e-01	0	53	0	204472320	59	4579
2026-01-02 11:55:31.82	173.53	14.56	-48.5	-50.4	22.8	6.06e-01	0	52	0	209715200	59	4662
2026-01-02 11:55:34.78	173.69	14.89	-48.8	-50.8	21.0	6.04e-01	0	52	0	215482368	59	4898
2026-01-02 11:55:37.76	173.85	15.23	-48.5	-50.3	22.9	6.06e-01	0	52	0	221249536	59	4622
2026-01-02 11:55:40.73	174.02	15.58	-48.4	-50.3	22.9	6.05e-01	0	53	0	226492416	59	4615
2026-01-02 11:55:43.70	174.19	15.93	-48.3	-50.1	23.1	6.06e-01	0	53	0	232259584	59	4516
2026-01-02 11:55:46.69	174.37	16.29	-48.5	-50.3	22.9	6.05e-01	0	53	0	238026752	59	4636
2026-01-02 11:55:49.64	174.55	16.65	-48.6	-50.4	22.8	6.06e-01	0	53	0	243269632	59	4691
2026-01-02 11:55:52.62	174.73	17.02	-48.4	-50.2	23.0	6.07e-01	0	53	0	249036800	59	4582
2026-01-02 11:55:55.59	174.92	17.40	-48.4	-50.2	23.1	6.06e-01	0	53	0	254279680	59	4555
2026-01-02 11:55:58.57	175.11	17.78	-48.5	-50.3	23.0	6.04e-01	0	53	0	260046848	59	4616
2026-01-02 11:56:01.53	175.31	18.16	-48.5	-50.3	23.0	6.04e-01	0	53	0	265814016	59	4639
2026-01-02 11:56:04.50	175.51	18.56	-48.5	-50.3	23.0	6.08e-01	0	53	0	271056896	59	4628
2026-01-02 11:56:07.47	175.72	18.96	-48.3	-50.1	23.2	6.07e-01	0	53	0	276824064	59	4521
2026-01-02 11:56:10.43	175.94	19.36	-48.4	-50.2	23.1	6.09e-01	0	53	0	282066944	59	4575
2026-01-02 11:56:13.40	176.16	19.78	-48.6	-50.4	22.9	6.04e-01	0	53	0	287834112	59	4665
2026-01-02 11:56:16.38	176.38	20.20	-48.3	-50.0	23.3	6.06e-01	0	53	0	293601280	59	4469
2026-01-02 11:56:19.35	176.62	20.63	-48.5	-50.2	23.1	6.06e-01	0	53	0	298844160	59	4597
2026-01-02 11:56:22.33	176.86	21.07	-48.7	-50.5	22.8	6.06e-01	0	53	0	304611328	59	4736
2026-01-02 11:56:25.30	177.10	21.51	-48.7	-50.6	22.4	6.07e-01	0	53	0	310378496	60	4532
2026-01-02 11:56:28.26	177.36	21.96	-48.3	-50.1	22.9	6.06e-01	0	54	0	315621376	60	4274
2026-01-02 11:56:31.20	177.61	22.42	-48.7	-50.5	22.9	6.07e-01	0	54	0	321388544	59	4750
2026-01-02 11:56:34.16	177.88	22.89	-48.6	-50.4	23.0	6.06e-01	0	54	0	326631424	59	4689
2026-01-02 11:56:37.13	178.16	23.36	-48.7	-50.5	22.9	6.05e-01	0	54	0	332398592	59	4735
2026-01-02 11:56:40.10	178.45	23.85	-48.8	-50.7	22.8	6.07e-01	0	54	0	338165760	59	4830
2026-01-02 11:56:43.06	178.74	24.35	-48.7	-50.6	22.5	6.05e-01	0	54	0	343408640	60	4510
2026-01-02 11:56:46.03	179.04	24.85	-48.5	-50.3	22.8	6.05e-01	0	54	0	349175808	60	4374
2026-01-02 11:56:49.00	179.36	25.37	-48.5	-50.2	23.2	6.06e-01	0	54	0	354418688	59	4568
2026-01-02 11:56:51.96	179.68	25.90	-48.7	-50.5	23.0	6.06e-01	0	54	0	360185856	59	4728
2026-01-02 11:56:54.93	180.02	26.43	-48.4	-50.3	22.9	6.08e-01	0	54	0	365953024	60	4343
2026-01-02 11:56:57.91	180.37	26.98	-48.5	-50.3	23.2	6.07e-01	0	54	0	371195904	59	4621
2026-01-02 11:57:00.87	180.73	27.54	-48.3	-50.1	23.4	6.06e-01	0	54	0	376963072	59	4497
2026-01-02 11:57:03.84	181.10	28.11	-48.0	-49.6	23.9	6.07e-01	0	54	0	382205952	59	4243
2026-01-02 11:57:06.81	181.48	28.69	-48.3	-49.9	23.5	6.06e-01	0	54	0	387973120	59	4435
2026-01-02 11:57:09.78	181.89	29.29	-48.4	-50.1	23.4	6.06e-01	0	54	0	393740288	59	4523
2026-01-02 11:57:12.76	182.30	29.90	-48.2	-49.9	23.6	6.08e-01	0	54	0	398983168	59	4402
2026-01-02 11:57:15.72	182.73	30.51	-48.3	-50.0	23.5	6.07e-01	0	54	0	404750336	59	4443
2026-01-02 11:57:18.68	183.18	31.14	-48.2	-49.9	23.6	6.05e-01	0	54	0	410517504	59	4406
2026-01-02 11:57:21.65	183.65	31.79	-48.7	-50.5	23.1	6.06e-01	0	54	0	415760384	59	4718
2026-01-02 11:57:24.62	184.14	32.45	-48.7	-50.6	22.9	6.04e-01	0	54	0	421527552	59	4768
2026-01-02 11:57:27.60	184.65	33.12	-48.6	-50.4	22.8	6.07e-01	0	54	0	426770432	60	4418
2026-01-02 11:57:30.56	185.17	33.80	-49.0	-51.0	22.3	6.07e-01	0	55	0	432537600	60	4715
2026-01-02 11:57:33.53	185.72	34.50	-49.0	-51.0	22.3	6.05e-01	0	54	0	438304768	60	4727
2026-01-02 11:57:36.50	186.30	35.21	-49.3	-51.5	21.8	6.06e-01	0	55	0	443547648	60	5003
2026-01-02 11:57:39.46	186.90	35.94	-49.7	-52.0	21.3	6.07e-01	0	55	0	449314816	61	4997
2026-01-02 11:57:42.44	187.53	36.68	-49.7	-51.9	21.3	6.09e-01	0	55	0	455081984	62	4697
2026-01-02 11:57:45.41	188.19	37.44	-49.6	-51.9	21.4	6.04e-01	0	55	0	460324864	62	4677
2026-01-02 11:57:48.38	188.88	38.21	-49.6	-51.8	21.5	6.05e-01	0	55	0	466092032	62	4635
2026-01-02 11:57:51.35	189.61	38.99	-49.6	-51.8	21.5	6.07e-01	0	55	0	471334912	62	4638
2026-01-02 11:57:54.31	190.37	39.79	-49.4	-51.6	21.7	6.07e-01	0	55	0	477102080	62	4507
2026-01-02 11:57:57.29	191.17	40.60	-49.1	-51.2	22.0	6.06e-01	0	55	0	482869248	61	4562
2026-01-02 11:58:00.26	192.01	41.43	-48.7	-50.5	22.7	6.07e-01	0	55	0	488112128	60	4492
2026-01-02 11:58:03.24	192.90	42.27	-48.4	-50.1	23.1	6.07e-01	0	55	0	493879296	60	4274
2026-01-02 11:58:06.20	193.83	43.12	-48.4	-50.1	23.5	6.06e-01	0	55	0	499122176	59	4534
2026-01-02 11:58:09.17	194.81	43.98	-48.4	-50.0	23.5	6.07e-01	0	55	0	504889344	59	4493
2026-01-02 11:58:12.14	195.85	44.85	-48.2	-49.9	23.6	6.05e-01	0	55	0	510656512	59	4411
2026-01-02 11:58:15.11	196.95	45.74	-48.1	-49.7	23.9	6.04e-01	0	55	0	515899392	59	4303
2026-01-02 11:58:18.08	198.11	46.63	-48.2	-49.9	23.7	6.07e-01	0	55	0	521666560	59	4399
2026-01-02 11:58:21.05	199.34	47.53	-47.9	-49.5	24.0	6.07e-01	0	55	0	527433728	59	4222
2026-01-02 11:58:24.02	200.65	48.43	-48.0	-49.6	23.9	6.06e-01	0	55	0	532676608	59	4278
2026-01-02 11:58:26.98	202.03	49.34	-47.8	-49.4	24.2	6.07e-01	0	55	0	538443776	59	4151
2026-01-02 11:58:29.95	203.49	50.24	-48.0	-49.6	23.9	6.07e-01	0	55	0	543686656	59	4273
2026-01-02 11:58:32.92	205.05	51.15	-48.0	-49.6	24.0	6.06e-01	0	55	0	549453824	59	4246
2026-01-02 11:58:35.88	206.70	52.05	-48.0	-49.5	24.1	6.02e-01	0	55	0	555220992	59	4218
2026-01-02 11:58:38.85	208.46	52.94	-48.0	-49.6	24.0	6.02e-01	0	55	0	560463872	59	4272
2026-01-02 11:58:41.84	210.34	53.83	-48.4	-50.0	23.6	6.03e-01	0	55	0	566231040	59	4489
2026-01-02 11:58:44.81	212.32	54.69	-48.2	-49.8	23.8	6.03e-01	0	55	0	571998208	59	4372
2026-01-02 11:58:47.77	214.42	55.53	-48.6	-50.4	23.3	6.05e-01	0	55	0	577241088	59	4668
2026-01-02 11:58:50.74	216.65	56.35	-49.0	-51.0	22.3	6.04e-01	0	55	0	583008256	60	4725
2026-01-02 11:58:53.71	219.02	57.14	-49.6	-51.8	21.6	6.03e-01	0	55	0	588775424	61	4897
2026-01-02 11:58:56.68	221.53	57.88	-49.6	-51.9	21.5	6.05e-01	0	55	0	594018304	61	4927
2026-01-02 11:58:59.65	224.17	58.59	-50.1	-52.5	20.9	6.03e-01	0	55	0	599785472	62	5034
2026-01-02 11:59:02.62	226.95	59.24	-50.1	-52.5	20.9	6.03e-01	0	55	0	605028352	62	4994
2026-01-02 11:59:05.60	229.88	59.84	-50.3	-52.8	20.6	6.02e-01	0	55	0	610795520	62	5188
2026-01-02 11:59:08.57	232.92	60.37	-50.2	-52.7	20.7	6.04e-01	0	55	0	616562688	63	4863
2026-01-02 11:59:11.54	236.09	60.83	-50.3	-52.9	20.5	6.03e-01	0	56	0	621805568	63	4927
2026-01-02 11:59:14.51	239.37	61.22	-50.4	-53.1	20.4	6.04e-01	0	55	0	627572736	63	5042
2026-01-02 11:59:17.48	242.74	61.52	-50.1	-52.4	21.0	6.03e-01	0	56	0	632815616	63	4702
2026-01-02 11:59:20.45	246.18	61.74	-50.4	-53.0	20.5	6.03e-01	0	56	0	638582784	63	5006
2026-01-02 11:59:23.42	249.67	61.87	-50.4	-53.1	20.3	6.03e-01	0	56	0	644349952	63	5051
2026-01-02 11:59:26.39	253.18	61.92	-50.5	-53.1	20.3	6.01e-01	0	56	0	649592832	63	5094
2026-01-02 11:59:29.35	256.68	61.86	-50.6	-53.3	20.1	6.01e-01	0	56	0	655360000	63	5188
2026-01-02 11:59:32.31	260.16	61.72	-50.3	-52.9	20.5	6.04e-01	0	56	0	661127168	63	4944
2026-01-02 11:59:35.29	263.60	61.50	-50.2	-52.6	20.7	6.04e-01	0	56	0	666370048	63	4798
2026-01-02 11:59:38.25	266.95	61.18	-49.9	-52.2	21.2	6.01e-01	0	56	0	672137216	63	4591
2026-01-02 11:59:41.22	270.21	60.79	-49.9	-52.2	21.2	6.05e-01	0	56	0	677380096	63	4591
2026-01-02 11:59:44.20	273.38	60.32	-49.8	-52.2	21.2	6.03e-01	0	56	0	683147264	62	4822
2026-01-02 11:59:47.17	276.41	59.78	-50.3	-52.8	20.6	6.04e-01	0	56	0	688914432	62	5205
2026-01-02 11:59:50.16	279.33	59.17	-49.7	-52.0	21.3	6.03e-01	0	56	0	694157312	63	4472
2026-01-02 11:59:53.13	282.09	58.51	-49.3	-51.3	22.0	6.03e-01	0	56	0	699924480	62	4364
2026-01-02 11:59:56.09	284.70	57.81	-49.0	-51.0	22.3	6.01e-01	0	56	0	705167360	61	4481
2026-01-02 11:59:59.06	287.19	57.06	-48.6	-50.5	22.9	6.05e-01	0	56	0	710934528	60	4444
2026-01-02 12:00:02.03	289.54	56.27	-48.4	-50.1	23.1	6.02e-01	0	56	0	716701696	60	4276
2026-01-02 12:00:05.00	291.76	55.45	-48.6	-50.5	22.8	6.02e-01	0	56	0	721944576	60	4456
2026-01-02 12:00:07.96	293.84	54.61	-48.3	-50.0	23.3	6.03e-01	0	56	0	727711744	60	4212
2026-01-02 12:00:10.92	295.80	53.75	-48.9	-50.7	22.9	6.03e-01	0	56	0	733478912	59	4855
2026-01-02 12:00:13.89	297.66	52.87	-48.4	-50.1	23.5	6.04e-01	0	56	0	738721792	59	4509
2026-01-02 12:00:16.87	299.41	51.98	-48.6	-50.4	22.9	6.03e-01	0	56	0	744488960	60	4428
2026-01-02 12:00:19.84	301.05	51.08	-48.7	-50.5	22.7	6.02e-01	0	56	0	749731840	60	4477
2026-01-02 12:00:22.81	302.60	50.17	-49.5	-51.7	21.7	6.03e-01	0	56	0	755499008	61	4818
2026-01-02 12:00:25.79	304.06	49.26	-49.2	-51.2	22.1	6.04e-01	0	56	0	761266176	61	4590
2026-01-02 12:00:28.76	305.43	48.36	-49.1	-51.1	22.2	6.04e-01	0	56	0	766509056	61	4519
2026-01-02 12:00:31.72	306.72	47.46	-48.6	-50.5	22.8	6.05e-01	0	56	0	772276224	60	4448
2026-01-02 12:00:34.69	307.94	46.57	-48.6	-50.4	22.9	6.01e-01	0	56	0	778043392	60	4404
2026-01-02 12:00:37.67	309.10	45.68	-48.4	-50.2	23.0	6.02e-01	0	56	0	783286272	60	4307
2026-01-02 12:00:40.64	310.19	44.80	-48.6	-50.4	22.9	6.03e-01	0	56	0	789053440	60	4417
2026-01-02 12:00:43.62	311.23	43.93	-48.7	-50.5	22.8	6.04e-01	0	56	0	794820608	60	4455
2026-01-02 12:00:46.59	312.20	43.07	-49.0	-50.9	22.4	6.02e-01	0	56	0	800063488	60	4695
2026-01-02 12:00:49.57	313.13	42.22	-49.1	-51.2	22.1	6.03e-01	0	56	0	805830656	60	4822
2026-01-02 12:00:52.54	314.01	41.38	-49.4	-51.5	21.8	6.04e-01	0	56	0	811073536	61	4726
2026-01-02 12:00:55.52	314.85	40.56	-49.5	-51.7	21.6	6.03e-01	0	56	0	816840704	61	4835
2026-01-02 12:00:58.49	315.65	39.75	-49.1	-51.0	22.2	6.03e-01	0	56	0	822607872	61	4491
2026-01-02 12:01:01.46	316.40	38.96	-49.0	-50.9	22.4	6.02e-01	0	56	0	827850752	61	4419
2026-01-02 12:01:04.43	317.12	38.18	-49.0	-51.0	22.3	6.05e-01	0	56	0	833617920	61	4477
2026-01-02 12:01:07.40	317.81	37.41	-49.1	-51.2	22.1	6.03e-01	0	56	0	838860800	61	4560
2026-01-02 12:01:10.36	318.46	36.66	-49.0	-50.9	22.1	6.01e-01	0	56	0	844627968	61	4439
2026-01-02 12:01:13.33	319.09	35.93	-48.8	-50.6	22.6	6.02e-01	0	56	0	850395136	61	4289
2026-01-02 12:01:16.31	319.69	35.20	-48.2	-50.0	23.2	6.04e-01	0	56	0	855638016	60	4195
2026-01-02 12:01:19.29	320.26	34.49	-47.9	-49.4	24.0	6.04e-01	0	56	0	861405184	59	4172
2026-01-02 12:01:22.27	320.81	33.79	-48.1	-49.7	23.8	6.06e-01	0	56	0	867172352	59	4316
2026-01-02 12:01:25.24	321.34	33.11	-48.1	-49.7	23.8	6.03e-01	0	56	0	872415232	59	4313
2026-01-02 12:01:28.20	321.84	32.45	-47.9	-49.4	24.0	6.05e-01	0	56	0	878182400	59	4192
2026-01-02 12:01:31.16	322.33	31.79	-47.7	-49.2	24.2	6.05e-01	0	56	0	883949568	59	4093
2026-01-02 12:01:34.13	322.79	31.15	-48.0	-49.6	23.8	6.04e-01	0	56	0	889192448	59	4285
2026-01-02 12:01:37.10	323.24	30.53	-47.9	-49.4	24.0	6.04e-01	0	56	0	894959616	59	4169
2026-01-02 12:01:40.08	323.67	29.91	-48.3	-50.0	23.5	6.03e-01	0	56	0	900202496	59	4443
2026-01-02 12:01:43.05	324.09	29.31	-47.9	-49.4	24.0	6.03e-01	0	56	0	905969664	59	4175
2026-01-02 12:01:46.02	324.49	28.71	-48.1	-49.7	23.7	6.00e-01	0	56	0	911736832	59	4340
2026-01-02 12:01:48.99	324.87	28.14	-48.1	-49.8	23.7	6.03e-01	0	56	0	916979712	59	4342
2026-01-02 12:01:51.95	325.24	27.57	-48.4	-50.2	23.3	6.03e-01	0	56	0	922746880	59	4556
2026-01-02 12:01:54.92	325.60	27.01	-48.2	-49.8	23.6	6.03e-01	0	56	0	928514048	59	4382
2026-01-02 12:01:57.90	325.95	26.47	-48.4	-50.1	23.4	6.03e-01	0	56	0	933756928	59	4508
2026-01-02 12:02:00.85	326.28	25.94	-48.4	-50.2	23.3	6.02e-01	0	56	0	939524096	59	4552
2026-01-02 12:02:03.82	326.61	25.41	-48.7	-50.5	23.0	6.07e-01	0	56	0	944766976	59	4714
2026-01-02 12:02:06.79	326.92	24.90	-48.9	-50.9	22.2	6.04e-01	0	56	0	950534144	60	4693
2026-01-02 12:02:09.77	327.23	24.39	-48.4	-50.2	22.9	6.04e-01	0	56	0	956301312	60	4301
2026-01-02 12:02:12.75	327.52	23.90	-48.2	-50.0	23.0	6.03e-01	0	56	0	961544192	60	4227
2026-01-02 12:02:15.72	327.81	23.41	-48.4	-50.3	22.8	6.05e-01	0	56	0	967311360	60	4347
2026-01-02 12:02:18.69	328.08	22.94	-48.6	-50.3	23.1	6.03e-01	0	56	0	972554240	59	4650
2026-01-02 12:02:21.66	328.35	22.47	-48.6	-50.4	23.1	6.02e-01	0	56	0	978321408	59	4652
2026-01-02 12:02:24.62	328.61	22.01	-48.6	-50.3	23.1	6.04e-01	0	56	0	984088576	59	4638
2026-01-02 12:02:27.59	328.86	21.56	-48.3	-50.0	23.4	6.04e-01	0	56	0	989331456	59	4479
2026-01-02 12:02:30.54	329.11	21.12	-48.3	-50.0	23.4	6.04e-01	0	56	0	995098624	59	4455
2026-01-02 12:02:33.50	329.35	20.69	-48.4	-50.2	23.2	6.03e-01	0	56	0	1000341504	59	4552
2026-01-02 12:02:36.47	329.58	20.26	-48.3	-50.0	23.3	6.03e-01	0	56	0	1006108672	59	4461
2026-01-02 12:02:39.44	329.81	19.84	-48.4	-50.2	23.2	6.05e-01	0	56	0	1011875840	59	4558
2026-01-02 12:02:42.41	330.03	19.43	-48.6	-50.4	23.0	6.05e-01	0	56	0	1017118720	59	4658
2026-01-02 12:02:45.38	330.24	19.03	-48.6	-50.5	22.9	6.01e-01	0	56	0	1022885888	59	4723
2026-01-02 12:02:48.37	330.45	18.63	-48.2	-49.9	23.3	6.05e-01	0	56	0	1028653056	59	4441
2026-01-02 12:02:51.33	330.66	18.24	-48.3	-50.0	23.3	6.03e-01	0	56	0	1033895936	59	4466
2026-01-02 12:02:54.29	330.85	17.85	-48.4	-50.2	23.1	6.03e-01	0	56	0	1039663104	59	4556
2026-01-02 12:02:57.25	331.05	17.47	-48.1	-49.8	23.5	6.02e-01	0	57	0	1044905984	59	4362
2026-01-02 12:03:00.23	331.24	17.10	-48.1	-49.7	23.5	6.04e-01	0	57	0	1050673152	59	4322
2026-01-02 12:03:03.19	331.42	16.74	-48.2	-49.9	23.3	6.04e-01	0	56	0	1056440320	59	4408
2026-01-02 12:03:06.16	331.60	16.37	-48.1	-49.8	23.4	6.03e-01	0	56	0	1061683200	59	4370
2026-01-02 12:03:09.12	331.78	16.02	-48.2	-49.9	23.3	6.01e-01	0	56	0	1067450368	59	4434
2026-01-02 12:03:12.10	331.95	15.67	-48.2	-49.9	23.4	6.04e-01	0	56	0	1072693248	59	4397
2026-01-02 12:03:15.08	332.12	15.32	-48.3	-50.1	23.2	6.04e-01	0	56	0	1078460416	59	4502
2026-01-02 12:03:18.06	332.28	14.98	-48.4	-50.2	23.0	6.02e-01	0	56	0	1084227584	59	4589
2026-01-02 12:03:21.03	332.45	14.65	-48.3	-50.1	23.1	6.03e-01	0	57	0	1089470464	59	4508
2026-01-02 12:03:24.00	332.60	14.32	-48.2	-49.9	23.3	6.02e-01	0	56	0	1095237632	59	4417
2026-01-02 12:03:26.97	332.76	13.99	-48.3	-50.0	23.1	6.04e-01	0	57	0	1101004800	59	4490
2026-01-02 12:03:29.93	332.91	13.67	-48.5	-50.3	22.8	6.03e-01	0	57	0	1106247680	59	4632
2026-01-02 12:03:32.91	333.06	13.36	-48.7	-50.6	22.5	6.04e-01	0	56	0	1112014848	59	4791
2026-01-02 12:03:35.89	333.20	13.04	-48.9	-50.9	22.3	6.04e-01	0	57	0	1117782016	59	4948
2026-01-02 12:03:38.84	333.34	12.74	-48.4	-50.4	22.4	6.02e-01	0	56	0	1123024896	60	4394
2026-01-02 12:03:41.80	333.48	12.44	-48.4	-50.3	22.4	6.03e-01	0	57	0	1128792064	60	4357
2026-01-02 12:03:44.76	333.62	12.14	-48.6	-50.6	22.1	6.03e-01	0	56	0	1134034944	60	4526
2026-01-02 12:03:47.71	333.75	11.84	-48.6	-50.6	22.0	6.04e-01	0	57	0	1139802112	60	4513
2026-01-02 12:03:50.68	333.88	11.55	-48.5	-50.5	22.5	6.03e-01	0	56	0	1145044992	59	4716
2026-01-02 12:03:53.66	334.01	11.26	-48.7	-50.7	22.3	6.02e-01	0	57	0	1150812160	59	4824
2026-01-02 12:03:56.64	334.14	10.98	-48.8	-50.9	21.7	6.05e-01	0	56	0	1156579328	60	4675
2026-01-02 12:03:59.62	334.26	10.70	-48.8	-50.9	21.7	6.02e-01	0	57	0	1161822208	60	4663
2026-01-02 12:04:02.58	334.38	10.42	-49.0	-51.2	21.4	6.06e-01	0	57	0	1167589376	60	4835
2026-01-02 12:04:05.56	334.50	10.15	-48.6	-50.7	21.8	6.04e-01	0	57	0	1173356544	60	4598
2026-01-02 12:04:08.54	334.62	9.88	-48.7	-50.9	21.7	6.03e-01	0	57	0	1178599424	60	4661
2026-01-02 12:04:11.50	334.73	9.61	-48.7	-50.9	21.6	6.03e-01	0	56	0	1184366592	60	4687
2026-01-02 12:04:14.46	334.85	9.35	-48.7	-50.9	21.6	6.04e-01	0	57	0	1190133760	60	4674
2026-01-02 12:04:17.43	334.96	9.08	-48.4	-50.5	22.0	6.03e-01	0	57	0	1195376640	60	4449
2026-01-02 12:04:20.40	335.07	8.83	-48.6	-50.7	21.7	6.04e-01	0	56	0	1201143808	60	4569
2026-01-02 12:04:23.37	335.17	8.57	-48.7	-50.9	21.5	6.03e-01	0	56	0	1206386688	60	4659
2026-01-02 12:04:26.34	335.28	8.32	-48.7	-50.9	21.5	6.04e-01	0	57	0	1212153856	60	4672
2026-01-02 12:04:29.30	335.38	8.07	-48.9	-51.2	21.2	6.05e-01	0	57	0	1217921024	60	4853
2026-01-02 12:04:32.26	335.49	7.82	-49.1	-51.6	20.8	6.02e-01	0	57	0	1223163904	60	5072
2026-01-02 12:04:35.23	335.59	7.58	-49.3	-51.9	20.5	6.04e-01	0	57	0	1228931072	60	5221
2026-01-02 12:04:38.20	335.69	7.33	-49.5	-52.2	19.4	6.01e-01	0	57	0	1234173952	61	5127
2026-01-02 12:04:41.17	335.78	7.09	-49.4	-52.0	20.3	6.05e-01	0	57	0	1239941120	61	5016
2026-01-02 12:04:44.13	335.88	6.86	-49.2	-51.8	20.4	6.03e-01	0	57	0	1245708288	61	4901
2026-01-02 12:04:47.09	335.98	6.62	-49.4	-52.1	20.1	6.03e-01	0	56	0	1250951168	61	5079
2026-01-02 12:04:50.06	336.07	6.39	-49.7	-52.5	19.6	6.05e-01	0	56	0	1256718336	61	5336
2026-01-02 12:04:53.03	336.16	6.16	-50.0	-53.1	19.1	6.04e-01	0	57	0	1261961216	62	5380
2026-01-02 12:04:55.99	336.25	5.93	-49.4	-52.2	19.8	6.03e-01	0	57	0	1267728384	62	4858
2026-01-02 12:04:58.95	336.34	5.71	-49.2	-51.9	20.1	6.05e-01	0	56	0	1273495552	61	4959
2026-01-02 12:05:01.92	336.43	5.48	-49.1	-51.8	20.2	6.03e-01	0	57	0	1278738432	61	4896
2026-01-02 12:05:04.88	336.52	5.26	-49.2	-51.8	20.1	6.01e-01	0	56	0	1284505600	61	4922
2026-01-02 12:05:07.83	336.60	5.05	-50.3	-53.8	18.6	6.03e-01	0	57	0	1289748480	62	5799
2026-01-02 12:05:10.79	336.69	4.83	-54.0	-73.7	3.8	7.46e-01	0	57	104	1290797056	70	36265
2026-01-02 12:05:13.76	336.77	4.61	-53.8	-73.6	3.8	7.47e-01	0	57	104	1290797056	70	35731
2026-01-02 12:05:16.72	336.85	4.40	-54.4	-74.3	3.8	7.47e-01	0	57	104	1290797056	70	38866
2026-01-02 12:05:19.69	336.93	4.19	-54.5	-74.4	3.8	7.46e-01	0	57	104	1290797056	71	37082
2026-01-02 12:05:22.66	337.01	3.98	-54.6	-74.4	3.8	7.47e-01	0	57	104	1290797056	71	37341
2026-01-02 12:05:25.63	337.09	3.77	-54.6	-74.5	3.8	7.46e-01	0	57	104	1290797056	71	37656
2026-01-02 12:05:28.60	337.17	3.56	-54.6	-74.6	3.8	7.45e-01	0	57	104	1290797056	71	37830
2026-01-02 12:05:31.55	337.25	3.36	-54.7	-74.6	3.8	7.48e-01	0	57	104	1290797056	71	37947
2026-01-02 12:05:34.51	337.32	3.15	-54.7	-74.6	3.8	7.45e-01	0	57	104	1290797056	71	38032
2026-01-02 12:05:37.48	337.40	2.95	-54.6	-74.6	3.8	7.46e-01	0	57	104	1290797056	71	37880

#Closed at: 2026-01-02 12:05:38
#Recorded file [1290 MB]: D:/Data/31026_260102_150508.dat