passes_logs/2026/01/02/R3.0SM8_Murmansk_STILSPACE/R3.0SM8_Murmansk_STILSPACE__20260102_162335_FENGYUN_3E_rec.log

#Pass ID: 20260102_162335_FENGYUN 3E
#Satellite: FENGYUN 3E
#Configuration: FENGYUN 3E
#almurnet v.1.7.20240730
#Start time: 2026-01-02 16:23:36

#Version: 2.2.20231116
#Station: R3.0SM8_Murmansk_STILSPACE
#Location: 33.092731 lon 68.902999 lat
#TLE: 1 49008U 21062A   26001.26445318  .00000475  00000+0  24453-3 0  9990
#TLE: 2 49008  98.7480   6.5551 0001357 167.8415 192.2795 14.19884467232890

#Time	Az	El	Level	Level2	SNR	BER	BlckErr	Temp	State	Recorded	gain1	gain2
2026-01-02 16:23:36.93	219.01	3.08	-52.7	-62.9	3.8	8.46e-01	0	46	0	0	67	12065
2026-01-02 16:23:39.89	219.25	3.25	-52.3	-62.7	3.8	8.46e-01	0	47	104	0	67	11718
2026-01-02 16:23:42.86	219.49	3.41	-51.7	-61.9	3.8	8.45e-01	0	47	104	0	66	11368
2026-01-02 16:23:45.84	219.74	3.57	-51.2	-61.4	3.8	8.46e-01	0	47	104	0	65	11359
2026-01-02 16:23:48.80	219.99	3.74	-51.1	-61.3	3.8	8.46e-01	0	47	104	0	65	11265
2026-01-02 16:23:51.76	220.24	3.90	-51.1	-61.2	3.8	8.47e-01	0	48	104	0	64	11767
2026-01-02 16:23:54.73	220.50	4.07	-51.1	-61.2	3.8	8.46e-01	0	48	104	0	64	11744
2026-01-02 16:23:57.70	220.76	4.24	-51.1	-60.2	3.8	8.45e-01	0	48	104	0	64	10471
2026-01-02 16:24:00.66	221.02	4.40	-50.6	-57.8	4.2	8.38e-01	0	48	104	0	64	7913
2026-01-02 16:24:03.64	221.28	4.57	-50.3	-56.3	4.8	7.94e-01	0	48	0	0	63	7076
2026-01-02 16:24:06.60	221.55	4.74	-50.5	-56.7	4.6	8.13e-01	0	49	0	0	63	7438
2026-01-02 16:24:09.57	221.82	4.91	-50.3	-56.0	5.0	7.86e-01	0	49	0	0	63	6806
2026-01-02 16:24:12.55	222.09	5.08	-49.2	-53.0	7.2	1.49e-01	0	49	0	11534336	61	5430
2026-01-02 16:24:15.52	222.36	5.25	-49.1	-52.8	7.4	1.23e-01	0	49	0	33554432	61	5287
2026-01-02 16:24:18.50	222.64	5.42	-48.3	-50.9	9.4	1.92e-02	0	50	0	54525952	59	4779
2026-01-02 16:24:21.47	222.93	5.59	-47.7	-50.1	10.3	5.03e-03	0	49	0	76546048	58	4618
2026-01-02 16:24:24.44	223.21	5.76	-47.8	-50.1	10.3	5.71e-03	0	50	0	97517568	58	4606
2026-01-02 16:24:27.41	223.50	5.93	-47.6	-49.9	10.4	4.34e-03	0	50	0	119537664	58	4528
2026-01-02 16:24:30.38	223.79	6.11	-47.6	-49.8	10.5	3.84e-03	0	50	0	140509184	58	4485
2026-01-02 16:24:33.35	224.09	6.28	-47.4	-49.6	10.8	3.04e-03	0	50	0	162529280	57	4628
2026-01-02 16:24:36.32	224.38	6.45	-47.3	-49.3	11.1	2.04e-03	0	50	0	183500800	57	4480
2026-01-02 16:24:39.27	224.68	6.63	-47.4	-49.6	10.8	2.85e-03	0	51	0	204472320	57	4608
2026-01-02 16:24:42.24	224.99	6.80	-47.5	-49.6	10.9	2.44e-03	0	51	0	226492416	57	4614
2026-01-02 16:24:45.21	225.30	6.98	-47.2	-49.2	11.2	1.73e-03	0	51	0	247463936	57	4432
2026-01-02 16:24:48.18	225.61	7.15	-47.2	-49.2	11.2	1.29e-03	0	51	0	269484032	57	4422
2026-01-02 16:24:51.14	225.92	7.33	-47.2	-49.2	11.3	1.26e-03	0	51	0	290455552	57	4398
2026-01-02 16:24:54.11	226.24	7.50	-47.1	-49.0	11.5	9.06e-04	0	51	0	311427072	56	4558
2026-01-02 16:24:57.07	226.56	7.68	-47.1	-49.0	11.4	1.18e-03	0	51	0	333447168	56	4573
2026-01-02 16:25:00.04	226.89	7.86	-47.0	-48.9	11.6	7.40e-04	0	52	0	354418688	56	4509
2026-01-02 16:25:03.02	227.22	8.04	-47.2	-49.1	11.4	9.93e-04	0	52	0	376438784	56	4639
2026-01-02 16:25:06.00	227.56	8.22	-47.2	-49.1	11.4	1.07e-03	0	52	0	397410304	56	4630
2026-01-02 16:25:08.97	227.90	8.40	-47.0	-48.9	11.7	7.20e-04	0	52	0	419430400	56	4527
2026-01-02 16:25:11.95	228.24	8.58	-46.9	-48.6	12.0	4.13e-04	0	52	0	440401920	56	4383
2026-01-02 16:25:14.91	228.59	8.76	-46.6	-48.3	12.3	2.13e-04	0	52	0	462422016	56	4240
2026-01-02 16:25:17.87	228.94	8.94	-46.6	-48.3	12.4	1.76e-04	0	52	0	483393536	56	4206
2026-01-02 16:25:20.83	229.29	9.12	-46.0	-47.5	13.0	4.46e-05	0	52	0	505413632	55	4087
2026-01-02 16:25:23.78	229.65	9.30	-46.0	-47.5	13.1	3.54e-05	0	52	0	526385152	54	4312
2026-01-02 16:25:26.75	230.01	9.48	-46.0	-47.5	13.1	3.77e-05	0	53	0	547356672	54	4320
2026-01-02 16:25:29.71	230.38	9.66	-46.2	-47.7	13.0	3.20e-05	0	53	0	568328192	54	4412
2026-01-02 16:25:32.68	230.75	9.84	-46.0	-47.4	13.3	2.74e-05	0	53	0	590348288	54	4284
2026-01-02 16:25:35.65	231.13	10.02	-46.3	-47.8	13.0	2.63e-05	0	53	0	611319808	54	4481
2026-01-02 16:25:38.62	231.51	10.20	-46.0	-47.4	13.5	1.14e-05	0	53	0	633339904	54	4249
2026-01-02 16:25:41.59	231.89	10.39	-45.9	-47.3	13.6	6.80e-06	0	53	0	654311424	54	4234
2026-01-02 16:25:44.55	232.28	10.57	-46.0	-47.4	13.6	3.40e-06	0	53	0	676331520	54	4250
2026-01-02 16:25:47.52	232.68	10.75	-45.0	-46.2	14.8	0.00e+00	0	53	0	697303040	53	3914
2026-01-02 16:25:50.49	233.08	10.94	-44.5	-45.5	15.6	0.00e+00	0	54	0	719323136	51	4073
2026-01-02 16:25:53.46	233.48	11.12	-44.5	-45.5	15.7	0.00e+00	0	53	0	740294656	51	4056
2026-01-02 16:25:56.43	233.89	11.30	-44.2	-45.1	16.1	0.00e+00	0	53	0	762314752	51	3882
2026-01-02 16:25:59.40	234.31	11.49	-44.3	-45.2	16.1	0.00e+00	0	54	0	783286272	51	3935
2026-01-02 16:26:02.37	234.73	11.67	-44.1	-45.0	16.3	0.00e+00	0	54	0	804257792	51	3838
2026-01-02 16:26:05.33	235.15	11.85	-43.7	-44.5	16.8	0.00e+00	0	54	0	826277888	50	3851
2026-01-02 16:26:08.30	235.58	12.04	-43.6	-44.4	16.9	0.00e+00	0	54	0	847249408	50	3813
2026-01-02 16:26:11.28	236.02	12.22	-43.7	-44.5	16.9	0.00e+00	0	54	0	868220928	50	3852
2026-01-02 16:26:14.24	236.46	12.40	-44.2	-45.1	16.4	0.00e+00	0	54	0	890241024	50	4107
2026-01-02 16:26:17.19	236.90	12.59	-43.8	-44.7	16.8	0.00e+00	0	54	0	911212544	50	3916
2026-01-02 16:26:20.16	237.35	12.77	-43.9	-44.7	16.8	0.00e+00	0	54	0	933232640	50	3948
2026-01-02 16:26:23.14	237.81	12.95	-43.8	-44.6	17.0	0.00e+00	0	54	0	954204160	50	3899
2026-01-02 16:26:26.11	238.27	13.14	-43.9	-44.8	16.8	0.00e+00	0	54	0	976224256	50	3961
2026-01-02 16:26:29.08	238.74	13.32	-43.1	-43.8	17.8	0.00e+00	0	54	0	997195776	49	3768
2026-01-02 16:26:32.03	239.21	13.50	-42.8	-43.5	18.1	0.00e+00	0	55	0	1019215872	48	3844
2026-01-02 16:26:35.00	239.69	13.68	-43.2	-44.0	17.7	0.00e+00	0	55	0	1040187392	48	4062
2026-01-02 16:26:37.96	240.17	13.86	-42.7	-43.4	18.2	0.00e+00	0	55	0	1061158912	48	3800
2026-01-02 16:26:40.94	240.66	14.04	-42.7	-43.4	18.3	0.00e+00	0	55	0	1083179008	48	3790
2026-01-02 16:26:43.91	241.16	14.22	-43.2	-44.0	17.7	0.00e+00	0	55	0	1104150528	48	4067
2026-01-02 16:26:46.88	241.66	14.40	-42.3	-42.9	18.6	0.00e+00	0	55	0	1126170624	47	3812
2026-01-02 16:26:49.84	242.17	14.58	-42.2	-42.8	18.7	0.00e+00	0	55	0	1147142144	47	3773
2026-01-02 16:26:52.81	242.68	14.76	-42.1	-42.8	18.7	0.00e+00	0	55	0	1169162240	47	3747
2026-01-02 16:26:55.78	243.20	14.93	-42.2	-42.9	18.7	0.00e+00	0	55	0	1190133760	47	3785
2026-01-02 16:26:58.75	243.73	15.11	-42.2	-42.8	18.7	0.00e+00	0	55	0	1212153856	47	3749
2026-01-02 16:27:01.72	244.26	15.28	-42.3	-42.9	18.6	0.00e+00	0	55	0	1233125376	47	3804
2026-01-02 16:27:04.69	244.80	15.46	-42.2	-42.8	18.7	0.00e+00	0	55	0	1254096896	47	3771
2026-01-02 16:27:07.66	245.34	15.63	-42.1	-42.8	18.8	0.00e+00	0	55	0	1276116992	47	3741
2026-01-02 16:27:10.63	245.89	15.80	-42.3	-43.0	18.6	0.00e+00	0	55	0	1297088512	47	3826
2026-01-02 16:27:13.59	246.45	15.97	-42.1	-42.7	18.9	0.00e+00	0	55	0	1319108608	46	3928
2026-01-02 16:27:16.58	247.01	16.14	-42.2	-42.9	18.7	0.00e+00	0	55	0	1340080128	46	4014
2026-01-02 16:27:19.55	247.58	16.31	-42.0	-42.6	18.9	0.00e+00	0	55	0	1362100224	46	3889
2026-01-02 16:27:22.52	248.16	16.47	-42.1	-42.7	18.8	0.00e+00	0	55	0	1383071744	46	3958
2026-01-02 16:27:25.48	248.73	16.64	-41.8	-42.4	19.2	0.00e+00	0	55	0	1405091840	46	3783
2026-01-02 16:27:28.46	249.32	16.80	-41.6	-42.2	19.3	0.00e+00	0	56	0	1426063360	46	3727
2026-01-02 16:27:31.42	249.91	16.96	-41.6	-42.2	19.4	0.00e+00	0	56	0	1447034880	45	3918
2026-01-02 16:27:34.38	250.51	17.12	-41.7	-42.2	19.3	0.00e+00	0	56	0	1469054976	45	3957
2026-01-02 16:27:37.36	251.12	17.28	-41.8	-42.4	19.1	0.00e+00	0	56	0	1490026496	45	4040
2026-01-02 16:27:40.33	251.73	17.43	-42.0	-42.6	18.9	0.00e+00	0	56	0	1512046592	45	4145
2026-01-02 16:27:43.29	252.34	17.58	-42.0	-42.7	18.9	0.00e+00	0	56	0	1533018112	45	4146
2026-01-02 16:27:46.26	252.97	17.73	-42.1	-42.7	18.9	0.00e+00	0	56	0	1555038208	45	4159
2026-01-02 16:27:49.24	253.60	17.88	-41.6	-42.2	19.3	0.00e+00	0	56	0	1576009728	45	3948
2026-01-02 16:27:52.19	254.23	18.02	-42.0	-42.6	19.0	0.00e+00	0	56	0	1596981248	45	4109
2026-01-02 16:27:55.17	254.87	18.17	-41.8	-42.3	19.2	0.00e+00	0	56	0	1619001344	45	3995
2026-01-02 16:27:58.14	255.52	18.31	-41.6	-42.2	19.4	0.00e+00	0	56	0	1639972864	45	3931
2026-01-02 16:28:01.11	256.17	18.44	-41.5	-42.0	19.5	0.00e+00	0	56	0	1661992960	45	3862
2026-01-02 16:28:04.07	256.83	18.58	-41.5	-42.0	19.5	0.00e+00	0	56	0	1682964480	45	3857
2026-01-02 16:28:07.04	257.49	18.71	-41.7	-42.3	19.3	0.00e+00	0	56	0	1704984576	45	3999
2026-01-02 16:28:10.01	258.16	18.84	-41.8	-42.4	19.2	0.00e+00	0	56	0	1725956096	45	4037
2026-01-02 16:28:12.98	258.84	18.96	-42.0	-42.6	19.0	0.00e+00	0	56	0	1747976192	45	4132
2026-01-02 16:28:15.94	259.52	19.08	-41.5	-42.1	19.4	0.00e+00	0	56	0	1768947712	45	3893
2026-01-02 16:28:18.91	260.20	19.20	-41.7	-42.3	19.3	0.00e+00	0	56	0	1789919232	45	3985
2026-01-02 16:28:21.87	260.89	19.32	-41.2	-41.7	19.8	0.00e+00	0	56	0	1811939328	45	3712
2026-01-02 16:28:24.84	261.58	19.43	-41.6	-42.2	19.4	0.00e+00	0	56	0	1832910848	45	3931
2026-01-02 16:28:27.80	262.28	19.54	-41.7	-42.3	19.3	0.00e+00	0	57	0	1854930944	45	3997
2026-01-02 16:28:30.77	262.99	19.64	-41.7	-42.3	19.3	0.00e+00	0	56	0	1875902464	45	3977
2026-01-02 16:28:33.74	263.70	19.74	-41.3	-41.9	19.7	0.00e+00	0	56	0	1897922560	45	3784
2026-01-02 16:28:36.69	264.41	19.83	-41.1	-41.6	20.0	0.00e+00	0	56	0	1918894080	45	3665
2026-01-02 16:28:39.67	265.13	19.93	-41.2	-41.7	19.9	0.00e+00	0	56	0	1939865600	45	3719
2026-01-02 16:28:42.63	265.85	20.01	-41.2	-41.7	19.8	0.00e+00	0	56	0	1961885696	45	3734
2026-01-02 16:28:45.60	266.57	20.10	-41.4	-42.0	19.6	0.00e+00	0	57	0	1982857216	45	3827
2026-01-02 16:28:48.57	267.30	20.18	-41.1	-41.6	19.9	0.00e+00	0	57	0	2003828736	45	3685
2026-01-02 16:28:51.54	268.04	20.25	-41.5	-42.1	19.5	0.00e+00	0	57	0	2025848832	45	3880
2026-01-02 16:28:54.52	268.77	20.32	-41.7	-42.3	19.3	0.00e+00	0	57	0	2046820352	45	3991
2026-01-02 16:28:57.49	269.51	20.39	-41.4	-42.0	19.6	0.00e+00	0	57	0	2068840448	45	3854
2026-01-02 16:29:00.45	270.26	20.45	-41.2	-41.7	19.8	0.00e+00	0	57	0	2089811968	45	3729
2026-01-02 16:29:03.42	271.00	20.51	-41.1	-41.6	20.0	0.00e+00	0	57	0	2111832064	44	3903
2026-01-02 16:29:06.39	271.75	20.56	-41.1	-41.7	19.9	0.00e+00	0	57	0	2132803584	44	3928
2026-01-02 16:29:09.36	272.50	20.61	-41.6	-42.2	19.4	0.00e+00	0	57	0	2154823680	44	4161
2026-01-02 16:29:12.32	273.25	20.65	-41.6	-42.2	19.4	0.00e+00	0	57	0	2175795200	45	3955
2026-01-02 16:29:15.29	274.00	20.69	-41.7	-42.3	19.4	0.00e+00	0	57	0	2197815296	45	3967
2026-01-02 16:29:18.26	274.76	20.72	-41.5	-42.0	19.6	0.00e+00	0	57	0	2218786816	45	3852
2026-01-02 16:29:21.24	275.52	20.75	-41.4	-41.9	19.7	0.00e+00	0	57	0	2240806912	45	3808
2026-01-02 16:29:24.20	276.28	20.77	-41.2	-41.8	19.8	0.00e+00	0	57	0	2261778432	45	3755
2026-01-02 16:29:27.17	277.04	20.79	-41.2	-41.7	19.9	0.00e+00	0	57	0	2282749952	45	3717
2026-01-02 16:29:30.13	277.80	20.80	-41.1	-41.7	19.9	0.00e+00	0	57	0	2304770048	45	3700
2026-01-02 16:29:33.09	278.55	20.81	-41.2	-41.7	19.9	0.00e+00	0	57	0	2325741568	45	3730
2026-01-02 16:29:36.04	279.31	20.81	-41.1	-41.6	19.9	0.00e+00	0	57	0	2346713088	45	3694
2026-01-02 16:29:39.02	280.07	20.81	-41.1	-41.6	20.0	0.00e+00	0	57	0	2368733184	45	3681
2026-01-02 16:29:41.98	280.83	20.80	-41.5	-42.1	19.5	0.00e+00	0	57	0	2389704704	45	3876
2026-01-02 16:29:44.95	281.59	20.79	-41.7	-42.2	19.3	0.00e+00	0	57	0	2411724800	45	3955
2026-01-02 16:29:47.92	282.35	20.78	-42.2	-42.8	18.7	0.00e+00	0	57	0	2432696320	45	4236
2026-01-02 16:29:50.91	283.12	20.75	-42.8	-43.5	17.9	0.00e+00	0	57	0	2454716416	47	4091
2026-01-02 16:29:53.88	283.87	20.73	-43.2	-43.9	17.5	0.00e+00	0	57	0	2475687936	48	4046
2026-01-02 16:29:56.85	284.63	20.69	-44.2	-45.1	16.2	0.00e+00	0	57	0	2497708032	49	4346
2026-01-02 16:29:59.81	285.38	20.66	-45.2	-46.3	14.7	0.00e+00	0	57	0	2518679552	52	4237
2026-01-02 16:30:02.78	286.13	20.62	-45.8	-47.1	13.8	3.40e-06	0	57	0	2540699648	53	4374
2026-01-02 16:30:05.73	286.88	20.57	-46.3	-47.7	13.1	1.60e-05	0	57	0	2561671168	54	4438
2026-01-02 16:30:08.70	287.63	20.52	-46.6	-48.2	12.7	1.18e-04	0	57	0	2582642688	55	4410
2026-01-02 16:30:11.66	288.37	20.46	-46.0	-47.4	13.5	1.37e-05	0	57	0	2603614208	54	4248
2026-01-02 16:30:14.63	289.11	20.40	-45.7	-47.0	13.7	4.50e-06	0	57	0	2625634304	54	4078
2026-01-02 16:30:17.60	289.85	20.34	-45.9	-47.4	13.2	2.51e-05	0	57	0	2646605824	54	4261
2026-01-02 16:30:20.58	290.59	20.27	-46.0	-47.5	13.2	3.43e-05	0	57	0	2668625920	54	4299
2026-01-02 16:30:23.55	291.32	20.19	-44.5	-45.5	15.5	0.00e+00	0	57	0	2689597440	51	4083
2026-01-02 16:30:26.51	292.05	20.12	-43.2	-43.9	17.6	0.00e+00	0	57	0	2711617536	49	3814
2026-01-02 16:30:29.48	292.78	20.03	-42.6	-43.3	18.4	0.00e+00	0	57	0	2732589056	48	3744
2026-01-02 16:30:32.43	293.49	19.95	-42.4	-43.0	18.6	0.00e+00	0	58	0	2754609152	47	3838
2026-01-02 16:30:35.40	294.21	19.86	-42.2	-42.8	18.8	0.00e+00	0	57	0	2775580672	47	3756
2026-01-02 16:30:38.37	294.92	19.76	-41.4	-42.0	19.6	0.00e+00	0	57	0	2796552192	45	3828
2026-01-02 16:30:41.33	295.63	19.66	-42.0	-42.6	19.0	0.00e+00	0	57	0	2818572288	45	4124
2026-01-02 16:30:44.29	296.33	19.56	-41.6	-42.2	19.4	0.00e+00	0	57	0	2839543808	45	3930
2026-01-02 16:30:47.25	297.03	19.45	-41.7	-42.3	19.3	0.00e+00	0	58	0	2861563904	45	3981
2026-01-02 16:30:50.21	297.72	19.34	-41.6	-42.1	19.4	0.00e+00	0	57	0	2882535424	45	3905
2026-01-02 16:30:53.18	298.41	19.23	-41.6	-42.2	19.4	0.00e+00	0	58	0	2904555520	45	3924
2026-01-02 16:30:56.14	299.10	19.11	-41.5	-42.1	19.5	0.00e+00	0	57	0	2925527040	45	3886
2026-01-02 16:30:59.10	299.77	18.99	-41.6	-42.2	19.4	0.00e+00	0	57	0	2946498560	45	3928
2026-01-02 16:31:02.07	300.45	18.87	-41.6	-42.1	19.4	0.00e+00	0	57	0	2967470080	45	3905
2026-01-02 16:31:05.04	301.12	18.74	-41.6	-42.2	19.4	0.00e+00	0	58	0	2989490176	45	3936
2026-01-02 16:31:08.00	301.78	18.61	-41.6	-42.2	19.3	0.00e+00	0	58	0	3010461696	45	3943
2026-01-02 16:31:10.98	302.44	18.48	-41.8	-42.4	19.1	0.00e+00	0	58	0	3032481792	45	4047
2026-01-02 16:31:13.95	303.09	18.34	-42.1	-42.7	18.8	0.00e+00	0	58	0	3053453312	45	4191
2026-01-02 16:31:16.91	303.73	18.21	-42.2	-42.8	18.8	0.00e+00	0	58	0	3075473408	46	3967
2026-01-02 16:31:19.87	304.37	18.07	-41.9	-42.5	19.1	0.00e+00	0	58	0	3096444928	46	3838
2026-01-02 16:31:22.85	305.01	17.92	-42.3	-42.9	18.7	0.00e+00	0	58	0	3118465024	46	4015
2026-01-02 16:31:25.81	305.64	17.78	-42.1	-42.7	18.9	0.00e+00	0	58	0	3139436544	46	3927
2026-01-02 16:31:28.78	306.26	17.63	-42.0	-42.6	19.0	0.00e+00	0	58	0	3161456640	46	3877
2026-01-02 16:31:31.74	306.87	17.48	-42.2	-42.8	18.8	0.00e+00	0	58	0	3182428160	46	3975
2026-01-02 16:31:34.71	307.48	17.32	-42.2	-42.8	18.8	0.00e+00	0	58	0	3203399680	46	3973
2026-01-02 16:31:37.68	308.09	17.17	-42.2	-42.8	18.8	0.00e+00	0	58	0	3225419776	46	3989
2026-01-02 16:31:40.63	308.68	17.01	-42.1	-42.7	18.8	0.00e+00	0	58	0	3246391296	46	3942
2026-01-02 16:31:43.61	309.28	16.85	-42.2	-42.9	18.6	0.00e+00	0	58	0	3267362816	46	4019
2026-01-02 16:31:46.57	309.86	16.69	-42.4	-43.0	18.5	0.00e+00	0	58	0	3289382912	46	4095
2026-01-02 16:31:49.54	310.44	16.53	-42.5	-43.1	18.4	0.00e+00	0	58	0	3310354432	47	3911
2026-01-02 16:31:52.50	311.01	16.36	-42.5	-43.2	18.3	0.00e+00	0	58	0	3332374528	47	3938
2026-01-02 16:31:55.48	311.58	16.20	-43.0	-43.7	17.9	0.00e+00	0	58	0	3353346048	47	4151
2026-01-02 16:31:58.45	312.15	16.03	-42.7	-43.4	18.1	0.00e+00	0	58	0	3375366144	47	4008
2026-01-02 16:32:01.42	312.70	15.86	-42.8	-43.5	18.1	0.00e+00	0	58	0	3396337664	47	4069
2026-01-02 16:32:04.38	313.25	15.69	-42.5	-43.2	18.4	0.00e+00	0	58	0	3418357760	47	3920
2026-01-02 16:32:07.35	313.79	15.52	-42.8	-43.4	18.1	0.00e+00	0	58	0	3439329280	47	4042
2026-01-02 16:32:10.31	314.33	15.35	-42.8	-43.5	18.0	0.00e+00	0	58	0	3460300800	47	4095
2026-01-02 16:32:13.29	314.86	15.18	-42.8	-43.4	18.1	0.00e+00	0	58	0	3482320896	47	4044
2026-01-02 16:32:16.26	315.39	15.00	-43.2	-43.9	17.8	0.00e+00	0	58	0	3503292416	48	4006
2026-01-02 16:32:19.22	315.91	14.83	-43.5	-44.3	17.4	0.00e+00	0	58	0	3525312512	48	4214
2026-01-02 16:32:22.19	316.42	14.65	-43.7	-44.5	17.2	0.00e+00	0	58	0	3546284032	49	4091
2026-01-02 16:32:25.15	316.93	14.47	-43.4	-44.1	17.6	0.00e+00	0	58	0	3568304128	49	3894
2026-01-02 16:32:28.11	317.43	14.30	-43.1	-43.8	17.9	0.00e+00	0	58	0	3589275648	49	3775
2026-01-02 16:32:31.08	317.92	14.12	-43.2	-43.9	17.8	0.00e+00	0	58	0	3610247168	49	3794
2026-01-02 16:32:34.05	318.41	13.94	-43.0	-43.6	18.1	0.00e+00	0	58	0	3632267264	48	3909
2026-01-02 16:32:37.03	318.90	13.76	-42.9	-43.5	18.2	0.00e+00	0	58	0	3653238784	48	3851
2026-01-02 16:32:39.99	319.38	13.58	-43.2	-43.9	17.7	0.00e+00	0	58	0	3675258880	48	4046
2026-01-02 16:32:42.95	319.85	13.40	-43.4	-44.2	17.5	0.00e+00	0	58	0	3696230400	48	4158
2026-01-02 16:32:45.93	320.32	13.22	-43.5	-44.3	17.4	0.00e+00	0	58	0	3718250496	48	4196
2026-01-02 16:32:48.90	320.78	13.04	-43.7	-44.4	17.2	0.00e+00	0	58	0	3739222016	49	4047
2026-01-02 16:32:51.87	321.24	12.85	-43.6	-44.4	17.2	0.00e+00	0	58	0	3760193536	49	4037
2026-01-02 16:32:54.85	321.69	12.67	-43.0	-43.7	18.0	0.00e+00	0	58	0	3782213632	49	3704
2026-01-02 16:32:57.82	322.14	12.49	-43.0	-43.7	17.9	0.00e+00	0	58	0	3803185152	48	3929
2026-01-02 16:33:00.80	322.58	12.31	-42.9	-43.6	18.0	0.00e+00	0	58	0	3825205248	48	3894
2026-01-02 16:33:03.77	323.02	12.13	-43.1	-43.8	17.8	0.00e+00	0	58	0	3846176768	48	3994
2026-01-02 16:33:06.73	323.45	11.94	-43.5	-44.3	17.4	0.00e+00	0	58	0	3868196864	48	4194
2026-01-02 16:33:09.70	323.87	11.76	-43.5	-44.2	17.4	0.00e+00	0	58	0	3889168384	48	4171
2026-01-02 16:33:12.66	324.29	11.58	-43.7	-44.6	17.0	0.00e+00	0	58	0	3911188480	49	4106
2026-01-02 16:33:15.63	324.71	11.40	-43.9	-44.7	16.9	0.00e+00	0	58	0	3932160000	49	4173
2026-01-02 16:33:18.60	325.12	11.21	-44.1	-45.0	16.6	0.00e+00	0	58	0	3953131520	49	4307
2026-01-02 16:33:21.58	325.52	11.03	-43.9	-44.7	16.9	0.00e+00	0	58	0	3975151616	50	3922
2026-01-02 16:33:24.56	325.92	10.85	-44.1	-44.9	16.7	0.00e+00	0	58	0	3996123136	50	4032
2026-01-02 16:33:27.53	326.32	10.67	-43.7	-44.5	17.1	0.00e+00	0	58	0	4018143232	50	3850
2026-01-02 16:33:30.49	326.71	10.49	-43.9	-44.8	16.7	0.00e+00	0	58	0	4039114752	50	3967
2026-01-02 16:33:33.47	327.10	10.30	-44.4	-45.3	16.3	0.00e+00	0	58	0	4061134848	50	4198
2026-01-02 16:33:36.44	327.48	10.12	-44.6	-45.6	15.9	0.00e+00	0	58	0	4082106368	51	4125
2026-01-02 16:33:39.41	327.86	9.94	-44.6	-45.5	16.0	0.00e+00	0	58	0	4104126464	51	4081
2026-01-02 16:33:42.37	328.23	9.76	-44.6	-45.6	15.9	0.00e+00	0	58	0	4125097984	51	4112
2026-01-02 16:33:45.34	328.60	9.58	-44.3	-45.1	16.4	0.00e+00	0	58	0	4147118080	51	3899
2026-01-02 16:33:48.30	328.96	9.40	-44.1	-45.0	16.5	0.00e+00	0	58	0	4168089600	51	3827
2026-01-02 16:33:51.27	329.32	9.22	-44.3	-45.2	16.3	0.00e+00	0	58	0	4189061120	51	3924
2026-01-02 16:33:54.23	329.67	9.04	-44.3	-45.2	16.3	0.00e+00	0	58	0	4211081216	51	3927
2026-01-02 16:33:57.20	330.03	8.86	-44.6	-45.5	15.9	0.00e+00	0	58	0	4232052736	51	4073
2026-01-02 16:34:00.17	330.37	8.68	-44.1	-45.0	16.4	0.00e+00	0	58	0	4254072832	51	3829
2026-01-02 16:34:03.14	330.72	8.51	-44.4	-45.3	16.0	0.00e+00	0	58	0	4275044352	51	3993
2026-01-02 16:34:06.12	331.06	8.33	-44.3	-45.2	16.2	0.00e+00	0	58	0	4296015872	51	3947
2026-01-02 16:34:09.09	331.39	8.15	-44.2	-45.2	16.2	0.00e+00	0	58	0	4318035968	51	3919
2026-01-02 16:34:12.06	331.73	7.97	-44.5	-45.4	15.9	0.00e+00	0	58	0	4339007488	51	4034
2026-01-02 16:34:15.02	332.05	7.80	-44.9	-45.9	15.5	0.00e+00	0	58	0	4361027584	51	4266
2026-01-02 16:34:17.99	332.38	7.62	-44.8	-45.8	15.5	1.10e-06	0	58	0	4381999104	51	4218
2026-01-02 16:34:20.95	332.70	7.45	-44.9	-45.9	15.4	0.00e+00	0	58	0	4404019200	51	4269
2026-01-02 16:34:23.93	333.01	7.27	-44.8	-45.8	15.5	0.00e+00	0	58	0	4424990720	51	4236
2026-01-02 16:34:26.91	333.33	7.10	-45.0	-46.0	15.3	0.00e+00	0	58	0	4447010816	51	4315
2026-01-02 16:34:29.87	333.64	6.92	-44.7	-45.7	15.4	0.00e+00	0	58	0	4467982336	52	3951
2026-01-02 16:34:32.84	333.94	6.75	-44.6	-45.6	15.5	0.00e+00	0	58	0	4490002432	52	3893
2026-01-02 16:34:35.81	334.24	6.58	-44.8	-45.9	15.2	1.10e-06	0	58	0	4510973952	52	4025
2026-01-02 16:34:38.77	334.54	6.40	-44.7	-45.8	15.3	0.00e+00	0	58	0	4531945472	51	4202
2026-01-02 16:34:41.73	334.84	6.23	-44.8	-45.8	15.3	0.00e+00	0	58	0	4553965568	51	4237
2026-01-02 16:34:44.69	335.13	6.06	-44.8	-45.8	15.2	0.00e+00	0	58	0	4574937088	51	4237
2026-01-02 16:34:47.65	335.42	5.89	-45.0	-46.0	15.0	0.00e+00	0	58	0	4596957184	51	4321
2026-01-02 16:34:50.63	335.71	5.72	-45.0	-46.1	14.9	1.10e-06	0	58	0	4617928704	51	4352
2026-01-02 16:34:53.61	335.99	5.55	-45.2	-46.3	14.5	0.00e+00	0	58	0	4638900224	52	4225
2026-01-02 16:34:56.58	336.27	5.38	-45.2	-46.4	14.4	1.10e-06	0	58	0	4660920320	52	4273
2026-01-02 16:34:59.55	336.55	5.21	-45.0	-46.2	14.6	1.10e-06	0	58	0	4681891840	52	4177
2026-01-02 16:35:02.54	336.82	5.04	-45.2	-46.3	14.5	0.00e+00	0	58	0	4703911936	52	4223
2026-01-02 16:35:05.52	337.09	4.87	-48.6	-58.6	3.8	8.47e-01	0	58	104	4708106240	59	11680
2026-01-02 16:35:08.48	337.36	4.71	-52.1	-62.4	3.8	8.46e-01	0	58	104	4708106240	66	12042
2026-01-02 16:35:11.46	337.63	4.54	-52.7	-62.9	3.8	8.45e-01	0	58	104	4708106240	67	12027
2026-01-02 16:35:14.42	337.89	4.37	-52.8	-63.0	3.8	8.46e-01	0	58	104	4708106240	67	12231
2026-01-02 16:35:17.39	338.15	4.21	-52.9	-63.1	3.8	8.47e-01	0	58	104	4708106240	67	12251
2026-01-02 16:35:20.36	338.40	4.04	-52.9	-63.1	3.8	8.45e-01	0	58	104	4708106240	67	12287
2026-01-02 16:35:23.33	338.66	3.88	-52.8	-63.1	3.8	8.45e-01	0	58	104	4708106240	67	12342
2026-01-02 16:35:26.29	338.91	3.72	-52.8	-63.2	3.8	8.45e-01	0	58	104	4708106240	67	12384
2026-01-02 16:35:29.27	339.16	3.55	-53.0	-63.2	3.8	8.46e-01	0	58	104	4708106240	67	12403
2026-01-02 16:35:32.24	339.41	3.39	-52.9	-63.1	3.8	8.46e-01	0	58	104	4708106240	67	12342
2026-01-02 16:35:35.20	339.65	3.23	-52.9	-63.1	3.8	8.45e-01	0	58	104	4708106240	67	12353
2026-01-02 16:35:38.16	339.89	3.07	-52.8	-63.1	3.8	8.46e-01	0	58	104	4708106240	67	12326
2026-01-02 16:35:41.13	340.13	2.91	-52.8	-63.2	3.8	8.46e-01	0	58	104	4708106240	67	12419

#Closed at: 2026-01-02 16:35:42
#Recorded file [4708 MB]: D:/Data/31026_260102_193503.dat