passes_logs/2026/01/02/R3.0SM8_Murmansk_STILSPACE/R3.0SM8_Murmansk_STILSPACE__20260102_231652_FENGYUN_3D_rec.log

#Pass ID: 20260102_231652_FENGYUN 3D
#Satellite: FENGYUN 3D
#Configuration: FENGYUN 3D
#almurnet v.1.7.20240730
#Start time: 2026-01-02 23:16:52

#Version: 2.2.20231116
#Station: R3.0SM8_Murmansk_STILSPACE
#Location: 33.092731 lon 68.902999 lat
#TLE: 1 43010U 17072A   26002.31768531  .00000715  00000+0  35975-3 0  9993
#TLE: 2 43010  98.9910 333.9388 0001871 131.0716 229.0622 14.19693418421454

#Time	Az	El	Level	Level2	SNR	BER	BlckErr	Temp	State	Recorded	gain1	gain2
2026-01-02 23:16:52.80	21.70	3.03	-53.3	-64.1	3.8	8.46e-01	0	46	0	0	68	13110
2026-01-02 23:16:55.76	22.01	3.16	-53.2	-64.0	3.8	8.44e-01	0	46	104	0	69	12291
2026-01-02 23:16:58.74	22.34	3.28	-53.2	-63.9	3.8	8.44e-01	0	46	104	0	69	12224
2026-01-02 23:17:01.72	22.66	3.41	-53.1	-63.9	3.8	8.47e-01	0	47	104	0	69	12141
2026-01-02 23:17:04.69	22.99	3.54	-53.1	-63.8	3.8	8.46e-01	0	47	104	0	68	12793
2026-01-02 23:17:07.66	23.32	3.67	-52.9	-63.7	3.8	8.47e-01	0	47	104	0	68	12628
2026-01-02 23:17:10.62	23.65	3.79	-52.5	-63.4	3.8	8.47e-01	0	48	104	0	68	12169
2026-01-02 23:17:13.59	23.99	3.92	-52.1	-62.7	3.8	8.46e-01	0	48	104	0	66	12615
2026-01-02 23:17:16.56	24.32	4.05	-52.1	-62.8	3.8	8.45e-01	0	48	104	0	66	12735
2026-01-02 23:17:19.52	24.66	4.17	-52.1	-62.8	3.8	8.47e-01	0	48	104	0	66	12768
2026-01-02 23:17:22.50	25.01	4.30	-52.1	-62.7	3.8	8.48e-01	0	48	104	0	66	12527
2026-01-02 23:17:25.46	25.35	4.43	-51.9	-62.6	3.8	8.43e-01	0	49	104	0	66	12429
2026-01-02 23:17:28.44	25.71	4.55	-52.0	-62.6	3.8	8.46e-01	0	49	104	0	65	13152
2026-01-02 23:17:31.40	26.06	4.68	-51.7	-59.6	4.1	8.45e-01	0	49	104	0	65	9325
2026-01-02 23:17:34.37	26.41	4.80	-50.4	-54.6	7.0	2.07e-01	0	49	0	5242880	63	5883
2026-01-02 23:17:37.34	26.77	4.93	-48.1	-50.3	11.5	1.74e-03	0	49	0	22020096	59	4510
2026-01-02 23:17:40.31	27.13	5.05	-46.2	-47.7	14.1	9.10e-06	0	49	0	38797312	55	4212
2026-01-02 23:17:43.27	27.49	5.18	-46.2	-47.7	14.1	2.20e-06	0	50	0	54525952	55	4205
2026-01-02 23:17:46.23	27.86	5.30	-45.9	-47.3	14.5	1.10e-06	0	50	0	71303168	55	4042
2026-01-02 23:17:49.20	28.23	5.42	-45.8	-47.2	14.6	2.20e-06	0	50	0	88080384	54	4209
2026-01-02 23:17:52.16	28.60	5.55	-45.8	-47.1	14.7	1.10e-06	0	50	0	104857600	54	4167
2026-01-02 23:17:55.13	28.98	5.67	-45.7	-47.0	14.9	0.00e+00	0	50	0	121634816	54	4129
2026-01-02 23:17:58.11	29.36	5.79	-45.7	-46.9	14.9	0.00e+00	0	50	0	138412032	54	4097
2026-01-02 23:18:01.09	29.74	5.91	-45.5	-46.7	15.2	0.00e+00	0	50	0	155189248	54	3996
2026-01-02 23:18:04.05	30.13	6.04	-45.4	-46.6	15.3	0.00e+00	0	50	0	171966464	53	4170
2026-01-02 23:18:07.01	30.51	6.16	-45.3	-46.5	15.4	0.00e+00	0	51	0	188743680	53	4111
2026-01-02 23:18:09.99	30.91	6.28	-45.4	-46.5	15.4	0.00e+00	0	51	0	205520896	53	4141
2026-01-02 23:18:12.96	31.30	6.40	-45.5	-46.7	15.3	0.00e+00	0	51	0	222298112	53	4211
2026-01-02 23:18:15.93	31.70	6.52	-45.6	-46.8	15.2	0.00e+00	0	51	0	239075328	53	4274
2026-01-02 23:18:18.90	32.10	6.63	-45.5	-46.7	15.3	0.00e+00	0	51	0	255852544	53	4225
2026-01-02 23:18:21.85	32.50	6.75	-45.6	-46.9	15.1	0.00e+00	0	51	0	272629760	53	4292
2026-01-02 23:18:24.82	32.91	6.87	-45.7	-47.0	15.0	0.00e+00	0	51	0	288358400	53	4366
2026-01-02 23:18:27.78	33.32	6.99	-45.2	-46.4	15.6	0.00e+00	0	51	0	305135616	53	4058
2026-01-02 23:18:30.74	33.73	7.10	-45.0	-46.1	15.9	0.00e+00	0	51	0	321912832	53	3957
2026-01-02 23:18:33.72	34.15	7.22	-45.1	-46.2	15.8	0.00e+00	0	52	0	338690048	53	3989
2026-01-02 23:18:36.69	34.57	7.33	-45.3	-46.4	15.6	0.00e+00	0	52	0	355467264	53	4093
2026-01-02 23:18:39.66	34.99	7.45	-45.5	-46.7	15.4	1.10e-06	0	52	0	372244480	53	4223
2026-01-02 23:18:42.63	35.42	7.56	-45.6	-46.8	15.3	0.00e+00	0	52	0	389021696	53	4273
2026-01-02 23:18:45.60	35.84	7.67	-45.4	-46.6	15.5	0.00e+00	0	52	0	405798912	53	4163
2026-01-02 23:18:48.56	36.28	7.78	-45.1	-46.1	16.0	0.00e+00	0	52	0	422576128	53	3958
2026-01-02 23:18:51.53	36.71	7.89	-44.9	-46.0	16.2	0.00e+00	0	52	0	439353344	52	4108
2026-01-02 23:18:54.49	37.15	8.00	-45.1	-46.1	16.0	0.00e+00	0	52	0	455081984	52	4187
2026-01-02 23:18:57.46	37.59	8.11	-45.2	-46.3	15.8	0.00e+00	0	52	0	472907776	52	4284
2026-01-02 23:19:00.41	38.03	8.22	-45.1	-46.2	16.0	0.00e+00	0	52	0	488636416	52	4216
2026-01-02 23:19:03.37	38.48	8.32	-45.2	-46.4	15.8	0.00e+00	0	53	0	505413632	52	4296
2026-01-02 23:19:06.35	38.93	8.43	-45.0	-46.0	16.1	0.00e+00	0	52	0	522190848	52	4145
2026-01-02 23:19:09.31	39.39	8.53	-45.2	-46.3	15.9	0.00e+00	0	53	0	538968064	52	4279
2026-01-02 23:19:12.28	39.85	8.64	-45.1	-46.2	16.0	0.00e+00	0	53	0	555745280	52	4214
2026-01-02 23:19:15.25	40.31	8.74	-44.8	-45.8	16.4	0.00e+00	0	53	0	572522496	52	4033
2026-01-02 23:19:18.22	40.77	8.84	-44.6	-45.6	16.6	0.00e+00	0	53	0	589299712	52	3950
2026-01-02 23:19:21.19	41.24	8.94	-44.5	-45.4	16.8	0.00e+00	0	53	0	606076928	52	3866
2026-01-02 23:19:24.17	41.71	9.04	-44.6	-45.6	16.6	0.00e+00	0	53	0	622854144	52	3928
2026-01-02 23:19:27.15	42.19	9.14	-44.7	-45.7	16.6	0.00e+00	0	53	0	639631360	52	3960
2026-01-02 23:19:30.10	42.66	9.23	-44.7	-45.8	16.5	0.00e+00	0	54	0	656408576	52	4005
2026-01-02 23:19:33.06	43.14	9.32	-44.5	-45.5	16.8	0.00e+00	0	53	0	673185792	52	3880
2026-01-02 23:19:36.03	43.62	9.42	-44.6	-45.6	16.7	0.00e+00	0	54	0	688914432	52	3934
2026-01-02 23:19:39.00	44.10	9.51	-44.8	-45.8	16.4	0.00e+00	0	53	0	705691648	52	4040
2026-01-02 23:19:41.97	44.59	9.60	-45.2	-46.3	16.0	0.00e+00	0	54	0	722468864	52	4253
2026-01-02 23:19:44.94	45.08	9.69	-45.1	-46.2	16.1	0.00e+00	0	54	0	739246080	52	4196
2026-01-02 23:19:47.91	45.58	9.78	-45.0	-46.1	16.2	0.00e+00	0	53	0	756023296	52	4159
2026-01-02 23:19:50.87	46.07	9.86	-45.3	-46.4	15.9	0.00e+00	0	54	0	772800512	52	4312
2026-01-02 23:19:53.84	46.57	9.95	-44.8	-45.9	16.4	0.00e+00	0	54	0	789577728	52	4063
2026-01-02 23:19:56.81	47.08	10.03	-44.7	-45.7	16.6	0.00e+00	0	54	0	806354944	52	3968
2026-01-02 23:19:59.78	47.58	10.11	-44.8	-45.8	16.5	0.00e+00	0	54	0	823132160	52	4011
2026-01-02 23:20:02.76	48.09	10.19	-44.6	-45.5	16.8	0.00e+00	0	54	0	839909376	52	3905
2026-01-02 23:20:05.71	48.60	10.27	-44.7	-45.7	16.6	0.00e+00	0	54	0	856686592	52	4001
2026-01-02 23:20:08.68	49.11	10.34	-44.9	-45.9	16.4	0.00e+00	0	54	0	872415232	52	4067
2026-01-02 23:20:11.65	49.63	10.41	-44.7	-45.8	16.6	0.00e+00	0	54	0	890241024	52	4011
2026-01-02 23:20:14.62	50.15	10.49	-44.8	-45.8	16.5	0.00e+00	0	54	0	905969664	52	4021
2026-01-02 23:20:17.58	50.67	10.56	-44.5	-45.5	16.8	0.00e+00	0	54	0	922746880	52	3872
2026-01-02 23:20:20.55	51.19	10.63	-44.6	-45.5	16.8	0.00e+00	0	54	0	939524096	52	3911
2026-01-02 23:20:23.51	51.72	10.69	-44.7	-45.6	16.7	0.00e+00	0	54	0	956301312	52	3938
2026-01-02 23:20:26.49	52.25	10.76	-44.1	-45.0	17.4	0.00e+00	0	55	0	973078528	51	3899
2026-01-02 23:20:29.44	52.77	10.82	-44.2	-45.1	17.3	0.00e+00	0	55	0	989855744	51	3928
2026-01-02 23:20:32.39	53.30	10.88	-44.2	-45.0	17.4	0.00e+00	0	55	0	1006632960	51	3901
2026-01-02 23:20:35.37	53.84	10.94	-44.0	-44.9	17.5	0.00e+00	0	55	0	1023410176	51	3840
2026-01-02 23:20:38.32	54.37	10.99	-44.3	-45.2	17.2	0.00e+00	0	55	0	1040187392	51	3977
2026-01-02 23:20:41.28	54.91	11.05	-44.4	-45.3	17.1	0.00e+00	0	55	0	1055916032	51	4045
2026-01-02 23:20:44.24	55.45	11.10	-44.4	-45.3	17.1	0.00e+00	0	55	0	1072693248	51	4045
2026-01-02 23:20:47.21	55.99	11.15	-44.2	-45.1	17.3	0.00e+00	0	55	0	1089470464	51	3952
2026-01-02 23:20:50.18	56.53	11.20	-44.3	-45.2	17.3	0.00e+00	0	55	0	1106247680	51	3985
2026-01-02 23:20:53.15	57.08	11.24	-44.5	-45.4	17.1	0.00e+00	0	55	0	1123024896	51	4071
2026-01-02 23:20:56.11	57.63	11.29	-44.8	-45.8	16.7	0.00e+00	0	55	0	1139802112	51	4251
2026-01-02 23:20:59.08	58.17	11.33	-44.9	-45.8	16.6	0.00e+00	0	55	0	1156579328	51	4291
2026-01-02 23:21:02.05	58.73	11.37	-44.7	-45.7	16.8	0.00e+00	0	55	0	1173356544	51	4221
2026-01-02 23:21:05.02	59.28	11.40	-44.4	-45.4	17.1	0.00e+00	0	55	0	1190133760	51	4072
2026-01-02 23:21:07.98	59.83	11.44	-44.2	-45.1	17.3	0.00e+00	0	55	0	1206910976	51	3956
2026-01-02 23:21:10.96	60.39	11.47	-44.7	-45.6	16.8	0.00e+00	0	55	0	1223688192	51	4185
2026-01-02 23:21:13.93	60.94	11.50	-44.1	-45.0	17.5	0.00e+00	0	55	0	1240465408	51	3877
2026-01-02 23:21:16.89	61.50	11.53	-44.4	-45.3	17.2	0.00e+00	0	55	0	1256194048	51	4022
2026-01-02 23:21:19.86	62.05	11.55	-44.5	-45.5	17.0	0.00e+00	0	55	0	1272971264	51	4113
2026-01-02 23:21:22.82	62.61	11.57	-44.7	-45.7	16.8	0.00e+00	0	55	0	1289748480	51	4222
2026-01-02 23:21:25.77	63.17	11.59	-44.3	-45.1	17.3	0.00e+00	0	55	0	1306525696	51	3958
2026-01-02 23:21:28.74	63.73	11.61	-44.0	-44.9	17.5	0.00e+00	0	55	0	1323302912	51	3860
2026-01-02 23:21:31.68	64.28	11.63	-44.0	-44.9	17.6	0.00e+00	0	55	0	1340080128	51	3830
2026-01-02 23:21:34.65	64.84	11.64	-44.1	-45.0	17.4	0.00e+00	0	55	0	1356857344	51	3884
2026-01-02 23:21:37.62	65.41	11.65	-43.7	-45.0	17.5	0.00e+00	0	55	0	1373634560	50	4106
2026-01-02 23:21:40.58	65.97	11.66	-44.0	-45.2	17.3	0.00e+00	0	56	0	1389363200	50	4220
2026-01-02 23:21:43.56	66.53	11.66	-44.3	-45.2	17.2	0.00e+00	0	55	0	1407188992	50	4237
2026-01-02 23:21:46.53	67.09	11.67	-44.4	-45.4	17.0	0.00e+00	0	56	0	1422917632	50	4321
2026-01-02 23:21:49.48	67.65	11.67	-44.4	-45.4	17.1	0.00e+00	0	56	0	1439694848	50	4295
2026-01-02 23:21:52.46	68.22	11.66	-44.3	-45.2	17.3	0.00e+00	0	56	0	1456472064	50	4221
2026-01-02 23:21:55.43	68.78	11.66	-44.3	-45.3	17.2	0.00e+00	0	56	0	1473249280	51	4007
2026-01-02 23:21:58.40	69.34	11.65	-44.3	-45.2	17.3	0.00e+00	0	56	0	1490026496	51	3965
2026-01-02 23:22:01.38	69.91	11.64	-44.5	-45.5	17.0	0.00e+00	0	56	0	1506803712	51	4109
2026-01-02 23:22:04.34	70.47	11.63	-44.1	-44.9	17.6	0.00e+00	0	55	0	1523580928	51	3866
2026-01-02 23:22:07.31	71.03	11.62	-44.6	-45.5	16.9	0.00e+00	0	56	0	1540358144	51	4140
2026-01-02 23:22:10.29	71.59	11.60	-44.5	-45.5	17.0	0.00e+00	0	56	0	1557135360	51	4115
2026-01-02 23:22:13.27	72.15	11.58	-44.8	-45.8	16.7	0.00e+00	0	55	0	1573912576	51	4273
2026-01-02 23:22:16.23	72.71	11.56	-44.2	-45.1	17.4	0.00e+00	0	56	0	1590689792	51	3925
2026-01-02 23:22:19.19	73.27	11.54	-44.3	-45.2	17.3	0.00e+00	0	56	0	1607467008	51	4003
2026-01-02 23:22:22.17	73.83	11.51	-44.1	-45.0	17.5	0.00e+00	0	56	0	1624244224	51	3878
2026-01-02 23:22:25.15	74.39	11.48	-44.3	-45.2	17.2	0.00e+00	0	56	0	1641021440	51	3996
2026-01-02 23:22:28.11	74.94	11.45	-44.6	-45.6	16.8	0.00e+00	0	56	0	1657798656	51	4172
2026-01-02 23:22:31.08	75.49	11.42	-44.7	-45.7	16.8	0.00e+00	0	56	0	1673527296	51	4195
2026-01-02 23:22:34.05	76.05	11.38	-44.7	-45.7	16.7	0.00e+00	0	56	0	1690304512	52	3988
2026-01-02 23:22:37.01	76.60	11.34	-44.1	-45.0	17.4	0.00e+00	0	56	0	1707081728	51	3887
2026-01-02 23:22:39.97	77.15	11.30	-44.2	-45.1	17.4	0.00e+00	0	56	0	1723858944	51	3925
2026-01-02 23:22:42.94	77.70	11.26	-44.2	-45.1	17.4	0.00e+00	0	56	0	1740636160	51	3924
2026-01-02 23:22:45.90	78.24	11.22	-44.4	-45.3	17.2	0.00e+00	0	56	0	1757413376	51	4028
2026-01-02 23:22:48.87	78.79	11.17	-44.6	-45.5	17.0	0.00e+00	0	56	0	1774190592	51	4120
2026-01-02 23:22:51.83	79.33	11.12	-44.7	-45.8	16.7	0.00e+00	0	56	0	1790967808	51	4270
2026-01-02 23:22:54.80	79.87	11.07	-44.9	-46.0	16.5	0.00e+00	0	56	0	1807745024	51	4343
2026-01-02 23:22:57.77	80.41	11.01	-44.8	-45.8	16.6	0.00e+00	0	56	0	1824522240	51	4265
2026-01-02 23:23:00.72	80.95	10.96	-44.7	-45.7	16.7	0.00e+00	0	56	0	1840250880	51	4231
2026-01-02 23:23:03.68	81.48	10.90	-44.7	-45.7	16.8	0.00e+00	0	56	0	1857028096	51	4211
2026-01-02 23:23:06.64	82.02	10.84	-44.4	-45.4	16.9	0.00e+00	0	56	0	1873805312	51	4079
2026-01-02 23:23:09.62	82.55	10.78	-44.6	-45.6	16.7	0.00e+00	0	56	0	1890582528	51	4160
2026-01-02 23:23:12.59	83.08	10.72	-44.7	-45.8	16.6	0.00e+00	0	56	0	1907359744	51	4245
2026-01-02 23:23:15.56	83.61	10.65	-44.7	-45.8	16.6	0.00e+00	0	56	0	1924136960	51	4247
2026-01-02 23:23:18.52	84.13	10.58	-44.9	-45.9	16.5	0.00e+00	0	56	0	1940914176	51	4327
2026-01-02 23:23:21.47	84.65	10.51	-44.6	-45.7	16.6	0.00e+00	0	56	0	1957691392	52	3963
2026-01-02 23:23:24.44	85.17	10.44	-44.6	-45.6	16.7	0.00e+00	0	56	0	1974468608	52	3933
2026-01-02 23:23:27.39	85.69	10.37	-44.6	-45.7	16.7	0.00e+00	0	56	0	1990197248	52	3959
2026-01-02 23:23:30.36	86.21	10.29	-44.7	-45.7	16.7	0.00e+00	0	56	0	2006974464	51	4219
2026-01-02 23:23:33.32	86.72	10.22	-44.7	-45.7	16.6	0.00e+00	0	56	0	2023751680	51	4235
2026-01-02 23:23:36.28	87.23	10.14	-44.5	-45.5	16.9	0.00e+00	0	56	0	2040528896	51	4108
2026-01-02 23:23:39.25	87.74	10.06	-44.5	-45.4	16.9	0.00e+00	0	56	0	2057306112	51	4094
2026-01-02 23:23:42.22	88.24	9.97	-44.5	-45.5	16.7	0.00e+00	0	56	0	2074083328	51	4138
2026-01-02 23:23:45.19	88.74	9.89	-44.7	-45.7	16.6	0.00e+00	0	56	0	2090860544	51	4227
2026-01-02 23:23:48.16	89.24	9.80	-44.8	-45.8	16.5	0.00e+00	0	56	0	2107637760	52	4039
2026-01-02 23:23:51.13	89.74	9.72	-44.8	-45.9	16.3	0.00e+00	0	56	0	2124414976	52	4074
2026-01-02 23:23:54.09	90.23	9.63	-45.1	-46.2	16.0	0.00e+00	0	57	0	2141192192	52	4236
2026-01-02 23:23:57.04	90.72	9.54	-44.8	-45.9	16.3	0.00e+00	0	56	0	2156920832	52	4079
2026-01-02 23:24:00.00	91.21	9.45	-44.6	-45.6	16.6	0.00e+00	0	56	0	2174746624	52	3942
2026-01-02 23:24:02.98	91.70	9.35	-44.8	-45.8	16.4	0.00e+00	0	56	0	2190475264	52	4049
2026-01-02 23:24:05.96	92.18	9.26	-45.0	-46.2	16.1	0.00e+00	0	56	0	2207252480	52	4213
2026-01-02 23:24:08.92	92.66	9.16	-45.0	-46.1	16.1	0.00e+00	0	56	0	2224029696	52	4178
2026-01-02 23:24:11.88	93.13	9.07	-45.1	-46.2	16.0	0.00e+00	0	56	0	2240806912	52	4220
2026-01-02 23:24:14.86	93.61	8.97	-45.0	-46.1	16.2	0.00e+00	0	57	0	2257584128	52	4177
2026-01-02 23:24:17.82	94.08	8.87	-45.0	-46.1	16.1	0.00e+00	0	56	0	2274361344	52	4149
2026-01-02 23:24:20.78	94.54	8.77	-45.0	-46.1	16.1	0.00e+00	0	56	0	2291138560	52	4172
2026-01-02 23:24:23.74	95.00	8.67	-45.0	-46.2	16.0	0.00e+00	0	57	0	2307915776	52	4210
2026-01-02 23:24:26.71	95.47	8.56	-44.9	-46.1	16.1	0.00e+00	0	56	0	2324692992	52	4146
2026-01-02 23:24:29.69	95.92	8.46	-44.9	-46.0	16.2	0.00e+00	0	57	0	2341470208	52	4128
2026-01-02 23:24:32.66	96.38	8.35	-45.3	-46.4	15.8	0.00e+00	0	57	0	2358247424	52	4310
2026-01-02 23:24:35.63	96.83	8.24	-45.7	-47.0	15.2	0.00e+00	0	57	0	2375024640	53	4352
2026-01-02 23:24:38.60	97.28	8.14	-45.6	-46.9	15.3	1.10e-06	0	56	0	2391801856	53	4315
2026-01-02 23:24:41.57	97.72	8.03	-45.8	-47.1	15.1	0.00e+00	0	57	0	2407530496	53	4406
2026-01-02 23:24:44.54	98.17	7.92	-45.8	-47.1	15.1	0.00e+00	0	57	0	2424307712	53	4423
2026-01-02 23:24:47.50	98.60	7.81	-45.5	-46.7	15.4	1.10e-06	0	57	0	2441084928	53	4215
2026-01-02 23:24:50.47	99.04	7.70	-45.3	-46.5	15.6	0.00e+00	0	57	0	2457862144	53	4129
2026-01-02 23:24:53.42	99.47	7.58	-45.3	-46.5	15.6	0.00e+00	0	57	0	2474639360	53	4134
2026-01-02 23:24:56.39	99.90	7.47	-45.5	-46.7	15.4	0.00e+00	0	57	0	2491416576	53	4232
2026-01-02 23:24:59.36	100.32	7.36	-45.7	-47.0	15.2	0.00e+00	0	57	0	2508193792	53	4385
2026-01-02 23:25:02.32	100.74	7.24	-45.7	-47.0	15.1	0.00e+00	0	57	0	2524971008	53	4368
2026-01-02 23:25:05.27	101.16	7.13	-45.5	-46.7	15.4	1.10e-06	0	57	0	2541748224	53	4231
2026-01-02 23:25:08.25	101.58	7.01	-45.6	-46.9	15.3	0.00e+00	0	57	0	2558525440	53	4296
2026-01-02 23:25:11.23	101.99	6.89	-45.7	-47.0	15.1	0.00e+00	0	57	0	2574254080	53	4377
2026-01-02 23:25:14.20	102.40	6.77	-45.9	-47.3	14.8	1.10e-06	0	57	0	2592079872	53	4501
2026-01-02 23:25:17.18	102.81	6.65	-46.0	-47.4	14.7	0.00e+00	0	57	0	2607808512	54	4307
2026-01-02 23:25:20.13	103.21	6.53	-46.1	-47.5	14.6	1.10e-06	0	57	0	2624585728	54	4350
2026-01-02 23:25:23.10	103.61	6.41	-45.8	-47.1	15.0	0.00e+00	0	57	0	2641362944	54	4177
2026-01-02 23:25:26.07	104.01	6.29	-45.5	-46.8	15.2	1.10e-06	0	57	0	2658140160	54	4016
2026-01-02 23:25:29.05	104.41	6.17	-45.7	-47.0	15.0	0.00e+00	0	57	0	2674917376	54	4142
2026-01-02 23:25:32.00	104.79	6.05	-46.0	-47.4	14.6	1.10e-06	0	57	0	2691694592	54	4318
2026-01-02 23:25:34.96	105.18	5.93	-46.1	-47.5	14.4	2.20e-06	0	57	0	2708471808	54	4387
2026-01-02 23:25:37.92	105.56	5.81	-46.1	-47.5	14.5	1.10e-06	0	57	0	2725249024	54	4364
2026-01-02 23:25:40.89	105.94	5.68	-45.9	-47.3	14.6	0.00e+00	0	57	0	2742026240	54	4288
2026-01-02 23:25:43.86	106.32	5.56	-45.9	-47.2	14.7	0.00e+00	0	57	0	2758803456	54	4230
2026-01-02 23:25:46.83	106.70	5.44	-46.0	-47.4	14.5	0.00e+00	0	57	0	2774532096	54	4333
2026-01-02 23:25:49.79	107.07	5.31	-46.2	-47.6	14.3	3.40e-06	0	57	0	2791309312	54	4438
2026-01-02 23:25:52.76	107.44	5.19	-46.3	-47.7	14.2	3.40e-06	0	57	0	2808086528	54	4484
2026-01-02 23:25:55.72	107.80	5.06	-46.3	-47.8	14.1	3.40e-06	0	57	0	2824863744	54	4504
2026-01-02 23:25:58.68	108.17	4.94	-52.5	-63.3	3.8	8.48e-01	0	57	104	2832203776	66	13550
2026-01-02 23:26:01.66	108.53	4.81	-52.8	-63.7	3.8	8.46e-01	0	57	104	2832203776	67	13304
2026-01-02 23:26:04.63	108.89	4.68	-53.0	-63.8	3.8	8.46e-01	0	57	104	2832203776	67	13501
2026-01-02 23:26:07.60	109.24	4.56	-53.2	-64.0	3.8	8.45e-01	0	57	104	2832203776	68	12983
2026-01-02 23:26:10.57	109.59	4.43	-53.2	-64.0	3.8	8.45e-01	0	57	104	2832203776	68	13060
2026-01-02 23:26:13.54	109.94	4.30	-53.3	-64.1	3.8	8.45e-01	0	57	104	2832203776	68	13159
2026-01-02 23:26:16.51	110.29	4.18	-53.1	-64.1	3.8	8.45e-01	0	57	104	2832203776	68	13192
2026-01-02 23:26:19.47	110.63	4.05	-53.4	-64.1	3.8	8.46e-01	0	57	104	2832203776	68	13215
2026-01-02 23:26:22.43	110.97	3.92	-53.4	-64.2	3.8	8.45e-01	0	57	104	2832203776	68	13267
2026-01-02 23:26:25.39	111.30	3.79	-53.3	-64.1	3.8	8.46e-01	0	57	104	2832203776	68	13234
2026-01-02 23:26:28.34	111.63	3.67	-53.1	-64.2	3.8	8.46e-01	0	57	104	2832203776	68	13274
2026-01-02 23:26:31.31	111.97	3.54	-53.3	-64.2	3.8	8.47e-01	0	57	104	2832203776	68	13274
2026-01-02 23:26:34.27	112.29	3.41	-53.3	-64.1	3.8	8.45e-01	0	57	104	2832203776	68	13253
2026-01-02 23:26:37.25	112.62	3.28	-53.3	-64.1	3.8	8.46e-01	0	57	104	2832203776	68	13163
2026-01-02 23:26:40.22	112.94	3.15	-53.1	-64.1	3.8	8.45e-01	0	57	104	2832203776	68	13233
2026-01-02 23:26:43.18	113.26	3.02	-53.4	-64.1	3.8	8.46e-01	0	57	104	2832203776	68	13221

#Closed at: 2026-01-02 23:26:45
#Recorded file [2832 MB]: D:/Data/31026_260103_022557.dat