passes_logs/2026/01/02/R3.0SM8_Murmansk_STILSPACE/R3.0SM8_Murmansk_STILSPACE__20260102_012547_NOAA_21_JPSS-2_rec.log

#Pass ID: 20260102_012547_NOAA 21 (JPSS-2)
#Satellite: NOAA 21 (JPSS-2)
#Configuration: NOAA-21
#almurnet v.1.7.20240730
#Start time: 2026-01-02 01:32:47

#Version: 2.2.20231116
#Station: R3.0SM8_Murmansk_STILSPACE
#Location: 33.092731 lon 68.902999 lat
#TLE: 1 54234U 22150A   26001.26806856  .00000185  00000+0  10843-3 0  9990
#TLE: 2 54234  98.7484 302.3349 0001277 353.3887   6.7272 14.19530660162860

#Time	Az	El	Level	Level2	SNR	BER	BlckErr	Temp	State	Recorded	gain1	gain2
2026-01-02 01:32:47.24	301.63	61.30	-52.6	-62.9	3.8	8.45e-01	0	58	0	0	67	12029
2026-01-02 01:32:49.21	299.77	61.22	-52.9	-64.4	3.8	1.49e+00	0	58	104	0	68	13631
2026-01-02 01:32:51.20	297.90	61.10	-52.9	-64.4	3.8	1.49e+00	0	58	104	0	68	13683
2026-01-02 01:32:53.19	296.05	60.96	-52.7	-64.4	3.8	1.49e+00	0	58	104	0	68	13678
2026-01-02 01:32:55.17	294.23	60.79	-52.8	-64.3	3.8	1.49e+00	0	58	104	0	68	13554
2026-01-02 01:32:57.15	292.44	60.60	-52.8	-64.4	3.8	1.49e+00	0	58	104	0	68	13616
2026-01-02 01:32:59.13	290.67	60.39	-52.8	-64.4	3.8	1.49e+00	0	58	104	0	68	13631
2026-01-02 01:33:01.10	288.95	60.15	-52.8	-64.3	3.8	1.49e+00	0	58	104	0	68	13535
2026-01-02 01:33:03.07	287.26	59.89	-52.9	-64.4	3.8	1.49e+00	0	58	104	0	68	13603
2026-01-02 01:33:05.05	285.60	59.61	-52.9	-64.4	3.8	1.49e+00	0	58	104	0	68	13582
2026-01-02 01:33:07.03	283.97	59.31	-52.9	-64.4	3.8	1.49e+00	0	58	104	0	68	13657
2026-01-02 01:33:09.01	282.38	58.99	-52.9	-64.4	3.8	1.49e+00	0	58	104	0	68	13609
2026-01-02 01:33:11.00	280.82	58.64	-52.9	-64.4	3.8	1.49e+00	0	58	104	0	68	13572
2026-01-02 01:33:12.98	279.32	58.29	-52.8	-64.4	3.8	1.49e+00	0	58	104	0	68	13573
2026-01-02 01:33:14.95	277.85	57.92	-52.8	-64.4	3.8	1.49e+00	0	58	104	0	68	13586
2026-01-02 01:33:16.94	276.42	57.53	-52.7	-64.3	3.8	1.49e+00	0	58	104	0	68	13536
2026-01-02 01:33:18.91	275.04	57.13	-52.9	-64.3	3.8	1.49e+00	0	58	104	0	68	13550
2026-01-02 01:33:20.88	273.70	56.72	-52.8	-64.3	3.8	1.49e+00	0	58	104	0	68	13451
2026-01-02 01:33:22.85	272.40	56.30	-52.8	-64.3	3.8	1.49e+00	0	58	104	0	68	13465
2026-01-02 01:33:24.84	271.13	55.86	-52.8	-64.3	3.8	1.49e+00	0	58	104	0	68	13546
2026-01-02 01:33:26.81	269.91	55.42	-52.9	-64.2	3.8	1.49e+00	0	58	104	0	68	13305
2026-01-02 01:33:28.79	268.72	54.96	-52.8	-64.3	3.8	1.49e+00	0	58	104	0	68	13440
2026-01-02 01:33:30.76	267.58	54.50	-52.8	-64.3	3.8	1.49e+00	0	58	104	0	68	13429
2026-01-02 01:33:32.74	266.47	54.03	-52.8	-64.1	3.8	1.49e+00	0	58	104	0	68	13208
2026-01-02 01:33:34.73	265.39	53.56	-52.7	-62.9	3.8	1.49e+00	0	58	104	0	68	11507
2026-01-02 01:33:36.70	264.35	53.08	-51.1	-55.9	7.0	2.80e-01	0	58	0	1048576	65	6087
2026-01-02 01:33:38.68	263.34	52.59	-45.8	-46.9	16.1	0.00e+00	0	58	0	6291456	54	4081
2026-01-02 01:33:40.65	262.37	52.11	-45.5	-46.5	16.5	0.00e+00	0	58	0	12582912	52	4376
2026-01-02 01:33:42.63	261.43	51.61	-46.4	-47.6	15.4	0.00e+00	0	58	0	18874368	55	4178
2026-01-02 01:33:44.62	260.51	51.11	-47.3	-48.8	14.3	7.00e-07	0	58	0	25165824	56	4541
2026-01-02 01:33:46.60	259.63	50.62	-47.0	-48.4	14.7	0.00e+00	0	58	0	31457280	56	4303
2026-01-02 01:33:48.56	258.79	50.12	-47.4	-48.9	14.2	7.00e-07	0	58	0	37748736	56	4594
2026-01-02 01:33:50.55	257.96	49.62	-48.7	-51.0	12.2	1.52e-04	0	58	0	44040192	59	4878
2026-01-02 01:33:52.53	257.16	49.12	-49.5	-52.2	10.9	2.20e-03	0	58	0	50331648	60	5316
2026-01-02 01:33:54.50	256.39	48.62	-49.2	-51.8	11.2	2.42e-03	0	58	0	56623104	61	4787
2026-01-02 01:33:56.48	255.64	48.12	-47.3	-48.8	14.2	3.00e-06	0	58	0	62914560	57	4285
2026-01-02 01:33:58.46	254.92	47.61	-45.9	-47.0	16.0	0.00e+00	0	58	0	68157440	54	4128
2026-01-02 01:34:00.44	254.22	47.11	-47.9	-49.7	13.3	5.30e-06	0	58	0	74448896	57	4732
2026-01-02 01:34:02.43	253.54	46.61	-48.8	-51.2	11.9	5.42e-04	0	58	0	80740352	60	4737
2026-01-02 01:34:04.41	252.88	46.12	-47.4	-49.1	14.0	9.90e-06	0	58	0	87031808	58	4166
2026-01-02 01:34:06.40	252.24	45.62	-47.0	-48.5	14.6	1.50e-06	0	58	0	93323264	57	4123
2026-01-02 01:34:08.38	251.62	45.13	-46.9	-48.2	14.9	7.00e-07	0	58	0	99614720	56	4240
2026-01-02 01:34:10.35	251.03	44.64	-47.3	-48.9	14.2	7.00e-07	0	58	0	105906176	56	4598
2026-01-02 01:34:12.33	250.45	44.15	-48.8	-51.1	12.0	1.26e-04	0	58	0	112197632	59	4973
2026-01-02 01:34:14.31	249.89	43.67	-48.2	-50.0	12.6	2.51e-04	0	58	0	118489088	59	4385
2026-01-02 01:34:16.29	249.34	43.18	-46.8	-48.1	14.7	0.00e+00	0	58	0	124780544	56	4189
2026-01-02 01:34:18.27	248.81	42.71	-47.0	-48.5	14.5	0.00e+00	0	58	0	130023424	56	4366
2026-01-02 01:34:20.25	248.30	42.23	-48.1	-50.0	13.1	3.35e-05	0	58	0	136314880	58	4640
2026-01-02 01:34:22.24	247.80	41.76	-47.3	-48.9	14.3	2.20e-06	0	58	0	142606336	57	4292
2026-01-02 01:34:24.21	247.32	41.29	-46.9	-48.4	14.7	0.00e+00	0	58	0	148897792	57	4068
2026-01-02 01:34:26.19	246.85	40.83	-46.7	-48.0	15.1	0.00e+00	0	58	0	155189248	56	4134
2026-01-02 01:34:28.17	246.39	40.36	-45.7	-46.8	16.2	0.00e+00	0	58	0	161480704	54	4031
2026-01-02 01:34:30.13	245.95	39.91	-44.9	-45.9	17.0	0.00e+00	0	58	0	167772160	53	3829
2026-01-02 01:34:32.12	245.52	39.46	-45.6	-46.7	16.3	0.00e+00	0	58	0	174063616	53	4211
2026-01-02 01:34:34.09	245.10	39.01	-47.0	-48.5	14.6	1.50e-06	0	58	0	180355072	55	4616
2026-01-02 01:34:36.07	244.69	38.57	-47.7	-49.4	13.8	2.20e-06	0	58	0	186646528	57	4557
2026-01-02 01:34:38.07	244.29	38.12	-47.5	-49.2	14.0	1.50e-06	0	58	0	191889408	57	4443
2026-01-02 01:34:40.04	243.91	37.69	-46.8	-48.2	14.9	7.00e-07	0	58	0	198180864	56	4241
2026-01-02 01:34:42.02	243.53	37.25	-46.1	-47.3	15.7	0.00e+00	0	58	0	204472320	55	4024
2026-01-02 01:34:44.00	243.17	36.83	-45.9	-47.1	16.0	0.00e+00	0	58	0	210763776	54	4163
2026-01-02 01:34:45.98	242.81	36.40	-45.8	-47.1	15.9	0.00e+00	0	58	0	217055232	54	4154
2026-01-02 01:34:47.97	242.46	35.98	-46.4	-47.8	15.1	0.00e+00	0	58	0	223346688	54	4509
2026-01-02 01:34:49.95	242.12	35.56	-45.9	-47.1	15.9	0.00e+00	0	58	0	229638144	54	4179
2026-01-02 01:34:51.93	241.79	35.15	-46.1	-47.3	15.7	0.00e+00	0	58	0	235929600	54	4289
2026-01-02 01:34:53.90	241.47	34.75	-45.9	-47.1	16.0	0.00e+00	0	58	0	242221056	54	4162
2026-01-02 01:34:55.88	241.16	34.34	-45.5	-46.7	16.3	0.00e+00	0	58	0	248512512	54	3964
2026-01-02 01:34:57.86	240.86	33.95	-44.8	-45.8	17.2	0.00e+00	0	58	0	254803968	52	4009
2026-01-02 01:34:59.84	240.56	33.55	-45.1	-46.1	16.8	0.00e+00	0	58	0	260046848	52	4173
2026-01-02 01:35:01.82	240.27	33.16	-45.5	-46.7	16.2	0.00e+00	0	58	0	266338304	53	4205
2026-01-02 01:35:03.79	239.99	32.78	-45.6	-46.8	16.2	0.00e+00	0	58	0	272629760	53	4262
2026-01-02 01:35:05.77	239.71	32.39	-44.8	-45.8	17.2	0.00e+00	0	58	0	278921216	52	4026
2026-01-02 01:35:07.75	239.44	32.02	-44.4	-45.3	17.6	0.00e+00	0	58	0	285212672	52	3800
2026-01-02 01:35:09.73	239.17	31.64	-44.3	-45.2	17.7	0.00e+00	0	58	0	291504128	51	3988
2026-01-02 01:35:11.71	238.92	31.27	-44.4	-45.2	17.8	0.00e+00	0	58	0	297795584	51	3980
2026-01-02 01:35:13.69	238.66	30.91	-44.2	-45.0	17.9	0.00e+00	0	58	0	304087040	51	3909
2026-01-02 01:35:15.67	238.42	30.54	-44.4	-45.2	17.7	0.00e+00	0	58	0	310378496	51	4002
2026-01-02 01:35:17.64	238.18	30.19	-44.4	-45.3	17.7	0.00e+00	0	58	0	315621376	51	4034
2026-01-02 01:35:19.62	237.94	29.83	-44.6	-45.4	17.5	0.00e+00	0	58	0	321912832	51	4097
2026-01-02 01:35:21.60	237.71	29.48	-44.7	-45.6	17.4	0.00e+00	0	58	0	328204288	51	4190
2026-01-02 01:35:23.57	237.49	29.14	-45.0	-46.0	17.1	0.00e+00	0	58	0	334495744	51	4362
2026-01-02 01:35:25.55	237.27	28.79	-44.9	-45.9	17.1	0.00e+00	0	58	0	340787200	52	4083
2026-01-02 01:35:27.53	237.05	28.45	-45.0	-46.0	16.9	0.00e+00	0	58	0	347078656	52	4139
2026-01-02 01:35:29.50	236.84	28.12	-45.2	-46.2	16.7	0.00e+00	0	58	0	353370112	52	4232
2026-01-02 01:35:31.47	236.64	27.79	-44.7	-45.7	17.2	0.00e+00	0	58	0	359661568	52	3987
2026-01-02 01:35:33.45	236.44	27.46	-44.6	-45.5	17.4	0.00e+00	0	58	0	365953024	52	3892
2026-01-02 01:35:35.41	236.24	27.14	-44.5	-45.5	17.5	0.00e+00	0	58	0	371195904	51	4112
2026-01-02 01:35:37.38	236.05	26.82	-44.6	-45.6	17.4	0.00e+00	0	58	0	377487360	51	4169
2026-01-02 01:35:39.36	235.86	26.50	-44.1	-45.0	18.0	0.00e+00	0	58	0	383778816	51	3898
2026-01-02 01:35:41.36	235.67	26.18	-43.4	-44.2	18.7	0.00e+00	0	58	0	390070272	49	3972
2026-01-02 01:35:43.34	235.49	25.87	-43.3	-44.0	18.9	0.00e+00	0	58	0	396361728	49	3884
2026-01-02 01:35:45.31	235.31	25.56	-43.3	-44.1	18.7	0.00e+00	0	58	0	402653184	49	3933
2026-01-02 01:35:47.30	235.13	25.25	-43.4	-44.1	18.7	0.00e+00	0	58	0	408944640	49	3949
2026-01-02 01:35:49.29	234.96	24.95	-43.9	-44.7	18.2	0.00e+00	0	58	0	415236096	49	4208
2026-01-02 01:35:51.26	234.79	24.65	-44.0	-44.8	18.1	0.00e+00	0	58	0	421527552	49	4270
2026-01-02 01:35:53.24	234.63	24.36	-44.2	-45.1	17.8	0.00e+00	0	58	0	427819008	50	4184
2026-01-02 01:35:55.22	234.47	24.06	-44.4	-45.3	17.6	0.00e+00	0	58	0	433061888	50	4286
2026-01-02 01:35:57.20	234.31	23.77	-44.5	-45.4	17.5	0.00e+00	0	58	0	439353344	50	4329
2026-01-02 01:35:59.18	234.15	23.49	-45.1	-46.0	16.9	0.00e+00	0	58	0	445644800	51	4385
2026-01-02 01:36:01.15	234.00	23.20	-44.4	-45.3	17.6	0.00e+00	0	58	0	451936256	51	4018
2026-01-02 01:36:03.14	233.85	22.92	-44.5	-45.4	17.5	0.00e+00	0	58	0	458227712	51	4073
2026-01-02 01:36:05.11	233.70	22.64	-44.5	-45.4	17.5	0.00e+00	0	58	0	464519168	51	4098
2026-01-02 01:36:07.10	233.56	22.37	-44.4	-45.3	17.6	0.00e+00	0	58	0	470810624	51	4040
2026-01-02 01:36:09.07	233.42	22.10	-44.4	-45.3	17.6	0.00e+00	0	58	0	477102080	51	4041
2026-01-02 01:36:11.06	233.28	21.82	-44.7	-45.7	17.2	0.00e+00	0	58	0	483393536	51	4199
2026-01-02 01:36:13.03	233.14	21.56	-44.7	-45.7	17.2	0.00e+00	0	58	0	488636416	51	4210
2026-01-02 01:36:15.01	233.01	21.29	-44.7	-45.7	17.1	0.00e+00	0	58	0	494927872	52	3992
2026-01-02 01:36:16.99	232.88	21.03	-44.4	-45.4	17.5	0.00e+00	0	58	0	501219328	51	4065
2026-01-02 01:36:18.96	232.75	20.77	-44.5	-45.4	17.4	0.00e+00	0	58	0	507510784	51	4094
2026-01-02 01:36:20.94	232.62	20.51	-44.5	-45.4	17.5	0.00e+00	0	58	0	513802240	51	4073
2026-01-02 01:36:22.91	232.50	20.26	-44.5	-45.5	17.4	0.00e+00	0	58	0	520093696	51	4114
2026-01-02 01:36:24.89	232.37	20.01	-44.6	-45.5	17.3	0.00e+00	0	58	0	526385152	51	4142
2026-01-02 01:36:26.87	232.25	19.76	-44.6	-45.6	17.2	0.00e+00	0	58	0	532676608	51	4185
2026-01-02 01:36:28.85	232.13	19.51	-44.2	-45.1	17.7	0.00e+00	0	58	0	538968064	51	3952
2026-01-02 01:36:30.81	232.02	19.27	-44.2	-45.1	17.6	0.00e+00	0	58	0	545259520	51	3953
2026-01-02 01:36:32.79	231.90	19.02	-44.3	-45.2	17.6	0.00e+00	0	58	0	550502400	51	3979
2026-01-02 01:36:34.77	231.79	18.78	-44.6	-45.6	17.2	0.00e+00	0	58	0	556793856	51	4158
2026-01-02 01:36:36.75	231.68	18.54	-44.7	-45.7	17.1	0.00e+00	0	58	0	563085312	51	4197
2026-01-02 01:36:38.73	231.57	18.31	-44.7	-45.7	17.1	0.00e+00	0	58	0	569376768	51	4194
2026-01-02 01:36:40.70	231.46	18.07	-44.8	-45.8	17.0	0.00e+00	0	58	0	575668224	51	4266
2026-01-02 01:36:42.68	231.36	17.84	-45.0	-46.1	16.6	0.00e+00	0	58	0	581959680	52	4178
2026-01-02 01:36:44.66	231.25	17.61	-45.4	-46.6	16.1	0.00e+00	0	58	0	588251136	52	4414
2026-01-02 01:36:46.63	231.15	17.38	-45.3	-46.5	16.2	0.00e+00	0	58	0	594542592	53	4105
2026-01-02 01:36:48.61	231.05	17.16	-45.3	-46.4	16.2	0.00e+00	0	58	0	600834048	53	4089
2026-01-02 01:36:50.59	230.95	16.93	-45.5	-46.7	15.9	0.00e+00	0	58	0	606076928	53	4215
2026-01-02 01:36:52.56	230.85	16.71	-45.4	-46.5	16.1	0.00e+00	0	58	0	612368384	53	4128
2026-01-02 01:36:54.54	230.76	16.49	-45.6	-46.9	15.7	0.00e+00	0	58	0	618659840	53	4294
2026-01-02 01:36:56.52	230.66	16.27	-45.7	-46.9	15.6	0.00e+00	0	58	0	624951296	53	4333
2026-01-02 01:36:58.50	230.57	16.06	-45.9	-47.3	15.3	0.00e+00	0	58	0	631242752	53	4496
2026-01-02 01:37:00.48	230.48	15.84	-45.9	-47.1	15.4	0.00e+00	0	58	0	637534208	54	4193
2026-01-02 01:37:02.46	230.38	15.63	-45.6	-46.9	15.7	0.00e+00	0	58	0	643825664	54	4052
2026-01-02 01:37:04.44	230.30	15.42	-45.6	-46.8	15.6	0.00e+00	0	58	0	650117120	54	4046
2026-01-02 01:37:06.43	230.21	15.21	-45.8	-47.1	15.4	0.00e+00	0	58	0	656408576	54	4169
2026-01-02 01:37:08.40	230.12	15.00	-45.3	-46.5	15.9	0.00e+00	0	58	0	662700032	53	4127
2026-01-02 01:37:10.37	230.04	14.80	-45.4	-46.6	15.9	0.00e+00	0	58	0	667942912	53	4155
2026-01-02 01:37:12.35	229.95	14.59	-45.7	-47.0	15.4	0.00e+00	0	58	0	674234368	53	4345
2026-01-02 01:37:14.34	229.87	14.39	-45.8	-47.1	15.3	0.00e+00	0	58	0	680525824	53	4433
2026-01-02 01:37:16.32	229.79	14.19	-45.8	-47.2	15.2	0.00e+00	0	58	0	686817280	53	4442
2026-01-02 01:37:18.29	229.71	13.99	-45.9	-47.2	15.1	0.00e+00	0	58	0	693108736	53	4479
2026-01-02 01:37:20.28	229.63	13.79	-46.0	-47.4	15.0	0.00e+00	0	58	0	699400192	54	4295
2026-01-02 01:37:22.25	229.55	13.59	-45.9	-47.3	15.1	0.00e+00	0	58	0	705691648	54	4245
2026-01-02 01:37:24.23	229.47	13.40	-45.7	-47.0	15.3	0.00e+00	0	57	0	711983104	54	4140
2026-01-02 01:37:26.21	229.40	13.20	-46.1	-47.5	14.8	0.00e+00	0	58	0	718274560	54	4351
2026-01-02 01:37:28.19	229.32	13.01	-46.0	-47.4	14.9	0.00e+00	0	58	0	723517440	54	4326
2026-01-02 01:37:30.16	229.25	12.82	-46.1	-47.5	14.8	0.00e+00	0	58	0	729808896	54	4372
2026-01-02 01:37:32.13	229.18	12.63	-46.2	-47.7	14.5	7.00e-07	0	58	0	736100352	54	4462
2026-01-02 01:37:34.12	229.11	12.44	-46.7	-48.4	13.8	1.50e-06	0	58	0	742391808	55	4569
2026-01-02 01:37:36.11	229.03	12.26	-46.8	-48.5	13.7	3.00e-06	0	58	0	748683264	55	4623
2026-01-02 01:37:38.09	228.96	12.07	-46.5	-48.0	14.1	3.00e-06	0	58	0	754974720	55	4389
2026-01-02 01:37:40.07	228.90	11.89	-46.5	-48.1	14.1	5.30e-06	0	58	0	761266176	55	4417
2026-01-02 01:37:42.05	228.83	11.71	-46.6	-48.2	14.0	6.10e-06	0	58	0	767557632	55	4448
2026-01-02 01:37:44.03	228.76	11.52	-46.5	-48.1	14.0	3.80e-06	0	58	0	773849088	55	4407
2026-01-02 01:37:46.00	228.70	11.35	-46.7	-48.3	13.8	4.50e-06	0	58	0	780140544	55	4532
2026-01-02 01:37:47.97	228.63	11.17	-46.6	-48.3	13.8	3.80e-06	0	58	0	785383424	55	4505
2026-01-02 01:37:49.97	228.57	10.99	-46.7	-48.4	13.6	6.80e-06	0	58	0	791674880	55	4589
2026-01-02 01:37:51.94	228.50	10.81	-47.2	-49.2	12.9	3.66e-05	0	58	0	797966336	56	4738
2026-01-02 01:37:53.91	228.44	10.64	-47.5	-49.5	12.6	7.24e-05	0	58	0	804257792	56	4877
2026-01-02 01:37:55.90	228.38	10.47	-47.5	-49.6	12.5	1.06e-04	0	58	0	810549248	56	4940
2026-01-02 01:37:57.87	228.32	10.29	-47.5	-49.6	12.4	1.45e-04	0	58	0	816840704	57	4695
2026-01-02 01:37:59.84	228.26	10.12	-47.6	-49.7	12.2	1.88e-04	0	58	0	823132160	57	4748
2026-01-02 01:38:01.82	228.20	9.95	-47.4	-49.4	12.6	1.07e-04	0	58	0	829423616	57	4559
2026-01-02 01:38:03.80	228.14	9.78	-47.4	-49.5	12.5	1.75e-04	0	58	0	835715072	57	4625
2026-01-02 01:38:05.77	228.08	9.62	-47.7	-49.9	12.0	2.84e-04	0	58	0	840957952	57	4852
2026-01-02 01:38:07.75	228.02	9.45	-48.0	-50.4	11.5	7.51e-04	0	58	0	847249408	57	5118
2026-01-02 01:38:09.74	227.97	9.28	-48.0	-50.5	11.3	1.17e-03	0	58	0	853540864	57	5212
2026-01-02 01:38:11.72	227.91	9.12	-48.2	-50.8	11.1	1.79e-03	0	58	0	859832320	58	5049
2026-01-02 01:38:13.70	227.86	8.95	-48.4	-51.1	10.7	3.40e-03	0	58	0	866123776	58	5260
2026-01-02 01:38:15.68	227.80	8.79	-48.0	-50.6	11.2	1.43e-03	0	58	0	872415232	58	4958
2026-01-02 01:38:17.67	227.75	8.63	-47.9	-50.4	11.5	1.03e-03	0	57	0	878706688	58	4816
2026-01-02 01:38:19.64	227.69	8.47	-48.0	-50.5	11.2	1.23e-03	0	58	0	884998144	58	4901
2026-01-02 01:38:21.61	227.64	8.31	-48.2	-50.9	10.8	2.84e-03	0	58	0	891289600	58	5137
2026-01-02 01:38:23.59	227.59	8.15	-48.1	-50.8	10.9	2.35e-03	0	58	0	897581056	58	5086
2026-01-02 01:38:25.56	227.54	8.00	-48.4	-51.1	10.5	4.17e-03	0	58	0	902823936	58	5272
2026-01-02 01:38:27.54	227.49	7.84	-48.5	-51.5	10.1	6.20e-03	0	58	0	909115392	58	5495
2026-01-02 01:38:29.51	227.44	7.68	-48.5	-51.6	10.0	7.82e-03	0	58	0	915406848	59	5226
2026-01-02 01:38:31.48	227.39	7.53	-48.6	-51.7	9.8	9.12e-03	0	58	0	921698304	59	5321
2026-01-02 01:38:33.45	227.34	7.38	-48.8	-52.0	9.5	1.33e-02	0	58	0	927989760	59	5488
2026-01-02 01:38:35.43	227.29	7.22	-48.8	-52.1	9.4	1.53e-02	0	58	0	934281216	59	5567
2026-01-02 01:38:37.41	227.25	7.07	-48.7	-52.0	9.5	1.51e-02	0	58	0	940572672	59	5498
2026-01-02 01:38:39.39	227.20	6.92	-48.9	-52.3	9.2	1.99e-02	0	58	0	946864128	59	5681
2026-01-02 01:38:41.37	227.15	6.77	-48.9	-52.4	9.0	2.40e-02	0	58	0	953155584	59	5776
2026-01-02 01:38:43.35	227.11	6.62	-48.9	-52.5	8.9	2.80e-02	0	58	0	959447040	59	5813
2026-01-02 01:38:45.33	227.06	6.47	-49.0	-53.0	8.3	4.71e-02	0	58	0	964689920	60	5840
2026-01-02 01:38:47.31	227.02	6.32	-49.1	-53.1	8.2	5.49e-02	0	58	0	970981376	60	5917
2026-01-02 01:38:49.30	226.97	6.18	-49.1	-53.3	8.0	6.55e-02	0	58	0	977272832	60	6009
2026-01-02 01:38:51.27	226.93	6.03	-49.2	-53.4	7.8	8.20e-02	0	58	0	983564288	60	6104
2026-01-02 01:38:53.25	226.88	5.88	-49.4	-54.0	7.3	1.28e-01	0	58	0	989855744	60	6533
2026-01-02 01:38:55.22	226.84	5.74	-49.5	-54.2	7.0	1.26e-01	0	58	0	996147200	60	6713
2026-01-02 01:38:57.20	226.80	5.60	-49.5	-54.3	6.9	1.82e-01	0	58	0	1002438656	61	6398
2026-01-02 01:38:59.19	226.76	5.45	-49.8	-55.3	6.1	2.97e-01	0	58	0	1008730112	61	7129
2026-01-02 01:39:01.17	226.71	5.31	-49.8	-55.5	5.9	3.17e-01	0	58	0	1015021568	61	7318
2026-01-02 01:39:03.15	226.67	5.17	-49.6	-55.0	6.3	2.57e-01	0	58	0	1021313024	61	6881
2026-01-02 01:39:05.14	226.63	5.03	-50.5	-60.4	3.8	6.83e-01	0	58	104	1026555904	63	11449
2026-01-02 01:39:07.12	226.59	4.89	-51.9	-63.6	3.8	1.49e+00	0	58	104	1026555904	65	14779
2026-01-02 01:39:09.10	226.55	4.75	-52.2	-63.8	3.8	1.49e+00	0	58	104	1026555904	66	14339
2026-01-02 01:39:11.08	226.51	4.61	-51.4	-63.0	3.8	1.49e+00	0	58	104	1026555904	65	13790
2026-01-02 01:39:13.05	226.48	4.47	-52.4	-64.0	3.8	1.49e+00	0	58	104	1026555904	66	14690
2026-01-02 01:39:15.04	226.44	4.33	-52.6	-64.1	3.8	1.49e+00	0	58	104	1026555904	67	13963
2026-01-02 01:39:17.01	226.40	4.20	-52.7	-64.1	3.8	1.49e+00	0	58	104	1026555904	67	14029
2026-01-02 01:39:18.99	226.36	4.06	-52.7	-64.1	3.8	1.49e+00	0	58	104	1026555904	67	14034
2026-01-02 01:39:20.97	226.32	3.93	-52.6	-64.2	3.8	1.49e+00	0	58	104	1026555904	67	14151
2026-01-02 01:39:22.94	226.29	3.79	-52.6	-64.2	3.8	1.49e+00	0	58	104	1026555904	67	14169
2026-01-02 01:39:24.92	226.25	3.66	-52.7	-64.2	3.8	1.49e+00	0	58	104	1026555904	67	14201
2026-01-02 01:39:26.88	226.22	3.53	-52.8	-64.2	3.8	1.49e+00	0	58	104	1026555904	67	14200
2026-01-02 01:39:28.86	226.18	3.39	-52.7	-64.3	3.8	1.49e+00	0	58	104	1026555904	67	14263
2026-01-02 01:39:30.83	226.15	3.26	-52.8	-64.3	3.8	1.49e+00	0	58	104	1026555904	67	14285
2026-01-02 01:39:32.81	226.11	3.13	-52.8	-64.3	3.8	1.49e+00	0	58	104	1026555904	67	14253
2026-01-02 01:39:34.80	226.08	3.00	-52.7	-64.3	3.8	1.49e+00	0	58	104	1026555904	67	14236
2026-01-02 01:39:36.78	226.04	2.87	-52.8	-64.3	3.8	1.49e+00	0	58	104	1026555904	67	14257

#Closed at: 2026-01-02 01:39:36
#Recorded file [1026 MB]: D:/Data/31026_260102_043904.dat