passes_logs/2026/01/02/R3.0SM8_Murmansk_STILSPACE/R3.0SM8_Murmansk_STILSPACE__20260102_094248_NOAA_21_JPSS-2_rec.log

#Pass ID: 20260102_094248_NOAA 21 (JPSS-2)
#Satellite: NOAA 21 (JPSS-2)
#Configuration: NOAA-21
#almurnet v.1.7.20240730
#Start time: 2026-01-02 09:47:30

#Version: 2.2.20231116
#Station: R3.0SM8_Murmansk_STILSPACE
#Location: 33.092731 lon 68.902999 lat
#TLE: 1 54234U 22150A   26001.26806856  .00000185  00000+0  10843-3 0  9990
#TLE: 2 54234  98.7484 302.3349 0001277 353.3887   6.7272 14.19530660162860

#Time	Az	El	Level	Level2	SNR	BER	BlckErr	Temp	State	Recorded	gain1	gain2
2026-01-02 09:47:30.56	161.38	36.75	-52.8	-63.6	3.8	8.47e-01	0	56	0	0	67	13121
2026-01-02 09:47:33.52	161.52	37.46	-52.8	-64.4	3.8	1.49e+00	0	57	104	0	68	13723
2026-01-02 09:47:36.49	161.67	38.19	-53.0	-64.5	3.8	1.49e+00	0	57	104	0	68	13737
2026-01-02 09:47:39.46	161.82	38.93	-52.9	-64.4	3.8	1.49e+00	0	57	104	0	68	13703
2026-01-02 09:47:42.45	161.98	39.69	-52.9	-64.4	3.8	1.49e+00	0	57	104	0	68	13697
2026-01-02 09:47:45.42	162.15	40.47	-52.9	-64.4	3.8	1.49e+00	0	57	104	0	68	13644
2026-01-02 09:47:48.39	162.32	41.26	-52.9	-64.4	3.8	1.49e+00	0	57	104	0	68	13676
2026-01-02 09:47:51.36	162.50	42.07	-53.0	-64.4	3.8	1.49e+00	0	57	104	0	68	13709
2026-01-02 09:47:54.33	162.70	42.90	-52.7	-64.4	3.8	1.49e+00	0	57	104	0	68	13680
2026-01-02 09:47:57.30	162.90	43.75	-52.8	-64.4	3.8	1.49e+00	0	57	104	0	68	13631
2026-01-02 09:48:00.28	163.11	44.62	-52.9	-64.4	3.8	1.49e+00	0	57	104	0	68	13660
2026-01-02 09:48:03.26	163.33	45.50	-52.9	-64.4	3.8	1.49e+00	0	57	104	0	68	13640
2026-01-02 09:48:06.22	163.57	46.40	-52.9	-64.3	3.8	1.49e+00	0	57	104	0	68	13560
2026-01-02 09:48:09.20	163.82	47.33	-52.8	-64.3	3.8	1.49e+00	0	57	104	0	68	13531
2026-01-02 09:48:12.16	164.08	48.27	-52.9	-64.4	3.8	1.49e+00	0	57	104	0	68	13662
2026-01-02 09:48:15.13	164.36	49.23	-52.7	-64.2	3.8	1.49e+00	0	57	104	0	68	13321
2026-01-02 09:48:18.11	164.66	50.22	-52.7	-64.3	3.8	1.49e+00	0	57	104	0	68	13530
2026-01-02 09:48:21.08	164.98	51.22	-52.8	-64.5	3.8	1.49e+00	0	57	104	0	68	13730
2026-01-02 09:48:24.04	165.31	52.25	-52.2	-59.7	4.5	1.45e+00	6	57	104	0	67	8428
2026-01-02 09:48:27.01	165.67	53.29	-51.2	-55.8	7.2	8.39e-02	0	57	0	7340032	64	6380
2026-01-02 09:48:29.97	166.06	54.36	-49.2	-51.7	11.5	1.13e-03	0	58	0	16777216	61	4707
2026-01-02 09:48:32.94	166.48	55.44	-47.0	-48.6	14.7	7.00e-07	0	58	0	26214400	57	4150
2026-01-02 09:48:35.91	166.93	56.55	-46.0	-47.1	16.0	0.00e+00	0	57	0	35651584	55	3943
2026-01-02 09:48:38.88	167.41	57.68	-45.5	-46.6	16.5	0.00e+00	0	58	0	45088768	54	3931
2026-01-02 09:48:41.85	167.94	58.83	-45.5	-46.6	16.6	0.00e+00	0	57	0	53477376	53	4153
2026-01-02 09:48:44.82	168.52	60.00	-43.6	-44.3	18.8	0.00e+00	0	58	0	62914560	50	3813
2026-01-02 09:48:47.78	169.15	61.19	-43.2	-43.9	19.2	0.00e+00	0	57	0	72351744	49	3837
2026-01-02 09:48:50.76	169.84	62.40	-43.2	-43.9	19.2	0.00e+00	0	57	0	81788928	48	4075
2026-01-02 09:48:53.72	170.60	63.62	-43.2	-43.9	19.2	0.00e+00	0	57	0	91226112	48	4091
2026-01-02 09:48:56.70	171.45	64.87	-43.0	-43.6	19.4	0.00e+00	0	57	0	100663296	48	3955
2026-01-02 09:48:59.65	172.39	66.12	-42.9	-43.6	19.4	0.00e+00	0	58	0	109051904	48	3915
2026-01-02 09:49:02.63	173.46	67.39	-43.0	-43.6	19.3	0.00e+00	0	57	0	118489088	48	3951
2026-01-02 09:49:05.61	174.66	68.68	-43.0	-43.6	19.3	0.00e+00	0	58	0	127926272	48	3954
2026-01-02 09:49:08.58	176.03	69.97	-42.7	-43.4	19.7	0.00e+00	0	57	0	137363456	48	3827
2026-01-02 09:49:11.56	177.60	71.27	-43.3	-44.0	19.1	0.00e+00	0	57	0	146800640	48	4114
2026-01-02 09:49:14.54	179.42	72.57	-43.6	-44.3	18.8	0.00e+00	0	58	0	156237824	48	4260
2026-01-02 09:49:17.50	181.53	73.86	-43.6	-44.4	18.8	0.00e+00	0	57	0	165675008	49	4052
2026-01-02 09:49:20.48	184.04	75.14	-44.1	-44.9	18.3	0.00e+00	0	58	0	175112192	49	4305
2026-01-02 09:49:23.44	187.01	76.40	-44.4	-45.2	17.9	0.00e+00	0	57	0	183500800	50	4232
2026-01-02 09:49:26.41	190.62	77.63	-44.2	-45.0	18.1	0.00e+00	0	57	0	192937984	51	3889
2026-01-02 09:49:29.37	195.00	78.81	-44.3	-45.1	18.0	0.00e+00	0	57	0	202375168	51	3935
2026-01-02 09:49:32.34	200.42	79.92	-43.2	-43.9	19.1	0.00e+00	0	57	0	211812352	49	3862
2026-01-02 09:49:35.30	207.11	80.92	-43.1	-43.8	19.3	0.00e+00	0	57	0	221249536	48	4024
2026-01-02 09:49:38.28	215.39	81.78	-42.9	-43.6	19.4	0.00e+00	0	57	0	230686720	48	3933
2026-01-02 09:49:41.27	225.41	82.44	-43.1	-43.8	19.2	0.00e+00	0	57	0	239075328	48	4018
2026-01-02 09:49:44.24	236.84	82.83	-44.4	-45.2	17.9	0.00e+00	0	58	0	248512512	50	4209
2026-01-02 09:49:47.20	249.01	82.91	-45.6	-46.6	16.5	0.00e+00	0	57	0	257949696	53	4193
2026-01-02 09:49:50.18	261.01	82.68	-45.6	-46.7	16.4	0.00e+00	0	57	0	267386880	53	4232
2026-01-02 09:49:53.16	271.83	82.15	-45.9	-47.1	16.1	0.00e+00	0	58	0	276824064	53	4403
2026-01-02 09:49:56.14	281.00	81.39	-46.9	-48.3	14.9	0.00e+00	0	57	0	286261248	55	4528
2026-01-02 09:49:59.11	288.49	80.46	-47.2	-48.8	14.5	2.20e-06	0	58	0	295698432	57	4258
2026-01-02 09:50:02.08	294.55	79.40	-45.4	-46.5	16.7	0.00e+00	0	58	0	304087040	54	3878
2026-01-02 09:50:05.06	299.46	78.25	-43.7	-44.5	18.5	0.00e+00	0	58	0	313524224	50	3906
2026-01-02 09:50:08.02	303.44	77.05	-44.5	-45.4	17.8	0.00e+00	0	57	0	322961408	50	4311
2026-01-02 09:50:11.00	306.74	75.80	-43.8	-44.6	18.5	0.00e+00	0	58	0	332398592	50	3927
2026-01-02 09:50:13.96	309.47	74.54	-43.9	-44.7	18.4	0.00e+00	0	57	0	341835776	50	3990
2026-01-02 09:50:16.94	311.78	73.25	-43.1	-43.7	19.3	0.00e+00	0	57	0	351272960	49	3774
2026-01-02 09:50:19.91	313.74	71.95	-42.8	-43.4	19.6	0.00e+00	0	58	0	360710144	48	3861
2026-01-02 09:50:22.88	315.43	70.66	-43.1	-43.8	19.2	0.00e+00	0	58	0	369098752	48	4009
2026-01-02 09:50:25.85	316.89	69.37	-42.7	-43.4	19.5	0.00e+00	0	57	0	378535936	47	4055
2026-01-02 09:50:28.81	318.17	68.09	-45.2	-46.3	16.9	0.00e+00	0	57	0	387973120	52	4243
2026-01-02 09:50:31.77	319.30	66.82	-43.5	-44.2	18.8	0.00e+00	0	58	0	397410304	50	3759
2026-01-02 09:50:34.75	320.31	65.55	-44.1	-44.9	17.9	0.00e+00	0	58	0	406847488	49	4325
2026-01-02 09:50:37.71	321.20	64.31	-44.3	-45.1	17.9	0.00e+00	0	57	0	416284672	51	3938
2026-01-02 09:50:40.68	322.01	63.07	-42.2	-42.8	19.9	0.00e+00	0	58	0	425721856	47	3810
2026-01-02 09:50:43.64	322.73	61.86	-45.2	-46.2	16.7	0.00e+00	0	58	0	434110464	52	4239
2026-01-02 09:50:46.61	323.40	60.67	-44.5	-45.5	17.5	0.00e+00	0	58	0	443547648	52	3887
2026-01-02 09:50:49.56	324.00	59.50	-43.1	-43.8	19.2	0.00e+00	0	57	0	452984832	48	4021
2026-01-02 09:50:52.53	324.55	58.34	-44.4	-45.2	17.8	0.00e+00	0	58	0	462422016	50	4237
2026-01-02 09:50:55.49	325.06	57.21	-44.7	-45.7	17.0	0.00e+00	0	58	0	471859200	52	3979
2026-01-02 09:50:58.46	325.53	56.09	-44.4	-45.3	17.8	0.00e+00	0	58	0	481296384	50	4243
2026-01-02 09:51:01.44	325.96	54.99	-45.3	-46.4	16.4	0.00e+00	0	58	0	489684992	52	4294
2026-01-02 09:51:04.40	326.37	53.92	-45.9	-47.1	15.9	0.00e+00	0	58	0	499122176	53	4439
2026-01-02 09:51:07.37	326.74	52.86	-45.9	-47.1	15.9	0.00e+00	0	58	0	508559360	54	4164
2026-01-02 09:51:10.34	327.09	51.83	-45.0	-46.0	17.0	0.00e+00	0	57	0	517996544	52	4108
2026-01-02 09:51:13.31	327.42	50.82	-46.9	-48.3	14.8	0.00e+00	0	58	0	527433728	55	4525
2026-01-02 09:51:16.26	327.73	49.83	-47.2	-48.7	14.4	1.50e-06	0	58	0	536870912	57	4224
2026-01-02 09:51:19.25	328.02	48.85	-47.1	-48.6	14.7	0.00e+00	0	58	0	545259520	56	4410
2026-01-02 09:51:22.22	328.29	47.90	-46.6	-47.9	15.1	0.00e+00	0	57	0	554696704	56	4077
2026-01-02 09:51:25.18	328.55	46.97	-46.3	-47.6	15.5	0.00e+00	0	58	0	564133888	55	4149
2026-01-02 09:51:28.15	328.79	46.06	-47.6	-49.4	13.7	3.80e-06	0	58	0	573571072	57	4548
2026-01-02 09:51:31.10	329.02	45.18	-47.3	-48.9	14.2	1.50e-06	0	58	0	583008256	57	4327
2026-01-02 09:51:34.06	329.24	44.31	-46.8	-48.2	15.0	0.00e+00	0	58	0	592445440	56	4199
2026-01-02 09:51:37.02	329.44	43.45	-47.3	-49.0	14.2	2.20e-06	0	57	0	600834048	56	4604
2026-01-02 09:51:39.98	329.64	42.62	-46.1	-47.4	15.6	0.00e+00	0	58	0	610271232	55	4064
2026-01-02 09:51:42.94	329.83	41.81	-45.6	-46.6	16.4	0.00e+00	0	58	0	619708416	54	3936
2026-01-02 09:51:45.92	330.01	41.00	-46.1	-47.3	15.7	0.00e+00	0	58	0	629145600	54	4262
2026-01-02 09:51:48.89	330.18	40.22	-46.5	-47.8	15.2	0.00e+00	0	58	0	638582784	54	4538
2026-01-02 09:51:51.85	330.34	39.46	-46.6	-47.9	15.1	0.00e+00	0	58	0	648019968	55	4323
2026-01-02 09:51:54.82	330.50	38.71	-45.8	-46.9	16.0	0.00e+00	0	58	0	657457152	54	4090
2026-01-02 09:51:57.78	330.65	37.97	-46.3	-47.6	15.4	7.00e-07	0	58	0	665845760	54	4418
2026-01-02 09:52:00.74	330.80	37.26	-46.1	-47.4	15.6	0.00e+00	0	58	0	675282944	54	4294
2026-01-02 09:52:03.70	330.94	36.56	-45.6	-46.7	16.0	0.00e+00	0	58	0	684720128	54	3999
2026-01-02 09:52:06.67	331.07	35.87	-45.6	-46.8	16.1	0.00e+00	0	58	0	694157312	54	4021
2026-01-02 09:52:09.63	331.20	35.20	-45.3	-46.4	16.5	0.00e+00	0	58	0	703594496	53	4073
2026-01-02 09:52:12.59	331.32	34.54	-45.5	-46.6	16.4	0.00e+00	0	58	0	711983104	53	4161
2026-01-02 09:52:15.56	331.44	33.89	-45.4	-46.5	16.5	0.00e+00	0	58	0	721420288	53	4102
2026-01-02 09:52:18.53	331.56	33.26	-45.0	-46.0	16.9	0.00e+00	0	58	0	730857472	53	3898
2026-01-02 09:52:21.50	331.67	32.64	-44.4	-45.3	17.7	0.00e+00	0	58	0	740294656	51	4033
2026-01-02 09:52:24.46	331.78	32.03	-44.5	-45.4	17.6	0.00e+00	0	58	0	749731840	51	4060
2026-01-02 09:52:27.44	331.88	31.43	-44.5	-45.4	17.6	0.00e+00	0	58	0	759169024	51	4068
2026-01-02 09:52:30.40	331.99	30.85	-44.5	-45.4	17.6	0.00e+00	0	58	0	767557632	51	4086
2026-01-02 09:52:33.37	332.08	30.28	-44.6	-45.5	17.4	0.00e+00	0	58	0	776994816	51	4130
2026-01-02 09:52:36.34	332.18	29.72	-44.6	-45.6	17.4	0.00e+00	0	58	0	786432000	51	4161
2026-01-02 09:52:39.30	332.27	29.17	-44.8	-45.8	17.2	0.00e+00	0	58	0	795869184	51	4279
2026-01-02 09:52:42.27	332.36	28.63	-45.2	-46.3	16.6	0.00e+00	0	58	0	805306368	52	4277
2026-01-02 09:52:45.25	332.45	28.09	-45.6	-46.9	16.1	0.00e+00	0	58	0	814743552	53	4293
2026-01-02 09:52:48.23	332.53	27.57	-45.9	-47.1	15.8	0.00e+00	0	58	0	824180736	53	4407
2026-01-02 09:52:51.19	332.62	27.06	-46.0	-47.3	15.6	0.00e+00	0	58	0	832569344	53	4495
2026-01-02 09:52:54.16	332.70	26.56	-45.1	-46.1	16.8	0.00e+00	0	58	0	842006528	53	3958
2026-01-02 09:52:57.13	332.78	26.07	-44.7	-45.7	17.2	0.00e+00	0	58	0	851443712	52	3963
2026-01-02 09:53:00.10	332.85	25.59	-44.3	-45.1	17.8	0.00e+00	0	58	0	860880896	51	3955
2026-01-02 09:53:03.08	332.93	25.11	-44.0	-44.8	18.1	0.00e+00	0	58	0	870318080	51	3806
2026-01-02 09:53:06.05	333.00	24.64	-44.0	-44.9	18.0	0.00e+00	0	58	0	879755264	50	4064
2026-01-02 09:53:09.02	333.07	24.19	-43.9	-44.8	18.1	0.00e+00	0	58	0	889192448	50	4007
2026-01-02 09:53:11.98	333.14	23.74	-44.1	-44.9	18.0	0.00e+00	0	58	0	897581056	50	4067
2026-01-02 09:53:14.96	333.21	23.29	-44.5	-45.4	17.5	0.00e+00	0	58	0	907018240	50	4311
2026-01-02 09:53:17.93	333.27	22.86	-44.5	-45.5	17.4	0.00e+00	0	58	0	916455424	51	4112
2026-01-02 09:53:20.91	333.34	22.43	-45.0	-46.0	16.8	0.00e+00	0	58	0	925892608	52	4134
2026-01-02 09:53:23.87	333.40	22.01	-45.4	-46.5	16.2	0.00e+00	0	58	0	935329792	52	4352
2026-01-02 09:53:26.84	333.46	21.60	-44.9	-45.9	16.7	0.00e+00	0	58	0	944766976	52	4096
2026-01-02 09:53:29.81	333.53	21.19	-44.8	-45.8	16.8	0.00e+00	0	57	0	954204160	52	4045
2026-01-02 09:53:32.76	333.58	20.79	-44.8	-45.9	16.7	0.00e+00	0	58	0	962592768	52	4056
2026-01-02 09:53:35.73	333.64	20.40	-44.7	-45.8	16.6	0.00e+00	0	58	0	972029952	52	4043
2026-01-02 09:53:38.71	333.70	20.01	-43.7	-44.6	17.8	0.00e+00	0	58	0	981467136	50	3928
2026-01-02 09:53:41.68	333.76	19.62	-44.9	-45.9	16.7	0.00e+00	0	58	0	990904320	51	4306
2026-01-02 09:53:44.65	333.81	19.25	-45.1	-46.2	16.4	0.00e+00	0	58	0	1000341504	52	4205
2026-01-02 09:53:47.63	333.87	18.87	-45.2	-46.3	16.2	0.00e+00	0	58	0	1009778688	52	4286
2026-01-02 09:53:50.59	333.92	18.51	-45.6	-46.8	15.8	0.00e+00	0	58	0	1018167296	53	4275
2026-01-02 09:53:53.56	333.97	18.15	-45.8	-47.1	15.7	0.00e+00	0	58	0	1027604480	53	4393
2026-01-02 09:53:56.52	334.02	17.80	-45.2	-46.3	16.4	0.00e+00	0	58	0	1037041664	53	4007
2026-01-02 09:53:59.48	334.07	17.45	-45.0	-46.0	16.7	0.00e+00	0	58	0	1046478848	53	3896
2026-01-02 09:54:02.45	334.12	17.10	-45.4	-46.5	16.2	0.00e+00	0	58	0	1055916032	53	4109
2026-01-02 09:54:05.43	334.17	16.76	-45.7	-46.9	15.8	0.00e+00	0	58	0	1065353216	53	4295
2026-01-02 09:54:08.41	334.22	16.42	-45.0	-46.0	16.6	0.00e+00	0	58	0	1074790400	53	3908
2026-01-02 09:54:11.37	334.26	16.09	-45.2	-46.2	16.5	0.00e+00	0	58	0	1083179008	53	4003
2026-01-02 09:54:14.33	334.31	15.77	-45.1	-46.2	16.5	0.00e+00	0	58	0	1092616192	53	3962
2026-01-02 09:54:17.30	334.36	15.45	-45.3	-46.4	16.3	0.00e+00	0	58	0	1102053376	53	4057
2026-01-02 09:54:20.27	334.40	15.13	-45.1	-46.2	16.5	0.00e+00	0	58	0	1111490560	53	3979
2026-01-02 09:54:23.24	334.45	14.81	-45.0	-46.1	16.5	0.00e+00	0	58	0	1120927744	53	3934
2026-01-02 09:54:26.20	334.49	14.51	-45.1	-46.2	16.4	0.00e+00	0	58	0	1130364928	53	3986
2026-01-02 09:54:29.15	334.53	14.20	-45.1	-46.2	16.4	0.00e+00	0	58	0	1138753536	53	3991
2026-01-02 09:54:32.10	334.57	13.90	-45.3	-46.5	16.2	0.00e+00	0	58	0	1148190720	53	4106
2026-01-02 09:54:35.06	334.62	13.60	-45.3	-46.4	16.2	0.00e+00	0	58	0	1157627904	53	4067
2026-01-02 09:54:38.02	334.66	13.31	-45.5	-46.7	15.9	0.00e+00	0	58	0	1167065088	53	4227
2026-01-02 09:54:40.99	334.70	13.02	-45.2	-46.3	16.2	0.00e+00	0	58	0	1176502272	53	4049
2026-01-02 09:54:43.95	334.74	12.73	-45.2	-46.4	16.2	0.00e+00	0	58	0	1184890880	53	4058
2026-01-02 09:54:46.92	334.78	12.45	-45.3	-46.5	16.0	0.00e+00	0	58	0	1194328064	53	4123
2026-01-02 09:54:49.90	334.82	12.16	-45.4	-46.6	15.9	0.00e+00	0	58	0	1203765248	53	4187
2026-01-02 09:54:52.86	334.85	11.89	-45.3	-46.5	15.9	0.00e+00	0	58	0	1213202432	53	4136
2026-01-02 09:54:55.82	334.89	11.61	-45.3	-46.5	16.0	0.00e+00	0	58	0	1222639616	53	4100
2026-01-02 09:54:58.80	334.93	11.34	-45.5	-46.6	15.8	0.00e+00	0	58	0	1232076800	53	4183
2026-01-02 09:55:01.77	334.97	11.07	-45.2	-46.4	16.1	0.00e+00	0	58	0	1241513984	53	4061
2026-01-02 09:55:04.72	335.00	10.81	-45.4	-46.6	15.8	0.00e+00	0	58	0	1249902592	53	4173
2026-01-02 09:55:07.68	335.04	10.54	-45.3	-46.6	15.8	0.00e+00	0	58	0	1259339776	53	4148
2026-01-02 09:55:10.66	335.08	10.28	-45.4	-46.6	15.8	0.00e+00	0	58	0	1268776960	53	4162
2026-01-02 09:55:13.63	335.11	10.02	-45.4	-46.6	15.7	0.00e+00	0	58	0	1278214144	53	4186
2026-01-02 09:55:16.59	335.15	9.77	-45.4	-47.1	15.3	0.00e+00	0	58	0	1287651328	53	4406
2026-01-02 09:55:19.56	335.18	9.52	-45.0	-47.2	15.1	0.00e+00	0	58	0	1297088512	53	4456
2026-01-02 09:55:22.51	335.22	9.27	-45.6	-47.6	14.7	7.00e-07	0	58	0	1305477120	53	4671
2026-01-02 09:55:25.46	335.25	9.02	-46.2	-47.9	14.4	7.00e-07	0	58	0	1314914304	54	4550
2026-01-02 09:55:28.43	335.28	8.78	-46.7	-48.4	13.9	3.00e-06	0	58	0	1324351488	55	4548
2026-01-02 09:55:31.38	335.32	8.54	-46.5	-48.1	14.2	1.50e-06	0	58	0	1333788672	55	4409
2026-01-02 09:55:34.36	335.35	8.29	-46.7	-48.3	14.0	7.00e-07	0	58	0	1343225856	55	4510
2026-01-02 09:55:37.33	335.38	8.06	-46.4	-48.0	14.3	7.00e-07	0	58	0	1352663040	55	4352
2026-01-02 09:55:40.30	335.41	7.82	-46.7	-48.4	13.8	1.50e-06	0	58	0	1361051648	55	4568
2026-01-02 09:55:43.25	335.45	7.59	-46.6	-48.3	13.9	3.80e-06	0	58	0	1370488832	55	4498
2026-01-02 09:55:46.22	335.48	7.36	-47.0	-48.8	13.5	1.14e-05	0	58	0	1379926016	56	4503
2026-01-02 09:55:49.20	335.51	7.13	-47.3	-49.2	13.1	3.81e-05	0	58	0	1389363200	56	4751
2026-01-02 09:55:52.16	335.54	6.90	-47.5	-49.4	12.8	5.72e-05	0	58	0	1398800384	56	4843
2026-01-02 09:55:55.14	335.57	6.67	-47.2	-49.1	13.1	2.82e-05	0	58	0	1408237568	57	4424
2026-01-02 09:55:58.11	335.60	6.45	-46.9	-48.6	13.6	8.30e-06	0	58	0	1417674752	56	4422
2026-01-02 09:56:01.06	335.63	6.23	-46.8	-48.5	13.7	8.30e-06	0	58	0	1426063360	56	4362
2026-01-02 09:56:04.03	335.66	6.01	-46.8	-48.6	13.5	1.90e-05	0	58	0	1435500544	56	4420
2026-01-02 09:56:07.01	335.69	5.79	-46.9	-48.7	13.4	1.22e-05	0	58	0	1444937728	56	4480
2026-01-02 09:56:09.97	335.72	5.57	-46.9	-48.7	13.4	1.75e-05	0	58	0	1454374912	56	4463
2026-01-02 09:56:12.93	335.75	5.36	-47.3	-49.3	12.7	8.08e-05	0	58	0	1463812096	56	4807
2026-01-02 09:56:15.90	335.78	5.15	-47.4	-49.4	12.6	9.46e-05	0	58	0	1472200704	56	4830
2026-01-02 09:56:18.86	335.81	4.94	-52.0	-63.5	3.8	1.49e+00	0	58	104	1476395008	65	14619
2026-01-02 09:56:21.83	335.84	4.73	-52.4	-63.9	3.8	1.49e+00	0	58	104	1476395008	66	14518
2026-01-02 09:56:24.80	335.87	4.52	-52.6	-64.1	3.8	1.49e+00	0	58	104	1476395008	66	14714
2026-01-02 09:56:27.77	335.89	4.31	-52.6	-64.2	3.8	1.49e+00	0	58	104	1476395008	67	14079
2026-01-02 09:56:30.73	335.92	4.11	-52.7	-64.2	3.8	1.49e+00	0	58	104	1476395008	67	14205
2026-01-02 09:56:33.69	335.95	3.91	-52.6	-64.3	3.8	1.49e+00	0	58	104	1476395008	67	14235
2026-01-02 09:56:36.65	335.98	3.71	-52.6	-64.3	3.8	1.49e+00	0	58	104	1476395008	67	14314
2026-01-02 09:56:39.62	336.01	3.51	-52.6	-64.3	3.8	1.49e+00	0	58	104	1476395008	67	14299
2026-01-02 09:56:42.60	336.03	3.31	-52.7	-64.3	3.8	1.49e+00	0	58	104	1476395008	67	14326
2026-01-02 09:56:45.56	336.06	3.11	-52.9	-64.3	3.8	1.49e+00	0	58	104	1476395008	67	14340

#Closed at: 2026-01-02 09:56:48
#Recorded file [1476 MB]: D:/Data/31026_260102_125617.dat