passes_logs/2026/01/02/R3.0SM8_Murmansk_STILSPACE/R3.0SM8_Murmansk_STILSPACE__20260102_003514_AQUA_rec.log

#Pass ID: 20260102_003514_AQUA
#Satellite: AQUA
#Configuration: AQUA
#almurnet v.1.7.20240730
#Start time: 2026-01-02 00:35:16

#Version: 2.2.20231116
#Station: R3.0SM8_Murmansk_STILSPACE
#Location: 33.092731 lon 68.902999 lat
#TLE: 1 27424U 02022A   25365.92641127  .00002078  00000+0  42628-3 0  9999
#TLE: 2 27424  98.4058 327.1196 0001962  94.7781 340.6230 14.61783896258835

#Time	Az	El	Level	Level2	SNR	BER	BlckErr	Temp	State	Recorded	gain1	gain2
2026-01-02 00:35:16.28	22.16	3.09	-54.0	-73.9	3.8	7.45e-01	0	47	0	0	70	37085
2026-01-02 00:35:19.23	22.36	3.28	-53.4	-73.2	3.8	7.43e-01	0	48	104	0	70	34447
2026-01-02 00:35:22.20	22.57	3.46	-53.0	-72.6	3.8	7.44e-01	0	48	104	0	69	33706
2026-01-02 00:35:25.17	22.77	3.65	-53.0	-72.8	3.8	7.41e-01	0	48	104	0	69	34831
2026-01-02 00:35:28.13	22.98	3.84	-53.0	-72.8	3.8	7.40e-01	0	48	104	0	69	34799
2026-01-02 00:35:31.07	23.19	4.03	-53.0	-72.7	3.8	7.44e-01	0	48	104	0	69	34362
2026-01-02 00:35:34.03	23.41	4.22	-53.0	-72.8	3.8	7.48e-01	0	48	104	0	69	34580
2026-01-02 00:35:37.00	23.63	4.41	-53.0	-72.7	3.8	7.45e-01	0	49	104	0	69	34108
2026-01-02 00:35:39.97	23.85	4.61	-52.9	-67.6	4.4	7.11e-01	0	49	104	0	69	19034
2026-01-02 00:35:42.92	24.07	4.80	-52.4	-61.0	10.6	6.17e-01	0	49	0	4194304	68	9464
2026-01-02 00:35:45.88	24.30	5.00	-51.2	-56.5	15.3	6.03e-01	0	49	0	9961472	66	6310
2026-01-02 00:35:48.84	24.53	5.20	-51.3	-56.6	15.2	6.04e-01	0	49	0	15204352	65	6749
2026-01-02 00:35:51.81	24.76	5.40	-50.2	-54.5	16.9	6.04e-01	0	50	0	20971520	64	5624
2026-01-02 00:35:54.77	25.00	5.60	-50.1	-53.7	18.3	6.02e-01	0	50	0	26738688	63	5407
2026-01-02 00:35:57.73	25.23	5.80	-50.4	-54.2	17.8	6.04e-01	0	50	0	31981568	63	5738
2026-01-02 00:36:00.70	25.48	6.00	-49.8	-53.0	18.9	6.04e-01	0	50	0	37748736	63	5001
2026-01-02 00:36:03.65	25.72	6.20	-49.3	-52.1	19.8	6.02e-01	0	50	0	42991616	62	4808
2026-01-02 00:36:06.62	25.97	6.41	-49.2	-52.0	19.9	6.02e-01	0	50	0	48758784	61	5012
2026-01-02 00:36:09.59	26.23	6.62	-49.2	-52.0	20.0	6.05e-01	0	50	0	54525952	61	5008
2026-01-02 00:36:12.57	26.49	6.83	-49.0	-51.6	20.4	6.03e-01	0	51	0	59768832	61	4773
2026-01-02 00:36:15.54	26.75	7.04	-49.2	-51.8	20.4	6.03e-01	0	51	0	65536000	61	4910
2026-01-02 00:36:18.51	27.02	7.25	-48.9	-51.4	20.7	6.03e-01	0	51	0	70778880	61	4659
2026-01-02 00:36:21.46	27.28	7.46	-48.9	-51.3	20.8	6.04e-01	0	51	0	76546048	61	4644
2026-01-02 00:36:24.43	27.56	7.68	-48.9	-51.3	20.8	6.02e-01	0	51	0	82313216	61	4646
2026-01-02 00:36:27.41	27.84	7.90	-48.9	-51.4	20.7	6.04e-01	0	51	0	87556096	61	4684
2026-01-02 00:36:30.36	28.12	8.11	-49.0	-51.5	20.8	6.01e-01	0	51	0	93323264	61	4707
2026-01-02 00:36:33.32	28.41	8.33	-49.1	-51.6	20.6	6.04e-01	0	52	0	98566144	61	4807
2026-01-02 00:36:36.30	28.70	8.55	-48.8	-51.2	20.9	6.05e-01	0	52	0	104333312	61	4593
2026-01-02 00:36:39.27	28.99	8.78	-49.0	-51.5	20.8	6.01e-01	0	52	0	110100480	61	4706
2026-01-02 00:36:42.25	29.30	9.00	-48.9	-51.3	21.0	6.04e-01	0	52	0	115343360	61	4609
2026-01-02 00:36:45.20	29.60	9.23	-48.6	-50.9	21.4	6.00e-01	0	52	0	121110528	60	4657
2026-01-02 00:36:48.17	29.91	9.46	-48.6	-50.8	21.6	6.03e-01	0	52	0	126877696	60	4610
2026-01-02 00:36:51.14	30.23	9.68	-48.7	-50.9	21.4	6.01e-01	0	52	0	132120576	60	4694
2026-01-02 00:36:54.10	30.55	9.92	-48.4	-50.6	21.4	6.02e-01	0	52	0	137887744	60	4504
2026-01-02 00:36:57.08	30.87	10.15	-48.4	-50.6	21.8	6.05e-01	0	52	0	143654912	60	4498
2026-01-02 00:37:00.04	31.20	10.38	-48.4	-50.5	21.8	5.99e-01	0	52	0	148897792	60	4471
2026-01-02 00:37:03.02	31.54	10.62	-48.6	-50.8	21.5	6.04e-01	0	53	0	154664960	60	4636
2026-01-02 00:37:05.97	31.88	10.86	-48.6	-50.8	21.5	6.04e-01	0	53	0	159907840	60	4645
2026-01-02 00:37:08.93	32.23	11.10	-48.8	-51.0	21.5	6.03e-01	0	52	0	165675008	60	4758
2026-01-02 00:37:11.90	32.59	11.34	-48.6	-50.8	21.6	6.03e-01	0	53	0	170917888	60	4611
2026-01-02 00:37:14.86	32.95	11.58	-48.4	-50.5	22.0	6.03e-01	0	53	0	176685056	60	4459
2026-01-02 00:37:17.82	33.31	11.82	-48.5	-50.6	21.8	6.02e-01	0	53	0	182452224	60	4499
2026-01-02 00:37:20.79	33.69	12.07	-48.3	-50.3	22.1	6.03e-01	0	53	0	187695104	60	4348
2026-01-02 00:37:23.76	34.07	12.32	-48.5	-50.6	21.9	6.03e-01	0	53	0	193462272	60	4532
2026-01-02 00:37:26.74	34.45	12.57	-48.5	-50.6	22.0	6.03e-01	0	53	0	199229440	60	4535
2026-01-02 00:37:29.69	34.84	12.82	-48.4	-50.5	22.0	6.03e-01	0	53	0	204472320	60	4455
2026-01-02 00:37:32.65	35.24	13.07	-48.6	-50.6	22.2	6.03e-01	0	53	0	210239488	59	4793
2026-01-02 00:37:35.62	35.65	13.33	-48.7	-50.7	22.1	6.05e-01	0	53	0	215482368	59	4869
2026-01-02 00:37:38.60	36.07	13.59	-48.7	-50.7	22.1	6.04e-01	0	53	0	221249536	59	4855
2026-01-02 00:37:41.56	36.49	13.85	-48.7	-50.9	21.7	6.03e-01	0	54	0	226492416	60	4668
2026-01-02 00:37:44.52	36.92	14.11	-48.3	-50.2	22.3	6.05e-01	0	54	0	232259584	60	4328
2026-01-02 00:37:47.47	37.35	14.37	-48.6	-50.6	22.3	6.04e-01	0	54	0	238026752	59	4796
2026-01-02 00:37:50.44	37.80	14.63	-48.4	-50.4	22.5	6.03e-01	0	54	0	243269632	59	4675
2026-01-02 00:37:53.41	38.26	14.90	-48.5	-50.5	22.5	6.00e-01	0	54	0	249036800	59	4720
2026-01-02 00:37:56.36	38.72	15.16	-48.5	-50.5	22.4	6.00e-01	0	54	0	254279680	59	4734
2026-01-02 00:37:59.33	39.19	15.43	-48.4	-50.3	22.6	6.03e-01	0	54	0	260046848	59	4604
2026-01-02 00:38:02.29	39.67	15.70	-48.5	-50.5	22.5	6.02e-01	0	54	0	265814016	59	4745
2026-01-02 00:38:05.26	40.16	15.98	-48.2	-50.1	22.8	6.03e-01	0	54	0	271056896	59	4504
2026-01-02 00:38:08.23	40.66	16.25	-48.1	-49.9	23.1	6.03e-01	0	54	0	276824064	59	4403
2026-01-02 00:38:11.20	41.17	16.53	-48.4	-50.3	22.7	6.02e-01	0	54	0	282591232	59	4601
2026-01-02 00:38:14.18	41.69	16.80	-48.0	-49.8	23.1	6.00e-01	0	54	0	287834112	59	4372
2026-01-02 00:38:17.15	42.22	17.08	-48.2	-50.0	23.0	6.02e-01	0	54	0	293601280	59	4458
2026-01-02 00:38:20.10	42.75	17.36	-48.4	-50.3	22.6	6.00e-01	0	54	0	298844160	59	4631
2026-01-02 00:38:23.07	43.30	17.64	-47.9	-49.6	23.3	6.02e-01	0	54	0	304611328	59	4291
2026-01-02 00:38:26.03	43.86	17.92	-48.2	-50.0	23.0	6.02e-01	0	54	0	310378496	59	4492
2026-01-02 00:38:29.00	44.43	18.20	-48.5	-50.4	22.6	6.03e-01	0	54	0	315621376	59	4692
2026-01-02 00:38:31.97	45.01	18.49	-48.7	-50.6	22.4	6.03e-01	0	54	0	321388544	59	4803
2026-01-02 00:38:34.94	45.60	18.77	-48.2	-50.0	23.0	6.01e-01	0	54	0	326631424	59	4481
2026-01-02 00:38:37.90	46.21	19.06	-48.3	-50.2	22.8	6.02e-01	0	54	0	332398592	59	4546
2026-01-02 00:38:40.87	46.82	19.34	-48.2	-50.0	23.0	6.04e-01	0	54	0	338165760	59	4459
2026-01-02 00:38:43.83	47.45	19.63	-48.4	-50.2	22.8	6.03e-01	0	55	0	343408640	59	4582
2026-01-02 00:38:46.82	48.09	19.92	-48.2	-50.0	23.0	6.02e-01	0	55	0	349175808	59	4459
2026-01-02 00:38:49.77	48.74	20.20	-48.2	-50.0	23.0	6.02e-01	0	55	0	354418688	59	4461
2026-01-02 00:38:52.74	49.41	20.49	-48.3	-50.1	22.9	6.03e-01	0	55	0	360185856	59	4517
2026-01-02 00:38:55.71	50.09	20.77	-48.2	-50.0	23.0	6.05e-01	0	55	0	365953024	59	4475
2026-01-02 00:38:58.68	50.78	21.06	-48.4	-50.2	22.8	6.04e-01	0	55	0	371195904	59	4592
2026-01-02 00:39:01.65	51.48	21.35	-48.3	-50.1	22.9	6.02e-01	0	55	0	376963072	59	4538
2026-01-02 00:39:04.64	52.21	21.63	-48.4	-50.3	22.8	6.03e-01	0	55	0	382730240	59	4612
2026-01-02 00:39:07.60	52.94	21.92	-48.4	-50.2	22.8	6.04e-01	0	55	0	387973120	59	4585
2026-01-02 00:39:10.56	53.68	22.20	-48.5	-50.4	22.7	6.01e-01	0	55	0	393740288	59	4657
2026-01-02 00:39:13.53	54.44	22.48	-48.4	-50.3	22.8	6.02e-01	0	55	0	399507456	59	4609
2026-01-02 00:39:16.49	55.21	22.76	-48.5	-50.4	22.7	6.03e-01	0	55	0	404750336	59	4673
2026-01-02 00:39:19.44	56.00	23.04	-48.5	-50.4	22.7	6.04e-01	0	55	0	410517504	59	4678
2026-01-02 00:39:22.42	56.81	23.31	-48.6	-50.5	22.6	6.03e-01	0	55	0	415760384	59	4734
2026-01-02 00:39:25.39	57.62	23.59	-48.8	-50.8	22.0	6.03e-01	0	55	0	421527552	60	4641
2026-01-02 00:39:28.35	58.45	23.86	-48.5	-50.4	22.4	6.04e-01	0	55	0	426770432	60	4418
2026-01-02 00:39:31.31	59.30	24.12	-48.2	-50.1	22.7	6.03e-01	0	55	0	432537600	60	4252
2026-01-02 00:39:34.27	60.16	24.39	-48.7	-50.6	22.4	6.03e-01	0	55	0	438304768	59	4800
2026-01-02 00:39:37.24	61.04	24.65	-48.7	-50.8	22.0	6.02e-01	0	55	0	443547648	60	4629
2026-01-02 00:39:40.21	61.93	24.91	-48.9	-51.1	21.7	6.03e-01	0	55	0	449314816	60	4777
2026-01-02 00:39:43.18	62.84	25.16	-49.1	-51.3	21.5	6.01e-01	0	55	0	455081984	60	4887
2026-01-02 00:39:46.13	63.75	25.40	-48.9	-51.1	21.8	6.04e-01	0	55	0	460324864	60	4761
2026-01-02 00:39:49.11	64.69	25.65	-49.2	-51.5	21.4	6.03e-01	0	55	0	466092032	60	4998
2026-01-02 00:39:52.08	65.64	25.88	-49.0	-51.2	21.6	6.03e-01	0	55	0	471334912	60	4849
2026-01-02 00:39:55.05	66.61	26.12	-48.4	-50.4	22.4	6.04e-01	0	56	0	477102080	60	4406
2026-01-02 00:39:58.02	67.59	26.34	-48.3	-50.2	22.6	6.02e-01	0	56	0	482344960	60	4332
2026-01-02 00:40:00.98	68.58	26.56	-48.7	-50.6	22.5	6.04e-01	0	55	0	488112128	59	4786
2026-01-02 00:40:03.95	69.59	26.77	-48.8	-50.8	22.4	6.03e-01	0	55	0	493879296	59	4871
2026-01-02 00:40:06.92	70.61	26.97	-48.7	-50.7	22.2	6.04e-01	0	56	0	499122176	60	4564
2026-01-02 00:40:09.89	71.65	27.17	-48.5	-50.5	22.3	6.03e-01	0	56	0	504889344	60	4481
2026-01-02 00:40:12.85	72.70	27.35	-48.4	-50.4	22.4	6.02e-01	0	55	0	510656512	60	4410
2026-01-02 00:40:15.82	73.76	27.53	-48.7	-50.7	22.1	6.04e-01	0	56	0	515899392	60	4566
2026-01-02 00:40:18.77	74.82	27.70	-48.7	-50.7	22.1	6.03e-01	0	56	0	521666560	60	4583
2026-01-02 00:40:21.75	75.91	27.86	-48.3	-50.2	22.6	6.00e-01	0	56	0	526909440	60	4299
2026-01-02 00:40:24.72	77.00	28.01	-48.6	-50.5	22.7	6.03e-01	0	56	0	532676608	59	4724
2026-01-02 00:40:27.69	78.11	28.16	-48.5	-50.3	22.8	6.03e-01	0	56	0	538443776	59	4627
2026-01-02 00:40:30.66	79.23	28.29	-48.8	-50.9	22.3	6.01e-01	0	56	0	543686656	59	4935
2026-01-02 00:40:33.63	80.35	28.40	-48.6	-50.5	22.4	6.01e-01	0	56	0	549453824	60	4484
2026-01-02 00:40:36.59	81.48	28.51	-48.8	-50.9	22.0	6.04e-01	0	56	0	555220992	60	4685
2026-01-02 00:40:39.53	82.61	28.61	-48.5	-50.5	22.3	6.02e-01	0	56	0	560463872	60	4458
2026-01-02 00:40:42.50	83.75	28.70	-48.4	-50.3	22.6	6.03e-01	0	56	0	566231040	60	4352
2026-01-02 00:40:45.47	84.91	28.77	-48.2	-50.1	22.7	6.05e-01	0	56	0	571473920	60	4270
2026-01-02 00:40:48.41	86.05	28.83	-48.5	-50.3	22.8	6.01e-01	0	56	0	577241088	59	4651
2026-01-02 00:40:51.39	87.22	28.88	-48.2	-49.9	23.2	6.03e-01	0	56	0	582483968	59	4425
2026-01-02 00:40:54.34	88.37	28.92	-48.1	-49.9	23.3	6.03e-01	0	56	0	588251136	59	4404
2026-01-02 00:40:57.30	89.54	28.95	-48.2	-49.9	23.2	6.03e-01	0	56	0	594018304	59	4425
2026-01-02 00:41:00.29	90.71	28.96	-48.0	-49.8	23.4	6.01e-01	0	56	0	599261184	59	4342
2026-01-02 00:41:03.26	91.88	28.96	-48.4	-50.2	23.0	6.02e-01	0	56	0	605028352	59	4567
2026-01-02 00:41:06.24	93.06	28.95	-48.2	-49.9	23.2	6.02e-01	0	56	0	610795520	59	4434
2026-01-02 00:41:09.21	94.23	28.92	-48.1	-49.8	23.4	6.02e-01	0	56	0	616038400	59	4354
2026-01-02 00:41:12.17	95.39	28.89	-48.0	-49.7	23.4	6.02e-01	0	56	0	621805568	59	4318
2026-01-02 00:41:15.14	96.55	28.84	-47.8	-49.4	23.7	6.04e-01	0	56	0	627048448	59	4192
2026-01-02 00:41:18.11	97.71	28.78	-48.1	-49.8	23.3	6.01e-01	0	56	0	632815616	59	4388
2026-01-02 00:41:21.08	98.86	28.71	-48.0	-49.6	23.5	6.01e-01	0	56	0	638582784	58	4543
2026-01-02 00:41:24.05	100.01	28.62	-47.8	-49.5	23.6	6.02e-01	0	56	0	643825664	58	4467
2026-01-02 00:41:27.02	101.16	28.53	-48.1	-49.9	23.3	6.00e-01	0	56	0	649592832	58	4663
2026-01-02 00:41:29.96	102.28	28.42	-48.0	-49.7	23.4	6.04e-01	0	56	0	654835712	58	4596
2026-01-02 00:41:32.91	103.40	28.30	-48.0	-49.7	23.4	6.02e-01	0	56	0	660602880	58	4570
2026-01-02 00:41:35.88	104.52	28.17	-48.4	-50.2	23.0	6.03e-01	0	56	0	666370048	58	4824
2026-01-02 00:41:38.86	105.63	28.03	-48.5	-50.3	22.9	6.03e-01	0	56	0	671612928	59	4645
2026-01-02 00:41:41.82	106.72	27.88	-48.9	-50.9	22.3	6.03e-01	0	56	0	677380096	59	4957
2026-01-02 00:41:44.79	107.81	27.72	-48.3	-50.2	22.6	6.02e-01	0	56	0	682622976	60	4297
2026-01-02 00:41:47.75	108.89	27.56	-48.6	-50.6	22.6	6.03e-01	0	56	0	688390144	59	4769
2026-01-02 00:41:50.72	109.95	27.38	-48.4	-50.2	23.0	6.03e-01	0	56	0	694157312	59	4552
2026-01-02 00:41:53.69	111.00	27.19	-48.1	-49.8	23.4	6.02e-01	0	56	0	699400192	59	4350
2026-01-02 00:41:56.65	112.04	27.00	-48.1	-49.8	23.4	6.03e-01	0	56	0	705167360	59	4349
2026-01-02 00:41:59.61	113.06	26.79	-48.1	-49.9	23.2	6.03e-01	0	56	0	710410240	59	4410
2026-01-02 00:42:02.59	114.08	26.58	-48.2	-50.0	23.1	6.03e-01	0	56	0	716177408	59	4442
2026-01-02 00:42:05.56	115.08	26.36	-48.3	-50.0	23.1	6.03e-01	0	56	0	721944576	59	4481
2026-01-02 00:42:08.53	116.06	26.14	-48.6	-50.4	22.7	6.02e-01	0	56	0	727187456	59	4694
2026-01-02 00:42:11.49	117.03	25.91	-48.8	-50.8	22.4	6.01e-01	0	56	0	732954624	59	4886
2026-01-02 00:42:14.47	117.99	25.67	-48.4	-50.3	22.5	6.03e-01	0	56	0	738197504	60	4348
2026-01-02 00:42:17.43	118.93	25.43	-48.5	-50.5	22.4	6.02e-01	0	56	0	743964672	60	4453
2026-01-02 00:42:20.39	119.85	25.18	-48.5	-50.3	22.9	6.02e-01	0	56	0	749731840	59	4620
2026-01-02 00:42:23.37	120.77	24.93	-48.2	-50.0	23.1	6.02e-01	0	56	0	754974720	59	4460
2026-01-02 00:42:26.34	121.67	24.67	-48.2	-50.0	23.1	6.02e-01	0	56	0	760741888	59	4442
2026-01-02 00:42:29.30	122.55	24.41	-48.0	-49.7	23.4	6.00e-01	0	56	0	766509056	59	4294
2026-01-02 00:42:32.27	123.41	24.14	-48.1	-49.8	23.3	6.02e-01	0	56	0	771751936	59	4374
2026-01-02 00:42:35.25	124.27	23.87	-48.3	-50.1	23.0	6.04e-01	0	56	0	777519104	59	4514
2026-01-02 00:42:38.22	125.11	23.60	-48.0	-49.7	23.4	6.03e-01	0	56	0	782761984	59	4308
2026-01-02 00:42:41.18	125.93	23.33	-47.9	-49.6	23.5	6.02e-01	0	56	0	788529152	59	4261
2026-01-02 00:42:44.15	126.74	23.05	-48.2	-49.9	23.1	6.01e-01	0	56	0	794296320	59	4438
2026-01-02 00:42:47.11	127.53	22.77	-47.9	-49.6	23.5	6.03e-01	0	56	0	799539200	59	4251
2026-01-02 00:42:50.06	128.30	22.49	-48.2	-49.9	23.2	6.02e-01	0	56	0	805306368	59	4422
2026-01-02 00:42:53.04	129.07	22.21	-48.2	-50.0	23.1	6.02e-01	0	56	0	810549248	59	4483
2026-01-02 00:42:56.02	129.82	21.92	-48.1	-49.9	23.2	6.04e-01	0	56	0	816316416	59	4396
2026-01-02 00:42:58.99	130.56	21.64	-48.4	-50.2	22.9	6.05e-01	0	57	0	822083584	59	4564
2026-01-02 00:43:01.96	131.28	21.35	-48.5	-50.4	22.3	6.02e-01	0	56	0	827326464	60	4420
2026-01-02 00:43:04.92	131.99	21.06	-48.3	-50.2	22.5	6.01e-01	0	56	0	833093632	60	4324
2026-01-02 00:43:07.89	132.68	20.77	-48.4	-50.4	22.3	6.02e-01	0	56	0	838860800	60	4393
2026-01-02 00:43:10.85	133.36	20.49	-48.0	-49.6	23.4	6.03e-01	0	56	0	844103680	59	4288
2026-01-02 00:43:13.81	134.03	20.20	-47.9	-49.6	23.4	6.00e-01	0	56	0	849870848	59	4283
2026-01-02 00:43:16.77	134.68	19.91	-47.9	-49.6	23.5	6.03e-01	0	56	0	855113728	59	4247
2026-01-02 00:43:19.75	135.33	19.62	-48.0	-49.7	23.4	6.03e-01	0	56	0	860880896	59	4293
2026-01-02 00:43:22.72	135.96	19.33	-47.9	-49.6	23.5	6.03e-01	0	56	0	866648064	59	4264
2026-01-02 00:43:25.68	136.58	19.05	-47.8	-49.5	23.6	6.01e-01	0	56	0	871890944	59	4208
2026-01-02 00:43:28.65	137.19	18.76	-47.9	-49.6	23.4	6.02e-01	0	57	0	877658112	59	4287
2026-01-02 00:43:31.63	137.79	18.47	-47.6	-49.2	23.8	6.01e-01	0	56	0	882900992	58	4334
2026-01-02 00:43:34.60	138.37	18.19	-47.7	-49.4	23.6	6.03e-01	0	56	0	888668160	58	4396
2026-01-02 00:43:37.57	138.95	17.90	-47.7	-49.4	23.6	6.02e-01	0	56	0	894435328	58	4401
2026-01-02 00:43:40.54	139.51	17.62	-47.6	-49.2	23.7	6.03e-01	0	57	0	899678208	58	4326
2026-01-02 00:43:43.51	140.06	17.34	-47.7	-49.4	23.6	6.02e-01	0	56	0	905445376	58	4414
2026-01-02 00:43:46.47	140.60	17.06	-48.0	-49.7	23.2	6.03e-01	0	56	0	910688256	58	4585
2026-01-02 00:43:49.44	141.13	16.78	-47.7	-49.4	23.6	6.02e-01	0	56	0	916455424	58	4397
2026-01-02 00:43:52.40	141.65	16.50	-47.9	-49.6	23.4	6.02e-01	0	56	0	922222592	58	4502
2026-01-02 00:43:55.36	142.16	16.22	-48.0	-49.7	23.2	6.05e-01	0	56	0	927465472	58	4578
2026-01-02 00:43:58.31	142.66	15.95	-48.0	-49.8	23.1	6.03e-01	0	57	0	933232640	58	4629
2026-01-02 00:44:01.29	143.15	15.67	-47.8	-49.5	23.4	6.03e-01	0	56	0	938999808	58	4469
2026-01-02 00:44:04.26	143.63	15.40	-47.9	-49.7	23.3	6.03e-01	0	56	0	944242688	58	4548
2026-01-02 00:44:07.24	144.11	15.13	-48.1	-49.8	23.1	6.03e-01	0	56	0	950009856	58	4641
2026-01-02 00:44:10.19	144.57	14.86	-47.9	-49.6	23.3	6.05e-01	0	56	0	955252736	58	4530
2026-01-02 00:44:13.15	145.03	14.59	-47.8	-49.6	23.3	6.03e-01	0	56	0	961019904	58	4496
2026-01-02 00:44:16.12	145.47	14.33	-47.9	-49.7	23.2	6.01e-01	0	57	0	966787072	58	4547
2026-01-02 00:44:19.09	145.91	14.06	-48.2	-50.0	22.8	6.01e-01	0	56	0	972029952	58	4738
2026-01-02 00:44:22.06	146.35	13.80	-48.3	-50.2	22.7	5.99e-01	0	57	0	977797120	58	4819
2026-01-02 00:44:25.03	146.77	13.54	-48.4	-50.3	22.6	6.01e-01	0	56	0	983564288	58	4894
2026-01-02 00:44:27.99	147.19	13.28	-48.3	-50.2	22.7	6.01e-01	0	57	0	988807168	58	4828
2026-01-02 00:44:30.94	147.59	13.02	-48.5	-50.5	22.4	6.03e-01	0	57	0	994574336	59	4741
2026-01-02 00:44:33.91	147.99	12.77	-48.5	-50.4	22.5	6.04e-01	0	57	0	999817216	59	4684
2026-01-02 00:44:36.88	148.39	12.51	-48.3	-50.2	22.7	5.98e-01	0	57	0	1005584384	59	4554
2026-01-02 00:44:39.83	148.77	12.26	-48.3	-50.2	22.6	6.05e-01	0	57	0	1010827264	59	4562
2026-01-02 00:44:42.80	149.16	12.01	-48.0	-49.8	22.9	6.04e-01	0	57	0	1016594432	59	4381
2026-01-02 00:44:45.76	149.53	11.77	-48.0	-49.8	22.9	6.02e-01	0	57	0	1022361600	59	4391
2026-01-02 00:44:48.72	149.90	11.52	-48.1	-49.9	22.9	6.02e-01	0	57	0	1027604480	59	4412
2026-01-02 00:44:51.68	150.26	11.28	-48.3	-50.2	22.6	6.00e-01	0	57	0	1033371648	59	4555
2026-01-02 00:44:54.65	150.61	11.03	-48.2	-50.0	22.8	6.01e-01	0	57	0	1038614528	59	4470
2026-01-02 00:44:57.61	150.96	10.79	-48.2	-50.2	22.6	6.03e-01	0	57	0	1044381696	59	4546
2026-01-02 00:45:00.59	151.30	10.55	-48.4	-50.3	22.4	6.03e-01	0	57	0	1050148864	59	4649
2026-01-02 00:45:03.56	151.64	10.31	-48.6	-50.6	22.1	6.02e-01	0	57	0	1055391744	59	4812
2026-01-02 00:45:06.53	151.97	10.08	-48.6	-50.6	22.1	6.04e-01	0	57	0	1061158912	59	4811
2026-01-02 00:45:09.50	152.30	9.84	-48.7	-50.9	21.8	6.04e-01	0	57	0	1066401792	59	4929
2026-01-02 00:45:12.46	152.62	9.61	-48.6	-50.7	22.0	6.05e-01	0	57	0	1072168960	59	4853
2026-01-02 00:45:15.43	152.94	9.38	-48.7	-50.8	21.8	6.00e-01	0	57	0	1077936128	59	4924
2026-01-02 00:45:18.40	153.25	9.15	-48.7	-50.8	21.9	6.02e-01	0	57	0	1083179008	59	4895
2026-01-02 00:45:21.35	153.55	8.92	-48.8	-50.9	21.7	6.01e-01	0	57	0	1088946176	59	4963
2026-01-02 00:45:24.32	153.85	8.70	-48.8	-51.1	21.1	6.02e-01	0	57	0	1094189056	60	4804
2026-01-02 00:45:27.29	154.15	8.47	-48.7	-51.0	21.3	6.05e-01	0	57	0	1099956224	60	4721
2026-01-02 00:45:30.25	154.44	8.25	-48.5	-50.7	21.5	6.02e-01	0	57	0	1105723392	60	4574
2026-01-02 00:45:33.22	154.73	8.03	-48.5	-50.7	21.5	6.01e-01	0	57	0	1110966272	60	4582
2026-01-02 00:45:36.18	155.01	7.81	-48.4	-50.6	21.5	6.02e-01	0	57	0	1116733440	60	4521
2026-01-02 00:45:39.16	155.29	7.59	-48.6	-50.8	21.3	6.02e-01	0	57	0	1122500608	60	4644
2026-01-02 00:45:42.13	155.56	7.38	-48.6	-50.8	21.3	6.05e-01	0	57	0	1127743488	60	4643
2026-01-02 00:45:45.09	155.83	7.16	-48.6	-50.9	21.2	6.04e-01	0	57	0	1133510656	60	4656
2026-01-02 00:45:48.06	156.09	6.95	-48.5	-50.8	21.2	6.01e-01	0	57	0	1138753536	60	4641
2026-01-02 00:45:51.02	156.36	6.74	-48.7	-51.2	20.9	6.00e-01	0	57	0	1144520704	60	4821
2026-01-02 00:45:54.00	156.61	6.53	-48.8	-51.3	20.7	6.03e-01	0	57	0	1150287872	60	4886
2026-01-02 00:45:56.97	156.87	6.32	-48.8	-51.3	20.6	6.03e-01	0	57	0	1155530752	60	4911
2026-01-02 00:45:59.94	157.12	6.11	-48.8	-51.3	20.5	6.02e-01	0	57	0	1161297920	60	4901
2026-01-02 00:46:02.90	157.36	5.90	-48.9	-51.7	19.7	6.03e-01	0	57	0	1166540800	60	5158
2026-01-02 00:46:05.87	157.61	5.70	-48.9	-52.1	18.9	6.05e-01	0	57	0	1172307968	60	5382
2026-01-02 00:46:08.84	157.85	5.49	-49.5	-53.8	16.8	6.02e-01	0	57	0	1178075136	61	6159
2026-01-02 00:46:11.81	158.08	5.29	-50.1	-56.7	13.3	6.05e-01	0	57	0	1183318016	62	8145
2026-01-02 00:46:14.78	158.32	5.09	-50.3	-59.6	9.8	6.23e-01	0	57	0	1189085184	62	11309
2026-01-02 00:46:17.75	158.54	4.89	-53.5	-73.4	3.8	7.46e-01	0	57	104	1191182336	69	37099
2026-01-02 00:46:20.71	158.77	4.70	-54.0	-73.8	3.8	7.48e-01	0	57	104	1191182336	70	36944
2026-01-02 00:46:23.68	158.99	4.50	-54.1	-74.0	3.8	7.43e-01	0	57	104	1191182336	70	37531
2026-01-02 00:46:26.66	159.21	4.30	-54.2	-74.1	3.8	7.47e-01	0	57	104	1191182336	70	37963
2026-01-02 00:46:29.62	159.43	4.11	-54.2	-74.1	3.8	7.45e-01	0	57	104	1191182336	70	38092
2026-01-02 00:46:32.58	159.64	3.92	-54.3	-74.2	3.8	7.45e-01	0	57	104	1191182336	70	38433
2026-01-02 00:46:35.54	159.85	3.73	-54.3	-74.2	3.8	7.47e-01	0	57	104	1191182336	70	38569
2026-01-02 00:46:38.51	160.06	3.54	-54.4	-74.3	3.8	7.43e-01	0	57	104	1191182336	70	38751
2026-01-02 00:46:41.48	160.27	3.35	-54.4	-74.3	3.8	7.44e-01	0	57	104	1191182336	70	38847
2026-01-02 00:46:44.45	160.47	3.16	-54.3	-74.2	3.8	7.45e-01	0	57	104	1191182336	70	38664
2026-01-02 00:46:47.41	160.67	2.97	-54.3	-74.2	3.8	7.45e-01	0	57	104	1191182336	70	38564

#Closed at: 2026-01-02 00:46:48
#Recorded file [1191 MB]: D:/Data/31026_260102_034616.dat