passes_logs/2026/01/02/R3.0SM8_Murmansk_STILSPACE/R3.0SM8_Murmansk_STILSPACE__20260102_103327_NOAA_20_JPSS-1_rec.log

#Pass ID: 20260102_103327_NOAA 20 (JPSS-1)
#Satellite: NOAA 20 (JPSS-1)
#Configuration: NOAA 20
#almurnet v.1.7.20240730
#Start time: 2026-01-02 10:33:28

#Version: 2.2.20231116
#Station: R3.0SM8_Murmansk_STILSPACE
#Location: 33.092731 lon 68.902999 lat
#TLE: 1 43013U 17073A   26001.30344297  .00000183  00000+0  10758-3 0  9995
#TLE: 2 43013  98.7621 302.3885 0001938  59.1624 300.9742 14.19532032420790

#Time	Az	El	Level	Level2	SNR	BER	BlckErr	Temp	State	Recorded	gain1	gain2
2026-01-02 10:33:28.21	177.51	3.05	-52.2	-66.2	3.8	1.49e+00	0	47	0	0	66	18873
2026-01-02 10:33:32.15	177.65	3.31	-51.9	-65.7	3.8	1.49e+00	0	48	104	0	66	17817
2026-01-02 10:33:36.12	177.78	3.57	-51.5	-65.3	3.8	1.49e+00	0	48	104	0	65	17953
2026-01-02 10:33:40.09	177.92	3.83	-51.3	-65.2	3.8	1.49e+00	0	49	104	0	65	17810
2026-01-02 10:33:44.05	178.06	4.10	-51.5	-65.0	3.8	1.49e+00	0	49	104	0	65	17309
2026-01-02 10:33:48.03	178.21	4.37	-51.4	-64.2	3.8	1.49e+00	0	49	104	0	65	15916
2026-01-02 10:33:51.98	178.35	4.63	-51.2	-61.0	4.5	1.34e+00	31	49	0	0	65	10911
2026-01-02 10:33:55.92	178.50	4.91	-50.5	-57.0	7.1	2.00e-01	0	49	0	7340032	64	7320
2026-01-02 10:33:59.87	178.65	5.18	-50.4	-56.0	8.1	3.77e-02	0	50	0	14680064	63	6955
2026-01-02 10:34:03.83	178.81	5.46	-49.5	-53.6	10.7	4.48e-03	0	50	0	22020096	62	5554
2026-01-02 10:34:07.80	178.96	5.74	-48.7	-52.0	12.3	1.97e-04	0	50	0	29360128	60	5185
2026-01-02 10:34:11.76	179.12	6.02	-48.4	-51.3	13.1	2.51e-05	0	51	0	36700160	59	5069
2026-01-02 10:34:15.72	179.29	6.31	-48.4	-51.4	13.0	3.89e-05	0	50	0	44040192	59	5134
2026-01-02 10:34:19.66	179.45	6.60	-48.4	-51.1	13.3	1.60e-05	0	51	0	51380224	59	4983
2026-01-02 10:34:23.63	179.62	6.89	-48.5	-51.3	13.2	2.74e-05	0	51	0	58720256	59	5089
2026-01-02 10:34:27.57	179.79	7.19	-48.4	-51.1	13.5	8.30e-06	0	51	0	67108864	59	4931
2026-01-02 10:34:31.49	179.96	7.48	-48.4	-51.1	13.4	2.21e-05	0	51	0	74448896	59	4976
2026-01-02 10:34:35.46	180.14	7.79	-48.4	-51.0	13.6	6.10e-06	0	51	0	81788928	59	4903
2026-01-02 10:34:39.42	180.32	8.09	-48.3	-50.9	13.7	6.80e-06	0	52	0	89128960	59	4847
2026-01-02 10:34:43.38	180.51	8.40	-48.3	-50.9	13.8	2.20e-06	0	52	0	96468992	59	4856
2026-01-02 10:34:47.34	180.70	8.72	-48.4	-51.0	13.7	1.22e-05	0	52	0	103809024	59	4875
2026-01-02 10:34:51.29	180.89	9.03	-48.3	-50.7	14.0	3.00e-06	0	52	0	111149056	59	4752
2026-01-02 10:34:55.26	181.08	9.35	-48.0	-50.4	14.4	0.00e+00	0	52	0	118489088	59	4552
2026-01-02 10:34:59.22	181.29	9.68	-48.0	-50.3	14.5	0.00e+00	0	52	0	125829120	58	4796
2026-01-02 10:35:03.16	181.49	10.00	-47.9	-50.2	14.6	7.00e-07	0	52	0	133169152	58	4730
2026-01-02 10:35:07.13	181.70	10.34	-47.8	-50.1	14.8	0.00e+00	0	52	0	140509184	58	4662
2026-01-02 10:35:11.09	181.91	10.68	-47.8	-50.0	14.9	0.00e+00	0	53	0	147849216	58	4614
2026-01-02 10:35:15.05	182.13	11.02	-47.9	-50.2	14.7	7.00e-07	0	53	0	155189248	58	4718
2026-01-02 10:35:19.02	182.35	11.36	-47.7	-49.8	15.1	0.00e+00	0	53	0	163577856	58	4510
2026-01-02 10:35:22.96	182.58	11.71	-47.8	-50.0	14.9	0.00e+00	0	53	0	170917888	58	4634
2026-01-02 10:35:26.91	182.81	12.07	-47.7	-49.9	15.0	0.00e+00	0	53	0	178257920	58	4564
2026-01-02 10:35:30.84	183.05	12.42	-47.9	-50.1	14.9	0.00e+00	0	53	0	185597952	58	4663
2026-01-02 10:35:34.81	183.29	12.79	-47.6	-49.7	15.2	0.00e+00	0	54	0	192937984	58	4480
2026-01-02 10:35:38.77	183.54	13.16	-47.4	-49.3	15.7	0.00e+00	0	53	0	200278016	57	4522
2026-01-02 10:35:42.71	183.80	13.53	-47.2	-49.1	15.9	0.00e+00	0	54	0	207618048	57	4416
2026-01-02 10:35:46.67	184.06	13.91	-47.2	-49.0	16.0	0.00e+00	0	54	0	214958080	57	4373
2026-01-02 10:35:50.64	184.33	14.30	-47.2	-49.0	15.9	0.00e+00	0	54	0	222298112	57	4390
2026-01-02 10:35:54.59	184.60	14.69	-47.3	-49.2	15.8	0.00e+00	0	54	0	229638144	57	4490
2026-01-02 10:35:58.54	184.88	15.09	-47.3	-49.2	15.9	0.00e+00	0	54	0	236978176	57	4446
2026-01-02 10:36:02.50	185.17	15.49	-47.3	-49.2	15.9	0.00e+00	0	54	0	244318208	57	4449
2026-01-02 10:36:06.45	185.47	15.90	-46.7	-48.4	16.7	0.00e+00	0	54	0	251658240	56	4307
2026-01-02 10:36:10.43	185.77	16.32	-47.0	-48.7	16.4	0.00e+00	0	54	0	258998272	56	4464
2026-01-02 10:36:14.38	186.09	16.74	-46.9	-48.7	16.4	0.00e+00	0	54	0	267386880	56	4455
2026-01-02 10:36:18.34	186.41	17.17	-46.7	-48.3	16.7	0.00e+00	0	54	0	274726912	56	4278
2026-01-02 10:36:22.29	186.74	17.60	-46.6	-48.2	16.9	0.00e+00	0	55	0	282066944	56	4220
2026-01-02 10:36:26.25	187.08	18.05	-46.2	-47.6	17.3	0.00e+00	0	55	0	289406976	55	4187
2026-01-02 10:36:30.20	187.42	18.50	-46.3	-47.9	17.1	0.00e+00	0	55	0	296747008	55	4303
2026-01-02 10:36:34.16	187.78	18.95	-46.0	-47.5	17.5	0.00e+00	0	55	0	304087040	55	4107
2026-01-02 10:36:38.12	188.15	19.42	-46.1	-47.5	17.5	0.00e+00	0	55	0	311427072	55	4114
2026-01-02 10:36:42.07	188.53	19.89	-46.4	-47.9	17.2	0.00e+00	0	55	0	318767104	55	4297
2026-01-02 10:36:46.02	188.92	20.37	-46.4	-47.9	17.2	0.00e+00	0	55	0	326107136	55	4295
2026-01-02 10:36:49.98	189.33	20.86	-46.4	-47.9	17.1	0.00e+00	0	55	0	333447168	55	4331
2026-01-02 10:36:53.93	189.74	21.35	-46.4	-48.0	17.1	0.00e+00	0	55	0	340787200	55	4342
2026-01-02 10:36:57.90	190.17	21.86	-46.1	-47.5	17.5	0.00e+00	0	55	0	348127232	55	4121
2026-01-02 10:37:01.85	190.61	22.37	-46.1	-47.5	17.6	0.00e+00	0	55	0	355467264	55	4122
2026-01-02 10:37:05.80	191.07	22.90	-46.0	-47.4	17.7	0.00e+00	0	55	0	362807296	54	4312
2026-01-02 10:37:09.76	191.54	23.43	-46.1	-47.5	17.5	0.00e+00	0	55	0	371195904	54	4383
2026-01-02 10:37:13.72	192.03	23.97	-45.9	-47.3	17.8	0.00e+00	0	55	0	378535936	54	4255
2026-01-02 10:37:17.69	192.54	24.52	-46.1	-47.5	17.6	0.00e+00	0	55	0	385875968	54	4380
2026-01-02 10:37:21.64	193.06	25.08	-46.5	-48.1	17.1	0.00e+00	0	55	0	393216000	54	4661
2026-01-02 10:37:25.62	193.60	25.65	-46.8	-48.4	16.8	0.00e+00	0	55	0	400556032	55	4557
2026-01-02 10:37:29.58	194.16	26.23	-46.9	-48.6	16.5	0.00e+00	0	56	0	407896064	55	4689
2026-01-02 10:37:33.53	194.74	26.82	-47.1	-48.9	16.4	0.00e+00	0	56	0	415236096	56	4551
2026-01-02 10:37:37.50	195.35	27.42	-47.2	-49.0	16.3	0.00e+00	0	56	0	422576128	56	4604
2026-01-02 10:37:41.45	195.97	28.02	-47.3	-49.1	16.2	0.00e+00	0	56	0	429916160	56	4691
2026-01-02 10:37:45.42	196.62	28.64	-47.8	-49.8	15.5	0.00e+00	0	56	0	437256192	57	4784
2026-01-02 10:37:49.38	197.29	29.27	-48.4	-50.7	14.6	0.00e+00	0	56	0	444596224	58	5006
2026-01-02 10:37:53.34	197.99	29.91	-48.6	-51.2	14.1	7.00e-07	0	56	0	451936256	59	4997
2026-01-02 10:37:57.31	198.72	30.56	-48.6	-51.0	14.3	1.50e-06	0	56	0	460324864	59	4882
2026-01-02 10:38:01.25	199.47	31.21	-48.7	-51.2	14.1	1.50e-06	0	56	0	467664896	59	5010
2026-01-02 10:38:05.21	200.26	31.88	-48.8	-51.4	13.9	4.50e-06	0	56	0	475004928	59	5130
2026-01-02 10:38:09.15	201.07	32.55	-48.8	-51.4	13.9	3.00e-06	0	56	0	482344960	59	5149
2026-01-02 10:38:13.12	201.93	33.24	-48.8	-51.4	14.0	7.00e-07	0	56	0	489684992	59	5101
2026-01-02 10:38:17.06	202.81	33.93	-49.0	-51.5	13.8	4.50e-06	0	56	0	497025024	59	5192
2026-01-02 10:38:21.03	203.74	34.63	-48.4	-50.7	14.7	0.00e+00	0	56	0	504365056	59	4724
2026-01-02 10:38:24.99	204.71	35.34	-48.3	-50.6	14.7	7.00e-07	0	56	0	511705088	59	4684
2026-01-02 10:38:28.94	205.72	36.06	-47.7	-49.5	15.9	0.00e+00	0	56	0	519045120	58	4382
2026-01-02 10:38:32.89	206.77	36.77	-46.9	-48.5	16.9	0.00e+00	0	56	0	526385152	56	4362
2026-01-02 10:38:36.84	207.87	37.50	-46.5	-48.0	17.4	0.00e+00	0	56	0	533725184	56	4128
2026-01-02 10:38:40.79	209.02	38.23	-46.9	-48.5	16.9	0.00e+00	0	56	0	541065216	56	4344
2026-01-02 10:38:44.75	210.22	38.96	-46.8	-48.4	16.9	0.00e+00	0	56	0	548405248	56	4332
2026-01-02 10:38:48.72	211.48	39.70	-47.3	-48.9	16.4	0.00e+00	0	56	0	556793856	56	4590
2026-01-02 10:38:52.70	212.80	40.43	-47.4	-49.2	16.2	0.00e+00	0	56	0	564133888	57	4461
2026-01-02 10:38:56.66	214.17	41.17	-47.1	-48.7	16.6	0.00e+00	0	56	0	571473920	57	4233
2026-01-02 10:39:00.64	215.62	41.90	-47.6	-49.5	15.9	0.00e+00	0	56	0	578813952	57	4614
2026-01-02 10:39:04.58	217.11	42.61	-47.4	-49.1	16.3	0.00e+00	0	56	0	586153984	57	4425
2026-01-02 10:39:08.55	218.68	43.33	-48.0	-50.0	15.4	0.00e+00	0	56	0	593494016	58	4634
2026-01-02 10:39:12.52	220.33	44.03	-47.3	-49.1	16.2	0.00e+00	0	56	0	600834048	57	4438
2026-01-02 10:39:16.48	222.04	44.72	-48.5	-50.8	14.7	0.00e+00	0	56	0	608174080	58	5050
2026-01-02 10:39:20.44	223.82	45.39	-47.9	-49.9	15.5	7.00e-07	0	56	0	615514112	58	4567
2026-01-02 10:39:24.39	225.68	46.04	-48.1	-50.2	15.3	7.00e-07	0	57	0	622854144	58	4724
2026-01-02 10:39:28.35	227.61	46.66	-47.9	-50.0	15.4	0.00e+00	0	57	0	630194176	58	4624
2026-01-02 10:39:32.30	229.62	47.26	-48.1	-50.3	15.1	0.00e+00	0	56	0	637534208	58	4785
2026-01-02 10:39:36.27	231.71	47.83	-47.6	-49.5	15.9	0.00e+00	0	56	0	645922816	58	4367
2026-01-02 10:39:40.22	233.86	48.36	-47.9	-49.9	15.5	0.00e+00	0	57	0	653262848	58	4578
2026-01-02 10:39:44.17	236.09	48.85	-47.7	-49.6	15.8	0.00e+00	0	56	0	660602880	58	4421
2026-01-02 10:39:48.14	238.40	49.31	-47.9	-49.9	15.6	0.00e+00	0	57	0	667942912	58	4581
2026-01-02 10:39:52.08	240.75	49.71	-48.9	-51.6	13.9	3.00e-06	0	57	0	675282944	59	5222
2026-01-02 10:39:56.03	243.17	50.07	-48.6	-50.9	14.5	7.00e-07	0	57	0	682622976	59	4853
2026-01-02 10:40:00.00	245.66	50.37	-48.0	-50.0	15.4	0.00e+00	0	57	0	689963008	59	4354
2026-01-02 10:40:03.94	248.17	50.62	-47.4	-49.2	16.2	0.00e+00	0	57	0	697303040	57	4468
2026-01-02 10:40:07.91	250.74	50.82	-47.6	-49.4	16.0	0.00e+00	0	57	0	704643072	57	4597
2026-01-02 10:40:11.84	253.31	50.95	-47.2	-48.8	16.6	0.00e+00	0	57	0	711983104	57	4274
2026-01-02 10:40:15.80	255.91	51.03	-47.2	-48.9	16.5	0.00e+00	0	57	0	719323136	57	4302
2026-01-02 10:40:19.77	258.53	51.04	-48.0	-50.0	15.4	0.00e+00	0	57	0	726663168	57	4884
2026-01-02 10:40:23.74	261.15	50.99	-48.7	-51.1	14.3	0.00e+00	0	57	0	734003200	59	4952
2026-01-02 10:40:27.71	263.75	50.88	-48.5	-50.7	14.7	0.00e+00	0	57	0	741343232	59	4721
2026-01-02 10:40:31.66	266.32	50.71	-48.2	-50.4	15.0	1.50e-06	0	57	0	749731840	59	4562
2026-01-02 10:40:35.60	268.84	50.49	-48.3	-50.5	14.9	0.00e+00	0	57	0	757071872	58	4895
2026-01-02 10:40:39.57	271.34	50.20	-48.7	-51.1	14.3	0.00e+00	0	57	0	764411904	59	4971
2026-01-02 10:40:43.53	273.79	49.87	-48.0	-50.0	15.4	0.00e+00	0	57	0	771751936	59	4376
2026-01-02 10:40:47.49	276.18	49.48	-49.1	-51.8	13.5	3.20e-05	0	57	0	779091968	61	4811
2026-01-02 10:40:51.45	278.51	49.05	-50.5	-54.6	10.7	2.21e-03	0	57	0	786432000	62	6239
2026-01-02 10:40:55.43	280.78	48.57	-50.1	-53.9	11.4	5.39e-04	0	57	0	793772032	62	5726
2026-01-02 10:40:59.37	282.95	48.06	-49.6	-52.8	12.6	3.35e-05	0	57	0	801112064	61	5343
2026-01-02 10:41:03.34	285.07	47.50	-48.6	-51.0	14.4	1.83e-05	0	57	0	808452096	60	4636
2026-01-02 10:41:07.29	287.10	46.92	-48.5	-50.9	14.6	2.20e-06	0	57	0	815792128	59	4821
2026-01-02 10:41:11.23	289.06	46.31	-48.5	-50.8	14.6	0.00e+00	0	57	0	823132160	59	4801
2026-01-02 10:41:15.17	290.93	45.67	-47.9	-49.9	15.6	0.00e+00	0	57	0	830472192	58	4565
2026-01-02 10:41:19.14	292.75	45.01	-48.8	-51.3	14.1	7.00e-07	0	57	0	837812224	59	5051
2026-01-02 10:41:23.09	294.48	44.34	-48.1	-50.2	15.2	0.00e+00	0	57	0	846200832	59	4469
2026-01-02 10:41:27.03	296.14	43.65	-47.9	-49.8	15.6	0.00e+00	0	57	0	853540864	58	4528
2026-01-02 10:41:30.98	297.73	42.94	-47.3	-49.0	16.4	0.00e+00	0	57	0	860880896	57	4384
2026-01-02 10:41:34.95	299.26	42.23	-47.6	-49.4	16.0	0.00e+00	0	57	0	868220928	58	4340
2026-01-02 10:41:38.90	300.72	41.51	-48.9	-51.5	13.8	3.00e-06	0	57	0	875560960	59	5180
2026-01-02 10:41:42.87	302.12	40.78	-48.2	-50.2	15.2	0.00e+00	0	57	0	882900992	59	4492
2026-01-02 10:41:46.83	303.46	40.05	-49.3	-52.2	13.1	1.75e-05	0	57	0	890241024	60	5310
2026-01-02 10:41:50.77	304.73	39.32	-49.2	-52.0	13.3	7.60e-06	0	57	0	897581056	60	5199
2026-01-02 10:41:54.72	305.95	38.59	-49.7	-53.1	12.1	4.13e-04	0	57	0	904921088	61	5564
2026-01-02 10:41:58.68	307.12	37.86	-48.8	-51.4	14.0	4.50e-06	0	57	0	912261120	60	4821
2026-01-02 10:42:02.64	308.24	37.14	-49.4	-52.5	12.9	1.12e-04	0	57	0	919601152	61	5164
2026-01-02 10:42:06.59	309.31	36.42	-48.6	-50.8	14.6	0.00e+00	0	57	0	926941184	59	4801
2026-01-02 10:42:10.54	310.34	35.71	-50.4	-54.7	10.6	2.64e-03	0	57	0	934281216	62	6276
2026-01-02 10:42:14.49	311.32	35.00	-47.4	-49.1	16.2	0.00e+00	0	57	0	941621248	57	4411
2026-01-02 10:42:18.43	312.26	34.30	-49.8	-53.4	11.9	1.26e-04	0	57	0	950009856	61	5736
2026-01-02 10:42:22.39	313.17	33.61	-48.1	-50.2	15.2	7.00e-07	0	57	0	957349888	59	4449
2026-01-02 10:42:26.34	314.03	32.92	-49.0	-51.7	13.7	7.00e-07	0	57	0	964689920	59	5316
2026-01-02 10:42:30.29	314.86	32.25	-49.0	-51.9	13.4	6.79e-05	0	57	0	972029952	61	4820
2026-01-02 10:42:34.25	315.66	31.58	-48.0	-50.1	15.2	0.00e+00	0	57	0	979369984	59	4407
2026-01-02 10:42:38.20	316.43	30.92	-49.7	-53.2	12.1	9.61e-05	0	57	0	986710016	61	5593
2026-01-02 10:42:42.16	317.17	30.27	-49.4	-52.5	12.7	1.41e-04	0	57	0	994050048	62	4922
2026-01-02 10:42:46.12	317.88	29.63	-48.1	-50.1	15.2	0.00e+00	0	57	0	1001390080	59	4437
2026-01-02 10:42:50.07	318.56	29.01	-48.9	-51.5	13.8	1.50e-06	0	57	0	1008730112	59	5198
2026-01-02 10:42:54.03	319.22	28.39	-48.8	-51.2	14.1	3.00e-06	0	57	0	1016070144	59	5020
2026-01-02 10:42:57.99	319.86	27.77	-47.9	-50.0	15.3	0.00e+00	0	57	0	1023410176	59	4372
2026-01-02 10:43:01.94	320.47	27.18	-47.8	-49.8	15.6	0.00e+00	0	58	0	1030750208	58	4494
2026-01-02 10:43:05.90	321.06	26.59	-48.0	-50.0	15.3	0.00e+00	0	57	0	1038090240	58	4615
2026-01-02 10:43:09.85	321.63	26.01	-48.1	-50.3	15.0	0.00e+00	0	57	0	1045430272	58	4783
2026-01-02 10:43:13.80	322.18	25.44	-47.7	-49.8	15.5	0.00e+00	0	57	0	1052770304	58	4512
2026-01-02 10:43:17.74	322.71	24.88	-47.8	-49.8	15.5	0.00e+00	0	57	0	1061158912	58	4510
2026-01-02 10:43:21.70	323.22	24.33	-48.3	-50.6	14.7	0.00e+00	0	57	0	1068498944	58	4947
2026-01-02 10:43:25.65	323.72	23.78	-48.0	-50.1	15.2	0.00e+00	0	57	0	1075838976	58	4681
2026-01-02 10:43:29.60	324.19	23.25	-47.5	-49.4	15.9	0.00e+00	0	58	0	1083179008	58	4314
2026-01-02 10:43:33.54	324.66	22.73	-47.5	-49.4	15.8	0.00e+00	0	57	0	1090519040	57	4579
2026-01-02 10:43:37.49	325.11	22.22	-47.5	-49.4	15.9	0.00e+00	0	57	0	1097859072	57	4555
2026-01-02 10:43:41.44	325.54	21.71	-47.5	-49.4	15.8	0.00e+00	0	57	0	1105199104	57	4580
2026-01-02 10:43:45.38	325.96	21.21	-47.9	-49.9	15.3	0.00e+00	0	58	0	1112539136	57	4857
2026-01-02 10:43:49.35	326.38	20.72	-48.2	-50.4	14.8	0.00e+00	0	57	0	1119879168	58	4832
2026-01-02 10:43:53.31	326.77	20.24	-48.2	-50.5	14.7	1.50e-06	0	57	0	1127219200	58	4891
2026-01-02 10:43:57.26	327.16	19.77	-48.1	-50.2	15.0	0.00e+00	0	57	0	1134559232	58	4747
2026-01-02 10:44:01.21	327.54	19.30	-47.8	-49.9	15.3	0.00e+00	0	57	0	1141899264	58	4558
2026-01-02 10:44:05.16	327.90	18.84	-48.2	-50.4	14.7	0.00e+00	0	57	0	1149239296	58	4862
2026-01-02 10:44:09.12	328.25	18.39	-48.4	-50.7	14.5	7.00e-07	0	57	0	1156579328	58	5013
2026-01-02 10:44:13.08	328.60	17.94	-48.0	-50.1	15.1	0.00e+00	0	57	0	1164967936	58	4664
2026-01-02 10:44:17.04	328.94	17.51	-47.7	-49.7	15.5	0.00e+00	0	57	0	1172307968	58	4469
2026-01-02 10:44:21.01	329.26	17.08	-47.3	-49.1	16.0	0.00e+00	0	57	0	1179648000	57	4412
2026-01-02 10:44:24.96	329.58	16.65	-47.4	-49.3	15.8	0.00e+00	0	58	0	1186988032	57	4529
2026-01-02 10:44:28.93	329.89	16.23	-47.7	-49.8	15.3	0.00e+00	0	57	0	1194328064	57	4786
2026-01-02 10:44:32.89	330.19	15.82	-48.0	-50.1	15.0	0.00e+00	0	58	0	1201668096	57	4959
2026-01-02 10:44:36.84	330.49	15.42	-47.9	-50.0	15.1	0.00e+00	0	57	0	1209008128	57	4921
2026-01-02 10:44:40.80	330.77	15.02	-47.6	-49.6	15.4	0.00e+00	0	58	0	1216348160	57	4687
2026-01-02 10:44:44.74	331.05	14.63	-47.7	-49.8	15.3	0.00e+00	0	58	0	1223688192	57	4782
2026-01-02 10:44:48.70	331.33	14.24	-47.4	-49.3	15.7	0.00e+00	0	58	0	1231028224	57	4544
2026-01-02 10:44:52.66	331.59	13.86	-47.7	-49.8	15.3	0.00e+00	0	57	0	1238368256	57	4775
2026-01-02 10:44:56.63	331.85	13.48	-47.9	-50.2	14.8	0.00e+00	0	58	0	1245708288	57	4988
2026-01-02 10:45:00.61	332.11	13.11	-48.4	-50.8	14.2	0.00e+00	0	57	0	1253048320	58	5093
2026-01-02 10:45:04.57	332.36	12.74	-48.7	-51.4	13.6	8.30e-06	0	57	0	1261436928	59	5136
2026-01-02 10:45:08.53	332.60	12.38	-48.5	-51.2	13.8	3.00e-06	0	57	0	1268776960	59	4994
2026-01-02 10:45:12.49	332.84	12.02	-48.7	-51.4	13.5	9.10e-06	0	58	0	1276116992	59	5145
2026-01-02 10:45:16.46	333.07	11.67	-48.3	-50.8	14.1	4.50e-06	0	58	0	1283457024	59	4795
2026-01-02 10:45:20.41	333.30	11.33	-48.1	-50.4	14.4	2.20e-06	0	58	0	1290797056	59	4575
2026-01-02 10:45:24.37	333.52	10.98	-48.4	-50.9	13.9	2.20e-06	0	57	0	1298137088	59	4862
2026-01-02 10:45:28.34	333.74	10.65	-48.3	-50.8	14.0	1.50e-06	0	58	0	1305477120	59	4787
2026-01-02 10:45:32.29	333.95	10.31	-48.6	-51.3	13.5	9.10e-06	0	58	0	1312817152	59	5081
2026-01-02 10:45:36.24	334.16	9.98	-48.3	-50.8	14.0	3.00e-06	0	57	0	1320157184	59	4797
2026-01-02 10:45:40.21	334.36	9.66	-48.2	-50.6	14.1	2.20e-06	0	57	0	1327497216	59	4700
2026-01-02 10:45:44.18	334.57	9.34	-48.4	-51.1	13.7	6.10e-06	0	58	0	1334837248	59	4930
2026-01-02 10:45:48.15	334.76	9.02	-48.6	-51.3	13.3	1.60e-05	0	58	0	1342177280	59	5097
2026-01-02 10:45:52.09	334.95	8.70	-48.9	-51.9	12.8	5.49e-05	0	58	0	1350565888	59	5408
2026-01-02 10:45:56.06	335.14	8.39	-48.9	-52.0	12.6	8.39e-05	0	57	0	1357905920	59	5502
2026-01-02 10:46:00.01	335.33	8.09	-48.8	-52.0	12.6	8.92e-05	0	57	0	1365245952	60	5162
2026-01-02 10:46:03.96	335.51	7.79	-48.9	-52.1	12.4	1.13e-04	0	58	0	1372585984	60	5275
2026-01-02 10:46:07.92	335.69	7.49	-48.8	-51.9	12.6	1.01e-04	0	58	0	1379926016	60	5105
2026-01-02 10:46:11.88	335.87	7.19	-49.0	-52.4	12.1	1.68e-04	0	58	0	1387266048	60	5432
2026-01-02 10:46:15.85	336.04	6.90	-48.7	-51.8	12.6	8.77e-05	0	58	0	1394606080	60	5090
2026-01-02 10:46:19.82	336.21	6.60	-48.7	-51.8	12.5	1.23e-04	0	58	0	1401946112	60	5092
2026-01-02 10:46:23.79	336.37	6.32	-48.7	-52.0	12.3	1.56e-04	0	58	0	1409286144	60	5183
2026-01-02 10:46:27.75	336.54	6.03	-48.7	-51.8	12.5	1.52e-04	0	58	0	1416626176	60	5079
2026-01-02 10:46:31.70	336.70	5.75	-48.6	-51.9	12.3	1.98e-04	0	58	0	1423966208	60	5141
2026-01-02 10:46:35.68	336.86	5.47	-48.7	-52.0	12.2	2.99e-04	0	58	0	1432354816	60	5217
2026-01-02 10:46:39.64	337.01	5.20	-48.6	-51.8	12.3	2.01e-04	0	58	0	1439694848	60	5093
2026-01-02 10:46:43.61	337.17	4.92	-51.6	-65.2	3.8	1.49e+00	0	58	104	1443889152	65	17739
2026-01-02 10:46:47.56	337.32	4.65	-52.1	-65.9	3.8	1.49e+00	0	58	104	1443889152	65	19346
2026-01-02 10:46:51.51	337.46	4.39	-52.4	-66.3	3.8	1.49e+00	0	58	104	1443889152	66	19126
2026-01-02 10:46:55.49	337.61	4.12	-52.0	-66.4	3.8	1.49e+00	0	58	104	1443889152	65	20532
2026-01-02 10:46:59.46	337.75	3.86	-52.6	-66.5	3.8	1.49e+00	0	58	104	1443889152	67	18410
2026-01-02 10:47:03.41	337.89	3.60	-52.6	-66.6	3.8	1.49e+00	0	58	104	1443889152	67	18531
2026-01-02 10:47:07.38	338.03	3.34	-52.6	-66.6	3.8	1.49e+00	0	58	104	1443889152	67	18536
2026-01-02 10:47:11.35	338.17	3.08	-52.6	-66.5	3.8	1.49e+00	0	58	104	1443889152	67	18481
2026-01-02 10:47:15.31	338.31	2.83	-52.7	-66.6	3.8	1.49e+00	0	58	104	1443889152	67	18524

#Closed at: 2026-01-02 10:47:15
#Recorded file [1443 MB]: D:/Data/31026_260102_134642.dat