passes_logs/2026/01/02/R3.0SM8_Murmansk_STILSPACE/R3.0SM8_Murmansk_STILSPACE__20260102_044354_FENGYUN_3E_rec.log

#Pass ID: 20260102_044354_FENGYUN 3E
#Satellite: FENGYUN 3E
#Configuration: FENGYUN 3E
#almurnet v.1.7.20240730
#Start time: 2026-01-02 04:50:11

#Version: 2.2.20231116
#Station: R3.0SM8_Murmansk_STILSPACE
#Location: 33.092731 lon 68.902999 lat
#TLE: 1 49008U 21062A   26001.26445318  .00000475  00000+0  24453-3 0  9990
#TLE: 2 49008  98.7480   6.5551 0001357 167.8415 192.2795 14.19884467232890

#Time	Az	El	Level	Level2	SNR	BER	BlckErr	Temp	State	Recorded	gain1	gain2
2026-01-02 04:50:11.93	45.81	67.46	-52.7	-63.6	3.8	8.46e-01	0	57	0	0	67	13112
2026-01-02 04:50:13.90	46.81	68.28	-52.9	-63.1	3.8	8.46e-01	0	57	104	0	68	11613
2026-01-02 04:50:15.88	47.91	69.10	-52.9	-63.1	3.8	8.46e-01	0	57	104	0	68	11559
2026-01-02 04:50:17.85	49.09	69.92	-52.9	-63.1	3.8	8.46e-01	0	58	104	0	68	11614
2026-01-02 04:50:19.83	50.38	70.75	-52.9	-63.0	3.8	8.47e-01	0	57	104	0	68	11516
2026-01-02 04:50:21.81	51.80	71.57	-52.9	-63.0	3.8	8.46e-01	0	57	104	0	68	11526
2026-01-02 04:50:23.79	53.36	72.38	-52.9	-63.1	3.8	8.47e-01	0	57	104	0	68	11564
2026-01-02 04:50:25.77	55.07	73.19	-52.9	-63.0	3.8	8.46e-01	0	57	104	0	68	11524
2026-01-02 04:50:27.76	56.97	73.99	-52.8	-63.0	3.8	8.46e-01	0	58	104	0	68	11511
2026-01-02 04:50:29.73	59.07	74.77	-52.9	-63.1	3.8	8.46e-01	0	57	104	0	68	11614
2026-01-02 04:50:31.69	61.37	75.53	-52.8	-63.1	3.8	8.45e-01	0	58	104	0	68	11568
2026-01-02 04:50:33.67	63.97	76.28	-52.9	-63.1	3.8	8.47e-01	0	58	104	0	68	11566
2026-01-02 04:50:35.64	66.86	77.00	-52.9	-63.1	3.8	8.46e-01	0	58	104	0	68	11553
2026-01-02 04:50:37.62	70.10	77.68	-52.8	-63.1	3.8	8.46e-01	0	58	104	0	68	11612
2026-01-02 04:50:39.59	73.70	78.33	-52.8	-63.1	3.8	8.46e-01	0	58	104	0	68	11572
2026-01-02 04:50:41.57	77.74	78.93	-52.6	-63.1	3.8	8.46e-01	0	58	104	0	68	11560
2026-01-02 04:50:43.54	82.20	79.47	-52.7	-63.0	3.8	8.46e-01	0	58	104	0	68	11497
2026-01-02 04:50:45.52	87.14	79.94	-52.8	-63.1	3.8	8.45e-01	0	58	104	0	68	11571
2026-01-02 04:50:47.50	92.54	80.33	-52.8	-63.0	3.8	8.45e-01	0	58	104	0	68	11494
2026-01-02 04:50:49.48	98.34	80.64	-52.8	-62.6	3.8	8.46e-01	0	58	104	0	68	10923
2026-01-02 04:50:51.46	104.48	80.84	-52.8	-62.5	3.8	8.46e-01	0	58	104	0	68	10869
2026-01-02 04:50:53.44	110.82	80.94	-52.8	-62.4	3.8	8.45e-01	0	58	104	0	68	10775
2026-01-02 04:50:55.42	117.22	80.93	-52.8	-62.3	3.8	8.46e-01	0	58	104	0	68	10574
2026-01-02 04:50:57.41	123.56	80.80	-52.3	-59.9	3.9	8.44e-01	0	58	104	0	67	8541
2026-01-02 04:50:59.39	129.62	80.57	-52.3	-59.9	4.1	8.39e-01	0	58	0	0	67	8480
2026-01-02 04:51:01.36	135.30	80.24	-52.4	-61.4	3.8	8.45e-01	0	58	104	0	67	10123
2026-01-02 04:51:03.35	140.61	79.83	-52.2	-60.0	3.8	8.46e-01	0	58	104	0	67	8627
2026-01-02 04:51:05.33	145.44	79.34	-44.4	-45.8	16.0	0.00e+00	0	58	0	8388608	52	4003
2026-01-02 04:51:07.31	149.81	78.78	-41.1	-41.7	20.0	0.00e+00	0	58	0	22020096	44	3917
2026-01-02 04:51:09.29	153.74	78.16	-41.3	-41.9	19.9	0.00e+00	0	58	0	36700160	45	3787
2026-01-02 04:51:11.28	157.27	77.50	-40.1	-40.5	21.0	0.00e+00	0	58	0	51380224	43	3648
2026-01-02 04:51:13.26	160.42	76.80	-39.3	-39.7	21.8	0.00e+00	0	58	0	65011712	41	3711
2026-01-02 04:51:15.24	163.24	76.08	-39.5	-39.9	21.6	0.00e+00	0	58	0	79691776	40	4032
2026-01-02 04:51:17.22	165.76	75.32	-39.8	-40.3	21.1	0.00e+00	0	58	0	93323264	41	3967
2026-01-02 04:51:19.19	168.01	74.55	-40.0	-40.5	21.0	0.00e+00	0	58	0	108003328	42	3830
2026-01-02 04:51:21.17	170.06	73.76	-40.9	-41.4	20.0	0.00e+00	0	58	0	122683392	43	4040
2026-01-02 04:51:23.15	171.90	72.96	-41.0	-41.5	20.2	0.00e+00	0	58	0	136314880	44	3835
2026-01-02 04:51:25.14	173.58	72.14	-40.3	-40.8	20.7	0.00e+00	0	58	0	150994944	43	3764
2026-01-02 04:51:27.12	175.09	71.33	-40.1	-40.5	21.0	0.00e+00	0	58	0	165675008	43	3643
2026-01-02 04:51:29.09	176.47	70.51	-40.4	-40.8	20.7	0.00e+00	0	58	0	179306496	42	4001
2026-01-02 04:51:31.06	177.72	69.69	-40.1	-40.6	20.9	0.00e+00	0	58	0	193986560	42	3900
2026-01-02 04:51:33.04	178.88	68.86	-40.2	-40.7	20.9	0.00e+00	0	58	0	208666624	42	3933
2026-01-02 04:51:35.02	179.95	68.03	-40.3	-40.8	20.5	0.00e+00	0	58	0	222298112	42	3974
2026-01-02 04:51:37.01	180.94	67.20	-40.3	-40.8	20.7	0.00e+00	0	58	0	236978176	42	3984
2026-01-02 04:51:38.99	181.85	66.38	-40.9	-41.4	20.2	0.00e+00	0	58	0	251658240	43	4042
2026-01-02 04:51:40.97	182.69	65.56	-40.7	-41.2	20.4	0.00e+00	0	58	0	265289728	43	3919
2026-01-02 04:51:42.94	183.47	64.75	-40.5	-41.0	20.6	0.00e+00	0	58	0	279969792	43	3854
2026-01-02 04:51:44.91	184.20	63.94	-40.7	-41.2	20.4	0.00e+00	0	58	0	293601280	43	3934
2026-01-02 04:51:46.87	184.87	63.15	-40.2	-40.7	20.7	0.00e+00	0	58	0	308281344	43	3717
2026-01-02 04:51:48.85	185.51	62.35	-40.4	-40.8	20.6	0.00e+00	0	58	0	321912832	43	3763
2026-01-02 04:51:50.84	186.11	61.55	-40.9	-41.5	20.1	0.00e+00	0	58	0	336592896	43	4055
2026-01-02 04:51:52.81	186.67	60.77	-41.2	-41.7	20.0	0.00e+00	0	58	0	351272960	44	3951
2026-01-02 04:51:54.79	187.20	59.99	-41.2	-41.7	19.7	0.00e+00	0	58	0	364904448	44	3957
2026-01-02 04:51:56.76	187.69	59.22	-41.2	-41.7	19.9	0.00e+00	0	58	0	379584512	44	3932
2026-01-02 04:51:58.74	188.16	58.46	-41.5	-42.0	19.7	0.00e+00	0	58	0	394264576	44	4093
2026-01-02 04:52:00.73	188.61	57.70	-41.8	-42.4	19.2	0.00e+00	0	58	0	407896064	45	4036
2026-01-02 04:52:02.71	189.03	56.95	-41.6	-42.1	19.5	0.00e+00	0	58	0	422576128	45	3903
2026-01-02 04:52:04.69	189.43	56.22	-41.8	-42.4	19.3	0.00e+00	0	57	0	437256192	45	4018
2026-01-02 04:52:06.65	189.80	55.49	-41.2	-41.8	19.6	0.00e+00	0	58	0	450887680	45	3745
2026-01-02 04:52:08.64	190.17	54.77	-41.1	-41.6	20.0	0.00e+00	0	58	0	465567744	44	3913
2026-01-02 04:52:10.61	190.51	54.06	-41.4	-41.9	19.7	0.00e+00	0	58	0	479199232	44	4045
2026-01-02 04:52:12.59	190.83	53.35	-41.5	-42.1	19.6	0.00e+00	0	58	0	493879296	45	3874
2026-01-02 04:52:14.56	191.14	52.66	-41.3	-41.8	19.8	0.00e+00	0	58	0	507510784	45	3780
2026-01-02 04:52:16.54	191.44	51.98	-41.3	-41.8	19.9	0.00e+00	0	58	0	522190848	45	3755
2026-01-02 04:52:18.51	191.73	51.30	-41.5	-42.0	19.6	0.00e+00	0	58	0	536870912	45	3862
2026-01-02 04:52:20.49	192.00	50.63	-41.6	-42.1	19.5	0.00e+00	0	58	0	550502400	45	3898
2026-01-02 04:52:22.46	192.26	49.98	-41.1	-41.6	20.1	0.00e+00	0	58	0	565182464	45	3664
2026-01-02 04:52:24.44	192.51	49.33	-41.2	-41.7	20.0	0.00e+00	0	58	0	578813952	45	3704
2026-01-02 04:52:26.43	192.75	48.68	-41.2	-41.8	19.9	0.00e+00	0	58	0	593494016	45	3755
2026-01-02 04:52:28.39	192.98	48.06	-41.1	-41.7	19.9	0.00e+00	0	58	0	608174080	45	3697
2026-01-02 04:52:30.36	193.20	47.43	-40.4	-40.9	20.7	0.00e+00	0	58	0	621805568	43	3795
2026-01-02 04:52:32.35	193.42	46.81	-40.3	-40.7	20.7	0.00e+00	0	58	0	636485632	43	3733
2026-01-02 04:52:34.34	193.63	46.20	-40.2	-40.7	20.8	0.00e+00	0	58	0	651165696	43	3722
2026-01-02 04:52:36.32	193.83	45.61	-40.2	-40.7	20.6	0.00e+00	0	58	0	664797184	43	3721
2026-01-02 04:52:38.30	194.02	45.01	-40.3	-40.7	20.8	0.00e+00	0	58	0	679477248	43	3736
2026-01-02 04:52:40.27	194.20	44.44	-39.9	-40.3	21.2	0.00e+00	0	58	0	693108736	42	3768
2026-01-02 04:52:42.25	194.38	43.86	-39.8	-40.2	21.2	0.00e+00	0	57	0	707788800	42	3729
2026-01-02 04:52:44.22	194.55	43.30	-39.6	-40.0	21.4	0.00e+00	0	57	0	721420288	42	3646
2026-01-02 04:52:46.19	194.72	42.74	-40.1	-40.5	20.7	0.00e+00	0	57	0	736100352	42	3866
2026-01-02 04:52:48.17	194.88	42.19	-40.2	-40.7	20.8	0.00e+00	0	58	0	750780416	42	3943
2026-01-02 04:52:50.15	195.04	41.65	-40.3	-40.8	20.7	0.00e+00	0	57	0	764411904	42	3980
2026-01-02 04:52:52.12	195.19	41.12	-40.2	-40.7	20.7	0.00e+00	0	58	0	779091968	42	3949
2026-01-02 04:52:54.10	195.34	40.59	-40.3	-40.7	20.7	0.00e+00	0	58	0	793772032	42	3948
2026-01-02 04:52:56.07	195.48	40.07	-40.2	-40.6	20.8	0.00e+00	0	58	0	807403520	42	3897
2026-01-02 04:52:58.05	195.62	39.56	-40.3	-40.8	20.6	0.00e+00	0	58	0	822083584	42	3977
2026-01-02 04:53:00.01	195.75	39.06	-40.4	-40.9	20.6	0.00e+00	0	57	0	835715072	42	4021
2026-01-02 04:53:02.00	195.88	38.56	-40.5	-40.9	20.6	0.00e+00	0	58	0	850395136	42	4049
2026-01-02 04:53:03.98	196.01	38.07	-40.2	-40.7	20.8	0.00e+00	0	58	0	865075200	42	3931
2026-01-02 04:53:05.96	196.13	37.59	-40.1	-40.6	20.9	0.00e+00	0	57	0	878706688	42	3873
2026-01-02 04:53:07.94	196.25	37.11	-39.8	-40.2	21.2	0.00e+00	0	58	0	893386752	42	3724
2026-01-02 04:53:09.92	196.37	36.64	-40.0	-40.4	21.0	0.00e+00	0	57	0	907018240	42	3819
2026-01-02 04:53:11.89	196.48	36.18	-40.2	-40.7	20.8	0.00e+00	0	58	0	921698304	42	3937
2026-01-02 04:53:13.87	196.59	35.72	-39.8	-40.3	21.2	0.00e+00	0	58	0	936378368	42	3746
2026-01-02 04:53:15.86	196.70	35.27	-39.6	-40.1	21.4	0.00e+00	0	58	0	950009856	42	3668
2026-01-02 04:53:17.83	196.81	34.83	-39.5	-40.0	21.4	0.00e+00	0	57	0	964689920	42	3624
2026-01-02 04:53:19.80	196.91	34.39	-39.7	-40.2	21.3	0.00e+00	0	58	0	979369984	42	3710
2026-01-02 04:53:21.78	197.01	33.96	-39.3	-39.8	21.6	0.00e+00	0	58	0	993001472	41	3748
2026-01-02 04:53:23.77	197.11	33.53	-39.4	-39.8	21.5	0.00e+00	0	57	0	1007681536	41	3776
2026-01-02 04:53:25.75	197.20	33.11	-39.4	-39.8	21.6	0.00e+00	0	58	0	1021313024	41	3759
2026-01-02 04:53:27.73	197.30	32.69	-39.4	-39.8	21.5	0.00e+00	0	58	0	1035993088	41	3760
2026-01-02 04:53:29.71	197.39	32.28	-39.6	-40.0	21.4	0.00e+00	0	58	0	1050673152	41	3843
2026-01-02 04:53:31.69	197.48	31.88	-39.5	-39.9	21.4	0.00e+00	0	58	0	1064304640	41	3803
2026-01-02 04:53:33.68	197.57	31.48	-39.9	-40.3	21.0	0.00e+00	0	58	0	1078984704	41	3986
2026-01-02 04:53:35.65	197.65	31.08	-39.7	-40.2	21.3	0.00e+00	0	58	0	1093664768	41	3918
2026-01-02 04:53:37.64	197.73	30.69	-39.8	-40.3	21.2	0.00e+00	0	58	0	1107296256	41	3967
2026-01-02 04:53:39.62	197.82	30.31	-40.1	-40.5	20.9	0.00e+00	0	58	0	1121976320	41	4089
2026-01-02 04:53:41.59	197.90	29.93	-40.4	-40.9	20.5	0.00e+00	0	57	0	1136656384	42	4021
2026-01-02 04:53:43.57	197.97	29.56	-40.3	-40.8	20.6	0.00e+00	0	57	0	1150287872	42	3994
2026-01-02 04:53:45.54	198.05	29.19	-40.2	-40.6	20.8	0.00e+00	0	58	0	1164967936	42	3902
2026-01-02 04:53:47.52	198.13	28.83	-40.2	-40.6	20.8	0.00e+00	0	58	0	1178599424	42	3897
2026-01-02 04:53:49.51	198.20	28.47	-40.3	-40.8	20.6	0.00e+00	0	58	0	1193279488	42	3991
2026-01-02 04:53:51.48	198.27	28.12	-40.2	-40.6	20.8	0.00e+00	0	57	0	1207959552	42	3913
2026-01-02 04:53:53.45	198.34	27.77	-39.9	-40.4	21.0	0.00e+00	0	57	0	1221591040	42	3794
2026-01-02 04:53:55.43	198.41	27.42	-40.2	-40.7	20.6	0.00e+00	0	57	0	1236271104	42	3949
2026-01-02 04:53:57.41	198.48	27.08	-40.3	-40.8	20.6	0.00e+00	0	57	0	1249902592	42	3987
2026-01-02 04:53:59.39	198.55	26.74	-40.4	-40.9	20.5	0.00e+00	0	57	0	1264582656	42	4029
2026-01-02 04:54:01.36	198.61	26.41	-40.4	-40.9	20.5	0.00e+00	0	57	0	1279262720	42	4045
2026-01-02 04:54:03.34	198.68	26.08	-40.6	-41.1	20.3	0.00e+00	0	58	0	1292894208	42	4134
2026-01-02 04:54:05.33	198.74	25.75	-40.1	-40.6	20.6	0.00e+00	0	58	0	1307574272	42	3894
2026-01-02 04:54:07.31	198.80	25.43	-40.1	-40.5	20.8	0.00e+00	0	57	0	1321205760	42	3861
2026-01-02 04:54:09.28	198.86	25.12	-40.2	-40.7	20.6	0.00e+00	0	57	0	1335885824	42	3918
2026-01-02 04:54:11.26	198.92	24.80	-40.2	-40.6	20.6	0.00e+00	0	57	0	1350565888	42	3911
2026-01-02 04:54:13.24	198.98	24.49	-40.5	-41.0	20.4	0.00e+00	0	57	0	1364197376	42	4094
2026-01-02 04:54:15.21	199.04	24.19	-40.6	-41.1	20.3	0.00e+00	0	58	0	1378877440	42	4114
2026-01-02 04:54:17.19	199.09	23.88	-40.6	-41.1	20.4	0.00e+00	0	57	0	1393557504	43	3869
2026-01-02 04:54:19.16	199.15	23.59	-40.6	-41.1	20.3	0.00e+00	0	58	0	1407188992	43	3883
2026-01-02 04:54:21.15	199.21	23.29	-41.1	-41.6	19.8	0.00e+00	0	57	0	1421869056	43	4125
2026-01-02 04:54:23.13	199.26	23.00	-40.7	-41.2	20.2	0.00e+00	0	57	0	1436549120	43	3950
2026-01-02 04:54:25.10	199.31	22.71	-40.7	-41.2	20.1	0.00e+00	0	58	0	1450180608	43	3956
2026-01-02 04:54:27.08	199.37	22.42	-41.1	-41.6	19.8	0.00e+00	0	57	0	1464860672	43	4128
2026-01-02 04:54:29.06	199.42	22.14	-40.6	-41.1	20.3	0.00e+00	0	58	0	1478492160	43	3875
2026-01-02 04:54:31.03	199.47	21.86	-40.6	-41.1	20.3	0.00e+00	0	57	0	1493172224	43	3876
2026-01-02 04:54:33.00	199.52	21.58	-40.7	-41.2	20.2	0.00e+00	0	57	0	1506803712	43	3920
2026-01-02 04:54:34.97	199.57	21.31	-40.3	-40.8	20.5	0.00e+00	0	58	0	1521483776	43	3759
2026-01-02 04:54:36.96	199.62	21.04	-40.3	-40.8	20.5	0.00e+00	0	58	0	1536163840	43	3759
2026-01-02 04:54:38.94	199.66	20.77	-40.4	-40.8	20.4	0.00e+00	0	58	0	1549795328	43	3777
2026-01-02 04:54:40.93	199.71	20.50	-40.7	-41.3	20.1	0.00e+00	0	58	0	1564475392	43	3963
2026-01-02 04:54:42.91	199.76	20.24	-40.4	-40.9	20.2	0.00e+00	0	57	0	1579155456	43	3809
2026-01-02 04:54:44.88	199.80	19.98	-40.4	-40.9	20.4	0.00e+00	0	57	0	1592786944	43	3796
2026-01-02 04:54:46.86	199.85	19.72	-40.6	-41.1	20.2	0.00e+00	0	57	0	1607467008	43	3908
2026-01-02 04:54:48.84	199.89	19.47	-40.8	-41.3	20.1	0.00e+00	0	57	0	1622147072	43	3981
2026-01-02 04:54:50.82	199.94	19.22	-40.6	-41.1	20.2	0.00e+00	0	57	0	1635778560	43	3902
2026-01-02 04:54:52.80	199.98	18.97	-40.7	-41.2	20.2	0.00e+00	0	58	0	1650458624	43	3933
2026-01-02 04:54:54.79	200.02	18.72	-40.9	-41.4	19.9	0.00e+00	0	57	0	1664090112	43	4045
2026-01-02 04:54:56.77	200.07	18.47	-41.0	-41.5	19.8	0.00e+00	0	58	0	1678770176	43	4094
2026-01-02 04:54:58.75	200.11	18.23	-40.9	-41.5	19.9	0.00e+00	0	57	0	1693450240	43	4052
2026-01-02 04:55:00.73	200.15	17.99	-41.2	-41.7	19.6	0.00e+00	0	57	0	1707081728	43	4169
2026-01-02 04:55:02.71	200.19	17.75	-41.2	-41.7	19.7	0.00e+00	0	58	0	1721761792	44	3953
2026-01-02 04:55:04.68	200.23	17.52	-41.4	-42.0	19.4	0.00e+00	0	57	0	1736441856	44	4068
2026-01-02 04:55:06.66	200.27	17.29	-41.5	-42.1	19.3	0.00e+00	0	57	0	1750073344	44	4119
2026-01-02 04:55:08.65	200.31	17.05	-41.5	-42.0	19.4	0.00e+00	0	57	0	1764753408	44	4082
2026-01-02 04:55:10.63	200.35	16.83	-41.7	-42.3	19.1	0.00e+00	0	57	0	1779433472	44	4195
2026-01-02 04:55:12.61	200.38	16.60	-41.6	-42.2	19.2	0.00e+00	0	57	0	1793064960	45	3935
2026-01-02 04:55:14.59	200.42	16.37	-41.8	-42.4	19.0	0.00e+00	0	57	0	1807745024	45	4045
2026-01-02 04:55:16.57	200.46	16.15	-41.8	-42.4	19.0	0.00e+00	0	57	0	1821376512	45	4016
2026-01-02 04:55:18.55	200.50	15.93	-41.9	-42.5	18.9	0.00e+00	0	57	0	1836056576	45	4073
2026-01-02 04:55:20.53	200.53	15.71	-42.0	-42.6	18.8	0.00e+00	0	57	0	1850736640	45	4127
2026-01-02 04:55:22.51	200.57	15.50	-41.9	-42.5	18.8	0.00e+00	0	57	0	1864368128	45	4086
2026-01-02 04:55:24.49	200.60	15.28	-42.1	-42.7	18.7	0.00e+00	0	58	0	1879048192	45	4169
2026-01-02 04:55:26.49	200.64	15.07	-42.1	-42.7	18.6	0.00e+00	0	57	0	1893728256	46	3956
2026-01-02 04:55:28.47	200.67	14.85	-42.3	-42.9	18.5	0.00e+00	0	57	0	1907359744	46	4034
2026-01-02 04:55:30.44	200.71	14.65	-42.4	-43.0	18.4	0.00e+00	0	57	0	1922039808	46	4083
2026-01-02 04:55:32.42	200.74	14.44	-42.6	-43.3	18.1	0.00e+00	0	57	0	1935671296	46	4196
2026-01-02 04:55:34.40	200.78	14.23	-42.8	-43.4	17.9	0.00e+00	0	57	0	1950351360	47	4044
2026-01-02 04:55:36.38	200.81	14.03	-42.8	-43.5	17.9	0.00e+00	0	57	0	1965031424	47	4083
2026-01-02 04:55:38.36	200.84	13.83	-42.9	-43.6	17.7	0.00e+00	0	57	0	1978662912	47	4133
2026-01-02 04:55:40.33	200.87	13.63	-42.9	-43.6	17.8	0.00e+00	0	57	0	1993342976	47	4112
2026-01-02 04:55:42.31	200.91	13.43	-42.9	-43.6	17.7	0.00e+00	0	57	0	2006974464	47	4100
2026-01-02 04:55:44.29	200.94	13.23	-42.5	-43.2	18.2	0.00e+00	0	57	0	2021654528	47	3920
2026-01-02 04:55:46.27	200.97	13.04	-42.5	-43.1	18.2	0.00e+00	0	57	0	2036334592	47	3897
2026-01-02 04:55:48.27	201.00	12.84	-42.5	-43.2	18.1	0.00e+00	0	57	0	2049966080	47	3928
2026-01-02 04:55:50.25	201.03	12.65	-42.7	-43.4	18.0	0.00e+00	0	57	0	2064646144	47	4011
2026-01-02 04:55:52.23	201.06	12.46	-42.7	-43.4	17.9	0.00e+00	0	58	0	2079326208	47	4021
2026-01-02 04:55:54.21	201.09	12.27	-42.6	-43.3	18.0	0.00e+00	0	57	0	2092957696	47	3987
2026-01-02 04:55:56.19	201.12	12.08	-42.8	-43.5	17.8	0.00e+00	0	57	0	2107637760	47	4060
2026-01-02 04:55:58.18	201.15	11.89	-42.8	-43.6	17.7	0.00e+00	0	57	0	2122317824	47	4103
2026-01-02 04:56:00.16	201.18	11.70	-42.8	-43.5	17.7	0.00e+00	0	57	0	2135949312	47	4091
2026-01-02 04:56:02.14	201.21	11.52	-42.9	-43.6	17.7	0.00e+00	0	57	0	2150629376	47	4129
2026-01-02 04:56:04.13	201.24	11.34	-43.0	-43.8	17.5	0.00e+00	0	57	0	2165309440	47	4196
2026-01-02 04:56:06.10	201.27	11.16	-43.0	-43.8	17.5	0.00e+00	0	57	0	2178940928	47	4195
2026-01-02 04:56:08.09	201.30	10.98	-43.5	-44.3	17.2	0.00e+00	0	57	0	2193620992	48	4194
2026-01-02 04:56:10.06	201.32	10.80	-43.2	-43.9	17.5	0.00e+00	0	57	0	2208301056	48	4048
2026-01-02 04:56:12.04	201.35	10.62	-43.2	-44.0	17.5	0.00e+00	0	57	0	2221932544	48	4063
2026-01-02 04:56:14.01	201.38	10.45	-43.6	-44.3	17.1	0.00e+00	0	58	0	2236612608	48	4237
2026-01-02 04:56:15.99	201.41	10.27	-43.4	-44.1	17.3	0.00e+00	0	57	0	2250244096	48	4123
2026-01-02 04:56:17.97	201.43	10.10	-43.4	-44.2	17.2	0.00e+00	0	57	0	2264924160	48	4154
2026-01-02 04:56:19.95	201.46	9.93	-43.4	-44.2	17.2	0.00e+00	0	57	0	2279604224	48	4175
2026-01-02 04:56:21.92	201.49	9.75	-43.5	-44.3	17.1	0.00e+00	0	57	0	2293235712	49	3990
2026-01-02 04:56:23.89	201.51	9.59	-43.5	-44.3	17.1	0.00e+00	0	57	0	2307915776	49	3976
2026-01-02 04:56:25.87	201.54	9.42	-43.7	-44.5	16.9	0.00e+00	0	57	0	2321547264	49	4066
2026-01-02 04:56:27.85	201.57	9.25	-43.7	-44.5	16.8	0.00e+00	0	57	0	2336227328	49	4071
2026-01-02 04:56:29.82	201.59	9.08	-43.9	-44.7	16.7	0.00e+00	0	58	0	2349858816	49	4157
2026-01-02 04:56:31.79	201.62	8.92	-43.7	-44.5	16.8	0.00e+00	0	57	0	2364538880	49	4082
2026-01-02 04:56:33.78	201.64	8.75	-43.9	-44.8	16.5	0.00e+00	0	57	0	2379218944	49	4198
2026-01-02 04:56:35.76	201.67	8.59	-44.0	-44.8	16.5	0.00e+00	0	58	0	2392850432	49	4233
2026-01-02 04:56:37.74	201.69	8.43	-44.2	-45.1	16.2	0.00e+00	0	57	0	2407530496	50	4104
2026-01-02 04:56:39.72	201.72	8.27	-44.1	-44.9	16.4	0.00e+00	0	57	0	2422210560	50	4040
2026-01-02 04:56:41.69	201.74	8.11	-44.2	-45.1	16.1	0.00e+00	0	57	0	2435842048	50	4140
2026-01-02 04:56:43.67	201.77	7.95	-44.3	-45.2	16.1	0.00e+00	0	57	0	2450522112	50	4146
2026-01-02 04:56:45.65	201.79	7.79	-44.2	-45.1	16.1	0.00e+00	0	57	0	2465202176	50	4145
2026-01-02 04:56:47.63	201.81	7.63	-44.5	-45.4	15.8	0.00e+00	0	57	0	2478833664	50	4275
2026-01-02 04:56:49.62	201.84	7.48	-44.0	-44.9	16.3	0.00e+00	0	57	0	2493513728	50	4036
2026-01-02 04:56:51.59	201.86	7.32	-44.3	-45.2	16.0	0.00e+00	0	58	0	2508193792	50	4165
2026-01-02 04:56:53.57	201.88	7.17	-44.4	-45.4	15.8	0.00e+00	0	58	0	2521825280	50	4258
2026-01-02 04:56:55.56	201.91	7.01	-44.5	-45.4	15.7	0.00e+00	0	58	0	2536505344	50	4288
2026-01-02 04:56:57.53	201.93	6.86	-44.5	-45.5	15.6	0.00e+00	0	57	0	2551185408	50	4323
2026-01-02 04:56:59.51	201.95	6.71	-44.8	-45.8	15.3	1.10e-06	0	57	0	2564816896	51	4229
2026-01-02 04:57:01.49	201.98	6.56	-44.6	-45.6	15.4	0.00e+00	0	57	0	2579496960	51	4140
2026-01-02 04:57:03.47	202.00	6.41	-44.4	-45.4	15.8	0.00e+00	0	57	0	2593128448	51	4013
2026-01-02 04:57:05.44	202.02	6.26	-44.5	-45.5	15.6	0.00e+00	0	57	0	2607808512	51	4071
2026-01-02 04:57:07.43	202.04	6.11	-44.3	-45.3	15.8	0.00e+00	0	57	0	2622488576	51	3980
2026-01-02 04:57:09.41	202.06	5.96	-44.4	-45.4	15.7	0.00e+00	0	57	0	2636120064	51	4034
2026-01-02 04:57:11.39	202.09	5.82	-44.5	-45.4	15.6	0.00e+00	0	58	0	2650800128	51	4048
2026-01-02 04:57:13.37	202.11	5.67	-44.7	-45.7	15.3	1.10e-06	0	57	0	2664431616	51	4184
2026-01-02 04:57:15.35	202.13	5.53	-44.8	-45.9	15.1	0.00e+00	0	58	0	2679111680	51	4246
2026-01-02 04:57:17.33	202.15	5.38	-44.8	-45.8	15.1	0.00e+00	0	57	0	2693791744	51	4232
2026-01-02 04:57:19.32	202.17	5.24	-44.8	-45.8	15.1	0.00e+00	0	57	0	2707423232	51	4214
2026-01-02 04:57:21.30	202.19	5.10	-44.9	-46.0	14.9	0.00e+00	0	57	0	2722103296	51	4300
2026-01-02 04:57:23.26	202.21	4.96	-51.8	-62.0	3.8	8.45e-01	0	57	104	2730491904	65	12139
2026-01-02 04:57:25.24	202.24	4.81	-52.3	-62.5	3.8	8.47e-01	0	57	104	2730491904	66	12102
2026-01-02 04:57:27.21	202.26	4.68	-52.5	-62.6	3.8	8.47e-01	0	57	104	2730491904	66	12362
2026-01-02 04:57:29.20	202.28	4.53	-52.5	-62.7	3.8	8.47e-01	0	57	104	2730491904	66	12509
2026-01-02 04:57:31.17	202.30	4.40	-52.6	-62.8	3.8	8.46e-01	0	57	104	2730491904	66	12598
2026-01-02 04:57:33.15	202.32	4.26	-52.7	-62.9	3.8	8.45e-01	0	57	104	2730491904	67	11986
2026-01-02 04:57:35.12	202.34	4.12	-52.7	-62.9	3.8	8.46e-01	0	57	104	2730491904	67	12033
2026-01-02 04:57:37.10	202.36	3.99	-52.8	-62.9	3.8	8.46e-01	0	57	104	2730491904	67	12002
2026-01-02 04:57:39.07	202.38	3.85	-52.8	-62.9	3.7	8.46e-01	0	57	104	2730491904	67	11971
2026-01-02 04:57:41.06	202.40	3.71	-52.8	-63.0	3.8	8.46e-01	0	58	104	2730491904	67	12128
2026-01-02 04:57:43.04	202.42	3.58	-52.8	-63.0	3.8	8.46e-01	0	57	104	2730491904	67	12141
2026-01-02 04:57:45.02	202.44	3.45	-52.8	-63.0	3.8	8.45e-01	0	57	104	2730491904	67	12145
2026-01-02 04:57:47.01	202.46	3.31	-52.7	-62.9	3.8	8.46e-01	0	57	104	2730491904	67	12092
2026-01-02 04:57:48.98	202.48	3.18	-52.8	-63.0	3.8	8.46e-01	0	58	104	2730491904	67	12135
2026-01-02 04:57:50.97	202.50	3.05	-52.8	-62.9	3.8	8.47e-01	0	57	104	2730491904	67	12085
2026-01-02 04:57:52.95	202.51	2.91	-52.7	-62.9	3.8	8.47e-01	0	58	104	2730491904	67	12062

#Closed at: 2026-01-02 04:57:53
#Recorded file [2730 MB]: D:/Data/31026_260102_075722.dat