passes_logs/2026/01/02/R3.0SM8_Murmansk_STILSPACE/R3.0SM8_Murmansk_STILSPACE__20260102_015518_SUOMI_NPP_rec.log

#Pass ID: 20260102_015518_SUOMI NPP
#Satellite: SUOMI NPP
#Configuration: NPP
#almurnet v.1.7.20240730
#Start time: 2026-01-02 01:55:20

#Version: 2.2.20231116
#Station: R3.0SM8_Murmansk_STILSPACE
#Location: 33.092731 lon 68.902999 lat
#TLE: 1 37849U 11061A   26001.07732418  .00000182  00000+0  10735-3 0  9990
#TLE: 2 37849  98.7795 303.2470 0002580  87.2016 272.9455 14.19520779734739

#Time	Az	El	Level	Level2	SNR	BER	BlckErr	Temp	State	Recorded	gain1	gain2
2026-01-02 01:55:20.45	29.49	3.11	-52.3	-66.1	3.8	1.49e+00	0	46	0	0	66	18530
2026-01-02 01:55:24.39	29.38	3.37	-51.7	-65.5	3.8	1.49e+00	0	46	104	0	66	17348
2026-01-02 01:55:28.35	29.27	3.63	-51.4	-64.4	3.8	1.49e+00	0	46	104	0	65	16301
2026-01-02 01:55:32.30	29.16	3.89	-51.3	-63.4	3.8	1.49e+00	0	47	104	0	65	14387
2026-01-02 01:55:36.26	29.05	4.16	-51.2	-61.6	4.2	1.39e+00	0	47	0	0	65	11772
2026-01-02 01:55:40.21	28.93	4.43	-50.8	-59.3	5.2	6.38e-01	0	47	0	6291456	64	9546
2026-01-02 01:55:44.16	28.81	4.70	-50.4	-56.6	7.4	1.26e-01	0	48	0	13631488	63	7378
2026-01-02 01:55:48.11	28.69	4.97	-49.5	-53.9	10.2	7.74e-03	0	48	0	20971520	62	5725
2026-01-02 01:55:52.07	28.56	5.25	-49.5	-53.9	10.2	8.26e-03	0	48	0	28311552	61	6113
2026-01-02 01:55:56.03	28.44	5.53	-49.1	-52.9	11.2	9.92e-04	0	48	0	35651584	60	5772
2026-01-02 01:55:59.99	28.31	5.81	-48.1	-51.0	13.2	2.44e-05	0	48	0	42991616	59	4875
2026-01-02 01:56:03.93	28.18	6.09	-47.6	-50.1	14.2	1.50e-06	0	49	0	50331648	58	4660
2026-01-02 01:56:07.90	28.04	6.38	-47.3	-49.5	14.7	7.00e-07	0	49	0	57671680	57	4623
2026-01-02 01:56:11.86	27.90	6.68	-47.4	-49.8	14.6	0.00e+00	0	49	0	65011712	57	4761
2026-01-02 01:56:15.83	27.76	6.97	-47.2	-49.5	14.9	7.00e-07	0	49	0	72351744	57	4613
2026-01-02 01:56:19.80	27.61	7.27	-47.4	-49.6	14.7	7.00e-07	0	50	0	79691776	57	4701
2026-01-02 01:56:23.75	27.46	7.57	-47.4	-49.6	14.7	0.00e+00	0	50	0	88080384	57	4705
2026-01-02 01:56:27.72	27.31	7.87	-47.4	-49.6	14.8	0.00e+00	0	50	0	95420416	57	4685
2026-01-02 01:56:31.66	27.16	8.18	-47.2	-49.4	15.1	0.00e+00	0	50	0	102760448	57	4561
2026-01-02 01:56:35.61	27.00	8.49	-47.3	-49.5	14.9	0.00e+00	0	50	0	110100480	57	4636
2026-01-02 01:56:39.56	26.83	8.81	-47.4	-49.5	14.9	7.00e-07	0	50	0	117440512	57	4643
2026-01-02 01:56:43.52	26.67	9.13	-47.7	-50.1	14.4	0.00e+00	0	50	0	124780544	57	4944
2026-01-02 01:56:47.49	26.50	9.45	-47.6	-49.9	14.6	0.00e+00	0	51	0	132120576	57	4827
2026-01-02 01:56:51.44	26.32	9.78	-47.8	-50.2	14.3	7.00e-07	0	51	0	139460608	57	5023
2026-01-02 01:56:55.39	26.14	10.11	-47.2	-49.3	15.2	0.00e+00	0	51	0	146800640	57	4533
2026-01-02 01:56:59.34	25.96	10.44	-47.1	-49.1	15.4	0.00e+00	0	51	0	154140672	56	4681
2026-01-02 01:57:03.30	25.77	10.78	-46.8	-48.8	15.8	0.00e+00	0	51	0	161480704	56	4510
2026-01-02 01:57:07.26	25.58	11.12	-46.6	-48.4	16.2	0.00e+00	0	52	0	168820736	56	4308
2026-01-02 01:57:11.22	25.38	11.47	-46.6	-48.4	16.2	0.00e+00	0	52	0	176160768	56	4299
2026-01-02 01:57:15.18	25.17	11.82	-46.7	-48.5	16.1	0.00e+00	0	52	0	183500800	56	4348
2026-01-02 01:57:19.12	24.96	12.18	-46.4	-48.1	16.4	0.00e+00	0	52	0	191889408	55	4412
2026-01-02 01:57:23.08	24.75	12.54	-46.3	-48.0	16.5	0.00e+00	0	52	0	199229440	55	4380
2026-01-02 01:57:27.02	24.53	12.91	-46.3	-48.1	16.4	0.00e+00	0	52	0	206569472	55	4439
2026-01-02 01:57:30.97	24.30	13.28	-46.6	-48.4	16.2	0.00e+00	0	52	0	213909504	55	4553
2026-01-02 01:57:34.92	24.07	13.66	-46.7	-48.5	16.1	0.00e+00	0	52	0	221249536	55	4637
2026-01-02 01:57:38.88	23.83	14.04	-47.0	-48.9	15.8	0.00e+00	0	52	0	228589568	55	4817
2026-01-02 01:57:42.84	23.59	14.43	-47.1	-49.1	15.7	0.00e+00	0	53	0	235929600	56	4656
2026-01-02 01:57:46.81	23.33	14.83	-47.7	-49.9	14.9	0.00e+00	0	53	0	243269632	57	4824
2026-01-02 01:57:50.77	23.07	15.23	-47.4	-49.4	15.3	0.00e+00	0	53	0	250609664	57	4596
2026-01-02 01:57:54.73	22.81	15.63	-46.5	-48.2	16.6	0.00e+00	0	53	0	257949696	56	4200
2026-01-02 01:57:58.68	22.53	16.05	-46.0	-47.5	17.1	0.00e+00	0	53	0	265289728	55	4125
2026-01-02 01:58:02.64	22.25	16.46	-46.4	-48.0	16.6	0.00e+00	0	53	0	272629760	55	4381
2026-01-02 01:58:06.59	21.96	16.89	-46.4	-48.1	16.5	0.00e+00	0	53	0	279969792	55	4431
2026-01-02 01:58:10.55	21.65	17.32	-46.9	-48.8	15.9	0.00e+00	0	53	0	288358400	55	4761
2026-01-02 01:58:14.49	21.35	17.76	-46.6	-48.4	16.3	0.00e+00	0	53	0	295698432	55	4549
2026-01-02 01:58:18.45	21.03	18.21	-46.8	-48.6	16.1	0.00e+00	0	53	0	303038464	55	4665
2026-01-02 01:58:22.41	20.70	18.66	-46.1	-47.7	17.0	0.00e+00	0	54	0	310378496	55	4222
2026-01-02 01:58:26.37	20.36	19.12	-46.5	-48.1	16.6	0.00e+00	0	53	0	317718528	55	4431
2026-01-02 01:58:30.30	20.01	19.59	-46.4	-48.1	16.6	0.00e+00	0	54	0	325058560	55	4411
2026-01-02 01:58:34.25	19.64	20.06	-47.2	-49.2	15.7	0.00e+00	0	54	0	332398592	56	4723
2026-01-02 01:58:38.20	19.27	20.54	-47.6	-49.7	15.2	0.00e+00	0	54	0	339738624	57	4743
2026-01-02 01:58:42.16	18.88	21.04	-47.6	-49.9	15.0	0.00e+00	0	54	0	347078656	57	4821
2026-01-02 01:58:46.12	18.48	21.54	-47.3	-49.3	15.6	0.00e+00	0	54	0	354418688	57	4495
2026-01-02 01:58:50.08	18.07	22.05	-47.1	-48.9	16.0	0.00e+00	0	54	0	361758720	57	4331
2026-01-02 01:58:54.05	17.64	22.56	-47.2	-49.1	15.8	0.00e+00	0	54	0	369098752	57	4393
2026-01-02 01:58:58.03	17.19	23.09	-47.2	-49.1	15.8	0.00e+00	0	54	0	376438784	57	4434
2026-01-02 01:59:01.98	16.73	23.63	-47.5	-49.5	15.4	0.00e+00	0	54	0	383778816	57	4623
2026-01-02 01:59:05.94	16.26	24.17	-48.0	-50.3	14.7	0.00e+00	0	54	0	392167424	57	5052
2026-01-02 01:59:09.91	15.76	24.73	-48.1	-50.5	14.5	0.00e+00	0	54	0	399507456	58	4872
2026-01-02 01:59:13.86	15.25	25.29	-48.0	-50.4	14.5	7.00e-07	0	55	0	406847488	58	4840
2026-01-02 01:59:17.82	14.72	25.86	-48.3	-50.9	13.8	1.50e-06	0	55	0	414187520	58	5127
2026-01-02 01:59:21.77	14.17	26.44	-48.4	-51.5	12.6	2.82e-05	0	54	0	421527552	58	5504
2026-01-02 01:59:25.73	13.60	27.04	-49.3	-54.0	9.5	6.27e-03	0	55	0	428867584	60	6562
2026-01-02 01:59:29.68	13.00	27.64	-49.7	-55.0	8.6	4.67e-02	0	55	0	436207616	61	6905
2026-01-02 01:59:33.65	12.38	28.25	-49.1	-52.7	11.5	9.95e-04	0	55	0	443547648	61	5317
2026-01-02 01:59:37.60	11.74	28.87	-48.1	-50.5	14.2	5.30e-06	0	55	0	450887680	59	4642
2026-01-02 01:59:41.56	11.07	29.50	-48.6	-51.3	13.6	7.60e-06	0	55	0	458227712	59	5087
2026-01-02 01:59:45.52	10.37	30.14	-48.6	-51.4	13.5	1.37e-05	0	55	0	465567744	60	4858
2026-01-02 01:59:49.48	9.65	30.79	-48.1	-50.4	14.6	0.00e+00	0	55	0	472907776	58	4869
2026-01-02 01:59:53.43	8.89	31.45	-48.5	-51.0	14.1	3.00e-06	0	55	0	480247808	59	4893
2026-01-02 01:59:57.40	8.10	32.12	-48.9	-51.7	13.4	9.90e-06	0	55	0	488636416	59	5306
2026-01-02 02:00:01.36	7.28	32.80	-48.9	-51.7	13.3	1.22e-05	0	55	0	495976448	59	5332
2026-01-02 02:00:05.32	6.42	33.48	-49.0	-51.9	13.1	5.49e-05	0	55	0	503316480	60	5122
2026-01-02 02:00:09.29	5.52	34.18	-48.6	-51.4	13.7	3.00e-06	0	55	0	510656512	60	4824
2026-01-02 02:00:13.25	4.58	34.88	-48.7	-51.4	13.6	3.00e-06	0	55	0	517996544	59	5127
2026-01-02 02:00:17.21	3.60	35.59	-48.9	-52.1	13.0	2.28e-05	0	55	0	525336576	60	5226
2026-01-02 02:00:21.16	2.58	36.30	-49.1	-52.3	12.8	7.60e-06	0	55	0	532676608	60	5342
2026-01-02 02:00:25.11	1.51	37.02	-48.9	-51.9	13.0	4.50e-05	0	55	0	540016640	60	5133
2026-01-02 02:00:29.06	0.40	37.74	-49.1	-52.5	12.5	5.64e-05	0	55	0	547356672	60	5498
2026-01-02 02:00:33.00	359.24	38.46	-47.9	-50.3	14.7	1.50e-06	0	55	0	554696704	59	4520
2026-01-02 02:00:36.96	358.01	39.18	-48.1	-50.5	14.6	0.00e+00	0	55	0	562036736	58	4871
2026-01-02 02:00:40.93	356.73	39.91	-48.5	-51.2	13.9	1.50e-06	0	55	0	569376768	58	5288
2026-01-02 02:00:44.88	355.40	40.63	-49.2	-52.5	12.6	1.01e-04	0	55	0	576716800	60	5474
2026-01-02 02:00:48.85	353.99	41.35	-47.5	-49.7	15.3	0.00e+00	0	56	0	585105408	58	4470
2026-01-02 02:00:52.80	352.53	42.06	-48.4	-50.8	14.3	0.00e+00	0	55	0	592445440	58	5078
2026-01-02 02:00:56.76	351.00	42.77	-49.6	-53.3	11.7	1.04e-03	0	55	0	599785472	61	5710
2026-01-02 02:01:00.71	349.41	43.46	-49.4	-52.8	12.3	1.46e-04	0	56	0	607125504	61	5366
2026-01-02 02:01:04.68	347.73	44.14	-49.7	-53.7	11.4	1.17e-03	0	56	0	614465536	61	5924
2026-01-02 02:01:08.63	346.00	44.80	-49.0	-52.1	13.0	4.11e-05	0	56	0	621805568	60	5239
2026-01-02 02:01:12.59	344.18	45.44	-48.6	-51.1	14.0	1.50e-06	0	56	0	629145600	59	4971
2026-01-02 02:01:16.54	342.30	46.06	-47.5	-49.5	15.7	0.00e+00	0	56	0	636485632	58	4372
2026-01-02 02:01:20.51	340.33	46.65	-47.7	-49.9	15.2	0.00e+00	0	56	0	643825664	57	4816
2026-01-02 02:01:24.47	338.29	47.21	-48.4	-51.0	14.2	3.00e-06	0	56	0	651165696	59	4884
2026-01-02 02:01:28.44	336.17	47.74	-49.1	-52.7	12.4	1.46e-04	0	56	0	658505728	60	5608
2026-01-02 02:01:32.40	333.99	48.23	-48.0	-50.3	14.8	0.00e+00	0	56	0	665845760	59	4528
2026-01-02 02:01:36.36	331.74	48.68	-49.0	-52.1	13.1	3.00e-06	0	56	0	674234368	59	5570
2026-01-02 02:01:40.32	329.43	49.08	-50.0	-54.3	10.6	1.34e-02	0	56	0	681574400	63	5719
2026-01-02 02:01:44.27	327.06	49.43	-48.4	-51.3	13.7	2.05e-05	0	56	0	688914432	60	4787
2026-01-02 02:01:48.22	324.65	49.74	-49.4	-53.4	11.6	5.31e-04	0	56	0	696254464	61	5751
2026-01-02 02:01:52.18	322.18	49.99	-48.8	-52.1	12.9	2.25e-04	0	56	0	703594496	60	5221
2026-01-02 02:01:56.14	319.67	50.18	-46.0	-47.6	17.3	0.00e+00	0	56	0	710934528	55	4146
2026-01-02 02:02:00.10	317.14	50.31	-46.0	-47.6	17.2	0.00e+00	0	56	0	718274560	54	4415
2026-01-02 02:02:04.05	314.60	50.39	-47.0	-49.1	15.9	0.00e+00	0	56	0	725614592	55	4945
2026-01-02 02:02:08.01	312.04	50.40	-47.4	-49.6	15.4	0.00e+00	0	56	0	732954624	56	4961
2026-01-02 02:02:11.97	309.49	50.36	-47.6	-50.0	15.0	0.00e+00	0	56	0	740294656	57	4873
2026-01-02 02:02:15.92	306.95	50.25	-45.5	-46.9	17.9	0.00e+00	0	56	0	747634688	54	4073
2026-01-02 02:02:19.89	304.43	50.08	-46.7	-48.6	16.3	0.00e+00	0	56	0	754974720	55	4658
2026-01-02 02:02:23.84	301.95	49.86	-47.7	-50.0	15.1	0.00e+00	0	56	0	762314752	57	4897
2026-01-02 02:02:27.78	299.51	49.59	-47.5	-49.7	15.3	0.00e+00	0	56	0	769654784	57	4732
2026-01-02 02:02:31.74	297.11	49.26	-48.1	-50.6	14.5	7.00e-07	0	56	0	778043392	58	4928
2026-01-02 02:02:35.70	294.77	48.88	-47.6	-49.9	15.2	0.00e+00	0	56	0	785383424	58	4562
2026-01-02 02:02:39.66	292.49	48.45	-48.9	-52.1	13.0	1.01e-04	0	56	0	792723456	60	5238
2026-01-02 02:02:43.63	290.27	47.98	-47.7	-49.9	15.2	7.00e-07	0	56	0	800063488	58	4573
2026-01-02 02:02:47.57	288.13	47.47	-48.0	-50.4	14.6	1.50e-06	0	56	0	807403520	59	4552
2026-01-02 02:02:51.54	286.05	46.92	-48.9	-51.9	13.2	2.28e-05	0	56	0	814743552	59	5424
2026-01-02 02:02:55.49	284.05	46.34	-48.9	-52.1	13.0	3.43e-05	0	56	0	822083584	59	5543
2026-01-02 02:02:59.45	282.12	45.74	-48.3	-50.9	14.2	1.50e-06	0	56	0	829423616	59	4852
2026-01-02 02:03:03.42	280.26	45.10	-48.4	-50.9	14.2	0.00e+00	0	56	0	836763648	59	4855
2026-01-02 02:03:07.38	278.49	44.45	-48.5	-50.9	14.1	3.00e-06	0	56	0	844103680	59	4843
2026-01-02 02:03:11.33	276.78	43.78	-49.0	-52.0	13.1	3.29e-04	0	56	0	851443712	61	4911
2026-01-02 02:03:15.28	275.15	43.09	-48.2	-50.5	14.7	1.50e-06	0	56	0	858783744	59	4618
2026-01-02 02:03:19.24	273.59	42.39	-47.8	-49.9	15.2	0.00e+00	0	56	0	866123776	58	4594
2026-01-02 02:03:23.20	272.09	41.68	-47.0	-48.9	16.2	0.00e+00	0	56	0	874512384	56	4584
2026-01-02 02:03:27.15	270.66	40.96	-49.1	-52.3	12.8	9.61e-05	0	56	0	881852416	60	5361
2026-01-02 02:03:31.10	269.29	40.24	-48.9	-52.0	13.1	6.25e-05	0	56	0	889192448	61	4871
2026-01-02 02:03:35.06	267.98	39.52	-48.6	-51.1	14.1	1.50e-06	0	56	0	896532480	59	4948
2026-01-02 02:03:39.02	266.73	38.79	-49.3	-52.6	12.5	7.47e-05	0	56	0	903872512	60	5566
2026-01-02 02:03:42.97	265.54	38.06	-48.6	-51.3	13.7	3.80e-06	0	56	0	911212544	60	4791
2026-01-02 02:03:46.92	264.40	37.34	-49.6	-53.3	11.8	4.32e-04	0	57	0	918552576	61	5685
2026-01-02 02:03:50.88	263.30	36.62	-50.1	-54.6	10.5	4.12e-03	0	57	0	925892608	62	6204
2026-01-02 02:03:54.84	262.25	35.90	-49.9	-53.8	11.2	1.75e-03	0	56	0	933232640	62	5690
2026-01-02 02:03:58.81	261.25	35.19	-48.8	-51.5	13.6	1.60e-05	0	56	0	940572672	60	4909
2026-01-02 02:04:02.75	260.30	34.48	-48.5	-50.8	14.3	2.20e-06	0	56	0	947912704	59	4807
2026-01-02 02:04:06.70	259.38	33.79	-48.7	-51.4	13.7	1.50e-06	0	56	0	955252736	59	5131
2026-01-02 02:04:10.66	258.50	33.10	-49.3	-52.5	12.5	1.05e-04	0	56	0	962592768	60	5494
2026-01-02 02:04:14.62	257.66	32.41	-48.4	-50.8	14.2	4.50e-06	0	56	0	970981376	60	4542
2026-01-02 02:04:18.56	256.86	31.74	-48.4	-50.8	14.5	0.00e+00	0	56	0	978321408	59	4770
2026-01-02 02:04:22.51	256.08	31.08	-50.2	-54.5	10.5	2.52e-03	0	56	0	985661440	62	6159
2026-01-02 02:04:26.48	255.34	30.42	-48.3	-50.8	14.3	1.22e-05	0	56	0	993001472	59	4770
2026-01-02 02:04:30.43	254.63	29.77	-47.8	-49.9	15.3	0.00e+00	0	56	0	1000341504	58	4557
2026-01-02 02:04:34.39	253.94	29.14	-49.2	-52.4	12.7	4.11e-05	0	56	0	1007681536	60	5405
2026-01-02 02:04:38.35	253.28	28.51	-48.8	-51.5	13.7	2.97e-05	0	57	0	1015021568	60	4891
2026-01-02 02:04:42.31	252.65	27.89	-48.4	-50.8	14.3	0.00e+00	0	56	0	1022361600	59	4796
2026-01-02 02:04:46.27	252.04	27.28	-48.3	-50.6	14.5	0.00e+00	0	56	0	1029701632	58	4953
2026-01-02 02:04:50.21	251.46	26.69	-47.5	-49.4	15.4	0.00e+00	0	56	0	1037041664	58	4335
2026-01-02 02:04:54.17	250.90	26.10	-47.6	-49.6	15.5	0.00e+00	0	56	0	1044381696	57	4676
2026-01-02 02:04:58.12	250.36	25.52	-48.7	-51.5	13.5	6.80e-06	0	56	0	1051721728	59	5199
2026-01-02 02:05:02.09	249.83	24.95	-49.0	-51.9	13.2	9.90e-06	0	56	0	1059061760	59	5413
2026-01-02 02:05:06.06	249.32	24.39	-48.5	-51.0	14.1	6.80e-06	0	56	0	1067450368	59	4872
2026-01-02 02:05:10.02	248.84	23.84	-48.0	-50.1	15.0	0.00e+00	0	56	0	1074790400	58	4669
2026-01-02 02:05:13.97	248.37	23.30	-48.2	-50.5	14.6	0.00e+00	0	57	0	1082130432	58	4881
2026-01-02 02:05:17.93	247.92	22.76	-48.1	-50.2	14.9	0.00e+00	0	56	0	1089470464	58	4758
2026-01-02 02:05:21.90	247.48	22.24	-47.9	-50.0	15.1	0.00e+00	0	56	0	1096810496	58	4621
2026-01-02 02:05:25.85	247.06	21.73	-48.6	-51.1	13.9	2.20e-06	0	56	0	1104150528	59	4979
2026-01-02 02:05:29.79	246.65	21.22	-48.4	-50.8	14.3	2.20e-06	0	56	0	1111490560	59	4795
2026-01-02 02:05:33.75	246.25	20.73	-48.3	-50.8	14.3	0.00e+00	0	56	0	1118830592	59	4776
2026-01-02 02:05:37.72	245.87	20.24	-48.2	-50.5	14.5	0.00e+00	0	56	0	1126170624	59	4650
2026-01-02 02:05:41.68	245.50	19.75	-48.2	-50.4	14.6	0.00e+00	0	57	0	1133510656	59	4593
2026-01-02 02:05:45.64	245.14	19.28	-48.3	-50.6	14.4	0.00e+00	0	57	0	1140850688	59	4681
2026-01-02 02:05:49.58	244.79	18.82	-48.3	-50.7	14.4	7.00e-07	0	57	0	1148190720	59	4715
2026-01-02 02:05:53.55	244.46	18.36	-48.3	-50.6	14.5	7.00e-07	0	57	0	1155530752	59	4675
2026-01-02 02:05:57.51	244.13	17.91	-48.3	-50.7	14.3	2.20e-06	0	56	0	1162870784	59	4735
2026-01-02 02:06:01.47	243.81	17.46	-48.6	-51.1	13.9	2.20e-06	0	56	0	1171259392	59	4942
2026-01-02 02:06:05.42	243.51	17.03	-47.9	-50.0	15.0	0.00e+00	0	56	0	1178599424	58	4620
2026-01-02 02:06:09.37	243.21	16.60	-47.3	-49.2	15.8	0.00e+00	0	57	0	1185939456	57	4442
2026-01-02 02:06:13.34	242.92	16.17	-47.5	-49.4	15.5	0.00e+00	0	57	0	1193279488	57	4574
2026-01-02 02:06:17.30	242.64	15.76	-47.5	-49.4	15.5	0.00e+00	0	57	0	1200619520	57	4576
2026-01-02 02:06:21.24	242.37	15.35	-48.4	-50.8	14.2	7.00e-07	0	56	0	1207959552	58	5042
2026-01-02 02:06:25.20	242.10	14.95	-48.6	-51.2	13.7	3.80e-06	0	56	0	1215299584	59	5032
2026-01-02 02:06:29.13	241.84	14.55	-48.5	-51.1	13.8	4.50e-06	0	57	0	1222639616	59	4935
2026-01-02 02:06:33.08	241.59	14.16	-48.8	-51.5	13.4	1.06e-05	0	57	0	1229979648	59	5209
2026-01-02 02:06:37.03	241.35	13.77	-49.1	-52.2	12.6	3.66e-05	0	56	0	1237319680	60	5294
2026-01-02 02:06:41.00	241.11	13.39	-48.5	-51.1	13.7	4.50e-06	0	56	0	1244659712	60	4694
2026-01-02 02:06:44.97	240.88	13.01	-48.9	-51.8	13.1	1.22e-05	0	57	0	1251999744	60	5044
2026-01-02 02:06:48.93	240.65	12.64	-49.0	-52.1	12.7	8.92e-05	0	57	0	1259339776	60	5246
2026-01-02 02:06:52.87	240.44	12.28	-49.1	-52.2	12.5	1.43e-04	0	57	0	1266679808	60	5285
2026-01-02 02:06:56.83	240.22	11.92	-49.2	-52.7	12.1	2.88e-04	0	57	0	1275068416	60	5597
2026-01-02 02:07:00.80	240.01	11.56	-48.8	-51.8	12.9	4.57e-05	0	57	0	1282408448	60	5045
2026-01-02 02:07:04.75	239.81	11.21	-48.5	-51.3	13.4	1.29e-05	0	57	0	1289748480	60	4777
2026-01-02 02:07:08.71	239.61	10.86	-48.9	-51.9	12.7	7.93e-05	0	57	0	1297088512	60	5143
2026-01-02 02:07:12.67	239.42	10.52	-48.9	-52.0	12.6	9.53e-05	0	57	0	1304428544	60	5216
2026-01-02 02:07:16.63	239.23	10.18	-49.1	-52.3	12.3	1.65e-04	0	57	0	1311768576	60	5390
2026-01-02 02:07:20.57	239.05	9.85	-49.2	-52.9	11.6	6.31e-04	0	56	0	1319108608	60	5751
2026-01-02 02:07:24.51	238.87	9.52	-49.5	-53.4	11.1	1.58e-03	0	57	0	1326448640	60	6067
2026-01-02 02:07:28.46	238.69	9.20	-49.8	-54.1	10.3	4.14e-03	0	57	0	1333788672	61	6205
2026-01-02 02:07:32.41	238.52	8.88	-49.7	-54.2	10.2	6.02e-03	0	57	0	1341128704	61	6287
2026-01-02 02:07:36.36	238.36	8.56	-50.0	-54.6	9.7	1.36e-02	0	57	0	1348468736	61	6615
2026-01-02 02:07:40.31	238.19	8.25	-49.9	-54.6	9.6	1.28e-02	0	57	0	1355808768	61	6603
2026-01-02 02:07:44.26	238.03	7.94	-49.8	-54.2	10.0	9.38e-03	0	57	0	1363148800	61	6320
2026-01-02 02:07:48.21	237.88	7.63	-49.6	-54.1	10.0	8.18e-03	0	57	0	1370488832	61	6258
2026-01-02 02:07:52.17	237.73	7.33	-49.6	-54.0	10.1	1.06e-02	0	57	0	1378877440	61	6178
2026-01-02 02:07:56.13	237.58	7.03	-49.7	-54.2	9.8	8.95e-03	0	57	0	1386217472	61	6337
2026-01-02 02:08:00.08	237.43	6.74	-49.6	-54.4	9.6	1.21e-02	0	57	0	1393557504	61	6435
2026-01-02 02:08:04.02	237.29	6.44	-49.7	-54.4	9.5	1.62e-02	0	57	0	1400897536	61	6433
2026-01-02 02:08:07.98	237.15	6.15	-49.6	-54.4	9.4	1.91e-02	0	57	0	1408237568	61	6443
2026-01-02 02:08:11.94	237.01	5.87	-49.7	-54.7	9.0	2.44e-02	0	57	0	1415577600	61	6704
2026-01-02 02:08:15.88	236.88	5.58	-49.5	-54.4	9.3	1.57e-02	0	57	0	1422917632	61	6427
2026-01-02 02:08:19.84	236.75	5.30	-49.6	-54.8	8.9	3.16e-02	0	57	0	1430257664	61	6727
2026-01-02 02:08:23.81	236.62	5.02	-50.0	-56.3	7.5	4.68e-02	0	57	0	1437597696	61	8019
2026-01-02 02:08:27.77	236.49	4.75	-52.1	-65.9	3.8	1.49e+00	0	57	104	1438646272	65	19270
2026-01-02 02:08:31.71	236.37	4.47	-52.3	-66.2	3.8	1.49e+00	0	57	104	1438646272	66	18774
2026-01-02 02:08:35.67	236.25	4.20	-52.4	-66.3	3.8	1.49e+00	0	57	104	1438646272	66	18956
2026-01-02 02:08:39.62	236.13	3.94	-52.5	-66.3	3.8	1.49e+00	0	57	104	1438646272	66	19120
2026-01-02 02:08:43.58	236.02	3.67	-52.5	-66.4	3.8	1.49e+00	0	57	104	1438646272	66	19289
2026-01-02 02:08:47.55	235.90	3.41	-52.6	-66.4	3.8	1.49e+00	0	57	104	1438646272	67	18203
2026-01-02 02:08:51.50	235.79	3.15	-52.6	-66.4	3.8	1.49e+00	0	57	104	1438646272	67	18174
2026-01-02 02:08:55.45	235.68	2.89	-52.5	-66.4	3.8	1.49e+00	0	57	104	1438646272	67	18160

#Closed at: 2026-01-02 02:08:55
#Recorded file [1438 MB]: D:/Data/31026_260102_050824.dat