passes_logs/2025/01/24/X_MFTI_01/X_MFTI_01__20250124_101411_SUOMI_NPP_rec.log

#Pass ID: 20250124_101411_SUOMI NPP
#Satellite: SUOMI NPP
#Configuration: NPP
#Start time: 2025-01-24 10:14:06

#Version: 1.5.20200625
#Station: X_MFTI_01
#Location: 37.5186 lon 55.9291 lat
#TLE: 1 37849U 11061A   23362.48341244  .00000167  00000+0  99749-4 0  9991
#TLE: 2 37849  98.7252 298.0509 0001500  77.1966 282.9377 14.19535461630502

#Time	Az	El	Level	Level2	SNR	BER	Gain	Gain2
2025-01-24 10:14:08.80	206.38	69.20	
2025-01-24 10:14:09.00	206.56	69.27	
2025-01-24 10:14:09.21	206.76	69.34	
2025-01-24 10:14:09.42	206.95	69.41	
2025-01-24 10:14:09.63	207.15	69.48	
2025-01-24 10:14:09.83	207.34	69.55	
2025-01-24 10:14:10.04	207.54	69.62	
2025-01-24 10:14:10.24	207.73	69.69	
2025-01-24 10:14:10.45	207.94	69.76	
2025-01-24 10:14:10.65	208.13	69.83	
2025-01-24 10:14:10.87	208.35	69.90	
2025-01-24 10:14:11.08	208.56	69.98	
2025-01-24 10:14:11.29	208.77	70.05	
2025-01-24 10:14:11.49	208.97	70.11	
2025-01-24 10:14:11.70	209.18	70.18	
2025-01-24 10:14:11.90	209.38	70.25	
2025-01-24 10:14:12.11	209.60	70.32	
2025-01-24 10:14:12.32	209.82	70.39	
2025-01-24 10:14:12.52	210.03	70.45	
2025-01-24 10:14:12.73	210.25	70.52	
2025-01-24 10:14:12.93	210.46	70.59	
2025-01-24 10:14:13.14	210.68	70.66	
2025-01-24 10:14:13.35	210.91	70.72	
2025-01-24 10:14:13.56	211.14	70.79	
2025-01-24 10:14:13.77	211.37	70.86	
2025-01-24 10:14:13.99	211.61	70.93	
2025-01-24 10:14:14.20	211.84	71.00	
2025-01-24 10:14:14.40	212.06	71.06	
2025-01-24 10:14:14.61	212.30	71.13	
2025-01-24 10:14:14.81	212.53	71.19	
2025-01-24 10:14:15.02	212.76	71.26	
2025-01-24 10:14:15.22	212.99	71.32	
2025-01-24 10:14:15.43	213.24	71.39	
2025-01-24 10:14:15.63	213.47	71.45	
2025-01-24 10:14:15.84	213.72	71.51	
2025-01-24 10:14:16.05	213.97	71.58	
2025-01-24 10:14:16.27	214.23	71.65	
2025-01-24 10:14:16.47	214.47	71.71	
2025-01-24 10:14:16.68	214.72	71.77	
2025-01-24 10:14:16.89	214.98	71.84	
2025-01-24 10:14:17.10	215.23	71.90	
2025-01-24 10:14:17.31	215.49	71.96	
2025-01-24 10:14:17.51	215.74	72.02	
2025-01-24 10:14:17.72	216.01	72.08	
2025-01-24 10:14:17.93	216.27	72.15	
2025-01-24 10:14:18.14	216.54	72.21	
2025-01-24 10:14:18.34	216.80	72.27	
2025-01-24 10:14:18.55	217.07	72.33	
2025-01-24 10:14:18.76	217.34	72.39	
2025-01-24 10:14:18.96	217.60	72.45	
2025-01-24 10:14:19.17	217.88	72.51	
2025-01-24 10:14:19.39	218.17	72.57	
2025-01-24 10:14:19.60	218.45	72.63	
2025-01-24 10:14:19.81	218.73	72.69	
2025-01-24 10:14:20.01	219.01	72.74	
2025-01-24 10:14:20.22	219.29	72.80	
2025-01-24 10:14:20.42	219.57	72.86	
2025-01-24 10:14:20.64	219.87	72.92	
2025-01-24 10:14:20.84	220.15	72.97	
2025-01-24 10:14:21.05	220.45	73.03	
2025-01-24 10:14:21.26	220.74	73.08	
2025-01-24 10:14:21.47	221.04	73.14	
2025-01-24 10:14:21.67	221.33	73.19	
2025-01-24 10:14:21.87	221.62	73.25	
2025-01-24 10:14:22.08	221.92	73.30	
2025-01-24 10:14:22.28	222.22	73.35	
2025-01-24 10:14:22.48	222.51	73.40	
2025-01-24 10:14:22.69	222.82	73.46	
2025-01-24 10:14:22.90	223.14	73.51	
2025-01-24 10:14:23.10	223.44	73.56	
2025-01-24 10:14:23.30	223.74	73.61	
2025-01-24 10:14:23.50	224.04	73.66	
2025-01-24 10:14:23.71	224.37	73.71	
2025-01-24 10:14:23.91	224.67	73.76	
2025-01-24 10:14:24.11	224.98	73.81	
2025-01-24 10:14:24.32	225.31	73.86	
2025-01-24 10:14:24.52	225.63	73.90	
2025-01-24 10:14:24.73	225.96	73.95	
2025-01-24 10:14:24.93	226.28	74.00	
2025-01-24 10:14:25.14	226.61	74.05	
2025-01-24 10:14:25.35	226.95	74.09	
2025-01-24 10:14:25.55	227.27	74.14	
2025-01-24 10:14:25.76	227.62	74.19	
2025-01-24 10:14:25.97	227.96	74.23	
2025-01-24 10:14:26.18	228.31	74.28	
2025-01-24 10:14:26.39	228.65	74.32	
2025-01-24 10:14:26.60	229.00	74.37	
2025-01-24 10:14:26.80	229.34	74.41	
2025-01-24 10:14:27.01	229.69	74.45	
2025-01-24 10:14:27.22	230.05	74.49	
2025-01-24 10:14:27.42	230.39	74.53	
2025-01-24 10:14:27.63	230.75	74.58	
2025-01-24 10:14:27.83	231.10	74.62	
2025-01-24 10:14:28.04	231.46	74.66	
2025-01-24 10:14:28.24	231.81	74.69	
2025-01-24 10:14:28.44	232.16	74.73	
2025-01-24 10:14:28.64	232.51	74.77	
2025-01-24 10:14:28.85	232.89	74.81	
2025-01-24 10:14:29.06	233.26	74.84	
2025-01-24 10:14:29.27	233.64	74.88	
2025-01-24 10:14:29.47	234.00	74.92	
2025-01-24 10:14:29.67	234.36	74.95	
2025-01-24 10:14:29.88	234.74	74.98	
2025-01-24 10:14:30.09	235.12	75.02	
2025-01-24 10:14:30.30	235.51	75.05	
2025-01-24 10:14:30.51	235.89	75.09	
2025-01-24 10:14:30.71	236.26	75.12	
2025-01-24 10:14:30.92	236.65	75.15	
2025-01-24 10:14:31.12	237.02	75.18	
2025-01-24 10:14:31.33	237.42	75.21	
2025-01-24 10:14:31.54	237.81	75.24	
2025-01-24 10:14:31.75	238.21	75.27	
2025-01-24 10:14:31.95	238.59	75.30	
2025-01-24 10:14:32.16	238.99	75.32	
2025-01-24 10:14:32.36	239.37	75.35	
2025-01-24 10:14:32.56	239.76	75.38	
2025-01-24 10:14:32.76	240.14	75.40	
2025-01-24 10:14:32.97	240.55	75.43	
2025-01-24 10:14:33.17	240.93	75.45	
2025-01-24 10:14:33.38	241.34	75.47	
2025-01-24 10:14:33.58	241.73	75.50	
2025-01-24 10:14:33.78	242.12	75.52	
2025-01-24 10:14:33.99	242.54	75.54	
2025-01-24 10:14:34.19	242.93	75.56	
2025-01-24 10:14:34.39	243.33	75.58	
2025-01-24 10:14:34.60	243.74	75.60	
2025-01-24 10:14:34.81	244.16	75.62	
2025-01-24 10:14:35.02	244.58	75.64	
2025-01-24 10:14:35.22	244.98	75.65	
2025-01-24 10:14:35.43	245.40	75.67	
2025-01-24 10:14:35.64	245.82	75.69	
2025-01-24 10:14:35.84	246.22	75.70	
2025-01-24 10:14:36.04	246.62	75.72	
2025-01-24 10:14:36.24	247.03	75.73	
2025-01-24 10:14:36.45	247.45	75.74	
2025-01-24 10:14:36.65	247.86	75.76	
2025-01-24 10:14:36.87	248.30	75.77	
2025-01-24 10:14:37.07	248.71	75.78	
2025-01-24 10:14:37.28	249.14	75.79	
2025-01-24 10:14:37.48	249.55	75.80	
2025-01-24 10:14:37.69	249.98	75.81	
2025-01-24 10:14:37.90	250.41	75.81	
2025-01-24 10:14:38.10	250.81	75.82	
2025-01-24 10:14:38.31	251.24	75.83	
2025-01-24 10:14:38.51	251.66	75.83	
2025-01-24 10:14:38.72	252.09	75.84	
2025-01-24 10:14:38.92	252.50	75.84	
2025-01-24 10:14:39.13	252.93	75.85	
2025-01-24 10:14:39.33	253.34	75.85	
2025-01-24 10:14:39.54	253.77	75.85	
2025-01-24 10:14:39.75	254.20	75.85	
2025-01-24 10:14:39.95	254.62	75.85	
2025-01-24 10:14:40.16	255.05	75.85	
2025-01-24 10:14:40.37	255.48	75.85	
2025-01-24 10:14:40.58	255.91	75.85	
2025-01-24 10:14:40.79	256.34	75.85	
2025-01-24 10:14:41.00	256.77	75.84	
2025-01-24 10:14:41.20	257.19	75.84	
2025-01-24 10:14:41.41	257.62	75.84	
2025-01-24 10:14:41.61	258.03	75.83	
2025-01-24 10:14:41.82	258.46	75.82	
2025-01-24 10:14:42.03	258.89	75.82	
2025-01-24 10:14:42.23	259.30	75.81	
2025-01-24 10:14:42.44	259.73	75.80	
2025-01-24 10:14:42.64	260.13	75.79	
2025-01-24 10:14:42.84	260.54	75.78	
2025-01-24 10:14:43.05	260.97	75.77	
2025-01-24 10:14:43.26	261.39	75.76	
2025-01-24 10:14:43.47	261.82	75.75	
2025-01-24 10:14:43.68	262.25	75.73	
2025-01-24 10:14:43.88	262.65	75.72	
2025-01-24 10:14:44.10	263.09	75.71	
2025-01-24 10:14:44.30	263.50	75.69	
2025-01-24 10:14:44.51	263.92	75.68	
2025-01-24 10:14:44.72	264.34	75.66	
2025-01-24 10:14:44.92	264.74	75.64	
2025-01-24 10:14:45.14	265.18	75.62	
2025-01-24 10:14:45.34	265.57	75.60	
2025-01-24 10:14:45.55	265.99	75.58	
2025-01-24 10:14:45.75	266.38	75.57	
2025-01-24 10:14:45.95	266.78	75.55	
2025-01-24 10:14:46.16	267.19	75.52	
2025-01-24 10:14:46.36	267.58	75.50	
2025-01-24 10:14:46.57	267.99	75.48	
2025-01-24 10:14:46.78	268.40	75.46	
2025-01-24 10:14:46.98	268.79	75.43	
2025-01-24 10:14:47.18	269.18	75.41	
2025-01-24 10:14:47.39	269.58	75.38	
2025-01-24 10:14:47.59	269.96	75.36	
2025-01-24 10:14:47.80	270.37	75.33	
2025-01-24 10:14:48.01	270.77	75.30	
2025-01-24 10:14:48.22	271.16	75.27	
2025-01-24 10:14:48.43	271.56	75.24	
2025-01-24 10:14:48.64	271.96	75.21	
2025-01-24 10:14:48.84	272.33	75.18	
2025-01-24 10:14:49.05	272.72	75.15	
2025-01-24 10:14:49.25	273.09	75.12	
2025-01-24 10:14:49.45	273.46	75.09	
2025-01-24 10:14:49.65	273.83	75.06	
2025-01-24 10:14:49.86	274.22	75.03	
2025-01-24 10:14:50.06	274.58	74.99	
2025-01-24 10:14:50.26	274.94	74.96	
2025-01-24 10:14:50.47	275.32	74.92	
2025-01-24 10:14:50.68	275.70	74.89	
2025-01-24 10:14:50.88	276.06	74.85	
2025-01-24 10:14:51.08	276.42	74.82	
2025-01-24 10:14:51.29	276.79	74.78	
2025-01-24 10:14:51.49	277.14	74.74	
2025-01-24 10:14:51.70	277.51	74.70	
2025-01-24 10:14:51.91	277.88	74.66	
2025-01-24 10:14:52.11	278.22	74.63	
2025-01-24 10:14:52.31	278.57	74.59	
2025-01-24 10:14:52.52	278.93	74.55	
2025-01-24 10:14:52.72	279.27	74.51	
2025-01-24 10:14:52.92	279.61	74.46	
2025-01-24 10:14:53.14	279.98	74.42	
2025-01-24 10:14:53.35	280.33	74.38	
2025-01-24 10:14:53.55	280.67	74.33	
2025-01-24 10:14:53.77	281.03	74.29	
2025-01-24 10:14:53.98	281.38	74.24	
2025-01-24 10:14:54.19	281.72	74.20	
2025-01-24 10:14:54.40	282.07	74.15	
2025-01-24 10:14:54.61	282.41	74.10	
2025-01-24 10:14:54.81	282.73	74.06	
2025-01-24 10:14:55.01	283.05	74.01	
2025-01-24 10:14:55.22	283.38	73.96	
2025-01-24 10:14:55.42	283.70	73.92	
2025-01-24 10:14:55.63	284.03	73.87	
2025-01-24 10:14:55.83	284.34	73.82	
2025-01-24 10:14:56.04	284.67	73.77	
2025-01-24 10:14:56.25	284.99	73.72	
2025-01-24 10:14:56.46	285.31	73.67	
2025-01-24 10:14:56.67	285.63	73.62	
2025-01-24 10:14:56.87	285.93	73.57	
2025-01-24 10:14:57.07	286.23	73.52	
2025-01-24 10:14:57.28	286.55	73.47	
2025-01-24 10:14:57.48	286.84	73.41	
2025-01-24 10:14:57.68	287.14	73.36	
2025-01-24 10:14:57.89	287.45	73.31	
2025-01-24 10:14:58.11	287.77	73.25	
2025-01-24 10:14:58.32	288.07	73.20	
2025-01-24 10:14:58.53	288.37	73.14	
2025-01-24 10:14:58.73	288.65	73.09	
2025-01-24 10:14:58.94	288.95	73.03	
2025-01-24 10:14:59.14	289.23	72.98	
2025-01-24 10:14:59.35	289.53	72.92	
2025-01-24 10:14:59.55	289.80	72.87	
2025-01-24 10:14:59.77	290.11	72.81	
2025-01-24 10:14:59.97	290.38	72.75	
2025-01-24 10:15:00.18	290.66	72.69	
2025-01-24 10:15:00.38	290.93	72.64	
2025-01-24 10:15:00.58	291.20	72.58	
2025-01-24 10:15:00.79	291.48	72.52	
2025-01-24 10:15:00.99	291.74	72.46	
2025-01-24 10:15:01.19	292.00	72.40	
2025-01-24 10:15:01.40	292.28	72.34	
2025-01-24 10:15:01.60	292.54	72.29	
2025-01-24 10:15:01.81	292.81	72.22	
2025-01-24 10:15:02.01	293.06	72.17	
2025-01-24 10:15:02.22	293.33	72.10	
2025-01-24 10:15:02.42	293.58	72.04	
2025-01-24 10:15:02.62	293.83	71.98	
2025-01-24 10:15:02.83	294.09	71.92	
2025-01-24 10:15:03.04	294.34	71.86	
2025-01-24 10:15:03.24	294.59	71.80	
2025-01-24 10:15:03.45	294.84	71.73	
2025-01-24 10:15:03.66	295.10	71.67	
2025-01-24 10:15:03.86	295.33	71.61	
2025-01-24 10:15:04.07	295.58	71.54	
2025-01-24 10:15:04.27	295.82	71.48	
2025-01-24 10:15:04.47	296.05	71.42	
2025-01-24 10:15:04.69	296.31	71.35	
2025-01-24 10:15:04.89	296.54	71.29	
2025-01-24 10:15:05.09	296.77	71.23	
2025-01-24 10:15:05.31	297.02	71.16	
2025-01-24 10:15:05.51	297.24	71.09	
2025-01-24 10:15:05.72	297.47	71.03	
2025-01-24 10:15:05.92	297.70	70.96	
2025-01-24 10:15:06.13	297.93	70.90	
2025-01-24 10:15:06.33	298.15	70.83	
2025-01-24 10:15:06.53	298.36	70.77	
2025-01-24 10:15:06.74	298.59	70.70	
2025-01-24 10:15:06.94	298.80	70.63	
2025-01-24 10:15:07.14	299.02	70.57	
2025-01-24 10:15:07.34	299.23	70.50	
2025-01-24 10:15:07.54	299.44	70.44	
2025-01-24 10:15:07.75	299.66	70.37	
2025-01-24 10:15:07.95	299.86	70.30	
2025-01-24 10:15:08.16	300.08	70.23	
2025-01-24 10:15:08.36	300.28	70.17	

#Closed at: 2025-01-24 10:15:08