passes_logs/2026/01/17/R2.0S_Moscow/R2.0S_Moscow__20260117_212229_FENGYUN_3G_rec.log

#Pass ID: 20260117_212229_FENGYUN 3G
#Satellite: FENGYUN 3G
#Configuration: FENGYUN 3G
#almurnet v.1.7.20251203
#Start time: 2026-01-17 21:22:28

#Version: 2.2.20231116
#Station: R2.0S_Moscow
#Location: 37.707566 lon 55.798166 lat
#TLE: 1 56232U 23055A   26017.23595159  .00030666  00000+0  47675-3 0  9990
#TLE: 2 56232  49.9939  44.3967 0004170  38.7938 321.3329 15.53606995156549

#Time	Az	El	Level	Level2	SNR	BER	BlckErr	Temp	State	Recorded	gain1	gain2
2026-01-17 21:22:28.88	237.62	2.03	-44.1	-62.1	3.8	8.46e-01	0	51	0	0	60	27667
2026-01-17 21:22:31.91	237.41	2.23	-44.0	-62.1	3.8	8.47e-01	0	51	104	0	60	27638
2026-01-17 21:22:34.94	237.19	2.43	-44.1	-62.2	3.8	8.45e-01	0	52	104	0	60	27857
2026-01-17 21:22:37.97	236.97	2.63	-44.0	-62.2	3.8	8.47e-01	0	52	104	0	60	27866
2026-01-17 21:22:41.01	236.74	2.83	-44.0	-62.2	3.8	8.44e-01	0	52	104	0	60	27889
2026-01-17 21:22:44.04	236.51	3.04	-44.0	-62.0	3.8	8.46e-01	0	52	104	0	60	27375
2026-01-17 21:22:47.07	236.27	3.24	-44.0	-62.0	3.8	8.46e-01	0	52	104	0	60	27279
2026-01-17 21:22:50.11	236.03	3.45	-44.0	-62.0	3.8	8.46e-01	0	53	104	0	60	27372
2026-01-17 21:22:53.14	235.79	3.66	-44.1	-62.2	3.8	8.46e-01	0	53	104	0	60	27950
2026-01-17 21:22:56.17	235.54	3.88	-44.0	-62.2	3.8	8.46e-01	0	53	104	0	60	27840
2026-01-17 21:22:59.20	235.28	4.09	-44.0	-62.2	3.8	8.44e-01	0	53	104	0	60	27894
2026-01-17 21:23:02.23	235.02	4.31	-44.1	-62.2	3.8	8.46e-01	0	53	104	0	60	27907
2026-01-17 21:23:05.27	234.75	4.53	-44.0	-61.6	3.8	8.47e-01	0	54	104	0	60	26040
2026-01-17 21:23:08.30	234.47	4.75	-44.0	-61.2	3.8	8.46e-01	0	54	104	0	60	24863
2026-01-17 21:23:11.33	234.19	4.97	-44.0	-61.2	3.8	8.46e-01	0	54	104	0	60	24933
2026-01-17 21:23:14.37	233.91	5.20	-44.0	-62.0	3.8	8.47e-01	0	54	104	0	60	27103
2026-01-17 21:23:17.40	233.61	5.42	-44.0	-61.0	3.8	8.45e-01	0	54	104	0	60	24322
2026-01-17 21:23:20.43	233.31	5.66	-44.1	-59.1	4.0	8.42e-01	0	54	104	0	59	20764
2026-01-17 21:23:23.47	233.01	5.89	-44.0	-58.2	4.4	8.34e-01	0	54	0	0	59	18549
2026-01-17 21:23:26.50	232.69	6.13	-44.0	-58.0	4.4	8.29e-01	0	55	0	0	59	18116
2026-01-17 21:23:29.53	232.37	6.36	-43.9	-56.7	4.9	8.13e-01	0	55	0	0	59	15605
2026-01-17 21:23:32.57	232.04	6.61	-43.7	-53.7	7.2	4.89e-01	0	55	0	1572864	59	11126
2026-01-17 21:23:35.60	231.71	6.85	-43.2	-51.0	9.9	3.76e-02	0	55	0	5242880	58	8655
2026-01-17 21:23:38.63	231.36	7.10	-43.3	-51.5	9.5	4.88e-03	0	55	0	8912896	58	9159
2026-01-17 21:23:41.66	231.01	7.35	-44.1	-59.9	3.9	8.55e-02	0	55	104	11010048	58	24113
2026-01-17 21:23:44.70	230.65	7.60	-43.4	-52.0	8.8	3.33e-01	0	55	0	12058624	58	9681
2026-01-17 21:23:47.73	230.28	7.86	-41.8	-46.7	14.3	2.74e-05	0	55	0	15204352	55	6226
2026-01-17 21:23:50.76	229.90	8.12	-43.0	-49.6	12.6	1.10e-06	0	56	0	18874368	56	8226
2026-01-17 21:23:53.78	229.51	8.38	-41.5	-45.8	15.5	7.03e-02	0	56	0	22020096	54	5960
2026-01-17 21:23:56.81	229.11	8.64	-40.8	-44.5	16.6	2.18e-01	0	56	0	25165824	53	5436
2026-01-17 21:23:59.84	228.70	8.91	-40.9	-44.7	16.5	0.00e+00	0	56	0	28835840	53	5534
2026-01-17 21:24:02.87	228.28	9.18	-40.9	-44.7	16.5	0.00e+00	0	56	0	31981568	53	5543
2026-01-17 21:24:05.90	227.85	9.46	-41.1	-44.9	16.3	0.00e+00	0	56	0	35651584	53	5697
2026-01-17 21:24:08.93	227.40	9.73	-41.0	-44.7	16.5	0.00e+00	0	56	0	38797312	53	5591
2026-01-17 21:24:11.95	226.95	10.02	-40.8	-44.3	17.0	0.00e+00	0	56	0	42467328	53	5296
2026-01-17 21:24:14.98	226.48	10.30	-40.6	-44.0	17.3	0.00e+00	0	57	0	45613056	53	5118
2026-01-17 21:24:18.01	226.01	10.59	-40.7	-44.3	17.0	0.00e+00	0	56	0	49283072	53	5301
2026-01-17 21:24:21.04	225.51	10.88	-40.7	-44.2	17.1	0.00e+00	0	57	0	52428800	53	5276
2026-01-17 21:24:24.07	225.01	11.18	-40.5	-43.8	17.6	0.00e+00	0	57	0	56098816	53	5007
2026-01-17 21:24:27.10	224.49	11.48	-40.3	-43.4	18.0	0.00e+00	0	57	0	59244544	52	5080
2026-01-17 21:24:30.12	223.96	11.78	-40.3	-43.5	17.9	0.00e+00	0	57	0	62914560	52	5103
2026-01-17 21:24:33.15	223.41	12.09	-40.2	-43.3	18.2	0.00e+00	0	57	0	66060288	52	4985
2026-01-17 21:24:36.18	222.84	12.40	-40.0	-43.0	18.5	0.00e+00	0	57	0	69730304	52	4830
2026-01-17 21:24:39.21	222.26	12.71	-39.9	-42.8	18.7	0.00e+00	0	57	0	72876032	51	5022
2026-01-17 21:24:42.24	221.67	13.03	-39.8	-42.6	19.0	0.00e+00	0	57	0	76546048	51	4897
2026-01-17 21:24:45.26	221.05	13.35	-39.9	-42.7	18.9	0.00e+00	0	57	0	79691776	51	4973
2026-01-17 21:24:48.29	220.42	13.68	-39.8	-42.6	19.0	0.00e+00	0	57	0	83361792	51	4887
2026-01-17 21:24:51.32	219.77	14.01	-39.5	-42.1	19.5	0.00e+00	0	57	0	86507520	51	4623
2026-01-17 21:24:54.35	219.10	14.34	-39.4	-42.0	19.7	0.00e+00	0	57	0	90177536	50	4847
2026-01-17 21:24:57.37	218.41	14.67	-39.6	-42.2	19.4	0.00e+00	0	57	0	93323264	50	4968
2026-01-17 21:25:00.40	217.70	15.01	-39.6	-42.3	19.4	0.00e+00	0	58	0	96993280	50	4986
2026-01-17 21:25:03.43	216.97	15.36	-39.2	-41.7	20.0	0.00e+00	0	57	0	100139008	50	4669
2026-01-17 21:25:06.46	216.22	15.70	-39.0	-41.4	20.2	0.00e+00	0	58	0	103809024	49	4803
2026-01-17 21:25:09.49	215.45	16.05	-39.1	-41.5	20.2	0.00e+00	0	58	0	106954752	49	4833
2026-01-17 21:25:12.52	214.65	16.40	-39.2	-41.6	20.1	0.00e+00	0	58	0	110624768	49	4896
2026-01-17 21:25:15.54	213.83	16.75	-39.0	-41.4	20.4	0.00e+00	0	58	0	113770496	49	4771
2026-01-17 21:25:18.57	212.98	17.11	-38.8	-41.1	20.7	0.00e+00	0	58	0	117440512	49	4603
2026-01-17 21:25:21.60	212.11	17.47	-39.2	-41.6	20.2	0.00e+00	0	58	0	120586240	49	4883
2026-01-17 21:25:24.63	211.21	17.83	-39.1	-41.5	20.3	0.00e+00	0	58	0	124256256	49	4844
2026-01-17 21:25:27.66	210.29	18.19	-38.7	-41.0	20.8	0.00e+00	0	58	0	127401984	49	4549
2026-01-17 21:25:30.69	209.34	18.55	-38.4	-40.6	21.2	0.00e+00	0	58	0	131072000	48	4620
2026-01-17 21:25:33.72	208.36	18.91	-38.6	-40.8	21.0	0.00e+00	0	58	0	134217728	48	4751
2026-01-17 21:25:36.75	207.35	19.27	-38.8	-41.1	20.7	0.00e+00	0	58	0	137887744	48	4895
2026-01-17 21:25:39.78	206.31	19.63	-38.4	-40.6	21.2	0.00e+00	0	58	0	141033472	48	4644
2026-01-17 21:25:42.81	205.24	19.99	-38.0	-40.1	21.7	0.00e+00	0	58	0	144703488	48	4343
2026-01-17 21:25:45.83	204.14	20.35	-38.3	-40.4	21.3	0.00e+00	0	58	0	147849216	47	4811
2026-01-17 21:25:48.86	203.01	20.70	-38.3	-40.5	21.3	0.00e+00	0	58	0	151519232	47	4817
2026-01-17 21:25:51.89	201.85	21.05	-38.1	-40.2	21.5	0.00e+00	0	58	0	154664960	47	4694
2026-01-17 21:25:54.91	200.66	21.40	-37.9	-40.0	21.8	0.00e+00	0	58	0	158334976	47	4560
2026-01-17 21:25:57.94	199.43	21.74	-37.8	-39.8	22.0	0.00e+00	0	58	0	161480704	47	4463
2026-01-17 21:26:00.96	198.18	22.07	-37.7	-39.7	22.0	0.00e+00	0	58	0	165150720	47	4427
2026-01-17 21:26:04.00	196.88	22.40	-37.8	-39.8	21.9	0.00e+00	0	58	0	168296448	47	4491
2026-01-17 21:26:07.03	195.56	22.72	-38.0	-40.0	21.7	0.00e+00	0	58	0	171966464	47	4589
2026-01-17 21:26:10.06	194.21	23.03	-37.6	-39.6	22.2	0.00e+00	0	58	0	175112192	47	4341
2026-01-17 21:26:13.09	192.82	23.33	-37.7	-39.7	22.0	0.00e+00	0	58	0	178782208	47	4433
2026-01-17 21:26:16.11	191.41	23.62	-37.5	-39.5	22.2	0.00e+00	0	58	0	181927936	47	4316
2026-01-17 21:26:19.14	189.96	23.90	-37.5	-39.4	22.4	0.00e+00	0	58	0	185597952	46	4537
2026-01-17 21:26:22.17	188.48	24.16	-37.6	-39.6	22.2	0.00e+00	0	59	0	188743680	46	4602
2026-01-17 21:26:25.20	186.98	24.40	-37.3	-39.3	22.5	0.00e+00	0	59	0	192413696	46	4442
2026-01-17 21:26:28.23	185.45	24.64	-37.4	-39.4	22.4	0.00e+00	0	58	0	195559424	46	4503
2026-01-17 21:26:31.26	183.89	24.85	-37.6	-39.5	22.3	0.00e+00	0	59	0	199229440	46	4577
2026-01-17 21:26:34.29	182.31	25.04	-38.0	-40.0	21.7	0.00e+00	0	59	0	202375168	46	4867
2026-01-17 21:26:37.32	180.71	25.22	-37.6	-39.6	22.2	0.00e+00	0	59	0	206045184	46	4629
2026-01-17 21:26:40.34	179.09	25.37	-37.6	-39.6	22.2	0.00e+00	0	58	0	209190912	46	4641
2026-01-17 21:26:43.37	177.46	25.51	-37.5	-39.4	22.4	0.00e+00	0	59	0	212860928	46	4540
2026-01-17 21:26:46.40	175.80	25.62	-37.2	-39.1	22.8	0.00e+00	0	59	0	216006656	46	4366
2026-01-17 21:26:49.44	174.13	25.71	-37.0	-38.8	23.1	0.00e+00	0	59	0	219676672	46	4212
2026-01-17 21:26:52.47	172.46	25.78	-36.8	-38.6	23.3	0.00e+00	0	59	0	222822400	45	4366
2026-01-17 21:26:55.50	170.78	25.82	-37.1	-38.9	22.9	0.00e+00	0	59	0	226492416	45	4538
2026-01-17 21:26:58.53	169.09	25.84	-37.4	-39.3	22.6	0.00e+00	0	59	0	229638144	45	4711
2026-01-17 21:27:01.55	167.41	25.83	-37.2	-39.1	22.9	0.00e+00	0	59	0	233308160	45	4621
2026-01-17 21:27:04.58	165.73	25.81	-36.9	-38.7	23.2	0.00e+00	0	59	0	236453888	45	4436
2026-01-17 21:27:07.61	164.05	25.75	-37.4	-39.4	22.6	0.00e+00	0	59	0	240123904	45	4764
2026-01-17 21:27:10.64	162.38	25.68	-37.5	-39.4	22.6	0.00e+00	0	59	0	243269632	45	4787
2026-01-17 21:27:13.67	160.72	25.58	-37.8	-39.8	22.3	0.00e+00	0	59	0	246939648	46	4722
2026-01-17 21:27:16.70	159.08	25.46	-37.4	-39.3	22.7	0.00e+00	0	59	0	250085376	46	4451
2026-01-17 21:27:19.72	157.45	25.31	-38.2	-40.3	21.8	0.00e+00	0	59	0	253755392	46	4991
2026-01-17 21:27:22.75	155.84	25.15	-37.6	-39.6	22.5	0.00e+00	0	59	0	256901120	47	4348
2026-01-17 21:27:25.78	154.25	24.97	-38.0	-40.0	22.0	0.00e+00	0	59	0	260571136	47	4588
2026-01-17 21:27:28.81	152.68	24.77	-38.0	-40.1	22.0	0.00e+00	0	59	0	263716864	47	4611
2026-01-17 21:27:31.84	151.13	24.55	-37.6	-39.6	22.5	0.00e+00	0	59	0	267386880	47	4350
2026-01-17 21:27:34.87	149.61	24.31	-38.0	-40.0	22.1	0.00e+00	0	59	0	270532608	47	4594
2026-01-17 21:27:37.90	148.12	24.06	-37.9	-39.9	22.2	0.00e+00	0	59	0	274202624	47	4532
2026-01-17 21:27:40.92	146.67	23.79	-37.7	-39.7	22.5	0.00e+00	0	59	0	277348352	47	4415
2026-01-17 21:27:43.95	145.23	23.51	-37.9	-39.9	22.2	0.00e+00	0	59	0	281018368	47	4516
2026-01-17 21:27:46.98	143.83	23.22	-37.4	-39.3	22.8	0.00e+00	0	59	0	284164096	46	4459
2026-01-17 21:27:50.01	142.46	22.91	-37.4	-39.4	22.7	0.00e+00	0	59	0	287834112	46	4508
2026-01-17 21:27:53.04	141.12	22.60	-37.9	-40.0	22.2	0.00e+00	0	59	0	290979840	46	4834
2026-01-17 21:27:56.07	139.81	22.28	-37.4	-39.4	22.7	0.00e+00	0	59	0	294649856	46	4510
2026-01-17 21:27:59.09	138.54	21.95	-37.6	-39.6	22.5	0.00e+00	0	59	0	297795584	46	4634
2026-01-17 21:28:02.12	137.30	21.61	-38.3	-40.5	21.7	0.00e+00	0	59	0	300941312	47	4817
2026-01-17 21:28:05.15	136.09	21.27	-38.0	-40.1	22.0	0.00e+00	0	59	0	304611328	47	4630
2026-01-17 21:28:08.18	134.91	20.92	-38.0	-40.1	22.0	0.00e+00	0	59	0	308281344	47	4631
2026-01-17 21:28:11.21	133.76	20.57	-38.2	-40.4	21.7	0.00e+00	0	59	0	311427072	47	4789
2026-01-17 21:28:14.24	132.65	20.21	-38.1	-40.3	21.5	0.00e+00	0	59	0	315097088	47	4755
2026-01-17 21:28:17.26	131.57	19.86	-38.3	-40.5	21.5	0.00e+00	0	59	0	318242816	47	4858
2026-01-17 21:28:20.29	130.51	19.50	-38.5	-40.8	21.1	1.10e-06	0	59	0	321912832	47	4985
2026-01-17 21:28:23.32	129.49	19.14	-38.5	-40.8	21.1	0.00e+00	0	59	0	325058560	47	5018
2026-01-17 21:28:26.35	128.49	18.78	-38.2	-40.8	20.6	1.14e-05	0	59	0	328728576	47	5037
2026-01-17 21:28:29.38	127.52	18.42	-38.2	-40.6	20.5	1.37e-04	0	59	0	331874304	47	4879
2026-01-17 21:28:32.41	126.59	18.06	-38.6	-41.0	20.5	1.10e-06	0	59	0	335544320	47	5154
2026-01-17 21:28:35.44	125.67	17.70	-38.9	-41.3	20.4	0.00e+00	0	59	0	338690048	48	5021
2026-01-17 21:28:38.47	124.79	17.34	-38.9	-41.3	20.5	0.00e+00	0	59	0	341835776	48	5017
2026-01-17 21:28:41.50	123.93	16.99	-38.9	-41.3	20.5	0.00e+00	0	60	0	345505792	48	5033
2026-01-17 21:28:44.53	123.10	16.63	-38.8	-41.2	20.6	0.00e+00	0	59	0	349175808	48	4955
2026-01-17 21:28:47.56	122.29	16.28	-39.2	-41.7	18.5	0.00e+00	0	59	0	352321536	48	5253
2026-01-17 21:28:50.59	121.50	15.93	-39.1	-41.6	20.0	0.00e+00	0	59	0	355991552	48	5196
2026-01-17 21:28:53.62	120.74	15.58	-39.2	-41.9	17.2	2.52e-04	0	59	0	359137280	43	7164
2026-01-17 21:28:56.64	120.00	15.24	-39.4	-42.2	19.2	6.40e-05	0	59	0	362807296	49	5272
2026-01-17 21:28:59.67	119.28	14.90	-39.3	-42.9	17.3	5.65e-04	0	59	0	365953024	48	6001
2026-01-17 21:29:02.70	118.58	14.57	-38.9	-42.2	17.9	1.98e-03	0	59	0	369623040	48	5592
2026-01-17 21:29:05.73	117.90	14.23	-38.7	-42.1	18.7	1.73e-03	0	59	0	372768768	48	5507
2026-01-17 21:29:08.76	117.24	13.90	-39.5	-42.8	18.1	2.71e-04	0	59	0	375914496	49	5634
2026-01-17 21:29:11.79	116.60	13.58	-39.2	-43.2	15.9	8.09e-04	0	59	0	379584512	46	7033
2026-01-17 21:29:14.81	115.98	13.25	-39.8	-42.7	18.7	1.29e-04	0	59	0	382730240	50	5272
2026-01-17 21:29:17.84	115.37	12.93	-40.0	-43.1	18.4	1.37e-05	0	60	0	386400256	50	5474
2026-01-17 21:29:20.87	114.78	12.62	-40.2	-43.3	18.2	0.00e+00	0	60	0	389545984	50	5630
2026-01-17 21:29:23.91	114.21	12.30	-39.4	-43.2	18.0	0.00e+00	0	59	0	393216000	50	5533
2026-01-17 21:29:26.94	113.65	12.00	-38.8	-43.3	15.9	9.76e-04	0	59	0	396886016	48	6285
2026-01-17 21:29:29.97	113.11	11.69	-38.5	-43.3	15.6	1.27e-03	0	60	0	400031744	47	6673
2026-01-17 21:29:33.00	112.58	11.39	-37.0	-43.4	13.9	3.43e-02	0	59	0	403701760	43	8519
2026-01-17 21:29:36.03	112.07	11.09	-35.6	-43.1	11.3	4.05e-02	0	59	0	406847488	39	10376
2026-01-17 21:29:39.06	111.57	10.80	-37.0	-43.5	13.3	3.43e-02	0	60	0	409993216	43	8612
2026-01-17 21:29:42.09	111.09	10.51	-36.8	-44.1	12.4	7.82e-02	0	60	0	413663232	44	8662
2026-01-17 21:29:45.12	110.61	10.22	-36.2	-44.3	12.2	2.00e-01	0	60	0	416808960	43	9496
2026-01-17 21:29:48.14	110.16	9.94	-32.0	-42.7	9.1	8.94e-02	0	59	0	419954688	31	15706
2026-01-17 21:29:51.17	109.71	9.66	-37.4	-44.5	13.3	7.18e-02	0	59	0	423100416	43	9697
2026-01-17 21:29:54.20	109.27	9.38	-37.1	-44.3	13.4	2.19e-01	0	60	0	426246144	44	8879
2026-01-17 21:29:57.23	108.85	9.11	-37.4	-44.5	12.5	1.39e-01	0	60	0	429391872	44	9126
2026-01-17 21:30:00.26	108.43	8.84	-35.9	-44.6	10.6	1.22e-01	0	60	0	433061888	42	10321
2026-01-17 21:30:03.29	108.03	8.57	-37.7	-45.7	12.3	3.97e-02	0	60	0	436207616	46	9332
2026-01-17 21:30:06.32	107.63	8.31	-38.0	-45.6	12.1	2.96e-02	0	60	0	439353344	47	8710
2026-01-17 21:30:09.34	107.25	8.05	-39.4	-45.6	12.9	6.00e-03	0	60	0	443023360	47	8758
2026-01-17 21:30:12.37	106.87	7.80	-45.0	-63.1	3.8	8.46e-01	0	60	104	443547648	60	31023
2026-01-17 21:30:15.40	106.51	7.54	-45.5	-63.7	3.8	8.46e-01	0	60	104	443547648	61	31275
2026-01-17 21:30:18.43	106.15	7.29	-45.9	-64.1	3.8	8.46e-01	0	60	104	443547648	62	30763
2026-01-17 21:30:21.47	105.80	7.04	-45.7	-63.9	3.8	8.46e-01	0	60	104	443547648	62	30114
2026-01-17 21:30:24.50	105.46	6.80	-45.5	-63.7	3.8	8.46e-01	0	60	104	443547648	62	29403
2026-01-17 21:30:27.53	105.13	6.55	-45.4	-63.5	3.8	8.47e-01	0	60	104	443547648	62	28813
2026-01-17 21:30:30.57	104.80	6.31	-45.4	-63.5	3.8	8.46e-01	0	60	104	443547648	62	28767
2026-01-17 21:30:33.60	104.49	6.08	-45.4	-63.5	3.8	8.48e-01	0	60	104	443547648	62	28741
2026-01-17 21:30:36.63	104.18	5.84	-45.4	-63.5	3.8	8.46e-01	0	60	104	443547648	62	28756
2026-01-17 21:30:39.66	103.87	5.61	-45.4	-63.4	3.8	8.46e-01	0	60	104	443547648	62	28652
2026-01-17 21:30:42.70	103.58	5.38	-45.3	-63.4	3.8	8.47e-01	0	60	104	443547648	61	30349
2026-01-17 21:30:45.73	103.29	5.15	-45.3	-63.4	3.8	8.46e-01	0	60	104	443547648	61	30239
2026-01-17 21:30:48.76	103.01	4.93	-45.3	-63.4	3.8	8.47e-01	0	60	104	443547648	61	30214
2026-01-17 21:30:51.79	102.73	4.71	-45.3	-63.4	3.8	8.47e-01	0	60	104	443547648	61	30216
2026-01-17 21:30:54.83	102.46	4.49	-45.3	-63.4	3.8	8.46e-01	0	60	104	443547648	61	30165
2026-01-17 21:30:57.86	102.19	4.27	-45.3	-63.4	3.8	8.47e-01	0	60	104	443547648	61	30157
2026-01-17 21:31:00.89	101.93	4.05	-45.3	-63.4	3.8	8.45e-01	0	60	104	443547648	61	30087
2026-01-17 21:31:03.92	101.68	3.84	-45.3	-63.4	3.8	8.48e-01	0	60	104	443547648	61	30106
2026-01-17 21:31:06.96	101.43	3.63	-45.3	-63.4	3.8	8.46e-01	0	60	104	443547648	61	30063
2026-01-17 21:31:09.99	101.19	3.42	-45.3	-63.3	3.8	8.47e-01	0	60	104	443547648	61	29960
2026-01-17 21:31:13.02	100.95	3.21	-45.3	-63.3	3.8	8.46e-01	0	60	104	443547648	61	29992
2026-01-17 21:31:16.05	100.72	3.01	-45.3	-63.3	3.8	8.46e-01	0	60	104	443547648	61	29993
2026-01-17 21:31:19.09	100.49	2.80	-45.3	-63.3	3.8	8.47e-01	0	60	104	443547648	61	30011
2026-01-17 21:31:22.12	100.27	2.60	-45.2	-63.3	3.8	8.45e-01	0	60	104	443547648	61	29951
2026-01-17 21:31:25.16	100.05	2.40	-45.3	-63.3	3.8	8.45e-01	0	60	104	443547648	61	29906
2026-01-17 21:31:28.19	99.83	2.21	-45.3	-63.4	3.8	8.47e-01	0	60	104	443547648	61	30033
2026-01-17 21:31:31.22	99.62	2.01	-45.2	-63.3	3.8	8.46e-01	0	60	104	443547648	61	29932

#Closed at: 2026-01-17 21:31:33
#Recorded file [443 MB]: D:/lorett/data/31039_260118_002228.dat