passes_logs/2026/01/17/R2.0S_Moscow/R2.0S_Moscow__20260117_220834_NOAA_21_JPSS-2_rec.log

#Pass ID: 20260117_220834_NOAA 21 (JPSS-2)
#Satellite: NOAA 21 (JPSS-2)
#Configuration: NOAA-21
#almurnet v.1.7.20251203
#Start time: 2026-01-17 22:08:34

#Version: 2.2.20231116
#Station: R2.0S_Moscow
#Location: 37.707566 lon 55.798166 lat
#TLE: 1 54234U 22150A   26017.26823908  .00000042  00000+0  40962-4 0  9992
#TLE: 2 54234  98.7501 318.1405 0000613 274.2947  85.8159 14.19535194165131

#Time	Az	El	Level	Level2	SNR	BER	BlckErr	Temp	State	Recorded	gain1	gain2
2026-01-17 22:08:34.18	25.41	2.01	-41.8	-54.6	3.8	1.49e+00	0	51	0	0	55	15519
2026-01-17 22:08:38.23	25.70	2.22	-41.7	-54.6	3.8	1.49e+00	0	51	104	0	54	16437
2026-01-17 22:08:42.27	26.00	2.44	-41.8	-54.6	3.8	1.49e+00	0	52	104	0	54	16500
2026-01-17 22:08:46.31	26.30	2.67	-41.8	-54.6	3.8	1.49e+00	0	52	104	0	54	16449
2026-01-17 22:08:50.36	26.61	2.89	-41.8	-54.6	3.8	1.49e+00	0	52	104	0	54	16424
2026-01-17 22:08:54.40	26.92	3.11	-41.8	-54.6	3.8	1.49e+00	0	53	104	0	54	16376
2026-01-17 22:08:58.44	27.23	3.34	-41.7	-54.6	3.8	1.49e+00	0	53	104	0	54	16406
2026-01-17 22:09:02.49	27.55	3.56	-41.7	-54.6	3.8	1.49e+00	0	53	104	0	54	16457
2026-01-17 22:09:06.53	27.88	3.79	-41.7	-54.6	3.8	1.49e+00	0	53	104	0	54	16434
2026-01-17 22:09:10.58	28.21	4.02	-41.7	-54.6	3.8	1.49e+00	0	54	104	0	54	16371
2026-01-17 22:09:14.62	28.54	4.25	-41.8	-54.6	3.8	1.49e+00	0	54	104	0	54	16381
2026-01-17 22:09:18.66	28.88	4.48	-41.7	-54.6	3.8	1.49e+00	0	54	104	0	54	16427
2026-01-17 22:09:22.71	29.22	4.71	-41.7	-54.6	3.8	1.49e+00	0	54	104	0	54	16422
2026-01-17 22:09:26.75	29.57	4.94	-41.7	-54.6	3.8	1.49e+00	0	55	104	0	54	16416
2026-01-17 22:09:30.80	29.92	5.18	-41.8	-54.6	3.8	1.49e+00	0	55	104	0	54	16418
2026-01-17 22:09:34.84	30.28	5.41	-41.7	-54.6	3.8	1.49e+00	0	55	104	0	54	16394
2026-01-17 22:09:38.88	30.65	5.65	-41.7	-54.6	3.8	1.49e+00	0	55	104	0	54	16355
2026-01-17 22:09:42.92	31.02	5.89	-41.7	-54.6	3.8	1.49e+00	0	55	104	0	54	16421
2026-01-17 22:09:46.97	31.40	6.13	-41.7	-54.6	3.8	1.49e+00	0	56	104	0	54	16346
2026-01-17 22:09:51.01	31.78	6.37	-41.7	-54.6	3.8	1.49e+00	0	56	104	0	54	16340
2026-01-17 22:09:55.05	32.17	6.61	-41.7	-54.5	3.8	1.49e+00	0	56	104	0	54	16232
2026-01-17 22:09:59.09	32.56	6.85	-41.7	-54.4	3.8	1.49e+00	0	56	104	0	54	15964
2026-01-17 22:10:03.14	32.96	7.10	-41.7	-54.3	3.8	1.49e+00	0	56	104	0	54	15800
2026-01-17 22:10:07.18	33.37	7.34	-41.7	-54.1	3.8	1.49e+00	0	56	104	0	54	15472
2026-01-17 22:10:11.22	33.78	7.59	-41.1	-48.9	5.1	1.16e+00	0	56	0	0	54	8491
2026-01-17 22:10:15.26	34.21	7.84	-40.7	-47.2	6.3	2.29e-01	0	57	0	12582912	53	7372
2026-01-17 22:10:19.30	34.63	8.09	-40.0	-44.1	9.9	3.73e-02	0	57	0	25165824	51	5789
2026-01-17 22:10:23.34	35.07	8.34	-41.3	-47.4	6.4	2.99e-01	0	57	0	33554432	53	7593
2026-01-17 22:10:27.38	35.51	8.59	-40.8	-45.3	8.8	2.72e-02	0	57	0	46137344	52	6296
2026-01-17 22:10:31.42	35.96	8.84	-40.6	-44.8	9.4	1.77e-02	0	57	0	58720256	52	5935
2026-01-17 22:10:35.46	36.41	9.09	-40.6	-44.5	9.8	8.43e-03	0	57	0	71303168	52	5726
2026-01-17 22:10:39.50	36.88	9.34	-40.5	-44.2	10.2	6.10e-03	0	57	0	84934656	52	5583
2026-01-17 22:10:43.54	37.35	9.60	-40.6	-44.3	10.2	4.99e-03	0	57	0	97517568	52	5632
2026-01-17 22:10:47.58	37.83	9.86	-40.7	-44.2	10.4	4.56e-03	0	58	0	109051904	52	5585
2026-01-17 22:10:51.61	38.32	10.11	-40.5	-43.8	11.0	2.11e-03	0	58	0	122683392	52	5324
2026-01-17 22:10:55.64	38.81	10.37	-40.4	-43.6	11.3	1.46e-03	0	58	0	135266304	52	5196
2026-01-17 22:10:59.68	39.32	10.63	-40.3	-43.2	11.7	5.77e-04	0	58	0	147849216	52	4976
2026-01-17 22:11:03.72	39.83	10.89	-40.3	-43.3	11.7	5.91e-04	0	58	0	160432128	52	5034
2026-01-17 22:11:07.76	40.36	11.15	-40.3	-43.3	11.8	5.42e-04	0	58	0	173015040	52	4996
2026-01-17 22:11:11.80	40.89	11.41	-40.3	-43.2	11.9	3.98e-04	0	58	0	185597952	52	4946
2026-01-17 22:11:15.85	41.43	11.67	-40.3	-43.3	11.9	3.74e-04	0	58	0	198180864	52	5006
2026-01-17 22:11:19.89	41.98	11.93	-40.4	-43.4	11.8	5.71e-04	0	58	0	210763776	52	5085
2026-01-17 22:11:23.93	42.54	12.19	-40.5	-43.5	11.8	4.24e-04	0	58	0	223346688	52	5109
2026-01-17 22:11:27.97	43.11	12.46	-40.4	-43.2	12.1	3.34e-04	0	58	0	235929600	52	4966
2026-01-17 22:11:32.01	43.69	12.72	-40.2	-43.0	12.3	1.67e-04	0	58	0	248512512	52	4834
2026-01-17 22:11:36.05	44.28	12.98	-40.2	-43.0	12.4	1.54e-04	0	58	0	261095424	52	4815
2026-01-17 22:11:40.09	44.88	13.25	-40.3	-43.1	12.3	1.81e-04	0	58	0	273678336	52	4884
2026-01-17 22:11:44.13	45.49	13.51	-40.2	-42.9	12.5	1.33e-04	0	58	0	286261248	52	4803
2026-01-17 22:11:48.17	46.11	13.77	-40.2	-42.9	12.5	1.07e-04	0	59	0	298844160	52	4800
2026-01-17 22:11:52.21	46.74	14.04	-40.2	-42.9	12.6	1.14e-04	0	59	0	311427072	52	4779
2026-01-17 22:11:56.24	47.38	14.30	-40.2	-42.8	12.6	8.01e-05	0	58	0	324009984	52	4748
2026-01-17 22:12:00.28	48.04	14.56	-40.2	-42.8	12.6	1.07e-04	0	59	0	336592896	52	4758
2026-01-17 22:12:04.32	48.70	14.82	-40.2	-42.9	12.6	1.23e-04	0	59	0	349175808	52	4792
2026-01-17 22:12:08.36	49.38	15.08	-40.2	-42.9	12.6	1.14e-04	0	59	0	361758720	52	4774
2026-01-17 22:12:12.41	50.07	15.34	-40.3	-43.0	12.5	1.28e-04	0	59	0	374341632	52	4849
2026-01-17 22:12:16.44	50.77	15.60	-40.3	-43.0	12.5	8.92e-05	0	59	0	386924544	52	4824
2026-01-17 22:12:20.48	51.48	15.86	-40.2	-42.9	12.7	7.85e-05	0	59	0	400556032	52	4767
2026-01-17 22:12:24.52	52.20	16.11	-40.3	-43.1	12.5	1.19e-04	0	59	0	412090368	52	4882
2026-01-17 22:12:28.56	52.94	16.37	-40.3	-43.1	12.5	1.41e-04	0	59	0	425721856	52	4881
2026-01-17 22:12:32.60	53.69	16.62	-40.2	-42.8	12.8	4.88e-05	0	59	0	438304768	52	4719
2026-01-17 22:12:36.64	54.45	16.87	-40.1	-42.6	12.9	3.28e-05	0	59	0	450887680	52	4637
2026-01-17 22:12:40.67	55.22	17.12	-40.2	-42.8	12.8	5.79e-05	0	59	0	463470592	52	4711
2026-01-17 22:12:44.71	56.01	17.36	-40.3	-43.0	12.6	1.10e-04	0	59	0	476053504	52	4829
2026-01-17 22:12:48.76	56.81	17.60	-40.1	-42.7	12.9	6.33e-05	0	59	0	488636416	52	4680
2026-01-17 22:12:52.80	57.62	17.84	-40.1	-42.6	13.0	4.34e-05	0	59	0	501219328	52	4626
2026-01-17 22:12:56.84	58.44	18.08	-40.1	-42.7	12.9	5.03e-05	0	59	0	513802240	52	4678
2026-01-17 22:13:00.88	59.28	18.31	-40.1	-42.6	13.0	5.34e-05	0	59	0	526385152	52	4638
2026-01-17 22:13:04.92	60.12	18.54	-40.0	-42.5	13.1	2.44e-05	0	59	0	538968064	52	4590
2026-01-17 22:13:08.96	60.98	18.77	-40.1	-42.6	13.1	3.43e-05	0	59	0	551550976	51	4893
2026-01-17 22:13:13.00	61.86	18.99	-40.0	-42.5	13.2	3.28e-05	0	59	0	564133888	51	4841
2026-01-17 22:13:17.04	62.74	19.20	-39.9	-42.3	13.4	1.52e-05	0	59	0	576716800	51	4728
2026-01-17 22:13:21.08	63.64	19.42	-40.0	-42.4	13.2	2.21e-05	0	59	0	589299712	51	4802
2026-01-17 22:13:25.12	64.55	19.62	-39.9	-42.3	13.4	1.75e-05	0	59	0	601882624	51	4737
2026-01-17 22:13:29.15	65.47	19.82	-39.9	-42.3	13.3	9.10e-06	0	60	0	614465536	51	4741
2026-01-17 22:13:33.20	66.41	20.02	-39.7	-42.1	13.6	4.50e-06	0	60	0	627048448	51	4615
2026-01-17 22:13:37.23	67.35	20.20	-39.7	-42.1	13.6	6.80e-06	0	59	0	639631360	51	4602
2026-01-17 22:13:41.27	68.31	20.39	-39.9	-42.4	13.1	4.04e-05	0	60	0	652214272	51	4779
2026-01-17 22:13:45.31	69.28	20.56	-39.7	-42.1	13.3	9.10e-06	0	60	0	664797184	51	4614
2026-01-17 22:13:49.35	70.26	20.73	-39.8	-42.4	12.9	3.96e-05	0	60	0	677380096	51	4763
2026-01-17 22:13:53.39	71.24	20.89	-40.1	-42.8	12.3	1.88e-04	0	59	0	689963008	51	5026
2026-01-17 22:13:57.43	72.24	21.04	-40.0	-42.7	12.4	1.43e-04	0	60	0	702545920	51	4962
2026-01-17 22:14:01.47	73.25	21.19	-40.0	-42.7	12.6	9.00e-05	0	60	0	715128832	51	4928
2026-01-17 22:14:05.50	74.27	21.33	-40.0	-42.7	12.5	1.18e-04	0	60	0	727711744	51	4928
2026-01-17 22:14:09.54	75.29	21.46	-40.0	-42.6	12.5	1.15e-04	0	60	0	741343232	51	4914
2026-01-17 22:14:13.59	76.33	21.58	-39.8	-42.4	12.9	5.41e-05	0	60	0	753926144	51	4774
2026-01-17 22:14:17.63	77.38	21.69	-40.0	-42.6	12.6	9.76e-05	0	60	0	766509056	51	4921
2026-01-17 22:14:21.67	78.42	21.79	-39.6	-42.1	13.3	2.21e-05	0	60	0	779091968	51	4615
2026-01-17 22:14:25.71	79.48	21.88	-39.7	-42.1	13.3	1.60e-05	0	60	0	791674880	51	4626
2026-01-17 22:14:29.75	80.54	21.97	-39.8	-42.3	13.1	2.89e-05	0	60	0	804257792	51	4744
2026-01-17 22:14:33.79	81.61	22.04	-39.6	-42.0	13.5	1.29e-05	0	60	0	816840704	51	4560
2026-01-17 22:14:37.82	82.68	22.11	-39.6	-41.9	13.5	8.30e-06	0	60	0	829423616	50	4806
2026-01-17 22:14:41.86	83.76	22.16	-39.6	-41.9	13.5	8.30e-06	0	60	0	842006528	50	4807
2026-01-17 22:14:45.90	84.84	22.20	-39.8	-42.3	13.1	3.20e-05	0	60	0	854589440	50	5021
2026-01-17 22:14:49.94	85.92	22.24	-39.7	-42.1	13.4	1.14e-05	0	60	0	867172352	50	4907
2026-01-17 22:14:53.98	87.01	22.26	-39.9	-42.4	13.0	3.89e-05	0	60	0	879755264	50	5063
2026-01-17 22:14:58.02	88.09	22.27	-40.0	-42.5	13.0	4.04e-05	0	60	0	892338176	50	5138
2026-01-17 22:15:02.06	89.18	22.27	-39.8	-42.3	13.2	1.90e-05	0	60	0	904921088	50	5001
2026-01-17 22:15:06.10	90.27	22.27	-39.8	-42.2	13.4	9.10e-06	0	60	0	917504000	50	4929
2026-01-17 22:15:10.14	91.35	22.25	-39.5	-41.7	13.9	3.00e-06	0	60	0	930086912	50	4702
2026-01-17 22:15:14.18	92.44	22.22	-39.5	-41.7	14.1	7.00e-07	0	60	0	942669824	50	4670
2026-01-17 22:15:18.22	93.52	22.18	-39.5	-41.8	14.0	7.00e-07	0	60	0	955252736	50	4707
2026-01-17 22:15:22.26	94.60	22.13	-39.5	-41.6	14.2	7.00e-07	0	60	0	967835648	50	4651
2026-01-17 22:15:26.29	95.67	22.07	-39.6	-41.8	14.1	1.50e-06	0	60	0	980418560	50	4718
2026-01-17 22:15:30.34	96.75	22.00	-39.6	-41.8	14.1	7.00e-07	0	60	0	993001472	50	4750
2026-01-17 22:15:34.38	97.82	21.92	-39.7	-42.0	13.9	5.30e-06	0	60	0	1005584384	50	4838
2026-01-17 22:15:38.42	98.88	21.83	-39.6	-41.8	14.1	7.00e-07	0	60	0	1018167296	50	4756
2026-01-17 22:15:42.45	99.93	21.73	-39.7	-42.0	13.9	3.80e-06	0	60	0	1030750208	50	4830
2026-01-17 22:15:46.49	100.98	21.63	-39.7	-42.0	14.0	3.00e-06	0	60	0	1043333120	50	4822
2026-01-17 22:15:50.53	102.02	21.51	-39.7	-41.9	14.0	4.50e-06	0	60	0	1056964608	50	4774
2026-01-17 22:15:54.57	103.05	21.38	-39.5	-41.7	14.2	7.00e-07	0	60	0	1068498944	50	4677
2026-01-17 22:15:58.61	104.08	21.25	-39.7	-41.9	14.0	1.50e-06	0	60	0	1082130432	50	4809
2026-01-17 22:16:02.64	105.09	21.11	-39.7	-41.9	14.0	3.80e-06	0	60	0	1094713344	50	4807
2026-01-17 22:16:06.68	106.10	20.96	-39.6	-41.8	14.1	7.00e-07	0	60	0	1107296256	50	4724
2026-01-17 22:16:10.72	107.09	20.80	-39.8	-42.1	13.9	5.30e-06	0	60	0	1119879168	50	4884
2026-01-17 22:16:14.76	108.08	20.63	-39.7	-42.0	13.9	5.30e-06	0	60	0	1132462080	50	4840
2026-01-17 22:16:18.80	109.06	20.46	-39.8	-42.1	13.9	6.10e-06	0	60	0	1145044992	50	4886
2026-01-17 22:16:22.84	110.02	20.28	-39.8	-42.1	13.8	4.50e-06	0	60	0	1157627904	50	4885
2026-01-17 22:16:26.88	110.98	20.09	-39.9	-42.2	13.7	5.30e-06	0	60	0	1170210816	50	4958
2026-01-17 22:16:30.91	111.92	19.90	-39.9	-42.3	13.6	5.30e-06	0	60	0	1182793728	50	4994
2026-01-17 22:16:34.95	112.85	19.70	-39.9	-42.3	13.7	6.10e-06	0	60	0	1195376640	50	4989
2026-01-17 22:16:38.99	113.77	19.49	-39.7	-42.0	13.9	4.50e-06	0	60	0	1207959552	50	4852
2026-01-17 22:16:43.04	114.68	19.28	-39.8	-42.1	13.8	1.50e-06	0	60	0	1220542464	50	4875
2026-01-17 22:16:47.08	115.57	19.07	-40.0	-42.4	13.5	4.50e-06	0	60	0	1233125376	50	5074
2026-01-17 22:16:51.12	116.45	18.85	-40.0	-42.4	13.4	1.67e-05	0	60	0	1245708288	50	5098
2026-01-17 22:16:55.16	117.33	18.62	-40.0	-42.4	13.5	1.44e-05	0	60	0	1258291200	50	5065
2026-01-17 22:16:59.20	118.18	18.39	-40.1	-42.5	13.4	1.67e-05	0	60	0	1270874112	50	5112
2026-01-17 22:17:03.22	119.02	18.16	-40.2	-42.7	13.1	2.36e-05	0	60	0	1283457024	51	4959
2026-01-17 22:17:07.26	119.86	17.92	-40.0	-42.4	13.4	1.37e-05	0	60	0	1296039936	50	5062
2026-01-17 22:17:11.30	120.68	17.68	-39.9	-42.2	13.5	2.67e-05	0	60	0	1308622848	50	4981
2026-01-17 22:17:15.34	121.48	17.44	-40.0	-42.4	13.3	6.71e-05	0	61	0	1321205760	50	5096
2026-01-17 22:17:19.38	122.28	17.19	-40.0	-42.5	13.2	8.23e-05	0	61	0	1333788672	50	5137
2026-01-17 22:17:23.42	123.06	16.94	-40.0	-42.4	13.3	2.10e-04	0	60	0	1346371584	50	5076
2026-01-17 22:17:27.45	123.83	16.69	-40.2	-42.7	13.0	2.29e-04	0	60	0	1358954496	50	5262
2026-01-17 22:17:31.49	124.58	16.44	-40.1	-42.6	13.1	6.10e-05	0	60	0	1371537408	50	5170
2026-01-17 22:17:35.53	125.33	16.18	-39.9	-42.6	12.4	1.92e-04	0	60	0	1384120320	50	5185
2026-01-17 22:17:39.57	126.06	15.92	-40.1	-42.7	12.9	2.22e-02	0	60	0	1396703232	50	5254
2026-01-17 22:17:43.61	126.78	15.67	-40.1	-42.7	12.8	7.74e-04	0	60	0	1409286144	50	5276
2026-01-17 22:17:47.65	127.49	15.41	-40.0	-42.6	12.5	9.43e-02	2	60	0	1421869056	50	5166
2026-01-17 22:17:51.69	128.19	15.14	-39.6	-42.4	11.9	2.28e-02	0	60	0	1435500544	49	5394
2026-01-17 22:17:55.73	128.87	14.88	-39.3	-42.7	11.0	2.25e-01	7	60	0	1442840576	49	5580
2026-01-17 22:17:59.77	129.54	14.62	-38.6	-42.5	9.5	2.68e-01	11	61	0	1448083456	47	6113
2026-01-17 22:18:03.81	130.21	14.35	-38.5	-42.7	9.6	1.06e+00	14	61	104	1453326336	43	7855
2026-01-17 22:18:07.84	130.85	14.09	-38.1	-42.8	9.1	3.18e-01	9	61	0	1456472064	44	7467
2026-01-17 22:18:11.88	131.49	13.82	-32.3	-42.7	8.0	3.23e-01	28	60	0	1463812096	41	8854
2026-01-17 22:18:15.92	132.12	13.56	-29.4	-39.9	5.6	1.10e+00	0	60	104	1464860672	37	7994
2026-01-17 22:18:19.96	132.74	13.29	-32.1	-41.1	6.1	8.64e-01	20	61	0	1464860672	38	8720
2026-01-17 22:18:24.00	133.34	13.02	-20.2	-32.1	3.8	1.45e+00	0	61	104	1465909248	23	7297
2026-01-17 22:18:28.04	133.94	12.76	-38.1	-47.8	4.1	1.47e+00	0	60	104	1465909248	42	14881
2026-01-17 22:18:32.07	134.52	12.49	-34.8	-47.0	4.3	1.48e+00	0	61	104	1465909248	38	17209
2026-01-17 22:18:36.11	135.10	12.23	-31.2	-43.5	4.2	1.46e+00	0	61	104	1465909248	34	14444
2026-01-17 22:18:40.15	135.66	11.96	-28.7	-38.9	4.7	3.90e-01	5	61	0	1468006400	43	5073
2026-01-17 22:18:44.19	136.22	11.70	-40.2	-44.7	8.2	1.24e-01	8	60	0	1472200704	48	7394
2026-01-17 22:18:48.23	136.77	11.43	-40.4	-44.9	8.7	3.35e-01	6	61	0	1478492160	51	6385
2026-01-17 22:18:52.26	137.30	11.17	-40.4	-44.4	9.6	1.31e-01	4	61	0	1486880768	51	5996
2026-01-17 22:18:56.30	137.83	10.91	-39.6	-43.7	10.2	6.25e-02	0	60	0	1493172224	49	6265
2026-01-17 22:19:00.34	138.35	10.64	-39.7	-46.8	7.2	1.24e-01	2	61	0	1505755136	53	7054
2026-01-17 22:19:04.36	138.85	10.38	-41.7	-48.4	5.9	3.57e-01	3	61	0	1517289472	54	8015
2026-01-17 22:19:08.40	139.36	10.12	-39.5	-45.2	6.7	7.78e-01	13	61	0	1520435200	43	10427
2026-01-17 22:19:12.44	139.85	9.86	-38.7	-44.7	8.3	2.30e-01	0	61	0	1528823808	49	7038
2026-01-17 22:19:16.48	140.33	9.60	-40.7	-44.3	10.2	4.25e-02	0	61	0	1541406720	51	5927
2026-01-17 22:19:20.52	140.81	9.35	-40.5	-44.2	10.3	1.46e-02	0	61	0	1553989632	51	5905
2026-01-17 22:19:24.56	141.28	9.09	-40.5	-43.8	11.0	2.59e-03	0	60	0	1566572544	51	5605
2026-01-17 22:19:28.60	141.74	8.83	-40.6	-44.0	10.8	2.03e-03	0	61	0	1579155456	51	5775
2026-01-17 22:19:32.63	142.19	8.58	-40.5	-43.9	10.8	2.61e-03	0	61	0	1592786944	51	5664
2026-01-17 22:19:36.68	142.63	8.32	-40.6	-44.2	10.4	4.74e-03	0	61	0	1605369856	52	5561
2026-01-17 22:19:40.72	143.07	8.07	-40.7	-44.3	10.3	5.82e-03	0	61	0	1617952768	52	5622
2026-01-17 22:19:44.76	143.50	7.82	-45.1	-57.6	3.8	1.49e+00	0	61	104	1620049920	60	16465
2026-01-17 22:19:48.80	143.92	7.57	-45.6	-58.1	3.8	1.49e+00	0	61	104	1620049920	61	16490
2026-01-17 22:19:52.85	144.34	7.32	-45.5	-57.9	3.8	1.49e+00	0	61	104	1620049920	61	16066
2026-01-17 22:19:56.89	144.75	7.07	-45.3	-57.6	3.8	1.49e+00	0	61	104	1620049920	61	15495
2026-01-17 22:20:00.93	145.15	6.82	-45.3	-57.6	3.8	1.49e+00	0	61	104	1620049920	61	15473
2026-01-17 22:20:04.97	145.55	6.58	-45.3	-57.6	3.8	1.49e+00	0	61	104	1620049920	61	15490
2026-01-17 22:20:09.01	145.94	6.33	-45.3	-57.6	3.8	1.49e+00	0	61	104	1620049920	61	15470
2026-01-17 22:20:13.06	146.32	6.09	-45.2	-57.6	3.8	1.49e+00	0	61	104	1620049920	61	15422
2026-01-17 22:20:17.10	146.70	5.85	-45.2	-57.5	3.8	1.49e+00	0	61	104	1620049920	61	15392
2026-01-17 22:20:21.14	147.07	5.61	-45.2	-57.6	3.8	1.49e+00	0	61	104	1620049920	61	15408
2026-01-17 22:20:25.18	147.43	5.37	-45.2	-57.5	3.8	1.49e+00	0	61	104	1620049920	61	15329
2026-01-17 22:20:29.23	147.79	5.13	-45.2	-57.5	3.8	1.49e+00	0	61	104	1620049920	61	15345
2026-01-17 22:20:33.27	148.15	4.89	-45.2	-57.5	3.8	1.49e+00	0	61	104	1620049920	61	15335
2026-01-17 22:20:37.32	148.50	4.65	-45.2	-57.5	3.8	1.49e+00	0	61	104	1620049920	61	15281
2026-01-17 22:20:41.36	148.84	4.42	-45.2	-57.5	3.8	1.49e+00	0	61	104	1620049920	61	15287
2026-01-17 22:20:45.40	149.18	4.18	-45.2	-57.5	3.8	1.49e+00	0	61	104	1620049920	61	15337
2026-01-17 22:20:49.44	149.51	3.95	-45.2	-57.5	3.8	1.49e+00	0	61	104	1620049920	61	15325
2026-01-17 22:20:53.49	149.84	3.72	-45.2	-57.5	3.8	1.49e+00	0	61	104	1620049920	61	15287
2026-01-17 22:20:57.53	150.16	3.49	-45.2	-57.5	3.8	1.49e+00	0	61	104	1620049920	61	15331
2026-01-17 22:21:01.57	150.48	3.26	-45.2	-57.5	3.8	1.49e+00	0	61	104	1620049920	61	15254
2026-01-17 22:21:05.62	150.80	3.03	-45.2	-57.5	3.8	1.49e+00	0	61	104	1620049920	61	15271
2026-01-17 22:21:09.66	151.11	2.81	-45.2	-57.5	3.8	1.49e+00	0	61	104	1620049920	61	15271
2026-01-17 22:21:13.71	151.41	2.58	-45.2	-57.4	3.8	1.49e+00	0	61	104	1620049920	61	15196
2026-01-17 22:21:17.75	151.71	2.36	-45.2	-57.5	3.8	1.49e+00	0	61	104	1620049920	61	15239
2026-01-17 22:21:21.79	152.01	2.14	-45.2	-57.4	3.8	1.49e+00	0	61	104	1620049920	61	15219

#Closed at: 2026-01-17 22:21:24
#Recorded file [1620 MB]: D:/lorett/data/31039_260118_010834.dat