passes_logs/2026/01/17/R2.0S_Moscow/R2.0S_Moscow__20260117_104842_NOAA_20_JPSS-1_rec.log

#Pass ID: 20260117_104842_NOAA 20 (JPSS-1)
#Satellite: NOAA 20 (JPSS-1)
#Configuration: NOAA 20
#almurnet v.1.7.20251203
#Start time: 2026-01-17 10:48:43

#Version: 2.2.20231116
#Station: R2.0S_Moscow
#Location: 37.707566 lon 55.798166 lat
#TLE: 1 43013U 17073A   26016.24631778  .00000038  00000+0  39093-4 0  9990
#TLE: 2 43013  98.7637 317.1726 0001455  37.6755 322.4523 14.19536243422915

#Time	Az	El	Level	Level2	SNR	BER	BlckErr	Temp	State	Recorded	gain1	gain2
2026-01-17 10:48:43.70	187.00	2.07	-44.2	-58.6	3.8	1.49e+00	0	52	0	0	59	19432
2026-01-17 10:48:47.74	187.17	2.32	-44.1	-58.7	3.8	1.49e+00	0	53	104	0	60	18595
2026-01-17 10:48:51.78	187.35	2.57	-44.0	-58.7	3.8	1.49e+00	0	53	104	0	60	18584
2026-01-17 10:48:55.82	187.53	2.82	-44.1	-58.7	3.8	1.49e+00	0	53	104	0	60	18560
2026-01-17 10:48:59.87	187.71	3.08	-44.0	-58.7	3.8	1.49e+00	0	54	104	0	60	18545
2026-01-17 10:49:03.91	187.90	3.34	-44.1	-58.5	3.8	1.49e+00	0	54	104	0	59	19317
2026-01-17 10:49:07.95	188.09	3.60	-44.1	-58.5	3.8	1.49e+00	0	54	104	0	59	19385
2026-01-17 10:49:11.99	188.28	3.86	-44.1	-58.5	3.8	1.49e+00	0	54	104	0	59	19301
2026-01-17 10:49:16.03	188.48	4.12	-44.1	-58.5	3.8	1.49e+00	0	55	104	0	59	19317
2026-01-17 10:49:20.07	188.68	4.39	-44.1	-58.5	3.8	1.49e+00	0	55	104	0	59	19193
2026-01-17 10:49:24.12	188.88	4.66	-44.1	-58.3	3.8	1.49e+00	0	55	104	0	59	18924
2026-01-17 10:49:28.16	189.08	4.93	-44.1	-58.3	3.8	1.49e+00	0	55	104	0	59	18900
2026-01-17 10:49:32.20	189.29	5.20	-44.1	-57.9	3.8	1.49e+00	0	56	104	0	59	18065
2026-01-17 10:49:36.25	189.51	5.48	-44.1	-57.3	3.8	1.49e+00	0	56	104	0	59	16831
2026-01-17 10:49:40.29	189.72	5.76	-44.0	-56.1	4.0	1.49e+00	0	56	104	0	59	14704
2026-01-17 10:49:44.33	189.95	6.04	-43.8	-54.6	4.3	1.37e+00	51	56	0	0	59	12298
2026-01-17 10:49:48.37	190.17	6.33	-43.8	-54.0	4.5	1.12e+00	8	56	0	6291456	59	11521
2026-01-17 10:49:52.42	190.40	6.61	-43.8	-54.5	4.3	1.30e+00	0	57	0	12582912	59	12222
2026-01-17 10:49:56.46	190.63	6.90	-43.8	-54.4	4.4	1.32e+00	90	57	0	14680064	59	12009
2026-01-17 10:50:00.50	190.87	7.20	-43.6	-52.3	5.4	5.86e-01	0	57	0	22020096	59	9452
2026-01-17 10:50:04.54	191.12	7.49	-43.1	-49.9	7.3	1.55e-01	0	57	0	29360128	58	7618
2026-01-17 10:50:08.58	191.36	7.79	-42.8	-48.7	8.4	4.71e-02	0	57	0	36700160	57	7034
2026-01-17 10:50:12.62	191.62	8.09	-42.9	-49.0	8.5	4.87e-02	0	57	0	45088768	57	7243
2026-01-17 10:50:16.66	191.87	8.40	-43.2	-50.5	7.0	1.04e-01	0	57	0	50331648	57	8630
2026-01-17 10:50:20.69	192.14	8.71	-42.7	-48.4	8.8	2.64e-02	0	57	0	56623104	57	6768
2026-01-17 10:50:24.73	192.40	9.02	-42.4	-48.1	8.9	2.90e-02	0	58	0	65011712	56	6925
2026-01-17 10:50:28.77	192.68	9.34	-42.3	-47.9	9.1	2.06e-02	0	57	0	72351744	56	6756
2026-01-17 10:50:32.81	192.96	9.65	-42.3	-47.7	9.4	1.61e-02	0	58	0	79691776	56	6618
2026-01-17 10:50:36.84	193.24	9.98	-42.5	-47.7	9.7	1.20e-02	0	58	0	87031808	56	6591
2026-01-17 10:50:40.88	193.53	10.30	-42.6	-47.7	9.9	8.17e-03	0	58	0	95420416	56	6588
2026-01-17 10:50:44.92	193.83	10.63	-42.5	-47.5	9.9	8.23e-03	0	58	0	102760448	56	6475
2026-01-17 10:50:48.95	194.14	10.96	-42.0	-47.3	9.5	1.14e-02	0	58	0	110100480	56	6329
2026-01-17 10:50:52.99	194.45	11.30	-40.8	-47.0	8.4	3.95e-02	0	58	0	117440512	53	7233
2026-01-17 10:50:57.03	194.76	11.64	-40.0	-46.9	7.6	8.49e-02	0	58	0	124780544	51	8005
2026-01-17 10:51:01.07	195.09	11.99	-39.3	-46.6	6.9	1.59e-01	0	58	0	133169152	50	8216
2026-01-17 10:51:05.11	195.42	12.34	-39.6	-46.6	7.1	1.57e-01	0	58	0	140509184	50	8236
2026-01-17 10:51:09.14	195.76	12.69	-40.6	-46.7	8.5	4.71e-02	0	59	0	147849216	51	7868
2026-01-17 10:51:13.18	196.11	13.05	-41.5	-46.5	10.3	7.21e-03	0	59	0	155189248	53	6852
2026-01-17 10:51:17.22	196.47	13.41	-41.7	-46.4	10.8	2.66e-03	0	59	0	163577856	54	6362
2026-01-17 10:51:21.25	196.83	13.78	-41.4	-46.2	10.1	6.11e-03	0	59	0	170917888	54	6231
2026-01-17 10:51:25.29	197.21	14.15	-41.0	-46.1	9.5	1.41e-02	0	59	0	178257920	54	6149
2026-01-17 10:51:29.33	197.59	14.53	-41.2	-46.1	9.9	1.05e-02	0	59	0	185597952	53	6503
2026-01-17 10:51:33.36	197.98	14.91	-41.7	-46.2	10.8	2.81e-03	0	59	0	192937984	53	6634
2026-01-17 10:51:37.40	198.38	15.29	-42.1	-46.4	11.2	1.47e-03	0	59	0	201326592	54	6415
2026-01-17 10:51:41.44	198.80	15.68	-42.2	-46.5	11.1	1.65e-03	0	59	0	208666624	54	6473
2026-01-17 10:51:45.48	199.22	16.08	-42.3	-46.6	11.0	1.82e-03	0	59	0	216006656	55	6199
2026-01-17 10:51:49.51	199.65	16.48	-42.3	-46.6	11.3	1.40e-03	0	59	0	223346688	55	6153
2026-01-17 10:51:53.55	200.10	16.88	-42.3	-46.5	11.4	1.00e-03	0	59	0	231735296	55	6094
2026-01-17 10:51:57.59	200.56	17.29	-42.1	-46.2	11.8	4.99e-04	0	59	0	239075328	55	5878
2026-01-17 10:52:01.63	201.02	17.71	-42.1	-46.1	11.8	4.11e-04	0	59	0	246415360	55	5841
2026-01-17 10:52:05.67	201.51	18.13	-42.1	-46.1	11.9	3.81e-04	0	59	0	253755392	55	5809
2026-01-17 10:52:09.71	202.00	18.56	-42.2	-46.3	11.7	5.68e-04	0	60	0	261095424	55	5941
2026-01-17 10:52:13.75	202.51	18.99	-42.3	-46.5	11.5	8.70e-04	0	59	0	269484032	55	6108
2026-01-17 10:52:17.79	203.04	19.43	-42.4	-46.6	11.4	1.15e-03	0	60	0	276824064	55	6172
2026-01-17 10:52:21.83	203.58	19.87	-42.5	-46.8	11.2	1.47e-03	0	60	0	284164096	55	6345
2026-01-17 10:52:25.87	204.13	20.32	-42.5	-46.9	11.2	1.46e-03	0	59	0	291504128	55	6352
2026-01-17 10:52:29.91	204.70	20.77	-42.5	-46.9	11.1	1.37e-03	0	60	0	299892736	55	6395
2026-01-17 10:52:33.95	205.29	21.23	-42.6	-46.9	11.1	1.44e-03	0	60	0	307232768	55	6419
2026-01-17 10:52:37.98	205.89	21.70	-42.5	-46.8	11.3	1.17e-03	0	60	0	314572800	55	6291
2026-01-17 10:52:42.02	206.51	22.17	-42.5	-46.9	11.2	1.27e-03	0	60	0	321912832	55	6356
2026-01-17 10:52:46.06	207.15	22.64	-42.6	-47.0	11.0	1.69e-03	0	60	0	329252864	55	6480
2026-01-17 10:52:50.10	207.81	23.12	-42.6	-46.9	11.2	1.24e-03	0	60	0	337641472	55	6385
2026-01-17 10:52:54.14	208.49	23.61	-42.6	-47.0	11.2	1.51e-03	0	60	0	344981504	55	6435
2026-01-17 10:52:58.17	209.19	24.10	-42.6	-46.8	11.3	1.12e-03	0	60	0	352321536	55	6316
2026-01-17 10:53:02.21	209.91	24.59	-42.7	-47.0	11.1	1.48e-03	0	60	0	359661568	55	6485
2026-01-17 10:53:06.25	210.66	25.09	-42.9	-47.5	10.8	2.37e-03	0	60	0	367001600	56	6436
2026-01-17 10:53:10.29	211.43	25.60	-42.9	-47.4	10.9	2.03e-03	0	60	0	375390208	56	6372
2026-01-17 10:53:14.33	212.22	26.11	-43.0	-47.7	10.6	3.16e-03	0	60	0	382730240	56	6624
2026-01-17 10:53:18.37	213.04	26.62	-43.1	-47.7	10.6	2.96e-03	0	60	0	390070272	56	6646
2026-01-17 10:53:22.41	213.88	27.13	-43.0	-47.5	10.8	2.59e-03	0	60	0	397410304	56	6483
2026-01-17 10:53:26.45	214.76	27.65	-43.2	-48.0	10.3	4.01e-03	0	60	0	405798912	56	6852
2026-01-17 10:53:30.49	215.66	28.18	-43.0	-47.8	10.4	3.87e-03	0	60	0	413138944	56	6663
2026-01-17 10:53:34.53	216.59	28.70	-43.1	-47.8	10.6	3.69e-03	0	60	0	420478976	56	6689
2026-01-17 10:53:38.56	217.54	29.22	-43.1	-47.9	10.5	3.99e-03	0	60	0	427819008	56	6725
2026-01-17 10:53:42.60	218.54	29.75	-43.1	-47.9	10.4	4.03e-03	0	60	0	436207616	56	6752
2026-01-17 10:53:46.64	219.56	30.28	-43.3	-48.2	10.2	6.02e-03	0	60	0	443547648	57	6620
2026-01-17 10:53:50.67	220.61	30.80	-43.1	-47.9	10.4	4.20e-03	0	60	0	450887680	57	6368
2026-01-17 10:53:54.71	221.70	31.33	-43.2	-48.1	10.2	5.55e-03	0	60	0	458227712	57	6503
2026-01-17 10:53:58.76	222.83	31.85	-43.3	-48.2	10.1	6.66e-03	0	60	0	465567744	57	6617
2026-01-17 10:54:02.79	223.99	32.37	-43.6	-49.1	9.2	1.80e-02	0	60	0	473956352	57	7326
2026-01-17 10:54:06.83	225.19	32.88	-43.7	-49.3	8.9	2.59e-02	0	60	0	481296384	57	7536
2026-01-17 10:54:10.87	226.43	33.39	-43.8	-49.7	8.5	3.53e-02	0	60	0	488636416	58	7449
2026-01-17 10:54:14.90	227.70	33.89	-44.0	-50.4	7.9	7.04e-02	0	60	0	495976448	58	8053
2026-01-17 10:54:18.94	229.01	34.39	-44.2	-51.0	7.3	1.14e-01	0	60	0	503316480	58	8614
2026-01-17 10:54:22.98	230.36	34.87	-44.0	-50.5	7.8	7.44e-02	0	60	0	511705088	58	8101
2026-01-17 10:54:27.02	231.76	35.35	-44.0	-50.5	7.8	7.92e-02	0	61	0	519045120	58	8106
2026-01-17 10:54:31.05	233.19	35.81	-44.0	-50.2	8.1	6.35e-02	0	60	0	526385152	58	7829
2026-01-17 10:54:35.09	234.66	36.26	-43.8	-49.7	8.6	3.55e-02	0	61	0	533725184	58	7456
2026-01-17 10:54:39.13	236.17	36.69	-44.0	-50.3	8.0	6.58e-02	0	60	0	542113792	58	7901
2026-01-17 10:54:43.17	237.72	37.11	-43.5	-48.6	9.7	1.35e-02	0	61	0	549453824	58	6540
2026-01-17 10:54:47.21	239.31	37.51	-43.4	-48.6	9.8	1.02e-02	0	61	0	556793856	58	6510
2026-01-17 10:54:51.25	240.94	37.89	-43.1	-47.6	10.8	2.66e-03	0	61	0	564133888	58	5828
2026-01-17 10:54:55.28	242.60	38.24	-43.4	-48.5	9.8	9.67e-03	0	61	0	571473920	58	6480
2026-01-17 10:54:59.32	244.30	38.57	-43.5	-48.7	9.6	1.17e-02	0	61	0	579862528	58	6629
2026-01-17 10:55:03.36	246.03	38.88	-43.3	-48.2	10.2	5.93e-03	0	60	0	587202560	58	6241
2026-01-17 10:55:07.40	247.80	39.16	-43.5	-48.8	9.5	1.21e-02	0	60	0	594542592	58	6671
2026-01-17 10:55:11.43	249.58	39.41	-43.3	-48.2	10.2	7.03e-03	0	60	0	601882624	58	6234
2026-01-17 10:55:15.47	251.40	39.63	-43.4	-48.5	10.0	6.36e-03	0	60	0	610271232	58	6424
2026-01-17 10:55:19.51	253.24	39.82	-43.4	-48.5	9.8	1.37e-02	0	60	0	617611264	58	6468
2026-01-17 10:55:23.55	255.10	39.98	-43.4	-48.5	9.8	6.41e-03	0	60	0	624951296	58	6477
2026-01-17 10:55:27.58	256.97	40.11	-43.7	-49.2	9.1	2.69e-02	0	61	0	632291328	58	6986
2026-01-17 10:55:31.62	258.86	40.20	-43.9	-49.7	8.6	2.82e-02	0	61	0	639631360	58	7429
2026-01-17 10:55:35.66	260.75	40.26	-44.4	-51.8	6.6	2.17e-01	0	61	0	648019968	59	8863
2026-01-17 10:55:39.70	262.66	40.28	-44.1	-50.5	7.8	8.94e-02	0	61	0	655360000	59	7705
2026-01-17 10:55:43.74	264.56	40.27	-43.9	-50.0	8.3	5.84e-02	0	60	0	662700032	59	7207
2026-01-17 10:55:47.78	266.45	40.22	-43.5	-48.8	9.6	1.43e-02	0	61	0	670040064	59	6302
2026-01-17 10:55:51.82	268.34	40.14	-43.5	-48.7	9.5	1.48e-02	0	61	0	678428672	59	6254
2026-01-17 10:55:55.86	270.22	40.03	-43.4	-48.4	9.9	7.77e-03	0	61	0	685768704	58	6393
2026-01-17 10:55:59.90	272.09	39.88	-43.6	-48.9	9.4	1.97e-02	0	60	0	693108736	58	6732
2026-01-17 10:56:03.94	273.93	39.70	-43.8	-49.7	8.5	3.67e-02	0	61	0	700448768	58	7452
2026-01-17 10:56:07.98	275.75	39.49	-44.0	-50.2	8.1	5.46e-02	0	61	0	707788800	58	7826
2026-01-17 10:56:12.02	277.55	39.25	-43.7	-49.2	9.1	3.04e-02	0	61	0	716177408	58	6987
2026-01-17 10:56:16.06	279.32	38.98	-43.7	-49.2	9.0	3.37e-02	0	61	0	723517440	58	7013
2026-01-17 10:56:20.10	281.06	38.68	-43.6	-49.0	9.3	1.42e-02	0	61	0	730857472	58	6828
2026-01-17 10:56:24.14	282.77	38.36	-42.8	-47.0	11.4	1.02e-03	0	61	0	738197504	57	5734
2026-01-17 10:56:28.18	284.44	38.01	-43.0	-47.6	10.7	4.85e-03	0	61	0	746586112	57	6183
2026-01-17 10:56:32.21	286.07	37.65	-42.8	-47.1	11.2	1.24e-03	0	60	0	753926144	57	5795
2026-01-17 10:56:36.25	287.67	37.26	-41.6	-44.9	13.4	1.52e-05	0	61	0	761266176	55	5055
2026-01-17 10:56:40.29	289.23	36.85	-42.5	-46.5	11.7	1.00e-03	0	61	0	768606208	55	6099
2026-01-17 10:56:44.33	290.75	36.42	-42.1	-45.8	12.5	8.46e-05	0	61	0	775946240	55	5620
2026-01-17 10:56:48.36	292.23	35.98	-41.7	-45.0	13.3	1.75e-05	0	61	0	784334848	55	5109
2026-01-17 10:56:52.40	293.67	35.53	-42.0	-45.7	12.5	1.51e-04	0	61	0	791674880	55	5559
2026-01-17 10:56:56.44	295.07	35.06	-42.5	-46.7	11.5	4.25e-04	0	61	0	799014912	55	6241
2026-01-17 10:57:00.48	296.43	34.58	-42.5	-46.5	11.9	5.58e-04	0	61	0	806354944	56	5756
2026-01-17 10:57:04.52	297.76	34.09	-43.0	-47.6	10.7	4.24e-03	0	61	0	814743552	56	6523
2026-01-17 10:57:08.56	299.04	33.59	-43.3	-48.2	10.0	5.84e-03	0	61	0	822083584	57	6645
2026-01-17 10:57:12.60	300.28	33.09	-42.9	-47.4	10.9	3.07e-03	0	61	0	829423616	57	6006
2026-01-17 10:57:16.63	301.49	32.58	-43.7	-49.5	8.8	1.99e-02	0	61	0	836763648	57	7642
2026-01-17 10:57:20.67	302.66	32.06	-43.2	-48.0	10.3	6.07e-03	0	61	0	844103680	58	6105
2026-01-17 10:57:24.71	303.79	31.55	-43.8	-49.9	8.3	7.77e-02	0	61	0	852492288	58	7568
2026-01-17 10:57:28.75	304.89	31.03	-43.1	-47.8	10.5	2.41e-03	0	61	0	859832320	57	6286
2026-01-17 10:57:32.79	305.96	30.50	-43.9	-50.3	7.9	8.94e-02	0	61	0	867172352	58	7913
2026-01-17 10:57:36.83	306.99	29.98	-43.3	-48.4	9.8	8.75e-03	0	61	0	874512384	58	6370
2026-01-17 10:57:40.86	307.98	29.46	-43.3	-48.5	9.7	2.02e-02	0	61	0	882900992	58	6446
2026-01-17 10:57:44.90	308.95	28.94	-42.7	-46.9	11.3	6.81e-04	0	61	0	890241024	56	6059
2026-01-17 10:57:48.94	309.89	28.42	-42.6	-46.8	11.4	2.58e-03	0	61	0	897581056	57	5632
2026-01-17 10:57:52.98	310.80	27.90	-42.3	-46.2	12.1	1.55e-04	0	61	0	904921088	56	5531
2026-01-17 10:57:57.02	311.68	27.38	-42.7	-47.1	11.1	1.62e-03	0	61	0	912261120	56	6149
2026-01-17 10:58:01.05	312.53	26.87	-41.8	-45.3	12.9	6.40e-05	0	61	0	920649728	55	5284
2026-01-17 10:58:05.09	313.35	26.36	-42.0	-45.7	12.3	2.39e-04	0	61	0	927989760	55	5581
2026-01-17 10:58:09.13	314.15	25.85	-41.0	-44.0	14.2	7.00e-07	0	61	0	935329792	54	4818
2026-01-17 10:58:13.17	314.93	25.35	-41.5	-44.9	13.2	1.37e-05	0	61	0	942669824	53	5667
2026-01-17 10:58:17.21	315.68	24.85	-41.6	-44.9	13.1	3.66e-05	0	61	0	951058432	54	5370
2026-01-17 10:58:21.25	316.41	24.36	-41.0	-43.9	14.2	7.00e-07	0	61	0	958398464	53	5084
2026-01-17 10:58:25.29	317.12	23.87	-41.8	-45.3	12.7	5.79e-05	0	61	0	965738496	54	5655
2026-01-17 10:58:29.32	317.80	23.39	-41.2	-44.2	13.8	7.60e-06	0	61	0	973078528	54	4978
2026-01-17 10:58:33.36	318.47	22.91	-41.0	-44.0	14.0	2.20e-06	0	61	0	980418560	53	5149
2026-01-17 10:58:37.41	319.12	22.44	-41.7	-45.3	12.7	6.25e-05	0	61	0	988807168	53	5940
2026-01-17 10:58:41.44	319.74	21.97	-41.5	-44.9	13.1	3.05e-05	0	61	0	996147200	53	5701
2026-01-17 10:58:45.48	320.35	21.51	-41.8	-45.4	12.6	8.31e-05	0	61	0	1003487232	54	5666
2026-01-17 10:58:49.52	320.95	21.05	-41.7	-45.3	12.6	9.46e-05	0	61	0	1010827264	54	5632
2026-01-17 10:58:53.56	321.52	20.60	-41.4	-44.7	13.3	1.60e-05	0	61	0	1019215872	54	5238
2026-01-17 10:58:57.59	322.08	20.15	-41.9	-45.6	12.4	1.19e-04	0	61	0	1026555904	54	5808
2026-01-17 10:59:01.63	322.62	19.71	-42.1	-46.2	11.7	4.72e-04	0	61	0	1033895936	54	6235
2026-01-17 10:59:05.67	323.15	19.27	-42.0	-45.9	12.0	3.39e-04	0	61	0	1041235968	54	6023
2026-01-17 10:59:09.71	323.67	18.84	-42.4	-46.8	11.0	1.53e-03	0	61	0	1048576000	55	6324
2026-01-17 10:59:13.74	324.17	18.42	-42.6	-47.3	10.5	4.63e-03	0	61	0	1056964608	55	6672
2026-01-17 10:59:17.78	324.66	18.00	-42.1	-46.2	11.6	1.01e-03	0	61	0	1064304640	55	5887
2026-01-17 10:59:21.82	325.13	17.58	-41.9	-45.9	11.9	4.07e-04	0	61	0	1071644672	55	5679
2026-01-17 10:59:25.85	325.59	17.17	-42.1	-46.4	11.4	9.50e-04	0	61	0	1078984704	55	5994
2026-01-17 10:59:29.89	326.04	16.77	-42.3	-46.8	10.9	1.82e-03	0	61	0	1086324736	55	6300
2026-01-17 10:59:33.93	326.48	16.37	-42.1	-46.4	11.3	1.72e-03	0	61	0	1094713344	55	6012
2026-01-17 10:59:37.97	326.91	15.97	-42.1	-46.2	11.5	8.11e-04	0	61	0	1102053376	55	5896
2026-01-17 10:59:42.01	327.33	15.58	-42.0	-46.2	11.5	9.41e-04	0	60	0	1109393408	55	5869
2026-01-17 10:59:46.05	327.74	15.20	-42.2	-46.7	10.9	2.01e-03	0	61	0	1116733440	55	6273
2026-01-17 10:59:50.08	328.14	14.82	-42.2	-46.8	10.8	2.86e-03	0	61	0	1125122048	55	6275
2026-01-17 10:59:54.12	328.52	14.44	-42.2	-46.6	10.9	2.10e-03	0	61	0	1132462080	55	6181
2026-01-17 10:59:58.16	328.90	14.07	-42.0	-46.2	11.3	1.17e-03	0	61	0	1139802112	55	5923
2026-01-17 11:00:02.20	329.27	13.71	-42.1	-46.5	11.0	1.86e-03	0	61	0	1147142144	55	6085
2026-01-17 11:00:06.24	329.64	13.35	-42.1	-46.8	10.7	3.21e-03	0	61	0	1154482176	55	6288
2026-01-17 11:00:10.27	329.99	12.99	-42.3	-47.2	10.1	6.99e-03	0	61	0	1162870784	55	6587
2026-01-17 11:00:14.32	330.33	12.64	-42.3	-47.1	10.1	7.63e-03	0	61	0	1170210816	55	6566
2026-01-17 11:00:18.35	330.67	12.29	-42.2	-47.0	10.3	5.89e-03	0	61	0	1177550848	55	6447
2026-01-17 11:00:22.39	331.00	11.94	-42.1	-46.8	10.5	3.87e-03	0	61	0	1184890880	55	6309
2026-01-17 11:00:26.42	331.32	11.60	-42.1	-46.7	10.2	6.23e-03	0	61	0	1193279488	55	6271
2026-01-17 11:00:30.46	331.64	11.27	-42.0	-46.8	9.5	1.22e-02	0	61	0	1200619520	55	6325
2026-01-17 11:00:34.50	331.95	10.93	-42.2	-47.1	9.8	8.89e-03	0	61	0	1207959552	55	6569
2026-01-17 11:00:38.54	332.25	10.60	-42.2	-47.3	9.3	1.42e-02	0	61	0	1215299584	55	6722
2026-01-17 11:00:42.58	332.55	10.28	-42.0	-47.3	7.8	6.44e-02	0	61	0	1222639616	55	6666
2026-01-17 11:00:46.62	332.84	9.96	-41.9	-47.4	6.5	2.01e-01	0	61	0	1231028224	55	6772
2026-01-17 11:00:50.65	333.13	9.64	-42.2	-47.7	7.8	7.05e-02	0	61	0	1238368256	55	7010
2026-01-17 11:00:54.69	333.40	9.33	-42.0	-47.8	6.8	1.50e-01	0	61	0	1245708288	55	7057
2026-01-17 11:00:58.73	333.68	9.01	-42.2	-48.0	8.2	6.05e-02	0	61	0	1253048320	55	7227
2026-01-17 11:01:02.77	333.95	8.71	-42.2	-48.0	8.4	4.69e-02	0	61	0	1261436928	55	7262
2026-01-17 11:01:06.80	334.21	8.40	-42.2	-48.2	8.1	5.91e-02	0	61	0	1268776960	55	7438
2026-01-17 11:01:10.84	334.47	8.10	-42.3	-48.8	7.7	8.49e-02	0	61	0	1276116992	55	7972
2026-01-17 11:01:14.88	334.72	7.80	-44.7	-59.3	3.8	1.49e+00	0	61	104	1279262720	60	19856
2026-01-17 11:01:18.92	334.97	7.51	-45.3	-59.8	3.8	1.49e+00	0	61	104	1279262720	61	19983
2026-01-17 11:01:22.96	335.21	7.22	-45.3	-59.8	3.8	1.49e+00	0	61	104	1279262720	61	19955
2026-01-17 11:01:27.00	335.45	6.93	-45.3	-59.8	3.8	1.49e+00	0	61	104	1279262720	61	19924
2026-01-17 11:01:31.05	335.69	6.64	-45.2	-59.7	3.8	1.49e+00	0	61	104	1279262720	61	19792
2026-01-17 11:01:35.09	335.92	6.36	-45.2	-59.7	3.8	1.49e+00	0	61	104	1279262720	61	19651
2026-01-17 11:01:39.13	336.14	6.07	-45.2	-59.6	3.8	1.49e+00	0	61	104	1279262720	61	19578
2026-01-17 11:01:43.17	336.37	5.80	-45.0	-59.7	3.8	1.49e+00	0	61	104	1279262720	61	19674
2026-01-17 11:01:47.21	336.59	5.52	-45.1	-59.6	3.8	1.49e+00	0	61	104	1279262720	60	20754
2026-01-17 11:01:51.26	336.80	5.25	-45.1	-59.7	3.8	1.49e+00	0	61	104	1279262720	60	20810
2026-01-17 11:01:55.30	337.01	4.98	-45.1	-59.6	3.8	1.49e+00	0	61	104	1279262720	60	20679
2026-01-17 11:01:59.34	337.22	4.71	-45.1	-59.6	3.8	1.49e+00	0	61	104	1279262720	60	20683
2026-01-17 11:02:03.39	337.43	4.44	-45.1	-59.6	3.8	1.49e+00	0	61	104	1279262720	60	20759
2026-01-17 11:02:07.43	337.63	4.18	-45.1	-59.6	3.8	1.49e+00	0	61	104	1279262720	60	20715
2026-01-17 11:02:11.47	337.82	3.92	-45.1	-59.6	3.8	1.49e+00	0	61	104	1279262720	60	20730
2026-01-17 11:02:15.51	338.02	3.66	-45.1	-59.6	3.8	1.49e+00	0	62	104	1279262720	60	20696
2026-01-17 11:02:19.56	338.21	3.40	-45.1	-59.6	3.8	1.49e+00	0	61	104	1279262720	60	20739
2026-01-17 11:02:23.60	338.40	3.15	-45.1	-59.6	3.8	1.49e+00	0	61	104	1279262720	60	20651
2026-01-17 11:02:27.64	338.59	2.89	-45.1	-59.6	3.8	1.49e+00	0	61	104	1279262720	60	20726
2026-01-17 11:02:31.69	338.77	2.64	-45.1	-59.6	3.8	1.49e+00	0	61	104	1279262720	60	20719
2026-01-17 11:02:35.73	338.95	2.40	-45.0	-59.6	3.8	1.49e+00	0	61	104	1279262720	60	20710
2026-01-17 11:02:39.77	339.13	2.15	-45.1	-59.6	3.8	1.49e+00	0	61	104	1279262720	60	20682

#Closed at: 2026-01-17 11:02:43
#Recorded file [1279 MB]: D:/lorett/data/31039_260117_134843.dat