passes_logs/2026/01/17/R2.0S_Moscow/R2.0S_Moscow__20260117_102745_SUOMI_NPP_rec.log

#Pass ID: 20260117_102745_SUOMI NPP
#Satellite: SUOMI NPP
#Configuration: NPP
#almurnet v.1.7.20251203
#Start time: 2026-01-17 10:27:46

#Version: 2.2.20231116
#Station: R2.0S_Moscow
#Location: 37.707566 lon 55.798166 lat
#TLE: 1 37849U 11061A   26016.23176763  .00000061  00000+0  49926-4 0  9990
#TLE: 2 37849  98.7812 318.2698 0002434  61.5135 298.6286 14.19525545736883

#Time	Az	El	Level	Level2	SNR	BER	BlckErr	Temp	State	Recorded	gain1	gain2
2026-01-17 10:27:46.42	174.32	2.05	-43.2	-57.7	3.8	1.49e+00	0	51	104	0	58	18543
2026-01-17 10:27:50.41	174.41	2.31	-43.2	-57.7	3.8	1.49e+00	0	52	104	0	58	18576
2026-01-17 10:27:54.45	174.51	2.57	-43.2	-57.6	3.8	1.49e+00	0	52	104	0	58	18507
2026-01-17 10:27:58.50	174.61	2.83	-43.2	-57.7	3.8	1.49e+00	0	52	104	0	58	18594
2026-01-17 10:28:02.54	174.71	3.10	-43.2	-57.7	3.8	1.49e+00	0	53	104	0	58	18544
2026-01-17 10:28:06.58	174.81	3.36	-43.2	-57.7	3.8	1.49e+00	0	53	104	0	58	18594
2026-01-17 10:28:10.63	174.92	3.63	-43.2	-57.6	3.8	1.49e+00	0	53	104	0	58	18495
2026-01-17 10:28:14.67	175.02	3.91	-43.2	-57.6	3.8	1.49e+00	0	54	104	0	58	18447
2026-01-17 10:28:18.72	175.13	4.18	-43.2	-57.6	3.8	1.49e+00	0	54	104	0	58	18480
2026-01-17 10:28:22.76	175.24	4.46	-43.2	-57.6	3.8	1.49e+00	0	54	104	0	58	18464
2026-01-17 10:28:26.80	175.35	4.74	-43.2	-57.6	3.8	1.49e+00	0	54	104	0	58	18340
2026-01-17 10:28:30.85	175.47	5.03	-43.2	-57.4	3.8	1.49e+00	0	54	104	0	58	17994
2026-01-17 10:28:34.89	175.58	5.31	-43.1	-56.9	3.8	1.49e+00	0	55	104	0	58	17026
2026-01-17 10:28:38.94	175.70	5.61	-43.1	-56.7	3.8	1.49e+00	0	55	104	0	58	16570
2026-01-17 10:28:42.98	175.82	5.90	-43.0	-55.3	3.9	1.48e+00	0	55	104	0	58	14142
2026-01-17 10:28:47.02	175.94	6.20	-43.0	-54.9	3.9	1.47e+00	0	55	104	0	58	13458
2026-01-17 10:28:51.06	176.07	6.50	-43.0	-55.1	4.0	1.48e+00	0	55	104	0	58	13789
2026-01-17 10:28:55.10	176.19	6.80	-42.9	-53.6	4.3	1.40e+00	0	56	0	0	57	12374
2026-01-17 10:28:59.14	176.32	7.11	-42.6	-51.2	5.5	4.81e-01	0	56	0	7340032	57	9287
2026-01-17 10:29:03.18	176.45	7.42	-42.2	-49.2	7.1	1.62e-01	0	56	0	14680064	56	7863
2026-01-17 10:29:07.22	176.59	7.73	-41.8	-48.1	8.0	7.19e-02	0	56	0	22020096	55	7319
2026-01-17 10:29:11.26	176.73	8.05	-41.7	-47.6	8.6	3.76e-02	0	56	0	29360128	55	6880
2026-01-17 10:29:15.30	176.87	8.37	-42.4	-48.4	8.3	1.40e-01	0	56	0	36700160	56	7204
2026-01-17 10:29:19.34	177.01	8.70	-41.7	-46.9	9.7	1.38e-02	0	56	0	41943040	55	6369
2026-01-17 10:29:23.38	177.15	9.03	-41.7	-46.7	10.0	8.67e-03	0	57	0	50331648	55	6274
2026-01-17 10:29:27.42	177.30	9.36	-41.8	-46.5	10.3	7.20e-03	0	57	0	57671680	55	6128
2026-01-17 10:29:31.45	177.45	9.70	-41.8	-46.6	10.4	4.60e-03	0	57	0	65011712	55	6180
2026-01-17 10:29:35.49	177.61	10.04	-41.9	-46.5	10.6	3.80e-03	0	57	0	72351744	55	6124
2026-01-17 10:29:39.53	177.77	10.39	-41.8	-46.2	11.1	1.79e-03	0	57	0	80740352	55	5857
2026-01-17 10:29:43.57	177.93	10.74	-41.8	-46.0	11.3	1.40e-03	0	57	0	88080384	55	5775
2026-01-17 10:29:47.61	178.10	11.10	-41.7	-45.9	11.4	9.00e-04	0	57	0	95420416	55	5699
2026-01-17 10:29:51.64	178.26	11.46	-41.7	-45.8	11.6	9.80e-04	0	57	0	102760448	55	5638
2026-01-17 10:29:55.68	178.44	11.83	-41.7	-45.8	11.6	5.83e-04	0	57	0	110100480	55	5627
2026-01-17 10:29:59.72	178.62	12.21	-41.7	-45.7	11.7	4.29e-04	0	58	0	118489088	55	5563
2026-01-17 10:30:03.76	178.80	12.59	-41.7	-45.7	11.8	3.47e-04	0	58	0	125829120	55	5539
2026-01-17 10:30:07.80	178.98	12.97	-41.6	-45.5	12.0	3.27e-04	0	58	0	133169152	55	5444
2026-01-17 10:30:11.83	179.18	13.36	-41.6	-45.4	12.2	2.22e-04	0	58	0	140509184	55	5365
2026-01-17 10:30:15.87	179.37	13.76	-41.6	-45.5	12.1	3.03e-04	0	58	0	148897792	55	5456
2026-01-17 10:30:19.91	179.57	14.16	-41.7	-45.6	12.0	3.58e-04	0	58	0	156237824	55	5520
2026-01-17 10:30:23.95	179.78	14.57	-41.8	-45.8	11.8	4.43e-04	0	58	0	163577856	55	5639
2026-01-17 10:30:27.98	179.99	14.99	-41.8	-45.8	11.9	5.58e-04	0	58	0	170917888	55	5602
2026-01-17 10:30:32.02	180.21	15.41	-41.9	-46.1	11.6	4.68e-04	0	58	0	178257920	55	5800
2026-01-17 10:30:36.06	180.43	15.84	-41.9	-46.0	11.7	6.29e-04	0	58	0	186646528	55	5731
2026-01-17 10:30:40.10	180.66	16.28	-42.1	-46.4	11.3	9.71e-04	0	58	0	193986560	55	5993
2026-01-17 10:30:44.13	180.90	16.73	-42.1	-46.4	11.3	1.35e-03	0	59	0	201326592	55	6008
2026-01-17 10:30:48.17	181.14	17.18	-42.2	-46.4	11.3	1.38e-03	0	58	0	208666624	55	6047
2026-01-17 10:30:52.21	181.39	17.64	-42.2	-46.4	11.3	1.35e-03	0	59	0	217055232	55	6059
2026-01-17 10:30:56.25	181.65	18.11	-42.2	-46.4	11.3	1.75e-03	0	59	0	224395264	55	6055
2026-01-17 10:31:00.29	181.91	18.59	-42.3	-46.7	11.1	1.50e-03	0	59	0	231735296	55	6205
2026-01-17 10:31:04.33	182.18	19.08	-42.4	-46.8	10.9	2.03e-03	0	59	0	239075328	55	6333
2026-01-17 10:31:08.37	182.47	19.58	-42.3	-46.6	11.2	1.65e-03	0	59	0	246415360	55	6179
2026-01-17 10:31:12.41	182.76	20.08	-42.2	-46.5	11.3	1.14e-03	0	59	0	254803968	55	6091
2026-01-17 10:31:16.45	183.06	20.60	-42.3	-46.7	11.1	1.44e-03	0	59	0	262144000	55	6212
2026-01-17 10:31:20.49	183.37	21.12	-42.5	-47.1	10.7	2.35e-03	0	59	0	269484032	55	6530
2026-01-17 10:31:24.52	183.68	21.66	-42.5	-47.2	10.6	3.11e-03	0	59	0	276824064	55	6599
2026-01-17 10:31:28.56	184.02	22.21	-42.3	-46.5	11.3	9.21e-04	0	59	0	285212672	55	6122
2026-01-17 10:31:32.60	184.36	22.77	-41.9	-45.8	12.1	2.45e-04	0	59	0	292552704	55	5629
2026-01-17 10:31:36.63	184.71	23.33	-41.5	-44.9	13.0	4.04e-05	0	59	0	299892736	54	5393
2026-01-17 10:31:40.67	185.08	23.92	-41.2	-44.4	13.5	1.98e-05	0	59	0	307232768	54	5099
2026-01-17 10:31:44.71	185.46	24.51	-41.2	-44.4	13.5	1.44e-05	0	59	0	314572800	54	5077
2026-01-17 10:31:48.75	185.86	25.12	-41.2	-44.4	13.6	9.90e-06	0	59	0	322961408	54	5076
2026-01-17 10:31:52.79	186.27	25.73	-41.2	-44.4	13.7	8.30e-06	0	59	0	330301440	54	5053
2026-01-17 10:31:56.82	186.69	26.36	-41.5	-44.9	13.1	1.90e-05	0	59	0	337641472	54	5351
2026-01-17 10:32:00.86	187.13	27.01	-41.6	-45.1	12.9	3.66e-05	0	59	0	344981504	54	5487
2026-01-17 10:32:04.90	187.59	27.67	-41.5	-44.9	13.2	3.81e-05	0	59	0	353370112	54	5344
2026-01-17 10:32:08.93	188.07	28.34	-41.6	-45.1	13.0	4.34e-05	0	59	0	360710144	54	5481
2026-01-17 10:32:12.97	188.57	29.03	-41.9	-45.6	12.5	7.78e-05	0	59	0	368050176	54	5806
2026-01-17 10:32:17.02	189.09	29.73	-42.2	-46.1	11.9	2.94e-04	0	60	0	375390208	54	6200
2026-01-17 10:32:21.06	189.64	30.45	-42.4	-46.6	11.5	1.18e-03	0	60	0	382730240	55	6141
2026-01-17 10:32:25.10	190.21	31.18	-43.1	-48.0	10.2	8.32e-03	0	60	0	391118848	56	6867
2026-01-17 10:32:29.14	190.80	31.93	-43.9	-50.5	7.7	6.95e-02	0	60	0	398458880	58	8104
2026-01-17 10:32:33.17	191.42	32.70	-43.7	-49.7	8.4	4.35e-02	0	60	0	405798912	58	7409
2026-01-17 10:32:37.22	192.07	33.48	-43.3	-48.3	9.8	1.33e-02	0	60	0	413138944	58	6345
2026-01-17 10:32:41.26	192.76	34.28	-43.1	-47.9	10.3	4.12e-03	0	60	0	421527552	58	6017
2026-01-17 10:32:45.30	193.47	35.09	-43.0	-47.7	10.5	3.66e-03	0	60	0	428867584	57	6252
2026-01-17 10:32:49.34	194.22	35.92	-43.4	-48.7	9.5	1.24e-02	0	60	0	436207616	57	6993
2026-01-17 10:32:53.37	195.01	36.76	-43.0	-47.7	10.5	6.83e-03	0	60	0	443547648	57	6235
2026-01-17 10:32:57.42	195.85	37.63	-43.3	-48.4	9.8	8.10e-03	0	60	0	450887680	57	6794
2026-01-17 10:33:01.46	196.73	38.51	-43.1	-47.9	10.2	7.91e-03	0	60	0	459276288	57	6406
2026-01-17 10:33:05.49	197.65	39.40	-43.4	-48.6	9.5	1.17e-02	0	60	0	466616320	57	6898
2026-01-17 10:33:09.53	198.63	40.31	-43.4	-48.7	9.6	9.84e-03	0	60	0	473956352	57	6996
2026-01-17 10:33:13.56	199.66	41.22	-42.4	-46.2	12.1	6.00e-04	0	60	0	481296384	56	5563
2026-01-17 10:33:17.60	200.75	42.16	-43.1	-47.8	10.6	5.00e-03	0	60	0	489684992	56	6654
2026-01-17 10:33:21.64	201.91	43.11	-42.8	-47.1	11.2	3.00e-03	0	60	0	497025024	57	5821
2026-01-17 10:33:25.68	203.14	44.06	-42.7	-47.2	11.1	1.64e-03	0	60	0	504365056	57	5900
2026-01-17 10:33:29.71	204.44	45.03	-43.2	-48.0	10.4	6.84e-03	0	60	0	511705088	57	6421
2026-01-17 10:33:33.75	205.82	46.00	-43.2	-48.1	10.3	4.20e-03	0	60	0	519045120	57	6517
2026-01-17 10:33:37.79	207.29	46.98	-42.7	-46.9	11.4	1.51e-03	0	60	0	527433728	57	5679
2026-01-17 10:33:41.83	208.85	47.95	-42.3	-46.0	12.3	4.57e-04	0	60	0	534773760	56	5464
2026-01-17 10:33:45.86	210.51	48.93	-42.9	-47.3	11.1	9.94e-04	0	60	0	542113792	56	6335
2026-01-17 10:33:49.90	212.29	49.90	-43.1	-47.9	10.4	6.86e-03	0	60	0	549453824	57	6376
2026-01-17 10:33:53.94	214.17	50.86	-43.1	-47.6	10.6	6.10e-03	0	60	0	557842432	57	6202
2026-01-17 10:33:57.97	216.18	51.80	-43.5	-49.0	9.3	2.49e-02	0	60	0	565182464	57	7217
2026-01-17 10:34:02.01	218.31	52.73	-42.1	-46.3	11.8	4.27e-04	0	60	0	572522496	55	5952
2026-01-17 10:34:06.05	220.59	53.63	-43.0	-47.5	10.8	4.33e-03	0	60	0	579862528	56	6436
2026-01-17 10:34:10.08	223.00	54.49	-41.9	-45.5	12.6	1.47e-04	0	60	0	587202560	55	5451
2026-01-17 10:34:14.12	225.56	55.32	-41.9	-45.9	12.2	3.86e-04	0	60	0	595591168	54	6061
2026-01-17 10:34:18.16	228.27	56.11	-43.3	-48.4	10.0	7.91e-03	0	60	0	602931200	57	6792
2026-01-17 10:34:22.20	231.13	56.83	-41.9	-45.4	12.8	7.93e-05	0	60	0	610271232	55	5365
2026-01-17 10:34:26.23	234.13	57.50	-42.5	-46.5	11.6	5.93e-04	0	60	0	617611264	55	6104
2026-01-17 10:34:30.27	237.28	58.09	-42.1	-45.7	12.5	1.72e-04	0	60	0	625999872	55	5589
2026-01-17 10:34:34.31	240.56	58.61	-42.4	-46.5	11.7	9.31e-04	0	60	0	633339904	55	6098
2026-01-17 10:34:38.35	243.96	59.04	-42.3	-46.3	11.9	6.27e-04	0	60	0	640679936	55	5935
2026-01-17 10:34:42.38	247.45	59.37	-43.4	-48.7	9.5	1.43e-02	0	60	0	648019968	57	7023
2026-01-17 10:34:46.42	251.03	59.62	-43.5	-48.8	9.5	1.14e-02	0	60	0	655360000	57	7048
2026-01-17 10:34:50.46	254.66	59.76	-43.4	-48.6	9.7	1.21e-02	0	60	0	663748608	57	6888
2026-01-17 10:34:54.50	258.31	59.79	-43.2	-48.0	10.2	6.49e-03	0	60	0	671088640	57	6475
2026-01-17 10:34:58.53	261.95	59.73	-43.2	-48.0	10.3	1.65e-02	0	60	0	678428672	57	6432
2026-01-17 10:35:02.57	265.57	59.56	-43.0	-47.4	10.8	3.52e-03	0	60	0	685768704	57	6042
2026-01-17 10:35:06.61	269.12	59.29	-43.0	-47.7	10.5	3.36e-03	0	60	0	693108736	57	6228
2026-01-17 10:35:10.65	272.59	58.92	-42.7	-46.8	11.5	9.14e-04	0	60	0	701497344	57	5605
2026-01-17 10:35:14.68	275.95	58.47	-43.0	-47.5	10.8	7.24e-03	0	60	0	708837376	57	6099
2026-01-17 10:35:18.71	279.18	57.93	-42.8	-47.0	11.3	1.64e-03	0	60	0	716177408	57	5728
2026-01-17 10:35:22.74	282.28	57.32	-41.8	-45.2	13.0	2.67e-05	0	60	0	723517440	55	5251
2026-01-17 10:35:26.77	285.24	56.64	-41.1	-44.1	14.2	7.00e-07	0	61	0	731906048	54	4882
2026-01-17 10:35:30.81	288.05	55.90	-40.8	-43.6	14.6	4.50e-06	0	60	0	739246080	53	4871
2026-01-17 10:35:34.84	290.71	55.11	-40.6	-43.2	15.0	0.00e+00	0	61	0	746586112	52	4963
2026-01-17 10:35:38.88	293.23	54.28	-41.2	-44.2	14.0	4.50e-06	0	60	0	753926144	53	5264
2026-01-17 10:35:42.91	295.59	53.40	-41.9	-45.4	12.9	9.90e-06	0	60	0	761266176	54	5676
2026-01-17 10:35:46.95	297.83	52.50	-42.5	-46.3	12.0	9.91e-04	0	61	0	769654784	56	5653
2026-01-17 10:35:50.99	299.93	51.57	-43.0	-47.5	10.9	1.67e-03	0	60	0	776994816	56	6452
2026-01-17 10:35:55.02	301.89	50.63	-44.1	-50.5	7.6	1.21e-01	0	61	0	784334848	59	7707
2026-01-17 10:35:59.06	303.74	49.67	-42.8	-47.1	11.3	1.88e-03	0	61	0	791674880	57	5789
2026-01-17 10:36:03.10	305.48	48.70	-43.9	-50.0	8.3	4.76e-02	0	61	0	799014912	58	7645
2026-01-17 10:36:07.14	307.12	47.73	-43.1	-47.6	10.6	4.82e-03	0	60	0	807403520	58	5846
2026-01-17 10:36:11.17	308.65	46.76	-43.1	-47.7	10.6	2.12e-03	0	61	0	814743552	56	6629
2026-01-17 10:36:15.21	310.09	45.78	-42.1	-45.6	12.7	8.54e-05	0	60	0	822083584	56	5181
2026-01-17 10:36:19.25	311.45	44.82	-42.2	-45.9	12.5	1.06e-04	0	61	0	829423616	56	5347
2026-01-17 10:36:23.29	312.73	43.86	-43.0	-47.6	10.7	2.21e-03	0	60	0	837812224	56	6522
2026-01-17 10:36:27.32	313.93	42.91	-43.5	-48.9	9.2	6.83e-02	0	61	0	845152256	58	6797
2026-01-17 10:36:31.36	315.07	41.97	-44.0	-50.6	7.7	6.96e-02	0	61	0	852492288	58	8227
2026-01-17 10:36:35.40	316.15	41.05	-43.2	-48.0	10.2	7.31e-03	0	60	0	859832320	58	6101
2026-01-17 10:36:39.44	317.17	40.13	-43.5	-48.6	9.7	1.17e-02	0	61	0	867172352	58	6551
2026-01-17 10:36:43.47	318.13	39.24	-43.2	-48.0	10.3	1.14e-02	0	61	0	875560960	58	6078
2026-01-17 10:36:47.51	319.04	38.35	-42.9	-47.3	10.9	1.77e-03	0	61	0	882900992	56	6279
2026-01-17 10:36:51.55	319.90	37.48	-44.2	-51.4	6.8	2.54e-01	0	61	0	890241024	59	8483
2026-01-17 10:36:55.58	320.72	36.63	-43.0	-47.6	10.7	5.27e-03	0	60	0	897581056	58	5817
2026-01-17 10:36:59.62	321.50	35.79	-42.9	-47.4	10.8	3.22e-03	0	61	0	905969664	57	6012
2026-01-17 10:37:03.66	322.25	34.97	-42.8	-47.2	11.0	2.46e-03	0	61	0	913309696	57	5895
2026-01-17 10:37:07.70	322.95	34.17	-43.0	-47.5	10.8	1.65e-03	0	61	0	920649728	57	6067
2026-01-17 10:37:11.74	323.63	33.38	-42.9	-47.5	10.7	3.46e-03	0	61	0	927989760	57	6090
2026-01-17 10:37:15.77	324.27	32.61	-43.2	-48.3	9.8	9.84e-03	0	61	0	935329792	57	6697
2026-01-17 10:37:19.81	324.89	31.85	-43.1	-47.9	10.2	7.64e-03	0	61	0	943718400	57	6390
2026-01-17 10:37:23.85	325.47	31.11	-41.8	-45.3	12.8	4.80e-05	0	60	0	951058432	55	5292
2026-01-17 10:37:27.89	326.04	30.38	-43.4	-48.7	9.5	1.00e-02	0	61	0	958398464	57	6972
2026-01-17 10:37:31.92	326.57	29.67	-44.0	-50.7	7.3	1.13e-01	0	61	0	965738496	58	8347
2026-01-17 10:37:35.96	327.09	28.98	-42.6	-46.7	11.5	2.91e-03	0	61	0	973078528	57	5574
2026-01-17 10:37:39.99	327.58	28.30	-41.5	-44.7	13.4	1.60e-05	0	61	0	981467136	54	5263
2026-01-17 10:37:44.04	328.06	27.63	-42.5	-46.9	11.1	9.92e-04	0	60	0	988807168	55	6357
2026-01-17 10:37:48.07	328.52	26.98	-42.8	-47.2	11.0	2.98e-03	0	61	0	996147200	56	6246
2026-01-17 10:37:52.11	328.96	26.34	-42.6	-46.7	11.5	5.15e-04	0	61	0	1003487232	56	5905
2026-01-17 10:37:56.15	329.38	25.72	-42.8	-47.2	10.9	1.78e-03	0	61	0	1011875840	56	6251
2026-01-17 10:38:00.19	329.79	25.10	-43.1	-48.0	10.2	4.63e-03	0	61	0	1019215872	56	6804
2026-01-17 10:38:04.22	330.18	24.51	-42.9	-47.5	10.6	3.38e-03	0	61	0	1026555904	56	6451
2026-01-17 10:38:08.26	330.56	23.92	-42.8	-47.5	10.6	2.84e-03	0	61	0	1033895936	56	6453
2026-01-17 10:38:12.30	330.93	23.34	-42.5	-46.9	11.2	1.43e-03	0	60	0	1041235968	56	5999
2026-01-17 10:38:16.33	331.28	22.78	-41.6	-45.0	12.9	7.47e-05	0	61	0	1049624576	55	5159
2026-01-17 10:38:20.37	331.62	22.23	-41.4	-44.8	13.1	2.67e-05	0	61	0	1056964608	54	5293
2026-01-17 10:38:24.41	331.95	21.68	-41.9	-45.8	12.1	2.10e-04	0	61	0	1064304640	54	5931
2026-01-17 10:38:28.45	332.27	21.15	-42.2	-46.3	11.4	1.12e-03	0	61	0	1071644672	55	5982
2026-01-17 10:38:32.48	332.58	20.63	-42.0	-46.1	11.6	5.83e-04	0	61	0	1080033280	55	5799
2026-01-17 10:38:36.52	332.88	20.12	-41.6	-45.2	12.6	1.27e-04	0	61	0	1087373312	55	5233
2026-01-17 10:38:40.56	333.17	19.62	-41.3	-44.7	13.0	3.66e-05	0	61	0	1094713344	54	5255
2026-01-17 10:38:44.60	333.45	19.13	-41.3	-44.8	12.9	4.88e-05	0	61	0	1102053376	54	5299
2026-01-17 10:38:48.63	333.72	18.64	-41.8	-45.7	11.9	3.87e-04	0	61	0	1109393408	54	5894
2026-01-17 10:38:52.67	333.99	18.17	-42.1	-46.4	11.2	1.61e-03	0	61	0	1117782016	54	6403
2026-01-17 10:38:56.71	334.25	17.70	-42.4	-47.3	10.2	6.86e-03	0	61	0	1125122048	55	6656
2026-01-17 10:39:00.74	334.50	17.25	-42.4	-47.3	10.1	6.78e-03	0	61	0	1132462080	55	6712
2026-01-17 10:39:04.78	334.74	16.80	-42.3	-47.0	10.3	7.35e-03	0	61	0	1139802112	55	6492
2026-01-17 10:39:08.82	334.98	16.36	-42.2	-47.0	10.3	5.00e-03	0	61	0	1148190720	55	6446
2026-01-17 10:39:12.86	335.21	15.92	-41.9	-46.4	10.9	2.28e-03	0	61	0	1155530752	55	6020
2026-01-17 10:39:16.90	335.44	15.49	-41.7	-45.9	11.3	2.02e-03	0	61	0	1162870784	55	5722
2026-01-17 10:39:20.93	335.65	15.07	-41.6	-45.8	11.3	9.95e-04	0	61	0	1170210816	55	5635
2026-01-17 10:39:24.97	335.87	14.66	-41.6	-45.7	11.4	1.12e-03	0	61	0	1177550848	55	5571
2026-01-17 10:39:29.01	336.08	14.25	-41.5	-45.6	11.5	7.08e-04	0	61	0	1185939456	54	5835
2026-01-17 10:39:33.04	336.28	13.85	-41.5	-45.8	11.1	1.47e-03	0	61	0	1193279488	54	5961
2026-01-17 10:39:37.08	336.48	13.46	-41.6	-46.0	10.9	1.85e-03	0	61	0	1200619520	54	6093
2026-01-17 10:39:41.12	336.67	13.07	-41.6	-46.0	10.8	2.53e-03	0	61	0	1207959552	54	6122
2026-01-17 10:39:45.16	336.86	12.69	-41.8	-46.7	10.0	5.88e-03	0	61	0	1215299584	54	6631
2026-01-17 10:39:49.19	337.04	12.31	-41.7	-46.6	10.1	7.74e-03	0	61	0	1223688192	54	6515
2026-01-17 10:39:53.23	337.22	11.94	-41.4	-45.9	10.7	3.39e-03	0	61	0	1231028224	54	6054
2026-01-17 10:39:57.27	337.40	11.58	-41.4	-46.2	10.3	5.96e-03	0	61	0	1238368256	54	6233
2026-01-17 10:40:01.30	337.57	11.22	-41.4	-46.7	9.5	1.35e-02	0	61	0	1245708288	54	6616
2026-01-17 10:40:05.35	337.74	10.86	-41.3	-46.5	9.6	1.45e-02	0	61	0	1254096896	54	6477
2026-01-17 10:40:09.39	337.91	10.51	-40.8	-45.7	10.3	5.25e-03	0	61	0	1261436928	53	6235
2026-01-17 10:40:13.43	338.07	10.17	-40.7	-45.6	10.2	6.11e-03	0	61	0	1268776960	53	6180
2026-01-17 10:40:17.46	338.23	9.83	-40.7	-45.6	10.2	6.28e-03	0	61	0	1276116992	53	6183
2026-01-17 10:40:21.51	338.38	9.49	-40.7	-45.9	9.9	8.30e-03	0	61	0	1283457024	53	6365
2026-01-17 10:40:25.54	338.53	9.16	-40.9	-46.4	9.2	1.77e-02	0	61	0	1291845632	53	6792
2026-01-17 10:40:29.58	338.68	8.83	-41.1	-47.1	8.3	4.11e-02	0	61	0	1299185664	53	7339
2026-01-17 10:40:33.62	338.83	8.50	-41.1	-47.9	7.4	9.78e-02	0	61	0	1306525696	53	8058
2026-01-17 10:40:37.66	338.97	8.19	-41.3	-49.0	6.3	2.23e-01	0	61	0	1313865728	53	9103
2026-01-17 10:40:41.70	339.11	7.87	-44.2	-58.3	3.8	1.49e+00	0	61	104	1320157184	58	20065
2026-01-17 10:40:45.74	339.25	7.56	-45.2	-59.7	3.8	1.49e+00	0	61	104	1320157184	60	21012
2026-01-17 10:40:49.77	339.39	7.25	-45.4	-59.9	3.8	1.49e+00	0	61	104	1320157184	61	20286
2026-01-17 10:40:53.82	339.52	6.94	-45.4	-59.9	3.8	1.49e+00	0	61	104	1320157184	61	20103
2026-01-17 10:40:57.86	339.65	6.64	-45.3	-59.8	3.8	1.49e+00	0	61	104	1320157184	61	19941
2026-01-17 10:41:01.91	339.78	6.34	-45.3	-59.8	3.8	1.49e+00	0	61	104	1320157184	61	19894
2026-01-17 10:41:05.95	339.90	6.05	-45.3	-59.7	3.8	1.49e+00	0	61	104	1320157184	61	19762
2026-01-17 10:41:09.99	340.03	5.76	-45.3	-59.7	3.8	1.49e+00	0	61	104	1320157184	61	19815
2026-01-17 10:41:14.04	340.15	5.47	-45.2	-59.7	3.8	1.49e+00	0	61	104	1320157184	61	19832
2026-01-17 10:41:18.08	340.27	5.18	-45.2	-59.7	3.8	1.49e+00	0	61	104	1320157184	61	19805
2026-01-17 10:41:22.13	340.39	4.90	-45.2	-59.7	3.8	1.49e+00	0	61	104	1320157184	61	19756
2026-01-17 10:41:26.17	340.51	4.62	-45.2	-59.7	3.8	1.49e+00	0	61	104	1320157184	61	19733
2026-01-17 10:41:30.22	340.62	4.34	-45.2	-59.7	3.8	1.49e+00	0	61	104	1320157184	61	19731
2026-01-17 10:41:34.26	340.73	4.07	-45.2	-59.7	3.8	1.49e+00	0	61	104	1320157184	61	19789
2026-01-17 10:41:38.30	340.84	3.80	-45.2	-59.7	3.8	1.49e+00	0	61	104	1320157184	61	19707
2026-01-17 10:41:42.35	340.95	3.53	-45.2	-59.7	3.8	1.49e+00	0	61	104	1320157184	61	19678
2026-01-17 10:41:46.39	341.06	3.26	-45.2	-59.7	3.8	1.49e+00	0	61	104	1320157184	61	19723
2026-01-17 10:41:50.44	341.17	3.00	-45.2	-59.7	3.8	1.49e+00	0	61	104	1320157184	61	19723
2026-01-17 10:41:54.48	341.27	2.74	-45.2	-59.7	3.8	1.49e+00	0	61	104	1320157184	61	19702
2026-01-17 10:41:58.52	341.37	2.48	-45.2	-59.7	3.8	1.49e+00	0	61	104	1320157184	61	19744
2026-01-17 10:42:02.56	341.47	2.22	-45.2	-59.7	3.8	1.49e+00	0	61	104	1320157184	61	19666
2026-01-17 10:42:06.61	341.57	1.97	-45.2	-59.7	3.8	1.49e+00	0	61	104	1320157184	61	19706

#Closed at: 2026-01-17 10:42:09
#Recorded file [1320 MB]: D:/lorett/data/31039_260117_132746.dat