passes_logs/2026/01/17/R2.0S_Moscow/R2.0S_Moscow__20260117_234837_NOAA_21_JPSS-2_rec.log

#Pass ID: 20260117_234837_NOAA 21 (JPSS-2)
#Satellite: NOAA 21 (JPSS-2)
#Configuration: NOAA-21
#almurnet v.1.7.20251203
#Start time: 2026-01-17 23:48:37

#Version: 2.2.20231116
#Station: R2.0S_Moscow
#Location: 37.707566 lon 55.798166 lat
#TLE: 1 54234U 22150A   26017.26823908  .00000042  00000+0  40962-4 0  9992
#TLE: 2 54234  98.7501 318.1405 0000613 274.2947  85.8159 14.19535194165131

#Time	Az	El	Level	Level2	SNR	BER	BlckErr	Temp	State	Recorded	gain1	gain2
2026-01-17 23:48:37.19	15.52	1.96	-42.8	-55.3	3.8	1.49e+00	0	51	0	0	57	14891
2026-01-17 23:48:41.22	15.52	2.22	-42.8	-55.2	3.8	1.49e+00	0	52	104	0	57	14858
2026-01-17 23:48:45.26	15.51	2.48	-42.8	-55.2	3.8	1.49e+00	0	52	104	0	57	14847
2026-01-17 23:48:49.30	15.49	2.75	-42.8	-55.2	3.8	1.49e+00	0	52	104	0	57	14834
2026-01-17 23:48:53.35	15.48	3.01	-42.8	-55.2	3.8	1.49e+00	0	53	104	0	57	14834
2026-01-17 23:48:57.39	15.47	3.28	-42.8	-55.2	3.8	1.49e+00	0	53	104	0	57	14849
2026-01-17 23:49:01.43	15.46	3.55	-42.8	-55.2	3.8	1.49e+00	0	53	104	0	57	14845
2026-01-17 23:49:05.47	15.45	3.82	-42.8	-55.2	3.8	1.49e+00	0	53	104	0	57	14811
2026-01-17 23:49:09.52	15.43	4.10	-42.8	-55.2	3.8	1.49e+00	0	54	104	0	57	14806
2026-01-17 23:49:13.56	15.42	4.38	-42.8	-55.2	3.8	1.49e+00	0	54	104	0	57	14790
2026-01-17 23:49:17.60	15.41	4.66	-42.8	-55.2	3.8	1.49e+00	0	54	104	0	57	14803
2026-01-17 23:49:21.64	15.39	4.95	-42.8	-55.2	3.8	1.49e+00	0	54	104	0	57	14768
2026-01-17 23:49:25.69	15.37	5.24	-42.8	-55.2	3.8	1.49e+00	0	54	104	0	57	14726
2026-01-17 23:49:29.73	15.36	5.53	-42.8	-55.2	3.8	1.49e+00	0	55	104	0	57	14783
2026-01-17 23:49:33.78	15.34	5.82	-42.8	-55.1	3.8	1.49e+00	0	55	104	0	57	14640
2026-01-17 23:49:37.82	15.32	6.12	-42.7	-54.9	3.8	1.49e+00	0	55	104	0	57	14282
2026-01-17 23:49:41.86	15.30	6.42	-42.8	-55.1	3.8	1.49e+00	0	55	104	0	57	14583
2026-01-17 23:49:45.90	15.28	6.73	-42.7	-54.1	3.8	1.49e+00	0	56	104	0	57	13059
2026-01-17 23:49:49.95	15.26	7.03	-42.3	-51.3	4.0	1.45e+00	0	56	104	0	56	9978
2026-01-17 23:49:53.99	15.24	7.35	-40.6	-45.2	8.5	5.44e-02	0	56	0	10485760	53	5879
2026-01-17 23:49:58.03	15.22	7.66	-40.1	-43.9	10.0	6.81e-03	0	56	0	23068672	51	5689
2026-01-17 23:50:02.07	15.20	7.98	-40.7	-45.4	8.3	6.11e-02	0	56	0	35651584	52	6365
2026-01-17 23:50:06.11	15.18	8.31	-41.9	-54.3	3.8	1.34e+00	0	56	104	46137344	54	15877
2026-01-17 23:50:10.15	15.15	8.63	-40.5	-44.4	9.7	1.42e-02	0	56	0	54525952	53	5379
2026-01-17 23:50:14.19	15.13	8.97	-40.7	-44.8	9.3	1.10e-02	0	57	0	67108864	52	5978
2026-01-17 23:50:18.24	15.10	9.31	-40.6	-44.2	10.2	7.13e-03	0	57	0	79691776	52	5573
2026-01-17 23:50:22.28	15.07	9.65	-40.5	-44.1	10.4	3.86e-03	0	57	0	92274688	52	5482
2026-01-17 23:50:26.32	15.04	9.99	-40.5	-43.9	10.6	3.66e-03	0	57	0	104857600	52	5379
2026-01-17 23:50:30.36	15.01	10.34	-40.3	-43.6	11.0	2.09e-03	0	57	0	117440512	52	5198
2026-01-17 23:50:34.40	14.98	10.70	-40.3	-43.5	11.2	1.49e-03	0	57	0	130023424	52	5120
2026-01-17 23:50:38.44	14.95	11.06	-40.4	-43.6	11.2	1.39e-03	0	57	0	142606336	52	5176
2026-01-17 23:50:42.48	14.92	11.43	-40.3	-43.5	11.3	1.25e-03	0	57	0	155189248	52	5115
2026-01-17 23:50:46.52	14.88	11.80	-40.3	-43.3	11.5	7.37e-04	0	58	0	167772160	52	5034
2026-01-17 23:50:50.56	14.85	12.18	-40.3	-43.3	11.6	5.80e-04	0	57	0	180355072	52	5009
2026-01-17 23:50:54.60	14.81	12.57	-40.0	-42.8	12.1	2.79e-04	0	58	0	192937984	52	4752
2026-01-17 23:50:58.64	14.77	12.96	-40.0	-42.9	12.2	2.72e-04	0	58	0	205520896	52	4764
2026-01-17 23:51:02.67	14.73	13.35	-40.0	-42.8	12.4	1.52e-04	0	58	0	218103808	52	4710
2026-01-17 23:51:06.71	14.69	13.76	-40.1	-42.7	12.6	8.23e-05	0	58	0	230686720	51	4971
2026-01-17 23:51:10.75	14.65	14.17	-40.0	-42.7	12.6	1.09e-04	0	58	0	243269632	51	4958
2026-01-17 23:51:14.80	14.60	14.58	-40.0	-42.6	12.8	8.31e-05	0	58	0	255852544	51	4875
2026-01-17 23:51:18.84	14.56	15.01	-40.0	-42.7	12.7	6.33e-05	0	58	0	268435456	51	4927
2026-01-17 23:51:22.88	14.51	15.44	-40.0	-42.6	12.9	5.34e-05	0	58	0	281018368	51	4887
2026-01-17 23:51:26.92	14.46	15.88	-40.1	-42.7	12.8	6.02e-05	0	58	0	293601280	51	4966
2026-01-17 23:51:30.96	14.41	16.33	-40.1	-42.6	12.9	6.48e-05	0	58	0	306184192	51	4925
2026-01-17 23:51:35.00	14.35	16.79	-40.2	-42.7	12.8	5.34e-05	0	58	0	318767104	51	4973
2026-01-17 23:51:39.04	14.29	17.25	-40.1	-42.6	13.0	3.89e-05	0	59	0	331350016	51	4906
2026-01-17 23:51:43.08	14.24	17.72	-40.1	-42.6	13.1	2.74e-05	0	59	0	343932928	51	4907
2026-01-17 23:51:47.12	14.17	18.21	-40.2	-42.8	12.9	4.42e-05	0	59	0	356515840	51	4989
2026-01-17 23:51:51.16	14.11	18.70	-40.2	-42.7	13.0	3.89e-05	0	59	0	370147328	51	4949
2026-01-17 23:51:55.20	14.04	19.20	-40.2	-42.7	13.0	3.43e-05	0	59	0	382730240	51	4933
2026-01-17 23:51:59.24	13.98	19.72	-40.1	-42.5	13.2	2.36e-05	0	59	0	395313152	51	4845
2026-01-17 23:52:03.28	13.90	20.24	-39.9	-42.3	13.5	1.29e-05	0	59	0	407896064	51	4727
2026-01-17 23:52:07.32	13.83	20.78	-39.8	-42.1	13.7	6.10e-06	0	59	0	420478976	51	4611
2026-01-17 23:52:11.35	13.75	21.32	-39.6	-41.8	14.0	3.00e-06	0	59	0	433061888	51	4469
2026-01-17 23:52:15.39	13.67	21.88	-39.5	-41.6	14.2	7.00e-07	0	59	0	445644800	50	4628
2026-01-17 23:52:19.43	13.58	22.45	-39.3	-41.4	14.5	7.00e-07	0	59	0	458227712	50	4504
2026-01-17 23:52:23.47	13.49	23.04	-39.1	-41.2	14.7	0.00e+00	0	59	0	470810624	50	4398
2026-01-17 23:52:27.50	13.40	23.64	-39.0	-41.0	14.9	0.00e+00	0	59	0	483393536	50	4316
2026-01-17 23:52:31.54	13.30	24.25	-39.1	-41.1	14.8	0.00e+00	0	59	0	495976448	50	4344
2026-01-17 23:52:35.58	13.20	24.87	-39.3	-41.3	14.5	0.00e+00	0	59	0	508559360	50	4489
2026-01-17 23:52:39.62	13.09	25.52	-39.5	-41.7	14.2	7.00e-07	0	59	0	521142272	50	4663
2026-01-17 23:52:43.66	12.98	26.17	-39.9	-42.1	13.8	6.10e-06	0	59	0	533725184	50	4926
2026-01-17 23:52:47.69	12.86	26.85	-40.1	-42.4	13.6	6.80e-06	0	60	0	546308096	50	5066
2026-01-17 23:52:51.73	12.74	27.54	-40.2	-42.6	13.4	1.67e-05	0	59	0	558891008	51	4889
2026-01-17 23:52:55.77	12.61	28.25	-40.2	-42.5	13.5	1.37e-05	0	59	0	571473920	51	4859
2026-01-17 23:52:59.81	12.47	28.97	-40.2	-42.5	13.5	8.30e-06	0	60	0	584056832	51	4841
2026-01-17 23:53:03.84	12.33	29.72	-40.1	-42.4	13.6	7.60e-06	0	60	0	596639744	51	4812
2026-01-17 23:53:07.88	12.18	30.49	-40.1	-42.5	13.6	1.22e-05	0	59	0	609222656	51	4824
2026-01-17 23:53:11.92	12.02	31.27	-40.0	-42.3	13.7	6.80e-06	0	60	0	621805568	51	4731
2026-01-17 23:53:15.96	11.85	32.08	-40.2	-42.6	13.5	1.14e-05	0	60	0	634388480	51	4882
2026-01-17 23:53:20.00	11.67	32.91	-40.5	-43.0	13.1	2.36e-05	0	60	0	646971392	51	5102
2026-01-17 23:53:24.03	11.49	33.77	-40.6	-43.2	12.8	9.15e-05	0	60	0	659554304	52	4977
2026-01-17 23:53:28.07	11.29	34.64	-40.9	-43.6	12.4	1.50e-04	0	60	0	672137216	52	5177
2026-01-17 23:53:32.10	11.08	35.55	-41.3	-44.4	11.6	6.81e-04	0	60	0	684720128	53	5347
2026-01-17 23:53:36.14	10.85	36.47	-41.4	-44.5	11.5	8.60e-04	0	60	0	697303040	53	5433
2026-01-17 23:53:40.18	10.62	37.43	-41.5	-44.6	11.4	1.22e-03	0	60	0	709885952	53	5517
2026-01-17 23:53:44.23	10.36	38.42	-41.3	-44.3	11.7	5.39e-04	0	60	0	722468864	53	5330
2026-01-17 23:53:48.26	10.09	39.43	-41.2	-44.1	11.9	4.56e-04	0	60	0	736100352	53	5168
2026-01-17 23:53:52.30	9.80	40.47	-41.4	-44.5	11.5	8.14e-04	0	60	0	748683264	53	5408
2026-01-17 23:53:56.34	9.49	41.54	-41.6	-44.7	11.2	1.34e-03	0	60	0	761266176	53	5592
2026-01-17 23:54:00.38	9.16	42.65	-41.7	-44.8	11.2	1.42e-03	0	60	0	773849088	54	5321
2026-01-17 23:54:04.42	8.80	43.79	-41.7	-45.0	10.8	2.72e-03	0	60	0	786432000	54	5417
2026-01-17 23:54:08.46	8.42	44.96	-42.1	-45.7	10.2	5.81e-03	0	60	0	799014912	54	5898
2026-01-17 23:54:12.50	8.00	46.16	-42.2	-45.8	10.2	6.40e-03	0	60	0	811597824	55	5609
2026-01-17 23:54:16.54	7.55	47.40	-42.0	-45.4	10.6	3.28e-03	0	60	0	824180736	55	5349
2026-01-17 23:54:20.57	7.06	48.67	-41.6	-44.6	11.5	7.71e-04	0	60	0	836763648	55	4904
2026-01-17 23:54:24.61	6.53	49.98	-41.7	-44.9	11.1	1.35e-03	0	60	0	849346560	54	5383
2026-01-17 23:54:28.65	5.94	51.33	-41.5	-44.6	11.4	9.98e-04	0	60	0	861929472	54	5176
2026-01-17 23:54:32.69	5.30	52.71	-41.3	-44.2	11.8	4.71e-04	0	60	0	874512384	54	4956
2026-01-17 23:54:36.74	4.59	54.13	-41.0	-43.6	12.5	1.71e-04	0	60	0	887095296	53	4912
2026-01-17 23:54:40.78	3.81	55.58	-40.8	-43.5	12.5	8.16e-05	0	60	0	899678208	53	4833
2026-01-17 23:54:44.82	2.94	57.07	-40.0	-42.3	13.8	8.30e-06	0	60	0	912261120	52	4452
2026-01-17 23:54:48.86	1.97	58.58	-39.6	-41.7	14.4	7.00e-07	0	60	0	924844032	51	4418
2026-01-17 23:54:52.90	0.87	60.13	-40.1	-42.3	13.9	2.20e-06	0	60	0	937426944	51	4726
2026-01-17 23:54:56.94	359.63	61.71	-39.4	-41.4	14.7	7.00e-07	0	60	0	950009856	50	4523
2026-01-17 23:55:00.98	358.22	63.32	-39.1	-40.9	15.2	0.00e+00	0	60	0	962592768	49	4540
2026-01-17 23:55:05.02	356.60	64.94	-39.6	-41.6	14.5	7.00e-07	0	60	0	975175680	49	4912
2026-01-17 23:55:09.06	354.73	66.57	-39.3	-41.3	14.9	1.50e-06	0	60	0	987758592	49	4724
2026-01-17 23:55:13.09	352.54	68.21	-39.0	-40.8	15.3	0.00e+00	0	60	0	1000341504	49	4474
2026-01-17 23:55:17.14	349.95	69.86	-39.3	-41.2	14.8	0.00e+00	0	60	0	1012924416	49	4687
2026-01-17 23:55:21.18	346.88	71.48	-38.5	-40.2	15.7	0.00e+00	0	60	0	1025507328	48	4431
2026-01-17 23:55:25.21	343.19	73.06	-38.5	-40.2	15.7	7.00e-07	0	60	0	1038090240	48	4441
2026-01-17 23:55:29.25	338.70	74.58	-38.5	-40.2	15.7	0.00e+00	0	60	0	1051721728	48	4439
2026-01-17 23:55:33.29	333.22	76.01	-38.7	-40.4	15.5	0.00e+00	0	60	0	1063256064	48	4543
2026-01-17 23:55:37.33	326.51	77.30	-39.2	-41.1	14.9	0.00e+00	0	60	0	1076887552	49	4601
2026-01-17 23:55:41.37	318.37	78.39	-39.0	-40.9	15.2	0.00e+00	0	60	0	1089470464	49	4502
2026-01-17 23:55:45.41	308.73	79.21	-39.6	-41.7	14.2	0.00e+00	0	60	0	1102053376	50	4701
2026-01-17 23:55:49.45	297.83	79.69	-39.5	-41.6	14.4	1.50e-06	0	61	0	1114636288	50	4611
2026-01-17 23:55:53.49	286.31	79.78	-39.4	-41.5	14.5	7.00e-07	0	60	0	1127219200	50	4547
2026-01-17 23:55:57.53	275.05	79.46	-39.4	-41.4	14.5	2.20e-06	0	60	0	1139802112	50	4540
2026-01-17 23:56:01.57	264.82	78.77	-38.7	-40.5	15.4	0.00e+00	0	60	0	1152385024	49	4315
2026-01-17 23:56:05.61	256.03	77.79	-39.3	-41.3	14.6	7.00e-07	0	61	0	1164967936	49	4758
2026-01-17 23:56:09.65	248.73	76.57	-39.1	-41.1	14.9	0.00e+00	0	61	0	1177550848	49	4606
2026-01-17 23:56:13.70	242.74	75.19	-38.9	-40.7	15.1	0.00e+00	0	60	0	1190133760	49	4418
2026-01-17 23:56:17.74	237.85	73.70	-39.2	-41.1	14.8	7.00e-07	0	61	0	1202716672	48	4910
2026-01-17 23:56:21.78	233.84	72.14	-39.0	-40.9	15.0	0.00e+00	0	61	0	1215299584	49	4529
2026-01-17 23:56:25.83	230.51	70.52	-39.0	-40.9	14.9	0.00e+00	0	60	0	1227882496	49	4522
2026-01-17 23:56:29.86	227.74	68.89	-40.3	-42.6	13.3	3.80e-06	0	60	0	1240465408	51	4923
2026-01-17 23:56:33.90	225.40	67.24	-39.6	-41.6	14.2	0.00e+00	0	60	0	1253048320	51	4379
2026-01-17 23:56:37.94	223.40	65.60	-41.1	-44.0	11.9	2.78e-04	0	60	0	1265631232	52	5423
2026-01-17 23:56:41.98	221.67	63.96	-39.1	-40.9	15.0	0.00e+00	0	60	0	1278214144	50	4275
2026-01-17 23:56:46.02	220.18	62.35	-41.1	-43.8	12.1	2.18e-04	0	61	0	1290797056	52	5329
2026-01-17 23:56:50.06	218.87	60.75	-40.6	-43.0	12.9	4.34e-05	0	61	0	1303379968	52	4840
2026-01-17 23:56:54.10	217.72	59.19	-42.3	-46.1	9.6	9.48e-03	0	60	0	1315962880	55	5829
2026-01-17 23:56:58.14	216.69	57.65	-40.8	-43.4	12.5	1.63e-04	0	61	0	1328545792	53	4796
2026-01-17 23:57:02.18	215.78	56.14	-42.3	-46.0	9.9	7.81e-03	0	60	0	1341128704	55	5740
2026-01-17 23:57:06.22	214.96	54.67	-40.7	-43.2	12.8	7.78e-05	0	60	0	1353711616	53	4658
2026-01-17 23:57:10.26	214.22	53.24	-40.6	-43.1	12.9	4.27e-05	0	61	0	1367343104	52	4893
2026-01-17 23:57:14.31	213.55	51.83	-41.5	-44.6	11.3	1.68e-03	0	60	0	1379926016	54	5203
2026-01-17 23:57:18.34	212.94	50.47	-41.0	-43.7	12.2	2.01e-04	0	60	0	1392508928	53	4959
2026-01-17 23:57:22.38	212.39	49.14	-41.3	-44.1	11.8	5.61e-04	0	61	0	1405091840	53	5217
2026-01-17 23:57:26.42	211.88	47.85	-41.8	-45.1	10.8	2.00e-03	0	60	0	1417674752	54	5502
2026-01-17 23:57:30.46	211.41	46.59	-41.3	-44.2	11.6	9.22e-04	0	61	0	1430257664	54	4962
2026-01-17 23:57:34.50	210.98	45.37	-41.4	-44.4	11.5	7.11e-04	0	61	0	1442840576	53	5377
2026-01-17 23:57:38.55	210.58	44.17	-42.4	-46.2	9.6	1.24e-02	0	61	0	1455423488	55	5880
2026-01-17 23:57:42.58	210.21	43.02	-42.3	-46.1	9.8	1.01e-02	0	61	0	1468006400	55	5820
2026-01-17 23:57:46.62	209.87	41.90	-41.6	-44.7	11.2	1.45e-03	0	61	0	1480589312	55	4936
2026-01-17 23:57:50.67	209.55	40.81	-41.2	-44.1	11.8	5.11e-04	0	61	0	1493172224	54	4907
2026-01-17 23:57:54.71	209.25	39.75	-41.6	-44.7	11.2	1.71e-03	0	61	0	1505755136	54	5265
2026-01-17 23:57:58.75	208.97	38.72	-41.7	-44.8	11.1	1.40e-03	0	61	0	1518338048	54	5330
2026-01-17 23:58:02.79	208.70	37.72	-41.7	-44.9	11.0	1.91e-03	0	61	0	1530920960	54	5370
2026-01-17 23:58:06.83	208.46	36.75	-41.3	-44.3	11.6	6.64e-04	0	61	0	1543503872	54	5017
2026-01-17 23:58:10.87	208.23	35.80	-40.5	-43.0	13.0	4.34e-05	0	61	0	1556086784	53	4567
2026-01-17 23:58:14.91	208.01	34.89	-40.7	-43.3	12.6	8.54e-05	0	61	0	1568669696	52	5039
2026-01-17 23:58:18.95	207.80	33.99	-41.2	-44.1	11.9	3.55e-04	0	61	0	1581252608	52	5473
2026-01-17 23:58:22.98	207.61	33.13	-40.9	-43.6	12.3	1.94e-04	0	61	0	1593835520	52	5201
2026-01-17 23:58:27.02	207.43	32.29	-40.4	-42.8	13.0	4.57e-05	0	61	0	1606418432	52	4729
2026-01-17 23:58:31.06	207.25	31.46	-40.1	-42.4	13.4	1.22e-05	0	61	0	1619001344	52	4523
2026-01-17 23:58:35.10	207.09	30.67	-39.8	-42.0	14.0	3.00e-06	0	61	0	1631584256	51	4559
2026-01-17 23:58:39.14	206.93	29.89	-39.8	-41.9	14.1	7.00e-07	0	61	0	1644167168	51	4520
2026-01-17 23:58:43.18	206.78	29.13	-39.7	-41.7	14.2	2.20e-06	0	61	0	1656750080	51	4440
2026-01-17 23:58:47.22	206.64	28.39	-39.7	-41.8	14.1	2.20e-06	0	61	0	1669332992	51	4487
2026-01-17 23:58:51.26	206.51	27.67	-39.9	-42.1	13.9	2.20e-06	0	61	0	1682964480	51	4601
2026-01-17 23:58:55.30	206.38	26.97	-40.0	-42.3	13.6	1.37e-05	0	61	0	1695547392	51	4737
2026-01-17 23:58:59.34	206.26	26.29	-39.9	-42.1	13.8	4.50e-06	0	61	0	1708130304	51	4650
2026-01-17 23:59:03.38	206.14	25.62	-39.8	-42.1	13.8	4.50e-06	0	61	0	1720713216	51	4603
2026-01-17 23:59:07.42	206.03	24.97	-39.8	-42.0	13.9	2.20e-06	0	61	0	1733296128	51	4590
2026-01-17 23:59:11.45	205.92	24.34	-39.9	-42.2	13.6	5.30e-06	0	61	0	1745879040	51	4669
2026-01-17 23:59:15.49	205.82	23.72	-40.0	-42.3	13.5	5.30e-06	0	61	0	1758461952	51	4753
2026-01-17 23:59:19.53	205.72	23.11	-40.0	-42.3	13.5	3.00e-06	0	61	0	1771044864	51	4711
2026-01-17 23:59:23.57	205.63	22.52	-39.8	-42.0	13.9	3.80e-06	0	61	0	1783627776	51	4551
2026-01-17 23:59:27.60	205.54	21.94	-39.5	-41.6	14.2	7.00e-07	0	61	0	1796210688	51	4365
2026-01-17 23:59:31.65	205.45	21.38	-39.5	-41.6	14.2	2.20e-06	0	61	0	1808793600	50	4605
2026-01-17 23:59:35.69	205.37	20.82	-39.3	-41.4	14.4	0.00e+00	0	61	0	1821376512	50	4504
2026-01-17 23:59:39.73	205.29	20.28	-39.3	-41.3	14.5	0.00e+00	0	61	0	1833959424	50	4466
2026-01-17 23:59:43.77	205.21	19.75	-39.4	-41.5	14.3	7.00e-07	0	61	0	1846542336	50	4546
2026-01-17 23:59:47.81	205.14	19.23	-39.6	-41.7	14.1	1.50e-06	0	61	0	1859125248	50	4688
2026-01-17 23:59:51.85	205.07	18.72	-39.7	-41.9	13.9	0.00e+00	0	61	0	1871708160	50	4771
2026-01-17 23:59:55.89	205.00	18.23	-39.7	-42.0	13.8	7.00e-07	0	61	0	1884291072	50	4830
2026-01-17 23:59:59.93	204.94	17.74	-39.7	-42.0	13.8	2.20e-06	0	61	0	1896873984	50	4822
2026-01-18 00:00:03.97	204.87	17.26	-39.9	-42.3	13.4	1.14e-05	0	61	0	1909456896	50	5010
2026-01-18 00:00:08.01	204.81	16.79	-40.1	-42.6	13.1	2.67e-05	0	61	0	1922039808	50	5178
2026-01-18 00:00:12.05	204.75	16.33	-40.2	-42.7	13.0	4.04e-05	0	61	0	1934622720	51	4952
2026-01-18 00:00:16.09	204.70	15.87	-40.4	-43.0	12.7	7.32e-05	0	61	0	1947205632	51	5113
2026-01-18 00:00:20.13	204.64	15.43	-40.4	-43.0	12.6	1.06e-04	0	61	0	1959788544	51	5130
2026-01-18 00:00:24.17	204.59	14.99	-40.4	-43.1	12.5	1.17e-04	0	61	0	1972371456	51	5171
2026-01-18 00:00:28.21	204.54	14.57	-40.5	-43.2	12.4	1.50e-04	0	61	0	1984954368	51	5250
2026-01-18 00:00:32.25	204.49	14.14	-40.5	-43.2	12.4	1.89e-04	0	61	0	1998585856	51	5241
2026-01-18 00:00:36.29	204.44	13.73	-40.5	-43.2	12.3	2.05e-04	0	61	0	2011168768	51	5269
2026-01-18 00:00:40.33	204.40	13.32	-40.6	-43.3	12.2	2.03e-04	0	61	0	2023751680	51	5322
2026-01-18 00:00:44.37	204.35	12.92	-40.3	-42.9	12.5	1.91e-04	0	61	0	2036334592	51	5100
2026-01-18 00:00:48.41	204.31	12.53	-40.5	-43.3	12.1	2.10e-04	0	61	0	2048917504	51	5325
2026-01-18 00:00:52.45	204.27	12.14	-40.5	-43.3	12.0	2.39e-04	0	61	0	2061500416	51	5333
2026-01-18 00:00:56.49	204.23	11.76	-40.4	-43.2	12.2	2.75e-04	0	61	0	2074083328	51	5225
2026-01-18 00:01:00.53	204.19	11.38	-40.5	-43.4	11.9	3.94e-04	0	61	0	2086666240	51	5358
2026-01-18 00:01:04.57	204.15	11.01	-40.6	-43.5	11.8	3.72e-04	0	61	0	2099249152	51	5408
2026-01-18 00:01:08.61	204.12	10.65	-40.6	-43.5	11.7	6.06e-04	0	61	0	2111832064	51	5440
2026-01-18 00:01:12.65	204.08	10.29	-40.7	-43.6	11.5	6.71e-04	0	61	0	2124414976	51	5524
2026-01-18 00:01:16.69	204.05	9.93	-40.6	-43.5	11.6	6.50e-04	0	61	0	2136997888	51	5448
2026-01-18 00:01:20.72	204.02	9.59	-40.7	-43.9	11.1	1.27e-03	0	61	0	2149580800	52	5370
2026-01-18 00:01:24.76	203.98	9.24	-41.0	-44.4	10.5	2.29e-03	0	61	0	2162163712	52	5675
2026-01-18 00:01:28.80	203.95	8.90	-40.9	-44.3	10.6	3.20e-03	0	61	0	2174746624	52	5597
2026-01-18 00:01:32.84	203.92	8.57	-41.0	-44.6	10.0	6.95e-03	0	61	0	2187329536	52	5845
2026-01-18 00:01:36.87	203.89	8.24	-41.2	-45.1	9.4	1.45e-02	0	61	0	2199912448	52	6145
2026-01-18 00:01:40.92	203.87	7.91	-44.7	-57.1	3.8	1.49e+00	0	61	104	2209349632	60	15484
2026-01-18 00:01:44.96	203.84	7.59	-45.2	-57.6	3.8	1.49e+00	0	61	104	2209349632	60	16435
2026-01-18 00:01:49.00	203.81	7.27	-45.3	-57.6	3.8	1.49e+00	0	61	104	2209349632	61	15524
2026-01-18 00:01:53.04	203.79	6.95	-45.2	-57.5	3.8	1.49e+00	0	61	104	2209349632	61	15247
2026-01-18 00:01:57.08	203.76	6.64	-45.2	-57.5	3.8	1.49e+00	0	61	104	2209349632	61	15273
2026-01-18 00:02:01.12	203.74	6.34	-45.2	-57.5	3.8	1.49e+00	0	61	104	2209349632	61	15287
2026-01-18 00:02:05.17	203.71	6.03	-45.2	-57.4	3.8	1.49e+00	0	61	104	2209349632	61	15215
2026-01-18 00:02:09.21	203.69	5.73	-45.1	-57.4	3.8	1.49e+00	0	61	104	2209349632	60	16107
2026-01-18 00:02:13.26	203.67	5.44	-45.1	-57.5	3.8	1.49e+00	0	61	104	2209349632	60	16147
2026-01-18 00:02:17.30	203.65	5.14	-45.1	-57.4	3.8	1.49e+00	0	61	104	2209349632	60	16113
2026-01-18 00:02:21.34	203.62	4.85	-45.1	-57.4	3.8	1.49e+00	0	61	104	2209349632	60	16092
2026-01-18 00:02:25.39	203.60	4.56	-45.1	-57.4	3.8	1.49e+00	0	61	104	2209349632	60	16103
2026-01-18 00:02:29.43	203.58	4.28	-45.1	-57.4	3.8	1.49e+00	0	61	104	2209349632	60	16117
2026-01-18 00:02:33.47	203.57	4.00	-45.1	-57.4	3.8	1.49e+00	0	61	104	2209349632	60	16064
2026-01-18 00:02:37.52	203.55	3.72	-45.1	-57.4	3.8	1.49e+00	0	61	104	2209349632	60	16031
2026-01-18 00:02:41.56	203.53	3.45	-45.1	-57.4	3.8	1.49e+00	0	61	104	2209349632	60	16012
2026-01-18 00:02:45.61	203.51	3.17	-45.1	-57.4	3.8	1.49e+00	0	62	104	2209349632	60	15961
2026-01-18 00:02:49.65	203.49	2.90	-45.1	-57.4	3.8	1.49e+00	0	62	104	2209349632	60	16049
2026-01-18 00:02:53.69	203.48	2.64	-45.1	-57.4	3.8	1.49e+00	0	62	104	2209349632	60	16082
2026-01-18 00:02:57.74	203.46	2.37	-45.1	-57.4	3.8	1.49e+00	0	62	104	2209349632	60	16017
2026-01-18 00:03:01.78	203.45	2.11	-45.1	-57.4	3.8	1.49e+00	0	62	104	2209349632	60	15981

#Closed at: 2026-01-18 00:03:03
#Recorded file [2209 MB]: D:/lorett/data/31039_260118_024837.dat