passes_logs/2026/01/17/R2.0S_Moscow/R2.0S_Moscow__20260117_000727_NOAA_21_JPSS-2_rec.log

#Pass ID: 20260117_000727_NOAA 21 (JPSS-2)
#Satellite: NOAA 21 (JPSS-2)
#Configuration: NOAA-21
#almurnet v.1.7.20251203
#Start time: 2026-01-17 00:07:28

#Version: 2.2.20231116
#Station: R2.0S_Moscow
#Location: 37.707566 lon 55.798166 lat
#TLE: 1 54234U 22150A   26016.21096038  .00000027  00000+0  33607-4 0  9993
#TLE: 2 54234  98.7500 317.0960 0000625 282.3388  77.7718 14.19534911164985

#Time	Az	El	Level	Level2	SNR	BER	BlckErr	Temp	State	Recorded	gain1	gain2
2026-01-17 00:07:28.71	14.23	2.09	-42.6	-54.9	3.8	1.49e+00	0	52	0	0	57	14216
2026-01-17 00:07:32.76	14.16	2.35	-42.6	-54.9	3.8	1.49e+00	0	52	104	0	57	14244
2026-01-17 00:07:36.80	14.10	2.61	-42.6	-54.9	3.8	1.49e+00	0	53	104	0	57	14262
2026-01-17 00:07:40.84	14.03	2.87	-42.6	-54.9	3.8	1.49e+00	0	53	104	0	57	14233
2026-01-17 00:07:44.89	13.96	3.14	-42.6	-54.9	3.8	1.49e+00	0	53	104	0	57	14229
2026-01-17 00:07:48.93	13.89	3.41	-42.6	-54.8	3.8	1.49e+00	0	54	104	0	57	14174
2026-01-17 00:07:52.97	13.81	3.68	-42.5	-54.7	3.8	1.49e+00	0	54	104	0	57	13938
2026-01-17 00:07:57.02	13.74	3.95	-42.5	-54.7	3.8	1.49e+00	0	54	104	0	57	14046
2026-01-17 00:08:01.06	13.66	4.23	-42.5	-54.6	3.8	1.49e+00	0	54	104	0	57	13759
2026-01-17 00:08:05.10	13.58	4.50	-42.5	-54.5	3.8	1.49e+00	0	55	104	0	57	13636
2026-01-17 00:08:09.15	13.50	4.79	-42.5	-54.6	3.8	1.49e+00	0	55	104	0	57	13759
2026-01-17 00:08:13.19	13.42	5.07	-42.5	-54.4	3.8	1.49e+00	0	55	104	0	57	13480
2026-01-17 00:08:17.23	13.34	5.36	-42.4	-53.5	3.8	1.49e+00	0	55	104	0	56	12891
2026-01-17 00:08:21.28	13.25	5.65	-42.3	-52.8	3.9	1.49e+00	0	55	104	0	56	11943
2026-01-17 00:08:25.32	13.16	5.94	-42.4	-53.2	3.8	1.49e+00	0	56	104	0	56	12401
2026-01-17 00:08:29.37	13.07	6.24	-42.5	-54.5	3.8	1.49e+00	0	56	104	0	56	14493
2026-01-17 00:08:33.41	12.98	6.54	-42.4	-54.0	3.8	1.49e+00	0	56	104	0	56	13707
2026-01-17 00:08:37.45	12.89	6.84	-42.0	-50.7	4.0	1.28e+00	0	56	104	0	56	9379
2026-01-17 00:08:41.50	12.79	7.15	-41.1	-46.7	6.7	2.18e-01	0	56	0	9437184	54	6601
2026-01-17 00:08:45.54	12.69	7.46	-40.4	-45.0	8.4	4.59e-02	0	56	0	23068672	52	6095
2026-01-17 00:08:49.58	12.59	7.77	-40.2	-44.6	8.8	3.30e-02	0	56	0	35651584	52	5800
2026-01-17 00:08:53.62	12.48	8.09	-40.8	-45.3	8.4	5.50e-02	0	57	0	48234496	52	6345
2026-01-17 00:08:57.66	12.37	8.41	-40.2	-44.4	9.0	8.05e-02	0	57	0	56623104	52	5715
2026-01-17 00:09:01.70	12.26	8.73	-40.1	-44.1	9.2	1.95e-02	0	57	0	69206016	52	5528
2026-01-17 00:09:05.74	12.15	9.06	-39.8	-43.6	9.8	1.13e-02	0	57	0	81788928	51	5522
2026-01-17 00:09:09.77	12.04	9.40	-39.9	-43.7	9.7	1.08e-02	0	57	0	95420416	51	5581
2026-01-17 00:09:13.81	11.92	9.73	-39.8	-43.4	10.0	7.57e-03	0	57	0	108003328	51	5392
2026-01-17 00:09:17.85	11.79	10.08	-39.7	-43.4	10.1	7.54e-03	0	57	0	120586240	51	5349
2026-01-17 00:09:21.90	11.67	10.43	-39.7	-43.2	10.4	4.64e-03	0	58	0	133169152	51	5242
2026-01-17 00:09:25.93	11.54	10.78	-39.9	-43.6	10.1	6.97e-03	0	58	0	145752064	51	5514
2026-01-17 00:09:29.98	11.41	11.14	-40.1	-43.9	9.9	8.89e-03	0	58	0	158334976	51	5678
2026-01-17 00:09:34.02	11.27	11.50	-39.9	-43.3	10.7	3.34e-03	0	58	0	170917888	51	5298
2026-01-17 00:09:38.06	11.13	11.87	-39.9	-43.2	10.9	2.38e-03	0	58	0	183500800	51	5269
2026-01-17 00:09:42.10	10.99	12.24	-40.0	-43.2	11.1	1.69e-03	0	58	0	196083712	51	5229
2026-01-17 00:09:46.14	10.84	12.62	-40.1	-43.4	11.1	1.76e-03	0	58	0	208666624	51	5341
2026-01-17 00:09:50.18	10.68	13.00	-40.0	-43.0	11.7	6.74e-04	0	58	0	221249536	51	5113
2026-01-17 00:09:54.22	10.53	13.39	-40.2	-43.2	11.7	4.71e-04	0	58	0	233832448	51	5232
2026-01-17 00:09:58.25	10.37	13.79	-40.1	-42.8	12.2	2.21e-04	0	58	0	246415360	51	5041
2026-01-17 00:10:02.29	10.20	14.19	-40.0	-42.7	12.4	2.27e-04	0	58	0	258998272	51	4978
2026-01-17 00:10:06.33	10.03	14.60	-40.0	-42.7	12.5	1.56e-04	0	58	0	271581184	51	4958
2026-01-17 00:10:10.37	9.85	15.02	-40.0	-42.7	12.6	9.46e-05	0	59	0	284164096	51	4932
2026-01-17 00:10:14.40	9.67	15.44	-40.1	-42.7	12.7	6.48e-05	0	59	0	296747008	51	4949
2026-01-17 00:10:18.44	9.48	15.87	-40.0	-42.5	13.0	5.18e-05	0	59	0	309329920	51	4863
2026-01-17 00:10:22.48	9.29	16.31	-40.1	-42.7	12.9	4.42e-05	0	59	0	321912832	51	4941
2026-01-17 00:10:26.52	9.09	16.75	-40.2	-42.7	12.9	4.73e-05	0	59	0	334495744	51	4954
2026-01-17 00:10:30.56	8.88	17.20	-40.1	-42.6	13.0	3.73e-05	0	59	0	347078656	51	4926
2026-01-17 00:10:34.60	8.67	17.67	-40.2	-42.7	13.0	4.27e-05	0	59	0	359661568	51	4942
2026-01-17 00:10:38.64	8.44	18.14	-40.3	-42.8	12.9	4.42e-05	0	59	0	372244480	51	5016
2026-01-17 00:10:42.68	8.22	18.61	-40.3	-42.8	13.0	4.42e-05	0	59	0	384827392	51	5018
2026-01-17 00:10:46.72	7.98	19.10	-40.3	-42.8	13.0	4.34e-05	0	59	0	397410304	51	5000
2026-01-17 00:10:50.74	7.74	19.59	-40.2	-42.6	13.2	3.28e-05	0	59	0	409993216	51	4914
2026-01-17 00:10:54.79	7.48	20.10	-40.1	-42.5	13.3	1.67e-05	0	59	0	422576128	51	4831
2026-01-17 00:10:58.83	7.22	20.62	-39.9	-42.2	13.6	3.80e-06	0	59	0	436207616	51	4688
2026-01-17 00:11:02.87	6.95	21.14	-39.6	-41.8	14.0	3.80e-06	0	59	0	448790528	51	4472
2026-01-17 00:11:06.91	6.67	21.68	-39.4	-41.5	14.3	0.00e+00	0	59	0	461373440	50	4593
2026-01-17 00:11:10.95	6.38	22.23	-39.2	-41.3	14.6	0.00e+00	0	59	0	473956352	50	4447
2026-01-17 00:11:15.00	6.07	22.79	-39.2	-41.2	14.7	0.00e+00	0	59	0	486539264	50	4431
2026-01-17 00:11:19.03	5.76	23.35	-39.2	-41.2	14.7	7.00e-07	0	59	0	499122176	50	4415
2026-01-17 00:11:23.07	5.43	23.94	-39.2	-41.2	14.7	0.00e+00	0	59	0	511705088	50	4401
2026-01-17 00:11:27.11	5.09	24.53	-39.3	-41.4	14.5	0.00e+00	0	60	0	524288000	50	4500
2026-01-17 00:11:31.15	4.73	25.14	-39.6	-41.7	14.2	2.20e-06	0	59	0	536870912	50	4689
2026-01-17 00:11:35.20	4.36	25.76	-39.8	-42.0	14.0	1.50e-06	0	60	0	549453824	50	4848
2026-01-17 00:11:39.24	3.98	26.39	-40.2	-42.5	13.5	1.29e-05	0	60	0	562036736	50	5135
2026-01-17 00:11:43.28	3.58	27.03	-40.3	-42.7	13.3	1.52e-05	0	60	0	574619648	51	4952
2026-01-17 00:11:47.32	3.16	27.69	-40.5	-43.0	13.0	2.59e-05	0	59	0	587202560	51	5118
2026-01-17 00:11:51.36	2.73	28.37	-40.6	-43.1	12.9	4.65e-05	0	60	0	599785472	51	5179
2026-01-17 00:11:55.40	2.27	29.06	-40.5	-43.0	13.0	4.50e-05	0	60	0	612368384	51	5133
2026-01-17 00:11:59.43	1.79	29.76	-40.2	-42.5	13.5	9.90e-06	0	60	0	624951296	51	4864
2026-01-17 00:12:03.47	1.29	30.48	-40.1	-42.4	13.7	7.60e-06	0	60	0	637534208	51	4772
2026-01-17 00:12:07.51	0.77	31.22	-39.9	-42.1	14.0	1.50e-06	0	60	0	650117120	51	4622
2026-01-17 00:12:11.55	0.22	31.97	-40.2	-42.5	13.6	5.30e-06	0	60	0	662700032	51	4833
2026-01-17 00:12:15.59	359.65	32.74	-40.4	-42.8	13.4	2.13e-05	0	60	0	675282944	51	4987
2026-01-17 00:12:19.63	359.04	33.52	-40.4	-42.7	13.5	1.29e-05	0	60	0	687865856	51	4957
2026-01-17 00:12:23.67	358.41	34.32	-40.7	-43.2	13.0	4.19e-05	0	60	0	700448768	51	5244
2026-01-17 00:12:27.71	357.74	35.14	-41.0	-43.7	12.4	1.38e-04	0	60	0	713031680	52	5241
2026-01-17 00:12:31.75	357.04	35.98	-41.5	-44.5	11.6	7.37e-04	0	60	0	725614592	53	5411
2026-01-17 00:12:35.79	356.30	36.83	-41.5	-44.6	11.5	8.58e-04	0	60	0	738197504	53	5488
2026-01-17 00:12:39.82	355.52	37.69	-41.8	-45.1	11.0	1.91e-03	0	60	0	751828992	54	5482
2026-01-17 00:12:43.86	354.69	38.58	-41.8	-44.9	11.2	1.39e-03	0	60	0	764411904	54	5384
2026-01-17 00:12:47.90	353.82	39.48	-42.0	-45.3	10.8	2.71e-03	0	60	0	776994816	54	5650
2026-01-17 00:12:51.94	352.90	40.40	-41.6	-44.6	11.6	9.86e-04	0	60	0	789577728	54	5178
2026-01-17 00:12:55.98	351.92	41.33	-41.5	-44.4	11.7	6.00e-04	0	60	0	802160640	54	5053
2026-01-17 00:13:00.02	350.88	42.28	-41.6	-44.6	11.5	8.96e-04	0	60	0	814743552	54	5184
2026-01-17 00:13:04.06	349.77	43.24	-41.9	-45.0	11.1	1.52e-03	0	60	0	827326464	54	5440
2026-01-17 00:13:08.10	348.60	44.21	-42.3	-45.9	10.2	6.35e-03	0	60	0	839909376	55	5668
2026-01-17 00:13:12.14	347.35	45.19	-41.8	-44.9	11.2	1.57e-03	0	60	0	852492288	55	5082
2026-01-17 00:13:16.19	346.02	46.19	-41.6	-44.6	11.4	1.04e-03	0	60	0	865075200	55	4909
2026-01-17 00:13:20.23	344.61	47.18	-41.6	-44.6	11.5	8.12e-04	0	60	0	877658112	54	5170
2026-01-17 00:13:24.27	343.10	48.18	-41.6	-44.6	11.5	9.26e-04	0	60	0	890241024	54	5196
2026-01-17 00:13:28.31	341.48	49.18	-42.1	-45.4	10.6	3.21e-03	0	60	0	902823936	54	5715
2026-01-17 00:13:32.35	339.76	50.18	-41.7	-44.7	11.4	1.02e-03	0	60	0	915406848	55	4948
2026-01-17 00:13:36.40	337.92	51.17	-41.8	-45.0	11.2	1.29e-03	0	60	0	927989760	55	5120
2026-01-17 00:13:40.44	335.95	52.14	-41.7	-44.8	11.4	7.51e-04	0	60	0	940572672	55	4993
2026-01-17 00:13:44.48	333.85	53.10	-40.8	-43.4	12.8	6.94e-05	0	60	0	953155584	53	4769
2026-01-17 00:13:48.52	331.61	54.03	-40.9	-43.4	12.7	7.62e-05	0	60	0	965738496	53	4806
2026-01-17 00:13:52.56	329.23	54.93	-40.7	-43.1	13.0	2.74e-05	0	60	0	978321408	53	4640
2026-01-17 00:13:56.60	326.68	55.79	-40.6	-43.0	13.0	3.28e-05	0	61	0	990904320	52	4864
2026-01-17 00:14:00.64	323.98	56.61	-40.3	-42.5	13.6	5.30e-06	0	60	0	1003487232	52	4582
2026-01-17 00:14:04.68	321.12	57.37	-40.1	-42.3	13.8	3.80e-06	0	60	0	1016070144	52	4466
2026-01-17 00:14:08.72	318.10	58.08	-40.0	-42.2	14.0	7.00e-07	0	60	0	1028653056	51	4657
2026-01-17 00:14:12.76	314.93	58.71	-39.7	-41.7	14.5	7.00e-07	0	60	0	1042284544	51	4440
2026-01-17 00:14:16.80	311.61	59.26	-39.2	-41.1	15.1	0.00e+00	0	61	0	1054867456	50	4365
2026-01-17 00:14:20.84	308.15	59.72	-39.3	-41.2	14.9	0.00e+00	0	61	0	1067450368	50	4431
2026-01-17 00:14:24.88	304.59	60.09	-39.8	-41.9	14.2	1.50e-06	0	61	0	1080033280	50	4813
2026-01-17 00:14:28.92	300.93	60.35	-39.4	-41.3	14.9	1.50e-06	0	60	0	1092616192	50	4462
2026-01-17 00:14:32.96	297.22	60.51	-39.4	-41.3	14.8	0.00e+00	0	60	0	1105199104	50	4488
2026-01-17 00:14:37.00	293.47	60.57	-39.6	-41.7	14.5	1.50e-06	0	60	0	1117782016	50	4652
2026-01-17 00:14:41.04	289.72	60.51	-39.5	-41.5	14.6	0.00e+00	0	60	0	1130364928	50	4584
2026-01-17 00:14:45.08	286.00	60.34	-39.6	-41.6	14.5	7.00e-07	0	61	0	1142947840	50	4632
2026-01-17 00:14:49.12	282.34	60.07	-39.8	-41.9	14.2	0.00e+00	0	61	0	1155530752	50	4792
2026-01-17 00:14:53.16	278.78	59.70	-40.0	-42.1	14.0	6.80e-06	0	60	0	1168113664	51	4649
2026-01-17 00:14:57.20	275.33	59.24	-40.1	-42.3	13.9	8.30e-06	0	60	0	1180696576	51	4725
2026-01-17 00:15:01.24	272.01	58.68	-40.1	-42.3	13.8	2.20e-06	0	60	0	1193279488	51	4711
2026-01-17 00:15:05.28	268.83	58.05	-40.1	-42.3	13.9	4.50e-06	0	61	0	1205862400	51	4711
2026-01-17 00:15:09.32	265.81	57.34	-40.1	-42.3	13.9	3.80e-06	0	60	0	1218445312	51	4730
2026-01-17 00:15:13.35	262.96	56.58	-40.3	-42.5	13.6	7.60e-06	0	60	0	1231028224	51	4861
2026-01-17 00:15:17.39	260.26	55.76	-40.7	-43.1	12.9	1.83e-05	0	60	0	1243611136	52	4921
2026-01-17 00:15:21.43	257.72	54.89	-40.7	-43.2	12.8	8.23e-05	0	61	0	1256194048	53	4663
2026-01-17 00:15:25.47	255.33	53.98	-41.8	-44.9	11.2	1.10e-03	0	60	0	1268776960	54	5389
2026-01-17 00:15:29.51	253.09	53.05	-40.4	-42.7	13.3	8.92e-05	0	60	0	1281359872	52	4690
2026-01-17 00:15:33.54	251.00	52.09	-41.6	-44.6	11.5	6.00e-04	0	61	0	1293942784	53	5493
2026-01-17 00:15:37.59	249.03	51.11	-41.2	-44.0	11.9	2.97e-04	0	60	0	1306525696	54	4823
2026-01-17 00:15:41.62	247.19	50.12	-41.3	-44.2	11.9	3.68e-04	0	61	0	1319108608	53	5234
2026-01-17 00:15:45.66	245.47	49.12	-41.1	-43.9	12.0	4.58e-04	0	61	0	1331691520	54	4762
2026-01-17 00:15:49.70	243.86	48.12	-41.3	-44.2	11.8	5.41e-04	0	60	0	1344274432	53	5222
2026-01-17 00:15:53.75	242.34	47.11	-41.7	-44.8	11.1	2.26e-03	0	61	0	1356857344	54	5308
2026-01-17 00:15:57.79	240.93	46.11	-41.1	-43.8	12.2	1.69e-04	0	61	0	1369440256	53	4993
2026-01-17 00:16:01.82	239.60	45.12	-42.6	-46.6	9.3	1.95e-02	0	61	0	1383071744	55	6155
2026-01-17 00:16:05.86	238.35	44.13	-41.4	-44.3	11.4	1.21e-03	0	61	0	1395654656	54	5017
2026-01-17 00:16:09.90	237.18	43.16	-41.9	-45.2	10.8	1.88e-03	0	60	0	1408237568	54	5562
2026-01-17 00:16:13.94	236.07	42.20	-42.4	-46.0	9.9	1.28e-02	0	61	0	1420820480	56	5408
2026-01-17 00:16:17.98	235.03	41.24	-41.7	-44.7	11.2	1.26e-03	0	61	0	1433403392	55	4971
2026-01-17 00:16:22.02	234.05	40.31	-41.4	-44.3	11.7	6.12e-04	0	61	0	1445986304	54	5021
2026-01-17 00:16:26.06	233.13	39.39	-42.2	-45.8	10.0	7.53e-03	0	61	0	1458569216	55	5606
2026-01-17 00:16:30.10	232.25	38.48	-41.1	-43.7	12.2	2.77e-04	0	61	0	1471152128	54	4704
2026-01-17 00:16:34.14	231.42	37.59	-41.4	-44.4	11.6	6.12e-04	0	60	0	1483735040	53	5377
2026-01-17 00:16:38.18	230.64	36.72	-41.0	-43.8	12.1	3.12e-04	0	61	0	1496317952	53	4995
2026-01-17 00:16:42.22	229.90	35.87	-41.6	-44.7	11.3	1.01e-03	0	61	0	1508900864	53	5530
2026-01-17 00:16:46.26	229.19	35.03	-40.5	-42.9	13.1	3.89e-05	0	60	0	1521483776	53	4533
2026-01-17 00:16:50.30	228.52	34.21	-40.1	-42.4	13.6	6.80e-06	0	61	0	1534066688	52	4534
2026-01-17 00:16:54.34	227.89	33.40	-40.4	-42.7	13.3	2.13e-05	0	61	0	1546649600	52	4693
2026-01-17 00:16:58.38	227.28	32.62	-40.0	-42.2	13.9	2.20e-06	0	61	0	1559232512	51	4663
2026-01-17 00:17:02.42	226.71	31.84	-40.4	-42.9	13.2	2.05e-05	0	61	0	1571815424	51	5059
2026-01-17 00:17:06.45	226.16	31.09	-40.5	-42.9	13.2	2.28e-05	0	61	0	1584398336	51	5095
2026-01-17 00:17:10.49	225.63	30.35	-40.2	-42.5	13.5	1.22e-05	0	61	0	1596981248	51	4835
2026-01-17 00:17:14.53	225.13	29.63	-40.0	-42.2	13.8	5.30e-06	0	60	0	1609564160	51	4667
2026-01-17 00:17:18.57	224.65	28.93	-40.2	-42.5	13.5	1.83e-05	0	61	0	1622147072	51	4840
2026-01-17 00:17:22.61	224.20	28.23	-40.1	-42.3	13.7	7.60e-06	0	61	0	1634729984	51	4744
2026-01-17 00:17:26.65	223.76	27.56	-39.9	-42.1	13.9	3.00e-06	0	61	0	1647312896	51	4634
2026-01-17 00:17:30.69	223.34	26.89	-39.6	-41.7	14.3	7.00e-07	0	61	0	1659895808	51	4425
2026-01-17 00:17:34.73	222.93	26.25	-39.9	-42.2	13.8	6.10e-06	0	61	0	1672478720	51	4663
2026-01-17 00:17:38.77	222.55	25.61	-39.9	-42.2	13.9	4.50e-06	0	61	0	1685061632	51	4655
2026-01-17 00:17:42.81	222.18	24.99	-39.8	-41.9	14.0	7.00e-07	0	61	0	1698693120	51	4543
2026-01-17 00:17:46.85	221.82	24.38	-39.6	-41.6	14.3	2.20e-06	0	61	0	1711276032	51	4383
2026-01-17 00:17:50.89	221.48	23.79	-39.4	-41.4	14.6	7.00e-07	0	61	0	1723858944	50	4495
2026-01-17 00:17:54.93	221.15	23.20	-39.3	-41.3	14.6	0.00e+00	0	61	0	1736441856	50	4467
2026-01-17 00:17:58.97	220.83	22.63	-39.7	-41.8	14.2	1.50e-06	0	61	0	1749024768	50	4712
2026-01-17 00:18:03.01	220.52	22.07	-39.9	-42.1	13.9	3.00e-06	0	61	0	1761607680	50	4887
2026-01-17 00:18:07.05	220.23	21.52	-39.9	-42.1	13.8	5.30e-06	0	61	0	1774190592	50	4899
2026-01-17 00:18:11.09	219.94	20.99	-39.9	-42.1	13.9	3.80e-06	0	61	0	1786773504	50	4877
2026-01-17 00:18:15.13	219.67	20.46	-39.9	-42.1	13.8	5.30e-06	0	61	0	1799356416	50	4891
2026-01-17 00:18:19.17	219.41	19.94	-39.8	-42.0	13.9	3.80e-06	0	61	0	1811939328	50	4823
2026-01-17 00:18:23.22	219.15	19.43	-39.8	-42.0	13.8	6.10e-06	0	61	0	1824522240	50	4860
2026-01-17 00:18:27.25	218.90	18.94	-39.8	-42.0	13.8	7.60e-06	0	61	0	1837105152	50	4832
2026-01-17 00:18:31.29	218.66	18.45	-39.7	-41.9	13.9	5.30e-06	0	61	0	1849688064	50	4774
2026-01-17 00:18:35.33	218.43	17.97	-39.7	-41.9	13.9	2.20e-06	0	61	0	1862270976	50	4776
2026-01-17 00:18:39.38	218.21	17.50	-39.8	-42.0	13.8	3.00e-06	0	61	0	1874853888	50	4856
2026-01-17 00:18:43.42	217.99	17.04	-39.9	-42.2	13.6	9.10e-06	0	61	0	1887436800	50	4957
2026-01-17 00:18:47.46	217.78	16.58	-40.1	-42.4	13.3	1.75e-05	0	61	0	1900019712	50	5080
2026-01-17 00:18:51.50	217.58	16.14	-40.2	-42.6	13.2	2.13e-05	0	61	0	1912602624	50	5186
2026-01-17 00:18:55.54	217.38	15.70	-40.2	-42.7	13.1	2.97e-05	0	61	0	1925185536	51	4935
2026-01-17 00:18:59.58	217.19	15.27	-40.2	-42.7	13.0	4.19e-05	0	61	0	1937768448	51	4963
2026-01-17 00:19:03.62	217.00	14.84	-40.2	-42.7	13.0	3.81e-05	0	61	0	1950351360	51	4961
2026-01-17 00:19:07.66	216.82	14.42	-40.2	-42.7	12.9	3.73e-05	0	61	0	1962934272	51	4958
2026-01-17 00:19:11.69	216.65	14.02	-40.2	-42.7	12.9	4.80e-05	0	61	0	1975517184	51	4958
2026-01-17 00:19:15.73	216.48	13.61	-40.2	-42.7	13.0	4.42e-05	0	61	0	1988100096	51	4928
2026-01-17 00:19:19.77	216.31	13.21	-40.2	-42.7	12.9	5.64e-05	0	61	0	2000683008	51	4974
2026-01-17 00:19:23.81	216.15	12.82	-40.1	-42.6	12.9	3.50e-05	0	61	0	2014314496	51	4892
2026-01-17 00:19:27.85	216.00	12.44	-40.2	-42.7	12.8	5.56e-05	0	61	0	2025848832	51	4951
2026-01-17 00:19:31.89	215.85	12.06	-40.2	-42.7	12.8	5.11e-05	0	61	0	2039480320	51	4931
2026-01-17 00:19:35.93	215.70	11.68	-40.2	-42.8	12.7	9.15e-05	0	61	0	2052063232	51	5013
2026-01-17 00:19:39.97	215.55	11.32	-40.3	-42.9	12.6	1.04e-04	0	61	0	2064646144	51	5053
2026-01-17 00:19:44.01	215.41	10.95	-40.4	-43.1	12.3	1.66e-04	0	61	0	2077229056	51	5171
2026-01-17 00:19:48.05	215.28	10.59	-40.4	-43.1	12.3	1.62e-04	0	61	0	2089811968	51	5187
2026-01-17 00:19:52.09	215.14	10.24	-40.5	-43.2	12.1	2.80e-04	0	61	0	2102394880	51	5264
2026-01-17 00:19:56.13	215.01	9.89	-40.6	-43.4	11.9	4.10e-04	0	61	0	2114977792	51	5397
2026-01-17 00:20:00.16	214.89	9.55	-40.6	-43.5	11.7	6.56e-04	0	61	0	2127560704	51	5454
2026-01-17 00:20:04.20	214.77	9.21	-40.6	-43.6	11.6	7.19e-04	0	61	0	2140143616	51	5502
2026-01-17 00:20:08.24	214.65	8.88	-40.7	-43.7	11.4	9.38e-04	0	61	0	2152726528	51	5569
2026-01-17 00:20:12.29	214.53	8.55	-40.7	-43.8	11.2	1.20e-03	0	61	0	2165309440	52	5296
2026-01-17 00:20:16.33	214.41	8.22	-40.7	-43.9	11.0	1.77e-03	0	61	0	2177892352	52	5354
2026-01-17 00:20:20.37	214.30	7.90	-44.7	-56.9	3.8	1.49e+00	0	61	104	2188378112	59	16002
2026-01-17 00:20:24.41	214.19	7.58	-45.3	-57.6	3.8	1.49e+00	0	61	104	2188378112	61	15504
2026-01-17 00:20:28.45	214.09	7.26	-45.4	-57.7	3.8	1.49e+00	0	61	104	2188378112	61	15733
2026-01-17 00:20:32.50	213.98	6.95	-45.3	-57.6	3.8	1.49e+00	0	61	104	2188378112	61	15510
2026-01-17 00:20:36.54	213.88	6.65	-45.3	-57.6	3.8	1.49e+00	0	61	104	2188378112	61	15450
2026-01-17 00:20:40.58	213.78	6.34	-45.3	-57.6	3.8	1.49e+00	0	61	104	2188378112	61	15472
2026-01-17 00:20:44.62	213.69	6.04	-45.3	-57.5	3.8	1.49e+00	0	61	104	2188378112	61	15392
2026-01-17 00:20:48.66	213.59	5.75	-45.3	-57.6	3.8	1.49e+00	0	61	104	2188378112	61	15433
2026-01-17 00:20:52.70	213.50	5.45	-45.3	-57.5	3.8	1.49e+00	0	61	104	2188378112	61	15321
2026-01-17 00:20:56.74	213.41	5.16	-45.3	-57.5	3.8	1.49e+00	0	61	104	2188378112	61	15374
2026-01-17 00:21:00.79	213.32	4.87	-45.2	-57.5	3.8	1.49e+00	0	61	104	2188378112	61	15341
2026-01-17 00:21:04.83	213.23	4.59	-45.2	-57.5	3.8	1.49e+00	0	61	104	2188378112	61	15363
2026-01-17 00:21:08.88	213.15	4.31	-45.2	-57.5	3.8	1.49e+00	0	61	104	2188378112	61	15332
2026-01-17 00:21:12.92	213.06	4.03	-45.2	-57.5	3.8	1.49e+00	0	61	104	2188378112	61	15346
2026-01-17 00:21:16.96	212.98	3.75	-45.2	-57.5	3.8	1.49e+00	0	61	104	2188378112	61	15362
2026-01-17 00:21:21.01	212.90	3.48	-45.2	-57.5	3.8	1.49e+00	0	61	104	2188378112	61	15318
2026-01-17 00:21:25.05	212.82	3.21	-45.2	-57.5	3.8	1.49e+00	0	61	104	2188378112	61	15318
2026-01-17 00:21:29.10	212.75	2.94	-45.2	-57.5	3.8	1.49e+00	0	61	104	2188378112	61	15324
2026-01-17 00:21:33.14	212.67	2.68	-45.2	-57.5	3.8	1.49e+00	0	61	104	2188378112	61	15302
2026-01-17 00:21:37.18	212.60	2.41	-45.2	-57.5	3.8	1.49e+00	0	61	104	2188378112	61	15294
2026-01-17 00:21:41.23	212.53	2.15	-45.2	-57.5	3.8	1.49e+00	0	61	104	2188378112	61	15276
2026-01-17 00:21:45.27	212.46	1.90	-45.2	-57.5	3.8	1.49e+00	0	61	104	2188378112	61	15269

#Closed at: 2026-01-17 00:21:46
#Recorded file [2188 MB]: D:/lorett/data/31039_260117_030728.dat