passes_logs/2026/01/17/R2.0S_Moscow/R2.0S_Moscow__20260117_145114_FENGYUN_3E_rec.log

#Pass ID: 20260117_145114_FENGYUN 3E
#Satellite: FENGYUN 3E
#Configuration: FENGYUN 3E
#almurnet v.1.7.20251203
#Start time: 2026-01-17 14:51:15

#Version: 2.2.20231116
#Station: R2.0S_Moscow
#Location: 37.707566 lon 55.798166 lat
#TLE: 1 49008U 21062A   26016.55599566  .00000255  00000+0  14071-3 0  9994
#TLE: 2 49008  98.7485  21.6664 0002094 134.5344 225.6004 14.19886148235063

#Time	Az	El	Level	Level2	SNR	BER	BlckErr	Temp	State	Recorded	gain1	gain2
2026-01-17 14:51:15.50	179.83	2.07	-44.4	-55.5	3.8	8.45e-01	0	52	0	0	59	12889
2026-01-17 14:51:19.55	179.96	2.32	-44.4	-55.5	3.8	8.46e-01	0	52	104	0	59	12892
2026-01-17 14:51:23.59	180.10	2.58	-44.4	-55.5	3.8	8.46e-01	0	52	104	0	59	12819
2026-01-17 14:51:27.64	180.23	2.84	-44.4	-55.5	3.8	8.47e-01	0	53	104	0	59	12846
2026-01-17 14:51:31.68	180.37	3.10	-44.4	-55.5	3.8	8.46e-01	0	53	104	0	59	12853
2026-01-17 14:51:35.72	180.51	3.37	-44.4	-55.4	3.8	8.46e-01	0	53	104	0	59	12788
2026-01-17 14:51:39.77	180.65	3.63	-44.4	-55.4	3.8	8.46e-01	0	54	104	0	59	12796
2026-01-17 14:51:43.81	180.79	3.90	-44.4	-55.5	3.8	8.46e-01	0	54	104	0	59	12834
2026-01-17 14:51:47.86	180.94	4.17	-44.4	-55.4	3.8	8.45e-01	0	54	104	0	59	12802
2026-01-17 14:51:51.90	181.09	4.45	-44.4	-55.3	3.8	8.47e-01	0	54	104	0	59	12574
2026-01-17 14:51:55.94	181.24	4.72	-44.2	-54.2	3.8	8.45e-01	0	55	104	0	59	11078
2026-01-17 14:51:59.98	181.39	5.00	-44.1	-53.1	3.9	8.46e-01	0	55	104	0	59	9784
2026-01-17 14:52:04.03	181.55	5.29	-43.8	-51.6	4.3	8.34e-01	0	55	0	0	58	8748
2026-01-17 14:52:08.07	181.71	5.57	-43.3	-49.6	5.2	7.69e-01	0	55	0	0	57	7321
2026-01-17 14:52:12.12	181.87	5.86	-42.8	-48.3	6.1	3.82e-01	0	55	0	16777216	56	6650
2026-01-17 14:52:16.16	182.04	6.15	-42.3	-47.2	6.9	1.70e-01	0	55	0	46137344	55	6239
2026-01-17 14:52:20.20	182.21	6.45	-42.6	-48.0	6.2	3.04e-01	0	56	0	75497472	55	6869
2026-01-17 14:52:24.25	182.38	6.74	-42.4	-47.3	6.7	2.14e-01	0	56	0	104857600	55	6316
2026-01-17 14:52:28.29	182.55	7.04	-41.4	-45.1	8.8	3.68e-02	0	56	0	133169152	53	5521
2026-01-17 14:52:32.33	182.73	7.35	-39.8	-42.5	11.7	5.98e-04	0	56	0	162529280	50	4837
2026-01-17 14:52:36.38	182.91	7.66	-38.7	-41.0	13.2	3.54e-05	0	56	0	191889408	48	4569
2026-01-17 14:52:40.42	183.10	7.97	-38.7	-41.1	12.9	4.11e-05	0	57	0	221249536	47	4879
2026-01-17 14:52:44.46	183.29	8.28	-42.9	-48.4	5.9	6.81e-01	0	57	0	247463936	56	6778
2026-01-17 14:52:48.50	183.48	8.60	-38.5	-40.7	13.3	1.60e-05	0	57	0	273678336	47	4702
2026-01-17 14:52:52.54	183.68	8.92	-38.3	-40.6	13.6	1.37e-05	0	57	0	303038464	47	4604
2026-01-17 14:52:56.58	183.88	9.25	-38.2	-40.4	13.7	3.40e-06	0	57	0	331350016	47	4524
2026-01-17 14:53:00.62	184.09	9.58	-38.2	-40.4	13.8	0.00e+00	0	57	0	360710144	47	4500
2026-01-17 14:53:04.65	184.30	9.91	-38.2	-40.4	13.9	4.50e-06	0	57	0	390070272	46	4774
2026-01-17 14:53:08.69	184.51	10.25	-37.8	-39.9	14.3	0.00e+00	0	57	0	419430400	46	4513
2026-01-17 14:53:12.73	184.73	10.60	-38.0	-40.2	14.1	0.00e+00	0	58	0	448790528	46	4663
2026-01-17 14:53:16.77	184.96	10.94	-37.8	-39.9	14.4	1.10e-06	0	58	0	478150656	46	4534
2026-01-17 14:53:20.81	185.19	11.30	-37.7	-39.8	14.5	2.20e-06	0	58	0	506462208	46	4477
2026-01-17 14:53:24.85	185.42	11.65	-37.7	-39.8	14.5	0.00e+00	0	58	0	535822336	46	4476
2026-01-17 14:53:28.89	185.67	12.02	-37.6	-39.7	14.6	0.00e+00	0	58	0	565182464	46	4413
2026-01-17 14:53:32.93	185.91	12.38	-37.4	-39.4	15.0	0.00e+00	0	58	0	594542592	45	4514
2026-01-17 14:53:36.97	186.16	12.75	-37.3	-39.4	15.0	1.10e-06	0	58	0	623902720	45	4495
2026-01-17 14:53:41.01	186.42	13.13	-37.2	-39.2	15.2	0.00e+00	0	58	0	653262848	45	4422
2026-01-17 14:53:45.04	186.69	13.51	-37.2	-39.2	15.2	0.00e+00	0	58	0	681574400	45	4436
2026-01-17 14:53:49.08	186.96	13.90	-36.9	-38.8	15.6	0.00e+00	0	59	0	710934528	44	4485
2026-01-17 14:53:53.12	187.24	14.30	-37.0	-39.0	15.4	0.00e+00	0	58	0	740294656	44	4568
2026-01-17 14:53:57.16	187.52	14.70	-37.2	-39.1	15.3	0.00e+00	0	59	0	769654784	44	4649
2026-01-17 14:54:01.20	187.82	15.10	-37.1	-39.2	15.3	0.00e+00	0	59	0	797966336	44	4656
2026-01-17 14:54:05.24	188.12	15.51	-36.9	-38.9	15.6	0.00e+00	0	59	0	827326464	44	4504
2026-01-17 14:54:09.27	188.43	15.93	-36.8	-38.8	15.7	0.00e+00	0	59	0	856686592	44	4449
2026-01-17 14:54:13.32	188.75	16.36	-36.8	-38.7	15.9	0.00e+00	0	59	0	886046720	44	4406
2026-01-17 14:54:17.36	189.07	16.79	-36.5	-38.4	16.0	0.00e+00	0	59	0	915406848	43	4517
2026-01-17 14:54:21.40	189.41	17.23	-36.3	-38.1	16.3	0.00e+00	0	59	0	943718400	43	4347
2026-01-17 14:54:25.43	189.75	17.67	-35.9	-37.6	16.8	0.00e+00	0	59	0	973078528	42	4376
2026-01-17 14:54:29.47	190.11	18.13	-35.9	-37.6	16.8	0.00e+00	0	59	0	1002438656	42	4351
2026-01-17 14:54:33.51	190.47	18.59	-35.7	-37.4	17.0	0.00e+00	0	59	0	1031798784	42	4261
2026-01-17 14:54:37.55	190.85	19.06	-36.1	-37.9	16.5	0.00e+00	0	59	0	1060110336	42	4523
2026-01-17 14:54:41.59	191.24	19.53	-35.9	-37.6	16.8	0.00e+00	0	59	0	1089470464	42	4388
2026-01-17 14:54:45.63	191.64	20.02	-35.9	-37.6	16.9	0.00e+00	0	59	0	1118830592	42	4360
2026-01-17 14:54:49.67	192.05	20.51	-35.9	-37.6	16.8	0.00e+00	0	60	0	1148190720	42	4371
2026-01-17 14:54:53.72	192.48	21.01	-35.8	-37.5	16.9	0.00e+00	0	59	0	1177550848	42	4313
2026-01-17 14:54:57.75	192.91	21.52	-35.5	-37.3	17.1	0.00e+00	0	59	0	1206910976	41	4446
2026-01-17 14:55:01.80	193.37	22.04	-35.3	-37.0	17.4	0.00e+00	0	59	0	1235222528	41	4308
2026-01-17 14:55:05.84	193.84	22.56	-35.2	-36.9	17.5	0.00e+00	0	60	0	1264582656	41	4276
2026-01-17 14:55:09.88	194.32	23.10	-35.3	-37.1	17.3	0.00e+00	0	60	0	1293942784	41	4363
2026-01-17 14:55:13.92	194.82	23.64	-35.6	-37.4	17.0	0.00e+00	0	60	0	1323302912	41	4532
2026-01-17 14:55:17.96	195.34	24.20	-35.5	-37.3	17.2	0.00e+00	0	60	0	1352663040	41	4456
2026-01-17 14:55:21.99	195.87	24.76	-35.2	-36.9	17.6	0.00e+00	0	60	0	1380974592	41	4254
2026-01-17 14:55:26.03	196.43	25.34	-35.2	-36.9	17.6	0.00e+00	0	60	0	1410334720	40	4512
2026-01-17 14:55:30.07	197.00	25.92	-34.9	-36.5	18.0	0.00e+00	0	60	0	1439694848	40	4338
2026-01-17 14:55:34.11	197.60	26.51	-35.1	-36.7	17.8	0.00e+00	0	60	0	1469054976	40	4421
2026-01-17 14:55:38.15	198.22	27.12	-35.0	-36.7	17.7	0.00e+00	0	60	0	1498415104	40	4423
2026-01-17 14:55:42.20	198.86	27.73	-34.9	-36.6	17.8	0.00e+00	0	60	0	1527775232	40	4353
2026-01-17 14:55:46.23	199.53	28.35	-34.8	-36.4	17.9	0.00e+00	0	60	0	1556086784	40	4283
2026-01-17 14:55:50.27	200.22	28.99	-34.8	-36.4	18.0	0.00e+00	0	60	0	1585446912	40	4277
2026-01-17 14:55:54.31	200.94	29.63	-34.8	-36.4	18.1	0.00e+00	0	60	0	1614807040	39	4496
2026-01-17 14:55:58.35	201.69	30.28	-34.8	-36.4	18.0	0.00e+00	0	60	0	1644167168	40	4273
2026-01-17 14:56:02.39	202.47	30.95	-35.0	-36.7	17.8	0.00e+00	0	60	0	1673527296	40	4396
2026-01-17 14:56:06.42	203.28	31.62	-35.1	-36.7	17.9	0.00e+00	0	60	0	1701838848	40	4431
2026-01-17 14:56:10.46	204.12	32.30	-34.9	-36.6	17.9	0.00e+00	0	60	0	1731198976	40	4356
2026-01-17 14:56:14.50	205.00	32.99	-34.8	-36.4	18.1	0.00e+00	0	60	0	1760559104	40	4288
2026-01-17 14:56:18.54	205.92	33.69	-34.7	-36.3	18.3	0.00e+00	0	61	0	1789919232	40	4228
2026-01-17 14:56:22.59	206.88	34.39	-34.8	-36.3	18.2	0.00e+00	0	61	0	1819279360	40	4242
2026-01-17 14:56:26.63	207.88	35.11	-35.1	-36.8	17.7	0.00e+00	0	61	0	1848639488	40	4460
2026-01-17 14:56:30.67	208.93	35.83	-35.1	-36.8	17.7	0.00e+00	0	60	0	1876951040	40	4478
2026-01-17 14:56:34.71	210.02	36.55	-35.1	-36.7	17.8	0.00e+00	0	61	0	1906311168	40	4421
2026-01-17 14:56:38.75	211.16	37.28	-35.2	-36.8	17.8	0.00e+00	0	61	0	1935671296	40	4479
2026-01-17 14:56:42.79	212.35	38.01	-34.9	-36.5	18.2	0.00e+00	0	60	0	1965031424	40	4302
2026-01-17 14:56:46.83	213.59	38.75	-35.0	-36.6	18.0	0.00e+00	0	60	0	1994391552	40	4379
2026-01-17 14:56:50.87	214.89	39.48	-35.2	-36.9	17.7	0.00e+00	0	60	0	2023751680	40	4510
2026-01-17 14:56:54.91	216.25	40.22	-35.2	-36.8	17.8	0.00e+00	0	61	0	2052063232	40	4479
2026-01-17 14:56:58.95	217.68	40.94	-35.0	-36.6	18.0	0.00e+00	0	60	0	2081423360	40	4377
2026-01-17 14:57:02.99	219.16	41.67	-35.5	-37.2	17.4	0.00e+00	0	61	0	2110783488	40	4698
2026-01-17 14:57:07.03	220.72	42.38	-35.6	-37.3	17.5	0.00e+00	0	61	0	2140143616	40	4714
2026-01-17 14:57:11.06	222.33	43.09	-35.4	-37.0	17.8	0.00e+00	0	60	0	2169503744	40	4582
2026-01-17 14:57:15.10	224.03	43.78	-35.4	-37.0	17.7	0.00e+00	0	60	0	2197815296	40	4567
2026-01-17 14:57:19.14	225.80	44.46	-35.4	-37.0	17.7	0.00e+00	0	61	0	2227175424	40	4594
2026-01-17 14:57:23.19	227.64	45.11	-36.0	-37.2	17.9	0.00e+00	0	61	0	2256535552	41	4437
2026-01-17 14:57:27.23	229.56	45.75	-35.8	-37.0	18.1	0.00e+00	0	61	0	2285895680	41	4309
2026-01-17 14:57:31.27	231.55	46.36	-36.2	-37.4	17.7	0.00e+00	0	61	0	2315255808	42	4274
2026-01-17 14:57:35.31	233.62	46.93	-35.9	-37.1	18.0	0.00e+00	0	61	0	2344615936	42	4135
2026-01-17 14:57:39.35	235.77	47.47	-36.4	-37.7	17.5	0.00e+00	0	60	0	2372927488	42	4405
2026-01-17 14:57:43.39	237.98	47.98	-36.2	-37.5	17.7	0.00e+00	0	61	0	2402287616	42	4304
2026-01-17 14:57:47.43	240.27	48.44	-36.6	-38.0	17.2	0.00e+00	0	61	0	2431647744	43	4292
2026-01-17 14:57:51.47	242.62	48.86	-36.3	-37.6	17.6	0.00e+00	0	61	0	2461007872	43	4125
2026-01-17 14:57:55.51	245.03	49.23	-36.4	-37.7	17.4	0.00e+00	0	61	0	2490368000	43	4174
2026-01-17 14:57:59.55	247.49	49.55	-36.4	-37.7	17.4	0.00e+00	0	61	0	2518679552	43	4170
2026-01-17 14:58:03.59	250.01	49.81	-36.7	-38.0	17.1	0.00e+00	0	61	0	2548039680	43	4320
2026-01-17 14:58:07.63	252.56	50.02	-36.4	-37.7	17.4	0.00e+00	0	61	0	2577399808	43	4170
2026-01-17 14:58:11.67	255.14	50.17	-36.5	-37.8	17.4	0.00e+00	0	61	0	2606759936	43	4195
2026-01-17 14:58:15.71	257.74	50.25	-36.0	-37.2	18.0	0.00e+00	0	61	0	2636120064	42	4155
2026-01-17 14:58:19.75	260.35	50.28	-36.7	-38.0	17.1	0.00e+00	0	61	0	2664431616	43	4308
2026-01-17 14:58:23.79	262.95	50.24	-36.1	-37.3	17.9	0.00e+00	0	61	0	2693791744	43	3972
2026-01-17 14:58:27.83	265.55	50.14	-36.5	-37.8	17.4	0.00e+00	0	61	0	2723151872	43	4202
2026-01-17 14:58:31.87	268.12	49.98	-36.6	-37.8	17.3	0.00e+00	0	61	0	2752512000	43	4238
2026-01-17 14:58:35.91	270.66	49.77	-36.1	-37.3	17.9	0.00e+00	0	61	0	2781872128	42	4203
2026-01-17 14:58:39.95	273.16	49.49	-36.3	-37.6	17.6	0.00e+00	0	61	0	2810183680	42	4363
2026-01-17 14:58:43.99	275.62	49.16	-36.0	-37.2	17.9	0.00e+00	0	61	0	2839543808	42	4162
2026-01-17 14:58:48.02	278.01	48.79	-36.2	-37.4	17.7	0.00e+00	0	61	0	2868903936	42	4271
2026-01-17 14:58:52.06	280.34	48.36	-36.2	-37.5	17.7	0.00e+00	0	61	0	2898264064	42	4304
2026-01-17 14:58:56.10	282.61	47.89	-36.2	-37.4	17.7	0.00e+00	0	61	0	2926575616	42	4256
2026-01-17 14:59:00.14	284.81	47.38	-36.5	-37.8	17.4	0.00e+00	0	61	0	2955935744	42	4452
2026-01-17 14:59:04.18	286.93	46.83	-36.3	-37.6	17.6	0.00e+00	0	61	0	2985295872	42	4346
2026-01-17 14:59:08.22	288.98	46.25	-36.1	-37.3	17.8	0.00e+00	0	61	0	3014656000	42	4242
2026-01-17 14:59:12.26	290.96	45.64	-35.6	-36.8	18.3	0.00e+00	0	61	0	3044016128	42	3974
2026-01-17 14:59:16.30	292.86	45.00	-35.9	-37.1	18.0	0.00e+00	0	61	0	3072327680	42	4122
2026-01-17 14:59:20.34	294.68	44.34	-35.7	-36.9	18.2	0.00e+00	0	61	0	3101687808	42	4022
2026-01-17 14:59:24.38	296.43	43.67	-35.9	-37.0	18.1	0.00e+00	0	61	0	3131047936	42	4092
2026-01-17 14:59:28.42	298.11	42.98	-36.2	-37.4	17.7	0.00e+00	0	61	0	3160408064	42	4273
2026-01-17 14:59:32.45	299.71	42.27	-35.7	-36.9	18.2	0.00e+00	0	61	0	3189768192	42	4020
2026-01-17 14:59:36.50	301.25	41.56	-35.4	-36.5	18.5	0.00e+00	0	61	0	3219128320	41	4092
2026-01-17 14:59:40.54	302.72	40.84	-35.4	-36.5	18.5	0.00e+00	0	61	0	3247439872	41	4074
2026-01-17 14:59:44.58	304.13	40.11	-35.8	-37.0	18.1	0.00e+00	0	61	0	3276800000	41	4324
2026-01-17 14:59:48.62	305.47	39.38	-35.3	-36.5	18.6	0.00e+00	0	61	0	3306160128	41	4057
2026-01-17 14:59:52.66	306.76	38.65	-35.5	-36.6	18.3	0.00e+00	0	61	0	3335520256	41	4123
2026-01-17 14:59:56.70	307.99	37.92	-35.5	-36.7	18.4	0.00e+00	0	61	0	3364880384	41	4158
2026-01-17 15:00:00.74	309.17	37.19	-35.3	-36.5	18.6	0.00e+00	0	61	0	3393191936	41	4055
2026-01-17 15:00:04.78	310.30	36.47	-35.2	-36.4	18.7	0.00e+00	0	61	0	3422552064	40	4247
2026-01-17 15:00:08.82	311.38	35.75	-35.5	-36.6	18.4	0.00e+00	0	61	0	3451912192	40	4379
2026-01-17 15:00:12.85	312.41	35.03	-35.8	-37.0	18.0	0.00e+00	0	61	0	3481272320	41	4328
2026-01-17 15:00:16.90	313.40	34.32	-35.4	-36.5	18.5	0.00e+00	0	61	0	3510632448	41	4070
2026-01-17 15:00:20.94	314.35	33.62	-34.8	-35.8	19.1	0.00e+00	0	61	0	3539992576	40	3996
2026-01-17 15:00:24.98	315.26	32.93	-35.3	-36.4	18.5	0.00e+00	0	61	0	3568304128	40	4264
2026-01-17 15:00:29.02	316.14	32.24	-35.6	-36.8	18.2	0.00e+00	0	61	0	3597664256	40	4458
2026-01-17 15:00:33.06	316.98	31.57	-35.7	-36.9	18.0	0.00e+00	0	61	0	3627024384	41	4282
2026-01-17 15:00:37.10	317.78	30.90	-35.6	-36.8	18.2	0.00e+00	0	61	0	3656384512	41	4213
2026-01-17 15:00:41.14	318.55	30.24	-35.1	-36.2	18.7	0.00e+00	0	61	0	3685744640	41	3947
2026-01-17 15:00:45.18	319.30	29.60	-35.3	-36.5	18.5	0.00e+00	0	61	0	3714056192	41	4067
2026-01-17 15:00:49.22	320.01	28.96	-35.5	-36.6	18.3	0.00e+00	0	61	0	3743416320	41	4138
2026-01-17 15:00:53.26	320.70	28.33	-35.5	-36.7	18.3	0.00e+00	0	61	0	3772776448	41	4156
2026-01-17 15:00:57.30	321.36	27.71	-35.7	-36.8	18.1	0.00e+00	0	61	0	3802136576	41	4238
2026-01-17 15:01:01.34	322.00	27.10	-35.5	-36.7	18.2	0.00e+00	0	61	0	3831496704	41	4188
2026-01-17 15:01:05.39	322.62	26.50	-35.6	-36.7	18.2	0.00e+00	0	61	0	3860856832	41	4183
2026-01-17 15:01:09.43	323.21	25.92	-35.6	-36.8	18.1	0.00e+00	0	61	0	3889168384	41	4211
2026-01-17 15:01:13.46	323.78	25.34	-35.7	-36.9	18.0	0.00e+00	0	61	0	3918528512	41	4261
2026-01-17 15:01:17.50	324.33	24.77	-35.7	-36.9	17.9	0.00e+00	0	61	0	3947888640	41	4276
2026-01-17 15:01:21.54	324.86	24.21	-35.7	-36.9	17.9	0.00e+00	0	61	0	3977248768	41	4279
2026-01-17 15:01:25.58	325.38	23.66	-35.7	-36.9	17.9	0.00e+00	0	61	0	4006608896	41	4274
2026-01-17 15:01:29.62	325.88	23.12	-35.6	-36.8	17.9	0.00e+00	0	61	0	4034920448	41	4230
2026-01-17 15:01:33.66	326.36	22.59	-35.8	-37.0	17.9	0.00e+00	0	61	0	4064280576	41	4298
2026-01-17 15:01:37.70	326.83	22.07	-35.9	-37.1	17.7	0.00e+00	0	61	0	4093640704	41	4372
2026-01-17 15:01:41.74	327.28	21.55	-36.1	-37.4	17.4	0.00e+00	0	61	0	4123000832	41	4494
2026-01-17 15:01:45.78	327.72	21.05	-36.1	-37.4	17.3	0.00e+00	0	61	0	4152360960	41	4535
2026-01-17 15:01:49.82	328.14	20.55	-36.3	-37.6	17.2	0.00e+00	0	61	0	4181721088	42	4355
2026-01-17 15:01:53.85	328.55	20.06	-36.4	-37.7	17.1	0.00e+00	0	61	0	4210032640	42	4401
2026-01-17 15:01:57.90	328.95	19.58	-36.6	-37.9	16.8	0.00e+00	0	61	0	4239392768	42	4528
2026-01-17 15:02:01.94	329.34	19.11	-36.4	-37.8	16.9	0.00e+00	0	61	0	4268752896	42	4446
2026-01-17 15:02:05.98	329.72	18.65	-36.5	-37.8	16.8	0.00e+00	0	61	0	4298113024	42	4493
2026-01-17 15:02:10.02	330.08	18.19	-36.4	-37.7	16.9	0.00e+00	0	61	0	4327473152	42	4409
2026-01-17 15:02:14.06	330.44	17.74	-36.5	-37.8	16.8	0.00e+00	0	61	0	4355784704	42	4484
2026-01-17 15:02:18.09	330.78	17.30	-36.6	-38.0	16.6	0.00e+00	0	61	0	4385144832	42	4569
2026-01-17 15:02:22.13	331.12	16.86	-36.8	-38.2	16.4	0.00e+00	0	61	0	4414504960	43	4416
2026-01-17 15:02:26.17	331.45	16.43	-36.8	-38.2	16.3	0.00e+00	0	61	0	4443865088	43	4400
2026-01-17 15:02:30.21	331.77	16.01	-36.8	-38.2	16.2	0.00e+00	0	61	0	4473225216	43	4435
2026-01-17 15:02:34.25	332.08	15.60	-36.9	-38.4	16.1	0.00e+00	0	61	0	4501536768	43	4509
2026-01-17 15:02:38.29	332.38	15.19	-37.1	-38.6	15.8	0.00e+00	0	61	0	4530896896	43	4612
2026-01-17 15:02:42.33	332.67	14.78	-37.2	-38.7	15.7	0.00e+00	0	61	0	4560257024	43	4653
2026-01-17 15:02:46.37	332.96	14.39	-37.5	-39.0	15.5	0.00e+00	0	61	0	4589617152	44	4590
2026-01-17 15:02:50.41	333.24	14.00	-37.5	-39.1	15.4	0.00e+00	0	61	0	4618977280	44	4611
2026-01-17 15:02:54.45	333.52	13.61	-37.5	-39.0	15.4	0.00e+00	0	61	0	4647288832	44	4584
2026-01-17 15:02:58.49	333.78	13.23	-37.6	-39.2	15.1	0.00e+00	0	61	0	4676648960	44	4701
2026-01-17 15:03:02.52	334.04	12.86	-37.7	-39.3	15.0	0.00e+00	0	61	0	4706009088	45	4474
2026-01-17 15:03:06.56	334.30	12.49	-37.7	-39.4	14.9	1.10e-06	0	61	0	4735369216	45	4526
2026-01-17 15:03:10.60	334.55	12.12	-37.9	-39.6	14.6	0.00e+00	0	61	0	4763680768	45	4645
2026-01-17 15:03:14.64	334.79	11.76	-38.2	-40.0	14.2	0.00e+00	0	62	0	4793040896	45	4838
2026-01-17 15:03:18.68	335.03	11.41	-38.2	-40.0	14.0	5.70e-06	0	61	0	4822401024	45	4859
2026-01-17 15:03:22.72	335.26	11.06	-38.2	-40.1	13.9	2.20e-06	0	61	0	4851761152	46	4615
2026-01-17 15:03:26.76	335.49	10.71	-38.4	-40.3	13.6	1.14e-05	0	61	0	4881121280	46	4756
2026-01-17 15:03:30.80	335.71	10.37	-38.4	-40.4	13.5	1.48e-05	0	61	0	4909432832	46	4760
2026-01-17 15:03:34.84	335.93	10.04	-38.5	-40.6	13.2	2.51e-05	0	61	0	4938792960	46	4873
2026-01-17 15:03:38.88	336.14	9.70	-38.4	-40.5	13.2	2.97e-05	0	61	0	4968153088	46	4818
2026-01-17 15:03:42.93	336.35	9.37	-38.7	-40.8	12.7	6.86e-05	0	61	0	4997513216	47	4757
2026-01-17 15:03:46.97	336.56	9.05	-38.5	-40.6	12.9	5.26e-05	0	61	0	5026873344	47	4630
2026-01-17 15:03:51.01	336.76	8.73	-38.6	-40.7	12.7	8.58e-05	0	61	0	5056233472	47	4691
2026-01-17 15:03:55.05	336.96	8.41	-38.7	-41.0	12.4	1.96e-04	0	61	0	5084545024	47	4829
2026-01-17 15:03:59.08	337.15	8.10	-38.5	-40.8	12.4	1.52e-04	0	61	0	5113905152	47	4716
2026-01-17 15:04:03.13	337.34	7.79	-45.2	-56.2	3.8	8.47e-01	0	61	104	5125439488	59	13957
2026-01-17 15:04:07.17	337.52	7.49	-45.5	-56.9	3.8	8.46e-01	0	62	104	5125439488	60	14280
2026-01-17 15:04:11.22	337.71	7.18	-45.6	-57.0	3.8	8.46e-01	0	61	104	5125439488	60	14374
2026-01-17 15:04:15.26	337.89	6.88	-45.6	-57.0	3.8	8.46e-01	0	61	104	5125439488	60	14395
2026-01-17 15:04:19.30	338.06	6.59	-45.5	-56.9	3.8	8.45e-01	0	62	104	5125439488	60	14250
2026-01-17 15:04:23.34	338.23	6.30	-45.5	-56.9	3.8	8.46e-01	0	61	104	5125439488	60	14220
2026-01-17 15:04:27.38	338.40	6.01	-45.5	-56.8	3.8	8.46e-01	0	61	104	5125439488	60	14196
2026-01-17 15:04:31.42	338.57	5.72	-45.5	-56.8	3.8	8.45e-01	0	61	104	5125439488	60	14198
2026-01-17 15:04:35.47	338.73	5.44	-45.5	-56.8	3.8	8.46e-01	0	61	104	5125439488	60	14184
2026-01-17 15:04:39.51	338.90	5.16	-45.4	-56.8	3.8	8.46e-01	0	62	104	5125439488	60	14134
2026-01-17 15:04:43.55	339.05	4.88	-45.5	-56.8	3.8	8.47e-01	0	62	104	5125439488	60	14160
2026-01-17 15:04:47.59	339.21	4.60	-45.5	-56.8	3.8	8.45e-01	0	62	104	5125439488	60	14156
2026-01-17 15:04:51.63	339.36	4.33	-45.5	-56.8	3.8	8.47e-01	0	62	104	5125439488	60	14085
2026-01-17 15:04:55.68	339.51	4.06	-45.5	-56.8	3.8	8.45e-01	0	62	104	5125439488	60	14059
2026-01-17 15:04:59.72	339.66	3.79	-45.4	-56.8	3.8	8.46e-01	0	62	104	5125439488	60	14072
2026-01-17 15:05:03.76	339.81	3.53	-45.4	-56.8	3.8	8.46e-01	0	61	104	5125439488	60	14124
2026-01-17 15:05:07.81	339.95	3.27	-45.3	-56.8	3.8	8.46e-01	0	61	104	5125439488	60	14065
2026-01-17 15:05:11.85	340.09	3.01	-45.5	-56.8	3.8	8.48e-01	0	62	104	5125439488	60	14121
2026-01-17 15:05:15.89	340.23	2.75	-45.1	-56.8	3.8	8.45e-01	0	62	104	5125439488	60	14126
2026-01-17 15:05:19.94	340.37	2.49	-45.3	-56.8	3.8	8.45e-01	0	62	104	5125439488	60	14172
2026-01-17 15:05:23.98	340.50	2.24	-45.4	-56.8	3.8	8.45e-01	0	61	104	5125439488	60	14110
2026-01-17 15:05:28.03	340.64	1.99	-45.4	-56.8	3.8	8.45e-01	0	62	104	5125439488	60	14131

#Closed at: 2026-01-17 15:05:29
#Recorded file [5125 MB]: D:/lorett/data/31039_260117_175115.dat