passes_logs/2026/01/17/R2.0S_Moscow/R2.0S_Moscow__20260117_050044_FENGYUN_3E_rec.log

#Pass ID: 20260117_050044_FENGYUN 3E
#Satellite: FENGYUN 3E
#Configuration: FENGYUN 3E
#almurnet v.1.7.20251203
#Start time: 2026-01-17 05:00:46

#Version: 2.2.20231116
#Station: R2.0S_Moscow
#Location: 37.707566 lon 55.798166 lat
#TLE: 1 49008U 21062A   26016.27412410  .00000434  00000+0  22502-3 0  9992
#TLE: 2 49008  98.7486  21.3880 0002096 134.9721 225.1626 14.19886506235025

#Time	Az	El	Level	Level2	SNR	BER	BlckErr	Temp	State	Recorded	gain1	gain2
2026-01-17 05:00:46.36	12.00	2.09	-40.3	-51.1	3.8	8.46e-01	0	51	0	0	51	12286
2026-01-17 05:00:50.40	11.83	2.34	-40.2	-51.1	3.8	8.47e-01	0	52	104	0	51	12261
2026-01-17 05:00:54.45	11.66	2.59	-40.2	-51.1	3.8	8.47e-01	0	52	104	0	51	12307
2026-01-17 05:00:58.49	11.48	2.84	-40.2	-51.1	3.8	8.47e-01	0	53	104	0	51	12277
2026-01-17 05:01:02.54	11.30	3.09	-40.2	-51.1	3.8	8.46e-01	0	53	104	0	51	12249
2026-01-17 05:01:06.58	11.12	3.35	-40.2	-51.1	3.8	8.47e-01	0	53	104	0	51	12301
2026-01-17 05:01:10.62	10.94	3.61	-40.2	-51.1	3.8	8.46e-01	0	53	104	0	51	12266
2026-01-17 05:01:14.67	10.75	3.87	-40.2	-51.1	3.8	8.46e-01	0	54	104	0	51	12241
2026-01-17 05:01:18.71	10.56	4.13	-40.2	-51.1	3.8	8.46e-01	0	54	104	0	51	12253
2026-01-17 05:01:22.76	10.36	4.39	-40.2	-51.1	3.8	8.46e-01	0	54	104	0	51	12242
2026-01-17 05:01:26.80	10.16	4.66	-40.2	-51.0	3.8	8.46e-01	0	54	104	0	51	12234
2026-01-17 05:01:30.84	9.95	4.93	-40.2	-51.1	3.8	8.45e-01	0	55	104	0	51	12252
2026-01-17 05:01:34.88	9.75	5.20	-40.2	-51.1	3.8	8.47e-01	0	55	104	0	51	12272
2026-01-17 05:01:38.93	9.53	5.47	-40.2	-51.1	3.8	8.47e-01	0	55	104	0	51	12237
2026-01-17 05:01:42.97	9.32	5.75	-40.2	-51.1	3.8	8.45e-01	0	55	104	0	51	12261
2026-01-17 05:01:47.02	9.09	6.03	-40.2	-51.1	3.8	8.46e-01	0	56	104	0	51	12245
2026-01-17 05:01:51.06	8.87	6.31	-40.2	-51.0	3.8	8.46e-01	0	56	104	0	51	12184
2026-01-17 05:01:55.10	8.64	6.59	-40.2	-51.0	3.8	8.46e-01	0	56	104	0	51	12233
2026-01-17 05:01:59.15	8.40	6.88	-40.2	-51.0	3.8	8.46e-01	0	56	104	0	51	12224
2026-01-17 05:02:03.19	8.16	7.17	-40.2	-51.1	3.8	8.47e-01	0	56	104	0	51	12247
2026-01-17 05:02:07.23	7.91	7.46	-40.2	-51.0	3.8	8.46e-01	0	56	104	0	51	12231
2026-01-17 05:02:11.28	7.66	7.75	-40.2	-51.0	3.8	8.47e-01	0	57	104	0	51	12180
2026-01-17 05:02:15.32	7.41	8.05	-40.2	-51.1	3.8	8.47e-01	0	57	104	0	51	12235
2026-01-17 05:02:19.36	7.14	8.35	-40.3	-51.2	3.8	8.46e-01	0	57	104	0	51	12407
2026-01-17 05:02:23.39	6.88	8.65	-40.4	-51.2	3.8	8.46e-01	0	57	104	0	51	12434
2026-01-17 05:02:27.43	6.60	8.96	-40.4	-51.1	3.8	8.46e-01	0	57	104	0	51	12359
2026-01-17 05:02:31.48	6.32	9.27	-40.4	-51.2	3.8	8.47e-01	0	57	104	0	51	12407
2026-01-17 05:02:35.52	6.03	9.58	-40.4	-51.2	3.8	8.46e-01	0	57	104	0	51	12465
2026-01-17 05:02:39.56	5.74	9.90	-40.4	-51.3	3.8	8.45e-01	0	58	104	0	51	12540
2026-01-17 05:02:43.60	5.44	10.22	-40.2	-51.0	3.8	8.45e-01	0	58	104	0	51	12225
2026-01-17 05:02:47.64	5.13	10.54	-40.3	-51.1	3.8	8.47e-01	0	58	104	0	51	12306
2026-01-17 05:02:51.68	4.82	10.86	-40.7	-51.5	3.8	8.47e-01	0	58	104	0	51	12829
2026-01-17 05:02:55.72	4.50	11.19	-40.6	-51.4	3.8	8.47e-01	0	58	104	0	52	12033
2026-01-17 05:02:59.76	4.17	11.53	-40.5	-51.4	3.8	8.47e-01	0	58	104	0	51	12711
2026-01-17 05:03:03.80	3.83	11.86	-40.8	-51.6	3.8	8.47e-01	0	58	104	0	52	12280
2026-01-17 05:03:07.84	3.48	12.20	-40.7	-51.6	3.8	8.47e-01	0	58	104	0	52	12302
2026-01-17 05:03:11.87	3.13	12.55	-40.7	-51.4	3.8	8.46e-01	0	58	104	0	52	12079
2026-01-17 05:03:15.92	2.77	12.89	-40.9	-51.5	3.8	8.47e-01	0	59	104	0	52	12141
2026-01-17 05:03:19.96	2.39	13.25	-41.6	-51.7	3.8	7.60e-01	0	59	104	7340032	52	12518
2026-01-17 05:03:24.00	2.01	13.60	-39.0	-41.8	10.8	2.91e-03	0	59	0	29360128	49	4724
2026-01-17 05:03:28.03	1.62	13.96	-38.1	-40.4	12.2	2.09e-04	0	59	0	58720256	47	4528
2026-01-17 05:03:32.07	1.22	14.32	-37.8	-39.9	12.8	4.80e-05	0	59	0	88080384	46	4541
2026-01-17 05:03:36.11	0.81	14.69	-37.2	-38.9	14.1	9.10e-06	0	59	0	117440512	45	4291
2026-01-17 05:03:40.15	0.39	15.06	-37.7	-39.6	14.0	0.00e+00	0	59	0	146800640	44	4892
2026-01-17 05:03:44.19	359.96	15.44	-37.4	-39.2	14.6	0.00e+00	0	59	0	176160768	45	4399
2026-01-17 05:03:48.23	359.51	15.82	-37.2	-38.8	15.0	0.00e+00	0	59	0	204472320	44	4473
2026-01-17 05:03:52.27	359.05	16.20	-37.1	-38.7	15.1	1.10e-06	0	59	0	233832448	44	4415
2026-01-17 05:03:56.31	358.59	16.59	-36.9	-38.4	15.3	0.00e+00	0	60	0	263192576	44	4291
2026-01-17 05:04:00.35	358.10	16.98	-36.4	-37.9	15.5	0.00e+00	0	59	0	292552704	43	4280
2026-01-17 05:04:04.39	357.61	17.38	-36.4	-38.0	15.3	0.00e+00	0	59	0	321912832	43	4295
2026-01-17 05:04:08.43	357.10	17.78	-36.1	-37.7	15.5	0.00e+00	0	59	0	350224384	42	4397
2026-01-17 05:04:12.47	356.58	18.18	-36.4	-38.0	14.8	1.10e-06	0	60	0	379584512	42	4590
2026-01-17 05:04:16.51	356.04	18.59	-39.2	-42.1	10.1	2.89e-03	0	60	0	408944640	47	5513
2026-01-17 05:04:20.54	355.49	19.00	-41.4	-48.4	4.5	7.94e-01	0	60	0	433061888	52	8483
2026-01-17 05:04:24.58	354.92	19.42	-41.3	-48.9	4.3	8.35e-01	0	60	0	433061888	52	9047
2026-01-17 05:04:28.62	354.34	19.84	-41.5	-49.1	4.3	8.35e-01	0	60	0	433061888	52	9178
2026-01-17 05:04:32.66	353.74	20.27	-41.2	-46.9	5.4	7.30e-01	0	60	0	433061888	52	7186
2026-01-17 05:04:36.69	353.12	20.69	-40.6	-44.7	7.6	1.04e-01	0	60	0	459276288	52	5576
2026-01-17 05:04:40.73	352.49	21.13	-39.5	-42.4	10.3	8.35e-03	0	60	0	488636416	50	4763
2026-01-17 05:04:44.77	351.83	21.56	-36.7	-38.5	14.3	2.20e-06	0	60	0	517996544	44	4304
2026-01-17 05:04:48.81	351.16	22.00	-35.3	-36.8	16.0	0.00e+00	0	60	0	547356672	41	4215
2026-01-17 05:04:52.85	350.46	22.45	-35.6	-37.1	15.9	0.00e+00	0	60	0	576716800	41	4344
2026-01-17 05:04:56.89	349.75	22.89	-36.2	-37.7	15.8	0.00e+00	0	60	0	605028352	42	4435
2026-01-17 05:05:00.93	349.02	23.34	-35.8	-37.2	16.7	0.00e+00	0	60	0	634388480	42	4147
2026-01-17 05:05:04.97	348.26	23.79	-35.8	-37.2	16.9	0.00e+00	0	60	0	663748608	42	4165
2026-01-17 05:05:09.01	347.48	24.25	-35.6	-36.9	17.4	0.00e+00	0	60	0	693108736	42	4013
2026-01-17 05:05:13.04	346.68	24.70	-35.4	-36.6	17.7	0.00e+00	0	60	0	722468864	41	4120
2026-01-17 05:05:17.08	345.85	25.16	-35.4	-36.6	17.8	0.00e+00	0	60	0	750780416	41	4127
2026-01-17 05:05:21.12	345.00	25.62	-35.6	-36.9	17.6	0.00e+00	0	60	0	780140544	41	4253
2026-01-17 05:05:25.16	344.12	26.08	-35.6	-36.9	17.7	0.00e+00	0	60	0	809500672	41	4254
2026-01-17 05:05:29.20	343.22	26.53	-35.5	-36.7	17.9	0.00e+00	0	60	0	838860800	41	4179
2026-01-17 05:05:33.23	342.29	26.99	-35.4	-36.6	18.1	0.00e+00	0	60	0	868220928	41	4133
2026-01-17 05:05:37.27	341.33	27.45	-35.5	-36.7	18.0	0.00e+00	0	60	0	897581056	41	4191
2026-01-17 05:05:41.31	340.35	27.91	-35.6	-36.8	18.0	0.00e+00	0	60	0	925892608	41	4194
2026-01-17 05:05:45.35	339.33	28.36	-35.6	-36.8	18.0	0.00e+00	0	60	0	955252736	41	4215
2026-01-17 05:05:49.38	338.29	28.81	-35.5	-36.7	18.2	0.00e+00	0	60	0	984612864	41	4147
2026-01-17 05:05:53.42	337.22	29.26	-35.2	-36.4	18.5	0.00e+00	0	61	0	1013972992	41	4026
2026-01-17 05:05:57.46	336.11	29.71	-35.1	-36.2	18.7	0.00e+00	0	60	0	1043333120	40	4156
2026-01-17 05:06:01.50	334.98	30.14	-35.2	-36.4	18.6	0.00e+00	0	60	0	1071644672	40	4256
2026-01-17 05:06:05.54	333.81	30.58	-35.1	-36.2	18.7	0.00e+00	0	61	0	1101004800	40	4188
2026-01-17 05:06:09.58	332.61	31.00	-35.2	-36.4	18.6	0.00e+00	0	61	0	1130364928	40	4252
2026-01-17 05:06:13.61	331.38	31.41	-35.0	-36.0	18.9	0.00e+00	0	60	0	1159725056	40	4097
2026-01-17 05:06:17.65	330.12	31.82	-34.9	-36.0	19.0	0.00e+00	0	60	0	1189085184	40	4057
2026-01-17 05:06:21.69	328.82	32.22	-35.0	-36.1	18.8	0.00e+00	0	61	0	1217396736	40	4134
2026-01-17 05:06:25.74	327.49	32.60	-35.0	-36.1	18.9	0.00e+00	0	60	0	1246756864	40	4127
2026-01-17 05:06:29.78	326.13	32.97	-34.9	-36.0	19.0	0.00e+00	0	60	0	1276116992	40	4057
2026-01-17 05:06:33.81	324.75	33.33	-34.6	-35.6	19.3	0.00e+00	0	60	0	1305477120	40	3910
2026-01-17 05:06:37.85	323.33	33.67	-34.9	-36.0	19.0	0.00e+00	0	61	0	1334837248	40	4085
2026-01-17 05:06:41.89	321.88	33.99	-35.0	-36.1	18.9	0.00e+00	0	61	0	1363148800	40	4117
2026-01-17 05:06:45.93	320.40	34.30	-34.8	-35.9	19.2	0.00e+00	0	61	0	1392508928	40	4007
2026-01-17 05:06:49.97	318.89	34.59	-34.7	-35.7	19.3	0.00e+00	0	61	0	1421869056	40	3950
2026-01-17 05:06:54.01	317.36	34.85	-35.1	-36.3	18.8	0.00e+00	0	61	0	1451229184	40	4194
2026-01-17 05:06:58.05	315.81	35.10	-34.9	-35.9	19.0	0.00e+00	0	61	0	1480589312	40	4049
2026-01-17 05:07:02.10	314.22	35.32	-34.9	-35.9	19.0	0.00e+00	0	61	0	1508900864	40	4050
2026-01-17 05:07:06.14	312.62	35.52	-35.1	-36.2	18.9	0.00e+00	0	61	0	1538260992	40	4154
2026-01-17 05:07:10.18	311.00	35.69	-34.7	-35.7	19.3	0.00e+00	0	61	0	1567621120	40	3948
2026-01-17 05:07:14.22	309.37	35.84	-34.7	-35.8	19.3	0.00e+00	0	61	0	1596981248	40	3964
2026-01-17 05:07:18.25	307.72	35.96	-34.8	-35.9	19.1	0.00e+00	0	61	0	1626341376	40	4027
2026-01-17 05:07:22.29	306.06	36.06	-34.6	-35.6	19.4	0.00e+00	0	61	0	1654652928	39	4130
2026-01-17 05:07:26.33	304.39	36.13	-34.8	-35.9	19.2	0.00e+00	0	60	0	1684013056	39	4255
2026-01-17 05:07:30.37	302.72	36.17	-34.8	-35.9	19.2	0.00e+00	0	61	0	1713373184	39	4244
2026-01-17 05:07:34.41	301.04	36.18	-34.8	-35.9	19.2	0.00e+00	0	61	0	1742733312	39	4248
2026-01-17 05:07:38.44	299.37	36.16	-34.8	-35.9	19.1	0.00e+00	0	61	0	1772093440	39	4286
2026-01-17 05:07:42.48	297.69	36.12	-34.8	-35.8	19.2	0.00e+00	0	61	0	1800404992	39	4241
2026-01-17 05:07:46.53	296.02	36.05	-34.9	-36.0	19.0	0.00e+00	0	61	0	1829765120	39	4338
2026-01-17 05:07:50.57	294.36	35.95	-34.8	-35.9	19.2	0.00e+00	0	61	0	1859125248	39	4244
2026-01-17 05:07:54.61	292.71	35.83	-34.9	-36.0	19.1	0.00e+00	0	61	0	1888485376	39	4327
2026-01-17 05:07:58.65	291.08	35.67	-34.6	-35.7	19.4	0.00e+00	0	61	0	1917845504	39	4152
2026-01-17 05:08:02.69	289.46	35.50	-34.6	-35.7	19.4	0.00e+00	0	61	0	1947205632	39	4168
2026-01-17 05:08:06.73	287.86	35.30	-34.6	-35.7	19.4	0.00e+00	0	61	0	1975517184	39	4150
2026-01-17 05:08:10.77	286.28	35.07	-34.7	-35.8	19.2	0.00e+00	0	61	0	2004877312	39	4226
2026-01-17 05:08:14.81	284.72	34.82	-34.5	-35.6	19.5	0.00e+00	0	61	0	2034237440	39	4116
2026-01-17 05:08:18.85	283.19	34.55	-34.5	-35.5	19.5	0.00e+00	0	61	0	2063597568	39	4089
2026-01-17 05:08:22.89	281.68	34.26	-34.7	-35.8	19.3	0.00e+00	0	61	0	2092957696	39	4202
2026-01-17 05:08:26.93	280.20	33.95	-34.8	-35.9	19.2	0.00e+00	0	61	0	2121269248	39	4245
2026-01-17 05:08:30.97	278.75	33.63	-34.6	-35.7	19.3	0.00e+00	0	61	0	2150629376	39	4170
2026-01-17 05:08:35.01	277.33	33.28	-34.9	-36.0	19.1	0.00e+00	0	61	0	2179989504	39	4292
2026-01-17 05:08:39.04	275.94	32.92	-34.6	-35.7	19.3	0.00e+00	0	61	0	2209349632	39	4172
2026-01-17 05:08:43.08	274.58	32.55	-34.5	-35.5	19.5	0.00e+00	0	61	0	2238709760	39	4076
2026-01-17 05:08:47.12	273.26	32.16	-34.7	-35.8	19.2	0.00e+00	0	61	0	2268069888	39	4218
2026-01-17 05:08:51.16	271.96	31.77	-35.2	-36.3	18.8	0.00e+00	0	61	0	2296381440	39	4467
2026-01-17 05:08:55.20	270.70	31.36	-35.0	-36.1	18.8	0.00e+00	0	61	0	2325741568	40	4129
2026-01-17 05:08:59.24	269.46	30.94	-35.0	-36.1	18.9	0.00e+00	0	61	0	2355101696	40	4115
2026-01-17 05:09:03.28	268.26	30.51	-35.3	-36.4	18.5	0.00e+00	0	61	0	2384461824	40	4281
2026-01-17 05:09:07.32	267.10	30.08	-35.1	-36.2	18.8	0.00e+00	0	61	0	2413821952	40	4161
2026-01-17 05:09:11.36	265.96	29.64	-34.9	-36.0	19.0	0.00e+00	0	61	0	2442133504	40	4065
2026-01-17 05:09:15.40	264.85	29.19	-35.0	-36.2	18.8	0.00e+00	0	61	0	2471493632	40	4158
2026-01-17 05:09:19.44	263.78	28.74	-35.1	-36.2	18.7	0.00e+00	0	61	0	2500853760	40	4185
2026-01-17 05:09:23.48	262.73	28.29	-34.7	-35.8	19.1	0.00e+00	0	61	0	2530213888	40	3969
2026-01-17 05:09:27.53	261.71	27.83	-35.0	-36.1	18.8	0.00e+00	0	61	0	2559574016	40	4122
2026-01-17 05:09:31.56	260.73	27.37	-35.0	-36.1	18.8	0.00e+00	0	61	0	2588934144	40	4135
2026-01-17 05:09:35.60	259.77	26.91	-35.2	-36.3	18.6	0.00e+00	0	61	0	2617245696	40	4226
2026-01-17 05:09:39.64	258.84	26.45	-35.2	-36.4	18.5	0.00e+00	0	61	0	2646605824	40	4259
2026-01-17 05:09:43.67	257.93	25.99	-35.2	-36.3	18.6	0.00e+00	0	61	0	2675965952	40	4207
2026-01-17 05:09:47.71	257.06	25.52	-35.1	-36.2	18.7	0.00e+00	0	61	0	2705326080	40	4168
2026-01-17 05:09:51.75	256.20	25.06	-35.2	-36.4	18.5	0.00e+00	0	61	0	2734686208	40	4254
2026-01-17 05:09:55.79	255.37	24.60	-35.3	-36.4	18.4	0.00e+00	0	61	0	2762997760	40	4279
2026-01-17 05:09:59.82	254.57	24.15	-35.0	-36.1	18.8	0.00e+00	0	61	0	2792357888	40	4105
2026-01-17 05:10:03.87	253.79	23.69	-35.3	-36.5	18.4	0.00e+00	0	61	0	2821718016	40	4298
2026-01-17 05:10:07.90	253.03	23.24	-35.5	-36.7	18.2	0.00e+00	0	61	0	2851078144	40	4402
2026-01-17 05:10:11.95	252.29	22.79	-35.6	-36.8	18.1	0.00e+00	0	61	0	2879389696	40	4456
2026-01-17 05:10:15.98	251.58	22.34	-35.9	-37.2	17.7	0.00e+00	0	61	0	2908749824	41	4398
2026-01-17 05:10:20.02	250.88	21.90	-35.6	-36.8	18.0	0.00e+00	0	61	0	2938109952	41	4219
2026-01-17 05:10:24.06	250.21	21.45	-35.6	-36.8	18.0	0.00e+00	0	61	0	2967470080	41	4242
2026-01-17 05:10:28.10	249.55	21.02	-35.8	-37.0	17.8	0.00e+00	0	61	0	2995781632	41	4332
2026-01-17 05:10:32.13	248.91	20.58	-35.8	-37.0	17.8	0.00e+00	0	61	0	3025141760	41	4322
2026-01-17 05:10:36.17	248.29	20.15	-35.9	-37.1	17.7	0.00e+00	0	61	0	3054501888	41	4360
2026-01-17 05:10:40.21	247.69	19.73	-36.3	-37.7	17.1	0.00e+00	0	61	0	3083862016	42	4401
2026-01-17 05:10:44.24	247.11	19.30	-36.4	-37.7	17.1	0.00e+00	0	61	0	3113222144	42	4401
2026-01-17 05:10:48.28	246.54	18.89	-36.3	-37.6	17.1	0.00e+00	0	61	0	3142582272	42	4376
2026-01-17 05:10:52.31	245.98	18.47	-36.2	-37.5	17.2	0.00e+00	0	61	0	3170893824	42	4324
2026-01-17 05:10:56.35	245.44	18.06	-36.6	-37.9	16.8	0.00e+00	0	61	0	3200253952	42	4536
2026-01-17 05:11:00.38	244.92	17.66	-37.0	-38.4	16.4	0.00e+00	0	61	0	3229614080	43	4510
2026-01-17 05:11:04.42	244.41	17.25	-36.8	-38.2	16.4	0.00e+00	0	61	0	3258974208	43	4439
2026-01-17 05:11:08.46	243.91	16.86	-36.4	-37.8	16.9	0.00e+00	0	61	0	3288334336	43	4196
2026-01-17 05:11:12.50	243.43	16.46	-36.7	-38.1	16.6	0.00e+00	0	61	0	3316645888	43	4349
2026-01-17 05:11:16.54	242.96	16.07	-37.1	-38.5	16.1	0.00e+00	0	61	0	3346006016	43	4587
2026-01-17 05:11:20.58	242.50	15.69	-37.2	-38.6	16.0	0.00e+00	0	61	0	3375366144	43	4636
2026-01-17 05:11:24.61	242.05	15.31	-37.3	-38.8	16.0	0.00e+00	0	61	0	3404726272	44	4453
2026-01-17 05:11:28.65	241.62	14.93	-37.3	-38.8	16.0	0.00e+00	0	61	0	3434086400	44	4482
2026-01-17 05:11:32.70	241.19	14.56	-37.5	-39.0	15.8	0.00e+00	0	61	0	3463446528	44	4574
2026-01-17 05:11:36.73	240.78	14.19	-37.4	-38.9	15.8	0.00e+00	0	61	0	3491758080	44	4519
2026-01-17 05:11:40.77	240.37	13.83	-37.2	-38.6	16.1	0.00e+00	0	61	0	3521118208	44	4388
2026-01-17 05:11:44.81	239.98	13.47	-37.4	-38.9	15.9	0.00e+00	0	61	0	3550478336	44	4499
2026-01-17 05:11:48.85	239.59	13.11	-37.7	-39.2	15.5	0.00e+00	0	61	0	3579838464	44	4678
2026-01-17 05:11:52.89	239.22	12.76	-37.9	-39.5	15.2	0.00e+00	0	61	0	3608150016	45	4548
2026-01-17 05:11:56.93	238.85	12.41	-38.1	-39.7	14.9	0.00e+00	0	61	0	3637510144	45	4703
2026-01-17 05:12:00.97	238.50	12.07	-38.0	-39.6	15.0	0.00e+00	0	61	0	3666870272	45	4626
2026-01-17 05:12:05.01	238.15	11.72	-38.1	-39.8	14.8	0.00e+00	0	61	0	3696230400	45	4749
2026-01-17 05:12:09.05	237.81	11.39	-38.0	-39.6	15.0	0.00e+00	0	61	0	3725590528	46	4376
2026-01-17 05:12:13.09	237.47	11.05	-37.9	-39.5	15.0	0.00e+00	0	61	0	3754950656	46	4337
2026-01-17 05:12:17.14	237.15	10.72	-37.9	-39.5	15.0	1.10e-06	0	61	0	3783262208	46	4323
2026-01-17 05:12:21.17	236.83	10.40	-37.8	-39.4	15.1	0.00e+00	0	61	0	3812622336	46	4280
2026-01-17 05:12:25.21	236.52	10.07	-38.0	-39.7	14.8	0.00e+00	0	61	0	3841982464	46	4394
2026-01-17 05:12:29.25	236.22	9.75	-38.3	-40.0	14.5	1.10e-06	0	61	0	3871342592	46	4579
2026-01-17 05:12:33.29	235.92	9.44	-38.7	-40.6	13.8	4.50e-06	0	61	0	3899654144	47	4625
2026-01-17 05:12:37.33	235.63	9.12	-39.1	-41.1	13.2	2.17e-05	0	61	0	3929014272	47	4915
2026-01-17 05:12:41.37	235.35	8.81	-39.3	-41.4	13.1	4.80e-05	0	61	0	3958374400	48	4785
2026-01-17 05:12:45.41	235.07	8.51	-39.4	-41.5	12.9	3.89e-05	0	61	0	3987734528	48	4850
2026-01-17 05:12:49.44	234.80	8.20	-39.2	-41.2	13.2	2.74e-05	0	61	0	4017094656	48	4704
2026-01-17 05:12:53.48	234.53	7.90	-45.0	-55.9	3.8	8.46e-01	0	61	104	4040163328	59	13568
2026-01-17 05:12:57.53	234.27	7.60	-45.5	-56.9	3.8	8.47e-01	0	61	104	4040163328	60	14349
2026-01-17 05:13:01.57	234.02	7.31	-45.7	-57.1	3.8	8.46e-01	0	61	104	4040163328	60	14553
2026-01-17 05:13:05.61	233.77	7.02	-45.6	-57.0	3.8	8.45e-01	0	61	104	4040163328	60	14389
2026-01-17 05:13:09.65	233.52	6.73	-45.6	-56.9	3.8	8.46e-01	0	61	104	4040163328	60	14306
2026-01-17 05:13:13.70	233.28	6.44	-45.6	-56.9	3.8	8.47e-01	0	61	104	4040163328	60	14326
2026-01-17 05:13:17.74	233.05	6.16	-45.5	-56.9	3.8	8.45e-01	0	61	104	4040163328	60	14269
2026-01-17 05:13:21.78	232.82	5.88	-45.5	-56.8	3.8	8.46e-01	0	61	104	4040163328	60	14198
2026-01-17 05:13:25.82	232.59	5.60	-45.5	-56.9	3.8	8.47e-01	0	61	104	4040163328	60	14233
2026-01-17 05:13:29.87	232.37	5.32	-45.5	-56.9	3.8	8.46e-01	0	61	104	4040163328	60	14217
2026-01-17 05:13:33.91	232.15	5.05	-45.5	-56.8	3.8	8.46e-01	0	62	104	4040163328	60	14206
2026-01-17 05:13:37.96	231.94	4.78	-45.5	-56.9	3.8	8.46e-01	0	62	104	4040163328	60	14236
2026-01-17 05:13:42.00	231.73	4.51	-45.5	-56.8	3.8	8.46e-01	0	62	104	4040163328	60	14202
2026-01-17 05:13:46.04	231.53	4.24	-45.5	-56.8	3.8	8.47e-01	0	61	104	4040163328	60	14189
2026-01-17 05:13:50.09	231.33	3.97	-45.5	-56.9	3.8	8.46e-01	0	61	104	4040163328	60	14282
2026-01-17 05:13:54.13	231.13	3.71	-45.5	-56.8	3.8	8.45e-01	0	62	104	4040163328	60	14206
2026-01-17 05:13:58.18	230.94	3.45	-45.5	-56.8	3.8	8.46e-01	0	62	104	4040163328	60	14199
2026-01-17 05:14:02.22	230.75	3.19	-45.5	-56.8	3.8	8.46e-01	0	62	104	4040163328	60	14199
2026-01-17 05:14:06.26	230.56	2.94	-45.5	-56.8	3.8	8.46e-01	0	62	104	4040163328	60	14148
2026-01-17 05:14:10.31	230.38	2.69	-45.5	-56.8	3.8	8.45e-01	0	61	104	4040163328	60	14122
2026-01-17 05:14:14.35	230.20	2.43	-45.2	-56.8	3.8	8.46e-01	0	62	104	4040163328	60	14069
2026-01-17 05:14:18.39	230.02	2.18	-45.5	-56.8	3.8	8.45e-01	0	61	104	4040163328	60	14193

#Closed at: 2026-01-17 05:14:21
#Recorded file [4040 MB]: D:/lorett/data/31039_260117_080046.dat