passes_logs/2026/01/17/R2.0S_Moscow/R2.0S_Moscow__20260117_084813_SUOMI_NPP_rec.log

#Pass ID: 20260117_084813_SUOMI NPP
#Satellite: SUOMI NPP
#Configuration: NPP
#almurnet v.1.7.20251203
#Start time: 2026-01-17 08:48:15

#Version: 2.2.20231116
#Station: R2.0S_Moscow
#Location: 37.707566 lon 55.798166 lat
#TLE: 1 37849U 11061A   26016.23176763  .00000061  00000+0  49926-4 0  9990
#TLE: 2 37849  98.7812 318.2698 0002434  61.5135 298.6286 14.19525545736883

#Time	Az	El	Level	Level2	SNR	BER	BlckErr	Temp	State	Recorded	gain1	gain2
2026-01-17 08:48:15.35	125.74	2.10	-23.0	-42.1	3.6	1.50e+00	0	51	0	0	19	29111
2026-01-17 08:48:19.39	125.55	2.34	-23.5	-42.7	3.6	1.50e+00	0	52	104	0	19	31104
2026-01-17 08:48:23.43	125.34	2.59	-24.2	-44.3	3.6	1.50e+00	0	52	104	0	20	35608
2026-01-17 08:48:27.47	125.14	2.84	-27.0	-44.2	4.0	1.50e+00	0	52	104	0	22	31161
2026-01-17 08:48:31.52	124.93	3.09	-23.5	-41.1	4.0	1.50e+00	0	53	104	0	21	23179
2026-01-17 08:48:35.56	124.71	3.34	-28.3	-47.0	3.9	1.50e+00	0	53	104	0	22	42963
2026-01-17 08:48:39.61	124.50	3.59	-24.3	-46.8	4.2	1.50e+00	0	53	104	0	24	37448
2026-01-17 08:48:43.65	124.27	3.85	-26.5	-43.2	3.9	1.50e+00	0	53	104	0	22	28013
2026-01-17 08:48:47.69	124.05	4.11	-14.6	-32.1	4.1	1.50e+00	0	53	104	0	0	27412
2026-01-17 08:48:51.74	123.82	4.37	-19.2	-39.4	3.5	1.50e+00	0	54	104	0	16	25530
2026-01-17 08:48:55.78	123.59	4.63	-26.2	-45.0	3.4	1.50e+00	0	54	104	0	20	38479
2026-01-17 08:48:59.82	123.35	4.90	-22.3	-43.0	4.1	1.50e+00	0	54	104	0	23	25682
2026-01-17 08:49:03.87	123.10	5.16	-19.4	-35.3	3.5	1.50e+00	0	54	104	0	12	19861
2026-01-17 08:49:07.91	122.86	5.43	-25.5	-44.8	3.9	1.50e+00	0	55	104	0	21	35584
2026-01-17 08:49:11.95	122.60	5.70	-23.0	-39.9	3.9	1.50e+00	0	55	104	0	18	23981
2026-01-17 08:49:15.99	122.35	5.98	-27.3	-46.0	3.9	1.50e+00	0	55	104	0	23	36225
2026-01-17 08:49:20.04	122.08	6.25	-24.8	-45.8	3.8	1.50e+00	0	55	104	0	23	35543
2026-01-17 08:49:24.08	121.82	6.53	-26.4	-46.3	3.9	1.50e+00	0	55	104	0	21	42295
2026-01-17 08:49:28.12	121.54	6.81	-25.4	-47.4	3.9	1.50e+00	0	55	104	0	24	40294
2026-01-17 08:49:32.16	121.26	7.10	-26.5	-46.2	3.9	1.50e+00	0	56	104	0	23	36988
2026-01-17 08:49:36.21	120.98	7.38	-27.5	-46.9	4.2	1.50e+00	0	56	104	0	25	35788
2026-01-17 08:49:40.25	120.69	7.67	-17.0	-36.1	3.7	1.50e+00	0	56	104	0	15	18505
2026-01-17 08:49:44.29	120.39	7.96	-27.3	-46.7	4.4	1.49e+00	0	56	104	0	24	37167
2026-01-17 08:49:48.33	120.09	8.25	-24.2	-42.3	4.0	1.50e+00	0	56	104	0	23	23789
2026-01-17 08:49:52.37	119.78	8.55	-20.3	-37.8	3.7	1.49e+00	0	56	104	0	14	23653
2026-01-17 08:49:56.41	119.47	8.85	-19.9	-40.2	3.9	1.50e+00	0	56	0	0	18	24783
2026-01-17 08:50:00.45	119.15	9.15	-25.7	-42.1	4.2	1.50e+00	0	57	104	0	23	23308
2026-01-17 08:50:04.49	118.82	9.45	-24.7	-40.7	3.4	1.49e+00	0	57	104	0	17	27808
2026-01-17 08:50:08.53	118.48	9.76	-27.5	-44.3	3.7	1.50e+00	0	57	104	0	24	28145
2026-01-17 08:50:12.57	118.14	10.07	-25.7	-41.8	4.3	1.50e+00	0	57	104	0	22	23763
2026-01-17 08:50:16.61	117.79	10.38	-17.1	-34.9	4.0	1.50e+00	0	57	104	0	19	12773
2026-01-17 08:50:20.65	117.43	10.70	-28.6	-44.9	4.3	1.50e+00	0	57	104	0	30	21408
2026-01-17 08:50:24.69	117.06	11.02	-24.5	-40.1	3.6	1.50e+00	0	57	104	0	13	32891
2026-01-17 08:50:28.72	116.69	11.34	-28.4	-45.9	4.7	1.48e+00	0	57	104	0	38	15215
2026-01-17 08:50:32.77	116.30	11.67	-32.5	-45.1	4.2	1.49e+00	0	57	104	0	28	24669
2026-01-17 08:50:36.81	115.91	11.99	-36.9	-50.4	4.2	1.48e+00	0	57	104	0	39	24049
2026-01-17 08:50:40.85	115.51	12.32	-35.6	-51.5	4.4	1.48e+00	0	58	104	0	43	21608
2026-01-17 08:50:44.89	115.10	12.66	-37.0	-51.8	4.5	1.49e+00	0	58	104	0	44	21135
2026-01-17 08:50:48.93	114.68	13.00	-36.7	-51.8	4.5	1.13e+00	0	58	104	2097152	47	17692
2026-01-17 08:50:52.97	114.25	13.34	-40.2	-51.2	5.6	6.27e-01	0	58	0	7340032	49	14761
2026-01-17 08:50:57.01	113.81	13.68	-42.5	-51.3	6.1	3.51e-01	0	58	0	15728640	55	10616
2026-01-17 08:51:01.05	113.35	14.03	-42.8	-48.6	9.0	9.35e-02	0	58	0	23068672	56	7291
2026-01-17 08:51:05.09	112.89	14.38	-42.7	-48.4	9.1	3.07e-02	0	58	0	30408704	55	7591
2026-01-17 08:51:09.12	112.42	14.73	-41.8	-47.1	10.4	1.89e-02	0	58	0	37748736	55	6535
2026-01-17 08:51:13.16	111.93	15.08	-42.1	-46.6	11.0	2.76e-03	0	58	0	45088768	54	6525
2026-01-17 08:51:17.20	111.44	15.44	-42.2	-46.8	10.9	3.74e-03	0	58	0	53477376	54	6687
2026-01-17 08:51:21.24	110.93	15.81	-42.2	-46.8	10.9	2.11e-03	0	58	0	60817408	54	6657
2026-01-17 08:51:25.28	110.40	16.17	-42.6	-47.8	10.0	7.14e-03	0	58	0	68157440	55	7081
2026-01-17 08:51:29.31	109.87	16.54	-42.7	-47.7	10.2	6.81e-03	0	59	0	75497472	56	6642
2026-01-17 08:51:33.35	109.32	16.91	-42.5	-47.6	10.2	7.62e-03	0	59	0	83886080	55	6905
2026-01-17 08:51:37.39	108.76	17.28	-42.4	-47.2	10.7	3.14e-03	0	59	0	91226112	55	6574
2026-01-17 08:51:41.43	108.18	17.66	-42.4	-47.1	10.7	1.40e-03	0	59	0	98566144	55	6551
2026-01-17 08:51:45.47	107.59	18.04	-42.1	-46.3	11.5	1.16e-03	0	59	0	105906176	55	5967
2026-01-17 08:51:49.51	106.98	18.42	-42.0	-46.2	11.6	4.52e-04	0	59	0	113246208	55	5919
2026-01-17 08:51:53.55	106.36	18.81	-41.9	-46.0	11.9	3.69e-04	0	59	0	121634816	55	5745
2026-01-17 08:51:57.58	105.72	19.20	-42.0	-46.1	11.7	5.35e-04	0	59	0	128974848	55	5855
2026-01-17 08:52:01.62	105.07	19.58	-42.3	-46.7	11.2	1.19e-03	0	59	0	136314880	55	6258
2026-01-17 08:52:05.66	104.39	19.98	-42.2	-46.6	11.3	1.14e-03	0	59	0	143654912	55	6153
2026-01-17 08:52:09.70	103.70	20.37	-42.1	-46.4	11.6	9.87e-04	0	59	0	152043520	55	6025
2026-01-17 08:52:13.74	102.99	20.77	-41.6	-45.2	12.8	7.78e-05	0	59	0	159383552	55	5269
2026-01-17 08:52:17.77	102.27	21.16	-42.0	-46.1	11.9	5.52e-04	0	59	0	166723584	55	5833
2026-01-17 08:52:21.81	101.52	21.56	-42.3	-46.7	11.3	6.91e-04	0	59	0	174063616	55	6213
2026-01-17 08:52:25.85	100.75	21.96	-42.0	-46.1	11.9	3.04e-04	0	59	0	181403648	55	5791
2026-01-17 08:52:29.89	99.97	22.36	-42.3	-46.7	11.3	9.18e-04	0	59	0	189792256	55	6250
2026-01-17 08:52:33.93	99.16	22.76	-42.0	-46.0	12.1	2.04e-04	0	59	0	197132288	55	5734
2026-01-17 08:52:37.97	98.33	23.16	-42.3	-46.6	11.3	1.39e-03	0	59	0	204472320	55	6179
2026-01-17 08:52:42.01	97.48	23.56	-42.3	-46.6	11.3	9.67e-04	0	60	0	211812352	55	6195
2026-01-17 08:52:46.05	96.61	23.96	-42.6	-47.4	10.6	2.18e-03	0	59	0	220200960	55	6752
2026-01-17 08:52:50.09	95.72	24.35	-42.4	-46.8	11.2	1.78e-03	0	60	0	227540992	55	6333
2026-01-17 08:52:54.13	94.80	24.75	-42.1	-46.2	11.9	4.16e-04	0	59	0	234881024	55	5859
2026-01-17 08:52:58.17	93.86	25.14	-41.7	-45.3	12.8	9.68e-05	0	59	0	242221056	55	5332
2026-01-17 08:53:02.21	92.89	25.53	-41.4	-44.7	13.4	2.13e-05	0	59	0	249561088	54	5262
2026-01-17 08:53:06.25	91.90	25.92	-41.7	-45.4	12.7	5.11e-05	0	60	0	257949696	54	5705
2026-01-17 08:53:10.29	90.89	26.30	-42.2	-46.3	11.8	2.50e-04	0	59	0	265289728	54	6343
2026-01-17 08:53:14.33	89.85	26.68	-42.2	-46.2	11.9	7.15e-04	0	59	0	272629760	55	5892
2026-01-17 08:53:18.36	88.79	27.05	-42.2	-46.2	11.9	3.23e-04	0	59	0	279969792	55	5915
2026-01-17 08:53:22.40	87.71	27.42	-42.2	-46.4	11.7	3.75e-04	0	59	0	288358400	55	6025
2026-01-17 08:53:26.44	86.59	27.78	-42.0	-46.3	11.8	4.99e-04	0	60	0	295698432	55	5928
2026-01-17 08:53:30.47	85.46	28.13	-42.4	-47.2	10.9	1.63e-03	0	60	0	303038464	55	6607
2026-01-17 08:53:34.51	84.30	28.47	-43.3	-49.2	9.0	2.28e-02	0	60	0	310378496	57	7434
2026-01-17 08:53:38.55	83.11	28.81	-43.1	-48.4	9.8	1.40e-02	0	60	0	317718528	57	6782
2026-01-17 08:53:42.59	81.90	29.13	-42.5	-46.9	11.4	1.35e-03	0	60	0	326107136	57	5718
2026-01-17 08:53:46.63	80.66	29.44	-42.6	-47.2	11.1	1.14e-03	0	60	0	333447168	56	6265
2026-01-17 08:53:50.67	79.40	29.74	-42.7	-47.5	10.7	2.70e-03	0	60	0	340787200	56	6465
2026-01-17 08:53:54.70	78.12	30.03	-42.6	-47.3	10.9	2.38e-03	0	59	0	348127232	56	6330
2026-01-17 08:53:58.74	76.81	30.31	-42.6	-47.3	11.0	1.65e-03	0	60	0	355467264	56	6322
2026-01-17 08:54:02.78	75.48	30.57	-42.5	-47.0	11.4	6.60e-04	0	60	0	363855872	56	6077
2026-01-17 08:54:06.82	74.14	30.81	-42.6	-47.2	11.1	1.88e-03	0	60	0	371195904	56	6214
2026-01-17 08:54:10.85	72.77	31.04	-42.0	-45.9	12.3	1.40e-04	0	60	0	378535936	55	5711
2026-01-17 08:54:14.89	71.38	31.25	-41.9	-45.8	12.5	1.58e-04	0	60	0	385875968	55	5599
2026-01-17 08:54:18.93	69.98	31.44	-42.6	-47.4	10.7	2.03e-03	0	60	0	394264576	55	6783
2026-01-17 08:54:22.96	68.56	31.62	-42.6	-47.2	11.1	2.09e-03	0	60	0	401604608	56	6261
2026-01-17 08:54:27.00	67.12	31.77	-43.0	-48.2	10.1	6.82e-03	0	60	0	408944640	56	7011
2026-01-17 08:54:31.04	65.68	31.91	-42.3	-46.4	12.0	4.21e-04	0	60	0	416284672	56	5712
2026-01-17 08:54:35.08	64.22	32.03	-42.8	-47.6	10.7	3.02e-03	0	60	0	423624704	56	6568
2026-01-17 08:54:39.11	62.75	32.12	-42.5	-46.8	11.6	6.46e-04	0	60	0	432013312	56	5932
2026-01-17 08:54:43.15	61.27	32.20	-43.1	-48.3	10.1	5.81e-03	0	60	0	439353344	56	7093
2026-01-17 08:54:47.19	59.79	32.25	-43.4	-49.2	9.1	2.52e-02	0	60	0	446693376	57	7423
2026-01-17 08:54:51.24	58.30	32.28	-43.2	-48.5	9.7	1.03e-02	0	60	0	454033408	57	6878
2026-01-17 08:54:55.27	56.82	32.29	-42.5	-46.8	11.6	8.54e-04	0	60	0	462422016	57	5627
2026-01-17 08:54:59.31	55.33	32.28	-42.6	-47.0	11.4	5.59e-04	0	60	0	469762048	56	6131
2026-01-17 08:55:03.35	53.85	32.24	-43.1	-48.2	10.2	9.21e-03	0	60	0	477102080	56	7018
2026-01-17 08:55:07.39	52.37	32.19	-43.1	-48.4	10.0	6.36e-03	0	60	0	484442112	57	6729
2026-01-17 08:55:11.42	50.89	32.11	-42.9	-47.8	10.6	5.77e-03	0	60	0	491782144	57	6305
2026-01-17 08:55:15.46	49.43	32.01	-42.8	-47.5	10.9	2.84e-03	0	60	0	500170752	57	6088
2026-01-17 08:55:19.50	47.97	31.89	-42.8	-47.6	10.8	3.07e-03	0	60	0	507510784	57	6158
2026-01-17 08:55:23.54	46.53	31.75	-42.7	-47.3	11.1	2.05e-03	0	60	0	514850816	57	5974
2026-01-17 08:55:27.58	45.10	31.59	-42.7	-47.3	11.1	3.88e-03	0	60	0	522190848	57	5968
2026-01-17 08:55:31.62	43.68	31.42	-42.8	-47.7	10.7	3.11e-03	0	60	0	530579456	57	6268
2026-01-17 08:55:35.66	42.28	31.22	-42.3	-46.4	11.9	7.10e-04	0	60	0	537919488	56	5721
2026-01-17 08:55:39.70	40.90	31.01	-42.7	-47.3	11.1	1.66e-03	0	60	0	545259520	56	6343
2026-01-17 08:55:43.74	39.54	30.78	-42.9	-47.8	10.6	1.79e-03	0	60	0	552599552	56	6686
2026-01-17 08:55:47.77	38.20	30.53	-43.1	-48.5	9.8	1.02e-02	0	60	0	559939584	57	6819
2026-01-17 08:55:51.81	36.87	30.27	-43.5	-49.5	8.8	2.19e-02	0	60	0	568328192	57	7690
2026-01-17 08:55:55.84	35.58	29.99	-42.8	-47.6	10.8	4.78e-03	0	60	0	575668224	57	6150
2026-01-17 08:55:59.88	34.30	29.70	-43.0	-48.3	10.0	4.89e-03	0	60	0	583008256	57	6653
2026-01-17 08:56:03.91	33.05	29.40	-42.5	-46.8	11.5	1.01e-03	0	61	0	590348288	56	5990
2026-01-17 08:56:07.95	31.82	29.09	-41.7	-45.4	12.9	4.11e-05	0	60	0	598736896	54	5707
2026-01-17 08:56:11.99	30.62	28.77	-42.5	-47.2	11.0	1.23e-03	0	60	0	606076928	55	6596
2026-01-17 08:56:16.03	29.44	28.43	-42.5	-46.9	11.5	2.21e-03	0	60	0	613416960	56	5999
2026-01-17 08:56:20.07	28.28	28.09	-43.2	-48.9	9.4	9.68e-03	0	61	0	620756992	57	7135
2026-01-17 08:56:24.10	27.16	27.74	-43.4	-49.3	8.9	2.59e-02	0	60	0	628097024	57	7525
2026-01-17 08:56:28.14	26.05	27.38	-43.0	-48.1	10.3	7.58e-03	0	61	0	636485632	57	6504
2026-01-17 08:56:32.18	24.97	27.01	-42.6	-47.0	11.4	2.31e-03	0	60	0	643825664	57	5745
2026-01-17 08:56:36.22	23.92	26.64	-41.8	-45.6	12.6	8.39e-05	0	60	0	651165696	55	5472
2026-01-17 08:56:40.25	22.89	26.26	-42.1	-46.1	12.1	2.27e-04	0	60	0	658505728	55	5806
2026-01-17 08:56:44.29	21.89	25.88	-42.2	-46.4	11.8	5.48e-04	0	60	0	665845760	55	6032
2026-01-17 08:56:48.33	20.91	25.50	-42.2	-46.5	11.7	5.48e-04	0	60	0	674234368	55	6069
2026-01-17 08:56:52.37	19.95	25.11	-42.1	-46.2	11.9	4.97e-04	0	61	0	681574400	55	5907
2026-01-17 08:56:56.41	19.02	24.72	-41.2	-44.4	13.7	2.20e-06	0	60	0	688914432	54	5076
2026-01-17 08:57:00.45	18.11	24.32	-41.2	-44.5	13.6	3.00e-06	0	61	0	696254464	53	5449
2026-01-17 08:57:04.49	17.22	23.93	-41.7	-45.5	12.6	9.61e-05	0	60	0	704643072	54	5728
2026-01-17 08:57:08.53	16.36	23.53	-41.2	-44.4	13.6	5.30e-06	0	61	0	711983104	54	5091
2026-01-17 08:57:12.56	15.52	23.13	-41.4	-44.9	13.2	3.05e-05	0	60	0	719323136	54	5346
2026-01-17 08:57:16.60	14.70	22.73	-41.5	-45.1	12.9	6.56e-05	0	60	0	726663168	54	5520
2026-01-17 08:57:20.64	13.90	22.34	-41.3	-44.7	13.3	2.05e-05	0	61	0	734003200	54	5274
2026-01-17 08:57:24.68	13.12	21.94	-41.5	-45.1	12.9	4.73e-05	0	60	0	742391808	54	5490
2026-01-17 08:57:28.72	12.36	21.54	-41.6	-45.2	12.8	3.89e-05	0	60	0	749731840	54	5556
2026-01-17 08:57:32.77	11.62	21.14	-41.7	-45.6	12.5	1.17e-04	0	60	0	757071872	54	5792
2026-01-17 08:57:36.81	10.90	20.75	-41.8	-45.7	12.2	2.59e-04	0	60	0	764411904	54	5908
2026-01-17 08:57:40.85	10.19	20.36	-42.2	-46.7	11.0	1.72e-03	0	60	0	772800512	55	6241
2026-01-17 08:57:44.89	9.51	19.96	-42.4	-47.1	10.7	2.59e-03	0	61	0	780140544	55	6498
2026-01-17 08:57:48.93	8.84	19.57	-41.8	-45.8	12.0	2.68e-04	0	61	0	787480576	55	5631
2026-01-17 08:57:52.96	8.20	19.19	-42.0	-46.3	11.5	5.42e-04	0	61	0	794820608	55	5945
2026-01-17 08:57:57.00	7.56	18.80	-41.8	-45.9	11.8	7.69e-04	0	60	0	803209216	55	5691
2026-01-17 08:58:01.04	6.95	18.42	-41.5	-45.3	12.5	1.60e-04	0	60	0	810549248	54	5619
2026-01-17 08:58:05.08	6.35	18.04	-41.5	-45.5	12.2	2.01e-04	0	60	0	817889280	54	5738
2026-01-17 08:58:09.12	5.76	17.66	-41.5	-45.4	12.1	2.68e-04	0	61	0	825229312	54	5711
2026-01-17 08:58:13.16	5.19	17.29	-41.3	-45.1	12.4	2.42e-04	0	60	0	832569344	54	5519
2026-01-17 08:58:17.19	4.63	16.92	-41.4	-45.4	12.0	2.92e-04	0	60	0	840957952	54	5707
2026-01-17 08:58:21.23	4.09	16.55	-42.1	-47.4	9.8	8.46e-03	0	60	0	848297984	54	7199
2026-01-17 08:58:25.27	3.56	16.18	-42.3	-48.0	9.0	3.23e-02	0	60	0	855638016	55	7251
2026-01-17 08:58:29.31	3.05	15.82	-41.3	-45.6	11.4	1.82e-03	0	60	0	862978048	54	5824
2026-01-17 08:58:33.35	2.54	15.46	-41.3	-45.6	11.4	9.05e-04	0	60	0	871366656	54	5837
2026-01-17 08:58:37.38	2.05	15.10	-41.8	-47.3	9.3	1.20e-02	0	61	0	878706688	54	7099
2026-01-17 08:58:41.42	1.57	14.75	-41.5	-47.3	8.9	2.47e-02	0	61	0	886046720	54	7065
2026-01-17 08:58:45.46	1.10	14.40	-41.3	-47.6	8.4	4.08e-02	0	61	0	893386752	54	7310
2026-01-17 08:58:49.50	0.65	14.05	-40.8	-46.6	9.1	2.26e-02	0	60	0	900726784	53	6946
2026-01-17 08:58:53.53	0.20	13.70	-40.8	-47.2	8.2	4.75e-02	0	60	0	909115392	53	7423
2026-01-17 08:58:57.57	359.77	13.36	-41.2	-50.6	5.2	4.77e-01	0	61	0	916455424	53	10939
2026-01-17 08:59:01.62	359.34	13.02	-41.1	-54.0	3.8	1.46e+00	0	61	104	919601152	53	16198
2026-01-17 08:59:05.65	358.93	12.69	-40.9	-54.7	3.8	1.49e+00	0	61	104	919601152	53	17550
2026-01-17 08:59:09.69	358.52	12.36	-40.8	-55.2	3.8	1.49e+00	0	61	104	919601152	53	18525
2026-01-17 08:59:13.73	358.13	12.03	-40.5	-55.3	3.8	1.49e+00	0	61	104	919601152	52	19863
2026-01-17 08:59:17.76	357.74	11.70	-39.7	-54.7	3.8	1.49e+00	0	61	104	919601152	51	19761
2026-01-17 08:59:21.80	357.36	11.38	-39.9	-54.8	3.8	1.49e+00	0	61	104	919601152	51	20011
2026-01-17 08:59:25.84	356.99	11.06	-39.8	-54.7	3.8	1.49e+00	0	61	104	919601152	51	19780
2026-01-17 08:59:29.88	356.63	10.74	-40.3	-55.2	3.8	1.49e+00	0	61	104	919601152	51	20903
2026-01-17 08:59:33.92	356.28	10.43	-39.9	-54.8	3.8	1.49e+00	0	61	104	919601152	51	19935
2026-01-17 08:59:37.96	355.93	10.12	-40.2	-55.1	3.8	1.49e+00	0	61	104	919601152	51	20560
2026-01-17 08:59:42.00	355.59	9.81	-40.0	-54.8	3.8	1.49e+00	0	61	104	919601152	51	19857
2026-01-17 08:59:46.03	355.26	9.50	-40.2	-55.0	3.8	1.49e+00	0	61	104	919601152	51	20376
2026-01-17 08:59:50.07	354.94	9.20	-40.0	-54.8	3.8	1.49e+00	0	61	104	919601152	51	19921
2026-01-17 08:59:54.11	354.62	8.90	-40.2	-54.9	3.8	1.49e+00	0	61	104	919601152	51	20221
2026-01-17 08:59:58.15	354.31	8.60	-40.1	-54.8	3.8	1.49e+00	0	61	104	919601152	51	20017
2026-01-17 09:00:02.19	354.01	8.31	-40.2	-54.8	3.8	1.49e+00	0	61	104	919601152	51	20071
2026-01-17 09:00:06.23	353.71	8.02	-40.3	-54.9	3.8	1.49e+00	0	61	104	919601152	51	20183
2026-01-17 09:00:10.27	353.42	7.73	-44.9	-59.6	3.8	1.49e+00	0	61	104	919601152	60	20622
2026-01-17 09:00:14.31	353.14	7.44	-45.4	-60.0	3.8	1.49e+00	0	61	104	919601152	61	20333
2026-01-17 09:00:18.36	352.86	7.15	-45.1	-59.9	3.8	1.49e+00	0	61	104	919601152	61	20241
2026-01-17 09:00:22.41	352.58	6.87	-45.3	-59.8	3.8	1.49e+00	0	61	104	919601152	61	20018
2026-01-17 09:00:26.45	352.32	6.59	-45.2	-59.7	3.8	1.49e+00	0	61	104	919601152	61	19808
2026-01-17 09:00:30.49	352.05	6.32	-45.2	-59.7	3.8	1.49e+00	0	61	104	919601152	61	19710
2026-01-17 09:00:34.54	351.80	6.04	-45.2	-59.7	3.8	1.49e+00	0	61	104	919601152	61	19804
2026-01-17 09:00:38.58	351.54	5.77	-45.2	-59.7	3.8	1.49e+00	0	61	104	919601152	61	19768
2026-01-17 09:00:42.62	351.30	5.50	-45.2	-59.7	3.8	1.49e+00	0	61	104	919601152	61	19680
2026-01-17 09:00:46.67	351.05	5.23	-45.2	-59.7	3.8	1.49e+00	0	61	104	919601152	61	19694
2026-01-17 09:00:50.71	350.82	4.96	-45.1	-59.7	3.8	1.49e+00	0	61	104	919601152	61	19639
2026-01-17 09:00:54.76	350.58	4.70	-45.2	-59.7	3.8	1.49e+00	0	61	104	919601152	60	20820
2026-01-17 09:00:58.80	350.35	4.44	-44.9	-59.7	3.8	1.49e+00	0	61	104	919601152	60	20809
2026-01-17 09:01:02.85	350.13	4.18	-45.2	-59.7	3.8	1.49e+00	0	61	104	919601152	60	20822
2026-01-17 09:01:06.89	349.91	3.92	-45.2	-59.6	3.8	1.49e+00	0	61	104	919601152	60	20770
2026-01-17 09:01:10.93	349.69	3.67	-45.2	-59.7	3.8	1.49e+00	0	61	104	919601152	60	20814
2026-01-17 09:01:14.97	349.48	3.41	-45.1	-59.6	3.8	1.49e+00	0	61	104	919601152	60	20762
2026-01-17 09:01:19.02	349.27	3.16	-45.1	-59.7	3.8	1.49e+00	0	61	104	919601152	60	20784
2026-01-17 09:01:23.06	349.07	2.91	-45.1	-59.6	3.8	1.49e+00	0	61	104	919601152	60	20734
2026-01-17 09:01:27.10	348.87	2.66	-45.1	-59.6	3.8	1.49e+00	0	61	104	919601152	60	20757
2026-01-17 09:01:31.15	348.67	2.42	-45.1	-59.7	3.8	1.49e+00	0	61	104	919601152	60	20815
2026-01-17 09:01:35.19	348.48	2.17	-45.1	-59.6	3.8	1.49e+00	0	61	104	919601152	60	20638

#Closed at: 2026-01-17 09:01:38
#Recorded file [919 MB]: D:/lorett/data/31039_260117_114815.dat