passes_logs/2026/01/17/R2.0S_Moscow/R2.0S_Moscow__20260117_020200_AQUA_rec.log

#Pass ID: 20260117_020200_AQUA
#Satellite: AQUA
#Configuration: AQUA
#almurnet v.1.7.20251203
#Start time: 2026-01-17 02:01:59

#Version: 2.2.20231116
#Station: R2.0S_Moscow
#Location: 37.707566 lon 55.798166 lat
#TLE: 1 27424U 02022A   26016.26443506  .00000711  00000+0  15228-3 0  9999
#TLE: 2 27424  98.4083 342.7130 0002022  76.7284  27.4473 14.61823291261073

#Time	Az	El	Level	Level2	SNR	BER	BlckErr	Temp	State	Recorded	gain1	gain2
2026-01-17 02:01:59.91	11.67	1.98	-41.1	-60.2	3.8	7.44e-01	0	52	0	0	54	31168
2026-01-17 02:02:02.95	11.57	2.18	-41.1	-60.2	3.8	7.44e-01	0	52	104	0	52	34939
2026-01-17 02:02:05.98	11.47	2.38	-41.0	-60.2	3.8	7.43e-01	0	53	104	0	52	34930
2026-01-17 02:02:09.01	11.37	2.58	-41.0	-60.2	3.8	7.44e-01	0	53	104	0	52	34918
2026-01-17 02:02:12.05	11.27	2.78	-41.0	-60.1	3.8	7.45e-01	0	53	104	0	52	34777
2026-01-17 02:02:15.08	11.16	2.98	-41.0	-60.1	3.8	7.46e-01	0	53	104	0	52	34826
2026-01-17 02:02:18.11	11.06	3.18	-41.0	-60.1	3.8	7.50e-01	0	53	104	0	52	34803
2026-01-17 02:02:21.14	10.95	3.39	-41.0	-60.1	3.8	7.43e-01	0	54	104	0	52	34746
2026-01-17 02:02:24.18	10.84	3.60	-41.0	-60.1	3.8	7.43e-01	0	54	104	0	52	34814
2026-01-17 02:02:27.21	10.73	3.81	-41.0	-60.1	3.8	7.45e-01	0	54	104	0	52	34841
2026-01-17 02:02:30.24	10.61	4.02	-41.0	-60.1	3.8	7.47e-01	0	54	104	0	52	34757
2026-01-17 02:02:33.27	10.50	4.23	-41.0	-60.1	3.8	7.46e-01	0	55	104	0	52	34762
2026-01-17 02:02:36.31	10.38	4.44	-41.0	-60.1	3.8	7.42e-01	0	55	104	0	52	34773
2026-01-17 02:02:39.34	10.26	4.66	-41.0	-60.1	3.8	7.47e-01	0	55	104	0	52	34594
2026-01-17 02:02:42.38	10.14	4.88	-41.0	-60.1	3.8	7.43e-01	0	55	104	0	52	34554
2026-01-17 02:02:45.41	10.01	5.10	-41.0	-60.1	3.8	7.48e-01	0	55	104	0	52	34521
2026-01-17 02:02:48.44	9.89	5.32	-41.0	-60.0	3.8	7.43e-01	0	55	104	0	52	34410
2026-01-17 02:02:51.48	9.76	5.54	-41.0	-60.1	3.8	7.42e-01	0	55	104	0	52	34721
2026-01-17 02:02:54.51	9.63	5.77	-41.0	-60.1	3.8	7.43e-01	0	55	104	0	52	34747
2026-01-17 02:02:57.54	9.49	5.99	-41.0	-60.1	3.8	7.46e-01	0	56	104	0	52	34788
2026-01-17 02:03:00.57	9.36	6.22	-41.0	-60.1	3.8	7.45e-01	0	56	104	0	52	34703
2026-01-17 02:03:03.61	9.22	6.45	-41.0	-60.1	3.8	7.42e-01	0	56	104	0	52	34633
2026-01-17 02:03:06.64	9.08	6.69	-41.0	-60.1	3.8	7.44e-01	0	56	104	0	52	34654
2026-01-17 02:03:09.67	8.93	6.92	-41.0	-60.1	3.8	7.47e-01	0	56	104	0	52	34756
2026-01-17 02:03:12.71	8.78	7.16	-41.0	-60.1	3.8	7.45e-01	0	56	104	0	52	34525
2026-01-17 02:03:15.74	8.64	7.40	-41.0	-60.0	3.8	7.44e-01	0	56	104	0	52	34473
2026-01-17 02:03:18.77	8.48	7.64	-41.0	-60.0	3.8	7.46e-01	0	57	104	0	52	34401
2026-01-17 02:03:21.81	8.33	7.89	-41.0	-60.1	3.8	7.46e-01	0	57	104	0	52	34556
2026-01-17 02:03:24.84	8.17	8.14	-41.0	-60.1	3.8	7.46e-01	0	57	104	0	52	34629
2026-01-17 02:03:27.86	8.01	8.39	-41.3	-60.4	3.8	7.45e-01	0	57	104	0	53	34042
2026-01-17 02:03:30.89	7.84	8.64	-40.9	-60.0	3.8	7.44e-01	0	57	104	0	53	32443
2026-01-17 02:03:33.92	7.67	8.89	-41.2	-60.3	3.8	7.44e-01	0	57	104	0	53	33335
2026-01-17 02:03:36.95	7.50	9.15	-40.9	-60.0	3.8	7.45e-01	0	57	104	0	53	32392
2026-01-17 02:03:39.98	7.32	9.41	-41.3	-60.5	3.8	7.44e-01	0	57	104	0	53	34089
2026-01-17 02:03:43.01	7.14	9.68	-41.0	-60.1	3.8	7.42e-01	0	57	104	0	53	32601
2026-01-17 02:03:46.04	6.96	9.94	-40.9	-60.0	3.8	7.43e-01	0	57	104	0	53	32310
2026-01-17 02:03:49.06	6.77	10.21	-41.0	-60.1	3.8	7.44e-01	0	57	104	0	53	32746
2026-01-17 02:03:52.09	6.58	10.48	-41.4	-60.6	3.8	7.44e-01	0	57	104	0	54	32572
2026-01-17 02:03:55.12	6.39	10.76	-40.9	-60.0	3.8	7.47e-01	0	58	104	0	53	32239
2026-01-17 02:03:58.15	6.19	11.04	-41.4	-60.0	3.8	7.45e-01	0	58	104	0	53	32547
2026-01-17 02:04:01.18	5.98	11.32	-41.7	-60.4	3.8	7.41e-01	0	58	104	0	55	30257
2026-01-17 02:04:04.21	5.78	11.60	-42.3	-54.2	6.4	6.73e-01	75	58	0	2621440	55	14875
2026-01-17 02:04:07.24	5.56	11.89	-42.1	-52.5	8.1	6.44e-01	71	58	0	8388608	55	12101
2026-01-17 02:04:10.27	5.34	12.18	-41.7	-49.7	10.8	6.13e-01	0	58	0	14155776	55	8828
2026-01-17 02:04:13.30	5.12	12.48	-41.0	-47.3	13.3	6.04e-01	0	58	0	19922944	54	7052
2026-01-17 02:04:16.33	4.89	12.78	-41.1	-47.7	13.0	6.07e-01	0	58	0	25690112	53	7819
2026-01-17 02:04:19.36	4.66	13.08	-41.7	-49.2	11.5	6.07e-01	0	59	0	30932992	53	9371
2026-01-17 02:04:22.39	4.42	13.39	-41.5	-47.1	14.3	6.01e-01	0	59	0	36700160	53	7360
2026-01-17 02:04:25.42	4.18	13.70	-40.9	-45.2	16.6	6.00e-01	0	58	0	42467328	53	5891
2026-01-17 02:04:28.44	3.93	14.01	-40.7	-44.6	17.4	6.01e-01	0	59	0	48234496	53	5508
2026-01-17 02:04:31.47	3.67	14.33	-41.3	-45.7	16.4	6.03e-01	0	58	0	54001664	53	6220
2026-01-17 02:04:34.50	3.41	14.65	-40.9	-44.6	17.5	6.02e-01	0	59	0	59768832	53	5512
2026-01-17 02:04:37.53	3.14	14.98	-41.2	-44.9	17.4	6.01e-01	0	59	0	65011712	53	5707
2026-01-17 02:04:40.56	2.86	15.31	-41.3	-45.0	17.6	6.03e-01	0	59	0	70778880	53	5725
2026-01-17 02:04:43.58	2.58	15.64	-41.3	-45.0	17.6	6.00e-01	0	59	0	76546048	53	5764
2026-01-17 02:04:46.62	2.29	15.98	-41.1	-44.5	18.2	5.99e-01	0	59	0	82313216	53	5444
2026-01-17 02:04:49.65	1.99	16.32	-41.2	-44.6	18.2	6.03e-01	0	59	0	88080384	53	5484
2026-01-17 02:04:52.68	1.69	16.67	-41.1	-44.3	18.5	6.02e-01	0	59	0	93847552	53	5313
2026-01-17 02:04:55.71	1.38	17.03	-41.1	-44.4	18.5	6.00e-01	0	59	0	99090432	53	5363
2026-01-17 02:04:58.73	1.06	17.38	-41.0	-44.1	18.9	6.01e-01	0	59	0	104857600	53	5218
2026-01-17 02:05:01.76	0.73	17.75	-41.0	-44.0	19.1	6.02e-01	0	59	0	110624768	53	5119
2026-01-17 02:05:04.79	0.39	18.11	-41.0	-44.0	19.1	6.01e-01	0	59	0	116391936	53	5128
2026-01-17 02:05:07.82	0.04	18.49	-41.1	-44.2	19.0	6.01e-01	0	59	0	122159104	53	5226
2026-01-17 02:05:10.85	359.68	18.87	-41.2	-44.3	18.8	6.01e-01	0	59	0	127926272	53	5305
2026-01-17 02:05:13.88	359.32	19.25	-41.2	-44.4	18.7	6.01e-01	0	59	0	133169152	53	5370
2026-01-17 02:05:16.91	358.94	19.64	-41.4	-44.6	18.6	6.03e-01	0	59	0	138936320	53	5491
2026-01-17 02:05:19.94	358.55	20.03	-41.3	-44.6	18.5	5.98e-01	0	59	0	144703488	53	5509
2026-01-17 02:05:22.97	358.15	20.43	-41.1	-44.2	18.9	5.99e-01	0	59	0	150470656	53	5274
2026-01-17 02:05:26.00	357.74	20.84	-41.2	-44.5	18.6	6.02e-01	0	59	0	156237824	53	5407
2026-01-17 02:05:29.03	357.32	21.25	-41.3	-44.6	18.4	6.01e-01	0	59	0	162004992	53	5498
2026-01-17 02:05:32.06	356.89	21.67	-41.4	-44.8	18.3	5.98e-01	0	59	0	167247872	53	5621
2026-01-17 02:05:35.09	356.44	22.09	-41.3	-44.6	18.5	6.01e-01	0	59	0	173015040	53	5505
2026-01-17 02:05:38.12	355.98	22.52	-41.5	-44.9	18.3	6.04e-01	0	59	0	178782208	53	5684
2026-01-17 02:05:41.15	355.51	22.95	-41.4	-44.6	18.7	6.02e-01	0	59	0	184549376	53	5483
2026-01-17 02:05:44.18	355.02	23.39	-41.4	-44.5	18.8	6.01e-01	0	59	0	190316544	53	5431
2026-01-17 02:05:47.21	354.51	23.84	-41.4	-44.5	18.8	6.01e-01	0	59	0	196083712	53	5434
2026-01-17 02:05:50.24	353.99	24.29	-41.5	-44.7	18.7	6.00e-01	0	59	0	201326592	53	5569
2026-01-17 02:05:53.27	353.46	24.75	-41.5	-44.7	18.8	5.99e-01	0	59	0	207093760	53	5542
2026-01-17 02:05:56.29	352.91	25.22	-41.6	-44.8	18.6	6.01e-01	0	60	0	212860928	53	5643
2026-01-17 02:05:59.32	352.34	25.69	-41.6	-44.8	18.7	6.02e-01	0	60	0	218628096	53	5624
2026-01-17 02:06:02.35	351.75	26.17	-41.4	-44.4	19.1	6.00e-01	0	60	0	224395264	53	5398
2026-01-17 02:06:05.38	351.14	26.65	-41.4	-44.4	19.2	6.02e-01	0	59	0	230162432	53	5379
2026-01-17 02:06:08.41	350.51	27.14	-41.5	-44.5	19.1	6.01e-01	0	60	0	235405312	53	5462
2026-01-17 02:06:11.44	349.86	27.63	-41.5	-44.4	19.3	5.99e-01	0	60	0	241172480	53	5375
2026-01-17 02:06:14.47	349.19	28.13	-41.4	-44.3	19.4	6.00e-01	0	60	0	246939648	53	5296
2026-01-17 02:06:17.49	348.50	28.64	-41.4	-44.2	19.6	6.02e-01	0	60	0	252706816	53	5233
2026-01-17 02:06:20.52	347.78	29.15	-41.3	-44.1	19.7	6.02e-01	0	60	0	258473984	53	5189
2026-01-17 02:06:23.55	347.04	29.66	-41.5	-44.3	19.5	6.01e-01	0	60	0	263716864	53	5328
2026-01-17 02:06:26.58	346.28	30.18	-41.4	-44.2	19.7	6.01e-01	0	60	0	269484032	53	5231
2026-01-17 02:06:29.61	345.49	30.71	-41.2	-43.8	20.0	5.99e-01	0	60	0	275251200	53	5041
2026-01-17 02:06:32.63	344.67	31.24	-41.3	-44.1	19.9	6.02e-01	0	60	0	281018368	53	5161
2026-01-17 02:06:35.66	343.82	31.77	-41.5	-44.3	19.7	6.01e-01	0	60	0	286785536	53	5307
2026-01-17 02:06:38.69	342.94	32.30	-41.3	-44.1	19.9	5.98e-01	0	60	0	292552704	53	5180
2026-01-17 02:06:41.72	342.03	32.84	-41.5	-44.3	19.7	6.01e-01	0	60	0	298319872	53	5312
2026-01-17 02:06:44.75	341.09	33.38	-41.6	-44.4	19.6	6.00e-01	0	60	0	303562752	54	5069
2026-01-17 02:06:47.78	340.12	33.93	-41.8	-44.7	19.4	6.02e-01	0	60	0	309329920	54	5255
2026-01-17 02:06:50.81	339.11	34.47	-41.9	-44.8	19.3	6.03e-01	0	60	0	315097088	54	5329
2026-01-17 02:06:53.85	338.07	35.01	-42.1	-45.1	19.0	6.02e-01	0	60	0	320864256	54	5514
2026-01-17 02:06:56.87	336.99	35.55	-42.1	-45.2	18.9	6.00e-01	0	60	0	326631424	54	5536
2026-01-17 02:06:59.90	335.87	36.09	-42.5	-45.7	18.4	6.00e-01	0	60	0	332398592	55	5587
2026-01-17 02:07:02.93	334.72	36.63	-42.4	-45.6	18.6	6.01e-01	0	60	0	337641472	55	5477
2026-01-17 02:07:05.96	333.52	37.16	-42.9	-46.3	17.9	6.00e-01	0	60	0	343408640	56	5641
2026-01-17 02:07:08.99	332.28	37.69	-42.6	-45.9	18.4	6.01e-01	0	60	0	349175808	56	5356
2026-01-17 02:07:12.02	331.00	38.21	-42.9	-46.4	17.8	6.01e-01	0	60	0	354942976	56	5719
2026-01-17 02:07:15.04	329.69	38.72	-42.6	-46.0	18.3	6.05e-01	0	60	0	360710144	56	5407
2026-01-17 02:07:18.07	328.32	39.22	-42.9	-46.4	17.9	6.05e-01	0	60	0	366477312	56	5668
2026-01-17 02:07:21.10	326.92	39.71	-42.6	-46.0	18.3	6.00e-01	0	60	0	371720192	56	5403
2026-01-17 02:07:24.13	325.47	40.19	-43.0	-46.6	17.6	6.02e-01	0	60	0	377487360	56	5802
2026-01-17 02:07:27.16	323.97	40.65	-42.8	-46.2	18.1	6.03e-01	0	60	0	383254528	56	5547
2026-01-17 02:07:30.19	322.43	41.10	-42.9	-46.4	17.9	6.02e-01	0	60	0	389021696	56	5671
2026-01-17 02:07:33.22	320.85	41.53	-42.6	-45.9	18.4	5.98e-01	0	60	0	394788864	56	5363
2026-01-17 02:07:36.24	319.23	41.94	-42.7	-46.1	18.2	6.00e-01	0	60	0	400031744	56	5502
2026-01-17 02:07:39.28	317.56	42.33	-42.7	-46.0	18.3	6.00e-01	0	60	0	405798912	56	5413
2026-01-17 02:07:42.31	315.85	42.69	-42.6	-45.8	18.5	6.00e-01	0	60	0	411566080	56	5308
2026-01-17 02:07:45.34	314.11	43.03	-42.6	-45.8	18.5	6.01e-01	0	60	0	417333248	56	5340
2026-01-17 02:07:48.37	312.32	43.34	-42.4	-45.5	18.7	6.02e-01	0	60	0	423100416	56	5140
2026-01-17 02:07:51.40	310.51	43.63	-42.5	-45.7	18.5	6.03e-01	0	60	0	428867584	56	5257
2026-01-17 02:07:54.42	308.67	43.88	-42.6	-45.8	18.4	6.01e-01	0	60	0	434634752	56	5316
2026-01-17 02:07:57.45	306.79	44.10	-42.6	-45.9	18.4	6.02e-01	0	60	0	439877632	56	5365
2026-01-17 02:08:00.48	304.89	44.29	-42.8	-46.2	18.0	6.02e-01	0	60	0	445644800	56	5554
2026-01-17 02:08:03.51	302.97	44.44	-42.6	-46.0	18.2	5.98e-01	0	60	0	451411968	55	5750
2026-01-17 02:08:06.54	301.03	44.56	-42.1	-45.2	19.0	5.99e-01	0	60	0	457179136	55	5220
2026-01-17 02:08:09.57	299.07	44.64	-42.6	-45.9	18.1	6.02e-01	0	60	0	462946304	56	5397
2026-01-17 02:08:12.59	297.12	44.69	-42.4	-45.6	18.6	6.02e-01	0	60	0	468189184	55	5477
2026-01-17 02:08:15.62	295.16	44.70	-41.4	-44.0	20.0	6.03e-01	0	60	0	473956352	54	4839
2026-01-17 02:08:18.65	293.19	44.67	-42.6	-46.0	18.1	6.00e-01	0	60	0	479723520	55	5777
2026-01-17 02:08:21.68	291.24	44.60	-41.9	-44.7	19.4	6.04e-01	0	60	0	485490688	55	4968
2026-01-17 02:08:24.71	289.29	44.50	-42.7	-46.2	18.0	6.02e-01	0	60	0	491257856	55	5891
2026-01-17 02:08:27.74	287.36	44.37	-42.1	-45.1	19.0	6.00e-01	0	60	0	497025024	55	5196
2026-01-17 02:08:30.77	285.44	44.19	-42.5	-45.8	18.6	6.00e-01	0	60	0	502792192	56	5284
2026-01-17 02:08:33.80	283.55	43.99	-42.9	-46.5	17.9	6.02e-01	0	60	0	508035072	56	5745
2026-01-17 02:08:36.82	281.70	43.75	-43.1	-46.8	17.3	6.02e-01	0	60	0	513802240	56	5984
2026-01-17 02:08:39.85	279.86	43.48	-43.4	-47.5	16.8	6.01e-01	0	60	0	519569408	57	6064
2026-01-17 02:08:42.88	278.06	43.18	-43.7	-47.9	16.4	6.02e-01	0	60	0	525336576	57	6374
2026-01-17 02:08:45.91	276.29	42.85	-42.7	-46.0	18.3	6.01e-01	0	60	0	531103744	57	5111
2026-01-17 02:08:48.94	274.56	42.50	-43.3	-47.1	17.0	6.01e-01	0	60	0	536346624	58	5489
2026-01-17 02:08:51.96	272.88	42.12	-42.8	-46.2	18.0	6.01e-01	0	60	0	542113792	56	5556
2026-01-17 02:08:54.99	271.23	41.72	-43.1	-46.7	17.4	6.02e-01	0	60	0	547880960	57	5554
2026-01-17 02:08:58.02	269.62	41.30	-42.9	-46.3	17.8	6.01e-01	0	60	0	553648128	57	5326
2026-01-17 02:09:01.05	268.06	40.86	-42.8	-46.2	18.0	6.01e-01	0	60	0	559415296	57	5238
2026-01-17 02:09:04.08	266.54	40.40	-43.0	-46.7	17.6	6.00e-01	0	60	0	565182464	56	5869
2026-01-17 02:09:07.11	265.07	39.93	-42.9	-46.4	17.8	6.03e-01	0	60	0	570949632	56	5681
2026-01-17 02:09:10.14	263.63	39.44	-42.9	-46.5	17.6	5.99e-01	0	60	0	576192512	56	5777
2026-01-17 02:09:13.16	262.25	38.95	-42.9	-46.5	17.7	6.01e-01	0	61	0	581959680	56	5738
2026-01-17 02:09:16.19	260.90	38.44	-42.7	-46.1	18.1	6.01e-01	0	61	0	587726848	56	5471
2026-01-17 02:09:19.22	259.60	37.92	-42.8	-46.2	17.9	5.99e-01	0	60	0	593494016	56	5570
2026-01-17 02:09:22.25	258.34	37.39	-42.8	-46.3	17.8	6.01e-01	0	61	0	599261184	56	5633
2026-01-17 02:09:25.27	257.13	36.86	-42.9	-46.5	17.7	6.02e-01	0	60	0	604504064	56	5729
2026-01-17 02:09:28.30	255.95	36.33	-42.6	-46.0	18.2	6.01e-01	0	61	0	610271232	56	5427
2026-01-17 02:09:31.33	254.81	35.79	-42.8	-46.2	17.9	6.03e-01	0	61	0	616038400	56	5576
2026-01-17 02:09:34.36	253.71	35.24	-42.4	-45.6	18.5	6.01e-01	0	61	0	621805568	56	5197
2026-01-17 02:09:37.39	252.64	34.70	-42.7	-46.1	18.1	5.99e-01	0	61	0	627572736	56	5477
2026-01-17 02:09:40.42	251.61	34.15	-42.4	-45.7	18.4	6.01e-01	0	61	0	633339904	56	5252
2026-01-17 02:09:43.45	250.62	33.61	-42.5	-45.8	18.3	6.00e-01	0	60	0	638582784	56	5296
2026-01-17 02:09:46.48	249.66	33.07	-42.1	-45.2	18.8	5.99e-01	0	60	0	644349952	55	5220
2026-01-17 02:09:49.51	248.73	32.52	-41.9	-44.9	19.2	6.02e-01	0	60	0	650117120	55	5044
2026-01-17 02:09:52.54	247.84	31.98	-41.9	-44.9	19.1	6.02e-01	0	60	0	655884288	55	5044
2026-01-17 02:09:55.57	246.97	31.45	-42.1	-45.2	18.8	6.00e-01	0	60	0	661651456	55	5245
2026-01-17 02:09:58.60	246.13	30.91	-41.7	-44.6	19.3	6.02e-01	0	60	0	667418624	55	4916
2026-01-17 02:10:01.63	245.33	30.38	-41.6	-44.5	19.5	6.04e-01	0	60	0	672661504	55	4830
2026-01-17 02:10:04.66	244.54	29.86	-42.0	-45.1	18.8	6.03e-01	0	60	0	678428672	55	5200
2026-01-17 02:10:07.69	243.79	29.34	-41.6	-44.5	19.4	6.01e-01	0	60	0	684195840	55	4835
2026-01-17 02:10:10.72	243.06	28.82	-42.0	-45.1	18.8	6.01e-01	0	60	0	689963008	55	5214
2026-01-17 02:10:13.75	242.35	28.31	-41.8	-44.8	19.1	6.01e-01	0	60	0	695730176	55	5008
2026-01-17 02:10:16.78	241.67	27.81	-41.7	-44.6	19.3	6.01e-01	0	60	0	701497344	55	4896
2026-01-17 02:10:19.80	241.01	27.31	-42.2	-45.4	18.5	5.99e-01	0	61	0	706740224	55	5381
2026-01-17 02:10:22.83	240.37	26.81	-42.0	-45.1	18.9	6.02e-01	0	60	0	712507392	55	5170
2026-01-17 02:10:25.86	239.75	26.33	-42.1	-45.3	18.6	6.02e-01	0	61	0	718274560	55	5310
2026-01-17 02:10:28.89	239.15	25.84	-42.0	-45.1	18.7	6.00e-01	0	61	0	724041728	55	5215
2026-01-17 02:10:31.92	238.56	25.37	-42.0	-45.2	18.7	5.99e-01	0	61	0	729808896	55	5246
2026-01-17 02:10:34.95	238.00	24.90	-42.1	-45.2	18.7	5.98e-01	0	60	0	735576064	55	5247
2026-01-17 02:10:37.98	237.45	24.43	-41.9	-44.9	18.9	6.02e-01	0	60	0	740818944	55	5098
2026-01-17 02:10:41.01	236.92	23.98	-41.9	-45.0	18.9	5.99e-01	0	61	0	746586112	55	5127
2026-01-17 02:10:44.04	236.41	23.52	-42.2	-45.4	18.4	6.01e-01	0	60	0	752353280	55	5369
2026-01-17 02:10:47.07	235.91	23.08	-42.0	-45.2	18.7	6.01e-01	0	60	0	758120448	55	5236
2026-01-17 02:10:50.08	235.43	22.64	-42.2	-45.5	18.3	6.03e-01	0	60	0	763887616	55	5448
2026-01-17 02:10:53.11	234.96	22.21	-42.1	-45.3	18.5	5.99e-01	0	60	0	769654784	55	5283
2026-01-17 02:10:56.14	234.51	21.78	-42.0	-45.1	18.7	6.02e-01	0	61	0	774897664	55	5208
2026-01-17 02:10:59.17	234.06	21.36	-42.1	-45.3	18.5	6.00e-01	0	61	0	780664832	55	5290
2026-01-17 02:11:02.19	233.63	20.94	-42.0	-45.2	18.6	6.00e-01	0	61	0	786432000	55	5240
2026-01-17 02:11:05.22	233.22	20.53	-42.0	-45.1	18.6	6.02e-01	0	61	0	792199168	55	5200
2026-01-17 02:11:08.25	232.81	20.13	-41.9	-45.1	18.7	6.00e-01	0	61	0	797966336	55	5181
2026-01-17 02:11:11.28	232.41	19.73	-42.0	-45.2	18.5	5.99e-01	0	61	0	803733504	55	5265
2026-01-17 02:11:14.31	232.03	19.34	-42.1	-45.3	18.4	6.01e-01	0	61	0	808976384	55	5334
2026-01-17 02:11:17.34	231.65	18.95	-41.9	-45.1	18.6	6.04e-01	0	61	0	814743552	55	5160
2026-01-17 02:11:20.36	231.29	18.57	-41.9	-45.0	18.7	6.02e-01	0	60	0	820510720	55	5130
2026-01-17 02:11:23.39	230.94	18.19	-41.8	-45.0	18.8	6.00e-01	0	60	0	826277888	55	5103
2026-01-17 02:11:26.42	230.59	17.82	-41.9	-45.1	18.6	6.00e-01	0	61	0	832045056	55	5177
2026-01-17 02:11:29.45	230.26	17.45	-42.1	-45.3	18.3	6.01e-01	0	61	0	837812224	55	5339
2026-01-17 02:11:32.48	229.93	17.09	-42.3	-45.8	17.9	6.01e-01	0	61	0	843055104	55	5621
2026-01-17 02:11:35.51	229.61	16.73	-42.0	-45.3	18.3	6.04e-01	0	60	0	848822272	55	5317
2026-01-17 02:11:38.54	229.30	16.38	-41.8	-44.9	18.8	6.02e-01	0	61	0	854589440	55	5049
2026-01-17 02:11:41.57	228.99	16.04	-41.9	-45.0	18.6	6.02e-01	0	60	0	860356608	55	5148
2026-01-17 02:11:44.60	228.70	15.69	-42.0	-45.2	18.4	6.03e-01	0	61	0	866123776	55	5269
2026-01-17 02:11:47.63	228.41	15.35	-41.9	-45.2	18.4	6.03e-01	0	60	0	871890944	55	5241
2026-01-17 02:11:50.66	228.13	15.02	-41.9	-45.2	18.4	6.02e-01	0	61	0	877133824	55	5230
2026-01-17 02:11:53.68	227.85	14.69	-41.9	-45.2	18.4	6.02e-01	0	61	0	882900992	55	5223
2026-01-17 02:11:56.71	227.59	14.37	-42.0	-45.3	18.2	6.00e-01	0	61	0	888668160	55	5320
2026-01-17 02:11:59.74	227.32	14.05	-42.1	-45.5	18.0	6.00e-01	0	61	0	894435328	55	5441
2026-01-17 02:12:02.77	227.07	13.73	-42.1	-45.5	18.0	6.03e-01	0	61	0	900202496	55	5446
2026-01-17 02:12:05.80	226.82	13.42	-42.1	-45.5	17.9	6.04e-01	0	61	0	905969664	55	5429
2026-01-17 02:12:08.83	226.57	13.11	-41.9	-45.3	18.2	6.02e-01	0	60	0	911212544	55	5297
2026-01-17 02:12:11.86	226.34	12.80	-42.0	-45.3	18.1	6.01e-01	0	61	0	916979712	55	5339
2026-01-17 02:12:14.88	226.10	12.50	-42.0	-45.4	18.0	6.02e-01	0	61	0	922746880	55	5392
2026-01-17 02:12:17.91	225.88	12.20	-42.0	-45.5	17.9	6.00e-01	0	61	0	928514048	55	5456
2026-01-17 02:12:20.94	225.65	11.91	-42.1	-45.6	17.8	5.99e-01	0	61	0	934281216	55	5511
2026-01-17 02:12:23.97	225.43	11.62	-42.1	-45.6	17.8	6.02e-01	0	60	0	940048384	55	5523
2026-01-17 02:12:27.00	225.22	11.33	-42.0	-45.6	17.8	6.00e-01	0	61	0	945291264	55	5466
2026-01-17 02:12:30.03	225.01	11.05	-42.2	-45.8	17.5	6.02e-01	0	61	0	951058432	55	5609
2026-01-17 02:12:33.06	224.81	10.77	-42.0	-45.6	17.7	6.00e-01	0	61	0	956825600	55	5487
2026-01-17 02:12:36.09	224.61	10.49	-42.1	-45.8	17.5	6.00e-01	0	61	0	962592768	55	5600
2026-01-17 02:12:39.12	224.41	10.21	-42.1	-45.7	17.5	6.00e-01	0	60	0	968359936	55	5555
2026-01-17 02:12:42.15	224.22	9.94	-42.0	-45.6	17.6	6.02e-01	0	61	0	974127104	55	5524
2026-01-17 02:12:45.18	224.03	9.67	-42.1	-45.8	17.4	6.01e-01	0	60	0	979369984	55	5603
2026-01-17 02:12:48.21	223.85	9.41	-42.1	-46.0	17.1	6.03e-01	0	60	0	985137152	55	5761
2026-01-17 02:12:51.24	223.67	9.15	-42.1	-46.0	17.1	6.02e-01	0	60	0	990904320	55	5765
2026-01-17 02:12:54.27	223.49	8.89	-42.1	-46.2	16.9	6.01e-01	0	61	0	996671488	55	5914
2026-01-17 02:12:57.30	223.32	8.63	-42.0	-46.3	16.8	6.00e-01	0	60	0	1002438656	55	5939
2026-01-17 02:13:00.33	223.15	8.37	-42.0	-46.3	16.7	6.01e-01	0	61	0	1008205824	55	5931
2026-01-17 02:13:03.36	222.98	8.12	-41.9	-46.2	16.8	6.01e-01	0	61	0	1013448704	55	5883
2026-01-17 02:13:06.39	222.82	7.87	-45.9	-64.4	3.8	7.45e-01	0	61	104	1016594432	62	31854
2026-01-17 02:13:09.42	222.66	7.63	-46.3	-64.9	3.8	7.43e-01	0	61	104	1016594432	63	31949
2026-01-17 02:13:12.45	222.50	7.38	-46.5	-65.1	3.8	7.45e-01	0	61	104	1016594432	63	32715
2026-01-17 02:13:15.48	222.35	7.14	-46.4	-65.0	3.8	7.45e-01	0	61	104	1016594432	63	32375
2026-01-17 02:13:18.51	222.19	6.90	-46.3	-64.9	3.8	7.43e-01	0	61	104	1016594432	63	32071
2026-01-17 02:13:21.54	222.05	6.66	-46.3	-64.9	3.8	7.45e-01	0	61	104	1016594432	63	32010
2026-01-17 02:13:24.58	221.90	6.43	-46.3	-64.9	3.8	7.45e-01	0	61	104	1016594432	63	31958
2026-01-17 02:13:27.61	221.76	6.19	-46.3	-64.9	3.8	7.47e-01	0	61	104	1016594432	63	31957
2026-01-17 02:13:30.64	221.62	5.96	-46.3	-64.9	3.8	7.44e-01	0	61	104	1016594432	63	31914
2026-01-17 02:13:33.68	221.48	5.73	-46.3	-64.9	3.8	7.47e-01	0	61	104	1016594432	63	31878
2026-01-17 02:13:36.71	221.34	5.51	-46.3	-64.9	3.8	7.49e-01	0	61	104	1016594432	63	31933
2026-01-17 02:13:39.74	221.21	5.28	-46.3	-64.9	3.8	7.45e-01	0	61	104	1016594432	63	31849
2026-01-17 02:13:42.77	221.08	5.06	-46.3	-64.9	3.8	7.44e-01	0	61	104	1016594432	63	31835
2026-01-17 02:13:45.80	220.95	4.84	-46.3	-64.9	3.8	7.43e-01	0	61	104	1016594432	63	31857
2026-01-17 02:13:48.84	220.82	4.62	-46.3	-64.9	3.8	7.44e-01	0	61	104	1016594432	63	31817
2026-01-17 02:13:51.87	220.70	4.40	-46.3	-64.8	3.8	7.49e-01	0	61	104	1016594432	63	31789
2026-01-17 02:13:54.90	220.58	4.19	-46.3	-64.8	3.8	7.48e-01	0	61	104	1016594432	63	31738
2026-01-17 02:13:57.93	220.46	3.98	-46.3	-64.8	3.8	7.47e-01	0	61	104	1016594432	63	31739
2026-01-17 02:14:00.96	220.34	3.76	-46.2	-64.8	3.8	7.45e-01	0	61	104	1016594432	63	31732
2026-01-17 02:14:04.00	220.22	3.55	-46.2	-64.8	3.8	7.44e-01	0	61	104	1016594432	63	31745
2026-01-17 02:14:07.03	220.11	3.35	-46.2	-64.8	3.8	7.44e-01	0	61	104	1016594432	63	31719
2026-01-17 02:14:10.06	219.99	3.14	-46.2	-64.8	3.8	7.48e-01	0	61	104	1016594432	63	31703
2026-01-17 02:14:13.10	219.88	2.93	-46.2	-64.8	3.8	7.43e-01	0	61	104	1016594432	63	31691
2026-01-17 02:14:16.13	219.78	2.73	-46.2	-64.8	3.8	7.48e-01	0	61	104	1016594432	63	31694
2026-01-17 02:14:19.16	219.67	2.53	-46.2	-64.8	3.8	7.46e-01	0	61	104	1016594432	63	31682
2026-01-17 02:14:22.19	219.56	2.33	-46.2	-64.8	3.8	7.45e-01	0	61	104	1016594432	63	31691
2026-01-17 02:14:25.23	219.46	2.13	-46.2	-64.8	3.8	7.45e-01	0	61	104	1016594432	63	31607
2026-01-17 02:14:28.26	219.36	1.93	-46.2	-64.8	3.8	7.47e-01	0	61	104	1016594432	63	31605

#Closed at: 2026-01-17 02:14:29
#Recorded file [1016 MB]: D:/lorett/data/31039_260117_050159.dat