passes_logs/2026/01/17/R2.0S_Moscow/R2.0S_Moscow__20260117_225838_NOAA_20_JPSS-1_rec.log

#Pass ID: 20260117_225838_NOAA 20 (JPSS-1)
#Satellite: NOAA 20 (JPSS-1)
#Configuration: NOAA 20
#almurnet v.1.7.20251203
#Start time: 2026-01-17 22:58:40

#Version: 2.2.20231116
#Station: R2.0S_Moscow
#Location: 37.707566 lon 55.798166 lat
#TLE: 1 43013U 17073A   26017.30359522  .00000067  00000+0  52526-4 0  9990
#TLE: 2 43013  98.7639 318.2187 0001419  36.2087 323.9184 14.19536557423067

#Time	Az	El	Level	Level2	SNR	BER	BlckErr	Temp	State	Recorded	gain1	gain2
2026-01-17 22:58:40.18	19.72	2.09	-41.7	-56.6	3.8	1.49e+00	0	52	0	0	55	19513
2026-01-17 22:58:44.22	19.86	2.34	-41.7	-56.6	3.8	1.49e+00	0	53	104	0	54	20660
2026-01-17 22:58:48.27	20.00	2.60	-41.7	-56.6	3.8	1.49e+00	0	53	104	0	54	20643
2026-01-17 22:58:52.31	20.15	2.85	-41.7	-56.6	3.8	1.49e+00	0	53	104	0	54	20640
2026-01-17 22:58:56.35	20.30	3.11	-41.7	-56.6	3.8	1.49e+00	0	53	104	0	54	20709
2026-01-17 22:59:00.39	20.45	3.37	-41.7	-56.6	3.8	1.49e+00	0	54	104	0	54	20636
2026-01-17 22:59:04.44	20.61	3.63	-41.7	-56.6	3.8	1.49e+00	0	54	104	0	54	20612
2026-01-17 22:59:08.48	20.76	3.90	-41.7	-56.6	3.8	1.49e+00	0	54	104	0	54	20611
2026-01-17 22:59:12.53	20.92	4.16	-41.7	-56.6	3.8	1.49e+00	0	54	104	0	54	20595
2026-01-17 22:59:16.57	21.09	4.43	-41.7	-56.6	3.8	1.49e+00	0	55	104	0	54	20635
2026-01-17 22:59:20.61	21.25	4.71	-41.7	-56.6	3.8	1.49e+00	0	55	104	0	54	20608
2026-01-17 22:59:24.66	21.42	4.98	-41.7	-56.6	3.8	1.49e+00	0	55	104	0	54	20696
2026-01-17 22:59:28.70	21.59	5.26	-41.7	-56.6	3.8	1.49e+00	0	55	104	0	54	20563
2026-01-17 22:59:32.74	21.76	5.54	-41.7	-56.6	3.8	1.49e+00	0	56	104	0	54	20549
2026-01-17 22:59:36.79	21.94	5.82	-41.7	-56.5	3.8	1.49e+00	0	56	104	0	54	20522
2026-01-17 22:59:40.83	22.12	6.11	-41.7	-56.5	3.8	1.49e+00	0	56	104	0	54	20538
2026-01-17 22:59:44.87	22.30	6.39	-41.7	-56.5	3.8	1.49e+00	0	56	104	0	54	20499
2026-01-17 22:59:48.91	22.48	6.69	-41.7	-56.5	3.8	1.49e+00	0	56	104	0	54	20514
2026-01-17 22:59:52.96	22.67	6.98	-41.7	-56.6	3.8	1.49e+00	0	56	104	0	54	20552
2026-01-17 22:59:57.00	22.87	7.28	-41.7	-56.3	3.8	1.49e+00	0	57	104	0	54	19931
2026-01-17 23:00:01.05	23.06	7.58	-41.6	-55.5	3.8	1.49e+00	0	57	104	0	54	18203
2026-01-17 23:00:05.09	23.26	7.89	-41.5	-53.6	4.0	1.46e+00	0	57	104	0	54	14604
2026-01-17 23:00:09.13	23.47	8.19	-41.3	-56.2	3.8	1.49e+00	0	57	104	3145728	54	19646
2026-01-17 23:00:13.17	23.67	8.51	-41.3	-47.6	8.3	1.22e-01	0	57	0	8388608	54	7348
2026-01-17 23:00:17.20	23.88	8.82	-41.6	-47.8	8.3	6.72e-02	0	57	0	16777216	54	7534
2026-01-17 23:00:21.24	24.10	9.14	-41.6	-47.5	8.8	3.48e-02	0	57	0	24117248	54	7274
2026-01-17 23:00:25.27	24.32	9.46	-41.7	-47.5	8.9	2.84e-02	0	58	0	31457280	54	7280
2026-01-17 23:00:29.32	24.55	9.79	-41.7	-47.0	9.7	1.20e-02	0	58	0	38797312	54	6833
2026-01-17 23:00:33.36	24.78	10.12	-41.9	-47.2	9.6	1.43e-02	0	58	0	46137344	54	7034
2026-01-17 23:00:37.40	25.01	10.45	-41.9	-47.0	9.9	9.15e-03	0	58	0	54525952	54	6865
2026-01-17 23:00:41.43	25.25	10.79	-41.9	-47.0	10.1	7.37e-03	0	58	0	61865984	54	6851
2026-01-17 23:00:45.47	25.49	11.14	-41.9	-46.9	10.2	5.74e-03	0	58	0	69206016	54	6756
2026-01-17 23:00:49.51	25.74	11.48	-41.9	-46.9	10.3	4.87e-03	0	58	0	76546048	54	6730
2026-01-17 23:00:53.55	26.00	11.84	-41.8	-46.6	10.7	2.41e-03	0	58	0	84934656	54	6513
2026-01-17 23:00:57.59	26.26	12.19	-41.8	-46.4	10.9	2.10e-03	0	58	0	92274688	54	6394
2026-01-17 23:01:01.63	26.53	12.56	-41.8	-46.3	11.1	1.82e-03	0	58	0	99614720	54	6343
2026-01-17 23:01:05.67	26.80	12.92	-41.8	-46.3	11.1	1.61e-03	0	58	0	106954752	54	6344
2026-01-17 23:01:09.70	27.08	13.29	-41.9	-46.3	11.2	1.18e-03	0	58	0	114294784	54	6296
2026-01-17 23:01:13.74	27.37	13.67	-41.8	-46.1	11.4	8.65e-04	0	58	0	122683392	54	6178
2026-01-17 23:01:17.78	27.66	14.05	-41.8	-46.0	11.6	6.65e-04	0	59	0	130023424	54	6081
2026-01-17 23:01:21.82	27.96	14.44	-41.7	-45.9	11.8	5.81e-04	0	59	0	137363456	54	6000
2026-01-17 23:01:25.86	28.27	14.83	-41.7	-45.9	11.8	4.90e-04	0	59	0	144703488	54	6012
2026-01-17 23:01:29.90	28.59	15.23	-41.7	-45.8	11.9	3.07e-04	0	59	0	153092096	54	5946
2026-01-17 23:01:33.93	28.91	15.64	-41.7	-45.6	12.1	2.99e-04	0	59	0	160432128	54	5830
2026-01-17 23:01:37.97	29.25	16.05	-41.7	-45.7	12.0	2.21e-04	0	59	0	167772160	54	5899
2026-01-17 23:01:42.01	29.59	16.47	-41.8	-45.9	11.9	3.42e-04	0	59	0	175112192	54	5995
2026-01-17 23:01:46.05	29.94	16.89	-41.8	-45.9	11.9	3.45e-04	0	59	0	182452224	54	6014
2026-01-17 23:01:50.09	30.30	17.32	-42.0	-46.2	11.7	5.56e-04	0	59	0	190840832	54	6222
2026-01-17 23:01:54.13	30.67	17.76	-42.0	-46.2	11.7	6.30e-04	0	59	0	198180864	54	6204
2026-01-17 23:01:58.17	31.05	18.20	-42.1	-46.2	11.7	7.35e-04	0	59	0	205520896	54	6261
2026-01-17 23:02:02.21	31.45	18.65	-42.1	-46.4	11.6	7.18e-04	0	59	0	212860928	54	6350
2026-01-17 23:02:06.24	31.85	19.11	-42.2	-46.5	11.4	1.03e-03	0	59	0	221249536	55	6126
2026-01-17 23:02:10.28	32.26	19.57	-42.2	-46.5	11.4	9.89e-04	0	59	0	228589568	55	6112
2026-01-17 23:02:14.32	32.69	20.04	-42.1	-46.3	11.7	7.37e-04	0	59	0	235929600	55	5949
2026-01-17 23:02:18.36	33.13	20.52	-42.1	-46.2	11.8	5.97e-04	0	59	0	243269632	55	5902
2026-01-17 23:02:22.39	33.59	21.01	-42.0	-46.1	11.9	3.49e-04	0	60	0	250609664	55	5790
2026-01-17 23:02:26.44	34.06	21.51	-42.0	-46.1	11.9	3.78e-04	0	59	0	258998272	55	5817
2026-01-17 23:02:30.47	34.54	22.01	-42.1	-46.1	11.9	3.46e-04	0	59	0	266338304	55	5827
2026-01-17 23:02:34.52	35.04	22.52	-42.1	-46.1	11.9	3.65e-04	0	60	0	273678336	55	5828
2026-01-17 23:02:38.55	35.55	23.04	-42.1	-46.2	11.9	3.75e-04	0	59	0	281018368	55	5858
2026-01-17 23:02:42.60	36.08	23.57	-42.0	-46.0	12.1	2.67e-04	0	60	0	289406976	55	5734
2026-01-17 23:02:46.63	36.63	24.11	-42.0	-45.9	12.2	2.13e-04	0	60	0	296747008	55	5700
2026-01-17 23:02:50.67	37.20	24.65	-42.1	-46.0	12.1	2.92e-04	0	60	0	304087040	55	5766
2026-01-17 23:02:54.71	37.79	25.20	-42.1	-46.1	12.1	2.41e-04	0	60	0	311427072	55	5797
2026-01-17 23:02:58.74	38.40	25.77	-42.0	-45.9	12.3	1.85e-04	0	60	0	318767104	55	5682
2026-01-17 23:03:02.78	39.03	26.34	-42.2	-46.1	12.1	2.16e-04	0	60	0	327155712	55	5825
2026-01-17 23:03:06.82	39.68	26.92	-42.4	-46.6	11.6	6.09e-04	0	60	0	334495744	55	6168
2026-01-17 23:03:10.86	40.35	27.50	-42.6	-47.1	11.1	1.58e-03	0	60	0	341835776	55	6498
2026-01-17 23:03:14.89	41.05	28.10	-42.9	-47.5	10.8	2.30e-03	0	60	0	349175808	56	6440
2026-01-17 23:03:18.93	41.78	28.71	-43.0	-47.7	10.7	2.50e-03	0	60	0	357564416	56	6586
2026-01-17 23:03:22.97	42.54	29.32	-43.2	-48.1	10.2	6.49e-03	0	60	0	364904448	56	6935
2026-01-17 23:03:27.01	43.32	29.94	-43.4	-48.7	9.6	1.31e-02	0	60	0	372244480	57	7009
2026-01-17 23:03:31.05	44.13	30.57	-43.2	-48.2	10.1	7.37e-03	0	60	0	379584512	57	6583
2026-01-17 23:03:35.09	44.98	31.21	-42.9	-47.5	10.9	2.58e-03	0	60	0	386924544	57	6130
2026-01-17 23:03:39.13	45.86	31.85	-43.0	-47.6	10.8	2.68e-03	0	60	0	395313152	57	6183
2026-01-17 23:03:43.17	46.77	32.51	-42.8	-47.2	11.2	1.49e-03	0	60	0	402653184	57	5917
2026-01-17 23:03:47.20	47.72	33.16	-42.8	-47.1	11.3	1.01e-03	0	60	0	409993216	57	5820
2026-01-17 23:03:51.24	48.71	33.83	-42.8	-47.1	11.3	1.17e-03	0	60	0	417333248	57	5855
2026-01-17 23:03:55.28	49.74	34.49	-42.9	-47.5	11.0	1.56e-03	0	60	0	424673280	57	6093
2026-01-17 23:03:59.31	50.81	35.17	-42.7	-46.9	11.5	8.21e-04	0	60	0	433061888	57	5709
2026-01-17 23:04:03.35	51.93	35.84	-43.0	-47.6	10.9	1.89e-03	0	60	0	440401920	57	6144
2026-01-17 23:04:07.39	53.10	36.52	-42.5	-46.5	12.0	4.49e-04	0	60	0	447741952	57	5455
2026-01-17 23:04:11.43	54.31	37.20	-42.4	-46.3	12.3	1.34e-04	0	60	0	455081984	56	5601
2026-01-17 23:04:15.47	55.57	37.87	-42.7	-46.8	11.7	5.61e-04	0	60	0	463470592	56	5989
2026-01-17 23:04:19.50	56.89	38.55	-42.4	-46.1	12.4	1.63e-04	0	60	0	470810624	56	5517
2026-01-17 23:04:23.54	58.26	39.22	-42.5	-46.4	12.1	2.10e-04	0	60	0	478150656	56	5704
2026-01-17 23:04:27.58	59.69	39.89	-42.8	-47.2	11.4	1.14e-03	0	61	0	485490688	56	6212
2026-01-17 23:04:31.61	61.17	40.54	-42.5	-46.4	12.2	2.30e-04	0	60	0	492830720	56	5696
2026-01-17 23:04:35.65	62.72	41.19	-42.5	-46.5	12.1	2.38e-04	0	60	0	501219328	56	5728
2026-01-17 23:04:39.69	64.33	41.83	-42.3	-45.9	12.8	6.40e-05	0	60	0	508559360	56	5360
2026-01-17 23:04:43.73	66.00	42.45	-42.5	-46.3	12.3	1.36e-04	0	60	0	515899392	56	5638
2026-01-17 23:04:47.77	67.74	43.05	-42.8	-46.9	11.7	3.65e-04	0	60	0	523239424	56	6041
2026-01-17 23:04:51.80	69.54	43.63	-43.1	-47.7	10.9	2.15e-03	0	60	0	531628032	56	6585
2026-01-17 23:04:55.84	71.41	44.19	-43.2	-47.9	10.7	2.76e-03	0	60	0	538968064	56	6726
2026-01-17 23:04:59.88	73.34	44.72	-43.2	-48.0	10.7	3.90e-03	0	61	0	546308096	57	6427
2026-01-17 23:05:03.91	75.33	45.23	-43.1	-47.6	11.0	1.79e-03	0	61	0	553648128	57	6184
2026-01-17 23:05:07.95	77.39	45.70	-43.4	-48.4	10.2	7.18e-03	0	60	0	560988160	57	6777
2026-01-17 23:05:11.99	79.50	46.13	-43.4	-48.5	10.0	8.47e-03	0	61	0	569376768	57	6841
2026-01-17 23:05:16.02	81.67	46.53	-43.5	-48.8	9.7	8.44e-03	0	61	0	576716800	57	7107
2026-01-17 23:05:20.06	83.90	46.88	-43.2	-47.8	10.8	2.59e-03	0	61	0	584056832	57	6303
2026-01-17 23:05:24.10	86.17	47.19	-43.0	-47.4	11.2	1.39e-03	0	60	0	591396864	57	6022
2026-01-17 23:05:28.14	88.49	47.45	-43.8	-49.6	8.9	2.85e-02	0	61	0	599785472	58	7293
2026-01-17 23:05:32.18	90.84	47.67	-43.1	-47.6	11.0	1.77e-03	0	61	0	607125504	58	5850
2026-01-17 23:05:36.22	93.22	47.83	-43.3	-48.2	10.5	5.26e-03	0	61	0	614465536	58	6223
2026-01-17 23:05:40.26	95.62	47.94	-42.9	-47.2	11.5	7.97e-04	0	61	0	621805568	57	5859
2026-01-17 23:05:44.30	98.03	47.99	-43.0	-47.4	11.3	1.13e-03	0	61	0	629145600	57	6053
2026-01-17 23:05:48.34	100.45	47.99	-43.2	-47.9	10.7	2.75e-03	0	61	0	637534208	57	6391
2026-01-17 23:05:52.38	102.87	47.94	-43.1	-47.6	11.1	1.74e-03	0	61	0	644874240	57	6149
2026-01-17 23:05:56.42	105.27	47.84	-43.4	-48.3	10.3	5.08e-03	0	61	0	652214272	57	6716
2026-01-17 23:06:00.46	107.65	47.68	-43.1	-47.6	11.1	1.37e-03	0	61	0	659554304	57	6185
2026-01-17 23:06:04.49	110.00	47.47	-43.2	-47.8	10.9	1.61e-03	0	61	0	667942912	57	6292
2026-01-17 23:06:08.54	112.33	47.21	-43.7	-49.3	9.2	3.65e-02	0	61	0	675282944	58	7083
2026-01-17 23:06:12.57	114.60	46.90	-44.3	-51.1	7.5	1.07e-01	0	61	0	682622976	59	8233
2026-01-17 23:06:16.61	116.83	46.55	-44.2	-51.1	7.4	1.03e-01	0	61	0	689963008	59	8239
2026-01-17 23:06:20.65	119.02	46.16	-43.9	-49.7	8.9	2.91e-02	0	61	0	697303040	59	7038
2026-01-17 23:06:24.69	121.14	45.72	-43.7	-49.3	9.2	4.79e-02	0	61	0	705691648	59	6675
2026-01-17 23:06:28.72	123.20	45.25	-43.2	-47.9	10.7	3.50e-03	0	61	0	713031680	58	6039
2026-01-17 23:06:32.76	125.21	44.75	-43.1	-47.5	11.2	1.18e-03	0	61	0	720371712	57	6103
2026-01-17 23:06:36.80	127.15	44.22	-42.7	-46.8	11.9	3.58e-04	0	61	0	727711744	57	5640
2026-01-17 23:06:40.83	129.02	43.66	-41.7	-45.0	13.6	6.10e-06	0	61	0	736100352	55	5127
2026-01-17 23:06:44.87	130.83	43.08	-42.2	-45.8	12.8	6.17e-05	0	61	0	743440384	55	5639
2026-01-17 23:06:48.91	132.58	42.47	-42.5	-46.6	12.0	4.03e-04	0	61	0	750780416	55	6137
2026-01-17 23:06:52.95	134.26	41.85	-43.1	-47.6	11.1	6.81e-04	0	61	0	758120448	56	6518
2026-01-17 23:06:56.99	135.88	41.21	-42.7	-46.7	12.0	4.16e-04	0	61	0	765460480	57	5577
2026-01-17 23:07:01.02	137.43	40.56	-43.1	-47.7	10.9	4.30e-03	0	61	0	773849088	57	6243
2026-01-17 23:07:05.06	138.92	39.90	-43.9	-49.7	8.9	2.26e-02	0	61	0	781189120	58	7381
2026-01-17 23:07:09.10	140.36	39.23	-43.0	-47.5	11.2	7.42e-04	0	61	0	788529152	57	6062
2026-01-17 23:07:13.13	141.73	38.56	-43.5	-48.8	9.7	4.10e-02	0	61	0	795869184	59	6305
2026-01-17 23:07:17.17	143.06	37.88	-44.0	-50.2	8.3	2.29e-02	0	61	0	803209216	58	7841
2026-01-17 23:07:21.21	144.33	37.20	-43.1	-47.6	10.9	2.29e-03	0	61	0	811597824	58	5809
2026-01-17 23:07:25.25	145.55	36.52	-43.9	-50.0	8.5	3.49e-02	0	61	0	818937856	58	7673
2026-01-17 23:07:29.29	146.72	35.84	-43.3	-48.1	10.4	4.72e-03	0	61	0	826277888	58	6201
2026-01-17 23:07:33.33	147.84	35.16	-44.1	-51.0	7.5	9.94e-02	0	61	0	833617920	58	8565
2026-01-17 23:07:37.37	148.92	34.48	-43.4	-48.5	9.9	1.45e-02	0	61	0	842006528	58	6492
2026-01-17 23:07:41.41	149.95	33.81	-44.1	-50.8	7.7	5.66e-02	0	61	0	849346560	58	8380
2026-01-17 23:07:45.45	150.95	33.14	-44.0	-50.4	8.0	8.14e-02	0	61	0	856686592	59	7556
2026-01-17 23:07:49.48	151.90	32.48	-44.0	-50.5	7.8	4.35e-02	0	61	0	864026624	59	7659
2026-01-17 23:07:53.53	152.82	31.82	-43.4	-48.5	9.9	1.51e-02	0	61	0	871366656	58	6433
2026-01-17 23:07:57.57	153.70	31.17	-42.9	-47.2	11.2	8.72e-04	0	61	0	879755264	57	5896
2026-01-17 23:08:01.61	154.55	30.53	-44.0	-50.5	7.8	7.67e-02	0	61	0	887095296	58	8121
2026-01-17 23:08:05.64	155.37	29.90	-43.3	-48.3	10.0	1.59e-02	0	61	0	894435328	58	6318
2026-01-17 23:08:09.68	156.15	29.27	-43.4	-48.7	9.6	1.04e-02	0	61	0	901775360	58	6643
2026-01-17 23:08:13.72	156.91	28.65	-43.5	-49.0	9.3	1.89e-02	0	61	0	910163968	58	6829
2026-01-17 23:08:17.76	157.64	28.04	-43.0	-47.6	10.7	4.04e-03	0	61	0	917504000	58	5820
2026-01-17 23:08:21.80	158.34	27.44	-42.7	-47.1	11.3	9.31e-04	0	61	0	924844032	57	5791
2026-01-17 23:08:25.84	159.02	26.85	-42.9	-47.6	10.7	3.03e-03	0	61	0	932184064	57	6154
2026-01-17 23:08:29.88	159.67	26.27	-42.8	-47.4	10.9	1.87e-03	0	61	0	939524096	57	6018
2026-01-17 23:08:33.91	160.30	25.69	-42.7	-47.0	11.2	1.45e-03	0	61	0	947912704	57	5771
2026-01-17 23:08:37.95	160.91	25.13	-42.9	-47.7	10.5	3.01e-03	0	61	0	955252736	57	6239
2026-01-17 23:08:41.99	161.50	24.57	-43.1	-48.2	10.0	8.07e-03	0	61	0	962592768	57	6588
2026-01-17 23:08:46.03	162.07	24.02	-42.8	-47.4	10.8	2.90e-03	0	61	0	969932800	57	6043
2026-01-17 23:08:50.06	162.62	23.48	-42.4	-46.6	11.6	5.03e-04	0	61	0	978321408	56	5812
2026-01-17 23:08:54.10	163.15	22.95	-42.6	-46.9	11.3	1.27e-03	0	61	0	985661440	56	5997
2026-01-17 23:08:58.14	163.66	22.43	-42.7	-47.3	10.9	2.12e-03	0	61	0	993001472	56	6275
2026-01-17 23:09:02.17	164.16	21.91	-42.7	-47.1	10.9	2.10e-03	0	61	0	1000341504	56	6200
2026-01-17 23:09:06.21	164.64	21.41	-42.5	-46.9	11.2	1.48e-03	0	61	0	1007681536	56	6024
2026-01-17 23:09:10.25	165.11	20.91	-42.5	-46.9	11.2	1.37e-03	0	61	0	1016070144	56	6012
2026-01-17 23:09:14.29	165.56	20.42	-42.8	-47.6	10.4	4.39e-03	0	61	0	1023410176	56	6547
2026-01-17 23:09:18.33	166.00	19.93	-43.0	-48.2	9.8	9.69e-03	0	61	0	1030750208	56	7011
2026-01-17 23:09:22.36	166.43	19.46	-42.9	-48.0	10.0	9.28e-03	0	61	0	1038090240	56	6843
2026-01-17 23:09:26.40	166.84	18.99	-42.6	-47.1	10.9	2.43e-03	0	61	0	1046478848	56	6163
2026-01-17 23:09:30.44	167.25	18.53	-42.3	-46.5	11.5	8.71e-04	0	61	0	1053818880	56	5755
2026-01-17 23:09:34.48	167.64	18.08	-42.3	-46.5	11.5	7.41e-04	0	61	0	1061158912	56	5755
2026-01-17 23:09:38.52	168.02	17.63	-42.4	-46.7	11.3	1.11e-03	0	61	0	1068498944	56	5877
2026-01-17 23:09:42.55	168.39	17.19	-42.4	-46.7	11.2	1.26e-03	0	61	0	1075838976	56	5923
2026-01-17 23:09:46.59	168.74	16.76	-42.4	-46.8	11.1	1.38e-03	0	61	0	1084227584	56	5944
2026-01-17 23:09:50.63	169.09	16.33	-42.3	-46.5	11.4	1.12e-03	0	61	0	1091567616	56	5752
2026-01-17 23:09:54.67	169.43	15.91	-42.2	-46.3	11.6	7.31e-04	0	61	0	1098907648	56	5610
2026-01-17 23:09:58.71	169.77	15.50	-42.0	-46.0	11.8	4.87e-04	0	61	0	1106247680	56	5463
2026-01-17 23:10:02.75	170.09	15.09	-42.3	-46.6	11.2	1.07e-03	0	61	0	1114636288	56	5830
2026-01-17 23:10:06.79	170.40	14.69	-42.5	-47.3	10.4	3.54e-03	0	61	0	1121976320	56	6296
2026-01-17 23:10:10.83	170.71	14.30	-42.5	-47.2	10.5	4.33e-03	0	61	0	1129316352	56	6264
2026-01-17 23:10:14.86	171.01	13.91	-42.6	-47.4	10.3	5.84e-03	0	61	0	1136656384	56	6383
2026-01-17 23:10:18.90	171.30	13.52	-42.5	-47.3	10.4	3.94e-03	0	61	0	1143996416	56	6292
2026-01-17 23:10:22.94	171.58	13.14	-42.3	-46.8	10.8	2.66e-03	0	61	0	1152385024	56	5979
2026-01-17 23:10:26.98	171.86	12.77	-42.3	-46.9	10.8	2.82e-03	0	61	0	1159725056	56	5997
2026-01-17 23:10:31.01	172.13	12.40	-42.1	-46.4	11.2	1.56e-03	0	61	0	1167065088	56	5705
2026-01-17 23:10:35.05	172.40	12.04	-42.2	-46.9	10.7	2.87e-03	0	61	0	1174405120	56	6007
2026-01-17 23:10:39.09	172.65	11.68	-42.4	-47.2	10.3	5.16e-03	0	61	0	1182793728	56	6273
2026-01-17 23:10:43.13	172.91	11.32	-42.4	-47.4	10.1	7.54e-03	0	61	0	1190133760	56	6372
2026-01-17 23:10:47.17	173.15	10.97	-42.4	-47.2	10.3	7.17e-03	0	61	0	1197473792	56	6254
2026-01-17 23:10:51.19	173.40	10.63	-42.4	-47.5	9.9	9.24e-03	0	61	0	1204813824	56	6467
2026-01-17 23:10:55.23	173.63	10.29	-42.5	-47.8	9.5	1.41e-02	0	61	0	1212153856	56	6710
2026-01-17 23:10:59.27	173.86	9.95	-42.4	-47.7	9.6	1.08e-02	0	61	0	1220542464	56	6574
2026-01-17 23:11:03.31	174.09	9.62	-42.2	-47.3	9.8	1.13e-02	0	61	0	1227882496	56	6336
2026-01-17 23:11:07.34	174.31	9.29	-42.1	-47.2	9.7	1.15e-02	0	61	0	1235222528	56	6271
2026-01-17 23:11:11.38	174.53	8.97	-42.0	-47.3	9.5	1.44e-02	0	61	0	1242562560	56	6337
2026-01-17 23:11:15.42	174.74	8.65	-41.7	-47.0	9.5	1.64e-02	0	61	0	1250951168	55	6458
2026-01-17 23:11:19.46	174.95	8.33	-41.6	-47.2	9.1	2.39e-02	0	61	0	1258291200	55	6599
2026-01-17 23:11:23.50	175.15	8.02	-42.5	-49.7	7.2	3.47e-02	0	61	0	1265631232	55	8773
2026-01-17 23:11:27.54	175.35	7.71	-45.0	-59.7	3.8	1.49e+00	0	61	104	1266679808	60	20801
2026-01-17 23:11:31.58	175.55	7.40	-45.3	-59.9	3.8	1.49e+00	0	61	104	1266679808	61	20082
2026-01-17 23:11:35.63	175.74	7.10	-45.2	-59.8	3.8	1.49e+00	0	61	104	1266679808	61	19902
2026-01-17 23:11:39.67	175.93	6.80	-45.2	-59.7	3.8	1.49e+00	0	61	104	1266679808	61	19819
2026-01-17 23:11:43.71	176.11	6.50	-45.2	-59.7	3.8	1.49e+00	0	61	104	1266679808	61	19705
2026-01-17 23:11:47.76	176.29	6.21	-45.2	-59.7	3.8	1.49e+00	0	61	104	1266679808	61	19650
2026-01-17 23:11:51.80	176.47	5.92	-45.2	-59.7	3.8	1.49e+00	0	61	104	1266679808	61	19723
2026-01-17 23:11:55.84	176.65	5.63	-45.2	-59.7	3.8	1.49e+00	0	61	104	1266679808	61	19691
2026-01-17 23:11:59.89	176.82	5.35	-45.1	-59.6	3.8	1.49e+00	0	61	104	1266679808	61	19548
2026-01-17 23:12:03.93	176.99	5.06	-45.1	-59.6	3.8	1.49e+00	0	61	104	1266679808	61	19506
2026-01-17 23:12:07.98	177.15	4.79	-45.1	-59.6	3.8	1.49e+00	0	61	104	1266679808	61	19541
2026-01-17 23:12:12.02	177.31	4.51	-45.1	-59.6	3.8	1.49e+00	0	61	104	1266679808	61	19468
2026-01-17 23:12:16.07	177.47	4.24	-45.1	-59.6	3.8	1.49e+00	0	61	104	1266679808	61	19512
2026-01-17 23:12:20.11	177.63	3.96	-45.1	-59.6	3.8	1.49e+00	0	61	104	1266679808	61	19478
2026-01-17 23:12:24.15	177.79	3.70	-45.1	-59.6	3.8	1.49e+00	0	61	104	1266679808	61	19477
2026-01-17 23:12:28.20	177.94	3.43	-45.1	-59.6	3.8	1.49e+00	0	61	104	1266679808	61	19462
2026-01-17 23:12:32.24	178.09	3.17	-45.1	-59.6	3.8	1.49e+00	0	61	104	1266679808	61	19529
2026-01-17 23:12:36.28	178.23	2.91	-45.1	-59.6	3.8	1.49e+00	0	61	104	1266679808	61	19542
2026-01-17 23:12:40.33	178.38	2.65	-45.1	-59.6	3.8	1.49e+00	0	61	104	1266679808	61	19458
2026-01-17 23:12:44.37	178.52	2.39	-45.1	-59.6	3.8	1.49e+00	0	61	104	1266679808	61	19534
2026-01-17 23:12:48.41	178.66	2.14	-45.1	-59.6	3.8	1.49e+00	0	61	104	1266679808	61	19447

#Closed at: 2026-01-17 23:12:52
#Recorded file [1266 MB]: D:/lorett/data/31039_260118_015839.dat