passes_logs/2026/01/17/R2.0S_Moscow/R2.0S_Moscow__20260117_081911_NOAA_21_JPSS-2_rec.log

#Pass ID: 20260117_081911_NOAA 21 (JPSS-2)
#Satellite: NOAA 21 (JPSS-2)
#Configuration: NOAA-21
#almurnet v.1.7.20251203
#Start time: 2026-01-17 08:19:14

#Version: 2.2.20231116
#Station: R2.0S_Moscow
#Location: 37.707566 lon 55.798166 lat
#TLE: 1 54234U 22150A   26016.21096038  .00000027  00000+0  33607-4 0  9993
#TLE: 2 54234  98.7500 317.0960 0000625 282.3388  77.7718 14.19534911164985

#Time	Az	El	Level	Level2	SNR	BER	BlckErr	Temp	State	Recorded	gain1	gain2
2026-01-17 08:19:14.11	113.57	2.13	-41.5	-53.7	3.8	1.49e+00	0	51	0	0	53	15705
2026-01-17 08:19:17.14	113.37	2.31	-41.0	-54.1	3.8	1.49e+00	0	52	104	0	53	16408
2026-01-17 08:19:20.17	113.17	2.48	-40.7	-53.2	4.0	1.50e+00	0	52	104	0	49	18703
2026-01-17 08:19:23.20	112.97	2.65	-40.8	-54.0	3.9	1.50e+00	0	53	104	0	52	17093
2026-01-17 08:19:26.24	112.76	2.83	-41.4	-54.0	3.9	1.49e+00	0	52	104	0	52	17238
2026-01-17 08:19:29.27	112.55	3.01	-39.3	-54.1	3.6	1.50e+00	0	53	104	0	50	19443
2026-01-17 08:19:32.30	112.34	3.18	-38.6	-52.1	3.9	1.50e+00	0	53	104	0	49	16354
2026-01-17 08:19:35.33	112.13	3.36	-38.7	-52.2	4.2	1.49e+00	0	53	104	0	48	17559
2026-01-17 08:19:38.36	111.92	3.54	-40.3	-53.9	3.8	1.49e+00	0	53	104	0	52	16963
2026-01-17 08:19:41.40	111.70	3.72	-39.1	-53.6	3.9	1.49e+00	0	54	104	0	53	15465
2026-01-17 08:19:44.43	111.48	3.90	-40.4	-53.5	3.5	1.50e+00	0	54	104	0	52	16298
2026-01-17 08:19:47.46	111.25	4.08	-41.0	-53.9	3.9	1.49e+00	0	54	104	0	53	16097
2026-01-17 08:19:50.50	111.02	4.26	-39.2	-53.8	3.7	1.49e+00	0	54	104	0	50	18775
2026-01-17 08:19:53.53	110.80	4.44	-41.2	-54.3	3.8	1.49e+00	0	54	104	0	52	17882
2026-01-17 08:19:56.56	110.56	4.63	-40.1	-53.8	3.8	1.49e+00	0	54	104	0	53	15919
2026-01-17 08:19:59.59	110.33	4.81	-36.9	-52.2	3.9	1.49e+00	0	55	104	0	53	13222
2026-01-17 08:20:02.63	110.09	5.00	-40.1	-54.0	3.8	1.49e+00	0	55	104	0	52	17200
2026-01-17 08:20:05.66	109.85	5.18	-39.3	-53.7	4.0	1.49e+00	0	55	104	0	52	16522
2026-01-17 08:20:08.69	109.60	5.37	-37.4	-53.2	4.1	1.49e+00	0	55	104	0	49	18656
2026-01-17 08:20:11.72	109.35	5.56	-40.3	-54.0	4.1	1.50e+00	0	55	104	0	52	17222
2026-01-17 08:20:14.76	109.10	5.74	-41.1	-54.4	3.9	1.49e+00	0	55	104	0	51	18974
2026-01-17 08:20:17.79	108.85	5.93	-40.2	-53.5	3.7	1.49e+00	0	56	104	0	51	17169
2026-01-17 08:20:20.82	108.59	6.12	-40.1	-52.7	3.9	1.49e+00	0	56	104	0	52	14765
2026-01-17 08:20:23.86	108.33	6.31	-40.6	-54.0	3.7	1.49e+00	0	56	104	0	53	16279
2026-01-17 08:20:26.89	108.06	6.51	-38.9	-52.9	3.8	1.49e+00	0	56	104	0	50	16905
2026-01-17 08:20:29.92	107.79	6.70	-41.2	-54.0	3.9	1.50e+00	0	56	104	0	52	17192
2026-01-17 08:20:32.96	107.52	6.89	-40.6	-53.5	3.7	1.49e+00	0	56	104	0	51	17247
2026-01-17 08:20:35.99	107.24	7.09	-40.6	-53.6	4.0	1.50e+00	0	56	104	0	52	16348
2026-01-17 08:20:39.02	106.96	7.28	-40.3	-52.8	3.7	1.50e+00	0	56	104	0	43	25256
2026-01-17 08:20:42.05	106.68	7.48	-40.4	-53.8	3.9	1.49e+00	0	56	104	0	52	16749
2026-01-17 08:20:45.09	106.39	7.67	-35.5	-48.7	3.9	1.49e+00	0	57	104	0	45	13929
2026-01-17 08:20:48.12	106.10	7.87	-36.8	-46.1	5.4	6.83e-01	16	57	0	0	44	11016
2026-01-17 08:20:51.15	105.80	8.07	-35.2	-44.0	6.4	5.44e-01	4	57	0	7340032	44	8601
2026-01-17 08:20:54.19	105.50	8.27	-38.1	-49.3	4.0	1.38e+00	0	57	104	7340032	47	13343
2026-01-17 08:20:57.22	105.20	8.47	-38.5	-43.8	7.9	1.53e-01	0	57	0	8388608	48	6666
2026-01-17 08:21:00.24	104.89	8.67	-39.5	-44.1	7.9	2.61e-01	0	57	0	15728640	49	6537
2026-01-17 08:21:03.28	104.58	8.87	-39.0	-43.7	8.3	1.30e-01	0	57	0	24117248	48	6615
2026-01-17 08:21:06.30	104.26	9.07	-32.0	-41.9	5.9	2.73e-01	6	57	0	28311552	45	6353
2026-01-17 08:21:09.33	103.94	9.27	-37.7	-43.3	8.0	3.00e-01	1	58	0	33554432	46	7093
2026-01-17 08:21:12.37	103.61	9.48	-35.2	-43.0	7.0	2.72e-01	6	57	0	41943040	46	6869
2026-01-17 08:21:15.39	103.28	9.68	-37.0	-44.2	4.4	9.10e-01	0	57	104	46137344	44	8786
2026-01-17 08:21:18.42	102.95	9.89	-36.3	-43.2	7.4	4.01e-01	17	58	0	46137344	44	7830
2026-01-17 08:21:21.45	102.60	10.09	-35.4	-42.8	6.4	5.89e-01	0	58	0	48234496	38	10552
2026-01-17 08:21:24.48	102.26	10.30	-34.7	-42.6	6.5	9.33e-01	0	58	104	48234496	41	8736
2026-01-17 08:21:27.51	101.91	10.51	-33.9	-43.2	4.5	1.26e+00	0	58	104	48234496	39	10489
2026-01-17 08:21:30.53	101.55	10.72	-33.4	-41.9	6.5	8.39e-01	2	58	0	48234496	39	9060
2026-01-17 08:21:33.56	101.19	10.93	-33.0	-42.7	4.6	1.19e+00	0	58	104	48234496	39	9899
2026-01-17 08:21:36.59	100.83	11.13	-25.9	-40.4	4.0	1.49e+00	0	58	104	48234496	24	17977
2026-01-17 08:21:39.62	100.46	11.34	-33.0	-44.3	4.2	1.50e+00	0	58	104	48234496	27	23713
2026-01-17 08:21:42.65	100.08	11.56	-27.7	-39.7	4.2	1.46e+00	0	58	104	48234496	27	13901
2026-01-17 08:21:45.68	99.70	11.77	-27.5	-42.1	4.1	1.48e+00	0	58	104	48234496	26	19592
2026-01-17 08:21:48.71	99.31	11.98	-27.6	-41.2	4.1	1.25e+00	0	58	104	48234496	27	16545
2026-01-17 08:21:51.74	98.91	12.19	-29.3	-43.6	4.0	1.50e+00	0	58	104	48234496	28	20566
2026-01-17 08:21:54.78	98.51	12.40	-30.3	-44.0	5.2	1.46e+00	5	58	104	48234496	38	12198
2026-01-17 08:21:57.80	98.11	12.62	-29.8	-43.2	5.6	1.07e+00	19	58	104	48234496	40	9857
2026-01-17 08:22:00.83	97.70	12.83	-38.0	-45.0	6.9	4.93e-01	8	59	0	53477376	49	7229
2026-01-17 08:22:03.86	97.28	13.05	-33.6	-45.2	6.4	1.74e-01	3	59	0	59768832	49	7447
2026-01-17 08:22:06.89	96.85	13.26	-40.9	-45.8	7.9	1.39e-01	0	59	0	68157440	50	7480
2026-01-17 08:22:09.92	96.42	13.47	-40.4	-44.8	9.4	2.12e-02	0	59	0	77594624	52	5976
2026-01-17 08:22:12.95	95.99	13.69	-40.0	-42.9	12.1	7.80e-04	0	59	0	87031808	50	5366
2026-01-17 08:22:15.98	95.55	13.91	-40.0	-42.8	12.3	2.07e-04	0	59	0	96468992	50	5329
2026-01-17 08:22:19.01	95.10	14.12	-39.8	-42.6	12.5	1.13e-04	0	59	0	105906176	50	5163
2026-01-17 08:22:22.03	94.64	14.34	-40.2	-43.2	11.9	2.43e-04	0	59	0	115343360	51	5242
2026-01-17 08:22:25.06	94.18	14.55	-40.1	-43.0	12.0	3.02e-04	0	59	0	125829120	51	5143
2026-01-17 08:22:28.09	93.71	14.77	-40.2	-43.1	12.0	2.67e-04	0	59	0	135266304	51	5166
2026-01-17 08:22:31.12	93.23	14.98	-40.1	-43.0	12.1	2.33e-04	0	59	0	144703488	51	5124
2026-01-17 08:22:34.15	92.75	15.20	-40.3	-43.3	11.8	4.39e-04	0	59	0	154140672	51	5292
2026-01-17 08:22:37.18	92.26	15.41	-40.2	-43.1	11.9	3.49e-04	0	59	0	163577856	51	5203
2026-01-17 08:22:40.21	91.76	15.63	-40.1	-43.0	11.9	2.90e-04	0	59	0	173015040	51	5152
2026-01-17 08:22:43.24	91.25	15.84	-40.1	-43.0	11.9	3.16e-04	0	59	0	182452224	51	5134
2026-01-17 08:22:46.27	90.74	16.06	-40.1	-43.1	11.8	4.49e-04	0	59	0	191889408	51	5162
2026-01-17 08:22:49.30	90.22	16.27	-39.9	-42.9	11.8	5.10e-04	0	59	0	201326592	51	5061
2026-01-17 08:22:52.33	89.69	16.49	-39.9	-42.9	11.7	6.10e-04	0	59	0	210763776	51	5057
2026-01-17 08:22:55.36	89.16	16.70	-39.9	-43.0	11.5	7.51e-04	0	59	0	220200960	51	5101
2026-01-17 08:22:58.40	88.61	16.91	-40.1	-43.3	11.1	1.59e-03	0	59	0	229638144	51	5315
2026-01-17 08:23:01.42	88.06	17.12	-40.3	-44.1	10.1	6.57e-03	0	59	0	239075328	51	5796
2026-01-17 08:23:04.45	87.51	17.33	-40.4	-44.3	9.7	1.28e-02	0	59	0	248512512	51	5965
2026-01-17 08:23:07.48	86.94	17.54	-40.4	-44.4	9.7	1.37e-02	0	59	0	257949696	51	6003
2026-01-17 08:23:10.51	86.36	17.75	-40.4	-44.1	10.1	6.22e-03	0	59	0	267386880	51	5836
2026-01-17 08:23:13.54	85.78	17.96	-40.5	-44.4	9.8	1.03e-02	0	60	0	276824064	51	6004
2026-01-17 08:23:16.57	85.19	18.16	-40.2	-43.9	10.1	7.44e-03	0	59	0	286261248	51	5707
2026-01-17 08:23:19.60	84.59	18.36	-40.1	-43.7	10.4	4.50e-03	0	59	0	295698432	51	5553
2026-01-17 08:23:22.63	83.99	18.57	-40.2	-43.6	10.6	3.64e-03	0	59	0	305135616	51	5521
2026-01-17 08:23:25.66	83.37	18.77	-40.2	-43.5	10.8	2.53e-03	0	60	0	314572800	51	5437
2026-01-17 08:23:28.68	82.75	18.96	-40.0	-43.2	11.2	1.42e-03	0	60	0	324009984	51	5263
2026-01-17 08:23:31.71	82.12	19.16	-40.1	-43.3	11.1	1.63e-03	0	60	0	333447168	51	5298
2026-01-17 08:23:34.74	81.48	19.36	-40.0	-43.1	11.4	1.11e-03	0	60	0	342884352	51	5203
2026-01-17 08:23:37.77	80.84	19.55	-40.1	-43.3	11.3	1.09e-03	0	60	0	352321536	51	5285
2026-01-17 08:23:40.80	80.18	19.74	-40.2	-43.5	11.1	1.42e-03	0	60	0	361758720	51	5417
2026-01-17 08:23:43.83	79.52	19.93	-40.2	-43.5	11.1	1.62e-03	0	60	0	371195904	51	5442
2026-01-17 08:23:46.86	78.84	20.11	-40.2	-43.4	11.3	1.30e-03	0	60	0	380633088	51	5359
2026-01-17 08:23:49.89	78.17	20.29	-40.0	-43.1	11.6	8.80e-04	0	60	0	390070272	51	5192
2026-01-17 08:23:52.92	77.48	20.47	-39.9	-42.7	12.0	4.43e-04	0	60	0	399507456	51	4981
2026-01-17 08:23:55.95	76.78	20.65	-39.9	-42.9	11.9	3.61e-04	0	59	0	408944640	51	5051
2026-01-17 08:23:58.99	76.08	20.82	-40.1	-43.1	11.7	5.38e-04	0	60	0	418381824	51	5166
2026-01-17 08:24:02.01	75.37	20.99	-40.0	-42.9	12.0	3.57e-04	0	60	0	428867584	51	5073
2026-01-17 08:24:05.04	74.65	21.15	-40.1	-43.0	11.9	4.29e-04	0	60	0	437256192	51	5116
2026-01-17 08:24:08.07	73.92	21.31	-39.8	-42.5	12.6	9.91e-05	0	60	0	447741952	51	4840
2026-01-17 08:24:11.10	73.19	21.47	-39.8	-42.3	13.0	3.96e-05	0	60	0	456130560	51	4736
2026-01-17 08:24:14.13	72.44	21.62	-39.6	-42.0	13.3	1.83e-05	0	60	0	466616320	51	4592
2026-01-17 08:24:17.16	71.69	21.77	-39.6	-42.1	13.2	3.05e-05	0	60	0	476053504	51	4635
2026-01-17 08:24:20.19	70.94	21.92	-39.6	-42.0	13.4	1.60e-05	0	60	0	485490688	51	4593
2026-01-17 08:24:23.22	70.17	22.06	-39.6	-42.0	13.6	9.90e-06	0	60	0	494927872	51	4549
2026-01-17 08:24:26.25	69.40	22.19	-39.6	-41.9	13.7	2.20e-06	0	60	0	504365056	51	4516
2026-01-17 08:24:29.28	68.63	22.32	-39.7	-42.0	13.6	4.50e-06	0	60	0	513802240	51	4579
2026-01-17 08:24:32.31	67.84	22.45	-39.6	-41.9	13.9	7.60e-06	0	60	0	523239424	51	4508
2026-01-17 08:24:35.34	67.05	22.57	-39.6	-41.9	13.9	1.50e-06	0	60	0	532676608	51	4503
2026-01-17 08:24:38.37	66.26	22.69	-39.5	-41.7	14.1	2.20e-06	0	60	0	542113792	51	4419
2026-01-17 08:24:41.40	65.46	22.80	-39.4	-41.6	14.2	1.50e-06	0	60	0	551550976	50	4637
2026-01-17 08:24:44.43	64.65	22.90	-39.5	-41.7	14.1	2.20e-06	0	60	0	560988160	50	4685
2026-01-17 08:24:47.45	63.84	23.00	-39.6	-41.8	14.1	1.50e-06	0	60	0	570425344	50	4733
2026-01-17 08:24:50.48	63.03	23.09	-39.6	-41.8	14.0	1.50e-06	0	60	0	579862528	50	4744
2026-01-17 08:24:53.51	62.20	23.18	-39.4	-41.5	14.3	7.00e-07	0	60	0	589299712	50	4596
2026-01-17 08:24:56.54	61.38	23.26	-39.4	-41.6	14.3	1.50e-06	0	60	0	598736896	50	4607
2026-01-17 08:24:59.57	60.55	23.33	-39.6	-41.8	14.0	7.00e-07	0	60	0	608174080	50	4752
2026-01-17 08:25:02.60	59.72	23.40	-39.7	-42.0	13.9	3.80e-06	0	60	0	617611264	50	4849
2026-01-17 08:25:05.63	58.88	23.46	-39.6	-41.8	14.1	7.00e-07	0	60	0	627048448	50	4748
2026-01-17 08:25:08.66	58.04	23.51	-39.5	-41.7	14.2	7.00e-07	0	60	0	636485632	50	4689
2026-01-17 08:25:11.69	57.20	23.56	-39.5	-41.7	14.2	0.00e+00	0	60	0	645922816	50	4688
2026-01-17 08:25:14.72	56.35	23.60	-39.6	-41.8	14.1	7.00e-07	0	60	0	655360000	50	4732
2026-01-17 08:25:17.75	55.50	23.64	-39.6	-41.8	14.1	1.50e-06	0	60	0	664797184	50	4749
2026-01-17 08:25:20.79	54.65	23.67	-39.7	-41.9	14.0	2.20e-06	0	60	0	674234368	50	4789
2026-01-17 08:25:23.81	53.80	23.69	-39.7	-41.9	14.1	3.00e-06	0	60	0	683671552	50	4785
2026-01-17 08:25:26.84	52.95	23.70	-39.7	-42.0	14.0	5.30e-06	0	60	0	693108736	50	4837
2026-01-17 08:25:29.87	52.10	23.71	-39.6	-41.8	14.2	7.00e-07	0	60	0	702545920	50	4706
2026-01-17 08:25:32.90	51.25	23.71	-39.5	-41.7	14.3	0.00e+00	0	60	0	711983104	50	4673
2026-01-17 08:25:35.93	50.40	23.71	-39.6	-41.7	14.2	2.20e-06	0	60	0	721420288	50	4702
2026-01-17 08:25:38.96	49.55	23.69	-39.6	-41.8	14.2	0.00e+00	0	60	0	730857472	50	4730
2026-01-17 08:25:41.99	48.70	23.67	-39.5	-41.7	14.3	1.50e-06	0	60	0	740294656	50	4654
2026-01-17 08:25:45.03	47.84	23.65	-39.4	-41.6	14.4	0.00e+00	0	60	0	749731840	50	4609
2026-01-17 08:25:48.06	47.00	23.61	-39.4	-41.5	14.5	0.00e+00	0	60	0	760217600	50	4563
2026-01-17 08:25:51.09	46.15	23.57	-39.3	-41.3	14.6	7.00e-07	0	60	0	769654784	50	4473
2026-01-17 08:25:54.12	45.31	23.53	-39.3	-41.4	14.6	0.00e+00	0	60	0	779091968	50	4519
2026-01-17 08:25:57.15	44.47	23.48	-39.4	-41.5	14.4	0.00e+00	0	60	0	788529152	50	4577
2026-01-17 08:26:00.18	43.63	23.42	-39.5	-41.7	14.3	0.00e+00	0	60	0	797966336	50	4666
2026-01-17 08:26:03.21	42.80	23.35	-39.6	-41.7	14.2	0.00e+00	0	60	0	807403520	50	4692
2026-01-17 08:26:06.24	41.97	23.28	-39.6	-41.9	14.1	1.50e-06	0	60	0	816840704	50	4765
2026-01-17 08:26:09.27	41.14	23.20	-39.7	-41.9	14.0	1.50e-06	0	60	0	826277888	50	4804
2026-01-17 08:26:12.30	40.32	23.12	-39.5	-41.7	14.3	7.00e-07	0	60	0	835715072	50	4661
2026-01-17 08:26:15.33	39.51	23.02	-39.5	-41.7	14.3	0.00e+00	0	61	0	845152256	50	4655
2026-01-17 08:26:18.36	38.69	22.93	-39.8	-42.1	13.9	3.80e-06	0	61	0	854589440	50	4923
2026-01-17 08:26:21.39	37.89	22.83	-39.7	-41.9	14.1	2.20e-06	0	60	0	864026624	50	4795
2026-01-17 08:26:24.42	37.09	22.72	-39.8	-42.0	14.0	3.80e-06	0	60	0	873463808	50	4839
2026-01-17 08:26:27.45	36.29	22.61	-39.7	-42.0	14.0	2.20e-06	0	61	0	882900992	50	4827
2026-01-17 08:26:30.49	35.50	22.49	-39.8	-42.1	13.9	1.50e-06	0	60	0	892338176	50	4884
2026-01-17 08:26:33.52	34.72	22.36	-40.0	-42.4	13.6	6.80e-06	0	61	0	901775360	50	5064
2026-01-17 08:26:36.55	33.94	22.23	-40.0	-42.4	13.6	9.90e-06	0	61	0	911212544	50	5057
2026-01-17 08:26:39.58	33.17	22.10	-39.7	-42.0	14.0	0.00e+00	0	60	0	920649728	50	4817
2026-01-17 08:26:42.60	32.41	21.96	-40.0	-42.4	13.6	8.30e-06	0	60	0	930086912	50	5069
2026-01-17 08:26:45.63	31.65	21.82	-40.0	-42.4	13.6	8.30e-06	0	60	0	939524096	50	5064
2026-01-17 08:26:48.66	30.90	21.67	-39.9	-42.1	13.9	3.80e-06	0	60	0	948961280	50	4915
2026-01-17 08:26:51.69	30.16	21.52	-39.9	-42.2	13.8	2.20e-06	0	61	0	958398464	50	4959
2026-01-17 08:26:54.72	29.43	21.36	-40.0	-42.3	13.7	7.60e-06	0	60	0	967835648	50	5028
2026-01-17 08:26:57.75	28.70	21.20	-39.9	-42.2	13.8	8.30e-06	0	60	0	977272832	50	4929
2026-01-17 08:27:00.78	27.98	21.04	-39.8	-42.1	13.9	5.30e-06	0	61	0	986710016	50	4886
2026-01-17 08:27:03.81	27.27	20.87	-39.8	-42.0	13.9	7.00e-07	0	60	0	996147200	50	4862
2026-01-17 08:27:06.84	26.57	20.70	-39.7	-41.9	14.1	2.20e-06	0	60	0	1005584384	50	4765
2026-01-17 08:27:09.87	25.87	20.53	-39.8	-42.1	13.9	3.80e-06	0	60	0	1015021568	50	4900
2026-01-17 08:27:12.90	25.19	20.35	-40.0	-42.4	13.6	1.22e-05	0	61	0	1024458752	50	5055
2026-01-17 08:27:15.94	24.50	20.17	-39.5	-41.7	14.2	7.00e-07	0	60	0	1033895936	50	4673
2026-01-17 08:27:18.97	23.83	19.99	-39.5	-41.6	14.3	0.00e+00	0	60	0	1043333120	50	4647
2026-01-17 08:27:22.00	23.17	19.80	-39.7	-42.0	14.0	2.20e-06	0	61	0	1052770304	50	4821
2026-01-17 08:27:25.03	22.52	19.61	-40.0	-42.3	13.6	6.80e-06	0	61	0	1063256064	50	5035
2026-01-17 08:27:28.05	21.87	19.42	-40.0	-42.3	13.6	1.52e-05	0	61	0	1071644672	50	5035
2026-01-17 08:27:31.08	21.23	19.23	-39.9	-42.3	13.6	1.37e-05	0	60	0	1082130432	50	5020
2026-01-17 08:27:34.11	20.60	19.03	-39.8	-42.0	13.8	8.30e-06	0	61	0	1091567616	50	4856
2026-01-17 08:27:37.15	19.98	18.84	-39.6	-41.8	14.1	2.20e-06	0	61	0	1101004800	50	4708
2026-01-17 08:27:40.18	19.37	18.64	-39.8	-42.1	13.7	5.30e-06	0	61	0	1110441984	50	4905
2026-01-17 08:27:43.20	18.76	18.44	-40.1	-42.6	13.2	1.83e-05	0	60	0	1119879168	50	5177
2026-01-17 08:27:46.23	18.16	18.23	-40.1	-42.6	13.1	2.97e-05	0	60	0	1129316352	51	4885
2026-01-17 08:27:49.26	17.57	18.03	-39.9	-42.3	13.4	1.44e-05	0	60	0	1138753536	51	4747
2026-01-17 08:27:52.29	16.99	17.83	-39.9	-42.3	13.4	1.37e-05	0	60	0	1148190720	51	4744
2026-01-17 08:27:55.32	16.42	17.62	-39.8	-42.2	13.5	9.90e-06	0	60	0	1157627904	51	4654
2026-01-17 08:27:58.35	15.85	17.41	-39.7	-42.0	13.8	5.30e-06	0	61	0	1167065088	51	4546
2026-01-17 08:28:01.39	15.29	17.20	-39.5	-41.8	13.9	1.50e-06	0	60	0	1176502272	50	4726
2026-01-17 08:28:04.42	14.75	16.99	-39.8	-42.1	13.5	9.10e-06	0	60	0	1185939456	50	4903
2026-01-17 08:28:07.45	14.20	16.78	-39.9	-42.3	13.3	1.75e-05	0	61	0	1195376640	50	5033
2026-01-17 08:28:10.48	13.67	16.57	-39.8	-42.2	13.4	1.60e-05	0	61	0	1204813824	50	4933
2026-01-17 08:28:13.51	13.14	16.36	-39.9	-42.4	13.2	2.59e-05	0	60	0	1214251008	50	5068
2026-01-17 08:28:16.54	12.62	16.14	-40.0	-42.5	13.0	4.57e-05	0	61	0	1223688192	50	5143
2026-01-17 08:28:19.57	12.11	15.93	-40.1	-42.7	12.7	7.24e-05	0	60	0	1233125376	50	5261
2026-01-17 08:28:22.60	11.61	15.72	-40.1	-42.7	12.8	6.10e-05	0	61	0	1242562560	50	5229
2026-01-17 08:28:25.63	11.11	15.50	-40.0	-42.6	12.7	8.16e-05	0	60	0	1251999744	50	5204
2026-01-17 08:28:28.65	10.62	15.29	-40.1	-42.7	12.6	9.07e-05	0	60	0	1261436928	50	5246
2026-01-17 08:28:31.69	10.14	15.07	-40.0	-42.7	12.4	1.40e-04	0	61	0	1270874112	50	5276
2026-01-17 08:28:34.72	9.66	14.86	-39.9	-42.7	12.4	1.39e-04	0	60	0	1280311296	50	5219
2026-01-17 08:28:37.75	9.19	14.64	-40.1	-42.9	12.0	2.74e-04	0	60	0	1289748480	50	5393
2026-01-17 08:28:40.78	8.73	14.43	-40.2	-43.1	11.7	5.59e-04	0	61	0	1299185664	51	5209
2026-01-17 08:28:43.81	8.28	14.21	-40.3	-43.3	11.5	8.32e-04	0	61	0	1308622848	51	5311
2026-01-17 08:28:46.84	7.83	14.00	-40.2	-43.3	11.5	7.82e-04	0	60	0	1318060032	51	5300
2026-01-17 08:28:49.87	7.39	13.79	-39.8	-42.7	11.9	4.02e-04	0	61	0	1327497216	51	4954
2026-01-17 08:28:52.91	6.95	13.57	-39.9	-43.0	11.5	8.64e-04	0	61	0	1336934400	51	5106
2026-01-17 08:28:55.94	6.52	13.36	-40.0	-43.4	10.7	2.51e-03	0	61	0	1346371584	51	5359
2026-01-17 08:28:58.97	6.10	13.14	-40.0	-43.8	9.9	1.04e-02	0	61	0	1355808768	51	5631
2026-01-17 08:29:02.00	5.68	12.93	-39.6	-43.2	10.4	5.00e-03	0	60	0	1365245952	51	5226
2026-01-17 08:29:05.03	5.27	12.72	-38.8	-42.0	11.4	1.09e-03	0	61	0	1375731712	49	5102
2026-01-17 08:29:08.06	4.87	12.50	-39.6	-43.9	9.1	1.56e-02	0	61	0	1385168896	49	6374
2026-01-17 08:29:11.09	4.47	12.29	-40.9	-49.7	4.3	1.29e+00	0	61	104	1392508928	52	10523
2026-01-17 08:29:14.12	4.08	12.08	-40.9	-53.3	3.8	1.49e+00	0	61	104	1392508928	52	15766
2026-01-17 08:29:17.15	3.69	11.87	-41.0	-53.6	3.8	1.49e+00	0	61	104	1392508928	53	15498
2026-01-17 08:29:20.17	3.31	11.66	-40.3	-52.7	3.8	1.49e+00	0	61	104	1392508928	52	14838
2026-01-17 08:29:23.21	2.94	11.45	-40.2	-52.7	3.8	1.49e+00	0	61	104	1392508928	52	14828
2026-01-17 08:29:26.23	2.57	11.24	-40.1	-52.5	3.8	1.49e+00	0	61	104	1392508928	52	14539
2026-01-17 08:29:29.26	2.20	11.03	-40.0	-52.5	3.8	1.49e+00	0	61	104	1392508928	51	15324
2026-01-17 08:29:32.29	1.84	10.82	-40.4	-52.9	3.8	1.49e+00	0	61	104	1392508928	51	16049
2026-01-17 08:29:35.31	1.49	10.62	-39.9	-52.4	3.8	1.49e+00	0	61	104	1392508928	51	15192
2026-01-17 08:29:38.34	1.14	10.41	-39.9	-52.4	3.8	1.49e+00	0	61	104	1392508928	51	15147
2026-01-17 08:29:41.37	0.80	10.20	-40.0	-52.6	3.8	1.49e+00	0	61	104	1392508928	51	15489
2026-01-17 08:29:44.40	0.46	10.00	-39.8	-52.4	3.8	1.49e+00	0	61	104	1392508928	51	15170
2026-01-17 08:29:47.43	0.13	9.79	-39.5	-52.4	3.8	1.49e+00	0	61	104	1392508928	50	15970
2026-01-17 08:29:50.47	359.79	9.59	-39.5	-52.5	3.8	1.49e+00	0	61	104	1392508928	50	16146
2026-01-17 08:29:53.49	359.47	9.38	-39.3	-52.4	3.8	1.49e+00	0	61	104	1392508928	50	15986
2026-01-17 08:29:56.52	359.15	9.18	-39.4	-52.4	3.8	1.49e+00	0	61	104	1392508928	50	16105
2026-01-17 08:29:59.55	358.84	8.98	-39.5	-52.4	3.8	1.49e+00	0	61	104	1392508928	50	15980
2026-01-17 08:30:02.58	358.53	8.78	-39.6	-52.3	3.8	1.49e+00	0	61	104	1392508928	50	15815
2026-01-17 08:30:05.61	358.22	8.58	-39.5	-52.3	3.8	1.49e+00	0	61	104	1392508928	50	15904
2026-01-17 08:30:08.64	357.92	8.38	-39.3	-52.3	3.8	1.49e+00	0	61	104	1392508928	50	15840
2026-01-17 08:30:11.67	357.62	8.18	-39.4	-52.3	3.8	1.49e+00	0	61	104	1392508928	50	15850
2026-01-17 08:30:14.70	357.33	7.98	-39.5	-52.3	3.8	1.49e+00	0	61	104	1392508928	50	15841
2026-01-17 08:30:17.73	357.04	7.79	-44.8	-57.3	3.8	1.49e+00	0	61	104	1392508928	60	15887
2026-01-17 08:30:20.77	356.75	7.59	-45.4	-57.9	3.8	1.49e+00	0	61	104	1392508928	61	15982
2026-01-17 08:30:23.80	356.47	7.40	-45.4	-57.8	3.8	1.49e+00	0	61	104	1392508928	61	15879
2026-01-17 08:30:26.83	356.19	7.20	-45.3	-57.7	3.8	1.49e+00	0	61	104	1392508928	61	15685
2026-01-17 08:30:29.86	355.92	7.01	-45.1	-57.6	3.8	1.49e+00	0	61	104	1392508928	61	15511
2026-01-17 08:30:32.89	355.65	6.81	-45.2	-57.5	3.8	1.49e+00	0	61	104	1392508928	61	15301
2026-01-17 08:30:35.93	355.38	6.62	-45.2	-57.5	3.8	1.49e+00	0	61	104	1392508928	61	15325
2026-01-17 08:30:38.96	355.12	6.43	-45.2	-57.5	3.8	1.49e+00	0	61	104	1392508928	61	15303
2026-01-17 08:30:41.99	354.86	6.24	-45.2	-57.5	3.8	1.49e+00	0	61	104	1392508928	61	15315
2026-01-17 08:30:45.03	354.60	6.05	-45.2	-57.5	3.8	1.49e+00	0	61	104	1392508928	61	15294
2026-01-17 08:30:48.06	354.35	5.86	-45.2	-57.5	3.8	1.49e+00	0	61	104	1392508928	60	16157
2026-01-17 08:30:51.09	354.10	5.67	-45.2	-57.5	3.8	1.49e+00	0	61	104	1392508928	60	16241
2026-01-17 08:30:54.13	353.85	5.49	-45.2	-57.5	3.8	1.49e+00	0	61	104	1392508928	60	16173
2026-01-17 08:30:57.16	353.61	5.30	-45.2	-57.5	3.8	1.49e+00	0	61	104	1392508928	60	16171
2026-01-17 08:31:00.19	353.37	5.12	-45.2	-57.5	3.8	1.49e+00	0	61	104	1392508928	60	16162
2026-01-17 08:31:03.22	353.13	4.93	-45.2	-57.5	3.8	1.49e+00	0	61	104	1392508928	60	16168
2026-01-17 08:31:06.25	352.90	4.75	-45.2	-57.5	3.8	1.49e+00	0	61	104	1392508928	60	16162
2026-01-17 08:31:09.29	352.67	4.56	-45.2	-57.5	3.8	1.49e+00	0	61	104	1392508928	60	16188
2026-01-17 08:31:12.32	352.44	4.38	-45.2	-57.5	3.8	1.49e+00	0	61	104	1392508928	60	16131
2026-01-17 08:31:15.35	352.22	4.20	-45.1	-57.4	3.8	1.49e+00	0	61	104	1392508928	60	16076
2026-01-17 08:31:18.39	352.00	4.02	-45.1	-57.5	3.8	1.49e+00	0	61	104	1392508928	60	16158
2026-01-17 08:31:21.42	351.78	3.84	-45.1	-57.4	3.8	1.49e+00	0	61	104	1392508928	60	16083
2026-01-17 08:31:24.45	351.57	3.66	-45.1	-57.4	3.8	1.49e+00	0	61	104	1392508928	60	16007
2026-01-17 08:31:27.49	351.35	3.48	-45.1	-57.4	3.8	1.49e+00	0	61	104	1392508928	60	16034
2026-01-17 08:31:30.52	351.14	3.30	-45.1	-57.4	3.8	1.49e+00	0	61	104	1392508928	60	15997
2026-01-17 08:31:33.55	350.94	3.13	-45.1	-57.4	3.8	1.49e+00	0	61	104	1392508928	60	16055
2026-01-17 08:31:36.58	350.73	2.95	-45.1	-57.4	3.8	1.49e+00	0	61	104	1392508928	60	16067
2026-01-17 08:31:39.62	350.53	2.78	-45.1	-57.4	3.8	1.49e+00	0	61	104	1392508928	60	16029
2026-01-17 08:31:42.65	350.33	2.60	-45.1	-57.4	3.8	1.49e+00	0	61	104	1392508928	60	16071
2026-01-17 08:31:45.68	350.13	2.43	-45.1	-57.4	3.8	1.49e+00	0	61	104	1392508928	60	16059
2026-01-17 08:31:48.71	349.94	2.26	-45.1	-57.4	3.8	1.49e+00	0	61	104	1392508928	60	16076
2026-01-17 08:31:51.75	349.74	2.08	-45.1	-57.4	3.8	1.49e+00	0	61	104	1392508928	60	16029
2026-01-17 08:31:54.78	349.55	1.91	-45.1	-57.4	3.8	1.49e+00	0	61	104	1392508928	60	16091

#Closed at: 2026-01-17 08:31:55
#Recorded file [1392 MB]: D:/lorett/data/31039_260117_111913.dat