passes_logs/2026/01/17/R2.0S_Moscow/R2.0S_Moscow__20260117_113537_AQUA_rec.log

#Pass ID: 20260117_113537_AQUA
#Satellite: AQUA
#Configuration: AQUA
#almurnet v.1.7.20251203
#Start time: 2026-01-17 11:35:37

#Version: 2.2.20231116
#Station: R2.0S_Moscow
#Location: 37.707566 lon 55.798166 lat
#TLE: 1 27424U 02022A   26016.26443506  .00000711  00000+0  15228-3 0  9999
#TLE: 2 27424  98.4083 342.7130 0002022  76.7284  27.4473 14.61823291261073

#Time	Az	El	Level	Level2	SNR	BER	BlckErr	Temp	State	Recorded	gain1	gain2
2026-01-17 11:35:37.35	158.89	1.99	-45.0	-63.6	3.8	7.47e-01	0	51	0	0	61	30846
2026-01-17 11:35:41.39	158.88	2.27	-44.9	-63.6	3.8	7.45e-01	0	51	104	0	60	32610
2026-01-17 11:35:45.44	158.87	2.54	-44.9	-63.6	3.8	7.43e-01	0	52	104	0	60	32648
2026-01-17 11:35:49.48	158.86	2.82	-44.9	-63.6	3.8	7.45e-01	0	52	104	0	60	32631
2026-01-17 11:35:53.52	158.85	3.10	-44.9	-63.6	3.8	7.47e-01	0	53	104	0	60	32602
2026-01-17 11:35:57.57	158.84	3.38	-44.9	-63.5	3.8	7.47e-01	0	53	104	0	60	32517
2026-01-17 11:36:01.61	158.83	3.67	-44.9	-63.5	3.8	7.45e-01	0	53	104	0	60	32494
2026-01-17 11:36:05.66	158.82	3.96	-44.9	-63.6	3.8	7.46e-01	0	53	104	0	60	32596
2026-01-17 11:36:09.70	158.81	4.25	-44.9	-63.5	3.8	7.48e-01	0	54	104	0	60	32293
2026-01-17 11:36:13.75	158.80	4.55	-44.9	-63.5	3.8	7.47e-01	0	54	104	0	60	32353
2026-01-17 11:36:17.79	158.79	4.85	-44.9	-63.3	3.8	7.44e-01	0	54	104	0	60	31621
2026-01-17 11:36:21.83	158.77	5.15	-44.9	-62.8	3.8	7.47e-01	0	54	104	0	60	29921
2026-01-17 11:36:25.88	158.76	5.46	-44.9	-63.5	3.8	7.43e-01	0	54	104	0	60	32542
2026-01-17 11:36:29.92	158.75	5.78	-44.9	-60.7	4.1	7.36e-01	0	54	104	0	60	23523
2026-01-17 11:36:33.97	158.73	6.09	-44.7	-56.9	5.7	6.91e-01	46	55	0	524288	60	15184
2026-01-17 11:36:38.01	158.72	6.41	-44.5	-55.1	7.2	6.59e-01	93	55	0	7340032	60	12302
2026-01-17 11:36:42.05	158.70	6.74	-44.7	-57.3	5.4	7.00e-01	0	55	0	13631488	60	15905
2026-01-17 11:36:46.09	158.68	7.07	-44.9	-62.8	3.8	7.44e-01	0	55	104	14155776	60	29762
2026-01-17 11:36:50.13	158.67	7.41	-44.4	-54.3	7.8	6.50e-01	89	56	0	16252928	60	11276
2026-01-17 11:36:54.17	158.65	7.75	-43.6	-49.6	13.2	6.10e-01	0	56	0	23592960	59	6891
2026-01-17 11:36:58.21	158.63	8.09	-42.8	-47.4	15.5	6.08e-01	0	56	0	30932992	57	6020
2026-01-17 11:37:02.25	158.61	8.44	-44.4	-53.4	8.1	6.32e-01	25	56	0	38797312	60	10070
2026-01-17 11:37:06.29	158.59	8.80	-42.6	-46.9	16.0	6.05e-01	0	56	0	44564480	57	5712
2026-01-17 11:37:10.33	158.57	9.16	-42.5	-46.7	16.4	6.08e-01	0	56	0	51904512	56	5870
2026-01-17 11:37:14.36	158.55	9.53	-42.4	-46.5	16.6	6.07e-01	0	56	0	59768832	56	5779
2026-01-17 11:37:18.40	158.52	9.90	-42.5	-46.5	16.7	6.07e-01	0	57	0	67108864	56	5762
2026-01-17 11:37:22.44	158.50	10.28	-42.5	-46.5	16.8	6.06e-01	0	57	0	74973184	56	5751
2026-01-17 11:37:26.48	158.48	10.67	-42.5	-46.5	16.9	6.06e-01	0	57	0	82313216	56	5723
2026-01-17 11:37:30.52	158.45	11.06	-42.5	-46.2	17.2	6.06e-01	0	57	0	89653248	56	5584
2026-01-17 11:37:34.55	158.42	11.46	-42.4	-46.0	17.5	6.06e-01	0	57	0	97517568	56	5450
2026-01-17 11:37:38.59	158.39	11.87	-42.4	-46.0	17.5	6.05e-01	0	57	0	104857600	56	5444
2026-01-17 11:37:42.63	158.37	12.29	-42.3	-45.8	17.8	6.06e-01	0	57	0	112721920	56	5339
2026-01-17 11:37:46.67	158.33	12.71	-42.3	-45.8	17.9	6.07e-01	0	57	0	120061952	56	5287
2026-01-17 11:37:50.71	158.30	13.15	-42.3	-45.7	17.9	6.07e-01	0	57	0	127926272	56	5268
2026-01-17 11:37:54.75	158.27	13.59	-42.2	-45.5	18.2	6.05e-01	0	57	0	135266304	56	5121
2026-01-17 11:37:58.78	158.23	14.04	-42.3	-45.6	18.1	6.03e-01	0	57	0	143130624	56	5214
2026-01-17 11:38:02.82	158.20	14.50	-42.2	-45.5	18.3	6.09e-01	0	58	0	150470656	56	5111
2026-01-17 11:38:06.86	158.16	14.97	-42.1	-45.4	18.4	6.07e-01	0	58	0	157810688	56	5077
2026-01-17 11:38:10.90	158.12	15.45	-42.3	-45.6	18.2	6.06e-01	0	58	0	165675008	56	5199
2026-01-17 11:38:14.94	158.08	15.94	-42.4	-45.8	18.1	6.06e-01	0	58	0	173015040	56	5289
2026-01-17 11:38:18.97	158.04	16.44	-42.4	-45.8	18.1	6.08e-01	0	58	0	180879360	56	5318
2026-01-17 11:38:23.01	157.99	16.95	-42.3	-45.5	18.4	6.07e-01	0	58	0	188219392	56	5152
2026-01-17 11:38:27.05	157.94	17.48	-42.2	-45.4	18.6	6.07e-01	0	58	0	196083712	56	5049
2026-01-17 11:38:31.09	157.89	18.02	-42.1	-45.3	18.6	6.07e-01	0	58	0	203423744	56	5025
2026-01-17 11:38:35.13	157.84	18.57	-42.3	-45.5	18.4	6.04e-01	0	58	0	211288064	56	5137
2026-01-17 11:38:39.16	157.79	19.14	-42.4	-45.7	18.3	6.07e-01	0	58	0	218628096	56	5251
2026-01-17 11:38:43.20	157.73	19.72	-42.4	-45.8	18.2	6.08e-01	0	58	0	225968128	56	5284
2026-01-17 11:38:47.24	157.67	20.31	-42.4	-45.8	18.3	6.06e-01	0	58	0	233832448	56	5281
2026-01-17 11:38:51.28	157.61	20.92	-42.6	-46.1	17.9	6.06e-01	0	58	0	241172480	56	5526
2026-01-17 11:38:55.32	157.54	21.55	-42.7	-46.2	17.8	6.05e-01	0	58	0	249036800	56	5557
2026-01-17 11:38:59.36	157.47	22.20	-42.5	-45.9	18.2	6.06e-01	0	58	0	256376832	56	5348
2026-01-17 11:39:03.40	157.40	22.86	-42.5	-45.9	18.2	6.06e-01	0	59	0	264241152	56	5350
2026-01-17 11:39:07.45	157.32	23.55	-42.6	-46.0	18.1	6.05e-01	0	59	0	271581184	56	5439
2026-01-17 11:39:11.49	157.24	24.25	-42.6	-46.0	18.1	6.06e-01	0	59	0	279445504	56	5419
2026-01-17 11:39:15.53	157.15	24.97	-42.6	-46.0	18.0	6.05e-01	0	59	0	286785536	56	5423
2026-01-17 11:39:19.57	157.06	25.72	-42.7	-46.1	18.0	6.08e-01	0	59	0	294125568	56	5480
2026-01-17 11:39:23.61	156.96	26.49	-42.6	-46.0	18.1	6.07e-01	0	59	0	301989888	56	5434
2026-01-17 11:39:27.65	156.86	27.28	-42.3	-45.4	18.7	6.07e-01	0	59	0	309329920	56	5094
2026-01-17 11:39:31.68	156.75	28.10	-42.4	-45.6	18.5	6.05e-01	0	59	0	317194240	56	5216
2026-01-17 11:39:35.72	156.64	28.95	-42.5	-45.8	18.3	6.06e-01	0	59	0	324534272	56	5284
2026-01-17 11:39:39.75	156.52	29.82	-42.2	-45.4	18.8	6.07e-01	0	59	0	332398592	56	5042
2026-01-17 11:39:43.79	156.39	30.72	-42.3	-45.4	18.8	6.07e-01	0	59	0	339738624	56	5051
2026-01-17 11:39:47.83	156.25	31.66	-42.0	-45.0	19.1	6.06e-01	0	59	0	347602944	56	4843
2026-01-17 11:39:51.87	156.10	32.62	-42.4	-45.6	18.6	6.05e-01	0	59	0	354942976	56	5160
2026-01-17 11:39:55.91	155.94	33.62	-42.7	-46.0	18.2	6.06e-01	0	59	0	362283008	56	5443
2026-01-17 11:39:59.95	155.78	34.66	-42.7	-46.1	18.1	6.06e-01	0	59	0	370147328	56	5481
2026-01-17 11:40:03.98	155.59	35.73	-43.4	-47.3	16.9	6.08e-01	0	59	0	377487360	57	5943
2026-01-17 11:40:08.02	155.40	36.85	-43.3	-47.1	17.0	6.07e-01	0	59	0	385351680	57	5853
2026-01-17 11:40:12.06	155.19	38.00	-43.5	-47.5	16.7	6.06e-01	0	59	0	392691712	57	6103
2026-01-17 11:40:16.10	154.96	39.20	-43.6	-47.7	16.6	6.08e-01	0	59	0	400556032	57	6207
2026-01-17 11:40:20.14	154.71	40.44	-43.4	-47.3	16.9	6.06e-01	0	60	0	407896064	57	5951
2026-01-17 11:40:24.17	154.45	41.73	-43.2	-47.0	17.2	6.06e-01	0	60	0	415760384	57	5749
2026-01-17 11:40:28.21	154.15	43.06	-42.7	-46.1	18.1	6.07e-01	0	60	0	423100416	57	5192
2026-01-17 11:40:32.25	153.84	44.45	-42.6	-45.9	18.4	6.07e-01	0	60	0	430440448	57	5051
2026-01-17 11:40:36.29	153.48	45.89	-42.8	-46.3	18.0	6.08e-01	0	60	0	438304768	57	5297
2026-01-17 11:40:40.33	153.10	47.39	-42.8	-46.2	18.0	6.07e-01	0	60	0	445644800	56	5576
2026-01-17 11:40:44.37	152.67	48.94	-42.7	-46.0	18.2	6.06e-01	0	60	0	453509120	56	5437
2026-01-17 11:40:48.41	152.19	50.54	-42.3	-45.4	18.8	6.06e-01	0	60	0	460849152	56	5084
2026-01-17 11:40:52.44	151.66	52.20	-42.1	-45.1	19.2	6.07e-01	0	60	0	468713472	56	4905
2026-01-17 11:40:56.48	151.06	53.93	-42.0	-44.9	19.3	6.08e-01	0	60	0	476053504	55	5080
2026-01-17 11:41:00.52	150.38	55.71	-42.3	-45.5	18.7	6.05e-01	0	60	0	483917824	55	5432
2026-01-17 11:41:04.56	149.61	57.55	-42.7	-46.1	18.1	6.05e-01	0	60	0	491257856	56	5501
2026-01-17 11:41:08.60	148.71	59.44	-43.3	-47.1	17.2	6.07e-01	0	59	0	498597888	57	5837
2026-01-17 11:41:12.65	147.67	61.40	-43.4	-47.3	17.0	6.09e-01	0	60	0	506462208	57	5953
2026-01-17 11:41:16.68	146.46	63.39	-43.8	-48.0	16.2	6.07e-01	0	60	0	513802240	58	6110
2026-01-17 11:41:20.72	145.00	65.44	-44.4	-49.5	14.7	6.08e-01	0	60	0	521666560	59	6827
2026-01-17 11:41:24.76	143.25	67.53	-44.5	-50.3	13.5	6.07e-01	0	60	0	529006592	60	7115
2026-01-17 11:41:28.80	141.09	69.64	-44.5	-50.3	13.5	6.09e-01	0	60	0	536870912	60	7077
2026-01-17 11:41:32.84	138.39	71.77	-44.4	-49.9	13.9	6.06e-01	0	60	0	544210944	60	6740
2026-01-17 11:41:36.88	134.92	73.90	-44.3	-49.4	14.7	6.05e-01	0	60	0	552075264	59	6767
2026-01-17 11:41:40.92	130.35	75.98	-44.3	-49.5	14.6	6.04e-01	0	60	0	559415296	59	6802
2026-01-17 11:41:44.95	124.16	77.98	-43.8	-48.2	15.9	6.09e-01	0	60	0	566755328	59	5897
2026-01-17 11:41:48.99	115.55	79.81	-43.3	-47.2	16.9	6.08e-01	0	60	0	574619648	58	5570
2026-01-17 11:41:53.03	103.48	81.33	-43.5	-47.5	16.6	6.07e-01	0	60	0	581959680	58	5773
2026-01-17 11:41:57.07	87.26	82.34	-43.3	-47.1	17.1	6.06e-01	0	60	0	589824000	58	5488
2026-01-17 11:42:01.10	68.17	82.60	-43.6	-47.7	16.5	6.08e-01	0	60	0	597164032	58	5881
2026-01-17 11:42:05.14	49.78	82.04	-43.6	-47.7	16.3	6.09e-01	0	60	0	605028352	58	5900
2026-01-17 11:42:09.18	35.10	80.82	-42.8	-46.2	17.9	6.07e-01	0	60	0	612368384	57	5272
2026-01-17 11:42:13.22	24.44	79.16	-43.5	-47.5	16.8	6.06e-01	0	60	0	620232704	57	6064
2026-01-17 11:42:17.26	16.83	77.26	-44.3	-49.2	14.8	6.05e-01	0	60	0	627572736	59	6605
2026-01-17 11:42:21.30	11.32	75.22	-44.0	-49.0	14.8	6.07e-01	0	60	0	634912768	60	6075
2026-01-17 11:42:25.34	7.21	73.12	-44.3	-49.2	15.0	6.06e-01	0	60	0	642777088	59	6591
2026-01-17 11:42:29.38	4.06	70.99	-44.6	-50.7	13.1	6.10e-01	0	60	0	650117120	60	7390
2026-01-17 11:42:33.42	1.58	68.87	-45.1	-52.3	11.1	6.19e-01	0	60	0	657981440	60	8890
2026-01-17 11:42:37.46	359.59	66.77	-44.7	-50.5	13.2	6.10e-01	0	60	0	665321472	60	7266
2026-01-17 11:42:41.50	357.96	64.70	-44.4	-49.3	14.6	6.08e-01	0	60	0	673185792	59	6719
2026-01-17 11:42:45.54	356.60	62.68	-44.3	-49.4	14.7	6.10e-01	0	60	0	680525824	59	6747
2026-01-17 11:42:49.58	355.45	60.70	-43.5	-47.5	16.8	6.06e-01	0	60	0	688390144	57	6084
2026-01-17 11:42:53.62	354.47	58.78	-43.2	-46.8	17.4	6.05e-01	0	60	0	695730176	57	5639
2026-01-17 11:42:57.66	353.63	56.91	-42.2	-45.2	17.4	6.07e-01	0	60	0	703070208	55	5268
2026-01-17 11:43:01.70	352.89	55.10	-41.7	-44.7	19.0	6.07e-01	0	60	0	710934528	54	5243
2026-01-17 11:43:05.74	352.25	53.34	-41.6	-44.4	19.8	6.07e-01	0	60	0	718274560	53	5346
2026-01-17 11:43:09.79	351.67	51.64	-42.2	-45.3	18.9	6.07e-01	0	60	0	726138880	55	5284
2026-01-17 11:43:13.82	351.16	50.01	-42.6	-45.8	18.4	6.06e-01	0	60	0	733478912	55	5645
2026-01-17 11:43:17.87	350.71	48.43	-42.6	-45.8	18.4	6.06e-01	0	60	0	741343232	55	5625
2026-01-17 11:43:21.91	350.29	46.90	-42.5	-45.7	18.5	6.07e-01	0	60	0	748683264	55	5553
2026-01-17 11:43:25.95	349.92	45.44	-42.3	-45.5	18.6	6.07e-01	0	60	0	756547584	55	5413
2026-01-17 11:43:29.99	349.59	44.02	-42.8	-46.2	18.1	6.06e-01	0	60	0	763887616	56	5586
2026-01-17 11:43:34.02	349.28	42.66	-42.8	-46.2	18.1	6.06e-01	0	60	0	771227648	56	5532
2026-01-17 11:43:38.07	349.00	41.34	-43.3	-47.1	17.2	6.07e-01	0	60	0	779091968	57	5820
2026-01-17 11:43:42.11	348.74	40.07	-43.5	-47.4	16.9	6.06e-01	0	60	0	786432000	57	6027
2026-01-17 11:43:46.14	348.50	38.86	-43.8	-48.1	16.2	6.06e-01	0	60	0	794296320	58	6153
2026-01-17 11:43:50.18	348.28	37.68	-43.6	-47.7	16.5	6.07e-01	0	60	0	801636352	57	6246
2026-01-17 11:43:54.22	348.08	36.54	-43.0	-46.6	17.6	6.08e-01	0	60	0	809500672	57	5480
2026-01-17 11:43:58.26	347.89	35.45	-42.8	-46.2	18.0	6.07e-01	0	60	0	816840704	57	5261
2026-01-17 11:44:02.30	347.71	34.39	-42.5	-45.8	18.4	6.05e-01	0	60	0	824705024	57	5008
2026-01-17 11:44:06.33	347.55	33.37	-42.4	-45.6	18.6	6.08e-01	0	60	0	832045056	56	5164
2026-01-17 11:44:10.37	347.40	32.39	-41.8	-44.7	19.3	6.07e-01	0	60	0	839385088	55	4941
2026-01-17 11:44:14.40	347.26	31.44	-41.7	-44.7	19.3	6.07e-01	0	60	0	847249408	55	4927
2026-01-17 11:44:18.44	347.12	30.52	-42.0	-45.0	18.9	6.07e-01	0	60	0	854589440	55	5152
2026-01-17 11:44:22.48	347.00	29.63	-42.1	-45.4	18.5	6.06e-01	0	60	0	862453760	55	5354
2026-01-17 11:44:26.52	346.88	28.77	-42.2	-45.4	18.4	6.06e-01	0	60	0	869793792	55	5392
2026-01-17 11:44:30.56	346.77	27.94	-42.0	-45.2	18.6	6.06e-01	0	60	0	877658112	55	5240
2026-01-17 11:44:34.59	346.67	27.13	-42.0	-45.2	18.5	6.06e-01	0	61	0	884998144	55	5273
2026-01-17 11:44:38.63	346.57	26.35	-41.9	-45.2	18.4	6.06e-01	0	60	0	892338176	55	5238
2026-01-17 11:44:42.67	346.48	25.59	-42.2	-45.8	17.7	6.05e-01	0	60	0	900202496	55	5613
2026-01-17 11:44:46.71	346.39	24.86	-42.4	-46.3	17.1	6.07e-01	0	61	0	907542528	55	5942
2026-01-17 11:44:50.74	346.31	24.14	-42.2	-46.0	17.2	6.05e-01	0	60	0	915406848	55	5782
2026-01-17 11:44:54.78	346.23	23.45	-42.0	-45.9	17.1	6.06e-01	0	60	0	922746880	55	5699
2026-01-17 11:44:58.82	346.16	22.78	-41.6	-45.8	16.5	6.06e-01	0	60	0	930611200	55	5634
2026-01-17 11:45:02.86	346.09	22.12	-41.4	-45.8	16.1	6.07e-01	0	60	0	937951232	54	5966
2026-01-17 11:45:06.90	346.02	21.48	-42.2	-49.7	11.6	6.13e-01	0	61	0	945815552	54	9337
2026-01-17 11:45:10.94	345.96	20.86	-42.5	-57.8	4.3	7.29e-01	0	60	104	951058432	55	22269
2026-01-17 11:45:14.98	345.90	20.26	-42.1	-60.6	3.8	7.44e-01	0	61	104	951058432	55	30966
2026-01-17 11:45:19.02	345.84	19.67	-42.2	-60.8	3.8	7.45e-01	0	60	104	951058432	56	29976
2026-01-17 11:45:23.06	345.79	19.10	-42.0	-61.0	3.8	7.44e-01	0	61	104	951058432	56	30639
2026-01-17 11:45:27.10	345.74	18.54	-42.0	-60.9	3.8	7.47e-01	0	61	104	951058432	55	31882
2026-01-17 11:45:31.14	345.69	17.99	-42.0	-61.1	3.8	7.44e-01	0	60	104	951058432	55	32809
2026-01-17 11:45:35.18	345.64	17.46	-41.9	-61.1	3.8	7.46e-01	0	61	104	951058432	55	32695
2026-01-17 11:45:39.21	345.60	16.94	-41.8	-61.2	3.8	7.47e-01	0	61	104	951058432	55	32931
2026-01-17 11:45:43.26	345.56	16.43	-41.9	-61.1	3.8	7.42e-01	0	61	104	951058432	55	32643
2026-01-17 11:45:47.29	345.52	15.94	-41.8	-61.0	3.8	7.43e-01	0	60	104	951058432	55	32422
2026-01-17 11:45:51.34	345.48	15.45	-41.7	-61.1	3.8	7.45e-01	0	61	104	951058432	55	32730
2026-01-17 11:45:55.37	345.45	14.98	-41.7	-61.2	3.8	7.42e-01	0	61	104	951058432	55	33147
2026-01-17 11:45:59.41	345.41	14.51	-41.7	-60.9	3.8	7.45e-01	0	61	104	951058432	55	32060
2026-01-17 11:46:03.45	345.38	14.05	-41.6	-60.9	3.8	7.45e-01	0	61	104	951058432	55	32019
2026-01-17 11:46:07.49	345.35	13.61	-41.8	-61.0	3.8	7.47e-01	0	61	104	951058432	55	32273
2026-01-17 11:46:11.53	345.32	13.17	-41.8	-61.0	3.8	7.44e-01	0	61	104	951058432	55	32392
2026-01-17 11:46:15.57	345.29	12.74	-41.6	-60.9	3.8	7.45e-01	0	61	104	951058432	54	33902
2026-01-17 11:46:19.61	345.26	12.32	-41.6	-60.8	3.8	7.45e-01	0	61	104	951058432	54	33539
2026-01-17 11:46:23.65	345.24	11.91	-41.5	-60.8	3.8	7.43e-01	0	61	104	951058432	54	33392
2026-01-17 11:46:27.69	345.21	11.50	-41.6	-60.9	3.8	7.45e-01	0	61	104	951058432	54	33736
2026-01-17 11:46:31.73	345.19	11.11	-41.6	-60.9	3.8	7.48e-01	0	61	104	951058432	54	33760
2026-01-17 11:46:35.77	345.17	10.72	-41.5	-60.8	3.8	7.46e-01	0	61	104	951058432	54	33404
2026-01-17 11:46:39.81	345.15	10.33	-41.6	-60.9	3.8	7.45e-01	0	61	104	951058432	54	33790
2026-01-17 11:46:43.85	345.13	9.95	-41.6	-60.8	3.8	7.44e-01	0	61	104	951058432	54	33412
2026-01-17 11:46:47.89	345.11	9.58	-41.5	-60.7	3.8	7.44e-01	0	61	104	951058432	54	33205
2026-01-17 11:46:51.94	345.09	9.22	-41.7	-60.8	3.8	7.43e-01	0	61	104	951058432	54	33480
2026-01-17 11:46:55.97	345.07	8.86	-41.6	-60.8	3.8	7.48e-01	0	61	104	951058432	54	33461
2026-01-17 11:47:00.01	345.06	8.51	-41.6	-60.7	3.8	7.45e-01	0	61	104	951058432	54	33222
2026-01-17 11:47:04.05	345.04	8.16	-41.7	-60.8	3.8	7.48e-01	0	61	104	951058432	54	33695
2026-01-17 11:47:08.09	345.03	7.81	-44.1	-63.1	3.8	7.45e-01	0	61	104	951058432	58	34590
2026-01-17 11:47:12.13	345.01	7.48	-46.3	-65.0	3.8	7.44e-01	0	61	104	951058432	63	32244
2026-01-17 11:47:16.17	345.00	7.14	-46.2	-64.8	3.8	7.42e-01	0	61	104	951058432	63	31556
2026-01-17 11:47:20.22	344.99	6.82	-46.3	-65.0	3.8	7.46e-01	0	61	104	951058432	63	32207
2026-01-17 11:47:24.26	344.98	6.49	-46.3	-64.9	3.8	7.43e-01	0	61	104	951058432	63	31941
2026-01-17 11:47:28.31	344.97	6.17	-46.3	-64.9	3.8	7.46e-01	0	61	104	951058432	63	31877
2026-01-17 11:47:32.35	344.96	5.86	-46.3	-64.9	3.8	7.45e-01	0	61	104	951058432	63	31925
2026-01-17 11:47:36.39	344.95	5.55	-45.9	-64.9	3.8	7.43e-01	0	61	104	951058432	63	31879
2026-01-17 11:47:40.44	344.94	5.24	-46.2	-64.9	3.8	7.46e-01	0	61	104	951058432	63	31814
2026-01-17 11:47:44.48	344.93	4.94	-46.3	-64.9	3.8	7.43e-01	0	61	104	951058432	63	31840
2026-01-17 11:47:48.52	344.92	4.64	-46.2	-64.8	3.8	7.47e-01	0	61	104	951058432	63	31802
2026-01-17 11:47:52.57	344.92	4.34	-46.2	-64.8	3.8	7.45e-01	0	61	104	951058432	63	31787
2026-01-17 11:47:56.61	344.91	4.05	-46.2	-64.8	3.8	7.44e-01	0	61	104	951058432	63	31785
2026-01-17 11:48:00.66	344.90	3.76	-46.2	-64.8	3.8	7.46e-01	0	61	104	951058432	63	31713
2026-01-17 11:48:04.70	344.90	3.48	-46.2	-64.8	3.8	7.45e-01	0	61	104	951058432	63	31750
2026-01-17 11:48:08.75	344.89	3.20	-46.2	-64.8	3.8	7.46e-01	0	61	104	951058432	63	31716
2026-01-17 11:48:12.79	344.89	2.92	-46.2	-64.8	3.8	7.47e-01	0	61	104	951058432	63	31640
2026-01-17 11:48:16.83	344.88	2.64	-46.1	-64.8	3.8	7.45e-01	0	61	104	951058432	62	33605
2026-01-17 11:48:20.88	344.88	2.37	-46.2	-64.8	3.8	7.47e-01	0	61	104	951058432	62	33521
2026-01-17 11:48:24.92	344.88	2.10	-46.2	-64.8	3.8	7.46e-01	0	61	104	951058432	62	33401

#Closed at: 2026-01-17 11:48:27
#Recorded file [951 MB]: D:/lorett/data/31039_260117_143537.dat