passes_logs/2026/01/17/R2.0S_Moscow/R2.0S_Moscow__20260117_013549_FENGYUN_3D_rec.log

#Pass ID: 20260117_013549_FENGYUN 3D
#Satellite: FENGYUN 3D
#Configuration: FENGYUN 3D
#almurnet v.1.7.20251203
#Start time: 2026-01-17 01:35:48

#Version: 2.2.20231116
#Station: R2.0S_Moscow
#Location: 37.707566 lon 55.798166 lat
#TLE: 1 43010U 17072A   26016.27214855  .00000192  00000+0  11235-3 0  9990
#TLE: 2 43010  98.9932 348.1078 0002365 105.5031 254.6406 14.19695933423435

#Time	Az	El	Level	Level2	SNR	BER	BlckErr	Temp	State	Recorded	gain1	gain2
2026-01-17 01:35:48.56	17.31	1.97	-41.6	-53.8	3.8	8.46e-01	0	51	0	0	55	14183
2026-01-17 01:35:52.61	17.36	2.23	-41.5	-53.8	3.8	8.46e-01	0	51	104	0	53	15852
2026-01-17 01:35:56.66	17.40	2.49	-41.5	-53.8	3.8	8.46e-01	0	52	104	0	53	15789
2026-01-17 01:36:00.70	17.45	2.75	-41.5	-53.8	3.8	8.47e-01	0	52	104	0	53	15844
2026-01-17 01:36:04.74	17.49	3.02	-41.5	-53.8	3.8	8.46e-01	0	52	104	0	53	15846
2026-01-17 01:36:08.79	17.54	3.29	-41.5	-53.8	3.8	8.46e-01	0	53	104	0	53	15838
2026-01-17 01:36:12.83	17.59	3.56	-41.5	-53.8	3.8	8.45e-01	0	53	104	0	53	15854
2026-01-17 01:36:16.88	17.64	3.83	-41.5	-53.8	3.8	8.46e-01	0	53	104	0	53	15851
2026-01-17 01:36:20.92	17.68	4.11	-41.5	-53.8	3.8	8.45e-01	0	54	104	0	53	15851
2026-01-17 01:36:24.96	17.73	4.39	-41.5	-53.8	3.8	8.46e-01	0	54	104	0	53	15868
2026-01-17 01:36:29.00	17.78	4.67	-41.5	-53.8	3.8	8.47e-01	0	54	104	0	53	15813
2026-01-17 01:36:33.05	17.83	4.95	-41.5	-53.7	3.8	8.46e-01	0	54	104	0	53	15756
2026-01-17 01:36:37.09	17.88	5.24	-41.5	-53.8	3.8	8.46e-01	0	55	104	0	53	15835
2026-01-17 01:36:41.14	17.93	5.53	-41.5	-53.8	3.8	8.46e-01	0	55	104	0	53	15783
2026-01-17 01:36:45.18	17.99	5.83	-41.5	-53.8	3.8	8.46e-01	0	55	104	0	53	15768
2026-01-17 01:36:49.22	18.04	6.12	-41.5	-53.7	3.8	8.46e-01	0	55	104	0	53	15707
2026-01-17 01:36:53.27	18.09	6.42	-41.5	-53.7	3.8	8.46e-01	0	55	104	0	53	15760
2026-01-17 01:36:57.31	18.15	6.73	-41.5	-53.7	3.8	8.45e-01	0	56	104	0	53	15619
2026-01-17 01:37:01.35	18.20	7.04	-41.5	-53.6	3.8	8.47e-01	0	56	104	0	53	15432
2026-01-17 01:37:05.39	18.26	7.35	-41.5	-53.3	3.8	8.47e-01	0	56	104	0	53	14987
2026-01-17 01:37:09.44	18.32	7.66	-41.2	-50.4	4.1	8.43e-01	0	56	0	0	53	10763
2026-01-17 01:37:13.48	18.37	7.98	-40.0	-45.5	7.0	2.11e-01	0	56	0	8388608	52	6448
2026-01-17 01:37:17.52	18.43	8.31	-39.4	-42.5	11.2	3.13e-03	0	57	0	20971520	49	5408
2026-01-17 01:37:21.56	18.49	8.63	-39.1	-42.0	11.5	8.91e-04	0	57	0	41943040	49	5122
2026-01-17 01:37:25.60	18.55	8.97	-39.1	-41.9	11.8	7.67e-04	0	57	0	65011712	49	5082
2026-01-17 01:37:29.64	18.61	9.30	-39.0	-41.7	12.2	3.97e-04	0	57	0	88080384	49	4956
2026-01-17 01:37:33.68	18.67	9.64	-39.1	-41.6	12.5	2.08e-04	0	57	0	110100480	49	4912
2026-01-17 01:37:37.72	18.74	9.99	-38.9	-41.2	13.1	9.04e-05	0	57	0	133169152	49	4682
2026-01-17 01:37:41.76	18.80	10.34	-39.0	-41.4	13.0	6.40e-05	0	57	0	155189248	49	4787
2026-01-17 01:37:45.80	18.87	10.70	-38.9	-41.1	13.3	4.11e-05	0	57	0	178257920	49	4648
2026-01-17 01:37:49.84	18.94	11.06	-38.8	-41.1	13.5	1.60e-05	0	58	0	201326592	49	4599
2026-01-17 01:37:53.88	19.00	11.42	-38.9	-41.1	13.5	1.83e-05	0	58	0	224395264	49	4621
2026-01-17 01:37:57.92	19.07	11.80	-38.9	-41.0	13.6	1.37e-05	0	58	0	246415360	49	4594
2026-01-17 01:38:01.96	19.14	12.17	-38.9	-41.1	13.6	8.00e-06	0	58	0	269484032	49	4638
2026-01-17 01:38:06.00	19.22	12.56	-38.9	-41.1	13.7	1.14e-05	0	58	0	292552704	49	4600
2026-01-17 01:38:10.04	19.29	12.95	-38.9	-41.1	13.6	6.80e-06	0	58	0	314572800	49	4617
2026-01-17 01:38:14.08	19.37	13.35	-38.8	-41.0	13.8	1.25e-05	0	58	0	337641472	49	4548
2026-01-17 01:38:18.12	19.44	13.75	-38.8	-40.9	13.9	3.40e-06	0	58	0	360710144	49	4513
2026-01-17 01:38:22.16	19.52	14.16	-38.6	-40.6	14.3	1.10e-06	0	58	0	382730240	49	4369
2026-01-17 01:38:26.20	19.60	14.57	-38.4	-40.4	14.5	2.20e-06	0	58	0	405798912	48	4532
2026-01-17 01:38:30.24	19.68	15.00	-38.3	-40.2	14.9	0.00e+00	0	58	0	428867584	48	4394
2026-01-17 01:38:34.29	19.77	15.43	-38.1	-40.0	15.1	0.00e+00	0	58	0	450887680	48	4302
2026-01-17 01:38:38.32	19.85	15.87	-37.8	-39.6	15.4	0.00e+00	0	58	0	473956352	47	4348
2026-01-17 01:38:42.36	19.94	16.32	-37.6	-39.3	15.6	0.00e+00	0	59	0	497025024	47	4236
2026-01-17 01:38:46.40	20.03	16.77	-37.5	-39.2	15.8	0.00e+00	0	59	0	519045120	46	4424
2026-01-17 01:38:50.44	20.12	17.24	-37.5	-39.2	15.8	0.00e+00	0	59	0	542113792	46	4412
2026-01-17 01:38:54.48	20.22	17.71	-37.5	-39.2	15.9	0.00e+00	0	59	0	565182464	46	4406
2026-01-17 01:38:58.52	20.32	18.19	-37.4	-39.1	16.1	0.00e+00	0	59	0	587202560	46	4344
2026-01-17 01:39:02.56	20.42	18.68	-37.3	-39.0	16.2	0.00e+00	0	59	0	610271232	46	4314
2026-01-17 01:39:06.59	20.52	19.19	-37.4	-39.0	16.1	0.00e+00	0	59	0	633339904	46	4334
2026-01-17 01:39:10.64	20.62	19.70	-37.2	-38.8	16.4	0.00e+00	0	59	0	655360000	46	4195
2026-01-17 01:39:14.67	20.73	20.22	-37.0	-38.6	16.7	0.00e+00	0	59	0	678428672	45	4344
2026-01-17 01:39:18.71	20.85	20.76	-36.9	-38.4	16.8	0.00e+00	0	59	0	701497344	45	4278
2026-01-17 01:39:22.75	20.96	21.30	-36.9	-38.5	16.8	0.00e+00	0	59	0	723517440	45	4297
2026-01-17 01:39:26.78	21.08	21.86	-36.8	-38.3	17.0	0.00e+00	0	59	0	746586112	45	4216
2026-01-17 01:39:30.82	21.20	22.43	-36.7	-38.2	17.0	0.00e+00	0	60	0	769654784	45	4191
2026-01-17 01:39:34.86	21.33	23.01	-36.7	-38.2	17.1	0.00e+00	0	59	0	791674880	45	4191
2026-01-17 01:39:38.90	21.46	23.61	-36.7	-38.1	17.2	0.00e+00	0	59	0	814743552	45	4143
2026-01-17 01:39:42.94	21.60	24.22	-36.5	-37.9	17.4	0.00e+00	0	59	0	837812224	45	4051
2026-01-17 01:39:46.98	21.74	24.85	-36.4	-37.8	17.5	0.00e+00	0	59	0	859832320	44	4240
2026-01-17 01:39:51.02	21.88	25.49	-36.3	-37.7	17.6	0.00e+00	0	59	0	882900992	44	4185
2026-01-17 01:39:55.06	22.03	26.15	-36.4	-37.9	17.5	0.00e+00	0	60	0	905969664	44	4246
2026-01-17 01:39:59.10	22.19	26.82	-36.6	-38.0	17.4	0.00e+00	0	59	0	927989760	44	4327
2026-01-17 01:40:03.15	22.35	27.51	-36.4	-37.9	17.5	0.00e+00	0	59	0	951058432	44	4247
2026-01-17 01:40:07.19	22.52	28.22	-36.4	-37.8	17.6	0.00e+00	0	60	0	974127104	44	4218
2026-01-17 01:40:11.23	22.70	28.95	-36.2	-37.6	17.8	0.00e+00	0	60	0	996147200	44	4124
2026-01-17 01:40:15.26	22.88	29.69	-36.4	-37.9	17.5	0.00e+00	0	60	0	1019215872	44	4269
2026-01-17 01:40:19.31	23.08	30.46	-36.6	-38.1	17.4	0.00e+00	0	60	0	1042284544	44	4344
2026-01-17 01:40:23.34	23.28	31.24	-36.3	-37.7	17.7	0.00e+00	0	60	0	1064304640	44	4184
2026-01-17 01:40:27.39	23.49	32.05	-36.1	-37.5	18.0	0.00e+00	0	60	0	1087373312	44	4087
2026-01-17 01:40:31.42	23.71	32.88	-36.3	-37.7	17.8	0.00e+00	0	60	0	1110441984	44	4165
2026-01-17 01:40:35.46	23.94	33.73	-36.3	-37.8	17.7	0.00e+00	0	60	0	1132462080	44	4203
2026-01-17 01:40:39.50	24.18	34.61	-35.6	-37.0	18.4	0.00e+00	0	60	0	1155530752	43	4059
2026-01-17 01:40:43.54	24.44	35.51	-35.5	-36.8	18.6	0.00e+00	0	60	0	1178599424	42	4215
2026-01-17 01:40:47.58	24.70	36.44	-35.8	-37.2	18.2	0.00e+00	0	60	0	1200619520	42	4401
2026-01-17 01:40:51.61	24.99	37.39	-35.5	-36.9	18.5	0.00e+00	0	60	0	1223688192	42	4253
2026-01-17 01:40:55.65	25.29	38.37	-35.7	-37.1	18.3	0.00e+00	0	60	0	1246756864	42	4350
2026-01-17 01:40:59.68	25.61	39.38	-35.7	-37.1	18.3	0.00e+00	0	60	0	1268776960	42	4347
2026-01-17 01:41:03.72	25.95	40.42	-35.7	-37.0	18.4	0.00e+00	0	60	0	1291845632	42	4322
2026-01-17 01:41:07.76	26.31	41.49	-36.0	-37.4	18.0	0.00e+00	0	60	0	1314914304	42	4514
2026-01-17 01:41:11.80	26.69	42.59	-36.1	-37.5	17.9	0.00e+00	0	60	0	1336934400	42	4569
2026-01-17 01:41:15.84	27.10	43.72	-36.1	-37.6	17.5	0.00e+00	0	60	0	1360003072	42	4627
2026-01-17 01:41:19.87	27.54	44.89	-36.3	-37.9	17.2	0.00e+00	0	60	0	1383071744	43	4527
2026-01-17 01:41:23.92	28.02	46.09	-36.0	-37.4	17.7	0.00e+00	0	60	0	1405091840	43	4289
2026-01-17 01:41:27.96	28.53	47.33	-36.0	-37.5	17.7	0.00e+00	0	60	0	1428160512	43	4325
2026-01-17 01:41:32.00	29.08	48.60	-36.1	-37.6	17.6	0.00e+00	0	60	0	1451229184	43	4353
2026-01-17 01:41:36.04	29.68	49.90	-36.4	-38.0	17.3	0.00e+00	0	60	0	1473249280	43	4557
2026-01-17 01:41:40.08	30.33	51.24	-36.9	-38.5	16.9	0.00e+00	0	60	0	1496317952	44	4557
2026-01-17 01:41:44.12	31.04	52.61	-36.7	-38.3	17.1	0.00e+00	0	60	0	1519386624	44	4464
2026-01-17 01:41:48.15	31.82	54.02	-37.6	-39.4	16.0	0.00e+00	0	60	0	1541406720	45	4783
2026-01-17 01:41:52.20	32.68	55.47	-37.7	-39.5	16.0	0.00e+00	0	60	0	1564475392	46	4553
2026-01-17 01:41:56.23	33.63	56.94	-37.7	-39.5	15.9	0.00e+00	0	60	0	1587544064	46	4575
2026-01-17 01:42:00.27	34.69	58.45	-36.5	-38.0	17.3	0.00e+00	0	60	0	1609564160	45	4086
2026-01-17 01:42:04.31	35.88	59.99	-36.3	-37.8	17.6	0.00e+00	0	60	0	1632632832	44	4218
2026-01-17 01:42:08.35	37.22	61.55	-36.1	-37.6	17.8	0.00e+00	0	61	0	1655701504	44	4136
2026-01-17 01:42:12.40	38.74	63.14	-35.5	-37.0	18.2	0.00e+00	0	61	0	1677721600	42	4293
2026-01-17 01:42:16.44	40.48	64.74	-35.6	-37.1	18.1	0.00e+00	0	60	0	1700790272	42	4342
2026-01-17 01:42:20.48	42.48	66.36	-35.4	-36.8	18.3	0.00e+00	0	60	0	1723858944	42	4194
2026-01-17 01:42:24.52	44.80	67.98	-35.7	-37.2	17.9	0.00e+00	0	60	0	1746927616	42	4407
2026-01-17 01:42:28.56	47.52	69.59	-35.2	-36.6	18.5	0.00e+00	0	60	0	1768947712	42	4120
2026-01-17 01:42:32.60	50.74	71.17	-34.9	-36.2	18.7	0.00e+00	0	60	0	1792016384	41	4186
2026-01-17 01:42:36.64	54.57	72.72	-34.6	-35.9	19.0	0.00e+00	0	61	0	1814036480	41	4044
2026-01-17 01:42:40.68	59.19	74.19	-34.5	-35.8	19.1	0.00e+00	0	60	0	1837105152	40	4232
2026-01-17 01:42:44.72	64.75	75.57	-34.4	-35.7	19.1	0.00e+00	0	60	0	1860173824	40	4177
2026-01-17 01:42:48.76	71.46	76.80	-33.9	-35.2	19.6	0.00e+00	0	60	0	1883242496	39	4182
2026-01-17 01:42:52.80	79.47	77.83	-34.0	-35.4	19.5	0.00e+00	0	60	0	1905262592	39	4249
2026-01-17 01:42:56.84	88.77	78.59	-34.1	-35.4	19.4	0.00e+00	0	60	0	1928331264	39	4282
2026-01-17 01:43:00.89	99.15	79.02	-34.2	-35.5	19.3	0.00e+00	0	60	0	1951399936	39	4335
2026-01-17 01:43:04.92	109.96	79.09	-33.8	-35.0	19.8	0.00e+00	0	60	0	1973420032	39	4084
2026-01-17 01:43:08.96	120.55	78.77	-33.8	-35.1	19.7	0.00e+00	0	60	0	1996488704	39	4130
2026-01-17 01:43:13.01	130.27	78.11	-33.7	-35.0	19.9	0.00e+00	0	61	0	2019557376	39	4058
2026-01-17 01:43:17.05	138.72	77.16	-33.8	-35.0	19.8	0.00e+00	0	61	0	2041577472	39	4087
2026-01-17 01:43:21.09	145.85	75.99	-34.3	-35.6	19.2	0.00e+00	0	61	0	2064646144	39	4371
2026-01-17 01:43:25.13	151.77	74.65	-34.2	-35.5	19.4	0.00e+00	0	60	0	2087714816	39	4305
2026-01-17 01:43:29.17	156.68	73.20	-34.5	-35.8	19.2	0.00e+00	0	60	0	2109734912	39	4445
2026-01-17 01:43:33.21	160.76	71.68	-34.8	-36.2	18.7	0.00e+00	0	61	0	2132803584	40	4407
2026-01-17 01:43:37.25	164.16	70.10	-34.7	-36.1	18.8	0.00e+00	0	60	0	2155872256	40	4363
2026-01-17 01:43:41.29	167.04	68.49	-35.0	-36.4	18.5	0.00e+00	0	61	0	2177892352	40	4511
2026-01-17 01:43:45.33	169.48	66.87	-34.9	-36.2	18.8	0.00e+00	0	60	0	2200961024	40	4430
2026-01-17 01:43:49.37	171.58	65.25	-35.5	-36.9	18.1	0.00e+00	0	60	0	2224029696	41	4542
2026-01-17 01:43:53.41	173.40	63.64	-35.1	-36.5	18.5	0.00e+00	0	61	0	2246049792	41	4308
2026-01-17 01:43:57.45	174.98	62.04	-35.3	-36.7	18.3	0.00e+00	0	60	0	2269118464	41	4424
2026-01-17 01:44:01.49	176.38	60.46	-35.8	-37.2	17.8	0.00e+00	0	60	0	2292187136	42	4435
2026-01-17 01:44:05.53	177.61	58.91	-36.2	-37.7	17.4	0.00e+00	0	61	0	2314207232	43	4419
2026-01-17 01:44:09.57	178.71	57.39	-36.6	-38.3	16.8	0.00e+00	0	61	0	2337275904	43	4738
2026-01-17 01:44:13.61	179.70	55.90	-36.7	-38.3	16.8	0.00e+00	0	61	0	2360344576	43	4719
2026-01-17 01:44:17.65	180.59	54.44	-36.6	-38.1	17.2	0.00e+00	0	61	0	2382364672	44	4359
2026-01-17 01:44:21.69	181.39	53.01	-37.1	-38.8	16.4	0.00e+00	0	60	0	2405433344	44	4721
2026-01-17 01:44:25.73	182.13	51.62	-36.8	-38.4	16.8	0.00e+00	0	61	0	2428502016	44	4522
2026-01-17 01:44:29.77	182.79	50.26	-36.2	-37.7	17.5	0.00e+00	0	61	0	2450522112	44	4192
2026-01-17 01:44:33.81	183.41	48.94	-35.6	-37.1	17.9	0.00e+00	0	61	0	2473590784	43	4113
2026-01-17 01:44:37.84	183.97	47.66	-35.8	-37.2	17.8	0.00e+00	0	61	0	2496659456	43	4188
2026-01-17 01:44:41.89	184.50	46.41	-35.9	-37.4	17.7	0.00e+00	0	61	0	2518679552	43	4247
2026-01-17 01:44:45.93	184.98	45.19	-35.7	-37.2	17.7	0.00e+00	0	60	0	2541748224	43	4184
2026-01-17 01:44:49.97	185.43	44.01	-35.5	-37.0	18.0	0.00e+00	0	61	0	2564816896	43	4075
2026-01-17 01:44:54.01	185.85	42.86	-35.6	-37.0	17.9	0.00e+00	0	61	0	2586836992	43	4093
2026-01-17 01:44:58.05	186.24	41.74	-35.6	-37.1	17.8	0.00e+00	0	61	0	2609905664	43	4128
2026-01-17 01:45:02.09	186.61	40.66	-35.4	-36.9	18.0	0.00e+00	0	61	0	2632974336	42	4272
2026-01-17 01:45:06.13	186.95	39.61	-35.3	-36.8	18.1	0.00e+00	0	61	0	2654994432	42	4200
2026-01-17 01:45:10.17	187.27	38.58	-35.3	-36.8	18.1	0.00e+00	0	61	0	2678063104	42	4207
2026-01-17 01:45:14.21	187.58	37.59	-35.1	-36.6	18.3	0.00e+00	0	61	0	2701131776	42	4116
2026-01-17 01:45:18.24	187.87	36.62	-35.0	-36.4	18.4	0.00e+00	0	61	0	2723151872	41	4263
2026-01-17 01:45:22.29	188.14	35.68	-35.4	-36.9	17.9	0.00e+00	0	61	0	2746220544	41	4527
2026-01-17 01:45:26.33	188.40	34.77	-35.4	-36.9	17.9	0.00e+00	0	61	0	2769289216	41	4517
2026-01-17 01:45:30.38	188.64	33.88	-35.1	-36.6	18.2	0.00e+00	0	61	0	2791309312	41	4348
2026-01-17 01:45:34.42	188.88	33.01	-35.4	-36.8	18.0	0.00e+00	0	61	0	2814377984	41	4473
2026-01-17 01:45:38.46	189.10	32.17	-35.7	-37.2	17.6	0.00e+00	0	61	0	2837446656	41	4698
2026-01-17 01:45:42.50	189.31	31.36	-35.9	-37.5	17.4	0.00e+00	0	61	0	2859466752	42	4556
2026-01-17 01:45:46.55	189.51	30.56	-36.0	-37.6	17.2	0.00e+00	0	61	0	2882535424	42	4621
2026-01-17 01:45:50.59	189.70	29.78	-36.0	-37.6	17.2	0.00e+00	0	61	0	2905604096	42	4649
2026-01-17 01:45:54.63	189.89	29.03	-36.0	-37.6	17.2	0.00e+00	0	61	0	2928672768	42	4624
2026-01-17 01:45:58.67	190.07	28.30	-35.9	-37.4	17.4	0.00e+00	0	61	0	2950692864	42	4532
2026-01-17 01:46:02.71	190.23	27.58	-35.6	-37.1	17.7	0.00e+00	0	61	0	2973761536	42	4353
2026-01-17 01:46:06.75	190.40	26.88	-35.4	-36.9	17.9	0.00e+00	0	61	0	2995781632	42	4251
2026-01-17 01:46:10.79	190.55	26.20	-35.5	-37.0	17.8	0.00e+00	0	61	0	3018850304	42	4302
2026-01-17 01:46:14.83	190.70	25.54	-35.7	-37.3	17.5	0.00e+00	0	61	0	3041918976	42	4452
2026-01-17 01:46:18.87	190.85	24.89	-36.0	-37.5	17.3	0.00e+00	0	61	0	3064987648	42	4593
2026-01-17 01:46:22.91	190.99	24.26	-36.0	-37.6	17.2	0.00e+00	0	61	0	3087007744	42	4619
2026-01-17 01:46:26.95	191.12	23.64	-35.9	-37.5	17.3	0.00e+00	0	61	0	3110076416	42	4549
2026-01-17 01:46:31.00	191.25	23.03	-35.9	-37.4	17.3	0.00e+00	0	61	0	3133145088	42	4532
2026-01-17 01:46:35.04	191.38	22.44	-36.0	-37.5	17.2	0.00e+00	0	61	0	3155165184	42	4586
2026-01-17 01:46:39.08	191.50	21.87	-36.1	-37.7	17.1	0.00e+00	0	61	0	3178233856	42	4659
2026-01-17 01:46:43.12	191.62	21.30	-36.2	-37.8	16.9	0.00e+00	0	61	0	3201302528	43	4489
2026-01-17 01:46:47.16	191.73	20.75	-36.4	-38.0	16.8	0.00e+00	0	61	0	3223322624	43	4575
2026-01-17 01:46:51.20	191.84	20.21	-36.5	-38.2	16.6	0.00e+00	0	61	0	3246391296	43	4657
2026-01-17 01:46:55.24	191.95	19.68	-36.6	-38.3	16.5	0.00e+00	0	61	0	3269459968	43	4722
2026-01-17 01:46:59.28	192.05	19.17	-36.7	-38.4	16.4	0.00e+00	0	61	0	3291480064	43	4765
2026-01-17 01:47:03.32	192.15	18.66	-37.0	-38.7	16.2	0.00e+00	0	61	0	3314548736	44	4671
2026-01-17 01:47:07.36	192.25	18.16	-37.1	-38.8	16.1	0.00e+00	0	61	0	3337617408	44	4738
2026-01-17 01:47:11.40	192.35	17.68	-37.2	-39.0	15.9	0.00e+00	0	61	0	3359637504	44	4829
2026-01-17 01:47:15.44	192.44	17.20	-37.3	-39.1	15.7	0.00e+00	0	61	0	3382706176	45	4649
2026-01-17 01:47:19.48	192.53	16.73	-37.4	-39.3	15.6	0.00e+00	0	61	0	3405774848	45	4718
2026-01-17 01:47:23.52	192.62	16.27	-37.6	-39.5	15.3	0.00e+00	0	61	0	3427794944	45	4865
2026-01-17 01:47:27.56	192.70	15.82	-37.8	-39.7	15.1	0.00e+00	0	61	0	3450863616	46	4698
2026-01-17 01:47:31.60	192.79	15.38	-37.8	-39.8	15.0	1.10e-06	0	61	0	3473932288	46	4720
2026-01-17 01:47:35.64	192.87	14.94	-37.9	-39.8	15.0	0.00e+00	0	61	0	3495952384	46	4759
2026-01-17 01:47:39.68	192.95	14.51	-38.0	-40.0	14.8	0.00e+00	0	61	0	3519021056	46	4838
2026-01-17 01:47:43.71	193.02	14.09	-38.2	-40.2	14.7	1.10e-06	0	61	0	3542089728	46	4942
2026-01-17 01:47:47.75	193.10	13.68	-38.2	-40.2	14.6	0.00e+00	0	61	0	3564109824	46	4970
2026-01-17 01:47:51.79	193.17	13.28	-38.3	-40.3	14.5	3.40e-06	0	61	0	3587178496	47	4732
2026-01-17 01:47:55.83	193.24	12.88	-38.3	-40.3	14.4	2.20e-06	0	61	0	3610247168	47	4754
2026-01-17 01:47:59.87	193.31	12.48	-38.3	-40.4	14.3	1.10e-06	0	61	0	3632267264	47	4813
2026-01-17 01:48:03.92	193.38	12.10	-38.5	-40.6	14.1	5.70e-06	0	61	0	3655335936	47	4910
2026-01-17 01:48:07.96	193.45	11.71	-38.5	-40.7	14.0	3.40e-06	0	61	0	3678404608	47	4971
2026-01-17 01:48:11.99	193.52	11.34	-38.6	-40.8	13.8	3.40e-06	0	61	0	3700424704	47	5025
2026-01-17 01:48:16.03	193.58	10.97	-38.8	-41.0	13.8	6.80e-06	0	61	0	3723493376	48	4827
2026-01-17 01:48:20.07	193.64	10.61	-38.9	-41.2	13.6	1.14e-05	0	61	0	3746562048	48	4956
2026-01-17 01:48:24.11	193.71	10.25	-38.9	-41.2	13.5	1.71e-05	0	61	0	3769630720	48	4957
2026-01-17 01:48:28.15	193.77	9.90	-39.0	-41.3	13.4	2.05e-05	0	61	0	3791650816	48	5019
2026-01-17 01:48:32.19	193.83	9.55	-39.1	-41.4	13.2	2.51e-05	0	61	0	3814719488	48	5080
2026-01-17 01:48:36.23	193.89	9.20	-39.1	-41.4	13.2	3.77e-05	0	61	0	3836739584	48	5087
2026-01-17 01:48:40.28	193.94	8.86	-39.1	-41.5	13.1	2.97e-05	0	61	0	3859808256	48	5107
2026-01-17 01:48:44.32	194.00	8.53	-39.2	-41.6	12.8	8.12e-05	0	61	0	3882876928	48	5192
2026-01-17 01:48:48.36	194.05	8.20	-39.1	-41.6	12.8	1.01e-04	0	61	0	3905945600	48	5178
2026-01-17 01:48:52.40	194.11	7.87	-44.9	-56.6	3.8	8.45e-01	0	61	104	3919577088	60	14708
2026-01-17 01:48:56.45	194.16	7.55	-45.3	-57.1	3.8	8.47e-01	0	61	104	3919577088	61	14606
2026-01-17 01:49:00.49	194.22	7.23	-45.3	-57.1	3.8	8.45e-01	0	61	104	3919577088	61	14572
2026-01-17 01:49:04.53	194.27	6.92	-45.4	-57.0	3.8	8.47e-01	0	61	104	3919577088	61	14490
2026-01-17 01:49:08.57	194.32	6.61	-45.3	-56.9	3.8	8.46e-01	0	61	104	3919577088	61	14285
2026-01-17 01:49:12.61	194.37	6.31	-45.3	-56.9	3.8	8.46e-01	0	61	104	3919577088	61	14299
2026-01-17 01:49:16.65	194.42	6.00	-45.3	-56.9	3.8	8.47e-01	0	61	104	3919577088	61	14288
2026-01-17 01:49:20.70	194.46	5.70	-45.2	-56.9	3.8	8.47e-01	0	61	104	3919577088	61	14294
2026-01-17 01:49:24.74	194.51	5.41	-45.2	-56.8	3.8	8.45e-01	0	61	104	3919577088	61	14202
2026-01-17 01:49:28.79	194.56	5.11	-45.2	-56.9	3.8	8.46e-01	0	61	104	3919577088	61	14290
2026-01-17 01:49:32.83	194.60	4.83	-45.2	-56.9	3.8	8.46e-01	0	61	104	3919577088	61	14262
2026-01-17 01:49:36.87	194.65	4.54	-45.2	-56.9	3.8	8.46e-01	0	61	104	3919577088	61	14244
2026-01-17 01:49:40.92	194.69	4.26	-45.2	-56.9	3.8	8.46e-01	0	61	104	3919577088	61	14268
2026-01-17 01:49:44.96	194.74	3.98	-45.2	-56.8	3.8	8.45e-01	0	61	104	3919577088	61	14163
2026-01-17 01:49:49.00	194.78	3.70	-45.2	-56.8	3.8	8.47e-01	0	61	104	3919577088	61	14198
2026-01-17 01:49:53.05	194.83	3.42	-45.2	-56.9	3.8	8.46e-01	0	61	104	3919577088	61	14219
2026-01-17 01:49:57.09	194.87	3.15	-45.2	-56.9	3.8	8.48e-01	0	61	104	3919577088	61	14244
2026-01-17 01:50:01.14	194.91	2.88	-45.2	-56.9	3.8	8.45e-01	0	61	104	3919577088	61	14225
2026-01-17 01:50:05.18	194.95	2.61	-45.2	-56.9	3.8	8.47e-01	0	61	104	3919577088	61	14279
2026-01-17 01:50:09.22	194.99	2.35	-45.2	-56.9	3.8	8.45e-01	0	61	104	3919577088	61	14225
2026-01-17 01:50:13.27	195.03	2.09	-45.2	-56.9	3.8	8.46e-01	0	61	104	3919577088	61	14245

#Closed at: 2026-01-17 01:50:15
#Recorded file [3919 MB]: D:/lorett/data/31039_260117_043548.dat