passes_logs/2026/01/17/R2.0S_Moscow/R2.0S_Moscow__20260117_095759_NOAA_21_JPSS-2_rec.log

#Pass ID: 20260117_095759_NOAA 21 (JPSS-2)
#Satellite: NOAA 21 (JPSS-2)
#Configuration: NOAA-21
#almurnet v.1.7.20251203
#Start time: 2026-01-17 09:57:59

#Version: 2.2.20231116
#Station: R2.0S_Moscow
#Location: 37.707566 lon 55.798166 lat
#TLE: 1 54234U 22150A   26016.21096038  .00000027  00000+0  33607-4 0  9993
#TLE: 2 54234  98.7500 317.0960 0000625 282.3388  77.7718 14.19534911164985

#Time	Az	El	Level	Level2	SNR	BER	BlckErr	Temp	State	Recorded	gain1	gain2
2026-01-17 09:57:59.76	161.97	2.03	-44.1	-56.4	3.8	1.49e+00	0	51	0	0	59	15158
2026-01-17 09:58:03.81	161.99	2.30	-44.1	-56.4	3.8	1.49e+00	0	52	104	0	59	15174
2026-01-17 09:58:07.85	162.00	2.56	-44.1	-56.4	3.8	1.49e+00	0	52	104	0	59	15128
2026-01-17 09:58:11.89	162.02	2.83	-44.1	-56.4	3.8	1.49e+00	0	52	104	0	59	15115
2026-01-17 09:58:15.94	162.04	3.10	-44.1	-56.4	3.8	1.49e+00	0	53	104	0	59	15175
2026-01-17 09:58:19.98	162.06	3.37	-44.1	-56.3	3.8	1.49e+00	0	53	104	0	59	15012
2026-01-17 09:58:24.02	162.08	3.64	-44.1	-56.1	3.8	1.49e+00	0	53	104	0	59	14676
2026-01-17 09:58:28.07	162.10	3.92	-44.0	-55.9	3.8	1.49e+00	0	53	104	0	59	14221
2026-01-17 09:58:32.11	162.12	4.20	-44.1	-56.1	3.8	1.49e+00	0	54	104	0	59	14684
2026-01-17 09:58:36.16	162.14	4.48	-44.1	-56.3	3.8	1.49e+00	0	54	104	0	59	14994
2026-01-17 09:58:40.20	162.16	4.77	-44.1	-56.4	3.8	1.49e+00	0	54	104	0	59	15100
2026-01-17 09:58:44.25	162.18	5.06	-44.1	-56.1	3.8	1.49e+00	0	54	104	0	59	14598
2026-01-17 09:58:48.29	162.20	5.35	-44.0	-55.5	3.8	1.49e+00	0	54	104	0	59	13610
2026-01-17 09:58:52.33	162.22	5.65	-43.8	-54.0	3.9	1.49e+00	0	55	104	0	59	11426
2026-01-17 09:58:56.38	162.24	5.95	-43.7	-52.6	4.3	1.47e+00	0	55	104	0	59	9798
2026-01-17 09:59:00.42	162.26	6.25	-43.7	-53.2	3.9	1.45e+00	0	55	104	0	59	10496
2026-01-17 09:59:04.46	162.28	6.56	-43.8	-53.8	4.0	1.48e+00	0	55	104	0	59	11219
2026-01-17 09:59:08.51	162.30	6.87	-44.1	-56.2	3.8	1.49e+00	0	55	104	0	59	14762
2026-01-17 09:59:12.55	162.32	7.18	-43.8	-54.1	3.9	1.49e+00	0	56	104	0	59	11577
2026-01-17 09:59:16.60	162.34	7.50	-42.8	-48.7	6.5	2.68e-01	0	56	0	4194304	57	7024
2026-01-17 09:59:20.64	162.37	7.82	-41.7	-45.9	9.1	2.41e-02	0	56	0	16777216	55	5661
2026-01-17 09:59:24.68	162.39	8.14	-44.3	-55.9	3.8	1.49e+00	0	56	104	26214400	59	14293
2026-01-17 09:59:28.72	162.41	8.47	-41.4	-45.2	9.8	1.01e-02	0	56	0	31457280	54	5550
2026-01-17 09:59:32.76	162.43	8.81	-41.2	-44.8	10.2	5.89e-03	0	56	0	44040192	54	5336
2026-01-17 09:59:36.80	162.46	9.15	-41.0	-44.3	10.8	3.28e-03	0	56	0	56623104	53	5336
2026-01-17 09:59:40.84	162.48	9.49	-41.0	-44.3	10.9	2.39e-03	0	57	0	69206016	53	5328
2026-01-17 09:59:44.88	162.50	9.84	-40.7	-43.9	11.4	9.75e-04	0	57	0	81788928	53	5049
2026-01-17 09:59:48.92	162.53	10.19	-40.7	-43.7	11.6	5.32e-04	0	57	0	94371840	53	4967
2026-01-17 09:59:52.96	162.55	10.55	-40.6	-43.5	11.8	5.13e-04	0	57	0	106954752	53	4870
2026-01-17 09:59:57.00	162.58	10.91	-40.6	-43.5	11.9	3.87e-04	0	57	0	119537664	53	4850
2026-01-17 10:00:01.03	162.60	11.28	-40.6	-43.4	12.0	3.19e-04	0	57	0	132120576	52	5091
2026-01-17 10:00:05.07	162.63	11.66	-40.4	-43.1	12.4	1.72e-04	0	57	0	144703488	52	4913
2026-01-17 10:00:09.11	162.65	12.04	-40.4	-43.1	12.5	1.29e-04	0	57	0	157286400	52	4890
2026-01-17 10:00:13.15	162.68	12.42	-40.3	-42.9	12.7	9.30e-05	0	58	0	169869312	52	4773
2026-01-17 10:00:17.19	162.70	12.82	-40.2	-42.7	12.9	6.79e-05	0	58	0	182452224	52	4699
2026-01-17 10:00:21.23	162.73	13.22	-40.2	-42.8	12.9	5.72e-05	0	58	0	195035136	52	4713
2026-01-17 10:00:25.27	162.76	13.62	-40.1	-42.7	13.0	3.50e-05	0	58	0	207618048	52	4654
2026-01-17 10:00:29.31	162.79	14.03	-40.1	-42.6	13.2	3.28e-05	0	58	0	220200960	51	4873
2026-01-17 10:00:33.35	162.81	14.45	-40.1	-42.5	13.2	3.28e-05	0	58	0	232783872	51	4863
2026-01-17 10:00:37.39	162.84	14.88	-40.1	-42.5	13.3	1.52e-05	0	58	0	245366784	51	4826
2026-01-17 10:00:41.42	162.87	15.32	-40.1	-42.6	13.2	1.60e-05	0	58	0	257949696	51	4894
2026-01-17 10:00:45.46	162.90	15.76	-40.1	-42.5	13.3	1.44e-05	0	58	0	270532608	51	4845
2026-01-17 10:00:49.50	162.93	16.21	-40.1	-42.6	13.2	2.13e-05	0	59	0	283115520	51	4888
2026-01-17 10:00:53.54	162.96	16.67	-40.1	-42.6	13.2	2.21e-05	0	58	0	295698432	51	4889
2026-01-17 10:00:57.58	162.99	17.14	-40.2	-42.6	13.2	2.36e-05	0	58	0	308281344	51	4924
2026-01-17 10:01:01.62	163.03	17.61	-40.2	-42.6	13.2	2.36e-05	0	58	0	321912832	51	4917
2026-01-17 10:01:05.66	163.06	18.10	-40.2	-42.6	13.1	7.01e-05	0	59	0	334495744	51	4919
2026-01-17 10:01:09.70	163.09	18.60	-40.0	-42.5	12.8	1.28e-02	0	59	0	347078656	51	4851
2026-01-17 10:01:13.74	163.13	19.11	-39.9	-42.6	12.7	1.93e-02	0	59	0	359661568	51	4883
2026-01-17 10:01:17.78	163.16	19.62	-40.1	-42.5	13.4	1.37e-05	0	59	0	372244480	51	4843
2026-01-17 10:01:21.81	163.20	20.15	-40.0	-42.4	13.4	9.10e-06	0	59	0	384827392	51	4797
2026-01-17 10:01:25.85	163.23	20.69	-39.9	-42.2	13.6	9.10e-06	0	59	0	397410304	51	4697
2026-01-17 10:01:29.89	163.27	21.24	-39.9	-42.2	13.7	9.10e-06	0	59	0	409993216	51	4667
2026-01-17 10:01:33.93	163.31	21.81	-39.7	-41.8	14.0	3.80e-06	0	59	0	422576128	51	4481
2026-01-17 10:01:37.97	163.35	22.39	-39.6	-41.7	14.1	5.30e-06	0	59	0	435159040	51	4441
2026-01-17 10:01:42.01	163.39	22.98	-39.4	-41.5	14.4	0.00e+00	0	59	0	447741952	50	4568
2026-01-17 10:01:46.05	163.43	23.58	-39.3	-41.4	14.5	7.00e-07	0	59	0	460324864	50	4526
2026-01-17 10:01:50.09	163.47	24.20	-39.2	-41.2	14.7	0.00e+00	0	59	0	472907776	50	4398
2026-01-17 10:01:54.13	163.52	24.83	-39.2	-41.2	14.7	7.00e-07	0	59	0	485490688	50	4434
2026-01-17 10:01:58.17	163.56	25.48	-39.3	-41.4	14.5	7.00e-07	0	59	0	498073600	50	4522
2026-01-17 10:02:02.20	163.61	26.15	-39.6	-41.8	14.1	1.50e-06	0	59	0	510656512	50	4728
2026-01-17 10:02:06.24	163.65	26.83	-39.9	-42.1	13.8	5.30e-06	0	59	0	523239424	50	4916
2026-01-17 10:02:10.28	163.70	27.53	-40.2	-42.6	13.3	1.67e-05	0	59	0	535822336	51	4914
2026-01-17 10:02:14.32	163.76	28.25	-40.4	-42.9	13.1	2.89e-05	0	59	0	548405248	51	5052
2026-01-17 10:02:18.36	163.81	28.99	-40.4	-42.8	13.1	2.89e-05	0	59	0	560988160	51	5038
2026-01-17 10:02:22.40	163.86	29.74	-40.1	-42.4	13.6	8.30e-06	0	59	0	573571072	51	4781
2026-01-17 10:02:26.44	163.92	30.52	-39.7	-41.8	14.2	3.00e-06	0	59	0	586153984	51	4487
2026-01-17 10:02:30.48	163.98	31.32	-39.5	-41.5	14.4	7.00e-07	0	59	0	598736896	51	4339
2026-01-17 10:02:34.53	164.04	32.15	-39.6	-41.7	14.3	2.20e-06	0	60	0	611319808	50	4703
2026-01-17 10:02:38.56	164.10	32.99	-40.1	-42.4	13.7	3.80e-06	0	59	0	623902720	50	5051
2026-01-17 10:02:42.61	164.17	33.86	-40.4	-42.9	13.1	3.20e-05	0	60	0	636485632	51	5063
2026-01-17 10:02:46.65	164.24	34.76	-40.8	-43.5	12.4	1.29e-04	0	60	0	649068544	52	5137
2026-01-17 10:02:50.68	164.31	35.67	-41.2	-44.2	11.7	4.65e-04	0	60	0	662700032	53	5239
2026-01-17 10:02:54.72	164.39	36.62	-41.6	-44.8	11.2	1.24e-03	0	59	0	675282944	53	5603
2026-01-17 10:02:58.76	164.47	37.60	-41.4	-44.4	11.6	7.22e-04	0	59	0	687865856	53	5359
2026-01-17 10:03:02.80	164.56	38.61	-41.2	-44.0	12.0	3.42e-04	0	60	0	700448768	53	5125
2026-01-17 10:03:06.83	164.65	39.64	-41.0	-43.7	12.3	1.89e-04	0	60	0	713031680	53	4951
2026-01-17 10:03:10.87	164.74	40.71	-41.0	-43.8	12.1	2.10e-04	0	60	0	725614592	53	5009
2026-01-17 10:03:14.91	164.84	41.81	-41.3	-44.3	11.7	5.58e-04	0	60	0	738197504	53	5309
2026-01-17 10:03:18.95	164.95	42.94	-41.9	-45.2	10.8	2.32e-03	0	60	0	750780416	54	5557
2026-01-17 10:03:22.98	165.06	44.11	-42.2	-45.8	10.2	6.17e-03	0	60	0	763363328	55	5593
2026-01-17 10:03:27.02	165.18	45.32	-41.8	-45.0	10.9	2.31e-03	0	60	0	775946240	55	5109
2026-01-17 10:03:31.06	165.31	46.56	-42.1	-45.6	10.2	5.35e-03	0	60	0	788529152	55	5499
2026-01-17 10:03:35.10	165.45	47.84	-41.7	-44.8	11.0	2.32e-03	0	60	0	801112064	55	5026
2026-01-17 10:03:39.14	165.60	49.16	-41.3	-44.1	11.8	4.26e-04	0	60	0	813694976	54	4923
2026-01-17 10:03:43.17	165.77	50.52	-41.0	-43.8	12.2	2.43e-04	0	60	0	826277888	54	4706
2026-01-17 10:03:47.21	165.94	51.92	-40.8	-43.4	12.6	1.33e-04	0	60	0	838860800	53	4797
2026-01-17 10:03:51.25	166.14	53.36	-40.8	-43.4	12.6	9.30e-05	0	60	0	851443712	53	4768
2026-01-17 10:03:55.29	166.35	54.85	-40.7	-43.2	12.7	8.92e-05	0	60	0	864026624	53	4662
2026-01-17 10:03:59.34	166.59	56.38	-40.2	-42.5	13.5	6.80e-06	0	60	0	876609536	52	4566
2026-01-17 10:04:03.38	166.85	57.95	-40.2	-42.5	13.5	1.06e-05	0	60	0	889192448	52	4582
2026-01-17 10:04:07.42	167.14	59.56	-39.9	-42.1	14.0	2.20e-06	0	60	0	901775360	51	4614
2026-01-17 10:04:11.45	167.47	61.21	-39.6	-41.6	14.4	0.00e+00	0	60	0	914358272	51	4383
2026-01-17 10:04:15.50	167.85	62.91	-39.3	-41.3	14.8	0.00e+00	0	60	0	926941184	50	4447
2026-01-17 10:04:19.53	168.28	64.65	-39.6	-41.7	14.4	0.00e+00	0	60	0	939524096	50	4663
2026-01-17 10:04:23.57	168.78	66.42	-39.1	-40.9	15.1	0.00e+00	0	60	0	952107008	49	4543
2026-01-17 10:04:27.61	169.37	68.24	-38.9	-40.8	15.2	7.00e-07	0	60	0	964689920	49	4451
2026-01-17 10:04:31.65	170.08	70.09	-39.2	-41.2	14.8	0.00e+00	0	60	0	977272832	49	4653
2026-01-17 10:04:35.69	170.94	71.97	-38.7	-40.5	15.5	0.00e+00	0	60	0	989855744	49	4320
2026-01-17 10:04:39.73	172.01	73.88	-38.6	-40.3	15.5	0.00e+00	0	60	0	1003487232	49	4240
2026-01-17 10:04:43.77	173.38	75.82	-38.5	-40.2	15.6	0.00e+00	0	60	0	1016070144	49	4184
2026-01-17 10:04:47.80	175.20	77.76	-39.1	-41.0	14.9	0.00e+00	0	60	0	1028653056	49	4570
2026-01-17 10:04:51.84	177.73	79.72	-39.3	-41.3	14.6	0.00e+00	0	60	0	1041235968	49	4727
2026-01-17 10:04:55.88	181.47	81.67	-39.6	-41.8	14.3	2.20e-06	0	60	0	1053818880	49	4987
2026-01-17 10:04:59.92	187.48	83.58	-39.5	-41.6	14.4	7.00e-07	0	60	0	1066401792	49	4872
2026-01-17 10:05:03.96	198.37	85.37	-39.2	-41.2	14.6	0.00e+00	0	60	0	1078984704	49	4692
2026-01-17 10:05:08.00	220.80	86.81	-39.5	-41.7	14.2	7.00e-07	0	60	0	1091567616	49	4948
2026-01-17 10:05:12.04	261.05	87.26	-39.6	-41.7	14.3	7.00e-07	0	60	0	1104150528	50	4657
2026-01-17 10:05:16.08	295.17	86.33	-39.3	-41.3	14.7	0.00e+00	0	60	0	1116733440	50	4469
2026-01-17 10:05:20.12	312.00	84.71	-39.2	-41.0	14.9	0.00e+00	0	60	0	1129316352	50	4332
2026-01-17 10:05:24.16	320.53	82.86	-39.5	-41.5	14.5	0.00e+00	0	60	0	1141899264	49	4850
2026-01-17 10:05:28.20	325.47	80.93	-39.2	-41.1	14.8	0.00e+00	0	60	0	1154482176	50	4391
2026-01-17 10:05:32.24	328.66	78.98	-39.2	-41.2	14.8	0.00e+00	0	60	0	1167065088	49	4657
2026-01-17 10:05:36.27	330.88	77.03	-38.7	-40.5	15.6	0.00e+00	0	60	0	1179648000	48	4574
2026-01-17 10:05:40.32	332.51	75.08	-39.0	-40.9	15.1	7.00e-07	0	60	0	1192230912	48	4785
2026-01-17 10:05:44.36	333.75	73.16	-39.2	-41.1	14.9	2.20e-06	0	60	0	1204813824	49	4650
2026-01-17 10:05:48.40	334.73	71.26	-38.5	-40.2	15.8	1.50e-06	0	60	0	1217396736	48	4438
2026-01-17 10:05:52.43	335.53	69.40	-40.0	-42.3	13.8	4.57e-05	0	60	0	1229979648	50	5013
2026-01-17 10:05:56.47	336.19	67.57	-38.7	-40.5	15.7	0.00e+00	0	61	0	1242562560	49	4304
2026-01-17 10:06:00.51	336.74	65.77	-39.4	-41.4	14.8	1.50e-06	0	60	0	1255145472	50	4512
2026-01-17 10:06:04.55	337.22	64.01	-38.7	-40.5	15.7	0.00e+00	0	60	0	1267728384	48	4554
2026-01-17 10:06:08.58	337.62	62.30	-40.3	-42.6	13.6	1.60e-05	0	61	0	1280311296	51	4884
2026-01-17 10:06:12.62	337.98	60.63	-39.1	-40.9	15.2	0.00e+00	0	61	0	1292894208	49	4526
2026-01-17 10:06:16.66	338.30	58.99	-39.8	-41.8	14.4	0.00e+00	0	60	0	1305477120	50	4745
2026-01-17 10:06:20.70	338.58	57.40	-39.5	-41.5	14.7	0.00e+00	0	61	0	1318060032	51	4315
2026-01-17 10:06:24.74	338.83	55.85	-40.8	-43.4	12.8	7.24e-05	0	61	0	1330642944	52	5059
2026-01-17 10:06:28.79	339.06	54.34	-40.3	-42.6	13.6	1.14e-05	0	60	0	1344274432	52	4609
2026-01-17 10:06:32.83	339.26	52.88	-40.3	-42.5	13.6	9.90e-06	0	60	0	1356857344	52	4568
2026-01-17 10:06:36.87	339.45	51.46	-41.5	-44.4	11.7	5.32e-04	0	60	0	1369440256	53	5350
2026-01-17 10:06:40.91	339.63	50.08	-41.8	-44.9	11.1	1.39e-03	0	61	0	1382023168	54	5367
2026-01-17 10:06:44.95	339.79	48.74	-41.2	-44.0	12.1	3.35e-04	0	61	0	1394606080	54	4840
2026-01-17 10:06:48.99	339.93	47.44	-42.0	-45.2	10.8	2.14e-03	0	60	0	1407188992	54	5573
2026-01-17 10:06:53.03	340.07	46.17	-42.1	-45.5	10.5	4.96e-03	0	61	0	1419771904	55	5442
2026-01-17 10:06:57.06	340.20	44.95	-42.2	-45.7	10.2	5.34e-03	0	60	0	1432354816	55	5565
2026-01-17 10:07:01.10	340.32	43.77	-42.8	-46.7	9.4	1.86e-02	0	60	0	1444937728	56	5907
2026-01-17 10:07:05.14	340.43	42.61	-41.7	-44.8	11.3	1.17e-03	0	61	0	1457520640	55	5000
2026-01-17 10:07:09.19	340.53	41.49	-42.0	-45.3	10.7	2.99e-03	0	61	0	1470103552	55	5305
2026-01-17 10:07:13.22	340.63	40.41	-42.0	-45.3	10.7	2.92e-03	0	60	0	1482686464	55	5284
2026-01-17 10:07:17.26	340.73	39.36	-41.6	-44.6	11.3	9.68e-04	0	60	0	1495269376	54	5214
2026-01-17 10:07:21.31	340.82	38.34	-41.2	-44.0	12.0	4.10e-04	0	60	0	1507852288	54	4857
2026-01-17 10:07:25.35	340.90	37.35	-40.8	-43.3	12.6	1.20e-04	0	61	0	1520435200	53	4737
2026-01-17 10:07:29.39	340.98	36.38	-40.6	-43.1	12.9	3.73e-05	0	60	0	1533018112	52	4873
2026-01-17 10:07:33.42	341.06	35.45	-40.8	-43.5	12.5	1.12e-04	0	61	0	1545601024	52	5107
2026-01-17 10:07:37.46	341.13	34.54	-41.0	-43.7	12.3	1.75e-04	0	61	0	1558183936	52	5227
2026-01-17 10:07:41.50	341.20	33.66	-41.0	-43.7	12.3	2.10e-04	0	61	0	1570766848	52	5229
2026-01-17 10:07:45.54	341.27	32.80	-40.4	-42.9	13.1	3.12e-05	0	61	0	1583349760	52	4777
2026-01-17 10:07:49.58	341.34	31.97	-40.3	-42.7	13.3	2.05e-05	0	61	0	1595932672	52	4682
2026-01-17 10:07:53.62	341.40	31.16	-40.0	-42.3	13.6	8.30e-06	0	61	0	1608515584	52	4469
2026-01-17 10:07:57.66	341.46	30.37	-40.3	-42.7	13.2	2.21e-05	0	61	0	1621098496	52	4679
2026-01-17 10:08:01.70	341.52	29.60	-40.4	-42.9	12.9	3.89e-05	0	61	0	1633681408	52	4788
2026-01-17 10:08:05.74	341.58	28.86	-40.4	-42.9	12.9	4.73e-05	0	61	0	1646264320	52	4783
2026-01-17 10:08:09.78	341.63	28.13	-40.4	-42.9	12.8	7.17e-05	0	61	0	1659895808	52	4788
2026-01-17 10:08:13.82	341.68	27.42	-40.2	-42.7	12.9	5.26e-05	0	61	0	1672478720	52	4686
2026-01-17 10:08:17.86	341.73	26.73	-39.9	-42.2	13.5	9.90e-06	0	61	0	1685061632	51	4661
2026-01-17 10:08:21.91	341.78	26.05	-39.6	-41.9	13.8	6.80e-06	0	61	0	1697644544	51	4498
2026-01-17 10:08:25.95	341.83	25.40	-39.5	-41.7	13.8	3.00e-06	0	61	0	1710227456	50	4701
2026-01-17 10:08:29.98	341.88	24.76	-39.5	-41.8	13.7	6.10e-06	0	61	0	1722810368	50	4728
2026-01-17 10:08:34.02	341.92	24.13	-39.6	-41.9	13.5	1.37e-05	0	61	0	1735393280	50	4812
2026-01-17 10:08:38.05	341.97	23.52	-39.5	-41.8	13.5	1.14e-05	0	61	0	1747976192	50	4736
2026-01-17 10:08:42.09	342.01	22.92	-39.3	-41.6	13.4	9.10e-06	0	61	0	1760559104	50	4630
2026-01-17 10:08:46.13	342.05	22.34	-38.7	-41.1	13.3	1.83e-05	0	61	0	1773142016	49	4612
2026-01-17 10:08:50.18	342.10	21.77	-38.9	-41.5	12.6	8.16e-05	0	61	0	1785724928	49	4844
2026-01-17 10:08:54.21	342.14	21.21	-40.2	-44.2	9.3	1.17e-02	0	61	0	1798307840	50	6272
2026-01-17 10:08:58.25	342.18	20.67	-41.2	-49.1	4.8	6.86e-01	0	61	0	1810890752	52	9806
2026-01-17 10:09:02.29	342.22	20.13	-41.4	-52.8	3.8	1.49e+00	0	61	104	1810890752	53	14208
2026-01-17 10:09:06.33	342.25	19.61	-41.6	-53.6	3.8	1.49e+00	0	61	104	1810890752	54	14708
2026-01-17 10:09:10.36	342.29	19.10	-41.4	-53.7	3.8	1.49e+00	0	61	104	1810890752	54	14850
2026-01-17 10:09:14.40	342.33	18.60	-41.0	-53.4	3.8	1.49e+00	0	61	104	1810890752	53	15169
2026-01-17 10:09:18.44	342.36	18.11	-40.9	-53.4	3.8	1.49e+00	0	61	104	1810890752	53	15112
2026-01-17 10:09:22.48	342.40	17.62	-40.6	-53.3	3.8	1.49e+00	0	61	104	1810890752	53	14979
2026-01-17 10:09:26.51	342.43	17.15	-40.5	-53.2	3.8	1.49e+00	0	61	104	1810890752	52	15736
2026-01-17 10:09:30.56	342.47	16.69	-40.6	-53.2	3.8	1.49e+00	0	61	104	1810890752	52	15581
2026-01-17 10:09:34.60	342.50	16.23	-40.8	-53.2	3.8	1.49e+00	0	61	104	1810890752	52	15699
2026-01-17 10:09:38.63	342.54	15.79	-40.8	-53.2	3.8	1.49e+00	0	61	104	1810890752	52	15660
2026-01-17 10:09:42.67	342.57	15.35	-40.7	-53.2	3.8	1.49e+00	0	61	104	1810890752	52	15591
2026-01-17 10:09:46.71	342.60	14.92	-40.7	-53.0	3.8	1.49e+00	0	61	104	1810890752	52	15374
2026-01-17 10:09:50.75	342.63	14.49	-40.8	-53.2	3.8	1.49e+00	0	61	104	1810890752	52	15636
2026-01-17 10:09:54.79	342.66	14.08	-40.7	-53.1	3.8	1.49e+00	0	61	104	1810890752	52	15491
2026-01-17 10:09:58.83	342.70	13.67	-40.6	-53.1	3.8	1.49e+00	0	61	104	1810890752	52	15405
2026-01-17 10:10:02.86	342.73	13.27	-40.4	-53.0	3.8	1.49e+00	0	61	104	1810890752	52	15279
2026-01-17 10:10:06.91	342.76	12.87	-40.6	-53.0	3.8	1.49e+00	0	61	104	1810890752	52	15368
2026-01-17 10:10:10.95	342.79	12.48	-40.4	-52.9	3.8	1.49e+00	0	61	104	1810890752	52	15170
2026-01-17 10:10:14.99	342.82	12.10	-40.7	-53.0	3.8	1.49e+00	0	61	104	1810890752	52	15380
2026-01-17 10:10:19.02	342.85	11.72	-40.5	-52.9	3.8	1.49e+00	0	61	104	1810890752	52	15215
2026-01-17 10:10:23.06	342.87	11.35	-40.4	-52.8	3.8	1.49e+00	0	61	104	1810890752	52	14974
2026-01-17 10:10:27.11	342.90	10.98	-40.4	-52.8	3.8	1.49e+00	0	61	104	1810890752	52	15027
2026-01-17 10:10:31.15	342.93	10.62	-40.5	-52.9	3.8	1.49e+00	0	61	104	1810890752	52	15184
2026-01-17 10:10:35.19	342.96	10.27	-40.4	-52.8	3.8	1.49e+00	0	61	104	1810890752	52	14991
2026-01-17 10:10:39.23	342.99	9.92	-40.6	-52.9	3.8	1.49e+00	0	61	104	1810890752	52	15138
2026-01-17 10:10:43.28	343.02	9.57	-40.6	-53.0	3.8	1.49e+00	0	61	104	1810890752	52	15286
2026-01-17 10:10:47.32	343.04	9.23	-40.5	-52.8	3.8	1.49e+00	0	61	104	1810890752	52	14987
2026-01-17 10:10:51.35	343.07	8.89	-40.6	-52.9	3.8	1.49e+00	0	61	104	1810890752	52	15104
2026-01-17 10:10:55.39	343.10	8.56	-40.4	-52.8	3.8	1.49e+00	0	61	104	1810890752	52	14909
2026-01-17 10:10:59.43	343.12	8.24	-40.5	-52.8	3.8	1.49e+00	0	61	104	1810890752	52	14963
2026-01-17 10:11:03.46	343.15	7.91	-40.7	-53.2	3.8	1.49e+00	0	61	104	1810890752	52	15709
2026-01-17 10:11:07.51	343.18	7.59	-45.2	-57.5	3.8	1.49e+00	0	61	104	1810890752	60	16305
2026-01-17 10:11:11.55	343.20	7.28	-45.4	-57.7	3.8	1.49e+00	0	61	104	1810890752	61	15680
2026-01-17 10:11:15.60	343.23	6.97	-45.3	-57.6	3.8	1.49e+00	0	61	104	1810890752	61	15539
2026-01-17 10:11:19.64	343.25	6.66	-45.2	-57.5	3.8	1.49e+00	0	61	104	1810890752	61	15391
2026-01-17 10:11:23.68	343.28	6.35	-45.2	-57.5	3.8	1.49e+00	0	61	104	1810890752	61	15300
2026-01-17 10:11:27.73	343.31	6.05	-45.2	-57.5	3.8	1.49e+00	0	61	104	1810890752	61	15247
2026-01-17 10:11:31.77	343.33	5.76	-45.2	-57.5	3.8	1.49e+00	0	61	104	1810890752	60	16172
2026-01-17 10:11:35.82	343.36	5.46	-45.2	-57.5	3.8	1.49e+00	0	61	104	1810890752	60	16134
2026-01-17 10:11:39.86	343.38	5.17	-45.2	-57.5	3.8	1.49e+00	0	61	104	1810890752	60	16167
2026-01-17 10:11:43.90	343.41	4.89	-45.2	-57.4	3.8	1.49e+00	0	61	104	1810890752	60	16100
2026-01-17 10:11:47.95	343.43	4.60	-44.9	-57.4	3.8	1.49e+00	0	61	104	1810890752	60	16109
2026-01-17 10:11:51.99	343.46	4.32	-45.1	-57.5	3.8	1.49e+00	0	61	104	1810890752	60	16204
2026-01-17 10:11:56.04	343.48	4.04	-45.2	-57.5	3.8	1.49e+00	0	61	104	1810890752	60	16175
2026-01-17 10:12:00.08	343.50	3.77	-45.2	-57.5	3.8	1.49e+00	0	61	104	1810890752	60	16158
2026-01-17 10:12:04.12	343.53	3.49	-45.2	-57.4	3.8	1.49e+00	0	61	104	1810890752	60	16105
2026-01-17 10:12:08.16	343.55	3.22	-45.2	-57.4	3.8	1.49e+00	0	61	104	1810890752	60	16112
2026-01-17 10:12:12.21	343.58	2.95	-45.1	-57.4	3.8	1.49e+00	0	61	104	1810890752	60	16100
2026-01-17 10:12:16.25	343.60	2.69	-45.1	-57.4	3.8	1.49e+00	0	61	104	1810890752	60	16037
2026-01-17 10:12:20.30	343.62	2.43	-45.1	-57.4	3.8	1.49e+00	0	61	104	1810890752	60	16034
2026-01-17 10:12:24.34	343.65	2.17	-45.2	-57.4	3.8	1.49e+00	0	61	104	1810890752	60	16064
2026-01-17 10:12:28.38	343.67	1.91	-45.1	-57.4	3.8	1.49e+00	0	61	104	1810890752	60	16076

#Closed at: 2026-01-17 10:12:29
#Recorded file [1810 MB]: D:/lorett/data/31039_260117_125759.dat