passes_logs/2026/01/17/R2.0S_Moscow/R2.0S_Moscow__20260117_002432_AQUA_rec.log

#Pass ID: 20260117_002432_AQUA
#Satellite: AQUA
#Configuration: AQUA
#almurnet v.1.7.20251203
#Start time: 2026-01-17 00:24:32

#Version: 2.2.20231116
#Station: R2.0S_Moscow
#Location: 37.707566 lon 55.798166 lat
#TLE: 1 27424U 02022A   26016.26443506  .00000711  00000+0  15228-3 0  9999
#TLE: 2 27424  98.4083 342.7130 0002022  76.7284  27.4473 14.61823291261073

#Time	Az	El	Level	Level2	SNR	BER	BlckErr	Temp	State	Recorded	gain1	gain2
2026-01-17 00:24:32.88	22.53	2.03	-43.1	-62.9	3.8	7.43e-01	0	55	0	0	58	33790
2026-01-17 00:24:35.90	22.70	2.22	-43.1	-62.9	3.8	7.43e-01	0	55	104	0	56	37949
2026-01-17 00:24:38.93	22.87	2.41	-43.1	-62.9	3.8	7.47e-01	0	55	104	0	56	37912
2026-01-17 00:24:41.97	23.04	2.60	-43.2	-62.9	3.8	7.47e-01	0	55	104	0	56	37874
2026-01-17 00:24:45.00	23.22	2.79	-43.1	-62.9	3.8	7.44e-01	0	55	104	0	56	37924
2026-01-17 00:24:48.03	23.40	2.98	-43.1	-62.9	3.8	7.44e-01	0	55	104	0	56	37961
2026-01-17 00:24:51.07	23.58	3.17	-43.1	-62.9	3.8	7.47e-01	0	55	104	0	56	37843
2026-01-17 00:24:54.10	23.76	3.37	-43.1	-62.9	3.8	7.47e-01	0	56	104	0	56	37838
2026-01-17 00:24:57.13	23.95	3.57	-43.1	-62.8	3.8	7.48e-01	0	56	104	0	56	37799
2026-01-17 00:25:00.16	24.13	3.76	-43.1	-62.8	3.8	7.46e-01	0	56	104	0	56	37711
2026-01-17 00:25:03.20	24.33	3.96	-43.1	-62.8	3.8	7.43e-01	0	56	104	0	56	37740
2026-01-17 00:25:06.23	24.52	4.16	-43.1	-62.8	3.8	7.44e-01	0	56	104	0	56	37519
2026-01-17 00:25:09.26	24.71	4.36	-43.1	-62.7	3.8	7.47e-01	0	56	104	0	56	36958
2026-01-17 00:25:12.29	24.91	4.57	-43.0	-62.5	3.8	7.44e-01	0	56	104	0	56	36275
2026-01-17 00:25:15.33	25.11	4.77	-43.0	-62.3	3.8	7.46e-01	0	56	104	0	56	35613
2026-01-17 00:25:18.36	25.32	4.98	-42.8	-61.9	3.8	7.45e-01	0	57	104	0	56	33824
2026-01-17 00:25:21.39	25.53	5.19	-42.6	-61.1	3.8	7.46e-01	0	57	104	0	56	30862
2026-01-17 00:25:24.43	25.74	5.40	-42.7	-61.6	3.8	7.45e-01	0	57	104	0	56	32600
2026-01-17 00:25:27.46	25.95	5.61	-42.8	-62.1	3.8	7.45e-01	0	57	104	0	56	34817
2026-01-17 00:25:30.49	26.17	5.82	-42.7	-61.7	3.8	7.44e-01	0	57	104	0	56	33159
2026-01-17 00:25:33.52	26.39	6.03	-42.8	-61.5	3.8	7.47e-01	0	57	104	0	56	32277
2026-01-17 00:25:36.55	26.61	6.25	-43.0	-62.0	3.8	7.46e-01	0	57	104	0	56	34425
2026-01-17 00:25:39.59	26.84	6.47	-43.1	-62.2	3.8	7.45e-01	0	57	104	0	56	34881
2026-01-17 00:25:42.61	27.07	6.69	-43.0	-61.7	3.8	7.43e-01	0	57	104	0	56	33088
2026-01-17 00:25:45.65	27.30	6.91	-43.0	-60.1	3.8	7.46e-01	0	58	104	0	56	27658
2026-01-17 00:25:48.68	27.54	7.13	-42.9	-56.8	5.2	7.03e-01	0	58	0	0	56	18914
2026-01-17 00:25:51.71	27.78	7.36	-42.5	-53.3	7.8	6.49e-01	92	58	0	3145728	56	12564
2026-01-17 00:25:54.74	28.03	7.58	-42.2	-51.1	10.1	6.21e-01	0	58	0	8912896	56	9742
2026-01-17 00:25:57.78	28.28	7.81	-41.5	-48.5	12.4	6.08e-01	0	58	0	14680064	55	7706
2026-01-17 00:26:00.81	28.53	8.04	-40.9	-47.9	12.0	6.10e-01	0	58	0	20447232	53	7994
2026-01-17 00:26:03.84	28.79	8.27	-41.4	-51.4	8.4	6.44e-01	56	58	0	26214400	53	12024
2026-01-17 00:26:06.87	29.05	8.51	-40.9	-47.1	13.4	6.03e-01	0	58	0	29360128	53	7349
2026-01-17 00:26:09.90	29.31	8.74	-39.4	-46.6	11.3	6.11e-01	0	58	0	35127296	50	8243
2026-01-17 00:26:12.93	29.58	8.98	-41.2	-47.1	14.2	6.02e-01	0	58	0	40894464	52	7774
2026-01-17 00:26:15.96	29.86	9.22	-41.8	-46.8	15.7	6.01e-01	0	58	0	46137344	54	6661
2026-01-17 00:26:18.98	30.14	9.46	-41.7	-46.7	15.2	6.02e-01	0	58	0	51904512	54	6630
2026-01-17 00:26:22.01	30.42	9.71	-41.8	-46.6	15.8	6.03e-01	0	58	0	57671680	54	6509
2026-01-17 00:26:25.04	30.71	9.96	-41.8	-46.3	16.3	6.01e-01	0	58	0	63438848	54	6296
2026-01-17 00:26:28.07	31.01	10.20	-41.8	-46.0	16.7	6.00e-01	0	58	0	69206016	54	6107
2026-01-17 00:26:31.10	31.31	10.46	-41.8	-46.0	16.6	5.99e-01	0	59	0	74973184	54	6119
2026-01-17 00:26:34.13	31.61	10.71	-41.9	-45.8	17.0	6.01e-01	0	59	0	80740352	54	5985
2026-01-17 00:26:37.16	31.92	10.96	-41.9	-45.7	17.2	6.02e-01	0	59	0	85983232	54	5913
2026-01-17 00:26:40.19	32.24	11.22	-41.9	-45.7	17.3	6.01e-01	0	59	0	91750400	54	5864
2026-01-17 00:26:43.22	32.56	11.48	-41.9	-45.7	17.4	6.03e-01	0	59	0	97517568	54	5862
2026-01-17 00:26:46.24	32.89	11.74	-41.8	-45.5	17.6	5.99e-01	0	59	0	103284736	54	5763
2026-01-17 00:26:49.27	33.22	12.01	-41.9	-45.6	17.5	6.01e-01	0	59	0	109051904	54	5794
2026-01-17 00:26:52.30	33.56	12.28	-41.9	-45.5	17.6	6.01e-01	0	59	0	114294784	54	5762
2026-01-17 00:26:55.32	33.91	12.54	-41.8	-45.3	17.8	6.03e-01	0	59	0	120061952	54	5644
2026-01-17 00:26:58.35	34.26	12.82	-41.9	-45.4	17.8	6.03e-01	0	59	0	125829120	54	5679
2026-01-17 00:27:01.38	34.62	13.09	-41.7	-45.1	18.1	6.02e-01	0	59	0	131596288	54	5496
2026-01-17 00:27:04.41	34.99	13.37	-41.8	-45.2	18.1	6.02e-01	0	59	0	137363456	54	5573
2026-01-17 00:27:07.44	35.37	13.65	-41.8	-45.4	17.9	6.00e-01	0	59	0	143130624	54	5679
2026-01-17 00:27:10.47	35.75	13.93	-41.8	-45.2	18.1	6.04e-01	0	59	0	148373504	54	5550
2026-01-17 00:27:13.49	36.14	14.21	-41.8	-45.2	18.1	6.02e-01	0	59	0	154140672	54	5545
2026-01-17 00:27:16.52	36.54	14.50	-41.8	-45.2	18.1	6.01e-01	0	59	0	159907840	54	5573
2026-01-17 00:27:19.55	36.94	14.79	-41.8	-45.2	18.1	6.03e-01	0	59	0	165675008	54	5572
2026-01-17 00:27:22.58	37.36	15.08	-41.8	-45.1	18.3	6.00e-01	0	59	0	171442176	54	5506
2026-01-17 00:27:25.61	37.78	15.38	-41.7	-45.0	18.4	6.02e-01	0	59	0	177209344	54	5426
2026-01-17 00:27:28.64	38.21	15.68	-41.8	-45.1	18.3	6.02e-01	0	59	0	182452224	54	5519
2026-01-17 00:27:31.67	38.65	15.98	-41.8	-45.1	18.4	6.03e-01	0	59	0	188219392	54	5466
2026-01-17 00:27:34.69	39.10	16.28	-41.8	-45.0	18.4	5.99e-01	0	60	0	193986560	54	5460
2026-01-17 00:27:37.72	39.56	16.58	-41.7	-44.9	18.6	6.02e-01	0	59	0	199753728	54	5353
2026-01-17 00:27:40.75	40.03	16.89	-41.7	-44.9	18.6	6.02e-01	0	59	0	205520896	54	5384
2026-01-17 00:27:43.78	40.51	17.20	-41.7	-44.9	18.6	6.01e-01	0	59	0	210763776	54	5384
2026-01-17 00:27:46.81	41.00	17.52	-41.8	-45.0	18.6	6.01e-01	0	59	0	216530944	54	5416
2026-01-17 00:27:49.84	41.50	17.83	-41.8	-44.9	18.5	6.03e-01	0	59	0	222298112	54	5384
2026-01-17 00:27:52.87	42.01	18.15	-41.7	-44.9	18.7	6.03e-01	0	59	0	228065280	54	5363
2026-01-17 00:27:55.90	42.53	18.47	-41.7	-44.9	18.7	6.00e-01	0	59	0	233832448	54	5361
2026-01-17 00:27:58.92	43.06	18.79	-41.6	-44.7	18.9	6.02e-01	0	60	0	239599616	54	5265
2026-01-17 00:28:01.95	43.61	19.12	-41.7	-44.8	18.8	6.03e-01	0	60	0	245366784	54	5333
2026-01-17 00:28:04.98	44.17	19.45	-41.7	-44.8	18.8	6.02e-01	0	60	0	250609664	54	5301
2026-01-17 00:28:08.01	44.74	19.78	-41.7	-44.9	18.8	6.03e-01	0	60	0	256376832	54	5341
2026-01-17 00:28:11.04	45.32	20.11	-41.7	-44.7	18.9	6.03e-01	0	60	0	262144000	54	5274
2026-01-17 00:28:14.06	45.91	20.44	-41.8	-44.9	18.7	5.98e-01	0	60	0	267911168	54	5367
2026-01-17 00:28:17.09	46.53	20.78	-41.8	-44.9	18.7	6.04e-01	0	60	0	273678336	54	5397
2026-01-17 00:28:20.12	47.15	21.12	-41.8	-45.0	18.7	6.00e-01	0	60	0	278921216	54	5406
2026-01-17 00:28:23.15	47.79	21.46	-41.8	-45.0	18.7	6.02e-01	0	60	0	284688384	54	5412
2026-01-17 00:28:26.18	48.44	21.80	-41.9	-45.1	18.6	6.03e-01	0	60	0	290455552	54	5473
2026-01-17 00:28:29.20	49.11	22.14	-41.9	-45.1	18.6	6.02e-01	0	60	0	296222720	54	5472
2026-01-17 00:28:32.23	49.79	22.48	-41.9	-45.1	18.6	6.00e-01	0	60	0	301989888	54	5483
2026-01-17 00:28:35.26	50.49	22.83	-42.0	-45.1	18.6	6.04e-01	0	60	0	307757056	54	5519
2026-01-17 00:28:38.29	51.20	23.17	-41.9	-45.0	18.7	6.02e-01	0	60	0	313524224	54	5435
2026-01-17 00:28:41.32	51.93	23.52	-41.9	-45.2	18.5	6.03e-01	0	60	0	318767104	54	5544
2026-01-17 00:28:44.35	52.68	23.87	-42.1	-45.3	18.4	6.01e-01	0	60	0	324534272	54	5654
2026-01-17 00:28:47.37	53.45	24.21	-41.9	-45.0	18.7	5.99e-01	0	60	0	330301440	54	5460
2026-01-17 00:28:50.40	54.23	24.56	-42.0	-45.2	18.5	6.02e-01	0	60	0	336068608	54	5549
2026-01-17 00:28:53.43	55.03	24.91	-42.1	-45.4	18.4	6.02e-01	0	60	0	341835776	54	5666
2026-01-17 00:28:56.45	55.85	25.25	-42.0	-45.3	18.5	6.02e-01	0	60	0	347078656	54	5602
2026-01-17 00:28:59.49	56.69	25.60	-42.0	-45.2	18.5	6.02e-01	0	60	0	352845824	54	5582
2026-01-17 00:29:02.51	57.54	25.94	-42.1	-45.4	18.4	6.02e-01	0	60	0	358612992	54	5673
2026-01-17 00:29:05.54	58.42	26.28	-42.2	-45.4	18.4	5.99e-01	0	60	0	364380160	54	5714
2026-01-17 00:29:08.57	59.31	26.62	-42.2	-45.5	18.3	5.99e-01	0	60	0	370147328	55	5407
2026-01-17 00:29:11.60	60.23	26.95	-42.1	-45.2	18.5	6.02e-01	0	60	0	375914496	55	5279
2026-01-17 00:29:14.62	61.16	27.29	-42.0	-45.2	18.6	6.00e-01	0	60	0	381157376	55	5256
2026-01-17 00:29:17.65	62.12	27.61	-42.1	-45.3	18.5	6.00e-01	0	60	0	386924544	55	5324
2026-01-17 00:29:20.68	63.09	27.94	-42.1	-45.4	18.4	6.01e-01	0	60	0	392691712	55	5344
2026-01-17 00:29:23.71	64.09	28.26	-42.1	-45.3	18.6	6.01e-01	0	60	0	398458880	55	5291
2026-01-17 00:29:26.74	65.10	28.58	-42.1	-45.2	18.6	6.03e-01	0	60	0	404226048	55	5258
2026-01-17 00:29:29.77	66.14	28.89	-42.2	-45.4	18.5	6.03e-01	0	60	0	409993216	55	5347
2026-01-17 00:29:32.79	67.19	29.19	-42.0	-45.1	18.7	6.01e-01	0	60	0	415236096	55	5204
2026-01-17 00:29:35.82	68.27	29.48	-42.0	-45.1	18.7	6.03e-01	0	60	0	421003264	55	5206
2026-01-17 00:29:38.85	69.37	29.77	-42.0	-45.1	18.8	6.03e-01	0	60	0	426770432	55	5190
2026-01-17 00:29:41.87	70.48	30.05	-42.1	-45.2	18.7	6.02e-01	0	60	0	432537600	55	5242
2026-01-17 00:29:44.90	71.62	30.32	-42.0	-45.1	18.8	6.02e-01	0	60	0	438304768	55	5184
2026-01-17 00:29:47.93	72.78	30.59	-42.0	-45.1	18.8	6.00e-01	0	60	0	444071936	55	5197
2026-01-17 00:29:50.96	73.95	30.84	-42.0	-45.0	18.9	6.02e-01	0	60	0	449314816	55	5143
2026-01-17 00:29:53.99	75.15	31.08	-41.9	-44.9	19.1	6.04e-01	0	60	0	455081984	55	5054
2026-01-17 00:29:57.02	76.36	31.31	-42.1	-45.3	18.7	6.00e-01	0	60	0	460849152	55	5293
2026-01-17 00:30:00.04	77.58	31.53	-42.0	-45.0	19.0	6.00e-01	0	60	0	466616320	55	5116
2026-01-17 00:30:03.07	78.83	31.74	-41.9	-44.9	19.0	6.03e-01	0	60	0	472383488	55	5091
2026-01-17 00:30:06.10	80.09	31.93	-41.9	-44.9	19.1	6.05e-01	0	60	0	478150656	55	5064
2026-01-17 00:30:09.13	81.37	32.11	-41.8	-44.6	19.3	6.01e-01	0	60	0	483393536	55	4921
2026-01-17 00:30:12.16	82.66	32.27	-41.8	-44.7	19.2	6.02e-01	0	60	0	489160704	55	4977
2026-01-17 00:30:15.19	83.97	32.42	-41.8	-44.8	19.2	6.03e-01	0	60	0	494927872	55	4988
2026-01-17 00:30:18.22	85.28	32.56	-41.8	-44.6	19.3	6.03e-01	0	60	0	500695040	55	4919
2026-01-17 00:30:21.25	86.61	32.68	-41.8	-44.8	19.2	6.01e-01	0	60	0	506462208	55	5006
2026-01-17 00:30:24.28	87.94	32.78	-41.8	-44.8	19.2	6.03e-01	0	60	0	511705088	55	5004
2026-01-17 00:30:27.31	89.29	32.87	-41.6	-44.3	19.6	6.00e-01	0	60	0	517472256	55	4746
2026-01-17 00:30:30.34	90.64	32.94	-41.7	-44.6	19.4	6.03e-01	0	60	0	523239424	55	4871
2026-01-17 00:30:33.36	91.99	32.99	-41.7	-44.5	19.5	6.01e-01	0	60	0	529006592	55	4831
2026-01-17 00:30:36.39	93.35	33.03	-41.8	-44.6	19.3	6.01e-01	0	60	0	534773760	55	4918
2026-01-17 00:30:39.42	94.71	33.05	-41.7	-44.5	19.4	6.01e-01	0	60	0	540540928	55	4867
2026-01-17 00:30:42.45	96.08	33.05	-41.7	-44.5	19.5	6.01e-01	0	61	0	546308096	55	4832
2026-01-17 00:30:45.47	97.44	33.03	-41.7	-44.5	19.5	6.00e-01	0	60	0	551550976	54	5119
2026-01-17 00:30:48.50	98.80	33.00	-41.5	-44.2	19.8	6.01e-01	0	60	0	557318144	54	4935
2026-01-17 00:30:51.53	100.16	32.95	-41.7	-44.5	19.5	6.01e-01	0	60	0	563085312	54	5113
2026-01-17 00:30:54.56	101.51	32.88	-41.6	-44.4	19.6	6.01e-01	0	60	0	568852480	54	5068
2026-01-17 00:30:57.59	102.86	32.80	-41.6	-44.3	19.7	6.02e-01	0	60	0	574619648	54	5029
2026-01-17 00:31:00.61	104.19	32.70	-41.6	-44.4	19.6	6.02e-01	0	60	0	579862528	54	5048
2026-01-17 00:31:03.64	105.52	32.58	-41.5	-44.2	19.8	6.02e-01	0	60	0	585629696	54	4953
2026-01-17 00:31:06.68	106.84	32.44	-41.4	-44.1	19.9	6.02e-01	0	61	0	591396864	54	4887
2026-01-17 00:31:09.70	108.15	32.30	-41.6	-44.3	19.6	6.01e-01	0	61	0	597164032	54	5041
2026-01-17 00:31:12.73	109.44	32.13	-41.3	-43.9	20.0	6.00e-01	0	60	0	602931200	54	4811
2026-01-17 00:31:15.76	110.73	31.96	-41.5	-44.3	19.7	6.00e-01	0	61	0	608698368	54	4984
2026-01-17 00:31:18.79	111.99	31.76	-41.4	-44.1	19.9	6.02e-01	0	60	0	614465536	54	4875
2026-01-17 00:31:21.82	113.25	31.56	-41.4	-44.1	19.9	6.00e-01	0	60	0	619708416	54	4896
2026-01-17 00:31:24.85	114.48	31.34	-41.5	-44.2	19.8	6.04e-01	0	60	0	625475584	54	4952
2026-01-17 00:31:27.88	115.70	31.11	-41.5	-44.2	19.8	6.02e-01	0	60	0	631242752	54	4953
2026-01-17 00:31:30.91	116.90	30.87	-41.4	-44.1	19.9	6.03e-01	0	60	0	637009920	54	4897
2026-01-17 00:31:33.94	118.08	30.62	-41.6	-44.3	19.7	5.99e-01	0	60	0	642777088	54	5027
2026-01-17 00:31:36.97	119.25	30.36	-41.5	-44.3	19.8	6.02e-01	0	60	0	648019968	54	4995
2026-01-17 00:31:40.00	120.39	30.09	-41.5	-44.2	19.8	6.00e-01	0	60	0	653787136	54	4948
2026-01-17 00:31:43.03	121.52	29.80	-41.3	-44.0	20.0	6.04e-01	0	60	0	659554304	54	4833
2026-01-17 00:31:46.06	122.62	29.52	-41.5	-44.3	19.7	6.01e-01	0	60	0	665321472	54	5014
2026-01-17 00:31:49.09	123.70	29.22	-41.5	-44.3	19.7	6.00e-01	0	60	0	671088640	54	4986
2026-01-17 00:31:52.12	124.77	28.91	-41.5	-44.3	19.7	6.03e-01	0	60	0	676855808	54	4995
2026-01-17 00:31:55.15	125.81	28.60	-41.6	-44.3	19.7	6.00e-01	0	60	0	682622976	54	5016
2026-01-17 00:31:58.18	126.83	28.29	-41.6	-44.5	19.5	6.02e-01	0	61	0	687865856	54	5109
2026-01-17 00:32:01.21	127.84	27.97	-41.7	-44.6	19.4	6.00e-01	0	60	0	693633024	54	5171
2026-01-17 00:32:04.24	128.82	27.64	-41.7	-44.5	19.5	6.03e-01	0	60	0	699400192	54	5109
2026-01-17 00:32:07.26	129.78	27.31	-41.9	-44.8	19.1	6.02e-01	0	61	0	705167360	54	5329
2026-01-17 00:32:10.29	130.72	26.97	-41.8	-44.7	19.2	6.02e-01	0	61	0	710934528	54	5264
2026-01-17 00:32:13.32	131.64	26.64	-42.0	-45.0	19.0	6.01e-01	0	60	0	716177408	54	5408
2026-01-17 00:32:16.35	132.54	26.30	-41.8	-44.7	19.3	6.05e-01	0	60	0	721944576	54	5225
2026-01-17 00:32:19.38	133.42	25.95	-42.1	-45.2	18.8	6.02e-01	0	60	0	727711744	54	5535
2026-01-17 00:32:22.41	134.28	25.61	-42.0	-45.0	18.9	6.01e-01	0	61	0	733478912	54	5422
2026-01-17 00:32:25.43	135.13	25.26	-42.0	-45.0	18.9	6.00e-01	0	61	0	739246080	54	5438
2026-01-17 00:32:28.46	135.95	24.91	-42.0	-45.0	18.9	6.02e-01	0	60	0	745013248	54	5414
2026-01-17 00:32:31.49	136.76	24.57	-42.2	-45.4	18.5	6.02e-01	0	60	0	750780416	54	5677
2026-01-17 00:32:34.52	137.55	24.22	-42.3	-45.6	18.3	6.04e-01	0	61	0	756023296	55	5486
2026-01-17 00:32:37.55	138.32	23.87	-42.4	-45.8	18.1	6.02e-01	0	60	0	761790464	55	5617
2026-01-17 00:32:40.57	139.07	23.52	-42.1	-45.2	18.7	6.03e-01	0	60	0	767557632	55	5230
2026-01-17 00:32:43.61	139.81	23.17	-42.1	-45.2	18.7	6.00e-01	0	60	0	773324800	55	5248
2026-01-17 00:32:46.64	140.53	22.82	-42.0	-45.0	18.8	6.02e-01	0	61	0	779091968	55	5153
2026-01-17 00:32:49.66	141.23	22.47	-42.0	-45.0	18.8	6.00e-01	0	60	0	784334848	55	5135
2026-01-17 00:32:52.69	141.91	22.13	-42.0	-45.2	18.7	6.03e-01	0	60	0	790102016	55	5228
2026-01-17 00:32:55.72	142.59	21.78	-42.0	-45.2	18.7	6.03e-01	0	61	0	795869184	55	5234
2026-01-17 00:32:58.75	143.24	21.44	-42.1	-45.3	18.6	6.02e-01	0	61	0	801636352	55	5281
2026-01-17 00:33:01.78	143.88	21.09	-41.9	-44.9	18.8	6.00e-01	0	60	0	807403520	55	5093
2026-01-17 00:33:04.80	144.51	20.76	-41.8	-44.8	19.0	6.03e-01	0	60	0	813170688	55	5000
2026-01-17 00:33:07.83	145.12	20.42	-41.9	-45.0	18.8	6.01e-01	0	60	0	818937856	55	5136
2026-01-17 00:33:10.86	145.72	20.08	-42.1	-45.3	18.4	6.00e-01	0	61	0	824180736	55	5324
2026-01-17 00:33:13.89	146.31	19.74	-42.1	-45.4	18.4	6.03e-01	0	60	0	829947904	55	5355
2026-01-17 00:33:16.92	146.88	19.41	-41.9	-45.0	18.7	6.04e-01	0	61	0	835715072	55	5123
2026-01-17 00:33:19.95	147.44	19.08	-41.7	-44.7	19.0	6.01e-01	0	60	0	841482240	55	4950
2026-01-17 00:33:22.97	147.99	18.75	-41.7	-44.8	19.0	6.01e-01	0	61	0	847249408	55	4988
2026-01-17 00:33:26.00	148.53	18.43	-41.8	-44.8	18.9	5.97e-01	0	61	0	852492288	55	5018
2026-01-17 00:33:29.03	149.05	18.10	-42.0	-45.2	18.6	6.01e-01	0	60	0	858259456	55	5234
2026-01-17 00:33:32.06	149.57	17.78	-41.8	-44.8	18.9	6.01e-01	0	61	0	864026624	55	5033
2026-01-17 00:33:35.09	150.07	17.46	-41.7	-44.7	19.0	6.00e-01	0	60	0	869793792	55	4971
2026-01-17 00:33:38.11	150.56	17.15	-41.7	-44.8	18.9	5.99e-01	0	60	0	875560960	55	5004
2026-01-17 00:33:41.14	151.04	16.83	-41.9	-45.1	18.6	5.99e-01	0	61	0	881328128	55	5185
2026-01-17 00:33:44.17	151.51	16.52	-41.8	-44.8	18.9	6.00e-01	0	61	0	886571008	55	5025
2026-01-17 00:33:47.20	151.97	16.22	-41.7	-44.7	19.0	6.01e-01	0	60	0	892338176	55	4952
2026-01-17 00:33:50.22	152.42	15.91	-41.7	-44.7	18.9	6.02e-01	0	61	0	898105344	55	4962
2026-01-17 00:33:53.25	152.86	15.61	-41.6	-44.7	19.0	6.01e-01	0	61	0	903872512	55	4931
2026-01-17 00:33:56.28	153.30	15.31	-41.7	-44.8	18.8	6.00e-01	0	61	0	909639680	55	5007
2026-01-17 00:33:59.31	153.72	15.01	-41.7	-44.8	18.8	5.99e-01	0	61	0	915406848	55	5018
2026-01-17 00:34:02.34	154.13	14.72	-41.7	-44.9	18.7	6.02e-01	0	60	0	920649728	55	5048
2026-01-17 00:34:05.37	154.54	14.42	-41.8	-45.0	18.6	6.01e-01	0	60	0	926416896	55	5125
2026-01-17 00:34:08.40	154.94	14.13	-41.7	-44.8	18.7	6.03e-01	0	60	0	932184064	55	5033
2026-01-17 00:34:11.43	155.33	13.85	-41.7	-44.9	18.7	6.02e-01	0	60	0	937951232	55	5043
2026-01-17 00:34:14.45	155.71	13.56	-41.7	-44.8	18.7	6.03e-01	0	60	0	943718400	55	5024
2026-01-17 00:34:17.48	156.09	13.28	-41.7	-44.9	18.6	6.04e-01	0	61	0	949485568	55	5069
2026-01-17 00:34:20.51	156.46	13.00	-41.7	-45.0	18.5	6.03e-01	0	61	0	954728448	55	5120
2026-01-17 00:34:23.54	156.82	12.72	-41.9	-45.2	18.3	5.99e-01	0	60	0	960495616	55	5238
2026-01-17 00:34:26.57	157.17	12.45	-41.8	-45.2	18.2	6.01e-01	0	60	0	966262784	55	5219
2026-01-17 00:34:29.60	157.52	12.18	-41.9	-45.3	18.1	6.04e-01	0	60	0	972029952	55	5292
2026-01-17 00:34:32.63	157.86	11.91	-41.8	-45.2	18.2	6.01e-01	0	61	0	977797120	55	5230
2026-01-17 00:34:35.65	158.19	11.64	-41.8	-45.2	18.1	6.01e-01	0	61	0	983564288	55	5236
2026-01-17 00:34:38.68	158.52	11.38	-41.9	-45.3	18.0	6.01e-01	0	60	0	988807168	55	5304
2026-01-17 00:34:41.71	158.84	11.12	-41.9	-45.4	17.8	6.02e-01	0	61	0	994574336	55	5397
2026-01-17 00:34:44.74	159.16	10.86	-41.9	-45.4	17.8	6.02e-01	0	60	0	1000341504	55	5396
2026-01-17 00:34:47.77	159.47	10.60	-42.0	-45.5	17.7	6.02e-01	0	61	0	1006108672	55	5452
2026-01-17 00:34:50.80	159.77	10.34	-41.9	-45.5	17.7	6.00e-01	0	61	0	1011875840	55	5444
2026-01-17 00:34:53.82	160.07	10.09	-41.9	-45.4	17.8	6.00e-01	0	61	0	1017118720	55	5359
2026-01-17 00:34:56.85	160.37	9.84	-42.0	-45.7	17.4	5.99e-01	0	61	0	1022885888	55	5550
2026-01-17 00:34:59.88	160.65	9.59	-42.0	-45.7	17.4	6.03e-01	0	61	0	1028653056	55	5545
2026-01-17 00:35:02.91	160.94	9.35	-41.9	-45.5	17.5	6.01e-01	0	61	0	1034420224	55	5462
2026-01-17 00:35:05.94	161.22	9.10	-42.0	-45.7	17.3	6.01e-01	0	61	0	1040187392	55	5551
2026-01-17 00:35:08.97	161.49	8.86	-42.1	-46.0	16.9	6.01e-01	0	61	0	1045954560	55	5771
2026-01-17 00:35:12.00	161.76	8.62	-42.1	-46.2	16.7	6.02e-01	0	61	0	1051721728	55	5861
2026-01-17 00:35:15.03	162.03	8.38	-42.1	-46.2	16.6	6.00e-01	0	61	0	1056964608	55	5894
2026-01-17 00:35:18.05	162.28	8.15	-42.2	-46.3	16.4	6.03e-01	0	61	0	1062731776	55	5973
2026-01-17 00:35:21.08	162.54	7.91	-45.9	-64.1	3.8	7.41e-01	0	61	104	1066926080	62	30962
2026-01-17 00:35:24.11	162.79	7.68	-46.3	-65.0	3.8	7.43e-01	0	60	104	1066926080	63	32227
2026-01-17 00:35:27.14	163.04	7.45	-46.4	-65.1	3.8	7.45e-01	0	61	104	1066926080	63	32870
2026-01-17 00:35:30.17	163.28	7.22	-46.4	-65.1	3.8	7.48e-01	0	61	104	1066926080	63	32634
2026-01-17 00:35:33.20	163.52	7.00	-46.4	-65.0	3.8	7.46e-01	0	61	104	1066926080	63	32419
2026-01-17 00:35:36.23	163.76	6.77	-46.4	-65.0	3.8	7.44e-01	0	61	104	1066926080	63	32308
2026-01-17 00:35:39.26	163.99	6.55	-46.4	-65.0	3.8	7.44e-01	0	61	104	1066926080	63	32199
2026-01-17 00:35:42.29	164.22	6.33	-46.4	-64.9	3.8	7.42e-01	0	61	104	1066926080	63	32099
2026-01-17 00:35:45.33	164.45	6.11	-46.4	-64.9	3.8	7.46e-01	0	61	104	1066926080	63	32092
2026-01-17 00:35:48.36	164.67	5.89	-46.3	-64.9	3.8	7.44e-01	0	61	104	1066926080	63	32084
2026-01-17 00:35:51.40	164.89	5.67	-46.3	-64.9	3.8	7.44e-01	0	61	104	1066926080	63	32079
2026-01-17 00:35:54.43	165.10	5.46	-46.3	-64.9	3.8	7.47e-01	0	61	104	1066926080	63	31937
2026-01-17 00:35:57.46	165.31	5.25	-46.3	-64.9	3.8	7.46e-01	0	61	104	1066926080	63	31978
2026-01-17 00:36:00.49	165.52	5.04	-46.3	-64.9	3.8	7.45e-01	0	61	104	1066926080	63	31928
2026-01-17 00:36:03.52	165.72	4.83	-46.3	-64.9	3.8	7.43e-01	0	61	104	1066926080	63	31856
2026-01-17 00:36:06.55	165.93	4.62	-46.3	-64.9	3.8	7.42e-01	0	61	104	1066926080	63	31836
2026-01-17 00:36:09.59	166.13	4.41	-46.3	-64.8	3.8	7.45e-01	0	61	104	1066926080	63	31792
2026-01-17 00:36:12.62	166.32	4.21	-46.3	-64.9	3.8	7.48e-01	0	61	104	1066926080	63	31853
2026-01-17 00:36:15.65	166.52	4.01	-46.3	-64.9	3.8	7.49e-01	0	61	104	1066926080	63	31848
2026-01-17 00:36:18.68	166.71	3.80	-46.3	-64.9	3.8	7.45e-01	0	61	104	1066926080	63	31825
2026-01-17 00:36:21.72	166.89	3.60	-46.3	-64.8	3.8	7.46e-01	0	61	104	1066926080	63	31782
2026-01-17 00:36:24.75	167.08	3.40	-46.3	-64.8	3.8	7.45e-01	0	61	104	1066926080	63	31751
2026-01-17 00:36:27.78	167.26	3.21	-46.3	-64.8	3.8	7.43e-01	0	61	104	1066926080	63	31763
2026-01-17 00:36:30.81	167.44	3.01	-46.3	-64.8	3.8	7.46e-01	0	61	104	1066926080	63	31766
2026-01-17 00:36:33.84	167.62	2.81	-46.3	-64.8	3.8	7.45e-01	0	61	104	1066926080	63	31726
2026-01-17 00:36:36.87	167.80	2.62	-46.3	-64.8	3.8	7.43e-01	0	61	104	1066926080	63	31714
2026-01-17 00:36:39.91	167.97	2.43	-46.3	-64.8	3.8	7.47e-01	0	61	104	1066926080	63	31769
2026-01-17 00:36:42.94	168.14	2.24	-46.3	-64.8	3.8	7.42e-01	0	61	104	1066926080	63	31733
2026-01-17 00:36:45.97	168.31	2.05	-46.3	-64.8	3.8	7.45e-01	0	61	104	1066926080	63	31736

#Closed at: 2026-01-17 00:36:47
#Recorded file [1066 MB]: D:/lorett/data/31039_260117_032432.dat