passes_logs/2026/01/17/R2.0S_Moscow/R2.0S_Moscow__20260117_005754_NOAA_20_JPSS-1_rec.log

#Pass ID: 20260117_005754_NOAA 20 (JPSS-1)
#Satellite: NOAA 20 (JPSS-1)
#Configuration: NOAA 20
#almurnet v.1.7.20251203
#Start time: 2026-01-17 00:57:55

#Version: 2.2.20231116
#Station: R2.0S_Moscow
#Location: 37.707566 lon 55.798166 lat
#TLE: 1 43013U 17073A   26016.24631778  .00000038  00000+0  39093-4 0  9990
#TLE: 2 43013  98.7637 317.1726 0001455  37.6755 322.4523 14.19536243422915

#Time	Az	El	Level	Level2	SNR	BER	BlckErr	Temp	State	Recorded	gain1	gain2
2026-01-17 00:57:55.71	11.31	2.08	-39.9	-54.6	3.8	1.49e+00	0	51	0	0	51	19512
2026-01-17 00:57:59.75	11.10	2.32	-39.9	-54.6	3.8	1.49e+00	0	52	104	0	51	19475
2026-01-17 00:58:03.79	10.89	2.56	-39.9	-54.6	3.8	1.49e+00	0	52	104	0	51	19425
2026-01-17 00:58:07.84	10.68	2.81	-39.9	-54.6	3.8	1.49e+00	0	53	104	0	51	19440
2026-01-17 00:58:11.88	10.46	3.05	-39.9	-54.6	3.8	1.49e+00	0	53	104	0	51	19437
2026-01-17 00:58:15.93	10.24	3.30	-39.9	-54.6	3.8	1.49e+00	0	53	104	0	51	19451
2026-01-17 00:58:19.97	10.02	3.55	-39.9	-54.6	3.8	1.49e+00	0	54	104	0	51	19394
2026-01-17 00:58:24.01	9.79	3.80	-39.9	-54.5	3.8	1.49e+00	0	54	104	0	51	19386
2026-01-17 00:58:28.06	9.56	4.06	-39.9	-54.6	3.8	1.49e+00	0	54	104	0	51	19444
2026-01-17 00:58:32.10	9.32	4.31	-39.9	-54.5	3.8	1.49e+00	0	54	104	0	51	19357
2026-01-17 00:58:36.15	9.08	4.57	-39.9	-54.6	3.8	1.49e+00	0	54	104	0	51	19401
2026-01-17 00:58:40.19	8.83	4.83	-39.9	-54.6	3.8	1.49e+00	0	55	104	0	51	19439
2026-01-17 00:58:44.24	8.58	5.09	-39.9	-54.5	3.8	1.49e+00	0	55	104	0	51	19374
2026-01-17 00:58:48.28	8.33	5.36	-39.9	-54.6	3.8	1.49e+00	0	55	104	0	51	19411
2026-01-17 00:58:52.32	8.06	5.62	-39.9	-54.5	3.8	1.49e+00	0	56	104	0	51	19386
2026-01-17 00:58:56.36	7.80	5.89	-39.9	-54.6	3.8	1.49e+00	0	55	104	0	51	19404
2026-01-17 00:59:00.41	7.53	6.16	-39.9	-54.6	3.8	1.49e+00	0	56	104	0	51	19434
2026-01-17 00:59:04.45	7.25	6.43	-39.9	-54.5	3.8	1.49e+00	0	56	104	0	51	19348
2026-01-17 00:59:08.49	6.97	6.71	-39.9	-54.6	3.8	1.49e+00	0	56	104	0	51	19427
2026-01-17 00:59:12.54	6.68	6.98	-39.9	-54.5	3.8	1.49e+00	0	56	104	0	51	19331
2026-01-17 00:59:16.58	6.39	7.26	-39.9	-54.6	3.8	1.49e+00	0	56	104	0	51	19420
2026-01-17 00:59:20.62	6.09	7.54	-39.9	-54.6	3.8	1.49e+00	0	57	104	0	51	19403
2026-01-17 00:59:24.66	5.78	7.83	-39.9	-54.6	3.8	1.49e+00	0	57	104	0	51	19416
2026-01-17 00:59:28.71	5.47	8.11	-39.9	-54.6	3.8	1.49e+00	0	56	104	0	51	19530
2026-01-17 00:59:32.75	5.15	8.40	-40.0	-54.7	3.8	1.49e+00	0	57	104	0	51	19636
2026-01-17 00:59:36.79	4.83	8.69	-40.0	-54.7	3.8	1.49e+00	0	57	104	0	51	19678
2026-01-17 00:59:40.83	4.49	8.98	-40.0	-54.7	3.8	1.49e+00	0	57	104	0	51	19657
2026-01-17 00:59:44.87	4.16	9.28	-40.0	-54.6	3.8	1.49e+00	0	57	104	0	51	19582
2026-01-17 00:59:48.91	3.81	9.58	-39.9	-54.6	3.8	1.49e+00	0	58	104	0	51	19558
2026-01-17 00:59:52.95	3.46	9.88	-40.0	-54.7	3.8	1.49e+00	0	58	104	0	51	19833
2026-01-17 00:59:56.99	3.09	10.18	-39.8	-54.6	3.8	1.49e+00	0	58	104	0	51	19578
2026-01-17 01:00:01.03	2.73	10.49	-39.8	-54.6	3.8	1.49e+00	0	58	104	0	51	19461
2026-01-17 01:00:05.06	2.35	10.79	-39.9	-54.7	3.8	1.49e+00	0	58	104	0	51	19726
2026-01-17 01:00:09.10	1.96	11.11	-39.9	-54.7	3.8	1.49e+00	0	58	104	0	51	19800
2026-01-17 01:00:13.15	1.57	11.42	-40.0	-54.8	3.8	1.49e+00	0	58	104	0	51	19927
2026-01-17 01:00:17.19	1.16	11.74	-39.9	-54.8	3.8	1.49e+00	0	58	104	0	51	19869
2026-01-17 01:00:21.23	0.75	12.05	-40.3	-55.1	3.8	1.49e+00	0	58	104	0	51	20683
2026-01-17 01:00:25.26	0.33	12.38	-40.1	-54.9	3.8	1.49e+00	0	58	104	0	52	19103
2026-01-17 01:00:29.31	359.90	12.70	-40.2	-55.1	3.8	1.49e+00	0	58	104	0	52	19412
2026-01-17 01:00:33.35	359.46	13.03	-40.7	-55.4	3.8	1.49e+00	0	58	104	0	53	19087
2026-01-17 01:00:37.39	359.00	13.36	-41.4	-50.7	5.2	6.90e-01	0	59	0	3145728	53	11036
2026-01-17 01:00:41.43	358.54	13.69	-41.3	-48.6	7.0	2.03e-01	0	59	0	10485760	53	8664
2026-01-17 01:00:45.47	358.07	14.02	-40.9	-46.8	8.7	2.92e-02	0	59	0	17825792	53	7104
2026-01-17 01:00:49.51	357.58	14.36	-40.9	-46.9	8.7	4.84e-02	0	59	0	25165824	53	7140
2026-01-17 01:00:53.55	357.09	14.70	-40.9	-46.7	9.0	2.94e-02	0	59	0	32505856	53	6979
2026-01-17 01:00:57.59	356.58	15.04	-41.1	-47.5	8.0	5.08e-02	0	59	0	40894464	53	7675
2026-01-17 01:01:01.63	356.06	15.39	-41.3	-50.9	5.0	6.50e-01	0	59	0	48234496	53	11352
2026-01-17 01:01:05.66	355.53	15.74	-41.1	-54.7	3.8	1.49e+00	0	59	104	50331648	53	17577
2026-01-17 01:01:09.70	354.98	16.09	-40.6	-55.3	3.8	1.49e+00	0	59	104	50331648	53	18829
2026-01-17 01:01:13.74	354.43	16.44	-40.7	-55.4	3.8	1.49e+00	0	59	104	50331648	53	19159
2026-01-17 01:01:17.78	353.85	16.79	-40.7	-55.5	3.8	1.49e+00	0	59	104	50331648	52	20433
2026-01-17 01:01:21.81	353.27	17.15	-40.2	-55.2	3.8	1.49e+00	0	59	104	50331648	52	19832
2026-01-17 01:01:25.85	352.67	17.51	-40.5	-55.3	3.8	1.49e+00	0	59	104	50331648	52	19987
2026-01-17 01:01:29.89	352.05	17.87	-40.6	-55.3	3.8	1.49e+00	0	59	104	50331648	52	20054
2026-01-17 01:01:33.93	351.42	18.23	-40.7	-55.4	3.8	1.49e+00	0	60	104	50331648	52	20278
2026-01-17 01:01:37.97	350.78	18.59	-40.5	-55.6	3.8	1.49e+00	0	59	104	50331648	52	20544
2026-01-17 01:01:42.01	350.12	18.96	-40.8	-55.5	3.8	1.49e+00	0	60	104	50331648	52	20402
2026-01-17 01:01:46.05	349.44	19.33	-40.8	-55.5	3.8	1.49e+00	0	59	104	50331648	52	20353
2026-01-17 01:01:50.09	348.74	19.69	-41.1	-55.8	3.8	1.49e+00	0	60	104	50331648	53	19992
2026-01-17 01:01:54.12	348.03	20.06	-41.1	-55.8	3.8	1.49e+00	0	60	104	50331648	53	20043
2026-01-17 01:01:58.17	347.30	20.43	-41.1	-55.9	3.8	1.49e+00	0	60	104	50331648	53	20160
2026-01-17 01:02:02.21	346.55	20.80	-41.2	-55.8	3.8	1.49e+00	0	60	104	50331648	54	18909
2026-01-17 01:02:06.24	345.79	21.17	-42.1	-52.0	4.7	9.94e-01	0	60	0	51380224	54	12167
2026-01-17 01:02:10.28	345.00	21.54	-41.7	-48.7	7.1	1.83e-01	0	60	0	58720256	54	8301
2026-01-17 01:02:14.32	344.20	21.91	-41.3	-46.9	9.1	2.92e-02	0	60	0	66060288	54	6730
2026-01-17 01:02:18.36	343.37	22.28	-41.1	-46.0	10.2	8.53e-03	0	60	0	73400320	54	6120
2026-01-17 01:02:22.40	342.53	22.65	-41.6	-46.5	10.1	6.19e-03	0	60	0	81788928	54	6484
2026-01-17 01:02:26.44	341.66	23.01	-41.6	-46.0	11.2	1.86e-03	0	60	0	89128960	54	6085
2026-01-17 01:02:30.47	340.78	23.37	-41.7	-45.8	11.6	8.87e-04	0	60	0	96468992	54	5974
2026-01-17 01:02:34.52	339.87	23.74	-41.7	-45.6	12.0	3.04e-04	0	60	0	103809024	54	5824
2026-01-17 01:02:38.55	338.94	24.09	-41.8	-45.8	11.8	4.51e-04	0	60	0	111149056	54	5971
2026-01-17 01:02:42.59	337.99	24.45	-41.8	-45.6	12.2	2.80e-04	0	60	0	119537664	54	5844
2026-01-17 01:02:46.63	337.02	24.80	-41.7	-45.3	12.6	1.07e-04	0	60	0	126877696	54	5616
2026-01-17 01:02:50.67	336.03	25.14	-41.7	-45.3	12.7	8.01e-05	0	60	0	134217728	54	5623
2026-01-17 01:02:54.71	335.01	25.48	-41.6	-45.1	12.9	5.34e-05	0	60	0	141557760	54	5517
2026-01-17 01:02:58.75	333.97	25.82	-41.9	-45.7	12.3	1.97e-04	0	60	0	149946368	54	5903
2026-01-17 01:03:02.78	332.92	26.15	-42.1	-46.0	12.0	3.66e-04	0	60	0	157286400	54	6079
2026-01-17 01:03:06.82	331.83	26.47	-42.2	-46.2	11.8	3.39e-04	0	60	0	164626432	54	6203
2026-01-17 01:03:10.86	330.73	26.78	-42.3	-46.3	11.8	4.75e-04	0	60	0	171966464	55	5933
2026-01-17 01:03:14.90	329.60	27.09	-42.3	-46.4	11.6	7.73e-04	0	60	0	179306496	55	6028
2026-01-17 01:03:18.94	328.45	27.38	-42.4	-46.5	11.5	7.79e-04	0	60	0	187695104	55	6098
2026-01-17 01:03:22.98	327.28	27.67	-42.4	-46.6	11.5	9.07e-04	0	60	0	195035136	55	6132
2026-01-17 01:03:27.02	326.09	27.94	-42.4	-46.5	11.5	9.04e-04	0	60	0	202375168	55	6114
2026-01-17 01:03:31.05	324.89	28.21	-42.4	-46.6	11.4	7.66e-04	0	60	0	209715200	55	6200
2026-01-17 01:03:35.10	323.65	28.46	-42.3	-46.4	11.7	6.25e-04	0	60	0	218103808	55	6035
2026-01-17 01:03:39.13	322.40	28.70	-42.5	-46.7	11.4	1.15e-03	0	61	0	225443840	55	6251
2026-01-17 01:03:43.17	321.14	28.93	-42.7	-47.1	10.9	1.97e-03	0	60	0	232783872	55	6546
2026-01-17 01:03:47.21	319.85	29.14	-42.6	-46.9	11.1	2.09e-03	0	60	0	240123904	55	6406
2026-01-17 01:03:51.25	318.55	29.33	-42.9	-47.4	10.8	2.46e-03	0	60	0	247463936	56	6414
2026-01-17 01:03:55.29	317.23	29.52	-43.0	-47.6	10.5	4.64e-03	0	60	0	255852544	56	6565
2026-01-17 01:03:59.33	315.89	29.68	-42.9	-47.5	10.6	3.06e-03	0	61	0	263192576	56	6473
2026-01-17 01:04:03.37	314.55	29.83	-42.9	-47.4	10.8	2.64e-03	0	60	0	270532608	56	6378
2026-01-17 01:04:07.41	313.19	29.96	-42.9	-47.4	10.8	2.57e-03	0	60	0	277872640	56	6392
2026-01-17 01:04:11.45	311.82	30.07	-42.9	-47.4	10.7	3.40e-03	0	60	0	286261248	56	6419
2026-01-17 01:04:15.49	310.44	30.17	-42.9	-47.5	10.7	2.64e-03	0	60	0	293601280	56	6435
2026-01-17 01:04:19.53	309.06	30.25	-43.1	-47.8	10.3	4.49e-03	0	60	0	300941312	56	6720
2026-01-17 01:04:23.56	307.67	30.31	-43.1	-47.9	10.2	6.11e-03	0	61	0	308281344	56	6790
2026-01-17 01:04:27.60	306.27	30.35	-43.4	-48.7	9.4	1.40e-02	0	61	0	315621376	57	7009
2026-01-17 01:04:31.64	304.88	30.37	-43.4	-48.9	9.2	2.15e-02	0	60	0	324009984	57	7149
2026-01-17 01:04:35.68	303.48	30.37	-43.2	-48.3	9.8	1.06e-02	0	60	0	331350016	57	6712
2026-01-17 01:04:39.72	302.08	30.35	-43.3	-48.6	9.5	1.31e-02	0	61	0	338690048	57	6898
2026-01-17 01:04:43.76	300.68	30.31	-43.2	-48.4	9.8	1.14e-02	0	61	0	346030080	57	6737
2026-01-17 01:04:47.81	299.28	30.26	-42.9	-47.6	10.6	4.94e-03	0	60	0	354418688	57	6146
2026-01-17 01:04:51.85	297.90	30.18	-42.8	-47.2	10.9	2.04e-03	0	60	0	361758720	57	5919
2026-01-17 01:04:55.89	296.52	30.09	-42.7	-47.0	11.2	1.12e-03	0	61	0	369098752	57	5745
2026-01-17 01:04:59.93	295.15	29.98	-43.0	-47.7	10.4	4.31e-03	0	60	0	376438784	57	6260
2026-01-17 01:05:03.96	293.79	29.85	-42.9	-47.4	10.8	3.35e-03	0	61	0	384827392	57	6022
2026-01-17 01:05:08.00	292.44	29.70	-42.8	-47.1	11.0	1.68e-03	0	60	0	392167424	57	5853
2026-01-17 01:05:12.04	291.10	29.54	-42.8	-47.3	10.9	2.10e-03	0	61	0	399507456	57	5933
2026-01-17 01:05:16.07	289.78	29.36	-42.6	-46.8	11.4	1.30e-03	0	61	0	406847488	57	5593
2026-01-17 01:05:20.11	288.47	29.16	-42.6	-46.9	11.3	9.37e-04	0	61	0	414187520	57	5692
2026-01-17 01:05:24.15	287.18	28.95	-42.7	-47.1	11.1	1.55e-03	0	61	0	422576128	57	5828
2026-01-17 01:05:28.19	285.91	28.73	-43.0	-47.7	10.4	4.17e-03	0	61	0	429916160	57	6258
2026-01-17 01:05:32.23	284.65	28.49	-43.0	-47.9	10.3	5.59e-03	0	61	0	437256192	57	6369
2026-01-17 01:05:36.27	283.42	28.24	-43.0	-47.8	10.3	4.63e-03	0	61	0	444596224	57	6311
2026-01-17 01:05:40.31	282.20	27.98	-43.2	-48.2	9.9	8.35e-03	0	61	0	452984832	57	6625
2026-01-17 01:05:44.35	281.00	27.70	-43.1	-48.0	10.1	8.39e-03	0	61	0	460324864	57	6486
2026-01-17 01:05:48.39	279.83	27.41	-43.0	-47.7	10.4	4.64e-03	0	61	0	467664896	57	6269
2026-01-17 01:05:52.43	278.67	27.12	-43.1	-48.0	10.1	7.68e-03	0	61	0	475004928	57	6466
2026-01-17 01:05:56.47	277.54	26.81	-43.0	-47.8	10.3	5.55e-03	0	61	0	482344960	57	6290
2026-01-17 01:06:00.51	276.43	26.50	-42.7	-47.1	11.1	1.88e-03	0	61	0	490733568	57	5815
2026-01-17 01:06:04.55	275.34	26.18	-42.6	-46.9	11.2	1.32e-03	0	61	0	498073600	57	5665
2026-01-17 01:06:08.59	274.27	25.85	-42.6	-46.8	11.3	1.17e-03	0	61	0	505413632	57	5611
2026-01-17 01:06:12.63	273.23	25.51	-42.5	-46.6	11.5	7.57e-04	0	60	0	512753664	56	5823
2026-01-17 01:06:16.67	272.20	25.17	-42.2	-46.1	12.0	3.98e-04	0	61	0	521142272	56	5515
2026-01-17 01:06:20.71	271.20	24.83	-42.3	-46.2	12.0	3.46e-04	0	61	0	528482304	56	5545
2026-01-17 01:06:24.75	270.23	24.48	-42.0	-45.8	12.4	1.70e-04	0	61	0	535822336	56	5287
2026-01-17 01:06:28.78	269.27	24.12	-41.7	-45.2	12.8	6.02e-05	0	61	0	543162368	55	5224
2026-01-17 01:06:32.83	268.33	23.76	-41.6	-45.1	12.8	4.95e-05	0	61	0	550502400	55	5215
2026-01-17 01:06:36.86	267.42	23.40	-41.4	-44.6	13.3	2.44e-05	0	61	0	558891008	54	5216
2026-01-17 01:06:40.90	266.53	23.04	-41.3	-44.5	13.5	1.29e-05	0	61	0	566231040	54	5137
2026-01-17 01:06:44.94	265.66	22.67	-41.2	-44.4	13.6	9.10e-06	0	61	0	573571072	54	5088
2026-01-17 01:06:48.98	264.81	22.30	-41.0	-44.0	14.0	3.80e-06	0	61	0	580911104	54	4844
2026-01-17 01:06:53.02	263.98	21.93	-40.7	-43.6	14.4	0.00e+00	0	61	0	589299712	53	4898
2026-01-17 01:06:57.05	263.17	21.56	-40.6	-43.5	14.5	0.00e+00	0	61	0	596639744	53	4828
2026-01-17 01:07:01.09	262.37	21.19	-40.7	-43.6	14.4	7.00e-07	0	61	0	603979776	53	4889
2026-01-17 01:07:05.13	261.60	20.82	-40.6	-43.4	14.6	7.00e-07	0	61	0	611319808	53	4771
2026-01-17 01:07:09.16	260.85	20.45	-40.8	-43.7	14.3	2.20e-06	0	61	0	618659840	53	4948
2026-01-17 01:07:13.20	260.11	20.08	-40.8	-43.8	14.1	7.00e-07	0	61	0	627048448	53	5009
2026-01-17 01:07:17.24	259.39	19.71	-40.8	-43.7	14.2	7.00e-07	0	61	0	634388480	53	4966
2026-01-17 01:07:21.28	258.69	19.34	-41.1	-44.3	13.7	9.90e-06	0	61	0	641728512	53	5288
2026-01-17 01:07:25.32	258.01	18.97	-41.1	-44.2	13.7	6.80e-06	0	61	0	649068544	53	5261
2026-01-17 01:07:29.36	257.34	18.60	-41.2	-44.4	13.4	9.90e-06	0	60	0	657457152	53	5391
2026-01-17 01:07:33.41	256.69	18.23	-41.5	-45.0	12.8	3.89e-05	0	61	0	664797184	53	5765
2026-01-17 01:07:37.44	256.05	17.87	-41.5	-45.1	12.7	6.86e-05	0	60	0	672137216	53	5816
2026-01-17 01:07:41.48	255.43	17.51	-41.5	-45.0	12.8	6.25e-05	0	61	0	679477248	53	5763
2026-01-17 01:07:45.52	254.82	17.15	-41.5	-45.1	12.7	8.92e-05	0	61	0	686817280	53	5827
2026-01-17 01:07:49.55	254.23	16.79	-41.5	-45.1	12.7	9.15e-05	0	61	0	695205888	53	5837
2026-01-17 01:07:53.59	253.66	16.43	-41.6	-45.3	12.5	1.33e-04	0	61	0	702545920	53	5964
2026-01-17 01:07:57.63	253.09	16.08	-41.8	-45.7	12.1	2.63e-04	0	61	0	709885952	54	5856
2026-01-17 01:08:01.67	252.54	15.73	-41.8	-45.6	12.1	2.91e-04	0	61	0	717225984	54	5824
2026-01-17 01:08:05.71	252.00	15.38	-41.6	-45.4	12.4	1.75e-04	0	61	0	725614592	54	5668
2026-01-17 01:08:09.75	251.48	15.03	-41.9	-45.8	11.9	3.75e-04	0	61	0	732954624	54	5964
2026-01-17 01:08:13.79	250.96	14.69	-42.0	-46.1	11.6	6.42e-04	0	61	0	740294656	54	6155
2026-01-17 01:08:17.83	250.46	14.35	-41.8	-45.8	11.8	5.35e-04	0	61	0	747634688	54	5986
2026-01-17 01:08:21.87	249.97	14.01	-42.0	-46.2	11.5	7.51e-04	0	61	0	754974720	54	6207
2026-01-17 01:08:25.91	249.50	13.67	-42.3	-47.0	10.7	2.76e-03	0	61	0	763363328	55	6428
2026-01-17 01:08:29.95	249.03	13.34	-42.5	-47.4	10.1	6.77e-03	0	61	0	770703360	55	6767
2026-01-17 01:08:33.98	248.57	13.01	-42.2	-46.7	10.8	2.59e-03	0	61	0	778043392	55	6264
2026-01-17 01:08:38.02	248.13	12.68	-42.2	-46.7	10.8	2.18e-03	0	61	0	785383424	55	6257
2026-01-17 01:08:42.06	247.69	12.35	-42.4	-47.2	10.3	5.45e-03	0	61	0	793772032	55	6630
2026-01-17 01:08:46.10	247.26	12.03	-42.4	-47.3	10.2	5.78e-03	0	61	0	801112064	55	6666
2026-01-17 01:08:50.14	246.84	11.71	-42.3	-47.0	10.5	4.29e-03	0	61	0	808452096	55	6440
2026-01-17 01:08:54.17	246.44	11.39	-42.3	-47.0	10.4	3.98e-03	0	61	0	815792128	55	6460
2026-01-17 01:08:58.21	246.04	11.08	-42.5	-47.5	9.9	8.68e-03	0	61	0	823132160	55	6866
2026-01-17 01:09:02.25	245.65	10.77	-42.5	-47.6	9.8	9.37e-03	0	61	0	831520768	55	6906
2026-01-17 01:09:06.29	245.26	10.46	-42.4	-47.5	9.9	9.05e-03	0	61	0	838860800	55	6839
2026-01-17 01:09:10.32	244.89	10.15	-42.5	-47.6	9.7	1.16e-02	0	61	0	846200832	55	6940
2026-01-17 01:09:14.36	244.52	9.85	-42.5	-47.8	9.5	1.33e-02	0	61	0	853540864	55	7082
2026-01-17 01:09:18.40	244.16	9.55	-42.6	-48.3	9.0	2.29e-02	0	61	0	860880896	55	7474
2026-01-17 01:09:22.44	243.81	9.25	-42.9	-48.6	8.8	3.29e-02	0	61	0	869269504	56	7331
2026-01-17 01:09:26.48	243.47	8.95	-42.8	-48.6	8.8	3.24e-02	0	61	0	876609536	56	7298
2026-01-17 01:09:30.52	243.13	8.66	-42.7	-48.1	9.2	2.20e-02	0	61	0	883949568	56	6941
2026-01-17 01:09:34.55	242.80	8.36	-42.7	-48.3	9.1	2.40e-02	0	61	0	891289600	56	7063
2026-01-17 01:09:38.60	242.48	8.07	-42.7	-48.3	9.0	2.45e-02	0	61	0	899678208	56	7081
2026-01-17 01:09:42.64	242.16	7.79	-45.0	-59.6	3.8	1.49e+00	0	61	104	901775360	60	20590
2026-01-17 01:09:46.68	241.85	7.50	-45.3	-59.8	3.8	1.49e+00	0	61	104	901775360	61	19901
2026-01-17 01:09:50.72	241.55	7.22	-45.3	-59.8	3.8	1.49e+00	0	61	104	901775360	61	19960
2026-01-17 01:09:54.77	241.25	6.94	-45.2	-59.7	3.8	1.49e+00	0	61	104	901775360	61	19687
2026-01-17 01:09:58.81	240.95	6.66	-45.2	-59.7	3.8	1.49e+00	0	61	104	901775360	61	19681
2026-01-17 01:10:02.85	240.67	6.39	-45.2	-59.7	3.8	1.49e+00	0	61	104	901775360	61	19670
2026-01-17 01:10:06.90	240.39	6.12	-45.2	-59.7	3.8	1.49e+00	0	61	104	901775360	61	19625
2026-01-17 01:10:10.94	240.11	5.84	-45.2	-59.6	3.8	1.49e+00	0	61	104	901775360	61	19599
2026-01-17 01:10:14.99	239.84	5.58	-45.2	-59.7	3.8	1.49e+00	0	61	104	901775360	61	19643
2026-01-17 01:10:19.03	239.57	5.31	-45.1	-59.6	3.8	1.49e+00	0	61	104	901775360	61	19573
2026-01-17 01:10:23.07	239.31	5.04	-45.1	-59.6	3.8	1.49e+00	0	61	104	901775360	61	19562
2026-01-17 01:10:27.11	239.06	4.78	-45.1	-59.7	3.8	1.49e+00	0	61	104	901775360	61	19644
2026-01-17 01:10:31.16	238.80	4.52	-45.1	-59.6	3.8	1.49e+00	0	61	104	901775360	61	19495
2026-01-17 01:10:35.20	238.56	4.26	-45.1	-59.6	3.8	1.49e+00	0	61	104	901775360	61	19533
2026-01-17 01:10:39.25	238.31	4.01	-45.1	-59.7	3.8	1.49e+00	0	61	104	901775360	61	19672
2026-01-17 01:10:43.29	238.08	3.75	-45.1	-59.6	3.8	1.49e+00	0	61	104	901775360	61	19536
2026-01-17 01:10:47.33	237.84	3.50	-45.1	-59.6	3.8	1.49e+00	0	61	104	901775360	61	19527
2026-01-17 01:10:51.37	237.61	3.25	-45.1	-59.6	3.8	1.49e+00	0	61	104	901775360	61	19481
2026-01-17 01:10:55.41	237.39	3.00	-45.1	-59.6	3.8	1.49e+00	0	61	104	901775360	61	19567
2026-01-17 01:10:59.45	237.17	2.75	-45.1	-59.6	3.8	1.49e+00	0	61	104	901775360	61	19554
2026-01-17 01:11:03.50	236.95	2.51	-45.1	-59.6	3.8	1.49e+00	0	61	104	901775360	61	19511
2026-01-17 01:11:07.54	236.73	2.26	-45.1	-59.6	3.8	1.49e+00	0	61	104	901775360	61	19521
2026-01-17 01:11:11.58	236.52	2.02	-45.1	-59.6	3.8	1.49e+00	0	61	104	901775360	61	19503

#Closed at: 2026-01-17 01:11:12
#Recorded file [901 MB]: D:/lorett/data/31039_260117_035755.dat