passes_logs/2026/01/17/R2.0S_Moscow/R2.0S_Moscow__20260117_090823_NOAA_20_JPSS-1_rec.log

#Pass ID: 20260117_090823_NOAA 20 (JPSS-1)
#Satellite: NOAA 20 (JPSS-1)
#Configuration: NOAA 20
#almurnet v.1.7.20251203
#Start time: 2026-01-17 09:08:25

#Version: 2.2.20231116
#Station: R2.0S_Moscow
#Location: 37.707566 lon 55.798166 lat
#TLE: 1 43013U 17073A   26016.24631778  .00000038  00000+0  39093-4 0  9990
#TLE: 2 43013  98.7637 317.1726 0001455  37.6755 322.4523 14.19536243422915

#Time	Az	El	Level	Level2	SNR	BER	BlckErr	Temp	State	Recorded	gain1	gain2
2026-01-17 09:08:25.70	137.79	2.11	-28.2	-42.1	4.2	1.51e+00	0	52	0	0	23	23159
2026-01-17 09:08:29.73	137.66	2.37	-31.6	-46.5	4.4	1.50e+00	0	53	104	0	23	38264
2026-01-17 09:08:33.78	137.52	2.63	-30.0	-47.8	4.1	1.51e+00	0	53	104	0	29	31448
2026-01-17 09:08:37.82	137.39	2.89	-26.2	-46.0	4.1	1.51e+00	0	53	104	0	30	24393
2026-01-17 09:08:41.86	137.25	3.15	-16.5	-28.4	4.4	1.50e+00	0	53	104	0	20	5721
2026-01-17 09:08:45.91	137.11	3.41	-29.5	-47.2	4.1	1.51e+00	0	54	104	0	24	39205
2026-01-17 09:08:49.95	136.97	3.68	-31.0	-43.9	4.2	1.50e+00	0	54	104	0	22	30224
2026-01-17 09:08:53.99	136.82	3.95	-29.4	-38.0	3.6	1.51e+00	0	54	104	0	12	27177
2026-01-17 09:08:58.04	136.67	4.22	-23.0	-37.3	6.2	1.50e+00	0	55	104	0	15	21120
2026-01-17 09:09:02.08	136.52	4.49	-24.2	-37.3	3.5	1.51e+00	0	55	104	0	13	23766
2026-01-17 09:09:06.12	136.37	4.77	-26.0	-41.3	3.9	1.51e+00	0	55	104	0	21	23783
2026-01-17 09:09:10.17	136.21	5.05	-25.3	-41.9	4.0	1.51e+00	0	55	104	0	9	50885
2026-01-17 09:09:14.22	136.05	5.33	-16.7	-30.5	3.6	1.51e+00	0	55	0	0	11	12210
2026-01-17 09:09:18.26	135.88	5.62	-25.3	-42.1	3.9	1.51e+00	0	56	104	0	21	25959
2026-01-17 09:09:22.30	135.71	5.91	-30.1	-47.4	4.3	1.51e+00	0	56	104	0	29	30316
2026-01-17 09:09:26.35	135.54	6.20	-25.5	-43.0	4.0	1.51e+00	0	56	104	0	22	27301
2026-01-17 09:09:30.39	135.37	6.49	-26.4	-40.6	3.9	1.51e+00	0	56	104	0	20	23199
2026-01-17 09:09:34.43	135.19	6.79	-30.3	-45.7	4.1	1.51e+00	0	56	104	0	24	33239
2026-01-17 09:09:38.47	135.00	7.09	-24.8	-41.7	3.8	1.51e+00	0	56	104	0	19	27962
2026-01-17 09:09:42.51	134.82	7.39	-30.7	-44.8	4.2	1.50e+00	0	56	104	0	17	44574
2026-01-17 09:09:46.56	134.63	7.70	-27.9	-43.2	4.0	1.51e+00	0	57	104	0	24	24944
2026-01-17 09:09:50.60	134.43	8.01	-29.4	-45.2	4.2	1.50e+00	0	57	104	0	27	26230
2026-01-17 09:09:54.64	134.23	8.32	-24.6	-40.3	3.8	1.50e+00	0	57	104	0	18	25037
2026-01-17 09:09:58.68	134.03	8.64	-21.8	-39.2	3.5	1.50e+00	0	57	104	0	16	24753
2026-01-17 09:10:02.71	133.82	8.96	-20.2	-33.8	3.8	1.51e+00	0	57	104	0	11	17786
2026-01-17 09:10:06.76	133.60	9.29	-20.3	-35.0	3.6	1.50e+00	0	57	104	0	10	21750
2026-01-17 09:10:10.80	133.38	9.61	-21.5	-36.7	3.2	1.49e+00	0	58	104	0	11	24859
2026-01-17 09:10:14.84	133.16	9.95	-14.3	-29.7	3.8	1.50e+00	0	58	104	0	5	15667
2026-01-17 09:10:18.88	132.93	10.28	-19.4	-36.4	3.4	1.50e+00	0	58	104	0	16	17997
2026-01-17 09:10:22.92	132.69	10.62	-23.0	-38.2	3.4	1.51e+00	0	58	104	0	13	26256
2026-01-17 09:10:26.96	132.45	10.97	-20.9	-38.5	3.7	1.50e+00	0	58	104	0	18	20404
2026-01-17 09:10:31.00	132.20	11.32	-13.0	-36.6	3.5	1.50e+00	0	58	104	0	15	19581
2026-01-17 09:10:35.05	131.95	11.67	-34.5	-48.6	3.5	1.50e+00	0	58	0	0	33	27467
2026-01-17 09:10:39.09	131.69	12.03	-12.5	-27.8	3.6	1.50e+00	0	58	104	0	0	16713
2026-01-17 09:10:43.13	131.42	12.40	-31.1	-46.4	4.7	1.51e+00	0	58	104	0	30	25286
2026-01-17 09:10:47.17	131.15	12.76	-19.7	-35.3	3.6	1.50e+00	0	58	104	0	12	19921
2026-01-17 09:10:51.20	130.87	13.14	-22.9	-36.1	3.7	1.50e+00	0	59	104	0	29	8253
2026-01-17 09:10:55.23	130.58	13.51	-28.7	-42.4	4.9	1.39e+00	0	58	104	0	24	22673
2026-01-17 09:10:59.27	130.29	13.90	-31.4	-43.7	5.0	1.37e+00	0	59	104	0	37	12393
2026-01-17 09:11:03.31	129.98	14.29	-32.1	-43.7	7.3	6.87e-01	76	59	0	1048576	41	9940
2026-01-17 09:11:07.35	129.67	14.68	-34.6	-46.1	7.2	3.67e-01	44	59	0	3145728	43	11550
2026-01-17 09:11:11.39	129.35	15.08	-28.5	-40.7	4.3	2.68e-01	2	59	0	6291456	41	6980
2026-01-17 09:11:15.43	129.02	15.49	-41.2	-46.2	9.6	8.33e-02	3	59	0	11534336	52	7005
2026-01-17 09:11:19.47	128.68	15.90	-41.4	-46.4	8.1	7.08e-02	0	59	0	18874368	45	10717
2026-01-17 09:11:23.51	128.33	16.32	-41.9	-46.2	11.6	2.73e-03	0	59	0	26214400	54	6208
2026-01-17 09:11:27.55	127.97	16.74	-42.0	-46.2	11.6	2.41e-03	0	59	0	33554432	54	6255
2026-01-17 09:11:31.58	127.60	17.17	-42.1	-46.4	11.5	9.02e-04	0	59	0	41943040	54	6411
2026-01-17 09:11:35.63	127.22	17.61	-41.8	-46.3	11.6	1.89e-03	0	59	0	49283072	54	6312
2026-01-17 09:11:39.67	126.82	18.05	-42.1	-47.0	10.9	8.60e-03	0	59	0	56623104	55	6436
2026-01-17 09:11:43.70	126.42	18.50	-42.1	-46.3	11.8	6.96e-04	0	59	0	63963136	55	5938
2026-01-17 09:11:47.74	126.00	18.95	-42.2	-46.5	11.5	6.72e-04	0	59	0	72351744	55	6119
2026-01-17 09:11:51.78	125.57	19.42	-42.2	-46.4	11.8	5.93e-04	0	59	0	79691776	55	6004
2026-01-17 09:11:55.82	125.13	19.89	-42.3	-46.6	11.6	6.96e-04	0	59	0	87031808	55	6132
2026-01-17 09:11:59.86	124.67	20.36	-42.3	-46.6	11.6	5.97e-04	0	60	0	94371840	55	6134
2026-01-17 09:12:03.89	124.20	20.85	-42.3	-46.5	11.7	6.45e-04	0	60	0	101711872	55	6105
2026-01-17 09:12:07.93	123.71	21.34	-42.2	-46.2	12.1	3.36e-04	0	60	0	110100480	55	5865
2026-01-17 09:12:11.97	123.21	21.84	-42.4	-46.6	11.6	6.32e-04	0	60	0	117440512	55	6163
2026-01-17 09:12:16.00	122.69	22.34	-42.3	-46.4	11.9	3.39e-04	0	60	0	124780544	55	6040
2026-01-17 09:12:20.04	122.15	22.86	-42.4	-46.6	11.6	6.45e-04	0	60	0	132120576	55	6177
2026-01-17 09:12:24.08	121.59	23.38	-42.3	-46.5	11.8	5.04e-04	0	60	0	140509184	55	6100
2026-01-17 09:12:28.12	121.01	23.91	-42.4	-46.6	11.7	6.20e-04	0	60	0	147849216	55	6157
2026-01-17 09:12:32.15	120.42	24.44	-42.5	-46.8	11.5	6.79e-04	0	60	0	155189248	55	6287
2026-01-17 09:12:36.19	119.80	24.99	-42.4	-46.6	11.7	6.12e-04	0	60	0	162529280	55	6185
2026-01-17 09:12:40.24	119.16	25.54	-42.5	-46.7	11.6	6.38e-04	0	60	0	169869312	55	6228
2026-01-17 09:12:44.28	118.49	26.10	-42.6	-46.9	11.4	9.10e-04	0	60	0	178257920	55	6393
2026-01-17 09:12:48.32	117.81	26.66	-42.5	-46.7	11.6	6.40e-04	0	60	0	185597952	55	6272
2026-01-17 09:12:52.35	117.09	27.24	-42.6	-47.0	11.3	1.13e-03	0	60	0	192937984	55	6452
2026-01-17 09:12:56.39	116.35	27.82	-42.9	-47.4	11.1	1.53e-03	0	60	0	200278016	56	6393
2026-01-17 09:13:00.43	115.59	28.41	-43.1	-47.9	10.7	2.31e-03	0	60	0	208666624	56	6725
2026-01-17 09:13:04.47	114.79	29.00	-43.4	-48.7	9.8	7.29e-03	0	60	0	216006656	57	6976
2026-01-17 09:13:08.51	113.96	29.60	-43.6	-49.4	9.1	1.91e-02	0	60	0	223346688	57	7566
2026-01-17 09:13:12.55	113.10	30.21	-44.0	-50.7	7.8	6.07e-02	0	60	0	230686720	58	8280
2026-01-17 09:13:16.58	112.22	30.82	-44.0	-50.6	7.9	7.96e-02	0	60	0	238026752	58	8207
2026-01-17 09:13:20.62	111.29	31.43	-44.0	-50.5	7.9	7.95e-02	0	60	0	246415360	58	8174
2026-01-17 09:13:24.65	110.33	32.05	-44.0	-50.5	8.0	6.61e-02	0	60	0	253755392	58	8160
2026-01-17 09:13:28.69	109.33	32.68	-43.9	-50.2	8.3	5.71e-02	0	60	0	261095424	58	7849
2026-01-17 09:13:32.73	108.29	33.30	-43.9	-50.2	8.3	5.20e-02	0	60	0	268435456	58	7844
2026-01-17 09:13:36.77	107.20	33.93	-43.8	-49.7	8.8	2.91e-02	0	60	0	276824064	58	7397
2026-01-17 09:13:40.81	106.08	34.56	-43.4	-48.5	10.0	8.73e-03	0	60	0	284164096	58	6475
2026-01-17 09:13:44.84	104.91	35.19	-43.3	-48.1	10.5	3.93e-03	0	60	0	291504128	58	6158
2026-01-17 09:13:48.88	103.70	35.82	-43.1	-47.8	10.8	2.41e-03	0	60	0	298844160	58	5938
2026-01-17 09:13:52.92	102.44	36.44	-43.3	-48.1	10.6	3.21e-03	0	60	0	306184192	58	6147
2026-01-17 09:13:56.97	101.12	37.06	-43.3	-48.2	10.5	4.29e-03	0	60	0	314572800	58	6206
2026-01-17 09:14:01.01	99.76	37.67	-43.4	-48.4	10.2	5.33e-03	0	61	0	321912832	58	6373
2026-01-17 09:14:05.05	98.34	38.28	-43.3	-48.0	10.6	3.87e-03	0	61	0	329252864	58	6104
2026-01-17 09:14:09.09	96.88	38.87	-43.5	-48.8	9.9	8.02e-03	0	61	0	336592896	58	6657
2026-01-17 09:14:13.13	95.35	39.46	-43.4	-48.5	10.2	5.55e-03	0	60	0	344981504	58	6428
2026-01-17 09:14:17.16	93.78	40.02	-43.2	-47.8	10.9	2.44e-03	0	61	0	352321536	58	5935
2026-01-17 09:14:21.20	92.15	40.57	-42.9	-47.2	11.6	8.14e-04	0	60	0	359661568	57	5872
2026-01-17 09:14:25.23	90.46	41.10	-42.7	-46.7	12.1	3.70e-04	0	61	0	367001600	57	5567
2026-01-17 09:14:29.27	88.72	41.62	-42.5	-46.4	12.4	1.23e-04	0	60	0	374341632	56	5684
2026-01-17 09:14:33.31	86.92	42.10	-42.7	-46.8	12.0	2.26e-04	0	61	0	382730240	56	5934
2026-01-17 09:14:37.35	85.07	42.56	-43.0	-47.4	11.4	1.02e-03	0	60	0	390070272	56	6348
2026-01-17 09:14:41.38	83.17	42.99	-42.7	-46.7	12.1	3.58e-04	0	60	0	397410304	56	5920
2026-01-17 09:14:45.42	81.22	43.39	-42.8	-47.0	11.8	3.08e-04	0	60	0	404750336	56	6087
2026-01-17 09:14:49.46	79.22	43.75	-42.7	-46.7	12.2	2.61e-04	0	60	0	413138944	56	5875
2026-01-17 09:14:53.50	77.17	44.08	-42.6	-46.5	12.3	1.91e-04	0	60	0	420478976	56	5764
2026-01-17 09:14:57.54	75.09	44.37	-43.1	-47.5	11.3	9.32e-04	0	61	0	427819008	56	6436
2026-01-17 09:15:01.57	72.97	44.61	-43.1	-47.5	11.4	1.22e-03	0	61	0	435159040	56	6443
2026-01-17 09:15:05.62	70.82	44.82	-43.3	-48.0	10.8	2.37e-03	0	61	0	442499072	57	6421
2026-01-17 09:15:09.65	68.65	44.98	-43.4	-48.2	10.7	2.97e-03	0	61	0	450887680	57	6614
2026-01-17 09:15:13.69	66.46	45.09	-43.4	-48.1	10.7	2.83e-03	0	60	0	458227712	57	6534
2026-01-17 09:15:17.73	64.25	45.16	-43.4	-48.3	10.5	3.73e-03	0	61	0	465567744	57	6672
2026-01-17 09:15:21.77	62.04	45.17	-43.5	-48.5	10.2	4.68e-03	0	61	0	472907776	57	6846
2026-01-17 09:15:25.80	59.84	45.15	-43.9	-49.5	9.3	1.34e-02	0	61	0	481296384	58	7242
2026-01-17 09:15:29.85	57.63	45.07	-43.9	-49.4	9.4	1.67e-02	0	60	0	488636416	58	7152
2026-01-17 09:15:33.88	55.45	44.95	-44.1	-50.1	8.5	3.48e-02	0	61	0	495976448	58	7746
2026-01-17 09:15:37.93	53.27	44.78	-44.0	-49.7	9.0	2.55e-02	0	61	0	503316480	58	7426
2026-01-17 09:15:41.96	51.14	44.57	-43.9	-49.6	9.1	3.25e-02	0	61	0	510656512	58	7335
2026-01-17 09:15:46.00	49.03	44.32	-43.7	-48.9	9.8	1.15e-02	0	61	0	519045120	58	6731
2026-01-17 09:15:50.03	46.96	44.02	-43.3	-47.9	10.9	2.36e-03	0	61	0	526385152	58	6033
2026-01-17 09:15:54.07	44.93	43.69	-42.8	-46.8	12.1	4.20e-04	0	61	0	533725184	57	5600
2026-01-17 09:15:58.11	42.94	43.32	-42.6	-46.3	12.4	1.79e-04	0	61	0	541065216	57	5327
2026-01-17 09:16:02.15	41.00	42.92	-42.2	-45.7	13.1	4.80e-05	0	61	0	549453824	56	5274
2026-01-17 09:16:06.19	39.11	42.48	-41.6	-44.7	13.9	3.00e-06	0	61	0	556793856	55	4983
2026-01-17 09:16:10.22	37.27	42.02	-41.2	-44.0	14.7	7.00e-07	0	61	0	564133888	54	4844
2026-01-17 09:16:14.26	35.49	41.53	-41.3	-44.2	14.5	0.00e+00	0	61	0	571473920	54	4928
2026-01-17 09:16:18.30	33.76	41.02	-41.4	-44.3	14.3	7.00e-07	0	61	0	578813952	54	5024
2026-01-17 09:16:22.34	32.08	40.49	-41.3	-44.2	14.4	1.50e-06	0	61	0	587202560	54	4949
2026-01-17 09:16:26.38	30.47	39.93	-41.3	-44.2	14.4	7.00e-07	0	60	0	594542592	54	4967
2026-01-17 09:16:30.42	28.90	39.36	-41.6	-44.7	13.8	2.20e-06	0	61	0	601882624	54	5267
2026-01-17 09:16:34.45	27.40	38.78	-41.7	-44.9	13.6	3.80e-06	0	61	0	609222656	54	5384
2026-01-17 09:16:38.49	25.95	38.19	-42.1	-45.7	12.9	6.02e-05	0	61	0	617611264	54	5901
2026-01-17 09:16:42.53	24.55	37.59	-42.1	-45.7	12.8	5.64e-05	0	61	0	624951296	55	5581
2026-01-17 09:16:46.57	23.20	36.97	-42.3	-46.0	12.5	9.30e-05	0	61	0	632291328	55	5784
2026-01-17 09:16:50.61	21.90	36.36	-42.9	-47.2	11.5	7.85e-04	0	61	0	639631360	56	6203
2026-01-17 09:16:54.65	20.65	35.74	-43.0	-47.5	11.1	1.28e-03	0	61	0	646971392	56	6444
2026-01-17 09:16:58.69	19.45	35.11	-43.4	-48.6	9.9	7.08e-03	0	61	0	655360000	57	6882
2026-01-17 09:17:02.71	18.30	34.49	-43.6	-48.9	9.6	1.25e-02	0	61	0	662700032	57	7157
2026-01-17 09:17:06.75	17.18	33.86	-43.9	-49.8	8.6	3.78e-02	0	61	0	670040064	58	7475
2026-01-17 09:17:10.78	16.12	33.24	-44.1	-50.5	7.9	7.07e-02	0	61	0	677380096	58	8165
2026-01-17 09:17:14.82	15.09	32.62	-43.8	-49.8	8.6	4.52e-02	0	61	0	684720128	58	7461
2026-01-17 09:17:18.85	14.10	32.00	-43.9	-49.9	8.6	4.51e-02	0	61	0	693108736	58	7558
2026-01-17 09:17:22.89	13.15	31.38	-43.7	-49.3	9.1	2.70e-02	0	61	0	700448768	58	7054
2026-01-17 09:17:26.93	12.23	30.77	-43.5	-48.8	9.6	1.29e-02	0	61	0	707788800	58	6667
2026-01-17 09:17:30.96	11.35	30.16	-43.4	-48.5	9.9	9.55e-03	0	61	0	715128832	58	6474
2026-01-17 09:17:35.00	10.50	29.56	-43.4	-48.7	9.7	1.57e-02	0	61	0	723517440	58	6622
2026-01-17 09:17:39.04	9.68	28.96	-43.4	-48.5	9.9	9.43e-03	0	61	0	730857472	58	6459
2026-01-17 09:17:43.08	8.90	28.37	-43.4	-48.5	9.8	9.28e-03	0	61	0	738197504	58	6475
2026-01-17 09:17:47.12	8.14	27.79	-43.3	-48.3	10.1	6.61e-03	0	61	0	745537536	58	6289
2026-01-17 09:17:51.16	7.41	27.21	-43.4	-48.8	9.5	9.87e-03	0	61	0	752877568	58	6675
2026-01-17 09:17:55.20	6.70	26.64	-43.3	-48.4	9.9	8.27e-03	0	61	0	761266176	58	6376
2026-01-17 09:17:59.24	6.02	26.08	-43.1	-47.9	10.4	4.44e-03	0	61	0	768606208	58	6010
2026-01-17 09:18:03.27	5.37	25.52	-43.1	-47.9	10.4	4.84e-03	0	61	0	775946240	58	6029
2026-01-17 09:18:07.32	4.73	24.97	-43.1	-48.1	10.2	6.12e-03	0	61	0	783286272	58	6137
2026-01-17 09:18:11.35	4.12	24.43	-43.0	-47.9	10.3	4.87e-03	0	61	0	791674880	58	6034
2026-01-17 09:18:15.39	3.53	23.90	-42.9	-47.5	10.7	3.54e-03	0	61	0	799014912	57	6117
2026-01-17 09:18:19.43	2.96	23.38	-42.7	-47.3	10.9	2.68e-03	0	61	0	806354944	57	5978
2026-01-17 09:18:23.47	2.41	22.86	-42.8	-47.5	10.7	3.33e-03	0	61	0	813694976	57	6084
2026-01-17 09:18:27.51	1.88	22.35	-42.7	-47.5	10.7	3.33e-03	0	61	0	821035008	57	6090
2026-01-17 09:18:31.55	1.36	21.84	-42.7	-47.3	10.8	2.85e-03	0	61	0	829423616	57	5955
2026-01-17 09:18:35.59	0.87	21.35	-42.7	-47.6	10.4	3.67e-03	0	61	0	836763648	57	6172
2026-01-17 09:18:39.63	0.38	20.86	-42.7	-47.6	10.4	4.87e-03	0	61	0	844103680	57	6132
2026-01-17 09:18:43.66	359.92	20.38	-42.7	-47.6	10.2	5.14e-03	0	61	0	851443712	57	6162
2026-01-17 09:18:47.70	359.47	19.91	-42.6	-47.5	10.2	6.20e-03	0	61	0	859832320	57	6126
2026-01-17 09:18:51.74	359.03	19.44	-42.1	-47.5	10.0	8.02e-03	0	60	0	867172352	56	6489
2026-01-17 09:18:55.78	358.60	18.98	-42.3	-47.7	9.5	1.15e-02	0	61	0	874512384	56	6623
2026-01-17 09:18:59.82	358.19	18.53	-42.2	-47.3	9.7	9.88e-03	0	61	0	881852416	56	6331
2026-01-17 09:19:03.85	357.79	18.08	-42.2	-47.7	9.1	2.32e-02	0	61	0	889192448	56	6614
2026-01-17 09:19:07.89	357.41	17.64	-41.8	-47.5	9.0	2.39e-02	0	61	0	897581056	55	6815
2026-01-17 09:19:11.93	357.03	17.21	-41.7	-47.7	8.5	4.21e-02	0	61	0	904921088	55	7028
2026-01-17 09:19:15.97	356.67	16.78	-41.5	-47.8	8.1	5.05e-02	0	61	0	912261120	54	7528
2026-01-17 09:19:20.01	356.31	16.36	-41.5	-49.3	6.4	2.09e-01	0	61	0	919601152	54	8924
2026-01-17 09:19:24.05	355.97	15.95	-41.5	-51.6	4.7	8.13e-01	0	61	0	927989760	54	11664
2026-01-17 09:19:28.08	355.63	15.54	-41.3	-54.1	3.8	1.48e+00	0	61	104	929038336	54	15478
2026-01-17 09:19:32.12	355.31	15.14	-41.1	-55.3	3.8	1.49e+00	0	61	104	929038336	54	17704
2026-01-17 09:19:36.16	354.99	14.74	-40.8	-55.5	3.8	1.49e+00	0	61	104	929038336	53	19386
2026-01-17 09:19:40.19	354.69	14.35	-40.7	-55.5	3.8	1.49e+00	0	61	104	929038336	53	19233
2026-01-17 09:19:44.23	354.39	13.96	-40.7	-55.4	3.8	1.49e+00	0	61	104	929038336	53	19040
2026-01-17 09:19:48.28	354.10	13.58	-40.5	-55.2	3.8	1.49e+00	0	61	104	929038336	53	18633
2026-01-17 09:19:52.31	353.81	13.20	-40.6	-55.3	3.8	1.49e+00	0	61	104	929038336	53	18850
2026-01-17 09:19:56.35	353.54	12.83	-40.4	-55.1	3.8	1.49e+00	0	61	104	929038336	52	19576
2026-01-17 09:20:00.38	353.27	12.47	-40.6	-55.2	3.8	1.49e+00	0	61	104	929038336	52	19767
2026-01-17 09:20:04.42	353.01	12.10	-40.5	-55.3	3.8	1.49e+00	0	61	104	929038336	52	19842
2026-01-17 09:20:08.46	352.75	11.75	-40.6	-55.3	3.8	1.49e+00	0	61	104	929038336	52	20007
2026-01-17 09:20:12.50	352.50	11.40	-40.6	-55.3	3.8	1.49e+00	0	61	104	929038336	52	19985
2026-01-17 09:20:16.54	352.26	11.05	-40.6	-55.3	3.8	1.49e+00	0	61	104	929038336	52	19914
2026-01-17 09:20:20.58	352.03	10.70	-40.4	-55.2	3.8	1.49e+00	0	61	104	929038336	52	19725
2026-01-17 09:20:24.62	351.79	10.37	-40.3	-55.2	3.8	1.49e+00	0	61	104	929038336	52	19734
2026-01-17 09:20:28.66	351.57	10.03	-40.2	-55.1	3.8	1.49e+00	0	61	104	929038336	52	19502
2026-01-17 09:20:32.70	351.35	9.70	-40.4	-55.2	3.8	1.49e+00	0	61	104	929038336	52	19779
2026-01-17 09:20:36.73	351.14	9.37	-40.3	-55.2	3.8	1.49e+00	0	61	104	929038336	52	19723
2026-01-17 09:20:40.78	350.93	9.05	-40.6	-55.2	3.8	1.49e+00	0	61	104	929038336	52	19664
2026-01-17 09:20:44.81	350.72	8.73	-40.7	-55.4	3.8	1.49e+00	0	61	104	929038336	52	20173
2026-01-17 09:20:48.85	350.52	8.41	-40.7	-55.3	3.8	1.49e+00	0	61	104	929038336	52	19986
2026-01-17 09:20:52.89	350.33	8.10	-40.6	-55.3	3.8	1.49e+00	0	61	104	929038336	52	19980
2026-01-17 09:20:56.94	350.14	7.79	-42.0	-56.6	3.8	1.49e+00	0	61	104	929038336	54	20670
2026-01-17 09:21:00.98	349.95	7.49	-45.3	-59.9	3.8	1.49e+00	0	61	104	929038336	61	20123
2026-01-17 09:21:05.03	349.77	7.19	-45.4	-60.0	3.8	1.49e+00	0	61	104	929038336	61	20400
2026-01-17 09:21:09.07	349.59	6.89	-45.3	-59.9	3.8	1.49e+00	0	61	104	929038336	61	20119
2026-01-17 09:21:13.11	349.42	6.59	-45.3	-59.8	3.8	1.49e+00	0	61	104	929038336	61	19934
2026-01-17 09:21:17.16	349.25	6.30	-45.3	-59.8	3.8	1.49e+00	0	61	104	929038336	61	19937
2026-01-17 09:21:21.20	349.08	6.01	-45.3	-59.8	3.8	1.49e+00	0	61	104	929038336	61	19888
2026-01-17 09:21:25.24	348.92	5.72	-45.2	-59.8	3.8	1.49e+00	0	61	104	929038336	61	19866
2026-01-17 09:21:29.28	348.76	5.44	-45.2	-59.7	3.8	1.49e+00	0	61	104	929038336	61	19810
2026-01-17 09:21:33.33	348.60	5.16	-45.2	-59.7	3.8	1.49e+00	0	61	104	929038336	61	19791
2026-01-17 09:21:37.37	348.45	4.88	-45.2	-59.7	3.8	1.49e+00	0	61	104	929038336	61	19779
2026-01-17 09:21:41.42	348.30	4.60	-45.2	-59.7	3.8	1.49e+00	0	61	104	929038336	61	19837
2026-01-17 09:21:45.46	348.15	4.33	-45.2	-59.7	3.8	1.49e+00	0	61	104	929038336	61	19815
2026-01-17 09:21:49.50	348.01	4.06	-45.2	-59.7	3.8	1.49e+00	0	61	104	929038336	61	19806
2026-01-17 09:21:53.55	347.87	3.79	-45.2	-59.8	3.8	1.49e+00	0	61	104	929038336	61	19842
2026-01-17 09:21:57.59	347.73	3.52	-45.2	-59.7	3.8	1.49e+00	0	61	104	929038336	61	19796
2026-01-17 09:22:01.63	347.59	3.26	-45.2	-59.7	3.8	1.49e+00	0	61	104	929038336	61	19755
2026-01-17 09:22:05.68	347.46	3.00	-45.2	-59.7	3.8	1.49e+00	0	61	104	929038336	61	19796
2026-01-17 09:22:09.72	347.33	2.74	-45.2	-59.7	3.8	1.49e+00	0	61	104	929038336	61	19815
2026-01-17 09:22:13.76	347.21	2.49	-45.2	-59.7	3.8	1.49e+00	0	61	104	929038336	61	19705
2026-01-17 09:22:17.81	347.08	2.23	-45.2	-59.7	3.8	1.49e+00	0	61	104	929038336	61	19759
2026-01-17 09:22:21.85	346.96	1.98	-45.2	-59.7	3.8	1.49e+00	0	61	104	929038336	61	19776

#Closed at: 2026-01-17 09:22:22
#Recorded file [929 MB]: D:/lorett/data/31039_260117_120825.dat