passes_logs/2026/01/17/R2.0S_Moscow/R2.0S_Moscow__20260117_223805_SUOMI_NPP_rec.log

#Pass ID: 20260117_223805_SUOMI NPP
#Satellite: SUOMI NPP
#Configuration: NPP
#almurnet v.1.7.20251203
#Start time: 2026-01-17 22:38:05

#Version: 2.2.20231116
#Station: R2.0S_Moscow
#Location: 37.707566 lon 55.798166 lat
#TLE: 1 37849U 11061A   26017.28905266  .00000074  00000+0  55894-4 0  9999
#TLE: 2 37849  98.7814 319.3179 0002408  59.7048 300.4366 14.19525847737038

#Time	Az	El	Level	Level2	SNR	BER	BlckErr	Temp	State	Recorded	gain1	gain2
2026-01-17 22:38:05.91	22.36	2.03	-42.5	-57.4	3.8	1.49e+00	0	51	0	0	56	20094
2026-01-17 22:38:09.96	22.58	2.27	-42.3	-57.1	3.8	1.49e+00	0	52	104	0	55	20774
2026-01-17 22:38:14.01	22.80	2.51	-42.3	-57.1	3.8	1.49e+00	0	52	104	0	55	20740
2026-01-17 22:38:18.05	23.03	2.75	-42.3	-57.2	3.8	1.49e+00	0	52	104	0	55	20777
2026-01-17 22:38:22.09	23.26	3.00	-42.3	-57.2	3.8	1.49e+00	0	53	104	0	55	20818
2026-01-17 22:38:26.14	23.49	3.24	-42.3	-57.2	3.8	1.49e+00	0	53	104	0	55	20804
2026-01-17 22:38:30.18	23.73	3.49	-42.3	-57.2	3.8	1.49e+00	0	53	104	0	55	20779
2026-01-17 22:38:34.23	23.97	3.74	-42.3	-57.2	3.8	1.49e+00	0	53	104	0	55	20779
2026-01-17 22:38:38.27	24.22	3.99	-42.3	-57.1	3.8	1.49e+00	0	54	104	0	55	20770
2026-01-17 22:38:42.31	24.46	4.24	-42.3	-57.1	3.8	1.49e+00	0	54	104	0	55	20776
2026-01-17 22:38:46.35	24.72	4.50	-42.3	-57.2	3.8	1.49e+00	0	54	104	0	55	20789
2026-01-17 22:38:50.40	24.97	4.75	-42.3	-57.1	3.8	1.49e+00	0	54	104	0	55	20665
2026-01-17 22:38:54.44	25.23	5.01	-42.3	-57.1	3.8	1.49e+00	0	55	104	0	55	20746
2026-01-17 22:38:58.49	25.50	5.27	-42.3	-57.2	3.8	1.49e+00	0	55	104	0	55	20801
2026-01-17 22:39:02.53	25.77	5.53	-42.3	-57.1	3.8	1.49e+00	0	55	104	0	55	20697
2026-01-17 22:39:06.58	26.04	5.80	-42.3	-57.1	3.8	1.49e+00	0	55	104	0	55	20700
2026-01-17 22:39:10.62	26.32	6.07	-42.3	-57.0	3.8	1.49e+00	0	55	104	0	55	20525
2026-01-17 22:39:14.66	26.60	6.34	-42.3	-57.0	3.8	1.49e+00	0	55	104	0	55	20498
2026-01-17 22:39:18.71	26.89	6.61	-42.3	-57.1	3.8	1.49e+00	0	56	104	0	55	20569
2026-01-17 22:39:22.75	27.18	6.88	-42.3	-56.7	3.8	1.49e+00	0	56	104	0	55	19816
2026-01-17 22:39:26.79	27.48	7.16	-42.2	-56.1	3.8	1.49e+00	0	56	104	0	55	18455
2026-01-17 22:39:30.84	27.79	7.44	-41.8	-51.4	5.1	6.82e-01	0	56	0	3145728	55	10700
2026-01-17 22:39:34.88	28.10	7.72	-41.3	-48.5	7.3	1.56e-01	0	56	0	10485760	54	8170
2026-01-17 22:39:38.92	28.41	8.00	-41.2	-47.9	8.0	6.26e-02	0	56	0	18874368	54	7544
2026-01-17 22:39:42.96	28.73	8.29	-42.5	-51.3	5.7	1.50e-01	0	57	0	23068672	55	10614
2026-01-17 22:39:47.00	29.06	8.58	-41.4	-47.1	9.3	2.25e-02	0	57	0	30408704	54	6893
2026-01-17 22:39:51.04	29.39	8.87	-41.4	-47.0	9.5	9.94e-03	0	57	0	37748736	54	6826
2026-01-17 22:39:55.07	29.73	9.16	-41.4	-46.9	9.7	9.00e-03	0	57	0	46137344	54	6786
2026-01-17 22:39:59.11	30.08	9.46	-41.5	-46.9	9.9	7.94e-03	0	57	0	53477376	54	6744
2026-01-17 22:40:03.15	30.43	9.76	-41.7	-46.9	10.0	6.49e-03	0	57	0	60817408	54	6798
2026-01-17 22:40:07.19	30.79	10.06	-41.6	-46.4	10.6	4.43e-03	0	57	0	68157440	54	6379
2026-01-17 22:40:11.23	31.16	10.36	-41.4	-45.9	11.2	1.95e-03	0	57	0	75497472	54	6045
2026-01-17 22:40:15.27	31.53	10.67	-41.4	-45.8	11.4	1.16e-03	0	57	0	83886080	54	5953
2026-01-17 22:40:19.30	31.91	10.98	-41.5	-45.8	11.5	9.90e-04	0	58	0	91226112	54	5942
2026-01-17 22:40:23.34	32.30	11.29	-41.6	-46.0	11.2	1.27e-03	0	58	0	98566144	54	6124
2026-01-17 22:40:27.38	32.70	11.61	-41.7	-46.1	11.2	1.50e-03	0	58	0	105906176	54	6189
2026-01-17 22:40:31.42	33.10	11.93	-41.8	-46.3	11.1	1.79e-03	0	58	0	114294784	54	6282
2026-01-17 22:40:35.46	33.52	12.25	-41.8	-46.4	11.0	2.06e-03	0	58	0	121634816	54	6368
2026-01-17 22:40:39.50	33.94	12.57	-41.6	-45.9	11.6	7.34e-04	0	58	0	128974848	54	6007
2026-01-17 22:40:43.53	34.37	12.90	-41.7	-45.8	11.7	5.99e-04	0	58	0	136314880	54	5984
2026-01-17 22:40:47.58	34.82	13.23	-41.8	-46.0	11.4	9.56e-04	0	58	0	143654912	54	6129
2026-01-17 22:40:51.60	35.27	13.56	-41.8	-46.2	11.3	1.37e-03	0	58	0	152043520	54	6251
2026-01-17 22:40:55.64	35.73	13.90	-41.9	-46.2	11.3	1.26e-03	0	58	0	159383552	54	6274
2026-01-17 22:40:59.68	36.20	14.24	-42.0	-46.5	11.1	1.04e-03	0	58	0	166723584	54	6433
2026-01-17 22:41:03.72	36.68	14.58	-42.0	-46.4	11.2	1.22e-03	0	59	0	174063616	54	6382
2026-01-17 22:41:07.76	37.17	14.93	-42.0	-46.5	11.1	1.67e-03	0	59	0	182452224	54	6464
2026-01-17 22:41:11.79	37.68	15.28	-42.2	-46.8	10.9	1.84e-03	0	59	0	189792256	54	6655
2026-01-17 22:41:15.83	38.19	15.63	-42.1	-46.7	10.9	2.23e-03	0	59	0	197132288	55	6240
2026-01-17 22:41:19.86	38.72	15.99	-42.0	-46.4	11.3	1.20e-03	0	59	0	204472320	55	6053
2026-01-17 22:41:23.90	39.26	16.34	-41.9	-46.1	11.6	6.37e-04	0	59	0	211812352	55	5836
2026-01-17 22:41:27.94	39.81	16.70	-41.8	-45.7	12.1	3.26e-04	0	59	0	220200960	55	5566
2026-01-17 22:41:31.98	40.37	17.07	-41.8	-45.7	12.0	2.78e-04	0	59	0	227540992	55	5585
2026-01-17 22:41:36.02	40.95	17.44	-41.8	-45.7	12.2	2.14e-04	0	59	0	234881024	55	5560
2026-01-17 22:41:40.05	41.54	17.80	-41.8	-45.7	12.2	2.99e-04	0	59	0	242221056	55	5541
2026-01-17 22:41:44.09	42.15	18.18	-41.7	-45.6	12.3	1.88e-04	0	59	0	249561088	55	5497
2026-01-17 22:41:48.13	42.77	18.55	-41.8	-45.7	12.2	2.09e-04	0	59	0	257949696	55	5580
2026-01-17 22:41:52.16	43.41	18.93	-41.8	-45.7	12.2	1.52e-04	0	59	0	265289728	55	5565
2026-01-17 22:41:56.20	44.06	19.31	-41.7	-45.4	12.5	7.55e-05	0	59	0	272629760	55	5360
2026-01-17 22:42:00.24	44.73	19.69	-41.5	-45.1	12.8	6.79e-05	0	59	0	279969792	54	5495
2026-01-17 22:42:04.28	45.41	20.07	-41.6	-45.2	12.8	4.50e-05	0	59	0	288358400	54	5549
2026-01-17 22:42:08.32	46.11	20.46	-41.5	-45.1	12.9	3.12e-05	0	59	0	295698432	54	5478
2026-01-17 22:42:12.35	46.83	20.84	-41.4	-44.8	13.2	3.35e-05	0	59	0	303038464	54	5333
2026-01-17 22:42:16.39	47.57	21.23	-41.3	-44.6	13.4	1.60e-05	0	59	0	310378496	54	5217
2026-01-17 22:42:20.43	48.32	21.62	-41.3	-44.7	13.4	1.06e-05	0	59	0	317718528	54	5240
2026-01-17 22:42:24.47	49.10	22.01	-41.5	-45.0	13.0	5.95e-05	0	59	0	326107136	54	5438
2026-01-17 22:42:28.50	49.89	22.41	-42.0	-45.9	12.2	1.77e-04	0	59	0	333447168	54	6009
2026-01-17 22:42:32.54	50.70	22.80	-41.9	-45.8	12.2	2.50e-04	0	60	0	340787200	54	5971
2026-01-17 22:42:36.58	51.54	23.19	-41.8	-45.5	12.6	9.46e-05	0	59	0	348127232	54	5747
2026-01-17 22:42:40.62	52.39	23.58	-41.6	-45.1	12.9	5.34e-05	0	59	0	356515840	54	5525
2026-01-17 22:42:44.66	53.27	23.97	-41.6	-45.1	13.0	3.81e-05	0	59	0	363855872	54	5506
2026-01-17 22:42:48.69	54.16	24.36	-41.4	-44.8	13.3	2.44e-05	0	59	0	371195904	54	5322
2026-01-17 22:42:52.73	55.08	24.75	-41.3	-44.6	13.4	1.60e-05	0	60	0	378535936	54	5206
2026-01-17 22:42:56.77	56.02	25.14	-41.8	-45.4	12.7	4.88e-05	0	60	0	385875968	54	5700
2026-01-17 22:43:00.81	56.99	25.52	-41.9	-45.8	12.2	2.10e-04	0	60	0	394264576	54	5970
2026-01-17 22:43:04.85	57.97	25.90	-41.6	-45.1	12.9	3.43e-05	0	60	0	401604608	54	5524
2026-01-17 22:43:08.88	58.98	26.28	-41.6	-45.1	13.1	2.89e-05	0	60	0	408944640	54	5472
2026-01-17 22:43:12.92	60.02	26.66	-41.8	-45.5	12.6	5.95e-05	0	60	0	416284672	54	5751
2026-01-17 22:43:16.96	61.08	27.02	-41.5	-44.9	13.2	4.11e-05	0	60	0	424673280	54	5370
2026-01-17 22:43:21.00	62.16	27.39	-42.0	-45.7	12.4	1.42e-04	0	60	0	432013312	54	5912
2026-01-17 22:43:25.04	63.27	27.74	-42.1	-46.0	12.2	2.17e-04	0	60	0	439353344	54	6066
2026-01-17 22:43:29.08	64.40	28.09	-41.8	-45.4	12.9	4.80e-05	0	60	0	446693376	54	5660
2026-01-17 22:43:33.12	65.56	28.44	-41.9	-45.6	12.6	6.33e-05	0	60	0	454033408	54	5789
2026-01-17 22:43:37.15	66.73	28.77	-42.2	-46.2	12.0	1.75e-04	0	60	0	462422016	54	6242
2026-01-17 22:43:41.19	67.94	29.09	-42.3	-46.4	11.7	7.17e-04	0	60	0	469762048	55	6043
2026-01-17 22:43:45.23	69.17	29.41	-42.6	-47.1	11.1	1.40e-03	0	60	0	477102080	55	6556
2026-01-17 22:43:49.26	70.42	29.71	-42.7	-47.0	11.4	1.08e-03	0	60	0	484442112	56	6064
2026-01-17 22:43:53.30	71.69	30.00	-43.0	-47.8	10.5	3.14e-03	0	60	0	491782144	56	6714
2026-01-17 22:43:57.34	72.99	30.28	-43.7	-49.7	8.5	3.23e-02	0	60	0	500170752	57	7834
2026-01-17 22:44:01.38	74.31	30.55	-43.3	-48.4	10.0	1.02e-02	0	60	0	507510784	58	6351
2026-01-17 22:44:05.42	75.65	30.80	-43.6	-49.4	8.9	2.57e-02	0	60	0	514850816	58	7134
2026-01-17 22:44:09.46	77.01	31.03	-43.3	-48.4	10.0	1.13e-02	0	60	0	522190848	58	6361
2026-01-17 22:44:13.50	78.39	31.25	-43.2	-48.1	10.3	2.61e-03	0	60	0	530579456	57	6549
2026-01-17 22:44:17.54	79.79	31.46	-43.1	-48.0	10.4	7.66e-03	0	60	0	537919488	57	6461
2026-01-17 22:44:21.57	81.20	31.64	-42.8	-47.1	11.3	1.32e-03	0	60	0	545259520	57	5823
2026-01-17 22:44:25.61	82.63	31.81	-42.9	-47.3	11.1	7.41e-04	0	60	0	552599552	56	6313
2026-01-17 22:44:29.65	84.08	31.96	-43.1	-47.9	10.4	5.62e-03	0	60	0	559939584	57	6395
2026-01-17 22:44:33.69	85.54	32.09	-42.6	-46.6	11.8	4.59e-04	0	60	0	568328192	57	5526
2026-01-17 22:44:37.72	87.00	32.20	-42.8	-47.2	11.3	1.26e-03	0	60	0	575668224	56	6242
2026-01-17 22:44:41.76	88.48	32.29	-42.8	-47.1	11.3	1.33e-03	0	60	0	583008256	56	6158
2026-01-17 22:44:45.80	89.96	32.36	-42.6	-46.8	11.6	5.86e-04	0	60	0	590348288	56	5963
2026-01-17 22:44:49.84	91.45	32.41	-42.6	-46.7	11.7	5.95e-04	0	60	0	598736896	56	5922
2026-01-17 22:44:53.88	92.95	32.44	-42.9	-47.3	11.1	1.33e-03	0	60	0	606076928	56	6331
2026-01-17 22:44:57.92	94.44	32.45	-42.9	-47.5	11.0	1.44e-03	0	60	0	613416960	56	6464
2026-01-17 22:45:01.96	95.94	32.43	-42.3	-46.1	12.5	2.48e-04	0	60	0	620756992	56	5470
2026-01-17 22:45:06.00	97.43	32.39	-42.8	-47.2	11.3	9.60e-04	0	60	0	628097024	56	6226
2026-01-17 22:45:10.04	98.92	32.34	-42.9	-47.4	11.0	1.71e-03	0	60	0	636485632	56	6407
2026-01-17 22:45:14.08	100.40	32.26	-42.7	-46.8	11.7	6.77e-04	0	60	0	643825664	56	5974
2026-01-17 22:45:18.12	101.88	32.16	-43.2	-48.1	10.3	4.64e-03	0	60	0	651165696	57	6544
2026-01-17 22:45:22.16	103.34	32.04	-43.1	-48.0	10.6	2.94e-03	0	60	0	658505728	57	6444
2026-01-17 22:45:26.20	104.80	31.91	-42.5	-46.6	11.9	5.48e-04	0	60	0	666894336	57	5500
2026-01-17 22:45:30.24	106.24	31.75	-43.3	-48.3	10.1	1.13e-02	0	61	0	674234368	57	6700
2026-01-17 22:45:34.28	107.66	31.57	-42.9	-47.3	11.2	1.25e-03	0	60	0	681574400	57	5963
2026-01-17 22:45:38.32	109.08	31.38	-42.4	-46.3	12.2	2.75e-04	0	60	0	688914432	56	5642
2026-01-17 22:45:42.36	110.47	31.17	-42.7	-46.8	11.7	4.42e-04	0	60	0	697303040	56	5985
2026-01-17 22:45:46.40	111.85	30.94	-42.6	-46.8	11.8	4.84e-04	0	60	0	704643072	56	5955
2026-01-17 22:45:50.43	113.20	30.70	-42.4	-46.3	12.3	2.40e-04	0	60	0	711983104	56	5606
2026-01-17 22:45:54.47	114.54	30.44	-42.9	-47.3	11.2	1.23e-03	0	60	0	719323136	56	6344
2026-01-17 22:45:58.51	115.85	30.17	-42.3	-46.1	12.5	1.79e-04	0	60	0	726663168	56	5497
2026-01-17 22:46:02.55	117.14	29.88	-43.0	-47.7	10.7	1.96e-03	0	60	0	735051776	56	6633
2026-01-17 22:46:06.59	118.41	29.58	-42.6	-46.6	11.9	4.72e-04	0	61	0	742391808	56	5835
2026-01-17 22:46:10.63	119.66	29.27	-43.0	-47.6	10.9	2.45e-03	0	60	0	749731840	56	6545
2026-01-17 22:46:14.67	120.88	28.95	-43.2	-48.0	10.4	3.18e-03	0	60	0	757071872	56	6869
2026-01-17 22:46:18.70	122.08	28.63	-43.1	-47.8	10.6	4.69e-03	0	60	0	764411904	57	6345
2026-01-17 22:46:22.74	123.25	28.29	-43.1	-47.9	10.5	3.87e-03	0	61	0	772800512	57	6388
2026-01-17 22:46:26.78	124.41	27.94	-43.1	-47.9	10.6	3.70e-03	0	60	0	780140544	57	6410
2026-01-17 22:46:30.82	125.53	27.58	-43.8	-49.9	8.4	4.92e-02	0	60	0	787480576	58	7593
2026-01-17 22:46:34.85	126.63	27.22	-43.4	-48.8	9.7	8.07e-03	0	61	0	794820608	58	6669
2026-01-17 22:46:38.89	127.71	26.86	-43.6	-49.3	9.1	6.59e-02	0	61	0	803209216	58	7046
2026-01-17 22:46:42.93	128.76	26.48	-43.3	-48.4	9.9	7.94e-03	0	61	0	810549248	58	6415
2026-01-17 22:46:46.98	129.79	26.10	-43.4	-48.7	9.7	1.34e-02	0	60	0	817889280	58	6582
2026-01-17 22:46:51.02	130.80	25.72	-44.0	-50.7	7.7	6.82e-02	0	61	0	825229312	58	8349
2026-01-17 22:46:55.05	131.78	25.34	-43.9	-50.2	8.0	7.36e-02	0	60	0	832569344	59	7449
2026-01-17 22:46:59.09	132.73	24.95	-43.8	-50.2	8.1	3.62e-02	0	61	0	840957952	58	7857
2026-01-17 22:47:03.13	133.67	24.56	-42.6	-46.8	11.5	7.24e-04	0	61	0	848297984	57	5625
2026-01-17 22:47:07.16	134.58	24.17	-43.2	-48.5	9.8	1.03e-02	0	61	0	855638016	57	6857
2026-01-17 22:47:11.20	135.47	23.77	-42.5	-46.8	11.6	7.06e-04	0	61	0	862978048	57	5602
2026-01-17 22:47:15.24	136.34	23.38	-43.5	-49.4	8.9	1.62e-02	0	61	0	871366656	57	7550
2026-01-17 22:47:19.28	137.19	22.98	-43.0	-47.9	10.4	5.61e-03	0	61	0	878706688	57	6401
2026-01-17 22:47:23.32	138.02	22.59	-42.6	-47.0	11.4	1.04e-03	0	60	0	886046720	57	5725
2026-01-17 22:47:27.36	138.82	22.19	-41.2	-44.3	13.9	8.30e-06	0	61	0	893386752	54	5027
2026-01-17 22:47:31.39	139.61	21.80	-42.0	-45.9	12.3	5.34e-05	0	61	0	900726784	54	6009
2026-01-17 22:47:35.43	140.38	21.41	-42.5	-47.1	11.1	2.27e-03	0	61	0	909115392	55	6498
2026-01-17 22:47:39.47	141.13	21.01	-42.1	-46.1	12.0	3.39e-04	0	61	0	916455424	55	5854
2026-01-17 22:47:43.51	141.86	20.62	-42.0	-46.0	12.2	2.07e-04	0	61	0	923795456	55	5745
2026-01-17 22:47:47.55	142.57	20.23	-41.9	-45.7	12.3	1.91e-04	0	61	0	931135488	55	5590
2026-01-17 22:47:51.58	143.27	19.84	-41.7	-45.5	12.6	9.68e-05	0	61	0	939524096	55	5409
2026-01-17 22:47:55.62	143.95	19.46	-41.9	-45.8	12.3	1.44e-04	0	61	0	946864128	55	5607
2026-01-17 22:47:59.65	144.61	19.08	-41.9	-45.8	12.2	2.48e-04	0	61	0	954204160	55	5633
2026-01-17 22:48:03.69	145.25	18.69	-41.3	-44.7	13.3	1.83e-05	0	61	0	961544192	54	5255
2026-01-17 22:48:07.73	145.88	18.32	-41.4	-44.8	13.2	2.28e-05	0	61	0	968884224	54	5307
2026-01-17 22:48:11.77	146.50	17.94	-41.5	-45.1	12.9	5.18e-05	0	60	0	977272832	54	5492
2026-01-17 22:48:15.81	147.10	17.56	-41.6	-45.4	12.6	1.09e-04	0	61	0	984612864	54	5663
2026-01-17 22:48:19.85	147.69	17.19	-42.2	-46.5	11.4	4.05e-04	0	61	0	991952896	54	6444
2026-01-17 22:48:23.89	148.26	16.83	-42.6	-47.5	10.4	3.79e-03	0	61	0	999292928	55	6841
2026-01-17 22:48:27.93	148.82	16.46	-42.6	-47.7	10.1	5.49e-03	0	61	0	1007681536	55	6967
2026-01-17 22:48:31.97	149.37	16.10	-42.2	-46.5	11.3	1.38e-03	0	61	0	1015021568	55	6110
2026-01-17 22:48:36.00	149.90	15.74	-42.1	-46.5	11.3	1.05e-03	0	61	0	1022361600	55	6093
2026-01-17 22:48:40.04	150.42	15.38	-42.4	-47.2	10.6	3.31e-03	0	61	0	1029701632	55	6603
2026-01-17 22:48:44.09	150.94	15.03	-42.3	-46.9	10.8	2.55e-03	0	61	0	1037041664	55	6377
2026-01-17 22:48:48.12	151.43	14.68	-41.9	-46.0	11.8	5.33e-04	0	61	0	1045430272	55	5761
2026-01-17 22:48:52.17	151.92	14.33	-42.0	-46.3	11.5	5.52e-04	0	61	0	1052770304	55	5949
2026-01-17 22:48:56.21	152.40	13.99	-42.1	-46.6	11.1	2.41e-03	0	61	0	1060110336	55	6192
2026-01-17 22:49:00.24	152.86	13.64	-42.1	-46.7	11.0	1.81e-03	0	61	0	1067450368	55	6235
2026-01-17 22:49:04.28	153.32	13.31	-41.8	-45.8	11.9	5.79e-04	0	61	0	1075838976	55	5630
2026-01-17 22:49:08.31	153.76	12.97	-41.9	-46.1	11.6	6.86e-04	0	61	0	1083179008	55	5808
2026-01-17 22:49:12.35	154.20	12.64	-42.1	-46.6	11.0	2.13e-03	0	61	0	1090519040	55	6166
2026-01-17 22:49:16.39	154.63	12.31	-42.1	-46.8	10.8	3.07e-03	0	61	0	1097859072	55	6288
2026-01-17 22:49:20.43	155.05	11.98	-42.0	-46.6	11.0	2.50e-03	0	61	0	1105199104	55	6134
2026-01-17 22:49:24.46	155.45	11.66	-42.0	-46.6	10.8	2.04e-03	0	61	0	1113587712	55	6197
2026-01-17 22:49:28.50	155.86	11.34	-42.0	-46.7	10.7	3.34e-03	0	61	0	1120927744	55	6258
2026-01-17 22:49:32.54	156.25	11.03	-42.1	-46.9	10.6	3.83e-03	0	61	0	1128267776	55	6350
2026-01-17 22:49:36.58	156.63	10.71	-42.0	-46.8	10.6	3.76e-03	0	61	0	1135607808	55	6280
2026-01-17 22:49:40.62	157.01	10.40	-41.9	-46.5	10.8	2.98e-03	0	61	0	1143996416	55	6125
2026-01-17 22:49:44.65	157.38	10.09	-41.9	-46.6	10.7	2.93e-03	0	61	0	1151336448	55	6165
2026-01-17 22:49:48.69	157.74	9.79	-41.8	-46.4	10.8	1.73e-03	0	61	0	1158676480	55	6031
2026-01-17 22:49:52.73	158.09	9.48	-41.8	-46.4	10.8	1.83e-03	0	61	0	1166016512	55	6026
2026-01-17 22:49:56.77	158.44	9.18	-41.7	-46.4	10.8	2.35e-03	0	61	0	1173356544	55	6011
2026-01-17 22:50:00.80	158.78	8.89	-41.9	-46.9	10.2	4.58e-03	0	61	0	1181745152	55	6397
2026-01-17 22:50:04.84	159.11	8.59	-42.0	-47.3	9.7	8.27e-03	0	61	0	1189085184	55	6666
2026-01-17 22:50:08.88	159.44	8.30	-42.1	-47.6	9.3	1.12e-02	0	61	0	1196425216	55	6935
2026-01-17 22:50:12.91	159.76	8.01	-42.0	-47.3	9.6	1.27e-02	0	61	0	1203765248	55	6655
2026-01-17 22:50:16.95	160.08	7.72	-45.1	-59.9	3.8	1.49e+00	0	61	104	1205862400	60	21392
2026-01-17 22:50:20.99	160.39	7.44	-45.4	-60.0	3.8	1.49e+00	0	61	104	1205862400	61	20494
2026-01-17 22:50:25.03	160.69	7.16	-45.3	-59.9	3.8	1.49e+00	0	61	104	1205862400	61	20225
2026-01-17 22:50:29.08	160.99	6.88	-45.3	-59.8	3.8	1.49e+00	0	61	104	1205862400	61	20055
2026-01-17 22:50:33.12	161.28	6.60	-45.2	-59.7	3.8	1.49e+00	0	61	104	1205862400	61	19785
2026-01-17 22:50:37.16	161.57	6.33	-45.2	-59.7	3.8	1.49e+00	0	61	104	1205862400	61	19786
2026-01-17 22:50:41.21	161.85	6.05	-45.2	-59.7	3.8	1.49e+00	0	61	104	1205862400	61	19693
2026-01-17 22:50:45.25	162.13	5.78	-45.1	-59.7	3.8	1.49e+00	0	61	104	1205862400	61	19662
2026-01-17 22:50:49.29	162.40	5.52	-45.1	-59.6	3.8	1.49e+00	0	61	104	1205862400	61	19591
2026-01-17 22:50:53.34	162.67	5.25	-45.1	-59.6	3.8	1.49e+00	0	61	104	1205862400	61	19556
2026-01-17 22:50:57.38	162.94	4.99	-45.1	-59.6	3.8	1.49e+00	0	61	104	1205862400	61	19523
2026-01-17 22:51:01.42	163.19	4.72	-45.1	-59.6	3.8	1.49e+00	0	61	104	1205862400	61	19583
2026-01-17 22:51:05.46	163.45	4.46	-45.1	-59.6	3.8	1.49e+00	0	61	104	1205862400	61	19525
2026-01-17 22:51:09.51	163.70	4.21	-45.1	-59.6	3.8	1.49e+00	0	61	104	1205862400	60	20690
2026-01-17 22:51:13.55	163.95	3.95	-45.1	-59.6	3.8	1.49e+00	0	61	104	1205862400	60	20654
2026-01-17 22:51:17.59	164.19	3.70	-45.1	-59.6	3.8	1.49e+00	0	61	104	1205862400	60	20700
2026-01-17 22:51:21.64	164.43	3.45	-45.0	-59.6	3.8	1.49e+00	0	61	104	1205862400	60	20584
2026-01-17 22:51:25.68	164.66	3.20	-45.0	-59.6	3.8	1.49e+00	0	61	104	1205862400	60	20622
2026-01-17 22:51:29.73	164.89	2.95	-45.1	-59.6	3.8	1.49e+00	0	61	104	1205862400	60	20572
2026-01-17 22:51:33.77	165.12	2.70	-45.0	-59.6	3.8	1.49e+00	0	61	104	1205862400	60	20650
2026-01-17 22:51:37.82	165.34	2.46	-45.0	-59.6	3.8	1.49e+00	0	61	104	1205862400	60	20639
2026-01-17 22:51:41.86	165.56	2.22	-45.0	-59.6	3.8	1.49e+00	0	61	104	1205862400	60	20568
2026-01-17 22:51:45.90	165.78	1.98	-45.0	-59.6	3.8	1.49e+00	0	61	104	1205862400	60	20543

#Closed at: 2026-01-17 22:51:47
#Recorded file [1205 MB]: D:/lorett/data/31039_260118_013805.dat