passes_logs/2026/01/17/R2.0S_Moscow/R2.0S_Moscow__20260117_130719_FENGYUN_3D_rec.log

#Pass ID: 20260117_130719_FENGYUN 3D
#Satellite: FENGYUN 3D
#Configuration: FENGYUN 3D
#almurnet v.1.7.20251203
#Start time: 2026-01-17 13:07:18

#Version: 2.2.20231116
#Station: R2.0S_Moscow
#Location: 37.707566 lon 55.798166 lat
#TLE: 1 43010U 17072A   26016.62453405 -.00000112  00000+0 -31355-4 0  9995
#TLE: 2 43010  98.9932 348.4654 0002369 105.3910 254.7528 14.19694900423480

#Time	Az	El	Level	Level2	SNR	BER	BlckErr	Temp	State	Recorded	gain1	gain2
2026-01-17 13:07:18.69	194.79	1.97	-43.8	-55.3	3.8	8.46e-01	0	51	0	0	59	13329
2026-01-17 13:07:22.73	195.02	2.21	-43.8	-55.2	3.8	8.46e-01	0	52	104	0	59	13196
2026-01-17 13:07:26.78	195.24	2.45	-43.8	-55.3	3.8	8.46e-01	0	52	104	0	59	13288
2026-01-17 13:07:30.82	195.47	2.69	-43.8	-55.3	3.8	8.46e-01	0	52	104	0	59	13268
2026-01-17 13:07:34.86	195.70	2.93	-43.8	-55.2	3.8	8.46e-01	0	53	104	0	59	13229
2026-01-17 13:07:38.90	195.94	3.18	-43.8	-55.3	3.8	8.44e-01	0	53	104	0	59	13284
2026-01-17 13:07:42.95	196.18	3.43	-43.8	-55.2	3.8	8.46e-01	0	53	104	0	59	13257
2026-01-17 13:07:46.99	196.43	3.68	-43.8	-55.3	3.8	8.46e-01	0	53	104	0	59	13269
2026-01-17 13:07:51.04	196.68	3.93	-43.8	-55.2	3.8	8.44e-01	0	54	104	0	59	13215
2026-01-17 13:07:55.08	196.93	4.19	-43.8	-55.3	3.8	8.46e-01	0	54	104	0	59	13261
2026-01-17 13:07:59.12	197.19	4.44	-43.8	-55.2	3.8	8.46e-01	0	54	104	0	59	13203
2026-01-17 13:08:03.17	197.45	4.70	-43.8	-55.2	3.8	8.46e-01	0	54	104	0	59	13112
2026-01-17 13:08:07.21	197.71	4.96	-43.7	-55.0	3.8	8.47e-01	0	54	104	0	59	12836
2026-01-17 13:08:11.26	197.98	5.22	-43.7	-55.0	3.8	8.45e-01	0	55	104	0	59	12900
2026-01-17 13:08:15.30	198.26	5.49	-43.7	-54.3	3.8	8.47e-01	0	55	104	0	59	11940
2026-01-17 13:08:19.35	198.54	5.75	-43.5	-53.1	3.9	8.44e-01	0	55	104	0	59	10315
2026-01-17 13:08:23.39	198.82	6.02	-43.2	-50.9	4.4	8.28e-01	0	55	0	0	58	8549
2026-01-17 13:08:27.43	199.11	6.29	-42.7	-49.1	5.3	7.35e-01	0	56	0	0	57	7371
2026-01-17 13:08:31.47	199.41	6.57	-42.6	-48.7	5.6	5.64e-01	0	56	0	16777216	56	7406
2026-01-17 13:08:35.51	199.71	6.84	-42.7	-48.9	5.5	6.56e-01	0	56	0	33554432	56	7591
2026-01-17 13:08:39.55	200.01	7.12	-42.6	-48.7	5.6	7.03e-01	0	56	0	38797312	56	7454
2026-01-17 13:08:43.60	200.33	7.40	-41.0	-45.0	8.7	5.05e-02	0	56	0	60817408	54	5444
2026-01-17 13:08:47.64	200.64	7.68	-39.8	-42.7	11.2	1.98e-03	0	56	0	83886080	51	4954
2026-01-17 13:08:51.68	200.97	7.97	-39.4	-42.1	11.8	6.28e-04	0	57	0	106954752	50	4891
2026-01-17 13:08:55.73	201.30	8.25	-41.1	-45.1	8.8	4.54e-04	0	57	0	120586240	52	6134
2026-01-17 13:08:59.77	201.63	8.54	-39.8	-42.6	11.6	1.04e-03	0	57	0	134217728	51	4906
2026-01-17 13:09:03.80	201.97	8.83	-39.2	-41.7	12.5	1.70e-04	0	57	0	157286400	50	4684
2026-01-17 13:09:07.84	202.32	9.13	-39.2	-41.7	12.7	1.15e-04	0	57	0	180355072	50	4668
2026-01-17 13:09:11.87	202.68	9.43	-39.1	-41.5	12.9	6.86e-05	0	57	0	202375168	50	4549
2026-01-17 13:09:15.91	203.04	9.73	-38.9	-41.3	13.2	3.54e-05	0	57	0	225443840	49	4716
2026-01-17 13:09:19.95	203.41	10.03	-38.8	-41.0	13.5	1.83e-05	0	57	0	248512512	49	4571
2026-01-17 13:09:23.99	203.79	10.33	-38.8	-41.0	13.5	1.71e-05	0	58	0	270532608	49	4577
2026-01-17 13:09:28.02	204.17	10.64	-38.8	-41.0	13.5	8.00e-06	0	58	0	293601280	49	4587
2026-01-17 13:09:32.07	204.57	10.95	-38.6	-40.7	13.9	8.00e-06	0	58	0	315621376	49	4420
2026-01-17 13:09:36.11	204.97	11.27	-38.4	-40.5	14.1	5.70e-06	0	58	0	338690048	48	4584
2026-01-17 13:09:40.15	205.38	11.58	-38.4	-40.4	14.3	2.20e-06	0	58	0	361758720	48	4519
2026-01-17 13:09:44.19	205.80	11.90	-38.5	-40.6	14.2	2.20e-06	0	58	0	384827392	48	4607
2026-01-17 13:09:48.23	206.22	12.22	-38.4	-40.4	14.3	0.00e+00	0	58	0	406847488	48	4525
2026-01-17 13:09:52.26	206.66	12.55	-38.4	-40.4	14.4	1.10e-06	0	58	0	429916160	48	4515
2026-01-17 13:09:56.30	207.10	12.88	-38.4	-40.4	14.4	1.10e-06	0	58	0	452984832	48	4509
2026-01-17 13:10:00.34	207.56	13.21	-38.3	-40.4	14.4	1.10e-06	0	59	0	475004928	48	4501
2026-01-17 13:10:04.38	208.03	13.54	-38.2	-40.2	14.6	1.10e-06	0	59	0	498073600	48	4433
2026-01-17 13:10:08.42	208.50	13.88	-38.1	-40.0	14.8	0.00e+00	0	58	0	520093696	48	4332
2026-01-17 13:10:12.45	208.99	14.21	-37.9	-39.9	14.9	0.00e+00	0	59	0	543162368	47	4498
2026-01-17 13:10:16.49	209.48	14.56	-37.9	-39.8	14.9	0.00e+00	0	59	0	566231040	47	4478
2026-01-17 13:10:20.53	209.99	14.90	-37.9	-39.8	14.9	1.10e-06	0	59	0	588251136	47	4492
2026-01-17 13:10:24.57	210.51	15.25	-37.9	-39.8	15.0	0.00e+00	0	59	0	611319808	47	4485
2026-01-17 13:10:28.61	211.05	15.60	-37.6	-39.5	15.3	0.00e+00	0	59	0	634388480	47	4294
2026-01-17 13:10:32.65	211.59	15.95	-37.6	-39.5	15.3	0.00e+00	0	59	0	657457152	47	4303
2026-01-17 13:10:36.69	212.15	16.31	-37.6	-39.4	15.4	0.00e+00	0	59	0	679477248	47	4259
2026-01-17 13:10:40.73	212.72	16.67	-37.6	-39.4	15.4	0.00e+00	0	59	0	702545920	47	4291
2026-01-17 13:10:44.77	213.30	17.03	-37.6	-39.5	15.3	0.00e+00	0	59	0	724566016	47	4318
2026-01-17 13:10:48.80	213.90	17.39	-37.6	-39.4	15.4	0.00e+00	0	59	0	747634688	47	4288
2026-01-17 13:10:52.84	214.51	17.76	-37.5	-39.3	15.5	0.00e+00	0	59	0	770703360	47	4237
2026-01-17 13:10:56.88	215.13	18.13	-37.1	-38.8	16.0	0.00e+00	0	59	0	793772032	46	4233
2026-01-17 13:11:00.92	215.78	18.50	-37.1	-38.8	16.1	0.00e+00	0	59	0	815792128	46	4204
2026-01-17 13:11:04.96	216.43	18.87	-37.2	-39.0	15.9	0.00e+00	0	60	0	838860800	46	4299
2026-01-17 13:11:09.00	217.10	19.24	-37.0	-38.7	16.2	0.00e+00	0	60	0	861929472	46	4189
2026-01-17 13:11:13.04	217.79	19.62	-37.1	-38.9	16.0	0.00e+00	0	60	0	883949568	46	4255
2026-01-17 13:11:17.08	218.50	20.00	-37.0	-38.8	16.1	0.00e+00	0	60	0	907018240	46	4203
2026-01-17 13:11:21.12	219.22	20.38	-36.9	-38.7	16.2	0.00e+00	0	59	0	929038336	45	4394
2026-01-17 13:11:25.17	219.96	20.76	-37.0	-38.7	16.2	0.00e+00	0	59	0	952107008	45	4419
2026-01-17 13:11:29.20	220.72	21.14	-36.9	-38.6	16.3	0.00e+00	0	60	0	975175680	45	4341
2026-01-17 13:11:33.24	221.50	21.52	-36.7	-38.3	16.6	0.00e+00	0	60	0	998244352	45	4221
2026-01-17 13:11:37.27	222.29	21.90	-36.5	-38.1	16.8	0.00e+00	0	60	0	1020264448	44	4366
2026-01-17 13:11:41.32	223.11	22.29	-36.6	-38.2	16.7	0.00e+00	0	60	0	1043333120	44	4431
2026-01-17 13:11:45.35	223.94	22.67	-36.6	-38.2	16.7	0.00e+00	0	60	0	1066401792	44	4419
2026-01-17 13:11:49.39	224.80	23.05	-36.5	-38.1	16.8	0.00e+00	0	60	0	1088421888	44	4377
2026-01-17 13:11:53.43	225.67	23.43	-36.3	-37.9	17.0	0.00e+00	0	60	0	1111490560	44	4257
2026-01-17 13:11:57.47	226.57	23.81	-36.2	-37.8	17.1	0.00e+00	0	60	0	1133510656	44	4213
2026-01-17 13:12:01.51	227.49	24.19	-36.2	-37.8	17.1	0.00e+00	0	60	0	1156579328	44	4223
2026-01-17 13:12:05.55	228.43	24.56	-36.2	-37.7	17.2	0.00e+00	0	60	0	1179648000	44	4182
2026-01-17 13:12:09.59	229.39	24.94	-36.2	-37.8	17.1	0.00e+00	0	60	0	1202716672	44	4220
2026-01-17 13:12:13.63	230.37	25.31	-35.9	-37.4	17.3	0.00e+00	0	60	0	1224736768	43	4279
2026-01-17 13:12:17.67	231.38	25.67	-36.1	-37.7	17.0	0.00e+00	0	60	0	1247805440	43	4420
2026-01-17 13:12:21.71	232.41	26.03	-35.7	-37.2	17.6	0.00e+00	0	60	0	1270874112	43	4156
2026-01-17 13:12:25.75	233.46	26.39	-35.6	-37.1	17.7	0.00e+00	0	60	0	1292894208	43	4112
2026-01-17 13:12:29.79	234.54	26.74	-35.6	-37.0	17.7	0.00e+00	0	60	0	1315962880	43	4096
2026-01-17 13:12:33.83	235.64	27.08	-35.7	-37.2	17.6	0.00e+00	0	60	0	1339031552	42	4400
2026-01-17 13:12:37.87	236.76	27.42	-35.3	-36.7	18.0	0.00e+00	0	60	0	1361051648	42	4178
2026-01-17 13:12:41.92	237.91	27.75	-35.5	-36.9	17.8	0.00e+00	0	60	0	1384120320	42	4289
2026-01-17 13:12:45.96	239.08	28.07	-35.4	-36.9	17.8	0.00e+00	0	60	0	1407188992	42	4263
2026-01-17 13:12:50.00	240.27	28.38	-35.2	-36.7	18.1	0.00e+00	0	60	0	1429209088	42	4154
2026-01-17 13:12:54.04	241.49	28.68	-35.6	-37.1	17.6	0.00e+00	0	60	0	1452277760	42	4352
2026-01-17 13:12:58.08	242.72	28.97	-35.6	-37.1	17.7	0.00e+00	0	60	0	1475346432	42	4341
2026-01-17 13:13:02.12	243.98	29.25	-35.5	-37.0	17.7	0.00e+00	0	60	0	1497366528	42	4297
2026-01-17 13:13:06.16	245.26	29.51	-35.4	-36.9	17.8	0.00e+00	0	60	0	1520435200	42	4273
2026-01-17 13:13:10.19	246.55	29.76	-35.3	-36.8	17.9	0.00e+00	0	60	0	1543503872	42	4209
2026-01-17 13:13:14.23	247.87	30.00	-35.4	-36.9	17.8	0.00e+00	0	60	0	1565523968	42	4279
2026-01-17 13:13:18.27	249.21	30.23	-35.3	-36.7	17.9	0.00e+00	0	60	0	1588592640	42	4184
2026-01-17 13:13:22.31	250.56	30.43	-35.5	-37.1	17.6	0.00e+00	0	60	0	1611661312	42	4343
2026-01-17 13:13:26.35	251.93	30.63	-35.5	-37.0	17.7	0.00e+00	0	60	0	1633681408	42	4311
2026-01-17 13:13:30.39	253.32	30.80	-35.6	-37.0	18.0	0.00e+00	0	60	0	1656750080	42	4304
2026-01-17 13:13:34.43	254.72	30.96	-35.3	-36.6	18.4	0.00e+00	0	60	0	1679818752	42	4145
2026-01-17 13:13:38.47	256.13	31.10	-35.6	-36.9	18.1	0.00e+00	0	60	0	1701838848	42	4270
2026-01-17 13:13:42.51	257.56	31.22	-35.5	-36.9	18.1	0.00e+00	0	60	0	1724907520	42	4253
2026-01-17 13:13:46.55	258.99	31.33	-35.7	-37.0	18.0	0.00e+00	0	60	0	1747976192	42	4325
2026-01-17 13:13:50.59	260.43	31.41	-35.7	-37.1	18.0	0.00e+00	0	60	0	1769996288	42	4344
2026-01-17 13:13:54.63	261.88	31.47	-35.4	-36.7	18.3	0.00e+00	0	60	0	1793064960	42	4172
2026-01-17 13:13:58.67	263.33	31.52	-35.4	-36.7	18.3	0.00e+00	0	60	0	1816133632	42	4177
2026-01-17 13:14:02.71	264.79	31.54	-35.6	-37.0	18.0	0.00e+00	0	60	0	1838153728	42	4304
2026-01-17 13:14:06.75	266.25	31.55	-35.6	-36.9	18.1	0.00e+00	0	60	0	1861222400	42	4274
2026-01-17 13:14:10.79	267.70	31.53	-35.5	-36.8	18.2	0.00e+00	0	60	0	1884291072	42	4219
2026-01-17 13:14:14.83	269.16	31.50	-35.5	-36.8	18.2	0.00e+00	0	60	0	1906311168	42	4231
2026-01-17 13:14:18.87	270.61	31.44	-35.6	-36.9	18.1	0.00e+00	0	60	0	1929379840	42	4271
2026-01-17 13:14:22.90	272.05	31.37	-35.7	-37.0	18.0	0.00e+00	0	60	0	1952448512	42	4328
2026-01-17 13:14:26.95	273.49	31.27	-35.6	-37.0	18.0	0.00e+00	0	60	0	1974468608	42	4319
2026-01-17 13:14:30.98	274.91	31.16	-35.4	-36.8	18.3	0.00e+00	0	61	0	1997537280	42	4194
2026-01-17 13:14:35.02	276.33	31.03	-35.4	-36.7	18.3	0.00e+00	0	60	0	2020605952	42	4191
2026-01-17 13:14:39.06	277.73	30.88	-35.7	-37.1	17.9	0.00e+00	0	60	0	2042626048	42	4348
2026-01-17 13:14:43.10	279.12	30.71	-35.6	-37.0	18.0	0.00e+00	0	60	0	2065694720	42	4303
2026-01-17 13:14:47.14	280.50	30.52	-35.5	-36.8	18.2	0.00e+00	0	61	0	2088763392	42	4230
2026-01-17 13:14:51.18	281.86	30.32	-35.3	-36.7	18.3	0.00e+00	0	60	0	2111832064	42	4150
2026-01-17 13:14:55.22	283.20	30.11	-35.6	-37.0	18.0	0.00e+00	0	60	0	2133852160	42	4309
2026-01-17 13:14:59.26	284.52	29.88	-35.8	-37.2	17.7	0.00e+00	0	61	0	2156920832	42	4439
2026-01-17 13:15:03.30	285.83	29.63	-35.9	-37.2	17.8	0.00e+00	0	60	0	2178940928	42	4439
2026-01-17 13:15:07.33	287.11	29.37	-35.5	-36.8	18.1	0.00e+00	0	60	0	2202009600	42	4233
2026-01-17 13:15:11.36	288.37	29.10	-35.8	-37.2	17.8	0.00e+00	0	60	0	2225078272	42	4407
2026-01-17 13:15:15.40	289.61	28.82	-35.7	-37.0	17.9	0.00e+00	0	60	0	2247098368	42	4330
2026-01-17 13:15:19.44	290.83	28.53	-35.7	-37.1	17.9	0.00e+00	0	60	0	2270167040	42	4368
2026-01-17 13:15:23.48	292.03	28.22	-35.8	-37.2	17.8	0.00e+00	0	61	0	2293235712	42	4413
2026-01-17 13:15:27.52	293.20	27.91	-35.7	-37.1	17.9	0.00e+00	0	61	0	2315255808	42	4358
2026-01-17 13:15:31.56	294.36	27.58	-35.9	-37.3	17.7	0.00e+00	0	61	0	2338324480	42	4442
2026-01-17 13:15:35.60	295.49	27.25	-35.9	-37.3	17.6	0.00e+00	0	60	0	2361393152	42	4478
2026-01-17 13:15:39.64	296.59	26.92	-35.9	-37.3	17.6	0.00e+00	0	60	0	2383413248	42	4470
2026-01-17 13:15:43.68	297.68	26.57	-36.0	-37.4	17.5	0.00e+00	0	61	0	2406481920	42	4511
2026-01-17 13:15:47.71	298.73	26.22	-36.1	-37.5	17.4	0.00e+00	0	60	0	2429550592	42	4598
2026-01-17 13:15:51.75	299.77	25.86	-36.0	-37.4	17.5	0.00e+00	0	61	0	2451570688	42	4542
2026-01-17 13:15:55.79	300.78	25.50	-36.2	-37.7	17.2	0.00e+00	0	61	0	2474639360	43	4402
2026-01-17 13:15:59.82	301.77	25.14	-36.2	-37.6	17.3	0.00e+00	0	61	0	2497708032	43	4376
2026-01-17 13:16:03.86	302.74	24.77	-36.1	-37.6	17.3	0.00e+00	0	61	0	2519728128	43	4348
2026-01-17 13:16:07.90	303.69	24.40	-36.0	-37.5	17.4	0.00e+00	0	61	0	2542796800	43	4299
2026-01-17 13:16:11.94	304.61	24.03	-36.2	-37.6	17.3	0.00e+00	0	61	0	2565865472	43	4363
2026-01-17 13:16:15.98	305.52	23.65	-36.5	-38.0	16.9	0.00e+00	0	61	0	2587885568	43	4565
2026-01-17 13:16:20.02	306.40	23.27	-36.4	-38.0	16.9	0.00e+00	0	60	0	2610954240	43	4552
2026-01-17 13:16:24.06	307.26	22.89	-36.5	-38.0	16.8	0.00e+00	0	61	0	2634022912	43	4551
2026-01-17 13:16:28.10	308.11	22.52	-36.5	-38.0	16.9	0.00e+00	0	61	0	2656043008	43	4565
2026-01-17 13:16:32.15	308.93	22.14	-36.6	-38.2	16.6	0.00e+00	0	60	0	2679111680	43	4659
2026-01-17 13:16:36.18	309.73	21.76	-36.6	-38.1	16.7	0.00e+00	0	61	0	2702180352	43	4646
2026-01-17 13:16:40.22	310.51	21.38	-37.0	-38.5	16.4	0.00e+00	0	60	0	2724200448	44	4587
2026-01-17 13:16:44.26	311.28	21.00	-37.2	-38.8	16.1	0.00e+00	0	61	0	2747269120	44	4744
2026-01-17 13:16:48.30	312.03	20.62	-37.3	-38.9	16.0	0.00e+00	0	61	0	2770337792	45	4522
2026-01-17 13:16:52.34	312.75	20.24	-37.2	-38.9	16.1	0.00e+00	0	60	0	2792357888	45	4496
2026-01-17 13:16:56.38	313.47	19.87	-37.4	-39.1	15.8	0.00e+00	0	61	0	2815426560	45	4633
2026-01-17 13:17:00.39	314.16	19.50	-37.7	-39.5	15.5	0.00e+00	0	61	0	2838495232	46	4550
2026-01-17 13:17:04.43	314.84	19.12	-37.5	-39.1	15.7	0.00e+00	0	61	0	2860515328	46	4389
2026-01-17 13:17:08.47	315.50	18.75	-37.5	-39.2	15.7	0.00e+00	0	61	0	2883584000	46	4400
2026-01-17 13:17:12.51	316.15	18.38	-37.5	-39.2	15.7	0.00e+00	0	60	0	2906652672	46	4425
2026-01-17 13:17:16.55	316.78	18.02	-37.4	-39.1	15.7	0.00e+00	0	61	0	2928672768	46	4374
2026-01-17 13:17:20.59	317.40	17.65	-37.7	-39.5	15.4	0.00e+00	0	61	0	2951741440	46	4567
2026-01-17 13:17:24.63	318.00	17.29	-37.8	-39.6	15.2	0.00e+00	0	61	0	2973761536	46	4633
2026-01-17 13:17:28.67	318.59	16.93	-37.9	-39.7	15.1	1.10e-06	0	61	0	2996830208	46	4654
2026-01-17 13:17:32.71	319.17	16.57	-38.0	-39.9	14.9	0.00e+00	0	61	0	3019898880	46	4762
2026-01-17 13:17:36.75	319.73	16.22	-38.1	-40.0	14.8	1.10e-06	0	61	0	3042967552	46	4837
2026-01-17 13:17:40.79	320.28	15.87	-38.2	-40.2	14.6	1.10e-06	0	60	0	3064987648	47	4662
2026-01-17 13:17:44.83	320.82	15.52	-38.2	-40.0	14.7	1.10e-06	0	61	0	3088056320	47	4598
2026-01-17 13:17:48.87	321.34	15.17	-38.1	-39.9	14.8	1.10e-06	0	61	0	3111124992	47	4533
2026-01-17 13:17:52.91	321.86	14.83	-38.2	-40.1	14.6	1.10e-06	0	61	0	3133145088	47	4612
2026-01-17 13:17:56.95	322.36	14.49	-38.2	-40.2	14.5	1.10e-06	0	61	0	3156213760	47	4657
2026-01-17 13:18:00.98	322.85	14.15	-38.1	-40.0	14.6	1.10e-06	0	61	0	3179282432	47	4595
2026-01-17 13:18:05.02	323.33	13.82	-38.2	-40.1	14.5	1.10e-06	0	61	0	3201302528	47	4641
2026-01-17 13:18:09.06	323.81	13.48	-38.3	-40.3	14.3	1.10e-06	0	61	0	3224371200	47	4753
2026-01-17 13:18:13.10	324.27	13.15	-38.4	-40.4	14.2	2.20e-06	0	61	0	3247439872	47	4805
2026-01-17 13:18:17.14	324.72	12.83	-38.5	-40.5	14.0	4.50e-06	0	61	0	3269459968	47	4862
2026-01-17 13:18:21.18	325.16	12.50	-38.5	-40.6	14.0	9.10e-06	0	61	0	3292528640	47	4891
2026-01-17 13:18:25.23	325.60	12.18	-38.6	-40.6	13.9	8.00e-06	0	61	0	3315597312	47	4918
2026-01-17 13:18:29.27	326.02	11.86	-38.9	-41.0	13.6	9.10e-06	0	61	0	3337617408	48	4855
2026-01-17 13:18:33.31	326.44	11.55	-39.0	-41.2	13.4	2.97e-05	0	61	0	3360686080	48	4963
2026-01-17 13:18:37.35	326.84	11.24	-39.1	-41.3	13.2	3.31e-05	0	61	0	3383754752	48	5013
2026-01-17 13:18:41.38	327.24	10.93	-39.2	-41.5	13.0	6.40e-05	0	61	0	3405774848	49	4865
2026-01-17 13:18:45.42	327.63	10.62	-39.2	-41.6	12.9	8.12e-05	0	61	0	3428843520	49	4883
2026-01-17 13:18:49.46	328.01	10.32	-39.2	-41.6	12.9	8.69e-05	0	61	0	3451912192	49	4872
2026-01-17 13:18:53.50	328.39	10.01	-39.2	-41.6	12.8	1.04e-04	0	61	0	3473932288	49	4914
2026-01-17 13:18:57.54	328.76	9.72	-39.3	-41.7	12.7	1.35e-04	0	61	0	3497000960	49	4943
2026-01-17 13:19:01.58	329.12	9.42	-39.3	-41.7	12.7	1.21e-04	0	61	0	3520069632	49	4936
2026-01-17 13:19:05.62	329.47	9.13	-39.3	-41.7	12.5	1.85e-04	0	61	0	3542089728	49	4982
2026-01-17 13:19:09.65	329.82	8.84	-39.3	-41.8	12.4	2.48e-04	0	61	0	3565158400	49	5029
2026-01-17 13:19:13.69	330.16	8.55	-39.5	-42.2	12.0	4.08e-04	0	61	0	3588227072	49	5230
2026-01-17 13:19:17.73	330.50	8.26	-39.6	-42.2	11.8	5.10e-04	0	61	0	3610247168	49	5245
2026-01-17 13:19:21.77	330.83	7.98	-42.3	-47.1	4.9	4.81e-01	0	61	104	3632267264	56	6193
2026-01-17 13:19:25.82	331.15	7.69	-44.9	-56.6	3.8	8.47e-01	0	61	104	3632267264	60	14684
2026-01-17 13:19:29.86	331.47	7.42	-45.2	-56.9	3.8	8.46e-01	0	61	104	3632267264	60	15137
2026-01-17 13:19:33.90	331.78	7.14	-45.1	-56.8	3.8	8.44e-01	0	61	104	3632267264	60	14997
2026-01-17 13:19:37.94	332.09	6.87	-45.1	-56.7	3.8	8.45e-01	0	61	104	3632267264	60	14806
2026-01-17 13:19:41.98	332.39	6.59	-45.1	-56.7	3.8	8.45e-01	0	61	104	3632267264	60	14873
2026-01-17 13:19:46.03	332.68	6.32	-45.0	-56.7	3.8	8.46e-01	0	61	104	3632267264	60	14879
2026-01-17 13:19:50.07	332.97	6.06	-45.0	-56.7	3.8	8.46e-01	0	61	104	3632267264	60	14790
2026-01-17 13:19:54.12	333.26	5.79	-45.0	-56.7	3.8	8.46e-01	0	61	104	3632267264	60	14777
2026-01-17 13:19:58.16	333.54	5.53	-45.0	-56.6	3.8	8.46e-01	0	61	104	3632267264	60	14708
2026-01-17 13:20:02.20	333.82	5.27	-45.0	-56.6	3.8	8.46e-01	0	61	104	3632267264	60	14702
2026-01-17 13:20:06.24	334.09	5.01	-45.0	-56.7	3.8	8.45e-01	0	61	104	3632267264	60	14761
2026-01-17 13:20:10.28	334.35	4.75	-45.0	-56.7	3.8	8.47e-01	0	61	104	3632267264	60	14720
2026-01-17 13:20:14.33	334.62	4.49	-45.0	-56.6	3.8	8.46e-01	0	61	104	3632267264	60	14638
2026-01-17 13:20:18.37	334.88	4.24	-45.0	-56.6	3.8	8.47e-01	0	61	104	3632267264	60	14699
2026-01-17 13:20:22.42	335.13	3.99	-45.0	-56.6	3.8	8.46e-01	0	61	104	3632267264	60	14648
2026-01-17 13:20:26.46	335.38	3.74	-45.0	-56.6	3.8	8.47e-01	0	61	104	3632267264	60	14590
2026-01-17 13:20:30.51	335.63	3.49	-45.0	-56.6	3.8	8.47e-01	0	61	104	3632267264	60	14683
2026-01-17 13:20:34.55	335.87	3.25	-45.0	-56.6	3.8	8.46e-01	0	61	104	3632267264	60	14661
2026-01-17 13:20:38.59	336.11	3.00	-45.0	-56.7	3.8	8.47e-01	0	61	104	3632267264	60	14716
2026-01-17 13:20:42.64	336.35	2.76	-45.0	-56.6	3.8	8.46e-01	0	61	104	3632267264	60	14691
2026-01-17 13:20:46.68	336.58	2.52	-45.0	-56.6	3.8	8.47e-01	0	61	104	3632267264	60	14620
2026-01-17 13:20:50.73	336.81	2.28	-44.9	-56.6	3.8	8.47e-01	0	61	104	3632267264	60	14647
2026-01-17 13:20:54.77	337.03	2.04	-45.0	-56.6	3.8	8.46e-01	0	61	104	3632267264	60	14660

#Closed at: 2026-01-17 13:20:56
#Recorded file [3632 MB]: D:/lorett/data/31039_260117_160718.dat