passes_logs/2026/01/17/R2.0S_Moscow/R2.0S_Moscow__20260117_032020_FENGYUN_3E_rec.log

#Pass ID: 20260117_032020_FENGYUN 3E
#Satellite: FENGYUN 3E
#Configuration: FENGYUN 3E
#almurnet v.1.7.20251203
#Start time: 2026-01-17 03:20:20

#Version: 2.2.20231116
#Station: R2.0S_Moscow
#Location: 37.707566 lon 55.798166 lat
#TLE: 1 49008U 21062A   26016.27412410  .00000434  00000+0  22502-3 0  9992
#TLE: 2 49008  98.7486  21.3880 0002096 134.9721 225.1626 14.19886506235025

#Time	Az	El	Level	Level2	SNR	BER	BlckErr	Temp	State	Recorded	gain1	gain2
2026-01-17 03:20:20.45	19.18	2.00	-41.9	-53.2	3.8	8.46e-01	0	51	0	0	54	13138
2026-01-17 03:20:24.49	19.31	2.25	-41.9	-53.2	3.8	8.46e-01	0	52	104	0	54	13131
2026-01-17 03:20:28.53	19.44	2.51	-41.9	-53.2	3.8	8.47e-01	0	52	104	0	54	13145
2026-01-17 03:20:32.58	19.57	2.76	-41.9	-53.2	3.8	8.46e-01	0	52	104	0	54	13112
2026-01-17 03:20:36.62	19.70	3.02	-41.9	-53.1	3.8	8.46e-01	0	53	104	0	54	13087
2026-01-17 03:20:40.66	19.83	3.28	-41.9	-53.2	3.8	8.45e-01	0	53	104	0	54	13122
2026-01-17 03:20:44.71	19.97	3.55	-41.9	-53.1	3.8	8.46e-01	0	53	104	0	54	13105
2026-01-17 03:20:48.75	20.11	3.81	-41.9	-53.1	3.8	8.46e-01	0	54	104	0	54	13085
2026-01-17 03:20:52.79	20.25	4.08	-41.9	-53.2	3.8	8.46e-01	0	54	104	0	54	13125
2026-01-17 03:20:56.83	20.40	4.35	-41.9	-53.1	3.8	8.46e-01	0	54	104	0	54	13068
2026-01-17 03:21:00.88	20.54	4.63	-41.9	-53.1	3.8	8.47e-01	0	54	104	0	54	13057
2026-01-17 03:21:04.92	20.69	4.90	-41.9	-53.1	3.8	8.47e-01	0	55	104	0	54	13057
2026-01-17 03:21:08.96	20.84	5.18	-41.9	-53.1	3.8	8.46e-01	0	55	104	0	54	13073
2026-01-17 03:21:13.01	21.00	5.46	-41.9	-53.1	3.8	8.46e-01	0	55	104	0	54	13045
2026-01-17 03:21:17.05	21.15	5.75	-41.9	-53.1	3.8	8.46e-01	0	55	104	0	54	13108
2026-01-17 03:21:21.09	21.31	6.03	-41.9	-53.1	3.8	8.46e-01	0	56	104	0	54	13062
2026-01-17 03:21:25.14	21.47	6.33	-41.9	-53.1	3.8	8.46e-01	0	55	104	0	54	13057
2026-01-17 03:21:29.18	21.64	6.62	-41.9	-53.1	3.8	8.47e-01	0	56	104	0	54	13075
2026-01-17 03:21:33.22	21.80	6.92	-41.9	-53.0	3.8	8.46e-01	0	56	104	0	54	12829
2026-01-17 03:21:37.27	21.98	7.22	-41.9	-53.1	3.8	8.46e-01	0	56	104	0	54	12965
2026-01-17 03:21:41.31	22.15	7.52	-41.8	-52.5	3.8	8.45e-01	0	57	104	0	54	12151
2026-01-17 03:21:45.35	22.33	7.83	-40.9	-47.3	5.2	7.69e-01	0	57	0	0	52	7458
2026-01-17 03:21:49.39	22.51	8.14	-41.9	-49.0	4.6	8.14e-01	0	57	0	15728640	54	8141
2026-01-17 03:21:53.43	22.69	8.45	-39.7	-43.4	8.8	1.58e-01	0	57	0	35651584	50	5364
2026-01-17 03:21:57.46	22.88	8.77	-38.9	-41.4	11.6	8.91e-04	0	57	0	65011712	47	5087
2026-01-17 03:22:01.51	23.07	9.09	-38.3	-40.5	12.9	3.43e-05	0	57	0	93323264	47	4551
2026-01-17 03:22:05.54	23.27	9.42	-38.0	-40.0	13.7	4.50e-06	0	57	0	122683392	47	4297
2026-01-17 03:22:09.58	23.46	9.75	-38.3	-40.3	13.5	8.00e-06	0	58	0	152043520	47	4468
2026-01-17 03:22:13.62	23.67	10.08	-38.4	-40.4	13.6	4.50e-06	0	58	0	181403648	47	4524
2026-01-17 03:22:17.66	23.88	10.42	-38.1	-39.9	14.1	1.10e-06	0	58	0	210763776	47	4279
2026-01-17 03:22:21.70	24.09	10.77	-38.1	-39.9	14.3	1.10e-06	0	58	0	239075328	46	4519
2026-01-17 03:22:25.74	24.31	11.11	-38.1	-39.9	14.3	1.10e-06	0	58	0	268435456	46	4500
2026-01-17 03:22:29.77	24.53	11.47	-38.0	-39.8	14.5	0.00e+00	0	58	0	297795584	46	4448
2026-01-17 03:22:33.81	24.75	11.82	-38.2	-40.0	14.3	0.00e+00	0	58	0	327155712	46	4575
2026-01-17 03:22:37.85	24.99	12.18	-37.9	-39.6	14.8	0.00e+00	0	58	0	355467264	46	4355
2026-01-17 03:22:41.89	25.22	12.55	-37.8	-39.4	15.0	0.00e+00	0	59	0	384827392	46	4287
2026-01-17 03:22:45.93	25.47	12.92	-37.8	-39.4	15.1	1.10e-06	0	59	0	414187520	45	4513
2026-01-17 03:22:49.97	25.72	13.30	-37.6	-39.1	15.4	0.00e+00	0	59	0	443547648	45	4382
2026-01-17 03:22:54.01	25.97	13.69	-37.6	-39.2	15.4	0.00e+00	0	59	0	472907776	45	4402
2026-01-17 03:22:58.05	26.23	14.07	-37.4	-39.0	15.6	0.00e+00	0	59	0	501219328	45	4310
2026-01-17 03:23:02.09	26.50	14.47	-37.4	-38.9	15.7	0.00e+00	0	59	0	530579456	45	4282
2026-01-17 03:23:06.13	26.77	14.87	-37.3	-38.8	15.8	0.00e+00	0	59	0	559939584	44	4484
2026-01-17 03:23:10.16	27.05	15.28	-37.0	-38.5	16.2	0.00e+00	0	59	0	589299712	44	4316
2026-01-17 03:23:14.20	27.34	15.69	-37.2	-38.7	16.0	0.00e+00	0	59	0	618659840	44	4410
2026-01-17 03:23:18.24	27.64	16.11	-37.1	-38.5	16.2	0.00e+00	0	59	0	648019968	44	4328
2026-01-17 03:23:22.27	27.94	16.54	-37.0	-38.4	16.3	0.00e+00	0	59	0	676331520	44	4281
2026-01-17 03:23:26.31	28.26	16.97	-37.4	-38.9	15.8	0.00e+00	0	59	0	705691648	44	4533
2026-01-17 03:23:30.36	28.58	17.41	-36.8	-38.2	16.6	0.00e+00	0	59	0	735051776	44	4164
2026-01-17 03:23:34.40	28.91	17.86	-36.5	-37.8	16.8	0.00e+00	0	59	0	764411904	43	4242
2026-01-17 03:23:38.44	29.25	18.31	-36.3	-37.6	17.1	0.00e+00	0	60	0	793772032	43	4125
2026-01-17 03:23:42.48	29.60	18.78	-36.3	-37.6	17.2	0.00e+00	0	60	0	822083584	42	4347
2026-01-17 03:23:46.52	29.96	19.25	-36.3	-37.6	17.1	0.00e+00	0	59	0	851443712	42	4378
2026-01-17 03:23:50.56	30.33	19.73	-36.2	-37.5	17.2	0.00e+00	0	59	0	880803840	43	4090
2026-01-17 03:23:54.60	30.72	20.21	-36.2	-37.5	17.3	0.00e+00	0	59	0	910163968	42	4330
2026-01-17 03:23:58.64	31.11	20.71	-36.3	-37.7	17.1	0.00e+00	0	60	0	939524096	43	4157
2026-01-17 03:24:02.68	31.52	21.21	-36.4	-37.7	17.1	0.00e+00	0	60	0	968884224	43	4189
2026-01-17 03:24:06.72	31.94	21.73	-36.1	-37.3	17.5	0.00e+00	0	60	0	997195776	43	3984
2026-01-17 03:24:10.76	32.37	22.25	-36.0	-37.2	17.6	0.00e+00	0	60	0	1026555904	42	4191
2026-01-17 03:24:14.80	32.82	22.78	-35.9	-37.1	17.7	0.00e+00	0	60	0	1055916032	42	4129
2026-01-17 03:24:18.84	33.28	23.32	-35.4	-36.6	18.3	0.00e+00	0	60	0	1085276160	41	4117
2026-01-17 03:24:22.88	33.76	23.87	-35.7	-37.0	17.9	0.00e+00	0	60	0	1114636288	42	4052
2026-01-17 03:24:26.92	34.26	24.44	-35.8	-37.0	17.9	0.00e+00	0	60	0	1142947840	42	4069
2026-01-17 03:24:30.96	34.77	25.01	-35.6	-36.8	18.1	0.00e+00	0	60	0	1172307968	41	4210
2026-01-17 03:24:35.01	35.30	25.59	-35.2	-36.4	18.5	0.00e+00	0	60	0	1201668096	41	4011
2026-01-17 03:24:39.04	35.85	26.18	-35.2	-36.4	18.5	0.00e+00	0	60	0	1231028224	41	4016
2026-01-17 03:24:43.08	36.43	26.78	-35.1	-36.3	18.7	0.00e+00	0	60	0	1260388352	40	4203
2026-01-17 03:24:47.12	37.02	27.40	-35.3	-36.4	18.5	0.00e+00	0	60	0	1289748480	40	4284
2026-01-17 03:24:51.16	37.64	28.02	-35.1	-36.2	18.7	0.00e+00	0	60	0	1318060032	40	4188
2026-01-17 03:24:55.20	38.28	28.65	-35.0	-36.1	18.9	0.00e+00	0	60	0	1347420160	40	4117
2026-01-17 03:24:59.25	38.94	29.30	-35.1	-36.3	18.7	0.00e+00	0	60	0	1376780288	40	4203
2026-01-17 03:25:03.29	39.64	29.96	-35.1	-36.3	18.7	0.00e+00	0	60	0	1406140416	40	4197
2026-01-17 03:25:07.33	40.36	30.62	-35.4	-36.5	18.5	0.00e+00	0	60	0	1435500544	40	4330
2026-01-17 03:25:11.37	41.11	31.30	-35.2	-36.4	18.6	0.00e+00	0	60	0	1463812096	40	4261
2026-01-17 03:25:15.41	41.89	31.99	-34.9	-36.0	19.0	0.00e+00	0	60	0	1493172224	40	4067
2026-01-17 03:25:19.45	42.71	32.69	-35.0	-36.1	19.0	0.00e+00	0	60	0	1522532352	40	4112
2026-01-17 03:25:23.49	43.56	33.40	-35.0	-36.1	18.9	0.00e+00	0	60	0	1551892480	40	4137
2026-01-17 03:25:27.53	44.45	34.12	-35.3	-36.4	18.7	0.00e+00	0	60	0	1581252608	40	4283
2026-01-17 03:25:31.57	45.38	34.85	-35.4	-36.6	18.6	0.00e+00	0	60	0	1610612736	40	4350
2026-01-17 03:25:35.60	46.34	35.58	-35.5	-36.7	18.4	0.00e+00	0	60	0	1638924288	40	4392
2026-01-17 03:25:39.64	47.36	36.33	-35.3	-36.4	18.7	0.00e+00	0	61	0	1668284416	40	4291
2026-01-17 03:25:43.69	48.42	37.08	-35.2	-36.3	18.8	0.00e+00	0	60	0	1697644544	40	4235
2026-01-17 03:25:47.73	49.54	37.84	-35.2	-36.3	18.8	0.00e+00	0	60	0	1727004672	40	4242
2026-01-17 03:25:51.77	50.70	38.60	-35.2	-36.3	18.9	0.00e+00	0	61	0	1756364800	40	4201
2026-01-17 03:25:55.81	51.92	39.37	-35.4	-36.5	18.6	0.00e+00	0	60	0	1784676352	40	4340
2026-01-17 03:25:59.85	53.20	40.14	-35.3	-36.4	18.7	0.00e+00	0	60	0	1814036480	40	4270
2026-01-17 03:26:03.89	54.54	40.91	-35.2	-36.3	18.8	0.00e+00	0	60	0	1843396608	40	4240
2026-01-17 03:26:07.93	55.94	41.68	-35.9	-37.1	18.1	0.00e+00	0	60	0	1872756736	41	4349
2026-01-17 03:26:11.96	57.41	42.44	-35.6	-36.7	18.5	0.00e+00	0	61	0	1902116864	41	4175
2026-01-17 03:26:16.00	58.95	43.20	-35.5	-36.6	18.6	0.00e+00	0	61	0	1930428416	41	4132
2026-01-17 03:26:20.04	60.56	43.95	-35.7	-36.8	18.4	0.00e+00	0	61	0	1959788544	41	4221
2026-01-17 03:26:24.08	62.26	44.69	-36.0	-37.2	18.1	0.00e+00	0	61	0	1989148672	41	4392
2026-01-17 03:26:28.12	64.03	45.42	-35.9	-37.1	18.2	0.00e+00	0	60	0	2018508800	41	4351
2026-01-17 03:26:32.16	65.88	46.13	-35.7	-36.9	18.4	0.00e+00	0	61	0	2047868928	41	4246
2026-01-17 03:26:36.21	67.82	46.81	-36.3	-37.5	17.8	0.00e+00	0	61	0	2076180480	42	4315
2026-01-17 03:26:40.25	69.84	47.47	-36.1	-37.3	18.0	0.00e+00	0	61	0	2105540608	42	4208
2026-01-17 03:26:44.29	71.95	48.10	-36.4	-37.6	17.6	0.00e+00	0	61	0	2134900736	42	4358
2026-01-17 03:26:48.33	74.14	48.70	-36.2	-37.4	17.9	0.00e+00	0	61	0	2164260864	42	4264
2026-01-17 03:26:52.37	76.41	49.26	-36.6	-37.8	17.5	0.00e+00	0	61	0	2193620992	43	4224
2026-01-17 03:26:56.41	78.76	49.78	-36.5	-37.8	17.5	0.00e+00	0	61	0	2222981120	43	4203
2026-01-17 03:27:00.45	81.19	50.25	-36.6	-37.8	17.5	0.00e+00	0	61	0	2251292672	43	4238
2026-01-17 03:27:04.49	83.70	50.66	-36.5	-37.8	17.5	0.00e+00	0	61	0	2280652800	43	4202
2026-01-17 03:27:08.53	86.27	51.03	-36.7	-37.9	17.4	0.00e+00	0	61	0	2310012928	43	4273
2026-01-17 03:27:12.57	88.90	51.33	-36.6	-37.8	17.5	0.00e+00	0	61	0	2339373056	43	4210
2026-01-17 03:27:16.61	91.57	51.58	-36.6	-37.8	17.4	0.00e+00	0	61	0	2368733184	43	4242
2026-01-17 03:27:20.65	94.29	51.76	-36.3	-37.6	17.8	0.00e+00	0	61	0	2397044736	43	4105
2026-01-17 03:27:24.69	97.03	51.87	-36.8	-38.1	17.2	0.00e+00	0	61	0	2426404864	43	4356
2026-01-17 03:27:28.73	99.78	51.92	-36.6	-37.8	17.5	0.00e+00	0	61	0	2455764992	43	4241
2026-01-17 03:27:32.77	102.54	51.90	-36.2	-37.4	17.9	0.00e+00	0	61	0	2485125120	43	4017
2026-01-17 03:27:36.82	105.30	51.81	-36.8	-38.1	17.2	0.00e+00	0	61	0	2514485248	43	4389
2026-01-17 03:27:40.86	108.03	51.66	-37.4	-38.7	16.7	0.00e+00	0	61	0	2543845376	44	4436
2026-01-17 03:27:44.90	110.72	51.44	-36.5	-37.7	17.8	0.00e+00	0	61	0	2572156928	44	3933
2026-01-17 03:27:48.94	113.37	51.15	-36.3	-37.5	17.7	0.00e+00	0	61	0	2601517056	43	4071
2026-01-17 03:27:52.98	115.97	50.81	-36.6	-37.8	17.5	0.00e+00	0	61	0	2630877184	43	4221
2026-01-17 03:27:57.02	118.50	50.41	-36.7	-38.0	17.3	0.00e+00	0	61	0	2660237312	43	4324
2026-01-17 03:28:01.06	120.97	49.96	-36.2	-37.4	17.9	0.00e+00	0	61	0	2689597440	43	4030
2026-01-17 03:28:05.10	123.36	49.46	-36.6	-37.8	17.3	0.00e+00	0	61	0	2717908992	43	4225
2026-01-17 03:28:09.14	125.67	48.92	-36.5	-37.8	17.5	0.00e+00	0	61	0	2747269120	43	4199
2026-01-17 03:28:13.18	127.90	48.33	-36.5	-37.7	17.4	0.00e+00	0	61	0	2776629248	43	4166
2026-01-17 03:28:17.22	130.04	47.71	-36.0	-37.2	18.1	0.00e+00	0	61	0	2805989376	43	3926
2026-01-17 03:28:21.26	132.10	47.06	-36.2	-37.4	17.9	0.00e+00	0	61	0	2835349504	42	4288
2026-01-17 03:28:25.30	134.07	46.38	-36.0	-37.2	18.1	0.00e+00	0	61	0	2863661056	42	4164
2026-01-17 03:28:29.34	135.96	45.68	-35.8	-37.0	18.3	0.00e+00	0	61	0	2893021184	42	4066
2026-01-17 03:28:33.39	137.77	44.96	-36.0	-37.2	18.1	0.00e+00	0	61	0	2922381312	42	4154
2026-01-17 03:28:37.43	139.50	44.22	-35.9	-37.1	18.2	0.00e+00	0	61	0	2951741440	42	4102
2026-01-17 03:28:41.47	141.15	43.47	-35.3	-36.4	18.8	0.00e+00	0	61	0	2981101568	41	4005
2026-01-17 03:28:45.51	142.72	42.71	-35.6	-36.8	18.4	0.00e+00	0	61	0	3010461696	41	4201
2026-01-17 03:28:49.55	144.22	41.94	-36.1	-37.3	17.9	0.00e+00	0	61	0	3038773248	41	4456
2026-01-17 03:28:53.59	145.66	41.17	-35.4	-36.4	18.7	0.00e+00	0	61	0	3068133376	41	4046
2026-01-17 03:28:57.63	147.02	40.39	-35.6	-36.7	18.3	0.00e+00	0	61	0	3097493504	41	4179
2026-01-17 03:29:01.67	148.33	39.62	-35.8	-37.0	18.2	0.00e+00	0	61	0	3126853632	41	4304
2026-01-17 03:29:05.71	149.57	38.85	-35.4	-36.5	18.7	0.00e+00	0	61	0	3156213760	41	4069
2026-01-17 03:29:09.75	150.76	38.08	-35.5	-36.7	18.5	0.00e+00	0	61	0	3184525312	41	4158
2026-01-17 03:29:13.79	151.89	37.31	-35.4	-36.5	18.6	0.00e+00	0	61	0	3213885440	41	4084
2026-01-17 03:29:17.83	152.97	36.55	-35.6	-36.7	18.4	0.00e+00	0	61	0	3243245568	41	4188
2026-01-17 03:29:21.87	154.01	35.80	-35.2	-36.3	18.8	0.00e+00	0	61	0	3272605696	41	3991
2026-01-17 03:29:25.91	155.00	35.05	-35.0	-36.1	18.9	0.00e+00	0	61	0	3301965824	41	3913
2026-01-17 03:29:29.95	155.94	34.32	-35.3	-36.5	18.6	0.00e+00	0	61	0	3330277376	41	4068
2026-01-17 03:29:33.99	156.85	33.59	-35.3	-36.4	18.7	0.00e+00	0	61	0	3359637504	41	4021
2026-01-17 03:29:38.03	157.71	32.87	-34.7	-35.7	19.3	0.00e+00	0	61	0	3388997632	40	3954
2026-01-17 03:29:42.07	158.54	32.17	-34.8	-35.9	19.1	0.00e+00	0	61	0	3418357760	40	4034
2026-01-17 03:29:46.11	159.34	31.47	-35.5	-36.6	18.4	0.00e+00	0	61	0	3447717888	40	4383
2026-01-17 03:29:50.15	160.10	30.78	-35.8	-37.0	18.1	0.00e+00	0	61	0	3476029440	41	4310
2026-01-17 03:29:54.19	160.84	30.11	-35.4	-36.5	18.5	0.00e+00	0	61	0	3505389568	41	4066
2026-01-17 03:29:58.23	161.54	29.44	-35.1	-36.2	18.7	0.00e+00	0	61	0	3534749696	41	3947
2026-01-17 03:30:02.26	162.21	28.79	-35.2	-36.3	18.7	0.00e+00	0	61	0	3564109824	41	3974
2026-01-17 03:30:06.30	162.86	28.15	-35.4	-36.5	18.5	0.00e+00	0	61	0	3593469952	41	4091
2026-01-17 03:30:10.34	163.49	27.52	-35.6	-36.8	18.2	0.00e+00	0	61	0	3622830080	41	4229
2026-01-17 03:30:14.39	164.09	26.89	-35.6	-36.8	18.2	0.00e+00	0	61	0	3651141632	41	4197
2026-01-17 03:30:18.42	164.67	26.29	-35.6	-36.7	18.2	0.00e+00	0	61	0	3680501760	41	4181
2026-01-17 03:30:22.46	165.23	25.69	-35.5	-36.7	18.3	0.00e+00	0	61	0	3709861888	41	4152
2026-01-17 03:30:26.50	165.77	25.10	-35.4	-36.6	18.3	0.00e+00	0	61	0	3739222016	41	4110
2026-01-17 03:30:30.54	166.29	24.52	-35.5	-36.7	18.2	0.00e+00	0	61	0	3768582144	41	4149
2026-01-17 03:30:34.58	166.79	23.95	-35.6	-36.7	18.2	0.00e+00	0	61	0	3796893696	41	4185
2026-01-17 03:30:38.63	167.27	23.39	-35.7	-36.9	18.0	0.00e+00	0	61	0	3826253824	41	4260
2026-01-17 03:30:42.66	167.74	22.84	-35.8	-37.1	17.8	0.00e+00	0	61	0	3855613952	41	4353
2026-01-17 03:30:46.70	168.19	22.31	-36.0	-37.3	17.6	0.00e+00	0	61	0	3884974080	41	4459
2026-01-17 03:30:50.75	168.63	21.78	-36.0	-37.2	17.7	0.00e+00	0	61	0	3914334208	41	4428
2026-01-17 03:30:54.79	169.05	21.26	-35.9	-37.1	17.7	0.00e+00	0	61	0	3943694336	41	4389
2026-01-17 03:30:58.83	169.46	20.75	-35.9	-37.2	17.7	0.00e+00	0	61	0	3972005888	41	4396
2026-01-17 03:31:02.87	169.86	20.24	-36.1	-37.4	17.5	0.00e+00	0	61	0	4001366016	41	4494
2026-01-17 03:31:06.91	170.25	19.75	-36.3	-37.6	17.3	0.00e+00	0	61	0	4030726144	42	4347
2026-01-17 03:31:10.95	170.62	19.27	-36.4	-37.7	17.1	0.00e+00	0	61	0	4060086272	42	4430
2026-01-17 03:31:14.99	170.98	18.79	-36.5	-37.8	17.0	0.00e+00	0	61	0	4089446400	42	4479
2026-01-17 03:31:19.03	171.34	18.32	-36.6	-37.9	16.9	0.00e+00	0	61	0	4117757952	42	4530
2026-01-17 03:31:23.07	171.68	17.86	-36.6	-37.9	16.9	0.00e+00	0	61	0	4147118080	42	4529
2026-01-17 03:31:27.11	172.01	17.41	-36.6	-37.9	16.8	0.00e+00	0	61	0	4176478208	42	4530
2026-01-17 03:31:31.15	172.33	16.96	-36.7	-38.0	16.7	0.00e+00	0	61	0	4205838336	42	4598
2026-01-17 03:31:35.18	172.64	16.52	-36.8	-38.1	16.6	0.00e+00	0	61	0	4235198464	43	4386
2026-01-17 03:31:39.23	172.95	16.09	-36.9	-38.4	16.4	0.00e+00	0	61	0	4264558592	43	4494
2026-01-17 03:31:43.27	173.25	15.67	-37.1	-38.5	16.2	0.00e+00	0	61	0	4292870144	43	4573
2026-01-17 03:31:47.30	173.54	15.25	-37.1	-38.6	16.1	0.00e+00	0	61	0	4322230272	43	4621
2026-01-17 03:31:51.34	173.82	14.84	-37.4	-38.9	16.0	0.00e+00	0	61	0	4351590400	44	4505
2026-01-17 03:31:55.37	174.09	14.43	-37.4	-38.9	15.9	0.00e+00	0	61	0	4380950528	44	4526
2026-01-17 03:31:59.41	174.36	14.04	-37.4	-38.9	15.9	0.00e+00	0	61	0	4410310656	44	4509
2026-01-17 03:32:03.45	174.62	13.64	-37.4	-38.9	15.9	0.00e+00	0	61	0	4438622208	44	4504
2026-01-17 03:32:07.49	174.87	13.26	-37.6	-39.1	15.6	0.00e+00	0	61	0	4467982336	44	4628
2026-01-17 03:32:11.53	175.12	12.87	-37.7	-39.2	15.5	0.00e+00	0	61	0	4497342464	45	4432
2026-01-17 03:32:15.57	175.36	12.50	-37.8	-39.4	15.2	0.00e+00	0	61	0	4526702592	45	4545
2026-01-17 03:32:19.61	175.60	12.13	-38.0	-39.7	14.9	0.00e+00	0	61	0	4556062720	45	4654
2026-01-17 03:32:23.65	175.83	11.76	-38.1	-39.8	14.8	0.00e+00	0	61	0	4584374272	45	4723
2026-01-17 03:32:27.69	176.06	11.40	-38.2	-39.9	14.6	0.00e+00	0	61	0	4613734400	45	4784
2026-01-17 03:32:31.73	176.28	11.04	-38.3	-40.1	14.4	0.00e+00	0	61	0	4643094528	46	4610
2026-01-17 03:32:35.77	176.49	10.69	-38.3	-40.1	14.3	1.10e-06	0	61	0	4672454656	46	4646
2026-01-17 03:32:39.81	176.70	10.35	-38.4	-40.2	14.2	1.10e-06	0	61	0	4701814784	46	4656
2026-01-17 03:32:43.85	176.91	10.00	-38.4	-40.3	14.0	0.00e+00	0	61	0	4730126336	46	4719
2026-01-17 03:32:47.89	177.11	9.67	-38.5	-40.5	13.7	9.10e-06	0	61	0	4759486464	46	4824
2026-01-17 03:32:51.93	177.31	9.33	-38.4	-40.3	13.8	9.10e-06	0	61	0	4788846592	46	4739
2026-01-17 03:32:55.96	177.50	9.01	-38.5	-40.4	13.5	6.80e-06	0	61	0	4818206720	46	4798
2026-01-17 03:33:00.00	177.69	8.68	-38.6	-40.6	13.3	1.60e-05	0	61	0	4846518272	46	4900
2026-01-17 03:33:04.04	177.87	8.36	-38.6	-40.7	13.1	3.54e-05	0	61	0	4875878400	46	4945
2026-01-17 03:33:08.07	178.05	8.04	-38.7	-40.9	12.8	6.98e-05	0	61	0	4905238528	47	4760
2026-01-17 03:33:12.12	178.23	7.73	-45.4	-56.7	3.8	8.45e-01	0	61	104	4911529984	60	14012
2026-01-17 03:33:16.17	178.41	7.42	-45.7	-57.1	3.8	8.45e-01	0	61	104	4911529984	60	14651
2026-01-17 03:33:20.21	178.58	7.11	-45.7	-57.1	3.8	8.46e-01	0	62	104	4911529984	61	13824
2026-01-17 03:33:24.25	178.74	6.81	-45.7	-57.1	3.8	8.47e-01	0	61	104	4911529984	61	13757
2026-01-17 03:33:28.29	178.91	6.51	-45.7	-57.0	3.8	8.45e-01	0	61	104	4911529984	61	13663
2026-01-17 03:33:32.33	179.07	6.21	-45.7	-57.0	3.8	8.46e-01	0	61	104	4911529984	61	13593
2026-01-17 03:33:36.37	179.23	5.92	-45.6	-56.9	3.8	8.45e-01	0	61	104	4911529984	61	13540
2026-01-17 03:33:40.41	179.38	5.63	-45.6	-57.0	3.8	8.47e-01	0	61	104	4911529984	61	13662
2026-01-17 03:33:44.46	179.54	5.34	-45.6	-56.9	3.8	8.46e-01	0	61	104	4911529984	61	13565
2026-01-17 03:33:48.50	179.69	5.06	-45.6	-57.0	3.8	8.46e-01	0	61	104	4911529984	61	13613
2026-01-17 03:33:52.55	179.83	4.78	-45.6	-56.9	3.8	8.48e-01	0	62	104	4911529984	61	13515
2026-01-17 03:33:56.59	179.98	4.50	-45.6	-56.9	3.8	8.46e-01	0	61	104	4911529984	61	13541
2026-01-17 03:34:00.63	180.12	4.22	-45.6	-56.9	3.8	8.45e-01	0	61	104	4911529984	61	13513
2026-01-17 03:34:04.68	180.26	3.95	-45.6	-56.9	3.8	8.47e-01	0	61	104	4911529984	61	13523
2026-01-17 03:34:08.72	180.40	3.68	-45.6	-56.9	3.8	8.46e-01	0	62	104	4911529984	61	13508
2026-01-17 03:34:12.76	180.53	3.41	-45.6	-56.9	3.8	8.47e-01	0	62	104	4911529984	61	13518
2026-01-17 03:34:16.81	180.66	3.14	-45.6	-56.9	3.8	8.45e-01	0	62	104	4911529984	61	13480
2026-01-17 03:34:20.85	180.79	2.88	-45.6	-56.9	3.8	8.46e-01	0	62	104	4911529984	61	13461
2026-01-17 03:34:24.89	180.92	2.62	-45.6	-56.9	3.8	8.46e-01	0	61	104	4911529984	61	13443
2026-01-17 03:34:28.93	181.05	2.36	-45.6	-56.9	3.8	8.47e-01	0	62	104	4911529984	61	13507
2026-01-17 03:34:32.98	181.17	2.11	-45.6	-56.9	3.8	8.45e-01	0	62	104	4911529984	61	13484

#Closed at: 2026-01-17 03:34:34
#Recorded file [4911 MB]: D:/lorett/data/31039_260117_062020.dat