passes_logs/2026/01/16/R2M6_AANII_01/R2M6_AANII_01__20260116_033958_FENGYUN_3E_rec.log

#Pass ID: 20260116_033958_FENGYUN 3E
#Satellite: FENGYUN 3E
#Configuration: FENGYUN 3E
#almurnet v.1.7.20240730
#Start time: 2026-01-16 03:47:00

#Version: 2.2.20231116
#Station: R2M6_AANII_01
#Location: 30.233357 lon 59.946436 lat
#TLE: 1 49008U 21062A   26015.49897766  .00000206  00000+0  11779-3 0  9997
#TLE: 2 49008  98.7486  20.6219 0002049 135.8566 224.2775 14.19885576234916

#Time	Az	El	Level	Level2	SNR	BER	BlckErr	Temp	State	Recorded	gain1	gain2
2026-01-16 03:47:00.54	129.93	35.95	-34.0	-45.0	3.8	8.46e-01	0	44	0	0	28	12846
2026-01-16 03:47:02.54	130.63	35.71	-34.3	-43.5	3.8	8.47e-01	0	44	104	0	29	10401
2026-01-16 03:47:04.54	131.31	35.46	-34.3	-43.5	3.8	8.47e-01	0	44	104	0	29	10372
2026-01-16 03:47:06.54	131.99	35.20	-34.3	-43.4	3.8	8.46e-01	0	44	104	0	29	10303
2026-01-16 03:47:08.54	132.65	34.95	-34.2	-43.4	3.8	8.46e-01	0	44	104	0	29	10310
2026-01-16 03:47:10.55	133.31	34.69	-34.2	-43.3	3.8	8.46e-01	0	44	104	0	29	10256
2026-01-16 03:47:12.55	133.96	34.43	-34.2	-43.3	3.8	8.46e-01	0	44	104	0	29	10280
2026-01-16 03:47:14.55	134.59	34.16	-34.2	-43.3	3.8	8.46e-01	0	44	104	0	29	10255
2026-01-16 03:47:16.54	135.21	33.90	-34.2	-43.3	3.8	8.46e-01	0	44	104	0	29	10292
2026-01-16 03:47:18.54	135.83	33.64	-34.2	-43.3	3.8	8.45e-01	0	44	104	0	29	10287
2026-01-16 03:47:20.54	136.44	33.37	-34.2	-43.3	3.8	8.46e-01	0	44	104	0	29	10279
2026-01-16 03:47:22.54	137.03	33.11	-34.2	-43.3	3.8	8.46e-01	0	44	104	0	29	10253
2026-01-16 03:47:24.54	137.62	32.84	-34.0	-43.6	3.8	8.46e-01	0	44	104	0	28	10796
2026-01-16 03:47:26.55	138.20	32.57	-34.0	-43.5	3.8	8.47e-01	0	44	104	0	28	10671
2026-01-16 03:47:28.55	138.77	32.30	-33.9	-43.1	3.8	8.46e-01	0	44	104	0	28	10454
2026-01-16 03:47:30.55	139.32	32.03	-33.8	-42.9	3.8	8.47e-01	0	44	104	0	28	10280
2026-01-16 03:47:32.56	139.88	31.76	-33.6	-42.3	3.8	8.46e-01	0	44	104	0	27	9793
2026-01-16 03:47:34.56	140.42	31.49	-33.7	-43.1	3.8	8.46e-01	0	44	104	0	27	10673
2026-01-16 03:47:36.56	140.95	31.22	-33.5	-41.8	3.8	8.46e-01	0	44	104	0	27	9415
2026-01-16 03:47:38.57	141.47	30.94	-33.2	-40.0	4.0	8.43e-01	0	44	104	0	27	7814
2026-01-16 03:47:40.58	141.99	30.67	-32.7	-37.4	4.9	8.12e-01	0	44	104	0	26	6194
2026-01-16 03:47:42.58	142.50	30.40	-31.7	-34.9	6.7	2.33e-01	0	44	0	7340032	24	5181
2026-01-16 03:47:44.57	142.99	30.13	-31.6	-34.5	6.9	1.65e-01	0	44	0	22020096	24	5019
2026-01-16 03:47:46.58	143.48	29.86	-32.4	-37.6	5.2	7.24e-01	0	44	0	32505856	24	6529
2026-01-16 03:47:48.57	143.96	29.59	-29.8	-31.4	10.2	2.61e-02	0	44	0	42991616	20	4328
2026-01-16 03:47:50.56	144.44	29.32	-25.1	-25.0	16.3	0.00e+00	0	44	0	57671680	11	3596
2026-01-16 03:47:52.57	144.90	29.05	-23.6	-23.4	18.0	0.00e+00	0	44	0	71303168	8	3524
2026-01-16 03:47:54.57	145.36	28.78	-25.6	-26.7	15.8	0.00e+00	0	44	0	85983232	10	4093
2026-01-16 03:47:56.58	145.82	28.51	-26.3	-26.6	14.9	0.00e+00	0	44	0	100663296	13	3764
2026-01-16 03:47:58.59	146.26	28.24	-26.2	-27.0	15.0	0.00e+00	0	44	0	115343360	12	3946
2026-01-16 03:48:00.59	146.70	27.98	-25.2	-25.4	16.2	0.00e+00	0	44	0	130023424	11	3662
2026-01-16 03:48:02.60	147.13	27.71	-25.4	-25.9	15.9	0.00e+00	0	44	0	143654912	11	3781
2026-01-16 03:48:04.60	147.55	27.45	-25.3	-25.5	16.2	1.10e-06	0	44	0	158334976	11	3692
2026-01-16 03:48:06.61	147.97	27.18	-25.1	-25.1	16.3	0.00e+00	0	44	0	173015040	11	3615
2026-01-16 03:48:08.61	148.38	26.92	-24.9	-24.7	16.6	0.00e+00	0	44	0	187695104	11	3527
2026-01-16 03:48:10.62	148.79	26.66	-24.1	-24.0	17.4	0.00e+00	0	44	0	202375168	9	3567
2026-01-16 03:48:12.62	149.18	26.40	-24.0	-24.3	17.5	0.00e+00	0	44	0	216006656	8	3728
2026-01-16 03:48:14.62	149.57	26.14	-23.9	-24.2	17.6	0.00e+00	0	44	0	230686720	8	3696
2026-01-16 03:48:16.62	149.96	25.88	-24.0	-24.2	17.6	0.00e+00	0	44	0	245366784	8	3706
2026-01-16 03:48:18.61	150.33	25.62	-23.7	-23.8	17.8	0.00e+00	0	44	0	260046848	8	3612
2026-01-16 03:48:20.62	150.71	25.36	-23.9	-24.2	17.5	0.00e+00	0	44	0	273678336	8	3699
2026-01-16 03:48:22.62	151.07	25.11	-23.8	-24.0	17.7	0.00e+00	0	44	0	288358400	8	3651
2026-01-16 03:48:24.63	151.43	24.86	-23.6	-23.6	17.9	0.00e+00	0	44	0	303038464	8	3569
2026-01-16 03:48:26.62	151.79	24.60	-23.5	-23.2	18.0	0.00e+00	0	44	0	317718528	8	3497
2026-01-16 03:48:28.63	152.14	24.35	-23.6	-23.4	17.9	0.00e+00	0	44	0	331350016	8	3541
2026-01-16 03:48:30.64	152.48	24.10	-23.6	-23.5	17.9	0.00e+00	0	44	0	347078656	8	3550
2026-01-16 03:48:32.65	152.82	23.85	-23.7	-23.6	17.7	0.00e+00	0	44	0	360710144	8	3578
2026-01-16 03:48:34.64	153.16	23.61	-23.7	-23.7	17.7	0.00e+00	0	44	0	375390208	8	3605
2026-01-16 03:48:36.64	153.48	23.36	-23.6	-23.6	17.8	0.00e+00	0	44	0	390070272	8	3567
2026-01-16 03:48:38.64	153.81	23.12	-23.6	-23.5	17.8	0.00e+00	0	44	0	404750336	8	3561
2026-01-16 03:48:40.65	154.13	22.87	-23.6	-23.4	17.9	0.00e+00	0	44	0	418381824	8	3539
2026-01-16 03:48:42.65	154.44	22.63	-23.9	-24.0	17.6	0.00e+00	0	44	0	433061888	8	3666
2026-01-16 03:48:44.65	154.75	22.39	-23.9	-24.2	17.4	0.00e+00	0	44	0	447741952	8	3694
2026-01-16 03:48:46.65	155.06	22.15	-24.0	-24.4	17.4	0.00e+00	0	44	0	462422016	8	3745
2026-01-16 03:48:48.66	155.36	21.92	-24.0	-24.3	17.3	0.00e+00	0	44	0	476053504	8	3737
2026-01-16 03:48:50.65	155.65	21.68	-24.0	-24.2	17.4	0.00e+00	0	44	0	490733568	8	3703
2026-01-16 03:48:52.66	155.94	21.45	-24.1	-24.4	17.3	0.00e+00	0	44	0	505413632	8	3758
2026-01-16 03:48:54.66	156.23	21.21	-23.9	-24.1	17.5	0.00e+00	0	44	0	520093696	8	3688
2026-01-16 03:48:56.67	156.52	20.98	-23.9	-24.1	17.5	0.00e+00	0	44	0	534773760	8	3684
2026-01-16 03:48:58.65	156.79	20.75	-23.8	-24.0	17.5	0.00e+00	0	44	0	548405248	8	3652
2026-01-16 03:49:00.64	157.07	20.53	-23.8	-23.9	17.6	0.00e+00	0	44	0	563085312	8	3641
2026-01-16 03:49:02.62	157.33	20.30	-23.7	-23.8	17.7	0.00e+00	0	44	0	577765376	8	3609
2026-01-16 03:49:04.61	157.60	20.08	-23.9	-24.2	17.4	0.00e+00	0	44	0	591396864	8	3709
2026-01-16 03:49:06.59	157.86	19.85	-24.3	-24.9	17.0	0.00e+00	0	44	0	606076928	8	3870
2026-01-16 03:49:08.59	158.12	19.63	-24.3	-25.0	16.9	0.00e+00	0	44	0	619708416	8	3892
2026-01-16 03:49:10.57	158.37	19.41	-24.3	-25.0	17.0	0.00e+00	0	44	0	634388480	8	3886
2026-01-16 03:49:12.56	158.63	19.19	-24.4	-24.7	16.8	0.00e+00	0	44	0	649068544	9	3723
2026-01-16 03:49:14.55	158.87	18.98	-24.6	-25.2	16.6	0.00e+00	0	44	0	663748608	9	3830
2026-01-16 03:49:16.55	159.12	18.76	-24.3	-24.5	16.9	0.00e+00	0	44	0	678428672	9	3677
2026-01-16 03:49:18.54	159.36	18.55	-24.3	-24.4	17.0	0.00e+00	0	44	0	692060160	9	3648
2026-01-16 03:49:20.52	159.60	18.33	-24.5	-24.8	16.8	0.00e+00	0	44	0	706740224	9	3744
2026-01-16 03:49:22.50	159.83	18.12	-24.3	-24.4	17.0	0.00e+00	0	44	0	721420288	9	3651
2026-01-16 03:49:24.50	160.06	17.91	-24.4	-24.6	16.9	0.00e+00	0	44	0	735051776	9	3692
2026-01-16 03:49:26.50	160.29	17.70	-24.5	-24.8	16.7	0.00e+00	0	45	0	749731840	9	3744
2026-01-16 03:49:28.51	160.52	17.49	-24.4	-24.7	16.7	0.00e+00	0	45	0	764411904	9	3732
2026-01-16 03:49:30.51	160.74	17.28	-24.5	-24.9	16.6	0.00e+00	0	45	0	779091968	9	3776
2026-01-16 03:49:32.51	160.97	17.08	-24.5	-24.9	16.7	0.00e+00	0	45	0	792723456	9	3776
2026-01-16 03:49:34.52	161.18	16.87	-24.4	-24.7	16.7	0.00e+00	0	45	0	807403520	9	3721
2026-01-16 03:49:36.51	161.40	16.67	-24.5	-24.9	16.7	0.00e+00	0	45	0	822083584	9	3773
2026-01-16 03:49:38.51	161.61	16.47	-24.6	-25.0	16.6	0.00e+00	0	45	0	836763648	9	3801
2026-01-16 03:49:40.51	161.82	16.27	-24.7	-25.3	16.4	1.10e-06	0	44	0	850395136	9	3858
2026-01-16 03:49:42.51	162.03	16.07	-24.8	-25.5	16.3	0.00e+00	0	44	0	865075200	9	3918
2026-01-16 03:49:44.51	162.23	15.87	-24.8	-25.6	16.2	0.00e+00	0	45	0	879755264	9	3967
2026-01-16 03:49:46.51	162.43	15.67	-24.8	-25.7	16.1	3.40e-06	0	45	0	894435328	9	3982
2026-01-16 03:49:48.51	162.63	15.48	-25.0	-26.2	15.9	0.00e+00	0	45	0	909115392	9	4096
2026-01-16 03:49:50.50	162.83	15.28	-25.1	-25.8	15.8	0.00e+00	0	45	0	922746880	10	3914
2026-01-16 03:49:52.50	163.02	15.09	-25.1	-25.8	15.8	5.70e-06	0	45	0	937426944	10	3899
2026-01-16 03:49:54.49	163.21	14.90	-25.3	-26.3	15.5	0.00e+00	0	45	0	952107008	10	4017
2026-01-16 03:49:56.50	163.40	14.71	-25.0	-25.4	16.0	0.00e+00	0	45	0	966787072	10	3790
2026-01-16 03:49:58.50	163.59	14.52	-25.2	-25.9	15.8	4.50e-06	0	45	0	980418560	10	3896
2026-01-16 03:50:00.50	163.78	14.33	-25.1	-25.6	15.2	0.00e+00	0	45	0	995098624	10	3831
2026-01-16 03:50:02.50	163.96	14.14	-25.3	-26.1	15.7	0.00e+00	0	45	0	1009778688	10	3952
2026-01-16 03:50:04.50	164.14	13.96	-25.3	-26.2	15.6	4.50e-06	0	45	0	1024458752	10	3964
2026-01-16 03:50:06.51	164.32	13.77	-25.3	-26.0	15.7	0.00e+00	0	45	0	1038090240	10	3939
2026-01-16 03:50:08.52	164.50	13.59	-25.4	-26.3	15.5	0.00e+00	0	45	0	1052770304	10	4011
2026-01-16 03:50:10.53	164.67	13.40	-25.5	-26.5	15.4	0.00e+00	0	45	0	1067450368	10	4066
2026-01-16 03:50:12.53	164.84	13.22	-25.5	-26.5	15.4	0.00e+00	0	45	0	1082130432	10	4064
2026-01-16 03:50:14.53	165.01	13.04	-25.5	-26.1	15.4	0.00e+00	0	45	0	1095761920	11	3847
2026-01-16 03:50:16.53	165.18	12.86	-25.5	-26.1	15.4	0.00e+00	0	45	0	1110441984	11	3848
2026-01-16 03:50:18.53	165.35	12.68	-25.6	-26.7	15.2	2.28e-04	0	45	0	1125122048	10	4128
2026-01-16 03:50:20.53	165.51	12.51	-25.6	-26.3	15.2	1.56e-04	0	45	0	1139802112	11	3916
2026-01-16 03:50:22.53	165.67	12.33	-25.6	-26.3	15.2	0.00e+00	0	44	0	1154482176	11	3909
2026-01-16 03:50:24.54	165.84	12.16	-25.6	-26.4	15.1	1.10e-06	0	45	0	1168113664	11	3948
2026-01-16 03:50:26.54	165.99	11.98	-25.6	-26.4	15.1	2.29e-04	0	45	0	1182793728	11	3937
2026-01-16 03:50:28.55	166.15	11.81	-25.6	-25.9	15.0	0.00e+00	0	45	0	1197473792	12	3712
2026-01-16 03:50:30.56	166.31	11.64	-25.8	-26.8	14.9	3.87e-04	0	45	0	1212153856	11	4034
2026-01-16 03:50:32.57	166.46	11.47	-25.8	-26.8	14.9	3.95e-04	0	45	0	1226833920	11	4029
2026-01-16 03:50:34.57	166.61	11.30	-25.8	-26.7	14.9	0.00e+00	0	45	0	1241513984	11	3999
2026-01-16 03:50:36.57	166.76	11.13	-25.8	-26.7	14.9	3.73e-04	0	45	0	1255145472	11	4013
2026-01-16 03:50:38.58	166.91	10.96	-25.9	-26.9	14.7	3.23e-04	0	45	0	1269825536	11	4069
2026-01-16 03:50:40.58	167.06	10.79	-25.8	-26.2	14.8	0.00e+00	0	45	0	1284505600	12	3784
2026-01-16 03:50:42.59	167.21	10.63	-26.1	-27.4	14.5	3.63e-04	0	45	0	1299185664	11	4187
2026-01-16 03:50:44.59	167.35	10.46	-25.9	-26.4	14.7	0.00e+00	0	45	0	1313865728	12	3841
2026-01-16 03:50:46.59	167.49	10.30	-26.1	-26.9	14.4	0.00e+00	0	45	0	1327497216	12	3946
2026-01-16 03:50:48.60	167.63	10.13	-26.2	-27.1	14.2	0.00e+00	0	45	0	1342177280	12	4018
2026-01-16 03:50:50.61	167.77	9.97	-26.2	-27.1	14.2	4.39e-04	0	45	0	1356857344	12	4019
2026-01-16 03:50:52.62	167.91	9.81	-26.2	-27.2	14.2	0.00e+00	0	45	0	1371537408	12	4046
2026-01-16 03:50:54.62	168.05	9.65	-26.4	-27.7	13.9	1.10e-06	0	45	0	1386217472	12	4177
2026-01-16 03:50:56.63	168.18	9.49	-26.3	-27.5	14.0	3.40e-06	0	45	0	1399848960	12	4109
2026-01-16 03:50:58.63	168.32	9.33	-26.4	-27.7	13.8	6.80e-06	0	45	0	1414529024	12	4169
2026-01-16 03:51:00.63	168.45	9.17	-26.5	-27.5	13.7	8.00e-06	0	45	0	1429209088	13	4025
2026-01-16 03:51:02.64	168.58	9.02	-26.6	-27.7	13.5	2.20e-06	0	45	0	1443889152	13	4085
2026-01-16 03:51:04.63	168.71	8.86	-26.6	-27.7	13.5	6.80e-06	0	45	0	1457520640	13	4094
2026-01-16 03:51:06.64	168.84	8.71	-26.4	-27.3	13.7	8.00e-06	0	45	0	1473249280	13	3967
2026-01-16 03:51:08.65	168.97	8.55	-26.7	-27.4	13.3	1.02e-05	0	45	0	1486880768	14	3915
2026-01-16 03:51:10.65	169.09	8.40	-26.6	-27.7	13.4	6.80e-06	0	45	0	1501560832	13	4097
2026-01-16 03:51:12.66	169.22	8.25	-26.8	-28.1	13.2	1.94e-05	0	45	0	1516240896	13	4189
2026-01-16 03:51:14.66	169.34	8.09	-26.6	-27.6	13.5	8.00e-06	0	45	0	1530920960	13	4066
2026-01-16 03:51:16.67	169.46	7.94	-26.8	-28.1	13.2	2.51e-05	0	45	0	1544552448	13	4187
2026-01-16 03:51:18.66	169.58	7.79	-26.6	-27.6	13.4	1.71e-05	0	45	0	1559232512	13	4063
2026-01-16 03:51:20.66	169.70	7.64	-26.5	-26.8	13.6	2.05e-05	0	45	0	1573912576	14	3760
2026-01-16 03:51:22.67	169.82	7.50	-26.8	-27.5	13.2	2.40e-05	0	45	0	1588592640	14	3934
2026-01-16 03:51:24.68	169.94	7.35	-26.9	-27.8	13.0	5.26e-05	0	45	0	1602224128	14	4004
2026-01-16 03:51:26.68	170.06	7.20	-26.9	-28.3	13.0	3.43e-05	0	45	0	1616904192	13	4249
2026-01-16 03:51:28.69	170.17	7.05	-32.5	-41.4	3.8	6.28e-01	0	45	104	1629487104	24	10117
2026-01-16 03:51:30.68	170.29	6.91	-33.3	-42.8	3.8	8.47e-01	0	45	104	1629487104	26	10823

#Closed at: 2026-01-16 03:51:31
#Recorded file [1629 MB]: D:/data/31010_260116_064741.dat