passes_logs/2026/01/16/R2M6_AANII_01/R2M6_AANII_01__20260116_090933_SUOMI_NPP_rec.log

#Pass ID: 20260116_090933_SUOMI NPP
#Satellite: SUOMI NPP
#Configuration: NPP
#almurnet v.1.7.20240730
#Start time: 2026-01-16 09:09:33

#Version: 2.2.20231116
#Station: R2M6_AANII_01
#Location: 30.233357 lon 59.946436 lat
#TLE: 1 37849U 11061A   26015.52691075  .00000052  00000+0  45753-4 0  9993
#TLE: 2 37849  98.7811 317.5709 0002448  62.7632 297.3794 14.19525354736784

#Time	Az	El	Level	Level2	SNR	BER	BlckErr	Temp	State	Recorded	gain1	gain2
2026-01-16 09:09:33.00	122.06	6.98	-32.3	-37.8	4.5	1.39e+00	0	41	0	0	26	6811
2026-01-16 09:09:36.02	121.88	7.20	-32.1	-36.9	6.8	1.85e-01	0	41	0	1048576	25	6249
2026-01-16 09:09:39.04	121.70	7.42	-32.0	-36.5	7.0	1.60e-01	0	41	0	7340032	25	6068
2026-01-16 09:09:42.04	121.51	7.64	-31.9	-35.8	7.6	1.30e-01	0	41	0	12582912	25	5662
2026-01-16 09:09:45.04	121.32	7.86	-31.5	-34.6	9.1	2.66e-02	0	41	0	17825792	24	5170
2026-01-16 09:09:48.05	121.12	8.09	-31.5	-34.5	9.2	1.93e-02	0	41	0	24117248	24	5103
2026-01-16 09:09:51.06	120.93	8.31	-31.4	-34.2	9.4	1.39e-02	0	41	0	29360128	24	4977
2026-01-16 09:09:54.07	120.73	8.54	-31.5	-34.4	9.3	1.53e-02	0	41	0	35651584	24	5027
2026-01-16 09:09:57.07	120.52	8.77	-31.1	-33.5	10.4	8.84e-03	0	41	0	40894464	23	4742
2026-01-16 09:10:00.08	120.32	9.00	-30.7	-32.8	11.4	1.15e-03	0	42	0	46137344	22	4569
2026-01-16 09:10:03.09	120.11	9.23	-31.1	-33.9	10.6	3.73e-03	0	42	0	52428800	22	4961
2026-01-16 09:10:06.10	119.89	9.46	-31.1	-34.1	10.4	2.96e-03	0	42	0	57671680	22	5071
2026-01-16 09:10:09.11	119.67	9.70	-31.1	-34.0	10.6	2.90e-03	0	42	0	63963136	22	5025
2026-01-16 09:10:12.12	119.45	9.94	-30.9	-33.2	11.1	1.14e-03	0	42	0	69206016	22	4724
2026-01-16 09:10:15.12	119.23	10.18	-31.1	-33.8	10.8	2.11e-03	0	42	0	74448896	22	4930
2026-01-16 09:10:18.12	119.00	10.42	-31.2	-34.3	10.3	5.55e-03	0	42	0	80740352	22	5135
2026-01-16 09:10:21.11	118.77	10.66	-31.1	-33.9	10.8	3.10e-03	0	42	0	85983232	22	4964
2026-01-16 09:10:24.13	118.53	10.91	-31.2	-34.0	10.7	2.88e-03	0	42	0	91226112	22	5000
2026-01-16 09:10:27.13	118.29	11.15	-30.8	-32.7	11.6	6.39e-04	0	42	0	97517568	22	4515
2026-01-16 09:10:30.14	118.05	11.40	-30.8	-32.8	11.6	6.92e-04	0	42	0	102760448	22	4530
2026-01-16 09:10:33.14	117.80	11.65	-30.6	-32.2	12.0	2.01e-04	0	42	0	108003328	22	4334
2026-01-16 09:10:36.15	117.54	11.91	-30.6	-32.3	12.1	2.46e-04	0	42	0	114294784	22	4348
2026-01-16 09:10:39.16	117.29	12.16	-30.8	-32.9	11.6	9.79e-04	0	42	0	119537664	22	4555
2026-01-16 09:10:42.17	117.02	12.42	-30.8	-32.8	11.8	4.42e-04	0	42	0	125829120	22	4515
2026-01-16 09:10:45.17	116.76	12.68	-31.1	-33.7	11.0	1.90e-03	0	42	0	131072000	22	4870
2026-01-16 09:10:48.17	116.48	12.94	-31.1	-33.8	11.0	3.28e-03	0	43	0	136314880	22	4886
2026-01-16 09:10:51.18	116.21	13.20	-31.1	-33.8	11.1	1.57e-03	0	42	0	142606336	22	4888
2026-01-16 09:10:54.19	115.92	13.47	-30.7	-32.5	12.0	4.44e-04	0	43	0	147849216	22	4412
2026-01-16 09:10:57.18	115.64	13.74	-30.8	-32.8	11.8	3.56e-04	0	43	0	153092096	22	4535
2026-01-16 09:11:00.19	115.34	14.01	-30.9	-32.9	11.8	6.51e-04	0	43	0	159383552	22	4555
2026-01-16 09:11:03.18	115.04	14.28	-30.5	-31.7	12.6	7.40e-05	0	43	0	164626432	22	4146
2026-01-16 09:11:06.20	114.74	14.56	-30.5	-31.6	12.7	1.11e-04	0	43	0	170917888	22	4127
2026-01-16 09:11:09.20	114.43	14.83	-30.3	-31.2	13.0	7.70e-05	0	43	0	176160768	22	3989
2026-01-16 09:11:12.19	114.11	15.11	-29.9	-30.6	13.7	9.90e-06	0	43	0	181403648	21	3911
2026-01-16 09:11:15.20	113.79	15.39	-30.1	-31.1	13.4	6.80e-06	0	43	0	187695104	21	4038
2026-01-16 09:11:18.20	113.46	15.68	-30.0	-30.8	13.6	9.10e-06	0	43	0	192937984	21	3951
2026-01-16 09:11:21.21	113.13	15.96	-29.9	-31.2	13.7	5.30e-06	0	43	0	198180864	20	4153
2026-01-16 09:11:24.21	112.78	16.25	-30.2	-32.0	13.2	2.44e-05	0	43	0	204472320	20	4402
2026-01-16 09:11:27.22	112.44	16.54	-30.2	-32.0	13.2	2.05e-05	0	43	0	209715200	20	4400
2026-01-16 09:11:30.22	112.08	16.84	-30.2	-32.0	13.2	1.90e-05	0	43	0	216006656	20	4388
2026-01-16 09:11:33.23	111.72	17.13	-30.4	-32.3	13.0	3.20e-05	0	43	0	221249536	20	4495
2026-01-16 09:11:36.23	111.35	17.43	-30.1	-31.5	13.6	1.22e-05	0	43	0	226492416	20	4237
2026-01-16 09:11:39.23	110.97	17.73	-30.2	-31.9	13.3	1.14e-05	0	43	0	232783872	20	4382
2026-01-16 09:11:42.23	110.58	18.03	-30.3	-32.1	13.2	2.36e-05	0	43	0	238026752	20	4445
2026-01-16 09:11:45.23	110.19	18.34	-30.5	-32.3	12.8	4.57e-05	0	43	0	243269632	21	4409
2026-01-16 09:11:48.23	109.79	18.65	-30.5	-32.0	12.9	3.50e-05	0	43	0	249561088	21	4319
2026-01-16 09:11:51.24	109.38	18.96	-30.7	-32.6	12.6	8.23e-05	0	43	0	254803968	21	4502
2026-01-16 09:11:54.24	108.96	19.27	-30.7	-32.6	12.6	8.01e-05	0	43	0	261095424	21	4499
2026-01-16 09:11:57.25	108.53	19.59	-30.6	-32.3	12.8	5.64e-05	0	43	0	266338304	21	4398
2026-01-16 09:12:00.24	108.10	19.90	-30.9	-32.8	12.2	2.49e-04	0	43	0	271581184	22	4473
2026-01-16 09:12:03.23	107.66	20.22	-30.7	-32.2	12.6	1.33e-04	0	43	0	277872640	22	4278
2026-01-16 09:12:06.25	107.20	20.54	-30.7	-32.1	12.7	7.24e-05	0	43	0	283115520	22	4230
2026-01-16 09:12:09.25	106.73	20.87	-30.5	-31.4	13.2	2.05e-05	0	43	0	288358400	22	4022
2026-01-16 09:12:12.26	106.26	21.19	-30.7	-32.0	12.8	2.97e-05	0	43	0	294649856	22	4199
2026-01-16 09:12:15.26	105.77	21.52	-30.5	-31.4	13.2	3.12e-05	0	43	0	299892736	22	4021
2026-01-16 09:12:18.27	105.28	21.85	-30.6	-32.3	13.0	8.30e-06	0	43	0	306184192	21	4382
2026-01-16 09:12:21.27	104.77	22.18	-30.7	-32.6	12.6	1.23e-04	0	43	0	311427072	21	4514
2026-01-16 09:12:24.28	104.25	22.52	-30.6	-32.4	12.9	2.82e-05	0	43	0	316669952	21	4423
2026-01-16 09:12:27.29	103.72	22.85	-31.1	-33.4	11.8	3.19e-04	0	43	0	322961408	22	4687
2026-01-16 09:12:30.29	103.18	23.19	-30.9	-32.8	12.3	1.89e-04	0	43	0	328204288	22	4456
2026-01-16 09:12:33.28	102.63	23.53	-31.8	-35.0	10.3	2.36e-03	0	43	0	333447168	23	5224
2026-01-16 09:12:36.29	102.06	23.87	-31.5	-34.3	10.9	2.72e-03	0	43	0	339738624	23	4920
2026-01-16 09:12:39.29	101.49	24.21	-31.7	-34.7	10.6	3.78e-03	0	43	0	344981504	23	5112
2026-01-16 09:12:42.28	100.90	24.55	-31.8	-35.0	10.4	2.45e-03	0	43	0	350224384	23	5233
2026-01-16 09:12:45.28	100.30	24.90	-31.2	-33.1	11.8	6.15e-04	0	43	0	356515840	23	4475
2026-01-16 09:12:48.28	99.68	25.24	-31.1	-32.9	11.9	3.65e-04	0	43	0	361758720	23	4430
2026-01-16 09:12:51.27	99.05	25.58	-31.1	-32.8	12.1	3.00e-04	0	43	0	368050176	23	4384
2026-01-16 09:12:54.26	98.41	25.93	-31.4	-33.9	11.3	8.03e-04	0	43	0	373293056	23	4766
2026-01-16 09:12:57.27	97.75	26.28	-31.3	-33.4	11.7	5.91e-04	0	43	0	378535936	23	4585
2026-01-16 09:13:00.27	97.08	26.62	-31.3	-33.5	11.6	7.49e-04	0	43	0	384827392	23	4619
2026-01-16 09:13:03.27	96.39	26.97	-31.2	-32.9	12.0	2.12e-04	0	43	0	390070272	23	4424
2026-01-16 09:13:06.27	95.69	27.32	-30.8	-32.3	12.7	1.72e-04	0	43	0	395313152	22	4309
2026-01-16 09:13:09.27	94.97	27.66	-30.9	-32.6	12.6	3.96e-05	0	43	0	401604608	22	4405
2026-01-16 09:13:12.29	94.23	28.01	-31.4	-33.7	11.6	9.38e-04	0	43	0	406847488	23	4681
2026-01-16 09:13:15.31	93.47	28.35	-31.3	-33.2	11.9	4.86e-04	0	43	0	413138944	23	4495
2026-01-16 09:13:18.31	92.71	28.70	-31.1	-32.6	12.3	2.55e-04	0	43	0	418381824	23	4305
2026-01-16 09:13:21.32	91.92	29.04	-30.4	-31.3	13.6	7.60e-06	0	43	0	423624704	22	3979
2026-01-16 09:13:24.32	91.12	29.38	-31.0	-33.1	12.2	1.59e-04	0	43	0	429916160	22	4560
2026-01-16 09:13:27.33	90.30	29.71	-30.9	-32.7	12.6	7.85e-05	0	43	0	435159040	22	4418
2026-01-16 09:13:30.34	89.46	30.05	-31.7	-34.8	10.7	1.77e-03	0	43	0	440401920	23	5122
2026-01-16 09:13:33.33	88.61	30.38	-32.0	-35.3	9.9	7.84e-03	0	43	0	446693376	24	5275
2026-01-16 09:13:36.33	87.74	30.70	-31.6	-34.1	10.9	2.39e-03	0	43	0	451936256	24	4750
2026-01-16 09:13:39.35	86.85	31.03	-31.7	-34.0	10.9	1.87e-03	0	43	0	457179136	24	4741
2026-01-16 09:13:42.35	85.95	31.35	-32.1	-35.7	9.6	1.14e-02	0	43	0	463470592	24	5458
2026-01-16 09:13:45.35	85.02	31.66	-32.1	-35.8	9.6	1.19e-02	0	43	0	468713472	24	5485
2026-01-16 09:13:48.36	84.08	31.97	-32.3	-36.6	9.0	2.31e-02	0	43	0	475004928	24	5912
2026-01-16 09:13:51.35	83.12	32.27	-32.6	-37.3	7.8	4.69e-02	0	43	0	480247808	25	6229
2026-01-16 09:13:54.34	82.15	32.57	-32.5	-36.9	8.3	8.37e-02	0	43	0	485490688	25	5967
2026-01-16 09:13:57.35	81.15	32.86	-32.2	-35.6	9.2	1.82e-02	0	43	0	491782144	25	5347
2026-01-16 09:14:00.36	80.13	33.14	-32.1	-35.2	9.6	1.24e-02	0	43	0	497025024	25	5156
2026-01-16 09:14:03.36	79.10	33.41	-32.3	-35.8	9.2	1.76e-02	0	43	0	502267904	25	5395
2026-01-16 09:14:06.37	78.05	33.68	-31.7	-34.2	10.7	2.80e-03	0	43	0	508559360	24	4828
2026-01-16 09:14:09.38	76.98	33.94	-31.9	-35.1	9.8	1.03e-02	0	43	0	513802240	24	5239
2026-01-16 09:14:12.39	75.90	34.19	-31.9	-35.1	10.0	7.98e-03	0	43	0	520093696	24	5208
2026-01-16 09:14:15.39	74.80	34.43	-32.0	-35.6	9.7	1.09e-02	0	44	0	525336576	24	5406
2026-01-16 09:14:18.40	73.69	34.65	-31.7	-34.3	10.7	5.92e-03	0	43	0	530579456	24	4886
2026-01-16 09:14:21.40	72.56	34.87	-30.7	-32.0	13.0	9.68e-05	0	43	0	536870912	22	4198
2026-01-16 09:14:24.39	71.42	35.07	-30.9	-32.6	12.8	7.24e-05	0	43	0	542113792	22	4389
2026-01-16 09:14:27.39	70.26	35.27	-30.3	-31.0	13.7	1.37e-05	0	43	0	547356672	22	3904
2026-01-16 09:14:30.39	69.09	35.45	-30.9	-33.2	12.6	5.72e-05	0	43	0	553648128	21	4699
2026-01-16 09:14:33.40	67.90	35.62	-30.7	-32.0	13.1	1.11e-04	0	43	0	558891008	22	4202
2026-01-16 09:14:36.41	66.70	35.77	-30.0	-30.7	14.3	7.00e-07	0	43	0	565182464	21	3916
2026-01-16 09:14:39.41	65.50	35.91	-30.2	-31.2	13.9	4.50e-06	0	44	0	570425344	21	4042
2026-01-16 09:14:42.40	64.29	36.04	-30.4	-31.9	13.4	1.60e-05	0	43	0	575668224	21	4266
2026-01-16 09:14:45.40	63.06	36.15	-29.4	-29.6	15.2	0.00e+00	0	43	0	581959680	20	3686
2026-01-16 09:14:48.40	61.83	36.25	-29.8	-31.1	14.7	0.00e+00	0	43	0	587202560	19	4192
2026-01-16 09:14:51.41	60.59	36.33	-30.2	-31.7	14.0	6.80e-06	0	43	0	592445440	20	4272
2026-01-16 09:14:54.41	59.34	36.40	-30.7	-32.4	13.2	9.90e-06	0	43	0	598736896	21	4404
2026-01-16 09:14:57.41	58.09	36.45	-30.8	-32.7	13.0	1.75e-05	0	43	0	603979776	21	4483
2026-01-16 09:15:00.42	56.83	36.49	-30.7	-32.1	13.1	4.88e-05	0	43	0	609222656	22	4211
2026-01-16 09:15:03.43	55.57	36.51	-30.4	-31.6	13.7	3.00e-06	0	44	0	615514112	21	4138
2026-01-16 09:15:06.44	54.31	36.51	-31.1	-33.1	12.4	3.81e-05	0	43	0	620756992	22	4542
2026-01-16 09:15:09.46	53.05	36.50	-30.8	-32.4	12.9	1.75e-05	0	43	0	627048448	22	4304
2026-01-16 09:15:12.46	51.80	36.48	-31.0	-32.9	12.4	2.35e-04	0	43	0	632291328	22	4484
2026-01-16 09:15:15.46	50.55	36.44	-31.2	-33.5	12.1	1.29e-04	0	43	0	637534208	22	4735
2026-01-16 09:15:18.47	49.29	36.38	-31.7	-34.5	10.5	6.60e-03	0	43	0	643825664	24	4935
2026-01-16 09:15:21.47	48.05	36.31	-31.6	-34.0	10.9	1.30e-03	0	43	0	649068544	24	4712
2026-01-16 09:15:24.47	46.81	36.22	-31.2	-33.2	11.9	3.78e-04	0	43	0	654311424	23	4521
2026-01-16 09:15:27.47	45.59	36.12	-31.5	-34.2	11.2	1.26e-03	0	43	0	660602880	23	4892
2026-01-16 09:15:30.47	44.37	36.00	-31.5	-34.0	11.2	8.70e-04	0	43	0	665845760	23	4828
2026-01-16 09:15:33.47	43.15	35.87	-31.2	-33.4	11.7	4.97e-04	0	43	0	672137216	23	4621
2026-01-16 09:15:36.48	41.95	35.72	-32.0	-35.2	10.0	6.31e-03	0	43	0	677380096	24	5229
2026-01-16 09:15:39.48	40.76	35.56	-32.0	-34.8	9.8	1.22e-02	0	43	0	682622976	25	5013
2026-01-16 09:15:42.48	39.58	35.39	-30.8	-32.1	12.5	4.33e-04	0	43	0	688914432	23	4167
2026-01-16 09:15:45.49	38.41	35.21	-30.9	-33.5	12.1	9.84e-05	0	43	0	694157312	21	4830
2026-01-16 09:15:48.49	37.26	35.01	-31.1	-33.0	11.8	9.03e-04	0	43	0	699400192	23	4475
2026-01-16 09:15:51.48	36.13	34.80	-30.4	-31.2	13.4	2.13e-05	0	43	0	705691648	22	3975
2026-01-16 09:15:54.50	35.00	34.58	-31.6	-34.3	11.0	2.66e-03	0	43	0	710934528	23	4905
2026-01-16 09:15:57.51	33.89	34.35	-32.4	-36.5	8.9	2.48e-02	0	43	0	717225984	24	5826
2026-01-16 09:16:00.51	32.80	34.11	-32.4	-36.4	9.1	1.82e-02	0	43	0	722468864	24	5739
2026-01-16 09:16:03.51	31.73	33.86	-31.7	-34.3	10.6	5.16e-03	0	43	0	727711744	24	4829
2026-01-16 09:16:06.52	30.67	33.60	-32.1	-35.7	9.5	8.43e-03	0	43	0	734003200	24	5443
2026-01-16 09:16:09.52	29.63	33.33	-31.6	-33.8	10.9	2.96e-03	0	44	0	739246080	24	4650
2026-01-16 09:16:12.53	28.61	33.06	-31.4	-33.1	11.5	7.29e-04	0	43	0	744488960	24	4369
2026-01-16 09:16:15.53	27.60	32.77	-31.6	-33.7	11.2	9.99e-04	0	43	0	750780416	24	4616
2026-01-16 09:16:18.53	26.62	32.48	-31.8	-34.6	10.3	5.79e-03	0	43	0	756023296	24	4948
2026-01-16 09:16:21.54	25.64	32.18	-30.9	-32.1	12.4	2.14e-04	0	43	0	761266176	23	4157
2026-01-16 09:16:24.54	24.69	31.88	-31.4	-34.3	11.3	5.23e-04	0	43	0	767557632	22	4996
2026-01-16 09:16:27.55	23.76	31.57	-31.9	-34.9	10.1	7.36e-03	0	43	0	772800512	24	5085
2026-01-16 09:16:30.55	22.84	31.26	-32.1	-35.0	9.6	1.55e-02	0	43	0	779091968	25	5048
2026-01-16 09:16:33.56	21.94	30.94	-31.8	-34.7	10.2	6.00e-03	0	43	0	784334848	24	5004
2026-01-16 09:16:36.57	21.06	30.61	-32.3	-36.5	8.8	3.18e-02	0	43	0	789577728	24	5818
2026-01-16 09:16:39.57	20.20	30.29	-32.1	-35.1	9.9	8.88e-03	0	43	0	795869184	25	5061
2026-01-16 09:16:42.57	19.36	29.96	-32.2	-35.3	9.4	1.68e-02	0	43	0	801112064	25	5171
2026-01-16 09:16:45.57	18.53	29.62	-31.5	-33.5	11.1	2.30e-03	0	43	0	806354944	24	4523
2026-01-16 09:16:48.58	17.72	29.29	-31.0	-32.6	12.2	5.00e-04	0	43	0	812646400	23	4285
2026-01-16 09:16:51.58	16.93	28.95	-30.0	-30.7	14.0	1.50e-06	0	43	0	817889280	21	3898
2026-01-16 09:16:54.60	16.15	28.61	-30.6	-32.2	13.0	4.04e-05	0	43	0	824180736	21	4368
2026-01-16 09:16:57.60	15.39	28.27	-31.0	-33.0	12.2	2.39e-04	0	43	0	829423616	22	4522
2026-01-16 09:17:00.60	14.65	27.92	-30.5	-31.5	13.1	3.73e-05	0	44	0	834666496	22	4055
2026-01-16 09:17:03.60	13.92	27.58	-30.4	-31.9	13.2	3.20e-05	0	43	0	840957952	21	4267
2026-01-16 09:17:06.61	13.21	27.23	-30.5	-32.3	12.9	7.93e-05	0	43	0	846200832	21	4390
2026-01-16 09:17:09.61	12.51	26.89	-29.9	-30.6	14.0	1.50e-06	0	43	0	851443712	21	3887
2026-01-16 09:17:12.62	11.83	26.54	-29.9	-30.9	14.1	7.00e-07	0	43	0	857735168	20	4062
2026-01-16 09:17:15.62	11.17	26.20	-30.0	-31.3	13.8	2.20e-06	0	43	0	862978048	20	4187
2026-01-16 09:17:18.62	10.51	25.85	-30.5	-32.1	12.9	3.35e-05	0	43	0	869269504	21	4340
2026-01-16 09:17:21.63	9.88	25.51	-30.5	-32.2	12.8	5.87e-05	0	44	0	874512384	21	4374
2026-01-16 09:17:24.64	9.25	25.16	-30.2	-31.5	13.3	1.67e-05	0	43	0	879755264	21	4150
2026-01-16 09:17:27.63	8.64	24.82	-30.0	-30.9	13.7	1.60e-05	0	44	0	886046720	21	3981
2026-01-16 09:17:30.64	8.05	24.48	-30.0	-30.7	13.8	3.00e-06	0	44	0	891289600	21	3933
2026-01-16 09:17:33.63	7.47	24.14	-30.2	-31.2	13.4	2.51e-05	0	44	0	896532480	21	4079
2026-01-16 09:17:36.63	6.90	23.80	-30.0	-31.3	13.7	4.50e-06	0	43	0	902823936	20	4178
2026-01-16 09:17:39.65	6.34	23.46	-29.7	-30.6	14.2	1.50e-06	0	43	0	908066816	20	3985
2026-01-16 09:17:42.65	5.79	23.12	-30.0	-31.2	13.8	4.50e-06	0	43	0	913309696	20	4145
2026-01-16 09:17:45.65	5.26	22.79	-30.4	-32.4	13.0	9.10e-06	0	43	0	919601152	20	4528
2026-01-16 09:17:48.66	4.73	22.45	-30.8	-33.2	12.1	3.06e-04	0	43	0	924844032	21	4727
2026-01-16 09:17:51.69	4.22	22.12	-30.8	-33.0	12.2	3.68e-04	0	43	0	931135488	21	4647
2026-01-16 09:17:54.70	3.72	21.79	-30.4	-31.9	13.0	3.05e-05	0	43	0	936378368	21	4268
2026-01-16 09:17:57.70	3.23	21.46	-29.8	-30.4	14.0	4.50e-06	0	43	0	941621248	21	3833
2026-01-16 09:18:00.71	2.75	21.14	-30.4	-31.9	13.0	2.13e-05	0	43	0	947912704	21	4274
2026-01-16 09:18:03.71	2.28	20.81	-30.3	-31.6	13.1	2.89e-05	0	43	0	953155584	21	4198
2026-01-16 09:18:06.71	1.82	20.49	-29.8	-30.7	14.0	1.50e-06	0	43	0	959447040	20	4020
2026-01-16 09:18:09.71	1.37	20.17	-30.0	-31.5	13.5	5.30e-06	0	43	0	964689920	20	4260
2026-01-16 09:18:12.72	0.93	19.85	-31.0	-33.7	11.7	2.11e-04	0	43	0	969932800	21	4925
2026-01-16 09:18:15.73	0.50	19.54	-31.7	-35.0	10.0	7.28e-03	0	44	0	976224256	23	5283
2026-01-16 09:18:18.74	0.08	19.22	-31.7	-35.3	9.8	1.50e-02	0	44	0	981467136	23	5396
2026-01-16 09:18:21.74	359.66	18.91	-31.6	-34.6	10.3	5.82e-03	0	43	0	986710016	23	5100
2026-01-16 09:18:24.74	359.26	18.61	-31.4	-34.0	10.7	3.25e-03	0	43	0	993001472	23	4844
2026-01-16 09:18:27.75	358.86	18.30	-31.7	-34.8	10.1	5.93e-03	0	43	0	998244352	23	5195
2026-01-16 09:18:30.74	358.48	18.00	-32.0	-36.0	9.2	1.17e-02	0	43	0	1003487232	23	5740
2026-01-16 09:18:33.75	358.10	17.70	-31.1	-33.2	11.3	2.73e-03	0	44	0	1009778688	23	4542
2026-01-16 09:18:36.76	357.72	17.40	-30.1	-31.1	13.2	3.28e-05	0	43	0	1015021568	21	4065
2026-01-16 09:18:39.77	357.36	17.10	-30.0	-30.9	13.4	1.06e-05	0	43	0	1021313024	21	3997
2026-01-16 09:18:42.76	357.00	16.81	-30.4	-32.1	12.6	5.41e-05	0	43	0	1026555904	21	4374
2026-01-16 09:18:45.77	356.65	16.52	-30.6	-32.7	12.2	1.56e-04	0	43	0	1031798784	21	4565
2026-01-16 09:18:48.77	356.31	16.23	-30.7	-33.0	12.0	3.31e-04	0	44	0	1038090240	21	4681
2026-01-16 09:18:51.77	355.97	15.94	-30.8	-33.4	11.7	5.97e-04	0	43	0	1043333120	21	4836
2026-01-16 09:18:54.78	355.64	15.66	-30.9	-33.1	11.6	6.49e-04	0	43	0	1048576000	22	4604
2026-01-16 09:18:57.77	355.32	15.37	-30.8	-32.6	11.9	3.94e-04	0	44	0	1054867456	22	4450
2026-01-16 09:19:00.76	355.00	15.10	-30.6	-32.3	12.2	2.57e-04	0	44	0	1060110336	22	4343
2026-01-16 09:19:03.78	354.69	14.82	-30.8	-32.9	11.7	4.52e-04	0	43	0	1066401792	22	4558
2026-01-16 09:19:06.79	354.38	14.54	-31.0	-33.3	11.3	7.82e-04	0	43	0	1071644672	22	4723
2026-01-16 09:19:09.79	354.08	14.27	-31.3	-34.5	10.4	4.64e-03	0	44	0	1076887552	22	5187
2026-01-16 09:19:12.79	353.79	14.00	-31.2	-34.2	10.6	3.92e-03	0	44	0	1083179008	22	5089
2026-01-16 09:19:15.80	353.50	13.73	-30.8	-32.8	11.6	8.75e-04	0	44	0	1088421888	22	4546
2026-01-16 09:19:18.80	353.21	13.46	-30.4	-31.7	12.4	1.35e-04	0	43	0	1094713344	22	4167
2026-01-16 09:19:21.80	352.94	13.20	-30.2	-31.6	12.7	1.07e-04	0	43	0	1099956224	21	4227
2026-01-16 09:19:24.81	352.66	12.94	-30.2	-31.7	12.6	1.15e-04	0	43	0	1105199104	21	4275
2026-01-16 09:19:27.82	352.39	12.68	-30.4	-32.2	12.3	1.20e-04	0	43	0	1111490560	21	4440
2026-01-16 09:19:30.83	352.13	12.42	-30.3	-32.0	12.4	1.18e-04	0	43	0	1116733440	21	4368
2026-01-16 09:19:33.83	351.87	12.16	-30.5	-32.4	12.2	2.08e-04	0	43	0	1121976320	21	4507
2026-01-16 09:19:36.83	351.62	11.91	-30.7	-33.0	11.7	3.84e-04	0	43	0	1128267776	21	4712
2026-01-16 09:19:39.84	351.37	11.66	-30.8	-33.3	11.5	1.03e-03	0	43	0	1133510656	21	4837
2026-01-16 09:19:42.84	351.12	11.41	-30.9	-33.9	11.0	1.82e-03	0	43	0	1138753536	21	5076
2026-01-16 09:19:45.83	350.88	11.16	-31.0	-33.7	10.9	1.95e-03	0	43	0	1145044992	22	4880
2026-01-16 09:19:48.84	350.65	10.92	-31.3	-34.6	10.2	4.45e-03	0	43	0	1150287872	22	5259
2026-01-16 09:19:51.84	350.42	10.67	-31.1	-33.9	10.7	2.66e-03	0	43	0	1156579328	22	4968
2026-01-16 09:19:54.84	350.19	10.43	-31.4	-35.1	9.7	9.66e-03	0	43	0	1161822208	22	5521
2026-01-16 09:19:57.84	349.96	10.19	-31.6	-35.2	9.2	2.06e-02	0	43	0	1167065088	23	5478
2026-01-16 09:20:00.85	349.74	9.95	-31.7	-35.7	8.8	3.27e-02	0	43	0	1173356544	23	5685
2026-01-16 09:20:03.86	349.52	9.72	-31.8	-36.1	8.5	4.28e-02	0	44	0	1178599424	23	5896
2026-01-16 09:20:06.87	349.31	9.48	-31.8	-36.2	8.4	5.75e-02	0	44	0	1183842304	23	5967
2026-01-16 09:20:09.89	349.10	9.25	-31.6	-35.3	9.1	3.27e-02	0	44	0	1190133760	23	5515
2026-01-16 09:20:12.89	348.89	9.02	-31.5	-35.1	9.1	1.58e-02	0	43	0	1195376640	23	5453
2026-01-16 09:20:15.89	348.69	8.79	-31.5	-35.1	9.2	1.57e-02	0	44	0	1201668096	23	5437
2026-01-16 09:20:18.89	348.49	8.56	-30.9	-33.1	10.6	4.36e-03	0	44	0	1206910976	23	4628
2026-01-16 09:20:21.91	348.30	8.34	-31.0	-34.0	10.3	3.76e-03	0	43	0	1212153856	22	5055
2026-01-16 09:20:24.91	348.10	8.11	-30.9	-33.5	10.6	4.03e-03	0	44	0	1218445312	22	4869
2026-01-16 09:20:27.92	347.91	7.89	-30.9	-33.7	10.4	5.90e-03	0	43	0	1223688192	22	4942
2026-01-16 09:20:30.92	347.73	7.67	-31.2	-34.5	9.9	8.35e-03	0	43	0	1228931072	22	5279
2026-01-16 09:20:33.93	347.54	7.45	-31.5	-35.2	8.8	1.68e-02	0	43	0	1235222528	23	5551
2026-01-16 09:20:36.94	347.36	7.23	-31.2	-34.3	9.6	2.02e-02	0	44	0	1240465408	23	5114
2026-01-16 09:20:39.96	347.18	7.02	-33.1	-44.0	3.8	6.34e-01	0	43	104	1245708288	26	12589

#Closed at: 2026-01-16 09:20:40
#Recorded file [1245 MB]: D:/data/31010_260116_120934.dat