passes_logs/2026/01/16/R2M6_AANII_01/R2M6_AANII_01__20260116_020715_NOAA_21_JPSS-2_rec.log

#Pass ID: 20260116_020715_NOAA 21 (JPSS-2)
#Satellite: NOAA 21 (JPSS-2)
#Configuration: NOAA 21
#almurnet v.1.7.20240730
#Start time: 2026-01-16 02:07:18

#Version: 2.2.20231116
#Station: R2M6_AANII_01
#Location: 30.233357 lon 59.946436 lat
#TLE: 1 54234U 22150A   26015.43562254  .00000028  00000+0  34201-4 0  9996
#TLE: 2 54234  98.7498 316.3301 0000635 288.4972  71.6135 14.19534768164873

#Time	Az	El	Level	Level2	SNR	BER	BlckErr	Temp	State	Recorded	gain1	gain2
2026-01-16 02:07:18.80	10.54	7.22	-33.5	-44.7	3.8	8.45e-01	0	44	0	0	27	13013
2026-01-16 02:07:21.80	10.28	7.42	-34.1	-45.6	3.8	1.49e+00	0	44	104	0	29	13495
2026-01-16 02:07:24.81	10.02	7.62	-34.1	-45.7	3.8	1.49e+00	0	44	104	0	29	13570
2026-01-16 02:07:27.81	9.75	7.82	-34.2	-45.7	3.8	1.49e+00	0	44	104	0	29	13578
2026-01-16 02:07:30.83	9.48	8.02	-34.2	-45.7	3.8	1.49e+00	0	44	104	0	29	13539
2026-01-16 02:07:33.83	9.21	8.22	-34.2	-45.7	3.8	1.49e+00	0	44	104	0	29	13565
2026-01-16 02:07:36.84	8.93	8.43	-34.3	-45.9	3.8	1.49e+00	0	44	104	0	29	13688
2026-01-16 02:07:39.84	8.65	8.63	-34.2	-45.8	3.8	1.49e+00	0	44	104	0	29	13672
2026-01-16 02:07:42.83	8.37	8.83	-34.2	-45.7	3.8	1.49e+00	0	44	104	0	29	13577
2026-01-16 02:07:45.82	8.08	9.04	-34.1	-46.1	3.8	1.49e+00	0	44	104	0	28	14264
2026-01-16 02:07:48.83	7.78	9.25	-33.9	-45.7	3.8	1.49e+00	0	44	104	0	28	13944
2026-01-16 02:07:51.83	7.49	9.45	-33.5	-45.0	3.8	1.49e+00	0	44	104	0	27	13465
2026-01-16 02:07:54.83	7.18	9.66	-33.4	-45.4	3.8	1.49e+00	0	44	104	0	26	14326
2026-01-16 02:07:57.84	6.88	9.87	-33.4	-45.1	3.8	1.49e+00	0	44	104	0	26	13820
2026-01-16 02:08:00.84	6.56	10.08	-33.4	-44.9	3.8	1.49e+00	0	44	104	0	26	13579
2026-01-16 02:08:03.85	6.25	10.30	-33.4	-45.7	3.8	1.49e+00	0	43	104	0	26	14710
2026-01-16 02:08:06.85	5.93	10.51	-33.0	-42.0	3.9	1.48e+00	0	44	104	0	26	10109
2026-01-16 02:08:09.84	5.60	10.72	-31.7	-36.0	7.6	1.18e-01	0	44	0	5242880	24	5934
2026-01-16 02:08:12.84	5.27	10.94	-30.7	-33.8	9.8	1.27e-02	0	44	0	14680064	22	5168
2026-01-16 02:08:15.84	4.93	11.15	-30.5	-33.8	10.3	5.61e-03	0	43	0	24117248	21	5236
2026-01-16 02:08:18.85	4.59	11.37	-30.5	-33.8	10.2	4.30e-03	0	44	0	33554432	21	5246
2026-01-16 02:08:21.85	4.25	11.58	-30.5	-33.7	10.3	6.66e-03	0	43	0	42991616	21	5221
2026-01-16 02:08:24.87	3.89	11.80	-28.9	-30.4	13.2	4.95e-05	0	43	0	52428800	19	4290
2026-01-16 02:08:27.87	3.53	12.02	-27.9	-29.0	14.6	0.00e+00	0	44	0	61865984	17	4110
2026-01-16 02:08:30.88	3.17	12.24	-27.9	-29.5	14.7	7.00e-07	0	43	0	71303168	16	4332
2026-01-16 02:08:33.88	2.80	12.46	-27.8	-29.3	14.8	0.00e+00	0	43	0	80740352	16	4268
2026-01-16 02:08:36.88	2.43	12.69	-27.8	-29.3	14.8	0.00e+00	0	43	0	89128960	16	4286
2026-01-16 02:08:39.88	2.05	12.91	-27.8	-29.2	14.9	0.00e+00	0	43	0	98566144	16	4264
2026-01-16 02:08:42.88	1.66	13.13	-27.9	-29.5	14.7	0.00e+00	0	44	0	108003328	16	4340
2026-01-16 02:08:45.88	1.27	13.35	-27.8	-29.4	14.8	0.00e+00	0	43	0	117440512	16	4306
2026-01-16 02:08:48.90	0.87	13.58	-27.8	-29.4	14.8	0.00e+00	0	43	0	126877696	16	4306
2026-01-16 02:08:51.90	0.47	13.80	-27.8	-29.4	14.8	2.20e-06	0	43	0	136314880	16	4304
2026-01-16 02:08:54.91	0.05	14.03	-27.8	-29.9	14.7	0.00e+00	0	43	0	145752064	15	4562
2026-01-16 02:08:57.91	359.64	14.26	-27.7	-29.7	14.8	0.00e+00	0	43	0	155189248	15	4496
2026-01-16 02:09:00.92	359.21	14.48	-27.8	-29.7	14.8	0.00e+00	0	43	0	164626432	15	4525
2026-01-16 02:09:03.93	358.78	14.71	-28.2	-30.2	14.5	3.80e-06	0	43	0	174063616	16	4523
2026-01-16 02:09:06.92	358.35	14.94	-28.0	-29.6	14.8	0.00e+00	0	43	0	183500800	16	4371
2026-01-16 02:09:09.92	357.90	15.17	-27.8	-29.9	14.8	0.00e+00	0	44	0	192937984	15	4565
2026-01-16 02:09:12.93	357.45	15.40	-27.7	-29.5	15.0	0.00e+00	0	43	0	202375168	15	4441
2026-01-16 02:09:15.94	356.99	15.63	-27.9	-30.0	14.7	0.00e+00	0	43	0	211812352	15	4606
2026-01-16 02:09:18.94	356.52	15.85	-27.9	-30.0	14.7	7.00e-07	0	43	0	221249536	15	4599
2026-01-16 02:09:21.96	356.05	16.08	-28.0	-29.6	14.8	0.00e+00	0	43	0	230686720	16	4360
2026-01-16 02:09:24.94	355.57	16.31	-28.1	-30.0	14.6	0.00e+00	0	43	0	240123904	16	4465
2026-01-16 02:09:27.93	355.09	16.54	-28.3	-30.4	14.4	2.20e-06	0	43	0	249561088	16	4583
2026-01-16 02:09:30.91	354.59	16.77	-28.5	-30.9	14.1	7.00e-07	0	44	0	258998272	16	4733
2026-01-16 02:09:33.90	354.09	17.00	-28.2	-30.1	14.6	0.00e+00	0	44	0	267386880	16	4507
2026-01-16 02:09:36.88	353.59	17.22	-28.3	-30.0	14.3	7.00e-07	0	43	0	276824064	17	4348
2026-01-16 02:09:39.86	353.07	17.45	-28.2	-30.3	14.5	0.00e+00	0	44	0	286261248	16	4550
2026-01-16 02:09:42.84	352.55	17.68	-28.4	-30.7	14.2	0.00e+00	0	44	0	295698432	16	4687
2026-01-16 02:09:45.83	352.01	17.91	-27.9	-29.6	14.9	7.00e-07	0	44	0	305135616	16	4346
2026-01-16 02:09:48.81	351.48	18.13	-27.6	-29.3	15.2	0.00e+00	0	44	0	314572800	15	4376
2026-01-16 02:09:51.79	350.93	18.36	-27.5	-29.2	15.2	0.00e+00	0	44	0	324009984	15	4362
2026-01-16 02:09:54.78	350.37	18.58	-27.6	-29.3	15.2	0.00e+00	0	44	0	333447168	15	4375
2026-01-16 02:09:57.78	349.80	18.81	-27.5	-29.2	15.3	7.00e-07	0	44	0	342884352	15	4349
2026-01-16 02:10:00.79	349.22	19.03	-27.2	-28.4	15.7	0.00e+00	0	44	0	352321536	15	4145
2026-01-16 02:10:03.79	348.64	19.26	-27.2	-28.4	15.8	0.00e+00	0	44	0	360710144	15	4123
2026-01-16 02:10:06.79	348.04	19.48	-27.4	-28.8	15.5	0.00e+00	0	44	0	370147328	15	4234
2026-01-16 02:10:09.79	347.44	19.70	-27.3	-28.7	15.5	0.00e+00	0	44	0	379584512	15	4222
2026-01-16 02:10:12.80	346.83	19.92	-27.4	-28.9	15.5	0.00e+00	0	44	0	389021696	15	4275
2026-01-16 02:10:15.80	346.21	20.14	-27.4	-28.9	15.5	0.00e+00	0	44	0	398458880	15	4283
2026-01-16 02:10:18.80	345.58	20.35	-27.3	-28.7	15.6	0.00e+00	0	44	0	407896064	15	4225
2026-01-16 02:10:21.81	344.94	20.57	-27.1	-28.2	15.9	0.00e+00	0	44	0	417333248	15	4087
2026-01-16 02:10:24.82	344.29	20.78	-27.0	-28.0	16.0	0.00e+00	0	44	0	426770432	15	4040
2026-01-16 02:10:27.83	343.63	20.99	-27.1	-28.2	15.9	0.00e+00	0	44	0	436207616	15	4083
2026-01-16 02:10:30.83	342.96	21.20	-27.0	-28.0	16.0	0.00e+00	0	44	0	445644800	15	4037
2026-01-16 02:10:33.84	342.28	21.41	-27.1	-28.1	15.9	0.00e+00	0	44	0	455081984	15	4061
2026-01-16 02:10:36.85	341.60	21.61	-27.1	-28.2	15.9	0.00e+00	0	44	0	464519168	15	4082
2026-01-16 02:10:39.86	340.90	21.81	-27.3	-28.6	15.7	0.00e+00	0	44	0	473956352	15	4192
2026-01-16 02:10:42.85	340.20	22.00	-27.2	-28.4	15.8	4.50e-06	0	44	0	483393536	15	4130
2026-01-16 02:10:45.87	339.49	22.20	-27.2	-28.4	15.9	0.00e+00	0	44	0	492830720	15	4119
2026-01-16 02:10:48.87	338.77	22.39	-27.1	-28.3	15.9	1.22e-05	0	44	0	502267904	15	4104
2026-01-16 02:10:51.87	338.04	22.58	-27.1	-28.1	16.0	2.19e-04	0	44	0	511705088	15	4048
2026-01-16 02:10:54.87	337.30	22.76	-27.3	-29.1	15.7	8.40e-04	0	44	0	521142272	14	4441
2026-01-16 02:10:57.87	336.55	22.94	-27.3	-29.2	15.7	1.18e-03	0	44	0	530579456	14	4449
2026-01-16 02:11:00.87	335.80	23.11	-27.3	-29.0	15.8	0.00e+00	0	44	0	540016640	14	4416
2026-01-16 02:11:03.88	335.03	23.28	-27.2	-28.9	15.9	8.25e-04	0	44	0	549453824	14	4371
2026-01-16 02:11:06.89	334.25	23.45	-27.0	-28.5	16.1	1.77e-03	0	44	0	558891008	14	4274
2026-01-16 02:11:09.90	333.47	23.61	-27.0	-28.4	16.1	1.82e-03	0	44	0	567279616	14	4244
2026-01-16 02:11:12.90	332.68	23.77	-27.3	-29.0	15.8	2.21e-03	0	44	0	576716800	14	4406
2026-01-16 02:11:15.91	331.88	23.92	-27.5	-29.1	15.5	0.00e+00	0	44	0	586153984	15	4306
2026-01-16 02:11:18.93	331.07	24.07	-27.3	-29.2	15.7	1.84e-03	0	44	0	595591168	14	4457
2026-01-16 02:11:21.94	330.26	24.21	-27.0	-28.5	16.1	0.00e+00	0	44	0	605028352	14	4264
2026-01-16 02:11:24.95	329.44	24.35	-26.9	-28.8	16.2	0.00e+00	0	44	0	614465536	13	4445
2026-01-16 02:11:27.95	328.61	24.48	-27.1	-28.7	15.9	0.00e+00	0	44	0	623902720	14	4320
2026-01-16 02:11:30.96	327.77	24.60	-26.9	-28.3	16.2	0.00e+00	0	44	0	633339904	14	4204
2026-01-16 02:11:33.97	326.93	24.72	-27.0	-28.4	16.1	0.00e+00	0	44	0	642777088	14	4234
2026-01-16 02:11:36.97	326.08	24.83	-27.1	-28.7	16.0	0.00e+00	0	44	0	652214272	14	4316
2026-01-16 02:11:39.96	325.24	24.93	-26.9	-28.1	16.3	0.00e+00	0	44	0	661651456	14	4168
2026-01-16 02:11:42.98	324.37	25.03	-26.8	-27.9	16.4	0.00e+00	0	44	0	671088640	14	4113
2026-01-16 02:11:45.98	323.51	25.12	-26.8	-28.5	16.3	0.00e+00	0	44	0	680525824	13	4382
2026-01-16 02:11:49.00	322.64	25.21	-26.9	-28.7	16.2	0.00e+00	0	44	0	689963008	13	4420
2026-01-16 02:11:52.01	321.76	25.29	-27.3	-29.0	15.8	0.00e+00	0	44	0	699400192	14	4411
2026-01-16 02:11:55.01	320.89	25.36	-27.0	-28.3	16.2	0.00e+00	0	44	0	708837376	14	4221
2026-01-16 02:11:58.01	320.00	25.42	-27.0	-28.4	16.1	0.00e+00	0	44	0	718274560	14	4241
2026-01-16 02:12:01.01	319.12	25.48	-26.8	-28.5	16.4	0.00e+00	0	44	0	727711744	13	4382
2026-01-16 02:12:04.02	318.23	25.53	-27.0	-28.4	16.2	0.00e+00	0	44	0	737148928	14	4228
2026-01-16 02:12:07.03	317.34	25.57	-27.0	-28.4	16.2	0.00e+00	0	44	0	746586112	14	4247
2026-01-16 02:12:10.03	316.45	25.60	-27.0	-28.4	16.1	0.00e+00	0	44	0	756023296	14	4240
2026-01-16 02:12:13.02	315.56	25.63	-27.2	-29.0	15.9	0.00e+00	0	44	0	765460480	14	4388
2026-01-16 02:12:16.02	314.66	25.65	-26.9	-28.2	16.3	0.00e+00	0	44	0	774897664	14	4184
2026-01-16 02:12:19.04	313.76	25.66	-26.9	-28.2	16.3	0.00e+00	0	44	0	784334848	14	4182
2026-01-16 02:12:22.04	312.87	25.66	-26.8	-28.6	16.3	0.00e+00	0	44	0	792723456	13	4402
2026-01-16 02:12:25.05	311.97	25.66	-26.9	-28.7	16.3	0.00e+00	0	44	0	803209216	13	4422
2026-01-16 02:12:28.05	311.07	25.64	-26.9	-28.1	16.3	0.00e+00	0	44	0	812646400	14	4165
2026-01-16 02:12:31.04	310.18	25.62	-27.0	-28.5	16.1	0.00e+00	0	44	0	821035008	14	4264
2026-01-16 02:12:34.04	309.29	25.60	-27.1	-28.6	16.1	0.00e+00	0	44	0	830472192	14	4293
2026-01-16 02:12:37.04	308.40	25.56	-26.9	-28.3	16.2	0.00e+00	0	44	0	839909376	14	4203
2026-01-16 02:12:40.05	307.50	25.52	-26.8	-28.0	16.3	1.57e-04	0	44	0	849346560	14	4137
2026-01-16 02:12:43.05	306.62	25.47	-26.8	-28.1	16.3	0.00e+00	0	44	0	858783744	14	4149
2026-01-16 02:12:46.06	305.73	25.41	-26.9	-28.2	16.2	2.25e-04	0	44	0	868220928	14	4197
2026-01-16 02:12:49.06	304.85	25.35	-27.0	-28.4	16.2	0.00e+00	0	44	0	877658112	14	4225
2026-01-16 02:12:52.07	303.97	25.27	-27.0	-28.4	16.2	2.75e-04	0	44	0	887095296	14	4231
2026-01-16 02:12:55.08	303.10	25.19	-26.9	-28.8	16.2	8.48e-04	0	44	0	896532480	13	4450
2026-01-16 02:12:58.08	302.23	25.11	-27.0	-28.4	16.2	4.55e-04	0	44	0	905969664	14	4231
2026-01-16 02:13:01.08	301.36	25.01	-26.8	-28.0	16.3	1.50e-06	0	44	0	915406848	14	4125
2026-01-16 02:13:04.08	300.51	24.92	-26.9	-28.1	16.3	0.00e+00	0	44	0	924844032	14	4166
2026-01-16 02:13:07.08	299.65	24.81	-27.1	-28.6	16.0	0.00e+00	0	44	0	934281216	14	4296
2026-01-16 02:13:10.09	298.81	24.70	-27.4	-29.4	15.5	0.00e+00	0	44	0	943718400	14	4531
2026-01-16 02:13:13.10	297.96	24.58	-27.4	-28.8	15.6	0.00e+00	0	44	0	953155584	15	4245
2026-01-16 02:13:16.11	297.13	24.45	-27.2	-28.5	15.8	0.00e+00	0	44	0	962592768	15	4154
2026-01-16 02:13:19.11	296.30	24.32	-27.0	-28.0	16.0	0.00e+00	0	44	0	972029952	15	4039
2026-01-16 02:13:22.11	295.48	24.18	-27.1	-28.2	15.9	0.00e+00	0	44	0	981467136	15	4084
2026-01-16 02:13:25.12	294.66	24.04	-26.8	-28.0	16.3	0.00e+00	0	44	0	990904320	14	4125
2026-01-16 02:13:28.13	293.86	23.89	-26.8	-28.6	16.2	0.00e+00	0	44	0	999292928	13	4389
2026-01-16 02:13:31.13	293.06	23.74	-26.8	-28.5	16.3	0.00e+00	0	44	0	1008730112	13	4369
2026-01-16 02:13:34.14	292.27	23.58	-27.1	-28.6	15.9	0.00e+00	0	44	0	1018167296	14	4288
2026-01-16 02:13:37.14	291.48	23.42	-27.2	-28.9	15.8	0.00e+00	0	44	0	1027604480	14	4390
2026-01-16 02:13:40.14	290.71	23.25	-27.0	-28.5	16.0	0.00e+00	0	44	0	1037041664	14	4273
2026-01-16 02:13:43.16	289.94	23.08	-27.1	-28.6	16.0	0.00e+00	0	44	0	1046478848	14	4287
2026-01-16 02:13:46.16	289.19	22.90	-27.0	-28.9	16.0	0.00e+00	0	44	0	1055916032	13	4479
2026-01-16 02:13:49.17	288.44	22.72	-27.1	-28.6	15.9	0.00e+00	0	44	0	1065353216	14	4297
2026-01-16 02:13:52.18	287.69	22.54	-27.0	-28.4	16.0	0.00e+00	0	44	0	1074790400	14	4239
2026-01-16 02:13:55.18	286.96	22.35	-26.6	-27.6	16.5	0.00e+00	0	44	0	1084227584	14	4020
2026-01-16 02:13:58.18	286.24	22.16	-27.0	-28.5	15.9	0.00e+00	0	44	0	1093664768	14	4273
2026-01-16 02:14:01.19	285.53	21.96	-27.1	-28.8	15.8	0.00e+00	0	44	0	1103101952	14	4341
2026-01-16 02:14:04.20	284.82	21.76	-27.0	-28.4	16.0	0.00e+00	0	44	0	1112539136	14	4228
2026-01-16 02:14:07.20	284.13	21.56	-26.9	-28.8	16.0	0.00e+00	0	44	0	1121976320	13	4455
2026-01-16 02:14:10.20	283.44	21.36	-27.0	-28.9	15.9	0.00e+00	0	44	0	1131413504	13	4490
2026-01-16 02:14:13.21	282.76	21.15	-26.8	-28.5	16.1	0.00e+00	0	44	0	1140850688	13	4397
2026-01-16 02:14:16.21	282.10	20.94	-26.5	-27.9	16.5	0.00e+00	0	44	0	1150287872	13	4217
2026-01-16 02:14:19.22	281.44	20.73	-26.8	-28.6	16.1	0.00e+00	0	44	0	1159725056	13	4415
2026-01-16 02:14:22.23	280.79	20.52	-26.9	-28.8	16.0	0.00e+00	0	44	0	1169162240	13	4455
2026-01-16 02:14:25.22	280.15	20.30	-27.1	-28.7	15.8	0.00e+00	0	44	0	1178599424	14	4312
2026-01-16 02:14:28.23	279.52	20.09	-27.2	-29.0	15.6	0.00e+00	0	44	0	1188036608	14	4425
2026-01-16 02:14:31.24	278.89	19.87	-27.4	-29.3	15.4	0.00e+00	0	44	0	1197473792	14	4508
2026-01-16 02:14:34.25	278.28	19.64	-27.6	-29.3	15.1	0.00e+00	0	44	0	1205862400	15	4390
2026-01-16 02:14:37.26	277.67	19.42	-27.1	-28.3	15.7	0.00e+00	0	44	0	1216348160	15	4101
2026-01-16 02:14:40.26	277.08	19.20	-26.9	-27.8	15.9	0.00e+00	0	44	0	1225785344	15	3988
2026-01-16 02:14:43.26	276.49	18.97	-26.9	-27.8	15.9	0.00e+00	0	44	0	1234173952	15	3988
2026-01-16 02:14:46.28	275.91	18.75	-26.8	-28.1	16.0	0.00e+00	0	44	0	1243611136	14	4168
2026-01-16 02:14:49.28	275.34	18.52	-26.7	-28.3	16.1	0.00e+00	0	44	0	1253048320	13	4337
2026-01-16 02:14:52.28	274.78	18.29	-26.9	-28.7	15.9	0.00e+00	0	44	0	1262485504	13	4457
2026-01-16 02:14:55.28	274.23	18.07	-27.2	-29.0	15.5	0.00e+00	0	44	0	1271922688	14	4431
2026-01-16 02:14:58.28	273.68	17.84	-27.1	-28.7	15.7	0.00e+00	0	44	0	1281359872	14	4319
2026-01-16 02:15:01.27	273.15	17.61	-26.9	-28.2	15.9	0.00e+00	0	44	0	1290797056	14	4209
2026-01-16 02:15:04.27	272.62	17.38	-26.8	-28.1	16.0	0.00e+00	0	44	0	1300234240	14	4176
2026-01-16 02:15:07.30	272.10	17.15	-27.2	-29.0	15.4	0.00e+00	0	44	0	1309671424	14	4432
2026-01-16 02:15:10.31	271.58	16.92	-27.4	-29.4	15.2	0.00e+00	0	44	0	1319108608	14	4523
2026-01-16 02:15:13.31	271.08	16.69	-27.3	-29.2	15.3	0.00e+00	0	44	0	1328545792	14	4471
2026-01-16 02:15:16.31	270.58	16.46	-27.7	-29.5	14.8	0.00e+00	0	44	0	1337982976	15	4471
2026-01-16 02:15:19.31	270.09	16.23	-27.9	-30.0	14.5	0.00e+00	0	44	0	1347420160	15	4623
2026-01-16 02:15:22.32	269.61	16.00	-28.1	-30.0	14.4	0.00e+00	0	44	0	1356857344	16	4499
2026-01-16 02:15:25.32	269.14	15.77	-27.6	-29.4	14.9	0.00e+00	0	44	0	1366294528	15	4421
2026-01-16 02:15:28.32	268.67	15.54	-27.6	-29.5	14.9	7.00e-07	0	44	0	1375731712	15	4443
2026-01-16 02:15:31.32	268.21	15.31	-27.6	-29.4	14.9	0.00e+00	0	44	0	1385168896	15	4420
2026-01-16 02:15:34.33	267.76	15.08	-27.4	-29.4	15.1	0.00e+00	0	44	0	1394606080	14	4537
2026-01-16 02:15:37.35	267.31	14.85	-27.5	-29.2	15.0	0.00e+00	0	44	0	1404043264	15	4361
2026-01-16 02:15:40.35	266.87	14.62	-28.3	-30.5	14.1	2.20e-06	0	44	0	1412431872	16	4640
2026-01-16 02:15:43.34	266.44	14.39	-28.8	-31.2	13.3	2.44e-05	0	44	0	1421869056	17	4757
2026-01-16 02:15:46.34	266.02	14.16	-28.5	-30.6	13.7	9.90e-06	0	44	0	1431306240	17	4570
2026-01-16 02:15:49.33	265.60	13.94	-28.2	-30.2	14.2	2.20e-06	0	44	0	1440743424	16	4551
2026-01-16 02:15:52.34	265.19	13.71	-27.6	-29.4	14.8	0.00e+00	0	44	0	1450180608	15	4423
2026-01-16 02:15:55.34	264.79	13.49	-28.3	-30.4	14.1	3.80e-06	0	44	0	1459617792	16	4623
2026-01-16 02:15:58.35	264.39	13.26	-28.9	-31.5	13.1	1.52e-05	0	44	0	1469054976	17	4842
2026-01-16 02:16:01.36	263.99	13.03	-28.6	-30.9	13.5	1.22e-05	0	44	0	1478492160	17	4665
2026-01-16 02:16:04.36	263.60	12.81	-28.4	-30.3	13.8	5.30e-06	0	45	0	1487929344	17	4459
2026-01-16 02:16:07.36	263.22	12.59	-28.0	-29.9	14.3	7.00e-07	0	44	0	1497366528	16	4448
2026-01-16 02:16:10.36	262.85	12.37	-27.9	-30.1	14.2	0.00e+00	0	44	0	1506803712	15	4664
2026-01-16 02:16:13.36	262.48	12.15	-28.6	-30.9	13.3	1.44e-05	0	44	0	1516240896	17	4673
2026-01-16 02:16:16.38	262.11	11.92	-28.7	-31.1	13.2	2.44e-05	0	44	0	1525678080	17	4722
2026-01-16 02:16:19.39	261.75	11.70	-28.7	-31.0	13.3	1.98e-05	0	44	0	1535115264	17	4690
2026-01-16 02:16:22.39	261.40	11.49	-28.3	-30.6	13.8	4.50e-06	0	44	0	1544552448	16	4686
2026-01-16 02:16:25.40	261.05	11.27	-28.0	-29.8	14.3	7.00e-07	0	44	0	1553989632	16	4446
2026-01-16 02:16:28.40	260.71	11.05	-27.9	-30.2	14.1	9.10e-06	0	44	0	1563426816	15	4675
2026-01-16 02:16:31.41	260.37	10.83	-28.4	-30.8	13.6	1.44e-05	0	44	0	1572864000	16	4749
2026-01-16 02:16:34.40	260.04	10.62	-28.6	-30.8	13.3	2.59e-05	0	45	0	1582301184	17	4656
2026-01-16 02:16:37.40	259.71	10.41	-28.6	-30.9	13.2	3.43e-05	0	44	0	1591738368	17	4674
2026-01-16 02:16:40.40	259.39	10.19	-28.4	-30.9	13.5	2.21e-05	0	44	0	1601175552	16	4782
2026-01-16 02:16:43.42	259.07	9.98	-28.4	-30.4	13.5	2.51e-05	0	44	0	1610612736	17	4514
2026-01-16 02:16:46.43	258.75	9.77	-28.4	-30.8	13.5	1.14e-05	0	44	0	1619001344	16	4747
2026-01-16 02:16:49.44	258.45	9.56	-28.5	-30.7	13.3	2.28e-05	0	44	0	1628438528	17	4607
2026-01-16 02:16:52.46	258.14	9.35	-28.6	-31.0	13.1	3.05e-05	0	44	0	1637875712	17	4713
2026-01-16 02:16:55.46	257.84	9.14	-28.9	-31.6	12.6	7.47e-05	0	44	0	1647312896	17	4920
2026-01-16 02:16:58.46	257.54	8.93	-29.0	-31.3	12.5	2.53e-04	0	44	0	1656750080	18	4715
2026-01-16 02:17:01.45	257.25	8.72	-29.0	-31.3	12.5	1.37e-04	0	44	0	1666187264	18	4717
2026-01-16 02:17:04.46	256.97	8.52	-29.2	-31.9	12.1	1.31e-03	0	44	0	1675624448	18	4911
2026-01-16 02:17:07.47	256.68	8.31	-28.8	-31.5	12.6	9.53e-05	0	44	0	1685061632	17	4884
2026-01-16 02:17:10.47	256.40	8.11	-29.0	-31.4	12.4	1.04e-04	0	44	0	1694498816	18	4759
2026-01-16 02:17:13.48	256.13	7.91	-29.2	-32.0	12.0	2.40e-03	0	44	0	1703936000	18	4942
2026-01-16 02:17:16.48	255.86	7.71	-29.6	-32.4	11.3	1.87e-03	0	44	0	1713373184	19	5003
2026-01-16 02:17:19.50	255.59	7.50	-29.7	-32.9	11.0	2.18e-03	0	44	0	1722810368	19	5177
2026-01-16 02:17:22.51	255.33	7.30	-29.5	-32.3	11.4	1.19e-03	0	44	0	1732247552	19	4947
2026-01-16 02:17:25.53	255.06	7.11	-29.7	-32.7	11.1	1.62e-03	0	44	0	1741684736	19	5102
2026-01-16 02:17:28.52	254.81	6.91	-33.6	-45.6	3.8	1.49e+00	0	44	104	1744830464	27	14308

#Closed at: 2026-01-16 02:17:30
#Recorded file [1744 MB]: D:/data/31010_260116_050807.dat