passes_logs/2026/01/16/R2M6_AANII_01/R2M6_AANII_01__20260116_115543_FENGYUN_3E_rec.log

#Pass ID: 20260116_115543_FENGYUN 3E
#Satellite: FENGYUN 3E
#Configuration: FENGYUN 3E
#almurnet v.1.7.20240730
#Start time: 2026-01-16 12:00:03

#Version: 2.2.20231116
#Station: R2M6_AANII_01
#Location: 30.233357 lon 59.946436 lat
#TLE: 1 49008U 21062A   26015.49897766  .00000206  00000+0  11779-3 0  9997
#TLE: 2 49008  98.7486  20.6219 0002049 135.8566 224.2775 14.19885576234916

#Time	Az	El	Level	Level2	SNR	BER	BlckErr	Temp	State	Recorded	gain1	gain2
2026-01-16 12:00:03.78	30.21	15.39	-33.8	-45.1	3.8	8.45e-01	0	43	0	0	27	13228
2026-01-16 12:00:04.78	30.00	15.38	-34.2	-43.2	3.8	8.45e-01	0	43	104	0	29	10221
2026-01-16 12:00:05.78	29.79	15.37	-34.2	-43.3	3.8	8.46e-01	0	43	104	0	29	10228
2026-01-16 12:00:06.77	29.58	15.36	-34.2	-43.3	3.8	8.46e-01	0	43	104	0	29	10255
2026-01-16 12:00:07.78	29.36	15.35	-34.2	-43.3	3.8	8.46e-01	0	43	104	0	29	10276
2026-01-16 12:00:08.78	29.15	15.34	-34.2	-43.4	3.8	8.45e-01	0	43	104	0	29	10327
2026-01-16 12:00:09.78	28.93	15.33	-34.2	-43.4	3.8	8.48e-01	0	43	104	0	29	10278
2026-01-16 12:00:10.79	28.72	15.32	-34.2	-43.3	3.8	8.45e-01	0	43	104	0	29	10197
2026-01-16 12:00:11.79	28.50	15.31	-34.2	-43.3	3.8	8.45e-01	0	43	104	0	29	10250
2026-01-16 12:00:12.79	28.29	15.30	-34.2	-43.3	3.8	8.46e-01	0	43	104	0	29	10236
2026-01-16 12:00:13.79	28.08	15.29	-34.2	-43.3	3.8	8.46e-01	0	43	104	0	29	10238
2026-01-16 12:00:14.79	27.87	15.28	-34.2	-43.2	3.8	8.45e-01	0	43	104	0	29	10195
2026-01-16 12:00:15.79	27.65	15.26	-34.2	-43.2	3.8	8.46e-01	0	43	104	0	29	10167
2026-01-16 12:00:16.79	27.44	15.25	-34.1	-43.2	3.8	8.47e-01	0	43	104	0	29	10183
2026-01-16 12:00:17.79	27.23	15.24	-34.2	-43.2	3.8	8.45e-01	0	43	104	0	29	10127
2026-01-16 12:00:18.80	27.02	15.22	-34.3	-43.4	3.8	8.46e-01	0	43	104	0	29	10330
2026-01-16 12:00:19.80	26.80	15.21	-34.3	-43.5	3.8	8.47e-01	0	43	104	0	29	10400
2026-01-16 12:00:20.81	26.59	15.20	-34.4	-43.6	3.8	8.46e-01	0	43	104	0	29	10420
2026-01-16 12:00:21.81	26.38	15.18	-34.4	-43.6	3.8	8.46e-01	0	43	104	0	29	10474
2026-01-16 12:00:22.81	26.17	15.17	-34.3	-43.6	3.8	8.45e-01	0	43	104	0	29	10445
2026-01-16 12:00:23.81	25.96	15.15	-34.3	-43.6	3.8	8.46e-01	0	43	104	0	29	10455
2026-01-16 12:00:24.81	25.75	15.14	-34.3	-43.5	3.8	8.46e-01	0	43	104	0	29	10417
2026-01-16 12:00:25.81	25.54	15.12	-34.3	-43.5	3.8	8.46e-01	0	43	104	0	29	10408
2026-01-16 12:00:26.81	25.33	15.10	-34.3	-43.5	3.8	8.45e-01	0	43	104	0	29	10413
2026-01-16 12:00:27.81	25.12	15.09	-34.3	-43.4	3.8	8.45e-01	0	43	104	0	29	10332
2026-01-16 12:00:28.82	24.91	15.07	-34.2	-43.4	3.8	8.46e-01	0	43	104	0	29	10306
2026-01-16 12:00:29.82	24.70	15.05	-34.2	-43.2	3.8	8.47e-01	0	43	104	0	29	10189
2026-01-16 12:00:30.83	24.49	15.03	-34.1	-43.2	3.8	8.45e-01	0	43	104	0	29	10198
2026-01-16 12:00:31.83	24.28	15.01	-34.0	-43.0	3.8	8.46e-01	0	43	104	0	29	10078
2026-01-16 12:00:32.82	24.07	14.99	-33.9	-42.8	3.8	8.45e-01	0	43	104	0	29	9970
2026-01-16 12:00:33.82	23.86	14.98	-33.8	-42.7	3.8	8.46e-01	0	43	104	0	28	10104
2026-01-16 12:00:34.83	23.65	14.96	-33.6	-42.6	3.8	8.45e-01	0	43	104	0	28	10154
2026-01-16 12:00:35.83	23.45	14.94	-33.5	-42.5	3.8	8.47e-01	0	43	104	0	28	10109
2026-01-16 12:00:36.84	23.24	14.92	-33.5	-42.3	3.8	8.46e-01	0	43	104	0	28	9897
2026-01-16 12:00:37.84	23.03	14.90	-33.5	-42.0	3.8	8.46e-01	0	43	104	0	28	9589
2026-01-16 12:00:38.84	22.82	14.87	-33.4	-41.7	3.8	8.46e-01	0	43	104	0	28	9369
2026-01-16 12:00:39.85	22.61	14.85	-33.4	-41.5	3.8	8.46e-01	0	43	104	0	28	9191
2026-01-16 12:00:40.85	22.41	14.83	-33.4	-41.5	3.8	8.46e-01	0	43	104	0	28	9220
2026-01-16 12:00:41.86	22.20	14.81	-33.4	-41.7	3.8	8.46e-01	0	43	104	0	28	9336
2026-01-16 12:00:42.86	21.99	14.79	-33.4	-41.9	3.8	8.46e-01	0	43	104	0	28	9533
2026-01-16 12:00:43.85	21.79	14.76	-33.4	-42.0	3.8	8.45e-01	0	43	104	0	28	9660
2026-01-16 12:00:44.85	21.59	14.74	-33.5	-42.0	3.8	8.46e-01	0	43	104	0	28	9683
2026-01-16 12:00:45.85	21.38	14.72	-33.4	-41.9	3.8	8.46e-01	0	43	104	0	28	9561
2026-01-16 12:00:46.86	21.17	14.69	-33.5	-41.9	3.8	8.44e-01	0	43	104	0	28	9537
2026-01-16 12:00:47.86	20.97	14.67	-33.4	-41.9	3.8	8.45e-01	0	43	104	0	28	9493
2026-01-16 12:00:48.87	20.77	14.64	-33.4	-41.6	3.8	8.45e-01	0	43	104	0	28	9287
2026-01-16 12:00:49.87	20.56	14.62	-33.4	-41.4	3.8	8.46e-01	0	43	104	0	27	9079
2026-01-16 12:00:50.87	20.36	14.59	-33.2	-40.2	3.8	8.45e-01	0	43	104	0	27	8126
2026-01-16 12:00:51.88	20.15	14.57	-33.0	-39.0	3.9	8.44e-01	0	43	104	0	27	7196
2026-01-16 12:00:52.88	19.95	14.54	-32.8	-38.1	4.6	8.24e-01	0	43	104	0	26	6658
2026-01-16 12:00:53.89	19.75	14.52	-32.6	-37.4	4.8	8.02e-01	0	43	0	0	26	6273
2026-01-16 12:00:54.90	19.55	14.49	-32.3	-36.7	5.3	7.44e-01	0	43	0	0	25	5968
2026-01-16 12:00:55.90	19.34	14.46	-31.6	-34.7	6.7	2.88e-01	0	43	0	3145728	24	5119
2026-01-16 12:00:56.91	19.14	14.44	-30.4	-31.9	9.2	3.06e-02	0	43	0	10485760	22	4296
2026-01-16 12:00:57.90	18.94	14.41	-29.4	-30.5	10.7	6.76e-03	0	43	0	17825792	20	4083
2026-01-16 12:00:58.90	18.74	14.38	-29.0	-29.8	11.5	1.24e-03	0	43	0	25165824	19	3973
2026-01-16 12:00:59.90	18.54	14.35	-29.2	-30.3	11.2	1.67e-03	0	43	0	32505856	19	4123
2026-01-16 12:01:00.90	18.34	14.32	-29.1	-30.1	11.3	1.23e-03	0	43	0	38797312	19	4044
2026-01-16 12:01:01.90	18.15	14.30	-28.8	-29.8	11.8	6.56e-04	0	43	0	46137344	18	4079
2026-01-16 12:01:02.91	17.95	14.27	-28.6	-29.5	12.0	2.89e-04	0	43	0	53477376	18	3991
2026-01-16 12:01:03.91	17.75	14.24	-28.5	-29.2	12.2	2.72e-04	0	43	0	60817408	18	3898
2026-01-16 12:01:04.92	17.55	14.21	-28.4	-29.1	12.3	1.93e-04	0	43	0	68157440	18	3881
2026-01-16 12:01:05.92	17.35	14.18	-28.4	-29.6	12.2	2.00e-04	0	43	0	75497472	17	4096
2026-01-16 12:01:06.93	17.15	14.15	-28.4	-29.5	12.2	2.12e-04	0	43	0	82837504	17	4093
2026-01-16 12:01:07.93	16.96	14.12	-28.0	-28.4	12.9	8.81e-05	0	43	0	90177536	17	3805
2026-01-16 12:01:08.93	16.76	14.09	-27.2	-27.7	13.7	4.50e-06	0	43	0	97517568	15	3834
2026-01-16 12:01:09.94	16.56	14.05	-26.6	-27.0	14.5	2.20e-06	0	43	0	104857600	14	3746
2026-01-16 12:01:10.95	16.36	14.02	-26.1	-26.4	15.0	1.10e-06	0	43	0	112197632	13	3707
2026-01-16 12:01:11.95	16.17	13.99	-25.8	-26.1	15.5	0.00e+00	0	44	0	119537664	12	3739
2026-01-16 12:01:12.95	15.98	13.96	-25.6	-25.7	15.7	0.00e+00	0	43	0	125829120	12	3644
2026-01-16 12:01:13.95	15.78	13.93	-25.4	-25.3	15.9	0.00e+00	0	43	0	133169152	12	3568
2026-01-16 12:01:14.95	15.59	13.89	-25.5	-25.6	15.8	0.00e+00	0	43	0	140509184	12	3620
2026-01-16 12:01:15.95	15.40	13.86	-25.4	-25.3	15.9	0.00e+00	0	43	0	147849216	12	3563
2026-01-16 12:01:16.95	15.20	13.83	-25.6	-26.3	15.7	0.00e+00	0	43	0	155189248	11	3871
2026-01-16 12:01:17.95	15.01	13.79	-25.6	-26.1	15.8	0.00e+00	0	43	0	162529280	11	3847
2026-01-16 12:01:18.95	14.82	13.76	-25.6	-26.3	15.7	0.00e+00	0	43	0	169869312	11	3873
2026-01-16 12:01:19.95	14.63	13.73	-25.5	-26.0	15.8	0.00e+00	0	44	0	177209344	11	3820
2026-01-16 12:01:20.95	14.44	13.69	-25.7	-26.4	15.6	0.00e+00	0	43	0	184549376	11	3911
2026-01-16 12:01:21.95	14.25	13.66	-25.7	-26.4	15.6	0.00e+00	0	43	0	190840832	11	3918
2026-01-16 12:01:22.94	14.06	13.62	-25.7	-26.5	15.6	0.00e+00	0	43	0	198180864	11	3932
2026-01-16 12:01:23.94	13.87	13.59	-25.8	-26.6	15.5	0.00e+00	0	43	0	205520896	11	3954
2026-01-16 12:01:24.94	13.68	13.55	-25.8	-26.7	15.5	0.00e+00	0	43	0	212860928	11	3983
2026-01-16 12:01:25.95	13.49	13.52	-25.7	-26.5	15.6	0.00e+00	0	43	0	220200960	11	3932
2026-01-16 12:01:26.95	13.30	13.48	-25.7	-26.5	15.6	0.00e+00	0	43	0	227540992	11	3924
2026-01-16 12:01:27.95	13.11	13.45	-26.0	-27.1	15.2	0.00e+00	0	43	0	234881024	11	4090
2026-01-16 12:01:28.95	12.93	13.41	-25.8	-26.7	15.5	0.00e+00	0	43	0	242221056	11	3976
2026-01-16 12:01:29.96	12.74	13.37	-25.9	-26.8	15.4	0.00e+00	0	43	0	248512512	11	4000
2026-01-16 12:01:30.96	12.55	13.34	-26.1	-27.3	15.1	0.00e+00	0	43	0	255852544	11	4122
2026-01-16 12:01:31.96	12.37	13.30	-26.1	-26.8	15.0	0.00e+00	0	44	0	263192576	12	3896
2026-01-16 12:01:32.96	12.18	13.26	-26.1	-26.9	15.0	0.00e+00	0	43	0	270532608	12	3934
2026-01-16 12:01:33.97	12.00	13.22	-27.0	-28.3	13.9	1.10e-06	0	43	0	277872640	13	4196
2026-01-16 12:01:34.96	11.81	13.19	-26.9	-28.0	14.1	0.00e+00	0	43	0	285212672	13	4117
2026-01-16 12:01:35.97	11.63	13.15	-26.9	-28.0	14.1	3.40e-06	0	43	0	292552704	13	4115
2026-01-16 12:01:36.97	11.44	13.11	-27.0	-28.3	13.9	2.20e-06	0	43	0	299892736	13	4200
2026-01-16 12:01:37.97	11.26	13.07	-27.2	-28.2	13.7	6.80e-06	0	43	0	307232768	14	4056
2026-01-16 12:01:38.98	11.08	13.03	-27.2	-28.3	13.6	9.10e-06	0	44	0	313524224	14	4082
2026-01-16 12:01:39.98	10.89	12.99	-28.1	-29.3	13.1	2.86e-05	0	43	0	320864256	15	4120
2026-01-16 12:01:40.98	10.71	12.96	-27.3	-27.9	13.5	1.25e-05	0	43	0	328204288	15	3882
2026-01-16 12:01:41.98	10.53	12.92	-26.8	-27.4	14.1	0.00e+00	0	43	0	335544320	14	3861
2026-01-16 12:01:42.99	10.35	12.88	-26.8	-27.3	14.2	3.40e-06	0	43	0	342884352	14	3824
2026-01-16 12:01:43.99	10.17	12.84	-26.9	-27.6	14.0	3.40e-06	0	43	0	350224384	14	3896
2026-01-16 12:01:44.99	9.99	12.80	-26.8	-27.3	14.2	1.10e-06	0	43	0	357564416	14	3836
2026-01-16 12:01:45.99	9.81	12.76	-27.9	-29.3	12.7	4.92e-05	0	43	0	364904448	15	4255
2026-01-16 12:01:46.99	9.63	12.72	-27.2	-27.8	13.6	3.54e-05	0	43	0	372244480	15	3842
2026-01-16 12:01:48.00	9.45	12.68	-26.9	-27.5	14.1	3.40e-06	0	43	0	379584512	14	3870
2026-01-16 12:01:49.00	9.28	12.63	-26.7	-27.2	14.2	2.20e-06	0	43	0	386924544	14	3797
2026-01-16 12:01:50.00	9.10	12.59	-26.8	-27.3	14.2	3.40e-06	0	44	0	394264576	14	3816
2026-01-16 12:01:51.00	8.92	12.55	-27.2	-28.3	13.5	9.10e-06	0	43	0	400556032	14	4092
2026-01-16 12:01:52.00	8.75	12.51	-27.0	-27.8	13.8	1.37e-05	0	43	0	407896064	14	3960
2026-01-16 12:01:53.00	8.57	12.47	-27.3	-28.5	13.4	2.05e-05	0	43	0	415236096	14	4146
2026-01-16 12:01:54.00	8.40	12.43	-27.2	-28.4	13.5	1.37e-05	0	43	0	422576128	14	4102
2026-01-16 12:01:55.00	8.22	12.39	-27.1	-28.1	13.7	8.00e-06	0	43	0	429916160	14	4025
2026-01-16 12:01:56.00	8.05	12.34	-26.6	-27.0	14.3	3.40e-06	0	43	0	437256192	14	3745
2026-01-16 12:01:57.01	7.87	12.30	-27.1	-28.0	13.7	0.00e+00	0	43	0	444596224	14	4008
2026-01-16 12:01:58.01	7.70	12.26	-26.5	-26.7	14.4	0.00e+00	0	43	0	451936256	14	3688
2026-01-16 12:01:59.01	7.53	12.22	-26.4	-27.1	14.5	1.10e-06	0	43	0	458227712	13	3869
2026-01-16 12:02:00.02	7.36	12.17	-26.2	-26.5	14.8	0.00e+00	0	43	0	465567744	13	3742
2026-01-16 12:02:01.02	7.18	12.13	-26.3	-26.7	14.7	1.10e-06	0	43	0	472907776	13	3784
2026-01-16 12:02:02.02	7.01	12.09	-26.1	-26.2	14.9	1.10e-06	0	43	0	480247808	13	3668
2026-01-16 12:02:03.01	6.84	12.04	-26.8	-27.9	14.0	1.10e-06	0	43	0	487587840	13	4089
2026-01-16 12:02:04.01	6.68	12.00	-26.6	-27.3	14.3	3.40e-06	0	43	0	494927872	13	3941
2026-01-16 12:02:05.02	6.50	11.96	-26.5	-27.3	14.3	0.00e+00	0	43	0	502267904	13	3938
2026-01-16 12:02:06.02	6.34	11.91	-26.7	-27.6	14.1	0.00e+00	0	43	0	509607936	13	4012
2026-01-16 12:02:07.02	6.17	11.87	-26.5	-27.3	14.3	1.10e-06	0	44	0	516947968	13	3939
2026-01-16 12:02:08.02	6.00	11.82	-26.3	-26.8	14.6	1.10e-06	0	43	0	523239424	13	3804
2026-01-16 12:02:09.01	5.83	11.78	-26.4	-27.1	14.5	0.00e+00	0	43	0	530579456	13	3891
2026-01-16 12:02:10.01	5.67	11.73	-26.6	-27.4	14.3	3.40e-06	0	43	0	537919488	13	3952
2026-01-16 12:02:11.02	5.50	11.69	-26.5	-27.2	14.3	1.10e-06	0	43	0	545259520	13	3915
2026-01-16 12:02:12.03	5.33	11.64	-26.8	-27.9	14.0	9.10e-06	0	43	0	552599552	13	4075
2026-01-16 12:02:13.03	5.17	11.60	-26.9	-28.2	13.8	6.80e-06	0	43	0	559939584	13	4171
2026-01-16 12:02:14.02	5.00	11.55	-26.6	-27.4	14.2	3.40e-06	0	43	0	567279616	13	3958
2026-01-16 12:02:15.03	4.84	11.51	-26.3	-26.8	14.6	1.10e-06	0	44	0	574619648	13	3823
2026-01-16 12:02:16.03	4.67	11.46	-26.2	-26.5	14.7	0.00e+00	0	43	0	580911104	13	3737
2026-01-16 12:02:17.04	4.51	11.42	-26.1	-26.4	14.8	0.00e+00	0	44	0	589299712	13	3728
2026-01-16 12:02:18.04	4.35	11.37	-26.3	-26.8	14.6	0.00e+00	0	43	0	596639744	13	3814
2026-01-16 12:02:19.04	4.19	11.33	-26.2	-26.5	14.7	0.00e+00	0	43	0	602931200	13	3738
2026-01-16 12:02:20.04	4.02	11.28	-26.4	-26.9	14.5	0.00e+00	0	43	0	610271232	13	3844
2026-01-16 12:02:21.04	3.86	11.23	-26.1	-26.4	14.8	0.00e+00	0	43	0	617611264	13	3712
2026-01-16 12:02:22.04	3.70	11.19	-26.0	-26.2	14.9	0.00e+00	0	43	0	624951296	13	3664
2026-01-16 12:02:23.05	3.54	11.14	-26.0	-26.2	14.9	0.00e+00	0	43	0	632291328	13	3665
2026-01-16 12:02:24.04	3.38	11.09	-26.3	-26.7	14.6	1.10e-06	0	44	0	639631360	13	3786
2026-01-16 12:02:25.05	3.22	11.05	-26.0	-26.2	14.9	0.00e+00	0	43	0	646971392	13	3672
2026-01-16 12:02:26.05	3.06	11.00	-26.0	-26.1	14.9	0.00e+00	0	43	0	654311424	13	3658
2026-01-16 12:02:27.05	2.91	10.95	-26.1	-26.4	14.7	1.10e-06	0	43	0	661651456	13	3724
2026-01-16 12:02:28.05	2.75	10.91	-26.1	-26.4	14.7	0.00e+00	0	43	0	667942912	13	3714
2026-01-16 12:02:29.05	2.59	10.86	-26.2	-26.6	14.6	2.20e-06	0	43	0	675282944	13	3772
2026-01-16 12:02:30.05	2.44	10.81	-26.2	-26.6	14.6	0.00e+00	0	44	0	682622976	13	3759
2026-01-16 12:02:31.05	2.28	10.76	-26.3	-26.8	14.5	0.00e+00	0	43	0	689963008	13	3826
2026-01-16 12:02:32.05	2.12	10.72	-26.6	-27.5	14.1	3.40e-06	0	43	0	697303040	13	3987
2026-01-16 12:02:33.06	1.97	10.67	-26.5	-27.3	14.2	1.10e-06	0	43	0	704643072	13	3936
2026-01-16 12:02:34.06	1.81	10.62	-26.5	-27.3	14.2	2.20e-06	0	43	0	711983104	13	3936
2026-01-16 12:02:35.06	1.66	10.57	-26.5	-27.3	14.2	1.10e-06	0	43	0	719323136	13	3936
2026-01-16 12:02:36.07	1.51	10.53	-26.7	-27.6	14.1	1.10e-06	0	43	0	726663168	13	4024
2026-01-16 12:02:37.07	1.35	10.48	-26.5	-27.3	14.2	3.40e-06	0	44	0	732954624	13	3932
2026-01-16 12:02:38.07	1.20	10.43	-26.4	-27.1	14.3	1.10e-06	0	43	0	740294656	13	3882
2026-01-16 12:02:39.07	1.05	10.38	-26.5	-27.2	14.3	1.10e-06	0	43	0	747634688	13	3903
2026-01-16 12:02:40.08	0.90	10.33	-26.5	-27.2	14.3	1.10e-06	0	43	0	754974720	13	3920
2026-01-16 12:02:41.08	0.75	10.28	-26.5	-27.2	14.2	0.00e+00	0	43	0	762314752	13	3913
2026-01-16 12:02:42.09	0.59	10.23	-26.6	-27.5	14.1	1.10e-06	0	43	0	769654784	13	3988
2026-01-16 12:02:43.09	0.44	10.19	-26.5	-27.2	14.3	2.20e-06	0	43	0	776994816	13	3902
2026-01-16 12:02:44.10	0.29	10.14	-26.4	-27.0	14.4	2.20e-06	0	43	0	784334848	13	3853
2026-01-16 12:02:45.10	0.15	10.09	-26.5	-27.2	14.2	2.20e-06	0	43	0	791674880	13	3914
2026-01-16 12:02:46.11	360.00	10.04	-26.3	-26.9	14.4	1.10e-06	0	43	0	799014912	13	3833
2026-01-16 12:02:47.11	359.85	9.99	-26.5	-27.3	14.2	0.00e+00	0	43	0	806354944	13	3948
2026-01-16 12:02:48.11	359.70	9.94	-26.5	-27.2	14.3	0.00e+00	0	43	0	812646400	13	3910
2026-01-16 12:02:49.11	359.55	9.89	-26.4	-27.1	14.3	1.10e-06	0	43	0	819986432	13	3896
2026-01-16 12:02:50.11	359.41	9.84	-26.4	-27.1	14.3	1.10e-06	0	43	0	827326464	13	3888
2026-01-16 12:02:51.11	359.26	9.79	-26.4	-27.1	14.3	0.00e+00	0	43	0	834666496	13	3878
2026-01-16 12:02:52.10	359.12	9.74	-26.5	-27.2	14.3	1.10e-06	0	43	0	842006528	13	3901
2026-01-16 12:02:53.11	358.97	9.69	-26.5	-27.3	14.2	1.10e-06	0	43	0	849346560	13	3929
2026-01-16 12:02:54.11	358.83	9.64	-26.4	-27.1	14.3	1.10e-06	0	43	0	856686592	13	3880
2026-01-16 12:02:55.11	358.69	9.59	-26.5	-27.4	14.1	1.10e-06	0	43	0	864026624	13	3959
2026-01-16 12:02:56.10	358.54	9.55	-26.4	-27.0	14.3	1.10e-06	0	43	0	871366656	13	3876
2026-01-16 12:02:57.11	358.40	9.49	-26.5	-27.4	14.1	3.40e-06	0	44	0	877658112	13	3954
2026-01-16 12:02:58.11	358.26	9.45	-26.5	-27.2	14.2	3.40e-06	0	43	0	884998144	13	3911
2026-01-16 12:02:59.12	358.11	9.39	-26.5	-27.2	14.2	0.00e+00	0	43	0	892338176	13	3910
2026-01-16 12:03:00.12	357.97	9.34	-26.8	-28.0	13.8	8.00e-06	0	43	0	899678208	13	4122
2026-01-16 12:03:01.13	357.83	9.29	-26.7	-27.7	13.9	4.50e-06	0	43	0	907018240	13	4040
2026-01-16 12:03:02.13	357.69	9.24	-26.6	-27.6	14.0	3.40e-06	0	43	0	914358272	13	4016
2026-01-16 12:03:03.13	357.55	9.19	-26.7	-27.8	13.8	4.50e-06	0	43	0	921698304	13	4076
2026-01-16 12:03:04.13	357.41	9.14	-26.8	-28.0	13.7	8.00e-06	0	43	0	929038336	13	4129
2026-01-16 12:03:05.13	357.27	9.09	-26.8	-27.9	13.8	8.00e-06	0	43	0	936378368	13	4103
2026-01-16 12:03:06.14	357.13	9.04	-27.1	-28.6	13.3	1.25e-05	0	43	0	943718400	13	4297
2026-01-16 12:03:07.14	357.00	8.99	-27.2	-28.3	13.3	2.51e-05	0	43	0	951058432	14	4105
2026-01-16 12:03:08.14	356.86	8.94	-26.9	-27.7	13.6	9.10e-06	0	43	0	957349888	14	3939
2026-01-16 12:03:09.13	356.72	8.89	-26.9	-27.6	13.7	1.14e-05	0	43	0	964689920	14	3914
2026-01-16 12:03:10.13	356.59	8.84	-26.8	-27.5	13.7	9.10e-06	0	43	0	972029952	14	3892
2026-01-16 12:03:11.14	356.45	8.79	-26.9	-27.6	13.6	9.10e-06	0	43	0	979369984	14	3927
2026-01-16 12:03:12.14	356.32	8.74	-26.9	-27.7	13.6	1.25e-05	0	43	0	986710016	14	3943
2026-01-16 12:03:13.14	356.18	8.69	-26.6	-27.1	13.9	8.00e-06	0	43	0	994050048	14	3780
2026-01-16 12:03:14.14	356.05	8.64	-26.7	-27.2	13.8	4.50e-06	0	43	0	1001390080	14	3813
2026-01-16 12:03:15.14	355.91	8.59	-26.6	-27.1	13.9	1.10e-06	0	43	0	1008730112	14	3781
2026-01-16 12:03:16.14	355.78	8.54	-26.6	-26.9	14.0	1.10e-06	0	43	0	1016070144	14	3749
2026-01-16 12:03:17.14	355.65	8.48	-26.6	-26.9	14.0	4.50e-06	0	43	0	1022361600	14	3749
2026-01-16 12:03:18.15	355.51	8.43	-26.7	-27.3	13.8	6.80e-06	0	43	0	1029701632	14	3849
2026-01-16 12:03:19.15	355.38	8.38	-26.7	-27.3	13.8	8.00e-06	0	43	0	1037041664	14	3831
2026-01-16 12:03:20.15	355.25	8.33	-26.8	-27.3	13.7	4.50e-06	0	43	0	1044381696	14	3850
2026-01-16 12:03:21.15	355.12	8.28	-26.9	-27.7	13.6	1.14e-05	0	44	0	1051721728	14	3938
2026-01-16 12:03:22.15	354.99	8.23	-26.8	-27.5	13.6	4.50e-06	0	43	0	1059061760	14	3905
2026-01-16 12:03:23.15	354.86	8.18	-26.9	-27.7	13.5	5.70e-06	0	43	0	1066401792	14	3938
2026-01-16 12:03:24.16	354.73	8.13	-26.9	-27.7	13.5	1.60e-05	0	43	0	1073741824	14	3955
2026-01-16 12:03:25.16	354.60	8.07	-26.9	-27.7	13.5	8.00e-06	0	43	0	1081081856	14	3943
2026-01-16 12:03:26.16	354.47	8.02	-27.1	-28.3	13.1	1.71e-05	0	43	0	1087373312	14	4096
2026-01-16 12:03:27.16	354.34	7.97	-26.9	-27.6	13.5	6.80e-06	0	43	0	1094713344	14	3934
2026-01-16 12:03:28.15	354.22	7.92	-27.0	-27.9	13.3	1.60e-05	0	43	0	1102053376	14	4014
2026-01-16 12:03:29.16	354.09	7.87	-26.9	-27.7	13.5	2.05e-05	0	44	0	1109393408	14	3953
2026-01-16 12:03:30.16	353.96	7.82	-26.8	-27.6	13.5	2.05e-05	0	43	0	1116733440	14	3914
2026-01-16 12:03:31.16	353.83	7.77	-26.9	-27.8	13.4	1.25e-05	0	43	0	1124073472	14	3972
2026-01-16 12:03:32.16	353.71	7.72	-26.7	-27.3	13.7	1.60e-05	0	43	0	1131413504	14	3851
2026-01-16 12:03:33.16	353.58	7.66	-26.9	-27.6	13.5	1.25e-05	0	43	0	1138753536	14	3921
2026-01-16 12:03:34.16	353.46	7.61	-26.8	-27.6	13.5	2.17e-05	0	43	0	1145044992	14	3912
2026-01-16 12:03:35.16	353.33	7.56	-26.9	-27.8	13.4	1.83e-05	0	43	0	1152385024	14	3966
2026-01-16 12:03:36.16	353.21	7.51	-26.9	-27.7	13.4	2.40e-05	0	44	0	1159725056	14	3957
2026-01-16 12:03:37.17	353.09	7.46	-27.0	-27.8	13.4	1.94e-05	0	43	0	1167065088	14	3976
2026-01-16 12:03:38.17	352.96	7.41	-26.8	-27.6	13.5	1.14e-05	0	43	0	1174405120	14	3911
2026-01-16 12:03:39.17	352.84	7.35	-26.9	-27.8	13.3	1.94e-05	0	43	0	1181745152	14	3977
2026-01-16 12:03:40.17	352.72	7.30	-26.9	-27.8	13.4	1.02e-05	0	43	0	1189085184	14	3968
2026-01-16 12:03:41.18	352.59	7.25	-27.1	-28.2	13.1	1.94e-05	0	43	0	1196425216	14	4069
2026-01-16 12:03:42.17	352.47	7.20	-27.0	-28.0	13.2	2.86e-05	0	43	0	1203765248	14	4022
2026-01-16 12:03:43.17	352.35	7.15	-27.2	-28.4	13.0	2.86e-05	0	43	0	1210056704	14	4131
2026-01-16 12:03:44.17	352.23	7.10	-27.2	-28.5	12.9	7.78e-05	0	43	0	1217396736	14	4177
2026-01-16 12:03:45.17	352.11	7.04	-27.0	-28.1	13.2	5.49e-05	0	43	0	1224736768	14	4048
2026-01-16 12:03:46.17	351.99	6.99	-33.2	-42.8	3.8	8.46e-01	0	43	104	1226833920	26	10804

#Closed at: 2026-01-16 12:03:46
#Recorded file [1226 MB]: D:/data/31010_260116_150052.dat