passes_logs/2026/01/16/R2M6_AANII_01/R2M6_AANII_01__20260116_033539_FENGYUN_3D_rec.log

#Pass ID: 20260116_033539_FENGYUN 3D
#Satellite: FENGYUN 3D
#Configuration: FENGYUN 3D
#almurnet v.1.7.20240730
#Start time: 2026-01-16 03:35:40

#Version: 2.2.20231116
#Station: R2M6_AANII_01
#Location: 30.233357 lon 59.946436 lat
#TLE: 1 43010U 17072A   26015.49690188 -.00000192  00000+0 -69217-4 0  9996
#TLE: 2 43010  98.9932 347.3205 0002350 106.2275 253.9159 14.19694721423329

#Time	Az	El	Level	Level2	SNR	BER	BlckErr	Temp	State	Recorded	gain1	gain2
2026-01-16 03:35:40.11	13.49	7.06	-31.3	-36.3	4.8	8.11e-01	0	41	0	0	22	6407
2026-01-16 03:35:43.10	13.33	7.27	-31.3	-36.0	7.1	1.15e-01	0	41	0	5242880	22	6198
2026-01-16 03:35:46.10	13.15	7.49	-31.2	-35.8	7.3	1.04e-01	0	41	0	22020096	22	6112
2026-01-16 03:35:49.09	12.98	7.71	-31.1	-35.2	7.8	6.46e-02	0	42	0	38797312	22	5785
2026-01-16 03:35:52.09	12.80	7.94	-30.7	-33.9	8.7	3.82e-02	0	42	0	55574528	22	5237
2026-01-16 03:35:55.09	12.62	8.16	-29.2	-31.3	11.5	7.43e-04	0	42	0	72351744	19	4599
2026-01-16 03:35:58.09	12.43	8.39	-27.9	-29.1	13.5	8.00e-06	0	42	0	89128960	17	4135
2026-01-16 03:36:01.08	12.25	8.61	-27.8	-29.6	13.6	1.10e-06	0	42	0	105906176	16	4381
2026-01-16 03:36:04.07	12.06	8.84	-27.7	-29.8	13.6	2.20e-06	0	42	0	123731968	15	4579
2026-01-16 03:36:07.09	11.86	9.07	-27.8	-30.1	13.4	8.00e-06	0	42	0	140509184	15	4656
2026-01-16 03:36:10.09	11.66	9.31	-27.3	-28.8	14.2	0.00e+00	0	42	0	157286400	15	4266
2026-01-16 03:36:13.08	11.47	9.54	-27.3	-28.9	14.2	1.10e-06	0	42	0	174063616	15	4290
2026-01-16 03:36:16.09	11.26	9.78	-27.0	-28.2	14.6	0.00e+00	0	42	0	190840832	15	4111
2026-01-16 03:36:19.08	11.05	10.02	-27.1	-28.3	14.5	2.20e-06	0	42	0	207618048	15	4129
2026-01-16 03:36:22.08	10.84	10.26	-27.1	-28.4	14.5	0.00e+00	0	43	0	224395264	15	4171
2026-01-16 03:36:25.08	10.63	10.50	-26.9	-28.3	14.8	0.00e+00	0	42	0	241172480	14	4258
2026-01-16 03:36:28.08	10.41	10.74	-27.0	-28.5	14.8	0.00e+00	0	42	0	257949696	14	4300
2026-01-16 03:36:31.11	10.18	10.99	-26.7	-27.9	15.1	0.00e+00	0	42	0	275775488	14	4149
2026-01-16 03:36:34.11	9.96	11.24	-26.8	-28.7	14.9	0.00e+00	0	43	0	292552704	13	4479
2026-01-16 03:36:37.11	9.73	11.49	-26.7	-28.5	15.1	0.00e+00	0	43	0	309329920	13	4403
2026-01-16 03:36:40.11	9.49	11.74	-26.7	-28.5	15.1	0.00e+00	0	43	0	326107136	13	4412
2026-01-16 03:36:43.11	9.25	12.00	-26.5	-28.0	15.3	0.00e+00	0	43	0	342884352	13	4282
2026-01-16 03:36:46.11	9.01	12.26	-26.3	-27.6	15.6	0.00e+00	0	43	0	359661568	13	4156
2026-01-16 03:36:49.12	8.76	12.52	-26.3	-27.6	15.6	0.00e+00	0	43	0	376438784	13	4171
2026-01-16 03:36:52.12	8.51	12.78	-26.2	-27.4	15.7	0.00e+00	0	43	0	393216000	13	4102
2026-01-16 03:36:55.12	8.25	13.04	-26.3	-27.5	15.7	0.00e+00	0	43	0	409993216	13	4133
2026-01-16 03:36:58.14	7.99	13.31	-26.2	-27.7	15.8	0.00e+00	0	43	0	426770432	12	4300
2026-01-16 03:37:01.15	7.72	13.58	-26.1	-27.6	15.6	0.00e+00	0	43	0	444596224	12	4262
2026-01-16 03:37:04.15	7.45	13.85	-26.1	-27.5	16.0	0.00e+00	0	43	0	461373440	12	4250
2026-01-16 03:37:07.17	7.17	14.12	-25.9	-27.2	16.1	9.84e-05	0	43	0	478150656	12	4163
2026-01-16 03:37:10.18	6.88	14.40	-26.0	-27.5	16.0	7.78e-05	0	43	0	494927872	12	4233
2026-01-16 03:37:13.17	6.60	14.68	-26.0	-27.3	16.1	0.00e+00	0	43	0	511705088	12	4201
2026-01-16 03:37:16.18	6.30	14.96	-26.0	-27.3	16.1	8.35e-05	0	43	0	528482304	12	4187
2026-01-16 03:37:19.19	6.00	15.24	-26.1	-27.6	16.0	1.82e-04	0	43	0	545259520	12	4263
2026-01-16 03:37:22.20	5.69	15.53	-25.9	-27.1	16.3	1.93e-04	0	43	0	562036736	12	4136
2026-01-16 03:37:25.21	5.38	15.81	-25.8	-27.0	16.4	1.50e-04	0	43	0	579862528	12	4106
2026-01-16 03:37:28.21	5.06	16.10	-25.8	-27.4	16.5	1.81e-04	0	43	0	596639744	11	4321
2026-01-16 03:37:31.20	4.74	16.40	-25.6	-27.0	16.7	1.34e-04	0	43	0	613416960	11	4224
2026-01-16 03:37:34.19	4.41	16.69	-25.6	-26.9	16.8	2.17e-05	0	43	0	630194176	11	4200
2026-01-16 03:37:37.20	4.07	16.99	-25.6	-26.9	16.8	0.00e+00	0	43	0	646971392	11	4201
2026-01-16 03:37:40.19	3.72	17.29	-25.3	-26.2	17.2	0.00e+00	0	43	0	663748608	11	4009
2026-01-16 03:37:43.19	3.37	17.59	-25.3	-26.2	17.2	0.00e+00	0	43	0	680525824	11	4013
2026-01-16 03:37:46.19	3.01	17.90	-25.3	-26.4	17.1	0.00e+00	0	43	0	697303040	11	4064
2026-01-16 03:37:49.19	2.64	18.21	-25.5	-26.8	16.9	0.00e+00	0	43	0	714080256	11	4158
2026-01-16 03:37:52.20	2.27	18.52	-25.4	-26.4	17.1	0.00e+00	0	43	0	730857472	11	4064
2026-01-16 03:37:55.21	1.88	18.83	-25.1	-25.8	17.4	0.00e+00	0	43	0	748683264	11	3919
2026-01-16 03:37:58.21	1.49	19.15	-25.2	-26.0	17.3	0.00e+00	0	43	0	765460480	11	3973
2026-01-16 03:38:01.20	1.09	19.47	-25.1	-25.9	17.4	0.00e+00	0	44	0	782237696	11	3931
2026-01-16 03:38:04.21	0.68	19.79	-25.0	-25.6	17.6	3.54e-05	0	43	0	799014912	11	3876
2026-01-16 03:38:07.21	0.27	20.11	-24.7	-25.4	18.0	0.00e+00	0	43	0	815792128	10	3924
2026-01-16 03:38:10.22	359.84	20.44	-24.6	-25.2	18.1	0.00e+00	0	44	0	832569344	10	3875
2026-01-16 03:38:13.22	359.40	20.77	-24.7	-25.4	18.0	0.00e+00	0	44	0	849346560	10	3926
2026-01-16 03:38:16.23	358.95	21.10	-24.9	-25.8	17.8	0.00e+00	0	44	0	866123776	10	4020
2026-01-16 03:38:19.24	358.50	21.44	-24.8	-25.7	17.9	0.00e+00	0	43	0	883949568	10	3989
2026-01-16 03:38:22.25	358.03	21.78	-24.5	-25.5	18.2	0.00e+00	0	44	0	900726784	9	4066
2026-01-16 03:38:25.26	357.55	22.12	-24.5	-25.5	18.2	0.00e+00	0	44	0	917504000	9	4050
2026-01-16 03:38:28.25	357.06	22.46	-24.2	-25.0	18.5	0.00e+00	0	44	0	934281216	9	3928
2026-01-16 03:38:31.25	356.57	22.80	-24.1	-24.7	18.6	0.00e+00	0	43	0	951058432	9	3860
2026-01-16 03:38:34.25	356.06	23.15	-23.9	-24.4	18.8	0.00e+00	0	44	0	967835648	9	3781
2026-01-16 03:38:37.25	355.53	23.49	-24.1	-25.2	18.6	0.00e+00	0	44	0	984612864	8	4104
2026-01-16 03:38:40.26	355.00	23.85	-24.1	-25.3	18.6	0.00e+00	0	44	0	1001390080	8	4106
2026-01-16 03:38:43.28	354.45	24.20	-24.3	-25.5	18.5	0.00e+00	0	44	0	1019215872	8	4176
2026-01-16 03:38:46.27	353.89	24.55	-24.2	-25.4	18.6	0.00e+00	0	43	0	1035993088	8	4146
2026-01-16 03:38:49.27	353.32	24.91	-24.2	-25.5	18.5	0.00e+00	0	44	0	1052770304	8	4163
2026-01-16 03:38:52.28	352.73	25.27	-23.9	-24.7	19.0	0.00e+00	0	44	0	1069547520	8	3977
2026-01-16 03:38:55.29	352.13	25.63	-23.9	-24.7	19.0	0.00e+00	0	44	0	1086324736	8	3972
2026-01-16 03:38:58.29	351.52	25.99	-23.7	-24.4	19.1	0.00e+00	0	44	0	1103101952	8	3898
2026-01-16 03:39:01.29	350.89	26.35	-23.7	-24.3	19.2	0.00e+00	0	44	0	1119879168	8	3871
2026-01-16 03:39:04.30	350.25	26.71	-23.6	-24.1	19.3	0.00e+00	0	44	0	1136656384	8	3830
2026-01-16 03:39:07.30	349.59	27.08	-23.6	-24.1	19.3	0.00e+00	0	44	0	1153433600	8	3820
2026-01-16 03:39:10.29	348.92	27.44	-23.4	-23.8	19.5	0.00e+00	0	43	0	1170210816	8	3756
2026-01-16 03:39:13.29	348.23	27.80	-23.3	-24.1	19.6	0.00e+00	0	44	0	1186988032	7	3922
2026-01-16 03:39:16.29	347.53	28.17	-23.4	-24.7	18.1	0.00e+00	0	44	0	1204813824	6	4199
2026-01-16 03:39:19.29	346.81	28.53	-23.7	-24.9	19.1	0.00e+00	0	44	0	1221591040	7	4127
2026-01-16 03:39:22.30	346.07	28.90	-23.3	-24.5	19.6	0.00e+00	0	44	0	1238368256	6	4140
2026-01-16 03:39:25.31	345.31	29.26	-23.3	-24.5	19.6	0.00e+00	0	44	0	1255145472	6	4131
2026-01-16 03:39:28.31	344.54	29.62	-23.2	-24.2	19.8	0.00e+00	0	44	0	1271922688	6	4077
2026-01-16 03:39:31.32	343.75	29.98	-23.3	-24.5	19.6	2.57e-04	0	44	0	1288699904	6	4149
2026-01-16 03:39:34.33	342.94	30.34	-23.4	-24.8	19.5	3.03e-04	0	44	0	1305477120	6	4213
2026-01-16 03:39:37.33	342.11	30.70	-23.3	-24.6	19.6	2.51e-05	0	44	0	1323302912	6	4171
2026-01-16 03:39:40.33	341.27	31.05	-23.2	-24.3	19.8	0.00e+00	0	44	0	1340080128	6	4081
2026-01-16 03:39:43.35	340.40	31.41	-23.1	-24.1	19.8	1.57e-04	0	44	0	1356857344	6	4043
2026-01-16 03:39:46.35	339.52	31.75	-23.3	-24.5	19.7	1.75e-04	0	44	0	1373634560	6	4127
2026-01-16 03:39:49.35	338.61	32.10	-23.1	-24.1	19.9	5.70e-06	0	44	0	1390411776	6	4047
2026-01-16 03:39:52.36	337.69	32.44	-23.1	-24.2	19.8	0.00e+00	0	44	0	1407188992	6	4059
2026-01-16 03:39:55.37	336.74	32.77	-23.0	-23.8	20.0	1.05e-04	0	44	0	1423966208	6	3977
2026-01-16 03:39:58.37	335.78	33.10	-23.0	-23.8	20.0	1.91e-04	0	44	0	1440743424	6	3972
2026-01-16 03:40:01.38	334.80	33.43	-22.8	-23.6	20.1	0.00e+00	0	43	0	1458569216	6	3921
2026-01-16 03:40:04.39	333.80	33.75	-22.8	-23.5	20.2	4.34e-05	0	44	0	1475346432	6	3899
2026-01-16 03:40:07.40	332.77	34.06	-23.0	-23.8	20.0	1.44e-04	0	44	0	1492123648	6	3981
2026-01-16 03:40:10.39	331.74	34.36	-23.0	-23.8	20.1	0.00e+00	0	44	0	1508900864	6	3967
2026-01-16 03:40:13.40	330.68	34.66	-22.9	-23.7	20.1	0.00e+00	0	44	0	1525678080	6	3944
2026-01-16 03:40:16.41	329.59	34.94	-22.8	-23.5	20.2	0.00e+00	0	44	0	1542455296	6	3886
2026-01-16 03:40:19.42	328.49	35.22	-22.8	-23.5	20.2	0.00e+00	0	44	0	1559232512	6	3892
2026-01-16 03:40:22.43	327.37	35.49	-22.7	-23.8	20.3	0.00e+00	0	44	0	1576009728	5	4079
2026-01-16 03:40:25.43	326.24	35.75	-22.7	-23.7	20.3	0.00e+00	0	44	0	1593835520	5	4048
2026-01-16 03:40:28.43	325.09	35.99	-22.8	-24.0	20.2	0.00e+00	0	44	0	1610612736	5	4131
2026-01-16 03:40:31.43	323.92	36.23	-22.9	-24.2	20.1	0.00e+00	0	44	0	1627389952	5	4181
2026-01-16 03:40:34.44	322.73	36.45	-23.0	-24.4	20.0	0.00e+00	0	44	0	1644167168	5	4229
2026-01-16 03:40:37.44	321.53	36.66	-22.9	-23.7	20.1	0.00e+00	0	44	0	1660944384	6	3934
2026-01-16 03:40:40.45	320.30	36.85	-22.8	-23.5	20.2	0.00e+00	0	44	0	1677721600	6	3900
2026-01-16 03:40:43.45	319.07	37.03	-22.8	-23.5	20.2	0.00e+00	0	44	0	1694498816	6	3902
2026-01-16 03:40:46.45	317.83	37.20	-22.8	-23.4	20.2	0.00e+00	0	44	0	1711276032	6	3882
2026-01-16 03:40:49.45	316.57	37.35	-22.8	-23.5	20.2	0.00e+00	0	44	0	1728053248	6	3896
2026-01-16 03:40:52.45	315.30	37.49	-22.7	-23.3	20.3	0.00e+00	0	44	0	1744830464	6	3857
2026-01-16 03:40:55.46	314.02	37.61	-22.7	-23.3	20.3	0.00e+00	0	44	0	1762656256	6	3845
2026-01-16 03:40:58.47	312.73	37.72	-22.8	-23.4	20.2	0.00e+00	0	44	0	1779433472	6	3869
2026-01-16 03:41:01.48	311.43	37.81	-22.7	-23.2	20.3	0.00e+00	0	44	0	1796210688	6	3833
2026-01-16 03:41:04.49	310.12	37.88	-22.6	-23.5	20.4	0.00e+00	0	44	0	1812987904	5	4009
2026-01-16 03:41:07.50	308.81	37.94	-23.0	-23.9	20.0	0.00e+00	0	44	0	1829765120	6	3997
2026-01-16 03:41:10.51	307.49	37.98	-22.7	-23.8	20.3	0.00e+00	0	44	0	1846542336	5	4068
2026-01-16 03:41:13.52	306.17	38.00	-22.6	-23.6	20.4	0.00e+00	0	44	0	1864368128	5	4039
2026-01-16 03:41:16.53	304.85	38.00	-22.6	-23.5	20.5	0.00e+00	0	44	0	1881145344	5	3999
2026-01-16 03:41:19.54	303.53	37.99	-22.7	-23.8	20.3	0.00e+00	0	44	0	1897922560	5	4079
2026-01-16 03:41:22.55	302.21	37.96	-22.7	-23.8	20.2	0.00e+00	0	44	0	1914699776	5	4078
2026-01-16 03:41:25.55	300.90	37.91	-22.7	-23.8	20.3	0.00e+00	0	44	0	1931476992	5	4078
2026-01-16 03:41:28.57	299.59	37.85	-22.6	-23.5	20.4	0.00e+00	0	44	0	1948254208	5	4013
2026-01-16 03:41:31.58	298.28	37.77	-22.7	-23.7	20.3	0.00e+00	0	44	0	1965031424	5	4063
2026-01-16 03:41:34.58	296.99	37.67	-23.0	-24.3	20.0	0.00e+00	0	44	0	1981808640	5	4203
2026-01-16 03:41:37.57	295.71	37.56	-23.3	-24.5	19.7	0.00e+00	0	44	0	1999634432	6	4133
2026-01-16 03:41:40.58	294.43	37.43	-23.5	-24.3	19.5	0.00e+00	0	44	0	2016411648	7	3991
2026-01-16 03:41:43.57	293.17	37.28	-22.9	-23.1	20.1	0.00e+00	0	44	0	2033188864	7	3694
2026-01-16 03:41:46.59	291.91	37.12	-22.5	-22.9	20.5	0.00e+00	0	44	0	2049966080	6	3753
2026-01-16 03:41:49.58	290.67	36.95	-22.2	-22.8	20.7	0.00e+00	0	44	0	2066743296	5	3849
2026-01-16 03:41:52.59	289.44	36.76	-22.3	-23.0	20.6	0.00e+00	0	44	0	2083520512	5	3901
2026-01-16 03:41:55.59	288.23	36.55	-22.4	-23.2	20.6	0.00e+00	0	44	0	2100297728	5	3932
2026-01-16 03:41:58.60	287.03	36.34	-22.7	-23.7	20.3	0.00e+00	0	44	0	2117074944	5	4067
2026-01-16 03:42:01.60	285.85	36.11	-23.1	-24.1	19.9	0.00e+00	0	44	0	2133852160	6	4031
2026-01-16 03:42:04.60	284.69	35.87	-23.3	-24.6	19.6	0.00e+00	0	44	0	2150629376	6	4152
2026-01-16 03:42:07.60	283.54	35.62	-23.1	-24.2	19.8	0.00e+00	0	44	0	2168455168	6	4064
2026-01-16 03:42:10.60	282.41	35.35	-22.5	-22.8	20.5	0.00e+00	0	44	0	2185232384	6	3747
2026-01-16 03:42:13.60	281.30	35.08	-22.8	-23.6	20.1	0.00e+00	0	44	0	2202009600	6	3919
2026-01-16 03:42:16.60	280.21	34.80	-22.4	-22.7	20.5	0.00e+00	0	44	0	2218786816	6	3705
2026-01-16 03:42:19.60	279.14	34.51	-22.4	-23.1	20.5	0.00e+00	0	44	0	2235564032	5	3913
2026-01-16 03:42:22.61	278.09	34.21	-22.2	-22.8	20.7	0.00e+00	0	44	0	2252341248	5	3838
2026-01-16 03:42:25.62	277.05	33.90	-22.2	-22.7	20.7	0.00e+00	0	44	0	2269118464	5	3815
2026-01-16 03:42:28.63	276.03	33.58	-22.4	-23.2	20.4	0.00e+00	0	44	0	2285895680	5	3944
2026-01-16 03:42:31.63	275.04	33.26	-22.5	-23.4	20.4	0.00e+00	0	44	0	2303721472	5	3988
2026-01-16 03:42:34.63	274.07	32.93	-22.7	-23.8	20.2	0.00e+00	0	44	0	2320498688	5	4086
2026-01-16 03:42:37.63	273.11	32.60	-22.3	-23.0	20.5	0.00e+00	0	44	0	2337275904	5	3885
2026-01-16 03:42:40.63	272.18	32.26	-22.6	-23.6	20.2	0.00e+00	0	44	0	2354053120	5	4032
2026-01-16 03:42:43.62	271.27	31.92	-22.7	-23.8	20.1	0.00e+00	0	44	0	2370830336	5	4084
2026-01-16 03:42:46.62	270.37	31.57	-22.8	-24.0	20.0	0.00e+00	0	44	0	2387607552	5	4128
2026-01-16 03:42:49.61	269.50	31.22	-22.6	-23.6	20.2	0.00e+00	0	44	0	2404384768	5	4038
2026-01-16 03:42:52.62	268.64	30.87	-22.7	-23.8	20.1	0.00e+00	0	44	0	2421161984	5	4077
2026-01-16 03:42:55.63	267.80	30.51	-23.1	-24.1	19.7	0.00e+00	0	44	0	2437939200	6	4041
2026-01-16 03:42:58.62	266.98	30.15	-23.1	-24.1	19.7	0.00e+00	0	44	0	2454716416	6	4038
2026-01-16 03:43:01.63	266.17	29.79	-22.8	-23.4	20.0	0.00e+00	0	44	0	2471493632	6	3884
2026-01-16 03:43:04.63	265.39	29.43	-22.8	-23.5	20.0	0.00e+00	0	44	0	2489319424	6	3905
2026-01-16 03:43:07.64	264.62	29.06	-23.0	-23.9	19.7	0.00e+00	0	44	0	2506096640	6	4007
2026-01-16 03:43:10.64	263.87	28.70	-23.1	-24.2	19.6	0.00e+00	0	44	0	2522873856	6	4056
2026-01-16 03:43:13.63	263.14	28.33	-23.4	-24.3	19.3	0.00e+00	0	44	0	2539651072	7	3990
2026-01-16 03:43:16.63	262.43	27.97	-23.0	-23.9	19.7	0.00e+00	0	44	0	2556428288	6	4006
2026-01-16 03:43:19.63	261.73	27.60	-23.0	-23.9	19.8	0.00e+00	0	44	0	2573205504	6	3991
2026-01-16 03:43:22.63	261.04	27.24	-23.2	-24.4	19.5	0.00e+00	0	44	0	2589982720	6	4111
2026-01-16 03:43:25.63	260.37	26.87	-23.2	-24.2	19.6	0.00e+00	0	44	0	2606759936	6	4077
2026-01-16 03:43:28.63	259.72	26.51	-23.3	-24.5	19.5	0.00e+00	0	44	0	2623537152	6	4134
2026-01-16 03:43:31.62	259.09	26.15	-23.2	-24.4	19.5	0.00e+00	0	44	0	2640314368	6	4108
2026-01-16 03:43:34.63	258.46	25.78	-23.5	-24.4	19.2	0.00e+00	0	44	0	2657091584	7	4018
2026-01-16 03:43:37.62	257.85	25.42	-23.4	-24.4	19.2	0.00e+00	0	44	0	2674917376	7	3999
2026-01-16 03:43:40.63	257.26	25.06	-23.6	-24.6	19.1	0.00e+00	0	44	0	2691694592	7	4070
2026-01-16 03:43:43.63	256.68	24.70	-23.4	-24.2	19.3	0.00e+00	0	44	0	2708471808	7	3959
2026-01-16 03:43:46.63	256.11	24.35	-23.5	-24.4	19.2	0.00e+00	0	44	0	2725249024	7	4006
2026-01-16 03:43:49.65	255.55	23.99	-23.6	-24.7	19.0	0.00e+00	0	44	0	2742026240	7	4093
2026-01-16 03:43:52.65	255.00	23.64	-23.8	-25.1	18.8	0.00e+00	0	44	0	2758803456	7	4183
2026-01-16 03:43:55.66	254.47	23.29	-23.7	-24.3	19.0	0.00e+00	0	44	0	2775580672	8	3877
2026-01-16 03:43:58.68	253.95	22.93	-23.6	-24.2	19.0	0.00e+00	0	44	0	2792357888	8	3859
2026-01-16 03:44:01.68	253.44	22.59	-23.5	-24.6	19.1	2.66e-04	0	44	0	2810183680	7	4048
2026-01-16 03:44:04.69	252.94	22.24	-23.5	-24.5	19.1	0.00e+00	0	44	0	2826960896	7	4034
2026-01-16 03:44:07.70	252.46	21.90	-23.5	-24.4	19.1	0.00e+00	0	44	0	2843738112	7	4020
2026-01-16 03:44:10.69	251.99	21.56	-23.6	-24.6	19.0	0.00e+00	0	44	0	2860515328	7	4068
2026-01-16 03:44:13.71	251.52	21.22	-23.9	-25.3	18.6	1.83e-05	0	44	0	2877292544	7	4244
2026-01-16 03:44:16.72	251.06	20.89	-24.0	-24.9	18.6	0.00e+00	0	44	0	2894069760	8	4032
2026-01-16 03:44:19.73	250.62	20.55	-24.0	-25.0	18.5	2.99e-04	0	44	0	2910846976	8	4052
2026-01-16 03:44:22.73	250.18	20.22	-24.0	-25.0	18.5	5.84e-04	0	44	0	2928672768	8	4054
2026-01-16 03:44:25.73	249.76	19.90	-24.0	-25.0	18.5	6.57e-04	0	44	0	2945449984	8	4041
2026-01-16 03:44:28.73	249.34	19.57	-24.0	-25.1	18.5	6.29e-04	0	44	0	2962227200	8	4076
2026-01-16 03:44:31.73	248.94	19.25	-24.2	-25.6	18.2	2.91e-04	0	44	0	2979004416	8	4184
2026-01-16 03:44:34.73	248.54	18.93	-24.3	-25.7	18.1	8.00e-06	0	44	0	2995781632	8	4220
2026-01-16 03:44:37.72	248.15	18.62	-24.5	-25.5	17.9	1.72e-04	0	44	0	3012558848	9	4068
2026-01-16 03:44:40.72	247.77	18.30	-24.5	-25.6	17.9	2.49e-04	0	44	0	3029336064	9	4079
2026-01-16 03:44:43.73	247.39	17.99	-24.6	-25.9	17.7	1.83e-04	0	44	0	3046113280	9	4149
2026-01-16 03:44:46.73	247.02	17.68	-24.6	-25.9	17.7	1.75e-04	0	44	0	3062890496	9	4155
2026-01-16 03:44:49.74	246.66	17.38	-24.9	-26.4	17.5	0.00e+00	0	44	0	3079667712	9	4277
2026-01-16 03:44:52.75	246.31	17.07	-24.7	-26.1	17.6	1.53e-04	0	44	0	3096444928	9	4212
2026-01-16 03:44:55.76	245.97	16.77	-24.7	-26.1	17.5	3.54e-05	0	44	0	3114270720	9	4220
2026-01-16 03:44:58.76	245.63	16.47	-25.1	-26.3	17.2	0.00e+00	0	44	0	3131047936	10	4157
2026-01-16 03:45:01.77	245.30	16.18	-25.2	-26.7	17.0	0.00e+00	0	44	0	3147825152	10	4252
2026-01-16 03:45:04.79	244.97	15.88	-25.4	-26.6	16.7	2.28e-04	0	44	0	3164602368	11	4122
2026-01-16 03:45:07.80	244.65	15.59	-25.1	-26.3	17.1	0.00e+00	0	44	0	3181379584	10	4165
2026-01-16 03:45:10.79	244.34	15.31	-25.3	-26.9	16.8	0.00e+00	0	44	0	3198156800	10	4315
2026-01-16 03:45:13.78	244.04	15.02	-25.2	-26.6	16.9	0.00e+00	0	44	0	3214934016	10	4222
2026-01-16 03:45:16.80	243.74	14.74	-25.3	-26.7	16.9	0.00e+00	0	44	0	3231711232	10	4269
2026-01-16 03:45:19.81	243.44	14.46	-25.5	-26.8	16.5	0.00e+00	0	44	0	3249537024	11	4180
2026-01-16 03:45:22.81	243.15	14.18	-25.4	-26.6	16.6	0.00e+00	0	44	0	3266314240	11	4134
2026-01-16 03:45:25.82	242.87	13.90	-25.7	-27.2	16.3	0.00e+00	0	44	0	3283091456	11	4266
2026-01-16 03:45:28.82	242.59	13.63	-25.7	-27.2	16.3	0.00e+00	0	44	0	3299868672	11	4270
2026-01-16 03:45:31.83	242.32	13.36	-25.7	-27.2	16.2	0.00e+00	0	44	0	3316645888	11	4292
2026-01-16 03:45:34.84	242.05	13.09	-25.7	-27.1	16.3	0.00e+00	0	44	0	3333423104	11	4265
2026-01-16 03:45:37.83	241.79	12.83	-25.9	-27.6	16.0	0.00e+00	0	44	0	3350200320	11	4387
2026-01-16 03:45:40.84	241.53	12.56	-25.8	-27.4	16.1	0.00e+00	0	44	0	3366977536	11	4342
2026-01-16 03:45:43.84	241.28	12.30	-26.1	-27.6	15.6	0.00e+00	0	44	0	3384803328	12	4292
2026-01-16 03:45:46.85	241.03	12.04	-25.9	-27.1	15.8	0.00e+00	0	44	0	3401580544	12	4157
2026-01-16 03:45:49.84	240.79	11.79	-26.0	-27.3	15.7	0.00e+00	0	44	0	3418357760	12	4215
2026-01-16 03:45:52.83	240.55	11.53	-25.8	-27.0	15.9	0.00e+00	0	44	0	3435134976	12	4141
2026-01-16 03:45:55.84	240.31	11.28	-26.1	-27.6	15.5	0.00e+00	0	44	0	3451912192	12	4288
2026-01-16 03:45:58.83	240.08	11.03	-26.1	-27.7	15.5	0.00e+00	0	44	0	3468689408	12	4304
2026-01-16 03:46:01.84	239.85	10.78	-26.4	-28.4	15.0	0.00e+00	0	44	0	3485466624	12	4512
2026-01-16 03:46:04.84	239.63	10.53	-26.5	-28.0	15.0	0.00e+00	0	44	0	3502243840	13	4298
2026-01-16 03:46:07.85	239.41	10.29	-26.6	-28.3	14.8	0.00e+00	0	44	0	3519021056	13	4377
2026-01-16 03:46:10.86	239.19	10.05	-26.2	-27.4	15.3	0.00e+00	0	44	0	3536846848	13	4118
2026-01-16 03:46:13.87	238.98	9.81	-26.1	-27.3	15.2	0.00e+00	0	44	0	3553624064	13	4121
2026-01-16 03:46:16.87	238.77	9.57	-26.2	-27.3	15.3	0.00e+00	0	44	0	3570401280	13	4112
2026-01-16 03:46:19.87	238.57	9.33	-26.3	-27.7	15.1	0.00e+00	0	44	0	3587178496	13	4208
2026-01-16 03:46:22.88	238.37	9.10	-26.3	-27.7	15.1	0.00e+00	0	44	0	3603955712	13	4199
2026-01-16 03:46:25.90	238.17	8.86	-26.4	-27.9	14.9	0.00e+00	0	44	0	3620732928	13	4271
2026-01-16 03:46:28.91	237.97	8.63	-26.6	-28.3	14.7	0.00e+00	0	44	0	3637510144	13	4386
2026-01-16 03:46:31.91	237.78	8.40	-26.7	-28.5	14.5	5.70e-06	0	44	0	3655335936	13	4448
2026-01-16 03:46:34.92	237.59	8.17	-26.7	-28.5	14.5	9.72e-05	0	44	0	3672113152	13	4435
2026-01-16 03:46:37.92	237.40	7.95	-26.8	-28.8	14.3	1.32e-04	0	44	0	3688890368	13	4530
2026-01-16 03:46:40.93	237.22	7.72	-26.7	-28.5	14.5	0.00e+00	0	44	0	3705667584	13	4441
2026-01-16 03:46:43.92	237.04	7.50	-26.8	-28.8	14.2	1.49e-04	0	44	0	3722444800	13	4540
2026-01-16 03:46:46.93	236.87	7.28	-26.6	-27.8	14.5	1.88e-04	0	44	0	3739222016	14	4127
2026-01-16 03:46:49.92	236.69	7.06	-33.0	-43.8	3.8	8.42e-01	0	44	104	3752853504	25	12536
2026-01-16 03:46:52.92	236.52	6.84	-33.9	-45.3	3.8	8.46e-01	0	44	104	3752853504	27	13413

#Closed at: 2026-01-16 03:46:53
#Recorded file [3752 MB]: D:/data/31010_260116_063541.dat