passes_logs/2026/01/16/R2M6_AANII_01/R2M6_AANII_01__20260116_084028_NOAA_21_JPSS-2_rec.log

#Pass ID: 20260116_084028_NOAA 21 (JPSS-2)
#Satellite: NOAA 21 (JPSS-2)
#Configuration: NOAA 21
#almurnet v.1.7.20240730
#Start time: 2026-01-16 08:40:27

#Version: 2.2.20231116
#Station: R2M6_AANII_01
#Location: 30.233357 lon 59.946436 lat
#TLE: 1 54234U 22150A   26015.43562254  .00000028  00000+0  34201-4 0  9996
#TLE: 2 54234  98.7498 316.3301 0000635 288.4972  71.6135 14.19534768164873

#Time	Az	El	Level	Level2	SNR	BER	BlckErr	Temp	State	Recorded	gain1	gain2
2026-01-16 08:40:27.50	109.42	6.95	-31.4	-37.4	4.3	1.43e+00	0	41	0	0	23	7133
2026-01-16 08:40:30.50	109.18	7.16	-30.6	-34.8	8.8	2.94e-02	0	41	0	3145728	21	5784
2026-01-16 08:40:33.50	108.94	7.36	-30.6	-34.5	8.9	2.31e-02	0	41	0	12582912	21	5677
2026-01-16 08:40:36.51	108.69	7.57	-30.0	-33.3	10.3	5.46e-03	0	41	0	22020096	20	5232
2026-01-16 08:40:39.52	108.44	7.77	-29.2	-31.9	12.0	2.97e-04	0	41	0	30408704	18	4923
2026-01-16 08:40:42.54	108.19	7.98	-29.2	-31.9	12.0	2.36e-03	0	41	0	39845888	18	4942
2026-01-16 08:40:45.54	107.93	8.19	-29.2	-31.9	12.1	2.20e-04	0	41	0	49283072	18	4921
2026-01-16 08:40:48.54	107.67	8.40	-28.8	-31.3	12.8	1.57e-03	0	41	0	58720256	17	4830
2026-01-16 08:40:51.54	107.40	8.61	-28.6	-31.0	13.0	5.68e-04	0	41	0	68157440	17	4729
2026-01-16 08:40:54.54	107.14	8.82	-28.7	-31.3	12.9	4.29e-04	0	42	0	77594624	17	4807
2026-01-16 08:40:57.55	106.86	9.04	-28.6	-30.8	13.2	3.09e-04	0	42	0	87031808	17	4668
2026-01-16 08:41:00.55	106.59	9.25	-28.6	-30.9	13.1	1.98e-05	0	42	0	96468992	17	4685
2026-01-16 08:41:03.56	106.30	9.47	-28.4	-30.3	13.5	2.69e-04	0	42	0	105906176	17	4495
2026-01-16 08:41:06.55	106.02	9.68	-28.3	-30.1	13.7	6.80e-06	0	42	0	115343360	17	4437
2026-01-16 08:41:09.56	105.73	9.90	-28.2	-30.4	13.8	4.12e-04	0	42	0	124780544	16	4631
2026-01-16 08:41:12.57	105.44	10.12	-28.1	-30.1	14.0	1.36e-04	0	42	0	134217728	16	4543
2026-01-16 08:41:15.57	105.14	10.34	-28.1	-30.2	14.0	7.00e-07	0	42	0	143654912	16	4562
2026-01-16 08:41:18.59	104.83	10.57	-27.8	-29.5	14.4	6.94e-05	0	42	0	153092096	16	4377
2026-01-16 08:41:21.59	104.52	10.79	-27.9	-29.7	14.3	1.50e-06	0	42	0	162529280	16	4428
2026-01-16 08:41:24.59	104.21	11.01	-27.9	-29.7	14.3	1.50e-06	0	42	0	171966464	16	4408
2026-01-16 08:41:27.59	103.89	11.24	-28.0	-29.8	14.3	2.20e-06	0	42	0	181403648	16	4441
2026-01-16 08:41:30.60	103.57	11.47	-28.0	-29.9	14.2	7.00e-07	0	42	0	190840832	16	4478
2026-01-16 08:41:33.60	103.24	11.69	-27.7	-29.2	14.6	0.00e+00	0	42	0	200278016	16	4269
2026-01-16 08:41:36.62	102.91	11.93	-27.8	-29.4	14.5	7.00e-07	0	42	0	209715200	16	4322
2026-01-16 08:41:39.61	102.57	12.15	-27.5	-28.7	14.9	1.50e-06	0	42	0	219152384	16	4145
2026-01-16 08:41:42.61	102.23	12.39	-27.5	-28.7	14.9	0.00e+00	0	42	0	228589568	16	4127
2026-01-16 08:41:45.61	101.88	12.62	-27.6	-28.9	14.8	0.00e+00	0	42	0	236978176	16	4175
2026-01-16 08:41:48.62	101.52	12.85	-27.5	-28.7	14.9	0.00e+00	0	42	0	246415360	16	4146
2026-01-16 08:41:51.63	101.16	13.09	-27.5	-28.7	14.9	0.00e+00	0	42	0	255852544	16	4138
2026-01-16 08:41:54.65	100.79	13.33	-27.6	-28.8	14.9	0.00e+00	0	42	0	265289728	16	4167
2026-01-16 08:41:57.65	100.42	13.56	-27.9	-29.6	14.5	0.00e+00	0	42	0	274726912	16	4385
2026-01-16 08:42:00.66	100.04	13.80	-27.9	-29.6	14.5	0.00e+00	0	42	0	284164096	16	4376
2026-01-16 08:42:03.66	99.65	14.04	-28.0	-29.9	14.3	0.00e+00	0	43	0	293601280	16	4471
2026-01-16 08:42:06.66	99.26	14.28	-27.6	-29.0	14.9	0.00e+00	0	42	0	303038464	16	4198
2026-01-16 08:42:09.67	98.86	14.52	-27.7	-29.2	14.8	0.00e+00	0	42	0	312475648	16	4262
2026-01-16 08:42:12.67	98.45	14.77	-27.7	-29.2	14.8	7.00e-07	0	43	0	321912832	16	4248
2026-01-16 08:42:15.66	98.04	15.01	-27.9	-29.5	14.6	7.00e-07	0	42	0	331350016	16	4357
2026-01-16 08:42:18.67	97.62	15.25	-27.8	-29.4	14.7	0.00e+00	0	43	0	340787200	16	4315
2026-01-16 08:42:21.67	97.20	15.50	-27.8	-29.4	14.7	0.00e+00	0	43	0	350224384	16	4318
2026-01-16 08:42:24.67	96.77	15.74	-27.8	-29.3	14.8	0.00e+00	0	43	0	359661568	16	4282
2026-01-16 08:42:27.67	96.33	15.99	-27.9	-29.4	14.8	7.00e-07	0	42	0	369098752	16	4318
2026-01-16 08:42:30.67	95.88	16.24	-28.1	-30.0	14.5	7.00e-07	0	43	0	378535936	16	4483
2026-01-16 08:42:33.67	95.42	16.48	-28.0	-29.7	14.7	0.00e+00	0	43	0	387973120	16	4386
2026-01-16 08:42:36.67	94.96	16.73	-27.9	-29.4	14.8	0.00e+00	0	43	0	397410304	16	4319
2026-01-16 08:42:39.67	94.49	16.98	-27.9	-29.5	14.8	0.00e+00	0	43	0	406847488	16	4327
2026-01-16 08:42:42.68	94.01	17.23	-27.9	-29.6	14.7	7.00e-07	0	43	0	415236096	16	4365
2026-01-16 08:42:45.68	93.53	17.48	-28.0	-29.8	14.6	0.00e+00	0	43	0	424673280	16	4432
2026-01-16 08:42:48.67	93.03	17.73	-27.7	-29.2	15.0	0.00e+00	0	43	0	434110464	16	4237
2026-01-16 08:42:51.68	92.53	17.98	-27.8	-29.2	15.0	0.00e+00	0	43	0	443547648	16	4261
2026-01-16 08:42:54.68	92.02	18.24	-27.7	-29.1	15.0	0.00e+00	0	43	0	452984832	16	4233
2026-01-16 08:42:57.65	91.50	18.48	-27.7	-29.2	15.0	7.00e-07	0	43	0	462422016	16	4249
2026-01-16 08:43:00.65	90.97	18.73	-27.8	-29.3	15.0	7.00e-07	0	43	0	471859200	16	4271
2026-01-16 08:43:03.65	90.44	18.99	-27.5	-28.7	15.3	0.00e+00	0	43	0	481296384	16	4117
2026-01-16 08:43:06.65	89.89	19.24	-27.5	-28.6	15.4	0.00e+00	0	43	0	490733568	16	4101
2026-01-16 08:43:09.64	89.34	19.49	-27.3	-28.2	15.6	0.00e+00	0	43	0	500170752	16	3986
2026-01-16 08:43:12.64	88.77	19.74	-27.6	-28.9	15.2	7.00e-07	0	43	0	509607936	16	4163
2026-01-16 08:43:15.62	88.20	19.99	-27.2	-28.5	15.6	0.00e+00	0	43	0	519045120	15	4170
2026-01-16 08:43:18.64	87.61	20.24	-27.1	-28.1	15.8	0.00e+00	0	43	0	528482304	15	4069
2026-01-16 08:43:21.65	87.02	20.49	-26.9	-27.8	16.0	0.00e+00	0	43	0	537919488	15	3982
2026-01-16 08:43:24.64	86.42	20.73	-26.9	-27.9	16.0	0.00e+00	0	43	0	546308096	15	4005
2026-01-16 08:43:27.65	85.80	20.98	-27.0	-28.0	15.9	0.00e+00	0	43	0	555745280	15	4025
2026-01-16 08:43:30.65	85.18	21.23	-26.9	-27.8	16.0	0.00e+00	0	43	0	566231040	15	3993
2026-01-16 08:43:33.65	84.55	21.47	-27.0	-27.9	16.0	0.00e+00	0	43	0	574619648	15	4011
2026-01-16 08:43:36.67	83.90	21.72	-26.8	-27.5	16.2	0.00e+00	0	43	0	584056832	15	3916
2026-01-16 08:43:39.67	83.25	21.96	-26.8	-28.0	16.2	0.00e+00	0	43	0	593494016	14	4136
2026-01-16 08:43:42.68	82.58	22.20	-26.8	-28.1	16.2	0.00e+00	0	43	0	602931200	14	4151
2026-01-16 08:43:45.68	81.91	22.43	-26.9	-28.3	16.1	0.00e+00	0	43	0	612368384	14	4202
2026-01-16 08:43:48.68	81.22	22.67	-26.9	-28.3	16.1	0.00e+00	0	43	0	621805568	14	4211
2026-01-16 08:43:51.68	80.53	22.90	-27.0	-28.4	16.1	0.00e+00	0	43	0	631242752	14	4230
2026-01-16 08:43:54.70	79.82	23.14	-26.9	-28.3	16.2	0.00e+00	0	43	0	640679936	14	4202
2026-01-16 08:43:57.70	79.10	23.36	-27.0	-28.4	16.1	0.00e+00	0	43	0	650117120	14	4249
2026-01-16 08:44:00.71	78.37	23.59	-27.2	-29.0	15.8	0.00e+00	0	43	0	659554304	14	4401
2026-01-16 08:44:03.72	77.63	23.81	-27.2	-28.4	15.8	0.00e+00	0	43	0	668991488	15	4131
2026-01-16 08:44:06.72	76.89	24.03	-27.2	-28.5	15.8	0.00e+00	0	43	0	678428672	15	4153
2026-01-16 08:44:09.73	76.13	24.24	-27.3	-28.6	15.7	0.00e+00	0	43	0	687865856	15	4183
2026-01-16 08:44:12.73	75.36	24.46	-27.5	-29.0	15.5	0.00e+00	0	43	0	697303040	15	4277
2026-01-16 08:44:15.73	74.58	24.66	-27.3	-28.7	15.7	0.00e+00	0	43	0	706740224	15	4202
2026-01-16 08:44:18.74	73.79	24.87	-27.2	-28.5	15.8	0.00e+00	0	43	0	716177408	15	4150
2026-01-16 08:44:21.75	72.99	25.07	-27.3	-28.6	15.8	0.00e+00	0	43	0	725614592	15	4172
2026-01-16 08:44:24.77	72.17	25.26	-27.2	-28.9	15.9	0.00e+00	0	43	0	735051776	14	4368
2026-01-16 08:44:27.77	71.36	25.45	-27.4	-29.2	15.7	0.00e+00	0	43	0	744488960	14	4467
2026-01-16 08:44:30.77	70.53	25.63	-27.7	-29.5	15.3	0.00e+00	0	43	0	753926144	15	4430
2026-01-16 08:44:33.78	69.69	25.81	-27.4	-28.8	15.7	0.00e+00	0	43	0	763363328	15	4227
2026-01-16 08:44:36.78	68.84	25.98	-27.5	-29.0	15.5	0.00e+00	0	43	0	772800512	15	4300
2026-01-16 08:44:39.79	67.98	26.15	-27.2	-28.3	15.9	0.00e+00	0	43	0	781189120	15	4101
2026-01-16 08:44:42.79	67.11	26.31	-27.2	-28.5	15.8	0.00e+00	0	43	0	790626304	15	4144
2026-01-16 08:44:45.79	66.24	26.46	-27.2	-28.4	15.9	0.00e+00	0	43	0	800063488	15	4120
2026-01-16 08:44:48.80	65.36	26.61	-27.3	-28.7	15.7	0.00e+00	0	43	0	809500672	15	4208
2026-01-16 08:44:51.80	64.47	26.75	-27.0	-27.9	16.1	1.12e-04	0	43	0	818937856	15	4006
2026-01-16 08:44:54.81	63.56	26.89	-27.0	-28.5	16.1	0.00e+00	0	43	0	828375040	14	4259
2026-01-16 08:44:57.81	62.66	27.01	-26.9	-28.2	16.2	4.18e-04	0	43	0	837812224	14	4182
2026-01-16 08:45:00.80	61.75	27.13	-26.9	-28.3	16.2	0.00e+00	0	43	0	847249408	14	4208
2026-01-16 08:45:03.79	60.83	27.24	-26.8	-28.4	16.4	0.00e+00	0	43	0	856686592	13	4357
2026-01-16 08:45:06.80	59.91	27.34	-26.9	-28.8	16.2	6.13e-04	0	43	0	866123776	13	4452
2026-01-16 08:45:09.79	58.98	27.44	-26.9	-28.3	16.2	0.00e+00	0	43	0	875560960	14	4201
2026-01-16 08:45:12.81	58.04	27.53	-27.1	-28.8	16.0	0.00e+00	0	43	0	884998144	14	4337
2026-01-16 08:45:15.82	57.09	27.61	-27.0	-28.5	16.1	0.00e+00	0	43	0	894435328	14	4257
2026-01-16 08:45:18.83	56.14	27.68	-27.0	-28.5	16.1	0.00e+00	0	43	0	903872512	14	4262
2026-01-16 08:45:21.84	55.19	27.74	-27.2	-29.0	15.8	7.09e-05	0	43	0	913309696	14	4396
2026-01-16 08:45:24.85	54.24	27.79	-27.1	-28.7	16.0	0.00e+00	0	43	0	922746880	14	4309
2026-01-16 08:45:27.87	53.27	27.84	-27.0	-28.5	16.1	0.00e+00	0	43	0	932184064	14	4263
2026-01-16 08:45:30.86	52.32	27.87	-26.8	-28.0	16.4	0.00e+00	0	43	0	941621248	14	4141
2026-01-16 08:45:33.86	51.36	27.90	-26.8	-27.9	16.4	5.63e-04	0	43	0	951058432	14	4103
2026-01-16 08:45:36.86	50.40	27.92	-26.9	-28.8	16.2	0.00e+00	0	43	0	960495616	13	4452
2026-01-16 08:45:39.87	49.43	27.93	-27.3	-29.1	15.8	0.00e+00	0	43	0	969932800	14	4425
2026-01-16 08:45:42.88	48.47	27.93	-26.9	-28.2	16.3	0.00e+00	0	43	0	979369984	14	4177
2026-01-16 08:45:45.88	47.51	27.92	-26.7	-27.9	16.5	0.00e+00	0	43	0	987758592	14	4087
2026-01-16 08:45:48.87	46.55	27.90	-26.9	-28.3	16.3	0.00e+00	0	43	0	997195776	14	4196
2026-01-16 08:45:51.89	45.59	27.87	-27.2	-29.0	15.9	0.00e+00	0	43	0	1006632960	14	4390
2026-01-16 08:45:54.89	44.63	27.84	-27.2	-28.8	16.0	0.00e+00	0	43	0	1016070144	14	4340
2026-01-16 08:45:57.89	43.67	27.79	-27.4	-29.4	15.6	0.00e+00	0	43	0	1025507328	14	4519
2026-01-16 08:46:00.90	42.72	27.74	-27.1	-28.1	16.1	0.00e+00	0	43	0	1034944512	15	4050
2026-01-16 08:46:03.89	41.77	27.68	-27.0	-27.9	16.1	0.00e+00	0	43	0	1044381696	15	4000
2026-01-16 08:46:06.90	40.83	27.61	-27.2	-28.4	15.9	0.00e+00	0	43	0	1053818880	15	4133
2026-01-16 08:46:09.91	39.88	27.53	-27.3	-28.6	15.8	0.00e+00	0	43	0	1063256064	15	4178
2026-01-16 08:46:12.89	38.95	27.44	-27.2	-28.5	15.8	0.00e+00	0	43	0	1072693248	15	4152
2026-01-16 08:46:15.89	38.02	27.35	-27.3	-28.6	15.8	0.00e+00	0	43	0	1082130432	15	4182
2026-01-16 08:46:18.90	37.10	27.24	-27.1	-28.1	16.0	0.00e+00	0	43	0	1091567616	15	4048
2026-01-16 08:46:21.91	36.18	27.13	-26.8	-27.6	16.3	0.00e+00	0	43	0	1101004800	15	3913
2026-01-16 08:46:24.92	35.26	27.01	-27.0	-28.0	16.0	0.00e+00	0	43	0	1110441984	15	4035
2026-01-16 08:46:27.92	34.36	26.89	-26.7	-28.4	15.8	0.00e+00	0	43	0	1119879168	14	4364
2026-01-16 08:46:30.93	33.46	26.75	-27.2	-28.9	15.8	0.00e+00	0	43	0	1129316352	14	4376
2026-01-16 08:46:33.94	32.57	26.61	-27.3	-29.2	15.7	0.00e+00	0	43	0	1138753536	14	4446
2026-01-16 08:46:36.95	31.69	26.47	-27.4	-29.4	15.6	0.00e+00	0	43	0	1148190720	14	4510
2026-01-16 08:46:39.96	30.81	26.31	-27.3	-29.1	15.7	0.00e+00	0	43	0	1157627904	14	4443
2026-01-16 08:46:42.97	29.95	26.15	-27.1	-28.7	16.0	0.00e+00	0	43	0	1167065088	14	4305
2026-01-16 08:46:45.97	29.09	25.99	-27.1	-28.7	16.0	0.00e+00	0	43	0	1176502272	14	4305
2026-01-16 08:46:48.98	28.24	25.81	-27.0	-28.4	16.1	3.50e-05	0	43	0	1185939456	14	4245
2026-01-16 08:46:52.00	27.40	25.63	-26.9	-28.2	16.2	0.00e+00	0	43	0	1195376640	14	4190
2026-01-16 08:46:55.01	26.57	25.45	-27.0	-28.5	16.1	5.23e-04	0	43	0	1204813824	14	4255
2026-01-16 08:46:58.01	25.76	25.26	-27.3	-29.1	15.7	3.00e-04	0	43	0	1213202432	14	4423
2026-01-16 08:47:01.00	24.95	25.07	-26.6	-28.0	16.5	4.28e-04	0	43	0	1222639616	13	4249
2026-01-16 08:47:04.01	24.16	24.87	-26.9	-28.8	16.1	2.07e-03	0	43	0	1232076800	13	4455
2026-01-16 08:47:07.02	23.37	24.67	-26.9	-28.6	16.2	3.05e-03	0	43	0	1241513984	13	4414
2026-01-16 08:47:10.04	22.59	24.46	-27.4	-29.3	15.6	2.75e-03	0	43	0	1250951168	14	4497
2026-01-16 08:47:13.04	21.82	24.25	-27.5	-29.5	15.5	2.93e-03	0	43	0	1260388352	14	4558
2026-01-16 08:47:16.05	21.06	24.04	-27.6	-29.4	15.3	3.85e-03	0	43	0	1269825536	15	4399
2026-01-16 08:47:19.06	20.32	23.82	-26.7	-28.3	16.4	0.00e+00	0	43	0	1279262720	13	4311
2026-01-16 08:47:22.06	19.58	23.60	-26.5	-27.9	16.6	0.00e+00	0	43	0	1288699904	13	4214
2026-01-16 08:47:25.06	18.86	23.37	-27.1	-28.8	15.9	3.91e-03	0	43	0	1298137088	14	4339
2026-01-16 08:47:28.07	18.14	23.15	-27.3	-29.1	15.7	0.00e+00	0	43	0	1307574272	14	4433
2026-01-16 08:47:31.07	17.44	22.92	-27.0	-28.5	16.0	0.00e+00	0	43	0	1317011456	14	4274
2026-01-16 08:47:34.08	16.75	22.68	-27.3	-29.2	15.6	0.00e+00	0	43	0	1326448640	14	4468
2026-01-16 08:47:37.08	16.07	22.45	-27.3	-29.2	15.6	0.00e+00	0	43	0	1335885824	14	4453
2026-01-16 08:47:40.08	15.40	22.21	-27.6	-29.2	15.3	0.00e+00	0	43	0	1345323008	15	4352
2026-01-16 08:47:43.09	14.73	21.97	-27.2	-29.0	15.7	0.00e+00	0	43	0	1354760192	14	4401
2026-01-16 08:47:46.08	14.08	21.73	-27.5	-29.1	15.3	0.00e+00	0	43	0	1364197376	15	4329
2026-01-16 08:47:49.07	13.45	21.49	-28.0	-30.2	14.7	0.00e+00	0	43	0	1373634560	15	4644
2026-01-16 08:47:52.08	12.81	21.25	-27.2	-28.8	15.8	7.00e-07	0	43	0	1383071744	14	4352
2026-01-16 08:47:55.09	12.19	21.00	-27.3	-29.1	15.6	0.00e+00	0	43	0	1391460352	14	4447
2026-01-16 08:47:58.11	11.58	20.75	-27.6	-29.4	15.2	0.00e+00	0	43	0	1401946112	15	4401
2026-01-16 08:48:01.12	10.97	20.51	-27.4	-29.3	15.4	7.00e-07	0	43	0	1411383296	14	4507
2026-01-16 08:48:04.11	10.39	20.26	-27.2	-28.9	15.7	0.00e+00	0	43	0	1419771904	14	4375
2026-01-16 08:48:07.12	9.80	20.01	-27.2	-28.4	15.7	0.00e+00	0	43	0	1429209088	15	4133
2026-01-16 08:48:10.11	9.23	19.76	-27.1	-28.7	15.8	0.00e+00	0	43	0	1438646272	14	4325
2026-01-16 08:48:13.12	8.67	19.51	-27.0	-28.5	15.9	0.00e+00	0	43	0	1448083456	14	4265
2026-01-16 08:48:16.11	8.12	19.26	-26.8	-28.5	16.1	0.00e+00	0	43	0	1457520640	13	4382
2026-01-16 08:48:19.11	7.58	19.01	-26.9	-28.8	15.9	0.00e+00	0	43	0	1466957824	13	4481
2026-01-16 08:48:22.13	7.04	18.76	-27.2	-28.5	15.6	0.00e+00	0	43	0	1476395008	15	4159
2026-01-16 08:48:25.14	6.51	18.51	-27.2	-29.0	15.5	7.00e-07	0	43	0	1485832192	14	4430
2026-01-16 08:48:28.15	5.99	18.26	-27.5	-29.2	15.1	0.00e+00	0	43	0	1495269376	15	4360
2026-01-16 08:48:31.15	5.48	18.01	-27.1	-28.7	15.0	0.00e+00	0	43	0	1504706560	15	4336
2026-01-16 08:48:34.16	4.98	17.76	-27.7	-29.5	14.9	0.00e+00	0	43	0	1514143744	15	4450
2026-01-16 08:48:37.16	4.49	17.51	-28.3	-30.5	14.2	0.00e+00	0	43	0	1523580928	16	4631
2026-01-16 08:48:40.15	4.01	17.26	-28.1	-30.0	14.5	0.00e+00	0	43	0	1533018112	16	4478
2026-01-16 08:48:43.17	3.53	17.01	-27.7	-29.6	14.8	0.00e+00	0	43	0	1542455296	15	4485
2026-01-16 08:48:46.17	3.06	16.76	-27.7	-29.7	14.8	3.19e-04	0	43	0	1551892480	15	4503
2026-01-16 08:48:49.18	2.60	16.52	-27.6	-29.3	15.0	7.00e-07	0	43	0	1561329664	15	4390
2026-01-16 08:48:52.20	2.15	16.27	-27.9	-30.1	14.5	2.06e-04	0	43	0	1570766848	15	4633
2026-01-16 08:48:55.19	1.70	16.02	-28.0	-29.8	14.5	1.91e-04	0	43	0	1580204032	16	4424
2026-01-16 08:48:58.20	1.27	15.78	-27.8	-29.8	14.6	1.91e-04	0	43	0	1589641216	15	4550
2026-01-16 08:49:01.20	0.84	15.53	-27.4	-29.0	15.1	1.82e-04	0	43	0	1599078400	15	4311
2026-01-16 08:49:04.21	0.41	15.29	-27.4	-29.5	15.1	2.66e-04	0	43	0	1608515584	14	4568
2026-01-16 08:49:07.22	360.00	15.04	-28.1	-30.1	14.3	3.11e-04	0	43	0	1617952768	16	4526
2026-01-16 08:49:10.23	359.59	14.80	-27.9	-30.1	14.4	7.00e-07	0	43	0	1626341376	15	4648
2026-01-16 08:49:13.24	359.18	14.56	-27.7	-29.6	14.7	3.40e-04	0	43	0	1635778560	15	4487
2026-01-16 08:49:16.24	358.79	14.32	-27.6	-29.3	14.9	3.35e-04	0	43	0	1645215744	15	4396
2026-01-16 08:49:19.24	358.40	14.08	-27.3	-29.3	15.1	7.00e-07	0	43	0	1654652928	14	4504
2026-01-16 08:49:22.26	358.01	13.84	-27.4	-29.4	15.1	3.29e-04	0	43	0	1664090112	14	4533
2026-01-16 08:49:25.26	357.64	13.60	-27.6	-29.5	14.7	7.00e-07	0	43	0	1673527296	15	4466
2026-01-16 08:49:28.26	357.27	13.37	-27.7	-29.8	14.5	4.37e-04	0	43	0	1682964480	15	4546
2026-01-16 08:49:31.27	356.90	13.13	-27.8	-29.8	14.5	0.00e+00	0	43	0	1692401664	15	4568
2026-01-16 08:49:34.27	356.55	12.90	-27.7	-29.6	14.6	1.50e-06	0	43	0	1701838848	15	4493
2026-01-16 08:49:37.26	356.19	12.66	-27.5	-29.1	14.8	0.00e+00	0	43	0	1711276032	15	4357
2026-01-16 08:49:40.26	355.85	12.43	-27.4	-29.5	14.9	2.20e-06	0	43	0	1720713216	14	4591
2026-01-16 08:49:43.25	355.51	12.20	-27.6	-29.4	14.6	0.00e+00	0	43	0	1730150400	15	4434
2026-01-16 08:49:46.26	355.17	11.97	-28.2	-30.3	14.0	1.50e-06	0	43	0	1739587584	16	4593
2026-01-16 08:49:49.27	354.84	11.74	-28.5	-30.5	13.6	4.50e-06	0	43	0	1749024768	17	4533
2026-01-16 08:49:52.28	354.51	11.52	-28.5	-30.7	13.4	1.22e-05	0	43	0	1758461952	17	4599
2026-01-16 08:49:55.30	354.19	11.29	-28.7	-30.9	13.3	1.67e-05	0	43	0	1767899136	17	4684
2026-01-16 08:49:58.30	353.88	11.06	-28.3	-30.6	13.8	5.30e-06	0	43	0	1777336320	16	4670
2026-01-16 08:50:01.31	353.57	10.84	-28.3	-30.6	13.7	1.14e-05	0	43	0	1786773504	16	4699
2026-01-16 08:50:04.31	353.26	10.62	-28.4	-30.7	13.7	6.80e-06	0	43	0	1796210688	16	4727
2026-01-16 08:50:07.32	352.96	10.40	-28.6	-30.9	13.2	2.51e-05	0	43	0	1805647872	17	4666
2026-01-16 08:50:10.33	352.66	10.18	-29.1	-31.6	12.5	1.40e-04	0	43	0	1815085056	18	4774
2026-01-16 08:50:13.33	352.37	9.96	-29.0	-31.4	12.6	9.68e-05	0	43	0	1824522240	18	4734
2026-01-16 08:50:16.33	352.09	9.74	-29.1	-31.5	12.5	1.46e-04	0	43	0	1832910848	18	4758
2026-01-16 08:50:19.34	351.80	9.52	-29.1	-31.5	12.5	9.91e-05	0	43	0	1842348032	18	4747
2026-01-16 08:50:22.34	351.53	9.31	-29.1	-31.6	12.4	1.77e-04	0	43	0	1851785216	18	4804
2026-01-16 08:50:25.35	351.25	9.09	-29.0	-31.8	12.6	6.94e-05	0	43	0	1861222400	17	4975
2026-01-16 08:50:28.36	350.98	8.88	-29.3	-32.2	11.9	3.37e-04	0	43	0	1870659584	18	5027
2026-01-16 08:50:31.36	350.72	8.67	-29.4	-32.0	11.7	5.77e-04	0	43	0	1880096768	19	4833
2026-01-16 08:50:34.36	350.46	8.46	-29.6	-32.6	11.4	4.26e-03	0	43	0	1889533952	19	5036
2026-01-16 08:50:37.36	350.20	8.25	-29.4	-32.4	11.8	6.16e-04	0	43	0	1898971136	18	5106
2026-01-16 08:50:40.37	349.94	8.04	-29.6	-32.4	11.4	6.50e-04	0	43	0	1908408320	19	4986
2026-01-16 08:50:43.37	349.69	7.83	-29.5	-32.3	11.5	4.87e-03	0	43	0	1917845504	19	4945
2026-01-16 08:50:46.37	349.45	7.63	-29.4	-32.6	11.6	1.03e-03	0	43	0	1927282688	18	5164
2026-01-16 08:50:49.37	349.20	7.42	-29.4	-32.4	11.7	4.00e-03	0	43	0	1936719872	18	5089
2026-01-16 08:50:52.37	348.97	7.22	-29.3	-32.1	11.9	2.68e-04	0	43	0	1946157056	18	4986
2026-01-16 08:50:55.37	348.73	7.02	-33.3	-45.0	3.8	1.49e+00	0	44	104	1952448512	26	13963

#Closed at: 2026-01-16 08:50:56
#Recorded file [1952 MB]: D:/data/31010_260116_114029.dat