passes_logs/2026/01/16/R2M6_AANII_01/R2M6_AANII_01__20260116_114804_FENGYUN_3D_rec.log

#Pass ID: 20260116_114804_FENGYUN 3D
#Satellite: FENGYUN 3D
#Configuration: FENGYUN 3D
#almurnet v.1.7.20240730
#Start time: 2026-01-16 11:48:04

#Version: 2.2.20231116
#Station: R2M6_AANII_01
#Location: 30.233357 lon 59.946436 lat
#TLE: 1 43010U 17072A   26015.49690188 -.00000192  00000+0 -69217-4 0  9996
#TLE: 2 43010  98.9932 347.3205 0002350 106.2275 253.9159 14.19694721423329

#Time	Az	El	Level	Level2	SNR	BER	BlckErr	Temp	State	Recorded	gain1	gain2
2026-01-16 11:48:04.48	142.64	6.98	-29.6	-33.1	5.2	7.95e-01	0	40	0	0	20	5379
2026-01-16 11:48:07.48	142.56	7.21	-29.9	-33.8	8.4	3.91e-02	0	41	0	5242880	20	5624
2026-01-16 11:48:10.48	142.48	7.45	-29.7	-32.9	9.1	1.68e-02	0	40	0	22020096	20	5209
2026-01-16 11:48:13.48	142.40	7.68	-29.3	-32.1	10.2	4.75e-03	0	41	0	38797312	19	4973
2026-01-16 11:48:16.48	142.32	7.92	-29.0	-31.5	10.6	3.54e-03	0	41	0	55574528	19	4769
2026-01-16 11:48:19.48	142.24	8.16	-28.1	-30.2	12.1	2.46e-04	0	41	0	72351744	17	4557
2026-01-16 11:48:22.50	142.16	8.40	-28.5	-30.9	11.6	3.64e-04	0	41	0	90177536	17	4793
2026-01-16 11:48:25.51	142.07	8.65	-28.4	-30.8	11.8	4.03e-04	0	41	0	106954752	17	4728
2026-01-16 11:48:28.50	141.99	8.89	-28.2	-30.3	12.1	1.89e-04	0	41	0	123731968	17	4589
2026-01-16 11:48:31.51	141.90	9.14	-28.6	-31.3	11.5	3.32e-04	0	41	0	140509184	17	4893
2026-01-16 11:48:34.51	141.81	9.39	-28.0	-29.7	12.6	9.26e-05	0	41	0	157286400	17	4369
2026-01-16 11:48:37.52	141.71	9.64	-27.7	-29.3	13.2	1.37e-05	0	41	0	174063616	16	4360
2026-01-16 11:48:40.52	141.62	9.90	-27.2	-28.8	13.6	6.80e-06	0	41	0	190840832	15	4329
2026-01-16 11:48:43.52	141.53	10.16	-26.9	-28.1	14.0	2.20e-06	0	41	0	207618048	15	4139
2026-01-16 11:48:46.52	141.43	10.42	-26.9	-28.2	14.0	1.10e-06	0	41	0	224395264	15	4171
2026-01-16 11:48:49.52	141.33	10.68	-26.8	-27.9	14.2	1.10e-06	0	42	0	241172480	15	4092
2026-01-16 11:48:52.52	141.23	10.95	-26.9	-28.5	14.2	0.00e+00	0	42	0	258998272	14	4354
2026-01-16 11:48:55.53	141.13	11.22	-26.9	-28.6	14.2	1.10e-06	0	42	0	275775488	14	4366
2026-01-16 11:48:58.54	141.02	11.49	-27.0	-28.8	14.1	0.00e+00	0	42	0	292552704	14	4431
2026-01-16 11:49:01.54	140.91	11.77	-27.5	-29.6	13.4	9.10e-06	0	42	0	309329920	15	4548
2026-01-16 11:49:04.56	140.80	12.05	-26.8	-27.9	14.4	0.00e+00	0	42	0	326107136	15	4066
2026-01-16 11:49:07.56	140.69	12.33	-26.5	-27.7	14.8	0.00e+00	0	42	0	342884352	14	4113
2026-01-16 11:49:10.56	140.58	12.61	-26.5	-27.6	14.8	1.10e-06	0	42	0	359661568	14	4108
2026-01-16 11:49:13.57	140.46	12.90	-26.6	-27.9	14.7	0.00e+00	0	42	0	376438784	14	4173
2026-01-16 11:49:16.58	140.34	13.19	-26.3	-27.8	14.9	0.00e+00	0	42	0	394264576	13	4288
2026-01-16 11:49:19.57	140.22	13.49	-26.2	-27.4	15.2	0.00e+00	0	42	0	411041792	13	4170
2026-01-16 11:49:22.58	140.10	13.79	-26.3	-27.8	14.9	0.00e+00	0	42	0	427819008	13	4274
2026-01-16 11:49:25.58	139.97	14.09	-25.9	-26.9	15.6	0.00e+00	0	42	0	444596224	13	4011
2026-01-16 11:49:28.60	139.84	14.39	-25.8	-26.7	15.6	0.00e+00	0	42	0	461373440	13	3978
2026-01-16 11:49:31.60	139.71	14.70	-25.7	-27.0	15.8	0.00e+00	0	42	0	478150656	12	4152
2026-01-16 11:49:34.61	139.57	15.02	-25.8	-27.0	15.8	0.00e+00	0	42	0	494927872	12	4155
2026-01-16 11:49:37.62	139.43	15.33	-25.7	-26.9	15.9	0.00e+00	0	42	0	511705088	12	4113
2026-01-16 11:49:40.62	139.29	15.65	-25.6	-26.6	16.1	0.00e+00	0	42	0	529530880	12	4043
2026-01-16 11:49:43.63	139.15	15.98	-25.8	-27.1	15.8	0.00e+00	0	42	0	546308096	12	4176
2026-01-16 11:49:46.63	139.00	16.31	-25.5	-26.4	16.2	0.00e+00	0	42	0	563085312	12	4010
2026-01-16 11:49:49.64	138.85	16.64	-25.6	-26.6	16.1	0.00e+00	0	42	0	579862528	12	4051
2026-01-16 11:49:52.63	138.69	16.98	-25.1	-26.0	16.8	0.00e+00	0	42	0	596639744	11	4003
2026-01-16 11:49:55.63	138.53	17.32	-25.4	-26.7	16.5	0.00e+00	0	42	0	613416960	11	4158
2026-01-16 11:49:58.63	138.37	17.67	-25.5	-26.9	16.4	0.00e+00	0	42	0	630194176	11	4221
2026-01-16 11:50:01.63	138.20	18.02	-25.3	-26.5	16.6	0.00e+00	0	42	0	646971392	11	4121
2026-01-16 11:50:04.65	138.03	18.38	-24.9	-25.6	17.1	0.00e+00	0	42	0	664797184	11	3895
2026-01-16 11:50:07.66	137.85	18.74	-24.9	-26.0	17.2	0.00e+00	0	42	0	681574400	10	4100
2026-01-16 11:50:10.66	137.68	19.11	-24.7	-25.7	17.4	0.00e+00	0	43	0	698351616	10	4023
2026-01-16 11:50:13.66	137.49	19.48	-24.7	-25.6	17.4	0.00e+00	0	43	0	715128832	10	3992
2026-01-16 11:50:16.67	137.30	19.85	-25.0	-26.2	17.2	0.00e+00	0	42	0	731906048	10	4134
2026-01-16 11:50:19.68	137.11	20.24	-24.7	-25.6	17.5	0.00e+00	0	43	0	748683264	10	4000
2026-01-16 11:50:22.69	136.91	20.63	-24.7	-25.7	17.5	0.00e+00	0	42	0	765460480	10	4014
2026-01-16 11:50:25.68	136.70	21.02	-24.5	-25.2	17.8	0.00e+00	0	43	0	782237696	10	3892
2026-01-16 11:50:28.69	136.49	21.42	-24.5	-25.3	17.7	0.00e+00	0	42	0	800063488	10	3914
2026-01-16 11:50:31.70	136.28	21.82	-24.4	-25.0	17.9	0.00e+00	0	42	0	816840704	10	3855
2026-01-16 11:50:34.70	136.05	22.24	-24.3	-24.7	18.1	0.00e+00	0	43	0	833617920	10	3797
2026-01-16 11:50:37.71	135.83	22.65	-24.1	-24.9	18.2	2.20e-06	0	43	0	850395136	9	3936
2026-01-16 11:50:40.70	135.59	23.08	-24.1	-24.8	18.3	2.20e-06	0	43	0	867172352	9	3918
2026-01-16 11:50:43.70	135.35	23.51	-24.0	-24.7	18.3	0.00e+00	0	43	0	883949568	9	3884
2026-01-16 11:50:46.70	135.10	23.94	-24.0	-24.7	18.4	0.00e+00	0	43	0	900726784	9	3890
2026-01-16 11:50:49.70	134.85	24.39	-24.0	-24.6	18.5	0.00e+00	0	43	0	917504000	9	3862
2026-01-16 11:50:52.71	134.58	24.84	-23.8	-24.3	18.6	0.00e+00	0	43	0	934281216	9	3784
2026-01-16 11:50:55.72	134.31	25.30	-23.6	-24.3	18.9	0.00e+00	0	43	0	951058432	8	3900
2026-01-16 11:50:58.72	134.03	25.77	-23.4	-23.8	19.2	0.00e+00	0	43	0	968884224	8	3774
2026-01-16 11:51:01.72	133.74	26.24	-23.3	-23.7	19.2	0.00e+00	0	43	0	985661440	8	3749
2026-01-16 11:51:04.74	133.44	26.72	-23.4	-23.9	19.1	0.00e+00	0	43	0	1002438656	8	3795
2026-01-16 11:51:07.74	133.14	27.21	-23.4	-23.9	19.1	0.00e+00	0	43	0	1019215872	8	3797
2026-01-16 11:51:10.75	132.82	27.71	-23.4	-23.9	19.2	0.00e+00	0	43	0	1035993088	8	3799
2026-01-16 11:51:13.75	132.49	28.21	-23.5	-24.0	19.1	0.00e+00	0	43	0	1052770304	8	3833
2026-01-16 11:51:16.76	132.16	28.72	-23.1	-23.8	19.5	0.00e+00	0	43	0	1069547520	7	3878
2026-01-16 11:51:19.76	131.81	29.25	-23.3	-24.2	19.3	0.00e+00	0	43	0	1086324736	7	3974
2026-01-16 11:51:22.76	131.45	29.77	-23.3	-24.1	19.3	0.00e+00	0	43	0	1104150528	7	3954
2026-01-16 11:51:25.76	131.07	30.31	-23.2	-24.0	19.4	0.00e+00	0	43	0	1120927744	7	3923
2026-01-16 11:51:28.78	130.69	30.86	-23.1	-23.6	19.6	0.00e+00	0	43	0	1137704960	7	3841
2026-01-16 11:51:31.79	130.28	31.42	-23.0	-23.4	19.7	0.00e+00	0	43	0	1154482176	7	3790
2026-01-16 11:51:34.79	129.87	31.98	-23.3	-24.1	19.4	0.00e+00	0	43	0	1171259392	7	3943
2026-01-16 11:51:37.79	129.44	32.56	-23.4	-24.3	19.3	0.00e+00	0	43	0	1188036608	7	3995
2026-01-16 11:51:40.79	129.00	33.14	-23.2	-23.8	19.5	0.00e+00	0	43	0	1204813824	7	3888
2026-01-16 11:51:43.81	128.53	33.74	-23.1	-23.8	19.6	0.00e+00	0	43	0	1221591040	7	3868
2026-01-16 11:51:46.82	128.05	34.34	-22.8	-23.1	19.9	0.00e+00	0	43	0	1239416832	7	3717
2026-01-16 11:51:49.82	127.55	34.95	-22.9	-23.3	19.8	0.00e+00	0	43	0	1256194048	7	3771
2026-01-16 11:51:52.82	127.04	35.57	-22.8	-23.0	19.9	0.00e+00	0	43	0	1272971264	7	3707
2026-01-16 11:51:55.83	126.50	36.20	-22.7	-23.3	20.1	0.00e+00	0	43	0	1289748480	6	3864
2026-01-16 11:51:58.83	125.94	36.84	-22.8	-23.5	20.0	0.00e+00	0	43	0	1306525696	6	3906
2026-01-16 11:52:01.84	125.35	37.49	-22.8	-23.6	19.9	0.00e+00	0	43	0	1323302912	6	3951
2026-01-16 11:52:04.84	124.75	38.15	-23.1	-24.2	19.6	0.00e+00	0	43	0	1340080128	6	4072
2026-01-16 11:52:07.83	124.12	38.82	-23.0	-23.9	19.8	0.00e+00	0	43	0	1356857344	6	4009
2026-01-16 11:52:10.84	123.46	39.50	-23.1	-24.2	19.7	0.00e+00	0	43	0	1374683136	6	4071
2026-01-16 11:52:13.86	122.76	40.18	-22.9	-23.8	19.9	0.00e+00	0	43	0	1391460352	6	3981
2026-01-16 11:52:16.88	122.04	40.88	-23.3	-24.5	19.5	0.00e+00	0	43	0	1408237568	6	4170
2026-01-16 11:52:19.88	121.29	41.58	-23.4	-24.8	19.4	0.00e+00	0	43	0	1425014784	6	4237
2026-01-16 11:52:22.88	120.51	42.29	-23.5	-24.4	19.3	0.00e+00	0	43	0	1441792000	7	4031
2026-01-16 11:52:25.89	119.69	43.01	-23.4	-24.2	19.4	0.00e+00	0	43	0	1458569216	7	3971
2026-01-16 11:52:28.89	118.83	43.74	-23.6	-24.8	19.2	0.00e+00	0	43	0	1475346432	7	4105
2026-01-16 11:52:31.91	117.93	44.47	-23.5	-24.6	19.3	0.00e+00	0	43	0	1493172224	7	4071
2026-01-16 11:52:34.92	116.98	45.21	-23.3	-24.0	19.6	0.00e+00	0	43	0	1509949440	7	3919
2026-01-16 11:52:37.92	116.00	45.95	-23.9	-25.3	19.0	0.00e+00	0	43	0	1526726656	7	4251
2026-01-16 11:52:40.93	114.96	46.69	-23.6	-24.7	19.3	0.00e+00	0	43	0	1543503872	7	4089
2026-01-16 11:52:43.93	113.88	47.44	-24.3	-25.7	18.6	0.00e+00	0	43	0	1560281088	8	4232
2026-01-16 11:52:46.93	112.74	48.18	-23.9	-24.8	19.0	0.00e+00	0	43	0	1577058304	8	3993
2026-01-16 11:52:49.94	111.54	48.93	-24.7	-25.9	18.2	0.00e+00	0	43	0	1593835520	9	4170
2026-01-16 11:52:52.94	110.29	49.68	-23.7	-24.3	19.3	0.00e+00	0	43	0	1610612736	8	3879
2026-01-16 11:52:55.94	108.97	50.42	-24.3	-25.8	18.6	0.00e+00	0	43	0	1628438528	8	4245
2026-01-16 11:52:58.94	107.59	51.15	-24.2	-24.9	18.8	0.00e+00	0	43	0	1645215744	9	3913
2026-01-16 11:53:01.95	106.13	51.89	-24.2	-25.0	18.8	0.00e+00	0	43	0	1661992960	9	3925
2026-01-16 11:53:04.96	104.60	52.61	-24.1	-24.8	18.8	0.00e+00	0	43	0	1678770176	9	3892
2026-01-16 11:53:07.98	102.99	53.32	-24.3	-25.1	18.7	0.00e+00	0	43	0	1695547392	9	3967
2026-01-16 11:53:10.99	101.30	54.02	-24.4	-25.2	18.7	0.00e+00	0	43	0	1712324608	9	3990
2026-01-16 11:53:14.00	99.53	54.70	-24.0	-24.6	19.0	0.00e+00	0	43	0	1729101824	9	3839
2026-01-16 11:53:17.00	97.68	55.35	-24.1	-24.8	18.9	0.00e+00	0	43	0	1745879040	9	3885
2026-01-16 11:53:20.00	95.74	55.98	-24.1	-24.8	18.9	0.00e+00	0	43	0	1763704832	9	3886
2026-01-16 11:53:23.00	93.72	56.59	-23.7	-24.4	19.3	0.00e+00	0	43	0	1780482048	8	3907
2026-01-16 11:53:26.01	91.60	57.17	-23.4	-23.8	19.6	0.00e+00	0	43	0	1797259264	8	3756
2026-01-16 11:53:29.01	89.39	57.71	-23.6	-24.1	19.5	0.00e+00	0	43	0	1814036480	8	3830
2026-01-16 11:53:32.02	87.10	58.22	-24.2	-25.5	18.8	0.00e+00	0	43	0	1830813696	8	4191
2026-01-16 11:53:35.03	84.71	58.69	-24.5	-25.7	18.4	0.00e+00	0	43	0	1847590912	9	4119
2026-01-16 11:53:38.04	82.25	59.11	-24.5	-25.5	18.6	0.00e+00	0	43	0	1864368128	9	4055
2026-01-16 11:53:41.05	79.71	59.48	-23.6	-24.2	19.5	0.00e+00	0	43	0	1881145344	8	3843
2026-01-16 11:53:44.05	77.11	59.81	-24.4	-25.9	18.6	0.00e+00	0	43	0	1898971136	8	4274
2026-01-16 11:53:47.05	74.45	60.07	-23.8	-24.6	19.2	0.00e+00	0	43	0	1915748352	8	3950
2026-01-16 11:53:50.06	71.73	60.29	-23.5	-23.9	19.6	0.00e+00	0	43	0	1932525568	8	3781
2026-01-16 11:53:53.06	68.97	60.44	-23.4	-23.7	19.8	0.00e+00	0	43	0	1949302784	8	3733
2026-01-16 11:53:56.07	66.19	60.54	-23.7	-24.4	19.5	0.00e+00	0	43	0	1966080000	8	3888
2026-01-16 11:53:59.07	63.39	60.57	-23.2	-23.7	20.0	0.00e+00	0	43	0	1982857216	7	3829
2026-01-16 11:54:02.07	60.60	60.55	-23.6	-24.6	19.6	0.00e+00	0	43	0	1999634432	7	4035
2026-01-16 11:54:05.08	57.81	60.46	-24.0	-24.9	19.2	0.00e+00	0	43	0	2016411648	8	3996
2026-01-16 11:54:08.10	55.04	60.32	-24.7	-25.9	18.5	0.00e+00	0	43	0	2034237440	9	4149
2026-01-16 11:54:11.09	52.33	60.11	-24.0	-24.5	19.2	0.00e+00	0	43	0	2051014656	9	3808
2026-01-16 11:54:14.10	49.65	59.85	-24.2	-24.9	19.0	0.00e+00	0	43	0	2067791872	9	3895
2026-01-16 11:54:17.11	47.04	59.54	-24.3	-25.0	18.9	0.00e+00	0	43	0	2084569088	9	3924
2026-01-16 11:54:20.11	44.49	59.17	-23.2	-23.8	20.0	0.00e+00	0	43	0	2101346304	7	3864
2026-01-16 11:54:23.11	42.03	58.76	-23.3	-24.0	19.9	0.00e+00	0	43	0	2118123520	7	3901
2026-01-16 11:54:26.11	39.64	58.30	-23.4	-24.2	19.8	0.00e+00	0	43	0	2134900736	7	3943
2026-01-16 11:54:29.12	37.33	57.80	-23.0	-23.4	20.1	0.00e+00	0	43	0	2151677952	7	3777
2026-01-16 11:54:32.14	35.10	57.26	-23.2	-23.8	20.0	0.00e+00	0	43	0	2169503744	7	3867
2026-01-16 11:54:35.13	32.98	56.70	-23.4	-24.3	19.7	0.00e+00	0	43	0	2185232384	7	3974
2026-01-16 11:54:38.14	30.94	56.09	-23.5	-24.4	19.6	0.00e+00	0	43	0	2203058176	7	4002
2026-01-16 11:54:41.14	28.99	55.47	-23.2	-23.9	19.9	0.00e+00	0	43	0	2219835392	7	3878
2026-01-16 11:54:44.14	27.13	54.82	-24.1	-25.2	19.0	0.00e+00	0	43	0	2236612608	8	4090
2026-01-16 11:54:47.15	25.35	54.14	-24.0	-25.1	19.1	0.00e+00	0	43	0	2253389824	8	4054
2026-01-16 11:54:50.16	23.65	53.45	-23.6	-24.2	19.5	0.00e+00	0	43	0	2270167040	8	3847
2026-01-16 11:54:53.17	22.03	52.74	-24.4	-25.7	18.7	0.00e+00	0	43	0	2286944256	8	4219
2026-01-16 11:54:56.18	20.49	52.03	-23.4	-23.8	19.7	0.00e+00	0	43	0	2303721472	8	3752
2026-01-16 11:54:59.18	19.03	51.30	-23.9	-24.8	19.2	0.00e+00	0	43	0	2320498688	8	3983
2026-01-16 11:55:02.19	17.63	50.56	-23.4	-24.1	19.7	0.00e+00	0	43	0	2338324480	7	3938
2026-01-16 11:55:05.20	16.30	49.82	-23.4	-24.2	19.7	0.00e+00	0	43	0	2355101696	7	3956
2026-01-16 11:55:08.20	15.04	49.08	-23.4	-24.3	19.7	0.00e+00	0	43	0	2371878912	7	3974
2026-01-16 11:55:11.20	13.84	48.34	-23.5	-24.5	19.5	0.00e+00	0	43	0	2388656128	7	4038
2026-01-16 11:55:14.21	12.69	47.59	-23.2	-23.9	19.8	0.00e+00	0	43	0	2405433344	7	3885
2026-01-16 11:55:17.22	11.60	46.85	-22.7	-23.2	20.4	0.00e+00	0	43	0	2422210560	6	3835
2026-01-16 11:55:20.23	10.55	46.10	-22.8	-23.4	20.3	0.00e+00	0	43	0	2438987776	6	3879
2026-01-16 11:55:23.24	9.56	45.36	-22.9	-23.7	20.1	0.00e+00	0	43	0	2456813568	6	3945
2026-01-16 11:55:26.23	8.62	44.63	-22.8	-23.4	20.3	0.00e+00	0	43	0	2473590784	6	3879
2026-01-16 11:55:29.24	7.71	43.90	-23.0	-23.9	20.0	0.00e+00	0	43	0	2490368000	6	3986
2026-01-16 11:55:32.25	6.85	43.18	-22.8	-23.4	20.3	0.00e+00	0	43	0	2507145216	6	3874
2026-01-16 11:55:35.26	6.02	42.46	-22.7	-23.2	20.3	0.00e+00	0	43	0	2523922432	6	3833
2026-01-16 11:55:38.28	5.23	41.75	-23.0	-24.0	20.0	0.00e+00	0	43	0	2540699648	6	4009
2026-01-16 11:55:41.28	4.47	41.05	-23.1	-24.1	19.9	0.00e+00	0	43	0	2557476864	6	4054
2026-01-16 11:55:44.28	3.75	40.35	-23.0	-23.9	20.0	0.00e+00	0	43	0	2574254080	6	3988
2026-01-16 11:55:47.29	3.06	39.67	-22.7	-23.3	20.3	0.00e+00	0	43	0	2592079872	6	3840
2026-01-16 11:55:50.29	2.40	38.99	-23.1	-24.0	19.9	0.00e+00	0	43	0	2608857088	6	4018
2026-01-16 11:55:53.29	1.76	38.33	-22.8	-23.4	20.2	0.00e+00	0	43	0	2625634304	6	3878
2026-01-16 11:55:56.30	1.15	37.67	-22.8	-23.4	20.2	0.00e+00	0	43	0	2642411520	6	3879
2026-01-16 11:55:59.31	0.57	37.02	-23.3	-24.6	19.6	0.00e+00	0	43	0	2659188736	6	4170
2026-01-16 11:56:02.32	0.00	36.38	-22.9	-23.6	20.1	0.00e+00	0	43	0	2675965952	6	3929
2026-01-16 11:56:05.33	359.46	35.74	-22.9	-23.6	20.1	0.00e+00	0	43	0	2692743168	6	3934
2026-01-16 11:56:08.33	358.94	35.12	-22.7	-23.4	20.1	0.00e+00	0	43	0	2709520384	6	3871
2026-01-16 11:56:11.34	358.44	34.51	-22.7	-23.3	20.2	0.00e+00	0	43	0	2727346176	6	3842
2026-01-16 11:56:14.35	357.96	33.91	-23.1	-24.1	19.8	0.00e+00	0	43	0	2744123392	6	4046
2026-01-16 11:56:17.35	357.50	33.32	-23.7	-24.8	19.2	0.00e+00	0	43	0	2760900608	7	4104
2026-01-16 11:56:20.35	357.05	32.74	-23.2	-23.9	19.7	0.00e+00	0	43	0	2777677824	7	3876
2026-01-16 11:56:23.35	356.62	32.16	-23.3	-24.1	19.5	0.00e+00	0	43	0	2794455040	7	3933
2026-01-16 11:56:26.36	356.21	31.60	-23.1	-23.7	19.7	0.00e+00	0	43	0	2811232256	7	3841
2026-01-16 11:56:29.37	355.81	31.04	-23.2	-23.9	19.6	0.00e+00	0	43	0	2828009472	7	3878
2026-01-16 11:56:32.36	355.42	30.49	-23.2	-23.8	19.7	0.00e+00	0	43	0	2844786688	7	3856
2026-01-16 11:56:35.36	355.05	29.96	-23.1	-23.7	19.7	0.00e+00	0	43	0	2861563904	7	3841
2026-01-16 11:56:38.37	354.68	29.43	-23.3	-24.1	19.5	0.00e+00	0	43	0	2879389696	7	3932
2026-01-16 11:56:41.38	354.33	28.90	-23.3	-24.0	19.5	0.00e+00	0	43	0	2896166912	7	3903
2026-01-16 11:56:44.38	354.00	28.39	-23.4	-24.2	19.4	0.00e+00	0	43	0	2912944128	7	3946
2026-01-16 11:56:47.39	353.67	27.89	-23.4	-24.3	19.4	0.00e+00	0	43	0	2929721344	7	3969
2026-01-16 11:56:50.40	353.35	27.39	-23.3	-24.0	19.5	0.00e+00	0	43	0	2946498560	7	3911
2026-01-16 11:56:53.40	353.04	26.90	-23.4	-24.2	19.4	0.00e+00	0	43	0	2963275776	7	3957
2026-01-16 11:56:56.40	352.75	26.42	-23.3	-24.1	19.5	0.00e+00	0	43	0	2980052992	7	3933
2026-01-16 11:56:59.41	352.46	25.95	-23.3	-24.0	19.5	0.00e+00	0	43	0	2996830208	7	3919
2026-01-16 11:57:02.42	352.18	25.48	-23.3	-24.1	19.5	0.00e+00	0	43	0	3014656000	7	3923
2026-01-16 11:57:05.42	351.91	25.02	-23.4	-24.3	19.3	0.00e+00	0	43	0	3031433216	7	3988
2026-01-16 11:57:08.41	351.65	24.57	-23.6	-24.6	19.2	0.00e+00	0	43	0	3048210432	7	4054
2026-01-16 11:57:11.40	351.39	24.13	-23.6	-24.7	19.1	0.00e+00	0	43	0	3064987648	7	4091
2026-01-16 11:57:14.40	351.14	23.69	-23.8	-25.0	18.9	0.00e+00	0	43	0	3081764864	7	4156
2026-01-16 11:57:17.41	350.90	23.26	-23.8	-25.0	18.9	0.00e+00	0	43	0	3098542080	7	4145
2026-01-16 11:57:20.42	350.67	22.84	-23.7	-24.8	19.0	0.00e+00	0	43	0	3115319296	7	4104
2026-01-16 11:57:23.41	350.44	22.42	-23.7	-24.9	19.0	0.00e+00	0	43	0	3132096512	7	4133
2026-01-16 11:57:26.42	350.22	22.01	-23.8	-25.2	18.8	0.00e+00	0	43	0	3148873728	7	4200
2026-01-16 11:57:29.42	350.00	21.60	-24.2	-25.4	18.5	0.00e+00	0	43	0	3165650944	8	4134
2026-01-16 11:57:32.40	349.80	21.21	-24.2	-25.4	18.4	0.00e+00	0	43	0	3183476736	8	4152
2026-01-16 11:57:35.40	349.59	20.82	-24.3	-25.7	18.3	0.00e+00	0	43	0	3200253952	8	4226
2026-01-16 11:57:38.40	349.40	20.43	-24.2	-25.4	18.4	0.00e+00	0	43	0	3217031168	8	4141
2026-01-16 11:57:41.40	349.20	20.05	-24.2	-25.5	18.3	0.00e+00	0	43	0	3233808384	8	4170
2026-01-16 11:57:44.40	349.01	19.67	-24.0	-25.0	18.6	0.00e+00	0	43	0	3250585600	8	4047
2026-01-16 11:57:47.40	348.83	19.30	-24.2	-25.3	18.4	0.00e+00	0	43	0	3267362816	8	4118
2026-01-16 11:57:50.41	348.65	18.93	-24.2	-25.5	18.3	0.00e+00	0	43	0	3284140032	8	4171
2026-01-16 11:57:53.43	348.48	18.57	-24.5	-26.0	18.0	0.00e+00	0	43	0	3300917248	8	4307
2026-01-16 11:57:56.44	348.31	18.21	-24.8	-25.7	17.6	0.00e+00	0	43	0	3318743040	10	4007
2026-01-16 11:57:59.44	348.14	17.86	-24.9	-25.9	17.5	0.00e+00	0	43	0	3335520256	10	4057
2026-01-16 11:58:02.44	347.98	17.51	-25.0	-26.1	17.4	0.00e+00	0	43	0	3352297472	10	4097
2026-01-16 11:58:05.45	347.82	17.17	-25.3	-26.8	17.1	0.00e+00	0	43	0	3369074688	10	4279
2026-01-16 11:58:08.46	347.67	16.83	-25.1	-26.4	17.3	0.00e+00	0	43	0	3385851904	10	4173
2026-01-16 11:58:11.47	347.51	16.50	-25.3	-26.8	17.0	0.00e+00	0	43	0	3402629120	10	4268
2026-01-16 11:58:14.46	347.37	16.17	-25.2	-26.6	17.1	0.00e+00	0	43	0	3419406336	10	4224
2026-01-16 11:58:17.46	347.23	15.84	-25.3	-26.8	17.0	0.00e+00	0	43	0	3436183552	10	4283
2026-01-16 11:58:20.48	347.08	15.52	-25.3	-26.8	17.0	0.00e+00	0	43	0	3452960768	10	4290
2026-01-16 11:58:23.50	346.95	15.20	-25.4	-26.6	16.8	0.00e+00	0	43	0	3470786560	11	4128
2026-01-16 11:58:26.49	346.81	14.89	-25.6	-26.9	16.6	0.00e+00	0	43	0	3487563776	11	4204
2026-01-16 11:58:29.48	346.68	14.58	-25.5	-26.9	16.6	0.00e+00	0	43	0	3504340992	11	4192
2026-01-16 11:58:32.48	346.56	14.28	-25.7	-27.1	16.5	0.00e+00	0	43	0	3521118208	11	4258
2026-01-16 11:58:35.49	346.43	13.98	-25.7	-27.3	16.4	0.00e+00	0	43	0	3537895424	11	4301
2026-01-16 11:58:38.50	346.31	13.68	-25.9	-27.1	16.1	0.00e+00	0	43	0	3554672640	12	4154
2026-01-16 11:58:41.50	346.19	13.38	-25.6	-26.6	16.4	0.00e+00	0	43	0	3571449856	12	4020
2026-01-16 11:58:44.50	346.07	13.09	-25.7	-26.7	16.3	0.00e+00	0	43	0	3588227072	12	4027
2026-01-16 11:58:47.50	345.96	12.80	-25.9	-27.2	16.0	0.00e+00	0	43	0	3605004288	12	4178
2026-01-16 11:58:50.50	345.84	12.52	-26.1	-27.6	15.7	0.00e+00	0	43	0	3621781504	12	4287
2026-01-16 11:58:53.51	345.73	12.24	-26.0	-27.4	15.8	0.00e+00	0	43	0	3639607296	12	4235
2026-01-16 11:58:56.52	345.63	11.96	-26.3	-28.0	15.5	0.00e+00	0	43	0	3656384512	12	4398
2026-01-16 11:58:59.51	345.52	11.68	-26.1	-27.5	15.8	0.00e+00	0	43	0	3673161728	12	4255
2026-01-16 11:59:02.52	345.42	11.41	-26.1	-27.7	15.6	0.00e+00	0	43	0	3689938944	12	4310
2026-01-16 11:59:05.53	345.32	11.14	-26.0	-27.5	15.7	0.00e+00	0	43	0	3706716160	12	4257
2026-01-16 11:59:08.52	345.22	10.88	-26.3	-28.0	15.4	0.00e+00	0	43	0	3723493376	12	4397
2026-01-16 11:59:11.54	345.12	10.61	-26.3	-28.1	15.3	0.00e+00	0	43	0	3740270592	12	4424
2026-01-16 11:59:14.55	345.03	10.35	-26.4	-28.3	15.2	0.00e+00	0	43	0	3757047808	12	4488
2026-01-16 11:59:17.55	344.93	10.09	-26.2	-27.3	15.5	0.00e+00	0	43	0	3774873600	13	4102
2026-01-16 11:59:20.56	344.84	9.83	-26.3	-27.6	15.2	0.00e+00	0	43	0	3791650816	13	4182
2026-01-16 11:59:23.56	344.75	9.58	-26.3	-27.5	15.3	0.00e+00	0	43	0	3808428032	13	4133
2026-01-16 11:59:26.56	344.67	9.33	-26.3	-27.5	15.3	0.00e+00	0	43	0	3825205248	13	4146
2026-01-16 11:59:29.55	344.58	9.08	-26.6	-28.2	14.8	0.00e+00	0	43	0	3841982464	13	4346
2026-01-16 11:59:32.56	344.50	8.84	-26.4	-27.9	15.0	0.00e+00	0	43	0	3858759680	13	4254
2026-01-16 11:59:35.56	344.41	8.59	-26.7	-28.5	14.6	0.00e+00	0	43	0	3875536896	13	4443
2026-01-16 11:59:38.57	344.33	8.35	-26.8	-28.6	14.5	0.00e+00	0	43	0	3892314112	13	4467
2026-01-16 11:59:41.57	344.25	8.11	-26.7	-28.5	14.6	0.00e+00	0	43	0	3909091328	13	4424
2026-01-16 11:59:44.56	344.17	7.88	-26.9	-29.0	14.3	1.10e-06	0	43	0	3925868544	13	4575
2026-01-16 11:59:47.57	344.10	7.64	-27.1	-28.9	14.0	0.00e+00	0	43	0	3942645760	14	4427
2026-01-16 11:59:50.57	344.02	7.41	-27.2	-29.2	13.8	2.20e-06	0	43	0	3960471552	14	4530
2026-01-16 11:59:53.56	343.95	7.18	-27.4	-29.1	13.6	6.80e-06	0	43	0	3977248768	15	4376
2026-01-16 11:59:56.56	343.88	6.95	-33.6	-44.7	3.8	8.46e-01	0	43	104	3982491648	27	12944

#Closed at: 2026-01-16 11:59:57
#Recorded file [3982 MB]: D:/data/31010_260116_144806.dat