passes_logs/2026/01/16/R2M6_AANII_01/R2M6_AANII_01__20260116_222803_NOAA_21_JPSS-2_rec.log

#Pass ID: 20260116_222803_NOAA 21 (JPSS-2)
#Satellite: NOAA 21 (JPSS-2)
#Configuration: NOAA 21
#almurnet v.1.7.20240730
#Start time: 2026-01-16 22:28:03

#Version: 2.2.20231116
#Station: R2M6_AANII_01
#Location: 30.233357 lon 59.946436 lat
#TLE: 1 54234U 22150A   26016.21096038  .00000027  00000+0  33607-4 0  9993
#TLE: 2 54234  98.7500 317.0960 0000625 282.3388  77.7718 14.19534911164985

#Time	Az	El	Level	Level2	SNR	BER	BlckErr	Temp	State	Recorded	gain1	gain2
2026-01-16 22:28:03.58	33.09	7.01	-30.3	-35.5	4.6	1.37e+00	0	41	0	0	20	6563
2026-01-16 22:28:06.57	33.42	7.18	-31.4	-37.9	5.8	3.69e-01	0	41	0	2097152	22	7610
2026-01-16 22:28:09.57	33.75	7.35	-31.4	-37.3	5.9	3.33e-01	0	41	0	11534336	23	7125
2026-01-16 22:28:12.58	34.08	7.53	-31.2	-36.7	6.6	2.23e-01	0	41	0	20971520	22	6801
2026-01-16 22:28:15.57	34.42	7.70	-30.9	-35.6	7.5	8.35e-02	0	42	0	30408704	22	6180
2026-01-16 22:28:18.58	34.76	7.87	-30.3	-33.9	9.0	2.61e-02	0	42	0	39845888	21	5450
2026-01-16 22:28:21.57	35.11	8.04	-29.2	-31.8	11.3	1.63e-03	0	42	0	49283072	19	4846
2026-01-16 22:28:24.58	35.46	8.22	-29.2	-32.1	11.4	1.04e-03	0	42	0	58720256	18	5066
2026-01-16 22:28:27.57	35.81	8.39	-29.0	-31.8	11.6	7.58e-04	0	42	0	68157440	18	4952
2026-01-16 22:28:30.59	36.17	8.56	-28.9	-31.4	11.9	3.93e-04	0	42	0	77594624	18	4793
2026-01-16 22:28:33.60	36.53	8.74	-28.8	-31.6	12.1	2.77e-04	0	42	0	87031808	17	4956
2026-01-16 22:28:36.61	36.90	8.91	-28.4	-30.6	12.8	6.63e-05	0	42	0	96468992	17	4643
2026-01-16 22:28:39.60	37.27	9.08	-28.4	-30.6	12.9	6.17e-05	0	42	0	105906176	17	4621
2026-01-16 22:28:42.61	37.64	9.26	-28.3	-30.3	13.0	6.63e-05	0	42	0	115343360	17	4555
2026-01-16 22:28:45.62	38.02	9.43	-28.3	-30.8	13.0	2.82e-05	0	42	0	124780544	16	4811
2026-01-16 22:28:48.62	38.41	9.61	-28.1	-30.3	13.3	2.05e-05	0	42	0	134217728	16	4651
2026-01-16 22:28:51.63	38.80	9.78	-28.3	-30.9	13.0	3.50e-05	0	42	0	143654912	16	4848
2026-01-16 22:28:54.63	39.19	9.96	-28.3	-30.8	13.1	3.73e-05	0	42	0	153092096	16	4793
2026-01-16 22:28:57.64	39.59	10.13	-28.0	-30.0	13.5	1.06e-05	0	42	0	162529280	16	4545
2026-01-16 22:29:00.64	39.99	10.31	-27.9	-29.8	13.7	9.10e-06	0	42	0	171966464	16	4482
2026-01-16 22:29:03.65	40.39	10.48	-27.9	-29.9	13.6	8.30e-06	0	43	0	181403648	16	4526
2026-01-16 22:29:06.65	40.80	10.66	-28.1	-30.2	13.4	7.60e-06	0	43	0	190840832	16	4625
2026-01-16 22:29:09.64	41.22	10.83	-28.0	-30.1	13.6	4.50e-06	0	42	0	200278016	16	4571
2026-01-16 22:29:12.65	41.64	11.01	-28.0	-30.0	13.7	1.29e-05	0	42	0	208666624	16	4532
2026-01-16 22:29:15.66	42.07	11.18	-28.0	-29.9	13.7	3.80e-06	0	43	0	218103808	16	4523
2026-01-16 22:29:18.67	42.50	11.36	-28.0	-30.1	13.7	6.10e-06	0	43	0	227540992	16	4563
2026-01-16 22:29:21.66	42.93	11.53	-28.0	-30.0	13.7	6.80e-06	0	43	0	236978176	16	4538
2026-01-16 22:29:24.68	43.38	11.71	-27.7	-29.3	14.1	9.10e-06	0	43	0	246415360	16	4328
2026-01-16 22:29:27.68	43.82	11.88	-27.6	-29.0	14.3	0.00e+00	0	42	0	255852544	16	4240
2026-01-16 22:29:30.68	44.27	12.06	-27.7	-29.4	14.1	2.20e-06	0	43	0	265289728	16	4358
2026-01-16 22:29:33.68	44.73	12.23	-27.9	-29.8	13.8	4.50e-06	0	43	0	274726912	16	4482
2026-01-16 22:29:36.69	45.19	12.40	-28.0	-30.1	13.7	6.10e-06	0	43	0	284164096	16	4558
2026-01-16 22:29:39.69	45.65	12.58	-27.8	-29.6	14.0	2.20e-06	0	43	0	293601280	16	4416
2026-01-16 22:29:42.70	46.13	12.75	-28.0	-30.5	13.6	1.22e-05	0	43	0	303038464	15	4815
2026-01-16 22:29:45.70	46.60	12.92	-27.8	-29.5	14.0	2.20e-06	0	43	0	312475648	16	4396
2026-01-16 22:29:48.70	47.09	13.09	-27.7	-29.3	14.2	7.00e-07	0	43	0	321912832	16	4309
2026-01-16 22:29:51.72	47.58	13.26	-27.5	-28.8	14.5	0.00e+00	0	43	0	331350016	16	4185
2026-01-16 22:29:54.72	48.07	13.43	-27.6	-28.9	14.4	0.00e+00	0	43	0	340787200	16	4219
2026-01-16 22:29:57.72	48.57	13.60	-27.6	-29.6	14.2	7.00e-07	0	43	0	350224384	15	4520
2026-01-16 22:30:00.72	49.07	13.77	-27.7	-29.8	14.0	2.20e-06	0	43	0	359661568	15	4595
2026-01-16 22:30:03.73	49.58	13.93	-27.6	-29.5	14.2	1.50e-06	0	43	0	369098752	15	4498
2026-01-16 22:30:06.73	50.10	14.10	-27.6	-29.5	14.3	1.50e-06	0	43	0	378535936	15	4485
2026-01-16 22:30:09.73	50.62	14.27	-27.7	-29.8	14.1	2.20e-06	0	43	0	387973120	15	4580
2026-01-16 22:30:12.75	51.15	14.43	-27.4	-29.1	14.5	1.50e-06	0	43	0	397410304	15	4369
2026-01-16 22:30:15.76	51.68	14.59	-27.1	-29.4	14.0	0.00e+00	0	43	0	406847488	14	4657
2026-01-16 22:30:18.76	52.22	14.76	-27.8	-30.1	12.8	5.30e-06	0	43	0	415236096	15	4664
2026-01-16 22:30:21.77	52.77	14.92	-28.2	-30.5	13.6	2.17e-03	0	43	0	424673280	16	4679
2026-01-16 22:30:24.77	53.32	15.07	-28.1	-30.1	13.8	5.30e-06	0	43	0	434110464	16	4559
2026-01-16 22:30:27.78	53.87	15.23	-27.9	-30.3	13.8	1.24e-03	0	43	0	443547648	15	4743
2026-01-16 22:30:30.79	54.44	15.39	-27.4	-29.5	14.7	7.00e-07	0	43	0	452984832	14	4592
2026-01-16 22:30:33.80	55.01	15.54	-27.7	-29.9	14.0	2.75e-03	0	43	0	462422016	15	4609
2026-01-16 22:30:36.80	55.58	15.70	-27.8	-30.1	13.9	1.54e-03	0	43	0	471859200	15	4673
2026-01-16 22:30:39.81	56.16	15.85	-27.5	-29.2	14.5	0.00e+00	0	43	0	481296384	15	4413
2026-01-16 22:30:42.81	56.74	16.00	-27.3	-29.4	14.7	2.74e-03	0	43	0	490733568	14	4555
2026-01-16 22:30:45.82	57.33	16.15	-27.3	-29.4	14.7	7.00e-07	0	43	0	500170752	14	4566
2026-01-16 22:30:48.82	57.93	16.29	-27.6	-29.6	14.3	1.01e-03	0	43	0	509607936	15	4509
2026-01-16 22:30:51.83	58.53	16.43	-27.3	-29.3	14.7	1.34e-03	0	43	0	519045120	14	4538
2026-01-16 22:30:54.83	59.14	16.58	-27.2	-29.1	14.9	2.27e-03	0	43	0	528482304	14	4492
2026-01-16 22:30:57.82	59.75	16.71	-27.0	-28.7	15.1	2.29e-03	0	43	0	537919488	14	4372
2026-01-16 22:31:00.83	60.37	16.85	-27.2	-29.1	14.9	0.00e+00	0	43	0	547356672	14	4492
2026-01-16 22:31:03.83	60.99	16.98	-27.2	-29.1	14.9	7.24e-04	0	43	0	556793856	14	4483
2026-01-16 22:31:06.83	61.62	17.12	-27.0	-28.6	15.2	0.00e+00	0	43	0	566231040	14	4334
2026-01-16 22:31:09.84	62.25	17.25	-26.8	-28.6	15.5	2.02e-03	0	43	0	575668224	13	4444
2026-01-16 22:31:12.84	62.89	17.37	-26.8	-28.7	15.4	2.16e-03	0	43	0	585105408	13	4474
2026-01-16 22:31:15.86	63.54	17.50	-27.0	-28.7	15.1	7.00e-07	0	43	0	594542592	14	4358
2026-01-16 22:31:18.86	64.19	17.62	-26.8	-28.2	15.5	1.36e-03	0	43	0	603979776	14	4228
2026-01-16 22:31:21.86	64.85	17.73	-26.9	-28.3	15.4	0.00e+00	0	43	0	613416960	14	4252
2026-01-16 22:31:24.86	65.50	17.85	-26.9	-28.9	15.3	0.00e+00	0	43	0	621805568	13	4526
2026-01-16 22:31:27.86	66.17	17.96	-26.8	-28.1	15.5	0.00e+00	0	43	0	631242752	14	4198
2026-01-16 22:31:30.88	66.84	18.07	-26.7	-28.5	15.5	0.00e+00	0	43	0	640679936	13	4426
2026-01-16 22:31:33.89	67.52	18.17	-26.8	-28.6	15.5	0.00e+00	0	43	0	650117120	13	4457
2026-01-16 22:31:36.89	68.20	18.27	-26.4	-27.8	16.0	0.00e+00	0	43	0	659554304	13	4219
2026-01-16 22:31:39.89	68.88	18.37	-26.5	-27.9	15.8	0.00e+00	0	43	0	668991488	13	4261
2026-01-16 22:31:42.88	69.56	18.47	-26.7	-28.5	15.6	0.00e+00	0	43	0	678428672	13	4418
2026-01-16 22:31:45.88	70.25	18.56	-26.6	-28.2	15.7	7.00e-07	0	43	0	687865856	13	4340
2026-01-16 22:31:48.88	70.95	18.64	-26.7	-28.3	15.6	0.00e+00	0	43	0	697303040	13	4369
2026-01-16 22:31:51.88	71.65	18.73	-26.5	-27.9	15.9	0.00e+00	0	43	0	706740224	13	4258
2026-01-16 22:31:54.89	72.35	18.81	-26.4	-27.9	16.0	0.00e+00	0	43	0	716177408	13	4234
2026-01-16 22:31:57.90	73.06	18.88	-26.5	-27.9	15.9	0.00e+00	0	43	0	725614592	13	4240
2026-01-16 22:32:00.89	73.77	18.95	-26.7	-28.5	15.6	6.80e-06	0	43	0	735051776	13	4418
2026-01-16 22:32:03.90	74.48	19.02	-26.8	-28.7	15.5	0.00e+00	0	43	0	744488960	13	4485
2026-01-16 22:32:06.90	75.20	19.08	-26.8	-28.6	15.6	0.00e+00	0	43	0	753926144	13	4443
2026-01-16 22:32:09.91	75.92	19.14	-26.9	-28.8	15.5	0.00e+00	0	44	0	763363328	13	4508
2026-01-16 22:32:12.91	76.64	19.20	-26.7	-28.5	15.6	0.00e+00	0	43	0	772800512	13	4402
2026-01-16 22:32:15.92	77.37	19.25	-26.9	-28.9	15.4	7.00e-07	0	43	0	782237696	13	4541
2026-01-16 22:32:18.93	78.10	19.29	-26.9	-28.8	15.5	0.00e+00	0	43	0	791674880	13	4497
2026-01-16 22:32:21.93	78.82	19.33	-26.9	-28.9	15.4	0.00e+00	0	44	0	800063488	13	4535
2026-01-16 22:32:24.93	79.55	19.37	-27.4	-29.6	14.8	0.00e+00	0	43	0	810549248	14	4616
2026-01-16 22:32:27.93	80.29	19.40	-27.2	-29.0	15.1	0.00e+00	0	43	0	818937856	14	4442
2026-01-16 22:32:30.93	81.02	19.43	-26.7	-28.5	15.6	2.36e-05	0	43	0	828375040	13	4430
2026-01-16 22:32:33.92	81.75	19.45	-26.9	-28.9	15.4	0.00e+00	0	43	0	837812224	13	4544
2026-01-16 22:32:36.92	82.49	19.47	-26.9	-28.8	15.5	0.00e+00	0	43	0	847249408	13	4504
2026-01-16 22:32:39.92	83.22	19.48	-26.7	-28.4	15.6	0.00e+00	0	44	0	856686592	13	4385
2026-01-16 22:32:42.92	83.96	19.49	-26.7	-28.4	15.7	0.00e+00	0	43	0	866123776	13	4372
2026-01-16 22:32:45.93	84.70	19.50	-26.8	-28.7	15.5	0.00e+00	0	43	0	875560960	13	4466
2026-01-16 22:32:48.93	85.44	19.50	-26.8	-28.6	15.6	0.00e+00	0	44	0	884998144	13	4445
2026-01-16 22:32:51.93	86.17	19.49	-26.9	-28.8	15.4	0.00e+00	0	44	0	894435328	13	4509
2026-01-16 22:32:54.94	86.91	19.48	-27.2	-29.0	15.1	0.00e+00	0	43	0	903872512	14	4457
2026-01-16 22:32:57.96	87.65	19.47	-27.1	-28.8	14.8	0.00e+00	0	43	0	913309696	14	4370
2026-01-16 22:33:00.96	88.39	19.45	-26.8	-28.2	15.5	0.00e+00	0	43	0	922746880	14	4220
2026-01-16 22:33:03.96	89.12	19.43	-26.6	-27.8	15.8	0.00e+00	0	44	0	932184064	14	4102
2026-01-16 22:33:06.97	89.86	19.40	-26.9	-28.4	15.4	0.00e+00	0	44	0	941621248	14	4279
2026-01-16 22:33:09.97	90.59	19.37	-26.9	-28.4	15.4	0.00e+00	0	43	0	951058432	14	4283
2026-01-16 22:33:12.96	91.32	19.33	-26.7	-27.9	15.7	1.27e-04	0	43	0	960495616	14	4137
2026-01-16 22:33:15.98	92.05	19.29	-26.6	-27.6	15.8	0.00e+00	0	43	0	969932800	14	4073
2026-01-16 22:33:18.98	92.78	19.24	-26.5	-27.4	16.0	8.92e-05	0	43	0	979369984	14	4023
2026-01-16 22:33:21.97	93.50	19.19	-26.6	-27.7	15.8	2.20e-06	0	43	0	987758592	14	4083
2026-01-16 22:33:24.98	94.23	19.14	-26.7	-27.9	15.7	0.00e+00	0	43	0	997195776	14	4128
2026-01-16 22:33:27.97	94.95	19.08	-26.5	-27.4	16.0	1.50e-06	0	43	0	1006632960	14	4007
2026-01-16 22:33:30.98	95.66	19.01	-26.4	-27.3	16.0	0.00e+00	0	43	0	1016070144	14	3987
2026-01-16 22:33:33.98	96.38	18.95	-26.6	-27.8	15.8	0.00e+00	0	44	0	1025507328	14	4107
2026-01-16 22:33:36.99	97.09	18.87	-26.5	-27.5	15.9	0.00e+00	0	43	0	1034944512	14	4031
2026-01-16 22:33:39.98	97.80	18.80	-26.6	-27.8	15.7	6.63e-05	0	43	0	1044381696	14	4109
2026-01-16 22:33:42.98	98.50	18.72	-26.5	-27.6	15.9	0.00e+00	0	44	0	1053818880	14	4059
2026-01-16 22:33:45.98	99.20	18.63	-26.5	-27.5	15.8	5.30e-06	0	43	0	1063256064	14	4048
2026-01-16 22:33:48.98	99.90	18.55	-26.4	-27.4	15.9	6.71e-05	0	44	0	1072693248	14	4002
2026-01-16 22:33:51.98	100.59	18.46	-26.5	-27.4	15.9	7.78e-05	0	43	0	1082130432	14	4012
2026-01-16 22:33:54.98	101.28	18.36	-26.3	-27.6	16.1	4.57e-05	0	43	0	1091567616	13	4180
2026-01-16 22:33:57.98	101.96	18.26	-26.4	-27.8	16.0	5.30e-06	0	44	0	1101004800	13	4229
2026-01-16 22:34:00.99	102.65	18.16	-26.4	-27.8	16.0	2.85e-04	0	44	0	1110441984	13	4231
2026-01-16 22:34:04.00	103.32	18.05	-26.5	-28.1	15.8	3.12e-04	0	44	0	1119879168	13	4299
2026-01-16 22:34:07.00	103.99	17.94	-26.5	-28.0	15.8	0.00e+00	0	44	0	1129316352	13	4281
2026-01-16 22:34:10.00	104.66	17.83	-26.7	-28.5	15.6	7.78e-05	0	43	0	1138753536	13	4412
2026-01-16 22:34:13.00	105.32	17.72	-26.6	-28.2	15.7	0.00e+00	0	44	0	1148190720	13	4332
2026-01-16 22:34:16.01	105.98	17.60	-26.8	-28.7	15.4	1.90e-04	0	44	0	1157627904	13	4468
2026-01-16 22:34:19.02	106.63	17.48	-26.7	-28.5	15.5	0.00e+00	0	44	0	1166016512	13	4431
2026-01-16 22:34:22.03	107.28	17.35	-27.1	-28.9	15.1	7.00e-07	0	44	0	1176502272	14	4409
2026-01-16 22:34:25.03	107.92	17.22	-27.0	-28.5	15.3	0.00e+00	0	44	0	1185939456	14	4312
2026-01-16 22:34:28.03	108.56	17.09	-27.0	-28.6	15.3	0.00e+00	0	44	0	1194328064	14	4328
2026-01-16 22:34:31.04	109.19	16.96	-27.1	-28.9	15.1	0.00e+00	0	43	0	1203765248	14	4427
2026-01-16 22:34:34.03	109.81	16.83	-27.2	-29.1	15.0	0.00e+00	0	44	0	1213202432	14	4463
2026-01-16 22:34:37.03	110.43	16.69	-27.0	-28.6	15.2	0.00e+00	0	44	0	1222639616	14	4340
2026-01-16 22:34:40.04	111.05	16.55	-26.7	-28.4	15.5	0.00e+00	0	44	0	1232076800	13	4387
2026-01-16 22:34:43.06	111.66	16.40	-27.0	-29.1	15.2	0.00e+00	0	44	0	1241513984	13	4599
2026-01-16 22:34:46.06	112.27	16.26	-27.2	-29.1	14.9	7.00e-07	0	44	0	1250951168	14	4487
2026-01-16 22:34:49.06	112.86	16.11	-27.2	-29.2	14.8	0.00e+00	0	44	0	1260388352	14	4521
2026-01-16 22:34:52.07	113.46	15.96	-27.2	-29.2	14.8	0.00e+00	0	44	0	1269825536	14	4518
2026-01-16 22:34:55.07	114.04	15.81	-27.5	-29.7	14.5	0.00e+00	0	44	0	1279262720	14	4663
2026-01-16 22:34:58.08	114.62	15.66	-27.3	-29.2	14.8	8.30e-06	0	44	0	1288699904	14	4524
2026-01-16 22:35:01.09	115.20	15.51	-27.6	-29.4	14.4	0.00e+00	0	44	0	1298137088	15	4476
2026-01-16 22:35:04.08	115.77	15.35	-27.4	-29.1	14.6	4.50e-06	0	44	0	1307574272	15	4379
2026-01-16 22:35:07.10	116.33	15.19	-27.3	-28.9	14.7	7.60e-06	0	44	0	1317011456	15	4317
2026-01-16 22:35:10.10	116.89	15.03	-27.3	-28.8	14.7	6.10e-06	0	44	0	1326448640	15	4296
2026-01-16 22:35:13.11	117.44	14.87	-27.2	-28.6	14.8	3.80e-06	0	43	0	1335885824	15	4220
2026-01-16 22:35:16.11	117.99	14.71	-27.4	-29.0	14.6	0.00e+00	0	44	0	1345323008	15	4345
2026-01-16 22:35:19.11	118.53	14.55	-27.6	-29.5	14.3	3.80e-06	0	44	0	1354760192	15	4504
2026-01-16 22:35:22.12	119.06	14.38	-27.6	-29.7	14.2	9.10e-06	0	43	0	1364197376	15	4538
2026-01-16 22:35:25.13	119.59	14.22	-27.8	-30.1	13.9	9.10e-06	0	44	0	1373634560	15	4684
2026-01-16 22:35:28.13	120.12	14.05	-27.6	-29.6	14.1	1.50e-06	0	44	0	1383071744	15	4542
2026-01-16 22:35:31.13	120.63	13.88	-27.2	-28.8	14.6	0.00e+00	0	44	0	1391460352	15	4287
2026-01-16 22:35:34.14	121.15	13.71	-27.1	-28.3	14.9	2.20e-06	0	43	0	1400897536	15	4161
2026-01-16 22:35:37.15	121.65	13.54	-27.3	-28.9	14.6	0.00e+00	0	43	0	1410334720	15	4316
2026-01-16 22:35:40.16	122.16	13.37	-27.1	-28.4	14.8	3.80e-06	0	43	0	1419771904	15	4190
2026-01-16 22:35:43.17	122.65	13.20	-27.2	-28.7	14.7	0.00e+00	0	43	0	1429209088	15	4261
2026-01-16 22:35:46.18	123.14	13.03	-27.2	-28.6	14.7	0.00e+00	0	43	0	1438646272	15	4247
2026-01-16 22:35:49.18	123.63	12.85	-27.1	-28.4	14.8	7.00e-07	0	43	0	1448083456	15	4201
2026-01-16 22:35:52.18	124.10	12.68	-27.0	-28.6	15.0	0.00e+00	0	44	0	1457520640	14	4336
2026-01-16 22:35:55.19	124.58	12.51	-27.0	-28.7	14.9	0.00e+00	0	44	0	1466957824	14	4374
2026-01-16 22:35:58.19	125.05	12.33	-27.2	-29.1	14.6	2.20e-06	0	44	0	1476395008	14	4489
2026-01-16 22:36:01.21	125.51	12.16	-27.3	-29.5	14.4	7.00e-07	0	44	0	1485832192	14	4618
2026-01-16 22:36:04.22	125.97	11.98	-27.4	-29.8	14.2	0.00e+00	0	44	0	1495269376	14	4713
2026-01-16 22:36:07.23	126.42	11.81	-27.6	-29.6	14.0	1.50e-06	0	43	0	1504706560	15	4535
2026-01-16 22:36:10.24	126.87	11.63	-27.7	-29.8	13.9	2.20e-06	0	44	0	1514143744	15	4599
2026-01-16 22:36:13.23	127.31	11.45	-27.7	-29.9	13.8	9.10e-06	0	44	0	1523580928	15	4628
2026-01-16 22:36:16.23	127.74	11.28	-27.7	-29.9	13.8	6.80e-06	0	44	0	1533018112	15	4645
2026-01-16 22:36:19.25	128.18	11.10	-28.2	-30.5	13.3	1.75e-05	0	44	0	1542455296	16	4708
2026-01-16 22:36:22.26	128.61	10.92	-28.0	-30.0	13.6	9.90e-06	0	43	0	1551892480	16	4555
2026-01-16 22:36:25.26	129.03	10.75	-27.8	-29.5	13.9	6.10e-06	0	44	0	1561329664	16	4397
2026-01-16 22:36:28.27	129.44	10.57	-27.9	-29.8	13.6	1.37e-05	0	44	0	1570766848	16	4493
2026-01-16 22:36:31.25	129.85	10.39	-27.8	-29.7	13.7	9.10e-06	0	44	0	1580204032	16	4455
2026-01-16 22:36:34.25	130.26	10.22	-28.0	-30.1	13.4	1.06e-05	0	44	0	1589641216	16	4584
2026-01-16 22:36:37.25	130.66	10.04	-28.1	-30.4	13.3	2.05e-05	0	44	0	1598029824	16	4683
2026-01-16 22:36:40.26	131.06	9.86	-28.2	-30.7	13.1	1.83e-05	0	44	0	1607467008	16	4764
2026-01-16 22:36:43.25	131.45	9.69	-28.2	-30.6	13.1	2.59e-05	0	44	0	1616904192	16	4757
2026-01-16 22:36:46.25	131.84	9.51	-28.0	-30.1	13.4	2.67e-05	0	44	0	1626341376	16	4585
2026-01-16 22:36:49.27	132.22	9.33	-28.2	-30.6	13.0	3.43e-05	0	44	0	1635778560	16	4743
2026-01-16 22:36:52.28	132.60	9.16	-28.4	-30.6	12.7	3.73e-05	0	44	0	1645215744	17	4632
2026-01-16 22:36:55.29	132.98	8.98	-28.3	-30.3	12.8	6.94e-05	0	44	0	1654652928	17	4564
2026-01-16 22:36:58.29	133.35	8.80	-28.5	-30.9	12.4	1.32e-04	0	44	0	1664090112	17	4769
2026-01-16 22:37:01.29	133.72	8.63	-28.4	-30.7	12.5	1.01e-04	0	44	0	1673527296	17	4697
2026-01-16 22:37:04.30	134.08	8.45	-28.3	-30.4	12.7	1.06e-04	0	44	0	1682964480	17	4596
2026-01-16 22:37:07.31	134.44	8.28	-28.6	-31.2	12.1	1.94e-04	0	44	0	1692401664	17	4895
2026-01-16 22:37:10.31	134.79	8.10	-28.5	-31.1	12.2	3.28e-04	0	44	0	1701838848	17	4851
2026-01-16 22:37:13.32	135.14	7.93	-28.6	-31.3	12.0	2.58e-04	0	44	0	1711276032	17	4914
2026-01-16 22:37:16.32	135.49	7.75	-28.5	-31.1	12.2	2.37e-04	0	44	0	1720713216	17	4822
2026-01-16 22:37:19.32	135.83	7.58	-28.5	-31.0	12.2	1.98e-04	0	44	0	1730150400	17	4796
2026-01-16 22:37:22.33	136.17	7.40	-28.4	-30.9	12.2	2.53e-04	0	44	0	1739587584	17	4776
2026-01-16 22:37:25.34	136.50	7.23	-28.5	-31.3	11.9	3.60e-04	0	44	0	1749024768	17	4940
2026-01-16 22:37:28.34	136.83	7.06	-31.0	-36.9	7.3	1.05e-03	0	44	0	1758461952	21	7090
2026-01-16 22:37:31.35	137.16	6.88	-33.5	-45.8	3.8	1.49e+00	0	44	104	1758461952	26	14923

#Closed at: 2026-01-16 22:37:31
#Recorded file [1758 MB]: D:/data/31010_260117_012805.dat