passes_logs/2026/01/16/R2M6_AANII_01/R2M6_AANII_01__20260116_123216_SUOMI_NPP_rec.log

#Pass ID: 20260116_123216_SUOMI NPP
#Satellite: SUOMI NPP
#Configuration: NPP
#almurnet v.1.7.20240730
#Start time: 2026-01-16 12:32:17

#Version: 2.2.20231116
#Station: R2M6_AANII_01
#Location: 30.233357 lon 59.946436 lat
#TLE: 1 37849U 11061A   26015.52691075  .00000052  00000+0  45753-4 0  9993
#TLE: 2 37849  98.7811 317.5709 0002448  62.7632 297.3794 14.19525354736784

#Time	Az	El	Level	Level2	SNR	BER	BlckErr	Temp	State	Recorded	gain1	gain2
2026-01-16 12:32:17.25	233.53	7.04	-30.9	-33.5	5.4	1.13e+00	0	40	0	0	23	4847
2026-01-16 12:32:20.25	233.90	7.19	-31.7	-36.6	7.6	1.08e-01	0	40	0	1048576	23	6300
2026-01-16 12:32:23.26	234.27	7.34	-30.7	-33.3	10.4	1.06e-02	0	40	0	7340032	22	4819
2026-01-16 12:32:26.27	234.65	7.50	-30.9	-33.7	10.2	8.47e-03	0	41	0	12582912	22	4982
2026-01-16 12:32:29.27	235.04	7.65	-30.2	-32.1	11.8	8.64e-04	0	41	0	17825792	21	4452
2026-01-16 12:32:32.28	235.42	7.80	-30.5	-33.0	11.1	1.89e-03	0	41	0	24117248	21	4793
2026-01-16 12:32:35.29	235.82	7.95	-30.2	-31.9	11.9	5.35e-04	0	41	0	29360128	21	4392
2026-01-16 12:32:38.29	236.21	8.10	-30.5	-32.8	11.3	6.73e-04	0	41	0	35651584	21	4713
2026-01-16 12:32:41.29	236.61	8.26	-30.4	-32.4	11.6	4.91e-04	0	41	0	40894464	21	4565
2026-01-16 12:32:44.28	237.01	8.41	-30.4	-32.4	11.6	6.19e-04	0	41	0	46137344	21	4558
2026-01-16 12:32:47.29	237.42	8.56	-30.3	-32.3	11.8	4.27e-04	0	41	0	52428800	21	4495
2026-01-16 12:32:50.30	237.83	8.71	-30.5	-32.7	11.5	6.23e-04	0	41	0	57671680	21	4663
2026-01-16 12:32:53.30	238.24	8.86	-30.5	-32.6	11.6	5.64e-04	0	41	0	62914560	21	4619
2026-01-16 12:32:56.30	238.66	9.01	-30.3	-32.2	11.9	4.33e-04	0	41	0	69206016	21	4485
2026-01-16 12:32:59.30	239.09	9.16	-30.5	-32.8	11.5	6.92e-04	0	41	0	74448896	21	4685
2026-01-16 12:33:02.31	239.51	9.30	-30.1	-31.4	12.4	1.40e-04	0	42	0	80740352	21	4213
2026-01-16 12:33:05.32	239.95	9.45	-30.0	-31.1	12.7	1.02e-04	0	41	0	85983232	21	4121
2026-01-16 12:33:08.33	240.38	9.60	-30.0	-31.2	12.6	1.30e-04	0	42	0	91226112	21	4125
2026-01-16 12:33:11.34	240.83	9.75	-29.8	-31.2	13.0	3.43e-05	0	41	0	97517568	20	4229
2026-01-16 12:33:14.35	241.27	9.90	-29.7	-30.8	13.2	2.13e-05	0	42	0	102760448	20	4105
2026-01-16 12:33:17.36	241.72	10.04	-29.5	-30.4	13.5	1.44e-05	0	42	0	108003328	20	3977
2026-01-16 12:33:20.36	242.17	10.19	-29.5	-30.3	13.6	1.14e-05	0	42	0	114294784	20	3955
2026-01-16 12:33:23.36	242.63	10.33	-29.7	-30.7	13.3	8.30e-06	0	42	0	119537664	20	4077
2026-01-16 12:33:26.37	243.09	10.47	-29.8	-31.0	13.1	3.58e-05	0	42	0	125829120	20	4167
2026-01-16 12:33:29.37	243.56	10.62	-29.9	-31.4	13.0	3.50e-05	0	42	0	131072000	20	4266
2026-01-16 12:33:32.37	244.03	10.76	-29.7	-30.9	13.3	2.05e-05	0	42	0	136314880	20	4117
2026-01-16 12:33:35.37	244.51	10.90	-29.9	-31.5	12.9	4.73e-05	0	42	0	142606336	20	4300
2026-01-16 12:33:38.38	244.99	11.04	-29.9	-31.2	13.1	5.34e-05	0	42	0	147849216	20	4226
2026-01-16 12:33:41.39	245.47	11.18	-30.1	-31.8	12.7	5.95e-05	0	42	0	153092096	20	4384
2026-01-16 12:33:44.40	245.96	11.32	-29.8	-31.2	13.1	3.05e-05	0	42	0	159383552	20	4193
2026-01-16 12:33:47.40	246.45	11.45	-29.9	-31.4	13.0	3.81e-05	0	42	0	164626432	20	4257
2026-01-16 12:33:50.41	246.95	11.59	-30.1	-31.8	12.7	5.87e-05	0	42	0	170917888	20	4403
2026-01-16 12:33:53.42	247.46	11.73	-30.1	-31.9	12.7	5.79e-05	0	42	0	176160768	20	4435
2026-01-16 12:33:56.44	247.96	11.86	-30.0	-31.5	13.0	4.34e-05	0	42	0	181403648	20	4299
2026-01-16 12:33:59.44	248.48	11.99	-30.1	-31.9	12.7	7.62e-05	0	42	0	187695104	20	4427
2026-01-16 12:34:02.44	248.99	12.12	-30.2	-32.1	12.6	9.61e-05	0	42	0	192937984	20	4483
2026-01-16 12:34:05.45	249.51	12.25	-30.1	-31.9	12.7	5.03e-05	0	42	0	198180864	20	4428
2026-01-16 12:34:08.46	250.04	12.38	-30.2	-32.3	12.5	1.08e-04	0	42	0	204472320	20	4552
2026-01-16 12:34:11.47	250.57	12.51	-30.3	-32.3	12.5	1.07e-04	0	42	0	209715200	20	4549
2026-01-16 12:34:14.47	251.10	12.63	-30.2	-32.2	12.6	1.01e-04	0	42	0	216006656	20	4510
2026-01-16 12:34:17.47	251.63	12.75	-30.3	-32.5	12.4	9.30e-05	0	42	0	221249536	20	4612
2026-01-16 12:34:20.48	252.18	12.87	-30.6	-32.9	11.8	4.20e-04	0	42	0	226492416	21	4664
2026-01-16 12:34:23.48	252.72	12.99	-30.8	-33.3	11.5	9.07e-04	0	42	0	232783872	21	4830
2026-01-16 12:34:26.48	253.27	13.11	-30.9	-33.6	11.4	1.09e-03	0	42	0	238026752	21	4925
2026-01-16 12:34:29.50	253.83	13.23	-30.7	-32.5	11.8	6.55e-04	0	42	0	243269632	22	4427
2026-01-16 12:34:32.49	254.39	13.34	-30.7	-32.5	11.8	4.52e-04	0	42	0	249561088	22	4439
2026-01-16 12:34:35.49	254.95	13.45	-30.8	-32.8	11.5	7.18e-04	0	42	0	254803968	22	4553
2026-01-16 12:34:38.48	255.51	13.56	-30.9	-33.2	11.3	1.17e-03	0	42	0	261095424	22	4698
2026-01-16 12:34:41.49	256.08	13.67	-31.0	-33.5	11.0	2.01e-03	0	42	0	266338304	22	4810
2026-01-16 12:34:44.48	256.66	13.78	-31.1	-33.8	10.8	1.96e-03	0	42	0	271581184	22	4911
2026-01-16 12:34:47.49	257.24	13.88	-31.2	-34.1	10.6	4.69e-03	0	43	0	277872640	22	5026
2026-01-16 12:34:50.49	257.82	13.98	-30.8	-32.7	11.6	8.03e-04	0	42	0	283115520	22	4507
2026-01-16 12:34:53.48	258.40	14.08	-30.9	-33.0	11.5	7.30e-04	0	43	0	288358400	22	4613
2026-01-16 12:34:56.50	258.99	14.18	-31.0	-33.3	11.2	1.29e-03	0	42	0	294649856	22	4726
2026-01-16 12:34:59.51	259.59	14.27	-30.7	-32.6	11.8	6.18e-04	0	42	0	299892736	22	4454
2026-01-16 12:35:02.51	260.19	14.36	-30.7	-32.5	11.8	3.45e-04	0	43	0	306184192	22	4435
2026-01-16 12:35:05.51	260.79	14.45	-30.6	-32.2	12.1	2.66e-04	0	42	0	311427072	22	4309
2026-01-16 12:35:08.52	261.39	14.54	-30.3	-31.7	12.7	7.55e-05	0	43	0	316669952	21	4260
2026-01-16 12:35:11.52	262.00	14.62	-30.1	-31.4	13.0	4.80e-05	0	42	0	322961408	21	4152
2026-01-16 12:35:14.51	262.61	14.70	-30.0	-31.1	13.1	2.82e-05	0	43	0	328204288	21	4058
2026-01-16 12:35:17.52	263.22	14.78	-30.1	-31.2	13.1	5.18e-05	0	43	0	333447168	21	4085
2026-01-16 12:35:20.52	263.84	14.86	-29.9	-30.8	13.4	1.60e-05	0	42	0	339738624	21	3984
2026-01-16 12:35:23.52	264.46	14.93	-29.7	-30.6	13.8	1.06e-05	0	43	0	344981504	20	3995
2026-01-16 12:35:26.51	265.08	15.00	-29.8	-31.0	13.5	5.30e-06	0	43	0	350224384	20	4120
2026-01-16 12:35:29.51	265.70	15.06	-30.2	-32.0	12.9	3.81e-05	0	43	0	356515840	20	4435
2026-01-16 12:35:32.52	266.33	15.13	-30.0	-31.5	13.3	1.83e-05	0	43	0	361758720	20	4256
2026-01-16 12:35:35.54	266.97	15.19	-30.0	-31.5	13.3	2.13e-05	0	43	0	368050176	20	4277
2026-01-16 12:35:38.55	267.60	15.25	-30.4	-32.5	12.6	8.69e-05	0	43	0	373293056	20	4593
2026-01-16 12:35:41.55	268.24	15.30	-30.3	-32.4	12.8	4.34e-05	0	43	0	378535936	20	4555
2026-01-16 12:35:44.56	268.88	15.35	-30.8	-33.1	11.9	1.93e-04	0	43	0	384827392	21	4699
2026-01-16 12:35:47.57	269.52	15.40	-31.1	-33.5	11.3	1.15e-03	0	43	0	390070272	22	4770
2026-01-16 12:35:50.58	270.16	15.44	-30.8	-32.8	11.7	4.24e-04	0	43	0	395313152	22	4507
2026-01-16 12:35:53.58	270.80	15.48	-31.4	-34.6	10.5	3.42e-03	0	43	0	401604608	22	5193
2026-01-16 12:35:56.59	271.45	15.52	-31.6	-34.9	9.8	1.09e-02	0	42	0	406847488	23	5249
2026-01-16 12:35:59.59	272.09	15.56	-31.5	-34.6	10.1	6.26e-03	0	42	0	413138944	23	5121
2026-01-16 12:36:02.59	272.74	15.59	-30.9	-32.4	11.7	1.14e-03	0	43	0	418381824	23	4297
2026-01-16 12:36:05.59	273.39	15.62	-30.3	-31.3	12.7	9.30e-05	0	43	0	423624704	22	4035
2026-01-16 12:36:08.59	274.04	15.64	-30.2	-31.4	13.0	3.58e-05	0	43	0	429916160	21	4147
2026-01-16 12:36:11.60	274.69	15.66	-30.2	-31.6	12.9	4.42e-05	0	42	0	435159040	21	4216
2026-01-16 12:36:14.60	275.34	15.68	-30.2	-31.5	12.9	5.18e-05	0	43	0	440401920	21	4190
2026-01-16 12:36:17.60	275.99	15.69	-30.2	-31.6	12.9	6.40e-05	0	43	0	446693376	21	4219
2026-01-16 12:36:20.60	276.64	15.70	-30.6	-32.5	12.3	2.11e-04	0	43	0	451936256	21	4527
2026-01-16 12:36:23.61	277.30	15.71	-30.4	-32.2	12.4	1.83e-04	0	42	0	458227712	21	4404
2026-01-16 12:36:26.63	277.96	15.71	-30.4	-32.2	12.5	1.27e-04	0	43	0	463470592	21	4405
2026-01-16 12:36:29.63	278.61	15.71	-30.2	-31.5	12.9	1.17e-04	0	43	0	468713472	21	4181
2026-01-16 12:36:32.63	279.26	15.71	-30.2	-31.4	13.1	3.81e-05	0	43	0	475004928	21	4133
2026-01-16 12:36:35.63	279.91	15.70	-30.4	-32.1	12.5	1.11e-04	0	43	0	480247808	21	4374
2026-01-16 12:36:38.63	280.56	15.69	-30.2	-31.4	13.0	3.05e-05	0	43	0	485490688	21	4134
2026-01-16 12:36:41.64	281.22	15.68	-30.0	-30.9	13.3	2.05e-05	0	43	0	491782144	21	3989
2026-01-16 12:36:44.63	281.87	15.66	-30.2	-31.5	12.9	2.97e-05	0	43	0	497025024	21	4179
2026-01-16 12:36:47.64	282.52	15.64	-30.1	-31.2	13.1	3.12e-05	0	43	0	502267904	21	4094
2026-01-16 12:36:50.65	283.17	15.61	-30.5	-32.4	12.3	1.79e-04	0	43	0	508559360	21	4462
2026-01-16 12:36:53.65	283.82	15.59	-30.5	-32.4	12.3	2.01e-04	0	43	0	513802240	21	4482
2026-01-16 12:36:56.65	284.46	15.56	-30.5	-32.3	12.4	3.01e-04	0	43	0	520093696	21	4441
2026-01-16 12:36:59.65	285.11	15.52	-29.6	-30.4	14.0	3.00e-06	0	43	0	525336576	20	3956
2026-01-16 12:37:02.65	285.75	15.48	-30.0	-31.4	13.3	6.80e-06	0	43	0	530579456	20	4236
2026-01-16 12:37:05.65	286.39	15.44	-30.3	-32.1	12.8	7.09e-05	0	43	0	536870912	20	4475
2026-01-16 12:37:08.66	287.03	15.40	-30.2	-32.0	12.9	4.50e-05	0	43	0	542113792	20	4418
2026-01-16 12:37:11.67	287.67	15.35	-30.1	-31.8	13.1	3.05e-05	0	43	0	547356672	20	4364
2026-01-16 12:37:14.69	288.31	15.30	-30.3	-32.4	12.7	5.41e-05	0	43	0	553648128	20	4554
2026-01-16 12:37:17.70	288.95	15.24	-30.3	-32.3	12.7	1.36e-04	0	43	0	558891008	20	4531
2026-01-16 12:37:20.69	289.58	15.19	-30.3	-32.4	12.6	7.17e-05	0	42	0	565182464	20	4567
2026-01-16 12:37:23.69	290.20	15.13	-30.1	-31.6	13.1	3.05e-05	0	43	0	570425344	20	4318
2026-01-16 12:37:26.69	290.83	15.06	-29.9	-31.1	13.5	1.75e-05	0	43	0	575668224	20	4156
2026-01-16 12:37:29.68	291.45	15.00	-29.7	-30.7	13.7	4.50e-06	0	43	0	581959680	20	4033
2026-01-16 12:37:32.68	292.07	14.93	-29.6	-30.5	13.8	3.80e-06	0	43	0	587202560	20	3981
2026-01-16 12:37:35.68	292.69	14.86	-29.7	-30.8	13.7	7.60e-06	0	43	0	592445440	20	4046
2026-01-16 12:37:38.67	293.30	14.78	-29.5	-30.2	14.1	3.80e-06	0	43	0	598736896	20	3882
2026-01-16 12:37:41.68	293.91	14.70	-29.5	-30.1	14.1	7.00e-07	0	43	0	603979776	20	3858
2026-01-16 12:37:44.69	294.52	14.62	-29.8	-30.9	13.6	9.10e-06	0	43	0	609222656	20	4094
2026-01-16 12:37:47.70	295.13	14.54	-29.9	-31.1	13.4	5.30e-06	0	43	0	615514112	20	4141
2026-01-16 12:37:50.71	295.74	14.45	-30.0	-31.5	13.2	4.04e-05	0	43	0	620756992	20	4283
2026-01-16 12:37:53.72	296.34	14.36	-29.8	-30.8	13.7	1.37e-05	0	43	0	627048448	20	4067
2026-01-16 12:37:56.73	296.93	14.27	-29.4	-30.0	14.2	1.50e-06	0	43	0	632291328	20	3835
2026-01-16 12:37:59.72	297.52	14.18	-29.4	-30.3	14.3	0.00e+00	0	43	0	637534208	19	4002
2026-01-16 12:38:02.71	298.11	14.08	-29.0	-29.4	14.9	0.00e+00	0	43	0	643825664	19	3758
2026-01-16 12:38:05.71	298.69	13.99	-29.4	-30.4	14.2	1.50e-06	0	43	0	649068544	19	4040
2026-01-16 12:38:08.71	299.27	13.89	-29.3	-30.0	14.5	7.00e-07	0	43	0	654311424	19	3927
2026-01-16 12:38:11.71	299.84	13.78	-29.4	-30.5	14.2	0.00e+00	0	43	0	660602880	19	4053
2026-01-16 12:38:14.70	300.41	13.68	-29.7	-31.1	13.8	3.00e-06	0	43	0	665845760	19	4248
2026-01-16 12:38:17.71	300.98	13.57	-29.6	-30.9	13.9	4.50e-06	0	43	0	672137216	19	4167
2026-01-16 12:38:20.72	301.55	13.46	-29.6	-30.9	13.9	6.10e-06	0	43	0	677380096	19	4192
2026-01-16 12:38:23.73	302.11	13.35	-29.7	-31.2	13.7	6.10e-06	0	43	0	682622976	19	4272
2026-01-16 12:38:26.73	302.67	13.24	-29.5	-30.7	14.1	7.00e-07	0	43	0	688914432	19	4113
2026-01-16 12:38:29.73	303.22	13.12	-29.6	-31.0	13.9	3.00e-06	0	43	0	694157312	19	4211
2026-01-16 12:38:32.73	303.76	13.01	-29.8	-31.4	13.5	8.30e-06	0	43	0	699400192	19	4339
2026-01-16 12:38:35.74	304.31	12.89	-30.0	-31.5	13.1	7.60e-06	0	43	0	705691648	20	4296
2026-01-16 12:38:38.75	304.85	12.77	-30.1	-31.7	13.0	4.34e-05	0	43	0	710934528	20	4352
2026-01-16 12:38:41.74	305.38	12.64	-30.2	-32.1	12.7	6.17e-05	0	43	0	717225984	20	4494
2026-01-16 12:38:44.74	305.91	12.52	-30.5	-32.6	12.1	2.01e-04	0	43	0	722468864	21	4549
2026-01-16 12:38:47.75	306.44	12.40	-30.7	-33.1	11.6	6.55e-04	0	43	0	727711744	21	4740
2026-01-16 12:38:50.75	306.96	12.27	-30.6	-32.7	11.9	5.74e-04	0	43	0	734003200	21	4610
2026-01-16 12:38:53.74	307.47	12.14	-31.0	-33.6	11.0	9.99e-04	0	43	0	739246080	22	4821
2026-01-16 12:38:56.75	307.99	12.01	-31.0	-33.4	11.1	1.89e-03	0	43	0	744488960	22	4740
2026-01-16 12:38:59.76	308.50	11.88	-30.3	-31.8	12.6	1.27e-04	0	43	0	750780416	21	4297
2026-01-16 12:39:02.76	309.00	11.75	-30.3	-32.0	12.5	9.76e-05	0	43	0	756023296	21	4338
2026-01-16 12:39:05.78	309.50	11.61	-30.7	-33.1	11.6	5.68e-04	0	43	0	761266176	21	4754
2026-01-16 12:39:08.78	310.00	11.48	-30.9	-33.7	11.2	1.16e-03	0	42	0	767557632	21	4966
2026-01-16 12:39:11.79	310.49	11.34	-31.2	-34.3	10.5	2.76e-03	0	43	0	772800512	22	5097
2026-01-16 12:39:14.80	310.98	11.21	-31.3	-34.5	10.3	4.68e-03	0	43	0	779091968	22	5192
2026-01-16 12:39:17.81	311.46	11.07	-31.0	-33.4	11.1	2.55e-03	0	43	0	784334848	22	4774
2026-01-16 12:39:20.83	311.94	10.93	-30.8	-32.7	11.6	7.45e-04	0	43	0	789577728	22	4514
2026-01-16 12:39:23.84	312.42	10.79	-30.8	-32.9	11.4	8.87e-04	0	43	0	795869184	22	4587
2026-01-16 12:39:26.84	312.88	10.65	-30.8	-32.8	11.5	6.38e-04	0	43	0	801112064	22	4537
2026-01-16 12:39:29.85	313.35	10.51	-30.5	-31.9	12.1	2.98e-04	0	43	0	807403520	22	4235
2026-01-16 12:39:32.85	313.81	10.37	-30.5	-32.0	12.1	3.06e-04	0	43	0	812646400	22	4264
2026-01-16 12:39:35.85	314.26	10.22	-30.8	-33.0	11.3	9.55e-04	0	43	0	817889280	22	4624
2026-01-16 12:39:38.84	314.71	10.08	-31.1	-34.0	10.6	3.33e-03	0	43	0	824180736	22	5012
2026-01-16 12:39:41.85	315.16	9.94	-31.3	-34.5	10.1	6.20e-03	0	43	0	829423616	22	5236
2026-01-16 12:39:44.85	315.60	9.79	-30.9	-33.2	11.1	1.83e-03	0	43	0	834666496	22	4681
2026-01-16 12:39:47.85	316.04	9.65	-30.6	-32.4	11.7	6.88e-04	0	43	0	840957952	22	4416
2026-01-16 12:39:50.85	316.48	9.50	-30.4	-31.9	12.1	2.66e-04	0	43	0	846200832	22	4237
2026-01-16 12:39:53.86	316.91	9.35	-30.3	-31.5	12.3	1.90e-04	0	43	0	851443712	22	4122
2026-01-16 12:39:56.85	317.33	9.21	-30.3	-32.1	12.1	2.13e-04	0	43	0	857735168	21	4418
2026-01-16 12:39:59.86	317.75	9.06	-30.4	-32.2	12.1	2.88e-04	0	43	0	862978048	21	4449
2026-01-16 12:40:02.86	318.17	8.91	-30.4	-32.3	12.0	2.97e-04	0	43	0	869269504	21	4465
2026-01-16 12:40:05.86	318.58	8.76	-30.2	-31.8	12.3	1.19e-04	0	43	0	874512384	21	4331
2026-01-16 12:40:08.87	319.00	8.61	-30.1	-31.4	12.6	2.06e-04	0	43	0	879755264	21	4187
2026-01-16 12:40:11.87	319.40	8.46	-30.3	-32.0	12.1	2.55e-04	0	43	0	886046720	21	4398
2026-01-16 12:40:14.87	319.80	8.32	-30.4	-32.4	11.9	2.85e-04	0	43	0	891289600	21	4530
2026-01-16 12:40:17.88	320.20	8.17	-30.4	-32.4	11.9	4.00e-04	0	43	0	896532480	21	4524
2026-01-16 12:40:20.89	320.59	8.01	-30.5	-32.6	11.7	5.69e-04	0	43	0	902823936	21	4601
2026-01-16 12:40:23.89	320.98	7.86	-30.5	-32.6	11.7	5.22e-04	0	43	0	908066816	21	4601
2026-01-16 12:40:26.89	321.37	7.71	-30.5	-32.8	11.5	9.60e-04	0	43	0	914358272	21	4676
2026-01-16 12:40:29.89	321.75	7.56	-30.5	-32.7	11.6	7.45e-04	0	43	0	919601152	21	4629
2026-01-16 12:40:32.89	322.13	7.41	-30.4	-32.4	11.8	9.88e-04	0	43	0	924844032	21	4519
2026-01-16 12:40:35.89	322.50	7.26	-30.6	-33.0	11.3	1.03e-03	0	43	0	931135488	21	4739
2026-01-16 12:40:38.89	322.87	7.11	-30.5	-32.8	11.4	1.16e-03	0	43	0	936378368	21	4695
2026-01-16 12:40:41.89	323.24	6.96	-33.6	-46.0	3.8	1.49e+00	0	43	104	939524096	27	14895

#Closed at: 2026-01-16 12:40:42
#Recorded file [939 MB]: D:/data/31010_260116_153219.dat