passes_logs/2026/01/16/R2M6_AANII_01/R2M6_AANII_01__20260116_111007_NOAA_20_JPSS-1_rec.log

#Pass ID: 20260116_111007_NOAA 20 (JPSS-1)
#Satellite: NOAA 20 (JPSS-1)
#Configuration: NOAA 20
#almurnet v.1.7.20240730
#Start time: 2026-01-16 11:10:36

#Version: 2.2.20231116
#Station: R2M6_AANII_01
#Location: 30.233357 lon 59.946436 lat
#TLE: 1 43013U 17073A   26015.47098083  .00000029  00000+0  34851-4 0  9997
#TLE: 2 43013  98.7636 316.4053 0001479  38.6686 321.4595 14.19536048422808

#Time	Az	El	Level	Level2	SNR	BER	BlckErr	Temp	State	Recorded	gain1	gain2
2026-01-16 11:10:36.55	188.62	9.22	-34.0	-53.6	3.8	7.42e-01	0	42	0	0	28	34200
2026-01-16 11:10:39.54	188.80	9.46	-34.3	-48.1	3.8	1.49e+00	0	43	104	0	29	17664
2026-01-16 11:10:42.53	188.98	9.70	-34.3	-48.1	3.8	1.49e+00	0	43	104	0	29	17636
2026-01-16 11:10:45.53	189.17	9.94	-34.2	-48.1	3.8	1.49e+00	0	43	104	0	29	17675
2026-01-16 11:10:48.52	189.36	10.19	-34.2	-48.0	3.8	1.49e+00	0	43	104	0	29	17658
2026-01-16 11:10:51.52	189.56	10.43	-34.2	-48.0	3.8	1.49e+00	0	43	104	0	29	17576
2026-01-16 11:10:54.49	189.75	10.68	-34.2	-48.0	3.8	1.49e+00	0	43	104	0	29	17558
2026-01-16 11:10:57.48	189.95	10.93	-34.2	-48.1	3.8	1.49e+00	0	43	104	0	29	17666
2026-01-16 11:11:00.47	190.16	11.19	-34.2	-47.9	3.8	1.49e+00	0	43	104	0	29	17446
2026-01-16 11:11:03.44	190.36	11.44	-33.9	-47.4	3.8	1.49e+00	0	43	104	0	29	17064
2026-01-16 11:11:06.45	190.57	11.70	-33.8	-47.2	3.8	1.49e+00	0	43	104	0	29	16831
2026-01-16 11:11:09.46	190.79	11.97	-33.5	-47.3	3.8	1.49e+00	0	43	104	0	28	17472
2026-01-16 11:11:12.47	191.01	12.23	-32.8	-42.2	4.0	1.46e+00	0	43	104	0	27	10516
2026-01-16 11:11:15.49	191.23	12.50	-32.8	-41.5	4.7	8.97e-01	0	43	0	3145728	27	9865
2026-01-16 11:11:18.48	191.45	12.77	-32.2	-38.5	7.1	2.14e-01	0	43	0	8388608	25	7462
2026-01-16 11:11:21.49	191.69	13.05	-31.0	-34.7	10.7	3.18e-03	0	43	0	14680064	23	5549
2026-01-16 11:11:24.50	191.92	13.32	-29.9	-32.4	13.1	8.31e-05	0	43	0	19922944	21	4800
2026-01-16 11:11:27.50	192.16	13.60	-29.7	-32.4	13.4	6.80e-06	0	43	0	25165824	20	4916
2026-01-16 11:11:30.51	192.40	13.88	-30.5	-34.3	11.8	2.84e-04	0	43	0	31457280	21	5576
2026-01-16 11:11:33.51	192.65	14.16	-30.7	-34.9	11.3	7.67e-04	0	43	0	36700160	21	5831
2026-01-16 11:11:36.51	192.90	14.45	-30.0	-32.7	12.9	8.62e-05	0	43	0	42991616	21	4904
2026-01-16 11:11:39.51	193.16	14.74	-29.8	-32.6	13.4	1.83e-05	0	43	0	48234496	20	4986
2026-01-16 11:11:42.51	193.42	15.03	-29.8	-32.5	13.6	1.06e-05	0	43	0	53477376	20	4919
2026-01-16 11:11:45.51	193.68	15.33	-29.8	-32.6	13.6	3.80e-06	0	43	0	59768832	20	4949
2026-01-16 11:11:48.51	193.95	15.63	-30.0	-32.9	13.3	2.51e-05	0	43	0	65011712	20	5075
2026-01-16 11:11:51.51	194.23	15.93	-29.5	-31.7	14.2	3.80e-06	0	43	0	70254592	20	4639
2026-01-16 11:11:54.52	194.51	16.23	-29.4	-31.4	14.4	0.00e+00	0	43	0	76546048	20	4534
2026-01-16 11:11:57.53	194.80	16.54	-29.5	-31.6	14.3	1.50e-06	0	43	0	81788928	20	4593
2026-01-16 11:12:00.54	195.09	16.86	-29.5	-31.6	14.3	2.20e-06	0	43	0	88080384	20	4607
2026-01-16 11:12:03.55	195.39	17.17	-29.6	-31.8	14.1	7.00e-07	0	43	0	93323264	20	4670
2026-01-16 11:12:06.56	195.70	17.49	-29.6	-31.9	14.1	7.00e-07	0	43	0	98566144	20	4705
2026-01-16 11:12:09.55	196.01	17.81	-29.8	-32.5	13.8	4.50e-06	0	43	0	104857600	20	4892
2026-01-16 11:12:12.55	196.33	18.13	-30.0	-32.8	13.5	9.10e-06	0	43	0	110100480	20	5021
2026-01-16 11:12:15.54	196.65	18.46	-30.0	-33.1	13.4	1.37e-05	0	43	0	115343360	20	5101
2026-01-16 11:12:18.56	196.99	18.80	-29.8	-32.4	13.9	7.00e-07	0	43	0	121634816	20	4844
2026-01-16 11:12:21.57	197.33	19.13	-29.9	-32.6	13.8	9.10e-06	0	43	0	126877696	20	4927
2026-01-16 11:12:24.57	197.67	19.47	-30.0	-32.9	13.6	1.06e-05	0	43	0	133169152	20	5042
2026-01-16 11:12:27.57	198.02	19.81	-30.1	-33.1	13.5	6.10e-06	0	43	0	138412032	20	5106
2026-01-16 11:12:30.57	198.39	20.16	-30.4	-34.1	12.9	6.10e-05	0	43	0	143654912	20	5475
2026-01-16 11:12:33.58	198.76	20.51	-30.2	-32.9	13.3	2.36e-05	0	43	0	149946368	21	4914
2026-01-16 11:12:36.59	199.13	20.87	-29.9	-32.1	13.9	4.50e-06	0	43	0	155189248	21	4662
2026-01-16 11:12:39.59	199.52	21.22	-29.9	-32.2	13.8	1.50e-06	0	43	0	160432128	21	4661
2026-01-16 11:12:42.60	199.92	21.59	-29.8	-32.3	14.1	3.00e-06	0	43	0	166723584	20	4803
2026-01-16 11:12:45.61	200.32	21.95	-29.8	-32.3	14.1	3.00e-06	0	43	0	171966464	20	4828
2026-01-16 11:12:48.61	200.73	22.32	-29.8	-32.4	14.0	7.00e-07	0	43	0	178257920	20	4859
2026-01-16 11:12:51.62	201.16	22.70	-29.9	-32.6	13.9	2.20e-06	0	43	0	183500800	20	4928
2026-01-16 11:12:54.63	201.59	23.08	-29.9	-32.7	13.8	4.50e-06	0	43	0	188743680	20	4969
2026-01-16 11:12:57.63	202.04	23.46	-29.8	-32.5	14.0	1.50e-06	0	43	0	195035136	20	4867
2026-01-16 11:13:00.63	202.49	23.84	-29.9	-32.7	13.9	3.00e-06	0	43	0	200278016	20	4937
2026-01-16 11:13:03.63	202.95	24.23	-29.7	-32.0	14.4	7.00e-07	0	43	0	205520896	20	4695
2026-01-16 11:13:06.63	203.43	24.62	-29.8	-32.3	14.2	7.00e-07	0	43	0	211812352	20	4805
2026-01-16 11:13:09.65	203.92	25.02	-29.7	-32.1	14.3	7.00e-07	0	43	0	217055232	20	4753
2026-01-16 11:13:12.65	204.42	25.42	-29.8	-32.3	14.2	1.50e-06	0	43	0	222298112	20	4796
2026-01-16 11:13:15.65	204.93	25.83	-29.8	-32.2	14.2	7.00e-07	0	43	0	228589568	20	4775
2026-01-16 11:13:18.66	205.46	26.24	-30.0	-32.8	13.9	3.00e-06	0	43	0	233832448	20	4960
2026-01-16 11:13:21.68	206.00	26.65	-30.2	-33.4	13.5	6.10e-06	0	43	0	240123904	20	5199
2026-01-16 11:13:24.68	206.56	27.07	-30.4	-33.9	13.2	2.28e-05	0	43	0	245366784	20	5410
2026-01-16 11:13:27.70	207.13	27.49	-30.5	-33.6	13.0	4.04e-05	0	43	0	250609664	21	5183
2026-01-16 11:13:30.69	207.71	27.91	-30.6	-34.1	12.7	4.42e-05	0	43	0	256901120	21	5385
2026-01-16 11:13:33.70	208.31	28.33	-30.8	-34.5	12.5	1.34e-04	0	43	0	262144000	21	5528
2026-01-16 11:13:36.71	208.92	28.76	-31.1	-34.8	11.9	3.29e-04	0	43	0	268435456	22	5550
2026-01-16 11:13:39.71	209.55	29.20	-31.3	-35.7	11.4	7.84e-04	0	43	0	273678336	22	5922
2026-01-16 11:13:42.72	210.20	29.63	-31.4	-35.7	11.3	9.41e-04	0	43	0	278921216	22	5951
2026-01-16 11:13:45.73	210.87	30.07	-31.1	-34.8	12.0	3.48e-04	0	43	0	285212672	22	5531
2026-01-16 11:13:48.74	211.55	30.51	-30.9	-34.4	12.4	1.79e-04	0	43	0	290455552	22	5343
2026-01-16 11:13:51.75	212.25	30.96	-30.9	-34.2	12.4	1.27e-04	0	43	0	295698432	22	5268
2026-01-16 11:13:54.75	212.97	31.40	-30.9	-34.1	12.5	1.21e-04	0	43	0	301989888	22	5245
2026-01-16 11:13:57.76	213.71	31.85	-30.8	-34.0	12.7	1.08e-04	0	43	0	307232768	22	5180
2026-01-16 11:14:00.76	214.47	32.30	-30.7	-33.8	12.8	5.56e-05	0	43	0	313524224	22	5103
2026-01-16 11:14:03.77	215.25	32.75	-30.8	-33.9	12.7	9.68e-05	0	43	0	318767104	22	5165
2026-01-16 11:14:06.77	216.05	33.20	-31.0	-34.4	12.3	1.18e-04	0	43	0	324009984	22	5368
2026-01-16 11:14:09.76	216.87	33.64	-30.7	-33.6	12.9	4.11e-05	0	43	0	330301440	22	5036
2026-01-16 11:14:12.76	217.72	34.09	-30.8	-33.8	12.8	4.73e-05	0	43	0	335544320	22	5120
2026-01-16 11:14:15.77	218.59	34.54	-30.9	-34.3	12.4	1.59e-04	0	43	0	340787200	22	5302
2026-01-16 11:14:18.77	219.48	34.99	-30.8	-33.9	12.7	9.91e-05	0	43	0	347078656	22	5157
2026-01-16 11:14:21.77	220.40	35.44	-30.4	-32.8	13.5	4.65e-05	0	43	0	352321536	22	4746
2026-01-16 11:14:24.78	221.35	35.89	-29.9	-32.0	14.3	1.50e-06	0	43	0	357564416	21	4564
2026-01-16 11:14:27.80	222.32	36.33	-30.2	-32.6	13.8	4.50e-06	0	43	0	363855872	21	4797
2026-01-16 11:14:30.82	223.32	36.77	-30.1	-32.5	14.0	6.10e-06	0	43	0	369098752	21	4752
2026-01-16 11:14:33.83	224.35	37.21	-30.0	-32.3	14.1	1.50e-06	0	43	0	375390208	21	4687
2026-01-16 11:14:36.82	225.39	37.64	-30.6	-33.9	13.1	1.83e-05	0	43	0	380633088	21	5245
2026-01-16 11:14:39.83	226.47	38.07	-30.9	-34.8	12.4	1.17e-04	0	43	0	385875968	21	5609
2026-01-16 11:14:42.83	227.57	38.48	-30.9	-34.8	12.5	8.85e-05	0	43	0	392167424	21	5607
2026-01-16 11:14:45.84	228.71	38.90	-31.2	-35.0	12.0	2.53e-04	0	43	0	397410304	22	5601
2026-01-16 11:14:48.84	229.87	39.30	-31.5	-35.4	11.4	1.03e-03	0	43	0	402653184	23	5661
2026-01-16 11:14:51.85	231.06	39.70	-31.2	-34.5	12.1	2.61e-04	0	43	0	408944640	23	5271
2026-01-16 11:14:54.84	232.27	40.08	-31.0	-33.9	12.5	9.30e-05	0	43	0	414187520	23	5020
2026-01-16 11:14:57.84	233.52	40.46	-31.1	-34.3	12.3	1.75e-04	0	43	0	420478976	23	5183
2026-01-16 11:15:00.85	234.79	40.83	-30.6	-33.1	13.4	1.60e-05	0	43	0	425721856	22	4839
2026-01-16 11:15:03.85	236.09	41.18	-31.4	-35.6	11.7	2.19e-04	0	43	0	430964736	22	5809
2026-01-16 11:15:06.85	237.42	41.52	-31.4	-35.1	11.7	7.01e-04	0	43	0	437256192	23	5512
2026-01-16 11:15:09.84	238.78	41.84	-31.4	-35.0	11.8	3.65e-04	0	43	0	442499072	23	5458
2026-01-16 11:15:12.84	240.16	42.15	-32.1	-36.9	10.0	7.74e-03	0	43	0	447741952	24	6280
2026-01-16 11:15:15.84	241.57	42.44	-31.7	-35.5	11.1	1.78e-03	0	43	0	454033408	24	5585
2026-01-16 11:15:18.85	243.00	42.72	-31.6	-35.1	11.4	7.20e-04	0	43	0	459276288	24	5407
2026-01-16 11:15:21.86	244.47	42.98	-31.5	-35.0	11.4	1.71e-03	0	43	0	465567744	24	5343
2026-01-16 11:15:24.86	245.95	43.22	-31.2	-34.5	12.2	1.40e-04	0	43	0	470810624	23	5236
2026-01-16 11:15:27.86	247.45	43.44	-31.2	-34.5	12.2	7.35e-04	0	43	0	476053504	23	5254
2026-01-16 11:15:30.87	248.97	43.64	-30.4	-32.6	13.8	1.60e-05	0	43	0	482344960	22	4661
2026-01-16 11:15:33.87	250.51	43.81	-31.2	-34.9	12.2	6.10e-05	0	43	0	487587840	22	5514
2026-01-16 11:15:36.87	252.06	43.97	-31.3	-35.2	12.1	2.39e-04	0	43	0	492830720	22	5627
2026-01-16 11:15:39.87	253.63	44.10	-31.3	-35.2	12.0	2.62e-04	0	43	0	499122176	22	5650
2026-01-16 11:15:42.88	255.21	44.21	-31.6	-35.6	11.4	8.24e-04	0	43	0	504365056	23	5735
2026-01-16 11:15:45.89	256.80	44.30	-31.0	-33.9	12.6	1.33e-04	0	43	0	510656512	23	4990
2026-01-16 11:15:48.89	258.40	44.36	-30.8	-33.2	13.0	4.19e-05	0	43	0	515899392	23	4758
2026-01-16 11:15:51.90	260.01	44.40	-30.7	-33.4	13.3	2.82e-05	0	43	0	521142272	22	4935
2026-01-16 11:15:54.91	261.61	44.41	-30.6	-33.3	13.4	1.14e-05	0	43	0	527433728	22	4883
2026-01-16 11:15:57.92	263.22	44.40	-30.5	-32.8	13.7	1.44e-05	0	43	0	532676608	22	4734
2026-01-16 11:16:00.92	264.82	44.36	-30.1	-32.4	14.3	1.50e-06	0	43	0	537919488	21	4682
2026-01-16 11:16:03.93	266.42	44.30	-30.5	-33.6	13.5	1.06e-05	0	43	0	544210944	21	5095
2026-01-16 11:16:06.94	268.01	44.22	-29.8	-32.2	14.7	0.00e+00	0	43	0	549453824	20	4723
2026-01-16 11:16:09.95	269.60	44.11	-30.8	-34.3	13.1	2.36e-05	0	43	0	555745280	21	5370
2026-01-16 11:16:12.96	271.17	43.98	-30.7	-33.9	13.3	1.75e-05	0	43	0	560988160	21	5201
2026-01-16 11:16:15.96	272.72	43.83	-30.3	-32.8	14.0	2.20e-06	0	43	0	566231040	21	4826
2026-01-16 11:16:18.96	274.26	43.66	-30.6	-33.7	13.5	1.50e-06	0	43	0	572522496	21	5137
2026-01-16 11:16:21.96	275.78	43.46	-31.2	-34.9	12.3	1.17e-04	0	43	0	577765376	22	5509
2026-01-16 11:16:24.96	277.28	43.24	-31.0	-34.4	12.7	5.87e-05	0	43	0	583008256	22	5322
2026-01-16 11:16:27.97	278.76	43.01	-31.3	-34.6	12.2	4.99e-04	0	43	0	589299712	23	5276
2026-01-16 11:16:30.97	280.22	42.75	-31.4	-35.0	11.9	2.53e-04	0	43	0	594542592	23	5437
2026-01-16 11:16:33.97	281.65	42.48	-30.9	-33.4	13.0	6.48e-05	0	43	0	600834048	23	4814
2026-01-16 11:16:36.98	283.06	42.18	-30.9	-34.1	12.9	4.34e-05	0	43	0	606076928	22	5166
2026-01-16 11:16:39.96	284.44	41.88	-30.5	-32.7	13.7	5.30e-06	0	43	0	611319808	22	4685
2026-01-16 11:16:42.97	285.80	41.56	-30.4	-33.1	13.8	1.50e-06	0	43	0	617611264	21	4926
2026-01-16 11:16:45.98	287.13	41.22	-29.4	-31.0	15.5	0.00e+00	0	43	0	622854144	20	4352
2026-01-16 11:16:48.97	288.43	40.87	-30.6	-33.8	13.4	1.50e-06	0	43	0	628097024	21	5194
2026-01-16 11:16:51.97	289.70	40.51	-29.6	-31.5	15.1	0.00e+00	0	43	0	634388480	20	4486
2026-01-16 11:16:54.97	290.94	40.14	-30.1	-33.0	14.2	7.00e-07	0	43	0	639631360	20	4982
2026-01-16 11:16:57.98	292.16	39.75	-29.8	-32.1	14.8	0.00e+00	0	43	0	644874240	20	4678
2026-01-16 11:17:00.99	293.36	39.36	-30.9	-34.4	13.0	2.74e-05	0	43	0	651165696	21	5419
2026-01-16 11:17:04.00	294.52	38.96	-29.8	-31.7	14.7	0.00e+00	0	43	0	656408576	21	4457
2026-01-16 11:17:07.01	295.65	38.54	-30.5	-33.8	13.6	1.50e-06	0	43	0	662700032	20	5308
2026-01-16 11:17:10.01	296.76	38.13	-29.6	-31.7	15.0	0.00e+00	0	43	0	667942912	20	4558
2026-01-16 11:17:13.01	297.83	37.71	-29.9	-32.5	14.5	7.00e-07	0	43	0	673185792	20	4815
2026-01-16 11:17:16.02	298.88	37.28	-29.7	-31.8	14.9	0.00e+00	0	43	0	679477248	20	4608
2026-01-16 11:17:19.04	299.91	36.84	-30.3	-33.5	13.9	5.30e-06	0	43	0	684720128	20	5176
2026-01-16 11:17:22.04	300.90	36.41	-29.8	-32.2	14.7	0.00e+00	0	43	0	689963008	20	4726
2026-01-16 11:17:25.05	301.87	35.97	-29.6	-31.6	15.1	0.00e+00	0	43	0	696254464	20	4538
2026-01-16 11:17:28.06	302.82	35.52	-29.6	-31.6	15.0	0.00e+00	0	43	0	701497344	20	4525
2026-01-16 11:17:31.06	303.74	35.08	-30.6	-33.8	13.3	2.28e-05	0	43	0	707788800	21	5202
2026-01-16 11:17:34.06	304.63	34.63	-30.2	-32.5	14.1	0.00e+00	0	43	0	713031680	21	4727
2026-01-16 11:17:37.07	305.50	34.18	-31.7	-36.1	11.0	4.56e-04	0	43	0	718274560	23	5956
2026-01-16 11:17:40.06	306.34	33.74	-30.7	-33.4	13.2	1.08e-04	0	43	0	724566016	22	4921
2026-01-16 11:17:43.05	307.16	33.29	-30.8	-33.7	13.0	1.83e-05	0	43	0	729808896	22	5053
2026-01-16 11:17:46.05	307.97	32.85	-31.6	-35.8	11.2	1.55e-03	0	43	0	735051776	23	5804
2026-01-16 11:17:49.05	308.75	32.40	-30.9	-33.6	12.8	5.41e-05	0	42	0	741343232	23	4904
2026-01-16 11:17:52.06	309.51	31.95	-32.3	-37.8	9.4	1.10e-02	0	43	0	746586112	24	6739
2026-01-16 11:17:55.07	310.25	31.51	-32.1	-36.5	9.9	3.15e-02	0	43	0	752877568	25	5975
2026-01-16 11:17:58.06	310.97	31.07	-30.9	-33.6	12.7	5.64e-05	0	43	0	758120448	23	4922
2026-01-16 11:18:01.07	311.67	30.63	-32.3	-37.7	9.3	6.57e-03	0	43	0	763363328	24	6691
2026-01-16 11:18:04.07	312.35	30.19	-31.7	-35.5	11.0	9.16e-03	0	43	0	769654784	24	5589
2026-01-16 11:18:07.08	313.02	29.75	-29.6	-31.6	14.9	0.00e+00	0	43	0	774897664	20	4546
2026-01-16 11:18:10.09	313.67	29.32	-30.7	-34.2	13.0	1.06e-05	0	43	0	780140544	21	5349
2026-01-16 11:18:13.09	314.30	28.89	-30.4	-32.8	13.4	4.04e-05	0	43	0	786432000	22	4752
2026-01-16 11:18:16.10	314.91	28.46	-29.4	-31.1	15.2	0.00e+00	0	43	0	791674880	20	4394
2026-01-16 11:18:19.11	315.51	28.04	-30.3	-33.6	13.6	0.00e+00	0	43	0	797966336	20	5231
2026-01-16 11:18:22.11	316.10	27.62	-31.1	-34.8	12.2	3.13e-04	0	43	0	803209216	22	5489
2026-01-16 11:18:25.11	316.66	27.20	-30.0	-32.1	14.3	2.20e-06	0	43	0	808452096	21	4596
2026-01-16 11:18:28.11	317.22	26.79	-29.9	-32.5	14.3	7.00e-07	0	43	0	814743552	20	4852
2026-01-16 11:18:31.12	317.76	26.38	-30.7	-34.3	12.8	2.59e-05	0	43	0	819986432	21	5400
2026-01-16 11:18:34.11	318.28	25.98	-30.4	-33.4	13.4	4.11e-05	0	43	0	825229312	21	5053
2026-01-16 11:18:37.11	318.80	25.57	-29.5	-31.4	14.9	0.00e+00	0	43	0	831520768	20	4480
2026-01-16 11:18:40.12	319.30	25.17	-30.0	-32.6	14.2	7.00e-07	0	43	0	836763648	20	4889
2026-01-16 11:18:43.13	319.79	24.78	-30.0	-32.7	14.1	0.00e+00	0	43	0	842006528	20	4935
2026-01-16 11:18:46.14	320.27	24.39	-30.2	-33.3	13.7	3.00e-06	0	43	0	848297984	20	5155
2026-01-16 11:18:49.14	320.74	24.00	-30.2	-33.2	13.8	9.10e-06	0	43	0	853540864	20	5103
2026-01-16 11:18:52.15	321.19	23.62	-29.6	-31.7	14.7	0.00e+00	0	43	0	859832320	20	4594
2026-01-16 11:18:55.15	321.64	23.24	-29.5	-31.5	14.9	0.00e+00	0	43	0	865075200	20	4519
2026-01-16 11:18:58.16	322.07	22.86	-29.7	-32.0	14.5	1.50e-06	0	43	0	870318080	20	4676
2026-01-16 11:19:01.17	322.50	22.49	-29.9	-32.4	14.2	0.00e+00	0	43	0	876609536	20	4826
2026-01-16 11:19:04.17	322.91	22.12	-30.0	-32.8	14.0	1.50e-06	0	43	0	881852416	20	4960
2026-01-16 11:19:07.17	323.32	21.76	-30.0	-32.8	14.0	7.00e-07	0	43	0	887095296	20	4965
2026-01-16 11:19:10.19	323.72	21.39	-30.1	-33.0	13.9	3.00e-06	0	43	0	893386752	20	5027
2026-01-16 11:19:13.19	324.10	21.04	-30.2	-33.5	13.5	4.50e-06	0	43	0	898629632	20	5206
2026-01-16 11:19:16.20	324.48	20.69	-30.4	-34.0	13.2	2.82e-05	0	43	0	904921088	20	5415
2026-01-16 11:19:19.20	324.86	20.34	-30.6	-34.0	12.8	3.96e-05	0	43	0	910163968	21	5314
2026-01-16 11:19:22.21	325.22	19.99	-30.5	-33.6	13.1	2.51e-05	0	43	0	915406848	21	5135
2026-01-16 11:19:25.21	325.57	19.65	-30.3	-33.1	13.4	1.90e-05	0	43	0	921698304	21	4966
2026-01-16 11:19:28.22	325.92	19.31	-30.2	-32.7	13.7	3.00e-06	0	43	0	926941184	21	4815
2026-01-16 11:19:31.24	326.27	18.98	-30.1	-32.4	13.8	6.10e-06	0	43	0	932184064	21	4739
2026-01-16 11:19:34.23	326.60	18.65	-30.1	-32.5	13.8	3.80e-06	0	43	0	938475520	21	4760
2026-01-16 11:19:37.24	326.92	18.32	-30.3	-33.1	13.4	1.37e-05	0	43	0	943718400	21	4963
2026-01-16 11:19:40.23	327.24	18.00	-30.4	-33.5	13.0	2.28e-05	0	43	0	950009856	21	5131
2026-01-16 11:19:43.23	327.56	17.68	-30.2	-32.8	13.5	9.90e-06	0	43	0	955252736	21	4883
2026-01-16 11:19:46.24	327.86	17.36	-30.2	-32.8	13.5	1.14e-05	0	43	0	960495616	21	4857
2026-01-16 11:19:49.26	328.17	17.04	-30.3	-33.0	13.4	1.06e-05	0	43	0	966787072	21	4953
2026-01-16 11:19:52.25	328.46	16.74	-30.4	-33.6	12.9	5.03e-05	0	43	0	972029952	21	5176
2026-01-16 11:19:55.25	328.75	16.43	-30.8	-34.7	12.2	1.41e-04	0	43	0	977272832	21	5631
2026-01-16 11:19:58.25	329.03	16.13	-30.9	-34.9	12.0	2.46e-04	0	43	0	983564288	21	5710
2026-01-16 11:20:01.27	329.31	15.82	-30.9	-35.0	12.0	3.88e-04	0	43	0	988807168	21	5746
2026-01-16 11:20:04.28	329.59	15.53	-31.2	-35.3	11.3	7.99e-04	0	43	0	995098624	22	5800
2026-01-16 11:20:07.28	329.86	15.23	-30.8	-34.3	12.0	4.08e-04	0	43	0	1000341504	22	5372
2026-01-16 11:20:10.29	330.12	14.94	-30.8	-34.1	12.2	1.87e-04	0	43	0	1005584384	22	5269
2026-01-16 11:20:13.29	330.38	14.65	-30.5	-33.4	12.6	1.08e-04	0	43	0	1011875840	22	5011
2026-01-16 11:20:16.29	330.63	14.37	-30.4	-33.1	12.8	6.17e-05	0	43	0	1017118720	22	4909
2026-01-16 11:20:19.29	330.88	14.08	-30.5	-33.2	12.7	5.26e-05	0	43	0	1022361600	22	4938
2026-01-16 11:20:22.30	331.13	13.80	-30.4	-33.1	12.8	7.09e-05	0	43	0	1028653056	22	4903
2026-01-16 11:20:25.31	331.37	13.52	-30.6	-33.7	12.4	1.45e-04	0	43	0	1033895936	22	5118
2026-01-16 11:20:28.31	331.60	13.25	-30.7	-33.8	12.2	1.77e-04	0	43	0	1040187392	22	5187
2026-01-16 11:20:31.30	331.83	12.98	-30.8	-34.3	11.9	3.29e-04	0	43	0	1045430272	22	5370
2026-01-16 11:20:34.31	332.06	12.71	-30.7	-34.0	12.1	3.18e-04	0	43	0	1050673152	22	5267
2026-01-16 11:20:37.31	332.29	12.44	-30.8	-34.3	11.9	3.94e-04	0	43	0	1056964608	22	5376
2026-01-16 11:20:40.32	332.51	12.18	-30.9	-34.6	11.5	7.79e-04	0	43	0	1062207488	22	5526
2026-01-16 11:20:43.32	332.73	11.92	-30.9	-34.7	11.4	8.09e-04	0	43	0	1067450368	22	5561
2026-01-16 11:20:46.31	332.94	11.66	-31.0	-35.0	11.4	8.44e-04	0	43	0	1073741824	22	5677
2026-01-16 11:20:49.32	333.15	11.40	-31.1	-35.2	11.1	1.47e-03	0	43	0	1078984704	22	5800
2026-01-16 11:20:52.33	333.36	11.15	-31.2	-35.8	10.6	2.06e-03	0	43	0	1084227584	22	6065
2026-01-16 11:20:55.33	333.56	10.90	-31.1	-35.5	10.6	2.78e-03	0	43	0	1090519040	22	5927
2026-01-16 11:20:58.33	333.76	10.65	-31.1	-35.3	10.8	3.04e-03	0	43	0	1095761920	22	5858
2026-01-16 11:21:01.34	333.96	10.40	-31.0	-35.0	10.8	3.29e-03	0	43	0	1102053376	22	5713
2026-01-16 11:21:04.34	334.15	10.15	-30.9	-34.8	11.2	1.93e-03	0	43	0	1107296256	22	5631
2026-01-16 11:21:07.35	334.34	9.91	-31.0	-34.9	11.2	1.29e-03	0	43	0	1112539136	22	5693
2026-01-16 11:21:10.35	334.53	9.67	-30.7	-34.4	10.5	2.57e-03	0	43	0	1118830592	22	5474
2026-01-16 11:21:13.34	334.71	9.43	-30.9	-34.8	10.0	8.16e-03	0	43	0	1124073472	22	5672
2026-01-16 11:21:16.33	334.90	9.20	-31.0	-35.1	10.4	6.58e-03	0	43	0	1129316352	22	5792
2026-01-16 11:21:19.34	335.08	8.96	-30.8	-34.6	11.0	1.64e-03	0	43	0	1135607808	22	5563
2026-01-16 11:21:22.33	335.25	8.73	-30.9	-35.0	11.0	1.97e-03	0	43	0	1140850688	22	5732
2026-01-16 11:21:25.33	335.43	8.50	-31.1	-35.5	10.6	2.77e-03	0	43	0	1146093568	22	5965
2026-01-16 11:21:28.36	335.60	8.27	-31.2	-36.0	9.9	8.93e-03	0	43	0	1152385024	22	6266
2026-01-16 11:21:31.37	335.77	8.04	-31.4	-36.6	9.5	1.37e-02	0	43	0	1157627904	22	6555
2026-01-16 11:21:34.37	335.94	7.81	-31.6	-36.8	9.1	1.79e-02	0	43	0	1163919360	23	6597
2026-01-16 11:21:37.37	336.10	7.59	-31.4	-36.2	9.6	1.52e-02	0	43	0	1169162240	23	6249
2026-01-16 11:21:40.37	336.26	7.37	-31.6	-36.9	9.0	2.14e-02	0	43	0	1174405120	23	6636
2026-01-16 11:21:43.37	336.42	7.15	-31.6	-37.0	8.9	2.87e-02	0	43	0	1180696576	23	6705
2026-01-16 11:21:46.37	336.58	6.93	-33.7	-48.0	3.8	1.49e+00	0	43	104	1182793728	27	18609

#Closed at: 2026-01-16 11:21:47
#Recorded file [1182 MB]: D:/data/31010_260116_141113.dat