passes_logs/2026/01/16/R2M6_AANII_01/R2M6_AANII_01__20260116_225727_SUOMI_NPP_rec.log

#Pass ID: 20260116_225727_SUOMI NPP
#Satellite: SUOMI NPP
#Configuration: NPP
#almurnet v.1.7.20240730
#Start time: 2026-01-16 22:57:26

#Version: 2.2.20231116
#Station: R2M6_AANII_01
#Location: 30.233357 lon 59.946436 lat
#TLE: 1 37849U 11061A   26016.23176763  .00000061  00000+0  49926-4 0  9990
#TLE: 2 37849  98.7812 318.2698 0002434  61.5135 298.6286 14.19525545736883

#Time	Az	El	Level	Level2	SNR	BER	BlckErr	Temp	State	Recorded	gain1	gain2
2026-01-16 22:57:26.87	28.46	6.97	-30.7	-34.2	5.3	1.18e+00	0	41	0	0	21	5380
2026-01-16 22:57:29.86	28.72	7.17	-31.7	-37.2	6.7	2.63e-01	0	41	0	1048576	23	6808
2026-01-16 22:57:32.87	28.98	7.36	-31.6	-36.8	7.1	2.03e-01	0	41	0	7340032	23	6492
2026-01-16 22:57:35.88	29.25	7.56	-31.1	-34.9	9.0	3.95e-02	0	41	0	12582912	22	5580
2026-01-16 22:57:38.89	29.52	7.76	-30.9	-34.6	9.6	1.52e-02	0	41	0	17825792	21	5504
2026-01-16 22:57:41.89	29.79	7.96	-30.6	-33.8	10.2	3.40e-03	0	42	0	24117248	21	5149
2026-01-16 22:57:44.89	30.06	8.16	-30.4	-33.0	10.7	5.06e-03	0	42	0	29360128	21	4847
2026-01-16 22:57:47.89	30.34	8.36	-30.3	-33.2	11.1	1.47e-03	0	42	0	35651584	20	4997
2026-01-16 22:57:50.89	30.63	8.57	-30.3	-33.1	11.2	1.66e-03	0	42	0	40894464	20	4938
2026-01-16 22:57:53.89	30.91	8.77	-30.2	-32.8	11.3	1.57e-03	0	42	0	46137344	20	4854
2026-01-16 22:57:56.91	31.21	8.98	-30.5	-33.1	10.8	2.40e-03	0	42	0	52428800	21	4876
2026-01-16 22:57:59.91	31.50	9.18	-30.4	-33.3	11.1	2.54e-03	0	42	0	57671680	20	5007
2026-01-16 22:58:02.91	31.80	9.39	-30.5	-33.1	10.8	3.67e-03	0	42	0	62914560	21	4848
2026-01-16 22:58:05.90	32.10	9.60	-30.1	-32.3	11.6	9.51e-04	0	42	0	69206016	20	4619
2026-01-16 22:58:08.90	32.41	9.81	-30.1	-32.1	11.6	4.23e-04	0	42	0	74448896	20	4566
2026-01-16 22:58:11.91	32.72	10.02	-30.0	-32.4	12.2	2.36e-04	0	42	0	79691776	19	4747
2026-01-16 22:58:14.93	33.04	10.23	-29.9	-32.2	12.4	7.57e-04	0	42	0	85983232	19	4676
2026-01-16 22:58:17.92	33.35	10.44	-29.9	-31.6	12.3	7.17e-04	0	42	0	91226112	20	4406
2026-01-16 22:58:20.93	33.68	10.66	-29.9	-32.2	12.4	1.88e-04	0	42	0	97517568	19	4658
2026-01-16 22:58:23.93	34.01	10.87	-30.0	-32.3	12.3	3.44e-04	0	42	0	102760448	19	4711
2026-01-16 22:58:26.94	34.34	11.09	-29.8	-31.8	12.7	7.17e-05	0	42	0	108003328	19	4525
2026-01-16 22:58:29.94	34.68	11.31	-29.8	-31.9	12.6	7.17e-05	0	42	0	114294784	19	4567
2026-01-16 22:58:32.93	35.02	11.52	-29.8	-31.7	12.8	4.45e-04	0	42	0	119537664	19	4512
2026-01-16 22:58:35.94	35.37	11.74	-29.9	-32.2	12.5	4.16e-04	0	42	0	124780544	19	4655
2026-01-16 22:58:38.93	35.72	11.96	-30.1	-32.3	12.0	4.68e-04	0	42	0	131072000	20	4614
2026-01-16 22:58:41.94	36.08	12.18	-30.1	-31.7	12.2	5.27e-04	0	42	0	136314880	21	4320
2026-01-16 22:58:44.95	36.45	12.41	-30.2	-32.6	11.8	4.15e-04	0	43	0	142606336	20	4707
2026-01-16 22:58:47.96	36.82	12.63	-30.2	-32.4	12.0	5.81e-04	0	43	0	147849216	20	4653
2026-01-16 22:58:50.96	37.19	12.86	-30.2	-32.4	12.1	4.50e-04	0	43	0	153092096	20	4631
2026-01-16 22:58:53.97	37.57	13.08	-30.0	-31.7	12.5	2.66e-04	0	43	0	159383552	20	4410
2026-01-16 22:58:56.98	37.96	13.31	-29.6	-30.7	13.2	3.05e-05	0	43	0	164626432	20	4092
2026-01-16 22:58:59.99	38.35	13.54	-29.5	-30.4	13.5	8.30e-06	0	43	0	169869312	20	3976
2026-01-16 22:59:02.99	38.75	13.76	-29.5	-30.9	13.6	9.90e-06	0	43	0	176160768	19	4206
2026-01-16 22:59:06.00	39.15	13.99	-29.9	-31.9	13.0	2.51e-05	0	43	0	181403648	19	4529
2026-01-16 22:59:09.01	39.56	14.23	-29.6	-31.1	13.4	3.62e-04	0	43	0	187695104	19	4286
2026-01-16 22:59:12.01	39.98	14.46	-29.4	-30.5	13.9	1.60e-05	0	43	0	192937984	19	4097
2026-01-16 22:59:15.03	40.40	14.69	-29.5	-30.7	13.8	7.60e-06	0	43	0	198180864	19	4143
2026-01-16 22:59:18.03	40.83	14.92	-29.6	-31.0	13.6	7.60e-06	0	43	0	204472320	19	4241
2026-01-16 22:59:21.04	41.26	15.16	-29.9	-31.9	13.1	3.05e-05	0	43	0	209715200	19	4523
2026-01-16 22:59:24.04	41.71	15.39	-30.0	-31.6	12.8	3.96e-05	0	43	0	214958080	20	4358
2026-01-16 22:59:27.05	42.15	15.62	-30.1	-32.0	12.6	7.55e-05	0	43	0	221249536	20	4470
2026-01-16 22:59:30.05	42.61	15.86	-29.8	-31.5	13.4	1.44e-05	0	43	0	226492416	19	4377
2026-01-16 22:59:33.04	43.07	16.10	-29.3	-30.2	14.1	3.80e-06	0	43	0	232783872	19	4008
2026-01-16 22:59:36.04	43.54	16.33	-29.0	-30.1	14.5	7.00e-07	0	43	0	238026752	18	4046
2026-01-16 22:59:39.05	44.02	16.57	-29.1	-30.2	14.5	0.00e+00	0	43	0	243269632	18	4077
2026-01-16 22:59:42.05	44.50	16.81	-28.8	-29.4	15.0	0.00e+00	0	43	0	249561088	18	3860
2026-01-16 22:59:45.06	44.99	17.05	-28.7	-29.3	15.1	0.00e+00	0	43	0	254803968	18	3828
2026-01-16 22:59:48.06	45.49	17.28	-29.0	-30.0	14.6	7.00e-07	0	43	0	260046848	18	4043
2026-01-16 22:59:51.06	46.00	17.52	-29.3	-30.7	14.2	3.80e-06	0	43	0	266338304	18	4240
2026-01-16 22:59:54.07	46.51	17.76	-29.5	-30.6	14.0	0.00e+00	0	43	0	271581184	19	4096
2026-01-16 22:59:57.07	47.03	18.00	-29.5	-30.8	13.9	7.00e-07	0	43	0	277872640	19	4160
2026-01-16 23:00:00.07	47.56	18.24	-29.7	-31.1	13.7	3.00e-06	0	43	0	283115520	19	4268
2026-01-16 23:00:03.07	48.10	18.48	-29.4	-30.6	14.1	2.20e-06	0	43	0	288358400	19	4087
2026-01-16 23:00:06.07	48.65	18.72	-29.1	-29.5	14.7	0.00e+00	0	43	0	294649856	19	3807
2026-01-16 23:00:09.07	49.20	18.95	-29.0	-30.0	14.8	0.00e+00	0	43	0	299892736	18	4013
2026-01-16 23:00:12.07	49.77	19.19	-28.8	-29.4	15.1	0.00e+00	0	43	0	305135616	18	3852
2026-01-16 23:00:15.08	50.34	19.43	-28.6	-29.5	15.4	0.00e+00	0	43	0	311427072	17	3957
2026-01-16 23:00:18.09	50.92	19.67	-28.5	-29.2	15.5	0.00e+00	0	43	0	316669952	17	3899
2026-01-16 23:00:21.09	51.51	19.90	-28.5	-29.1	15.6	0.00e+00	0	43	0	322961408	17	3859
2026-01-16 23:00:24.10	52.11	20.14	-28.6	-29.3	15.4	0.00e+00	0	43	0	328204288	17	3930
2026-01-16 23:00:27.11	52.72	20.38	-27.9	-28.3	16.4	0.00e+00	0	43	0	333447168	16	3760
2026-01-16 23:00:30.10	53.34	20.61	-28.2	-28.8	16.1	0.00e+00	0	43	0	339738624	16	3888
2026-01-16 23:00:33.11	53.96	20.84	-28.5	-29.1	15.6	0.00e+00	0	43	0	344981504	17	3870
2026-01-16 23:00:36.11	54.60	21.07	-28.4	-28.9	15.7	0.00e+00	0	43	0	350224384	17	3806
2026-01-16 23:00:39.10	55.24	21.30	-28.2	-28.5	16.0	0.00e+00	0	43	0	356515840	17	3705
2026-01-16 23:00:42.10	55.90	21.53	-27.9	-27.7	16.4	0.00e+00	0	43	0	361758720	17	3519
2026-01-16 23:00:45.10	56.56	21.76	-28.4	-28.9	15.8	0.00e+00	0	43	0	367001600	17	3814
2026-01-16 23:00:48.11	57.23	21.98	-28.9	-30.1	15.1	0.00e+00	0	43	0	373293056	17	4127
2026-01-16 23:00:51.11	57.92	22.20	-28.5	-29.2	15.7	0.00e+00	0	43	0	378535936	17	3869
2026-01-16 23:00:54.11	58.61	22.42	-28.9	-30.0	15.2	7.00e-07	0	43	0	384827392	17	4100
2026-01-16 23:00:57.10	59.31	22.64	-29.1	-30.0	14.9	0.00e+00	0	43	0	390070272	18	3993
2026-01-16 23:01:00.12	60.03	22.86	-28.6	-29.3	15.6	0.00e+00	0	43	0	395313152	17	3897
2026-01-16 23:01:03.13	60.75	23.07	-29.3	-30.5	14.6	0.00e+00	0	43	0	401604608	18	4162
2026-01-16 23:01:06.13	61.48	23.28	-28.9	-29.6	15.2	0.00e+00	0	43	0	406847488	18	3895
2026-01-16 23:01:09.12	62.22	23.49	-28.9	-30.0	15.2	0.00e+00	0	43	0	412090368	17	4087
2026-01-16 23:01:12.12	62.97	23.69	-29.8	-31.4	13.8	1.50e-06	0	43	0	418381824	19	4318
2026-01-16 23:01:15.12	63.73	23.89	-29.7	-31.1	13.9	4.50e-06	0	43	0	423624704	19	4235
2026-01-16 23:01:18.12	64.50	24.09	-30.1	-31.8	13.0	4.73e-05	0	43	0	429916160	20	4369
2026-01-16 23:01:21.12	65.28	24.28	-30.0	-31.4	13.3	2.13e-05	0	43	0	435159040	20	4248
2026-01-16 23:01:24.12	66.06	24.47	-30.0	-31.5	13.4	8.30e-06	0	43	0	440401920	20	4256
2026-01-16 23:01:27.12	66.86	24.65	-30.8	-33.4	11.6	4.49e-04	0	43	0	446693376	21	4832
2026-01-16 23:01:30.12	67.67	24.83	-31.1	-33.7	11.1	1.54e-03	0	43	0	451936256	22	4864
2026-01-16 23:01:33.12	68.48	25.01	-31.0	-33.4	11.3	9.77e-04	0	43	0	457179136	22	4719
2026-01-16 23:01:36.14	69.31	25.18	-30.9	-33.4	11.7	3.38e-04	0	43	0	463470592	21	4818
2026-01-16 23:01:39.13	70.14	25.34	-31.8	-35.5	9.5	1.62e-02	0	43	0	468713472	23	5525
2026-01-16 23:01:42.13	70.98	25.50	-31.3	-33.8	10.7	6.66e-03	0	43	0	473956352	23	4784
2026-01-16 23:01:45.14	71.84	25.66	-31.2	-33.9	11.0	1.64e-03	0	43	0	480247808	22	4918
2026-01-16 23:01:48.15	72.70	25.81	-30.8	-32.6	11.9	5.19e-04	0	43	0	485490688	22	4448
2026-01-16 23:01:51.15	73.56	25.95	-31.2	-33.7	11.2	1.21e-03	0	43	0	491782144	22	4854
2026-01-16 23:01:54.15	74.44	26.08	-31.0	-33.2	11.5	1.93e-03	0	43	0	497025024	22	4670
2026-01-16 23:01:57.13	75.31	26.21	-31.2	-33.9	11.1	5.51e-04	0	43	0	502267904	22	4895
2026-01-16 23:02:00.14	76.20	26.34	-31.4	-34.0	10.6	6.59e-03	0	43	0	508559360	23	4854
2026-01-16 23:02:03.14	77.10	26.45	-30.6	-32.2	12.3	1.63e-04	0	43	0	513802240	22	4304
2026-01-16 23:02:06.15	78.00	26.56	-30.2	-31.4	13.1	6.48e-05	0	43	0	519045120	21	4147
2026-01-16 23:02:09.16	78.91	26.67	-30.8	-33.2	11.8	3.40e-04	0	43	0	525336576	21	4753
2026-01-16 23:02:12.17	79.82	26.76	-31.1	-33.7	11.2	1.77e-03	0	43	0	530579456	22	4842
2026-01-16 23:02:15.18	80.74	26.85	-31.2	-33.9	11.0	2.23e-03	0	43	0	536870912	22	4925
2026-01-16 23:02:18.18	81.67	26.93	-31.0	-33.3	11.3	7.97e-04	0	43	0	542113792	22	4703
2026-01-16 23:02:21.18	82.59	27.00	-31.3	-34.3	10.7	2.30e-03	0	43	0	547356672	22	5103
2026-01-16 23:02:24.19	83.53	27.07	-31.1	-33.5	11.3	1.88e-03	0	43	0	553648128	22	4776
2026-01-16 23:02:27.19	84.46	27.12	-30.6	-32.1	12.3	1.79e-04	0	43	0	558891008	22	4285
2026-01-16 23:02:30.17	85.39	27.17	-30.8	-32.6	11.9	3.42e-04	0	43	0	564133888	22	4459
2026-01-16 23:02:33.17	86.33	27.21	-30.5	-32.5	12.3	1.73e-04	0	43	0	570425344	21	4500
2026-01-16 23:02:36.17	87.27	27.25	-30.9	-33.1	11.7	7.95e-04	0	43	0	575668224	22	4630
2026-01-16 23:02:39.16	88.21	27.27	-30.9	-33.0	11.7	3.56e-04	0	43	0	580911104	22	4590
2026-01-16 23:02:42.17	89.16	27.29	-31.2	-34.1	10.8	2.33e-03	0	43	0	587202560	22	4986
2026-01-16 23:02:45.16	90.11	27.30	-30.7	-32.3	12.1	2.72e-04	0	43	0	592445440	22	4337
2026-01-16 23:02:48.15	91.05	27.30	-30.1	-31.7	13.2	5.87e-05	0	43	0	597688320	20	4328
2026-01-16 23:02:51.16	92.00	27.29	-29.7	-31.1	14.0	4.21e-04	0	43	0	603979776	19	4219
2026-01-16 23:02:54.16	92.94	27.27	-30.5	-32.7	12.5	4.27e-04	0	43	0	609222656	20	4679
2026-01-16 23:02:57.17	93.89	27.25	-30.8	-33.2	11.8	4.99e-04	0	43	0	615514112	21	4744
2026-01-16 23:03:00.17	94.83	27.22	-30.6	-32.7	12.1	3.02e-04	0	43	0	620756992	21	4571
2026-01-16 23:03:03.18	95.78	27.18	-30.3	-31.9	12.7	9.23e-05	0	43	0	625999872	21	4323
2026-01-16 23:03:06.17	96.71	27.13	-30.4	-32.1	12.6	1.11e-04	0	43	0	632291328	21	4370
2026-01-16 23:03:09.19	97.65	27.07	-30.7	-33.1	11.9	4.96e-04	0	43	0	637534208	21	4719
2026-01-16 23:03:12.19	98.59	27.01	-31.3	-34.3	10.6	2.73e-03	0	43	0	642777088	22	5125
2026-01-16 23:03:15.19	99.51	26.93	-30.3	-31.3	12.7	2.31e-04	0	43	0	649068544	22	4062
2026-01-16 23:03:18.19	100.44	26.85	-30.6	-32.6	12.2	2.52e-04	0	43	0	654311424	21	4571
2026-01-16 23:03:21.19	101.36	26.77	-31.5	-34.6	9.9	8.41e-03	0	43	0	660602880	23	5169
2026-01-16 23:03:24.19	102.27	26.67	-30.1	-31.4	12.9	1.33e-04	0	43	0	665845760	21	4157
2026-01-16 23:03:27.19	103.18	26.57	-29.6	-30.6	13.8	3.80e-06	0	43	0	671088640	20	4011
2026-01-16 23:03:30.19	104.08	26.46	-29.2	-29.8	14.7	3.00e-06	0	43	0	677380096	19	3873
2026-01-16 23:03:33.19	104.98	26.34	-29.5	-30.7	14.2	0.00e+00	0	43	0	682622976	19	4113
2026-01-16 23:03:36.18	105.87	26.22	-29.7	-30.8	13.7	8.30e-06	0	43	0	687865856	20	4078
2026-01-16 23:03:39.18	106.75	26.09	-28.9	-29.1	15.1	0.00e+00	0	44	0	694157312	19	3673
2026-01-16 23:03:42.19	107.63	25.95	-28.9	-29.2	15.0	0.00e+00	0	43	0	699400192	19	3724
2026-01-16 23:03:45.18	108.49	25.81	-28.4	-28.3	15.8	0.00e+00	0	43	0	704643072	18	3588
2026-01-16 23:03:48.17	109.35	25.67	-28.8	-30.0	15.1	3.89e-05	0	43	0	710934528	17	4115
2026-01-16 23:03:51.18	110.21	25.51	-29.2	-30.3	14.7	2.20e-06	0	44	0	716177408	18	4094
2026-01-16 23:03:54.17	111.05	25.35	-28.4	-28.5	15.7	0.00e+00	0	43	0	722468864	18	3610
2026-01-16 23:03:57.17	111.88	25.19	-28.5	-28.7	15.6	0.00e+00	0	43	0	727711744	18	3672
2026-01-16 23:04:00.16	112.71	25.02	-28.6	-28.8	15.6	0.00e+00	0	43	0	732954624	18	3704
2026-01-16 23:04:03.16	113.53	24.84	-29.2	-30.3	14.6	7.00e-07	0	43	0	739246080	18	4115
2026-01-16 23:04:06.16	114.34	24.66	-28.5	-28.6	15.6	0.00e+00	0	43	0	744488960	18	3660
2026-01-16 23:04:09.16	115.14	24.48	-28.1	-28.7	16.1	3.67e-04	0	43	0	749731840	16	3863
2026-01-16 23:04:12.17	115.93	24.29	-28.7	-29.7	15.2	6.33e-05	0	43	0	756023296	17	4039
2026-01-16 23:04:15.17	116.71	24.09	-28.8	-29.9	15.1	1.01e-04	0	43	0	761266176	17	4093
2026-01-16 23:04:18.18	117.49	23.90	-29.3	-30.6	14.3	7.00e-07	0	43	0	766509056	18	4205
2026-01-16 23:04:21.19	118.25	23.69	-29.1	-30.3	14.6	0.00e+00	0	43	0	772800512	18	4089
2026-01-16 23:04:24.19	119.01	23.49	-28.7	-29.1	15.3	0.00e+00	0	43	0	778043392	18	3770
2026-01-16 23:04:27.20	119.75	23.28	-28.6	-28.9	15.4	0.00e+00	0	43	0	784334848	18	3720
2026-01-16 23:04:30.19	120.48	23.07	-28.9	-29.6	15.0	0.00e+00	0	43	0	789577728	18	3914
2026-01-16 23:04:33.19	121.21	22.86	-29.2	-30.3	14.6	3.81e-05	0	43	0	794820608	18	4099
2026-01-16 23:04:36.20	121.93	22.64	-29.0	-29.9	14.8	7.00e-07	0	43	0	801112064	18	3981
2026-01-16 23:04:39.21	122.63	22.42	-29.3	-30.7	14.2	7.00e-07	0	43	0	806354944	18	4216
2026-01-16 23:04:42.22	123.33	22.20	-29.4	-30.5	14.1	3.00e-06	0	43	0	811597824	19	4069
2026-01-16 23:04:45.23	124.02	21.97	-29.3	-30.3	14.2	0.00e+00	0	44	0	817889280	19	4025
2026-01-16 23:04:48.22	124.69	21.75	-30.0	-31.5	13.0	3.50e-05	0	43	0	823132160	20	4303
2026-01-16 23:04:51.22	125.36	21.52	-29.5	-30.2	13.9	4.50e-06	0	43	0	829423616	20	3908
2026-01-16 23:04:54.23	126.02	21.29	-29.0	-29.3	14.8	0.00e+00	0	43	0	834666496	19	3744
2026-01-16 23:04:57.24	126.67	21.06	-29.5	-30.7	13.9	5.30e-06	0	43	0	839909376	19	4139
2026-01-16 23:05:00.24	127.31	20.82	-29.4	-30.5	14.0	1.50e-06	0	44	0	846200832	19	4078
2026-01-16 23:05:03.25	127.94	20.59	-29.8	-31.6	13.3	1.06e-05	0	43	0	851443712	19	4406
2026-01-16 23:05:06.24	128.55	20.35	-29.4	-30.3	14.1	3.00e-06	0	43	0	856686592	19	4034
2026-01-16 23:05:09.24	129.16	20.12	-28.5	-29.2	15.3	0.00e+00	0	43	0	862978048	17	3903
2026-01-16 23:05:12.24	129.77	19.88	-29.3	-30.7	14.2	0.00e+00	0	43	0	868220928	18	4233
2026-01-16 23:05:15.24	130.36	19.64	-30.0	-32.1	12.8	7.17e-05	0	43	0	873463808	19	4607
2026-01-16 23:05:18.26	130.94	19.40	-29.5	-31.2	13.7	1.14e-03	0	43	0	879755264	18	4423
2026-01-16 23:05:21.25	131.52	19.16	-29.3	-30.9	13.9	2.20e-06	0	43	0	884998144	18	4314
2026-01-16 23:05:24.25	132.08	18.92	-29.3	-30.8	14.0	3.80e-06	0	43	0	891289600	18	4277
2026-01-16 23:05:27.26	132.64	18.68	-28.8	-29.6	14.7	0.00e+00	0	43	0	896532480	18	3948
2026-01-16 23:05:30.26	133.19	18.44	-29.0	-30.2	14.3	7.00e-07	0	44	0	901775360	18	4095
2026-01-16 23:05:33.26	133.73	18.20	-29.3	-30.9	13.9	3.20e-05	0	44	0	908066816	18	4296
2026-01-16 23:05:36.26	134.26	17.96	-29.2	-30.7	14.0	2.08e-04	0	43	0	913309696	18	4232
2026-01-16 23:05:39.26	134.79	17.72	-29.8	-31.6	13.1	9.68e-04	0	43	0	918552576	19	4428
2026-01-16 23:05:42.27	135.30	17.48	-29.9	-31.6	12.6	1.14e-03	0	43	0	924844032	20	4363
2026-01-16 23:05:45.29	135.81	17.24	-29.6	-31.3	13.2	2.82e-05	0	43	0	930086912	19	4353
2026-01-16 23:05:48.29	136.31	17.00	-29.6	-31.3	13.0	3.20e-05	0	43	0	936378368	19	4380
2026-01-16 23:05:51.30	136.81	16.76	-29.0	-30.3	14.1	4.10e-04	0	43	0	941621248	18	4157
2026-01-16 23:05:54.31	137.29	16.52	-28.7	-30.0	14.5	4.90e-04	0	43	0	946864128	17	4177
2026-01-16 23:05:57.32	137.77	16.28	-28.7	-29.8	14.6	5.10e-04	0	43	0	953155584	17	4101
2026-01-16 23:06:00.32	138.24	16.04	-28.9	-30.4	14.2	9.06e-04	0	43	0	958398464	17	4281
2026-01-16 23:06:03.34	138.71	15.80	-29.1	-30.7	13.6	3.26e-04	0	43	0	963641344	18	4296
2026-01-16 23:06:06.34	139.16	15.56	-29.5	-31.2	13.0	4.03e-04	0	43	0	969932800	19	4359
2026-01-16 23:06:09.34	139.61	15.33	-29.5	-31.2	13.0	2.89e-05	0	43	0	975175680	19	4367
2026-01-16 23:06:12.35	140.06	15.09	-29.3	-30.6	13.3	6.26e-04	0	44	0	981467136	19	4182
2026-01-16 23:06:15.35	140.49	14.86	-29.1	-30.6	13.5	4.67e-04	0	43	0	986710016	18	4312
2026-01-16 23:06:18.36	140.92	14.62	-29.0	-30.8	13.6	7.20e-04	0	44	0	991952896	17	4479
2026-01-16 23:06:21.37	141.34	14.39	-28.8	-30.5	13.8	7.61e-04	0	44	0	998244352	17	4348
2026-01-16 23:06:24.37	141.76	14.15	-28.9	-30.7	13.7	9.64e-04	0	44	0	1003487232	17	4398
2026-01-16 23:06:27.37	142.17	13.92	-28.9	-30.6	13.8	3.00e-06	0	43	0	1008730112	17	4366
2026-01-16 23:06:30.37	142.57	13.69	-29.3	-31.2	13.0	2.89e-05	0	43	0	1015021568	18	4488
2026-01-16 23:06:33.38	142.97	13.46	-29.6	-31.7	12.3	1.19e-04	0	43	0	1020264448	19	4575
2026-01-16 23:06:36.39	143.36	13.23	-29.7	-32.2	11.9	1.90e-03	0	44	0	1026555904	19	4786
2026-01-16 23:06:39.39	143.75	13.00	-29.3	-31.4	12.8	1.79e-03	0	43	0	1031798784	18	4599
2026-01-16 23:06:42.39	144.13	12.78	-29.5	-31.6	12.3	1.68e-04	0	44	0	1037041664	19	4584
2026-01-16 23:06:45.39	144.50	12.55	-29.7	-32.2	12.0	3.78e-04	0	43	0	1043333120	19	4781
2026-01-16 23:06:48.39	144.87	12.32	-30.0	-32.9	11.5	6.54e-04	0	43	0	1048576000	19	5027
2026-01-16 23:06:51.41	145.24	12.10	-30.1	-32.8	11.0	1.75e-03	0	44	0	1053818880	20	4940
2026-01-16 23:06:54.41	145.60	11.88	-30.1	-32.8	11.1	1.06e-03	0	44	0	1060110336	20	4909
2026-01-16 23:06:57.41	145.95	11.65	-29.8	-32.3	11.8	4.19e-04	0	44	0	1065353216	19	4813
2026-01-16 23:07:00.42	146.30	11.43	-29.9	-32.4	11.3	1.03e-03	0	43	0	1071644672	20	4760
2026-01-16 23:07:03.43	146.64	11.21	-30.0	-32.8	10.9	1.81e-03	0	43	0	1076887552	20	4953
2026-01-16 23:07:06.44	146.98	10.99	-30.0	-33.1	10.7	3.69e-03	0	43	0	1082130432	20	5103
2026-01-16 23:07:09.43	147.31	10.77	-29.7	-32.0	11.4	1.39e-03	0	43	0	1088421888	20	4668
2026-01-16 23:07:12.44	147.64	10.56	-29.5	-31.7	12.1	3.18e-04	0	44	0	1093664768	19	4639
2026-01-16 23:07:15.45	147.97	10.34	-29.6	-31.7	12.1	3.42e-04	0	43	0	1098907648	19	4603
2026-01-16 23:07:18.46	148.29	10.13	-29.9	-32.8	11.5	5.08e-04	0	43	0	1105199104	19	4996
2026-01-16 23:07:21.47	148.60	9.91	-30.3	-33.7	10.2	5.32e-03	0	44	0	1110441984	20	5338
2026-01-16 23:07:24.48	148.91	9.70	-30.2	-34.1	9.7	1.42e-02	0	43	0	1116733440	20	5628
2026-01-16 23:07:27.49	149.22	9.49	-30.0	-33.2	10.4	6.75e-03	0	43	0	1121976320	20	5193
2026-01-16 23:07:30.49	149.52	9.28	-30.1	-33.8	9.8	9.44e-03	0	44	0	1127219200	20	5519
2026-01-16 23:07:33.49	149.82	9.07	-30.3	-34.2	9.6	1.22e-02	0	44	0	1133510656	20	5650
2026-01-16 23:07:36.51	150.11	8.86	-30.3	-33.9	9.9	1.15e-02	0	43	0	1138753536	20	5437
2026-01-16 23:07:39.51	150.40	8.65	-29.9	-32.5	10.9	2.69e-03	0	43	0	1143996416	20	4872
2026-01-16 23:07:42.53	150.69	8.45	-29.9	-33.4	10.5	3.64e-03	0	43	0	1150287872	19	5381
2026-01-16 23:07:45.53	150.97	8.24	-29.1	-32.4	11.3	1.91e-03	0	44	0	1155530752	18	5223
2026-01-16 23:07:48.53	151.25	8.04	-29.2	-32.9	10.7	2.66e-03	0	43	0	1161822208	18	5544
2026-01-16 23:07:51.53	151.53	7.84	-29.3	-33.3	10.4	5.92e-03	0	43	0	1167065088	18	5689
2026-01-16 23:07:54.53	151.80	7.63	-29.2	-32.5	11.2	2.35e-03	0	43	0	1172307968	18	5242
2026-01-16 23:07:57.53	152.06	7.43	-29.8	-33.3	10.4	3.59e-03	0	44	0	1178599424	19	5387
2026-01-16 23:08:00.54	152.33	7.23	-29.8	-32.7	11.0	2.51e-03	0	43	0	1183842304	19	5020
2026-01-16 23:08:03.53	152.59	7.04	-31.7	-44.1	3.8	1.26e-01	0	44	104	1189085184	23	15067

#Closed at: 2026-01-16 23:08:04
#Recorded file [1189 MB]: D:/data/31010_260117_015728.dat