passes_logs/2026/01/16/R2M6_AANII_01/R2M6_AANII_01__20260116_133305_FENGYUN_3E_rec.log

#Pass ID: 20260116_133305_FENGYUN 3E
#Satellite: FENGYUN 3E
#Configuration: FENGYUN 3E
#almurnet v.1.7.20240730
#Start time: 2026-01-16 13:40:17

#Version: 2.2.20231116
#Station: R2M6_AANII_01
#Location: 30.233357 lon 59.946436 lat
#TLE: 1 49008U 21062A   26015.99225297  .00000062  00000+0  49720-4 0  9994
#TLE: 2 49008  98.7486  21.1092 0002100 136.3389 223.7953 14.19885247234982

#Time	Az	El	Level	Level2	SNR	BER	BlckErr	Temp	State	Recorded	gain1	gain2
2026-01-16 13:40:17.97	19.06	33.73	-34.0	-45.1	3.8	8.46e-01	0	43	0	0	28	12858
2026-01-16 13:40:18.96	18.77	33.60	-34.3	-43.5	3.8	8.45e-01	0	43	104	0	29	10316
2026-01-16 13:40:19.96	18.47	33.46	-34.3	-43.5	3.8	8.46e-01	0	43	104	0	29	10414
2026-01-16 13:40:20.97	18.17	33.33	-34.3	-43.5	3.8	8.47e-01	0	43	104	0	29	10351
2026-01-16 13:40:21.97	17.88	33.19	-34.3	-43.5	3.8	8.46e-01	0	43	104	0	29	10381
2026-01-16 13:40:22.97	17.59	33.06	-34.3	-43.5	3.8	8.47e-01	0	43	104	0	29	10391
2026-01-16 13:40:23.97	17.30	32.92	-34.3	-43.5	3.8	8.46e-01	0	43	104	0	29	10343
2026-01-16 13:40:24.98	17.01	32.78	-34.3	-43.5	3.8	8.46e-01	0	44	104	0	29	10381
2026-01-16 13:40:25.98	16.73	32.65	-34.3	-43.5	3.8	8.46e-01	0	43	104	0	29	10413
2026-01-16 13:40:26.98	16.45	32.51	-34.3	-43.5	3.8	8.46e-01	0	43	104	0	29	10355
2026-01-16 13:40:27.98	16.17	32.37	-34.3	-43.4	3.8	8.45e-01	0	43	104	0	29	10316
2026-01-16 13:40:28.98	15.90	32.24	-34.3	-43.4	3.8	8.45e-01	0	43	104	0	29	10331
2026-01-16 13:40:29.97	15.63	32.10	-34.3	-43.4	3.8	8.47e-01	0	43	104	0	29	10323
2026-01-16 13:40:30.97	15.36	31.96	-34.3	-43.5	3.8	8.45e-01	0	43	104	0	29	10397
2026-01-16 13:40:31.97	15.09	31.83	-34.4	-43.6	3.8	8.46e-01	0	43	104	0	29	10382
2026-01-16 13:40:32.98	14.82	31.69	-34.3	-43.6	3.8	8.46e-01	0	43	104	0	29	10420
2026-01-16 13:40:33.98	14.56	31.55	-34.3	-43.6	3.8	8.46e-01	0	43	104	0	29	10461
2026-01-16 13:40:34.99	14.29	31.41	-34.4	-43.7	3.8	8.46e-01	0	43	104	0	29	10492
2026-01-16 13:40:35.99	14.03	31.28	-34.3	-43.6	3.8	8.45e-01	0	43	104	0	29	10459
2026-01-16 13:40:36.99	13.77	31.14	-34.3	-43.5	3.8	8.46e-01	0	43	104	0	29	10415
2026-01-16 13:40:37.99	13.52	31.00	-34.3	-43.5	3.8	8.46e-01	0	43	104	0	29	10362
2026-01-16 13:40:38.99	13.27	30.87	-34.3	-43.4	3.8	8.47e-01	0	43	104	0	29	10288
2026-01-16 13:40:40.00	13.01	30.73	-34.3	-43.5	3.8	8.47e-01	0	43	104	0	29	10353
2026-01-16 13:40:41.00	12.77	30.59	-34.2	-43.2	3.8	8.46e-01	0	43	104	0	29	10083
2026-01-16 13:40:42.00	12.52	30.45	-34.2	-43.1	3.8	8.46e-01	0	44	104	0	29	10025
2026-01-16 13:40:43.00	12.27	30.32	-34.2	-43.2	3.8	8.45e-01	0	44	104	0	29	10163
2026-01-16 13:40:44.00	12.03	30.18	-34.1	-42.5	3.8	8.46e-01	0	44	104	0	29	9496
2026-01-16 13:40:45.00	11.79	30.04	-34.0	-42.7	3.8	8.48e-01	0	44	104	0	29	9825
2026-01-16 13:40:46.00	11.55	29.91	-34.0	-42.9	3.8	8.46e-01	0	43	104	0	29	9998
2026-01-16 13:40:47.01	11.32	29.77	-34.0	-42.9	3.8	8.47e-01	0	44	104	0	29	10053
2026-01-16 13:40:48.01	11.08	29.63	-34.0	-42.7	3.8	8.47e-01	0	43	104	0	29	9823
2026-01-16 13:40:49.02	10.85	29.49	-33.9	-42.3	3.8	8.46e-01	0	43	104	0	29	9472
2026-01-16 13:40:50.02	10.62	29.36	-33.9	-42.2	3.8	8.46e-01	0	44	104	0	29	9328
2026-01-16 13:40:51.03	10.39	29.22	-33.9	-42.2	3.8	8.45e-01	0	44	104	0	29	9318
2026-01-16 13:40:52.02	10.16	29.08	-33.9	-42.2	3.8	8.46e-01	0	44	104	0	29	9330
2026-01-16 13:40:53.03	9.94	28.95	-33.9	-42.0	3.8	8.45e-01	0	44	104	0	29	9211
2026-01-16 13:40:54.02	9.72	28.81	-33.9	-42.0	3.8	8.46e-01	0	43	104	0	29	9196
2026-01-16 13:40:55.02	9.50	28.68	-33.9	-42.4	3.8	8.46e-01	0	43	104	0	28	9575
2026-01-16 13:40:56.02	9.28	28.54	-33.8	-42.1	3.8	8.46e-01	0	43	104	0	28	9291
2026-01-16 13:40:57.02	9.06	28.41	-33.7	-41.3	3.8	8.46e-01	0	43	104	0	28	8610
2026-01-16 13:40:58.02	8.85	28.27	-33.6	-40.4	4.0	8.43e-01	0	44	104	0	28	7895
2026-01-16 13:40:59.03	8.63	28.14	-33.5	-40.0	3.9	8.44e-01	0	44	104	0	28	7623
2026-01-16 13:41:00.03	8.42	28.00	-33.5	-39.6	4.1	8.39e-01	0	44	104	0	28	7277
2026-01-16 13:41:01.03	8.21	27.87	-33.5	-39.5	4.1	8.38e-01	0	44	0	0	28	7251
2026-01-16 13:41:02.03	8.01	27.73	-33.4	-39.0	4.2	8.36e-01	0	44	0	0	28	6916
2026-01-16 13:41:03.03	7.80	27.60	-33.2	-38.6	4.5	8.25e-01	0	44	0	0	27	6685
2026-01-16 13:41:04.04	7.59	27.47	-32.9	-37.1	5.1	7.72e-01	0	44	0	0	27	5822
2026-01-16 13:41:05.04	7.39	27.33	-32.5	-35.8	6.0	4.21e-01	0	44	0	2097152	26	5304
2026-01-16 13:41:06.04	7.19	27.20	-31.9	-34.5	7.1	1.85e-01	0	44	0	9437184	25	4842
2026-01-16 13:41:07.04	6.99	27.07	-31.6	-34.0	7.8	8.61e-02	0	44	0	16777216	24	4736
2026-01-16 13:41:08.04	6.79	26.93	-31.4	-33.5	8.1	6.02e-02	0	44	0	23068672	24	4582
2026-01-16 13:41:09.04	6.60	26.80	-31.4	-33.4	8.2	5.60e-02	0	44	0	30408704	24	4534
2026-01-16 13:41:10.04	6.41	26.67	-30.9	-32.5	9.1	2.93e-02	0	43	0	37748736	23	4329
2026-01-16 13:41:11.04	6.21	26.54	-29.5	-30.5	11.3	3.86e-03	0	44	0	45088768	20	4029
2026-01-16 13:41:12.05	6.02	26.41	-27.7	-28.2	13.9	1.60e-05	0	44	0	52428800	16	3822
2026-01-16 13:41:13.06	5.83	26.27	-27.2	-27.5	14.4	0.00e+00	0	44	0	59768832	15	3758
2026-01-16 13:41:14.06	5.64	26.14	-27.9	-29.3	13.4	5.70e-06	0	44	0	67108864	15	4199
2026-01-16 13:41:15.06	5.46	26.01	-27.2	-27.7	14.3	1.10e-06	0	44	0	74448896	15	3791
2026-01-16 13:41:16.06	5.27	25.88	-26.6	-26.8	15.1	0.00e+00	0	44	0	81788928	14	3694
2026-01-16 13:41:17.05	5.09	25.75	-26.0	-26.1	15.7	0.00e+00	0	44	0	88080384	13	3631
2026-01-16 13:41:18.06	4.91	25.62	-25.5	-25.5	16.3	0.00e+00	0	44	0	95420416	12	3581
2026-01-16 13:41:19.06	4.73	25.49	-25.2	-25.2	16.8	0.00e+00	0	44	0	102760448	11	3617
2026-01-16 13:41:20.05	4.55	25.36	-25.0	-24.8	17.0	0.00e+00	0	44	0	110100480	11	3524
2026-01-16 13:41:21.05	4.37	25.24	-24.7	-24.8	17.2	0.00e+00	0	44	0	117440512	10	3632
2026-01-16 13:41:22.06	4.20	25.11	-25.0	-25.4	17.0	0.00e+00	0	44	0	124780544	10	3758
2026-01-16 13:41:23.06	4.02	24.98	-25.7	-26.3	16.2	0.00e+00	0	44	0	132120576	11	3863
2026-01-16 13:41:24.07	3.85	24.85	-25.1	-25.1	16.8	0.00e+00	0	44	0	139460608	11	3605
2026-01-16 13:41:25.07	3.68	24.72	-24.7	-24.7	17.3	0.00e+00	0	44	0	146800640	10	3607
2026-01-16 13:41:26.07	3.51	24.60	-24.4	-24.0	17.6	0.00e+00	0	43	0	154140672	10	3461
2026-01-16 13:41:27.07	3.34	24.47	-24.1	-24.0	17.9	0.00e+00	0	44	0	160432128	9	3543
2026-01-16 13:41:28.07	3.17	24.34	-24.3	-24.4	17.7	0.00e+00	0	44	0	167772160	9	3638
2026-01-16 13:41:29.07	3.01	24.22	-24.0	-23.7	18.0	0.00e+00	0	44	0	175112192	9	3484
2026-01-16 13:41:30.07	2.84	24.09	-23.7	-23.7	18.3	0.00e+00	0	43	0	182452224	8	3582
2026-01-16 13:41:31.07	2.68	23.97	-23.7	-23.6	18.3	0.00e+00	0	44	0	189792256	8	3567
2026-01-16 13:41:32.07	2.52	23.84	-23.9	-24.1	18.1	0.00e+00	0	44	0	197132288	8	3660
2026-01-16 13:41:33.07	2.36	23.72	-23.7	-23.6	18.3	0.00e+00	0	44	0	204472320	8	3570
2026-01-16 13:41:34.07	2.20	23.59	-23.8	-23.8	18.2	0.00e+00	0	44	0	210763776	8	3609
2026-01-16 13:41:35.07	2.04	23.47	-23.9	-24.1	18.0	0.00e+00	0	44	0	219152384	8	3674
2026-01-16 13:41:36.07	1.89	23.34	-23.8	-23.9	18.2	0.00e+00	0	44	0	226492416	8	3625
2026-01-16 13:41:37.08	1.73	23.22	-23.7	-23.7	18.3	0.00e+00	0	44	0	232783872	8	3593
2026-01-16 13:41:38.08	1.58	23.10	-23.9	-24.0	18.1	0.00e+00	0	44	0	240123904	8	3647
2026-01-16 13:41:39.09	1.42	22.97	-23.7	-23.7	18.3	0.00e+00	0	44	0	247463936	8	3579
2026-01-16 13:41:40.09	1.27	22.85	-23.8	-23.7	18.3	0.00e+00	0	44	0	254803968	8	3583
2026-01-16 13:41:41.09	1.12	22.73	-23.7	-23.6	18.3	0.00e+00	0	44	0	262144000	8	3566
2026-01-16 13:41:42.09	0.97	22.61	-23.8	-23.9	18.1	0.00e+00	0	44	0	269484032	8	3635
2026-01-16 13:41:43.09	0.82	22.49	-23.8	-23.9	18.2	0.00e+00	0	44	0	276824064	8	3632
2026-01-16 13:41:44.10	0.68	22.37	-24.0	-24.3	17.9	0.00e+00	0	43	0	284164096	8	3730
2026-01-16 13:41:45.09	0.53	22.25	-23.9	-24.1	18.0	0.00e+00	0	44	0	291504128	8	3677
2026-01-16 13:41:46.09	0.39	22.13	-24.0	-24.3	17.9	0.00e+00	0	44	0	297795584	8	3720
2026-01-16 13:41:47.09	0.24	22.01	-24.1	-24.6	17.8	0.00e+00	0	44	0	305135616	8	3780
2026-01-16 13:41:48.09	0.10	21.89	-24.2	-24.8	17.7	0.00e+00	0	44	0	312475648	8	3828
2026-01-16 13:41:49.09	359.96	21.77	-24.1	-24.4	17.9	1.10e-06	0	44	0	319815680	8	3741
2026-01-16 13:41:50.10	359.82	21.65	-24.2	-24.6	17.8	0.00e+00	0	44	0	327155712	8	3782
2026-01-16 13:41:51.11	359.68	21.53	-24.0	-24.3	17.9	0.00e+00	0	44	0	334495744	8	3705
2026-01-16 13:41:52.11	359.54	21.41	-24.0	-24.1	18.0	0.00e+00	0	44	0	341835776	8	3680
2026-01-16 13:41:53.11	359.40	21.30	-24.0	-24.2	18.0	0.00e+00	0	44	0	349175808	8	3691
2026-01-16 13:41:54.11	359.27	21.18	-24.2	-24.6	17.8	0.00e+00	0	44	0	355467264	8	3794
2026-01-16 13:41:55.11	359.13	21.06	-24.1	-24.5	17.8	0.00e+00	0	43	0	362807296	8	3754
2026-01-16 13:41:56.12	359.00	20.95	-24.4	-25.1	17.5	0.00e+00	0	44	0	370147328	8	3906
2026-01-16 13:41:57.12	358.87	20.83	-24.5	-25.4	17.4	0.00e+00	0	43	0	377487360	8	3967
2026-01-16 13:41:58.12	358.74	20.71	-24.9	-25.6	17.0	0.00e+00	0	44	0	384827392	9	3920
2026-01-16 13:41:59.12	358.61	20.60	-24.8	-25.4	17.1	0.00e+00	0	44	0	392167424	9	3880
2026-01-16 13:42:00.12	358.48	20.48	-25.0	-25.8	16.9	0.00e+00	0	43	0	399507456	9	3961
2026-01-16 13:42:01.13	358.35	20.37	-25.0	-25.9	16.8	0.00e+00	0	44	0	406847488	9	3985
2026-01-16 13:42:02.13	358.22	20.26	-25.0	-25.8	16.9	0.00e+00	0	44	0	414187520	9	3969
2026-01-16 13:42:03.13	358.09	20.14	-25.1	-26.0	16.8	0.00e+00	0	44	0	421527552	9	4015
2026-01-16 13:42:04.14	357.97	20.03	-25.2	-25.9	16.6	0.00e+00	0	44	0	428867584	10	3879
2026-01-16 13:42:05.14	357.84	19.91	-25.4	-26.3	16.3	0.00e+00	0	44	0	436207616	10	3976
2026-01-16 13:42:06.14	357.72	19.80	-25.2	-25.8	16.6	0.00e+00	0	44	0	442499072	10	3862
2026-01-16 13:42:07.15	357.59	19.69	-25.4	-26.3	16.4	0.00e+00	0	44	0	449839104	10	3972
2026-01-16 13:42:08.16	357.47	19.58	-25.1	-25.6	16.7	0.00e+00	0	44	0	457179136	10	3811
2026-01-16 13:42:09.15	357.35	19.47	-25.0	-25.4	16.8	0.00e+00	0	44	0	464519168	10	3754
2026-01-16 13:42:10.16	357.23	19.35	-24.9	-25.1	16.9	0.00e+00	0	44	0	471859200	10	3702
2026-01-16 13:42:11.16	357.11	19.24	-24.9	-25.1	16.9	0.00e+00	0	43	0	479199232	10	3705
2026-01-16 13:42:12.16	356.99	19.13	-24.9	-25.1	17.0	0.00e+00	0	44	0	486539264	10	3699
2026-01-16 13:42:13.16	356.88	19.02	-24.8	-25.1	16.9	0.00e+00	0	44	0	493879296	10	3692
2026-01-16 13:42:14.16	356.76	18.91	-24.8	-25.0	17.0	0.00e+00	0	44	0	501219328	10	3669
2026-01-16 13:42:15.16	356.64	18.80	-24.8	-25.1	16.9	0.00e+00	0	44	0	507510784	10	3690
2026-01-16 13:42:16.16	356.53	18.69	-24.9	-25.1	16.9	0.00e+00	0	44	0	514850816	10	3704
2026-01-16 13:42:17.16	356.41	18.59	-24.7	-24.7	17.1	0.00e+00	0	44	0	522190848	10	3607
2026-01-16 13:42:18.16	356.30	18.48	-24.6	-24.6	17.2	0.00e+00	0	44	0	529530880	10	3589
2026-01-16 13:42:19.16	356.19	18.37	-24.7	-24.7	17.1	0.00e+00	0	44	0	536870912	10	3604
2026-01-16 13:42:20.16	356.08	18.26	-24.7	-24.8	17.1	0.00e+00	0	44	0	544210944	10	3630
2026-01-16 13:42:21.16	355.97	18.16	-24.9	-25.2	16.9	0.00e+00	0	44	0	551550976	10	3712
2026-01-16 13:42:22.15	355.86	18.05	-24.7	-24.7	17.1	0.00e+00	0	44	0	558891008	10	3608
2026-01-16 13:42:23.16	355.75	17.94	-24.5	-24.4	17.3	0.00e+00	0	44	0	565182464	10	3535
2026-01-16 13:42:24.15	355.64	17.84	-24.5	-24.4	17.2	0.00e+00	0	44	0	572522496	10	3548
2026-01-16 13:42:25.16	355.53	17.73	-24.6	-24.5	17.2	0.00e+00	0	44	0	579862528	10	3560
2026-01-16 13:42:26.16	355.43	17.63	-24.7	-24.8	17.0	0.00e+00	0	43	0	587202560	10	3629
2026-01-16 13:42:27.15	355.32	17.52	-24.8	-24.9	17.0	0.00e+00	0	43	0	594542592	10	3642
2026-01-16 13:42:28.16	355.22	17.42	-24.7	-24.8	17.0	0.00e+00	0	44	0	601882624	10	3636
2026-01-16 13:42:29.16	355.11	17.31	-24.9	-25.1	16.9	0.00e+00	0	44	0	609222656	10	3696
2026-01-16 13:42:30.15	355.01	17.21	-25.0	-25.4	16.7	0.00e+00	0	44	0	616562688	10	3758
2026-01-16 13:42:31.15	354.91	17.11	-25.0	-25.4	16.7	0.00e+00	0	44	0	623902720	10	3759
2026-01-16 13:42:32.15	354.80	17.00	-25.2	-25.8	16.5	0.00e+00	0	44	0	630194176	10	3866
2026-01-16 13:42:33.16	354.70	16.90	-25.1	-25.6	16.6	0.00e+00	0	44	0	637534208	10	3804
2026-01-16 13:42:34.16	354.60	16.80	-25.2	-25.8	16.4	0.00e+00	0	44	0	644874240	10	3869
2026-01-16 13:42:35.16	354.50	16.69	-25.4	-26.2	16.2	0.00e+00	0	44	0	652214272	10	3955
2026-01-16 13:42:36.16	354.40	16.59	-25.2	-25.9	16.4	0.00e+00	0	44	0	659554304	10	3891
2026-01-16 13:42:37.16	354.30	16.49	-25.4	-26.2	16.2	0.00e+00	0	44	0	666894336	10	3958
2026-01-16 13:42:38.17	354.20	16.39	-25.1	-25.6	16.6	0.00e+00	0	44	0	674234368	10	3799
2026-01-16 13:42:39.17	354.11	16.29	-25.0	-25.4	16.7	0.00e+00	0	44	0	681574400	10	3763
2026-01-16 13:42:40.17	354.01	16.19	-25.1	-25.5	16.6	0.00e+00	0	44	0	688914432	10	3798
2026-01-16 13:42:41.17	353.91	16.09	-25.1	-25.7	16.5	0.00e+00	0	44	0	696254464	10	3826
2026-01-16 13:42:42.17	353.82	15.99	-25.1	-25.6	16.5	0.00e+00	0	44	0	703594496	10	3819
2026-01-16 13:42:43.18	353.72	15.89	-25.1	-25.6	16.5	0.00e+00	0	44	0	709885952	10	3812
2026-01-16 13:42:44.18	353.63	15.79	-25.1	-25.6	16.5	0.00e+00	0	44	0	717225984	10	3812
2026-01-16 13:42:45.19	353.53	15.69	-25.1	-25.7	16.5	0.00e+00	0	44	0	724566016	10	3842
2026-01-16 13:42:46.19	353.44	15.59	-25.2	-25.9	16.4	0.00e+00	0	44	0	731906048	10	3879
2026-01-16 13:42:47.19	353.35	15.49	-25.4	-26.2	16.2	0.00e+00	0	44	0	739246080	10	3960
2026-01-16 13:42:48.20	353.26	15.39	-25.2	-25.8	16.4	0.00e+00	0	44	0	746586112	10	3874
2026-01-16 13:42:49.20	353.17	15.29	-25.3	-26.1	16.2	0.00e+00	0	44	0	753926144	10	3940
2026-01-16 13:42:50.20	353.08	15.20	-25.4	-26.2	16.2	0.00e+00	0	44	0	761266176	10	3955
2026-01-16 13:42:51.21	352.99	15.10	-25.4	-26.4	16.1	0.00e+00	0	44	0	768606208	10	3996
2026-01-16 13:42:52.21	352.90	15.00	-25.5	-26.4	16.1	0.00e+00	0	44	0	774897664	10	4012
2026-01-16 13:42:53.22	352.81	14.90	-25.5	-26.5	16.0	0.00e+00	0	43	0	783286272	10	4026
2026-01-16 13:42:54.22	352.72	14.81	-25.8	-26.5	15.7	0.00e+00	0	44	0	789577728	11	3926
2026-01-16 13:42:55.22	352.63	14.71	-25.8	-26.6	15.7	0.00e+00	0	44	0	796917760	11	3960
2026-01-16 13:42:56.23	352.55	14.61	-25.7	-26.4	15.8	0.00e+00	0	44	0	804257792	11	3913
2026-01-16 13:42:57.22	352.46	14.52	-25.8	-26.6	15.7	0.00e+00	0	44	0	811597824	11	3958
2026-01-16 13:42:58.22	352.38	14.43	-25.9	-26.8	15.6	0.00e+00	0	44	0	818937856	11	4003
2026-01-16 13:42:59.22	352.29	14.33	-25.8	-26.7	15.6	0.00e+00	0	44	0	826277888	11	3967
2026-01-16 13:43:00.23	352.21	14.24	-25.8	-26.7	15.6	0.00e+00	0	44	0	833617920	11	3969
2026-01-16 13:43:01.23	352.12	14.14	-26.0	-27.0	15.4	0.00e+00	0	44	0	840957952	11	4065
2026-01-16 13:43:02.24	352.04	14.05	-26.0	-27.1	15.4	0.00e+00	0	44	0	848297984	11	4068
2026-01-16 13:43:03.24	351.95	13.95	-26.2	-27.0	15.1	0.00e+00	0	44	0	855638016	12	3962
2026-01-16 13:43:04.23	351.87	13.86	-26.5	-27.6	14.7	0.00e+00	0	44	0	861929472	12	4101
2026-01-16 13:43:05.24	351.79	13.77	-26.2	-27.1	15.0	0.00e+00	0	44	0	869269504	12	3980
2026-01-16 13:43:06.24	351.71	13.68	-26.0	-26.7	15.2	0.00e+00	0	44	0	876609536	12	3877
2026-01-16 13:43:07.24	351.63	13.58	-25.9	-26.5	15.4	0.00e+00	0	44	0	883949568	12	3826
2026-01-16 13:43:08.25	351.55	13.49	-26.0	-26.5	15.3	0.00e+00	0	44	0	891289600	12	3840
2026-01-16 13:43:09.25	351.47	13.40	-26.1	-26.7	15.2	1.10e-06	0	44	0	898629632	12	3887
2026-01-16 13:43:10.25	351.39	13.31	-26.0	-26.6	15.3	0.00e+00	0	44	0	905969664	12	3847
2026-01-16 13:43:11.25	351.31	13.22	-26.2	-27.0	15.1	0.00e+00	0	44	0	913309696	12	3949
2026-01-16 13:43:12.25	351.23	13.13	-26.0	-26.7	15.2	0.00e+00	0	44	0	919601152	12	3876
2026-01-16 13:43:13.25	351.16	13.04	-26.2	-27.0	15.0	0.00e+00	0	44	0	926941184	12	3945
2026-01-16 13:43:14.25	351.08	12.95	-26.3	-27.2	14.9	0.00e+00	0	44	0	934281216	12	4009
2026-01-16 13:43:15.25	351.00	12.86	-26.2	-27.0	15.0	0.00e+00	0	43	0	941621248	12	3955
2026-01-16 13:43:16.25	350.93	12.77	-26.2	-27.0	15.0	0.00e+00	0	44	0	948961280	12	3956
2026-01-16 13:43:17.25	350.85	12.68	-26.2	-27.1	15.0	0.00e+00	0	44	0	956301312	12	3971
2026-01-16 13:43:18.25	350.78	12.59	-26.2	-27.1	15.0	0.00e+00	0	44	0	963641344	12	3979
2026-01-16 13:43:19.26	350.70	12.50	-26.3	-27.3	14.9	0.00e+00	0	44	0	970981376	12	4027
2026-01-16 13:43:20.27	350.63	12.41	-26.5	-27.8	14.6	0.00e+00	0	44	0	978321408	12	4147
2026-01-16 13:43:21.27	350.55	12.32	-26.3	-27.2	14.9	0.00e+00	0	44	0	985661440	12	3992
2026-01-16 13:43:22.27	350.48	12.23	-26.3	-27.2	14.9	0.00e+00	0	44	0	993001472	12	3996
2026-01-16 13:43:23.28	350.41	12.14	-26.4	-27.4	14.8	2.20e-06	0	44	0	1000341504	12	4051
2026-01-16 13:43:24.28	350.33	12.06	-26.2	-26.9	15.0	1.10e-06	0	44	0	1006632960	12	3938
2026-01-16 13:43:25.28	350.26	11.97	-26.3	-27.4	14.8	1.10e-06	0	44	0	1013972992	12	4046
2026-01-16 13:43:26.28	350.19	11.88	-26.3	-27.1	14.9	0.00e+00	0	44	0	1021313024	12	3989
2026-01-16 13:43:27.28	350.12	11.80	-26.3	-27.3	14.8	0.00e+00	0	44	0	1028653056	12	4031
2026-01-16 13:43:28.28	350.05	11.71	-26.3	-27.3	14.8	0.00e+00	0	44	0	1035993088	12	4021
2026-01-16 13:43:29.28	349.98	11.62	-26.4	-27.4	14.7	0.00e+00	0	44	0	1043333120	12	4047
2026-01-16 13:43:30.28	349.91	11.54	-26.3	-27.2	14.8	0.00e+00	0	44	0	1050673152	12	4012
2026-01-16 13:43:31.29	349.84	11.45	-26.3	-27.3	14.8	0.00e+00	0	44	0	1058013184	12	4026
2026-01-16 13:43:32.29	349.77	11.37	-26.3	-27.2	14.8	0.00e+00	0	44	0	1064304640	12	4015
2026-01-16 13:43:33.29	349.70	11.28	-26.4	-27.5	14.7	0.00e+00	0	44	0	1071644672	12	4077
2026-01-16 13:43:34.30	349.64	11.19	-26.5	-27.7	14.5	1.10e-06	0	44	0	1078984704	12	4133
2026-01-16 13:43:35.31	349.57	11.11	-26.4	-27.4	14.7	0.00e+00	0	44	0	1086324736	12	4048
2026-01-16 13:43:36.31	349.50	11.02	-26.3	-27.3	14.7	1.10e-06	0	44	0	1093664768	12	4027
2026-01-16 13:43:37.31	349.43	10.94	-26.5	-27.7	14.5	0.00e+00	0	44	0	1101004800	12	4124
2026-01-16 13:43:38.31	349.37	10.86	-26.4	-27.4	14.7	1.10e-06	0	44	0	1108344832	12	4063
2026-01-16 13:43:39.30	349.30	10.77	-26.4	-27.4	14.7	1.10e-06	0	44	0	1115684864	12	4060
2026-01-16 13:43:40.30	349.24	10.69	-26.4	-27.5	14.6	0.00e+00	0	44	0	1123024896	12	4081
2026-01-16 13:43:41.31	349.17	10.61	-26.5	-27.8	14.4	0.00e+00	0	44	0	1129316352	12	4162
2026-01-16 13:43:42.31	349.11	10.52	-26.9	-28.1	14.0	1.10e-06	0	44	0	1136656384	13	4123
2026-01-16 13:43:43.31	349.04	10.44	-26.9	-28.0	14.0	1.10e-06	0	44	0	1143996416	13	4115
2026-01-16 13:43:44.30	348.98	10.36	-26.7	-27.6	14.2	1.10e-06	0	44	0	1151336448	13	4013
2026-01-16 13:43:45.30	348.92	10.28	-26.6	-27.5	14.3	2.20e-06	0	44	0	1158676480	13	3973
2026-01-16 13:43:46.31	348.85	10.20	-26.9	-28.0	14.0	2.20e-06	0	44	0	1166016512	13	4118
2026-01-16 13:43:47.31	348.79	10.11	-26.9	-28.0	14.0	2.20e-06	0	44	0	1173356544	13	4111
2026-01-16 13:43:48.31	348.73	10.03	-26.6	-27.5	14.2	1.10e-06	0	44	0	1180696576	13	3984
2026-01-16 13:43:49.31	348.66	9.95	-27.0	-28.3	13.8	1.10e-06	0	44	0	1188036608	13	4180
2026-01-16 13:43:50.32	348.60	9.87	-26.9	-28.1	13.9	5.70e-06	0	44	0	1195376640	13	4153
2026-01-16 13:43:51.32	348.54	9.79	-27.1	-28.1	13.6	8.00e-06	0	44	0	1201668096	14	4022
2026-01-16 13:43:52.32	348.48	9.71	-27.3	-28.6	13.4	1.48e-05	0	44	0	1210056704	14	4163
2026-01-16 13:43:53.32	348.42	9.63	-26.9	-27.6	13.9	0.00e+00	0	43	0	1216348160	14	3904
2026-01-16 13:43:54.32	348.36	9.55	-26.9	-27.6	13.9	3.40e-06	0	44	0	1223688192	14	3898
2026-01-16 13:43:55.33	348.30	9.47	-26.9	-27.6	13.9	1.10e-06	0	44	0	1231028224	14	3904
2026-01-16 13:43:56.33	348.24	9.39	-26.9	-27.7	13.9	3.40e-06	0	44	0	1238368256	14	3924
2026-01-16 13:43:57.32	348.18	9.31	-27.0	-27.8	13.8	1.10e-06	0	44	0	1245708288	14	3946
2026-01-16 13:43:58.32	348.12	9.23	-27.2	-28.2	13.6	5.70e-06	0	44	0	1251999744	14	4059
2026-01-16 13:43:59.32	348.06	9.15	-27.0	-27.8	13.8	9.10e-06	0	44	0	1259339776	14	3960
2026-01-16 13:44:00.32	348.01	9.07	-26.9	-27.7	13.9	2.20e-06	0	44	0	1267728384	14	3920
2026-01-16 13:44:01.32	347.95	8.99	-27.0	-27.8	13.8	1.10e-06	0	44	0	1274019840	14	3945
2026-01-16 13:44:02.32	347.89	8.92	-27.0	-27.7	13.8	1.10e-06	0	44	0	1281359872	14	3938
2026-01-16 13:44:03.32	347.83	8.84	-27.2	-28.2	13.5	4.50e-06	0	43	0	1288699904	14	4067
2026-01-16 13:44:04.32	347.78	8.76	-27.3	-28.5	13.4	9.10e-06	0	44	0	1296039936	14	4142
2026-01-16 13:44:05.33	347.72	8.68	-27.0	-27.9	13.7	3.40e-06	0	44	0	1303379968	14	3981
2026-01-16 13:44:06.32	347.66	8.60	-26.9	-27.7	13.8	6.80e-06	0	44	0	1310720000	14	3943
2026-01-16 13:44:07.33	347.61	8.53	-26.9	-27.6	13.8	8.00e-06	0	44	0	1318060032	14	3914
2026-01-16 13:44:08.33	347.55	8.45	-27.1	-28.2	13.5	1.14e-05	0	44	0	1325400064	14	4052
2026-01-16 13:44:09.35	347.50	8.37	-27.0	-27.8	13.7	6.80e-06	0	44	0	1332740096	14	3956
2026-01-16 13:44:10.35	347.44	8.29	-27.1	-28.2	13.5	8.00e-06	0	44	0	1339031552	14	4061
2026-01-16 13:44:11.35	347.39	8.22	-27.1	-28.0	13.6	4.50e-06	0	43	0	1346371584	14	4019
2026-01-16 13:44:12.35	347.33	8.14	-27.2	-28.4	13.3	1.60e-05	0	44	0	1353711616	14	4122
2026-01-16 13:44:13.36	347.28	8.06	-27.2	-28.4	13.3	1.48e-05	0	44	0	1361051648	14	4111
2026-01-16 13:44:14.36	347.22	7.99	-27.2	-28.3	13.4	9.10e-06	0	44	0	1368391680	14	4089
2026-01-16 13:44:15.37	347.17	7.91	-27.4	-28.7	13.1	1.71e-05	0	44	0	1375731712	14	4202
2026-01-16 13:44:16.37	347.12	7.84	-27.6	-28.8	12.8	7.43e-05	0	44	0	1383071744	15	4125
2026-01-16 13:44:17.38	347.06	7.76	-27.4	-28.2	13.1	2.63e-05	0	44	0	1390411776	15	3961
2026-01-16 13:44:18.38	347.01	7.69	-27.5	-28.4	13.0	2.17e-05	0	44	0	1397751808	15	4030
2026-01-16 13:44:19.39	346.96	7.61	-27.4	-28.4	13.0	2.05e-05	0	44	0	1405091840	15	4018
2026-01-16 13:44:20.39	346.91	7.54	-27.3	-28.2	13.1	1.83e-05	0	44	0	1412431872	15	3961
2026-01-16 13:44:21.39	346.85	7.46	-27.4	-28.2	13.1	2.63e-05	0	44	0	1419771904	15	3979
2026-01-16 13:44:22.39	346.80	7.39	-27.7	-29.1	12.5	7.55e-05	0	44	0	1426063360	15	4209
2026-01-16 13:44:23.39	346.75	7.31	-27.6	-28.8	12.7	6.75e-05	0	44	0	1433403392	15	4141
2026-01-16 13:44:24.40	346.70	7.24	-27.6	-28.8	12.7	5.49e-05	0	44	0	1440743424	15	4135
2026-01-16 13:44:25.40	346.65	7.17	-27.7	-29.1	12.5	1.20e-04	0	44	0	1448083456	15	4200
2026-01-16 13:44:26.41	346.60	7.09	-31.4	-35.4	6.7	3.05e-04	0	44	0	1455423488	22	5700
2026-01-16 13:44:27.41	346.55	7.02	-33.3	-41.9	3.8	8.46e-01	0	44	104	1455423488	26	9658

#Closed at: 2026-01-16 13:44:28
#Recorded file [1455 MB]: D:/data/31010_260116_164100.dat