passes_logs/2026/01/16/R2M6_AANII_01/R2M6_AANII_01__20260116_075204_NOAA_20_JPSS-1_rec.log

#Pass ID: 20260116_075204_NOAA 20 (JPSS-1)
#Satellite: NOAA 20 (JPSS-1)
#Configuration: NOAA 20
#almurnet v.1.7.20240730
#Start time: 2026-01-16 07:52:04

#Version: 2.2.20231116
#Station: R2M6_AANII_01
#Location: 30.233357 lon 59.946436 lat
#TLE: 1 43013U 17073A   26015.47098083  .00000029  00000+0  34851-4 0  9997
#TLE: 2 43013  98.7636 316.4053 0001479  38.6686 321.4595 14.19536048422808

#Time	Az	El	Level	Level2	SNR	BER	BlckErr	Temp	State	Recorded	gain1	gain2
2026-01-16 07:52:04.50	83.79	7.02	-32.7	-42.7	4.0	1.47e+00	0	41	0	0	26	11437
2026-01-16 07:52:07.49	83.45	7.19	-32.2	-39.2	6.4	2.68e-01	0	41	0	1048576	25	8087
2026-01-16 07:52:10.51	83.10	7.36	-32.0	-38.5	6.9	1.86e-01	0	41	0	7340032	25	7543
2026-01-16 07:52:13.51	82.75	7.53	-31.6	-36.7	8.6	5.90e-02	0	41	0	12582912	24	6528
2026-01-16 07:52:16.51	82.40	7.70	-31.1	-35.4	10.1	9.49e-03	0	41	0	17825792	23	5884
2026-01-16 07:52:19.51	82.05	7.86	-31.1	-35.2	10.3	6.23e-03	0	41	0	24117248	23	5779
2026-01-16 07:52:22.51	81.69	8.03	-31.0	-34.9	10.5	3.98e-03	0	41	0	29360128	23	5658
2026-01-16 07:52:25.52	81.32	8.20	-31.2	-35.5	10.2	4.70e-03	0	41	0	35651584	23	5899
2026-01-16 07:52:28.52	80.95	8.37	-31.0	-35.0	10.6	4.11e-03	0	42	0	40894464	23	5654
2026-01-16 07:52:31.51	80.58	8.53	-31.1	-35.3	10.4	4.80e-03	0	42	0	46137344	23	5785
2026-01-16 07:52:34.52	80.20	8.70	-31.1	-35.1	10.6	3.80e-03	0	41	0	52428800	23	5731
2026-01-16 07:52:37.51	79.82	8.87	-31.0	-34.9	10.7	3.74e-03	0	42	0	57671680	23	5627
2026-01-16 07:52:40.53	79.43	9.04	-31.0	-34.9	10.8	2.79e-03	0	42	0	62914560	23	5584
2026-01-16 07:52:43.54	79.04	9.21	-31.1	-34.9	10.8	3.38e-03	0	42	0	69206016	23	5628
2026-01-16 07:52:46.54	78.65	9.37	-31.1	-34.9	10.8	2.30e-03	0	42	0	74448896	23	5600
2026-01-16 07:52:49.55	78.24	9.54	-31.1	-35.1	10.7	3.14e-03	0	42	0	80740352	23	5673
2026-01-16 07:52:52.55	77.84	9.71	-31.1	-34.8	10.9	2.28e-03	0	42	0	85983232	23	5568
2026-01-16 07:52:55.56	77.43	9.87	-31.1	-34.9	10.9	2.54e-03	0	42	0	91226112	23	5601
2026-01-16 07:52:58.57	77.01	10.04	-31.2	-35.4	10.5	2.15e-03	0	42	0	97517568	23	5814
2026-01-16 07:53:01.57	76.59	10.21	-31.2	-35.3	10.6	3.75e-03	0	42	0	102760448	23	5786
2026-01-16 07:53:04.57	76.17	10.37	-31.1	-34.7	11.0	1.88e-03	0	42	0	108003328	23	5495
2026-01-16 07:53:07.59	75.74	10.54	-31.0	-34.7	11.1	1.63e-03	0	42	0	114294784	23	5465
2026-01-16 07:53:10.59	75.30	10.70	-31.1	-34.9	11.0	2.07e-03	0	42	0	119537664	23	5569
2026-01-16 07:53:13.59	74.87	10.87	-31.2	-35.1	10.9	1.91e-03	0	43	0	124780544	23	5637
2026-01-16 07:53:16.60	74.42	11.03	-31.2	-35.3	10.7	2.68e-03	0	42	0	131072000	23	5749
2026-01-16 07:53:19.60	73.97	11.19	-31.2	-35.2	10.8	2.51e-03	0	43	0	136314880	23	5690
2026-01-16 07:53:22.60	73.52	11.36	-31.3	-35.4	10.6	3.86e-03	0	42	0	142606336	23	5777
2026-01-16 07:53:25.60	73.06	11.52	-31.0	-34.4	11.4	1.12e-03	0	43	0	147849216	23	5350
2026-01-16 07:53:28.59	72.60	11.68	-30.9	-34.3	11.5	8.19e-04	0	43	0	153092096	23	5299
2026-01-16 07:53:31.61	72.12	11.84	-30.8	-34.0	11.7	6.18e-04	0	42	0	159383552	23	5151
2026-01-16 07:53:34.61	71.65	12.00	-30.7	-34.0	12.2	2.57e-04	0	43	0	164626432	22	5246
2026-01-16 07:53:37.62	71.17	12.16	-30.7	-34.1	12.0	4.42e-04	0	43	0	169869312	22	5294
2026-01-16 07:53:40.61	70.69	12.31	-30.5	-33.5	12.5	1.01e-04	0	43	0	176160768	22	5055
2026-01-16 07:53:43.62	70.19	12.47	-30.6	-33.6	12.4	1.04e-04	0	43	0	181403648	22	5112
2026-01-16 07:53:46.62	69.70	12.63	-30.4	-33.2	12.7	7.40e-05	0	43	0	187695104	22	4952
2026-01-16 07:53:49.62	69.20	12.78	-30.5	-33.3	12.7	9.00e-05	0	43	0	192937984	22	4976
2026-01-16 07:53:52.62	68.69	12.93	-30.4	-33.1	12.8	7.85e-05	0	43	0	198180864	22	4896
2026-01-16 07:53:55.63	68.18	13.08	-30.5	-33.3	12.7	1.07e-04	0	43	0	204472320	22	4972
2026-01-16 07:53:58.62	67.66	13.23	-30.3	-32.8	13.0	4.42e-05	0	43	0	209715200	22	4815
2026-01-16 07:54:01.62	67.14	13.38	-30.2	-32.9	13.3	2.05e-05	0	43	0	214958080	21	4950
2026-01-16 07:54:04.63	66.61	13.53	-30.0	-32.6	13.5	1.14e-05	0	43	0	221249536	21	4818
2026-01-16 07:54:07.63	66.08	13.68	-30.1	-32.8	13.3	2.21e-05	0	43	0	226492416	21	4901
2026-01-16 07:54:10.63	65.54	13.82	-30.1	-32.8	13.4	1.83e-05	0	43	0	232783872	21	4896
2026-01-16 07:54:13.63	65.00	13.96	-30.1	-32.8	13.4	9.90e-06	0	43	0	238026752	21	4893
2026-01-16 07:54:16.62	64.45	14.10	-30.4	-33.4	13.0	4.88e-05	0	43	0	243269632	21	5125
2026-01-16 07:54:19.63	63.90	14.24	-30.3	-33.2	13.2	3.96e-05	0	43	0	249561088	21	5023
2026-01-16 07:54:22.64	63.34	14.38	-30.4	-33.5	13.0	4.80e-05	0	43	0	254803968	21	5150
2026-01-16 07:54:25.65	62.77	14.51	-30.3	-33.2	13.2	3.20e-05	0	43	0	260046848	21	5038
2026-01-16 07:54:28.65	62.20	14.65	-30.3	-33.2	13.1	2.89e-05	0	43	0	266338304	21	5043
2026-01-16 07:54:31.66	61.63	14.78	-30.4	-33.5	13.0	3.66e-05	0	43	0	271581184	21	5142
2026-01-16 07:54:34.66	61.05	14.91	-30.6	-33.9	12.7	4.95e-05	0	43	0	277872640	21	5312
2026-01-16 07:54:37.67	60.46	15.03	-30.4	-33.4	13.1	3.50e-05	0	43	0	283115520	21	5092
2026-01-16 07:54:40.68	59.87	15.16	-30.3	-33.2	13.2	2.28e-05	0	43	0	288358400	21	5022
2026-01-16 07:54:43.68	59.28	15.28	-30.5	-33.8	12.8	4.50e-05	0	43	0	294649856	21	5255
2026-01-16 07:54:46.69	58.68	15.40	-30.0	-32.3	13.8	5.30e-06	0	43	0	299892736	21	4712
2026-01-16 07:54:49.69	58.07	15.51	-29.9	-32.2	13.9	2.20e-06	0	43	0	305135616	21	4667
2026-01-16 07:54:52.69	57.47	15.63	-29.8	-32.3	14.2	7.00e-07	0	43	0	311427072	20	4797
2026-01-16 07:54:55.70	56.85	15.74	-29.7	-32.0	14.4	0.00e+00	0	43	0	316669952	20	4688
2026-01-16 07:54:58.70	56.23	15.84	-29.6	-31.7	14.5	7.00e-07	0	43	0	322961408	20	4617
2026-01-16 07:55:01.70	55.61	15.95	-29.7	-32.1	14.3	7.00e-07	0	43	0	328204288	20	4726
2026-01-16 07:55:04.69	54.99	16.05	-29.7	-32.1	14.3	0.00e+00	0	43	0	333447168	20	4727
2026-01-16 07:55:07.70	54.36	16.15	-29.8	-32.3	14.2	3.00e-06	0	43	0	339738624	20	4803
2026-01-16 07:55:10.70	53.72	16.25	-29.8	-32.3	14.2	7.00e-07	0	43	0	344981504	20	4800
2026-01-16 07:55:13.72	53.08	16.34	-29.8	-32.2	14.2	0.00e+00	0	43	0	350224384	20	4775
2026-01-16 07:55:16.72	52.44	16.43	-29.8	-32.2	14.2	1.50e-06	0	43	0	356515840	20	4767
2026-01-16 07:55:19.73	51.79	16.51	-29.8	-32.4	14.1	3.00e-06	0	43	0	361758720	20	4845
2026-01-16 07:55:22.74	51.14	16.60	-29.9	-32.7	14.0	3.00e-06	0	43	0	367001600	20	4922
2026-01-16 07:55:25.75	50.48	16.68	-30.1	-33.2	13.7	4.50e-06	0	43	0	373293056	20	5113
2026-01-16 07:55:28.76	49.82	16.75	-30.3	-33.7	13.3	2.13e-05	0	43	0	378535936	20	5291
2026-01-16 07:55:31.76	49.16	16.82	-30.4	-33.8	13.2	2.13e-05	0	43	0	384827392	20	5361
2026-01-16 07:55:34.77	48.50	16.89	-30.7	-34.1	12.7	6.86e-05	0	43	0	390070272	21	5365
2026-01-16 07:55:37.77	47.83	16.95	-30.1	-32.5	13.8	1.06e-05	0	43	0	395313152	21	4753
2026-01-16 07:55:40.78	47.16	17.01	-30.2	-32.8	13.6	9.90e-06	0	43	0	401604608	21	4856
2026-01-16 07:55:43.78	46.49	17.07	-30.2	-32.8	13.6	6.80e-06	0	43	0	406847488	21	4865
2026-01-16 07:55:46.78	45.82	17.12	-30.3	-33.2	13.3	1.37e-05	0	43	0	412090368	21	5007
2026-01-16 07:55:49.79	45.14	17.17	-30.4	-33.4	13.2	2.97e-05	0	43	0	418381824	21	5100
2026-01-16 07:55:52.79	44.46	17.22	-30.6	-33.8	12.9	4.19e-05	0	43	0	423624704	21	5259
2026-01-16 07:55:55.79	43.78	17.26	-30.7	-34.1	12.7	4.42e-05	0	43	0	429916160	21	5382
2026-01-16 07:55:58.78	43.10	17.29	-30.8	-34.4	12.5	1.22e-04	0	43	0	435159040	21	5495
2026-01-16 07:56:01.79	42.42	17.32	-30.5	-33.8	12.9	4.80e-05	0	43	0	440401920	21	5243
2026-01-16 07:56:04.79	41.73	17.35	-30.5	-33.6	13.0	4.11e-05	0	43	0	446693376	21	5172
2026-01-16 07:56:07.80	41.04	17.38	-30.5	-33.5	13.1	3.28e-05	0	43	0	451936256	21	5137
2026-01-16 07:56:10.81	40.36	17.40	-30.4	-33.5	13.1	1.90e-05	0	43	0	457179136	21	5116
2026-01-16 07:56:13.81	39.67	17.41	-30.5	-33.7	13.0	3.89e-05	0	43	0	463470592	21	5184
2026-01-16 07:56:16.81	38.98	17.42	-30.5	-33.6	13.0	3.28e-05	0	43	0	468713472	21	5183
2026-01-16 07:56:19.81	38.29	17.43	-30.4	-33.5	13.1	2.97e-05	0	43	0	475004928	21	5119
2026-01-16 07:56:22.82	37.60	17.43	-30.6	-33.9	12.9	4.34e-05	0	43	0	480247808	21	5267
2026-01-16 07:56:25.82	36.91	17.43	-30.2	-33.0	13.5	1.14e-05	0	43	0	485490688	21	4924
2026-01-16 07:56:28.82	36.22	17.43	-30.3	-33.1	13.4	1.90e-05	0	43	0	491782144	21	4993
2026-01-16 07:56:31.83	35.53	17.42	-30.2	-32.9	13.5	1.22e-05	0	43	0	497025024	21	4917
2026-01-16 07:56:34.84	34.85	17.40	-30.2	-32.9	13.5	1.22e-05	0	43	0	502267904	21	4913
2026-01-16 07:56:37.84	34.16	17.38	-30.1	-32.6	13.7	3.00e-06	0	43	0	508559360	21	4804
2026-01-16 07:56:40.84	33.47	17.36	-29.9	-32.2	14.0	5.30e-06	0	43	0	513802240	21	4648
2026-01-16 07:56:43.85	32.79	17.33	-30.0	-32.4	13.8	6.80e-06	0	43	0	520093696	21	4738
2026-01-16 07:56:46.85	32.10	17.30	-29.9	-32.1	14.0	2.20e-06	0	43	0	525336576	21	4634
2026-01-16 07:56:49.84	31.43	17.27	-29.8	-31.9	14.2	3.00e-06	0	43	0	530579456	21	4558
2026-01-16 07:56:52.84	30.75	17.23	-29.8	-32.3	14.2	7.00e-07	0	43	0	536870912	20	4798
2026-01-16 07:56:55.84	30.07	17.18	-29.7	-31.9	14.5	2.20e-06	0	43	0	542113792	20	4675
2026-01-16 07:56:58.84	29.39	17.14	-29.6	-31.7	14.6	0.00e+00	0	43	0	547356672	20	4578
2026-01-16 07:57:01.84	28.72	17.09	-29.6	-31.9	14.5	0.00e+00	0	43	0	553648128	20	4656
2026-01-16 07:57:04.84	28.05	17.03	-29.8	-32.2	14.3	1.50e-06	0	43	0	558891008	20	4758
2026-01-16 07:57:07.85	27.38	16.97	-29.7	-32.0	14.4	0.00e+00	0	43	0	564133888	20	4689
2026-01-16 07:57:10.86	26.71	16.91	-29.8	-32.3	14.2	1.50e-06	0	43	0	570425344	20	4801
2026-01-16 07:57:13.86	26.05	16.84	-30.0	-32.7	13.9	1.50e-06	0	43	0	575668224	20	4946
2026-01-16 07:57:16.86	25.39	16.77	-29.9	-32.6	13.9	2.20e-06	0	43	0	581959680	20	4916
2026-01-16 07:57:19.86	24.73	16.70	-29.9	-32.6	14.0	1.50e-06	0	43	0	587202560	20	4884
2026-01-16 07:57:22.87	24.08	16.62	-30.1	-33.1	13.6	4.50e-06	0	43	0	592445440	20	5086
2026-01-16 07:57:25.88	23.42	16.54	-30.3	-33.7	13.3	1.29e-05	0	43	0	598736896	20	5296
2026-01-16 07:57:28.88	22.78	16.45	-30.2	-33.4	13.5	9.10e-06	0	43	0	603979776	20	5193
2026-01-16 07:57:31.88	22.14	16.37	-30.3	-33.6	13.3	1.52e-05	0	43	0	609222656	20	5291
2026-01-16 07:57:34.88	21.50	16.28	-30.5	-33.6	13.0	2.82e-05	0	43	0	615514112	21	5150
2026-01-16 07:57:37.88	20.86	16.18	-30.5	-33.6	12.9	2.97e-05	0	43	0	620756992	21	5180
2026-01-16 07:57:40.87	20.24	16.08	-30.3	-33.2	12.9	6.17e-05	0	43	0	625999872	21	5020
2026-01-16 07:57:43.88	19.61	15.98	-30.0	-32.3	13.4	1.14e-05	0	43	0	632291328	21	4720
2026-01-16 07:57:46.88	18.99	15.88	-30.1	-32.7	13.4	1.67e-05	0	43	0	637534208	21	4839
2026-01-16 07:57:49.88	18.37	15.77	-30.3	-33.2	12.8	7.17e-05	0	43	0	643825664	21	5021
2026-01-16 07:57:52.87	17.76	15.66	-30.5	-33.6	12.6	6.56e-05	0	43	0	649068544	21	5200
2026-01-16 07:57:55.88	17.15	15.55	-30.3	-33.3	13.1	3.35e-05	0	43	0	654311424	21	5064
2026-01-16 07:57:58.90	16.54	15.44	-30.3	-33.2	13.1	2.28e-05	0	43	0	660602880	21	5038
2026-01-16 07:58:01.91	15.94	15.32	-30.3	-33.0	13.3	1.14e-05	0	43	0	665845760	21	4968
2026-01-16 07:58:04.91	15.35	15.20	-30.3	-33.3	13.1	3.28e-05	0	43	0	671088640	21	5055
2026-01-16 07:58:07.92	14.76	15.07	-30.2	-33.1	13.2	2.44e-05	0	43	0	677380096	21	4974
2026-01-16 07:58:10.93	14.17	14.95	-30.2	-32.9	13.3	2.59e-05	0	43	0	682622976	21	4933
2026-01-16 07:58:13.93	13.59	14.82	-30.3	-33.3	13.0	2.89e-05	0	43	0	688914432	21	5073
2026-01-16 07:58:16.93	13.02	14.69	-30.4	-33.5	12.9	4.57e-05	0	43	0	694157312	21	5149
2026-01-16 07:58:19.93	12.45	14.56	-30.4	-33.4	13.0	2.97e-05	0	43	0	699400192	21	5120
2026-01-16 07:58:22.94	11.89	14.43	-30.5	-33.7	12.8	8.16e-05	0	43	0	705691648	21	5219
2026-01-16 07:58:25.95	11.33	14.29	-30.5	-33.7	12.8	6.63e-05	0	43	0	710934528	21	5230
2026-01-16 07:58:28.95	10.77	14.15	-30.7	-34.5	12.3	1.34e-04	0	43	0	716177408	21	5536
2026-01-16 07:58:31.96	10.22	14.01	-30.8	-34.7	12.0	2.85e-04	0	43	0	722468864	21	5660
2026-01-16 07:58:34.97	9.68	13.87	-30.9	-35.1	11.8	4.58e-04	0	43	0	727711744	21	5818
2026-01-16 07:58:37.97	9.14	13.73	-31.0	-34.9	11.6	4.96e-04	0	43	0	734003200	22	5624
2026-01-16 07:58:40.96	8.61	13.58	-31.0	-34.8	11.6	5.48e-04	0	43	0	739246080	22	5577
2026-01-16 07:58:43.96	8.09	13.44	-30.9	-34.4	11.9	2.97e-04	0	43	0	744488960	22	5391
2026-01-16 07:58:46.96	7.56	13.29	-31.1	-35.1	11.4	8.51e-04	0	43	0	750780416	22	5717
2026-01-16 07:58:49.96	7.05	13.14	-31.2	-35.3	11.2	1.38e-03	0	43	0	756023296	22	5833
2026-01-16 07:58:52.98	6.53	12.99	-31.3	-35.7	10.9	1.92e-03	0	43	0	761266176	22	6005
2026-01-16 07:58:55.98	6.03	12.84	-31.3	-35.9	10.7	2.05e-03	0	43	0	767557632	22	6103
2026-01-16 07:58:58.97	5.53	12.68	-31.4	-36.3	10.5	3.45e-03	0	43	0	772800512	22	6310
2026-01-16 07:59:01.98	5.03	12.53	-31.3	-35.8	10.8	3.85e-03	0	43	0	778043392	22	6078
2026-01-16 07:59:04.99	4.54	12.37	-31.1	-35.2	11.2	1.26e-03	0	43	0	784334848	22	5778
2026-01-16 07:59:08.00	4.06	12.21	-31.0	-35.0	11.3	1.23e-03	0	43	0	789577728	22	5703
2026-01-16 07:59:11.00	3.58	12.06	-31.2	-35.5	10.9	1.95e-03	0	43	0	795869184	22	5937
2026-01-16 07:59:14.00	3.10	11.90	-31.1	-35.4	11.1	1.63e-03	0	43	0	801112064	22	5874
2026-01-16 07:59:17.00	2.64	11.74	-31.2	-35.6	10.9	1.95e-03	0	43	0	806354944	22	5959
2026-01-16 07:59:20.01	2.17	11.58	-30.8	-34.3	11.8	4.60e-04	0	43	0	812646400	22	5395
2026-01-16 07:59:23.02	1.71	11.42	-30.8	-34.2	11.9	4.38e-04	0	43	0	817889280	22	5355
2026-01-16 07:59:26.03	1.26	11.26	-30.7	-34.0	12.0	4.58e-04	0	43	0	823132160	22	5263
2026-01-16 07:59:29.05	0.81	11.09	-30.6	-33.9	12.1	3.67e-04	0	43	0	829423616	22	5240
2026-01-16 07:59:32.05	0.36	10.93	-30.7	-34.1	11.9	3.50e-04	0	43	0	834666496	22	5305
2026-01-16 07:59:35.04	359.93	10.77	-30.8	-34.3	11.7	5.11e-04	0	43	0	840957952	22	5416
2026-01-16 07:59:38.06	359.49	10.60	-30.6	-33.8	12.1	4.30e-04	0	43	0	846200832	22	5185
2026-01-16 07:59:41.06	359.06	10.44	-30.6	-33.9	12.0	5.04e-04	0	43	0	851443712	22	5248
2026-01-16 07:59:44.08	358.64	10.27	-30.5	-33.7	12.1	2.27e-04	0	43	0	857735168	22	5153
2026-01-16 07:59:47.07	358.22	10.11	-30.4	-33.3	12.4	1.29e-04	0	43	0	862978048	22	5009
2026-01-16 07:59:50.08	357.81	9.94	-30.2	-33.1	12.7	1.33e-04	0	44	0	868220928	21	5054
2026-01-16 07:59:53.09	357.40	9.77	-30.2	-33.3	12.6	4.95e-05	0	43	0	874512384	21	5105
2026-01-16 07:59:56.09	356.99	9.61	-29.9	-32.3	13.3	2.44e-05	0	43	0	879755264	21	4762
2026-01-16 07:59:59.09	356.60	9.44	-30.1	-33.0	12.8	4.80e-05	0	43	0	886046720	21	4995
2026-01-16 08:00:02.09	356.20	9.27	-30.2	-33.2	12.7	6.63e-05	0	43	0	891289600	21	5072
2026-01-16 08:00:05.10	355.81	9.11	-30.0	-32.7	13.0	4.42e-05	0	43	0	896532480	21	4906
2026-01-16 08:00:08.11	355.42	8.94	-30.0	-32.7	12.9	4.34e-05	0	43	0	902823936	21	4920
2026-01-16 08:00:11.11	355.04	8.77	-30.2	-33.2	12.6	1.18e-04	0	44	0	908066816	21	5112
2026-01-16 08:00:14.12	354.67	8.61	-30.4	-33.9	12.1	2.09e-04	0	43	0	913309696	21	5363
2026-01-16 08:00:17.13	354.29	8.44	-30.5	-34.3	11.8	3.32e-04	0	43	0	919601152	21	5537
2026-01-16 08:00:20.13	353.93	8.27	-30.5	-34.3	11.7	5.52e-04	0	43	0	924844032	21	5578
2026-01-16 08:00:23.13	353.56	8.10	-30.3	-33.5	12.3	2.82e-04	0	43	0	931135488	21	5242
2026-01-16 08:00:26.13	353.20	7.94	-30.5	-34.3	11.7	3.87e-04	0	43	0	936378368	21	5557
2026-01-16 08:00:29.14	352.85	7.77	-30.3	-33.7	12.1	3.17e-04	0	43	0	941621248	21	5345
2026-01-16 08:00:32.15	352.50	7.60	-30.3	-33.8	12.1	3.00e-04	0	44	0	947912704	21	5342
2026-01-16 08:00:35.15	352.15	7.43	-30.6	-34.6	11.4	1.06e-03	0	43	0	953155584	21	5716
2026-01-16 08:00:38.16	351.81	7.27	-30.4	-34.0	11.8	6.10e-04	0	43	0	959447040	21	5440
2026-01-16 08:00:41.17	351.47	7.10	-30.5	-34.5	11.5	6.01e-04	0	43	0	964689920	21	5670
2026-01-16 08:00:44.18	351.13	6.93	-33.8	-48.1	3.8	1.49e+00	0	43	104	964689920	27	18731

#Closed at: 2026-01-16 08:00:44
#Recorded file [964 MB]: D:/data/31010_260116_105206.dat