passes_logs/2026/01/16/R2M6_AANII_01/R2M6_AANII_01__20260116_132854_FENGYUN_3D_rec.log

#Pass ID: 20260116_132854_FENGYUN 3D
#Satellite: FENGYUN 3D
#Configuration: FENGYUN 3D
#almurnet v.1.7.20240730
#Start time: 2026-01-16 13:28:54

#Version: 2.2.20231116
#Station: R2M6_AANII_01
#Location: 30.233357 lon 59.946436 lat
#TLE: 1 43010U 17072A   26015.99024095 -.00000189  00000+0 -67463-4 0  9996
#TLE: 2 43010  98.9932 347.8215 0002366 106.5594 253.5841 14.19694691423396

#Time	Az	El	Level	Level2	SNR	BER	BlckErr	Temp	State	Recorded	gain1	gain2
2026-01-16 13:28:54.62	195.75	7.04	-27.9	-29.8	5.8	7.65e-01	0	41	0	0	16	4475
2026-01-16 13:28:57.62	195.96	7.25	-28.9	-31.2	11.6	6.00e-04	0	41	0	5242880	18	4686
2026-01-16 13:29:00.62	196.17	7.47	-28.4	-30.0	12.4	2.45e-04	0	41	0	22020096	18	4332
2026-01-16 13:29:03.61	196.38	7.68	-27.8	-29.1	13.3	5.37e-05	0	41	0	38797312	17	4157
2026-01-16 13:29:06.62	196.59	7.90	-28.0	-30.0	13.0	5.26e-05	0	41	0	56623104	16	4525
2026-01-16 13:29:09.63	196.81	8.12	-27.8	-29.5	13.4	4.00e-05	0	41	0	73400320	16	4374
2026-01-16 13:29:12.64	197.03	8.34	-26.7	-28.0	14.7	0.00e+00	0	41	0	90177536	14	4190
2026-01-16 13:29:15.64	197.26	8.56	-27.0	-28.7	14.3	4.50e-06	0	41	0	106954752	14	4375
2026-01-16 13:29:18.65	197.49	8.79	-27.1	-29.0	14.2	2.20e-06	0	41	0	123731968	14	4457
2026-01-16 13:29:21.66	197.72	9.01	-27.4	-29.5	13.9	4.50e-06	0	41	0	140509184	14	4616
2026-01-16 13:29:24.68	197.95	9.24	-26.9	-28.0	14.5	6.80e-06	0	41	0	158334976	15	4070
2026-01-16 13:29:27.69	198.19	9.47	-27.0	-28.6	14.5	1.10e-06	0	41	0	175112192	14	4327
2026-01-16 13:29:30.68	198.43	9.70	-27.0	-28.6	14.4	2.20e-06	0	41	0	191889408	14	4353
2026-01-16 13:29:33.69	198.68	9.93	-26.5	-27.6	15.1	0.00e+00	0	42	0	208666624	14	4057
2026-01-16 13:29:36.69	198.92	10.16	-26.4	-27.2	15.3	0.00e+00	0	42	0	225443840	14	3963
2026-01-16 13:29:39.69	199.18	10.40	-26.2	-27.4	15.5	0.00e+00	0	42	0	242221056	13	4115
2026-01-16 13:29:42.69	199.43	10.64	-26.3	-27.6	15.4	0.00e+00	0	42	0	258998272	13	4159
2026-01-16 13:29:45.69	199.69	10.87	-26.3	-27.6	15.4	0.00e+00	0	42	0	275775488	13	4161
2026-01-16 13:29:48.68	199.96	11.11	-26.1	-27.0	15.7	0.00e+00	0	42	0	292552704	13	4011
2026-01-16 13:29:51.69	200.23	11.36	-26.0	-26.9	15.8	0.00e+00	0	42	0	309329920	13	3985
2026-01-16 13:29:54.69	200.50	11.60	-26.1	-27.0	15.7	0.00e+00	0	42	0	326107136	13	4025
2026-01-16 13:29:57.71	200.78	11.85	-26.0	-27.0	15.8	0.00e+00	0	42	0	343932928	13	4013
2026-01-16 13:30:00.72	201.06	12.10	-25.9	-27.1	16.0	0.00e+00	0	42	0	360710144	12	4141
2026-01-16 13:30:03.72	201.35	12.35	-25.9	-27.2	16.0	0.00e+00	0	42	0	377487360	12	4176
2026-01-16 13:30:06.73	201.64	12.60	-25.6	-26.4	16.4	0.00e+00	0	42	0	394264576	12	3966
2026-01-16 13:30:09.73	201.94	12.86	-25.8	-26.9	16.1	0.00e+00	0	42	0	411041792	12	4092
2026-01-16 13:30:12.73	202.24	13.11	-26.0	-27.3	16.0	0.00e+00	0	42	0	427819008	12	4195
2026-01-16 13:30:15.74	202.55	13.37	-25.9	-27.0	16.1	0.00e+00	0	42	0	444596224	12	4128
2026-01-16 13:30:18.76	202.86	13.63	-25.9	-27.1	16.1	0.00e+00	0	42	0	461373440	12	4131
2026-01-16 13:30:21.77	203.18	13.90	-25.7	-26.7	16.3	0.00e+00	0	42	0	479199232	12	4038
2026-01-16 13:30:24.77	203.50	14.16	-25.5	-26.3	16.6	0.00e+00	0	42	0	495976448	12	3927
2026-01-16 13:30:27.78	203.83	14.43	-25.8	-27.0	16.2	0.00e+00	0	42	0	512753664	12	4110
2026-01-16 13:30:30.80	204.16	14.70	-25.6	-26.6	16.4	0.00e+00	0	42	0	529530880	12	4008
2026-01-16 13:30:33.81	204.50	14.97	-25.3	-25.9	16.8	0.00e+00	0	42	0	546308096	12	3848
2026-01-16 13:30:36.81	204.85	15.24	-25.5	-26.8	16.6	0.00e+00	0	42	0	563085312	11	4177
2026-01-16 13:30:39.82	205.20	15.52	-25.1	-25.9	17.2	0.00e+00	0	42	0	579862528	11	3943
2026-01-16 13:30:42.82	205.56	15.79	-25.3	-26.3	17.0	0.00e+00	0	42	0	597688320	11	4040
2026-01-16 13:30:45.82	205.93	16.07	-25.2	-26.1	17.1	0.00e+00	0	43	0	614465536	11	3993
2026-01-16 13:30:48.83	206.30	16.36	-25.0	-25.7	17.3	0.00e+00	0	42	0	631242752	11	3888
2026-01-16 13:30:51.85	206.68	16.64	-24.9	-25.4	17.4	0.00e+00	0	42	0	648019968	11	3835
2026-01-16 13:30:54.83	207.06	16.92	-24.9	-25.5	17.4	0.00e+00	0	43	0	664797184	11	3860
2026-01-16 13:30:57.83	207.45	17.21	-25.1	-25.9	17.2	0.00e+00	0	42	0	681574400	11	3952
2026-01-16 13:31:00.83	207.85	17.50	-25.1	-25.9	17.2	0.00e+00	0	43	0	698351616	11	3954
2026-01-16 13:31:03.83	208.26	17.79	-25.2	-26.1	17.2	0.00e+00	0	43	0	715128832	11	3978
2026-01-16 13:31:06.85	208.68	18.09	-24.9	-25.5	17.5	0.00e+00	0	43	0	731906048	11	3838
2026-01-16 13:31:09.86	209.10	18.39	-24.6	-25.3	17.9	0.00e+00	0	43	0	749731840	10	3907
2026-01-16 13:31:12.87	209.53	18.68	-24.6	-25.3	17.9	0.00e+00	0	42	0	766509056	10	3894
2026-01-16 13:31:15.88	209.97	18.99	-24.5	-25.2	18.0	0.00e+00	0	43	0	783286272	10	3864
2026-01-16 13:31:18.89	210.42	19.29	-24.4	-24.9	18.1	0.00e+00	0	42	0	800063488	10	3823
2026-01-16 13:31:21.90	210.88	19.59	-24.6	-25.3	17.9	0.00e+00	0	43	0	816840704	10	3892
2026-01-16 13:31:24.91	211.35	19.90	-24.2	-25.0	18.3	0.00e+00	0	43	0	833617920	9	3929
2026-01-16 13:31:27.91	211.82	20.21	-24.3	-25.2	18.3	0.00e+00	0	43	0	850395136	9	3974
2026-01-16 13:31:30.92	212.31	20.52	-24.3	-25.2	18.2	0.00e+00	0	43	0	868220928	9	3991
2026-01-16 13:31:33.92	212.80	20.83	-24.5	-25.5	18.1	0.00e+00	0	43	0	884998144	9	4064
2026-01-16 13:31:36.92	213.31	21.14	-24.3	-25.2	18.3	0.00e+00	0	43	0	901775360	9	3982
2026-01-16 13:31:39.92	213.82	21.46	-24.2	-25.0	18.4	0.00e+00	0	43	0	918552576	9	3934
2026-01-16 13:31:42.91	214.34	21.77	-23.8	-24.7	18.8	0.00e+00	0	43	0	935329792	8	3966
2026-01-16 13:31:45.92	214.88	22.09	-23.8	-24.6	18.9	0.00e+00	0	43	0	952107008	8	3939
2026-01-16 13:31:48.92	215.42	22.41	-23.8	-24.7	18.8	0.00e+00	0	43	0	968884224	8	3976
2026-01-16 13:31:51.93	215.98	22.73	-23.9	-24.8	18.8	0.00e+00	0	43	0	985661440	8	3995
2026-01-16 13:31:54.94	216.55	23.06	-23.6	-24.2	19.0	0.00e+00	0	43	0	1003487232	8	3861
2026-01-16 13:31:57.94	217.13	23.38	-23.7	-24.3	19.0	0.00e+00	0	43	0	1020264448	8	3876
2026-01-16 13:32:00.95	217.72	23.71	-23.8	-24.5	18.9	0.00e+00	0	43	0	1037041664	8	3921
2026-01-16 13:32:03.96	218.32	24.03	-23.6	-24.2	19.1	0.00e+00	0	43	0	1053818880	8	3857
2026-01-16 13:32:06.97	218.94	24.36	-24.0	-24.9	18.7	0.00e+00	0	43	0	1070596096	8	4019
2026-01-16 13:32:09.97	219.57	24.69	-23.5	-23.9	19.2	0.00e+00	0	43	0	1087373312	8	3784
2026-01-16 13:32:12.97	220.21	25.01	-23.2	-23.8	19.5	0.00e+00	0	43	0	1104150528	7	3872
2026-01-16 13:32:15.99	220.87	25.34	-23.2	-23.8	19.6	1.10e-06	0	43	0	1120927744	7	3863
2026-01-16 13:32:18.99	221.54	25.67	-23.2	-23.8	19.6	0.00e+00	0	43	0	1138753536	7	3856
2026-01-16 13:32:22.00	222.22	26.00	-23.3	-24.1	19.5	0.00e+00	0	43	0	1155530752	7	3931
2026-01-16 13:32:24.99	222.91	26.33	-23.6	-24.6	19.2	0.00e+00	0	43	0	1172307968	7	4058
2026-01-16 13:32:28.00	223.62	26.65	-23.3	-24.1	19.5	0.00e+00	0	43	0	1189085184	7	3927
2026-01-16 13:32:31.01	224.35	26.98	-23.4	-24.2	19.4	0.00e+00	0	43	0	1205862400	7	3970
2026-01-16 13:32:34.02	225.09	27.31	-23.2	-23.9	19.5	0.00e+00	0	43	0	1222639616	7	3890
2026-01-16 13:32:37.01	225.84	27.63	-23.1	-23.5	19.8	0.00e+00	0	43	0	1239416832	7	3800
2026-01-16 13:32:40.01	226.61	27.95	-23.0	-23.4	19.8	0.00e+00	0	43	0	1256194048	7	3780
2026-01-16 13:32:43.01	227.39	28.27	-22.8	-23.0	20.0	0.00e+00	0	43	0	1272971264	7	3683
2026-01-16 13:32:46.01	228.19	28.59	-22.6	-23.0	20.3	0.00e+00	0	43	0	1289748480	6	3774
2026-01-16 13:32:49.02	229.01	28.91	-23.0	-23.9	19.8	0.00e+00	0	43	0	1306525696	6	3993
2026-01-16 13:32:52.02	229.84	29.22	-22.8	-23.5	20.0	0.00e+00	0	43	0	1324351488	6	3907
2026-01-16 13:32:55.02	230.68	29.53	-22.9	-23.6	20.0	0.00e+00	0	43	0	1341128704	6	3934
2026-01-16 13:32:58.03	231.55	29.84	-22.8	-23.4	20.1	0.00e+00	0	43	0	1357905920	6	3881
2026-01-16 13:33:01.04	232.43	30.14	-22.8	-23.4	20.1	0.00e+00	0	43	0	1374683136	6	3875
2026-01-16 13:33:04.05	233.32	30.44	-22.7	-23.3	20.1	0.00e+00	0	43	0	1391460352	6	3858
2026-01-16 13:33:07.05	234.23	30.74	-22.5	-22.9	20.3	0.00e+00	0	43	0	1408237568	6	3772
2026-01-16 13:33:10.06	235.16	31.03	-22.7	-23.3	20.1	0.00e+00	0	43	0	1425014784	6	3860
2026-01-16 13:33:13.07	236.11	31.31	-22.9	-23.6	20.0	0.00e+00	0	43	0	1442840576	6	3930
2026-01-16 13:33:16.08	237.07	31.59	-22.8	-23.5	20.1	0.00e+00	0	43	0	1459617792	6	3898
2026-01-16 13:33:19.09	238.05	31.86	-22.9	-23.8	19.9	0.00e+00	0	43	0	1476395008	6	3965
2026-01-16 13:33:22.11	239.05	32.13	-22.6	-23.1	20.3	0.00e+00	0	43	0	1493172224	6	3808
2026-01-16 13:33:25.11	240.06	32.38	-22.8	-23.4	20.1	0.00e+00	0	43	0	1509949440	6	3886
2026-01-16 13:33:28.11	241.08	32.63	-22.7	-23.2	20.2	0.00e+00	0	43	0	1526726656	6	3830
2026-01-16 13:33:31.11	242.12	32.87	-22.7	-23.2	20.2	0.00e+00	0	43	0	1543503872	6	3827
2026-01-16 13:33:34.12	243.17	33.11	-22.7	-23.4	20.2	0.00e+00	0	43	0	1561329664	6	3870
2026-01-16 13:33:37.13	244.24	33.33	-22.7	-23.2	20.2	0.00e+00	0	43	0	1578106880	6	3841
2026-01-16 13:33:40.15	245.33	33.55	-22.9	-23.6	20.0	0.00e+00	0	43	0	1594884096	6	3933
2026-01-16 13:33:43.15	246.43	33.75	-22.9	-23.8	20.0	0.00e+00	0	43	0	1611661312	6	3966
2026-01-16 13:33:46.15	247.54	33.95	-22.8	-23.4	20.2	0.00e+00	0	43	0	1628438528	6	3891
2026-01-16 13:33:49.15	248.66	34.13	-22.7	-23.4	20.2	0.00e+00	0	43	0	1645215744	6	3869
2026-01-16 13:33:52.16	249.80	34.31	-22.3	-22.9	20.6	0.00e+00	0	43	0	1661992960	5	3876
2026-01-16 13:33:55.17	250.95	34.47	-22.6	-23.5	20.3	0.00e+00	0	43	0	1679818752	5	4015
2026-01-16 13:33:58.18	252.10	34.62	-22.3	-23.0	20.6	0.00e+00	0	43	0	1696595968	5	3896
2026-01-16 13:34:01.18	253.27	34.75	-22.6	-23.5	20.3	0.00e+00	0	43	0	1713373184	5	4009
2026-01-16 13:34:04.18	254.45	34.88	-22.7	-23.7	20.2	0.00e+00	0	43	0	1730150400	5	4072
2026-01-16 13:34:07.18	255.63	34.99	-22.5	-23.3	20.4	0.00e+00	0	43	0	1746927616	5	3966
2026-01-16 13:34:10.18	256.82	35.09	-22.6	-23.5	20.3	0.00e+00	0	43	0	1763704832	5	4023
2026-01-16 13:34:13.19	258.02	35.17	-22.5	-23.3	20.5	0.00e+00	0	43	0	1780482048	5	3959
2026-01-16 13:34:16.19	259.22	35.24	-22.4	-23.2	20.5	0.00e+00	0	43	0	1797259264	5	3933
2026-01-16 13:34:19.20	260.44	35.30	-22.4	-23.2	20.5	0.00e+00	0	43	0	1814036480	5	3935
2026-01-16 13:34:22.20	261.65	35.34	-22.3	-23.0	20.6	0.00e+00	0	43	0	1830813696	5	3894
2026-01-16 13:34:25.21	262.86	35.37	-22.6	-23.6	20.3	0.00e+00	0	43	0	1848639488	5	4026
2026-01-16 13:34:28.20	264.08	35.39	-22.4	-23.1	20.6	0.00e+00	0	43	0	1865416704	5	3905
2026-01-16 13:34:31.22	265.30	35.39	-22.8	-24.0	20.1	0.00e+00	0	43	0	1882193920	5	4142
2026-01-16 13:34:34.21	266.51	35.38	-22.8	-24.0	20.1	0.00e+00	0	43	0	1898971136	5	4125
2026-01-16 13:34:37.22	267.73	35.35	-22.6	-23.6	20.3	0.00e+00	0	43	0	1915748352	5	4023
2026-01-16 13:34:40.22	268.94	35.31	-22.6	-23.5	20.3	0.00e+00	0	43	0	1932525568	5	4011
2026-01-16 13:34:43.22	270.15	35.25	-22.5	-23.4	20.4	0.00e+00	0	43	0	1949302784	5	3992
2026-01-16 13:34:46.23	271.35	35.18	-23.2	-24.4	19.6	0.00e+00	0	43	0	1966080000	6	4128
2026-01-16 13:34:49.23	272.55	35.10	-23.1	-24.2	19.8	0.00e+00	0	43	0	1983905792	6	4063
2026-01-16 13:34:52.24	273.74	35.00	-23.6	-24.7	19.3	0.00e+00	0	43	0	2000683008	7	4067
2026-01-16 13:34:55.25	274.93	34.89	-22.3	-22.5	20.6	0.00e+00	0	43	0	2017460224	6	3673
2026-01-16 13:34:58.25	276.11	34.77	-22.7	-23.4	20.2	0.00e+00	0	43	0	2034237440	6	3871
2026-01-16 13:35:01.24	277.27	34.64	-22.5	-23.0	20.4	0.00e+00	0	43	0	2051014656	6	3773
2026-01-16 13:35:04.25	278.43	34.49	-22.7	-23.2	20.3	0.00e+00	0	43	0	2067791872	6	3830
2026-01-16 13:35:07.25	279.57	34.33	-22.6	-23.1	20.3	0.00e+00	0	43	0	2084569088	6	3809
2026-01-16 13:35:10.23	280.70	34.16	-23.2	-24.3	19.7	0.00e+00	0	43	0	2101346304	6	4094
2026-01-16 13:35:13.24	281.82	33.98	-22.8	-23.5	20.1	0.00e+00	0	43	0	2118123520	6	3897
2026-01-16 13:35:16.26	282.94	33.79	-23.0	-24.0	19.9	0.00e+00	0	43	0	2134900736	6	4014
2026-01-16 13:35:19.26	284.03	33.58	-22.7	-23.3	20.2	0.00e+00	0	43	0	2152726528	6	3859
2026-01-16 13:35:22.25	285.11	33.37	-22.9	-23.6	20.1	0.00e+00	0	43	0	2169503744	6	3930
2026-01-16 13:35:25.23	286.17	33.15	-23.1	-24.1	19.9	0.00e+00	0	43	0	2186280960	6	4038
2026-01-16 13:35:28.23	287.22	32.92	-22.9	-23.6	20.1	0.00e+00	0	43	0	2203058176	6	3922
2026-01-16 13:35:31.24	288.26	32.68	-23.1	-24.2	19.8	0.00e+00	0	43	0	2219835392	6	4072
2026-01-16 13:35:34.25	289.29	32.43	-22.9	-23.7	20.0	0.00e+00	0	43	0	2236612608	6	3945
2026-01-16 13:35:37.25	290.30	32.18	-23.1	-24.2	19.8	0.00e+00	0	43	0	2253389824	6	4066
2026-01-16 13:35:40.25	291.29	31.92	-23.1	-24.0	19.9	0.00e+00	0	43	0	2270167040	6	4030
2026-01-16 13:35:43.25	292.26	31.65	-23.2	-24.3	19.7	0.00e+00	0	43	0	2286944256	6	4094
2026-01-16 13:35:46.26	293.23	31.37	-23.4	-24.8	19.5	0.00e+00	0	43	0	2303721472	6	4215
2026-01-16 13:35:49.27	294.17	31.09	-23.1	-24.1	19.8	0.00e+00	0	43	0	2321547264	6	4041
2026-01-16 13:35:52.28	295.10	30.80	-23.3	-24.5	19.7	0.00e+00	0	43	0	2338324480	6	4132
2026-01-16 13:35:55.28	296.01	30.51	-23.2	-24.3	19.8	0.00e+00	0	43	0	2355101696	6	4080
2026-01-16 13:35:58.29	296.91	30.21	-23.3	-24.4	19.7	0.00e+00	0	43	0	2371878912	6	4123
2026-01-16 13:36:01.30	297.79	29.91	-23.2	-23.9	19.7	0.00e+00	0	43	0	2388656128	7	3883
2026-01-16 13:36:04.31	298.66	29.61	-23.0	-23.4	19.9	0.00e+00	0	43	0	2405433344	7	3755
2026-01-16 13:36:07.32	299.50	29.30	-23.2	-23.9	19.7	0.00e+00	0	43	0	2423259136	7	3888
2026-01-16 13:36:10.32	300.33	28.99	-23.2	-23.9	19.7	0.00e+00	0	43	0	2440036352	7	3877
2026-01-16 13:36:13.33	301.15	28.67	-23.1	-23.7	19.8	0.00e+00	0	43	0	2456813568	7	3832
2026-01-16 13:36:16.34	301.95	28.36	-23.4	-24.2	19.5	0.00e+00	0	43	0	2473590784	7	3950
2026-01-16 13:36:19.35	302.74	28.04	-23.5	-24.4	19.4	0.00e+00	0	43	0	2490368000	7	3997
2026-01-16 13:36:22.36	303.51	27.72	-23.6	-24.6	19.3	0.00e+00	0	43	0	2507145216	7	4064
2026-01-16 13:36:25.38	304.27	27.39	-23.5	-24.4	19.4	0.00e+00	0	43	0	2523922432	7	4010
2026-01-16 13:36:28.38	305.00	27.07	-23.6	-24.7	19.2	0.00e+00	0	43	0	2540699648	7	4088
2026-01-16 13:36:31.39	305.73	26.74	-23.4	-24.2	19.5	0.00e+00	0	43	0	2558525440	7	3954
2026-01-16 13:36:34.39	306.44	26.42	-23.3	-23.9	19.6	0.00e+00	0	43	0	2575302656	7	3894
2026-01-16 13:36:37.39	307.13	26.10	-23.7	-24.9	19.1	0.00e+00	0	43	0	2592079872	7	4131
2026-01-16 13:36:40.40	307.82	25.77	-23.8	-25.1	19.0	0.00e+00	0	43	0	2608857088	7	4183
2026-01-16 13:36:43.41	308.49	25.44	-23.7	-24.9	19.1	0.00e+00	0	43	0	2625634304	7	4123
2026-01-16 13:36:46.41	309.14	25.12	-23.8	-25.1	19.1	0.00e+00	0	43	0	2642411520	7	4169
2026-01-16 13:36:49.40	309.78	24.79	-23.6	-24.6	19.3	0.00e+00	0	43	0	2659188736	7	4056
2026-01-16 13:36:52.40	310.41	24.47	-23.6	-24.7	19.2	0.00e+00	0	43	0	2675965952	7	4076
2026-01-16 13:36:55.41	311.03	24.14	-23.7	-24.9	19.1	0.00e+00	0	43	0	2693791744	7	4118
2026-01-16 13:36:58.41	311.63	23.82	-23.7	-24.8	19.2	0.00e+00	0	43	0	2710568960	7	4101
2026-01-16 13:37:01.41	312.22	23.50	-23.9	-25.3	18.9	0.00e+00	0	43	0	2727346176	7	4243
2026-01-16 13:37:04.42	312.80	23.18	-24.2	-25.5	18.6	0.00e+00	0	43	0	2744123392	8	4158
2026-01-16 13:37:07.41	313.37	22.86	-24.2	-25.3	18.6	0.00e+00	0	43	0	2760900608	8	4124
2026-01-16 13:37:10.43	313.93	22.53	-24.5	-26.0	18.3	0.00e+00	0	43	0	2777677824	8	4294
2026-01-16 13:37:13.44	314.48	22.22	-24.6	-25.8	18.1	0.00e+00	0	43	0	2794455040	9	4138
2026-01-16 13:37:16.44	315.01	21.90	-24.4	-25.4	18.3	0.00e+00	0	43	0	2811232256	9	4038
2026-01-16 13:37:19.44	315.54	21.59	-24.4	-25.3	18.3	0.00e+00	0	43	0	2828009472	9	3999
2026-01-16 13:37:22.43	316.05	21.27	-24.5	-25.7	18.2	0.00e+00	0	43	0	2844786688	9	4090
2026-01-16 13:37:25.44	316.56	20.96	-24.4	-25.4	18.3	0.00e+00	0	43	0	2861563904	9	4016
2026-01-16 13:37:28.44	317.05	20.65	-24.6	-25.8	18.0	0.00e+00	0	43	0	2879389696	9	4128
2026-01-16 13:37:31.45	317.54	20.34	-24.6	-25.8	18.1	0.00e+00	0	43	0	2896166912	9	4127
2026-01-16 13:37:34.45	318.01	20.04	-24.8	-26.3	17.8	0.00e+00	0	43	0	2912944128	9	4261
2026-01-16 13:37:37.45	318.48	19.73	-24.9	-26.5	17.7	0.00e+00	0	43	0	2929721344	9	4304
2026-01-16 13:37:40.46	318.94	19.43	-25.0	-26.1	17.6	0.00e+00	0	43	0	2946498560	10	4100
2026-01-16 13:37:43.46	319.39	19.13	-25.2	-26.5	17.4	0.00e+00	0	43	0	2963275776	10	4193
2026-01-16 13:37:46.47	319.83	18.83	-25.2	-26.4	17.4	0.00e+00	0	43	0	2980052992	10	4179
2026-01-16 13:37:49.48	320.26	18.53	-25.2	-26.6	17.3	0.00e+00	0	43	0	2996830208	10	4232
2026-01-16 13:37:52.48	320.69	18.24	-25.4	-27.0	17.2	0.00e+00	0	43	0	3014656000	10	4320
2026-01-16 13:37:55.48	321.10	17.95	-25.4	-26.6	17.1	0.00e+00	0	43	0	3031433216	11	4098
2026-01-16 13:37:58.49	321.51	17.65	-25.4	-26.5	17.1	0.00e+00	0	43	0	3048210432	11	4085
2026-01-16 13:38:01.50	321.92	17.37	-25.4	-26.6	17.1	0.00e+00	0	43	0	3064987648	11	4097
2026-01-16 13:38:04.51	322.31	17.08	-25.6	-26.9	16.9	0.00e+00	0	43	0	3081764864	11	4183
2026-01-16 13:38:07.52	322.70	16.79	-25.6	-26.9	16.8	0.00e+00	0	43	0	3098542080	11	4190
2026-01-16 13:38:10.52	323.08	16.51	-25.5	-26.8	16.9	0.00e+00	0	43	0	3115319296	11	4169
2026-01-16 13:38:13.52	323.45	16.23	-25.5	-26.7	17.0	0.00e+00	0	43	0	3132096512	11	4131
2026-01-16 13:38:16.52	323.82	15.96	-25.5	-26.8	16.9	0.00e+00	0	43	0	3149922304	11	4150
2026-01-16 13:38:19.53	324.18	15.68	-25.4	-26.5	17.0	0.00e+00	0	43	0	3166699520	11	4080
2026-01-16 13:38:22.54	324.53	15.40	-25.5	-26.8	16.9	0.00e+00	0	43	0	3183476736	11	4149
2026-01-16 13:38:25.54	324.88	15.13	-25.6	-26.9	16.8	0.00e+00	0	43	0	3200253952	11	4184
2026-01-16 13:38:28.55	325.22	14.86	-25.6	-27.0	16.7	0.00e+00	0	44	0	3217031168	11	4218
2026-01-16 13:38:31.56	325.56	14.60	-25.8	-27.5	16.4	0.00e+00	0	43	0	3233808384	11	4355
2026-01-16 13:38:34.57	325.89	14.33	-26.0	-27.3	16.2	0.00e+00	0	43	0	3250585600	12	4191
2026-01-16 13:38:37.58	326.22	14.07	-26.0	-27.4	16.1	0.00e+00	0	43	0	3268411392	12	4225
2026-01-16 13:38:40.59	326.54	13.80	-26.0	-27.3	16.2	0.00e+00	0	43	0	3285188608	12	4179
2026-01-16 13:38:43.59	326.85	13.55	-26.1	-27.6	16.0	0.00e+00	0	43	0	3301965824	12	4263
2026-01-16 13:38:46.59	327.16	13.29	-26.2	-27.8	15.9	0.00e+00	0	43	0	3318743040	12	4317
2026-01-16 13:38:49.59	327.46	13.03	-26.0	-27.4	16.0	0.00e+00	0	43	0	3335520256	12	4228
2026-01-16 13:38:52.59	327.76	12.78	-26.3	-27.9	15.8	0.00e+00	0	43	0	3352297472	12	4357
2026-01-16 13:38:55.60	328.05	12.53	-26.2	-27.3	15.8	0.00e+00	0	43	0	3369074688	13	4082
2026-01-16 13:38:58.61	328.34	12.28	-26.5	-27.9	15.4	0.00e+00	0	43	0	3385851904	13	4250
2026-01-16 13:39:01.59	328.63	12.03	-26.5	-27.9	15.4	0.00e+00	0	43	0	3402629120	13	4244
2026-01-16 13:39:04.59	328.91	11.79	-26.8	-28.6	15.1	1.10e-06	0	43	0	3419406336	13	4436
2026-01-16 13:39:07.59	329.18	11.55	-26.6	-28.3	15.2	0.00e+00	0	43	0	3436183552	13	4339
2026-01-16 13:39:10.61	329.45	11.30	-26.6	-28.2	15.2	0.00e+00	0	43	0	3454009344	13	4333
2026-01-16 13:39:13.61	329.72	11.06	-26.7	-28.4	15.1	1.10e-06	0	44	0	3470786560	13	4393
2026-01-16 13:39:16.62	329.98	10.83	-26.6	-28.2	15.2	0.00e+00	0	43	0	3487563776	13	4334
2026-01-16 13:39:19.64	330.24	10.59	-26.8	-28.7	14.9	0.00e+00	0	43	0	3504340992	13	4475
2026-01-16 13:39:22.64	330.50	10.35	-27.2	-29.2	14.4	1.10e-06	0	43	0	3521118208	14	4494
2026-01-16 13:39:25.62	330.75	10.12	-27.0	-28.6	14.7	1.10e-06	0	43	0	3537895424	14	4341
2026-01-16 13:39:28.63	331.00	9.89	-26.8	-28.2	14.9	1.10e-06	0	43	0	3554672640	14	4222
2026-01-16 13:39:31.64	331.24	9.66	-27.1	-28.8	14.6	0.00e+00	0	43	0	3571449856	14	4377
2026-01-16 13:39:34.64	331.48	9.43	-26.9	-28.4	14.7	0.00e+00	0	43	0	3589275648	14	4267
2026-01-16 13:39:37.65	331.72	9.21	-27.0	-28.6	14.6	0.00e+00	0	43	0	3606052864	14	4331
2026-01-16 13:39:40.66	331.95	8.98	-26.8	-28.3	14.8	0.00e+00	0	43	0	3622830080	14	4239
2026-01-16 13:39:43.67	332.18	8.76	-27.1	-29.0	14.4	1.10e-06	0	43	0	3639607296	14	4432
2026-01-16 13:39:46.67	332.41	8.54	-27.1	-28.9	14.4	2.20e-06	0	44	0	3656384512	14	4417
2026-01-16 13:39:49.68	332.63	8.32	-27.2	-29.1	14.2	0.00e+00	0	43	0	3673161728	14	4476
2026-01-16 13:39:52.67	332.85	8.10	-27.3	-28.8	14.1	8.00e-06	0	43	0	3689938944	15	4270
2026-01-16 13:39:55.68	333.07	7.89	-27.1	-28.5	14.3	1.10e-06	0	43	0	3706716160	15	4191
2026-01-16 13:39:58.68	333.29	7.67	-27.3	-28.7	14.1	2.20e-06	0	43	0	3724541952	15	4266
2026-01-16 13:40:01.69	333.50	7.46	-27.1	-28.3	14.3	1.10e-06	0	43	0	3741319168	15	4157
2026-01-16 13:40:04.69	333.71	7.25	-27.5	-29.3	13.7	5.70e-06	0	43	0	3758096384	15	4432
2026-01-16 13:40:07.69	333.91	7.04	-33.3	-44.6	3.8	1.46e-02	0	43	104	3772776448	26	13163
2026-01-16 13:40:10.70	334.12	6.83	-33.9	-44.9	3.8	8.47e-01	0	43	104	3772776448	28	12763

#Closed at: 2026-01-16 13:40:11
#Recorded file [3772 MB]: D:/data/31010_260116_162856.dat