passes_logs/2026/01/16/R2M6_AANII_01/R2M6_AANII_01__20260116_025747_NOAA_20_JPSS-1_rec.log

#Pass ID: 20260116_025747_NOAA 20 (JPSS-1)
#Satellite: NOAA 20 (JPSS-1)
#Configuration: NOAA 20
#almurnet v.1.7.20240730
#Start time: 2026-01-16 02:57:47

#Version: 2.2.20231116
#Station: R2M6_AANII_01
#Location: 30.233357 lon 59.946436 lat
#TLE: 1 43013U 17073A   26015.47098083  .00000029  00000+0  34851-4 0  9997
#TLE: 2 43013  98.7636 316.4053 0001479  38.6686 321.4595 14.19536048422808

#Time	Az	El	Level	Level2	SNR	BER	BlckErr	Temp	State	Recorded	gain1	gain2
2026-01-16 02:57:47.32	8.34	7.00	-32.8	-42.6	4.0	1.46e+00	0	41	0	0	26	11160
2026-01-16 02:57:49.32	8.10	7.11	-32.3	-39.6	6.2	3.01e-01	0	41	0	0	25	8353
2026-01-16 02:57:51.32	7.87	7.22	-32.4	-39.8	6.1	2.93e-01	0	41	0	3145728	25	8480
2026-01-16 02:57:53.31	7.63	7.32	-32.3	-39.5	6.3	2.71e-01	0	41	0	7340032	25	8219
2026-01-16 02:57:55.30	7.40	7.43	-32.4	-40.1	6.0	2.93e-01	0	41	0	10485760	25	8730
2026-01-16 02:57:57.31	7.15	7.54	-32.2	-38.9	6.8	2.14e-01	0	41	0	14680064	25	7767
2026-01-16 02:57:59.30	6.91	7.64	-31.8	-37.4	8.4	7.54e-02	0	42	0	17825792	24	6821
2026-01-16 02:58:01.30	6.67	7.75	-31.6	-36.2	9.4	1.93e-02	0	42	0	22020096	24	6154
2026-01-16 02:58:03.30	6.42	7.85	-31.2	-35.3	10.5	5.72e-03	0	42	0	26214400	23	5796
2026-01-16 02:58:05.31	6.18	7.96	-31.2	-35.2	10.6	3.85e-03	0	42	0	29360128	23	5695
2026-01-16 02:58:07.32	5.92	8.07	-31.3	-36.2	10.2	6.36e-03	0	42	0	33554432	22	6305
2026-01-16 02:58:09.33	5.67	8.18	-31.4	-36.4	10.1	5.96e-03	0	42	0	36700160	22	6394
2026-01-16 02:58:11.33	5.42	8.28	-31.2	-35.9	10.5	4.48e-03	0	42	0	40894464	22	6134
2026-01-16 02:58:13.32	5.16	8.39	-31.2	-35.9	10.5	4.09e-03	0	42	0	44040192	22	6160
2026-01-16 02:58:15.32	4.91	8.49	-31.2	-35.8	10.5	3.37e-03	0	42	0	48234496	22	6116
2026-01-16 02:58:17.32	4.65	8.60	-31.2	-35.8	10.6	4.46e-03	0	42	0	52428800	22	6093
2026-01-16 02:58:19.32	4.39	8.70	-31.2	-35.6	10.8	3.01e-03	0	42	0	55574528	22	5992
2026-01-16 02:58:21.32	4.12	8.81	-31.2	-35.6	10.8	2.30e-03	0	42	0	59768832	22	5974
2026-01-16 02:58:23.32	3.86	8.91	-31.2	-35.7	10.7	3.90e-03	0	42	0	62914560	22	6024
2026-01-16 02:58:25.33	3.59	9.02	-31.1	-35.3	11.0	1.78e-03	0	42	0	67108864	22	5853
2026-01-16 02:58:27.33	3.32	9.13	-31.2	-35.6	10.8	1.71e-03	0	42	0	71303168	22	5983
2026-01-16 02:58:29.34	3.05	9.23	-31.2	-35.5	10.8	2.26e-03	0	42	0	74448896	22	5959
2026-01-16 02:58:31.34	2.78	9.34	-31.2	-35.8	10.6	3.63e-03	0	42	0	78643200	22	6085
2026-01-16 02:58:33.34	2.50	9.44	-31.2	-35.6	10.9	2.39e-03	0	42	0	81788928	22	5973
2026-01-16 02:58:35.34	2.23	9.54	-31.2	-35.5	10.9	2.76e-03	0	43	0	85983232	22	5945
2026-01-16 02:58:37.35	1.95	9.65	-31.2	-35.5	10.9	2.36e-03	0	43	0	89128960	22	5949
2026-01-16 02:58:39.36	1.66	9.75	-31.2	-35.7	10.8	2.53e-03	0	42	0	93323264	22	6007
2026-01-16 02:58:41.36	1.38	9.86	-31.2	-35.5	10.9	2.28e-03	0	43	0	97517568	22	5935
2026-01-16 02:58:43.36	1.10	9.96	-31.2	-35.7	10.8	3.02e-03	0	43	0	100663296	22	6036
2026-01-16 02:58:45.37	0.81	10.06	-31.2	-35.7	10.8	2.89e-03	0	43	0	104857600	22	6009
2026-01-16 02:58:47.37	0.52	10.17	-31.3	-35.8	10.8	3.16e-03	0	43	0	108003328	22	6065
2026-01-16 02:58:49.36	0.23	10.27	-31.3	-35.8	10.8	1.97e-03	0	43	0	112197632	22	6045
2026-01-16 02:58:51.38	359.93	10.37	-31.3	-35.8	10.8	2.37e-03	0	43	0	116391936	22	6079
2026-01-16 02:58:53.38	359.64	10.47	-31.2	-35.7	10.8	2.64e-03	0	43	0	119537664	22	6016
2026-01-16 02:58:55.38	359.34	10.58	-31.3	-36.0	10.6	3.30e-03	0	43	0	123731968	22	6156
2026-01-16 02:58:57.38	359.04	10.68	-31.4	-36.2	10.6	3.14e-03	0	43	0	126877696	22	6239
2026-01-16 02:58:59.38	358.74	10.78	-31.4	-36.3	10.4	4.53e-03	0	43	0	131072000	22	6317
2026-01-16 02:59:01.39	358.43	10.88	-31.6	-36.5	9.9	8.63e-03	0	43	0	134217728	23	6297
2026-01-16 02:59:03.40	358.12	10.98	-31.6	-36.3	10.0	7.71e-03	0	43	0	138412032	23	6220
2026-01-16 02:59:05.40	357.82	11.08	-31.6	-36.3	10.0	7.66e-03	0	43	0	142606336	23	6207
2026-01-16 02:59:07.40	357.51	11.18	-31.4	-35.8	10.4	4.79e-03	0	43	0	145752064	23	5952
2026-01-16 02:59:09.40	357.19	11.28	-31.5	-36.0	10.3	5.62e-03	0	43	0	149946368	23	6024
2026-01-16 02:59:11.39	356.88	11.38	-31.5	-36.1	10.2	7.12e-03	0	43	0	153092096	23	6114
2026-01-16 02:59:13.40	356.56	11.47	-31.2	-35.1	11.0	2.13e-03	0	43	0	157286400	23	5629
2026-01-16 02:59:15.41	356.24	11.57	-31.0	-34.3	11.6	8.25e-04	0	43	0	160432128	23	5287
2026-01-16 02:59:17.41	355.92	11.67	-31.0	-34.2	11.6	6.91e-04	0	43	0	164626432	23	5248
2026-01-16 02:59:19.41	355.60	11.77	-30.8	-34.3	12.0	3.19e-04	0	43	0	168820736	22	5365
2026-01-16 02:59:21.42	355.27	11.86	-30.7	-34.5	12.1	2.78e-04	0	43	0	171966464	21	5568
2026-01-16 02:59:23.42	354.94	11.96	-30.6	-34.1	12.4	1.48e-04	0	43	0	176160768	21	5402
2026-01-16 02:59:25.42	354.61	12.05	-30.6	-34.2	12.4	1.93e-04	0	43	0	179306496	21	5419
2026-01-16 02:59:27.42	354.28	12.15	-30.6	-34.2	12.4	2.90e-04	0	43	0	183500800	21	5446
2026-01-16 02:59:29.42	353.95	12.24	-30.7	-34.5	12.2	1.93e-04	0	43	0	186646528	21	5557
2026-01-16 02:59:31.42	353.61	12.33	-30.8	-34.8	12.0	4.76e-04	0	43	0	190840832	21	5690
2026-01-16 02:59:33.42	353.27	12.43	-30.7	-34.6	12.1	3.34e-04	0	43	0	195035136	21	5600
2026-01-16 02:59:35.42	352.93	12.52	-30.8	-34.6	12.1	3.19e-04	0	43	0	198180864	21	5614
2026-01-16 02:59:37.43	352.58	12.61	-30.7	-34.3	12.3	3.27e-04	0	43	0	202375168	21	5492
2026-01-16 02:59:39.43	352.24	12.70	-30.6	-34.1	12.5	1.52e-04	0	43	0	205520896	21	5386
2026-01-16 02:59:41.43	351.89	12.79	-30.6	-34.1	12.5	1.76e-04	0	43	0	209715200	21	5378
2026-01-16 02:59:43.44	351.54	12.88	-30.3	-33.6	13.2	2.09e-04	0	43	0	213909504	20	5310
2026-01-16 02:59:45.44	351.19	12.97	-30.2	-33.6	13.2	2.26e-04	0	43	0	217055232	20	5296
2026-01-16 02:59:47.45	350.83	13.06	-30.4	-34.0	12.9	3.89e-05	0	43	0	221249536	20	5448
2026-01-16 02:59:49.45	350.48	13.14	-30.4	-33.9	13.0	2.61e-04	0	43	0	224395264	20	5420
2026-01-16 02:59:51.45	350.12	13.23	-30.5	-34.2	12.8	2.49e-04	0	43	0	228589568	20	5528
2026-01-16 02:59:53.44	349.76	13.31	-30.4	-33.7	12.8	5.95e-05	0	43	0	232783872	21	5208
2026-01-16 02:59:55.43	349.40	13.40	-30.3	-33.3	13.1	1.83e-04	0	43	0	235929600	21	5053
2026-01-16 02:59:57.44	349.04	13.48	-30.3	-33.8	13.1	2.12e-04	0	43	0	240123904	20	5371
2026-01-16 02:59:59.44	348.67	13.56	-30.3	-33.8	13.0	3.50e-05	0	43	0	243269632	20	5388
2026-01-16 03:00:01.45	348.30	13.65	-30.3	-33.7	13.2	2.66e-04	0	43	0	247463936	20	5326
2026-01-16 03:00:03.45	347.93	13.73	-30.4	-34.1	12.9	3.45e-04	0	43	0	250609664	20	5491
2026-01-16 03:00:05.44	347.56	13.81	-30.5	-33.9	12.7	6.17e-05	0	43	0	254803968	21	5304
2026-01-16 03:00:07.45	347.18	13.89	-30.6	-33.9	12.6	3.39e-04	0	43	0	258998272	21	5319
2026-01-16 03:00:09.45	346.80	13.96	-30.4	-33.4	13.1	2.03e-04	0	43	0	262144000	21	5101
2026-01-16 03:00:11.45	346.43	14.04	-30.4	-33.4	13.1	4.34e-05	0	43	0	266338304	21	5100
2026-01-16 03:00:13.46	346.04	14.12	-30.4	-33.4	13.0	1.89e-04	0	43	0	269484032	21	5114
2026-01-16 03:00:15.47	345.66	14.19	-30.4	-33.9	13.1	3.73e-05	0	43	0	273678336	20	5396
2026-01-16 03:00:17.47	345.27	14.27	-30.2	-33.6	13.3	4.04e-05	0	44	0	277872640	20	5266
2026-01-16 03:00:19.48	344.89	14.34	-30.3	-33.6	13.3	2.12e-04	0	43	0	281018368	20	5266
2026-01-16 03:00:21.49	344.50	14.41	-30.2	-33.3	13.4	1.14e-05	0	44	0	285212672	20	5169
2026-01-16 03:00:23.48	344.11	14.48	-30.2	-33.4	13.3	2.44e-05	0	43	0	288358400	20	5224
2026-01-16 03:00:25.49	343.71	14.55	-30.1	-33.1	13.6	1.06e-05	0	43	0	292552704	20	5076
2026-01-16 03:00:27.48	343.32	14.62	-29.9	-32.7	13.9	1.55e-04	0	43	0	295698432	20	4933
2026-01-16 03:00:29.49	342.92	14.69	-30.0	-33.0	13.7	8.30e-06	0	44	0	299892736	20	5061
2026-01-16 03:00:31.48	342.53	14.75	-30.1	-33.1	13.6	1.31e-04	0	43	0	304087040	20	5111
2026-01-16 03:00:33.48	342.13	14.82	-30.0	-33.0	13.7	5.30e-06	0	43	0	307232768	20	5043
2026-01-16 03:00:35.48	341.73	14.88	-30.2	-33.3	13.5	7.60e-06	0	43	0	311427072	20	5169
2026-01-16 03:00:37.48	341.32	14.94	-30.1	-33.0	13.6	2.00e-04	0	43	0	314572800	20	5061
2026-01-16 03:00:39.48	340.92	15.00	-30.1	-33.0	13.6	5.30e-06	0	43	0	318767104	20	5073
2026-01-16 03:00:41.48	340.51	15.06	-29.9	-32.5	14.0	5.30e-06	0	43	0	321912832	20	4870
2026-01-16 03:00:43.48	340.10	15.12	-29.8	-32.4	14.0	3.00e-06	0	43	0	326107136	20	4855
2026-01-16 03:00:45.48	339.70	15.18	-29.7	-32.2	14.2	2.20e-06	0	44	0	330301440	20	4761
2026-01-16 03:00:47.48	339.28	15.24	-29.9	-32.5	14.0	2.20e-06	0	43	0	333447168	20	4873
2026-01-16 03:00:49.48	338.87	15.29	-30.1	-33.2	13.5	3.00e-06	0	43	0	337641472	20	5141
2026-01-16 03:00:51.49	338.45	15.34	-30.0	-32.8	13.8	6.10e-06	0	43	0	340787200	20	4968
2026-01-16 03:00:53.50	338.04	15.39	-29.9	-32.5	14.0	7.00e-07	0	44	0	344981504	20	4880
2026-01-16 03:00:55.51	337.62	15.44	-29.9	-32.5	14.1	7.00e-07	0	43	0	348127232	20	4861
2026-01-16 03:00:57.51	337.20	15.49	-29.9	-32.7	13.9	2.20e-06	0	43	0	352321536	20	4931
2026-01-16 03:00:59.52	336.78	15.54	-29.9	-32.6	14.0	1.50e-06	0	43	0	356515840	20	4896
2026-01-16 03:01:01.52	336.36	15.59	-29.8	-32.4	14.1	2.20e-06	0	43	0	359661568	20	4845
2026-01-16 03:01:03.53	335.93	15.63	-29.9	-32.9	14.2	2.20e-06	0	44	0	363855872	19	5101
2026-01-16 03:01:05.52	335.51	15.67	-29.9	-33.1	14.0	3.80e-06	0	44	0	367001600	19	5184
2026-01-16 03:01:07.53	335.08	15.71	-30.0	-32.8	13.8	4.50e-06	0	43	0	371195904	20	4988
2026-01-16 03:01:09.54	334.65	15.75	-30.1	-33.2	13.6	1.14e-05	0	43	0	375390208	20	5120
2026-01-16 03:01:11.53	334.23	15.79	-30.2	-33.5	13.3	1.75e-05	0	44	0	378535936	20	5227
2026-01-16 03:01:13.53	333.80	15.83	-30.2	-33.4	13.4	1.60e-05	0	44	0	382730240	20	5198
2026-01-16 03:01:15.53	333.37	15.86	-30.2	-33.4	13.4	2.13e-05	0	43	0	385875968	20	5205
2026-01-16 03:01:17.53	332.94	15.90	-30.3	-33.5	13.4	1.75e-05	0	44	0	390070272	20	5250
2026-01-16 03:01:19.54	332.51	15.93	-30.2	-33.3	13.5	6.10e-06	0	44	0	393216000	20	5146
2026-01-16 03:01:21.54	332.07	15.96	-30.1	-33.2	13.6	1.14e-05	0	43	0	397410304	20	5116
2026-01-16 03:01:23.55	331.64	15.99	-30.1	-33.1	13.6	3.20e-04	0	43	0	401604608	20	5069
2026-01-16 03:01:25.56	331.20	16.02	-30.1	-33.2	13.6	1.06e-05	0	44	0	404750336	20	5107
2026-01-16 03:01:27.55	330.77	16.04	-30.2	-33.5	13.4	4.25e-04	0	44	0	408944640	20	5233
2026-01-16 03:01:29.55	330.33	16.06	-30.3	-33.7	13.2	2.21e-05	0	44	0	412090368	20	5326
2026-01-16 03:01:31.56	329.90	16.09	-30.3	-33.7	13.3	2.28e-05	0	43	0	416284672	20	5299
2026-01-16 03:01:33.56	329.46	16.11	-30.3	-33.8	13.2	3.46e-04	0	43	0	419430400	20	5336
2026-01-16 03:01:35.56	329.02	16.12	-30.3	-33.7	13.2	1.52e-05	0	44	0	423624704	20	5318
2026-01-16 03:01:37.56	328.58	16.14	-30.2	-33.5	13.4	1.29e-05	0	44	0	427819008	20	5228
2026-01-16 03:01:39.55	328.15	16.16	-30.3	-33.8	13.2	2.36e-05	0	44	0	430964736	20	5342
2026-01-16 03:01:41.55	327.71	16.17	-30.4	-34.1	13.0	1.88e-04	0	43	0	435159040	20	5457
2026-01-16 03:01:43.55	327.27	16.18	-30.6	-34.0	12.7	5.34e-05	0	43	0	438304768	21	5329
2026-01-16 03:01:45.55	326.83	16.19	-30.4	-33.4	13.1	3.42e-04	0	43	0	442499072	21	5079
2026-01-16 03:01:47.55	326.39	16.20	-30.3	-33.6	13.3	3.88e-04	0	44	0	446693376	20	5286
2026-01-16 03:01:49.56	325.95	16.21	-30.3	-33.5	13.3	1.67e-05	0	44	0	449839104	20	5256
2026-01-16 03:01:51.56	325.51	16.21	-30.3	-33.7	13.3	1.16e-04	0	44	0	454033408	20	5304
2026-01-16 03:01:53.55	325.07	16.22	-30.4	-33.9	13.2	4.04e-05	0	44	0	457179136	20	5375
2026-01-16 03:01:55.55	324.63	16.22	-30.4	-33.9	13.1	2.74e-05	0	44	0	461373440	20	5404
2026-01-16 03:01:57.56	324.19	16.22	-30.6	-34.0	12.7	4.65e-05	0	44	0	464519168	21	5338
2026-01-16 03:01:59.55	323.75	16.22	-30.5	-34.1	13.0	4.25e-04	0	44	0	468713472	20	5458
2026-01-16 03:02:01.55	323.31	16.21	-30.6	-34.1	12.6	8.54e-05	0	44	0	472907776	21	5379
2026-01-16 03:02:03.56	322.86	16.21	-30.6	-33.9	12.8	4.63e-04	0	44	0	476053504	21	5271
2026-01-16 03:02:05.56	322.42	16.20	-30.7	-34.4	12.4	3.65e-04	0	43	0	480247808	21	5492
2026-01-16 03:02:07.57	321.98	16.19	-30.7	-34.2	12.5	9.00e-05	0	44	0	483393536	21	5419
2026-01-16 03:02:09.57	321.54	16.18	-30.5	-33.8	12.8	7.17e-05	0	44	0	487587840	21	5258
2026-01-16 03:02:11.57	321.10	16.17	-30.4	-33.5	13.0	4.88e-05	0	44	0	490733568	21	5135
2026-01-16 03:02:13.58	320.66	16.15	-30.6	-34.0	12.7	6.40e-05	0	44	0	494927872	21	5313
2026-01-16 03:02:15.59	320.22	16.14	-30.8	-34.5	12.4	6.34e-04	0	44	0	499122176	21	5511
2026-01-16 03:02:17.59	319.78	16.12	-30.5	-33.7	13.0	4.47e-04	0	44	0	502267904	21	5198
2026-01-16 03:02:19.59	319.35	16.10	-30.4	-33.8	13.2	2.82e-05	0	44	0	506462208	20	5359
2026-01-16 03:02:21.60	318.91	16.08	-30.3	-33.7	13.2	2.72e-04	0	44	0	509607936	20	5324
2026-01-16 03:02:23.60	318.47	16.06	-30.2	-33.5	13.4	1.59e-04	0	44	0	513802240	20	5226
2026-01-16 03:02:25.60	318.03	16.04	-30.1	-33.2	13.5	9.90e-06	0	44	0	517996544	20	5145
2026-01-16 03:02:27.59	317.60	16.01	-30.1	-33.1	13.6	6.80e-06	0	44	0	521142272	20	5081
2026-01-16 03:02:29.59	317.17	15.98	-30.1	-33.1	13.6	6.80e-06	0	44	0	525336576	20	5100
2026-01-16 03:02:31.60	316.73	15.95	-30.2	-33.4	13.5	1.29e-05	0	44	0	528482304	20	5192
2026-01-16 03:02:33.60	316.30	15.92	-30.3	-33.5	13.3	1.67e-05	0	44	0	532676608	20	5252
2026-01-16 03:02:35.61	315.86	15.89	-30.1	-33.2	13.6	5.30e-06	0	44	0	535822336	20	5123
2026-01-16 03:02:37.61	315.43	15.86	-30.0	-33.0	13.7	6.10e-06	0	44	0	540016640	20	5042
2026-01-16 03:02:39.62	315.00	15.82	-30.1	-33.1	13.6	6.80e-06	0	44	0	544210944	20	5089
2026-01-16 03:02:41.62	314.57	15.78	-30.1	-33.1	13.6	1.69e-04	0	44	0	547356672	20	5080
2026-01-16 03:02:43.62	314.15	15.75	-30.1	-33.2	13.6	8.30e-06	0	44	0	551550976	20	5135
2026-01-16 03:02:45.62	313.72	15.71	-30.1	-33.1	13.6	4.81e-04	0	44	0	554696704	20	5113
2026-01-16 03:02:47.62	313.29	15.67	-29.9	-33.1	14.0	5.32e-04	0	44	0	558891008	19	5188
2026-01-16 03:02:49.62	312.87	15.62	-29.9	-33.2	13.9	4.50e-06	0	44	0	562036736	19	5212
2026-01-16 03:02:51.63	312.44	15.58	-30.0	-32.9	13.7	3.50e-04	0	44	0	566231040	20	5033
2026-01-16 03:02:53.63	312.02	15.53	-30.0	-32.9	13.7	4.50e-06	0	44	0	570425344	20	5007
2026-01-16 03:02:55.64	311.60	15.48	-30.2	-33.5	13.3	7.60e-06	0	44	0	573571072	20	5247
2026-01-16 03:02:57.64	311.18	15.43	-30.0	-32.9	13.7	8.30e-06	0	44	0	577765376	20	5020
2026-01-16 03:02:59.64	310.76	15.38	-29.9	-33.1	14.0	1.50e-06	0	44	0	580911104	19	5194
2026-01-16 03:03:01.65	310.35	15.33	-29.9	-33.2	13.9	3.80e-06	0	44	0	585105408	19	5233
2026-01-16 03:03:03.65	309.93	15.28	-30.0	-33.1	13.6	3.00e-06	0	44	0	589299712	20	5089
2026-01-16 03:03:05.65	309.52	15.22	-30.1	-33.3	13.4	1.43e-03	0	44	0	592445440	20	5172
2026-01-16 03:03:07.65	309.11	15.17	-30.2	-33.5	13.3	1.06e-05	0	44	0	596639744	20	5236
2026-01-16 03:03:09.65	308.70	15.11	-30.3	-33.6	13.2	1.31e-03	0	44	0	599785472	20	5298
2026-01-16 03:03:11.65	308.29	15.05	-30.3	-33.7	13.1	3.35e-05	0	44	0	603979776	20	5320
2026-01-16 03:03:13.64	307.88	14.99	-30.2	-33.6	13.2	2.13e-05	0	44	0	607125504	20	5285
2026-01-16 03:03:15.65	307.48	14.93	-30.3	-33.7	13.1	4.27e-05	0	44	0	611319808	20	5340
2026-01-16 03:03:17.65	307.07	14.87	-30.2	-33.4	13.3	2.05e-05	0	44	0	615514112	20	5213
2026-01-16 03:03:19.65	306.67	14.80	-30.3	-33.7	13.1	2.28e-05	0	44	0	618659840	20	5337
2026-01-16 03:03:21.65	306.27	14.74	-30.3	-33.7	13.1	3.89e-05	0	43	0	622854144	20	5337
2026-01-16 03:03:23.66	305.87	14.67	-30.3	-33.9	12.9	4.88e-05	0	44	0	625999872	20	5414
2026-01-16 03:03:25.66	305.48	14.61	-30.1	-33.3	13.3	1.37e-05	0	44	0	630194176	20	5179
2026-01-16 03:03:27.66	305.08	14.54	-30.0	-32.8	13.6	6.80e-06	0	44	0	634388480	20	5017
2026-01-16 03:03:29.66	304.69	14.47	-29.9	-33.2	13.7	3.00e-06	0	44	0	637534208	19	5238
2026-01-16 03:03:31.67	304.29	14.40	-29.9	-33.0	13.8	3.00e-06	0	44	0	641728512	19	5193
2026-01-16 03:03:33.67	303.91	14.32	-30.1	-33.3	13.3	9.90e-06	0	44	0	644874240	20	5188
2026-01-16 03:03:35.67	303.52	14.25	-30.1	-33.3	13.3	1.60e-05	0	44	0	649068544	20	5187
2026-01-16 03:03:37.67	303.13	14.18	-30.2	-33.5	13.1	2.82e-05	0	44	0	652214272	20	5292
2026-01-16 03:03:39.68	302.75	14.10	-30.0	-32.9	13.5	1.75e-05	0	44	0	656408576	20	5051
2026-01-16 03:03:41.68	302.37	14.02	-30.1	-33.2	12.8	1.22e-05	0	44	0	660602880	20	5147
2026-01-16 03:03:43.69	301.99	13.95	-30.1	-33.1	13.3	1.67e-05	0	44	0	663748608	20	5134
2026-01-16 03:03:45.70	301.61	13.87	-30.1	-33.3	13.2	1.44e-05	0	44	0	667942912	20	5197
2026-01-16 03:03:47.70	301.23	13.79	-30.3	-33.7	12.9	1.20e-03	0	44	0	671088640	20	5361
2026-01-16 03:03:49.71	300.86	13.71	-29.9	-32.8	13.5	1.29e-05	0	44	0	675282944	20	5018
2026-01-16 03:03:51.70	300.49	13.63	-29.9	-32.8	13.6	9.90e-06	0	44	0	679477248	20	4994
2026-01-16 03:03:53.71	300.12	13.55	-29.9	-33.3	13.6	9.10e-06	0	44	0	682622976	19	5286
2026-01-16 03:03:55.71	299.75	13.46	-30.2	-33.5	13.1	3.28e-05	0	44	0	686817280	20	5285
2026-01-16 03:03:57.72	299.38	13.38	-29.8	-32.6	13.7	1.44e-05	0	44	0	689963008	20	4927
2026-01-16 03:03:59.73	299.02	13.29	-29.9	-33.1	13.7	7.60e-06	0	44	0	694157312	19	5227
2026-01-16 03:04:01.74	298.66	13.21	-30.1	-33.3	13.2	1.57e-03	0	44	0	698351616	20	5188
2026-01-16 03:04:03.74	298.30	13.12	-30.2	-33.5	13.0	1.60e-05	0	44	0	701497344	20	5298
2026-01-16 03:04:05.74	297.94	13.03	-30.3	-33.9	12.7	1.36e-03	0	44	0	705691648	20	5468
2026-01-16 03:04:07.75	297.59	12.94	-30.4	-34.2	12.6	5.72e-05	0	44	0	708837376	20	5568
2026-01-16 03:04:09.75	297.23	12.86	-30.5	-34.4	12.4	9.46e-05	0	44	0	713031680	20	5644
2026-01-16 03:04:11.75	296.88	12.77	-30.3	-34.0	12.7	5.58e-04	0	44	0	716177408	20	5494
2026-01-16 03:04:13.75	296.54	12.68	-30.4	-34.1	12.6	8.39e-05	0	44	0	720371712	20	5540
2026-01-16 03:04:15.76	296.19	12.59	-30.8	-34.7	11.8	3.30e-04	0	44	0	724566016	21	5694
2026-01-16 03:04:17.76	295.84	12.49	-30.8	-34.9	11.7	4.52e-04	0	44	0	727711744	21	5757
2026-01-16 03:04:19.76	295.50	12.40	-30.6	-34.4	12.0	1.09e-03	0	44	0	731906048	21	5563
2026-01-16 03:04:21.76	295.16	12.31	-30.7	-34.5	12.0	3.23e-04	0	44	0	735051776	21	5573
2026-01-16 03:04:23.76	294.83	12.22	-30.7	-34.7	11.8	1.88e-03	0	44	0	739246080	21	5701
2026-01-16 03:04:25.76	294.49	12.12	-30.9	-35.1	11.5	2.40e-03	0	44	0	742391808	21	5884
2026-01-16 03:04:27.76	294.16	12.03	-30.9	-35.4	11.2	9.31e-04	0	44	0	746586112	21	6010
2026-01-16 03:04:29.77	293.83	11.93	-31.0	-35.2	11.0	3.09e-03	0	44	0	750780416	22	5831
2026-01-16 03:04:31.77	293.50	11.84	-31.1	-35.3	10.9	2.72e-03	0	44	0	753926144	22	5875
2026-01-16 03:04:33.77	293.17	11.74	-31.0	-35.2	11.0	1.77e-03	0	44	0	758120448	22	5813
2026-01-16 03:04:35.77	292.85	11.64	-31.1	-35.6	10.7	5.21e-03	0	44	0	761266176	22	6047
2026-01-16 03:04:37.77	292.53	11.54	-31.2	-35.9	10.4	6.77e-03	0	44	0	765460480	22	6194
2026-01-16 03:04:39.78	292.20	11.45	-31.4	-36.6	9.9	8.74e-03	0	44	0	769654784	22	6557
2026-01-16 03:04:41.78	291.89	11.35	-31.7	-37.0	9.2	1.54e-02	0	44	0	772800512	23	6654
2026-01-16 03:04:43.77	291.57	11.25	-31.7	-37.3	9.0	1.95e-02	0	44	0	776994816	23	6816
2026-01-16 03:04:45.77	291.26	11.15	-31.5	-36.4	9.7	1.24e-02	0	44	0	780140544	23	6345
2026-01-16 03:04:47.76	290.95	11.05	-31.3	-36.1	10.3	6.32e-03	0	44	0	784334848	22	6265
2026-01-16 03:04:49.78	290.64	10.95	-31.3	-36.1	10.3	5.87e-03	0	44	0	787480576	22	6284
2026-01-16 03:04:51.78	290.33	10.85	-31.2	-35.8	10.5	3.65e-03	0	44	0	791674880	22	6102
2026-01-16 03:04:53.77	290.03	10.75	-31.1	-35.7	10.6	3.77e-03	0	44	0	795869184	22	6059
2026-01-16 03:04:55.78	289.72	10.65	-31.2	-36.0	10.4	5.47e-03	0	44	0	799014912	22	6199
2026-01-16 03:04:57.78	289.42	10.55	-31.2	-36.0	10.3	6.01e-03	0	44	0	803209216	22	6238
2026-01-16 03:04:59.79	289.12	10.44	-31.2	-36.0	10.2	5.32e-03	0	44	0	806354944	22	6260
2026-01-16 03:05:01.79	288.83	10.34	-31.2	-36.1	10.2	5.91e-03	0	44	0	810549248	22	6306
2026-01-16 03:05:03.80	288.53	10.24	-31.2	-35.8	10.4	4.13e-03	0	44	0	813694976	22	6151
2026-01-16 03:05:05.81	288.24	10.14	-31.2	-36.1	10.2	4.80e-03	0	44	0	817889280	22	6282
2026-01-16 03:05:07.81	287.95	10.03	-31.2	-36.0	10.2	5.72e-03	0	44	0	822083584	22	6261
2026-01-16 03:05:09.81	287.66	9.93	-31.1	-35.8	10.3	5.73e-03	0	44	0	825229312	22	6175
2026-01-16 03:05:11.82	287.37	9.83	-31.1	-35.8	10.4	7.89e-03	0	44	0	829423616	22	6144
2026-01-16 03:05:13.82	287.09	9.72	-31.1	-35.8	10.3	4.08e-03	0	44	0	832569344	22	6157
2026-01-16 03:05:15.83	286.81	9.62	-31.0	-35.3	10.6	3.66e-03	0	44	0	836763648	22	5942
2026-01-16 03:05:17.83	286.53	9.51	-30.9	-35.2	10.7	3.60e-03	0	44	0	840957952	22	5892
2026-01-16 03:05:19.83	286.25	9.41	-30.8	-35.2	11.0	4.58e-03	0	44	0	844103680	21	6002
2026-01-16 03:05:21.84	285.97	9.30	-30.9	-35.7	10.6	2.49e-03	0	44	0	848297984	21	6237
2026-01-16 03:05:23.84	285.70	9.20	-30.8	-35.4	10.8	2.87e-03	0	44	0	851443712	21	6099
2026-01-16 03:05:25.84	285.43	9.09	-30.9	-35.6	10.6	2.74e-03	0	44	0	855638016	21	6220
2026-01-16 03:05:27.84	285.16	8.99	-30.9	-35.7	10.6	3.24e-03	0	44	0	858783744	21	6237
2026-01-16 03:05:29.84	284.89	8.88	-30.8	-35.4	10.8	2.39e-03	0	44	0	862978048	21	6113
2026-01-16 03:05:31.85	284.62	8.78	-30.7	-35.2	10.9	2.09e-03	0	44	0	867172352	21	6022
2026-01-16 03:05:33.85	284.36	8.67	-30.6	-34.8	11.2	1.30e-03	0	44	0	870318080	21	5812
2026-01-16 03:05:35.85	284.10	8.56	-30.6	-34.8	11.2	1.15e-03	0	44	0	874512384	21	5835
2026-01-16 03:05:37.86	283.83	8.46	-30.6	-34.9	11.1	1.47e-03	0	44	0	877658112	21	5885
2026-01-16 03:05:39.87	283.57	8.35	-30.5	-34.5	11.3	1.06e-03	0	44	0	881852416	21	5704
2026-01-16 03:05:41.88	283.32	8.24	-30.6	-34.8	11.1	1.58e-03	0	44	0	886046720	21	5835
2026-01-16 03:05:43.88	283.06	8.14	-30.4	-34.6	11.6	6.60e-04	0	44	0	889192448	20	5853
2026-01-16 03:05:45.87	282.81	8.03	-30.4	-34.6	11.6	6.55e-04	0	44	0	893386752	20	5869
2026-01-16 03:05:47.87	282.56	7.93	-30.4	-34.6	11.6	7.97e-04	0	44	0	896532480	20	5848
2026-01-16 03:05:49.88	282.31	7.82	-30.2	-34.6	11.3	7.26e-04	0	44	0	900726784	20	6005
2026-01-16 03:05:51.87	282.07	7.71	-30.2	-34.1	11.8	4.46e-04	0	44	0	903872512	20	5659
2026-01-16 03:05:53.87	281.82	7.61	-30.3	-34.5	11.6	3.72e-04	0	44	0	908066816	20	5829
2026-01-16 03:05:55.88	281.58	7.50	-30.1	-33.8	12.0	2.84e-04	0	44	0	912261120	20	5511
2026-01-16 03:05:57.89	281.33	7.39	-30.3	-34.5	11.6	8.78e-04	0	44	0	915406848	20	5834
2026-01-16 03:05:59.87	281.10	7.29	-30.4	-34.6	11.5	6.02e-04	0	44	0	919601152	20	5854
2026-01-16 03:06:01.87	280.86	7.18	-30.3	-34.3	11.7	5.63e-04	0	44	0	922746880	20	5720
2026-01-16 03:06:03.87	280.62	7.07	-30.2	-34.0	11.9	3.81e-04	0	44	0	926941184	20	5612
2026-01-16 03:06:05.86	280.39	6.97	-33.5	-48.0	3.8	1.49e+00	0	44	104	927989760	26	19248

#Closed at: 2026-01-16 03:06:06
#Recorded file [927 MB]: D:/data/31010_260116_055749.dat