passes_logs/2026/01/16/R2M6_AANII_01/R2M6_AANII_01__20260116_101000_FENGYUN_3D_rec.log

#Pass ID: 20260116_101000_FENGYUN 3D
#Satellite: FENGYUN 3D
#Configuration: FENGYUN 3D
#almurnet v.1.7.20240730
#Start time: 2026-01-16 10:09:59

#Version: 2.2.20231116
#Station: R2M6_AANII_01
#Location: 30.233357 lon 59.946436 lat
#TLE: 1 43010U 17072A   26015.49690188 -.00000192  00000+0 -69217-4 0  9996
#TLE: 2 43010  98.9932 347.3205 0002350 106.2275 253.9159 14.19694721423329

#Time	Az	El	Level	Level2	SNR	BER	BlckErr	Temp	State	Recorded	gain1	gain2
2026-01-16 10:09:59.32	92.12	6.96	-31.7	-42.4	3.8	8.45e-01	0	40	0	0	23	12357
2026-01-16 10:10:02.32	91.81	7.14	-31.2	-38.1	4.1	8.41e-01	0	41	104	0	23	7962
2026-01-16 10:10:05.33	91.50	7.32	-30.4	-34.3	7.1	2.17e-01	0	40	0	8388608	22	5663
2026-01-16 10:10:08.34	91.19	7.50	-29.8	-33.2	8.7	4.22e-02	0	41	0	25165824	20	5330
2026-01-16 10:10:11.35	90.87	7.68	-30.4	-34.7	8.0	8.53e-02	0	41	0	41943040	20	5933
2026-01-16 10:10:14.34	90.55	7.87	-28.8	-30.7	11.3	3.11e-03	0	41	0	59768832	19	4469
2026-01-16 10:10:17.34	90.22	8.05	-27.5	-29.0	13.3	3.66e-05	0	41	0	76546048	16	4278
2026-01-16 10:10:20.35	89.89	8.23	-27.0	-28.4	13.8	1.02e-05	0	41	0	93323264	15	4201
2026-01-16 10:10:23.37	89.55	8.42	-26.9	-28.1	14.1	8.00e-06	0	41	0	110100480	15	4138
2026-01-16 10:10:26.38	89.21	8.60	-26.9	-28.6	14.2	1.10e-06	0	41	0	126877696	14	4371
2026-01-16 10:10:29.38	88.87	8.79	-27.0	-28.8	14.1	9.10e-06	0	41	0	143654912	14	4437
2026-01-16 10:10:32.38	88.52	8.97	-26.9	-28.6	14.2	6.80e-06	0	42	0	160432128	14	4360
2026-01-16 10:10:35.39	88.16	9.16	-26.9	-28.6	14.2	1.10e-06	0	41	0	177209344	14	4367
2026-01-16 10:10:38.39	87.80	9.35	-27.0	-28.8	14.2	6.80e-06	0	41	0	195035136	14	4425
2026-01-16 10:10:41.41	87.44	9.53	-26.6	-28.0	14.7	3.40e-06	0	42	0	211812352	14	4187
2026-01-16 10:10:44.41	87.07	9.72	-27.0	-28.7	14.3	1.10e-06	0	41	0	228589568	14	4380
2026-01-16 10:10:47.40	86.70	9.91	-26.6	-27.9	14.8	1.10e-06	0	42	0	245366784	14	4177
2026-01-16 10:10:50.42	86.32	10.09	-26.6	-27.8	14.9	0.00e+00	0	42	0	262144000	14	4133
2026-01-16 10:10:53.42	85.94	10.28	-26.8	-28.2	14.7	0.00e+00	0	42	0	278921216	14	4231
2026-01-16 10:10:56.42	85.55	10.47	-26.7	-28.1	14.7	1.10e-06	0	42	0	295698432	14	4225
2026-01-16 10:10:59.44	85.16	10.66	-26.6	-27.7	14.9	0.00e+00	0	42	0	312475648	14	4120
2026-01-16 10:11:02.44	84.76	10.85	-26.4	-27.5	15.1	0.00e+00	0	42	0	330301440	14	4047
2026-01-16 10:11:05.44	84.36	11.03	-26.4	-27.3	15.2	0.00e+00	0	42	0	347078656	14	4008
2026-01-16 10:11:08.45	83.95	11.22	-26.5	-27.6	15.1	1.10e-06	0	42	0	363855872	14	4090
2026-01-16 10:11:11.45	83.54	11.41	-26.4	-27.4	15.2	0.00e+00	0	42	0	380633088	14	4026
2026-01-16 10:11:14.46	83.12	11.60	-26.4	-27.3	15.3	0.00e+00	0	42	0	397410304	14	3990
2026-01-16 10:11:17.45	82.70	11.78	-26.2	-27.5	15.4	0.00e+00	0	42	0	414187520	13	4157
2026-01-16 10:11:20.46	82.27	11.97	-26.2	-27.4	15.5	0.00e+00	0	42	0	430964736	13	4139
2026-01-16 10:11:23.47	81.83	12.16	-26.2	-27.4	15.5	0.00e+00	0	42	0	447741952	13	4136
2026-01-16 10:11:26.49	81.39	12.35	-26.2	-27.4	15.5	0.00e+00	0	42	0	465567744	13	4135
2026-01-16 10:11:29.50	80.94	12.54	-26.1	-27.2	15.7	0.00e+00	0	42	0	482344960	13	4075
2026-01-16 10:11:32.51	80.48	12.72	-26.4	-27.7	15.3	0.00e+00	0	43	0	499122176	13	4218
2026-01-16 10:11:35.51	80.03	12.91	-26.3	-27.6	15.5	1.10e-06	0	42	0	515899392	13	4171
2026-01-16 10:11:38.51	79.56	13.09	-26.4	-27.8	15.4	0.00e+00	0	42	0	532676608	13	4240
2026-01-16 10:11:41.51	79.09	13.28	-26.0	-27.0	15.8	0.00e+00	0	42	0	549453824	13	4019
2026-01-16 10:11:44.51	78.62	13.46	-25.8	-26.6	16.0	0.00e+00	0	43	0	566231040	13	3921
2026-01-16 10:11:47.52	78.13	13.65	-25.7	-26.8	16.2	0.00e+00	0	42	0	584056832	12	4073
2026-01-16 10:11:50.54	77.64	13.83	-25.7	-26.7	16.3	1.10e-06	0	42	0	600834048	12	4050
2026-01-16 10:11:53.54	77.15	14.02	-26.0	-27.4	15.9	0.00e+00	0	43	0	617611264	12	4237
2026-01-16 10:11:56.55	76.65	14.20	-26.2	-27.8	15.7	0.00e+00	0	42	0	634388480	12	4359
2026-01-16 10:11:59.56	76.14	14.38	-26.2	-27.9	15.6	0.00e+00	0	42	0	651165696	12	4381
2026-01-16 10:12:02.58	75.62	14.56	-25.9	-27.3	16.0	1.10e-06	0	42	0	667942912	12	4198
2026-01-16 10:12:05.58	75.10	14.74	-25.7	-26.8	16.3	0.00e+00	0	43	0	684720128	12	4088
2026-01-16 10:12:08.59	74.57	14.92	-25.4	-26.6	16.8	0.00e+00	0	42	0	701497344	11	4132
2026-01-16 10:12:11.59	74.04	15.10	-25.5	-26.9	16.6	0.00e+00	0	42	0	719323136	11	4204
2026-01-16 10:12:14.60	73.50	15.27	-25.6	-27.0	16.7	1.10e-06	0	43	0	736100352	11	4210
2026-01-16 10:12:17.61	72.96	15.45	-25.4	-26.5	16.9	0.00e+00	0	43	0	752877568	11	4096
2026-01-16 10:12:20.63	72.40	15.62	-25.3	-26.3	17.1	0.00e+00	0	42	0	769654784	11	4031
2026-01-16 10:12:23.64	71.84	15.79	-25.3	-26.4	17.0	0.00e+00	0	42	0	786432000	11	4052
2026-01-16 10:12:26.63	71.28	15.96	-25.5	-26.7	16.8	0.00e+00	0	42	0	803209216	11	4145
2026-01-16 10:12:29.64	70.71	16.13	-25.2	-26.2	17.1	0.00e+00	0	43	0	819986432	11	4017
2026-01-16 10:12:32.65	70.13	16.30	-25.5	-26.8	16.8	0.00e+00	0	43	0	836763648	11	4174
2026-01-16 10:12:35.66	69.54	16.46	-25.6	-27.0	16.7	0.00e+00	0	42	0	854589440	11	4219
2026-01-16 10:12:38.67	68.95	16.63	-25.6	-26.9	16.8	0.00e+00	0	42	0	871366656	11	4185
2026-01-16 10:12:41.66	68.35	16.79	-25.5	-26.8	16.9	0.00e+00	0	43	0	888143872	11	4163
2026-01-16 10:12:44.66	67.75	16.95	-25.1	-25.9	17.3	0.00e+00	0	42	0	904921088	11	3951
2026-01-16 10:12:47.65	67.14	17.10	-24.9	-25.5	17.5	0.00e+00	0	42	0	921698304	11	3843
2026-01-16 10:12:50.67	66.53	17.26	-25.0	-25.7	17.4	0.00e+00	0	43	0	938475520	11	3902
2026-01-16 10:12:53.69	65.90	17.41	-25.1	-25.9	17.3	0.00e+00	0	43	0	955252736	11	3931
2026-01-16 10:12:56.70	65.27	17.56	-25.4	-26.6	17.0	0.00e+00	0	43	0	972029952	11	4111
2026-01-16 10:12:59.70	64.63	17.70	-25.5	-26.6	17.0	0.00e+00	0	43	0	989855744	11	4121
2026-01-16 10:13:02.72	63.99	17.85	-25.4	-26.6	17.0	0.00e+00	0	42	0	1006632960	11	4101
2026-01-16 10:13:05.73	63.34	17.99	-25.1	-25.9	17.4	0.00e+00	0	43	0	1023410176	11	3928
2026-01-16 10:13:08.72	62.69	18.12	-24.8	-25.7	17.8	0.00e+00	0	43	0	1040187392	10	3984
2026-01-16 10:13:11.73	62.03	18.26	-25.0	-26.2	17.5	0.00e+00	0	43	0	1056964608	10	4131
2026-01-16 10:13:14.73	61.37	18.39	-24.8	-25.8	17.7	0.00e+00	0	43	0	1073741824	10	4024
2026-01-16 10:13:17.74	60.69	18.52	-24.8	-25.8	17.7	0.00e+00	0	43	0	1090519040	10	4020
2026-01-16 10:13:20.74	60.02	18.64	-25.0	-26.1	17.6	0.00e+00	0	43	0	1107296256	10	4096
2026-01-16 10:13:23.74	59.34	18.76	-24.8	-25.8	17.7	0.00e+00	0	43	0	1125122048	10	4014
2026-01-16 10:13:26.75	58.65	18.88	-24.5	-25.0	18.2	0.00e+00	0	43	0	1141899264	10	3823
2026-01-16 10:13:29.76	57.95	18.99	-24.4	-24.9	18.2	0.00e+00	0	43	0	1158676480	10	3798
2026-01-16 10:13:32.77	57.25	19.10	-24.1	-24.7	18.5	0.00e+00	0	43	0	1175453696	9	3870
2026-01-16 10:13:35.77	56.55	19.21	-24.3	-25.1	18.3	0.00e+00	0	43	0	1192230912	9	3969
2026-01-16 10:13:38.77	55.85	19.31	-24.2	-24.9	18.4	0.00e+00	0	42	0	1209008128	9	3920
2026-01-16 10:13:41.77	55.13	19.40	-24.2	-25.0	18.4	0.00e+00	0	43	0	1225785344	9	3931
2026-01-16 10:13:44.77	54.42	19.50	-24.1	-24.8	18.5	0.00e+00	0	43	0	1242562560	9	3876
2026-01-16 10:13:47.78	53.70	19.58	-24.3	-25.1	18.4	0.00e+00	0	43	0	1260388352	9	3967
2026-01-16 10:13:50.79	52.97	19.67	-24.2	-24.9	18.5	0.00e+00	0	43	0	1277165568	9	3912
2026-01-16 10:13:53.80	52.24	19.75	-24.3	-25.2	18.4	0.00e+00	0	43	0	1293942784	9	3972
2026-01-16 10:13:56.80	51.51	19.82	-24.3	-25.1	18.4	0.00e+00	0	43	0	1310720000	9	3958
2026-01-16 10:13:59.81	50.77	19.89	-24.2	-24.9	18.5	0.00e+00	0	43	0	1327497216	9	3917
2026-01-16 10:14:02.82	50.03	19.96	-24.1	-24.8	18.6	0.00e+00	0	43	0	1344274432	9	3875
2026-01-16 10:14:05.82	49.29	20.02	-24.2	-25.0	18.4	0.00e+00	0	43	0	1361051648	9	3940
2026-01-16 10:14:08.83	48.54	20.07	-24.1	-24.6	18.6	0.00e+00	0	43	0	1378877440	9	3852
2026-01-16 10:14:11.82	47.80	20.12	-24.0	-24.5	18.7	0.00e+00	0	43	0	1395654656	9	3824
2026-01-16 10:14:14.82	47.05	20.17	-24.0	-24.5	18.7	0.00e+00	0	43	0	1412431872	9	3810
2026-01-16 10:14:17.83	46.30	20.21	-24.2	-24.9	18.5	0.00e+00	0	43	0	1429209088	9	3906
2026-01-16 10:14:20.83	45.55	20.24	-24.1	-24.8	18.6	0.00e+00	0	43	0	1445986304	9	3880
2026-01-16 10:14:23.84	44.79	20.27	-24.3	-25.2	18.4	0.00e+00	0	43	0	1462763520	9	3989
2026-01-16 10:14:26.84	44.03	20.30	-24.2	-25.0	18.5	0.00e+00	0	43	0	1479540736	9	3936
2026-01-16 10:14:29.85	43.27	20.32	-24.1	-24.7	18.6	0.00e+00	0	43	0	1496317952	9	3866
2026-01-16 10:14:32.86	42.51	20.33	-24.0	-24.6	18.7	0.00e+00	0	43	0	1513095168	9	3831
2026-01-16 10:14:35.86	41.76	20.34	-24.0	-24.4	18.7	0.00e+00	0	43	0	1529872384	9	3802
2026-01-16 10:14:38.86	41.00	20.34	-23.9	-24.3	18.8	0.00e+00	0	43	0	1546649600	9	3775
2026-01-16 10:14:41.85	40.24	20.34	-24.0	-24.5	18.8	0.00e+00	0	43	0	1564475392	9	3813
2026-01-16 10:14:44.85	39.48	20.33	-24.0	-24.6	18.7	0.00e+00	0	43	0	1581252608	9	3827
2026-01-16 10:14:47.86	38.72	20.32	-24.3	-25.1	18.4	0.00e+00	0	43	0	1598029824	9	3951
2026-01-16 10:14:50.87	37.97	20.30	-24.4	-25.3	18.3	0.00e+00	0	43	0	1614807040	9	3999
2026-01-16 10:14:53.88	37.21	20.28	-24.2	-25.0	18.5	0.00e+00	0	43	0	1631584256	9	3926
2026-01-16 10:14:56.89	36.45	20.25	-24.2	-24.9	18.5	0.00e+00	0	43	0	1648361472	9	3906
2026-01-16 10:14:59.90	35.70	20.22	-24.2	-24.9	18.5	0.00e+00	0	43	0	1665138688	9	3921
2026-01-16 10:15:02.92	34.94	20.18	-24.2	-25.0	18.4	0.00e+00	0	43	0	1681915904	9	3936
2026-01-16 10:15:05.91	34.19	20.14	-24.0	-24.5	18.7	0.00e+00	0	43	0	1699741696	9	3824
2026-01-16 10:15:08.92	33.44	20.09	-24.0	-25.0	18.7	0.00e+00	0	43	0	1716518912	8	4050
2026-01-16 10:15:11.91	32.70	20.04	-23.9	-24.8	18.8	0.00e+00	0	43	0	1733296128	8	3986
2026-01-16 10:15:14.91	31.96	19.98	-24.0	-24.9	18.7	0.00e+00	0	43	0	1750073344	8	4021
2026-01-16 10:15:17.91	31.22	19.91	-23.9	-24.8	18.8	0.00e+00	0	43	0	1766850560	8	4001
2026-01-16 10:15:20.91	30.49	19.85	-24.0	-25.1	18.7	0.00e+00	0	43	0	1783627776	8	4064
2026-01-16 10:15:23.92	29.75	19.77	-24.1	-25.2	18.6	0.00e+00	0	43	0	1800404992	8	4087
2026-01-16 10:15:26.94	29.02	19.70	-24.1	-25.3	18.6	0.00e+00	0	43	0	1817182208	8	4107
2026-01-16 10:15:29.93	28.30	19.61	-23.9	-24.9	18.7	1.74e-04	0	43	0	1835008000	8	4011
2026-01-16 10:15:32.92	27.58	19.53	-24.0	-24.9	18.7	0.00e+00	0	43	0	1851785216	8	4022
2026-01-16 10:15:35.92	26.87	19.44	-24.3	-25.6	18.4	0.00e+00	0	43	0	1868562432	8	4181
2026-01-16 10:15:38.92	26.15	19.34	-24.3	-25.7	18.4	1.52e-04	0	43	0	1885339648	8	4210
2026-01-16 10:15:41.93	25.45	19.24	-24.4	-25.4	18.2	1.48e-04	0	43	0	1902116864	9	4021
2026-01-16 10:15:44.95	24.74	19.14	-24.0	-24.5	18.7	0.00e+00	0	43	0	1918894080	9	3826
2026-01-16 10:15:47.96	24.04	19.03	-24.2	-24.9	18.5	1.40e-04	0	43	0	1935671296	9	3912
2026-01-16 10:15:50.95	23.35	18.92	-24.3	-25.1	18.3	1.51e-04	0	43	0	1952448512	9	3967
2026-01-16 10:15:53.96	22.66	18.80	-24.3	-25.2	18.3	1.09e-04	0	43	0	1969225728	9	3988
2026-01-16 10:15:56.96	21.98	18.68	-24.4	-25.4	18.2	0.00e+00	0	43	0	1986002944	9	4037
2026-01-16 10:15:59.97	21.30	18.56	-24.4	-25.4	18.2	1.90e-04	0	43	0	2003828736	9	4041
2026-01-16 10:16:02.98	20.63	18.43	-24.7	-26.0	17.9	1.48e-04	0	43	0	2020605952	9	4177
2026-01-16 10:16:05.99	19.96	18.30	-24.5	-25.5	18.1	0.00e+00	0	43	0	2037383168	9	4062
2026-01-16 10:16:08.99	19.30	18.17	-24.6	-25.8	18.0	0.00e+00	0	43	0	2054160384	9	4134
2026-01-16 10:16:11.99	18.65	18.04	-24.6	-25.8	17.9	2.59e-04	0	43	0	2070937600	9	4139
2026-01-16 10:16:15.01	18.00	17.90	-25.0	-26.6	17.6	1.69e-04	0	43	0	2087714816	9	4326
2026-01-16 10:16:18.02	17.36	17.75	-25.0	-26.6	17.5	0.00e+00	0	43	0	2104492032	9	4333
2026-01-16 10:16:21.03	16.72	17.61	-25.0	-26.2	17.5	0.00e+00	0	43	0	2122317824	10	4111
2026-01-16 10:16:24.03	16.09	17.46	-24.8	-25.7	17.7	1.94e-04	0	43	0	2139095040	10	4004
2026-01-16 10:16:27.04	15.47	17.31	-24.9	-26.5	17.5	0.00e+00	0	43	0	2155872256	9	4310
2026-01-16 10:16:30.07	14.84	17.16	-25.0	-26.0	17.5	0.00e+00	0	43	0	2172649472	10	4074
2026-01-16 10:16:33.08	14.23	17.00	-24.9	-25.9	17.6	0.00e+00	0	43	0	2189426688	10	4034
2026-01-16 10:16:36.08	13.63	16.84	-25.1	-26.3	17.4	0.00e+00	0	43	0	2206203904	10	4140
2026-01-16 10:16:39.09	13.03	16.68	-25.0	-26.1	17.5	0.00e+00	0	43	0	2224029696	10	4095
2026-01-16 10:16:42.09	12.44	16.52	-25.1	-26.3	17.4	0.00e+00	0	43	0	2240806912	10	4134
2026-01-16 10:16:45.09	11.86	16.36	-25.0	-26.1	17.5	0.00e+00	0	43	0	2257584128	10	4094
2026-01-16 10:16:48.11	11.28	16.19	-25.2	-26.6	17.2	0.00e+00	0	43	0	2274361344	10	4228
2026-01-16 10:16:51.12	10.70	16.03	-25.1	-26.3	17.3	0.00e+00	0	43	0	2291138560	10	4142
2026-01-16 10:16:54.13	10.14	15.86	-25.1	-26.4	17.3	0.00e+00	0	43	0	2307915776	10	4168
2026-01-16 10:16:57.14	9.58	15.68	-25.3	-26.9	17.0	0.00e+00	0	43	0	2324692992	10	4297
2026-01-16 10:17:00.14	9.03	15.51	-25.2	-26.6	17.1	0.00e+00	0	43	0	2341470208	10	4232
2026-01-16 10:17:03.16	8.48	15.34	-25.3	-26.7	17.1	0.00e+00	0	43	0	2359296000	10	4254
2026-01-16 10:17:06.17	7.94	15.16	-25.2	-26.1	17.1	0.00e+00	0	43	0	2376073216	11	3997
2026-01-16 10:17:09.17	7.41	14.99	-24.9	-25.5	17.5	0.00e+00	0	43	0	2392850432	11	3838
2026-01-16 10:17:12.18	6.88	14.81	-25.3	-26.3	17.0	0.00e+00	0	43	0	2409627648	11	4038
2026-01-16 10:17:15.17	6.36	14.63	-25.5	-26.7	16.8	0.00e+00	0	43	0	2426404864	11	4149
2026-01-16 10:17:18.18	5.85	14.45	-25.7	-27.1	16.6	0.00e+00	0	43	0	2443182080	11	4255
2026-01-16 10:17:21.19	5.34	14.27	-25.5	-26.8	16.7	1.14e-05	0	43	0	2459959296	11	4181
2026-01-16 10:17:24.19	4.84	14.09	-25.5	-26.7	16.7	6.06e-05	0	43	0	2476736512	11	4134
2026-01-16 10:17:27.20	4.34	13.91	-25.5	-26.8	16.7	0.00e+00	0	43	0	2494562304	11	4164
2026-01-16 10:17:30.21	3.85	13.72	-25.6	-26.9	16.6	0.00e+00	0	43	0	2511339520	11	4187
2026-01-16 10:17:33.23	3.37	13.54	-25.8	-27.5	16.3	0.00e+00	0	43	0	2528116736	11	4343
2026-01-16 10:17:36.25	2.89	13.35	-25.8	-27.4	16.3	0.00e+00	0	43	0	2544893952	11	4341
2026-01-16 10:17:39.24	2.42	13.17	-26.1	-27.5	15.9	0.00e+00	0	43	0	2561671168	12	4247
2026-01-16 10:17:42.25	1.96	12.98	-25.7	-26.8	16.3	0.00e+00	0	43	0	2578448384	12	4055
2026-01-16 10:17:45.25	1.50	12.80	-26.1	-27.6	15.9	0.00e+00	0	43	0	2595225600	12	4263
2026-01-16 10:17:48.27	1.04	12.61	-25.7	-26.6	16.4	0.00e+00	0	43	0	2613051392	12	4020
2026-01-16 10:17:51.29	0.60	12.42	-25.7	-26.7	16.3	0.00e+00	0	43	0	2629828608	12	4039
2026-01-16 10:17:54.30	0.15	12.24	-26.1	-27.5	15.8	0.00e+00	0	43	0	2646605824	12	4259
2026-01-16 10:17:57.30	359.72	12.05	-26.2	-27.8	15.6	0.00e+00	0	43	0	2663383040	12	4346
2026-01-16 10:18:00.31	359.29	11.86	-26.2	-27.9	15.6	0.00e+00	0	43	0	2680160256	12	4361
2026-01-16 10:18:03.31	358.87	11.67	-26.1	-27.6	15.8	0.00e+00	0	43	0	2696937472	12	4270
2026-01-16 10:18:06.31	358.45	11.49	-26.1	-27.6	15.8	0.00e+00	0	43	0	2713714688	12	4272
2026-01-16 10:18:09.32	358.03	11.30	-26.1	-27.5	15.8	0.00e+00	0	43	0	2731540480	12	4256
2026-01-16 10:18:12.32	357.63	11.11	-26.4	-28.3	15.3	0.00e+00	0	43	0	2748317696	12	4481
2026-01-16 10:18:15.33	357.22	10.92	-26.7	-28.3	15.0	1.10e-06	0	43	0	2765094912	13	4367
2026-01-16 10:18:18.33	356.83	10.74	-26.6	-28.3	15.1	1.10e-06	0	43	0	2781872128	13	4358
2026-01-16 10:18:21.35	356.43	10.55	-26.8	-28.8	14.8	0.00e+00	0	43	0	2798649344	13	4496
2026-01-16 10:18:24.35	356.05	10.36	-26.7	-27.8	15.0	0.00e+00	0	43	0	2815426560	14	4124
2026-01-16 10:18:27.36	355.67	10.18	-26.4	-27.7	15.3	0.00e+00	0	43	0	2832203776	13	4209
2026-01-16 10:18:30.37	355.29	9.99	-26.7	-28.5	14.9	0.00e+00	0	43	0	2848980992	13	4413
2026-01-16 10:18:33.37	354.92	9.80	-26.7	-28.4	14.9	1.10e-06	0	43	0	2865758208	13	4389
2026-01-16 10:18:36.38	354.55	9.62	-26.8	-28.7	14.8	0.00e+00	0	43	0	2883584000	13	4469
2026-01-16 10:18:39.38	354.19	9.43	-27.2	-29.0	14.3	0.00e+00	0	43	0	2900361216	14	4452
2026-01-16 10:18:42.37	353.83	9.24	-26.9	-27.9	14.6	0.00e+00	0	43	0	2917138432	15	4045
2026-01-16 10:18:45.37	353.48	9.06	-26.9	-28.4	14.6	3.40e-06	0	43	0	2933915648	14	4270
2026-01-16 10:18:48.37	353.13	8.87	-26.9	-28.5	14.5	0.00e+00	0	43	0	2950692864	14	4320
2026-01-16 10:18:51.39	352.79	8.69	-26.9	-28.3	14.6	1.10e-06	0	43	0	2967470080	14	4258
2026-01-16 10:18:54.38	352.45	8.51	-27.1	-28.9	14.2	3.40e-06	0	43	0	2984247296	14	4431
2026-01-16 10:18:57.38	352.11	8.32	-27.3	-29.4	14.0	2.20e-06	0	43	0	3001024512	14	4569
2026-01-16 10:19:00.39	351.78	8.14	-27.5	-29.2	13.8	1.60e-05	0	43	0	3017801728	15	4407
2026-01-16 10:19:03.40	351.46	7.95	-27.1	-28.5	14.2	1.02e-05	0	43	0	3035627520	15	4199
2026-01-16 10:19:06.41	351.13	7.77	-27.3	-28.8	13.9	5.70e-06	0	43	0	3052404736	15	4294
2026-01-16 10:19:09.41	350.82	7.59	-27.3	-28.8	13.9	9.10e-06	0	43	0	3069181952	15	4300
2026-01-16 10:19:12.42	350.50	7.41	-27.3	-28.8	13.9	4.00e-05	0	43	0	3085959168	15	4281
2026-01-16 10:19:15.43	350.19	7.23	-27.1	-28.4	14.1	1.60e-05	0	43	0	3102736384	15	4182
2026-01-16 10:19:18.43	349.89	7.04	-30.4	-34.2	9.3	2.40e-05	0	43	0	3119513600	20	5619
2026-01-16 10:19:21.43	349.59	6.86	-33.8	-45.1	3.8	8.45e-01	0	43	104	3120562176	27	13278

#Closed at: 2026-01-16 10:19:21
#Recorded file [3120 MB]: D:/data/31010_260116_131003.dat