passes_logs/2026/01/16/R2M6_AANII_01/R2M6_AANII_01__20260116_002639_NOAA_21_JPSS-2_rec.log

#Pass ID: 20260116_002639_NOAA 21 (JPSS-2)
#Satellite: NOAA 21 (JPSS-2)
#Configuration: NOAA 21
#almurnet v.1.7.20240730
#Start time: 2026-01-16 00:26:40

#Version: 2.2.20231116
#Station: R2M6_AANII_01
#Location: 30.233357 lon 59.946436 lat
#TLE: 1 54234U 22150A   26015.43562254  .00000028  00000+0  34201-4 0  9996
#TLE: 2 54234  98.7498 316.3301 0000635 288.4972  71.6135 14.19534768164873

#Time	Az	El	Level	Level2	SNR	BER	BlckErr	Temp	State	Recorded	gain1	gain2
2026-01-16 00:26:40.39	17.57	7.06	-31.1	-36.4	4.5	1.41e+00	0	41	0	0	22	6599
2026-01-16 00:26:43.39	17.56	7.30	-31.5	-36.5	7.1	1.55e-01	0	41	0	2097152	23	6387
2026-01-16 00:26:46.38	17.55	7.53	-31.3	-36.1	7.8	8.12e-02	0	41	0	11534336	22	6245
2026-01-16 00:26:49.38	17.55	7.76	-31.5	-36.3	7.3	1.26e-01	0	42	0	20971520	23	6288
2026-01-16 00:26:52.39	17.54	8.00	-30.8	-34.8	9.1	2.90e-02	0	41	0	30408704	21	5753
2026-01-16 00:26:55.39	17.53	8.24	-30.3	-34.0	10.1	7.56e-03	0	42	0	39845888	20	5483
2026-01-16 00:26:58.38	17.53	8.49	-30.6	-34.2	9.6	1.77e-02	0	42	0	49283072	21	5463
2026-01-16 00:27:01.37	17.52	8.73	-29.5	-32.2	11.7	4.45e-03	0	42	0	58720256	19	4913
2026-01-16 00:27:04.37	17.51	8.98	-29.3	-32.1	12.2	1.98e-04	0	42	0	68157440	18	4960
2026-01-16 00:27:07.38	17.50	9.23	-29.1	-31.5	12.5	1.18e-04	0	42	0	77594624	18	4759
2026-01-16 00:27:10.40	17.50	9.48	-29.0	-31.3	12.7	8.46e-05	0	42	0	87031808	18	4683
2026-01-16 00:27:13.40	17.49	9.74	-28.8	-31.3	13.0	4.19e-05	0	42	0	96468992	17	4814
2026-01-16 00:27:16.42	17.48	10.00	-28.8	-31.3	13.1	2.36e-05	0	42	0	105906176	17	4800
2026-01-16 00:27:19.43	17.47	10.26	-28.7	-31.0	13.3	1.60e-05	0	42	0	115343360	17	4694
2026-01-16 00:27:22.43	17.46	10.52	-28.7	-31.0	13.3	2.05e-05	0	42	0	124780544	17	4699
2026-01-16 00:27:25.45	17.45	10.79	-28.7	-31.1	13.2	2.44e-05	0	42	0	134217728	17	4734
2026-01-16 00:27:28.44	17.44	11.06	-28.6	-30.9	13.3	9.10e-06	0	42	0	143654912	17	4665
2026-01-16 00:27:31.45	17.42	11.33	-28.4	-30.8	13.7	4.50e-06	0	42	0	153092096	16	4752
2026-01-16 00:27:34.45	17.41	11.61	-28.8	-31.1	13.3	2.36e-05	0	43	0	162529280	17	4739
2026-01-16 00:27:37.45	17.40	11.89	-28.4	-30.8	13.8	3.80e-06	0	43	0	171966464	16	4755
2026-01-16 00:27:40.46	17.39	12.17	-28.4	-30.7	13.9	2.20e-06	0	42	0	181403648	16	4706
2026-01-16 00:27:43.46	17.37	12.45	-28.4	-30.7	13.9	2.20e-06	0	42	0	190840832	16	4696
2026-01-16 00:27:46.47	17.36	12.74	-29.0	-31.3	13.0	5.34e-05	0	43	0	200278016	18	4673
2026-01-16 00:27:49.46	17.35	13.03	-28.3	-30.4	14.1	7.00e-07	0	42	0	208666624	16	4603
2026-01-16 00:27:52.47	17.33	13.33	-27.9	-30.2	14.3	0.00e+00	0	43	0	218103808	15	4662
2026-01-16 00:27:55.47	17.32	13.63	-27.8	-29.8	14.0	0.00e+00	0	43	0	227540992	15	4539
2026-01-16 00:27:58.47	17.30	13.93	-27.8	-29.9	14.1	1.50e-06	0	43	0	236978176	15	4578
2026-01-16 00:28:01.48	17.28	14.24	-27.8	-30.0	14.5	7.00e-07	0	43	0	246415360	15	4599
2026-01-16 00:28:04.48	17.27	14.55	-27.9	-30.0	14.5	7.00e-07	0	43	0	255852544	15	4598
2026-01-16 00:28:07.48	17.25	14.86	-27.7	-29.5	14.8	1.05e-03	0	43	0	265289728	15	4463
2026-01-16 00:28:10.48	17.23	15.18	-27.8	-29.8	14.7	0.00e+00	0	43	0	274726912	15	4549
2026-01-16 00:28:13.49	17.21	15.51	-27.5	-29.6	15.1	9.44e-04	0	43	0	284164096	14	4598
2026-01-16 00:28:16.49	17.19	15.83	-27.5	-29.2	15.1	9.83e-04	0	43	0	293601280	15	4364
2026-01-16 00:28:19.49	17.17	16.17	-27.6	-29.3	15.0	1.02e-03	0	43	0	303038464	15	4401
2026-01-16 00:28:22.49	17.15	16.50	-27.6	-29.5	14.9	1.03e-03	0	43	0	312475648	15	4452
2026-01-16 00:28:25.50	17.13	16.84	-27.7	-29.7	14.8	5.63e-04	0	43	0	321912832	15	4510
2026-01-16 00:28:28.50	17.10	17.19	-27.8	-29.9	14.7	9.99e-04	0	43	0	331350016	15	4562
2026-01-16 00:28:31.51	17.08	17.54	-27.9	-30.1	14.6	1.15e-03	0	43	0	340787200	15	4623
2026-01-16 00:28:34.51	17.06	17.90	-27.8	-29.8	14.8	1.13e-03	0	43	0	350224384	15	4534
2026-01-16 00:28:37.53	17.03	18.26	-27.9	-30.0	14.7	1.12e-03	0	43	0	359661568	15	4597
2026-01-16 00:28:40.52	17.00	18.63	-27.7	-29.5	15.0	0.00e+00	0	43	0	369098752	15	4450
2026-01-16 00:28:43.51	16.98	19.00	-27.6	-29.4	15.1	1.17e-03	0	43	0	378535936	15	4402
2026-01-16 00:28:46.52	16.95	19.37	-27.6	-29.3	15.1	0.00e+00	0	43	0	387973120	15	4403
2026-01-16 00:28:49.52	16.92	19.76	-27.6	-29.4	15.1	0.00e+00	0	43	0	396361728	15	4421
2026-01-16 00:28:52.54	16.89	20.15	-27.6	-29.3	15.1	1.02e-03	0	43	0	405798912	15	4389
2026-01-16 00:28:55.54	16.86	20.55	-27.8	-29.7	14.9	7.00e-07	0	43	0	415236096	15	4510
2026-01-16 00:28:58.54	16.82	20.95	-27.6	-29.3	15.1	4.86e-04	0	43	0	424673280	15	4398
2026-01-16 00:29:01.55	16.79	21.36	-27.6	-29.4	15.1	0.00e+00	0	43	0	434110464	15	4412
2026-01-16 00:29:04.55	16.76	21.77	-27.0	-28.5	15.9	0.00e+00	0	43	0	443547648	14	4264
2026-01-16 00:29:07.56	16.72	22.20	-26.8	-28.4	16.2	0.00e+00	0	43	0	452984832	13	4367
2026-01-16 00:29:10.56	16.68	22.63	-26.7	-28.3	16.3	0.00e+00	0	43	0	462422016	13	4341
2026-01-16 00:29:13.56	16.64	23.06	-26.6	-28.0	16.4	0.00e+00	0	43	0	471859200	13	4257
2026-01-16 00:29:16.56	16.60	23.51	-26.6	-28.0	16.5	0.00e+00	0	43	0	481296384	13	4249
2026-01-16 00:29:19.56	16.56	23.96	-26.4	-28.0	16.7	0.00e+00	0	43	0	490733568	12	4370
2026-01-16 00:29:22.58	16.52	24.42	-26.3	-28.0	16.8	0.00e+00	0	43	0	500170752	12	4343
2026-01-16 00:29:25.59	16.47	24.89	-26.4	-28.1	16.7	0.00e+00	0	43	0	509607936	12	4379
2026-01-16 00:29:28.60	16.42	25.37	-26.5	-28.3	16.7	0.00e+00	0	43	0	519045120	12	4422
2026-01-16 00:29:31.61	16.37	25.86	-26.7	-28.3	16.4	0.00e+00	0	43	0	528482304	13	4326
2026-01-16 00:29:34.60	16.32	26.35	-27.0	-28.5	16.1	0.00e+00	0	43	0	537919488	14	4259
2026-01-16 00:29:37.60	16.27	26.85	-27.2	-29.0	15.8	0.00e+00	0	43	0	547356672	14	4396
2026-01-16 00:29:40.61	16.22	27.37	-27.5	-29.1	15.5	0.00e+00	0	43	0	556793856	15	4312
2026-01-16 00:29:43.61	16.16	27.89	-27.6	-29.2	15.4	0.00e+00	0	43	0	566231040	15	4338
2026-01-16 00:29:46.61	16.10	28.42	-27.6	-29.4	15.3	0.00e+00	0	43	0	575668224	15	4388
2026-01-16 00:29:49.61	16.04	28.97	-27.6	-29.3	15.4	0.00e+00	0	43	0	585105408	15	4361
2026-01-16 00:29:52.62	15.97	29.52	-27.6	-29.2	15.4	0.00e+00	0	43	0	594542592	15	4337
2026-01-16 00:29:55.64	15.91	30.09	-27.7	-29.5	15.0	0.00e+00	0	44	0	603979776	15	4428
2026-01-16 00:29:58.64	15.84	30.67	-27.2	-28.9	14.4	0.00e+00	0	43	0	612368384	14	4380
2026-01-16 00:30:01.65	15.76	31.26	-27.1	-28.8	16.0	0.00e+00	0	43	0	621805568	14	4332
2026-01-16 00:30:04.65	15.69	31.86	-27.2	-28.8	16.0	3.09e-03	0	43	0	631242752	14	4348
2026-01-16 00:30:07.66	15.61	32.47	-27.7	-29.5	15.4	0.00e+00	0	43	0	640679936	15	4425
2026-01-16 00:30:10.68	15.52	33.10	-27.9	-29.8	15.1	3.01e-03	0	44	0	650117120	15	4520
2026-01-16 00:30:13.68	15.44	33.74	-28.4	-30.6	14.6	2.51e-03	0	43	0	659554304	16	4622
2026-01-16 00:30:16.69	15.35	34.40	-28.4	-30.5	14.7	0.00e+00	0	43	0	668991488	16	4584
2026-01-16 00:30:19.69	15.25	35.06	-28.9	-31.3	13.9	2.70e-03	0	43	0	678428672	17	4735
2026-01-16 00:30:22.69	15.15	35.74	-29.2	-31.3	13.6	2.49e-03	0	43	0	687865856	18	4621
2026-01-16 00:30:25.70	15.05	36.44	-29.1	-31.3	13.7	2.45e-03	0	44	0	697303040	18	4607
2026-01-16 00:30:28.71	14.94	37.15	-28.8	-31.1	14.1	2.28e-03	0	43	0	706740224	17	4650
2026-01-16 00:30:31.71	14.82	37.88	-28.8	-30.9	14.2	2.18e-03	0	44	0	716177408	17	4583
2026-01-16 00:30:34.70	14.70	38.62	-28.9	-31.1	14.1	2.11e-03	0	43	0	725614592	17	4650
2026-01-16 00:30:37.71	14.58	39.38	-29.0	-31.0	13.9	2.72e-04	0	43	0	735051776	18	4511
2026-01-16 00:30:40.72	14.44	40.16	-29.0	-31.0	13.8	1.86e-03	0	43	0	744488960	18	4534
2026-01-16 00:30:43.72	14.30	40.95	-29.7	-32.2	12.8	5.34e-05	0	44	0	753926144	19	4799
2026-01-16 00:30:46.72	14.16	41.76	-29.7	-32.3	12.8	4.26e-04	0	43	0	763363328	19	4824
2026-01-16 00:30:49.72	14.00	42.59	-29.6	-31.9	13.0	4.04e-05	0	43	0	772800512	19	4676
2026-01-16 00:30:52.73	13.83	43.44	-29.9	-32.2	12.5	1.51e-04	0	44	0	782237696	20	4689
2026-01-16 00:30:55.73	13.66	44.30	-30.1	-32.6	12.2	9.41e-04	0	44	0	791674880	20	4839
2026-01-16 00:30:58.75	13.47	45.19	-30.0	-32.3	12.4	1.52e-04	0	44	0	801112064	20	4733
2026-01-16 00:31:01.76	13.27	46.10	-29.5	-31.6	13.3	2.13e-05	0	43	0	810549248	19	4589
2026-01-16 00:31:04.76	13.06	47.03	-29.3	-31.2	13.5	1.52e-05	0	44	0	819986432	19	4462
2026-01-16 00:31:07.78	12.84	47.98	-29.2	-31.0	13.6	9.90e-06	0	44	0	828375040	19	4395
2026-01-16 00:31:10.78	12.60	48.95	-28.9	-30.6	14.2	2.20e-06	0	44	0	837812224	18	4383
2026-01-16 00:31:13.80	12.34	49.94	-28.9	-30.7	14.1	7.00e-07	0	43	0	848297984	18	4424
2026-01-16 00:31:16.81	12.07	50.95	-29.0	-31.0	13.9	6.80e-06	0	43	0	856686592	18	4505
2026-01-16 00:31:19.82	11.78	51.99	-28.8	-30.4	14.2	7.00e-07	0	44	0	866123776	18	4346
2026-01-16 00:31:22.83	11.46	53.04	-28.6	-30.0	14.5	0.00e+00	0	44	0	875560960	18	4220
2026-01-16 00:31:25.83	11.12	54.12	-28.3	-29.7	14.9	0.00e+00	0	43	0	884998144	17	4246
2026-01-16 00:31:28.83	10.75	55.21	-28.5	-30.6	14.7	0.00e+00	0	44	0	894435328	16	4632
2026-01-16 00:31:31.83	10.35	56.33	-27.2	-28.3	16.1	0.00e+00	0	43	0	903872512	15	4092
2026-01-16 00:31:34.83	9.92	57.47	-27.3	-29.0	16.0	0.00e+00	0	43	0	913309696	14	4389
2026-01-16 00:31:37.82	9.45	58.62	-27.0	-28.4	16.3	0.00e+00	0	43	0	922746880	14	4231
2026-01-16 00:31:40.82	8.93	59.81	-26.6	-28.0	16.9	0.00e+00	0	44	0	932184064	13	4221
2026-01-16 00:31:43.82	8.37	61.01	-26.8	-28.4	16.6	0.00e+00	0	44	0	941621248	13	4344
2026-01-16 00:31:46.82	7.74	62.23	-26.3	-27.3	17.2	0.00e+00	0	43	0	951058432	13	4042
2026-01-16 00:31:49.83	7.04	63.47	-26.0	-26.8	17.4	0.00e+00	0	43	0	960495616	13	3921
2026-01-16 00:31:52.84	6.27	64.74	-26.0	-26.8	17.5	0.00e+00	0	43	0	969932800	13	3915
2026-01-16 00:31:55.84	5.40	66.01	-25.5	-26.2	18.0	0.00e+00	0	43	0	979369984	12	3877
2026-01-16 00:31:58.84	4.42	67.30	-25.7	-27.0	17.8	0.00e+00	0	44	0	988807168	11	4176
2026-01-16 00:32:01.84	3.31	68.61	-25.8	-27.2	17.8	9.36e-04	0	44	0	998244352	11	4248
2026-01-16 00:32:04.83	2.05	69.91	-26.3	-28.0	17.1	0.00e+00	0	43	0	1006632960	12	4331
2026-01-16 00:32:07.83	0.59	71.24	-26.5	-27.9	16.9	0.00e+00	0	43	0	1016070144	13	4207
2026-01-16 00:32:10.83	358.89	72.56	-26.5	-27.8	17.0	0.00e+00	0	44	0	1025507328	13	4189
2026-01-16 00:32:13.83	356.90	73.88	-25.9	-26.9	17.7	0.00e+00	0	44	0	1034944512	12	4059
2026-01-16 00:32:16.82	354.54	75.20	-25.9	-27.5	17.7	6.98e-04	0	43	0	1044381696	11	4323
2026-01-16 00:32:19.82	351.69	76.49	-26.1	-27.4	17.4	0.00e+00	0	44	0	1053818880	12	4193
2026-01-16 00:32:22.82	348.22	77.76	-26.2	-27.6	17.3	7.49e-04	0	44	0	1063256064	12	4238
2026-01-16 00:32:25.82	343.93	78.99	-26.5	-27.8	16.9	8.99e-04	0	43	0	1072693248	13	4172
2026-01-16 00:32:28.83	338.56	80.15	-27.1	-28.5	16.3	7.00e-07	0	44	0	1082130432	14	4262
2026-01-16 00:32:31.84	331.79	81.21	-26.0	-26.6	17.6	2.26e-04	0	44	0	1091567616	13	3877
2026-01-16 00:32:34.84	323.33	82.12	-26.2	-27.1	17.4	0.00e+00	0	43	0	1101004800	13	3985
2026-01-16 00:32:37.86	312.84	82.83	-26.1	-27.0	17.4	1.89e-04	0	43	0	1110441984	13	3965
2026-01-16 00:32:40.86	300.65	83.24	-26.2	-27.6	17.4	0.00e+00	0	44	0	1119879168	12	4228
2026-01-16 00:32:43.86	287.51	83.33	-26.5	-27.7	17.0	2.47e-03	0	44	0	1129316352	13	4152
2026-01-16 00:32:46.87	274.68	83.07	-27.1	-28.6	16.4	0.00e+00	0	43	0	1138753536	14	4264
2026-01-16 00:32:49.87	263.35	82.49	-26.4	-27.6	17.1	0.00e+00	0	43	0	1148190720	13	4107
2026-01-16 00:32:52.88	253.91	81.67	-26.5	-27.9	16.9	2.14e-03	0	44	0	1157627904	13	4189
2026-01-16 00:32:55.88	246.37	80.68	-26.5	-28.2	17.0	0.00e+00	0	44	0	1167065088	12	4402
2026-01-16 00:32:58.89	240.37	79.56	-26.9	-28.7	16.4	0.00e+00	0	44	0	1176502272	13	4437
2026-01-16 00:33:01.89	235.59	78.36	-26.2	-27.6	17.2	0.00e+00	0	44	0	1185939456	12	4244
2026-01-16 00:33:04.89	231.75	77.11	-26.4	-27.6	17.0	0.00e+00	0	43	0	1194328064	13	4139
2026-01-16 00:33:07.89	228.62	75.82	-25.8	-27.3	17.8	0.00e+00	0	43	0	1203765248	11	4263
2026-01-16 00:33:10.89	226.03	74.51	-27.1	-28.7	16.1	0.00e+00	0	44	0	1213202432	14	4319
2026-01-16 00:33:13.89	223.87	73.19	-25.3	-26.1	18.3	0.00e+00	0	43	0	1222639616	11	3962
2026-01-16 00:33:16.91	222.02	71.85	-26.2	-27.7	17.2	0.00e+00	0	44	0	1232076800	12	4271
2026-01-16 00:33:19.91	220.45	70.53	-25.7	-27.0	17.6	0.00e+00	0	44	0	1241513984	11	4182
2026-01-16 00:33:22.92	219.10	69.20	-26.4	-28.1	16.9	0.00e+00	0	44	0	1250951168	12	4379
2026-01-16 00:33:25.92	217.92	67.89	-26.7	-28.4	16.5	0.00e+00	0	44	0	1260388352	13	4340
2026-01-16 00:33:28.93	216.88	66.59	-25.7	-27.1	17.7	0.00e+00	0	44	0	1269825536	11	4213
2026-01-16 00:33:31.94	215.96	65.30	-26.4	-28.0	16.9	0.00e+00	0	43	0	1279262720	12	4346
2026-01-16 00:33:34.93	215.14	64.03	-26.0	-27.6	17.5	0.00e+00	0	43	0	1288699904	11	4327
2026-01-16 00:33:37.93	214.41	62.78	-26.1	-27.4	17.4	0.00e+00	0	44	0	1298137088	12	4176
2026-01-16 00:33:40.93	213.75	61.54	-28.2	-30.1	14.8	0.00e+00	0	44	0	1307574272	16	4489
2026-01-16 00:33:43.93	213.16	60.33	-26.1	-26.9	17.2	0.00e+00	0	43	0	1317011456	13	3965
2026-01-16 00:33:46.93	212.62	59.14	-26.1	-27.5	17.2	0.00e+00	0	44	0	1326448640	12	4217
2026-01-16 00:33:49.94	212.12	57.96	-27.7	-29.4	15.4	0.00e+00	0	43	0	1335885824	15	4409
2026-01-16 00:33:52.95	211.67	56.80	-26.8	-28.0	16.4	0.00e+00	0	44	0	1345323008	14	4120
2026-01-16 00:33:55.95	211.26	55.67	-26.7	-28.3	16.5	0.00e+00	0	44	0	1354760192	13	4309
2026-01-16 00:33:58.94	210.88	54.56	-28.0	-30.1	15.0	0.00e+00	0	44	0	1364197376	15	4602
2026-01-16 00:34:01.95	210.52	53.47	-29.6	-32.1	12.9	5.03e-05	0	44	0	1373634560	19	4773
2026-01-16 00:34:04.95	210.20	52.41	-27.8	-29.1	15.4	0.00e+00	0	44	0	1383071744	16	4204
2026-01-16 00:34:07.96	209.89	51.36	-28.7	-30.7	14.0	0.00e+00	0	44	0	1392508928	17	4563
2026-01-16 00:34:10.97	209.61	50.33	-28.8	-31.0	14.1	7.00e-07	0	43	0	1400897536	17	4653
2026-01-16 00:34:13.97	209.34	49.33	-29.7	-32.1	12.9	4.27e-05	0	44	0	1410334720	19	4751
2026-01-16 00:34:16.98	209.10	48.35	-29.4	-31.5	13.1	4.11e-05	0	43	0	1419771904	19	4560
2026-01-16 00:34:19.98	208.86	47.39	-28.9	-30.8	13.9	1.72e-04	0	43	0	1429209088	18	4467
2026-01-16 00:34:22.99	208.65	46.45	-29.2	-31.4	13.6	1.06e-05	0	44	0	1438646272	18	4645
2026-01-16 00:34:25.98	208.44	45.54	-30.0	-32.6	12.1	1.67e-04	0	43	0	1448083456	20	4847
2026-01-16 00:34:28.98	208.25	44.64	-29.9	-32.3	12.3	2.55e-04	0	44	0	1457520640	20	4720
2026-01-16 00:34:31.70	208.09	43.84	-29.8	-32.4	12.6	1.18e-04	0	43	0	1466957824	19	4866
2026-01-16 00:34:34.99	207.90	42.90	-30.3	-33.4	11.5	9.09e-04	0	43	0	1477443584	20	5124
2026-01-16 00:34:37.71	207.75	42.14	-29.3	-31.3	13.3	1.17e-04	0	44	0	1485832192	19	4504
2026-01-16 00:34:41.02	207.58	41.23	-29.4	-31.8	13.3	1.14e-05	0	44	0	1496317952	18	4796
2026-01-16 00:34:43.74	207.45	40.50	-29.8	-32.5	12.5	2.82e-04	0	43	0	1504706560	19	4908
2026-01-16 00:34:47.03	207.30	39.64	-29.3	-31.3	13.3	2.89e-05	0	43	0	1515192320	19	4528
2026-01-16 00:34:49.75	207.18	38.94	-29.5	-31.8	13.0	5.11e-05	0	44	0	1523580928	19	4669
2026-01-16 00:34:53.06	207.04	38.11	-29.3	-31.3	13.2	2.13e-05	0	44	0	1534066688	19	4519
2026-01-16 00:34:55.78	206.94	37.44	-28.7	-30.3	14.2	3.00e-06	0	44	0	1542455296	18	4315
2026-01-16 00:34:59.07	206.81	36.65	-28.6	-30.5	14.3	7.00e-07	0	44	0	1552941056	17	4480
2026-01-16 00:35:01.82	206.71	36.00	-28.3	-29.8	14.7	0.00e+00	0	44	0	1561329664	17	4303
2026-01-16 00:35:05.11	206.60	35.25	-28.6	-30.5	14.3	7.00e-07	0	44	0	1571815424	17	4494
2026-01-16 00:35:07.87	206.51	34.63	-28.2	-30.2	14.8	0.00e+00	0	44	0	1580204032	16	4513
2026-01-16 00:35:11.17	206.41	33.90	-28.0	-29.6	15.0	0.00e+00	0	44	0	1590689792	16	4354
2026-01-16 00:35:13.90	206.33	33.31	-27.5	-29.2	15.4	7.00e-07	0	44	0	1599078400	15	4338
2026-01-16 00:35:17.19	206.23	32.62	-27.7	-29.5	15.2	0.00e+00	0	44	0	1609564160	15	4431
2026-01-16 00:35:19.93	206.16	32.05	-28.3	-30.5	14.5	3.07e-04	0	44	0	1617952768	16	4614
2026-01-16 00:35:23.22	206.07	31.38	-27.7	-29.5	15.2	0.00e+00	0	44	0	1628438528	15	4431
2026-01-16 00:35:25.96	206.00	30.84	-27.9	-29.9	14.9	7.00e-07	0	44	0	1636827136	15	4568
2026-01-16 00:35:29.26	205.92	30.20	-28.1	-29.9	14.8	2.91e-03	0	44	0	1647312896	16	4450
2026-01-16 00:35:32.00	205.86	29.67	-27.5	-29.0	15.4	0.00e+00	0	44	0	1655701504	15	4318
2026-01-16 00:35:35.28	205.78	29.06	-27.7	-29.5	15.1	6.96e-04	0	44	0	1666187264	15	4461
2026-01-16 00:35:38.02	205.72	28.56	-27.7	-29.5	15.1	0.00e+00	0	44	0	1674575872	15	4456
2026-01-16 00:35:41.32	205.66	27.96	-27.5	-29.2	15.3	2.70e-03	0	44	0	1685061632	15	4368
2026-01-16 00:35:44.04	205.60	27.48	-27.4	-29.3	15.3	0.00e+00	0	44	0	1693450240	14	4519
2026-01-16 00:35:47.33	205.54	26.91	-26.8	-28.5	16.2	3.76e-03	0	44	0	1702887424	13	4373
2026-01-16 00:35:50.04	205.49	26.45	-26.5	-27.8	16.5	0.00e+00	0	44	0	1712324608	13	4202
2026-01-16 00:35:53.35	205.43	25.90	-26.5	-27.9	16.4	6.62e-04	0	44	0	1721761792	13	4229
2026-01-16 00:35:56.07	205.39	25.46	-26.7	-28.3	16.2	0.00e+00	0	44	0	1731198976	13	4323
2026-01-16 00:35:59.36	205.33	24.93	-26.7	-28.3	16.2	5.33e-04	0	44	0	1740636160	13	4347
2026-01-16 00:36:02.11	205.29	24.50	-26.8	-28.6	16.0	3.44e-03	0	44	0	1749024768	13	4411
2026-01-16 00:36:05.41	205.24	23.98	-27.0	-28.9	15.8	5.82e-04	0	44	0	1759510528	13	4509
2026-01-16 00:36:08.14	205.20	23.57	-27.0	-28.4	15.1	3.77e-03	0	44	0	1767899136	14	4262
2026-01-16 00:36:11.44	205.15	23.08	-26.8	-28.5	16.0	4.61e-04	0	44	0	1778384896	13	4392
2026-01-16 00:36:14.17	205.11	22.67	-26.6	-28.2	16.2	3.93e-03	0	44	0	1787822080	13	4302
2026-01-16 00:36:17.46	205.07	22.20	-26.6	-28.1	16.2	0.00e+00	0	44	0	1797259264	13	4287
2026-01-16 00:36:20.19	205.03	21.81	-26.6	-28.1	16.3	3.50e-03	0	44	0	1805647872	13	4268
2026-01-16 00:36:23.48	204.99	21.35	-26.6	-28.2	16.2	0.00e+00	0	43	0	1816133632	13	4298
2026-01-16 00:36:26.21	204.96	20.98	-26.7	-28.3	16.1	2.93e-04	0	44	0	1824522240	13	4345
2026-01-16 00:36:29.50	204.92	20.53	-26.8	-28.6	15.9	0.00e+00	0	44	0	1835008000	13	4420
2026-01-16 00:36:32.22	204.89	20.17	-26.9	-28.8	15.8	1.46e-04	0	44	0	1843396608	13	4475
2026-01-16 00:36:35.52	204.85	19.74	-26.9	-28.8	15.8	0.00e+00	0	44	0	1853882368	13	4489
2026-01-16 00:36:38.24	204.83	19.39	-27.2	-29.0	15.3	8.77e-05	0	44	0	1862270976	14	4437
2026-01-16 00:36:41.52	204.79	18.97	-27.7	-29.8	14.7	0.00e+00	0	44	0	1872756736	15	4534
2026-01-16 00:36:44.25	204.77	18.63	-27.9	-30.1	14.4	7.01e-05	0	44	0	1881145344	15	4635
2026-01-16 00:36:47.54	204.73	18.22	-28.3	-30.5	14.1	0.00e+00	0	44	0	1891631104	16	4642
2026-01-16 00:36:50.27	204.71	17.89	-27.6	-29.5	14.7	0.00e+00	0	44	0	1900019712	15	4467
2026-01-16 00:36:53.56	204.68	17.50	-27.6	-29.5	14.7	0.00e+00	0	44	0	1910505472	15	4480
2026-01-16 00:36:56.27	204.66	17.18	-27.7	-29.6	14.7	7.00e-07	0	43	0	1918894080	15	4509
2026-01-16 00:36:59.57	204.63	16.79	-27.7	-29.7	14.6	3.72e-03	0	44	0	1929379840	15	4524
2026-01-16 00:37:02.30	204.61	16.48	-27.7	-29.7	14.5	0.00e+00	0	44	0	1937768448	15	4537
2026-01-16 00:37:05.60	204.58	16.11	-27.8	-29.9	14.5	7.00e-07	0	44	0	1948254208	15	4583
2026-01-16 00:37:08.33	204.56	15.81	-28.0	-29.8	14.4	0.00e+00	0	44	0	1956642816	16	4431
2026-01-16 00:37:11.64	204.53	15.44	-27.9	-30.1	14.3	3.35e-03	0	44	0	1967128576	15	4665
2026-01-16 00:37:14.35	204.51	15.15	-28.0	-29.9	14.3	1.50e-06	0	44	0	1975517184	16	4477
2026-01-16 00:37:17.66	204.49	14.79	-27.8	-30.0	14.3	3.65e-03	0	44	0	1986002944	15	4637
2026-01-16 00:37:20.39	204.47	14.51	-27.9	-30.1	14.0	3.00e-06	0	43	0	1994391552	15	4647
2026-01-16 00:37:23.67	204.45	14.16	-27.8	-30.1	14.2	3.73e-03	0	44	0	2004877312	15	4645
2026-01-16 00:37:26.39	204.43	13.88	-27.9	-30.2	14.1	7.00e-07	0	44	0	2013265920	15	4684
2026-01-16 00:37:29.67	204.41	13.55	-27.8	-30.0	14.2	3.33e-03	0	44	0	2023751680	15	4631
2026-01-16 00:37:32.39	204.40	13.28	-28.1	-30.2	14.0	3.50e-03	0	44	0	2032140288	16	4557
2026-01-16 00:37:35.70	204.38	12.95	-27.9	-30.3	14.0	3.29e-03	0	44	0	2041577472	15	4719
2026-01-16 00:37:38.43	204.36	12.68	-28.3	-30.7	13.6	2.90e-03	0	43	0	2051014656	16	4733
2026-01-16 00:37:41.73	204.34	12.36	-28.4	-30.4	13.5	3.28e-05	0	44	0	2060451840	17	4531
2026-01-16 00:37:44.46	204.33	12.10	-28.0	-30.0	14.0	2.80e-03	0	43	0	2068840448	16	4512
2026-01-16 00:37:47.74	204.31	11.79	-28.2	-30.3	13.9	1.44e-05	0	44	0	2079326208	16	4589
2026-01-16 00:37:50.48	204.30	11.54	-28.1	-30.2	13.9	1.29e-05	0	44	0	2087714816	16	4573
2026-01-16 00:37:53.79	204.28	11.23	-28.4	-30.9	13.5	1.60e-05	0	44	0	2098200576	16	4790
2026-01-16 00:37:56.52	204.27	10.98	-28.6	-30.8	13.2	2.36e-05	0	44	0	2107637760	17	4636
2026-01-16 00:37:59.81	204.26	10.68	-28.4	-30.9	13.4	1.44e-05	0	44	0	2117074944	16	4784
2026-01-16 00:38:02.54	204.24	10.44	-28.3	-30.7	13.5	1.60e-05	0	44	0	2125463552	16	4745
2026-01-16 00:38:05.85	204.23	10.15	-28.6	-30.9	13.0	5.26e-05	0	44	0	2135949312	17	4695
2026-01-16 00:38:08.57	204.22	9.91	-28.7	-31.2	12.8	7.55e-05	0	44	0	2144337920	17	4802
2026-01-16 00:38:11.87	204.20	9.62	-28.9	-31.2	12.6	1.26e-04	0	44	0	2154823680	18	4667
2026-01-16 00:38:14.60	204.19	9.39	-28.5	-30.6	13.2	1.75e-05	0	44	0	2163212288	17	4594
2026-01-16 00:38:17.89	204.18	9.11	-28.6	-31.0	12.9	3.35e-05	0	44	0	2173698048	17	4719
2026-01-16 00:38:20.61	204.17	8.88	-28.7	-31.1	12.8	5.34e-05	0	44	0	2182086656	17	4762
2026-01-16 00:38:23.92	204.16	8.61	-28.8	-31.5	12.6	8.31e-05	0	44	0	2192572416	17	4885
2026-01-16 00:38:26.65	204.15	8.39	-28.9	-31.6	12.5	1.18e-04	0	44	0	2200961024	17	4930
2026-01-16 00:38:29.94	204.14	8.12	-28.9	-31.8	12.3	1.14e-04	0	44	0	2211446784	17	5005
2026-01-16 00:38:32.67	204.13	7.90	-28.9	-31.3	12.3	1.72e-04	0	44	0	2219835392	18	4731
2026-01-16 00:38:35.97	204.12	7.63	-29.1	-31.8	11.9	2.53e-04	0	44	0	2230321152	18	4901
2026-01-16 00:38:38.69	204.11	7.42	-29.1	-31.8	11.9	4.48e-04	0	44	0	2238709760	18	4904
2026-01-16 00:38:42.00	204.10	7.16	-29.4	-32.6	11.4	1.44e-03	0	44	0	2249195520	18	5206
2026-01-16 00:38:44.72	204.09	6.95	-33.4	-45.7	3.8	1.49e+00	0	44	104	2252341248	26	14807

#Closed at: 2026-01-16 00:38:45
#Recorded file [2252 MB]: D:/data/31010_260116_032642.dat