passes_logs/2026/01/16/R2M6_AANII_01/R2M6_AANII_01__20260116_110041_AQUA_rec.log

#Pass ID: 20260116_110041_AQUA
#Satellite: AQUA
#Configuration: AQUA
#almurnet v.1.7.20240730
#Start time: 2026-01-16 11:01:15

#Version: 2.2.20231116
#Station: R2M6_AANII_01
#Location: 30.233357 lon 59.946436 lat
#TLE: 1 27424U 02022A   26015.51279194  .00000651  00000+0  14022-3 0  9990
#TLE: 2 27424  98.4082 341.9487 0002034  77.6776  33.2672 14.61821775260965

#Time	Az	El	Level	Level2	SNR	BER	BlckErr	Temp	State	Recorded	gain1	gain2
2026-01-16 11:01:15.50	123.20	9.73	-33.5	-45.7	3.8	1.49e+00	0	42	0	0	27	14661
2026-01-16 11:01:18.49	122.95	9.99	-34.6	-53.6	3.8	7.44e-01	0	43	104	0	30	32263
2026-01-16 11:01:21.48	122.70	10.24	-34.6	-53.7	3.8	7.45e-01	0	43	104	0	30	32702
2026-01-16 11:01:24.46	122.44	10.50	-34.6	-53.7	3.8	7.45e-01	0	43	104	0	30	32638
2026-01-16 11:01:27.45	122.18	10.76	-34.6	-53.7	3.8	7.47e-01	0	43	104	0	30	32629
2026-01-16 11:01:30.44	121.91	11.03	-34.6	-53.7	3.8	7.45e-01	0	42	104	0	30	32504
2026-01-16 11:01:33.42	121.64	11.30	-34.6	-53.7	3.8	7.48e-01	0	43	104	0	30	32581
2026-01-16 11:01:36.40	121.36	11.56	-34.6	-53.8	3.8	7.49e-01	0	43	104	0	30	32773
2026-01-16 11:01:39.40	121.08	11.84	-34.7	-53.9	3.8	7.46e-01	0	43	104	0	30	33093
2026-01-16 11:01:42.37	120.79	12.11	-34.5	-53.7	3.8	7.46e-01	0	43	104	0	30	32850
2026-01-16 11:01:45.36	120.49	12.39	-34.5	-53.6	3.8	7.45e-01	0	43	104	0	30	32374
2026-01-16 11:01:48.36	120.19	12.67	-34.2	-52.8	3.8	7.46e-01	0	43	104	0	30	30659
2026-01-16 11:01:51.34	119.88	12.95	-33.7	-50.2	3.9	7.44e-01	0	43	104	0	29	23924
2026-01-16 11:01:54.33	119.56	13.24	-33.6	-47.0	5.0	7.09e-01	0	43	0	0	29	16762
2026-01-16 11:01:57.32	119.24	13.53	-33.6	-45.8	5.7	6.90e-01	0	43	0	1048576	29	14762
2026-01-16 11:02:00.31	118.91	13.82	-33.6	-47.4	4.8	7.13e-01	0	43	0	3145728	29	17506
2026-01-16 11:02:03.31	118.57	14.12	-33.7	-51.1	3.9	7.44e-01	0	43	104	3145728	29	26649
2026-01-16 11:02:06.30	118.23	14.42	-32.9	-40.4	11.2	6.18e-01	0	43	0	524288	27	8518
2026-01-16 11:02:09.28	117.88	14.72	-31.8	-36.4	15.2	6.06e-01	0	43	0	6291456	25	6148
2026-01-16 11:02:12.26	117.52	15.02	-31.5	-35.6	15.9	6.07e-01	0	43	0	12058624	25	5732
2026-01-16 11:02:15.24	117.15	15.33	-31.5	-35.6	15.9	6.07e-01	0	43	0	17301504	25	5722
2026-01-16 11:02:18.23	116.78	15.64	-30.6	-33.6	17.9	6.06e-01	0	43	0	23068672	23	5084
2026-01-16 11:02:21.22	116.39	15.96	-29.7	-32.3	19.3	6.09e-01	0	43	0	28835840	21	4854
2026-01-16 11:02:24.19	116.00	16.27	-29.7	-32.3	19.4	6.06e-01	0	43	0	34078720	21	4846
2026-01-16 11:02:27.18	115.60	16.59	-29.6	-32.0	19.6	6.06e-01	0	43	0	39845888	21	4735
2026-01-16 11:02:30.15	115.19	16.92	-29.8	-32.5	19.3	6.06e-01	0	43	0	45613056	21	4893
2026-01-16 11:02:33.13	114.77	17.24	-29.5	-31.7	19.8	6.07e-01	0	43	0	50855936	21	4633
2026-01-16 11:02:36.12	114.33	17.57	-29.8	-32.4	19.4	6.06e-01	0	43	0	56623104	21	4864
2026-01-16 11:02:39.12	113.89	17.91	-29.9	-32.7	19.2	6.06e-01	0	43	0	62390272	21	4964
2026-01-16 11:02:42.11	113.44	18.25	-29.8	-32.6	19.3	6.04e-01	0	43	0	67633152	21	4940
2026-01-16 11:02:45.09	112.97	18.58	-29.7	-32.1	19.6	6.05e-01	0	42	0	73400320	21	4755
2026-01-16 11:02:48.08	112.50	18.93	-29.6	-31.8	19.8	6.04e-01	0	43	0	79167488	21	4660
2026-01-16 11:02:51.07	112.01	19.28	-29.8	-32.4	19.5	6.06e-01	0	42	0	84934656	21	4862
2026-01-16 11:02:54.05	111.51	19.63	-29.8	-32.5	19.5	6.07e-01	0	42	0	90177536	21	4883
2026-01-16 11:02:57.03	111.00	19.98	-30.0	-32.7	19.3	6.05e-01	0	43	0	95944704	21	4958
2026-01-16 11:03:00.03	110.48	20.34	-29.9	-32.5	19.5	6.04e-01	0	43	0	101711872	21	4874
2026-01-16 11:03:03.01	109.94	20.69	-29.9	-32.6	19.5	6.09e-01	0	43	0	106954752	21	4912
2026-01-16 11:03:06.00	109.39	21.06	-29.8	-32.4	19.6	6.07e-01	0	42	0	112721920	21	4829
2026-01-16 11:03:08.98	108.83	21.42	-29.8	-32.3	19.7	6.06e-01	0	43	0	118489088	21	4783
2026-01-16 11:03:11.98	108.25	21.79	-29.8	-32.4	19.7	6.08e-01	0	43	0	123731968	21	4821
2026-01-16 11:03:14.98	107.65	22.16	-29.8	-32.3	19.7	6.07e-01	0	43	0	129499136	21	4807
2026-01-16 11:03:17.99	107.04	22.54	-29.8	-32.2	19.8	6.04e-01	0	43	0	135266304	21	4763
2026-01-16 11:03:21.00	106.41	22.92	-29.9	-32.5	19.6	6.05e-01	0	42	0	140509184	21	4853
2026-01-16 11:03:24.01	105.76	23.30	-30.0	-32.7	19.5	6.07e-01	0	43	0	146276352	21	4912
2026-01-16 11:03:27.02	105.10	23.69	-29.9	-32.6	19.6	6.08e-01	0	43	0	152043520	21	4882
2026-01-16 11:03:30.04	104.41	24.07	-29.9	-32.4	19.7	6.06e-01	0	43	0	157810688	21	4812
2026-01-16 11:03:33.03	103.72	24.46	-30.0	-32.7	19.6	6.06e-01	0	43	0	163577856	21	4913
2026-01-16 11:03:36.03	103.01	24.85	-29.8	-32.3	19.8	6.08e-01	0	43	0	168820736	21	4799
2026-01-16 11:03:39.03	102.27	25.24	-29.9	-32.6	19.6	6.05e-01	0	43	0	174587904	21	4892
2026-01-16 11:03:42.04	101.52	25.63	-29.8	-32.2	19.9	6.08e-01	0	43	0	180355072	21	4767
2026-01-16 11:03:45.04	100.74	26.02	-30.0	-32.7	19.6	6.04e-01	0	43	0	185597952	21	4913
2026-01-16 11:03:48.04	99.95	26.41	-29.6	-31.8	20.1	6.06e-01	0	43	0	191365120	21	4637
2026-01-16 11:03:51.04	99.14	26.80	-29.6	-31.9	20.1	6.06e-01	0	43	0	197132288	21	4658
2026-01-16 11:03:54.05	98.30	27.20	-29.4	-31.3	20.4	6.06e-01	0	43	0	202899456	21	4489
2026-01-16 11:03:57.06	97.44	27.59	-29.5	-31.9	20.4	6.06e-01	0	43	0	208666624	20	4779
2026-01-16 11:04:00.07	96.56	27.98	-29.3	-31.5	20.6	6.08e-01	0	43	0	213909504	20	4639
2026-01-16 11:04:03.07	95.66	28.37	-29.5	-31.9	20.4	6.07e-01	0	43	0	219676672	20	4790
2026-01-16 11:04:06.08	94.73	28.76	-29.4	-31.7	20.5	6.08e-01	0	43	0	225443840	20	4705
2026-01-16 11:04:09.09	93.78	29.14	-29.2	-31.3	20.8	6.05e-01	0	43	0	230686720	20	4554
2026-01-16 11:04:12.09	92.81	29.52	-29.2	-31.3	20.8	6.05e-01	0	43	0	236453888	20	4567
2026-01-16 11:04:15.09	91.82	29.90	-29.2	-31.2	20.8	6.06e-01	0	43	0	242221056	20	4536
2026-01-16 11:04:18.11	90.79	30.27	-29.4	-31.7	20.6	6.03e-01	0	43	0	247988224	20	4677
2026-01-16 11:04:21.12	89.75	30.64	-29.2	-31.1	20.9	6.07e-01	0	43	0	253755392	20	4503
2026-01-16 11:04:24.12	88.68	31.00	-29.3	-31.4	20.9	6.04e-01	0	43	0	258998272	20	4570
2026-01-16 11:04:27.12	87.58	31.36	-29.3	-31.4	20.8	6.07e-01	0	43	0	264765440	20	4590
2026-01-16 11:04:30.12	86.47	31.71	-29.3	-31.3	20.8	6.06e-01	0	43	0	270532608	20	4563
2026-01-16 11:04:33.14	85.32	32.05	-29.2	-31.2	20.9	6.06e-01	0	43	0	275775488	20	4514
2026-01-16 11:04:36.14	84.15	32.38	-29.4	-31.7	20.6	6.05e-01	0	43	0	281542656	20	4679
2026-01-16 11:04:39.12	82.97	32.70	-29.2	-31.1	21.0	6.08e-01	0	43	0	287309824	20	4472
2026-01-16 11:04:42.12	81.75	33.01	-29.4	-31.5	20.8	6.07e-01	0	42	0	293076992	20	4611
2026-01-16 11:04:45.13	80.51	33.31	-29.4	-31.7	20.7	6.06e-01	0	42	0	298319872	20	4676
2026-01-16 11:04:48.13	79.24	33.60	-29.9	-42.2	3.8	7.46e-01	0	43	104	302514176	20	14895
2026-01-16 11:04:51.13	77.96	33.87	-30.9	-43.8	3.8	7.47e-01	0	43	104	302514176	22	15896
2026-01-16 11:04:54.13	76.65	34.13	-31.4	-44.4	3.9	7.43e-01	0	43	104	302514176	23	16214
2026-01-16 11:04:57.15	75.31	34.38	-32.2	-45.9	3.8	7.45e-01	0	43	104	302514176	25	17397
2026-01-16 11:05:00.15	73.97	34.61	-33.2	-48.4	3.8	7.45e-01	0	43	104	302514176	27	20699
2026-01-16 11:05:03.15	72.60	34.83	-33.6	-49.5	3.8	7.44e-01	0	43	104	302514176	28	22625
2026-01-16 11:05:06.15	71.21	35.02	-33.8	-50.7	3.8	7.43e-01	0	42	104	302514176	28	25096
2026-01-16 11:05:09.16	69.81	35.20	-33.6	-49.5	3.8	7.45e-01	0	43	104	302514176	28	22462
2026-01-16 11:05:12.16	68.39	35.36	-33.5	-49.1	3.8	7.46e-01	0	43	104	302514176	28	21786
2026-01-16 11:05:15.16	66.96	35.51	-33.0	-47.3	3.8	7.47e-01	0	42	104	302514176	28	18721
2026-01-16 11:05:18.17	65.51	35.63	-32.4	-45.6	3.8	7.44e-01	0	43	104	302514176	27	16419
2026-01-16 11:05:21.17	64.06	35.73	-32.1	-45.2	3.8	7.44e-01	0	43	104	302514176	26	16192
2026-01-16 11:05:24.18	62.59	35.81	-31.7	-44.3	3.8	7.42e-01	0	43	104	302514176	25	15379
2026-01-16 11:05:27.16	61.14	35.88	-30.7	-42.5	3.8	7.43e-01	0	43	104	302514176	23	14069
2026-01-16 11:05:30.17	59.66	35.92	-30.4	-42.5	3.8	7.45e-01	0	43	104	302514176	22	14422
2026-01-16 11:05:33.18	58.18	35.94	-30.2	-41.8	3.8	7.45e-01	0	43	104	302514176	22	13691
2026-01-16 11:05:36.19	56.70	35.93	-30.5	-42.6	3.8	7.44e-01	0	43	104	302514176	22	14486
2026-01-16 11:05:39.20	55.22	35.91	-30.9	-43.5	3.8	7.47e-01	0	42	104	302514176	22	15380
2026-01-16 11:05:42.21	53.75	35.87	-31.9	-45.6	3.8	7.43e-01	0	42	104	302514176	24	17263
2026-01-16 11:05:45.22	52.28	35.80	-32.9	-47.6	3.8	7.47e-01	0	43	104	302514176	26	19516
2026-01-16 11:05:48.22	50.82	35.72	-33.7	-50.0	3.8	7.45e-01	0	43	104	302514176	28	23470
2026-01-16 11:05:51.23	49.36	35.61	-33.8	-50.3	3.8	7.44e-01	0	43	104	302514176	28	24141
2026-01-16 11:05:54.24	47.92	35.48	-33.7	-50.1	3.8	7.44e-01	0	43	104	302514176	28	23706
2026-01-16 11:05:57.26	46.48	35.34	-33.6	-49.4	3.8	7.45e-01	0	43	104	302514176	28	22133
2026-01-16 11:06:00.25	45.08	35.18	-33.5	-49.0	3.8	7.45e-01	0	43	104	302514176	28	21521
2026-01-16 11:06:03.26	43.68	34.99	-33.2	-47.9	3.8	7.45e-01	0	43	104	302514176	28	19564
2026-01-16 11:06:06.25	42.30	34.79	-32.4	-45.4	3.8	7.45e-01	0	43	104	302514176	27	16151
2026-01-16 11:06:09.26	40.93	34.58	-32.0	-44.6	3.8	7.46e-01	0	43	104	302514176	26	15448
2026-01-16 11:06:12.27	39.59	34.34	-31.8	-44.7	3.8	7.41e-01	0	43	104	302514176	25	15844
2026-01-16 11:06:15.28	38.26	34.09	-30.9	-42.7	3.8	7.45e-01	0	43	104	302514176	24	13968
2026-01-16 11:06:18.28	36.96	33.83	-30.2	-42.0	3.8	7.42e-01	0	43	104	302514176	22	13964
2026-01-16 11:06:21.28	35.68	33.56	-30.1	-41.6	3.8	7.46e-01	0	43	104	302514176	22	13490
2026-01-16 11:06:24.29	34.42	33.27	-31.1	-44.1	3.8	7.46e-01	0	42	104	302514176	22	16164
2026-01-16 11:06:27.29	33.19	32.97	-31.5	-44.5	3.8	7.39e-01	0	43	104	302514176	23	16241
2026-01-16 11:06:30.31	31.97	32.65	-32.2	-45.8	3.8	7.45e-01	0	43	104	302514176	25	17255
2026-01-16 11:06:33.31	30.79	32.33	-33.0	-48.2	3.8	7.46e-01	0	43	104	302514176	26	20584
2026-01-16 11:06:36.30	29.63	32.00	-33.7	-50.2	3.8	7.46e-01	0	43	104	302514176	28	23947
2026-01-16 11:06:39.31	28.49	31.66	-33.4	-48.8	3.8	7.47e-01	0	43	104	302514176	28	21166
2026-01-16 11:06:42.32	27.38	31.31	-33.5	-49.1	3.8	7.43e-01	0	43	104	302514176	28	21723
2026-01-16 11:06:45.33	26.29	30.95	-33.5	-49.2	3.8	7.47e-01	0	43	104	302514176	28	22049
2026-01-16 11:06:48.34	25.23	30.59	-33.4	-48.6	3.8	7.41e-01	0	43	104	302514176	28	20809
2026-01-16 11:06:51.35	24.19	30.22	-33.4	-48.7	3.8	7.47e-01	0	43	104	302514176	28	20965
2026-01-16 11:06:54.36	23.17	29.85	-32.6	-46.2	3.8	7.50e-01	0	42	104	302514176	27	17160
2026-01-16 11:06:57.37	22.18	29.47	-31.7	-44.4	3.8	7.40e-01	0	43	104	302514176	25	15568
2026-01-16 11:07:00.36	21.22	29.10	-31.5	-43.9	3.8	7.47e-01	0	43	104	302514176	25	15092
2026-01-16 11:07:03.37	20.28	28.71	-31.6	-44.1	3.8	7.43e-01	0	43	104	302514176	25	15277
2026-01-16 11:07:06.38	19.36	28.33	-30.7	-42.6	3.8	7.47e-01	0	43	104	302514176	23	14220
2026-01-16 11:07:09.39	18.47	27.94	-30.4	-42.3	3.8	7.44e-01	0	43	104	302514176	22	14317
2026-01-16 11:07:12.41	17.59	27.55	-31.8	-45.3	3.8	7.43e-01	0	43	104	302514176	24	17068
2026-01-16 11:07:15.42	16.74	27.16	-33.1	-48.2	3.8	7.45e-01	0	43	104	302514176	27	20317
2026-01-16 11:07:18.44	15.90	26.76	-32.8	-46.7	3.8	7.46e-01	0	43	104	302514176	27	17970
2026-01-16 11:07:21.44	15.10	26.37	-33.1	-48.2	3.8	7.43e-01	0	43	104	302514176	27	20462
2026-01-16 11:07:24.44	14.31	25.98	-33.6	-50.1	3.8	7.47e-01	0	43	104	302514176	28	24023
2026-01-16 11:07:27.45	13.55	25.59	-33.0	-47.4	3.8	7.43e-01	0	43	104	302514176	28	18951
2026-01-16 11:07:30.46	12.80	25.20	-33.1	-48.3	3.8	7.45e-01	0	43	104	302514176	27	20685
2026-01-16 11:07:33.46	12.07	24.81	-33.5	-49.8	3.8	7.47e-01	0	43	104	302514176	27	23632
2026-01-16 11:07:36.47	11.36	24.43	-33.4	-49.4	3.8	7.46e-01	0	43	104	302514176	27	22864
2026-01-16 11:07:39.48	10.67	24.04	-33.1	-48.5	3.8	7.47e-01	0	43	104	302514176	27	21125
2026-01-16 11:07:42.49	10.00	23.66	-32.9	-47.7	3.8	7.44e-01	0	43	104	302514176	27	19569
2026-01-16 11:07:45.49	9.34	23.28	-32.0	-45.1	3.8	7.46e-01	0	43	104	302514176	26	16205
2026-01-16 11:07:48.50	8.70	22.90	-31.4	-43.6	3.8	7.43e-01	0	43	104	302514176	25	14723
2026-01-16 11:07:51.50	8.08	22.52	-31.9	-45.3	3.8	7.44e-01	0	43	104	302514176	25	16921
2026-01-16 11:07:54.51	7.47	22.15	-31.8	-45.1	3.8	7.46e-01	0	42	104	302514176	25	16544
2026-01-16 11:07:57.52	6.88	21.78	-31.1	-43.4	3.8	7.45e-01	0	43	104	302514176	24	14814
2026-01-16 11:08:00.51	6.30	21.41	-31.7	-45.3	3.8	7.44e-01	0	43	104	302514176	24	17180
2026-01-16 11:08:03.50	5.74	21.05	-33.0	-48.4	3.8	7.45e-01	0	43	104	302514176	26	21144
2026-01-16 11:08:06.51	5.19	20.68	-33.4	-49.9	3.8	7.47e-01	0	42	104	302514176	27	24160
2026-01-16 11:08:09.52	4.66	20.32	-33.3	-49.3	3.8	7.45e-01	0	43	104	302514176	27	22807
2026-01-16 11:08:12.53	4.14	19.97	-33.3	-49.4	3.8	7.46e-01	0	43	104	302514176	27	23120
2026-01-16 11:08:15.53	3.63	19.61	-32.7	-47.0	3.8	7.44e-01	0	43	104	302514176	27	18717
2026-01-16 11:08:18.53	3.13	19.26	-32.1	-45.7	3.8	7.47e-01	0	43	104	302514176	26	17187
2026-01-16 11:08:21.54	2.65	18.92	-32.7	-47.6	3.8	7.47e-01	0	43	104	302514176	26	19971
2026-01-16 11:08:24.55	2.17	18.57	-33.1	-49.1	3.8	7.46e-01	0	43	104	302514176	27	22681
2026-01-16 11:08:27.56	1.71	18.23	-32.8	-47.8	3.8	7.43e-01	0	43	104	302514176	27	20111
2026-01-16 11:08:30.58	1.26	17.89	-32.8	-47.5	3.8	7.44e-01	0	43	104	302514176	27	19596
2026-01-16 11:08:33.58	0.82	17.56	-32.1	-45.7	3.8	7.45e-01	0	43	104	302514176	26	17200
2026-01-16 11:08:36.59	0.39	17.23	-31.1	-43.6	3.8	7.45e-01	0	43	104	302514176	24	15132
2026-01-16 11:08:39.59	359.97	16.90	-31.8	-45.6	3.8	7.44e-01	0	43	104	302514176	24	17822
2026-01-16 11:08:42.61	359.56	16.58	-32.5	-47.5	3.8	7.41e-01	0	43	104	302514176	25	20298
2026-01-16 11:08:45.62	359.16	16.26	-32.2	-46.2	3.8	7.46e-01	0	43	104	302514176	25	18066
2026-01-16 11:08:48.61	358.77	15.94	-32.0	-45.8	3.8	7.44e-01	0	43	104	302514176	25	17824
2026-01-16 11:08:51.61	358.39	15.63	-32.9	-48.4	3.8	7.47e-01	0	42	104	302514176	26	21672
2026-01-16 11:08:54.60	358.02	15.32	-33.3	-49.8	3.8	7.43e-01	0	42	104	302514176	27	24132
2026-01-16 11:08:57.60	357.66	15.01	-33.2	-49.5	3.8	7.42e-01	0	43	104	302514176	27	23505
2026-01-16 11:09:00.61	357.30	14.71	-33.1	-49.2	3.8	7.45e-01	0	43	104	302514176	27	23005
2026-01-16 11:09:03.62	356.95	14.41	-32.7	-47.3	3.8	7.42e-01	0	42	104	302514176	27	19400
2026-01-16 11:09:06.62	356.61	14.11	-31.8	-45.2	3.8	7.44e-01	0	43	104	302514176	25	16824
2026-01-16 11:09:09.63	356.28	13.81	-31.8	-45.3	3.8	7.42e-01	0	43	104	302514176	25	16977
2026-01-16 11:09:12.64	355.95	13.52	-32.5	-48.0	3.8	7.43e-01	0	43	104	302514176	25	21381
2026-01-16 11:09:15.65	355.63	13.23	-32.7	-48.3	3.8	7.45e-01	0	43	104	302514176	26	21583
2026-01-16 11:09:18.66	355.32	12.95	-32.5	-47.3	3.8	7.45e-01	0	43	104	302514176	26	19814
2026-01-16 11:09:21.67	355.01	12.66	-32.7	-48.2	3.8	7.46e-01	0	43	104	302514176	26	21430
2026-01-16 11:09:24.69	354.71	12.38	-31.8	-45.6	3.8	7.45e-01	0	43	104	302514176	25	17570
2026-01-16 11:09:27.70	354.41	12.10	-31.9	-45.8	3.8	7.47e-01	0	43	104	302514176	25	17838
2026-01-16 11:09:30.71	354.13	11.83	-32.5	-48.2	3.8	7.45e-01	0	43	104	302514176	25	21944
2026-01-16 11:09:33.72	353.85	11.56	-32.9	-49.0	3.8	7.47e-01	0	43	104	302514176	26	23149
2026-01-16 11:09:36.72	353.57	11.29	-32.8	-48.7	3.8	7.43e-01	0	43	104	302514176	26	22410
2026-01-16 11:09:39.72	353.30	11.02	-33.0	-49.6	3.8	7.46e-01	0	43	104	302514176	26	24379
2026-01-16 11:09:42.73	353.04	10.76	-33.2	-50.3	3.8	7.47e-01	0	43	104	302514176	27	25766
2026-01-16 11:09:45.74	352.78	10.49	-32.8	-48.1	3.8	7.44e-01	0	43	104	302514176	27	20995
2026-01-16 11:09:48.76	352.52	10.23	-32.7	-48.0	3.8	7.46e-01	0	43	104	302514176	27	20847
2026-01-16 11:09:51.77	352.27	9.98	-32.7	-47.7	3.8	7.47e-01	0	43	104	302514176	27	20379
2026-01-16 11:09:54.78	352.03	9.72	-32.0	-45.7	3.8	7.46e-01	0	43	104	302514176	26	17452
2026-01-16 11:09:57.78	351.79	9.47	-31.2	-44.3	3.8	7.46e-01	0	43	104	302514176	24	16198
2026-01-16 11:10:00.79	351.55	9.22	-31.8	-46.4	3.8	7.44e-01	0	43	104	302514176	24	19174
2026-01-16 11:10:03.81	351.32	8.97	-32.5	-48.7	3.8	7.50e-01	0	43	104	302514176	25	23025
2026-01-16 11:10:06.82	351.10	8.73	-32.5	-48.0	3.8	7.45e-01	0	43	104	302514176	26	21324
2026-01-16 11:10:09.83	350.87	8.48	-32.8	-49.4	3.8	7.49e-01	0	43	104	302514176	26	24381
2026-01-16 11:10:12.84	350.66	8.24	-32.7	-49.0	3.8	7.45e-01	0	43	104	302514176	26	23428
2026-01-16 11:10:15.85	350.44	8.01	-32.1	-46.6	3.8	7.46e-01	0	43	104	302514176	26	19071
2026-01-16 11:10:18.86	350.23	7.77	-32.6	-48.6	3.8	7.47e-01	0	43	104	302514176	26	22710
2026-01-16 11:10:21.86	350.03	7.54	-32.8	-49.9	3.8	7.45e-01	0	43	104	302514176	26	25642
2026-01-16 11:10:24.87	349.83	7.30	-32.8	-50.0	3.8	7.42e-01	0	43	104	302514176	26	26080
2026-01-16 11:10:27.88	349.63	7.07	-33.5	-53.0	3.8	7.46e-01	0	43	104	302514176	27	34013

#Closed at: 2026-01-16 11:10:29
#Recorded file [302 MB]: D:/data/31010_260116_140205.dat