passes_logs/2026/01/16/R2M6_AANII_01/R2M6_AANII_01__20260116_052016_FENGYUN_3E_rec.log

#Pass ID: 20260116_052016_FENGYUN 3E
#Satellite: FENGYUN 3E
#Configuration: FENGYUN 3E
#almurnet v.1.7.20240730
#Start time: 2026-01-16 05:20:16

#Version: 2.2.20231116
#Station: R2M6_AANII_01
#Location: 30.233357 lon 59.946436 lat
#TLE: 1 49008U 21062A   26015.49897766  .00000206  00000+0  11779-3 0  9997
#TLE: 2 49008  98.7486  20.6219 0002049 135.8566 224.2775 14.19885576234916

#Time	Az	El	Level	Level2	SNR	BER	BlckErr	Temp	State	Recorded	gain1	gain2
2026-01-16 05:20:16.27	14.75	6.97	-29.8	-32.3	5.2	7.84e-01	0	41	0	0	19	4815
2026-01-16 05:20:19.27	14.65	7.20	-30.1	-32.7	8.6	2.80e-02	0	41	0	7340032	20	4852
2026-01-16 05:20:22.26	14.54	7.43	-30.3	-33.1	8.4	4.65e-02	0	42	0	28311552	20	4974
2026-01-16 05:20:25.26	14.43	7.66	-30.4	-32.9	8.1	5.78e-02	0	42	0	50331648	21	4815
2026-01-16 05:20:28.26	14.33	7.89	-28.6	-29.7	11.3	2.05e-03	0	42	0	71303168	18	4067
2026-01-16 05:20:31.27	14.22	8.12	-27.2	-27.9	13.2	4.11e-05	0	42	0	93323264	15	3900
2026-01-16 05:20:34.29	14.10	8.36	-27.6	-28.9	12.6	1.17e-04	0	42	0	115343360	15	4168
2026-01-16 05:20:37.30	13.99	8.60	-27.2	-27.9	13.2	2.74e-05	0	42	0	137363456	15	3880
2026-01-16 05:20:40.30	13.87	8.84	-27.2	-28.3	13.3	2.86e-05	0	42	0	158334976	14	4086
2026-01-16 05:20:43.31	13.75	9.08	-27.1	-28.0	13.4	1.48e-05	0	42	0	180355072	14	4031
2026-01-16 05:20:46.29	13.63	9.33	-26.8	-27.9	13.8	8.00e-06	0	42	0	202375168	13	4104
2026-01-16 05:20:49.28	13.51	9.57	-26.9	-28.2	13.6	9.10e-06	0	42	0	223346688	13	4190
2026-01-16 05:20:52.30	13.38	9.82	-26.5	-27.4	14.2	3.40e-06	0	43	0	245366784	13	3954
2026-01-16 05:20:55.29	13.25	10.07	-26.5	-27.3	14.2	1.10e-06	0	42	0	267386880	13	3930
2026-01-16 05:20:58.29	13.12	10.33	-26.7	-27.6	14.0	4.50e-06	0	43	0	288358400	13	4021
2026-01-16 05:21:01.31	12.99	10.59	-26.3	-27.2	14.6	0.00e+00	0	42	0	310378496	12	4026
2026-01-16 05:21:04.31	12.85	10.84	-26.5	-27.2	14.3	1.10e-06	0	43	0	332398592	13	3910
2026-01-16 05:21:07.31	12.72	11.11	-26.1	-26.9	14.8	1.10e-06	0	43	0	353370112	12	3940
2026-01-16 05:21:10.32	12.57	11.37	-26.2	-27.0	14.7	0.00e+00	0	43	0	375390208	12	3975
2026-01-16 05:21:13.31	12.43	11.64	-26.2	-27.0	14.8	0.00e+00	0	43	0	396361728	12	3952
2026-01-16 05:21:16.32	12.28	11.91	-25.9	-26.3	15.1	0.00e+00	0	43	0	418381824	12	3790
2026-01-16 05:21:19.32	12.14	12.18	-25.9	-26.4	15.1	1.10e-06	0	43	0	440401920	12	3804
2026-01-16 05:21:22.33	11.98	12.46	-25.9	-27.0	15.2	0.00e+00	0	43	0	462422016	11	4054
2026-01-16 05:21:25.34	11.83	12.74	-25.9	-26.8	15.2	0.00e+00	0	43	0	483393536	11	4023
2026-01-16 05:21:28.35	11.67	13.02	-25.7	-26.5	15.4	0.00e+00	0	43	0	505413632	11	3943
2026-01-16 05:21:31.36	11.50	13.30	-25.9	-26.8	15.3	0.00e+00	0	43	0	527433728	11	4009
2026-01-16 05:21:34.35	11.34	13.59	-25.7	-26.5	15.5	0.00e+00	0	43	0	548405248	11	3937
2026-01-16 05:21:37.36	11.17	13.88	-25.6	-26.2	15.6	0.00e+00	0	43	0	570425344	11	3872
2026-01-16 05:21:40.36	11.00	14.18	-25.4	-26.3	15.9	0.00e+00	0	43	0	592445440	10	3991
2026-01-16 05:21:43.36	10.82	14.47	-25.4	-25.8	15.9	0.00e+00	0	43	0	613416960	11	3772
2026-01-16 05:21:46.35	10.64	14.77	-25.2	-25.9	16.2	0.00e+00	0	43	0	635437056	10	3891
2026-01-16 05:21:49.35	10.46	15.08	-25.4	-26.2	16.0	0.00e+00	0	43	0	657457152	10	3959
2026-01-16 05:21:52.35	10.27	15.39	-25.7	-26.4	15.7	0.00e+00	0	43	0	678428672	11	3897
2026-01-16 05:21:55.36	10.07	15.70	-25.5	-25.9	15.9	0.00e+00	0	43	0	700448768	11	3787
2026-01-16 05:21:58.37	9.88	16.01	-25.3	-25.7	16.0	0.00e+00	0	43	0	722468864	11	3736
2026-01-16 05:22:01.38	9.67	16.33	-24.8	-25.1	16.7	0.00e+00	0	43	0	744488960	10	3694
2026-01-16 05:22:04.37	9.47	16.66	-24.7	-25.4	16.7	1.10e-06	0	43	0	765460480	9	3867
2026-01-16 05:22:07.38	9.26	16.98	-24.7	-25.2	16.9	0.00e+00	0	44	0	787480576	9	3826
2026-01-16 05:22:10.38	9.04	17.31	-24.7	-25.2	16.9	0.00e+00	0	44	0	809500672	9	3826
2026-01-16 05:22:13.39	8.82	17.65	-24.7	-25.2	16.9	0.00e+00	0	44	0	830472192	9	3819
2026-01-16 05:22:16.40	8.59	17.99	-24.8	-25.5	16.8	0.00e+00	0	43	0	852492288	9	3892
2026-01-16 05:22:19.39	8.36	18.33	-24.5	-24.8	17.1	0.00e+00	0	43	0	874512384	9	3737
2026-01-16 05:22:22.38	8.13	18.68	-24.6	-25.0	17.0	1.10e-06	0	44	0	895483904	9	3787
2026-01-16 05:22:25.38	7.89	19.03	-24.5	-25.3	17.2	1.10e-06	0	43	0	917504000	8	3952
2026-01-16 05:22:28.39	7.64	19.39	-24.3	-25.0	17.3	0.00e+00	0	44	0	939524096	8	3872
2026-01-16 05:22:31.39	7.38	19.75	-24.4	-25.2	17.2	0.00e+00	0	44	0	960495616	8	3933
2026-01-16 05:22:34.38	7.12	20.11	-24.9	-25.6	16.7	0.00e+00	0	44	0	982515712	9	3930
2026-01-16 05:22:37.38	6.85	20.48	-24.3	-24.4	17.4	0.00e+00	0	44	0	1003487232	9	3649
2026-01-16 05:22:40.39	6.58	20.86	-24.4	-24.7	17.3	0.00e+00	0	44	0	1025507328	9	3700
2026-01-16 05:22:43.39	6.30	21.24	-24.0	-23.8	17.7	0.00e+00	0	44	0	1047527424	9	3508
2026-01-16 05:22:46.39	6.01	21.63	-23.9	-24.2	17.8	0.00e+00	0	43	0	1068498944	8	3686
2026-01-16 05:22:49.39	5.71	22.02	-24.2	-24.8	17.5	0.00e+00	0	44	0	1090519040	8	3826
2026-01-16 05:22:52.39	5.41	22.41	-24.2	-24.6	17.6	0.00e+00	0	44	0	1112539136	8	3788
2026-01-16 05:22:55.40	5.09	22.81	-24.2	-24.8	17.5	0.00e+00	0	44	0	1133510656	8	3826
2026-01-16 05:22:58.40	4.77	23.22	-24.4	-25.2	17.3	0.00e+00	0	44	0	1155530752	8	3920
2026-01-16 05:23:01.41	4.44	23.63	-24.3	-24.5	17.4	0.00e+00	0	44	0	1177550848	9	3659
2026-01-16 05:23:04.42	4.10	24.05	-24.1	-24.0	17.7	0.00e+00	0	44	0	1199570944	9	3559
2026-01-16 05:23:07.42	3.75	24.47	-24.1	-24.0	17.7	0.00e+00	0	44	0	1220542464	9	3563
2026-01-16 05:23:10.42	3.39	24.90	-24.2	-24.7	17.6	0.00e+00	0	44	0	1242562560	8	3808
2026-01-16 05:23:13.43	3.02	25.34	-23.8	-23.9	18.0	0.00e+00	0	44	0	1264582656	8	3622
2026-01-16 05:23:16.44	2.64	25.78	-23.5	-23.2	18.4	0.00e+00	0	44	0	1285554176	8	3492
2026-01-16 05:23:19.44	2.25	26.23	-23.3	-23.3	18.6	0.00e+00	0	44	0	1307574272	7	3590
2026-01-16 05:23:22.44	1.85	26.68	-23.3	-23.3	18.6	0.00e+00	0	44	0	1329594368	7	3604
2026-01-16 05:23:25.45	1.43	27.14	-23.0	-22.7	18.9	0.00e+00	0	44	0	1350565888	7	3463
2026-01-16 05:23:28.45	1.01	27.60	-23.1	-23.3	18.8	0.00e+00	0	44	0	1372585984	6	3703
2026-01-16 05:23:31.46	0.57	28.08	-23.0	-23.2	18.9	0.00e+00	0	44	0	1394606080	6	3692
2026-01-16 05:23:34.46	0.11	28.55	-23.3	-23.8	18.6	0.00e+00	0	44	0	1415577600	6	3807
2026-01-16 05:23:37.47	359.64	29.04	-23.4	-24.1	18.5	0.00e+00	0	44	0	1437597696	6	3886
2026-01-16 05:23:40.48	359.16	29.53	-23.4	-24.1	18.5	0.00e+00	0	44	0	1459617792	6	3877
2026-01-16 05:23:43.49	358.66	30.03	-23.7	-24.1	18.2	0.00e+00	0	44	0	1481637888	7	3780
2026-01-16 05:23:46.49	358.15	30.53	-23.4	-23.6	18.5	0.00e+00	0	44	0	1502609408	7	3659
2026-01-16 05:23:49.49	357.62	31.03	-23.7	-24.1	18.3	0.00e+00	0	44	0	1524629504	7	3771
2026-01-16 05:23:52.49	357.07	31.55	-24.1	-24.4	17.9	0.00e+00	0	44	0	1545601024	8	3738
2026-01-16 05:23:55.48	356.51	32.07	-23.7	-23.6	18.3	0.00e+00	0	44	0	1567621120	8	3557
2026-01-16 05:23:58.49	355.92	32.59	-23.4	-23.5	18.6	0.00e+00	0	44	0	1589641216	7	3637
2026-01-16 05:24:01.48	355.32	33.12	-23.3	-23.3	18.7	0.00e+00	0	44	0	1610612736	7	3594
2026-01-16 05:24:04.49	354.69	33.66	-23.2	-23.6	18.8	8.35e-05	0	44	0	1632632832	6	3759
2026-01-16 05:24:07.50	354.04	34.21	-23.3	-23.7	18.7	1.09e-04	0	44	0	1654652928	6	3797
2026-01-16 05:24:10.50	353.38	34.75	-23.2	-23.5	18.8	0.00e+00	0	44	0	1675624448	6	3751
2026-01-16 05:24:13.51	352.68	35.31	-23.7	-24.1	18.3	0.00e+00	0	44	0	1697644544	7	3767
2026-01-16 05:24:16.52	351.96	35.87	-23.6	-24.0	18.3	0.00e+00	0	44	0	1719664640	7	3751
2026-01-16 05:24:19.53	351.22	36.43	-23.2	-23.0	18.8	0.00e+00	0	44	0	1741684736	7	3533
2026-01-16 05:24:22.54	350.45	37.00	-23.3	-23.4	18.7	0.00e+00	0	44	0	1762656256	7	3610
2026-01-16 05:24:25.56	349.65	37.58	-23.2	-23.2	18.8	0.00e+00	0	44	0	1784676352	7	3577
2026-01-16 05:24:28.57	348.82	38.15	-23.5	-23.7	18.5	0.00e+00	0	44	0	1806696448	7	3684
2026-01-16 05:24:31.58	347.96	38.73	-23.1	-23.3	19.0	0.00e+00	0	44	0	1828716544	6	3701
2026-01-16 05:24:34.58	347.08	39.31	-23.3	-23.9	18.6	0.00e+00	0	44	0	1849688064	6	3833
2026-01-16 05:24:37.57	346.16	39.89	-23.4	-24.1	18.5	0.00e+00	0	44	0	1871708160	6	3879
2026-01-16 05:24:40.58	345.20	40.47	-23.5	-23.8	18.5	0.00e+00	0	44	0	1893728256	7	3697
2026-01-16 05:24:43.58	344.22	41.05	-23.8	-24.2	18.2	0.00e+00	0	44	0	1914699776	7	3805
2026-01-16 05:24:46.60	343.19	41.64	-23.6	-24.0	18.4	0.00e+00	0	44	0	1936719872	7	3744
2026-01-16 05:24:49.59	342.13	42.21	-23.5	-23.7	18.4	0.00e+00	0	44	0	1958739968	7	3683
2026-01-16 05:24:52.60	341.02	42.79	-23.2	-23.2	18.8	0.00e+00	0	44	0	1979711488	7	3570
2026-01-16 05:24:55.59	339.88	43.36	-23.5	-24.2	18.5	0.00e+00	0	44	0	2001731584	6	3906
2026-01-16 05:24:58.59	338.70	43.93	-23.9	-24.6	18.1	0.00e+00	0	44	0	2023751680	7	3897
2026-01-16 05:25:01.60	337.47	44.49	-24.2	-24.6	17.8	0.00e+00	0	44	0	2044723200	8	3799
2026-01-16 05:25:04.59	336.20	45.05	-24.3	-24.8	17.7	0.00e+00	0	44	0	2066743296	8	3835
2026-01-16 05:25:07.60	334.88	45.60	-23.9	-24.0	18.2	0.00e+00	0	44	0	2087714816	8	3642
2026-01-16 05:25:10.60	333.52	46.13	-24.0	-24.2	18.1	0.00e+00	0	44	0	2109734912	8	3686
2026-01-16 05:25:13.61	332.10	46.66	-24.1	-24.5	17.9	0.00e+00	0	44	0	2131755008	8	3763
2026-01-16 05:25:16.61	330.64	47.17	-24.3	-24.9	17.7	0.00e+00	0	44	0	2152726528	8	3859
2026-01-16 05:25:19.61	329.14	47.66	-24.0	-24.3	18.0	0.00e+00	0	44	0	2174746624	8	3724
2026-01-16 05:25:22.61	327.58	48.14	-23.7	-23.5	18.4	0.00e+00	0	44	0	2196766720	8	3537
2026-01-16 05:25:25.61	325.98	48.61	-24.3	-24.9	17.7	0.00e+00	0	44	0	2217738240	8	3850
2026-01-16 05:25:28.62	324.32	49.05	-24.8	-25.4	17.2	0.00e+00	0	44	0	2239758336	9	3866
2026-01-16 05:25:31.63	322.62	49.47	-24.5	-24.9	17.5	0.00e+00	0	44	0	2261778432	9	3739
2026-01-16 05:25:34.63	320.88	49.86	-24.3	-24.4	17.7	0.00e+00	0	44	0	2283798528	9	3638
2026-01-16 05:25:37.64	319.08	50.23	-24.5	-24.7	17.6	0.00e+00	0	44	0	2304770048	9	3720
2026-01-16 05:25:40.65	317.24	50.57	-24.9	-25.1	17.2	0.00e+00	0	44	0	2326790144	10	3693
2026-01-16 05:25:43.67	315.36	50.89	-24.1	-23.9	18.0	0.00e+00	0	44	0	2348810240	9	3528
2026-01-16 05:25:46.67	313.45	51.17	-24.4	-24.6	17.6	0.00e+00	0	44	0	2370830336	9	3676
2026-01-16 05:25:49.68	311.50	51.41	-24.2	-24.2	17.9	0.00e+00	0	44	0	2391801856	9	3584
2026-01-16 05:25:52.69	309.52	51.63	-24.4	-24.6	17.7	0.00e+00	0	44	0	2413821952	9	3683
2026-01-16 05:25:55.69	307.51	51.81	-24.8	-25.4	17.2	0.00e+00	0	44	0	2435842048	9	3851
2026-01-16 05:25:58.68	305.50	51.95	-24.7	-25.2	17.3	0.00e+00	0	44	0	2456813568	9	3819
2026-01-16 05:26:01.69	303.45	52.05	-25.0	-25.8	17.0	0.00e+00	0	44	0	2478833664	9	3959
2026-01-16 05:26:04.70	301.39	52.12	-24.5	-24.8	17.6	0.00e+00	0	44	0	2500853760	9	3719
2026-01-16 05:26:07.71	299.33	52.15	-24.6	-25.0	17.4	0.00e+00	0	44	0	2521825280	9	3778
2026-01-16 05:26:10.70	297.27	52.14	-24.6	-25.0	17.5	9.49e-05	0	44	0	2543845376	9	3761
2026-01-16 05:26:13.70	295.21	52.09	-24.2	-24.6	17.9	3.11e-04	0	44	0	2565865472	8	3776
2026-01-16 05:26:16.70	293.17	52.00	-25.0	-25.8	16.6	0.00e+00	0	44	0	2586836992	9	3964
2026-01-16 05:26:19.70	291.13	51.88	-24.7	-25.1	17.4	0.00e+00	0	44	0	2608857088	9	3801
2026-01-16 05:26:22.71	289.11	51.72	-24.6	-25.0	17.5	0.00e+00	0	44	0	2630877184	9	3764
2026-01-16 05:26:25.72	287.12	51.52	-24.5	-24.9	17.5	0.00e+00	0	44	0	2652897280	9	3742
2026-01-16 05:26:28.72	285.16	51.29	-24.1	-23.9	18.0	0.00e+00	0	44	0	2673868800	9	3529
2026-01-16 05:26:31.74	283.22	51.02	-24.3	-24.3	17.8	0.00e+00	0	44	0	2695888896	9	3618
2026-01-16 05:26:34.74	281.32	50.72	-24.2	-24.1	17.9	0.00e+00	0	44	0	2716860416	9	3580
2026-01-16 05:26:37.74	279.47	50.39	-24.5	-24.8	17.5	0.00e+00	0	44	0	2738880512	9	3732
2026-01-16 05:26:40.74	277.66	50.04	-24.4	-24.6	17.6	0.00e+00	0	44	0	2760900608	9	3670
2026-01-16 05:26:43.76	275.88	49.65	-24.5	-24.9	17.5	0.00e+00	0	44	0	2781872128	9	3747
2026-01-16 05:26:46.76	274.15	49.24	-24.5	-24.8	17.5	0.00e+00	0	44	0	2803892224	9	3738
2026-01-16 05:26:49.78	272.47	48.81	-24.3	-24.4	17.7	0.00e+00	0	44	0	2825912320	9	3628
2026-01-16 05:26:52.79	270.83	48.35	-23.9	-23.7	18.1	0.00e+00	0	44	0	2847932416	9	3479
2026-01-16 05:26:55.80	269.25	47.88	-23.6	-23.5	18.4	0.00e+00	0	44	0	2868903936	8	3535
2026-01-16 05:26:58.80	267.71	47.39	-24.3	-24.8	17.7	0.00e+00	0	44	0	2890924032	8	3845
2026-01-16 05:27:01.80	266.23	46.88	-23.6	-23.5	18.4	0.00e+00	0	44	0	2912944128	8	3530
2026-01-16 05:27:04.80	264.80	46.36	-23.5	-24.1	18.5	0.00e+00	0	44	0	2933915648	6	3886
2026-01-16 05:27:07.81	263.40	45.83	-23.8	-24.3	18.2	0.00e+00	0	44	0	2955935744	7	3829
2026-01-16 05:27:10.82	262.06	45.28	-23.9	-24.5	18.1	0.00e+00	0	44	0	2977955840	7	3869
2026-01-16 05:27:13.84	260.76	44.73	-23.6	-23.9	18.4	0.00e+00	0	44	0	2999975936	7	3729
2026-01-16 05:27:16.83	259.51	44.17	-23.3	-23.8	18.7	0.00e+00	0	44	0	3020947456	6	3802
2026-01-16 05:27:19.83	258.30	43.60	-23.1	-23.4	18.8	0.00e+00	0	44	0	3042967552	6	3736
2026-01-16 05:27:22.84	257.13	43.02	-23.1	-23.5	18.8	0.00e+00	0	44	0	3064987648	6	3736
2026-01-16 05:27:25.85	256.01	42.44	-23.3	-23.8	18.7	0.00e+00	0	44	0	3085959168	6	3805
2026-01-16 05:27:28.84	254.93	41.87	-23.6	-24.4	17.1	0.00e+00	0	44	0	3107979264	6	3952
2026-01-16 05:27:31.85	253.88	41.28	-23.3	-23.3	18.6	0.00e+00	0	44	0	3129999360	7	3601
2026-01-16 05:27:34.86	252.87	40.70	-23.0	-22.7	18.9	0.00e+00	0	44	0	3150970880	7	3481
2026-01-16 05:27:37.87	251.90	40.11	-23.1	-23.4	18.8	0.00e+00	0	44	0	3172990976	6	3731
2026-01-16 05:27:40.88	250.96	39.53	-23.0	-23.7	18.9	2.28e-04	0	44	0	3195011072	5	3893
2026-01-16 05:27:43.88	250.05	38.94	-23.4	-23.9	18.5	0.00e+00	0	44	0	3217031168	6	3843
2026-01-16 05:27:46.88	249.18	38.36	-23.4	-24.0	18.5	0.00e+00	0	44	0	3238002688	6	3860
2026-01-16 05:27:49.88	248.34	37.79	-23.4	-23.6	18.5	0.00e+00	0	44	0	3260022784	7	3661
2026-01-16 05:27:52.89	247.53	37.21	-23.5	-23.7	18.4	0.00e+00	0	44	0	3280994304	7	3681
2026-01-16 05:27:55.90	246.74	36.64	-23.5	-23.8	18.4	0.00e+00	0	44	0	3303014400	7	3701
2026-01-16 05:27:58.90	245.99	36.07	-23.6	-23.9	18.3	0.00e+00	0	44	0	3325034496	7	3738
2026-01-16 05:28:01.90	245.26	35.51	-23.7	-24.1	18.2	0.00e+00	0	44	0	3346006016	7	3774
2026-01-16 05:28:04.91	244.55	34.95	-23.1	-22.9	18.8	1.45e-04	0	44	0	3368026112	7	3511
2026-01-16 05:28:07.91	243.87	34.40	-22.6	-22.4	19.2	0.00e+00	0	44	0	3390046208	6	3513
2026-01-16 05:28:10.92	243.21	33.85	-23.0	-23.3	18.8	0.00e+00	0	44	0	3412066304	6	3704
2026-01-16 05:28:13.93	242.57	33.30	-23.3	-23.8	18.5	0.00e+00	0	44	0	3433037824	6	3812
2026-01-16 05:28:16.93	241.95	32.77	-22.9	-23.0	19.0	0.00e+00	0	44	0	3455057920	6	3637
2026-01-16 05:28:19.93	241.36	32.24	-22.9	-23.0	18.9	0.00e+00	0	44	0	3477078016	6	3636
2026-01-16 05:28:22.93	240.78	31.71	-22.9	-23.4	18.9	0.00e+00	0	44	0	3498049536	5	3820
2026-01-16 05:28:25.93	240.22	31.19	-23.0	-23.2	18.8	0.00e+00	0	44	0	3520069632	6	3683
2026-01-16 05:28:28.94	239.68	30.68	-22.9	-23.0	18.9	0.00e+00	0	44	0	3542089728	6	3633
2026-01-16 05:28:31.94	239.16	30.17	-22.7	-23.0	19.1	0.00e+00	0	44	0	3563061248	5	3744
2026-01-16 05:28:34.95	238.65	29.67	-22.9	-23.5	18.9	0.00e+00	0	44	0	3585081344	5	3845
2026-01-16 05:28:37.96	238.16	29.17	-23.0	-23.8	18.8	0.00e+00	0	44	0	3607101440	5	3911
2026-01-16 05:28:40.97	237.68	28.69	-23.3	-23.9	18.4	0.00e+00	0	44	0	3628072960	6	3832
2026-01-16 05:28:43.96	237.22	28.21	-23.4	-24.1	18.3	0.00e+00	0	44	0	3650093056	6	3894
2026-01-16 05:28:46.97	236.77	27.73	-23.4	-24.0	18.4	0.00e+00	0	44	0	3672113152	6	3864
2026-01-16 05:28:49.98	236.34	27.26	-23.4	-24.0	18.3	0.00e+00	0	44	0	3694133248	6	3875
2026-01-16 05:28:52.98	235.91	26.79	-23.5	-23.8	18.2	0.00e+00	0	44	0	3715104768	7	3706
2026-01-16 05:28:55.98	235.51	26.34	-23.7	-24.2	18.0	0.00e+00	0	44	0	3737124864	7	3794
2026-01-16 05:28:58.98	235.11	25.89	-23.6	-23.9	18.1	0.00e+00	0	44	0	3758096384	7	3745
2026-01-16 05:29:01.98	234.72	25.44	-23.7	-24.0	18.1	1.10e-06	0	44	0	3780116480	7	3768
2026-01-16 05:29:04.98	234.35	25.00	-23.5	-24.3	18.2	0.00e+00	0	44	0	3802136576	6	3921
2026-01-16 05:29:07.98	233.98	24.57	-23.4	-23.9	18.4	0.00e+00	0	44	0	3823108096	6	3850
2026-01-16 05:29:11.00	233.62	24.14	-23.3	-23.8	18.4	0.00e+00	0	44	0	3845128192	6	3827
2026-01-16 05:29:14.00	233.28	23.72	-23.4	-24.0	18.3	0.00e+00	0	44	0	3867148288	6	3864
2026-01-16 05:29:17.00	232.94	23.30	-23.1	-23.4	18.6	0.00e+00	0	44	0	3888119808	6	3734
2026-01-16 05:29:20.00	232.61	22.89	-23.4	-23.9	18.3	0.00e+00	0	44	0	3910139904	6	3844
2026-01-16 05:29:23.00	232.30	22.49	-23.6	-24.0	18.0	0.00e+00	0	44	0	3932160000	7	3766
2026-01-16 05:29:26.00	231.98	22.09	-23.8	-24.5	17.8	0.00e+00	0	44	0	3953131520	7	3869
2026-01-16 05:29:29.02	231.68	21.69	-24.5	-25.4	17.0	0.00e+00	0	44	0	3975151616	8	4002
2026-01-16 05:29:32.02	231.39	21.30	-24.4	-25.2	17.2	0.00e+00	0	44	0	3997171712	8	3932
2026-01-16 05:29:35.03	231.10	20.92	-24.3	-25.0	17.2	0.00e+00	0	44	0	4019191808	8	3881
2026-01-16 05:29:38.04	230.82	20.54	-24.3	-24.9	17.3	0.00e+00	0	44	0	4040163328	8	3858
2026-01-16 05:29:41.04	230.54	20.16	-24.0	-24.3	17.5	0.00e+00	0	44	0	4062183424	8	3733
2026-01-16 05:29:44.07	230.28	19.79	-24.1	-24.5	17.4	0.00e+00	0	44	0	4084203520	8	3775
2026-01-16 05:29:47.08	230.02	19.43	-24.2	-24.7	17.4	0.00e+00	0	44	0	4106223616	8	3813
2026-01-16 05:29:50.07	229.76	19.07	-24.6	-25.5	16.9	0.00e+00	0	44	0	4127195136	8	4010
2026-01-16 05:29:53.07	229.52	18.71	-24.7	-25.2	16.8	0.00e+00	0	44	0	4149215232	9	3837
2026-01-16 05:29:56.08	229.27	18.36	-25.0	-25.9	16.4	0.00e+00	0	44	0	4171235328	9	3991
2026-01-16 05:29:59.08	229.04	18.01	-24.8	-25.6	16.6	0.00e+00	0	44	0	4192206848	9	3918
2026-01-16 05:30:02.08	228.81	17.67	-24.8	-25.6	16.6	0.00e+00	0	44	0	4214226944	9	3933
2026-01-16 05:30:05.09	228.58	17.33	-24.9	-25.7	16.5	0.00e+00	0	44	0	4236247040	9	3946
2026-01-16 05:30:08.09	228.36	17.00	-24.6	-25.2	16.7	0.00e+00	0	44	0	4257218560	9	3829
2026-01-16 05:30:11.10	228.15	16.67	-24.7	-25.3	16.7	0.00e+00	0	44	0	4279238656	9	3863
2026-01-16 05:30:14.11	227.94	16.34	-24.8	-25.4	16.6	0.00e+00	0	44	0	4300210176	9	3880
2026-01-16 05:30:17.12	227.73	16.02	-24.7	-25.2	16.7	0.00e+00	0	44	0	4322230272	9	3843
2026-01-16 05:30:20.12	227.53	15.70	-24.8	-25.6	16.5	0.00e+00	0	44	0	4344250368	9	3936
2026-01-16 05:30:23.12	227.33	15.39	-24.7	-25.4	16.6	0.00e+00	0	44	0	4366270464	9	3879
2026-01-16 05:30:26.13	227.14	15.08	-25.0	-25.9	16.3	0.00e+00	0	44	0	4387241984	9	4014
2026-01-16 05:30:29.14	226.95	14.77	-25.1	-25.6	16.2	0.00e+00	0	44	0	4409262080	10	3818
2026-01-16 05:30:32.14	226.77	14.47	-25.3	-26.1	15.8	0.00e+00	0	44	0	4431282176	10	3944
2026-01-16 05:30:35.15	226.58	14.17	-25.3	-26.1	15.9	0.00e+00	0	44	0	4452253696	10	3940
2026-01-16 05:30:38.15	226.41	13.87	-25.5	-26.5	15.6	0.00e+00	0	44	0	4474273792	10	4036
2026-01-16 05:30:41.15	226.24	13.58	-25.4	-26.3	15.7	0.00e+00	0	44	0	4496293888	10	4008
2026-01-16 05:30:44.16	226.07	13.29	-25.6	-26.2	15.5	0.00e+00	0	44	0	4517265408	11	3877
2026-01-16 05:30:47.16	225.90	13.00	-25.8	-26.6	15.2	0.00e+00	0	44	0	4539285504	11	3968
2026-01-16 05:30:50.16	225.74	12.72	-25.7	-26.6	15.2	0.00e+00	0	44	0	4561305600	11	3965
2026-01-16 05:30:53.17	225.58	12.43	-25.9	-27.0	15.0	0.00e+00	0	44	0	4583325696	11	4066
2026-01-16 05:30:56.17	225.42	12.16	-26.5	-27.7	14.2	0.00e+00	0	44	0	4604297216	12	4155
2026-01-16 05:30:59.17	225.27	11.88	-26.6	-27.6	14.0	4.50e-06	0	44	0	4626317312	13	4019
2026-01-16 05:31:02.18	225.12	11.61	-26.4	-27.2	14.2	1.10e-06	0	44	0	4648337408	13	3908
2026-01-16 05:31:05.19	224.97	11.34	-26.4	-27.1	14.3	2.20e-06	0	44	0	4669308928	13	3890
2026-01-16 05:31:08.20	224.82	11.07	-26.1	-26.5	14.6	1.10e-06	0	44	0	4691329024	13	3744
2026-01-16 05:31:11.20	224.68	10.81	-26.4	-27.2	14.2	0.00e+00	0	44	0	4713349120	13	3912
2026-01-16 05:31:14.19	224.54	10.55	-26.4	-27.1	14.2	0.00e+00	0	44	0	4734320640	13	3908
2026-01-16 05:31:17.19	224.41	10.29	-26.7	-27.8	13.7	2.20e-06	0	44	0	4756340736	13	4084
2026-01-16 05:31:20.20	224.27	10.03	-26.3	-26.8	14.3	0.00e+00	0	44	0	4778360832	13	3828
2026-01-16 05:31:23.21	224.14	9.78	-26.6	-27.4	13.9	1.10e-06	0	44	0	4799332352	13	3980
2026-01-16 05:31:26.21	224.01	9.53	-26.4	-27.1	14.1	2.20e-06	0	44	0	4821352448	13	3907
2026-01-16 05:31:29.23	223.88	9.28	-26.6	-27.6	13.8	3.40e-06	0	44	0	4843372544	13	4029
2026-01-16 05:31:32.23	223.76	9.03	-26.7	-27.8	13.7	6.80e-06	0	44	0	4864344064	13	4069
2026-01-16 05:31:35.24	223.64	8.79	-26.6	-27.4	13.9	1.25e-05	0	44	0	4886364160	13	3988
2026-01-16 05:31:38.24	223.52	8.55	-26.7	-27.7	13.7	4.50e-06	0	44	0	4908384256	13	4059
2026-01-16 05:31:41.26	223.40	8.31	-26.4	-27.2	14.0	6.80e-06	0	44	0	4929355776	13	3917
2026-01-16 05:31:44.27	223.28	8.07	-26.7	-27.8	13.6	8.00e-06	0	44	0	4951375872	13	4086
2026-01-16 05:31:47.26	223.17	7.83	-26.6	-27.5	13.7	8.00e-06	0	44	0	4973395968	13	3997
2026-01-16 05:31:50.25	223.05	7.60	-26.8	-28.0	13.4	9.10e-06	0	44	0	4994367488	13	4144
2026-01-16 05:31:53.24	222.94	7.37	-26.8	-28.0	13.4	2.20e-06	0	44	0	5016387584	13	4138
2026-01-16 05:31:56.23	222.84	7.14	-26.9	-27.7	13.0	1.60e-05	0	44	0	5038407680	14	3963
2026-01-16 05:31:59.23	222.73	6.91	-33.5	-43.5	3.8	8.45e-01	0	44	104	5046796288	26	11315

#Closed at: 2026-01-16 05:32:00
#Recorded file [5046 MB]: D:/data/31010_260116_082018.dat