passes_logs/2026/01/16/R2M6_AANII_01/R2M6_AANII_01__20260116_101924_NOAA_21_JPSS-2_rec.log

#Pass ID: 20260116_101924_NOAA 21 (JPSS-2)
#Satellite: NOAA 21 (JPSS-2)
#Configuration: NOAA 21
#almurnet v.1.7.20240730
#Start time: 2026-01-16 10:19:28

#Version: 2.2.20231116
#Station: R2M6_AANII_01
#Location: 30.233357 lon 59.946436 lat
#TLE: 1 54234U 22150A   26015.43562254  .00000028  00000+0  34201-4 0  9996
#TLE: 2 54234  98.7498 316.3301 0000635 288.4972  71.6135 14.19534768164873

#Time	Az	El	Level	Level2	SNR	BER	BlckErr	Temp	State	Recorded	gain1	gain2
2026-01-16 10:19:28.48	160.30	7.31	-33.9	-45.3	3.8	8.46e-01	0	43	0	0	27	13435
2026-01-16 10:19:31.47	160.31	7.55	-34.2	-45.8	3.8	1.49e+00	0	43	104	0	29	13643
2026-01-16 10:19:34.48	160.33	7.79	-34.2	-45.8	3.8	1.49e+00	0	43	104	0	29	13601
2026-01-16 10:19:37.49	160.34	8.03	-34.2	-45.7	3.8	1.49e+00	0	43	104	0	29	13531
2026-01-16 10:19:40.49	160.36	8.27	-34.2	-45.6	3.8	1.49e+00	0	43	104	0	29	13521
2026-01-16 10:19:43.49	160.37	8.52	-34.1	-45.6	3.8	1.49e+00	0	43	104	0	29	13480
2026-01-16 10:19:46.50	160.39	8.77	-34.1	-45.6	3.8	1.49e+00	0	43	104	0	29	13472
2026-01-16 10:19:49.50	160.40	9.02	-34.1	-45.5	3.8	1.49e+00	0	43	104	0	29	13431
2026-01-16 10:19:52.51	160.42	9.27	-33.9	-45.3	3.8	1.49e+00	0	43	104	0	29	13320
2026-01-16 10:19:55.52	160.44	9.53	-33.8	-45.0	3.8	1.49e+00	0	43	104	0	29	13110
2026-01-16 10:19:58.52	160.45	9.79	-33.7	-45.3	3.8	1.49e+00	0	43	104	0	28	13720
2026-01-16 10:20:01.52	160.47	10.05	-33.4	-45.2	3.8	1.49e+00	0	43	104	0	27	13967
2026-01-16 10:20:04.53	160.48	10.31	-32.9	-42.9	3.8	1.49e+00	0	43	104	0	27	11365
2026-01-16 10:20:07.55	160.50	10.58	-32.7	-42.1	3.9	1.48e+00	0	43	104	0	26	10633
2026-01-16 10:20:10.57	160.52	10.85	-32.6	-40.4	4.4	1.44e+00	0	43	104	0	26	8850
2026-01-16 10:20:13.58	160.53	11.13	-32.4	-39.5	4.7	1.47e+00	0	43	104	0	26	8113
2026-01-16 10:20:16.59	160.55	11.40	-31.9	-37.1	6.1	3.43e-01	0	43	104	0	25	6587
2026-01-16 10:20:19.59	160.57	11.68	-30.7	-34.2	9.1	3.50e-02	0	43	104	0	22	5389
2026-01-16 10:20:22.60	160.58	11.96	-30.0	-32.7	10.5	4.44e-03	0	43	104	0	21	4905
2026-01-16 10:20:25.60	160.60	12.25	-30.0	-32.7	10.5	5.25e-03	0	43	104	0	21	4926
2026-01-16 10:20:28.61	160.62	12.54	-29.8	-32.7	10.8	2.20e-03	0	43	104	0	20	5020
2026-01-16 10:20:31.61	160.64	12.83	-30.0	-33.2	10.5	5.08e-03	0	43	104	0	20	5207
2026-01-16 10:20:34.62	160.65	13.13	-28.9	-30.7	12.6	1.37e-04	0	43	104	0	19	4411
2026-01-16 10:20:37.63	160.67	13.43	-27.9	-29.2	14.1	3.80e-06	0	43	104	0	17	4190
2026-01-16 10:20:40.64	160.69	13.73	-27.5	-28.8	14.6	7.00e-07	0	43	104	0	16	4191
2026-01-16 10:20:43.64	160.71	14.04	-27.3	-28.5	14.8	0.00e+00	0	43	104	0	16	4095
2026-01-16 10:20:46.64	160.73	14.35	-27.2	-28.6	14.8	1.50e-06	0	43	104	0	15	4261
2026-01-16 10:20:49.63	160.75	14.67	-27.2	-28.7	14.8	4.65e-05	0	43	104	0	15	4274
2026-01-16 10:20:52.65	160.77	14.99	-27.1	-28.4	15.0	0.00e+00	0	43	104	0	15	4190
2026-01-16 10:20:55.66	160.78	15.31	-27.0	-28.2	15.1	0.00e+00	0	43	104	0	15	4127
2026-01-16 10:20:58.67	160.80	15.64	-27.1	-28.3	15.1	7.00e-07	0	43	104	0	15	4149
2026-01-16 10:21:01.68	160.82	15.97	-27.2	-28.7	14.9	0.00e+00	0	43	104	0	15	4254
2026-01-16 10:21:04.69	160.84	16.31	-27.3	-28.7	14.9	7.00e-07	0	43	104	0	15	4262
2026-01-16 10:21:07.69	160.86	16.65	-27.4	-29.0	14.8	0.00e+00	0	43	104	0	15	4339
2026-01-16 10:21:10.71	160.88	17.00	-27.5	-29.3	14.6	0.00e+00	0	43	104	0	15	4434
2026-01-16 10:21:13.72	160.90	17.35	-27.5	-29.3	14.6	7.00e-07	0	43	104	0	15	4435
2026-01-16 10:21:16.73	160.93	17.71	-27.6	-29.5	14.5	1.50e-06	0	43	104	0	15	4489
2026-01-16 10:21:19.74	160.95	18.08	-27.3	-28.8	15.0	0.00e+00	0	43	104	0	15	4290
2026-01-16 10:21:22.75	160.97	18.44	-27.3	-28.9	14.9	0.00e+00	0	43	104	0	15	4299
2026-01-16 10:21:25.76	160.99	18.82	-27.5	-29.2	14.8	0.00e+00	0	43	104	0	15	4385
2026-01-16 10:21:28.76	161.01	19.20	-27.1	-28.4	15.3	0.00e+00	0	43	104	0	15	4149
2026-01-16 10:21:31.77	161.03	19.58	-27.2	-28.6	15.2	0.00e+00	0	43	104	0	15	4220
2026-01-16 10:21:34.78	161.06	19.98	-27.1	-28.4	15.3	0.00e+00	0	43	104	0	15	4164
2026-01-16 10:21:37.77	161.08	20.37	-27.2	-28.5	15.2	0.00e+00	0	43	104	0	15	4187
2026-01-16 10:21:40.78	161.10	20.78	-27.1	-28.3	15.3	0.00e+00	0	43	104	0	15	4137
2026-01-16 10:21:43.79	161.13	21.19	-27.0	-28.0	15.5	0.00e+00	0	43	104	0	15	4046
2026-01-16 10:21:46.81	161.15	21.61	-26.8	-28.0	15.8	0.00e+00	0	43	104	0	14	4172
2026-01-16 10:21:49.82	161.18	22.03	-26.4	-27.2	16.3	0.00e+00	0	43	104	0	14	3964
2026-01-16 10:21:52.83	161.20	22.46	-26.3	-27.1	16.4	0.00e+00	0	43	104	0	14	3927
2026-01-16 10:21:55.83	161.23	22.90	-26.3	-27.5	16.4	0.00e+00	0	43	104	0	13	4126
2026-01-16 10:21:58.84	161.25	23.35	-26.1	-27.1	16.6	0.00e+00	0	43	104	0	13	4033
2026-01-16 10:22:01.85	161.28	23.80	-26.3	-27.6	16.4	0.00e+00	0	43	104	0	13	4160
2026-01-16 10:22:04.86	161.31	24.27	-26.1	-27.1	16.6	0.00e+00	0	43	104	0	13	4036
2026-01-16 10:22:07.86	161.33	24.74	-26.2	-27.2	16.6	0.00e+00	0	43	104	0	13	4064
2026-01-16 10:22:10.87	161.36	25.22	-26.5	-28.0	16.2	0.00e+00	0	43	104	0	13	4273
2026-01-16 10:22:13.88	161.39	25.71	-26.6	-28.1	16.2	0.00e+00	0	43	104	0	13	4285
2026-01-16 10:22:16.89	161.42	26.20	-26.6	-28.2	16.1	0.00e+00	0	43	104	0	13	4312
2026-01-16 10:22:19.90	161.45	26.71	-26.8	-28.6	15.9	0.00e+00	0	43	104	0	13	4434
2026-01-16 10:22:22.90	161.48	27.23	-27.0	-28.6	15.7	0.00e+00	0	43	104	0	14	4300
2026-01-16 10:22:25.90	161.51	27.75	-27.3	-29.2	15.4	0.00e+00	0	43	104	0	14	4471
2026-01-16 10:22:28.89	161.54	28.29	-27.3	-29.3	15.3	0.00e+00	0	43	104	0	14	4493
2026-01-16 10:22:31.90	161.57	28.83	-27.4	-29.3	15.3	0.00e+00	0	43	104	0	14	4522
2026-01-16 10:22:34.91	161.61	29.39	-27.3	-29.1	15.4	0.00e+00	0	43	104	0	14	4449
2026-01-16 10:22:37.92	161.64	29.96	-27.3	-29.1	15.4	0.00e+00	0	43	104	0	14	4458
2026-01-16 10:22:40.93	161.67	30.55	-26.9	-28.2	15.9	0.00e+00	0	43	104	0	14	4198
2026-01-16 10:22:43.94	161.71	31.14	-27.2	-28.8	15.6	0.00e+00	0	43	104	0	14	4371
2026-01-16 10:22:46.95	161.75	31.74	-26.5	-27.3	16.5	0.00e+00	0	43	104	0	14	3956
2026-01-16 10:22:49.97	161.79	32.37	-26.8	-28.1	16.0	0.00e+00	0	43	104	0	14	4177
2026-01-16 10:22:52.99	161.82	33.00	-27.0	-28.5	15.8	0.00e+00	0	43	104	0	14	4286
2026-01-16 10:22:56.00	161.86	33.64	-27.3	-29.2	15.5	0.00e+00	0	43	104	0	14	4463
2026-01-16 10:22:59.01	161.91	34.30	-27.9	-30.1	14.7	7.00e-07	0	43	104	0	15	4614
2026-01-16 10:23:02.02	161.95	34.98	-28.5	-30.8	14.2	6.10e-06	0	43	104	0	16	4726
2026-01-16 10:23:05.03	161.99	35.67	-28.9	-31.3	13.6	4.50e-06	0	43	104	0	17	4757
2026-01-16 10:23:08.04	162.04	36.37	-29.1	-31.4	13.3	3.43e-05	0	43	104	0	18	4667
2026-01-16 10:23:11.05	162.09	37.09	-28.8	-30.6	13.8	6.10e-06	0	43	104	0	18	4423
2026-01-16 10:23:14.07	162.13	37.82	-28.8	-30.5	13.9	4.50e-06	0	43	104	0	18	4389
2026-01-16 10:23:17.08	162.18	38.58	-28.5	-29.8	14.3	6.10e-06	0	43	104	0	18	4205
2026-01-16 10:23:20.09	162.24	39.34	-28.4	-29.6	14.4	7.00e-07	0	43	104	0	18	4126
2026-01-16 10:23:23.10	162.29	40.13	-28.3	-30.0	14.4	1.50e-06	0	43	104	0	17	4360
2026-01-16 10:23:26.11	162.35	40.93	-28.6	-30.5	14.1	2.20e-06	0	43	104	0	17	4503
2026-01-16 10:23:29.11	162.41	41.75	-28.8	-31.2	13.8	5.30e-06	0	43	104	0	17	4727
2026-01-16 10:23:32.12	162.47	42.59	-29.2	-31.6	13.3	1.90e-05	0	43	104	0	18	4739
2026-01-16 10:23:35.12	162.53	43.45	-29.3	-31.8	13.1	3.89e-05	0	43	104	0	18	4795
2026-01-16 10:23:38.13	162.60	44.33	-29.4	-32.0	13.0	3.81e-05	0	43	104	0	18	4871
2026-01-16 10:23:41.14	162.67	45.23	-29.4	-31.5	12.9	3.89e-05	0	43	104	0	19	4614
2026-01-16 10:23:44.15	162.75	46.15	-29.9	-32.8	12.2	2.19e-04	0	43	104	0	19	5061
2026-01-16 10:23:47.15	162.82	47.08	-29.8	-32.1	12.3	2.04e-04	0	43	104	0	20	4680
2026-01-16 10:23:50.15	162.91	48.04	-29.5	-31.4	12.7	6.17e-05	0	43	104	0	20	4468
2026-01-16 10:23:53.16	162.99	49.03	-29.7	-31.9	12.5	1.59e-04	0	43	104	0	20	4605
2026-01-16 10:23:56.17	163.09	50.03	-29.7	-31.7	12.5	1.26e-04	0	43	104	0	20	4564
2026-01-16 10:23:59.18	163.18	51.06	-29.6	-31.5	12.7	8.16e-05	0	43	104	0	20	4488
2026-01-16 10:24:02.19	163.29	52.11	-29.1	-30.7	13.6	1.29e-05	0	43	104	0	19	4330
2026-01-16 10:24:05.19	163.40	53.18	-28.2	-29.7	14.7	0.00e+00	0	43	104	0	17	4262
2026-01-16 10:24:08.20	163.52	54.28	-28.4	-30.2	14.4	2.20e-06	0	43	104	0	17	4409
2026-01-16 10:24:11.19	163.65	55.40	-28.1	-29.3	14.9	2.74e-05	0	43	104	0	17	4165
2026-01-16 10:24:14.19	163.78	56.54	-27.7	-29.1	15.4	0.00e+00	0	43	104	0	16	4198
2026-01-16 10:24:17.21	163.93	57.71	-28.0	-29.8	15.0	0.00e+00	0	43	104	0	16	4399
2026-01-16 10:24:20.22	164.09	58.90	-27.3	-28.1	15.9	0.00e+00	0	43	104	0	16	3938
2026-01-16 10:24:23.22	164.27	60.12	-26.7	-27.8	16.6	0.00e+00	0	43	104	0	14	4071
2026-01-16 10:24:26.22	164.46	61.35	-26.6	-27.5	16.7	0.00e+00	0	43	104	0	14	3998
2026-01-16 10:24:29.23	164.67	62.62	-26.3	-27.0	16.9	0.00e+00	0	43	104	0	14	3878
2026-01-16 10:24:32.24	164.90	63.90	-26.3	-27.4	17.0	0.00e+00	0	43	104	0	13	4097
2026-01-16 10:24:35.23	165.16	65.20	-26.2	-27.1	17.1	0.00e+00	0	43	104	0	13	4023
2026-01-16 10:24:38.24	165.45	66.53	-25.8	-26.9	17.5	0.00e+00	0	43	104	0	12	4054
2026-01-16 10:24:41.25	165.78	67.89	-25.8	-26.8	17.6	0.00e+00	0	43	104	0	12	4026
2026-01-16 10:24:44.25	166.15	69.25	-26.5	-28.2	16.8	0.00e+00	0	43	104	0	12	4420
2026-01-16 10:24:47.25	166.58	70.64	-26.0	-26.7	17.3	0.00e+00	0	43	104	0	13	3914
2026-01-16 10:24:50.26	167.08	72.05	-25.8	-26.7	17.6	0.00e+00	0	43	104	0	12	4022
2026-01-16 10:24:53.26	167.67	73.48	-25.4	-25.9	18.0	0.00e+00	0	43	104	0	12	3822
2026-01-16 10:24:56.27	168.37	74.92	-25.9	-26.9	17.5	0.00e+00	0	43	104	0	12	4071
2026-01-16 10:24:59.27	169.23	76.37	-25.9	-27.1	17.4	0.00e+00	0	43	104	0	12	4108
2026-01-16 10:25:02.28	170.30	77.84	-25.8	-26.8	17.6	0.00e+00	0	43	104	0	12	4035
2026-01-16 10:25:05.28	171.66	79.31	-26.2	-27.6	17.2	0.00e+00	0	43	104	0	12	4239
2026-01-16 10:25:08.29	173.47	80.79	-25.7	-26.6	17.7	0.00e+00	0	43	104	0	12	3993
2026-01-16 10:25:11.29	175.97	82.26	-26.3	-27.9	17.0	0.00e+00	0	43	104	0	12	4322
2026-01-16 10:25:14.29	179.65	83.72	-26.6	-27.9	16.8	0.00e+00	0	43	104	0	13	4215
2026-01-16 10:25:17.29	185.54	85.15	-26.5	-27.8	17.0	0.00e+00	0	43	104	0	13	4172
2026-01-16 10:25:20.29	196.11	86.49	-27.5	-29.0	15.8	0.00e+00	0	43	104	0	15	4266
2026-01-16 10:25:23.30	217.77	87.58	-28.5	-30.6	14.8	0.00e+00	0	43	104	0	16	4620
2026-01-16 10:25:26.30	257.08	87.96	-27.6	-28.7	16.0	0.00e+00	0	43	104	0	16	4069
2026-01-16 10:25:29.30	291.90	87.31	-26.3	-26.8	17.3	0.00e+00	0	43	104	0	14	3825
2026-01-16 10:25:32.31	309.43	86.12	-26.1	-26.8	17.5	0.00e+00	0	43	104	0	13	3929
2026-01-16 10:25:35.32	318.27	84.74	-26.6	-28.0	16.7	0.00e+00	0	43	104	0	13	4224
2026-01-16 10:25:38.33	323.38	83.30	-26.7	-28.2	16.6	0.00e+00	0	43	104	0	13	4279
2026-01-16 10:25:41.34	326.65	81.83	-26.5	-27.7	16.9	0.00e+00	0	43	104	0	13	4156
2026-01-16 10:25:44.35	328.92	80.36	-26.1	-27.0	17.3	0.00e+00	0	43	104	0	13	3962
2026-01-16 10:25:47.36	330.58	78.88	-26.4	-27.5	17.0	0.00e+00	0	43	104	0	13	4106
2026-01-16 10:25:50.37	331.84	77.41	-26.2	-27.1	17.2	0.00e+00	0	43	104	0	13	3997
2026-01-16 10:25:53.37	332.84	75.95	-26.0	-27.3	17.3	0.00e+00	0	43	104	0	12	4157
2026-01-16 10:25:56.38	333.64	74.50	-25.9	-26.9	17.6	0.00e+00	0	43	104	0	12	4071
2026-01-16 10:25:59.38	334.31	73.07	-26.2	-27.6	17.1	0.00e+00	0	43	104	0	12	4254
2026-01-16 10:26:02.39	334.87	71.65	-26.1	-26.9	17.3	0.00e+00	0	43	104	0	13	3945
2026-01-16 10:26:05.39	335.34	70.25	-27.3	-29.1	15.8	0.00e+00	0	43	104	0	14	4438
2026-01-16 10:26:08.39	335.75	68.87	-27.6	-29.3	15.4	0.00e+00	0	43	104	0	15	4394
2026-01-16 10:26:11.41	336.11	67.50	-26.1	-27.0	17.2	0.00e+00	0	43	104	0	13	3990
2026-01-16 10:26:14.42	336.43	66.16	-26.2	-27.0	17.1	0.00e+00	0	43	104	0	13	3992
2026-01-16 10:26:17.42	336.71	64.84	-25.5	-26.2	17.8	0.00e+00	0	43	104	0	12	3885
2026-01-16 10:26:20.42	336.96	63.55	-26.5	-28.3	16.7	0.00e+00	0	43	104	0	12	4435
2026-01-16 10:26:23.43	337.19	62.27	-27.0	-28.6	16.0	0.00e+00	0	43	104	0	14	4280
2026-01-16 10:26:26.44	337.40	61.02	-27.4	-29.4	15.6	0.00e+00	0	43	104	0	14	4526
2026-01-16 10:26:29.45	337.58	59.79	-27.8	-29.3	15.1	0.00e+00	0	43	104	0	16	4272
2026-01-16 10:26:32.46	337.75	58.58	-27.2	-28.5	15.7	0.00e+00	0	43	104	0	15	4155
2026-01-16 10:26:35.48	337.91	57.40	-27.0	-28.5	16.0	0.00e+00	0	43	104	0	14	4262
2026-01-16 10:26:38.49	338.06	56.24	-28.7	-30.7	14.0	0.00e+00	0	43	104	0	17	4569
2026-01-16 10:26:41.49	338.19	55.11	-29.4	-31.6	12.9	3.89e-05	0	43	104	0	19	4619
2026-01-16 10:26:44.50	338.32	54.00	-29.2	-31.0	13.3	1.22e-05	0	43	104	0	19	4422
2026-01-16 10:26:47.51	338.43	52.91	-29.1	-30.8	13.4	1.06e-05	0	43	104	0	19	4383
2026-01-16 10:26:50.51	338.54	51.85	-29.4	-31.5	13.0	2.59e-05	0	43	104	0	19	4595
2026-01-16 10:26:53.53	338.65	50.81	-29.7	-32.4	12.4	2.20e-04	0	43	104	0	19	4866
2026-01-16 10:26:56.53	338.74	49.79	-28.4	-29.6	14.4	0.00e+00	0	43	104	0	18	4144
2026-01-16 10:26:59.54	338.84	48.80	-28.8	-30.6	13.8	4.50e-06	0	43	104	0	18	4415
2026-01-16 10:27:02.55	338.92	47.82	-29.3	-31.7	13.1	3.20e-05	0	43	104	0	18	4778
2026-01-16 10:27:05.55	339.00	46.87	-29.3	-31.7	13.1	2.36e-05	0	43	104	0	18	4775
2026-01-16 10:27:08.55	339.08	45.95	-29.5	-32.2	12.7	6.10e-05	0	43	104	0	18	4950
2026-01-16 10:27:11.55	339.15	45.04	-30.1	-32.9	11.7	5.35e-04	0	43	104	0	20	4966
2026-01-16 10:27:14.56	339.23	44.15	-30.0	-32.7	11.8	6.38e-04	0	43	104	0	20	4890
2026-01-16 10:27:17.55	339.29	43.28	-29.5	-31.4	12.6	1.36e-04	0	43	104	0	20	4457
2026-01-16 10:27:20.55	339.36	42.44	-29.2	-31.1	13.2	1.52e-05	0	43	104	0	19	4462
2026-01-16 10:27:23.55	339.42	41.61	-28.9	-30.4	13.3	2.05e-05	0	43	104	0	19	4271
2026-01-16 10:27:26.56	339.48	40.79	-29.2	-31.2	13.1	2.97e-05	0	43	104	0	19	4499
2026-01-16 10:27:29.56	339.53	40.00	-29.1	-30.9	13.2	2.74e-05	0	43	104	0	19	4404
2026-01-16 10:27:32.57	339.59	39.22	-29.1	-30.9	13.2	1.75e-05	0	43	104	0	19	4402
2026-01-16 10:27:35.56	339.64	38.47	-28.9	-30.2	13.6	8.30e-06	0	43	104	0	19	4211
2026-01-16 10:27:38.58	339.69	37.72	-28.7	-30.3	13.9	1.50e-06	0	43	104	0	18	4334
2026-01-16 10:27:41.58	339.74	37.00	-28.5	-29.8	14.1	3.00e-06	0	43	104	0	18	4208
2026-01-16 10:27:44.59	339.79	36.29	-29.0	-31.1	13.4	1.06e-05	0	43	104	0	18	4579
2026-01-16 10:27:47.59	339.84	35.59	-28.9	-30.8	13.6	9.10e-06	0	43	104	0	18	4478
2026-01-16 10:27:50.60	339.88	34.91	-28.8	-30.7	13.6	1.29e-05	0	43	104	0	18	4464
2026-01-16 10:27:53.62	339.93	34.24	-28.9	-30.9	13.5	1.52e-05	0	43	104	0	18	4531
2026-01-16 10:27:56.62	339.97	33.59	-28.7	-30.5	13.7	7.60e-06	0	43	104	0	18	4417
2026-01-16 10:27:59.63	340.01	32.95	-28.1	-29.4	14.6	3.80e-06	0	43	104	0	17	4203
2026-01-16 10:28:02.63	340.05	32.33	-27.6	-28.9	15.2	0.00e+00	0	43	104	0	16	4159
2026-01-16 10:28:05.63	340.09	31.72	-27.5	-28.6	15.3	0.00e+00	0	43	104	0	16	4090
2026-01-16 10:28:08.63	340.12	31.12	-27.6	-28.8	15.2	0.00e+00	0	43	104	0	16	4131
2026-01-16 10:28:11.64	340.16	30.53	-27.7	-29.1	15.0	7.00e-07	0	43	104	0	16	4233
2026-01-16 10:28:14.65	340.20	29.95	-27.8	-29.2	14.9	0.00e+00	0	43	104	0	16	4255
2026-01-16 10:28:17.65	340.23	29.39	-27.8	-29.2	14.9	0.00e+00	0	43	104	0	16	4270
2026-01-16 10:28:20.65	340.27	28.84	-27.7	-29.2	14.9	7.00e-07	0	43	104	0	16	4255
2026-01-16 10:28:23.66	340.30	28.29	-27.9	-29.6	14.6	0.00e+00	0	43	104	0	16	4374
2026-01-16 10:28:26.67	340.33	27.76	-28.0	-29.7	14.6	7.00e-07	0	43	104	0	16	4401
2026-01-16 10:28:29.67	340.37	27.24	-27.0	-27.9	15.7	0.00e+00	0	43	104	0	15	4031
2026-01-16 10:28:32.67	340.40	26.73	-26.6	-27.6	16.1	0.00e+00	0	43	104	0	14	4049
2026-01-16 10:28:35.68	340.43	26.23	-26.6	-27.6	16.1	0.00e+00	0	43	104	0	14	4050
2026-01-16 10:28:38.68	340.46	25.73	-26.5	-27.4	16.2	0.00e+00	0	43	104	0	14	3995
2026-01-16 10:28:41.68	340.49	25.25	-26.5	-27.4	16.2	0.00e+00	0	43	104	0	14	4002
2026-01-16 10:28:44.69	340.52	24.77	-26.6	-27.7	16.1	0.00e+00	0	43	104	0	14	4073
2026-01-16 10:28:47.71	340.55	24.30	-26.6	-27.7	16.0	0.00e+00	0	43	104	0	14	4077
2026-01-16 10:28:50.71	340.58	23.85	-26.6	-27.7	16.0	0.00e+00	0	43	104	0	14	4068
2026-01-16 10:28:53.71	340.60	23.40	-26.4	-27.2	16.3	0.00e+00	0	43	104	0	14	3935
2026-01-16 10:28:56.72	340.63	22.95	-26.4	-27.1	16.3	0.00e+00	0	43	104	0	14	3928
2026-01-16 10:28:59.74	340.66	22.51	-26.4	-27.3	16.2	0.00e+00	0	43	104	0	14	3970
2026-01-16 10:29:02.74	340.68	22.09	-26.6	-27.7	16.0	0.00e+00	0	43	104	0	14	4073
2026-01-16 10:29:05.74	340.71	21.67	-26.8	-28.2	15.7	0.00e+00	0	43	104	0	14	4207
2026-01-16 10:29:08.74	340.74	21.25	-27.1	-28.7	15.4	7.00e-07	0	43	104	0	14	4353
2026-01-16 10:29:11.75	340.76	20.84	-27.2	-29.0	15.2	0.00e+00	0	43	104	0	14	4438
2026-01-16 10:29:14.76	340.79	20.44	-27.3	-29.2	15.1	0.00e+00	0	43	104	0	14	4499
2026-01-16 10:29:17.77	340.81	20.05	-27.6	-29.5	14.6	0.00e+00	0	43	104	0	15	4482
2026-01-16 10:29:20.78	340.84	19.66	-27.8	-29.4	14.6	0.00e+00	0	43	104	0	16	4319
2026-01-16 10:29:23.79	340.86	19.27	-27.5	-28.6	15.0	0.00e+00	0	43	104	0	16	4112
2026-01-16 10:29:26.79	340.88	18.90	-27.3	-28.3	15.2	0.00e+00	0	43	104	0	16	4013
2026-01-16 10:29:29.81	340.91	18.52	-27.1	-28.3	15.3	0.00e+00	0	43	104	0	15	4132
2026-01-16 10:29:32.82	340.93	18.16	-27.1	-28.4	15.2	0.00e+00	0	43	104	0	15	4164
2026-01-16 10:29:35.81	340.95	17.80	-27.5	-29.3	14.7	0.00e+00	0	43	104	0	15	4399
2026-01-16 10:29:38.82	340.98	17.44	-27.6	-29.5	14.6	0.00e+00	0	43	104	0	15	4472
2026-01-16 10:29:41.82	341.00	17.10	-27.6	-29.4	14.6	0.00e+00	0	43	104	0	15	4454
2026-01-16 10:29:44.82	341.02	16.75	-27.5	-29.2	14.7	0.00e+00	0	43	104	0	15	4392
2026-01-16 10:29:47.82	341.04	16.41	-27.3	-28.7	15.0	7.00e-07	0	43	104	0	15	4257
2026-01-16 10:29:50.84	341.07	16.07	-27.4	-29.1	14.8	0.00e+00	0	43	104	0	15	4356
2026-01-16 10:29:53.85	341.09	15.74	-27.5	-29.4	14.6	0.00e+00	0	43	104	0	15	4440
2026-01-16 10:29:56.87	341.11	15.41	-27.6	-29.4	14.5	0.00e+00	0	43	104	0	15	4449
2026-01-16 10:29:59.88	341.13	15.09	-27.6	-29.6	14.4	7.00e-07	0	43	104	0	15	4500
2026-01-16 10:30:02.90	341.15	14.77	-27.9	-30.2	14.0	2.20e-06	0	43	104	0	15	4694
2026-01-16 10:30:05.91	341.17	14.46	-27.8	-30.0	14.1	3.00e-06	0	43	104	0	15	4644
2026-01-16 10:30:08.90	341.19	14.15	-27.8	-29.8	14.2	1.50e-06	0	43	104	0	15	4583
2026-01-16 10:30:11.90	341.22	13.85	-28.0	-29.9	14.1	3.00e-06	0	43	104	0	16	4487
2026-01-16 10:30:14.92	341.24	13.54	-27.8	-29.5	14.3	7.00e-07	0	43	104	0	16	4376
2026-01-16 10:30:17.91	341.26	13.24	-27.8	-29.5	14.2	1.50e-06	0	43	104	0	16	4370
2026-01-16 10:30:20.92	341.28	12.95	-27.8	-29.5	14.2	3.00e-06	0	43	104	0	16	4372
2026-01-16 10:30:23.93	341.30	12.66	-27.8	-29.5	14.2	3.80e-06	0	43	104	0	16	4370
2026-01-16 10:30:26.93	341.32	12.37	-27.9	-29.7	14.1	2.20e-06	0	43	104	0	16	4430
2026-01-16 10:30:29.93	341.34	12.09	-27.8	-29.6	14.1	1.50e-06	0	43	104	0	16	4389
2026-01-16 10:30:32.93	341.36	11.81	-27.9	-29.7	14.1	1.50e-06	0	43	104	0	16	4420
2026-01-16 10:30:35.94	341.38	11.53	-27.9	-29.8	14.0	2.20e-06	0	43	104	0	16	4450
2026-01-16 10:30:38.95	341.39	11.25	-27.9	-29.6	14.1	1.50e-06	0	43	104	0	16	4410
2026-01-16 10:30:41.97	341.41	10.98	-27.8	-29.5	14.1	1.50e-06	0	43	104	0	16	4375
2026-01-16 10:30:44.97	341.43	10.71	-27.9	-29.7	14.0	3.80e-06	0	43	104	0	16	4434
2026-01-16 10:30:47.96	341.45	10.45	-28.0	-30.0	13.8	4.50e-06	0	43	104	0	16	4513
2026-01-16 10:30:50.97	341.47	10.18	-28.0	-30.0	13.8	2.20e-06	0	43	104	0	16	4517
2026-01-16 10:30:53.97	341.49	9.92	-28.2	-30.4	13.5	7.60e-06	0	43	104	0	16	4657
2026-01-16 10:30:56.98	341.51	9.67	-28.1	-30.2	13.6	8.30e-06	0	43	104	0	16	4605
2026-01-16 10:30:59.98	341.53	9.41	-28.1	-30.3	13.6	1.60e-05	0	43	104	0	16	4615
2026-01-16 10:31:02.98	341.55	9.16	-28.4	-31.1	13.1	1.83e-05	0	43	104	0	16	4867
2026-01-16 10:31:05.99	341.56	8.91	-28.3	-30.8	13.2	2.74e-05	0	43	104	0	16	4787
2026-01-16 10:31:08.99	341.58	8.66	-28.4	-30.9	13.1	2.28e-05	0	43	104	0	16	4814
2026-01-16 10:31:12.01	341.60	8.42	-28.6	-31.0	12.8	9.07e-05	0	43	104	0	17	4734
2026-01-16 10:31:15.03	341.62	8.17	-28.5	-30.8	12.8	5.49e-05	0	43	104	0	17	4690
2026-01-16 10:31:18.04	341.64	7.93	-28.4	-30.6	12.9	5.34e-05	0	43	104	0	17	4618
2026-01-16 10:31:21.03	341.65	7.70	-28.4	-30.6	12.9	3.35e-05	0	43	104	0	17	4607
2026-01-16 10:31:24.04	341.67	7.46	-29.1	-31.8	11.8	3.52e-04	0	43	104	0	18	4918
2026-01-16 10:31:27.05	341.69	7.23	-28.9	-31.3	12.1	3.14e-04	0	43	104	0	18	4757
2026-01-16 10:31:30.06	341.71	6.99	-33.3	-45.4	3.8	1.49e+00	0	43	104	0	26	14548

#Closed at: 2026-01-16 10:31:30
#Recorded file [0 MB]: D:/data/31010_260116_131928.dat