passes_logs/2026/01/16/R2M6_AANII_01/R2M6_AANII_01__20260116_011704_NOAA_20_JPSS-1_rec.log

#Pass ID: 20260116_011704_NOAA 20 (JPSS-1)
#Satellite: NOAA 20 (JPSS-1)
#Configuration: NOAA 20
#almurnet v.1.7.20240730
#Start time: 2026-01-16 01:17:05

#Version: 2.2.20231116
#Station: R2M6_AANII_01
#Location: 30.233357 lon 59.946436 lat
#TLE: 1 43013U 17073A   26015.47098083  .00000029  00000+0  34851-4 0  9997
#TLE: 2 43013  98.7636 316.4053 0001479  38.6686 321.4595 14.19536048422808

#Time	Az	El	Level	Level2	SNR	BER	BlckErr	Temp	State	Recorded	gain1	gain2
2026-01-16 01:17:05.36	13.85	7.03	-31.9	-38.6	5.0	1.28e+00	0	41	0	0	23	7768
2026-01-16 01:17:08.34	13.71	7.25	-32.0	-38.2	7.7	9.57e-02	0	41	0	1048576	24	7336
2026-01-16 01:17:11.34	13.57	7.47	-32.0	-38.3	7.6	1.23e-01	0	41	0	7340032	24	7419
2026-01-16 01:17:14.33	13.43	7.70	-31.5	-36.6	9.4	2.68e-02	0	41	0	12582912	23	6466
2026-01-16 01:17:17.32	13.29	7.92	-30.9	-35.0	11.0	5.91e-03	0	42	0	17825792	22	5748
2026-01-16 01:17:20.32	13.14	8.15	-30.8	-35.0	11.5	1.01e-03	0	41	0	24117248	21	5822
2026-01-16 01:17:23.31	12.99	8.38	-30.6	-34.5	11.8	4.37e-04	0	42	0	29360128	21	5607
2026-01-16 01:17:26.32	12.84	8.62	-30.7	-34.5	11.8	4.90e-04	0	42	0	34603008	21	5625
2026-01-16 01:17:29.32	12.69	8.85	-30.4	-33.8	12.4	1.64e-04	0	42	0	40894464	21	5322
2026-01-16 01:17:32.31	12.53	9.09	-30.4	-33.8	12.4	2.98e-03	0	42	0	46137344	21	5295
2026-01-16 01:17:35.32	12.37	9.33	-30.6	-34.3	12.1	2.74e-03	0	42	0	52428800	21	5498
2026-01-16 01:17:38.32	12.21	9.57	-30.4	-33.7	12.5	1.34e-04	0	42	0	57671680	21	5264
2026-01-16 01:17:41.33	12.04	9.82	-30.4	-34.2	12.5	1.33e-04	0	42	0	62914560	20	5587
2026-01-16 01:17:44.34	11.87	10.06	-30.5	-34.0	12.4	1.17e-04	0	42	0	69206016	21	5361
2026-01-16 01:17:47.34	11.70	10.31	-30.4	-34.2	12.6	8.31e-05	0	42	0	74448896	20	5563
2026-01-16 01:17:50.34	11.52	10.56	-30.6	-34.1	12.3	1.98e-04	0	42	0	79691776	21	5410
2026-01-16 01:17:53.35	11.35	10.81	-30.5	-33.9	12.5	1.30e-04	0	42	0	85983232	21	5318
2026-01-16 01:17:56.35	11.16	11.07	-30.4	-34.1	12.7	9.91e-05	0	42	0	91226112	20	5494
2026-01-16 01:17:59.36	10.98	11.33	-30.3	-33.9	12.9	3.58e-05	0	42	0	96468992	20	5419
2026-01-16 01:18:02.35	10.79	11.58	-30.4	-34.0	12.8	5.11e-05	0	43	0	102760448	20	5488
2026-01-16 01:18:05.36	10.60	11.85	-29.8	-33.3	12.4	9.53e-05	0	43	0	108003328	21	5423
2026-01-16 01:18:08.37	10.40	12.11	-30.7	-34.4	11.8	2.74e-04	0	43	0	114294784	21	5516
2026-01-16 01:18:11.36	10.20	12.38	-30.6	-34.3	12.3	1.94e-04	0	43	0	119537664	21	5459
2026-01-16 01:18:14.38	10.00	12.65	-30.6	-34.2	12.4	2.16e-04	0	43	0	124780544	21	5446
2026-01-16 01:18:17.39	9.79	12.92	-30.5	-34.3	12.7	4.55e-04	0	43	0	131072000	20	5570
2026-01-16 01:18:20.40	9.58	13.20	-30.6	-34.0	12.5	1.61e-04	0	43	0	136314880	21	5363
2026-01-16 01:18:23.40	9.36	13.48	-30.6	-34.2	12.5	1.50e-04	0	43	0	141557760	21	5414
2026-01-16 01:18:26.40	9.14	13.76	-30.5	-33.9	12.7	1.02e-04	0	43	0	147849216	21	5297
2026-01-16 01:18:29.41	8.92	14.04	-30.8	-34.6	12.2	2.38e-04	0	43	0	153092096	21	5607
2026-01-16 01:18:32.42	8.69	14.33	-30.1	-33.3	13.5	3.02e-04	0	43	0	159383552	20	5155
2026-01-16 01:18:35.43	8.45	14.62	-30.1	-33.2	13.5	2.37e-04	0	43	0	164626432	20	5130
2026-01-16 01:18:38.42	8.21	14.91	-30.2	-33.5	13.3	2.94e-04	0	43	0	169869312	20	5230
2026-01-16 01:18:41.42	7.97	15.20	-30.0	-33.0	13.7	2.79e-04	0	43	0	176160768	20	5044
2026-01-16 01:18:44.42	7.72	15.50	-30.1	-33.0	13.6	3.80e-06	0	43	0	181403648	20	5061
2026-01-16 01:18:47.42	7.47	15.80	-30.0	-32.8	13.8	3.80e-06	0	43	0	186646528	20	4982
2026-01-16 01:18:50.43	7.21	16.11	-30.2	-33.4	13.4	2.90e-04	0	43	0	192937984	20	5209
2026-01-16 01:18:53.43	6.94	16.42	-30.0	-33.0	13.7	2.88e-04	0	43	0	198180864	20	5038
2026-01-16 01:18:56.44	6.67	16.73	-30.1	-33.2	13.5	2.78e-04	0	43	0	204472320	20	5122
2026-01-16 01:18:59.44	6.39	17.04	-30.1	-33.0	13.8	2.23e-04	0	43	0	209715200	20	5035
2026-01-16 01:19:02.44	6.11	17.36	-30.1	-33.0	13.8	2.53e-04	0	43	0	214958080	20	5044
2026-01-16 01:19:05.46	5.82	17.68	-30.1	-33.1	13.7	5.43e-04	0	43	0	221249536	20	5086
2026-01-16 01:19:08.46	5.53	18.01	-30.2	-33.4	13.6	1.91e-04	0	43	0	226492416	20	5189
2026-01-16 01:19:11.47	5.22	18.34	-30.3	-33.7	13.4	3.52e-04	0	43	0	232783872	20	5292
2026-01-16 01:19:14.47	4.91	18.67	-30.4	-33.8	13.3	3.42e-04	0	43	0	238026752	20	5351
2026-01-16 01:19:17.48	4.60	19.00	-30.4	-33.9	13.3	3.22e-04	0	43	0	243269632	20	5367
2026-01-16 01:19:20.49	4.27	19.34	-30.6	-34.0	12.9	3.22e-04	0	43	0	249561088	21	5296
2026-01-16 01:19:23.50	3.94	19.69	-30.6	-33.8	13.0	4.42e-05	0	43	0	254803968	21	5232
2026-01-16 01:19:26.50	3.60	20.03	-30.7	-34.0	12.9	4.50e-05	0	43	0	260046848	21	5301
2026-01-16 01:19:29.50	3.25	20.38	-30.6	-33.9	13.0	3.73e-05	0	43	0	266338304	21	5268
2026-01-16 01:19:32.51	2.90	20.74	-30.6	-33.9	13.0	5.18e-05	0	43	0	271581184	21	5241
2026-01-16 01:19:35.50	2.54	21.09	-30.7	-34.2	12.9	3.62e-04	0	43	0	276824064	21	5353
2026-01-16 01:19:38.51	2.16	21.46	-30.7	-34.0	13.0	2.98e-04	0	43	0	283115520	21	5300
2026-01-16 01:19:41.50	1.78	21.82	-30.6	-33.8	13.1	5.79e-05	0	43	0	288358400	21	5210
2026-01-16 01:19:44.49	1.39	22.19	-30.7	-34.1	13.0	3.89e-05	0	43	0	294649856	21	5302
2026-01-16 01:19:47.48	0.99	22.56	-30.7	-34.2	12.9	8.62e-05	0	43	0	299892736	21	5361
2026-01-16 01:19:50.49	0.58	22.94	-30.6	-33.8	13.2	2.28e-05	0	43	0	305135616	21	5221
2026-01-16 01:19:53.50	0.16	23.32	-30.6	-33.8	13.2	2.28e-05	0	43	0	311427072	21	5217
2026-01-16 01:19:56.49	359.73	23.70	-30.5	-33.6	13.3	3.29e-04	0	44	0	316669952	21	5110
2026-01-16 01:19:59.50	359.28	24.09	-30.6	-33.8	13.2	1.90e-05	0	43	0	321912832	21	5185
2026-01-16 01:20:02.50	358.83	24.48	-30.6	-33.7	13.3	1.90e-05	0	43	0	328204288	21	5180
2026-01-16 01:20:05.51	358.36	24.88	-30.8	-34.3	13.0	6.10e-05	0	44	0	333447168	21	5376
2026-01-16 01:20:08.50	357.89	25.28	-30.8	-34.4	12.8	5.41e-05	0	44	0	338690048	21	5442
2026-01-16 01:20:11.52	357.39	25.69	-30.8	-34.3	12.9	5.95e-05	0	43	0	344981504	21	5396
2026-01-16 01:20:14.51	356.89	26.09	-31.1	-34.7	12.4	1.18e-04	0	43	0	350224384	22	5443
2026-01-16 01:20:17.51	356.37	26.51	-31.6	-35.5	12.0	1.45e-04	0	44	0	356515840	22	5644
2026-01-16 01:20:20.52	355.84	26.92	-31.0	-34.4	12.2	6.63e-05	0	44	0	361758720	22	5323
2026-01-16 01:20:23.52	355.30	27.34	-31.0	-34.8	12.6	1.46e-04	0	44	0	367001600	21	5577
2026-01-16 01:20:26.53	354.73	27.77	-30.8	-34.2	13.0	3.96e-05	0	43	0	373293056	21	5360
2026-01-16 01:20:29.54	354.16	28.19	-30.7	-34.1	13.2	2.21e-05	0	43	0	378535936	21	5295
2026-01-16 01:20:32.55	353.56	28.62	-30.7	-34.1	13.1	1.29e-05	0	43	0	383778816	21	5300
2026-01-16 01:20:35.54	352.96	29.05	-31.0	-34.3	12.7	1.84e-03	0	44	0	390070272	22	5278
2026-01-16 01:20:38.54	352.33	29.49	-31.3	-35.0	12.2	2.16e-03	0	43	0	395313152	22	5549
2026-01-16 01:20:41.55	351.69	29.93	-31.8	-36.4	10.9	3.98e-03	0	44	0	401604608	23	6061
2026-01-16 01:20:44.56	351.03	30.37	-31.9	-36.5	10.8	3.25e-03	0	43	0	406847488	23	6155
2026-01-16 01:20:47.57	350.34	30.81	-32.1	-36.7	10.3	6.66e-03	0	43	0	412090368	24	6142
2026-01-16 01:20:50.56	349.65	31.26	-32.2	-37.3	9.8	6.91e-03	0	43	0	418381824	24	6450
2026-01-16 01:20:53.56	348.93	31.70	-32.1	-36.6	10.4	8.19e-03	0	43	0	423624704	24	6079
2026-01-16 01:20:56.56	348.19	32.15	-32.0	-36.3	10.6	5.49e-03	0	44	0	428867584	24	5897
2026-01-16 01:20:59.57	347.43	32.60	-31.9	-36.0	10.8	4.06e-03	0	43	0	435159040	24	5797
2026-01-16 01:21:02.57	346.65	33.05	-32.2	-37.2	10.0	7.06e-03	0	44	0	440401920	24	6363
2026-01-16 01:21:05.57	345.85	33.50	-32.1	-36.9	10.3	6.21e-03	0	44	0	446693376	24	6197
2026-01-16 01:21:08.57	345.02	33.95	-32.2	-37.1	10.1	9.34e-03	0	43	0	451936256	24	6299
2026-01-16 01:21:11.56	344.18	34.40	-31.8	-36.1	11.2	3.79e-03	0	44	0	457179136	23	5917
2026-01-16 01:21:14.56	343.30	34.85	-31.5	-35.2	11.8	3.17e-03	0	44	0	463470592	23	5515
2026-01-16 01:21:17.57	342.40	35.30	-31.4	-35.4	12.1	2.53e-03	0	44	0	468713472	22	5716
2026-01-16 01:21:20.57	341.48	35.75	-31.1	-34.6	12.6	2.22e-03	0	44	0	473956352	22	5363
2026-01-16 01:21:23.57	340.53	36.19	-31.3	-35.2	12.2	2.59e-03	0	43	0	480247808	22	5623
2026-01-16 01:21:26.56	339.56	36.63	-31.2	-34.9	12.4	3.70e-04	0	44	0	485490688	22	5499
2026-01-16 01:21:29.56	338.56	37.07	-31.1	-34.6	12.7	2.17e-03	0	44	0	490733568	22	5347
2026-01-16 01:21:32.56	337.53	37.50	-31.3	-35.1	12.3	2.58e-03	0	43	0	497025024	22	5555
2026-01-16 01:21:35.57	336.47	37.93	-31.4	-35.3	12.2	2.52e-03	0	44	0	502267904	22	5650
2026-01-16 01:21:38.57	335.38	38.35	-31.5	-35.1	11.9	2.54e-03	0	44	0	508559360	23	5464
2026-01-16 01:21:41.57	334.27	38.76	-31.4	-35.3	12.1	2.04e-03	0	44	0	513802240	22	5675
2026-01-16 01:21:44.56	333.13	39.17	-31.4	-35.3	12.2	3.68e-04	0	44	0	519045120	22	5647
2026-01-16 01:21:47.57	331.95	39.57	-31.4	-34.8	12.2	5.19e-04	0	44	0	525336576	23	5337
2026-01-16 01:21:50.57	330.75	39.95	-31.4	-35.3	12.2	2.44e-04	0	44	0	530579456	22	5643
2026-01-16 01:21:53.58	329.52	40.33	-30.9	-33.9	13.2	1.51e-03	0	43	0	535822336	22	5066
2026-01-16 01:21:56.58	328.26	40.70	-30.6	-33.8	13.5	1.92e-03	0	44	0	542113792	21	5154
2026-01-16 01:21:59.57	326.98	41.05	-30.3	-33.4	14.1	3.36e-04	0	44	0	547356672	20	5140
2026-01-16 01:22:02.57	325.67	41.39	-30.4	-33.5	14.0	2.32e-04	0	44	0	552599552	20	5166
2026-01-16 01:22:05.58	324.32	41.72	-30.4	-33.5	14.0	3.65e-04	0	44	0	558891008	20	5173
2026-01-16 01:22:08.58	322.95	42.03	-30.5	-33.3	13.9	3.78e-04	0	44	0	564133888	21	4964
2026-01-16 01:22:11.59	321.55	42.32	-30.7	-33.9	13.4	1.83e-04	0	44	0	570425344	21	5198
2026-01-16 01:22:14.60	320.13	42.60	-30.8	-34.0	13.4	1.61e-03	0	44	0	575668224	21	5249
2026-01-16 01:22:17.60	318.68	42.86	-30.2	-33.0	14.3	9.68e-05	0	44	0	580911104	20	4988
2026-01-16 01:22:20.60	317.21	43.10	-30.3	-33.4	14.0	3.00e-06	0	44	0	587202560	20	5145
2026-01-16 01:22:23.62	315.71	43.32	-30.0	-32.5	14.7	7.00e-07	0	44	0	592445440	20	4805
2026-01-16 01:22:26.62	314.21	43.51	-30.1	-32.7	14.5	9.30e-05	0	44	0	597688320	20	4869
2026-01-16 01:22:29.62	312.68	43.69	-30.2	-33.0	14.4	9.30e-05	0	44	0	603979776	20	4965
2026-01-16 01:22:32.62	311.14	43.84	-30.6	-33.7	13.6	4.50e-06	0	44	0	609222656	21	5124
2026-01-16 01:22:35.62	309.58	43.98	-30.4	-33.7	12.6	3.80e-06	0	44	0	615514112	20	5217
2026-01-16 01:22:38.63	308.01	44.08	-30.5	-33.5	13.8	2.03e-03	0	44	0	620756992	21	5095
2026-01-16 01:22:41.63	306.43	44.17	-30.8	-34.1	13.4	1.06e-05	0	44	0	625999872	21	5286
2026-01-16 01:22:44.63	304.85	44.23	-31.1	-34.5	12.7	7.40e-05	0	44	0	632291328	22	5332
2026-01-16 01:22:47.64	303.25	44.26	-30.7	-33.9	13.5	1.75e-05	0	44	0	637534208	21	5179
2026-01-16 01:22:50.64	301.66	44.27	-30.9	-34.4	13.1	3.05e-05	0	44	0	642777088	21	5381
2026-01-16 01:22:53.63	300.07	44.26	-31.0	-34.3	12.9	5.64e-05	0	43	0	649068544	22	5228
2026-01-16 01:22:56.63	298.48	44.22	-31.3	-35.1	12.4	1.70e-03	0	44	0	654311424	22	5576
2026-01-16 01:22:59.65	296.89	44.15	-31.5	-35.5	12.1	2.21e-03	0	44	0	659554304	22	5730
2026-01-16 01:23:02.64	295.32	44.07	-31.7	-35.6	11.6	8.64e-04	0	44	0	665845760	23	5666
2026-01-16 01:23:05.65	293.74	43.95	-31.6	-35.5	11.7	6.79e-04	0	44	0	671088640	23	5654
2026-01-16 01:23:08.65	292.19	43.82	-31.9	-36.5	11.0	1.36e-03	0	44	0	677380096	23	6102
2026-01-16 01:23:11.66	290.64	43.66	-32.2	-36.8	10.5	5.06e-03	0	44	0	682622976	24	6117
2026-01-16 01:23:14.67	289.11	43.48	-32.1	-36.6	10.7	3.69e-03	0	44	0	687865856	24	6029
2026-01-16 01:23:17.68	287.60	43.27	-32.4	-37.7	9.7	1.26e-02	0	44	0	694157312	24	6607
2026-01-16 01:23:20.68	286.12	43.05	-32.6	-37.9	9.2	1.98e-02	0	44	0	699400192	25	6647
2026-01-16 01:23:23.68	284.65	42.81	-31.8	-36.0	11.2	3.94e-03	0	44	0	704643072	23	5876
2026-01-16 01:23:26.69	283.20	42.55	-31.4	-35.4	12.1	1.45e-03	0	44	0	710934528	22	5705
2026-01-16 01:23:29.68	281.79	42.27	-31.0	-34.7	12.9	2.32e-03	0	44	0	716177408	21	5504
2026-01-16 01:23:32.69	280.39	41.97	-31.2	-34.7	12.5	2.10e-03	0	44	0	722468864	22	5430
2026-01-16 01:23:35.70	279.02	41.65	-30.2	-33.0	14.3	2.36e-03	0	44	0	727711744	20	4991
2026-01-16 01:23:38.70	277.68	41.32	-29.4	-31.9	15.6	2.16e-03	0	44	0	732954624	18	4835
2026-01-16 01:23:41.70	276.37	40.98	-29.5	-31.7	15.4	1.97e-03	0	44	0	739246080	19	4649
2026-01-16 01:23:44.72	275.08	40.62	-29.0	-31.0	16.1	2.17e-03	0	44	0	744488960	18	4537
2026-01-16 01:23:47.73	273.82	40.25	-28.8	-31.1	16.4	3.00e-06	0	44	0	749731840	17	4674
2026-01-16 01:23:50.74	272.59	39.87	-29.3	-31.8	15.6	7.00e-07	0	44	0	756023296	18	4803
2026-01-16 01:23:53.74	271.39	39.48	-28.9	-30.9	16.1	2.18e-03	0	44	0	761266176	18	4506
2026-01-16 01:23:56.73	270.23	39.08	-28.7	-30.9	16.4	2.17e-03	0	44	0	767557632	17	4628
2026-01-16 01:23:59.74	269.09	38.67	-29.5	-32.2	15.4	2.00e-03	0	43	0	772800512	18	4925
2026-01-16 01:24:02.75	267.97	38.25	-29.4	-31.6	15.4	3.80e-06	0	44	0	778043392	19	4640
2026-01-16 01:24:05.76	266.88	37.83	-29.4	-32.2	15.4	3.00e-06	0	44	0	784334848	18	4922
2026-01-16 01:24:08.75	265.83	37.40	-29.8	-32.0	14.8	2.20e-06	0	44	0	789577728	20	4654
2026-01-16 01:24:11.76	264.80	36.96	-29.8	-32.2	14.7	0.00e+00	0	44	0	794820608	20	4720
2026-01-16 01:24:14.76	263.80	36.52	-29.9	-32.3	14.6	0.00e+00	0	44	0	801112064	20	4762
2026-01-16 01:24:17.76	262.83	36.08	-30.4	-33.8	13.7	2.24e-03	0	44	0	806354944	20	5296
2026-01-16 01:24:20.77	261.88	35.63	-30.5	-33.5	13.5	1.98e-05	0	44	0	812646400	21	5073
2026-01-16 01:24:23.78	260.96	35.18	-30.8	-34.3	13.0	2.05e-05	0	44	0	817889280	21	5390
2026-01-16 01:24:26.79	260.06	34.73	-31.2	-34.8	12.3	1.41e-04	0	44	0	823132160	22	5486
2026-01-16 01:24:29.80	259.19	34.28	-31.4	-35.5	11.8	2.87e-04	0	44	0	829423616	22	5773
2026-01-16 01:24:32.81	258.34	33.83	-31.4	-35.2	11.7	5.57e-04	0	44	0	834666496	23	5535
2026-01-16 01:24:35.80	257.52	33.38	-31.7	-35.9	11.2	1.46e-03	0	44	0	839909376	23	5857
2026-01-16 01:24:38.81	256.71	32.92	-31.8	-36.4	10.9	2.05e-03	0	44	0	846200832	23	6079
2026-01-16 01:24:41.81	255.94	32.47	-31.7	-35.9	11.1	1.69e-03	0	44	0	851443712	23	5875
2026-01-16 01:24:44.80	255.18	32.02	-31.7	-36.0	11.0	1.47e-03	0	44	0	857735168	23	5927
2026-01-16 01:24:47.81	254.44	31.57	-31.9	-36.7	10.5	3.80e-03	0	44	0	862978048	23	6245
2026-01-16 01:24:50.82	253.72	31.12	-31.7	-36.0	11.0	2.48e-03	0	44	0	868220928	23	5917
2026-01-16 01:24:53.83	253.03	30.67	-31.7	-36.1	10.9	2.03e-03	0	44	0	874512384	23	5988
2026-01-16 01:24:56.84	252.35	30.23	-31.5	-35.4	11.4	9.87e-04	0	44	0	879755264	23	5644
2026-01-16 01:24:59.85	251.69	29.78	-31.4	-35.2	11.6	5.93e-04	0	44	0	884998144	23	5539
2026-01-16 01:25:02.84	251.05	29.35	-31.2	-34.9	12.2	3.99e-04	0	44	0	891289600	22	5539
2026-01-16 01:25:05.84	250.42	28.91	-31.1	-34.8	12.2	1.92e-04	0	44	0	896532480	22	5488
2026-01-16 01:25:08.85	249.82	28.48	-31.1	-34.6	12.3	2.37e-04	0	44	0	902823936	22	5424
2026-01-16 01:25:11.87	249.22	28.04	-30.5	-33.6	13.3	1.75e-05	0	44	0	908066816	21	5131
2026-01-16 01:25:14.86	248.65	27.62	-30.4	-33.7	13.7	1.42e-03	0	44	0	913309696	20	5259
2026-01-16 01:25:17.86	248.09	27.19	-30.5	-33.5	13.3	1.90e-03	0	44	0	919601152	21	5106
2026-01-16 01:25:20.87	247.54	26.77	-30.5	-34.0	13.3	2.37e-03	0	43	0	924844032	20	5403
2026-01-16 01:25:23.88	247.01	26.36	-30.3	-33.5	13.6	2.12e-03	0	44	0	930086912	20	5230
2026-01-16 01:25:26.88	246.50	25.94	-30.4	-33.7	13.4	1.13e-03	0	44	0	936378368	20	5306
2026-01-16 01:25:29.89	245.99	25.53	-30.7	-34.2	12.8	5.41e-05	0	44	0	941621248	21	5371
2026-01-16 01:25:32.90	245.50	25.13	-30.8	-34.6	12.5	2.37e-04	0	43	0	947912704	21	5527
2026-01-16 01:25:35.90	245.02	24.73	-30.8	-34.4	12.6	2.68e-04	0	44	0	953155584	21	5485
2026-01-16 01:25:38.90	244.56	24.33	-31.0	-34.4	12.3	1.68e-04	0	44	0	958398464	22	5372
2026-01-16 01:25:41.90	244.10	23.94	-30.9	-34.7	12.1	4.55e-04	0	44	0	964689920	21	5589
2026-01-16 01:25:44.91	243.66	23.55	-30.9	-34.8	12.4	3.56e-04	0	44	0	969932800	21	5624
2026-01-16 01:25:47.90	243.23	23.16	-30.6	-33.9	12.9	3.22e-04	0	44	0	975175680	21	5272
2026-01-16 01:25:50.91	242.81	22.78	-30.5	-33.6	13.1	3.89e-05	0	44	0	981467136	21	5159
2026-01-16 01:25:53.91	242.40	22.40	-30.7	-34.2	12.7	1.86e-04	0	44	0	986710016	21	5392
2026-01-16 01:25:56.92	242.00	22.03	-30.8	-34.6	12.4	5.32e-04	0	44	0	993001472	21	5583
2026-01-16 01:25:59.93	241.60	21.66	-30.7	-34.1	12.7	5.93e-04	0	44	0	998244352	21	5373
2026-01-16 01:26:02.92	241.22	21.29	-30.7	-34.4	12.5	9.00e-04	0	44	0	1003487232	21	5480
2026-01-16 01:26:05.92	240.85	20.93	-30.6	-34.1	12.7	9.76e-05	0	44	0	1009778688	21	5373
2026-01-16 01:26:08.92	240.49	20.58	-30.6	-34.1	12.7	1.50e-03	0	44	0	1015021568	21	5359
2026-01-16 01:26:11.93	240.13	20.22	-30.5	-34.2	13.0	1.13e-03	0	44	0	1020264448	20	5500
2026-01-16 01:26:14.94	239.78	19.87	-30.5	-33.9	12.8	6.54e-04	0	44	0	1026555904	21	5283
2026-01-16 01:26:17.96	239.44	19.52	-30.6	-33.9	12.7	4.36e-04	0	44	0	1031798784	21	5303
2026-01-16 01:26:20.96	239.11	19.18	-30.7	-34.4	12.4	2.84e-04	0	44	0	1038090240	21	5488
2026-01-16 01:26:23.95	238.79	18.84	-30.6	-33.9	12.8	2.43e-04	0	44	0	1043333120	21	5307
2026-01-16 01:26:26.95	238.47	18.51	-30.7	-34.3	12.4	3.92e-04	0	44	0	1048576000	21	5467
2026-01-16 01:26:29.96	238.16	18.17	-30.5	-33.9	12.7	2.77e-04	0	44	0	1054867456	21	5306
2026-01-16 01:26:32.98	237.86	17.84	-30.8	-34.5	12.2	3.27e-04	0	44	0	1060110336	21	5569
2026-01-16 01:26:35.98	237.56	17.52	-30.4	-34.1	12.8	2.65e-04	0	44	0	1065353216	20	5495
2026-01-16 01:26:38.99	237.27	17.20	-30.8	-34.7	12.0	5.58e-04	0	44	0	1071644672	21	5655
2026-01-16 01:26:41.99	236.99	16.88	-30.9	-35.0	11.9	4.20e-04	0	44	0	1076887552	21	5770
2026-01-16 01:26:45.00	236.71	16.56	-30.9	-34.9	11.8	8.27e-04	0	44	0	1082130432	21	5760
2026-01-16 01:26:48.01	236.43	16.25	-30.7	-34.4	12.2	6.51e-04	0	44	0	1088421888	21	5527
2026-01-16 01:26:50.99	236.17	15.95	-30.6	-34.0	11.7	3.94e-04	0	44	0	1093664768	21	5373
2026-01-16 01:26:54.00	235.91	15.64	-30.5	-34.0	12.4	4.48e-04	0	44	0	1099956224	21	5367
2026-01-16 01:26:57.00	235.65	15.34	-30.6	-34.3	12.2	2.01e-04	0	44	0	1105199104	21	5500
2026-01-16 01:27:00.00	235.40	15.04	-30.8	-34.9	11.8	4.38e-04	0	44	0	1110441984	21	5734
2026-01-16 01:27:03.00	235.16	14.74	-31.0	-35.3	11.4	3.63e-03	0	44	0	1116733440	21	5962
2026-01-16 01:27:06.01	234.92	14.45	-30.8	-34.9	11.7	3.38e-03	0	44	0	1121976320	21	5762
2026-01-16 01:27:09.02	234.68	14.16	-31.0	-35.1	11.2	9.99e-04	0	44	0	1127219200	22	5765
2026-01-16 01:27:12.03	234.45	13.87	-31.1	-35.3	11.1	1.46e-03	0	44	0	1133510656	22	5824
2026-01-16 01:27:15.02	234.23	13.59	-31.2	-35.7	10.8	2.90e-03	0	44	0	1138753536	22	6023
2026-01-16 01:27:18.03	234.01	13.31	-31.1	-35.3	11.0	5.05e-03	0	44	0	1145044992	22	5857
2026-01-16 01:27:21.03	233.79	13.03	-31.0	-35.6	11.1	4.60e-03	0	44	0	1150287872	21	6109
2026-01-16 01:27:24.04	233.58	12.76	-31.1	-35.5	10.8	5.78e-03	0	44	0	1155530752	22	5980
2026-01-16 01:27:27.04	233.37	12.48	-31.2	-36.0	10.4	6.59e-03	0	44	0	1161822208	22	6209
2026-01-16 01:27:30.04	233.16	12.22	-31.2	-35.8	10.6	3.07e-03	0	44	0	1167065088	22	6113
2026-01-16 01:27:33.05	232.96	11.95	-31.0	-35.2	11.0	1.83e-03	0	44	0	1172307968	22	5817
2026-01-16 01:27:36.06	232.76	11.68	-31.0	-35.3	10.9	4.11e-03	0	44	0	1178599424	22	5868
2026-01-16 01:27:39.07	232.57	11.42	-31.0	-35.3	10.9	4.32e-03	0	44	0	1183842304	22	5870
2026-01-16 01:27:42.08	232.38	11.16	-30.9	-35.4	11.1	4.35e-03	0	44	0	1190133760	21	6047
2026-01-16 01:27:45.08	232.19	10.90	-30.9	-35.4	11.1	3.70e-03	0	44	0	1195376640	21	6031
2026-01-16 01:27:48.09	232.01	10.65	-30.9	-35.3	11.1	4.14e-03	0	44	0	1200619520	21	5990
2026-01-16 01:27:51.10	231.83	10.39	-31.0	-35.7	10.8	3.36e-03	0	44	0	1206910976	21	6200
2026-01-16 01:27:54.12	231.65	10.14	-31.1	-35.5	10.6	3.19e-03	0	44	0	1212153856	22	5971
2026-01-16 01:27:57.12	231.47	9.89	-31.2	-35.9	10.3	5.22e-03	0	44	0	1217396736	22	6193
2026-01-16 01:28:00.12	231.30	9.65	-31.3	-36.2	10.0	1.10e-02	0	44	0	1223688192	22	6380
2026-01-16 01:28:03.11	231.14	9.40	-31.2	-36.2	10.0	1.44e-02	0	44	0	1228931072	22	6379
2026-01-16 01:28:06.10	230.97	9.16	-31.3	-36.6	9.7	1.45e-02	0	44	0	1234173952	22	6577
2026-01-16 01:28:09.10	230.81	8.92	-31.3	-36.3	9.8	9.79e-03	0	44	0	1240465408	22	6450
2026-01-16 01:28:12.10	230.65	8.69	-31.2	-36.2	9.9	9.40e-03	0	44	0	1245708288	22	6383
2026-01-16 01:28:15.11	230.49	8.45	-31.2	-36.3	9.8	1.02e-02	0	44	0	1251999744	22	6449
2026-01-16 01:28:18.10	230.34	8.22	-31.2	-36.2	9.8	1.41e-02	0	44	0	1257242624	22	6415
2026-01-16 01:28:21.10	230.19	7.99	-31.2	-36.3	9.7	1.47e-02	0	44	0	1262485504	22	6457
2026-01-16 01:28:24.10	230.04	7.76	-31.3	-36.8	9.2	1.92e-02	0	44	0	1268776960	22	6782
2026-01-16 01:28:27.09	229.89	7.53	-31.1	-36.0	9.8	1.06e-02	0	44	0	1274019840	22	6343
2026-01-16 01:28:30.10	229.75	7.30	-31.3	-36.7	9.3	1.36e-02	0	44	0	1279262720	22	6711
2026-01-16 01:28:33.10	229.61	7.08	-31.2	-36.6	9.3	2.23e-02	0	44	0	1285554176	22	6669
2026-01-16 01:28:36.09	229.47	6.86	-33.7	-48.0	3.8	1.49e+00	0	44	104	1285554176	27	18622

#Closed at: 2026-01-16 01:28:37
#Recorded file [1285 MB]: D:/data/31010_260116_041707.dat