passes_logs/2026/01/16/R2M6_AANII_01/R2M6_AANII_01__20260116_092946_NOAA_20_JPSS-1_rec.log

#Pass ID: 20260116_092946_NOAA 20 (JPSS-1)
#Satellite: NOAA 20 (JPSS-1)
#Configuration: NOAA 20
#almurnet v.1.7.20240730
#Start time: 2026-01-16 09:29:46

#Version: 2.2.20231116
#Station: R2M6_AANII_01
#Location: 30.233357 lon 59.946436 lat
#TLE: 1 43013U 17073A   26015.47098083  .00000029  00000+0  34851-4 0  9997
#TLE: 2 43013  98.7636 316.4053 0001479  38.6686 321.4595 14.19536048422808

#Time	Az	El	Level	Level2	SNR	BER	BlckErr	Temp	State	Recorded	gain1	gain2
2026-01-16 09:29:46.31	134.72	6.98	-31.5	-37.1	5.0	1.27e+00	0	41	0	0	24	6846
2026-01-16 09:29:49.32	134.60	7.20	-31.5	-37.3	7.7	7.92e-02	0	41	0	1048576	24	7003
2026-01-16 09:29:52.31	134.47	7.43	-31.5	-37.1	7.8	8.82e-02	0	41	0	7340032	24	6920
2026-01-16 09:29:55.32	134.35	7.66	-31.3	-37.0	8.3	4.25e-02	0	41	0	12582912	23	6957
2026-01-16 09:29:58.33	134.22	7.90	-30.9	-35.3	9.8	1.70e-02	0	41	0	17825792	23	5956
2026-01-16 09:30:01.34	134.10	8.13	-30.7	-35.1	10.4	5.21e-03	0	41	0	24117248	22	5939
2026-01-16 09:30:04.33	133.97	8.37	-30.5	-34.3	11.0	3.18e-03	0	41	0	29360128	22	5561
2026-01-16 09:30:07.34	133.83	8.61	-30.4	-33.9	11.3	1.43e-03	0	42	0	35651584	22	5362
2026-01-16 09:30:10.34	133.70	8.85	-30.4	-33.7	11.5	6.33e-04	0	42	0	40894464	22	5265
2026-01-16 09:30:13.35	133.56	9.09	-30.3	-33.8	11.8	4.92e-04	0	42	0	46137344	21	5418
2026-01-16 09:30:16.34	133.42	9.33	-30.2	-33.8	11.9	5.75e-04	0	42	0	52428800	21	5404
2026-01-16 09:30:19.34	133.28	9.58	-30.4	-34.1	11.6	7.64e-04	0	42	0	57671680	21	5559
2026-01-16 09:30:22.34	133.14	9.83	-30.2	-33.6	12.2	2.52e-04	0	42	0	62914560	21	5287
2026-01-16 09:30:25.34	132.99	10.08	-30.1	-33.0	12.6	7.70e-05	0	42	0	69206016	21	5026
2026-01-16 09:30:28.34	132.84	10.33	-30.2	-33.3	12.4	9.91e-05	0	42	0	74448896	21	5151
2026-01-16 09:30:31.33	132.69	10.59	-30.3	-33.7	12.1	2.56e-04	0	42	0	79691776	21	5331
2026-01-16 09:30:34.32	132.53	10.85	-30.2	-33.5	12.3	2.01e-04	0	42	0	85983232	21	5251
2026-01-16 09:30:37.32	132.37	11.11	-30.2	-33.4	12.3	1.52e-04	0	42	0	91226112	21	5226
2026-01-16 09:30:40.32	132.21	11.37	-30.0	-32.7	12.8	8.54e-05	0	42	0	97517568	21	4956
2026-01-16 09:30:43.31	132.05	11.64	-30.0	-32.8	12.9	8.39e-05	0	42	0	102760448	21	4970
2026-01-16 09:30:46.32	131.88	11.91	-30.1	-33.1	12.6	9.15e-05	0	42	0	108003328	21	5105
2026-01-16 09:30:49.33	131.71	12.18	-30.0	-32.8	12.9	5.64e-05	0	42	0	114294784	21	4981
2026-01-16 09:30:52.34	131.53	12.46	-30.0	-32.7	13.0	3.81e-05	0	42	0	119537664	21	4938
2026-01-16 09:30:55.35	131.36	12.74	-30.0	-32.8	13.0	6.17e-05	0	42	0	124780544	21	4928
2026-01-16 09:30:58.34	131.18	13.02	-30.0	-32.8	13.0	3.50e-05	0	42	0	131072000	21	4932
2026-01-16 09:31:01.34	130.99	13.30	-29.9	-32.5	13.2	2.97e-05	0	43	0	136314880	21	4852
2026-01-16 09:31:04.33	130.80	13.59	-30.1	-32.9	12.9	3.66e-05	0	43	0	141557760	21	5004
2026-01-16 09:31:07.33	130.61	13.88	-30.0	-32.7	13.1	3.43e-05	0	43	0	147849216	21	4932
2026-01-16 09:31:10.34	130.41	14.17	-29.8	-32.2	13.4	2.21e-05	0	43	0	153092096	21	4773
2026-01-16 09:31:13.35	130.21	14.47	-29.8	-32.7	13.5	4.50e-06	0	43	0	159383552	20	5008
2026-01-16 09:31:16.36	130.01	14.77	-30.0	-33.0	13.3	1.83e-05	0	43	0	164626432	20	5124
2026-01-16 09:31:19.36	129.80	15.07	-30.1	-33.3	13.2	1.98e-05	0	43	0	169869312	20	5201
2026-01-16 09:31:22.36	129.58	15.38	-29.9	-32.7	13.6	1.37e-05	0	43	0	176160768	20	4976
2026-01-16 09:31:25.37	129.36	15.69	-29.8	-32.5	13.8	6.80e-06	0	43	0	181403648	20	4909
2026-01-16 09:31:28.36	129.14	16.00	-29.9	-32.7	13.6	4.50e-06	0	43	0	186646528	20	4987
2026-01-16 09:31:31.37	128.91	16.32	-29.9	-32.7	13.7	4.50e-06	0	43	0	192937984	20	4979
2026-01-16 09:31:34.37	128.68	16.64	-30.0	-33.1	13.4	6.10e-06	0	43	0	198180864	20	5136
2026-01-16 09:31:37.38	128.44	16.96	-30.2	-33.6	13.1	1.52e-05	0	43	0	204472320	20	5365
2026-01-16 09:31:40.37	128.20	17.29	-30.0	-33.3	13.3	2.67e-05	0	43	0	209715200	20	5226
2026-01-16 09:31:43.37	127.95	17.62	-30.4	-33.8	12.6	2.16e-04	0	43	0	214958080	21	5340
2026-01-16 09:31:46.37	127.69	17.96	-29.9	-32.3	13.6	9.90e-06	0	43	0	221249536	21	4764
2026-01-16 09:31:49.38	127.43	18.30	-29.9	-32.3	13.7	4.50e-06	0	43	0	226492416	21	4741
2026-01-16 09:31:52.37	127.17	18.64	-30.0	-32.4	13.7	4.50e-06	0	43	0	231735296	21	4745
2026-01-16 09:31:55.38	126.89	18.99	-30.1	-32.6	13.6	1.06e-05	0	43	0	238026752	21	4797
2026-01-16 09:31:58.39	126.61	19.34	-30.3	-33.1	13.3	2.74e-05	0	43	0	243269632	21	5000
2026-01-16 09:32:01.40	126.32	19.70	-30.3	-33.2	13.3	2.05e-05	0	43	0	249561088	21	5013
2026-01-16 09:32:04.41	126.03	20.06	-30.4	-33.4	13.1	3.73e-05	0	43	0	254803968	21	5105
2026-01-16 09:32:07.41	125.73	20.43	-30.3	-33.3	13.2	2.21e-05	0	43	0	260046848	21	5054
2026-01-16 09:32:10.41	125.42	20.80	-30.5	-33.6	13.1	3.20e-05	0	43	0	266338304	21	5163
2026-01-16 09:32:13.40	125.11	21.17	-30.6	-34.0	12.7	3.66e-05	0	43	0	271581184	21	5318
2026-01-16 09:32:16.41	124.78	21.55	-30.3	-33.3	13.2	2.36e-05	0	43	0	276824064	21	5046
2026-01-16 09:32:19.42	124.45	21.94	-30.5	-33.7	13.0	4.34e-05	0	43	0	283115520	21	5220
2026-01-16 09:32:22.43	124.11	22.33	-30.5	-33.7	13.0	3.81e-05	0	43	0	288358400	21	5198
2026-01-16 09:32:25.44	123.75	22.72	-30.5	-33.8	12.9	4.95e-05	0	43	0	294649856	21	5242
2026-01-16 09:32:28.43	123.40	23.12	-30.7	-34.2	12.7	1.08e-04	0	43	0	299892736	21	5395
2026-01-16 09:32:31.44	123.03	23.53	-30.4	-33.5	13.2	2.51e-05	0	43	0	305135616	21	5120
2026-01-16 09:32:34.45	122.65	23.94	-30.5	-33.5	13.2	2.51e-05	0	43	0	311427072	21	5130
2026-01-16 09:32:37.45	122.26	24.35	-30.5	-33.5	13.2	5.79e-05	0	43	0	316669952	21	5127
2026-01-16 09:32:40.45	121.86	24.77	-30.4	-33.3	13.3	1.60e-05	0	43	0	321912832	21	5058
2026-01-16 09:32:43.45	121.45	25.19	-30.4	-33.4	13.3	2.51e-05	0	43	0	328204288	21	5076
2026-01-16 09:32:46.45	121.03	25.62	-30.5	-33.7	13.1	3.20e-05	0	43	0	333447168	21	5194
2026-01-16 09:32:49.45	120.59	26.06	-30.5	-33.7	13.2	2.51e-05	0	43	0	338690048	21	5165
2026-01-16 09:32:52.46	120.15	26.50	-30.6	-33.9	13.1	3.35e-05	0	43	0	344981504	21	5246
2026-01-16 09:32:55.47	119.69	26.94	-30.5	-33.7	13.2	1.98e-05	0	43	0	350224384	21	5164
2026-01-16 09:32:58.47	119.22	27.39	-30.4	-33.4	13.4	1.14e-05	0	43	0	356515840	21	5056
2026-01-16 09:33:01.48	118.73	27.85	-30.5	-33.5	13.3	1.52e-05	0	43	0	361758720	21	5114
2026-01-16 09:33:04.47	118.23	28.31	-30.6	-34.0	13.0	3.35e-05	0	43	0	367001600	21	5290
2026-01-16 09:33:07.47	117.72	28.78	-30.6	-33.9	13.1	3.12e-05	0	43	0	373293056	21	5261
2026-01-16 09:33:10.45	117.19	29.24	-30.7	-34.0	13.1	2.13e-05	0	43	0	378535936	21	5278
2026-01-16 09:33:13.45	116.64	29.72	-30.8	-34.4	12.8	5.56e-05	0	43	0	383778816	21	5460
2026-01-16 09:33:16.46	116.08	30.20	-30.9	-34.3	12.6	1.33e-04	0	43	0	390070272	22	5277
2026-01-16 09:33:19.46	115.50	30.69	-31.2	-35.1	12.0	3.35e-04	0	43	0	395313152	22	5632
2026-01-16 09:33:22.47	114.90	31.18	-31.5	-35.5	11.5	6.23e-04	0	43	0	401604608	23	5671
2026-01-16 09:33:25.47	114.28	31.67	-31.6	-35.6	11.4	6.33e-04	0	43	0	406847488	23	5722
2026-01-16 09:33:28.48	113.64	32.18	-31.5	-35.3	11.6	8.35e-04	0	43	0	412090368	23	5576
2026-01-16 09:33:31.49	112.99	32.68	-31.4	-35.1	11.7	6.48e-04	0	43	0	418381824	23	5482
2026-01-16 09:33:34.48	112.31	33.19	-31.4	-35.0	11.8	4.00e-04	0	43	0	423624704	23	5465
2026-01-16 09:33:37.49	111.61	33.70	-31.4	-35.0	11.8	4.26e-04	0	43	0	428867584	23	5431
2026-01-16 09:33:40.49	110.89	34.22	-31.5	-35.4	11.5	8.13e-04	0	43	0	435159040	23	5649
2026-01-16 09:33:43.51	110.14	34.74	-31.3	-34.8	12.0	3.23e-04	0	43	0	440401920	23	5354
2026-01-16 09:33:46.51	109.37	35.26	-31.4	-35.1	11.8	4.25e-04	0	43	0	445644800	23	5498
2026-01-16 09:33:49.51	108.57	35.79	-31.4	-34.8	12.1	4.00e-04	0	43	0	451936256	23	5380
2026-01-16 09:33:52.51	107.75	36.31	-31.2	-34.5	12.3	1.94e-04	0	43	0	457179136	23	5219
2026-01-16 09:33:55.50	106.91	36.84	-31.1	-34.1	12.5	1.26e-04	0	43	0	463470592	23	5078
2026-01-16 09:33:58.50	106.03	37.37	-31.2	-34.4	12.4	2.52e-04	0	43	0	468713472	23	5188
2026-01-16 09:34:01.51	105.12	37.90	-31.2	-34.3	12.4	1.69e-04	0	44	0	473956352	23	5153
2026-01-16 09:34:04.52	104.18	38.43	-31.2	-34.2	12.5	1.85e-04	0	43	0	480247808	23	5123
2026-01-16 09:34:07.52	103.22	38.96	-31.3	-34.7	12.2	2.30e-04	0	43	0	485490688	23	5314
2026-01-16 09:34:10.54	102.21	39.49	-31.4	-34.9	12.0	2.70e-04	0	44	0	490733568	23	5410
2026-01-16 09:34:13.55	101.17	40.01	-31.8	-36.2	11.1	1.36e-03	0	43	0	497025024	23	5981
2026-01-16 09:34:16.56	100.10	40.53	-31.7	-35.5	11.3	1.67e-03	0	43	0	502267904	24	5519
2026-01-16 09:34:19.58	99.00	41.06	-31.8	-35.6	11.3	8.64e-04	0	44	0	508559360	24	5575
2026-01-16 09:34:22.57	97.86	41.57	-31.8	-35.8	11.1	1.15e-03	0	43	0	513802240	24	5678
2026-01-16 09:34:25.59	96.68	42.07	-31.8	-35.7	11.2	1.37e-03	0	43	0	519045120	24	5641
2026-01-16 09:34:28.60	95.47	42.57	-31.8	-35.7	11.2	1.25e-03	0	44	0	525336576	24	5617
2026-01-16 09:34:31.60	94.22	43.06	-30.9	-33.3	13.2	2.97e-05	0	43	0	530579456	23	4782
2026-01-16 09:34:34.60	92.93	43.54	-30.2	-32.4	14.4	1.50e-06	0	43	0	535822336	21	4677
2026-01-16 09:34:37.59	91.61	44.01	-30.3	-32.7	14.2	7.00e-07	0	43	0	542113792	21	4771
2026-01-16 09:34:40.59	90.24	44.47	-30.2	-32.4	14.4	2.20e-06	0	43	0	547356672	21	4674
2026-01-16 09:34:43.60	88.83	44.92	-30.7	-33.9	13.5	1.37e-05	0	43	0	553648128	21	5205
2026-01-16 09:34:46.60	87.39	45.34	-29.8	-31.9	15.1	0.00e+00	0	43	0	558891008	20	4598
2026-01-16 09:34:49.59	85.91	45.75	-30.7	-34.0	13.5	9.90e-06	0	44	0	564133888	21	5222
2026-01-16 09:34:52.60	84.39	46.15	-31.2	-34.8	12.6	6.56e-05	0	43	0	570425344	22	5438
2026-01-16 09:34:55.61	82.82	46.53	-31.0	-34.2	13.0	4.73e-05	0	43	0	575668224	22	5193
2026-01-16 09:34:58.62	81.22	46.88	-31.3	-34.9	12.6	7.47e-05	0	43	0	580911104	22	5478
2026-01-16 09:35:01.62	79.59	47.22	-31.7	-35.7	11.7	5.65e-04	0	43	0	587202560	23	5694
2026-01-16 09:35:04.62	77.92	47.52	-32.1	-36.4	10.7	2.08e-03	0	43	0	592445440	24	5955
2026-01-16 09:35:07.63	76.22	47.81	-32.2	-36.7	10.6	3.12e-03	0	44	0	598736896	24	6085
2026-01-16 09:35:10.63	74.49	48.07	-32.1	-36.4	10.8	3.51e-03	0	43	0	603979776	24	5938
2026-01-16 09:35:13.64	72.73	48.30	-31.9	-35.7	11.2	1.75e-03	0	43	0	609222656	24	5605
2026-01-16 09:35:16.65	70.95	48.50	-31.8	-35.5	11.5	7.92e-04	0	44	0	615514112	24	5529
2026-01-16 09:35:19.65	69.15	48.67	-31.5	-34.7	12.0	2.85e-04	0	44	0	620756992	24	5170
2026-01-16 09:35:22.65	67.33	48.81	-31.3	-34.5	12.4	1.14e-04	0	43	0	625999872	23	5200
2026-01-16 09:35:25.67	65.48	48.92	-31.2	-34.2	12.7	1.46e-04	0	43	0	632291328	23	5084
2026-01-16 09:35:28.67	63.64	49.00	-31.2	-34.2	12.7	5.03e-05	0	43	0	637534208	23	5091
2026-01-16 09:35:31.68	61.78	49.05	-31.2	-34.1	12.8	5.41e-05	0	44	0	643825664	23	5053
2026-01-16 09:35:34.69	59.91	49.06	-31.3	-34.4	12.5	1.53e-04	0	44	0	649068544	23	5173
2026-01-16 09:35:37.70	58.05	49.04	-31.2	-34.4	12.6	8.62e-05	0	43	0	654311424	23	5153
2026-01-16 09:35:40.70	56.20	48.99	-31.3	-34.6	12.5	1.01e-04	0	43	0	660602880	23	5258
2026-01-16 09:35:43.71	54.35	48.91	-31.2	-34.3	12.6	7.01e-05	0	44	0	665845760	23	5135
2026-01-16 09:35:46.70	52.52	48.80	-31.3	-34.4	12.5	1.15e-04	0	44	0	671088640	23	5174
2026-01-16 09:35:49.71	50.70	48.65	-31.0	-33.8	12.9	6.10e-05	0	43	0	677380096	23	4948
2026-01-16 09:35:52.71	48.91	48.48	-31.2	-34.3	12.5	1.16e-04	0	43	0	682622976	23	5152
2026-01-16 09:35:55.71	47.13	48.27	-31.3	-34.6	12.3	8.16e-05	0	43	0	688914432	23	5240
2026-01-16 09:35:58.72	45.38	48.04	-31.4	-34.9	12.1	2.43e-04	0	44	0	694157312	23	5396
2026-01-16 09:36:01.73	43.65	47.78	-31.6	-35.6	11.7	4.91e-04	0	44	0	699400192	23	5672
2026-01-16 09:36:04.72	41.96	47.49	-31.7	-35.7	11.6	7.60e-04	0	43	0	705691648	23	5705
2026-01-16 09:36:07.73	40.30	47.18	-31.6	-35.4	11.9	5.40e-04	0	43	0	710934528	23	5581
2026-01-16 09:36:10.74	38.67	46.84	-31.5	-35.3	11.9	5.34e-04	0	43	0	716177408	23	5550
2026-01-16 09:36:13.74	37.08	46.49	-31.3	-34.7	12.3	1.50e-04	0	43	0	722468864	23	5280
2026-01-16 09:36:16.75	35.52	46.11	-31.0	-33.7	12.9	4.34e-05	0	44	0	727711744	23	4925
2026-01-16 09:36:19.77	34.00	45.71	-31.0	-33.8	12.9	6.25e-05	0	44	0	734003200	23	4933
2026-01-16 09:36:22.76	32.53	45.30	-31.0	-33.7	12.9	5.72e-05	0	44	0	739246080	23	4916
2026-01-16 09:36:25.77	31.09	44.87	-30.6	-33.1	13.7	1.67e-05	0	43	0	744488960	22	4801
2026-01-16 09:36:28.78	29.69	44.42	-30.3	-32.7	14.2	1.50e-06	0	44	0	750780416	21	4769
2026-01-16 09:36:31.78	28.33	43.97	-30.5	-33.3	13.8	3.80e-06	0	43	0	756023296	21	4975
2026-01-16 09:36:34.78	27.01	43.50	-30.2	-32.6	14.2	0.00e+00	0	44	0	761266176	21	4745
2026-01-16 09:36:37.79	25.73	43.02	-30.6	-33.7	13.6	4.50e-06	0	43	0	767557632	21	5122
2026-01-16 09:36:40.79	24.49	42.53	-30.6	-33.7	13.6	1.22e-05	0	43	0	772800512	21	5117
2026-01-16 09:36:43.79	23.29	42.03	-30.3	-32.9	14.0	4.50e-06	0	44	0	778043392	21	4833
2026-01-16 09:36:46.80	22.12	41.52	-30.1	-32.4	14.3	2.20e-06	0	44	0	784334848	21	4680
2026-01-16 09:36:49.80	20.99	41.01	-30.6	-33.7	13.5	1.06e-05	0	43	0	789577728	21	5137
2026-01-16 09:36:52.81	19.89	40.50	-30.6	-33.7	13.6	7.60e-06	0	43	0	795869184	21	5119
2026-01-16 09:36:55.81	18.83	39.98	-31.0	-34.2	12.9	3.20e-05	0	44	0	801112064	22	5233
2026-01-16 09:36:58.81	17.81	39.45	-31.3	-35.3	12.2	1.87e-04	0	43	0	806354944	22	5681
2026-01-16 09:37:01.82	16.81	38.93	-31.6	-35.5	11.5	8.20e-04	0	44	0	812646400	23	5678
2026-01-16 09:37:04.83	15.85	38.40	-31.4	-35.1	11.8	6.30e-04	0	43	0	817889280	23	5476
2026-01-16 09:37:07.85	14.91	37.87	-31.7	-35.8	11.3	1.00e-03	0	44	0	823132160	23	5813
2026-01-16 09:37:10.86	14.01	37.34	-31.9	-36.6	10.7	2.46e-03	0	44	0	829423616	23	6172
2026-01-16 09:37:13.87	13.14	36.81	-31.8	-36.4	10.8	2.29e-03	0	44	0	834666496	23	6087
2026-01-16 09:37:16.87	12.29	36.29	-32.0	-36.5	10.3	5.50e-03	0	43	0	840957952	24	6053
2026-01-16 09:37:19.88	11.48	35.76	-31.8	-35.9	10.8	3.67e-03	0	43	0	846200832	24	5743
2026-01-16 09:37:22.90	10.68	35.24	-31.8	-35.7	11.0	1.91e-03	0	44	0	851443712	24	5638
2026-01-16 09:37:25.91	9.92	34.72	-32.0	-36.5	10.3	4.42e-03	0	44	0	857735168	24	6018
2026-01-16 09:37:28.91	9.18	34.20	-31.6	-35.0	11.4	1.11e-03	0	43	0	862978048	24	5361
2026-01-16 09:37:31.92	8.46	33.68	-31.4	-34.6	11.7	5.26e-04	0	43	0	869269504	24	5179
2026-01-16 09:37:34.91	7.77	33.18	-31.4	-34.5	11.8	3.94e-04	0	44	0	874512384	24	5147
2026-01-16 09:37:37.93	7.09	32.67	-31.2	-34.4	12.2	2.78e-04	0	44	0	879755264	23	5209
2026-01-16 09:37:40.94	6.44	32.17	-31.4	-35.0	11.7	5.19e-04	0	43	0	886046720	23	5449
2026-01-16 09:37:43.94	5.81	31.67	-31.6	-35.8	11.1	1.61e-03	0	43	0	891289600	23	5814
2026-01-16 09:37:46.94	5.19	31.18	-31.6	-35.7	11.2	1.56e-03	0	43	0	896532480	23	5772
2026-01-16 09:37:49.93	4.60	30.69	-31.6	-35.7	11.2	1.11e-03	0	43	0	902823936	23	5761
2026-01-16 09:37:52.94	4.03	30.21	-31.6	-35.8	11.2	1.62e-03	0	44	0	908066816	23	5826
2026-01-16 09:37:55.95	3.47	29.73	-31.4	-35.0	11.8	4.73e-04	0	44	0	914358272	23	5460
2026-01-16 09:37:58.94	2.93	29.25	-31.4	-35.0	11.7	7.71e-04	0	43	0	919601152	23	5483
2026-01-16 09:38:01.92	2.40	28.79	-31.3	-34.7	11.9	4.09e-04	0	43	0	924844032	23	5347
2026-01-16 09:38:04.92	1.89	28.33	-31.0	-34.1	12.4	1.63e-04	0	43	0	931135488	23	5095
2026-01-16 09:38:07.93	1.40	27.87	-31.0	-34.1	12.3	2.25e-04	0	43	0	936378368	23	5102
2026-01-16 09:38:10.94	0.91	27.41	-30.8	-33.9	12.7	6.48e-05	0	44	0	941621248	22	5123
2026-01-16 09:38:13.94	0.45	26.96	-30.8	-33.8	12.8	7.09e-05	0	43	0	947912704	22	5118
2026-01-16 09:38:16.96	359.99	26.52	-30.8	-33.8	12.8	4.19e-05	0	44	0	953155584	22	5100
2026-01-16 09:38:19.97	359.54	26.08	-30.9	-34.1	12.6	4.27e-05	0	43	0	959447040	22	5224
2026-01-16 09:38:22.97	359.11	25.65	-30.5	-33.2	13.2	2.51e-05	0	43	0	964689920	22	4873
2026-01-16 09:38:25.97	358.70	25.22	-30.3	-32.5	13.6	1.22e-05	0	44	0	969932800	22	4644
2026-01-16 09:38:28.99	358.29	24.80	-30.3	-33.0	13.6	6.80e-06	0	43	0	976224256	21	4909
2026-01-16 09:38:32.00	357.89	24.38	-30.5	-33.7	13.1	2.28e-05	0	44	0	981467136	21	5197
2026-01-16 09:38:35.00	357.51	23.97	-30.7	-34.2	12.7	1.04e-04	0	43	0	986710016	21	5393
2026-01-16 09:38:38.00	357.13	23.56	-30.6	-33.8	12.9	6.17e-05	0	43	0	993001472	21	5245
2026-01-16 09:38:40.99	356.77	23.16	-30.5	-33.6	13.1	1.52e-05	0	43	0	998244352	21	5142
2026-01-16 09:38:44.00	356.41	22.76	-30.3	-33.0	13.5	1.14e-05	0	43	0	1003487232	21	4915
2026-01-16 09:38:47.00	356.07	22.37	-30.4	-33.4	13.1	2.05e-05	0	44	0	1009778688	21	5085
2026-01-16 09:38:50.01	355.73	21.99	-30.5	-33.6	13.1	2.97e-05	0	44	0	1015021568	21	5143
2026-01-16 09:38:53.02	355.40	21.60	-30.5	-33.7	13.0	3.43e-05	0	44	0	1021313024	21	5209
2026-01-16 09:38:56.02	355.08	21.22	-30.2	-32.9	13.5	9.10e-06	0	43	0	1026555904	21	4905
2026-01-16 09:38:59.04	354.76	20.85	-30.2	-32.9	13.5	9.10e-06	0	43	0	1031798784	21	4908
2026-01-16 09:39:02.05	354.46	20.48	-30.4	-33.3	13.2	1.75e-05	0	43	0	1038090240	21	5032
2026-01-16 09:39:05.05	354.16	20.12	-30.4	-33.4	13.1	3.28e-05	0	43	0	1043333120	21	5106
2026-01-16 09:39:08.06	353.87	19.76	-30.5	-33.8	12.7	7.55e-05	0	43	0	1049624576	21	5249
2026-01-16 09:39:11.06	353.58	19.40	-30.6	-34.0	12.6	7.32e-05	0	43	0	1054867456	21	5339
2026-01-16 09:39:14.07	353.31	19.05	-30.7	-34.4	12.4	9.38e-05	0	43	0	1060110336	21	5477
2026-01-16 09:39:17.08	353.03	18.70	-30.7	-34.2	12.5	8.23e-05	0	44	0	1066401792	21	5415
2026-01-16 09:39:20.09	352.77	18.36	-30.4	-33.5	12.9	3.66e-05	0	43	0	1071644672	21	5139
2026-01-16 09:39:23.09	352.51	18.02	-30.3	-33.2	13.2	2.13e-05	0	44	0	1076887552	21	5018
2026-01-16 09:39:26.09	352.26	17.69	-30.3	-33.1	13.2	2.13e-05	0	44	0	1083179008	21	4988
2026-01-16 09:39:29.10	352.01	17.36	-30.2	-33.0	13.3	1.67e-05	0	43	0	1088421888	21	4972
2026-01-16 09:39:32.10	351.77	17.03	-30.4	-33.4	12.9	4.73e-05	0	43	0	1093664768	21	5102
2026-01-16 09:39:35.12	351.54	16.71	-30.6	-34.2	12.4	6.71e-05	0	43	0	1099956224	21	5447
2026-01-16 09:39:38.11	351.31	16.39	-30.6	-34.1	12.5	1.36e-04	0	44	0	1105199104	21	5392
2026-01-16 09:39:41.11	351.08	16.07	-30.6	-34.1	12.4	1.80e-04	0	44	0	1111490560	21	5399
2026-01-16 09:39:44.11	350.86	15.76	-30.7	-34.5	12.2	2.24e-04	0	43	0	1116733440	21	5567
2026-01-16 09:39:47.12	350.65	15.45	-30.7	-34.6	12.1	2.20e-04	0	44	0	1121976320	21	5582
2026-01-16 09:39:50.13	350.43	15.15	-30.8	-34.7	12.0	3.23e-04	0	44	0	1128267776	21	5661
2026-01-16 09:39:53.15	350.23	14.84	-30.7	-34.5	12.1	2.42e-04	0	44	0	1133510656	21	5584
2026-01-16 09:39:56.14	350.03	14.55	-30.8	-34.8	11.9	3.16e-04	0	44	0	1138753536	21	5708
2026-01-16 09:39:59.15	349.83	14.25	-30.8	-34.9	11.9	3.65e-04	0	43	0	1145044992	21	5729
2026-01-16 09:40:02.15	349.63	13.96	-30.9	-35.2	11.5	6.24e-04	0	44	0	1150287872	21	5886
2026-01-16 09:40:05.16	349.44	13.67	-30.8	-34.8	11.8	4.84e-04	0	44	0	1156579328	21	5720
2026-01-16 09:40:08.17	349.26	13.38	-30.7	-34.6	11.9	3.41e-04	0	43	0	1161822208	21	5610
2026-01-16 09:40:11.16	349.08	13.10	-30.7	-34.5	12.0	2.91e-04	0	43	0	1167065088	21	5603
2026-01-16 09:40:14.16	348.90	12.82	-30.6	-34.3	12.1	2.68e-04	0	44	0	1173356544	21	5496
2026-01-16 09:40:17.16	348.72	12.55	-30.6	-34.2	12.1	3.22e-04	0	43	0	1178599424	21	5478
2026-01-16 09:40:20.18	348.55	12.27	-30.6	-34.2	12.0	3.02e-04	0	43	0	1183842304	21	5476
2026-01-16 09:40:23.19	348.38	12.00	-30.6	-34.4	12.0	3.25e-04	0	43	0	1190133760	21	5540
2026-01-16 09:40:26.19	348.22	11.73	-30.8	-35.1	11.4	9.65e-04	0	43	0	1195376640	21	5851
2026-01-16 09:40:29.20	348.05	11.47	-31.0	-35.2	11.0	1.01e-03	0	43	0	1201668096	22	5801
2026-01-16 09:40:32.21	347.90	11.20	-30.9	-34.9	11.2	2.14e-03	0	44	0	1206910976	22	5676
2026-01-16 09:40:35.20	347.74	10.94	-30.9	-34.8	11.2	1.20e-03	0	44	0	1212153856	22	5633
2026-01-16 09:40:38.21	347.59	10.68	-31.0	-35.1	11.0	1.60e-03	0	44	0	1218445312	22	5797
2026-01-16 09:40:41.22	347.44	10.43	-31.2	-35.7	10.5	4.13e-03	0	43	0	1223688192	22	6084
2026-01-16 09:40:44.23	347.29	10.17	-31.0	-35.2	10.9	2.31e-03	0	44	0	1228931072	22	5828
2026-01-16 09:40:47.23	347.15	9.92	-31.0	-35.4	10.7	7.03e-03	0	43	0	1235222528	22	5927
2026-01-16 09:40:50.24	347.00	9.67	-30.8	-34.6	11.2	1.30e-03	0	44	0	1240465408	22	5574
2026-01-16 09:40:53.25	346.87	9.43	-30.8	-34.7	11.2	1.58e-03	0	44	0	1246756864	22	5630
2026-01-16 09:40:56.26	346.73	9.18	-30.9	-35.1	10.9	1.53e-03	0	44	0	1251999744	22	5817
2026-01-16 09:40:59.26	346.59	8.94	-31.0	-35.1	10.9	2.32e-03	0	43	0	1257242624	22	5807
2026-01-16 09:41:02.26	346.46	8.70	-31.1	-35.8	10.3	4.62e-03	0	44	0	1263534080	22	6140
2026-01-16 09:41:05.27	346.33	8.46	-31.2	-36.0	10.1	6.38e-03	0	44	0	1268776960	22	6255
2026-01-16 09:41:08.28	346.21	8.23	-31.3	-36.6	9.7	1.11e-02	0	44	0	1274019840	22	6582
2026-01-16 09:41:11.27	346.08	8.00	-31.3	-36.6	9.6	8.97e-03	0	44	0	1280311296	22	6573
2026-01-16 09:41:14.28	345.96	7.76	-31.3	-36.7	9.5	1.07e-02	0	44	0	1285554176	22	6660
2026-01-16 09:41:17.29	345.84	7.53	-31.3	-36.6	9.5	2.34e-02	0	43	0	1291845632	22	6600
2026-01-16 09:41:20.28	345.72	7.31	-31.4	-37.0	9.1	2.34e-02	0	44	0	1297088512	22	6885
2026-01-16 09:41:23.30	345.60	7.08	-32.3	-40.2	6.4	2.47e-02	0	44	0	1302331392	24	9000
2026-01-16 09:41:26.28	345.49	6.86	-33.7	-48.1	3.8	1.49e+00	0	43	104	1302331392	27	18684

#Closed at: 2026-01-16 09:41:26
#Recorded file [1302 MB]: D:/data/31010_260116_122948.dat