passes_logs/2026/01/16/R2M6_AANII_01/R2M6_AANII_01__20260116_012417_AQUA_rec.log

#Pass ID: 20260116_012417_AQUA
#Satellite: AQUA
#Configuration: AQUA
#almurnet v.1.7.20240730
#Start time: 2026-01-16 01:28:43

#Version: 2.2.20231116
#Station: R2M6_AANII_01
#Location: 30.233357 lon 59.946436 lat
#TLE: 1 27424U 02022A   26015.51279194  .00000651  00000+0  14022-3 0  9990
#TLE: 2 27424  98.4082 341.9487 0002034  77.6776  33.2672 14.61821775260965

#Time	Az	El	Level	Level2	SNR	BER	BlckErr	Temp	State	Recorded	gain1	gain2
2026-01-16 01:28:43.78	68.90	45.87	-33.9	-48.5	3.8	1.49e+00	0	44	0	0	27	19149
2026-01-16 01:28:45.77	70.05	46.24	-34.7	-54.0	3.8	7.44e-01	0	44	104	0	30	33193
2026-01-16 01:28:47.77	71.24	46.61	-34.7	-53.9	3.8	7.46e-01	0	44	104	0	30	33017
2026-01-16 01:28:49.75	72.44	46.97	-34.7	-53.9	3.8	7.46e-01	0	43	104	0	30	32995
2026-01-16 01:28:51.75	73.68	47.31	-34.7	-53.9	3.8	7.44e-01	0	44	104	0	30	32943
2026-01-16 01:28:53.75	74.95	47.65	-34.6	-53.8	3.8	7.44e-01	0	44	104	0	30	32822
2026-01-16 01:28:55.73	76.23	47.97	-34.6	-53.8	3.8	7.46e-01	0	44	104	0	30	32794
2026-01-16 01:28:57.72	77.55	48.28	-34.6	-53.8	3.8	7.48e-01	0	44	104	0	30	32786
2026-01-16 01:28:59.70	78.89	48.57	-34.7	-53.9	3.8	7.48e-01	0	44	104	0	30	33055
2026-01-16 01:29:01.69	80.26	48.85	-34.6	-53.8	3.8	7.48e-01	0	44	104	0	30	32780
2026-01-16 01:29:03.69	81.66	49.12	-34.5	-54.0	3.8	7.43e-01	0	44	104	0	29	34289
2026-01-16 01:29:05.68	83.07	49.37	-34.3	-53.8	3.8	7.47e-01	0	44	104	0	29	33879
2026-01-16 01:29:07.68	84.52	49.60	-34.2	-53.6	3.8	7.46e-01	0	43	104	0	29	33403
2026-01-16 01:29:09.66	85.97	49.81	-34.2	-53.5	3.8	7.43e-01	0	44	104	0	29	33192
2026-01-16 01:29:11.66	87.46	50.00	-34.2	-53.4	3.8	7.44e-01	0	44	104	0	29	32847
2026-01-16 01:29:13.66	88.97	50.18	-34.2	-53.6	3.8	7.46e-01	0	44	104	0	29	33550
2026-01-16 01:29:15.63	90.47	50.33	-34.2	-53.6	3.8	7.47e-01	0	43	104	0	29	33459
2026-01-16 01:29:17.62	92.00	50.47	-34.2	-53.5	3.8	7.45e-01	0	44	104	0	29	33406
2026-01-16 01:29:19.61	93.54	50.58	-34.2	-53.5	3.8	7.47e-01	0	44	104	0	29	33270
2026-01-16 01:29:21.62	95.11	50.68	-34.2	-52.6	3.8	7.43e-01	0	44	104	0	29	30141
2026-01-16 01:29:23.61	96.67	50.75	-34.2	-52.8	3.8	7.45e-01	0	44	104	0	29	30688
2026-01-16 01:29:25.60	98.24	50.79	-34.2	-52.8	3.8	7.46e-01	0	44	104	0	29	30711
2026-01-16 01:29:27.59	99.81	50.82	-34.1	-50.0	4.0	7.39e-01	0	44	104	0	29	22387
2026-01-16 01:29:29.58	101.39	50.83	-34.1	-52.0	3.8	7.42e-01	0	44	104	0	29	28014
2026-01-16 01:29:31.58	102.97	50.81	-34.2	-53.3	3.8	7.47e-01	0	44	104	0	29	32716
2026-01-16 01:29:33.57	104.54	50.77	-34.1	-49.5	4.0	7.39e-01	0	44	104	0	29	21209
2026-01-16 01:29:35.55	106.10	50.71	-32.1	-36.3	15.4	6.04e-01	0	44	104	524288	26	5872
2026-01-16 01:29:37.55	107.67	50.62	-30.8	-34.4	18.3	6.04e-01	0	44	104	4194304	22	5452
2026-01-16 01:29:39.55	109.22	50.52	-32.0	-36.4	16.0	6.02e-01	0	44	104	7864320	25	5978
2026-01-16 01:29:41.56	110.77	50.39	-31.9	-36.1	16.1	6.05e-01	0	44	104	12058624	25	5878
2026-01-16 01:29:43.54	112.29	50.24	-31.0	-33.9	18.1	6.02e-01	0	44	104	15728640	24	5005
2026-01-16 01:29:45.52	113.79	50.08	-30.5	-32.9	18.9	6.03e-01	0	44	104	19398656	23	4779
2026-01-16 01:29:47.51	115.28	49.89	-30.3	-33.1	19.1	6.01e-01	0	44	104	23068672	22	4929
2026-01-16 01:29:49.49	116.74	49.69	-30.3	-32.8	19.3	6.02e-01	0	44	104	26738688	22	4837
2026-01-16 01:29:51.48	118.19	49.46	-30.8	-34.2	18.5	6.03e-01	0	44	104	30408704	22	5337
2026-01-16 01:29:53.47	119.62	49.22	-30.5	-33.6	18.9	5.98e-01	0	44	104	34078720	22	5104
2026-01-16 01:29:55.44	121.01	48.97	-30.3	-32.9	19.3	5.99e-01	0	44	104	37748736	22	4843
2026-01-16 01:29:57.43	122.40	48.69	-30.4	-33.2	19.1	5.99e-01	0	44	104	41418752	22	4969
2026-01-16 01:29:59.41	123.75	48.41	-30.2	-32.7	19.4	6.00e-01	0	44	104	45088768	22	4803
2026-01-16 01:30:01.40	125.08	48.10	-30.5	-33.6	18.8	6.01e-01	0	44	104	49283072	22	5097
2026-01-16 01:30:03.38	126.37	47.79	-30.6	-33.9	18.7	6.01e-01	0	44	104	52953088	22	5212
2026-01-16 01:30:05.36	127.65	47.46	-30.7	-34.1	18.5	6.01e-01	0	44	104	56623104	22	5301
2026-01-16 01:30:07.36	128.90	47.11	-30.6	-33.7	18.7	6.00e-01	0	44	104	60293120	22	5136
2026-01-16 01:30:09.35	130.12	46.76	-30.6	-33.7	18.7	6.01e-01	0	44	104	63963136	22	5155
2026-01-16 01:30:11.35	131.33	46.40	-30.6	-33.8	18.6	6.04e-01	0	44	104	67633152	22	5207
2026-01-16 01:30:13.34	132.49	46.02	-30.8	-34.4	18.2	5.99e-01	0	44	104	71303168	22	5462
2026-01-16 01:30:15.34	133.64	45.64	-30.3	-33.1	19.1	6.01e-01	0	44	104	74973184	22	4970
2026-01-16 01:30:17.33	134.75	45.25	-30.1	-32.9	19.5	6.00e-01	0	44	104	79167488	21	4987
2026-01-16 01:30:19.33	135.84	44.85	-30.2	-33.3	19.3	6.01e-01	0	44	104	82837504	21	5136
2026-01-16 01:30:21.32	136.90	44.45	-30.0	-33.3	19.6	6.01e-01	0	44	104	86507520	20	5236
2026-01-16 01:30:23.32	137.93	44.04	-30.1	-32.9	19.4	6.01e-01	0	44	104	90177536	21	4976
2026-01-16 01:30:25.31	138.94	43.62	-30.2	-33.3	19.2	6.01e-01	0	44	104	93847552	21	5134
2026-01-16 01:30:27.31	139.92	43.20	-29.9	-33.1	19.7	6.03e-01	0	44	104	97517568	20	5162
2026-01-16 01:30:29.31	140.88	42.78	-30.3	-33.4	19.1	6.01e-01	0	44	104	101187584	21	5182
2026-01-16 01:30:31.30	141.80	42.35	-30.0	-32.6	19.7	6.04e-01	0	44	104	105381888	21	4881
2026-01-16 01:30:33.28	142.70	41.92	-30.3	-33.7	19.0	6.00e-01	0	44	104	109051904	21	5275
2026-01-16 01:30:35.28	143.59	41.49	-30.1	-33.1	19.3	6.00e-01	0	44	104	112721920	21	5079
2026-01-16 01:30:37.28	144.45	41.06	-30.2	-33.2	19.2	6.04e-01	0	44	104	116391936	21	5088
2026-01-16 01:30:39.28	145.28	40.62	-30.3	-33.4	19.1	6.02e-01	0	44	104	120061952	21	5180
2026-01-16 01:30:41.29	146.10	40.18	-30.2	-33.3	19.2	6.00e-01	0	44	104	123731968	21	5122
2026-01-16 01:30:43.30	146.90	39.74	-30.3	-33.5	19.0	6.01e-01	0	44	104	127401984	21	5218
2026-01-16 01:30:45.29	147.67	39.31	-30.4	-33.8	18.9	6.02e-01	0	44	104	131596288	21	5302
2026-01-16 01:30:47.28	148.41	38.87	-30.3	-33.4	19.1	5.99e-01	0	44	104	135266304	21	5168
2026-01-16 01:30:49.28	149.15	38.43	-30.2	-33.3	19.2	5.98e-01	0	44	104	138936320	21	5126
2026-01-16 01:30:51.28	149.86	38.00	-29.7	-32.5	19.9	6.02e-01	0	44	104	142606336	20	4959
2026-01-16 01:30:53.28	150.55	37.56	-30.1	-33.5	19.3	6.03e-01	0	44	104	146276352	20	5327
2026-01-16 01:30:55.28	151.23	37.13	-30.2	-33.2	19.2	6.02e-01	0	44	104	149946368	21	5096
2026-01-16 01:30:57.28	151.88	36.70	-29.8	-32.2	19.8	5.99e-01	0	44	104	153616384	21	4750
2026-01-16 01:30:59.28	152.52	36.27	-29.8	-32.6	19.8	6.00e-01	0	44	104	157810688	20	5006
2026-01-16 01:31:01.28	153.14	35.85	-29.7	-32.5	19.9	6.01e-01	0	44	104	161480704	20	4970
2026-01-16 01:31:03.29	153.75	35.42	-29.6	-32.4	20.0	6.02e-01	0	44	104	165150720	20	4921
2026-01-16 01:31:05.29	154.35	35.00	-29.4	-31.7	20.3	6.02e-01	0	44	104	168820736	20	4699
2026-01-16 01:31:07.29	154.92	34.58	-29.4	-32.2	20.4	6.03e-01	0	44	104	172490752	19	4967
2026-01-16 01:31:09.28	155.48	34.17	-29.3	-32.0	20.5	6.03e-01	0	44	104	176160768	19	4896
2026-01-16 01:31:11.28	156.03	33.75	-29.2	-31.8	20.6	6.03e-01	0	44	104	180355072	19	4830
2026-01-16 01:31:13.29	156.56	33.34	-29.0	-31.6	20.5	6.05e-01	0	44	104	184025088	18	4868
2026-01-16 01:31:15.30	157.09	32.93	-29.0	-31.6	21.0	6.02e-01	0	44	104	187695104	18	4879
2026-01-16 01:31:17.29	157.59	32.53	-28.9	-31.5	19.7	6.02e-01	0	44	104	191365120	18	4848
2026-01-16 01:31:19.29	158.09	32.13	-29.0	-31.8	19.2	6.02e-01	0	44	104	195035136	18	4951
2026-01-16 01:31:21.30	158.57	31.73	-29.0	-31.7	20.9	6.01e-01	0	44	104	198705152	18	4946
2026-01-16 01:31:23.30	159.04	31.34	-28.9	-31.6	20.8	6.02e-01	0	44	104	202375168	18	4912
2026-01-16 01:31:25.31	159.50	30.95	-29.0	-31.7	20.9	5.99e-01	0	44	104	206569472	18	4936
2026-01-16 01:31:27.30	159.95	30.57	-29.4	-31.9	20.2	6.00e-01	0	44	104	210239488	20	4761
2026-01-16 01:31:29.30	160.39	30.18	-29.0	-31.9	20.8	6.00e-01	0	44	104	213909504	18	5000
2026-01-16 01:31:31.30	160.81	29.81	-29.2	-31.7	20.6	6.03e-01	0	44	104	217579520	19	4821
2026-01-16 01:31:33.30	161.23	29.43	-29.4	-32.4	20.1	5.99e-01	0	44	104	221249536	19	5071
2026-01-16 01:31:35.30	161.64	29.06	-29.3	-32.0	20.4	6.01e-01	0	44	104	224919552	19	4914
2026-01-16 01:31:37.31	162.04	28.69	-29.3	-32.1	20.3	5.98e-01	0	44	104	229113856	19	4948
2026-01-16 01:31:39.31	162.43	28.33	-29.4	-32.2	20.3	6.00e-01	0	44	104	232783872	19	4982
2026-01-16 01:31:41.31	162.81	27.97	-29.5	-32.1	19.9	6.02e-01	0	44	104	236453888	20	4841
2026-01-16 01:31:43.32	163.18	27.61	-29.4	-32.3	20.2	6.01e-01	0	44	104	240123904	19	5027
2026-01-16 01:31:45.31	163.55	27.26	-29.4	-32.3	20.1	6.01e-01	0	44	104	243793920	19	5049
2026-01-16 01:31:47.31	163.90	26.91	-29.3	-32.1	20.2	6.01e-01	0	44	104	247463936	19	4973
2026-01-16 01:31:49.32	164.25	26.57	-29.4	-32.4	20.1	6.03e-01	0	44	104	251133952	19	5092
2026-01-16 01:31:51.33	164.59	26.23	-29.5	-32.2	19.8	6.01e-01	0	44	104	255328256	20	4926
2026-01-16 01:31:53.33	164.93	25.89	-29.4	-32.4	20.1	5.99e-01	0	44	104	258998272	19	5076
2026-01-16 01:31:55.33	165.25	25.55	-29.4	-32.3	20.1	6.04e-01	0	44	104	262668288	19	5034
2026-01-16 01:31:57.33	165.57	25.22	-29.4	-32.5	20.1	6.04e-01	0	44	104	266338304	19	5113
2026-01-16 01:31:59.33	165.89	24.90	-29.7	-32.6	19.5	6.00e-01	0	43	104	270008320	20	5068
2026-01-16 01:32:01.32	166.19	24.58	-29.6	-32.5	19.6	6.01e-01	0	44	104	273678336	20	5006
2026-01-16 01:32:03.32	166.49	24.26	-29.6	-32.4	19.7	6.01e-01	0	44	104	277872640	20	4956
2026-01-16 01:32:05.33	166.79	23.94	-29.9	-33.2	19.1	6.00e-01	0	44	104	281542656	20	5255
2026-01-16 01:32:07.32	167.07	23.63	-30.0	-33.4	19.0	6.00e-01	0	44	104	285212672	20	5330
2026-01-16 01:32:09.33	167.36	23.32	-29.7	-32.5	19.6	6.02e-01	0	44	104	288882688	20	5014
2026-01-16 01:32:11.32	167.63	23.01	-29.7	-32.5	19.6	6.03e-01	0	44	104	292552704	20	5000
2026-01-16 01:32:13.32	167.90	22.71	-29.8	-32.9	19.3	6.01e-01	0	44	104	296222720	20	5147
2026-01-16 01:32:15.32	168.17	22.41	-29.5	-32.2	19.8	6.01e-01	0	43	104	299892736	20	4885
2026-01-16 01:32:17.32	168.43	22.11	-29.5	-32.6	19.9	6.00e-01	0	44	104	304087040	19	5143
2026-01-16 01:32:19.33	168.69	21.82	-28.6	-31.5	19.6	6.01e-01	0	44	104	307757056	20	5041
2026-01-16 01:32:21.32	168.94	21.53	-29.6	-32.4	19.6	6.01e-01	0	44	104	311427072	20	4969
2026-01-16 01:32:23.33	169.18	21.24	-29.7	-32.7	19.5	6.03e-01	0	44	104	315097088	20	5067
2026-01-16 01:32:25.32	169.42	20.96	-30.0	-33.4	18.9	6.02e-01	0	43	104	318767104	20	5346
2026-01-16 01:32:27.32	169.66	20.68	-28.3	-31.9	19.0	6.00e-01	0	44	104	322437120	19	5447
2026-01-16 01:32:29.33	169.90	20.40	-29.6	-32.5	19.5	6.01e-01	0	44	104	326631424	20	4994
2026-01-16 01:32:31.32	170.12	20.12	-29.6	-32.8	19.3	6.01e-01	0	44	104	330301440	19	5240
2026-01-16 01:32:33.32	170.35	19.85	-29.8	-32.9	18.9	6.01e-01	0	44	104	333971456	20	5137
2026-01-16 01:32:35.32	170.57	19.58	-29.6	-32.3	19.6	6.02e-01	0	44	104	337641472	20	4951
2026-01-16 01:32:37.31	170.78	19.32	-29.8	-33.0	19.0	6.02e-01	0	44	104	341311488	20	5195
2026-01-16 01:32:39.32	171.00	19.05	-30.1	-33.3	18.7	6.01e-01	0	44	104	344981504	21	5217
2026-01-16 01:32:41.32	171.21	18.79	-30.2	-33.5	18.6	6.00e-01	0	44	104	348651520	21	5266
2026-01-16 01:32:43.33	171.41	18.53	-30.1	-33.3	18.6	6.03e-01	0	44	104	352845824	21	5194
2026-01-16 01:32:45.34	171.62	18.27	-30.2	-33.5	18.6	6.03e-01	0	44	104	356515840	21	5268
2026-01-16 01:32:47.33	171.82	18.02	-29.8	-33.0	19.1	6.02e-01	0	44	104	360185856	20	5200
2026-01-16 01:32:49.34	172.01	17.77	-29.6	-32.9	19.6	6.02e-01	0	44	104	363855872	19	5255
2026-01-16 01:32:51.34	172.20	17.52	-29.8	-33.1	19.0	6.00e-01	0	44	104	367525888	20	5237
2026-01-16 01:32:53.35	172.39	17.27	-29.5	-32.8	19.6	6.02e-01	0	44	104	371720192	19	5237
2026-01-16 01:32:55.35	172.58	17.03	-29.5	-32.4	19.4	6.01e-01	0	44	104	375390208	20	5012
2026-01-16 01:32:57.35	172.76	16.79	-29.5	-32.9	19.4	6.01e-01	0	44	104	379060224	19	5313
2026-01-16 01:32:59.36	172.94	16.55	-29.8	-33.2	18.9	6.00e-01	0	44	104	382730240	20	5325
2026-01-16 01:33:01.36	173.12	16.31	-29.8	-33.2	18.9	6.00e-01	0	44	104	386400256	20	5301
2026-01-16 01:33:03.36	173.29	16.08	-29.8	-33.1	18.9	6.00e-01	0	44	104	390070272	20	5274
2026-01-16 01:33:05.36	173.47	15.85	-29.8	-33.2	18.8	5.98e-01	0	44	104	393740288	20	5340
2026-01-16 01:33:07.36	173.63	15.62	-30.1	-33.5	18.3	6.01e-01	0	44	104	397934592	21	5325
2026-01-16 01:33:09.36	173.80	15.39	-29.5	-32.5	19.3	6.02e-01	0	44	104	401604608	20	5056
2026-01-16 01:33:11.36	173.96	15.17	-29.6	-32.8	19.1	5.99e-01	0	44	104	405274624	20	5164
2026-01-16 01:33:13.37	174.13	14.94	-29.5	-32.5	19.3	5.98e-01	0	44	104	408944640	20	5068
2026-01-16 01:33:15.38	174.29	14.72	-29.6	-32.6	19.2	6.04e-01	0	44	104	412614656	20	5102
2026-01-16 01:33:17.37	174.44	14.50	-29.6	-32.6	19.2	6.04e-01	0	44	104	416284672	20	5100
2026-01-16 01:33:19.37	174.60	14.28	-29.6	-32.6	19.2	6.04e-01	0	44	104	420478976	20	5100
2026-01-16 01:33:21.37	174.75	14.07	-29.4	-32.1	19.5	6.01e-01	0	44	104	424148992	20	4904
2026-01-16 01:33:23.38	174.90	13.85	-29.6	-32.5	19.2	6.02e-01	0	44	104	427819008	20	5060
2026-01-16 01:33:25.37	175.04	13.64	-29.5	-32.4	19.3	6.01e-01	0	43	104	431489024	20	5016
2026-01-16 01:33:27.36	175.19	13.43	-29.6	-32.6	19.2	6.01e-01	0	44	104	435159040	20	5084
2026-01-16 01:33:29.37	175.33	13.23	-29.9	-33.5	18.6	6.01e-01	0	44	104	438829056	20	5421
2026-01-16 01:33:31.38	175.47	13.02	-29.5	-32.5	19.2	6.02e-01	0	44	104	442499072	20	5039
2026-01-16 01:33:33.37	175.61	12.82	-29.5	-32.3	19.3	6.01e-01	0	44	104	446693376	20	4960
2026-01-16 01:33:35.37	175.75	12.61	-29.6	-32.6	19.2	5.99e-01	0	44	104	450363392	20	5069
2026-01-16 01:33:37.36	175.88	12.41	-29.5	-32.4	19.2	6.03e-01	0	44	104	454033408	20	5023
2026-01-16 01:33:39.37	176.02	12.21	-28.0	-31.1	19.1	5.98e-01	0	44	104	457703424	19	5156
2026-01-16 01:33:41.36	176.15	12.02	-29.6	-32.7	18.9	6.03e-01	0	44	104	461373440	20	5123
2026-01-16 01:33:43.37	176.28	11.82	-29.8	-33.1	17.4	6.03e-01	0	44	104	465043456	20	5290
2026-01-16 01:33:45.37	176.41	11.63	-29.9	-33.4	17.2	6.00e-01	0	44	104	468713472	20	5392
2026-01-16 01:33:47.37	176.53	11.44	-29.7	-33.0	18.7	6.00e-01	0	44	104	472907776	20	5245
2026-01-16 01:33:49.37	176.66	11.24	-29.6	-32.7	18.9	6.00e-01	0	44	104	476577792	20	5108
2026-01-16 01:33:51.37	176.78	11.05	-29.6	-32.6	18.9	6.00e-01	0	44	104	480247808	20	5105
2026-01-16 01:33:53.37	176.90	10.87	-29.7	-32.9	18.7	6.03e-01	0	44	104	483917824	20	5216
2026-01-16 01:33:55.38	177.02	10.68	-29.6	-32.7	18.9	6.02e-01	0	44	104	487587840	20	5127
2026-01-16 01:33:57.38	177.14	10.49	-29.6	-32.7	18.9	6.02e-01	0	44	104	491782144	20	5149
2026-01-16 01:33:59.38	177.26	10.31	-29.8	-33.3	18.4	6.02e-01	0	44	104	495452160	20	5374
2026-01-16 01:34:01.38	177.38	10.13	-29.7	-33.0	18.6	5.99e-01	0	44	104	499122176	20	5255
2026-01-16 01:34:03.39	177.49	9.95	-29.7	-32.9	18.7	6.00e-01	0	44	104	502792192	20	5227
2026-01-16 01:34:05.39	177.60	9.77	-29.7	-32.9	18.7	6.01e-01	0	44	104	506462208	20	5237
2026-01-16 01:34:07.40	177.71	9.59	-29.7	-33.1	18.6	6.01e-01	0	43	104	510132224	20	5286
2026-01-16 01:34:09.40	177.82	9.41	-29.8	-33.3	18.4	6.01e-01	0	44	104	514326528	20	5364
2026-01-16 01:34:11.40	177.93	9.24	-29.8	-33.3	18.3	6.01e-01	0	44	104	517996544	20	5403
2026-01-16 01:34:13.40	178.04	9.06	-29.9	-33.6	18.1	6.01e-01	0	44	104	521666560	20	5524
2026-01-16 01:34:15.41	178.15	8.89	-29.7	-33.0	18.5	5.99e-01	0	44	104	525336576	20	5275
2026-01-16 01:34:17.41	178.25	8.72	-29.8	-33.2	18.4	6.02e-01	0	44	104	529006592	20	5371
2026-01-16 01:34:19.42	178.35	8.55	-30.0	-33.8	18.0	6.00e-01	0	44	104	532676608	20	5620
2026-01-16 01:34:21.41	178.46	8.38	-30.0	-33.9	17.9	6.03e-01	0	44	104	536346624	20	5641
2026-01-16 01:34:23.42	178.56	8.21	-30.1	-34.2	17.7	5.99e-01	0	44	104	540540928	20	5773
2026-01-16 01:34:25.43	178.66	8.04	-29.9	-33.6	18.1	5.99e-01	0	44	104	544210944	20	5538
2026-01-16 01:34:27.43	178.76	7.88	-29.9	-33.8	18.0	6.01e-01	0	44	104	547880960	20	5607
2026-01-16 01:34:29.44	178.85	7.71	-29.8	-33.3	18.2	6.02e-01	0	44	104	551550976	20	5388
2026-01-16 01:34:31.45	178.95	7.55	-30.2	-33.9	17.5	6.04e-01	0	44	104	555220992	21	5556
2026-01-16 01:34:33.46	179.05	7.39	-30.5	-35.0	16.8	6.00e-01	0	44	104	559415296	21	6027
2026-01-16 01:34:35.47	179.14	7.23	-30.3	-34.7	17.1	6.03e-01	0	44	104	563085312	20	6001
2026-01-16 01:34:37.48	179.24	7.06	-33.1	-50.5	3.5	7.40e-01	0	44	104	566755328	27	26542

#Closed at: 2026-01-16 01:34:39
#Recorded file [566 MB]: D:/data/31010_260116_042935.dat