passes_logs/2026/01/16/R2M6_AANII_01/R2M6_AANII_01__20260116_030154_AQUA_rec.log

#Pass ID: 20260116_030154_AQUA
#Satellite: AQUA
#Configuration: AQUA
#almurnet v.1.7.20240730
#Start time: 2026-01-16 03:06:13

#Version: 2.2.20231116
#Station: R2M6_AANII_01
#Location: 30.233357 lon 59.946436 lat
#TLE: 1 27424U 02022A   26015.51279194  .00000651  00000+0  14022-3 0  9990
#TLE: 2 27424  98.4082 341.9487 0002034  77.6776  33.2672 14.61821775260965

#Time	Az	El	Level	Level2	SNR	BER	BlckErr	Temp	State	Recorded	gain1	gain2
2026-01-16 03:06:13.23	319.96	35.23	-33.8	-48.1	3.8	1.49e+00	0	44	0	0	27	18773
2026-01-16 03:06:15.22	319.05	35.39	-34.7	-53.4	3.8	7.46e-01	0	44	104	0	31	30874
2026-01-16 03:06:17.20	318.13	35.54	-34.8	-53.5	3.8	7.43e-01	0	44	104	0	31	31263
2026-01-16 03:06:19.20	317.20	35.69	-34.7	-53.5	3.8	7.49e-01	0	44	104	0	31	31253
2026-01-16 03:06:21.18	316.26	35.82	-34.6	-53.0	3.8	7.46e-01	0	44	104	0	31	29751
2026-01-16 03:06:23.17	315.31	35.95	-34.5	-53.5	3.8	7.43e-01	0	44	104	0	30	32078
2026-01-16 03:06:25.15	314.36	36.07	-34.6	-53.7	3.8	7.47e-01	0	44	104	0	30	32630
2026-01-16 03:06:27.15	313.40	36.19	-34.7	-53.9	3.8	7.44e-01	0	44	104	0	30	32965
2026-01-16 03:06:29.14	312.43	36.29	-34.6	-53.4	3.8	7.44e-01	0	44	104	0	30	31595
2026-01-16 03:06:31.15	311.44	36.39	-34.6	-53.9	3.8	7.49e-01	0	44	104	0	30	32973
2026-01-16 03:06:33.13	310.47	36.47	-34.7	-53.9	3.8	7.43e-01	0	44	104	0	30	32814
2026-01-16 03:06:35.12	309.48	36.55	-34.6	-53.8	3.8	7.42e-01	0	44	104	0	30	32756
2026-01-16 03:06:37.11	308.49	36.62	-34.6	-53.6	3.8	7.46e-01	0	44	104	0	30	32008
2026-01-16 03:06:39.10	307.50	36.67	-34.6	-53.7	3.8	7.48e-01	0	44	104	0	30	32456
2026-01-16 03:06:41.08	306.50	36.72	-34.6	-53.7	3.8	7.45e-01	0	44	104	0	30	32485
2026-01-16 03:06:43.07	305.50	36.76	-34.5	-53.4	3.8	7.48e-01	0	44	104	0	30	31516
2026-01-16 03:06:45.06	304.50	36.79	-34.5	-53.4	3.8	7.44e-01	0	44	104	0	30	31549
2026-01-16 03:06:47.05	303.50	36.81	-34.5	-53.4	3.8	7.48e-01	0	44	104	0	30	31486
2026-01-16 03:06:49.05	302.49	36.82	-34.5	-53.0	3.8	7.40e-01	0	44	104	0	30	30321
2026-01-16 03:06:51.04	301.48	36.82	-34.5	-53.3	3.8	7.45e-01	0	44	104	0	30	31240
2026-01-16 03:06:53.03	300.48	36.81	-34.5	-52.8	3.8	7.46e-01	0	44	104	0	30	29438
2026-01-16 03:06:55.02	299.47	36.79	-34.5	-53.2	3.8	7.49e-01	0	44	104	0	30	31019
2026-01-16 03:06:57.00	298.47	36.76	-34.5	-53.3	3.8	7.45e-01	0	44	104	0	30	31322
2026-01-16 03:06:58.99	297.47	36.72	-34.5	-51.2	3.9	7.43e-01	0	44	104	0	30	24585
2026-01-16 03:07:00.99	296.47	36.67	-34.5	-52.2	3.8	7.44e-01	0	44	104	0	30	27727
2026-01-16 03:07:02.99	295.47	36.61	-34.5	-53.1	3.8	7.45e-01	0	44	104	0	30	30596
2026-01-16 03:07:04.98	294.48	36.54	-34.4	-49.8	4.0	7.39e-01	0	44	104	0	30	21033
2026-01-16 03:07:06.97	293.50	36.46	-32.9	-38.7	5.0	7.10e-01	0	44	104	0	28	7032
2026-01-16 03:07:08.96	292.51	36.37	-31.1	-34.5	18.3	6.03e-01	0	44	0	1572864	23	5309
2026-01-16 03:07:10.93	291.55	36.28	-31.0	-34.3	18.3	6.05e-01	0	44	0	5767168	23	5213
2026-01-16 03:07:12.91	290.58	36.17	-30.9	-33.9	18.3	6.03e-01	0	44	0	9437184	23	5089
2026-01-16 03:07:14.91	289.62	36.06	-31.4	-35.4	17.7	6.03e-01	0	44	0	13107200	23	5691
2026-01-16 03:07:16.89	288.67	35.94	-30.7	-33.2	18.7	6.07e-01	0	44	0	16777216	23	4834
2026-01-16 03:07:18.88	287.72	35.81	-30.6	-33.6	19.1	6.04e-01	0	44	0	20447232	22	5072
2026-01-16 03:07:20.87	286.78	35.67	-30.2	-32.6	19.7	6.03e-01	0	44	0	24117248	22	4731
2026-01-16 03:07:22.87	285.84	35.52	-29.8	-32.1	20.2	6.04e-01	0	44	0	27787264	21	4674
2026-01-16 03:07:24.85	284.92	35.37	-29.7	-31.7	20.4	6.05e-01	0	44	0	31457280	21	4556
2026-01-16 03:07:26.84	284.01	35.21	-29.8	-31.9	20.3	6.04e-01	0	44	0	35127296	21	4626
2026-01-16 03:07:28.83	283.10	35.04	-30.2	-33.2	19.5	6.02e-01	0	44	0	39321600	21	5068
2026-01-16 03:07:30.82	282.21	34.86	-29.9	-32.3	20.0	6.04e-01	0	44	0	42991616	21	4741
2026-01-16 03:07:32.81	281.32	34.68	-29.6	-31.6	20.5	6.03e-01	0	44	0	46661632	21	4513
2026-01-16 03:07:34.81	280.45	34.49	-29.6	-31.6	20.5	6.05e-01	0	44	0	50331648	21	4515
2026-01-16 03:07:36.82	279.57	34.30	-29.5	-31.2	20.7	6.05e-01	0	44	0	54001664	21	4404
2026-01-16 03:07:38.83	278.71	34.09	-29.4	-31.6	20.8	6.06e-01	0	44	0	57671680	20	4630
2026-01-16 03:07:40.83	277.86	33.89	-29.8	-31.9	20.2	6.05e-01	0	44	0	61865984	21	4629
2026-01-16 03:07:42.83	277.03	33.67	-29.5	-31.8	20.5	6.03e-01	0	44	0	65536000	20	4698
2026-01-16 03:07:44.83	276.21	33.46	-29.8	-32.6	20.1	6.01e-01	0	44	0	69206016	20	4965
2026-01-16 03:07:46.84	275.39	33.23	-29.5	-31.4	20.6	6.03e-01	0	44	0	72876032	21	4457
2026-01-16 03:07:48.85	274.58	33.01	-29.6	-31.5	20.4	6.06e-01	0	44	0	76546048	21	4482
2026-01-16 03:07:50.85	273.79	32.77	-29.7	-31.9	20.2	5.99e-01	0	44	0	80216064	21	4626
2026-01-16 03:07:52.85	273.02	32.54	-29.6	-31.7	20.2	6.04e-01	0	44	0	83886080	21	4559
2026-01-16 03:07:54.86	272.25	32.30	-30.2	-33.2	19.4	6.03e-01	0	44	0	88080384	21	5085
2026-01-16 03:07:56.87	271.49	32.06	-30.2	-33.3	19.3	6.04e-01	0	44	0	91750400	21	5112
2026-01-16 03:07:58.87	270.74	31.81	-29.3	-31.4	20.8	6.03e-01	0	44	0	95420416	20	4573
2026-01-16 03:08:00.87	270.01	31.56	-29.7	-31.9	19.8	6.01e-01	0	44	0	99090432	21	4642
2026-01-16 03:08:02.87	269.29	31.31	-30.4	-33.8	19.0	6.04e-01	0	44	0	102760448	21	5304
2026-01-16 03:08:04.87	268.58	31.06	-29.1	-30.8	21.1	6.02e-01	0	44	0	106430464	20	4382
2026-01-16 03:08:06.87	267.89	30.80	-29.9	-33.0	19.7	6.05e-01	0	44	0	110100480	20	5146
2026-01-16 03:08:08.87	267.20	30.54	-29.4	-31.6	20.6	6.03e-01	0	44	0	114294784	20	4631
2026-01-16 03:08:10.87	266.53	30.28	-29.6	-32.2	20.1	6.06e-01	0	44	0	117964800	20	4844
2026-01-16 03:08:12.87	265.86	30.02	-30.5	-34.0	18.8	6.06e-01	0	44	0	121634816	21	5380
2026-01-16 03:08:14.87	265.21	29.75	-29.6	-31.5	20.3	6.03e-01	0	44	0	125304832	21	4498
2026-01-16 03:08:16.87	264.57	29.49	-29.8	-32.5	20.1	6.04e-01	0	44	0	128974848	20	4951
2026-01-16 03:08:18.87	263.94	29.22	-29.8	-32.1	19.8	6.04e-01	0	44	0	132644864	21	4701
2026-01-16 03:08:20.87	263.32	28.96	-29.5	-31.9	20.4	6.04e-01	0	44	0	136839168	20	4738
2026-01-16 03:08:22.87	262.71	28.69	-30.0	-33.0	19.8	6.03e-01	0	44	0	140509184	20	5140
2026-01-16 03:08:24.88	262.11	28.42	-30.0	-33.2	18.4	6.02e-01	0	44	0	144179200	20	5206
2026-01-16 03:08:26.89	261.52	28.15	-29.6	-32.1	20.0	6.03e-01	0	44	0	147849216	20	4807
2026-01-16 03:08:28.90	260.94	27.88	-30.0	-33.3	19.6	6.07e-01	0	44	0	151519232	20	5223
2026-01-16 03:08:30.90	260.37	27.61	-29.6	-32.1	20.2	6.04e-01	0	44	0	155713536	20	4815
2026-01-16 03:08:32.90	259.82	27.34	-29.8	-32.8	19.9	6.04e-01	0	43	0	159383552	20	5037
2026-01-16 03:08:34.90	259.27	27.07	-29.9	-32.9	19.8	6.02e-01	0	44	0	163053568	20	5105
2026-01-16 03:08:36.90	258.73	26.80	-29.8	-32.7	19.9	6.02e-01	0	44	0	166723584	20	5032
2026-01-16 03:08:38.91	258.20	26.52	-29.6	-32.3	20.1	6.06e-01	0	44	0	170393600	20	4877
2026-01-16 03:08:40.91	257.68	26.26	-29.8	-32.6	19.9	6.04e-01	0	44	0	174063616	20	4998
2026-01-16 03:08:42.91	257.17	25.99	-29.6	-32.1	20.2	6.04e-01	0	44	0	177733632	20	4830
2026-01-16 03:08:44.90	256.67	25.72	-29.5	-32.0	20.2	5.99e-01	0	44	0	181927936	20	4796
2026-01-16 03:08:46.91	256.18	25.45	-29.8	-32.8	19.8	6.07e-01	0	44	0	185597952	20	5060
2026-01-16 03:08:48.91	255.69	25.18	-29.8	-32.6	19.9	6.04e-01	0	44	0	189267968	20	4995
2026-01-16 03:08:50.92	255.21	24.91	-29.7	-32.5	19.9	6.03e-01	0	44	0	192937984	20	4970
2026-01-16 03:08:52.93	254.75	24.65	-29.8	-32.8	19.8	6.03e-01	0	44	0	196608000	20	5061
2026-01-16 03:08:54.93	254.29	24.38	-30.0	-33.1	19.5	6.02e-01	0	44	0	200802304	20	5195
2026-01-16 03:08:56.94	253.83	24.12	-29.9	-33.1	19.5	6.05e-01	0	44	0	204472320	20	5163
2026-01-16 03:08:58.95	253.39	23.85	-29.9	-33.1	19.5	6.08e-01	0	44	0	208142336	20	5184
2026-01-16 03:09:00.96	252.95	23.59	-30.0	-33.2	19.4	6.04e-01	0	44	0	211812352	20	5214
2026-01-16 03:09:02.97	252.52	23.33	-29.7	-32.5	19.8	6.04e-01	0	44	0	215482368	20	4961
2026-01-16 03:09:04.98	252.10	23.07	-29.8	-32.7	19.7	6.05e-01	0	43	0	219152384	20	5044
2026-01-16 03:09:06.98	251.69	22.81	-29.8	-32.7	19.7	6.05e-01	0	44	0	223346688	20	5053
2026-01-16 03:09:08.99	251.28	22.55	-29.7	-32.6	19.8	6.05e-01	0	44	0	227016704	20	4985
2026-01-16 03:09:11.00	250.88	22.30	-29.9	-32.9	19.6	6.01e-01	0	44	0	230686720	20	5106
2026-01-16 03:09:13.00	250.49	22.04	-30.0	-32.8	19.4	6.04e-01	0	44	0	234356736	21	4951
2026-01-16 03:09:14.99	250.11	21.79	-29.8	-32.3	19.6	6.04e-01	0	44	0	238026752	21	4786
2026-01-16 03:09:17.00	249.73	21.54	-29.7	-31.9	19.9	6.03e-01	0	44	0	241696768	21	4646
2026-01-16 03:09:19.00	249.35	21.29	-29.5	-32.1	20.0	6.03e-01	0	44	0	245891072	20	4844
2026-01-16 03:09:21.01	248.99	21.04	-29.9	-33.0	19.5	6.03e-01	0	44	0	249561088	20	5138
2026-01-16 03:09:23.02	248.63	20.79	-30.0	-33.2	19.4	6.04e-01	0	44	0	253231104	20	5234
2026-01-16 03:09:25.02	248.27	20.55	-29.7	-32.6	19.7	6.03e-01	0	44	0	256901120	20	5003
2026-01-16 03:09:27.02	247.93	20.30	-29.7	-32.6	19.7	6.04e-01	0	44	0	260571136	20	5000
2026-01-16 03:09:29.02	247.58	20.06	-29.9	-33.1	19.4	6.04e-01	0	44	0	264241152	20	5184
2026-01-16 03:09:31.02	247.25	19.82	-30.0	-32.9	19.2	6.02e-01	0	44	0	267911168	21	5015
2026-01-16 03:09:33.02	246.92	19.58	-29.7	-32.6	19.7	6.05e-01	0	44	0	272105472	20	5010
2026-01-16 03:09:35.03	246.59	19.34	-29.9	-33.1	19.3	6.02e-01	0	44	0	275775488	20	5208
2026-01-16 03:09:37.04	246.27	19.11	-29.7	-32.6	19.6	6.03e-01	0	44	0	279445504	20	5000
2026-01-16 03:09:39.03	245.96	18.87	-29.6	-32.2	19.8	6.05e-01	0	44	0	283115520	20	4892
2026-01-16 03:09:41.04	245.65	18.64	-29.5	-32.1	19.9	6.02e-01	0	44	0	286785536	20	4842
2026-01-16 03:09:43.04	245.34	18.41	-29.6	-32.4	19.7	6.01e-01	0	44	0	290979840	20	4952
2026-01-16 03:09:45.04	245.04	18.18	-29.5	-32.1	19.9	6.01e-01	0	44	0	294649856	20	4863
2026-01-16 03:09:47.05	244.75	17.95	-29.6	-32.4	19.7	6.08e-01	0	44	0	298319872	20	4966
2026-01-16 03:09:49.05	244.46	17.72	-29.7	-32.6	19.6	6.04e-01	0	44	0	301989888	20	5011
2026-01-16 03:09:51.06	244.17	17.50	-29.8	-33.0	19.3	6.03e-01	0	44	0	305659904	20	5162
2026-01-16 03:09:53.06	243.89	17.27	-29.8	-33.0	19.3	6.03e-01	0	44	0	309329920	20	5165
2026-01-16 03:09:55.06	243.62	17.05	-30.0	-33.4	19.0	6.00e-01	0	44	0	312999936	20	5342
2026-01-16 03:09:57.05	243.35	16.83	-30.1	-33.1	18.8	6.06e-01	0	44	0	317194240	21	5119
2026-01-16 03:09:59.06	243.08	16.61	-30.2	-33.4	18.6	6.04e-01	0	44	0	320864256	21	5220
2026-01-16 03:10:01.06	242.81	16.39	-30.1	-33.1	18.8	6.05e-01	0	44	0	324534272	21	5113
2026-01-16 03:10:03.06	242.55	16.18	-29.9	-33.3	19.1	6.04e-01	0	44	0	328204288	20	5280
2026-01-16 03:10:05.07	242.30	15.96	-29.6	-32.5	19.6	6.03e-01	0	44	0	331874304	20	4983
2026-01-16 03:10:07.08	242.05	15.75	-29.5	-32.1	19.7	6.01e-01	0	44	0	335544320	20	4873
2026-01-16 03:10:09.07	241.80	15.54	-29.5	-32.0	19.8	6.03e-01	0	44	0	339738624	20	4841
2026-01-16 03:10:11.07	241.56	15.33	-29.9	-33.1	19.1	6.03e-01	0	44	0	343408640	20	5231
2026-01-16 03:10:13.08	241.31	15.12	-29.6	-32.4	19.6	6.02e-01	0	44	0	347078656	20	4962
2026-01-16 03:10:15.07	241.08	14.91	-29.7	-32.7	19.3	6.01e-01	0	44	0	350748672	20	5099
2026-01-16 03:10:17.07	240.85	14.71	-29.8	-33.0	19.2	6.00e-01	0	44	0	354418688	20	5174
2026-01-16 03:10:19.07	240.62	14.51	-29.6	-32.5	19.5	6.07e-01	0	44	0	358088704	20	5005
2026-01-16 03:10:21.07	240.39	14.30	-29.5	-32.3	19.6	6.03e-01	0	44	0	361758720	20	4936
2026-01-16 03:10:23.06	240.17	14.10	-29.6	-32.5	19.4	6.02e-01	0	44	0	365953024	20	5014
2026-01-16 03:10:25.06	239.95	13.90	-29.7	-32.8	19.1	6.03e-01	0	44	0	369623040	20	5131
2026-01-16 03:10:27.05	239.73	13.71	-29.6	-32.6	19.3	6.06e-01	0	44	0	373293056	20	5048
2026-01-16 03:10:29.05	239.52	13.51	-29.7	-32.7	19.2	6.05e-01	0	44	0	376963072	20	5109
2026-01-16 03:10:31.06	239.31	13.31	-29.8	-33.1	19.0	6.06e-01	0	44	0	380633088	20	5251
2026-01-16 03:10:33.06	239.10	13.12	-29.8	-33.0	18.6	6.04e-01	0	44	0	384303104	21	5197
2026-01-16 03:10:35.07	238.90	12.93	-29.8	-32.9	19.0	6.05e-01	0	44	0	387973120	20	5187
2026-01-16 03:10:37.07	238.70	12.74	-30.1	-33.4	18.4	6.04e-01	0	44	0	392167424	21	5246
2026-01-16 03:10:39.07	238.50	12.55	-29.9	-33.4	18.6	6.03e-01	0	44	0	395837440	20	5364
2026-01-16 03:10:41.07	238.30	12.36	-29.9	-33.3	18.7	6.00e-01	0	44	0	399507456	20	5326
2026-01-16 03:10:43.08	238.11	12.17	-30.0	-33.5	18.7	6.04e-01	0	44	0	403177472	20	5389
2026-01-16 03:10:45.08	237.92	11.98	-29.8	-33.0	19.0	6.03e-01	0	44	0	406847488	20	5201
2026-01-16 03:10:47.08	237.73	11.80	-29.9	-33.3	18.8	6.04e-01	0	44	0	410517504	20	5328
2026-01-16 03:10:49.08	237.55	11.61	-30.0	-33.5	18.6	6.03e-01	0	44	0	414711808	20	5422
2026-01-16 03:10:51.08	237.36	11.43	-30.1	-33.5	18.3	5.99e-01	0	44	0	418381824	21	5301
2026-01-16 03:10:53.09	237.18	11.25	-30.1	-33.9	18.3	6.02e-01	0	44	0	422051840	20	5583
2026-01-16 03:10:55.09	237.01	11.07	-30.2	-33.7	18.1	6.03e-01	0	44	0	425721856	21	5373
2026-01-16 03:10:57.09	236.83	10.89	-30.4	-34.3	17.7	6.06e-01	0	44	0	429391872	21	5646
2026-01-16 03:10:59.09	236.66	10.71	-30.6	-34.3	17.4	6.04e-01	0	44	0	433586176	22	5542
2026-01-16 03:11:01.09	236.49	10.54	-30.2	-33.3	18.0	6.04e-01	0	44	0	437256192	22	5135
2026-01-16 03:11:03.09	236.32	10.36	-30.2	-33.3	18.0	6.01e-01	0	44	0	440926208	22	5138
2026-01-16 03:11:05.08	236.15	10.19	-30.2	-33.3	17.9	6.06e-01	0	44	0	444596224	22	5145
2026-01-16 03:11:07.09	235.99	10.02	-30.1	-32.9	18.3	6.05e-01	0	44	0	448266240	22	4973
2026-01-16 03:11:09.08	235.83	9.84	-30.0	-33.4	18.2	6.05e-01	0	44	0	451936256	21	5266
2026-01-16 03:11:11.09	235.67	9.67	-30.2	-33.8	17.9	6.04e-01	0	44	0	455606272	21	5451
2026-01-16 03:11:13.10	235.51	9.50	-30.1	-33.6	18.1	6.02e-01	0	44	0	459800576	21	5359
2026-01-16 03:11:15.09	235.36	9.34	-30.0	-33.2	18.2	6.02e-01	0	44	0	463470592	21	5216
2026-01-16 03:11:17.09	235.20	9.17	-30.1	-33.5	18.1	6.04e-01	0	44	0	467140608	21	5320
2026-01-16 03:11:19.09	235.05	9.00	-30.4	-34.3	17.5	6.04e-01	0	44	0	470810624	21	5683
2026-01-16 03:11:21.09	234.90	8.84	-30.1	-33.7	17.9	6.07e-01	0	44	0	474480640	21	5412
2026-01-16 03:11:23.09	234.75	8.67	-30.1	-34.0	18.1	6.05e-01	0	44	0	478150656	20	5649
2026-01-16 03:11:25.10	234.61	8.51	-30.1	-33.6	18.0	6.04e-01	0	44	0	481820672	21	5369
2026-01-16 03:11:27.10	234.46	8.35	-30.1	-33.7	17.8	6.03e-01	0	44	0	486014976	21	5445
2026-01-16 03:11:29.10	234.32	8.19	-30.3	-34.1	17.6	6.01e-01	0	44	0	489684992	21	5587
2026-01-16 03:11:31.11	234.18	8.02	-30.2	-33.8	17.8	6.04e-01	0	44	0	493355008	21	5463
2026-01-16 03:11:33.11	234.04	7.87	-30.2	-33.9	17.6	6.04e-01	0	44	0	497025024	21	5522
2026-01-16 03:11:35.11	233.90	7.71	-30.3	-34.2	17.4	6.01e-01	0	44	0	500695040	21	5664
2026-01-16 03:11:37.11	233.77	7.55	-30.4	-34.4	17.3	6.06e-01	0	44	0	504365056	21	5761
2026-01-16 03:11:39.11	233.63	7.39	-30.4	-34.5	17.2	6.03e-01	0	44	0	508559360	21	5803
2026-01-16 03:11:41.10	233.50	7.24	-30.5	-34.8	17.0	6.02e-01	0	44	0	512229376	21	5926
2026-01-16 03:11:43.09	233.37	7.08	-30.1	-33.7	17.7	6.05e-01	0	44	0	515899392	21	5437

#Closed at: 2026-01-16 03:11:44
#Recorded file [516 MB]: D:/data/31010_260116_060707.dat