passes_logs/2026/01/16/R2M6_AANII_01/R2M6_AANII_01__20260116_023701_SUOMI_NPP_rec.log

#Pass ID: 20260116_023701_SUOMI NPP
#Satellite: SUOMI NPP
#Configuration: NPP
#almurnet v.1.7.20240730
#Start time: 2026-01-16 02:37:01

#Version: 2.2.20231116
#Station: R2M6_AANII_01
#Location: 30.233357 lon 59.946436 lat
#TLE: 1 37849U 11061A   26015.52691075  .00000052  00000+0  45753-4 0  9993
#TLE: 2 37849  98.7811 317.5709 0002448  62.7632 297.3794 14.19525354736784

#Time	Az	El	Level	Level2	SNR	BER	BlckErr	Temp	State	Recorded	gain1	gain2
2026-01-16 02:37:01.20	9.55	7.01	-32.4	-39.0	4.4	1.39e+00	0	41	0	0	25	7637
2026-01-16 02:37:04.20	9.25	7.19	-32.1	-37.4	6.9	1.81e-01	0	41	0	1048576	24	6617
2026-01-16 02:37:07.20	8.94	7.37	-32.3	-38.6	6.1	2.38e-01	0	41	0	7340032	24	7378
2026-01-16 02:37:10.21	8.62	7.55	-32.2	-37.5	6.5	3.35e-01	0	42	0	12582912	25	6619
2026-01-16 02:37:13.21	8.31	7.73	-31.7	-35.4	8.5	5.81e-02	0	42	0	17825792	24	5498
2026-01-16 02:37:16.20	7.99	7.91	-31.3	-34.2	9.9	1.12e-02	0	42	0	24117248	23	5028
2026-01-16 02:37:19.21	7.66	8.10	-31.4	-34.7	9.5	1.46e-02	0	42	0	29360128	23	5276
2026-01-16 02:37:22.21	7.33	8.28	-31.5	-35.0	9.4	1.34e-02	0	42	0	35651584	23	5393
2026-01-16 02:37:25.21	6.99	8.46	-31.3	-34.3	9.9	1.05e-02	0	42	0	40894464	23	5064
2026-01-16 02:37:28.22	6.66	8.65	-31.1	-33.6	10.4	5.07e-03	0	42	0	46137344	23	4796
2026-01-16 02:37:31.23	6.31	8.83	-31.2	-33.9	10.2	5.09e-03	0	42	0	52428800	23	4909
2026-01-16 02:37:34.24	5.96	9.02	-31.1	-33.4	10.6	4.75e-03	0	42	0	57671680	23	4715
2026-01-16 02:37:37.24	5.61	9.20	-31.3	-34.5	10.1	6.52e-03	0	42	0	62914560	22	5245
2026-01-16 02:37:40.24	5.25	9.39	-31.2	-34.3	10.3	5.38e-03	0	42	0	69206016	22	5135
2026-01-16 02:37:43.25	4.89	9.57	-31.4	-34.7	9.7	1.15e-02	0	42	0	74448896	23	5220
2026-01-16 02:37:46.26	4.52	9.76	-31.4	-35.0	9.9	5.97e-03	0	43	0	80740352	22	5437
2026-01-16 02:37:49.26	4.15	9.94	-31.2	-34.3	10.4	5.89e-03	0	43	0	85983232	22	5136
2026-01-16 02:37:52.26	3.78	10.13	-31.0	-33.5	11.0	1.91e-03	0	43	0	91226112	22	4812
2026-01-16 02:37:55.26	3.40	10.31	-30.9	-33.3	11.1	1.91e-03	0	43	0	97517568	22	4741
2026-01-16 02:37:58.26	3.01	10.50	-30.8	-33.1	11.3	1.16e-03	0	43	0	102760448	22	4655
2026-01-16 02:38:01.25	2.62	10.69	-30.9	-33.2	11.3	1.19e-03	0	43	0	108003328	22	4678
2026-01-16 02:38:04.24	2.23	10.87	-30.7	-32.7	11.6	9.46e-04	0	43	0	114294784	22	4507
2026-01-16 02:38:07.24	1.83	11.06	-31.0	-33.6	11.0	1.55e-03	0	43	0	119537664	22	4838
2026-01-16 02:38:10.25	1.42	11.25	-30.9	-33.3	11.2	1.62e-03	0	43	0	124780544	22	4747
2026-01-16 02:38:13.24	1.01	11.43	-30.8	-32.8	11.5	1.19e-03	0	43	0	131072000	22	4563
2026-01-16 02:38:16.24	0.59	11.62	-31.0	-33.4	11.2	1.36e-03	0	43	0	136314880	22	4778
2026-01-16 02:38:19.25	0.17	11.80	-30.8	-32.9	11.5	6.71e-04	0	43	0	141557760	22	4590
2026-01-16 02:38:22.24	359.74	11.99	-30.7	-32.6	11.8	4.52e-04	0	43	0	147849216	22	4478
2026-01-16 02:38:25.25	359.31	12.18	-30.6	-32.8	12.0	3.79e-04	0	43	0	153092096	21	4627
2026-01-16 02:38:28.24	358.87	12.36	-30.7	-33.2	11.7	6.16e-04	0	43	0	159383552	21	4775
2026-01-16 02:38:31.24	358.42	12.55	-30.8	-33.3	11.6	8.15e-04	0	43	0	164626432	21	4823
2026-01-16 02:38:34.24	357.97	12.73	-30.9	-33.7	11.4	1.02e-03	0	43	0	169869312	21	4996
2026-01-16 02:38:37.25	357.51	12.92	-30.9	-33.2	11.4	1.24e-03	0	43	0	176160768	22	4679
2026-01-16 02:38:40.26	357.05	13.10	-31.1	-33.9	10.9	2.97e-03	0	43	0	181403648	22	4957
2026-01-16 02:38:43.26	356.58	13.29	-30.8	-33.3	11.6	9.47e-04	0	43	0	186646528	21	4817
2026-01-16 02:38:46.26	356.11	13.47	-30.8	-33.3	11.7	8.12e-04	0	43	0	192937984	21	4824
2026-01-16 02:38:49.26	355.63	13.65	-31.2	-34.0	10.8	2.18e-03	0	43	0	198180864	22	4979
2026-01-16 02:38:52.26	355.14	13.83	-31.2	-34.1	10.8	1.73e-03	0	43	0	204472320	22	5015
2026-01-16 02:38:55.27	354.65	14.02	-30.8	-33.3	11.7	7.90e-04	0	43	0	209715200	21	4815
2026-01-16 02:38:58.28	354.15	14.20	-30.8	-33.5	11.5	8.89e-04	0	43	0	214958080	21	4901
2026-01-16 02:39:01.28	353.64	14.38	-31.1	-33.7	11.1	1.21e-03	0	43	0	221249536	22	4875
2026-01-16 02:39:04.29	353.13	14.56	-30.8	-32.8	11.7	8.23e-04	0	43	0	226492416	22	4532
2026-01-16 02:39:07.30	352.61	14.73	-31.2	-34.2	10.8	2.51e-03	0	43	0	231735296	22	5072
2026-01-16 02:39:10.30	352.09	14.91	-31.4	-34.7	10.4	4.88e-03	0	43	0	238026752	22	5294
2026-01-16 02:39:13.30	351.56	15.09	-30.9	-33.2	11.4	1.40e-03	0	43	0	243269632	22	4681
2026-01-16 02:39:16.31	351.02	15.26	-30.7	-33.1	11.9	4.26e-04	0	43	0	249561088	21	4726
2026-01-16 02:39:19.32	350.47	15.43	-30.4	-32.2	12.4	1.68e-04	0	43	0	254803968	21	4424
2026-01-16 02:39:22.33	349.92	15.61	-30.4	-32.6	12.5	1.22e-04	0	43	0	260046848	20	4675
2026-01-16 02:39:25.31	349.37	15.77	-30.2	-32.2	12.7	7.55e-05	0	43	0	266338304	20	4528
2026-01-16 02:39:28.32	348.81	15.94	-30.4	-32.7	12.5	1.43e-04	0	43	0	271581184	20	4692
2026-01-16 02:39:31.32	348.24	16.11	-30.0	-31.6	13.2	2.82e-05	0	43	0	276824064	20	4306
2026-01-16 02:39:34.32	347.66	16.27	-29.9	-31.2	13.4	9.10e-06	0	44	0	283115520	20	4194
2026-01-16 02:39:37.32	347.08	16.44	-29.9	-31.4	13.4	2.13e-05	0	43	0	288358400	20	4241
2026-01-16 02:39:40.32	346.49	16.60	-30.0	-31.5	13.3	7.60e-06	0	43	0	294649856	20	4275
2026-01-16 02:39:43.32	345.90	16.76	-29.8	-31.0	13.6	9.90e-06	0	43	0	299892736	20	4147
2026-01-16 02:39:46.31	345.30	16.91	-30.0	-31.4	13.3	2.05e-05	0	43	0	305135616	20	4260
2026-01-16 02:39:49.32	344.69	17.07	-29.8	-30.9	13.7	9.90e-06	0	43	0	311427072	20	4092
2026-01-16 02:39:52.32	344.08	17.22	-29.9	-31.2	13.5	3.80e-06	0	43	0	316669952	20	4189
2026-01-16 02:39:55.31	343.46	17.37	-30.2	-32.0	13.0	2.28e-05	0	43	0	321912832	20	4440
2026-01-16 02:39:58.31	342.83	17.52	-29.7	-30.8	13.8	8.30e-06	0	43	0	328204288	20	4056
2026-01-16 02:40:01.30	342.21	17.66	-29.7	-30.7	13.8	2.20e-06	0	43	0	333447168	20	4046
2026-01-16 02:40:04.29	341.57	17.80	-29.8	-31.0	13.7	7.60e-06	0	43	0	338690048	20	4117
2026-01-16 02:40:07.29	340.93	17.94	-29.8	-30.8	13.8	4.50e-06	0	44	0	344981504	20	4072
2026-01-16 02:40:10.29	340.28	18.07	-29.4	-30.3	14.6	0.00e+00	0	43	0	350224384	19	4001
2026-01-16 02:40:13.30	339.62	18.21	-29.4	-30.2	14.6	0.00e+00	0	43	0	355467264	19	3980
2026-01-16 02:40:16.30	338.96	18.34	-29.4	-30.2	14.6	1.50e-06	0	43	0	361758720	19	3963
2026-01-16 02:40:19.30	338.29	18.46	-30.1	-31.7	13.4	1.52e-05	0	44	0	367001600	20	4317
2026-01-16 02:40:22.31	337.61	18.58	-29.9	-31.1	13.7	1.83e-05	0	44	0	373293056	20	4135
2026-01-16 02:40:25.31	336.94	18.70	-29.8	-31.4	13.8	5.30e-06	0	44	0	378535936	19	4328
2026-01-16 02:40:28.32	336.25	18.82	-29.9	-31.7	13.7	3.80e-06	0	43	0	383778816	19	4421
2026-01-16 02:40:31.32	335.56	18.93	-29.3	-30.2	14.7	1.50e-06	0	44	0	390070272	19	3958
2026-01-16 02:40:34.32	334.87	19.04	-28.9	-29.6	15.3	0.00e+00	0	43	0	395313152	18	3904
2026-01-16 02:40:37.32	334.17	19.14	-28.9	-30.0	15.4	0.00e+00	0	44	0	400556032	17	4086
2026-01-16 02:40:40.32	333.47	19.24	-29.1	-30.0	15.1	0.00e+00	0	44	0	406847488	18	4000
2026-01-16 02:40:43.32	332.76	19.34	-29.1	-30.1	15.0	0.00e+00	0	44	0	412090368	18	4019
2026-01-16 02:40:46.32	332.05	19.43	-29.5	-30.6	14.4	0.00e+00	0	44	0	418381824	19	4081
2026-01-16 02:40:49.32	331.33	19.51	-29.0	-30.3	14.1	7.00e-07	0	44	0	423624704	19	4201
2026-01-16 02:40:52.31	330.61	19.60	-29.5	-30.6	13.6	0.00e+00	0	44	0	428867584	19	4072
2026-01-16 02:40:55.31	329.89	19.67	-29.9	-31.7	13.7	8.89e-04	0	43	0	435159040	19	4406
2026-01-16 02:40:58.31	329.16	19.75	-30.0	-31.3	13.6	1.90e-05	0	44	0	440401920	20	4211
2026-01-16 02:41:01.31	328.43	19.82	-30.2	-31.9	13.2	1.90e-05	0	44	0	445644800	20	4375
2026-01-16 02:41:04.33	327.69	19.88	-29.8	-30.8	13.9	0.00e+00	0	43	0	451936256	20	4044
2026-01-16 02:41:07.34	326.95	19.94	-30.1	-31.7	13.3	5.30e-06	0	44	0	457179136	20	4328
2026-01-16 02:41:10.33	326.21	19.99	-30.3	-32.3	12.9	5.41e-05	0	43	0	462422016	20	4532
2026-01-16 02:41:13.34	325.46	20.04	-30.7	-32.8	12.3	4.03e-04	0	44	0	468713472	21	4597
2026-01-16 02:41:16.33	324.72	20.09	-30.5	-32.3	12.5	1.23e-04	0	44	0	473956352	21	4443
2026-01-16 02:41:19.33	323.97	20.13	-30.3	-31.9	12.9	7.70e-05	0	44	0	480247808	21	4290
2026-01-16 02:41:22.33	323.22	20.16	-30.1	-31.7	13.3	2.89e-05	0	44	0	485490688	20	4332
2026-01-16 02:41:25.32	322.47	20.19	-30.2	-32.0	13.1	2.36e-05	0	44	0	490733568	20	4441
2026-01-16 02:41:28.31	321.72	20.21	-30.3	-32.2	12.9	5.56e-05	0	43	0	497025024	20	4504
2026-01-16 02:41:31.32	320.97	20.23	-30.5	-32.5	12.5	9.38e-05	0	44	0	502267904	21	4501
2026-01-16 02:41:34.32	320.21	20.25	-30.6	-32.8	12.2	1.85e-04	0	44	0	507510784	21	4608
2026-01-16 02:41:37.33	319.46	20.25	-30.4	-32.0	12.7	7.40e-05	0	44	0	513802240	21	4355
2026-01-16 02:41:40.33	318.70	20.26	-30.2	-31.4	13.2	2.44e-05	0	44	0	519045120	21	4158
2026-01-16 02:41:43.34	317.94	20.26	-30.0	-31.4	13.5	9.10e-06	0	44	0	524288000	20	4229
2026-01-16 02:41:46.34	317.19	20.25	-29.9	-31.3	13.6	1.24e-03	0	43	0	530579456	20	4211
2026-01-16 02:41:49.34	316.43	20.24	-30.2	-31.9	13.2	1.63e-03	0	44	0	535822336	20	4414
2026-01-16 02:41:52.35	315.68	20.22	-30.5	-32.4	12.6	1.74e-03	0	44	0	542113792	21	4464
2026-01-16 02:41:55.34	314.93	20.19	-30.7	-32.9	12.2	1.60e-03	0	44	0	547356672	21	4635
2026-01-16 02:41:58.33	314.18	20.17	-30.4	-32.1	12.7	1.01e-03	0	44	0	552599552	21	4383
2026-01-16 02:42:01.33	313.43	20.13	-30.0	-31.3	13.5	1.58e-03	0	44	0	558891008	20	4208
2026-01-16 02:42:04.34	312.68	20.09	-29.4	-30.3	14.6	1.69e-03	0	44	0	564133888	19	3985
2026-01-16 02:42:07.33	311.93	20.05	-29.1	-30.1	15.0	1.25e-03	0	44	0	569376768	18	4034
2026-01-16 02:42:10.33	311.19	20.00	-29.0	-29.9	15.2	9.11e-04	0	44	0	575668224	18	3957
2026-01-16 02:42:13.31	310.45	19.95	-29.0	-29.8	15.2	3.26e-04	0	44	0	580911104	18	3933
2026-01-16 02:42:16.31	309.71	19.89	-29.3	-30.6	14.7	4.09e-04	0	43	0	586153984	18	4171
2026-01-16 02:42:19.32	308.97	19.83	-29.2	-30.3	14.9	0.00e+00	0	43	0	592445440	18	4083
2026-01-16 02:42:22.33	308.24	19.76	-29.0	-29.9	15.2	0.00e+00	0	44	0	597688320	18	3960
2026-01-16 02:42:25.32	307.51	19.69	-29.1	-30.0	15.2	0.00e+00	0	44	0	603979776	18	3986
2026-01-16 02:42:28.32	306.78	19.61	-29.1	-30.1	15.1	8.33e-04	0	44	0	609222656	18	4027
2026-01-16 02:42:31.32	306.06	19.53	-29.3	-30.4	14.9	1.38e-03	0	44	0	614465536	18	4099
2026-01-16 02:42:34.31	305.35	19.44	-29.0	-29.9	15.1	5.44e-04	0	44	0	620756992	18	3960
2026-01-16 02:42:37.32	304.63	19.35	-29.3	-30.5	14.8	0.00e+00	0	44	0	625999872	18	4134
2026-01-16 02:42:40.31	303.92	19.26	-30.1	-31.8	13.3	6.80e-06	0	44	0	631242752	20	4360
2026-01-16 02:42:43.32	303.21	19.16	-30.4	-32.1	12.8	8.01e-05	0	44	0	637534208	21	4353
2026-01-16 02:42:46.32	302.51	19.06	-30.5	-32.3	12.6	7.62e-05	0	44	0	642777088	21	4448
2026-01-16 02:42:49.32	301.82	18.95	-30.2	-31.4	13.2	1.83e-05	0	44	0	648019968	21	4136
2026-01-16 02:42:52.33	301.12	18.84	-30.3	-31.8	12.9	4.34e-05	0	44	0	654311424	21	4274
2026-01-16 02:42:55.34	300.44	18.72	-30.3	-31.8	12.9	4.95e-05	0	44	0	659554304	21	4267
2026-01-16 02:42:58.34	299.76	18.60	-30.4	-32.1	12.7	8.16e-05	0	44	0	665845760	21	4374
2026-01-16 02:43:01.33	299.08	18.48	-30.3	-31.6	13.0	4.27e-05	0	44	0	671088640	21	4216
2026-01-16 02:43:04.35	298.41	18.36	-30.1	-31.1	13.4	2.05e-05	0	44	0	676331520	21	4048
2026-01-16 02:43:07.35	297.74	18.23	-30.1	-31.8	13.2	2.51e-05	0	44	0	682622976	20	4362
2026-01-16 02:43:10.35	297.09	18.09	-30.0	-31.4	13.4	1.06e-05	0	44	0	687865856	20	4260
2026-01-16 02:43:13.37	296.43	17.96	-29.8	-31.0	13.6	1.06e-05	0	44	0	693108736	20	4131
2026-01-16 02:43:16.37	295.78	17.82	-29.4	-30.3	14.4	7.00e-07	0	44	0	699400192	19	4014
2026-01-16 02:43:19.36	295.14	17.68	-29.3	-30.2	14.5	0.00e+00	0	44	0	704643072	19	3981
2026-01-16 02:43:22.37	294.51	17.53	-29.5	-30.5	14.2	7.00e-07	0	44	0	710934528	19	4067
2026-01-16 02:43:25.38	293.88	17.39	-30.0	-31.5	13.3	1.29e-05	0	44	0	716177408	20	4271
2026-01-16 02:43:28.38	293.26	17.24	-30.5	-32.5	12.2	2.12e-04	0	44	0	721420288	21	4543
2026-01-16 02:43:31.38	292.64	17.09	-30.3	-32.4	12.7	9.76e-05	0	44	0	727711744	20	4577
2026-01-16 02:43:34.38	292.03	16.93	-30.5	-32.9	12.3	1.24e-03	0	44	0	732954624	20	4750
2026-01-16 02:43:37.39	291.42	16.77	-30.8	-33.3	11.6	5.45e-04	0	44	0	738197504	21	4818
2026-01-16 02:43:40.39	290.83	16.62	-30.6	-32.9	11.9	3.91e-04	0	44	0	744488960	21	4690
2026-01-16 02:43:43.40	290.23	16.45	-30.3	-31.9	12.6	7.78e-05	0	44	0	749731840	21	4332
2026-01-16 02:43:46.41	289.65	16.29	-30.2	-32.2	12.8	4.73e-05	0	44	0	756023296	20	4504
2026-01-16 02:43:49.40	289.07	16.13	-30.3	-32.5	12.5	4.32e-04	0	44	0	761266176	20	4621
2026-01-16 02:43:52.41	288.50	15.96	-30.6	-32.8	12.0	4.16e-04	0	44	0	766509056	21	4628
2026-01-16 02:43:55.40	287.94	15.79	-30.7	-33.3	11.6	1.61e-03	0	44	0	772800512	21	4822
2026-01-16 02:43:58.41	287.38	15.62	-29.9	-31.3	13.2	3.98e-04	0	44	0	778043392	20	4256
2026-01-16 02:44:01.42	286.82	15.45	-29.7	-31.3	13.6	5.30e-06	0	44	0	783286272	19	4334
2026-01-16 02:44:04.43	286.27	15.28	-30.4	-32.7	12.3	1.09e-04	0	44	0	789577728	20	4709
2026-01-16 02:44:07.43	285.73	15.10	-30.9	-33.8	11.1	2.34e-03	0	44	0	794820608	21	5055
2026-01-16 02:44:10.43	285.20	14.93	-30.9	-33.3	11.2	3.49e-03	0	44	0	800063488	22	4759
2026-01-16 02:44:13.44	284.67	14.75	-30.8	-33.6	11.2	2.53e-03	0	44	0	806354944	21	4972
2026-01-16 02:44:16.44	284.15	14.57	-30.5	-32.8	11.8	1.73e-03	0	44	0	811597824	21	4674
2026-01-16 02:44:19.44	283.64	14.39	-30.6	-33.0	11.6	2.69e-03	0	44	0	817889280	21	4752
2026-01-16 02:44:22.43	283.13	14.21	-30.4	-32.8	12.2	2.46e-04	0	44	0	823132160	20	4745
2026-01-16 02:44:25.44	282.63	14.03	-30.3	-32.6	12.3	1.96e-03	0	44	0	828375040	20	4704
2026-01-16 02:44:28.44	282.13	13.85	-30.7	-33.2	11.5	2.19e-03	0	44	0	834666496	21	4799
2026-01-16 02:44:31.45	281.64	13.67	-30.6	-32.8	11.8	2.02e-03	0	44	0	839909376	21	4665
2026-01-16 02:44:34.45	281.16	13.48	-30.0	-31.8	12.8	4.74e-04	0	44	0	845152256	20	4422
2026-01-16 02:44:37.45	280.68	13.30	-30.2	-32.2	12.5	3.53e-04	0	44	0	851443712	20	4533
2026-01-16 02:44:40.45	280.21	13.12	-30.4	-32.7	12.1	2.25e-04	0	44	0	856686592	20	4732
2026-01-16 02:44:43.46	279.74	12.93	-30.6	-33.0	11.6	5.53e-04	0	44	0	862978048	21	4758
2026-01-16 02:44:46.47	279.28	12.74	-30.6	-33.1	11.5	6.46e-04	0	44	0	868220928	21	4776
2026-01-16 02:44:49.49	278.83	12.56	-30.5	-32.6	11.8	1.92e-03	0	44	0	873463808	21	4593
2026-01-16 02:44:52.49	278.38	12.37	-30.5	-32.7	11.8	1.54e-03	0	44	0	879755264	21	4605
2026-01-16 02:44:55.48	277.94	12.19	-30.1	-31.9	12.7	5.67e-04	0	44	0	884998144	20	4433
2026-01-16 02:44:58.50	277.50	12.00	-29.4	-30.5	13.9	7.60e-06	0	44	0	890241024	19	4093
2026-01-16 02:45:01.49	277.07	11.81	-29.3	-30.8	14.1	1.50e-06	0	44	0	896532480	18	4264
2026-01-16 02:45:04.50	276.64	11.63	-29.5	-30.8	13.8	3.80e-06	0	44	0	901775360	19	4179
2026-01-16 02:45:07.51	276.22	11.44	-29.9	-31.8	13.1	2.21e-05	0	44	0	908066816	19	4501
2026-01-16 02:45:10.52	275.80	11.25	-29.9	-32.0	13.0	3.73e-05	0	44	0	913309696	19	4567
2026-01-16 02:45:13.51	275.40	11.06	-29.8	-31.5	13.3	1.52e-05	0	44	0	918552576	19	4415
2026-01-16 02:45:16.52	274.99	10.88	-29.8	-31.5	13.3	9.10e-06	0	44	0	924844032	19	4395
2026-01-16 02:45:19.52	274.59	10.69	-29.6	-31.1	13.5	1.44e-05	0	44	0	930086912	19	4264
2026-01-16 02:45:22.52	274.20	10.50	-29.8	-31.7	13.1	2.36e-05	0	44	0	935329792	19	4480
2026-01-16 02:45:25.52	273.81	10.32	-29.9	-31.8	13.0	4.04e-05	0	44	0	941621248	19	4511
2026-01-16 02:45:28.51	273.43	10.13	-30.0	-31.7	12.7	4.11e-05	0	44	0	946864128	20	4377
2026-01-16 02:45:31.52	273.05	9.94	-30.2	-32.4	12.2	2.38e-04	0	44	0	952107008	20	4623
2026-01-16 02:45:34.52	272.67	9.76	-30.4	-32.9	11.8	4.00e-04	0	44	0	958398464	20	4810
2026-01-16 02:45:37.52	272.31	9.57	-30.3	-32.5	12.0	3.22e-04	0	44	0	963641344	20	4683
2026-01-16 02:45:40.53	271.94	9.39	-29.9	-31.4	12.8	9.76e-05	0	44	0	969932800	20	4302
2026-01-16 02:45:43.54	271.58	9.20	-29.6	-31.2	13.3	2.67e-05	0	44	0	975175680	19	4303
2026-01-16 02:45:46.53	271.23	9.02	-29.7	-31.4	13.2	1.52e-05	0	44	0	980418560	19	4375
2026-01-16 02:45:49.54	270.87	8.83	-30.0	-32.0	12.4	1.35e-04	0	44	0	986710016	20	4496
2026-01-16 02:45:52.55	270.53	8.65	-30.3	-32.7	11.8	5.18e-04	0	44	0	991952896	20	4738
2026-01-16 02:45:55.57	270.18	8.46	-30.2	-32.3	12.1	3.30e-04	0	44	0	997195776	20	4613
2026-01-16 02:45:58.58	269.85	8.28	-30.1	-32.3	12.1	2.32e-04	0	44	0	1003487232	20	4596
2026-01-16 02:46:01.57	269.51	8.09	-30.4	-33.0	11.6	7.09e-04	0	44	0	1008730112	20	4852
2026-01-16 02:46:04.57	269.19	7.91	-30.4	-32.7	11.4	1.16e-03	0	44	0	1015021568	21	4676
2026-01-16 02:46:07.57	268.86	7.73	-30.4	-32.7	11.4	1.35e-03	0	44	0	1020264448	21	4662
2026-01-16 02:46:10.57	268.54	7.55	-30.4	-32.5	11.5	1.02e-03	0	44	0	1025507328	21	4607
2026-01-16 02:46:13.58	268.23	7.36	-30.5	-33.1	11.0	1.22e-03	0	44	0	1031798784	21	4809
2026-01-16 02:46:16.59	267.91	7.18	-30.6	-33.4	10.8	2.50e-03	0	44	0	1037041664	21	4932
2026-01-16 02:46:19.60	267.60	7.00	-33.4	-45.9	3.8	1.49e+00	0	44	104	1040187392	26	15309

#Closed at: 2026-01-16 02:46:20
#Recorded file [1040 MB]: D:/data/31010_260116_053703.dat