passes_logs/2026/01/16/R2M6_AANII_01/R2M6_AANII_01__20260116_070056_FENGYUN_3E_rec.log

#Pass ID: 20260116_070056_FENGYUN 3E
#Satellite: FENGYUN 3E
#Configuration: FENGYUN 3E
#almurnet v.1.7.20240730
#Start time: 2026-01-16 07:00:56

#Version: 2.2.20231116
#Station: R2M6_AANII_01
#Location: 30.233357 lon 59.946436 lat
#TLE: 1 49008U 21062A   26015.49897766  .00000206  00000+0  11779-3 0  9997
#TLE: 2 49008  98.7486  20.6219 0002049 135.8566 224.2775 14.19885576234916

#Time	Az	El	Level	Level2	SNR	BER	BlckErr	Temp	State	Recorded	gain1	gain2
2026-01-16 07:00:56.01	8.90	6.98	-31.3	-35.0	4.6	8.12e-01	0	41	0	0	23	5525
2026-01-16 07:00:59.01	8.57	7.15	-30.3	-32.6	8.4	4.55e-02	0	41	0	7340032	21	4693
2026-01-16 07:01:02.02	8.24	7.32	-30.0	-31.9	8.8	2.95e-02	0	41	0	28311552	21	4479
2026-01-16 07:01:05.03	7.90	7.49	-29.7	-31.5	9.4	1.70e-02	0	41	0	50331648	20	4423
2026-01-16 07:01:08.03	7.56	7.66	-28.5	-29.3	11.6	6.48e-04	0	41	0	72351744	18	3966
2026-01-16 07:01:11.05	7.22	7.84	-28.2	-29.0	12.1	2.16e-04	0	42	0	93323264	17	3984
2026-01-16 07:01:14.06	6.87	8.01	-28.1	-29.5	12.2	1.60e-04	0	41	0	115343360	16	4202
2026-01-16 07:01:17.06	6.51	8.18	-27.8	-28.8	12.6	8.01e-05	0	42	0	137363456	16	4003
2026-01-16 07:01:20.08	6.16	8.35	-27.8	-28.8	12.6	9.72e-05	0	42	0	159383552	16	4012
2026-01-16 07:01:23.09	5.79	8.53	-27.8	-28.7	12.7	1.58e-04	0	42	0	180355072	16	3984
2026-01-16 07:01:26.09	5.43	8.70	-27.4	-28.3	13.0	4.23e-05	0	42	0	202375168	15	3988
2026-01-16 07:01:29.10	5.06	8.87	-27.4	-28.2	13.1	3.77e-05	0	42	0	224395264	15	3976
2026-01-16 07:01:32.09	4.68	9.04	-27.4	-28.4	13.0	2.05e-05	0	42	0	245366784	15	4005
2026-01-16 07:01:35.10	4.30	9.21	-27.7	-28.9	12.7	8.01e-05	0	42	0	267386880	15	4157
2026-01-16 07:01:38.11	3.92	9.39	-27.0	-27.5	13.6	1.48e-05	0	42	0	289406976	15	3786
2026-01-16 07:01:41.11	3.53	9.56	-27.2	-27.8	13.4	1.02e-05	0	42	0	310378496	15	3874
2026-01-16 07:01:44.11	3.14	9.73	-27.2	-27.8	13.4	1.02e-05	0	42	0	332398592	15	3854
2026-01-16 07:01:47.10	2.74	9.90	-27.4	-28.3	13.1	1.60e-05	0	43	0	354418688	15	3985
2026-01-16 07:01:50.11	2.34	10.07	-27.4	-28.3	13.1	1.83e-05	0	43	0	375390208	15	3994
2026-01-16 07:01:53.12	1.93	10.25	-26.9	-27.2	13.8	3.40e-06	0	43	0	397410304	15	3707
2026-01-16 07:01:56.13	1.52	10.42	-26.8	-27.4	13.9	2.20e-06	0	43	0	419430400	14	3866
2026-01-16 07:01:59.14	1.10	10.59	-26.5	-26.7	14.4	0.00e+00	0	43	0	440401920	14	3683
2026-01-16 07:02:02.15	0.67	10.76	-26.5	-27.1	14.4	2.20e-06	0	43	0	462422016	13	3892
2026-01-16 07:02:05.16	0.24	10.93	-26.5	-27.1	14.4	2.20e-06	0	43	0	484442112	13	3881
2026-01-16 07:02:08.17	359.81	11.10	-26.4	-27.0	14.5	0.00e+00	0	43	0	506462208	13	3864
2026-01-16 07:02:11.19	359.37	11.27	-26.5	-27.2	14.4	0.00e+00	0	43	0	527433728	13	3915
2026-01-16 07:02:14.19	358.93	11.44	-26.8	-27.9	14.0	1.10e-06	0	43	0	549453824	13	4074
2026-01-16 07:02:17.19	358.48	11.61	-26.6	-27.5	14.2	0.00e+00	0	43	0	571473920	13	3979
2026-01-16 07:02:20.19	358.03	11.78	-26.6	-27.6	14.2	4.50e-06	0	43	0	592445440	13	3996
2026-01-16 07:02:23.19	357.57	11.95	-26.4	-27.1	14.5	1.10e-06	0	43	0	614465536	13	3871
2026-01-16 07:02:26.19	357.10	12.11	-26.3	-26.8	14.7	0.00e+00	0	43	0	636485632	13	3809
2026-01-16 07:02:29.20	356.63	12.28	-26.4	-26.9	14.6	0.00e+00	0	43	0	657457152	13	3830
2026-01-16 07:02:32.20	356.16	12.44	-26.3	-26.8	14.7	0.00e+00	0	43	0	679477248	13	3797
2026-01-16 07:02:35.21	355.67	12.61	-26.5	-27.2	14.5	2.20e-06	0	43	0	701497344	13	3909
2026-01-16 07:02:38.22	355.19	12.77	-26.4	-27.0	14.6	2.20e-06	0	43	0	723517440	13	3870
2026-01-16 07:02:41.23	354.69	12.93	-26.3	-26.7	14.8	0.00e+00	0	43	0	744488960	13	3793
2026-01-16 07:02:44.25	354.19	13.10	-26.2	-26.5	14.9	1.10e-06	0	43	0	766509056	13	3741
2026-01-16 07:02:47.24	353.69	13.26	-26.1	-26.3	15.0	0.00e+00	0	43	0	788529152	13	3690
2026-01-16 07:02:50.24	353.18	13.41	-26.1	-26.3	15.0	0.00e+00	0	43	0	809500672	13	3683
2026-01-16 07:02:53.26	352.67	13.57	-26.0	-26.2	15.1	0.00e+00	0	43	0	831520768	13	3663
2026-01-16 07:02:56.27	352.15	13.73	-26.1	-26.2	15.1	0.00e+00	0	43	0	853540864	13	3675
2026-01-16 07:02:59.27	351.62	13.88	-25.7	-26.0	15.5	1.10e-06	0	43	0	875560960	12	3718
2026-01-16 07:03:02.29	351.09	14.04	-25.6	-25.7	15.6	0.00e+00	0	43	0	896532480	12	3655
2026-01-16 07:03:05.30	350.55	14.19	-25.7	-26.0	15.5	0.00e+00	0	43	0	918552576	12	3714
2026-01-16 07:03:08.31	350.01	14.34	-25.6	-25.8	15.6	0.00e+00	0	43	0	940572672	12	3657
2026-01-16 07:03:11.31	349.46	14.49	-25.8	-26.1	15.4	0.00e+00	0	43	0	961544192	12	3743
2026-01-16 07:03:14.31	348.90	14.64	-25.5	-25.6	15.7	0.00e+00	0	43	0	983564288	12	3626
2026-01-16 07:03:17.32	348.34	14.78	-25.6	-25.8	15.6	0.00e+00	0	43	0	1005584384	12	3681
2026-01-16 07:03:20.32	347.78	14.93	-25.6	-25.6	15.7	0.00e+00	0	43	0	1026555904	12	3633
2026-01-16 07:03:23.33	347.21	15.07	-25.8	-26.2	15.4	0.00e+00	0	43	0	1048576000	12	3757
2026-01-16 07:03:26.34	346.63	15.21	-25.4	-25.8	16.0	0.00e+00	0	43	0	1070596096	11	3763
2026-01-16 07:03:29.35	346.05	15.35	-25.5	-26.0	15.9	0.00e+00	0	43	0	1091567616	11	3803
2026-01-16 07:03:32.35	345.46	15.48	-25.5	-26.0	15.9	0.00e+00	0	43	0	1113587712	11	3803
2026-01-16 07:03:35.37	344.87	15.61	-25.8	-26.5	15.6	0.00e+00	0	43	0	1135607808	11	3940
2026-01-16 07:03:38.37	344.27	15.74	-25.9	-26.9	15.4	0.00e+00	0	43	0	1157627904	11	4029
2026-01-16 07:03:41.37	343.67	15.87	-25.8	-26.7	15.6	0.00e+00	0	43	0	1178599424	11	3971
2026-01-16 07:03:44.38	343.06	16.00	-25.6	-26.2	15.8	0.00e+00	0	43	0	1200619520	11	3864
2026-01-16 07:03:47.39	342.45	16.12	-25.6	-26.1	15.8	0.00e+00	0	43	0	1222639616	11	3837
2026-01-16 07:03:50.39	341.83	16.24	-25.5	-26.0	15.9	0.00e+00	0	43	0	1243611136	11	3810
2026-01-16 07:03:53.40	341.20	16.35	-25.1	-25.1	16.4	0.00e+00	0	43	0	1265631232	11	3616
2026-01-16 07:03:56.40	340.58	16.47	-25.0	-24.9	16.5	0.00e+00	0	43	0	1287651328	11	3567
2026-01-16 07:03:59.39	339.95	16.58	-25.1	-25.1	16.4	0.00e+00	0	43	0	1308622848	11	3614
2026-01-16 07:04:02.39	339.31	16.69	-25.5	-25.9	16.0	0.00e+00	0	43	0	1330642944	11	3782
2026-01-16 07:04:05.40	338.67	16.79	-25.4	-25.9	16.0	0.00e+00	0	44	0	1352663040	11	3777
2026-01-16 07:04:08.41	338.02	16.89	-25.2	-25.3	16.3	0.00e+00	0	44	0	1373634560	11	3651
2026-01-16 07:04:11.42	337.37	16.99	-25.4	-25.8	16.0	0.00e+00	0	44	0	1395654656	11	3764
2026-01-16 07:04:14.41	336.71	17.08	-25.4	-25.7	16.1	0.00e+00	0	44	0	1417674752	11	3744
2026-01-16 07:04:17.42	336.05	17.18	-25.4	-25.7	16.1	0.00e+00	0	43	0	1439694848	11	3745
2026-01-16 07:04:20.43	335.39	17.26	-25.1	-25.2	16.4	0.00e+00	0	43	0	1460666368	11	3628
2026-01-16 07:04:23.43	334.72	17.35	-25.1	-25.2	16.4	0.00e+00	0	43	0	1482686464	11	3628
2026-01-16 07:04:26.45	334.05	17.43	-25.0	-24.9	16.5	0.00e+00	0	44	0	1504706560	11	3568
2026-01-16 07:04:29.46	333.37	17.50	-24.9	-24.8	16.6	0.00e+00	0	44	0	1525678080	11	3530
2026-01-16 07:04:32.45	332.70	17.58	-24.8	-24.9	16.8	0.00e+00	0	44	0	1547698176	10	3662
2026-01-16 07:04:35.46	332.01	17.64	-24.8	-25.0	16.8	0.00e+00	0	44	0	1569718272	10	3671
2026-01-16 07:04:38.47	331.33	17.71	-24.5	-24.4	17.1	0.00e+00	0	43	0	1590689792	10	3540
2026-01-16 07:04:41.49	330.64	17.77	-24.6	-24.6	16.9	0.00e+00	0	44	0	1612709888	10	3579
2026-01-16 07:04:44.48	329.95	17.82	-24.8	-25.0	16.7	0.00e+00	0	43	0	1634729984	10	3679
2026-01-16 07:04:47.49	329.26	17.88	-24.5	-24.3	17.1	0.00e+00	0	43	0	1655701504	10	3528
2026-01-16 07:04:50.49	328.56	17.92	-24.6	-24.6	17.0	0.00e+00	0	43	0	1677721600	10	3584
2026-01-16 07:04:53.49	327.87	17.97	-24.7	-24.8	16.9	0.00e+00	0	44	0	1699741696	10	3639
2026-01-16 07:04:56.50	327.17	18.01	-24.6	-24.6	17.0	0.00e+00	0	44	0	1720713216	10	3584
2026-01-16 07:04:59.51	326.47	18.04	-24.7	-24.7	16.9	0.00e+00	0	43	0	1742733312	10	3606
2026-01-16 07:05:02.51	325.76	18.07	-24.6	-24.5	17.0	0.00e+00	0	43	0	1764753408	10	3567
2026-01-16 07:05:05.51	325.06	18.10	-24.5	-24.4	17.1	0.00e+00	0	44	0	1786773504	10	3545
2026-01-16 07:05:08.52	324.36	18.12	-24.4	-24.6	17.2	0.00e+00	0	44	0	1807745024	9	3680
2026-01-16 07:05:11.53	323.65	18.14	-24.3	-24.5	17.3	0.00e+00	0	44	0	1829765120	9	3660
2026-01-16 07:05:14.54	322.94	18.15	-24.3	-24.5	17.3	0.00e+00	0	44	0	1851785216	9	3667
2026-01-16 07:05:17.55	322.23	18.16	-24.5	-24.9	17.1	0.00e+00	0	44	0	1872756736	9	3750
2026-01-16 07:05:20.56	321.52	18.16	-24.4	-24.6	17.2	0.00e+00	0	44	0	1894776832	9	3688
2026-01-16 07:05:23.56	320.82	18.16	-24.4	-24.7	17.2	0.00e+00	0	43	0	1916796928	9	3701
2026-01-16 07:05:26.56	320.11	18.16	-24.6	-25.0	17.0	0.00e+00	0	43	0	1938817024	9	3774
2026-01-16 07:05:29.57	319.40	18.15	-24.6	-25.0	17.0	0.00e+00	0	44	0	1959788544	9	3789
2026-01-16 07:05:32.57	318.70	18.13	-24.3	-24.5	17.3	0.00e+00	0	44	0	1981808640	9	3657
2026-01-16 07:05:35.57	317.99	18.11	-24.4	-24.6	17.2	0.00e+00	0	44	0	2003828736	9	3688
2026-01-16 07:05:38.57	317.29	18.09	-24.6	-25.0	17.0	0.00e+00	0	43	0	2024800256	9	3783
2026-01-16 07:05:41.57	316.59	18.06	-24.6	-25.0	16.9	0.00e+00	0	44	0	2046820352	9	3788
2026-01-16 07:05:44.58	315.88	18.03	-24.3	-24.3	17.3	0.00e+00	0	44	0	2068840448	9	3633
2026-01-16 07:05:47.60	315.18	17.99	-24.4	-24.6	17.2	0.00e+00	0	44	0	2089811968	9	3686
2026-01-16 07:05:50.60	314.48	17.95	-24.5	-24.9	17.0	0.00e+00	0	44	0	2111832064	9	3750
2026-01-16 07:05:53.60	313.79	17.91	-24.6	-25.2	16.9	0.00e+00	0	44	0	2133852160	9	3821
2026-01-16 07:05:56.60	313.09	17.86	-24.5	-24.9	17.0	0.00e+00	0	43	0	2154823680	9	3757
2026-01-16 07:05:59.59	312.40	17.80	-24.5	-24.9	17.0	0.00e+00	0	44	0	2176843776	9	3764
2026-01-16 07:06:02.59	311.71	17.75	-24.5	-24.8	17.0	0.00e+00	0	44	0	2197815296	9	3745
2026-01-16 07:06:05.59	311.03	17.68	-24.4	-24.7	17.1	0.00e+00	0	44	0	2219835392	9	3709
2026-01-16 07:06:08.60	310.34	17.62	-24.4	-24.6	17.2	0.00e+00	0	44	0	2241855488	9	3695
2026-01-16 07:06:11.60	309.66	17.55	-24.5	-24.9	17.0	0.00e+00	0	44	0	2262827008	9	3765
2026-01-16 07:06:14.60	308.99	17.47	-24.6	-25.0	17.0	0.00e+00	0	43	0	2284847104	9	3788
2026-01-16 07:06:17.61	308.31	17.40	-24.7	-25.2	16.9	0.00e+00	0	44	0	2306867200	9	3818
2026-01-16 07:06:20.61	307.64	17.32	-24.6	-24.9	17.0	0.00e+00	0	44	0	2328887296	9	3769
2026-01-16 07:06:23.62	306.97	17.23	-24.6	-25.0	16.9	0.00e+00	0	43	0	2349858816	9	3781
2026-01-16 07:06:26.63	306.31	17.14	-24.7	-25.3	16.8	0.00e+00	0	44	0	2371878912	9	3852
2026-01-16 07:06:29.63	305.65	17.05	-24.6	-25.2	16.8	0.00e+00	0	44	0	2393899008	9	3818
2026-01-16 07:06:32.64	304.99	16.95	-24.7	-25.2	16.8	0.00e+00	0	43	0	2414870528	9	3821
2026-01-16 07:06:35.64	304.34	16.85	-24.9	-25.6	16.6	0.00e+00	0	44	0	2436890624	9	3925
2026-01-16 07:06:38.65	303.69	16.75	-25.0	-25.9	16.4	0.00e+00	0	44	0	2458910720	9	4004
2026-01-16 07:06:41.64	303.06	16.65	-25.0	-25.5	16.4	0.00e+00	0	44	0	2479882240	10	3786
2026-01-16 07:06:44.65	302.42	16.54	-24.9	-25.2	16.6	0.00e+00	0	44	0	2501902336	10	3715
2026-01-16 07:06:47.65	301.78	16.42	-25.2	-25.8	16.3	0.00e+00	0	43	0	2523922432	10	3859
2026-01-16 07:06:50.66	301.16	16.31	-25.2	-25.9	16.2	0.00e+00	0	44	0	2545942528	10	3894
2026-01-16 07:06:53.67	300.53	16.19	-25.2	-25.9	16.2	0.00e+00	0	44	0	2566914048	10	3893
2026-01-16 07:06:56.68	299.91	16.07	-25.1	-25.5	16.3	0.00e+00	0	44	0	2588934144	10	3810
2026-01-16 07:06:59.69	299.30	15.94	-25.0	-25.3	16.4	0.00e+00	0	44	0	2610954240	10	3760
2026-01-16 07:07:02.69	298.69	15.82	-25.1	-25.6	16.3	0.00e+00	0	44	0	2631925760	10	3825
2026-01-16 07:07:05.69	298.09	15.69	-25.2	-25.8	16.2	0.00e+00	0	44	0	2653945856	10	3875
2026-01-16 07:07:08.70	297.49	15.56	-25.2	-25.9	16.1	0.00e+00	0	44	0	2675965952	10	3887
2026-01-16 07:07:11.72	296.89	15.42	-25.2	-25.7	16.2	0.00e+00	0	44	0	2697986048	10	3853
2026-01-16 07:07:14.73	296.31	15.29	-25.3	-26.0	16.1	0.00e+00	0	44	0	2718957568	10	3911
2026-01-16 07:07:17.74	295.72	15.15	-25.3	-26.2	16.0	0.00e+00	0	44	0	2740977664	10	3958
2026-01-16 07:07:20.75	295.15	15.01	-25.4	-26.4	15.8	0.00e+00	0	44	0	2761949184	10	4013
2026-01-16 07:07:23.76	294.57	14.87	-25.4	-25.8	15.9	0.00e+00	0	44	0	2783969280	11	3762
2026-01-16 07:07:26.77	294.01	14.72	-25.3	-25.6	16.0	0.00e+00	0	44	0	2805989376	11	3725
2026-01-16 07:07:29.77	293.45	14.57	-25.5	-25.9	15.8	0.00e+00	0	44	0	2828009472	11	3796
2026-01-16 07:07:32.78	292.89	14.43	-25.2	-25.3	16.1	0.00e+00	0	44	0	2848980992	11	3646
2026-01-16 07:07:35.79	292.35	14.28	-25.2	-25.3	16.1	0.00e+00	0	44	0	2871001088	11	3652
2026-01-16 07:07:38.80	291.80	14.12	-25.2	-25.4	16.0	0.00e+00	0	44	0	2893021184	11	3684
2026-01-16 07:07:41.81	291.26	13.97	-25.4	-25.8	15.8	0.00e+00	0	44	0	2915041280	11	3765
2026-01-16 07:07:44.83	290.73	13.82	-25.5	-26.0	15.7	0.00e+00	0	44	0	2936012800	11	3813
2026-01-16 07:07:47.84	290.20	13.66	-25.7	-26.4	15.5	0.00e+00	0	44	0	2958032896	11	3906
2026-01-16 07:07:50.84	289.68	13.50	-25.6	-26.3	15.5	0.00e+00	0	44	0	2980052992	11	3887
2026-01-16 07:07:53.85	289.17	13.34	-25.9	-27.0	15.1	0.00e+00	0	44	0	3001024512	11	4067
2026-01-16 07:07:56.85	288.66	13.18	-25.8	-26.3	15.1	0.00e+00	0	44	0	3023044608	12	3783
2026-01-16 07:07:59.87	288.15	13.02	-25.7	-26.0	15.2	0.00e+00	0	44	0	3045064704	12	3727
2026-01-16 07:08:02.88	287.65	12.86	-25.8	-26.2	15.2	0.00e+00	0	44	0	3067084800	12	3761
2026-01-16 07:08:05.89	287.16	12.69	-25.8	-26.3	15.1	1.10e-06	0	44	0	3088056320	12	3788
2026-01-16 07:08:08.90	286.67	12.53	-25.9	-26.3	15.1	0.00e+00	0	44	0	3110076416	12	3795
2026-01-16 07:08:11.90	286.19	12.36	-25.7	-25.9	15.3	0.00e+00	0	44	0	3132096512	12	3711
2026-01-16 07:08:14.90	285.72	12.20	-25.7	-26.0	15.2	0.00e+00	0	44	0	3153068032	12	3716
2026-01-16 07:08:17.92	285.24	12.03	-25.9	-26.4	14.9	0.00e+00	0	44	0	3175088128	12	3831
2026-01-16 07:08:20.93	284.78	11.86	-25.9	-26.4	15.0	0.00e+00	0	44	0	3197108224	12	3821
2026-01-16 07:08:23.94	284.32	11.70	-26.0	-26.7	14.8	0.00e+00	0	44	0	3219128320	12	3895
2026-01-16 07:08:26.95	283.86	11.53	-25.8	-26.3	15.0	0.00e+00	0	44	0	3240099840	12	3792
2026-01-16 07:08:29.95	283.41	11.36	-25.8	-26.2	15.1	0.00e+00	0	44	0	3262119936	12	3765
2026-01-16 07:08:32.95	282.97	11.19	-25.9	-26.5	14.9	0.00e+00	0	44	0	3283091456	12	3831
2026-01-16 07:08:35.96	282.53	11.02	-26.1	-26.9	14.7	0.00e+00	0	44	0	3305111552	12	3937
2026-01-16 07:08:38.97	282.10	10.85	-26.1	-27.0	14.6	0.00e+00	0	44	0	3327131648	12	3964
2026-01-16 07:08:41.97	281.67	10.67	-26.3	-27.2	14.5	0.00e+00	0	44	0	3349151744	12	4027
2026-01-16 07:08:44.97	281.25	10.50	-26.0	-26.7	14.7	0.00e+00	0	44	0	3370123264	12	3887
2026-01-16 07:08:47.97	280.83	10.33	-25.7	-26.1	15.1	0.00e+00	0	44	0	3392143360	12	3750
2026-01-16 07:08:50.98	280.41	10.16	-25.9	-26.4	14.9	0.00e+00	0	44	0	3414163456	12	3830
2026-01-16 07:08:53.99	280.00	9.99	-26.2	-27.1	14.5	0.00e+00	0	44	0	3435134976	12	4004
2026-01-16 07:08:57.00	279.60	9.81	-26.5	-27.7	14.1	1.10e-06	0	44	0	3457155072	12	4151
2026-01-16 07:09:00.00	279.20	9.64	-26.5	-27.3	14.1	2.20e-06	0	44	0	3479175168	13	3947
2026-01-16 07:09:03.01	278.81	9.47	-26.5	-27.2	14.1	1.10e-06	0	44	0	3501195264	13	3915
2026-01-16 07:09:06.02	278.42	9.30	-26.4	-27.0	14.2	0.00e+00	0	44	0	3522166784	13	3862
2026-01-16 07:09:09.03	278.03	9.12	-26.3	-26.9	14.2	0.00e+00	0	44	0	3544186880	13	3852
2026-01-16 07:09:12.04	277.65	8.95	-26.3	-26.8	14.3	1.10e-06	0	44	0	3566206976	13	3821
2026-01-16 07:09:15.05	277.28	8.78	-26.4	-27.0	14.1	0.00e+00	0	44	0	3587178496	13	3879
2026-01-16 07:09:18.06	276.90	8.60	-26.4	-27.1	14.2	2.20e-06	0	44	0	3609198592	13	3883
2026-01-16 07:09:21.07	276.54	8.43	-26.7	-27.8	13.7	8.00e-06	0	44	0	3631218688	13	4072
2026-01-16 07:09:24.08	276.17	8.26	-26.8	-28.0	13.6	5.70e-06	0	44	0	3653238784	13	4127
2026-01-16 07:09:27.08	275.82	8.08	-27.2	-28.4	13.1	1.83e-05	0	44	0	3674210304	14	4122
2026-01-16 07:09:30.08	275.46	7.91	-27.0	-28.1	13.2	1.25e-05	0	44	0	3696230400	14	4046
2026-01-16 07:09:33.08	275.12	7.74	-27.0	-27.8	13.3	1.25e-05	0	44	0	3718250496	14	3989
2026-01-16 07:09:36.09	274.77	7.57	-27.0	-28.0	13.2	2.28e-05	0	44	0	3739222016	14	4040
2026-01-16 07:09:39.09	274.43	7.39	-27.1	-28.1	13.2	2.40e-05	0	44	0	3761242112	14	4053
2026-01-16 07:09:42.09	274.09	7.22	-27.0	-27.9	13.2	3.43e-05	0	44	0	3783262208	14	4017
2026-01-16 07:09:45.09	273.76	7.05	-27.1	-28.1	13.1	1.83e-05	0	44	0	3804233728	14	4062
2026-01-16 07:09:48.10	273.43	6.88	-33.8	-43.5	3.8	8.47e-01	0	44	104	3806330880	27	10949

#Closed at: 2026-01-16 07:09:48
#Recorded file [3806 MB]: D:/data/31010_260116_100057.dat