passes_logs/2026/01/16/R2M6_AANII_01/R2M6_AANII_01__20260116_231756_NOAA_20_JPSS-1_rec.log

#Pass ID: 20260116_231756_NOAA 20 (JPSS-1)
#Satellite: NOAA 20 (JPSS-1)
#Configuration: NOAA 20
#almurnet v.1.7.20240730
#Start time: 2026-01-16 23:17:58

#Version: 2.2.20231116
#Station: R2M6_AANII_01
#Location: 30.233357 lon 59.946436 lat
#TLE: 1 43013U 17073A   26016.24631778  .00000038  00000+0  39093-4 0  9990
#TLE: 2 43013  98.7637 317.1726 0001455  37.6755 322.4523 14.19536243422915

#Time	Az	El	Level	Level2	SNR	BER	BlckErr	Temp	State	Recorded	gain1	gain2
2026-01-16 23:17:58.13	24.84	7.08	-31.7	-39.2	4.7	1.32e+00	0	41	0	0	23	8480
2026-01-16 23:18:01.13	25.02	7.30	-32.2	-41.5	4.8	8.04e-01	0	41	0	1048576	24	10583
2026-01-16 23:18:04.14	25.22	7.51	-31.9	-39.7	6.0	3.88e-01	0	41	0	7340032	24	8747
2026-01-16 23:18:07.15	25.41	7.73	-31.3	-36.7	8.6	5.25e-02	0	41	0	12582912	23	6721
2026-01-16 23:18:10.14	25.61	7.95	-31.3	-37.3	8.5	3.92e-02	0	41	0	17825792	22	7173
2026-01-16 23:18:13.14	25.81	8.17	-31.0	-35.9	9.7	1.14e-02	0	42	0	24117248	22	6325
2026-01-16 23:18:16.15	26.01	8.39	-30.2	-36.2	8.9	2.21e-02	0	42	0	29360128	21	7153
2026-01-16 23:18:19.16	26.21	8.62	-30.6	-34.9	10.8	3.26e-03	0	42	0	35651584	21	5916
2026-01-16 23:18:22.16	26.42	8.84	-30.4	-34.9	11.2	1.54e-03	0	42	0	40894464	20	6000
2026-01-16 23:18:25.18	26.64	9.07	-30.4	-34.6	11.5	2.07e-03	0	42	0	46137344	20	5878
2026-01-16 23:18:28.18	26.85	9.30	-30.4	-34.7	11.4	2.45e-03	0	42	0	52428800	20	5905
2026-01-16 23:18:31.18	27.07	9.53	-30.2	-34.1	11.9	8.93e-04	0	42	0	57671680	20	5627
2026-01-16 23:18:34.19	27.29	9.76	-30.2	-33.9	12.0	1.11e-03	0	42	0	62914560	20	5558
2026-01-16 23:18:37.19	27.51	10.00	-30.4	-34.6	11.6	8.37e-04	0	42	0	69206016	20	5830
2026-01-16 23:18:40.19	27.74	10.23	-30.3	-34.3	11.8	1.48e-03	0	42	0	74448896	20	5718
2026-01-16 23:18:43.19	27.97	10.47	-30.3	-34.3	11.8	1.24e-03	0	42	0	80740352	20	5710
2026-01-16 23:18:46.19	28.21	10.71	-30.4	-34.5	11.7	1.80e-03	0	42	0	85983232	20	5791
2026-01-16 23:18:49.19	28.44	10.95	-30.1	-33.8	12.3	1.02e-03	0	42	0	91226112	20	5481
2026-01-16 23:18:52.21	28.69	11.20	-30.0	-33.3	12.7	7.12e-04	0	42	0	97517568	20	5269
2026-01-16 23:18:55.21	28.93	11.45	-29.9	-33.1	12.8	6.27e-04	0	42	0	102760448	20	5199
2026-01-16 23:18:58.21	29.18	11.69	-29.9	-33.6	12.9	1.01e-03	0	42	0	108003328	19	5492
2026-01-16 23:19:01.21	29.44	11.94	-30.0	-33.4	12.7	1.32e-03	0	42	0	114294784	20	5301
2026-01-16 23:19:04.22	29.70	12.20	-29.9	-33.6	12.9	1.20e-03	0	42	0	119537664	19	5487
2026-01-16 23:19:07.22	29.96	12.45	-29.8	-33.1	13.2	9.54e-04	0	42	0	124780544	19	5290
2026-01-16 23:19:10.21	30.22	12.71	-29.7	-33.1	13.3	1.12e-03	0	43	0	131072000	19	5272
2026-01-16 23:19:13.21	30.49	12.97	-29.6	-32.5	13.6	7.60e-06	0	43	0	136314880	19	5060
2026-01-16 23:19:16.21	30.77	13.23	-29.5	-32.4	13.8	1.12e-03	0	43	0	142606336	19	5019
2026-01-16 23:19:19.22	31.05	13.49	-29.6	-32.6	13.6	9.93e-04	0	43	0	147849216	19	5097
2026-01-16 23:19:22.23	31.34	13.76	-28.6	-32.0	13.9	7.98e-04	0	43	0	153092096	18	5295
2026-01-16 23:19:25.24	31.63	14.03	-29.5	-32.7	13.6	9.84e-04	0	43	0	159383552	18	5235
2026-01-16 23:19:28.24	31.92	14.30	-29.6	-32.6	13.7	8.41e-04	0	43	0	164626432	19	5094
2026-01-16 23:19:31.25	32.22	14.57	-29.8	-33.1	13.3	6.10e-06	0	43	0	169869312	19	5275
2026-01-16 23:19:34.25	32.53	14.85	-29.9	-33.3	13.3	1.75e-05	0	43	0	176160768	19	5348
2026-01-16 23:19:37.26	32.84	15.12	-29.9	-33.3	13.3	1.37e-05	0	43	0	181403648	19	5344
2026-01-16 23:19:40.26	33.16	15.40	-29.8	-33.2	13.3	4.69e-04	0	43	0	187695104	19	5314
2026-01-16 23:19:43.27	33.48	15.69	-30.0	-33.1	13.0	4.30e-04	0	43	0	192937984	20	5181
2026-01-16 23:19:46.27	33.81	15.97	-29.8	-33.2	13.4	1.67e-05	0	43	0	198180864	19	5296
2026-01-16 23:19:49.28	34.15	16.26	-29.8	-33.0	13.5	2.28e-05	0	43	0	204472320	19	5227
2026-01-16 23:19:52.28	34.49	16.55	-29.8	-33.1	13.5	7.60e-06	0	43	0	209715200	19	5253
2026-01-16 23:19:55.28	34.83	16.84	-29.8	-33.0	13.6	1.22e-05	0	43	0	214958080	19	5213
2026-01-16 23:19:58.29	35.19	17.14	-29.9	-33.2	13.4	1.70e-04	0	43	0	221249536	19	5305
2026-01-16 23:20:01.29	35.55	17.44	-29.9	-33.0	13.2	1.31e-04	0	43	0	226492416	20	5122
2026-01-16 23:20:04.29	35.92	17.74	-30.3	-33.9	12.6	6.10e-05	0	43	0	232783872	20	5468
2026-01-16 23:20:07.29	36.29	18.04	-30.4	-34.4	12.3	1.88e-04	0	43	0	238026752	20	5672
2026-01-16 23:20:10.29	36.67	18.34	-30.6	-34.3	12.1	3.58e-04	0	43	0	243269632	21	5519
2026-01-16 23:20:13.31	37.06	18.65	-30.4	-33.7	12.5	1.56e-04	0	43	0	249561088	21	5255
2026-01-16 23:20:16.31	37.46	18.96	-30.4	-34.3	12.4	1.18e-04	0	43	0	254803968	20	5638
2026-01-16 23:20:19.31	37.87	19.28	-30.4	-33.8	12.4	1.34e-04	0	43	0	260046848	21	5303
2026-01-16 23:20:22.31	38.28	19.59	-30.2	-33.1	13.0	5.87e-05	0	43	0	266338304	21	5028
2026-01-16 23:20:25.30	38.70	19.91	-30.0	-33.2	13.2	1.73e-04	0	43	0	271581184	20	5183
2026-01-16 23:20:28.30	39.13	20.23	-30.3	-33.8	12.9	5.95e-05	0	43	0	277872640	20	5396
2026-01-16 23:20:31.30	39.57	20.56	-30.3	-34.0	12.7	2.31e-04	0	43	0	283115520	20	5503
2026-01-16 23:20:34.30	40.02	20.88	-30.3	-33.8	12.9	7.16e-04	0	43	0	288358400	20	5393
2026-01-16 23:20:37.31	40.47	21.21	-30.3	-33.8	12.9	4.91e-04	0	43	0	294649856	20	5403
2026-01-16 23:20:40.31	40.94	21.54	-30.3	-33.7	13.0	4.04e-05	0	43	0	299892736	20	5361
2026-01-16 23:20:43.32	41.42	21.88	-30.1	-33.3	13.3	1.15e-04	0	43	0	305135616	20	5206
2026-01-16 23:20:46.32	41.91	22.21	-30.0	-32.9	13.5	3.66e-05	0	43	0	311427072	20	5064
2026-01-16 23:20:49.33	42.41	22.55	-29.8	-32.6	13.8	1.37e-05	0	43	0	316669952	20	4923
2026-01-16 23:20:52.33	42.91	22.90	-30.0	-32.9	13.5	4.95e-05	0	43	0	321912832	20	5050
2026-01-16 23:20:55.33	43.43	23.24	-29.8	-32.4	13.9	3.00e-06	0	43	0	328204288	20	4870
2026-01-16 23:20:58.34	43.96	23.58	-29.7	-32.2	14.0	1.04e-04	0	43	0	333447168	20	4781
2026-01-16 23:21:01.35	44.51	23.93	-29.7	-32.7	14.1	2.20e-06	0	43	0	339738624	19	5055
2026-01-16 23:21:04.36	45.06	24.28	-29.5	-32.0	14.6	2.20e-06	0	43	0	344981504	19	4816
2026-01-16 23:21:07.36	45.63	24.64	-29.3	-31.6	14.8	0.00e+00	0	43	0	350224384	19	4685
2026-01-16 23:21:10.35	46.21	24.99	-29.3	-31.9	15.0	0.00e+00	0	43	0	356515840	18	4893
2026-01-16 23:21:13.35	46.80	25.34	-29.2	-31.8	15.0	0.00e+00	0	43	0	361758720	18	4855
2026-01-16 23:21:16.36	47.40	25.70	-29.2	-31.9	15.0	7.00e-07	0	43	0	367001600	18	4873
2026-01-16 23:21:19.37	48.02	26.06	-29.3	-31.9	15.0	0.00e+00	0	43	0	373293056	18	4895
2026-01-16 23:21:22.37	48.65	26.42	-29.3	-32.1	14.9	0.00e+00	0	43	0	378535936	18	4949
2026-01-16 23:21:25.37	49.30	26.78	-29.8	-32.7	14.2	1.50e-06	0	44	0	384827392	19	5051
2026-01-16 23:21:28.38	49.96	27.14	-30.0	-33.3	13.9	1.50e-06	0	43	0	390070272	19	5280
2026-01-16 23:21:31.39	50.64	27.51	-30.1	-33.1	13.5	1.29e-05	0	43	0	395313152	20	5116
2026-01-16 23:21:34.40	51.33	27.87	-30.2	-33.5	13.3	6.80e-06	0	43	0	401604608	20	5261
2026-01-16 23:21:37.41	52.04	28.24	-30.1	-33.2	13.5	1.60e-05	0	43	0	406847488	20	5139
2026-01-16 23:21:40.40	52.76	28.60	-30.3	-33.8	13.1	2.13e-05	0	43	0	412090368	20	5351
2026-01-16 23:21:43.41	53.50	28.96	-30.8	-34.5	12.3	8.77e-05	0	43	0	418381824	21	5558
2026-01-16 23:21:46.41	54.26	29.33	-31.1	-35.1	11.6	6.91e-04	0	43	0	423624704	22	5668
2026-01-16 23:21:49.41	55.03	29.69	-31.0	-34.6	12.0	4.80e-04	0	43	0	429916160	22	5466
2026-01-16 23:21:52.41	55.82	30.05	-31.0	-34.8	11.8	4.24e-04	0	43	0	435159040	22	5539
2026-01-16 23:21:55.42	56.63	30.41	-31.5	-35.8	10.8	2.27e-03	0	43	0	440401920	23	5905
2026-01-16 23:21:58.42	57.45	30.77	-31.9	-37.1	9.8	7.84e-03	0	43	0	446693376	23	6563
2026-01-16 23:22:01.42	58.29	31.13	-32.3	-38.2	8.6	3.80e-02	0	43	0	451936256	24	7091
2026-01-16 23:22:04.43	59.16	31.48	-32.2	-37.6	9.0	2.93e-02	0	43	0	457179136	24	6728
2026-01-16 23:22:07.43	60.04	31.83	-32.2	-37.7	9.0	2.19e-02	0	43	0	463470592	24	6811
2026-01-16 23:22:10.44	60.94	32.18	-32.4	-38.4	8.5	4.10e-02	0	43	0	468713472	24	7207
2026-01-16 23:22:13.45	61.86	32.53	-32.0	-37.0	9.5	1.95e-02	0	44	0	475004928	24	6407
2026-01-16 23:22:16.46	62.80	32.87	-32.1	-37.2	9.4	1.67e-02	0	43	0	480247808	24	6499
2026-01-16 23:22:19.47	63.76	33.20	-31.8	-36.3	10.0	9.83e-03	0	43	0	485490688	24	6042
2026-01-16 23:22:22.48	64.74	33.53	-31.9	-36.6	9.8	9.10e-03	0	43	0	491782144	24	6197
2026-01-16 23:22:25.49	65.74	33.86	-31.7	-36.1	10.2	6.69e-03	0	43	0	497025024	24	5935
2026-01-16 23:22:28.49	66.75	34.18	-31.7	-35.8	10.4	4.93e-03	0	43	0	502267904	24	5788
2026-01-16 23:22:31.49	67.79	34.49	-31.0	-34.2	11.9	4.74e-04	0	43	0	508559360	23	5176
2026-01-16 23:22:34.50	68.85	34.79	-31.4	-35.4	11.1	1.40e-03	0	43	0	513802240	23	5682
2026-01-16 23:22:37.51	69.92	35.09	-31.2	-34.8	11.5	8.42e-04	0	43	0	520093696	23	5430
2026-01-16 23:22:40.52	71.02	35.37	-30.9	-33.8	12.3	4.54e-04	0	43	0	525336576	23	5019
2026-01-16 23:22:43.52	72.13	35.65	-30.7	-33.6	12.7	1.57e-04	0	43	0	530579456	22	5066
2026-01-16 23:22:46.52	73.26	35.92	-30.9	-34.2	12.3	2.33e-04	0	44	0	536870912	22	5304
2026-01-16 23:22:49.51	74.41	36.18	-30.4	-32.9	13.2	2.97e-05	0	43	0	542113792	22	4785
2026-01-16 23:22:52.52	75.58	36.43	-30.3	-33.2	13.3	1.22e-05	0	43	0	547356672	21	5027
2026-01-16 23:22:55.52	76.76	36.66	-30.5	-33.8	12.9	5.34e-05	0	43	0	553648128	21	5248
2026-01-16 23:22:58.54	77.97	36.89	-30.8	-34.1	12.3	2.37e-04	0	43	0	558891008	22	5238
2026-01-16 23:23:01.54	79.19	37.10	-30.7	-34.3	12.6	9.38e-05	0	43	0	565182464	21	5465
2026-01-16 23:23:04.55	80.42	37.30	-30.5	-33.8	12.9	4.57e-05	0	43	0	570425344	21	5229
2026-01-16 23:23:07.56	81.67	37.48	-31.2	-35.3	11.5	6.61e-04	0	43	0	575668224	22	5766
2026-01-16 23:23:10.54	82.92	37.65	-31.3	-35.4	11.5	1.14e-03	0	43	0	581959680	22	5806
2026-01-16 23:23:13.54	84.20	37.81	-31.2	-35.3	11.5	7.42e-04	0	43	0	587202560	22	5757
2026-01-16 23:23:16.55	85.49	37.95	-31.3	-35.7	11.2	1.02e-03	0	43	0	592445440	22	5948
2026-01-16 23:23:19.55	86.78	38.07	-31.4	-35.4	11.1	1.48e-03	0	44	0	598736896	23	5698
2026-01-16 23:23:22.55	88.08	38.18	-31.5	-35.6	11.0	2.19e-03	0	44	0	603979776	23	5804
2026-01-16 23:23:25.56	89.40	38.27	-31.6	-36.0	10.7	4.05e-03	0	43	0	609222656	23	5953
2026-01-16 23:23:28.56	90.72	38.35	-31.9	-37.0	9.9	5.88e-03	0	44	0	615514112	23	6505
2026-01-16 23:23:31.57	92.05	38.41	-32.1	-37.4	9.3	2.07e-02	0	43	0	620756992	24	6632
2026-01-16 23:23:34.57	93.38	38.45	-31.4	-34.8	11.2	2.17e-03	0	44	0	627048448	24	5329
2026-01-16 23:23:37.58	94.71	38.48	-31.0	-34.2	12.0	2.46e-04	0	44	0	632291328	23	5180
2026-01-16 23:23:40.59	96.05	38.49	-31.5	-35.8	10.8	2.29e-03	0	43	0	637534208	23	5887
2026-01-16 23:23:43.60	97.39	38.48	-31.2	-34.6	11.7	9.06e-04	0	43	0	643825664	23	5359
2026-01-16 23:23:46.60	98.72	38.46	-30.8	-33.5	12.5	1.80e-04	0	43	0	649068544	23	4892
2026-01-16 23:23:49.62	100.06	38.41	-31.2	-35.1	11.7	4.07e-04	0	43	0	654311424	22	5669
2026-01-16 23:23:52.61	101.38	38.35	-31.1	-35.0	11.8	5.94e-04	0	44	0	660602880	22	5612
2026-01-16 23:23:55.62	102.70	38.28	-31.9	-37.1	9.9	6.33e-03	0	43	0	665845760	23	6525
2026-01-16 23:23:58.62	104.02	38.19	-32.6	-38.8	7.8	7.25e-02	0	44	0	672137216	25	7408
2026-01-16 23:24:01.63	105.33	38.08	-32.5	-38.6	7.9	6.17e-02	0	43	0	677380096	25	7252
2026-01-16 23:24:04.65	106.63	37.95	-32.2	-37.3	8.9	2.29e-02	0	44	0	682622976	25	6465
2026-01-16 23:24:07.66	107.92	37.81	-32.2	-37.3	8.9	2.40e-02	0	43	0	688914432	25	6426
2026-01-16 23:24:10.67	109.20	37.65	-31.5	-35.1	11.0	4.69e-03	0	43	0	694157312	24	5453
2026-01-16 23:24:13.67	110.46	37.48	-31.3	-35.0	11.4	8.11e-04	0	44	0	699400192	23	5505
2026-01-16 23:24:16.68	111.72	37.30	-31.0	-34.3	11.8	2.28e-04	0	44	0	705691648	23	5226
2026-01-16 23:24:19.70	112.96	37.10	-30.9	-34.0	12.1	2.52e-04	0	44	0	710934528	23	5108
2026-01-16 23:24:22.71	114.18	36.89	-30.8	-34.2	12.2	3.16e-04	0	44	0	717225984	22	5280
2026-01-16 23:24:25.72	115.39	36.66	-31.0	-34.8	11.9	1.03e-03	0	43	0	722468864	22	5539
2026-01-16 23:24:28.72	116.58	36.43	-30.0	-32.3	13.8	4.50e-06	0	44	0	727711744	21	4705
2026-01-16 23:24:31.73	117.75	36.18	-30.8	-34.8	12.2	1.58e-04	0	44	0	734003200	21	5656
2026-01-16 23:24:34.73	118.90	35.92	-29.2	-31.3	15.1	7.00e-07	0	43	0	739246080	19	4561
2026-01-16 23:24:37.75	120.04	35.65	-30.0	-32.9	13.7	1.50e-06	0	43	0	745537536	20	5036
2026-01-16 23:24:40.76	121.16	35.37	-29.3	-31.1	14.8	7.00e-07	0	44	0	750780416	20	4415
2026-01-16 23:24:43.76	122.26	35.08	-29.8	-32.4	14.0	2.67e-05	0	44	0	756023296	20	4824
2026-01-16 23:24:46.76	123.33	34.78	-29.2	-31.3	15.2	7.00e-07	0	44	0	762314752	19	4560
2026-01-16 23:24:49.77	124.39	34.48	-30.4	-34.1	12.9	3.58e-05	0	43	0	767557632	20	5469
2026-01-16 23:24:52.79	125.44	34.16	-29.9	-32.6	13.9	1.50e-06	0	43	0	772800512	20	4926
2026-01-16 23:24:55.80	126.46	33.84	-30.9	-34.9	11.9	2.55e-04	0	43	0	779091968	21	5724
2026-01-16 23:24:58.81	127.46	33.52	-30.8	-34.6	12.3	1.39e-04	0	44	0	784334848	21	5580
2026-01-16 23:25:01.81	128.44	33.18	-31.6	-36.2	10.4	5.30e-03	0	43	0	790626304	23	6100
2026-01-16 23:25:04.81	129.40	32.85	-30.1	-32.7	13.4	1.67e-05	0	44	0	795869184	21	4860
2026-01-16 23:25:07.80	130.34	32.51	-31.3	-35.8	11.0	8.50e-04	0	43	0	801112064	22	6043
2026-01-16 23:25:10.81	131.26	32.16	-30.5	-33.3	12.8	1.85e-04	0	44	0	807403520	22	4969
2026-01-16 23:25:13.82	132.17	31.81	-31.1	-35.4	11.3	4.46e-04	0	44	0	812646400	22	5855
2026-01-16 23:25:16.83	133.05	31.46	-30.6	-33.7	12.4	3.69e-04	0	44	0	817889280	22	5156
2026-01-16 23:25:19.85	133.92	31.10	-30.8	-34.9	11.8	2.86e-04	0	43	0	824180736	21	5807
2026-01-16 23:25:22.85	134.77	30.74	-31.7	-37.0	9.6	1.67e-02	0	44	0	829423616	23	6618
2026-01-16 23:25:25.86	135.60	30.38	-31.0	-34.9	11.6	6.42e-04	0	44	0	835715072	22	5631
2026-01-16 23:25:28.88	136.41	30.01	-31.7	-36.6	9.9	3.68e-03	0	43	0	840957952	23	6371
2026-01-16 23:25:31.89	137.20	29.65	-30.0	-32.8	13.2	9.53e-05	0	44	0	846200832	21	4967
2026-01-16 23:25:34.90	137.98	29.28	-30.5	-34.0	12.2	5.41e-05	0	44	0	852492288	21	5362
2026-01-16 23:25:37.91	138.74	28.92	-30.3	-33.2	13.0	1.51e-04	0	44	0	857735168	21	5060
2026-01-16 23:25:40.91	139.48	28.55	-29.5	-32.5	14.5	0.00e+00	0	44	0	862978048	18	5116
2026-01-16 23:25:43.92	140.21	28.18	-30.2	-33.6	13.1	2.36e-05	0	44	0	869269504	20	5304
2026-01-16 23:25:46.93	140.92	27.82	-29.4	-32.5	14.5	1.63e-03	0	44	0	874512384	18	5096
2026-01-16 23:25:49.94	141.61	27.45	-29.3	-32.0	14.8	1.46e-03	0	43	0	880803840	18	4929
2026-01-16 23:25:52.94	142.29	27.09	-29.6	-32.5	14.1	2.20e-06	0	43	0	886046720	19	4999
2026-01-16 23:25:55.95	142.95	26.72	-29.0	-31.4	15.1	0.00e+00	0	44	0	891289600	18	4749
2026-01-16 23:25:58.95	143.60	26.36	-29.1	-31.6	15.0	0.00e+00	0	43	0	897581056	18	4819
2026-01-16 23:26:01.96	144.23	25.99	-30.2	-33.8	12.8	4.04e-05	0	43	0	902823936	20	5399
2026-01-16 23:26:04.97	144.85	25.63	-29.2	-31.8	14.8	2.24e-03	0	43	0	908066816	18	4884
2026-01-16 23:26:07.96	145.46	25.27	-28.9	-31.7	15.2	2.17e-03	0	44	0	914358272	17	4942
2026-01-16 23:26:10.96	146.05	24.92	-29.5	-32.1	14.2	1.99e-03	0	44	0	919601152	19	4893
2026-01-16 23:26:13.97	146.63	24.56	-28.6	-30.9	15.6	2.20e-03	0	44	0	925892608	17	4690
2026-01-16 23:26:16.99	147.20	24.20	-27.8	-30.1	16.5	2.15e-03	0	43	0	931135488	15	4679
2026-01-16 23:26:20.00	147.76	23.85	-28.6	-31.0	15.5	2.01e-03	0	44	0	936378368	17	4734
2026-01-16 23:26:23.00	148.30	23.50	-28.8	-31.6	15.2	2.26e-03	0	44	0	942669824	17	4929
2026-01-16 23:26:26.01	148.83	23.15	-28.9	-31.7	15.0	2.11e-03	0	44	0	947912704	17	4985
2026-01-16 23:26:29.02	149.35	22.81	-29.0	-31.6	14.9	2.12e-03	0	44	0	953155584	18	4826
2026-01-16 23:26:32.03	149.86	22.46	-29.1	-31.7	14.7	2.49e-03	0	44	0	959447040	18	4871
2026-01-16 23:26:35.03	150.36	22.12	-28.7	-31.2	15.3	2.30e-03	0	43	0	964689920	17	4785
2026-01-16 23:26:38.03	150.84	21.78	-28.8	-31.4	15.1	0.00e+00	0	43	0	970981376	17	4886
2026-01-16 23:26:41.04	151.32	21.45	-29.1	-31.7	14.7	7.00e-07	0	43	0	976224256	18	4853
2026-01-16 23:26:44.04	151.79	21.11	-29.3	-32.1	14.4	2.27e-03	0	44	0	981467136	18	5012
2026-01-16 23:26:47.05	152.25	20.78	-29.3	-32.1	14.4	2.16e-03	0	44	0	987758592	18	5011
2026-01-16 23:26:50.06	152.70	20.45	-29.8	-33.2	13.3	2.51e-03	0	44	0	993001472	19	5293
2026-01-16 23:26:53.06	153.14	20.12	-30.0	-33.3	12.9	2.62e-03	0	44	0	999292928	20	5245
2026-01-16 23:26:56.06	153.57	19.80	-29.7	-32.8	13.6	1.44e-05	0	44	0	1004535808	19	5163
2026-01-16 23:26:59.06	153.99	19.48	-29.4	-32.6	14.0	1.50e-06	0	44	0	1009778688	18	5203
2026-01-16 23:27:02.06	154.40	19.16	-29.6	-32.7	13.5	8.30e-06	0	44	0	1016070144	19	5184
2026-01-16 23:27:05.07	154.81	18.85	-29.6	-32.9	13.4	7.60e-06	0	44	0	1021313024	19	5236
2026-01-16 23:27:08.08	155.20	18.53	-29.9	-33.5	13.1	2.53e-03	0	43	0	1026555904	19	5441
2026-01-16 23:27:11.07	155.59	18.22	-29.8	-33.1	13.3	3.81e-05	0	43	0	1032847360	19	5291
2026-01-16 23:27:14.08	155.97	17.92	-29.6	-32.7	13.5	1.44e-05	0	44	0	1038090240	19	5154
2026-01-16 23:27:17.06	156.34	17.61	-29.6	-32.7	13.4	1.83e-05	0	44	0	1043333120	19	5168
2026-01-16 23:27:20.07	156.71	17.31	-29.4	-32.7	13.8	9.10e-06	0	44	0	1049624576	18	5268
2026-01-16 23:27:23.08	157.07	17.01	-29.7	-32.8	13.4	9.90e-06	0	44	0	1054867456	19	5181
2026-01-16 23:27:26.09	157.43	16.71	-29.9	-33.4	13.0	1.37e-05	0	44	0	1061158912	19	5404
2026-01-16 23:27:29.08	157.77	16.42	-29.8	-33.3	13.1	2.44e-05	0	44	0	1066401792	19	5371
2026-01-16 23:27:32.08	158.11	16.13	-29.9	-33.1	12.7	4.88e-05	0	44	0	1071644672	20	5214
2026-01-16 23:27:35.09	158.44	15.84	-30.0	-33.7	12.8	4.34e-05	0	44	0	1077936128	19	5550
2026-01-16 23:27:38.08	158.77	15.55	-30.0	-33.6	12.3	2.55e-04	0	43	0	1083179008	20	5476
2026-01-16 23:27:41.10	159.09	15.27	-30.6	-34.8	11.1	1.03e-03	0	44	0	1088421888	21	5811
2026-01-16 23:27:44.10	159.41	14.99	-30.2	-34.0	12.0	2.74e-04	0	44	0	1094713344	20	5602
2026-01-16 23:27:47.10	159.72	14.71	-30.2	-34.0	12.0	3.55e-04	0	44	0	1099956224	20	5615
2026-01-16 23:27:50.11	160.02	14.43	-29.9	-33.3	12.5	1.85e-04	0	44	0	1106247680	20	5301
2026-01-16 23:27:53.12	160.32	14.15	-29.8	-33.3	12.8	5.34e-05	0	44	0	1111490560	19	5441
2026-01-16 23:27:56.12	160.62	13.88	-29.7	-33.3	12.8	5.95e-05	0	44	0	1116733440	19	5434
2026-01-16 23:27:59.13	160.91	13.61	-29.7	-33.4	12.7	8.54e-05	0	43	0	1123024896	19	5497
2026-01-16 23:28:02.14	161.19	13.34	-29.9	-33.9	12.3	1.40e-04	0	44	0	1128267776	19	5705
2026-01-16 23:28:05.14	161.47	13.08	-29.9	-33.3	12.3	2.01e-04	0	44	0	1133510656	20	5353
2026-01-16 23:28:08.13	161.74	12.82	-29.9	-33.4	12.3	4.36e-04	0	44	0	1139802112	20	5373
2026-01-16 23:28:11.14	162.01	12.56	-29.9	-33.4	12.3	3.68e-04	0	44	0	1145044992	20	5360
2026-01-16 23:28:14.15	162.28	12.30	-30.0	-33.5	12.2	3.89e-04	0	44	0	1151336448	20	5408
2026-01-16 23:28:17.16	162.54	12.04	-30.3	-34.5	11.4	1.04e-03	0	44	0	1156579328	20	5878
2026-01-16 23:28:20.16	162.80	11.79	-29.9	-33.6	12.1	4.26e-04	0	44	0	1161822208	20	5462
2026-01-16 23:28:23.17	163.05	11.53	-30.0	-33.9	11.8	5.80e-04	0	44	0	1168113664	20	5625
2026-01-16 23:28:26.18	163.30	11.28	-30.0	-34.1	11.6	7.59e-04	0	44	0	1173356544	20	5726
2026-01-16 23:28:29.19	163.54	11.04	-30.2	-34.5	11.2	1.32e-03	0	44	0	1178599424	20	5945
2026-01-16 23:28:32.19	163.78	10.79	-30.2	-34.8	11.0	2.35e-03	0	44	0	1184890880	20	6122
2026-01-16 23:28:35.19	164.02	10.55	-30.5	-35.8	10.2	5.50e-03	0	44	0	1190133760	20	6630
2026-01-16 23:28:38.19	164.25	10.31	-30.6	-35.6	9.9	7.79e-03	0	44	0	1196425216	21	6425
2026-01-16 23:28:41.19	164.48	10.07	-30.6	-35.7	9.8	1.02e-02	0	43	0	1201668096	21	6515
2026-01-16 23:28:44.19	164.71	9.83	-30.2	-34.5	11.2	3.20e-03	0	44	0	1206910976	20	5945
2026-01-16 23:28:47.19	164.93	9.59	-30.2	-34.6	11.2	1.19e-03	0	44	0	1213202432	20	5921
2026-01-16 23:28:50.19	165.15	9.36	-30.3	-34.6	11.2	1.62e-03	0	43	0	1218445312	20	5914
2026-01-16 23:28:53.18	165.36	9.13	-30.0	-33.9	11.6	7.22e-04	0	44	0	1223688192	20	5634
2026-01-16 23:28:56.20	165.57	8.90	-30.2	-34.7	11.1	1.48e-03	0	44	0	1229979648	20	5993
2026-01-16 23:28:59.20	165.78	8.67	-30.5	-35.6	10.3	4.44e-03	0	44	0	1235222528	20	6475
2026-01-16 23:29:02.22	165.99	8.44	-30.4	-34.7	10.5	4.53e-03	0	44	0	1240465408	21	5936
2026-01-16 23:29:05.22	166.19	8.21	-30.6	-35.4	10.0	6.92e-03	0	44	0	1246756864	21	6273
2026-01-16 23:29:08.23	166.39	7.99	-30.7	-36.0	9.6	1.65e-02	0	44	0	1251999744	21	6592
2026-01-16 23:29:11.22	166.59	7.77	-30.9	-36.4	9.2	1.97e-02	0	44	0	1258291200	21	6820
2026-01-16 23:29:14.23	166.79	7.55	-30.9	-36.4	9.2	1.93e-02	0	43	0	1263534080	21	6825
2026-01-16 23:29:17.23	166.98	7.33	-32.2	-46.6	3.8	1.49e+00	0	44	104	1265631232	24	18830
2026-01-16 23:29:20.24	167.17	7.11	-32.1	-46.4	3.8	1.49e+00	0	44	104	1265631232	24	18696
2026-01-16 23:29:23.26	167.35	6.90	-33.3	-47.8	3.8	1.49e+00	0	44	104	1265631232	26	19098

#Closed at: 2026-01-16 23:29:23
#Recorded file [1265 MB]: D:/data/31010_260117_021800.dat