passes_logs/2026/01/16/R2M6_AANII_01/R2M6_AANII_01__20260116_104910_SUOMI_NPP_rec.log

#Pass ID: 20260116_104910_SUOMI NPP
#Satellite: SUOMI NPP
#Configuration: NPP
#almurnet v.1.7.20240730
#Start time: 2026-01-16 10:49:10

#Version: 2.2.20231116
#Station: R2M6_AANII_01
#Location: 30.233357 lon 59.946436 lat
#TLE: 1 37849U 11061A   26015.52691075  .00000052  00000+0  45753-4 0  9993
#TLE: 2 37849  98.7811 317.5709 0002448  62.7632 297.3794 14.19525354736784

#Time	Az	El	Level	Level2	SNR	BER	BlckErr	Temp	State	Recorded	gain1	gain2
2026-01-16 10:49:10.21	173.45	6.98	-30.9	-34.0	5.3	1.24e+00	0	40	0	0	22	5179
2026-01-16 10:49:13.21	173.53	7.21	-31.2	-34.8	8.7	5.90e-02	0	40	0	1048576	23	5428
2026-01-16 10:49:16.22	173.62	7.45	-31.1	-34.2	9.1	3.21e-02	0	40	0	7340032	23	5172
2026-01-16 10:49:19.23	173.71	7.68	-30.5	-32.6	10.8	3.00e-03	0	40	0	12582912	22	4594
2026-01-16 10:49:22.23	173.80	7.92	-30.3	-32.3	11.4	1.12e-03	0	41	0	17825792	21	4566
2026-01-16 10:49:25.23	173.89	8.15	-30.1	-31.9	11.7	9.16e-04	0	41	0	24117248	21	4421
2026-01-16 10:49:28.23	173.98	8.40	-30.0	-31.6	12.0	3.18e-04	0	41	0	29360128	21	4328
2026-01-16 10:49:31.23	174.08	8.64	-30.0	-31.4	12.1	3.04e-04	0	41	0	35651584	21	4249
2026-01-16 10:49:34.23	174.17	8.88	-29.9	-31.1	12.4	1.51e-04	0	41	0	40894464	21	4131
2026-01-16 10:49:37.23	174.27	9.13	-29.9	-31.0	12.4	1.42e-04	0	41	0	46137344	21	4114
2026-01-16 10:49:40.24	174.37	9.38	-29.8	-30.8	12.6	1.46e-04	0	41	0	52428800	21	4031
2026-01-16 10:49:43.24	174.47	9.63	-29.9	-31.6	12.4	9.68e-05	0	41	0	57671680	20	4388
2026-01-16 10:49:46.24	174.57	9.89	-29.8	-31.4	12.6	1.33e-04	0	41	0	62914560	20	4319
2026-01-16 10:49:49.25	174.68	10.15	-29.5	-30.5	13.2	5.18e-05	0	41	0	69206016	20	4037
2026-01-16 10:49:52.24	174.78	10.41	-30.0	-31.7	12.4	1.16e-04	0	41	0	74448896	20	4409
2026-01-16 10:49:55.25	174.89	10.67	-29.5	-30.5	13.3	1.90e-05	0	41	0	79691776	20	4029
2026-01-16 10:49:58.26	175.00	10.94	-29.4	-30.3	13.4	1.90e-05	0	41	0	85983232	20	3962
2026-01-16 10:50:01.26	175.11	11.21	-29.5	-30.3	13.4	1.60e-05	0	41	0	91226112	20	3979
2026-01-16 10:50:04.26	175.22	11.48	-29.4	-30.2	13.5	7.60e-06	0	41	0	97517568	20	3955
2026-01-16 10:50:07.26	175.33	11.75	-29.5	-30.3	13.4	1.37e-05	0	42	0	102760448	20	3976
2026-01-16 10:50:10.27	175.45	12.03	-29.5	-30.4	13.5	1.22e-05	0	42	0	108003328	20	3997
2026-01-16 10:50:13.27	175.57	12.31	-29.5	-30.3	13.6	1.37e-05	0	41	0	114294784	20	3958
2026-01-16 10:50:16.27	175.69	12.60	-29.4	-30.3	13.6	9.90e-06	0	42	0	119537664	20	3950
2026-01-16 10:50:19.28	175.81	12.88	-29.4	-30.2	13.7	1.06e-05	0	42	0	124780544	20	3918
2026-01-16 10:50:22.28	175.93	13.17	-29.4	-30.7	13.8	1.14e-05	0	42	0	131072000	19	4143
2026-01-16 10:50:25.29	176.06	13.47	-29.7	-31.2	13.4	2.74e-05	0	42	0	136314880	19	4312
2026-01-16 10:50:28.30	176.19	13.77	-29.6	-30.9	13.7	1.98e-05	0	42	0	142606336	19	4215
2026-01-16 10:50:31.30	176.32	14.07	-29.7	-31.3	13.4	2.13e-05	0	42	0	147849216	19	4339
2026-01-16 10:50:34.31	176.46	14.37	-29.6	-30.9	13.7	1.67e-05	0	42	0	153092096	19	4212
2026-01-16 10:50:37.31	176.59	14.68	-29.4	-30.5	13.9	1.29e-05	0	42	0	159383552	19	4082
2026-01-16 10:50:40.31	176.73	14.99	-29.7	-31.3	13.5	1.52e-05	0	42	0	164626432	19	4329
2026-01-16 10:50:43.31	176.88	15.31	-29.7	-31.2	13.6	4.50e-06	0	42	0	169869312	19	4281
2026-01-16 10:50:46.32	177.02	15.63	-29.8	-31.6	13.3	1.06e-05	0	42	0	176160768	19	4421
2026-01-16 10:50:49.32	177.17	15.96	-29.7	-31.2	13.6	7.60e-06	0	42	0	181403648	19	4310
2026-01-16 10:50:52.32	177.32	16.28	-29.6	-30.9	13.8	6.10e-06	0	42	0	187695104	19	4215
2026-01-16 10:50:55.33	177.48	16.62	-29.6	-31.0	13.7	1.06e-05	0	42	0	192937984	19	4234
2026-01-16 10:50:58.32	177.63	16.95	-29.5	-30.7	13.9	1.50e-06	0	42	0	198180864	19	4146
2026-01-16 10:51:01.32	177.79	17.30	-29.7	-31.3	13.7	6.10e-06	0	42	0	204472320	19	4304
2026-01-16 10:51:04.33	177.96	17.64	-29.7	-31.3	13.6	1.14e-05	0	42	0	209715200	19	4323
2026-01-16 10:51:07.33	178.13	17.99	-29.9	-31.8	13.3	8.30e-06	0	42	0	214958080	19	4484
2026-01-16 10:51:10.32	178.30	18.35	-30.0	-31.7	13.0	4.88e-05	0	42	0	221249536	20	4365
2026-01-16 10:51:13.33	178.47	18.71	-29.8	-31.2	13.3	2.05e-05	0	42	0	226492416	20	4235
2026-01-16 10:51:16.33	178.65	19.08	-29.8	-31.1	13.4	1.83e-05	0	42	0	231735296	20	4170
2026-01-16 10:51:19.31	178.84	19.45	-29.9	-31.3	13.3	2.74e-05	0	42	0	238026752	20	4235
2026-01-16 10:51:22.31	179.02	19.82	-30.1	-31.8	12.9	3.58e-05	0	42	0	243269632	20	4408
2026-01-16 10:51:25.32	179.22	20.21	-30.2	-32.1	12.8	5.34e-05	0	42	0	249561088	20	4491
2026-01-16 10:51:28.34	179.41	20.60	-29.9	-31.3	13.4	2.74e-05	0	42	0	254803968	20	4211
2026-01-16 10:51:31.33	179.62	20.99	-30.1	-31.7	13.2	2.44e-05	0	42	0	260046848	20	4329
2026-01-16 10:51:34.33	179.82	21.39	-29.7	-30.7	13.8	2.20e-06	0	42	0	266338304	20	4025
2026-01-16 10:51:37.33	180.03	21.79	-29.9	-31.1	13.6	6.10e-06	0	42	0	271581184	20	4134
2026-01-16 10:51:40.33	180.25	22.20	-29.8	-30.9	13.6	7.60e-06	0	42	0	276824064	20	4094
2026-01-16 10:51:43.33	180.47	22.62	-29.9	-31.0	13.6	8.30e-06	0	42	0	283115520	20	4123
2026-01-16 10:51:46.34	180.70	23.05	-29.9	-31.1	13.6	1.06e-05	0	42	0	288358400	20	4149
2026-01-16 10:51:49.34	180.94	23.48	-30.2	-32.1	13.0	1.29e-05	0	42	0	294649856	20	4446
2026-01-16 10:51:52.34	181.18	23.92	-30.3	-32.2	12.9	2.89e-05	0	42	0	299892736	20	4492
2026-01-16 10:51:55.34	181.43	24.36	-29.9	-31.1	13.6	1.14e-05	0	42	0	305135616	20	4129
2026-01-16 10:51:58.34	181.68	24.82	-29.6	-30.3	14.2	3.80e-06	0	42	0	311427072	20	3906
2026-01-16 10:52:01.35	181.94	25.28	-29.3	-29.6	14.6	7.00e-07	0	42	0	316669952	20	3708
2026-01-16 10:52:04.35	182.21	25.74	-29.2	-29.7	15.0	7.00e-07	0	42	0	321912832	19	3807
2026-01-16 10:52:07.36	182.49	26.22	-28.9	-28.9	15.4	0.00e+00	0	42	0	328204288	19	3618
2026-01-16 10:52:10.36	182.77	26.70	-28.6	-28.7	15.8	0.00e+00	0	42	0	333447168	18	3642
2026-01-16 10:52:13.35	183.07	27.19	-28.8	-29.2	15.6	0.00e+00	0	42	0	338690048	18	3777
2026-01-16 10:52:16.35	183.37	27.69	-29.3	-30.4	14.9	0.00e+00	0	43	0	344981504	18	4110
2026-01-16 10:52:19.37	183.68	28.20	-29.1	-29.9	15.3	0.00e+00	0	42	0	350224384	18	3947
2026-01-16 10:52:22.37	184.00	28.72	-29.4	-30.2	14.7	0.00e+00	0	42	0	356515840	19	3944
2026-01-16 10:52:25.36	184.33	29.24	-29.7	-30.9	14.3	3.00e-06	0	42	0	361758720	19	4157
2026-01-16 10:52:28.36	184.67	29.77	-30.0	-31.4	13.7	8.30e-06	0	42	0	367001600	20	4200
2026-01-16 10:52:31.38	185.03	30.32	-30.1	-31.5	13.5	1.22e-05	0	42	0	373293056	20	4244
2026-01-16 10:52:34.39	185.40	30.87	-30.4	-32.5	13.0	2.67e-05	0	42	0	378535936	20	4546
2026-01-16 10:52:37.39	185.77	31.43	-31.1	-33.3	11.8	3.01e-04	0	42	0	383778816	22	4646
2026-01-16 10:52:40.40	186.17	32.01	-31.3	-33.9	11.3	1.31e-03	0	42	0	390070272	22	4888
2026-01-16 10:52:43.40	186.57	32.59	-31.2	-33.2	11.4	1.04e-03	0	42	0	395313152	23	4528
2026-01-16 10:52:46.38	186.99	33.17	-31.4	-33.8	11.0	1.54e-03	0	43	0	401604608	23	4758
2026-01-16 10:52:49.39	187.42	33.78	-31.7	-34.8	10.3	3.32e-03	0	43	0	406847488	23	5132
2026-01-16 10:52:52.40	187.87	34.39	-32.0	-35.3	9.6	1.51e-02	0	42	0	412090368	24	5288
2026-01-16 10:52:55.40	188.34	35.01	-31.9	-35.1	9.7	1.44e-02	0	42	0	418381824	24	5176
2026-01-16 10:52:58.41	188.82	35.64	-31.4	-33.4	11.1	2.61e-03	0	42	0	423624704	24	4503
2026-01-16 10:53:01.42	189.33	36.29	-31.0	-32.4	12.0	4.71e-04	0	42	0	428867584	23	4256
2026-01-16 10:53:04.43	189.85	36.94	-31.1	-33.4	11.8	4.18e-04	0	42	0	435159040	22	4669
2026-01-16 10:53:07.43	190.40	37.60	-31.8	-35.1	10.2	2.99e-03	0	42	0	440401920	23	5251
2026-01-16 10:53:10.43	190.96	38.27	-32.1	-35.7	9.4	1.84e-02	0	42	0	446693376	24	5433
2026-01-16 10:53:13.43	191.55	38.96	-32.1	-35.5	9.4	1.39e-02	0	43	0	451936256	24	5364
2026-01-16 10:53:16.42	192.17	39.65	-32.4	-36.7	8.6	2.64e-02	0	42	0	457179136	24	5942
2026-01-16 10:53:19.44	192.81	40.36	-32.0	-35.3	9.8	1.79e-02	0	42	0	463470592	24	5254
2026-01-16 10:53:22.43	193.48	41.07	-31.2	-33.2	11.6	1.38e-03	0	43	0	468713472	23	4493
2026-01-16 10:53:25.44	194.18	41.80	-30.7	-32.2	12.6	5.95e-05	0	43	0	473956352	22	4277
2026-01-16 10:53:28.45	194.91	42.53	-30.7	-32.1	12.7	9.68e-05	0	42	0	480247808	22	4243
2026-01-16 10:53:31.44	195.68	43.27	-30.7	-32.1	12.7	3.96e-05	0	42	0	485490688	22	4239
2026-01-16 10:53:34.45	196.48	44.03	-31.0	-33.1	12.0	3.50e-04	0	43	0	490733568	22	4547
2026-01-16 10:53:37.45	197.32	44.79	-31.2	-33.6	11.8	5.77e-04	0	42	0	497025024	22	4743
2026-01-16 10:53:40.45	198.20	45.55	-31.4	-33.7	11.4	9.70e-04	0	42	0	502267904	23	4674
2026-01-16 10:53:43.45	199.12	46.33	-30.8	-31.9	12.5	3.05e-04	0	42	0	508559360	23	4074
2026-01-16 10:53:46.47	200.09	47.12	-29.8	-30.2	14.3	7.00e-07	0	42	0	513802240	21	3761
2026-01-16 10:53:49.47	201.11	47.90	-29.9	-30.8	14.2	7.00e-07	0	42	0	519045120	20	3999
2026-01-16 10:53:52.48	202.19	48.70	-30.1	-31.5	13.8	3.00e-06	0	42	0	525336576	20	4214
2026-01-16 10:53:55.49	203.32	49.49	-30.1	-30.8	13.9	1.22e-05	0	42	0	530579456	21	3932
2026-01-16 10:53:58.50	204.51	50.29	-29.8	-30.7	14.4	1.50e-06	0	42	0	535822336	20	3976
2026-01-16 10:54:01.51	205.76	51.09	-29.3	-29.4	15.1	7.00e-07	0	42	0	542113792	20	3648
2026-01-16 10:54:04.52	207.08	51.89	-29.1	-29.9	15.5	0.00e+00	0	43	0	547356672	18	3944
2026-01-16 10:54:07.53	208.48	52.69	-29.2	-29.5	15.5	0.00e+00	0	43	0	553648128	19	3741
2026-01-16 10:54:10.54	209.95	53.48	-29.3	-29.8	15.3	0.00e+00	0	43	0	558891008	19	3808
2026-01-16 10:54:13.55	211.50	54.26	-29.9	-31.0	14.2	0.00e+00	0	42	0	564133888	20	4054
2026-01-16 10:54:16.56	213.14	55.03	-28.6	-28.7	16.3	0.00e+00	0	42	0	570425344	18	3623
2026-01-16 10:54:19.56	214.86	55.79	-27.9	-27.6	17.1	0.00e+00	0	42	0	575668224	17	3455
2026-01-16 10:54:22.56	216.67	56.53	-29.2	-30.1	15.4	7.00e-07	0	42	0	580911104	18	3998
2026-01-16 10:54:25.56	218.58	57.25	-28.9	-29.4	15.8	0.00e+00	0	43	0	587202560	18	3804
2026-01-16 10:54:28.56	220.60	57.95	-29.5	-30.4	15.0	0.00e+00	0	43	0	592445440	19	3966
2026-01-16 10:54:31.57	222.72	58.62	-29.7	-30.8	14.8	0.00e+00	0	43	0	598736896	19	4095
2026-01-16 10:54:34.58	224.96	59.27	-29.4	-30.0	15.2	0.00e+00	0	43	0	603979776	19	3876
2026-01-16 10:54:37.58	227.29	59.87	-29.6	-30.5	15.0	0.00e+00	0	42	0	609222656	19	3990
2026-01-16 10:54:40.57	229.72	60.44	-30.3	-31.4	13.7	1.14e-05	0	43	0	615514112	21	4082
2026-01-16 10:54:43.58	232.28	60.97	-29.5	-30.2	15.2	0.00e+00	0	42	0	620756992	19	3913
2026-01-16 10:54:46.59	234.94	61.45	-29.2	-29.6	15.4	0.00e+00	0	42	0	625999872	19	3763
2026-01-16 10:54:49.60	237.70	61.87	-29.1	-29.2	15.7	0.00e+00	0	43	0	632291328	19	3663
2026-01-16 10:54:52.60	240.54	62.24	-29.0	-29.1	15.8	0.00e+00	0	43	0	637534208	19	3633
2026-01-16 10:54:55.60	243.46	62.55	-29.5	-30.2	15.2	0.00e+00	0	42	0	643825664	19	3913
2026-01-16 10:54:58.61	246.46	62.80	-29.6	-30.5	15.0	0.00e+00	0	43	0	649068544	19	3987
2026-01-16 10:55:01.62	249.51	62.99	-29.0	-29.6	15.9	0.00e+00	0	42	0	654311424	18	3843
2026-01-16 10:55:04.64	252.61	63.10	-30.8	-32.2	12.9	1.26e-04	0	43	0	660602880	22	4236
2026-01-16 10:55:07.64	255.71	63.15	-29.6	-30.1	14.9	0.00e+00	0	42	0	665845760	20	3796
2026-01-16 10:55:10.64	258.81	63.13	-28.5	-28.9	16.4	0.00e+00	0	42	0	671088640	17	3765
2026-01-16 10:55:13.65	261.91	63.04	-28.3	-28.4	16.7	0.00e+00	0	42	0	677380096	17	3639
2026-01-16 10:55:16.66	264.97	62.88	-28.8	-29.0	16.2	3.00e-06	0	43	0	682622976	18	3696
2026-01-16 10:55:19.67	267.99	62.65	-28.2	-28.2	16.8	3.80e-06	0	42	0	688914432	17	3596
2026-01-16 10:55:22.66	270.93	62.37	-28.4	-28.8	16.6	0.00e+00	0	42	0	694157312	17	3733
2026-01-16 10:55:25.67	273.80	62.02	-29.2	-30.0	15.6	0.00e+00	0	43	0	699400192	18	3953
2026-01-16 10:55:28.67	276.58	61.61	-30.2	-31.5	14.1	2.20e-06	0	43	0	705691648	20	4187
2026-01-16 10:55:31.66	279.26	61.15	-30.1	-30.8	14.1	1.29e-05	0	42	0	710934528	21	3916
2026-01-16 10:55:34.67	281.85	60.65	-31.9	-35.2	10.4	1.38e-03	0	42	0	716177408	23	5229
2026-01-16 10:55:37.69	284.35	60.09	-30.3	-30.9	13.7	9.10e-06	0	43	0	722468864	22	3863
2026-01-16 10:55:40.69	286.72	59.50	-29.5	-29.9	15.0	7.00e-07	0	42	0	727711744	20	3740
2026-01-16 10:55:43.69	288.98	58.87	-30.4	-31.5	13.7	4.34e-05	0	43	0	734003200	21	4108
2026-01-16 10:55:46.69	291.14	58.21	-30.6	-32.2	13.3	5.03e-05	0	43	0	739246080	21	4319
2026-01-16 10:55:49.69	293.18	57.52	-30.1	-31.4	14.1	5.30e-06	0	43	0	744488960	20	4162
2026-01-16 10:55:52.70	295.14	56.81	-29.9	-31.4	14.5	0.00e+00	0	43	0	750780416	19	4259
2026-01-16 10:55:55.71	296.99	56.08	-29.7	-30.2	14.8	0.00e+00	0	42	0	756023296	20	3838
2026-01-16 10:55:58.71	298.74	55.33	-29.5	-29.8	15.0	0.00e+00	0	43	0	761266176	20	3720
2026-01-16 10:56:01.72	300.41	54.56	-28.6	-29.0	16.4	0.00e+00	0	42	0	767557632	17	3793
2026-01-16 10:56:04.72	301.99	53.79	-29.6	-30.2	14.8	0.00e+00	0	42	0	772800512	20	3821
2026-01-16 10:56:07.73	303.48	53.01	-27.8	-27.9	17.3	0.00e+00	0	42	0	779091968	16	3609
2026-01-16 10:56:10.73	304.90	52.22	-27.7	-27.6	17.4	0.00e+00	0	43	0	784334848	16	3556
2026-01-16 10:56:13.74	306.25	51.42	-29.2	-30.0	15.5	0.00e+00	0	42	0	789577728	18	3959
2026-01-16 10:56:16.76	307.53	50.63	-28.8	-28.5	16.1	0.00e+00	0	42	0	795869184	19	3488
2026-01-16 10:56:19.77	308.74	49.83	-29.8	-31.0	14.6	0.00e+00	0	42	0	801112064	19	4157
2026-01-16 10:56:22.77	309.89	49.04	-30.6	-31.7	13.1	9.38e-05	0	42	0	806354944	22	4085
2026-01-16 10:56:25.77	310.98	48.25	-32.4	-36.3	9.2	1.40e-02	0	43	0	812646400	24	5665
2026-01-16 10:56:28.78	312.02	47.46	-32.2	-35.8	9.5	1.37e-02	0	42	0	817889280	24	5428
2026-01-16 10:56:31.79	313.00	46.68	-30.9	-32.1	12.6	2.39e-04	0	42	0	824180736	23	4107
2026-01-16 10:56:34.79	313.94	45.90	-32.4	-36.3	9.2	7.60e-03	0	42	0	829423616	24	5688
2026-01-16 10:56:37.80	314.84	45.13	-31.1	-32.7	12.2	4.11e-04	0	42	0	834666496	23	4294
2026-01-16 10:56:40.81	315.70	44.37	-32.2	-35.7	9.6	5.09e-03	0	42	0	840957952	24	5372
2026-01-16 10:56:43.81	316.51	43.62	-29.3	-29.7	15.3	0.00e+00	0	42	0	846200832	19	3801
2026-01-16 10:56:46.81	317.29	42.88	-30.2	-31.7	13.7	3.80e-06	0	43	0	851443712	20	4270
2026-01-16 10:56:49.80	318.03	42.15	-30.4	-31.8	13.3	3.20e-05	0	42	0	857735168	21	4226
2026-01-16 10:56:52.81	318.74	41.42	-28.7	-28.9	16.1	0.00e+00	0	43	0	862978048	18	3687
2026-01-16 10:56:55.82	319.42	40.70	-30.8	-32.9	12.5	1.90e-05	0	43	0	869269504	21	4592
2026-01-16 10:56:58.83	320.08	40.00	-29.0	-29.1	15.6	7.00e-07	0	42	0	874512384	19	3640
2026-01-16 10:57:01.84	320.70	39.30	-29.4	-30.5	15.1	0.00e+00	0	42	0	879755264	18	4110
2026-01-16 10:57:04.85	321.30	38.61	-29.7	-30.8	14.6	7.00e-07	0	42	0	886046720	19	4104
2026-01-16 10:57:07.86	321.88	37.94	-29.6	-30.6	14.7	0.00e+00	0	42	0	891289600	19	4034
2026-01-16 10:57:10.87	322.44	37.27	-30.2	-31.6	13.7	7.00e-07	0	42	0	896532480	20	4264
2026-01-16 10:57:13.88	322.97	36.62	-29.8	-30.7	14.3	4.50e-06	0	42	0	902823936	20	3974
2026-01-16 10:57:16.89	323.48	35.97	-31.1	-33.3	11.9	5.33e-04	0	42	0	908066816	22	4647
2026-01-16 10:57:19.89	323.97	35.34	-31.7	-34.6	10.6	5.13e-03	0	43	0	914358272	23	5038
2026-01-16 10:57:22.89	324.44	34.72	-30.5	-31.4	13.2	5.18e-05	0	43	0	919601152	22	4004
2026-01-16 10:57:25.90	324.90	34.11	-30.1	-30.9	13.8	6.10e-06	0	42	0	924844032	21	3950
2026-01-16 10:57:28.90	325.34	33.50	-30.5	-32.1	13.0	6.79e-05	0	43	0	931135488	21	4323
2026-01-16 10:57:31.91	325.77	32.91	-30.9	-33.1	12.4	5.18e-05	0	42	0	936378368	21	4637
2026-01-16 10:57:34.92	326.18	32.33	-30.9	-33.3	12.2	1.74e-04	0	43	0	941621248	21	4720
2026-01-16 10:57:37.92	326.58	31.76	-30.8	-33.0	12.4	1.36e-04	0	43	0	947912704	21	4623
2026-01-16 10:57:40.92	326.96	31.19	-31.2	-33.4	11.8	5.70e-04	0	43	0	953155584	22	4676
2026-01-16 10:57:43.92	327.33	30.64	-31.1	-33.4	11.8	5.22e-04	0	42	0	959447040	22	4652
2026-01-16 10:57:46.93	327.69	30.10	-31.0	-33.1	12.0	3.10e-04	0	42	0	964689920	22	4569
2026-01-16 10:57:49.92	328.03	29.56	-31.1	-33.3	11.8	3.17e-04	0	43	0	969932800	22	4656
2026-01-16 10:57:52.92	328.37	29.04	-30.4	-31.2	13.3	7.17e-05	0	42	0	976224256	22	3964
2026-01-16 10:57:55.92	328.70	28.52	-30.2	-31.3	13.5	2.13e-05	0	43	0	981467136	21	4080
2026-01-16 10:57:58.93	329.01	28.01	-30.6	-32.2	12.8	4.04e-05	0	42	0	986710016	21	4373
2026-01-16 10:58:01.94	329.32	27.51	-30.5	-32.1	13.0	5.72e-05	0	43	0	993001472	21	4315
2026-01-16 10:58:04.93	329.62	27.02	-30.1	-31.1	13.6	1.44e-05	0	42	0	998244352	21	4018
2026-01-16 10:58:07.94	329.91	26.53	-30.4	-31.7	13.1	7.17e-05	0	43	0	1003487232	21	4202
2026-01-16 10:58:10.96	330.19	26.06	-30.1	-31.0	13.6	1.52e-05	0	43	0	1009778688	21	3997
2026-01-16 10:58:13.96	330.46	25.59	-29.7	-30.4	14.4	7.00e-07	0	43	0	1015021568	20	3926
2026-01-16 10:58:16.97	330.73	25.13	-29.5	-29.9	14.6	2.20e-06	0	43	0	1021313024	20	3771
2026-01-16 10:58:19.97	330.99	24.67	-29.0	-29.1	15.5	5.30e-06	0	42	0	1026555904	19	3652
2026-01-16 10:58:22.98	331.24	24.23	-29.2	-29.7	15.1	0.00e+00	0	42	0	1031798784	19	3800
2026-01-16 10:58:26.01	331.49	23.78	-29.6	-30.8	14.5	7.00e-07	0	43	0	1038090240	19	4106
2026-01-16 10:58:29.02	331.73	23.35	-29.9	-31.6	13.9	1.50e-06	0	42	0	1043333120	19	4344
2026-01-16 10:58:32.02	331.96	22.92	-30.0	-31.3	13.7	6.80e-06	0	43	0	1049624576	20	4196
2026-01-16 10:58:35.02	332.18	22.51	-29.6	-30.2	14.4	2.20e-06	0	43	0	1054867456	20	3855
2026-01-16 10:58:38.03	332.40	22.09	-29.5	-30.5	14.5	0.00e+00	0	42	0	1060110336	19	4039
2026-01-16 10:58:41.04	332.62	21.68	-29.0	-29.2	15.3	7.00e-07	0	43	0	1066401792	19	3683
2026-01-16 10:58:44.04	332.83	21.28	-28.9	-28.9	15.4	0.00e+00	0	43	0	1071644672	19	3619
2026-01-16 10:58:47.04	333.04	20.89	-28.9	-29.1	15.4	0.00e+00	0	42	0	1076887552	19	3658
2026-01-16 10:58:50.04	333.24	20.50	-28.6	-28.7	15.8	0.00e+00	0	43	0	1083179008	18	3662
2026-01-16 10:58:53.04	333.43	20.12	-28.5	-28.6	15.9	0.00e+00	0	43	0	1088421888	18	3621
2026-01-16 10:58:56.06	333.62	19.74	-28.5	-28.4	16.0	0.00e+00	0	42	0	1093664768	18	3584
2026-01-16 10:58:59.06	333.81	19.37	-28.8	-29.2	15.5	0.00e+00	0	43	0	1099956224	18	3796
2026-01-16 10:59:02.06	333.99	19.00	-29.2	-30.3	14.8	0.00e+00	0	42	0	1105199104	18	4094
2026-01-16 10:59:05.07	334.17	18.64	-29.7	-31.0	14.1	0.00e+00	0	43	0	1111490560	19	4182
2026-01-16 10:59:08.08	334.35	18.28	-29.9	-31.6	13.7	7.60e-06	0	42	0	1116733440	19	4365
2026-01-16 10:59:11.09	334.52	17.93	-30.1	-31.6	13.3	1.75e-05	0	43	0	1121976320	20	4293
2026-01-16 10:59:14.11	334.69	17.58	-30.1	-31.6	13.3	7.60e-06	0	43	0	1128267776	20	4278
2026-01-16 10:59:17.11	334.85	17.24	-30.1	-31.7	13.2	1.60e-05	0	43	0	1133510656	20	4327
2026-01-16 10:59:20.12	335.01	16.90	-30.1	-31.6	13.2	1.37e-05	0	42	0	1139802112	20	4293
2026-01-16 10:59:23.11	335.17	16.57	-30.1	-31.6	13.2	2.21e-05	0	42	0	1145044992	20	4295
2026-01-16 10:59:26.12	335.32	16.24	-30.1	-31.6	13.2	1.83e-05	0	42	0	1150287872	20	4303
2026-01-16 10:59:29.13	335.48	15.91	-29.9	-31.2	13.5	2.05e-05	0	43	0	1156579328	20	4165
2026-01-16 10:59:32.13	335.62	15.59	-30.0	-31.6	13.2	2.44e-05	0	43	0	1161822208	20	4286
2026-01-16 10:59:35.14	335.77	15.28	-29.8	-31.0	13.5	8.30e-06	0	42	0	1167065088	20	4134
2026-01-16 10:59:38.15	335.91	14.96	-29.7	-30.6	13.8	9.90e-06	0	42	0	1173356544	20	4020
2026-01-16 10:59:41.15	336.05	14.65	-29.4	-29.9	14.2	2.20e-06	0	43	0	1178599424	20	3800
2026-01-16 10:59:44.16	336.19	14.35	-29.5	-30.1	14.1	7.00e-07	0	43	0	1184890880	20	3874
2026-01-16 10:59:47.17	336.32	14.05	-29.4	-30.4	14.2	7.00e-07	0	42	0	1190133760	19	4026
2026-01-16 10:59:50.17	336.46	13.75	-29.3	-30.3	14.3	0.00e+00	0	43	0	1195376640	19	3994
2026-01-16 10:59:53.18	336.59	13.45	-29.4	-30.4	14.2	1.50e-06	0	42	0	1201668096	19	4032
2026-01-16 10:59:56.19	336.72	13.16	-29.5	-30.5	14.1	7.00e-07	0	43	0	1206910976	19	4067
2026-01-16 10:59:59.19	336.84	12.88	-29.5	-30.7	14.0	4.50e-06	0	43	0	1212153856	19	4122
2026-01-16 11:00:02.19	336.96	12.59	-29.6	-31.0	13.8	3.80e-06	0	43	0	1218445312	19	4216
2026-01-16 11:00:05.20	337.09	12.31	-29.8	-31.6	13.4	1.37e-05	0	43	0	1223688192	19	4394
2026-01-16 11:00:08.19	337.20	12.03	-30.0	-31.4	13.1	3.43e-05	0	42	0	1229979648	20	4272
2026-01-16 11:00:11.19	337.32	11.76	-30.3	-32.6	12.3	1.70e-04	0	43	0	1235222528	20	4652
2026-01-16 11:00:14.20	337.44	11.49	-30.7	-33.1	11.5	5.21e-04	0	43	0	1240465408	21	4758
2026-01-16 11:00:17.20	337.55	11.22	-30.8	-33.4	11.3	1.05e-03	0	43	0	1246756864	21	4878
2026-01-16 11:00:20.21	337.66	10.95	-31.0	-34.0	10.8	2.22e-03	0	43	0	1251999744	21	5140
2026-01-16 11:00:23.22	337.77	10.69	-31.2	-34.2	10.3	6.29e-03	0	43	0	1257242624	22	5113
2026-01-16 11:00:26.24	337.88	10.43	-31.3	-34.2	10.0	9.73e-03	0	43	0	1263534080	23	5034
2026-01-16 11:00:29.24	337.99	10.17	-31.1	-33.6	10.3	5.24e-03	0	43	0	1268776960	23	4796
2026-01-16 11:00:32.25	338.09	9.91	-31.0	-33.3	10.5	5.85e-03	0	43	0	1275068416	23	4672
2026-01-16 11:00:35.27	338.20	9.66	-31.2	-33.7	10.2	4.89e-03	0	43	0	1280311296	23	4850
2026-01-16 11:00:38.27	338.30	9.41	-31.0	-33.1	10.6	3.16e-03	0	43	0	1285554176	23	4622
2026-01-16 11:00:41.28	338.40	9.16	-30.9	-33.0	10.7	3.10e-03	0	43	0	1291845632	23	4570
2026-01-16 11:00:44.29	338.50	8.91	-31.0	-33.2	10.5	4.53e-03	0	43	0	1297088512	23	4657
2026-01-16 11:00:47.29	338.60	8.67	-30.9	-32.9	10.6	3.22e-03	0	43	0	1302331392	23	4563
2026-01-16 11:00:50.28	338.69	8.43	-30.9	-33.2	10.5	3.60e-03	0	43	0	1308622848	23	4651
2026-01-16 11:00:53.29	338.79	8.19	-30.7	-33.0	10.9	1.75e-03	0	43	0	1313865728	22	4680
2026-01-16 11:00:56.30	338.88	7.96	-30.9	-33.4	10.6	3.57e-03	0	43	0	1320157184	22	4829
2026-01-16 11:00:59.29	338.97	7.72	-30.7	-33.0	10.8	2.09e-03	0	43	0	1325400064	22	4687
2026-01-16 11:01:02.29	339.06	7.49	-30.8	-33.4	10.5	2.81e-03	0	43	0	1330642944	22	4845
2026-01-16 11:01:05.29	339.15	7.26	-30.4	-31.9	11.7	8.20e-04	0	43	0	1336934400	22	4305
2026-01-16 11:01:08.30	339.24	7.03	-33.3	-45.8	3.8	1.49e+00	0	43	104	1340080128	26	15192

#Closed at: 2026-01-16 11:01:08
#Recorded file [1340 MB]: D:/data/31010_260116_134912.dat