passes_logs/2026/01/16/R2M6_AANII_01/R2M6_AANII_01__20260116_151300_FENGYUN_3E_rec.log

#Pass ID: 20260116_151300_FENGYUN 3E
#Satellite: FENGYUN 3E
#Configuration: FENGYUN 3E
#almurnet v.1.7.20240730
#Start time: 2026-01-16 15:13:02

#Version: 2.2.20231116
#Station: R2M6_AANII_01
#Location: 30.233357 lon 59.946436 lat
#TLE: 1 49008U 21062A   26015.99225297  .00000062  00000+0  49720-4 0  9994
#TLE: 2 49008  98.7486  21.1092 0002100 136.3389 223.7953 14.19885247234982

#Time	Az	El	Level	Level2	SNR	BER	BlckErr	Temp	State	Recorded	gain1	gain2
2026-01-16 15:13:02.80	179.59	7.15	-27.6	-29.5	5.6	7.63e-01	0	41	0	0	15	4482
2026-01-16 15:13:05.79	179.70	7.38	-27.6	-28.9	11.6	8.73e-04	0	41	0	6291456	16	4180
2026-01-16 15:13:08.80	179.83	7.61	-26.0	-26.7	13.6	1.83e-05	0	42	0	28311552	13	3920
2026-01-16 15:13:11.80	179.95	7.84	-25.6	-26.3	14.1	2.20e-06	0	41	0	50331648	12	3919
2026-01-16 15:13:14.81	180.07	8.08	-25.4	-26.4	14.4	1.10e-06	0	42	0	72351744	11	4033
2026-01-16 15:13:17.83	180.20	8.31	-25.5	-26.6	14.3	0.00e+00	0	42	0	93323264	11	4085
2026-01-16 15:13:20.83	180.33	8.55	-25.5	-26.7	14.3	0.00e+00	0	42	0	115343360	11	4110
2026-01-16 15:13:23.84	180.46	8.79	-25.4	-26.3	14.6	0.00e+00	0	42	0	137363456	11	3992
2026-01-16 15:13:26.85	180.59	9.04	-25.2	-26.0	14.8	0.00e+00	0	42	0	158334976	11	3923
2026-01-16 15:13:29.86	180.73	9.28	-25.5	-26.5	14.5	3.40e-06	0	42	0	180355072	11	4053
2026-01-16 15:13:32.87	180.87	9.53	-25.2	-25.9	14.8	0.00e+00	0	42	0	202375168	11	3897
2026-01-16 15:13:35.88	181.01	9.78	-25.0	-25.6	15.0	0.00e+00	0	42	0	224395264	11	3828
2026-01-16 15:13:38.89	181.15	10.03	-25.1	-25.6	15.0	1.10e-06	0	42	0	245366784	11	3851
2026-01-16 15:13:41.90	181.29	10.29	-25.2	-25.9	14.9	0.00e+00	0	42	0	267386880	11	3918
2026-01-16 15:13:44.92	181.44	10.55	-25.0	-25.6	15.0	0.00e+00	0	42	0	289406976	11	3848
2026-01-16 15:13:47.92	181.59	10.81	-25.1	-25.7	14.9	0.00e+00	0	42	0	311427072	11	3871
2026-01-16 15:13:50.93	181.74	11.07	-25.3	-26.1	14.7	0.00e+00	0	42	0	332398592	11	3972
2026-01-16 15:13:53.94	181.89	11.34	-25.2	-26.0	14.8	0.00e+00	0	43	0	354418688	11	3941
2026-01-16 15:13:56.94	182.05	11.60	-25.5	-26.6	14.5	1.10e-06	0	43	0	376438784	11	4095
2026-01-16 15:13:59.94	182.21	11.87	-25.4	-26.5	14.5	0.00e+00	0	43	0	397410304	11	4084
2026-01-16 15:14:02.95	182.37	12.15	-25.3	-26.2	14.7	1.10e-06	0	43	0	419430400	11	3992
2026-01-16 15:14:05.96	182.53	12.42	-24.9	-25.8	15.2	0.00e+00	0	43	0	441450496	10	4022
2026-01-16 15:14:08.96	182.70	12.70	-25.1	-26.4	14.9	0.00e+00	0	43	0	462422016	10	4162
2026-01-16 15:14:11.96	182.87	12.99	-24.9	-25.9	15.2	1.10e-06	0	43	0	484442112	10	4031
2026-01-16 15:14:14.96	183.05	13.27	-24.8	-25.7	15.3	0.00e+00	0	43	0	506462208	10	3986
2026-01-16 15:14:17.96	183.22	13.56	-24.4	-25.3	15.8	0.00e+00	0	43	0	527433728	9	3981
2026-01-16 15:14:20.96	183.40	13.85	-24.8	-26.1	15.4	0.00e+00	0	43	0	549453824	9	4180
2026-01-16 15:14:23.97	183.59	14.15	-24.5	-25.5	15.7	0.00e+00	0	43	0	571473920	9	4021
2026-01-16 15:14:26.97	183.77	14.45	-24.6	-25.7	15.6	0.00e+00	0	43	0	592445440	9	4080
2026-01-16 15:14:29.98	183.96	14.75	-24.1	-24.7	16.1	0.00e+00	0	43	0	614465536	9	3833
2026-01-16 15:14:32.97	184.16	15.05	-24.2	-24.9	16.0	0.00e+00	0	43	0	636485632	9	3883
2026-01-16 15:14:35.98	184.36	15.36	-24.1	-24.7	16.2	0.00e+00	0	43	0	657457152	9	3836
2026-01-16 15:14:38.99	184.56	15.68	-24.0	-24.9	16.3	0.00e+00	0	43	0	679477248	8	3996
2026-01-16 15:14:42.01	184.77	15.99	-24.0	-24.9	16.3	0.00e+00	0	43	0	701497344	8	4005
2026-01-16 15:14:45.02	184.98	16.32	-23.8	-24.6	16.5	0.00e+00	0	43	0	723517440	8	3932
2026-01-16 15:14:48.02	185.19	16.64	-23.8	-24.5	16.6	0.00e+00	0	43	0	744488960	8	3900
2026-01-16 15:14:51.04	185.41	16.97	-23.8	-24.6	16.5	0.00e+00	0	43	0	766509056	8	3936
2026-01-16 15:14:54.05	185.64	17.30	-23.9	-24.7	16.5	0.00e+00	0	43	0	788529152	8	3957
2026-01-16 15:14:57.06	185.87	17.64	-23.8	-24.6	16.6	0.00e+00	0	43	0	810549248	8	3918
2026-01-16 15:15:00.07	186.10	17.98	-23.7	-24.4	16.7	0.00e+00	0	43	0	831520768	8	3877
2026-01-16 15:15:03.07	186.34	18.33	-23.6	-24.1	16.8	0.00e+00	0	43	0	853540864	8	3811
2026-01-16 15:15:06.08	186.58	18.68	-23.4	-24.0	17.1	5.70e-06	0	43	0	875560960	7	3891
2026-01-16 15:15:09.07	186.83	19.03	-23.4	-24.1	17.1	0.00e+00	0	43	0	896532480	7	3909
2026-01-16 15:15:12.08	187.09	19.39	-23.3	-23.9	17.2	0.00e+00	0	43	0	918552576	7	3861
2026-01-16 15:15:15.08	187.35	19.75	-23.1	-24.0	17.4	0.00e+00	0	43	0	940572672	6	3974
2026-01-16 15:15:18.08	187.62	20.12	-23.1	-24.1	17.4	5.70e-06	0	43	0	961544192	6	3998
2026-01-16 15:15:21.09	187.89	20.50	-23.4	-24.7	17.1	4.50e-06	0	43	0	983564288	6	4161
2026-01-16 15:15:24.09	188.17	20.87	-23.3	-23.8	17.3	1.10e-06	0	44	0	1004535808	7	3843
2026-01-16 15:15:27.09	188.46	21.26	-23.1	-24.0	17.4	5.70e-06	0	43	0	1026555904	6	3987
2026-01-16 15:15:30.10	188.75	21.65	-23.2	-24.1	17.4	0.00e+00	0	43	0	1048576000	6	4019
2026-01-16 15:15:33.09	189.05	22.04	-23.2	-24.2	17.3	0.00e+00	0	43	0	1069547520	6	4034
2026-01-16 15:15:36.10	189.36	22.44	-23.0	-23.9	17.5	0.00e+00	0	44	0	1091567616	6	3963
2026-01-16 15:15:39.09	189.67	22.84	-23.2	-24.3	17.3	0.00e+00	0	44	0	1113587712	6	4068
2026-01-16 15:15:42.09	190.00	23.25	-23.0	-23.9	17.4	2.20e-06	0	43	0	1134559232	6	3994
2026-01-16 15:15:45.10	190.33	23.67	-22.8	-23.5	17.6	0.00e+00	0	44	0	1156579328	6	3912
2026-01-16 15:15:48.11	190.67	24.09	-23.0	-24.0	17.3	0.00e+00	0	44	0	1178599424	6	4016
2026-01-16 15:15:51.11	191.02	24.52	-22.8	-23.5	17.6	0.00e+00	0	44	0	1200619520	6	3895
2026-01-16 15:15:54.12	191.38	24.96	-22.8	-23.4	17.7	0.00e+00	0	43	0	1221591040	6	3878
2026-01-16 15:15:57.14	191.75	25.40	-22.5	-23.4	17.9	0.00e+00	0	44	0	1243611136	5	3968
2026-01-16 15:16:00.14	192.13	25.84	-22.6	-23.4	18.0	0.00e+00	0	43	0	1265631232	5	3964
2026-01-16 15:16:03.15	192.52	26.30	-22.5	-23.3	18.1	0.00e+00	0	44	0	1286602752	5	3934
2026-01-16 15:16:06.16	192.92	26.76	-22.5	-23.2	18.2	0.00e+00	0	43	0	1308622848	5	3910
2026-01-16 15:16:09.16	193.34	27.22	-22.7	-23.7	17.9	0.00e+00	0	44	0	1330642944	5	4041
2026-01-16 15:16:12.17	193.76	27.70	-22.3	-22.9	18.3	0.00e+00	0	44	0	1352663040	5	3854
2026-01-16 15:16:15.18	194.20	28.17	-22.4	-23.2	18.2	0.00e+00	0	44	0	1373634560	5	3917
2026-01-16 15:16:18.19	194.65	28.66	-22.1	-23.1	18.4	0.00e+00	0	44	0	1395654656	4	4003
2026-01-16 15:16:21.20	195.11	29.15	-22.1	-23.0	18.5	0.00e+00	0	44	0	1417674752	4	3984
2026-01-16 15:16:24.21	195.59	29.65	-21.9	-23.2	18.6	0.00e+00	0	44	0	1439694848	3	4152
2026-01-16 15:16:27.21	196.08	30.16	-21.9	-22.7	18.5	0.00e+00	0	44	0	1460666368	4	3922
2026-01-16 15:16:30.22	196.59	30.67	-22.1	-23.1	18.3	0.00e+00	0	44	0	1482686464	4	4036
2026-01-16 15:16:33.23	197.12	31.19	-22.3	-23.5	18.1	0.00e+00	0	43	0	1504706560	4	4132
2026-01-16 15:16:36.24	197.66	31.71	-22.5	-23.7	18.1	0.00e+00	0	44	0	1525678080	4	4162
2026-01-16 15:16:39.24	198.21	32.25	-22.4	-23.0	18.2	0.00e+00	0	44	0	1547698176	5	3866
2026-01-16 15:16:42.26	198.79	32.79	-22.4	-23.0	18.3	0.00e+00	0	44	0	1569718272	5	3855
2026-01-16 15:16:45.26	199.39	33.33	-22.4	-23.0	18.3	0.00e+00	0	44	0	1591738368	5	3865
2026-01-16 15:16:48.27	200.00	33.88	-22.4	-23.1	18.2	0.00e+00	0	44	0	1612709888	5	3913
2026-01-16 15:16:51.27	200.64	34.44	-22.0	-22.3	18.6	0.00e+00	0	44	0	1634729984	5	3725
2026-01-16 15:16:54.28	201.30	35.01	-22.3	-23.1	18.2	0.00e+00	0	44	0	1655701504	5	3909
2026-01-16 15:16:57.29	201.98	35.58	-22.3	-23.0	18.3	0.00e+00	0	44	0	1677721600	5	3889
2026-01-16 15:17:00.29	202.68	36.15	-22.3	-22.9	18.4	0.00e+00	0	44	0	1699741696	5	3836
2026-01-16 15:17:03.30	203.41	36.73	-22.3	-22.8	18.4	0.00e+00	0	44	0	1720713216	5	3830
2026-01-16 15:17:06.29	204.17	37.32	-22.5	-23.3	18.1	0.00e+00	0	44	0	1742733312	5	3959
2026-01-16 15:17:09.30	204.95	37.91	-22.4	-23.0	18.2	0.00e+00	0	44	0	1764753408	5	3891
2026-01-16 15:17:12.31	205.76	38.51	-22.7	-23.8	17.9	0.00e+00	0	44	0	1786773504	5	4074
2026-01-16 15:17:15.31	206.60	39.10	-22.6	-23.6	18.0	0.00e+00	0	44	0	1807745024	5	4007
2026-01-16 15:17:18.32	207.48	39.71	-22.6	-23.4	18.3	0.00e+00	0	44	0	1829765120	5	3938
2026-01-16 15:17:21.32	208.38	40.31	-23.3	-23.8	18.4	0.00e+00	0	44	0	1851785216	6	3823
2026-01-16 15:17:24.33	209.32	40.92	-23.3	-23.8	18.5	0.00e+00	0	44	0	1872756736	6	3819
2026-01-16 15:17:27.34	210.30	41.53	-23.5	-23.8	18.2	0.00e+00	0	44	0	1894776832	7	3708
2026-01-16 15:17:30.36	211.31	42.15	-23.5	-23.8	18.3	0.00e+00	0	44	0	1916796928	7	3718
2026-01-16 15:17:33.36	212.36	42.76	-23.4	-23.5	18.4	0.00e+00	0	44	0	1938817024	7	3643
2026-01-16 15:17:36.37	213.45	43.37	-23.5	-23.8	18.3	0.00e+00	0	44	0	1959788544	7	3698
2026-01-16 15:17:39.38	214.59	43.98	-24.1	-24.6	17.6	0.00e+00	0	44	0	1981808640	8	3793
2026-01-16 15:17:42.37	215.75	44.58	-23.5	-23.2	18.4	0.00e+00	0	44	0	2003828736	8	3480
2026-01-16 15:17:45.37	216.97	45.18	-23.6	-23.5	18.2	0.00e+00	0	44	0	2024800256	8	3543
2026-01-16 15:17:48.38	218.24	45.77	-23.6	-23.9	18.2	0.00e+00	0	44	0	2046820352	7	3725
2026-01-16 15:17:51.37	219.55	46.36	-23.4	-23.5	18.4	0.00e+00	0	44	0	2068840448	7	3656
2026-01-16 15:17:54.38	220.91	46.94	-23.5	-23.7	18.4	0.00e+00	0	44	0	2089811968	7	3682
2026-01-16 15:17:57.38	222.32	47.50	-24.0	-24.9	17.7	0.00e+00	0	44	0	2111832064	7	3965
2026-01-16 15:18:00.39	223.79	48.06	-24.0	-24.3	17.8	0.00e+00	0	44	0	2133852160	8	3711
2026-01-16 15:18:03.40	225.31	48.61	-24.5	-25.3	17.3	0.00e+00	0	44	0	2154823680	8	3966
2026-01-16 15:18:06.40	226.87	49.13	-24.5	-24.9	17.3	0.00e+00	0	44	0	2176843776	9	3745
2026-01-16 15:18:09.40	228.49	49.64	-24.5	-24.9	17.3	0.00e+00	0	44	0	2197815296	9	3759
2026-01-16 15:18:12.39	230.16	50.13	-24.8	-24.8	17.1	0.00e+00	0	44	0	2219835392	10	3635
2026-01-16 15:18:15.39	231.89	50.60	-24.5	-24.8	17.4	0.00e+00	0	44	0	2241855488	9	3722
2026-01-16 15:18:18.39	233.67	51.05	-24.2	-24.3	17.6	0.00e+00	0	44	0	2262827008	9	3603
2026-01-16 15:18:21.38	235.49	51.47	-24.3	-24.4	17.6	0.00e+00	0	44	0	2284847104	9	3632
2026-01-16 15:18:24.38	237.37	51.87	-24.2	-24.2	17.7	0.00e+00	0	44	0	2306867200	9	3583
2026-01-16 15:18:27.38	239.30	52.23	-24.3	-24.4	17.6	0.00e+00	0	44	0	2327838720	9	3643
2026-01-16 15:18:30.37	241.27	52.56	-24.9	-25.6	17.0	0.00e+00	0	44	0	2349858816	9	3913
2026-01-16 15:18:33.40	243.31	52.87	-25.1	-25.6	16.7	0.00e+00	0	44	0	2371878912	10	3811
2026-01-16 15:18:36.40	245.37	53.13	-24.7	-24.8	17.1	0.00e+00	0	44	0	2393899008	10	3633
2026-01-16 15:18:39.40	247.46	53.36	-24.7	-24.6	17.2	0.00e+00	0	44	0	2414870528	10	3594
2026-01-16 15:18:42.40	249.58	53.55	-24.5	-24.3	17.4	0.00e+00	0	44	0	2436890624	10	3513
2026-01-16 15:18:45.42	251.74	53.70	-24.5	-24.3	17.5	0.00e+00	0	44	0	2458910720	10	3514
2026-01-16 15:18:48.43	253.91	53.82	-24.6	-25.1	17.2	0.00e+00	0	44	0	2479882240	9	3792
2026-01-16 15:18:51.45	256.11	53.89	-24.4	-24.7	17.5	0.00e+00	0	44	0	2501902336	9	3701
2026-01-16 15:18:54.46	258.30	53.92	-24.5	-24.8	17.4	0.00e+00	0	44	0	2523922432	9	3716
2026-01-16 15:18:57.46	260.49	53.90	-25.0	-25.3	16.9	0.00e+00	0	44	0	2545942528	10	3735
2026-01-16 15:19:00.47	262.68	53.85	-24.9	-25.3	16.9	0.00e+00	0	44	0	2566914048	10	3734
2026-01-16 15:19:03.48	264.86	53.76	-24.5	-24.3	17.4	0.00e+00	0	44	0	2588934144	10	3530
2026-01-16 15:19:06.49	267.02	53.62	-24.9	-25.1	17.0	0.00e+00	0	44	0	2610954240	10	3707
2026-01-16 15:19:09.50	269.16	53.44	-24.8	-24.9	17.1	0.00e+00	0	44	0	2631925760	10	3643
2026-01-16 15:19:12.51	271.27	53.23	-24.5	-24.4	17.4	1.10e-06	0	44	0	2653945856	10	3536
2026-01-16 15:19:15.51	273.34	52.98	-24.5	-24.4	17.3	0.00e+00	0	44	0	2675965952	10	3537
2026-01-16 15:19:18.52	275.38	52.69	-25.2	-25.7	16.6	0.00e+00	0	44	0	2697986048	10	3840
2026-01-16 15:19:21.53	277.37	52.37	-24.5	-24.4	17.3	0.00e+00	0	44	0	2718957568	10	3547
2026-01-16 15:19:24.54	279.33	52.02	-24.2	-24.2	17.7	0.00e+00	0	44	0	2740977664	9	3583
2026-01-16 15:19:27.53	281.22	51.64	-24.5	-24.7	17.5	0.00e+00	0	44	0	2761949184	9	3706
2026-01-16 15:19:30.53	283.07	51.23	-24.4	-24.7	17.5	0.00e+00	0	44	0	2783969280	9	3698
2026-01-16 15:19:33.52	284.86	50.79	-24.5	-24.8	17.4	0.00e+00	0	44	0	2805989376	9	3734
2026-01-16 15:19:36.52	286.60	50.33	-24.5	-24.8	17.4	0.00e+00	0	44	0	2826960896	9	3738
2026-01-16 15:19:39.53	288.30	49.85	-24.4	-24.6	17.4	0.00e+00	0	44	0	2848980992	9	3691
2026-01-16 15:19:42.53	289.94	49.35	-24.4	-24.6	17.5	0.00e+00	0	44	0	2871001088	9	3681
2026-01-16 15:19:45.53	291.52	48.83	-24.0	-24.2	17.9	0.00e+00	0	44	0	2891972608	8	3700
2026-01-16 15:19:48.54	293.06	48.29	-24.0	-24.2	18.0	0.00e+00	0	44	0	2913992704	8	3694
2026-01-16 15:19:51.55	294.55	47.74	-24.1	-24.4	17.8	0.00e+00	0	44	0	2936012800	8	3747
2026-01-16 15:19:54.56	295.98	47.18	-24.0	-24.4	17.9	0.00e+00	0	44	0	2958032896	8	3734
2026-01-16 15:19:57.57	297.36	46.61	-23.8	-23.8	18.1	0.00e+00	0	44	0	2979004416	8	3606
2026-01-16 15:20:00.57	298.69	46.02	-24.0	-24.3	17.8	0.00e+00	0	44	0	3001024512	8	3723
2026-01-16 15:20:03.58	299.97	45.43	-23.8	-23.7	18.2	0.00e+00	0	44	0	3023044608	8	3593
2026-01-16 15:20:06.58	301.20	44.84	-23.7	-23.5	18.3	0.00e+00	0	44	0	3044016128	8	3552
2026-01-16 15:20:09.59	302.40	44.24	-23.4	-23.1	18.5	0.00e+00	0	44	0	3066036224	8	3453
2026-01-16 15:20:12.61	303.55	43.63	-23.0	-22.7	18.9	0.00e+00	0	44	0	3088056320	7	3477
2026-01-16 15:20:15.61	304.65	43.03	-23.1	-22.8	18.9	0.00e+00	0	44	0	3110076416	7	3487
2026-01-16 15:20:18.61	305.71	42.42	-23.5	-23.7	18.4	0.00e+00	0	44	0	3131047936	7	3694
2026-01-16 15:20:21.61	306.73	41.81	-23.8	-24.3	18.1	0.00e+00	0	44	0	3153068032	7	3835
2026-01-16 15:20:24.63	307.73	41.20	-23.2	-23.1	18.6	0.00e+00	0	44	0	3175088128	7	3551
2026-01-16 15:20:27.63	308.68	40.60	-23.4	-23.6	18.5	0.00e+00	0	44	0	3196059648	7	3655
2026-01-16 15:20:30.65	309.60	39.99	-23.8	-24.3	18.0	0.00e+00	0	44	0	3218079744	7	3814
2026-01-16 15:20:33.66	310.48	39.39	-23.5	-23.7	18.4	0.00e+00	0	44	0	3240099840	7	3684
2026-01-16 15:20:36.67	311.34	38.79	-23.1	-22.9	18.7	0.00e+00	0	44	0	3262119936	7	3529
2026-01-16 15:20:39.66	312.15	38.20	-23.1	-22.9	18.7	0.00e+00	0	44	0	3283091456	7	3512
2026-01-16 15:20:42.65	312.94	37.61	-23.4	-23.5	18.4	0.00e+00	0	44	0	3305111552	7	3646
2026-01-16 15:20:45.67	313.71	37.02	-23.2	-23.1	18.6	0.00e+00	0	44	0	3326083072	7	3558
2026-01-16 15:20:48.67	314.45	36.44	-23.4	-23.5	18.4	0.00e+00	0	44	0	3348103168	7	3646
2026-01-16 15:20:51.67	315.16	35.87	-23.1	-22.9	18.7	0.00e+00	0	44	0	3370123264	7	3518
2026-01-16 15:20:54.68	315.85	35.30	-23.0	-22.7	18.8	0.00e+00	0	44	0	3391094784	7	3463
2026-01-16 15:20:57.67	316.52	34.74	-22.7	-22.7	19.0	0.00e+00	0	44	0	3413114880	6	3564
2026-01-16 15:21:00.67	317.16	34.18	-22.8	-22.7	19.0	0.00e+00	0	44	0	3435134976	6	3574
2026-01-16 15:21:03.67	317.78	33.63	-23.0	-23.2	18.8	0.00e+00	0	44	0	3456106496	6	3672
2026-01-16 15:21:06.68	318.38	33.08	-23.4	-24.0	18.3	0.00e+00	0	44	0	3478126592	6	3855
2026-01-16 15:21:09.68	318.97	32.54	-23.7	-24.1	18.0	0.00e+00	0	44	0	3500146688	7	3793
2026-01-16 15:21:12.68	319.53	32.01	-23.4	-23.0	18.4	0.00e+00	0	44	0	3521118208	8	3441
2026-01-16 15:21:15.68	320.08	31.49	-22.8	-22.8	18.9	0.00e+00	0	44	0	3543138304	6	3601
2026-01-16 15:21:18.68	320.61	30.97	-22.8	-22.8	18.9	0.00e+00	0	44	0	3565158400	6	3592
2026-01-16 15:21:21.69	321.12	30.46	-23.0	-23.2	18.7	0.00e+00	0	44	0	3586129920	6	3673
2026-01-16 15:21:24.69	321.62	29.95	-23.1	-23.4	18.6	0.00e+00	0	44	0	3608150016	6	3735
2026-01-16 15:21:27.69	322.10	29.46	-23.3	-23.8	18.4	0.00e+00	0	44	0	3630170112	6	3811
2026-01-16 15:21:30.69	322.57	28.96	-23.6	-24.1	18.0	0.00e+00	0	44	0	3651141632	7	3774
2026-01-16 15:21:33.71	323.03	28.48	-23.8	-24.4	17.7	0.00e+00	0	44	0	3673161728	7	3863
2026-01-16 15:21:36.71	323.47	28.00	-23.8	-24.3	17.9	0.00e+00	0	44	0	3695181824	7	3830
2026-01-16 15:21:39.72	323.90	27.52	-23.6	-24.0	18.0	0.00e+00	0	44	0	3717201920	7	3772
2026-01-16 15:21:42.73	324.32	27.06	-23.6	-23.9	18.1	0.00e+00	0	44	0	3738173440	7	3727
2026-01-16 15:21:45.73	324.73	26.60	-23.1	-23.0	18.5	0.00e+00	0	44	0	3760193536	7	3531
2026-01-16 15:21:48.75	325.13	26.14	-23.2	-23.0	18.4	0.00e+00	0	44	0	3782213632	7	3544
2026-01-16 15:21:51.75	325.51	25.70	-23.4	-23.5	18.2	0.00e+00	0	44	0	3804233728	7	3634
2026-01-16 15:21:54.77	325.89	25.25	-23.4	-23.6	18.2	0.00e+00	0	44	0	3825205248	7	3662
2026-01-16 15:21:57.78	326.25	24.82	-23.3	-23.3	18.3	0.00e+00	0	44	0	3847225344	7	3605
2026-01-16 15:22:00.78	326.61	24.39	-23.4	-23.6	18.2	0.00e+00	0	44	0	3868196864	7	3672
2026-01-16 15:22:03.78	326.95	23.97	-23.5	-23.8	18.0	0.00e+00	0	44	0	3890216960	7	3715
2026-01-16 15:22:06.77	327.29	23.55	-23.5	-23.8	18.0	0.00e+00	0	44	0	3912237056	7	3725
2026-01-16 15:22:09.79	327.62	23.14	-23.6	-23.9	18.0	0.00e+00	0	44	0	3933208576	7	3734
2026-01-16 15:22:12.80	327.94	22.73	-23.5	-23.6	18.1	0.00e+00	0	44	0	3955228672	7	3676
2026-01-16 15:22:15.79	328.25	22.33	-23.9	-24.6	17.6	0.00e+00	0	44	0	3977248768	7	3894
2026-01-16 15:22:18.81	328.56	21.94	-23.7	-24.1	17.8	0.00e+00	0	44	0	3999268864	7	3792
2026-01-16 15:22:21.80	328.85	21.55	-23.8	-24.4	17.7	0.00e+00	0	44	0	4020240384	7	3861
2026-01-16 15:22:24.82	329.15	21.16	-23.9	-24.7	17.5	0.00e+00	0	44	0	4042260480	7	3920
2026-01-16 15:22:27.83	329.43	20.78	-24.4	-25.2	17.0	0.00e+00	0	44	0	4064280576	8	3939
2026-01-16 15:22:30.83	329.71	20.41	-24.1	-24.5	17.4	0.00e+00	0	44	0	4085252096	8	3766
2026-01-16 15:22:33.83	329.98	20.04	-24.1	-24.6	17.3	0.00e+00	0	44	0	4107272192	8	3788
2026-01-16 15:22:36.84	330.24	19.68	-24.2	-24.7	17.3	0.00e+00	0	44	0	4129292288	8	3816
2026-01-16 15:22:39.85	330.50	19.32	-24.2	-24.7	17.2	0.00e+00	0	44	0	4150263808	8	3828
2026-01-16 15:22:42.85	330.76	18.96	-24.2	-24.7	17.3	0.00e+00	0	44	0	4172283904	8	3805
2026-01-16 15:22:45.86	331.00	18.61	-24.3	-25.0	17.1	0.00e+00	0	44	0	4194304000	8	3881
2026-01-16 15:22:48.87	331.25	18.27	-24.3	-25.0	17.1	0.00e+00	0	44	0	4216324096	8	3886
2026-01-16 15:22:51.87	331.48	17.92	-24.4	-25.2	16.9	0.00e+00	0	44	0	4237295616	8	3942
2026-01-16 15:22:54.89	331.72	17.59	-24.4	-25.1	16.9	0.00e+00	0	44	0	4259315712	8	3925
2026-01-16 15:22:57.89	331.95	17.25	-24.5	-25.3	16.8	0.00e+00	0	44	0	4281335808	8	3958
2026-01-16 15:23:00.90	332.17	16.92	-24.7	-25.3	16.5	0.00e+00	0	44	0	4303355904	9	3863
2026-01-16 15:23:03.91	332.39	16.60	-24.8	-25.5	16.5	0.00e+00	0	44	0	4324327424	9	3901
2026-01-16 15:23:06.92	332.60	16.28	-24.8	-25.5	16.5	0.00e+00	0	44	0	4346347520	9	3895
2026-01-16 15:23:09.94	332.81	15.96	-24.8	-25.4	16.4	0.00e+00	0	44	0	4368367616	9	3888
2026-01-16 15:23:12.94	333.02	15.64	-25.0	-26.0	16.1	0.00e+00	0	44	0	4389339136	9	4024
2026-01-16 15:23:15.95	333.22	15.33	-24.9	-25.7	16.2	0.00e+00	0	44	0	4411359232	9	3965
2026-01-16 15:23:18.96	333.42	15.03	-25.5	-26.6	15.5	0.00e+00	0	44	0	4433379328	10	4067
2026-01-16 15:23:21.96	333.61	14.73	-25.1	-25.8	16.0	0.00e+00	0	44	0	4454350848	10	3863
2026-01-16 15:23:24.95	333.80	14.43	-25.2	-25.8	15.9	0.00e+00	0	44	0	4476370944	10	3878
2026-01-16 15:23:27.96	333.99	14.13	-25.0	-25.5	16.1	0.00e+00	0	44	0	4498391040	10	3806
2026-01-16 15:23:30.97	334.18	13.84	-25.2	-26.0	15.8	0.00e+00	0	44	0	4519362560	10	3913
2026-01-16 15:23:33.98	334.36	13.55	-25.1	-25.7	16.0	0.00e+00	0	44	0	4541382656	10	3841
2026-01-16 15:23:36.98	334.53	13.26	-25.4	-25.9	15.6	0.00e+00	0	44	0	4563402752	11	3803
2026-01-16 15:23:39.98	334.71	12.98	-25.5	-26.0	15.5	0.00e+00	0	44	0	4584374272	11	3825
2026-01-16 15:23:42.99	334.88	12.70	-25.7	-26.5	15.2	0.00e+00	0	44	0	4606394368	11	3933
2026-01-16 15:23:45.99	335.05	12.43	-25.9	-26.9	15.0	0.00e+00	0	44	0	4628414464	11	4033
2026-01-16 15:23:48.99	335.21	12.15	-26.1	-26.9	14.6	1.10e-06	0	44	0	4649385984	12	3951
2026-01-16 15:23:51.99	335.37	11.88	-26.4	-27.5	14.2	0.00e+00	0	44	0	4671406080	12	4105
2026-01-16 15:23:54.99	335.53	11.61	-26.4	-27.5	14.3	0.00e+00	0	44	0	4693426176	12	4102
2026-01-16 15:23:57.99	335.69	11.35	-26.3	-27.3	14.3	0.00e+00	0	44	0	4714397696	12	4047
2026-01-16 15:24:00.99	335.84	11.09	-26.0	-26.7	14.7	0.00e+00	0	44	0	4736417792	12	3891
2026-01-16 15:24:03.99	336.00	10.83	-26.2	-27.1	14.4	3.40e-06	0	44	0	4758437888	12	4006
2026-01-16 15:24:07.00	336.15	10.57	-26.3	-27.3	14.3	0.00e+00	0	44	0	4779409408	12	4041
2026-01-16 15:24:09.99	336.29	10.32	-26.3	-27.4	14.2	0.00e+00	0	44	0	4801429504	12	4081
2026-01-16 15:24:12.99	336.44	10.06	-26.4	-27.6	14.1	1.10e-06	0	44	0	4823449600	12	4122
2026-01-16 15:24:15.99	336.58	9.81	-26.4	-27.6	14.1	2.20e-06	0	44	0	4844421120	12	4136
2026-01-16 15:24:19.00	336.72	9.57	-26.9	-28.2	13.4	1.48e-05	0	44	0	4866441216	13	4197
2026-01-16 15:24:22.01	336.86	9.32	-27.0	-28.4	13.3	1.02e-05	0	44	0	4888461312	13	4243
2026-01-16 15:24:25.02	337.00	9.08	-26.7	-27.9	13.6	6.80e-06	0	44	0	4910481408	13	4098
2026-01-16 15:24:28.01	337.13	8.84	-26.8	-27.9	13.5	1.02e-05	0	44	0	4931452928	13	4102
2026-01-16 15:24:31.02	337.26	8.60	-26.6	-27.5	13.8	4.50e-06	0	44	0	4953473024	13	3992
2026-01-16 15:24:34.02	337.39	8.36	-26.6	-27.6	13.6	8.00e-06	0	44	0	4974444544	13	4027
2026-01-16 15:24:37.03	337.52	8.13	-26.6	-27.4	13.8	1.71e-05	0	44	0	4996464640	13	3988
2026-01-16 15:24:40.04	337.65	7.89	-26.7	-27.9	13.5	2.17e-05	0	44	0	5018484736	13	4099
2026-01-16 15:24:43.05	337.78	7.66	-26.3	-26.9	14.0	1.10e-06	0	44	0	5040504832	13	3862
2026-01-16 15:24:46.04	337.90	7.43	-26.7	-27.4	13.4	1.02e-05	0	44	0	5061476352	14	3886
2026-01-16 15:24:49.04	338.02	7.21	-26.8	-27.5	13.3	3.66e-05	0	44	0	5083496448	14	3908
2026-01-16 15:24:52.04	338.14	6.98	-33.4	-43.2	3.8	8.46e-01	0	44	104	5092933632	26	11127

#Closed at: 2026-01-16 15:24:52
#Recorded file [5092 MB]: D:/data/31010_260116_181304.dat