passes_logs/2026/01/16/R2M6_AANII_01/R2M6_AANII_01__20260116_015513_FENGYUN_3D_rec.log

#Pass ID: 20260116_015513_FENGYUN 3D
#Satellite: FENGYUN 3D
#Configuration: FENGYUN 3D
#almurnet v.1.7.20240730
#Start time: 2026-01-16 01:55:13

#Version: 2.2.20231116
#Station: R2M6_AANII_01
#Location: 30.233357 lon 59.946436 lat
#TLE: 1 43010U 17072A   26015.49690188 -.00000192  00000+0 -69217-4 0  9996
#TLE: 2 43010  98.9932 347.3205 0002350 106.2275 253.9159 14.19694721423329

#Time	Az	El	Level	Level2	SNR	BER	BlckErr	Temp	State	Recorded	gain1	gain2
2026-01-16 01:55:13.48	21.49	6.96	-28.5	-30.9	5.6	7.77e-01	0	41	0	0	17	4757
2026-01-16 01:55:16.49	21.58	7.19	-29.4	-32.6	10.2	6.11e-03	0	41	0	5242880	18	5244
2026-01-16 01:55:19.48	21.68	7.42	-28.9	-31.4	11.0	3.27e-03	0	42	0	22020096	18	4816
2026-01-16 01:55:22.48	21.78	7.65	-28.4	-31.2	11.9	1.43e-03	0	42	0	38797312	16	4936
2026-01-16 01:55:25.49	21.88	7.88	-27.6	-29.7	12.9	6.40e-05	0	42	0	55574528	15	4574
2026-01-16 01:55:28.50	21.99	8.12	-26.8	-28.9	14.0	5.70e-06	0	42	0	73400320	13	4567
2026-01-16 01:55:31.51	22.09	8.35	-26.6	-28.4	14.3	3.86e-04	0	42	0	90177536	13	4415
2026-01-16 01:55:34.51	22.20	8.59	-26.6	-28.3	14.4	3.52e-04	0	42	0	106954752	13	4385
2026-01-16 01:55:37.52	22.30	8.84	-26.7	-28.6	14.3	1.10e-06	0	42	0	123731968	13	4480
2026-01-16 01:55:40.53	22.41	9.08	-26.5	-28.2	14.5	1.10e-06	0	42	0	140509184	13	4352
2026-01-16 01:55:43.53	22.52	9.33	-26.5	-28.6	14.6	3.34e-04	0	42	0	157286400	12	4582
2026-01-16 01:55:46.53	22.63	9.57	-26.6	-28.4	14.3	3.23e-04	0	42	0	174063616	13	4434
2026-01-16 01:55:49.53	22.75	9.82	-26.6	-28.3	14.4	2.99e-04	0	42	0	190840832	13	4404
2026-01-16 01:55:52.54	22.86	10.08	-26.3	-28.2	14.8	2.85e-04	0	42	0	208666624	12	4477
2026-01-16 01:55:55.55	22.98	10.34	-26.7	-28.6	14.3	2.97e-04	0	42	0	225443840	13	4473
2026-01-16 01:55:58.55	23.10	10.59	-26.7	-28.5	14.4	2.51e-04	0	42	0	242221056	13	4456
2026-01-16 01:56:01.56	23.22	10.86	-26.4	-27.8	14.8	0.00e+00	0	42	0	258998272	13	4256
2026-01-16 01:56:04.57	23.35	11.12	-25.9	-27.4	15.4	2.30e-04	0	42	0	275775488	12	4238
2026-01-16 01:56:07.56	23.47	11.39	-25.8	-27.0	15.5	2.35e-04	0	43	0	292552704	12	4149
2026-01-16 01:56:10.55	23.60	11.65	-25.7	-27.3	15.8	0.00e+00	0	43	0	309329920	11	4336
2026-01-16 01:56:13.55	23.72	11.93	-25.8	-27.4	15.7	0.00e+00	0	43	0	326107136	11	4357
2026-01-16 01:56:16.55	23.86	12.20	-25.7	-27.2	15.8	3.29e-04	0	43	0	342884352	11	4307
2026-01-16 01:56:19.55	23.99	12.48	-25.6	-27.1	15.9	0.00e+00	0	43	0	359661568	11	4283
2026-01-16 01:56:22.55	24.13	12.76	-25.6	-27.1	16.0	0.00e+00	0	43	0	376438784	11	4261
2026-01-16 01:56:25.56	24.26	13.05	-25.7	-27.2	15.9	0.00e+00	0	43	0	394264576	11	4295
2026-01-16 01:56:28.57	24.40	13.34	-25.7	-27.2	15.9	2.68e-04	0	43	0	411041792	11	4306
2026-01-16 01:56:31.58	24.55	13.63	-25.6	-27.1	16.0	0.00e+00	0	43	0	427819008	11	4258
2026-01-16 01:56:34.59	24.69	13.92	-25.4	-26.7	16.2	0.00e+00	0	43	0	444596224	11	4156
2026-01-16 01:56:37.60	24.84	14.22	-25.3	-26.4	16.4	0.00e+00	0	43	0	461373440	11	4089
2026-01-16 01:56:40.60	24.99	14.52	-25.3	-27.0	16.3	0.00e+00	0	43	0	478150656	10	4344
2026-01-16 01:56:43.61	25.15	14.83	-25.1	-26.5	16.6	0.00e+00	0	43	0	494927872	10	4233
2026-01-16 01:56:46.62	25.31	15.14	-25.1	-26.4	16.7	0.00e+00	0	43	0	511705088	10	4202
2026-01-16 01:56:49.63	25.47	15.45	-25.1	-26.4	16.7	0.00e+00	0	43	0	529530880	10	4182
2026-01-16 01:56:52.63	25.63	15.77	-25.1	-26.6	16.6	0.00e+00	0	43	0	546308096	10	4241
2026-01-16 01:56:55.64	25.80	16.09	-25.0	-26.3	16.8	0.00e+00	0	43	0	563085312	10	4160
2026-01-16 01:56:58.65	25.97	16.42	-24.9	-26.4	17.0	0.00e+00	0	43	0	579862528	9	4318
2026-01-16 01:57:01.65	26.14	16.75	-25.0	-26.3	16.8	0.00e+00	0	43	0	596639744	10	4158
2026-01-16 01:57:04.66	26.32	17.08	-24.6	-25.8	17.3	0.00e+00	0	43	0	613416960	9	4156
2026-01-16 01:57:07.67	26.50	17.42	-24.6	-25.9	17.3	0.00e+00	0	43	0	630194176	9	4177
2026-01-16 01:57:10.67	26.68	17.76	-24.6	-25.9	17.3	0.00e+00	0	43	0	646971392	9	4178
2026-01-16 01:57:13.67	26.87	18.11	-24.6	-25.9	17.3	0.00e+00	0	43	0	664797184	9	4174
2026-01-16 01:57:16.68	27.06	18.46	-24.6	-25.9	17.3	0.00e+00	0	43	0	681574400	9	4180
2026-01-16 01:57:19.68	27.26	18.82	-24.3	-25.6	17.7	0.00e+00	0	43	0	698351616	8	4215
2026-01-16 01:57:22.68	27.46	19.18	-24.2	-25.5	17.8	0.00e+00	0	43	0	715128832	8	4172
2026-01-16 01:57:25.69	27.67	19.55	-24.1	-25.3	17.9	0.00e+00	0	43	0	731906048	8	4142
2026-01-16 01:57:28.69	27.88	19.92	-24.0	-25.2	18.0	0.00e+00	0	43	0	748683264	8	4108
2026-01-16 01:57:31.69	28.09	20.29	-24.1	-25.4	17.9	0.00e+00	0	43	0	765460480	8	4155
2026-01-16 01:57:34.69	28.31	20.68	-24.2	-25.5	17.9	0.00e+00	0	43	0	783286272	8	4171
2026-01-16 01:57:37.69	28.54	21.06	-24.2	-25.5	17.9	0.00e+00	0	43	0	800063488	8	4173
2026-01-16 01:57:40.68	28.77	21.46	-24.0	-25.2	18.1	0.00e+00	0	43	0	816840704	8	4096
2026-01-16 01:57:43.69	29.00	21.86	-23.8	-24.7	18.3	0.00e+00	0	44	0	833617920	8	3974
2026-01-16 01:57:46.69	29.24	22.26	-23.7	-24.5	18.5	0.00e+00	0	43	0	850395136	8	3924
2026-01-16 01:57:49.69	29.49	22.67	-23.8	-25.1	18.4	0.00e+00	0	44	0	867172352	7	4183
2026-01-16 01:57:52.70	29.75	23.09	-23.6	-24.7	18.6	0.00e+00	0	43	0	883949568	7	4102
2026-01-16 01:57:55.72	30.01	23.52	-23.6	-24.7	18.6	0.00e+00	0	43	0	900726784	7	4105
2026-01-16 01:57:58.72	30.28	23.95	-23.4	-24.3	18.8	0.00e+00	0	44	0	917504000	7	4008
2026-01-16 01:58:01.72	30.55	24.38	-23.4	-24.3	18.8	0.00e+00	0	43	0	934281216	7	3997
2026-01-16 01:58:04.72	30.84	24.83	-23.2	-24.3	19.1	0.00e+00	0	44	0	951058432	6	4095
2026-01-16 01:58:07.71	31.13	25.28	-23.1	-24.2	19.2	0.00e+00	0	44	0	968884224	6	4079
2026-01-16 01:58:10.71	31.43	25.73	-22.9	-23.7	19.4	0.00e+00	0	43	0	985661440	6	3950
2026-01-16 01:58:13.71	31.73	26.20	-23.0	-24.1	19.3	0.00e+00	0	44	0	1002438656	6	4041
2026-01-16 01:58:16.72	32.05	26.67	-23.1	-24.3	19.1	0.00e+00	0	44	0	1019215872	6	4093
2026-01-16 01:58:19.72	32.37	27.15	-23.1	-24.1	19.3	0.00e+00	0	44	0	1035993088	6	4053
2026-01-16 01:58:22.72	32.71	27.64	-23.1	-24.1	19.3	0.00e+00	0	44	0	1052770304	6	4056
2026-01-16 01:58:25.72	33.05	28.14	-22.9	-23.8	19.4	0.00e+00	0	44	0	1069547520	6	3988
2026-01-16 01:58:28.73	33.41	28.64	-23.0	-24.0	19.3	0.00e+00	0	44	0	1086324736	6	4030
2026-01-16 01:58:31.74	33.78	29.15	-23.0	-24.0	19.3	0.00e+00	0	44	0	1104150528	6	4033
2026-01-16 01:58:34.74	34.15	29.67	-22.9	-23.8	19.4	0.00e+00	0	44	0	1120927744	6	3986
2026-01-16 01:58:37.74	34.54	30.20	-22.9	-23.7	19.5	0.00e+00	0	44	0	1137704960	6	3953
2026-01-16 01:58:40.75	34.95	30.74	-23.0	-23.9	19.4	0.00e+00	0	44	0	1154482176	6	4013
2026-01-16 01:58:43.75	35.36	31.28	-23.0	-24.0	19.4	0.00e+00	0	44	0	1171259392	6	4020
2026-01-16 01:58:46.77	35.80	31.84	-23.1	-24.1	19.4	0.00e+00	0	44	0	1188036608	6	4051
2026-01-16 01:58:49.77	36.24	32.41	-22.7	-23.4	19.7	0.00e+00	0	43	0	1204813824	6	3874
2026-01-16 01:58:52.78	36.70	32.98	-22.7	-23.3	19.8	0.00e+00	0	44	0	1221591040	6	3853
2026-01-16 01:58:55.78	37.18	33.56	-22.6	-23.1	19.9	0.00e+00	0	44	0	1239416832	6	3804
2026-01-16 01:58:58.80	37.67	34.15	-22.9	-23.7	19.6	0.00e+00	0	44	0	1256194048	6	3951
2026-01-16 01:59:01.80	38.18	34.75	-23.0	-24.0	19.4	0.00e+00	0	44	0	1272971264	6	4031
2026-01-16 01:59:04.81	38.72	35.36	-22.8	-23.4	19.7	0.00e+00	0	44	0	1289748480	6	3898
2026-01-16 01:59:07.81	39.27	35.98	-22.8	-23.4	19.7	0.00e+00	0	44	0	1306525696	6	3894
2026-01-16 01:59:10.81	39.84	36.61	-22.7	-23.3	19.8	0.00e+00	0	44	0	1323302912	6	3866
2026-01-16 01:59:13.81	40.43	37.24	-22.6	-23.2	19.9	0.00e+00	0	44	0	1340080128	6	3836
2026-01-16 01:59:16.81	41.04	37.89	-22.7	-23.2	19.9	0.00e+00	0	44	0	1356857344	6	3847
2026-01-16 01:59:19.82	41.69	38.54	-22.4	-22.8	20.1	0.00e+00	0	44	0	1373634560	6	3735
2026-01-16 01:59:22.81	42.35	39.20	-22.6	-23.1	20.0	0.00e+00	0	43	0	1390411776	6	3815
2026-01-16 01:59:25.82	43.05	39.88	-22.8	-23.5	19.7	0.00e+00	0	44	0	1408237568	6	3915
2026-01-16 01:59:28.82	43.77	40.56	-22.7	-23.3	19.9	0.00e+00	0	43	0	1425014784	6	3856
2026-01-16 01:59:31.83	44.52	41.25	-22.6	-23.1	20.0	0.00e+00	0	44	0	1441792000	6	3812
2026-01-16 01:59:34.85	45.32	41.95	-22.8	-23.5	19.8	0.00e+00	0	44	0	1458569216	6	3902
2026-01-16 01:59:37.85	46.14	42.65	-22.6	-23.1	20.0	0.00e+00	0	44	0	1475346432	6	3808
2026-01-16 01:59:40.85	46.99	43.36	-22.8	-23.5	19.8	0.00e+00	0	44	0	1492123648	6	3917
2026-01-16 01:59:43.85	47.89	44.07	-22.8	-23.6	19.8	0.00e+00	0	44	0	1508900864	6	3923
2026-01-16 01:59:46.84	48.82	44.79	-22.9	-23.7	19.7	0.00e+00	0	44	0	1525678080	6	3955
2026-01-16 01:59:49.85	49.80	45.52	-23.3	-24.5	19.4	0.00e+00	0	44	0	1543503872	6	4144
2026-01-16 01:59:52.87	50.83	46.25	-22.9	-23.2	19.8	0.00e+00	0	44	0	1560281088	7	3736
2026-01-16 01:59:55.88	51.91	46.99	-23.0	-23.8	19.7	0.00e+00	0	44	0	1577058304	6	3988
2026-01-16 01:59:58.88	53.03	47.72	-23.1	-24.1	19.6	0.00e+00	0	44	0	1593835520	6	4038
2026-01-16 02:00:01.88	54.21	48.46	-22.7	-23.3	19.9	0.00e+00	0	44	0	1610612736	6	3864
2026-01-16 02:00:04.88	55.44	49.19	-23.1	-24.0	19.6	0.00e+00	0	44	0	1627389952	6	4035
2026-01-16 02:00:07.88	56.74	49.92	-23.0	-24.0	19.7	0.00e+00	0	44	0	1644167168	6	4015
2026-01-16 02:00:10.87	58.09	50.65	-23.4	-24.7	19.3	0.00e+00	0	44	0	1660944384	6	4185
2026-01-16 02:00:13.87	59.51	51.37	-23.5	-24.6	19.1	0.00e+00	0	44	0	1677721600	7	4050
2026-01-16 02:00:16.89	61.01	52.09	-23.3	-24.1	19.3	0.00e+00	0	44	0	1695547392	7	3943
2026-01-16 02:00:19.89	62.58	52.79	-23.4	-24.2	19.3	0.00e+00	0	44	0	1712324608	7	3961
2026-01-16 02:00:22.90	64.23	53.48	-23.2	-23.7	19.6	0.00e+00	0	44	0	1729101824	7	3849
2026-01-16 02:00:25.91	65.95	54.16	-24.2	-25.4	18.5	0.00e+00	0	44	0	1745879040	8	4140
2026-01-16 02:00:28.93	67.77	54.82	-23.9	-24.8	18.8	0.00e+00	0	44	0	1762656256	8	4004
2026-01-16 02:00:31.94	69.66	55.46	-24.1	-25.2	18.6	0.00e+00	0	44	0	1779433472	8	4088
2026-01-16 02:00:34.94	71.63	56.07	-23.8	-24.5	19.0	0.00e+00	0	44	0	1796210688	8	3925
2026-01-16 02:00:37.94	73.68	56.65	-24.0	-25.1	18.6	0.00e+00	0	44	0	1814036480	8	4071
2026-01-16 02:00:40.95	75.83	57.21	-24.2	-25.6	18.3	0.00e+00	0	44	0	1830813696	8	4226
2026-01-16 02:00:43.96	78.07	57.73	-23.4	-23.9	19.2	0.00e+00	0	44	0	1847590912	8	3797
2026-01-16 02:00:46.96	80.38	58.21	-23.1	-23.7	19.5	0.00e+00	0	44	0	1864368128	7	3861
2026-01-16 02:00:49.95	82.77	58.65	-23.4	-24.4	19.1	0.00e+00	0	44	0	1881145344	7	4033
2026-01-16 02:00:52.97	85.26	59.05	-23.3	-24.2	19.2	0.00e+00	0	44	0	1897922560	7	3974
2026-01-16 02:00:55.97	87.80	59.40	-22.8	-23.1	19.8	0.00e+00	0	44	0	1914699776	7	3722
2026-01-16 02:00:58.98	90.41	59.70	-23.0	-23.6	19.6	0.00e+00	0	44	0	1931476992	7	3828
2026-01-16 02:01:01.99	93.08	59.95	-23.6	-24.8	19.0	0.00e+00	0	44	0	1949302784	7	4121
2026-01-16 02:01:04.99	95.79	60.14	-23.5	-24.6	19.1	0.00e+00	0	44	0	1966080000	7	4062
2026-01-16 02:01:08.00	98.54	60.28	-23.5	-24.5	19.1	0.00e+00	0	44	0	1982857216	7	4058
2026-01-16 02:01:11.00	101.30	60.35	-23.4	-24.2	19.3	0.00e+00	0	44	0	1999634432	7	3978
2026-01-16 02:01:14.01	104.09	60.37	-23.8	-25.2	18.8	0.00e+00	0	44	0	2016411648	7	4207
2026-01-16 02:01:17.01	106.86	60.32	-23.3	-24.2	19.3	0.00e+00	0	44	0	2033188864	7	3976
2026-01-16 02:01:20.03	109.64	60.22	-23.5	-24.5	19.1	0.00e+00	0	44	0	2049966080	7	4055
2026-01-16 02:01:23.02	112.36	60.06	-23.1	-23.7	19.6	0.00e+00	0	44	0	2066743296	7	3839
2026-01-16 02:01:26.02	115.04	59.85	-23.4	-24.4	19.2	0.00e+00	0	44	0	2083520512	7	4012
2026-01-16 02:01:29.02	117.68	59.58	-23.9	-24.9	18.8	0.00e+00	0	44	0	2100297728	8	4029
2026-01-16 02:01:32.03	120.27	59.25	-23.2	-23.8	19.5	0.00e+00	0	44	0	2118123520	7	3881
2026-01-16 02:01:35.02	122.78	58.88	-23.2	-24.0	19.5	0.00e+00	0	44	0	2134900736	7	3915
2026-01-16 02:01:38.02	125.22	58.47	-23.9	-25.3	18.8	0.00e+00	0	44	0	2151677952	7	4239
2026-01-16 02:01:41.02	127.58	58.01	-23.7	-24.8	19.0	0.00e+00	0	44	0	2168455168	7	4130
2026-01-16 02:01:44.04	129.88	57.50	-23.3	-24.1	19.4	0.00e+00	0	44	0	2185232384	7	3949
2026-01-16 02:01:47.05	132.08	56.96	-23.6	-24.7	19.1	0.00e+00	0	44	0	2202009600	7	4099
2026-01-16 02:01:50.06	134.19	56.39	-23.7	-24.9	19.0	0.00e+00	0	44	0	2218786816	7	4131
2026-01-16 02:01:53.06	136.22	55.79	-23.6	-24.2	19.1	0.00e+00	0	44	0	2235564032	8	3864
2026-01-16 02:01:56.06	138.15	55.17	-23.8	-24.7	18.8	0.00e+00	0	44	0	2253389824	8	3994
2026-01-16 02:01:59.06	140.00	54.52	-24.2	-25.6	18.3	0.00e+00	0	44	0	2270167040	8	4212
2026-01-16 02:02:02.06	141.77	53.85	-23.9	-24.9	18.7	0.00e+00	0	44	0	2286944256	8	4025
2026-01-16 02:02:05.08	143.47	53.17	-23.8	-24.7	18.8	0.00e+00	0	44	0	2303721472	8	3980
2026-01-16 02:02:08.09	145.09	52.46	-23.6	-24.3	19.0	0.00e+00	0	44	0	2320498688	8	3889
2026-01-16 02:02:11.09	146.62	51.75	-23.7	-24.4	19.0	0.00e+00	0	44	0	2337275904	8	3909
2026-01-16 02:02:14.09	148.09	51.03	-23.5	-24.0	19.1	0.00e+00	0	44	0	2354053120	8	3817
2026-01-16 02:02:17.10	149.49	50.30	-23.3	-23.6	19.3	0.00e+00	0	44	0	2370830336	8	3724
2026-01-16 02:02:20.10	150.82	49.57	-23.1	-23.7	19.5	0.00e+00	0	44	0	2388656128	7	3843
2026-01-16 02:02:23.11	152.09	48.83	-23.2	-23.8	19.4	0.00e+00	0	44	0	2405433344	7	3897
2026-01-16 02:02:26.11	153.30	48.10	-23.2	-23.9	19.4	7.09e-05	0	44	0	2422210560	7	3888
2026-01-16 02:02:29.12	154.46	47.36	-22.9	-23.3	19.7	1.37e-05	0	44	0	2438987776	7	3760
2026-01-16 02:02:32.12	155.56	46.62	-22.8	-23.0	19.8	0.00e+00	0	44	0	2455764992	7	3702
2026-01-16 02:02:35.11	156.61	45.89	-23.1	-24.2	19.4	0.00e+00	0	44	0	2472542208	6	4086
2026-01-16 02:02:38.11	157.62	45.16	-22.9	-23.9	19.6	0.00e+00	0	44	0	2489319424	6	4013
2026-01-16 02:02:41.12	158.58	44.43	-22.8	-23.6	19.7	0.00e+00	0	44	0	2506096640	6	3945
2026-01-16 02:02:44.12	159.50	43.71	-22.6	-23.2	19.9	0.00e+00	0	44	0	2522873856	6	3848
2026-01-16 02:02:47.12	160.38	42.99	-22.8	-23.6	19.7	0.00e+00	0	44	0	2539651072	6	3945
2026-01-16 02:02:50.13	161.22	42.28	-22.8	-23.6	19.6	0.00e+00	0	44	0	2556428288	6	3951
2026-01-16 02:02:53.12	162.02	41.58	-23.0	-24.0	19.4	2.20e-06	0	44	0	2574254080	6	4061
2026-01-16 02:02:56.13	162.80	40.88	-22.8	-23.6	19.6	0.00e+00	0	44	0	2591031296	6	3944
2026-01-16 02:02:59.15	163.54	40.19	-22.6	-23.2	19.8	0.00e+00	0	44	0	2607808512	6	3850
2026-01-16 02:03:02.15	164.25	39.51	-22.6	-23.2	19.8	0.00e+00	0	44	0	2624585728	6	3852
2026-01-16 02:03:05.16	164.94	38.84	-22.6	-23.1	19.9	0.00e+00	0	44	0	2641362944	6	3828
2026-01-16 02:03:08.17	165.59	38.17	-22.7	-23.4	19.7	3.40e-06	0	44	0	2658140160	6	3911
2026-01-16 02:03:11.17	166.22	37.52	-22.7	-23.3	19.7	0.00e+00	0	44	0	2674917376	6	3888
2026-01-16 02:03:14.18	166.83	36.87	-22.6	-23.2	19.8	6.80e-06	0	44	0	2692743168	6	3854
2026-01-16 02:03:17.19	167.41	36.24	-22.4	-22.8	20.0	0.00e+00	0	44	0	2709520384	6	3764
2026-01-16 02:03:20.19	167.98	35.61	-22.6	-23.2	19.8	0.00e+00	0	44	0	2726297600	6	3854
2026-01-16 02:03:23.19	168.52	35.00	-22.6	-23.3	19.7	0.00e+00	0	44	0	2743074816	6	3881
2026-01-16 02:03:26.19	169.04	34.39	-22.8	-23.7	19.5	0.00e+00	0	44	0	2759852032	6	3959
2026-01-16 02:03:29.20	169.54	33.79	-22.9	-23.8	19.5	0.00e+00	0	44	0	2776629248	6	3985
2026-01-16 02:03:32.19	170.02	33.20	-23.0	-24.0	19.4	0.00e+00	0	44	0	2793406464	6	4042
2026-01-16 02:03:35.20	170.49	32.62	-23.0	-23.9	19.4	0.00e+00	0	44	0	2810183680	6	4033
2026-01-16 02:03:38.19	170.94	32.05	-22.8	-23.7	19.5	0.00e+00	0	44	0	2826960896	6	3971
2026-01-16 02:03:41.19	171.38	31.49	-23.1	-24.3	19.2	0.00e+00	0	44	0	2844786688	6	4108
2026-01-16 02:03:44.19	171.81	30.94	-22.9	-23.8	19.4	0.00e+00	0	44	0	2861563904	6	3992
2026-01-16 02:03:47.19	172.21	30.39	-23.1	-24.3	19.2	0.00e+00	0	44	0	2878341120	6	4123
2026-01-16 02:03:50.20	172.61	29.86	-23.0	-24.0	19.3	0.00e+00	0	44	0	2895118336	6	4037
2026-01-16 02:03:53.19	172.99	29.33	-23.0	-24.0	19.3	0.00e+00	0	44	0	2911895552	6	4057
2026-01-16 02:03:56.20	173.37	28.81	-22.9	-23.9	19.4	0.00e+00	0	44	0	2928672768	6	4023
2026-01-16 02:03:59.20	173.73	28.30	-22.8	-23.7	19.5	0.00e+00	0	44	0	2945449984	6	3969
2026-01-16 02:04:02.21	174.08	27.80	-22.9	-23.9	19.4	0.00e+00	0	44	0	2962227200	6	4007
2026-01-16 02:04:05.20	174.42	27.31	-23.1	-24.2	19.2	0.00e+00	0	44	0	2979004416	6	4098
2026-01-16 02:04:08.20	174.75	26.82	-23.2	-24.4	19.1	0.00e+00	0	44	0	2995781632	6	4149
2026-01-16 02:04:11.20	175.07	26.34	-23.2	-24.4	19.1	0.00e+00	0	44	0	3013607424	6	4137
2026-01-16 02:04:14.21	175.38	25.87	-23.1	-24.1	19.2	0.00e+00	0	44	0	3030384640	6	4075
2026-01-16 02:04:17.22	175.68	25.40	-22.9	-23.9	19.3	0.00e+00	0	44	0	3047161856	6	4016
2026-01-16 02:04:20.22	175.98	24.95	-22.8	-23.6	19.4	0.00e+00	0	44	0	3063939072	6	3953
2026-01-16 02:04:23.23	176.26	24.50	-22.9	-23.9	19.3	0.00e+00	0	44	0	3080716288	6	4022
2026-01-16 02:04:26.23	176.54	24.05	-23.2	-24.5	19.0	0.00e+00	0	44	0	3097493504	6	4157
2026-01-16 02:04:29.23	176.81	23.62	-23.4	-24.8	18.8	0.00e+00	0	44	0	3114270720	6	4242
2026-01-16 02:04:32.23	177.08	23.19	-23.5	-25.0	18.7	0.00e+00	0	44	0	3131047936	6	4298
2026-01-16 02:04:35.24	177.33	22.76	-23.5	-24.6	18.7	0.00e+00	0	44	0	3148873728	7	4089
2026-01-16 02:04:38.25	177.58	22.35	-23.6	-24.8	18.6	0.00e+00	0	44	0	3165650944	7	4123
2026-01-16 02:04:41.25	177.83	21.94	-23.7	-25.0	18.4	0.00e+00	0	44	0	3182428160	7	4173
2026-01-16 02:04:44.26	178.07	21.53	-24.2	-25.5	17.9	0.00e+00	0	44	0	3199205376	8	4201
2026-01-16 02:04:47.27	178.30	21.13	-24.5	-25.8	17.5	0.00e+00	0	44	0	3215982592	9	4152
2026-01-16 02:04:50.28	178.53	20.74	-24.7	-26.1	17.4	0.00e+00	0	44	0	3232759808	9	4235
2026-01-16 02:04:53.28	178.75	20.35	-24.6	-26.0	17.4	0.00e+00	0	44	0	3249537024	9	4215
2026-01-16 02:04:56.27	178.96	19.97	-24.2	-25.0	17.9	0.00e+00	0	44	0	3266314240	9	3957
2026-01-16 02:04:59.28	179.18	19.59	-24.1	-25.3	18.0	0.00e+00	0	44	0	3284140032	8	4147
2026-01-16 02:05:02.28	179.38	19.22	-24.0	-25.1	18.1	0.00e+00	0	44	0	3300917248	8	4093
2026-01-16 02:05:05.30	179.58	18.86	-24.1	-25.3	18.0	0.00e+00	0	44	0	3317694464	8	4153
2026-01-16 02:05:08.30	179.78	18.50	-24.3	-25.8	17.7	0.00e+00	0	44	0	3334471680	8	4269
2026-01-16 02:05:11.31	179.98	18.14	-24.4	-26.0	17.6	0.00e+00	0	44	0	3351248896	8	4322
2026-01-16 02:05:14.31	180.16	17.79	-24.7	-26.1	17.3	0.00e+00	0	44	0	3368026112	9	4245
2026-01-16 02:05:17.31	180.35	17.44	-25.0	-26.3	17.0	0.00e+00	0	44	0	3384803328	10	4185
2026-01-16 02:05:20.31	180.53	17.10	-25.1	-26.5	16.8	0.00e+00	0	44	0	3401580544	10	4237
2026-01-16 02:05:23.30	180.70	16.77	-25.2	-26.7	16.7	0.00e+00	0	44	0	3418357760	10	4298
2026-01-16 02:05:26.31	180.88	16.43	-25.2	-26.7	16.7	0.00e+00	0	44	0	3435134976	10	4282
2026-01-16 02:05:29.31	181.05	16.10	-25.0	-26.3	16.9	0.00e+00	0	44	0	3451912192	10	4184
2026-01-16 02:05:32.31	181.21	15.78	-24.8	-25.9	17.1	0.00e+00	0	44	0	3469737984	10	4068
2026-01-16 02:05:35.31	181.38	15.46	-24.9	-26.5	17.0	0.00e+00	0	44	0	3486515200	9	4334
2026-01-16 02:05:38.31	181.54	15.14	-24.9	-26.2	17.0	0.00e+00	0	44	0	3503292416	10	4140
2026-01-16 02:05:41.33	181.69	14.83	-25.1	-26.5	16.7	0.00e+00	0	44	0	3520069632	10	4243
2026-01-16 02:05:44.32	181.85	14.52	-25.2	-26.6	16.7	0.00e+00	0	44	0	3536846848	10	4251
2026-01-16 02:05:47.32	182.00	14.22	-25.2	-26.8	16.6	0.00e+00	0	44	0	3553624064	10	4310
2026-01-16 02:05:50.33	182.15	13.91	-25.4	-26.6	16.4	0.00e+00	0	44	0	3570401280	11	4150
2026-01-16 02:05:53.33	182.29	13.62	-25.5	-26.8	16.3	0.00e+00	0	44	0	3587178496	11	4192
2026-01-16 02:05:56.35	182.43	13.32	-25.6	-27.0	16.1	0.00e+00	0	44	0	3605004288	11	4253
2026-01-16 02:05:59.35	182.57	13.03	-25.8	-27.5	15.8	0.00e+00	0	44	0	3621781504	11	4393
2026-01-16 02:06:02.36	182.71	12.74	-25.9	-27.3	15.6	0.00e+00	0	44	0	3638558720	12	4231
2026-01-16 02:06:05.36	182.85	12.46	-25.9	-27.2	15.7	0.00e+00	0	44	0	3655335936	12	4187
2026-01-16 02:06:08.36	182.98	12.18	-25.7	-26.7	15.9	0.00e+00	0	44	0	3672113152	12	4082
2026-01-16 02:06:11.36	183.11	11.90	-25.9	-27.3	15.6	0.00e+00	0	44	0	3688890368	12	4210
2026-01-16 02:06:14.37	183.24	11.62	-25.9	-27.4	15.5	0.00e+00	0	44	0	3705667584	12	4248
2026-01-16 02:06:17.38	183.36	11.35	-25.9	-27.3	15.5	0.00e+00	0	44	0	3722444800	12	4222
2026-01-16 02:06:20.39	183.49	11.08	-26.1	-27.7	15.3	1.10e-06	0	44	0	3740270592	12	4336
2026-01-16 02:06:23.40	183.61	10.81	-26.2	-28.0	15.1	2.27e-04	0	44	0	3757047808	12	4413
2026-01-16 02:06:26.39	183.73	10.55	-26.3	-28.2	15.0	0.00e+00	0	44	0	3773825024	12	4489
2026-01-16 02:06:29.41	183.84	10.29	-26.2	-28.0	15.1	0.00e+00	0	44	0	3790602240	12	4410
2026-01-16 02:06:32.42	183.96	10.03	-26.4	-27.8	14.9	2.05e-04	0	44	0	3807379456	13	4261
2026-01-16 02:06:35.42	184.07	9.77	-26.8	-28.8	14.3	2.06e-04	0	44	0	3824156672	13	4530
2026-01-16 02:06:38.43	184.19	9.52	-26.5	-28.1	14.7	2.16e-04	0	44	0	3840933888	13	4348
2026-01-16 02:06:41.44	184.30	9.27	-26.3	-28.3	14.8	2.02e-04	0	44	0	3858759680	12	4514
2026-01-16 02:06:44.45	184.41	9.02	-26.3	-28.2	14.9	1.88e-04	0	44	0	3875536896	12	4495
2026-01-16 02:06:47.46	184.51	8.77	-26.5	-28.2	14.6	2.38e-04	0	44	0	3892314112	13	4372
2026-01-16 02:06:50.46	184.62	8.53	-26.8	-28.8	14.2	1.10e-06	0	44	0	3909091328	13	4548
2026-01-16 02:06:53.46	184.72	8.29	-26.6	-28.4	14.4	2.38e-04	0	44	0	3925868544	13	4436
2026-01-16 02:06:56.46	184.82	8.05	-26.7	-28.6	14.3	2.72e-04	0	44	0	3942645760	13	4492
2026-01-16 02:06:59.47	184.92	7.81	-26.8	-28.5	14.1	4.50e-06	0	44	0	3959422976	14	4343
2026-01-16 02:07:02.48	185.02	7.58	-26.8	-28.9	14.1	3.40e-06	0	44	0	3976200192	13	4587
2026-01-16 02:07:05.50	185.12	7.34	-27.3	-29.5	13.4	2.92e-04	0	44	0	3994025984	14	4662
2026-01-16 02:07:08.49	185.22	7.11	-32.8	-43.8	3.8	3.81e-04	0	44	104	4009754624	25	12731
2026-01-16 02:07:11.49	185.31	6.89	-33.5	-44.5	3.8	8.46e-01	0	44	104	4009754624	27	12841

#Closed at: 2026-01-16 02:07:12
#Recorded file [4009 MB]: D:/data/31010_260116_045515.dat