passes_logs/2026/01/16/R2M6_AANII_01/R2M6_AANII_01__20260116_005621_SUOMI_NPP_rec.log

#Pass ID: 20260116_005621_SUOMI NPP
#Satellite: SUOMI NPP
#Configuration: NPP
#almurnet v.1.7.20240730
#Start time: 2026-01-16 00:56:21

#Version: 2.2.20231116
#Station: R2M6_AANII_01
#Location: 30.233357 lon 59.946436 lat
#TLE: 1 37849U 11061A   26015.52691075  .00000052  00000+0  45753-4 0  9993
#TLE: 2 37849  98.7811 317.5709 0002448  62.7632 297.3794 14.19525354736784

#Time	Az	El	Level	Level2	SNR	BER	BlckErr	Temp	State	Recorded	gain1	gain2
2026-01-16 00:56:21.92	15.66	7.03	-31.6	-35.9	5.1	1.29e+00	0	41	0	0	23	5858
2026-01-16 00:56:24.91	15.59	7.26	-32.0	-37.2	7.4	6.95e-02	0	41	0	1048576	23	6598
2026-01-16 00:56:27.91	15.52	7.49	-31.4	-34.9	9.3	3.98e-02	0	41	0	7340032	23	5339
2026-01-16 00:56:30.91	15.44	7.72	-31.3	-34.6	9.9	1.84e-02	0	41	0	12582912	22	5299
2026-01-16 00:56:33.91	15.37	7.96	-30.7	-33.2	11.3	4.61e-03	0	42	0	17825792	21	4825
2026-01-16 00:56:36.91	15.29	8.19	-30.5	-33.1	11.9	3.24e-03	0	42	0	24117248	20	4849
2026-01-16 00:56:39.92	15.21	8.43	-30.3	-32.5	12.2	2.96e-03	0	42	0	29360128	20	4630
2026-01-16 00:56:42.92	15.13	8.68	-30.6	-32.8	11.7	3.32e-03	0	42	0	35651584	21	4643
2026-01-16 00:56:45.91	15.05	8.92	-30.6	-32.8	11.7	3.61e-03	0	42	0	40894464	21	4637
2026-01-16 00:56:48.92	14.96	9.17	-30.5	-32.7	11.8	5.61e-04	0	42	0	46137344	21	4594
2026-01-16 00:56:51.92	14.87	9.42	-30.4	-32.7	12.2	3.13e-03	0	42	0	52428800	20	4708
2026-01-16 00:56:54.92	14.79	9.67	-30.3	-32.3	12.5	2.90e-03	0	42	0	57671680	20	4545
2026-01-16 00:56:57.93	14.70	9.92	-30.2	-32.1	12.7	2.79e-03	0	42	0	62914560	20	4463
2026-01-16 00:57:00.92	14.61	10.18	-30.0	-31.4	13.1	2.52e-03	0	42	0	69206016	20	4258
2026-01-16 00:57:03.94	14.51	10.44	-30.0	-31.4	13.2	2.69e-03	0	42	0	74448896	20	4260
2026-01-16 00:57:06.95	14.42	10.70	-29.9	-31.2	13.3	2.89e-05	0	42	0	79691776	20	4185
2026-01-16 00:57:09.95	14.32	10.97	-29.8	-31.4	13.6	8.30e-06	0	42	0	85983232	19	4335
2026-01-16 00:57:12.96	14.22	11.23	-29.9	-31.7	13.4	2.74e-03	0	43	0	91226112	19	4426
2026-01-16 00:57:15.96	14.12	11.50	-29.8	-31.4	13.6	2.57e-03	0	43	0	97517568	19	4327
2026-01-16 00:57:18.96	14.02	11.78	-29.8	-31.4	13.7	2.36e-03	0	43	0	102760448	19	4310
2026-01-16 00:57:21.95	13.91	12.05	-29.6	-30.8	14.1	2.20e-06	0	43	0	108003328	19	4129
2026-01-16 00:57:24.96	13.81	12.33	-29.7	-31.0	14.0	3.00e-06	0	43	0	114294784	19	4189
2026-01-16 00:57:27.97	13.70	12.62	-29.5	-30.6	14.2	1.50e-06	0	43	0	119537664	19	4085
2026-01-16 00:57:30.97	13.58	12.90	-29.4	-30.4	14.4	0.00e+00	0	43	0	124780544	19	4010
2026-01-16 00:57:33.97	13.47	13.19	-29.4	-30.2	14.5	7.00e-07	0	43	0	131072000	19	3971
2026-01-16 00:57:36.96	13.35	13.48	-29.5	-30.5	14.4	2.41e-03	0	43	0	136314880	19	4032
2026-01-16 00:57:39.96	13.23	13.78	-29.6	-30.9	14.2	1.50e-06	0	43	0	141557760	19	4147
2026-01-16 00:57:42.97	13.11	14.08	-29.7	-31.0	14.1	3.00e-06	0	43	0	147849216	19	4176
2026-01-16 00:57:45.97	12.99	14.38	-29.7	-31.1	14.1	2.20e-06	0	43	0	153092096	19	4200
2026-01-16 00:57:48.98	12.86	14.69	-29.5	-30.5	14.4	0.00e+00	0	43	0	159383552	19	4043
2026-01-16 00:57:51.97	12.73	14.99	-29.6	-30.7	14.3	0.00e+00	0	43	0	164626432	19	4106
2026-01-16 00:57:54.98	12.59	15.31	-29.7	-31.1	14.1	7.00e-07	0	43	0	169869312	19	4207
2026-01-16 00:57:57.99	12.46	15.63	-29.7	-30.9	14.2	7.00e-07	0	43	0	176160768	19	4156
2026-01-16 00:58:01.00	12.32	15.95	-29.6	-30.6	14.0	0.00e+00	0	43	0	181403648	19	4075
2026-01-16 00:58:04.00	12.17	16.28	-29.3	-30.6	14.5	0.00e+00	0	43	0	186646528	18	4142
2026-01-16 00:58:07.00	12.03	16.61	-29.3	-30.4	14.9	0.00e+00	0	43	0	192937984	18	4098
2026-01-16 00:58:10.00	11.88	16.94	-29.3	-30.3	15.0	0.00e+00	0	43	0	198180864	18	4078
2026-01-16 00:58:13.01	11.72	17.28	-29.2	-30.2	15.0	0.00e+00	0	43	0	204472320	18	4052
2026-01-16 00:58:16.02	11.56	17.62	-29.2	-30.2	15.1	0.00e+00	0	43	0	209715200	18	4027
2026-01-16 00:58:19.01	11.40	17.97	-29.3	-30.5	14.9	3.33e-04	0	43	0	214958080	18	4118
2026-01-16 00:58:22.01	11.24	18.32	-29.4	-30.7	14.8	2.72e-04	0	43	0	221249536	18	4188
2026-01-16 00:58:25.01	11.07	18.68	-29.4	-30.6	14.9	0.00e+00	0	43	0	226492416	18	4153
2026-01-16 00:58:28.03	10.89	19.05	-29.5	-30.3	14.7	0.00e+00	0	43	0	232783872	19	3980
2026-01-16 00:58:31.05	10.71	19.42	-29.7	-30.9	14.4	7.00e-07	0	43	0	238026752	19	4145
2026-01-16 00:58:34.05	10.53	19.79	-29.9	-31.4	14.1	2.71e-04	0	43	0	243269632	19	4272
2026-01-16 00:58:37.06	10.34	20.17	-30.0	-31.3	13.8	2.75e-04	0	43	0	249561088	20	4161
2026-01-16 00:58:40.07	10.14	20.55	-29.8	-30.8	14.1	2.45e-04	0	43	0	254803968	20	4038
2026-01-16 00:58:43.08	9.95	20.94	-30.2	-31.8	13.4	2.29e-04	0	43	0	260046848	20	4329
2026-01-16 00:58:46.08	9.74	21.34	-29.7	-30.9	14.5	1.88e-04	0	43	0	266338304	19	4122
2026-01-16 00:58:49.09	9.53	21.74	-30.1	-31.4	13.8	1.74e-04	0	43	0	271581184	20	4198
2026-01-16 00:58:52.10	9.32	22.15	-29.9	-30.8	14.1	1.36e-04	0	43	0	277872640	20	4032
2026-01-16 00:58:55.11	9.09	22.56	-29.8	-31.0	14.4	1.18e-04	0	43	0	283115520	19	4171
2026-01-16 00:58:58.11	8.86	22.98	-29.5	-30.3	14.8	1.37e-05	0	43	0	288358400	19	3966
2026-01-16 00:59:01.12	8.63	23.41	-29.3	-29.9	15.1	4.19e-05	0	43	0	294649856	19	3852
2026-01-16 00:59:04.13	8.39	23.84	-29.8	-31.1	14.5	1.14e-04	0	43	0	299892736	19	4174
2026-01-16 00:59:07.12	8.14	24.28	-30.1	-31.3	13.9	3.00e-06	0	43	0	305135616	20	4167
2026-01-16 00:59:10.14	7.88	24.73	-30.2	-31.8	13.6	1.29e-05	0	44	0	311427072	20	4313
2026-01-16 00:59:13.12	7.62	25.18	-30.4	-32.2	13.4	9.10e-06	0	44	0	316669952	20	4429
2026-01-16 00:59:16.12	7.35	25.64	-30.4	-32.1	13.4	4.11e-05	0	43	0	322961408	20	4415
2026-01-16 00:59:19.12	7.07	26.11	-30.4	-31.8	13.2	5.18e-05	0	43	0	328204288	21	4210
2026-01-16 00:59:22.12	6.78	26.58	-30.7	-32.5	12.9	7.62e-05	0	43	0	333447168	21	4435
2026-01-16 00:59:25.12	6.48	27.07	-30.6	-32.2	13.0	6.25e-05	0	43	0	339738624	21	4334
2026-01-16 00:59:28.13	6.17	27.56	-30.5	-31.9	13.2	1.67e-05	0	44	0	344981504	21	4239
2026-01-16 00:59:31.13	5.86	28.06	-30.3	-31.9	13.5	6.80e-06	0	43	0	350224384	20	4340
2026-01-16 00:59:34.13	5.53	28.56	-30.1	-31.2	14.1	1.50e-06	0	44	0	356515840	20	4126
2026-01-16 00:59:37.13	5.19	29.08	-30.4	-32.3	13.4	1.94e-04	0	44	0	361758720	20	4439
2026-01-16 00:59:40.14	4.84	29.60	-31.0	-33.2	12.5	1.55e-04	0	44	0	367001600	21	4664
2026-01-16 00:59:43.12	4.48	30.13	-31.4	-33.5	11.5	7.13e-04	0	43	0	373293056	23	4572
2026-01-16 00:59:46.13	4.10	30.67	-31.7	-34.3	11.0	1.38e-03	0	44	0	378535936	23	4897
2026-01-16 00:59:49.14	3.71	31.22	-31.6	-34.1	11.2	2.13e-03	0	44	0	384827392	23	4787
2026-01-16 00:59:52.15	3.31	31.78	-31.9	-34.5	10.6	3.94e-03	0	43	0	390070272	24	4866
2026-01-16 00:59:55.15	2.89	32.35	-31.7	-34.1	10.9	3.30e-03	0	44	0	395313152	24	4696
2026-01-16 00:59:58.14	2.46	32.93	-31.5	-33.8	11.5	1.61e-03	0	44	0	401604608	23	4665
2026-01-16 01:00:01.15	2.01	33.51	-32.1	-35.2	10.0	5.07e-03	0	44	0	406847488	24	5152
2026-01-16 01:00:04.15	1.55	34.11	-32.4	-35.9	9.2	1.73e-02	0	44	0	412090368	25	5361
2026-01-16 01:00:07.14	1.07	34.71	-32.2	-35.7	9.6	1.09e-02	0	44	0	418381824	24	5379
2026-01-16 01:00:10.14	0.56	35.32	-32.5	-36.6	8.6	3.54e-02	0	44	0	423624704	24	5801
2026-01-16 01:00:13.16	0.04	35.95	-32.3	-36.0	9.3	3.14e-02	0	44	0	428867584	24	5503
2026-01-16 01:00:16.16	359.50	36.58	-32.0	-35.0	10.3	3.75e-03	0	44	0	435159040	24	5047
2026-01-16 01:00:19.16	358.93	37.23	-31.5	-34.2	11.7	2.83e-03	0	44	0	440401920	22	4908
2026-01-16 01:00:22.15	358.35	37.88	-31.6	-34.1	11.3	4.21e-03	0	43	0	446693376	23	4779
2026-01-16 01:00:25.16	357.73	38.54	-32.0	-34.9	10.4	4.16e-03	0	44	0	451936256	24	5005
2026-01-16 01:00:28.17	357.09	39.21	-31.1	-32.9	12.5	2.04e-04	0	44	0	457179136	22	4449
2026-01-16 01:00:31.18	356.42	39.89	-31.2	-33.3	12.4	1.31e-04	0	44	0	463470592	22	4578
2026-01-16 01:00:34.18	355.73	40.58	-31.4	-33.8	12.0	2.78e-04	0	44	0	468713472	22	4764
2026-01-16 01:00:37.17	355.01	41.27	-31.2	-33.4	12.3	2.22e-03	0	44	0	473956352	22	4605
2026-01-16 01:00:40.17	354.25	41.97	-31.2	-33.3	12.3	2.50e-03	0	44	0	480247808	22	4582
2026-01-16 01:00:43.17	353.46	42.69	-31.3	-33.5	12.2	2.53e-03	0	44	0	485490688	22	4647
2026-01-16 01:00:46.17	352.63	43.40	-31.4	-33.9	11.8	2.61e-03	0	44	0	491782144	22	4798
2026-01-16 01:00:49.16	351.76	44.13	-31.4	-33.8	12.0	1.66e-04	0	44	0	497025024	22	4767
2026-01-16 01:00:52.17	350.85	44.86	-31.6	-33.9	11.6	5.75e-04	0	44	0	502267904	23	4700
2026-01-16 01:00:55.18	349.89	45.60	-31.3	-33.6	12.2	2.61e-03	0	44	0	508559360	22	4669
2026-01-16 01:00:58.18	348.90	46.34	-31.3	-33.4	12.2	2.56e-03	0	44	0	513802240	22	4609
2026-01-16 01:01:01.19	347.84	47.09	-30.6	-32.2	13.3	1.36e-03	0	44	0	519045120	21	4306
2026-01-16 01:01:04.19	346.75	47.83	-30.8	-32.7	13.1	1.40e-03	0	44	0	525336576	21	4454
2026-01-16 01:01:07.20	345.59	48.58	-30.3	-31.7	14.0	2.25e-03	0	44	0	530579456	20	4232
2026-01-16 01:01:10.20	344.38	49.33	-31.0	-32.8	12.7	2.21e-05	0	44	0	535822336	22	4416
2026-01-16 01:01:13.21	343.10	50.07	-31.0	-32.6	12.7	2.14e-03	0	44	0	542113792	22	4351
2026-01-16 01:01:16.22	341.76	50.81	-30.1	-31.2	14.3	2.28e-03	0	44	0	547356672	20	4092
2026-01-16 01:01:19.22	340.35	51.55	-29.2	-29.4	15.7	2.04e-03	0	44	0	553648128	19	3699
2026-01-16 01:01:22.23	338.87	52.28	-28.4	-28.7	16.6	1.42e-03	0	44	0	558891008	17	3699
2026-01-16 01:01:25.24	337.31	53.00	-29.8	-31.0	14.9	1.07e-03	0	44	0	564133888	19	4120
2026-01-16 01:01:28.24	335.68	53.70	-30.8	-32.6	13.1	2.21e-05	0	44	0	570425344	21	4440
2026-01-16 01:01:31.24	333.97	54.39	-30.3	-31.3	13.9	4.50e-06	0	44	0	575668224	21	4036
2026-01-16 01:01:34.25	332.17	55.06	-29.8	-30.5	14.7	1.50e-06	0	44	0	580911104	20	3909
2026-01-16 01:01:37.26	330.29	55.72	-31.0	-32.8	12.8	1.89e-03	0	44	0	587202560	22	4396
2026-01-16 01:01:40.26	328.32	56.34	-30.2	-31.4	14.2	1.83e-03	0	44	0	592445440	20	4135
2026-01-16 01:01:43.26	326.26	56.94	-30.1	-31.2	14.3	2.23e-03	0	44	0	598736896	20	4099
2026-01-16 01:01:46.27	324.11	57.51	-30.0	-30.9	14.5	2.20e-06	0	44	0	603979776	20	4003
2026-01-16 01:01:49.27	321.87	58.04	-29.8	-30.5	14.8	0.00e+00	0	44	0	609222656	20	3907
2026-01-16 01:01:52.29	319.53	58.54	-30.4	-32.0	13.9	7.00e-07	0	44	0	615514112	20	4344
2026-01-16 01:01:55.30	317.11	58.99	-30.4	-31.5	13.8	4.50e-06	0	44	0	620756992	21	4093
2026-01-16 01:01:58.31	314.61	59.40	-30.3	-31.3	13.9	1.22e-05	0	44	0	625999872	21	4048
2026-01-16 01:02:01.31	312.05	59.75	-30.3	-31.8	14.1	1.46e-03	0	44	0	632291328	20	4260
2026-01-16 01:02:04.31	309.42	60.06	-29.9	-30.8	14.6	0.00e+00	0	44	0	637534208	20	3970
2026-01-16 01:02:07.31	306.73	60.31	-30.8	-32.3	13.1	7.85e-05	0	44	0	643825664	22	4231
2026-01-16 01:02:10.32	303.98	60.50	-31.0	-32.6	12.8	3.20e-05	0	44	0	649068544	22	4338
2026-01-16 01:02:13.32	301.20	60.64	-30.7	-31.7	13.4	3.66e-05	0	44	0	654311424	22	4063
2026-01-16 01:02:16.32	298.41	60.71	-30.5	-31.7	13.7	1.51e-04	0	44	0	660602880	21	4166
2026-01-16 01:02:19.33	295.59	60.73	-28.9	-29.2	16.2	3.65e-04	0	44	0	665845760	18	3731
2026-01-16 01:02:22.33	292.79	60.68	-28.9	-29.8	16.2	0.00e+00	0	44	0	671088640	17	3984
2026-01-16 01:02:25.34	289.99	60.57	-28.7	-28.9	16.3	1.60e-04	0	44	0	677380096	18	3665
2026-01-16 01:02:28.34	287.23	60.41	-28.7	-29.3	16.3	1.30e-04	0	44	0	682622976	17	3864
2026-01-16 01:02:31.35	284.51	60.18	-29.7	-30.7	13.8	1.45e-04	0	44	0	688914432	19	4045
2026-01-16 01:02:34.36	281.84	59.90	-28.2	-28.6	17.0	0.00e+00	0	44	0	694157312	16	3791
2026-01-16 01:02:37.37	279.23	59.56	-29.9	-31.3	14.6	1.12e-04	0	44	0	699400192	19	4225
2026-01-16 01:02:40.38	276.70	59.18	-29.8	-30.9	14.9	4.50e-05	0	44	0	705691648	19	4113
2026-01-16 01:02:43.38	274.25	58.75	-29.5	-30.3	15.1	2.42e-03	0	44	0	710934528	19	3948
2026-01-16 01:02:46.38	271.88	58.27	-29.4	-30.4	15.5	2.13e-03	0	44	0	716177408	18	4060
2026-01-16 01:02:49.38	269.60	57.76	-29.0	-29.6	15.9	1.92e-03	0	44	0	722468864	18	3847
2026-01-16 01:02:52.38	267.41	57.20	-28.8	-29.5	16.3	1.35e-04	0	44	0	727711744	17	3899
2026-01-16 01:02:55.39	265.30	56.62	-28.3	-28.8	16.9	0.00e+00	0	44	0	734003200	16	3823
2026-01-16 01:02:58.41	263.27	56.00	-28.8	-29.1	16.2	3.08e-04	0	44	0	739246080	18	3716
2026-01-16 01:03:01.41	261.35	55.36	-29.2	-30.1	15.7	1.66e-03	0	44	0	744488960	18	3964
2026-01-16 01:03:04.43	259.50	54.69	-29.8	-30.6	14.7	2.68e-04	0	44	0	750780416	20	3933
2026-01-16 01:03:07.43	257.75	54.01	-29.7	-30.2	14.9	1.12e-03	0	44	0	756023296	20	3832
2026-01-16 01:03:10.43	256.08	53.31	-30.5	-31.9	13.4	1.52e-05	0	44	0	761266176	21	4221
2026-01-16 01:03:13.44	254.49	52.59	-29.9	-30.9	14.5	1.67e-03	0	44	0	767557632	20	4008
2026-01-16 01:03:16.44	252.97	51.87	-30.0	-31.1	14.3	1.06e-05	0	44	0	772800512	20	4079
2026-01-16 01:03:19.43	251.54	51.14	-30.1	-30.8	14.1	1.59e-03	0	44	0	779091968	21	3907
2026-01-16 01:03:22.43	250.17	50.40	-29.9	-30.9	14.4	4.57e-04	0	44	0	784334848	20	4030
2026-01-16 01:03:25.44	248.86	49.65	-31.8	-34.6	11.0	2.88e-03	0	44	0	789577728	23	4997
2026-01-16 01:03:28.44	247.61	48.90	-31.1	-33.2	12.2	3.05e-03	0	44	0	795869184	22	4546
2026-01-16 01:03:31.44	246.43	48.15	-32.2	-35.5	10.0	5.61e-03	0	44	0	801112064	24	5277
2026-01-16 01:03:34.45	245.30	47.40	-32.0	-34.9	10.2	1.16e-02	0	43	0	806354944	24	5037
2026-01-16 01:03:37.44	244.23	46.66	-32.0	-34.9	10.2	6.47e-03	0	44	0	812646400	24	5012
2026-01-16 01:03:40.45	243.21	45.91	-31.3	-33.3	11.7	4.33e-03	0	44	0	817889280	23	4511
2026-01-16 01:03:43.44	242.23	45.17	-30.7	-32.3	13.1	2.08e-03	0	44	0	823132160	21	4369
2026-01-16 01:03:46.45	241.30	44.44	-31.3	-33.8	11.7	2.50e-03	0	44	0	829423616	22	4783
2026-01-16 01:03:49.46	240.41	43.70	-31.3	-33.2	11.9	3.79e-03	0	44	0	834666496	23	4459
2026-01-16 01:03:52.45	239.56	42.98	-31.0	-32.7	12.5	4.11e-05	0	44	0	840957952	22	4393
2026-01-16 01:03:55.46	238.75	42.26	-31.2	-33.4	11.9	2.68e-04	0	44	0	846200832	22	4652
2026-01-16 01:03:58.47	237.97	41.55	-30.5	-31.9	13.4	1.67e-05	0	44	0	851443712	21	4230
2026-01-16 01:04:01.47	237.23	40.85	-31.3	-33.7	11.8	4.73e-04	0	44	0	857735168	22	4742
2026-01-16 01:04:04.47	236.51	40.15	-31.5	-34.0	11.2	3.50e-03	0	44	0	862978048	23	4769
2026-01-16 01:04:07.48	235.83	39.47	-31.6	-34.1	11.1	1.60e-03	0	44	0	868220928	23	4804
2026-01-16 01:04:10.47	235.18	38.79	-31.0	-32.8	12.4	4.55e-04	0	44	0	874512384	22	4448
2026-01-16 01:04:13.48	234.55	38.12	-31.5	-34.4	11.3	3.44e-04	0	44	0	879755264	22	5019
2026-01-16 01:04:16.49	233.95	37.46	-31.5	-33.9	11.2	1.14e-03	0	44	0	886046720	23	4760
2026-01-16 01:04:19.49	233.37	36.82	-30.4	-31.7	13.4	3.12e-05	0	44	0	891289600	21	4183
2026-01-16 01:04:22.51	232.82	36.17	-31.1	-33.1	12.2	1.29e-04	0	44	0	896532480	22	4569
2026-01-16 01:04:25.51	232.28	35.54	-31.1	-33.2	12.0	8.78e-04	0	44	0	902823936	22	4603
2026-01-16 01:04:28.52	231.77	34.92	-31.6	-34.4	10.9	1.32e-03	0	44	0	908066816	23	4941
2026-01-16 01:04:31.52	231.28	34.31	-30.3	-31.0	13.3	8.08e-05	0	44	0	913309696	22	3909
2026-01-16 01:04:34.53	230.80	33.71	-30.6	-32.4	12.9	1.52e-05	0	44	0	919601152	21	4417
2026-01-16 01:04:37.54	230.34	33.11	-30.8	-32.5	12.5	3.56e-04	0	44	0	924844032	22	4348
2026-01-16 01:04:40.54	229.90	32.53	-30.9	-33.1	12.4	3.20e-05	0	44	0	931135488	21	4669
2026-01-16 01:04:43.54	229.48	31.96	-31.8	-34.7	10.2	8.41e-03	0	44	0	936378368	24	4985
2026-01-16 01:04:46.54	229.07	31.39	-31.1	-33.2	12.0	4.36e-04	0	44	0	941621248	22	4604
2026-01-16 01:04:49.54	228.67	30.84	-31.3	-33.8	11.5	9.64e-04	0	44	0	947912704	22	4822
2026-01-16 01:04:52.54	228.29	30.29	-31.1	-33.4	11.8	6.25e-04	0	44	0	953155584	22	4680
2026-01-16 01:04:55.55	227.92	29.75	-31.2	-33.5	11.8	5.16e-04	0	44	0	958398464	22	4709
2026-01-16 01:04:58.55	227.56	29.23	-32.1	-35.5	9.5	7.19e-03	0	44	0	964689920	24	5342
2026-01-16 01:05:01.55	227.21	28.71	-31.3	-33.5	11.3	1.48e-03	0	44	0	969932800	23	4606
2026-01-16 01:05:04.54	226.88	28.20	-30.8	-32.5	12.4	3.98e-04	0	44	0	975175680	22	4371
2026-01-16 01:05:07.55	226.56	27.69	-30.8	-33.1	12.3	2.49e-04	0	44	0	981467136	21	4663
2026-01-16 01:05:10.55	226.24	27.19	-30.2	-31.8	13.5	1.27e-04	0	44	0	986710016	20	4341
2026-01-16 01:05:13.56	225.94	26.71	-30.1	-31.7	13.6	2.77e-04	0	44	0	993001472	20	4297
2026-01-16 01:05:16.58	225.64	26.22	-31.0	-33.6	11.8	2.22e-04	0	44	0	998244352	21	4850
2026-01-16 01:05:19.58	225.35	25.75	-31.3	-34.1	11.2	1.36e-03	0	44	0	1003487232	22	4953
2026-01-16 01:05:22.60	225.08	25.28	-31.0	-33.1	11.9	1.24e-03	0	44	0	1009778688	22	4592
2026-01-16 01:05:25.60	224.81	24.82	-30.9	-33.5	11.9	8.61e-04	0	44	0	1015021568	21	4816
2026-01-16 01:05:28.61	224.55	24.37	-31.1	-33.4	11.7	6.13e-04	0	44	0	1021313024	22	4682
2026-01-16 01:05:31.61	224.29	23.93	-31.2	-33.7	11.4	8.91e-04	0	44	0	1026555904	22	4813
2026-01-16 01:05:34.61	224.05	23.49	-31.1	-33.6	11.5	8.90e-04	0	44	0	1031798784	22	4763
2026-01-16 01:05:37.61	223.81	23.06	-30.9	-32.9	11.9	5.89e-04	0	44	0	1038090240	22	4531
2026-01-16 01:05:40.61	223.57	22.64	-30.2	-31.4	13.3	1.46e-04	0	44	0	1043333120	21	4123
2026-01-16 01:05:43.61	223.35	22.22	-29.9	-31.1	13.8	1.78e-04	0	44	0	1048576000	20	4121
2026-01-16 01:05:46.61	223.13	21.81	-30.0	-31.2	13.7	4.36e-04	0	44	0	1054867456	20	4176
2026-01-16 01:05:49.61	222.92	21.41	-30.5	-32.7	12.7	8.86e-04	0	44	0	1060110336	20	4640
2026-01-16 01:05:52.62	222.71	21.01	-31.2	-33.8	11.3	1.82e-03	0	44	0	1066401792	22	4861
2026-01-16 01:05:55.62	222.50	20.61	-31.4	-34.5	10.7	3.01e-03	0	44	0	1071644672	22	5162
2026-01-16 01:05:58.63	222.31	20.23	-31.2	-33.8	11.2	1.86e-03	0	44	0	1076887552	22	4877
2026-01-16 01:06:01.64	222.11	19.84	-31.0	-33.4	11.5	1.16e-03	0	44	0	1083179008	22	4704
2026-01-16 01:06:04.66	221.92	19.46	-30.7	-32.9	12.2	1.28e-03	0	44	0	1088421888	21	4623
2026-01-16 01:06:07.66	221.74	19.09	-30.8	-33.1	12.0	8.71e-04	0	44	0	1093664768	21	4692
2026-01-16 01:06:10.65	221.56	18.73	-30.0	-31.4	13.4	4.77e-04	0	44	0	1099956224	20	4245
2026-01-16 01:06:13.66	221.39	18.37	-29.7	-31.1	14.0	3.20e-04	0	44	0	1105199104	19	4222
2026-01-16 01:06:16.67	221.22	18.01	-29.7	-31.2	13.9	3.17e-04	0	44	0	1111490560	19	4248
2026-01-16 01:06:19.68	221.05	17.66	-29.9	-31.6	13.6	3.60e-04	0	44	0	1116733440	19	4372
2026-01-16 01:06:22.68	220.89	17.31	-30.2	-32.0	12.9	2.38e-04	0	44	0	1121976320	20	4445
2026-01-16 01:06:25.69	220.73	16.97	-30.3	-32.3	12.8	2.69e-04	0	44	0	1128267776	20	4537
2026-01-16 01:06:28.70	220.58	16.63	-30.3	-32.3	12.7	4.68e-04	0	44	0	1133510656	20	4549
2026-01-16 01:06:31.71	220.43	16.30	-30.4	-32.5	12.5	4.27e-04	0	44	0	1138753536	20	4619
2026-01-16 01:06:34.71	220.28	15.97	-30.4	-32.5	12.5	4.85e-04	0	44	0	1145044992	20	4615
2026-01-16 01:06:37.72	220.14	15.64	-30.4	-32.6	12.5	7.17e-04	0	44	0	1150287872	20	4648
2026-01-16 01:06:40.72	220.00	15.32	-30.7	-33.2	11.7	9.57e-04	0	44	0	1156579328	21	4771
2026-01-16 01:06:43.73	219.86	15.01	-30.9	-33.7	11.3	1.45e-03	0	44	0	1161822208	21	4973
2026-01-16 01:06:46.73	219.72	14.69	-31.2	-34.0	10.7	3.17e-03	0	44	0	1167065088	22	5011
2026-01-16 01:06:49.74	219.59	14.38	-31.1	-34.3	10.7	1.97e-03	0	44	0	1173356544	21	5201
2026-01-16 01:06:52.76	219.46	14.08	-31.2	-34.0	10.4	4.20e-03	0	44	0	1178599424	22	4986
2026-01-16 01:06:55.75	219.34	13.78	-30.8	-33.3	11.5	1.34e-03	0	44	0	1183842304	21	4809
2026-01-16 01:06:58.75	219.22	13.48	-30.5	-32.4	12.1	7.01e-04	0	44	0	1190133760	21	4507
2026-01-16 01:07:01.76	219.09	13.19	-30.2	-32.2	12.6	3.84e-04	0	44	0	1195376640	20	4509
2026-01-16 01:07:04.76	218.98	12.89	-30.2	-32.2	12.5	2.01e-04	0	44	0	1201668096	20	4529
2026-01-16 01:07:07.77	218.86	12.61	-29.8	-31.4	13.5	1.67e-05	0	44	0	1206910976	19	4355
2026-01-16 01:07:10.76	218.75	12.32	-29.8	-31.6	13.3	1.23e-03	0	44	0	1212153856	19	4405
2026-01-16 01:07:13.76	218.64	12.04	-29.9	-31.7	13.3	1.24e-03	0	44	0	1218445312	19	4439
2026-01-16 01:07:16.76	218.53	11.76	-30.0	-32.0	13.0	2.46e-04	0	44	0	1223688192	19	4567
2026-01-16 01:07:19.77	218.42	11.49	-30.2	-32.3	12.4	7.70e-05	0	44	0	1228931072	20	4573
2026-01-16 01:07:22.77	218.32	11.22	-30.4	-32.7	12.1	2.79e-04	0	44	0	1235222528	20	4724
2026-01-16 01:07:25.78	218.22	10.95	-30.5	-32.7	11.7	5.81e-04	0	44	0	1240465408	21	4628
2026-01-16 01:07:28.78	218.12	10.68	-30.6	-33.1	11.4	2.44e-03	0	44	0	1245708288	21	4777
2026-01-16 01:07:31.79	218.02	10.42	-30.7	-33.2	11.3	2.71e-03	0	44	0	1251999744	21	4803
2026-01-16 01:07:34.79	217.92	10.16	-30.7	-33.2	11.3	2.29e-03	0	44	0	1257242624	21	4802
2026-01-16 01:07:37.79	217.83	9.90	-30.6	-32.9	11.5	2.31e-03	0	44	0	1263534080	21	4714
2026-01-16 01:07:40.80	217.73	9.64	-30.7	-33.2	11.2	8.06e-04	0	44	0	1268776960	21	4838
2026-01-16 01:07:43.81	217.64	9.39	-30.6	-33.2	11.2	2.83e-03	0	44	0	1274019840	21	4812
2026-01-16 01:07:46.80	217.55	9.14	-30.6	-33.2	11.2	3.15e-03	0	44	0	1280311296	21	4837
2026-01-16 01:07:49.80	217.47	8.89	-30.8	-33.9	10.6	4.01e-03	0	44	0	1285554176	21	5113
2026-01-16 01:07:52.81	217.38	8.64	-30.8	-33.9	10.6	4.92e-03	0	44	0	1290797056	21	5144
2026-01-16 01:07:55.80	217.30	8.40	-31.0	-34.0	10.1	8.25e-03	0	44	0	1297088512	22	5084
2026-01-16 01:07:58.80	217.21	8.16	-31.2	-34.6	9.6	1.57e-02	0	44	0	1302331392	22	5348
2026-01-16 01:08:01.81	217.13	7.92	-31.3	-35.3	9.1	2.33e-02	0	44	0	1307574272	22	5685
2026-01-16 01:08:04.83	217.05	7.68	-31.4	-35.8	8.8	2.60e-02	0	44	0	1313865728	22	5921
2026-01-16 01:08:07.83	216.97	7.45	-31.5	-35.9	8.5	3.04e-02	0	44	0	1319108608	22	5985
2026-01-16 01:08:10.84	216.89	7.21	-31.6	-36.0	8.0	8.72e-02	0	44	0	1325400064	23	5960
2026-01-16 01:08:13.85	216.82	6.98	-33.4	-46.0	3.8	1.49e+00	0	44	104	1327497216	26	15404

#Closed at: 2026-01-16 01:08:14
#Recorded file [1327 MB]: D:/data/31010_260116_035623.dat