passes_logs/2025/01/21/X_MFTI_02/X_MFTI_02__20250121_101348_NOAA_20_rec.log

#Pass ID: 20250121_101348_NOAA 20
#Satellite: NOAA 20
#Configuration: NOAA 20
#Start time: 2025-01-21 10:13:43

#Version: 1.5.20200625
#Station: X_MFTI_02
#Location: 37.5186 lon 55.9291 lat
#TLE: 1 43013U 17073A   23362.44808611  .00000160  00000+0  96626-4 0  9996
#TLE: 2 43013  98.7331 297.9536 0000783  57.5916 302.5335 14.19555620316533

#Time	Az	El	Level	Level2	SNR	BER	Gain	Gain2
2025-01-21 10:13:45.08	199.64	68.98	
2025-01-21 10:13:45.28	199.80	69.06	
2025-01-21 10:13:45.49	199.97	69.13	
2025-01-21 10:13:45.70	200.14	69.21	
2025-01-21 10:13:45.90	200.30	69.29	
2025-01-21 10:13:46.11	200.47	69.37	
2025-01-21 10:13:46.31	200.63	69.44	
2025-01-21 10:13:46.52	200.81	69.52	
2025-01-21 10:13:46.72	200.98	69.59	
2025-01-21 10:13:46.92	201.14	69.67	
2025-01-21 10:13:47.13	201.32	69.75	
2025-01-21 10:13:47.33	201.49	69.82	
2025-01-21 10:13:47.53	201.67	69.89	
2025-01-21 10:13:47.74	201.85	69.97	
2025-01-21 10:13:47.94	202.02	70.04	
2025-01-21 10:13:48.14	202.20	70.12	
2025-01-21 10:13:48.35	202.39	70.20	
2025-01-21 10:13:48.55	202.57	70.27	
2025-01-21 10:13:48.75	202.75	70.34	
2025-01-21 10:13:48.96	202.94	70.42	
2025-01-21 10:13:49.16	203.13	70.49	
2025-01-21 10:13:49.36	203.31	70.56	
2025-01-21 10:13:49.57	203.51	70.64	
2025-01-21 10:13:49.77	203.70	70.71	
2025-01-21 10:13:49.98	203.90	70.79	
2025-01-21 10:13:50.19	204.10	70.87	
2025-01-21 10:13:50.39	204.29	70.94	
2025-01-21 10:13:50.61	204.50	71.02	
2025-01-21 10:13:50.81	204.70	71.09	
2025-01-21 10:13:51.02	204.91	71.16	
2025-01-21 10:13:51.22	205.11	71.24	
2025-01-21 10:13:51.43	205.32	71.31	
2025-01-21 10:13:51.64	205.53	71.38	
2025-01-21 10:13:51.84	205.74	71.46	
2025-01-21 10:13:52.05	205.96	71.53	
2025-01-21 10:13:52.25	206.16	71.60	
2025-01-21 10:13:52.46	206.38	71.67	
2025-01-21 10:13:52.66	206.60	71.74	
2025-01-21 10:13:52.87	206.82	71.82	
2025-01-21 10:13:53.08	207.05	71.89	
2025-01-21 10:13:53.28	207.26	71.96	
2025-01-21 10:13:53.48	207.48	72.03	
2025-01-21 10:13:53.69	207.71	72.10	
2025-01-21 10:13:53.89	207.94	72.17	
2025-01-21 10:13:54.09	208.16	72.24	
2025-01-21 10:13:54.30	208.40	72.31	
2025-01-21 10:13:54.50	208.63	72.38	
2025-01-21 10:13:54.71	208.87	72.45	
2025-01-21 10:13:54.91	209.10	72.52	
2025-01-21 10:13:55.11	209.34	72.59	
2025-01-21 10:13:55.31	209.57	72.65	
2025-01-21 10:13:55.52	209.82	72.73	
2025-01-21 10:13:55.73	210.07	72.80	
2025-01-21 10:13:55.93	210.31	72.86	
2025-01-21 10:13:56.14	210.57	72.93	
2025-01-21 10:13:56.35	210.83	73.00	
2025-01-21 10:13:56.55	211.08	73.07	
2025-01-21 10:13:56.76	211.34	73.14	
2025-01-21 10:13:56.96	211.59	73.20	
2025-01-21 10:13:57.17	211.86	73.27	
2025-01-21 10:13:57.37	212.12	73.33	
2025-01-21 10:13:57.57	212.37	73.40	
2025-01-21 10:13:57.78	212.65	73.47	
2025-01-21 10:13:57.99	212.92	73.53	
2025-01-21 10:13:58.19	213.19	73.60	
2025-01-21 10:13:58.39	213.46	73.66	
2025-01-21 10:13:58.59	213.73	73.72	
2025-01-21 10:13:58.80	214.01	73.79	
2025-01-21 10:13:59.00	214.28	73.85	
2025-01-21 10:13:59.21	214.57	73.92	
2025-01-21 10:13:59.41	214.85	73.98	
2025-01-21 10:13:59.62	215.15	74.04	
2025-01-21 10:13:59.82	215.43	74.10	
2025-01-21 10:14:00.03	215.73	74.17	
2025-01-21 10:14:00.23	216.02	74.23	
2025-01-21 10:14:00.43	216.31	74.29	
2025-01-21 10:14:00.64	216.61	74.35	
2025-01-21 10:14:00.85	216.92	74.41	
2025-01-21 10:14:01.05	217.22	74.47	
2025-01-21 10:14:01.25	217.52	74.53	
2025-01-21 10:14:01.46	217.84	74.59	
2025-01-21 10:14:01.67	218.16	74.65	
2025-01-21 10:14:01.88	218.48	74.71	
2025-01-21 10:14:02.08	218.79	74.77	
2025-01-21 10:14:02.28	219.10	74.82	
2025-01-21 10:14:02.49	219.43	74.88	
2025-01-21 10:14:02.70	219.76	74.94	
2025-01-21 10:14:02.91	220.10	75.00	
2025-01-21 10:14:03.11	220.42	75.05	
2025-01-21 10:14:03.31	220.74	75.10	
2025-01-21 10:14:03.52	221.08	75.16	
2025-01-21 10:14:03.73	221.43	75.22	
2025-01-21 10:14:03.94	221.78	75.27	
2025-01-21 10:14:04.14	222.11	75.32	
2025-01-21 10:14:04.34	222.45	75.38	
2025-01-21 10:14:04.55	222.80	75.43	
2025-01-21 10:14:04.75	223.15	75.48	
2025-01-21 10:14:04.96	223.51	75.53	
2025-01-21 10:14:05.17	223.87	75.59	
2025-01-21 10:14:05.37	224.22	75.64	
2025-01-21 10:14:05.57	224.57	75.68	
2025-01-21 10:14:05.78	224.94	75.74	
2025-01-21 10:14:05.98	225.30	75.78	
2025-01-21 10:14:06.18	225.66	75.83	
2025-01-21 10:14:06.40	226.06	75.88	
2025-01-21 10:14:06.60	226.42	75.93	
2025-01-21 10:14:06.82	226.83	75.98	
2025-01-21 10:14:07.03	227.21	76.03	
2025-01-21 10:14:07.23	227.59	76.07	
2025-01-21 10:14:07.45	228.00	76.12	
2025-01-21 10:14:07.65	228.38	76.16	
2025-01-21 10:14:07.86	228.77	76.21	
2025-01-21 10:14:08.06	229.16	76.25	
2025-01-21 10:14:08.27	229.56	76.29	
2025-01-21 10:14:08.47	229.95	76.33	
2025-01-21 10:14:08.68	230.36	76.38	
2025-01-21 10:14:08.88	230.75	76.42	
2025-01-21 10:14:09.09	231.16	76.46	
2025-01-21 10:14:09.30	231.58	76.50	
2025-01-21 10:14:09.52	232.02	76.54	
2025-01-21 10:14:09.72	232.42	76.58	
2025-01-21 10:14:09.92	232.83	76.61	
2025-01-21 10:14:10.12	233.23	76.65	
2025-01-21 10:14:10.33	233.66	76.68	
2025-01-21 10:14:10.54	234.09	76.72	
2025-01-21 10:14:10.74	234.51	76.75	
2025-01-21 10:14:10.95	234.94	76.79	
2025-01-21 10:14:11.15	235.36	76.82	
2025-01-21 10:14:11.35	235.78	76.85	
2025-01-21 10:14:11.56	236.22	76.89	
2025-01-21 10:14:11.76	236.65	76.92	
2025-01-21 10:14:11.97	237.09	76.95	
2025-01-21 10:14:12.17	237.52	76.98	
2025-01-21 10:14:12.37	237.95	77.01	
2025-01-21 10:14:12.58	238.40	77.03	
2025-01-21 10:14:12.78	238.84	77.06	
2025-01-21 10:14:12.99	239.29	77.09	
2025-01-21 10:14:13.19	239.73	77.11	
2025-01-21 10:14:13.39	240.17	77.14	
2025-01-21 10:14:13.59	240.61	77.16	
2025-01-21 10:14:13.81	241.10	77.19	
2025-01-21 10:14:14.01	241.54	77.21	
2025-01-21 10:14:14.21	241.99	77.23	
2025-01-21 10:14:14.42	242.46	77.25	
2025-01-21 10:14:14.63	242.93	77.27	
2025-01-21 10:14:14.83	243.38	77.29	
2025-01-21 10:14:15.03	243.83	77.31	
2025-01-21 10:14:15.24	244.31	77.33	
2025-01-21 10:14:15.44	244.76	77.35	
2025-01-21 10:14:15.65	245.24	77.36	
2025-01-21 10:14:15.86	245.72	77.38	
2025-01-21 10:14:16.06	246.18	77.40	
2025-01-21 10:14:16.26	246.64	77.41	
2025-01-21 10:14:16.47	247.12	77.42	
2025-01-21 10:14:16.67	247.58	77.43	
2025-01-21 10:14:16.87	248.04	77.45	
2025-01-21 10:14:17.09	248.55	77.46	
2025-01-21 10:14:17.29	249.02	77.47	
2025-01-21 10:14:17.49	249.48	77.48	
2025-01-21 10:14:17.70	249.97	77.48	
2025-01-21 10:14:17.90	250.43	77.49	
2025-01-21 10:14:18.10	250.90	77.50	
2025-01-21 10:14:18.31	251.39	77.50	
2025-01-21 10:14:18.51	251.86	77.51	
2025-01-21 10:14:18.72	252.35	77.51	
2025-01-21 10:14:18.93	252.84	77.52	
2025-01-21 10:14:19.14	253.33	77.52	
2025-01-21 10:14:19.34	253.80	77.52	
2025-01-21 10:14:19.54	254.26	77.52	
2025-01-21 10:14:19.76	254.78	77.52	
2025-01-21 10:14:19.96	255.25	77.52	
2025-01-21 10:14:20.16	255.71	77.52	
2025-01-21 10:14:20.37	256.21	77.51	
2025-01-21 10:14:20.57	256.67	77.51	
2025-01-21 10:14:20.78	257.16	77.51	
2025-01-21 10:14:20.99	257.65	77.50	
2025-01-21 10:14:21.19	258.12	77.49	
2025-01-21 10:14:21.39	258.59	77.49	
2025-01-21 10:14:21.61	259.10	77.48	
2025-01-21 10:14:21.81	259.56	77.47	
2025-01-21 10:14:22.02	260.05	77.46	
2025-01-21 10:14:22.22	260.51	77.45	
2025-01-21 10:14:22.42	260.97	77.44	
2025-01-21 10:14:22.63	261.46	77.43	
2025-01-21 10:14:22.83	261.92	77.42	
2025-01-21 10:14:23.04	262.40	77.40	
2025-01-21 10:14:23.25	262.88	77.39	
2025-01-21 10:14:23.45	263.34	77.37	
2025-01-21 10:14:23.66	263.82	77.35	
2025-01-21 10:14:23.86	264.27	77.34	
2025-01-21 10:14:24.06	264.73	77.32	
2025-01-21 10:14:24.27	265.20	77.30	
2025-01-21 10:14:24.48	265.67	77.28	
2025-01-21 10:14:24.68	266.12	77.26	
2025-01-21 10:14:24.88	266.57	77.24	
2025-01-21 10:14:25.09	267.04	77.22	
2025-01-21 10:14:25.29	267.49	77.20	
2025-01-21 10:14:25.49	267.93	77.17	
2025-01-21 10:14:25.70	268.39	77.15	
2025-01-21 10:14:25.90	268.83	77.13	
2025-01-21 10:14:26.10	269.27	77.10	
2025-01-21 10:14:26.31	269.73	77.07	
2025-01-21 10:14:26.51	270.16	77.05	
2025-01-21 10:14:26.71	270.60	77.02	
2025-01-21 10:14:26.92	271.05	76.99	
2025-01-21 10:14:27.12	271.48	76.96	
2025-01-21 10:14:27.32	271.90	76.93	
2025-01-21 10:14:27.52	272.33	76.90	
2025-01-21 10:14:27.73	272.77	76.87	
2025-01-21 10:14:27.93	273.19	76.84	
2025-01-21 10:14:28.13	273.61	76.81	
2025-01-21 10:14:28.34	274.05	76.77	
2025-01-21 10:14:28.54	274.46	76.74	
2025-01-21 10:14:28.74	274.87	76.71	
2025-01-21 10:14:28.95	275.30	76.67	
2025-01-21 10:14:29.15	275.71	76.63	
2025-01-21 10:14:29.35	276.12	76.60	
2025-01-21 10:14:29.56	276.54	76.56	
2025-01-21 10:14:29.76	276.94	76.52	
2025-01-21 10:14:29.96	277.34	76.48	
2025-01-21 10:14:30.17	277.75	76.44	
2025-01-21 10:14:30.37	278.15	76.40	
2025-01-21 10:14:30.57	278.54	76.36	
2025-01-21 10:14:30.77	278.93	76.32	
2025-01-21 10:14:30.98	279.33	76.28	
2025-01-21 10:14:31.18	279.72	76.24	
2025-01-21 10:14:31.38	280.10	76.20	
2025-01-21 10:14:31.59	280.50	76.15	
2025-01-21 10:14:31.79	280.87	76.11	
2025-01-21 10:14:31.99	281.25	76.06	
2025-01-21 10:14:32.20	281.64	76.02	
2025-01-21 10:14:32.40	282.00	75.97	
2025-01-21 10:14:32.61	282.39	75.92	
2025-01-21 10:14:32.81	282.75	75.88	
2025-01-21 10:14:33.01	283.12	75.83	
2025-01-21 10:14:33.21	283.47	75.78	
2025-01-21 10:14:33.42	283.85	75.73	
2025-01-21 10:14:33.62	284.20	75.69	
2025-01-21 10:14:33.84	284.59	75.63	
2025-01-21 10:14:34.04	284.94	75.58	
2025-01-21 10:14:34.24	285.28	75.53	
2025-01-21 10:14:34.44	285.63	75.48	
2025-01-21 10:14:34.65	285.99	75.43	
2025-01-21 10:14:34.85	286.32	75.38	
2025-01-21 10:14:35.05	286.66	75.33	
2025-01-21 10:14:35.26	287.01	75.27	
2025-01-21 10:14:35.46	287.34	75.22	
2025-01-21 10:14:35.67	287.69	75.16	
2025-01-21 10:14:35.87	288.01	75.11	
2025-01-21 10:14:36.07	288.34	75.06	
2025-01-21 10:14:36.27	288.66	75.00	
2025-01-21 10:14:36.48	288.99	74.94	
2025-01-21 10:14:36.68	289.31	74.89	
2025-01-21 10:14:36.88	289.62	74.83	
2025-01-21 10:14:37.09	289.95	74.77	
2025-01-21 10:14:37.29	290.26	74.72	
2025-01-21 10:14:37.49	290.57	74.66	
2025-01-21 10:14:37.70	290.89	74.60	
2025-01-21 10:14:37.90	291.19	74.54	
2025-01-21 10:14:38.11	291.50	74.48	
2025-01-21 10:14:38.31	291.80	74.42	
2025-01-21 10:14:38.51	292.10	74.36	
2025-01-21 10:14:38.71	292.39	74.30	
2025-01-21 10:14:38.92	292.69	74.24	
2025-01-21 10:14:39.12	292.98	74.18	
2025-01-21 10:14:39.32	293.27	74.12	
2025-01-21 10:14:39.53	293.56	74.06	
2025-01-21 10:14:39.73	293.84	74.00	
2025-01-21 10:14:39.93	294.12	73.93	
2025-01-21 10:14:40.14	294.41	73.87	
2025-01-21 10:14:40.34	294.69	73.81	
2025-01-21 10:14:40.54	294.96	73.74	
2025-01-21 10:14:40.75	295.24	73.68	
2025-01-21 10:14:40.95	295.51	73.62	
2025-01-21 10:14:41.15	295.78	73.55	
2025-01-21 10:14:41.35	296.04	73.49	
2025-01-21 10:14:41.56	296.31	73.42	
2025-01-21 10:14:41.76	296.57	73.36	
2025-01-21 10:14:41.96	296.83	73.29	
2025-01-21 10:14:42.17	297.10	73.23	
2025-01-21 10:14:42.37	297.35	73.16	
2025-01-21 10:14:42.57	297.60	73.09	
2025-01-21 10:14:42.78	297.86	73.03	
2025-01-21 10:14:42.98	298.11	72.96	
2025-01-21 10:14:43.18	298.35	72.89	
2025-01-21 10:14:43.39	298.61	72.82	
2025-01-21 10:14:43.59	298.85	72.76	
2025-01-21 10:14:43.79	299.08	72.69	
2025-01-21 10:14:43.99	299.32	72.62	
2025-01-21 10:14:44.20	299.57	72.55	
2025-01-21 10:14:44.40	299.80	72.49	
2025-01-21 10:14:44.60	300.03	72.42	
2025-01-21 10:14:44.81	300.27	72.35	
2025-01-21 10:14:45.01	300.50	72.28	
2025-01-21 10:14:45.21	300.72	72.21	
2025-01-21 10:14:45.42	300.96	72.14	
2025-01-21 10:14:45.62	301.18	72.07	
2025-01-21 10:14:45.83	301.41	72.00	
2025-01-21 10:14:46.03	301.63	71.93	
2025-01-21 10:14:46.23	301.84	71.86	
2025-01-21 10:14:46.45	302.08	71.78	
2025-01-21 10:14:46.65	302.29	71.71	
2025-01-21 10:14:46.86	302.51	71.64	
2025-01-21 10:14:47.06	302.72	71.57	
2025-01-21 10:14:47.26	302.93	71.50	
2025-01-21 10:14:47.47	303.14	71.42	
2025-01-21 10:14:47.67	303.35	71.35	
2025-01-21 10:14:47.87	303.55	71.28	
2025-01-21 10:14:48.08	303.76	71.20	
2025-01-21 10:14:48.29	303.97	71.13	
2025-01-21 10:14:48.49	304.17	71.06	
2025-01-21 10:14:48.69	304.36	70.99	
2025-01-21 10:14:48.90	304.56	70.91	
2025-01-21 10:14:49.11	304.77	70.84	
2025-01-21 10:14:49.31	304.96	70.76	
2025-01-21 10:14:49.52	305.16	70.69	
2025-01-21 10:14:49.73	305.35	70.61	
2025-01-21 10:14:49.94	305.55	70.53	
2025-01-21 10:14:50.14	305.73	70.46	
2025-01-21 10:14:50.34	305.92	70.39	
2025-01-21 10:14:50.56	306.12	70.31	
2025-01-21 10:14:50.76	306.30	70.24	
2025-01-21 10:14:50.96	306.47	70.16	

#Closed at: 2025-01-21 10:14:51