passes_logs/2026/01/01/PlanumMoscow/PlanumMoscow__20260101_175635_METOP-C_rec.log

#Pass ID: 20260101_175635_METOP-C
#Satellite: METOP-C
#Configuration: METOP-C
#Start time: 2026-01-01 17:56:40.862470

#LorettStation: 1.0.0 05.05.2024
#Station: PlanumMoscow
#Location: 37.6253844 lon 55.6713361 lat
#TLE: 1 43689U 18087A   25293.88981035  .00000265  00000+0  14109-3 0  9997
#TLE: 2 43689  98.7006 352.4487 0002041 122.1097 238.0279 14.21482740360838

#Time	Az	El	Level	SNR
2026-01-01 18:00:19.301317	155.7	29.8	-63.5	6.5
2026-01-01 18:00:21.537363	155.6	30.2	-63.8	7.0
2026-01-01 18:00:23.771876	155.5	30.6	-64.0	6.8
2026-01-01 18:00:26.007885	155.5	31.1	-63.9	6.8
2026-01-01 18:00:28.240928	155.4	31.5	-64.0	7.6
2026-01-01 18:00:30.470942	155.4	32.0	-64.4	7.1
2026-01-01 18:00:32.707493	155.3	32.5	-63.8	7.5
2026-01-01 18:00:34.952504	155.2	32.9	-64.1	7.6
2026-01-01 18:00:37.199027	155.1	33.4	-64.3	7.2
2026-01-01 18:00:39.443036	155.1	33.9	-64.1	7.1
2026-01-01 18:00:41.687045	155.0	34.4	-64.6	7.8
2026-01-01 18:00:43.929567	154.9	34.9	-64.6	7.9
2026-01-01 18:00:46.172577	154.8	35.4	-64.7	7.1
2026-01-01 18:00:48.415136	154.7	35.9	-65.0	7.2
2026-01-01 18:00:50.657658	154.6	36.5	-65.0	6.7
2026-01-01 18:00:52.900731	154.5	37.0	-65.0	6.1
2026-01-01 18:00:55.145244	154.4	37.5	-64.7	6.6
2026-01-01 18:00:57.389749	154.3	38.1	-64.6	6.5
2026-01-01 18:00:59.637255	154.2	38.7	-64.8	6.7
2026-01-01 18:01:01.881761	154.1	39.2	-65.1	7.2
2026-01-01 18:01:04.124779	154.0	39.8	-65.2	7.1
2026-01-01 18:01:06.368293	153.9	40.4	-65.2	6.9
2026-01-01 18:01:08.612303	153.8	41.0	-65.0	6.6
2026-01-01 18:01:10.856312	153.7	41.6	-65.5	6.9
2026-01-01 18:01:13.099321	153.5	42.3	-65.6	6.3
2026-01-01 18:01:15.342835	153.4	42.9	-65.7	7.3
2026-01-01 18:01:17.585844	153.2	43.5	-65.7	6.4
2026-01-01 18:01:19.830349	153.1	44.2	-66.0	7.1
2026-01-01 18:01:22.071375	152.9	44.9	-66.0	6.9
2026-01-01 18:01:24.314888	152.8	45.5	-66.0	6.5
2026-01-01 18:01:26.558448	152.6	46.2	-65.8	6.8
2026-01-01 18:01:28.802458	152.4	46.9	-66.3	7.2
2026-01-01 18:01:31.046516	152.2	47.6	-66.1	6.4
2026-01-01 18:01:33.290571	152.0	48.4	-66.2	5.8
2026-01-01 18:01:35.533633	151.8	49.1	-66.7	5.9
2026-01-01 18:01:37.776190	151.6	49.8	-66.4	5.0
2026-01-01 18:01:40.020199	151.4	50.6	-66.9	5.3
2026-01-01 18:01:42.262771	151.2	51.4	-67.0	4.8
2026-01-01 18:01:44.506781	150.9	52.2	-67.2	3.1
2026-01-01 18:01:46.753842	150.6	53.0	-67.4	3.7
2026-01-01 18:01:48.990353	150.4	53.8	-67.6	3.1
2026-01-01 18:01:51.221367	150.1	54.6	-67.5	3.2
2026-01-01 18:01:53.454907	149.7	55.4	-67.9	2.7
2026-01-01 18:01:55.698916	149.4	56.3	-68.2	3.0
2026-01-01 18:01:57.941430	149.1	57.1	-67.7	3.1
2026-01-01 18:02:00.185448	148.7	58.0	-67.6	2.7
2026-01-01 18:02:02.429457	148.3	58.9	-67.6	3.1
2026-01-01 18:02:04.672466	147.8	59.7	-67.9	2.4
2026-01-01 18:02:06.915980	147.4	60.7	-67.7	2.5
2026-01-01 18:02:09.158998	146.8	61.6	-67.8	3.3
2026-01-01 18:02:11.401512	146.3	62.5	-68.4	1.3
2026-01-01 18:02:13.643529	145.7	63.4	-68.4	0.1
2026-01-01 18:02:15.880085	145.1	64.4	-68.6	0.0
2026-01-01 18:02:18.114589	144.4	65.3	-69.0	0.0
2026-01-01 18:02:20.355100	143.6	66.3	-69.0	0.0
2026-01-01 18:02:22.597110	142.8	67.2	-69.2	0.0
2026-01-01 18:02:24.839623	141.9	68.2	-69.4	0.0
2026-01-01 18:02:27.081685	140.9	69.2	-68.8	0.0
2026-01-01 18:02:29.323709	139.8	70.2	-69.1	0.0
2026-01-01 18:02:31.567230	138.6	71.2	-69.6	0.0
2026-01-01 18:02:33.810772	137.2	72.1	-69.1	0.0
2026-01-01 18:02:36.054790	135.6	73.1	-69.2	0.0
2026-01-01 18:02:38.298332	133.9	74.1	-69.4	0.0
2026-01-01 18:02:40.542342	131.9	75.1	-69.3	0.0
2026-01-01 18:02:42.785883	129.6	76.0	-69.3	0.0
2026-01-01 18:02:45.076439	126.9	77.0	-69.6	0.0
2026-01-01 18:02:47.315473	123.9	77.9	-69.5	0.0
2026-01-01 18:02:49.559979	120.3	78.8	-69.5	0.0
2026-01-01 18:02:51.801483	116.2	79.6	-69.4	0.0
2026-01-01 18:02:54.044547	111.3	80.4	-69.4	0.0
2026-01-01 18:02:56.287564	105.7	81.1	-69.3	0.0
2026-01-01 18:02:58.532582	99.1	81.7	-69.2	0.0
2026-01-01 18:03:00.776144	91.6	82.1	-68.7	0.0
2026-01-01 18:03:03.023163	83.3	82.5	-69.1	0.0
2026-01-01 18:03:05.265676	74.5	82.6	-68.9	0.0
2026-01-01 18:03:07.507703	65.4	82.6	-68.9	0.0
2026-01-01 18:03:09.748748	56.7	82.4	-68.8	0.0
2026-01-01 18:03:11.990269	48.6	82.0	-68.6	0.0
2026-01-01 18:03:14.233782	41.3	81.5	-69.1	0.0
2026-01-01 18:03:16.474343	35.0	80.9	-69.1	0.0
2026-01-01 18:03:18.716902	29.5	80.2	-69.0	0.0
2026-01-01 18:03:20.959926	24.9	79.4	-68.1	0.0
2026-01-01 18:03:23.203469	20.9	78.6	-68.1	0.0
2026-01-01 18:03:25.447975	17.4	77.7	-67.8	0.0
2026-01-01 18:03:27.691044	14.5	76.8	-68.3	0.0
2026-01-01 18:03:29.935055	11.9	75.8	-68.1	0.0
2026-01-01 18:03:32.177606	9.7	74.9	-68.1	0.0
2026-01-01 18:03:34.438123	7.8	73.9	-67.0	0.0
2026-01-01 18:03:36.682629	6.1	72.9	-67.2	0.0
2026-01-01 18:03:38.925646	4.6	71.9	-67.3	0.0
2026-01-01 18:03:41.167160	3.2	71.0	-67.1	0.0
2026-01-01 18:03:43.410673	2.0	70.0	-66.8	0.0
2026-01-01 18:03:45.655195	0.9	69.0	-66.8	0.0
2026-01-01 18:03:47.898708	360.0	68.0	-66.3	0.0
2026-01-01 18:03:50.141770	359.1	67.0	-66.5	0.0
2026-01-01 18:03:52.385789	358.3	66.1	-66.5	0.0
2026-01-01 18:03:54.629303	357.5	65.1	-66.2	0.0
2026-01-01 18:03:56.871860	356.9	64.2	-66.2	0.0
2026-01-01 18:03:59.115381	356.2	63.2	-65.9	0.0
2026-01-01 18:04:01.358445	355.7	62.3	-66.1	0.0
2026-01-01 18:04:03.604472	355.1	61.4	-66.2	0.0
2026-01-01 18:04:05.847985	354.6	60.5	-66.2	0.0
2026-01-01 18:04:08.092491	354.2	59.6	-66.1	0.0
2026-01-01 18:04:10.334028	353.7	58.7	-66.1	0.0
2026-01-01 18:04:12.576082	353.3	57.8	-66.2	0.0
2026-01-01 18:04:14.820608	353.0	57.0	-65.8	0.0
2026-01-01 18:04:17.064166	352.6	56.1	-66.3	0.0
2026-01-01 18:04:19.310193	352.3	55.3	-65.8	0.0
2026-01-01 18:04:21.552740	352.0	54.4	-65.9	0.0
2026-01-01 18:04:23.796262	351.7	53.6	-66.4	0.0
2026-01-01 18:04:26.039279	351.4	52.8	-66.3	0.0
2026-01-01 18:04:28.280829	351.1	52.0	-66.7	0.0
2026-01-01 18:04:30.525351	350.9	51.3	-66.4	0.0
2026-01-01 18:04:32.766415	350.6	50.5	-66.3	0.0
2026-01-01 18:04:35.009936	350.4	49.7	-66.7	0.0
2026-01-01 18:04:37.253487	350.2	49.0	-66.8	0.0
2026-01-01 18:04:39.492991	350.0	48.3	-66.2	0.0
2026-01-01 18:04:41.736504	349.8	47.6	-66.0	0.0
2026-01-01 18:04:43.981018	349.6	46.9	-66.3	0.0
2026-01-01 18:04:46.224035	349.4	46.2	-66.5	0.0
2026-01-01 18:04:48.467548	349.3	45.5	-66.1	0.0
2026-01-01 18:04:50.712063	349.1	44.8	-65.5	0.0
2026-01-01 18:04:52.955578	349.0	44.1	-65.3	0.0
2026-01-01 18:04:55.200136	348.8	43.5	-65.3	0.0
2026-01-01 18:04:57.443649	348.7	42.8	-65.1	0.0
2026-01-01 18:04:59.687162	348.5	42.2	-64.6	0.0
2026-01-01 18:05:01.927710	348.4	41.6	-64.6	0.0
2026-01-01 18:05:04.171234	348.3	41.0	-64.5	0.0
2026-01-01 18:05:06.414243	348.2	40.4	-63.5	0.0
2026-01-01 18:05:08.656766	348.1	39.8	-63.3	0.0
2026-01-01 18:05:10.899325	347.9	39.2	-63.3	0.0
2026-01-01 18:05:13.141838	347.8	38.7	-62.8	0.0
2026-01-01 18:05:15.383874	347.7	38.1	-62.6	0.0
2026-01-01 18:05:17.627454	347.6	37.5	-62.5	0.0
2026-01-01 18:05:19.870473	347.5	37.0	-62.0	0.0
2026-01-01 18:05:22.113490	347.5	36.5	-61.6	0.0
2026-01-01 18:05:24.358004	347.4	35.9	-61.3	0.0
2026-01-01 18:05:26.605031	347.3	35.4	-61.7	0.0
2026-01-01 18:05:28.850582	347.2	34.9	-61.0	0.0
2026-01-01 18:05:31.093599	347.1	34.4	-61.2	0.0
2026-01-01 18:05:33.337165	347.0	33.9	-61.0	0.0
2026-01-01 18:05:35.580681	347.0	33.4	-60.6	0.0
2026-01-01 18:05:37.824728	346.9	33.0	-60.7	0.0
2026-01-01 18:05:40.068285	346.8	32.5	-60.1	0.0
2026-01-01 18:05:42.315801	346.8	32.0	-60.1	0.0
2026-01-01 18:05:44.558329	346.7	31.6	-60.1	0.0
2026-01-01 18:05:46.801871	346.6	31.1	-59.9	0.0
2026-01-01 18:05:49.044924	346.6	30.7	-60.0	0.0
2026-01-01 18:05:51.288446	346.5	30.3	-59.9	0.0
2026-01-01 18:05:53.531456	346.4	29.8	-60.1	0.0
2026-01-01 18:05:55.773977	346.4	29.4	-59.7	0.0
2026-01-01 18:05:58.018498	346.3	29.0	-59.8	0.0
2026-01-01 18:06:00.261047	346.3	28.6	-59.7	0.0
2026-01-01 18:06:02.505552	346.2	28.2	-59.8	0.0
2026-01-01 18:06:04.749571	346.2	27.8	-60.2	0.0
2026-01-01 18:06:06.992092	346.1	27.4	-59.9	0.0
2026-01-01 18:06:09.234597	346.1	27.0	-59.8	0.0
2026-01-01 18:06:11.477653	346.0	26.6	-60.2	0.0
2026-01-01 18:06:13.725678	346.0	26.2	-60.1	0.0
2026-01-01 18:06:15.967235	346.0	25.9	-60.1	0.0
2026-01-01 18:06:18.208797	345.9	25.5	-60.2	0.0
2026-01-01 18:06:20.454807	345.9	25.1	-59.9	0.0
2026-01-01 18:06:22.698817	345.8	24.8	-60.2	0.0
2026-01-01 18:06:24.942827	345.8	24.4	-60.2	0.0
2026-01-01 18:06:27.193386	345.8	24.1	-60.5	0.0
2026-01-01 18:06:29.434907	345.7	23.7	-60.6	0.4
2026-01-01 18:06:31.675970	345.7	23.4	-60.8	0.0
2026-01-01 18:06:33.918979	345.6	23.1	-60.8	0.0
2026-01-01 18:06:36.163528	345.6	22.7	-61.3	1.3
2026-01-01 18:06:38.407042	345.6	22.4	-61.2	1.1
2026-01-01 18:06:40.651052	345.5	22.1	-61.1	1.8
2026-01-01 18:06:42.895565	345.5	21.8	-61.3	2.5
2026-01-01 18:06:45.139619	345.5	21.5	-61.3	2.6
2026-01-01 18:06:47.383142	345.5	21.2	-61.8	2.7
2026-01-01 18:06:49.625222	345.4	20.9	-61.9	2.4
2026-01-01 18:06:51.868239	345.4	20.6	-62.3	2.8
2026-01-01 18:06:54.110754	345.4	20.3	-62.5	2.5
2026-01-01 18:06:56.354763	345.3	20.0	-62.4	3.8
2026-01-01 18:06:58.601782	345.3	19.7	-62.0	4.0
2026-01-01 18:07:00.844295	345.3	19.4	-62.2	3.7
2026-01-01 18:07:03.086816	345.3	19.1	-62.5	3.4
2026-01-01 18:07:05.330875	345.2	18.8	-62.8	3.4
2026-01-01 18:07:07.573930	345.2	18.5	-62.5	4.0
2026-01-01 18:07:09.817940	345.2	18.3	-62.4	3.1
2026-01-01 18:07:12.061950	345.2	18.0	-62.1	3.0
2026-01-01 18:07:14.303454	345.2	17.7	-62.4	2.6
2026-01-01 18:07:16.546012	345.1	17.5	-62.3	0.8
2026-01-01 18:07:18.788532	345.1	17.2	-62.2	2.6
2026-01-01 18:07:21.032089	345.1	16.9	-61.6	0.0
2026-01-01 18:07:23.277604	345.1	16.7	-62.1	1.2
2026-01-01 18:07:25.518153	345.1	16.4	-62.0	1.4
2026-01-01 18:07:27.755673	345.0	16.2	-61.8	0.5
2026-01-01 18:07:30.002226	345.0	15.9	-61.4	0.0
2026-01-01 18:07:32.241286	345.0	15.7	-61.1	0.0
2026-01-01 18:07:34.484304	345.0	15.4	-60.8	0.0
2026-01-01 18:07:36.728313	345.0	15.2	-59.9	0.0
2026-01-01 18:07:38.970872	344.9	15.0	-60.3	0.0
2026-01-01 18:07:41.214387	344.9	14.7	-60.2	0.0
2026-01-01 18:07:43.457405	344.9	14.5	-60.1	0.0
2026-01-01 18:07:45.703920	344.9	14.2	-59.8	0.0
2026-01-01 18:07:47.947425	344.9	14.0	-59.8	0.0
2026-01-01 18:07:50.190992	344.9	13.8	-59.7	0.0
2026-01-01 18:07:52.435011	344.9	13.6	-59.6	0.0
2026-01-01 18:07:54.677064	344.8	13.3	-59.4	0.0
2026-01-01 18:07:56.919577	344.8	13.1	-58.8	0.0
2026-01-01 18:07:59.163092	344.8	12.9	-58.4	0.0
2026-01-01 18:08:01.402614	344.8	12.7	-59.2	0.0
2026-01-01 18:08:03.646623	344.8	12.5	-58.8	0.0
2026-01-01 18:08:05.889145	344.8	12.3	-58.2	0.0
2026-01-01 18:08:08.132659	344.8	12.0	-58.4	0.0
2026-01-01 18:08:10.376678	344.7	11.8	-58.5	0.0
2026-01-01 18:08:12.619235	344.7	11.6	-58.0	0.0
2026-01-01 18:08:14.863245	344.7	11.4	-57.8	0.0
2026-01-01 18:08:17.109810	344.7	11.2	-57.4	0.0
2026-01-01 18:08:19.353820	344.7	11.0	-57.3	0.0
2026-01-01 18:08:21.600326	344.7	10.8	-57.4	0.0
2026-01-01 18:08:23.847383	344.7	10.6	-56.9	0.0
2026-01-01 18:08:26.089392	344.7	10.4	-57.1	0.0
2026-01-01 18:08:28.332898	344.7	10.2	-57.4	0.0
2026-01-01 18:08:30.575952	344.7	10.0	-56.6	0.0
2026-01-01 18:08:32.818508	344.6	9.8	-56.4	0.0
2026-01-01 18:08:35.062517	344.6	9.6	-56.4	0.0
2026-01-01 18:08:37.305534	344.6	9.4	-56.0	0.0
2026-01-01 18:08:39.550582	344.6	9.2	-55.8	0.0
2026-01-01 18:08:41.794134	344.6	9.1	-56.0	0.0
2026-01-01 18:08:44.037648	344.6	8.9	-55.9	0.0
2026-01-01 18:08:46.280699	344.6	8.7	-55.8	0.0
2026-01-01 18:08:48.523716	344.6	8.5	-55.6	0.0
2026-01-01 18:08:50.766734	344.6	8.3	-55.7	0.0
2026-01-01 18:08:53.010248	344.6	8.1	-55.7	0.0
2026-01-01 18:08:55.254257	344.6	8.0	-55.2	0.0
2026-01-01 18:08:57.496795	344.6	7.8	-55.1	0.0
2026-01-01 18:08:59.740339	344.6	7.6	-55.4	0.0
2026-01-01 18:09:01.983357	344.6	7.4	-55.5	0.0
2026-01-01 18:09:04.226436	344.5	7.3	-54.9	0.0
2026-01-01 18:09:06.468958	344.5	7.1	-54.6	0.0
2026-01-01 18:09:08.714013	344.5	6.9	-55.0	0.0
2026-01-01 18:09:10.958022	344.5	6.7	-54.9	0.0
2026-01-01 18:09:13.201032	344.5	6.6	-54.6	0.0
2026-01-01 18:09:15.444545	344.5	6.4	-54.5	0.0
2026-01-01 18:09:17.681553	344.5	6.2	-54.5	0.0
2026-01-01 18:09:19.918590	344.5	6.1	-54.5	0.0
2026-01-01 18:09:22.161609	344.5	5.9	-59.6	0.0
2026-01-01 18:09:24.408115	344.5	5.7	-62.6	0.0
2026-01-01 18:09:26.650658	344.5	5.6	-67.8	0.0
2026-01-01 18:09:28.892676	344.5	5.4	-67.9	0.0
2026-01-01 18:09:31.133217	344.5	5.2	-68.9	0.0
2026-01-01 18:09:33.375273	344.5	5.1	-70.3	0.0
#Closed at: 2026-01-01 17:56:35.863378