passes_logs/2026/01/01/PlanumMoscow/PlanumMoscow__20260101_171731_METOP-B_rec.log

#Pass ID: 20260101_171731_METOP-B
#Satellite: METOP-B
#Configuration: METOP-B
#Start time: 2026-01-01 17:17:36.962051

#LorettStation: 1.0.0 05.05.2024
#Station: PlanumMoscow
#Location: 37.6253844 lon 55.6713361 lat
#TLE: 1 38771U 12049A   25293.92766658  .00000266  00000+0  14193-3 0  9996
#TLE: 2 38771  98.6882 344.7603 0001609 341.5209  18.5909 14.21379342679275

#Time	Az	El	Level	SNR
2026-01-01 17:21:15.423058	148.2	29.5	-62.5	8.7
2026-01-01 17:21:17.653561	148.0	30.0	-63.1	8.8
2026-01-01 17:21:19.890110	147.9	30.4	-63.6	8.7
2026-01-01 17:21:22.123665	147.7	30.8	-63.1	9.5
2026-01-01 17:21:24.352725	147.6	31.3	-63.2	9.1
2026-01-01 17:21:26.584243	147.4	31.7	-63.1	9.0
2026-01-01 17:21:28.815286	147.3	32.2	-63.2	9.8
2026-01-01 17:21:31.048302	147.1	32.6	-63.1	9.4
2026-01-01 17:21:33.277812	146.9	33.1	-63.3	8.9
2026-01-01 17:21:35.511331	146.7	33.6	-62.9	9.1
2026-01-01 17:21:37.747844	146.6	34.0	-63.3	9.6
2026-01-01 17:21:39.983355	146.4	34.5	-63.2	10.0
2026-01-01 17:21:42.221380	146.2	35.0	-62.5	9.1
2026-01-01 17:21:44.454891	146.0	35.5	-63.0	10.1
2026-01-01 17:21:46.688403	145.8	36.0	-62.6	10.1
2026-01-01 17:21:48.922411	145.6	36.5	-62.4	10.6
2026-01-01 17:21:51.160915	145.3	37.1	-62.5	10.5
2026-01-01 17:21:53.390922	145.1	37.6	-62.0	9.9
2026-01-01 17:21:55.624938	144.9	38.1	-62.5	9.9
2026-01-01 17:21:57.856946	144.6	38.7	-62.5	10.6
2026-01-01 17:22:00.089961	144.4	39.3	-63.0	10.1
2026-01-01 17:22:02.323985	144.1	39.8	-62.9	10.3
2026-01-01 17:22:04.557497	143.9	40.4	-62.3	9.7
2026-01-01 17:22:06.793018	143.6	41.0	-62.4	9.6
2026-01-01 17:22:09.030531	143.3	41.6	-62.7	9.8
2026-01-01 17:22:11.275036	143.0	42.2	-62.5	9.9
2026-01-01 17:22:13.518550	142.7	42.8	-62.2	8.9
2026-01-01 17:22:15.762064	142.4	43.4	-62.7	10.8
2026-01-01 17:22:18.006073	142.0	44.0	-62.8	10.9
2026-01-01 17:22:20.249587	141.7	44.7	-62.6	10.4
2026-01-01 17:22:22.493101	141.3	45.3	-62.7	10.6
2026-01-01 17:22:24.728124	140.9	46.0	-62.7	11.1
2026-01-01 17:22:26.963628	140.5	46.7	-62.6	11.0
2026-01-01 17:22:29.198150	140.1	47.3	-62.8	10.7
2026-01-01 17:22:31.430156	139.7	48.0	-62.9	11.3
2026-01-01 17:22:33.661676	139.2	48.7	-62.9	10.8
2026-01-01 17:22:35.895683	138.7	49.4	-62.9	11.0
2026-01-01 17:22:38.127690	138.2	50.1	-63.0	10.7
2026-01-01 17:22:40.361193	137.7	50.8	-62.6	9.7
2026-01-01 17:22:42.593695	137.1	51.6	-63.1	10.5
2026-01-01 17:22:44.831712	136.6	52.3	-63.0	10.5
2026-01-01 17:22:47.067720	135.9	53.0	-62.7	10.3
2026-01-01 17:22:49.303232	135.3	53.8	-62.3	9.2
2026-01-01 17:22:51.534239	134.6	54.6	-62.3	10.6
2026-01-01 17:22:53.770263	133.9	55.3	-62.6	9.9
2026-01-01 17:22:56.003270	133.2	56.1	-62.4	9.5
2026-01-01 17:22:58.236277	132.4	56.9	-62.7	10.2
2026-01-01 17:23:00.472293	131.5	57.7	-62.9	9.0
2026-01-01 17:23:02.705300	130.6	58.4	-63.0	10.5
2026-01-01 17:23:04.940812	129.7	59.2	-63.0	9.8
2026-01-01 17:23:07.176324	128.7	60.0	-63.2	10.1
2026-01-01 17:23:09.412341	127.6	60.8	-63.4	10.0
2026-01-01 17:23:11.648349	126.4	61.6	-63.3	9.9
2026-01-01 17:23:13.881852	125.2	62.4	-63.5	8.9
2026-01-01 17:23:16.114363	123.9	63.2	-63.9	9.7
2026-01-01 17:23:18.349875	122.5	64.0	-63.6	9.0
2026-01-01 17:23:20.582882	121.0	64.8	-63.3	9.2
2026-01-01 17:23:22.816898	119.4	65.5	-63.2	8.9
2026-01-01 17:23:25.052906	117.7	66.3	-63.4	9.6
2026-01-01 17:23:27.286922	115.9	67.0	-63.6	8.2
2026-01-01 17:23:29.531940	113.9	67.8	-63.5	8.5
2026-01-01 17:23:31.775453	111.8	68.5	-63.9	9.3
2026-01-01 17:23:34.018967	109.5	69.2	-63.5	8.1
2026-01-01 17:23:36.261481	107.0	69.8	-63.8	10.9
2026-01-01 17:23:38.504994	104.4	70.5	-62.9	8.7
2026-01-01 17:23:40.749500	101.6	71.0	-63.4	9.2
2026-01-01 17:23:42.991517	98.6	71.6	-63.4	9.3
2026-01-01 17:23:45.222045	95.5	72.1	-63.3	9.1
2026-01-01 17:23:47.455548	92.1	72.5	-63.9	7.0
2026-01-01 17:23:49.691068	88.6	72.9	-64.1	8.0
2026-01-01 17:23:51.923113	85.0	73.2	-64.7	7.6
2026-01-01 17:23:54.162122	81.2	73.5	-64.6	7.7
2026-01-01 17:23:56.391633	77.3	73.7	-64.7	7.6
2026-01-01 17:23:58.624136	73.3	73.8	-65.0	7.2
2026-01-01 17:24:00.856648	69.3	73.8	-64.9	7.8
2026-01-01 17:24:03.092151	65.2	73.8	-65.1	6.1
2026-01-01 17:24:05.331170	61.3	73.7	-64.3	7.6
2026-01-01 17:24:07.564177	57.4	73.5	-63.8	5.8
2026-01-01 17:24:09.800698	53.6	73.2	-64.9	4.9
2026-01-01 17:24:12.038210	49.9	72.9	-65.0	7.3
2026-01-01 17:24:14.276227	46.4	72.5	-64.7	6.7
2026-01-01 17:24:16.510747	43.1	72.0	-64.1	6.3
2026-01-01 17:24:18.745266	40.0	71.5	-64.7	7.2
2026-01-01 17:24:20.980274	37.0	71.0	-64.6	7.0
2026-01-01 17:24:23.216282	34.2	70.4	-64.1	6.6
2026-01-01 17:24:25.447784	31.7	69.8	-64.5	6.3
2026-01-01 17:24:27.683296	29.2	69.1	-64.3	6.1
2026-01-01 17:24:29.917807	27.0	68.4	-64.4	6.3
2026-01-01 17:24:32.151319	24.9	67.7	-64.3	6.4
2026-01-01 17:24:34.384822	22.9	67.0	-64.0	6.0
2026-01-01 17:24:36.616830	21.1	66.2	-63.6	5.7
2026-01-01 17:24:38.850837	19.4	65.5	-63.7	6.0
2026-01-01 17:24:41.085349	17.8	64.7	-63.6	5.6
2026-01-01 17:24:43.317852	16.3	63.9	-63.4	7.1
2026-01-01 17:24:45.548867	14.9	63.2	-61.9	5.7
2026-01-01 17:24:47.782378	13.6	62.4	-62.9	6.1
2026-01-01 17:24:50.011890	12.4	61.6	-62.9	7.1
2026-01-01 17:24:52.241896	11.3	60.8	-62.6	8.2
2026-01-01 17:24:54.474411	10.2	60.0	-62.3	7.3
2026-01-01 17:24:56.709418	9.2	59.2	-62.0	6.9
2026-01-01 17:24:58.952933	8.2	58.4	-61.8	6.0
2026-01-01 17:25:01.197447	7.3	57.6	-62.4	7.3
2026-01-01 17:25:03.440962	6.5	56.8	-62.3	7.0
2026-01-01 17:25:05.685477	5.7	56.1	-62.3	7.4
2026-01-01 17:25:07.929486	5.0	55.3	-62.6	7.3
2026-01-01 17:25:10.163501	4.2	54.5	-62.4	5.9
2026-01-01 17:25:12.399509	3.6	53.8	-62.4	6.8
2026-01-01 17:25:14.643023	2.9	53.0	-62.4	7.0
2026-01-01 17:25:16.879047	2.3	52.3	-61.3	6.1
2026-01-01 17:25:19.112550	1.7	51.5	-61.8	6.6
2026-01-01 17:25:21.344566	1.2	50.8	-62.4	7.6
2026-01-01 17:25:23.578101	0.7	50.1	-61.7	7.1
2026-01-01 17:25:25.808116	0.2	49.4	-61.5	6.8
2026-01-01 17:25:28.044124	359.7	48.7	-62.1	8.1
2026-01-01 17:25:30.275635	359.3	48.0	-62.2	7.9
2026-01-01 17:25:32.507146	358.8	47.3	-61.9	7.2
2026-01-01 17:25:34.744155	358.4	46.7	-62.2	7.1
2026-01-01 17:25:36.977666	358.0	46.0	-62.2	7.3
2026-01-01 17:25:39.210177	357.6	45.4	-61.9	7.1
2026-01-01 17:25:41.443689	357.3	44.7	-62.6	7.8
2026-01-01 17:25:43.682697	356.9	44.1	-62.3	6.4
2026-01-01 17:25:45.915209	356.6	43.4	-62.3	7.8
2026-01-01 17:25:48.149225	356.2	42.8	-62.2	7.4
2026-01-01 17:25:50.380738	355.9	42.2	-61.9	6.4
2026-01-01 17:25:52.610249	355.6	41.6	-61.7	6.0
2026-01-01 17:25:54.844265	355.3	41.0	-61.5	6.0
2026-01-01 17:25:57.075776	355.1	40.5	-61.8	6.8
2026-01-01 17:25:59.308783	354.8	39.9	-61.1	6.7
2026-01-01 17:26:01.539293	354.5	39.3	-61.2	5.4
2026-01-01 17:26:03.773813	354.3	38.8	-60.9	4.3
2026-01-01 17:26:06.010316	354.1	38.2	-60.7	5.3
2026-01-01 17:26:08.240827	353.8	37.7	-61.0	5.7
2026-01-01 17:26:10.475835	353.6	37.1	-60.5	5.6
2026-01-01 17:26:12.708842	353.4	36.6	-60.7	5.0
2026-01-01 17:26:14.949346	353.2	36.1	-60.3	3.2
2026-01-01 17:26:17.184850	353.0	35.6	-60.5	3.9
2026-01-01 17:26:19.417857	352.8	35.1	-60.5	3.8
2026-01-01 17:26:21.652369	352.6	34.6	-59.6	3.0
2026-01-01 17:26:23.884881	352.4	34.1	-60.1	3.1
2026-01-01 17:26:26.118393	352.2	33.6	-60.1	3.5
2026-01-01 17:26:28.349903	352.0	33.2	-60.3	2.9
2026-01-01 17:26:30.580406	351.9	32.7	-59.8	2.5
2026-01-01 17:26:32.814917	351.7	32.3	-59.3	3.0
2026-01-01 17:26:35.059936	351.5	31.8	-59.7	1.7
2026-01-01 17:26:37.303945	351.4	31.4	-59.6	2.2
2026-01-01 17:26:39.548451	351.2	30.9	-59.6	1.8
2026-01-01 17:26:41.791965	351.1	30.5	-59.1	1.5
2026-01-01 17:26:44.035975	350.9	30.1	-59.2	2.4
2026-01-01 17:26:46.268487	350.8	29.6	-59.0	3.0
2026-01-01 17:26:48.500501	350.7	29.2	-59.0	2.1
2026-01-01 17:26:50.749512	350.5	28.8	-59.1	1.1
2026-01-01 17:26:52.992033	350.4	28.4	-59.4	1.3
2026-01-01 17:26:55.226049	350.3	28.0	-59.5	0.2
2026-01-01 17:26:57.457569	350.2	27.6	-59.3	0.0
2026-01-01 17:26:59.696073	350.1	27.2	-59.4	0.0
2026-01-01 17:27:01.927080	349.9	26.9	-59.1	0.6
2026-01-01 17:27:04.159583	349.8	26.5	-59.3	1.8
2026-01-01 17:27:06.390085	349.7	26.1	-59.6	1.0
2026-01-01 17:27:08.623596	349.6	25.8	-59.7	0.0
2026-01-01 17:27:10.858100	349.5	25.4	-59.5	0.0
2026-01-01 17:27:13.088122	349.4	25.0	-59.7	0.0
2026-01-01 17:27:15.318128	349.3	24.7	-59.9	0.0
2026-01-01 17:27:17.550143	349.2	24.3	-60.1	0.0
2026-01-01 17:27:19.784150	349.1	24.0	-60.0	0.0
2026-01-01 17:27:22.021654	349.0	23.7	-60.0	0.7
2026-01-01 17:27:24.252157	348.9	23.3	-60.6	1.7
2026-01-01 17:27:26.481172	348.9	23.0	-60.7	0.8
2026-01-01 17:27:28.712187	348.8	22.7	-61.0	0.2
2026-01-01 17:27:30.944689	348.7	22.4	-60.7	0.0
2026-01-01 17:27:33.176201	348.6	22.0	-61.0	0.0
2026-01-01 17:27:35.412209	348.5	21.7	-61.0	0.6
2026-01-01 17:27:37.646217	348.4	21.4	-61.2	0.6
2026-01-01 17:27:39.880233	348.4	21.1	-61.5	1.2
2026-01-01 17:27:42.113250	348.3	20.8	-61.4	2.4
2026-01-01 17:27:44.344257	348.2	20.5	-61.7	2.7
2026-01-01 17:27:46.574768	348.1	20.2	-61.4	1.4
2026-01-01 17:27:48.809784	348.1	19.9	-62.2	2.3
2026-01-01 17:27:51.042287	348.0	19.6	-62.0	2.0
2026-01-01 17:27:53.274789	347.9	19.4	-62.4	2.5
2026-01-01 17:27:55.504300	347.9	19.1	-62.1	1.9
2026-01-01 17:27:57.737308	347.8	18.8	-62.0	1.8
2026-01-01 17:27:59.969811	347.7	18.5	-62.2	2.0
2026-01-01 17:28:02.200817	347.7	18.3	-62.0	2.0
2026-01-01 17:28:04.430328	347.6	18.0	-62.5	0.1
2026-01-01 17:28:06.661831	347.6	17.7	-62.6	0.0
2026-01-01 17:28:08.894838	347.5	17.5	-62.5	2.4
2026-01-01 17:28:11.126853	347.4	17.2	-62.3	1.2
2026-01-01 17:28:13.369358	347.4	16.9	-62.5	0.3
2026-01-01 17:28:15.613367	347.3	16.7	-61.8	1.1
2026-01-01 17:28:17.855881	347.3	16.4	-62.4	2.2
2026-01-01 17:28:20.099395	347.2	16.2	-62.1	1.5
2026-01-01 17:28:22.343909	347.2	15.9	-61.9	0.0
2026-01-01 17:28:24.580429	347.1	15.7	-62.2	0.0
2026-01-01 17:28:26.825440	347.1	15.4	-61.8	0.0
2026-01-01 17:28:29.065457	347.0	15.2	-60.9	0.0
2026-01-01 17:28:31.296960	347.0	15.0	-60.5	0.0
2026-01-01 17:28:33.528470	346.9	14.7	-60.7	0.0
2026-01-01 17:28:35.761981	346.9	14.5	-60.8	0.0
2026-01-01 17:28:37.993997	346.8	14.3	-60.8	0.0
2026-01-01 17:28:40.226508	346.8	14.0	-60.7	0.0
2026-01-01 17:28:42.457010	346.7	13.8	-60.2	0.0
2026-01-01 17:28:44.691522	346.7	13.6	-60.7	0.0
2026-01-01 17:28:46.922033	346.7	13.4	-59.6	0.0
2026-01-01 17:28:49.154040	346.6	13.1	-59.1	0.0
2026-01-01 17:28:51.382069	346.6	12.9	-59.9	0.0
2026-01-01 17:28:53.613075	346.5	12.7	-59.4	0.0
2026-01-01 17:28:55.845578	346.5	12.5	-59.3	0.0
2026-01-01 17:28:58.080601	346.5	12.3	-59.4	0.0
2026-01-01 17:29:00.309607	346.4	12.1	-59.1	0.0
2026-01-01 17:29:02.539109	346.4	11.9	-58.7	0.0
2026-01-01 17:29:04.774117	346.4	11.7	-58.5	0.0
2026-01-01 17:29:07.006124	346.3	11.4	-58.5	0.0
2026-01-01 17:29:09.239636	346.3	11.2	-58.5	0.0
2026-01-01 17:29:11.472146	346.2	11.0	-57.5	0.0
2026-01-01 17:29:13.702657	346.2	10.8	-58.0	0.0
2026-01-01 17:29:15.936169	346.2	10.6	-58.1	0.0
2026-01-01 17:29:18.167176	346.1	10.4	-58.0	0.0
2026-01-01 17:29:20.399182	346.1	10.2	-57.5	0.0
2026-01-01 17:29:22.630694	346.1	10.1	-57.3	0.0
2026-01-01 17:29:24.863205	346.1	9.9	-57.7	0.0
2026-01-01 17:29:27.095211	346.0	9.7	-57.3	0.0
2026-01-01 17:29:29.328722	346.0	9.5	-56.7	0.0
2026-01-01 17:29:31.558736	346.0	9.3	-56.8	0.0
2026-01-01 17:29:33.789743	345.9	9.1	-57.1	0.0
2026-01-01 17:29:36.021254	345.9	8.9	-56.7	0.0
2026-01-01 17:29:38.251756	345.9	8.7	-56.7	0.0
2026-01-01 17:29:40.483259	345.8	8.5	-56.4	0.0
2026-01-01 17:29:42.721772	345.8	8.4	-56.1	0.0
2026-01-01 17:29:44.961293	345.8	8.2	-56.3	0.0
2026-01-01 17:29:47.205303	345.8	8.0	-56.1	0.0
2026-01-01 17:29:49.445808	345.7	7.8	-56.1	0.0
2026-01-01 17:29:51.688827	345.7	7.7	-56.2	0.0
2026-01-01 17:29:53.932836	345.7	7.5	-55.9	0.0
2026-01-01 17:29:56.176855	345.7	7.3	-55.1	0.0
2026-01-01 17:29:58.419376	345.6	7.1	-55.7	0.0
2026-01-01 17:30:00.663881	345.6	7.0	-55.3	0.0
2026-01-01 17:30:02.896888	345.6	6.8	-55.0	0.0
2026-01-01 17:30:05.129400	345.6	6.6	-55.1	0.0
2026-01-01 17:30:07.364903	345.5	6.4	-55.2	0.0
2026-01-01 17:30:09.596918	345.5	6.3	-55.1	0.0
2026-01-01 17:30:11.826421	345.5	6.1	-55.1	0.0
2026-01-01 17:30:14.057435	345.5	5.9	-59.2	0.0
2026-01-01 17:30:16.286442	345.5	5.8	-59.3	0.0
2026-01-01 17:30:18.524946	345.4	5.6	-65.1	0.0
2026-01-01 17:30:20.757466	345.4	5.5	-66.1	0.0
2026-01-01 17:30:22.987472	345.4	5.3	-67.2	0.0
2026-01-01 17:30:25.220488	345.4	5.1	-69.8	0.0
2026-01-01 17:30:27.449495	345.4	5.0	-70.6	0.0
#Closed at: 2026-01-01 17:17:31.963117