passes_logs/2026/01/01/PlanumMoscow/PlanumMoscow__20260101_031948_METEOR-M2_4_rec.log

#Pass ID: 20260101_031948_METEOR-M2 4
#Satellite: METEOR-M2 4
#Configuration: METEOR-M2 4
#Start time: 2026-01-01 03:19:53.887342

#LorettStation: 1.0.0 05.05.2024
#Station: PlanumMoscow
#Location: 37.6253844 lon 55.6713361 lat
#TLE: 1 59051U 24039A   25293.94737965  .00000087  00000+0  58459-4 0  9998
#TLE: 2 59051  98.6671 251.7071 0007726 135.4772 224.7028 14.22388966 85257

#Time	Az	El	Level	SNR
2026-01-01 03:23:32.383990	328.3	14.2	-65.3	12.4
2026-01-01 03:23:33.500242	328.1	14.2	-65.9	12.3
2026-01-01 03:23:34.617053	327.9	14.2	-65.9	11.6
2026-01-01 03:23:35.731808	327.6	14.2	-65.8	12.1
2026-01-01 03:23:36.848564	327.4	14.3	-65.9	11.8
2026-01-01 03:23:37.964319	327.2	14.3	-65.4	11.0
2026-01-01 03:23:39.080570	327.0	14.3	-65.9	11.7
2026-01-01 03:23:40.197829	326.7	14.3	-65.7	12.1
2026-01-01 03:23:41.312089	326.5	14.3	-66.0	12.1
2026-01-01 03:23:42.427348	326.3	14.4	-65.8	11.3
2026-01-01 03:23:43.543599	326.1	14.4	-65.8	11.4
2026-01-01 03:23:44.658850	325.8	14.4	-65.7	11.7
2026-01-01 03:23:45.775102	325.6	14.4	-66.0	12.1
2026-01-01 03:23:46.890865	325.4	14.4	-66.1	11.2
2026-01-01 03:23:48.006116	325.1	14.4	-66.0	11.8
2026-01-01 03:23:49.121872	324.9	14.5	-66.1	12.3
2026-01-01 03:23:50.238123	324.7	14.5	-66.1	12.3
2026-01-01 03:23:51.355375	324.4	14.5	-66.2	12.1
2026-01-01 03:23:52.472131	324.2	14.5	-66.2	11.6
2026-01-01 03:23:53.587886	324.0	14.5	-66.0	12.0
2026-01-01 03:23:54.702641	323.7	14.5	-66.3	11.5
2026-01-01 03:23:55.818901	323.5	14.5	-66.3	12.0
2026-01-01 03:23:56.935161	323.3	14.6	-66.2	12.2
2026-01-01 03:23:58.052421	323.0	14.6	-66.2	11.9
2026-01-01 03:23:59.167672	322.8	14.6	-66.2	12.5
2026-01-01 03:24:00.283428	322.6	14.6	-66.1	11.8
2026-01-01 03:24:01.401184	322.4	14.6	-66.0	12.3
2026-01-01 03:24:02.516940	322.1	14.6	-66.3	12.1
2026-01-01 03:24:03.635704	321.9	14.6	-66.2	12.3
2026-01-01 03:24:04.751964	321.7	14.6	-66.1	11.5
2026-01-01 03:24:05.870216	321.4	14.6	-66.2	12.3
2026-01-01 03:24:06.984467	321.2	14.7	-65.9	12.3
2026-01-01 03:24:08.101727	321.0	14.7	-66.1	12.2
2026-01-01 03:24:09.216978	320.7	14.7	-66.3	12.8
2026-01-01 03:24:10.333238	320.5	14.7	-65.9	12.9
2026-01-01 03:24:11.449499	320.2	14.7	-66.0	12.8
2026-01-01 03:24:12.564750	320.0	14.7	-65.9	12.7
2026-01-01 03:24:13.685507	319.8	14.7	-66.0	13.1
2026-01-01 03:24:14.800758	319.5	14.7	-66.0	12.6
2026-01-01 03:24:15.918009	319.3	14.7	-65.8	12.0
2026-01-01 03:24:17.035261	319.1	14.7	-65.9	12.0
2026-01-01 03:24:18.151521	318.8	14.7	-66.2	13.6
2026-01-01 03:24:19.266772	318.6	14.7	-66.4	12.7
2026-01-01 03:24:20.384024	318.4	14.7	-64.8	10.2
2026-01-01 03:24:21.501780	318.1	14.7	-64.8	10.6
2026-01-01 03:24:22.620536	317.9	14.7	-65.1	11.0
2026-01-01 03:24:23.738788	317.7	14.7	-64.8	11.3
2026-01-01 03:24:24.854039	317.4	14.7	-64.7	10.5
2026-01-01 03:24:25.970795	317.2	14.7	-64.5	9.8
2026-01-01 03:24:27.091055	317.0	14.7	-64.4	9.8
2026-01-01 03:24:28.206811	316.7	14.7	-64.1	9.7
2026-01-01 03:24:29.325063	316.5	14.7	-64.2	9.0
2026-01-01 03:24:30.441323	316.3	14.7	-62.1	6.2
2026-01-01 03:24:31.560583	316.0	14.7	-61.9	5.9
2026-01-01 03:24:32.678338	315.8	14.7	-61.9	5.7
2026-01-01 03:24:33.799095	315.5	14.7	-62.1	5.6
2026-01-01 03:24:34.916850	315.3	14.7	-62.0	6.0
2026-01-01 03:24:36.033111	315.1	14.7	-62.0	5.8
2026-01-01 03:24:37.149866	314.8	14.7	-62.1	6.0
2026-01-01 03:24:38.265117	314.6	14.7	-62.2	5.5
2026-01-01 03:24:39.381369	314.4	14.7	-62.1	6.0
2026-01-01 03:24:40.499133	314.1	14.7	-62.4	5.9
2026-01-01 03:24:41.616890	313.9	14.7	-62.5	5.7
2026-01-01 03:24:42.733681	313.7	14.7	-62.4	5.6
2026-01-01 03:24:43.848924	313.4	14.7	-62.5	6.1
2026-01-01 03:24:44.966680	313.2	14.7	-62.5	6.2
2026-01-01 03:24:46.082931	313.0	14.7	-62.7	6.0
2026-01-01 03:24:47.198191	312.7	14.7	-62.8	5.9
2026-01-01 03:24:48.317443	312.5	14.7	-62.9	6.1
2026-01-01 03:24:49.435199	312.3	14.6	-63.0	6.4
2026-01-01 03:24:50.552459	312.0	14.6	-63.1	6.6
2026-01-01 03:24:51.672216	311.8	14.6	-63.0	6.0
2026-01-01 03:24:52.798477	311.6	14.6	-62.8	7.1
2026-01-01 03:24:53.916738	311.3	14.6	-63.2	6.9
2026-01-01 03:24:55.032989	311.1	14.6	-63.3	6.4
2026-01-01 03:24:56.150249	310.9	14.6	-63.0	6.4
2026-01-01 03:24:57.269500	310.6	14.6	-63.2	6.7
2026-01-01 03:24:58.388753	310.4	14.5	-63.5	6.8
2026-01-01 03:24:59.506509	310.2	14.5	-63.3	6.5
2026-01-01 03:25:00.627266	309.9	14.5	-63.5	7.3
2026-01-01 03:25:01.751527	309.7	14.5	-63.3	7.0
2026-01-01 03:25:02.868778	309.5	14.5	-63.6	7.0
2026-01-01 03:25:03.985038	309.2	14.5	-63.7	7.5
2026-01-01 03:25:05.103290	309.0	14.5	-63.6	7.0
2026-01-01 03:25:06.220542	308.8	14.4	-63.5	7.9
2026-01-01 03:25:07.335802	308.5	14.4	-63.7	7.5
2026-01-01 03:25:08.451557	308.3	14.4	-63.6	8.1
2026-01-01 03:25:09.566808	308.1	14.4	-63.9	7.6
2026-01-01 03:25:10.685060	307.8	14.4	-63.8	7.6
2026-01-01 03:25:11.801312	307.6	14.4	-63.9	7.7
2026-01-01 03:25:12.920564	307.4	14.3	-64.0	7.5
2026-01-01 03:25:14.037816	307.2	14.3	-64.0	7.2
2026-01-01 03:25:15.153571	306.9	14.3	-64.0	7.3
2026-01-01 03:25:16.269831	306.7	14.3	-63.9	7.6
2026-01-01 03:25:17.384586	306.5	14.3	-64.0	7.7
2026-01-01 03:25:18.499846	306.2	14.2	-63.9	7.2
2026-01-01 03:25:19.618106	306.0	14.2	-64.2	7.4
2026-01-01 03:25:20.734862	305.8	14.2	-64.0	7.7
2026-01-01 03:25:21.853114	305.6	14.2	-64.5	7.6
2026-01-01 03:25:22.974366	305.3	14.1	-64.3	7.8
2026-01-01 03:25:24.092618	305.1	14.1	-64.1	7.9
2026-01-01 03:25:25.209870	304.9	14.1	-64.4	8.0
2026-01-01 03:25:26.328130	304.7	14.1	-64.4	7.3
2026-01-01 03:25:27.444390	304.4	14.1	-64.3	7.8
2026-01-01 03:25:28.563651	304.2	14.0	-64.4	7.6
2026-01-01 03:25:29.682912	304.0	14.0	-64.6	7.9
2026-01-01 03:25:30.801172	303.8	14.0	-64.6	7.4
2026-01-01 03:25:31.919424	303.5	13.9	-64.7	7.5
2026-01-01 03:25:33.040677	303.3	13.9	-64.5	7.7
2026-01-01 03:25:34.157937	303.1	13.9	-64.4	7.2
2026-01-01 03:25:35.274701	302.9	13.9	-64.5	7.7
2026-01-01 03:25:36.390962	302.6	13.8	-64.5	7.4
2026-01-01 03:25:37.509726	302.4	13.8	-64.6	7.3
2026-01-01 03:25:38.626986	302.2	13.8	-64.6	7.5
2026-01-01 03:25:39.745238	302.0	13.8	-64.6	7.2
2026-01-01 03:25:40.862490	301.8	13.7	-64.7	7.6
2026-01-01 03:25:41.979742	301.5	13.7	-64.6	7.7
2026-01-01 03:25:43.097498	301.3	13.7	-64.5	7.4
2026-01-01 03:25:44.211748	301.1	13.6	-64.6	7.8
2026-01-01 03:25:45.329504	300.9	13.6	-64.5	7.0
2026-01-01 03:25:46.447260	300.7	13.6	-64.6	7.5
2026-01-01 03:25:47.562511	300.5	13.5	-64.3	7.5
2026-01-01 03:25:48.678266	300.2	13.5	-64.4	7.2
2026-01-01 03:25:49.795031	300.0	13.5	-64.6	7.5
2026-01-01 03:25:50.912282	299.8	13.4	-64.8	6.7
2026-01-01 03:25:52.028542	299.6	13.4	-64.7	7.0
2026-01-01 03:25:53.145298	299.4	13.4	-64.6	7.1
2026-01-01 03:25:54.261558	299.2	13.3	-64.5	7.2
2026-01-01 03:25:55.377313	298.9	13.3	-64.7	7.1
2026-01-01 03:25:56.494069	298.7	13.3	-64.4	7.0
2026-01-01 03:25:57.610320	298.5	13.2	-64.3	7.1
2026-01-01 03:25:58.730573	298.3	13.2	-64.3	7.4
2026-01-01 03:25:59.847824	298.1	13.2	-64.4	7.2
2026-01-01 03:26:00.964580	297.9	13.1	-64.2	6.9
2026-01-01 03:26:02.083832	297.7	13.1	-64.2	7.7
2026-01-01 03:26:03.201589	297.5	13.1	-64.1	6.5
2026-01-01 03:26:04.323850	297.2	13.0	-64.1	7.4
2026-01-01 03:26:05.441111	297.0	13.0	-64.1	7.7
2026-01-01 03:26:06.557867	296.8	13.0	-64.2	7.4
2026-01-01 03:26:07.674622	296.6	12.9	-63.9	6.9
2026-01-01 03:26:08.792874	296.4	12.9	-64.0	7.0
2026-01-01 03:26:09.909630	296.2	12.8	-63.8	6.8
2026-01-01 03:26:11.026881	296.0	12.8	-63.9	7.3
2026-01-01 03:26:12.142141	295.8	12.8	-63.7	6.9
2026-01-01 03:26:13.259401	295.6	12.7	-64.0	7.4
2026-01-01 03:26:14.375661	295.4	12.7	-63.7	7.4
2026-01-01 03:26:15.493426	295.2	12.6	-64.0	6.7
2026-01-01 03:26:16.609190	295.0	12.6	-63.7	7.2
2026-01-01 03:26:17.726442	294.8	12.6	-63.8	7.0
2026-01-01 03:26:18.840197	294.6	12.5	-63.7	7.1
2026-01-01 03:26:19.957961	294.4	12.5	-63.8	6.2
2026-01-01 03:26:21.075221	294.2	12.4	-63.7	7.0
2026-01-01 03:26:22.189472	294.0	12.4	-63.9	6.9
2026-01-01 03:26:23.307227	293.8	12.4	-64.0	5.8
2026-01-01 03:26:24.422983	293.6	12.3	-64.0	7.3
2026-01-01 03:26:25.540243	293.4	12.3	-64.0	6.1
2026-01-01 03:26:26.657518	293.2	12.2	-63.9	5.5
2026-01-01 03:26:27.773770	293.0	12.2	-63.8	5.7
2026-01-01 03:26:28.891030	292.8	12.1	-63.9	5.8
2026-01-01 03:26:30.006786	292.6	12.1	-63.8	5.6
2026-01-01 03:26:31.122541	292.4	12.1	-63.9	5.7
2026-01-01 03:26:32.240297	292.2	12.0	-63.7	6.1
2026-01-01 03:26:33.359550	292.0	12.0	-63.7	5.7
2026-01-01 03:26:34.475305	291.8	11.9	-63.6	5.7
2026-01-01 03:26:35.599558	291.6	11.9	-63.5	5.2
2026-01-01 03:26:36.718818	291.4	11.8	-63.5	4.8
2026-01-01 03:26:37.839079	291.2	11.8	-63.6	5.4
2026-01-01 03:26:38.957835	291.0	11.7	-63.6	4.9
2026-01-01 03:26:40.075087	290.8	11.7	-63.6	4.6
2026-01-01 03:26:41.193339	290.6	11.6	-63.9	5.2
2026-01-01 03:26:42.311591	290.4	11.6	-63.8	5.5
2026-01-01 03:26:43.430851	290.2	11.6	-63.5	4.9
2026-01-01 03:26:44.547607	290.1	11.5	-63.4	4.9
2026-01-01 03:26:45.665363	289.9	11.5	-63.3	4.8
2026-01-01 03:26:46.780614	289.7	11.4	-63.3	5.1
2026-01-01 03:26:47.898370	289.5	11.4	-63.5	5.0
2026-01-01 03:26:49.016125	289.3	11.3	-63.3	4.9
2026-01-01 03:26:50.132881	289.1	11.3	-63.6	4.4
2026-01-01 03:26:51.249637	288.9	11.2	-63.4	5.2
2026-01-01 03:26:52.364887	288.7	11.2	-63.2	4.3
2026-01-01 03:26:53.482643	288.6	11.1	-63.1	4.7
2026-01-01 03:26:54.598903	288.4	11.1	-63.4	4.2
2026-01-01 03:26:55.716155	288.2	11.0	-63.2	4.6
2026-01-01 03:26:56.833407	288.0	11.0	-63.1	5.1
2026-01-01 03:26:57.949658	287.8	10.9	-63.1	4.6
2026-01-01 03:26:59.066918	287.7	10.9	-62.6	4.2
2026-01-01 03:27:00.186169	287.5	10.8	-63.0	4.6
2026-01-01 03:27:01.306422	287.3	10.8	-63.0	3.9
2026-01-01 03:27:02.425674	287.1	10.7	-62.8	4.5
2026-01-01 03:27:03.546935	286.9	10.7	-63.2	4.3
2026-01-01 03:27:04.664196	286.8	10.6	-62.7	5.1
2026-01-01 03:27:05.783953	286.6	10.6	-62.7	4.8
2026-01-01 03:27:06.899709	286.4	10.5	-62.7	4.4
2026-01-01 03:27:08.020961	286.2	10.5	-62.6	4.2
2026-01-01 03:27:09.140213	286.0	10.4	-62.7	3.9
2026-01-01 03:27:10.257465	285.9	10.4	-62.9	4.1
2026-01-01 03:27:11.374725	285.7	10.3	-62.6	4.7
2026-01-01 03:27:12.496985	285.5	10.3	-63.0	3.7
2026-01-01 03:27:13.616742	285.3	10.2	-62.6	4.1
2026-01-01 03:27:14.734993	285.2	10.2	-62.7	4.3
2026-01-01 03:27:15.853245	285.0	10.1	-62.7	4.2
2026-01-01 03:27:16.973506	284.8	10.1	-62.7	3.7
2026-01-01 03:27:18.094759	284.7	10.0	-62.7	4.1
2026-01-01 03:27:19.213011	284.5	10.0	-62.8	3.8
2026-01-01 03:27:20.331767	284.3	9.9	-62.7	4.0
2026-01-01 03:27:21.451036	284.1	9.9	-62.7	4.2
2026-01-01 03:27:22.572802	284.0	9.8	-62.6	3.2
2026-01-01 03:27:23.693576	283.8	9.8	-62.7	3.7
2026-01-01 03:27:24.813845	283.6	9.7	-62.6	2.9
2026-01-01 03:27:25.936098	283.5	9.7	-62.8	3.8
2026-01-01 03:27:27.056864	283.3	9.6	-62.4	3.0
2026-01-01 03:27:28.179116	283.1	9.6	-62.7	3.7
2026-01-01 03:27:29.300872	283.0	9.5	-62.5	3.8
2026-01-01 03:27:30.422134	282.8	9.5	-62.7	4.0
2026-01-01 03:27:31.544387	282.6	9.4	-62.5	2.9
2026-01-01 03:27:32.666144	282.5	9.3	-62.4	3.5
2026-01-01 03:27:33.788396	282.3	9.3	-62.3	4.1
2026-01-01 03:27:34.910154	282.2	9.2	-62.5	2.8
2026-01-01 03:27:36.032406	282.0	9.2	-62.5	3.6
2026-01-01 03:27:37.154171	281.8	9.1	-62.5	3.7
2026-01-01 03:27:38.273432	281.7	9.1	-62.2	2.4
2026-01-01 03:27:39.392684	281.5	9.0	-62.5	2.7
2026-01-01 03:27:40.511936	281.4	9.0	-62.6	2.8
2026-01-01 03:27:41.633255	281.2	8.9	-62.4	3.1
2026-01-01 03:27:42.754507	281.0	8.9	-62.5	3.1
2026-01-01 03:27:43.873768	280.9	8.8	-62.6	2.1
2026-01-01 03:27:44.989523	280.7	8.7	-62.6	2.9
2026-01-01 03:27:46.109775	280.6	8.7	-62.5	2.0
2026-01-01 03:27:47.228027	280.4	8.6	-62.4	2.1
2026-01-01 03:27:48.348784	280.3	8.6	-62.5	2.6
2026-01-01 03:27:49.465547	280.1	8.5	-62.4	1.2
2026-01-01 03:27:50.585311	279.9	8.5	-62.7	1.9
2026-01-01 03:27:51.706069	279.8	8.4	-62.5	3.0
2026-01-01 03:27:52.824321	279.6	8.4	-62.2	1.7
2026-01-01 03:27:53.942085	279.5	8.3	-62.6	1.7
2026-01-01 03:27:55.057842	279.3	8.3	-62.4	1.2
2026-01-01 03:27:56.176598	279.2	8.2	-62.5	0.0
2026-01-01 03:27:57.292858	279.0	8.1	-62.3	0.2
2026-01-01 03:27:58.408614	278.9	8.1	-62.4	1.7
2026-01-01 03:27:59.526371	278.7	8.0	-62.2	2.3
2026-01-01 03:28:00.646632	278.6	8.0	-62.3	1.3
2026-01-01 03:28:01.764903	278.4	7.9	-62.3	2.1
2026-01-01 03:28:02.880666	278.3	7.9	-62.3	1.4
2026-01-01 03:28:04.000423	278.1	7.8	-62.3	1.6
2026-01-01 03:28:05.119178	278.0	7.8	-62.2	0.1
2026-01-01 03:28:06.237439	277.9	7.7	-61.9	2.3
2026-01-01 03:28:07.352194	277.7	7.6	-62.0	1.5
2026-01-01 03:28:08.471950	277.6	7.6	-62.3	0.8
2026-01-01 03:28:09.591707	277.4	7.5	-62.3	1.6
2026-01-01 03:28:10.710968	277.3	7.5	-62.2	0.9
2026-01-01 03:28:11.830220	277.1	7.4	-62.0	0.9
2026-01-01 03:28:12.946976	277.0	7.4	-62.1	0.7
2026-01-01 03:28:14.070732	276.9	7.3	-62.1	1.4
2026-01-01 03:28:15.186984	276.7	7.3	-62.1	2.2
2026-01-01 03:28:16.305740	276.6	7.2	-62.1	1.4
2026-01-01 03:28:17.422992	276.4	7.1	-62.2	2.1
2026-01-01 03:28:18.540243	276.3	7.1	-62.0	0.6
2026-01-01 03:28:19.656503	276.2	7.0	-62.1	0.6
2026-01-01 03:28:20.774763	276.0	7.0	-62.2	1.3
2026-01-01 03:28:21.892024	275.9	6.9	-62.2	1.9
2026-01-01 03:28:23.007780	275.7	6.9	-62.2	1.3
2026-01-01 03:28:24.125548	275.6	6.8	-62.0	2.1
2026-01-01 03:28:25.240303	275.5	6.8	-62.0	0.4
2026-01-01 03:28:26.355563	275.3	6.7	-61.8	1.5
2026-01-01 03:28:27.469814	275.2	6.6	-62.2	0.0
2026-01-01 03:28:28.587066	275.1	6.6	-62.2	1.0
2026-01-01 03:28:29.703317	274.9	6.5	-62.2	1.9
2026-01-01 03:28:30.823074	274.8	6.5	-61.9	0.9
2026-01-01 03:28:31.941830	274.7	6.4	-62.0	0.4
2026-01-01 03:28:33.058586	274.5	6.4	-61.9	1.6
2026-01-01 03:28:34.175341	274.4	6.3	-61.9	2.3
2026-01-01 03:28:35.292593	274.3	6.2	-62.1	1.4
2026-01-01 03:28:36.412853	274.1	6.2	-62.2	1.5
2026-01-01 03:28:37.531609	274.0	6.1	-62.1	0.4
2026-01-01 03:28:38.648861	273.9	6.1	-62.2	0.8
2026-01-01 03:28:39.768113	273.7	6.0	-62.7	0.8
2026-01-01 03:28:40.885365	273.6	6.0	-65.8	0.0
2026-01-01 03:28:42.002121	273.5	5.9	-67.9	0.0
2026-01-01 03:28:43.118373	273.4	5.8	-67.1	0.0
2026-01-01 03:28:44.235641	273.2	5.8	-67.8	0.0
2026-01-01 03:28:45.363399	273.1	5.7	-68.7	0.0
2026-01-01 03:28:46.484661	273.0	5.7	-69.8	0.0
2026-01-01 03:28:47.605921	272.8	5.6	-70.5	0.0
2026-01-01 03:28:48.726190	272.7	5.6	-69.9	0.0
2026-01-01 03:28:49.848442	272.6	5.5	-71.5	0.0
2026-01-01 03:28:50.970695	272.5	5.4	-72.1	0.0
2026-01-01 03:28:52.092452	272.3	5.4	-72.5	0.0
2026-01-01 03:28:53.214713	272.2	5.3	-72.4	0.0
2026-01-01 03:28:54.336974	272.1	5.3	-72.5	0.0
2026-01-01 03:28:55.458731	272.0	5.2	-72.4	0.0
2026-01-01 03:28:56.578983	271.9	5.2	-72.5	0.0
2026-01-01 03:28:57.701244	271.7	5.1	-72.2	0.0
2026-01-01 03:28:58.822505	271.6	5.1	-72.5	0.0
2026-01-01 03:28:59.944758	271.5	5.0	-72.5	0.0
#Closed at: 2026-01-01 03:19:48.887902