passes_logs/2026/01/13/T1/T1__20260113_232414_NOAA_21_JPSS-2_rec.log

#Pass ID: 20260113_232414_NOAA 21 (JPSS-2)
#Satellite: NOAA 21 (JPSS-2)
#Configuration: NOAA 21
#almurnet v.1.7.20251203
#Start time: 2026-01-13 23:24:13

#Version: 2.0.20230620
#Station: T1
#Location: 37.570604 lon 55.790049 lat
#TLE: 1 54234U 22150A   26013.18009385  .00000056  00000+0  47387-4 0  9997
#TLE: 2 54234  98.7496 314.1019 0000691 303.8246  56.2864 14.19534466164559

#Time	Az	El	Level	Level2	SNR	BER	BlckErr	Temp	State	Recorded	gain1	gain2
2026-01-13 23:24:13.79	18.25	4.96	-49.2	-63.5	3.8	1.49e+00	0	40	0	0	68	20508
2026-01-13 23:24:16.76	18.31	5.17	-49.1	-63.4	3.8	1.49e+00	0	40	104	0	68	20124
2026-01-13 23:24:19.74	18.37	5.38	-49.1	-63.1	3.8	1.49e+00	0	40	104	0	68	19403
2026-01-13 23:24:22.72	18.43	5.59	-49.1	-62.6	3.8	1.49e+00	0	40	104	0	68	18368
2026-01-13 23:24:25.70	18.49	5.81	-49.1	-62.3	3.8	1.49e+00	0	41	104	0	68	17750
2026-01-13 23:24:28.69	18.55	6.03	-49.1	-62.2	3.8	1.49e+00	0	40	104	0	68	17623
2026-01-13 23:24:31.67	18.61	6.25	-49.1	-62.7	3.8	1.49e+00	0	41	104	0	68	18518
2026-01-13 23:24:34.65	18.67	6.47	-49.1	-63.0	3.8	1.49e+00	0	41	104	0	68	19257
2026-01-13 23:24:37.63	18.73	6.69	-49.1	-62.9	3.8	1.49e+00	0	41	104	0	68	19047
2026-01-13 23:24:40.61	18.80	6.91	-49.1	-62.5	3.8	1.49e+00	0	41	104	0	68	18184
2026-01-13 23:24:43.59	18.86	7.14	-49.1	-62.3	3.8	1.49e+00	0	41	104	0	68	17785
2026-01-13 23:24:46.57	18.92	7.37	-49.0	-61.2	3.9	1.48e+00	0	41	104	0	68	15745
2026-01-13 23:24:49.55	18.99	7.60	-48.8	-59.8	4.0	1.45e+00	0	42	104	0	68	13360
2026-01-13 23:24:52.53	19.06	7.83	-48.6	-57.6	5.2	6.53e-01	0	41	0	0	68	10353
2026-01-13 23:24:55.51	19.12	8.07	-48.5	-57.2	5.5	4.82e-01	0	42	0	0	68	9834
2026-01-13 23:24:58.49	19.19	8.31	-48.6	-57.5	5.3	5.28e-01	0	41	0	0	68	10185
2026-01-13 23:25:01.47	19.26	8.55	-48.6	-57.7	5.2	5.99e-01	0	42	0	0	68	10423
2026-01-13 23:25:04.45	19.33	8.79	-48.7	-58.1	5.0	7.11e-01	0	42	0	0	68	10925
2026-01-13 23:25:07.43	19.40	9.03	-48.9	-59.4	4.4	1.32e+00	0	42	104	0	68	12785
2026-01-13 23:25:10.41	19.47	9.28	-48.7	-58.6	4.8	5.60e-01	0	42	0	0	68	11595
2026-01-13 23:25:13.40	19.55	9.53	-46.4	-50.6	11.6	6.40e-04	0	42	0	0	64	5791
2026-01-13 23:25:16.38	19.62	9.78	-45.3	-48.5	13.9	6.10e-06	0	42	0	0	62	5107
2026-01-13 23:25:19.37	19.69	10.04	-45.2	-48.3	14.0	2.20e-06	0	42	0	0	62	5010
2026-01-13 23:25:22.46	19.77	10.30	-44.5	-47.4	14.9	0.00e+00	0	42	0	0	61	4771
2026-01-13 23:25:25.31	19.85	10.55	-43.9	-46.5	15.7	7.00e-07	0	42	0	0	59	4819
2026-01-13 23:25:28.44	19.93	10.83	-43.9	-46.5	15.7	0.00e+00	0	42	0	0	59	4826
2026-01-13 23:25:31.28	20.01	11.08	-43.8	-46.3	15.9	0.00e+00	0	42	0	0	59	4751
2026-01-13 23:25:34.41	20.09	11.36	-43.7	-46.2	16.0	0.00e+00	0	42	0	0	59	4683
2026-01-13 23:25:37.25	20.17	11.62	-43.7	-46.2	16.1	0.00e+00	0	42	0	0	59	4655
2026-01-13 23:25:40.38	20.26	11.90	-43.6	-46.0	16.2	0.00e+00	0	42	0	0	59	4587
2026-01-13 23:25:43.22	20.34	12.17	-43.5	-45.9	16.3	0.00e+00	0	42	0	0	59	4538
2026-01-13 23:25:46.35	20.43	12.46	-43.4	-45.8	16.5	0.00e+00	0	42	0	0	58	4711
2026-01-13 23:25:49.25	20.51	12.74	-43.4	-45.8	16.5	0.00e+00	0	42	0	0	58	4719
2026-01-13 23:25:52.52	20.61	13.05	-43.3	-45.7	16.6	0.00e+00	0	42	0	0	58	4675
2026-01-13 23:25:55.43	20.70	13.34	-43.5	-45.9	16.4	0.00e+00	0	42	0	0	58	4795
2026-01-13 23:25:58.68	20.80	13.66	-43.4	-45.8	16.6	0.00e+00	0	42	0	0	58	4724
2026-01-13 23:26:01.52	20.89	13.94	-43.3	-45.6	16.7	0.00e+00	0	42	0	0	58	4626
2026-01-13 23:26:04.74	20.99	14.27	-43.3	-45.6	16.7	0.00e+00	0	42	0	0	58	4640
2026-01-13 23:26:07.67	21.09	14.57	-43.4	-45.7	16.7	0.00e+00	0	42	0	0	58	4679
2026-01-13 23:26:11.11	21.20	14.92	-43.4	-45.6	16.7	0.00e+00	0	42	0	0	58	4650
2026-01-13 23:26:14.47	21.32	15.28	-43.6	-45.8	16.6	0.00e+00	0	42	0	0	58	4747
2026-01-13 23:26:17.19	21.41	15.57	-43.5	-45.8	16.6	0.00e+00	0	42	0	0	58	4736
2026-01-13 23:26:20.46	21.53	15.92	-43.7	-46.0	16.4	0.00e+00	0	42	0	0	58	4825
2026-01-13 23:26:23.27	21.63	16.23	-43.5	-45.8	16.6	0.00e+00	0	42	0	0	58	4738
2026-01-13 23:26:26.65	21.75	16.60	-43.6	-45.9	16.5	0.00e+00	0	42	0	0	58	4760
2026-01-13 23:26:29.71	21.86	16.95	-43.5	-45.8	16.6	0.00e+00	0	42	0	0	58	4727
2026-01-13 23:26:32.56	21.97	17.27	-43.5	-45.7	16.7	0.00e+00	0	42	0	0	58	4702
2026-01-13 23:26:35.68	22.10	17.63	-43.6	-45.9	16.5	0.00e+00	0	42	0	0	58	4772
2026-01-13 23:26:38.61	22.21	17.98	-43.6	-45.8	16.6	0.00e+00	0	42	0	0	58	4728
2026-01-13 23:26:41.78	22.34	18.35	-43.5	-45.7	16.7	0.00e+00	0	42	0	0	58	4665
2026-01-13 23:26:44.78	22.47	18.72	-43.4	-45.6	16.8	0.00e+00	0	42	0	0	58	4629
2026-01-13 23:26:47.94	22.60	19.10	-43.2	-45.4	17.0	0.00e+00	0	43	0	0	58	4514
2026-01-13 23:26:50.79	22.72	19.46	-43.2	-45.3	17.1	0.00e+00	0	43	0	0	58	4466
2026-01-13 23:26:53.91	22.86	19.85	-43.1	-45.2	17.2	0.00e+00	0	42	0	0	58	4404
2026-01-13 23:26:56.78	22.99	20.22	-43.2	-45.2	17.2	0.00e+00	0	43	0	0	58	4433
2026-01-13 23:26:59.90	23.14	20.63	-43.0	-45.1	17.3	0.00e+00	0	42	0	0	57	4619
2026-01-13 23:27:02.81	23.28	21.01	-42.9	-44.9	17.5	0.00e+00	0	42	0	0	57	4521
2026-01-13 23:27:06.25	23.44	21.47	-42.7	-44.8	17.7	0.00e+00	0	43	0	0	57	4445
2026-01-13 23:27:09.00	23.58	21.85	-42.6	-44.6	17.8	0.00e+00	0	42	0	0	57	4350
2026-01-13 23:27:12.27	23.75	22.30	-42.4	-44.3	18.0	0.00e+00	0	42	0	0	56	4490
2026-01-13 23:27:14.99	23.89	22.69	-42.3	-44.3	18.1	0.00e+00	0	43	0	0	56	4461
2026-01-13 23:27:18.27	24.07	23.16	-42.3	-44.2	18.2	0.00e+00	0	43	0	0	56	4412
2026-01-13 23:27:21.29	24.24	23.60	-42.0	-43.8	18.6	0.00e+00	0	43	0	0	56	4231
2026-01-13 23:27:24.53	24.42	24.08	-42.0	-43.8	18.6	0.00e+00	0	43	0	0	56	4234
2026-01-13 23:27:27.37	24.59	24.51	-42.2	-44.0	18.4	0.00e+00	0	42	0	0	56	4338
2026-01-13 23:27:30.50	24.78	24.99	-42.3	-44.2	18.3	0.00e+00	0	42	0	0	56	4418
2026-01-13 23:27:33.34	24.95	25.43	-42.6	-44.5	18.1	0.00e+00	0	43	0	0	56	4592
2026-01-13 23:27:36.47	25.15	25.93	-42.9	-44.9	17.8	0.00e+00	0	42	0	0	56	4764
2026-01-13 23:27:39.31	25.34	26.39	-43.1	-45.1	17.6	0.00e+00	0	43	0	0	56	4883
2026-01-13 23:27:42.44	25.55	26.90	-43.1	-45.1	17.5	0.00e+00	0	42	0	0	56	4924
2026-01-13 23:27:45.29	25.74	27.38	-43.4	-45.4	17.3	0.00e+00	0	42	0	0	57	4789
2026-01-13 23:27:48.42	25.97	27.91	-43.6	-45.7	17.0	0.00e+00	0	42	0	0	57	4947
2026-01-13 23:27:51.26	26.17	28.40	-43.8	-45.9	16.8	0.00e+00	0	43	0	0	58	4799
2026-01-13 23:27:54.39	26.41	28.96	-44.0	-46.3	16.5	0.00e+00	0	43	0	0	58	4991
2026-01-13 23:27:57.23	26.63	29.47	-43.9	-46.1	16.6	0.00e+00	0	43	0	0	58	4915
2026-01-13 23:28:00.57	26.90	30.08	-43.6	-45.8	16.9	0.00e+00	0	43	0	0	58	4731
2026-01-13 23:28:03.27	27.13	30.58	-43.2	-45.3	17.4	0.00e+00	0	43	0	0	58	4470
2026-01-13 23:28:06.54	27.41	31.20	-43.0	-45.0	17.7	0.00e+00	0	42	0	0	58	4323
2026-01-13 23:28:09.25	27.65	31.73	-43.0	-45.0	17.7	0.00e+00	0	43	0	0	58	4333
2026-01-13 23:28:12.57	27.96	32.39	-43.1	-45.1	17.7	0.00e+00	0	43	0	0	58	4378
2026-01-13 23:28:15.29	28.22	32.93	-43.4	-45.5	17.3	0.00e+00	0	42	0	0	58	4554
2026-01-13 23:28:18.56	28.55	33.60	-43.5	-45.5	17.3	0.00e+00	0	43	0	0	58	4598
2026-01-13 23:28:21.29	28.83	34.17	-43.8	-45.9	16.9	0.00e+00	0	43	0	0	58	4813
2026-01-13 23:28:24.84	29.21	34.93	-44.3	-46.5	16.3	0.00e+00	0	43	0	0	59	4860
2026-01-13 23:28:27.54	29.51	35.52	-44.5	-46.8	16.1	0.00e+00	0	42	0	0	59	4999
2026-01-13 23:28:30.83	29.89	36.25	-44.8	-47.1	15.8	0.00e+00	0	43	0	0	60	4897
2026-01-13 23:28:33.55	30.22	36.86	-44.7	-47.0	15.9	0.00e+00	0	43	0	0	60	4834
2026-01-13 23:28:36.82	30.63	37.62	-44.5	-46.7	16.2	0.00e+00	0	43	0	0	60	4700
2026-01-13 23:28:39.53	30.98	38.25	-44.6	-46.9	16.1	0.00e+00	0	43	0	0	60	4768
2026-01-13 23:28:42.81	31.43	39.04	-44.7	-47.0	15.9	0.00e+00	0	43	0	0	60	4870
2026-01-13 23:28:45.52	31.82	39.70	-44.4	-46.6	16.2	0.00e+00	0	43	0	0	60	4646
2026-01-13 23:28:48.79	32.31	40.51	-44.8	-47.1	15.7	0.00e+00	0	43	0	0	60	4922
2026-01-13 23:28:51.78	32.77	41.27	-45.4	-48.0	14.9	7.00e-07	0	43	0	0	61	5129
2026-01-13 23:28:55.26	33.34	42.17	-45.6	-48.2	14.7	7.00e-07	0	43	0	0	62	4949
2026-01-13 23:28:57.96	33.81	42.88	-45.5	-48.1	14.8	7.00e-07	0	43	0	0	62	4897
2026-01-13 23:29:01.26	34.41	43.77	-46.2	-49.1	13.9	2.20e-06	0	43	0	0	62	5479
2026-01-13 23:29:03.96	34.92	44.51	-45.8	-48.5	14.4	0.00e+00	0	43	0	0	62	5158
2026-01-13 23:29:07.15	35.56	45.39	-45.5	-48.1	14.7	0.00e+00	0	43	0	0	62	4878
2026-01-13 23:29:10.13	36.19	46.23	-45.4	-47.9	14.9	0.00e+00	0	43	0	0	62	4794
2026-01-13 23:29:13.11	36.85	47.09	-45.0	-47.4	15.4	0.00e+00	0	43	0	0	61	4794
2026-01-13 23:29:16.18	37.58	47.99	-44.5	-46.7	16.1	0.00e+00	0	43	0	0	61	4419
2026-01-13 23:29:19.25	38.34	48.90	-44.3	-46.5	16.4	0.00e+00	0	43	0	0	60	4580
2026-01-13 23:29:22.13	39.10	49.76	-44.9	-47.3	15.7	0.00e+00	0	43	0	0	60	4995
2026-01-13 23:29:25.48	40.04	50.78	-45.1	-47.5	15.5	0.00e+00	0	43	0	0	60	5121
2026-01-13 23:29:28.19	40.85	51.62	-45.2	-47.7	15.4	7.00e-07	0	43	0	0	61	4938
2026-01-13 23:29:31.48	41.89	52.65	-44.6	-46.9	16.1	0.00e+00	0	43	0	0	61	4510
2026-01-13 23:29:34.18	42.80	53.50	-44.6	-46.9	16.1	0.00e+00	0	43	0	0	61	4524
2026-01-13 23:29:37.45	43.98	54.54	-44.6	-46.9	16.0	0.00e+00	0	43	0	0	61	4531
2026-01-13 23:29:40.16	45.02	55.41	-44.2	-46.4	16.6	0.00e+00	0	43	0	0	60	4505
2026-01-13 23:29:43.61	46.45	56.53	-44.2	-46.3	16.7	0.00e+00	0	43	0	0	60	4486
2026-01-13 23:29:46.37	47.67	57.42	-43.5	-45.6	17.3	0.00e+00	0	43	0	0	59	4348
2026-01-13 23:29:49.77	49.29	58.52	-43.0	-44.9	18.0	0.00e+00	0	43	0	0	57	4495
2026-01-13 23:29:52.50	50.69	59.41	-42.7	-44.6	18.2	0.00e+00	0	43	0	0	57	4366
2026-01-13 23:29:55.77	52.50	60.46	-42.5	-44.3	18.4	0.00e+00	0	43	0	0	57	4234
2026-01-13 23:29:58.50	54.13	61.33	-42.5	-44.3	18.4	0.00e+00	0	43	0	0	56	4483
2026-01-13 23:30:01.77	56.24	62.36	-42.1	-43.9	18.9	0.00e+00	0	43	0	0	56	4251
2026-01-13 23:30:04.75	58.32	63.29	-42.1	-43.9	18.9	0.00e+00	0	43	0	0	56	4244
2026-01-13 23:30:08.02	60.79	64.28	-41.5	-43.2	19.1	0.00e+00	0	43	0	0	55	4165
2026-01-13 23:30:10.74	63.01	65.07	-41.0	-42.7	19.5	0.00e+00	0	43	0	0	53	4397
2026-01-13 23:30:14.04	65.92	66.00	-41.9	-43.7	18.7	0.00e+00	0	43	0	0	54	4704
2026-01-13 23:30:16.74	68.49	66.73	-42.1	-43.9	18.7	0.00e+00	0	43	0	0	54	4776
2026-01-13 23:30:20.23	72.07	67.60	-41.6	-43.3	19.2	0.00e+00	0	43	0	0	55	4220
2026-01-13 23:30:22.98	75.10	68.24	-41.6	-43.4	19.1	0.00e+00	0	43	0	0	54	4531
2026-01-13 23:30:26.26	78.97	68.92	-41.9	-43.8	18.7	0.00e+00	0	43	0	0	54	4708
2026-01-13 23:30:28.99	82.38	69.43	-41.7	-43.4	19.1	0.00e+00	0	43	0	0	55	4281
2026-01-13 23:30:32.27	86.72	69.94	-41.5	-43.3	19.2	0.00e+00	0	43	0	0	54	4467
2026-01-13 23:30:34.97	90.45	70.28	-41.5	-43.3	19.1	0.00e+00	0	43	0	0	54	4461
2026-01-13 23:30:38.26	95.16	70.59	-41.8	-43.6	18.6	0.00e+00	0	43	0	0	54	4642
2026-01-13 23:30:41.40	99.77	70.76	-41.7	-43.5	18.7	0.00e+00	0	43	0	0	54	4559
2026-01-13 23:30:44.25	104.01	70.82	-41.6	-43.4	19.1	0.00e+00	0	43	0	0	55	4270
2026-01-13 23:30:47.38	108.67	70.77	-42.0	-43.9	18.6	0.00e+00	0	43	0	0	54	4769
2026-01-13 23:30:50.22	112.86	70.62	-41.8	-43.7	18.7	0.00e+00	0	43	0	0	55	4392
2026-01-13 23:30:53.51	117.59	70.33	-41.5	-43.3	18.9	0.00e+00	0	43	0	0	54	4460
2026-01-13 23:30:56.23	121.38	70.00	-42.1	-43.9	18.5	0.00e+00	0	43	0	0	54	4775
2026-01-13 23:30:59.50	125.73	69.51	-42.2	-44.1	18.6	0.00e+00	0	43	0	0	55	4600
2026-01-13 23:31:02.20	129.15	69.02	-41.5	-43.2	19.3	0.00e+00	0	43	0	0	55	4175
2026-01-13 23:31:05.48	133.06	68.35	-41.6	-43.4	19.2	0.00e+00	0	43	0	0	53	4786
2026-01-13 23:31:08.25	136.15	67.71	-41.7	-43.5	19.1	0.00e+00	0	43	0	0	54	4570
2026-01-13 23:31:11.66	139.70	66.87	-41.7	-43.5	19.1	0.00e+00	0	43	0	0	54	4548
2026-01-13 23:31:14.69	142.61	66.06	-41.6	-43.4	19.1	0.00e+00	0	43	0	0	55	4270
2026-01-13 23:31:17.68	145.28	65.22	-41.9	-43.7	18.9	0.00e+00	0	43	0	0	54	4683
2026-01-13 23:31:20.66	147.74	64.35	-42.3	-44.2	18.5	0.00e+00	0	43	0	0	56	4410
2026-01-13 23:31:23.64	150.02	63.45	-41.9	-43.7	18.9	0.00e+00	0	43	0	0	54	4672
2026-01-13 23:31:26.83	152.27	62.46	-44.1	-46.3	16.4	0.00e+00	0	43	0	0	59	4713
2026-01-13 23:31:29.74	154.18	61.54	-41.8	-43.6	18.9	0.00e+00	0	43	0	0	55	4372
2026-01-13 23:31:33.02	156.16	60.49	-44.1	-46.3	16.7	0.00e+00	0	43	0	0	58	5014
2026-01-13 23:31:35.75	157.69	59.61	-42.1	-43.9	18.8	0.00e+00	0	43	0	0	56	4243
2026-01-13 23:31:39.02	159.39	58.55	-43.3	-45.3	17.7	0.00e+00	0	43	0	0	57	4729
2026-01-13 23:31:41.74	160.70	57.66	-44.4	-46.6	16.2	0.00e+00	0	43	0	0	60	4636
2026-01-13 23:31:45.04	162.19	56.59	-42.3	-44.0	18.6	0.00e+00	0	43	0	0	56	4336
2026-01-13 23:31:47.77	163.33	55.70	-44.7	-47.1	16.0	0.00e+00	0	43	0	0	60	4882
2026-01-13 23:31:51.29	164.71	54.57	-44.5	-46.8	15.9	0.00e+00	0	43	0	0	61	4475
2026-01-13 23:31:54.01	165.70	53.70	-43.4	-45.4	17.6	0.00e+00	0	43	0	0	58	4505
2026-01-13 23:31:57.28	166.81	52.66	-45.6	-48.2	14.9	0.00e+00	0	43	0	0	61	5248
2026-01-13 23:31:59.98	167.68	51.81	-45.8	-48.3	14.7	2.20e-06	0	43	0	0	62	5030
2026-01-13 23:32:03.25	168.66	50.80	-44.7	-46.9	16.2	0.00e+00	0	43	0	0	61	4544
2026-01-13 23:32:06.09	169.47	49.92	-45.5	-47.9	15.3	0.00e+00	0	43	0	0	61	5080
2026-01-13 23:32:09.21	170.30	48.98	-46.4	-49.2	14.1	1.50e-06	0	43	0	0	63	5246
2026-01-13 23:32:12.06	171.02	48.13	-45.5	-47.8	15.4	0.00e+00	0	43	0	0	62	4751
2026-01-13 23:32:15.19	171.76	47.21	-45.0	-47.3	15.8	0.00e+00	0	43	0	0	61	4727
2026-01-13 23:32:18.15	172.43	46.35	-45.4	-47.8	15.5	0.00e+00	0	43	0	0	61	4999
2026-01-13 23:32:21.14	173.07	45.50	-45.7	-48.1	15.2	0.00e+00	0	43	0	0	62	4908
2026-01-13 23:32:24.12	173.67	44.66	-46.4	-49.1	14.2	7.00e-07	0	43	0	0	63	5162
2026-01-13 23:32:27.22	174.27	43.81	-46.5	-49.3	13.9	5.30e-06	0	43	0	0	64	5006
2026-01-13 23:32:31.14	174.98	42.75	-45.6	-48.1	15.2	0.00e+00	0	43	0	0	63	4615
2026-01-13 23:32:33.92	175.46	42.02	-45.7	-48.2	15.1	0.00e+00	0	43	0	0	63	4695
2026-01-13 23:32:37.18	175.99	41.17	-45.5	-47.9	15.3	0.00e+00	0	43	0	0	63	4524
2026-01-13 23:32:40.17	176.46	40.41	-45.6	-48.0	15.2	7.00e-07	0	43	0	0	62	4859
2026-01-13 23:32:43.48	176.95	39.59	-46.3	-49.0	14.4	3.00e-06	0	43	0	0	63	5134
2026-01-13 23:32:46.30	177.35	38.89	-45.6	-48.1	15.2	0.00e+00	0	43	0	0	63	4640
2026-01-13 23:32:49.42	177.78	38.14	-45.2	-47.5	15.9	0.00e+00	0	43	0	0	62	4582
2026-01-13 23:32:52.27	178.15	37.47	-44.9	-47.2	16.1	0.00e+00	0	43	0	0	61	4699
2026-01-13 23:32:55.40	178.54	36.75	-44.9	-47.2	16.2	0.00e+00	0	43	0	0	61	4665
2026-01-13 23:32:58.24	178.88	36.10	-45.0	-47.2	16.1	0.00e+00	0	43	0	0	61	4704
2026-01-13 23:33:01.47	179.26	35.38	-44.7	-46.9	16.4	0.00e+00	0	43	0	0	61	4503
2026-01-13 23:33:04.33	179.57	34.76	-44.9	-47.1	16.2	0.00e+00	0	43	0	0	61	4627
2026-01-13 23:33:07.46	179.91	34.09	-45.4	-47.9	15.5	0.00e+00	0	43	0	0	61	5049
2026-01-13 23:33:10.30	180.20	33.49	-45.4	-47.8	15.6	0.00e+00	0	43	0	0	61	5012
2026-01-13 23:33:13.42	180.51	32.85	-44.9	-47.2	16.2	0.00e+00	0	43	0	0	61	4678
2026-01-13 23:33:16.36	180.79	32.25	-44.0	-46.2	17.1	0.00e+00	0	43	0	0	60	4398
2026-01-13 23:33:19.49	181.08	31.63	-43.9	-45.9	17.3	0.00e+00	0	43	0	0	59	4529
2026-01-13 23:33:22.33	181.33	31.08	-43.9	-46.0	17.2	0.00e+00	0	43	0	0	59	4555
2026-01-13 23:33:25.46	181.60	30.48	-43.7	-45.8	17.4	0.00e+00	0	43	0	0	59	4454
2026-01-13 23:33:28.30	181.84	29.95	-43.3	-45.2	17.9	0.00e+00	0	43	0	0	58	4425
2026-01-13 23:33:31.42	182.09	29.37	-43.4	-45.4	17.7	0.00e+00	0	43	0	0	58	4517
2026-01-13 23:33:34.27	182.31	28.86	-43.7	-45.7	17.4	0.00e+00	0	43	0	0	58	4654
2026-01-13 23:33:37.40	182.55	28.30	-43.6	-45.6	17.5	0.00e+00	0	43	0	0	58	4644
2026-01-13 23:33:40.24	182.75	27.81	-43.5	-45.5	17.6	0.00e+00	0	43	0	0	58	4591
2026-01-13 23:33:43.37	182.98	27.27	-43.7	-45.7	17.4	0.00e+00	0	43	0	0	58	4704
2026-01-13 23:33:46.21	183.17	26.79	-43.7	-45.7	17.4	0.00e+00	0	43	0	0	58	4705
2026-01-13 23:33:49.43	183.39	26.26	-43.5	-45.6	17.5	0.00e+00	0	43	0	0	58	4619
2026-01-13 23:33:52.33	183.58	25.79	-43.6	-45.6	17.5	0.00e+00	0	43	0	0	58	4625
2026-01-13 23:33:55.59	183.78	25.27	-43.7	-45.7	17.3	0.00e+00	0	43	0	0	58	4700
2026-01-13 23:33:58.50	183.96	24.81	-43.6	-45.7	17.3	0.00e+00	0	43	0	0	58	4659
2026-01-13 23:34:01.62	184.14	24.33	-43.5	-45.5	17.4	0.00e+00	0	43	0	0	58	4587
2026-01-13 23:34:04.50	184.31	23.90	-43.7	-45.8	17.1	0.00e+00	0	43	0	0	58	4756
2026-01-13 23:34:07.63	184.49	23.43	-43.8	-45.9	17.0	0.00e+00	0	43	0	0	58	4804
2026-01-13 23:34:10.47	184.64	23.01	-43.6	-45.6	17.3	0.00e+00	0	43	0	0	58	4625
2026-01-13 23:34:13.60	184.81	22.56	-43.5	-45.5	17.4	0.00e+00	0	43	0	0	58	4572
2026-01-13 23:34:16.73	184.97	22.12	-43.4	-45.4	17.4	0.00e+00	0	43	0	0	58	4510
2026-01-13 23:34:19.57	185.12	21.72	-43.2	-45.1	17.6	0.00e+00	0	43	0	0	58	4390
2026-01-13 23:34:22.69	185.27	21.30	-43.3	-45.3	17.6	0.00e+00	0	43	0	0	58	4443
2026-01-13 23:34:25.64	185.41	20.90	-43.4	-45.3	17.7	0.00e+00	0	43	0	0	58	4488
2026-01-13 23:34:29.17	185.58	20.43	-43.3	-45.3	17.7	0.00e+00	0	43	0	0	58	4490
2026-01-13 23:34:31.93	185.71	20.07	-43.4	-45.4	17.7	0.00e+00	0	43	0	0	58	4507
2026-01-13 23:34:35.30	185.86	19.63	-43.5	-45.5	17.5	0.00e+00	0	43	0	0	58	4571
2026-01-13 23:34:37.99	185.97	19.29	-43.6	-45.6	17.4	0.00e+00	0	43	0	0	58	4645
2026-01-13 23:34:41.26	186.11	18.89	-43.9	-46.1	17.0	0.00e+00	0	43	0	0	58	4900
2026-01-13 23:34:43.98	186.23	18.55	-44.1	-46.3	16.8	0.00e+00	0	43	0	0	58	4990
2026-01-13 23:34:47.25	186.36	18.15	-44.1	-46.4	16.7	0.00e+00	0	43	0	0	59	4772
2026-01-13 23:34:50.33	186.48	17.79	-44.2	-46.5	16.6	0.00e+00	0	43	0	0	59	4855
2026-01-13 23:34:53.46	186.61	17.42	-44.2	-46.5	16.5	0.00e+00	0	43	0	0	59	4863
2026-01-13 23:34:56.30	186.72	17.09	-44.2	-46.6	16.5	0.00e+00	0	43	0	0	59	4888
2026-01-13 23:34:59.43	186.83	16.73	-44.3	-46.7	16.4	0.00e+00	0	43	0	0	59	4927
2026-01-13 23:35:02.27	186.94	16.41	-44.3	-46.7	16.3	0.00e+00	0	43	0	0	59	4955
2026-01-13 23:35:05.49	187.05	16.05	-44.3	-46.7	16.2	0.00e+00	0	43	0	0	59	4981
2026-01-13 23:35:08.33	187.15	15.74	-44.2	-46.5	16.4	0.00e+00	0	43	0	0	59	4840
2026-01-13 23:35:11.46	187.26	15.40	-44.1	-46.5	16.4	0.00e+00	0	43	0	0	59	4845
2026-01-13 23:35:14.30	187.36	15.10	-44.2	-46.5	16.4	0.00e+00	0	43	0	0	59	4863
2026-01-13 23:35:17.43	187.46	14.77	-44.2	-46.6	16.3	0.00e+00	0	43	0	0	59	4898
2026-01-13 23:35:20.30	187.55	14.47	-44.2	-46.6	16.3	0.00e+00	0	43	0	0	59	4895
2026-01-13 23:35:23.43	187.65	14.14	-44.3	-46.7	16.2	0.00e+00	0	43	0	0	59	4947
2026-01-13 23:35:26.27	187.74	13.85	-44.3	-46.6	16.2	0.00e+00	0	43	0	0	59	4914
2026-01-13 23:35:29.39	187.84	13.54	-44.3	-46.6	16.2	0.00e+00	0	43	0	0	59	4925
2026-01-13 23:35:32.24	187.92	13.26	-44.3	-46.7	16.2	0.00e+00	0	43	0	0	59	4945
2026-01-13 23:35:35.36	188.02	12.95	-44.3	-46.7	16.2	0.00e+00	0	43	0	0	59	4933
2026-01-13 23:35:38.29	188.10	12.67	-44.3	-46.7	16.1	0.00e+00	0	43	0	0	59	4946
2026-01-13 23:35:41.53	188.20	12.36	-44.4	-46.8	16.0	0.00e+00	0	43	0	0	59	5007
2026-01-13 23:35:44.43	188.28	12.08	-44.4	-46.8	16.0	0.00e+00	0	43	0	0	59	5010
2026-01-13 23:35:47.70	188.37	11.78	-44.4	-46.8	16.0	0.00e+00	0	43	0	0	59	5024
2026-01-13 23:35:50.42	188.44	11.52	-44.4	-46.8	15.9	0.00e+00	0	43	0	0	59	5035
2026-01-13 23:35:53.69	188.53	11.23	-44.5	-47.0	15.8	0.00e+00	0	43	0	0	59	5103
2026-01-13 23:35:56.58	188.60	10.96	-44.5	-47.0	15.8	0.00e+00	0	43	0	0	59	5143
2026-01-13 23:35:59.56	188.68	10.70	-44.6	-47.0	15.7	0.00e+00	0	43	0	0	59	5154
2026-01-13 23:36:02.55	188.76	10.43	-44.6	-47.1	15.6	0.00e+00	0	43	0	0	59	5207
2026-01-13 23:36:05.53	188.83	10.17	-44.6	-47.2	15.6	0.00e+00	0	43	0	0	60	4957
2026-01-13 23:36:08.52	188.91	9.91	-44.6	-47.2	15.6	0.00e+00	0	43	0	0	60	4972
2026-01-13 23:36:11.50	188.98	9.66	-44.7	-47.3	15.5	0.00e+00	0	43	0	0	60	5030
2026-01-13 23:36:14.49	189.05	9.40	-44.7	-47.3	15.4	0.00e+00	0	43	0	0	60	5040
2026-01-13 23:36:17.47	189.12	9.15	-44.7	-47.4	15.4	0.00e+00	0	43	0	0	60	5057
2026-01-13 23:36:20.46	189.19	8.90	-50.3	-62.1	3.9	1.35e+00	0	43	104	0	71	14607
2026-01-13 23:36:23.44	189.26	8.66	-51.0	-64.5	3.8	1.49e+00	0	43	104	0	72	18274
2026-01-13 23:36:26.47	189.32	8.41	-51.6	-64.7	3.8	1.49e+00	0	43	104	0	73	17519
2026-01-13 23:36:29.49	189.39	8.16	-51.7	-64.7	3.8	1.49e+00	0	43	104	0	74	16662
2026-01-13 23:36:32.54	189.46	7.92	-51.7	-64.7	3.8	1.49e+00	0	43	104	0	74	16646
2026-01-13 23:36:35.56	189.52	7.68	-51.7	-64.7	3.8	1.49e+00	0	43	104	0	74	16644
2026-01-13 23:36:38.57	189.59	7.44	-51.8	-64.7	3.8	1.49e+00	0	43	104	0	74	16654
2026-01-13 23:36:41.55	189.65	7.21	-51.8	-64.7	3.8	1.49e+00	0	43	104	0	74	16669
2026-01-13 23:36:44.54	189.71	6.98	-51.5	-64.7	3.8	1.49e+00	0	43	104	0	74	16670
2026-01-13 23:36:47.52	189.77	6.75	-51.5	-64.7	3.8	1.49e+00	0	43	104	0	74	16543
2026-01-13 23:36:50.50	189.83	6.53	-51.5	-64.7	3.8	1.49e+00	0	43	104	0	74	16583
2026-01-13 23:36:53.48	189.89	6.30	-51.5	-64.6	3.8	1.49e+00	0	43	104	0	74	16501
2026-01-13 23:36:56.46	189.95	6.08	-51.5	-64.7	3.8	1.49e+00	0	43	104	0	74	16533
2026-01-13 23:36:59.44	190.01	5.86	-51.5	-64.7	3.8	1.49e+00	0	43	104	0	74	16564
2026-01-13 23:37:02.42	190.06	5.64	-51.5	-64.7	3.8	1.49e+00	0	43	104	0	74	16541
2026-01-13 23:37:05.41	190.12	5.42	-51.5	-64.7	3.8	1.49e+00	0	43	104	0	74	16568
2026-01-13 23:37:08.38	190.18	5.21	-51.5	-64.7	3.8	1.49e+00	0	43	104	0	74	16516
2026-01-13 23:37:11.36	190.23	5.00	-51.5	-64.7	3.8	1.49e+00	0	43	104	0	74	16514

#Closed at: 2026-01-13 23:37:12
#Recorded file [0 MB]: D:/Data/31040_260114_022413.dat