passes_logs/2026/01/13/T1/T1__20260113_120731_NOAA_20_JPSS-1_rec.log

#Pass ID: 20260113_120731_NOAA 20 (JPSS-1)
#Satellite: NOAA 20 (JPSS-1)
#Configuration: NOAA 20
#almurnet v.1.7.20251203
#Start time: 2026-01-13 12:07:32

#Version: 2.0.20230620
#Station: T1
#Location: 37.570604 lon 55.790049 lat
#TLE: 1 43013U 17073A   26012.29914746  .00000087  00000+0  62270-4 0  9997
#TLE: 2 43013  98.7632 313.2670 0001616  43.2193 316.9110 14.19535514422351

#Time	Az	El	Level	Level2	SNR	BER	BlckErr	Temp	State	Recorded	gain1	gain2
2026-01-13 12:07:32.28	236.73	5.03	-51.7	-66.9	3.8	1.49e+00	0	41	104	0	75	20244
2026-01-13 12:07:35.26	237.09	5.16	-51.6	-66.9	3.8	1.49e+00	0	41	104	0	75	20174
2026-01-13 12:07:38.24	237.45	5.29	-51.7	-66.9	3.8	1.49e+00	0	41	104	0	75	20177
2026-01-13 12:07:41.22	237.82	5.42	-51.7	-66.9	3.8	1.49e+00	0	42	104	0	75	20123
2026-01-13 12:07:44.20	238.19	5.55	-51.6	-66.9	3.8	1.49e+00	0	42	104	0	75	20193
2026-01-13 12:07:47.18	238.56	5.68	-51.7	-66.9	3.8	1.49e+00	0	42	104	0	75	20117
2026-01-13 12:07:50.16	238.93	5.81	-51.7	-66.9	3.8	1.49e+00	0	42	104	0	75	20216
2026-01-13 12:07:53.14	239.31	5.94	-51.7	-66.9	3.8	1.49e+00	0	42	104	0	75	20208
2026-01-13 12:07:56.12	239.69	6.07	-51.7	-66.9	3.8	1.49e+00	0	42	104	0	75	20234
2026-01-13 12:07:59.10	240.08	6.20	-51.7	-66.9	3.8	1.49e+00	0	42	104	0	75	20150
2026-01-13 12:08:02.08	240.46	6.33	-51.7	-66.9	3.8	1.49e+00	0	42	104	0	75	20224
2026-01-13 12:08:05.06	240.86	6.46	-51.7	-66.9	3.8	1.49e+00	0	42	104	0	75	20217
2026-01-13 12:08:08.04	241.25	6.58	-51.7	-67.0	3.8	1.49e+00	0	42	104	0	75	20486
2026-01-13 12:08:11.02	241.65	6.71	-51.7	-66.9	3.8	1.49e+00	0	42	104	0	75	20252
2026-01-13 12:08:14.00	242.05	6.84	-51.8	-66.9	3.8	1.49e+00	0	42	104	0	75	20135
2026-01-13 12:08:16.98	242.45	6.96	-51.8	-67.0	3.8	1.49e+00	0	43	104	0	75	20319
2026-01-13 12:08:19.96	242.86	7.09	-51.8	-67.0	3.8	1.49e+00	0	43	104	0	75	20456
2026-01-13 12:08:22.94	243.27	7.21	-51.8	-67.0	3.8	1.49e+00	0	43	104	0	75	20352
2026-01-13 12:08:25.92	243.69	7.34	-51.8	-66.9	3.8	1.49e+00	0	43	104	0	75	20295
2026-01-13 12:08:28.89	244.11	7.46	-51.8	-66.8	3.8	1.49e+00	0	43	104	0	75	19983
2026-01-13 12:08:31.87	244.53	7.58	-51.8	-66.8	3.8	1.49e+00	0	43	104	0	75	20070
2026-01-13 12:08:34.85	244.95	7.70	-51.8	-66.8	3.8	1.49e+00	0	43	104	0	75	19968
2026-01-13 12:08:37.83	245.38	7.82	-51.8	-66.8	3.8	1.49e+00	0	43	104	0	75	20068
2026-01-13 12:08:40.81	245.81	7.94	-51.8	-66.6	3.8	1.49e+00	0	43	104	0	75	19478
2026-01-13 12:08:43.79	246.25	8.06	-51.9	-67.0	3.8	1.49e+00	0	43	104	0	75	20464
2026-01-13 12:08:46.77	246.69	8.18	-51.9	-66.8	3.8	1.49e+00	0	43	104	0	75	19913
2026-01-13 12:08:49.75	247.13	8.30	-51.9	-66.7	3.8	1.49e+00	0	43	104	0	75	19618
2026-01-13 12:08:52.74	247.58	8.42	-51.9	-66.4	3.8	1.49e+00	0	43	104	0	75	18963
2026-01-13 12:08:55.72	248.03	8.53	-51.8	-65.5	3.8	1.49e+00	0	43	104	0	75	17141
2026-01-13 12:08:58.70	248.48	8.65	-51.7	-64.1	3.9	1.49e+00	0	43	104	0	75	14591
2026-01-13 12:09:01.68	248.93	8.76	-49.7	-54.8	11.1	8.38e-03	0	43	0	4194304	71	6318
2026-01-13 12:09:04.66	249.39	8.87	-48.6	-52.6	13.3	2.05e-05	0	43	0	10485760	69	5527
2026-01-13 12:09:07.64	249.86	8.98	-49.8	-55.0	10.9	7.87e-04	0	43	0	15728640	70	6830
2026-01-13 12:09:10.62	250.32	9.09	-50.4	-56.7	9.1	4.49e-02	0	43	0	20971520	72	7408
2026-01-13 12:09:13.69	250.81	9.21	-50.8	-58.1	7.8	5.43e-03	0	43	0	27262976	72	8696
2026-01-13 12:09:16.63	251.27	9.31	-49.0	-53.2	12.7	9.46e-05	0	43	0	32505856	70	5590
2026-01-13 12:09:19.61	251.75	9.42	-48.9	-53.0	13.0	4.73e-05	0	44	0	37748736	69	5735
2026-01-13 12:09:22.60	252.23	9.53	-48.7	-52.8	13.2	1.83e-05	0	43	0	44040192	69	5606
2026-01-13 12:09:26.03	252.79	9.65	-48.5	-52.3	13.7	8.30e-06	0	43	0	50331648	68	5640
2026-01-13 12:09:28.73	253.23	9.74	-48.6	-52.5	13.6	4.50e-06	0	44	0	55574528	68	5727
2026-01-13 12:09:32.01	253.77	9.85	-48.6	-52.5	13.5	6.80e-06	0	43	0	61865984	68	5728
2026-01-13 12:09:34.74	254.22	9.94	-48.7	-52.6	13.4	1.60e-05	0	44	0	67108864	68	5834
2026-01-13 12:09:38.15	254.79	10.05	-48.6	-52.6	13.5	1.37e-05	0	44	0	73400320	68	5822
2026-01-13 12:09:41.17	255.30	10.15	-48.5	-52.4	13.7	6.10e-06	0	43	0	78643200	68	5661
2026-01-13 12:09:44.44	255.85	10.25	-48.4	-52.2	13.9	2.20e-06	0	44	0	84934656	68	5551
2026-01-13 12:09:47.15	256.31	10.34	-48.4	-52.1	13.9	3.00e-06	0	43	0	90177536	68	5526
2026-01-13 12:09:50.44	256.87	10.44	-48.5	-52.4	13.7	3.00e-06	0	44	0	96468992	68	5659
2026-01-13 12:09:53.14	257.34	10.52	-48.6	-52.6	13.5	6.80e-06	0	44	0	100663296	68	5798
2026-01-13 12:09:56.41	257.90	10.62	-48.7	-52.7	13.4	1.14e-05	0	44	0	106954752	68	5912
2026-01-13 12:09:59.34	258.41	10.70	-48.7	-52.7	13.4	1.83e-05	0	43	0	113246208	68	5859
2026-01-13 12:10:02.89	259.04	10.80	-48.5	-52.4	13.7	5.30e-06	0	44	0	119537664	68	5719
2026-01-13 12:10:05.60	259.51	10.88	-48.6	-52.6	13.5	9.10e-06	0	44	0	124780544	68	5832
2026-01-13 12:10:08.86	260.09	10.97	-48.6	-52.6	13.6	8.30e-06	0	44	0	131072000	68	5792
2026-01-13 12:10:11.56	260.57	11.04	-48.7	-52.6	13.5	7.60e-06	0	44	0	135266304	68	5819
2026-01-13 12:10:14.83	261.16	11.12	-48.8	-52.9	13.3	1.06e-05	0	44	0	141557760	68	6009
2026-01-13 12:10:17.56	261.65	11.19	-48.8	-52.9	13.3	1.52e-05	0	44	0	146800640	68	6019
2026-01-13 12:10:20.84	262.24	11.27	-48.7	-52.6	13.6	1.44e-05	0	44	0	153092096	68	5838
2026-01-13 12:10:23.57	262.74	11.34	-48.5	-52.4	13.8	3.80e-06	0	44	0	158334976	68	5674
2026-01-13 12:10:26.85	263.34	11.41	-48.4	-52.4	13.7	1.14e-05	0	44	0	164626432	68	5691
2026-01-13 12:10:29.55	263.83	11.47	-48.4	-52.2	13.9	7.00e-07	0	44	0	169869312	68	5586
2026-01-13 12:10:32.86	264.44	11.54	-48.6	-52.4	13.8	4.50e-06	0	44	0	175112192	68	5665
2026-01-13 12:10:35.59	264.95	11.60	-48.6	-52.3	13.9	5.30e-06	0	44	0	180355072	68	5622
2026-01-13 12:10:38.86	265.55	11.66	-48.4	-52.0	14.2	2.20e-06	0	44	0	186646528	68	5440
2026-01-13 12:10:41.57	266.06	11.72	-48.2	-51.8	14.4	7.00e-07	0	44	0	191889408	68	5283
2026-01-13 12:10:44.84	266.67	11.78	-48.1	-51.6	14.5	1.50e-06	0	44	0	198180864	68	5209
2026-01-13 12:10:47.55	267.18	11.82	-48.3	-51.9	14.3	7.00e-07	0	44	0	203423744	68	5365
2026-01-13 12:10:50.87	267.80	11.88	-48.6	-52.4	13.7	7.60e-06	0	44	0	209715200	68	5719
2026-01-13 12:10:53.81	268.36	11.93	-48.6	-52.5	13.6	1.29e-05	0	44	0	214958080	68	5786
2026-01-13 12:10:57.79	269.11	11.99	-48.6	-52.4	13.7	4.50e-06	0	44	0	222298112	68	5698
2026-01-13 12:11:00.72	269.67	12.03	-48.7	-52.6	13.6	2.20e-06	0	44	0	227540992	68	5803
2026-01-13 12:11:04.13	270.32	12.07	-48.9	-52.9	13.3	1.98e-05	0	44	0	233832448	68	6046
2026-01-13 12:11:07.01	270.87	12.11	-49.0	-53.2	13.1	3.58e-05	0	44	0	240123904	68	6206
2026-01-13 12:11:10.17	271.48	12.15	-48.9	-53.0	13.2	2.82e-05	0	44	0	245366784	68	6125
2026-01-13 12:11:13.67	272.15	12.18	-49.0	-53.1	13.1	3.50e-05	0	44	0	251658240	68	6185
2026-01-13 12:11:16.42	272.68	12.21	-48.9	-53.0	13.2	2.44e-05	0	44	0	256901120	68	6092
2026-01-13 12:11:19.64	273.30	12.24	-48.8	-52.9	13.4	1.83e-05	0	44	0	263192576	68	5998
2026-01-13 12:11:22.72	273.90	12.26	-48.9	-52.9	13.4	1.52e-05	0	44	0	269484032	68	5995
2026-01-13 12:11:25.56	274.44	12.28	-49.0	-52.9	13.3	1.29e-05	0	44	0	274726912	68	6040
2026-01-13 12:11:28.69	275.05	12.30	-48.8	-52.7	13.5	9.10e-06	0	44	0	279969792	68	5886
2026-01-13 12:11:31.54	275.60	12.32	-48.7	-52.7	13.5	9.90e-06	0	44	0	285212672	68	5905
2026-01-13 12:11:34.66	276.21	12.33	-48.7	-52.6	13.7	1.22e-05	0	44	0	291504128	68	5789
2026-01-13 12:11:37.63	276.79	12.34	-48.5	-52.2	14.1	1.50e-06	0	44	0	296747008	68	5530
2026-01-13 12:11:40.99	277.44	12.35	-48.5	-52.3	13.9	5.30e-06	0	44	0	303038464	68	5634
2026-01-13 12:11:43.71	277.97	12.36	-48.6	-52.5	13.8	2.20e-06	0	44	0	308281344	68	5742
2026-01-13 12:11:47.00	278.61	12.36	-48.5	-52.3	14.0	3.80e-06	0	44	0	314572800	68	5596
2026-01-13 12:11:49.72	279.14	12.36	-48.4	-52.2	14.0	2.20e-06	0	44	0	319815680	68	5554
2026-01-13 12:11:53.00	279.77	12.35	-48.4	-52.1	14.2	1.50e-06	0	44	0	326107136	68	5467
2026-01-13 12:11:55.83	280.32	12.35	-48.3	-51.9	14.3	0.00e+00	0	44	0	331350016	68	5380
2026-01-13 12:11:59.33	281.00	12.34	-48.0	-51.4	14.8	0.00e+00	0	44	0	337641472	68	5072
2026-01-13 12:12:02.55	281.63	12.33	-47.7	-51.0	15.1	0.00e+00	0	44	0	343932928	67	5110
2026-01-13 12:12:05.39	282.18	12.31	-47.8	-51.1	15.0	0.00e+00	0	44	0	349175808	67	5168
2026-01-13 12:12:08.52	282.79	12.30	-47.8	-51.2	14.9	0.00e+00	0	44	0	355467264	67	5222
2026-01-13 12:12:11.37	283.34	12.28	-47.7	-51.0	15.0	0.00e+00	0	44	0	360710144	67	5136
2026-01-13 12:12:14.49	283.94	12.25	-47.6	-50.8	15.2	0.00e+00	0	44	0	365953024	67	5030
2026-01-13 12:12:17.34	284.49	12.23	-47.6	-50.9	15.1	0.00e+00	0	44	0	371195904	67	5089
2026-01-13 12:12:20.64	285.12	12.20	-47.6	-50.9	15.1	0.00e+00	0	44	0	377487360	67	5092
2026-01-13 12:12:23.34	285.64	12.17	-47.6	-50.9	15.1	0.00e+00	0	44	0	382730240	67	5075
2026-01-13 12:12:26.63	286.27	12.14	-47.6	-50.8	15.3	0.00e+00	0	44	0	389021696	67	4999
2026-01-13 12:12:29.71	286.86	12.10	-47.6	-50.9	15.1	0.00e+00	0	44	0	394264576	67	5067
2026-01-13 12:12:32.82	287.45	12.06	-47.8	-51.1	14.9	0.00e+00	0	44	0	400556032	67	5199
2026-01-13 12:12:35.81	288.02	12.02	-47.9	-51.2	14.8	7.00e-07	0	44	0	405798912	67	5259
2026-01-13 12:12:38.79	288.59	11.98	-48.0	-51.5	14.6	0.00e+00	0	44	0	412090368	67	5426
2026-01-13 12:12:41.77	289.15	11.93	-48.0	-51.4	14.6	7.00e-07	0	44	0	417333248	67	5399
2026-01-13 12:12:44.76	289.72	11.89	-48.0	-51.5	14.6	7.00e-07	0	44	0	422576128	67	5417
2026-01-13 12:12:47.84	290.29	11.83	-48.1	-51.5	14.5	0.00e+00	0	44	0	428867584	67	5456
2026-01-13 12:12:50.84	290.86	11.78	-48.2	-51.8	14.3	7.00e-07	0	44	0	434110464	67	5603
2026-01-13 12:12:53.97	291.44	11.73	-48.4	-52.1	13.9	1.50e-06	0	44	0	440401920	67	5833
2026-01-13 12:12:56.81	291.97	11.67	-48.4	-52.0	14.0	0.00e+00	0	44	0	445644800	67	5775
2026-01-13 12:12:59.94	292.55	11.61	-48.2	-51.7	14.3	0.00e+00	0	44	0	451936256	67	5556
2026-01-13 12:13:02.78	293.07	11.55	-48.0	-51.5	14.6	0.00e+00	0	44	0	457179136	67	5411
2026-01-13 12:13:06.08	293.68	11.48	-48.0	-51.5	14.6	1.50e-06	0	44	0	463470592	67	5417
2026-01-13 12:13:08.78	294.17	11.42	-48.1	-51.5	14.5	7.00e-07	0	44	0	467664896	67	5448
2026-01-13 12:13:12.05	294.76	11.35	-48.0	-51.4	14.6	7.00e-07	0	44	0	473956352	67	5390
2026-01-13 12:13:14.78	295.26	11.28	-48.2	-51.6	14.4	1.50e-06	0	44	0	479199232	67	5528
2026-01-13 12:13:18.07	295.85	11.20	-48.1	-51.6	14.4	7.00e-07	0	44	0	485490688	67	5517
2026-01-13 12:13:20.83	296.35	11.13	-48.0	-51.4	14.6	0.00e+00	0	44	0	490733568	67	5389
2026-01-13 12:13:24.10	296.93	11.05	-48.1	-51.6	14.5	7.00e-07	0	44	0	497025024	67	5488
2026-01-13 12:13:27.08	297.46	10.97	-48.0	-51.5	14.5	7.00e-07	0	44	0	502267904	67	5421
2026-01-13 12:13:30.07	297.99	10.89	-48.1	-51.6	14.4	7.00e-07	0	44	0	507510784	67	5511
2026-01-13 12:13:33.15	298.53	10.81	-48.2	-51.8	14.2	3.00e-06	0	44	0	513802240	67	5654
2026-01-13 12:13:36.14	299.05	10.72	-48.3	-51.9	14.1	1.50e-06	0	44	0	519045120	67	5707
2026-01-13 12:13:39.13	299.57	10.64	-48.2	-52.0	14.0	7.00e-07	0	44	0	525336576	67	5734
2026-01-13 12:13:42.46	300.14	10.54	-48.0	-51.6	14.4	1.50e-06	0	44	0	531628032	67	5488
2026-01-13 12:13:45.17	300.61	10.46	-48.1	-51.6	14.4	0.00e+00	0	44	0	535822336	67	5496
2026-01-13 12:13:48.44	301.16	10.36	-48.1	-51.7	14.2	2.20e-06	0	44	0	542113792	67	5588
2026-01-13 12:13:51.17	301.63	10.28	-48.3	-52.0	13.9	3.00e-06	0	44	0	547356672	67	5772
2026-01-13 12:13:54.46	302.18	10.17	-48.2	-51.9	14.0	1.50e-06	0	44	0	553648128	67	5689
2026-01-13 12:13:57.35	302.66	10.08	-48.2	-51.9	13.9	5.30e-06	0	44	0	558891008	67	5715
2026-01-13 12:14:00.75	303.23	9.97	-48.3	-52.1	13.8	3.00e-06	0	44	0	565182464	67	5807
2026-01-13 12:14:03.53	303.69	9.88	-48.4	-52.3	13.5	6.10e-06	0	44	0	570425344	67	5949
2026-01-13 12:14:06.81	304.23	9.77	-48.9	-53.0	13.0	1.90e-05	0	44	0	576716800	68	6119
2026-01-13 12:14:09.54	304.67	9.68	-49.0	-53.3	12.7	5.72e-05	0	44	0	581959680	68	6311
2026-01-13 12:14:12.81	305.20	9.56	-49.2	-53.9	12.1	2.55e-04	0	44	0	588251136	69	6360
2026-01-13 12:14:15.70	305.66	9.46	-49.1	-53.9	12.0	4.09e-04	0	44	0	593494016	69	6420
2026-01-13 12:14:18.82	306.16	9.35	-48.9	-53.7	12.2	2.27e-04	0	44	0	599785472	69	6251
2026-01-13 12:14:21.67	306.61	9.25	-48.9	-53.7	12.2	1.68e-04	0	44	0	605028352	69	6235
2026-01-13 12:14:24.79	307.10	9.14	-49.2	-54.1	11.8	4.26e-04	0	44	0	610271232	69	6543
2026-01-13 12:14:27.63	307.54	9.03	-49.4	-54.3	11.6	7.61e-04	0	44	0	615514112	69	6684
2026-01-13 12:14:30.76	308.03	8.92	-52.3	-67.4	3.8	1.49e+00	0	44	104	617611264	75	21430
2026-01-13 12:14:33.60	308.46	8.81	-52.5	-67.7	3.8	1.49e+00	0	44	104	617611264	75	22094
2026-01-13 12:14:36.72	308.94	8.69	-52.5	-67.7	3.8	1.49e+00	0	44	104	617611264	75	22235
2026-01-13 12:14:39.55	309.37	8.59	-52.7	-67.8	3.8	1.49e+00	0	44	104	617611264	76	21217
2026-01-13 12:14:42.68	309.84	8.47	-52.7	-67.8	3.8	1.49e+00	0	44	104	617611264	76	21230
2026-01-13 12:14:45.51	310.26	8.36	-52.6	-67.9	3.8	1.49e+00	0	44	104	617611264	76	21275
2026-01-13 12:14:48.64	310.72	8.24	-52.6	-67.8	3.8	1.49e+00	0	44	104	617611264	76	21194
2026-01-13 12:14:51.48	311.14	8.12	-52.4	-67.8	3.8	1.49e+00	0	44	104	617611264	76	21128
2026-01-13 12:14:54.60	311.59	8.00	-52.5	-67.8	3.8	1.49e+00	0	44	104	617611264	76	21054
2026-01-13 12:14:57.44	312.01	7.89	-52.4	-67.8	3.8	1.49e+00	0	44	104	617611264	76	21113
2026-01-13 12:15:00.56	312.45	7.76	-52.5	-67.8	3.8	1.49e+00	0	44	104	617611264	76	21049
2026-01-13 12:15:03.40	312.86	7.65	-52.5	-67.8	3.8	1.49e+00	0	44	104	617611264	76	21193
2026-01-13 12:15:06.52	313.30	7.52	-52.5	-67.8	3.8	1.49e+00	0	44	104	617611264	76	21099
2026-01-13 12:15:09.36	313.69	7.41	-52.5	-67.8	3.8	1.49e+00	0	44	104	617611264	76	21142
2026-01-13 12:15:12.48	314.13	7.28	-52.5	-67.8	3.8	1.49e+00	0	44	104	617611264	76	21103
2026-01-13 12:15:15.32	314.52	7.16	-52.5	-67.8	3.8	1.49e+00	0	44	104	617611264	76	21071
2026-01-13 12:15:18.44	314.94	7.03	-52.4	-67.8	3.8	1.49e+00	0	44	104	617611264	76	21052
2026-01-13 12:15:21.28	315.33	6.91	-52.5	-67.7	3.8	1.49e+00	0	44	104	617611264	76	21006
2026-01-13 12:15:24.40	315.75	6.78	-52.4	-67.7	3.8	1.49e+00	0	44	104	617611264	76	21004
2026-01-13 12:15:27.23	316.13	6.66	-52.4	-67.7	3.8	1.49e+00	0	44	104	617611264	76	20995
2026-01-13 12:15:30.35	316.54	6.53	-52.4	-67.7	3.8	1.49e+00	0	44	104	617611264	76	20990
2026-01-13 12:15:33.19	316.91	6.41	-52.4	-67.7	3.8	1.49e+00	0	44	104	617611264	76	20941
2026-01-13 12:15:36.31	317.32	6.28	-52.4	-67.7	3.8	1.49e+00	0	44	104	617611264	76	20953
2026-01-13 12:15:39.15	317.68	6.16	-52.4	-67.7	3.8	1.49e+00	0	44	104	617611264	76	20855
2026-01-13 12:15:42.27	318.08	6.02	-52.4	-67.7	3.8	1.49e+00	0	44	104	617611264	76	20827
2026-01-13 12:15:45.11	318.44	5.90	-52.4	-67.7	3.8	1.49e+00	0	44	104	617611264	76	20801
2026-01-13 12:15:48.23	318.83	5.77	-52.3	-67.7	3.8	1.49e+00	0	44	104	617611264	76	20804
2026-01-13 12:15:51.07	319.19	5.64	-52.3	-67.6	3.8	1.49e+00	0	44	104	617611264	76	20715
2026-01-13 12:15:54.19	319.57	5.51	-52.3	-67.6	3.8	1.49e+00	0	44	104	617611264	76	20644
2026-01-13 12:15:57.03	319.92	5.39	-52.3	-67.6	3.8	1.49e+00	0	44	104	617611264	76	20584
2026-01-13 12:16:00.15	320.30	5.25	-52.2	-67.6	3.8	1.49e+00	0	44	104	617611264	76	20576
2026-01-13 12:16:02.98	320.64	5.13	-52.2	-67.6	3.8	1.49e+00	0	44	104	617611264	76	20587
2026-01-13 12:16:06.11	321.01	4.99	-52.2	-67.5	3.8	1.49e+00	0	44	104	617611264	76	20467

#Closed at: 2026-01-13 12:16:06
#Recorded file [617 MB]: D:/Data/31040_260113_150732.dat